"Interval"|"ms"|0|0|1,"Utc"|"ms"|0|0|1,"Brake_F"|"Bar"|0|2000|10,"Brake_R"|"Bar"|0|2000|10,"Height_RF"|"mm"|0|255|10,"Height_LF"|"mm"|0|255|10,"Height_LR"|"mm"|0|80|10,"Height_RR"|"mm"|0|255|10,"Steering"|"deg"|-100|100|10,"AccelX"|"G"|-3.0|3.0|50,"AccelY"|"G"|-3.0|3.0|50,"AccelZ"|"G"|-3.0|3.0|50,"Yaw"|"Deg/Sec"|-120|120|50,"Pitch"|"Deg/Sec"|-120|120|50,"Roll"|"Deg/Sec"|-120|120|50,"Gsum"|"G"|0.0|3.0|50,"Log_Button"|""|0.0|10.0|10,"WaterTemp"|"C"|0|150|50,"RPM"|"tr/min"|0|14000|50,"TPS"|"%"|0|100|50,"AirTemp"|"C"|0|150|50,"MAP"|"KPa"|0|100|50,"Lambda"|""|0.5|1.5|50,"SpeedDTA"|"kph"|0.0|250.0|50,"OilPress"|"KPa"|0|1500|50,"FuelPressur"|"Bar"|0.0|10.0|50,"Batterie"|"V"|0.0|20.0|50,"ConsoKm"|"L/100km"|0.0|200.0|50,"Gear"|""|0|6|50,"AdvIgnition"|"Deg"|-20.0|70.0|50,"Injection"|"ms"|0.0|10.0|50,"ConsoHr"|"L/Hr"|0.0|10000.0|50,"LC_But_Pres"|""|0|1|50,"LC_Active"|""|0|1|50,"TractionOn"|""|0|1|50,"TractionWet"|""|0|1|50,"FanOn"|""|0|1|50,"RD_Speed"|"km/h"|-30|250|50,"RUD_Speed"|"km/h"|-30|250|50,"LD_Speed"|"km/h"|-30|250|50,"LUD_Speed"|"km/h"|-30|250|50,"Latitude"|"Degrees"|-180.0|180.0|10,"Longitude"|"Degrees"|-180.0|180.0|10,"Speed"|"kph"|0.0|150.0|10,"Altitude"|"m"|0.0|4000.0|10,"GPSSats"|""|0|20|10,"GPSQual"|""|0|5|10,"GPSDOP"|""|0.0|20.0|10,"LapCount"|""|0|0|10,"LapTime"|"Min"|0.0|0.0|10,"Sector"|""|0|0|10,"SectorTime"|"Min"|0.0|0.0|10,"PredTime"|"Min"|0.0|0.0|5,"ElapsedTime"|"Min"|0.0|0.0|10,"CurrentLap"|""|0|0|10,"Distance"|"km"|0.0|0.0|10,"SessionTime"|"Min"|0.0|0.0|10
22063,0,,,,,,,,0.17,-0.09,-1.64,0,-5,-7,0.19,,70,7878,12,40,42,0.5,0.0,647,4.9,13.2,0.0,1,32.9,2.27,8.2,0,0,0,1,0,0,250,250,0,,,,,,,,,,,,,,,,
22083,0,,,,,,,,0.13,-0.17,-1.84,0,-3,-4,0.21,,70,7944,12,40,42,0.5,0.0,652,4.93,13.1,0.0,1,33.0,1.19,8.2,0,0,0,1,0,0,250,250,0,,,,,,,,,,,,,,,,
22103,0,,,,,,,,0.12,-0.1,-2.02,0,-2,-2,0.16,,70,8005,12,40,41,0.5,0.0,662,4.9,13.0,0.0,1,32.4,2.28,8.2,0,0,0,1,0,0,250,250,0,,,,,,,,,,,,,,,,
22123,0,,,,,,,,0.11,-0.1,-1.85,0,-4,-6,0.15,,70,8085,12,40,41,0.5,0.0,655,4.93,13.1,0.0,1,32.4,2.35,8.2,0,0,0,1,0,0,250,250,0,,,,,,,,,,,,,,,,
22143,0,-0,2,38,39,33,33,-38,0.09,-0.18,-2.03,0,-2,-2,0.2,1,70,8148,12,40,40,0.5,0.0,652,4.93,13.1,0.0,1,31.8,1.32,8.2,0,0,0,1,0,0,250,250,0,0.0,0.0,0.0,0.0,0,0,0.0,0,0.0,-1,0.0,,0.0,0,0.0,0.369
22163,0,,,,,,,,0.1,-0.13,-1.86,0,-2,-3,0.16,,70,8187,12,40,40,0.5,0.0,658,4.92,13.0,0.0,1,31.9,2.43,9.1,0,0,0,1,0,0,250,250,0,,,,,,,,,,,,,,,,
22183,0,,,,,,,,0.09,-0.15,-2.04,0,-2,-2,0.18,,70,8245,12,40,39,0.5,0.0,662,4.92,13.1,0.0,1,31.4,1.39,9.1,0,0,0,1,0,0,250,250,0,,,,,,,,,,,,,,,,
22203,0,,,,,,,,0.07,-0.06,-1.87,1,-3,-2,0.09,,70,8296,12,40,39,0.5,0.0,657,4.86,13.1,0.0,1,31.5,2.51,9.1,0,0,0,1,0,0,250,250,0,,,,,,,,,,,,,,,,
22223,0,,,,,,,,0.08,-0.09,-2.05,1,-1,-0,0.12,,70,8325,12,40,38,0.5,0.0,668,4.93,13.1,0.0,1,31.3,1.41,9.1,0,0,0,1,0,0,250,250,0,,,,,,,,,,,,,,,,
22243,0,0,0,38,39,33,34,-37,0.06,-0.01,-1.96,1,-1,-2,0.06,0,70,8344,12,40,38,0.5,0.0,663,4.86,13.1,0.0,1,31.3,2.5,9.1,0,0,0,1,0,0,250,250,0,0.0,0.0,0.0,0.0,0,0,0.0,0,0.0,-1,0.0,0.0,0.0,0,0.0,0.3707
22263,0,,,,,,,,0.07,-0.08,-2.13,1,-1,-1,0.1,,70,8389,12,40,38,0.5,0.0,674,4.91,13.0,0.0,1,31.4,1.47,9.7,0,0,0,1,0,0,250,250,0,,,,,,,,,,,,,,,,
22283,0,,,,,,,,0.05,-0.02,-2.05,1,-1,-1,0.05,,70,8430,12,40,37,0.5,0.0,659,4.87,13.0,0.0,1,31.2,2.53,9.7,0,0,0,1,0,0,250,250,0,,,,,,,,,,,,,,,,
22303,0,,,,,,,,0.05,-0.05,-1.99,1,-1,-1,0.06,,70,8438,12,40,37,0.5,0.0,662,4.92,13.1,0.0,1,31.2,2.54,9.7,0,0,0,1,0,0,250,250,0,,,,,,,,,,,,,,,,
22323,0,,,,,,,,0.05,-0.06,-2.16,1,-0,0,0.08,,70,8411,12,40,37,0.5,0.0,671,4.93,13.0,0.0,1,31.2,1.44,9.7,0,0,0,1,0,0,250,250,0,,,,,,,,,,,,,,,,
22343,0,-0,2,38,39,33,33,-37,0.03,-0.02,-2.09,0,-1,-2,0.04,0,70,8396,12,40,36,0.5,0.0,671,4.93,13.1,0.0,1,30.8,2.5,9.7,0,0,0,1,0,0,250,250,0,0.0,0.0,0.0,0.0,0,0,0.0,0,0.0,-1,0.0,,0.0,0,0.0,0.3724
22363,0,,,,,,,,0.04,-0.04,-2.25,1,-0,-1,0.06,,70,8366,12,40,36,0.5,0.0,671,4.91,13.0,0.0,1,30.8,1.36,9.4,0,0,0,1,0,0,250,250,0,,,,,,,,,,,,,,,,
22383,0,,,,,,,,0.02,0.0,-2.09,0,-1,-2,0.02,,70,8344,12,40,36,0.5,0.0,661,4.87,13.1,0.0,1,30.7,1.34,9.4,0,0,0,1,0,0,250,250,0,,,,,,,,,,,,,,,,
22403,0,,,,,,,,0.02,-0.01,-2.21,1,-1,-0,0.03,,70,8325,12,40,36,0.5,0.0,656,4.93,13.1,0.0,1,30.7,2.4,9.4,0,0,0,1,0,0,250,250,0,,,,,,,,,,,,,,,,
22423,0,,,,,,,,0.02,-0.02,-2.36,0,0,-0,0.03,,70,8300,12,40,36,0.5,0.0,663,4.88,13.1,0.0,1,30.7,2.37,9.4,0,0,0,1,0,0,250,250,0,,,,,,,,,,,,,,,,
22443,0,0,1,38,39,33,34,-37,0.03,0.0,-2.45,0,-0,0,0.03,0,70,8292,12,40,36,0.5,0.0,670,4.95,13.0,0.0,1,30.6,2.36,9.4,0,0,0,1,0,0,250,250,0,0.0,0.0,0.0,0.0,0,0,0.0,0,0.0,-1,0.0,0.0,0.0,0,0.0,0.374
22463,0,,,,,,,,0.04,-0.07,-2.44,0,-1,-1,0.08,,70,8270,12,40,36,0.5,0.0,666,4.92,13.0,0.0,1,30.6,1.25,9.0,0,0,0,1,0,0,250,250,0,,,,,,,,,,,,,,,,
22483,0,,,,,,,,0.04,-0.02,-2.3,0,-1,-1,0.05,,70,8256,12,40,36,0.5,0.0,665,4.96,13.0,0.0,1,30.6,2.33,9.0,0,0,0,1,0,0,250,250,0,,,,,,,,,,,,,,,,
22503,0,,,,,,,,0.02,-0.07,-2.44,0,-0,-1,0.07,,70,8230,12,40,36,0.5,0.0,665,4.94,13.1,0.0,1,30.5,1.23,9.0,0,0,0,1,0,0,250,250,0,,,,,,,,,,,,,,,,
22523,0,,,,,,,,0.02,-0.01,-2.52,0,-1,-0,0.02,,70,8198,12,40,36,0.5,0.0,660,4.87,13.1,0.0,1,30.4,2.29,9.0,0,0,0,1,0,0,250,250,0,,,,,,,,,,,,,,,,
22543,0,-0,1,38,39,33,33,-36,0.03,-0.03,-2.44,0,-1,-2,0.04,0,70,8212,12,40,36,0.5,0.0,647,4.82,13.1,0.0,1,30.5,1.21,9.0,0,0,0,1,0,0,250,250,0,0.0,0.0,0.0,0.0,0,0,0.0,0,0.0,-1,0.0,,0.0,0,0.0,0.3757
22563,0,,,,,,,,0.02,-0.01,-2.56,0,0,1,0.03,,70,8184,12,40,36,0.5,0.0,660,4.91,13.1,0.0,1,30.4,2.28,8.6,0,0,0,1,0,0,250,250,0,,,,,,,,,,,,,,,,
22583,0,,,,,,,,0.03,-0.05,-2.48,0,-1,-1,0.06,,70,8130,12,40,36,0.5,0.0,653,4.91,13.1,0.0,1,30.3,1.14,8.6,0,0,0,1,0,0,250,250,0,,,,,,,,,,,,,,,,
22603,0,,,,,,,,0.02,-0.04,-2.61,0,1,3,0.04,,70,8148,12,40,37,0.5,0.0,657,5.01,13.0,0.0,1,30.6,1.21,8.6,0,0,0,1,0,0,250,250,0,,,,,,,,,,,,,,,,
22623,0,,,,,,,,0.05,0.01,-2.39,0,-1,-1,0.05,,70,8127,12,40,36,0.5,0.0,652,4.86,13.1,0.0,1,30.3,2.22,8.6,0,0,0,1,0,0,250,250,0,,,,,,,,,,,,,,,,
22643,0,-0,2,38,39,33,34,-37,0.02,-0.03,-2.52,0,1,2,0.04,0,70,8127,12,40,37,0.5,0.0,658,4.92,13.0,0.0,1,30.6,1.18,8.6,0,0,0,1,0,0,250,250,0,0.0,0.0,0.0,0.0,0,0,0.0,0,0.0,-1,0.0,0.0,0.0,0,0.0,0.3774
22663,0,,,,,,,,0.04,0.08,-2.47,1,-0,0,0.09,,70,8106,12,40,37,0.5,0.0,655,4.87,13.1,0.0,1,30.6,2.25,8.5,0,0,0,1,0,0,250,250,0,,,,,,,,,,,,,,,,
22683,0,,,,,,,,0.06,-0.03,-2.28,0,-1,-2,0.07,,70,8088,12,40,37,0.5,0.0,652,4.86,13.2,0.0,1,30.5,2.23,8.5,0,0,0,1,0,0,250,250,0,,,,,,,,,,,,,,,,
22703,0,,,,,,,,0.05,0.02,-2.43,0,1,2,0.05,,70,8099,12,40,37,0.5,0.0,660,4.98,13.1,0.0,1,30.5,1.16,8.5,0,0,0,1,0,0,250,250,0,,,,,,,,,,,,,,,,
22723,0,,,,,,,,0.05,0.09,-2.22,0,-1,-3,0.1,,70,8088,12,40,37,0.5,0.0,659,4.86,13.1,0.0,1,30.5,2.23,8.5,0,0,0,1,0,0,250,250,0,,,,,,,,,,,,,,,,
22743,0,1,0,38,39,33,33,-36,0.05,0.01,-2.37,0,-0,-1,0.05,0,70,8085,12,40,37,0.5,0.0,655,4.97,13.1,0.0,1,30.5,1.14,8.5,0,0,0,1,0,0,250,250,0,0.0,0.0,0.0,0.0,0,0,0.0,0,0.0,-1,0.0,,0.0,0,0.0,0.379
22763,0,,,,,,,,0.05,0.06,-2.28,0,-1,-2,0.08,,70,8102,12,40,37,0.5,0.0,651,4.83,13.1,0.0,1,30.6,2.25,8.3,0,0,0,1,0,0,250,250,0,,,,,,,,,,,,,,,,
22783,0,,,,,,,,0.03,-0.0,-2.16,-0,-1,-4,0.03,,70,8113,12,40,37,0.5,0.0,658,4.85,13.1,0.0,1,30.6,1.17,8.3,0,0,0,1,0,0,250,250,0,,,,,,,,,,,,,,,,
22803,0,,,,,,,,0.0,0.02,-2.31,0,-0,-1,0.02,,70,8116,12,40,37,0.5,0.0,673,4.97,13.0,0.0,1,30.6,2.26,8.3,0,0,0,1,0,0,250,250,0,,,,,,,,,,,,,,,,
22823,0,,,,,,,,0.01,0.06,-2.12,-0,-2,-5,0.06,,70,8145,12,40,37,0.5,0.0,657,4.86,13.1,0.0,1,30.6,2.29,8.3,0,0,0,1,0,0,250,250,0,,,,,,,,,,,,,,,,
22843,0,1,1,38,39,33,34,-37,-0.01,-0.03,-2.27,0,0,-1,0.03,0,70,8134,12,40,37,0.5,0.0,651,4.9,13.1,0.0,1,30.6,1.19,8.3,0,0,0,1,0,0,250,250,0,0.0,0.0,0.0,0.0,0,0,0.0,0,0.0,-1,0.0,0.0,0.0,0,0.0,0.3807
22863,0,,,,,,,,-0.0,0.02,-2.21,0,-1,-3,0.02,,70,8138,12,40,37,0.5,0.0,659,4.85,13.2,0.0,1,30.6,2.29,8.7,0,0,0,1,0,0,250,250,0,,,,,,,,,,,,,,,,
22883,0,,,,,,,,0.02,-0.03,-2.27,0,-1,-2,0.04,,70,8169,12,40,37,0.5,0.0,655,4.86,13.1,0.0,1,30.7,2.3,8.7,0,0,0,1,0,0,250,250,0,,,,,,,,,,,,,,,,
22903,0,,,,,,,,0.02,0.01,-2.08,1,-1,-1,0.02,,70,8187,12,40,37,0.5,0.0,653,4.96,13.0,0.0,1,30.7,2.32,8.7,0,0,0,1,0,0,250,250,0,,,,,,,,,,,,,,,,
22923,0,,,,,,,,-0.0,-0.03,-2.24,0,-0,-1,0.03,,70,8187,12,40,37,0.5,0.0,657,4.87,13.1,0.0,1,30.7,1.24,8.7,0,0,0,1,0,0,250,250,0,,,,,,,,,,,,,,,,
22943,0,-1,2,38,39,33,33,-37,0.0,0.07,-2.06,0,-0,1,0.07,0,70,8191,12,40,37,0.5,0.0,664,4.96,13.1,0.0,1,30.7,2.32,8.7,0,0,0,1,0,0,250,250,0,0.0,0.0,0.0,0.0,0,0,0.0,0,0.0,-1,0.0,,0.0,0,0.0,0.3824
22963,0,,,,,,,,0.02,-0.02,-2.22,0,-1,-2,0.02,,70,8212,12,40,37,0.5,0.0,653,4.91,13.1,0.0,1,30.8,1.26,8.8,0,0,0,1,0,0,250,250,0,,,,,,,,,,,,,,,,
22983,0,,,,,,,,0.02,0.01,-2.03,0,-0,1,0.02,,70,8227,12,40,37,0.5,0.0,661,4.97,13.0,0.0,1,30.8,2.35,8.8,0,0,0,1,0,0,250,250,0,,,,,,,,,,,,,,,,
23003,0,,,,,,,,0.01,-0.1,-2.2,0,-1,-2,0.1,,70,8212,12,40,37,0.5,0.0,658,4.87,13.2,0.0,1,30.8,2.34,8.8,0,0,0,1,0,0,250,250,0,,,,,,,,,,,,,,,,
23023,0,,,,,,,,0.02,-0.03,-2.2,0,-0,-0,0.03,,70,8227,12,40,37,0.5,0.0,673,4.94,13.1,0.0,1,30.8,2.35,8.8,0,0,0,1,0,0,250,250,0,,,,,,,,,,,,,,,,
23043,0,0,2,38,39,33,33,-36,0.02,-0.04,-2.29,-0,-1,-3,0.04,0,70,8230,12,40,37,0.5,0.0,655,4.9,13.1,0.0,1,30.8,1.28,8.8,0,0,0,1,0,0,250,250,0,0.0,0.0,0.0,0.0,0,0,0.0,0,0.0,-1,0.0,0.0,0.0,0,0.0,0.384
23063,0,,,,,,,,0.01,0.0,-2.28,0,0,0,0.01,,70,8241,12,40,37,0.5,0.0,661,4.93,13.1,0.0,1,30.8,2.37,9.0,0,0,0,1,0,0,250,250,0,,,,,,,,,,,,,,,,
23083,0,,,,,,,,0.02,-0.06,-2.42,0,-0,-1,0.06,,70,8245,12,40,36,0.5,0.0,664,4.81,13.1,0.0,1,30.5,1.24,9.0,0,0,0,1,0,0,250,250,0,,,,,,,,,,,,,,,,
23103,0,,,,,,,,0.04,0.0,-2.46,0,1,2,0.04,,70,8238,12,40,37,0.5,0.0,670,4.9,13.0,0.0,1,30.8,1.28,9.0,0,0,0,1,0,0,250,250,0,,,,,,,,,,,,,,,,
23123,0,,,,,,,,0.03,-0.05,-2.41,0,-1,-1,0.06,,70,8263,12,40,37,0.5,0.0,655,4.92,13.1,0.0,1,30.9,1.31,9.0,0,0,0,1,0,0,250,250,0,,,,,,,,,,,,,,,,
23143,0,0,1,37,39,33,34,-37,0.04,-0.02,-2.36,0,0,1,0.04,0,70,8256,12,40,37,0.5,0.0,655,4.93,13.0,0.0,1,30.9,1.3,9.0,0,0,0,1,0,0,250,250,0,0.0,0.0,0.0,0.0,0,0,0.0,0,0.0,-1,0.0,,0.0,0,0.0,0.3857
23163,0,,,,,,,,0.03,-0.08,-2.5,0,-0,-2,0.09,,70,8241,12,40,36,0.5,0.0,657,4.85,13.2,0.0,1,30.5,2.32,8.9,0,0,0,1,0,0,250,250,0,,,,,,,,,,,,,,,,
23183,0,,,,,,,,0.02,-0.04,-2.55,0,1,0,0.05,,70,8227,12,40,36,0.5,0.0,668,4.9,13.0,0.0,1,30.5,1.22,8.9,0,0,0,1,0,0,250,250,0,,,,,,,,,,,,,,,,
23203,0,,,,,,,,0.01,-0.07,-2.49,0,-1,-2,0.07,,70,8230,12,40,36,0.5,0.0,658,4.83,13.1,0.0,1,30.5,1.23,8.9,0,0,0,1,0,0,250,250,0,,,,,,,,,,,,,,,,
23223,0,,,,,,,,0.01,-0.03,-2.62,0,1,1,0.03,,70,8202,12,40,37,0.5,0.0,666,4.92,13.1,0.0,1,30.8,2.33,8.9,0,0,0,1,0,0,250,250,0,,,,,,,,,,,,,,,,
23243,0,0,0,38,39,33,33,-36,0.02,-0.04,-2.61,0,-0,-1,0.05,0,70,8205,12,40,36,0.5,0.0,661,4.9,13.1,0.0,1,30.5,2.34,8.9,0,0,0,1,0,0,250,250,0,0.0,0.0,0.0,0.0,0,0,0.0,0,0.0,-1,0.0,0.0,0.0,0,0.0,0.3874
23263,0,,,,,,,,0.02,-0.05,-2.73,0,1,2,0.05,,70,8209,12,40,37,0.5,0.0,676,4.98,13.0,0.0,1,30.8,1.26,8.8,0,0,0,1,0,0,250,250,0,,,,,,,,,,,,,,,,
23283,0,,,,,,,,0.01,-0.06,-2.5,0,-1,-0,0.06,,70,8212,12,39,36,0.5,0.0,658,4.86,13.1,0.0,1,30.5,2.35,8.8,0,0,0,1,0,0,250,250,0,,,,,,,,,,,,,,,,
23303,0,,,,,,,,0.01,-0.02,-2.62,0,1,2,0.03,,70,8209,12,39,37,0.5,0.0,665,4.97,13.0,0.0,1,30.8,1.26,8.8,0,0,0,1,0,0,250,250,0,,,,,,,,,,,,,,,,
23323,0,,,,,,,,-0.01,0.03,-2.41,1,0,-0,0.03,,70,8198,12,39,36,0.5,0.0,661,4.85,13.2,0.0,1,30.4,2.35,8.8,0,0,0,1,0,0,250,250,0,,,,,,,,,,,,,,,,
23343,0,0,2,37,39,33,34,-37,-0.01,-0.02,-2.54,0,0,-0,0.02,0,70,8184,12,40,36,0.5,0.0,652,4.87,13.2,0.0,1,30.4,1.19,8.8,0,0,0,1,0,0,250,250,0,0.0,0.0,0.0,0.0,0,0,0.0,0,0.0,-1,0.0,,0.0,0,0.0,0.389
23363,0,,,,,,,,0.0,0.0,-2.33,1,-1,-0,0.0,,70,8205,12,39,37,0.5,0.0,654,4.88,13.1,0.0,1,30.8,2.35,8.8,0,0,0,1,0,0,250,250,0,,,,,,,,,,,,,,,,
23383,0,,,,,,,,-0.01,-0.11,-2.47,0,0,-1,0.11,,70,8194,12,39,37,0.5,0.0,657,4.93,13.1,0.0,1,30.7,1.25,8.8,0,0,0,1,0,0,250,250,0,,,,,,,,,,,,,,,,
23403,0,,,,,,,,-0.02,-0.06,-2.3,1,0,-0,0.06,,70,8198,12,39,37,0.5,0.0,658,4.87,13.1,0.0,1,30.7,2.35,8.8,0,0,0,1,0,0,250,250,0,,,,,,,,,,,,,,,,
23423,0,,,,,,,,0.01,-0.09,-2.44,0,-1,-2,0.09,,70,8220,12,39,37,0.5,0.0,663,4.93,13.1,0.0,1,30.8,2.36,8.8,0,0,0,1,0,0,250,250,0,,,,,,,,,,,,,,,,
23443,0,0,2,38,39,33,33,-36,0.01,-0.0,-2.23,1,0,1,0.01,0,70,8227,12,39,36,0.5,0.0,658,4.85,13.0,0.0,1,30.5,2.36,8.8,0,0,0,1,0,0,250,250,0,0.0,0.0,0.0,0.0,0,0,0.0,0,0.0,-1,0.0,0.0,0.0,0,0.0,0.3907
23463,0,,,,,,,,0.01,-0.06,-2.38,0,0,-0,0.07,,70,8216,12,39,36,0.5,0.0,656,4.86,13.1,0.0,1,30.5,1.22,8.9,0,0,0,1,0,0,250,250,0,,,,,,,,,,,,,,,,
23483,0,,,,,,,,0.02,0.01,-2.35,1,0,2,0.02,,70,8234,12,39,37,0.5,0.0,667,4.92,13.0,0.0,1,30.8,2.37,8.9,0,0,0,1,0,0,250,250,0,,,,,,,,,,,,,,,,
23503,0,,,,,,,,0.04,-0.08,-2.39,0,-1,-1,0.09,,70,8249,12,39,37,0.5,0.0,654,4.91,13.1,0.0,1,30.8,1.29,8.9,0,0,0,1,0,0,250,250,0,,,,,,,,,,,,,,,,
23523,0,,,,,,,,0.04,-0.05,-2.23,0,0,1,0.06,,70,8252,12,39,36,0.5,0.0,668,4.96,13.1,0.0,1,30.6,2.35,8.9,0,0,0,1,0,0,250,250,0,,,,,,,,,,,,,,,,
23543,0,0,0,38,39,33,33,-36,0.03,-0.12,-2.37,0,-0,-1,0.12,0,70,8249,12,39,36,0.5,0.0,661,4.88,13.2,0.0,1,30.5,2.34,8.9,0,0,0,1,0,0,250,250,0,0.0,0.0,0.0,0.0,0,0,0.0,0,0.0,-1,0.0,,0.0,0,0.0,0.3924
23563,0,,,,,,,,0.03,-0.05,-2.37,0,0,1,0.06,,70,8234,12,39,36,0.5,0.0,667,4.98,13.1,0.0,1,30.5,2.35,9.0,0,0,0,1,0,0,250,250,0,,,,,,,,,,,,,,,,
23583,0,,,,,,,,0.03,-0.06,-2.46,0,-1,-2,0.07,,70,8230,12,39,36,0.5,0.0,655,4.88,13.1,0.0,1,30.5,2.33,9.0,0,0,0,1,0,0,250,250,0,,,,,,,,,,,,,,,,
23603,0,,,,,,,,0.02,-0.01,-2.45,0,0,1,0.02,,70,8223,12,39,36,0.5,0.0,657,4.95,13.1,0.0,1,30.5,2.32,9.0,0,0,0,1,0,0,250,250,0,,,,,,,,,,,,,,,,
23623,0,,,,,,,,0.03,-0.07,-2.58,0,0,-0,0.08,,70,8216,12,39,36,0.5,0.0,657,4.87,13.2,0.0,1,30.5,1.22,9.0,0,0,0,1,0,0,250,250,0,,,,,,,,,,,,,,,,
23643,0,0,0,38,39,33,34,-37,0.04,-0.03,-2.65,0,1,3,0.05,0,70,8223,12,39,36,0.5,0.0,662,4.92,13.0,0.0,1,30.5,1.22,9.0,0,0,0,1,0,0,250,250,0,0.0,0.0,0.0,0.0,0,0,0.0,0,0.0,-1,0.0,0.0,0.0,0,0.0,0.394
23663,0,,,,,,,,0.03,-0.08,-2.5,0,-1,-0,0.09,,70,8220,12,39,36,0.5,0.0,647,4.93,13.1,0.0,1,30.5,2.32,8.7,0,0,0,1,0,0,250,250,0,,,,,,,,,,,,,,,,
23683,0,,,,,,,,0.03,-0.04,-2.62,0,1,3,0.05,,70,8209,12,39,36,0.5,0.0,659,4.93,13.0,0.0,1,30.5,1.21,8.7,0,0,0,1,0,0,250,250,0,,,,,,,,,,,,,,,,
23703,0,,,,,,,,0.02,-0.04,-2.48,0,-0,-1,0.04,,70,8184,12,39,35,0.5,0.0,657,4.85,13.2,0.0,1,30.1,2.24,8.7,0,0,0,1,0,0,250,250,0,,,,,,,,,,,,,,,,
23723,0,,,,,,,,0.01,-0.03,-2.6,0,1,1,0.03,,70,8187,11,39,35,0.5,0.0,663,4.98,13.1,0.0,1,30.1,1.13,8.7,0,0,0,1,0,0,250,250,0,,,,,,,,,,,,,,,,
23743,0,-0,2,38,39,33,33,-37,0.01,-0.01,-2.39,0,-1,-2,0.01,0,70,8152,11,39,35,0.5,0.0,650,4.83,13.2,0.0,1,30.1,2.21,8.7,0,0,0,1,0,0,250,250,0,0.0,0.0,0.0,0.0,0,0,0.0,0,0.0,-1,0.0,,0.0,0,0.0,0.3957
23763,0,,,,,,,,0.0,-0.11,-2.52,0,0,-0,0.11,,70,8127,11,39,35,0.5,0.0,659,4.91,13.1,0.0,1,30.0,2.18,8.3,0,0,0,1,0,0,250,250,0,,,,,,,,,,,,,,,,
23783,0,,,,,,,,0.02,-0.06,-2.34,0,-0,-0,0.06,,70,8106,11,39,35,0.5,0.0,671,4.97,13.0,0.0,1,30.0,2.16,8.3,0,0,0,1,0,0,250,250,0,,,,,,,,,,,,,,,,
23803,0,,,,,,,,0.03,-0.08,-2.4,0,-1,-2,0.09,,70,8088,11,39,35,0.5,0.0,652,4.92,13.1,0.0,1,29.9,2.14,8.3,0,0,0,1,0,0,250,250,0,,,,,,,,,,,,,,,,
23823,0,,,,,,,,0.02,-0.03,-2.53,0,0,1,0.04,,70,8061,11,39,35,0.5,0.0,663,4.88,13.0,0.0,1,29.9,1.02,8.3,0,0,0,1,0,0,250,250,0,,,,,,,,,,,,,,,,
23843,0,-0,2,38,39,33,33,-36,0.05,-0.03,-2.35,0,-1,-1,0.05,0,70,8036,11,39,36,0.5,0.0,666,4.94,13.0,0.0,1,30.1,1.05,8.3,0,0,0,1,0,0,250,250,0,0.0,0.0,0.0,0.0,0,0,0.0,0,0.0,-1,0.0,0.0,0.0,0,0.0,0.3974
23863,0,,,,,,,,0.04,-0.07,-2.48,0,-1,-1,0.08,,70,8002,11,39,36,0.5,0.0,651,4.93,13.2,0.0,1,30.1,2.12,7.9,0,0,0,1,0,0,250,250,0,,,,,,,,,,,,,,,,
23883,0,,,,,,,,0.03,-0.0,-2.61,1,1,2,0.03,,70,7999,11,39,36,0.5,0.0,653,4.98,13.0,0.0,1,30.1,1.01,7.9,0,0,0,1,0,0,250,250,0,,,,,,,,,,,,,,,,
23903,0,,,,,,,,0.05,0.01,-2.43,1,-0,1,0.05,,70,7978,11,39,36,0.5,0.0,647,4.87,13.2,0.0,1,30.1,2.11,7.9,0,0,0,1,0,0,250,250,0,,,,,,,,,,,,,,,,
23923,0,,,,,,,,0.05,-0.04,-2.56,0,-1,-1,0.07,,70,7965,11,39,36,0.5,0.0,659,4.96,13.1,0.0,1,30.1,1.01,7.9,0,0,0,1,0,0,250,250,0,,,,,,,,,,,,,,,,
23943,0,-1,2,38,39,33,33,-37,0.04,0.01,-2.68,1,2,3,0.04,0,70,7948,11,39,36,0.5,0.0,654,4.93,13.0,0.0,1,30.1,1.01,7.9,0,0,0,1,0,0,250,250,0,0.0,0.0,0.0,0.0,0,0,0.0,0,0.0,-1,0.0,,0.0,0,0.0,0.399
23963,0,,,,,,,,0.07,0.08,-2.48,1,1,2,0.1,,70,7918,11,39,36,0.5,0.0,648,4.88,13.1,0.0,1,30.1,1.01,7.7,0,0,0,1,0,0,250,250,0,,,,,,,,,,,,,,,,
23983,0,,,,,,,,0.09,0.02,-2.3,1,-1,-1,0.09,,70,7918,11,39,36,0.5,0.0,645,4.85,13.2,0.0,1,30.1,2.11,7.7,0,0,0,1,0,0,250,250,0,,,,,,,,,,,,,,,,
24003,0,,,,,,,,0.06,-0.05,-2.44,1,0,1,0.08,,70,7891,11,39,37,0.5,0.0,663,4.93,13.1,0.0,1,30.4,2.11,7.7,0,0,0,1,0,0,250,250,0,,,,,,,,,,,,,,,,
24023,0,,,,,,,,0.05,0.04,-2.57,1,2,3,0.06,,70,7888,11,39,37,0.5,0.0,668,4.91,13.0,0.0,1,30.4,1.06,7.7,0,0,0,1,0,0,250,250,0,,,,,,,,,,,,,,,,
24043,0,0,1,38,39,33,34,-37,0.07,0.07,-2.35,1,-0,0,0.09,0,70,7871,11,39,37,0.5,0.0,660,4.87,13.1,0.0,1,30.4,2.16,7.7,0,0,0,1,0,0,250,250,0,0.0,0.0,0.0,0.0,0,0,0.0,0,0.0,-1,0.0,0.0,0.0,0,0.0,0.4007
24063,0,,,,,,,,0.06,-0.03,-2.24,0,-1,-3,0.07,,71,7822,11,39,37,0.5,0.0,657,4.85,13.1,0.0,1,30.4,2.16,7.8,0,0,0,1,0,0,250,250,0,,,,,,,,,,,,,,,,
24083,0,,,,,,,,0.03,-0.09,-2.39,0,-1,-2,0.1,,71,7789,11,39,37,0.5,0.0,650,4.95,13.1,0.0,1,30.4,2.16,7.8,0,0,0,1,0,0,250,250,0,,,,,,,,,,,,,,,,
24103,0,,,,,,,,-0.0,-0.03,-2.52,0,1,1,0.03,,71,7770,11,39,37,0.5,0.0,643,5.0,13.1,0.0,1,30.4,1.06,7.8,0,0,0,1,0,0,250,250,0,,,,,,,,,,,,,,,,
24123,0,,,,,,,,-0.0,0.07,-2.64,0,2,3,0.07,,71,7719,11,39,38,0.5,0.0,658,4.9,13.0,0.0,1,30.7,1.11,7.8,0,0,0,1,0,0,250,250,0,,,,,,,,,,,,,,,,
24143,0,-0,2,38,39,33,34,-37,0.04,0.09,-2.42,1,1,3,0.09,0,71,7738,11,39,38,0.5,0.0,647,4.9,13.1,0.0,1,30.7,2.21,7.8,0,0,0,1,0,0,250,250,0,0.0,0.0,0.0,0.0,0,0,0.0,0,0.0,-1,0.0,,0.0,0,0.0,0.4024
24163,0,,,,,,,,0.08,0.05,-2.22,1,0,1,0.09,,71,7716,11,39,38,0.5,0.0,648,4.87,13.2,0.0,1,30.7,2.21,7.9,0,0,0,1,0,0,250,250,0,,,,,,,,,,,,,,,,
24183,0,,,,,,,,0.12,-0.03,-2.03,0,-2,-2,0.12,,71,7690,11,39,38,0.5,0.0,639,4.85,13.1,0.0,1,30.7,2.21,7.9,0,0,0,1,0,0,250,250,0,,,,,,,,,,,,,,,,
24203,0,,,,,,,,0.08,-0.09,-2.08,0,-2,-4,0.12,,71,7665,11,39,38,0.5,0.0,645,4.85,13.2,0.0,1,30.7,2.21,7.9,0,0,0,1,0,0,250,250,0,,,,,,,,,,,,,,,,
24223,0,,,,,,,,0.03,-0.13,-2.24,0,-2,-4,0.13,,71,7649,11,39,38,0.5,0.0,660,4.93,13.1,0.0,1,30.7,2.21,7.9,0,0,0,1,0,0,250,250,0,,,,,,,,,,,,,,,,
24243,0,-1,2,38,39,33,33,-36,-0.02,-0.12,-2.39,0,-1,-1,0.12,0,71,7634,11,39,39,0.5,0.0,653,5.01,13.2,0.0,1,31.0,2.27,7.9,0,0,0,1,0,0,250,250,0,0.0,0.0,0.0,0.0,0,0,0.0,0,0.0,-1,0.0,0.0,0.0,0,0.0,0.404
24263,0,,,,,,,,-0.06,-0.06,-2.52,0,1,2,0.08,,71,7637,11,39,39,0.5,0.0,655,4.92,13.1,0.0,1,31.0,2.27,8.0,0,0,0,1,0,0,250,250,0,,,,,,,,,,,,,,,,
24283,0,,,,,,,,-0.08,-0.0,-2.64,0,3,4,0.08,,71,7628,11,39,39,0.5,0.0,653,4.97,13.0,0.0,1,31.0,1.17,8.0,0,0,0,1,0,0,250,250,0,,,,,,,,,,,,,,,,
24303,0,,,,,,,,-0.08,0.07,-2.76,0,4,5,0.11,,71,7628,11,39,39,0.5,0.0,675,4.95,13.1,0.0,1,31.0,1.17,8.0,0,0,0,1,0,0,250,250,0,,,,,,,,,,,,,,,,
24323,0,,,,,,,,-0.05,0.13,-2.64,1,4,4,0.14,,71,7640,11,39,39,0.5,0.0,656,4.93,13.1,0.0,1,31.0,2.27,8.0,0,0,0,1,0,0,250,250,0,,,,,,,,,,,,,,,,
24343,0,0,0,38,39,33,33,-36,-0.01,0.16,-2.47,0,3,3,0.16,0,71,7637,11,39,39,0.5,0.0,652,4.85,13.1,0.0,1,31.0,2.27,8.0,0,0,0,1,0,0,250,250,0,0.0,0.0,0.0,0.0,0,0,0.0,0,0.0,-1,0.0,,0.0,0,0.0,0.4057
24363,0,,,,,,,,0.04,0.15,-2.26,0,0,1,0.15,,71,7640,11,39,39,0.5,0.0,651,4.88,13.0,0.0,1,31.0,2.27,8.0,0,0,0,1,0,0,250,250,0,,,,,,,,,,,,,,,,
24383,0,,,,,,,,0.06,0.05,-2.08,0,-1,-1,0.08,,71,7631,11,39,39,0.5,0.0,651,4.95,13.2,0.0,1,31.0,2.27,8.0,0,0,0,1,0,0,250,250,0,,,,,,,,,,,,,,,,
24403,0,,,,,,,,0.08,-0.02,-1.91,0,-2,-3,0.08,,71,7634,11,39,39,0.5,0.0,650,4.91,13.2,0.0,1,31.0,2.27,8.0,0,0,0,1,0,0,250,250,0,,,,,,,,,,,,,,,,
24423,0,,,,,,,,0.05,-0.08,-1.92,0,-2,-5,0.09,,71,7618,11,39,39,0.5,0.0,643,4.86,13.2,0.0,1,31.0,1.17,8.0,0,0,0,1,0,0,250,250,0,,,,,,,,,,,,,,,,
24443,0,0,0,38,39,33,33,-37,0.01,-0.12,-1.97,0,-3,-5,0.12,0,71,7618,11,39,39,0.5,0.0,645,4.93,13.1,0.0,1,31.0,1.17,8.0,0,0,0,1,0,0,250,250,0,0.0,0.0,0.0,0.0,0,0,0.0,0,0.0,-1,0.0,0.0,0.0,0,0.0,0.4074
24463,0,,,,,,,,-0.01,-0.14,-2.14,0,-1,-3,0.14,,71,7615,11,39,39,0.5,0.0,653,4.95,13.1,0.0,1,31.0,1.17,8.0,0,0,0,1,0,0,250,250,0,,,,,,,,,,,,,,,,
24483,0,,,,,,,,-0.06,-0.09,-2.29,0,0,-1,0.11,,71,7606,11,39,39,0.5,0.0,656,4.93,13.2,0.0,1,31.0,2.27,8.0,0,0,0,1,0,0,250,250,0,,,,,,,,,,,,,,,,
24503,0,,,,,,,,-0.11,-0.09,-2.43,0,2,1,0.14,,71,7609,11,39,39,0.5,0.0,655,4.92,13.2,0.0,1,31.0,2.27,8.0,0,0,0,1,0,0,250,250,0,,,,,,,,,,,,,,,,
24523,0,,,,,,,,-0.15,-0.03,-2.56,0,3,3,0.15,,71,7621,11,39,39,0.5,0.0,661,4.9,13.0,0.0,1,31.0,1.17,8.0,0,0,0,1,0,0,250,250,0,,,,,,,,,,,,,,,,
24543,0,-0,1,38,39,33,33,-37,-0.14,0.08,-2.68,0,4,5,0.16,0,71,7612,11,39,39,0.5,0.0,651,4.87,13.0,0.0,1,31.0,2.27,8.0,0,0,0,1,0,0,250,250,0,0.0,0.0,0.0,0.0,0,0,0.0,0,0.0,-1,0.0,,0.0,0,0.0,0.409
24563,0,,,,,,,,-0.1,0.15,-2.79,0,4,5,0.18,,71,7612,11,39,39,0.5,0.0,663,4.95,13.1,0.0,1,31.0,2.27,8.0,0,0,0,1,0,0,250,250,0,,,,,,,,,,,,,,,,
24583,0,,,,,,,,-0.05,0.16,-2.71,1,4,5,0.17,,71,7618,11,39,39,0.5,0.0,643,4.88,13.1,0.0,1,31.0,2.27,8.0,0,0,0,1,0,0,250,250,0,,,,,,,,,,,,,,,,
24603,0,,,,,,,,-0.01,0.16,-2.58,1,3,3,0.16,,71,7609,11,39,39,0.5,0.0,662,4.87,13.0,0.0,1,31.0,2.27,8.0,0,0,0,1,0,0,250,250,0,,,,,,,,,,,,,,,,
24623,0,,,,,,,,0.05,0.11,-2.37,0,0,0,0.12,,71,7612,11,39,39,0.5,0.0,655,4.88,13.1,0.0,1,31.0,2.27,8.0,0,0,0,1,0,0,250,250,0,,,,,,,,,,,,,,,,
24643,0,0,2,37,39,33,33,-36,0.09,0.08,-2.17,0,-1,-3,0.12,0,71,7600,11,39,39,0.5,0.0,649,4.89,13.2,0.0,1,31.0,2.27,8.0,0,0,0,1,0,0,250,250,0,0.0,0.0,0.0,0.0,0,0,0.0,0,0.0,-1,0.0,0.0,0.0,0,0.0,0.4107
24663,0,,,,,,,,0.12,0.01,-1.99,0,-3,-5,0.12,,71,7609,11,39,39,0.5,0.0,642,4.86,13.2,0.0,1,31.0,2.27,7.9,0,0,0,1,0,0,250,250,0,,,,,,,,,,,,,,,,
24683,0,,,,,,,,0.1,-0.1,-1.94,0,-3,-5,0.15,,71,7612,11,39,39,0.5,0.0,645,4.88,13.2,0.0,1,31.0,2.27,7.9,0,0,0,1,0,0,250,250,0,,,,,,,,,,,,,,,,
24703,0,,,,,,,,0.08,-0.16,-1.96,0,-3,-5,0.17,,71,7628,11,39,39,0.5,0.0,654,4.96,13.2,0.0,1,31.0,2.27,7.9,0,0,0,1,0,0,250,250,0,,,,,,,,,,,,,,,,
24723,0,,,,,,,,0.03,-0.19,-2.13,0,-2,-4,0.19,,71,7606,11,39,39,0.5,0.0,650,4.96,13.2,0.0,1,31.0,1.17,7.9,0,0,0,1,0,0,250,250,0,,,,,,,,,,,,,,,,
24743,0,1,1,38,39,33,34,-36,-0.01,-0.21,-2.29,0,-1,-3,0.21,0,71,7618,11,39,39,0.5,0.0,652,4.92,13.2,0.0,1,31.0,2.27,7.9,0,0,0,1,0,0,250,250,0,0.0,0.0,0.0,0.0,0,0,0.0,0,0.0,-1,0.0,,0.0,0,0.0,0.4124
24763,0,,,,,,,,-0.04,-0.16,-2.43,0,1,-0,0.16,,71,7618,11,39,39,0.5,0.0,651,4.95,13.1,0.0,1,31.0,1.17,7.9,0,0,0,1,0,0,250,250,0,,,,,,,,,,,,,,,,
24783,0,,,,,,,,-0.08,-0.08,-2.56,0,3,3,0.11,,71,7625,11,39,39,0.5,0.0,662,4.87,13.0,0.0,1,31.0,1.17,7.9,0,0,0,1,0,0,250,250,0,,,,,,,,,,,,,,,,
24803,0,,,,,,,,-0.11,-0.04,-2.68,0,4,5,0.11,,71,7597,11,39,39,0.5,0.0,650,4.91,13.0,0.0,1,31.0,1.17,7.9,0,0,0,1,0,0,250,250,0,,,,,,,,,,,,,,,,
24823,0,,,,,,,,-0.11,0.05,-2.79,0,5,6,0.12,,71,7594,11,39,39,0.5,0.0,653,4.9,13.0,0.0,1,31.0,2.27,7.9,0,0,0,1,0,0,250,250,0,,,,,,,,,,,,,,,,
24843,0,1,1,38,39,33,34,-36,-0.08,0.13,-2.83,1,4,6,0.15,0,71,7584,11,39,39,0.5,0.0,655,4.87,13.1,0.0,1,31.0,2.27,7.9,0,0,0,1,0,0,250,250,0,0.0,0.0,0.0,0.0,0,0,0.0,0,0.0,-1,0.0,0.0,0.0,0,0.0,0.414
24863,0,,,,,,,,-0.04,0.17,-2.91,0,4,5,0.18,,71,7551,11,39,39,0.5,0.0,654,4.86,13.1,0.0,1,31.0,2.27,7.9,0,0,0,1,0,0,250,250,0,,,,,,,,,,,,,,,,
24883,0,,,,,,,,-0.01,0.17,-2.84,1,3,4,0.17,,71,7581,11,39,39,0.5,0.0,645,4.87,13.1,0.0,1,31.0,2.27,7.9,0,0,0,1,0,0,250,250,0,,,,,,,,,,,,,,,,
24903,0,,,,,,,,0.03,0.17,-2.74,1,2,2,0.17,,71,7578,11,39,39,0.5,0.0,655,4.91,13.2,0.0,1,31.0,2.27,7.9,0,0,0,1,0,0,250,250,0,,,,,,,,,,,,,,,,
24923,0,,,,,,,,0.07,0.14,-2.51,1,-1,-0,0.16,,71,7572,11,39,39,0.5,0.0,648,4.92,13.2,0.0,1,31.0,2.27,7.9,0,0,0,1,0,0,250,250,0,,,,,,,,,,,,,,,,
24943,0,-0,2,38,39,33,33,-36,0.11,0.13,-2.3,0,-2,-3,0.17,0,71,7560,11,39,39,0.5,0.0,648,4.91,13.1,0.0,1,31.0,2.27,7.9,0,0,0,1,0,0,250,250,0,0.0,0.0,0.0,0.0,0,0,0.0,0,0.0,-1,0.0,,0.0,0,0.0,0.4157
24963,0,,,,,,,,0.15,0.11,-2.11,0,-4,-5,0.19,,71,7572,11,39,39,0.5,0.0,641,4.85,13.1,0.0,1,31.0,2.27,7.9,0,0,0,1,0,0,250,250,0,,,,,,,,,,,,,,,,
24983,0,,,,,,,,0.17,0.04,-1.93,0,-5,-6,0.17,,71,7569,11,39,39,0.5,0.0,650,4.98,13.2,0.0,1,31.0,2.27,7.9,0,0,0,1,0,0,250,250,0,,,,,,,,,,,,,,,,
25003,0,,,,,,,,0.19,-0.04,-1.77,0,-6,-8,0.19,,71,7581,11,39,39,0.5,0.0,650,4.91,13.2,0.0,1,31.0,1.17,7.9,0,0,0,1,0,0,250,250,0,,,,,,,,,,,,,,,,
25023,0,,,,,,,,0.17,-0.1,-1.64,0,-6,-9,0.2,,71,7581,11,39,39,0.5,0.0,646,4.87,13.2,0.0,1,31.0,1.17,7.9,0,0,0,1,0,0,250,250,0,,,,,,,,,,,,,,,,
25043,0,-1,2,38,39,33,33,-36,0.17,-0.17,-1.5,-0,-7,-9,0.24,0,71,7566,11,39,39,0.5,0.0,641,4.92,13.2,0.0,1,31.0,1.17,7.9,0,0,0,1,0,0,250,250,0,0.0,0.0,0.0,0.0,0,0,0.0,0,0.0,-1,0.0,0.0,0.0,0,0.0,0.4174
25063,0,,,,,,,,0.15,-0.23,-1.58,-0,-6,-8,0.27,,72,7578,11,39,39,0.5,0.0,654,4.96,13.2,0.0,1,31.0,1.17,7.9,0,0,0,1,0,0,250,250,0,,,,,,,,,,,,,,,,
25083,0,,,,,,,,0.11,-0.24,-1.7,-0,-5,-7,0.26,,72,7560,11,39,39,0.5,0.0,641,4.91,13.2,0.0,1,31.0,2.27,7.9,0,0,0,1,0,0,250,250,0,,,,,,,,,,,,,,,,
25103,0,,,,,,,,0.05,-0.26,-1.89,-0,-3,-6,0.26,,72,7572,11,39,39,0.5,0.0,655,4.95,13.1,0.0,1,31.0,2.27,7.9,0,0,0,1,0,0,250,250,0,,,,,,,,,,,,,,,,
25123,0,,,,,,,,-0.01,-0.28,-2.07,0,-2,-4,0.28,,72,7572,11,39,39,0.5,0.0,641,4.91,13.1,0.0,1,31.0,1.17,7.9,0,0,0,1,0,0,250,250,0,,,,,,,,,,,,,,,,
25143,0,-0,2,38,39,33,33,-37,-0.03,-0.25,-2.23,0,-1,-1,0.25,0,72,7557,11,39,39,0.5,0.0,649,4.92,13.1,0.0,1,31.0,1.17,7.9,0,0,0,1,0,0,250,250,0,0.0,0.0,0.0,0.0,0,0,0.0,0,0.0,-1,0.0,,0.0,0,0.0,0.419
25163,0,,,,,,,,-0.01,-0.16,-2.38,0,1,1,0.16,,72,7545,11,39,39,0.5,0.0,650,4.92,13.1,0.0,1,31.0,1.17,7.9,0,0,0,1,0,0,250,250,0,,,,,,,,,,,,,,,,
25183,0,,,,,,,,0.01,-0.12,-2.51,0,3,3,0.12,,72,7554,11,39,39,0.5,0.0,641,5.0,13.2,0.0,1,31.0,1.17,7.9,0,0,0,1,0,0,250,250,0,,,,,,,,,,,,,,,,
25203,0,,,,,,,,0.03,-0.05,-2.61,0,4,4,0.06,,72,7551,11,39,39,0.5,0.0,651,4.91,13.0,0.0,1,31.0,2.27,7.9,0,0,0,1,0,0,250,250,0,,,,,,,,,,,,,,,,
25223,0,,,,,,,,0.06,0.01,-2.48,0,5,6,0.06,,72,7563,11,39,39,0.5,0.0,642,4.9,13.1,0.0,1,31.0,1.17,7.9,0,0,0,1,0,0,250,250,0,,,,,,,,,,,,,,,,
25243,0,0,2,38,39,33,33,-36,0.09,0.05,-2.41,1,6,7,0.1,0,72,7557,11,39,39,0.5,0.0,646,4.97,13.1,0.0,1,31.0,2.27,7.9,0,0,0,1,0,0,250,250,0,0.0,0.0,0.0,0.0,0,0,0.0,0,0.0,-1,0.0,0.0,0.0,0,0.0,0.4207
25263,0,,,,,,,,0.13,0.06,-2.21,1,6,8,0.14,,72,7575,11,39,39,0.5,0.0,640,4.88,13.1,0.0,1,31.0,2.27,7.9,0,0,0,1,0,0,250,250,0,,,,,,,,,,,,,,,,
25283,0,,,,,,,,0.16,0.04,-2.09,1,6,8,0.17,,72,7557,11,39,39,0.5,0.0,649,4.93,13.1,0.0,1,31.0,2.27,7.9,0,0,0,1,0,0,250,250,0,,,,,,,,,,,,,,,,
25303,0,,,,,,,,0.2,0.01,-1.92,1,5,7,0.2,,72,7548,11,39,39,0.5,0.0,638,4.85,13.1,0.0,1,31.0,2.27,7.9,0,0,0,1,0,0,250,250,0,,,,,,,,,,,,,,,,
25323,0,,,,,,,,0.22,-0.01,-1.76,1,5,6,0.22,,72,7545,11,39,39,0.5,0.0,643,4.87,13.1,0.0,1,31.0,1.17,7.9,0,0,0,1,0,0,250,250,0,,,,,,,,,,,,,,,,
25343,0,0,2,38,39,33,34,-37,0.24,-0.06,-1.61,1,4,6,0.25,0,72,7542,11,39,39,0.5,0.0,636,4.86,13.2,0.0,1,31.0,2.27,7.9,0,0,0,1,0,0,250,250,0,0.0,0.0,0.0,0.0,0,0,0.0,0,0.0,-1,0.0,,0.0,0,0.0,0.4224
25363,0,,,,,,,,0.26,-0.12,-1.5,1,3,5,0.29,,72,7548,11,39,39,0.5,0.0,660,4.91,13.2,0.0,1,31.0,2.27,7.9,0,0,0,1,0,0,250,250,0,,,,,,,,,,,,,,,,
25383,0,,,,,,,,0.29,-0.19,-1.37,1,1,3,0.34,,72,7524,11,39,39,0.5,0.0,648,4.9,13.2,0.0,1,31.0,2.27,7.9,0,0,0,1,0,0,250,250,0,,,,,,,,,,,,,,,,
25403,0,,,,,,,,0.29,-0.2,-1.26,1,0,1,0.35,,72,7524,11,39,39,0.5,0.0,640,4.86,13.2,0.0,1,31.0,2.27,7.9,0,0,0,1,0,0,250,250,0,,,,,,,,,,,,,,,,
25423,0,,,,,,,,0.29,-0.25,-1.15,1,-1,-1,0.38,,72,7527,11,39,39,0.5,0.0,638,4.87,13.2,0.0,1,31.0,2.27,7.9,0,0,0,1,0,0,250,250,0,,,,,,,,,,,,,,,,
25443,0,0,0,38,39,33,34,-36,0.27,-0.34,-1.14,1,-2,-2,0.44,0,72,7521,11,39,39,0.5,0.0,651,4.9,13.0,0.0,1,31.0,1.17,7.9,0,0,0,1,0,0,250,250,0,0.0,0.0,0.0,0.0,0,0,0.0,0,0.0,-1,0.0,0.0,0.0,0,0.0,0.424
25463,0,,,,,,,,0.29,-0.38,-1.05,1,-4,-3,0.48,,72,7500,11,39,39,0.5,0.0,644,4.86,13.0,0.0,1,31.0,2.27,7.9,0,0,0,1,0,0,250,250,0,,,,,,,,,,,,,,,,
25483,0,,,,,,,,0.29,-0.39,-0.96,1,-5,-5,0.48,,72,7497,11,39,39,0.5,0.0,636,4.92,13.2,0.0,1,31.0,2.27,7.9,0,0,0,1,0,0,250,250,0,,,,,,,,,,,,,,,,
25503,0,,,,,,,,0.3,-0.42,-0.88,1,-6,-6,0.52,,72,7509,11,39,39,0.5,0.0,636,4.86,13.2,0.0,1,31.0,2.27,7.9,0,0,0,1,0,0,250,250,0,,,,,,,,,,,,,,,,
25523,0,,,,,,,,0.27,-0.49,-0.9,1,-6,-6,0.55,,72,7518,11,39,39,0.5,0.0,641,4.93,13.2,0.0,1,31.0,2.27,7.9,0,0,0,1,0,0,250,250,0,,,,,,,,,,,,,,,,
25543,0,-0,2,38,39,33,34,-37,0.27,-0.53,-0.82,1,-8,-8,0.59,0,72,7494,11,39,39,0.5,0.0,638,4.91,13.0,0.0,1,31.0,2.27,7.9,0,0,0,1,0,0,250,250,0,0.0,0.0,0.0,0.0,0,0,0.0,0,0.0,-1,0.0,,0.0,0,0.0,0.4257
25563,0,,,,,,,,0.27,-0.51,-0.75,0,-9,-9,0.58,,72,7494,11,39,39,0.5,0.0,641,4.85,13.0,0.0,1,31.0,2.27,7.8,0,0,0,1,0,0,250,250,0,,,,,,,,,,,,,,,,
25583,0,,,,,,,,0.29,-0.55,-0.69,1,-10,-9,0.62,,72,7518,11,39,39,0.5,0.0,638,4.93,13.2,0.0,1,31.0,2.27,7.8,0,0,0,1,0,0,250,250,0,,,,,,,,,,,,,,,,
25603,0,,,,,,,,0.27,-0.6,-0.7,1,-9,-9,0.66,,72,7491,11,39,39,0.5,0.0,645,4.87,13.1,0.0,1,31.0,2.27,7.8,0,0,0,1,0,0,250,250,0,,,,,,,,,,,,,,,,
25623,0,,,,,,,,0.27,-0.63,-0.64,0,-10,-11,0.68,,72,7515,11,39,39,0.5,0.0,638,4.92,13.2,0.0,1,31.0,2.27,7.8,0,0,0,1,0,0,250,250,0,,,,,,,,,,,,,,,,
25643,0,0,2,38,39,33,33,-36,0.26,-0.62,-0.58,0,-10,-12,0.67,0,72,7503,11,39,39,0.5,0.0,637,4.91,13.2,0.0,1,31.0,2.27,7.8,0,0,0,1,0,0,250,250,0,0.0,0.0,0.0,0.0,0,0,0.0,0,0.0,-1,0.0,0.0,0.0,0,0.0,0.4274
25663,0,,,,,,,,0.27,-0.65,-0.53,0,-12,-12,0.7,,72,7527,11,39,39,0.5,0.0,642,4.88,13.1,0.0,1,31.0,2.27,7.9,0,0,0,1,0,0,250,250,0,,,,,,,,,,,,,,,,
25683,0,,,,,,,,0.25,-0.7,-0.6,0,-11,-12,0.75,,72,7536,11,39,39,0.5,0.0,640,4.92,13.2,0.0,1,31.0,2.27,7.9,0,0,0,1,0,0,250,250,0,,,,,,,,,,,,,,,,
25703,0,,,,,,,,0.25,-0.71,-0.58,0,-12,-13,0.76,,72,7530,11,39,39,0.5,0.0,646,4.83,13.1,0.0,1,31.0,2.27,7.9,0,0,0,1,0,0,250,250,0,,,,,,,,,,,,,,,,
25723,0,,,,,,,,0.22,-0.7,-0.59,0,-12,-14,0.74,,72,7530,11,39,39,0.5,0.0,645,4.95,13.2,0.0,1,31.0,1.17,7.9,0,0,0,1,0,0,250,250,0,,,,,,,,,,,,,,,,
25743,0,-1,2,38,39,33,34,-36,0.2,-0.73,-0.54,0,-13,-15,0.75,0,72,7536,11,39,39,0.5,0.0,638,4.87,13.1,0.0,1,31.0,1.17,7.9,0,0,0,1,0,0,250,250,0,0.0,0.0,0.0,0.0,0,0,0.0,0,0.0,-1,0.0,,0.0,0,0.0,0.429
25763,0,,,,,,,,0.16,-0.77,-0.74,0,-13,-14,0.78,,72,7527,11,39,39,0.5,0.0,638,4.87,13.2,0.0,1,31.0,1.17,7.9,0,0,0,1,0,0,250,250,0,,,,,,,,,,,,,,,,
25783,0,,,,,,,,0.14,-0.76,-0.79,0,-14,-15,0.78,,72,7527,11,39,39,0.5,0.0,637,4.82,13.1,0.0,1,31.0,1.17,7.9,0,0,0,1,0,0,250,250,0,,,,,,,,,,,,,,,,
25803,0,,,,,,,,0.11,-0.75,-0.89,-0,-13,-16,0.76,,72,7533,11,39,39,0.5,0.0,639,4.86,13.2,0.0,1,31.0,2.27,7.9,0,0,0,1,0,0,250,250,0,,,,,,,,,,,,,,,,
25823,0,,,,,,,,0.08,-0.75,-0.92,-0,-14,-16,0.76,,72,7530,11,39,39,0.5,0.0,646,4.9,13.2,0.0,1,31.0,1.17,7.9,0,0,0,1,0,0,250,250,0,,,,,,,,,,,,,,,,
25843,0,0,2,38,39,33,34,-36,0.03,-0.75,-1.18,-0,-13,-16,0.75,0,72,7530,11,39,39,0.5,0.0,646,4.93,13.2,0.0,1,31.0,1.17,7.9,0,0,0,1,0,0,250,250,0,0.0,0.0,0.0,0.0,0,0,0.0,0,0.0,-1,0.0,0.0,0.0,0,0.0,0.4307
25863,0,,,,,,,,0.0,-0.74,-1.36,-0,-13,-16,0.74,,72,7530,11,39,39,0.5,0.0,648,4.91,13.2,0.0,1,31.0,1.17,7.9,0,0,0,1,0,0,250,250,0,,,,,,,,,,,,,,,,
25883,0,,,,,,,,-0.03,-0.71,-1.53,-0,-13,-16,0.71,,72,7521,11,39,39,0.5,0.0,638,4.86,13.2,0.0,1,31.0,1.17,7.9,0,0,0,1,0,0,250,250,0,,,,,,,,,,,,,,,,
25903,0,,,,,,,,-0.05,-0.69,-1.61,-0,-13,-16,0.69,,72,7524,11,39,39,0.5,0.0,642,4.92,13.2,0.0,1,31.0,2.27,7.9,0,0,0,1,0,0,250,250,0,,,,,,,,,,,,,,,,
25923,0,,,,,,,,-0.06,-0.66,-1.81,-0,-12,-14,0.67,,72,7527,11,39,39,0.5,0.0,636,4.89,13.2,0.0,1,31.0,1.17,7.9,0,0,0,1,0,0,250,250,0,,,,,,,,,,,,,,,,
25943,0,1,1,37,39,33,33,-37,-0.1,-0.62,-1.99,-0,-11,-14,0.63,0,72,7536,11,39,39,0.5,0.0,634,4.96,13.2,0.0,1,31.0,1.17,7.9,0,0,0,1,0,0,250,250,0,0.0,0.0,0.0,0.0,0,0,0.0,0,0.0,-1,0.0,,0.0,0,0.0,0.4324
25963,0,,,,,,,,-0.14,-0.59,-2.16,-0,-10,-13,0.61,,72,7521,11,39,39,0.5,0.0,641,4.93,13.2,0.0,1,31.0,1.17,7.9,0,0,0,1,0,0,250,250,0,,,,,,,,,,,,,,,,
25983,0,,,,,,,,-0.17,-0.56,-2.31,-1,-10,-12,0.58,,72,7524,11,39,39,0.5,0.0,637,4.93,13.1,0.0,1,31.0,2.27,7.9,0,0,0,1,0,0,250,250,0,,,,,,,,,,,,,,,,
26003,0,,,,,,,,-0.17,-0.51,-2.45,-0,-9,-11,0.54,,72,7512,11,39,39,0.5,0.0,640,4.93,13.2,0.0,1,31.0,2.27,7.9,0,0,0,1,0,0,250,250,0,,,,,,,,,,,,,,,,
26023,0,,,,,,,,-0.19,-0.45,-2.58,-0,-8,-9,0.49,,72,7527,11,39,39,0.5,0.0,641,4.95,13.1,0.0,1,31.0,1.17,7.9,0,0,0,1,0,0,250,250,0,,,,,,,,,,,,,,,,
26043,0,-1,1,38,39,33,34,-36,-0.23,-0.44,-2.7,-0,-6,-8,0.5,0,72,7509,11,39,39,0.5,0.0,640,4.97,13.1,0.0,1,31.0,1.17,7.9,0,0,0,1,0,0,250,250,0,0.0,0.0,0.0,0.0,0,0,0.0,0,0.0,-1,0.0,0.0,0.0,0,0.0,0.434
26063,0,,,,,,,,-0.27,-0.39,-2.8,-0,-5,-8,0.47,,72,7533,11,39,39,0.5,0.0,650,4.94,13.1,0.0,1,31.0,1.17,7.9,0,0,0,1,0,0,250,250,0,,,,,,,,,,,,,,,,
26083,0,,,,,,,,-0.28,-0.31,-2.9,-0,-4,-6,0.42,,72,7524,11,39,39,0.5,0.0,646,4.94,13.1,0.0,1,31.0,2.27,7.9,0,0,0,1,0,0,250,250,0,,,,,,,,,,,,,,,,
26103,0,,,,,,,,-0.31,-0.25,-2.99,-0,-3,-4,0.4,,73,7512,11,39,39,0.5,0.0,652,4.95,13.2,0.0,1,31.0,2.27,7.9,0,0,0,1,0,0,250,250,0,,,,,,,,,,,,,,,,
26123,0,,,,,,,,-0.32,-0.23,-3.08,-0,-1,-3,0.39,,73,7485,11,39,39,0.5,0.0,644,4.93,13.1,0.0,1,31.0,1.17,7.9,0,0,0,1,0,0,250,250,0,,,,,,,,,,,,,,,,
26143,0,-0,2,38,39,33,34,-36,-0.33,-0.19,-3.15,-0,-1,-3,0.38,0,73,7491,11,39,39,0.5,0.0,643,4.87,13.2,0.0,1,31.0,2.27,7.9,0,0,0,1,0,0,250,250,0,0.0,0.0,0.0,0.0,0,0,0.0,0,0.0,-1,0.0,,0.0,0,0.0,0.4357
26163,0,,,,,,,,-0.35,-0.14,-3.22,-0,0,-2,0.37,,73,7500,11,39,39,0.5,0.0,653,4.94,13.1,0.0,1,31.0,1.17,7.8,0,0,0,1,0,0,250,250,0,,,,,,,,,,,,,,,,
26183,0,,,,,,,,-0.37,-0.11,-3.28,-0,0,-1,0.38,,73,7482,11,39,39,0.5,0.0,652,4.96,13.1,0.0,1,31.0,2.27,7.8,0,0,0,1,0,0,250,250,0,,,,,,,,,,,,,,,,
26203,0,,,,,,,,-0.37,-0.11,-3.34,-0,1,-1,0.39,,73,7473,11,39,39,0.5,0.0,652,4.93,13.1,0.0,1,31.0,1.17,7.8,0,0,0,1,0,0,250,250,0,,,,,,,,,,,,,,,,
26223,0,,,,,,,,-0.38,-0.09,-3.4,-0,0,-1,0.39,,73,7488,11,39,40,0.5,0.0,646,4.9,13.1,0.0,1,31.4,2.27,7.8,0,0,0,1,0,0,250,250,0,,,,,,,,,,,,,,,,
26243,0,-1,1,38,39,33,34,-36,-0.36,-0.08,-3.45,-0,1,-0,0.37,0,73,7464,11,39,39,0.5,0.0,640,4.94,13.1,0.0,1,31.0,1.17,7.8,0,0,0,1,0,0,250,250,0,0.0,0.0,0.0,0.0,0,0,0.0,0,0.0,-1,0.0,0.0,0.0,0,0.0,0.4374
26263,0,,,,,,,,-0.37,-0.06,-3.49,-0,1,-0,0.38,,73,7485,11,39,39,0.5,0.0,641,4.92,13.1,0.0,1,31.0,2.27,7.8,0,0,0,1,0,0,250,250,0,,,,,,,,,,,,,,,,
26283,0,,,,,,,,-0.38,-0.08,-3.53,-0,1,-0,0.39,,73,7485,11,39,39,0.5,0.0,645,4.86,13.2,0.0,1,31.0,1.17,7.8,0,0,0,1,0,0,250,250,0,,,,,,,,,,,,,,,,
26303,0,,,,,,,,-0.39,-0.09,-3.5,-0,0,-1,0.4,,73,7494,11,39,39,0.5,0.0,645,4.92,13.2,0.0,1,31.0,2.27,7.8,0,0,0,1,0,0,250,250,0,,,,,,,,,,,,,,,,
26323,0,,,,,,,,-0.38,-0.09,-3.54,-0,1,-0,0.39,,73,7500,11,39,40,0.5,0.0,648,4.92,13.2,0.0,1,31.5,1.17,7.8,0,0,0,1,0,0,250,250,0,,,,,,,,,,,,,,,,
26343,0,0,1,38,39,33,33,-36,-0.37,-0.08,-3.57,-0,1,-1,0.38,0,73,7491,11,39,40,0.5,0.0,652,4.94,13.2,0.0,1,31.4,2.27,7.8,0,0,0,1,0,0,250,250,0,0.0,0.0,0.0,0.0,0,0,0.0,0,0.0,-1,0.0,,0.0,0,0.0,0.439
26363,0,,,,,,,,-0.38,-0.09,-3.61,-0,1,-1,0.39,,73,7497,11,39,39,0.5,0.0,650,4.89,13.2,0.0,1,31.0,1.17,7.9,0,0,0,1,0,0,250,250,0,,,,,,,,,,,,,,,,
26383,0,,,,,,,,-0.4,-0.11,-3.6,-0,1,-1,0.41,,73,7524,11,39,40,0.5,0.0,650,4.95,13.2,0.0,1,31.5,1.17,7.9,0,0,0,1,0,0,250,250,0,,,,,,,,,,,,,,,,
26403,0,,,,,,,,-0.39,-0.12,-3.64,-0,1,-1,0.41,,73,7530,11,39,39,0.5,0.0,650,4.9,13.2,0.0,1,31.0,1.17,7.9,0,0,0,1,0,0,250,250,0,,,,,,,,,,,,,,,,
26423,0,,,,,,,,-0.4,-0.12,-3.66,-0,1,-0,0.41,,73,7536,11,39,39,0.5,0.0,642,4.9,13.1,0.0,1,31.0,1.17,7.9,0,0,0,1,0,0,250,250,0,,,,,,,,,,,,,,,,
26443,0,-1,1,38,39,33,34,-37,-0.4,-0.13,-3.69,-0,2,0,0.42,0,73,7509,11,39,39,0.5,0.0,653,4.93,13.1,0.0,1,31.0,2.27,7.9,0,0,0,1,0,0,250,250,0,0.0,0.0,0.0,0.0,0,0,0.0,0,0.0,-1,0.0,0.0,0.0,0,0.0,0.4407
26463,0,,,,,,,,-0.41,-0.11,-3.72,-0,2,0,0.43,,73,7530,11,39,39,0.5,0.0,637,4.9,13.2,0.0,1,31.0,2.27,7.9,0,0,0,1,0,0,250,250,0,,,,,,,,,,,,,,,,
26483,0,,,,,,,,-0.42,-0.06,-3.74,-0,3,1,0.42,,73,7536,11,39,39,0.5,0.0,651,4.96,13.1,0.0,1,31.0,2.27,7.9,0,0,0,1,0,0,250,250,0,,,,,,,,,,,,,,,,
26503,0,,,,,,,,-0.44,-0.03,-3.76,0,4,3,0.44,,73,7539,11,39,39,0.5,0.0,641,4.93,13.2,0.0,1,31.0,2.27,7.9,0,0,0,1,0,0,250,250,0,,,,,,,,,,,,,,,,
26523,0,,,,,,,,-0.46,-0.03,-3.78,0,5,4,0.46,,73,7524,11,39,39,0.5,0.0,645,4.9,13.1,0.0,1,31.0,1.17,7.9,0,0,0,1,0,0,250,250,0,,,,,,,,,,,,,,,,
26543,0,0,2,38,39,33,33,-37,-0.47,0.0,-3.8,0,6,5,0.47,0,73,7536,11,39,39,0.5,0.0,645,4.94,13.1,0.0,1,31.0,2.27,7.9,0,0,0,1,0,0,250,250,0,0.0,0.0,0.0,0.0,0,0,0.0,0,0.0,-1,0.0,,0.0,0,0.0,0.4424
26563,0,,,,,,,,-0.46,0.07,-3.81,0,7,7,0.46,,73,7542,11,39,39,0.5,0.0,643,4.95,13.1,0.0,1,31.0,1.17,7.9,0,0,0,1,0,0,250,250,0,,,,,,,,,,,,,,,,
26583,0,,,,,,,,-0.47,0.12,-3.83,0,8,9,0.48,,73,7545,11,39,39,0.5,0.0,650,4.99,13.2,0.0,1,31.0,1.17,7.9,0,0,0,1,0,0,250,250,0,,,,,,,,,,,,,,,,
26603,0,,,,,,,,-0.47,0.12,-3.84,0,9,10,0.48,,73,7545,11,39,39,0.5,0.0,643,4.93,13.1,0.0,1,31.0,1.17,7.9,0,0,0,1,0,0,250,250,0,,,,,,,,,,,,,,,,
26623,0,,,,,,,,-0.47,0.19,-3.85,1,10,11,0.51,,73,7539,11,39,39,0.5,0.0,649,4.95,13.1,0.0,1,31.0,1.17,7.9,0,0,0,1,0,0,250,250,0,,,,,,,,,,,,,,,,
26643,0,0,2,38,39,33,33,-36,-0.45,0.28,-3.86,1,10,12,0.53,0,73,7551,11,39,39,0.5,0.0,653,4.95,13.1,0.0,1,31.0,2.27,7.9,0,0,0,1,0,0,250,250,0,0.0,0.0,0.0,0.0,0,0,0.0,0,0.0,-1,0.0,0.0,0.0,0,0.0,0.444
26663,0,,,,,,,,-0.42,0.33,-3.87,1,11,14,0.54,,73,7536,11,39,39,0.5,0.0,656,4.9,13.0,0.0,1,31.0,1.17,7.9,0,0,0,1,0,0,250,250,0,,,,,,,,,,,,,,,,
26683,0,,,,,,,,-0.39,0.33,-3.88,1,12,14,0.51,,73,7545,11,39,39,0.5,0.0,646,4.91,13.0,0.0,1,31.0,2.27,7.9,0,0,0,1,0,0,250,250,0,,,,,,,,,,,,,,,,
26703,0,,,,,,,,-0.36,0.41,-3.89,1,12,14,0.54,,73,7536,11,39,39,0.5,0.0,661,4.95,13.1,0.0,1,31.0,1.17,7.9,0,0,0,1,0,0,250,250,0,,,,,,,,,,,,,,,,
26723,0,,,,,,,,-0.33,0.46,-3.9,1,12,14,0.57,,73,7527,11,39,39,0.5,0.0,655,4.95,13.0,0.0,1,31.0,1.17,7.9,0,0,0,1,0,0,250,250,0,,,,,,,,,,,,,,,,
26743,0,1,1,38,39,33,34,-37,-0.29,0.49,-3.91,1,12,15,0.56,0,73,7515,11,39,39,0.5,0.0,657,4.95,13.1,0.0,1,31.0,2.27,7.9,0,0,0,1,0,0,250,250,0,0.0,0.0,0.0,0.0,0,0,0.0,0,0.0,-1,0.0,,0.0,0,0.0,0.4457
26763,0,,,,,,,,-0.24,0.48,-3.91,1,12,15,0.54,,73,7530,11,39,39,0.5,0.0,647,4.91,13.1,0.0,1,31.0,2.27,7.9,0,0,0,1,0,0,250,250,0,,,,,,,,,,,,,,,,
26783,0,,,,,,,,-0.2,0.51,-3.92,1,12,15,0.55,,73,7521,11,39,39,0.5,0.0,648,4.9,13.1,0.0,1,31.0,2.27,7.9,0,0,0,1,0,0,250,250,0,,,,,,,,,,,,,,,,
26803,0,,,,,,,,-0.16,0.53,-3.82,1,11,14,0.56,,73,7503,11,39,39,0.5,0.0,647,4.87,13.1,0.0,1,31.0,2.27,7.9,0,0,0,1,0,0,250,250,0,,,,,,,,,,,,,,,,
26823,0,,,,,,,,-0.14,0.57,-3.83,1,11,14,0.58,,73,7494,11,39,39,0.5,0.0,643,4.94,13.1,0.0,1,31.0,2.27,7.9,0,0,0,1,0,0,250,250,0,,,,,,,,,,,,,,,,
26843,0,0,0,38,39,33,33,-36,-0.11,0.54,-3.84,1,11,14,0.55,0,73,7497,11,39,39,0.5,0.0,639,4.93,13.1,0.0,1,31.0,2.27,7.9,0,0,0,1,0,0,250,250,0,0.0,0.0,0.0,0.0,0,0,0.0,0,0.0,-1,0.0,0.0,0.0,0,0.0,0.4474
26863,0,,,,,,,,-0.07,0.56,-3.86,1,11,13,0.57,,73,7497,11,39,39,0.5,0.0,640,4.89,13.1,0.0,1,31.0,2.27,7.8,0,0,0,1,0,0,250,250,0,,,,,,,,,,,,,,,,
26883,0,,,,,,,,-0.06,0.61,-3.83,1,10,13,0.61,,73,7506,11,39,39,0.5,0.0,641,4.93,13.1,0.0,1,31.0,2.27,7.8,0,0,0,1,0,0,250,250,0,,,,,,,,,,,,,,,,
26903,0,,,,,,,,-0.04,0.62,-3.84,1,10,12,0.62,,73,7506,11,39,39,0.5,0.0,643,4.88,13.1,0.0,1,31.0,2.27,7.8,0,0,0,1,0,0,250,250,0,,,,,,,,,,,,,,,,
26923,0,,,,,,,,-0.03,0.61,-3.85,1,10,13,0.61,,73,7494,11,39,39,0.5,0.0,643,4.92,13.1,0.0,1,31.0,2.27,7.8,0,0,0,1,0,0,250,250,0,,,,,,,,,,,,,,,,
26943,0,0,0,38,39,33,33,-36,-0.01,0.63,-3.86,1,10,12,0.63,0,73,7512,11,39,39,0.5,0.0,651,4.94,13.1,0.0,1,31.0,2.27,7.8,0,0,0,1,0,0,250,250,0,0.0,0.0,0.0,0.0,0,0,0.0,0,0.0,-1,0.0,,0.0,0,0.0,0.449
26963,0,,,,,,,,0.01,0.67,-3.83,1,9,12,0.67,,73,7503,11,39,39,0.5,0.0,641,4.88,13.1,0.0,1,31.0,2.27,7.8,0,0,0,1,0,0,250,250,0,,,,,,,,,,,,,,,,
26983,0,,,,,,,,0.03,0.68,-3.84,1,9,12,0.68,,73,7512,11,39,39,0.5,0.0,649,4.92,13.1,0.0,1,31.0,2.27,7.8,0,0,0,1,0,0,250,250,0,,,,,,,,,,,,,,,,
27003,0,,,,,,,,0.04,0.64,-3.86,1,9,12,0.64,,73,7521,11,39,39,0.5,0.0,640,4.88,13.1,0.0,1,31.0,2.27,7.8,0,0,0,1,0,0,250,250,0,,,,,,,,,,,,,,,,
27023,0,,,,,,,,0.06,0.64,-3.87,1,9,11,0.64,,73,7512,11,39,39,0.5,0.0,648,4.91,13.1,0.0,1,31.0,2.27,7.8,0,0,0,1,0,0,250,250,0,,,,,,,,,,,,,,,,
27043,0,0,0,38,39,33,33,-36,0.07,0.65,-3.74,1,7,10,0.65,0,73,7521,11,39,39,0.5,0.0,647,4.92,13.1,0.0,1,31.0,2.27,7.8,0,0,0,1,0,0,250,250,0,0.0,0.0,0.0,0.0,0,0,0.0,0,0.0,-1,0.0,0.0,0.0,0,0.0,0.4507
27063,0,,,,,,,,0.09,0.65,-3.75,1,7,9,0.66,,73,7527,11,39,39,0.5,0.0,650,4.94,13.1,0.0,1,31.0,2.27,7.9,0,0,0,1,0,0,250,250,0,,,,,,,,,,,,,,,,
27083,0,,,,,,,,0.11,0.63,-3.69,1,6,9,0.64,,73,7548,11,39,39,0.5,0.0,640,4.85,13.1,0.0,1,31.0,2.27,7.9,0,0,0,1,0,0,250,250,0,,,,,,,,,,,,,,,,
27103,0,,,,,,,,0.14,0.61,-3.58,1,5,7,0.63,,73,7545,11,39,39,0.5,0.0,645,4.87,13.2,0.0,1,31.0,2.27,7.9,0,0,0,1,0,0,250,250,0,,,,,,,,,,,,,,,,
27123,0,,,,,,,,0.17,0.58,-3.28,1,3,4,0.6,,73,7560,11,39,39,0.5,0.0,641,4.9,13.2,0.0,1,31.0,2.27,7.9,0,0,0,1,0,0,250,250,0,,,,,,,,,,,,,,,,
27143,0,-1,2,38,39,33,33,-36,0.18,0.55,-3.05,1,2,2,0.58,0,74,7530,11,39,39,0.5,0.0,645,4.93,13.2,0.0,1,31.0,2.27,7.9,0,0,0,1,0,0,250,250,0,0.0,0.0,0.0,0.0,0,0,0.0,0,0.0,-1,0.0,,0.0,0,0.0,0.4524
27163,0,,,,,,,,0.2,0.49,-2.8,1,-0,1,0.53,,74,7536,11,39,39,0.5,0.0,639,4.94,13.2,0.0,1,31.0,2.27,7.9,0,0,0,1,0,0,250,250,0,,,,,,,,,,,,,,,,
27183,0,,,,,,,,0.23,0.44,-2.67,1,-1,-1,0.49,,74,7530,11,39,39,0.5,0.0,643,4.95,13.2,0.0,1,31.0,2.27,7.9,0,0,0,1,0,0,250,250,0,,,,,,,,,,,,,,,,
27203,0,,,,,,,,0.27,0.36,-2.44,1,-3,-3,0.44,,74,7515,11,39,39,0.5,0.0,637,4.86,13.1,0.0,1,31.0,2.27,7.9,0,0,0,1,0,0,250,250,0,,,,,,,,,,,,,,,,
27223,0,,,,,,,,0.28,0.31,-2.25,1,-4,-4,0.42,,74,7506,11,39,39,0.5,0.0,645,4.96,13.2,0.0,1,31.0,2.27,7.9,0,0,0,1,0,0,250,250,0,,,,,,,,,,,,,,,,
27243,0,-0,2,38,39,33,34,-37,0.29,0.26,-2.06,1,-5,-5,0.39,0,74,7509,11,39,39,0.5,0.0,640,4.89,13.1,0.0,1,31.0,2.27,7.9,0,0,0,1,0,0,250,250,0,0.0,0.0,0.0,0.0,0,0,0.0,0,0.0,-1,0.0,0.0,0.0,0,0.0,0.454
27263,0,,,,,,,,0.3,0.21,-2.02,1,-6,-6,0.37,,74,7494,11,39,39,0.5,0.0,645,4.88,13.1,0.0,1,31.0,1.17,7.8,0,0,0,1,0,0,250,250,0,,,,,,,,,,,,,,,,
27283,0,,,,,,,,0.34,0.17,-1.85,1,-7,-7,0.38,,74,7494,11,39,39,0.5,0.0,636,4.93,13.2,0.0,1,31.0,2.27,7.8,0,0,0,1,0,0,250,250,0,,,,,,,,,,,,,,,,
27303,0,,,,,,,,0.35,0.17,-1.71,0,-8,-8,0.39,,74,7500,11,39,39,0.5,0.0,649,4.81,13.1,0.0,1,31.0,1.17,7.8,0,0,0,1,0,0,250,250,0,,,,,,,,,,,,,,,,
27323,0,,,,,,,,0.36,0.14,-1.56,0,-9,-9,0.39,,74,7509,11,39,39,0.5,0.0,644,4.88,13.1,0.0,1,31.0,2.27,7.8,0,0,0,1,0,0,250,250,0,,,,,,,,,,,,,,,,
27343,0,-0,2,38,39,33,33,-36,0.36,0.1,-1.55,0,-9,-9,0.38,0,74,7479,11,39,39,0.5,0.0,637,4.88,13.2,0.0,1,31.0,2.27,7.8,0,0,0,1,0,0,250,250,0,0.0,0.0,0.0,0.0,0,0,0.0,0,0.0,-1,0.0,,0.0,0,0.0,0.4557
27363,0,,,,,,,,0.35,0.02,-1.44,0,-10,-10,0.35,,74,7491,11,39,39,0.5,0.0,641,4.86,13.2,0.0,1,31.0,2.27,7.8,0,0,0,1,0,0,250,250,0,,,,,,,,,,,,,,,,
27383,0,,,,,,,,0.33,-0.02,-1.32,0,-11,-11,0.33,,74,7461,11,39,39,0.5,0.0,640,4.9,13.0,0.0,1,31.0,2.27,7.8,0,0,0,1,0,0,250,250,0,,,,,,,,,,,,,,,,
27403,0,,,,,,,,0.33,-0.08,-1.21,0,-11,-11,0.34,,74,7485,11,39,39,0.5,0.0,634,4.85,13.2,0.0,1,31.0,2.27,7.8,0,0,0,1,0,0,250,250,0,,,,,,,,,,,,,,,,
27423,0,,,,,,,,0.31,-0.16,-1.21,0,-11,-11,0.35,,74,7476,11,39,39,0.5,0.0,642,4.9,13.2,0.0,1,31.0,2.27,7.8,0,0,0,1,0,0,250,250,0,,,,,,,,,,,,,,,,
27443,0,-1,2,38,39,33,34,-36,0.31,-0.23,-1.11,0,-11,-12,0.38,0,74,7497,11,39,39,0.5,0.0,639,4.91,13.2,0.0,1,31.0,2.27,7.8,0,0,0,1,0,0,250,250,0,0.0,0.0,0.0,0.0,0,0,0.0,0,0.0,-1,0.0,0.0,0.0,0,0.0,0.4574
27463,0,,,,,,,,0.29,-0.23,-1.01,0,-12,-12,0.37,,74,7494,11,39,39,0.5,0.0,648,4.88,13.2,0.0,1,31.0,2.27,7.8,0,0,0,1,0,0,250,250,0,,,,,,,,,,,,,,,,
27483,0,,,,,,,,0.3,-0.28,-0.93,0,-12,-12,0.41,,74,7515,11,39,39,0.5,0.0,640,4.91,13.2,0.0,1,31.0,2.27,7.8,0,0,0,1,0,0,250,250,0,,,,,,,,,,,,,,,,
27503,0,,,,,,,,0.28,-0.36,-0.93,1,-12,-12,0.45,,74,7506,11,39,39,0.5,0.0,637,4.92,13.2,0.0,1,31.0,2.27,7.8,0,0,0,1,0,0,250,250,0,,,,,,,,,,,,,,,,
27523,0,,,,,,,,0.3,-0.4,-0.85,0,-12,-13,0.5,,74,7503,11,39,39,0.5,0.0,632,4.87,13.2,0.0,1,31.0,2.27,7.8,0,0,0,1,0,0,250,250,0,,,,,,,,,,,,,,,,
27543,0,1,1,38,39,33,34,-36,0.29,-0.4,-0.78,0,-12,-13,0.49,0,74,7494,11,39,39,0.5,0.0,654,4.82,13.0,0.0,1,31.0,2.27,7.8,0,0,0,1,0,0,250,250,0,0.0,0.0,0.0,0.0,0,0,0.0,0,0.0,-1,0.0,,0.0,0,0.0,0.459
27563,0,,,,,,,,0.29,-0.44,-0.71,0,-13,-13,0.53,,74,7485,11,39,39,0.5,0.0,633,4.91,13.2,0.0,1,31.0,2.27,7.8,0,0,0,1,0,0,250,250,0,,,,,,,,,,,,,,,,
27583,0,,,,,,,,0.28,-0.5,-0.72,1,-12,-13,0.58,,74,7485,11,39,39,0.5,0.0,636,4.91,13.2,0.0,1,31.0,2.27,7.8,0,0,0,1,0,0,250,250,0,,,,,,,,,,,,,,,,
27603,0,,,,,,,,0.3,-0.52,-0.66,0,-13,-13,0.6,,74,7506,11,39,39,0.5,0.0,641,4.87,13.2,0.0,1,31.0,2.27,7.8,0,0,0,1,0,0,250,250,0,,,,,,,,,,,,,,,,
27623,0,,,,,,,,0.31,-0.49,-0.6,0,-12,-13,0.58,,74,7494,11,39,39,0.5,0.0,642,4.86,13.2,0.0,1,31.0,1.17,7.8,0,0,0,1,0,0,250,250,0,,,,,,,,,,,,,,,,
27643,0,0,2,38,39,33,34,-37,0.32,-0.51,-0.55,0,-12,-13,0.61,0,74,7512,11,39,39,0.5,0.0,638,4.85,13.2,0.0,1,31.0,2.27,7.8,0,0,0,1,0,0,250,250,0,0.0,0.0,0.0,0.0,0,0,0.0,0,0.0,-1,0.0,0.0,0.0,0,0.0,0.4607
27663,0,,,,,,,,0.31,-0.56,-0.6,0,-12,-13,0.64,,74,7509,11,39,40,0.5,0.0,643,4.9,13.0,0.0,1,31.5,1.17,7.9,0,0,0,1,0,0,250,250,0,,,,,,,,,,,,,,,,
27683,0,,,,,,,,0.31,-0.6,-0.55,0,-13,-14,0.67,,74,7500,11,39,39,0.5,0.0,641,4.91,13.2,0.0,1,31.0,2.27,7.9,0,0,0,1,0,0,250,250,0,,,,,,,,,,,,,,,,
27703,0,,,,,,,,0.31,-0.57,-0.5,0,-13,-14,0.65,,74,7491,11,39,39,0.5,0.0,645,4.88,13.0,0.0,1,31.0,2.27,7.9,0,0,0,1,0,0,250,250,0,,,,,,,,,,,,,,,,
27723,0,,,,,,,,0.33,-0.58,-0.46,0,-13,-14,0.66,,74,7485,11,39,39,0.5,0.0,634,4.87,13.2,0.0,1,31.0,2.27,7.9,0,0,0,1,0,0,250,250,0,,,,,,,,,,,,,,,,
27743,0,0,1,38,39,33,34,-37,0.33,-0.61,-0.44,1,-13,-13,0.69,0,74,7455,11,39,39,0.5,0.0,638,4.88,13.2,0.0,1,31.0,2.27,7.9,0,0,0,1,0,0,250,250,0,0.0,0.0,0.0,0.0,0,0,0.0,0,0.0,-1,0.0,,0.0,0,0.0,0.4624
27763,0,,,,,,,,0.36,-0.61,-0.41,0,-13,-14,0.7,,74,7482,11,39,39,0.5,0.0,645,4.87,13.0,0.0,1,31.0,1.17,7.8,0,0,0,1,0,0,250,250,0,,,,,,,,,,,,,,,,
27783,0,,,,,,,,0.36,-0.57,-0.37,0,-12,-14,0.67,,74,7488,11,39,39,0.5,0.0,660,4.9,13.2,0.0,1,31.0,2.27,7.8,0,0,0,1,0,0,250,250,0,,,,,,,,,,,,,,,,
27803,0,,,,,,,,0.37,-0.56,-0.34,0,-12,-13,0.67,,74,7491,11,39,39,0.5,0.0,652,4.92,13.0,0.0,1,31.0,2.27,7.8,0,0,0,1,0,0,250,250,0,,,,,,,,,,,,,,,,
27823,0,,,,,,,,0.38,-0.58,-0.37,1,-11,-12,0.69,,74,7491,11,39,39,0.5,0.0,645,4.87,13.2,0.0,1,31.0,2.27,7.8,0,0,0,1,0,0,250,250,0,,,,,,,,,,,,,,,,
27843,0,0,0,38,39,33,33,-36,0.4,-0.57,-0.34,0,-12,-12,0.7,0,74,7521,11,39,39,0.5,0.0,642,4.83,13.2,0.0,1,31.0,2.27,7.8,0,0,0,1,0,0,250,250,0,0.0,0.0,0.0,0.0,0,0,0.0,0,0.0,-1,0.0,0.0,0.0,0,0.0,0.464
27863,0,,,,,,,,0.41,-0.55,-0.31,0,-11,-13,0.68,,74,7530,11,39,39,0.5,0.0,659,4.89,13.0,0.0,1,31.0,1.17,7.9,0,0,0,1,0,0,250,250,0,,,,,,,,,,,,,,,,
27883,0,,,,,,,,0.41,-0.56,-0.28,0,-12,-13,0.69,,74,7545,11,39,39,0.5,0.0,648,4.91,13.2,0.0,1,31.0,2.27,7.9,0,0,0,1,0,0,250,250,0,,,,,,,,,,,,,,,,
27903,0,,,,,,,,0.4,-0.62,-0.34,0,-11,-13,0.74,,74,7509,11,39,39,0.5,0.0,643,4.89,13.2,0.0,1,31.0,2.27,7.9,0,0,0,1,0,0,250,250,0,,,,,,,,,,,,,,,,
27923,0,,,,,,,,0.41,-0.64,-0.31,0,-13,-14,0.76,,74,7527,11,39,39,0.5,0.0,645,4.85,13.2,0.0,1,31.0,2.27,7.9,0,0,0,1,0,0,250,250,0,,,,,,,,,,,,,,,,
27943,0,-1,2,38,39,33,34,-36,0.41,-0.61,-0.28,0,-13,-15,0.73,0,74,7512,11,39,39,0.5,0.0,644,4.87,13.2,0.0,1,31.0,2.27,7.9,0,0,0,1,0,0,250,250,0,0.0,0.0,0.0,0.0,0,0,0.0,0,0.0,-1,0.0,,0.0,0,0.0,0.4657
27963,0,,,,,,,,0.42,-0.62,-0.26,0,-13,-15,0.75,,74,7518,11,39,39,0.5,0.0,640,4.89,13.1,0.0,1,31.0,2.27,7.9,0,0,0,1,0,0,250,250,0,,,,,,,,,,,,,,,,
27983,0,,,,,,,,0.4,-0.67,-0.3,0,-13,-15,0.78,,74,7488,11,39,39,0.5,0.0,643,4.88,13.1,0.0,1,31.0,2.27,7.9,0,0,0,1,0,0,250,250,0,,,,,,,,,,,,,,,,
28003,0,,,,,,,,0.4,-0.68,-0.27,0,-14,-16,0.79,,74,7491,11,39,39,0.5,0.0,638,4.82,13.1,0.0,1,31.0,2.27,7.9,0,0,0,1,0,0,250,250,0,,,,,,,,,,,,,,,,
28023,0,,,,,,,,0.39,-0.65,-0.25,0,-14,-16,0.76,,74,7488,11,39,39,0.5,0.0,650,4.93,13.2,0.0,1,31.0,1.17,7.9,0,0,0,1,0,0,250,250,0,,,,,,,,,,,,,,,,
28043,0,-1,2,38,39,33,34,-36,0.4,-0.64,-0.22,0,-15,-16,0.76,0,74,7488,11,39,39,0.5,0.0,645,4.91,13.2,0.0,1,31.0,2.27,7.9,0,0,0,1,0,0,250,250,0,0.0,0.0,0.0,0.0,0,0,0.0,0,0.0,-1,0.0,0.0,0.0,0,0.0,0.4674
28063,0,,,,,,,,0.4,-0.67,-0.23,0,-14,-16,0.78,,74,7494,11,39,39,0.5,0.0,654,4.92,13.2,0.0,1,31.0,2.27,7.8,0,0,0,1,0,0,250,250,0,,,,,,,,,,,,,,,,
28083,0,,,,,,,,0.42,-0.68,-0.21,0,-15,-16,0.8,,74,7503,11,39,39,0.5,0.0,647,4.92,13.2,0.0,1,31.0,2.27,7.8,0,0,0,1,0,0,250,250,0,,,,,,,,,,,,,,,,
28103,0,,,,,,,,0.42,-0.65,-0.19,0,-14,-17,0.77,,74,7497,11,39,39,0.5,0.0,643,4.91,13.2,0.0,1,31.0,2.27,7.8,0,0,0,1,0,0,250,250,0,,,,,,,,,,,,,,,,
28123,0,,,,,,,,0.42,-0.65,-0.18,0,-15,-16,0.78,,74,7509,11,39,39,0.5,0.0,640,4.87,13.2,0.0,1,31.0,2.27,7.8,0,0,0,1,0,0,250,250,0,,,,,,,,,,,,,,,,
28143,0,0,0,38,39,33,34,-37,0.42,-0.69,-0.2,0,-15,-16,0.8,0,74,7503,11,39,39,0.5,0.0,643,4.88,13.2,0.0,1,31.0,2.27,7.8,0,0,0,1,0,0,250,250,0,0.0,0.0,0.0,0.0,0,0,0.0,0,0.0,-1,0.0,,0.0,0,0.0,0.469
28163,0,,,,,,,,0.43,-0.69,-0.18,0,-15,-17,0.81,,74,7494,11,39,39,0.5,0.0,640,4.84,13.2,0.0,1,31.0,2.27,7.8,0,0,0,1,0,0,250,250,0,,,,,,,,,,,,,,,,
28183,0,,,,,,,,0.44,-0.65,-0.16,0,-15,-17,0.79,,74,7494,11,39,39,0.5,0.0,647,4.91,13.2,0.0,1,31.0,2.27,7.8,0,0,0,1,0,0,250,250,0,,,,,,,,,,,,,,,,
28203,0,,,,,,,,0.46,-0.64,-0.15,0,-16,-17,0.79,,74,7497,11,39,39,0.5,0.0,643,4.88,13.2,0.0,1,31.0,2.27,7.8,0,0,0,1,0,0,250,250,0,,,,,,,,,,,,,,,,
28223,0,,,,,,,,0.44,-0.67,-0.18,0,-16,-17,0.81,,75,7500,11,39,39,0.5,0.0,638,4.87,13.2,0.0,1,31.0,2.27,7.8,0,0,0,1,0,0,250,250,0,,,,,,,,,,,,,,,,
28243,0,0,1,38,39,33,33,-36,0.45,-0.68,-0.16,0,-17,-18,0.82,0,75,7515,11,39,39,0.5,0.0,638,4.85,13.2,0.0,1,31.0,2.27,7.8,0,0,0,1,0,0,250,250,0,0.0,0.0,0.0,0.0,0,0,0.0,0,0.0,-1,0.0,0.0,0.0,0,0.0,0.4707
28263,0,,,,,,,,0.46,-0.64,-0.15,0,-17,-18,0.79,,75,7479,11,39,39,0.5,0.0,645,4.85,13.0,0.0,1,31.0,2.27,7.8,0,0,0,1,0,0,250,250,0,,,,,,,,,,,,,,,,
28283,0,,,,,,,,0.47,-0.62,-0.13,0,-17,-18,0.78,,75,7503,11,39,39,0.5,0.0,642,4.91,13.2,0.0,1,31.0,2.27,7.8,0,0,0,1,0,0,250,250,0,,,,,,,,,,,,,,,,
28303,0,,,,,,,,0.47,-0.65,-0.15,0,-16,-17,0.8,,75,7494,11,39,39,0.5,0.0,639,4.91,13.2,0.0,1,31.0,2.27,7.8,0,0,0,1,0,0,250,250,0,,,,,,,,,,,,,,,,
28323,0,,,,,,,,0.47,-0.62,-0.14,0,-16,-18,0.78,,75,7482,11,39,39,0.5,0.0,631,4.86,13.2,0.0,1,31.0,2.27,7.8,0,0,0,1,0,0,250,250,0,,,,,,,,,,,,,,,,
28343,0,0,2,38,39,33,33,-36,0.47,-0.59,-0.13,0,-16,-18,0.75,0,75,7485,11,39,39,0.5,0.0,639,4.86,13.2,0.0,1,31.0,2.27,7.8,0,0,0,1,0,0,250,250,0,0.0,0.0,0.0,0.0,0,0,0.0,0,0.0,-1,0.0,,0.0,0,0.0,0.4724
28363,0,,,,,,,,0.48,-0.56,-0.11,0,-16,-17,0.74,,75,7464,11,39,40,0.5,0.0,648,4.9,13.0,0.0,1,31.4,2.27,7.8,0,0,0,1,0,0,250,250,0,,,,,,,,,,,,,,,,
28383,0,,,,,,,,0.48,-0.56,-0.19,0,-15,-16,0.74,,75,7485,11,39,40,0.5,0.0,637,4.9,13.2,0.0,1,31.4,2.27,7.8,0,0,0,1,0,0,250,250,0,,,,,,,,,,,,,,,,
28403,0,,,,,,,,0.49,-0.56,-0.17,0,-15,-16,0.74,,75,7485,11,39,39,0.5,0.0,636,4.87,13.2,0.0,1,31.0,2.27,7.8,0,0,0,1,0,0,250,250,0,,,,,,,,,,,,,,,,
28423,0,,,,,,,,0.48,-0.53,-0.16,0,-14,-15,0.72,,75,7485,11,39,39,0.5,0.0,644,4.86,13.1,0.0,1,31.0,2.27,7.8,0,0,0,1,0,0,250,250,0,,,,,,,,,,,,,,,,
28443,0,-1,2,38,39,33,34,-37,0.48,-0.51,-0.14,0,-13,-14,0.7,0,75,7497,11,39,39,0.5,0.0,643,4.87,13.0,0.0,1,31.0,1.17,7.8,0,0,0,1,0,0,250,250,0,0.0,0.0,0.0,0.0,0,0,0.0,0,0.0,-1,0.0,0.0,0.0,0,0.0,0.474
28463,0,,,,,,,,0.47,-0.48,-0.24,0,-13,-14,0.67,,75,7488,11,39,40,0.5,0.0,645,4.92,13.2,0.0,1,31.4,2.27,7.8,0,0,0,1,0,0,250,250,0,,,,,,,,,,,,,,,,
28483,0,,,,,,,,0.48,-0.47,-0.22,0,-13,-14,0.67,,75,7527,11,39,39,0.5,0.0,638,4.88,13.2,0.0,1,31.0,2.27,7.8,0,0,0,1,0,0,250,250,0,,,,,,,,,,,,,,,,
28503,0,,,,,,,,0.49,-0.45,-0.2,0,-12,-14,0.66,,75,7533,11,39,39,0.5,0.0,637,4.87,13.1,0.0,1,31.0,2.27,7.8,0,0,0,1,0,0,250,250,0,,,,,,,,,,,,,,,,
28523,0,,,,,,,,0.49,-0.43,-0.18,0,-13,-14,0.65,,75,7530,11,39,39,0.5,0.0,635,4.87,13.2,0.0,1,31.0,2.27,7.8,0,0,0,1,0,0,250,250,0,,,,,,,,,,,,,,,,
28543,0,-1,2,38,39,33,33,-36,0.48,-0.46,-0.22,0,-13,-14,0.66,0,75,7506,11,39,39,0.5,0.0,638,4.86,13.2,0.0,1,31.0,2.27,7.8,0,0,0,1,0,0,250,250,0,0.0,0.0,0.0,0.0,0,0,0.0,0,0.0,-1,0.0,,0.0,0,0.0,0.4757
28563,0,,,,,,,,0.48,-0.47,-0.2,0,-14,-15,0.67,,75,7524,11,39,39,0.5,0.0,641,4.86,13.2,0.0,1,31.0,2.27,7.8,0,0,0,1,0,0,250,250,0,,,,,,,,,,,,,,,,
28583,0,,,,,,,,0.49,-0.45,-0.18,0,-14,-15,0.66,,75,7521,11,39,39,0.5,0.0,644,4.91,13.2,0.0,1,31.0,2.27,7.8,0,0,0,1,0,0,250,250,0,,,,,,,,,,,,,,,,
28603,0,,,,,,,,0.5,-0.44,-0.17,0,-14,-15,0.67,,75,7515,11,39,39,0.5,0.0,631,4.88,13.2,0.0,1,31.0,2.27,7.8,0,0,0,1,0,0,250,250,0,,,,,,,,,,,,,,,,
28623,0,,,,,,,,0.49,-0.49,-0.2,0,-14,-15,0.69,,75,7524,11,39,39,0.5,0.0,650,4.85,13.0,0.0,1,31.0,2.27,7.8,0,0,0,1,0,0,250,250,0,,,,,,,,,,,,,,,,
28643,0,-0,1,38,39,33,33,-36,0.5,-0.5,-0.18,0,-14,-16,0.7,0,75,7506,11,39,39,0.5,0.0,644,4.93,13.2,0.0,1,31.0,2.27,7.8,0,0,0,1,0,0,250,250,0,0.0,0.0,0.0,0.0,0,0,0.0,0,0.0,-1,0.0,0.0,0.0,0,0.0,0.4774
28663,0,,,,,,,,0.49,-0.47,-0.17,0,-15,-16,0.68,,75,7485,11,39,39,0.5,0.0,637,4.92,13.2,0.0,1,31.0,2.27,7.9,0,0,0,1,0,0,250,250,0,,,,,,,,,,,,,,,,
28683,0,,,,,,,,0.5,-0.46,-0.15,0,-15,-16,0.68,,75,7506,11,39,39,0.5,0.0,643,4.89,13.1,0.0,1,31.0,2.27,7.9,0,0,0,1,0,0,250,250,0,,,,,,,,,,,,,,,,
28703,0,,,,,,,,0.49,-0.48,-0.21,0,-15,-16,0.68,,75,7488,11,39,39,0.5,0.0,641,4.91,13.2,0.0,1,31.0,2.27,7.9,0,0,0,1,0,0,250,250,0,,,,,,,,,,,,,,,,
28723,0,,,,,,,,0.5,-0.49,-0.19,0,-15,-16,0.7,,75,7488,11,39,39,0.5,0.0,642,4.83,13.1,0.0,1,31.0,2.27,7.9,0,0,0,1,0,0,250,250,0,,,,,,,,,,,,,,,,
28743,0,0,2,38,39,33,33,-36,0.5,-0.49,-0.17,0,-15,-17,0.7,0,75,7497,11,39,40,0.5,0.0,639,4.93,13.2,0.0,1,31.4,2.27,7.9,0,0,0,1,0,0,250,250,0,0.0,0.0,0.0,0.0,0,0,0.0,0,0.0,-1,0.0,,0.0,0,0.0,0.479
28763,0,,,,,,,,0.5,-0.47,-0.16,0,-15,-17,0.69,,75,7482,11,39,39,0.5,0.0,637,4.91,13.2,0.0,1,31.0,2.27,7.8,0,0,0,1,0,0,250,250,0,,,,,,,,,,,,,,,,
28783,0,,,,,,,,0.48,-0.47,-0.22,0,-14,-16,0.67,,75,7467,11,39,40,0.5,0.0,640,4.92,13.2,0.0,1,31.4,2.27,7.8,0,0,0,1,0,0,250,250,0,,,,,,,,,,,,,,,,
28803,0,,,,,,,,0.49,-0.45,-0.2,0,-15,-16,0.67,,75,7485,11,39,39,0.5,0.0,633,4.86,13.2,0.0,1,31.0,2.27,7.8,0,0,0,1,0,0,250,250,0,,,,,,,,,,,,,,,,
28823,0,,,,,,,,0.5,-0.41,-0.21,0,-14,-16,0.65,,75,7449,11,39,40,0.5,0.0,648,4.9,13.0,0.0,1,31.4,2.27,7.8,0,0,0,1,0,0,250,250,0,,,,,,,,,,,,,,,,
28843,0,1,1,38,39,33,34,-37,0.49,-0.39,-0.27,0,-14,-15,0.62,0,75,7467,11,39,40,0.5,0.0,645,4.9,13.2,0.0,1,31.4,2.27,7.8,0,0,0,1,0,0,250,250,0,0.0,0.0,0.0,0.0,0,0,0.0,0,0.0,-1,0.0,0.0,0.0,0,0.0,0.4807
28863,0,,,,,,,,0.47,-0.36,-0.5,1,-12,-14,0.59,,75,7437,11,39,39,0.5,0.0,651,4.89,13.1,0.0,1,31.0,2.27,7.8,0,0,0,1,0,0,250,250,0,,,,,,,,,,,,,,,,
28883,0,,,,,,,,0.45,-0.31,-0.59,1,-12,-13,0.54,,75,7458,11,39,40,0.5,0.0,652,4.91,13.1,0.0,1,31.4,2.27,7.8,0,0,0,1,0,0,250,250,0,,,,,,,,,,,,,,,,
28903,0,,,,,,,,0.43,-0.25,-0.87,0,-10,-11,0.49,,75,7431,11,39,40,0.5,0.0,655,4.96,13.1,0.0,1,31.4,1.17,7.8,0,0,0,1,0,0,250,250,0,,,,,,,,,,,,,,,,
28923,0,,,,,,,,0.4,-0.21,-1.13,0,-8,-8,0.45,,75,7425,11,39,40,0.5,0.0,647,4.94,13.1,0.0,1,31.4,2.27,7.8,0,0,0,1,0,0,250,250,0,,,,,,,,,,,,,,,,
28943,0,0,0,38,39,33,33,-37,0.36,-0.1,-1.37,0,-6,-6,0.37,0,75,7425,11,39,40,0.5,0.0,643,4.94,13.1,0.0,1,31.4,2.27,7.8,0,0,0,1,0,0,250,250,0,0.0,0.0,0.0,0.0,0,0,0.0,0,0.0,-1,0.0,,0.0,0,0.0,0.4824
28963,0,,,,,,,,0.32,-0.01,-1.59,0,-4,-4,0.32,,75,7437,11,39,40,0.5,0.0,638,4.93,13.1,0.0,1,31.4,2.27,7.8,0,0,0,1,0,0,250,250,0,,,,,,,,,,,,,,,,
28983,0,,,,,,,,0.25,0.04,-1.79,1,-2,-1,0.26,,75,7419,11,39,40,0.5,0.0,643,4.92,13.1,0.0,1,31.4,1.17,7.8,0,0,0,1,0,0,250,250,0,,,,,,,,,,,,,,,,
29003,0,,,,,,,,0.19,0.04,-1.97,1,-0,1,0.19,,75,7446,11,39,40,0.5,0.0,641,4.96,13.1,0.0,1,31.4,1.17,7.8,0,0,0,1,0,0,250,250,0,,,,,,,,,,,,,,,,
29023,0,,,,,,,,0.13,0.06,-2.14,1,1,2,0.14,,75,7455,11,39,40,0.5,0.0,641,4.93,13.1,0.0,1,31.4,1.17,7.8,0,0,0,1,0,0,250,250,0,,,,,,,,,,,,,,,,
29043,0,-0,2,38,39,33,33,-36,0.09,0.08,-2.29,1,2,4,0.12,0,75,7446,11,39,40,0.5,0.0,640,4.96,13.1,0.0,1,31.4,1.17,7.8,0,0,0,1,0,0,250,250,0,0.0,0.0,0.0,0.0,0,0,0.0,0,0.0,-1,0.0,0.0,0.0,0,0.0,0.484
29063,0,,,,,,,,0.05,0.08,-2.43,1,3,5,0.09,,75,7428,11,39,40,0.5,0.0,650,4.96,13.1,0.0,1,31.4,1.17,7.8,0,0,0,1,0,0,250,250,0,,,,,,,,,,,,,,,,
29083,0,,,,,,,,0.01,0.04,-2.56,1,3,5,0.04,,75,7443,11,39,40,0.5,0.0,650,4.97,13.1,0.0,1,31.4,1.17,7.8,0,0,0,1,0,0,250,250,0,,,,,,,,,,,,,,,,
29103,0,,,,,,,,-0.02,0.02,-2.52,1,3,4,0.03,,75,7467,11,39,40,0.5,0.0,646,4.99,13.2,0.0,1,31.4,1.17,7.8,0,0,0,1,0,0,250,250,0,,,,,,,,,,,,,,,,
29123,0,,,,,,,,-0.04,-0.01,-2.63,1,3,4,0.04,,75,7446,11,39,40,0.5,0.0,644,4.89,13.2,0.0,1,31.4,2.27,7.8,0,0,0,1,0,0,250,250,0,,,,,,,,,,,,,,,,
29143,0,0,1,38,39,33,33,-37,-0.04,-0.03,-2.57,1,2,3,0.06,0,75,7461,11,39,40,0.5,0.0,651,4.95,13.2,0.0,1,31.4,2.27,7.8,0,0,0,1,0,0,250,250,0,0.0,0.0,0.0,0.0,0,0,0.0,0,0.0,-1,0.0,,0.0,0,0.0,0.4857
29163,0,,,,,,,,-0.06,-0.06,-2.51,0,2,1,0.09,,75,7467,11,39,40,0.5,0.0,638,4.87,13.2,0.0,1,31.4,2.27,7.8,0,0,0,1,0,0,250,250,0,,,,,,,,,,,,,,,,
29183,0,,,,,,,,-0.05,-0.12,-2.3,0,0,-0,0.13,,75,7464,11,39,40,0.5,0.0,652,4.94,13.2,0.0,1,31.4,1.17,7.8,0,0,0,1,0,0,250,250,0,,,,,,,,,,,,,,,,
29203,0,,,,,,,,-0.05,-0.19,-2.26,0,-0,-1,0.2,,75,7461,11,39,40,0.5,0.0,637,4.86,13.2,0.0,1,31.4,1.17,7.8,0,0,0,1,0,0,250,250,0,,,,,,,,,,,,,,,,
29223,0,,,,,,,,-0.03,-0.23,-2.08,0,-1,-2,0.24,,75,7476,11,39,40,0.5,0.0,637,4.88,13.2,0.0,1,31.4,1.17,7.8,0,0,0,1,0,0,250,250,0,,,,,,,,,,,,,,,,
29243,0,1,0,38,39,33,33,-36,-0.02,-0.25,-1.91,-0,-2,-5,0.25,0,75,7452,11,39,40,0.5,0.0,646,4.87,13.2,0.0,1,31.4,1.17,7.8,0,0,0,1,0,0,250,250,0,0.0,0.0,0.0,0.0,0,0,0.0,0,0.0,-1,0.0,0.0,0.0,0,0.0,0.4874
29263,0,,,,,,,,0.01,-0.3,-1.75,-0,-4,-6,0.3,,75,7476,11,39,40,0.5,0.0,641,4.87,13.2,0.0,1,31.4,1.17,7.8,0,0,0,1,0,0,250,250,0,,,,,,,,,,,,,,,,
29283,0,,,,,,,,0.02,-0.37,-1.64,-0,-4,-7,0.37,,75,7464,11,39,40,0.5,0.0,640,4.87,13.1,0.0,1,31.4,1.17,7.8,0,0,0,1,0,0,250,250,0,,,,,,,,,,,,,,,,
29303,0,,,,,,,,0.06,-0.4,-1.5,-0,-6,-8,0.4,,75,7485,11,39,40,0.5,0.0,646,4.99,13.2,0.0,1,31.4,1.17,7.8,0,0,0,1,0,0,250,250,0,,,,,,,,,,,,,,,,
29323,0,,,,,,,,0.08,-0.38,-1.37,-0,-6,-10,0.39,,75,7482,11,39,40,0.5,0.0,648,4.91,13.2,0.0,1,31.4,2.27,7.8,0,0,0,1,0,0,250,250,0,,,,,,,,,,,,,,,,
29343,0,0,2,38,39,33,33,-36,0.11,-0.38,-1.26,-0,-8,-11,0.4,0,75,7482,11,39,40,0.5,0.0,647,4.88,13.2,0.0,1,31.4,1.17,7.8,0,0,0,1,0,0,250,250,0,0.0,0.0,0.0,0.0,0,0,0.0,0,0.0,-1,0.0,,0.0,0,0.0,0.489
29363,0,,,,,,,,0.12,-0.41,-1.2,-0,-8,-12,0.43,,75,7470,11,39,40,0.5,0.0,639,4.86,13.1,0.0,1,31.4,1.17,7.8,0,0,0,1,0,0,250,250,0,,,,,,,,,,,,,,,,
29383,0,,,,,,,,0.16,-0.42,-1.1,-0,-9,-13,0.45,,75,7494,11,39,40,0.5,0.0,635,4.85,13.1,0.0,1,31.4,2.27,7.8,0,0,0,1,0,0,250,250,0,,,,,,,,,,,,,,,,
29403,0,,,,,,,,0.19,-0.36,-1.0,-0,-10,-14,0.41,,75,7458,11,39,40,0.5,0.0,641,4.87,13.2,0.0,1,31.4,2.27,7.8,0,0,0,1,0,0,250,250,0,,,,,,,,,,,,,,,,
29423,0,,,,,,,,0.22,-0.33,-0.92,-0,-11,-15,0.39,,76,7473,11,39,40,0.5,0.0,638,4.86,13.1,0.0,1,31.4,2.27,7.8,0,0,0,1,0,0,250,250,0,,,,,,,,,,,,,,,,
29443,0,-1,2,38,39,33,34,-37,0.23,-0.33,-0.97,-0,-11,-14,0.4,0,76,7461,11,39,40,0.5,0.0,644,4.88,13.1,0.0,1,31.4,2.27,7.8,0,0,0,1,0,0,250,250,0,0.0,0.0,0.0,0.0,0,0,0.0,0,0.0,-1,0.0,0.0,0.0,0,0.0,0.4907
29463,0,,,,,,,,0.25,-0.31,-0.89,-0,-11,-15,0.4,,76,7491,11,39,40,0.5,0.0,631,4.88,13.2,0.0,1,31.4,2.27,7.8,0,0,0,1,0,0,250,250,0,,,,,,,,,,,,,,,,
29483,0,,,,,,,,0.26,-0.26,-0.83,-0,-12,-16,0.37,,76,7494,11,39,40,0.5,0.0,651,4.84,13.1,0.0,1,31.4,2.27,7.8,0,0,0,1,0,0,250,250,0,,,,,,,,,,,,,,,,
29503,0,,,,,,,,0.28,-0.22,-0.76,-0,-12,-15,0.36,,76,7497,11,39,40,0.5,0.0,638,4.87,13.2,0.0,1,31.4,2.27,7.8,0,0,0,1,0,0,250,250,0,,,,,,,,,,,,,,,,
29523,0,,,,,,,,0.28,-0.2,-0.84,-0,-12,-15,0.35,,76,7476,11,39,40,0.5,0.0,646,4.91,13.1,0.0,1,31.4,2.27,7.8,0,0,0,1,0,0,250,250,0,,,,,,,,,,,,,,,,
29543,0,-1,2,38,39,33,33,-36,0.29,-0.18,-0.78,0,-12,-15,0.34,0,76,7488,11,39,40,0.5,0.0,642,4.93,13.2,0.0,1,31.4,1.17,7.8,0,0,0,1,0,0,250,250,0,0.0,0.0,0.0,0.0,0,0,0.0,0,0.0,-1,0.0,,0.0,0,0.0,0.4924
29563,0,,,,,,,,0.3,-0.15,-0.83,0,-12,-15,0.33,,76,7491,11,39,40,0.5,0.0,637,4.92,13.2,0.0,1,31.4,2.27,7.8,0,0,0,1,0,0,250,250,0,,,,,,,,,,,,,,,,
29583,0,,,,,,,,0.31,-0.19,-0.76,0,-13,-15,0.36,,76,7497,11,39,40,0.5,0.0,637,4.92,13.2,0.0,1,31.4,2.27,7.8,0,0,0,1,0,0,250,250,0,,,,,,,,,,,,,,,,
29603,0,,,,,,,,0.32,-0.14,-0.82,0,-12,-15,0.35,,76,7500,11,39,40,0.5,0.0,637,4.92,13.2,0.0,1,31.5,2.27,7.8,0,0,0,1,0,0,250,250,0,,,,,,,,,,,,,,,,
29623,0,,,,,,,,0.32,-0.19,-0.75,0,-13,-15,0.37,,76,7509,11,39,40,0.5,0.0,632,4.85,13.2,0.0,1,31.5,2.27,7.8,0,0,0,1,0,0,250,250,0,,,,,,,,,,,,,,,,
29643,0,0,2,38,39,33,34,-37,0.3,-0.19,-0.69,0,-13,-16,0.35,0,76,7500,11,39,39,0.5,0.0,639,4.85,13.2,0.0,1,31.0,2.27,7.8,0,0,0,1,0,0,250,250,0,0.0,0.0,0.0,0.0,0,0,0.0,0,0.0,-1,0.0,0.0,0.0,0,0.0,0.494
