"Interval"|"ms"|0|0|1,"Utc"|"ms"|0|0|1,"Brake_F"|"Bar"|0|2000|10,"Brake_R"|"Bar"|0|2000|10,"Height_RF"|"mm"|0|255|10,"Height_LF"|"mm"|0|255|10,"Height_LR"|"mm"|0|80|10,"Height_RR"|"mm"|0|255|10,"Steering"|"deg"|-100|100|10,"AccelX"|"G"|-3.0|3.0|50,"AccelY"|"G"|-3.0|3.0|50,"AccelZ"|"G"|-3.0|3.0|50,"Yaw"|"Deg/Sec"|-120|120|50,"Pitch"|"Deg/Sec"|-120|120|50,"Roll"|"Deg/Sec"|-120|120|50,"Gsum"|"G"|0.0|3.0|50,"Log_Button"|""|0.0|10.0|10,"WaterTemp"|"C"|0|150|50,"RPM"|"tr/min"|0|14000|50,"TPS"|"%"|0|100|50,"AirTemp"|"C"|0|150|50,"MAP"|"KPa"|0|100|50,"Lambda"|""|0.5|1.5|50,"SpeedDTA"|"kph"|0.0|250.0|50,"OilPress"|"KPa"|0|1500|50,"FuelPressur"|"Bar"|0.0|10.0|50,"Batterie"|"V"|0.0|20.0|50,"ConsoKm"|"L/100km"|0.0|200.0|50,"Gear"|""|0|6|50,"AdvIgnition"|"Deg"|-20.0|70.0|50,"Injection"|"ms"|0.0|10.0|50,"ConsoHr"|"L/Hr"|0.0|10000.0|50,"LC_But_Pres"|""|0|1|50,"LC_Active"|""|0|1|50,"TractionOn"|""|0|1|50,"TractionWet"|""|0|1|50,"FanOn"|""|0|1|50,"RD_Speed"|"km/h"|-30|250|50,"RUD_Speed"|"km/h"|-30|250|50,"LD_Speed"|"km/h"|-30|250|50,"LUD_Speed"|"km/h"|-30|250|50,"Latitude"|"Degrees"|-180.0|180.0|10,"Longitude"|"Degrees"|-180.0|180.0|10,"Speed"|"kph"|0.0|150.0|10,"Altitude"|"m"|0.0|4000.0|10,"GPSSats"|""|0|20|10,"GPSQual"|""|0|5|10,"GPSDOP"|""|0.0|20.0|10,"LapCount"|""|0|0|10,"LapTime"|"Min"|0.0|0.0|10,"Sector"|""|0|0|10,"SectorTime"|"Min"|0.0|0.0|10,"PredTime"|"Min"|0.0|0.0|5,"ElapsedTime"|"Min"|0.0|0.0|10,"CurrentLap"|""|0|0|10,"Distance"|"km"|0.0|0.0|10,"SessionTime"|"Min"|0.0|0.0|10
5063,0,,,,,,,,-0.01,0.0,-2.99,0,0,0,0.01,,72,0,5,48,98,0.507,0.0,113,1.01,13.2,0.0,1,0.0,0.0,0.0,0,0,0,0,0,0,250,250,0,,,,,,,,,,,,,,,,
5083,0,,,,,,,,-0.01,0.0,-3.0,0,0,0,0.01,,72,0,5,48,98,0.507,0.0,113,1.01,13.2,0.0,1,0.0,0.0,0.0,0,0,0,0,0,0,250,250,0,,,,,,,,,,,,,,,,
5103,0,,,,,,,,-0.01,0.0,-3.0,0,0,0,0.01,,72,0,5,48,98,0.507,0.0,113,1.01,13.2,0.0,1,0.0,0.0,0.0,0,0,0,0,0,0,250,250,0,,,,,,,,,,,,,,,,
5123,0,,,,,,,,-0.01,0.0,-3.0,0,0,0,0.01,,72,0,5,48,98,0.507,0.0,113,1.01,13.3,0.0,1,0.0,0.0,0.0,0,0,0,0,0,0,250,250,0,,,,,,,,,,,,,,,,
5143,0,7,3,39,39,33,32,-0,-0.01,0.0,-3.0,0,0,0,0.01,1,72,0,5,48,98,0.506,0.0,113,1.01,13.3,0.0,1,0.0,0.0,0.0,0,0,0,0,0,0,250,250,0,0.0,0.0,0.0,0.0,0,0,0.0,0,0.0,-1,0.0,,0.0,0,0.0,0.0857
5163,0,,,,,,,,-0.01,0.0,-3.0,0,0,0,0.01,,72,0,5,48,98,0.506,0.0,113,1.01,13.3,0.0,1,0.0,0.0,0.0,0,0,0,0,0,0,250,250,0,,,,,,,,,,,,,,,,
5183,0,,,,,,,,-0.01,0.0,-3.0,0,0,0,0.01,,72,0,5,48,98,0.506,0.0,113,1.01,13.3,0.0,1,0.0,0.0,0.0,0,0,0,0,0,0,250,250,0,,,,,,,,,,,,,,,,
5203,0,,,,,,,,-0.01,0.0,-3.0,0,0,0,0.01,,72,0,5,48,98,0.506,0.0,113,1.01,13.2,0.0,1,0.0,0.0,0.0,0,0,0,0,0,0,250,250,0,,,,,,,,,,,,,,,,
5223,0,,,,,,,,-0.01,0.0,-3.0,0,0,0,0.01,,72,0,5,48,98,0.506,0.0,113,1.01,13.2,0.0,1,0.0,0.0,0.0,0,0,0,0,0,0,250,250,0,,,,,,,,,,,,,,,,
5243,0,6,3,39,39,33,32,-1,-0.01,0.0,-3.0,0,0,0,0.01,1,72,0,5,48,98,0.506,0.0,113,1.01,13.2,0.0,1,0.0,0.0,0.0,0,0,0,0,0,0,250,250,0,0.0,0.0,0.0,0.0,0,0,0.0,0,0.0,-1,0.0,0.0,0.0,0,0.0,0.0874
5263,0,,,,,,,,-0.01,0.0,-3.0,0,0,0,0.01,,72,0,5,48,98,0.507,0.0,113,1.01,13.2,0.0,1,0.0,0.0,0.0,0,0,0,0,0,0,250,250,0,,,,,,,,,,,,,,,,
5283,0,,,,,,,,-0.01,0.0,-3.0,0,0,0,0.01,,72,0,5,48,98,0.507,0.0,113,1.0,13.2,0.0,1,0.0,0.0,0.0,0,0,0,0,0,0,250,250,0,,,,,,,,,,,,,,,,
5303,0,,,,,,,,-0.01,0.0,-3.0,0,0,0,0.01,,72,0,5,48,98,0.506,0.0,113,1.0,13.3,0.0,1,0.0,0.0,0.0,0,0,0,0,0,0,250,250,0,,,,,,,,,,,,,,,,
5323,0,,,,,,,,-0.01,0.0,-3.0,0,0,0,0.01,,72,0,5,48,98,0.506,0.0,113,1.0,13.3,0.0,1,0.0,0.0,0.0,0,0,0,0,0,0,250,250,0,,,,,,,,,,,,,,,,
5343,0,5,5,39,39,33,32,-1,-0.01,0.0,-3.0,0,0,0,0.01,1,72,0,5,48,98,0.506,0.0,113,1.0,13.3,0.0,1,0.0,0.0,0.0,0,0,0,0,0,0,250,250,0,0.0,0.0,0.0,0.0,0,0,0.0,0,0.0,-1,0.0,,0.0,0,0.0,0.089
5363,0,,,,,,,,-0.01,0.0,-3.0,0,0,0,0.01,,72,0,5,48,98,0.506,0.0,113,1.0,13.3,0.0,1,0.0,0.0,0.0,0,0,0,0,0,0,250,250,0,,,,,,,,,,,,,,,,
5383,0,,,,,,,,-0.01,0.0,-3.0,0,0,0,0.01,,72,0,5,48,98,0.506,0.0,113,1.0,13.2,0.0,1,0.0,0.0,0.0,0,0,0,0,0,0,250,250,0,,,,,,,,,,,,,,,,
5403,0,,,,,,,,-0.01,0.0,-3.0,0,0,0,0.01,,72,0,5,48,98,0.506,0.0,113,1.0,13.2,0.0,1,0.0,0.0,0.0,0,0,0,0,0,0,250,250,0,,,,,,,,,,,,,,,,
5423,0,,,,,,,,-0.01,0.0,-3.0,0,0,0,0.01,,72,0,5,48,98,0.506,0.0,113,1.0,13.2,0.0,1,0.0,0.0,0.0,0,0,0,0,0,0,250,250,0,,,,,,,,,,,,,,,,
5443,0,6,4,39,39,33,32,-2,-0.01,0.0,-3.0,0,0,0,0.01,1,72,0,5,48,98,0.506,0.0,113,1.0,13.2,0.0,1,0.0,0.0,0.0,0,0,0,0,0,0,250,250,0,0.0,0.0,0.0,0.0,0,0,0.0,0,0.0,-1,0.0,0.0,0.0,0,0.0,0.0907
5463,0,,,,,,,,-0.01,0.0,-3.0,0,0,0,0.01,,72,0,5,48,98,0.507,0.0,113,1.0,13.3,0.0,1,0.0,0.0,0.0,0,0,0,0,0,0,250,250,0,,,,,,,,,,,,,,,,
5483,0,,,,,,,,-0.01,0.0,-3.0,0,0,0,0.01,,72,0,5,48,98,0.507,0.0,113,1.0,13.3,0.0,1,0.0,0.0,0.0,0,0,0,0,0,0,250,250,0,,,,,,,,,,,,,,,,
5503,0,,,,,,,,-0.01,0.0,-3.0,0,0,0,0.01,,72,0,5,48,98,0.507,0.0,113,1.0,13.3,0.0,1,0.0,0.0,0.0,0,0,0,0,0,0,250,250,0,,,,,,,,,,,,,,,,
5523,0,,,,,,,,-0.01,0.0,-2.99,0,0,0,0.01,,72,0,5,48,98,0.506,0.0,113,1.0,13.3,0.0,1,0.0,0.0,0.0,0,0,0,0,0,0,250,250,0,,,,,,,,,,,,,,,,
5543,0,6,3,39,39,33,32,-1,-0.01,0.0,-2.99,0,0,0,0.01,1,72,0,5,48,98,0.506,0.0,113,1.0,13.3,0.0,1,0.0,0.0,0.0,0,0,0,0,0,0,250,250,0,0.0,0.0,0.0,0.0,0,0,0.0,0,0.0,-1,0.0,,0.0,0,0.0,0.0924
5563,0,,,,,,,,-0.01,0.0,-3.0,0,0,0,0.01,,72,0,5,48,98,0.506,0.0,113,1.0,13.2,0.0,1,0.0,0.0,0.0,0,0,0,0,0,0,250,250,0,,,,,,,,,,,,,,,,
5583,0,,,,,,,,-0.01,0.0,-3.0,0,0,0,0.01,,72,0,5,48,98,0.506,0.0,113,1.0,13.2,0.0,1,0.0,0.0,0.0,0,0,0,0,0,0,250,250,0,,,,,,,,,,,,,,,,
5603,0,,,,,,,,-0.01,0.0,-3.0,0,0,0,0.01,,72,0,5,48,98,0.506,0.0,113,1.0,13.2,0.0,1,0.0,0.0,0.0,0,0,0,0,0,0,250,250,0,,,,,,,,,,,,,,,,
5623,0,,,,,,,,-0.01,0.0,-3.0,0,0,0,0.01,,72,0,5,48,98,0.507,0.0,113,1.0,13.2,0.0,1,0.0,0.0,0.0,0,0,0,0,0,0,250,250,0,,,,,,,,,,,,,,,,
5643,0,6,5,39,39,33,32,-1,-0.01,0.0,-3.0,0,0,0,0.01,1,72,0,5,48,98,0.507,0.0,113,1.0,13.2,0.0,1,0.0,0.0,0.0,0,0,0,0,0,0,250,250,0,0.0,0.0,0.0,0.0,0,0,0.0,0,0.0,-1,0.0,0.0,0.0,0,0.0,0.094
5663,0,,,,,,,,-0.01,0.0,-3.0,0,0,0,0.01,,72,0,5,48,98,0.507,0.0,113,1.0,13.3,0.0,1,0.0,0.0,0.0,0,0,0,0,0,0,250,250,0,,,,,,,,,,,,,,,,
5683,0,,,,,,,,-0.01,0.0,-3.0,0,0,0,0.01,,72,0,5,48,98,0.507,0.0,113,1.0,13.2,0.0,1,0.0,0.0,0.0,0,0,0,0,0,0,250,250,0,,,,,,,,,,,,,,,,
5703,0,,,,,,,,-0.01,0.0,-3.0,0,0,0,0.01,,72,0,5,48,98,0.507,0.0,113,1.0,13.2,0.0,1,0.0,0.0,0.0,0,0,0,0,0,0,250,250,0,,,,,,,,,,,,,,,,
5723,0,,,,,,,,-0.01,0.0,-3.0,0,0,0,0.01,,72,0,5,48,98,0.507,0.0,113,1.0,13.2,0.0,1,0.0,0.0,0.0,0,0,0,0,0,0,250,250,0,,,,,,,,,,,,,,,,
5743,0,7,3,39,39,33,32,0,-0.01,0.0,-3.0,0,0,0,0.01,0,72,0,5,48,98,0.507,0.0,113,1.0,13.2,0.0,1,0.0,0.0,0.0,0,0,0,0,0,0,250,250,0,0.0,0.0,0.0,0.0,0,0,0.0,0,0.0,-1,0.0,,0.0,0,0.0,0.0957
5763,0,,,,,,,,-0.01,0.0,-3.0,0,0,0,0.01,,72,0,5,48,98,0.507,0.0,113,1.0,13.2,0.0,1,0.0,0.0,0.0,0,0,0,0,0,0,250,250,0,,,,,,,,,,,,,,,,
5783,0,,,,,,,,-0.01,0.0,-3.0,0,0,0,0.01,,72,0,5,48,98,0.507,0.0,113,1.0,13.2,0.0,1,0.0,0.0,0.0,0,0,0,0,0,0,250,250,0,,,,,,,,,,,,,,,,
5803,0,,,,,,,,-0.01,0.0,-3.0,0,0,0,0.01,,72,0,5,48,98,0.507,0.0,113,1.0,13.2,0.0,1,0.0,0.0,0.0,0,0,0,0,0,0,250,250,0,,,,,,,,,,,,,,,,
5823,0,,,,,,,,-0.01,0.0,-3.0,0,0,0,0.01,,72,0,5,48,98,0.507,0.0,113,1.0,13.2,0.0,1,0.0,0.0,0.0,0,0,0,0,0,0,250,250,0,,,,,,,,,,,,,,,,
5843,0,5,5,39,39,33,32,-1,-0.01,0.0,-3.0,0,0,0,0.01,0,72,0,5,48,98,0.507,0.0,113,1.0,13.3,0.0,1,0.0,0.0,0.0,0,0,0,0,0,0,250,250,0,0.0,0.0,0.0,0.0,0,0,0.0,0,0.0,-1,0.0,0.0,0.0,0,0.0,0.0974
5863,0,,,,,,,,-0.01,0.0,-3.0,0,0,0,0.01,,72,0,5,48,98,0.507,0.0,113,1.0,13.2,0.0,1,0.0,0.0,0.0,0,0,0,0,0,0,250,250,0,,,,,,,,,,,,,,,,
5883,0,,,,,,,,-0.01,0.0,-3.0,0,0,0,0.01,,72,0,5,48,98,0.506,0.0,113,1.0,13.2,0.0,1,0.0,0.0,0.0,0,0,0,0,0,0,250,250,0,,,,,,,,,,,,,,,,
5903,0,,,,,,,,-0.01,0.0,-3.0,0,0,0,0.01,,72,0,5,48,98,0.506,0.0,113,1.0,13.2,0.0,1,0.0,0.0,0.0,0,0,0,0,0,0,250,250,0,,,,,,,,,,,,,,,,
5923,0,,,,,,,,-0.01,0.0,-3.0,0,0,0,0.01,,72,0,5,48,98,0.506,0.0,113,1.0,13.2,0.0,1,0.0,0.0,0.0,0,0,0,0,0,0,250,250,0,,,,,,,,,,,,,,,,
5943,0,5,5,39,38,33,32,-0,-0.01,0.0,-3.0,0,0,0,0.01,0,72,0,5,48,98,0.506,0.0,113,1.0,13.2,0.0,1,0.0,0.0,0.0,0,0,0,0,0,0,250,250,0,0.0,0.0,0.0,0.0,0,0,0.0,0,0.0,-1,0.0,,0.0,0,0.0,0.099
5963,0,,,,,,,,-0.01,0.0,-3.0,0,0,0,0.01,,72,0,5,48,98,0.506,0.0,113,1.0,13.2,0.0,1,0.0,0.0,0.0,0,0,0,0,0,0,250,250,0,,,,,,,,,,,,,,,,
5983,0,,,,,,,,-0.01,0.0,-3.0,0,0,0,0.01,,72,0,5,48,98,0.506,0.0,113,1.0,13.2,0.0,1,0.0,0.0,0.0,0,0,0,0,0,0,250,250,0,,,,,,,,,,,,,,,,
6003,0,,,,,,,,-0.01,0.0,-3.0,0,0,0,0.01,,72,0,5,48,98,0.506,0.0,113,1.0,13.3,0.0,1,0.0,0.0,0.0,0,0,0,0,0,0,250,250,0,,,,,,,,,,,,,,,,
6023,0,,,,,,,,-0.01,0.0,-3.0,0,0,0,0.01,,72,0,5,48,98,0.506,0.0,113,1.0,13.2,0.0,1,0.0,0.0,0.0,0,0,0,0,0,0,250,250,0,,,,,,,,,,,,,,,,
6043,0,5,5,39,39,32,32,-1,-0.01,0.0,-3.0,0,0,0,0.01,0,72,0,5,48,98,0.506,0.0,113,1.0,13.2,0.0,1,0.0,0.0,0.0,0,0,0,0,0,0,250,250,0,0.0,0.0,0.0,0.0,0,0,0.0,0,0.0,-1,0.0,0.0,0.0,0,0.0,0.1007
6063,0,,,,,,,,-0.01,0.0,-3.0,0,0,0,0.01,,72,0,5,48,98,0.506,0.0,114,1.0,13.2,0.0,1,0.0,0.0,0.0,0,0,0,0,0,0,250,250,0,,,,,,,,,,,,,,,,
6083,0,,,,,,,,-0.01,0.0,-3.0,0,0,0,0.01,,72,0,5,48,98,0.506,0.0,114,1.0,13.2,0.0,1,0.0,0.0,0.0,0,0,0,0,0,0,250,250,0,,,,,,,,,,,,,,,,
6103,0,,,,,,,,-0.01,0.0,-3.0,0,0,0,0.01,,72,0,5,48,98,0.506,0.0,114,1.0,13.2,0.0,1,0.0,0.0,0.0,0,0,0,0,0,0,250,250,0,,,,,,,,,,,,,,,,
6123,0,,,,,,,,-0.01,0.0,-3.0,0,0,0,0.01,,72,0,5,48,98,0.506,0.0,113,1.0,13.2,0.0,1,0.0,0.0,0.0,0,0,0,0,0,0,250,250,0,,,,,,,,,,,,,,,,
6143,0,6,3,39,39,33,32,-2,-0.01,0.0,-3.0,0,0,0,0.01,0,72,0,5,48,98,0.506,0.0,113,1.0,13.2,0.0,1,0.0,0.0,0.0,0,0,0,0,0,0,250,250,0,0.0,0.0,0.0,0.0,0,0,0.0,0,0.0,-1,0.0,,0.0,0,0.0,0.1024
6163,0,,,,,,,,-0.01,0.0,-3.0,0,0,0,0.01,,72,0,5,48,98,0.506,0.0,113,1.0,13.2,0.0,1,0.0,0.0,0.0,0,0,0,0,0,0,250,250,0,,,,,,,,,,,,,,,,
6183,0,,,,,,,,-0.01,0.0,-3.0,0,0,0,0.01,,72,0,5,48,98,0.506,0.0,113,1.0,13.3,0.0,1,0.0,0.0,0.0,0,0,0,0,0,0,250,250,0,,,,,,,,,,,,,,,,
6203,0,,,,,,,,-0.01,0.0,-3.0,0,0,0,0.01,,72,0,5,48,98,0.506,0.0,113,1.0,13.2,0.0,1,0.0,0.0,0.0,0,0,0,0,0,0,250,250,0,,,,,,,,,,,,,,,,
6223,0,,,,,,,,-0.01,0.0,-3.0,0,0,0,0.01,,72,0,5,48,98,0.506,0.0,113,1.0,13.2,0.0,1,0.0,0.0,0.0,0,0,0,0,0,0,250,250,0,,,,,,,,,,,,,,,,
6243,0,5,5,39,39,32,32,-1,-0.01,0.0,-3.0,0,0,0,0.01,0,72,0,5,48,98,0.506,0.0,113,1.0,13.2,0.0,1,0.0,0.0,0.0,0,0,0,0,0,0,250,250,0,0.0,0.0,0.0,0.0,0,0,0.0,0,0.0,-1,0.0,0.0,0.0,0,0.0,0.104
6263,0,,,,,,,,-0.01,0.0,-3.0,0,0,0,0.01,,72,0,5,48,98,0.506,0.0,113,1.0,13.2,0.0,1,0.0,0.0,0.0,0,0,0,0,0,0,250,250,0,,,,,,,,,,,,,,,,
6283,0,,,,,,,,-0.01,0.0,-3.0,0,0,0,0.01,,72,0,5,48,98,0.506,0.0,113,1.0,13.2,0.0,1,0.0,0.0,0.0,0,0,0,0,0,0,250,250,0,,,,,,,,,,,,,,,,
6303,0,,,,,,,,-0.01,0.0,-3.0,0,0,0,0.01,,72,0,5,48,98,0.506,0.0,113,1.0,13.2,0.0,1,0.0,0.0,0.0,0,0,0,0,0,0,250,250,0,,,,,,,,,,,,,,,,
6323,0,,,,,,,,-0.01,0.0,-3.0,0,0,0,0.01,,72,0,5,48,98,0.506,0.0,113,1.0,13.2,0.0,1,0.0,0.0,0.0,0,0,0,0,0,0,250,250,0,,,,,,,,,,,,,,,,
6343,0,5,5,39,39,33,32,-0,-0.01,0.0,-3.0,0,0,0,0.01,0,72,0,5,48,98,0.506,0.0,114,1.0,13.2,0.0,1,0.0,0.0,0.0,0,0,0,0,0,0,250,250,0,0.0,0.0,0.0,0.0,0,0,0.0,0,0.0,-1,0.0,,0.0,0,0.0,0.1057
6363,0,,,,,,,,-0.01,0.0,-3.0,0,0,0,0.01,,72,0,5,48,98,0.506,0.0,114,1.0,13.3,0.0,1,0.0,0.0,0.0,0,0,0,0,0,0,250,250,0,,,,,,,,,,,,,,,,
6383,0,,,,,,,,-0.01,0.0,-3.0,0,0,0,0.01,,72,0,5,48,98,0.506,0.0,113,1.0,13.2,0.0,1,0.0,0.0,0.0,0,0,0,0,0,0,250,250,0,,,,,,,,,,,,,,,,
6403,0,,,,,,,,-0.01,0.0,-3.0,0,0,0,0.01,,72,0,5,48,98,0.506,0.0,113,1.0,13.2,0.0,1,0.0,0.0,0.0,0,0,0,0,0,0,250,250,0,,,,,,,,,,,,,,,,
6423,0,,,,,,,,-0.01,0.0,-3.0,0,0,0,0.01,,72,0,5,48,98,0.506,0.0,113,1.0,13.2,0.0,1,0.0,0.0,0.0,0,0,0,0,0,0,250,250,0,,,,,,,,,,,,,,,,
6443,0,7,4,39,39,33,32,-1,-0.01,0.0,-3.0,0,0,0,0.01,0,72,0,5,48,98,0.506,0.0,113,1.0,13.2,0.0,1,0.0,0.0,0.0,0,0,0,0,0,0,250,250,0,0.0,0.0,0.0,0.0,0,0,0.0,0,0.0,-1,0.0,0.0,0.0,0,0.0,0.1074
6463,0,,,,,,,,-0.01,0.0,-3.0,0,0,0,0.01,,72,0,5,48,98,0.506,0.0,113,1.0,13.2,0.0,1,0.0,0.0,0.0,0,0,0,0,0,0,250,250,0,,,,,,,,,,,,,,,,
6483,0,,,,,,,,-0.01,0.0,-3.0,0,0,0,0.01,,72,0,5,48,98,0.506,0.0,113,1.0,13.2,0.0,1,0.0,0.0,0.0,0,0,0,0,0,0,250,250,0,,,,,,,,,,,,,,,,
6503,0,,,,,,,,-0.01,0.0,-3.0,0,0,0,0.01,,72,0,5,48,98,0.507,0.0,113,1.0,13.2,0.0,1,0.0,0.0,0.0,0,0,0,0,0,0,250,250,0,,,,,,,,,,,,,,,,
6523,0,,,,,,,,-0.01,0.0,-3.0,0,0,0,0.01,,72,0,5,48,98,0.507,0.0,113,1.0,13.3,0.0,1,0.0,0.0,0.0,0,0,0,0,0,0,250,250,0,,,,,,,,,,,,,,,,
6543,0,5,5,39,39,33,32,-0,-0.01,0.0,-3.0,0,0,0,0.01,0,72,0,5,48,98,0.507,0.0,113,1.0,13.2,0.0,1,0.0,0.0,0.0,0,0,0,0,0,0,250,250,0,0.0,0.0,0.0,0.0,0,0,0.0,0,0.0,-1,0.0,,0.0,0,0.0,0.109
6563,0,,,,,,,,-0.01,0.0,-3.0,0,0,0,0.01,,72,0,5,48,98,0.507,0.0,113,1.0,13.2,0.0,1,0.0,0.0,0.0,0,0,0,0,0,0,250,250,0,,,,,,,,,,,,,,,,
6583,0,,,,,,,,-0.01,0.0,-3.0,0,0,0,0.01,,72,0,5,48,98,0.507,0.0,113,1.0,13.2,0.0,1,0.0,0.0,0.0,0,0,0,0,0,0,250,250,0,,,,,,,,,,,,,,,,
6603,0,,,,,,,,-0.01,0.0,-2.99,0,0,0,0.01,,72,0,5,48,98,0.506,0.0,113,1.0,13.2,0.0,1,0.0,0.0,0.0,0,0,0,0,0,0,250,250,0,,,,,,,,,,,,,,,,
6623,0,,,,,,,,-0.01,0.0,-2.99,0,0,0,0.01,,72,0,5,48,98,0.507,0.0,113,1.0,13.2,0.0,1,0.0,0.0,0.0,0,0,0,0,0,0,250,250,0,,,,,,,,,,,,,,,,
6643,0,7,4,39,39,33,32,-1,-0.01,0.0,-2.99,0,0,0,0.01,0,72,0,5,48,98,0.506,0.0,113,1.0,13.2,0.0,1,0.0,0.0,0.0,0,0,0,0,0,0,250,250,0,0.0,0.0,0.0,0.0,0,0,0.0,0,0.0,-1,0.0,0.0,0.0,0,0.0,0.1107
6663,0,,,,,,,,-0.01,0.0,-3.0,0,0,0,0.01,,72,0,5,48,98,0.507,0.0,113,1.0,13.2,0.0,1,0.0,0.0,0.0,0,0,0,0,0,0,250,250,0,,,,,,,,,,,,,,,,
6683,0,,,,,,,,-0.01,0.0,-3.0,0,0,0,0.01,,72,0,5,48,98,0.507,0.0,113,1.0,13.2,0.0,1,0.0,0.0,0.0,0,0,0,0,0,0,250,250,0,,,,,,,,,,,,,,,,
6703,0,,,,,,,,-0.01,0.0,-3.0,0,0,0,0.01,,72,0,5,48,98,0.506,0.0,113,1.0,13.2,0.0,1,0.0,0.0,0.0,0,0,0,0,0,0,250,250,0,,,,,,,,,,,,,,,,
6723,0,,,,,,,,-0.01,0.0,-3.0,0,0,0,0.01,,72,0,5,48,98,0.506,0.0,113,1.0,13.2,0.0,1,0.0,0.0,0.0,0,0,0,0,0,0,250,250,0,,,,,,,,,,,,,,,,
6743,0,7,3,39,40,32,32,-1,-0.01,0.0,-3.0,0,0,0,0.01,0,72,0,5,48,98,0.506,0.0,113,1.0,13.2,0.0,1,0.0,0.0,0.0,0,0,0,0,0,0,250,250,0,0.0,0.0,0.0,0.0,0,0,0.0,0,0.0,-1,0.0,,0.0,0,0.0,0.1124
6763,0,,,,,,,,-0.01,0.0,-3.0,0,0,0,0.01,,72,0,5,48,98,0.506,0.0,113,1.0,13.2,0.0,1,0.0,0.0,0.0,0,0,0,0,0,0,250,250,0,,,,,,,,,,,,,,,,
6783,0,,,,,,,,-0.01,0.0,-2.99,0,0,0,0.01,,72,0,5,48,98,0.506,0.0,113,1.0,13.2,0.0,1,0.0,0.0,0.0,0,0,0,0,0,0,250,250,0,,,,,,,,,,,,,,,,
6803,0,,,,,,,,-0.01,0.0,-2.99,0,0,0,0.01,,72,0,5,48,98,0.506,0.0,113,1.0,13.2,0.0,1,0.0,0.0,0.0,0,0,0,0,0,0,250,250,0,,,,,,,,,,,,,,,,
6823,0,,,,,,,,-0.01,0.0,-3.0,0,-0,0,0.01,,72,0,5,48,98,0.506,0.0,113,1.0,13.2,0.0,1,0.0,0.0,0.0,0,0,0,0,0,0,250,250,0,,,,,,,,,,,,,,,,
6843,0,6,3,39,39,33,32,-0,-0.01,0.0,-3.0,0,-0,0,0.01,0,72,0,5,48,98,0.506,0.0,113,1.0,13.2,0.0,1,0.0,0.0,0.0,0,0,0,0,0,0,250,250,0,0.0,0.0,0.0,0.0,0,0,0.0,0,0.0,-1,0.0,0.0,0.0,0,0.0,0.114
6863,0,,,,,,,,-0.01,0.0,-3.0,0,-0,0,0.01,,72,0,5,48,98,0.506,0.0,113,1.0,13.3,0.0,1,0.0,0.0,0.0,0,0,0,0,0,0,250,250,0,,,,,,,,,,,,,,,,
6883,0,,,,,,,,-0.01,0.0,-3.0,0,-0,0,0.01,,72,0,5,48,98,0.506,0.0,113,1.0,13.2,0.0,1,0.0,0.0,0.0,0,0,0,0,0,0,250,250,0,,,,,,,,,,,,,,,,
6903,0,,,,,,,,-0.01,0.0,-3.0,0,-0,0,0.01,,72,0,5,48,98,0.506,0.0,113,1.0,13.2,0.0,1,0.0,0.0,0.0,0,0,0,0,0,0,250,250,0,,,,,,,,,,,,,,,,
6923,0,,,,,,,,-0.01,0.0,-3.0,0,-0,0,0.01,,72,0,5,48,98,0.506,0.0,113,1.0,13.2,0.0,1,0.0,0.0,0.0,0,0,0,0,0,0,250,250,0,,,,,,,,,,,,,,,,
6943,0,2,3,39,40,33,32,-1,-0.01,0.0,-2.99,0,0,0,0.01,0,72,0,5,48,98,0.506,0.0,113,1.0,13.2,0.0,1,0.0,0.0,0.0,0,0,0,0,0,0,250,250,0,0.0,0.0,0.0,0.0,0,0,0.0,0,0.0,-1,0.0,,0.0,0,0.0,0.1157
6963,0,,,,,,,,-0.01,0.0,-2.99,0,0,0,0.01,,72,0,5,48,98,0.506,0.0,113,1.0,13.2,0.0,1,0.0,0.0,0.0,0,0,0,0,0,0,250,250,0,,,,,,,,,,,,,,,,
6983,0,,,,,,,,-0.01,0.0,-2.99,0,0,0,0.01,,72,0,5,48,98,0.506,0.0,113,1.0,13.2,0.0,1,0.0,0.0,0.0,0,0,0,0,0,0,250,250,0,,,,,,,,,,,,,,,,
7003,0,,,,,,,,-0.01,0.0,-2.99,0,0,0,0.01,,72,0,5,48,98,0.506,0.0,113,1.0,13.2,0.0,1,0.0,0.0,0.0,0,0,0,0,0,0,250,250,0,,,,,,,,,,,,,,,,
7023,0,,,,,,,,-0.01,0.0,-3.0,0,0,0,0.01,,72,0,5,48,98,0.506,0.0,113,1.0,13.3,0.0,1,0.0,0.0,0.0,0,0,0,0,0,0,250,250,0,,,,,,,,,,,,,,,,
7043,0,0,0,39,39,33,32,-1,-0.01,0.0,-3.0,0,0,0,0.01,0,72,0,5,48,98,0.506,0.0,113,1.0,13.2,0.0,1,0.0,0.0,0.0,0,0,0,0,0,0,250,250,0,0.0,0.0,0.0,0.0,0,0,0.0,0,0.0,-1,0.0,0.0,0.0,0,0.0,0.1174
7063,0,,,,,,,,-0.01,0.0,-3.0,0,0,0,0.01,,72,0,5,48,98,0.506,0.0,113,1.0,13.2,0.0,1,0.0,0.0,0.0,0,0,0,0,0,0,250,250,0,,,,,,,,,,,,,,,,
7083,0,,,,,,,,-0.01,0.0,-3.0,0,0,0,0.01,,72,0,5,48,98,0.506,0.0,113,1.0,13.2,0.0,1,0.0,0.0,0.0,0,0,0,0,0,0,250,250,0,,,,,,,,,,,,,,,,
7103,0,,,,,,,,-0.01,0.0,-3.0,0,0,0,0.01,,72,0,5,48,98,0.506,0.0,113,1.0,13.2,0.0,1,0.0,0.0,0.0,0,0,0,0,0,0,250,250,0,,,,,,,,,,,,,,,,
7123,0,,,,,,,,-0.01,0.0,-3.0,0,0,0,0.01,,72,0,5,48,98,0.506,0.0,113,1.0,13.2,0.0,1,0.0,0.0,0.0,0,0,0,0,0,0,250,250,0,,,,,,,,,,,,,,,,
7143,0,-1,2,39,39,33,32,0,-0.01,0.0,-3.0,0,0,0,0.01,0,72,0,5,48,98,0.506,0.0,113,1.0,13.2,0.0,1,0.0,0.0,0.0,0,0,0,0,0,0,250,250,0,0.0,0.0,0.0,0.0,0,0,0.0,0,0.0,-1,0.0,,0.0,0,0.0,0.119
7163,0,,,,,,,,-0.01,0.0,-3.0,0,0,0,0.01,,72,0,5,48,98,0.506,0.0,113,1.0,13.2,0.0,1,0.0,0.0,0.0,0,0,0,0,0,0,250,250,0,,,,,,,,,,,,,,,,
7183,0,,,,,,,,-0.01,0.0,-3.0,0,0,0,0.01,,72,0,5,48,98,0.506,0.0,113,1.0,13.2,0.0,1,0.0,0.0,0.0,0,0,0,0,0,0,250,250,0,,,,,,,,,,,,,,,,
7203,0,,,,,,,,-0.01,0.0,-3.0,0,0,0,0.01,,72,0,5,48,98,0.506,0.0,113,1.0,13.3,0.0,1,0.0,0.0,0.0,0,0,0,0,0,0,250,250,0,,,,,,,,,,,,,,,,
7223,0,,,,,,,,-0.01,0.0,-2.99,0,0,0,0.01,,72,0,5,48,98,0.506,0.0,113,1.0,13.2,0.0,1,0.0,0.0,0.0,0,0,0,0,0,0,250,250,0,,,,,,,,,,,,,,,,
7243,0,-1,2,39,39,33,32,-1,-0.01,0.0,-2.99,0,0,0,0.01,0,72,0,5,48,98,0.506,0.0,113,1.0,13.2,0.0,1,0.0,0.0,0.0,0,0,0,0,0,0,250,250,0,0.0,0.0,0.0,0.0,0,0,0.0,0,0.0,-1,0.0,0.0,0.0,0,0.0,0.1207
7263,0,,,,,,,,-0.01,0.0,-3.0,0,0,0,0.01,,72,0,5,48,98,0.506,0.0,113,1.0,13.2,0.0,1,0.0,0.0,0.0,0,0,0,0,0,0,250,250,0,,,,,,,,,,,,,,,,
7283,0,,,,,,,,-0.01,0.0,-3.0,0,0,0,0.01,,72,0,5,48,98,0.506,0.0,113,1.0,13.2,0.0,1,0.0,0.0,0.0,0,0,0,0,0,0,250,250,0,,,,,,,,,,,,,,,,
7303,0,,,,,,,,-0.01,0.0,-3.0,0,0,0,0.01,,72,0,5,48,98,0.506,0.0,113,1.0,13.2,0.0,1,0.0,0.0,0.0,0,0,0,0,0,0,250,250,0,,,,,,,,,,,,,,,,
7323,0,,,,,,,,-0.01,0.0,-2.99,0,0,0,0.01,,72,0,5,48,98,0.506,0.0,113,1.0,13.2,0.0,1,0.0,0.0,0.0,0,0,0,0,0,0,250,250,0,,,,,,,,,,,,,,,,
7343,0,-1,3,39,40,33,32,-1,-0.01,0.0,-3.01,0,0,0,0.01,0,72,0,5,48,98,0.506,0.0,113,1.0,13.2,0.0,1,0.0,0.0,0.0,0,0,0,0,0,0,250,250,0,0.0,0.0,0.0,0.0,0,0,0.0,0,0.0,-1,0.0,,0.0,0,0.0,0.1224
7363,0,,,,,,,,-0.01,-0.0,-3.01,0,0,0,0.01,,72,0,5,48,98,0.506,0.0,113,1.0,13.2,0.0,1,0.0,0.0,0.0,0,0,0,0,0,0,250,250,0,,,,,,,,,,,,,,,,
7383,0,,,,,,,,-0.01,-0.0,-3.0,0,0,0,0.01,,72,0,5,48,98,0.506,0.0,113,1.0,13.2,0.0,1,0.0,0.0,0.0,0,0,0,0,0,0,250,250,0,,,,,,,,,,,,,,,,
7403,0,,,,,,,,-0.01,-0.0,-3.0,0,0,0,0.01,,72,0,5,48,98,0.506,0.0,113,1.0,13.2,0.0,1,0.0,0.0,0.0,0,0,0,0,0,0,250,250,0,,,,,,,,,,,,,,,,
7423,0,,,,,,,,-0.01,-0.0,-3.0,0,0,0,0.01,,72,0,5,48,98,0.506,0.0,113,1.0,13.2,0.0,1,0.0,0.0,0.0,0,0,0,0,0,0,250,250,0,,,,,,,,,,,,,,,,
7443,0,0,0,39,39,33,32,-1,-0.01,-0.0,-3.0,0,0,0,0.01,0,72,0,5,48,98,0.506,0.0,113,1.0,13.2,0.0,1,0.0,0.0,0.0,0,0,0,0,0,0,250,250,0,0.0,0.0,0.0,0.0,0,0,0.0,0,0.0,-1,0.0,0.0,0.0,0,0.0,0.124
7463,0,,,,,,,,-0.01,-0.0,-3.0,0,0,0,0.01,,72,0,5,48,98,0.506,0.0,113,1.0,13.2,0.0,1,0.0,0.0,0.0,0,0,0,0,0,0,250,250,0,,,,,,,,,,,,,,,,
7483,0,,,,,,,,-0.01,-0.0,-3.0,0,0,0,0.01,,72,0,5,48,98,0.506,0.0,113,1.0,13.2,0.0,1,0.0,0.0,0.0,0,0,0,0,0,0,250,250,0,,,,,,,,,,,,,,,,
7503,0,,,,,,,,-0.01,-0.0,-3.0,0,0,0,0.01,,72,0,5,48,98,0.506,0.0,113,1.0,13.2,0.0,1,0.0,0.0,0.0,0,0,0,0,0,0,250,250,0,,,,,,,,,,,,,,,,
7523,0,,,,,,,,-0.01,-0.0,-3.0,0,0,0,0.01,,72,0,5,48,98,0.506,0.0,113,1.0,13.2,0.0,1,0.0,0.0,0.0,0,0,0,0,0,0,250,250,0,,,,,,,,,,,,,,,,
7543,0,-1,2,39,39,33,32,-0,-0.01,-0.0,-3.0,0,0,0,0.01,0,72,0,5,48,98,0.506,0.0,113,1.0,13.2,0.0,1,0.0,0.0,0.0,0,0,0,0,0,0,250,250,0,0.0,0.0,0.0,0.0,0,0,0.0,0,0.0,-1,0.0,,0.0,0,0.0,0.1257
7563,0,,,,,,,,-0.01,-0.0,-3.0,0,0,0,0.01,,72,0,5,48,98,0.506,0.0,113,1.0,13.2,0.0,1,0.0,0.0,0.0,0,0,0,0,0,0,250,250,0,,,,,,,,,,,,,,,,
7583,0,,,,,,,,-0.01,-0.0,-3.0,0,0,0,0.01,,72,0,5,48,98,0.506,0.0,113,1.0,13.2,0.0,1,0.0,0.0,0.0,0,0,0,0,0,0,250,250,0,,,,,,,,,,,,,,,,
7603,0,,,,,,,,-0.01,-0.0,-3.0,0,0,0,0.01,,72,0,5,48,98,0.506,0.0,113,1.0,13.2,0.0,1,0.0,0.0,0.0,0,0,0,0,0,0,250,250,0,,,,,,,,,,,,,,,,
7623,0,,,,,,,,-0.01,-0.0,-3.0,0,0,0,0.01,,72,0,5,48,98,0.506,0.0,113,1.0,13.2,0.0,1,0.0,0.0,0.0,0,0,0,0,0,0,250,250,0,,,,,,,,,,,,,,,,
7643,0,1,1,39,39,33,32,-1,-0.01,-0.0,-3.0,0,0,0,0.01,0,72,0,5,48,98,0.506,0.0,113,1.0,13.2,0.0,1,0.0,0.0,0.0,0,0,0,0,0,0,250,250,0,0.0,0.0,0.0,0.0,0,0,0.0,0,0.0,-1,0.0,0.0,0.0,0,0.0,0.1274
7663,0,,,,,,,,-0.01,0.0,-3.0,0,0,0,0.01,,72,0,5,48,98,0.506,0.0,113,1.0,13.2,0.0,1,0.0,0.0,0.0,0,0,0,0,0,0,250,250,0,,,,,,,,,,,,,,,,
7683,0,,,,,,,,-0.01,-0.0,-3.0,0,0,0,0.01,,72,0,5,48,98,0.506,0.0,113,1.0,13.2,0.0,1,0.0,0.0,0.0,0,0,0,0,0,0,250,250,0,,,,,,,,,,,,,,,,
7703,0,,,,,,,,-0.01,0.0,-3.0,0,0,0,0.01,,72,0,5,48,98,0.506,0.0,113,1.0,13.2,0.0,1,0.0,0.0,0.0,0,0,0,0,0,0,250,250,0,,,,,,,,,,,,,,,,
7723,0,,,,,,,,-0.01,0.0,-3.0,0,0,0,0.01,,72,0,5,48,98,0.506,0.0,113,1.0,13.3,0.0,1,0.0,0.0,0.0,0,0,0,0,0,0,250,250,0,,,,,,,,,,,,,,,,
7743,0,-0,2,39,39,33,32,-1,-0.01,0.0,-3.0,0,0,0,0.01,0,72,0,5,48,98,0.506,0.0,113,1.0,13.2,0.0,1,0.0,0.0,0.0,0,0,0,0,0,0,250,250,0,0.0,0.0,0.0,0.0,0,0,0.0,0,0.0,-1,0.0,,0.0,0,0.0,0.129
7763,0,,,,,,,,-0.01,0.0,-2.99,0,0,0,0.01,,72,0,5,48,98,0.506,0.0,113,1.0,13.2,0.0,1,0.0,0.0,0.0,0,0,0,0,0,0,250,250,0,,,,,,,,,,,,,,,,
7783,0,,,,,,,,-0.01,0.0,-3.0,0,0,0,0.01,,72,0,5,48,98,0.506,0.0,113,1.0,13.2,0.0,1,0.0,0.0,0.0,0,0,0,0,0,0,250,250,0,,,,,,,,,,,,,,,,
7803,0,,,,,,,,-0.01,0.0,-3.0,0,0,0,0.01,,72,0,5,48,98,0.506,0.0,113,1.0,13.2,0.0,1,0.0,0.0,0.0,0,0,0,0,0,0,250,250,0,,,,,,,,,,,,,,,,
7823,0,,,,,,,,-0.01,0.0,-3.0,0,0,0,0.01,,72,0,5,48,98,0.506,0.0,113,1.0,13.2,0.0,1,0.0,0.0,0.0,0,0,0,0,0,0,250,250,0,,,,,,,,,,,,,,,,
7843,0,1,0,39,39,33,32,0,-0.01,0.0,-3.0,0,0,0,0.01,0,72,0,5,48,98,0.506,0.0,113,1.0,13.2,0.0,1,0.0,0.0,0.0,0,0,0,0,0,0,250,250,0,0.0,0.0,0.0,0.0,0,0,0.0,0,0.0,-1,0.0,0.0,0.0,0,0.0,0.1307
7863,0,,,,,,,,-0.01,0.0,-3.0,0,0,0,0.01,,72,0,5,48,98,0.506,0.0,113,1.0,13.2,0.0,1,0.0,0.0,0.0,0,0,0,0,0,0,250,250,0,,,,,,,,,,,,,,,,
7883,0,,,,,,,,-0.01,0.0,-3.0,0,0,0,0.01,,72,0,5,48,98,0.506,0.0,113,1.0,13.3,0.0,1,0.0,0.0,0.0,0,0,0,0,0,0,250,250,0,,,,,,,,,,,,,,,,
7903,0,,,,,,,,-0.01,0.0,-3.0,0,0,0,0.01,,72,0,5,48,98,0.506,0.0,113,1.0,13.2,0.0,1,0.0,0.0,0.0,0,0,0,0,0,0,250,250,0,,,,,,,,,,,,,,,,
7923,0,,,,,,,,-0.01,0.0,-3.0,0,-0,0,0.01,,72,0,5,48,98,0.506,0.0,113,1.0,13.2,0.0,1,0.0,0.0,0.0,0,0,0,0,0,0,250,250,0,,,,,,,,,,,,,,,,
7943,0,4,1,39,39,32,32,-1,-0.01,0.0,-3.0,0,-0,0,0.01,0,72,0,5,48,98,0.506,0.0,113,1.0,13.2,0.0,1,0.0,0.0,0.0,0,0,0,0,0,0,250,250,0,0.0,0.0,0.0,0.0,0,0,0.0,0,0.0,-1,0.0,,0.0,0,0.0,0.1324
7963,0,,,,,,,,-0.01,0.0,-3.0,0,-0,0,0.01,,72,0,4,48,98,0.506,0.0,113,1.0,13.2,0.0,1,0.0,0.0,0.0,0,0,0,0,0,0,250,250,0,,,,,,,,,,,,,,,,
7983,0,,,,,,,,-0.01,0.0,-3.0,0,-0,0,0.01,,72,0,4,48,98,0.506,0.0,113,1.0,13.2,0.0,1,0.0,0.0,0.0,0,0,0,0,0,0,250,250,0,,,,,,,,,,,,,,,,
8003,0,,,,,,,,-0.01,0.0,-3.0,0,-0,0,0.01,,72,0,4,48,98,0.506,0.0,113,1.0,13.2,0.0,1,0.0,0.0,0.0,0,0,0,0,0,0,250,250,0,,,,,,,,,,,,,,,,
8023,0,,,,,,,,-0.01,0.0,-3.0,0,-0,0,0.01,,72,0,4,48,98,0.506,0.0,113,1.0,13.2,0.0,1,0.0,0.0,0.0,0,0,0,0,0,0,250,250,0,,,,,,,,,,,,,,,,
8043,0,11,5,39,39,33,32,-1,-0.01,0.0,-3.0,0,-0,0,0.01,0,72,0,4,48,98,0.506,0.0,113,1.0,13.2,0.0,1,0.0,0.0,0.0,0,0,0,0,0,0,250,250,0,0.0,0.0,0.0,0.0,0,0,0.0,0,0.0,-1,0.0,0.0,0.0,0,0.0,0.134
8063,0,,,,,,,,-0.01,0.0,-3.0,0,-0,0,0.01,,72,0,4,48,98,0.506,0.0,113,1.0,13.3,0.0,1,0.0,0.0,0.0,0,0,0,0,0,0,250,250,0,,,,,,,,,,,,,,,,
8083,0,,,,,,,,-0.01,0.0,-3.0,0,-0,0,0.01,,72,0,4,48,98,0.506,0.0,113,1.0,13.2,0.0,1,0.0,0.0,0.0,0,0,0,0,0,0,250,250,0,,,,,,,,,,,,,,,,
8103,0,,,,,,,,-0.01,0.0,-3.0,0,-0,0,0.01,,72,0,4,48,98,0.506,0.0,113,1.0,13.2,0.0,1,0.0,0.0,0.0,0,0,0,0,0,0,250,250,0,,,,,,,,,,,,,,,,
8123,0,,,,,,,,-0.01,0.0,-3.0,0,-0,0,0.01,,72,0,4,48,98,0.506,0.0,113,1.0,13.2,0.0,1,0.0,0.0,0.0,0,0,0,0,0,0,250,250,0,,,,,,,,,,,,,,,,
8143,0,30,20,39,40,33,32,-1,-0.01,0.0,-3.0,0,-0,0,0.01,0,72,0,4,48,98,0.506,0.0,113,1.0,13.2,0.0,1,0.0,0.0,0.0,0,0,0,0,0,0,250,250,0,0.0,0.0,0.0,0.0,0,0,0.0,0,0.0,-1,0.0,,0.0,0,0.0,0.1357
8163,0,,,,,,,,-0.01,0.0,-3.0,0,0,0,0.01,,72,0,4,48,98,0.506,0.0,113,1.0,13.2,0.0,1,0.0,0.0,0.0,0,0,0,0,0,0,250,250,0,,,,,,,,,,,,,,,,
8183,0,,,,,,,,-0.01,0.0,-3.0,0,0,0,0.01,,72,0,4,48,98,0.506,0.0,113,1.0,13.2,0.0,1,0.0,0.0,0.0,0,0,0,0,0,0,250,250,0,,,,,,,,,,,,,,,,
8203,0,,,,,,,,-0.01,0.0,-3.0,0,0,0,0.01,,72,0,4,48,98,0.506,0.0,113,1.0,13.2,0.0,1,0.0,0.0,0.0,0,0,0,0,0,0,250,250,0,,,,,,,,,,,,,,,,
8223,0,,,,,,,,-0.01,0.0,-3.0,0,0,0,0.01,,72,0,4,48,98,0.506,0.0,113,1.0,13.2,0.0,1,0.0,0.0,0.0,0,0,0,0,0,0,250,250,0,,,,,,,,,,,,,,,,
8243,0,41,29,39,39,33,32,-0,-0.01,0.0,-3.0,0,0,0,0.01,0,72,0,4,48,98,0.506,0.0,113,1.0,13.2,0.0,1,0.0,0.0,0.0,0,0,0,0,0,0,250,250,0,0.0,0.0,0.0,0.0,0,0,0.0,0,0.0,-1,0.0,0.0,0.0,0,0.0,0.1374
8263,0,,,,,,,,-0.01,0.0,-3.0,0,0,0,0.01,,72,0,4,48,98,0.506,0.0,113,1.0,13.2,0.0,1,0.0,0.0,0.0,0,0,0,0,0,0,250,250,0,,,,,,,,,,,,,,,,
8283,0,,,,,,,,-0.01,0.0,-2.99,0,0,0,0.01,,72,0,4,48,98,0.506,0.0,113,1.0,13.2,0.0,1,0.0,0.0,0.0,0,0,0,0,0,0,250,250,0,,,,,,,,,,,,,,,,
8303,0,,,,,,,,-0.01,0.0,-2.99,0,-0,0,0.01,,72,0,4,48,98,0.506,0.0,113,1.0,13.2,0.0,1,0.0,0.0,0.0,0,0,0,0,0,0,250,250,0,,,,,,,,,,,,,,,,
8323,0,,,,,,,,-0.01,0.0,-3.0,0,-0,0,0.01,,72,0,4,48,98,0.506,0.0,113,1.0,13.2,0.0,1,0.0,0.0,0.0,0,0,0,0,0,0,250,250,0,,,,,,,,,,,,,,,,
8343,0,43,28,39,39,33,32,-2,-0.01,0.0,-3.0,0,-0,0,0.01,0,72,0,4,48,98,0.506,0.0,113,1.0,13.2,0.0,1,0.0,0.0,0.0,0,0,0,0,0,0,250,250,0,0.0,0.0,0.0,0.0,0,0,0.0,0,0.0,-1,0.0,,0.0,0,0.0,0.1391
8363,0,,,,,,,,-0.01,0.0,-2.99,0,-0,0,0.01,,72,0,4,48,98,0.506,0.0,113,1.0,13.2,0.0,1,0.0,0.0,0.0,0,0,0,0,0,0,250,250,0,,,,,,,,,,,,,,,,
8383,0,,,,,,,,-0.01,0.0,-3.0,0,-0,0,0.01,,72,0,4,48,98,0.506,0.0,113,1.0,13.2,0.0,1,0.0,0.0,0.0,0,0,0,0,0,0,250,250,0,,,,,,,,,,,,,,,,
8403,0,,,,,,,,-0.01,0.0,-3.0,0,0,0,0.01,,72,0,4,48,98,0.506,0.0,113,1.0,13.2,0.0,1,0.0,0.0,0.0,0,0,0,0,0,0,250,250,0,,,,,,,,,,,,,,,,
8423,0,,,,,,,,-0.01,0.0,-3.0,0,0,0,0.01,,72,0,4,48,98,0.506,0.0,113,1.0,13.2,0.0,1,0.0,0.0,0.0,0,0,0,0,0,0,250,250,0,,,,,,,,,,,,,,,,
8443,0,33,23,39,40,33,32,-1,-0.01,0.0,-3.0,0,0,0,0.01,0,72,0,4,48,98,0.506,0.0,113,1.0,13.2,0.0,1,0.0,0.0,0.0,0,0,0,0,0,0,250,250,0,0.0,0.0,0.0,0.0,0,0,0.0,0,0.0,-1,0.0,0.0,0.0,0,0.0,0.1407
8463,0,,,,,,,,-0.01,0.0,-3.0,0,0,0,0.01,,72,0,4,48,98,0.506,0.0,113,1.0,13.2,0.0,1,0.0,0.0,0.0,0,0,0,0,0,0,250,250,0,,,,,,,,,,,,,,,,
8483,0,,,,,,,,-0.01,0.0,-2.99,0,0,0,0.01,,72,0,4,48,98,0.506,0.0,113,1.0,13.2,0.0,1,0.0,0.0,0.0,0,0,0,0,0,0,250,250,0,,,,,,,,,,,,,,,,
8503,0,,,,,,,,-0.01,0.0,-2.99,0,0,0,0.01,,72,0,4,48,98,0.506,0.0,113,1.0,13.2,0.0,1,0.0,0.0,0.0,0,0,0,0,0,0,250,250,0,,,,,,,,,,,,,,,,
8523,0,,,,,,,,-0.01,0.0,-2.99,0,0,0,0.01,,72,0,4,48,98,0.506,0.0,113,1.0,13.2,0.0,1,0.0,0.0,0.0,0,0,0,0,0,0,250,250,0,,,,,,,,,,,,,,,,
8543,0,25,17,39,40,33,32,0,-0.01,0.0,-2.99,0,0,0,0.01,0,72,0,4,48,98,0.506,0.0,113,1.0,13.2,0.0,1,0.0,0.0,0.0,0,0,0,0,0,0,250,250,0,0.0,0.0,0.0,0.0,0,0,0.0,0,0.0,-1,0.0,,0.0,0,0.0,0.1424
8563,0,,,,,,,,-0.01,0.0,-3.0,0,0,0,0.01,,72,0,4,48,98,0.506,0.0,113,1.0,13.2,0.0,1,0.0,0.0,0.0,0,0,0,0,0,0,250,250,0,,,,,,,,,,,,,,,,
8583,0,,,,,,,,-0.01,0.0,-3.0,0,0,0,0.01,,72,0,4,48,98,0.506,0.0,113,1.0,13.2,0.0,1,0.0,0.0,0.0,0,0,0,0,0,0,250,250,0,,,,,,,,,,,,,,,,
8603,0,,,,,,,,-0.01,0.0,-2.99,0,0,0,0.01,,72,0,4,48,98,0.506,0.0,113,1.0,13.2,0.0,1,0.0,0.0,0.0,0,0,0,0,0,0,250,250,0,,,,,,,,,,,,,,,,
8623,0,,,,,,,,-0.01,0.0,-2.99,0,0,0,0.01,,72,0,4,48,98,0.506,0.0,113,1.0,13.2,0.0,1,0.0,0.0,0.0,0,0,0,0,0,0,250,250,0,,,,,,,,,,,,,,,,
8643,0,19,13,39,39,33,32,-1,-0.01,0.0,-2.99,0,0,0,0.01,0,72,0,4,48,98,0.506,0.0,113,1.0,13.2,0.0,1,0.0,0.0,0.0,0,0,0,0,0,0,250,250,0,0.0,0.0,0.0,0.0,0,0,0.0,0,0.0,-1,0.0,0.0,0.0,0,0.0,0.144
8663,0,,,,,,,,-0.01,0.0,-2.99,0,0,0,0.01,,72,0,4,48,98,0.506,0.0,113,1.0,13.2,0.0,1,0.0,0.0,0.0,0,0,0,0,0,0,250,250,0,,,,,,,,,,,,,,,,
8683,0,,,,,,,,-0.01,0.0,-2.99,0,0,0,0.01,,72,0,4,48,98,0.506,0.0,113,1.0,13.2,0.0,1,0.0,0.0,0.0,0,0,0,0,0,0,250,250,0,,,,,,,,,,,,,,,,
8703,0,,,,,,,,-0.01,0.0,-2.99,0,0,0,0.01,,72,0,4,48,98,0.506,0.0,113,1.0,13.2,0.0,1,0.0,0.0,0.0,0,0,0,0,0,0,250,250,0,,,,,,,,,,,,,,,,
8723,0,,,,,,,,-0.01,0.0,-2.99,0,0,0,0.01,,72,0,4,48,98,0.506,0.0,113,1.0,13.2,0.0,1,0.0,0.0,0.0,0,0,0,0,0,0,250,250,0,,,,,,,,,,,,,,,,
8743,0,17,11,39,39,33,32,-0,-0.01,0.0,-2.99,0,0,0,0.01,0,72,0,4,48,98,0.506,0.0,113,1.0,13.2,0.0,1,0.0,0.0,0.0,0,0,0,0,0,0,250,250,0,0.0,0.0,0.0,0.0,0,0,0.0,0,0.0,-1,0.0,,0.0,0,0.0,0.1457
8763,0,,,,,,,,-0.01,0.0,-2.99,0,0,0,0.01,,72,0,4,48,98,0.506,0.0,113,1.0,13.2,0.0,1,0.0,0.0,0.0,0,0,0,0,0,0,250,250,0,,,,,,,,,,,,,,,,
8783,0,,,,,,,,-0.01,0.0,-2.99,0,0,0,0.01,,72,0,4,48,98,0.506,0.0,113,1.0,13.2,0.0,1,0.0,0.0,0.0,0,0,0,0,0,0,250,250,0,,,,,,,,,,,,,,,,
8803,0,,,,,,,,-0.01,0.0,-2.99,0,0,0,0.01,,72,0,4,48,98,0.506,0.0,113,1.0,13.2,0.0,1,0.0,0.0,0.0,0,0,0,0,0,0,250,250,0,,,,,,,,,,,,,,,,
8823,0,,,,,,,,-0.01,0.0,-2.99,0,0,0,0.01,,72,0,4,48,98,0.506,0.0,113,1.0,13.2,0.0,1,0.0,0.0,0.0,0,0,0,0,0,0,250,250,0,,,,,,,,,,,,,,,,
8843,0,15,10,39,39,33,32,-1,-0.01,0.0,-2.99,0,0,0,0.01,0,72,0,4,48,98,0.506,0.0,113,1.0,13.2,0.0,1,0.0,0.0,0.0,0,0,0,0,0,0,250,250,0,0.0,0.0,0.0,0.0,0,0,0.0,0,0.0,-1,0.0,0.0,0.0,0,0.0,0.1474
8863,0,,,,,,,,-0.01,0.0,-2.99,0,0,0,0.01,,72,0,4,48,98,0.506,0.0,113,1.0,13.2,0.0,1,0.0,0.0,0.0,0,0,0,0,0,0,250,250,0,,,,,,,,,,,,,,,,
8883,0,,,,,,,,-0.01,0.0,-3.0,0,0,0,0.01,,72,0,4,48,98,0.506,0.0,113,1.0,13.2,0.0,1,0.0,0.0,0.0,0,0,0,0,0,0,250,250,0,,,,,,,,,,,,,,,,
8903,0,,,,,,,,-0.01,0.0,-2.99,0,0,0,0.01,,72,0,4,48,98,0.506,0.0,113,1.0,13.2,0.0,1,0.0,0.0,0.0,0,0,0,0,0,0,250,250,0,,,,,,,,,,,,,,,,
8923,0,,,,,,,,-0.01,0.0,-2.99,0,0,0,0.01,,72,0,4,48,98,0.506,0.0,113,1.0,13.2,0.0,1,0.0,0.0,0.0,0,0,0,0,0,0,250,250,0,,,,,,,,,,,,,,,,
8943,0,14,9,39,39,33,32,-1,-0.01,0.0,-2.99,0,0,0,0.01,0,72,0,4,48,98,0.506,0.0,113,1.0,13.2,0.0,1,0.0,0.0,0.0,0,0,0,0,0,0,250,250,0,0.0,0.0,0.0,0.0,0,0,0.0,0,0.0,-1,0.0,,0.0,0,0.0,0.149
8963,0,,,,,,,,-0.01,0.0,-3.0,0,0,0,0.01,,72,0,4,48,98,0.506,0.0,113,1.0,13.2,0.0,1,0.0,0.0,0.0,0,0,0,0,0,0,250,250,0,,,,,,,,,,,,,,,,
8983,0,,,,,,,,-0.01,0.0,-3.0,0,0,0,0.01,,72,0,4,48,98,0.506,0.0,113,1.0,13.2,0.0,1,0.0,0.0,0.0,0,0,0,0,0,0,250,250,0,,,,,,,,,,,,,,,,
9003,0,,,,,,,,-0.01,0.0,-2.99,0,0,0,0.01,,72,0,4,48,98,0.506,0.0,114,1.0,13.2,0.0,1,0.0,0.0,0.0,0,0,0,0,0,0,250,250,0,,,,,,,,,,,,,,,,
9023,0,,,,,,,,-0.01,0.0,-2.99,0,0,0,0.01,,72,0,4,48,98,0.506,0.0,113,1.0,13.2,0.0,1,0.0,0.0,0.0,0,0,0,0,0,0,250,250,0,,,,,,,,,,,,,,,,
9043,0,13,9,39,39,33,32,-1,-0.01,0.0,-2.99,0,0,0,0.01,0,72,0,4,48,98,0.506,0.0,113,1.0,13.2,0.0,1,0.0,0.0,0.0,0,0,0,0,0,0,250,250,0,0.0,0.0,0.0,0.0,0,0,0.0,0,0.0,-1,0.0,0.0,0.0,0,0.0,0.1507
9063,0,,,,,,,,-0.01,0.0,-3.0,0,0,0,0.01,,72,0,4,48,98,0.506,0.0,113,1.0,13.2,0.0,1,0.0,0.0,0.0,0,0,0,0,0,0,250,250,0,,,,,,,,,,,,,,,,
9083,0,,,,,,,,-0.01,0.0,-3.0,0,0,0,0.01,,72,0,4,48,98,0.506,0.0,113,1.0,13.2,0.0,1,0.0,0.0,0.0,0,0,0,0,0,0,250,250,0,,,,,,,,,,,,,,,,
9103,0,,,,,,,,-0.01,0.0,-3.0,0,0,0,0.01,,72,0,4,48,98,0.506,0.0,113,1.0,13.2,0.0,1,0.0,0.0,0.0,0,0,0,0,0,0,250,250,0,,,,,,,,,,,,,,,,
9123,0,,,,,,,,-0.01,0.0,-3.0,0,0,0,0.01,,72,0,4,48,98,0.506,0.0,113,1.0,13.2,0.0,1,0.0,0.0,0.0,0,0,0,0,0,0,250,250,0,,,,,,,,,,,,,,,,
9143,0,13,6,39,39,33,32,-1,-0.01,0.0,-3.0,0,0,0,0.01,0,72,0,4,48,98,0.506,0.0,113,1.0,13.2,0.0,1,0.0,0.0,0.0,0,0,0,0,0,0,250,250,0,0.0,0.0,0.0,0.0,0,0,0.0,0,0.0,-1,0.0,,0.0,0,0.0,0.1524
9163,0,,,,,,,,-0.01,0.0,-3.0,0,0,0,0.01,,72,0,4,48,98,0.506,0.0,113,1.0,13.2,0.0,1,0.0,0.0,0.0,0,0,0,0,0,0,250,250,0,,,,,,,,,,,,,,,,
9183,0,,,,,,,,-0.01,0.0,-3.0,0,0,0,0.01,,72,0,4,48,98,0.506,0.0,113,1.0,13.2,0.0,1,0.0,0.0,0.0,0,0,0,0,0,0,250,250,0,,,,,,,,,,,,,,,,
9203,0,,,,,,,,-0.01,0.0,-3.0,0,0,0,0.01,,72,0,4,48,98,0.506,0.0,113,1.0,13.2,0.0,1,0.0,0.0,0.0,0,0,0,0,0,0,250,250,0,,,,,,,,,,,,,,,,
9223,0,,,,,,,,-0.01,0.0,-3.0,0,0,0,0.01,,72,0,4,48,98,0.506,0.0,113,1.0,13.2,0.0,1,0.0,0.0,0.0,0,0,0,0,0,0,250,250,0,,,,,,,,,,,,,,,,
9243,0,12,7,39,39,33,32,-0,-0.01,0.0,-3.0,0,-0,0,0.01,0,72,0,4,48,98,0.506,0.0,113,1.0,13.2,0.0,1,0.0,0.0,0.0,0,0,0,0,0,0,250,250,0,0.0,0.0,0.0,0.0,0,0,0.0,0,0.0,-1,0.0,0.0,0.0,0,0.0,0.154
9263,0,,,,,,,,-0.01,0.0,-3.0,0,-0,0,0.01,,72,0,4,48,98,0.506,0.0,113,1.0,13.2,0.0,1,0.0,0.0,0.0,0,0,0,0,0,0,250,250,0,,,,,,,,,,,,,,,,
9283,0,,,,,,,,-0.01,0.0,-3.0,0,-0,0,0.01,,72,0,4,48,98,0.506,0.0,113,1.0,13.2,0.0,1,0.0,0.0,0.0,0,0,0,0,0,0,250,250,0,,,,,,,,,,,,,,,,
9303,0,,,,,,,,-0.01,0.0,-3.0,0,-0,0,0.01,,72,0,4,48,98,0.506,0.0,113,1.0,13.2,0.0,1,0.0,0.0,0.0,0,0,0,0,0,0,250,250,0,,,,,,,,,,,,,,,,
9323,0,,,,,,,,-0.01,0.0,-3.0,0,-0,0,0.01,,72,0,4,48,98,0.506,0.0,113,1.0,13.2,0.0,1,0.0,0.0,0.0,0,0,0,0,0,0,250,250,0,,,,,,,,,,,,,,,,
9343,0,12,6,39,39,33,32,-1,-0.01,0.0,-3.0,0,-0,0,0.01,0,72,0,4,48,98,0.506,0.0,113,1.0,13.2,0.0,1,0.0,0.0,0.0,0,0,0,0,0,0,250,250,0,0.0,0.0,0.0,0.0,0,0,0.0,0,0.0,-1,0.0,,0.0,0,0.0,0.1557
9363,0,,,,,,,,-0.01,0.0,-3.0,0,-0,0,0.01,,72,0,4,48,98,0.506,0.0,113,1.0,13.2,0.0,1,0.0,0.0,0.0,0,0,0,0,0,0,250,250,0,,,,,,,,,,,,,,,,
9383,0,,,,,,,,-0.01,0.0,-3.0,0,0,0,0.01,,72,0,4,48,98,0.506,0.0,113,1.0,13.2,0.0,1,0.0,0.0,0.0,0,0,0,0,0,0,250,250,0,,,,,,,,,,,,,,,,
9403,0,,,,,,,,-0.01,0.0,-2.99,0,0,0,0.01,,72,0,4,48,98,0.506,0.0,113,1.0,13.2,0.0,1,0.0,0.0,0.0,0,0,0,0,0,0,250,250,0,,,,,,,,,,,,,,,,
9423,0,,,,,,,,-0.01,0.0,-2.99,0,0,0,0.01,,72,0,4,48,98,0.506,0.0,113,1.0,13.2,0.0,1,0.0,0.0,0.0,0,0,0,0,0,0,250,250,0,,,,,,,,,,,,,,,,
9443,0,12,7,39,39,33,32,-1,-0.01,0.0,-2.99,0,-0,0,0.01,0,72,0,4,48,98,0.506,0.0,113,1.0,13.2,0.0,1,0.0,0.0,0.0,0,0,0,0,0,0,250,250,0,0.0,0.0,0.0,0.0,0,0,0.0,0,0.0,-1,0.0,0.0,0.0,0,0.0,0.1574
9463,0,,,,,,,,-0.01,0.0,-2.99,0,-0,0,0.01,,72,0,4,48,98,0.506,0.0,113,1.0,13.2,0.0,1,0.0,0.0,0.0,0,0,0,0,0,0,250,250,0,,,,,,,,,,,,,,,,
9483,0,,,,,,,,-0.01,0.0,-2.99,0,0,0,0.01,,72,0,4,48,98,0.506,0.0,113,1.0,13.2,0.0,1,0.0,0.0,0.0,0,0,0,0,0,0,250,250,0,,,,,,,,,,,,,,,,
9503,0,,,,,,,,-0.01,0.0,-2.99,0,0,0,0.01,,72,0,4,48,98,0.506,0.0,113,1.0,13.2,0.0,1,0.0,0.0,0.0,0,0,0,0,0,0,250,250,0,,,,,,,,,,,,,,,,
9523,0,,,,,,,,-0.01,0.0,-2.99,0,0,0,0.01,,72,0,4,48,98,0.506,0.0,113,1.0,13.2,0.0,1,0.0,0.0,0.0,0,0,0,0,0,0,250,250,0,,,,,,,,,,,,,,,,
9543,0,12,8,38,39,33,32,-0,-0.01,0.0,-2.99,0,0,0,0.01,0,72,0,4,48,98,0.506,0.0,113,1.0,13.2,0.0,1,0.0,0.0,0.0,0,0,0,0,0,0,250,250,0,0.0,0.0,0.0,0.0,0,0,0.0,0,0.0,-1,0.0,,0.0,0,0.0,0.159
9563,0,,,,,,,,-0.01,0.0,-2.99,0,0,0,0.01,,72,0,4,48,98,0.506,0.0,113,1.0,13.2,0.0,1,0.0,0.0,0.0,0,0,0,0,0,0,250,250,0,,,,,,,,,,,,,,,,
9583,0,,,,,,,,-0.01,0.0,-2.99,0,0,0,0.01,,72,0,4,48,98,0.506,0.0,113,1.0,13.2,0.0,1,0.0,0.0,0.0,0,0,0,0,0,0,250,250,0,,,,,,,,,,,,,,,,
9603,0,,,,,,,,-0.01,0.0,-2.99,0,0,0,0.01,,72,0,4,48,98,0.506,0.0,113,1.0,13.2,0.0,1,0.0,0.0,0.0,0,0,0,0,0,0,250,250,0,,,,,,,,,,,,,,,,
9623,0,,,,,,,,-0.01,0.0,-2.99,0,0,0,0.01,,72,0,4,48,98,0.506,0.0,113,1.0,13.2,0.0,1,0.0,0.0,0.0,0,0,0,0,0,0,250,250,0,,,,,,,,,,,,,,,,
9643,0,11,7,39,39,33,32,-0,-0.01,0.0,-2.99,0,0,0,0.01,0,72,0,4,48,98,0.506,0.0,112,1.0,13.2,0.0,1,0.0,0.0,0.0,0,0,0,0,0,0,250,250,0,0.0,0.0,0.0,0.0,0,0,0.0,0,0.0,-1,0.0,0.0,0.0,0,0.0,0.1607
9663,0,,,,,,,,-0.01,0.0,-2.99,0,0,0,0.01,,72,0,4,48,98,0.506,0.0,113,1.0,13.2,0.0,1,0.0,0.0,0.0,0,0,0,0,0,0,250,250,0,,,,,,,,,,,,,,,,
9683,0,,,,,,,,-0.01,0.0,-2.99,0,0,0,0.01,,72,0,4,48,98,0.506,0.0,113,1.0,13.2,0.0,1,0.0,0.0,0.0,0,0,0,0,0,0,250,250,0,,,,,,,,,,,,,,,,
9703,0,,,,,,,,-0.01,0.0,-2.99,0,0,0,0.01,,72,0,4,48,98,0.506,0.0,113,1.0,13.2,0.0,1,0.0,0.0,0.0,0,0,0,0,0,0,250,250,0,,,,,,,,,,,,,,,,
9723,0,,,,,,,,-0.01,0.0,-3.0,0,0,0,0.01,,72,0,4,48,98,0.506,0.0,113,1.01,13.2,0.0,1,0.0,0.0,0.0,0,0,0,0,0,0,250,250,0,,,,,,,,,,,,,,,,
9743,0,12,7,39,39,33,32,-1,-0.01,0.0,-3.0,0,0,0,0.01,0,72,0,4,48,98,0.506,0.0,113,1.01,13.2,0.0,1,0.0,0.0,0.0,0,0,0,0,0,0,250,250,0,0.0,0.0,0.0,0.0,0,0,0.0,0,0.0,-1,0.0,,0.0,0,0.0,0.1624
9763,0,,,,,,,,-0.01,0.0,-2.99,0,0,0,0.01,,72,0,4,48,98,0.506,0.0,113,1.0,13.2,0.0,1,0.0,0.0,0.0,0,0,0,0,0,0,250,250,0,,,,,,,,,,,,,,,,
9783,0,,,,,,,,-0.01,0.0,-2.99,0,0,0,0.01,,72,0,4,48,98,0.506,0.0,113,1.0,13.2,0.0,1,0.0,0.0,0.0,0,0,0,0,0,0,250,250,0,,,,,,,,,,,,,,,,
9803,0,,,,,,,,-0.01,0.0,-2.99,0,0,0,0.01,,72,0,4,48,98,0.506,0.0,113,1.0,13.2,0.0,1,0.0,0.0,0.0,0,0,0,0,0,0,250,250,0,,,,,,,,,,,,,,,,
9823,0,,,,,,,,-0.01,0.0,-2.99,0,0,0,0.01,,72,0,4,48,98,0.506,0.0,113,1.0,13.2,0.0,1,0.0,0.0,0.0,0,0,0,0,0,0,250,250,0,,,,,,,,,,,,,,,,
9843,0,10,7,39,40,33,32,-1,-0.01,0.0,-2.99,0,0,0,0.01,0,72,0,4,48,98,0.506,0.0,113,1.0,13.2,0.0,1,0.0,0.0,0.0,0,0,0,0,0,0,250,250,0,0.0,0.0,0.0,0.0,0,0,0.0,0,0.0,-1,0.0,0.0,0.0,0,0.0,0.164
9863,0,,,,,,,,-0.01,0.0,-2.99,0,0,0,0.01,,72,0,4,48,98,0.506,0.0,113,1.0,13.2,0.0,1,0.0,0.0,0.0,0,0,0,0,0,0,250,250,0,,,,,,,,,,,,,,,,
9883,0,,,,,,,,-0.01,0.0,-2.99,0,0,0,0.01,,72,0,4,48,98,0.506,0.0,113,1.0,13.2,0.0,1,0.0,0.0,0.0,0,0,0,0,0,0,250,250,0,,,,,,,,,,,,,,,,
9903,0,,,,,,,,-0.01,0.0,-2.99,0,0,0,0.01,,72,0,4,48,98,0.506,0.0,113,1.0,13.2,0.0,1,0.0,0.0,0.0,0,0,0,0,0,0,250,250,0,,,,,,,,,,,,,,,,
9923,0,,,,,,,,-0.01,0.0,-2.99,0,0,0,0.01,,72,0,4,48,98,0.506,0.0,113,1.0,13.2,0.0,1,0.0,0.0,0.0,0,0,0,0,0,0,250,250,0,,,,,,,,,,,,,,,,
9943,0,12,7,39,40,33,32,-1,-0.01,0.0,-2.99,0,0,0,0.01,0,72,0,4,48,98,0.506,0.0,113,1.0,13.2,0.0,1,0.0,0.0,0.0,0,0,0,0,0,0,250,250,0,0.0,0.0,0.0,0.0,0,0,0.0,0,0.0,-1,0.0,,0.0,0,0.0,0.1657
9963,0,,,,,,,,-0.01,0.0,-3.0,0,0,0,0.01,,72,0,4,48,98,0.506,0.0,113,1.0,13.2,0.0,1,0.0,0.0,0.0,0,0,0,0,0,0,250,250,0,,,,,,,,,,,,,,,,
9983,0,,,,,,,,-0.01,0.0,-3.0,0,0,0,0.01,,72,0,4,48,98,0.506,0.0,113,1.0,13.2,0.0,1,0.0,0.0,0.0,0,0,0,0,0,0,250,250,0,,,,,,,,,,,,,,,,
10003,0,,,,,,,,-0.01,0.0,-3.0,0,0,0,0.01,,72,0,4,48,98,0.506,0.0,112,1.0,13.2,0.0,1,0.0,0.0,0.0,0,0,0,0,0,0,250,250,0,,,,,,,,,,,,,,,,
10023,0,,,,,,,,-0.01,0.0,-3.0,0,0,0,0.01,,72,0,4,48,98,0.506,0.0,113,1.0,13.2,0.0,1,0.0,0.0,0.0,0,0,0,0,0,0,250,250,0,,,,,,,,,,,,,,,,
10043,0,11,7,39,39,33,32,-0,-0.01,0.0,-3.0,0,0,0,0.01,0,72,0,4,48,98,0.506,0.0,113,1.0,13.2,0.0,1,0.0,0.0,0.0,0,0,0,0,0,0,250,250,0,0.0,0.0,0.0,0.0,0,0,0.0,0,0.0,-1,0.0,0.0,0.0,0,0.0,0.1674
10063,0,,,,,,,,-0.01,0.0,-3.0,0,0,0,0.01,,72,0,4,48,98,0.506,0.0,113,1.0,13.2,0.0,1,0.0,0.0,0.0,0,0,0,0,0,0,250,250,0,,,,,,,,,,,,,,,,
10083,0,,,,,,,,-0.01,0.0,-3.0,0,0,0,0.01,,72,0,4,48,98,0.506,0.0,113,1.0,13.2,0.0,1,0.0,0.0,0.0,0,0,0,0,0,0,250,250,0,,,,,,,,,,,,,,,,
10103,0,,,,,,,,-0.01,0.0,-3.0,0,0,0,0.01,,72,0,4,48,98,0.506,0.0,113,1.0,13.2,0.0,1,0.0,0.0,0.0,0,0,0,0,0,0,250,250,0,,,,,,,,,,,,,,,,
10123,0,,,,,,,,-0.01,0.0,-3.0,0,0,0,0.01,,72,0,4,48,98,0.506,0.0,113,1.0,13.2,0.0,1,0.0,0.0,0.0,0,0,0,0,0,0,250,250,0,,,,,,,,,,,,,,,,
10143,0,12,7,39,39,33,32,-1,-0.01,0.0,-3.0,0,0,0,0.01,0,72,0,4,48,98,0.506,0.0,113,1.0,13.2,0.0,1,0.0,0.0,0.0,0,0,0,0,0,0,250,250,0,0.0,0.0,0.0,0.0,0,0,0.0,0,0.0,-1,0.0,,0.0,0,0.0,0.169
10163,0,,,,,,,,-0.01,0.0,-3.0,0,0,0,0.01,,72,0,4,48,98,0.506,0.0,113,1.0,13.2,0.0,1,0.0,0.0,0.0,0,0,0,0,0,0,250,250,0,,,,,,,,,,,,,,,,
10183,0,,,,,,,,-0.01,0.0,-3.0,0,0,0,0.01,,72,0,4,48,98,0.506,0.0,113,1.0,13.2,0.0,1,0.0,0.0,0.0,0,0,0,0,0,0,250,250,0,,,,,,,,,,,,,,,,
10203,0,,,,,,,,-0.01,0.0,-3.0,0,0,0,0.01,,72,0,4,48,98,0.506,0.0,113,1.0,13.2,0.0,1,0.0,0.0,0.0,0,0,0,0,0,0,250,250,0,,,,,,,,,,,,,,,,
10223,0,,,,,,,,-0.01,0.0,-3.0,0,0,0,0.01,,72,0,4,48,98,0.506,0.0,113,1.0,13.2,0.0,1,0.0,0.0,0.0,0,0,0,0,0,0,250,250,0,,,,,,,,,,,,,,,,
10243,0,12,6,39,39,32,32,-0,-0.01,0.0,-2.99,0,0,0,0.01,0,72,0,4,48,98,0.506,0.0,113,1.0,13.2,0.0,1,0.0,0.0,0.0,0,0,0,0,0,0,250,250,0,0.0,0.0,0.0,0.0,0,0,0.0,0,0.0,-1,0.0,0.0,0.0,0,0.0,0.1707
10263,0,,,,,,,,-0.01,0.0,-2.99,0,0,0,0.01,,72,0,4,48,98,0.506,0.0,113,1.0,13.2,0.0,1,0.0,0.0,0.0,0,0,0,0,0,0,250,250,0,,,,,,,,,,,,,,,,
10283,0,,,,,,,,-0.01,0.0,-2.99,0,0,0,0.01,,72,0,4,48,98,0.506,0.0,113,1.0,13.2,0.0,1,0.0,0.0,0.0,0,0,0,0,0,0,250,250,0,,,,,,,,,,,,,,,,
10303,0,,,,,,,,-0.01,0.0,-2.99,0,0,0,0.01,,72,0,4,48,98,0.506,0.0,113,1.0,13.2,0.0,1,0.0,0.0,0.0,0,0,0,0,0,0,250,250,0,,,,,,,,,,,,,,,,
10323,0,,,,,,,,-0.01,0.0,-2.99,0,0,0,0.01,,72,0,4,48,98,0.506,0.0,113,1.0,13.2,0.0,1,0.0,0.0,0.0,0,0,0,0,0,0,250,250,0,,,,,,,,,,,,,,,,
10343,0,11,7,38,40,33,32,-0,-0.01,0.0,-2.99,0,0,0,0.01,0,72,0,4,48,98,0.506,0.0,113,1.0,13.2,0.0,1,0.0,0.0,0.0,0,0,0,0,0,0,250,250,0,0.0,0.0,0.0,0.0,0,0,0.0,0,0.0,-1,0.0,,0.0,0,0.0,0.1724
10363,0,,,,,,,,-0.01,0.0,-2.99,0,0,0,0.01,,72,0,4,48,98,0.506,0.0,113,1.0,13.2,0.0,1,0.0,0.0,0.0,0,0,0,0,0,0,250,250,0,,,,,,,,,,,,,,,,
10383,0,,,,,,,,-0.01,0.0,-2.99,0,0,0,0.01,,72,0,4,48,98,0.506,0.0,113,1.0,13.2,0.0,1,0.0,0.0,0.0,0,0,0,0,0,0,250,250,0,,,,,,,,,,,,,,,,
10403,0,,,,,,,,-0.01,0.0,-2.99,0,0,0,0.01,,72,0,4,48,98,0.506,0.0,113,1.0,13.2,0.0,1,0.0,0.0,0.0,0,0,0,0,0,0,250,250,0,,,,,,,,,,,,,,,,
10423,0,,,,,,,,-0.01,0.0,-2.99,0,0,0,0.01,,72,0,4,48,98,0.506,0.0,113,1.0,13.2,0.0,1,0.0,0.0,0.0,0,0,0,0,0,0,250,250,0,,,,,,,,,,,,,,,,
10443,0,12,6,39,39,33,32,-1,-0.01,0.0,-2.99,0,0,0,0.01,0,72,0,4,48,98,0.506,0.0,113,1.0,13.2,0.0,1,0.0,0.0,0.0,0,0,0,0,0,0,250,250,0,0.0,0.0,0.0,0.0,0,0,0.0,0,0.0,-1,0.0,0.0,0.0,0,0.0,0.174
10463,0,,,,,,,,-0.01,0.0,-2.99,0,0,0,0.01,,72,0,4,48,98,0.506,0.0,113,1.0,13.2,0.0,1,0.0,0.0,0.0,0,0,0,0,0,0,250,250,0,,,,,,,,,,,,,,,,
10483,0,,,,,,,,-0.01,0.0,-2.99,0,0,0,0.01,,72,0,4,48,98,0.506,0.0,113,1.0,13.2,0.0,1,0.0,0.0,0.0,0,0,0,0,0,0,250,250,0,,,,,,,,,,,,,,,,
10503,0,,,,,,,,-0.01,0.0,-3.0,0,0,0,0.01,,72,0,4,48,98,0.506,0.0,113,1.0,13.2,0.0,1,0.0,0.0,0.0,0,0,0,0,0,0,250,250,0,,,,,,,,,,,,,,,,
10523,0,,,,,,,,-0.01,0.0,-3.0,0,0,0,0.01,,72,0,4,48,98,0.506,0.0,113,1.0,13.2,0.0,1,0.0,0.0,0.0,0,0,0,0,0,0,250,250,0,,,,,,,,,,,,,,,,
10543,0,11,7,39,39,33,32,-0,-0.01,0.0,-3.0,0,0,0,0.01,0,72,0,4,48,98,0.506,0.0,113,1.0,13.2,0.0,1,0.0,0.0,0.0,0,0,0,0,0,0,250,250,0,0.0,0.0,0.0,0.0,0,0,0.0,0,0.0,-1,0.0,,0.0,0,0.0,0.1757
10563,0,,,,,,,,-0.01,0.0,-3.0,0,0,0,0.01,,72,0,4,48,98,0.506,0.0,113,1.0,13.2,0.0,1,0.0,0.0,0.0,0,0,0,0,0,0,250,250,0,,,,,,,,,,,,,,,,
10583,0,,,,,,,,-0.01,0.0,-3.0,0,0,0,0.01,,72,0,4,48,98,0.506,0.0,113,1.0,13.2,0.0,1,0.0,0.0,0.0,0,0,0,0,0,0,250,250,0,,,,,,,,,,,,,,,,
10603,0,,,,,,,,-0.01,0.0,-3.0,0,0,0,0.01,,72,0,4,48,98,0.506,0.0,113,1.0,13.2,0.0,1,0.0,0.0,0.0,0,0,0,0,0,0,250,250,0,,,,,,,,,,,,,,,,
10623,0,,,,,,,,-0.01,0.0,-3.0,0,0,0,0.01,,72,0,4,48,98,0.506,0.0,113,1.0,13.2,0.0,1,0.0,0.0,0.0,0,0,0,0,0,0,250,250,0,,,,,,,,,,,,,,,,
10643,0,10,7,39,39,33,32,-1,-0.01,0.0,-3.0,0,0,0,0.01,0,72,0,4,48,98,0.506,0.0,113,1.0,13.2,0.0,1,0.0,0.0,0.0,0,0,0,0,0,0,250,250,0,0.0,0.0,0.0,0.0,0,0,0.0,0,0.0,-1,0.0,0.0,0.0,0,0.0,0.1774
10663,0,,,,,,,,-0.01,0.0,-3.0,0,0,0,0.01,,72,0,4,48,98,0.506,0.0,113,1.0,13.2,0.0,1,0.0,0.0,0.0,0,0,0,0,0,0,250,250,0,,,,,,,,,,,,,,,,
10683,0,,,,,,,,-0.01,0.0,-3.0,0,0,0,0.01,,72,0,4,48,98,0.506,0.0,113,1.0,13.2,0.0,1,0.0,0.0,0.0,0,0,0,0,0,0,250,250,0,,,,,,,,,,,,,,,,
10703,0,,,,,,,,-0.01,0.0,-3.0,0,0,0,0.01,,72,0,4,48,98,0.506,0.0,113,1.0,13.2,0.0,1,0.0,0.0,0.0,0,0,0,0,0,0,250,250,0,,,,,,,,,,,,,,,,
10723,0,,,,,,,,-0.01,0.0,-3.0,0,0,0,0.01,,72,0,4,48,98,0.506,0.0,113,1.0,13.2,0.0,1,0.0,0.0,0.0,0,0,0,0,0,0,250,250,0,,,,,,,,,,,,,,,,
10743,0,11,7,39,39,33,32,-0,-0.01,0.0,-3.0,0,0,0,0.01,0,72,0,4,48,98,0.506,0.0,113,1.0,13.2,0.0,1,0.0,0.0,0.0,0,0,0,0,0,0,250,250,0,0.0,0.0,0.0,0.0,0,0,0.0,0,0.0,-1,0.0,,0.0,0,0.0,0.179
10763,0,,,,,,,,-0.01,0.0,-3.0,0,0,0,0.01,,72,0,4,48,98,0.506,0.0,113,1.0,13.2,0.0,1,0.0,0.0,0.0,0,0,0,0,0,0,250,250,0,,,,,,,,,,,,,,,,
10783,0,,,,,,,,-0.01,0.0,-3.0,0,0,0,0.01,,72,0,4,48,98,0.506,0.0,113,1.0,13.2,0.0,1,0.0,0.0,0.0,0,0,0,0,0,0,250,250,0,,,,,,,,,,,,,,,,
10803,0,,,,,,,,-0.01,0.0,-3.0,0,-0,0,0.01,,72,0,5,48,98,0.506,0.0,113,1.0,13.2,0.0,1,0.0,0.0,0.0,0,0,0,0,0,0,250,250,0,,,,,,,,,,,,,,,,
10823,0,,,,,,,,-0.01,0.0,-3.0,0,0,0,0.01,,72,0,5,48,98,0.506,0.0,113,1.0,13.2,0.0,1,0.0,0.0,0.0,0,0,0,0,0,0,250,250,0,,,,,,,,,,,,,,,,
10843,0,11,7,39,39,33,32,-0,-0.01,0.0,-3.0,0,-0,0,0.01,0,72,0,5,48,98,0.506,0.0,113,1.0,13.2,0.0,1,0.0,0.0,0.0,0,0,0,0,0,0,250,250,0,0.0,0.0,0.0,0.0,0,0,0.0,0,0.0,-1,0.0,0.0,0.0,0,0.0,0.1807
10863,0,,,,,,,,-0.01,0.0,-3.0,0,0,0,0.01,,72,0,5,48,98,0.506,0.0,113,1.0,13.2,0.0,1,0.0,0.0,0.0,0,0,0,0,0,0,250,250,0,,,,,,,,,,,,,,,,
10883,0,,,,,,,,-0.01,0.0,-3.0,0,-0,0,0.01,,72,0,6,48,98,0.506,0.0,113,1.0,13.2,0.0,1,0.0,0.0,0.0,0,0,0,0,0,0,250,250,0,,,,,,,,,,,,,,,,
10903,0,,,,,,,,-0.01,0.0,-3.0,0,-0,0,0.01,,72,0,6,48,98,0.506,0.0,113,1.0,13.2,0.0,1,0.0,0.0,0.0,0,0,0,0,0,0,250,250,0,,,,,,,,,,,,,,,,
10923,0,,,,,,,,-0.01,0.0,-2.99,0,-0,0,0.01,,72,0,7,48,98,0.506,0.0,113,1.0,13.2,0.0,1,0.0,0.0,0.0,0,0,0,0,0,0,250,250,0,,,,,,,,,,,,,,,,
10943,0,11,7,39,39,33,32,-2,-0.01,0.0,-3.0,0,-0,0,0.01,0,72,0,7,48,98,0.506,0.0,113,1.0,13.2,0.0,1,0.0,0.0,0.0,0,0,0,0,0,0,250,250,0,0.0,0.0,0.0,0.0,0,0,0.0,0,0.0,-1,0.0,,0.0,0,0.0,0.1824
10963,0,,,,,,,,-0.01,0.0,-3.0,0,-0,0,0.01,,72,0,7,48,98,0.506,0.0,113,1.0,13.2,0.0,1,0.0,0.0,0.0,0,0,0,0,0,0,250,250,0,,,,,,,,,,,,,,,,
10983,0,,,,,,,,-0.01,0.0,-3.0,0,-0,0,0.01,,72,0,8,48,98,0.506,0.0,113,1.0,13.2,0.0,1,0.0,0.0,0.0,0,0,0,0,0,0,250,250,0,,,,,,,,,,,,,,,,
11003,0,,,,,,,,-0.01,0.0,-3.0,0,-0,0,0.01,,72,0,8,48,98,0.506,0.0,113,1.0,13.2,0.0,1,0.0,0.0,0.0,0,0,0,0,0,0,250,250,0,,,,,,,,,,,,,,,,
11023,0,,,,,,,,-0.01,0.0,-3.0,0,-0,0,0.01,,72,0,8,48,98,0.506,0.0,113,1.0,13.2,0.0,1,0.0,0.0,0.0,0,0,0,0,0,0,250,250,0,,,,,,,,,,,,,,,,
11043,0,10,7,39,39,33,32,-1,-0.01,0.0,-3.0,0,-0,0,0.01,0,72,0,8,48,98,0.506,0.0,113,1.0,13.2,0.0,1,0.0,0.0,0.0,0,0,0,0,0,0,250,250,0,0.0,0.0,0.0,0.0,0,0,0.0,0,0.0,-1,0.0,0.0,0.0,0,0.0,0.184
11063,0,,,,,,,,-0.01,0.0,-3.0,0,-0,0,0.01,,72,0,8,48,98,0.506,0.0,113,1.0,13.2,0.0,1,0.0,0.0,0.0,0,0,0,0,0,0,250,250,0,,,,,,,,,,,,,,,,
11083,0,,,,,,,,-0.01,0.0,-3.0,0,-0,0,0.01,,72,0,8,48,98,0.506,0.0,113,1.0,13.2,0.0,1,0.0,0.0,0.0,0,0,0,0,0,0,250,250,0,,,,,,,,,,,,,,,,
11103,0,,,,,,,,-0.01,0.0,-3.0,0,-0,0,0.01,,72,0,8,48,98,0.506,0.0,113,1.0,13.2,0.0,1,0.0,0.0,0.0,0,0,0,0,0,0,250,250,0,,,,,,,,,,,,,,,,
11123,0,,,,,,,,-0.01,0.0,-3.0,0,-0,0,0.01,,72,0,8,48,98,0.506,0.0,113,1.0,13.2,0.0,1,0.0,0.0,0.0,0,0,0,0,0,0,250,250,0,,,,,,,,,,,,,,,,
11143,0,10,7,39,39,33,32,-1,-0.01,0.0,-3.0,0,0,0,0.01,0,72,0,8,48,98,0.506,0.0,113,0.99,13.2,0.0,1,0.0,0.0,0.0,0,0,0,0,0,0,250,250,0,0.0,0.0,0.0,0.0,0,0,0.0,0,0.0,-1,0.0,,0.0,0,0.0,0.1857
11163,0,,,,,,,,-0.01,0.0,-3.0,0,0,0,0.01,,72,0,8,48,98,0.506,0.0,113,1.0,13.2,0.0,1,0.0,0.0,0.0,0,0,0,0,0,0,250,250,0,,,,,,,,,,,,,,,,
11183,0,,,,,,,,-0.01,0.0,-3.0,0,0,0,0.01,,72,0,8,48,98,0.506,0.0,113,1.0,13.2,0.0,1,0.0,0.0,0.0,0,0,0,0,0,0,250,250,0,,,,,,,,,,,,,,,,
11203,0,,,,,,,,-0.01,0.0,-3.0,0,0,0,0.01,,72,0,8,48,98,0.506,0.0,113,1.0,13.2,0.0,1,0.0,0.0,0.0,0,0,0,0,0,0,250,250,0,,,,,,,,,,,,,,,,
11223,0,,,,,,,,-0.01,0.0,-3.0,0,0,0,0.01,,72,0,8,48,98,0.506,0.0,113,1.0,13.2,0.0,1,0.0,0.0,0.0,0,0,0,0,0,0,250,250,0,,,,,,,,,,,,,,,,
11243,0,11,7,39,39,33,32,-1,-0.01,0.0,-3.0,0,0,0,0.01,0,72,0,8,48,98,0.506,0.0,113,1.0,13.2,0.0,1,0.0,0.0,0.0,0,0,0,0,0,0,250,250,0,0.0,0.0,0.0,0.0,0,0,0.0,0,0.0,-1,0.0,0.0,0.0,0,0.0,0.1874
11263,0,,,,,,,,-0.01,0.0,-3.0,0,0,0,0.01,,72,0,8,48,98,0.506,0.0,113,1.0,13.2,0.0,1,0.0,0.0,0.0,0,0,0,0,0,0,250,250,0,,,,,,,,,,,,,,,,
11283,0,,,,,,,,-0.01,0.0,-3.0,0,0,0,0.01,,72,0,8,48,98,0.506,0.0,113,1.0,13.2,0.0,1,0.0,0.0,0.0,0,0,0,0,0,0,250,250,0,,,,,,,,,,,,,,,,
11303,0,,,,,,,,-0.01,0.0,-2.99,0,0,0,0.01,,72,0,8,48,98,0.506,0.0,113,1.0,13.2,0.0,1,0.0,0.0,0.0,0,0,0,0,0,0,250,250,0,,,,,,,,,,,,,,,,
11323,0,,,,,,,,-0.01,0.0,-2.99,0,0,0,0.01,,72,0,8,48,98,0.506,0.0,113,1.0,13.2,0.0,1,0.0,0.0,0.0,0,0,0,0,0,0,250,250,0,,,,,,,,,,,,,,,,
11343,0,10,7,39,39,32,32,-1,-0.01,0.0,-2.99,0,0,0,0.01,0,72,0,8,48,98,0.506,0.0,113,1.0,13.2,0.0,1,0.0,0.0,0.0,0,0,0,0,0,0,250,250,0,0.0,0.0,0.0,0.0,0,0,0.0,0,0.0,-1,0.0,,0.0,0,0.0,0.189
11363,0,,,,,,,,-0.01,0.0,-3.0,0,0,0,0.01,,72,0,8,48,98,0.506,0.0,113,1.0,13.2,0.0,1,0.0,0.0,0.0,0,0,0,0,0,0,250,250,0,,,,,,,,,,,,,,,,
11383,0,,,,,,,,-0.01,0.0,-3.0,0,0,0,0.01,,72,0,8,48,98,0.506,0.0,113,1.0,13.2,0.0,1,0.0,0.0,0.0,0,0,0,0,0,0,250,250,0,,,,,,,,,,,,,,,,
11403,0,,,,,,,,-0.01,0.0,-3.0,0,0,0,0.01,,72,0,8,48,98,0.506,0.0,113,1.0,13.2,0.0,1,0.0,0.0,0.0,0,0,0,0,0,0,250,250,0,,,,,,,,,,,,,,,,
11423,0,,,,,,,,-0.01,0.0,-3.0,0,0,0,0.01,,72,0,8,48,98,0.506,0.0,113,1.0,13.2,0.0,1,0.0,0.0,0.0,0,0,0,0,0,0,250,250,0,,,,,,,,,,,,,,,,
11443,0,11,5,39,39,33,32,-1,-0.01,0.0,-3.0,0,-0,0,0.01,0,72,0,8,48,98,0.506,0.0,113,1.0,13.2,0.0,1,0.0,0.0,0.0,0,0,0,0,0,0,250,250,0,0.0,0.0,0.0,0.0,0,0,0.0,0,0.0,-1,0.0,0.0,0.0,0,0.0,0.1907
11463,0,,,,,,,,-0.01,0.0,-3.0,0,-0,0,0.01,,72,0,8,48,98,0.506,0.0,114,1.0,13.2,0.0,1,0.0,0.0,0.0,0,0,0,0,0,0,250,250,0,,,,,,,,,,,,,,,,
11483,0,,,,,,,,-0.01,0.0,-3.0,0,-0,0,0.01,,72,0,8,48,98,0.506,0.0,114,1.0,13.2,0.0,1,0.0,0.0,0.0,0,0,0,0,0,0,250,250,0,,,,,,,,,,,,,,,,
11503,0,,,,,,,,-0.01,0.0,-3.0,0,0,0,0.01,,72,0,8,48,98,0.506,0.0,114,1.0,13.2,0.0,1,0.0,0.0,0.0,0,0,0,0,0,0,250,250,0,,,,,,,,,,,,,,,,
11523,0,,,,,,,,-0.01,0.0,-3.0,0,0,0,0.01,,72,0,8,48,98,0.506,0.0,114,1.0,13.2,0.0,1,0.0,0.0,0.0,0,0,0,0,0,0,250,250,0,,,,,,,,,,,,,,,,
11543,0,10,7,38,39,33,32,-1,-0.01,0.0,-3.0,0,0,0,0.01,0,72,0,8,48,98,0.506,0.0,113,1.0,13.2,0.0,1,0.0,0.0,0.0,0,0,0,0,0,0,250,250,0,0.0,0.0,0.0,0.0,0,0,0.0,0,0.0,-1,0.0,,0.0,0,0.0,0.1924
11563,0,,,,,,,,-0.01,0.0,-3.0,0,0,0,0.01,,72,0,8,48,98,0.506,0.0,113,1.0,13.2,0.0,1,0.0,0.0,0.0,0,0,0,0,0,0,250,250,0,,,,,,,,,,,,,,,,
11583,0,,,,,,,,-0.01,0.0,-3.0,0,0,0,0.01,,72,0,8,48,98,0.506,0.0,113,1.0,13.2,0.0,1,0.0,0.0,0.0,0,0,0,0,0,0,250,250,0,,,,,,,,,,,,,,,,
11603,0,,,,,,,,-0.01,0.0,-3.0,0,0,0,0.01,,72,0,8,48,98,0.506,0.0,113,1.0,13.2,0.0,1,0.0,0.0,0.0,0,0,0,0,0,0,250,250,0,,,,,,,,,,,,,,,,
11623,0,,,,,,,,-0.01,0.0,-3.0,0,0,0,0.01,,72,0,8,48,98,0.506,0.0,113,1.0,13.2,0.0,1,0.0,0.0,0.0,0,0,0,0,0,0,250,250,0,,,,,,,,,,,,,,,,
11643,0,12,5,39,39,32,32,-2,-0.01,0.0,-3.0,0,0,0,0.01,0,72,0,8,48,98,0.506,0.0,113,1.0,13.2,0.0,1,0.0,0.0,0.0,0,0,0,0,0,0,250,250,0,0.0,0.0,0.0,0.0,0,0,0.0,0,0.0,-1,0.0,0.0,0.0,0,0.0,0.194
11663,0,,,,,,,,-0.01,0.0,-3.0,0,0,0,0.01,,72,0,8,48,98,0.506,0.0,113,1.0,13.2,0.0,1,0.0,0.0,0.0,0,0,0,0,0,0,250,250,0,,,,,,,,,,,,,,,,
11683,0,,,,,,,,-0.01,0.0,-3.0,0,0,0,0.01,,72,0,8,48,98,0.506,0.0,113,1.0,13.2,0.0,1,0.0,0.0,0.0,0,0,0,0,0,0,250,250,0,,,,,,,,,,,,,,,,
11703,0,,,,,,,,-0.01,0.0,-3.0,0,0,0,0.01,,72,0,8,48,98,0.506,0.0,113,1.0,13.2,0.0,1,0.0,0.0,0.0,0,0,0,0,0,0,250,250,0,,,,,,,,,,,,,,,,
11723,0,,,,,,,,-0.01,0.0,-3.0,0,0,0,0.01,,72,0,8,48,98,0.506,0.0,113,1.0,13.2,0.0,1,0.0,0.0,0.0,0,0,0,0,0,0,250,250,0,,,,,,,,,,,,,,,,
11743,0,11,6,39,39,33,32,-1,-0.01,0.0,-3.0,0,0,0,0.01,0,72,0,8,48,98,0.506,0.0,113,1.0,13.2,0.0,1,0.0,0.0,0.0,0,0,0,0,0,0,250,250,0,0.0,0.0,0.0,0.0,0,0,0.0,0,0.0,-1,0.0,,0.0,0,0.0,0.1957
11763,0,,,,,,,,-0.01,0.0,-3.0,0,0,0,0.01,,72,0,8,48,98,0.506,0.0,113,1.0,13.2,0.0,1,0.0,0.0,0.0,0,0,0,0,0,0,250,250,0,,,,,,,,,,,,,,,,
11783,0,,,,,,,,-0.01,0.0,-3.0,0,0,0,0.01,,72,0,8,48,98,0.506,0.0,113,1.0,13.2,0.0,1,0.0,0.0,0.0,0,0,0,0,0,0,250,250,0,,,,,,,,,,,,,,,,
11803,0,,,,,,,,-0.01,0.0,-3.0,0,0,0,0.01,,72,0,8,48,98,0.506,0.0,113,1.0,13.2,0.0,1,0.0,0.0,0.0,0,0,0,0,0,0,250,250,0,,,,,,,,,,,,,,,,
11823,0,,,,,,,,-0.01,0.0,-2.99,0,0,0,0.01,,72,0,8,48,98,0.506,0.0,113,1.0,13.2,0.0,1,0.0,0.0,0.0,0,0,0,0,0,0,250,250,0,,,,,,,,,,,,,,,,
11843,0,10,7,39,39,33,32,-1,-0.01,0.0,-2.99,0,0,0,0.01,0,72,0,8,48,98,0.506,0.0,113,1.0,13.2,0.0,1,0.0,0.0,0.0,0,0,0,0,0,0,250,250,0,0.0,0.0,0.0,0.0,0,0,0.0,0,0.0,-1,0.0,0.0,0.0,0,0.0,0.1974
11863,0,,,,,,,,-0.01,0.0,-3.0,0,0,0,0.01,,72,0,8,48,98,0.506,0.0,113,1.0,13.2,0.0,1,0.0,0.0,0.0,0,0,0,0,0,0,250,250,0,,,,,,,,,,,,,,,,
11883,0,,,,,,,,-0.01,0.0,-3.0,0,0,0,0.01,,72,0,8,48,98,0.506,0.0,113,1.0,13.2,0.0,1,0.0,0.0,0.0,0,0,0,0,0,0,250,250,0,,,,,,,,,,,,,,,,
11903,0,,,,,,,,-0.01,0.0,-2.99,0,0,0,0.01,,72,0,8,48,98,0.506,0.0,113,1.0,13.2,0.0,1,0.0,0.0,0.0,0,0,0,0,0,0,250,250,0,,,,,,,,,,,,,,,,
11923,0,,,,,,,,-0.01,0.0,-2.99,0,0,0,0.01,,72,0,8,48,98,0.506,0.0,113,1.0,13.2,0.0,1,0.0,0.0,0.0,0,0,0,0,0,0,250,250,0,,,,,,,,,,,,,,,,
11943,0,12,7,39,39,33,32,-1,-0.01,0.0,-3.0,0,0,0,0.01,0,72,0,8,48,98,0.506,0.0,113,1.0,13.2,0.0,1,0.0,0.0,0.0,0,0,0,0,0,0,250,250,0,0.0,0.0,0.0,0.0,0,0,0.0,0,0.0,-1,0.0,,0.0,0,0.0,0.199
11963,0,,,,,,,,-0.01,0.0,-3.0,0,0,0,0.01,,72,0,8,48,98,0.506,0.0,113,1.0,13.2,0.0,1,0.0,0.0,0.0,0,0,0,0,0,0,250,250,0,,,,,,,,,,,,,,,,
11983,0,,,,,,,,-0.01,0.0,-3.0,0,0,0,0.01,,72,0,8,48,98,0.506,0.0,113,1.0,13.2,0.0,1,0.0,0.0,0.0,0,0,0,0,0,0,250,250,0,,,,,,,,,,,,,,,,
12003,0,,,,,,,,-0.01,0.0,-3.0,0,0,0,0.01,,72,0,8,48,98,0.506,0.0,113,1.0,13.2,0.0,1,0.0,0.0,0.0,0,0,0,0,0,0,250,250,0,,,,,,,,,,,,,,,,
12023,0,,,,,,,,-0.01,0.0,-3.0,0,0,0,0.01,,72,0,8,48,98,0.506,0.0,113,1.0,13.2,0.0,1,0.0,0.0,0.0,0,0,0,0,0,0,250,250,0,,,,,,,,,,,,,,,,
12043,0,11,7,39,39,33,32,-0,-0.01,0.0,-3.0,0,0,0,0.01,0,72,0,8,48,98,0.506,0.0,113,1.0,13.2,0.0,1,0.0,0.0,0.0,0,0,0,0,0,0,250,250,0,0.0,0.0,0.0,0.0,0,0,0.0,0,0.0,-1,0.0,0.0,0.0,0,0.0,0.2007
12063,0,,,,,,,,-0.01,0.0,-2.99,0,0,0,0.01,,72,0,8,48,98,0.506,0.0,113,1.0,13.2,0.0,1,0.0,0.0,0.0,0,0,0,0,0,0,250,250,0,,,,,,,,,,,,,,,,
12083,0,,,,,,,,-0.01,0.0,-2.99,0,-0,0,0.01,,72,0,8,48,98,0.506,0.0,113,1.0,13.2,0.0,1,0.0,0.0,0.0,0,0,0,0,0,0,250,250,0,,,,,,,,,,,,,,,,
12103,0,,,,,,,,-0.01,0.0,-2.99,0,-0,0,0.01,,72,0,8,48,98,0.506,0.0,113,1.0,13.2,0.0,1,0.0,0.0,0.0,0,0,0,0,0,0,250,250,0,,,,,,,,,,,,,,,,
12123,0,,,,,,,,-0.01,0.0,-2.99,0,0,0,0.01,,72,0,8,48,98,0.506,0.0,113,1.0,13.2,0.0,1,0.0,0.0,0.0,0,0,0,0,0,0,250,250,0,,,,,,,,,,,,,,,,
12143,0,11,5,39,39,33,32,-0,-0.01,0.0,-2.99,0,0,0,0.01,0,72,0,8,48,98,0.506,0.0,113,1.0,13.2,0.0,1,0.0,0.0,0.0,0,0,0,0,0,0,250,250,0,0.0,0.0,0.0,0.0,0,0,0.0,0,0.0,-1,0.0,,0.0,0,0.0,0.2024
12163,0,,,,,,,,-0.01,0.0,-2.99,0,0,0,0.01,,72,0,8,48,98,0.506,0.0,113,1.0,13.2,0.0,1,0.0,0.0,0.0,0,0,0,0,0,0,250,250,0,,,,,,,,,,,,,,,,
12183,0,,,,,,,,-0.01,0.0,-2.99,0,-0,0,0.01,,72,0,8,48,98,0.506,0.0,113,1.0,13.2,0.0,1,0.0,0.0,0.0,0,0,0,0,0,0,250,250,0,,,,,,,,,,,,,,,,
12203,0,,,,,,,,-0.01,0.0,-2.99,0,-0,0,0.01,,72,0,8,48,98,0.506,0.0,113,1.0,13.2,0.0,1,0.0,0.0,0.0,0,0,0,0,0,0,250,250,0,,,,,,,,,,,,,,,,
12223,0,,,,,,,,-0.01,0.0,-2.99,0,-0,0,0.01,,72,0,8,48,98,0.506,0.0,113,1.0,13.2,0.0,1,0.0,0.0,0.0,0,0,0,0,0,0,250,250,0,,,,,,,,,,,,,,,,
12243,0,11,7,39,39,33,32,-1,-0.01,0.0,-2.99,0,0,0,0.01,0,72,0,8,48,98,0.506,0.0,113,1.0,13.2,0.0,1,0.0,0.0,0.0,0,0,0,0,0,0,250,250,0,0.0,0.0,0.0,0.0,0,0,0.0,0,0.0,-1,0.0,0.0,0.0,0,0.0,0.204
12263,0,,,,,,,,-0.01,0.0,-2.99,0,-0,0,0.01,,72,0,8,48,98,0.506,0.0,113,1.0,13.2,0.0,1,0.0,0.0,0.0,0,0,0,0,0,0,250,250,0,,,,,,,,,,,,,,,,
12283,0,,,,,,,,-0.01,0.0,-2.99,0,-0,0,0.01,,72,0,8,48,98,0.506,0.0,113,1.0,13.2,0.0,1,0.0,0.0,0.0,0,0,0,0,0,0,250,250,0,,,,,,,,,,,,,,,,
12303,0,,,,,,,,-0.01,0.0,-2.99,0,-0,0,0.01,,72,0,8,48,98,0.506,0.0,113,1.0,13.2,0.0,1,0.0,0.0,0.0,0,0,0,0,0,0,250,250,0,,,,,,,,,,,,,,,,
12323,0,,,,,,,,-0.01,0.0,-2.99,0,-0,0,0.01,,72,0,8,48,98,0.506,0.0,113,1.0,13.2,0.0,1,0.0,0.0,0.0,0,0,0,0,0,0,250,250,0,,,,,,,,,,,,,,,,
12343,0,10,7,39,39,33,32,-1,-0.01,0.0,-2.99,0,0,0,0.01,0,72,0,8,48,98,0.506,0.0,113,1.0,13.2,0.0,1,0.0,0.0,0.0,0,0,0,0,0,0,250,250,0,0.0,0.0,0.0,0.0,0,0,0.0,0,0.0,-1,0.0,,0.0,0,0.0,0.2057
12363,0,,,,,,,,-0.01,0.0,-2.99,0,0,0,0.01,,72,0,8,48,98,0.506,0.0,113,1.0,13.2,0.0,1,0.0,0.0,0.0,0,0,0,0,0,0,250,250,0,,,,,,,,,,,,,,,,
12383,0,,,,,,,,-0.01,0.0,-2.99,0,0,0,0.01,,72,0,8,48,98,0.506,0.0,113,1.0,13.2,0.0,1,0.0,0.0,0.0,0,0,0,0,0,0,250,250,0,,,,,,,,,,,,,,,,
12403,0,,,,,,,,-0.01,0.0,-2.99,0,0,0,0.01,,72,0,8,48,98,0.506,0.0,113,1.0,13.2,0.0,1,0.0,0.0,0.0,0,0,0,0,0,0,250,250,0,,,,,,,,,,,,,,,,
12423,0,,,,,,,,-0.01,0.0,-2.99,0,0,0,0.01,,72,0,8,48,98,0.506,0.0,113,1.0,13.2,0.0,1,0.0,0.0,0.0,0,0,0,0,0,0,250,250,0,,,,,,,,,,,,,,,,
12443,0,11,7,39,39,33,32,-0,-0.01,0.0,-2.99,0,0,0,0.01,0,72,0,8,48,98,0.506,0.0,113,1.0,13.2,0.0,1,0.0,0.0,0.0,0,0,0,0,0,0,250,250,0,0.0,0.0,0.0,0.0,0,0,0.0,0,0.0,-1,0.0,0.0,0.0,0,0.0,0.2074
12463,0,,,,,,,,-0.01,0.0,-2.99,0,0,0,0.01,,72,0,8,48,98,0.506,0.0,112,1.0,13.2,0.0,1,0.0,0.0,0.0,0,0,0,0,0,0,250,250,0,,,,,,,,,,,,,,,,
12483,0,,,,,,,,-0.01,0.0,-2.99,0,0,0,0.01,,72,0,8,48,98,0.506,0.0,113,1.0,13.2,0.0,1,0.0,0.0,0.0,0,0,0,0,0,0,250,250,0,,,,,,,,,,,,,,,,
12503,0,,,,,,,,-0.01,0.0,-2.99,0,0,0,0.01,,72,0,8,48,98,0.506,0.0,113,1.0,13.2,0.0,1,0.0,0.0,0.0,0,0,0,0,0,0,250,250,0,,,,,,,,,,,,,,,,
12523,0,,,,,,,,-0.01,0.0,-2.99,0,0,0,0.01,,72,0,8,48,98,0.506,0.0,113,1.0,13.2,0.0,1,0.0,0.0,0.0,0,0,0,0,0,0,250,250,0,,,,,,,,,,,,,,,,
12543,0,11,5,39,39,33,32,-0,-0.01,0.0,-3.0,0,0,0,0.01,0,72,0,8,48,98,0.506,0.0,113,1.0,13.2,0.0,1,0.0,0.0,0.0,0,0,0,0,0,0,250,250,0,0.0,0.0,0.0,0.0,0,0,0.0,0,0.0,-1,0.0,,0.0,0,0.0,0.209
12563,0,,,,,,,,-0.01,0.0,-2.99,0,0,0,0.01,,72,0,8,48,98,0.506,0.0,112,1.0,13.2,0.0,1,0.0,0.0,0.0,0,0,0,0,0,0,250,250,0,,,,,,,,,,,,,,,,
12583,0,,,,,,,,-0.01,0.0,-3.0,0,0,0,0.01,,72,0,8,48,98,0.506,0.0,113,1.0,13.2,0.0,1,0.0,0.0,0.0,0,0,0,0,0,0,250,250,0,,,,,,,,,,,,,,,,
12603,0,,,,,,,,-0.01,0.0,-2.99,0,0,0,0.01,,72,0,8,48,98,0.506,0.0,113,1.0,13.2,0.0,1,0.0,0.0,0.0,0,0,0,0,0,0,250,250,0,,,,,,,,,,,,,,,,
12623,0,,,,,,,,-0.01,0.0,-3.0,0,-0,0,0.01,,72,0,8,48,98,0.506,0.0,113,1.0,13.2,0.0,1,0.0,0.0,0.0,0,0,0,0,0,0,250,250,0,,,,,,,,,,,,,,,,
12643,0,11,8,39,39,33,32,-0,-0.01,0.0,-3.0,0,0,0,0.01,0,72,0,8,48,98,0.506,0.0,113,1.0,13.2,0.0,1,0.0,0.0,0.0,0,0,0,0,0,0,250,250,0,0.0,0.0,0.0,0.0,0,0,0.0,0,0.0,-1,0.0,0.0,0.0,0,0.0,0.2107
12663,0,,,,,,,,-0.01,0.0,-3.0,0,0,0,0.01,,72,0,8,48,98,0.506,0.0,113,1.0,13.2,0.0,1,0.0,0.0,0.0,0,0,0,0,0,0,250,250,0,,,,,,,,,,,,,,,,
12683,0,,,,,,,,-0.01,0.0,-3.0,0,0,0,0.01,,72,0,8,48,98,0.506,0.0,113,1.0,13.2,0.0,1,0.0,0.0,0.0,0,0,0,0,0,0,250,250,0,,,,,,,,,,,,,,,,
12703,0,,,,,,,,-0.01,0.0,-2.99,0,0,0,0.01,,72,0,8,48,98,0.506,0.0,113,1.0,13.2,0.0,1,0.0,0.0,0.0,0,0,0,0,0,0,250,250,0,,,,,,,,,,,,,,,,
12723,0,,,,,,,,-0.01,0.0,-2.99,0,0,0,0.01,,72,0,8,48,98,0.506,0.0,113,1.0,13.2,0.0,1,0.0,0.0,0.0,0,0,0,0,0,0,250,250,0,,,,,,,,,,,,,,,,
12743,0,11,7,39,39,33,32,-0,-0.01,0.0,-2.99,0,0,0,0.01,0,72,0,8,48,98,0.506,0.0,113,1.0,13.2,0.0,1,0.0,0.0,0.0,0,0,0,0,0,0,250,250,0,0.0,0.0,0.0,0.0,0,0,0.0,0,0.0,-1,0.0,,0.0,0,0.0,0.2124
12763,0,,,,,,,,-0.01,0.0,-2.99,0,0,0,0.01,,72,0,8,48,98,0.506,0.0,113,1.0,13.2,0.0,1,0.0,0.0,0.0,0,0,0,0,0,0,250,250,0,,,,,,,,,,,,,,,,
12783,0,,,,,,,,-0.01,0.0,-2.99,0,0,0,0.01,,72,0,8,48,98,0.506,0.0,113,1.0,13.2,0.0,1,0.0,0.0,0.0,0,0,0,0,0,0,250,250,0,,,,,,,,,,,,,,,,
12803,0,,,,,,,,-0.01,0.0,-2.99,0,0,0,0.01,,72,0,8,48,98,0.506,0.0,113,1.0,13.2,0.0,1,0.0,0.0,0.0,0,0,0,0,0,0,250,250,0,,,,,,,,,,,,,,,,
12823,0,,,,,,,,-0.01,0.0,-2.99,0,0,0,0.01,,72,0,8,48,98,0.506,0.0,113,1.0,13.2,0.0,1,0.0,0.0,0.0,0,0,0,0,0,0,250,250,0,,,,,,,,,,,,,,,,
12843,0,11,6,39,39,33,32,-1,-0.01,0.0,-2.99,0,-0,0,0.01,0,72,0,8,48,98,0.506,0.0,113,1.0,13.2,0.0,1,0.0,0.0,0.0,0,0,0,0,0,0,250,250,0,0.0,0.0,0.0,0.0,0,0,0.0,0,0.0,-1,0.0,0.0,0.0,0,0.0,0.214
12863,0,,,,,,,,-0.01,0.0,-2.99,0,-0,0,0.01,,72,0,8,48,98,0.506,0.0,113,1.0,13.2,0.0,1,0.0,0.0,0.0,0,0,0,0,0,0,250,250,0,,,,,,,,,,,,,,,,
12883,0,,,,,,,,-0.01,0.0,-2.99,0,0,0,0.01,,72,0,8,48,98,0.506,0.0,113,1.0,13.2,0.0,1,0.0,0.0,0.0,0,0,0,0,0,0,250,250,0,,,,,,,,,,,,,,,,
12903,0,,,,,,,,-0.01,0.0,-2.99,0,-0,0,0.01,,72,0,8,48,98,0.506,0.0,113,1.0,13.2,0.0,1,0.0,0.0,0.0,0,0,0,0,0,0,250,250,0,,,,,,,,,,,,,,,,
12923,0,,,,,,,,-0.01,0.0,-2.99,0,0,0,0.01,,72,0,8,48,98,0.506,0.0,113,1.0,13.2,0.0,1,0.0,0.0,0.0,0,0,0,0,0,0,250,250,0,,,,,,,,,,,,,,,,
12943,0,10,7,39,39,33,32,-1,-0.01,0.0,-3.0,0,-0,0,0.01,0,72,0,8,48,98,0.506,0.0,113,1.0,13.2,0.0,1,0.0,0.0,0.0,0,0,0,0,0,0,250,250,0,0.0,0.0,0.0,0.0,0,0,0.0,0,0.0,-1,0.0,,0.0,0,0.0,0.2157
12963,0,,,,,,,,-0.01,0.0,-3.0,0,-0,0,0.01,,72,0,8,48,98,0.506,0.0,113,1.0,13.2,0.0,1,0.0,0.0,0.0,0,0,0,0,0,0,250,250,0,,,,,,,,,,,,,,,,
12983,0,,,,,,,,-0.01,0.0,-3.0,0,-0,0,0.01,,72,0,8,48,98,0.506,0.0,113,1.0,13.2,0.0,1,0.0,0.0,0.0,0,0,0,0,0,0,250,250,0,,,,,,,,,,,,,,,,
13003,0,,,,,,,,-0.01,0.0,-2.99,0,-0,0,0.01,,72,0,8,48,98,0.506,0.0,113,1.0,13.2,0.0,1,0.0,0.0,0.0,0,0,0,0,0,0,250,250,0,,,,,,,,,,,,,,,,
13023,0,,,,,,,,-0.01,0.0,-2.99,0,-0,0,0.01,,72,0,8,48,98,0.506,0.0,113,1.0,13.2,0.0,1,0.0,0.0,0.0,0,0,0,0,0,0,250,250,0,,,,,,,,,,,,,,,,
13043,0,11,5,39,39,32,32,-1,-0.01,0.0,-2.99,0,0,0,0.01,0,72,0,8,48,98,0.506,0.0,113,1.0,13.2,0.0,1,0.0,0.0,0.0,0,0,0,0,0,0,250,250,0,0.0,0.0,0.0,0.0,0,0,0.0,0,0.0,-1,0.0,0.0,0.0,0,0.0,0.2174
13063,0,,,,,,,,-0.01,0.0,-2.99,0,0,0,0.01,,72,0,8,48,98,0.506,0.0,113,1.0,13.2,0.0,1,0.0,0.0,0.0,0,0,0,0,0,0,250,250,0,,,,,,,,,,,,,,,,
13083,0,,,,,,,,-0.01,0.0,-2.99,0,0,0,0.01,,72,0,8,48,98,0.506,0.0,113,1.0,13.2,0.0,1,0.0,0.0,0.0,0,0,0,0,0,0,250,250,0,,,,,,,,,,,,,,,,
13103,0,,,,,,,,-0.01,0.0,-2.99,0,0,0,0.01,,72,0,8,48,98,0.506,0.0,113,1.0,13.2,0.0,1,0.0,0.0,0.0,0,0,0,0,0,0,250,250,0,,,,,,,,,,,,,,,,
13123,0,,,,,,,,-0.01,0.0,-2.99,0,0,0,0.01,,72,0,8,48,98,0.506,0.0,113,1.0,13.2,0.0,1,0.0,0.0,0.0,0,0,0,0,0,0,250,250,0,,,,,,,,,,,,,,,,
