"Interval"|"ms"|0|0|1,"Utc"|"ms"|0|0|1,"Brake_F"|"Bar"|0|2000|10,"Brake_R"|"Bar"|0|2000|10,"Height_RF"|"mm"|0|255|10,"Height_LF"|"mm"|0|255|10,"Height_LR"|"mm"|0|80|10,"Height_RR"|"mm"|0|255|10,"Steering"|"deg"|-100|100|10,"AccelX"|"G"|-3.0|3.0|50,"AccelY"|"G"|-3.0|3.0|50,"AccelZ"|"G"|-3.0|3.0|50,"Yaw"|"Deg/Sec"|-120|120|50,"Pitch"|"Deg/Sec"|-120|120|50,"Roll"|"Deg/Sec"|-120|120|50,"Gsum"|"G"|0.0|3.0|50,"Log_Button"|""|0.0|10.0|10,"WaterTemp"|"C"|0|150|50,"RPM"|"tr/min"|0|14000|50,"TPS"|"%"|0|100|50,"AirTemp"|"C"|0|150|50,"MAP"|"KPa"|0|100|50,"Lambda"|""|0.5|1.5|50,"SpeedDTA"|"kph"|0.0|250.0|50,"OilPress"|"KPa"|0|1500|50,"FuelPressur"|"Bar"|0.0|10.0|50,"Batterie"|"V"|0.0|20.0|50,"ConsoKm"|"L/100km"|0.0|200.0|50,"Gear"|""|0|6|50,"AdvIgnition"|"Deg"|-20.0|70.0|50,"Injection"|"ms"|0.0|10.0|50,"ConsoHr"|"L/Hr"|0.0|10000.0|50,"LC_But_Pres"|""|0|1|50,"LC_Active"|""|0|1|50,"TractionOn"|""|0|1|50,"TractionWet"|""|0|1|50,"FanOn"|""|0|1|50,"RD_Speed"|"km/h"|-30|250|50,"RUD_Speed"|"km/h"|-30|250|50,"LD_Speed"|"km/h"|-30|250|50,"LUD_Speed"|"km/h"|-30|250|50,"Latitude"|"Degrees"|-180.0|180.0|10,"Longitude"|"Degrees"|-180.0|180.0|10,"Speed"|"kph"|0.0|150.0|10,"Altitude"|"m"|0.0|4000.0|10,"GPSSats"|""|0|20|10,"GPSQual"|""|0|5|10,"GPSDOP"|""|0.0|20.0|10,"LapCount"|""|0|0|10,"LapTime"|"Min"|0.0|0.0|10,"Sector"|""|0|0|10,"SectorTime"|"Min"|0.0|0.0|10,"PredTime"|"Min"|0.0|0.0|5,"ElapsedTime"|"Min"|0.0|0.0|10,"CurrentLap"|""|0|0|10,"Distance"|"km"|0.0|0.0|10,"SessionTime"|"Min"|0.0|0.0|10
20063,0,,,,,,,,0.0,0.0,-2.99,0,0,0,0.0,,78,0,4,41,98,0.506,0.0,116,1.07,13.2,0.0,1,0.0,0.0,0.0,0,0,0,0,0,0,250,250,0,,,,,,,,,,,,,,,,
20083,0,,,,,,,,0.0,0.0,-2.99,0,0,0,0.0,,78,0,4,41,98,0.506,0.0,116,1.07,13.2,0.0,1,0.0,0.0,0.0,0,0,0,0,0,0,250,250,0,,,,,,,,,,,,,,,,
20103,0,,,,,,,,0.0,0.0,-2.99,0,0,0,0.0,,78,0,4,41,98,0.506,0.0,116,1.07,13.2,0.0,1,0.0,0.0,0.0,0,0,0,0,0,0,250,250,0,,,,,,,,,,,,,,,,
20123,0,,,,,,,,0.0,0.0,-2.99,0,0,0,0.0,,78,0,4,41,98,0.506,0.0,116,1.07,13.2,0.0,1,0.0,0.0,0.0,0,0,0,0,0,0,250,250,0,,,,,,,,,,,,,,,,
20143,0,5,1,38,39,33,33,2,0.0,0.0,-2.99,0,0,0,0.0,1,78,0,4,41,98,0.506,0.0,116,1.07,13.2,0.0,1,0.0,0.0,0.0,0,0,0,0,0,0,250,250,0,0.0,0.0,0.0,0.0,0,0,0.0,0,0.0,-1,0.0,,0.0,0,0.0,0.3357
20163,0,,,,,,,,0.0,0.0,-2.99,0,0,0,0.0,,78,0,4,41,98,0.506,0.0,116,1.07,13.2,0.0,1,0.0,0.0,0.0,0,0,0,0,0,0,250,250,0,,,,,,,,,,,,,,,,
20183,0,,,,,,,,0.0,0.0,-2.99,0,0,0,0.0,,78,0,4,41,98,0.506,0.0,116,1.07,13.2,0.0,1,0.0,0.0,0.0,0,0,0,0,0,0,250,250,0,,,,,,,,,,,,,,,,
20203,0,,,,,,,,0.0,0.0,-2.99,0,0,0,0.0,,78,0,4,41,98,0.506,0.0,116,1.07,13.2,0.0,1,0.0,0.0,0.0,0,0,0,0,0,0,250,250,0,,,,,,,,,,,,,,,,
20223,0,,,,,,,,-0.0,0.0,-2.99,0,0,0,0.0,,78,0,4,41,98,0.506,0.0,116,1.07,13.2,0.0,1,0.0,0.0,0.0,0,0,0,0,0,0,250,250,0,,,,,,,,,,,,,,,,
20243,0,4,2,38,39,33,33,4,0.0,0.0,-2.99,0,0,0,0.0,1,78,0,4,41,98,0.506,0.0,116,1.07,13.2,0.0,1,0.0,0.0,0.0,0,0,0,0,0,0,250,250,0,0.0,0.0,0.0,0.0,0,0,0.0,0,0.0,-1,0.0,0.0,0.0,0,0.0,0.3374
20263,0,,,,,,,,0.0,0.0,-2.99,0,0,0,0.0,,78,0,4,41,98,0.506,0.0,116,1.07,13.2,0.0,1,0.0,0.0,0.0,0,0,0,0,0,0,250,250,0,,,,,,,,,,,,,,,,
20283,0,,,,,,,,0.0,0.0,-2.99,0,0,0,0.0,,78,0,4,41,98,0.506,0.0,116,1.07,13.2,0.0,1,0.0,0.0,0.0,0,0,0,0,0,0,250,250,0,,,,,,,,,,,,,,,,
20303,0,,,,,,,,0.0,0.0,-2.99,0,0,0,0.0,,78,0,4,41,98,0.506,0.0,116,1.07,13.2,0.0,1,0.0,0.0,0.0,0,0,0,0,0,0,250,250,0,,,,,,,,,,,,,,,,
20323,0,,,,,,,,0.0,0.0,-2.99,0,0,0,0.0,,78,0,4,41,98,0.506,0.0,116,1.07,13.2,0.0,1,0.0,0.0,0.0,0,0,0,0,0,0,250,250,0,,,,,,,,,,,,,,,,
20343,0,5,2,38,40,33,32,4,0.0,0.0,-2.99,0,0,0,0.0,1,78,0,4,41,98,0.506,0.0,116,1.07,13.2,0.0,1,0.0,0.0,0.0,0,0,0,0,0,0,250,250,0,0.0,0.0,0.0,0.0,0,0,0.0,0,0.0,-1,0.0,,0.0,0,0.0,0.339
20363,0,,,,,,,,0.0,0.0,-2.99,0,0,0,0.0,,78,0,4,41,98,0.506,0.0,116,1.07,13.2,0.0,1,0.0,0.0,0.0,0,0,0,0,0,0,250,250,0,,,,,,,,,,,,,,,,
20383,0,,,,,,,,0.0,0.0,-2.99,0,0,0,0.0,,78,0,4,41,98,0.506,0.0,116,1.07,13.2,0.0,1,0.0,0.0,0.0,0,0,0,0,0,0,250,250,0,,,,,,,,,,,,,,,,
20403,0,,,,,,,,0.0,0.0,-2.99,0,0,0,0.0,,78,0,4,41,98,0.506,0.0,116,1.07,13.2,0.0,1,0.0,0.0,0.0,0,0,0,0,0,0,250,250,0,,,,,,,,,,,,,,,,
20423,0,,,,,,,,0.0,0.0,-2.99,0,0,0,0.0,,78,0,4,41,98,0.507,0.0,116,1.07,13.2,0.0,1,0.0,0.0,0.0,0,0,0,0,0,0,250,250,0,,,,,,,,,,,,,,,,
20443,0,5,1,38,40,33,32,4,0.0,0.0,-2.99,0,0,0,0.0,1,78,0,4,41,98,0.507,0.0,116,1.07,13.2,0.0,1,0.0,0.0,0.0,0,0,0,0,0,0,250,250,0,0.0,0.0,0.0,0.0,0,0,0.0,0,0.0,-1,0.0,0.0,0.0,0,0.0,0.3407
20463,0,,,,,,,,0.0,0.0,-2.99,0,0,0,0.0,,78,0,4,41,98,0.507,0.0,116,1.07,13.2,0.0,1,0.0,0.0,0.0,0,0,0,0,0,0,250,250,0,,,,,,,,,,,,,,,,
20483,0,,,,,,,,0.0,0.0,-2.99,0,0,0,0.0,,78,0,4,41,98,0.507,0.0,116,1.07,13.2,0.0,1,0.0,0.0,0.0,0,0,0,0,0,0,250,250,0,,,,,,,,,,,,,,,,
20503,0,,,,,,,,0.0,0.0,-2.99,0,0,0,0.0,,78,0,4,41,98,0.507,0.0,116,1.07,13.2,0.0,1,0.0,0.0,0.0,0,0,0,0,0,0,250,250,0,,,,,,,,,,,,,,,,
20523,0,,,,,,,,0.0,0.0,-2.99,0,0,0,0.0,,78,0,4,41,98,0.507,0.0,116,1.07,13.2,0.0,1,0.0,0.0,0.0,0,0,0,0,0,0,250,250,0,,,,,,,,,,,,,,,,
20543,0,5,2,38,39,33,32,4,0.0,0.0,-2.99,0,0,0,0.0,1,78,0,4,41,98,0.507,0.0,116,1.06,13.2,0.0,1,0.0,0.0,0.0,0,0,0,0,0,0,250,250,0,0.0,0.0,0.0,0.0,0,0,0.0,0,0.0,-1,0.0,,0.0,0,0.0,0.3424
20563,0,,,,,,,,0.0,0.0,-2.99,0,0,0,0.0,,78,0,4,41,98,0.507,0.0,116,1.06,13.2,0.0,1,0.0,0.0,0.0,0,0,0,0,0,0,250,250,0,,,,,,,,,,,,,,,,
20583,0,,,,,,,,0.0,0.0,-2.99,0,0,0,0.0,,78,0,4,41,98,0.507,0.0,116,1.06,13.2,0.0,1,0.0,0.0,0.0,0,0,0,0,0,0,250,250,0,,,,,,,,,,,,,,,,
20603,0,,,,,,,,0.0,0.0,-2.99,0,0,0,0.0,,78,0,4,41,98,0.507,0.0,116,1.06,13.2,0.0,1,0.0,0.0,0.0,0,0,0,0,0,0,250,250,0,,,,,,,,,,,,,,,,
20623,0,,,,,,,,0.0,0.0,-2.99,0,0,0,0.0,,78,0,4,41,98,0.506,0.0,116,1.06,13.2,0.0,1,0.0,0.0,0.0,0,0,0,0,0,0,250,250,0,,,,,,,,,,,,,,,,
20643,0,5,2,38,40,33,33,2,0.0,0.0,-2.99,0,0,0,0.0,1,78,0,4,41,98,0.506,0.0,116,1.06,13.2,0.0,1,0.0,0.0,0.0,0,0,0,0,0,0,250,250,0,0.0,0.0,0.0,0.0,0,0,0.0,0,0.0,-1,0.0,0.0,0.0,0,0.0,0.344
20663,0,,,,,,,,0.0,0.0,-2.99,0,0,0,0.0,,78,0,4,41,98,0.506,0.0,116,1.06,13.2,0.0,1,0.0,0.0,0.0,0,0,0,0,0,0,250,250,0,,,,,,,,,,,,,,,,
20683,0,,,,,,,,-0.0,0.0,-2.99,0,0,0,0.0,,78,0,4,41,98,0.506,0.0,116,1.06,13.2,0.0,1,0.0,0.0,0.0,0,0,0,0,0,0,250,250,0,,,,,,,,,,,,,,,,
20703,0,,,,,,,,-0.0,0.0,-2.99,0,0,0,0.0,,78,0,4,41,98,0.506,0.0,116,1.06,13.2,0.0,1,0.0,0.0,0.0,0,0,0,0,0,0,250,250,0,,,,,,,,,,,,,,,,
20723,0,,,,,,,,-0.0,0.0,-2.99,0,0,0,0.0,,78,0,4,41,98,0.506,0.0,116,1.06,13.1,0.0,1,0.0,0.0,0.0,0,0,0,0,0,0,250,250,0,,,,,,,,,,,,,,,,
20743,0,5,2,38,40,33,33,3,-0.0,0.0,-2.99,0,0,0,0.0,1,78,0,4,41,98,0.506,0.0,116,1.06,13.1,0.0,1,0.0,0.0,0.0,0,0,0,0,0,0,250,250,0,0.0,0.0,0.0,0.0,0,0,0.0,0,0.0,-1,0.0,,0.0,0,0.0,0.3457
20763,0,,,,,,,,-0.0,0.0,-2.99,0,0,0,0.0,,78,0,4,41,98,0.506,0.0,116,1.06,13.1,0.0,1,0.0,0.0,0.0,0,0,0,0,0,0,250,250,0,,,,,,,,,,,,,,,,
20783,0,,,,,,,,0.0,0.0,-2.99,0,0,0,0.0,,78,0,4,41,98,0.506,0.0,116,1.06,13.1,0.0,1,0.0,0.0,0.0,0,0,0,0,0,0,250,250,0,,,,,,,,,,,,,,,,
20803,0,,,,,,,,-0.0,0.0,-2.99,0,0,0,0.0,,78,0,4,41,98,0.506,0.0,116,1.06,13.1,0.0,1,0.0,0.0,0.0,0,0,0,0,0,0,250,250,0,,,,,,,,,,,,,,,,
20823,0,,,,,,,,-0.0,0.0,-2.99,0,0,0,0.0,,78,0,4,41,98,0.506,0.0,116,1.06,13.1,0.0,1,0.0,0.0,0.0,0,0,0,0,0,0,250,250,0,,,,,,,,,,,,,,,,
20843,0,3,1,38,40,33,33,4,-0.0,0.0,-2.99,0,0,0,0.0,0,78,0,4,41,98,0.506,0.0,116,1.06,13.1,0.0,1,0.0,0.0,0.0,0,0,0,0,0,0,250,250,0,0.0,0.0,0.0,0.0,0,0,0.0,0,0.0,-1,0.0,0.0,0.0,0,0.0,0.3474
20863,0,,,,,,,,0.0,0.0,-2.99,0,0,0,0.0,,78,0,4,41,98,0.506,0.0,116,1.06,13.1,0.0,1,0.0,0.0,0.0,0,0,0,0,0,0,250,250,0,,,,,,,,,,,,,,,,
20883,0,,,,,,,,-0.0,0.0,-2.99,0,0,0,0.0,,78,0,4,41,98,0.506,0.0,116,1.06,13.1,0.0,1,0.0,0.0,0.0,0,0,0,0,0,0,250,250,0,,,,,,,,,,,,,,,,
20903,0,,,,,,,,-0.0,0.0,-2.99,0,0,0,0.0,,78,0,4,41,98,0.506,0.0,116,1.06,13.1,0.0,1,0.0,0.0,0.0,0,0,0,0,0,0,250,250,0,,,,,,,,,,,,,,,,
20923,0,,,,,,,,-0.0,0.0,-2.99,0,0,0,0.0,,78,0,4,41,98,0.506,0.0,116,1.07,13.1,0.0,1,0.0,0.0,0.0,0,0,0,0,0,0,250,250,0,,,,,,,,,,,,,,,,
20943,0,3,2,38,39,33,33,4,0.0,0.0,-2.99,0,0,0,0.0,0,78,0,4,41,98,0.506,0.0,116,1.07,13.1,0.0,1,0.0,0.0,0.0,0,0,0,0,0,0,250,250,0,0.0,0.0,0.0,0.0,0,0,0.0,0,0.0,-1,0.0,,0.0,0,0.0,0.349
20963,0,,,,,,,,0.0,0.0,-2.99,0,0,0,0.0,,78,0,4,41,98,0.506,0.0,116,1.07,13.1,0.0,1,0.0,0.0,0.0,0,0,0,0,0,0,250,250,0,,,,,,,,,,,,,,,,
20983,0,,,,,,,,0.0,0.0,-2.99,0,0,0,0.0,,78,0,4,41,98,0.506,0.0,116,1.07,13.1,0.0,1,0.0,0.0,0.0,0,0,0,0,0,0,250,250,0,,,,,,,,,,,,,,,,
21003,0,,,,,,,,0.0,0.0,-2.99,0,0,0,0.0,,78,0,4,41,98,0.506,0.0,116,1.07,13.1,0.0,1,0.0,0.0,0.0,0,0,0,0,0,0,250,250,0,,,,,,,,,,,,,,,,
21023,0,,,,,,,,0.0,0.0,-2.99,0,0,0,0.0,,78,0,4,41,98,0.506,0.0,116,1.07,13.1,0.0,1,0.0,0.0,0.0,0,0,0,0,0,0,250,250,0,,,,,,,,,,,,,,,,
21043,0,3,2,38,40,33,32,3,0.0,0.0,-2.99,0,0,0,0.0,0,78,0,4,41,98,0.506,0.0,116,1.07,13.1,0.0,1,0.0,0.0,0.0,0,0,0,0,0,0,250,250,0,0.0,0.0,0.0,0.0,0,0,0.0,0,0.0,-1,0.0,0.0,0.0,0,0.0,0.3507
21063,0,,,,,,,,0.0,0.0,-2.99,0,0,0,0.0,,78,0,4,41,98,0.506,0.0,116,1.07,13.1,0.0,1,0.0,0.0,0.0,0,0,0,0,0,0,250,250,0,,,,,,,,,,,,,,,,
21083,0,,,,,,,,0.0,0.0,-2.99,0,0,0,0.0,,78,0,4,41,98,0.506,0.0,116,1.07,13.1,0.0,1,0.0,0.0,0.0,0,0,0,0,0,0,250,250,0,,,,,,,,,,,,,,,,
21103,0,,,,,,,,0.0,0.0,-2.99,0,0,0,0.0,,78,0,4,41,98,0.506,0.0,116,1.07,13.1,0.0,1,0.0,0.0,0.0,0,0,0,0,0,0,250,250,0,,,,,,,,,,,,,,,,
21123,0,,,,,,,,0.0,0.0,-2.99,0,0,0,0.0,,78,0,4,41,98,0.506,0.0,116,1.07,13.1,0.0,1,0.0,0.0,0.0,0,0,0,0,0,0,250,250,0,,,,,,,,,,,,,,,,
21143,0,4,2,38,39,33,33,4,0.0,0.0,-2.99,0,0,0,0.0,0,78,0,4,41,98,0.506,0.0,116,1.06,13.1,0.0,1,0.0,0.0,0.0,0,0,0,0,0,0,250,250,0,0.0,0.0,0.0,0.0,0,0,0.0,0,0.0,-1,0.0,,0.0,0,0.0,0.3524
21163,0,,,,,,,,0.0,0.0,-2.99,0,0,0,0.0,,78,0,4,41,98,0.506,0.0,116,1.06,13.1,0.0,1,0.0,0.0,0.0,0,0,0,0,0,0,250,250,0,,,,,,,,,,,,,,,,
21183,0,,,,,,,,0.0,0.0,-2.99,0,0,0,0.0,,78,0,4,41,98,0.506,0.0,116,1.06,13.1,0.0,1,0.0,0.0,0.0,0,0,0,0,0,0,250,250,0,,,,,,,,,,,,,,,,
21203,0,,,,,,,,0.0,0.0,-2.99,0,0,0,0.0,,78,0,4,41,98,0.506,0.0,116,1.06,13.1,0.0,1,0.0,0.0,0.0,0,0,0,0,0,0,250,250,0,,,,,,,,,,,,,,,,
21223,0,,,,,,,,0.0,0.0,-2.99,0,0,0,0.0,,78,0,4,41,98,0.506,0.0,116,1.06,13.1,0.0,1,0.0,0.0,0.0,0,0,0,0,0,0,250,250,0,,,,,,,,,,,,,,,,
21243,0,3,2,38,39,33,33,3,0.0,0.0,-2.99,0,0,0,0.0,0,78,0,4,41,98,0.506,0.0,116,1.06,13.1,0.0,1,0.0,0.0,0.0,0,0,0,0,0,0,250,250,0,0.0,0.0,0.0,0.0,0,0,0.0,0,0.0,-1,0.0,0.0,0.0,0,0.0,0.354
21263,0,,,,,,,,0.0,0.0,-2.99,0,0,0,0.0,,78,0,4,41,98,0.506,0.0,116,1.05,13.1,0.0,1,0.0,0.0,0.0,0,0,0,0,0,0,250,250,0,,,,,,,,,,,,,,,,
21283,0,,,,,,,,0.0,0.0,-2.99,0,0,0,0.0,,78,0,4,41,98,0.506,0.0,116,1.05,13.1,0.0,1,0.0,0.0,0.0,0,0,0,0,0,0,250,250,0,,,,,,,,,,,,,,,,
21303,0,,,,,,,,0.0,0.0,-2.99,0,0,0,0.0,,78,0,4,41,98,0.506,0.0,116,1.05,13.1,0.0,1,0.0,0.0,0.0,0,0,0,0,0,0,250,250,0,,,,,,,,,,,,,,,,
21323,0,,,,,,,,-0.0,0.0,-2.99,0,0,0,0.0,,78,0,4,41,98,0.506,0.0,116,1.05,13.1,0.0,1,0.0,0.0,0.0,0,0,0,0,0,0,250,250,0,,,,,,,,,,,,,,,,
21343,0,4,1,38,40,33,32,4,-0.0,0.0,-2.99,0,0,0,0.0,0,78,0,4,41,98,0.506,0.0,116,1.05,13.1,0.0,1,0.0,0.0,0.0,0,0,0,0,0,0,250,250,0,0.0,0.0,0.0,0.0,0,0,0.0,0,0.0,-1,0.0,,0.0,0,0.0,0.3557
21363,0,,,,,,,,0.0,0.0,-2.99,0,0,0,0.0,,78,0,4,41,98,0.506,0.0,116,1.05,13.1,0.0,1,0.0,0.0,0.0,0,0,0,0,0,0,250,250,0,,,,,,,,,,,,,,,,
21383,0,,,,,,,,0.0,0.0,-2.99,0,0,0,0.0,,78,0,4,41,98,0.506,0.0,116,1.05,13.1,0.0,1,0.0,0.0,0.0,0,0,0,0,0,0,250,250,0,,,,,,,,,,,,,,,,
21403,0,,,,,,,,-0.0,0.0,-2.99,0,0,0,0.0,,78,0,4,41,98,0.506,0.0,116,1.05,13.1,0.0,1,0.0,0.0,0.0,0,0,0,0,0,0,250,250,0,,,,,,,,,,,,,,,,
21423,0,,,,,,,,-0.0,0.0,-2.99,0,0,0,0.0,,78,0,4,41,98,0.506,0.0,116,1.05,13.1,0.0,1,0.0,0.0,0.0,0,0,0,0,0,0,250,250,0,,,,,,,,,,,,,,,,
21443,0,4,1,38,40,33,33,4,-0.0,0.0,-2.99,0,0,0,0.0,0,78,0,4,41,98,0.506,0.0,116,1.05,13.1,0.0,1,0.0,0.0,0.0,0,0,0,0,0,0,250,250,0,0.0,0.0,0.0,0.0,0,0,0.0,0,0.0,-1,0.0,0.0,0.0,0,0.0,0.3574
21463,0,,,,,,,,-0.0,0.0,-2.99,0,0,0,0.0,,78,0,4,41,98,0.506,0.0,116,1.05,13.1,0.0,1,0.0,0.0,0.0,0,0,0,0,0,0,250,250,0,,,,,,,,,,,,,,,,
21483,0,,,,,,,,-0.0,0.0,-2.99,0,0,0,0.0,,78,0,4,41,98,0.506,0.0,116,1.05,13.1,0.0,1,0.0,0.0,0.0,0,0,0,0,0,0,250,250,0,,,,,,,,,,,,,,,,
21503,0,,,,,,,,-0.0,0.0,-2.99,0,0,0,0.0,,78,0,4,41,98,0.506,0.0,116,1.05,13.1,0.0,1,0.0,0.0,0.0,0,0,0,0,0,0,250,250,0,,,,,,,,,,,,,,,,
21523,0,,,,,,,,0.0,0.0,-2.99,0,0,0,0.0,,78,0,4,41,98,0.506,0.0,116,1.05,13.1,0.0,1,0.0,0.0,0.0,0,0,0,0,0,0,250,250,0,,,,,,,,,,,,,,,,
21543,0,4,0,38,40,33,33,4,0.0,0.0,-2.99,0,0,0,0.0,0,78,0,4,41,98,0.506,0.0,116,1.05,13.1,0.0,1,0.0,0.0,0.0,0,0,0,0,0,0,250,250,0,0.0,0.0,0.0,0.0,0,0,0.0,0,0.0,-1,0.0,,0.0,0,0.0,0.359
21563,0,,,,,,,,0.0,0.0,-2.99,0,0,0,0.0,,78,0,4,41,98,0.506,0.0,116,1.05,13.1,0.0,1,0.0,0.0,0.0,0,0,0,0,0,0,250,250,0,,,,,,,,,,,,,,,,
21583,0,,,,,,,,-0.0,0.0,-2.99,0,0,0,0.0,,78,0,4,41,98,0.506,0.0,116,1.05,13.1,0.0,1,0.0,0.0,0.0,0,0,0,0,0,0,250,250,0,,,,,,,,,,,,,,,,
21603,0,,,,,,,,-0.0,0.0,-2.99,0,-0,0,0.0,,78,0,4,41,98,0.506,0.0,116,1.05,13.1,0.0,1,0.0,0.0,0.0,0,0,0,0,0,0,250,250,0,,,,,,,,,,,,,,,,
21623,0,,,,,,,,-0.0,0.0,-2.99,0,-0,0,0.0,,78,0,4,41,98,0.506,0.0,116,1.05,13.1,0.0,1,0.0,0.0,0.0,0,0,0,0,0,0,250,250,0,,,,,,,,,,,,,,,,
21643,0,3,1,38,40,33,33,4,-0.0,0.0,-2.99,0,-0,0,0.0,0,78,0,4,41,98,0.506,0.0,116,1.05,13.1,0.0,1,0.0,0.0,0.0,0,0,0,0,0,0,250,250,0,0.0,0.0,0.0,0.0,0,0,0.0,0,0.0,-1,0.0,0.0,0.0,0,0.0,0.3607
21663,0,,,,,,,,-0.0,0.0,-2.99,0,-0,0,0.0,,78,0,4,41,98,0.506,0.0,116,1.05,13.1,0.0,1,0.0,0.0,0.0,0,0,0,0,0,0,250,250,0,,,,,,,,,,,,,,,,
21683,0,,,,,,,,-0.0,0.0,-2.99,0,-0,0,0.0,,78,0,4,41,98,0.506,0.0,116,1.05,13.1,0.0,1,0.0,0.0,0.0,0,0,0,0,0,0,250,250,0,,,,,,,,,,,,,,,,
21703,0,,,,,,,,-0.0,0.0,-2.99,0,0,0,0.0,,78,0,4,41,98,0.506,0.0,116,1.05,13.1,0.0,1,0.0,0.0,0.0,0,0,0,0,0,0,250,250,0,,,,,,,,,,,,,,,,
21723,0,,,,,,,,-0.0,0.0,-2.99,0,0,0,0.0,,78,0,4,41,98,0.506,0.0,116,1.05,13.1,0.0,1,0.0,0.0,0.0,0,0,0,0,0,0,250,250,0,,,,,,,,,,,,,,,,
21743,0,3,2,38,40,33,33,4,-0.0,0.0,-2.99,0,0,0,0.0,0,78,0,4,41,98,0.506,0.0,116,1.05,13.1,0.0,1,0.0,0.0,0.0,0,0,0,0,0,0,250,250,0,0.0,0.0,0.0,0.0,0,0,0.0,0,0.0,-1,0.0,,0.0,0,0.0,0.3624
21763,0,,,,,,,,-0.0,0.0,-2.99,0,-0,0,0.0,,78,0,4,41,98,0.506,0.0,116,1.05,13.1,0.0,1,0.0,0.0,0.0,0,0,0,0,0,0,250,250,0,,,,,,,,,,,,,,,,
21783,0,,,,,,,,-0.0,0.0,-2.99,0,0,0,0.0,,78,0,4,41,98,0.506,0.0,116,1.05,13.1,0.0,1,0.0,0.0,0.0,0,0,0,0,0,0,250,250,0,,,,,,,,,,,,,,,,
21803,0,,,,,,,,-0.0,0.0,-2.99,0,-0,0,0.0,,78,0,4,41,98,0.506,0.0,116,1.05,13.1,0.0,1,0.0,0.0,0.0,0,0,0,0,0,0,250,250,0,,,,,,,,,,,,,,,,
21823,0,,,,,,,,-0.0,0.0,-2.99,0,-0,0,0.0,,78,0,4,41,98,0.506,0.0,116,1.05,13.1,0.0,1,0.0,0.0,0.0,0,0,0,0,0,0,250,250,0,,,,,,,,,,,,,,,,
21843,0,2,2,38,39,33,33,4,-0.0,0.0,-2.99,0,0,0,0.0,0,78,0,4,41,98,0.506,0.0,116,1.05,13.1,0.0,1,0.0,0.0,0.0,0,0,0,0,0,0,250,250,0,0.0,0.0,0.0,0.0,0,0,0.0,0,0.0,-1,0.0,0.0,0.0,0,0.0,0.364
21863,0,,,,,,,,0.0,0.0,-2.99,0,0,0,0.0,,78,0,4,41,98,0.506,0.0,116,1.05,13.1,0.0,1,0.0,0.0,0.0,0,0,0,0,0,0,250,250,0,,,,,,,,,,,,,,,,
21883,0,,,,,,,,0.0,0.0,-2.99,0,0,0,0.0,,78,0,4,41,98,0.506,0.0,116,1.05,13.1,0.0,1,0.0,0.0,0.0,0,0,0,0,0,0,250,250,0,,,,,,,,,,,,,,,,
21903,0,,,,,,,,0.0,0.0,-2.99,0,0,0,0.0,,78,0,4,41,98,0.506,0.0,116,1.05,13.1,0.0,1,0.0,0.0,0.0,0,0,0,0,0,0,250,250,0,,,,,,,,,,,,,,,,
21923,0,,,,,,,,0.0,0.0,-2.99,0,0,0,0.0,,78,0,4,41,98,0.506,0.0,116,1.05,13.1,0.0,1,0.0,0.0,0.0,0,0,0,0,0,0,250,250,0,,,,,,,,,,,,,,,,
21943,0,2,2,38,40,33,33,3,0.0,0.0,-2.99,0,0,0,0.0,0,78,0,4,41,98,0.506,0.0,116,1.05,13.1,0.0,1,0.0,0.0,0.0,0,0,0,0,0,0,250,250,0,0.0,0.0,0.0,0.0,0,0,0.0,0,0.0,-1,0.0,,0.0,0,0.0,0.3657
21963,0,,,,,,,,0.0,0.0,-2.99,0,0,0,0.0,,78,0,4,41,98,0.506,0.0,116,1.05,13.1,0.0,1,0.0,0.0,0.0,0,0,0,0,0,0,250,250,0,,,,,,,,,,,,,,,,
21983,0,,,,,,,,0.0,0.0,-2.99,0,0,0,0.0,,78,0,4,41,98,0.506,0.0,116,1.05,13.1,0.0,1,0.0,0.0,0.0,0,0,0,0,0,0,250,250,0,,,,,,,,,,,,,,,,
22003,0,,,,,,,,0.0,0.0,-2.99,0,0,0,0.0,,78,0,4,41,98,0.506,0.0,116,1.05,13.1,0.0,1,0.0,0.0,0.0,0,0,0,0,0,0,250,250,0,,,,,,,,,,,,,,,,
22023,0,,,,,,,,0.0,0.0,-2.99,0,0,0,0.0,,78,0,4,41,98,0.506,0.0,116,1.05,13.1,0.0,1,0.0,0.0,0.0,0,0,0,0,0,0,250,250,0,,,,,,,,,,,,,,,,
22043,0,4,0,38,39,33,33,3,0.0,0.0,-2.99,0,-0,0,0.0,0,78,0,4,41,98,0.506,0.0,116,1.05,13.1,0.0,1,0.0,0.0,0.0,0,0,0,0,0,0,250,250,0,0.0,0.0,0.0,0.0,0,0,0.0,0,0.0,-1,0.0,0.0,0.0,0,0.0,0.3674
22063,0,,,,,,,,0.0,0.0,-2.99,0,-0,0,0.0,,78,0,4,41,98,0.506,0.0,116,1.05,13.1,0.0,1,0.0,0.0,0.0,0,0,0,0,0,0,250,250,0,,,,,,,,,,,,,,,,
22083,0,,,,,,,,0.0,0.0,-2.99,0,-0,0,0.0,,78,0,4,41,98,0.506,0.0,116,1.05,13.1,0.0,1,0.0,0.0,0.0,0,0,0,0,0,0,250,250,0,,,,,,,,,,,,,,,,
22103,0,,,,,,,,0.0,0.0,-2.99,0,-0,0,0.0,,78,0,4,41,98,0.506,0.0,116,1.05,13.1,0.0,1,0.0,0.0,0.0,0,0,0,0,0,0,250,250,0,,,,,,,,,,,,,,,,
22123,0,,,,,,,,0.0,0.0,-2.99,0,-0,0,0.0,,78,0,4,41,98,0.506,0.0,116,1.05,13.1,0.0,1,0.0,0.0,0.0,0,0,0,0,0,0,250,250,0,,,,,,,,,,,,,,,,
22143,0,4,0,38,39,33,32,4,0.0,0.0,-2.99,0,0,0,0.0,0,78,0,4,41,98,0.506,0.0,116,1.05,13.1,0.0,1,0.0,0.0,0.0,0,0,0,0,0,0,250,250,0,0.0,0.0,0.0,0.0,0,0,0.0,0,0.0,-1,0.0,,0.0,0,0.0,0.369
22163,0,,,,,,,,0.0,0.0,-2.99,0,-0,0,0.0,,78,0,4,41,98,0.506,0.0,116,1.05,13.1,0.0,1,0.0,0.0,0.0,0,0,0,0,0,0,250,250,0,,,,,,,,,,,,,,,,
22183,0,,,,,,,,0.0,0.0,-2.99,0,-0,0,0.0,,78,0,4,41,98,0.506,0.0,116,1.05,13.1,0.0,1,0.0,0.0,0.0,0,0,0,0,0,0,250,250,0,,,,,,,,,,,,,,,,
22203,0,,,,,,,,0.0,0.0,-2.99,0,-0,0,0.0,,78,0,4,41,98,0.506,0.0,116,1.05,13.1,0.0,1,0.0,0.0,0.0,0,0,0,0,0,0,250,250,0,,,,,,,,,,,,,,,,
22223,0,,,,,,,,0.0,0.0,-2.99,0,-0,0,0.0,,78,0,4,41,98,0.506,0.0,116,1.05,13.1,0.0,1,0.0,0.0,0.0,0,0,0,0,0,0,250,250,0,,,,,,,,,,,,,,,,
22243,0,4,2,38,40,33,33,3,0.0,0.0,-2.99,0,-0,0,0.0,0,78,0,4,41,98,0.506,0.0,116,1.05,13.1,0.0,1,0.0,0.0,0.0,0,0,0,0,0,0,250,250,0,0.0,0.0,0.0,0.0,0,0,0.0,0,0.0,-1,0.0,0.0,0.0,0,0.0,0.3707
22263,0,,,,,,,,0.0,0.0,-2.99,0,0,0,0.0,,78,0,4,41,98,0.506,0.0,116,1.05,13.1,0.0,1,0.0,0.0,0.0,0,0,0,0,0,0,250,250,0,,,,,,,,,,,,,,,,
22283,0,,,,,,,,0.0,0.0,-2.99,0,0,0,0.0,,78,0,4,41,98,0.506,0.0,115,1.05,13.1,0.0,1,0.0,0.0,0.0,0,0,0,0,0,0,250,250,0,,,,,,,,,,,,,,,,
22303,0,,,,,,,,0.0,0.0,-2.99,0,0,0,0.0,,78,0,4,41,98,0.506,0.0,116,1.05,13.1,0.0,1,0.0,0.0,0.0,0,0,0,0,0,0,250,250,0,,,,,,,,,,,,,,,,
22323,0,,,,,,,,0.0,0.0,-2.99,0,0,0,0.0,,78,0,4,41,98,0.506,0.0,116,1.05,13.1,0.0,1,0.0,0.0,0.0,0,0,0,0,0,0,250,250,0,,,,,,,,,,,,,,,,
22343,0,2,2,38,40,33,33,4,0.0,0.0,-2.99,0,-0,0,0.0,0,78,0,4,41,98,0.506,0.0,116,1.05,13.1,0.0,1,0.0,0.0,0.0,0,0,0,0,0,0,250,250,0,0.0,0.0,0.0,0.0,0,0,0.0,0,0.0,-1,0.0,,0.0,0,0.0,0.3724
22363,0,,,,,,,,-0.0,0.0,-2.99,0,0,0,0.0,,78,0,4,41,98,0.506,0.0,116,1.05,13.1,0.0,1,0.0,0.0,0.0,0,0,0,0,0,0,250,250,0,,,,,,,,,,,,,,,,
22383,0,,,,,,,,0.0,0.0,-2.99,0,0,0,0.0,,78,0,4,41,98,0.506,0.0,115,1.05,13.1,0.0,1,0.0,0.0,0.0,0,0,0,0,0,0,250,250,0,,,,,,,,,,,,,,,,
22403,0,,,,,,,,0.0,0.0,-2.99,0,0,0,0.0,,78,0,4,41,98,0.506,0.0,116,1.05,13.1,0.0,1,0.0,0.0,0.0,0,0,0,0,0,0,250,250,0,,,,,,,,,,,,,,,,
22423,0,,,,,,,,0.0,0.0,-2.99,0,0,0,0.0,,78,0,4,41,98,0.506,0.0,116,1.05,13.1,0.0,1,0.0,0.0,0.0,0,0,0,0,0,0,250,250,0,,,,,,,,,,,,,,,,
22443,0,2,2,38,40,33,33,4,0.0,0.0,-2.99,0,0,0,0.0,0,78,0,4,41,98,0.506,0.0,116,1.05,13.1,0.0,1,0.0,0.0,0.0,0,0,0,0,0,0,250,250,0,0.0,0.0,0.0,0.0,0,0,0.0,0,0.0,-1,0.0,0.0,0.0,0,0.0,0.374
22463,0,,,,,,,,0.0,0.0,-2.99,0,0,0,0.0,,78,0,4,41,98,0.506,0.0,116,1.05,13.1,0.0,1,0.0,0.0,0.0,0,0,0,0,0,0,250,250,0,,,,,,,,,,,,,,,,
22483,0,,,,,,,,0.0,0.0,-2.99,0,0,0,0.0,,78,0,4,41,98,0.506,0.0,116,1.05,13.1,0.0,1,0.0,0.0,0.0,0,0,0,0,0,0,250,250,0,,,,,,,,,,,,,,,,
22503,0,,,,,,,,0.0,0.0,-2.99,0,0,0,0.0,,78,0,4,41,98,0.506,0.0,116,1.05,13.1,0.0,1,0.0,0.0,0.0,0,0,0,0,0,0,250,250,0,,,,,,,,,,,,,,,,
22523,0,,,,,,,,0.0,0.0,-2.99,0,0,0,0.0,,78,0,4,41,98,0.506,0.0,116,1.05,13.1,0.0,1,0.0,0.0,0.0,0,0,0,0,0,0,250,250,0,,,,,,,,,,,,,,,,
22543,0,4,1,38,40,33,33,4,0.0,0.0,-2.99,0,0,0,0.0,0,78,0,4,41,98,0.506,0.0,116,1.05,13.1,0.0,1,0.0,0.0,0.0,0,0,0,0,0,0,250,250,0,0.0,0.0,0.0,0.0,0,0,0.0,0,0.0,-1,0.0,,0.0,0,0.0,0.3757
22563,0,,,,,,,,0.0,0.0,-2.99,0,0,0,0.0,,78,0,4,41,98,0.506,0.0,116,1.05,13.1,0.0,1,0.0,0.0,0.0,0,0,0,0,0,0,250,250,0,,,,,,,,,,,,,,,,
22583,0,,,,,,,,0.0,0.0,-2.99,0,0,0,0.0,,78,0,4,41,98,0.506,0.0,116,1.05,13.1,0.0,1,0.0,0.0,0.0,0,0,0,0,0,0,250,250,0,,,,,,,,,,,,,,,,
22603,0,,,,,,,,0.0,0.0,-2.99,0,0,0,0.0,,78,0,4,41,98,0.506,0.0,116,1.05,13.1,0.0,1,0.0,0.0,0.0,0,0,0,0,0,0,250,250,0,,,,,,,,,,,,,,,,
22623,0,,,,,,,,-0.0,0.0,-2.99,0,0,0,0.0,,78,0,4,41,98,0.506,0.0,116,1.05,13.1,0.0,1,0.0,0.0,0.0,0,0,0,0,0,0,250,250,0,,,,,,,,,,,,,,,,
22643,0,3,2,38,39,33,33,3,0.0,0.0,-2.99,0,0,0,0.0,0,78,0,4,41,98,0.506,0.0,116,1.05,13.1,0.0,1,0.0,0.0,0.0,0,0,0,0,0,0,250,250,0,0.0,0.0,0.0,0.0,0,0,0.0,0,0.0,-1,0.0,0.0,0.0,0,0.0,0.3774
22663,0,,,,,,,,0.0,0.0,-2.99,0,0,0,0.0,,78,0,4,41,98,0.506,0.0,116,1.05,13.1,0.0,1,0.0,0.0,0.0,0,0,0,0,0,0,250,250,0,,,,,,,,,,,,,,,,
22683,0,,,,,,,,0.0,0.0,-2.99,0,0,0,0.0,,78,0,4,41,98,0.506,0.0,116,1.05,13.1,0.0,1,0.0,0.0,0.0,0,0,0,0,0,0,250,250,0,,,,,,,,,,,,,,,,
22703,0,,,,,,,,0.0,0.0,-2.99,0,0,0,0.0,,78,0,4,41,98,0.506,0.0,116,1.05,13.1,0.0,1,0.0,0.0,0.0,0,0,0,0,0,0,250,250,0,,,,,,,,,,,,,,,,
22723,0,,,,,,,,0.0,0.0,-2.99,0,0,0,0.0,,78,0,4,41,98,0.506,0.0,116,1.05,13.1,0.0,1,0.0,0.0,0.0,0,0,0,0,0,0,250,250,0,,,,,,,,,,,,,,,,
22743,0,4,0,38,39,33,33,4,0.0,0.0,-2.99,0,0,0,0.0,0,78,0,4,41,98,0.506,0.0,116,1.05,13.1,0.0,1,0.0,0.0,0.0,0,0,0,0,0,0,250,250,0,0.0,0.0,0.0,0.0,0,0,0.0,0,0.0,-1,0.0,,0.0,0,0.0,0.379
22763,0,,,,,,,,0.0,0.0,-2.99,0,0,0,0.0,,78,0,4,41,98,0.506,0.0,116,1.05,13.1,0.0,1,0.0,0.0,0.0,0,0,0,0,0,0,250,250,0,,,,,,,,,,,,,,,,
22783,0,,,,,,,,0.0,0.0,-2.99,0,0,0,0.0,,78,0,4,41,98,0.506,0.0,116,1.05,13.1,0.0,1,0.0,0.0,0.0,0,0,0,0,0,0,250,250,0,,,,,,,,,,,,,,,,
22803,0,,,,,,,,0.0,0.0,-2.99,0,0,0,0.0,,78,0,4,41,98,0.506,0.0,116,1.05,13.1,0.0,1,0.0,0.0,0.0,0,0,0,0,0,0,250,250,0,,,,,,,,,,,,,,,,
22823,0,,,,,,,,0.0,0.0,-2.99,0,0,0,0.0,,78,0,4,41,98,0.506,0.0,116,1.05,13.1,0.0,1,0.0,0.0,0.0,0,0,0,0,0,0,250,250,0,,,,,,,,,,,,,,,,
22843,0,4,2,37,39,33,33,3,0.0,0.0,-2.99,0,0,0,0.0,0,78,0,4,41,98,0.506,0.0,116,1.05,13.1,0.0,1,0.0,0.0,0.0,0,0,0,0,0,0,250,250,0,0.0,0.0,0.0,0.0,0,0,0.0,0,0.0,-1,0.0,0.0,0.0,0,0.0,0.3807
22863,0,,,,,,,,0.0,0.0,-2.99,0,0,0,0.0,,78,0,4,41,98,0.506,0.0,116,1.05,13.1,0.0,1,0.0,0.0,0.0,0,0,0,0,0,0,250,250,0,,,,,,,,,,,,,,,,
22883,0,,,,,,,,0.0,0.0,-2.99,0,0,0,0.0,,78,0,4,41,98,0.506,0.0,116,1.05,13.1,0.0,1,0.0,0.0,0.0,0,0,0,0,0,0,250,250,0,,,,,,,,,,,,,,,,
22903,0,,,,,,,,0.0,0.0,-2.99,0,0,0,0.0,,78,0,4,41,98,0.506,0.0,116,1.05,13.1,0.0,1,0.0,0.0,0.0,0,0,0,0,0,0,250,250,0,,,,,,,,,,,,,,,,
22923,0,,,,,,,,0.0,0.0,-2.99,0,0,0,0.0,,78,0,4,41,98,0.506,0.0,116,1.05,13.1,0.0,1,0.0,0.0,0.0,0,0,0,0,0,0,250,250,0,,,,,,,,,,,,,,,,
22943,0,2,2,38,39,33,33,4,0.0,0.0,-2.99,0,0,0,0.0,0,78,0,4,41,98,0.506,0.0,116,1.05,13.1,0.0,1,0.0,0.0,0.0,0,0,0,0,0,0,250,250,0,0.0,0.0,0.0,0.0,0,0,0.0,0,0.0,-1,0.0,,0.0,0,0.0,0.3824
22963,0,,,,,,,,0.0,0.0,-2.99,0,0,0,0.0,,78,0,4,41,98,0.506,0.0,116,1.05,13.1,0.0,1,0.0,0.0,0.0,0,0,0,0,0,0,250,250,0,,,,,,,,,,,,,,,,
22983,0,,,,,,,,0.0,0.0,-2.99,0,0,0,0.0,,78,0,4,41,98,0.506,0.0,116,1.05,13.1,0.0,1,0.0,0.0,0.0,0,0,0,0,0,0,250,250,0,,,,,,,,,,,,,,,,
23003,0,,,,,,,,0.0,0.0,-2.99,0,0,0,0.0,,78,0,4,41,98,0.506,0.0,116,1.05,13.1,0.0,1,0.0,0.0,0.0,0,0,0,0,0,0,250,250,0,,,,,,,,,,,,,,,,
23023,0,,,,,,,,0.0,0.0,-2.99,0,0,0,0.0,,78,0,4,41,98,0.506,0.0,116,1.05,13.1,0.0,1,0.0,0.0,0.0,0,0,0,0,0,0,250,250,0,,,,,,,,,,,,,,,,
23043,0,3,2,37,39,33,32,4,0.0,0.0,-2.99,0,0,0,0.0,0,78,0,4,41,98,0.506,0.0,116,1.05,13.1,0.0,1,0.0,0.0,0.0,0,0,0,0,0,0,250,250,0,0.0,0.0,0.0,0.0,0,0,0.0,0,0.0,-1,0.0,0.0,0.0,0,0.0,0.384
23063,0,,,,,,,,0.0,0.0,-2.99,0,0,0,0.0,,78,0,4,41,98,0.506,0.0,116,1.05,13.1,0.0,1,0.0,0.0,0.0,0,0,0,0,0,0,250,250,0,,,,,,,,,,,,,,,,
23083,0,,,,,,,,0.0,0.0,-2.99,0,0,0,0.0,,78,0,4,41,98,0.506,0.0,116,1.05,13.1,0.0,1,0.0,0.0,0.0,0,0,0,0,0,0,250,250,0,,,,,,,,,,,,,,,,
23103,0,,,,,,,,0.0,0.0,-2.99,0,0,0,0.0,,78,0,4,41,98,0.506,0.0,116,1.05,13.1,0.0,1,0.0,0.0,0.0,0,0,0,0,0,0,250,250,0,,,,,,,,,,,,,,,,
23123,0,,,,,,,,0.0,0.0,-2.99,0,0,0,0.0,,78,0,4,41,98,0.506,0.0,116,1.05,13.1,0.0,1,0.0,0.0,0.0,0,0,0,0,0,0,250,250,0,,,,,,,,,,,,,,,,
23143,0,3,2,37,38,33,33,3,0.0,0.0,-2.99,0,0,0,0.0,0,78,0,4,41,98,0.506,0.0,116,1.05,13.1,0.0,1,0.0,0.0,0.0,0,0,0,0,0,0,250,250,0,0.0,0.0,0.0,0.0,0,0,0.0,0,0.0,-1,0.0,,0.0,0,0.0,0.3857
23163,0,,,,,,,,0.0,0.0,-2.99,0,0,0,0.0,,78,0,4,41,98,0.506,0.0,116,1.05,13.1,0.0,1,0.0,0.0,0.0,0,0,0,0,0,0,250,250,0,,,,,,,,,,,,,,,,
23183,0,,,,,,,,0.0,0.0,-2.99,0,0,0,0.0,,78,0,4,41,98,0.506,0.0,116,1.05,13.1,0.0,1,0.0,0.0,0.0,0,0,0,0,0,0,250,250,0,,,,,,,,,,,,,,,,
23203,0,,,,,,,,-0.0,0.0,-2.99,0,0,0,0.0,,78,0,4,41,98,0.506,0.0,116,1.05,13.1,0.0,1,0.0,0.0,0.0,0,0,0,0,0,0,250,250,0,,,,,,,,,,,,,,,,
23223,0,,,,,,,,-0.0,0.0,-2.99,0,0,0,0.0,,78,0,4,41,98,0.506,0.0,116,1.05,13.1,0.0,1,0.0,0.0,0.0,0,0,0,0,0,0,250,250,0,,,,,,,,,,,,,,,,
23243,0,2,2,36,37,33,33,4,-0.0,0.0,-2.99,0,0,0,0.0,0,78,0,4,41,98,0.506,0.0,115,1.05,13.1,0.0,1,0.0,0.0,0.0,0,0,0,0,0,0,250,250,0,0.0,0.0,0.0,0.0,0,0,0.0,0,0.0,-1,0.0,0.0,0.0,0,0.0,0.3874
23263,0,,,,,,,,-0.0,0.0,-2.99,0,0,0,0.0,,78,0,4,41,98,0.506,0.0,116,1.05,13.1,0.0,1,0.0,0.0,0.0,0,0,0,0,0,0,250,250,0,,,,,,,,,,,,,,,,
23283,0,,,,,,,,-0.0,0.0,-2.99,0,0,0,0.0,,78,0,4,41,98,0.506,0.0,116,1.05,13.1,0.0,1,0.0,0.0,0.0,0,0,0,0,0,0,250,250,0,,,,,,,,,,,,,,,,
23303,0,,,,,,,,-0.0,0.0,-2.99,0,0,0,0.0,,78,0,4,41,98,0.506,0.0,116,1.05,13.1,0.0,1,0.0,0.0,0.0,0,0,0,0,0,0,250,250,0,,,,,,,,,,,,,,,,
23323,0,,,,,,,,-0.0,0.0,-2.99,0,0,0,0.0,,78,0,4,41,98,0.506,0.0,116,1.05,13.1,0.0,1,0.0,0.0,0.0,0,0,0,0,0,0,250,250,0,,,,,,,,,,,,,,,,
23343,0,3,0,36,37,33,32,3,-0.0,0.0,-2.99,0,0,0,0.0,0,78,0,4,41,98,0.506,0.0,116,1.05,13.1,0.0,1,0.0,0.0,0.0,0,0,0,0,0,0,250,250,0,0.0,0.0,0.0,0.0,0,0,0.0,0,0.0,-1,0.0,,0.0,0,0.0,0.389
23363,0,,,,,,,,-0.0,0.0,-2.99,0,0,0,0.0,,78,0,4,41,98,0.506,0.0,116,1.05,13.1,0.0,1,0.0,0.0,0.0,0,0,0,0,0,0,250,250,0,,,,,,,,,,,,,,,,
23383,0,,,,,,,,-0.0,0.0,-2.99,0,0,0,0.0,,78,0,4,41,98,0.506,0.0,116,1.05,13.1,0.0,1,0.0,0.0,0.0,0,0,0,0,0,0,250,250,0,,,,,,,,,,,,,,,,
23403,0,,,,,,,,-0.0,0.0,-2.99,0,0,0,0.0,,78,0,4,41,98,0.506,0.0,116,1.05,13.1,0.0,1,0.0,0.0,0.0,0,0,0,0,0,0,250,250,0,,,,,,,,,,,,,,,,
23423,0,,,,,,,,0.0,0.0,-2.99,0,0,0,0.0,,78,0,4,41,98,0.506,0.0,116,1.05,13.1,0.0,1,0.0,0.0,0.0,0,0,0,0,0,0,250,250,0,,,,,,,,,,,,,,,,
23443,0,4,2,36,38,33,33,4,0.0,0.0,-2.99,0,0,0,0.0,0,78,0,4,41,98,0.506,0.0,116,1.05,13.1,0.0,1,0.0,0.0,0.0,0,0,0,0,0,0,250,250,0,0.0,0.0,0.0,0.0,0,0,0.0,0,0.0,-1,0.0,0.0,0.0,0,0.0,0.3907
23463,0,,,,,,,,0.0,0.0,-2.99,0,0,0,0.0,,78,0,4,41,98,0.506,0.0,116,1.05,13.1,0.0,1,0.0,0.0,0.0,0,0,0,0,0,0,250,250,0,,,,,,,,,,,,,,,,
23483,0,,,,,,,,0.0,0.0,-2.99,0,0,0,0.0,,78,0,4,41,98,0.506,0.0,115,1.05,13.1,0.0,1,0.0,0.0,0.0,0,0,0,0,0,0,250,250,0,,,,,,,,,,,,,,,,
23503,0,,,,,,,,-0.0,0.0,-2.99,0,0,0,0.0,,78,0,4,41,98,0.506,0.0,116,1.05,13.1,0.0,1,0.0,0.0,0.0,0,0,0,0,0,0,250,250,0,,,,,,,,,,,,,,,,
23523,0,,,,,,,,-0.0,0.0,-2.99,0,0,0,0.0,,78,0,4,41,98,0.506,0.0,116,1.05,13.1,0.0,1,0.0,0.0,0.0,0,0,0,0,0,0,250,250,0,,,,,,,,,,,,,,,,
23543,0,4,1,36,39,33,32,4,-0.0,0.0,-2.99,0,0,0,0.0,0,78,0,4,41,98,0.506,0.0,116,1.05,13.1,0.0,1,0.0,0.0,0.0,0,0,0,0,0,0,250,250,0,0.0,0.0,0.0,0.0,0,0,0.0,0,0.0,-1,0.0,,0.0,0,0.0,0.3924
23563,0,,,,,,,,-0.0,0.0,-2.99,0,-0,0,0.0,,78,0,4,41,98,0.506,0.0,116,1.05,13.1,0.0,1,0.0,0.0,0.0,0,0,0,0,0,0,250,250,0,,,,,,,,,,,,,,,,
23583,0,,,,,,,,-0.0,0.0,-2.99,0,-0,0,0.0,,78,0,4,41,98,0.506,0.0,115,1.05,13.1,0.0,1,0.0,0.0,0.0,0,0,0,0,0,0,250,250,0,,,,,,,,,,,,,,,,
23603,0,,,,,,,,-0.0,0.0,-2.99,0,-0,0,0.0,,78,0,4,41,98,0.506,0.0,116,1.05,13.1,0.0,1,0.0,0.0,0.0,0,0,0,0,0,0,250,250,0,,,,,,,,,,,,,,,,
23623,0,,,,,,,,-0.0,0.0,-2.99,0,-0,0,0.01,,78,0,4,41,98,0.506,0.0,116,1.05,13.1,0.0,1,0.0,0.0,0.0,0,0,0,0,0,0,250,250,0,,,,,,,,,,,,,,,,
23643,0,1,2,36,40,33,32,4,-0.0,0.01,-2.99,0,-0,0,0.01,0,78,0,4,41,98,0.506,0.0,116,1.05,13.1,0.0,1,0.0,0.0,0.0,0,0,0,0,0,0,250,250,0,0.0,0.0,0.0,0.0,0,0,0.0,0,0.0,-1,0.0,0.0,0.0,0,0.0,0.394
23663,0,,,,,,,,-0.0,0.0,-2.99,0,-0,0,0.01,,78,0,4,41,98,0.506,0.0,116,1.05,13.1,0.0,1,0.0,0.0,0.0,0,0,0,0,0,0,250,250,0,,,,,,,,,,,,,,,,
23683,0,,,,,,,,-0.0,0.0,-2.99,0,-0,0,0.01,,78,0,4,41,98,0.506,0.0,116,1.05,13.1,0.0,1,0.0,0.0,0.0,0,0,0,0,0,0,250,250,0,,,,,,,,,,,,,,,,
23703,0,,,,,,,,-0.0,0.01,-2.99,0,-0,0,0.01,,78,0,4,41,98,0.506,0.0,116,1.05,13.1,0.0,1,0.0,0.0,0.0,0,0,0,0,0,0,250,250,0,,,,,,,,,,,,,,,,
23723,0,,,,,,,,-0.0,0.01,-2.99,0,-0,0,0.01,,78,0,4,41,98,0.506,0.0,116,1.05,13.1,0.0,1,0.0,0.0,0.0,0,0,0,0,0,0,250,250,0,,,,,,,,,,,,,,,,
23743,0,-0,0,37,40,33,32,4,-0.0,0.0,-2.99,0,-0,0,0.0,0,78,0,4,41,98,0.506,0.0,116,1.05,13.1,0.0,1,0.0,0.0,0.0,0,0,0,0,0,0,250,250,0,0.0,0.0,0.0,0.0,0,0,0.0,0,0.0,-1,0.0,,0.0,0,0.0,0.3957
23763,0,,,,,,,,-0.0,0.0,-2.99,0,-0,0,0.0,,78,0,4,41,98,0.506,0.0,116,1.05,13.1,0.0,1,0.0,0.0,0.0,0,0,0,0,0,0,250,250,0,,,,,,,,,,,,,,,,
23783,0,,,,,,,,-0.0,0.0,-2.99,0,-0,0,0.0,,78,0,4,41,98,0.506,0.0,116,1.05,13.1,0.0,1,0.0,0.0,0.0,0,0,0,0,0,0,250,250,0,,,,,,,,,,,,,,,,
23803,0,,,,,,,,-0.0,0.0,-2.99,0,-0,0,0.0,,78,0,4,41,98,0.506,0.0,116,1.05,13.1,0.0,1,0.0,0.0,0.0,0,0,0,0,0,0,250,250,0,,,,,,,,,,,,,,,,
23823,0,,,,,,,,-0.0,0.0,-2.99,0,-0,0,0.0,,78,0,4,41,98,0.506,0.0,116,1.05,13.1,0.0,1,0.0,0.0,0.0,0,0,0,0,0,0,250,250,0,,,,,,,,,,,,,,,,
23843,0,0,1,36,40,33,33,4,-0.0,0.0,-2.99,0,-0,0,0.0,0,78,0,4,41,98,0.506,0.0,116,1.05,13.1,0.0,1,0.0,0.0,0.0,0,0,0,0,0,0,250,250,0,0.0,0.0,0.0,0.0,0,0,0.0,0,0.0,-1,0.0,0.0,0.0,0,0.0,0.3974
23863,0,,,,,,,,-0.0,0.0,-2.99,0,-0,0,0.0,,78,0,4,41,98,0.506,0.0,116,1.05,13.1,0.0,1,0.0,0.0,0.0,0,0,0,0,0,0,250,250,0,,,,,,,,,,,,,,,,
23883,0,,,,,,,,-0.0,0.0,-2.99,0,-0,0,0.0,,78,0,4,41,98,0.506,0.0,116,1.05,13.1,0.0,1,0.0,0.0,0.0,0,0,0,0,0,0,250,250,0,,,,,,,,,,,,,,,,
23903,0,,,,,,,,0.0,0.0,-2.99,0,-0,0,0.0,,78,0,4,41,98,0.506,0.0,116,1.05,13.1,0.0,1,0.0,0.0,0.0,0,0,0,0,0,0,250,250,0,,,,,,,,,,,,,,,,
23923,0,,,,,,,,0.0,0.0,-2.99,0,-0,0,0.0,,78,0,4,41,98,0.506,0.0,116,1.05,13.1,0.0,1,0.0,0.0,0.0,0,0,0,0,0,0,250,250,0,,,,,,,,,,,,,,,,
23943,0,0,0,37,40,33,32,4,0.0,0.0,-2.99,0,-0,0,0.0,0,78,0,4,41,98,0.506,0.0,116,1.05,13.1,0.0,1,0.0,0.0,0.0,0,0,0,0,0,0,250,250,0,0.0,0.0,0.0,0.0,0,0,0.0,0,0.0,-1,0.0,,0.0,0,0.0,0.399
23963,0,,,,,,,,0.0,0.0,-2.99,0,-0,0,0.0,,78,0,4,41,98,0.506,0.0,116,1.05,13.1,0.0,1,0.0,0.0,0.0,0,0,0,0,0,0,250,250,0,,,,,,,,,,,,,,,,
23983,0,,,,,,,,0.0,0.0,-2.99,0,-0,0,0.0,,78,0,4,41,98,0.506,0.0,116,1.05,13.1,0.0,1,0.0,0.0,0.0,0,0,0,0,0,0,250,250,0,,,,,,,,,,,,,,,,
24003,0,,,,,,,,-0.0,0.0,-2.99,0,-0,0,0.0,,78,0,4,41,98,0.506,0.0,116,1.05,13.1,0.0,1,0.0,0.0,0.0,0,0,0,0,0,0,250,250,0,,,,,,,,,,,,,,,,
24023,0,,,,,,,,-0.0,0.0,-2.99,0,-0,0,0.0,,78,0,4,41,98,0.506,0.0,116,1.05,13.1,0.0,1,0.0,0.0,0.0,0,0,0,0,0,0,250,250,0,,,,,,,,,,,,,,,,
24043,0,0,2,36,40,33,32,4,-0.0,0.0,-2.99,0,0,0,0.0,0,78,0,4,41,98,0.506,0.0,116,1.05,13.1,0.0,1,0.0,0.0,0.0,0,0,0,0,0,0,250,250,0,0.0,0.0,0.0,0.0,0,0,0.0,0,0.0,-1,0.0,0.0,0.0,0,0.0,0.4007
24063,0,,,,,,,,-0.0,0.0,-2.99,0,0,0,0.0,,78,0,4,41,98,0.506,0.0,116,1.05,13.1,0.0,1,0.0,0.0,0.0,0,0,0,0,0,0,250,250,0,,,,,,,,,,,,,,,,
24083,0,,,,,,,,-0.0,0.0,-2.99,0,0,0,0.0,,78,0,4,41,98,0.506,0.0,116,1.05,13.1,0.0,1,0.0,0.0,0.0,0,0,0,0,0,0,250,250,0,,,,,,,,,,,,,,,,
24103,0,,,,,,,,-0.0,0.0,-2.99,0,0,0,0.0,,78,0,4,41,98,0.506,0.0,116,1.05,13.1,0.0,1,0.0,0.0,0.0,0,0,0,0,0,0,250,250,0,,,,,,,,,,,,,,,,
24123,0,,,,,,,,-0.0,0.0,-2.99,0,-0,0,0.0,,78,0,4,41,98,0.506,0.0,116,1.05,13.1,0.0,1,0.0,0.0,0.0,0,0,0,0,0,0,250,250,0,,,,,,,,,,,,,,,,
24143,0,0,2,36,40,33,33,3,-0.0,0.0,-2.99,0,0,0,0.0,0,78,0,4,41,98,0.506,0.0,116,1.05,13.1,0.0,1,0.0,0.0,0.0,0,0,0,0,0,0,250,250,0,0.0,0.0,0.0,0.0,0,0,0.0,0,0.0,-1,0.0,,0.0,0,0.0,0.4024
24163,0,,,,,,,,-0.0,0.0,-2.99,0,-0,0,0.0,,78,0,4,41,98,0.506,0.0,116,1.05,13.1,0.0,1,0.0,0.0,0.0,0,0,0,0,0,0,250,250,0,,,,,,,,,,,,,,,,
24183,0,,,,,,,,-0.0,0.0,-2.99,0,-0,0,0.0,,78,0,4,41,98,0.506,0.0,116,1.05,13.1,0.0,1,0.0,0.0,0.0,0,0,0,0,0,0,250,250,0,,,,,,,,,,,,,,,,
24203,0,,,,,,,,-0.0,0.0,-2.99,0,0,0,0.0,,78,0,4,41,98,0.506,0.0,116,1.05,13.1,0.0,1,0.0,0.0,0.0,0,0,0,0,0,0,250,250,0,,,,,,,,,,,,,,,,
24223,0,,,,,,,,0.0,0.0,-2.99,0,0,0,0.0,,78,0,4,41,98,0.506,0.0,115,1.05,13.1,0.0,1,0.0,0.0,0.0,0,0,0,0,0,0,250,250,0,,,,,,,,,,,,,,,,
24243,0,-0,2,37,40,33,33,3,-0.0,0.0,-2.99,0,0,0,0.0,0,78,0,4,41,98,0.506,0.0,116,1.05,13.1,0.0,1,0.0,0.0,0.0,0,0,0,0,0,0,250,250,0,0.0,0.0,0.0,0.0,0,0,0.0,0,0.0,-1,0.0,0.0,0.0,0,0.0,0.404
24263,0,,,,,,,,-0.0,0.0,-2.99,0,0,0,0.0,,78,0,4,41,98,0.506,0.0,116,1.05,13.1,0.0,1,0.0,0.0,0.0,0,0,0,0,0,0,250,250,0,,,,,,,,,,,,,,,,
24283,0,,,,,,,,-0.0,0.0,-2.99,0,0,0,0.0,,78,0,4,41,98,0.506,0.0,116,1.05,13.1,0.0,1,0.0,0.0,0.0,0,0,0,0,0,0,250,250,0,,,,,,,,,,,,,,,,
24303,0,,,,,,,,-0.0,0.0,-2.99,0,0,0,0.01,,78,0,4,41,98,0.506,0.0,116,1.05,13.1,0.0,1,0.0,0.0,0.0,0,0,0,0,0,0,250,250,0,,,,,,,,,,,,,,,,
24323,0,,,,,,,,-0.0,0.0,-3.0,0,0,0,0.01,,78,0,4,41,98,0.506,0.0,116,1.05,13.1,0.0,1,0.0,0.0,0.0,0,0,0,0,0,0,250,250,0,,,,,,,,,,,,,,,,
24343,0,-0,1,37,40,33,32,4,-0.0,0.01,-3.0,0,-0,0,0.01,0,78,0,4,41,98,0.506,0.0,116,1.04,13.1,0.0,1,0.0,0.0,0.0,0,0,0,0,0,0,250,250,0,0.0,0.0,0.0,0.0,0,0,0.0,0,0.0,-1,0.0,,0.0,0,0.0,0.4057
24363,0,,,,,,,,-0.0,0.0,-3.0,0,-0,0,0.0,,78,0,4,41,98,0.506,0.0,116,1.05,13.1,0.0,1,0.0,0.0,0.0,0,0,0,0,0,0,250,250,0,,,,,,,,,,,,,,,,
24383,0,,,,,,,,-0.0,0.0,-3.0,0,-0,0,0.0,,78,0,4,41,98,0.506,0.0,116,1.05,13.1,0.0,1,0.0,0.0,0.0,0,0,0,0,0,0,250,250,0,,,,,,,,,,,,,,,,
24403,0,,,,,,,,-0.0,0.0,-2.99,0,0,0,0.0,,78,0,4,41,98,0.506,0.0,116,1.05,13.1,0.0,1,0.0,0.0,0.0,0,0,0,0,0,0,250,250,0,,,,,,,,,,,,,,,,
24423,0,,,,,,,,-0.0,0.0,-2.99,0,0,0,0.0,,78,0,4,41,98,0.506,0.0,116,1.05,13.1,0.0,1,0.0,0.0,0.0,0,0,0,0,0,0,250,250,0,,,,,,,,,,,,,,,,
24443,0,-1,2,36,40,33,33,4,-0.0,0.0,-2.99,0,-0,0,0.0,0,78,0,4,41,98,0.506,0.0,116,1.05,13.1,0.0,1,0.0,0.0,0.0,0,0,0,0,0,0,250,250,0,0.0,0.0,0.0,0.0,0,0,0.0,0,0.0,-1,0.0,0.0,0.0,0,0.0,0.4074
24463,0,,,,,,,,-0.0,0.0,-2.99,0,-0,0,0.0,,78,0,4,41,98,0.506,0.0,115,1.05,13.1,0.0,1,0.0,0.0,0.0,0,0,0,0,0,0,250,250,0,,,,,,,,,,,,,,,,
24483,0,,,,,,,,-0.0,0.01,-2.99,0,-0,0,0.01,,78,0,4,41,98,0.506,0.0,116,1.05,13.1,0.0,1,0.0,0.0,0.0,0,0,0,0,0,0,250,250,0,,,,,,,,,,,,,,,,
24503,0,,,,,,,,-0.0,0.0,-2.99,0,0,0,0.0,,78,0,4,41,98,0.506,0.0,116,1.05,13.1,0.0,1,0.0,0.0,0.0,0,0,0,0,0,0,250,250,0,,,,,,,,,,,,,,,,
24523,0,,,,,,,,-0.0,0.0,-3.0,0,0,0,0.0,,78,0,4,41,98,0.506,0.0,116,1.05,13.1,0.0,1,0.0,0.0,0.0,0,0,0,0,0,0,250,250,0,,,,,,,,,,,,,,,,
24543,0,-1,2,37,40,33,33,3,-0.0,0.0,-2.99,0,-0,0,0.0,0,78,0,4,41,98,0.506,0.0,116,1.05,13.1,0.0,1,0.0,0.0,0.0,0,0,0,0,0,0,250,250,0,0.0,0.0,0.0,0.0,0,0,0.0,0,0.0,-1,0.0,,0.0,0,0.0,0.409
24563,0,,,,,,,,-0.0,0.0,-2.99,0,-0,0,0.0,,78,0,4,41,98,0.506,0.0,116,1.05,13.1,0.0,1,0.0,0.0,0.0,0,0,0,0,0,0,250,250,0,,,,,,,,,,,,,,,,
24583,0,,,,,,,,-0.0,0.0,-2.99,0,0,0,0.0,,78,0,4,41,98,0.506,0.0,116,1.05,13.1,0.0,1,0.0,0.0,0.0,0,0,0,0,0,0,250,250,0,,,,,,,,,,,,,,,,
24603,0,,,,,,,,-0.0,0.0,-2.99,0,0,0,0.0,,78,0,4,41,98,0.506,0.0,116,1.05,13.1,0.0,1,0.0,0.0,0.0,0,0,0,0,0,0,250,250,0,,,,,,,,,,,,,,,,
24623,0,,,,,,,,-0.0,0.0,-2.99,0,0,0,0.0,,78,0,4,41,98,0.506,0.0,116,1.05,13.1,0.0,1,0.0,0.0,0.0,0,0,0,0,0,0,250,250,0,,,,,,,,,,,,,,,,
24643,0,-1,2,37,40,33,33,4,-0.0,0.0,-2.99,0,0,0,0.0,0,78,0,4,41,98,0.506,0.0,116,1.05,13.1,0.0,1,0.0,0.0,0.0,0,0,0,0,0,0,250,250,0,0.0,0.0,0.0,0.0,0,0,0.0,0,0.0,-1,0.0,0.0,0.0,0,0.0,0.4107
24663,0,,,,,,,,-0.0,0.0,-2.99,0,0,0,0.0,,78,0,4,41,98,0.506,0.0,115,1.05,13.1,0.0,1,0.0,0.0,0.0,0,0,0,0,0,0,250,250,0,,,,,,,,,,,,,,,,
24683,0,,,,,,,,0.0,0.0,-2.99,0,0,0,0.0,,78,0,4,41,98,0.506,0.0,116,1.05,13.1,0.0,1,0.0,0.0,0.0,0,0,0,0,0,0,250,250,0,,,,,,,,,,,,,,,,
24703,0,,,,,,,,0.0,0.0,-2.99,0,0,0,0.0,,78,0,4,41,98,0.506,0.0,116,1.05,13.1,0.0,1,0.0,0.0,0.0,0,0,0,0,0,0,250,250,0,,,,,,,,,,,,,,,,
24723,0,,,,,,,,0.0,0.0,-2.99,0,0,0,0.0,,78,0,4,41,98,0.506,0.0,116,1.05,13.1,0.0,1,0.0,0.0,0.0,0,0,0,0,0,0,250,250,0,,,,,,,,,,,,,,,,
24743,0,-1,2,37,40,33,33,4,-0.0,0.0,-2.99,0,0,0,0.0,0,78,0,4,41,98,0.506,0.0,116,1.05,13.1,0.0,1,0.0,0.0,0.0,0,0,0,0,0,0,250,250,0,0.0,0.0,0.0,0.0,0,0,0.0,0,0.0,-1,0.0,,0.0,0,0.0,0.4124
24763,0,,,,,,,,-0.0,0.0,-2.99,0,0,0,0.0,,78,0,4,41,98,0.506,0.0,116,1.05,13.1,0.0,1,0.0,0.0,0.0,0,0,0,0,0,0,250,250,0,,,,,,,,,,,,,,,,
24783,0,,,,,,,,-0.0,0.0,-2.99,0,0,0,0.0,,78,0,4,41,98,0.506,0.0,116,1.05,13.1,0.0,1,0.0,0.0,0.0,0,0,0,0,0,0,250,250,0,,,,,,,,,,,,,,,,
24803,0,,,,,,,,-0.0,0.0,-2.99,0,0,0,0.0,,78,0,4,41,98,0.506,0.0,116,1.05,13.1,0.0,1,0.0,0.0,0.0,0,0,0,0,0,0,250,250,0,,,,,,,,,,,,,,,,
24823,0,,,,,,,,-0.0,0.0,-2.99,0,0,0,0.0,,78,0,4,41,98,0.506,0.0,116,1.05,13.1,0.0,1,0.0,0.0,0.0,0,0,0,0,0,0,250,250,0,,,,,,,,,,,,,,,,
24843,0,-0,2,36,40,33,32,3,-0.0,0.0,-2.99,0,0,0,0.0,0,78,0,4,41,98,0.506,0.0,116,1.05,13.1,0.0,1,0.0,0.0,0.0,0,0,0,0,0,0,250,250,0,0.0,0.0,0.0,0.0,0,0,0.0,0,0.0,-1,0.0,0.0,0.0,0,0.0,0.414
24863,0,,,,,,,,-0.0,0.0,-2.99,0,0,0,0.0,,78,0,4,41,98,0.506,0.0,116,1.05,13.1,0.0,1,0.0,0.0,0.0,0,0,0,0,0,0,250,250,0,,,,,,,,,,,,,,,,
24883,0,,,,,,,,-0.0,0.0,-2.99,0,0,0,0.0,,78,0,4,41,98,0.506,0.0,116,1.05,13.1,0.0,1,0.0,0.0,0.0,0,0,0,0,0,0,250,250,0,,,,,,,,,,,,,,,,
24903,0,,,,,,,,-0.0,0.0,-2.99,0,0,0,0.0,,78,0,4,41,98,0.506,0.0,115,1.05,13.1,0.0,1,0.0,0.0,0.0,0,0,0,0,0,0,250,250,0,,,,,,,,,,,,,,,,
24923,0,,,,,,,,-0.0,0.0,-2.99,0,0,0,0.0,,78,0,4,41,98,0.506,0.0,116,1.05,13.1,0.0,1,0.0,0.0,0.0,0,0,0,0,0,0,250,250,0,,,,,,,,,,,,,,,,
24943,0,0,2,36,40,33,33,3,-0.0,0.0,-2.99,0,0,0,0.0,0,78,0,4,41,98,0.506,0.0,116,1.05,13.1,0.0,1,0.0,0.0,0.0,0,0,0,0,0,0,250,250,0,0.0,0.0,0.0,0.0,0,0,0.0,0,0.0,-1,0.0,,0.0,0,0.0,0.4157
24963,0,,,,,,,,-0.0,0.0,-2.99,0,0,0,0.0,,78,0,4,41,98,0.506,0.0,116,1.05,13.1,0.0,1,0.0,0.0,0.0,0,0,0,0,0,0,250,250,0,,,,,,,,,,,,,,,,
24983,0,,,,,,,,-0.0,0.0,-2.99,0,0,0,0.0,,78,0,4,41,98,0.506,0.0,116,1.05,13.1,0.0,1,0.0,0.0,0.0,0,0,0,0,0,0,250,250,0,,,,,,,,,,,,,,,,
25003,0,,,,,,,,0.0,0.0,-2.99,0,0,0,0.0,,78,0,4,41,98,0.506,0.0,116,1.05,13.1,0.0,1,0.0,0.0,0.0,0,0,0,0,0,0,250,250,0,,,,,,,,,,,,,,,,
25023,0,,,,,,,,0.0,0.0,-2.99,0,0,0,0.0,,78,0,4,41,98,0.506,0.0,116,1.05,13.1,0.0,1,0.0,0.0,0.0,0,0,0,0,0,0,250,250,0,,,,,,,,,,,,,,,,
25043,0,-1,2,36,40,33,32,4,0.0,0.0,-2.99,0,0,0,0.0,0,78,0,4,41,98,0.506,0.0,116,1.05,13.1,0.0,1,0.0,0.0,0.0,0,0,0,0,0,0,250,250,0,0.0,0.0,0.0,0.0,0,0,0.0,0,0.0,-1,0.0,0.0,0.0,0,0.0,0.4174
25063,0,,,,,,,,0.0,0.0,-2.99,0,0,0,0.0,,78,0,4,41,98,0.506,0.0,116,1.05,13.1,0.0,1,0.0,0.0,0.0,0,0,0,0,0,0,250,250,0,,,,,,,,,,,,,,,,
25083,0,,,,,,,,0.0,0.0,-2.99,0,0,0,0.0,,78,0,4,41,98,0.506,0.0,116,1.05,13.1,0.0,1,0.0,0.0,0.0,0,0,0,0,0,0,250,250,0,,,,,,,,,,,,,,,,
25103,0,,,,,,,,-0.0,0.0,-2.99,0,0,0,0.0,,78,0,4,41,98,0.506,0.0,116,1.05,13.1,0.0,1,0.0,0.0,0.0,0,0,0,0,0,0,250,250,0,,,,,,,,,,,,,,,,
25123,0,,,,,,,,-0.0,0.0,-2.99,0,0,0,0.0,,78,0,4,41,98,0.506,0.0,115,1.05,13.1,0.0,1,0.0,0.0,0.0,0,0,0,0,0,0,250,250,0,,,,,,,,,,,,,,,,
25143,0,-1,2,37,40,33,33,3,-0.0,0.0,-2.99,0,0,0,0.0,0,78,0,4,41,98,0.506,0.0,115,1.05,13.1,0.0,1,0.0,0.0,0.0,0,0,0,0,0,0,250,250,0,0.0,0.0,0.0,0.0,0,0,0.0,0,0.0,-1,0.0,,0.0,0,0.0,0.419
25163,0,,,,,,,,-0.0,0.0,-2.99,0,0,0,0.0,,78,0,4,41,98,0.506,0.0,116,1.05,13.1,0.0,1,0.0,0.0,0.0,0,0,0,0,0,0,250,250,0,,,,,,,,,,,,,,,,
25183,0,,,,,,,,-0.0,0.0,-2.99,0,0,0,0.0,,78,0,4,41,98,0.506,0.0,116,1.05,13.1,0.0,1,0.0,0.0,0.0,0,0,0,0,0,0,250,250,0,,,,,,,,,,,,,,,,
25203,0,,,,,,,,-0.0,0.0,-2.99,0,0,0,0.0,,78,0,4,41,98,0.506,0.0,116,1.05,13.1,0.0,1,0.0,0.0,0.0,0,0,0,0,0,0,250,250,0,,,,,,,,,,,,,,,,
25223,0,,,,,,,,-0.0,0.0,-2.99,0,-0,0,0.0,,78,0,4,41,98,0.506,0.0,116,1.05,13.1,0.0,1,0.0,0.0,0.0,0,0,0,0,0,0,250,250,0,,,,,,,,,,,,,,,,
25243,0,1,1,36,40,33,33,4,-0.0,0.0,-2.99,0,0,0,0.0,0,78,0,4,41,98,0.506,0.0,116,1.05,13.1,0.0,1,0.0,0.0,0.0,0,0,0,0,0,0,250,250,0,0.0,0.0,0.0,0.0,0,0,0.0,0,0.0,-1,0.0,0.0,0.0,0,0.0,0.4207
25263,0,,,,,,,,-0.0,0.0,-2.99,0,0,0,0.0,,78,0,4,41,98,0.506,0.0,116,1.05,13.1,0.0,1,0.0,0.0,0.0,0,0,0,0,0,0,250,250,0,,,,,,,,,,,,,,,,
25283,0,,,,,,,,-0.0,0.0,-2.99,0,-0,0,0.0,,78,0,4,41,98,0.506,0.0,116,1.05,13.1,0.0,1,0.0,0.0,0.0,0,0,0,0,0,0,250,250,0,,,,,,,,,,,,,,,,
25303,0,,,,,,,,-0.0,0.0,-2.99,0,-0,0,0.0,,78,0,4,41,98,0.506,0.0,116,1.05,13.1,0.0,1,0.0,0.0,0.0,0,0,0,0,0,0,250,250,0,,,,,,,,,,,,,,,,
25323,0,,,,,,,,-0.0,0.0,-2.99,0,-0,0,0.0,,78,0,4,41,98,0.506,0.0,116,1.05,13.1,0.0,1,0.0,0.0,0.0,0,0,0,0,0,0,250,250,0,,,,,,,,,,,,,,,,
25343,0,-0,2,36,40,33,33,3,-0.0,0.0,-2.99,0,-0,0,0.0,0,78,0,4,41,98,0.506,0.0,116,1.05,13.1,0.0,1,0.0,0.0,0.0,0,0,0,0,0,0,250,250,0,0.0,0.0,0.0,0.0,0,0,0.0,0,0.0,-1,0.0,,0.0,0,0.0,0.4224
25363,0,,,,,,,,-0.0,0.0,-2.99,0,-0,0,0.0,,78,0,4,41,98,0.506,0.0,116,1.05,13.1,0.0,1,0.0,0.0,0.0,0,0,0,0,0,0,250,250,0,,,,,,,,,,,,,,,,
25383,0,,,,,,,,-0.0,0.0,-2.99,0,0,0,0.0,,78,0,4,41,98,0.506,0.0,116,1.05,13.1,0.0,1,0.0,0.0,0.0,0,0,0,0,0,0,250,250,0,,,,,,,,,,,,,,,,
25403,0,,,,,,,,-0.0,0.0,-2.99,0,0,0,0.0,,78,0,4,41,98,0.506,0.0,116,1.05,13.1,0.0,1,0.0,0.0,0.0,0,0,0,0,0,0,250,250,0,,,,,,,,,,,,,,,,
25423,0,,,,,,,,-0.0,0.0,-2.99,0,0,0,0.0,,78,0,4,41,98,0.506,0.0,116,1.05,13.0,0.0,1,0.0,0.0,0.0,0,0,0,0,0,0,250,250,0,,,,,,,,,,,,,,,,
25443,0,0,0,37,40,33,33,3,-0.0,0.0,-2.99,0,0,0,0.0,0,78,0,4,41,98,0.506,0.0,116,1.05,13.1,0.0,1,0.0,0.0,0.0,0,0,0,0,0,0,250,250,0,0.0,0.0,0.0,0.0,0,0,0.0,0,0.0,-1,0.0,0.0,0.0,0,0.0,0.424
25463,0,,,,,,,,-0.0,0.0,-2.99,0,0,0,0.0,,78,0,4,41,98,0.506,0.0,116,1.05,13.1,0.0,1,0.0,0.0,0.0,0,0,0,0,0,0,250,250,0,,,,,,,,,,,,,,,,
25483,0,,,,,,,,-0.0,0.0,-2.99,0,0,0,0.0,,78,0,4,41,98,0.506,0.0,116,1.05,13.1,0.0,1,0.0,0.0,0.0,0,0,0,0,0,0,250,250,0,,,,,,,,,,,,,,,,
25503,0,,,,,,,,-0.0,0.0,-2.99,0,0,0,0.0,,78,0,4,41,98,0.506,0.0,116,1.05,13.1,0.0,1,0.0,0.0,0.0,0,0,0,0,0,0,250,250,0,,,,,,,,,,,,,,,,
25523,0,,,,,,,,-0.0,0.0,-2.99,0,-0,0,0.0,,78,0,4,41,98,0.506,0.0,116,1.05,13.1,0.0,1,0.0,0.0,0.0,0,0,0,0,0,0,250,250,0,,,,,,,,,,,,,,,,
25543,0,0,0,37,40,33,32,3,-0.0,0.0,-2.99,0,0,0,0.0,0,78,0,4,41,98,0.506,0.0,116,1.05,13.1,0.0,1,0.0,0.0,0.0,0,0,0,0,0,0,250,250,0,0.0,0.0,0.0,0.0,0,0,0.0,0,0.0,-1,0.0,,0.0,0,0.0,0.4257
25563,0,,,,,,,,-0.0,0.0,-2.99,0,0,0,0.0,,78,0,4,41,98,0.506,0.0,116,1.05,13.1,0.0,1,0.0,0.0,0.0,0,0,0,0,0,0,250,250,0,,,,,,,,,,,,,,,,
25583,0,,,,,,,,-0.0,0.0,-2.99,0,-0,0,0.0,,78,0,4,41,98,0.506,0.0,116,1.05,13.1,0.0,1,0.0,0.0,0.0,0,0,0,0,0,0,250,250,0,,,,,,,,,,,,,,,,
25603,0,,,,,,,,-0.0,0.0,-2.99,0,-0,0,0.0,,78,0,4,41,98,0.506,0.0,116,1.05,13.1,0.0,1,0.0,0.0,0.0,0,0,0,0,0,0,250,250,0,,,,,,,,,,,,,,,,
25623,0,,,,,,,,-0.0,0.0,-2.99,0,0,0,0.0,,78,0,4,41,98,0.506,0.0,116,1.05,13.1,0.0,1,0.0,0.0,0.0,0,0,0,0,0,0,250,250,0,,,,,,,,,,,,,,,,
25643,0,0,2,36,40,33,32,4,-0.0,0.0,-2.99,0,0,0,0.0,0,78,0,4,41,98,0.506,0.0,116,1.05,13.1,0.0,1,0.0,0.0,0.0,0,0,0,0,0,0,250,250,0,0.0,0.0,0.0,0.0,0,0,0.0,0,0.0,-1,0.0,0.0,0.0,0,0.0,0.4274
25663,0,,,,,,,,0.0,0.0,-2.99,0,0,0,0.0,,78,0,4,41,98,0.506,0.0,115,1.04,12.4,0.0,1,0.0,0.0,0.0,0,0,0,0,0,0,250,250,0,,,,,,,,,,,,,,,,
25683,0,,,,,,,,0.0,0.0,-3.0,0,0,0,0.0,,78,0,4,41,98,0.506,0.0,116,1.05,9.8,0.0,1,0.0,0.0,0.0,0,0,0,0,0,0,250,250,0,,,,,,,,,,,,,,,,
25703,0,,,,,,,,0.0,0.0,-3.0,0,-0,0,0.0,,78,0,4,41,98,0.505,0.0,116,1.05,10.8,0.0,1,0.0,0.0,0.0,0,0,0,0,0,0,250,250,0,,,,,,,,,,,,,,,,
25723,0,,,,,,,,0.0,0.0,-3.0,0,-0,0,0.0,,78,0,4,41,98,0.505,0.0,116,1.05,11.2,0.0,1,0.0,0.0,0.0,0,0,0,0,0,0,250,250,0,,,,,,,,,,,,,,,,
25743,0,-1,2,37,40,33,33,3,0.0,0.0,-3.0,0,-0,0,0.0,0,78,0,4,41,98,0.504,0.0,116,1.05,11.5,0.0,1,0.0,0.0,0.0,0,0,0,0,0,0,250,250,0,0.0,0.0,0.0,0.0,0,0,0.0,0,0.0,-1,0.0,,0.0,0,0.0,0.429
25763,0,,,,,,,,-0.0,0.0,-2.99,0,-0,0,0.0,,78,0,4,41,98,0.504,0.0,116,1.05,11.6,0.0,1,0.0,0.0,0.0,0,0,0,0,0,0,250,250,0,,,,,,,,,,,,,,,,
25783,0,,,,,,,,-0.0,0.0,-2.99,0,-0,0,0.01,,78,0,4,41,98,0.504,0.0,116,1.05,11.6,0.0,1,0.0,0.0,0.0,0,0,0,0,0,0,250,250,0,,,,,,,,,,,,,,,,
25803,0,,,,,,,,-0.0,0.0,-2.99,0,-0,0,0.0,,78,0,4,41,98,0.503,0.0,117,1.05,11.6,0.0,1,0.0,0.0,0.0,0,0,0,0,0,0,250,250,0,,,,,,,,,,,,,,,,
25823,0,,,,,,,,0.0,0.0,-2.99,0,-0,0,0.0,,78,0,4,41,98,0.503,0.0,118,1.05,11.6,0.0,1,0.0,0.0,0.0,0,0,0,0,0,0,250,250,0,,,,,,,,,,,,,,,,
25843,0,1,1,37,40,33,33,3,0.0,0.0,-2.99,0,-0,0,0.0,0,78,0,4,41,98,0.502,0.0,118,1.05,11.9,0.0,1,0.0,0.0,0.0,0,0,0,0,0,0,250,250,0,0.0,0.0,0.0,0.0,0,0,0.0,0,0.0,-1,0.0,0.0,0.0,0,0.0,0.4307
25863,0,,,,,,,,0.0,0.01,-2.99,0,-0,0,0.01,,78,0,4,41,98,0.502,0.0,118,1.05,11.9,0.0,1,0.0,0.0,0.0,0,0,0,0,0,0,250,250,0,,,,,,,,,,,,,,,,
25883,0,,,,,,,,0.0,0.01,-2.98,0,-0,0,0.01,,78,0,4,41,98,0.502,0.0,118,1.05,11.7,0.0,1,0.0,0.0,0.0,0,0,0,0,0,0,250,250,0,,,,,,,,,,,,,,,,
25903,0,,,,,,,,0.01,0.0,-2.99,0,-0,0,0.01,,78,0,4,41,98,0.501,0.0,118,1.05,11.9,0.0,1,0.0,0.0,0.0,0,0,0,0,0,0,250,250,0,,,,,,,,,,,,,,,,
25923,0,,,,,,,,0.01,0.01,-2.99,0,-0,0,0.01,,78,0,4,41,98,0.501,0.0,118,1.05,12.0,0.0,1,0.0,0.0,0.0,0,0,0,0,0,0,250,250,0,,,,,,,,,,,,,,,,
25943,0,-0,1,37,40,33,33,4,0.0,0.0,-2.98,0,-0,0,0.01,0,78,0,4,41,98,0.501,0.0,120,1.05,12.0,0.0,1,0.0,0.0,0.0,0,0,0,0,0,0,250,250,0,0.0,0.0,0.0,0.0,0,0,0.0,0,0.0,-1,0.0,,0.0,0,0.0,0.4324
25963,0,,,,,,,,0.01,0.0,-2.97,0,-0,0,0.01,,78,0,4,41,98,0.501,0.0,120,1.05,11.9,0.0,1,0.0,0.0,0.0,0,0,0,0,0,0,250,250,0,,,,,,,,,,,,,,,,
25983,0,,,,,,,,0.01,0.0,-2.96,0,-0,0,0.01,,78,0,4,41,98,0.501,0.0,120,1.05,12.0,0.0,1,0.0,0.0,0.0,0,0,0,0,0,0,250,250,0,,,,,,,,,,,,,,,,
26003,0,,,,,,,,0.01,0.0,-2.99,0,-0,0,0.01,,78,0,4,41,98,0.501,0.0,121,1.05,12.1,0.0,1,0.0,0.0,0.0,0,0,0,0,0,0,250,250,0,,,,,,,,,,,,,,,,
26023,0,,,,,,,,0.0,0.01,-2.97,0,-0,0,0.01,,78,0,4,41,98,0.501,0.0,121,1.05,11.9,0.0,1,0.0,0.0,0.0,0,0,0,0,0,0,250,250,0,,,,,,,,,,,,,,,,
26043,0,0,1,36,40,33,33,2,0.0,0.01,-2.97,0,-0,0,0.01,0,78,0,4,41,98,0.501,0.0,121,1.05,12.0,0.0,1,0.0,0.0,0.0,0,0,0,0,0,0,250,250,0,0.0,0.0,0.0,0.0,0,0,0.0,0,0.0,-1,0.0,0.0,0.0,0,0.0,0.434
26063,0,,,,,,,,0.0,0.01,-2.98,0,-0,0,0.01,,78,0,4,41,98,0.501,0.0,121,1.05,12.2,0.0,1,0.0,0.0,0.0,0,0,0,0,0,0,250,250,0,,,,,,,,,,,,,,,,
26083,0,,,,,,,,0.01,0.0,-2.97,0,-0,0,0.01,,78,0,4,41,98,0.501,0.0,121,1.05,11.9,0.0,1,0.0,0.0,0.0,0,0,0,0,0,0,250,250,0,,,,,,,,,,,,,,,,
26103,0,,,,,,,,0.0,0.01,-2.97,0,-0,0,0.01,,78,0,4,41,98,0.501,0.0,121,1.05,12.1,0.0,1,0.0,0.0,0.0,0,0,0,0,0,0,250,250,0,,,,,,,,,,,,,,,,
26123,0,,,,,,,,0.0,0.01,-2.97,0,-0,0,0.01,,78,0,4,41,98,0.501,0.0,124,1.05,12.2,0.0,1,0.0,0.0,0.0,0,0,0,0,0,0,250,250,0,,,,,,,,,,,,,,,,
26143,0,-0,1,37,40,33,33,4,0.0,0.01,-2.97,0,-0,0,0.01,0,78,0,4,41,98,0.501,0.0,123,1.05,11.9,0.0,1,0.0,0.0,0.0,0,0,0,0,0,0,250,250,0,0.0,0.0,0.0,0.0,0,0,0.0,0,0.0,-1,0.0,,0.0,0,0.0,0.4357
26163,0,,,,,,,,-0.0,0.01,-2.98,0,0,0,0.01,,78,0,4,41,98,0.501,0.0,124,1.05,12.0,0.0,1,0.0,0.0,0.0,0,0,0,0,0,0,250,250,0,,,,,,,,,,,,,,,,
26183,0,,,,,,,,0.0,0.01,-2.97,0,0,0,0.01,,78,0,4,41,98,0.501,0.0,125,1.05,12.2,0.0,1,0.0,0.0,0.0,0,0,0,0,0,0,250,250,0,,,,,,,,,,,,,,,,
26203,0,,,,,,,,0.0,0.0,-2.98,0,-0,0,0.0,,78,0,4,41,98,0.501,0.0,124,1.05,12.0,0.0,1,0.0,0.0,0.0,0,0,0,0,0,0,250,250,0,,,,,,,,,,,,,,,,
26223,0,,,,,,,,0.0,0.0,-2.97,0,-0,0,0.0,,78,0,4,41,98,0.501,0.0,124,1.05,12.2,0.0,1,0.0,0.0,0.0,0,0,0,0,0,0,250,250,0,,,,,,,,,,,,,,,,
26243,0,-1,1,36,40,33,33,3,0.0,0.01,-2.96,0,-0,0,0.01,0,78,0,4,41,98,0.501,0.0,127,1.05,12.3,0.0,1,0.0,0.0,0.0,0,0,0,0,0,0,250,250,0,0.0,0.0,0.0,0.0,0,0,0.0,0,0.0,-1,0.0,0.0,0.0,0,0.0,0.4374
26263,0,,,,,,,,-0.0,0.01,-2.96,0,-0,0,0.01,,78,183,5,41,97,0.501,0.0,130,1.03,12.1,0.0,1,20.0,3.67,0.0,0,0,0,1,0,0,250,250,0,,,,,,,,,,,,,,,,
26283,0,,,,,,,,0.0,0.0,-2.94,0,-0,-0,0.0,,78,183,14,41,98,0.501,0.0,133,1.05,12.3,0.0,1,30.0,1.61,0.0,0,0,0,1,0,0,250,250,0,,,,,,,,,,,,,,,,
26303,0,,,,,,,,0.0,-0.0,-2.93,0,-0,-0,0.0,,78,964,26,41,98,0.501,0.0,135,1.05,12.4,0.0,1,30.0,3.64,0.0,0,0,0,1,0,0,250,250,0,,,,,,,,,,,,,,,,
26323,0,,,,,,,,-0.0,-0.0,-2.94,0,-0,-0,0.01,,78,1225,35,41,98,0.501,0.0,135,1.03,12.3,0.0,1,31.8,1.83,0.0,0,0,0,1,0,0,250,250,0,,,,,,,,,,,,,,,,
26343,0,0,1,37,40,33,33,4,-0.0,-0.01,-2.95,0,-0,-0,0.01,0,78,1397,40,41,97,0.5,0.0,137,1.02,12.0,0.0,1,31.7,7.38,0.0,0,0,0,1,0,0,250,250,0,0.0,0.0,0.0,0.0,0,0,0.0,0,0.0,-1,0.0,,0.0,0,0.0,0.439
26363,0,,,,,,,,-0.0,-0.01,-2.95,0,-0,-0,0.01,,78,1253,43,41,97,0.5,0.0,135,1.02,11.8,0.0,1,30.6,6.98,4.7,0,0,0,1,0,0,250,250,0,,,,,,,,,,,,,,,,
26383,0,,,,,,,,0.0,-0.0,-2.96,0,-0,-0,0.0,,78,1253,43,41,97,0.5,0.0,135,1.02,11.7,0.0,1,30.6,1.88,4.7,0,0,0,1,0,0,250,250,0,,,,,,,,,,,,,,,,
26403,0,,,,,,,,-0.0,-0.0,-2.97,0,-0,-0,0.0,,79,1085,43,41,97,0.5,0.0,133,1.02,11.5,0.0,1,29.2,6.43,4.7,0,0,0,1,0,0,250,250,0,,,,,,,,,,,,,,,,
26423,0,,,,,,,,-0.0,-0.0,-2.97,0,-0,-0,0.0,,79,861,43,41,97,0.5,0.0,132,1.07,11.7,0.0,1,28.6,6.17,4.7,0,0,0,1,0,0,250,250,0,,,,,,,,,,,,,,,,
26443,0,1,0,37,40,33,33,3,-0.0,-0.0,-2.94,0,-0,-0,0.0,0,79,861,38,41,97,0.5,0.0,132,1.13,11.7,0.0,1,28.6,6.17,4.7,0,0,0,1,0,0,250,250,0,0.0,0.0,0.0,0.0,0,0,0.0,0,0.0,-1,0.0,0.0,0.0,0,0.0,0.4407
26463,0,,,,,,,,-0.01,0.0,-2.95,0,-0,-0,0.01,,78,858,25,41,97,0.5,0.0,132,1.2,11.9,0.0,1,28.6,6.11,2.4,0,0,0,1,0,0,250,250,0,,,,,,,,,,,,,,,,
26483,0,,,,,,,,-0.0,0.0,-2.93,0,0,-0,0.0,,78,1337,10,41,97,0.5,0.0,141,1.27,12.2,0.0,1,31.2,7.11,2.4,0,0,0,1,0,0,250,250,0,,,,,,,,,,,,,,,,
26503,0,,,,,,,,-0.0,0.01,-2.9,0,0,-0,0.01,,78,1812,4,41,97,0.5,0.0,153,1.36,12.6,0.0,1,32.6,7.69,2.4,0,0,0,1,0,0,250,250,0,,,,,,,,,,,,,,,,
26523,0,,,,,,,,-0.01,0.02,-2.9,0,-0,-0,0.02,,78,2025,4,41,97,0.5,0.0,162,1.42,12.6,0.0,1,32.6,7.11,2.4,0,0,0,1,0,0,250,250,0,,,,,,,,,,,,,,,,
26543,0,-0,1,36,40,33,33,3,-0.01,0.01,-2.9,0,-0,-0,0.01,0,78,1916,4,41,96,0.5,0.0,167,1.48,12.4,0.0,1,9.6,7.05,2.4,0,0,0,1,0,0,250,250,0,0.0,0.0,0.0,0.0,0,0,0.0,0,0.0,-1,0.0,,0.0,0,0.0,0.4424
26563,0,,,,,,,,-0.0,0.01,-2.95,0,-0,-0,0.01,,78,2020,4,41,95,0.5,0.0,169,1.5,12.8,0.0,1,9.6,6.95,6.1,0,0,0,1,0,0,250,250,0,,,,,,,,,,,,,,,,
26583,0,,,,,,,,-0.01,0.01,-2.93,0,0,-0,0.02,,78,1953,4,41,95,0.5,0.0,175,1.59,12.8,0.0,1,29.8,6.95,6.1,0,0,0,1,0,0,250,250,0,,,,,,,,,,,,,,,,
26603,0,,,,,,,,-0.0,0.01,-2.92,0,-0,-0,0.01,,78,1867,4,41,95,0.5,0.0,179,1.65,12.7,0.0,1,9.4,5.73,6.1,0,0,0,1,0,0,250,250,0,,,,,,,,,,,,,,,,
26623,0,,,,,,,,0.0,0.0,-2.92,0,-0,-0,0.0,,78,1986,4,41,95,0.5,0.0,187,1.77,13.1,0.0,1,9.4,5.71,6.1,0,0,0,1,0,0,250,250,0,,,,,,,,,,,,,,,,
26643,0,0,2,37,40,33,33,4,-0.0,-0.0,-2.93,0,-0,-0,0.01,0,78,2023,4,41,95,0.5,0.0,189,1.9,13.1,0.0,1,29.8,5.71,6.1,0,0,0,1,0,0,250,250,0,0.0,0.0,0.0,0.0,0,0,0.0,0,0.0,-1,0.0,0.0,0.0,0,0.0,0.444
26663,0,,,,,,,,0.01,-0.0,-2.94,0,-0,0,0.01,,78,2249,4,41,93,0.5,0.0,192,1.99,12.7,0.0,1,27.1,5.65,5.4,0,0,0,1,0,0,250,250,0,,,,,,,,,,,,,,,,
26683,0,,,,,,,,0.0,-0.01,-2.99,0,-0,0,0.01,,78,2231,4,41,93,0.5,0.0,198,2.15,13.1,0.0,1,27.1,5.57,5.4,0,0,0,1,0,0,250,250,0,,,,,,,,,,,,,,,,
26703,0,,,,,,,,0.0,-0.01,-3.02,0,-0,0,0.01,,78,2148,4,41,92,0.5,0.0,202,2.28,12.8,0.0,1,25.7,5.48,5.4,0,0,0,1,0,0,250,250,0,,,,,,,,,,,,,,,,
26723,0,,,,,,,,0.01,-0.01,-3.01,0,-0,-0,0.01,,78,2240,7,41,92,0.5,0.0,202,2.49,13.1,0.0,1,25.7,5.48,5.4,0,0,0,1,0,0,250,250,0,,,,,,,,,,,,,,,,
26743,0,0,0,37,39,33,33,4,0.02,-0.02,-3.04,0,-1,0,0.03,0,78,2440,10,41,91,0.5,0.0,203,2.68,12.8,0.0,1,24.3,5.43,5.4,0,0,0,1,0,0,250,250,0,0.0,0.0,0.0,0.0,0,0,0.0,0,0.0,-1,0.0,,0.0,0,0.0,0.4457
26763,0,,,,,,,,0.0,-0.01,-3.02,0,-0,0,0.01,,78,2520,15,41,92,0.5,0.0,212,2.96,13.0,0.0,1,25.7,5.41,6.2,0,0,0,1,0,0,250,250,0,,,,,,,,,,,,,,,,
26783,0,,,,,,,,-0.0,-0.0,-3.01,0,0,-0,0.0,,78,2601,23,41,93,0.5,0.0,220,3.28,13.1,0.0,1,27.1,6.35,6.2,0,0,0,1,0,0,250,250,0,,,,,,,,,,,,,,,,
26803,0,,,,,,,,0.0,0.0,-3.01,0,0,0,0.01,,78,2938,30,41,94,0.5,0.0,241,3.67,13.1,0.0,1,28.0,6.67,6.2,0,0,0,1,0,0,250,250,0,,,,,,,,,,,,,,,,
26823,0,,,,,,,,0.01,0.0,-2.98,0,-0,-0,0.01,,78,3479,36,41,96,0.5,0.0,263,4.09,13.1,0.0,1,29.5,8.32,6.2,0,0,0,1,0,0,250,250,0,,,,,,,,,,,,,,,,
26843,0,0,1,37,40,33,32,4,0.02,-0.01,-3.06,0,0,-0,0.02,0,78,3757,40,41,97,0.5,0.0,297,4.65,13.1,0.0,1,32.5,8.51,6.2,0,0,0,1,0,0,250,250,0,0.0,0.0,0.0,0.0,0,0,0.0,0,0.0,-1,0.0,0.0,0.0,0,0.0,0.4474
26863,0,,,,,,,,0.03,-0.0,-2.93,0,-0,-0,0.03,,78,4316,42,41,97,0.5,0.0,338,4.92,13.1,0.0,1,37.3,8.06,15.2,0,0,0,1,0,0,250,250,0,,,,,,,,,,,,,,,,
26883,0,,,,,,,,0.05,-0.02,-2.68,0,-1,-2,0.05,,78,4865,43,41,97,0.5,0.0,390,4.82,13.1,0.0,1,41.7,7.51,15.2,0,0,0,1,0,0,250,250,0,,,,,,,,,,,,,,,,
26903,0,,,,,,,,0.02,-0.02,-2.79,0,-1,-2,0.03,,78,5369,43,41,96,0.5,0.0,450,4.84,13.1,0.0,1,41.2,8.14,15.2,0,0,0,1,0,0,250,250,0,,,,,,,,,,,,,,,,
26923,0,,,,,,,,0.11,-0.0,-2.56,0,-6,-5,0.11,,78,6097,43,41,96,0.5,0.0,546,4.8,12.9,0.0,1,42.4,9.41,15.2,0,0,0,1,0,0,250,250,0,,,,,,,,,,,,,,,,
26943,0,0,2,36,40,33,33,3,0.05,0.08,-2.68,-0,-7,-7,0.09,0,78,6916,41,41,95,0.5,0.0,627,4.81,13.1,0.0,1,49.1,7.51,15.2,0,0,0,1,0,0,250,250,0,0.0,0.0,0.0,0.0,0,0,0.0,0,0.0,-1,0.0,,0.0,0,0.0,0.449
26963,0,,,,,,,,0.01,0.01,-2.79,-0,-7,-7,0.02,,78,7464,30,41,92,0.5,0.0,663,4.79,13.1,0.0,1,43.5,7.59,24.4,0,0,0,1,0,0,250,250,0,,,,,,,,,,,,,,,,
26983,0,,,,,,,,-0.03,-0.0,-2.89,-0,-6,-6,0.03,,78,7832,16,41,86,0.5,0.0,663,4.84,13.0,0.0,1,37.7,3.74,24.4,0,0,0,1,0,0,250,250,0,,,,,,,,,,,,,,,,
27003,0,,,,,,,,-0.05,0.03,-2.98,0,-4,-3,0.06,,78,8057,4,41,77,0.5,0.0,668,4.81,13.0,0.0,1,38.9,3.24,24.4,0,0,0,1,0,0,250,250,0,,,,,,,,,,,,,,,,
27023,0,,,,,,,,-0.04,0.0,-2.81,0,-4,-4,0.04,,78,8180,4,41,66,0.5,0.0,677,4.85,13.0,0.0,1,40.1,4.72,24.4,0,0,0,1,0,0,250,250,0,,,,,,,,,,,,,,,,
27043,0,-1,2,36,39,33,33,4,-0.06,-0.01,-2.91,0,-2,-1,0.07,0,78,8019,4,41,59,0.5,0.0,671,4.82,13.1,0.0,1,37.6,1.4,24.4,0,0,0,1,0,0,250,250,0,0.0,0.0,0.0,0.0,0,0,0.0,0,0.0,-1,0.0,0.0,0.0,0,0.0,0.4507
27063,0,,,,,,,,-0.07,0.04,-2.92,0,-1,1,0.08,,78,7864,4,41,53,0.5,0.0,670,4.87,13.0,0.0,1,36.7,1.29,11.1,0,0,0,1,0,0,250,250,0,,,,,,,,,,,,,,,,
27083,0,,,,,,,,-0.02,0.02,-2.68,0,-1,-1,0.03,,78,7754,4,41,50,0.5,0.0,668,4.85,13.0,0.0,1,36.2,2.7,11.1,0,0,0,1,0,0,250,250,0,,,,,,,,,,,,,,,,
27103,0,,,,,,,,0.04,-0.08,-2.51,0,-3,-3,0.08,,78,7631,4,41,46,0.5,0.0,667,4.88,13.0,0.0,1,34.8,2.57,11.1,0,0,0,1,0,0,250,250,0,,,,,,,,,,,,,,,,
27123,0,,,,,,,,0.06,-0.15,-2.38,0,-4,-4,0.16,,78,7473,4,40,43,0.5,0.0,663,4.87,13.1,0.0,1,32.9,2.47,11.1,0,0,0,1,0,0,250,250,0,,,,,,,,,,,,,,,,
27143,0,-0,2,37,40,33,32,4,0.08,-0.19,-2.21,0,-6,-5,0.21,0,78,7312,4,40,42,0.5,0.0,658,4.9,13.0,0.0,1,32.2,2.39,11.1,0,0,0,1,0,0,250,250,0,0.0,0.0,0.0,0.0,0,0,0.0,0,0.0,-1,0.0,,0.0,0,0.0,0.4524
27163,0,,,,,,,,0.12,-0.21,-2.11,0,-6,-6,0.24,,78,7131,4,40,40,0.5,0.0,657,4.87,13.0,0.0,1,31.3,1.17,7.5,0,0,0,1,0,0,250,250,0,,,,,,,,,,,,,,,,
27183,0,,,,,,,,0.1,-0.1,-2.22,0,-4,-4,0.14,,78,6988,4,40,39,0.5,0.0,653,4.91,13.2,0.0,1,30.9,1.17,7.5,0,0,0,1,0,0,250,250,0,,,,,,,,,,,,,,,,
27203,0,,,,,,,,0.07,-0.22,-2.35,0,-4,-4,0.23,,78,6791,4,40,38,0.5,0.0,650,4.87,13.0,0.0,1,30.4,2.2,7.5,0,0,0,1,0,0,250,250,0,,,,,,,,,,,,,,,,
27223,0,,,,,,,,0.08,-0.08,-2.41,0,-3,-4,0.11,,78,6663,4,40,37,0.5,0.0,646,4.89,13.1,0.0,1,29.9,2.15,7.5,0,0,0,1,0,0,250,250,0,,,,,,,,,,,,,,,,
27243,0,0,1,37,39,33,33,4,0.09,-0.18,-2.26,0,-4,-3,0.2,0,78,6481,4,40,36,0.5,0.0,646,4.89,13.0,0.0,1,29.5,1.01,7.5,0,0,0,1,0,0,250,250,0,0.0,0.0,0.0,0.0,0,0,0.0,0,0.0,-1,0.0,0.0,0.0,0,0.0,0.454
27263,0,,,,,,,,0.07,-0.14,-2.23,0,-5,-5,0.16,,78,6260,4,40,36,0.5,0.0,641,4.9,13.0,0.0,1,29.4,1.01,6.1,0,0,0,1,0,0,250,250,0,,,,,,,,,,,,,,,,
27283,0,,,,,,,,-0.01,-0.08,-2.37,-0,-5,-6,0.08,,78,6087,4,40,35,0.5,0.0,629,4.87,13.1,0.0,1,29.0,2.06,6.1,0,0,0,1,0,0,250,250,0,,,,,,,,,,,,,,,,
27303,0,,,,,,,,-0.14,-0.02,-2.51,-0,-1,-4,0.14,,78,5892,4,40,35,0.5,0.0,618,4.88,13.0,0.0,1,28.6,2.09,6.1,0,0,0,1,0,0,250,250,0,,,,,,,,,,,,,,,,
27323,0,,,,,,,,-0.18,0.01,-2.63,-0,-1,-3,0.18,,78,5704,4,40,35,0.5,0.0,605,4.87,13.0,0.0,1,28.0,2.12,6.1,0,0,0,1,0,0,250,250,0,,,,,,,,,,,,,,,,
27343,0,-0,1,37,40,33,33,3,-0.08,-0.02,-2.41,-0,-5,-6,0.08,0,78,5560,4,40,35,0.5,0.0,588,4.93,13.1,0.0,1,27.6,2.15,6.1,0,0,0,1,0,0,250,250,0,0.0,0.0,0.0,0.0,0,0,0.0,0,0.0,-1,0.0,,0.0,0,0.0,0.4557
27363,0,,,,,,,,-0.1,-0.01,-2.21,0,-1,-3,0.1,,78,5367,4,40,35,0.5,0.0,569,4.92,13.2,0.0,1,27.1,2.2,5.5,0,0,0,1,0,0,250,250,0,,,,,,,,,,,,,,,,
27383,0,,,,,,,,-0.13,-0.08,-2.36,-0,-1,-3,0.15,,78,5230,5,40,36,0.5,0.0,557,4.9,13.1,0.0,1,27.0,1.21,5.5,0,0,0,1,0,0,250,250,0,,,,,,,,,,,,,,,,
27403,0,,,,,,,,-0.15,-0.06,-2.16,0,2,-2,0.17,,78,5041,5,40,36,0.5,0.0,550,4.9,13.1,0.0,1,26.5,2.34,5.5,0,0,0,1,0,0,250,250,0,,,,,,,,,,,,,,,,
27423,0,,,,,,,,-0.08,-0.15,-2.31,-0,-2,-4,0.17,,78,4894,7,40,37,0.5,0.0,517,4.89,13.3,0.0,1,25.5,2.32,5.5,0,0,0,1,0,0,250,250,0,,,,,,,,,,,,,,,,
27443,0,-0,2,36,40,33,33,4,-0.07,-0.16,-2.45,0,-1,-2,0.17,0,78,4749,9,40,37,0.5,0.0,498,4.9,13.2,0.0,1,24.0,1.26,5.5,0,0,0,1,0,0,250,250,0,0.0,0.0,0.0,0.0,0,0,0.0,0,0.0,-1,0.0,0.0,0.0,0,0.0,0.4574
27463,0,,,,,,,,-0.08,-0.15,-2.58,0,0,-0,0.16,,78,4631,10,40,39,0.5,0.0,481,4.91,13.1,0.0,1,23.1,1.34,5.1,0,0,0,1,0,0,250,250,0,,,,,,,,,,,,,,,,
27483,0,,,,,,,,-0.07,-0.15,-2.7,0,2,1,0.17,,78,4476,12,39,41,0.5,0.0,453,4.92,13.1,0.0,1,21.8,1.3,5.1,0,0,0,1,0,0,250,250,0,,,,,,,,,,,,,,,,
27503,0,,,,,,,,-0.07,-0.17,-2.8,0,2,2,0.19,,78,4342,12,39,43,0.5,0.0,455,4.91,13.2,0.0,1,20.7,1.27,5.1,0,0,0,1,0,0,250,250,0,,,,,,,,,,,,,,,,
27523,0,,,,,,,,-0.03,-0.19,-2.9,0,1,3,0.19,,78,4233,12,39,45,0.5,0.0,426,4.91,13.2,0.0,1,19.8,2.34,5.1,0,0,0,1,0,0,250,250,0,,,,,,,,,,,,,,,,
27543,0,0,1,37,39,33,33,3,0.03,-0.19,-2.99,0,-0,2,0.2,0,78,4110,12,39,46,0.5,0.0,419,4.91,13.1,0.0,1,18.6,2.29,5.1,0,0,0,1,0,0,250,250,0,0.0,0.0,0.0,0.0,0,0,0.0,0,0.0,-1,0.0,,0.0,0,0.0,0.459
27563,0,,,,,,,,0.03,-0.19,-2.74,0,-1,1,0.19,,78,4183,12,39,48,0.5,0.0,408,4.9,12.9,0.0,1,19.9,2.34,4.3,0,0,0,1,0,0,250,250,0,,,,,,,,,,,,,,,,
27583,0,,,,,,,,-0.03,-0.13,-2.63,0,1,2,0.14,,78,4177,12,39,50,0.5,0.0,412,4.9,13.1,0.0,1,20.4,1.23,4.3,0,0,0,1,0,0,250,250,0,,,,,,,,,,,,,,,,
27603,0,,,,,,,,-0.04,-0.12,-2.74,0,2,2,0.12,,78,4074,12,39,52,0.5,0.0,401,4.93,13.3,0.0,1,19.6,2.26,4.3,0,0,0,1,0,0,250,250,0,,,,,,,,,,,,,,,,
27623,0,,,,,,,,0.02,-0.12,-2.82,0,0,2,0.12,,78,4087,12,39,53,0.5,0.0,400,4.91,13.1,0.0,1,20.0,2.25,4.3,0,0,0,1,0,0,250,250,0,,,,,,,,,,,,,,,,
27643,0,-0,2,37,39,33,33,3,0.01,-0.11,-2.6,0,-0,1,0.11,0,78,4063,12,39,54,0.5,0.0,408,4.91,12.9,0.0,1,20.0,1.12,4.3,0,0,0,1,0,0,250,250,0,0.0,0.0,0.0,0.0,0,0,0.0,0,0.0,-1,0.0,0.0,0.0,0,0.0,0.4607
27663,0,,,,,,,,-0.03,-0.09,-2.67,0,1,2,0.09,,78,4028,12,39,56,0.5,0.0,394,4.9,13.2,0.0,1,20.0,1.16,4.2,0,0,0,1,0,0,250,250,0,,,,,,,,,,,,,,,,
27683,0,,,,,,,,0.0,-0.1,-2.78,0,0,1,0.1,,78,4066,12,39,58,0.5,0.0,402,4.9,13.1,0.0,1,21.0,2.31,4.2,0,0,0,1,0,0,250,250,0,,,,,,,,,,,,,,,,
27703,0,,,,,,,,0.0,-0.08,-2.66,0,-1,1,0.08,,78,4071,12,39,59,0.5,0.0,398,4.91,12.9,0.0,1,21.3,2.37,4.2,0,0,0,1,0,0,250,250,0,,,,,,,,,,,,,,,,
27723,0,,,,,,,,-0.04,-0.07,-2.54,0,0,1,0.08,,78,4105,12,39,60,0.5,0.0,401,4.94,13.1,0.0,1,21.9,2.42,4.2,0,0,0,1,0,0,250,250,0,,,,,,,,,,,,,,,,
27743,0,-1,2,37,39,33,33,4,-0.05,-0.06,-2.66,0,1,1,0.08,0,78,4198,12,39,61,0.5,0.0,401,4.91,13.3,0.0,1,23.4,2.49,4.2,0,0,0,1,0,0,250,250,0,0.0,0.0,0.0,0.0,0,0,0.0,0,0.0,-1,0.0,,0.0,0,0.0,0.4624
27763,0,,,,,,,,0.0,-0.1,-2.77,0,-0,2,0.1,,78,4322,12,39,61,0.5,0.0,425,4.91,13.2,0.0,1,25.1,2.53,4.9,0,0,0,1,0,0,250,250,0,,,,,,,,,,,,,,,,
27783,0,,,,,,,,0.08,-0.13,-2.87,0,-2,1,0.15,,78,4401,12,39,61,0.501,0.0,420,4.9,13.2,0.0,1,26.1,2.56,4.9,0,0,0,1,0,0,250,250,0,,,,,,,,,,,,,,,,
27803,0,,,,,,,,0.13,-0.15,-2.92,0,-4,0,0.2,,78,4464,12,39,61,0.501,0.0,433,4.92,13.2,0.0,1,26.9,2.59,4.9,0,0,0,1,0,0,250,250,0,,,,,,,,,,,,,,,,
27823,0,,,,,,,,0.19,-0.16,-2.93,0,-6,-1,0.25,,78,4511,12,39,61,0.501,0.0,446,4.91,13.2,0.0,1,27.5,2.59,4.9,0,0,0,1,0,0,250,250,0,,,,,,,,,,,,,,,,
27843,0,0,0,37,39,33,33,4,0.25,-0.18,-3.02,0,-8,-2,0.31,0,78,4604,12,39,62,0.501,0.0,446,4.88,13.3,0.0,1,29.0,2.67,4.9,0,0,0,1,0,0,250,250,0,0.0,0.0,0.0,0.0,0,0,0.0,0,0.0,-1,0.0,0.0,0.0,0,0.0,0.464
27863,0,,,,,,,,0.29,-0.22,-3.1,0,-9,-2,0.36,,78,4643,12,39,62,0.5,0.0,457,4.9,13.2,0.0,1,29.5,1.6,5.6,0,0,0,1,0,0,250,250,0,,,,,,,,,,,,,,,,
27883,0,,,,,,,,0.27,-0.21,-3.17,0,-8,-0,0.34,,78,4716,12,39,62,0.5,0.0,453,4.9,13.2,0.0,1,30.5,2.71,5.6,0,0,0,1,0,0,250,250,0,,,,,,,,,,,,,,,,
27903,0,,,,,,,,0.21,-0.18,-3.24,0,-4,2,0.27,,78,4766,12,39,62,0.5,0.0,477,4.9,13.0,0.0,1,31.3,1.66,5.6,0,0,0,1,0,0,250,250,0,,,,,,,,,,,,,,,,
27923,0,,,,,,,,0.15,-0.14,-2.97,0,-3,2,0.2,,78,4837,13,39,62,0.5,0.0,501,4.91,13.1,0.0,1,32.1,2.76,5.6,0,0,0,1,0,0,250,250,0,,,,,,,,,,,,,,,,
27943,0,0,1,37,39,33,33,4,0.19,-0.11,-2.72,0,-5,0,0.22,0,78,4910,13,39,62,0.5,0.0,490,4.92,13.2,0.0,1,33.1,2.79,5.6,0,0,0,1,0,0,250,250,0,0.0,0.0,0.0,0.0,0,0,0.0,0,0.0,-1,0.0,,0.0,0,0.0,0.4657
27963,0,,,,,,,,0.2,-0.16,-2.83,0,-6,-0,0.26,,78,4932,13,39,63,0.5,0.0,498,4.9,13.3,0.0,1,33.7,2.84,6.3,0,0,0,1,0,0,250,250,0,,,,,,,,,,,,,,,,
27983,0,,,,,,,,0.13,-0.12,-2.92,0,-2,2,0.17,,78,4953,13,39,63,0.5,0.0,507,4.91,13.0,0.0,1,33.9,2.85,6.3,0,0,0,1,0,0,250,250,0,,,,,,,,,,,,,,,,
28003,0,,,,,,,,0.14,-0.1,-2.68,0,-3,1,0.17,,78,4973,13,39,64,0.5,0.0,494,4.91,13.2,0.0,1,34.5,2.91,6.3,0,0,0,1,0,0,250,250,0,,,,,,,,,,,,,,,,
28023,0,,,,,,,,0.19,-0.13,-2.73,0,-6,-1,0.23,,78,5026,13,39,65,0.5,0.0,516,4.89,13.2,0.0,1,35.2,1.9,6.3,0,0,0,1,0,0,250,250,0,,,,,,,,,,,,,,,,
28043,0,0,0,37,39,33,32,4,0.11,-0.07,-2.83,0,-2,2,0.13,0,78,5002,13,39,65,0.5,0.0,523,4.87,13.0,0.0,1,35.2,1.91,6.3,0,0,0,1,0,0,250,250,0,0.0,0.0,0.0,0.0,0,0,0.0,0,0.0,-1,0.0,0.0,0.0,0,0.0,0.4674
