"Interval"|"ms"|0|0|1,"Utc"|"ms"|0|0|1,"FB_p"|"bar"|0|300|50,"Volant"|"F"|0.0|300.0|50,"xFR"|"mm"|0.0|5.0|50,"xRR"|"mm"|0.0|5.0|50,"xFL"|"mm"|0.0|5.0|50,"xRL"|"mm"|0.0|5.0|50,"AccelX"|"G"|-3.0|3.0|50,"AccelY"|"G"|-3.0|3.0|50,"AccelZ"|"G"|-3.0|3.0|50,"Yaw"|"Deg/Sec"|-120|120|50,"Pitch"|"Deg/Sec"|-120|120|50,"Roll"|"Deg/Sec"|-120|120|50,"Gsum"|"G"|0.0|3.0|50,"RPM"|""|0|14000|50,"TPS"|"%"|0|100|50,"WaterTemp"|"?C"|0|300|50,"AirTemp"|"?C"|-1000|1000|50,"MAP"|"KPa"|0|255|50,"Lambda"|""|0|1024|50,"WheelSpeed"|"MPH"|0.0|150.0|50,"OilPress"|"PSI"|0|150|50,"FuelPress"|"PSI"|0|150|50,"OilTemp"|"F"|0|300|50,"Battery"|"Volts"|0.0|20.0|50,"FuelCon"|"L/h"|-1000|1000|50,"Gear"|""|0|10|50,"Advance"|"Deg"|-360|360|50,"Injection"|"ms"|-1000|1000|50,"FuelCon"|"L/100km"|-1000|1000|50,"LC_But_Pres"|""|-1000|1000|50,"LC_Active"|""|-1000|1000|50,"RD_Speed"|""|-1000|1000|50,"RUD_Speed"|""|-1000|1000|50,"LD_Speed"|""|-1000|1000|50,"LUD_Speed"|""|-1000|1000|50,"Ana1"|"bar"|-1000.0|1000.0|50,"Latitude"|"Degrees"|-180.0|180.0|10,"Longitude"|"Degrees"|-180.0|180.0|10,"Speed"|"kph"|0.0|150.0|10,"Altitude"|"m"|0.0|4000.0|10,"LapCount"|""|0|0|10,"LapTime"|"Min"|0.0|0.0|10,"Sector"|""|0|0|10,"SectorTime"|"Min"|0.0|0.0|10,"ElapsedTime"|"Min"|0.0|0.0|10,"CurrentLap"|""|0|0|10,"Distance"|"km"|0.0|0.0|10,"SessionTime"|"Min"|0.0|0.0|10
146963,1563729399750,3,2.31,0.78,0.54,1.09,0.9,0.63,-0.16,0.97,0,1,-0,0.65,11453,77,76,42,75,1149,575.0,691,462,60,122.0,356,1,441,473,202,0,0,324,-8188,1010,577,882.05,,,,,,,,,,,,
146983,1563729399770,2,2.31,0.77,0.54,1.1,0.9,0.59,-0.12,1.04,0,0,0,0.6,11524,77,76,42,74,1137,578.0,701,469,60,121.0,356,1,440,468,202,0,0,324,30208,269,578,882.05,,,,,,,,,,,,
147003,1563729399790,-0,2.32,0.78,0.54,1.09,0.9,0.62,-0.09,1.0,1,-2,1,0.62,11631,77,76,42,74,1110,584.0,699,470,60,122.0,356,1,440,468,202,0,0,26,15649,17336,587,1115.64,,,,,,,,,,,,
147023,1563729399810,4,2.31,0.78,0.54,1.09,0.9,0.63,-0.12,1.03,1,-5,2,0.64,11711,77,76,42,74,1082,588.0,704,466,60,122.0,351,1,440,468,207,0,0,204,-12040,966,588,1115.64,,,,,,,,,,,,
147043,1563729399830,3,2.32,0.78,0.54,1.09,0.89,0.56,-0.14,0.95,1,-5,2,0.57,11822,77,76,42,74,1063,592.0,703,468,60,121.0,351,1,440,468,207,0,0,16229,-28648,-16046,591,648.46,45.748829,4.906674,49.15,189.9,0,0.0,-1,0.0,0.0,0,0.32,2.4507
147063,1563729399850,3,2.31,0.78,0.53,1.1,0.89,0.51,-0.18,0.97,1,-3,2,0.54,11897,77,76,42,74,1047,599.0,703,467,60,122.0,351,1,440,468,207,0,0,3939,-28648,-4876,599,882.05,,,,,,,,,,,,
147083,1563729399870,3,2.32,0.78,0.54,1.1,0.9,0.48,-0.21,1.06,0,-1,2,0.53,11950,77,76,42,74,1021,602.0,700,467,60,122.0,351,1,440,468,207,0,0,520,-3210,3,602,882.05,,,,,,,,,,,,
147103,1563729399894,0,2.3,0.78,0.54,1.1,0.89,0.51,-0.23,1.14,0,1,3,0.56,11996,77,76,42,74,991,607.0,700,467,60,122.0,351,1,440,468,207,0,0,1190,19621,24,607,882.05,,,,,,,,,,,,
147123,1563729399914,1,2.32,0.78,0.54,1.09,0.91,0.46,-0.24,1.22,0,1,3,0.51,12034,77,76,42,74,972,610.0,702,469,60,122.0,350,1,440,468,213,0,0,1214,-30139,479,610,882.05,,,,,,,,,,,,
147143,1563729399934,3,2.32,0.78,0.54,1.1,0.9,0.43,-0.27,1.3,0,1,3,0.5,12096,77,76,42,74,957,613.0,707,473,60,122.0,350,1,440,468,213,0,0,151,-28304,2024,613,882.05,45.74884,4.906676,50.57,189.9,0,0.0,-1,0.0,0.0,0,0.32,2.4524
147163,1563729399954,3,2.32,0.78,0.54,1.1,0.9,0.45,-0.25,1.32,-0,-1,4,0.51,12167,77,76,42,74,934,616.0,702,469,60,121.0,350,1,440,469,213,0,0,268,16529,2024,618,882.05,,,,,,,,,,,,
147183,1563729399974,2,2.3,0.78,0.54,1.1,0.89,0.45,-0.26,1.29,-0,-4,5,0.51,12230,77,76,42,75,909,619.0,700,468,60,122.0,350,1,440,470,213,0,0,268,17336,-10348,620,882.05,,,,,,,,,,,,
147203,1563729399994,2,2.3,0.78,0.54,1.1,0.9,0.48,-0.29,1.24,-0,-4,5,0.56,12295,77,76,42,74,890,628.0,703,468,60,123.0,350,1,440,471,213,0,0,73,506,-26380,626,1115.64,,,,,,,,,,,,
147223,1563729400008,0,2.32,0.78,0.54,1.1,0.9,0.47,-0.27,1.13,-0,-3,5,0.54,12368,77,76,42,74,879,630.0,708,470,60,121.0,349,1,440,472,220,0,0,359,20993,-2830,630,1349.23,,,,,,,,,,,,
147243,1563729400028,3,2.3,0.78,0.54,1.1,0.9,0.43,-0.22,1.12,-0,-2,4,0.49,12417,77,76,42,74,865,631.0,708,466,60,121.0,349,1,440,473,220,0,0,359,771,-10348,630,882.05,45.748856,4.906677,52.62,190.0,0,0.0,-1,0.0,0.0,0,0.32,2.4541
147263,1563729400048,3,2.31,0.78,0.54,1.1,0.9,0.42,-0.25,1.12,-0,-4,3,0.49,12491,77,76,42,74,850,633.0,708,461,60,122.0,349,1,440,474,220,0,0,359,-5120,31988,633,882.05,,,,,,,,,,,,
147283,1563729400068,-1,2.31,0.78,0.53,1.09,0.9,0.51,-0.37,1.05,-1,-4,3,0.63,12550,77,76,42,74,839,641.0,706,468,60,122.0,349,1,440,474,220,0,0,4533,-3584,-26380,638,1115.64,,,,,,,,,,,,
147303,1563729400092,1,2.31,0.78,0.54,1.1,0.9,0.51,-0.28,1.1,-1,-0,2,0.58,12626,77,76,42,74,834,643.0,711,470,60,121.0,349,1,440,475,220,0,0,1360,244,-2345,643,882.05,,,,,,,,,,,,
147323,1563729400112,1,2.31,0.78,0.54,1.1,0.91,0.47,-0.17,1.0,-0,2,1,0.5,12694,77,76,42,74,827,647.0,709,469,60,122.0,355,1,440,476,229,0,0,417,-8429,-26562,645,1115.64,,,,,,,,,,,,
147343,1563729400132,3,2.29,0.78,0.54,1.1,0.9,0.53,-0.19,1.01,-0,4,1,0.56,12711,77,76,42,74,818,648.0,717,468,60,121.0,355,1,440,477,229,0,0,145,479,-3578,646,882.05,45.748871,4.90668,54.68,190.0,0,0.0,-1,0.0,0.0,0,0.32,2.4557
147363,1563729400152,-0,2.29,0.78,0.54,1.09,0.9,0.48,-0.07,1.08,-0,4,1,0.49,12720,77,76,42,74,809,652.0,726,468,60,122.0,355,1,440,477,229,0,0,145,24583,-26892,651,882.05,,,,,,,,,,,,
147383,1563729400172,2,2.3,0.78,0.53,1.1,0.9,0.47,-0.14,1.07,-1,4,1,0.49,12833,77,76,42,74,804,656.0,719,473,60,121.0,355,1,440,478,229,0,0,272,31988,11576,658,882.05,,,,,,,,,,,,
147403,1563729400192,0,2.3,0.77,0.54,1.1,0.91,0.49,-0.16,1.09,-1,4,1,0.51,12922,77,76,42,74,797,661.0,714,473,60,122.0,355,1,440,479,229,0,0,155,-2345,24,659,1115.64,,,,,,,,,,,,
147423,1563729400212,4,2.3,0.78,0.54,1.1,0.89,0.42,-0.12,1.09,-1,2,1,0.43,12948,77,76,42,74,788,662.0,711,466,60,122.0,357,1,440,480,235,0,0,191,-10344,14342,662,882.05,,,,,,,,,,,,
147443,1563729400232,3,2.29,0.77,0.54,1.09,0.9,0.52,-0.2,1.13,-1,0,1,0.56,13029,77,76,42,74,780,665.0,717,465,60,121.0,357,1,440,480,235,0,0,1136,-2345,16599,665,1349.23,45.748882,4.906682,56.44,189.9,0,0.0,-1,0.0,0.0,0,0.32,2.4574
147463,1563729400252,1,2.3,0.78,0.54,1.09,0.9,0.51,-0.14,1.05,-1,-1,2,0.53,13084,78,76,42,74,776,669.0,714,468,60,122.0,357,1,440,480,235,0,0,165,31988,8010,665,1115.64,,,,,,,,,,,,
147483,1563729400272,4,2.3,0.77,0.54,1.09,0.9,0.53,-0.02,1.1,-1,1,2,0.53,13029,78,76,42,75,772,670.0,715,470,60,121.0,357,1,440,480,235,0,0,613,-388,24,670,1349.23,,,,,,,,,,,,
147503,1563729400295,3,2.3,0.77,0.54,1.1,0.9,0.5,-0.11,1.09,-1,-1,1,0.51,13130,78,76,42,74,770,675.0,726,473,60,121.0,357,1,440,480,235,0,0,704,-3038,24,670,882.05,,,,,,,,,,,,
147523,1563729400315,1,2.3,0.78,0.54,1.1,0.9,0.51,-0.1,1.1,-0,-1,1,0.52,13222,78,76,42,74,768,673.0,716,472,60,122.0,356,1,440,480,240,0,0,101,-26380,-30694,672,1349.23,,,,,,,,,,,,
147543,1563729400335,2,2.3,0.78,0.54,1.1,0.89,0.6,-0.19,1.08,-1,-4,1,0.63,13222,78,76,42,74,770,679.0,719,460,60,122.0,356,1,440,480,240,0,0,1356,-2345,6658,677,1115.64,45.748901,4.906685,59.49,190.0,0,0.0,-1,0.0,0.0,0,0.32,2.459
147563,1563729400355,1,2.29,0.78,0.54,1.09,0.9,0.55,-0.08,1.04,-1,-4,0,0.56,13307,78,76,42,74,771,682.0,716,463,60,121.0,356,1,440,480,240,0,0,162,-10344,204,677,1115.64,,,,,,,,,,,,
147583,1563729400375,5,2.3,0.78,0.54,1.09,0.9,0.59,0.06,1.03,-0,-2,2,0.59,13297,78,76,42,75,770,685.0,712,468,60,122.0,356,1,440,480,240,0,0,146,3543,-23490,681,882.05,,,,,,,,,,,,
147603,1563729400397,5,2.29,0.78,0.54,1.1,0.9,0.58,-0.03,1.05,-0,-0,1,0.58,13402,78,76,42,74,770,686.0,719,477,60,122.0,356,1,440,480,240,0,0,635,-10399,-2560,685,882.05,,,,,,,,,,,,
147623,1563729400417,-1,2.29,0.78,0.54,1.1,0.9,0.47,0.02,1.0,0,2,0,0.47,13345,78,76,42,74,767,686.0,719,475,60,125.0,361,1,440,487,247,0,0,284,16599,-13312,683,414.87,,,,,,,,,,,,
147643,1563729400437,0,2.3,0.78,0.54,1.1,0.9,0.61,-0.09,0.99,-0,1,0,0.61,12913,78,76,42,75,766,692.0,704,462,60,124.0,361,1,440,486,247,0,0,284,14342,-3888,685,414.87,45.748917,4.906688,61.69,190.1,0,0.0,-1,0.0,0.0,0,0.33,2.4607
147663,1563729400457,-2,2.3,0.77,0.54,1.09,0.9,0.52,0.12,0.95,1,2,-0,0.54,12609,78,76,42,75,763,692.0,703,465,60,124.0,361,1,440,481,247,0,0,70,11576,-12152,686,414.87,,,,,,,,,,,,
147683,1563729400477,-3,2.3,0.77,0.54,1.09,0.89,0.56,0.1,0.8,1,2,-1,0.57,12368,78,76,42,75,760,690.0,693,469,60,124.0,361,1,440,478,247,0,0,1036,-2830,11069,689,181.28,,,,,,,,,,,,
147703,1563729400503,-2,2.29,0.77,0.54,1.09,0.89,0.62,-0.03,0.67,0,2,-2,0.62,12065,79,76,42,76,759,688.0,693,466,60,122.0,361,1,440,480,247,0,0,133,-3584,11069,688,181.28,,,,,,,,,,,,
147723,1563729400523,1,2.29,0.77,0.54,1.1,0.9,0.6,-0.14,0.59,-0,-1,-0,0.62,11852,79,76,42,78,759,691.0,695,457,60,122.0,582,1,440,869,400,0,0,333,-2830,-23490,687,882.05,,,,,,,,,,,,
147743,1563729400543,-1,2.29,0.78,0.54,1.1,0.91,0.53,-0.05,0.57,-0,2,-1,0.53,10913,79,76,41,79,839,694.0,692,469,60,121.0,582,1,441,810,400,0,0,110,12333,-2830,692,1349.23,45.748932,4.906691,64.76,190.1,0,0.0,-1,0.0,0.0,0,0.33,2.4624
147763,1563729400563,2,2.28,0.78,0.54,1.1,0.9,0.44,-0.06,0.62,-0,2,-2,0.44,10521,79,76,41,80,917,702.0,680,471,60,121.0,582,1,430,734,400,0,0,1041,19188,-31066,692,1349.23,,,,,,,,,,,,
147783,1563729400583,2,2.3,0.78,0.54,1.1,0.9,0.45,-0.08,0.53,-0,3,-3,0.45,10806,79,76,41,79,998,701.0,684,463,60,122.0,582,1,438,638,400,0,0,130,24,-22796,700,882.05,,,,,,,,,,,,
147803,1563729400603,3,2.28,0.77,0.54,1.1,0.89,0.39,-0.04,0.67,-0,2,-3,0.39,10677,79,76,41,78,1079,706.0,686,466,60,122.0,582,1,435,549,400,0,0,1410,687,-2766,703,1115.64,,,,,,,,,,,,
147823,1563729400623,3,2.29,0.78,0.53,1.1,0.89,0.43,-0.06,0.76,-1,2,-3,0.43,10387,79,76,41,78,1197,712.0,682,469,60,123.0,274,1,423,492,194,0,0,248,204,-13312,707,1115.64,,,,,,,,,,,,
147843,1563729400643,1,2.3,0.77,0.54,1.09,0.89,0.34,0.0,0.82,-1,3,-3,0.34,10223,79,76,41,78,1315,714.0,688,470,60,123.0,274,1,411,492,194,0,0,248,204,-23308,712,882.05,45.748947,4.906693,66.04,190.2,0,0.0,-1,0.0,0.0,0,0.33,2.4641
147863,1563729400663,0,2.3,0.77,0.53,1.09,0.9,0.42,0.01,0.82,-1,3,-4,0.42,10257,79,76,41,78,1374,719.0,678,466,60,122.0,274,1,413,492,194,0,0,248,-3450,-2344,714,882.05,,,,,,,,,,,,
147883,1563729400683,0,2.3,0.77,0.53,1.09,0.9,0.46,-0.01,0.79,-1,-0,-2,0.46,10279,79,76,41,77,1412,722.0,683,469,60,122.0,274,1,415,485,194,0,0,46,-388,-10214,724,648.46,,,,,,,,,,,,
147903,1563729400705,1,2.3,0.77,0.53,1.09,0.9,0.55,-0.01,0.76,-1,0,-2,0.55,10393,79,76,41,77,1382,729.0,678,475,60,121.0,274,1,423,485,194,0,0,46,-2830,-2766,729,648.46,,,,,,,,,,,,
147923,1563729400725,-1,2.3,0.77,0.53,1.09,0.9,0.61,0.0,0.82,-1,1,-3,0.61,10416,79,76,41,77,1329,729.0,681,470,60,121.0,263,1,425,485,191,0,0,2440,-2314,6389,729,1115.64,,,,,,,,,,,,
147943,1563729400745,1,2.3,0.77,0.54,1.1,0.89,0.65,-0.07,0.91,-1,-1,-1,0.66,10498,79,76,42,77,1250,733.0,681,466,60,122.0,263,1,431,485,191,0,0,112,-22796,-10214,733,1115.64,45.748966,4.906696,68.41,190.2,0,0.0,-1,0.0,0.0,0,0.33,2.4657
147963,1563729400765,1,2.3,0.78,0.53,1.09,0.89,0.75,-0.1,0.96,-2,-1,-1,0.75,10539,79,76,41,77,1159,737.0,688,472,60,121.0,263,1,432,485,191,0,0,112,-3580,-10218,737,1115.64,,,,,,,,,,,,
147983,1563729400785,-0,2.31,0.77,0.54,1.1,0.9,0.79,-0.03,1.0,-1,-1,-1,0.79,10599,79,76,41,77,1083,743.0,685,472,60,121.0,263,1,433,485,191,0,0,47,-2314,-23308,740,648.46,,,,,,,,,,,,
148003,1563729400807,1,2.29,0.77,0.53,1.09,0.89,0.81,-0.05,1.0,-1,-1,-0,0.81,10617,79,76,41,77,1012,744.0,685,467,60,122.0,263,1,434,485,191,0,0,595,-31066,-10216,744,882.05,,,,,,,,,,,,
148023,1563729400827,1,2.3,0.77,0.54,1.1,0.9,0.81,-0.08,0.91,-1,0,0,0.81,10714,79,76,41,77,986,748.0,683,466,60,122.0,263,1,436,485,197,0,0,595,6790,-31066,748,648.46,,,,,,,,,,,,
148043,1563729400847,1,2.31,0.78,0.54,1.1,0.89,0.77,-0.01,0.87,-1,-2,1,0.77,10732,79,76,41,77,1006,750.0,691,473,60,121.0,263,1,437,485,197,0,0,595,-3344,-10218,747,882.05,45.748982,4.9067,70.51,190.2,0,0.0,-1,0.0,0.0,0,0.33,2.4674
148063,1563729400867,2,2.3,0.78,0.53,1.09,0.9,0.65,0.02,0.81,-1,-2,2,0.65,10782,79,76,41,77,1030,754.0,690,471,60,122.0,263,1,438,485,197,0,0,595,-2574,-2826,752,882.05,,,,,,,,,,,,
148083,1563729400887,-0,2.29,0.78,0.54,1.1,0.89,0.66,0.0,0.86,-1,-0,1,0.66,10726,79,76,41,77,1057,759.0,686,470,60,122.0,263,1,437,485,197,0,0,28,-22795,-3888,758,1115.64,,,,,,,,,,,,
148103,1563729400907,-1,2.31,0.78,0.53,1.09,0.9,0.71,0.06,0.86,-1,1,0,0.72,10775,79,76,41,77,1074,761.0,678,463,60,122.0,263,1,438,485,197,0,0,28,-10218,-13072,760,1115.64,,,,,,,,,,,,
148123,1563729400907,2,2.3,0.77,0.53,1.1,0.9,0.75,-0.03,0.93,-1,-0,-1,0.76,10831,79,76,41,77,1081,761.0,685,471,60,122.0,261,1,439,485,199,0,0,28,13016,16118,763,1115.64,,,,,,,,,,,,
148143,1563729400927,3,2.29,0.77,0.53,1.1,0.89,0.73,0.0,0.92,-1,-2,1,0.73,10882,78,76,41,77,1086,766.0,690,472,60,121.0,261,1,440,485,199,0,0,28,-2826,-2540,762,882.05,45.749001,4.906704,73.09,190.1,0,0.0,-1,0.0,0.0,0,0.34,2.469
148163,1563729400947,2,2.29,0.78,0.54,1.1,0.89,0.64,0.02,0.84,-1,-1,2,0.65,10971,78,76,41,77,1089,766.0,684,470,60,123.0,261,1,443,485,199,0,0,35,-2826,204,765,882.05,,,,,,,,,,,,
148183,1563729400967,-0,2.29,0.78,0.54,1.1,0.89,0.72,0.08,0.92,-1,0,1,0.72,11003,78,76,41,77,1089,769.0,685,467,60,122.0,261,1,444,485,199,0,0,35,-2344,1524,769,882.05,,,,,,,,,,,,
148203,1563729400987,2,2.29,0.78,0.54,1.1,0.9,0.65,0.05,0.9,-1,-0,1,0.65,11068,78,76,41,76,1085,772.0,685,464,60,121.0,261,1,444,485,199,0,0,1160,-23308,-4091,772,882.05,,,,,,,,,,,,
148223,1563729401005,-1,2.3,0.78,0.53,1.1,0.9,0.66,0.07,0.92,-1,-1,0,0.66,11127,79,76,41,76,1078,778.0,691,467,60,122.0,260,1,443,478,201,0,0,333,-2574,1524,776,1115.64,,,,,,,,,,,,
148243,1563729401025,1,2.3,0.78,0.53,1.09,0.89,0.65,0.01,1.03,-1,-0,0,0.65,11147,79,76,41,76,1070,780.0,693,468,60,122.0,260,1,443,478,201,0,0,1047,-10218,-2830,780,648.46,45.74902,4.906709,74.82,190.1,0,0.0,-1,0.0,0.0,0,0.34,2.4707
148263,1563729401045,1,2.3,0.78,0.54,1.09,0.9,0.62,0.06,0.93,-0,-1,0,0.62,11147,78,76,41,76,1062,784.0,694,467,60,122.0,260,1,443,478,201,0,0,3598,-2826,-2356,784,882.05,,,,,,,,,,,,
148283,1563729401065,2,2.28,0.78,0.53,1.1,0.9,0.66,0.02,1.04,-0,-3,1,0.66,11214,78,76,41,76,1057,785.0,701,472,60,122.0,260,1,443,485,201,0,0,3598,-2344,-13580,783,882.05,,,,,,,,,,,,
148303,1563729401085,3,2.3,0.78,0.53,1.1,0.89,0.61,0.08,0.91,-0,-3,1,0.62,11288,78,76,41,76,1051,791.0,693,468,60,122.0,260,1,442,478,201,0,0,709,-8148,-2830,787,882.05,,,,,,,,,,,,
148323,1563729401107,3,2.28,0.77,0.53,1.1,0.9,0.6,0.09,0.93,0,0,0,0.61,11322,78,76,41,76,1039,792.0,690,472,60,121.0,259,1,442,478,205,0,0,876,5344,-3344,792,882.05,,,,,,,,,,,,
148343,1563729401127,-1,2.3,0.78,0.54,1.1,0.9,0.63,0.04,0.85,0,2,-1,0.63,11336,78,76,41,76,1028,793.0,692,466,60,122.0,259,1,442,478,205,0,0,919,-2540,-2314,795,882.05,45.749039,4.906713,76.58,190.1,0,0.0,-1,0.0,0.0,0,0.34,2.4724
148363,1563729401147,2,2.3,0.77,0.54,1.1,0.9,0.65,0.0,0.89,0,0,-2,0.65,11377,78,76,41,76,1021,800.0,696,467,60,122.0,259,1,441,478,205,0,0,919,204,-3450,797,882.05,,,,,,,,,,,,
148383,1563729401167,-1,2.3,0.78,0.54,1.1,0.89,0.66,-0.01,0.86,0,0,-2,0.66,11419,78,76,41,76,1011,802.0,696,468,60,122.0,259,1,441,478,205,0,0,919,-13312,136,802,1115.64,,,,,,,,,,,,
148403,1563729401191,4,2.29,0.78,0.53,1.11,0.9,0.58,-0.05,0.84,-0,-2,-2,0.58,11510,78,76,41,76,991,805.0,697,471,60,122.0,259,1,440,478,205,0,0,41,-2560,-3344,802,882.05,,,,,,,,,,,,
148423,1563729401211,2,2.3,0.77,0.53,1.1,0.9,0.53,-0.11,0.93,-0,1,-2,0.54,11581,78,76,41,76,971,810.0,698,471,60,122.0,259,1,440,478,209,0,0,1092,-31068,-2311,810,648.46,,,,,,,,,,,,
148443,1563729401231,2,2.3,0.78,0.54,1.1,0.9,0.54,-0.12,0.82,0,1,-2,0.55,11617,78,76,41,76,958,812.0,698,472,60,122.0,259,1,440,478,209,0,0,1092,-388,-2766,809,1115.64,45.749062,4.906717,78.4,190.1,0,0.0,-1,0.0,0.0,0,0.34,2.4741
148463,1563729401251,0,2.31,0.78,0.53,1.1,0.9,0.52,-0.09,0.83,-0,1,-1,0.52,11609,78,76,41,75,944,813.0,698,472,60,122.0,259,1,440,473,209,0,0,66,31988,-2570,809,1115.64,,,,,,,,,,,,
148483,1563729401271,3,2.29,0.78,0.54,1.1,0.9,0.51,0.05,0.75,0,1,-0,0.51,11674,78,76,41,75,927,817.0,700,472,60,122.0,259,1,440,473,209,0,0,66,1524,-2311,817,882.05,,,,,,,,,,,,
148503,1563729401291,4,2.28,0.78,0.54,1.11,0.9,0.54,0.08,0.87,0,0,1,0.55,11718,78,76,41,75,909,821.0,696,475,60,122.0,259,1,440,473,209,0,0,66,-2358,-2830,821,882.05,,,,,,,,,,,,
148523,1563729401311,2,2.3,0.78,0.53,1.1,0.9,0.59,0.0,0.89,-0,0,1,0.59,11740,78,76,41,75,905,822.0,706,470,60,122.0,256,1,440,473,210,0,0,66,-2826,-2830,820,882.05,,,,,,,,,,,,
148543,1563729401331,2,2.3,0.78,0.53,1.11,0.9,0.65,-0.11,0.86,-0,-0,1,0.66,11762,77,76,41,75,900,828.0,692,470,60,122.0,256,1,440,473,210,0,0,66,-2830,-10508,825,882.05,45.749081,4.906722,79.67,190.2,0,0.0,-1,0.0,0.0,0,0.34,2.4757
148563,1563729401351,-1,2.31,0.78,0.54,1.1,0.9,0.67,-0.19,0.87,-0,-0,0,0.7,11785,77,76,41,75,887,828.0,692,470,60,122.0,256,1,440,473,210,0,0,27,-13068,-2826,827,1115.64,,,,,,,,,,,,
148583,1563729401371,-1,2.31,0.78,0.54,1.1,0.9,0.64,-0.16,0.78,-0,-0,-1,0.66,11852,77,76,41,74,873,831.0,703,471,60,122.0,256,1,440,468,210,0,0,470,-2314,-10508,828,882.05,,,,,,,,,,,,
148603,1563729401394,-1,2.3,0.78,0.54,1.1,0.9,0.65,-0.07,0.65,-1,0,-1,0.66,11889,76,76,41,74,863,835.0,698,467,60,122.0,256,1,440,468,210,0,0,203,6790,-1576,830,882.05,,,,,,,,,,,,
148623,1563729401414,4,2.29,0.77,0.54,1.11,0.9,0.61,-0.01,0.54,-0,1,-1,0.61,11942,76,76,41,74,854,839.0,692,468,60,122.0,253,1,440,468,212,0,0,979,-3344,-779,837,882.05,,,,,,,,,,,,
148643,1563729401434,4,2.3,0.78,0.54,1.11,0.91,0.49,0.09,0.49,-0,-1,-1,0.5,11988,76,76,41,74,842,842.0,702,473,60,122.0,253,1,440,468,212,0,0,979,-2830,-2820,837,882.05,45.7491,4.906726,81.72,190.2,0,0.0,-1,0.0,0.0,0,0.35,2.4774
148663,1563729401454,0,2.28,0.78,0.54,1.1,0.9,0.4,0.17,0.49,-0,-2,-0,0.44,12019,74,76,41,74,829,842.0,693,471,60,122.0,253,1,440,468,212,0,0,1113,-22795,-1578,838,882.05,,,,,,,,,,,,
148683,1563729401474,2,2.3,0.78,0.54,1.1,0.91,0.29,0.32,0.49,0,1,-1,0.43,12042,72,76,41,73,824,844.0,707,470,60,123.0,253,1,440,464,212,0,0,266,-10508,236,842,882.05,,,,,,,,,,,,
148703,1563729401494,3,2.3,0.78,0.53,1.11,0.9,0.23,0.4,0.41,1,3,-2,0.47,12050,69,76,41,71,820,849.0,693,470,60,122.0,253,1,440,454,212,0,0,1079,-31066,-30778,845,882.05,,,,,,,,,,,,
148723,1563729401514,2,2.3,0.78,0.54,1.1,0.9,0.2,0.47,0.38,1,5,-3,0.51,12034,65,76,41,69,814,855.0,694,467,60,122.0,238,1,440,444,203,0,0,531,-2311,-2570,850,882.05,,,,,,,,,,,,
148743,1563729401534,2,2.3,0.78,0.54,1.1,0.9,0.16,0.53,0.26,1,5,-3,0.56,11996,62,76,41,67,808,852.0,698,476,60,121.0,238,1,440,433,203,0,0,1317,-9995,966,849,882.05,45.749123,4.90673,82.44,190.2,0,0.0,-1,0.0,0.0,0,0.35,2.479
148763,1563729401554,4,2.3,0.79,0.54,1.11,0.9,0.17,0.58,0.19,1,6,-3,0.6,11957,58,76,41,64,804,855.0,697,470,60,122.0,238,1,440,415,203,0,0,1364,-2311,-5120,855,882.05,,,,,,,,,,,,
148783,1563729401574,3,2.3,0.78,0.54,1.1,0.91,0.15,0.62,0.26,1,4,-3,0.64,11973,52,76,41,62,801,856.0,700,474,60,121.0,238,1,440,402,203,0,0,3671,-2766,-780,855,882.05,,,,,,,,,,,,
148803,1563729401598,1,2.31,0.78,0.53,1.1,0.91,0.13,0.64,0.36,2,1,-2,0.66,11867,46,76,41,59,793,856.0,699,471,60,122.0,238,1,428,379,203,0,0,553,-2826,966,856,882.05,,,,,,,,,,,,
148823,1563729401618,2,2.29,0.78,0.54,1.11,0.91,0.11,0.67,0.46,2,2,-2,0.68,11755,43,76,41,56,784,855.0,701,467,60,122.0,188,1,411,351,161,0,0,1066,-2570,-2820,855,882.05,,,,,,,,,,,,
148843,1563729401638,1,2.3,0.78,0.54,1.11,0.9,0.21,0.61,0.54,3,4,-2,0.65,11545,41,76,41,55,775,858.0,698,472,60,122.0,188,1,405,339,161,0,0,209,-2766,-2820,858,648.46,45.749142,4.906734,84.83,190.2,0,0.0,-1,0.0,0.0,0,0.35,2.4807
148863,1563729401658,4,2.3,0.78,0.54,1.11,0.9,0.31,0.57,0.67,2,3,-3,0.64,11343,40,76,41,55,769,858.0,693,470,60,122.0,188,1,406,329,161,0,0,1079,-1582,1020,854,882.05,,,,,,,,,,,,
148883,1563729401678,0,2.3,0.79,0.54,1.1,0.9,0.35,0.64,0.69,2,2,-3,0.73,11114,40,76,41,54,763,857.0,688,467,60,122.0,188,1,400,329,161,0,0,1079,-2311,-2826,855,1115.64,,,,,,,,,,,,
148903,1563729401698,3,2.3,0.78,0.54,1.11,0.91,0.43,0.59,0.52,2,1,-3,0.73,10958,39,76,41,53,757,856.0,686,470,60,123.0,188,1,397,328,161,0,0,1079,-2826,-2574,855,882.05,,,,,,,,,,,,
148923,1563729401718,-0,2.3,0.77,0.54,1.12,0.9,0.45,0.56,0.4,2,-0,-2,0.72,10913,35,76,41,52,755,855.0,692,468,60,122.0,152,1,394,302,130,0,0,1079,13049,-2570,852,1115.64,,,,,,,,,,,,
148943,1563729401738,1,2.31,0.78,0.54,1.11,0.9,0.56,0.53,0.27,1,-1,0,0.78,11009,32,76,41,51,756,851.0,696,468,60,122.0,152,1,391,292,130,0,0,255,-10508,-31068,851,648.46,45.749165,4.906739,85.96,190.2,0,0.0,-1,0.0,0.0,0,0.35,2.4824
148963,1563729401758,3,2.3,0.79,0.54,1.11,0.91,0.61,0.33,0.41,1,-1,-0,0.69,11075,30,76,41,49,773,851.0,695,472,60,121.0,152,1,385,267,130,0,0,5373,13049,-2570,848,648.46,,,,,,,,,,,,
148983,1563729401778,-0,2.31,0.78,0.54,1.1,0.91,0.56,0.43,0.3,1,1,-0,0.71,11088,29,76,41,48,806,844.0,689,473,60,121.0,152,1,382,243,130,0,0,202,-3450,-30694,845,1115.64,,,,,,,,,,,,
149003,1563729401800,2,2.31,0.79,0.54,1.11,0.9,0.67,0.25,0.21,1,0,-1,0.72,11075,28,77,41,46,838,844.0,693,475,60,122.0,152,1,372,240,130,0,0,7728,-22795,8838,844,648.46,,,,,,,,,,,,
149023,1563729401820,1,2.32,0.78,0.54,1.11,0.91,0.77,0.3,0.39,0,-3,0,0.82,11107,27,76,41,45,869,841.0,688,470,60,122.0,120,1,365,238,101,0,0,7728,-2830,-1576,841,882.05,,,,,,,,,,,,
149043,1563729401840,1,2.31,0.78,0.54,1.1,0.91,0.75,0.32,0.21,1,-5,2,0.81,11114,25,76,41,44,903,843.0,692,470,60,122.0,120,1,357,235,101,0,0,17640,136,-2830,837,1115.64,45.749188,4.906743,86.09,190.2,0,0.0,-1,0.0,0.0,0,0.36,2.4841
149063,1563729401860,3,2.31,0.79,0.54,1.12,0.9,0.79,0.21,0.29,0,-5,3,0.82,11101,21,76,41,42,941,836.0,691,467,60,122.0,120,1,342,233,101,0,0,439,-31066,-30694,836,648.46,,,,,,,,,,,,
149083,1563729401880,1,2.31,0.79,0.54,1.11,0.9,0.8,0.29,0.31,-0,-3,2,0.85,11101,16,76,41,40,971,832.0,688,468,60,123.0,120,1,327,225,101,0,0,262,-2826,-22795,836,882.05,,,,,,,,,,,,
149103,1563729401902,2,2.32,0.78,0.54,1.11,0.91,0.83,0.24,0.2,0,-2,2,0.87,11140,15,76,41,38,977,830.0,690,463,60,122.0,120,1,317,222,101,0,0,514,1037,-22796,830,648.46,,,,,,,,,,,,
149123,1563729401922,3,2.31,0.78,0.53,1.1,0.9,0.85,0.25,0.36,1,-3,-0,0.89,11107,14,76,41,36,991,826.0,693,468,60,122.0,110,1,311,219,92,0,0,892,-31066,-13068,830,882.05,,,,,,,,,,,,
149143,1563729401942,1,2.31,0.79,0.54,1.11,0.91,0.82,0.24,0.22,1,-3,1,0.85,11114,13,77,41,35,1019,823.0,702,467,60,122.0,110,1,308,218,92,0,0,585,-22796,-2830,822,414.87,45.74921,4.906748,85.1,190.2,0,0.0,-1,0.0,0.0,0,0.36,2.4857
149163,1563729401962,3,2.3,0.79,0.54,1.11,0.91,0.91,0.15,0.31,0,-4,1,0.92,11140,13,77,40,34,1046,821.0,698,471,60,121.0,110,1,305,216,92,0,0,331,-2314,3462,821,648.46,,,,,,,,,,,,
149183,1563729401982,1,2.31,0.79,0.54,1.1,0.91,0.83,0.22,0.13,0,-2,2,0.86,11088,13,77,40,33,1069,822.0,691,467,60,123.0,110,1,302,215,92,0,0,1511,-13580,-2314,819,1115.64,,,,,,,,,,,,
149203,1563729402000,3,2.3,0.79,0.54,1.12,0.91,0.87,0.1,0.17,0,-3,3,0.88,11081,11,77,40,32,1091,816.0,689,473,60,123.0,110,1,300,214,92,0,0,507,-2918,-31066,816,1115.64,,,,,,,,,,,,
149223,1563729402020,4,2.3,0.79,0.54,1.11,0.91,0.9,0.14,0.25,-0,-1,2,0.91,11107,8,77,40,31,1113,818.0,686,472,60,123.0,109,1,295,212,89,0,0,183,-2830,-13580,812,882.05,,,,,,,,,,,,
149243,1563729402040,3,2.31,0.78,0.54,1.11,0.91,0.86,0.21,0.12,0,1,2,0.88,11081,7,77,40,30,1131,811.0,688,473,60,121.0,109,1,291,211,89,0,0,315,31988,31988,810,1349.23,45.749233,4.906752,83.73,190.2,0,0.0,-1,0.0,0.0,0,0.36,2.4874
149263,1563729402060,3,2.31,0.79,0.54,1.11,0.91,0.95,0.08,0.29,0,2,0,0.95,11009,7,77,40,29,1129,810.0,690,466,60,122.0,109,1,287,209,89,0,0,825,-23490,-3344,805,648.46,,,,,,,,,,,,
149283,1563729402080,4,2.31,0.79,0.54,1.11,0.91,0.93,0.2,0.27,0,0,1,0.96,11016,6,77,40,28,1124,807.0,696,466,60,123.0,109,1,282,208,89,0,0,1704,-13312,-3450,801,882.05,,,,,,,,,,,,
149303,1563729402102,4,2.31,0.78,0.54,1.11,0.91,0.92,0.13,0.2,1,-1,2,0.93,10984,6,77,40,28,1104,801.0,696,465,60,121.0,109,1,282,208,89,0,0,1844,-12152,-13072,801,648.46,,,,,,,,,,,,
149323,1563729402122,5,2.31,0.79,0.54,1.11,0.9,0.94,0.01,0.27,1,-1,2,0.94,10901,6,77,40,27,1084,796.0,698,468,60,122.0,106,1,278,206,85,0,0,1711,-1566,-2830,795,648.46,,,,,,,,,,,,
149343,1563729402142,6,2.31,0.79,0.54,1.11,0.91,1.0,0.01,0.43,0,-0,1,1.0,10882,6,77,40,27,1065,799.0,691,471,60,122.0,106,1,278,206,85,0,0,1281,-2540,-13312,799,882.05,45.749252,4.906756,82.36,190.0,0,0.0,-1,0.0,0.0,0,0.36,2.489
149363,1563729402162,5,2.31,0.78,0.54,1.11,0.91,0.93,0.16,0.33,1,0,1,0.95,10825,6,77,40,27,1046,795.0,689,475,60,122.0,106,1,278,206,85,0,0,7583,-8148,-13072,789,1115.64,,,,,,,,,,,,
149383,1563729402182,8,2.29,0.79,0.54,1.11,0.89,0.92,0.11,0.21,1,-0,1,0.93,10744,6,77,40,27,1018,790.0,682,468,60,122.0,106,1,278,206,85,0,0,530,-10216,-10216,788,1115.64,,,,,,,,,,,,
149403,1563729402206,8,2.3,0.79,0.54,1.11,0.91,0.93,0.03,0.08,1,1,1,0.93,10732,6,77,40,27,990,787.0,685,470,60,122.0,106,1,278,206,85,0,0,750,6389,-2826,786,648.46,,,,,,,,,,,,
149423,1563729402226,9,2.29,0.79,0.54,1.12,0.91,1.0,-0.04,0.1,1,-1,2,1.0,10659,6,77,40,26,980,781.0,681,467,60,122.0,106,1,274,206,83,0,0,1998,-22795,-2540,780,648.46,,,,,,,,,,,,
149443,1563729402246,10,2.29,0.78,0.54,1.12,0.9,1.08,-0.15,0.19,0,-2,2,1.09,10671,6,77,40,27,970,781.0,688,467,60,122.0,106,1,278,206,83,0,0,1397,-31066,-2426,774,648.46,45.749271,4.90676,81.51,190.0,0,0.0,-1,0.0,0.0,0,0.36,2.4907
149463,1563729402266,11,2.29,0.78,0.54,1.12,0.9,1.12,-0.13,0.29,-0,1,1,1.13,10581,6,77,40,27,956,776.0,685,467,60,123.0,106,1,278,206,83,0,0,712,-2830,-10218,772,648.46,,,,,,,,,,,,
149483,1563729402286,13,2.28,0.78,0.54,1.11,0.9,1.12,-0.1,0.42,-0,0,0,1.12,10563,6,77,40,27,941,772.0,686,467,60,123.0,106,1,278,206,83,0,0,1055,-2570,-2570,761,882.05,,,,,,,,,,,,
149503,1563729402306,13,2.29,0.78,0.53,1.11,0.91,1.05,-0.13,0.52,0,-2,-1,1.06,10457,6,77,40,27,935,769.0,685,473,60,122.0,106,1,278,205,83,0,0,324,6389,-2344,770,882.05,,,,,,,,,,,,
149523,1563729402307,14,2.29,0.79,0.53,1.11,0.91,1.05,-0.15,0.6,-0,2,-2,1.06,10428,6,77,40,27,931,770.0,688,463,60,122.0,104,1,278,204,80,0,0,6570,-2570,-10212,756,648.46,,,,,,,,,,,,
149543,1563729402327,13,2.3,0.79,0.54,1.11,0.91,1.15,-0.2,0.58,-1,1,-4,1.17,10347,6,77,40,27,923,755.0,687,470,60,121.0,104,1,278,200,80,0,0,2660,-22795,-2344,755,648.46,45.749294,4.906765,79.72,189.9,0,0.0,-1,0.0,0.0,0,0.37,2.4924
149563,1563729402347,13,2.29,0.78,0.54,1.11,0.9,1.14,-0.18,0.69,-1,-4,-2,1.16,10307,6,77,40,27,915,755.0,682,468,60,123.0,104,1,278,200,80,0,0,231,-22795,-2830,752,648.46,,,,,,,,,,,,
149583,1563729402367,13,2.29,0.79,0.54,1.1,0.91,1.02,-0.05,0.52,-1,2,-2,1.02,10179,6,77,40,27,911,751.0,677,471,60,123.0,104,1,278,198,80,0,0,287,-3344,-10218,747,648.46,,,,,,,,,,,,
149603,1563729402391,12,2.29,0.78,0.53,1.11,0.9,1.02,0.02,0.29,-1,3,-4,1.02,10190,6,77,40,27,907,742.0,678,473,60,123.0,104,1,278,195,80,0,0,139,-13068,6790,739,882.05,,,,,,,,,,,,
149623,1563729402411,15,2.29,0.79,0.53,1.11,0.9,1.12,0.06,0.3,-1,1,-1,1.12,10118,6,77,40,27,905,745.0,680,473,60,122.0,100,1,278,194,74,0,0,310,6790,-31066,739,882.05,,,,,,,,,,,,
149643,1563729402431,15,2.28,0.78,0.54,1.11,0.9,1.08,0.04,0.46,-1,2,-2,1.09,9968,6,77,40,27,904,738.0,679,471,60,123.0,100,1,278,190,74,0,0,310,-3580,-2314,738,648.46,45.749313,4.906769,78.13,189.9,0,0.0,-1,0.0,0.0,0,0.37,2.4941
149663,1563729402451,13,2.3,0.78,0.54,1.1,0.9,0.94,0.09,0.53,-1,2,-2,0.95,9915,6,77,40,27,905,734.0,676,468,60,123.0,100,1,278,190,74,0,0,310,-31066,-2314,729,1115.64,,,,,,,,,,,,
149683,1563729402471,14,2.29,0.78,0.54,1.1,0.89,1.05,0.16,0.35,-1,2,-3,1.06,9904,6,77,40,27,906,734.0,677,470,60,123.0,100,1,278,190,74,0,0,49,-2314,-3344,727,882.05,,,,,,,,,,,,
149703,1563729402491,15,2.29,0.78,0.53,1.1,0.9,1.03,0.2,0.46,-1,0,-2,1.05,9811,6,77,40,27,910,729.0,671,474,60,122.0,100,1,278,189,74,0,0,157,-4091,-31068,724,648.46,,,,,,,,,,,,
149723,1563729402511,16,2.3,0.78,0.53,1.11,0.89,1.08,0.23,0.44,-1,1,-3,1.1,9780,6,77,40,27,915,727.0,669,473,60,123.0,97,1,278,189,70,0,0,13524,-2918,-13580,713,882.05,,,,,,,,,,,,
149743,1563729402531,15,2.3,0.78,0.53,1.1,0.89,1.1,0.18,0.39,-1,-2,-4,1.12,9765,6,77,40,26,919,717.0,676,467,60,122.0,97,1,274,187,70,0,0,609,-13072,31988,713,414.87,45.749332,4.906774,76.14,189.7,0,0.0,-1,0.0,0.0,0,0.37,2.4957
149763,1563729402551,18,2.3,0.78,0.53,1.1,0.9,1.12,0.15,0.35,-1,-1,-2,1.13,9709,6,77,40,26,922,716.0,671,469,60,122.0,97,1,274,187,70,0,0,609,-2560,-3888,706,882.05,,,,,,,,,,,,
149783,1563729402571,14,2.31,0.78,0.53,1.11,0.89,1.15,0.11,0.31,-1,-1,-3,1.15,9620,6,77,40,26,929,709.0,662,476,60,122.0,97,1,274,186,70,0,0,56,-12152,15647,703,414.87,,,,,,,,,,,,
149803,1563729402597,15,2.31,0.78,0.54,1.1,0.9,1.14,0.04,0.25,-1,-2,-2,1.14,9522,6,77,40,26,939,706.0,670,468,60,122.0,97,1,274,186,70,0,0,428,19188,11069,698,648.46,,,,,,,,,,,,
149823,1563729402617,17,2.32,0.77,0.54,1.1,0.9,1.11,-0.01,0.26,-1,-3,-3,1.11,9469,6,77,40,26,947,699.0,669,473,60,123.0,96,1,274,186,67,0,0,799,-3584,-10448,689,882.05,,,,,,,,,,,,
149843,1563729402637,15,2.32,0.78,0.53,1.11,0.89,1.1,0.04,0.19,-0,-3,-3,1.1,9389,6,77,40,26,954,695.0,673,472,60,122.0,96,1,274,186,67,0,0,1250,-10448,6208,694,414.87,45.749348,4.906778,74.49,189.6,0,0.0,-1,0.0,0.0,0,0.37,2.4974
149863,1563729402657,17,2.31,0.78,0.53,1.11,0.89,1.13,-0.04,0.13,-0,-2,-2,1.13,9351,6,77,40,25,967,690.0,671,472,60,122.0,96,1,270,185,67,0,0,736,-2830,-26562,680,648.46,,,,,,,,,,,,
149883,1563729402677,17,2.31,0.78,0.53,1.1,0.9,1.22,-0.08,0.13,-0,-2,-3,1.22,9286,6,77,40,25,985,681.0,670,468,60,123.0,96,1,270,185,67,0,0,839,-26562,24845,681,414.87,,,,,,,,,,,,
149903,1563729402699,18,2.31,0.78,0.53,1.1,0.9,1.29,-0.05,0.18,-0,-4,-1,1.29,9213,6,77,40,25,1001,681.0,666,473,60,122.0,96,1,270,185,67,0,0,436,-26562,31988,678,882.05,,,,,,,,,,,,
149923,1563729402719,17,2.31,0.78,0.54,1.11,0.9,1.21,-0.04,0.16,-0,-3,-2,1.21,9164,6,77,40,25,1013,675.0,665,462,60,123.0,94,1,270,185,64,0,0,757,-2345,-26562,672,882.05,,,,,,,,,,,,
149943,1563729402739,18,2.3,0.78,0.54,1.11,0.89,1.17,0.02,0.21,-0,-3,-0,1.17,9088,6,77,40,25,1033,672.0,661,472,60,122.0,94,1,270,185,64,0,0,199,8958,-2830,667,882.05,45.749367,4.906782,72.47,189.5,0,0.0,-1,0.0,0.0,0,0.38,2.499
149963,1563729402759,19,2.3,0.78,0.54,1.11,0.89,1.09,0.07,0.11,-0,-2,-2,1.09,9049,6,77,41,25,1062,667.0,662,475,60,123.0,94,1,270,185,64,0,0,180,1549,-2345,663,882.05,,,,,,,,,,,,
149983,1563729402779,17,2.31,0.78,0.53,1.1,0.89,1.04,0.13,0.09,0,-3,-1,1.05,8949,6,77,41,25,1089,663.0,660,470,60,123.0,94,1,270,185,64,0,0,706,-27404,-388,659,648.46,,,,,,,,,,,,
150003,1563729402805,17,2.3,0.77,0.53,1.11,0.9,1.01,0.14,0.0,0,-2,-3,1.02,8907,6,77,41,25,1106,654.0,658,473,60,123.0,94,1,270,185,64,0,0,385,-3488,-3038,654,882.05,,,,,,,,,,,,
150023,1563729402825,18,2.3,0.78,0.53,1.11,0.89,1.04,0.14,-0.0,0,-1,-1,1.05,8865,6,77,41,25,1129,652.0,657,467,60,124.0,94,1,270,185,62,0,0,1188,24583,-2345,652,882.05,,,,,,,,,,,,
150043,1563729402845,18,2.31,0.79,0.53,1.11,0.9,1.09,0.09,0.13,-1,-2,-1,1.09,8836,6,77,41,25,1166,650.0,660,466,60,123.0,94,1,270,185,62,0,0,386,-6006,-2836,644,882.05,45.749382,4.906786,70.04,189.4,0,0.0,-1,0.0,0.0,0,0.38,2.5007
150063,1563729402865,17,2.32,0.78,0.53,1.11,0.9,1.15,0.05,0.22,-1,-0,0,1.15,8753,6,77,41,25,1200,641.0,653,471,60,124.0,94,1,270,185,62,0,0,1687,-3584,-2830,640,648.46,,,,,,,,,,,,
150083,1563729402885,16,2.31,0.78,0.54,1.11,0.89,1.16,-0.0,0.19,-0,-0,-2,1.16,8672,6,77,41,26,1221,640.0,663,464,60,122.0,94,1,274,185,62,0,0,845,-2580,-5120,634,181.28,,,,,,,,,,,,
150103,1563729402908,19,2.32,0.79,0.53,1.1,0.89,1.17,-0.02,0.13,-0,-1,-1,1.17,8608,6,77,41,26,1244,632.0,654,470,60,123.0,94,1,274,185,62,0,0,105,-14655,6208,632,882.05,,,,,,,,,,,,
150123,1563729402928,18,2.31,0.78,0.52,1.11,0.9,1.2,-0.04,0.22,-0,-2,-2,1.2,8518,6,77,41,26,1273,629.0,653,471,60,122.0,95,1,274,185,60,0,0,1645,506,-4876,626,882.05,,,,,,,,,,,,
150143,1563729402948,16,2.32,0.78,0.53,1.11,0.9,1.19,-0.07,0.24,0,-2,0,1.19,8457,6,77,41,27,1303,623.0,665,470,60,123.0,95,1,278,182,60,0,0,258,3395,17336,622,414.87,45.749401,4.906789,67.71,189.3,0,0.0,-1,0.0,0.0,0,0.38,2.5024
150163,1563729402968,19,2.31,0.78,0.53,1.11,0.9,1.17,-0.07,0.3,0,-3,1,1.17,8370,6,77,41,27,1312,617.0,658,468,60,123.0,95,1,277,179,60,0,0,72,3403,30721,617,882.05,,,,,,,,,,,,
150183,1563729402988,17,2.31,0.79,0.54,1.11,0.91,1.23,-0.08,0.27,-0,-2,-0,1.23,8340,6,77,41,27,1316,613.0,649,470,60,123.0,95,1,277,176,60,0,0,123,17740,17740,611,648.46,,,,,,,,,,,,
150203,1563729403008,19,2.3,0.78,0.54,1.11,0.9,1.19,-0.13,0.27,-0,-1,0,1.2,8281,6,77,41,28,1296,611.0,646,467,60,123.0,95,1,280,173,60,0,0,361,-30139,16529,611,882.05,,,,,,,,,,,,
150223,1563729403005,16,2.32,0.78,0.54,1.11,0.91,1.28,-0.12,0.29,-0,-1,-1,1.28,8198,6,77,41,28,1276,605.0,652,468,60,124.0,87,1,279,169,53,0,0,1971,-3820,-23055,603,648.46,,,,,,,,,,,,
150243,1563729403025,19,2.32,0.78,0.54,1.11,0.91,1.2,-0.1,0.27,-0,-4,1,1.21,8106,6,77,41,28,1247,603.0,657,470,60,121.0,87,1,279,165,53,0,0,732,-3210,3472,603,882.05,45.749416,4.906793,65.3,189.2,0,0.0,-1,0.0,0.0,0,0.38,2.504
150263,1563729403045,15,2.32,0.79,0.53,1.11,0.9,1.2,-0.16,0.35,0,-3,2,1.21,8061,6,77,41,29,1219,597.0,651,467,60,121.0,87,1,282,164,53,0,0,732,23619,-3210,596,414.87,,,,,,,,,,,,
150283,1563729403065,18,2.32,0.78,0.53,1.12,0.9,1.26,-0.15,0.29,0,-4,-0,1.26,7995,6,77,41,29,1178,594.0,642,472,60,124.0,87,1,281,161,53,0,0,732,-12040,-13043,590,882.05,,,,,,,,,,,,
150303,1563729403085,18,2.32,0.78,0.53,1.12,0.9,1.16,-0.1,0.16,1,-2,1,1.16,7961,6,77,41,29,1138,585.0,649,467,60,122.0,87,1,281,161,53,0,0,732,-25872,-28648,585,1115.64,,,,,,,,,,,,
150323,1563729403107,14,2.32,0.79,0.53,1.12,0.9,1.23,-0.14,0.19,1,-1,3,1.24,7955,6,77,41,29,1125,583.0,644,467,60,124.0,82,1,281,161,48,0,0,732,15649,10432,582,414.87,,,,,,,,,,,,
150343,1563729403127,15,2.31,0.78,0.54,1.12,0.91,1.29,-0.11,0.19,1,-1,2,1.29,7878,6,77,41,29,1113,580.0,640,467,60,124.0,82,1,280,160,48,0,0,732,30208,-25872,578,648.46,45.749435,4.906796,62.78,189.1,0,0.0,-1,0.0,0.0,0,0.38,2.5057
150363,1563729403147,17,2.3,0.79,0.54,1.12,0.91,1.2,-0.08,0.16,1,-2,1,1.2,7874,6,77,41,29,1104,572.0,647,468,60,123.0,82,1,280,161,48,0,0,693,774,243,569,882.05,,,,,,,,,,,,
150383,1563729403167,14,2.31,0.78,0.54,1.12,0.9,1.13,-0.08,0.07,1,1,2,1.13,7799,6,77,41,28,1096,567.0,643,469,60,122.0,82,1,276,160,48,0,0,120,-2934,259,567,414.87,,,,,,,,,,,,
150403,1563729403191,13,2.3,0.79,0.54,1.12,0.9,1.13,-0.16,0.13,1,0,-0,1.14,7741,6,77,41,27,1096,566.0,647,471,60,122.0,82,1,273,160,48,0,0,1320,-30159,-29984,565,414.87,,,,,,,,,,,,
150423,1563729403211,12,2.3,0.79,0.54,1.12,0.9,1.22,-0.22,0.12,-0,-0,-0,1.24,7712,6,77,41,27,1100,564.0,642,467,60,123.0,81,1,273,158,46,0,0,161,12552,2211,558,414.87,,,,,,,,,,,,
150443,1563729403231,13,2.3,0.78,0.54,1.11,0.91,1.3,-0.24,0.2,-1,-2,0,1.32,7643,6,77,41,27,1092,561.0,644,469,60,123.0,81,1,272,158,46,0,0,1001,-18032,6273,555,181.28,45.749447,4.906799,59.51,189.1,0,0.0,-1,0.0,0.0,0,0.38,2.5074
150463,1563729403251,12,2.29,0.79,0.54,1.12,0.91,1.36,-0.16,0.27,-1,-2,1,1.37,7591,6,77,41,27,1082,557.0,636,472,60,124.0,81,1,272,158,46,0,0,165,2216,2216,553,648.46,,,,,,,,,,,,
150483,1563729403271,11,2.3,0.78,0.54,1.1,0.91,1.37,-0.09,0.25,-1,-2,1,1.37,7548,6,77,42,27,1070,554.0,633,463,60,123.0,81,1,272,158,46,0,0,267,2524,-9072,550,648.46,,,,,,,,,,,,
150503,1563729403291,12,2.3,0.79,0.54,1.12,0.9,1.38,-0.0,0.16,-1,-4,-1,1.38,7527,6,77,42,27,1057,545.0,642,472,60,124.0,81,1,272,158,46,0,0,227,-506,-22263,549,648.46,,,,,,,,,,,,
150523,1563729403310,12,2.29,0.79,0.54,1.12,0.9,1.38,0.07,0.14,-1,-3,-1,1.38,7467,6,77,42,27,1031,544.0,636,467,60,123.0,81,1,271,158,44,0,0,126,-506,-28648,540,648.46,,,,,,,,,,,,
150543,1563729403330,11,2.3,0.78,0.54,1.11,0.9,1.39,0.14,0.13,-1,-3,-1,1.4,7458,6,77,42,27,1001,543.0,640,467,60,124.0,81,1,271,158,44,0,0,126,1779,-22519,537,648.46,45.749462,4.906803,59.03,189.0,0,0.0,-1,0.0,0.0,0,0.39,2.509
150563,1563729403350,11,2.29,0.78,0.54,1.12,0.9,1.45,0.17,0.17,-1,-4,-2,1.46,7396,5,77,42,27,980,541.0,632,465,60,123.0,81,1,270,158,44,0,0,930,-2336,1779,538,648.46,,,,,,,,,,,,
150583,1563729403370,10,2.29,0.79,0.54,1.11,0.9,1.5,0.17,0.28,-2,-6,-2,1.51,7361,6,77,42,27,963,539.0,637,467,60,123.0,81,1,270,158,44,0,0,123,-32248,-3082,528,648.46,,,,,,,,,,,,
150603,1563729403390,10,2.29,0.79,0.54,1.12,0.9,1.56,0.14,0.32,-2,-7,-3,1.56,7309,5,77,42,27,945,529.0,638,471,60,122.0,81,1,270,158,44,0,0,162,-32248,-2934,527,414.87,,,,,,,,,,,,
150623,1563729403410,11,2.29,0.78,0.54,1.11,0.89,1.6,0.09,0.46,-2,-10,-2,1.61,7287,6,77,42,27,926,526.0,638,467,60,122.0,82,1,270,158,43,0,0,13412,-32248,-30064,522,414.87,,,,,,,,,,,,
150643,1563729403430,12,2.31,0.78,0.53,1.11,0.9,1.57,0.0,0.46,-2,-9,-2,1.57,7208,6,77,42,28,915,525.0,642,470,60,123.0,82,1,274,160,43,0,0,731,-32248,2088,522,882.05,45.749477,4.906806,55.11,189.0,0,0.0,-1,0.0,0.0,0,0.39,2.5107
150663,1563729403450,12,2.3,0.79,0.54,1.11,0.9,1.41,0.05,0.26,-1,-8,-2,1.41,7142,6,77,42,28,912,525.0,627,465,60,123.0,82,1,273,160,43,0,0,1515,2088,-28648,518,648.46,,,,,,,,,,,,
150683,1563729403470,11,2.31,0.78,0.54,1.11,0.9,1.31,0.05,0.27,-1,-9,-1,1.31,7094,5,78,42,28,910,517.0,627,470,60,124.0,82,1,272,160,43,0,0,114,15679,6274,513,648.46,,,,,,,,,,,,
150703,1563729403494,10,2.31,0.79,0.53,1.12,0.9,1.34,0.06,0.25,-1,-8,-0,1.34,7046,6,78,42,28,907,515.0,634,465,60,123.0,82,1,272,160,43,0,0,155,-14,16383,508,414.87,,,,,,,,,,,,
150723,1563729403514,12,2.3,0.78,0.53,1.11,0.9,1.33,0.02,0.22,-1,-6,-0,1.33,7017,6,78,42,29,906,513.0,643,469,60,122.0,81,1,277,160,42,0,0,1343,-21872,-3856,512,882.05,,,,,,,,,,,,
150743,1563729403534,11,2.3,0.78,0.53,1.12,0.9,1.27,0.03,0.23,-1,-3,-1,1.27,6998,6,78,42,29,905,508.0,634,468,60,124.0,81,1,277,161,42,0,0,127,17136,26178,503,648.46,45.749493,4.906809,54.3,188.9,0,0.0,-1,0.0,0.0,0,0.39,2.5124
150763,1563729403554,9,2.29,0.78,0.54,1.11,0.91,1.24,0.06,0.3,-1,-3,-3,1.25,6957,6,78,42,29,907,506.0,637,466,60,124.0,81,1,277,161,42,0,0,1366,-32248,1341,503,414.87,,,,,,,,,,,,
150783,1563729403574,11,2.3,0.78,0.54,1.11,0.91,1.24,0.04,0.2,-0,-3,-3,1.24,6883,5,78,42,29,911,503.0,625,462,60,125.0,81,1,278,161,42,0,0,1366,15661,-3414,501,181.28,,,,,,,,,,,,
150803,1563729403596,12,2.29,0.79,0.54,1.11,0.9,1.25,0.06,0.11,-1,-2,-2,1.25,6783,5,78,42,29,915,500.0,624,466,60,124.0,81,1,278,161,42,0,0,78,10408,-21872,495,181.28,,,,,,,,,,,,
150823,1563729403616,12,2.29,0.78,0.54,1.11,0.9,1.18,0.08,0.07,-1,-2,-1,1.18,6696,5,78,42,29,919,493.0,617,463,60,124.0,82,1,278,161,41,0,0,577,-1818,998,493,181.28,,,,,,,,,,,,
150843,1563729403636,13,2.29,0.79,0.53,1.11,0.9,1.22,0.09,0.02,-0,-1,-2,1.22,6663,5,78,42,30,924,489.0,619,461,60,123.0,82,1,282,163,41,0,0,15027,-6656,-1818,486,181.28,45.749504,4.906813,52.55,188.7,0,0.0,-1,0.0,0.0,0,0.39,2.514
150863,1563729403656,11,2.3,0.78,0.54,1.11,0.9,1.25,0.11,0.04,-1,-3,-0,1.26,6623,5,78,42,30,929,490.0,615,463,60,124.0,82,1,282,244,41,0,0,82,-1562,-899,486,181.28,,,,,,,,,,,,
150883,1563729403676,15,2.29,0.79,0.54,1.11,0.9,1.15,0.16,0.07,-1,-1,-1,1.16,6597,6,78,42,31,933,486.0,622,469,60,121.0,82,1,286,228,41,0,0,127,-1562,-10483,482,882.05,,,,,,,,,,,,
150903,1563729403702,11,2.3,0.78,0.54,1.11,0.91,1.19,0.15,0.07,-1,0,-2,1.2,6674,5,78,42,31,932,481.0,625,468,60,123.0,82,1,286,211,41,0,0,127,32033,-10483,476,648.46,,,,,,,,,,,,
150923,1563729403722,13,2.3,0.79,0.54,1.11,0.9,1.15,0.09,0.19,-0,-1,-3,1.15,6609,6,78,42,32,933,475.0,628,467,60,119.0,105,1,290,197,50,0,0,2127,-9203,505,475,882.05,,,,,,,,,,,,
150943,1563729403742,10,2.3,0.79,0.53,1.11,0.91,1.17,0.08,0.07,-0,-1,-2,1.18,6526,5,78,42,32,935,474.0,621,468,60,121.0,105,1,290,181,50,0,0,126,-9203,2212,467,414.87,45.749516,4.906816,51.63,188.5,0,0.0,-1,0.0,0.0,0,0.39,2.5157
150963,1563729403762,10,2.3,0.79,0.54,1.11,0.9,1.15,0.11,0.05,-1,-1,-1,1.16,6408,5,78,42,32,936,470.0,616,467,60,123.0,105,1,290,166,50,0,0,92,243,-899,467,648.46,,,,,,,,,,,,
150983,1563729403782,13,2.3,0.78,0.54,1.11,0.91,1.18,0.16,-0.07,-1,-1,0,1.19,6388,5,78,42,33,938,466.0,627,464,60,123.0,105,1,292,171,50,0,0,293,243,-8985,463,648.46,,,,,,,,,,,,
151003,1563729403802,14,2.3,0.78,0.54,1.11,0.9,1.25,0.15,-0.12,-1,-6,0,1.26,6432,0,78,42,33,949,461.0,630,468,60,123.0,105,1,292,171,50,0,0,582,2211,3635,456,1115.64,,,,,,,,,,,,
151023,1563729403822,13,2.29,0.78,0.53,1.11,0.89,1.16,0.18,-0.24,-1,-2,1,1.18,6658,0,78,42,32,987,460.0,620,462,60,124.0,94,1,290,171,43,0,0,186,17628,3635,454,648.46,,,,,,,,,,,,
151043,1563729403842,16,2.29,0.79,0.53,1.11,0.9,1.18,0.14,-0.2,-1,-2,0,1.19,6835,0,78,42,33,1026,451.0,635,468,60,123.0,94,1,292,171,43,0,0,193,3571,-6656,448,882.05,45.749531,4.906821,49.24,188.4,0,0.0,-1,0.0,0.0,0,0.39,2.5174
151063,1563729403862,13,2.29,0.79,0.54,1.11,0.9,1.2,0.1,-0.18,-1,-6,-0,1.2,6888,0,78,42,32,1062,448.0,623,467,60,123.0,94,1,290,166,43,0,0,1316,8488,-19126,445,414.87,,,,,,,,,,,,
151083,1563729403882,9,2.3,0.78,0.54,1.11,0.91,1.17,0.09,-0.1,-1,-6,-1,1.18,6991,0,78,42,32,1100,444.0,639,468,60,123.0,94,1,290,166,43,0,0,166,21432,2790,441,414.87,,,,,,,,,,,,
151103,1563729403902,12,2.3,0.79,0.54,1.11,0.91,1.26,0.02,0.05,-2,-4,-3,1.26,6988,0,78,42,32,1141,439.0,626,467,60,123.0,94,1,290,166,43,0,0,202,20625,742,435,882.05,,,,,,,,,,,,
151123,1563729403906,12,2.29,0.78,0.53,1.12,0.9,1.2,-0.0,-0.14,-2,-2,-3,1.2,6962,0,78,42,31,1180,434.0,625,466,60,124.0,99,1,285,164,43,0,0,384,-768,240,433,648.46,,,,,,,,,,,,
151143,1563729403926,9,2.3,0.78,0.53,1.11,0.9,1.22,0.1,-0.1,-2,-5,-1,1.22,7062,0,78,42,31,1186,432.0,635,469,60,122.0,99,1,285,164,43,0,0,8196,-3322,1,426,414.87,45.749542,4.906826,47.16,188.2,0,0.0,-1,0.0,0.0,0,0.39,2.5191
151163,1563729403946,13,2.3,0.78,0.53,1.11,0.9,1.23,-0.02,-0.04,-2,-4,1,1.23,7197,0,78,42,31,1190,424.0,635,471,60,122.0,99,1,285,164,43,0,0,6364,-3856,240,422,414.87,,,,,,,,,,,,
151183,1563729403966,12,2.3,0.79,0.53,1.11,0.9,1.1,-0.04,-0.01,-1,1,1,1.1,7301,0,78,42,30,1160,422.0,635,469,60,122.0,99,1,282,163,43,0,0,916,-3414,-992,419,882.05,,,,,,,,,,,,
151203,1563729403986,12,2.29,0.78,0.54,1.1,0.9,0.96,0.05,-0.13,-0,3,-0,0.96,7329,0,78,42,30,1131,415.0,640,470,60,123.0,99,1,282,163,43,0,0,240,-26615,-26615,414,882.05,,,,,,,,,,,,
151223,1563729404002,9,2.31,0.78,0.54,1.11,0.91,0.95,0.12,-0.19,0,1,-1,0.95,7347,0,78,42,29,1098,410.0,629,465,60,123.0,107,1,278,161,44,0,0,532,9517,10392,410,648.46,,,,,,,,,,,,
151243,1563729404022,8,2.31,0.78,0.54,1.11,0.89,1.05,0.16,-0.11,-1,-3,0,1.07,7422,0,78,42,29,1064,407.0,636,467,60,123.0,107,1,278,161,44,0,0,261,2524,-32702,407,648.46,45.749554,4.906829,46.23,188.2,0,0.0,-1,0.0,0.0,0,0.4,2.5207
151263,1563729404042,6,2.29,0.78,0.53,1.11,0.9,1.08,0.23,-0.02,-1,-4,1,1.11,7446,0,78,42,28,1023,404.0,637,469,60,124.0,107,1,275,160,44,0,0,251,1504,28696,401,414.87,,,,,,,,,,,,
151283,1563729404062,6,2.3,0.78,0.54,1.12,0.9,1.18,0.21,0.03,-1,-4,1,1.2,7518,0,78,42,28,982,403.0,637,467,60,123.0,107,1,275,160,44,0,0,555,6512,-6656,399,648.46,,,,,,,,,,,,
151303,1563729404082,5,2.31,0.79,0.53,1.12,0.9,1.26,0.23,0.11,-1,-5,-2,1.28,7485,0,78,42,27,965,399.0,634,468,60,123.0,107,1,271,158,44,0,0,157,6384,-3968,395,648.46,,,,,,,,,,,,
151323,1563729404108,4,2.3,0.79,0.54,1.12,0.91,1.34,0.2,0.15,-1,-8,-2,1.35,7473,0,78,42,27,956,395.0,639,468,60,124.0,111,1,271,158,44,0,0,652,-1818,6512,394,648.46,,,,,,,,,,,,
151343,1563729404128,2,2.31,0.78,0.53,1.12,0.91,1.41,0.17,0.31,-2,-8,-2,1.42,7434,0,78,42,27,949,393.0,640,469,60,124.0,111,1,271,158,44,0,0,836,-1562,28696,388,648.46,45.749565,4.906832,44.78,188.2,0,0.0,-1,0.0,0.0,0,0.4,2.5224
151363,1563729404148,2,2.3,0.78,0.54,1.11,0.9,1.47,0.22,0.37,-1,-6,-2,1.48,7399,0,78,42,27,941,393.0,646,467,60,123.0,111,1,270,158,44,0,0,836,-6524,6384,393,648.46,,,,,,,,,,,,
151383,1563729404168,-1,2.31,0.78,0.54,1.11,0.9,1.52,0.18,0.48,-1,-8,-3,1.53,7321,0,78,42,27,940,392.0,631,468,60,123.0,111,1,270,158,44,0,0,351,-31744,-1562,392,414.87,,,,,,,,,,,,
151403,1563729404188,-2,2.31,0.78,0.53,1.11,0.91,1.54,0.09,0.55,-2,-8,-3,1.55,7292,0,78,42,27,941,389.0,638,468,60,122.0,111,1,270,158,44,0,0,204,240,1,389,882.05,,,,,,,,,,,,
151423,1563729404208,2,2.31,0.79,0.53,1.11,0.91,1.44,0.09,0.48,-2,-5,-1,1.45,7242,0,78,42,27,943,388.0,637,468,60,121.0,111,1,270,158,43,0,0,127,-3866,-3866,387,414.87,,,,,,,,,,,,
151443,1563729404228,2,2.31,0.78,0.53,1.11,0.91,1.29,0.07,0.38,-1,-3,-0,1.29,7231,0,78,42,27,945,386.0,632,466,60,124.0,111,1,270,158,43,0,0,127,-3866,-6475,383,648.46,45.749577,4.906835,43.06,188.3,0,0.0,-1,0.0,0.0,0,0.4,2.524
151463,1563729404248,1,2.3,0.79,0.54,1.11,0.91,1.12,0.09,0.34,-1,-2,0,1.13,7222,0,78,42,27,947,383.0,632,470,60,123.0,111,1,270,158,43,0,0,127,-19126,240,383,648.46,,,,,,,,,,,,
151483,1563729404268,-2,2.31,0.78,0.54,1.11,0.91,1.15,0.14,0.34,-1,-3,-2,1.16,7170,0,78,42,27,949,381.0,634,466,60,123.0,111,1,269,158,43,0,0,603,-18948,240,381,648.46,,,,,,,,,,,,
151503,1563729404293,-1,2.31,0.78,0.54,1.12,0.9,1.24,0.09,0.43,-1,-4,-2,1.24,7164,0,78,42,27,950,380.0,640,467,60,123.0,111,1,269,158,43,0,0,150,-992,-19019,380,414.87,,,,,,,,,,,,
151523,1563729404313,2,2.3,0.79,0.54,1.12,0.91,1.18,0.04,0.45,-1,-4,-1,1.18,7113,0,78,42,27,951,379.0,634,468,60,123.0,110,1,269,158,42,0,0,658,2278,-3866,379,648.46,,,,,,,,,,,,
151543,1563729404333,1,2.3,0.79,0.54,1.12,0.9,1.08,0.09,0.43,-1,-4,0,1.09,7072,0,78,42,28,952,376.0,636,465,60,123.0,110,1,272,158,42,0,0,153,770,-992,376,882.05,45.749588,4.906837,42.06,188.3,0,0.0,-1,0.0,0.0,0,0.4,2.5257
151563,1563729404353,-2,2.31,0.78,0.54,1.11,0.91,1.01,0.15,0.43,-0,-3,0,1.02,7067,0,78,42,27,952,375.0,630,467,60,124.0,110,1,268,158,42,0,0,153,742,3,375,414.87,,,,,,,,,,,,
151583,1563729404373,3,2.3,0.79,0.54,1.11,0.91,1.07,0.09,0.45,-1,-3,-1,1.08,7033,0,78,42,28,953,374.0,642,467,60,123.0,110,1,272,160,42,0,0,153,-6656,770,374,414.87,,,,,,,,,,,,
151603,1563729404395,1,2.3,0.79,0.54,1.11,0.91,1.05,0.02,0.37,-1,-1,-0,1.05,7014,0,78,42,28,955,373.0,631,468,60,122.0,110,1,272,160,42,0,0,153,-6656,770,371,882.05,,,,,,,,,,,,
151623,1563729404415,-1,2.3,0.79,0.54,1.11,0.9,1.01,0.04,0.34,-0,-1,-1,1.01,6996,0,78,42,28,957,371.0,627,468,60,124.0,113,1,273,160,42,0,0,153,486,742,371,414.87,,,,,,,,,,,,
151643,1563729404435,1,2.31,0.79,0.54,1.12,0.9,1.0,-0.02,0.4,-1,-2,0,1.0,6949,0,78,42,28,959,369.0,631,467,60,122.0,113,1,273,160,42,0,0,153,-6656,257,369,414.87,45.749596,4.906841,40.25,188.3,0,0.0,-1,0.0,0.0,0,0.4,2.5274
151663,1563729404455,-1,2.31,0.79,0.54,1.12,0.9,1.0,-0.02,0.36,-1,-1,1,1.0,6913,0,78,42,28,962,366.0,623,463,60,124.0,113,1,273,160,42,0,0,153,230,1,368,648.46,,,,,,,,,,,,
151683,1563729404475,-1,2.31,0.79,0.54,1.11,0.9,0.94,0.05,0.36,0,1,0,0.94,6921,0,78,42,28,966,366.0,636,471,60,123.0,113,1,273,160,42,0,0,153,-1268,257,366,414.87,,,,,,,,,,,,
151703,1563729404499,2,2.32,0.79,0.54,1.12,0.9,0.96,0.0,0.43,-0,1,-1,0.96,6888,0,78,42,29,970,366.0,627,467,60,124.0,113,1,278,161,42,0,0,17,2790,230,366,648.46,,,,,,,,,,,,
151723,1563729404519,-1,2.31,0.79,0.54,1.12,0.91,0.89,0.01,0.28,0,4,-1,0.89,6875,2,78,42,29,972,364.0,627,463,60,123.0,115,1,278,161,42,0,0,17,-14707,230,364,648.46,,,,,,,,,,,,
151743,1563729404539,2,2.32,0.79,0.55,1.11,0.91,0.89,0.04,0.3,0,2,-0,0.89,6865,4,78,42,29,974,362.0,627,470,60,123.0,115,1,278,161,42,0,0,55,-14707,3082,362,414.87,45.749607,4.906844,39.91,188.3,0,0.0,-1,0.0,0.0,0,0.4,2.529
151763,1563729404559,0,2.31,0.79,0.54,1.12,0.91,0.9,0.04,0.2,0,2,1,0.9,6825,5,78,42,29,976,362.0,623,470,60,123.0,115,1,278,161,42,0,0,107,2790,-6458,360,648.46,,,,,,,,,,,,
151783,1563729404579,-2,2.32,0.8,0.54,1.12,0.91,0.83,0.07,0.28,0,2,2,0.84,6768,5,78,42,30,978,360.0,631,467,60,124.0,115,1,282,163,42,0,0,107,-29978,-6405,360,414.87,,,,,,,,,,,,
151803,1563729404595,-0,2.31,0.79,0.54,1.12,0.92,0.92,0.05,0.36,-1,-1,3,0.92,6730,5,78,42,30,976,359.0,628,466,60,123.0,115,1,282,163,42,0,0,107,-29302,-1268,359,882.05,,,,,,,,,,,,
151823,1563729404615,-5,2.31,0.8,0.54,1.12,0.92,0.82,0.05,0.45,-0,2,1,0.82,6732,5,78,42,30,977,357.0,627,468,60,123.0,114,1,282,163,41,0,0,107,4104,2790,355,414.87,,,,,,,,,,,,
151843,1563729404635,-1,2.31,0.8,0.54,1.12,0.91,0.89,-0.01,0.41,-1,0,0,0.89,6722,5,78,42,30,975,356.0,619,466,60,124.0,114,1,282,163,41,0,0,107,2060,-14707,355,414.87,45.749615,4.906848,40.21,188.4,0,0.0,-1,0.0,0.0,0,0.4,2.5307
151863,1563729404655,3,2.31,0.8,0.54,1.11,0.92,0.8,0.01,0.51,0,2,-2,0.8,6677,6,78,42,31,975,354.0,636,469,60,122.0,114,1,286,164,41,0,0,30,3183,-6640,354,414.87,,,,,,,,,,,,
151883,1563729404675,-2,2.31,0.79,0.54,1.11,0.92,0.92,0.04,0.36,-0,2,-0,0.92,6660,6,78,42,31,974,352.0,623,467,60,123.0,114,1,286,164,41,0,0,464,3183,-6640,352,648.46,,,,,,,,,,,,
151903,1563729404699,3,2.31,0.79,0.54,1.12,0.91,0.93,0.02,0.33,-0,2,1,0.93,6665,5,78,42,31,973,351.0,630,468,60,122.0,114,1,286,164,41,0,0,214,-30454,2060,351,414.87,,,,,,,,,,,,
151923,1563729404719,-2,2.31,0.79,0.54,1.11,0.92,0.94,-0.01,0.31,-0,4,1,0.94,6653,6,78,42,31,971,350.0,633,465,60,124.0,117,1,286,164,41,0,0,195,-30454,2811,349,414.87,,,,,,,,,,,,
151943,1563729404739,0,2.31,0.8,0.54,1.12,0.91,0.9,0.03,0.38,-1,3,1,0.9,6592,6,78,42,32,968,349.0,626,467,60,122.0,117,1,290,166,41,0,0,88,2811,-6644,348,882.05,45.749626,4.906851,38.07,188.3,0,0.0,-1,0.0,0.0,0,0.4,2.5324
151963,1563729404759,-2,2.31,0.79,0.54,1.12,0.91,0.89,0.0,0.39,0,5,1,0.89,6553,6,78,42,32,966,348.0,626,465,60,123.0,117,1,290,166,41,0,0,1629,8841,-6644,348,414.87,,,,,,,,,,,,
151983,1563729404779,-1,2.31,0.79,0.53,1.11,0.92,0.98,0.03,0.46,-0,2,-0,0.98,6546,6,78,42,32,964,347.0,618,466,60,123.0,117,1,290,166,41,0,0,96,8841,3183,346,414.87,,,,,,,,,,,,
152003,1563729404799,2,2.31,0.79,0.54,1.12,0.91,0.83,0.06,0.56,0,3,1,0.83,6526,6,78,42,33,960,345.0,616,468,60,123.0,117,1,292,171,41,0,0,282,6870,-30454,344,882.05,,,,,,,,,,,,
152023,1563729404819,-2,2.32,0.79,0.54,1.12,0.92,0.88,0.04,0.52,1,4,-0,0.88,6524,6,78,42,33,957,343.0,624,468,60,123.0,118,1,292,171,41,0,0,560,-14714,2811,343,414.87,,,,,,,,,,,,
152043,1563729404839,0,2.31,0.8,0.54,1.12,0.91,0.99,0.05,0.55,0,3,-1,0.99,6517,6,78,42,33,954,342.0,618,466,60,123.0,118,1,292,171,41,0,0,560,3327,8841,341,648.46,45.749638,4.906854,39.59,188.4,0,0.0,-1,0.0,0.0,0,0.41,2.534
152063,1563729404859,1,2.32,0.79,0.55,1.12,0.91,0.93,0.06,0.63,0,4,-2,0.93,6469,6,78,42,33,953,342.0,623,465,60,122.0,118,1,292,171,41,0,0,62,-122,-10554,342,882.05,,,,,,,,,,,,
152083,1563729404879,-3,2.31,0.8,0.54,1.12,0.92,0.93,0.03,0.51,1,4,-2,0.93,6452,6,78,42,33,950,341.0,622,468,60,121.0,118,1,292,171,41,0,0,451,3327,-30438,342,414.87,,,,,,,,,,,,
152103,1563729404903,-2,2.31,0.8,0.54,1.12,0.91,0.99,0.04,0.4,0,1,-1,0.99,6436,6,78,42,33,948,340.0,612,465,60,123.0,118,1,292,171,41,0,0,2691,3327,-14714,339,648.46,,,,,,,,,,,,
152123,1563729404923,1,2.3,0.8,0.54,1.13,0.91,0.93,-0.01,0.41,0,2,0,0.93,6390,6,78,42,34,947,338.0,621,465,60,122.0,124,1,295,176,42,0,0,269,2560,-30438,338,882.05,,,,,,,,,,,,
152143,1563729404943,1,2.31,0.8,0.54,1.12,0.92,0.88,0.0,0.39,1,3,-0,0.88,6384,6,78,42,34,947,337.0,623,471,60,123.0,124,1,295,176,42,0,0,278,13,-10554,337,414.87,45.749645,4.906857,38.69,188.4,0,0.0,-1,0.0,0.0,0,0.41,2.5357
152163,1563729404963,-1,2.31,0.79,0.54,1.13,0.92,0.98,-0.02,0.34,1,2,1,0.98,6373,6,78,42,34,948,336.0,613,465,60,123.0,124,1,295,176,42,0,0,137,13,6668,335,414.87,,,,,,,,,,,,
152183,1563729404983,-2,2.31,0.8,0.55,1.12,0.91,1.04,-0.0,0.33,0,-1,2,1.04,6360,6,78,42,35,949,336.0,618,465,60,123.0,124,1,298,176,42,0,0,137,4838,3327,334,648.46,,,,,,,,,,,,
152203,1563729404999,0,2.31,0.8,0.54,1.13,0.91,0.94,-0.03,0.43,0,-1,2,0.94,6345,6,78,42,35,950,335.0,629,468,60,121.0,124,1,298,182,42,0,0,1329,-32559,3327,335,882.05,,,,,,,,,,,,
152223,1563729405019,3,2.3,0.8,0.54,1.13,0.91,0.85,-0.01,0.51,1,1,2,0.85,6334,6,78,42,35,953,331.0,630,465,60,121.0,129,1,298,182,43,0,0,1329,-6528,3327,331,414.87,,,,,,,,,,,,
152243,1563729405039,-1,2.29,0.8,0.54,1.13,0.92,0.87,0.0,0.49,1,4,0,0.87,6283,6,78,42,35,954,332.0,627,463,60,121.0,129,1,298,182,43,0,0,187,-12032,13,332,414.87,45.749657,4.90686,38.78,188.4,0,0.0,-1,0.0,0.0,0,0.41,2.5374
152263,1563729405059,-2,2.3,0.8,0.54,1.12,0.91,0.95,0.03,0.47,0,3,-0,0.95,6283,6,78,42,35,954,331.0,623,467,60,123.0,129,1,298,182,43,0,0,563,-12032,13,331,414.87,,,,,,,,,,,,
152283,1563729405079,-0,2.3,0.8,0.55,1.13,0.92,0.98,0.06,0.5,-0,3,-0,0.98,6241,6,78,42,35,953,332.0,612,466,60,123.0,129,1,298,182,43,0,0,563,-32559,-31222,329,648.46,,,,,,,,,,,,
152303,1563729405101,-0,2.3,0.79,0.55,1.12,0.92,0.97,0.02,0.52,-0,3,0,0.97,6241,6,78,42,36,953,329.0,615,468,60,123.0,129,1,301,182,43,0,0,48,-20736,3346,329,882.05,,,,,,,,,,,,
152323,1563729405121,2,2.29,0.8,0.54,1.13,0.92,0.83,0.03,0.6,1,5,0,0.83,6231,6,78,42,36,952,328.0,618,466,60,122.0,134,1,301,187,44,0,0,220,170,175,326,882.05,,,,,,,,,,,,
152343,1563729405141,1,2.3,0.8,0.55,1.13,0.92,0.78,0.04,0.63,1,7,-1,0.78,6227,6,78,42,36,948,327.0,617,467,60,122.0,134,1,301,187,44,0,0,220,165,4838,327,414.87,45.749664,4.906863,38.33,188.3,0,0.0,-1,0.0,0.0,0,0.41,2.5391
152363,1563729405161,3,2.29,0.8,0.54,1.12,0.91,0.84,0.05,0.6,2,7,-1,0.84,6200,6,78,42,36,945,327.0,612,466,60,123.0,134,1,301,187,44,0,0,63,-22016,-32559,325,181.28,,,,,,,,,,,,
152383,1563729405181,-2,2.3,0.8,0.54,1.12,0.91,0.93,0.06,0.52,1,7,-1,0.93,6190,6,78,42,36,942,325.0,609,465,60,124.0,134,1,301,187,44,0,0,63,-23296,-20736,325,414.87,,,,,,,,,,,,
152403,1563729405201,-2,2.29,0.8,0.54,1.13,0.91,1.04,0.05,0.52,0,4,-2,1.04,6169,6,78,42,37,939,324.0,611,466,60,124.0,134,1,304,193,44,0,0,265,-24576,-20736,324,414.87,,,,,,,,,,,,
152423,1563729405221,-2,2.29,0.8,0.55,1.12,0.92,1.11,0.04,0.55,-1,2,-2,1.11,6127,6,78,42,37,934,322.0,612,467,60,124.0,137,1,304,193,44,0,0,474,155,-22016,322,648.46,,,,,,,,,,,,
152443,1563729405241,-1,2.28,0.8,0.55,1.13,0.92,1.14,0.06,0.56,-1,-0,-2,1.14,6099,6,78,42,37,930,322.0,606,465,60,124.0,137,1,304,193,44,0,0,273,155,-20736,321,648.46,45.749672,4.906865,34.77,188.3,0,0.0,-1,0.0,0.0,0,0.41,2.5407
152463,1563729405261,-2,2.27,0.79,0.54,1.13,0.91,1.11,0.07,0.53,-1,-2,-2,1.12,6095,6,78,42,37,928,322.0,617,466,60,123.0,137,1,304,193,44,0,0,230,155,-22016,321,648.46,,,,,,,,,,,,
152483,1563729405281,-1,2.28,0.8,0.54,1.12,0.92,1.07,0.03,0.52,-1,-4,-2,1.07,6091,6,78,42,37,926,320.0,620,468,60,123.0,137,1,304,193,44,0,0,274,150,165,319,648.46,,,,,,,,,,,,
152503,1563729405306,-1,2.28,0.8,0.54,1.12,0.91,1.04,-0.02,0.52,-1,-4,-2,1.04,6044,6,79,42,37,925,318.0,619,468,60,122.0,137,1,304,193,44,0,0,130,145,155,317,882.05,,,,,,,,,,,,
152523,1563729405326,0,2.27,0.8,0.55,1.12,0.92,1.01,-0.03,0.51,-1,-3,-2,1.01,6046,6,78,42,38,924,319.0,619,467,60,123.0,141,1,307,193,45,0,0,130,-27136,-24576,318,882.05,,,,,,,,,,,,
152543,1563729405346,0,2.26,0.79,0.54,1.13,0.91,0.93,-0.07,0.53,-1,-3,-2,0.93,6034,6,78,42,38,925,318.0,619,470,60,123.0,141,1,307,199,45,0,0,825,145,-23296,316,882.05,45.74968,4.906866,33.52,188.3,0,0.0,-1,0.0,0.0,0,0.41,2.5424
152563,1563729405366,0,2.27,0.8,0.55,1.13,0.91,0.86,-0.09,0.55,-0,-4,-2,0.87,6013,6,78,42,38,924,317.0,615,467,60,122.0,141,1,306,199,45,0,0,155,-28416,-25856,315,882.05,,,,,,,,,,,,
152583,1563729405386,0,2.28,0.79,0.54,1.12,0.92,0.84,-0.13,0.54,-0,-4,-2,0.85,5982,6,78,42,38,921,315.0,614,470,60,123.0,141,1,305,198,45,0,0,159,135,-27136,315,882.05,,,,,,,,,,,,
152603,1563729405404,1,2.27,0.8,0.55,1.12,0.92,0.81,-0.13,0.52,-0,-3,-1,0.82,5975,6,78,42,39,917,315.0,611,470,60,122.0,141,1,308,198,45,0,0,533,-29696,140,313,882.05,,,,,,,,,,,,
152623,1563729405424,-1,2.27,0.8,0.55,1.12,0.91,0.83,-0.15,0.51,-0,-4,-1,0.84,5924,6,79,42,39,914,314.0,605,468,60,123.0,143,1,305,203,45,0,0,128,135,135,312,648.46,,,,,,,,,,,,
152643,1563729405444,-1,2.28,0.8,0.55,1.12,0.92,0.85,-0.16,0.5,-1,-5,-2,0.86,5935,6,79,42,39,910,313.0,597,469,60,123.0,143,1,306,203,45,0,0,488,-30976,-29696,310,648.46,45.749687,4.906868,33.17,188.3,0,0.0,-1,0.0,0.0,0,0.41,2.544
152663,1563729405464,-1,2.28,0.8,0.55,1.12,0.92,0.9,-0.16,0.47,-1,-6,-2,0.92,5892,6,79,42,39,905,313.0,599,469,60,123.0,143,1,303,203,45,0,0,836,-30976,-28416,309,648.46,,,,,,,,,,,,
152683,1563729405484,-2,2.28,0.8,0.54,1.13,0.92,0.96,-0.14,0.4,-2,-7,-2,0.97,5905,6,79,42,39,900,311.0,606,467,60,124.0,143,1,304,203,45,0,0,253,-32256,-29696,309,648.46,,,,,,,,,,,,
152703,1563729405506,-1,2.28,0.8,0.54,1.13,0.92,1.06,-0.1,0.36,-2,-7,-3,1.06,5859,6,78,42,39,899,310.0,606,465,60,123.0,143,1,301,203,45,0,0,253,125,135,308,414.87,,,,,,,,,,,,
152723,1563729405526,-2,2.27,0.79,0.54,1.13,0.91,1.13,-0.05,0.35,-3,-8,-4,1.14,5870,6,79,42,39,897,309.0,602,466,60,123.0,147,1,302,204,45,0,0,20543,32000,-30976,305,414.87,,,,,,,,,,,,
152743,1563729405546,1,2.28,0.8,0.54,1.12,0.91,1.15,-0.01,0.31,-3,-7,-4,1.15,5850,6,78,42,40,895,308.0,601,467,60,122.0,147,1,306,204,45,0,0,495,120,-30976,306,414.87,45.749695,4.90687,31.96,188.2,0,0.0,-1,0.0,0.0,0,0.41,2.5457
152763,1563729405566,2,2.27,0.8,0.54,1.13,0.91,1.12,0.04,0.31,-3,-4,-5,1.12,5822,6,79,42,40,894,307.0,605,466,60,122.0,147,1,304,204,45,0,0,169,30720,-30976,305,414.87,,,,,,,,,,,,
152783,1563729405586,1,2.27,0.8,0.55,1.12,0.92,0.99,0.04,0.39,-2,-2,-4,0.99,5797,6,79,42,41,893,305.0,601,467,60,122.0,147,1,308,205,45,0,0,126,115,-30976,305,882.05,,,,,,,,,,,,
152803,1563729405604,1,2.27,0.8,0.55,1.12,0.92,0.84,0.03,0.46,-1,-0,-4,0.84,5785,6,79,42,41,894,305.0,603,470,60,123.0,147,1,308,205,45,0,0,168,29440,120,303,882.05,,,,,,,,,,,,
152823,1563729405624,-1,2.27,0.8,0.54,1.13,0.91,0.78,0.01,0.5,-1,0,-4,0.78,5733,6,79,42,41,894,305.0,599,466,60,123.0,145,1,303,205,44,0,0,474,29440,125,302,648.46,,,,,,,,,,,,
152843,1563729405644,-1,2.27,0.81,0.54,1.13,0.92,0.89,0.04,0.51,-1,-1,-3,0.89,5733,6,79,42,42,894,304.0,589,467,60,123.0,145,1,308,206,44,0,0,509,29440,30720,300,414.87,45.749702,4.906872,31.87,188.2,0,0.0,-1,0.0,0.0,0,0.41,2.5474
152863,1563729405664,-1,2.27,0.8,0.54,1.12,0.92,1.0,0.08,0.52,-2,-3,-3,1.01,5673,6,79,42,42,894,303.0,589,461,60,124.0,145,1,305,206,44,0,0,249,28160,120,299,414.87,,,,,,,,,,,,
152883,1563729405684,0,2.28,0.8,0.55,1.12,0.92,0.97,0.07,0.54,-2,-2,-4,0.97,5668,6,79,42,43,894,302.0,600,469,60,122.0,145,1,310,208,44,0,0,392,105,28160,300,414.87,,,,,,,,,,,,
152903,1563729405706,0,2.27,0.8,0.55,1.12,0.92,0.84,0.06,0.57,-2,1,-4,0.84,5681,6,79,42,43,897,301.0,590,470,60,123.0,145,1,310,208,44,0,0,102,26880,28160,298,882.05,,,,,,,,,,,,
152923,1563729405726,-2,2.28,0.8,0.54,1.13,0.91,0.83,0.07,0.58,-1,1,-3,0.83,5657,6,79,42,43,899,299.0,572,467,60,123.0,148,1,309,208,44,0,0,98,25600,29440,296,648.46,,,,,,,,,,,,
152943,1563729405746,-2,2.28,0.8,0.55,1.13,0.91,0.9,0.08,0.53,-2,-1,-3,0.91,5652,6,79,42,44,900,300.0,583,468,60,124.0,148,1,313,209,44,0,0,98,100,105,296,414.87,45.74971,4.906873,31.15,188.2,0,0.0,-1,0.0,0.0,0,0.41,2.549
152963,1563729405766,1,2.28,0.8,0.55,1.12,0.92,0.91,0.08,0.45,-2,-2,-3,0.91,5639,6,79,42,44,902,297.0,578,465,60,123.0,148,1,312,211,44,0,0,81,24320,25600,296,414.87,,,,,,,,,,,,
152983,1563729405786,1,2.27,0.81,0.54,1.13,0.92,0.84,0.03,0.53,-2,-1,-3,0.84,5635,6,79,42,45,903,295.0,585,465,60,122.0,148,1,317,211,44,0,0,363,23040,100,293,882.05,,,,,,,,,,,,
153003,1563729405804,-0,2.28,0.8,0.55,1.12,0.92,0.8,0.02,0.52,-2,-1,-2,0.8,5625,6,79,42,45,904,294.0,576,470,60,122.0,148,1,316,211,44,0,0,238,85,100,292,648.46,,,,,,,,,,,,
153023,1563729405824,-0,2.27,0.8,0.54,1.13,0.91,0.88,0.05,0.48,-2,-0,-2,0.88,5590,6,79,42,45,901,294.0,585,466,60,124.0,150,1,313,210,44,0,0,440,85,24320,292,414.87,,,,,,,,,,,,
153043,1563729405844,2,2.28,0.8,0.54,1.13,0.91,0.91,0.05,0.41,-2,-2,-2,0.91,5560,6,79,42,46,899,294.0,581,466,60,123.0,150,1,315,212,44,0,0,199,23040,95,291,414.87,45.749718,4.906874,30.5,188.2,0,0.0,-1,0.0,0.0,0,0.42,2.5507
153063,1563729405864,0,2.28,0.8,0.54,1.13,0.91,0.81,0.04,0.45,-2,-0,-2,0.81,5542,6,79,42,47,898,293.0,575,470,60,122.0,150,1,316,212,44,0,0,199,21760,24320,290,882.05,,,,,,,,,,,,
153083,1563729405884,-1,2.29,0.8,0.55,1.12,0.92,0.83,0.04,0.38,-2,-1,-2,0.83,5511,6,79,42,47,896,293.0,578,467,60,124.0,150,1,315,214,44,0,0,480,21760,90,290,414.87,,,,,,,,,,,,
153103,1563729405904,0,2.29,0.8,0.55,1.12,0.92,0.89,0.05,0.34,-2,-0,-3,0.89,5493,6,79,42,47,895,292.0,570,468,60,121.0,150,1,314,214,44,0,0,481,80,85,288,414.87,,,,,,,,,,,,
153123,1563729405902,-1,2.28,0.79,0.54,1.13,0.91,0.79,-0.02,0.42,-2,4,-3,0.79,5464,7,79,42,48,895,291.0,570,471,60,122.0,156,1,315,218,45,0,0,481,0,90,288,882.05,,,,,,,,,,,,
153143,1563729405922,-1,2.29,0.8,0.54,1.13,0.91,0.82,0.02,0.36,-2,2,-3,0.82,5444,7,79,42,48,893,289.0,567,461,60,124.0,156,1,313,218,45,0,0,59,0,80,286,414.87,45.749725,4.906876,29.83,188.1,0,0.0,-1,0.0,0.0,0,0.42,2.5524
