"Interval"|"ms"|0|0|1,"Utc"|"ms"|0|0|1,"FB_p"|"bar"|0|300|50,"Volant"|"F"|0.0|300.0|50,"xFR"|"mm"|0.0|5.0|50,"xRR"|"mm"|0.0|5.0|50,"xFL"|"mm"|0.0|5.0|50,"xRL"|"mm"|0.0|5.0|50,"AccelX"|"G"|-3.0|3.0|50,"AccelY"|"G"|-3.0|3.0|50,"AccelZ"|"G"|-3.0|3.0|50,"Yaw"|"Deg/Sec"|-120|120|50,"Pitch"|"Deg/Sec"|-120|120|50,"Roll"|"Deg/Sec"|-120|120|50,"Gsum"|"G"|0.0|3.0|50,"RPM"|""|0|14000|50,"TPS"|"%"|0|100|50,"WaterTemp"|"?C"|0|300|50,"AirTemp"|"?C"|-1000|1000|50,"MAP"|"KPa"|0|255|50,"Lambda"|""|0|1024|50,"WheelSpeed"|"MPH"|0.0|150.0|50,"OilPress"|"PSI"|0|150|50,"FuelPress"|"PSI"|0|150|50,"OilTemp"|"F"|0|300|50,"Battery"|"Volts"|0.0|20.0|50,"FuelCon"|"L/h"|-1000|1000|50,"Gear"|""|0|10|50,"Advance"|"Deg"|-360|360|50,"Injection"|"ms"|-1000|1000|50,"FuelCon"|"L/100km"|-1000|1000|50,"LC_But_Pres"|""|-1000|1000|50,"LC_Active"|""|-1000|1000|50,"RD_Speed"|""|-1000|1000|50,"RUD_Speed"|""|-1000|1000|50,"LD_Speed"|""|-1000|1000|50,"LUD_Speed"|""|-1000|1000|50,"Ana1"|"bar"|-1000.0|1000.0|50,"Latitude"|"Degrees"|-180.0|180.0|10,"Longitude"|"Degrees"|-180.0|180.0|10,"Speed"|"kph"|0.0|150.0|10,"Altitude"|"m"|0.0|4000.0|10,"LapCount"|""|0|0|10,"LapTime"|"Min"|0.0|0.0|10,"Sector"|""|0|0|10,"SectorTime"|"Min"|0.0|0.0|10,"ElapsedTime"|"Min"|0.0|0.0|10,"CurrentLap"|""|0|0|10,"Distance"|"km"|0.0|0.0|10,"SessionTime"|"Min"|0.0|0.0|10
89544,1563729744986,7,2.29,0.92,0.63,1.24,0.99,0.84,-0.01,0.51,0,2,-2,0.84,1096,0,94,39,93,1035,0.0,155,473,60,119.0,0,1,4,290,12,0,0,0,250,250,0,414.87,45.747829,4.906568,0.0,193.6,0,0.0,-1,0.0,0.0,0,0.0,1.4924
89564,1563729744998,9,2.29,0.92,0.63,1.25,0.99,0.84,-0.01,0.51,0,1,-2,0.84,1096,0,94,39,93,1035,0.0,151,465,60,120.0,0,1,138,290,12,0,0,0,250,250,0,414.87,,,,,,,,,,,,
89584,1563729745018,6,2.29,0.92,0.63,1.25,0.99,0.84,-0.01,0.5,0,1,-2,0.84,1016,0,94,39,94,1034,0.0,153,465,60,120.0,0,1,44,297,12,0,0,0,250,250,0,414.87,,,,,,,,,,,,
89604,1563729745038,7,2.29,0.92,0.63,1.25,0.99,0.83,-0.01,0.5,0,1,-2,0.83,1087,0,94,39,94,1032,0.0,155,468,60,120.0,0,1,9,297,11,0,0,0,250,250,0,414.87,,,,,,,,,,,,
89624,1563729745058,7,2.29,0.91,0.62,1.26,0.99,0.83,-0.01,0.5,0,1,-1,0.83,1106,0,94,39,93,1030,0.0,157,461,60,118.0,0,1,4,290,11,0,0,0,250,250,0,882.05,,,,,,,,,,,,
89644,1563729745078,6,2.29,0.92,0.62,1.25,0.99,0.83,-0.01,0.48,-0,0,-1,0.83,1106,0,94,39,94,1029,0.0,152,468,60,121.0,0,1,4,297,11,0,0,0,250,250,0,414.87,45.747829,4.906568,0.0,193.6,0,0.0,-1,0.0,0.0,0,0.0,1.4941
89664,1563729745098,8,2.29,0.92,0.62,1.26,0.99,0.84,-0.01,0.48,-0,-0,-1,0.84,1102,0,94,39,94,1027,0.0,159,466,60,121.0,0,1,4,297,11,0,0,0,250,250,0,414.87,,,,,,,,,,,,
89684,1563729745118,8,2.29,0.92,0.63,1.24,0.99,0.83,-0.01,0.5,-0,-1,-1,0.83,1289,0,94,39,94,1024,0.0,159,466,60,120.0,0,1,4,297,14,0,0,0,250,250,0,414.87,,,,,,,,,,,,
89704,1563729745138,8,2.29,0.91,0.63,1.24,0.99,0.84,-0.01,0.51,-0,-1,-1,0.84,1181,0,94,39,93,1023,0.0,158,473,60,119.0,0,1,4,290,14,0,0,0,250,250,0,414.87,,,,,,,,,,,,
89724,1563729745158,7,2.29,0.91,0.62,1.25,0.99,0.84,-0.01,0.51,-0,-1,-1,0.84,1155,0,94,39,92,1023,0.0,158,466,60,119.0,0,1,6,282,14,0,0,0,250,250,0,648.46,,,,,,,,,,,,
89744,1563729745178,9,2.28,0.92,0.62,1.26,0.99,0.84,-0.01,0.51,-0,-1,-1,0.84,1155,0,94,39,93,1024,0.0,160,464,60,120.0,0,1,6,290,14,0,0,0,250,250,0,414.87,45.747829,4.906568,0.0,193.6,0,0.0,-1,0.0,0.0,0,0.0,1.4957
89764,1563729745204,6,2.29,0.92,0.63,1.26,0.98,0.85,-0.01,0.5,-0,-1,-1,0.85,1244,0,94,39,93,1025,0.0,159,467,60,120.0,0,1,6,297,14,0,0,0,250,250,0,414.87,,,,,,,,,,,,
89784,1563729745224,6,2.29,0.92,0.62,1.24,0.99,0.84,-0.01,0.5,-0,-1,-1,0.84,1190,0,94,39,93,1026,0.0,161,464,60,120.0,0,1,6,290,13,0,0,0,250,250,0,181.28,,,,,,,,,,,,
89804,1563729745244,6,2.29,0.92,0.63,1.24,0.99,0.84,-0.02,0.51,-0,-0,-1,0.84,1288,0,94,39,93,1028,0.0,162,473,60,120.0,0,1,6,290,13,0,0,0,250,250,0,414.87,,,,,,,,,,,,
89824,1563729745264,6,2.29,0.92,0.62,1.25,0.98,0.84,-0.01,0.5,-0,-0,-0,0.84,1281,0,94,39,92,1027,0.0,165,469,60,118.0,0,1,139,282,13,0,0,0,250,250,0,414.87,,,,,,,,,,,,
89844,1563729745284,7,2.29,0.91,0.62,1.24,0.99,0.84,-0.02,0.5,-0,0,-0,0.84,1274,0,94,39,92,1027,0.0,161,467,60,120.0,0,1,7,282,13,0,0,0,250,250,0,648.46,45.747829,4.906568,0.0,193.6,0,0.0,-1,0.0,0.0,0,0.0,1.4974
89864,1563729745304,11,2.28,0.91,0.62,1.24,0.98,0.84,-0.01,0.51,0,-0,-1,0.84,1407,0,94,39,92,1026,0.0,166,463,60,121.0,0,1,7,282,13,0,0,0,250,250,0,414.87,,,,,,,,,,,,
89884,1563729745324,8,2.29,0.91,0.62,1.23,0.98,0.84,-0.01,0.5,0,-0,-1,0.84,1407,0,94,39,92,1024,0.0,167,464,60,120.0,0,1,7,282,13,0,0,0,250,250,0,414.87,,,,,,,,,,,,
89904,1563729745344,7,2.29,0.92,0.61,1.24,0.98,0.84,-0.01,0.49,0,0,-1,0.84,1286,0,94,39,93,1020,0.0,165,469,60,120.0,0,1,7,290,15,0,0,0,250,250,0,414.87,,,,,,,,,,,,
89924,1563729745364,6,2.29,0.91,0.62,1.23,0.98,0.84,-0.02,0.5,0,0,-1,0.84,1269,0,94,39,93,1014,0.0,166,468,60,120.0,0,1,8,290,15,0,0,0,250,250,0,181.28,,,,,,,,,,,,
89944,1563729745384,7,2.28,0.91,0.62,1.23,0.97,0.83,-0.02,0.5,0,1,-1,0.83,1307,0,94,39,93,1009,0.0,162,465,60,120.0,0,1,8,282,15,0,0,0,250,250,0,414.87,45.747829,4.906568,0.0,193.6,0,0.0,-1,0.0,0.0,0,0.0,1.4991
89964,1563729745404,7,2.29,0.91,0.62,1.22,0.98,0.83,-0.02,0.5,0,1,-0,0.83,1338,0,94,39,92,1005,0.0,165,470,60,120.0,0,1,8,282,15,0,0,0,250,250,0,414.87,,,,,,,,,,,,
89984,1563729745424,8,2.28,0.92,0.62,1.23,0.97,0.84,-0.02,0.5,0,1,-0,0.84,1470,0,94,39,92,1001,0.0,169,471,60,120.0,0,1,8,282,15,0,0,0,250,250,0,414.87,,,,,,,,,,,,
90004,1563729745444,8,2.28,0.91,0.62,1.22,0.97,0.86,-0.02,0.51,0,1,-0,0.86,1376,0,94,39,91,997,0.0,169,473,60,120.0,0,1,8,275,15,0,0,0,250,250,0,414.87,,,,,,,,,,,,
90024,1563729745464,6,2.29,0.91,0.62,1.22,0.96,0.87,-0.01,0.53,0,0,-1,0.87,1372,0,94,39,91,994,0.0,170,465,60,118.0,0,1,132,275,15,0,0,0,250,250,0,414.87,,,,,,,,,,,,
90044,1563729745484,7,2.28,0.92,0.62,1.22,0.97,0.88,-0.01,0.56,0,-0,-1,0.88,1474,0,94,39,91,994,0.0,173,466,60,119.0,0,1,8,275,15,0,0,0,250,250,0,882.05,45.747829,4.906568,0.0,193.6,0,0.0,-1,0.0,0.0,0,0.0,1.5007
90064,1563729745504,7,2.29,0.9,0.62,1.23,0.97,0.88,-0.01,0.58,0,-1,-1,0.88,1421,0,94,39,91,995,0.0,171,466,60,119.0,0,1,8,275,15,0,0,0,250,250,0,882.05,,,,,,,,,,,,
90084,1563729745524,8,2.29,0.91,0.61,1.23,0.97,0.87,-0.02,0.59,0,-1,-1,0.87,1471,0,94,39,91,995,0.0,172,467,60,120.0,0,1,8,275,15,0,0,0,250,250,0,882.05,,,,,,,,,,,,
90104,1563729745544,6,2.3,0.91,0.62,1.23,0.96,0.85,-0.02,0.58,0,-2,-1,0.85,1444,0,94,39,91,995,0.0,173,465,60,120.0,0,1,8,275,15,0,0,0,250,250,0,648.46,,,,,,,,,,,,
90124,1563729745564,9,2.29,0.92,0.61,1.22,0.98,0.84,-0.02,0.57,0,-2,-0,0.84,1392,0,94,39,91,995,0.0,171,468,60,120.0,0,1,8,275,15,0,0,0,250,250,0,414.87,,,,,,,,,,,,
90144,1563729745584,10,2.29,0.92,0.61,1.23,0.97,0.83,-0.02,0.54,0,-2,-1,0.83,1392,0,94,39,91,995,0.0,170,464,60,120.0,0,1,8,275,15,0,0,0,250,250,0,414.87,45.747829,4.906568,0.0,193.6,0,0.0,-1,0.0,0.0,0,0.0,1.5024
90164,1563729745604,6,2.29,0.91,0.62,1.22,0.97,0.84,-0.02,0.51,0,-1,-1,0.84,1388,0,94,39,91,995,0.0,170,463,60,121.0,0,1,134,282,15,0,0,0,250,250,0,414.87,,,,,,,,,,,,
90184,1563729745624,6,2.29,0.91,0.62,1.23,0.98,0.83,-0.02,0.49,0,-1,-1,0.83,1325,0,94,39,92,994,0.0,167,470,60,120.0,0,1,8,282,14,0,0,0,250,250,0,414.87,,,,,,,,,,,,
90204,1563729745644,8,2.28,0.92,0.62,1.22,0.97,0.83,-0.02,0.51,0,-1,-1,0.84,1368,0,94,39,92,994,0.0,170,466,60,120.0,0,1,8,282,14,0,0,0,250,250,0,414.87,,,,,,,,,,,,
90224,1563729745664,7,2.28,0.91,0.61,1.23,0.97,0.84,-0.02,0.52,0,-1,-1,0.84,1449,0,94,39,92,994,0.0,170,465,60,120.0,0,1,152,282,14,0,0,0,250,250,0,414.87,,,,,,,,,,,,
90244,1563729745684,7,2.29,0.91,0.61,1.23,0.97,0.82,-0.02,0.52,0,-1,-0,0.82,1376,0,94,39,92,997,0.0,171,465,60,120.0,0,1,8,282,14,0,0,0,250,250,0,414.87,45.747829,4.906568,0.0,193.6,0,0.0,-1,0.0,0.0,0,0.0,1.5041
90264,1563729745704,8,2.28,0.91,0.62,1.23,0.96,0.82,-0.03,0.52,0,-0,-0,0.82,1318,0,94,39,91,1000,0.0,168,469,60,120.0,0,1,8,275,14,0,0,0,250,250,0,414.87,,,,,,,,,,,,
90284,1563729745724,8,2.29,0.91,0.61,1.22,0.96,0.83,-0.03,0.52,0,-1,-0,0.83,1271,0,94,39,91,1003,0.0,166,468,60,119.0,0,1,8,275,14,0,0,0,250,250,0,414.87,,,,,,,,,,,,
90304,1563729745744,6,2.3,0.91,0.62,1.23,0.96,0.82,-0.03,0.54,0,-1,-0,0.82,1264,0,94,39,91,1007,0.0,162,466,60,120.0,0,1,8,275,13,0,0,0,250,250,0,648.46,,,,,,,,,,,,
90324,1563729745764,10,2.29,0.92,0.62,1.22,0.97,0.82,-0.02,0.53,0,-1,-0,0.82,1264,0,94,39,92,1011,0.0,162,466,60,121.0,0,1,8,282,13,0,0,0,250,250,0,414.87,,,,,,,,,,,,
90344,1563729745784,8,2.29,0.92,0.62,1.24,0.97,0.83,-0.03,0.5,-0,-1,-0,0.83,1267,0,94,39,92,1014,0.0,166,467,60,121.0,0,1,8,282,13,0,0,0,250,250,0,414.87,45.747829,4.906568,0.0,193.6,0,0.0,-1,0.0,0.0,0,0.0,1.5057
90364,1563729745806,7,2.28,0.92,0.62,1.23,0.98,0.83,-0.03,0.51,-0,-1,-0,0.83,1278,0,94,39,93,1014,0.0,167,466,60,120.0,0,1,153,290,13,0,0,0,250,250,0,414.87,,,,,,,,,,,,
90384,1563729745826,7,2.28,0.91,0.62,1.24,0.98,0.83,-0.02,0.51,0,-0,-0,0.83,1219,0,94,39,92,1014,0.0,162,468,60,120.0,0,1,8,282,12,0,0,0,250,250,0,414.87,,,,,,,,,,,,
90404,1563729745846,8,2.28,0.93,0.63,1.27,0.98,0.85,-0.02,0.5,-0,-0,-0,0.85,1174,0,94,39,92,1012,0.0,162,466,60,117.0,0,1,8,275,12,0,0,0,250,250,0,882.05,,,,,,,,,,,,
90424,1563729745866,8,2.29,0.93,0.63,1.31,0.99,0.83,-0.03,0.51,-0,-1,-0,0.83,1174,0,94,39,92,1011,0.0,156,468,60,120.0,0,1,9,282,12,0,0,0,250,250,0,414.87,,,,,,,,,,,,
90444,1563729745886,6,2.28,0.93,0.65,1.34,1.0,0.83,-0.02,0.52,0,-1,-0,0.83,1101,0,94,39,94,1008,0.0,157,465,60,120.0,0,1,9,297,12,0,0,0,250,250,0,414.87,45.747829,4.906568,0.0,193.6,0,0.0,-1,0.0,0.0,0,0.0,1.5074
90464,1563729745905,8,2.28,0.94,0.65,1.37,1.01,0.84,-0.02,0.52,0,-1,0,0.84,1041,0,94,39,93,1006,0.0,158,472,60,120.0,0,1,39,282,12,0,0,0,250,250,0,414.87,,,,,,,,,,,,
90484,1563729745925,10,2.28,0.94,0.67,1.44,1.04,0.85,-0.02,0.53,0,-1,-0,0.85,1079,0,94,39,92,1003,0.0,154,465,60,120.0,0,1,123,290,11,0,0,0,250,250,0,414.87,,,,,,,,,,,,
90504,1563729745945,6,2.29,0.97,0.7,1.53,1.1,0.85,-0.01,0.5,0,-1,-0,0.85,1079,0,94,39,94,1000,0.0,155,465,60,120.0,0,1,20,297,11,0,0,0,250,250,0,414.87,,,,,,,,,,,,
90524,1563729745965,7,2.28,0.98,0.74,1.61,1.17,0.85,-0.02,0.5,-0,-0,0,0.85,1109,0,94,39,93,998,0.0,156,465,60,120.0,0,1,11,290,11,0,0,0,250,250,0,414.87,,,,,,,,,,,,
90544,1563729745985,8,2.28,1.02,0.79,1.68,1.25,0.85,-0.02,0.51,0,-0,-0,0.85,1071,0,94,39,93,997,0.0,158,469,60,118.0,0,1,26,290,11,0,0,0,250,250,0,414.87,45.747829,4.906568,0.0,193.6,0,0.0,-1,0.0,0.0,0,0.0,1.5091
90564,1563729745997,9,2.28,1.03,0.81,1.68,1.28,0.83,-0.02,0.52,0,-1,-0,0.83,1071,0,94,39,93,998,0.0,152,466,60,120.0,0,1,136,290,11,0,0,0,250,250,0,414.87,,,,,,,,,,,,
90584,1563729746017,7,2.28,1.03,0.81,1.66,1.27,0.83,-0.03,0.52,0,-1,-0,0.83,1057,0,94,39,94,998,0.0,153,468,60,120.0,0,1,149,297,11,0,0,0,250,250,0,414.87,,,,,,,,,,,,
90604,1563729746037,6,2.29,1.02,0.81,1.64,1.27,0.83,-0.03,0.52,0,-2,-0,0.84,978,0,94,39,93,999,0.0,155,471,60,119.0,0,1,72,290,11,0,0,0,250,250,0,414.87,,,,,,,,,,,,
90624,1563729746057,8,2.29,1.02,0.8,1.63,1.25,0.83,-0.03,0.53,0,-2,-0,0.83,978,0,94,39,94,1001,0.0,151,466,60,120.0,0,1,145,297,11,0,0,0,250,250,0,181.28,,,,,,,,,,,,
90644,1563729746077,6,2.28,1.02,0.8,1.61,1.24,0.84,-0.03,0.52,0,-2,-0,0.84,1042,0,94,39,94,1003,0.0,155,470,60,120.0,0,1,43,297,11,0,0,0,250,250,0,414.87,45.747829,4.906568,0.0,193.6,0,0.0,-1,0.0,0.0,0,0.0,1.5107
90664,1563729746105,8,2.28,1.02,0.79,1.6,1.23,0.84,-0.02,0.52,0,-2,-0,0.84,1078,0,94,39,93,1004,0.0,156,471,60,119.0,0,1,25,290,11,0,0,0,250,250,0,414.87,,,,,,,,,,,,
90684,1563729746125,9,2.29,1.01,0.79,1.58,1.23,0.85,-0.02,0.52,0,-2,-0,0.85,1033,0,94,39,93,1006,0.0,151,464,60,120.0,0,1,48,290,11,0,0,0,250,250,0,414.87,,,,,,,,,,,,
90704,1563729746145,7,2.29,1.01,0.78,1.58,1.22,0.85,-0.02,0.5,0,-2,-0,0.86,1033,0,94,39,94,1006,0.0,155,465,60,120.0,0,1,48,297,11,0,0,0,250,250,0,414.87,,,,,,,,,,,,
90724,1563729746165,7,2.28,1.01,0.78,1.57,1.21,0.85,-0.02,0.51,0,-2,-0,0.85,1164,0,94,39,94,1005,0.0,159,468,60,120.0,0,1,15,297,11,0,0,0,250,250,0,414.87,,,,,,,,,,,,
90744,1563729746185,6,2.29,1.0,0.78,1.56,1.22,0.84,-0.02,0.52,0,-2,-0,0.85,1153,0,94,39,93,1005,0.0,158,475,60,120.0,0,1,15,290,11,0,0,0,250,250,0,414.87,45.747829,4.906568,0.0,193.6,0,0.0,-1,0.0,0.0,0,0.0,1.5124
90764,1563729746205,6,2.29,1.01,0.77,1.55,1.2,0.85,-0.02,0.53,-0,-2,-0,0.85,1158,0,94,39,93,1005,0.0,158,465,60,118.0,0,1,143,290,11,0,0,0,250,250,0,882.05,,,,,,,,,,,,
90784,1563729746225,11,2.28,1.01,0.77,1.55,1.2,0.83,-0.02,0.53,-0,-3,-0,0.83,1158,0,94,39,92,1005,0.0,160,466,60,121.0,0,1,140,290,11,0,0,0,250,250,0,414.87,,,,,,,,,,,,
90804,1563729746245,7,2.29,1.0,0.77,1.54,1.2,0.83,-0.02,0.52,-0,-3,-0,0.83,1293,0,94,39,93,1003,0.0,162,467,60,120.0,0,1,15,290,13,0,0,0,250,250,0,414.87,,,,,,,,,,,,
90824,1563729746265,7,2.29,1.0,0.76,1.53,1.2,0.83,-0.02,0.52,-0,-3,-0,0.83,1177,0,94,39,93,1002,0.0,159,468,60,120.0,0,1,16,290,13,0,0,0,250,250,0,414.87,,,,,,,,,,,,
90844,1563729746285,7,2.29,1.0,0.76,1.53,1.19,0.82,-0.02,0.53,-0,-2,-0,0.82,1196,0,94,39,93,1000,0.0,162,470,60,121.0,0,1,16,290,13,0,0,0,250,250,0,414.87,45.747829,4.906568,0.0,193.6,0,0.0,-1,0.0,0.0,0,0.0,1.5141
90864,1563729746305,7,2.29,1.0,0.76,1.52,1.18,0.84,-0.02,0.53,-0,-2,-0,0.84,1279,0,94,39,92,999,0.0,162,471,60,120.0,0,1,16,282,13,0,0,0,250,250,0,414.87,,,,,,,,,,,,
90884,1563729746325,5,2.29,0.99,0.75,1.51,1.19,0.84,-0.03,0.53,-0,-2,-0,0.84,1279,0,94,39,92,996,0.0,162,470,60,120.0,0,1,16,282,13,0,0,0,250,250,0,648.46,,,,,,,,,,,,
90904,1563729746345,7,2.29,1.0,0.75,1.51,1.18,0.83,-0.02,0.54,-0,-3,-1,0.83,1426,0,94,39,92,994,0.0,167,466,60,120.0,0,1,16,282,13,0,0,0,250,250,0,648.46,,,,,,,,,,,,
90924,1563729746365,9,2.29,1.0,0.75,1.51,1.18,0.83,-0.02,0.54,-0,-4,-0,0.83,1421,0,94,39,92,992,0.0,169,466,60,121.0,0,1,150,282,13,0,0,0,250,250,0,414.87,,,,,,,,,,,,
90944,1563729746385,8,2.29,0.99,0.75,1.5,1.18,0.81,-0.02,0.52,-0,-4,-1,0.81,1421,0,94,39,92,991,0.0,169,464,60,120.0,0,1,16,282,13,0,0,0,250,250,0,414.87,45.747829,4.906568,0.0,193.6,0,0.0,-1,0.0,0.0,0,0.0,1.5157
90964,1563729746405,6,2.29,0.99,0.75,1.5,1.17,0.81,-0.02,0.49,-0,-3,-1,0.81,1344,0,94,39,92,989,0.0,170,468,60,120.0,0,1,16,282,13,0,0,0,250,250,0,414.87,,,,,,,,,,,,
90984,1563729746425,7,2.28,1.0,0.74,1.5,1.17,0.81,-0.02,0.47,-0,-3,-1,0.81,1335,0,94,39,93,986,0.0,170,468,60,120.0,0,1,16,290,13,0,0,0,250,250,0,414.87,,,,,,,,,,,,
91004,1563729746445,7,2.28,1.0,0.75,1.49,1.17,0.8,-0.01,0.47,-0,-2,-1,0.8,1263,0,94,39,92,984,0.0,166,462,60,120.0,0,1,16,282,14,0,0,0,250,250,0,414.87,,,,,,,,,,,,
91024,1563729746465,7,2.28,1.0,0.74,1.48,1.17,0.79,-0.01,0.46,-0,-1,-1,0.79,1336,0,94,39,92,982,0.0,165,471,60,120.0,0,1,16,282,14,0,0,0,250,250,0,414.87,,,,,,,,,,,,
91044,1563729746485,6,2.29,0.99,0.74,1.48,1.16,0.82,-0.01,0.47,-0,-1,-0,0.82,1399,0,94,39,92,980,0.0,166,471,60,120.0,0,1,16,282,14,0,0,0,250,250,0,414.87,45.747829,4.906568,0.0,193.6,0,0.0,-1,0.0,0.0,0,0.0,1.5174
91064,1563729746505,7,2.28,0.99,0.74,1.48,1.16,0.84,-0.01,0.49,-0,-0,-1,0.84,1390,0,94,39,92,979,0.0,167,470,60,120.0,0,1,148,282,14,0,0,0,250,250,0,414.87,,,,,,,,,,,,
91084,1563729746525,7,2.28,0.99,0.74,1.48,1.16,0.87,-0.01,0.51,-0,0,-1,0.87,1411,0,94,39,91,977,0.0,169,468,60,118.0,0,1,16,275,14,0,0,0,250,250,0,181.28,,,,,,,,,,,,
91104,1563729746545,6,2.29,0.99,0.74,1.47,1.16,0.89,-0.01,0.52,-0,-0,-1,0.89,1316,0,94,39,91,978,0.0,167,465,60,119.0,0,1,16,275,14,0,0,0,250,250,0,882.05,,,,,,,,,,,,
91124,1563729746565,7,2.28,0.99,0.74,1.47,1.16,0.89,-0.01,0.53,-0,-1,-1,0.89,1316,0,94,39,92,978,0.0,164,467,60,120.0,0,1,16,282,14,0,0,0,250,250,0,414.87,,,,,,,,,,,,
91144,1563729746585,5,2.29,0.98,0.73,1.47,1.16,0.9,-0.01,0.52,-0,-2,-1,0.9,1208,0,94,39,93,979,0.0,164,467,60,120.0,0,1,16,290,14,0,0,0,250,250,0,414.87,45.747829,4.906568,0.0,193.6,0,0.0,-1,0.0,0.0,0,0.0,1.5191
91164,1563729746605,7,2.28,0.99,0.73,1.46,1.15,0.88,-0.02,0.52,-0,-2,-1,0.88,1168,0,94,39,93,978,0.0,160,463,60,120.0,0,1,16,290,14,0,0,0,250,250,0,414.87,,,,,,,,,,,,
91184,1563729746625,7,2.28,0.98,0.73,1.46,1.16,0.87,-0.02,0.53,-0,-1,-1,0.87,1281,0,94,39,93,978,0.0,162,472,60,121.0,0,1,16,282,13,0,0,0,250,250,0,414.87,,,,,,,,,,,,
91204,1563729746645,6,2.29,0.99,0.73,1.46,1.15,0.89,-0.02,0.54,-0,-1,-1,0.89,1429,0,94,39,92,977,0.0,165,470,60,120.0,0,1,16,282,13,0,0,0,250,250,0,414.87,,,,,,,,,,,,
91224,1563729746665,7,2.28,0.99,0.73,1.46,1.15,0.91,-0.02,0.56,-0,-0,-1,0.91,1414,0,94,39,92,977,0.0,169,468,60,120.0,0,1,150,275,13,0,0,0,250,250,0,414.87,,,,,,,,,,,,
91244,1563729746685,7,2.28,0.99,0.73,1.45,1.15,0.92,-0.02,0.58,-0,-1,-1,0.92,1366,0,94,39,91,976,0.0,170,465,60,118.0,0,1,15,275,13,0,0,0,250,250,0,414.87,45.747829,4.906568,0.0,193.6,0,0.0,-1,0.0,0.0,0,0.0,1.5207
91264,1563729746705,8,2.29,0.99,0.74,1.45,1.15,0.93,-0.02,0.58,-0,-1,-1,0.93,1245,0,94,39,91,977,0.0,166,466,60,120.0,0,1,122,275,13,0,0,0,250,250,0,414.87,,,,,,,,,,,,
91284,1563729746725,5,2.28,0.99,0.73,1.45,1.14,0.93,-0.02,0.57,-0,-2,-1,0.93,1245,0,94,39,92,977,0.0,163,465,60,120.0,0,1,15,282,13,0,0,0,250,250,0,414.87,,,,,,,,,,,,
91304,1563729746745,5,2.29,0.99,0.73,1.45,1.14,0.92,-0.02,0.57,-0,-2,-1,0.92,1170,0,94,39,93,978,0.0,161,470,60,120.0,0,1,15,290,13,0,0,0,250,250,0,414.87,,,,,,,,,,,,
91324,1563729746765,6,2.28,0.98,0.73,1.45,1.14,0.91,-0.02,0.58,-0,-2,-1,0.91,1181,0,94,39,93,980,0.0,159,467,60,120.0,0,1,15,282,13,0,0,0,250,250,0,414.87,,,,,,,,,,,,
91344,1563729746785,6,2.29,0.99,0.73,1.45,1.15,0.93,-0.01,0.58,-0,-3,-1,0.93,1241,0,94,39,92,981,0.0,163,465,60,120.0,0,1,15,282,13,0,0,0,250,250,0,414.87,45.747829,4.906568,0.0,193.6,0,0.0,-1,0.0,0.0,0,0.0,1.5224
91364,1563729746805,7,2.28,0.99,0.73,1.44,1.14,0.92,-0.02,0.59,-0,-3,-1,0.93,1393,0,94,39,91,983,0.0,167,470,60,119.0,0,1,15,275,13,0,0,0,250,250,0,882.05,,,,,,,,,,,,
91384,1563729746825,5,2.29,0.99,0.73,1.44,1.13,0.92,-0.02,0.62,-0,-4,-2,0.92,1457,0,94,39,91,987,0.0,172,463,60,118.0,0,1,139,275,15,0,0,0,250,250,0,1115.64,,,,,,,,,,,,
91404,1563729746845,10,2.29,0.99,0.73,1.45,1.14,0.91,-0.02,0.62,-0,-5,-1,0.91,1366,0,94,39,91,992,0.0,170,467,60,120.0,0,1,15,275,15,0,0,0,250,250,0,648.46,,,,,,,,,,,,
91424,1563729746865,8,2.29,0.99,0.72,1.44,1.13,0.89,-0.02,0.61,-0,-5,-2,0.89,1366,0,94,39,92,995,0.0,168,464,60,120.0,0,1,146,282,15,0,0,0,250,250,0,414.87,,,,,,,,,,,,
91444,1563729746885,7,2.28,0.99,0.73,1.44,1.14,0.88,-0.02,0.59,-0,-5,-2,0.88,1259,0,94,39,93,998,0.0,165,468,60,120.0,0,1,15,290,15,0,0,0,250,250,0,414.87,45.747829,4.906568,0.0,193.6,0,0.0,-1,0.0,0.0,0,0.0,1.5241
91464,1563729746904,5,2.29,0.98,0.73,1.44,1.14,0.85,-0.02,0.58,-0,-4,-1,0.85,1171,0,94,39,92,1002,0.0,161,461,60,120.0,0,1,15,282,15,0,0,0,250,250,0,414.87,,,,,,,,,,,,
91484,1563729746924,5,2.29,0.99,0.73,1.43,1.14,0.85,-0.02,0.58,-0,-4,-2,0.85,1235,0,94,39,92,1008,0.0,161,475,60,120.0,0,1,15,282,13,0,0,0,250,250,0,414.87,,,,,,,,,,,,
91504,1563729746944,5,2.29,0.98,0.73,1.43,1.14,0.87,-0.03,0.59,-0,-4,-1,0.87,1358,0,94,39,91,1012,0.0,167,461,60,120.0,0,1,15,275,13,0,0,0,250,250,0,414.87,,,,,,,,,,,,
91524,1563729746964,5,2.29,0.98,0.73,1.43,1.13,0.87,-0.03,0.6,-0,-4,-2,0.87,1401,0,94,39,91,1014,0.0,169,467,60,118.0,0,1,14,275,13,0,0,0,250,250,0,882.05,,,,,,,,,,,,
91544,1563729746984,6,2.29,0.99,0.73,1.43,1.14,0.88,-0.03,0.63,-0,-5,-1,0.88,1405,0,94,39,91,1016,0.0,171,465,60,119.0,0,1,14,275,13,0,0,0,250,250,0,882.05,45.747829,4.906568,0.0,193.6,0,0.0,-1,0.0,0.0,0,0.0,1.5257
91564,1563729746998,9,2.28,0.99,0.72,1.43,1.13,0.87,-0.04,0.63,-0,-6,-1,0.87,1318,0,94,39,91,1018,0.0,167,466,60,120.0,0,1,14,275,13,0,0,0,250,250,0,414.87,,,,,,,,,,,,
91584,1563729747018,7,2.29,0.99,0.72,1.42,1.14,0.86,-0.03,0.61,-0,-7,-1,0.86,1318,0,94,39,92,1018,0.0,165,466,60,120.0,0,1,14,282,14,0,0,0,250,250,0,414.87,,,,,,,,,,,,
91604,1563729747038,7,2.29,0.98,0.72,1.43,1.13,0.84,-0.03,0.6,-0,-7,-1,0.84,1195,0,94,39,93,1017,0.0,161,469,60,120.0,0,1,14,290,14,0,0,0,250,250,0,414.87,,,,,,,,,,,,
91624,1563729747058,7,2.29,0.99,0.72,1.43,1.13,0.84,-0.03,0.59,-0,-6,-1,0.84,1108,0,94,39,92,1015,0.0,160,468,60,119.0,0,1,15,282,14,0,0,0,250,250,0,414.87,,,,,,,,,,,,
91644,1563729747078,5,2.29,0.99,0.72,1.43,1.13,0.85,-0.02,0.58,-0,-6,-1,0.85,1137,0,94,39,92,1013,0.0,156,465,60,121.0,0,1,15,282,14,0,0,0,250,250,0,648.46,45.747829,4.906568,0.0,193.6,0,0.0,-1,0.0,0.0,0,0.0,1.5274
91664,1563729747104,7,2.29,0.98,0.72,1.42,1.13,0.84,-0.03,0.56,-0,-6,-1,0.84,1137,0,94,39,93,1011,0.0,158,464,60,121.0,0,1,15,290,14,0,0,0,250,250,0,414.87,,,,,,,,,,,,
91684,1563729747124,6,2.29,0.99,0.72,1.43,1.13,0.85,-0.02,0.53,-0,-5,-1,0.85,1299,0,94,39,93,1009,0.0,164,470,60,120.0,0,1,154,290,14,0,0,0,250,250,0,414.87,,,,,,,,,,,,
91704,1563729747144,6,2.28,0.99,0.72,1.42,1.13,0.85,-0.02,0.49,-0,-4,-1,0.85,1369,0,94,39,93,1008,0.0,165,467,60,120.0,0,1,15,290,14,0,0,0,250,250,0,414.87,,,,,,,,,,,,
91724,1563729747164,6,2.28,0.98,0.72,1.42,1.12,0.85,-0.01,0.5,-0,-4,-1,0.85,1298,0,94,39,93,1007,0.0,165,463,60,120.0,0,1,15,290,14,0,0,0,250,250,0,414.87,,,,,,,,,,,,
91744,1563729747184,7,2.28,0.98,0.72,1.42,1.12,0.85,-0.01,0.49,-0,-4,-1,0.85,1216,0,94,39,92,1006,0.0,162,468,60,119.0,0,1,15,282,14,0,0,0,250,250,0,414.87,45.747829,4.906568,0.0,193.6,0,0.0,-1,0.0,0.0,0,0.0,1.5291
91764,1563729747204,6,2.28,0.98,0.72,1.41,1.12,0.86,-0.02,0.48,-0,-3,-0,0.86,1088,0,94,39,92,1007,0.0,159,460,60,119.0,0,1,124,282,14,0,0,0,250,250,0,414.87,,,,,,,,,,,,
91784,1563729747224,7,2.28,0.99,0.72,1.41,1.13,0.85,-0.02,0.47,-0,-3,-1,0.85,1088,0,94,39,94,1008,0.0,155,466,60,120.0,0,1,21,297,12,0,0,0,250,250,0,414.87,,,,,,,,,,,,
91804,1563729747244,6,2.29,0.98,0.72,1.42,1.12,0.84,-0.01,0.48,-0,-2,-0,0.84,1079,0,94,39,94,1009,0.0,158,466,60,120.0,0,1,26,297,12,0,0,0,250,250,0,181.28,,,,,,,,,,,,
91824,1563729747264,5,2.28,0.99,0.72,1.41,1.12,0.84,-0.01,0.49,-0,-2,-0,0.84,1174,0,94,39,93,1010,0.0,159,473,60,120.0,0,1,144,282,12,0,0,0,250,250,0,414.87,,,,,,,,,,,,
91844,1563729747284,6,2.28,0.99,0.72,1.42,1.12,0.86,-0.01,0.5,-0,-2,-0,0.86,1202,0,94,39,92,1010,0.0,160,466,60,120.0,0,1,16,282,12,0,0,0,250,250,0,648.46,45.747829,4.906568,0.0,193.6,0,0.0,-1,0.0,0.0,0,0.0,1.5307
91864,1563729747304,9,2.29,0.99,0.71,1.42,1.12,0.84,-0.02,0.51,-0,-2,-0,0.84,1312,0,94,39,92,1009,0.0,161,465,60,121.0,0,1,16,282,12,0,0,0,250,250,0,414.87,,,,,,,,,,,,
91884,1563729747324,5,2.28,0.99,0.72,1.41,1.12,0.84,-0.01,0.5,-0,-2,-0,0.84,1312,0,94,39,93,1007,0.0,162,467,60,120.0,0,1,16,290,12,0,0,0,250,250,0,414.87,,,,,,,,,,,,
91904,1563729747344,6,2.28,0.99,0.72,1.41,1.12,0.85,-0.01,0.48,-0,-2,-0,0.85,1278,0,94,39,93,1005,0.0,162,469,60,120.0,0,1,16,290,14,0,0,0,250,250,0,414.87,,,,,,,,,,,,
91924,1563729747364,6,2.28,0.98,0.7,1.4,1.12,0.82,-0.01,0.49,-0,-1,-0,0.82,1204,0,94,39,93,1003,0.0,162,463,60,120.0,0,1,17,290,14,0,0,0,250,250,0,414.87,,,,,,,,,,,,
91944,1563729747384,6,2.28,0.98,0.72,1.41,1.11,0.83,-0.01,0.49,-0,-1,-0,0.83,1159,0,94,39,92,1002,0.0,162,474,60,119.0,0,1,17,282,14,0,0,0,250,250,0,414.87,45.747829,4.906568,0.0,193.6,0,0.0,-1,0.0,0.0,0,0.0,1.5324
91964,1563729747404,8,2.28,0.99,0.71,1.41,1.12,0.83,-0.02,0.49,-0,-1,0,0.83,1159,0,94,39,93,1001,0.0,156,465,60,120.0,0,1,17,290,14,0,0,0,250,250,0,414.87,,,,,,,,,,,,
91984,1563729747424,6,2.28,0.99,0.72,1.41,1.12,0.83,-0.01,0.49,-0,-1,-1,0.83,1074,0,94,39,94,1001,0.0,156,467,60,120.0,0,1,150,297,12,0,0,0,250,250,0,414.87,,,,,,,,,,,,
92004,1563729747444,4,2.3,0.98,0.71,1.4,1.12,0.83,-0.01,0.48,-0,-1,0,0.83,1122,0,94,39,93,1003,0.0,159,468,60,120.0,0,1,17,290,12,0,0,0,250,250,0,414.87,,,,,,,,,,,,
92024,1563729747464,6,2.29,0.99,0.71,1.41,1.11,0.84,-0.01,0.48,-0,-0,-0,0.84,1204,0,94,39,92,1004,0.0,161,466,60,118.0,0,1,18,282,12,0,0,0,250,250,0,414.87,,,,,,,,,,,,
92044,1563729747484,9,2.29,0.99,0.72,1.41,1.12,0.85,-0.01,0.49,-0,-0,0,0.85,1203,0,94,39,92,1006,0.0,157,467,60,120.0,0,1,18,282,12,0,0,0,250,250,0,648.46,45.747829,4.906568,0.0,193.6,0,0.0,-1,0.0,0.0,0,0.0,1.5341
92064,1563729747504,6,2.28,0.98,0.72,1.4,1.11,0.84,-0.01,0.49,-0,-0,-0,0.84,1203,0,94,39,92,1007,0.0,159,463,60,120.0,0,1,18,290,12,0,0,0,250,250,0,414.87,,,,,,,,,,,,
92084,1563729747524,6,2.28,0.98,0.71,1.41,1.11,0.85,-0.01,0.48,-0,-0,0,0.85,1260,0,94,39,93,1008,0.0,161,470,60,120.0,0,1,18,290,13,0,0,0,250,250,0,414.87,,,,,,,,,,,,
92104,1563729747544,6,2.28,0.99,0.71,1.41,1.12,0.84,-0.02,0.49,-0,-0,-0,0.84,1198,0,94,39,93,1008,0.0,162,463,60,120.0,0,1,18,290,13,0,0,0,250,250,0,414.87,,,,,,,,,,,,
92124,1563729747564,5,2.29,0.99,0.71,1.4,1.11,0.84,-0.02,0.5,-0,0,-0,0.84,1170,0,94,39,92,1006,0.0,161,473,60,120.0,0,1,19,282,13,0,0,0,250,250,0,414.87,,,,,,,,,,,,
92144,1563729747584,6,2.29,0.98,0.71,1.41,1.11,0.85,-0.02,0.5,-0,-0,0,0.85,1168,0,94,39,92,1004,0.0,158,468,60,120.0,0,1,19,282,13,0,0,0,250,250,0,414.87,45.747829,4.906568,0.0,193.6,0,0.0,-1,0.0,0.0,0,0.0,1.5357
92164,1563729747604,4,2.29,0.99,0.71,1.4,1.12,0.84,-0.02,0.5,-0,0,-0,0.84,1168,0,94,39,93,1002,0.0,157,462,60,120.0,0,1,19,290,13,0,0,0,250,250,0,414.87,,,,,,,,,,,,
92184,1563729747624,4,2.29,0.98,0.72,1.4,1.11,0.85,-0.02,0.5,0,-0,0,0.85,1129,0,94,39,93,999,0.0,159,468,60,120.0,0,1,141,290,12,0,0,0,250,250,0,414.87,,,,,,,,,,,,
92204,1563729747644,5,2.28,0.99,0.71,1.4,1.11,0.82,-0.01,0.5,0,0,0,0.82,1241,0,94,39,93,996,0.0,162,472,60,120.0,0,1,19,290,12,0,0,0,250,250,0,414.87,,,,,,,,,,,,
92224,1563729747664,4,2.29,0.98,0.71,1.4,1.12,0.84,-0.01,0.52,0,0,0,0.84,1270,0,94,39,92,993,0.0,164,470,60,119.0,0,1,138,282,12,0,0,0,250,250,0,414.87,,,,,,,,,,,,
92244,1563729747684,5,2.28,0.99,0.71,1.4,1.11,0.84,-0.02,0.52,-0,0,0,0.84,1236,0,94,39,92,991,0.0,160,467,60,120.0,0,1,20,282,12,0,0,0,250,250,0,648.46,45.747829,4.906568,0.0,193.6,0,0.0,-1,0.0,0.0,0,0.0,1.5374
92264,1563729747704,8,2.29,0.98,0.71,1.39,1.12,0.82,-0.01,0.54,-0,-0,-0,0.82,1236,0,94,39,92,991,0.0,163,463,60,120.0,0,1,20,282,12,0,0,0,250,250,0,414.87,,,,,,,,,,,,
92284,1563729747724,4,2.28,0.98,0.71,1.39,1.11,0.82,-0.02,0.53,-0,-0,0,0.82,1314,6,94,39,93,990,0.0,162,465,60,120.0,0,1,20,500,24,0,0,0,250,250,0,414.87,,,,,,,,,,,,
92304,1563729747744,5,2.28,0.98,0.71,1.39,1.12,0.81,-0.01,0.53,-0,-0,0,0.81,1192,9,94,39,93,989,0.0,162,466,60,120.0,0,1,146,493,24,0,0,0,250,250,0,181.28,,,,,,,,,,,,
92324,1563729747764,5,2.28,0.99,0.71,1.39,1.1,0.79,-0.01,0.55,-0,-0,-0,0.79,1194,11,94,39,93,989,0.0,164,473,60,120.0,0,1,146,217,24,0,0,0,250,250,0,414.87,,,,,,,,,,,,
92344,1563729747784,5,2.28,0.98,0.7,1.4,1.11,0.81,-0.01,0.55,-0,-0,1,0.81,1285,13,94,39,93,988,0.0,166,469,60,119.0,0,1,153,487,24,0,0,0,250,250,0,414.87,45.747829,4.906568,0.0,193.6,0,0.0,-1,0.0,0.0,0,0.0,1.5391
92364,1563729747802,4,2.29,0.98,0.71,1.39,1.12,0.82,-0.02,0.56,-0,-0,0,0.82,1299,14,94,39,93,987,0.0,163,462,60,119.0,0,1,154,217,24,0,0,0,250,250,0,882.05,,,,,,,,,,,,
92384,1563729747822,3,2.29,0.98,0.71,1.39,1.11,0.82,-0.01,0.57,-0,-1,-0,0.82,1450,15,94,39,93,987,0.0,166,462,60,120.0,0,1,167,217,24,0,0,0,250,250,0,882.05,,,,,,,,,,,,
92404,1563729747842,4,2.28,0.98,0.71,1.39,1.11,0.82,-0.02,0.57,-0,-2,0,0.82,1439,17,93,39,94,986,0.0,173,464,60,118.0,0,1,180,224,26,0,0,0,250,250,0,882.05,,,,,,,,,,,,
92424,1563729747862,5,2.28,0.98,0.71,1.39,1.11,0.8,-0.02,0.57,-0,-3,-0,0.81,1439,18,94,39,94,985,0.0,172,466,60,119.0,0,1,177,224,26,0,0,0,250,250,0,882.05,,,,,,,,,,,,
92444,1563729747882,5,2.29,0.98,0.71,1.39,1.11,0.79,-0.02,0.55,-0,-4,-1,0.8,1477,21,94,39,95,985,0.0,175,467,60,118.0,0,1,196,231,26,0,0,0,250,250,0,882.05,45.747829,4.906568,0.0,193.6,0,0.0,-1,0.0,0.0,0,0.0,1.5407
92464,1563729747906,5,2.29,0.99,0.71,1.4,1.11,0.78,-0.02,0.52,-0,-3,-1,0.78,1477,23,94,39,95,986,0.0,174,463,60,120.0,0,1,196,494,26,0,0,0,250,250,0,648.46,,,,,,,,,,,,
92484,1563729747926,3,2.29,0.98,0.71,1.39,1.11,0.77,-0.03,0.49,-0,-3,-1,0.77,1644,25,93,39,95,986,0.0,181,465,60,118.0,0,1,198,498,31,0,0,0,250,250,0,882.05,,,,,,,,,,,,
92504,1563729747946,5,2.28,0.99,0.71,1.39,1.11,0.78,-0.02,0.49,-0,-4,-1,0.78,1756,27,93,39,95,987,0.0,184,461,60,118.0,0,1,198,235,31,0,0,0,250,250,0,414.87,,,,,,,,,,,,
92524,1563729747966,3,2.29,0.98,0.71,1.39,1.11,0.76,-0.02,0.47,-0,-3,-2,0.76,1882,27,94,39,96,988,0.0,187,478,60,121.0,0,1,212,246,31,0,0,0,250,250,0,414.87,,,,,,,,,,,,
92544,1563729747986,7,2.29,0.98,0.71,1.39,1.11,0.75,-0.02,0.49,-0,-3,-1,0.75,1906,28,94,39,96,988,0.0,194,463,60,121.0,0,1,212,506,31,0,0,0,250,250,0,414.87,45.747829,4.906568,0.0,193.6,0,0.0,-1,0.0,0.0,0,0.0,1.5424
92564,1563729747999,5,2.28,0.99,0.71,1.39,1.11,0.76,-0.02,0.46,-0,-3,-1,0.76,2024,28,93,39,95,988,0.0,204,464,60,118.0,0,1,198,488,31,0,0,0,250,250,0,414.87,,,,,,,,,,,,
92584,1563729748019,5,2.28,0.99,0.71,1.39,1.1,0.75,-0.01,0.44,-0,-2,-1,0.75,2071,28,94,39,95,987,0.0,199,472,60,120.0,0,1,198,240,31,0,0,0,250,250,0,414.87,,,,,,,,,,,,
92604,1563729748039,5,2.28,0.99,0.71,1.39,1.11,0.76,-0.02,0.42,-0,-1,-1,0.76,2268,28,94,39,95,986,0.0,217,466,60,119.0,0,1,198,243,38,0,0,0,250,250,0,882.05,,,,,,,,,,,,
92624,1563729748059,8,2.29,0.98,0.71,1.39,1.11,0.74,-0.01,0.45,0,-0,-2,0.74,2376,28,94,39,94,984,0.0,218,470,60,121.0,0,1,185,465,38,0,0,0,250,250,0,414.87,,,,,,,,,,,,
92644,1563729748079,5,2.28,0.99,0.71,1.39,1.11,0.78,0.01,0.44,0,-1,-0,0.78,2572,28,93,39,93,982,0.0,228,467,60,121.0,0,1,175,244,38,0,0,0,250,250,0,414.87,45.747829,4.906568,0.0,193.6,0,0.0,-1,0.0,0.0,0,0.0,1.5441
92664,1563729748103,4,2.29,0.99,0.71,1.39,1.1,0.8,-0.02,0.41,0,-3,-0,0.8,2814,20,93,39,92,980,0.0,247,464,60,120.0,0,1,180,614,38,0,0,0,250,250,0,414.87,,,,,,,,,,,,
92684,1563729748123,5,2.29,0.99,0.71,1.39,1.11,0.76,-0.03,0.5,-0,-6,-0,0.77,2949,14,94,39,89,976,0.0,259,466,60,119.0,0,1,174,511,57,0,0,0,250,250,0,414.87,,,,,,,,,,,,
92704,1563729748143,4,2.29,0.98,0.71,1.39,1.1,0.68,-0.07,0.64,-0,-8,0,0.69,3228,8,94,39,86,965,0.0,272,470,60,121.0,0,1,180,242,57,0,0,0,250,250,0,414.87,,,,,,,,,,,,
92724,1563729748163,8,2.29,0.99,0.71,1.38,1.11,0.63,-0.1,0.74,-0,-12,1,0.64,3451,5,94,39,83,954,0.0,290,479,60,121.0,0,1,0,553,57,0,0,0,250,250,0,414.87,,,,,,,,,,,,
92744,1563729748183,4,2.27,0.98,0.71,1.38,1.1,0.65,-0.08,0.7,-0,-12,0,0.65,3712,0,94,39,79,943,0.0,313,463,60,119.0,0,1,186,249,57,0,0,346,250,250,0,648.46,45.747829,4.906568,0.0,193.6,0,0.0,-1,0.0,0.0,0,0.0,1.5457
92764,1563729748203,8,2.28,0.99,0.71,1.39,1.11,0.66,-0.1,0.73,-0,-12,0,0.67,3714,0,94,39,76,931,0.0,323,481,60,121.0,0,1,185,477,57,0,0,346,250,250,0,414.87,,,,,,,,,,,,
92784,1563729748223,5,2.29,0.99,0.71,1.39,1.1,0.69,-0.06,0.67,-0,-10,0,0.69,3871,0,94,39,73,915,0.0,331,463,60,119.0,0,1,188,468,68,0,0,346,250,250,0,882.05,,,,,,,,,,,,
92804,1563729748243,5,2.29,0.98,0.71,1.39,1.11,0.72,-0.08,0.66,-0,-12,1,0.73,3967,0,94,39,71,898,0.0,347,476,60,120.0,0,1,190,463,68,0,0,45,250,250,0,414.87,,,,,,,,,,,,
92824,1563729748263,7,2.29,0.98,0.71,1.39,1.1,0.7,-0.07,0.64,-0,-9,0,0.7,3881,0,93,39,69,891,0.0,351,464,60,120.0,0,1,187,214,68,0,0,413,250,250,0,414.87,,,,,,,,,,,,
92844,1563729748283,5,2.29,0.98,0.71,1.38,1.11,0.72,-0.07,0.62,-0,-10,1,0.72,3773,0,94,39,67,885,0.0,343,471,60,119.0,0,1,181,405,68,0,0,413,250,250,0,648.46,45.747829,4.906568,0.0,193.6,0,0.0,-1,0.0,0.0,0,0.0,1.5474
92864,1563729748303,5,2.28,0.99,0.71,1.39,1.11,0.72,-0.06,0.58,-0,-7,0,0.73,3605,0,93,39,66,880,0.0,333,456,60,119.0,0,1,174,189,68,0,0,413,250,250,0,414.87,,,,,,,,,,,,
92884,1563729748323,8,2.29,0.98,0.71,1.39,1.11,0.71,-0.09,0.62,-0,-9,1,0.71,3502,0,94,39,65,876,0.0,317,478,60,121.0,0,1,167,361,47,0,0,413,250,250,0,414.87,,,,,,,,,,,,
92904,1563729748343,4,2.3,0.98,0.71,1.38,1.1,0.75,-0.05,0.58,-0,-10,1,0.75,3397,0,94,39,66,878,0.0,309,458,60,120.0,0,1,0,361,47,0,0,413,250,250,0,648.46,,,,,,,,,,,,
92924,1563729748363,5,2.29,0.98,0.71,1.38,1.11,0.77,-0.03,0.5,-0,-5,-0,0.77,3236,0,94,39,66,880,0.0,304,458,60,119.0,0,1,0,355,47,0,0,413,250,250,0,882.05,,,,,,,,,,,,
92944,1563729748383,5,2.29,0.98,0.7,1.38,1.1,0.77,-0.03,0.47,-0,1,-1,0.77,3120,0,94,39,66,874,0.0,295,461,60,119.0,0,1,171,350,47,0,0,413,250,250,0,882.05,45.747829,4.906568,0.0,193.6,0,0.0,-1,0.0,0.0,0,0.0,1.5491
92964,1563729748405,5,2.28,0.98,0.7,1.38,1.1,0.72,-0.03,0.52,-0,4,-1,0.72,3003,0,94,39,67,868,0.0,286,467,60,118.0,0,1,175,349,47,0,0,413,250,250,0,882.05,,,,,,,,,,,,
92984,1563729748425,5,2.28,0.98,0.7,1.38,1.11,0.65,-0.03,0.59,-0,7,-2,0.65,2880,0,94,39,68,860,0.0,280,463,60,119.0,0,1,175,348,38,0,0,413,250,250,0,882.05,,,,,,,,,,,,
93004,1563729748445,4,2.29,0.98,0.71,1.38,1.1,0.6,-0.03,0.66,-0,10,-2,0.6,2750,0,94,39,69,853,0.0,265,464,60,120.0,0,1,0,341,38,0,0,413,250,250,0,648.46,,,,,,,,,,,,
93024,1563729748465,6,2.29,0.98,0.7,1.37,1.11,0.57,-0.01,0.68,-0,14,-3,0.57,2683,0,94,39,70,841,0.0,257,467,60,121.0,0,1,0,333,38,0,0,413,250,250,0,414.87,,,,,,,,,,,,
93044,1563729748485,5,2.28,0.99,0.7,1.38,1.1,0.65,-0.01,0.67,-0,14,-2,0.66,2545,0,94,39,70,828,0.0,245,473,60,120.0,0,1,0,327,38,0,0,413,250,250,0,414.87,45.747829,4.906568,0.0,193.6,0,0.0,-1,0.0,0.0,0,0.0,1.5507
93064,1563729748505,5,2.28,0.98,0.7,1.38,1.11,0.69,-0.03,0.61,-0,13,-1,0.69,2401,0,94,39,71,821,0.0,241,466,60,119.0,0,1,153,321,38,0,0,413,250,250,0,882.05,,,,,,,,,,,,
93084,1563729748525,3,2.29,0.98,0.71,1.37,1.11,0.69,-0.02,0.64,-0,12,-2,0.69,2326,0,94,39,73,816,0.0,232,468,60,121.0,0,1,148,317,27,0,0,413,250,250,0,414.87,,,,,,,,,,,,
93104,1563729748545,3,2.29,0.98,0.7,1.37,1.1,0.68,-0.03,0.62,-0,11,-1,0.68,2170,0,94,39,74,821,0.0,228,467,60,120.0,0,1,0,309,27,0,0,413,250,250,0,648.46,,,,,,,,,,,,
93124,1563729748565,5,2.28,0.99,0.71,1.37,1.1,0.72,-0.03,0.6,-0,9,-2,0.72,2086,0,94,39,75,828,0.0,213,472,60,120.0,0,1,0,302,27,0,0,413,250,250,0,414.87,,,,,,,,,,,,
93144,1563729748585,5,2.28,0.98,0.7,1.37,1.1,0.71,-0.03,0.62,-0,8,-1,0.71,1998,0,94,39,77,839,0.0,212,466,60,121.0,0,1,0,301,27,0,0,413,250,250,0,414.87,45.747829,4.906568,0.0,193.6,0,0.0,-1,0.0,0.0,0,0.0,1.5524
93164,1563729748605,8,2.29,0.98,0.7,1.38,1.1,0.72,-0.03,0.57,-0,8,-1,0.72,1905,0,94,39,78,852,0.0,205,470,60,121.0,0,1,0,297,27,0,0,413,250,250,0,414.87,,,,,,,,,,,,
93184,1563729748625,5,2.29,0.98,0.71,1.37,1.1,0.73,-0.03,0.56,-0,7,-1,0.73,1701,0,94,39,79,872,0.0,196,460,60,119.0,0,1,136,294,18,0,0,413,250,250,0,882.05,,,,,,,,,,,,
93204,1563729748645,5,2.29,0.98,0.7,1.37,1.1,0.73,-0.02,0.54,-0,6,-0,0.73,1596,0,93,39,81,896,0.0,189,466,60,118.0,0,1,0,295,18,0,0,413,250,250,0,882.05,,,,,,,,,,,,
93224,1563729748665,5,2.28,0.98,0.7,1.38,1.1,0.73,-0.01,0.53,-0,4,-0,0.73,1487,0,94,39,82,914,0.0,181,462,60,119.0,0,1,0,294,18,0,0,413,250,250,0,882.05,,,,,,,,,,,,
93244,1563729748685,8,2.29,0.98,0.7,1.38,1.1,0.72,-0.01,0.52,-0,2,-1,0.72,1349,0,94,39,83,925,0.0,175,465,60,119.0,0,1,0,296,18,0,0,413,250,250,0,882.05,45.747829,4.906568,0.0,193.6,0,0.0,-1,0.0,0.0,0,0.0,1.5541
93264,1563729748705,4,2.29,0.98,0.7,1.37,1.1,0.72,-0.01,0.49,-0,2,-1,0.72,1349,1,94,39,86,937,0.0,170,464,60,120.0,0,1,0,300,18,0,0,413,250,250,0,414.87,,,,,,,,,,,,
93284,1563729748725,4,2.29,0.98,0.71,1.37,1.1,0.72,-0.01,0.48,-0,1,-1,0.72,1196,9,94,39,88,948,0.0,166,470,60,120.0,0,1,105,454,20,0,0,413,250,250,0,414.87,,,,,,,,,,,,
93304,1563729748745,4,2.29,0.98,0.7,1.37,1.1,0.72,-0.0,0.48,-0,1,-1,0.72,1037,14,93,39,89,955,0.0,161,474,60,119.0,0,1,92,194,20,0,0,413,250,250,0,414.87,,,,,,,,,,,,
93324,1563729748765,6,2.29,0.98,0.7,1.37,1.1,0.73,-0.01,0.47,-0,0,-1,0.73,1037,18,94,39,93,956,0.0,151,466,60,120.0,0,1,133,500,20,0,0,0,250,250,0,414.87,,,,,,,,,,,,
93344,1563729748785,5,2.29,0.98,0.71,1.37,1.1,0.74,-0.0,0.47,-0,-0,-1,0.74,887,22,94,39,94,956,0.0,149,468,60,119.0,0,1,145,507,20,0,0,0,250,250,0,414.87,45.747829,4.906568,0.0,193.6,0,0.0,-1,0.0,0.0,0,0.0,1.5557
93364,1563729748805,5,2.29,0.98,0.7,1.37,1.1,0.74,-0.01,0.46,-0,-0,-1,0.74,887,25,94,39,97,956,0.0,142,465,60,119.0,0,1,186,246,20,0,0,0,250,250,0,414.87,,,,,,,,,,,,
93384,1563729748825,6,2.28,0.99,0.7,1.38,1.1,0.75,-0.01,0.45,-0,-0,-1,0.75,743,28,94,39,97,956,0.0,143,469,60,119.0,0,1,186,246,15,0,0,0,250,250,0,414.87,,,,,,,,,,,,
93404,1563729748845,5,2.29,0.98,0.7,1.38,1.1,0.76,-0.01,0.46,-0,0,-0,0.76,743,31,94,39,99,955,0.0,137,466,60,119.0,0,1,200,631,15,0,0,0,250,250,0,414.87,,,,,,,,,,,,
93424,1563729748865,9,2.28,0.99,0.7,1.38,1.09,0.77,-0.01,0.45,-0,0,-0,0.77,596,35,93,39,98,952,0.0,140,470,60,116.0,0,1,200,557,15,0,0,0,250,250,0,882.05,,,,,,,,,,,,
93444,1563729748885,5,2.29,0.98,0.7,1.38,1.09,0.77,-0.01,0.46,-0,0,-0,0.77,596,38,94,39,99,946,0.0,134,466,60,118.0,0,1,200,623,15,0,0,0,250,250,0,414.87,45.747829,4.906568,0.0,193.6,0,0.0,-1,0.0,0.0,0,0.0,1.5574
93464,1563729748904,5,2.28,0.98,0.7,1.37,1.1,0.79,-0.0,0.46,-0,-0,-0,0.79,596,42,94,39,99,940,0.0,126,465,60,118.0,0,1,200,623,15,0,0,0,250,250,0,414.87,,,,,,,,,,,,
93484,1563729748924,4,2.29,0.98,0.7,1.37,1.1,0.79,-0.0,0.46,-0,-0,-1,0.79,596,45,94,39,99,935,0.0,121,466,60,118.0,0,1,200,623,13,0,0,0,250,250,0,414.87,,,,,,,,,,,,
93504,1563729748944,5,2.29,0.98,0.7,1.37,1.1,0.8,-0.0,0.47,-0,-0,-0,0.8,596,48,94,39,99,927,0.0,121,466,60,119.0,0,1,200,623,13,0,0,0,250,250,0,414.87,,,,,,,,,,,,
93524,1563729748964,6,2.29,0.98,0.7,1.37,1.1,0.8,-0.01,0.46,-0,-0,-0,0.8,596,49,94,39,99,910,0.0,121,466,60,118.0,0,1,200,623,13,0,0,0,250,250,0,414.87,,,,,,,,,,,,
93544,1563729748984,4,2.29,0.98,0.7,1.37,1.1,0.8,-0.01,0.47,-0,-0,-0,0.8,596,50,94,39,99,893,0.0,121,470,60,118.0,0,1,200,623,13,0,0,0,250,250,0,414.87,45.747829,4.906568,0.0,193.6,0,0.0,-1,0.0,0.0,0,0.0,1.5591
93564,1563729748998,9,2.28,0.98,0.7,1.37,1.09,0.81,-0.01,0.47,-0,-0,-0,0.81,596,51,94,39,99,882,0.0,121,466,60,118.0,0,1,200,623,13,0,0,0,250,250,0,414.87,,,,,,,,,,,,
93584,1563729749018,6,2.28,0.98,0.7,1.36,1.1,0.81,-0.01,0.48,-0,-0,-0,0.81,596,51,94,39,99,866,0.0,123,467,60,118.0,0,1,200,623,13,0,0,0,250,250,0,414.87,,,,,,,,,,,,
93604,1563729749038,6,2.28,0.98,0.7,1.36,1.1,0.82,-0.01,0.48,-0,-0,-0,0.82,596,51,94,39,99,846,0.0,121,467,60,118.0,0,1,200,623,13,0,0,0,250,250,0,414.87,,,,,,,,,,,,
93624,1563729749058,4,2.29,0.98,0.7,1.36,1.1,0.82,-0.01,0.49,-0,-0,-0,0.82,596,51,94,39,99,827,0.0,121,467,60,118.0,0,1,200,623,13,0,0,0,250,250,0,181.28,,,,,,,,,,,,
93644,1563729749078,4,2.29,0.98,0.7,1.37,1.09,0.82,-0.01,0.49,-0,-0,-0,0.82,596,51,94,39,99,819,0.0,121,465,60,118.0,0,1,200,623,13,0,0,0,250,250,0,414.87,45.747829,4.906568,0.0,193.6,0,0.0,-1,0.0,0.0,0,0.0,1.5607
93664,1563729749106,5,2.28,0.97,0.7,1.37,1.09,0.82,-0.01,0.49,-0,-0,-0,0.82,596,51,94,39,99,811,0.0,121,467,60,118.0,0,1,200,623,13,0,0,0,250,250,0,414.87,,,,,,,,,,,,
93684,1563729749126,5,2.28,0.98,0.7,1.37,1.09,0.82,-0.01,0.5,-0,-0,-0,0.82,596,51,94,39,99,799,0.0,121,465,60,118.0,0,1,200,543,13,0,0,0,250,250,0,414.87,,,,,,,,,,,,
93704,1563729749146,5,2.28,0.98,0.7,1.37,1.09,0.82,-0.01,0.5,-0,-0,-0,0.82,596,51,94,39,99,787,0.0,121,467,60,118.0,0,1,200,623,13,0,0,0,250,250,0,181.28,,,,,,,,,,,,
93724,1563729749166,4,2.29,0.98,0.7,1.37,1.09,0.83,-0.01,0.5,-0,-0,-0,0.83,596,51,94,39,99,782,0.0,121,467,60,118.0,0,1,200,623,13,0,0,0,250,250,0,181.28,,,,,,,,,,,,
93744,1563729749186,4,2.29,0.98,0.7,1.37,1.1,0.83,-0.01,0.5,-0,-0,-0,0.83,596,51,94,39,99,777,0.0,121,466,60,118.0,0,1,200,623,13,0,0,0,250,250,0,414.87,45.747829,4.906568,0.0,193.6,0,0.0,-1,0.0,0.0,0,0.0,1.5624
93764,1563729749204,4,2.29,0.98,0.7,1.36,1.1,0.83,-0.01,0.5,-0,-0,-0,0.83,596,51,94,39,99,768,0.0,121,465,60,118.0,0,1,200,280,13,0,0,0,250,250,0,181.28,,,,,,,,,,,,
93784,1563729749224,6,2.28,0.98,0.7,1.36,1.1,0.83,-0.01,0.49,-0,-0,-0,0.83,596,51,94,39,99,759,0.0,121,466,60,118.0,0,1,200,623,13,0,0,0,250,250,0,414.87,,,,,,,,,,,,
93804,1563729749244,5,2.29,0.99,0.7,1.37,1.09,0.83,-0.01,0.49,-0,-0,-0,0.83,596,47,94,39,99,755,0.0,121,466,60,118.0,0,1,200,623,13,0,0,0,250,250,0,414.87,,,,,,,,,,,,
93824,1563729749264,4,2.28,0.98,0.7,1.36,1.09,0.83,-0.01,0.49,-0,-0,-0,0.83,596,40,94,39,99,145,0.0,121,467,60,118.0,0,1,0,0,13,0,0,0,250,250,0,414.87,,,,,,,,,,,,
93844,1563729749284,6,2.28,0.98,0.7,1.36,1.1,0.83,-0.01,0.49,-0,-1,-0,0.83,0,33,94,39,99,536,0.0,121,466,60,118.0,0,1,0,0,0,0,0,0,250,250,0,414.87,45.747829,4.906568,0.0,193.6,0,0.0,-1,0.0,0.0,0,0.0,1.5641
93864,1563729749306,6,2.28,0.98,0.7,1.36,1.1,0.83,-0.01,0.49,-0,-1,-0,0.83,0,26,94,39,99,571,0.0,121,465,60,118.0,0,1,0,0,0,0,0,0,250,250,0,414.87,,,,,,,,,,,,
93884,1563729749326,6,2.29,0.98,0.7,1.37,1.1,0.83,-0.01,0.49,-0,-1,-0,0.83,0,20,94,39,99,607,0.0,121,465,60,118.0,0,1,0,0,0,0,0,0,250,250,0,414.87,,,,,,,,,,,,
93904,1563729749346,6,2.28,0.99,0.7,1.37,1.1,0.83,-0.01,0.5,-0,-1,-0,0.83,0,17,94,39,99,643,0.0,121,466,60,118.0,0,1,0,0,0,0,0,0,250,250,0,181.28,,,,,,,,,,,,
93924,1563729749366,5,2.28,0.99,0.7,1.37,1.1,0.83,-0.01,0.5,-0,-1,-0,0.83,0,14,94,39,99,677,0.0,121,467,60,118.0,0,1,0,0,0,0,0,0,250,250,0,414.87,,,,,,,,,,,,
93944,1563729749386,5,2.29,0.98,0.7,1.36,1.1,0.83,-0.02,0.5,-0,-1,-0,0.83,0,13,94,39,99,711,0.0,120,466,60,118.0,0,1,0,0,0,0,0,0,250,250,0,414.87,45.747829,4.906568,0.0,193.6,0,0.0,-1,0.0,0.0,0,0.0,1.5657
93964,1563729749406,5,2.28,0.98,0.7,1.37,1.09,0.83,-0.02,0.5,-0,-1,-0,0.83,0,13,94,39,99,717,0.0,121,466,60,118.0,0,1,0,0,0,0,0,0,250,250,0,414.87,,,,,,,,,,,,
93984,1563729749426,4,2.28,0.98,0.7,1.37,1.09,0.83,-0.02,0.5,-0,-1,-0,0.83,0,11,94,39,99,714,0.0,121,467,60,118.0,0,1,0,0,0,0,0,0,250,250,0,414.87,,,,,,,,,,,,
94004,1563729749446,4,2.29,0.98,0.7,1.36,1.09,0.84,-0.02,0.5,-0,-1,-0,0.84,0,10,94,39,99,710,0.0,121,466,60,118.0,0,1,0,0,0,0,0,0,250,250,0,181.28,,,,,,,,,,,,
94024,1563729749466,4,2.29,0.99,0.7,1.36,1.1,0.84,-0.02,0.5,-0,-1,-0,0.84,0,8,94,39,99,705,0.0,121,467,60,118.0,0,1,0,0,0,0,0,0,250,250,0,414.87,,,,,,,,,,,,
94044,1563729749486,4,2.28,0.99,0.7,1.37,1.1,0.84,-0.02,0.5,-0,-1,-0,0.84,0,7,94,39,99,703,0.0,121,466,60,118.0,0,1,0,0,0,0,0,0,250,250,0,414.87,45.747829,4.906568,0.0,193.6,0,0.0,-1,0.0,0.0,0,0.0,1.5674
94064,1563729749506,3,2.29,0.98,0.7,1.36,1.09,0.84,-0.02,0.5,-0,-1,-0,0.84,0,7,94,39,99,701,0.0,121,467,60,118.0,0,1,0,0,0,0,0,0,250,250,0,181.28,,,,,,,,,,,,
94084,1563729749526,4,2.29,0.99,0.7,1.37,1.09,0.84,-0.02,0.51,-0,-1,-0,0.84,0,6,94,39,99,698,0.0,121,467,60,118.0,0,1,0,0,0,0,0,0,250,250,0,181.28,,,,,,,,,,,,
94104,1563729749546,5,2.28,0.98,0.7,1.37,1.09,0.84,-0.02,0.51,-0,-1,-0,0.84,0,6,94,39,99,694,0.0,121,466,60,118.0,0,1,0,0,0,0,0,0,250,250,0,181.28,,,,,,,,,,,,
94124,1563729749566,4,2.28,0.99,0.7,1.37,1.09,0.84,-0.02,0.51,-0,-1,-0,0.84,0,5,94,39,99,691,0.0,121,466,60,118.0,0,1,0,0,0,0,0,0,250,250,0,181.28,,,,,,,,,,,,
94144,1563729749586,5,2.29,0.99,0.7,1.36,1.09,0.84,-0.02,0.51,-0,-1,-0,0.84,0,5,94,39,99,690,0.0,121,466,60,118.0,0,1,0,0,0,0,0,0,250,250,0,181.28,45.747829,4.906568,0.0,193.6,0,0.0,-1,0.0,0.0,0,0.0,1.5691
94164,1563729749606,5,2.29,0.99,0.7,1.37,1.1,0.84,-0.02,0.51,-0,-1,-0,0.84,0,5,94,39,99,688,0.0,121,466,60,118.0,0,1,0,0,0,0,0,0,250,250,0,414.87,,,,,,,,,,,,
94184,1563729749626,5,2.29,0.98,0.7,1.36,1.1,0.84,-0.02,0.51,-0,-1,-0,0.84,0,5,94,39,99,685,0.0,121,464,60,118.0,0,1,0,0,0,0,0,0,250,250,0,181.28,,,,,,,,,,,,
94204,1563729749646,4,2.28,0.99,0.7,1.37,1.09,0.84,-0.02,0.52,-0,-1,-0,0.84,0,5,94,39,99,683,0.0,121,467,60,118.0,0,1,0,0,0,0,0,0,250,250,0,414.87,,,,,,,,,,,,
94224,1563729749666,5,2.28,0.98,0.69,1.37,1.09,0.84,-0.02,0.52,-0,-1,-0,0.84,0,5,94,39,99,682,0.0,121,466,60,118.0,0,1,0,0,0,0,0,0,250,250,0,181.28,,,,,,,,,,,,
94244,1563729749686,4,2.28,0.98,0.7,1.36,1.09,0.84,-0.02,0.52,-0,-1,-0,0.84,0,5,94,39,99,680,0.0,121,465,60,118.0,0,1,0,0,0,0,0,0,250,250,0,181.28,45.747829,4.906568,0.0,193.6,0,0.0,-1,0.0,0.0,0,0.0,1.5707
94264,1563729749706,4,2.28,0.98,0.7,1.37,1.1,0.84,-0.02,0.52,-0,-1,-0,0.84,0,5,94,39,99,678,0.0,120,464,60,118.0,0,1,0,0,0,0,0,0,250,250,0,181.28,,,,,,,,,,,,
94284,1563729749726,4,2.28,0.98,0.69,1.37,1.09,0.84,-0.02,0.52,-0,-1,-0,0.84,0,5,94,39,99,676,0.0,121,465,60,118.0,0,1,0,0,0,0,0,0,250,250,0,181.28,,,,,,,,,,,,
94304,1563729749746,3,2.28,0.98,0.69,1.36,1.1,0.84,-0.02,0.52,-0,-1,-0,0.84,0,5,94,39,99,675,0.0,121,466,60,118.0,0,1,0,0,0,0,0,0,250,250,0,414.87,,,,,,,,,,,,
94324,1563729749766,3,2.29,0.98,0.7,1.37,1.09,0.84,-0.02,0.52,-0,-0,-0,0.84,0,5,94,39,99,674,0.0,121,467,60,118.0,0,1,0,0,0,0,0,0,250,250,0,181.28,,,,,,,,,,,,
94344,1563729749786,3,2.28,0.98,0.7,1.36,1.09,0.84,-0.02,0.52,-0,-0,-0,0.84,0,4,94,39,99,672,0.0,121,465,60,118.0,0,1,0,0,0,0,0,0,250,250,0,181.28,45.747829,4.906568,0.0,193.6,0,0.0,-1,0.0,0.0,0,0.0,1.5724
94364,1563729749806,4,2.29,0.99,0.69,1.36,1.09,0.84,-0.02,0.52,-0,-0,-0,0.84,0,4,94,39,99,671,0.0,121,466,60,118.0,0,1,0,0,0,0,0,0,250,250,0,181.28,,,,,,,,,,,,
94384,1563729749826,4,2.28,0.99,0.7,1.36,1.09,0.84,-0.02,0.52,-0,-0,-0,0.84,0,5,94,39,99,670,0.0,121,467,60,118.0,0,1,0,0,0,0,0,0,250,250,0,414.87,,,,,,,,,,,,
94404,1563729749846,4,2.29,0.99,0.69,1.37,1.09,0.84,-0.02,0.52,-0,-0,0,0.84,0,5,93,39,99,670,0.0,121,466,60,118.0,0,1,0,0,0,0,0,0,250,250,0,414.87,,,,,,,,,,,,
94424,1563729749866,4,2.29,0.98,0.69,1.36,1.09,0.84,-0.02,0.52,-0,-0,0,0.84,0,5,93,39,99,668,0.0,121,465,60,118.0,0,1,0,0,0,0,0,0,250,250,0,181.28,,,,,,,,,,,,
94444,1563729749886,3,2.29,0.98,0.7,1.36,1.09,0.84,-0.02,0.52,-0,-0,0,0.84,0,5,93,39,99,667,0.0,121,467,60,118.0,0,1,0,0,0,0,0,0,250,250,0,414.87,45.747829,4.906568,0.0,193.6,0,0.0,-1,0.0,0.0,0,0.0,1.5741
94464,1563729749905,5,2.28,0.98,0.69,1.35,1.09,0.84,-0.02,0.52,-0,-0,0,0.84,0,5,93,39,99,666,0.0,121,465,60,118.0,0,1,0,0,0,0,0,0,250,250,0,181.28,,,,,,,,,,,,
94484,1563729749925,4,2.28,0.98,0.69,1.36,1.09,0.84,-0.02,0.52,-0,-0,0,0.84,0,5,93,39,99,665,0.0,121,467,60,118.0,0,1,0,0,0,0,0,0,250,250,0,414.87,,,,,,,,,,,,
94504,1563729749945,4,2.28,0.98,0.69,1.36,1.08,0.84,-0.02,0.52,-0,-0,0,0.84,0,5,93,39,99,664,0.0,121,465,60,118.0,0,1,0,0,0,0,0,0,250,250,0,181.28,,,,,,,,,,,,
94524,1563729749965,3,2.29,0.98,0.69,1.36,1.08,0.84,-0.02,0.51,-0,-0,0,0.84,0,5,93,39,99,663,0.0,121,466,60,118.0,0,1,0,0,0,0,0,0,250,250,0,181.28,,,,,,,,,,,,
94544,1563729749985,3,2.3,0.98,0.69,1.36,1.09,0.84,-0.02,0.51,-0,-0,0,0.84,0,5,93,39,99,663,0.0,121,466,60,118.0,0,1,0,0,0,0,0,0,250,250,0,181.28,45.747829,4.906568,0.0,193.6,0,0.0,-1,0.0,0.0,0,0.0,1.5757
94564,1563729749999,4,2.29,0.97,0.69,1.36,1.09,0.84,-0.02,0.51,-0,-0,0,0.84,0,5,93,39,99,663,0.0,121,467,60,118.0,0,1,0,0,0,0,0,0,250,250,0,414.87,,,,,,,,,,,,
94584,1563729750019,4,2.29,0.99,0.69,1.36,1.08,0.84,-0.02,0.51,-0,-0,0,0.84,0,5,93,39,99,662,0.0,121,466,60,118.0,0,1,0,0,0,0,0,0,250,250,0,181.28,,,,,,,,,,,,
94604,1563729750039,5,2.29,0.98,0.7,1.35,1.09,0.84,-0.02,0.51,-0,-0,0,0.84,0,5,93,39,99,661,0.0,121,466,60,118.0,0,1,0,0,0,0,0,0,250,250,0,414.87,,,,,,,,,,,,
94624,1563729750059,4,2.29,0.98,0.7,1.36,1.09,0.84,-0.02,0.5,-0,-0,-0,0.84,0,5,93,39,99,660,0.0,120,466,60,118.0,0,1,0,0,0,0,0,0,250,250,0,181.28,,,,,,,,,,,,
94644,1563729750079,5,2.28,0.98,0.69,1.36,1.09,0.84,-0.02,0.5,-0,-0,-0,0.84,0,5,93,39,99,660,0.0,121,467,60,118.0,0,1,0,0,0,0,0,0,250,250,0,414.87,45.747829,4.906568,0.0,193.6,0,0.0,-1,0.0,0.0,0,0.0,1.5774
94664,1563729750107,4,2.29,0.98,0.7,1.35,1.09,0.84,-0.02,0.5,-0,-0,-0,0.84,0,5,93,39,99,659,0.0,121,466,60,118.0,0,1,0,0,0,0,0,0,250,250,0,181.28,,,,,,,,,,,,
94684,1563729750127,4,2.28,0.99,0.69,1.36,1.08,0.84,-0.02,0.5,-0,-0,-0,0.84,0,5,93,39,99,658,0.0,121,466,60,118.0,0,1,0,0,0,0,0,0,250,250,0,414.87,,,,,,,,,,,,
94704,1563729750147,4,2.29,0.98,0.7,1.36,1.08,0.84,-0.02,0.5,-0,-0,-0,0.84,0,5,93,39,99,658,0.0,121,467,60,118.0,0,1,0,0,0,0,0,0,250,250,0,414.87,,,,,,,,,,,,
94724,1563729750167,4,2.29,0.98,0.69,1.36,1.08,0.84,-0.02,0.5,-0,-0,-0,0.84,0,5,93,39,99,657,0.0,121,466,60,118.0,0,1,0,0,0,0,0,0,250,250,0,414.87,,,,,,,,,,,,
94744,1563729750187,4,2.29,0.98,0.69,1.35,1.09,0.84,-0.02,0.5,-0,-1,-0,0.84,0,5,93,39,99,656,0.0,120,466,60,118.0,0,1,0,0,0,0,0,0,250,250,0,414.87,45.747829,4.906568,0.0,193.6,0,0.0,-1,0.0,0.0,0,0.0,1.5791
94764,1563729750207,4,2.29,0.98,0.69,1.35,1.08,0.83,-0.02,0.5,-0,-1,-0,0.84,0,5,93,39,99,656,0.0,121,466,60,118.0,0,1,0,0,0,0,0,0,250,250,0,648.46,,,,,,,,,,,,
94784,1563729750227,3,2.29,0.98,0.69,1.35,1.08,0.84,-0.02,0.5,-0,-1,-0,0.84,0,5,93,39,99,655,0.0,121,466,60,118.0,0,1,0,0,0,0,0,0,250,250,0,414.87,,,,,,,,,,,,
94804,1563729750247,4,2.28,0.98,0.69,1.36,1.08,0.84,-0.02,0.5,-0,-1,-0,0.84,0,5,93,39,99,654,0.0,121,465,60,118.0,0,1,0,0,0,0,0,0,250,250,0,181.28,,,,,,,,,,,,
94824,1563729750267,4,2.28,0.98,0.69,1.35,1.08,0.84,-0.02,0.5,-0,-1,-0,0.84,0,5,93,39,99,654,0.0,121,467,60,118.0,0,1,0,0,0,0,0,0,250,250,0,414.87,,,,,,,,,,,,
94844,1563729750287,3,2.28,0.98,0.69,1.35,1.09,0.84,-0.02,0.5,-0,-1,-0,0.84,0,5,93,39,99,653,0.0,121,465,60,118.0,0,1,0,0,0,0,0,0,250,250,0,414.87,45.747829,4.906568,0.0,193.6,0,0.0,-1,0.0,0.0,0,0.0,1.5807
94864,1563729750307,4,2.28,0.97,0.69,1.36,1.08,0.84,-0.02,0.5,-0,-1,-0,0.84,0,5,93,39,99,652,0.0,121,464,60,118.0,0,1,0,0,0,0,0,0,250,250,0,181.28,,,,,,,,,,,,
94884,1563729750327,4,2.28,0.97,0.69,1.36,1.08,0.84,-0.02,0.5,-0,-1,-0,0.84,0,5,93,39,99,652,0.0,121,466,60,118.0,0,1,0,0,0,0,0,0,250,250,0,414.87,,,,,,,,,,,,
94904,1563729750347,4,2.28,0.98,0.69,1.35,1.08,0.84,-0.02,0.5,-0,-1,-0,0.84,0,5,93,39,99,652,0.0,121,465,60,118.0,0,1,0,0,0,0,0,0,250,250,0,414.87,,,,,,,,,,,,
94924,1563729750367,3,2.29,0.98,0.69,1.35,1.08,0.84,-0.02,0.5,-0,-1,-0,0.84,0,5,93,39,99,651,0.0,121,468,60,118.0,0,1,0,0,0,0,0,0,250,250,0,181.28,,,,,,,,,,,,
94944,1563729750387,3,2.29,0.98,0.69,1.36,1.08,0.84,-0.02,0.5,-0,-1,-0,0.84,0,5,93,39,99,650,0.0,121,465,60,118.0,0,1,0,0,0,0,0,0,250,250,0,414.87,45.747829,4.906568,0.0,193.6,0,0.0,-1,0.0,0.0,0,0.0,1.5824
94964,1563729750407,4,2.28,0.98,0.69,1.36,1.08,0.84,-0.02,0.5,-0,-1,-0,0.84,0,5,93,39,99,650,0.0,121,467,60,118.0,0,1,0,0,0,0,0,0,250,250,0,414.87,,,,,,,,,,,,
94984,1563729750427,4,2.28,0.98,0.68,1.35,1.09,0.84,-0.02,0.5,-0,-1,-0,0.84,0,5,93,39,99,649,0.0,120,464,60,118.0,0,1,0,0,0,0,0,0,250,250,0,181.28,,,,,,,,,,,,
95004,1563729750447,3,2.28,0.98,0.69,1.35,1.08,0.84,-0.02,0.51,-0,-1,-0,0.84,0,5,93,39,99,648,0.0,121,467,60,118.0,0,1,0,0,0,0,0,0,250,250,0,414.87,,,,,,,,,,,,
95024,1563729750467,4,2.28,0.98,0.69,1.36,1.08,0.84,-0.02,0.51,-0,-1,-0,0.84,0,5,93,39,99,647,0.0,121,466,60,118.0,0,1,0,0,0,0,0,0,250,250,0,181.28,,,,,,,,,,,,
95044,1563729750487,4,2.28,0.98,0.69,1.36,1.09,0.84,-0.02,0.51,-0,-1,-0,0.84,0,5,93,39,99,647,0.0,121,466,60,118.0,0,1,0,0,0,0,0,0,250,250,0,181.28,45.747829,4.906568,0.0,193.6,0,0.0,-1,0.0,0.0,0,0.0,1.5841
95064,1563729750507,4,2.29,0.98,0.69,1.35,1.09,0.84,-0.02,0.51,-0,-1,-0,0.84,0,5,93,39,99,646,0.0,121,465,60,118.0,0,1,0,0,0,0,0,0,250,250,0,181.28,,,,,,,,,,,,
95084,1563729750527,4,2.28,0.98,0.69,1.35,1.08,0.84,-0.02,0.51,-0,-1,-0,0.84,0,5,93,39,99,645,0.0,121,467,60,118.0,0,1,0,0,0,0,0,0,250,250,0,181.28,,,,,,,,,,,,
95104,1563729750547,3,2.29,0.98,0.69,1.35,1.09,0.84,-0.02,0.51,-0,-1,-0,0.84,0,5,93,39,99,645,0.0,121,466,60,118.0,0,1,0,0,0,0,0,0,250,250,0,181.28,,,,,,,,,,,,
95124,1563729750567,4,2.29,0.98,0.69,1.35,1.09,0.84,-0.02,0.51,-0,-1,-0,0.84,0,5,93,39,99,644,0.0,121,467,60,118.0,0,1,0,0,0,0,0,0,250,250,0,181.28,,,,,,,,,,,,
95144,1563729750587,4,2.29,0.98,0.69,1.35,1.09,0.84,-0.02,0.52,-0,-1,-0,0.84,0,5,93,39,99,644,0.0,121,465,60,118.0,0,1,0,0,0,0,0,0,250,250,0,181.28,45.747829,4.906568,0.0,193.6,0,0.0,-1,0.0,0.0,0,0.0,1.5857
95164,1563729750607,3,2.29,0.98,0.69,1.35,1.09,0.84,-0.02,0.52,-0,-1,-0,0.84,0,5,93,39,99,643,0.0,121,467,60,118.0,0,1,0,0,0,0,0,0,250,250,0,181.28,,,,,,,,,,,,
95184,1563729750627,4,2.28,0.99,0.69,1.36,1.09,0.84,-0.02,0.52,-0,-1,-0,0.84,0,5,93,39,99,642,0.0,121,466,60,118.0,0,1,0,0,0,0,0,0,250,250,0,414.87,,,,,,,,,,,,
95204,1563729750647,3,2.29,0.99,0.69,1.36,1.08,0.84,-0.02,0.52,-0,-1,-0,0.84,0,5,93,39,99,642,0.0,121,466,60,118.0,0,1,0,0,0,0,0,0,250,250,0,414.87,,,,,,,,,,,,
95224,1563729750667,4,2.28,0.98,0.69,1.35,1.08,0.84,-0.02,0.52,-0,-1,-0,0.84,0,5,93,39,99,641,0.0,121,466,60,118.0,0,1,0,0,0,0,0,0,250,250,0,181.28,,,,,,,,,,,,
95244,1563729750687,4,2.29,0.98,0.69,1.36,1.08,0.84,-0.02,0.52,-0,-1,-0,0.84,0,5,93,39,99,640,0.0,121,466,60,118.0,0,1,0,0,0,0,0,0,250,250,0,181.28,45.747829,4.906568,0.0,193.6,0,0.0,-1,0.0,0.0,0,0.0,1.5874
95264,1563729750707,2,2.29,0.98,0.69,1.36,1.08,0.84,-0.02,0.52,-0,-1,-0,0.84,0,5,93,39,99,640,0.0,121,467,60,118.0,0,1,0,0,0,0,0,0,250,250,0,181.28,,,,,,,,,,,,
95284,1563729750727,3,2.29,0.98,0.69,1.35,1.09,0.84,-0.02,0.52,-0,-1,0,0.84,0,5,93,39,99,639,0.0,121,466,60,118.0,0,1,0,0,0,0,0,0,250,250,0,414.87,,,,,,,,,,,,
95304,1563729750747,1,2.28,0.98,0.68,1.35,1.09,0.84,-0.02,0.53,-0,-1,-0,0.84,0,5,93,39,99,638,0.0,121,465,60,118.0,0,1,0,0,0,0,0,0,250,250,0,414.87,,,,,,,,,,,,
95324,1563729750767,3,2.29,0.98,0.69,1.35,1.08,0.84,-0.02,0.53,-0,-0,0,0.84,0,5,93,39,99,637,0.0,121,468,60,118.0,0,1,0,0,0,0,0,0,250,250,0,414.87,,,,,,,,,,,,
95344,1563729750787,4,2.29,0.98,0.69,1.35,1.09,0.84,-0.02,0.53,-0,-0,0,0.84,0,5,93,39,99,636,0.0,121,466,60,118.0,0,1,0,0,0,0,0,0,250,250,0,414.87,45.747829,4.906568,0.0,193.6,0,0.0,-1,0.0,0.0,0,0.0,1.5891
95364,1563729750807,4,2.28,0.99,0.69,1.35,1.08,0.84,-0.02,0.53,-0,-0,0,0.84,0,5,93,39,99,636,0.0,121,466,60,118.0,0,1,0,0,0,0,0,0,250,250,0,414.87,,,,,,,,,,,,
95384,1563729750827,3,2.29,0.98,0.69,1.35,1.09,0.84,-0.02,0.52,-0,-0,0,0.84,0,5,93,39,99,635,0.0,121,466,60,118.0,0,1,0,0,0,0,0,0,250,250,0,181.28,,,,,,,,,,,,
95404,1563729750847,3,2.29,0.98,0.69,1.35,1.08,0.84,-0.02,0.52,-0,-0,0,0.84,0,5,93,39,99,635,0.0,121,466,60,118.0,0,1,0,0,0,0,0,0,250,250,0,181.28,,,,,,,,,,,,
95424,1563729750867,4,2.3,0.98,0.69,1.36,1.08,0.84,-0.02,0.52,-0,-0,0,0.84,0,5,93,39,99,634,0.0,121,466,60,118.0,0,1,0,0,0,0,0,0,250,250,0,414.87,,,,,,,,,,,,
95444,1563729750887,4,2.28,0.98,0.69,1.36,1.08,0.84,-0.02,0.52,-0,-0,0,0.84,0,5,93,39,99,634,0.0,121,466,60,118.0,0,1,0,0,0,0,0,0,250,250,0,181.28,45.747829,4.906568,0.0,193.6,0,0.0,-1,0.0,0.0,0,0.0,1.5907
95464,1563729750906,4,2.29,0.98,0.69,1.35,1.09,0.84,-0.02,0.52,-0,-0,0,0.84,0,5,93,39,99,633,0.0,121,465,60,118.0,0,1,0,0,0,0,0,0,250,250,0,414.87,,,,,,,,,,,,
95484,1563729750926,4,2.28,0.98,0.69,1.35,1.08,0.84,-0.02,0.52,-0,-0,0,0.84,0,5,93,39,99,633,0.0,120,466,60,118.0,0,1,0,0,0,0,0,0,250,250,0,181.28,,,,,,,,,,,,
95504,1563729750946,4,2.28,0.97,0.69,1.35,1.08,0.84,-0.02,0.52,-0,-0,0,0.84,0,5,93,39,99,632,0.0,121,465,60,118.0,0,1,0,0,0,0,0,0,250,250,0,414.87,,,,,,,,,,,,
95524,1563729750966,4,2.28,0.98,0.69,1.34,1.09,0.84,-0.02,0.52,-0,-0,0,0.84,0,5,93,39,99,631,0.0,121,466,60,118.0,0,1,0,0,0,0,0,0,250,250,0,414.87,,,,,,,,,,,,
95544,1563729750986,4,2.28,0.98,0.69,1.34,1.09,0.84,-0.02,0.52,-0,-0,0,0.84,0,5,93,39,99,630,0.0,121,467,60,118.0,0,1,0,0,0,0,0,0,250,250,0,181.28,45.747829,4.906568,0.0,193.6,0,0.0,-1,0.0,0.0,0,0.0,1.5924
95564,1563729750998,3,2.29,0.98,0.69,1.34,1.09,0.84,-0.02,0.52,-0,-0,0,0.84,0,5,93,39,99,630,0.0,121,465,60,118.0,0,1,0,0,0,0,0,0,250,250,0,181.28,,,,,,,,,,,,
95584,1563729751018,4,2.29,0.98,0.69,1.35,1.08,0.84,-0.02,0.52,-0,-0,0,0.84,0,5,93,39,99,629,0.0,121,467,60,118.0,0,1,0,0,0,0,0,0,250,250,0,181.28,,,,,,,,,,,,
95604,1563729751038,4,2.28,0.98,0.69,1.35,1.08,0.84,-0.02,0.52,-0,-0,0,0.84,0,5,93,40,99,629,0.0,121,465,60,118.0,0,1,0,0,0,0,0,0,250,250,0,414.87,,,,,,,,,,,,
95624,1563729751058,3,2.29,0.98,0.68,1.35,1.09,0.84,-0.02,0.51,-0,-0,0,0.84,0,5,93,40,99,629,0.0,121,466,60,118.0,0,1,0,0,0,0,0,0,250,250,0,414.87,,,,,,,,,,,,
95644,1563729751078,3,2.29,0.98,0.69,1.34,1.08,0.84,-0.02,0.51,-0,-0,0,0.84,0,5,93,40,99,629,0.0,121,467,60,118.0,0,1,0,0,0,0,0,0,250,250,0,181.28,45.747829,4.906568,0.0,193.6,0,0.0,-1,0.0,0.0,0,0.0,1.5941
95664,1563729751104,3,2.29,0.98,0.69,1.35,1.08,0.84,-0.02,0.51,-0,-0,0,0.84,0,5,93,40,99,628,0.0,121,467,60,118.0,0,1,0,0,0,0,0,0,250,250,0,181.28,,,,,,,,,,,,
95684,1563729751124,3,2.29,0.98,0.69,1.35,1.08,0.84,-0.02,0.51,-0,-0,0,0.84,0,5,93,40,99,628,0.0,121,466,60,118.0,0,1,0,0,0,0,0,0,250,250,0,414.87,,,,,,,,,,,,
95704,1563729751144,3,2.29,0.98,0.69,1.34,1.09,0.84,-0.02,0.51,-0,-0,0,0.84,0,5,93,40,99,628,0.0,121,466,60,118.0,0,1,0,0,0,0,0,0,250,250,0,414.87,,,,,,,,,,,,
95724,1563729751164,4,2.29,0.98,0.68,1.35,1.08,0.84,-0.02,0.51,-0,-0,0,0.84,0,5,93,40,99,628,0.0,120,466,60,118.0,0,1,0,0,0,0,0,0,250,250,0,181.28,,,,,,,,,,,,
95744,1563729751184,5,2.28,0.98,0.69,1.34,1.08,0.84,-0.02,0.51,-0,-0,0,0.84,0,5,93,40,99,627,0.0,121,466,60,118.0,0,1,0,0,0,0,0,0,250,250,0,181.28,45.747829,4.906568,0.0,193.6,0,0.0,-1,0.0,0.0,0,0.0,1.5957
95764,1563729751206,5,2.28,0.98,0.69,1.35,1.08,0.84,-0.02,0.5,-0,-0,0,0.84,0,5,93,40,99,627,0.0,121,467,60,118.0,0,1,0,0,0,0,0,0,250,250,0,414.87,,,,,,,,,,,,
95784,1563729751226,3,2.28,0.98,0.68,1.34,1.08,0.84,-0.02,0.5,-0,-0,0,0.84,0,5,93,40,99,627,0.0,121,466,60,118.0,0,1,0,0,0,0,0,0,250,250,0,414.87,,,,,,,,,,,,
95804,1563729751246,4,2.29,0.98,0.69,1.34,1.08,0.84,-0.02,0.5,-0,-0,0,0.84,0,5,93,40,99,627,0.0,121,467,60,118.0,0,1,0,0,0,0,0,0,250,250,0,414.87,,,,,,,,,,,,
95824,1563729751266,5,2.28,0.98,0.69,1.35,1.07,0.84,-0.01,0.5,-0,-0,-0,0.84,0,5,93,40,99,626,0.0,121,465,60,118.0,0,1,0,0,0,0,0,0,250,250,0,414.87,,,,,,,,,,,,
95844,1563729751286,5,2.28,0.98,0.69,1.35,1.07,0.84,-0.02,0.5,-0,-0,0,0.84,0,5,93,40,99,626,0.0,121,465,60,118.0,0,1,0,0,0,0,0,0,250,250,0,414.87,45.747829,4.906568,0.0,193.6,0,0.0,-1,0.0,0.0,0,0.0,1.5974
95864,1563729751306,4,2.28,0.98,0.69,1.34,1.08,0.83,-0.01,0.5,-0,-0,-0,0.83,0,5,93,40,99,626,0.0,121,467,60,118.0,0,1,0,0,0,0,0,0,250,250,0,181.28,,,,,,,,,,,,
95884,1563729751326,5,2.28,0.98,0.69,1.34,1.08,0.83,-0.01,0.5,-0,-0,-0,0.83,0,5,93,40,99,625,0.0,121,466,60,118.0,0,1,0,0,0,0,0,0,250,250,0,414.87,,,,,,,,,,,,
95904,1563729751346,5,2.28,0.98,0.69,1.35,1.07,0.83,-0.01,0.5,-0,-1,-0,0.84,0,5,93,40,99,625,0.0,121,464,60,118.0,0,1,0,0,0,0,0,0,250,250,0,181.28,,,,,,,,,,,,
95924,1563729751366,5,2.29,0.98,0.69,1.34,1.08,0.83,-0.01,0.5,-0,-1,-0,0.83,0,5,93,40,99,625,0.0,121,465,60,118.0,0,1,0,0,0,0,0,0,250,250,0,414.87,,,,,,,,,,,,
95944,1563729751386,5,2.29,0.98,0.69,1.34,1.08,0.84,-0.02,0.5,-0,-1,-0,0.84,0,5,93,40,99,625,0.0,121,467,60,118.0,0,1,0,0,0,0,0,0,250,250,0,181.28,45.747829,4.906568,0.0,193.6,0,0.0,-1,0.0,0.0,0,0.0,1.5991
95964,1563729751406,5,2.28,0.98,0.69,1.35,1.07,0.84,-0.01,0.5,-0,-1,-0,0.84,0,5,93,40,99,625,0.0,121,468,60,118.0,0,1,0,0,0,0,0,0,250,250,0,181.28,,,,,,,,,,,,
95984,1563729751426,4,2.28,0.98,0.69,1.34,1.08,0.83,-0.02,0.5,-0,-1,-0,0.83,0,5,93,40,99,625,0.0,120,465,60,118.0,0,1,0,0,0,0,0,0,250,250,0,414.87,,,,,,,,,,,,
96004,1563729751446,5,2.29,0.98,0.69,1.34,1.08,0.83,-0.01,0.5,-0,-1,-0,0.83,0,5,93,40,99,625,0.0,121,465,60,118.0,0,1,0,0,0,0,0,0,250,250,0,414.87,,,,,,,,,,,,
96024,1563729751466,3,2.29,0.98,0.69,1.34,1.08,0.83,-0.02,0.5,-0,-1,-0,0.83,0,5,93,40,99,625,0.0,121,466,60,118.0,0,1,0,0,0,0,0,0,250,250,0,414.87,,,,,,,,,,,,
96044,1563729751486,5,2.29,0.98,0.68,1.35,1.08,0.84,-0.02,0.5,-0,-1,-0,0.84,0,5,93,40,99,625,0.0,121,465,60,118.0,0,1,0,0,0,0,0,0,250,250,0,181.28,45.747829,4.906568,0.0,193.6,0,0.0,-1,0.0,0.0,0,0.0,1.6007
96064,1563729751506,5,2.29,0.98,0.68,1.34,1.08,0.83,-0.02,0.5,-0,-1,-0,0.84,0,5,93,40,99,624,0.0,121,466,60,118.0,0,1,0,0,0,0,0,0,250,250,0,181.28,,,,,,,,,,,,
96084,1563729751526,4,2.29,0.98,0.69,1.34,1.08,0.83,-0.02,0.5,-0,-1,-0,0.83,0,5,93,40,99,624,0.0,121,465,60,118.0,0,1,0,0,0,0,0,0,250,250,0,414.87,,,,,,,,,,,,
96104,1563729751546,4,2.3,0.98,0.69,1.34,1.08,0.84,-0.02,0.5,-0,-1,-0,0.84,0,5,93,40,99,625,0.0,121,466,60,118.0,0,1,0,0,0,0,0,0,250,250,0,414.87,,,,,,,,,,,,
96124,1563729751566,3,2.29,0.98,0.69,1.35,1.07,0.84,-0.02,0.5,-0,-1,-0,0.84,0,5,93,40,99,625,0.0,121,467,60,118.0,0,1,0,0,0,0,0,0,250,250,0,181.28,,,,,,,,,,,,
96144,1563729751586,5,2.28,0.98,0.68,1.35,1.07,0.84,-0.02,0.51,-0,-1,-0,0.84,0,5,93,40,99,625,0.0,121,466,60,118.0,0,1,0,0,0,0,0,0,250,250,0,181.28,45.747829,4.906568,0.0,193.6,0,0.0,-1,0.0,0.0,0,0.0,1.6024
96164,1563729751606,5,2.28,0.98,0.68,1.35,1.07,0.84,-0.02,0.51,-0,-1,-0,0.84,0,5,93,40,99,624,0.0,121,467,60,118.0,0,1,0,0,0,0,0,0,250,250,0,414.87,,,,,,,,,,,,
96184,1563729751626,4,2.28,0.98,0.68,1.35,1.07,0.84,-0.02,0.51,-0,-1,-0,0.84,0,5,93,40,99,624,0.0,121,466,60,118.0,0,1,0,0,0,0,0,0,250,250,0,414.87,,,,,,,,,,,,
96204,1563729751646,4,2.29,0.98,0.68,1.35,1.07,0.84,-0.02,0.51,-0,-1,-0,0.84,0,5,93,40,99,624,0.0,121,467,60,118.0,0,1,0,0,0,0,0,0,250,250,0,181.28,,,,,,,,,,,,
96224,1563729751666,5,2.28,0.98,0.69,1.34,1.07,0.84,-0.02,0.51,-0,-1,-0,0.84,0,5,93,40,99,624,0.0,120,464,60,118.0,0,1,0,0,0,0,0,0,250,250,0,414.87,,,,,,,,,,,,
96244,1563729751686,5,2.29,0.98,0.68,1.35,1.08,0.84,-0.02,0.52,-0,-1,-0,0.84,0,5,93,40,99,624,0.0,120,466,60,118.0,0,1,0,0,0,0,0,0,250,250,0,181.28,45.747829,4.906568,0.0,193.6,0,0.0,-1,0.0,0.0,0,0.0,1.6041
96264,1563729751706,4,2.29,0.98,0.68,1.35,1.07,0.84,-0.02,0.52,-0,-1,-0,0.84,0,5,93,40,99,624,0.0,121,466,60,118.0,0,1,0,0,0,0,0,0,250,250,0,414.87,,,,,,,,,,,,
96284,1563729751726,5,2.28,0.98,0.68,1.35,1.08,0.84,-0.02,0.52,-0,-1,-0,0.84,0,5,93,40,99,624,0.0,121,467,60,118.0,0,1,0,0,0,0,0,0,250,250,0,414.87,,,,,,,,,,,,
