"Interval"|"ms"|0|0|1,"Utc"|"ms"|0|0|1,"FB_p"|"bar"|0|300|50,"Volant"|"F"|0.0|300.0|50,"xFR"|"mm"|0.0|5.0|50,"xRR"|"mm"|0.0|5.0|50,"xFL"|"mm"|0.0|5.0|50,"xRL"|"mm"|0.0|5.0|50,"AccelX"|"G"|-3.0|3.0|50,"AccelY"|"G"|-3.0|3.0|50,"AccelZ"|"G"|-3.0|3.0|50,"Yaw"|"Deg/Sec"|-120|120|50,"Pitch"|"Deg/Sec"|-120|120|50,"Roll"|"Deg/Sec"|-120|120|50,"Gsum"|"G"|0.0|3.0|50,"RPM"|""|0|14000|50,"TPS"|"%"|0|100|50,"WaterTemp"|"?C"|0|300|50,"AirTemp"|"?C"|-1000|1000|50,"MAP"|"KPa"|0|255|50,"Lambda"|""|0|1024|50,"WheelSpeed"|"MPH"|0.0|150.0|50,"OilPress"|"PSI"|0|150|50,"FuelPress"|"PSI"|0|150|50,"OilTemp"|"F"|0|300|50,"Battery"|"Volts"|0.0|20.0|50,"FuelCon"|"L/h"|-1000|1000|50,"Gear"|""|0|10|50,"Advance"|"Deg"|-360|360|50,"Injection"|"ms"|-1000|1000|50,"FuelCon"|"L/100km"|-1000|1000|50,"LC_But_Pres"|""|-1000|1000|50,"LC_Active"|""|-1000|1000|50,"RD_Speed"|""|-1000|1000|50,"RUD_Speed"|""|-1000|1000|50,"LD_Speed"|""|-1000|1000|50,"LUD_Speed"|""|-1000|1000|50,"Ana1"|"bar"|-1000.0|1000.0|50,"Latitude"|"Degrees"|-180.0|180.0|10,"Longitude"|"Degrees"|-180.0|180.0|10,"Speed"|"kph"|0.0|150.0|10,"Altitude"|"m"|0.0|4000.0|10,"LapCount"|""|0|0|10,"LapTime"|"Min"|0.0|0.0|10,"Sector"|""|0|0|10,"SectorTime"|"Min"|0.0|0.0|10,"ElapsedTime"|"Min"|0.0|0.0|10,"CurrentLap"|""|0|0|10,"Distance"|"km"|0.0|0.0|10,"SessionTime"|"Min"|0.0|0.0|10
26104,1563729915358,8,2.28,0.68,0.49,0.91,0.76,0.88,-0.01,0.53,-1,-2,0,0.88,4381,7,92,39,55,506,0.0,392,469,60,120.0,0,1,218,244,41,0,0,0,250,250,0,414.87,,,,,,,,,,,,
26124,1563729915378,11,2.29,0.68,0.49,0.9,0.77,0.83,-0.04,0.55,-1,-3,-0,0.83,4349,7,92,39,54,506,0.0,390,464,60,119.0,0,1,215,244,41,0,0,0,250,250,0,414.87,,,,,,,,,,,,
26144,1563729915398,9,2.29,0.68,0.5,0.9,0.76,0.79,-0.05,0.55,-1,-2,-1,0.79,4397,7,92,39,54,506,0.0,392,463,60,119.0,0,1,222,244,41,0,0,0,250,250,0,414.87,45.747856,4.906453,0.0,198.8,0,0.0,-1,0.0,0.0,0,0.0,0.4357
26164,1563729915418,10,2.28,0.68,0.49,0.91,0.76,0.76,-0.04,0.54,-1,0,-1,0.76,4394,7,92,39,54,506,0.0,393,466,60,119.0,0,1,221,244,41,0,0,0,250,250,0,414.87,,,,,,,,,,,,
26184,1563729915438,9,2.28,0.68,0.49,0.91,0.76,0.78,-0.03,0.5,-1,1,-1,0.78,4369,7,92,39,54,506,0.0,400,466,60,118.0,0,1,218,248,41,0,0,0,250,250,0,414.87,,,,,,,,,,,,
26204,1563729915458,6,2.3,0.68,0.49,0.9,0.76,0.81,-0.02,0.48,-1,2,-1,0.81,4371,7,92,39,55,506,0.0,392,468,60,118.0,0,1,217,248,40,0,0,0,250,250,0,414.87,,,,,,,,,,,,
26224,1563729915478,7,2.28,0.68,0.49,0.9,0.76,0.86,-0.04,0.48,-1,1,-1,0.86,4372,7,92,39,55,506,0.0,395,470,60,118.0,0,1,217,248,40,0,0,0,250,250,0,882.05,,,,,,,,,,,,
26244,1563729915498,6,2.3,0.68,0.49,0.9,0.75,0.86,-0.06,0.5,-1,0,-1,0.87,4396,7,92,39,55,506,0.0,391,472,60,119.0,0,1,217,248,40,0,0,0,250,250,0,882.05,45.747856,4.906453,0.0,198.8,0,0.0,-1,0.0,0.0,0,0.0,0.4374
26264,1563729915518,6,2.29,0.67,0.49,0.89,0.76,0.89,-0.03,0.49,-0,-1,-1,0.89,4373,7,92,39,55,506,0.0,388,471,60,119.0,0,1,217,248,40,0,0,0,250,250,0,648.46,,,,,,,,,,,,
26284,1563729915538,6,2.29,0.67,0.48,0.9,0.75,0.93,0.01,0.46,-0,-1,0,0.93,4365,7,91,39,55,506,0.0,391,468,60,119.0,0,1,216,248,40,0,0,0,250,250,0,648.46,,,,,,,,,,,,
26304,1563729915558,7,2.28,0.68,0.48,0.9,0.75,0.95,0.02,0.47,-0,-2,1,0.95,4396,7,91,39,55,506,0.0,385,467,60,120.0,0,1,220,248,40,0,0,0,250,250,0,414.87,,,,,,,,,,,,
26324,1563729915578,7,2.29,0.67,0.49,0.9,0.74,0.96,0.03,0.5,-0,-4,1,0.96,4386,7,91,39,55,506,0.0,393,468,60,120.0,0,1,219,248,40,0,0,0,250,250,0,414.87,,,,,,,,,,,,
26344,1563729915598,7,2.28,0.67,0.48,0.89,0.75,0.92,0.01,0.52,-0,-5,1,0.92,4426,7,91,39,55,506,0.0,388,473,60,120.0,0,1,224,249,40,0,0,0,250,250,0,414.87,45.747856,4.906453,0.0,198.8,0,0.0,-1,0.0,0.0,0,0.0,0.4391
26364,1563729915618,8,2.28,0.67,0.48,0.89,0.75,0.9,-0.01,0.54,-0,-4,1,0.9,4414,7,91,39,55,506,0.0,396,465,60,119.0,0,1,223,245,40,0,0,0,250,250,0,414.87,,,,,,,,,,,,
26384,1563729915638,-0,2.29,0.67,0.48,0.89,0.75,0.83,-0.04,0.54,-0,-2,1,0.83,4383,7,91,39,54,506,0.0,393,458,60,119.0,0,1,220,244,40,0,0,0,250,250,0,414.87,,,,,,,,,,,,
26404,1563729915658,9,2.29,0.67,0.47,0.88,0.75,0.77,-0.05,0.53,-0,-1,1,0.77,4414,7,91,39,54,506,0.0,397,466,60,119.0,0,1,224,245,41,0,0,0,250,250,0,414.87,,,,,,,,,,,,
26424,1563729915678,11,2.29,0.67,0.47,0.88,0.75,0.73,-0.07,0.53,-0,0,-0,0.74,4400,7,91,39,54,506,0.0,399,463,60,119.0,0,1,222,245,41,0,0,0,250,250,0,414.87,,,,,,,,,,,,
26444,1563729915697,9,2.28,0.67,0.48,0.88,0.73,0.71,-0.07,0.53,-0,1,-1,0.72,4378,7,91,39,54,506,0.0,394,463,60,119.0,0,1,219,244,41,0,0,0,250,250,0,414.87,45.747856,4.906453,0.0,198.8,0,0.0,-1,0.0,0.0,0,0.0,0.4407
26464,1563729915717,9,2.28,0.59,0.39,0.75,0.59,0.73,-0.05,0.52,-0,2,-1,0.73,4388,7,91,39,54,506,0.0,401,465,60,118.0,0,1,220,244,41,0,0,0,250,250,0,414.87,,,,,,,,,,,,
26484,1563729915737,8,2.28,0.57,0.37,0.72,0.56,0.76,-0.03,0.49,-0,3,-1,0.76,4365,7,90,39,54,506,0.0,394,467,60,117.0,0,1,217,244,41,0,0,0,250,250,0,414.87,,,,,,,,,,,,
26504,1563729915757,4,2.29,0.57,0.35,0.71,0.54,0.78,-0.02,0.48,0,3,-1,0.78,4357,7,91,39,55,506,0.0,394,471,60,118.0,0,1,215,248,40,0,0,0,250,250,0,882.05,,,,,,,,,,,,
26524,1563729915777,7,2.28,0.56,0.35,0.7,0.53,0.82,-0.03,0.5,0,2,-0,0.83,4358,7,91,39,55,506,0.0,389,472,60,119.0,0,1,215,247,40,0,0,0,250,250,0,882.05,,,,,,,,,,,,
26544,1563729915797,7,2.28,0.55,0.34,0.69,0.53,0.85,-0.03,0.53,0,-0,0,0.85,4363,7,91,39,55,506,0.0,388,470,60,119.0,0,1,216,247,40,0,0,0,250,250,0,648.46,45.747856,4.906453,0.0,198.8,0,0.0,-1,0.0,0.0,0,0.0,0.4424
26564,1563729915817,7,2.28,0.55,0.33,0.68,0.52,0.88,-0.03,0.56,0,-2,1,0.88,4350,7,90,39,55,506,0.0,389,467,60,120.0,0,1,214,247,40,0,0,0,250,250,0,414.87,,,,,,,,,,,,
26584,1563729915837,7,2.29,0.55,0.33,0.67,0.52,0.88,-0.02,0.56,0,-2,1,0.88,4368,7,90,39,55,506,0.0,385,471,60,120.0,0,1,217,247,40,0,0,0,250,250,0,414.87,,,,,,,,,,,,
26604,1563729915857,8,2.29,0.55,0.32,0.67,0.51,0.85,-0.02,0.55,0,-1,1,0.85,4355,7,90,39,55,506,0.0,393,469,60,120.0,0,1,215,247,41,0,0,0,250,250,0,414.87,,,,,,,,,,,,
26624,1563729915877,11,2.28,0.55,0.32,0.66,0.5,0.79,-0.04,0.56,0,-0,1,0.8,4348,7,90,39,55,506,0.0,387,467,60,120.0,0,1,214,247,41,0,0,0,250,250,0,414.87,,,,,,,,,,,,
26644,1563729915897,9,2.29,0.55,0.31,0.66,0.49,0.76,-0.07,0.57,-0,0,-0,0.76,4345,7,90,39,54,506,0.0,392,467,60,118.0,0,1,215,242,41,0,0,0,250,250,0,414.87,45.747856,4.906453,0.0,198.8,0,0.0,-1,0.0,0.0,0,0.0,0.4441
26664,1563729915917,9,2.28,0.54,0.31,0.65,0.49,0.76,-0.08,0.55,-0,1,-1,0.76,4321,7,90,39,54,506,0.0,391,468,60,117.0,0,1,212,242,41,0,0,0,250,250,0,414.87,,,,,,,,,,,,
26684,1563729915937,8,2.29,0.54,0.31,0.65,0.49,0.78,-0.06,0.54,-0,2,-1,0.78,4338,7,90,39,54,506,0.0,388,470,60,118.0,0,1,214,245,41,0,0,0,250,250,0,414.87,,,,,,,,,,,,
26704,1563729915957,7,2.28,0.54,0.3,0.64,0.48,0.8,-0.04,0.53,0,2,-1,0.8,4332,7,90,39,55,506,0.0,393,469,60,118.0,0,1,213,245,40,0,0,0,250,250,0,882.05,,,,,,,,,,,,
26724,1563729915977,7,2.29,0.53,0.31,0.64,0.48,0.84,-0.02,0.52,0,1,-0,0.84,4309,7,90,39,55,506,0.0,387,470,60,119.0,0,1,212,245,40,0,0,0,250,250,0,648.46,,,,,,,,,,,,
26744,1563729915991,6,2.29,0.53,0.3,0.63,0.48,0.86,-0.01,0.55,0,-1,0,0.86,4361,7,90,39,55,506,0.0,395,466,60,120.0,0,1,216,245,40,0,0,0,250,250,0,648.46,45.747856,4.906453,0.0,198.8,0,0.0,-1,0.0,0.0,0,0.0,0.4457
26764,1563729916011,6,2.28,0.53,0.3,0.63,0.48,0.9,-0.0,0.58,0,-3,1,0.9,4369,7,90,39,55,506,0.0,386,465,60,120.0,0,1,217,245,40,0,0,0,250,250,0,414.87,,,,,,,,,,,,
26784,1563729916031,6,2.29,0.54,0.29,0.63,0.48,0.85,0.0,0.57,0,-3,1,0.85,4347,7,90,39,55,506,0.0,385,471,60,120.0,0,1,214,245,40,0,0,0,250,250,0,414.87,,,,,,,,,,,,
26804,1563729916051,11,2.29,0.53,0.3,0.62,0.47,0.8,-0.02,0.56,0,-1,1,0.8,4348,7,90,39,55,506,0.0,391,471,60,120.0,0,1,214,245,40,0,0,0,250,250,0,414.87,,,,,,,,,,,,
26824,1563729916071,11,2.29,0.53,0.29,0.61,0.47,0.76,-0.02,0.54,0,1,-0,0.76,4337,7,89,39,55,506,0.0,388,472,60,120.0,0,1,213,245,40,0,0,0,250,250,0,414.87,,,,,,,,,,,,
26844,1563729916097,9,2.29,0.53,0.29,0.61,0.47,0.72,-0.03,0.54,0,2,-0,0.72,4358,7,89,39,55,506,0.0,391,468,60,119.0,0,1,215,245,40,0,0,0,250,250,0,414.87,45.747856,4.906453,0.0,198.8,0,0.0,-1,0.0,0.0,0,0.0,0.4474
26864,1563729916117,8,2.29,0.53,0.29,0.61,0.46,0.71,-0.03,0.51,-0,2,-1,0.71,4330,7,89,39,55,506,0.0,392,468,60,118.0,0,1,213,245,40,0,0,0,250,250,0,882.05,,,,,,,,,,,,
26884,1563729916137,7,2.28,0.53,0.28,0.61,0.46,0.73,-0.02,0.51,-0,2,-1,0.73,4381,7,89,39,55,506,0.0,398,469,60,117.0,0,1,218,245,40,0,0,0,250,250,0,-5.59,,,,,,,,,,,,
26904,1563729916157,6,2.29,0.53,0.28,0.62,0.45,0.75,-0.0,0.47,0,2,-1,0.75,4379,7,89,39,55,506,0.0,393,473,60,118.0,0,1,218,245,40,0,0,0,250,250,0,882.05,,,,,,,,,,,,
26924,1563729916177,7,2.28,0.53,0.28,0.61,0.45,0.79,0.03,0.46,0,1,-1,0.79,4369,7,89,39,55,506,0.0,390,470,60,119.0,0,1,217,245,40,0,0,0,250,250,0,882.05,,,,,,,,,,,,
26944,1563729916197,7,2.29,0.52,0.28,0.61,0.45,0.82,0.04,0.46,0,1,-0,0.82,4389,7,89,39,55,506,0.0,391,472,60,120.0,0,1,219,245,40,0,0,0,250,250,0,648.46,45.747856,4.906453,0.0,198.8,0,0.0,-1,0.0,0.0,0,0.0,0.4491
26964,1563729916217,7,2.29,0.52,0.28,0.6,0.46,0.84,0.03,0.48,0,-1,1,0.84,4373,7,89,39,55,506,0.0,388,468,60,120.0,0,1,217,245,40,0,0,0,250,250,0,648.46,,,,,,,,,,,,
26984,1563729916237,6,2.29,0.52,0.28,0.6,0.45,0.86,0.05,0.49,0,-2,1,0.86,4385,7,89,39,55,506,0.0,391,473,60,120.0,0,1,219,245,40,0,0,0,250,250,0,414.87,,,,,,,,,,,,
27004,1563729916257,8,2.28,0.53,0.28,0.6,0.44,0.89,0.03,0.5,0,-3,1,0.89,4372,7,89,39,55,506,0.0,385,470,60,120.0,0,1,217,245,41,0,0,0,250,250,0,414.87,,,,,,,,,,,,
27024,1563729916277,6,2.29,0.52,0.28,0.6,0.44,0.9,0.04,0.49,0,-2,1,0.9,4379,7,89,39,55,506,0.0,398,474,60,120.0,0,1,218,245,41,0,0,0,250,250,0,414.87,,,,,,,,,,,,
27044,1563729916297,11,2.28,0.52,0.28,0.6,0.45,0.88,0.04,0.5,0,-0,0,0.89,4395,7,89,39,55,506,0.0,390,470,60,120.0,0,1,220,241,41,0,0,0,250,250,0,414.87,45.747856,4.906453,0.0,198.8,0,0.0,-1,0.0,0.0,0,0.0,0.4507
27064,1563729916317,10,2.29,0.51,0.27,0.59,0.44,0.86,0.0,0.49,0,-0,-1,0.86,4386,7,89,39,54,506,0.0,391,467,60,119.0,0,1,220,241,41,0,0,0,250,250,0,414.87,,,,,,,,,,,,
27084,1563729916337,11,2.29,0.51,0.27,0.58,0.43,0.78,-0.03,0.54,0,1,0,0.78,4443,7,89,39,54,506,0.0,397,465,60,119.0,0,1,228,242,41,0,0,0,250,250,0,414.87,,,,,,,,,,,,
27104,1563729916357,10,2.28,0.52,0.27,0.58,0.42,0.73,-0.05,0.56,0,3,1,0.73,4454,7,88,39,54,506,0.0,396,464,60,119.0,0,1,229,246,40,0,0,0,250,250,0,414.87,,,,,,,,,,,,
27124,1563729916377,8,2.29,0.51,0.27,0.58,0.43,0.68,-0.04,0.56,0,4,0,0.68,4419,7,88,39,54,506,0.0,401,467,60,119.0,0,1,224,242,40,0,0,0,250,250,0,414.87,,,,,,,,,,,,
27144,1563729916397,8,2.29,0.51,0.27,0.57,0.43,0.67,-0.04,0.54,0,4,0,0.67,4452,7,88,39,54,506,0.0,397,469,60,118.0,0,1,229,242,40,0,0,0,250,250,0,414.87,45.747856,4.906453,0.0,198.8,0,0.0,-1,0.0,0.0,0,0.0,0.4524
27164,1563729916417,7,2.29,0.51,0.26,0.57,0.42,0.68,-0.04,0.53,-0,4,0,0.68,4391,7,88,39,54,506,0.0,403,468,60,118.0,0,1,221,245,40,0,0,0,250,250,0,414.87,,,,,,,,,,,,
27184,1563729916437,8,2.29,0.5,0.26,0.56,0.42,0.7,-0.04,0.54,-0,4,0,0.7,4428,7,88,39,54,506,0.0,397,472,60,117.0,0,1,226,246,40,0,0,0,250,250,0,882.05,,,,,,,,,,,,
27204,1563729916457,6,2.29,0.5,0.26,0.56,0.42,0.73,-0.03,0.54,-0,3,-1,0.73,4409,7,88,39,54,506,0.0,397,470,60,118.0,0,1,223,242,40,0,0,0,250,250,0,882.05,,,,,,,,,,,,
27224,1563729916477,7,2.29,0.5,0.25,0.56,0.41,0.75,-0.02,0.49,-0,5,1,0.75,4444,7,88,39,54,506,0.0,393,468,60,119.0,0,1,228,242,40,0,0,0,250,250,0,648.46,,,,,,,,,,,,
27244,1563729916497,6,2.28,0.5,0.26,0.55,0.4,0.77,-0.0,0.45,-0,5,1,0.77,4444,7,88,39,54,506,0.0,398,468,60,119.0,0,1,227,242,40,0,0,0,250,250,0,648.46,45.747856,4.906453,0.0,198.8,0,0.0,-1,0.0,0.0,0,0.0,0.4541
27264,1563729916517,7,2.29,0.5,0.25,0.54,0.4,0.84,-0.01,0.44,-0,5,2,0.84,4397,7,88,39,54,506,0.0,400,467,60,119.0,0,1,222,241,40,0,0,0,250,250,0,882.05,,,,,,,,,,,,
27284,1563729916537,7,2.29,0.5,0.26,0.56,0.42,0.87,-0.02,0.46,-0,4,2,0.87,4452,7,88,39,54,506,0.0,392,468,60,119.0,0,1,229,242,40,0,0,0,250,250,0,648.46,,,,,,,,,,,,
27304,1563729916557,7,2.28,0.5,0.26,0.56,0.41,0.89,0.02,0.45,-0,4,2,0.89,4422,7,88,39,54,506,0.0,396,477,60,120.0,0,1,225,246,40,0,0,0,250,250,0,648.46,,,,,,,,,,,,
27324,1563729916577,7,2.29,0.5,0.27,0.56,0.41,0.91,0.05,0.44,-0,2,3,0.91,4415,7,88,39,54,506,0.0,394,472,60,120.0,0,1,224,242,40,0,0,0,250,250,0,414.87,,,,,,,,,,,,
27344,1563729916597,6,2.29,0.51,0.27,0.56,0.42,0.93,0.05,0.46,-0,0,3,0.93,4407,7,88,39,54,506,0.0,391,465,60,120.0,0,1,223,242,40,0,0,0,250,250,0,414.87,45.747856,4.906453,0.0,198.8,0,0.0,-1,0.0,0.0,0,0.0,0.4557
27364,1563729916617,8,2.29,0.51,0.27,0.56,0.43,0.97,0.07,0.46,0,1,4,0.97,4403,7,88,39,54,506,0.0,394,468,60,120.0,0,1,222,242,40,0,0,0,250,250,0,414.87,,,,,,,,,,,,
27384,1563729916637,7,2.29,0.61,0.38,0.74,0.61,0.96,0.04,0.49,0,1,3,0.96,4400,7,88,39,54,506,0.0,392,470,60,120.0,0,1,222,242,40,0,0,0,250,250,0,414.87,,,,,,,,,,,,
27404,1563729916657,11,2.29,0.62,0.4,0.77,0.64,0.95,0.02,0.51,0,1,2,0.95,4379,7,87,39,54,506,0.0,397,468,60,120.0,0,1,219,241,40,0,0,0,250,250,0,414.87,,,,,,,,,,,,
27424,1563729916677,11,2.29,0.62,0.41,0.77,0.65,0.9,-0.0,0.52,0,1,2,0.9,4405,7,87,39,54,506,0.0,392,461,60,119.0,0,1,223,238,40,0,0,0,250,250,0,414.87,,,,,,,,,,,,
27444,1563729916696,11,2.29,0.64,0.42,0.78,0.67,0.84,-0.03,0.54,0,2,2,0.85,4408,7,87,39,54,506,0.0,397,466,60,118.0,0,1,223,242,40,0,0,0,250,250,0,414.87,45.747856,4.906453,0.0,198.8,0,0.0,-1,0.0,0.0,0,0.0,0.4574
27464,1563729916716,10,2.28,0.64,0.43,0.8,0.67,0.8,-0.07,0.57,-0,2,1,0.8,4392,7,87,39,54,506,0.0,402,468,60,118.0,0,1,221,241,40,0,0,0,250,250,0,414.87,,,,,,,,,,,,
27484,1563729916736,9,2.28,0.64,0.44,0.81,0.69,0.77,-0.06,0.56,-0,2,0,0.77,4404,7,87,39,54,506,0.0,396,466,60,118.0,0,1,222,242,40,0,0,0,250,250,0,414.87,,,,,,,,,,,,
27504,1563729916756,8,2.29,0.64,0.44,0.81,0.7,0.78,-0.04,0.55,-0,2,-0,0.78,4376,7,87,39,54,506,0.0,395,472,60,118.0,0,1,219,245,40,0,0,0,250,250,0,414.87,,,,,,,,,,,,
27524,1563729916776,8,2.29,0.65,0.45,0.82,0.7,0.83,-0.04,0.55,-0,2,-1,0.83,4378,7,87,39,54,506,0.0,392,470,60,118.0,0,1,219,241,40,0,0,0,250,250,0,882.05,,,,,,,,,,,,
27544,1563729916796,8,2.29,0.65,0.45,0.83,0.7,0.84,-0.03,0.54,-0,1,-0,0.84,4339,7,87,39,54,506,0.0,398,471,60,119.0,0,1,214,241,40,0,0,0,250,250,0,882.05,45.747856,4.906453,0.0,198.8,0,0.0,-1,0.0,0.0,0,0.0,0.4591
27564,1563729916816,8,2.29,0.66,0.46,0.83,0.71,0.84,-0.04,0.55,0,1,0,0.84,4341,7,87,39,54,506,0.0,387,472,60,119.0,0,1,214,241,40,0,0,0,250,250,0,648.46,,,,,,,,,,,,
27584,1563729916836,7,2.29,0.65,0.46,0.84,0.72,0.86,-0.05,0.51,0,-1,0,0.86,4378,7,87,39,54,506,0.0,391,472,60,120.0,0,1,219,241,40,0,0,0,250,250,0,414.87,,,,,,,,,,,,
27604,1563729916856,8,2.29,0.66,0.46,0.85,0.72,0.9,-0.06,0.49,0,-2,1,0.91,4321,7,87,39,54,506,0.0,391,466,60,120.0,0,1,212,241,39,0,0,0,250,250,0,414.87,,,,,,,,,,,,
27624,1563729916876,8,2.29,0.66,0.47,0.85,0.73,0.92,-0.04,0.5,-0,-2,1,0.92,4345,7,87,39,55,506,0.0,384,467,60,119.0,0,1,214,245,39,0,0,0,250,250,0,414.87,,,,,,,,,,,,
27644,1563729916896,10,2.29,0.66,0.47,0.85,0.73,0.9,-0.03,0.51,-0,-1,1,0.9,4345,7,87,39,55,506,0.0,388,468,60,120.0,0,1,214,241,39,0,0,0,250,250,0,414.87,45.747856,4.906453,0.0,198.8,0,0.0,-1,0.0,0.0,0,0.0,0.4607
27664,1563729916916,10,2.28,0.66,0.47,0.86,0.73,0.83,-0.04,0.53,-0,1,0,0.83,4343,7,87,39,54,506,0.0,385,466,60,119.0,0,1,214,241,39,0,0,0,250,250,0,414.87,,,,,,,,,,,,
27684,1563729916936,10,2.29,0.67,0.48,0.87,0.73,0.8,-0.07,0.52,-0,2,-0,0.8,4366,7,86,39,54,506,0.0,396,463,60,119.0,0,1,217,241,39,0,0,0,250,250,0,414.87,,,,,,,,,,,,
27704,1563729916956,8,2.28,0.67,0.48,0.86,0.74,0.78,-0.05,0.52,-0,2,-1,0.79,4345,7,86,39,55,506,0.0,392,471,60,118.0,0,1,214,244,39,0,0,0,250,250,0,414.87,,,,,,,,,,,,
27724,1563729916976,6,2.29,0.66,0.48,0.87,0.75,0.82,-0.04,0.53,-0,1,-1,0.82,4338,7,86,39,54,506,0.0,389,470,60,118.0,0,1,214,244,39,0,0,0,250,250,0,882.05,,,,,,,,,,,,
27744,1563729916996,8,2.28,0.66,0.48,0.88,0.74,0.83,-0.02,0.5,-0,0,-1,0.83,4360,7,86,39,55,506,0.0,392,470,60,118.0,0,1,216,239,39,0,0,0,250,250,0,882.05,45.747856,4.906453,0.0,198.8,0,0.0,-1,0.0,0.0,0,0.0,0.4624
27764,1563729917010,7,2.29,0.66,0.49,0.87,0.75,0.85,-0.02,0.51,-0,-0,-0,0.85,4352,7,86,39,55,506,0.0,388,470,60,119.0,0,1,215,244,39,0,0,0,250,250,0,648.46,,,,,,,,,,,,
27784,1563729917030,7,2.29,0.67,0.48,0.89,0.75,0.87,-0.03,0.51,-0,-1,0,0.87,4356,7,86,39,55,506,0.0,387,470,60,120.0,0,1,215,244,39,0,0,0,250,250,0,414.87,,,,,,,,,,,,
27804,1563729917050,6,2.29,0.67,0.49,0.88,0.76,0.91,-0.03,0.53,-0,-3,1,0.91,4380,7,86,39,55,506,0.0,386,467,60,120.0,0,1,218,244,39,0,0,0,250,250,0,414.87,,,,,,,,,,,,
27824,1563729917070,7,2.28,0.67,0.49,0.89,0.76,0.93,-0.04,0.55,-0,-4,1,0.93,4391,7,86,39,55,506,0.0,394,471,60,119.0,0,1,220,244,39,0,0,0,250,250,0,414.87,,,,,,,,,,,,
27844,1563729917098,7,2.29,0.67,0.5,0.88,0.76,0.93,-0.01,0.54,-0,-4,1,0.93,4389,7,86,39,55,506,0.0,389,466,60,120.0,0,1,219,239,39,0,0,0,250,250,0,414.87,45.747856,4.906453,0.0,198.8,0,0.0,-1,0.0,0.0,0,0.0,0.4641
27864,1563729917118,10,2.29,0.67,0.49,0.89,0.76,0.9,-0.01,0.54,-0,-1,1,0.9,4389,7,86,39,54,506,0.0,393,463,60,120.0,0,1,220,239,39,0,0,0,250,250,0,414.87,,,,,,,,,,,,
27884,1563729917138,10,2.29,0.67,0.5,0.9,0.76,0.85,-0.01,0.52,-0,1,0,0.85,4361,7,86,39,54,506,0.0,400,463,60,119.0,0,1,217,244,39,0,0,0,250,250,0,414.87,,,,,,,,,,,,
27904,1563729917158,10,2.28,0.66,0.49,0.9,0.76,0.8,-0.04,0.53,-0,1,-1,0.8,4355,7,86,39,54,506,0.0,389,463,60,119.0,0,1,216,239,40,0,0,0,250,250,0,414.87,,,,,,,,,,,,
27924,1563729917178,9,2.29,0.67,0.5,0.89,0.76,0.77,-0.04,0.54,-0,1,-1,0.77,4404,7,86,39,54,506,0.0,397,465,60,118.0,0,1,222,240,40,0,0,0,250,250,0,414.87,,,,,,,,,,,,
27944,1563729917196,8,2.29,0.67,0.5,0.9,0.76,0.76,-0.02,0.53,-0,1,-2,0.76,4360,7,85,39,54,506,0.0,389,466,60,117.0,0,1,217,239,40,0,0,0,250,250,0,414.87,45.747856,4.906453,0.0,198.8,0,0.0,-1,0.0,0.0,0,0.0,0.4657
27964,1563729917216,8,2.28,0.68,0.5,0.9,0.76,0.78,-0.02,0.52,-0,2,-2,0.78,4428,7,85,39,54,506,0.0,398,469,60,118.0,0,1,226,240,40,0,0,0,250,250,0,882.05,,,,,,,,,,,,
27984,1563729917236,7,2.29,0.67,0.5,0.9,0.77,0.79,0.0,0.5,-0,2,-1,0.79,4432,7,85,39,54,506,0.0,402,467,60,118.0,0,1,226,245,40,0,0,0,250,250,0,882.05,,,,,,,,,,,,
28004,1563729917256,7,2.29,0.68,0.5,0.91,0.77,0.84,-0.01,0.49,-0,1,-1,0.84,4403,7,85,39,55,506,0.0,393,472,60,119.0,0,1,224,245,40,0,0,0,250,250,0,882.05,,,,,,,,,,,,
28024,1563729917276,7,2.29,0.67,0.51,0.9,0.78,0.88,-0.02,0.51,-0,-0,-1,0.88,4450,7,85,39,54,506,0.0,401,466,60,119.0,0,1,227,239,40,0,0,0,250,250,0,882.05,,,,,,,,,,,,
28044,1563729917298,8,2.29,0.68,0.5,0.91,0.78,0.9,0.01,0.49,-0,-2,-0,0.9,4435,7,85,39,54,506,0.0,395,470,60,119.0,0,1,226,239,40,0,0,0,250,250,0,648.46,45.747856,4.906453,0.0,198.8,0,0.0,-1,0.0,0.0,0,0.0,0.4674
28064,1563729917318,7,2.29,0.68,0.5,0.9,0.77,0.91,0.02,0.51,0,-2,0,0.91,4420,7,85,39,55,506,0.0,398,467,60,120.0,0,1,224,239,40,0,0,0,250,250,0,648.46,,,,,,,,,,,,
28084,1563729917338,7,2.29,0.68,0.51,0.91,0.78,0.92,0.0,0.52,-0,-3,1,0.92,4439,7,85,39,54,506,0.0,393,465,60,120.0,0,1,227,239,40,0,0,0,250,250,0,414.87,,,,,,,,,,,,
28104,1563729917358,7,2.29,0.68,0.5,0.92,0.77,0.94,0.01,0.52,0,-4,2,0.94,4396,7,85,39,54,506,0.0,397,471,60,120.0,0,1,221,238,40,0,0,0,250,250,0,414.87,,,,,,,,,,,,
28124,1563729917378,8,2.29,0.68,0.51,0.92,0.78,0.97,-0.0,0.49,0,-5,2,0.97,4395,7,85,39,54,506,0.0,391,467,60,120.0,0,1,221,238,40,0,0,0,250,250,0,414.87,,,,,,,,,,,,
28144,1563729917398,8,2.28,0.68,0.51,0.91,0.77,0.98,0.02,0.48,0,-4,2,0.98,4424,7,85,39,54,506,0.0,394,468,60,120.0,0,1,225,239,40,0,0,0,250,250,0,414.87,45.747856,4.906453,0.0,198.8,0,0.0,-1,0.0,0.0,0,0.0,0.4691
28164,1563729917418,6,2.3,0.68,0.51,0.92,0.77,0.98,0.02,0.5,0,-4,1,0.98,4373,7,85,39,54,506,0.0,394,464,60,120.0,0,1,218,238,40,0,0,0,250,250,0,414.87,,,,,,,,,,,,
28184,1563729917438,11,2.28,0.68,0.51,0.92,0.78,0.94,0.01,0.52,0,-4,1,0.94,4423,7,84,39,54,506,0.0,389,464,60,122.0,0,1,225,239,40,0,0,0,250,250,0,414.87,,,,,,,,,,,,
28204,1563729917458,11,2.29,0.67,0.51,0.92,0.79,0.87,-0.01,0.53,0,-3,0,0.87,4412,7,84,39,54,506,0.0,397,466,60,121.0,0,1,223,239,40,0,0,0,250,250,0,414.87,,,,,,,,,,,,
28224,1563729917478,10,2.3,0.68,0.51,0.92,0.78,0.8,-0.03,0.52,0,-0,0,0.81,4415,7,84,39,54,506,0.0,394,466,60,122.0,0,1,224,239,40,0,0,0,250,250,0,414.87,,,,,,,,,,,,
28244,1563729917498,10,2.29,0.68,0.51,0.92,0.79,0.75,-0.04,0.5,0,1,-1,0.75,4395,7,84,39,54,506,0.0,398,466,60,122.0,0,1,221,238,40,0,0,0,250,250,0,414.87,45.747856,4.906453,0.0,198.8,0,0.0,-1,0.0,0.0,0,0.0,0.4707
28264,1563729917518,9,2.3,0.68,0.52,0.92,0.78,0.75,-0.03,0.49,0,2,-1,0.75,4392,7,84,39,54,506,0.0,397,465,60,121.0,0,1,221,236,40,0,0,0,250,250,0,414.87,,,,,,,,,,,,
28284,1563729917538,8,2.29,0.68,0.52,0.92,0.79,0.74,-0.04,0.48,-0,2,-2,0.74,4392,7,84,39,54,506,0.0,396,465,60,120.0,0,1,221,236,40,0,0,0,250,250,0,414.87,,,,,,,,,,,,
28304,1563729917558,8,2.28,0.68,0.51,0.93,0.79,0.75,-0.04,0.48,0,1,-1,0.75,4384,7,84,39,54,506,0.0,401,470,60,120.0,0,1,220,236,40,0,0,0,250,250,0,882.05,,,,,,,,,,,,
28324,1563729917578,8,2.29,0.68,0.51,0.92,0.79,0.78,-0.03,0.49,-0,1,-1,0.78,4395,7,84,39,54,506,0.0,392,463,60,122.0,0,1,224,236,40,0,0,0,250,250,0,882.05,,,,,,,,,,,,
28344,1563729917598,8,2.28,0.68,0.51,0.93,0.79,0.81,-0.01,0.48,0,0,-1,0.81,4395,7,84,39,54,506,0.0,392,469,60,122.0,0,1,221,236,40,0,0,0,250,250,0,882.05,45.747856,4.906453,0.0,198.8,0,0.0,-1,0.0,0.0,0,0.0,0.4724
28364,1563729917618,7,2.29,0.68,0.51,0.92,0.79,0.85,-0.0,0.48,0,-0,-1,0.85,4400,7,84,39,54,506,0.0,391,465,60,122.0,0,1,222,237,40,0,0,0,250,250,0,648.46,,,,,,,,,,,,
28384,1563729917638,7,2.29,0.68,0.51,0.92,0.79,0.87,-0.01,0.5,0,-2,0,0.87,4410,7,84,39,54,506,0.0,396,467,60,122.0,0,1,223,237,40,0,0,0,250,250,0,648.46,,,,,,,,,,,,
28404,1563729917658,7,2.29,0.68,0.52,0.93,0.79,0.89,-0.01,0.52,0,-3,1,0.89,4381,7,84,39,54,506,0.0,394,471,60,123.0,0,1,219,236,39,0,0,0,250,250,0,414.87,,,,,,,,,,,,
28424,1563729917678,7,2.28,0.68,0.51,0.93,0.79,0.92,-0.01,0.52,0,-4,1,0.92,4406,7,84,39,54,506,0.0,388,468,60,123.0,0,1,223,237,39,0,0,0,250,250,0,414.87,,,,,,,,,,,,
28444,1563729917697,7,2.29,0.68,0.52,0.93,0.79,0.95,0.02,0.49,0,-3,1,0.95,4384,7,84,39,54,506,0.0,392,470,60,123.0,0,1,220,236,39,0,0,0,250,250,0,414.87,45.747856,4.906453,0.0,198.8,0,0.0,-1,0.0,0.0,0,0.0,0.4741
28464,1563729917717,7,2.29,0.68,0.52,0.92,0.8,0.94,0.01,0.49,0,-2,1,0.94,4358,7,84,39,54,506,0.0,388,466,60,123.0,0,1,216,236,39,0,0,0,250,250,0,414.87,,,,,,,,,,,,
28484,1563729917737,9,2.3,0.69,0.52,0.92,0.8,0.89,-0.01,0.5,0,-1,0,0.89,4391,7,83,39,54,506,0.0,391,462,60,121.0,0,1,221,236,39,0,0,0,250,250,0,414.87,,,,,,,,,,,,
28504,1563729917757,10,2.28,0.69,0.52,0.93,0.79,0.82,-0.05,0.53,-0,-1,-1,0.83,4384,7,83,39,54,506,0.0,395,465,60,121.0,0,1,220,235,39,0,0,0,250,250,0,414.87,,,,,,,,,,,,
28524,1563729917777,10,2.28,0.69,0.52,0.93,0.79,0.77,-0.06,0.54,-0,0,-1,0.77,4423,7,83,39,54,506,0.0,394,463,60,122.0,0,1,225,236,39,0,0,0,250,250,0,414.87,,,,,,,,,,,,
28544,1563729917797,7,2.29,0.69,0.52,0.93,0.8,0.74,-0.05,0.53,-0,2,-1,0.74,4394,7,83,39,54,506,0.0,400,466,60,121.0,0,1,221,235,39,0,0,0,250,250,0,414.87,45.747856,4.906453,0.0,198.8,0,0.0,-1,0.0,0.0,0,0.0,0.4757
28564,1563729917817,7,2.3,0.69,0.52,0.94,0.79,0.76,-0.05,0.5,-0,2,-1,0.76,4425,7,83,39,54,506,0.0,394,465,60,120.0,0,1,225,236,39,0,0,0,250,250,0,414.87,,,,,,,,,,,,
28584,1563729917837,6,2.29,0.68,0.51,0.92,0.79,0.78,-0.04,0.49,-0,2,-1,0.78,4378,7,83,39,54,506,0.0,399,467,60,120.0,0,1,219,235,39,0,0,0,250,250,0,882.05,,,,,,,,,,,,
28604,1563729917857,8,2.29,0.69,0.52,0.94,0.79,0.83,-0.05,0.5,-0,1,-1,0.83,4406,7,83,39,54,506,0.0,393,470,60,121.0,0,1,223,235,39,0,0,0,250,250,0,882.05,,,,,,,,,,,,
28624,1563729917877,6,2.29,0.68,0.52,0.93,0.8,0.86,-0.05,0.51,-0,-0,-2,0.86,4441,7,83,39,54,506,0.0,396,467,60,122.0,0,1,227,236,39,0,0,0,250,250,0,648.46,,,,,,,,,,,,
28644,1563729917897,5,2.3,0.68,0.52,0.94,0.79,0.86,-0.02,0.5,-0,0,-1,0.86,4410,7,83,39,54,506,0.0,398,468,60,121.0,0,1,225,236,39,0,0,0,250,250,0,882.05,45.747856,4.906453,0.0,198.8,0,0.0,-1,0.0,0.0,0,0.0,0.4774
28664,1563729917917,6,2.3,0.69,0.51,0.94,0.8,0.88,-0.01,0.5,-0,0,-1,0.88,4430,7,83,39,54,506,0.0,395,465,60,122.0,0,1,226,236,39,0,0,0,250,250,0,648.46,,,,,,,,,,,,
28684,1563729917937,7,2.29,0.69,0.51,0.94,0.79,0.91,-0.03,0.5,-0,-1,-0,0.91,4432,7,83,39,54,506,0.0,402,464,60,122.0,0,1,226,236,39,0,0,0,250,250,0,648.46,,,,,,,,,,,,
28704,1563729917957,7,2.29,0.69,0.51,0.93,0.79,0.92,-0.02,0.51,-0,-2,0,0.92,4423,7,83,39,54,506,0.0,391,472,60,123.0,0,1,225,236,39,0,0,0,250,250,0,648.46,,,,,,,,,,,,
28724,1563729917977,7,2.29,0.69,0.52,0.94,0.79,0.94,0.01,0.51,0,-4,1,0.94,4452,7,83,39,54,506,0.0,394,465,60,122.0,0,1,229,234,39,0,0,0,250,250,0,648.46,,,,,,,,,,,,
28744,1563729917991,6,2.28,0.66,0.51,0.93,0.78,0.96,0.04,0.5,0,-4,1,0.96,4452,7,83,39,54,506,0.0,398,466,60,123.0,0,1,229,234,39,0,0,0,250,250,0,414.87,45.747856,4.906453,0.0,198.8,0,0.0,-1,0.0,0.0,0,0.0,0.4791
28764,1563729918011,7,2.3,0.68,0.52,0.93,0.8,0.98,0.07,0.52,0,-4,2,0.98,4430,7,83,39,54,506,0.0,393,467,60,123.0,0,1,226,234,39,0,0,0,250,250,0,414.87,,,,,,,,,,,,
28784,1563729918031,6,2.29,0.68,0.52,0.93,0.79,1.0,0.08,0.51,0,-5,2,1.01,4423,7,83,39,54,506,0.0,396,470,60,123.0,0,1,225,234,39,0,0,0,250,250,0,414.87,,,,,,,,,,,,
28804,1563729918051,6,2.3,0.68,0.52,0.93,0.8,1.02,0.06,0.52,0,-5,2,1.02,4411,7,83,39,54,506,0.0,386,470,60,122.0,0,1,223,234,39,0,0,0,250,250,0,414.87,,,,,,,,,,,,
28824,1563729918071,6,2.29,0.68,0.52,0.93,0.79,1.02,0.06,0.52,0,-4,1,1.02,4437,7,82,39,54,506,0.0,402,466,60,122.0,0,1,227,234,39,0,0,0,250,250,0,414.87,,,,,,,,,,,,
28844,1563729918091,5,2.3,0.68,0.51,0.93,0.78,0.99,0.06,0.53,0,-4,1,0.99,4392,7,82,39,54,506,0.0,392,465,60,122.0,0,1,221,233,39,0,0,0,250,250,0,414.87,45.747856,4.906453,0.0,198.8,0,0.0,-1,0.0,0.0,0,0.0,0.4807
28864,1563729918111,11,2.29,0.68,0.51,0.93,0.79,0.93,0.03,0.56,0,-3,1,0.93,4424,7,82,39,54,506,0.0,394,463,60,122.0,0,1,225,234,39,0,0,0,250,250,0,414.87,,,,,,,,,,,,
28884,1563729918131,11,2.28,0.68,0.51,0.93,0.78,0.86,-0.01,0.58,-0,-2,0,0.86,4416,7,82,39,54,506,0.0,398,467,60,122.0,0,1,224,233,39,0,0,0,250,250,0,414.87,,,,,,,,,,,,
28904,1563729918107,8,2.3,0.68,0.51,0.93,0.78,0.78,-0.02,0.55,0,0,0,0.78,4419,7,82,39,54,506,0.0,393,463,60,122.0,0,1,224,233,38,0,0,0,250,250,0,414.87,,,,,,,,,,,,
28924,1563729918127,7,2.29,0.68,0.51,0.93,0.78,0.76,-0.0,0.52,0,2,-1,0.76,4375,7,82,39,54,506,0.0,398,463,60,122.0,0,1,219,232,38,0,0,0,250,250,0,414.87,,,,,,,,,,,,
28944,1563729918197,9,2.28,0.68,0.51,0.93,0.78,0.81,-0.01,0.5,0,1,-1,0.81,4361,7,82,39,54,506,0.0,390,466,60,120.0,0,1,217,232,38,0,0,0,250,250,0,414.87,45.747856,4.906453,0.0,198.8,0,0.0,-1,0.0,0.0,0,0.0,0.4824
28964,1563729918217,7,2.29,0.68,0.51,0.93,0.78,0.81,-0.01,0.5,0,1,-1,0.81,4369,7,82,39,54,506,0.0,400,466,60,122.0,0,1,218,232,38,0,0,0,250,250,0,882.05,,,,,,,,,,,,
28984,1563729918237,6,2.29,0.68,0.51,0.93,0.78,0.82,-0.02,0.5,0,-0,-1,0.82,4340,7,82,39,54,506,0.0,390,465,60,122.0,0,1,214,232,38,0,0,0,250,250,0,882.05,,,,,,,,,,,,
29004,1563729918257,6,2.29,0.68,0.51,0.93,0.79,0.83,-0.03,0.52,0,-1,-0,0.83,4351,7,82,39,54,506,0.0,387,470,60,122.0,0,1,215,232,38,0,0,0,250,250,0,648.46,,,,,,,,,,,,
29024,1563729918277,5,2.29,0.68,0.51,0.92,0.79,0.87,-0.02,0.5,0,-2,0,0.87,4357,7,82,39,54,506,0.0,387,467,60,122.0,0,1,216,232,38,0,0,0,250,250,0,648.46,,,,,,,,,,,,
29044,1563729918297,6,2.29,0.68,0.51,0.94,0.78,0.9,0.0,0.49,0,-3,1,0.9,4345,7,82,39,54,506,0.0,385,468,60,123.0,0,1,215,232,38,0,0,0,250,250,0,414.87,45.747856,4.906453,0.0,198.8,0,0.0,-1,0.0,0.0,0,0.0,0.4841
29064,1563729918317,7,2.29,0.67,0.5,0.93,0.78,0.91,0.01,0.52,0,-3,1,0.91,4367,7,82,39,54,506,0.0,390,468,60,123.0,0,1,218,230,38,0,0,0,250,250,0,414.87,,,,,,,,,,,,
29084,1563729918337,11,2.29,0.68,0.51,0.94,0.78,0.89,0.0,0.53,0,-2,1,0.89,4353,7,82,39,54,506,0.0,383,469,60,123.0,0,1,216,230,38,0,0,0,250,250,0,414.87,,,,,,,,,,,,
29104,1563729918357,9,2.29,0.69,0.51,0.94,0.78,0.83,-0.02,0.53,0,-1,-0,0.83,4352,7,82,39,54,506,0.0,395,467,60,122.0,0,1,216,230,38,0,0,23,250,250,0,181.28,,,,,,,,,,,,
29124,1563729918377,9,2.28,0.68,0.51,0.94,0.78,0.78,-0.01,0.51,0,0,-0,0.78,4336,7,82,39,54,506,0.0,389,462,60,122.0,0,1,214,230,38,0,0,23,250,250,0,414.87,,,,,,,,,,,,
29144,1563729918397,8,2.28,0.68,0.51,0.94,0.78,0.8,0.0,0.51,0,1,-1,0.8,4310,7,82,39,54,506,0.0,387,468,60,121.0,0,1,210,230,38,0,0,23,250,250,0,414.87,45.747856,4.906453,0.0,198.8,0,0.0,-1,0.0,0.0,0,0.0,0.4857
29164,1563729918417,5,2.29,0.68,0.51,0.93,0.79,0.84,0.0,0.51,0,0,-1,0.84,4339,7,82,39,55,506,0.0,387,469,60,121.0,0,1,213,235,38,0,0,23,250,250,0,882.05,,,,,,,,,,,,
29184,1563729918437,5,2.28,0.68,0.51,0.93,0.78,0.85,-0.01,0.52,0,-1,-1,0.85,4315,7,82,39,55,506,0.0,387,469,60,122.0,0,1,211,234,38,0,0,23,250,250,0,648.46,,,,,,,,,,,,
29204,1563729918403,6,2.29,0.68,0.5,0.93,0.79,0.86,-0.01,0.52,0,-2,0,0.86,4302,7,82,39,55,506,0.0,383,467,60,122.0,0,1,209,235,38,0,0,23,250,250,0,648.46,,,,,,,,,,,,
29224,1563729918423,7,2.28,0.68,0.51,0.93,0.78,0.9,-0.01,0.52,0,-3,0,0.9,4336,7,82,39,55,506,0.0,380,468,60,123.0,0,1,213,233,38,0,0,23,250,250,0,414.87,,,,,,,,,,,,
29244,1563729918443,8,2.29,0.68,0.51,0.92,0.79,0.9,-0.0,0.55,0,-4,0,0.9,4303,7,82,39,55,506,0.0,385,472,60,122.0,0,1,209,233,38,0,0,23,250,250,0,414.87,45.747856,4.906453,0.0,198.8,0,0.0,-1,0.0,0.0,0,0.0,0.4874
29264,1563729918463,10,2.3,0.67,0.51,0.93,0.79,0.88,-0.01,0.56,0,-3,-0,0.88,4345,7,81,39,55,506,0.0,384,470,60,122.0,0,1,214,229,38,0,0,15,250,250,0,414.87,,,,,,,,,,,,
29284,1563729918483,10,2.29,0.68,0.5,0.93,0.78,0.82,-0.02,0.56,0,-0,-1,0.82,4322,7,81,39,54,506,0.0,389,465,60,122.0,0,1,212,233,38,0,0,15,250,250,0,414.87,,,,,,,,,,,,
29304,1563729918499,7,2.3,0.68,0.51,0.93,0.78,0.82,-0.03,0.53,-0,1,-1,0.82,4315,7,81,39,54,506,0.0,387,465,60,121.0,0,1,211,233,37,0,0,15,250,250,0,414.87,,,,,,,,,,,,
29324,1563729918519,8,2.29,0.68,0.51,0.92,0.79,0.83,-0.02,0.51,-0,1,-1,0.83,4333,7,81,39,55,506,0.0,388,468,60,122.0,0,1,213,233,37,0,0,15,250,250,0,882.05,,,,,,,,,,,,
29344,1563729918539,6,2.29,0.67,0.51,0.93,0.78,0.87,-0.03,0.52,-0,-0,-0,0.87,4349,7,81,39,55,506,0.0,391,470,60,121.0,0,1,212,157,37,0,0,15,250,250,0,882.05,45.747856,4.906453,0.0,198.8,0,0.0,-1,0.0,0.0,0,0.0,0.4891
29364,1563729918559,7,2.3,0.68,0.51,0.93,0.78,0.86,-0.03,0.54,-0,-2,-0,0.86,4332,7,81,39,55,506,0.0,379,466,60,122.0,0,1,213,233,37,0,0,15,250,250,0,648.46,,,,,,,,,,,,
29384,1563729918579,6,2.29,0.68,0.51,0.94,0.78,0.89,-0.03,0.53,-0,-3,1,0.89,4344,7,81,39,55,506,0.0,389,470,60,123.0,0,1,214,232,37,0,0,15,250,250,0,414.87,,,,,,,,,,,,
29404,1563729918594,7,2.29,0.68,0.51,0.93,0.79,0.93,0.0,0.51,-0,-3,1,0.93,4326,7,81,39,55,506,0.0,385,471,60,123.0,0,1,212,232,38,0,0,15,250,250,0,414.87,,,,,,,,,,,,
29424,1563729918614,6,2.3,0.68,0.51,0.93,0.79,0.93,-0.0,0.51,-0,-2,1,0.93,4324,7,81,39,55,506,0.0,382,471,60,123.0,0,1,212,232,38,0,0,15,250,250,0,414.87,,,,,,,,,,,,
29444,1563729918634,10,2.29,0.68,0.51,0.94,0.79,0.88,-0.02,0.52,-0,-1,0,0.88,4341,7,81,39,55,506,0.0,386,463,60,122.0,0,1,214,232,38,0,0,15,250,250,0,414.87,45.747856,4.906453,0.0,198.8,0,0.0,-1,0.0,0.0,0,0.0,0.4907
29464,1563729918654,10,2.29,0.69,0.52,0.93,0.8,0.83,-0.05,0.54,-0,-1,-0,0.83,4321,7,81,39,55,506,0.0,390,470,60,122.0,0,1,212,232,38,0,0,15,250,250,0,414.87,,,,,,,,,,,,
29484,1563729918674,9,2.29,0.69,0.52,0.94,0.79,0.77,-0.04,0.53,-0,0,-1,0.77,4388,7,81,39,54,506,0.0,392,468,60,120.0,0,1,220,232,38,0,0,15,250,250,0,414.87,,,,,,,,,,,,
29504,1563729918694,6,2.3,0.69,0.52,0.94,0.79,0.78,-0.02,0.52,-0,1,-1,0.78,4383,7,81,39,55,506,0.0,388,473,60,121.0,0,1,219,232,38,0,0,15,250,250,0,882.05,,,,,,,,,,,,
29524,1563729918710,7,2.28,0.69,0.52,0.95,0.8,0.81,-0.01,0.49,-0,2,-1,0.81,4374,7,81,39,55,506,0.0,393,471,60,121.0,0,1,217,232,38,0,0,15,250,250,0,882.05,,,,,,,,,,,,
29544,1563729918796,5,2.29,0.69,0.51,0.94,0.8,0.83,0.01,0.49,0,1,-1,0.83,4394,7,81,39,55,506,0.0,391,466,60,122.0,0,1,219,232,38,0,0,15,250,250,0,882.05,45.747856,4.906453,0.0,198.8,0,0.0,-1,0.0,0.0,0,0.0,0.4924
29564,1563729918816,7,2.28,0.69,0.52,0.95,0.8,0.86,-0.01,0.5,0,-0,-0,0.86,4394,7,81,39,55,506,0.0,391,468,60,122.0,0,1,217,232,38,0,0,15,250,250,0,648.46,,,,,,,,,,,,
29584,1563729918836,7,2.28,0.69,0.52,0.94,0.79,0.85,-0.01,0.53,0,-2,0,0.86,4378,7,81,39,55,505,0.0,387,467,60,123.0,0,1,218,232,38,0,0,15,250,250,0,648.46,,,,,,,,,,,,
29604,1563729918856,6,2.29,0.69,0.51,0.94,0.8,0.89,-0.02,0.52,0,-3,1,0.89,4383,7,81,39,55,505,0.0,386,471,60,123.0,0,1,219,232,38,0,0,15,250,250,0,414.87,,,,,,,,,,,,
29624,1563729918876,5,2.29,0.69,0.52,0.94,0.81,0.91,0.02,0.49,0,-3,1,0.91,4362,7,81,39,55,506,0.0,392,473,60,123.0,0,1,216,232,38,0,0,15,250,250,0,414.87,,,,,,,,,,,,
29644,1563729918896,7,2.29,0.69,0.52,0.95,0.8,0.92,0.03,0.5,0,-3,1,0.92,4377,7,81,39,55,506,0.0,382,469,60,123.0,0,1,218,232,38,0,0,6,250,250,0,414.87,45.747856,4.906453,0.0,198.8,0,0.0,-1,0.0,0.0,0,0.0,0.4941
29664,1563729918916,7,2.28,0.69,0.52,0.94,0.8,0.91,0.01,0.52,0,-3,1,0.91,4399,7,81,39,55,506,0.0,393,470,60,122.0,0,1,221,232,38,0,0,6,250,250,0,414.87,,,,,,,,,,,,
29684,1563729918936,10,2.29,0.68,0.53,0.95,0.8,0.85,-0.01,0.54,-0,-3,0,0.85,4392,7,81,39,55,506,0.0,389,467,60,122.0,0,1,220,228,38,0,0,6,250,250,0,414.87,,,,,,,,,,,,
29704,1563729918956,10,2.29,0.69,0.52,0.95,0.81,0.82,-0.03,0.55,-0,-1,0,0.82,4396,7,81,39,55,506,0.0,391,466,60,122.0,0,1,220,228,38,0,0,6,250,250,0,414.87,,,,,,,,,,,,
29724,1563729918976,10,2.29,0.69,0.52,0.95,0.81,0.76,-0.03,0.54,-0,1,-0,0.76,4382,7,81,39,55,506,0.0,392,463,60,122.0,0,1,219,228,38,0,0,6,250,250,0,414.87,,,,,,,,,,,,
29744,1563729918992,8,2.29,0.69,0.52,0.95,0.81,0.76,-0.03,0.51,-0,2,-1,0.76,4439,7,81,39,55,505,0.0,394,471,60,120.0,0,1,226,233,38,0,0,6,250,250,0,882.05,45.747856,4.906453,0.0,198.8,0,0.0,-1,0.0,0.0,0,0.0,0.4957
29764,1563729919012,7,2.29,0.69,0.52,0.94,0.81,0.76,-0.03,0.51,-0,2,-1,0.76,4400,7,81,39,55,506,0.0,399,465,60,121.0,0,1,221,233,38,0,0,6,250,250,0,414.87,,,,,,,,,,,,
29784,1563729919032,7,2.29,0.69,0.52,0.96,0.8,0.77,-0.03,0.52,-0,1,-2,0.77,4413,7,81,39,55,506,0.0,391,467,60,120.0,0,1,223,233,38,0,0,6,250,250,0,414.87,,,,,,,,,,,,
29804,1563729919052,6,2.29,0.69,0.52,0.96,0.81,0.8,-0.03,0.52,-0,1,-2,0.8,4401,7,80,39,55,506,0.0,396,467,60,122.0,0,1,221,233,38,0,0,6,250,250,0,882.05,,,,,,,,,,,,
29824,1563729919072,5,2.28,0.69,0.52,0.95,0.8,0.82,-0.0,0.5,-0,1,-2,0.82,4381,7,81,39,54,505,0.0,392,470,60,121.0,0,1,222,228,38,0,0,6,250,250,0,882.05,,,,,,,,,,,,
29844,1563729919096,5,2.3,0.69,0.52,0.95,0.8,0.84,0.01,0.49,-0,1,-1,0.84,4414,7,81,39,55,505,0.0,393,467,60,122.0,0,1,223,229,38,0,0,6,250,250,0,882.05,45.747856,4.906453,0.0,198.8,0,0.0,-1,0.0,0.0,0,0.0,0.4974
29864,1563729919116,6,2.28,0.69,0.53,0.95,0.8,0.87,-0.01,0.49,-0,0,-1,0.87,4411,7,81,39,54,505,0.0,390,471,60,123.0,0,1,223,229,38,0,0,6,250,250,0,648.46,,,,,,,,,,,,
29884,1563729919136,6,2.3,0.69,0.53,0.95,0.81,0.9,-0.02,0.51,-0,-1,-0,0.9,4425,7,80,39,55,506,0.0,388,467,60,122.0,0,1,224,229,38,0,0,6,250,250,0,648.46,,,,,,,,,,,,
29904,1563729919156,7,2.29,0.7,0.53,0.95,0.81,0.92,-0.0,0.51,0,-3,0,0.92,4424,7,80,39,54,505,0.0,396,475,60,123.0,0,1,225,229,38,0,0,6,250,250,0,648.46,,,,,,,,,,,,
29924,1563729919176,7,2.28,0.7,0.53,0.95,0.81,0.94,0.04,0.5,0,-3,1,0.94,4427,7,81,39,55,505,0.0,388,472,60,123.0,0,1,224,233,38,0,0,6,250,250,0,414.87,,,,,,,,,,,,
29944,1563729919198,7,2.29,0.7,0.52,0.96,0.8,0.96,0.06,0.51,0,-4,2,0.96,4437,7,81,39,54,506,0.0,393,468,60,123.0,0,1,227,233,38,0,0,8,250,250,0,414.87,45.747856,4.906453,0.0,198.8,0,0.0,-1,0.0,0.0,0,0.0,0.4991
29964,1563729919218,7,2.29,0.69,0.52,0.96,0.81,0.98,0.06,0.52,0,-4,2,0.99,4413,7,80,39,54,506,0.0,394,469,60,123.0,0,1,224,229,38,0,0,8,250,250,0,414.87,,,,,,,,,,,,
29984,1563729919238,7,2.29,0.7,0.53,0.95,0.81,0.97,0.06,0.53,0,-4,1,0.97,4392,7,80,39,54,506,0.0,385,472,60,123.0,0,1,221,228,38,0,0,8,250,250,0,414.87,,,,,,,,,,,,
30004,1563729919258,6,2.3,0.69,0.53,0.96,0.81,0.96,0.04,0.54,0,-4,1,0.96,4425,7,80,39,55,505,0.0,392,472,60,123.0,0,1,224,229,39,0,0,8,250,250,0,414.87,,,,,,,,,,,,
30024,1563729919278,8,2.29,0.69,0.53,0.95,0.81,0.92,0.02,0.54,0,-3,1,0.92,4410,7,80,39,55,505,0.0,386,468,60,122.0,0,1,222,229,39,0,0,8,250,250,0,414.87,,,,,,,,,,,,
30044,1563729919298,11,2.29,0.7,0.53,0.95,0.81,0.86,-0.02,0.57,0,-2,0,0.86,4429,7,80,39,54,505,0.0,396,466,60,122.0,0,1,226,229,39,0,0,8,250,250,0,414.87,45.747856,4.906453,0.0,198.8,0,0.0,-1,0.0,0.0,0,0.0,0.5007
30064,1563729919318,11,2.29,0.7,0.53,0.95,0.81,0.8,-0.07,0.57,-0,-0,-0,0.8,4393,7,80,39,54,505,0.0,396,466,60,121.0,0,1,221,228,39,0,0,8,250,250,0,414.87,,,,,,,,,,,,
30084,1563729919338,10,2.29,0.7,0.52,0.96,0.81,0.75,-0.06,0.55,-0,1,-1,0.75,4414,7,80,39,54,505,0.0,396,468,60,122.0,0,1,224,233,39,0,0,8,250,250,0,414.87,,,,,,,,,,,,
30104,1563729919358,9,2.3,0.7,0.52,0.96,0.81,0.75,-0.04,0.53,-0,2,-1,0.75,4376,7,80,39,54,505,0.0,400,470,60,121.0,0,1,219,228,38,0,0,8,250,250,0,882.05,,,,,,,,,,,,
30124,1563729919378,7,2.29,0.7,0.52,0.96,0.8,0.81,-0.04,0.52,-0,2,-2,0.81,4402,7,80,39,55,505,0.0,392,467,60,121.0,0,1,221,233,38,0,0,8,250,250,0,882.05,,,,,,,,,,,,
30144,1563729919398,6,2.29,0.69,0.53,0.95,0.81,0.8,-0.03,0.5,-0,2,-2,0.8,4394,7,80,39,54,506,0.0,397,470,60,120.0,0,1,221,233,38,0,0,8,250,250,0,882.05,45.747856,4.906453,0.0,198.8,0,0.0,-1,0.0,0.0,0,0.0,0.5024
30164,1563729919418,7,2.29,0.7,0.52,0.96,0.81,0.82,-0.04,0.5,-0,1,-1,0.82,4376,6,80,39,55,505,0.0,387,468,60,122.0,0,1,222,232,38,0,0,11,250,250,0,882.05,,,,,,,,,,,,
30184,1563729919438,7,2.28,0.7,0.53,0.95,0.81,0.84,-0.03,0.51,0,0,-1,0.84,4399,7,80,39,54,505,0.0,396,470,60,122.0,0,1,222,228,38,0,0,11,250,250,0,882.05,,,,,,,,,,,,
30204,1563729919458,5,2.29,0.7,0.53,0.96,0.82,0.86,-0.0,0.48,0,-0,-0,0.86,4371,7,80,39,54,505,0.0,384,468,60,122.0,0,1,218,228,37,0,0,11,250,250,0,648.46,,,,,,,,,,,,
30224,1563729919478,5,2.28,0.7,0.53,0.95,0.81,0.9,0.02,0.49,0,-1,0,0.9,4422,7,80,39,54,506,0.0,388,470,60,123.0,0,1,225,229,37,0,0,11,250,250,0,648.46,,,,,,,,,,,,
30244,1563729919494,7,2.29,0.7,0.53,0.96,0.82,0.9,0.04,0.51,0,-2,1,0.9,4402,7,80,39,55,506,0.0,394,470,60,123.0,0,1,221,233,37,0,0,11,250,250,0,414.87,45.747856,4.906453,0.0,198.8,0,0.0,-1,0.0,0.0,0,0.0,0.5041
30264,1563729919514,7,2.29,0.69,0.53,0.96,0.82,0.92,0.06,0.52,0,-3,2,0.92,4403,7,80,39,55,506,0.0,385,472,60,123.0,0,1,221,233,37,0,0,11,250,250,0,414.87,,,,,,,,,,,,
30284,1563729919534,6,2.3,0.7,0.52,0.96,0.82,0.9,0.06,0.52,0,-3,2,0.9,4395,7,80,39,54,506,0.0,388,471,60,123.0,0,1,221,232,37,0,0,11,250,250,0,414.87,,,,,,,,,,,,
30304,1563729919554,7,2.29,0.7,0.53,0.96,0.82,0.89,0.04,0.52,0,-2,1,0.89,4380,7,80,39,54,506,0.0,388,468,60,123.0,0,1,219,228,38,0,0,19,250,250,0,414.87,,,,,,,,,,,,
30324,1563729919574,9,2.29,0.7,0.53,0.96,0.81,0.85,0.02,0.51,0,-1,1,0.85,4388,7,80,39,54,506,0.0,392,468,60,123.0,0,1,220,228,38,0,0,19,250,250,0,414.87,,,,,,,,,,,,
30344,1563729919594,8,2.29,0.7,0.53,0.96,0.82,0.81,-0.01,0.53,0,-0,0,0.81,4379,7,80,39,54,506,0.0,389,466,60,122.0,0,1,219,228,38,0,0,19,250,250,0,414.87,45.747856,4.906453,0.0,198.8,0,0.0,-1,0.0,0.0,0,0.0,0.5057
30364,1563729919614,9,2.29,0.7,0.53,0.96,0.82,0.77,-0.05,0.55,-0,1,-1,0.77,4374,7,80,39,54,506,0.0,388,463,60,122.0,0,1,218,228,38,0,0,19,250,250,0,414.87,,,,,,,,,,,,
30384,1563729919634,7,2.28,0.7,0.52,0.96,0.81,0.75,-0.05,0.54,-0,1,-1,0.75,4401,7,80,39,54,505,0.0,397,468,60,121.0,0,1,222,229,38,0,0,19,250,250,0,882.05,,,,,,,,,,,,
30404,1563729919654,8,2.29,0.69,0.53,0.96,0.82,0.78,-0.04,0.52,-0,2,-1,0.78,4373,7,80,39,54,505,0.0,388,469,60,120.0,0,1,218,228,38,0,0,19,250,250,0,414.87,,,,,,,,,,,,
30424,1563729919674,7,2.29,0.69,0.53,0.97,0.82,0.84,-0.03,0.49,-0,2,-1,0.84,4432,7,80,39,54,505,0.0,394,470,60,121.0,0,1,226,233,38,0,0,19,250,250,0,882.05,,,,,,,,,,,,
30444,1563729919693,6,2.29,0.7,0.52,0.97,0.81,0.86,-0.02,0.48,0,2,-1,0.86,4389,7,80,39,55,505,0.0,392,467,60,122.0,0,1,219,232,38,0,0,19,250,250,0,648.46,45.747856,4.906453,0.0,198.8,0,0.0,-1,0.0,0.0,0,0.0,0.5074
30464,1563729919713,7,2.28,0.7,0.53,0.96,0.81,0.88,-0.03,0.5,-0,0,-1,0.88,4409,6,80,39,55,505,0.0,395,471,60,122.0,0,1,222,229,38,0,0,19,250,250,0,882.05,,,,,,,,,,,,
30484,1563729919733,7,2.29,0.7,0.52,0.97,0.81,0.88,-0.03,0.52,-0,-1,-0,0.88,4444,7,80,39,54,505,0.0,391,463,60,122.0,0,1,228,229,38,0,0,19,250,250,0,648.46,,,,,,,,,,,,
30504,1563729919753,5,2.29,0.7,0.53,0.96,0.82,0.89,-0.01,0.5,0,-1,0,0.89,4411,6,80,39,54,505,0.0,387,473,60,123.0,0,1,223,229,38,0,0,19,250,250,0,414.87,,,,,,,,,,,,
30524,1563729919773,6,2.29,0.7,0.52,0.97,0.81,0.92,0.02,0.47,0,-1,1,0.93,4427,7,80,39,54,505,0.0,396,467,60,122.0,0,1,225,229,38,0,0,19,250,250,0,648.46,,,,,,,,,,,,
30544,1563729919793,6,2.29,0.7,0.52,0.97,0.82,0.95,0.03,0.47,0,-2,1,0.95,4414,7,80,39,54,505,0.0,389,471,60,123.0,0,1,224,233,38,0,0,19,250,250,0,414.87,45.747856,4.906453,0.0,198.8,0,0.0,-1,0.0,0.0,0,0.0,0.5091
30564,1563729919813,7,2.28,0.7,0.53,0.97,0.81,0.97,0.05,0.5,0,-4,2,0.97,4407,7,80,39,54,506,0.0,391,470,60,123.0,0,1,223,229,38,0,0,19,250,250,0,414.87,,,,,,,,,,,,
30584,1563729919833,7,2.29,0.7,0.53,0.97,0.81,0.96,0.04,0.52,0,-5,2,0.96,4408,7,80,39,54,506,0.0,388,472,60,123.0,0,1,223,229,38,0,0,19,250,250,0,414.87,,,,,,,,,,,,
30604,1563729919853,7,2.29,0.7,0.53,0.96,0.82,0.95,0.05,0.53,0,-4,2,0.95,4408,7,80,39,54,506,0.0,394,466,60,122.0,0,1,223,229,37,0,0,19,250,250,0,414.87,,,,,,,,,,,,
30624,1563729919873,8,2.29,0.71,0.53,0.97,0.81,0.91,0.03,0.52,0,-2,1,0.91,4421,7,80,39,54,506,0.0,395,463,60,122.0,0,1,225,229,37,0,0,19,250,250,0,414.87,,,,,,,,,,,,
30644,1563729919897,10,2.29,0.7,0.53,0.96,0.82,0.86,0.0,0.53,0,-1,1,0.86,4397,7,80,39,54,506,0.0,389,468,60,122.0,0,1,222,228,37,0,0,19,250,250,0,414.87,45.747856,4.906453,0.0,198.8,0,0.0,-1,0.0,0.0,0,0.0,0.5107
30664,1563729919917,10,2.29,0.7,0.53,0.96,0.82,0.81,-0.04,0.54,-0,-0,-0,0.81,4402,7,80,39,54,506,0.0,392,467,60,122.0,0,1,222,229,37,0,0,19,250,250,0,414.87,,,,,,,,,,,,
30684,1563729919937,10,2.29,0.71,0.53,0.97,0.82,0.77,-0.05,0.54,-0,0,-0,0.77,4394,7,80,39,54,506,0.0,393,467,60,122.0,0,1,221,228,37,0,0,19,250,250,0,414.87,,,,,,,,,,,,
30704,1563729919957,10,2.3,0.7,0.53,0.97,0.82,0.73,-0.05,0.54,-0,2,-1,0.73,4412,7,80,39,54,506,0.0,391,465,60,122.0,0,1,223,229,38,0,0,19,250,250,0,414.87,,,,,,,,,,,,
30724,1563729919977,8,2.29,0.7,0.53,0.97,0.83,0.74,-0.06,0.51,-0,3,-1,0.74,4426,6,80,39,54,506,0.0,395,465,60,121.0,0,1,225,229,38,0,0,19,250,250,0,414.87,,,,,,,,,,,,
30744,1563729919991,8,2.28,0.71,0.53,0.98,0.82,0.75,-0.03,0.48,-0,3,-1,0.75,4391,7,80,39,54,506,0.0,394,468,60,120.0,0,1,221,228,38,0,0,19,250,250,0,414.87,45.747856,4.906453,0.0,198.8,0,0.0,-1,0.0,0.0,0,0.0,0.5124
30764,1563729920011,8,2.29,0.71,0.53,0.98,0.82,0.8,-0.04,0.49,-0,2,-1,0.81,4423,6,80,39,55,506,0.0,393,466,60,122.0,0,1,224,233,38,0,0,19,250,250,0,648.46,,,,,,,,,,,,
30784,1563729920031,5,2.29,0.71,0.54,0.97,0.82,0.84,-0.04,0.5,-0,1,-1,0.84,4420,6,80,39,55,506,0.0,387,473,60,121.0,0,1,218,233,38,0,0,19,250,250,0,882.05,,,,,,,,,,,,
30804,1563729920051,7,2.29,0.71,0.54,0.97,0.83,0.84,-0.0,0.48,-0,0,-1,0.84,4396,6,80,39,55,506,0.0,389,470,60,123.0,0,1,220,232,38,0,0,0,250,250,0,414.87,,,,,,,,,,,,
30824,1563729920071,7,2.29,0.71,0.53,0.98,0.82,0.86,0.01,0.49,0,-0,0,0.86,4404,6,80,39,54,506,0.0,391,469,60,123.0,0,1,222,233,38,0,0,0,250,250,0,648.46,,,,,,,,,,,,
30844,1563729920097,7,2.28,0.71,0.53,0.98,0.83,0.88,0.01,0.49,-0,-1,1,0.88,4370,6,80,39,54,506,0.0,387,467,60,123.0,0,1,218,228,38,0,0,0,250,250,0,414.87,45.747856,4.906453,0.0,198.8,0,0.0,-1,0.0,0.0,0,0.0,0.5141
30864,1563729920117,6,2.29,0.71,0.53,0.98,0.82,0.91,0.03,0.46,0,-2,1,0.91,4424,6,80,39,54,506,0.0,389,468,60,123.0,0,1,225,229,38,0,0,0,250,250,0,414.87,,,,,,,,,,,,
30884,1563729920137,7,2.29,0.71,0.54,0.98,0.82,0.92,0.03,0.48,0,-3,1,0.92,4383,7,80,39,54,506,0.0,385,470,60,122.0,0,1,220,228,38,0,0,0,250,250,0,181.28,,,,,,,,,,,,
30904,1563729920157,6,2.29,0.71,0.53,0.97,0.82,0.94,0.05,0.49,0,-4,2,0.94,4435,7,80,39,55,506,0.0,394,468,60,123.0,0,1,225,229,38,0,0,0,250,250,0,414.87,,,,,,,,,,,,
30924,1563729920177,7,2.29,0.71,0.53,0.98,0.82,0.93,0.05,0.51,0,-3,2,0.93,4436,7,80,39,55,506,0.0,388,470,60,123.0,0,1,226,229,38,0,0,0,250,250,0,414.87,,,,,,,,,,,,
30944,1563729920197,8,2.28,0.71,0.53,0.97,0.82,0.9,0.03,0.52,0,-3,2,0.9,4435,7,80,39,54,506,0.0,393,470,60,123.0,0,1,226,229,38,0,0,0,250,250,0,414.87,45.747856,4.906453,0.0,198.8,0,0.0,-1,0.0,0.0,0,0.0,0.5157
30964,1563729920217,6,2.29,0.71,0.53,0.97,0.82,0.84,-0.01,0.53,0,-2,1,0.84,4429,7,80,39,54,506,0.0,395,464,60,122.0,0,1,226,229,38,0,0,0,250,250,0,414.87,,,,,,,,,,,,
30984,1563729920237,11,2.28,0.71,0.53,0.98,0.82,0.8,-0.05,0.52,0,-1,0,0.8,4421,7,80,39,54,506,0.0,394,468,60,123.0,0,1,225,229,38,0,0,0,250,250,0,414.87,,,,,,,,,,,,
31004,1563729920257,9,2.29,0.71,0.54,0.98,0.82,0.76,-0.06,0.51,0,1,-0,0.76,4401,7,80,39,54,506,0.0,392,467,60,123.0,0,1,222,229,38,0,0,0,250,250,0,414.87,,,,,,,,,,,,
31024,1563729920277,10,2.28,0.71,0.53,0.97,0.82,0.74,-0.07,0.52,-0,1,-1,0.74,4421,7,80,39,54,506,0.0,392,466,60,121.0,0,1,225,229,38,0,0,0,250,250,0,414.87,,,,,,,,,,,,
31044,1563729920299,9,2.29,0.71,0.53,0.97,0.82,0.71,-0.1,0.53,-0,2,-1,0.72,4439,7,80,39,54,506,0.0,407,466,60,120.0,0,1,227,233,38,0,0,0,250,250,0,414.87,45.747856,4.906453,0.0,198.8,0,0.0,-1,0.0,0.0,0,0.0,0.5174
31064,1563729920319,7,2.29,0.7,0.54,0.97,0.82,0.7,-0.09,0.52,-0,3,-1,0.7,4429,7,80,39,54,506,0.0,398,467,60,121.0,0,1,226,229,38,0,0,0,250,250,0,414.87,,,,,,,,,,,,
31084,1563729920339,8,2.28,0.7,0.51,0.97,0.82,0.73,-0.07,0.5,-0,4,-2,0.73,4376,6,80,39,54,506,0.0,393,467,60,120.0,0,1,219,228,38,0,0,0,250,250,0,414.87,,,,,,,,,,,,
31104,1563729920359,6,2.29,0.71,0.53,0.97,0.83,0.79,-0.05,0.48,-0,4,-2,0.79,4433,6,80,39,54,506,0.0,394,471,60,120.0,0,1,226,229,37,0,0,0,250,250,0,882.05,,,,,,,,,,,,
31124,1563729920379,6,2.29,0.71,0.53,0.98,0.82,0.81,-0.04,0.47,-0,3,-1,0.81,4424,6,80,39,55,506,0.0,396,466,60,122.0,0,1,218,233,37,0,0,0,250,250,0,882.05,,,,,,,,,,,,
31144,1563729920399,7,2.29,0.7,0.53,0.97,0.82,0.83,-0.06,0.48,-0,1,-1,0.83,4394,6,80,39,55,506,0.0,396,470,60,122.0,0,1,220,228,37,0,0,0,250,250,0,882.05,45.747856,4.906453,0.0,198.8,0,0.0,-1,0.0,0.0,0,0.0,0.5191
31164,1563729920419,7,2.29,0.71,0.53,0.98,0.82,0.83,-0.05,0.52,-0,-0,-1,0.83,4415,6,80,39,55,506,0.0,387,470,60,122.0,0,1,223,229,37,0,0,0,250,250,0,648.46,,,,,,,,,,,,
31184,1563729920439,7,2.28,0.71,0.53,0.98,0.82,0.86,-0.04,0.49,-0,-1,-0,0.86,4376,6,80,39,54,506,0.0,393,468,60,123.0,0,1,219,228,37,0,0,0,250,250,0,648.46,,,,,,,,,,,,
31204,1563729920459,7,2.29,0.7,0.54,0.97,0.83,0.9,-0.0,0.45,-0,-1,1,0.9,4385,6,80,39,54,506,0.0,388,472,60,123.0,0,1,220,228,37,0,0,0,250,250,0,414.87,,,,,,,,,,,,
31224,1563729920479,7,2.28,0.71,0.53,0.98,0.82,0.9,0.01,0.47,-0,-2,1,0.9,4374,6,80,39,55,506,0.0,386,473,60,123.0,0,1,217,232,37,0,0,0,250,250,0,414.87,,,,,,,,,,,,
31244,1563729920495,7,2.29,0.7,0.54,0.97,0.83,0.9,0.01,0.49,-0,-3,1,0.9,4396,7,80,39,54,506,0.0,387,468,60,122.0,0,1,221,228,37,0,0,0,250,250,0,414.87,45.747856,4.906453,0.0,198.8,0,0.0,-1,0.0,0.0,0,0.0,0.5207
31264,1563729920515,9,2.3,0.71,0.54,0.98,0.82,0.84,-0.01,0.51,0,-3,1,0.84,4381,6,80,39,54,506,0.0,390,465,60,123.0,0,1,219,228,37,0,0,0,250,250,0,414.87,,,,,,,,,,,,
31284,1563729920535,11,2.29,0.71,0.54,0.97,0.82,0.78,-0.03,0.53,-0,-1,0,0.78,4370,7,80,39,55,505,0.0,391,466,60,123.0,0,1,217,228,37,0,0,0,250,250,0,414.87,,,,,,,,,,,,
31304,1563729920555,9,2.28,0.71,0.54,0.97,0.83,0.74,-0.04,0.51,0,1,-0,0.74,4385,7,80,39,54,504,0.0,384,465,60,122.0,0,1,220,228,37,0,0,0,250,250,0,414.87,,,,,,,,,,,,
31324,1563729920575,8,2.29,0.71,0.54,0.98,0.82,0.76,-0.04,0.48,-0,2,-1,0.76,4363,7,80,39,54,504,0.0,397,471,60,122.0,0,1,217,228,37,0,0,0,250,250,0,882.05,,,,,,,,,,,,
31344,1563729920595,7,2.29,0.71,0.53,0.97,0.82,0.77,-0.04,0.48,-0,2,-1,0.77,4362,6,80,39,55,520,0.0,392,471,60,121.0,0,1,216,232,37,0,0,0,250,250,0,414.87,45.747856,4.906453,0.0,198.8,0,0.0,-1,0.0,0.0,0,0.0,0.5224
31364,1563729920615,7,2.29,0.71,0.53,0.98,0.82,0.8,-0.04,0.49,-0,1,-1,0.8,4377,6,80,39,55,596,0.0,392,468,60,121.0,0,1,218,232,37,0,0,0,250,250,0,882.05,,,,,,,,,,,,
31384,1563729920635,6,2.3,0.71,0.53,0.98,0.82,0.81,-0.04,0.51,-0,0,-1,0.81,4363,6,80,39,55,672,0.0,386,468,60,123.0,0,1,216,232,37,0,0,0,250,250,0,648.46,,,,,,,,,,,,
31404,1563729920655,7,2.29,0.71,0.53,0.97,0.83,0.84,-0.01,0.49,-0,0,-1,0.84,4362,6,80,39,55,748,0.0,383,469,60,123.0,0,1,216,232,37,0,0,0,250,250,0,414.87,,,,,,,,,,,,
31424,1563729920675,7,2.3,0.7,0.53,0.98,0.83,0.87,0.01,0.47,-0,-0,-0,0.87,4367,6,81,39,55,825,0.0,391,471,60,123.0,0,1,217,232,37,0,0,0,250,250,0,648.46,,,,,,,,,,,,
31444,1563729920694,7,2.3,0.71,0.53,0.98,0.82,0.89,0.01,0.49,-0,-1,1,0.89,4404,6,81,39,55,899,0.0,385,468,60,123.0,0,1,221,233,37,0,0,0,250,250,0,414.87,45.747856,4.906453,0.0,198.8,0,0.0,-1,0.0,0.0,0,0.0,0.5241
31464,1563729920714,7,2.3,0.7,0.53,0.97,0.83,0.91,0.03,0.51,0,-3,1,0.91,4415,6,81,39,55,973,0.0,392,470,60,123.0,0,1,223,233,37,0,0,0,250,250,0,414.87,,,,,,,,,,,,
31484,1563729920734,7,2.29,0.7,0.53,0.97,0.82,0.88,0.04,0.53,0,-4,1,0.88,4375,7,81,39,55,972,0.0,391,471,60,123.0,0,1,218,232,37,0,0,0,250,250,0,414.87,,,,,,,,,,,,
31504,1563729920754,6,2.29,0.71,0.53,0.98,0.82,0.87,0.03,0.51,0,-3,1,0.88,4437,6,81,39,55,970,0.0,392,468,60,123.0,0,1,226,229,39,0,0,0,250,250,0,414.87,,,,,,,,,,,,
31524,1563729920774,10,2.29,0.71,0.53,0.98,0.82,0.83,0.01,0.49,0,-1,1,0.83,4384,7,81,39,55,969,0.0,390,467,60,123.0,0,1,219,232,39,0,0,0,250,250,0,414.87,,,,,,,,,,,,
31544,1563729920794,11,2.28,0.71,0.53,0.97,0.82,0.79,-0.02,0.5,0,0,0,0.79,4374,7,81,39,54,968,0.0,388,466,60,123.0,0,1,218,228,39,0,0,0,250,250,0,414.87,45.747856,4.906453,0.0,198.8,0,0.0,-1,0.0,0.0,0,0.0,0.5257
31564,1563729920814,9,2.29,0.71,0.53,0.97,0.82,0.74,-0.06,0.52,-0,0,-1,0.74,4399,7,80,39,54,969,0.0,401,465,60,122.0,0,1,222,228,39,0,0,0,250,250,0,414.87,,,,,,,,,,,,
31584,1563729920834,8,2.29,0.71,0.53,0.97,0.82,0.71,-0.07,0.53,-0,1,-1,0.71,4388,6,80,39,54,970,0.0,391,466,60,122.0,0,1,220,228,39,0,0,7,250,250,0,414.87,,,,,,,,,,,,
31604,1563729920854,7,2.3,0.7,0.53,0.97,0.81,0.71,-0.05,0.52,-0,2,-2,0.71,4414,6,80,39,55,971,0.0,396,472,60,121.0,0,1,223,233,38,0,0,7,250,250,0,414.87,,,,,,,,,,,,
31624,1563729920874,9,2.28,0.7,0.52,0.97,0.81,0.74,-0.04,0.49,-0,3,-1,0.74,4434,6,81,39,55,972,0.0,397,470,60,122.0,0,1,225,233,38,0,0,7,250,250,0,414.87,,,,,,,,,,,,
31644,1563729920898,7,2.28,0.7,0.52,0.97,0.81,0.78,-0.02,0.47,-0,3,-1,0.78,4422,6,81,39,55,972,0.0,396,470,60,122.0,0,1,224,233,38,0,0,7,250,250,0,648.46,45.747856,4.906453,0.0,198.8,0,0.0,-1,0.0,0.0,0,0.0,0.5274
31664,1563729920918,6,2.29,0.69,0.52,0.96,0.8,0.84,-0.04,0.48,-0,2,-1,0.84,4425,6,81,39,55,971,0.0,396,468,60,121.0,0,1,224,233,38,0,0,7,250,250,0,882.05,,,,,,,,,,,,
31684,1563729920938,7,2.29,0.7,0.52,0.95,0.8,0.86,-0.04,0.49,-0,1,-1,0.86,4394,6,81,39,55,973,0.0,389,471,60,121.0,0,1,220,233,38,0,0,7,250,250,0,882.05,,,,,,,,,,,,
31704,1563729920958,7,2.29,0.69,0.51,0.96,0.79,0.87,0.0,0.48,-0,0,-1,0.87,4416,6,81,39,55,976,0.0,394,468,60,123.0,0,1,223,233,38,0,0,7,250,250,0,648.46,,,,,,,,,,,,
31724,1563729920978,7,2.29,0.68,0.51,0.95,0.79,0.9,0.01,0.48,-0,-0,-0,0.9,4405,6,81,39,55,979,0.0,391,469,60,122.0,0,1,222,229,38,0,0,7,250,250,0,648.46,,,,,,,,,,,,
31744,1563729920992,7,2.28,0.69,0.51,0.94,0.78,0.93,0.01,0.48,-0,-1,0,0.93,4374,6,81,39,54,982,0.0,388,469,60,123.0,0,1,218,228,38,0,0,7,250,250,0,648.46,45.747856,4.906453,0.0,198.8,0,0.0,-1,0.0,0.0,0,0.0,0.5291
31764,1563729921012,7,2.28,0.68,0.51,0.95,0.78,0.96,0.02,0.47,-0,-2,1,0.96,4404,6,81,39,54,985,0.0,395,470,60,123.0,0,1,222,229,38,0,0,7,250,250,0,414.87,,,,,,,,,,,,
31784,1563729921032,7,2.28,0.69,0.5,0.95,0.79,0.96,0.0,0.5,-0,-3,1,0.96,4380,6,81,39,55,989,0.0,384,471,60,123.0,0,1,218,232,38,0,0,7,250,250,0,414.87,,,,,,,,,,,,
31804,1563729921052,8,2.29,0.68,0.5,0.95,0.79,0.95,-0.0,0.5,0,-3,1,0.95,4422,6,81,39,55,991,0.0,390,472,60,123.0,0,1,224,233,38,0,0,7,250,250,0,414.87,,,,,,,,,,,,
31824,1563729921072,7,2.29,0.69,0.5,0.95,0.78,0.91,-0.01,0.5,0,-2,1,0.91,4420,6,81,39,55,993,0.0,386,470,60,123.0,0,1,224,229,38,0,0,7,250,250,0,414.87,,,,,,,,,,,,
31844,1563729921098,8,2.3,0.69,0.5,0.95,0.78,0.85,-0.04,0.51,0,-1,1,0.86,4416,7,81,39,55,993,0.0,394,467,60,123.0,0,1,223,229,38,0,0,7,250,250,0,414.87,45.747856,4.906453,0.0,198.8,0,0.0,-1,0.0,0.0,0,0.0,0.5307
31864,1563729921118,9,2.3,0.68,0.51,0.95,0.78,0.8,-0.06,0.51,0,-0,0,0.8,4411,7,81,39,54,992,0.0,393,463,60,122.0,0,1,223,229,38,0,0,7,250,250,0,414.87,,,,,,,,,,,,
31884,1563729921138,11,2.29,0.69,0.51,0.94,0.78,0.76,-0.07,0.5,0,1,-0,0.76,4390,6,81,39,55,991,0.0,393,469,60,123.0,0,1,220,228,38,0,0,7,250,250,0,414.87,,,,,,,,,,,,
31904,1563729921158,10,2.28,0.69,0.5,0.95,0.78,0.75,-0.05,0.49,0,2,-1,0.75,4391,6,81,39,54,990,0.0,396,466,60,122.0,0,1,221,228,38,0,0,7,250,250,0,414.87,,,,,,,,,,,,
31924,1563729921178,8,2.3,0.69,0.5,0.95,0.78,0.76,-0.06,0.48,-0,2,-1,0.77,4405,6,81,39,54,987,0.0,392,471,60,121.0,0,1,223,229,38,0,0,7,250,250,0,882.05,,,,,,,,,,,,
31944,1563729921198,6,2.29,0.69,0.5,0.95,0.78,0.76,-0.04,0.46,-0,2,-1,0.76,4384,6,81,39,54,983,0.0,395,467,60,121.0,0,1,220,232,38,0,0,7,250,250,0,414.87,45.747856,4.906453,0.0,198.8,0,0.0,-1,0.0,0.0,0,0.0,0.5324
31964,1563729921218,8,2.29,0.69,0.51,0.95,0.78,0.79,-0.04,0.45,-0,2,-1,0.79,4380,6,81,39,55,980,0.0,388,470,60,121.0,0,1,218,232,38,0,0,7,250,250,0,882.05,,,,,,,,,,,,
31984,1563729921238,6,2.29,0.69,0.51,0.95,0.78,0.82,-0.04,0.46,-0,1,-1,0.82,4365,6,81,39,55,977,0.0,391,468,60,123.0,0,1,216,228,38,0,0,7,250,250,0,882.05,,,,,,,,,,,,
32004,1563729921258,8,2.28,0.69,0.5,0.94,0.78,0.84,-0.01,0.44,0,0,-1,0.84,4397,6,81,39,55,975,0.0,386,470,60,122.0,0,1,221,232,37,0,0,7,250,250,0,882.05,,,,,,,,,,,,
32024,1563729921278,8,2.29,0.69,0.5,0.94,0.79,0.85,0.02,0.45,0,-0,-0,0.85,4392,6,81,39,55,972,0.0,387,471,60,123.0,0,1,220,232,37,0,0,7,250,250,0,648.46,,,,,,,,,,,,
32044,1563729921298,8,2.29,0.69,0.5,0.95,0.78,0.87,0.04,0.47,0,-1,1,0.87,4421,6,81,39,55,970,0.0,393,470,60,123.0,0,1,224,233,37,0,0,7,250,250,0,414.87,45.747856,4.906453,0.0,198.8,0,0.0,-1,0.0,0.0,0,0.0,0.5341
32064,1563729921318,7,2.29,0.68,0.51,0.95,0.78,0.9,0.05,0.47,0,-2,1,0.9,4382,6,81,39,55,970,0.0,384,471,60,123.0,0,1,219,232,37,0,0,7,250,250,0,414.87,,,,,,,,,,,,
32084,1563729921338,7,2.3,0.69,0.5,0.95,0.79,0.9,0.04,0.49,0,-3,1,0.9,4396,7,81,39,55,969,0.0,387,471,60,123.0,0,1,220,232,37,0,0,0,250,250,0,414.87,,,,,,,,,,,,
32104,1563729921358,9,2.29,0.69,0.5,0.95,0.78,0.9,0.03,0.5,0,-3,1,0.9,4403,6,81,39,55,970,0.0,385,471,60,123.0,0,1,221,233,38,0,0,0,250,250,0,414.87,,,,,,,,,,,,
32124,1563729921378,9,2.28,0.68,0.5,0.95,0.78,0.86,0.02,0.51,0,-3,1,0.86,4406,6,81,39,55,970,0.0,391,468,60,123.0,0,1,222,229,38,0,0,0,250,250,0,414.87,,,,,,,,,,,,
32144,1563729921398,11,2.29,0.69,0.5,0.94,0.78,0.8,-0.02,0.54,0,-2,1,0.8,4430,7,81,39,54,971,0.0,391,461,60,123.0,0,1,226,229,38,0,0,0,250,250,0,414.87,45.747856,4.906453,0.0,198.8,0,0.0,-1,0.0,0.0,0,0.0,0.5357
32164,1563729921418,12,2.28,0.68,0.5,0.95,0.78,0.75,-0.06,0.55,0,-1,0,0.75,4393,6,81,39,54,971,0.0,389,464,60,123.0,0,1,221,228,38,0,0,0,250,250,0,414.87,,,,,,,,,,,,
32184,1563729921438,11,2.28,0.69,0.5,0.95,0.78,0.7,-0.05,0.53,0,0,0,0.71,4430,7,81,39,54,971,0.0,393,464,60,123.0,0,1,226,229,38,0,0,0,250,250,0,414.87,,,,,,,,,,,,
32204,1563729921458,9,2.29,0.68,0.51,0.95,0.78,0.72,-0.03,0.53,0,2,-1,0.72,4376,6,81,39,54,970,0.0,387,463,60,123.0,0,1,219,232,38,0,0,0,250,250,0,414.87,,,,,,,,,,,,
32224,1563729921478,10,2.28,0.67,0.5,0.94,0.78,0.78,-0.03,0.51,0,2,-1,0.78,4382,7,81,39,54,969,0.0,391,471,60,121.0,0,1,220,228,38,0,0,0,250,250,0,882.05,,,,,,,,,,,,
32244,1563729921496,10,2.28,0.69,0.51,0.95,0.78,0.8,-0.02,0.5,0,2,-1,0.8,4407,6,81,39,55,968,0.0,389,468,60,122.0,0,1,222,233,38,0,0,0,250,250,0,414.87,45.747856,4.906453,0.0,198.8,0,0.0,-1,0.0,0.0,0,0.0,0.5374
32264,1563729921516,8,2.29,0.69,0.5,0.95,0.78,0.81,-0.03,0.5,0,1,-1,0.81,4412,6,81,39,55,969,0.0,397,471,60,121.0,0,1,222,233,38,0,0,0,250,250,0,882.05,,,,,,,,,,,,
32284,1563729921536,9,2.29,0.69,0.51,0.94,0.78,0.83,-0.02,0.5,0,1,-1,0.83,4432,6,81,39,55,970,0.0,393,467,60,123.0,0,1,225,233,38,0,0,0,250,250,0,648.46,,,,,,,,,,,,
32304,1563729921556,7,2.29,0.69,0.51,0.94,0.79,0.85,0.0,0.48,0,1,-1,0.85,4414,6,81,39,55,973,0.0,387,470,60,123.0,0,1,225,233,39,0,0,0,250,250,0,648.46,,,,,,,,,,,,
32324,1563729921576,9,2.28,0.69,0.5,0.95,0.78,0.88,0.01,0.47,0,1,-1,0.88,4420,6,81,39,54,975,0.0,395,466,60,122.0,0,1,225,233,39,0,0,0,250,250,0,648.46,,,,,,,,,,,,
32344,1563729921594,8,2.29,0.69,0.5,0.95,0.78,0.9,0.02,0.48,0,0,-0,0.9,4437,6,81,39,55,977,0.0,392,466,60,122.0,0,1,226,233,39,0,0,0,250,250,0,648.46,45.747856,4.906453,0.0,198.8,0,0.0,-1,0.0,0.0,0,0.0,0.5391
32364,1563729921614,9,2.28,0.69,0.5,0.95,0.78,0.91,0.03,0.51,0,-2,0,0.91,4433,6,81,39,55,980,0.0,389,469,60,123.0,0,1,225,233,39,0,0,0,250,250,0,414.87,,,,,,,,,,,,
32384,1563729921634,9,2.29,0.69,0.5,0.95,0.78,0.93,0.02,0.52,0,-3,1,0.93,4419,6,81,39,54,979,0.0,388,476,60,123.0,0,1,224,229,39,0,0,0,250,250,0,414.87,,,,,,,,,,,,
32404,1563729921654,9,2.29,0.69,0.5,0.95,0.79,0.95,0.06,0.5,0,-3,1,0.95,4415,6,81,39,55,979,0.0,393,471,60,123.0,0,1,223,233,38,0,0,0,250,250,0,414.87,,,,,,,,,,,,
32424,1563729921674,8,2.29,0.69,0.5,0.95,0.79,0.96,0.06,0.5,-0,-3,2,0.96,4403,6,81,39,54,977,0.0,393,470,60,123.0,0,1,222,233,38,0,0,0,250,250,0,414.87,,,,,,,,,,,,
32444,1563729921695,10,2.29,0.69,0.5,0.95,0.78,0.95,0.05,0.52,0,-3,1,0.96,4437,7,81,39,54,975,0.0,389,470,60,123.0,0,1,227,229,38,0,0,0,250,250,0,414.87,45.747856,4.906453,0.0,198.8,0,0.0,-1,0.0,0.0,0,0.0,0.5407
32464,1563729921715,10,2.28,0.69,0.5,0.94,0.78,0.9,0.03,0.54,0,-4,1,0.9,4406,6,81,39,54,974,0.0,392,463,60,123.0,0,1,223,229,38,0,0,0,250,250,0,414.87,,,,,,,,,,,,
32484,1563729921735,8,2.3,0.69,0.5,0.95,0.78,0.86,0.0,0.56,0,-3,1,0.86,4438,6,81,39,55,973,0.0,393,466,60,123.0,0,1,226,229,38,0,0,0,250,250,0,414.87,,,,,,,,,,,,
32504,1563729921755,13,2.29,0.68,0.5,0.95,0.79,0.8,-0.01,0.56,0,-2,1,0.8,4409,6,81,39,54,972,0.0,391,465,60,123.0,0,1,223,229,38,0,0,0,250,250,0,414.87,,,,,,,,,,,,
32524,1563729921775,12,2.29,0.69,0.5,0.95,0.78,0.76,-0.02,0.56,0,-1,1,0.76,4427,6,81,39,54,972,0.0,394,465,60,123.0,0,1,225,229,38,0,0,0,250,250,0,414.87,,,,,,,,,,,,
32544,1563729921795,11,2.29,0.69,0.5,0.95,0.78,0.74,-0.04,0.55,-0,0,-0,0.74,4386,7,81,39,54,972,0.0,394,467,60,123.0,0,1,220,228,38,0,0,0,250,250,0,414.87,45.747856,4.906453,0.0,198.8,0,0.0,-1,0.0,0.0,0,0.0,0.5424
32564,1563729921815,11,2.29,0.69,0.5,0.95,0.78,0.75,-0.04,0.55,0,0,-1,0.75,4385,6,81,39,54,972,0.0,397,466,60,122.0,0,1,220,228,38,0,0,0,250,250,0,414.87,,,,,,,,,,,,
32584,1563729921835,11,2.29,0.69,0.51,0.95,0.78,0.77,-0.03,0.55,0,1,-1,0.77,4415,6,81,39,54,973,0.0,388,469,60,121.0,0,1,224,229,38,0,0,0,250,250,0,414.87,,,,,,,,,,,,
32604,1563729921855,10,2.29,0.68,0.5,0.94,0.79,0.79,-0.02,0.53,0,1,-1,0.79,4384,6,81,39,54,974,0.0,391,468,60,120.0,0,1,220,232,39,0,0,0,250,250,0,414.87,,,,,,,,,,,,
32624,1563729921875,9,2.29,0.69,0.5,0.95,0.78,0.81,0.0,0.51,0,1,-1,0.81,4390,6,81,39,54,975,0.0,392,470,60,121.0,0,1,221,228,39,0,0,0,250,250,0,882.05,,,,,,,,,,,,
32644,1563729921897,9,2.29,0.69,0.5,0.95,0.79,0.85,-0.02,0.51,-0,1,-1,0.85,4391,6,81,39,55,976,0.0,386,468,60,123.0,0,1,220,232,39,0,0,0,250,250,0,648.46,45.747856,4.906453,0.0,198.8,0,0.0,-1,0.0,0.0,0,0.0,0.5441
32664,1563729921917,7,2.29,0.68,0.51,0.95,0.79,0.87,-0.0,0.51,-0,-0,-1,0.87,4386,6,81,39,55,977,0.0,389,470,60,123.0,0,1,219,232,39,0,0,0,250,250,0,648.46,,,,,,,,,,,,
32684,1563729921937,9,2.3,0.68,0.5,0.95,0.79,0.89,0.0,0.52,0,-1,0,0.89,4383,6,81,39,55,978,0.0,384,469,60,123.0,0,1,219,232,39,0,0,0,250,250,0,648.46,,,,,,,,,,,,
32704,1563729921957,9,2.28,0.69,0.51,0.95,0.78,0.91,0.04,0.51,0,-2,1,0.91,4392,7,81,39,55,979,0.0,393,466,60,123.0,0,1,220,232,37,0,0,0,250,250,0,414.87,,,,,,,,,,,,
32724,1563729921977,8,2.29,0.69,0.51,0.95,0.78,0.91,0.05,0.52,0,-2,1,0.91,4385,6,81,39,55,980,0.0,383,472,60,123.0,0,1,219,232,37,0,0,0,250,250,0,414.87,,,,,,,,,,,,
32744,1563729921991,9,2.29,0.69,0.5,0.95,0.79,0.89,0.02,0.54,0,-3,1,0.89,4367,6,81,39,55,980,0.0,385,470,60,123.0,0,1,217,232,37,0,0,0,250,250,0,414.87,45.747856,4.906453,0.0,198.8,0,0.0,-1,0.0,0.0,0,0.0,0.5457
32764,1563729922011,10,2.28,0.69,0.51,0.95,0.79,0.84,0.0,0.54,0,-3,1,0.84,4385,6,81,39,55,980,0.0,387,466,60,122.0,0,1,219,232,37,0,0,0,250,250,0,414.87,,,,,,,,,,,,
32784,1563729922031,11,2.28,0.69,0.51,0.94,0.79,0.8,-0.01,0.54,0,-2,0,0.8,4389,6,81,39,54,981,0.0,389,466,60,122.0,0,1,220,228,37,0,0,0,250,250,0,414.87,,,,,,,,,,,,
