"Interval"|"ms"|0|0|1,"Utc"|"ms"|0|0|1,"FB_p"|"bar"|0|300|50,"Volant"|"F"|0.0|300.0|50,"xFR"|"mm"|0.0|5.0|50,"xRR"|"mm"|0.0|5.0|50,"xFL"|"mm"|0.0|5.0|50,"xRL"|"mm"|0.0|5.0|50,"AccelX"|"G"|-3.0|3.0|50,"AccelY"|"G"|-3.0|3.0|50,"AccelZ"|"G"|-3.0|3.0|50,"Yaw"|"Deg/Sec"|-120|120|50,"Pitch"|"Deg/Sec"|-120|120|50,"Roll"|"Deg/Sec"|-120|120|50,"Gsum"|"G"|0.0|3.0|50,"RPM"|""|0|14000|50,"TPS"|"%"|0|100|50,"WaterTemp"|"?C"|0|300|50,"AirTemp"|"?C"|-1000|1000|50,"MAP"|"KPa"|0|255|50,"Lambda"|""|0|1024|50,"WheelSpeed"|"MPH"|0.0|150.0|50,"OilPress"|"PSI"|0|150|50,"FuelPress"|"PSI"|0|150|50,"OilTemp"|"F"|0|300|50,"Battery"|"Volts"|0.0|20.0|50,"FuelCon"|"L/h"|-1000|1000|50,"Gear"|""|0|10|50,"Advance"|"Deg"|-360|360|50,"Injection"|"ms"|-1000|1000|50,"FuelCon"|"L/100km"|-1000|1000|50,"LC_But_Pres"|""|-1000|1000|50,"LC_Active"|""|-1000|1000|50,"RD_Speed"|""|-1000|1000|50,"RUD_Speed"|""|-1000|1000|50,"LD_Speed"|""|-1000|1000|50,"LUD_Speed"|""|-1000|1000|50,"Ana1"|"bar"|-1000.0|1000.0|50,"Latitude"|"Degrees"|-180.0|180.0|10,"Longitude"|"Degrees"|-180.0|180.0|10,"Speed"|"kph"|0.0|150.0|10,"Altitude"|"m"|0.0|4000.0|10,"LapCount"|""|0|0|10,"LapTime"|"Min"|0.0|0.0|10,"Sector"|""|0|0|10,"SectorTime"|"Min"|0.0|0.0|10,"ElapsedTime"|"Min"|0.0|0.0|10,"CurrentLap"|""|0|0|10,"Distance"|"km"|0.0|0.0|10,"SessionTime"|"Min"|0.0|0.0|10
29064,1563730081477,11,2.28,0.77,0.55,1.0,0.84,0.82,0.09,0.48,-0,-1,-1,0.83,9328,31,99,38,43,728,0.0,671,474,60,119.0,0,1,348,234,83,0,0,748,250,250,0,882.05,,,,,,,,,,,,
29084,1563730081497,8,2.28,0.76,0.54,1.01,0.84,0.69,0.08,0.41,-0,-0,1,0.69,9508,31,99,38,43,735,0.0,676,469,60,118.0,0,1,350,236,83,0,0,748,250,250,0,414.87,,,,,,,,,,,,
29104,1563730081517,10,2.27,0.77,0.54,1.0,0.84,0.73,0.09,0.42,-0,-0,-0,0.73,9610,31,99,38,42,741,0.0,675,467,60,119.0,0,1,342,234,83,0,0,748,250,250,0,648.46,,,,,,,,,,,,
29124,1563730081537,8,2.27,0.77,0.54,0.99,0.83,0.73,0.07,0.46,-1,-1,0,0.73,9720,30,98,38,41,746,0.0,676,472,60,119.0,0,1,335,231,83,0,0,748,250,250,0,882.05,,,,,,,,,,,,
29144,1563730081557,10,2.28,0.77,0.54,1.0,0.83,0.8,0.1,0.47,-0,-1,-0,0.8,9796,30,98,38,41,753,0.0,680,470,60,118.0,0,1,335,232,83,0,0,748,250,250,0,648.46,45.747807,4.906547,0.0,195.1,0,0.0,-1,0.0,0.0,0,0.0,0.4857
29164,1563730081577,9,2.29,0.77,0.54,1.0,0.83,0.75,0.07,0.49,-1,-1,-1,0.76,9884,30,98,38,41,760,0.0,684,468,60,119.0,0,1,335,233,87,0,0,21,250,250,0,1115.64,,,,,,,,,,,,
29184,1563730081597,11,2.27,0.77,0.54,1.0,0.84,0.86,0.08,0.5,-1,-2,-0,0.86,9989,29,98,38,40,763,0.0,683,471,60,118.0,0,1,327,229,87,0,0,212,250,250,0,882.05,,,,,,,,,,,,
29204,1563730081617,9,2.27,0.77,0.54,0.99,0.83,0.89,0.07,0.58,-1,-2,-2,0.9,9978,29,98,38,40,764,0.0,683,467,60,119.0,0,1,327,229,87,0,0,212,250,250,0,648.46,,,,,,,,,,,,
29224,1563730081637,7,2.28,0.77,0.54,0.99,0.83,0.86,0.03,0.53,-1,-2,-1,0.86,10005,28,98,38,40,769,0.0,684,476,60,119.0,0,1,327,230,87,0,0,212,250,250,0,1115.64,,,,,,,,,,,,
29244,1563730081657,9,2.29,0.77,0.54,0.99,0.83,0.95,0.07,0.52,-1,-3,-0,0.95,10059,27,98,38,39,776,0.0,683,463,60,119.0,0,1,320,227,87,0,0,218,250,250,0,882.05,45.747807,4.906547,0.0,195.1,0,0.0,-1,0.0,0.0,0,0.0,0.4874
29264,1563730081677,8,2.28,0.76,0.54,0.99,0.82,0.97,0.07,0.59,-1,-2,-2,0.97,10005,26,98,38,39,781,0.0,680,473,60,118.0,0,1,320,227,86,0,0,218,250,250,0,648.46,,,,,,,,,,,,
29284,1563730081697,8,2.29,0.78,0.54,0.99,0.83,0.93,0.03,0.6,-1,-2,-1,0.93,10000,23,98,38,37,787,0.0,685,470,60,119.0,0,1,314,223,86,0,0,69,250,250,0,1115.64,,,,,,,,,,,,
29304,1563730081717,11,2.27,0.77,0.53,0.99,0.83,1.01,0.05,0.56,-1,-3,-1,1.01,9989,20,98,38,36,791,0.0,679,472,60,119.0,0,1,311,220,86,0,0,69,250,250,0,882.05,,,,,,,,,,,,
29324,1563730081737,8,2.29,0.77,0.53,0.99,0.82,1.01,0.07,0.61,-1,-2,-2,1.02,9878,18,98,38,34,795,0.0,682,467,60,119.0,0,1,305,217,86,0,0,69,250,250,0,648.46,,,,,,,,,,,,
29344,1563730081757,10,2.27,0.76,0.54,0.99,0.82,1.03,-0.01,0.59,-1,-4,-1,1.03,9791,17,98,38,33,796,0.0,681,470,60,119.0,0,1,302,212,86,0,0,69,250,250,0,882.05,45.747807,4.906547,0.0,195.1,0,0.0,-1,0.0,0.0,0,0.0,0.4891
29364,1563730081777,9,2.28,0.76,0.53,1.0,0.83,0.94,0.04,0.55,-0,-2,-1,0.94,9600,16,98,38,33,794,0.0,675,470,60,119.0,0,1,302,209,77,0,0,69,250,250,0,648.46,,,,,,,,,,,,
29384,1563730081797,9,2.27,0.77,0.54,0.99,0.82,0.98,-0.01,0.55,-0,-1,-2,0.98,9417,16,97,38,32,791,0.0,672,471,60,118.0,0,1,300,203,77,0,0,25,250,250,0,882.05,,,,,,,,,,,,
29404,1563730081817,8,2.28,0.76,0.54,0.99,0.83,1.08,-0.09,0.61,-1,-3,-1,1.09,9263,16,97,38,32,787,0.0,670,476,60,119.0,0,1,300,200,77,0,0,25,250,250,0,882.05,,,,,,,,,,,,
29424,1563730081837,9,2.29,0.76,0.53,0.99,0.83,1.13,-0.17,0.62,-1,-2,-2,1.15,9110,16,97,38,31,783,0.0,666,475,60,118.0,0,1,295,195,77,0,0,25,250,250,0,1115.64,,,,,,,,,,,,
29444,1563730081857,10,2.28,0.77,0.54,1.0,0.83,1.18,-0.21,0.7,-1,-3,-1,1.19,8967,16,97,38,32,781,0.0,664,472,60,118.0,0,1,300,194,77,0,0,25,250,250,0,882.05,45.747807,4.906547,0.0,195.1,0,0.0,-1,0.0,0.0,0,0.0,0.4907
29464,1563730081877,9,2.28,0.77,0.54,1.0,0.82,1.19,-0.32,0.68,-2,-3,-2,1.24,8798,16,97,38,32,785,0.0,658,474,60,118.0,0,1,300,194,65,0,0,25,250,250,0,882.05,,,,,,,,,,,,
29484,1563730081896,8,2.28,0.76,0.54,0.99,0.83,1.2,-0.34,0.72,-1,-3,-3,1.25,8724,15,97,38,32,794,0.0,657,473,60,119.0,0,1,300,194,65,0,0,25,250,250,0,882.05,,,,,,,,,,,,
29504,1563730081916,10,2.28,0.76,0.54,0.99,0.83,1.14,-0.26,0.59,-0,-3,-5,1.16,8569,16,97,38,32,805,0.0,655,472,60,119.0,0,1,300,193,65,0,0,25,250,250,0,648.46,,,,,,,,,,,,
29524,1563730081936,9,2.27,0.77,0.54,1.0,0.83,1.11,-0.22,0.55,-0,-2,-2,1.13,8430,15,97,38,32,817,0.0,658,470,60,118.0,0,1,298,189,65,0,0,347,250,250,0,414.87,,,,,,,,,,,,
29544,1563730081956,9,2.28,0.76,0.53,0.99,0.83,1.07,-0.17,0.56,-0,-1,-1,1.08,8296,15,96,38,32,830,0.0,664,467,60,119.0,0,1,295,183,65,0,0,153,250,250,0,882.05,45.747807,4.906547,0.0,195.1,0,0.0,-1,0.0,0.0,0,0.0,0.4924
29564,1563730081976,9,2.28,0.77,0.54,1.0,0.82,1.13,-0.19,0.56,-0,-3,-2,1.14,8202,15,96,38,32,844,0.0,658,470,60,119.0,0,1,294,181,57,0,0,186,250,250,0,414.87,,,,,,,,,,,,
29584,1563730081996,10,2.28,0.76,0.53,0.99,0.82,1.05,-0.17,0.57,-0,-2,-1,1.06,8209,15,96,38,32,856,0.0,650,470,60,119.0,0,1,294,181,57,0,0,686,250,250,0,648.46,,,,,,,,,,,,
29604,1563730082010,8,2.28,0.77,0.53,1.0,0.83,1.09,-0.2,0.59,-1,-2,-1,1.11,8169,15,96,38,32,859,0.0,653,468,60,118.0,0,1,293,178,57,0,0,686,250,250,0,414.87,,,,,,,,,,,,
29624,1563730082030,9,2.28,0.76,0.54,0.99,0.83,1.04,-0.15,0.57,-1,-3,-1,1.05,8081,15,96,38,32,861,0.0,646,471,60,119.0,0,1,291,175,57,0,0,2072,250,250,0,648.46,,,,,,,,,,,,
29644,1563730082050,8,2.28,0.76,0.53,0.99,0.83,1.05,-0.17,0.61,-1,-3,-1,1.06,8071,15,96,38,32,862,0.0,651,470,60,120.0,0,1,291,174,57,0,0,371,250,250,0,882.05,45.747807,4.906547,0.0,195.1,0,0.0,-1,0.0,0.0,0,0.0,0.4941
29664,1563730082070,9,2.28,0.76,0.53,0.99,0.83,1.07,-0.18,0.6,-1,-3,-1,1.08,8036,15,96,38,32,863,0.0,659,467,60,118.0,0,1,290,172,52,0,0,801,250,250,0,414.87,,,,,,,,,,,,
29684,1563730082096,10,2.27,0.76,0.54,1.0,0.82,1.01,-0.14,0.61,-1,-4,-1,1.02,7948,15,96,38,32,861,0.0,646,473,60,119.0,0,1,290,171,52,0,0,1043,250,250,0,414.87,,,,,,,,,,,,
29704,1563730082116,10,2.28,0.77,0.53,1.0,0.82,0.99,-0.14,0.62,-1,-4,-1,1.0,7931,15,95,38,33,859,0.0,642,470,60,119.0,0,1,292,176,52,0,0,168,250,250,0,882.05,,,,,,,,,,,,
29724,1563730082136,7,2.27,0.77,0.54,0.99,0.82,1.01,-0.19,0.65,-1,-3,-1,1.02,7858,15,95,38,33,856,0.0,643,471,60,118.0,0,1,292,176,52,0,0,1789,250,250,0,882.05,,,,,,,,,,,,
29744,1563730082156,6,2.28,0.77,0.54,0.99,0.83,1.06,-0.21,0.67,-1,-4,-1,1.08,7776,15,95,38,33,854,0.0,640,468,60,119.0,0,1,292,175,52,0,0,435,250,250,0,414.87,45.747807,4.906547,0.0,195.1,0,0.0,-1,0.0,0.0,0,0.0,0.4957
29764,1563730082176,8,2.27,0.77,0.53,1.0,0.83,1.04,-0.16,0.67,-1,-4,-1,1.06,7767,15,95,38,33,853,0.0,641,471,60,119.0,0,1,292,180,53,0,0,247,250,250,0,648.46,,,,,,,,,,,,
29784,1563730082198,10,2.28,0.77,0.54,0.99,0.83,0.99,-0.09,0.62,-1,-3,-1,1.0,7709,15,95,38,34,853,0.0,648,472,60,119.0,0,1,295,175,53,0,0,370,250,250,0,648.46,,,,,,,,,,,,
29804,1563730082218,10,2.27,0.77,0.53,1.0,0.82,0.89,-0.01,0.51,-0,-1,-1,0.89,7687,15,94,38,34,857,0.0,640,470,60,120.0,0,1,295,180,53,0,0,370,250,250,0,882.05,,,,,,,,,,,,
29824,1563730082238,10,2.28,0.76,0.54,0.99,0.83,0.79,-0.01,0.45,0,-0,-1,0.79,7625,15,94,38,34,862,0.0,640,469,60,120.0,0,1,295,180,53,0,0,370,250,250,0,648.46,,,,,,,,,,,,
29844,1563730082258,11,2.27,0.76,0.53,1.0,0.83,0.75,-0.05,0.46,0,0,0,0.75,7581,15,94,38,35,867,0.0,634,471,60,118.0,0,1,298,187,53,0,0,370,250,250,0,882.05,45.747807,4.906547,0.0,195.1,0,0.0,-1,0.0,0.0,0,0.0,0.4974
29864,1563730082278,9,2.27,0.76,0.54,0.99,0.82,0.74,-0.09,0.48,0,1,-0,0.75,7578,15,94,38,35,873,0.0,634,470,60,118.0,0,1,298,187,53,0,0,370,250,250,0,882.05,,,,,,,,,,,,
29884,1563730082298,10,2.29,0.76,0.54,1.0,0.83,0.71,-0.12,0.43,0,3,0,0.72,7512,15,94,38,35,880,0.0,636,471,60,119.0,0,1,298,186,53,0,0,370,250,250,0,882.05,,,,,,,,,,,,
29904,1563730082318,10,2.28,0.76,0.54,0.99,0.83,0.68,-0.15,0.44,1,3,1,0.69,7518,15,94,38,35,887,0.0,633,470,60,119.0,0,1,298,186,53,0,0,20,250,250,0,882.05,,,,,,,,,,,,
29924,1563730082338,11,2.28,0.77,0.54,0.99,0.82,0.64,-0.21,0.42,1,4,1,0.67,7476,15,94,38,35,889,0.0,634,472,60,118.0,0,1,298,186,53,0,0,20,250,250,0,882.05,,,,,,,,,,,,
29944,1563730082358,11,2.28,0.77,0.53,0.99,0.83,0.62,-0.22,0.44,1,4,1,0.66,7428,15,94,38,36,890,0.0,630,467,60,118.0,0,1,301,191,53,0,0,20,250,250,0,882.05,45.747807,4.906547,0.0,195.1,0,0.0,-1,0.0,0.0,0,0.0,0.4991
29964,1563730082378,9,2.28,0.76,0.53,0.99,0.83,0.53,-0.2,0.36,1,6,1,0.57,7446,15,93,38,36,893,0.0,627,470,60,119.0,0,1,301,191,53,0,0,20,250,250,0,648.46,,,,,,,,,,,,
29984,1563730082394,10,2.27,0.76,0.53,1.0,0.82,0.47,-0.19,0.32,2,6,1,0.5,7422,15,93,38,36,896,0.0,627,470,60,119.0,0,1,301,191,53,0,0,20,250,250,0,882.05,,,,,,,,,,,,
30004,1563730082414,10,2.29,0.76,0.54,0.99,0.83,0.4,-0.11,0.28,2,6,2,0.42,7419,15,93,38,37,897,0.0,628,472,60,119.0,0,1,304,191,53,0,0,20,250,250,0,882.05,,,,,,,,,,,,
30024,1563730082434,9,2.28,0.76,0.53,0.99,0.83,0.33,-0.03,0.22,2,7,2,0.33,7367,15,93,38,37,899,0.0,625,466,60,119.0,0,1,304,197,53,0,0,20,250,250,0,882.05,,,,,,,,,,,,
30044,1563730082454,7,2.29,0.77,0.53,0.99,0.82,0.27,0.09,0.15,2,8,2,0.28,7376,15,92,38,37,903,0.0,630,470,60,119.0,0,1,304,197,53,0,0,20,250,250,0,648.46,45.747807,4.906547,0.0,195.1,0,0.0,-1,0.0,0.0,0,0.0,0.5007
30064,1563730082474,6,2.29,0.76,0.54,0.99,0.82,0.32,0.13,0.19,2,5,1,0.34,7344,15,92,38,37,907,0.0,629,467,60,120.0,0,1,304,197,54,0,0,20,250,250,0,648.46,,,,,,,,,,,,
30084,1563730082496,6,2.28,0.76,0.53,0.99,0.82,0.42,0.12,0.26,1,4,1,0.44,7347,15,92,38,37,911,0.0,636,476,60,119.0,0,1,304,196,54,0,0,20,250,250,0,882.05,,,,,,,,,,,,
30104,1563730082516,8,2.28,0.77,0.53,1.0,0.83,0.57,0.09,0.41,1,2,0,0.58,7321,15,92,38,37,914,0.0,635,470,60,119.0,0,1,304,202,54,0,0,20,250,250,0,414.87,,,,,,,,,,,,
30124,1563730082536,8,2.27,0.77,0.53,0.99,0.82,0.72,-0.0,0.51,0,-0,-0,0.72,7347,15,92,38,38,921,0.0,625,469,60,118.0,0,1,307,202,54,0,0,20,250,250,0,414.87,,,,,,,,,,,,
30144,1563730082556,10,2.29,0.77,0.53,0.99,0.83,0.8,-0.08,0.53,0,0,0,0.8,7295,15,92,38,38,928,0.0,631,472,60,118.0,0,1,307,202,54,0,0,10,250,250,0,414.87,45.747807,4.906547,0.0,195.1,0,0.0,-1,0.0,0.0,0,0.0,0.5024
30164,1563730082576,10,2.28,0.77,0.53,1.0,0.82,0.75,-0.13,0.49,1,1,0,0.76,7298,15,91,38,38,934,0.0,625,471,60,119.0,0,1,307,202,55,0,0,158,250,250,0,882.05,,,,,,,,,,,,
30184,1563730082598,10,2.28,0.77,0.53,0.98,0.82,0.66,-0.07,0.42,1,2,1,0.67,7298,15,91,38,38,938,0.0,627,472,60,118.0,0,1,307,201,55,0,0,158,250,250,0,882.05,,,,,,,,,,,,
30204,1563730082618,7,2.29,0.76,0.53,0.99,0.83,0.58,0.01,0.36,1,3,1,0.58,7259,15,91,39,38,944,0.0,627,467,60,120.0,0,1,307,201,55,0,0,105,250,250,0,414.87,,,,,,,,,,,,
30224,1563730082638,8,2.28,0.76,0.53,0.99,0.82,0.62,0.06,0.38,1,1,-0,0.62,7264,15,91,39,38,950,0.0,620,467,60,119.0,0,1,307,201,55,0,0,105,250,250,0,648.46,,,,,,,,,,,,
30244,1563730082658,4,2.28,0.77,0.53,0.99,0.82,0.76,0.02,0.49,0,-1,-0,0.76,7239,15,91,39,38,954,0.0,623,468,60,120.0,0,1,307,207,55,0,0,105,250,250,0,414.87,45.747807,4.906547,0.0,195.1,0,0.0,-1,0.0,0.0,0,0.0,0.5041
30264,1563730082678,10,2.28,0.77,0.53,1.0,0.82,0.81,-0.03,0.55,0,-1,-0,0.81,7222,15,90,39,38,955,0.0,624,474,60,118.0,0,1,307,207,55,0,0,105,250,250,0,414.87,,,,,,,,,,,,
30284,1563730082698,10,2.28,0.77,0.53,0.99,0.83,0.78,-0.05,0.53,0,-0,-0,0.79,7231,15,91,39,39,957,0.0,624,471,60,118.0,0,1,310,200,55,0,0,105,250,250,0,882.05,,,,,,,,,,,,
30304,1563730082718,9,2.27,0.76,0.53,1.0,0.82,0.68,-0.03,0.43,1,2,-0,0.68,7192,15,90,39,39,959,0.0,622,469,60,119.0,0,1,310,206,55,0,0,105,250,250,0,882.05,,,,,,,,,,,,
30324,1563730082738,8,2.28,0.76,0.53,1.0,0.82,0.64,0.04,0.36,1,2,-1,0.64,7200,15,90,39,39,960,0.0,621,468,60,119.0,0,1,310,206,55,0,0,105,250,250,0,648.46,,,,,,,,,,,,
30344,1563730082758,8,2.28,0.77,0.54,0.99,0.82,0.74,0.02,0.45,0,-1,-1,0.74,7151,15,90,39,39,960,0.0,617,468,60,120.0,0,1,310,206,55,0,0,20,250,250,0,414.87,45.747807,4.906547,0.0,195.1,0,0.0,-1,0.0,0.0,0,0.0,0.5057
30364,1563730082778,9,2.28,0.76,0.53,0.99,0.83,0.8,-0.02,0.52,0,-1,0,0.8,7175,15,90,39,39,960,0.0,620,474,60,118.0,0,1,310,206,55,0,0,85,250,250,0,414.87,,,,,,,,,,,,
30384,1563730082796,10,2.28,0.77,0.54,0.99,0.83,0.76,-0.0,0.46,0,-1,1,0.76,7159,14,90,39,39,961,0.0,618,472,60,118.0,0,1,310,206,55,0,0,85,250,250,0,882.05,,,,,,,,,,,,
30404,1563730082816,8,2.28,0.76,0.53,0.99,0.83,0.64,0.06,0.39,1,1,1,0.64,7131,13,90,39,39,962,0.0,618,467,60,119.0,0,1,310,206,55,0,0,85,250,250,0,648.46,,,,,,,,,,,,
30424,1563730082836,6,2.28,0.76,0.54,0.99,0.83,0.7,0.06,0.47,1,-1,0,0.7,7140,12,89,39,39,963,0.0,617,470,60,118.0,0,1,310,206,55,0,0,85,250,250,0,414.87,,,,,,,,,,,,
30444,1563730082856,9,2.29,0.77,0.53,0.99,0.83,0.81,0.02,0.53,-0,-2,0,0.81,7110,11,89,39,38,964,0.0,616,470,60,119.0,0,1,307,206,55,0,0,37,250,250,0,414.87,45.747807,4.906547,0.0,195.1,0,0.0,-1,0.0,0.0,0,0.0,0.5074
30464,1563730082876,9,2.27,0.77,0.53,0.99,0.82,0.78,-0.01,0.44,0,-2,1,0.78,7086,11,89,39,38,965,0.0,606,471,60,118.0,0,1,307,200,53,0,0,37,250,250,0,882.05,,,,,,,,,,,,
30484,1563730082897,8,2.28,0.77,0.54,1.0,0.83,0.71,0.02,0.39,0,-0,0,0.71,7113,10,89,39,37,966,0.0,607,468,60,119.0,0,1,304,194,53,0,0,37,250,250,0,648.46,,,,,,,,,,,,
30504,1563730082917,8,2.27,0.76,0.53,1.0,0.83,0.76,-0.01,0.53,0,-2,0,0.76,7051,9,89,39,36,966,0.0,614,467,60,118.0,0,1,301,188,53,0,0,37,250,250,0,414.87,,,,,,,,,,,,
30524,1563730082937,8,2.29,0.77,0.54,0.99,0.82,0.82,-0.07,0.67,-0,-7,-0,0.82,7054,8,89,39,36,967,0.0,612,472,60,118.0,0,1,301,188,53,0,0,37,250,250,0,882.05,,,,,,,,,,,,
30544,1563730082957,8,2.28,0.77,0.54,0.99,0.82,0.7,-0.01,0.53,1,-4,-1,0.7,6998,8,89,39,35,968,0.0,605,470,60,120.0,0,1,298,183,53,0,0,37,250,250,0,648.46,45.747807,4.906547,0.0,195.1,0,0.0,-1,0.0,0.0,0,0.0,0.5091
30564,1563730082977,11,2.27,0.77,0.54,1.0,0.82,0.71,-0.01,0.57,0,-5,-1,0.71,6936,7,89,39,35,968,0.0,602,466,60,120.0,0,1,298,183,48,0,0,37,250,250,0,414.87,,,,,,,,,,,,
30584,1563730082991,8,2.28,0.77,0.53,1.0,0.82,0.79,-0.04,0.53,-0,-6,-1,0.79,6903,7,88,39,35,968,0.0,597,476,60,118.0,0,1,298,183,48,0,0,37,250,250,0,882.05,,,,,,,,,,,,
30604,1563730083011,8,2.28,0.77,0.53,0.99,0.83,0.71,-0.05,0.51,0,-3,-1,0.71,6858,7,88,39,34,967,0.0,591,468,60,119.0,0,1,295,177,48,0,0,15,250,250,0,648.46,,,,,,,,,,,,
30624,1563730083031,9,2.28,0.76,0.53,1.0,0.83,0.81,-0.05,0.57,-0,-5,-1,0.81,6783,7,88,39,34,963,0.0,591,469,60,119.0,0,1,295,177,48,0,0,15,250,250,0,414.87,,,,,,,,,,,,
30644,1563730083051,6,2.28,0.77,0.54,1.0,0.82,0.73,0.0,0.5,0,-2,0,0.73,6732,7,88,39,34,958,0.0,589,465,60,119.0,0,1,295,177,48,0,0,15,250,250,0,414.87,45.747807,4.906547,0.0,195.1,0,0.0,-1,0.0,0.0,0,0.0,0.5107
30664,1563730083071,9,2.27,0.77,0.53,1.0,0.82,0.85,-0.0,0.56,-0,-5,0,0.85,6696,6,88,39,34,954,0.0,585,472,60,117.0,0,1,295,177,45,0,0,15,250,250,0,-5.59,,,,,,,,,,,,
30684,1563730083097,10,2.28,0.76,0.54,0.99,0.83,0.77,-0.02,0.56,0,-3,0,0.77,6634,6,88,39,34,949,0.0,584,471,60,119.0,0,1,295,177,45,0,0,35,250,250,0,648.46,,,,,,,,,,,,
30704,1563730083117,7,2.29,0.76,0.54,0.99,0.83,0.84,0.03,0.41,0,-2,1,0.84,6585,6,88,39,34,942,0.0,578,470,60,119.0,0,1,295,177,45,0,0,71,250,250,0,882.05,,,,,,,,,,,,
30724,1563730083137,9,2.28,0.77,0.53,0.99,0.83,0.81,-0.01,0.47,-0,-3,0,0.81,6487,5,88,39,34,935,0.0,577,470,60,119.0,0,1,295,177,45,0,0,142,250,250,0,414.87,,,,,,,,,,,,
30744,1563730083157,10,2.27,0.77,0.54,0.99,0.82,0.74,-0.01,0.49,0,-3,0,0.74,6416,5,88,39,33,932,0.0,560,466,60,119.0,0,1,292,172,45,0,0,286,250,250,0,414.87,45.747807,4.906547,0.0,195.1,0,0.0,-1,0.0,0.0,0,0.0,0.5124
30764,1563730083177,8,2.28,0.77,0.53,1.0,0.82,0.82,0.01,0.43,0,-4,-0,0.82,6358,4,88,39,34,929,0.0,547,471,60,119.0,0,1,295,177,41,0,0,112,250,250,0,648.46,,,,,,,,,,,,
30784,1563730083197,8,2.28,0.77,0.53,1.0,0.82,0.91,0.03,0.44,-0,-7,-0,0.91,6270,4,87,39,34,924,0.0,541,471,60,119.0,0,1,295,177,41,0,0,809,250,250,0,882.05,,,,,,,,,,,,
30804,1563730083217,8,2.28,0.76,0.53,1.0,0.82,0.93,0.04,0.48,-1,-9,0,0.94,6212,3,87,39,34,919,0.0,540,470,60,118.0,0,1,295,177,41,0,0,100,250,250,0,414.87,,,,,,,,,,,,
30824,1563730083237,7,2.28,0.77,0.53,0.99,0.83,0.94,0.03,0.52,-1,-9,0,0.94,6097,2,87,39,34,916,0.0,533,472,60,119.0,0,1,295,177,41,0,0,100,250,250,0,414.87,,,,,,,,,,,,
30844,1563730083257,6,2.29,0.76,0.53,0.99,0.82,0.94,0.02,0.55,-1,-10,0,0.94,6042,0,87,39,34,913,0.0,526,471,60,120.0,0,1,295,177,41,0,0,100,250,250,0,414.87,45.747807,4.906547,0.0,195.1,0,0.0,-1,0.0,0.0,0,0.0,0.5141
30864,1563730083277,6,2.28,0.76,0.53,0.99,0.81,0.97,0.04,0.57,-2,-10,0,0.98,5931,0,87,39,34,909,0.0,515,467,60,119.0,0,1,291,182,40,0,0,100,250,250,0,414.87,,,,,,,,,,,,
30884,1563730083297,7,2.27,0.77,0.52,0.99,0.81,1.06,0.07,0.61,-2,-11,1,1.06,5852,0,87,39,35,905,0.0,514,471,60,118.0,0,1,290,181,40,0,0,308,250,250,0,414.87,,,,,,,,,,,,
30904,1563730083317,8,2.28,0.76,0.52,0.98,0.82,1.14,0.08,0.6,-3,-12,0,1.15,5781,0,87,39,36,902,0.0,508,473,60,119.0,0,1,288,180,40,0,0,114,250,250,0,882.05,,,,,,,,,,,,
30924,1563730083337,9,2.28,0.75,0.53,0.99,0.81,1.1,0.14,0.62,-2,-11,0,1.11,5647,0,87,39,36,900,0.0,505,470,60,119.0,0,1,281,186,40,0,0,456,250,250,0,882.05,,,,,,,,,,,,
30944,1563730083357,8,2.28,0.76,0.52,0.99,0.82,0.98,0.01,0.66,-2,-9,-0,0.98,5521,0,87,39,37,900,0.0,500,465,60,119.0,0,1,276,191,40,0,0,254,250,250,0,414.87,45.747807,4.906547,0.0,195.1,0,0.0,-1,0.0,0.0,0,0.0,0.5157
30964,1563730083377,10,2.28,0.76,0.52,0.99,0.81,1.04,0.02,0.6,-2,-8,-0,1.04,5387,0,86,39,38,900,0.0,488,476,60,118.0,0,1,271,195,40,0,0,119,250,250,0,882.05,,,,,,,,,,,,
30984,1563730083397,8,2.28,0.75,0.53,0.98,0.82,0.96,-0.01,0.66,-1,-8,-1,0.96,5325,0,86,39,39,901,0.0,480,467,60,120.0,0,1,269,202,40,0,0,119,250,250,0,414.87,,,,,,,,,,,,
31004,1563730083417,8,2.28,0.76,0.53,0.99,0.81,1.03,0.01,0.6,-1,-8,-0,1.03,5218,0,86,39,41,903,0.0,470,464,60,119.0,0,1,269,205,40,0,0,57,250,250,0,414.87,,,,,,,,,,,,
31024,1563730083437,8,2.27,0.76,0.53,0.98,0.81,0.93,-0.03,0.62,-1,-6,-1,0.93,5085,0,86,39,42,907,0.0,447,469,60,120.0,0,1,263,204,40,0,0,687,250,250,0,414.87,,,,,,,,,,,,
31044,1563730083457,8,2.29,0.75,0.52,0.98,0.8,0.93,0.01,0.63,-1,-6,1,0.93,4986,0,86,39,43,911,0.0,442,474,60,119.0,0,1,253,207,40,0,0,72,250,250,0,882.05,45.747807,4.906547,0.0,195.1,0,0.0,-1,0.0,0.0,0,0.0,0.5174
31064,1563730083477,9,2.27,0.76,0.52,0.98,0.81,0.94,0.02,0.57,-1,-6,1,0.94,4868,0,86,39,44,915,0.0,435,465,60,119.0,0,1,249,206,38,0,0,1840,250,250,0,181.28,,,,,,,,,,,,
31084,1563730083497,8,2.29,0.76,0.53,0.98,0.82,0.96,0.0,0.57,-1,-4,1,0.96,4785,0,86,39,45,918,0.0,420,470,60,120.0,0,1,242,206,38,0,0,1840,250,250,0,414.87,,,,,,,,,,,,
31104,1563730083517,11,2.27,0.77,0.54,1.0,0.83,0.93,0.02,0.6,-1,-3,-0,0.93,4720,0,86,39,46,924,0.0,417,470,60,119.0,0,1,238,207,38,0,0,1840,250,250,0,414.87,,,,,,,,,,,,
31124,1563730083537,11,2.27,0.77,0.54,1.01,0.84,0.87,0.0,0.65,-1,-2,-2,0.87,4613,0,86,39,46,930,0.0,403,464,60,120.0,0,1,227,205,38,0,0,1840,250,250,0,414.87,,,,,,,,,,,,
31144,1563730083557,11,2.27,0.78,0.54,1.02,0.84,0.82,-0.01,0.66,-1,-1,-3,0.82,4535,0,86,39,47,936,0.0,399,471,60,120.0,0,1,221,206,38,0,0,1840,250,250,0,414.87,45.747807,4.906547,0.0,195.1,0,0.0,-1,0.0,0.0,0,0.0,0.5191
31164,1563730083577,11,2.28,0.78,0.55,1.02,0.85,0.78,-0.04,0.66,-1,1,-4,0.78,4473,0,86,39,47,939,0.0,392,471,60,120.0,0,1,214,205,35,0,0,1840,250,250,0,414.87,,,,,,,,,,,,
31184,1563730083597,10,2.27,0.78,0.54,1.01,0.86,0.77,-0.04,0.66,-1,2,-5,0.77,4425,0,86,39,47,943,0.0,380,471,60,120.0,0,1,209,204,35,0,0,1840,250,250,0,414.87,,,,,,,,,,,,
31204,1563730083617,8,2.28,0.78,0.55,1.03,0.85,0.77,-0.04,0.66,-1,2,-6,0.77,4340,0,86,39,47,947,0.0,379,467,60,120.0,0,1,200,202,35,0,0,1840,250,250,0,414.87,,,,,,,,,,,,
31224,1563730083637,8,2.27,0.79,0.55,1.03,0.85,0.79,-0.04,0.66,-1,2,-6,0.79,4303,0,85,39,48,951,0.0,371,467,60,119.0,0,1,197,205,35,0,0,1840,250,250,0,414.87,,,,,,,,,,,,
31244,1563730083657,6,2.28,0.79,0.56,1.02,0.86,0.8,-0.03,0.65,-1,0,-5,0.8,4246,0,85,39,48,951,0.0,376,465,60,119.0,0,1,191,204,35,0,0,1840,250,250,0,181.28,45.747807,4.906547,0.0,195.1,0,0.0,-1,0.0,0.0,0,0.0,0.5207
31264,1563730083677,6,2.28,0.78,0.56,1.02,0.85,0.82,-0.03,0.64,-1,-1,-4,0.82,4196,0,85,39,48,952,0.0,364,470,60,119.0,0,1,186,203,32,0,0,1840,250,250,0,882.05,,,,,,,,,,,,
31284,1563730083697,9,2.29,0.79,0.55,1.03,0.86,0.8,-0.04,0.63,-1,-1,-4,0.81,4171,0,85,39,49,954,0.0,362,470,60,119.0,0,1,184,207,32,0,0,1840,250,250,0,414.87,,,,,,,,,,,,
31304,1563730083717,6,2.27,0.78,0.55,1.02,0.86,0.8,-0.03,0.61,-1,2,-4,0.8,4145,0,85,39,49,955,0.0,358,471,60,120.0,0,1,182,206,32,0,0,1840,250,250,0,414.87,,,,,,,,,,,,
31324,1563730083737,7,2.29,0.79,0.55,1.03,0.86,0.82,-0.02,0.61,-0,2,-3,0.82,4107,0,85,39,49,956,0.0,357,466,60,118.0,0,1,178,206,32,0,0,1840,250,250,0,414.87,,,,,,,,,,,,
31344,1563730083757,6,2.29,0.78,0.56,1.03,0.85,0.84,-0.01,0.62,-0,0,-3,0.84,4097,0,85,39,50,955,0.0,357,467,60,119.0,0,1,176,209,32,0,0,1840,250,250,0,882.05,45.747807,4.906547,0.0,195.1,0,0.0,-1,0.0,0.0,0,0.0,0.5224
31364,1563730083777,9,2.28,0.78,0.55,1.03,0.86,0.82,-0.01,0.59,-0,2,-2,0.82,4071,0,85,39,50,950,0.0,352,469,60,120.0,0,1,175,209,32,0,0,1840,250,250,0,414.87,,,,,,,,,,,,
31384,1563730083796,7,2.28,0.78,0.55,1.03,0.86,0.82,0.03,0.58,-0,2,-2,0.82,4047,0,85,39,50,944,0.0,352,470,60,120.0,0,1,172,208,32,0,0,7,250,250,0,414.87,,,,,,,,,,,,
31404,1563730083816,7,2.29,0.78,0.56,1.03,0.86,0.84,0.03,0.56,0,1,-1,0.84,4028,0,84,39,50,938,0.0,348,466,60,121.0,0,1,169,208,32,0,0,170,250,250,0,882.05,,,,,,,,,,,,
31424,1563730083836,8,2.27,0.78,0.56,1.03,0.85,0.81,0.04,0.54,0,1,-1,0.81,4022,0,84,39,51,932,0.0,348,467,60,122.0,0,1,169,212,32,0,0,118,250,250,0,181.28,,,,,,,,,,,,
31444,1563730083856,7,2.29,0.78,0.56,1.03,0.87,0.8,0.07,0.51,0,2,-1,0.81,3981,0,84,39,51,925,0.0,342,467,60,121.0,0,1,166,211,32,0,0,118,250,250,0,414.87,45.747807,4.906547,0.0,195.1,0,0.0,-1,0.0,0.0,0,0.0,0.5241
31464,1563730083876,8,2.28,0.78,0.56,1.03,0.87,0.82,0.06,0.49,0,0,0,0.82,3971,0,84,39,51,919,0.0,346,468,60,122.0,0,1,166,211,31,0,0,118,250,250,0,882.05,,,,,,,,,,,,
31484,1563730083896,8,2.27,0.79,0.56,1.03,0.86,0.81,0.06,0.48,0,2,0,0.81,3963,0,84,39,51,919,0.0,334,463,60,123.0,0,1,165,211,31,0,0,118,250,250,0,414.87,,,,,,,,,,,,
31504,1563730083916,7,2.28,0.78,0.56,1.03,0.86,0.82,0.08,0.51,0,1,0,0.82,3932,0,84,39,51,919,0.0,338,466,60,122.0,0,1,164,210,31,0,0,118,250,250,0,414.87,,,,,,,,,,,,
31524,1563730083936,9,2.28,0.79,0.55,1.03,0.86,0.84,0.06,0.51,0,0,1,0.84,3931,0,84,39,52,925,0.0,337,469,60,122.0,0,1,165,214,31,0,0,118,250,250,0,648.46,,,,,,,,,,,,
31544,1563730083956,7,2.28,0.79,0.55,1.04,0.86,0.83,0.05,0.49,0,2,0,0.84,3959,0,84,39,52,931,0.0,341,462,60,123.0,0,1,166,215,31,0,0,118,250,250,0,414.87,45.747807,4.906547,0.0,195.1,0,0.0,-1,0.0,0.0,0,0.0,0.5257
31564,1563730083976,7,2.27,0.78,0.56,1.03,0.86,0.87,0.02,0.54,0,-0,1,0.87,3905,0,84,39,52,937,0.0,335,467,60,120.0,0,1,164,214,32,0,0,118,250,250,0,414.87,,,,,,,,,,,,
31584,1563730083996,9,2.27,0.79,0.56,1.02,0.86,0.86,0.01,0.53,0,1,0,0.86,3898,0,84,39,52,943,0.0,339,469,60,123.0,0,1,163,213,32,0,0,118,250,250,0,414.87,,,,,,,,,,,,
31604,1563730084010,6,2.29,0.78,0.55,1.02,0.85,0.86,0.04,0.54,0,1,-0,0.86,3943,0,84,39,52,959,0.0,335,466,60,122.0,0,1,165,214,32,0,0,118,250,250,0,414.87,,,,,,,,,,,,
31624,1563730084030,9,2.28,0.78,0.55,1.02,0.86,0.84,0.03,0.54,0,-0,1,0.84,3890,0,84,39,52,975,0.0,335,468,60,121.0,0,1,163,213,32,0,0,13,250,250,0,882.05,,,,,,,,,,,,
31644,1563730084050,8,2.27,0.78,0.55,1.03,0.86,0.83,0.02,0.51,0,1,-0,0.83,3855,0,84,39,53,986,0.0,333,470,60,123.0,0,1,163,217,32,0,0,13,250,250,0,414.87,45.747807,4.906547,0.0,195.1,0,0.0,-1,0.0,0.0,0,0.0,0.5274
31664,1563730084070,7,2.28,0.78,0.56,1.02,0.86,0.85,0.01,0.56,0,-1,0,0.85,3892,0,84,39,53,994,0.0,335,468,60,120.0,0,1,164,217,31,0,0,357,250,250,0,414.87,,,,,,,,,,,,
31684,1563730084096,8,2.28,0.78,0.55,1.02,0.85,0.83,0.01,0.53,0,1,-0,0.83,3854,0,83,39,53,1015,0.0,327,470,60,123.0,0,1,163,217,31,0,0,357,250,250,0,414.87,,,,,,,,,,,,
31704,1563730084116,7,2.27,0.78,0.55,1.02,0.85,0.85,0.01,0.57,0,-0,0,0.85,3824,0,83,39,53,1036,0.0,333,465,60,122.0,0,1,161,216,31,0,0,357,250,250,0,414.87,,,,,,,,,,,,
31724,1563730084136,8,2.29,0.78,0.55,1.02,0.85,0.82,-0.0,0.56,0,-0,0,0.82,3881,0,83,39,53,1050,0.0,327,471,60,122.0,0,1,164,222,31,0,0,357,250,250,0,648.46,,,,,,,,,,,,
31744,1563730084156,8,2.28,0.78,0.55,1.02,0.85,0.84,0.0,0.53,-0,-0,-0,0.84,3828,0,83,39,54,1061,0.0,331,465,60,123.0,0,1,163,216,31,0,0,357,250,250,0,414.87,45.747807,4.906547,0.0,195.1,0,0.0,-1,0.0,0.0,0,0.0,0.5291
31764,1563730084176,10,2.28,0.77,0.54,1.02,0.84,0.82,-0.01,0.55,0,-0,0,0.82,3801,0,83,39,54,1069,0.0,325,471,60,123.0,0,1,162,221,32,0,0,25,250,250,0,648.46,,,,,,,,,,,,
31784,1563730084198,7,2.28,0.78,0.54,1.02,0.84,0.83,-0.01,0.5,0,0,-0,0.83,3832,0,83,39,54,1076,0.0,325,463,60,123.0,0,1,163,221,32,0,0,25,250,250,0,414.87,,,,,,,,,,,,
31804,1563730084218,11,2.27,0.78,0.55,1.02,0.85,0.85,-0.01,0.54,0,-1,0,0.85,3807,0,83,39,54,1074,0.0,331,468,60,120.0,0,1,162,221,32,0,0,25,250,250,0,882.05,,,,,,,,,,,,
31824,1563730084238,7,2.28,0.78,0.55,1.02,0.85,0.85,-0.02,0.5,0,0,0,0.85,3771,0,83,39,54,1068,0.0,324,465,60,123.0,0,1,160,220,32,0,0,25,250,250,0,414.87,,,,,,,,,,,,
31844,1563730084258,9,2.28,0.78,0.55,1.02,0.86,0.87,-0.01,0.54,0,-2,1,0.87,3775,0,83,39,55,1060,0.0,323,466,60,120.0,0,1,161,224,32,0,0,25,250,250,0,882.05,45.747807,4.906547,0.0,195.1,0,0.0,-1,0.0,0.0,0,0.0,0.5307
31864,1563730084278,6,2.29,0.79,0.56,1.04,0.86,0.86,-0.01,0.51,0,0,-0,0.86,3759,0,83,39,55,1051,0.0,325,467,60,123.0,0,1,160,224,31,0,0,25,250,250,0,414.87,,,,,,,,,,,,
31884,1563730084296,11,2.28,0.79,0.56,1.05,0.87,0.86,-0.02,0.59,0,-1,0,0.87,3712,0,83,39,55,1045,0.0,319,472,60,121.0,0,1,158,223,31,0,0,23,250,250,0,882.05,,,,,,,,,,,,
31904,1563730084316,7,2.27,0.8,0.56,1.05,0.88,0.85,-0.01,0.53,0,-0,-1,0.85,3687,0,83,39,56,1041,0.0,321,469,60,123.0,0,1,157,227,31,0,0,23,250,250,0,414.87,,,,,,,,,,,,
31924,1563730084336,9,2.29,0.8,0.57,1.06,0.89,0.86,-0.02,0.56,0,-1,-1,0.86,3683,0,83,39,56,1035,0.0,318,471,60,121.0,0,1,157,227,31,0,0,23,250,250,0,882.05,,,,,,,,,,,,
31944,1563730084356,6,2.29,0.81,0.57,1.07,0.89,0.84,-0.0,0.52,0,-1,-1,0.84,3653,0,83,39,57,1027,0.0,314,467,60,123.0,0,1,156,226,31,0,0,23,250,250,0,414.87,45.747807,4.906547,0.0,195.1,0,0.0,-1,0.0,0.0,0,0.0,0.5324
31964,1563730084376,8,2.28,0.81,0.59,1.08,0.9,0.83,-0.0,0.49,0,0,-1,0.83,3648,0,83,39,57,1022,0.0,312,470,60,122.0,0,1,155,230,31,0,0,23,250,250,0,648.46,,,,,,,,,,,,
31984,1563730084396,6,2.28,0.82,0.6,1.09,0.92,0.85,-0.02,0.53,0,-2,-1,0.85,3602,0,82,39,57,1018,0.0,313,463,60,122.0,0,1,154,230,31,0,0,23,250,250,0,414.87,,,,,,,,,,,,
32004,1563730084416,7,2.29,0.82,0.6,1.1,0.94,0.84,-0.01,0.49,0,1,-1,0.84,3568,0,83,39,58,1014,0.0,302,473,60,123.0,0,1,152,233,31,0,0,23,250,250,0,414.87,,,,,,,,,,,,
32024,1563730084436,9,2.28,0.83,0.61,1.11,0.94,0.84,-0.01,0.53,0,0,-0,0.84,3561,0,82,39,58,1009,0.0,313,465,60,120.0,0,1,152,233,31,0,0,23,250,250,0,882.05,,,,,,,,,,,,
32044,1563730084456,8,2.29,0.84,0.61,1.12,0.95,0.84,-0.02,0.53,0,-1,-0,0.84,3515,0,82,39,58,1006,0.0,303,464,60,122.0,0,1,150,232,31,0,0,23,250,250,0,414.87,45.747807,4.906547,0.0,195.1,0,0.0,-1,0.0,0.0,0,0.0,0.5341
32064,1563730084476,8,2.28,0.84,0.62,1.12,0.97,0.85,0.0,0.47,0,1,-0,0.85,3482,0,82,39,59,1005,0.0,302,471,60,123.0,0,1,150,236,31,0,0,23,250,250,0,414.87,,,,,,,,,,,,
32084,1563730084496,8,2.28,0.85,0.63,1.14,0.97,0.84,-0.01,0.51,0,1,-0,0.84,3447,0,82,39,60,1004,0.0,298,467,60,120.0,0,1,150,240,31,0,0,23,250,250,0,882.05,,,,,,,,,,,,
32104,1563730084516,8,2.29,0.85,0.63,1.14,0.98,0.83,-0.03,0.54,0,-2,0,0.83,3402,0,82,39,60,1002,0.0,300,468,60,122.0,0,1,150,240,31,0,0,23,250,250,0,414.87,,,,,,,,,,,,
32124,1563730084536,7,2.28,0.84,0.64,1.14,0.98,0.86,0.0,0.51,0,-2,-0,0.86,3318,0,82,39,61,1001,0.0,290,473,60,123.0,0,1,150,244,31,0,0,23,250,250,0,414.87,,,,,,,,,,,,
32144,1563730084556,6,2.28,0.85,0.64,1.15,0.98,0.86,0.01,0.46,0,-0,-0,0.86,3229,0,82,39,61,1000,0.0,283,470,60,123.0,0,1,150,244,31,0,0,23,250,250,0,414.87,45.747807,4.906547,0.0,195.1,0,0.0,-1,0.0,0.0,0,0.0,0.5357
32164,1563730084576,8,2.28,0.85,0.63,1.16,0.98,0.86,0.02,0.39,0,4,-1,0.86,3170,0,82,39,62,998,0.0,280,466,60,122.0,0,1,154,246,29,0,0,23,250,250,0,414.87,,,,,,,,,,,,
32184,1563730084598,7,2.28,0.85,0.63,1.15,0.98,0.86,0.02,0.34,0,8,-1,0.86,3102,0,82,39,63,996,0.0,272,460,60,123.0,0,1,158,249,29,0,0,23,250,250,0,414.87,,,,,,,,,,,,
32204,1563730084618,7,2.28,0.85,0.64,1.15,0.98,0.83,0.03,0.31,0,12,-1,0.83,3043,0,82,39,63,994,0.0,271,468,60,122.0,0,1,158,252,29,0,0,23,250,250,0,414.87,,,,,,,,,,,,
32224,1563730084638,6,2.28,0.85,0.64,1.15,0.99,0.81,0.03,0.29,0,15,-1,0.81,2954,0,82,40,64,993,0.0,265,470,60,122.0,0,1,162,250,29,0,0,23,250,250,0,414.87,,,,,,,,,,,,
32244,1563730084658,7,2.28,0.85,0.64,1.16,1.0,0.8,0.04,0.25,0,19,-2,0.81,2878,0,82,40,65,991,0.0,257,470,60,122.0,0,1,164,253,29,0,0,23,250,250,0,414.87,45.747807,4.906547,0.0,195.1,0,0.0,-1,0.0,0.0,0,0.0,0.5374
32264,1563730084678,8,2.28,0.85,0.65,1.16,0.99,0.82,0.05,0.21,1,23,-2,0.82,2853,0,82,40,65,988,0.0,259,469,60,123.0,0,1,163,253,27,0,0,23,250,250,0,414.87,,,,,,,,,,,,
32284,1563730084696,7,2.29,0.85,0.64,1.16,1.0,0.89,0.06,0.14,1,22,-2,0.89,2803,0,82,40,66,985,0.0,253,470,60,123.0,0,1,0,256,27,0,0,23,250,250,0,414.87,,,,,,,,,,,,
32304,1563730084716,7,2.28,0.85,0.65,1.17,1.0,0.93,0.05,0.16,1,19,-2,0.93,2696,0,82,40,66,984,0.0,251,465,60,120.0,0,1,162,256,27,0,0,23,250,250,0,414.87,,,,,,,,,,,,
32324,1563730084736,7,2.28,0.86,0.65,1.17,1.0,0.9,0.03,0.19,0,14,-1,0.9,2627,0,82,40,67,982,0.0,244,467,60,121.0,0,1,162,259,27,0,0,23,250,250,0,882.05,,,,,,,,,,,,
32344,1563730084756,10,2.28,0.85,0.65,1.17,1.01,0.85,0.02,0.27,0,13,-1,0.85,2634,0,82,40,68,982,0.0,239,465,60,123.0,0,1,165,262,27,0,0,23,250,250,0,414.87,45.747807,4.906547,0.0,195.1,0,0.0,-1,0.0,0.0,0,0.0,0.5391
32364,1563730084776,8,2.28,0.86,0.65,1.18,1.0,0.85,0.04,0.32,0,12,-2,0.85,2571,0,82,40,69,983,0.0,237,470,60,122.0,0,1,160,261,25,0,0,23,250,250,0,414.87,,,,,,,,,,,,
32384,1563730084798,6,2.28,0.85,0.65,1.17,1.01,0.87,0.01,0.3,0,11,-1,0.87,2463,0,81,40,70,985,0.0,237,467,60,120.0,0,1,155,261,25,0,0,0,250,250,0,882.05,,,,,,,,,,,,
32404,1563730084818,10,2.27,0.85,0.65,1.18,1.01,0.84,0.01,0.33,0,11,-1,0.84,2413,0,82,40,71,988,0.0,227,468,60,123.0,0,1,153,258,25,0,0,0,250,250,0,414.87,,,,,,,,,,,,
32424,1563730084838,8,2.28,0.86,0.66,1.17,1.01,0.87,0.02,0.36,0,9,-1,0.87,2380,0,81,40,72,994,0.0,225,468,60,123.0,0,1,150,256,25,0,0,0,250,250,0,414.87,,,,,,,,,,,,
32444,1563730084858,9,2.28,0.86,0.66,1.17,1.02,0.87,0.01,0.35,0,8,-1,0.87,2373,0,82,40,73,1000,0.0,226,466,60,122.0,0,1,148,255,25,0,0,0,250,250,0,414.87,45.747807,4.906547,0.0,195.1,0,0.0,-1,0.0,0.0,0,0.0,0.5407
32464,1563730084878,8,2.28,0.86,0.66,1.18,1.02,0.88,0.01,0.38,0,6,-1,0.88,2296,0,81,40,74,1004,0.0,221,470,60,123.0,0,1,145,253,22,0,0,0,250,250,0,414.87,,,,,,,,,,,,
32484,1563730084897,10,2.28,0.87,0.66,1.18,1.02,0.86,0.01,0.42,0,6,-1,0.86,2220,0,81,40,75,1008,0.0,214,465,60,122.0,0,1,143,252,22,0,0,0,250,250,0,181.28,,,,,,,,,,,,
32504,1563730084917,7,2.28,0.86,0.66,1.18,1.02,0.87,0.0,0.41,0,5,-1,0.87,2061,0,81,40,75,1012,0.0,214,465,60,120.0,0,1,143,252,22,0,0,0,250,250,0,414.87,,,,,,,,,,,,
32524,1563730084937,8,2.28,0.87,0.66,1.19,1.01,0.87,0.01,0.44,0,4,-1,0.87,2031,0,81,40,78,1017,0.0,204,467,60,123.0,0,1,138,252,22,0,0,0,250,250,0,414.87,,,,,,,,,,,,
32544,1563730084957,6,2.29,0.86,0.66,1.19,1.02,0.86,-0.0,0.47,0,4,-1,0.86,2016,0,81,40,78,1019,0.0,202,468,60,123.0,0,1,138,252,22,0,0,0,250,250,0,414.87,45.747807,4.906547,0.0,195.1,0,0.0,-1,0.0,0.0,0,0.0,0.5424
32564,1563730084977,10,2.27,0.87,0.66,1.19,1.01,0.85,-0.01,0.47,0,3,-0,0.85,1883,0,81,40,79,1020,0.0,201,462,60,121.0,0,1,136,254,18,0,0,0,250,250,0,414.87,,,,,,,,,,,,
32584,1563730084997,8,2.27,0.87,0.66,1.19,1.02,0.85,-0.01,0.47,0,3,-0,0.85,1800,0,81,40,80,1021,0.0,193,472,60,123.0,0,1,135,255,18,0,0,0,250,250,0,414.87,,,,,,,,,,,,
32604,1563730085009,8,2.28,0.86,0.66,1.18,1.02,0.86,-0.01,0.46,0,2,0,0.86,1731,0,81,40,82,1022,0.0,186,467,60,123.0,0,1,132,258,18,0,0,0,250,250,0,414.87,,,,,,,,,,,,
32624,1563730085029,7,2.28,0.87,0.66,1.19,1.02,0.86,-0.01,0.47,0,1,-1,0.86,1720,0,81,40,83,1022,0.0,184,466,60,123.0,0,1,130,260,18,0,0,0,250,250,0,414.87,,,,,,,,,,,,
32644,1563730085049,6,2.29,0.87,0.66,1.18,1.02,0.85,-0.01,0.47,0,2,-1,0.85,1710,0,81,40,84,1022,0.0,185,469,60,122.0,0,1,0,261,18,0,0,0,250,250,0,414.87,45.747807,4.906547,0.0,195.1,0,0.0,-1,0.0,0.0,0,0.0,0.5441
32664,1563730085069,8,2.28,0.87,0.67,1.18,1.02,0.84,-0.02,0.49,0,2,-1,0.84,1733,0,81,40,84,1021,0.0,184,469,60,122.0,0,1,0,261,17,0,0,0,250,250,0,181.28,,,,,,,,,,,,
32684,1563730085097,7,2.29,0.87,0.66,1.19,1.01,0.83,-0.02,0.53,0,2,-1,0.83,1658,0,81,40,84,1020,0.0,181,465,60,123.0,0,1,130,261,17,0,0,0,250,250,0,414.87,,,,,,,,,,,,
32704,1563730085117,8,2.28,0.87,0.66,1.19,1.01,0.82,-0.02,0.56,0,2,-1,0.83,1533,0,81,40,86,1018,0.0,175,466,60,122.0,0,1,130,263,17,0,0,0,250,250,0,181.28,,,,,,,,,,,,
32724,1563730085137,6,2.28,0.86,0.66,1.18,1.0,0.84,-0.03,0.59,0,2,-1,0.84,1409,14,81,40,88,1017,0.0,170,467,60,123.0,0,1,122,193,17,0,0,0,250,250,0,414.87,,,,,,,,,,,,
32744,1563730085157,8,2.28,0.86,0.65,1.18,1.0,0.86,-0.03,0.61,0,2,-1,0.86,1375,19,81,40,90,1017,0.0,169,469,60,122.0,0,1,120,195,17,0,0,0,250,250,0,414.87,45.747807,4.906547,0.0,195.1,0,0.0,-1,0.0,0.0,0,0.0,0.5457
32764,1563730085177,6,2.28,0.86,0.65,1.17,1.01,0.88,-0.03,0.63,0,0,-1,0.88,1460,23,81,40,92,1018,0.0,170,472,60,123.0,0,1,153,474,24,0,0,0,250,250,0,414.87,,,,,,,,,,,,
32784,1563730085197,6,2.27,0.86,0.65,1.16,1.0,0.9,-0.03,0.63,0,-1,-2,0.9,1475,26,81,40,93,1019,0.0,171,467,60,122.0,0,1,169,503,24,0,0,0,250,250,0,414.87,,,,,,,,,,,,
32804,1563730085217,7,2.29,0.85,0.65,1.17,1.0,0.91,-0.03,0.63,0,-2,-2,0.91,1457,29,81,40,95,1020,0.0,171,468,60,122.0,0,1,194,231,24,0,0,0,250,250,0,414.87,,,,,,,,,,,,
32824,1563730085237,7,2.27,0.85,0.65,1.17,0.99,0.9,-0.03,0.64,0,-4,-3,0.9,1414,32,81,40,96,1023,0.0,167,471,60,122.0,0,1,205,239,24,0,0,0,250,250,0,414.87,,,,,,,,,,,,
32844,1563730085257,7,2.28,0.85,0.64,1.17,0.99,0.89,-0.03,0.64,-0,-6,-3,0.89,1417,34,81,40,97,1026,0.0,169,463,60,122.0,0,1,219,530,24,0,0,0,250,250,0,414.87,45.747807,4.906547,0.0,195.1,0,0.0,-1,0.0,0.0,0,0.0,0.5474
32864,1563730085277,6,2.28,0.84,0.64,1.16,0.98,0.88,-0.02,0.67,-0,-7,-4,0.88,1534,34,81,40,97,1029,0.0,171,462,60,122.0,0,1,226,530,29,0,0,0,250,250,0,414.87,,,,,,,,,,,,
32884,1563730085297,10,2.28,0.84,0.63,1.15,0.96,0.85,-0.03,0.68,-0,-7,-4,0.85,1677,34,81,40,96,1031,0.0,182,465,60,122.0,0,1,212,531,29,0,0,0,250,250,0,414.87,,,,,,,,,,,,
32904,1563730085317,6,2.28,0.83,0.61,1.13,0.96,0.85,-0.02,0.65,-0,-7,-4,0.85,2034,34,80,40,96,1033,0.0,194,468,60,121.0,0,1,212,522,29,0,0,0,250,250,0,414.87,,,,,,,,,,,,
32924,1563730085337,7,2.28,0.83,0.62,1.13,0.95,0.82,-0.02,0.63,-0,-6,-4,0.82,2080,34,81,40,96,1037,0.0,197,472,60,123.0,0,1,212,249,29,0,0,0,250,250,0,414.87,,,,,,,,,,,,
32944,1563730085357,6,2.28,0.83,0.62,1.13,0.94,0.83,-0.01,0.6,0,-6,-4,0.83,2232,34,80,40,95,1040,0.0,210,466,60,122.0,0,1,198,243,29,0,0,0,250,250,0,414.87,45.747807,4.906547,0.0,195.1,0,0.0,-1,0.0,0.0,0,0.0,0.5491
32964,1563730085377,8,2.28,0.83,0.62,1.13,0.94,0.79,-0.03,0.57,-0,-5,-2,0.79,2384,34,81,40,95,1042,0.0,214,466,60,123.0,0,1,198,500,45,0,0,0,250,250,0,414.87,,,,,,,,,,,,
32984,1563730085397,11,2.28,0.83,0.61,1.12,0.93,0.76,0.01,0.58,0,-2,-4,0.76,2625,34,80,40,94,1044,0.0,227,473,60,123.0,0,1,191,544,45,0,0,0,250,250,0,414.87,,,,,,,,,,,,
33004,1563730085417,10,2.28,0.82,0.61,1.11,0.94,0.81,0.01,0.51,0,1,-4,0.81,2849,34,80,40,93,1046,0.0,241,471,60,122.0,0,1,192,602,45,0,0,0,250,250,0,414.87,,,,,,,,,,,,
33024,1563730085437,8,2.27,0.81,0.59,1.1,0.91,0.86,0.03,0.43,0,4,-4,0.86,3008,34,80,40,92,1048,0.0,254,474,60,123.0,0,1,195,312,45,0,0,0,250,250,0,414.87,,,,,,,,,,,,
33044,1563730085457,8,2.28,0.81,0.58,1.09,0.9,0.87,0.03,0.36,0,9,-5,0.87,3223,34,80,40,91,1048,0.0,266,471,60,123.0,0,1,187,288,45,0,0,0,250,250,0,414.87,45.747807,4.906547,0.0,195.1,0,0.0,-1,0.0,0.0,0,0.0,0.5507
33064,1563730085477,10,2.28,0.8,0.58,1.08,0.9,0.89,0.02,0.41,0,7,-4,0.89,3633,34,80,40,89,1046,0.0,291,460,60,122.0,0,1,185,532,62,0,0,0,250,250,0,648.46,,,,,,,,,,,,
33084,1563730085497,8,2.29,0.81,0.58,1.08,0.89,0.85,0.02,0.35,0,9,-4,0.85,3879,34,80,40,88,1039,0.0,312,470,60,123.0,0,1,196,577,62,0,0,0,250,250,0,414.87,,,,,,,,,,,,
33104,1563730085517,7,2.29,0.81,0.58,1.07,0.89,0.87,0.04,0.34,0,9,-4,0.87,4121,34,80,40,87,1031,0.0,341,468,60,122.0,0,1,212,591,62,0,0,0,250,250,0,414.87,,,,,,,,,,,,
33124,1563730085537,8,2.28,0.8,0.57,1.07,0.88,0.89,0.05,0.32,0,9,-4,0.89,4374,34,80,40,86,1023,0.0,356,463,60,120.0,0,1,233,595,62,0,0,0,250,250,0,414.87,,,,,,,,,,,,
33144,1563730085557,9,2.28,0.8,0.57,1.07,0.89,0.89,0.06,0.32,0,8,-3,0.9,4559,30,80,40,85,1017,0.0,376,460,60,120.0,0,1,247,585,62,0,0,0,250,250,0,414.87,45.747807,4.906547,0.0,195.1,0,0.0,-1,0.0,0.0,0,0.0,0.5524
33164,1563730085577,9,2.29,0.8,0.58,1.06,0.89,0.89,0.04,0.37,0,8,-3,0.89,4783,26,80,40,84,1019,0.0,392,463,60,121.0,0,1,262,587,103,0,0,102,250,250,0,414.87,,,,,,,,,,,,
33184,1563730085597,8,2.28,0.81,0.57,1.08,0.89,0.81,0.02,0.45,0,7,-3,0.81,4994,22,80,40,82,1020,0.0,411,475,60,122.0,0,1,274,558,103,0,0,102,250,250,0,648.46,,,,,,,,,,,,
33204,1563730085617,10,2.29,0.81,0.57,1.08,0.89,0.87,0.06,0.39,-0,6,-3,0.87,5231,18,80,40,79,1030,0.0,438,458,60,121.0,0,1,291,516,103,0,0,102,250,250,0,414.87,,,,,,,,,,,,
33224,1563730085637,9,2.28,0.8,0.57,1.08,0.88,0.79,0.05,0.42,0,5,-3,0.79,5380,15,80,40,76,1039,0.0,456,469,60,122.0,0,1,302,451,103,0,0,102,250,250,0,414.87,,,,,,,,,,,,
33244,1563730085657,8,2.29,0.8,0.57,1.07,0.89,0.82,-0.01,0.48,0,3,-3,0.82,5580,12,80,40,72,1042,0.0,467,463,60,122.0,0,1,320,406,103,0,0,102,250,250,0,414.87,45.747807,4.906547,0.0,195.1,0,0.0,-1,0.0,0.0,0,0.0,0.5541
33264,1563730085677,7,2.28,0.81,0.57,1.06,0.89,0.89,-0.0,0.5,-1,1,-3,0.89,5841,11,80,40,67,1045,0.0,491,465,60,122.0,0,1,347,337,80,0,0,102,250,250,0,414.87,,,,,,,,,,,,
33284,1563730085697,6,2.29,0.8,0.57,1.07,0.88,0.99,0.03,0.52,-1,-2,-2,0.99,6032,10,80,40,64,1037,0.0,508,467,60,122.0,0,1,373,268,80,0,0,102,250,250,0,414.87,,,,,,,,,,,,
33304,1563730085717,9,2.29,0.8,0.57,1.07,0.88,1.05,0.06,0.57,-2,-5,-2,1.05,6192,9,80,40,60,1030,0.0,526,469,60,121.0,0,1,388,251,80,0,0,102,250,250,0,414.87,,,,,,,,,,,,
33324,1563730085737,11,2.29,0.8,0.57,1.07,0.88,1.0,0.03,0.63,-1,-4,-2,1.01,6321,9,80,40,57,990,0.0,534,466,60,122.0,0,1,388,254,80,0,0,181,250,250,0,414.87,,,,,,,,,,,,
33344,1563730085757,7,2.28,0.81,0.57,1.06,0.88,0.96,0.06,0.5,-1,-2,-2,0.97,6485,8,80,40,55,951,0.0,546,471,60,122.0,0,1,388,254,80,0,0,1037,250,250,0,882.05,45.747807,4.906547,0.0,195.1,0,0.0,-1,0.0,0.0,0,0.0,0.5557
33364,1563730085777,9,2.29,0.8,0.57,1.06,0.88,0.99,0.07,0.49,-1,-3,-2,0.99,6533,8,80,40,52,915,0.0,563,470,60,121.0,0,1,380,247,62,0,0,70,250,250,0,414.87,,,,,,,,,,,,
33384,1563730085797,8,2.28,0.8,0.57,1.06,0.87,0.91,0.03,0.55,-1,-3,-2,0.91,6590,8,80,40,50,882,0.0,563,464,60,122.0,0,1,374,231,62,0,0,1332,250,250,0,414.87,,,,,,,,,,,,
33404,1563730085817,8,2.28,0.79,0.56,1.05,0.88,0.93,0.04,0.48,-1,-5,-2,0.93,6572,8,80,40,48,841,0.0,562,472,60,122.0,0,1,368,221,62,0,0,74,250,250,0,648.46,,,,,,,,,,,,
33424,1563730085837,10,2.28,0.79,0.56,1.05,0.87,0.94,0.03,0.57,-1,-4,-2,0.94,6567,8,80,40,46,798,0.0,564,471,60,122.0,0,1,358,216,62,0,0,74,250,250,0,414.87,,,,,,,,,,,,
33444,1563730085857,6,2.27,0.79,0.56,1.05,0.87,0.92,0.01,0.57,-0,-1,-2,0.92,6611,8,80,40,45,780,0.0,562,466,60,123.0,0,1,352,213,62,0,0,105,250,250,0,648.46,45.747807,4.906547,0.0,195.1,0,0.0,-1,0.0,0.0,0,0.0,0.5574
33464,1563730085877,7,2.29,0.79,0.56,1.04,0.86,1.02,0.07,0.54,-1,-2,-1,1.03,6481,8,80,40,44,769,0.0,561,471,60,120.0,0,1,343,211,52,0,0,105,250,250,0,414.87,,,,,,,,,,,,
33484,1563730085896,10,2.28,0.79,0.55,1.05,0.87,0.99,-0.0,0.62,-1,-1,-1,0.99,6416,8,80,40,43,762,0.0,555,466,60,123.0,0,1,337,210,52,0,0,556,250,250,0,414.87,,,,,,,,,,,,
33504,1563730085916,10,2.28,0.79,0.56,1.06,0.87,0.88,-0.02,0.65,0,2,-1,0.88,6360,8,80,40,42,757,0.0,541,468,60,123.0,0,1,329,208,52,0,0,485,250,250,0,648.46,,,,,,,,,,,,
33524,1563730085936,7,2.27,0.8,0.56,1.05,0.87,0.88,0.01,0.52,0,2,-1,0.88,6343,8,80,40,42,758,0.0,542,472,60,121.0,0,1,329,208,52,0,0,323,250,250,0,882.05,,,,,,,,,,,,
33544,1563730085956,7,2.27,0.8,0.56,1.05,0.87,0.96,0.01,0.48,-0,1,-0,0.96,6304,8,80,40,42,762,0.0,541,473,60,120.0,0,1,329,206,52,0,0,126,250,250,0,414.87,45.747807,4.906547,0.0,195.1,0,0.0,-1,0.0,0.0,0,0.0,0.5591
33564,1563730085976,7,2.28,0.8,0.56,1.05,0.87,1.01,0.03,0.52,-1,-1,0,1.01,6237,8,80,40,41,768,0.0,538,468,60,122.0,0,1,323,206,49,0,0,1051,250,250,0,414.87,,,,,,,,,,,,
33584,1563730085996,9,2.28,0.79,0.56,1.04,0.87,1.01,0.02,0.56,-1,-2,0,1.01,6208,8,80,40,41,774,0.0,534,466,60,122.0,0,1,323,206,49,0,0,380,250,250,0,414.87,,,,,,,,,,,,
33604,1563730086010,9,2.27,0.79,0.56,1.05,0.86,0.99,-0.02,0.62,-1,-4,0,0.99,6137,8,80,40,41,780,0.0,530,466,60,122.0,0,1,322,206,49,0,0,380,250,250,0,414.87,,,,,,,,,,,,
33624,1563730086030,9,2.28,0.8,0.56,1.04,0.87,0.95,-0.06,0.69,-0,-4,-0,0.95,6030,8,80,40,41,783,0.0,521,467,60,123.0,0,1,322,206,49,0,0,53,250,250,0,414.87,,,,,,,,,,,,
33644,1563730086050,9,2.28,0.79,0.55,1.05,0.86,0.91,-0.1,0.73,-0,-5,-1,0.92,5978,8,80,40,41,787,0.0,528,465,60,122.0,0,1,320,205,49,0,0,53,250,250,0,414.87,45.747807,4.906547,0.0,195.1,0,0.0,-1,0.0,0.0,0,0.0,0.5607
33664,1563730086070,6,2.29,0.79,0.56,1.05,0.86,0.94,-0.09,0.72,-0,-7,-2,0.94,5875,8,80,40,41,792,0.0,517,468,60,123.0,0,1,313,205,46,0,0,20543,250,250,0,414.87,,,,,,,,,,,,
33684,1563730086098,7,2.29,0.8,0.55,1.05,0.86,1.04,-0.05,0.69,-1,-8,-1,1.04,5740,8,80,40,41,796,0.0,511,467,60,122.0,0,1,304,206,46,0,0,20543,250,250,0,414.87,,,,,,,,,,,,
33704,1563730086118,10,2.27,0.8,0.55,1.05,0.86,1.1,0.03,0.58,-1,-7,-1,1.1,5642,8,80,40,42,798,0.0,494,475,60,122.0,0,1,302,206,46,0,0,71,250,250,0,882.05,,,,,,,,,,,,
33724,1563730086138,9,2.29,0.79,0.55,1.04,0.85,0.97,-0.01,0.59,-0,-5,-1,0.97,5527,8,80,40,43,799,0.0,490,472,60,122.0,0,1,299,205,46,0,0,249,250,250,0,648.46,,,,,,,,,,,,
33744,1563730086158,7,2.28,0.79,0.56,1.04,0.86,0.96,-0.01,0.58,-1,-4,-1,0.96,5381,8,80,40,43,798,0.0,488,471,60,122.0,0,1,288,207,46,0,0,798,250,250,0,414.87,45.747807,4.906547,0.0,195.1,0,0.0,-1,0.0,0.0,0,0.0,0.5624
33764,1563730086178,8,2.29,0.8,0.55,1.05,0.86,0.99,0.03,0.53,-1,-3,0,0.99,5310,8,80,40,45,796,0.0,471,476,60,121.0,0,1,286,210,42,0,0,798,250,250,0,882.05,,,,,,,,,,,,
33784,1563730086198,7,2.29,0.79,0.56,1.04,0.86,0.98,0.0,0.5,-0,-2,0,0.98,5186,8,80,40,45,793,0.0,454,462,60,123.0,0,1,279,210,42,0,0,85,250,250,0,414.87,,,,,,,,,,,,
33804,1563730086218,8,2.28,0.79,0.55,1.04,0.86,0.91,0.02,0.57,-0,-3,0,0.91,5136,8,80,40,46,792,0.0,451,469,60,122.0,0,1,279,212,42,0,0,1595,250,250,0,648.46,,,,,,,,,,,,
33824,1563730086238,8,2.29,0.79,0.55,1.04,0.85,0.94,0.0,0.53,-0,-2,1,0.94,4984,8,80,40,47,794,0.0,442,468,60,121.0,0,1,268,213,42,0,0,454,250,250,0,882.05,,,,,,,,,,,,
33844,1563730086258,11,2.28,0.79,0.55,1.04,0.86,0.95,-0.06,0.5,-0,-2,1,0.96,4901,8,80,40,49,796,0.0,428,468,60,123.0,0,1,267,215,42,0,0,454,250,250,0,414.87,45.747807,4.906547,0.0,195.1,0,0.0,-1,0.0,0.0,0,0.0,0.5641
33864,1563730086278,8,2.28,0.79,0.55,1.04,0.86,0.86,-0.08,0.58,-0,-2,-1,0.87,4808,8,80,40,50,800,0.0,421,467,60,123.0,0,1,260,216,39,0,0,454,250,250,0,414.87,,,,,,,,,,,,
33884,1563730086298,7,2.28,0.79,0.55,1.04,0.85,0.87,-0.07,0.54,-0,-2,-1,0.87,4731,8,80,40,50,808,0.0,411,471,60,122.0,0,1,251,217,39,0,0,454,250,250,0,648.46,,,,,,,,,,,,
33904,1563730086318,8,2.28,0.79,0.55,1.04,0.85,0.9,-0.06,0.48,-0,-2,-0,0.91,4660,8,80,40,51,822,0.0,405,467,60,122.0,0,1,246,220,39,0,0,37,250,250,0,882.05,,,,,,,,,,,,
33924,1563730086338,6,2.28,0.79,0.55,1.03,0.86,0.93,-0.05,0.42,-0,-4,1,0.93,4597,8,80,40,52,837,0.0,399,466,60,122.0,0,1,239,222,39,0,0,82,250,250,0,882.05,,,,,,,,,,,,
33944,1563730086358,7,2.28,0.79,0.54,1.04,0.85,0.97,-0.01,0.38,0,-4,2,0.97,4537,8,80,40,53,848,0.0,388,465,60,122.0,0,1,235,221,39,0,0,82,250,250,0,882.05,45.747807,4.906547,0.0,195.1,0,0.0,-1,0.0,0.0,0,0.0,0.5657
33964,1563730086378,6,2.29,0.79,0.55,1.03,0.86,0.99,0.01,0.39,0,-5,3,0.99,4492,8,80,40,53,860,0.0,397,467,60,121.0,0,1,226,224,37,0,0,82,250,250,0,882.05,,,,,,,,,,,,
33984,1563730086398,6,2.29,0.79,0.55,1.03,0.86,0.98,0.01,0.43,0,-6,4,0.98,4448,8,80,40,53,877,0.0,384,469,60,121.0,0,1,223,224,37,0,0,49,250,250,0,882.05,,,,,,,,,,,,
34004,1563730086418,7,2.28,0.79,0.55,1.03,0.86,0.97,0.01,0.45,0,-7,4,0.97,4364,8,80,40,54,894,0.0,377,470,60,122.0,0,1,217,223,37,0,0,49,250,250,0,882.05,,,,,,,,,,,,
34024,1563730086438,7,2.29,0.79,0.55,1.04,0.84,0.94,0.0,0.44,0,-7,4,0.94,4337,8,80,39,54,900,0.0,373,469,60,123.0,0,1,214,224,37,0,0,49,250,250,0,648.46,,,,,,,,,,,,
34044,1563730086458,10,2.27,0.79,0.55,1.03,0.84,0.91,-0.02,0.43,0,-5,2,0.91,4334,8,80,39,54,905,0.0,372,471,60,123.0,0,1,213,228,37,0,0,49,250,250,0,414.87,45.747807,4.906547,0.0,195.1,0,0.0,-1,0.0,0.0,0,0.0,0.5674
34064,1563730086478,8,2.29,0.79,0.54,1.03,0.85,0.88,-0.01,0.42,0,-2,2,0.88,4281,8,80,40,54,907,0.0,369,471,60,123.0,0,1,206,225,36,0,0,49,250,250,0,414.87,,,,,,,,,,,,
34084,1563730086498,6,2.28,0.79,0.54,1.03,0.85,0.89,-0.03,0.44,0,-1,1,0.89,4305,8,80,40,54,908,0.0,366,469,60,123.0,0,1,209,226,36,0,0,49,250,250,0,414.87,,,,,,,,,,,,
34104,1563730086518,8,2.27,0.79,0.54,1.04,0.84,0.89,-0.01,0.45,0,-1,1,0.89,4283,8,80,40,55,904,0.0,379,464,60,122.0,0,1,207,225,36,0,0,49,250,250,0,181.28,,,,,,,,,,,,
34124,1563730086538,7,2.29,0.79,0.55,1.03,0.84,0.91,-0.01,0.49,0,-3,2,0.91,4280,8,80,40,55,899,0.0,366,466,60,120.0,0,1,206,229,36,0,0,49,250,250,0,648.46,,,,,,,,,,,,
34144,1563730086558,6,2.27,0.79,0.55,1.03,0.85,0.92,-0.02,0.53,0,-4,2,0.92,4291,8,80,40,56,894,0.0,364,466,60,123.0,0,1,205,234,36,0,0,49,250,250,0,648.46,45.747807,4.906547,0.0,195.1,0,0.0,-1,0.0,0.0,0,0.0,0.5691
34164,1563730086578,9,2.29,0.79,0.55,1.03,0.85,0.89,-0.02,0.53,0,-4,2,0.89,4272,8,80,40,56,888,0.0,365,469,60,123.0,0,1,204,234,38,0,0,49,250,250,0,648.46,,,,,,,,,,,,
34184,1563730086598,10,2.27,0.79,0.55,1.04,0.84,0.85,-0.03,0.49,0,-2,1,0.85,4275,8,80,40,56,887,0.0,365,472,60,123.0,0,1,205,234,38,0,0,49,250,250,0,414.87,,,,,,,,,,,,
34204,1563730086618,6,2.29,0.79,0.55,1.03,0.84,0.84,-0.02,0.46,0,0,0,0.84,4253,8,80,40,56,886,0.0,364,469,60,123.0,0,1,202,234,38,0,0,49,250,250,0,414.87,,,,,,,,,,,,
34224,1563730086638,7,2.27,0.79,0.54,1.03,0.85,0.87,-0.03,0.46,0,1,-0,0.87,4263,8,80,40,56,883,0.0,366,467,60,122.0,0,1,203,234,38,0,0,49,250,250,0,414.87,,,,,,,,,,,,
34244,1563730086658,6,2.29,0.79,0.54,1.03,0.85,0.88,-0.02,0.48,0,-0,0,0.88,4245,8,80,40,56,881,0.0,371,468,60,121.0,0,1,201,239,38,0,0,49,250,250,0,414.87,45.747807,4.906547,0.0,195.1,0,0.0,-1,0.0,0.0,0,0.0,0.5707
34264,1563730086678,7,2.28,0.79,0.55,1.03,0.84,0.9,-0.03,0.53,0,-2,1,0.9,4263,8,80,40,57,879,0.0,362,466,60,121.0,0,1,203,239,37,0,0,49,250,250,0,882.05,,,,,,,,,,,,
34284,1563730086698,6,2.29,0.79,0.55,1.04,0.84,0.9,-0.05,0.54,0,-3,2,0.9,4274,8,80,40,57,878,0.0,366,468,60,122.0,0,1,204,239,37,0,0,49,250,250,0,414.87,,,,,,,,,,,,
34304,1563730086718,11,2.28,0.79,0.55,1.04,0.85,0.87,-0.05,0.54,0,-3,1,0.87,4275,8,80,40,57,881,0.0,362,468,60,123.0,0,1,204,239,37,0,0,49,250,250,0,414.87,,,,,,,,,,,,
34324,1563730086738,9,2.28,0.79,0.54,1.04,0.84,0.84,-0.04,0.51,0,-1,-0,0.84,4284,8,80,40,57,884,0.0,365,472,60,123.0,0,1,205,239,37,0,0,49,250,250,0,414.87,,,,,,,,,,,,
34344,1563730086758,8,2.27,0.79,0.54,1.04,0.85,0.83,-0.04,0.51,0,1,-1,0.83,4311,8,80,40,57,888,0.0,362,469,60,123.0,0,1,208,240,37,0,0,49,250,250,0,414.87,45.747807,4.906547,0.0,195.1,0,0.0,-1,0.0,0.0,0,0.0,0.5724
34364,1563730086778,7,2.28,0.78,0.54,1.04,0.85,0.84,-0.02,0.5,0,2,-1,0.84,4335,8,80,40,57,892,0.0,370,466,60,122.0,0,1,211,240,39,0,0,49,250,250,0,414.87,,,,,,,,,,,,
34384,1563730086797,6,2.29,0.79,0.55,1.03,0.86,0.86,-0.01,0.49,0,1,-0,0.86,4332,8,80,40,57,899,0.0,376,466,60,121.0,0,1,211,240,39,0,0,49,250,250,0,882.05,,,,,,,,,,,,
34404,1563730086817,7,2.29,0.79,0.54,1.04,0.85,0.89,-0.0,0.5,0,-0,1,0.89,4349,8,80,40,57,908,0.0,372,465,60,120.0,0,1,212,240,39,0,0,49,250,250,0,-5.59,,,,,,,,,,,,
34424,1563730086837,6,2.29,0.79,0.54,1.03,0.85,0.9,-0.01,0.52,0,-2,2,0.9,4322,8,80,40,57,914,0.0,375,469,60,121.0,0,1,210,240,39,0,0,49,250,250,0,882.05,,,,,,,,,,,,
34444,1563730086857,7,2.29,0.79,0.54,1.03,0.85,0.91,-0.03,0.52,0,-4,2,0.91,4346,8,80,40,57,918,0.0,367,468,60,123.0,0,1,212,240,39,0,0,49,250,250,0,414.87,45.747807,4.906547,0.0,195.1,0,0.0,-1,0.0,0.0,0,0.0,0.5741
34464,1563730086877,6,2.28,0.79,0.54,1.03,0.85,0.91,-0.03,0.49,0,-3,2,0.91,4360,8,80,40,57,927,0.0,372,473,60,123.0,0,1,214,240,39,0,0,49,250,250,0,414.87,,,,,,,,,,,,
34484,1563730086897,9,2.29,0.79,0.55,1.03,0.85,0.87,-0.03,0.49,0,-1,1,0.87,4342,8,80,40,57,937,0.0,366,469,60,123.0,0,1,212,240,39,0,0,0,250,250,0,414.87,,,,,,,,,,,,
34504,1563730086917,10,2.28,0.79,0.55,1.03,0.85,0.82,-0.04,0.5,0,0,0,0.82,4388,8,80,40,57,945,0.0,376,470,60,123.0,0,1,217,240,39,0,0,0,250,250,0,414.87,,,,,,,,,,,,
34524,1563730086937,9,2.28,0.79,0.55,1.03,0.85,0.79,-0.07,0.55,-0,1,-1,0.79,4362,8,80,40,57,951,0.0,374,470,60,123.0,0,1,214,240,39,0,0,0,250,250,0,414.87,,,,,,,,,,,,
34544,1563730086957,9,2.28,0.79,0.54,1.04,0.85,0.76,-0.08,0.58,-0,1,-2,0.76,4428,8,80,40,57,959,0.0,374,469,60,122.0,0,1,222,241,39,0,0,0,250,250,0,414.87,45.747807,4.906547,0.0,195.1,0,0.0,-1,0.0,0.0,0,0.0,0.5757
34564,1563730086977,9,2.28,0.79,0.55,1.04,0.86,0.75,-0.07,0.59,-0,2,-2,0.76,4423,8,80,40,57,969,0.0,380,463,60,122.0,0,1,222,241,40,0,0,0,250,250,0,414.87,,,,,,,,,,,,
34584,1563730086997,8,2.28,0.79,0.55,1.03,0.85,0.78,-0.06,0.59,-0,3,-2,0.78,4433,8,80,40,57,976,0.0,379,466,60,122.0,0,1,223,241,40,0,0,0,250,250,0,414.87,,,,,,,,,,,,
34604,1563730087009,8,2.29,0.79,0.54,1.04,0.85,0.8,-0.07,0.59,-0,4,-3,0.8,4466,8,80,40,57,980,0.0,382,467,60,122.0,0,1,227,241,40,0,0,0,250,250,0,414.87,,,,,,,,,,,,
34624,1563730087029,8,2.29,0.79,0.54,1.04,0.85,0.82,-0.07,0.61,-0,4,-3,0.83,4473,8,80,40,57,983,0.0,384,465,60,122.0,0,1,227,241,40,0,0,0,250,250,0,414.87,,,,,,,,,,,,
34644,1563730087049,8,2.28,0.79,0.55,1.04,0.85,0.84,-0.04,0.6,-0,4,-3,0.84,4474,8,80,40,57,986,0.0,382,467,60,122.0,0,1,227,241,40,0,0,0,250,250,0,414.87,45.747807,4.906547,0.0,195.1,0,0.0,-1,0.0,0.0,0,0.0,0.5774
34664,1563730087069,8,2.29,0.79,0.55,1.04,0.85,0.85,-0.04,0.6,-0,5,-3,0.86,4474,8,80,40,57,987,0.0,388,466,60,122.0,0,1,227,241,41,0,0,0,250,250,0,414.87,,,,,,,,,,,,
34684,1563730087097,8,2.28,0.8,0.55,1.04,0.86,0.84,-0.04,0.58,-0,5,-3,0.84,4512,8,80,40,57,987,0.0,382,462,60,122.0,0,1,232,241,41,0,0,0,250,250,0,181.28,,,,,,,,,,,,
34704,1563730087117,8,2.28,0.79,0.54,1.04,0.85,0.83,-0.05,0.59,-0,5,-3,0.83,4569,8,80,40,57,985,0.0,390,465,60,122.0,0,1,238,241,41,0,0,0,250,250,0,414.87,,,,,,,,,,,,
34724,1563730087137,9,2.27,0.79,0.55,1.04,0.85,0.83,-0.04,0.59,-0,6,-3,0.83,4528,8,80,40,57,980,0.0,389,471,60,122.0,0,1,234,241,41,0,0,0,250,250,0,414.87,,,,,,,,,,,,
34744,1563730087157,8,2.28,0.79,0.55,1.03,0.85,0.85,-0.02,0.59,-0,7,-3,0.85,4572,8,80,40,57,976,0.0,390,467,60,122.0,0,1,238,241,41,0,0,0,250,250,0,414.87,45.747807,4.906547,0.0,195.1,0,0.0,-1,0.0,0.0,0,0.0,0.5791
34764,1563730087177,9,2.28,0.8,0.54,1.04,0.85,0.82,-0.04,0.62,-0,7,-4,0.82,4543,8,80,40,57,974,0.0,393,467,60,122.0,0,1,235,241,41,0,0,0,250,250,0,414.87,,,,,,,,,,,,
34784,1563730087195,9,2.28,0.79,0.55,1.03,0.86,0.79,-0.06,0.63,-0,8,-5,0.79,4562,8,80,40,57,969,0.0,387,466,60,122.0,0,1,237,241,41,0,0,0,250,250,0,414.87,,,,,,,,,,,,
34804,1563730087215,10,2.28,0.78,0.54,1.04,0.85,0.74,-0.06,0.66,-0,8,-6,0.74,4542,8,80,40,57,962,0.0,391,467,60,122.0,0,1,235,241,41,0,0,0,250,250,0,414.87,,,,,,,,,,,,
34824,1563730087235,11,2.28,0.79,0.55,1.03,0.85,0.7,-0.07,0.67,-1,8,-6,0.71,4556,8,80,40,57,956,0.0,389,470,60,123.0,0,1,236,241,41,0,0,0,250,250,0,414.87,,,,,,,,,,,,
34844,1563730087255,9,2.29,0.79,0.54,1.03,0.85,0.66,-0.09,0.72,-1,7,-7,0.66,4552,8,80,40,57,952,0.0,388,468,60,123.0,0,1,236,241,41,0,0,0,250,250,0,414.87,45.747807,4.906547,0.0,195.1,0,0.0,-1,0.0,0.0,0,0.0,0.5807
34864,1563730087275,10,2.27,0.79,0.54,1.03,0.84,0.63,-0.1,0.73,-1,8,-7,0.63,4547,8,80,40,57,947,0.0,390,472,60,123.0,0,1,236,241,41,0,0,0,250,250,0,414.87,,,,,,,,,,,,
34884,1563730087297,10,2.28,0.79,0.55,1.03,0.85,0.6,-0.1,0.71,-1,9,-7,0.61,4557,8,80,40,57,940,0.0,387,472,60,123.0,0,1,237,241,41,0,0,0,250,250,0,414.87,,,,,,,,,,,,
34904,1563730087317,8,2.27,0.79,0.54,1.03,0.85,0.59,-0.15,0.73,-1,8,-7,0.61,4528,8,80,40,57,932,0.0,397,468,60,123.0,0,1,234,241,41,0,0,0,250,250,0,414.87,,,,,,,,,,,,
34924,1563730087337,7,2.29,0.79,0.55,1.03,0.85,0.58,-0.15,0.72,-1,7,-7,0.6,4539,8,80,40,57,929,0.0,385,468,60,123.0,0,1,235,241,41,0,0,0,250,250,0,414.87,,,,,,,,,,,,
34944,1563730087357,8,2.27,0.79,0.54,1.03,0.85,0.61,-0.16,0.69,-1,7,-7,0.63,4545,8,80,40,57,925,0.0,391,473,60,123.0,0,1,235,241,41,0,0,0,250,250,0,414.87,45.747807,4.906547,0.0,195.1,0,0.0,-1,0.0,0.0,0,0.0,0.5824
34964,1563730087377,6,2.28,0.79,0.54,1.03,0.85,0.64,-0.14,0.66,-1,6,-6,0.65,4524,8,80,40,57,922,0.0,389,470,60,123.0,0,1,233,241,41,0,0,0,250,250,0,414.87,,,,,,,,,,,,
34984,1563730087397,6,2.28,0.79,0.54,1.02,0.85,0.66,-0.15,0.68,-1,4,-6,0.68,4553,8,80,40,57,919,0.0,385,471,60,123.0,0,1,236,241,41,0,0,0,250,250,0,648.46,,,,,,,,,,,,
35004,1563730087417,8,2.28,0.79,0.54,1.03,0.85,0.67,-0.18,0.68,-0,2,-5,0.69,4530,8,80,40,57,919,0.0,389,477,60,123.0,0,1,234,241,41,0,0,0,250,250,0,648.46,,,,,,,,,,,,
35024,1563730087437,7,2.28,0.79,0.54,1.04,0.84,0.7,-0.15,0.65,-0,2,-4,0.72,4523,8,80,40,57,919,0.0,386,470,60,123.0,0,1,233,241,41,0,0,0,250,250,0,648.46,,,,,,,,,,,,
35044,1563730087457,6,2.29,0.79,0.54,1.02,0.85,0.73,-0.13,0.63,-0,2,-4,0.74,4486,8,80,40,57,921,0.0,387,472,60,123.0,0,1,229,241,41,0,0,0,250,250,0,414.87,45.747807,4.906547,0.0,195.1,0,0.0,-1,0.0,0.0,0,0.0,0.5841
35064,1563730087477,7,2.28,0.79,0.55,1.03,0.85,0.76,-0.12,0.62,-0,0,-3,0.76,4501,8,80,40,57,922,0.0,387,472,60,123.0,0,1,230,241,41,0,0,0,250,250,0,648.46,,,,,,,,,,,,
35084,1563730087497,8,2.28,0.79,0.54,1.03,0.85,0.79,-0.15,0.6,-0,-1,-3,0.8,4518,8,80,40,57,923,0.0,382,468,60,122.0,0,1,232,241,41,0,0,0,250,250,0,648.46,,,,,,,,,,,,
35104,1563730087517,7,2.28,0.79,0.54,1.04,0.84,0.81,-0.13,0.56,-0,-2,-2,0.82,4525,8,80,40,57,923,0.0,390,471,60,122.0,0,1,233,241,41,0,0,0,250,250,0,648.46,,,,,,,,,,,,
35124,1563730087537,7,2.28,0.79,0.54,1.03,0.85,0.84,-0.11,0.56,-0,-3,-2,0.85,4547,8,80,40,57,921,0.0,390,467,60,122.0,0,1,236,241,41,0,0,0,250,250,0,882.05,,,,,,,,,,,,
35144,1563730087557,7,2.28,0.79,0.54,1.03,0.84,0.85,-0.09,0.56,0,-5,-1,0.86,4528,8,80,40,57,919,0.0,385,466,60,122.0,0,1,234,241,41,0,0,0,250,250,0,882.05,45.747807,4.906547,0.0,195.1,0,0.0,-1,0.0,0.0,0,0.0,0.5857
35164,1563730087577,7,2.28,0.79,0.54,1.03,0.84,0.88,-0.1,0.57,0,-6,-0,0.88,4530,8,80,40,57,916,0.0,388,473,60,123.0,0,1,234,241,40,0,0,0,250,250,0,648.46,,,,,,,,,,,,
35184,1563730087597,7,2.29,0.79,0.54,1.03,0.85,0.9,-0.07,0.54,0,-6,1,0.9,4513,8,80,40,57,913,0.0,385,465,60,122.0,0,1,230,241,40,0,0,0,250,250,0,882.05,,,,,,,,,,,,
35204,1563730087617,7,2.28,0.79,0.54,1.03,0.85,0.91,-0.06,0.52,0,-6,2,0.92,4552,8,80,40,57,911,0.0,393,467,60,122.0,0,1,236,241,40,0,0,0,250,250,0,882.05,,,,,,,,,,,,
35224,1563730087637,7,2.28,0.78,0.54,1.02,0.85,0.93,-0.03,0.47,0,-7,2,0.93,4546,8,80,40,57,908,0.0,388,470,60,123.0,0,1,235,241,40,0,0,0,250,250,0,648.46,,,,,,,,,,,,
35244,1563730087657,8,2.28,0.78,0.54,1.03,0.85,0.97,-0.02,0.44,0,-7,3,0.97,4509,8,80,40,57,908,0.0,384,470,60,122.0,0,1,234,241,40,0,0,0,250,250,0,882.05,45.747807,4.906547,0.0,195.1,0,0.0,-1,0.0,0.0,0,0.0,0.5874
35264,1563730087677,7,2.29,0.78,0.54,1.03,0.85,1.0,0.02,0.42,1,-8,3,1.0,4524,8,80,40,57,908,0.0,391,467,60,121.0,0,1,233,241,41,0,0,0,250,250,0,882.05,,,,,,,,,,,,
35284,1563730087697,6,2.29,0.79,0.54,1.03,0.84,1.01,0.03,0.43,0,-8,4,1.01,4515,8,80,40,57,909,0.0,389,467,60,120.0,0,1,232,241,41,0,0,0,250,250,0,882.05,,,,,,,,,,,,
35304,1563730087717,8,2.28,0.79,0.54,1.02,0.84,1.0,0.04,0.42,1,-9,5,1.0,4508,8,80,40,57,910,0.0,394,468,60,121.0,0,1,231,241,41,0,0,0,250,250,0,882.05,,,,,,,,,,,,
35324,1563730087737,6,2.29,0.79,0.54,1.02,0.85,1.0,0.08,0.39,1,-10,5,1.0,4509,8,80,40,57,911,0.0,383,472,60,121.0,0,1,231,241,41,0,0,0,250,250,0,882.05,,,,,,,,,,,,
35344,1563730087757,7,2.28,0.79,0.54,1.03,0.84,1.01,0.11,0.36,1,-9,6,1.02,4552,8,80,40,57,912,0.0,392,469,60,121.0,0,1,236,241,41,0,0,0,250,250,0,882.05,45.747807,4.906547,0.0,195.1,0,0.0,-1,0.0,0.0,0,0.0,0.5891
35364,1563730087777,7,2.28,0.78,0.54,1.03,0.84,1.02,0.09,0.34,1,-9,7,1.02,4582,8,80,40,57,913,0.0,400,467,60,120.0,0,1,240,241,41,0,0,0,250,250,0,414.87,,,,,,,,,,,,
35384,1563730087798,7,2.28,0.78,0.54,1.03,0.84,1.04,0.09,0.35,1,-8,7,1.05,4541,8,80,40,57,915,0.0,389,471,60,121.0,0,1,235,241,41,0,0,0,250,250,0,414.87,,,,,,,,,,,,
35404,1563730087818,7,2.29,0.79,0.53,1.03,0.84,1.05,0.12,0.31,1,-8,7,1.06,4546,8,80,40,57,917,0.0,393,470,60,121.0,0,1,235,241,41,0,0,0,250,250,0,414.87,,,,,,,,,,,,
35424,1563730087838,6,2.28,0.79,0.53,1.02,0.84,1.06,0.14,0.31,1,-7,7,1.07,4508,8,80,40,57,918,0.0,391,467,60,121.0,0,1,231,241,41,0,0,0,250,250,0,414.87,,,,,,,,,,,,
35444,1563730087858,6,2.29,0.79,0.53,1.02,0.85,1.06,0.14,0.32,1,-7,7,1.07,4563,8,80,40,57,920,0.0,398,467,60,121.0,0,1,237,241,41,0,0,0,250,250,0,414.87,45.747807,4.906547,0.0,195.1,0,0.0,-1,0.0,0.0,0,0.0,0.5907
35464,1563730087878,8,2.28,0.78,0.54,1.02,0.84,1.06,0.14,0.36,1,-6,6,1.06,4536,8,80,40,56,922,0.0,392,467,60,122.0,0,1,236,241,41,0,0,0,250,250,0,414.87,,,,,,,,,,,,
35484,1563730087898,8,2.28,0.79,0.54,1.02,0.85,1.05,0.11,0.38,1,-5,5,1.06,4572,8,80,40,57,924,0.0,388,466,60,122.0,0,1,238,241,41,0,0,0,250,250,0,414.87,,,,,,,,,,,,
35504,1563730087918,8,2.28,0.79,0.54,1.02,0.84,1.02,0.11,0.38,1,-4,5,1.03,4533,8,80,40,57,925,0.0,394,468,60,122.0,0,1,234,241,41,0,0,0,250,250,0,414.87,,,,,,,,,,,,
35524,1563730087938,9,2.28,0.78,0.54,1.03,0.84,1.03,0.08,0.4,1,-3,4,1.03,4563,8,80,40,57,926,0.0,393,467,60,121.0,0,1,237,241,41,0,0,0,250,250,0,414.87,,,,,,,,,,,,
35544,1563730087958,8,2.28,0.79,0.54,1.02,0.84,1.02,0.08,0.42,0,-1,3,1.02,4525,8,80,40,57,926,0.0,388,467,60,122.0,0,1,233,241,41,0,0,0,250,250,0,414.87,45.747807,4.906547,0.0,195.1,0,0.0,-1,0.0,0.0,0,0.0,0.5924
35564,1563730087978,9,2.28,0.79,0.53,1.03,0.84,1.03,0.08,0.46,0,-0,2,1.03,4534,8,80,40,57,926,0.0,387,468,60,121.0,0,1,234,241,41,0,0,0,250,250,0,414.87,,,,,,,,,,,,
35584,1563730087998,8,2.29,0.79,0.53,1.02,0.85,0.99,0.05,0.5,0,-0,1,0.99,4546,8,80,40,57,925,0.0,390,466,60,122.0,0,1,235,241,41,0,0,0,250,250,0,414.87,,,,,,,,,,,,
35604,1563730088010,8,2.28,0.79,0.54,1.02,0.84,0.94,0.02,0.53,0,-0,-1,0.94,4527,8,80,40,57,924,0.0,396,464,60,122.0,0,1,234,241,41,0,0,0,250,250,0,414.87,,,,,,,,,,,,
35624,1563730088030,10,2.28,0.79,0.54,1.02,0.85,0.88,0.01,0.57,-0,1,-2,0.88,4545,8,80,40,57,922,0.0,384,466,60,122.0,0,1,235,237,41,0,0,0,250,250,0,414.87,,,,,,,,,,,,
35644,1563730088050,10,2.28,0.79,0.53,1.03,0.85,0.84,0.02,0.59,-0,2,-2,0.84,4542,8,80,40,57,921,0.0,386,468,60,123.0,0,1,235,241,41,0,0,0,250,250,0,414.87,45.747807,4.906547,0.0,195.1,0,0.0,-1,0.0,0.0,0,0.0,0.5941
35664,1563730088070,10,2.28,0.79,0.54,1.02,0.84,0.79,-0.01,0.63,-0,3,-3,0.79,4554,8,80,40,57,921,0.0,389,470,60,123.0,0,1,236,241,41,0,0,0,250,250,0,414.87,,,,,,,,,,,,
