"Interval"|"ms"|0|0|1,"Utc"|"ms"|0|0|1,"FB_p"|"bar"|0|300|50,"Volant"|"F"|0.0|300.0|50,"xFR"|"mm"|0.0|5.0|50,"xRR"|"mm"|0.0|5.0|50,"xFL"|"mm"|0.0|5.0|50,"xRL"|"mm"|0.0|5.0|50,"AccelX"|"G"|-3.0|3.0|50,"AccelY"|"G"|-3.0|3.0|50,"AccelZ"|"G"|-3.0|3.0|50,"Yaw"|"Deg/Sec"|-120|120|50,"Pitch"|"Deg/Sec"|-120|120|50,"Roll"|"Deg/Sec"|-120|120|50,"Gsum"|"G"|0.0|3.0|50,"RPM"|""|0|14000|50,"TPS"|"%"|0|100|50,"WaterTemp"|"?C"|0|300|50,"AirTemp"|"?C"|-1000|1000|50,"MAP"|"KPa"|0|255|50,"Lambda"|""|0|1024|50,"WheelSpeed"|"MPH"|0.0|150.0|50,"OilPress"|"PSI"|0|150|50,"FuelPress"|"PSI"|0|150|50,"OilTemp"|"F"|0|300|50,"Battery"|"Volts"|0.0|20.0|50,"FuelCon"|"L/h"|-1000|1000|50,"Gear"|""|0|10|50,"Advance"|"Deg"|-360|360|50,"Injection"|"ms"|-1000|1000|50,"FuelCon"|"L/100km"|-1000|1000|50,"LC_But_Pres"|""|-1000|1000|50,"LC_Active"|""|-1000|1000|50,"RD_Speed"|""|-1000|1000|50,"RUD_Speed"|""|-1000|1000|50,"LD_Speed"|""|-1000|1000|50,"LUD_Speed"|""|-1000|1000|50,"Ana1"|"bar"|-1000.0|1000.0|50,"Latitude"|"Degrees"|-180.0|180.0|10,"Longitude"|"Degrees"|-180.0|180.0|10,"Speed"|"kph"|0.0|150.0|10,"Altitude"|"m"|0.0|4000.0|10,"LapCount"|""|0|0|10,"LapTime"|"Min"|0.0|0.0|10,"Sector"|""|0|0|10,"SectorTime"|"Min"|0.0|0.0|10,"ElapsedTime"|"Min"|0.0|0.0|10,"CurrentLap"|""|0|0|10,"Distance"|"km"|0.0|0.0|10,"SessionTime"|"Min"|0.0|0.0|10
110964,1563730163379,12,2.3,0.74,0.4,1.1,0.84,1.2,-0.0,0.27,-0,-9,2,1.2,9640,14,90,39,29,1089,970.0,640,465,60,118.0,72,1,287,295,70,0,0,972,771,25,966,882.05,,,,,,,,,,,,
110984,1563730163403,12,2.3,0.74,0.39,1.09,0.85,1.17,-0.07,0.29,-0,-6,2,1.17,9635,14,90,39,29,1041,960.0,640,470,60,118.0,72,1,287,270,70,0,0,974,252,2056,958,882.05,,,,,,,,,,,,
111004,1563730163423,13,2.3,0.74,0.41,1.1,0.85,1.09,-0.02,0.25,-1,-4,2,1.09,9527,14,90,39,29,1011,961.0,644,478,60,118.0,72,1,287,247,70,0,0,977,-1024,-10431,962,1115.64,,,,,,,,,,,,
111024,1563730163443,12,2.3,0.74,0.42,1.1,0.86,1.18,-0.13,0.36,-1,-5,4,1.19,9469,14,90,39,28,992,956.0,647,470,60,118.0,72,1,282,221,70,0,0,966,252,-3584,960,648.46,,,,,,,,,,,,
111044,1563730163463,12,2.3,0.74,0.42,1.1,0.86,1.25,-0.16,0.39,-1,-4,4,1.26,9328,14,90,39,29,981,963.0,655,464,60,119.0,72,1,287,200,70,0,0,966,-1018,-30724,962,882.05,45.748776,4.906673,106.35,180.2,0,0.0,-1,0.0,0.0,0,0.48,1.8507
111064,1563730163483,13,2.3,0.74,0.41,1.09,0.86,1.32,-0.06,0.32,-1,-2,3,1.33,9173,14,90,39,29,989,950.0,647,472,60,119.0,67,1,287,187,65,0,0,966,-783,6464,948,882.05,,,,,,,,,,,,
111084,1563730163501,13,2.29,0.74,0.4,1.09,0.85,1.32,-0.1,0.47,-1,-9,6,1.32,9101,14,90,39,29,999,944.0,643,473,60,120.0,67,1,287,187,65,0,0,966,-776,-14712,938,882.05,,,,,,,,,,,,
111104,1563730163521,13,2.29,0.73,0.39,1.08,0.84,1.21,-0.0,0.34,-1,-9,1,1.21,9282,14,90,39,29,1022,938.0,642,473,60,119.0,67,1,287,189,65,0,0,966,-1796,-3332,926,882.05,,,,,,,,,,,,
111124,1563730163541,12,2.3,0.73,0.4,1.09,0.85,1.22,-0.03,0.29,-0,-7,2,1.22,9333,14,90,39,30,1042,934.0,642,474,60,119.0,67,1,291,190,65,0,0,966,-773,-776,926,1115.64,,,,,,,,,,,,
111144,1563730163561,14,2.29,0.73,0.41,1.09,0.86,1.26,0.03,0.35,-1,-8,1,1.26,9422,14,90,39,29,1052,931.0,649,475,60,118.0,67,1,287,190,65,0,0,938,-772,-4869,922,648.46,45.748749,4.90667,102.62,180.2,0,0.0,-1,0.0,0.0,0,0.49,1.8524
111164,1563730163581,13,2.29,0.73,0.41,1.08,0.86,1.12,0.03,0.27,-1,-10,1,1.12,9600,14,90,39,28,1070,923.0,636,473,60,120.0,75,1,282,191,69,0,0,900,-4870,-3604,905,882.05,,,,,,,,,,,,
111184,1563730163601,12,2.3,0.73,0.4,1.09,0.86,1.14,0.05,0.31,-1,-11,-2,1.14,9786,14,90,39,28,1063,916.0,637,476,60,119.0,75,1,282,192,69,0,0,904,-4873,-14848,899,414.87,,,,,,,,,,,,
111204,1563730163621,11,2.29,0.73,0.4,1.09,0.85,1.08,0.11,0.21,-2,-9,-2,1.09,9863,14,90,39,27,1049,914.0,649,470,60,120.0,75,1,278,190,69,0,0,890,-2068,-2426,911,882.05,,,,,,,,,,,,
111224,1563730163641,12,2.29,0.73,0.4,1.09,0.85,1.09,0.2,0.09,-1,-3,-3,1.1,9873,14,90,39,27,1025,916.0,657,467,60,118.0,75,1,278,190,69,0,0,867,-1812,-2570,886,648.46,,,,,,,,,,,,
111244,1563730163661,11,2.29,0.73,0.4,1.08,0.85,1.1,0.22,0.11,-2,-2,-5,1.12,9796,14,90,39,27,986,906.0,647,473,60,119.0,75,1,278,190,69,0,0,878,-4878,13049,898,882.05,45.748722,4.906666,99.59,180.1,0,0.0,-1,0.0,0.0,0,0.49,1.8541
111264,1563730163681,11,2.32,0.73,0.4,1.09,0.85,1.13,0.28,0.03,-2,-0,-3,1.17,9745,14,90,39,28,968,907.0,654,477,60,119.0,77,1,282,192,70,0,0,903,-4879,-1578,893,414.87,,,,,,,,,,,,
111284,1563730163703,12,2.3,0.72,0.39,1.09,0.83,1.19,0.22,0.06,-2,0,-6,1.21,9755,14,90,40,28,939,899.0,650,476,60,120.0,77,1,282,191,70,0,0,901,-5120,-3348,863,882.05,,,,,,,,,,,,
111304,1563730163723,12,2.31,0.72,0.4,1.08,0.84,1.27,0.23,0.06,-2,1,-5,1.28,9765,14,90,40,29,916,893.0,662,475,60,119.0,77,1,287,193,70,0,0,898,-5120,-775,884,648.46,,,,,,,,,,,,
111324,1563730163743,12,2.31,0.72,0.4,1.08,0.84,1.25,0.14,0.09,-1,-1,-5,1.26,9796,14,90,40,29,879,886.0,646,473,60,120.0,77,1,287,193,70,0,0,884,-14712,966,861,882.05,,,,,,,,,,,,
111344,1563730163763,10,2.31,0.73,0.41,1.08,0.86,1.23,0.11,0.17,-1,-4,-6,1.23,9894,14,90,40,29,871,885.0,653,477,60,118.0,77,1,287,197,70,0,0,882,-9995,-14848,885,414.87,45.748703,4.906662,96.6,180.1,0,0.0,-1,0.0,0.0,0,0.49,1.8557
111364,1563730163783,12,2.31,0.73,0.41,1.08,0.86,1.22,0.1,0.13,-1,-4,-4,1.23,9878,14,90,40,30,863,876.0,656,473,60,119.0,82,1,291,197,72,0,0,869,-10508,966,866,882.05,,,,,,,,,,,,
111384,1563730163803,10,2.31,0.74,0.41,1.09,0.85,1.07,0.08,0.14,0,-3,-3,1.08,9899,14,90,40,30,861,865.0,643,474,60,120.0,82,1,291,197,72,0,0,884,-3335,-2311,866,882.05,,,,,,,,,,,,
111404,1563730163823,11,2.31,0.73,0.41,1.09,0.85,1.15,0.0,0.2,1,-1,-2,1.15,9904,14,90,40,30,858,863.0,646,472,60,120.0,82,1,291,197,72,0,0,870,-1580,-14712,863,648.46,,,,,,,,,,,,
111424,1563730163843,11,2.3,0.73,0.41,1.08,0.85,1.12,0.07,0.17,1,-3,-0,1.13,9915,14,90,40,30,860,862.0,641,468,60,119.0,82,1,291,197,72,0,0,863,-1582,-779,855,882.05,,,,,,,,,,,,
111444,1563730163863,9,2.3,0.73,0.41,1.09,0.86,1.17,0.02,0.27,1,-1,-0,1.17,9791,14,90,40,30,865,858.0,646,470,60,118.0,82,1,291,195,72,0,0,871,-9995,-23308,861,648.46,45.74868,4.90666,93.96,180.1,0,0.0,-1,0.0,0.0,0,0.49,1.8574
111464,1563730163883,9,2.31,0.73,0.42,1.09,0.87,1.21,0.09,0.18,1,-1,0,1.22,9725,14,90,40,30,873,851.0,650,472,60,119.0,84,1,291,195,72,0,0,864,-1576,-23308,846,882.05,,,,,,,,,,,,
111484,1563730163902,11,2.29,0.74,0.42,1.1,0.86,1.27,0.11,0.18,1,-2,0,1.27,9715,14,90,40,30,892,847.0,646,469,60,118.0,84,1,291,195,72,0,0,857,8838,-1578,841,648.46,,,,,,,,,,,,
111504,1563730163922,9,2.3,0.74,0.41,1.1,0.86,1.21,0.14,0.09,1,-4,1,1.22,9630,13,90,40,30,901,836.0,630,476,60,119.0,84,1,291,193,72,0,0,853,-31066,-23308,836,882.05,,,,,,,,,,,,
111524,1563730163942,11,2.3,0.74,0.4,1.1,0.85,1.21,0.08,0.16,1,-3,-0,1.21,9532,14,89,40,30,915,836.0,647,473,60,118.0,84,1,291,192,72,0,0,860,-30694,-1576,826,648.46,,,,,,,,,,,,
111544,1563730163962,8,2.29,0.74,0.41,1.1,0.86,1.23,0.08,0.18,0,-0,1,1.23,9546,14,89,40,30,920,841.0,646,471,60,119.0,84,1,291,192,72,0,0,860,-30694,-3450,839,648.46,45.748657,4.906657,91.98,180.2,0,0.0,-1,0.0,0.0,0,0.5,1.8591
111564,1563730163982,9,2.3,0.74,0.41,1.1,0.86,1.12,0.14,0.08,-0,2,0,1.12,9537,14,90,40,30,926,828.0,643,473,60,119.0,83,1,291,192,69,0,0,860,-2830,-23308,815,882.05,,,,,,,,,,,,
111584,1563730163994,8,2.29,0.74,0.42,1.1,0.87,1.21,0.03,0.19,-0,-0,-1,1.21,9517,14,89,40,30,928,828.0,641,477,60,119.0,83,1,291,192,69,0,0,835,-31066,-2826,825,648.46,,,,,,,,,,,,
111604,1563730164014,10,2.3,0.74,0.42,1.1,0.87,1.23,0.05,0.08,-1,2,2,1.23,9450,14,89,40,29,924,824.0,642,472,60,120.0,83,1,287,190,69,0,0,833,-31066,-31068,821,648.46,,,,,,,,,,,,
111624,1563730164034,8,2.3,0.73,0.41,1.1,0.86,1.1,0.18,0.09,-1,2,1,1.12,9431,14,90,40,29,916,821.0,641,477,60,120.0,83,1,287,189,69,0,0,820,-2314,-2826,814,882.05,,,,,,,,,,,,
111644,1563730164054,9,2.29,0.74,0.42,1.1,0.86,1.09,0.13,0.19,-1,0,0,1.09,9379,14,90,40,28,910,815.0,645,480,60,118.0,83,1,282,188,69,0,0,837,-3344,-2830,814,414.87,45.74863,4.906654,88.47,180.1,0,0.0,-1,0.0,0.0,0,0.5,1.8607
111664,1563730164074,11,2.29,0.73,0.41,1.08,0.86,1.18,0.11,0.14,-0,-1,0,1.18,9342,14,90,40,28,904,816.0,641,469,60,119.0,82,1,282,187,67,0,0,834,-4091,-2356,799,648.46,,,,,,,,,,,,
111684,1563730164100,7,2.3,0.74,0.41,1.1,0.86,1.1,0.12,0.24,0,-1,-2,1.11,9346,14,90,40,28,901,797.0,643,475,60,119.0,82,1,282,187,67,0,0,822,6905,6790,790,648.46,,,,,,,,,,,,
111704,1563730164120,9,2.3,0.73,0.41,1.09,0.87,1.02,0.15,0.13,1,-2,-0,1.03,9305,14,90,40,27,897,803.0,642,467,60,121.0,82,1,278,186,67,0,0,820,-13312,-22796,799,414.87,,,,,,,,,,,,
111724,1563730164140,5,2.31,0.74,0.42,1.1,0.87,0.83,0.17,0.1,1,0,-1,0.85,9150,14,90,40,27,890,803.0,647,465,60,121.0,82,1,278,185,67,0,0,807,-13312,-4091,791,414.87,,,,,,,,,,,,
111744,1563730164160,7,2.3,0.74,0.42,1.1,0.86,0.8,0.17,0.16,1,2,1,0.81,9018,14,90,40,27,886,797.0,618,470,60,120.0,82,1,278,185,67,0,0,807,-30694,-3888,797,414.87,45.748611,4.906651,86.65,179.9,0,0.0,-1,0.0,0.0,0,0.5,1.8624
111764,1563730164180,7,2.31,0.73,0.42,1.09,0.86,0.71,0.24,0.04,1,3,0,0.75,8941,13,90,40,28,881,802.0,620,464,60,120.0,79,1,282,185,63,0,0,787,-12152,-23490,787,414.87,,,,,,,,,,,,
111784,1563730164200,8,2.3,0.73,0.41,1.09,0.86,0.63,0.3,-0.04,2,4,-1,0.7,8920,12,90,40,29,874,790.0,621,466,60,118.0,79,1,287,185,63,0,0,798,6389,-2574,789,414.87,,,,,,,,,,,,
111804,1563730164220,9,2.3,0.74,0.41,1.1,0.85,0.63,0.31,-0.05,1,7,-1,0.7,8861,13,90,40,30,869,787.0,621,468,60,119.0,79,1,291,273,63,0,0,791,-8148,5344,780,882.05,,,,,,,,,,,,
111824,1563730164240,9,2.3,0.74,0.41,1.09,0.86,0.6,0.31,-0.05,1,8,0,0.67,8967,13,89,40,29,861,779.0,630,468,60,118.0,79,1,287,251,63,0,0,785,-22795,-8148,779,882.05,,,,,,,,,,,,
111844,1563730164260,8,2.3,0.74,0.42,1.09,0.87,0.44,0.37,-0.09,2,12,1,0.57,9093,13,90,40,28,858,776.0,638,472,60,117.0,79,1,282,230,63,0,0,788,-23308,6900,776,882.05,45.748589,4.906648,84.67,179.8,0,0.0,-1,0.0,0.0,0,0.5,1.8641
111864,1563730164280,7,2.31,0.74,0.42,1.1,0.88,0.37,0.42,-0.19,3,14,0,0.56,9027,13,90,40,28,855,774.0,635,471,60,117.0,97,1,282,210,75,0,0,790,-2830,-7436,761,882.05,,,,,,,,,,,,
111884,1563730164300,7,2.3,0.74,0.42,1.1,0.87,0.26,0.46,-0.24,4,15,-1,0.53,8992,11,89,41,27,912,766.0,638,477,60,116.0,97,1,278,188,75,0,0,784,-2344,-2826,766,882.05,,,,,,,,,,,,
111904,1563730164320,11,2.3,0.74,0.41,1.1,0.87,0.33,0.47,-0.28,3,15,-1,0.57,8890,10,89,41,27,945,766.0,645,468,60,119.0,97,1,278,185,75,0,0,782,6389,-2344,766,882.05,,,,,,,,,,,,
111924,1563730164340,11,2.29,0.74,0.41,1.11,0.86,0.21,0.53,-0.22,3,14,1,0.57,8882,10,89,41,26,1004,767.0,638,474,60,120.0,97,1,274,185,75,0,0,738,-2344,-2830,763,882.05,,,,,,,,,,,,
111944,1563730164360,9,2.3,0.74,0.42,1.09,0.87,0.24,0.52,-0.23,3,11,-1,0.57,9119,10,89,41,26,1040,760.0,639,463,60,119.0,97,1,274,185,75,0,0,773,5876,-2344,760,648.46,45.74857,4.906646,82.04,179.7,0,0.0,-1,0.0,0.0,0,0.51,1.8657
111964,1563730164380,8,2.29,0.74,0.42,1.1,0.86,0.25,0.52,-0.34,3,11,-2,0.57,9173,9,90,41,25,1066,753.0,648,472,60,120.0,85,1,270,185,64,0,0,743,-3450,3462,738,882.05,,,,,,,,,,,,
111984,1563730164400,11,2.29,0.75,0.41,1.1,0.87,0.36,0.45,-0.24,2,10,-1,0.57,9342,10,89,41,24,1097,744.0,646,471,60,118.0,85,1,270,178,64,0,0,736,-22796,-13068,746,414.87,,,,,,,,,,,,
112004,1563730164420,11,2.29,0.74,0.41,1.11,0.86,0.52,0.38,-0.24,2,10,-1,0.65,9474,10,89,41,24,1081,747.0,626,468,60,120.0,85,1,270,178,64,0,0,736,136,-2830,736,648.46,,,,,,,,,,,,
112024,1563730164440,8,2.3,0.74,0.41,1.1,0.86,0.45,0.34,-0.26,2,10,2,0.56,9455,10,90,41,24,1049,739.0,639,468,60,119.0,85,1,270,178,64,0,0,736,-2356,-13580,738,882.05,,,,,,,,,,,,
112044,1563730164460,10,2.29,0.74,0.41,1.1,0.87,0.46,0.41,-0.2,2,11,-1,0.62,9484,10,90,41,25,1018,732.0,640,477,60,120.0,85,1,270,185,64,0,0,722,-2826,15647,732,1115.64,45.748547,4.906643,79.59,179.6,0,0.0,-1,0.0,0.0,0,0.51,1.8674
112064,1563730164480,10,2.31,0.74,0.42,1.1,0.87,0.6,0.31,-0.21,2,9,-0,0.68,9464,10,90,41,26,967,731.0,640,472,60,120.0,90,1,274,186,66,0,0,718,-13580,1524,722,648.46,,,,,,,,,,,,
112084,1563730164502,8,2.3,0.73,0.41,1.1,0.86,0.72,0.24,-0.17,1,8,-1,0.76,9460,10,90,41,26,949,723.0,642,472,60,120.0,90,1,274,186,66,0,0,713,-25858,1037,718,882.05,,,,,,,,,,,,
112104,1563730164522,9,2.31,0.74,0.41,1.1,0.86,0.74,0.27,-0.19,1,6,1,0.79,9532,10,89,41,26,931,714.0,647,472,60,119.0,90,1,274,186,66,0,0,712,204,-30694,710,882.05,,,,,,,,,,,,
112124,1563730164542,10,2.3,0.73,0.41,1.1,0.86,0.87,0.24,-0.25,1,6,-1,0.9,9556,10,89,41,26,918,712.0,655,475,60,119.0,90,1,274,186,66,0,0,709,204,-2830,707,1115.64,,,,,,,,,,,,
112144,1563730164562,8,2.3,0.74,0.42,1.1,0.86,0.82,0.27,-0.14,1,3,-0,0.87,9576,10,89,41,27,900,709.0,654,476,60,119.0,90,1,278,188,66,0,0,711,11069,11069,709,882.05,45.748528,4.906641,77.57,179.6,0,0.0,-1,0.0,0.0,0,0.51,1.8691
112164,1563730164582,7,2.29,0.74,0.42,1.1,0.87,0.89,0.27,-0.06,1,2,-0,0.93,9537,10,89,41,27,896,705.0,656,473,60,118.0,95,1,278,187,67,0,0,693,-20693,11576,696,1115.64,,,,,,,,,,,,
112184,1563730164600,9,2.3,0.75,0.42,1.11,0.86,1.01,0.15,-0.04,-0,0,-0,1.02,9469,10,89,41,27,896,702.0,663,476,60,118.0,95,1,278,187,67,0,0,681,6208,-2830,704,648.46,,,,,,,,,,,,
112204,1563730164620,6,2.3,0.73,0.42,1.1,0.87,0.81,0.2,-0.1,1,2,0,0.83,9379,10,89,41,27,915,697.0,638,472,60,120.0,95,1,278,187,67,0,0,697,6208,8010,694,882.05,,,,,,,,,,,,
112224,1563730164640,7,2.31,0.74,0.41,1.1,0.86,0.81,0.26,-0.16,1,3,-0,0.85,9309,10,90,41,27,930,686.0,635,476,60,119.0,95,1,278,186,67,0,0,699,16599,-10448,683,882.05,,,,,,,,,,,,
112244,1563730164660,7,2.31,0.75,0.41,1.11,0.86,0.87,0.2,-0.09,1,2,-0,0.89,9323,10,89,41,27,954,690.0,641,467,60,118.0,95,1,278,186,67,0,0,682,6208,-10448,689,414.87,45.748508,4.906639,75.24,179.5,0,0.0,-1,0.0,0.0,0,0.51,1.8707
112264,1563730164680,9,2.3,0.73,0.42,1.1,0.87,0.98,0.08,-0.14,0,0,2,0.99,9333,9,89,41,27,973,687.0,632,466,60,120.0,94,1,278,186,65,0,0,677,6208,11576,687,648.46,,,,,,,,,,,,
112284,1563730164702,8,2.3,0.74,0.43,1.11,0.87,1.05,0.14,-0.09,0,1,1,1.06,9333,9,89,41,27,984,681.0,636,470,60,120.0,94,1,278,186,65,0,0,686,-26562,-2830,681,882.05,,,,,,,,,,,,
112304,1563730164722,6,2.3,0.73,0.41,1.11,0.87,0.93,0.08,-0.12,1,1,1,0.93,9286,9,89,41,27,1002,677.0,636,476,60,120.0,94,1,278,186,65,0,0,683,-26892,-3578,675,882.05,,,,,,,,,,,,
112324,1563730164742,5,2.3,0.74,0.41,1.1,0.86,0.81,0.19,-0.12,1,3,-0,0.83,9222,9,89,41,27,1004,675.0,635,472,60,119.0,94,1,278,186,65,0,0,680,-26892,24,675,882.05,,,,,,,,,,,,
112344,1563730164762,5,2.3,0.75,0.42,1.1,0.88,0.68,0.26,-0.11,2,8,1,0.73,9155,9,89,41,27,999,674.0,651,471,60,118.0,94,1,278,185,65,0,0,676,-10344,-10399,673,882.05,45.748489,4.906636,72.64,179.5,0,0.0,-1,0.0,0.0,0,0.52,1.8724
112364,1563730164782,5,2.31,0.74,0.42,1.11,0.87,0.78,0.24,-0.11,1,9,-0,0.82,9155,9,89,41,27,991,669.0,641,463,60,118.0,95,1,278,185,64,0,0,679,31988,16118,662,414.87,,,,,,,,,,,,
112384,1563730164802,7,2.3,0.75,0.42,1.1,0.87,0.91,0.2,-0.04,1,7,-1,0.93,9150,9,89,41,27,983,664.0,661,464,60,120.0,95,1,278,185,64,0,0,673,-10348,-3038,662,648.46,,,,,,,,,,,,
112404,1563730164822,7,2.3,0.74,0.42,1.11,0.87,1.02,0.08,-0.04,-0,6,-1,1.02,9115,9,89,41,27,973,661.0,637,472,60,119.0,95,1,278,185,64,0,0,670,-2345,1549,657,648.46,,,,,,,,,,,,
112424,1563730164842,6,2.3,0.74,0.42,1.1,0.87,1.09,-0.0,0.09,-1,4,-1,1.09,9071,9,89,41,27,968,658.0,642,470,60,120.0,95,1,278,185,64,0,0,664,-3038,31988,652,648.46,,,,,,,,,,,,
112444,1563730164862,6,2.3,0.75,0.42,1.11,0.87,1.18,-0.09,0.1,-1,2,-1,1.18,9036,9,89,41,26,959,654.0,626,467,60,120.0,95,1,274,185,64,0,0,663,-2830,-2826,649,648.46,45.748474,4.906634,70.56,179.4,0,0.0,-1,0.0,0.0,0,0.52,1.8741
112464,1563730164882,6,2.31,0.74,0.43,1.1,0.88,1.24,-0.06,0.23,-1,0,-2,1.25,8984,9,89,41,26,953,652.0,636,467,60,118.0,97,1,274,185,63,0,0,663,24583,8958,646,414.87,,,,,,,,,,,,
112484,1563730164901,7,2.31,0.75,0.42,1.11,0.87,1.32,-0.16,0.26,-1,-1,-3,1.33,8928,9,89,41,25,948,646.0,627,474,60,120.0,97,1,270,185,63,0,0,660,4909,-3038,644,648.46,,,,,,,,,,,,
112504,1563730164921,6,2.3,0.74,0.42,1.11,0.87,1.37,-0.22,0.36,-1,-2,-2,1.38,8873,9,89,41,25,946,643.0,626,472,60,120.0,97,1,270,185,63,0,0,652,244,2024,643,648.46,,,,,,,,,,,,
112524,1563730164941,4,2.31,0.74,0.42,1.1,0.87,1.39,-0.27,0.36,-1,-3,-2,1.41,8798,9,89,41,25,943,646.0,650,468,60,119.0,97,1,270,185,63,0,0,650,4909,-3488,637,414.87,,,,,,,,,,,,
112544,1563730164961,5,2.3,0.75,0.42,1.11,0.87,1.38,-0.22,0.33,-1,-4,-3,1.4,8737,9,89,41,25,931,640.0,639,468,60,119.0,97,1,270,185,63,0,0,649,24,479,637,414.87,45.748459,4.906632,67.95,179.4,0,0.0,-1,0.0,0.0,0,0.52,1.8757
112564,1563730164981,8,2.3,0.75,0.42,1.1,0.87,1.26,-0.12,0.3,-1,-3,-3,1.26,8696,9,89,41,25,922,640.0,650,470,60,119.0,96,1,270,185,61,0,0,644,24,244,633,882.05,,,,,,,,,,,,
112584,1563730164993,6,2.3,0.74,0.42,1.1,0.87,1.18,-0.08,0.31,-1,-3,-3,1.18,8708,9,89,41,25,915,631.0,630,468,60,120.0,96,1,270,185,61,0,0,645,771,11566,631,882.05,,,,,,,,,,,,
112604,1563730165013,6,2.31,0.75,0.42,1.1,0.87,1.2,-0.14,0.44,-1,-5,-2,1.21,8684,9,89,42,25,903,629.0,641,470,60,120.0,96,1,270,185,61,0,0,635,-14655,-2580,623,648.46,,,,,,,,,,,,
112624,1563730165033,6,2.3,0.74,0.42,1.11,0.87,1.18,-0.1,0.43,-1,-3,-3,1.19,8640,9,89,42,25,892,627.0,630,467,60,119.0,96,1,270,185,61,0,0,635,-16046,506,623,648.46,,,,,,,,,,,,
112644,1563730165053,7,2.3,0.74,0.43,1.1,0.87,1.12,-0.09,0.4,-1,-3,-3,1.13,8604,9,89,42,25,884,624.0,628,471,60,119.0,96,1,270,185,61,0,0,631,3395,-14655,622,882.05,45.74844,4.90663,65.99,179.4,0,0.0,-1,0.0,0.0,0,0.52,1.8774
112664,1563730165073,8,2.29,0.75,0.42,1.11,0.87,1.14,-0.06,0.38,-1,-3,-4,1.14,8538,9,89,42,25,882,621.0,620,469,60,120.0,97,1,270,185,60,0,0,784,-18357,-14655,617,648.46,,,,,,,,,,,,
112684,1563730165099,5,2.31,0.74,0.43,1.1,0.87,1.11,-0.06,0.44,-1,-3,-4,1.12,8518,9,89,42,25,881,615.0,619,470,60,119.0,97,1,270,185,60,0,0,784,26688,-16883,612,648.46,,,,,,,,,,,,
112704,1563730165119,7,2.3,0.75,0.42,1.11,0.87,1.1,-0.06,0.36,-1,-1,-4,1.1,8442,9,89,42,25,882,614.0,625,470,60,118.0,97,1,270,184,60,0,0,784,26688,-18357,612,414.87,,,,,,,,,,,,
112724,1563730165139,6,2.3,0.74,0.42,1.1,0.88,1.11,-0.01,0.33,-0,-0,-3,1.11,8415,9,89,42,25,883,614.0,611,467,60,120.0,97,1,270,179,60,0,0,784,1010,269,612,648.46,,,,,,,,,,,,
112744,1563730165159,4,2.3,0.75,0.42,1.11,0.87,1.1,-0.01,0.32,-0,0,-3,1.1,8370,9,89,42,25,887,611.0,617,467,60,119.0,97,1,270,177,60,0,0,784,1010,16529,607,414.87,45.748424,4.906628,64.17,179.5,0,0.0,-1,0.0,0.0,0,0.52,1.8791
112764,1563730165179,5,2.31,0.75,0.42,1.11,0.87,1.15,-0.05,0.32,-0,1,-3,1.15,8300,9,89,42,25,889,606.0,621,470,60,120.0,89,1,270,174,54,0,0,784,-23055,30721,604,882.05,,,,,,,,,,,,
112784,1563730165199,4,2.31,0.74,0.42,1.1,0.87,1.11,-0.03,0.36,0,1,-3,1.11,8285,9,89,42,26,888,602.0,631,468,60,119.0,89,1,273,173,54,0,0,601,-768,16529,601,648.46,,,,,,,,,,,,
112804,1563730165219,5,2.31,0.74,0.42,1.11,0.88,1.11,-0.02,0.36,0,2,-3,1.11,8259,9,89,42,25,885,601.0,635,472,60,119.0,89,1,270,173,54,0,0,602,243,-30139,599,882.05,,,,,,,,,,,,
112824,1563730165239,3,2.31,0.74,0.42,1.1,0.88,1.07,-0.01,0.3,0,1,-2,1.07,8281,9,89,42,25,880,599.0,621,471,60,120.0,89,1,270,172,54,0,0,604,4956,30227,599,648.46,,,,,,,,,,,,
112844,1563730165259,6,2.3,0.75,0.42,1.1,0.87,1.04,-0.02,0.34,0,0,-4,1.04,8198,9,89,42,25,876,596.0,596,471,60,120.0,89,1,270,167,54,0,0,605,17344,-768,595,882.05,45.748405,4.906626,62.55,179.5,0,0.0,-1,0.0,0.0,0,0.52,1.8807
112864,1563730165279,3,2.3,0.75,0.42,1.1,0.87,1.07,-0.03,0.35,0,0,-3,1.07,8166,8,89,42,26,872,595.0,625,472,60,120.0,87,1,273,166,52,0,0,604,6273,23619,595,648.46,,,,,,,,,,,,
112884,1563730165299,6,2.3,0.75,0.42,1.11,0.87,1.08,-0.05,0.33,-0,-0,-3,1.08,8169,9,89,42,25,869,587.0,604,469,60,120.0,87,1,270,166,52,0,0,600,-25872,4956,585,648.46,,,,,,,,,,,,
112904,1563730165319,4,2.31,0.74,0.42,1.1,0.88,1.08,-0.04,0.38,-0,1,-2,1.08,8134,8,89,42,25,870,587.0,599,471,60,119.0,87,1,270,165,52,0,0,595,-12040,6273,583,414.87,,,,,,,,,,,,
112924,1563730165339,4,2.3,0.75,0.42,1.11,0.88,1.08,-0.07,0.39,-0,2,-1,1.09,8061,8,90,42,25,872,585.0,605,477,60,121.0,87,1,270,159,52,0,0,592,-25872,6273,583,414.87,,,,,,,,,,,,
112944,1563730165359,3,2.31,0.74,0.42,1.1,0.88,1.18,-0.07,0.4,-1,-0,-2,1.18,7982,8,90,42,26,875,582.0,603,465,60,121.0,87,1,272,156,52,0,0,594,8488,-16179,579,414.87,45.748386,4.906625,61.23,179.6,0,0.0,-1,0.0,0.0,0,0.53,1.8824
112964,1563730165379,3,2.31,0.75,0.42,1.11,0.87,1.17,0.0,0.39,-1,-0,-1,1.17,7884,8,90,42,26,878,578.0,600,465,60,120.0,81,1,271,157,47,0,0,589,243,1,576,414.87,,,,,,,,,,,,
112984,1563730165401,3,2.3,0.75,0.42,1.1,0.87,1.07,0.07,0.35,-1,1,-1,1.07,7799,8,90,42,26,880,574.0,592,470,60,118.0,81,1,270,157,47,0,0,578,774,259,574,414.87,,,,,,,,,,,,
113004,1563730165421,3,2.31,0.75,0.42,1.1,0.88,1.05,0.08,0.25,-0,2,-0,1.05,7799,8,90,42,27,881,571.0,587,467,60,120.0,81,1,273,158,47,0,0,575,1267,774,567,414.87,,,,,,,,,,,,
113024,1563730165441,5,2.31,0.74,0.43,1.11,0.87,1.03,0.05,0.27,-0,2,-1,1.03,7747,8,89,42,27,882,570.0,587,472,60,119.0,81,1,273,226,47,0,0,568,1780,-29984,567,882.05,,,,,,,,,,,,
113044,1563730165461,4,2.3,0.75,0.43,1.11,0.87,1.12,0.02,0.31,-0,3,0,1.12,7815,8,89,42,28,882,565.0,597,470,60,119.0,81,1,276,215,47,0,0,571,-30159,-29984,563,882.05,45.748371,4.906622,60.0,179.7,0,0.0,-1,0.0,0.0,0,0.53,1.8841
113064,1563730165481,7,2.3,0.75,0.42,1.1,0.87,1.14,0.04,0.31,-0,2,0,1.14,7819,8,89,42,28,881,561.0,600,469,60,118.0,108,1,277,198,61,0,0,1067,-18032,1780,555,882.05,,,,,,,,,,,,
113084,1563730165501,5,2.31,0.75,0.43,1.1,0.88,1.08,0.04,0.34,0,3,-1,1.08,7735,8,89,42,28,881,556.0,587,471,60,118.0,108,1,276,182,61,0,0,1067,2524,12552,556,648.46,,,,,,,,,,,,
113104,1563730165521,5,2.31,0.75,0.43,1.11,0.87,1.01,0.06,0.33,0,4,0,1.01,7738,8,89,42,28,896,555.0,586,471,60,118.0,108,1,276,167,61,0,0,639,-22263,12552,553,648.46,,,,,,,,,,,,
113124,1563730165541,4,2.31,0.75,0.43,1.1,0.88,1.03,-0.01,0.35,-1,2,1,1.03,7603,8,89,42,28,923,554.0,575,471,60,119.0,108,1,276,160,61,0,0,639,2524,1267,553,882.05,,,,,,,,,,,,
113144,1563730165561,5,2.3,0.75,0.42,1.1,0.87,1.05,0.01,0.33,-1,-2,-1,1.05,7606,8,89,42,28,945,553.0,578,475,60,116.0,108,1,276,160,61,0,0,639,-28648,1779,549,882.05,45.748356,4.90662,58.55,179.7,0,0.0,-1,0.0,0.0,0,0.53,1.8857
113164,1563730165581,5,2.3,0.75,0.41,1.11,0.87,0.89,-0.07,0.43,-1,-2,1,0.89,7512,8,89,42,29,967,545.0,565,472,60,120.0,82,1,279,160,45,0,0,37,-3082,-21872,543,882.05,,,,,,,,,,,,
113184,1563730165601,5,2.31,0.75,0.42,1.11,0.87,0.97,-0.09,0.37,-1,-1,-0,0.97,7864,8,89,42,29,992,542.0,579,471,60,119.0,82,1,280,161,45,0,0,37,-2336,-30064,542,882.05,,,,,,,,,,,,
113204,1563730165621,8,2.3,0.74,0.42,1.1,0.87,1.06,-0.11,0.28,-0,-1,-0,1.06,7944,8,89,42,28,1042,534.0,583,469,60,118.0,82,1,278,161,45,0,0,37,-32248,8488,532,414.87,,,,,,,,,,,,
113224,1563730165641,5,2.3,0.75,0.42,1.11,0.87,0.98,-0.12,0.32,0,-1,0,0.99,8078,8,89,42,28,1061,536.0,588,475,60,119.0,82,1,279,165,45,0,0,37,-22519,11560,536,648.46,,,,,,,,,,,,
113244,1563730165661,6,2.31,0.75,0.42,1.11,0.87,0.97,-0.09,0.29,0,-1,0,0.98,8216,8,89,42,28,1079,529.0,602,468,60,118.0,82,1,280,170,45,0,0,37,-9072,-9216,527,882.05,45.748344,4.906618,56.9,179.7,0,0.0,-1,0.0,0.0,0,0.53,1.8874
113264,1563730165681,4,2.31,0.75,0.42,1.11,0.88,1.0,-0.09,0.3,0,1,0,1.0,8366,8,89,42,27,1077,527.0,612,472,60,119.0,104,1,277,176,55,0,0,37,-22519,3580,521,648.46,,,,,,,,,,,,
113284,1563730165699,5,2.3,0.75,0.42,1.12,0.87,1.05,-0.11,0.34,0,-0,0,1.06,8553,8,89,42,27,1063,521.0,632,467,60,118.0,104,1,278,185,55,0,0,21,-9212,-9216,518,414.87,,,,,,,,,,,,
113304,1563730165719,5,2.31,0.75,0.42,1.11,0.87,1.08,-0.09,0.29,0,-0,0,1.08,8632,8,89,42,26,1039,515.0,633,476,60,117.0,104,1,274,185,55,0,0,489,-4054,-6441,514,882.05,,,,,,,,,,,,
113324,1563730165739,7,2.3,0.75,0.42,1.11,0.88,1.01,-0.04,0.32,0,1,2,1.01,8753,8,89,42,26,1016,509.0,631,467,60,119.0,104,1,274,185,55,0,0,503,-28648,3,509,882.05,,,,,,,,,,,,
113344,1563730165759,4,2.31,0.75,0.43,1.11,0.88,1.02,-0.06,0.31,1,3,1,1.02,8819,8,89,42,25,983,505.0,641,467,60,118.0,104,1,270,185,55,0,0,489,-32248,771,505,648.46,45.748325,4.906616,55.27,179.7,0,0.0,-1,0.0,0.0,0,0.53,1.8891
113364,1563730165779,5,2.31,0.75,0.43,1.11,0.89,1.05,-0.11,0.39,1,4,1,1.05,8958,8,89,42,25,939,503.0,624,475,60,118.0,122,1,270,185,62,0,0,494,11560,505,503,648.46,,,,,,,,,,,,
113384,1563730165799,6,2.3,0.75,0.42,1.12,0.88,1.11,-0.12,0.29,1,6,0,1.11,9071,8,89,42,24,919,499.0,640,466,60,119.0,122,1,270,178,62,0,0,484,2524,3580,494,882.05,,,,,,,,,,,,
113404,1563730165819,6,2.3,0.75,0.42,1.11,0.87,1.03,-0.04,0.27,1,7,1,1.03,9124,8,89,42,24,915,494.0,625,478,60,119.0,122,1,270,178,62,0,0,494,248,1,493,882.05,,,,,,,,,,,,
113424,1563730165839,2,2.29,0.76,0.42,1.11,0.87,0.9,0.03,0.24,2,9,1,0.9,9168,8,89,42,23,913,490.0,628,470,60,119.0,122,1,270,173,62,0,0,488,-1562,1,490,648.46,,,,,,,,,,,,
113444,1563730165859,3,2.29,0.75,0.43,1.11,0.88,0.66,0.09,0.13,2,9,3,0.67,9200,8,89,42,23,909,484.0,639,475,60,118.0,122,1,270,173,62,0,0,485,-10483,1,483,882.05,45.748314,4.906614,53.09,179.8,0,0.0,-1,0.0,0.0,0,0.53,1.8907
113464,1563730165879,3,2.3,0.75,0.43,1.11,0.88,0.6,0.08,0.1,2,9,2,0.6,9137,8,89,42,23,907,484.0,636,468,60,115.0,123,1,270,173,60,0,0,484,-899,-10483,484,1115.64,,,,,,,,,,,,
113484,1563730165898,3,2.3,0.76,0.43,1.12,0.88,0.51,0.09,0.09,2,9,2,0.51,9075,8,89,42,23,908,482.0,643,471,60,117.0,123,1,270,173,60,0,0,479,16648,-6656,478,882.05,,,,,,,,,,,,
113504,1563730165918,3,2.31,0.76,0.42,1.12,0.88,0.57,0.11,0.08,1,8,2,0.58,9001,8,89,42,23,909,476.0,641,467,60,117.0,123,1,270,173,60,0,0,482,-17956,32033,473,181.28,,,,,,,,,,,,
113524,1563730165938,3,2.3,0.75,0.42,1.11,0.89,0.48,0.14,0.02,1,8,1,0.51,8928,8,89,42,23,910,474.0,645,465,60,118.0,123,1,270,173,60,0,0,528,-9203,10305,473,882.05,,,,,,,,,,,,
113544,1563730165958,2,2.3,0.75,0.43,1.11,0.88,0.44,0.14,0.0,1,9,2,0.46,8848,8,89,42,23,910,472.0,633,477,60,120.0,123,1,270,173,60,0,0,528,8488,3576,470,882.05,45.748299,4.906612,50.85,179.9,0,0.0,-1,0.0,0.0,0,0.54,1.8924
113564,1563730165978,5,2.3,0.76,0.43,1.12,0.89,0.37,0.21,-0.03,2,9,1,0.43,8794,8,89,42,24,909,466.0,644,473,60,119.0,125,1,270,173,59,0,0,467,-3210,32033,466,882.05,,,,,,,,,,,,
113584,1563730165992,4,2.3,0.75,0.43,1.11,0.89,0.36,0.17,0.01,2,9,2,0.4,8757,8,89,42,23,910,465.0,629,473,60,120.0,125,1,270,173,59,0,0,467,16408,-16384,465,882.05,,,,,,,,,,,,
113604,1563730166012,2,2.31,0.75,0.43,1.12,0.89,0.44,0.1,0.09,1,8,2,0.46,8716,8,89,42,23,911,463.0,626,472,60,120.0,125,1,270,173,59,0,0,462,6193,6193,460,648.46,,,,,,,,,,,,
113624,1563730166032,2,2.3,0.76,0.43,1.12,0.88,0.59,-0.01,0.13,1,7,1,0.59,8644,8,89,42,24,912,461.0,640,467,60,119.0,125,1,270,178,59,0,0,467,17628,12552,461,1115.64,,,,,,,,,,,,
113644,1563730166052,1,2.3,0.75,0.42,1.11,0.88,0.63,0.01,0.11,1,6,1,0.63,8577,8,89,42,24,914,458.0,629,466,60,118.0,125,1,270,173,59,0,0,463,17628,12552,456,1115.64,45.748287,4.90661,49.07,179.9,0,0.0,-1,0.0,0.0,0,0.54,1.8941
113664,1563730166072,4,2.3,0.75,0.43,1.11,0.89,0.62,0.07,0.16,1,6,-0,0.62,8561,8,89,42,24,915,455.0,616,475,60,119.0,127,1,270,178,58,0,0,458,-8985,6193,455,882.05,,,,,,,,,,,,
113684,1563730166100,1,2.3,0.75,0.43,1.11,0.88,0.69,0.07,0.16,1,6,1,0.7,8503,8,89,42,24,916,454.0,622,466,60,119.0,127,1,270,178,58,0,0,453,15649,17628,450,648.46,,,,,,,,,,,,
113704,1563730166120,4,2.29,0.76,0.43,1.12,0.88,0.72,0.07,0.19,0,3,0,0.72,8476,8,89,42,24,916,451.0,628,470,60,118.0,127,1,270,177,58,0,0,449,15649,15649,451,414.87,,,,,,,,,,,,
113724,1563730166140,2,2.3,0.76,0.43,1.13,0.89,0.77,0.04,0.23,0,2,0,0.77,8408,8,89,43,24,915,449.0,608,465,60,120.0,127,1,270,174,58,0,0,445,21432,-26615,448,882.05,,,,,,,,,,,,
113744,1563730166160,2,2.3,0.75,0.44,1.12,0.89,0.82,-0.01,0.27,0,-0,-0,0.82,8351,8,89,43,24,913,446.0,609,472,60,119.0,127,1,270,171,58,0,0,446,21432,8488,445,414.87,45.748272,4.906608,46.1,179.9,0,0.0,-1,0.0,0.0,0,0.54,1.8957
113764,1563730166180,2,2.29,0.76,0.43,1.12,0.89,0.8,0.04,0.31,0,-1,0,0.81,8337,8,89,43,25,911,443.0,642,470,60,120.0,121,1,270,172,54,0,0,446,-18341,8488,438,882.05,,,,,,,,,,,,
113784,1563730166200,1,2.29,0.76,0.43,1.12,0.89,0.77,0.07,0.26,0,0,0,0.78,8329,8,89,43,24,909,439.0,631,469,60,120.0,121,1,270,170,54,0,0,445,-28332,8488,437,648.46,,,,,,,,,,,,
113804,1563730166220,3,2.29,0.76,0.43,1.11,0.89,0.82,0.0,0.31,0,0,-0,0.82,8281,8,89,43,25,908,437.0,633,471,60,119.0,121,1,270,166,54,0,0,539,-7939,2131,437,882.05,,,,,,,,,,,,
113824,1563730166240,0,2.29,0.76,0.43,1.12,0.88,0.84,0.03,0.27,-0,2,1,0.84,8216,8,89,43,25,908,434.0,631,465,60,119.0,121,1,270,168,54,0,0,539,-768,23400,434,414.87,,,,,,,,,,,,
113844,1563730166260,2,2.29,0.76,0.43,1.12,0.89,0.84,0.04,0.27,-1,1,1,0.84,8205,8,89,43,25,906,435.0,622,469,60,119.0,121,1,270,168,54,0,0,67,-7939,21432,434,882.05,45.74826,4.906605,44.82,180.0,0,0.0,-1,0.0,0.0,0,0.54,1.8974
113864,1563730166280,-1,2.3,0.76,0.43,1.13,0.89,0.81,0.04,0.3,-1,0,-0,0.82,8155,8,89,43,25,902,434.0,606,470,60,120.0,114,1,270,165,50,0,0,67,-768,19477,430,648.46,,,,,,,,,,,,
113884,1563730166302,-1,2.3,0.76,0.44,1.12,0.9,0.84,0.05,0.31,-1,1,2,0.84,8088,8,89,43,25,901,429.0,603,474,60,120.0,114,1,270,161,50,0,0,67,3635,-3322,428,882.05,,,,,,,,,,,,
113904,1563730166322,1,2.29,0.76,0.43,1.13,0.89,0.85,0.05,0.26,-1,0,-0,0.85,8057,8,89,43,25,899,429.0,598,469,60,118.0,114,1,270,159,50,0,0,67,3635,-768,426,414.87,,,,,,,,,,,,
113924,1563730166342,-1,2.28,0.76,0.43,1.12,0.89,0.88,0.0,0.34,-1,2,0,0.88,8057,8,89,43,25,895,427.0,595,469,60,120.0,114,1,270,159,50,0,0,67,31796,-768,424,648.46,,,,,,,,,,,,
113944,1563730166362,-0,2.28,0.76,0.44,1.12,0.89,0.91,0.03,0.3,-1,3,0,0.91,8033,8,89,43,26,890,426.0,599,470,60,119.0,114,1,272,157,50,0,0,67,13552,1779,422,882.05,45.748249,4.906603,43.56,180.0,0,0.0,-1,0.0,0.0,0,0.54,1.8991
113964,1563730166382,2,2.29,0.76,0.43,1.12,0.89,0.9,0.05,0.28,-1,3,-1,0.91,7985,8,89,43,26,888,423.0,608,470,60,119.0,113,1,272,157,48,0,0,67,3826,3826,420,414.87,,,,,,,,,,,,
113984,1563730166402,-1,2.29,0.76,0.44,1.12,0.89,0.91,0.03,0.34,-1,4,0,0.91,7995,8,89,43,26,885,422.0,603,470,60,120.0,113,1,272,157,48,0,0,67,-21792,13180,420,648.46,,,,,,,,,,,,
114004,1563730166422,0,2.28,0.76,0.43,1.13,0.88,0.96,0.02,0.33,-1,3,-0,0.96,7924,8,89,43,26,885,420.0,597,474,60,120.0,113,1,272,157,48,0,0,67,-21792,13552,417,648.46,,,,,,,,,,,,
114024,1563730166442,0,2.27,0.76,0.43,1.13,0.89,1.01,-0.0,0.29,-1,1,-1,1.01,7891,8,89,43,26,885,419.0,601,468,60,119.0,113,1,271,157,48,0,0,67,7154,13552,416,414.87,,,,,,,,,,,,
114044,1563730166462,2,2.28,0.76,0.44,1.12,0.89,0.99,0.0,0.39,-1,2,-1,0.99,7891,8,89,43,26,888,417.0,597,469,60,120.0,113,1,271,158,48,0,0,67,-21944,-8165,412,414.87,45.748238,4.906601,42.44,180.2,0,0.0,-1,0.0,0.0,0,0.54,1.9007
114064,1563730166482,-1,2.27,0.76,0.43,1.13,0.89,0.99,0.04,0.41,-1,2,-0,0.99,7822,8,89,43,27,891,413.0,595,471,60,119.0,114,1,274,158,47,0,0,67,-9166,-21944,413,648.46,,,,,,,,,,,,
114084,1563730166502,0,2.28,0.76,0.43,1.13,0.89,1.04,0.03,0.43,-1,0,-2,1.04,7825,8,89,43,27,892,413.0,589,471,60,120.0,114,1,274,158,47,0,0,10,13040,18584,412,882.05,,,,,,,,,,,,
114104,1563730166522,0,2.28,0.76,0.43,1.13,0.89,1.11,0.08,0.46,-2,-1,-2,1.11,7786,8,89,43,28,895,411.0,599,472,60,119.0,114,1,276,158,47,0,0,414,-4059,-4059,408,882.05,,,,,,,,,,,,
114124,1563730166542,2,2.27,0.76,0.43,1.12,0.88,1.04,0.11,0.42,-2,-1,-2,1.04,7735,8,89,43,27,895,409.0,600,471,60,119.0,114,1,273,160,47,0,0,412,11560,18584,409,414.87,,,,,,,,,,,,
114144,1563730166562,2,2.27,0.76,0.43,1.12,0.88,0.95,0.18,0.34,-1,0,-3,0.97,7744,8,89,43,28,894,408.0,598,468,60,118.0,114,1,276,160,47,0,0,407,10392,-4059,405,414.87,45.748226,4.906599,42.09,180.4,0,0.0,-1,0.0,0.0,0,0.54,1.9024
114164,1563730166582,1,2.28,0.76,0.43,1.12,0.89,0.92,0.19,0.34,-1,-0,-4,0.94,7681,7,89,43,28,894,407.0,576,470,60,120.0,113,1,276,160,46,0,0,409,-26615,-26615,405,648.46,,,,,,,,,,,,
114184,1563730166602,-0,2.27,0.77,0.43,1.12,0.88,0.96,0.12,0.41,-1,-0,-4,0.97,7697,8,89,43,28,894,405.0,579,470,60,120.0,113,1,276,160,46,0,0,610,-9211,9517,404,648.46,,,,,,,,,,,,
114204,1563730166622,-1,2.28,0.76,0.43,1.12,0.89,1.04,0.1,0.44,-1,-0,-3,1.04,7646,8,89,43,28,894,404.0,562,473,60,120.0,113,1,276,160,46,0,0,610,1504,2524,400,882.05,,,,,,,,,,,,
114224,1563730166642,-1,2.29,0.77,0.43,1.13,0.89,1.08,0.04,0.45,-2,0,-4,1.08,7643,8,89,43,29,895,402.0,590,469,60,119.0,113,1,279,160,46,0,0,610,11545,-8151,398,882.05,,,,,,,,,,,,
114244,1563730166662,-2,2.28,0.77,0.43,1.13,0.89,1.13,0.01,0.5,-3,0,-3,1.13,7606,8,89,43,29,896,399.0,575,471,60,120.0,113,1,279,161,46,0,0,610,6384,2524,398,882.05,45.748211,4.906597,41.26,180.7,0,0.0,-1,0.0,0.0,0,0.54,1.9041
114264,1563730166682,-1,2.28,0.76,0.43,1.13,0.89,1.14,0.07,0.44,-2,1,-3,1.14,7566,8,89,43,29,895,399.0,587,471,60,119.0,116,1,279,161,46,0,0,610,6384,28696,397,882.05,,,,,,,,,,,,
114284,1563730166702,-1,2.29,0.76,0.44,1.12,0.89,1.14,0.11,0.4,-2,0,-4,1.15,7569,9,89,43,29,893,397.0,594,470,60,119.0,116,1,279,161,46,0,0,610,-3968,11545,396,882.05,,,,,,,,,,,,
114304,1563730166722,0,2.28,0.76,0.43,1.13,0.89,1.14,0.13,0.43,-3,-1,-4,1.14,7521,9,89,43,29,892,396.0,589,472,60,119.0,116,1,279,161,46,0,0,610,-32702,1504,393,882.05,,,,,,,,,,,,
114324,1563730166742,-1,2.29,0.76,0.43,1.12,0.88,1.11,0.2,0.41,-3,-1,-4,1.13,7512,8,89,43,30,891,394.0,593,470,60,119.0,116,1,282,163,46,0,0,610,-1818,1504,394,882.05,,,,,,,,,,,,
114344,1563730166762,0,2.28,0.77,0.43,1.13,0.88,1.08,0.26,0.37,-2,-0,-4,1.11,7479,8,89,43,30,892,392.0,592,471,60,119.0,116,1,282,163,46,0,0,16,1,10541,389,882.05,45.748203,4.906595,40.22,181.1,0,0.0,-1,0.0,0.0,0,0.55,1.9057
114364,1563730166782,-1,2.29,0.76,0.44,1.12,0.89,1.13,0.27,0.33,-2,-2,-4,1.17,7461,9,89,43,30,893,392.0,583,468,60,118.0,117,1,282,163,46,0,0,933,1,11545,388,882.05,,,,,,,,,,,,
114384,1563730166800,-1,2.28,0.77,0.43,1.13,0.89,1.19,0.29,0.41,-3,-3,-4,1.22,7440,9,89,43,30,895,390.0,568,469,60,120.0,117,1,282,163,46,0,0,933,-6524,6512,390,882.05,,,,,,,,,,,,
114404,1563730166820,-1,2.29,0.77,0.43,1.13,0.89,1.24,0.23,0.46,-3,-3,-4,1.26,7370,9,89,43,30,897,390.0,557,471,60,120.0,117,1,282,163,46,0,0,933,-1562,-1818,387,882.05,,,,,,,,,,,,
114424,1563730166840,-2,2.29,0.76,0.43,1.12,0.89,1.31,0.19,0.51,-3,-2,-4,1.33,7376,9,89,43,31,902,389.0,567,470,60,120.0,117,1,286,163,46,0,0,933,-6524,-1818,386,882.05,,,,,,,,,,,,
114444,1563730166860,2,2.29,0.77,0.43,1.13,0.89,1.33,0.16,0.6,-4,-2,-3,1.34,7315,9,89,43,31,905,387.0,551,469,60,120.0,117,1,286,163,46,0,0,933,240,240,385,882.05,45.748188,4.906594,38.95,181.3,0,0.0,-1,0.0,0.0,0,0.55,1.9074
114464,1563730166880,2,2.28,0.77,0.43,1.12,0.89,1.31,0.1,0.56,-3,-1,-3,1.32,7335,9,89,43,30,906,386.0,562,470,60,120.0,117,1,282,164,45,0,0,22,-3866,-6656,383,648.46,,,,,,,,,,,,
114484,1563730166899,0,2.3,0.77,0.44,1.12,0.89,1.19,0.08,0.52,-2,0,-4,1.19,7273,8,89,43,31,907,383.0,565,470,60,120.0,117,1,286,164,45,0,0,390,-19126,505,381,414.87,,,,,,,,,,,,
114504,1563730166919,1,2.28,0.76,0.43,1.13,0.89,1.09,0.12,0.45,-2,1,-3,1.09,7275,8,89,43,31,913,383.0,561,472,60,120.0,117,1,286,164,45,0,0,385,-19126,-1818,382,414.87,,,,,,,,,,,,
114524,1563730166939,-1,2.29,0.76,0.44,1.12,0.89,1.02,0.17,0.41,-2,-0,-4,1.04,7231,9,89,43,32,917,383.0,571,468,60,119.0,117,1,290,166,45,0,0,388,19125,505,381,882.05,,,,,,,,,,,,
114544,1563730166959,-1,2.29,0.77,0.43,1.12,0.89,1.06,0.1,0.51,-2,-2,-5,1.07,7217,9,89,43,32,921,381.0,557,469,60,119.0,117,1,290,166,45,0,0,389,8200,19125,378,882.05,45.74818,4.906593,38.62,181.7,0,0.0,-1,0.0,0.0,0,0.55,1.9091
114564,1563730166979,2,2.28,0.76,0.43,1.13,0.89,1.16,0.03,0.54,-3,-2,-3,1.16,7244,9,89,43,32,925,377.0,559,468,60,120.0,119,1,290,166,45,0,0,387,-6656,-19019,377,882.05,,,,,,,,,,,,
114584,1563730166991,2,2.29,0.77,0.43,1.12,0.89,1.14,0.01,0.56,-2,-1,-3,1.14,7205,9,89,43,31,932,378.0,554,469,60,120.0,119,1,286,166,45,0,0,382,3,19125,378,648.46,,,,,,,,,,,,
114604,1563730167011,1,2.29,0.77,0.43,1.12,0.89,1.03,0.07,0.5,-1,-0,-2,1.03,7211,8,89,43,32,939,376.0,552,470,60,120.0,119,1,290,166,45,0,0,382,3,-6475,375,414.87,,,,,,,,,,,,
114624,1563730167031,-2,2.3,0.76,0.44,1.12,0.89,0.94,0.17,0.4,-1,-1,-2,0.96,7129,9,89,43,32,943,376.0,553,470,60,119.0,119,1,290,166,45,0,0,382,3,-19019,374,414.87,,,,,,,,,,,,
114644,1563730167051,1,2.29,0.76,0.44,1.12,0.9,1.0,0.15,0.48,-2,-4,-3,1.01,7102,9,89,43,33,947,374.0,552,470,60,120.0,119,1,292,166,45,0,0,382,-6656,-19126,374,882.05,45.748165,4.906592,38.7,182.0,0,0.0,-1,0.0,0.0,0,0.55,1.9107
114664,1563730167071,2,2.3,0.77,0.44,1.12,0.89,1.03,0.1,0.46,-2,-4,-2,1.03,7107,9,89,43,32,951,374.0,542,468,60,120.0,123,1,290,166,46,0,0,3873,-6656,-992,374,414.87,,,,,,,,,,,,
114684,1563730167093,0,2.3,0.77,0.43,1.13,0.89,0.95,0.07,0.41,-1,-3,-3,0.95,7067,9,89,43,33,957,371.0,542,467,60,120.0,123,1,292,171,46,0,0,3873,486,-6656,371,414.87,,,,,,,,,,,,
114704,1563730167113,-1,2.3,0.77,0.43,1.13,0.89,0.95,0.06,0.49,-1,-3,-2,0.96,7072,9,89,43,33,958,371.0,551,470,60,118.0,123,1,292,171,46,0,0,3873,0,-6656,370,882.05,,,,,,,,,,,,
114724,1563730167133,2,2.3,0.76,0.43,1.13,0.89,1.02,0.01,0.58,-2,-3,-2,1.02,7046,9,89,43,33,959,368.0,543,469,60,120.0,123,1,292,171,46,0,0,3873,0,-6656,368,882.05,,,,,,,,,,,,
114744,1563730167153,0,2.3,0.77,0.43,1.12,0.89,1.04,0.0,0.49,-1,-2,-1,1.04,7006,9,89,43,33,959,370.0,542,468,60,119.0,123,1,292,171,46,0,0,3873,0,3,370,414.87,45.748158,4.906592,37.94,182.3,0,0.0,-1,0.0,0.0,0,0.55,1.9124
114764,1563730167173,-1,2.3,0.77,0.44,1.13,0.89,0.99,0.04,0.45,-1,-3,-1,0.99,6996,9,89,43,34,959,368.0,540,468,60,119.0,122,1,295,176,45,0,0,367,0,8200,365,414.87,,,,,,,,,,,,
114784,1563730167201,0,2.31,0.77,0.44,1.13,0.89,1.07,-0.02,0.49,-2,-3,-1,1.07,6998,9,89,43,34,959,365.0,529,468,60,120.0,122,1,295,176,45,0,0,370,-6405,257,364,648.46,,,,,,,,,,,,
114804,1563730167221,-1,2.31,0.77,0.43,1.13,0.89,0.99,-0.05,0.37,-1,-3,-1,0.99,6941,9,89,43,34,958,366.0,526,468,60,121.0,122,1,295,176,45,0,0,371,-1268,1,366,414.87,,,,,,,,,,,,
114824,1563730167241,-1,2.31,0.77,0.44,1.12,0.89,1.0,-0.03,0.45,-1,-4,-1,1.0,6954,10,89,43,34,958,364.0,543,470,60,120.0,122,1,295,176,45,0,0,371,-1268,-6656,363,882.05,,,,,,,,,,,,
114844,1563730167261,1,2.31,0.76,0.44,1.13,0.9,1.07,-0.11,0.55,-1,-4,-1,1.08,6939,10,89,43,34,959,362.0,528,470,60,120.0,122,1,295,176,45,0,0,370,2790,486,362,648.46,45.748146,4.906591,37.79,182.4,0,0.0,-1,0.0,0.0,0,0.55,1.9141
114864,1563730167281,-1,2.31,0.77,0.44,1.13,0.9,1.02,-0.07,0.47,-0,-2,-1,1.02,6880,10,89,43,34,960,362.0,536,468,60,119.0,129,1,295,182,47,0,0,367,-6458,0,362,414.87,,,,,,,,,,,,
114884,1563730167301,1,2.32,0.77,0.44,1.12,0.9,1.02,-0.05,0.6,-1,-4,-1,1.02,6863,10,89,43,35,961,360.0,530,465,60,120.0,129,1,298,182,47,0,0,370,-14707,230,358,648.46,,,,,,,,,,,,
114904,1563730167321,-2,2.31,0.77,0.43,1.12,0.9,1.03,-0.05,0.46,-0,-1,-2,1.03,6873,10,89,43,35,962,359.0,526,470,60,121.0,129,1,298,182,47,0,0,367,-29302,0,359,648.46,,,,,,,,,,,,
114924,1563730167341,3,2.31,0.77,0.43,1.13,0.89,0.97,-0.01,0.53,-0,-2,-2,0.97,6855,10,89,43,35,962,359.0,531,472,60,120.0,129,1,298,182,47,0,0,368,-29302,-1268,358,1115.64,,,,,,,,,,,,
114944,1563730167361,-1,2.31,0.77,0.43,1.13,0.88,0.99,-0.04,0.49,-0,-2,-1,0.99,6825,8,89,43,35,961,359.0,508,466,60,121.0,129,1,298,187,47,0,0,363,-29302,3082,356,648.46,45.748135,4.90659,37.71,182.8,0,0.0,-1,0.0,0.0,0,0.55,1.9157
114964,1563730167381,-1,2.32,0.76,0.43,1.12,0.89,0.93,-0.0,0.45,-0,-2,-1,0.93,6823,10,89,43,36,960,356.0,528,467,60,118.0,135,1,301,187,48,0,0,365,4104,0,355,414.87,,,,,,,,,,,,
114984,1563730167401,0,2.33,0.77,0.43,1.13,0.89,1.03,-0.03,0.47,-0,-1,1,1.03,6798,10,89,43,36,958,356.0,517,468,60,120.0,135,1,301,187,48,0,0,364,4104,0,354,414.87,,,,,,,,,,,,
115004,1563730167421,-2,2.33,0.77,0.43,1.13,0.89,0.9,0.03,0.43,1,0,0,0.91,6781,10,89,43,36,953,354.0,526,468,60,119.0,135,1,304,193,48,0,0,364,-6644,2790,352,414.87,,,,,,,,,,,,
115024,1563730167441,1,2.32,0.78,0.43,1.13,0.89,1.0,-0.0,0.55,-0,-2,1,1.0,6759,11,89,43,36,952,354.0,516,467,60,120.0,135,1,301,187,48,0,0,363,28553,2790,354,648.46,,,,,,,,,,,,
115044,1563730167461,-1,2.32,0.77,0.43,1.14,0.9,0.9,0.01,0.43,1,-0,0,0.9,6773,10,89,43,37,950,351.0,529,475,60,120.0,135,1,304,193,48,0,0,407,28553,-14707,351,414.87,45.748127,4.90659,37.36,183.1,0,0.0,-1,0.0,0.0,0,0.55,1.9174
115064,1563730167481,1,2.34,0.76,0.44,1.13,0.9,0.97,-0.02,0.5,0,-1,1,0.97,6756,10,89,43,37,948,351.0,520,471,60,120.0,139,1,304,193,49,0,0,407,2811,-29302,353,648.46,,,,,,,,,,,,
115084,1563730167499,-1,2.34,0.77,0.43,1.13,0.89,0.91,0.0,0.5,1,-2,-0,0.91,6694,10,89,43,37,943,353.0,521,467,60,118.0,139,1,304,193,49,0,0,16393,2811,-29302,353,414.87,,,,,,,,,,,,
115104,1563730167519,1,2.33,0.77,0.43,1.13,0.89,0.95,-0.03,0.61,1,-4,-0,0.95,6701,10,89,43,37,941,352.0,514,468,60,120.0,139,1,304,193,49,0,0,16393,-30454,2790,352,648.46,,,,,,,,,,,,
115124,1563730167539,2,2.34,0.77,0.44,1.13,0.9,0.89,-0.04,0.61,1,-4,-0,0.89,6698,11,89,43,38,939,352.0,523,471,60,119.0,139,1,307,199,49,0,0,16393,-1246,-29978,352,414.87,,,,,,,,,,,,
115144,1563730167559,-1,2.35,0.77,0.43,1.14,0.9,0.94,-0.04,0.6,1,-3,-0,0.94,6691,10,89,43,38,935,352.0,515,470,60,120.0,139,1,307,199,49,0,0,16393,-30438,-29978,352,648.46,45.748112,4.906591,36.76,183.5,0,0.0,-1,0.0,0.0,0,0.55,1.9191
115164,1563730167579,2,2.35,0.77,0.44,1.13,0.89,0.85,-0.0,0.67,2,-2,0,0.85,6651,8,89,43,38,928,351.0,528,472,60,119.0,143,1,307,199,50,0,0,16393,-30438,-6640,351,882.05,,,,,,,,,,,,
115184,1563730167597,-1,2.34,0.78,0.44,1.13,0.89,0.93,-0.03,0.61,2,1,0,0.93,6632,11,89,43,38,923,349.0,521,467,60,120.0,143,1,307,199,50,0,0,16393,6870,2060,349,414.87,,,,,,,,,,,,
115204,1563730167617,2,2.34,0.77,0.43,1.14,0.9,0.95,-0.07,0.75,2,-2,0,0.95,6625,10,89,43,38,917,350.0,513,468,60,119.0,143,1,307,199,50,0,0,16393,-10554,3302,350,882.05,,,,,,,,,,,,
115224,1563730167637,-1,2.34,0.77,0.44,1.13,0.9,0.94,-0.05,0.52,2,-1,0,0.94,6625,9,89,43,39,911,346.0,509,467,60,119.0,143,1,310,204,50,0,0,18,-14714,-6640,346,414.87,,,,,,,,,,,,
115244,1563730167657,1,2.35,0.77,0.44,1.13,0.9,1.0,-0.07,0.56,2,-2,1,1.0,6623,11,89,43,39,903,347.0,506,473,60,121.0,143,1,310,204,50,0,0,347,-31206,-29978,347,882.05,45.748104,4.906591,36.4,183.7,0,0.0,-1,0.0,0.0,0,0.55,1.9207
115264,1563730167677,1,2.36,0.77,0.44,1.14,0.89,0.91,-0.07,0.58,2,-1,1,0.91,6592,11,89,43,39,894,345.0,516,472,60,120.0,146,1,310,204,51,0,0,347,-14714,3302,345,414.87,,,,,,,,,,,,
115284,1563730167699,-2,2.36,0.78,0.43,1.13,0.9,0.93,-0.09,0.55,2,-2,2,0.94,6583,11,89,43,39,891,344.0,507,467,60,120.0,146,1,310,204,51,0,0,351,-14714,2060,344,648.46,,,,,,,,,,,,
115304,1563730167719,2,2.36,0.77,0.44,1.13,0.89,0.9,-0.09,0.69,2,-4,1,0.9,6569,11,89,43,40,889,345.0,496,469,60,120.0,146,1,316,204,51,0,0,347,-31206,3183,345,882.05,,,,,,,,,,,,
115324,1563730167739,-1,2.35,0.78,0.44,1.13,0.9,0.93,-0.09,0.59,2,-1,2,0.93,6595,10,89,43,40,886,345.0,512,473,60,120.0,146,1,316,205,51,0,0,348,-31206,-30454,345,414.87,,,,,,,,,,,,
115344,1563730167759,0,2.35,0.78,0.44,1.13,0.9,0.94,-0.13,0.66,1,-0,3,0.95,6604,9,89,43,40,886,341.0,505,467,60,120.0,146,1,317,205,51,0,0,347,-31222,2811,341,648.46,45.748093,4.906591,35.99,184.0,0,0.0,-1,0.0,0.0,0,0.56,1.9224
115364,1563730167779,2,2.34,0.77,0.44,1.14,0.9,0.83,-0.09,0.7,2,2,3,0.83,6599,9,89,43,40,886,343.0,516,473,60,120.0,149,1,316,205,51,0,0,349,-31222,-30454,344,882.05,,,,,,,,,,,,
115384,1563730167799,-2,2.35,0.78,0.44,1.14,0.9,0.86,-0.08,0.59,2,4,4,0.87,6574,10,89,43,40,888,342.0,502,468,60,120.0,149,1,316,205,51,0,0,1309,2560,2811,342,414.87,,,,,,,,,,,,
115404,1563730167819,-1,2.35,0.77,0.44,1.14,0.9,0.83,-0.09,0.66,2,-1,3,0.84,6574,9,89,43,40,890,341.0,503,468,60,120.0,149,1,316,205,51,0,0,1309,13,-30454,341,882.05,,,,,,,,,,,,
115424,1563730167839,-1,2.34,0.77,0.44,1.13,0.89,0.77,-0.07,0.45,4,0,2,0.77,6585,12,89,43,41,891,340.0,515,474,60,118.0,149,1,323,207,51,0,0,1309,3346,-1246,340,1115.64,,,,,,,,,,,,
115444,1563730167859,-1,2.34,0.78,0.44,1.14,0.9,0.89,-0.07,0.4,3,2,2,0.9,6583,11,89,43,40,894,336.0,507,469,60,120.0,149,1,316,207,51,0,0,1309,13,2811,336,414.87,45.748085,4.90659,35.29,184.2,0,0.0,-1,0.0,0.0,0,0.56,1.9241
115464,1563730167879,1,2.34,0.77,0.44,1.14,0.9,0.83,-0.08,0.45,3,3,5,0.83,6581,12,89,43,41,895,340.0,517,472,60,119.0,150,1,323,207,51,0,0,1309,13,8841,340,882.05,,,,,,,,,,,,
115484,1563730167900,-1,2.34,0.78,0.44,1.13,0.9,0.83,-0.09,0.35,3,3,4,0.84,6544,12,89,43,41,896,339.0,517,469,60,119.0,150,1,323,207,51,0,0,1309,13,-30454,339,414.87,,,,,,,,,,,,
115504,1563730167920,-0,2.35,0.78,0.44,1.14,0.9,0.87,-0.07,0.47,3,-0,4,0.87,6539,12,89,43,41,898,338.0,507,471,60,120.0,150,1,323,207,51,0,0,355,13,-30454,338,882.05,,,,,,,,,,,,
115524,1563730167940,2,2.34,0.78,0.44,1.14,0.89,0.82,-0.03,0.43,4,0,3,0.82,6542,8,89,43,41,897,333.0,519,470,60,119.0,150,1,323,207,51,0,0,355,-6528,-30438,333,414.87,,,,,,,,,,,,
115544,1563730167960,-2,2.34,0.78,0.44,1.15,0.91,0.94,0.0,0.37,3,2,4,0.94,6528,12,89,43,41,898,337.0,502,467,60,119.0,150,1,323,207,51,0,0,355,-32559,-14714,337,414.87,45.748074,4.906591,35.39,184.6,0,0.0,-1,0.0,0.0,0,0.56,1.9257
115564,1563730167980,1,2.34,0.78,0.44,1.15,0.9,0.87,-0.02,0.48,3,2,4,0.87,6535,12,89,43,42,899,336.0,508,470,60,119.0,151,1,330,207,51,0,0,355,-6528,-10554,336,882.05,,,,,,,,,,,,
115584,1563730167992,2,2.34,0.78,0.44,1.13,0.91,0.72,0.03,0.44,4,4,4,0.72,6494,13,89,43,42,900,333.0,508,471,60,118.0,151,1,330,208,51,0,0,335,-12032,-10554,335,414.87,,,,,,,,,,,,
115604,1563730168012,-0,2.34,0.78,0.44,1.14,0.91,0.79,-0.01,0.48,5,3,2,0.79,6505,13,89,43,42,902,334.0,491,466,60,121.0,151,1,330,208,51,0,0,340,175,-10554,334,414.87,,,,,,,,,,,,
115624,1563730168032,1,2.34,0.77,0.44,1.14,0.9,0.79,-0.02,0.62,4,-1,3,0.79,6514,13,89,43,42,903,334.0,497,470,60,120.0,151,1,330,208,51,0,0,336,-12032,-31206,335,882.05,,,,,,,,,,,,
115644,1563730168052,1,2.34,0.78,0.44,1.14,0.91,0.72,-0.03,0.52,4,1,3,0.72,6546,13,89,43,42,905,332.0,506,474,60,119.0,151,1,330,208,51,0,0,340,175,3327,332,882.05,45.748066,4.906591,34.71,185.0,0,0.0,-1,0.0,0.0,0,0.56,1.9274
115664,1563730168072,-2,2.35,0.78,0.44,1.15,0.9,0.85,-0.02,0.46,4,2,3,0.85,6572,13,89,43,42,910,334.0,501,470,60,121.0,152,1,330,208,51,0,0,340,-12032,-31206,334,648.46,,,,,,,,,,,,
115684,1563730168096,1,2.34,0.78,0.44,1.14,0.9,0.74,-0.01,0.48,4,1,2,0.74,6558,12,89,43,42,912,330.0,513,473,60,119.0,152,1,330,208,51,0,0,335,-20736,3327,330,882.05,,,,,,,,,,,,
115704,1563730168116,-1,2.35,0.78,0.44,1.14,0.9,0.79,0.02,0.48,5,1,2,0.79,6560,12,89,43,42,913,330.0,512,470,60,118.0,152,1,330,208,51,0,0,338,-22016,-122,330,414.87,,,,,,,,,,,,
115724,1563730168136,0,2.34,0.78,0.45,1.14,0.91,0.86,0.02,0.59,4,-2,2,0.86,6544,13,89,43,42,915,330.0,497,468,60,121.0,152,1,330,208,51,0,0,338,165,-31222,330,648.46,,,,,,,,,,,,
115744,1563730168156,2,2.34,0.78,0.44,1.14,0.91,0.73,0.02,0.58,4,-1,2,0.74,6560,13,89,43,42,914,331.0,507,467,60,120.0,152,1,330,208,51,0,0,335,165,-122,331,882.05,45.748054,4.906591,33.88,185.4,0,0.0,-1,0.0,0.0,0,0.56,1.9291
115764,1563730168176,-2,2.33,0.79,0.44,1.14,0.9,0.86,0.01,0.48,4,0,4,0.86,6499,13,89,43,42,913,329.0,510,472,60,121.0,154,1,330,208,51,0,0,285,170,-31206,329,414.87,,,,,,,,,,,,
115784,1563730168200,-1,2.34,0.78,0.45,1.14,0.91,0.92,0.03,0.59,3,-1,4,0.92,6430,11,89,43,43,911,331.0,509,471,60,120.0,154,1,337,208,51,0,0,285,170,-10554,331,648.46,,,,,,,,,,,,
115804,1563730168220,1,2.34,0.78,0.44,1.14,0.91,0.8,-0.03,0.7,3,-2,5,0.8,6330,9,89,43,43,911,333.0,505,473,60,119.0,154,1,336,209,51,0,0,285,-20736,-31206,333,882.05,,,,,,,,,,,,
115824,1563730168240,1,2.35,0.78,0.44,1.14,0.91,0.65,-0.06,0.77,3,0,5,0.65,6254,13,89,43,43,912,334.0,497,470,60,119.0,154,1,336,210,51,0,0,285,-20736,3327,334,414.87,,,,,,,,,,,,
115844,1563730168260,1,2.34,0.78,0.44,1.14,0.91,0.6,-0.04,0.79,4,2,5,0.6,6216,13,89,43,44,914,331.0,484,468,60,120.0,154,1,342,210,51,0,0,285,170,2560,331,414.87,45.748047,4.90659,34.07,185.8,0,0.0,-1,0.0,0.0,0,0.56,1.9307
115864,1563730168280,-1,2.35,0.78,0.45,1.14,0.91,0.71,-0.04,0.71,4,3,5,0.71,6220,13,89,43,44,918,329.0,467,470,60,120.0,147,1,342,210,49,0,0,285,170,3327,329,414.87,,,,,,,,,,,,
115884,1563730168300,-2,2.34,0.78,0.45,1.14,0.91,0.84,-0.04,0.66,4,4,6,0.84,6223,13,89,43,44,924,331.0,470,467,60,120.0,147,1,342,210,49,0,0,285,-23296,6668,331,648.46,,,,,,,,,,,,
115904,1563730168320,-1,2.34,0.78,0.45,1.15,0.9,0.96,-0.02,0.72,3,2,6,0.96,6241,13,89,43,44,928,332.0,470,472,60,119.0,147,1,342,210,49,0,0,18,165,4838,332,648.46,,,,,,,,,,,,
115924,1563730168340,0,2.35,0.78,0.44,1.15,0.9,0.86,-0.01,0.69,3,1,6,0.86,6258,13,89,43,45,932,330.0,472,470,60,119.0,147,1,349,210,49,0,0,18,-23296,3346,330,882.05,,,,,,,,,,,,
115944,1563730168360,2,2.34,0.78,0.45,1.14,0.91,0.71,-0.03,0.67,4,2,6,0.71,6323,13,89,43,45,934,331.0,478,468,60,119.0,147,1,349,212,49,0,0,18,-24576,-31222,331,414.87,45.748032,4.906589,34.15,186.1,0,0.0,-1,0.0,0.0,0,0.56,1.9324
115964,1563730168380,2,2.34,0.78,0.44,1.15,0.9,0.74,-0.03,0.51,4,4,7,0.74,6328,13,89,43,44,936,329.0,476,467,60,120.0,151,1,343,212,50,0,0,18,160,2560,329,414.87,,,,,,,,,,,,
115984,1563730168400,-2,2.34,0.78,0.45,1.14,0.9,0.86,-0.06,0.4,4,4,7,0.86,6325,13,89,43,45,934,329.0,484,471,60,120.0,151,1,349,212,50,0,0,18,160,2560,329,648.46,,,,,,,,,,,,
116004,1563730168420,-2,2.33,0.78,0.44,1.15,0.91,0.88,-0.0,0.43,3,3,7,0.88,6330,13,89,43,45,931,329.0,486,473,60,120.0,151,1,349,212,50,0,0,18,160,13,329,648.46,,,,,,,,,,,,
116024,1563730168440,2,2.34,0.78,0.44,1.15,0.9,0.75,-0.04,0.44,3,2,6,0.75,6319,13,89,43,45,927,327.0,490,474,60,119.0,151,1,349,212,50,0,0,18,-24576,2560,328,882.05,,,,,,,,,,,,
116044,1563730168460,1,2.34,0.78,0.44,1.14,0.91,0.69,-0.02,0.46,3,3,6,0.69,6308,13,89,43,45,922,327.0,489,471,60,120.0,151,1,349,212,50,0,0,18,160,2560,327,414.87,45.748024,4.906588,34.0,186.5,0,0.0,-1,0.0,0.0,0,0.56,1.9341
116064,1563730168480,-1,2.34,0.78,0.44,1.15,0.91,0.72,-0.02,0.4,4,3,4,0.72,6306,13,89,43,45,919,326.0,489,467,60,119.0,152,1,349,212,50,0,0,326,-24576,4838,325,414.87,,,,,,,,,,,,
116084,1563730168500,-1,2.34,0.77,0.44,1.15,0.91,0.79,0.01,0.47,3,0,4,0.79,6308,13,89,43,44,914,327.0,471,463,60,120.0,152,1,343,210,50,0,0,331,155,4838,327,648.46,,,,,,,,,,,,
116104,1563730168520,-1,2.35,0.78,0.44,1.15,0.91,0.78,0.01,0.56,2,-3,3,0.78,6289,13,89,43,45,911,326.0,475,468,60,121.0,152,1,349,212,50,0,0,334,155,3346,326,648.46,,,,,,,,,,,,
116124,1563730168540,-1,2.35,0.78,0.44,1.14,0.9,0.68,-0.05,0.58,2,-3,3,0.68,6266,13,89,43,45,909,327.0,493,475,60,119.0,152,1,349,212,50,0,0,336,155,2560,327,882.05,,,,,,,,,,,,
116144,1563730168560,2,2.34,0.78,0.44,1.15,0.9,0.57,-0.05,0.6,3,-2,3,0.57,6256,13,89,43,45,910,327.0,487,468,60,119.0,152,1,349,212,50,0,0,333,-25856,-31222,327,414.87,45.748016,4.906587,33.67,186.7,0,0.0,-1,0.0,0.0,0,0.56,1.9357
116164,1563730168580,1,2.35,0.78,0.44,1.14,0.91,0.57,-0.06,0.54,4,1,2,0.57,6241,13,89,43,45,912,327.0,482,468,60,119.0,153,1,349,212,50,0,0,335,-24576,13,327,414.87,,,,,,,,,,,,
116184,1563730168600,-2,2.35,0.78,0.44,1.14,0.9,0.71,-0.06,0.52,4,2,3,0.71,6250,13,89,43,45,915,326.0,471,466,60,121.0,153,1,349,212,50,0,0,334,-23296,2560,326,414.87,,,,,,,,,,,,
116204,1563730168620,-2,2.35,0.77,0.44,1.14,0.9,0.83,-0.01,0.56,4,2,3,0.83,6254,13,89,43,45,918,327.0,472,468,60,120.0,153,1,349,212,50,0,0,336,155,-122,327,648.46,,,,,,,,,,,,
116224,1563730168640,-0,2.35,0.77,0.43,1.14,0.9,0.82,0.03,0.62,3,0,3,0.83,6260,13,89,43,45,922,327.0,471,470,60,120.0,153,1,349,212,50,0,0,333,-24576,4838,327,882.05,,,,,,,,,,,,
116244,1563730168660,1,2.35,0.77,0.44,1.13,0.9,0.72,-0.03,0.71,3,-1,4,0.72,6266,11,89,43,45,927,324.0,475,471,60,120.0,153,1,349,212,50,0,0,333,-24576,-6528,324,882.05,45.748009,4.906585,33.62,187.0,0,0.0,-1,0.0,0.0,0,0.56,1.9374
116264,1563730168680,1,2.37,0.78,0.44,1.14,0.9,0.59,-0.12,0.74,3,1,4,0.6,6245,13,89,43,45,929,326.0,485,472,60,118.0,153,1,349,212,50,0,0,333,160,-6528,326,414.87,,,,,,,,,,,,
116284,1563730168700,2,2.36,0.78,0.44,1.13,0.9,0.57,-0.03,0.64,4,4,5,0.57,6233,13,89,43,45,930,326.0,483,466,60,120.0,153,1,349,212,50,0,0,333,155,13,326,414.87,,,,,,,,,,,,
116304,1563730168720,-1,2.36,0.78,0.44,1.14,0.9,0.66,-0.02,0.55,4,5,5,0.66,6229,13,89,43,45,933,325.0,472,468,60,121.0,153,1,349,212,50,0,0,333,-25856,4838,325,414.87,,,,,,,,,,,,
116324,1563730168740,-1,2.36,0.78,0.44,1.13,0.9,0.76,-0.01,0.54,4,2,5,0.76,6231,13,89,43,45,934,326.0,472,470,60,120.0,153,1,349,212,50,0,0,326,-25856,4838,326,648.46,,,,,,,,,,,,
116344,1563730168760,-1,2.36,0.78,0.44,1.14,0.9,0.84,0.01,0.57,3,-1,5,0.84,6220,12,89,43,46,934,326.0,476,471,60,120.0,153,1,355,212,50,0,0,332,-25856,4838,326,882.05,45.747997,4.906583,33.26,187.3,0,0.0,-1,0.0,0.0,0,0.57,1.9391
116364,1563730168780,-0,2.36,0.77,0.44,1.14,0.9,0.79,-0.01,0.57,3,-2,6,0.79,6204,12,89,43,46,934,327.0,485,471,60,120.0,152,1,355,212,50,0,0,330,-24576,-6528,326,882.05,,,,,,,,,,,,
116384,1563730168802,0,2.36,0.78,0.44,1.13,0.9,0.69,-0.05,0.54,4,-1,7,0.69,6229,12,89,43,46,933,328.0,489,471,60,118.0,152,1,355,213,50,0,0,328,150,3346,328,882.05,,,,,,,,,,,,
116404,1563730168822,1,2.38,0.77,0.44,1.14,0.9,0.68,-0.05,0.53,5,-1,6,0.68,6204,12,89,43,46,933,329.0,494,472,60,119.0,152,1,355,213,50,0,0,335,-27136,13,329,414.87,,,,,,,,,,,,
116424,1563730168842,2,2.37,0.78,0.44,1.14,0.9,0.69,-0.06,0.42,6,-2,6,0.69,6218,12,89,43,45,933,327.0,481,468,60,120.0,152,1,349,213,50,0,0,330,-25856,-12032,327,414.87,,,,,,,,,,,,
116444,1563730168862,-1,2.37,0.78,0.44,1.14,0.91,0.78,-0.04,0.29,6,-1,6,0.78,6223,12,89,43,45,932,328.0,472,467,60,121.0,152,1,349,212,50,0,0,329,150,-31222,328,414.87,45.747986,4.906581,32.77,187.5,0,0.0,-1,0.0,0.0,0,0.57,1.9407
116464,1563730168882,-2,2.37,0.78,0.44,1.14,0.9,0.84,0.04,0.26,6,-1,6,0.84,6231,12,89,43,46,932,327.0,479,467,60,121.0,152,1,355,213,50,0,0,329,145,2560,327,414.87,,,,,,,,,,,,
116484,1563730168899,-2,2.38,0.78,0.44,1.14,0.91,0.83,0.09,0.25,5,-1,7,0.83,6229,12,89,43,46,933,324.0,477,470,60,121.0,152,1,355,213,50,0,0,329,145,4838,324,648.46,,,,,,,,,,,,
116504,1563730168919,0,2.37,0.78,0.44,1.14,0.9,0.73,0.08,0.34,5,-2,6,0.74,6243,12,89,43,46,934,325.0,488,472,60,120.0,152,1,355,213,50,0,0,329,-28416,4838,325,882.05,,,,,,,,,,,,
116524,1563730168939,1,2.36,0.78,0.44,1.15,0.91,0.63,0.04,0.39,5,-2,6,0.63,6220,12,89,43,46,935,324.0,484,473,60,118.0,152,1,355,213,50,0,0,33,145,-6528,325,648.46,,,,,,,,,,,,
116544,1563730168959,1,2.37,0.78,0.44,1.15,0.9,0.56,0.01,0.39,6,-1,4,0.56,6188,12,89,43,46,934,325.0,478,467,60,120.0,152,1,354,212,50,0,0,324,-25856,3346,325,414.87,45.747978,4.90658,33.0,187.8,0,0.0,-1,0.0,0.0,0,0.57,1.9424
116564,1563730168979,1,2.37,0.78,0.44,1.14,0.91,0.65,0.04,0.36,6,-1,4,0.65,6188,12,89,43,45,933,324.0,471,466,60,120.0,150,1,348,212,49,0,0,322,-27136,3346,325,414.87,,,,,,,,,,,,
116584,1563730168991,-0,2.36,0.79,0.44,1.15,0.91,0.78,0.02,0.38,5,-4,3,0.78,6179,12,89,43,45,933,324.0,475,464,60,120.0,150,1,348,212,49,0,0,327,-27136,-6528,324,414.87,,,,,,,,,,,,
116604,1563730169011,-1,2.36,0.77,0.44,1.14,0.91,0.89,0.05,0.38,5,-6,4,0.89,6181,12,89,43,46,932,325.0,476,468,60,120.0,150,1,354,212,49,0,0,326,150,-32559,324,648.46,,,,,,,,,,,,
116624,1563730169031,-2,2.36,0.78,0.44,1.14,0.91,0.95,0.05,0.47,4,-10,5,0.95,6175,11,89,43,46,931,325.0,467,471,60,120.0,150,1,354,212,49,0,0,329,-28416,2560,325,648.46,,,,,,,,,,,,
116644,1563730169051,-1,2.34,0.78,0.45,1.14,0.91,0.91,0.03,0.53,4,-13,5,0.91,6169,12,89,43,46,930,324.0,472,471,60,120.0,150,1,354,212,49,0,0,329,-27136,3346,324,882.05,45.747967,4.906577,32.96,188.1,0,0.0,-1,0.0,0.0,0,0.57,1.9441
116664,1563730169071,1,2.33,0.78,0.45,1.15,0.91,0.79,-0.02,0.57,4,-13,5,0.79,6196,12,89,43,46,929,325.0,475,473,60,119.0,150,1,354,212,49,0,0,327,145,2560,325,882.05,,,,,,,,,,,,
116684,1563730169099,1,2.33,0.78,0.45,1.14,0.91,0.68,-0.04,0.65,4,-10,6,0.68,6188,12,89,43,46,928,325.0,481,472,60,119.0,150,1,354,212,49,0,0,330,-27136,-6528,326,414.87,,,,,,,,,,,,
116704,1563730169119,2,2.31,0.78,0.44,1.15,0.91,0.62,-0.02,0.61,4,-6,7,0.62,6196,12,89,43,46,927,324.0,483,471,60,119.0,150,1,354,212,49,0,0,333,-27136,-32559,324,1115.64,,,,,,,,,,,,
116724,1563730169139,1,2.32,0.78,0.44,1.15,0.91,0.65,-0.04,0.56,5,-3,6,0.65,6210,12,89,43,46,926,325.0,483,473,60,119.0,150,1,355,213,49,0,0,447,-27136,3346,323,414.87,,,,,,,,,,,,
116744,1563730169159,-1,2.31,0.78,0.44,1.14,0.91,0.79,-0.01,0.56,4,-2,6,0.79,6196,11,89,43,46,925,323.0,481,468,60,120.0,150,1,354,212,49,0,0,447,150,175,323,414.87,45.747959,4.906575,32.82,188.2,0,0.0,-1,0.0,0.0,0,0.57,1.9457
116764,1563730169179,-1,2.31,0.78,0.44,1.14,0.9,0.91,0.04,0.57,4,-1,6,0.91,6208,11,89,43,46,925,322.0,475,470,60,120.0,155,1,355,213,50,0,0,447,-27136,-20736,324,648.46,,,,,,,,,,,,
116784,1563730169197,-0,2.31,0.78,0.45,1.15,0.9,0.95,0.07,0.66,3,-2,6,0.95,6208,12,89,43,46,924,324.0,464,468,60,121.0,155,1,355,213,50,0,0,447,-27136,175,324,648.46,,,,,,,,,,,,
116804,1563730169217,0,2.31,0.78,0.45,1.14,0.91,0.93,0.09,0.69,3,-3,7,0.93,6188,12,89,43,46,922,321.0,472,467,60,120.0,155,1,354,212,50,0,0,447,-27136,-6528,321,648.46,,,,,,,,,,,,
116824,1563730169237,2,2.29,0.79,0.44,1.15,0.91,0.84,0.06,0.74,3,-2,7,0.84,6181,12,89,43,46,920,322.0,470,468,60,119.0,155,1,354,212,50,0,0,323,-27136,-20736,322,648.46,,,,,,,,,,,,
116844,1563730169257,1,2.29,0.78,0.44,1.14,0.92,0.72,0.04,0.76,3,-1,7,0.72,6143,12,89,43,46,918,320.0,478,470,60,118.0,155,1,354,212,50,0,0,326,-27136,-12032,318,414.87,45.747948,4.906572,32.95,188.6,0,0.0,-1,0.0,0.0,0,0.57,1.9474
116864,1563730169277,4,2.27,0.79,0.45,1.15,0.91,0.63,0.04,0.75,3,2,7,0.63,6129,12,89,43,46,916,319.0,473,466,60,119.0,154,1,354,212,49,0,0,328,-28416,-20736,319,414.87,,,,,,,,,,,,
116884,1563730169297,3,2.28,0.78,0.45,1.15,0.9,0.61,0.08,0.76,3,3,6,0.62,6123,11,89,43,46,914,318.0,468,467,60,120.0,154,1,354,212,49,0,0,329,145,170,318,414.87,,,,,,,,,,,,
116904,1563730169317,4,2.26,0.78,0.45,1.15,0.91,0.58,0.14,0.67,3,6,6,0.6,6111,11,89,43,46,913,319.0,463,468,60,120.0,154,1,354,212,49,0,0,328,-27136,170,318,414.87,,,,,,,,,,,,
116924,1563730169337,4,2.26,0.79,0.44,1.15,0.91,0.61,0.17,0.56,2,7,6,0.63,6099,11,89,43,46,913,321.0,471,468,60,119.0,154,1,353,212,49,0,0,328,-25856,160,314,414.87,,,,,,,,,,,,
116944,1563730169357,2,2.25,0.79,0.45,1.14,0.92,0.69,0.18,0.5,2,8,5,0.71,6111,11,89,43,46,914,318.0,461,467,60,120.0,154,1,354,212,49,0,0,328,145,150,313,414.87,45.747944,4.90657,32.87,188.9,0,0.0,-1,0.0,0.0,0,0.57,1.9491
116964,1563730169377,-0,2.25,0.78,0.45,1.14,0.92,0.79,0.15,0.44,1,8,5,0.8,6135,11,89,43,46,914,317.0,460,467,60,120.0,156,1,354,212,49,0,0,328,-28416,-25856,311,648.46,,,,,,,,,,,,
116984,1563730169399,-0,2.25,0.78,0.45,1.14,0.92,0.87,0.13,0.47,-1,6,4,0.88,6153,11,89,43,46,914,317.0,456,465,60,121.0,156,1,354,212,49,0,0,29,-28416,-27136,311,648.46,,,,,,,,,,,,
117004,1563730169419,2,2.24,0.79,0.45,1.15,0.91,0.91,0.16,0.5,-1,5,4,0.92,6206,10,89,43,46,913,314.0,465,469,60,121.0,156,1,355,213,49,0,0,321,135,140,311,648.46,,,,,,,,,,,,
117024,1563730169439,4,2.24,0.78,0.45,1.15,0.91,0.79,0.14,0.54,-1,4,3,0.8,6285,10,89,43,45,912,315.0,483,473,60,119.0,156,1,349,212,49,0,0,321,-29696,-27136,309,1115.64,,,,,,,,,,,,
117044,1563730169459,3,2.26,0.78,0.44,1.14,0.92,0.72,0.11,0.48,-1,6,2,0.73,6323,10,89,43,45,910,314.0,486,468,60,120.0,156,1,349,212,49,0,0,321,135,140,308,414.87,45.747932,4.906567,32.84,189.3,0,0.0,-1,0.0,0.0,0,0.57,1.9507
117064,1563730169479,0,2.26,0.78,0.44,1.15,0.9,0.84,0.14,0.35,-1,6,1,0.85,6347,9,89,43,44,908,313.0,485,466,60,121.0,162,1,343,212,50,0,0,319,-32256,140,308,414.87,,,,,,,,,,,,
117084,1563730169499,1,2.26,0.78,0.44,1.14,0.91,0.95,0.19,0.33,-2,5,2,0.97,6371,9,89,43,44,907,311.0,492,472,60,120.0,162,1,343,210,50,0,0,319,-32256,-29696,306,648.46,,,,,,,,,,,,
117104,1563730169519,4,2.26,0.78,0.44,1.15,0.9,0.86,0.17,0.36,-2,4,1,0.88,6384,7,89,43,44,907,311.0,491,471,60,120.0,162,1,343,209,50,0,0,685,-32256,-29696,305,882.05,,,,,,,,,,,,
117124,1563730169539,3,2.27,0.78,0.45,1.15,0.9,0.76,0.19,0.32,-2,4,0,0.78,6371,5,89,43,43,902,309.0,508,473,60,119.0,162,1,336,208,50,0,0,685,32000,-30976,305,414.87,,,,,,,,,,,,
117144,1563730169559,1,2.28,0.78,0.44,1.15,0.91,0.83,0.18,0.27,-2,2,-1,0.85,6388,0,89,43,41,899,308.0,503,466,60,120.0,162,1,323,206,50,0,0,685,120,-32256,301,414.87,45.747925,4.906565,32.35,189.5,0,0.0,-1,0.0,0.0,0,0.57,1.9524
117164,1563730169579,1,2.28,0.79,0.44,1.14,0.91,0.93,0.18,0.33,-3,-1,-1,0.95,6360,0,89,43,40,896,307.0,488,466,60,121.0,162,1,316,205,49,0,0,922,30720,120,303,648.46,,,,,,,,,,,,
117184,1563730169599,4,2.26,0.78,0.44,1.15,0.9,0.94,0.17,0.37,-3,-4,-2,0.95,6330,0,89,43,39,893,305.0,496,474,60,119.0,162,1,310,204,49,0,0,922,29440,32000,299,882.05,,,,,,,,,,,,
