"Interval"|"ms"|0|0|1,"Utc"|"ms"|0|0|1,"FB_p"|"bar"|0|300|50,"Volant"|"F"|0.0|300.0|50,"xFR"|"mm"|0.0|5.0|50,"xRR"|"mm"|0.0|5.0|50,"xFL"|"mm"|0.0|5.0|50,"xRL"|"mm"|0.0|5.0|50,"AccelX"|"G"|-3.0|3.0|50,"AccelY"|"G"|-3.0|3.0|50,"AccelZ"|"G"|-3.0|3.0|50,"Yaw"|"Deg/Sec"|-120|120|50,"Pitch"|"Deg/Sec"|-120|120|50,"Roll"|"Deg/Sec"|-120|120|50,"Gsum"|"G"|0.0|3.0|50,"RPM"|""|0|14000|50,"TPS"|"%"|0|100|50,"WaterTemp"|"?C"|0|300|50,"AirTemp"|"?C"|-1000|1000|50,"MAP"|"KPa"|0|255|50,"Lambda"|""|0|1024|50,"WheelSpeed"|"MPH"|0.0|150.0|50,"OilPress"|"PSI"|0|150|50,"FuelPress"|"PSI"|0|150|50,"OilTemp"|"F"|0|300|50,"Battery"|"Volts"|0.0|20.0|50,"FuelCon"|"L/h"|-1000|1000|50,"Gear"|""|0|10|50,"Advance"|"Deg"|-360|360|50,"Injection"|"ms"|-1000|1000|50,"FuelCon"|"L/100km"|-1000|1000|50,"LC_But_Pres"|""|-1000|1000|50,"LC_Active"|""|-1000|1000|50,"RD_Speed"|""|-1000|1000|50,"RUD_Speed"|""|-1000|1000|50,"LD_Speed"|""|-1000|1000|50,"LUD_Speed"|""|-1000|1000|50,"Ana1"|"bar"|-1000.0|1000.0|50,"Latitude"|"Degrees"|-180.0|180.0|10,"Longitude"|"Degrees"|-180.0|180.0|10,"Speed"|"kph"|0.0|150.0|10,"Altitude"|"m"|0.0|4000.0|10,"LapCount"|""|0|0|10,"LapTime"|"Min"|0.0|0.0|10,"Sector"|""|0|0|10,"SectorTime"|"Min"|0.0|0.0|10,"ElapsedTime"|"Min"|0.0|0.0|10,"CurrentLap"|""|0|0|10,"Distance"|"km"|0.0|0.0|10,"SessionTime"|"Min"|0.0|0.0|10
57403,1562275710018,-2,2.39,1.6,0.32,2.12,0.09,0.81,0.03,0.57,-0,-1,-0,0.81,0,0,33,34,98,501,0.0,105,85,60,118.0,0,1,0,0,0,0,0,0,250,250,0,5694.0,,,,,,,,,,,,
57423,1562275710038,-1,2.39,1.61,0.32,2.11,0.1,0.81,0.03,0.57,-0,-1,-0,0.81,0,0,33,34,98,501,0.0,105,85,60,118.0,0,1,0,0,0,0,0,0,250,250,0,5694.0,,,,,,,,,,,,
57443,1562275710058,-0,2.39,1.6,0.31,2.11,0.1,0.81,0.03,0.57,-0,-1,-0,0.81,0,0,33,34,98,501,0.0,105,86,60,118.0,0,1,0,0,0,0,0,0,250,250,0,5694.0,45.747559,4.90921,0.0,421.7,0,0.0,-1,0.0,0.0,0,0.01,0.9574
57463,1562275710078,-1,2.38,1.6,0.31,2.12,0.1,0.81,0.03,0.57,-0,-1,-0,0.81,0,0,33,34,98,501,0.0,105,86,60,118.0,0,1,0,0,0,0,0,0,250,250,0,5694.0,,,,,,,,,,,,
57483,1562275710105,-1,2.38,1.6,0.3,2.12,0.11,0.81,0.03,0.57,-0,-1,-0,0.81,0,0,33,34,98,501,0.0,105,85,60,118.0,0,1,0,0,0,0,0,0,250,250,0,5694.0,,,,,,,,,,,,
57503,1562275710125,-1,2.38,1.61,0.3,2.11,0.11,0.81,0.03,0.57,-0,-1,-0,0.81,0,0,33,34,98,501,0.0,105,86,60,118.0,0,1,0,0,0,0,0,0,250,250,0,5694.0,,,,,,,,,,,,
57523,1562275710145,-1,2.38,1.61,0.29,2.12,0.12,0.81,0.03,0.57,-0,-1,-0,0.81,0,0,33,34,98,501,0.0,105,85,60,118.0,0,1,0,0,0,0,0,0,250,250,0,5694.0,,,,,,,,,,,,
57543,1562275710165,-1,2.39,1.6,0.29,2.11,0.13,0.81,0.03,0.57,-0,-1,-0,0.81,0,0,33,34,98,501,0.0,105,86,60,118.0,0,1,0,0,0,0,0,0,250,250,0,5694.0,45.747559,4.90921,0.0,421.7,0,0.0,-1,0.0,0.0,0,0.01,0.959
57563,1562275710185,-1,2.39,1.6,0.28,2.1,0.14,0.81,0.03,0.57,-0,-1,-0,0.81,0,0,33,34,98,501,0.0,105,85,60,118.0,0,1,0,0,0,0,0,0,250,250,0,5694.0,,,,,,,,,,,,
57583,1562275710205,-1,2.39,1.6,0.27,2.11,0.13,0.81,0.03,0.57,-0,-1,-0,0.81,0,0,33,34,98,501,0.0,105,86,60,118.0,0,1,0,0,0,0,0,0,250,250,0,5694.0,,,,,,,,,,,,
57603,1562275710225,0,2.38,1.6,0.27,2.11,0.14,0.81,0.03,0.57,-0,-1,-0,0.81,0,0,33,34,98,501,0.0,105,85,60,118.0,0,1,0,0,0,0,0,0,250,250,0,5694.0,,,,,,,,,,,,
57623,1562275710245,-0,2.38,1.6,0.28,2.1,0.14,0.81,0.03,0.57,-0,-1,-0,0.82,0,0,33,34,98,501,0.0,105,86,60,118.0,0,1,0,0,0,0,0,0,250,250,0,5694.0,,,,,,,,,,,,
57643,1562275710265,0,2.38,1.59,0.27,2.11,0.14,0.81,0.03,0.57,-0,-1,-0,0.82,0,0,33,34,98,501,0.0,105,85,60,118.0,0,1,0,0,0,0,0,0,250,250,0,5694.0,45.747559,4.90921,0.0,421.7,0,0.0,-1,0.0,0.0,0,0.01,0.9607
57663,1562275710285,0,2.38,1.6,0.28,2.1,0.14,0.82,0.03,0.57,-0,-1,-0,0.82,0,0,33,34,98,501,0.0,105,86,60,118.0,0,1,0,0,0,0,0,0,250,250,0,5694.0,,,,,,,,,,,,
57683,1562275710305,-1,2.39,1.59,0.28,2.11,0.14,0.82,0.03,0.57,0,-1,-0,0.82,0,0,33,34,98,501,0.0,105,85,60,118.0,0,1,0,0,0,0,0,0,250,250,0,5694.0,,,,,,,,,,,,
57703,1562275710325,-0,2.39,1.6,0.29,2.1,0.14,0.82,0.03,0.57,0,-1,-0,0.82,0,0,33,34,98,501,0.0,105,85,60,118.0,0,1,0,0,0,0,0,0,250,250,0,5694.0,,,,,,,,,,,,
57723,1562275710345,-2,2.39,1.59,0.31,2.1,0.13,0.82,0.03,0.57,0,-1,-0,0.82,0,0,33,34,98,501,0.0,105,86,60,118.0,0,1,0,0,0,0,0,0,250,250,0,5694.0,,,,,,,,,,,,
57743,1562275710365,-2,2.39,1.59,0.32,2.1,0.13,0.81,0.03,0.57,0,-1,-0,0.82,0,0,33,34,98,501,0.0,105,85,60,118.0,0,1,0,0,0,0,0,0,250,250,0,5694.0,45.747559,4.90921,0.0,421.7,0,0.0,-1,0.0,0.0,0,0.01,0.9624
57763,1562275710385,0,2.38,1.58,0.35,2.1,0.12,0.81,0.03,0.57,0,-0,-0,0.81,0,0,33,34,98,501,0.0,105,86,60,118.0,0,1,0,0,0,0,0,0,250,250,0,5880.87,,,,,,,,,,,,
57783,1562275710405,0,2.37,1.59,0.39,2.1,0.16,0.81,0.03,0.57,0,-0,-0,0.81,0,0,33,34,98,501,0.0,105,85,60,118.0,0,1,0,0,0,0,0,0,250,250,0,5694.0,,,,,,,,,,,,
57803,1562275710425,-1,2.38,1.58,0.42,2.1,0.18,0.81,0.03,0.56,0,-0,-0,0.82,0,0,33,34,98,501,0.0,105,86,60,118.0,0,1,0,0,0,0,0,0,250,250,0,5694.0,,,,,,,,,,,,
57823,1562275710445,-2,2.39,1.57,0.43,2.09,0.19,0.82,0.03,0.57,0,-0,-0,0.82,0,0,33,34,98,501,0.0,105,85,60,118.0,0,1,0,0,0,0,0,0,250,250,0,5694.0,,,,,,,,,,,,
57843,1562275710465,-1,2.38,1.56,0.44,2.09,0.18,0.82,0.03,0.57,0,-0,-0,0.82,0,0,33,34,98,501,0.0,105,85,60,118.0,0,1,0,0,0,0,0,0,250,250,0,5694.0,45.747559,4.90921,0.0,421.7,0,0.0,-1,0.0,0.0,0,0.01,0.964
57863,1562275710485,-0,2.37,1.55,0.44,2.09,0.19,0.82,0.03,0.57,0,-0,-0,0.82,0,0,33,34,98,501,0.0,105,85,60,118.0,0,1,0,0,0,0,0,0,250,250,0,5694.0,,,,,,,,,,,,
57883,1562275710505,-2,2.39,1.55,0.44,2.1,0.18,0.82,0.03,0.57,0,-0,-0,0.82,0,0,33,34,98,501,0.0,105,85,60,118.0,0,1,0,0,0,0,0,0,250,250,0,5694.0,,,,,,,,,,,,
57903,1562275710525,-2,2.39,1.55,0.43,2.09,0.18,0.82,0.03,0.57,0,-0,-0,0.82,0,0,33,34,98,501,0.0,105,85,60,118.0,0,1,0,0,0,0,0,0,250,250,0,5694.0,,,,,,,,,,,,
57923,1562275710545,0,2.38,1.55,0.44,2.09,0.18,0.81,0.03,0.57,0,-0,-0,0.82,0,0,33,34,98,501,0.0,105,86,60,118.0,0,1,0,0,0,0,0,0,250,250,0,5694.0,,,,,,,,,,,,
57943,1562275710565,-1,2.38,1.55,0.43,2.1,0.17,0.82,0.03,0.57,0,-1,-0,0.82,0,0,33,34,98,501,0.0,105,86,60,118.0,0,1,0,0,0,0,0,0,250,250,0,5694.0,45.747559,4.90921,0.0,421.7,0,0.0,-1,0.0,0.0,0,0.01,0.9657
57963,1562275710585,-0,2.38,1.55,0.43,2.1,0.16,0.82,0.03,0.57,0,-1,-0,0.82,0,0,33,34,98,501,0.0,105,85,60,118.0,0,1,0,0,0,0,0,0,250,250,0,5694.0,,,,,,,,,,,,
57983,1562275710605,-0,2.39,1.55,0.42,2.1,0.16,0.81,0.03,0.57,0,-1,-0,0.81,0,0,33,34,98,501,0.0,105,85,60,118.0,0,1,0,0,0,0,0,0,250,250,0,5694.0,,,,,,,,,,,,
58003,1562275710625,-0,2.38,1.55,0.41,2.09,0.15,0.81,0.03,0.57,0,-1,-0,0.81,0,0,33,34,98,501,0.0,105,86,60,118.0,0,1,0,0,0,0,0,0,250,250,0,5694.0,,,,,,,,,,,,
58023,1562275710645,-1,2.38,1.55,0.39,2.09,0.13,0.81,0.03,0.57,0,-1,-0,0.81,0,0,33,34,98,501,0.0,105,86,60,118.0,0,1,0,0,0,0,0,0,250,250,0,5694.0,,,,,,,,,,,,
58043,1562275710665,-2,2.38,1.55,0.36,2.08,0.11,0.81,0.03,0.57,0,-1,-0,0.81,0,0,33,34,98,501,0.0,105,86,60,118.0,0,1,0,0,0,0,0,0,250,250,0,5694.0,45.747559,4.90921,0.0,421.7,0,0.0,-1,0.0,0.0,0,0.01,0.9674
58063,1562275710685,0,2.38,1.54,0.32,2.08,0.08,0.81,0.03,0.57,0,-1,-0,0.81,0,0,33,34,98,501,0.0,105,85,60,118.0,0,1,0,0,0,0,0,0,250,250,0,5694.0,,,,,,,,,,,,
58083,1562275710705,-2,2.39,1.55,0.26,2.08,0.03,0.81,0.03,0.57,0,-1,-0,0.82,0,0,33,34,98,501,0.0,105,86,60,118.0,0,1,0,0,0,0,0,0,250,250,0,5694.0,,,,,,,,,,,,
58103,1562275710725,-1,2.39,1.53,0.19,2.07,0.0,0.81,0.03,0.57,0,-1,-0,0.82,0,0,33,34,98,501,0.0,105,85,60,118.0,0,1,0,0,0,0,0,0,250,250,0,5694.0,,,,,,,,,,,,
58123,1562275710745,0,2.38,1.54,0.11,2.05,0.01,0.81,0.03,0.57,0,-1,-0,0.82,0,0,33,34,98,501,0.0,105,86,60,118.0,0,1,0,0,0,0,0,0,250,250,0,5880.87,,,,,,,,,,,,
58143,1562275710765,0,2.38,1.53,0.09,2.06,0.0,0.81,0.03,0.57,0,-1,-0,0.82,0,0,33,34,98,501,0.0,105,85,60,118.0,0,1,0,0,0,0,0,0,250,250,0,5694.0,45.747559,4.90921,0.0,421.7,0,0.0,-1,0.0,0.0,0,0.01,0.969
58163,1562275710785,0,2.38,1.53,0.03,2.06,0.0,0.81,0.03,0.57,0,-1,-0,0.81,0,0,33,34,98,501,0.0,105,85,60,118.0,0,1,0,0,0,0,0,0,250,250,0,5694.0,,,,,,,,,,,,
58183,1562275710805,0,2.39,1.53,0.0,2.05,0.0,0.81,0.03,0.57,0,-1,-0,0.81,0,0,33,34,98,501,0.0,105,86,60,118.0,0,1,0,0,0,0,0,0,250,250,0,5694.0,,,,,,,,,,,,
58203,1562275710825,0,2.38,1.53,0.0,2.05,0.0,0.81,0.03,0.57,0,-1,-0,0.81,0,0,33,34,98,501,0.0,105,85,60,118.0,0,1,0,0,0,0,0,0,250,250,0,5694.0,,,,,,,,,,,,
58223,1562275710845,0,2.38,1.52,0.0,2.05,0.0,0.81,0.03,0.57,0,-1,-0,0.81,0,0,33,34,98,501,0.0,105,86,60,118.0,0,1,0,0,0,0,0,0,250,250,0,5694.0,,,,,,,,,,,,
58243,1562275710865,0,2.38,1.52,0.13,2.05,0.03,0.81,0.03,0.57,0,-1,-0,0.81,0,0,33,34,98,501,0.0,105,86,60,118.0,0,1,0,0,0,0,0,0,250,250,0,5694.0,45.747559,4.90921,0.0,421.7,0,0.0,-1,0.0,0.0,0,0.01,0.9707
58263,1562275710885,-0,2.38,1.53,0.15,2.04,0.04,0.81,0.03,0.57,0,-1,-0,0.81,0,0,33,34,98,501,0.0,105,85,60,118.0,0,1,0,0,0,0,0,0,250,250,0,5694.0,,,,,,,,,,,,
58283,1562275710905,-2,2.39,1.52,0.16,2.04,0.04,0.81,0.03,0.57,0,-1,-0,0.81,0,0,33,34,98,501,0.0,105,86,60,118.0,0,1,0,0,0,0,0,0,250,250,0,5694.0,,,,,,,,,,,,
58303,1562275710925,-0,2.39,1.52,0.18,2.04,0.05,0.81,0.03,0.57,0,-1,-0,0.81,0,0,33,34,98,501,0.0,105,85,60,118.0,0,1,0,0,0,0,0,0,250,250,0,5694.0,,,,,,,,,,,,
58323,1562275710945,0,2.38,1.52,0.2,2.03,0.07,0.81,0.03,0.57,0,-1,-0,0.81,0,0,33,34,98,501,0.0,105,86,60,118.0,0,1,0,0,0,0,0,0,250,250,0,5694.0,,,,,,,,,,,,
58343,1562275710965,-1,2.39,1.52,0.24,2.04,0.1,0.81,0.03,0.57,0,-1,-0,0.82,0,0,33,34,98,501,0.0,105,85,60,118.0,0,1,0,0,0,0,0,0,250,250,0,5694.0,45.747559,4.90921,0.0,421.7,0,0.0,-1,0.0,0.0,0,0.01,0.9724
58363,1562275710985,0,2.37,1.53,0.27,2.04,0.13,0.81,0.03,0.57,0,-1,-0,0.81,0,0,33,34,98,501,0.0,105,86,60,118.0,0,1,0,0,0,0,0,0,250,250,0,5694.0,,,,,,,,,,,,
58383,1562275710997,-1,2.38,1.53,0.3,2.04,0.17,0.82,0.03,0.57,0,-1,-0,0.82,0,0,33,34,98,501,0.0,105,86,60,118.0,0,1,0,0,0,0,0,0,250,250,0,5694.0,,,,,,,,,,,,
58403,1562275711017,0,2.38,1.53,0.34,2.04,0.2,0.81,0.03,0.57,0,-1,-0,0.82,0,0,33,34,98,501,0.0,105,85,60,118.0,0,1,0,0,0,0,0,0,250,250,0,5694.0,,,,,,,,,,,,
58423,1562275711037,-0,2.39,1.53,0.39,2.04,0.23,0.81,0.03,0.57,0,-1,-0,0.82,0,0,33,34,98,501,0.0,105,86,60,118.0,0,1,0,0,0,0,0,0,250,250,0,5694.0,,,,,,,,,,,,
58443,1562275711057,-1,2.38,1.53,0.43,2.04,0.27,0.81,0.03,0.57,0,-1,-0,0.82,0,0,33,34,98,501,0.0,105,85,60,118.0,0,1,0,0,0,0,0,0,250,250,0,5694.0,45.747559,4.90921,0.0,421.7,0,0.0,-1,0.0,0.0,0,0.01,0.974
58463,1562275711077,-0,2.38,1.54,0.48,2.04,0.31,0.81,0.03,0.57,0,-1,-0,0.82,0,0,33,34,98,501,0.0,105,85,60,118.0,0,1,0,0,0,0,0,0,250,250,0,5694.0,,,,,,,,,,,,
58483,1562275711102,0,2.37,1.54,0.53,2.05,0.33,0.81,0.03,0.57,0,-1,-0,0.82,0,0,33,34,98,501,0.0,105,85,60,118.0,0,1,0,0,0,0,0,0,250,250,0,5694.0,,,,,,,,,,,,
58503,1562275711122,0,2.38,1.54,0.56,2.06,0.37,0.82,0.03,0.57,0,-1,-0,0.82,0,0,33,34,98,501,0.0,105,86,60,118.0,0,1,0,0,0,0,0,0,250,250,0,5694.0,,,,,,,,,,,,
58523,1562275711142,-0,2.39,1.54,0.6,2.04,0.39,0.81,0.03,0.57,0,-1,-0,0.82,0,0,33,34,98,501,0.0,105,85,60,118.0,0,1,0,0,0,0,0,0,250,250,0,5694.0,,,,,,,,,,,,
58543,1562275711162,-0,2.38,1.55,0.62,2.05,0.4,0.81,0.03,0.57,0,-1,-0,0.82,0,0,33,34,98,501,0.0,105,86,60,118.0,0,1,0,0,0,0,0,0,250,250,0,5694.0,45.747559,4.90921,0.0,421.7,0,0.0,-1,0.0,0.0,0,0.01,0.9757
58563,1562275711182,-0,2.38,1.55,0.63,2.05,0.41,0.81,0.03,0.57,0,-1,-0,0.82,0,0,33,34,98,501,0.0,105,86,60,118.0,0,1,0,0,0,0,0,0,250,250,0,5694.0,,,,,,,,,,,,
58583,1562275711204,-1,2.38,1.54,0.64,2.05,0.42,0.81,0.03,0.57,0,-1,-0,0.81,0,0,33,34,98,501,0.0,105,85,60,118.0,0,1,0,0,0,0,0,0,250,250,0,5694.0,,,,,,,,,,,,
58603,1562275711224,-1,2.38,1.55,0.63,2.06,0.4,0.81,0.03,0.57,0,-1,-0,0.81,0,0,33,34,98,501,0.0,105,86,60,118.0,0,1,0,0,0,0,0,0,250,250,0,5694.0,,,,,,,,,,,,
58623,1562275711244,0,2.38,1.55,0.62,2.05,0.41,0.81,0.03,0.57,0,-1,-0,0.81,0,0,33,34,98,501,0.0,105,86,60,118.0,0,1,0,0,0,0,0,0,250,250,0,5694.0,,,,,,,,,,,,
58643,1562275711264,-2,2.38,1.55,0.62,2.05,0.41,0.81,0.03,0.57,0,-1,-0,0.81,0,0,33,34,98,501,0.0,105,85,60,118.0,0,1,0,0,0,0,0,0,250,250,0,5694.0,45.747559,4.90921,0.0,421.7,0,0.0,-1,0.0,0.0,0,0.01,0.9774
58663,1562275711284,0,2.38,1.55,0.62,2.05,0.41,0.81,0.03,0.57,0,-1,-0,0.81,0,0,33,34,98,501,0.0,105,85,60,118.0,0,1,0,0,0,0,0,0,250,250,0,5694.0,,,,,,,,,,,,
58683,1562275711304,-1,2.38,1.55,0.63,2.06,0.41,0.81,0.03,0.57,0,-1,-0,0.81,0,0,33,34,98,501,0.0,105,86,60,118.0,0,1,0,0,0,0,0,0,250,250,0,5694.0,,,,,,,,,,,,
58703,1562275711324,-1,2.39,1.55,0.63,2.05,0.41,0.81,0.03,0.57,0,-1,-0,0.81,0,0,33,34,98,501,0.0,105,85,60,118.0,0,1,0,0,0,0,0,0,250,250,0,5694.0,,,,,,,,,,,,
58723,1562275711344,-1,2.39,1.55,0.63,2.06,0.41,0.81,0.03,0.57,0,-1,-0,0.81,0,0,33,34,98,501,0.0,105,86,60,118.0,0,1,0,0,0,0,0,0,250,250,0,5694.0,,,,,,,,,,,,
58743,1562275711364,0,2.39,1.54,0.63,2.05,0.41,0.81,0.03,0.57,0,-1,-0,0.81,0,0,33,34,98,501,0.0,105,85,60,118.0,0,1,0,0,0,0,0,0,250,250,0,5694.0,45.747559,4.90921,0.0,421.7,0,0.0,-1,0.0,0.0,0,0.01,0.979
58763,1562275711384,-1,2.39,1.55,0.63,2.05,0.41,0.81,0.03,0.57,0,-1,-0,0.81,0,0,33,34,98,501,0.0,105,85,60,118.0,0,1,0,0,0,0,0,0,250,250,0,5694.0,,,,,,,,,,,,
58783,1562275711404,-2,2.38,1.55,0.63,2.04,0.41,0.81,0.03,0.57,0,-1,-0,0.81,0,0,33,34,98,501,0.0,105,85,60,118.0,0,1,0,0,0,0,0,0,250,250,0,5694.0,,,,,,,,,,,,
58803,1562275711424,-2,2.39,1.54,0.63,2.05,0.41,0.81,0.03,0.57,0,-1,-0,0.81,0,0,33,34,98,501,0.0,105,85,60,118.0,0,1,0,0,0,0,0,0,250,250,0,5694.0,,,,,,,,,,,,
58823,1562275711444,0,2.38,1.55,0.63,2.05,0.4,0.81,0.03,0.57,0,-1,-0,0.81,0,0,33,34,98,501,0.0,105,85,60,118.0,0,1,0,0,0,0,0,0,250,250,0,5694.0,,,,,,,,,,,,
58843,1562275711464,0,2.37,1.54,0.63,2.05,0.4,0.81,0.03,0.57,0,-1,-0,0.81,0,0,33,34,98,501,0.0,105,85,60,118.0,0,1,0,0,0,0,0,0,250,250,0,5694.0,45.747559,4.90921,0.0,421.7,0,0.0,-1,0.0,0.0,0,0.01,0.9807
58863,1562275711484,0,2.39,1.54,0.63,2.05,0.41,0.81,0.03,0.57,0,-1,-0,0.81,0,0,33,34,98,501,0.0,105,85,60,118.0,0,1,0,0,0,0,0,0,250,250,0,5694.0,,,,,,,,,,,,
58883,1562275711506,0,2.38,1.54,0.63,2.04,0.41,0.81,0.03,0.57,0,-1,-0,0.81,0,0,33,34,98,501,0.0,105,85,60,118.0,0,1,0,0,0,0,0,0,250,250,0,5694.0,,,,,,,,,,,,
58903,1562275711526,0,2.38,1.55,0.63,2.05,0.4,0.81,0.03,0.57,0,-1,-0,0.81,0,0,33,34,98,501,0.0,105,85,60,118.0,0,1,0,0,0,0,0,0,250,250,0,5694.0,,,,,,,,,,,,
58923,1562275711546,-1,2.39,1.54,0.63,2.04,0.41,0.81,0.03,0.57,0,-1,-0,0.81,0,0,33,34,98,501,0.0,105,86,60,118.0,0,1,0,0,0,0,0,0,250,250,0,5694.0,,,,,,,,,,,,
58943,1562275711566,-2,2.39,1.54,0.63,2.05,0.4,0.81,0.03,0.57,0,-1,-0,0.81,0,0,33,34,98,501,0.0,105,85,60,118.0,0,1,0,0,0,0,0,0,250,250,0,5694.0,45.747559,4.90921,0.0,421.7,0,0.0,-1,0.0,0.0,0,0.01,0.9824
58963,1562275711586,-0,2.38,1.54,0.63,2.04,0.41,0.81,0.03,0.57,0,-1,-0,0.81,0,0,33,34,98,501,0.0,105,86,60,118.0,0,1,0,0,0,0,0,0,250,250,0,5694.0,,,,,,,,,,,,
58983,1562275711606,-1,2.38,1.55,0.63,2.04,0.41,0.81,0.03,0.57,0,-1,-0,0.81,0,0,33,34,98,501,0.0,105,85,60,118.0,0,1,0,0,0,0,0,0,250,250,0,5694.0,,,,,,,,,,,,
59003,1562275711626,-0,2.38,1.55,0.63,2.04,0.41,0.81,0.03,0.57,0,-1,-0,0.81,0,0,33,34,98,501,0.0,105,86,60,118.0,0,1,0,0,0,0,0,0,250,250,0,5694.0,,,,,,,,,,,,
59023,1562275711646,-0,2.39,1.54,0.63,2.04,0.41,0.81,0.03,0.57,0,-1,-0,0.81,0,0,33,34,98,501,0.0,105,86,60,118.0,0,1,0,0,0,0,0,0,250,250,0,5694.0,,,,,,,,,,,,
59043,1562275711666,-1,2.38,1.55,0.62,2.04,0.4,0.81,0.03,0.57,0,-1,-0,0.82,0,0,33,34,98,501,0.0,105,86,60,118.0,0,1,0,0,0,0,0,0,250,250,0,5694.0,45.747559,4.90921,0.0,421.7,0,0.0,-1,0.0,0.0,0,0.01,0.984
59063,1562275711686,0,2.38,1.55,0.62,2.04,0.4,0.81,0.03,0.57,0,-1,-0,0.81,0,0,33,34,98,501,0.0,105,85,60,118.0,0,1,0,0,0,0,0,0,250,250,0,5694.0,,,,,,,,,,,,
59083,1562275711706,-2,2.39,1.55,0.62,2.04,0.4,0.81,0.03,0.57,0,-1,-0,0.81,0,0,33,34,98,501,0.0,105,85,60,118.0,0,1,0,0,0,0,0,0,250,250,0,5694.0,,,,,,,,,,,,
59103,1562275711726,-0,2.38,1.55,0.62,2.05,0.4,0.81,0.03,0.57,0,-1,-0,0.81,0,0,33,34,98,501,0.0,105,86,60,118.0,0,1,0,0,0,0,0,0,250,250,0,5694.0,,,,,,,,,,,,
59123,1562275711746,-0,2.38,1.54,0.62,2.05,0.4,0.81,0.03,0.57,0,-1,-0,0.81,0,0,33,34,98,501,0.0,105,85,60,118.0,0,1,0,0,0,0,0,0,250,250,0,5694.0,,,,,,,,,,,,
59143,1562275711766,0,2.38,1.55,0.62,2.04,0.41,0.81,0.03,0.57,0,-1,-0,0.81,0,0,33,34,98,501,0.0,105,85,60,118.0,0,1,0,0,0,0,0,0,250,250,0,5694.0,45.747559,4.90921,0.0,421.7,0,0.0,-1,0.0,0.0,0,0.01,0.9857
59163,1562275711786,0,2.37,1.55,0.62,2.04,0.4,0.81,0.03,0.57,0,-1,-0,0.81,0,0,33,34,98,501,0.0,105,86,60,118.0,0,1,0,0,0,0,0,0,250,250,0,5694.0,,,,,,,,,,,,
59183,1562275711806,0,2.39,1.55,0.61,2.06,0.4,0.81,0.03,0.57,0,-1,-0,0.81,0,0,33,34,98,501,0.0,105,85,60,118.0,0,1,0,0,0,0,0,0,250,250,0,5694.0,,,,,,,,,,,,
59203,1562275711826,-0,2.38,1.55,0.61,2.05,0.39,0.81,0.03,0.57,0,-1,-0,0.81,0,0,33,34,98,501,0.0,105,85,60,118.0,0,1,0,0,0,0,0,0,250,250,0,5694.0,,,,,,,,,,,,
59223,1562275711846,-2,2.39,1.56,0.61,2.05,0.4,0.81,0.03,0.57,0,-1,-0,0.81,0,0,33,34,98,501,0.0,105,85,60,118.0,0,1,0,0,0,0,0,0,250,250,0,5694.0,,,,,,,,,,,,
59243,1562275711866,-1,2.37,1.56,0.61,2.06,0.4,0.81,0.03,0.57,0,-1,-0,0.81,0,0,33,34,98,501,0.0,105,85,60,118.0,0,1,0,0,0,0,0,0,250,250,0,5694.0,45.747559,4.90921,0.0,421.7,0,0.0,-1,0.0,0.0,0,0.01,0.9874
59263,1562275711886,-0,2.38,1.56,0.61,2.05,0.39,0.81,0.03,0.57,0,-1,-0,0.81,0,0,33,34,98,501,0.0,105,86,60,118.0,0,1,0,0,0,0,0,0,250,250,0,5694.0,,,,,,,,,,,,
59283,1562275711906,0,2.38,1.55,0.61,2.05,0.4,0.81,0.03,0.57,0,-1,-0,0.82,0,0,33,34,98,501,0.0,105,86,60,118.0,0,1,0,0,0,0,0,0,250,250,0,5694.0,,,,,,,,,,,,
59303,1562275711926,0,2.38,1.56,0.61,2.06,0.4,0.81,0.03,0.57,0,-1,-0,0.82,0,0,33,34,98,501,0.0,105,85,60,118.0,0,1,0,0,0,0,0,0,250,250,0,5694.0,,,,,,,,,,,,
59323,1562275711946,-0,2.39,1.56,0.62,2.06,0.4,0.81,0.03,0.57,0,-1,-0,0.82,0,0,33,34,98,501,0.0,105,85,60,118.0,0,1,0,0,0,0,0,0,250,250,0,5694.0,,,,,,,,,,,,
59343,1562275711966,-2,2.39,1.56,0.63,2.06,0.4,0.81,0.03,0.57,0,-1,-0,0.81,0,0,33,34,98,501,0.0,105,85,60,118.0,0,1,0,0,0,0,0,0,250,250,0,5694.0,45.747559,4.90921,0.0,421.7,0,0.0,-1,0.0,0.0,0,0.01,0.989
59363,1562275711986,-2,2.39,1.56,0.63,2.05,0.41,0.81,0.03,0.57,0,-1,-0,0.81,0,0,33,34,98,501,0.0,105,86,60,118.0,0,1,0,0,0,0,0,0,250,250,0,5694.0,,,,,,,,,,,,
59383,1562275711997,-1,2.38,1.56,0.64,2.05,0.41,0.81,0.03,0.57,0,-1,-0,0.81,0,0,33,34,98,501,0.0,105,86,60,118.0,0,1,0,0,0,0,0,0,250,250,0,5694.0,,,,,,,,,,,,
59403,1562275712017,-1,2.39,1.56,0.64,2.06,0.41,0.81,0.03,0.57,0,-1,-0,0.81,0,0,33,34,98,501,0.0,105,85,60,118.0,0,1,0,0,0,0,0,0,250,250,0,5694.0,,,,,,,,,,,,
59423,1562275712037,-0,2.38,1.56,0.66,2.06,0.42,0.81,0.03,0.57,0,-1,-0,0.81,0,0,33,34,98,501,0.0,105,85,60,118.0,0,1,0,0,0,0,0,0,250,250,0,5694.0,,,,,,,,,,,,
59443,1562275712057,-0,2.38,1.56,0.68,2.05,0.43,0.81,0.03,0.57,0,-1,-0,0.81,0,0,33,34,98,501,0.0,105,85,60,118.0,0,1,0,0,0,0,0,0,250,250,0,5694.0,45.747559,4.90921,0.0,421.7,0,0.0,-1,0.0,0.0,0,0.01,0.9907
59463,1562275712077,0,2.38,1.56,0.7,2.04,0.46,0.81,0.03,0.57,0,-1,-0,0.81,0,0,33,34,98,501,0.0,105,86,60,118.0,0,1,0,0,0,0,0,0,250,250,0,5694.0,,,,,,,,,,,,
59483,1562275712105,-0,2.38,1.56,0.72,2.06,0.47,0.81,0.03,0.57,0,-1,-0,0.81,0,0,33,34,98,501,0.0,105,86,60,118.0,0,1,0,0,0,0,0,0,250,250,0,5694.0,,,,,,,,,,,,
59503,1562275712125,-1,2.39,1.55,0.75,2.05,0.5,0.81,0.03,0.57,0,-1,-0,0.81,0,0,33,34,98,501,0.0,105,85,60,118.0,0,1,0,0,0,0,0,0,250,250,0,5694.0,,,,,,,,,,,,
59523,1562275712145,-1,2.38,1.56,0.78,2.04,0.53,0.81,0.03,0.57,0,-1,-0,0.81,0,0,33,34,98,501,0.0,105,85,60,118.0,0,1,0,0,0,0,0,0,250,250,0,5694.0,,,,,,,,,,,,
59543,1562275712165,-1,2.39,1.55,0.8,2.05,0.55,0.81,0.03,0.57,0,-1,-0,0.81,0,0,33,34,98,501,0.0,105,85,60,118.0,0,1,0,0,0,0,0,0,250,250,0,5694.0,45.747559,4.90921,0.0,421.7,0,0.0,-1,0.0,0.0,0,0.01,0.9924
59563,1562275712185,-2,2.39,1.55,0.83,2.05,0.58,0.81,0.03,0.57,0,-1,-0,0.81,0,0,33,34,98,501,0.0,105,85,60,118.0,0,1,0,0,0,0,0,0,250,250,0,5694.0,,,,,,,,,,,,
59583,1562275712205,0,2.39,1.55,0.85,2.06,0.6,0.81,0.03,0.57,0,-1,-0,0.81,0,0,33,34,98,501,0.0,105,85,60,118.0,0,1,0,0,0,0,0,0,250,250,0,5694.0,,,,,,,,,,,,
59603,1562275712225,-1,2.39,1.56,0.88,2.05,0.63,0.81,0.03,0.57,0,-1,-0,0.81,0,0,33,34,98,501,0.0,105,85,60,118.0,0,1,0,0,0,0,0,0,250,250,0,5694.0,,,,,,,,,,,,
59623,1562275712245,-1,2.39,1.56,0.92,2.06,0.67,0.81,0.03,0.57,0,-1,-0,0.81,0,0,33,34,98,501,0.0,105,86,60,118.0,0,1,0,0,0,0,0,0,250,250,0,5694.0,,,,,,,,,,,,
59643,1562275712265,-1,2.38,1.55,0.96,2.05,0.71,0.81,0.03,0.57,0,-1,-0,0.81,0,0,33,34,98,501,0.0,105,86,60,118.0,0,1,0,0,0,0,0,0,250,250,0,5694.0,45.747559,4.90921,0.0,421.7,0,0.0,-1,0.0,0.0,0,0.01,0.994
59663,1562275712285,-1,2.38,1.55,1.0,2.05,0.77,0.81,0.03,0.57,0,-1,-0,0.81,0,0,33,34,98,501,0.0,105,85,60,118.0,0,1,0,0,0,0,0,0,250,250,0,5694.0,,,,,,,,,,,,
59683,1562275712305,-0,2.38,1.55,1.06,2.03,0.84,0.81,0.03,0.57,0,-1,-0,0.81,0,0,33,34,98,501,0.0,105,85,60,118.0,0,1,0,0,0,0,0,0,250,250,0,5694.0,,,,,,,,,,,,
59703,1562275712325,0,2.38,1.55,1.12,2.05,0.9,0.81,0.03,0.57,0,-1,-0,0.81,0,0,33,34,98,501,0.0,105,85,60,118.0,0,1,0,0,0,0,0,0,250,250,0,5694.0,,,,,,,,,,,,
59723,1562275712345,-0,2.39,1.54,1.19,2.04,0.99,0.81,0.03,0.57,0,-1,-0,0.81,0,0,33,34,98,501,0.0,105,85,60,118.0,0,1,0,0,0,0,0,0,250,250,0,5694.0,,,,,,,,,,,,
59743,1562275712365,-0,2.38,1.55,1.26,2.04,1.07,0.81,0.03,0.57,0,-1,-0,0.81,0,0,33,34,98,501,0.0,105,86,60,118.0,0,1,0,0,0,0,0,0,250,250,0,5694.0,45.747559,4.90921,0.0,421.7,0,0.0,-1,0.0,0.0,0,0.01,0.9957
59763,1562275712385,0,2.38,1.54,1.33,2.04,1.17,0.81,0.03,0.57,0,-1,-0,0.81,0,0,33,34,98,501,0.0,105,86,60,118.0,0,1,0,0,0,0,0,0,250,250,0,5694.0,,,,,,,,,,,,
59783,1562275712405,-0,2.37,1.54,1.4,2.04,1.22,0.81,0.03,0.57,0,-1,-0,0.82,0,0,33,34,98,501,0.0,105,86,60,118.0,0,1,0,0,0,0,0,0,250,250,0,5694.0,,,,,,,,,,,,
59803,1562275712425,0,2.38,1.55,1.46,2.04,1.28,0.81,0.03,0.57,0,-1,-0,0.82,0,0,33,34,98,501,0.0,105,85,60,118.0,0,1,0,0,0,0,0,0,250,250,0,5694.0,,,,,,,,,,,,
59823,1562275712445,-2,2.39,1.54,1.5,2.04,1.29,0.81,0.03,0.57,0,-1,-0,0.81,0,0,33,34,98,501,0.0,105,85,60,118.0,0,1,0,0,0,0,0,0,250,250,0,5880.87,,,,,,,,,,,,
59843,1562275712465,-0,2.37,1.54,1.54,2.03,1.32,0.81,0.03,0.57,0,-1,-0,0.82,0,0,33,34,98,501,0.0,105,85,60,118.0,0,1,0,0,0,0,0,0,250,250,0,5694.0,45.747559,4.90921,0.0,421.7,0,0.0,-1,0.0,0.0,0,0.01,0.9974
59863,1562275712485,-1,2.39,1.54,1.56,2.04,1.33,0.81,0.03,0.57,0,-1,-0,0.81,0,0,33,34,98,501,0.0,105,86,60,118.0,0,1,0,0,0,0,0,0,250,250,0,5694.0,,,,,,,,,,,,
59883,1562275712505,-2,2.39,1.54,1.58,2.04,1.34,0.81,0.03,0.57,0,-1,-0,0.81,0,0,33,34,98,501,0.0,105,85,60,118.0,0,1,0,0,0,0,0,0,250,250,0,5694.0,,,,,,,,,,,,
59903,1562275712525,0,2.38,1.53,1.58,2.04,1.34,0.81,0.03,0.57,0,-1,-0,0.81,0,0,33,34,98,501,0.0,105,85,60,118.0,0,1,0,0,0,0,0,0,250,250,0,5694.0,,,,,,,,,,,,
59923,1562275712545,-1,2.39,1.53,1.58,2.03,1.34,0.81,0.03,0.57,0,-1,-0,0.81,0,0,33,34,98,501,0.0,105,85,60,118.0,0,1,0,0,0,0,0,0,250,250,0,5694.0,,,,,,,,,,,,
59943,1562275712565,-1,2.39,1.54,1.57,2.03,1.32,0.81,0.03,0.57,0,-1,-0,0.81,0,0,33,34,98,501,0.0,105,85,60,118.0,0,1,0,0,0,0,0,0,250,250,0,5694.0,45.747559,4.90921,0.0,421.7,0,0.0,-1,0.0,0.0,0,0.01,0.999
59963,1562275712585,-0,2.38,1.54,1.53,2.03,1.3,0.81,0.03,0.57,0,-1,-0,0.82,0,0,33,34,98,501,0.0,105,85,60,118.0,0,1,0,0,0,0,0,0,250,250,0,5694.0,,,,,,,,,,,,
59983,1562275712605,-1,2.39,1.53,1.5,2.03,1.29,0.81,0.03,0.57,0,-1,-0,0.81,0,0,33,34,98,501,0.0,105,86,60,118.0,0,1,0,0,0,0,0,0,250,250,0,5694.0,,,,,,,,,,,,
60003,1562275712625,-1,2.39,1.53,1.46,2.03,1.25,0.81,0.03,0.57,0,-1,-0,0.81,0,0,33,34,98,501,0.0,105,86,60,118.0,0,1,0,0,0,0,0,0,250,250,0,5694.0,,,,,,,,,,,,
60023,1562275712645,0,2.38,1.53,1.42,2.02,1.23,0.81,0.03,0.57,0,-1,-0,0.81,0,0,33,34,98,501,0.0,105,86,60,118.0,0,1,0,0,0,0,0,0,250,250,0,5694.0,,,,,,,,,,,,
60043,1562275712665,0,2.39,1.52,1.39,2.03,1.27,0.81,0.03,0.57,0,-1,-0,0.81,0,0,33,34,98,501,0.0,105,85,60,118.0,0,1,0,0,0,0,0,0,250,250,0,5694.0,45.747559,4.90921,0.0,421.7,0,0.0,-1,0.0,0.0,0,0.01,1.0007
60063,1562275712685,-2,2.39,1.53,1.36,2.02,1.24,0.81,0.03,0.57,0,-1,-0,0.81,0,0,33,34,98,501,0.0,105,85,60,118.0,0,1,0,0,0,0,0,0,250,250,0,5694.0,,,,,,,,,,,,
60083,1562275712705,-1,2.39,1.53,1.34,2.02,1.22,0.81,0.03,0.57,0,-1,-0,0.81,0,0,33,34,98,501,0.0,105,85,60,118.0,0,1,0,0,0,0,0,0,250,250,0,5694.0,,,,,,,,,,,,
60103,1562275712725,-0,2.39,1.52,1.33,2.02,1.21,0.81,0.03,0.57,0,-1,-0,0.81,0,0,33,34,98,501,0.0,105,86,60,118.0,0,1,0,0,0,0,0,0,250,250,0,5694.0,,,,,,,,,,,,
60123,1562275712745,-2,2.38,1.52,1.31,2.01,1.2,0.81,0.03,0.57,0,-1,-0,0.81,0,0,33,34,98,501,0.0,105,86,60,118.0,0,1,0,0,0,0,0,0,250,250,0,5694.0,,,,,,,,,,,,
60143,1562275712765,-1,2.39,1.52,1.3,2.01,1.19,0.81,0.03,0.57,0,-1,-0,0.81,0,0,33,34,98,501,0.0,105,85,60,118.0,0,1,0,0,0,0,0,0,250,250,0,5694.0,45.747559,4.90921,0.0,421.7,0,0.0,-1,0.0,0.0,0,0.01,1.0024
60163,1562275712785,-1,2.39,1.52,1.3,2.02,1.2,0.81,0.03,0.57,0,-1,-0,0.81,0,0,33,34,98,501,0.0,105,86,60,118.0,0,1,0,0,0,0,0,0,250,250,0,5694.0,,,,,,,,,,,,
60183,1562275712805,-1,2.39,1.51,1.32,2.01,1.2,0.81,0.03,0.57,0,-1,-0,0.81,0,0,33,34,98,501,0.0,105,86,60,118.0,0,1,0,0,0,0,0,0,250,250,0,5694.0,,,,,,,,,,,,
60203,1562275712825,-1,2.39,1.52,1.31,2.01,1.19,0.81,0.03,0.57,0,-1,-0,0.81,0,0,33,34,98,501,0.0,105,86,60,118.0,0,1,0,0,0,0,0,0,250,250,0,5694.0,,,,,,,,,,,,
60223,1562275712845,-1,2.39,1.51,1.32,2.01,1.2,0.81,0.03,0.57,0,-1,-0,0.81,0,0,33,34,98,501,0.0,105,85,60,118.0,0,1,0,0,0,0,0,0,250,250,0,5694.0,,,,,,,,,,,,
60243,1562275712865,-0,2.38,1.51,1.34,2.01,1.2,0.81,0.03,0.57,0,-1,-0,0.81,0,0,33,34,98,501,0.0,105,86,60,118.0,0,1,0,0,0,0,0,0,250,250,0,5694.0,45.747559,4.90921,0.0,421.7,0,0.0,-1,0.0,0.0,0,0.01,1.0041
60263,1562275712885,-1,2.39,1.51,1.34,2.0,1.22,0.81,0.03,0.57,0,-1,-0,0.81,0,0,33,34,98,501,0.0,105,85,60,118.0,0,1,0,0,0,0,0,0,250,250,0,5694.0,,,,,,,,,,,,
60283,1562275712905,-1,2.38,1.5,1.36,2.0,1.23,0.81,0.03,0.57,0,-1,-0,0.81,0,0,33,34,98,501,0.0,105,85,60,118.0,0,1,0,0,0,0,0,0,250,250,0,5694.0,,,,,,,,,,,,
60303,1562275712925,-0,2.38,1.5,1.37,1.99,1.23,0.81,0.03,0.57,0,-1,-0,0.81,0,0,33,34,98,501,0.0,105,86,60,118.0,0,1,0,0,0,0,0,0,250,250,0,5694.0,,,,,,,,,,,,
60323,1562275712945,-1,2.38,1.49,1.37,1.99,1.24,0.81,0.03,0.57,0,-1,-0,0.81,0,0,33,34,98,501,0.0,105,85,60,118.0,0,1,0,0,0,0,0,0,250,250,0,5694.0,,,,,,,,,,,,
60343,1562275712965,-2,2.39,1.5,1.38,1.99,1.25,0.81,0.03,0.57,0,-1,-0,0.81,0,0,33,34,98,501,0.0,105,86,60,118.0,0,1,0,0,0,0,0,0,250,250,0,5694.0,45.747559,4.90921,0.0,421.7,0,0.0,-1,0.0,0.0,0,0.01,1.0057
60363,1562275712985,-0,2.39,1.49,1.39,1.98,1.25,0.81,0.03,0.57,0,-1,-0,0.81,0,0,33,34,98,501,0.0,105,85,60,118.0,0,1,0,0,0,0,0,0,250,250,0,5694.0,,,,,,,,,,,,
60383,1562275712997,0,2.38,1.49,1.38,1.99,1.24,0.81,0.03,0.57,0,-1,-0,0.81,0,0,33,34,98,501,0.0,105,85,60,118.0,0,1,0,0,0,0,0,0,250,250,0,5694.0,,,,,,,,,,,,
60403,1562275713017,-0,2.39,1.49,1.38,1.98,1.24,0.81,0.03,0.57,0,-1,-0,0.81,0,0,33,34,98,501,0.0,105,85,60,118.0,0,1,0,0,0,0,0,0,250,250,0,5694.0,,,,,,,,,,,,
60423,1562275713037,-1,2.38,1.49,1.37,1.99,1.23,0.81,0.03,0.57,0,-1,-0,0.81,0,0,33,34,98,501,0.0,105,85,60,118.0,0,1,0,0,0,0,0,0,250,250,0,5694.0,,,,,,,,,,,,
60443,1562275713057,-1,2.38,1.49,1.37,1.98,1.24,0.81,0.03,0.57,0,-1,-0,0.81,0,0,33,34,98,501,0.0,105,85,60,118.0,0,1,0,0,0,0,0,0,250,250,0,5694.0,45.747559,4.90921,0.0,421.7,0,0.0,-1,0.0,0.0,0,0.01,1.0074
60463,1562275713077,-0,2.37,1.49,1.36,1.98,1.23,0.81,0.03,0.57,0,-1,-0,0.81,0,0,33,34,98,501,0.0,105,85,60,118.0,0,1,0,0,0,0,0,0,250,250,0,5694.0,,,,,,,,,,,,
60483,1562275713104,-0,2.39,1.48,1.36,1.97,1.22,0.81,0.03,0.57,0,-1,-0,0.81,0,0,33,34,98,501,0.0,105,85,60,118.0,0,1,0,0,0,0,0,0,250,250,0,5694.0,,,,,,,,,,,,
60503,1562275713124,-0,2.38,1.48,1.34,1.97,1.22,0.81,0.03,0.57,0,-1,-0,0.81,0,0,33,34,98,501,0.0,105,86,60,118.0,0,1,0,0,0,0,0,0,250,250,0,5694.0,,,,,,,,,,,,
60523,1562275713144,0,2.38,1.48,1.34,1.97,1.21,0.81,0.03,0.57,0,-1,-0,0.81,0,0,33,34,98,501,0.0,105,86,60,118.0,0,1,0,0,0,0,0,0,250,250,0,5694.0,,,,,,,,,,,,
60543,1562275713164,-1,2.39,1.48,1.33,1.97,1.21,0.81,0.03,0.57,0,-1,-0,0.81,0,0,33,34,98,501,0.0,105,86,60,118.0,0,1,0,0,0,0,0,0,250,250,0,5694.0,45.747559,4.90921,0.0,421.7,0,0.0,-1,0.0,0.0,0,0.01,1.0091
60563,1562275713184,-1,2.38,1.47,1.33,1.97,1.21,0.81,0.03,0.57,0,-1,-0,0.81,0,0,33,34,98,501,0.0,105,85,60,118.0,0,1,0,0,0,0,0,0,250,250,0,5694.0,,,,,,,,,,,,
60583,1562275713204,0,2.38,1.48,1.33,1.97,1.2,0.81,0.03,0.57,0,-1,-0,0.81,0,0,33,34,98,501,0.0,105,85,60,118.0,0,1,0,0,0,0,0,0,250,250,0,5694.0,,,,,,,,,,,,
60603,1562275713224,-2,2.39,1.48,1.33,1.98,1.2,0.81,0.03,0.57,0,-1,-0,0.81,0,0,33,34,98,501,0.0,105,85,60,118.0,0,1,0,0,0,0,0,0,250,250,0,5694.0,,,,,,,,,,,,
60623,1562275713244,0,2.38,1.48,1.33,1.98,1.2,0.81,0.03,0.57,0,-1,-0,0.81,0,0,33,34,98,501,0.0,105,86,60,118.0,0,1,0,0,0,0,0,0,250,250,0,5694.0,,,,,,,,,,,,
60643,1562275713264,-0,2.38,1.47,1.33,1.97,1.2,0.81,0.03,0.57,0,-1,-0,0.81,0,0,33,34,98,501,0.0,105,86,60,118.0,0,1,0,0,0,0,0,0,250,250,0,5694.0,45.747559,4.90921,0.0,421.7,0,0.0,-1,0.0,0.0,0,0.01,1.0107
60663,1562275713284,-1,2.38,1.47,1.33,1.97,1.2,0.81,0.03,0.57,0,-1,-0,0.81,0,0,33,34,98,501,0.0,105,85,60,118.0,0,1,0,0,0,0,0,0,250,250,0,5694.0,,,,,,,,,,,,
60683,1562275713304,-1,2.39,1.48,1.32,1.98,1.2,0.81,0.03,0.57,0,-1,-0,0.81,0,0,33,34,98,501,0.0,105,86,60,118.0,0,1,0,0,0,0,0,0,250,250,0,5694.0,,,,,,,,,,,,
60703,1562275713324,-0,2.38,1.47,1.33,1.98,1.19,0.81,0.03,0.57,0,-1,-0,0.81,0,0,33,34,98,501,0.0,105,85,60,118.0,0,1,0,0,0,0,0,0,250,250,0,5694.0,,,,,,,,,,,,
60723,1562275713344,0,2.38,1.47,1.32,1.98,1.19,0.81,0.03,0.57,0,-1,-0,0.81,0,0,33,34,98,501,0.0,105,85,60,118.0,0,1,0,0,0,0,0,0,250,250,0,5694.0,,,,,,,,,,,,
60743,1562275713364,0,2.38,1.47,1.33,1.97,1.2,0.81,0.03,0.57,0,-1,-0,0.81,0,0,33,34,98,501,0.0,105,85,60,118.0,0,1,0,0,0,0,0,0,250,250,0,5694.0,45.747559,4.90921,0.0,421.7,0,0.0,-1,0.0,0.0,0,0.01,1.0124
60763,1562275713384,0,2.38,1.48,1.32,1.98,1.19,0.81,0.03,0.57,0,-1,-0,0.81,0,0,33,34,98,501,0.0,105,85,60,118.0,0,1,0,0,0,0,0,0,250,250,0,5694.0,,,,,,,,,,,,
60783,1562275713404,-1,2.38,1.48,1.33,1.97,1.19,0.81,0.03,0.57,0,-1,-0,0.81,0,0,33,34,98,501,0.0,105,85,60,118.0,0,1,0,0,0,0,0,0,250,250,0,5694.0,,,,,,,,,,,,
60803,1562275713424,-1,2.38,1.47,1.32,1.98,1.19,0.81,0.03,0.57,0,-1,-0,0.81,0,0,33,34,98,501,0.0,105,86,60,118.0,0,1,0,0,0,0,0,0,250,250,0,5694.0,,,,,,,,,,,,
60823,1562275713444,-0,2.37,1.47,1.32,1.98,1.19,0.81,0.03,0.57,0,-1,-0,0.81,0,0,33,34,98,501,0.0,105,85,60,118.0,0,1,0,0,0,0,0,0,250,250,0,5694.0,,,,,,,,,,,,
60843,1562275713464,-0,2.37,1.47,1.32,1.98,1.19,0.81,0.03,0.57,0,-1,-0,0.81,0,0,33,34,98,501,0.0,105,86,60,118.0,0,1,0,0,0,0,0,0,250,250,0,5694.0,45.747559,4.90921,0.0,421.7,0,0.0,-1,0.0,0.0,0,0.01,1.0141
60863,1562275713484,0,2.35,1.46,1.32,1.98,1.18,0.81,0.03,0.57,0,-1,-0,0.81,0,0,33,34,98,501,0.0,105,85,60,118.0,0,1,0,0,0,0,0,0,250,250,0,5694.0,,,,,,,,,,,,
60883,1562275713504,0,2.36,1.47,1.32,1.98,1.19,0.81,0.03,0.57,0,-1,-0,0.81,0,0,33,34,98,501,0.0,105,85,60,118.0,0,1,0,0,0,0,0,0,250,250,0,5694.0,,,,,,,,,,,,
60903,1562275713524,0,2.35,1.47,1.32,1.97,1.18,0.81,0.03,0.57,0,-1,-0,0.81,0,0,33,34,98,501,0.0,105,85,60,118.0,0,1,0,0,0,0,0,0,250,250,0,5694.0,,,,,,,,,,,,
60923,1562275713544,0,2.34,1.47,1.32,1.98,1.18,0.81,0.03,0.57,0,-1,-0,0.81,0,0,33,34,98,501,0.0,105,86,60,118.0,0,1,0,0,0,0,0,0,250,250,0,5694.0,,,,,,,,,,,,
60943,1562275713564,-1,2.34,1.47,1.32,1.98,1.18,0.81,0.03,0.57,0,-1,-0,0.81,0,0,33,34,98,501,0.0,105,85,60,118.0,0,1,0,0,0,0,0,0,250,250,0,5694.0,45.747559,4.90921,0.0,421.7,0,0.0,-1,0.0,0.0,0,0.01,1.0157
60963,1562275713584,-1,2.33,1.47,1.32,1.97,1.18,0.81,0.03,0.57,0,-1,-0,0.81,0,0,33,34,98,501,0.0,105,86,60,118.0,0,1,0,0,0,0,0,0,250,250,0,5694.0,,,,,,,,,,,,
60983,1562275713604,0,2.33,1.47,1.32,1.98,1.17,0.81,0.03,0.57,0,-1,-0,0.81,0,0,33,34,98,501,0.0,105,86,60,118.0,0,1,0,0,0,0,0,0,250,250,0,5694.0,,,,,,,,,,,,
61003,1562275713624,0,2.33,1.47,1.32,1.97,1.18,0.81,0.03,0.57,0,-1,-0,0.81,0,0,33,34,98,501,0.0,105,86,60,118.0,0,1,0,0,0,0,0,0,250,250,0,5694.0,,,,,,,,,,,,
61023,1562275713644,-2,2.33,1.47,1.31,1.97,1.17,0.81,0.03,0.57,0,-1,-0,0.81,0,0,33,34,98,501,0.0,105,85,60,118.0,0,1,0,0,0,0,0,0,250,250,0,5694.0,,,,,,,,,,,,
61043,1562275713664,0,2.33,1.46,1.31,1.97,1.18,0.81,0.03,0.57,0,-1,-0,0.81,0,0,33,34,98,501,0.0,105,86,60,118.0,0,1,0,0,0,0,0,0,250,250,0,5694.0,45.747559,4.90921,0.0,421.7,0,0.0,-1,0.0,0.0,0,0.01,1.0174
61063,1562275713684,-1,2.31,1.47,1.31,1.97,1.17,0.81,0.03,0.57,0,-1,-0,0.81,0,0,33,34,98,501,0.0,105,86,60,118.0,0,1,0,0,0,0,0,0,250,250,0,5694.0,,,,,,,,,,,,
61083,1562275713704,-2,2.32,1.47,1.31,1.97,1.17,0.81,0.03,0.57,0,-1,-0,0.81,0,0,33,34,98,501,0.0,105,85,60,118.0,0,1,0,0,0,0,0,0,250,250,0,5694.0,,,,,,,,,,,,
61103,1562275713724,-0,2.32,1.46,1.31,1.97,1.18,0.81,0.03,0.57,0,-1,-0,0.81,0,0,33,34,98,501,0.0,105,85,60,118.0,0,1,0,0,0,0,0,0,250,250,0,5694.0,,,,,,,,,,,,
61123,1562275713744,0,2.3,1.47,1.31,1.98,1.17,0.81,0.03,0.57,0,-1,-0,0.81,0,0,33,34,98,501,0.0,105,85,60,118.0,0,1,0,0,0,0,0,0,250,250,0,5694.0,,,,,,,,,,,,
61143,1562275713764,-0,2.3,1.47,1.31,1.96,1.17,0.81,0.03,0.57,0,-1,-0,0.81,0,0,33,34,98,501,0.0,105,85,60,118.0,0,1,0,0,0,0,0,0,250,250,0,5694.0,45.747559,4.90921,0.0,421.7,0,0.0,-1,0.0,0.0,0,0.01,1.0191
61163,1562275713784,-2,2.3,1.47,1.31,1.97,1.16,0.81,0.03,0.57,0,-1,-0,0.81,0,0,33,34,98,501,0.0,105,85,60,118.0,0,1,0,0,0,0,0,0,250,250,0,5694.0,,,,,,,,,,,,
61183,1562275713804,0,2.29,1.47,1.31,1.97,1.16,0.81,0.03,0.57,0,-1,-0,0.81,0,0,33,34,98,501,0.0,105,85,60,118.0,0,1,0,0,0,0,0,0,250,250,0,5694.0,,,,,,,,,,,,
61203,1562275713824,-0,2.29,1.47,1.31,1.96,1.17,0.81,0.03,0.57,0,-1,-0,0.81,0,0,33,34,98,501,0.0,105,85,60,118.0,0,1,0,0,0,0,0,0,250,250,0,5694.0,,,,,,,,,,,,
61223,1562275713844,-0,2.28,1.47,1.31,1.97,1.17,0.81,0.03,0.57,0,-1,-0,0.81,0,0,33,34,98,501,0.0,105,85,60,118.0,0,1,0,0,0,0,0,0,250,250,0,5694.0,,,,,,,,,,,,
61243,1562275713864,0,2.29,1.47,1.31,1.98,1.17,0.81,0.03,0.57,0,-1,-0,0.81,0,0,33,34,98,501,0.0,105,85,60,118.0,0,1,0,0,0,0,0,0,250,250,0,5694.0,45.747559,4.90921,0.0,421.7,0,0.0,-1,0.0,0.0,0,0.01,1.0207
61263,1562275713884,-1,2.3,1.46,1.31,1.97,1.17,0.81,0.03,0.57,0,-1,-0,0.81,0,0,33,34,98,501,0.0,105,85,60,118.0,0,1,0,0,0,0,0,0,250,250,0,5694.0,,,,,,,,,,,,
61283,1562275713904,0,2.29,1.46,1.31,1.97,1.18,0.81,0.03,0.57,0,-1,-0,0.81,0,0,33,34,98,501,0.0,105,86,60,118.0,0,1,0,0,0,0,0,0,250,250,0,5694.0,,,,,,,,,,,,
61303,1562275713924,-0,2.29,1.47,1.31,1.97,1.17,0.81,0.03,0.57,0,-1,-0,0.81,0,0,33,34,98,501,0.0,105,86,60,118.0,0,1,0,0,0,0,0,0,250,250,0,5694.0,,,,,,,,,,,,
61323,1562275713944,-0,2.29,1.47,1.31,1.97,1.16,0.81,0.03,0.57,0,-1,-0,0.81,0,0,33,34,98,501,0.0,105,85,60,118.0,0,1,0,0,0,0,0,0,250,250,0,5694.0,,,,,,,,,,,,
61343,1562275713964,-0,2.29,1.47,1.31,1.97,1.17,0.81,0.03,0.57,0,-1,-0,0.81,0,0,33,34,98,501,0.0,105,86,60,118.0,0,1,0,0,0,0,0,0,250,250,0,5694.0,45.747559,4.90921,0.0,421.7,0,0.0,-1,0.0,0.0,0,0.01,1.0224
61363,1562275713984,-0,2.29,1.47,1.31,1.97,1.17,0.81,0.03,0.57,0,-1,-0,0.81,0,0,33,34,98,501,0.0,105,85,60,118.0,0,1,0,0,0,0,0,0,250,250,0,5694.0,,,,,,,,,,,,
61383,1562275713996,-1,2.29,1.47,1.31,1.97,1.17,0.81,0.03,0.57,0,-1,-0,0.81,0,0,33,34,98,501,0.0,105,86,60,118.0,0,1,0,0,0,0,0,0,250,250,0,5694.0,,,,,,,,,,,,
61403,1562275714016,-1,2.29,1.47,1.31,1.97,1.17,0.81,0.03,0.57,0,-1,-0,0.81,0,0,33,34,98,501,0.0,105,85,60,118.0,0,1,0,0,0,0,0,0,250,250,0,5694.0,,,,,,,,,,,,
61423,1562275714036,-0,2.28,1.47,1.3,1.98,1.17,0.81,0.03,0.57,0,-1,-0,0.81,0,0,33,34,98,501,0.0,105,85,60,118.0,0,1,0,0,0,0,0,0,250,250,0,5694.0,,,,,,,,,,,,
61443,1562275714056,-0,2.29,1.47,1.3,1.97,1.17,0.81,0.03,0.57,0,-1,-0,0.81,0,0,33,34,98,501,0.0,105,86,60,118.0,0,1,0,0,0,0,0,0,250,250,0,5694.0,45.747559,4.90921,0.0,421.7,0,0.0,-1,0.0,0.0,0,0.01,1.024
61463,1562275714076,0,2.28,1.47,1.3,1.98,1.17,0.81,0.03,0.57,0,-1,-0,0.81,0,0,33,34,98,501,0.0,105,85,60,118.0,0,1,0,0,0,0,0,0,250,250,0,5694.0,,,,,,,,,,,,
61483,1562275714103,-2,2.29,1.47,1.3,1.97,1.16,0.81,0.03,0.57,0,-1,-0,0.81,0,0,33,34,98,501,0.0,105,85,60,118.0,0,1,0,0,0,0,0,0,250,250,0,5694.0,,,,,,,,,,,,
61503,1562275714123,0,2.29,1.46,1.3,1.97,1.17,0.81,0.03,0.57,0,-1,-0,0.81,0,0,33,34,98,501,0.0,105,85,60,118.0,0,1,0,0,0,0,0,0,250,250,0,5694.0,,,,,,,,,,,,
61523,1562275714143,0,2.28,1.47,1.3,1.98,1.17,0.81,0.03,0.57,0,-1,-0,0.81,0,0,33,34,98,501,0.0,105,85,60,118.0,0,1,0,0,0,0,0,0,250,250,0,5694.0,,,,,,,,,,,,
61543,1562275714163,-2,2.29,1.47,1.3,1.97,1.16,0.81,0.03,0.57,0,-1,-0,0.81,0,0,33,34,98,501,0.0,105,85,60,118.0,0,1,0,0,0,0,0,0,250,250,0,5694.0,45.747559,4.90921,0.0,421.7,0,0.0,-1,0.0,0.0,0,0.01,1.0257
61563,1562275714183,0,2.28,1.47,1.31,1.96,1.17,0.81,0.03,0.57,0,-1,-0,0.81,0,0,33,34,98,501,0.0,105,86,60,118.0,0,1,0,0,0,0,0,0,250,250,0,5694.0,,,,,,,,,,,,
61583,1562275714203,-0,2.27,1.47,1.31,1.97,1.16,0.81,0.03,0.57,0,-1,-0,0.81,0,0,33,34,98,501,0.0,105,85,60,118.0,0,1,0,0,0,0,0,0,250,250,0,5460.41,,,,,,,,,,,,
61603,1562275714223,-0,2.26,1.47,1.3,1.97,1.17,0.81,0.03,0.57,0,-1,-0,0.81,0,0,33,34,98,501,0.0,105,86,60,118.0,0,1,0,0,0,0,0,0,250,250,0,5694.0,,,,,,,,,,,,
61623,1562275714243,-1,2.25,1.47,1.31,1.97,1.16,0.81,0.03,0.57,0,-1,-0,0.81,0,0,33,34,98,501,0.0,105,85,60,118.0,0,1,0,0,0,0,0,0,250,250,0,5694.0,,,,,,,,,,,,
61643,1562275714263,0,2.25,1.47,1.3,1.98,1.16,0.81,0.03,0.57,0,-1,-0,0.81,0,0,33,34,98,501,0.0,105,85,60,118.0,0,1,0,0,0,0,0,0,250,250,0,5694.0,45.747559,4.90921,0.0,421.7,0,0.0,-1,0.0,0.0,0,0.01,1.0274
61663,1562275714283,0,2.24,1.48,1.3,1.98,1.17,0.81,0.03,0.57,0,-1,-0,0.81,0,0,33,34,98,501,0.0,105,85,60,118.0,0,1,0,0,0,0,0,0,250,250,0,5694.0,,,,,,,,,,,,
61683,1562275714305,0,2.23,1.47,1.3,1.97,1.17,0.81,0.03,0.57,0,-1,-0,0.81,0,0,33,34,98,501,0.0,105,85,60,118.0,0,1,0,0,0,0,0,0,250,250,0,5694.0,,,,,,,,,,,,
61703,1562275714325,0,2.22,1.47,1.3,1.97,1.16,0.81,0.03,0.57,0,-1,-0,0.81,0,0,33,34,98,501,0.0,105,86,60,118.0,0,1,0,0,0,0,0,0,250,250,0,5694.0,,,,,,,,,,,,
61723,1562275714345,0,2.22,1.46,1.3,1.98,1.17,0.81,0.03,0.57,0,-1,-0,0.81,0,0,33,34,98,501,0.0,105,85,60,118.0,0,1,0,0,0,0,0,0,250,250,0,5694.0,,,,,,,,,,,,
61743,1562275714365,-0,2.21,1.48,1.3,1.97,1.16,0.81,0.03,0.57,0,-1,-0,0.81,0,0,33,34,98,501,0.0,105,85,60,118.0,0,1,0,0,0,0,0,0,250,250,0,5694.0,45.747559,4.90921,0.0,421.7,0,0.0,-1,0.0,0.0,0,0.01,1.029
61763,1562275714385,-2,2.22,1.47,1.3,1.97,1.16,0.81,0.03,0.57,0,-1,-0,0.81,0,0,33,34,98,501,0.0,105,85,60,118.0,0,1,0,0,0,0,0,0,250,250,0,5694.0,,,,,,,,,,,,
61783,1562275714405,-0,2.21,1.48,1.3,1.98,1.16,0.81,0.03,0.57,0,-1,-0,0.81,0,0,33,34,98,501,0.0,105,85,60,118.0,0,1,0,0,0,0,0,0,250,250,0,5694.0,,,,,,,,,,,,
61803,1562275714425,-1,2.21,1.48,1.3,1.97,1.16,0.81,0.03,0.57,0,-1,-0,0.81,0,0,33,34,98,501,0.0,105,85,60,118.0,0,1,0,0,0,0,0,0,250,250,0,5694.0,,,,,,,,,,,,
61823,1562275714445,-1,2.22,1.48,1.3,1.98,1.16,0.81,0.03,0.57,0,-1,-0,0.81,0,0,33,34,98,501,0.0,105,86,60,118.0,0,1,0,0,0,0,0,0,250,250,0,5694.0,,,,,,,,,,,,
61843,1562275714465,0,2.22,1.47,1.29,1.96,1.16,0.81,0.03,0.57,0,-1,-0,0.81,0,0,33,34,98,501,0.0,105,86,60,118.0,0,1,0,0,0,0,0,0,250,250,0,5694.0,45.747559,4.90921,0.0,421.7,0,0.0,-1,0.0,0.0,0,0.01,1.0307
61863,1562275714485,0,2.22,1.47,1.3,1.97,1.16,0.81,0.03,0.57,0,-1,-0,0.81,0,0,33,34,98,501,0.0,105,85,60,118.0,0,1,0,0,0,0,0,0,250,250,0,5694.0,,,,,,,,,,,,
61883,1562275714505,0,2.23,1.47,1.3,1.97,1.17,0.81,0.03,0.57,0,-1,-0,0.81,0,0,33,34,98,501,0.0,105,86,60,118.0,0,1,0,0,0,0,0,0,250,250,0,5694.0,,,,,,,,,,,,
61903,1562275714525,0,2.24,1.47,1.3,1.96,1.17,0.81,0.03,0.57,0,-1,-0,0.81,0,0,33,34,98,501,0.0,105,85,60,118.0,0,1,0,0,0,0,0,0,250,250,0,5694.0,,,,,,,,,,,,
61923,1562275714545,-0,2.24,1.47,1.3,1.97,1.16,0.81,0.03,0.57,0,-1,-0,0.81,0,0,33,34,98,501,0.0,105,86,60,118.0,0,1,0,0,0,0,0,0,250,250,0,5694.0,,,,,,,,,,,,
61943,1562275714565,0,2.24,1.47,1.3,1.97,1.17,0.81,0.03,0.57,0,-1,-0,0.81,0,0,33,34,98,501,0.0,105,85,60,118.0,0,1,0,0,0,0,0,0,250,250,0,5694.0,45.747559,4.90921,0.0,421.7,0,0.0,-1,0.0,0.0,0,0.01,1.0324
61963,1562275714585,-0,2.26,1.46,1.3,1.97,1.16,0.81,0.03,0.57,0,-1,-0,0.82,0,0,33,34,98,501,0.0,105,86,60,118.0,0,1,0,0,0,0,0,0,250,250,0,5694.0,,,,,,,,,,,,
61983,1562275714605,-1,2.26,1.47,1.29,1.97,1.16,0.81,0.03,0.57,0,-1,-0,0.81,0,0,33,34,98,501,0.0,105,86,60,118.0,0,1,0,0,0,0,0,0,250,250,0,5694.0,,,,,,,,,,,,
62003,1562275714625,0,2.26,1.47,1.29,1.98,1.16,0.81,0.03,0.57,0,-1,-0,0.82,0,0,33,34,98,501,0.0,105,85,60,118.0,0,1,0,0,0,0,0,0,250,250,0,5694.0,,,,,,,,,,,,
62023,1562275714645,-0,2.25,1.47,1.3,1.97,1.16,0.81,0.03,0.57,0,-1,-0,0.81,0,0,33,34,98,501,0.0,105,85,60,118.0,0,1,0,0,0,0,0,0,250,250,0,5694.0,,,,,,,,,,,,
62043,1562275714665,-0,2.25,1.48,1.3,1.97,1.16,0.81,0.03,0.57,0,-1,-0,0.81,0,0,33,34,98,501,0.0,105,85,60,118.0,0,1,0,0,0,0,0,0,250,250,0,5694.0,45.747559,4.90921,0.0,421.7,0,0.0,-1,0.0,0.0,0,0.01,1.034
62063,1562275714685,0,2.25,1.48,1.29,1.98,1.16,0.81,0.03,0.57,0,-1,-0,0.81,0,0,33,34,98,501,0.0,105,85,60,118.0,0,1,0,0,0,0,0,0,250,250,0,5694.0,,,,,,,,,,,,
62083,1562275714705,-2,2.26,1.48,1.29,1.97,1.16,0.81,0.03,0.57,0,-1,-0,0.81,0,0,33,34,98,501,0.0,105,86,60,118.0,0,1,0,0,0,0,0,0,250,250,0,5694.0,,,,,,,,,,,,
62103,1562275714725,-1,2.26,1.48,1.29,1.98,1.16,0.81,0.03,0.57,0,-1,-0,0.81,0,0,33,34,98,501,0.0,105,86,60,118.0,0,1,0,0,0,0,0,0,250,250,0,5694.0,,,,,,,,,,,,
62123,1562275714745,-0,2.25,1.47,1.3,1.97,1.16,0.81,0.03,0.57,0,-1,-0,0.81,0,0,33,34,98,501,0.0,105,85,60,118.0,0,1,0,0,0,0,0,0,250,250,0,5694.0,,,,,,,,,,,,
62143,1562275714765,-0,2.26,1.47,1.3,1.97,1.16,0.81,0.03,0.57,0,-1,-0,0.81,0,0,33,34,98,501,0.0,105,85,60,118.0,0,1,0,0,0,0,0,0,250,250,0,5694.0,45.747559,4.90921,0.0,421.7,0,0.0,-1,0.0,0.0,0,0.01,1.0357
62163,1562275714785,0,2.25,1.47,1.29,1.97,1.16,0.81,0.03,0.57,0,-1,-0,0.81,0,0,33,34,98,501,0.0,105,85,60,118.0,0,1,0,0,0,0,0,0,250,250,0,5694.0,,,,,,,,,,,,
62183,1562275714805,-2,2.26,1.47,1.29,1.96,1.16,0.81,0.03,0.57,0,-1,-0,0.81,0,0,33,34,98,501,0.0,105,85,60,118.0,0,1,0,0,0,0,0,0,250,250,0,5694.0,,,,,,,,,,,,
62203,1562275714825,-0,2.26,1.46,1.3,1.97,1.16,0.81,0.03,0.57,0,-1,-0,0.81,0,0,33,34,98,501,0.0,105,86,60,118.0,0,1,0,0,0,0,0,0,250,250,0,5694.0,,,,,,,,,,,,
62223,1562275714845,-2,2.26,1.47,1.3,1.97,1.15,0.81,0.03,0.57,0,-1,-0,0.81,0,0,33,34,98,501,0.0,105,85,60,118.0,0,1,0,0,0,0,0,0,250,250,0,5694.0,,,,,,,,,,,,
62243,1562275714865,-2,2.26,1.46,1.29,1.96,1.16,0.81,0.03,0.57,0,-1,-0,0.81,0,0,33,34,98,501,0.0,105,85,60,118.0,0,1,0,0,0,0,0,0,250,250,0,5694.0,45.747559,4.90921,0.0,421.7,0,0.0,-1,0.0,0.0,0,0.01,1.0374
62263,1562275714885,-2,2.26,1.46,1.3,1.95,1.16,0.81,0.03,0.57,0,-1,-0,0.81,0,0,33,34,98,501,0.0,105,85,60,118.0,0,1,0,0,0,0,0,0,250,250,0,5694.0,,,,,,,,,,,,
62283,1562275714905,-2,2.26,1.46,1.29,1.96,1.16,0.81,0.03,0.57,0,-1,-0,0.81,0,0,33,34,98,501,0.0,105,86,60,118.0,0,1,0,0,0,0,0,0,250,250,0,5694.0,,,,,,,,,,,,
62303,1562275714925,-0,2.26,1.45,1.3,1.95,1.16,0.81,0.03,0.57,0,-1,-0,0.81,0,0,33,34,98,501,0.0,105,86,60,118.0,0,1,0,0,0,0,0,0,250,250,0,5694.0,,,,,,,,,,,,
62323,1562275714945,0,2.25,1.46,1.3,1.96,1.15,0.81,0.03,0.57,0,-1,-0,0.81,0,0,33,34,98,501,0.0,105,85,60,118.0,0,1,0,0,0,0,0,0,250,250,0,5694.0,,,,,,,,,,,,
62343,1562275714965,-0,2.26,1.45,1.3,1.96,1.16,0.81,0.03,0.57,0,-1,-0,0.81,0,0,33,34,98,501,0.0,105,86,60,118.0,0,1,0,0,0,0,0,0,250,250,0,5880.87,45.747559,4.90921,0.0,421.7,0,0.0,-1,0.0,0.0,0,0.01,1.039
62363,1562275714985,0,2.26,1.45,1.29,1.95,1.17,0.81,0.03,0.57,0,-1,-0,0.81,0,0,33,34,98,501,0.0,105,85,60,118.0,0,1,0,0,0,0,0,0,250,250,0,5694.0,,,,,,,,,,,,
62383,1562275714997,-1,2.27,1.46,1.29,1.95,1.17,0.81,0.03,0.57,0,-1,-0,0.81,0,0,33,34,98,501,0.0,105,85,60,118.0,0,1,0,0,0,0,0,0,250,250,0,5694.0,,,,,,,,,,,,
62403,1562275715017,0,2.27,1.45,1.29,1.95,1.16,0.81,0.03,0.57,0,-1,-0,0.81,0,0,33,34,98,501,0.0,105,86,60,118.0,0,1,0,0,0,0,0,0,250,250,0,5694.0,,,,,,,,,,,,
62423,1562275715037,-1,2.27,1.45,1.29,1.95,1.16,0.81,0.03,0.57,0,-1,-0,0.81,0,0,33,34,98,501,0.0,105,86,60,118.0,0,1,0,0,0,0,0,0,250,250,0,5694.0,,,,,,,,,,,,
62443,1562275715057,-0,2.28,1.44,1.3,1.94,1.16,0.81,0.03,0.57,0,-1,-0,0.81,0,0,33,34,98,501,0.0,105,86,60,118.0,0,1,0,0,0,0,0,0,250,250,0,5694.0,45.747559,4.90921,0.0,421.7,0,0.0,-1,0.0,0.0,0,0.01,1.0407
62463,1562275715077,-1,2.27,1.43,1.3,1.94,1.17,0.81,0.03,0.57,0,-1,-0,0.81,0,0,33,34,98,501,0.0,105,86,60,118.0,0,1,0,0,0,0,0,0,250,250,0,5694.0,,,,,,,,,,,,
62483,1562275715104,-0,2.26,1.43,1.3,1.94,1.17,0.81,0.03,0.57,0,-1,-0,0.81,0,0,33,34,98,501,0.0,105,86,60,118.0,0,1,0,0,0,0,0,0,250,250,0,5694.0,,,,,,,,,,,,
62503,1562275715124,-0,2.27,1.43,1.3,1.93,1.17,0.81,0.03,0.57,0,-1,-0,0.81,0,0,33,34,98,501,0.0,105,86,60,118.0,0,1,0,0,0,0,0,0,250,250,0,5694.0,,,,,,,,,,,,
62523,1562275715144,-0,2.27,1.43,1.3,1.94,1.16,0.81,0.03,0.57,0,-1,-0,0.81,0,0,33,34,98,501,0.0,105,86,60,118.0,0,1,0,0,0,0,0,0,250,250,0,5694.0,,,,,,,,,,,,
62543,1562275715164,-0,2.27,1.43,1.3,1.93,1.17,0.81,0.03,0.57,0,-1,-0,0.81,0,0,33,34,98,501,0.0,105,85,60,118.0,0,1,0,0,0,0,0,0,250,250,0,5694.0,45.747559,4.90921,0.0,421.7,0,0.0,-1,0.0,0.0,0,0.01,1.0424
62563,1562275715184,-0,2.27,1.42,1.3,1.94,1.16,0.81,0.03,0.57,0,-1,-0,0.81,0,0,33,34,98,501,0.0,105,86,60,118.0,0,1,0,0,0,0,0,0,250,250,0,5694.0,,,,,,,,,,,,
62583,1562275715204,-0,2.26,1.43,1.3,1.93,1.16,0.81,0.03,0.57,0,-1,-0,0.81,0,0,33,34,98,501,0.0,105,86,60,118.0,0,1,0,0,0,0,0,0,250,250,0,5694.0,,,,,,,,,,,,
62603,1562275715224,0,2.27,1.42,1.3,1.93,1.16,0.81,0.03,0.57,0,-1,-0,0.81,0,0,33,34,98,501,0.0,105,85,60,118.0,0,1,0,0,0,0,0,0,250,250,0,5694.0,,,,,,,,,,,,
62623,1562275715244,-1,2.27,1.42,1.3,1.93,1.17,0.81,0.03,0.57,0,-1,-0,0.81,0,0,33,34,98,501,0.0,105,85,60,118.0,0,1,0,0,0,0,0,0,250,250,0,5694.0,,,,,,,,,,,,
62643,1562275715264,0,2.27,1.42,1.3,1.92,1.16,0.81,0.03,0.57,0,-1,-0,0.81,0,0,33,34,98,501,0.0,105,85,60,118.0,0,1,0,0,0,0,0,0,250,250,0,5694.0,45.747559,4.90921,0.0,421.7,0,0.0,-1,0.0,0.0,0,0.01,1.044
62663,1562275715284,0,2.27,1.41,1.3,1.92,1.17,0.81,0.03,0.57,0,-1,-0,0.81,0,0,33,34,98,501,0.0,105,85,60,118.0,0,1,0,0,0,0,0,0,250,250,0,5694.0,,,,,,,,,,,,
62683,1562275715304,0,2.28,1.4,1.31,1.91,1.17,0.81,0.03,0.57,0,-1,-0,0.81,0,0,33,34,98,501,0.0,105,85,60,118.0,0,1,0,0,0,0,0,0,250,250,0,5694.0,,,,,,,,,,,,
62703,1562275715324,-2,2.28,1.4,1.31,1.91,1.16,0.81,0.03,0.57,0,-1,-0,0.81,0,0,33,34,98,501,0.0,105,86,60,118.0,0,1,0,0,0,0,0,0,250,250,0,5694.0,,,,,,,,,,,,
62723,1562275715344,0,2.27,1.41,1.31,1.92,1.17,0.81,0.03,0.57,0,-1,-0,0.81,0,0,33,34,98,501,0.0,105,86,60,118.0,0,1,0,0,0,0,0,0,250,250,0,5694.0,,,,,,,,,,,,
62743,1562275715364,-1,2.28,1.4,1.31,1.91,1.18,0.81,0.03,0.57,0,-1,-0,0.81,0,0,33,34,98,501,0.0,105,86,60,118.0,0,1,0,0,0,0,0,0,250,250,0,5694.0,45.747559,4.90921,0.0,421.7,0,0.0,-1,0.0,0.0,0,0.01,1.0457
62763,1562275715384,-1,2.28,1.4,1.32,1.91,1.17,0.81,0.03,0.57,0,-1,-0,0.81,0,0,33,34,98,501,0.0,105,86,60,118.0,0,1,0,0,0,0,0,0,250,250,0,5694.0,,,,,,,,,,,,
62783,1562275715404,-0,2.27,1.41,1.31,1.92,1.17,0.81,0.03,0.57,0,-1,-0,0.81,0,0,33,34,98,501,0.0,105,85,60,118.0,0,1,0,0,0,0,0,0,250,250,0,5694.0,,,,,,,,,,,,
62803,1562275715424,-1,2.28,1.4,1.32,1.91,1.19,0.81,0.03,0.57,0,-1,-0,0.81,0,0,33,34,98,501,0.0,105,86,60,118.0,0,1,0,0,0,0,0,0,250,250,0,5694.0,,,,,,,,,,,,
62823,1562275715444,0,2.28,1.41,1.32,1.91,1.19,0.81,0.03,0.57,0,-1,-0,0.81,0,0,33,34,98,501,0.0,105,85,60,118.0,0,1,0,0,0,0,0,0,250,250,0,5694.0,,,,,,,,,,,,
62843,1562275715464,-2,2.28,1.41,1.33,1.92,1.19,0.81,0.03,0.57,0,-1,-0,0.81,0,0,33,34,98,501,0.0,105,86,60,118.0,0,1,0,0,0,0,0,0,250,250,0,5694.0,45.747559,4.90921,0.0,421.7,0,0.0,-1,0.0,0.0,0,0.01,1.0474
62863,1562275715484,-2,2.28,1.41,1.33,1.91,1.2,0.81,0.03,0.57,0,-1,-0,0.81,0,0,33,34,98,501,0.0,105,86,60,118.0,0,1,0,0,0,0,0,0,250,250,0,5694.0,,,,,,,,,,,,
62883,1562275715504,-1,2.27,1.41,1.34,1.92,1.19,0.81,0.03,0.57,0,-1,-0,0.81,0,0,33,34,98,501,0.0,105,85,60,118.0,0,1,0,0,0,0,0,0,250,250,0,5694.0,,,,,,,,,,,,
62903,1562275715524,-1,2.28,1.42,1.33,1.92,1.2,0.81,0.03,0.57,0,-1,-0,0.81,0,0,33,34,98,501,0.0,105,85,60,118.0,0,1,0,0,0,0,0,0,250,250,0,5694.0,,,,,,,,,,,,
62923,1562275715544,-2,2.28,1.42,1.33,1.92,1.21,0.81,0.03,0.57,0,-1,-0,0.81,0,0,33,34,98,501,0.0,105,86,60,118.0,0,1,0,0,0,0,0,0,250,250,0,5694.0,,,,,,,,,,,,
62943,1562275715564,0,2.28,1.41,1.34,1.93,1.2,0.81,0.03,0.57,0,-1,-0,0.81,0,0,33,34,98,501,0.0,105,86,60,118.0,0,1,0,0,0,0,0,0,250,250,0,5694.0,45.747559,4.90921,0.0,421.7,0,0.0,-1,0.0,0.0,0,0.01,1.049
62963,1562275715584,-0,2.27,1.42,1.34,1.91,1.2,0.81,0.03,0.57,0,-1,-0,0.81,0,0,33,34,98,501,0.0,105,86,60,118.0,0,1,0,0,0,0,0,0,250,250,0,5694.0,,,,,,,,,,,,
62983,1562275715604,0,2.28,1.41,1.34,1.92,1.2,0.81,0.03,0.57,0,-1,-0,0.81,0,0,33,34,98,501,0.0,105,86,60,118.0,0,1,0,0,0,0,0,0,250,250,0,5694.0,,,,,,,,,,,,
63003,1562275715624,-0,2.27,1.42,1.34,1.93,1.2,0.81,0.03,0.57,0,-1,-0,0.81,0,0,33,34,98,501,0.0,105,86,60,118.0,0,1,0,0,0,0,0,0,250,250,0,5694.0,,,,,,,,,,,,
63023,1562275715644,0,2.27,1.42,1.35,1.92,1.21,0.81,0.03,0.57,0,-1,-0,0.81,0,0,33,34,98,501,0.0,105,86,60,118.0,0,1,0,0,0,0,0,0,250,250,0,5694.0,,,,,,,,,,,,
63043,1562275715664,-2,2.28,1.42,1.34,1.92,1.2,0.81,0.03,0.57,0,-1,-0,0.81,0,0,33,34,98,501,0.0,105,85,60,118.0,0,1,0,0,0,0,0,0,250,250,0,5694.0,45.747559,4.90921,0.0,421.7,0,0.0,-1,0.0,0.0,0,0.01,1.0507
63063,1562275715684,-1,2.27,1.42,1.35,1.92,1.21,0.81,0.03,0.57,0,-1,-0,0.81,0,0,33,34,98,501,0.0,105,85,60,118.0,0,1,0,0,0,0,0,0,250,250,0,5694.0,,,,,,,,,,,,
63083,1562275715704,0,2.27,1.41,1.34,1.92,1.22,0.81,0.03,0.57,0,-1,-0,0.81,0,0,33,34,98,501,0.0,105,86,60,118.0,0,1,0,0,0,0,0,0,250,250,0,5694.0,,,,,,,,,,,,
63103,1562275715724,0,2.27,1.42,1.36,1.92,1.21,0.81,0.03,0.57,0,-1,-0,0.81,0,0,33,34,98,501,0.0,105,86,60,118.0,0,1,0,0,0,0,0,0,250,250,0,5694.0,,,,,,,,,,,,
63123,1562275715744,0,2.26,1.42,1.36,1.92,1.21,0.81,0.03,0.57,0,-1,-0,0.81,0,0,33,34,98,501,0.0,105,85,60,118.0,0,1,0,0,0,0,0,0,250,250,0,5694.0,,,,,,,,,,,,
63143,1562275715764,-0,2.26,1.42,1.36,1.92,1.21,0.81,0.03,0.57,0,-1,-0,0.81,0,0,33,34,98,501,0.0,105,85,60,118.0,0,1,0,0,0,0,0,0,250,250,0,5694.0,45.747559,4.90921,0.0,421.7,0,0.0,-1,0.0,0.0,0,0.01,1.0524
63163,1562275715784,-2,2.28,1.42,1.38,1.93,1.22,0.81,0.03,0.57,0,-1,-0,0.81,0,0,33,34,98,501,0.0,105,86,60,118.0,0,1,0,0,0,0,0,0,250,250,0,5694.0,,,,,,,,,,,,
63183,1562275715806,-1,2.28,1.42,1.38,1.93,1.24,0.81,0.03,0.57,0,-1,-0,0.81,0,0,33,34,98,501,0.0,105,85,60,118.0,0,1,0,0,0,0,0,0,250,250,0,5694.0,,,,,,,,,,,,
63203,1562275715826,0,2.26,1.42,1.39,1.93,1.23,0.81,0.03,0.57,0,-1,-0,0.81,0,0,33,34,98,501,0.0,105,86,60,118.0,0,1,0,0,0,0,0,0,250,250,0,5694.0,,,,,,,,,,,,
63223,1562275715846,-0,2.27,1.42,1.39,1.93,1.24,0.81,0.03,0.57,0,-1,-0,0.81,0,0,33,34,98,501,0.0,105,85,60,118.0,0,1,0,0,0,0,0,0,250,250,0,5694.0,,,,,,,,,,,,
63243,1562275715866,-0,2.27,1.42,1.39,1.92,1.24,0.81,0.03,0.57,0,-1,-0,0.81,0,0,33,34,98,501,0.0,105,85,60,118.0,0,1,0,0,0,0,0,0,250,250,0,5694.0,45.747559,4.90921,0.0,421.7,0,0.0,-1,0.0,0.0,0,0.01,1.054
63263,1562275715886,-0,2.28,1.42,1.39,1.93,1.24,0.81,0.03,0.57,0,-1,-0,0.81,0,0,33,34,98,501,0.0,105,86,60,118.0,0,1,0,0,0,0,0,0,250,250,0,5694.0,,,,,,,,,,,,
63283,1562275715904,-2,2.29,1.42,1.39,1.93,1.23,0.81,0.03,0.57,0,-1,-0,0.81,0,0,33,34,98,501,0.0,105,85,60,118.0,0,1,0,0,0,0,0,0,250,250,0,5694.0,,,,,,,,,,,,
63303,1562275715924,0,2.28,1.42,1.38,1.92,1.24,0.81,0.03,0.57,0,-1,-0,0.81,0,0,33,34,98,501,0.0,105,85,60,118.0,0,1,0,0,0,0,0,0,250,250,0,5694.0,,,,,,,,,,,,
63323,1562275715944,0,2.28,1.42,1.37,1.93,1.22,0.81,0.03,0.57,0,-1,-0,0.81,0,0,33,34,98,501,0.0,105,86,60,118.0,0,1,0,0,0,0,0,0,250,250,0,5694.0,,,,,,,,,,,,
63343,1562275715964,-2,2.28,1.42,1.37,1.92,1.23,0.81,0.03,0.57,0,-1,-0,0.81,0,0,33,34,98,501,0.0,105,86,60,118.0,0,1,0,0,0,0,0,0,250,250,0,5694.0,45.747559,4.90921,0.0,421.7,0,0.0,-1,0.0,0.0,0,0.01,1.0557
63363,1562275715984,-0,2.29,1.41,1.37,1.92,1.22,0.81,0.03,0.57,0,-1,-0,0.81,0,0,33,34,98,501,0.0,105,86,60,118.0,0,1,0,0,0,0,0,0,250,250,0,5694.0,,,,,,,,,,,,
63383,1562275715996,-0,2.28,1.42,1.36,1.93,1.21,0.81,0.03,0.57,0,-1,-0,0.81,0,0,33,34,98,501,0.0,105,86,60,118.0,0,1,0,0,0,0,0,0,250,250,0,5694.0,,,,,,,,,,,,
63403,1562275716016,-0,2.29,1.42,1.35,1.93,1.22,0.81,0.03,0.57,0,-1,-0,0.81,0,0,33,34,98,501,0.0,105,86,60,118.0,0,1,0,0,0,0,0,0,250,250,0,5694.0,,,,,,,,,,,,
63423,1562275716036,-0,2.29,1.42,1.35,1.92,1.22,0.81,0.03,0.57,0,-1,-0,0.81,0,0,33,34,98,501,0.0,105,86,60,118.0,0,1,0,0,0,0,0,0,250,250,0,5694.0,,,,,,,,,,,,
63443,1562275716056,-0,2.29,1.42,1.35,1.92,1.22,0.81,0.03,0.57,0,-1,-0,0.81,0,0,33,34,98,501,0.0,105,86,60,118.0,0,1,0,0,0,0,0,0,250,250,0,5694.0,45.747559,4.90921,0.0,421.7,0,0.0,-1,0.0,0.0,0,0.01,1.0574
63463,1562275716076,-0,2.28,1.42,1.34,1.93,1.21,0.81,0.03,0.57,0,-1,-0,0.81,0,0,33,34,98,501,0.0,105,86,60,118.0,0,1,0,0,0,0,0,0,250,250,0,5694.0,,,,,,,,,,,,
63483,1562275716103,-2,2.29,1.42,1.35,1.93,1.21,0.81,0.03,0.57,0,-1,-0,0.81,0,0,33,34,98,501,0.0,105,85,60,118.0,0,1,0,0,0,0,0,0,250,250,0,5694.0,,,,,,,,,,,,
63503,1562275716123,0,2.28,1.42,1.36,1.92,1.22,0.81,0.03,0.57,0,-1,-0,0.81,0,0,33,34,98,501,0.0,105,86,60,118.0,0,1,0,0,0,0,0,0,250,250,0,5880.87,,,,,,,,,,,,
63523,1562275716143,0,2.28,1.42,1.35,1.93,1.22,0.81,0.03,0.57,0,-1,-0,0.81,0,0,33,34,98,501,0.0,105,86,60,118.0,0,1,0,0,0,0,0,0,250,250,0,5694.0,,,,,,,,,,,,
63543,1562275716163,-1,2.28,1.42,1.35,1.92,1.23,0.81,0.03,0.57,0,-1,-0,0.81,0,0,33,34,98,501,0.0,105,85,60,118.0,0,1,0,0,0,0,0,0,250,250,0,5694.0,45.747559,4.90921,0.0,421.7,0,0.0,-1,0.0,0.0,0,0.01,1.059
63563,1562275716183,-0,2.27,1.43,1.37,1.93,1.23,0.81,0.03,0.57,0,-1,-0,0.81,0,0,33,34,98,501,0.0,105,86,60,118.0,0,1,0,0,0,0,0,0,250,250,0,5694.0,,,,,,,,,,,,
63583,1562275716203,-2,2.29,1.43,1.36,1.93,1.24,0.81,0.03,0.57,0,-1,-0,0.81,0,0,33,34,98,501,0.0,105,86,60,118.0,0,1,0,0,0,0,0,0,250,250,0,5694.0,,,,,,,,,,,,
63603,1562275716223,0,2.28,1.43,1.36,1.93,1.23,0.81,0.03,0.57,0,-1,-0,0.81,0,0,33,34,98,501,0.0,105,86,60,118.0,0,1,0,0,0,0,0,0,250,250,0,5694.0,,,,,,,,,,,,
63623,1562275716243,0,2.27,1.43,1.37,1.93,1.23,0.81,0.03,0.57,0,-1,-0,0.81,0,0,33,34,98,501,0.0,105,86,60,118.0,0,1,0,0,0,0,0,0,250,250,0,5694.0,,,,,,,,,,,,
63643,1562275716263,-1,2.29,1.43,1.37,1.93,1.23,0.81,0.03,0.57,0,-1,-0,0.81,0,0,33,34,98,501,0.0,105,85,60,118.0,0,1,0,0,0,0,0,0,250,250,0,5694.0,45.747559,4.90921,0.0,421.7,0,0.0,-1,0.0,0.0,0,0.01,1.0607
63663,1562275716283,-1,2.28,1.43,1.36,1.93,1.24,0.81,0.03,0.57,0,-1,-0,0.81,0,0,33,34,98,501,0.0,105,85,60,118.0,0,1,0,0,0,0,0,0,250,250,0,5694.0,,,,,,,,,,,,
63683,1562275716303,-2,2.28,1.43,1.37,1.93,1.23,0.81,0.03,0.57,0,-1,-0,0.81,0,0,33,34,98,501,0.0,105,85,60,118.0,0,1,0,0,0,0,0,0,250,250,0,5694.0,,,,,,,,,,,,
63703,1562275716323,-2,2.29,1.43,1.36,1.93,1.22,0.81,0.03,0.57,0,-1,-0,0.81,0,0,33,34,98,501,0.0,105,86,60,118.0,0,1,0,0,0,0,0,0,250,250,0,5694.0,,,,,,,,,,,,
63723,1562275716343,-1,2.29,1.43,1.35,1.93,1.23,0.81,0.03,0.57,0,-1,-0,0.81,0,0,33,34,98,501,0.0,105,85,60,118.0,0,1,0,0,0,0,0,0,250,250,0,5694.0,,,,,,,,,,,,
63743,1562275716309,-1,2.28,1.42,1.36,1.93,1.23,0.81,0.03,0.57,0,-1,-0,0.81,0,0,33,34,98,501,0.0,105,85,60,118.0,0,1,0,0,0,0,0,0,250,250,0,5694.0,45.747559,4.90921,0.0,421.7,0,0.0,-1,0.0,0.0,0,0.01,1.0624
63763,1562275716329,0,2.28,1.43,1.35,1.93,1.22,0.81,0.03,0.57,0,-1,-0,0.81,0,0,33,34,98,501,0.0,105,85,60,118.0,0,1,0,0,0,0,0,0,250,250,0,5694.0,,,,,,,,,,,,
63783,1562275716403,-0,2.28,1.43,1.35,1.93,1.22,0.81,0.03,0.57,0,-1,-0,0.81,0,0,33,34,98,501,0.0,105,86,60,118.0,0,1,0,0,0,0,0,0,250,250,0,5694.0,,,,,,,,,,,,
63803,1562275716423,-0,2.28,1.43,1.35,1.93,1.21,0.81,0.03,0.57,0,-1,-0,0.81,0,0,33,34,98,501,0.0,105,85,60,118.0,0,1,0,0,0,0,0,0,250,250,0,5694.0,,,,,,,,,,,,
63823,1562275716443,0,2.29,1.42,1.35,1.93,1.22,0.81,0.03,0.57,0,-1,-0,0.81,0,0,33,34,98,501,0.0,105,85,60,118.0,0,1,0,0,0,0,0,0,250,250,0,5694.0,,,,,,,,,,,,
63843,1562275716463,-1,2.29,1.43,1.34,1.94,1.22,0.81,0.03,0.57,0,-1,-0,0.81,0,0,33,34,98,501,0.0,105,86,60,118.0,0,1,0,0,0,0,0,0,250,250,0,5694.0,45.747559,4.90921,0.0,421.7,0,0.0,-1,0.0,0.0,0,0.01,1.064
63863,1562275716483,-1,2.29,1.43,1.35,1.92,1.22,0.81,0.03,0.57,0,-1,-0,0.81,0,0,33,34,98,501,0.0,105,85,60,118.0,0,1,0,0,0,0,0,0,250,250,0,5694.0,,,,,,,,,,,,
63883,1562275716505,-0,2.29,1.43,1.34,1.93,1.22,0.81,0.03,0.57,0,-1,-0,0.81,0,0,33,34,98,501,0.0,104,86,60,118.0,0,1,0,0,0,0,0,0,250,250,0,5694.0,,,,,,,,,,,,
63903,1562275716525,-2,2.29,1.43,1.34,1.93,1.21,0.81,0.03,0.57,0,-1,-0,0.81,0,0,33,34,98,501,0.0,105,86,60,118.0,0,1,0,0,0,0,0,0,250,250,0,5694.0,,,,,,,,,,,,
63923,1562275716545,-1,2.29,1.43,1.35,1.93,1.22,0.81,0.03,0.57,0,-1,-0,0.81,0,0,33,34,98,501,0.0,105,85,60,118.0,0,1,0,0,0,0,0,0,250,250,0,5694.0,,,,,,,,,,,,
63943,1562275716565,-0,2.28,1.43,1.35,1.92,1.22,0.81,0.03,0.57,0,-1,-0,0.81,0,0,33,34,98,501,0.0,105,85,60,118.0,0,1,0,0,0,0,0,0,250,250,0,5694.0,45.747559,4.90921,0.0,421.7,0,0.0,-1,0.0,0.0,0,0.01,1.0657
63963,1562275716585,-0,2.28,1.42,1.34,1.93,1.21,0.81,0.03,0.57,0,-1,-0,0.81,0,0,33,34,98,501,0.0,105,86,60,118.0,0,1,0,0,0,0,0,0,250,250,0,5694.0,,,,,,,,,,,,
63983,1562275716605,0,2.29,1.42,1.34,1.93,1.22,0.81,0.03,0.57,0,-1,-0,0.81,0,0,33,34,98,501,0.0,105,85,60,118.0,0,1,0,0,0,0,0,0,250,250,0,5694.0,,,,,,,,,,,,
64003,1562275716625,-0,2.28,1.43,1.34,1.93,1.21,0.81,0.03,0.57,0,-1,-0,0.81,0,0,33,34,98,501,0.0,105,86,60,118.0,0,1,0,0,0,0,0,0,250,250,0,5694.0,,,,,,,,,,,,
64023,1562275716645,-2,2.29,1.43,1.34,1.93,1.21,0.81,0.03,0.57,0,-1,-0,0.81,0,0,33,34,98,501,0.0,105,86,60,118.0,0,1,0,0,0,0,0,0,250,250,0,5694.0,,,,,,,,,,,,
64043,1562275716665,-1,2.29,1.43,1.33,1.94,1.21,0.81,0.03,0.57,0,-1,-0,0.81,0,0,33,34,98,501,0.0,105,86,60,118.0,0,1,0,0,0,0,0,0,250,250,0,5694.0,45.747559,4.90921,0.0,421.7,0,0.0,-1,0.0,0.0,0,0.01,1.0674
64063,1562275716685,-1,2.29,1.43,1.33,1.93,1.22,0.81,0.03,0.57,0,-1,-0,0.81,0,0,33,34,98,501,0.0,105,85,60,118.0,0,1,0,0,0,0,0,0,250,250,0,5694.0,,,,,,,,,,,,
64083,1562275716705,-2,2.28,1.43,1.34,1.93,1.22,0.81,0.03,0.57,0,-1,-0,0.81,0,0,33,34,98,501,0.0,105,86,60,118.0,0,1,0,0,0,0,0,0,250,250,0,5694.0,,,,,,,,,,,,
64103,1562275716725,-1,2.29,1.43,1.34,1.94,1.21,0.81,0.03,0.57,0,-1,-0,0.81,0,0,33,34,98,501,0.0,105,85,60,118.0,0,1,0,0,0,0,0,0,250,250,0,5694.0,,,,,,,,,,,,
64123,1562275716745,-1,2.28,1.43,1.34,1.93,1.21,0.81,0.03,0.57,0,-1,-0,0.81,0,0,33,34,98,501,0.0,105,86,60,118.0,0,1,0,0,0,0,0,0,250,250,0,5694.0,,,,,,,,,,,,
64143,1562275716765,-0,2.28,1.43,1.33,1.93,1.21,0.81,0.03,0.57,0,-1,-0,0.81,0,0,33,34,98,501,0.0,105,85,60,118.0,0,1,0,0,0,0,0,0,250,250,0,5694.0,45.747559,4.90921,0.0,421.7,0,0.0,-1,0.0,0.0,0,0.01,1.069
64163,1562275716785,-0,2.27,1.43,1.34,1.93,1.22,0.81,0.03,0.57,0,-1,-0,0.81,0,0,33,34,98,501,0.0,105,85,60,118.0,0,1,0,0,0,0,0,0,250,250,0,5694.0,,,,,,,,,,,,
64183,1562275716805,-1,2.28,1.43,1.34,1.93,1.21,0.81,0.03,0.57,0,-1,-0,0.81,0,0,33,34,98,501,0.0,105,85,60,118.0,0,1,0,0,0,0,0,0,250,250,0,5694.0,,,,,,,,,,,,
64203,1562275716825,0,2.28,1.42,1.34,1.93,1.21,0.81,0.03,0.57,0,-1,-0,0.81,0,0,33,34,98,501,0.0,105,85,60,118.0,0,1,0,0,0,0,0,0,250,250,0,5694.0,,,,,,,,,,,,
64223,1562275716845,-2,2.29,1.43,1.34,1.93,1.21,0.81,0.03,0.57,0,-1,-0,0.81,0,0,33,34,98,501,0.0,105,85,60,118.0,0,1,0,0,0,0,0,0,250,250,0,5694.0,,,,,,,,,,,,
64243,1562275716865,0,2.28,1.42,1.33,1.93,1.22,0.81,0.03,0.57,0,-1,-0,0.81,0,0,33,34,98,501,0.0,105,85,60,118.0,0,1,0,0,0,0,0,0,250,250,0,5694.0,45.747559,4.90921,0.0,421.7,0,0.0,-1,0.0,0.0,0,0.01,1.0707
64263,1562275716885,0,2.28,1.42,1.34,1.93,1.21,0.81,0.03,0.57,0,-1,-0,0.81,0,0,33,34,98,501,0.0,105,86,60,118.0,0,1,0,0,0,0,0,0,250,250,0,5694.0,,,,,,,,,,,,
64283,1562275716905,0,2.27,1.41,1.33,1.93,1.21,0.81,0.03,0.57,0,-1,-0,0.81,0,0,33,34,98,501,0.0,105,86,60,118.0,0,1,0,0,0,0,0,0,250,250,0,5694.0,,,,,,,,,,,,
64303,1562275716925,0,2.28,1.43,1.34,1.92,1.22,0.81,0.03,0.57,0,-1,-0,0.81,0,0,33,34,98,501,0.0,105,86,60,118.0,0,1,0,0,0,0,0,0,250,250,0,5694.0,,,,,,,,,,,,
64323,1562275716945,-1,2.29,1.43,1.34,1.92,1.22,0.81,0.03,0.57,0,-1,-0,0.81,0,0,33,34,98,501,0.0,105,86,60,118.0,0,1,0,0,0,0,0,0,250,250,0,5694.0,,,,,,,,,,,,
64343,1562275716965,-0,2.28,1.43,1.34,1.93,1.21,0.81,0.03,0.57,0,-1,-0,0.81,0,0,33,34,98,501,0.0,105,86,60,118.0,0,1,0,0,0,0,0,0,250,250,0,5694.0,45.747559,4.90921,0.0,421.7,0,0.0,-1,0.0,0.0,0,0.01,1.0724
64363,1562275716985,-2,2.29,1.43,1.33,1.93,1.21,0.81,0.03,0.57,0,-1,-0,0.81,0,0,33,34,98,501,0.0,105,85,60,118.0,0,1,0,0,0,0,0,0,250,250,0,5694.0,,,,,,,,,,,,
64383,1562275716997,0,2.28,1.43,1.34,1.92,1.21,0.81,0.03,0.57,0,-1,-0,0.81,0,0,33,34,98,501,0.0,105,86,60,118.0,0,1,0,0,0,0,0,0,250,250,0,5694.0,,,,,,,,,,,,
64403,1562275717017,-2,2.29,1.43,1.33,1.92,1.21,0.81,0.03,0.57,0,-1,-0,0.81,0,0,33,34,98,501,0.0,105,85,60,118.0,0,1,0,0,0,0,0,0,250,250,0,5694.0,,,,,,,,,,,,
64423,1562275717037,-0,2.28,1.43,1.34,1.93,1.21,0.81,0.03,0.57,0,-1,-0,0.81,0,0,33,34,98,501,0.0,105,86,60,118.0,0,1,0,0,0,0,0,0,250,250,0,5694.0,,,,,,,,,,,,
