"Interval"|"ms"|0|0|1,"Utc"|"ms"|0|0|1,"Brake_F"|"Bar"|0|2000|10,"Brake_R"|"Bar"|0|2000|10,"Height_RF"|"mm"|0|255|50,"Height_LF"|"mm"|0|255|50,"Height_LR"|"mm"|0|80|50,"Height_RR"|"mm"|0|255|50,"Steering"|"deg"|-100|100|10,"AccelX"|"G"|-3.0|3.0|50,"AccelY"|"G"|-3.0|3.0|50,"AccelZ"|"G"|-3.0|3.0|50,"Yaw"|"Deg/Sec"|-120|120|50,"Pitch"|"Deg/Sec"|-120|120|50,"Roll"|"Deg/Sec"|-120|120|50,"Gsum"|"G"|0.0|3.0|50,"Log_Button"|""|0.0|10.0|10,"WaterTemp"|"C"|0|150|50,"RPM"|"tr/min"|0|14000|50,"TPS"|"%"|0|100|50,"AirTemp"|"C"|0|150|50,"MAP"|"KPa"|0|100|50,"Lambda"|""|0.5|1.5|50,"SpeedDTA"|"kph"|0.0|250.0|50,"OilPress"|"KPa"|0|1500|50,"FuelPressur"|"Bar"|0.0|10.0|50,"Batterie"|"V"|0.0|20.0|50,"ConsoKm"|"L/100km"|0.0|200.0|50,"Gear"|""|0|6|50,"AdvIgnition"|"Deg"|-20.0|70.0|50,"Injection"|"ms"|0.0|10.0|50,"ConsoHr"|"L/Hr"|0.0|10000.0|50,"LC_But_Pres"|""|0|1|50,"LC_Active"|""|0|1|50,"TractionOn"|""|0|1|50,"TractionWet"|""|0|1|50,"FanOn"|""|0|1|50,"RD_Speed"|"km/h"|-30|250|10,"RUD_Speed"|"km/h"|-30|250|10,"LD_Speed"|"km/h"|-30|250|10,"LUD_Speed"|"km/h"|-30|250|10,"Latitude"|"Degrees"|-180.0|180.0|10,"Longitude"|"Degrees"|-180.0|180.0|10,"Speed"|"kph"|0.0|150.0|10,"Altitude"|"m"|0.0|4000.0|10,"GPSSats"|""|0|20|10,"GPSQual"|""|0|5|10,"GPSDOP"|""|0.0|20.0|10,"LapCount"|""|0|0|10,"LapTime"|"Min"|0.0|0.0|10,"Sector"|""|0|0|10,"SectorTime"|"Min"|0.0|0.0|10,"PredTime"|"Min"|0.0|0.0|5,"ElapsedTime"|"Min"|0.0|0.0|10,"CurrentLap"|""|0|0|10,"Distance"|"km"|0.0|0.0|10,"SessionTime"|"Min"|0.0|0.0|10
3063,0,,,248,247,251,246,,-0.17,-0.04,0.99,0,-0,-0,0.17,,87,0,6,28,99,0.546,0.0,116,4.9,12.7,0.0,1,0.0,0.0,0.0,0,0,1,1,0,,,,,,,,,,,,,,,,,,,,
3083,0,,,248,246,251,246,,-0.17,-0.04,0.99,-0,-0,-0,0.17,,87,0,6,28,99,0.548,0.0,115,4.88,12.7,0.0,1,0.0,0.0,0.0,0,0,1,1,0,,,,,,,,,,,,,,,,,,,,
3103,0,,,248,247,251,246,,-0.17,-0.04,0.99,0,-0,-0,0.17,,87,0,6,28,99,0.55,0.0,115,4.89,12.7,0.0,1,0.0,0.0,0.0,0,0,1,1,0,,,,,,,,,,,,,,,,,,,,
3123,0,,,248,246,251,246,,-0.17,-0.04,0.99,0,-0,-0,0.17,,87,0,6,28,99,0.552,0.0,115,4.9,12.7,0.0,1,0.0,0.0,0.0,0,0,1,1,0,,,,,,,,,,,,,,,,,,,,
3143,0,0,2,248,247,251,246,-6,-0.17,-0.04,0.99,0,-0,-0,0.17,1,87,0,6,28,99,0.554,0.0,115,4.89,12.7,0.0,1,0.0,0.0,0.0,0,0,1,1,0,0,250,250,0,0.0,0.0,0.0,0.0,0,0,0.0,0,0.0,-1,0.0,,0.0,0,0.0,0.0524
3163,0,,,248,247,251,246,,-0.17,-0.04,0.99,0,-0,-0,0.17,,87,0,6,28,99,0.555,0.0,115,4.89,12.6,0.0,1,0.0,0.0,0.0,0,0,1,0,0,,,,,,,,,,,,,,,,,,,,
3183,0,,,248,247,251,246,,-0.17,-0.04,0.99,0,-0,-0,0.17,,87,0,6,28,99,0.557,0.0,115,4.83,12.8,0.0,1,0.0,0.0,0.0,0,0,1,0,0,,,,,,,,,,,,,,,,,,,,
3203,0,,,248,247,251,246,,-0.17,-0.04,0.99,0,-0,-0,0.17,,87,0,6,28,99,0.559,0.0,115,4.71,12.8,0.0,1,0.0,0.0,0.0,0,0,1,0,0,,,,,,,,,,,,,,,,,,,,
3223,0,,,248,247,251,246,,-0.17,-0.04,0.99,0,-0,-0,0.17,,87,0,6,28,99,0.561,0.0,115,3.84,12.8,0.0,1,0.0,0.0,0.0,0,0,1,0,0,,,,,,,,,,,,,,,,,,,,
3243,0,-0,2,248,247,251,246,-5,-0.17,-0.04,0.99,0,-0,-0,0.17,1,87,0,6,28,99,0.563,0.0,115,3.46,12.8,0.0,1,0.0,0.0,0.0,0,0,1,0,0,0,250,250,0,0.0,0.0,0.0,0.0,0,0,0.0,0,0.0,-1,0.0,0.0,0.0,0,0.0,0.054
3263,0,,,248,247,251,246,,-0.17,-0.04,0.99,0,-0,-0,0.17,,87,0,6,28,99,0.565,0.0,115,3.25,12.8,0.0,1,0.0,0.0,0.0,0,0,1,0,0,,,,,,,,,,,,,,,,,,,,
3283,0,,,248,247,251,246,,-0.17,-0.04,0.99,0,-0,-0,0.17,,87,0,6,28,99,0.567,0.0,115,3.07,12.8,0.0,1,0.0,0.0,0.0,0,0,1,0,0,,,,,,,,,,,,,,,,,,,,
3303,0,,,248,247,251,246,,-0.17,-0.04,0.99,0,-0,-0,0.17,,87,0,6,28,99,0.569,0.0,115,2.92,12.8,0.0,1,0.0,0.0,0.0,0,0,1,0,0,,,,,,,,,,,,,,,,,,,,
3323,0,,,248,247,251,246,,-0.17,-0.04,0.99,0,-0,-0,0.17,,87,0,6,28,99,0.571,0.0,116,2.8,12.8,0.0,1,0.0,0.0,0.0,0,0,1,0,0,,,,,,,,,,,,,,,,,,,,
3343,0,0,2,248,247,251,246,-5,-0.17,-0.04,0.99,0,-0,-0,0.17,1,87,0,6,28,99,0.573,0.0,115,2.68,12.8,0.0,1,0.0,0.0,0.0,0,0,1,0,0,0,250,250,0,0.0,0.0,0.0,0.0,0,0,0.0,0,0.0,-1,0.0,,0.0,0,0.0,0.0557
3363,0,,,248,247,251,246,,-0.17,-0.04,0.99,0,-0,-0,0.17,,87,0,6,28,99,0.574,0.0,116,2.6,12.8,0.0,1,0.0,0.0,0.0,0,0,1,0,0,,,,,,,,,,,,,,,,,,,,
3383,0,,,248,247,251,246,,-0.17,-0.04,0.99,0,-0,-0,0.17,,87,0,6,28,99,0.576,0.0,115,2.51,12.8,0.0,1,0.0,0.0,0.0,0,0,1,0,0,,,,,,,,,,,,,,,,,,,,
3403,0,,,248,247,251,246,,-0.17,-0.05,0.99,0,-0,-0,0.17,,87,0,6,28,99,0.578,0.0,115,2.43,12.8,0.0,1,0.0,0.0,0.0,0,0,1,0,0,,,,,,,,,,,,,,,,,,,,
3423,0,,,248,247,251,246,,-0.17,-0.05,0.99,0,-0,-0,0.17,,87,0,6,28,99,0.58,0.0,115,2.38,12.8,0.0,1,0.0,0.0,0.0,0,0,1,0,0,,,,,,,,,,,,,,,,,,,,
3443,0,-1,2,248,247,251,246,-5,-0.17,-0.05,0.99,0,-0,-0,0.17,1,87,0,6,28,99,0.579,0.0,115,2.32,12.8,0.0,1,0.0,0.0,0.0,0,0,1,0,0,0,250,250,0,0.0,0.0,0.0,0.0,0,0,0.0,0,0.0,-1,0.0,0.0,0.0,0,0.0,0.0574
3463,0,,,248,247,251,246,,-0.17,-0.05,0.99,0,-0,-0,0.17,,87,0,6,28,99,0.58,0.0,115,2.26,12.8,0.0,1,0.0,0.0,0.0,0,0,1,0,0,,,,,,,,,,,,,,,,,,,,
3483,0,,,248,247,251,246,,-0.17,-0.05,0.99,0,-0,-0,0.17,,87,0,6,28,99,0.582,0.0,116,2.21,12.8,0.0,1,0.0,0.0,0.0,0,0,1,0,0,,,,,,,,,,,,,,,,,,,,
3503,0,,,248,247,251,246,,-0.17,-0.05,0.99,0,-0,-0,0.17,,87,0,6,28,99,0.585,0.0,115,2.16,12.8,0.0,1,0.0,0.0,0.0,0,0,1,0,0,,,,,,,,,,,,,,,,,,,,
3523,0,,,248,247,251,246,,-0.17,-0.05,0.99,0,-0,-0,0.17,,87,0,6,28,99,0.587,0.0,115,2.13,12.8,0.0,1,0.0,0.0,0.0,0,0,1,0,0,,,,,,,,,,,,,,,,,,,,
3543,0,1,0,248,247,251,246,-5,-0.17,-0.05,0.99,0,-0,-0,0.17,1,87,0,6,28,99,0.589,0.0,115,2.08,12.8,0.0,1,0.0,0.0,0.0,0,0,1,0,0,0,250,250,0,0.0,0.0,0.0,0.0,0,0,0.0,0,0.0,-1,0.0,,0.0,0,0.0,0.059
3563,0,,,248,247,251,246,,-0.17,-0.05,0.99,0,-0,-0,0.17,,87,0,6,28,99,0.591,0.0,115,2.05,12.8,0.0,1,0.0,0.0,0.0,0,0,1,0,0,,,,,,,,,,,,,,,,,,,,
3583,0,,,248,247,251,246,,-0.17,-0.05,0.99,0,-0,-0,0.17,,87,0,6,28,99,0.592,0.0,115,2.01,12.8,0.0,1,0.0,0.0,0.0,0,0,1,0,0,,,,,,,,,,,,,,,,,,,,
3603,0,,,248,247,251,246,,-0.17,-0.05,0.99,0,-0,-0,0.17,,87,0,6,28,99,0.592,0.0,115,1.97,12.8,0.0,1,0.0,0.0,0.0,0,0,1,0,0,,,,,,,,,,,,,,,,,,,,
3623,0,,,248,247,251,246,,-0.17,-0.05,0.99,0,-0,-0,0.17,,87,0,6,28,99,0.593,0.0,116,1.94,12.8,0.0,1,0.0,0.0,0.0,0,0,1,0,0,,,,,,,,,,,,,,,,,,,,
3643,0,0,2,248,247,251,246,-5,-0.17,-0.05,0.99,0,-0,-0,0.17,1,87,0,6,28,99,0.594,0.0,115,1.92,12.8,0.0,1,0.0,0.0,0.0,0,0,1,0,0,0,250,250,0,0.0,0.0,0.0,0.0,0,0,0.0,0,0.0,-1,0.0,0.0,0.0,0,0.0,0.0607
3663,0,,,248,247,251,246,,-0.17,-0.05,0.99,0,-0,-0,0.17,,87,0,6,28,99,0.596,0.0,115,1.89,12.8,0.0,1,0.0,0.0,0.0,0,0,1,0,0,,,,,,,,,,,,,,,,,,,,
3683,0,,,248,247,251,246,,-0.17,-0.05,0.99,0,-0,-0,0.17,,87,0,6,28,99,0.599,0.0,115,1.86,12.8,0.0,1,0.0,0.0,0.0,0,0,1,0,0,,,,,,,,,,,,,,,,,,,,
3703,0,,,248,246,251,246,,-0.17,-0.05,0.99,0,0,-0,0.17,,87,0,6,28,99,0.6,0.0,115,1.83,12.8,0.0,1,0.0,0.0,0.0,0,0,1,0,0,,,,,,,,,,,,,,,,,,,,
3723,0,,,248,247,251,246,,-0.17,-0.05,0.99,0,0,-0,0.17,,87,0,6,28,99,0.601,0.0,115,1.82,12.8,0.0,1,0.0,0.0,0.0,0,0,1,0,0,,,,,,,,,,,,,,,,,,,,
3743,0,0,2,248,247,251,246,-6,-0.17,-0.05,0.99,0,0,-0,0.17,1,87,0,6,28,99,0.602,0.0,115,1.8,12.8,0.0,1,0.0,0.0,0.0,0,0,1,0,0,0,250,250,0,0.0,0.0,0.0,0.0,0,0,0.0,0,0.0,-1,0.0,,0.0,0,0.0,0.0624
3763,0,,,248,247,251,246,,-0.17,-0.05,0.99,0,0,-0,0.17,,87,0,6,28,99,0.603,0.0,115,1.78,12.8,0.0,1,0.0,0.0,0.0,0,0,1,0,0,,,,,,,,,,,,,,,,,,,,
3783,0,,,248,247,251,246,,-0.17,-0.05,0.99,0,-0,-0,0.17,,87,0,6,28,99,0.603,0.0,116,1.75,12.8,0.0,1,0.0,0.0,0.0,0,0,1,0,0,,,,,,,,,,,,,,,,,,,,
3803,0,,,248,246,251,246,,-0.17,-0.05,0.99,0,-0,-0,0.17,,87,0,6,28,99,0.603,0.0,115,1.75,12.8,0.0,1,0.0,0.0,0.0,0,0,1,0,0,,,,,,,,,,,,,,,,,,,,
3823,0,,,248,246,251,246,,-0.17,-0.05,0.99,0,-0,-0,0.17,,87,0,6,28,99,0.604,0.0,115,1.73,12.8,0.0,1,0.0,0.0,0.0,0,0,1,0,0,,,,,,,,,,,,,,,,,,,,
3843,0,0,1,248,247,251,246,-6,-0.17,-0.05,0.99,0,-0,-0,0.17,1,87,0,6,28,99,0.604,0.0,115,1.71,12.8,0.0,1,0.0,0.0,0.0,0,0,1,0,0,0,250,250,0,0.0,0.0,0.0,0.0,0,0,0.0,0,0.0,-1,0.0,0.0,0.0,0,0.0,0.064
3863,0,,,248,247,251,246,,-0.17,-0.05,0.98,0,-0,-0,0.17,,87,0,6,28,99,0.604,0.0,115,1.7,12.8,0.0,1,0.0,0.0,0.0,0,0,1,0,0,,,,,,,,,,,,,,,,,,,,
3883,0,,,248,247,251,246,,-0.17,-0.05,0.98,0,-0,-0,0.17,,87,0,6,28,99,0.605,0.0,115,1.67,12.8,0.0,1,0.0,0.0,0.0,0,0,1,0,0,,,,,,,,,,,,,,,,,,,,
3903,0,,,248,247,251,246,,-0.17,-0.05,0.98,0,-0,-0,0.17,,87,0,6,28,99,0.605,0.0,115,1.67,12.8,0.0,1,0.0,0.0,0.0,0,0,1,0,0,,,,,,,,,,,,,,,,,,,,
3923,0,,,248,246,251,246,,-0.17,-0.05,0.98,0,-0,-0,0.17,,87,0,6,28,99,0.605,0.0,115,1.64,12.8,0.0,1,0.0,0.0,0.0,0,0,1,0,0,,,,,,,,,,,,,,,,,,,,
3943,0,-1,2,248,247,251,246,-5,-0.17,-0.05,0.98,-0,-0,-0,0.17,1,87,0,6,28,99,0.605,0.0,115,1.64,12.8,0.0,1,0.0,0.0,0.0,0,0,1,0,0,0,250,250,0,0.0,0.0,0.0,0.0,0,0,0.0,0,0.0,-1,0.0,,0.0,0,0.0,0.0657
3963,0,,,248,247,251,246,,-0.17,-0.05,0.98,0,-0,-0,0.17,,87,0,6,28,99,0.605,0.0,115,1.62,12.8,0.0,1,0.0,0.0,0.0,0,0,1,0,0,,,,,,,,,,,,,,,,,,,,
3983,0,,,248,247,251,246,,-0.16,-0.05,0.98,0,-0,-0,0.17,,87,0,6,28,99,0.605,0.0,115,1.61,12.8,0.0,1,0.0,0.0,0.0,0,0,1,0,0,,,,,,,,,,,,,,,,,,,,
4003,0,,,248,246,251,246,,-0.16,-0.05,0.98,0,-0,-0,0.17,,87,0,6,28,99,0.605,0.0,115,1.61,12.8,0.0,1,0.0,0.0,0.0,0,0,1,0,0,,,,,,,,,,,,,,,,,,,,
4023,0,,,248,247,251,246,,-0.16,-0.05,0.98,0,-0,-0,0.17,,87,0,6,28,99,0.605,0.0,116,1.58,12.8,0.0,1,0.0,0.0,0.0,0,0,1,0,0,,,,,,,,,,,,,,,,,,,,
4043,0,0,2,248,247,251,246,-5,-0.16,-0.04,0.98,0,-0,-0,0.17,1,87,0,6,28,99,0.606,0.0,115,1.58,12.8,0.0,1,0.0,0.0,0.0,0,0,1,0,0,0,250,250,0,0.0,0.0,0.0,0.0,0,0,0.0,0,0.0,-1,0.0,0.0,0.0,0,0.0,0.0674
4063,0,,,248,246,251,246,,-0.16,-0.04,0.98,0,-0,-0,0.17,,87,0,6,28,99,0.606,0.0,115,1.56,12.8,0.0,1,0.0,0.0,0.0,0,0,1,0,0,,,,,,,,,,,,,,,,,,,,
4083,0,,,248,247,251,246,,-0.16,-0.05,0.99,0,-0,-0,0.17,,87,0,6,28,99,0.606,0.0,116,1.55,12.8,0.0,1,0.0,0.0,0.0,0,0,1,0,0,,,,,,,,,,,,,,,,,,,,
4103,0,,,248,247,251,246,,-0.16,-0.05,0.99,0,-0,-0,0.17,,87,0,6,28,99,0.606,0.0,115,1.55,12.8,0.0,1,0.0,0.0,0.0,0,0,1,0,0,,,,,,,,,,,,,,,,,,,,
4123,0,,,248,247,251,246,,-0.16,-0.05,0.99,0,-0,-0,0.17,,87,0,6,28,99,0.606,0.0,115,1.53,12.8,0.0,1,0.0,0.0,0.0,0,0,1,0,0,,,,,,,,,,,,,,,,,,,,
4143,0,-0,2,248,246,251,246,-5,-0.16,-0.04,0.99,0,-0,-0,0.17,1,87,0,6,28,99,0.606,0.0,115,1.53,12.8,0.0,1,0.0,0.0,0.0,0,0,1,0,0,0,250,250,0,0.0,0.0,0.0,0.0,0,0,0.0,0,0.0,-1,0.0,,0.0,0,0.0,0.069
4163,0,,,248,246,251,246,,-0.16,-0.04,0.99,0,-0,-0,0.17,,87,0,6,28,99,0.606,0.0,116,1.52,12.8,0.0,1,0.0,0.0,0.0,0,0,1,0,0,,,,,,,,,,,,,,,,,,,,
4183,0,,,248,247,251,246,,-0.16,-0.04,0.99,0,-0,-0,0.17,,87,0,6,28,99,0.606,0.0,115,1.51,12.8,0.0,1,0.0,0.0,0.0,0,0,1,0,0,,,,,,,,,,,,,,,,,,,,
4203,0,,,248,246,251,246,,-0.16,-0.04,0.99,0,-0,-0,0.17,,87,0,6,28,99,0.606,0.0,115,1.51,12.8,0.0,1,0.0,0.0,0.0,0,0,1,0,0,,,,,,,,,,,,,,,,,,,,
4223,0,,,248,246,251,246,,-0.17,-0.04,0.99,0,-0,-0,0.17,,87,0,6,28,99,0.607,0.0,115,1.5,12.8,0.0,1,0.0,0.0,0.0,0,0,1,0,0,,,,,,,,,,,,,,,,,,,,
4243,0,1,0,248,247,251,246,-5,-0.17,-0.04,0.99,0,-0,-0,0.17,1,87,0,6,28,99,0.607,0.0,115,1.48,12.8,0.0,1,0.0,0.0,0.0,0,0,1,0,0,0,250,250,0,0.0,0.0,0.0,0.0,0,0,0.0,0,0.0,-1,0.0,0.0,0.0,0,0.0,0.0707
4263,0,,,248,246,251,246,,-0.17,-0.04,0.99,0,-0,-0,0.17,,87,0,6,28,99,0.606,0.0,115,1.48,12.8,0.0,1,0.0,0.0,0.0,0,0,1,0,0,,,,,,,,,,,,,,,,,,,,
4283,0,,,248,247,251,246,,-0.17,-0.04,0.99,0,-0,-0,0.17,,87,0,6,28,99,0.606,0.0,115,1.47,12.8,0.0,1,0.0,0.0,0.0,0,0,1,0,0,,,,,,,,,,,,,,,,,,,,
4303,0,,,248,246,251,246,,-0.17,-0.04,0.99,0,-0,-0,0.17,,87,0,6,28,99,0.606,0.0,115,1.45,12.8,0.0,1,0.0,0.0,0.0,0,0,1,0,0,,,,,,,,,,,,,,,,,,,,
4323,0,,,248,247,251,246,,-0.17,-0.04,0.99,0,-0,-0,0.17,,87,0,6,28,99,0.607,0.0,115,1.45,12.8,0.0,1,0.0,0.0,0.0,0,0,1,0,0,,,,,,,,,,,,,,,,,,,,
4343,0,-0,2,248,247,251,246,-6,-0.17,-0.04,0.99,0,-0,-0,0.17,1,87,0,6,28,99,0.606,0.0,115,1.45,12.8,0.0,1,0.0,0.0,0.0,0,0,1,0,0,0,250,250,0,0.0,0.0,0.0,0.0,0,0,0.0,0,0.0,-1,0.0,,0.0,0,0.0,0.0724
4363,0,,,248,246,251,246,,-0.17,-0.04,0.99,0,-0,-0,0.17,,87,0,6,28,99,0.606,0.0,116,1.45,12.8,0.0,1,0.0,0.0,0.0,0,0,1,0,0,,,,,,,,,,,,,,,,,,,,
4383,0,,,248,247,251,246,,-0.17,-0.04,0.99,0,-0,-0,0.17,,87,0,6,28,99,0.606,0.0,115,1.45,12.8,0.0,1,0.0,0.0,0.0,0,0,1,0,0,,,,,,,,,,,,,,,,,,,,
4403,0,,,248,247,251,246,,-0.17,-0.04,0.99,0,-0,-0,0.17,,87,0,6,28,99,0.608,0.0,115,1.42,12.8,0.0,1,0.0,0.0,0.0,0,0,1,0,0,,,,,,,,,,,,,,,,,,,,
4423,0,,,248,247,251,246,,-0.17,-0.05,0.99,0,-0,-0,0.17,,87,0,6,28,99,0.609,0.0,115,1.42,12.8,0.0,1,0.0,0.0,0.0,0,0,1,0,0,,,,,,,,,,,,,,,,,,,,
4443,0,-1,2,248,247,251,246,-5,-0.17,-0.05,0.99,0,-0,-0,0.17,1,87,0,6,28,99,0.609,0.0,115,1.42,12.8,0.0,1,0.0,0.0,0.0,0,0,1,0,0,0,250,250,0,0.0,0.0,0.0,0.0,0,0,0.0,0,0.0,-1,0.0,0.0,0.0,0,0.0,0.074
4463,0,,,248,247,251,246,,-0.17,-0.05,0.99,0,-0,-0,0.17,,87,0,6,28,99,0.609,0.0,116,1.4,12.8,0.0,1,0.0,0.0,0.0,0,0,1,0,0,,,,,,,,,,,,,,,,,,,,
4483,0,,,248,247,251,246,,-0.17,-0.05,0.99,0,-0,-0,0.17,,87,0,6,28,99,0.608,0.0,116,1.4,12.8,0.0,1,0.0,0.0,0.0,0,0,1,0,0,,,,,,,,,,,,,,,,,,,,
4503,0,,,248,247,251,246,,-0.17,-0.05,0.99,0,-0,-0,0.17,,87,0,6,28,99,0.607,0.0,116,1.39,12.8,0.0,1,0.0,0.0,0.0,0,0,1,0,0,,,,,,,,,,,,,,,,,,,,
4523,0,,,248,246,251,246,,-0.17,-0.04,0.99,0,-0,-0,0.17,,87,0,6,28,99,0.606,0.0,115,1.39,12.8,0.0,1,0.0,0.0,0.0,0,0,1,0,0,,,,,,,,,,,,,,,,,,,,
4543,0,0,0,248,247,251,246,-5,-0.17,-0.05,0.99,0,-0,-0,0.17,1,87,0,6,28,99,0.606,0.0,115,1.39,12.8,0.0,1,0.0,0.0,0.0,0,0,1,0,0,0,250,250,0,0.0,0.0,0.0,0.0,0,0,0.0,0,0.0,-1,0.0,,0.0,0,0.0,0.0757
4563,0,,,248,246,251,246,,-0.17,-0.04,0.99,0,-0,-0,0.17,,87,0,6,28,99,0.608,0.0,115,1.39,12.8,0.0,1,0.0,0.0,0.0,0,0,1,0,0,,,,,,,,,,,,,,,,,,,,
4583,0,,,248,246,251,246,,-0.17,-0.04,0.99,0,-0,-0,0.17,,87,0,6,28,99,0.606,0.0,115,1.37,12.8,0.0,1,0.0,0.0,0.0,0,0,1,0,0,,,,,,,,,,,,,,,,,,,,
4603,0,,,248,246,251,246,,-0.17,-0.04,0.99,0,-0,-0,0.17,,87,0,6,28,99,0.607,0.0,115,1.37,12.8,0.0,1,0.0,0.0,0.0,0,0,1,0,0,,,,,,,,,,,,,,,,,,,,
4623,0,,,248,246,251,246,,-0.17,-0.04,0.99,0,-0,-0,0.17,,87,0,6,28,99,0.607,0.0,115,1.36,12.8,0.0,1,0.0,0.0,0.0,0,0,1,0,0,,,,,,,,,,,,,,,,,,,,
4643,0,-1,1,248,247,251,246,-5,-0.17,-0.04,0.98,0,-0,-0,0.17,1,87,0,6,28,99,0.607,0.0,116,1.36,12.8,0.0,1,0.0,0.0,0.0,0,0,1,0,0,0,250,250,0,0.0,0.0,0.0,0.0,0,0,0.0,0,0.0,-1,0.0,0.0,0.0,0,0.0,0.0774
4663,0,,,248,247,251,246,,-0.17,-0.04,0.98,0,-0,-0,0.17,,87,0,6,28,99,0.607,0.0,115,1.36,12.8,0.0,1,0.0,0.0,0.0,0,0,1,0,0,,,,,,,,,,,,,,,,,,,,
4683,0,,,248,246,251,246,,-0.17,-0.04,0.98,0,-0,-0,0.17,,87,0,6,28,99,0.607,0.0,116,1.34,12.8,0.0,1,0.0,0.0,0.0,0,0,1,0,0,,,,,,,,,,,,,,,,,,,,
4703,0,,,248,247,251,246,,-0.17,-0.04,0.98,0,0,-0,0.17,,87,0,6,28,99,0.606,0.0,115,1.34,12.8,0.0,1,0.0,0.0,0.0,0,0,1,0,0,,,,,,,,,,,,,,,,,,,,
4723,0,,,248,246,251,246,,-0.17,-0.04,0.98,0,0,-0,0.17,,87,0,6,28,99,0.604,0.0,115,1.34,12.8,0.0,1,0.0,0.0,0.0,0,0,1,0,0,,,,,,,,,,,,,,,,,,,,
4743,0,0,3,248,247,251,246,-6,-0.17,-0.04,0.98,0,0,-0,0.17,1,87,0,6,28,99,0.604,0.0,115,1.34,12.8,0.0,1,0.0,0.0,0.0,0,0,1,0,0,0,250,250,0,0.0,0.0,0.0,0.0,0,0,0.0,0,0.0,-1,0.0,,0.0,0,0.0,0.079
4763,0,,,248,246,251,246,,-0.17,-0.04,0.98,0,0,-0,0.17,,87,0,6,28,99,0.605,0.0,116,1.34,12.8,0.0,1,0.0,0.0,0.0,0,0,1,0,0,,,,,,,,,,,,,,,,,,,,
4783,0,,,248,246,251,246,,-0.17,-0.04,0.98,0,0,-0,0.17,,87,0,6,28,99,0.606,0.0,115,1.34,12.8,0.0,1,0.0,0.0,0.0,0,0,1,0,0,,,,,,,,,,,,,,,,,,,,
4803,0,,,248,247,251,246,,-0.17,-0.04,0.98,0,-0,-0,0.17,,87,0,6,28,99,0.607,0.0,115,1.34,12.8,0.0,1,0.0,0.0,0.0,0,0,1,0,0,,,,,,,,,,,,,,,,,,,,
4823,0,,,248,247,251,246,,-0.17,-0.04,0.98,0,-0,-0,0.17,,87,0,6,28,99,0.608,0.0,116,1.31,12.8,0.0,1,0.0,0.0,0.0,0,0,1,0,0,,,,,,,,,,,,,,,,,,,,
4843,0,0,2,248,246,251,246,-5,-0.17,-0.04,0.99,0,-0,-0,0.17,1,87,0,6,28,99,0.608,0.0,115,1.31,12.8,0.0,1,0.0,0.0,0.0,0,0,1,0,0,0,250,250,0,0.0,0.0,0.0,0.0,0,0,0.0,0,0.0,-1,0.0,0.0,0.0,0,0.0,0.0807
4863,0,,,248,247,251,246,,-0.17,-0.04,0.99,0,-0,-0,0.17,,87,0,6,28,99,0.608,0.0,115,1.31,12.8,0.0,1,0.0,0.0,0.0,0,0,1,0,0,,,,,,,,,,,,,,,,,,,,
4883,0,,,248,247,251,246,,-0.17,-0.04,0.99,0,-0,-0,0.17,,87,0,6,28,99,0.606,0.0,116,1.31,12.8,0.0,1,0.0,0.0,0.0,0,0,1,0,0,,,,,,,,,,,,,,,,,,,,
4903,0,,,248,247,251,246,,-0.17,-0.04,0.99,0,-0,-0,0.17,,87,0,6,28,99,0.605,0.0,115,1.31,12.8,0.0,1,0.0,0.0,0.0,0,0,1,0,0,,,,,,,,,,,,,,,,,,,,
4923,0,,,248,247,251,246,,-0.17,-0.04,0.99,0,-0,-0,0.17,,87,0,6,28,99,0.607,0.0,115,1.3,12.8,0.0,1,0.0,0.0,0.0,0,0,1,0,0,,,,,,,,,,,,,,,,,,,,
4943,0,-1,2,248,247,251,246,-5,-0.17,-0.04,0.99,0,-0,-0,0.17,1,87,0,6,28,99,0.606,0.0,115,1.29,12.8,0.0,1,0.0,0.0,0.0,0,0,1,0,0,0,250,250,0,0.0,0.0,0.0,0.0,0,0,0.0,0,0.0,-1,0.0,,0.0,0,0.0,0.0824
4963,0,,,248,247,251,246,,-0.17,-0.04,0.99,0,-0,-0,0.17,,87,0,6,28,99,0.606,0.0,116,1.28,12.8,0.0,1,0.0,0.0,0.0,0,0,1,0,0,,,,,,,,,,,,,,,,,,,,
4983,0,,,248,247,251,246,,-0.17,-0.04,0.99,0,-0,-0,0.17,,87,0,6,28,99,0.607,0.0,115,1.28,12.8,0.0,1,0.0,0.0,0.0,0,0,1,0,0,,,,,,,,,,,,,,,,,,,,
5003,0,,,248,247,251,246,,-0.17,-0.04,0.99,0,-0,-0,0.17,,87,0,6,28,99,0.608,0.0,115,1.28,12.8,0.0,1,0.0,0.0,0.0,0,0,1,0,0,,,,,,,,,,,,,,,,,,,,
5023,0,,,248,247,251,246,,-0.17,-0.04,0.99,0,-0,-0,0.17,,87,0,6,28,99,0.609,0.0,115,1.28,12.8,0.0,1,0.0,0.0,0.0,0,0,1,0,0,,,,,,,,,,,,,,,,,,,,
5043,0,0,2,248,246,251,246,-6,-0.17,-0.04,0.99,0,-0,-0,0.17,1,87,0,6,28,99,0.609,0.0,115,1.28,12.8,0.0,1,0.0,0.0,0.0,0,0,1,0,0,0,250,250,0,0.0,0.0,0.0,0.0,0,0,0.0,0,0.0,-1,0.0,0.0,0.0,0,0.0,0.084
5063,0,,,248,247,251,246,,-0.17,-0.04,0.99,0,-0,-0,0.17,,87,0,6,28,99,0.608,0.0,115,1.28,12.8,0.0,1,0.0,0.0,0.0,0,0,1,0,0,,,,,,,,,,,,,,,,,,,,
5083,0,,,248,247,251,246,,-0.17,-0.04,0.99,0,-0,-0,0.17,,87,0,6,28,99,0.607,0.0,115,1.28,12.8,0.0,1,0.0,0.0,0.0,0,0,1,0,0,,,,,,,,,,,,,,,,,,,,
5103,0,,,248,247,251,246,,-0.17,-0.04,0.99,0,-0,-0,0.17,,87,0,6,28,99,0.608,0.0,116,1.28,12.8,0.0,1,0.0,0.0,0.0,0,0,1,0,0,,,,,,,,,,,,,,,,,,,,
5123,0,,,248,247,251,246,,-0.17,-0.04,0.99,0,-0,-0,0.17,,87,0,6,28,99,0.608,0.0,115,1.28,12.8,0.0,1,0.0,0.0,0.0,0,0,1,0,0,,,,,,,,,,,,,,,,,,,,
5143,0,-0,2,248,246,251,246,-5,-0.17,-0.04,0.99,0,-0,-0,0.17,1,87,0,6,28,99,0.607,0.0,115,1.27,12.8,0.0,1,0.0,0.0,0.0,0,0,1,0,0,0,250,250,0,0.0,0.0,0.0,0.0,0,0,0.0,0,0.0,-1,0.0,,0.0,0,0.0,0.0857
5163,0,,,248,246,251,246,,-0.17,-0.04,0.99,0,-0,-0,0.17,,87,0,6,28,99,0.608,0.0,115,1.26,12.8,0.0,1,0.0,0.0,0.0,0,0,1,0,0,,,,,,,,,,,,,,,,,,,,
5183,0,,,248,247,251,246,,-0.17,-0.04,0.99,0,-0,-0,0.17,,87,0,6,28,99,0.608,0.0,115,1.26,12.8,0.0,1,0.0,0.0,0.0,0,0,1,0,0,,,,,,,,,,,,,,,,,,,,
5203,0,,,248,247,251,246,,-0.17,-0.04,0.99,0,-0,-0,0.17,,87,0,6,28,99,0.609,0.0,115,1.26,12.7,0.0,1,0.0,0.0,0.0,0,0,1,0,0,,,,,,,,,,,,,,,,,,,,
5223,0,,,248,247,251,246,,-0.17,-0.04,0.99,0,-0,-0,0.17,,87,0,6,28,99,0.609,0.0,116,1.26,12.8,0.0,1,0.0,0.0,0.0,0,0,1,0,0,,,,,,,,,,,,,,,,,,,,
5243,0,-1,2,248,247,251,246,-5,-0.17,-0.04,0.99,0,-0,-0,0.17,1,87,0,6,28,99,0.609,0.0,115,1.26,12.8,0.0,1,0.0,0.0,0.0,0,0,1,0,0,0,250,250,0,0.0,0.0,0.0,0.0,0,0,0.0,0,0.0,-1,0.0,0.0,0.0,0,0.0,0.0874
5263,0,,,248,247,251,246,,-0.17,-0.04,0.99,0,-0,-0,0.17,,87,0,6,28,99,0.609,0.0,115,1.26,12.8,0.0,1,0.0,0.0,0.0,0,0,1,0,0,,,,,,,,,,,,,,,,,,,,
5283,0,,,248,247,251,246,,-0.17,-0.04,0.99,0,-0,-0,0.17,,87,0,6,28,99,0.609,0.0,115,1.26,12.8,0.0,1,0.0,0.0,0.0,0,0,1,0,0,,,,,,,,,,,,,,,,,,,,
5303,0,,,248,247,251,246,,-0.17,-0.04,0.99,0,-0,-0,0.17,,87,0,6,28,99,0.609,0.0,115,1.25,12.8,0.0,1,0.0,0.0,0.0,0,0,1,0,0,,,,,,,,,,,,,,,,,,,,
5323,0,,,248,247,251,246,,-0.17,-0.04,0.99,0,-0,-0,0.17,,87,0,6,28,99,0.609,0.0,115,1.24,12.8,0.0,1,0.0,0.0,0.0,0,0,1,0,0,,,,,,,,,,,,,,,,,,,,
5343,0,0,2,248,247,251,246,-6,-0.17,-0.04,0.99,0,-0,-0,0.17,1,87,0,6,28,99,0.609,0.0,116,1.23,12.8,0.0,1,0.0,0.0,0.0,0,0,1,0,0,0,250,250,0,0.0,0.0,0.0,0.0,0,0,0.0,0,0.0,-1,0.0,,0.0,0,0.0,0.089
5363,0,,,248,247,251,246,,-0.17,-0.04,0.99,0,-0,-0,0.17,,87,0,6,28,99,0.61,0.0,115,1.23,12.8,0.0,1,0.0,0.0,0.0,0,0,1,0,0,,,,,,,,,,,,,,,,,,,,
5383,0,,,248,247,251,246,,-0.17,-0.04,0.99,0,-0,-0,0.17,,87,0,6,28,99,0.61,0.0,115,1.23,12.8,0.0,1,0.0,0.0,0.0,0,0,1,0,0,,,,,,,,,,,,,,,,,,,,
5403,0,,,248,247,251,246,,-0.17,-0.04,0.99,0,-0,-0,0.17,,87,0,6,28,99,0.61,0.0,115,1.23,12.8,0.0,1,0.0,0.0,0.0,0,0,1,0,0,,,,,,,,,,,,,,,,,,,,
5423,0,,,248,247,251,246,,-0.17,-0.04,0.99,0,-0,-0,0.17,,87,0,6,28,99,0.61,0.0,115,1.23,12.8,0.0,1,0.0,0.0,0.0,0,0,1,0,0,,,,,,,,,,,,,,,,,,,,
5443,0,-1,2,248,247,251,246,-5,-0.16,-0.04,0.99,-0,-0,-0,0.17,1,87,0,6,28,99,0.61,0.0,115,1.23,12.8,0.0,1,0.0,0.0,0.0,0,0,1,0,0,0,250,250,0,0.0,0.0,0.0,0.0,0,0,0.0,0,0.0,-1,0.0,0.0,0.0,0,0.0,0.0907
5463,0,,,248,247,251,246,,-0.17,-0.04,0.99,0,-0,-0,0.17,,87,0,6,28,99,0.609,0.0,115,1.23,12.8,0.0,1,0.0,0.0,0.0,0,0,1,0,0,,,,,,,,,,,,,,,,,,,,
5483,0,,,248,246,251,246,,-0.17,-0.04,0.99,0,-0,-0,0.17,,87,0,6,28,99,0.609,0.0,115,1.23,12.8,0.0,1,0.0,0.0,0.0,0,0,1,0,0,,,,,,,,,,,,,,,,,,,,
5503,0,,,248,246,251,246,,-0.17,-0.04,0.99,0,-0,-0,0.17,,87,0,6,28,99,0.61,0.0,116,1.23,12.8,0.0,1,0.0,0.0,0.0,0,0,1,0,0,,,,,,,,,,,,,,,,,,,,
5523,0,,,248,247,251,246,,-0.17,-0.04,0.99,0,-0,-0,0.17,,87,0,6,28,99,0.609,0.0,116,1.23,12.8,0.0,1,0.0,0.0,0.0,0,0,1,0,0,,,,,,,,,,,,,,,,,,,,
5543,0,1,2,248,247,251,246,-6,-0.17,-0.04,0.99,0,-0,-0,0.17,1,87,0,6,28,99,0.61,0.0,115,1.23,12.8,0.0,1,0.0,0.0,0.0,0,0,1,0,0,0,250,250,0,0.0,0.0,0.0,0.0,0,0,0.0,0,0.0,-1,0.0,,0.0,0,0.0,0.0924
5563,0,,,248,247,251,246,,-0.16,-0.04,0.99,-0,-0,-0,0.17,,87,0,6,28,99,0.609,0.0,115,1.23,12.8,0.0,1,0.0,0.0,0.0,0,0,1,0,0,,,,,,,,,,,,,,,,,,,,
5583,0,,,248,247,251,246,,-0.16,-0.04,0.99,0,-0,-0,0.17,,87,0,6,28,99,0.61,0.0,116,1.23,12.8,0.0,1,0.0,0.0,0.0,0,0,1,0,0,,,,,,,,,,,,,,,,,,,,
5603,0,,,248,247,251,246,,-0.16,-0.04,0.99,0,-0,-0,0.17,,87,0,6,28,99,0.609,0.0,115,1.23,12.8,0.0,1,0.0,0.0,0.0,0,0,1,0,0,,,,,,,,,,,,,,,,,,,,
5623,0,,,248,247,251,246,,-0.17,-0.04,0.99,0,-0,-0,0.17,,87,0,6,28,99,0.61,0.0,115,1.21,12.8,0.0,1,0.0,0.0,0.0,0,0,1,0,0,,,,,,,,,,,,,,,,,,,,
5643,0,0,1,248,246,251,246,-5,-0.16,-0.04,0.99,0,-0,-0,0.17,1,87,0,6,28,99,0.61,0.0,115,1.21,12.8,0.0,1,0.0,0.0,0.0,0,0,1,0,0,0,250,250,0,0.0,0.0,0.0,0.0,0,0,0.0,0,0.0,-1,0.0,0.0,0.0,0,0.0,0.094
5663,0,,,248,246,251,246,,-0.16,-0.04,0.99,0,-0,-0,0.17,,87,0,6,28,99,0.61,0.0,116,1.21,12.8,0.0,1,0.0,0.0,0.0,0,0,1,0,0,,,,,,,,,,,,,,,,,,,,
5683,0,,,248,247,251,246,,-0.16,-0.04,0.99,0,-0,-0,0.17,,87,0,6,28,99,0.61,0.0,115,1.21,12.8,0.0,1,0.0,0.0,0.0,0,0,1,0,0,,,,,,,,,,,,,,,,,,,,
5703,0,,,248,247,251,246,,-0.17,-0.04,0.99,0,-0,-0,0.17,,87,0,6,28,99,0.611,0.0,115,1.21,12.8,0.0,1,0.0,0.0,0.0,0,0,1,0,0,,,,,,,,,,,,,,,,,,,,
5723,0,,,248,247,251,246,,-0.17,-0.04,0.99,-0,-0,-0,0.17,,87,0,6,28,99,0.611,0.0,115,1.21,12.8,0.0,1,0.0,0.0,0.0,0,0,1,0,0,,,,,,,,,,,,,,,,,,,,
5743,0,-1,2,248,247,251,246,-5,-0.17,-0.04,0.99,-0,-0,-0,0.17,1,87,0,6,28,99,0.611,0.0,115,1.21,12.8,0.0,1,0.0,0.0,0.0,0,0,1,0,0,0,250,250,0,0.0,0.0,0.0,0.0,0,0,0.0,0,0.0,-1,0.0,,0.0,0,0.0,0.0957
5763,0,,,248,247,251,246,,-0.16,-0.04,0.99,-0,-0,-0,0.17,,87,0,6,28,99,0.611,0.0,115,1.21,12.8,0.0,1,0.0,0.0,0.0,0,0,1,0,0,,,,,,,,,,,,,,,,,,,,
5783,0,,,248,247,251,246,,-0.16,-0.05,0.99,0,-0,-0,0.17,,87,0,6,28,99,0.611,0.0,116,1.21,12.8,0.0,1,0.0,0.0,0.0,0,0,1,0,0,,,,,,,,,,,,,,,,,,,,
5803,0,,,248,247,251,246,,-0.16,-0.05,0.99,-0,-0,-0,0.17,,87,0,6,28,99,0.611,0.0,115,1.21,12.8,0.0,1,0.0,0.0,0.0,0,0,1,0,0,,,,,,,,,,,,,,,,,,,,
5823,0,,,248,247,251,246,,-0.17,-0.05,0.99,0,-0,-0,0.17,,87,0,6,28,99,0.611,0.0,115,1.2,12.8,0.0,1,0.0,0.0,0.0,0,0,1,0,0,,,,,,,,,,,,,,,,,,,,
5843,0,-1,2,248,247,251,246,-5,-0.17,-0.05,0.99,0,-0,-0,0.17,1,87,0,6,28,99,0.611,0.0,116,1.2,12.8,0.0,1,0.0,0.0,0.0,0,0,1,0,0,0,250,250,0,0.0,0.0,0.0,0.0,0,0,0.0,0,0.0,-1,0.0,0.0,0.0,0,0.0,0.0974
5863,0,,,248,247,251,246,,-0.17,-0.05,0.99,0,-0,-0,0.17,,87,0,6,28,99,0.611,0.0,116,1.18,12.8,0.0,1,0.0,0.0,0.0,0,0,1,0,0,,,,,,,,,,,,,,,,,,,,
5883,0,,,248,246,251,246,,-0.17,-0.05,0.99,0,-0,-0,0.17,,87,0,6,28,99,0.611,0.0,115,1.18,12.8,0.0,1,0.0,0.0,0.0,0,0,1,0,0,,,,,,,,,,,,,,,,,,,,
5903,0,,,248,247,251,246,,-0.17,-0.05,0.99,0,-0,-0,0.17,,87,0,6,28,99,0.611,0.0,115,1.18,12.8,0.0,1,0.0,0.0,0.0,0,0,1,0,0,,,,,,,,,,,,,,,,,,,,
5923,0,,,248,247,251,246,,-0.17,-0.05,0.99,0,-0,-0,0.17,,87,0,6,28,99,0.611,0.0,116,1.18,12.8,0.0,1,0.0,0.0,0.0,0,0,1,0,0,,,,,,,,,,,,,,,,,,,,
5943,0,0,2,248,247,251,246,-6,-0.17,-0.05,0.99,0,-0,-0,0.17,1,87,0,6,28,99,0.61,0.0,115,1.18,12.8,0.0,1,0.0,0.0,0.0,0,0,1,0,0,0,250,250,0,0.0,0.0,0.0,0.0,0,0,0.0,0,0.0,-1,0.0,,0.0,0,0.0,0.099
5963,0,,,248,247,251,246,,-0.17,-0.05,0.99,0,-0,-0,0.17,,87,0,6,28,99,0.61,0.0,115,1.18,12.8,0.0,1,0.0,0.0,0.0,0,0,1,0,0,,,,,,,,,,,,,,,,,,,,
5983,0,,,248,247,251,246,,-0.17,-0.05,0.98,0,-0,-0,0.17,,87,0,6,28,99,0.61,0.0,115,1.17,12.8,0.0,1,0.0,0.0,0.0,0,0,1,0,0,,,,,,,,,,,,,,,,,,,,
6003,0,,,248,247,251,246,,-0.17,-0.05,0.98,0,-0,-0,0.17,,87,0,6,28,99,0.61,0.0,115,1.18,12.8,0.0,1,0.0,0.0,0.0,0,0,1,0,0,,,,,,,,,,,,,,,,,,,,
6023,0,,,248,247,251,246,,-0.17,-0.05,0.98,0,-0,-0,0.17,,87,0,6,28,99,0.61,0.0,116,1.17,12.8,0.0,1,0.0,0.0,0.0,0,0,1,0,0,,,,,,,,,,,,,,,,,,,,
6043,0,0,0,248,246,251,246,-5,-0.17,-0.05,0.98,0,-0,-0,0.17,1,87,0,6,28,99,0.61,0.0,115,1.17,12.8,0.0,1,0.0,0.0,0.0,0,0,1,0,0,0,250,250,0,0.0,0.0,0.0,0.0,0,0,0.0,0,0.0,-1,0.0,0.0,0.0,0,0.0,0.1007
6063,0,,,248,246,251,246,,-0.17,-0.05,0.98,0,-0,-0,0.17,,87,0,6,28,99,0.611,0.0,115,1.17,12.8,0.0,1,0.0,0.0,0.0,0,0,1,0,0,,,,,,,,,,,,,,,,,,,,
6083,0,,,248,246,251,246,,-0.17,-0.05,0.98,0,-0,-0,0.17,,87,0,6,28,99,0.61,0.0,115,1.17,12.8,0.0,1,0.0,0.0,0.0,0,0,1,0,0,,,,,,,,,,,,,,,,,,,,
6103,0,,,248,247,251,246,,-0.17,-0.05,0.98,0,-0,-0,0.17,,87,0,6,28,99,0.611,0.0,115,1.17,12.8,0.0,1,0.0,0.0,0.0,0,0,1,0,0,,,,,,,,,,,,,,,,,,,,
6123,0,,,248,247,251,246,,-0.17,-0.05,0.98,0,-0,-0,0.17,,87,0,6,28,99,0.611,0.0,115,1.17,12.8,0.0,1,0.0,0.0,0.0,0,0,1,0,0,,,,,,,,,,,,,,,,,,,,
6143,0,-1,2,248,247,251,246,-5,-0.17,-0.05,0.98,0,-0,-0,0.17,1,87,0,6,28,99,0.611,0.0,116,1.16,12.8,0.0,1,0.0,0.0,0.0,0,0,1,0,0,0,250,250,0,0.0,0.0,0.0,0.0,0,0,0.0,0,0.0,-1,0.0,,0.0,0,0.0,0.1024
6163,0,,,248,247,251,246,,-0.17,-0.05,0.98,0,-0,-0,0.17,,87,0,6,28,99,0.611,0.0,115,1.16,12.8,0.0,1,0.0,0.0,0.0,0,0,1,0,0,,,,,,,,,,,,,,,,,,,,
6183,0,,,248,246,251,246,,-0.17,-0.05,0.98,0,-0,-0,0.17,,87,0,6,28,99,0.611,0.0,115,1.15,12.8,0.0,1,0.0,0.0,0.0,0,0,1,0,0,,,,,,,,,,,,,,,,,,,,
6203,0,,,248,247,251,246,,-0.17,-0.05,0.98,0,-0,-0,0.17,,87,0,6,28,99,0.611,0.0,115,1.16,12.8,0.0,1,0.0,0.0,0.0,0,0,1,0,0,,,,,,,,,,,,,,,,,,,,
6223,0,,,248,247,251,246,,-0.17,-0.05,0.98,0,-0,-0,0.17,,87,0,6,28,99,0.611,0.0,115,1.16,12.8,0.0,1,0.0,0.0,0.0,0,0,1,0,0,,,,,,,,,,,,,,,,,,,,
6243,0,0,1,248,246,251,246,-5,-0.17,-0.05,0.98,0,-0,-0,0.17,1,87,0,6,28,99,0.611,0.0,115,1.15,12.8,0.0,1,0.0,0.0,0.0,0,0,1,0,0,0,250,250,0,0.0,0.0,0.0,0.0,0,0,0.0,0,0.0,-1,0.0,0.0,0.0,0,0.0,0.104
6263,0,,,248,247,251,246,,-0.17,-0.05,0.98,0,-0,-0,0.17,,87,0,6,28,99,0.611,0.0,115,1.15,12.8,0.0,1,0.0,0.0,0.0,0,0,1,0,0,,,,,,,,,,,,,,,,,,,,
6283,0,,,248,247,251,246,,-0.17,-0.05,0.98,0,-0,-0,0.17,,87,0,6,28,99,0.611,0.0,115,1.15,12.8,0.0,1,0.0,0.0,0.0,0,0,1,0,0,,,,,,,,,,,,,,,,,,,,
6303,0,,,248,246,251,246,,-0.17,-0.05,0.98,0,-0,-0,0.17,,87,0,6,28,99,0.611,0.0,116,1.15,12.8,0.0,1,0.0,0.0,0.0,0,0,1,0,0,,,,,,,,,,,,,,,,,,,,
6323,0,,,248,247,251,246,,-0.17,-0.05,0.99,0,-0,-0,0.17,,87,0,6,28,99,0.611,0.0,115,1.15,12.8,0.0,1,0.0,0.0,0.0,0,0,1,0,0,,,,,,,,,,,,,,,,,,,,
6343,0,0,1,248,247,251,246,-6,-0.17,-0.05,0.99,0,-0,-0,0.17,1,87,0,6,28,99,0.61,0.0,116,1.15,12.8,0.0,1,0.0,0.0,0.0,0,0,1,0,0,0,250,250,0,0.0,0.0,0.0,0.0,0,0,0.0,0,0.0,-1,0.0,,0.0,0,0.0,0.1057
6363,0,,,248,247,251,246,,-0.17,-0.05,0.99,0,-0,-0,0.17,,87,0,6,28,99,0.611,0.0,116,1.15,12.8,0.0,1,0.0,0.0,0.0,0,0,1,0,0,,,,,,,,,,,,,,,,,,,,
6383,0,,,248,247,251,246,,-0.17,-0.05,0.99,0,-0,-0,0.17,,87,0,6,28,99,0.611,0.0,115,1.15,12.8,0.0,1,0.0,0.0,0.0,0,0,1,0,0,,,,,,,,,,,,,,,,,,,,
6403,0,,,248,247,251,246,,-0.17,-0.05,0.99,0,-0,-0,0.17,,87,0,6,28,99,0.611,0.0,115,1.15,12.8,0.0,1,0.0,0.0,0.0,0,0,1,0,0,,,,,,,,,,,,,,,,,,,,
6423,0,,,248,247,251,246,,-0.17,-0.05,0.99,0,-0,-0,0.17,,87,0,6,28,99,0.611,0.0,116,1.15,12.8,0.0,1,0.0,0.0,0.0,0,0,1,0,0,,,,,,,,,,,,,,,,,,,,
6443,0,-0,2,248,247,251,246,-5,-0.17,-0.05,0.99,0,-0,-0,0.17,1,87,0,6,28,99,0.612,0.0,115,1.15,12.8,0.0,1,0.0,0.0,0.0,0,0,1,0,0,0,250,250,0,0.0,0.0,0.0,0.0,0,0,0.0,0,0.0,-1,0.0,0.0,0.0,0,0.0,0.1074
6463,0,,,248,247,251,246,,-0.17,-0.05,0.99,0,-0,-0,0.17,,87,0,6,28,99,0.612,0.0,115,1.15,12.8,0.0,1,0.0,0.0,0.0,0,0,1,0,0,,,,,,,,,,,,,,,,,,,,
6483,0,,,248,247,251,246,,-0.17,-0.05,0.99,0,-0,-0,0.17,,87,0,6,28,99,0.612,0.0,116,1.15,12.8,0.0,1,0.0,0.0,0.0,0,0,1,0,0,,,,,,,,,,,,,,,,,,,,
6503,0,,,248,247,251,246,,-0.17,-0.05,0.99,0,-0,-0,0.17,,87,0,6,28,99,0.612,0.0,115,1.14,12.8,0.0,1,0.0,0.0,0.0,0,0,1,0,0,,,,,,,,,,,,,,,,,,,,
6523,0,,,248,247,251,246,,-0.17,-0.05,0.99,0,-0,-0,0.17,,87,0,6,28,99,0.613,0.0,116,1.13,12.8,0.0,1,0.0,0.0,0.0,0,0,1,0,0,,,,,,,,,,,,,,,,,,,,
6543,0,0,2,248,247,251,246,-5,-0.17,-0.05,0.99,0,-0,-0,0.17,1,87,0,6,28,99,0.613,0.0,115,1.13,12.8,0.0,1,0.0,0.0,0.0,0,0,1,0,0,0,250,250,0,0.0,0.0,0.0,0.0,0,0,0.0,0,0.0,-1,0.0,,0.0,0,0.0,0.109
6563,0,,,248,247,251,246,,-0.17,-0.05,0.99,0,0,-0,0.17,,87,0,6,28,99,0.613,0.0,115,1.14,12.8,0.0,1,0.0,0.0,0.0,0,0,1,0,0,,,,,,,,,,,,,,,,,,,,
6583,0,,,248,247,251,246,,-0.17,-0.05,0.99,0,0,-0,0.17,,87,0,6,28,99,0.613,0.0,116,1.13,12.8,0.0,1,0.0,0.0,0.0,0,0,1,0,0,,,,,,,,,,,,,,,,,,,,
6603,0,,,248,246,251,246,,-0.17,-0.05,0.99,0,0,-0,0.17,,87,0,6,28,99,0.613,0.0,115,1.13,12.8,0.0,1,0.0,0.0,0.0,0,0,1,0,0,,,,,,,,,,,,,,,,,,,,
6623,0,,,248,246,251,246,,-0.17,-0.05,0.99,0,0,-0,0.17,,87,0,6,28,99,0.613,0.0,115,1.13,12.8,0.0,1,0.0,0.0,0.0,0,0,1,0,0,,,,,,,,,,,,,,,,,,,,
6643,0,0,0,248,247,251,246,-5,-0.17,-0.05,0.99,0,0,-0,0.17,1,87,0,6,28,99,0.611,0.0,115,1.13,12.8,0.0,1,0.0,0.0,0.0,0,0,1,0,0,0,250,250,0,0.0,0.0,0.0,0.0,0,0,0.0,0,0.0,-1,0.0,0.0,0.0,0,0.0,0.1107
6663,0,,,248,247,251,246,,-0.17,-0.05,0.99,0,0,-0,0.17,,87,0,6,28,99,0.611,0.0,116,1.12,12.8,0.0,1,0.0,0.0,0.0,0,0,1,0,0,,,,,,,,,,,,,,,,,,,,
6683,0,,,248,247,251,246,,-0.17,-0.05,0.99,0,0,-0,0.17,,87,0,6,28,99,0.611,0.0,116,1.12,12.8,0.0,1,0.0,0.0,0.0,0,0,1,0,0,,,,,,,,,,,,,,,,,,,,
6703,0,,,248,247,251,246,,-0.17,-0.05,0.99,0,0,-0,0.17,,87,0,6,28,99,0.612,0.0,116,1.12,12.8,0.0,1,0.0,0.0,0.0,0,0,1,0,0,,,,,,,,,,,,,,,,,,,,
6723,0,,,248,247,251,246,,-0.17,-0.05,0.99,0,0,-0,0.17,,87,0,6,28,99,0.613,0.0,115,1.12,12.8,0.0,1,0.0,0.0,0.0,0,0,1,0,0,,,,,,,,,,,,,,,,,,,,
6743,0,-1,2,248,246,251,246,-5,-0.17,-0.05,0.99,0,0,-0,0.17,1,87,0,6,28,99,0.613,0.0,115,1.12,12.8,0.0,1,0.0,0.0,0.0,0,0,1,0,0,0,250,250,0,0.0,0.0,0.0,0.0,0,0,0.0,0,0.0,-1,0.0,,0.0,0,0.0,0.1124
6763,0,,,248,247,251,246,,-0.17,-0.04,0.99,0,0,-0,0.17,,87,0,6,28,99,0.612,0.0,116,1.12,12.8,0.0,1,0.0,0.0,0.0,0,0,1,0,0,,,,,,,,,,,,,,,,,,,,
6783,0,,,248,247,251,246,,-0.17,-0.05,0.99,0,-0,-0,0.17,,87,0,6,28,99,0.612,0.0,116,1.12,12.8,0.0,1,0.0,0.0,0.0,0,0,1,0,0,,,,,,,,,,,,,,,,,,,,
6803,0,,,248,247,251,246,,-0.17,-0.04,0.99,0,-0,-0,0.17,,87,0,6,28,99,0.611,0.0,115,1.12,12.8,0.0,1,0.0,0.0,0.0,0,0,1,0,0,,,,,,,,,,,,,,,,,,,,
6823,0,,,248,247,251,246,,-0.17,-0.04,0.99,0,-0,-0,0.17,,87,0,6,28,99,0.61,0.0,115,1.12,12.8,0.0,1,0.0,0.0,0.0,0,0,1,0,0,,,,,,,,,,,,,,,,,,,,
6843,0,0,0,248,247,251,246,-5,-0.17,-0.04,0.99,0,-0,-0,0.17,1,87,0,6,28,99,0.612,0.0,116,1.12,12.8,0.0,1,0.0,0.0,0.0,0,0,1,0,0,0,250,250,0,0.0,0.0,0.0,0.0,0,0,0.0,0,0.0,-1,0.0,0.0,0.0,0,0.0,0.114
6863,0,,,248,247,251,246,,-0.17,-0.04,0.99,0,-0,-0,0.17,,87,0,6,28,99,0.612,0.0,116,1.12,12.8,0.0,1,0.0,0.0,0.0,0,0,1,0,0,,,,,,,,,,,,,,,,,,,,
6883,0,,,248,247,251,246,,-0.17,-0.04,0.99,0,-0,-0,0.17,,87,0,6,28,99,0.612,0.0,115,1.12,12.8,0.0,1,0.0,0.0,0.0,0,0,1,0,0,,,,,,,,,,,,,,,,,,,,
6903,0,,,248,247,251,246,,-0.17,-0.04,0.99,0,-0,-0,0.17,,87,0,6,28,99,0.613,0.0,115,1.11,12.8,0.0,1,0.0,0.0,0.0,0,0,1,0,0,,,,,,,,,,,,,,,,,,,,
6923,0,,,248,247,251,246,,-0.17,-0.04,0.99,0,-0,-0,0.17,,87,0,6,28,99,0.613,0.0,115,1.12,12.8,0.0,1,0.0,0.0,0.0,0,0,1,0,0,,,,,,,,,,,,,,,,,,,,
6943,0,0,2,248,247,251,246,-5,-0.17,-0.04,0.99,0,-0,-0,0.17,1,87,0,6,28,99,0.613,0.0,116,1.12,12.8,0.0,1,0.0,0.0,0.0,0,0,1,0,0,0,250,250,0,0.0,0.0,0.0,0.0,0,0,0.0,0,0.0,-1,0.0,,0.0,0,0.0,0.1157
6963,0,,,248,247,251,246,,-0.17,-0.04,0.99,0,-0,-0,0.17,,87,0,6,28,99,0.613,0.0,116,1.12,12.8,0.0,1,0.0,0.0,0.0,0,0,1,0,0,,,,,,,,,,,,,,,,,,,,
6983,0,,,248,247,251,246,,-0.17,-0.04,0.99,0,-0,-0,0.17,,87,0,6,28,99,0.613,0.0,115,1.12,12.8,0.0,1,0.0,0.0,0.0,0,0,1,0,0,,,,,,,,,,,,,,,,,,,,
7003,0,,,248,247,251,246,,-0.17,-0.05,0.99,0,-0,-0,0.17,,87,0,6,28,99,0.613,0.0,115,1.12,12.8,0.0,1,0.0,0.0,0.0,0,0,1,0,0,,,,,,,,,,,,,,,,,,,,
7023,0,,,248,247,251,246,,-0.17,-0.04,0.99,0,-0,-0,0.17,,87,0,6,28,99,0.613,0.0,115,1.12,12.8,0.0,1,0.0,0.0,0.0,0,0,1,0,0,,,,,,,,,,,,,,,,,,,,
7043,0,-0,2,248,247,251,246,-6,-0.17,-0.04,0.99,0,-0,-0,0.17,1,87,0,6,28,99,0.613,0.0,115,1.12,12.8,0.0,1,0.0,0.0,0.0,0,0,1,0,0,0,250,250,0,0.0,0.0,0.0,0.0,0,0,0.0,0,0.0,-1,0.0,0.0,0.0,0,0.0,0.1174
7063,0,,,248,247,251,246,,-0.17,-0.05,0.99,0,-0,-0,0.17,,87,0,6,28,99,0.613,0.0,115,1.12,12.8,0.0,1,0.0,0.0,0.0,0,0,1,0,0,,,,,,,,,,,,,,,,,,,,
7083,0,,,248,247,251,246,,-0.17,-0.04,0.99,0,-0,-0,0.17,,87,0,6,28,99,0.613,0.0,115,1.12,12.8,0.0,1,0.0,0.0,0.0,0,0,1,0,0,,,,,,,,,,,,,,,,,,,,
7103,0,,,248,247,251,246,,-0.17,-0.04,0.99,0,-0,-0,0.17,,87,0,6,28,99,0.613,0.0,115,1.11,12.8,0.0,1,0.0,0.0,0.0,0,0,1,0,0,,,,,,,,,,,,,,,,,,,,
7123,0,,,248,247,251,246,,-0.17,-0.04,0.99,0,-0,-0,0.17,,87,0,6,28,99,0.613,0.0,115,1.11,12.8,0.0,1,0.0,0.0,0.0,0,0,1,0,0,,,,,,,,,,,,,,,,,,,,
7143,0,1,1,248,247,251,246,-7,-0.17,-0.04,0.99,0,-0,-0,0.17,1,87,0,6,28,99,0.613,0.0,115,1.11,12.8,0.0,1,0.0,0.0,0.0,0,0,1,0,0,0,250,250,0,0.0,0.0,0.0,0.0,0,0,0.0,0,0.0,-1,0.0,,0.0,0,0.0,0.119
7163,0,,,248,247,251,246,,-0.17,-0.04,0.98,0,-0,-0,0.17,,87,0,6,28,99,0.613,0.0,115,1.11,12.8,0.0,1,0.0,0.0,0.0,0,0,1,0,0,,,,,,,,,,,,,,,,,,,,
7183,0,,,248,247,251,246,,-0.17,-0.04,0.98,-0,-0,-0,0.17,,87,0,6,28,99,0.613,0.0,116,1.1,12.8,0.0,1,0.0,0.0,0.0,0,0,1,0,0,,,,,,,,,,,,,,,,,,,,
7203,0,,,248,247,251,246,,-0.17,-0.04,0.98,0,-0,-0,0.17,,87,0,6,28,99,0.613,0.0,115,1.1,12.8,0.0,1,0.0,0.0,0.0,0,0,1,0,0,,,,,,,,,,,,,,,,,,,,
7223,0,,,248,247,251,246,,-0.17,-0.04,0.98,0,-0,-0,0.17,,87,0,6,28,99,0.613,0.0,116,1.1,12.8,0.0,1,0.0,0.0,0.0,0,0,1,0,0,,,,,,,,,,,,,,,,,,,,
7243,0,0,0,248,246,251,246,-5,-0.17,-0.04,0.99,0,-0,-0,0.17,1,87,0,6,28,99,0.614,0.0,115,1.1,12.8,0.0,1,0.0,0.0,0.0,0,0,1,0,0,0,250,250,0,0.0,0.0,0.0,0.0,0,0,0.0,0,0.0,-1,0.0,0.0,0.0,0,0.0,0.1207
7263,0,,,248,246,251,246,,-0.17,-0.04,0.99,0,-0,-0,0.17,,87,0,6,28,99,0.614,0.0,116,1.1,12.8,0.0,1,0.0,0.0,0.0,0,0,1,0,0,,,,,,,,,,,,,,,,,,,,
7283,0,,,248,247,251,246,,-0.17,-0.04,0.99,0,-0,-0,0.17,,87,0,6,28,99,0.614,0.0,116,1.11,12.8,0.0,1,0.0,0.0,0.0,0,0,1,0,0,,,,,,,,,,,,,,,,,,,,
7303,0,,,248,247,251,246,,-0.17,-0.04,0.99,0,-0,-0,0.17,,87,0,6,28,99,0.615,0.0,115,1.1,12.8,0.0,1,0.0,0.0,0.0,0,0,1,0,0,,,,,,,,,,,,,,,,,,,,
7323,0,,,248,247,251,246,,-0.17,-0.04,0.99,0,-0,-0,0.17,,87,0,6,28,99,0.615,0.0,115,1.1,12.8,0.0,1,0.0,0.0,0.0,0,0,1,0,0,,,,,,,,,,,,,,,,,,,,
7343,0,0,0,248,247,251,246,-5,-0.17,-0.04,0.99,0,-0,-0,0.17,1,87,0,6,28,99,0.615,0.0,115,1.1,12.8,0.0,1,0.0,0.0,0.0,0,0,1,0,0,0,250,250,0,0.0,0.0,0.0,0.0,0,0,0.0,0,0.0,-1,0.0,,0.0,0,0.0,0.1224
7363,0,,,248,247,251,246,,-0.17,-0.04,0.99,0,-0,-0,0.17,,87,0,6,28,99,0.615,0.0,116,1.1,12.8,0.0,1,0.0,0.0,0.0,0,0,1,0,0,,,,,,,,,,,,,,,,,,,,
7383,0,,,248,247,251,246,,-0.17,-0.04,0.99,0,-0,-0,0.17,,87,0,6,28,99,0.615,0.0,116,1.1,12.8,0.0,1,0.0,0.0,0.0,0,0,1,0,0,,,,,,,,,,,,,,,,,,,,
7403,0,,,248,247,251,246,,-0.17,-0.04,0.99,0,-0,-0,0.17,,87,0,6,28,99,0.615,0.0,116,1.1,12.8,0.0,1,0.0,0.0,0.0,0,0,1,0,0,,,,,,,,,,,,,,,,,,,,
7423,0,,,248,246,251,246,,-0.17,-0.04,0.99,0,-0,-0,0.17,,87,0,6,28,99,0.616,0.0,115,1.1,12.8,0.0,1,0.0,0.0,0.0,0,0,1,0,0,,,,,,,,,,,,,,,,,,,,
7443,0,1,2,248,246,251,246,-6,-0.17,-0.04,0.99,0,-0,-0,0.17,1,87,0,6,28,99,0.616,0.0,116,1.1,12.8,0.0,1,0.0,0.0,0.0,0,0,1,0,0,0,250,250,0,0.0,0.0,0.0,0.0,0,0,0.0,0,0.0,-1,0.0,0.0,0.0,0,0.0,0.124
7463,0,,,248,247,251,246,,-0.17,-0.04,0.99,0,-0,-0,0.17,,87,0,6,28,99,0.616,0.0,115,1.1,12.8,0.0,1,0.0,0.0,0.0,0,0,1,0,0,,,,,,,,,,,,,,,,,,,,
7483,0,,,248,247,251,246,,-0.17,-0.05,0.99,0,-0,-0,0.17,,87,0,6,28,99,0.616,0.0,116,1.1,12.8,0.0,1,0.0,0.0,0.0,0,0,1,0,0,,,,,,,,,,,,,,,,,,,,
7503,0,,,248,247,251,246,,-0.17,-0.05,0.99,0,-0,-0,0.17,,87,0,6,28,99,0.616,0.0,115,1.1,12.8,0.0,1,0.0,0.0,0.0,0,0,1,0,0,,,,,,,,,,,,,,,,,,,,
7523,0,,,248,246,251,246,,-0.17,-0.05,0.99,0,0,-0,0.17,,87,0,6,28,99,0.615,0.0,116,1.1,12.8,0.0,1,0.0,0.0,0.0,0,0,1,0,0,,,,,,,,,,,,,,,,,,,,
7543,0,0,0,248,247,251,246,-5,-0.17,-0.05,0.99,0,0,-0,0.17,1,87,0,6,28,99,0.615,0.0,115,1.1,12.8,0.0,1,0.0,0.0,0.0,0,0,1,0,0,0,250,250,0,0.0,0.0,0.0,0.0,0,0,0.0,0,0.0,-1,0.0,,0.0,0,0.0,0.1257
7563,0,,,248,247,251,246,,-0.17,-0.05,0.99,0,0,-0,0.17,,87,0,6,28,99,0.615,0.0,115,1.09,12.8,0.0,1,0.0,0.0,0.0,0,0,1,0,0,,,,,,,,,,,,,,,,,,,,
7583,0,,,248,247,251,246,,-0.17,-0.05,0.99,0,-0,-0,0.17,,87,0,6,28,99,0.615,0.0,115,1.09,12.8,0.0,1,0.0,0.0,0.0,0,0,1,0,0,,,,,,,,,,,,,,,,,,,,
7603,0,,,248,246,251,246,,-0.17,-0.05,0.99,0,-0,-0,0.17,,87,0,6,28,99,0.616,0.0,115,1.09,12.8,0.0,1,0.0,0.0,0.0,0,0,1,0,0,,,,,,,,,,,,,,,,,,,,
7623,0,,,248,247,251,246,,-0.17,-0.04,0.99,0,-0,-0,0.17,,87,0,6,28,99,0.616,0.0,115,1.09,12.8,0.0,1,0.0,0.0,0.0,0,0,1,0,0,,,,,,,,,,,,,,,,,,,,
7643,0,0,1,248,247,251,246,-5,-0.17,-0.04,0.99,0,-0,-0,0.17,1,87,0,6,28,99,0.616,0.0,115,1.09,12.8,0.0,1,0.0,0.0,0.0,0,0,1,0,0,0,250,250,0,0.0,0.0,0.0,0.0,0,0,0.0,0,0.0,-1,0.0,0.0,0.0,0,0.0,0.1274
7663,0,,,248,247,251,246,,-0.17,-0.04,0.98,0,-0,-0,0.17,,87,0,6,28,99,0.616,0.0,116,1.08,12.8,0.0,1,0.0,0.0,0.0,0,0,1,0,0,,,,,,,,,,,,,,,,,,,,
7683,0,,,248,247,251,246,,-0.17,-0.04,0.99,0,-0,-0,0.17,,87,0,6,28,99,0.616,0.0,116,1.08,12.8,0.0,1,0.0,0.0,0.0,0,0,1,0,0,,,,,,,,,,,,,,,,,,,,
7703,0,,,248,247,251,246,,-0.17,-0.04,0.99,0,-0,-0,0.17,,87,0,6,28,99,0.616,0.0,115,1.08,12.8,0.0,1,0.0,0.0,0.0,0,0,1,0,0,,,,,,,,,,,,,,,,,,,,
7723,0,,,248,247,251,246,,-0.17,-0.04,0.99,0,-0,-0,0.17,,87,0,6,28,99,0.616,0.0,115,1.08,12.8,0.0,1,0.0,0.0,0.0,0,0,1,0,0,,,,,,,,,,,,,,,,,,,,
7743,0,0,2,248,247,251,246,-5,-0.17,-0.04,0.99,0,-0,-0,0.17,1,87,0,6,28,99,0.616,0.0,115,1.09,12.8,0.0,1,0.0,0.0,0.0,0,0,1,0,0,0,250,250,0,0.0,0.0,0.0,0.0,0,0,0.0,0,0.0,-1,0.0,,0.0,0,0.0,0.129
7763,0,,,248,246,251,246,,-0.17,-0.04,0.99,0,-0,-0,0.17,,87,0,6,28,99,0.616,0.0,116,1.09,12.8,0.0,1,0.0,0.0,0.0,0,0,1,0,0,,,,,,,,,,,,,,,,,,,,
7783,0,,,248,246,251,246,,-0.17,-0.04,0.99,0,-0,-0,0.17,,87,0,6,28,99,0.617,0.0,115,1.09,12.8,0.0,1,0.0,0.0,0.0,0,0,1,0,0,,,,,,,,,,,,,,,,,,,,
7803,0,,,248,247,251,246,,-0.17,-0.04,0.99,0,-0,-0,0.17,,87,0,6,28,99,0.617,0.0,116,1.09,12.8,0.0,1,0.0,0.0,0.0,0,0,1,0,0,,,,,,,,,,,,,,,,,,,,
7823,0,,,248,246,251,246,,-0.17,-0.04,0.99,0,-0,-0,0.17,,87,0,6,28,99,0.617,0.0,115,1.09,12.8,0.0,1,0.0,0.0,0.0,0,0,1,0,0,,,,,,,,,,,,,,,,,,,,
7843,0,-1,2,248,246,251,246,-5,-0.17,-0.04,0.99,0,-0,-0,0.17,1,87,0,6,28,99,0.616,0.0,115,1.09,12.8,0.0,1,0.0,0.0,0.0,0,0,1,0,0,0,250,250,0,0.0,0.0,0.0,0.0,0,0,0.0,0,0.0,-1,0.0,0.0,0.0,0,0.0,0.1307
7863,0,,,248,246,251,246,,-0.17,-0.04,0.99,0,-0,-0,0.17,,87,0,6,28,99,0.616,0.0,115,1.09,12.8,0.0,1,0.0,0.0,0.0,0,0,1,0,0,,,,,,,,,,,,,,,,,,,,
7883,0,,,248,247,251,246,,-0.17,-0.04,0.99,0,-0,-0,0.17,,87,0,6,28,99,0.616,0.0,115,1.09,12.8,0.0,1,0.0,0.0,0.0,0,0,1,0,0,,,,,,,,,,,,,,,,,,,,
7903,0,,,248,247,251,246,,-0.17,-0.04,0.99,0,-0,-0,0.17,,87,0,6,28,99,0.616,0.0,115,1.09,12.8,0.0,1,0.0,0.0,0.0,0,0,1,0,0,,,,,,,,,,,,,,,,,,,,
7923,0,,,248,247,251,246,,-0.17,-0.04,0.99,0,-0,-0,0.17,,87,0,6,28,99,0.616,0.0,115,1.09,12.8,0.0,1,0.0,0.0,0.0,0,0,1,0,0,,,,,,,,,,,,,,,,,,,,
7943,0,1,2,248,247,251,246,-5,-0.17,-0.04,0.99,0,-0,-0,0.17,1,87,0,6,28,99,0.617,0.0,115,1.09,12.8,0.0,1,0.0,0.0,0.0,0,0,1,0,0,0,250,250,0,0.0,0.0,0.0,0.0,0,0,0.0,0,0.0,-1,0.0,,0.0,0,0.0,0.1324
7963,0,,,248,247,251,246,,-0.17,-0.04,0.99,0,-0,-0,0.17,,87,0,6,28,99,0.617,0.0,116,1.1,12.8,0.0,1,0.0,0.0,0.0,0,0,1,0,0,,,,,,,,,,,,,,,,,,,,
7983,0,,,248,246,251,246,,-0.17,-0.04,0.99,0,-0,-0,0.17,,87,0,6,28,99,0.617,0.0,115,1.1,12.8,0.0,1,0.0,0.0,0.0,0,0,1,0,0,,,,,,,,,,,,,,,,,,,,
8003,0,,,248,247,251,246,,-0.17,-0.04,0.99,0,-0,-0,0.17,,87,0,6,28,99,0.617,0.0,115,1.1,12.8,0.0,1,0.0,0.0,0.0,0,0,1,0,0,,,,,,,,,,,,,,,,,,,,
8023,0,,,248,246,251,246,,-0.17,-0.04,0.99,0,-0,-0,0.17,,87,0,6,28,99,0.617,0.0,115,1.1,12.8,0.0,1,0.0,0.0,0.0,0,0,1,0,0,,,,,,,,,,,,,,,,,,,,
8043,0,0,2,248,247,251,246,-6,-0.17,-0.04,0.99,0,-0,-0,0.17,1,87,0,6,28,99,0.617,0.0,116,1.09,12.8,0.0,1,0.0,0.0,0.0,0,0,1,0,0,0,250,250,0,0.0,0.0,0.0,0.0,0,0,0.0,0,0.0,-1,0.0,0.0,0.0,0,0.0,0.134
8063,0,,,248,247,251,246,,-0.17,-0.04,0.99,0,-0,-0,0.17,,87,0,6,28,99,0.617,0.0,115,1.08,12.8,0.0,1,0.0,0.0,0.0,0,0,1,0,0,,,,,,,,,,,,,,,,,,,,
8083,0,,,248,247,251,246,,-0.17,-0.04,0.99,0,-0,-0,0.17,,87,0,6,28,99,0.618,0.0,115,1.08,12.8,0.0,1,0.0,0.0,0.0,0,0,1,0,0,,,,,,,,,,,,,,,,,,,,
8103,0,,,248,247,251,246,,-0.17,-0.04,0.99,0,-0,-0,0.17,,87,0,6,28,99,0.618,0.0,115,1.08,12.8,0.0,1,0.0,0.0,0.0,0,0,1,0,0,,,,,,,,,,,,,,,,,,,,
8123,0,,,248,247,251,246,,-0.17,-0.04,0.98,0,-0,-0,0.17,,87,0,6,28,99,0.619,0.0,115,1.08,12.8,0.0,1,0.0,0.0,0.0,0,0,1,0,0,,,,,,,,,,,,,,,,,,,,
8143,0,0,2,248,246,251,246,-6,-0.17,-0.04,0.99,0,-0,-0,0.17,1,87,0,6,28,99,0.619,0.0,115,1.08,12.8,0.0,1,0.0,0.0,0.0,0,0,1,0,0,0,250,250,0,0.0,0.0,0.0,0.0,0,0,0.0,0,0.0,-1,0.0,,0.0,0,0.0,0.1357
8163,0,,,248,246,251,246,,-0.17,-0.04,0.98,0,-0,-0,0.17,,87,0,6,28,99,0.619,0.0,115,1.08,12.8,0.0,1,0.0,0.0,0.0,0,0,1,0,0,,,,,,,,,,,,,,,,,,,,
8183,0,,,248,246,251,246,,-0.17,-0.05,0.99,0,-0,-0,0.17,,87,0,6,28,99,0.619,0.0,115,1.07,12.8,0.0,1,0.0,0.0,0.0,0,0,1,0,0,,,,,,,,,,,,,,,,,,,,
8203,0,,,248,247,251,246,,-0.17,-0.05,0.99,0,-0,-0,0.17,,87,0,6,28,99,0.619,0.0,115,1.07,12.8,0.0,1,0.0,0.0,0.0,0,0,1,0,0,,,,,,,,,,,,,,,,,,,,
8223,0,,,248,246,251,246,,-0.17,-0.05,0.99,0,-0,-0,0.17,,87,0,6,28,99,0.618,0.0,116,1.07,12.8,0.0,1,0.0,0.0,0.0,0,0,1,0,0,,,,,,,,,,,,,,,,,,,,
8243,0,0,1,248,247,251,246,-5,-0.17,-0.05,0.99,0,-0,-0,0.17,1,87,0,6,28,99,0.619,0.0,115,1.07,12.8,0.0,1,0.0,0.0,0.0,0,0,1,0,0,0,250,250,0,0.0,0.0,0.0,0.0,0,0,0.0,0,0.0,-1,0.0,0.0,0.0,0,0.0,0.1374
8263,0,,,248,246,251,246,,-0.17,-0.05,0.99,0,-0,-0,0.17,,87,0,6,28,99,0.619,0.0,115,1.07,12.8,0.0,1,0.0,0.0,0.0,0,0,1,0,0,,,,,,,,,,,,,,,,,,,,
8283,0,,,248,247,251,246,,-0.17,-0.04,0.99,0,-0,-0,0.17,,87,0,6,28,99,0.619,0.0,115,1.07,12.8,0.0,1,0.0,0.0,0.0,0,0,1,0,0,,,,,,,,,,,,,,,,,,,,
8303,0,,,248,247,251,246,,-0.17,-0.05,0.99,0,-0,-0,0.17,,87,0,6,28,99,0.619,0.0,115,1.07,12.8,0.0,1,0.0,0.0,0.0,0,0,1,0,0,,,,,,,,,,,,,,,,,,,,
8323,0,,,248,246,251,246,,-0.17,-0.05,0.99,0,-0,-0,0.17,,87,0,6,28,99,0.619,0.0,115,1.07,12.8,0.0,1,0.0,0.0,0.0,0,0,1,0,0,,,,,,,,,,,,,,,,,,,,
8343,0,1,2,248,247,251,247,-5,-0.17,-0.05,0.99,0,-0,-0,0.17,1,87,0,6,28,99,0.619,0.0,115,1.07,12.8,0.0,1,0.0,0.0,0.0,0,0,1,0,0,0,250,250,0,0.0,0.0,0.0,0.0,0,0,0.0,0,0.0,-1,0.0,,0.0,0,0.0,0.1391
8363,0,,,248,247,251,246,,-0.17,-0.05,0.99,0,-0,-0,0.17,,87,0,6,28,99,0.619,0.0,115,1.07,12.8,0.0,1,0.0,0.0,0.0,0,0,1,0,0,,,,,,,,,,,,,,,,,,,,
8383,0,,,248,247,251,246,,-0.17,-0.05,0.99,0,-0,-0,0.17,,87,0,6,28,99,0.618,0.0,115,1.07,12.8,0.0,1,0.0,0.0,0.0,0,0,1,0,0,,,,,,,,,,,,,,,,,,,,
8403,0,,,248,247,251,246,,-0.17,-0.05,0.99,0,-0,-0,0.17,,87,0,6,28,99,0.618,0.0,115,1.07,12.8,0.0,1,0.0,0.0,0.0,0,0,1,0,0,,,,,,,,,,,,,,,,,,,,
8423,0,,,248,246,251,246,,-0.17,-0.05,0.99,0,-0,-0,0.17,,87,0,6,28,99,0.618,0.0,115,1.07,12.8,0.0,1,0.0,0.0,0.0,0,0,1,0,0,,,,,,,,,,,,,,,,,,,,
8443,0,0,0,248,247,251,246,-5,-0.17,-0.05,0.99,0,-0,-0,0.17,1,87,0,6,28,99,0.618,0.0,115,1.07,12.8,0.0,1,0.0,0.0,0.0,0,0,1,0,0,0,250,250,0,0.0,0.0,0.0,0.0,0,0,0.0,0,0.0,-1,0.0,0.0,0.0,0,0.0,0.1407
8463,0,,,248,247,251,246,,-0.17,-0.05,0.99,0,-0,-0,0.17,,87,0,6,28,99,0.619,0.0,115,1.07,12.8,0.0,1,0.0,0.0,0.0,0,0,1,0,0,,,,,,,,,,,,,,,,,,,,
8483,0,,,248,246,251,246,,-0.17,-0.05,0.99,0,-0,-0,0.17,,87,0,6,28,99,0.618,0.0,116,1.07,12.8,0.0,1,0.0,0.0,0.0,0,0,1,0,0,,,,,,,,,,,,,,,,,,,,
8503,0,,,248,246,251,246,,-0.17,-0.05,0.99,0,-0,-0,0.17,,87,0,6,28,99,0.619,0.0,116,1.07,12.8,0.0,1,0.0,0.0,0.0,0,0,1,0,0,,,,,,,,,,,,,,,,,,,,
8523,0,,,248,246,251,246,,-0.17,-0.05,0.99,0,-0,-0,0.17,,87,0,6,28,99,0.618,0.0,115,1.07,12.8,0.0,1,0.0,0.0,0.0,0,0,1,0,0,,,,,,,,,,,,,,,,,,,,
8543,0,-0,2,248,247,251,246,-5,-0.17,-0.05,0.99,-0,-0,-0,0.17,1,87,0,6,28,99,0.618,0.0,116,1.07,12.8,0.0,1,0.0,0.0,0.0,0,0,1,0,0,0,250,250,0,0.0,0.0,0.0,0.0,0,0,0.0,0,0.0,-1,0.0,,0.0,0,0.0,0.1424
8563,0,,,248,246,251,246,,-0.17,-0.05,0.99,-0,-0,-0,0.17,,87,0,6,28,99,0.618,0.0,116,1.07,12.8,0.0,1,0.0,0.0,0.0,0,0,1,0,0,,,,,,,,,,,,,,,,,,,,
8583,0,,,248,246,251,246,,-0.17,-0.05,0.99,0,-0,-0,0.17,,87,0,6,28,99,0.618,0.0,116,1.07,12.8,0.0,1,0.0,0.0,0.0,0,0,1,0,0,,,,,,,,,,,,,,,,,,,,
8603,0,,,248,246,251,246,,-0.17,-0.05,0.99,0,-0,-0,0.17,,87,0,6,28,99,0.618,0.0,115,1.07,12.8,0.0,1,0.0,0.0,0.0,0,0,1,0,0,,,,,,,,,,,,,,,,,,,,
8623,0,,,248,246,251,246,,-0.17,-0.05,0.98,0,-0,-0,0.17,,87,0,6,28,99,0.619,0.0,115,1.07,12.8,0.0,1,0.0,0.0,0.0,0,0,1,0,0,,,,,,,,,,,,,,,,,,,,
8643,0,-1,2,248,246,251,246,-5,-0.17,-0.05,0.98,0,-0,-0,0.17,1,87,0,6,28,99,0.619,0.0,115,1.06,12.8,0.0,1,0.0,0.0,0.0,0,0,1,0,0,0,250,250,0,0.0,0.0,0.0,0.0,0,0,0.0,0,0.0,-1,0.0,0.0,0.0,0,0.0,0.144
8663,0,,,248,246,251,246,,-0.17,-0.05,0.98,0,-0,-0,0.17,,87,0,6,28,99,0.619,0.0,115,1.06,12.8,0.0,1,0.0,0.0,0.0,0,0,1,0,0,,,,,,,,,,,,,,,,,,,,
8683,0,,,248,246,251,246,,-0.17,-0.05,0.98,0,-0,-0,0.17,,87,0,6,28,99,0.619,0.0,115,1.06,12.8,0.0,1,0.0,0.0,0.0,0,0,1,0,0,,,,,,,,,,,,,,,,,,,,
8703,0,,,248,246,251,246,,-0.17,-0.05,0.98,0,-0,-0,0.17,,87,0,6,28,99,0.619,0.0,115,1.06,12.8,0.0,1,0.0,0.0,0.0,0,0,1,0,0,,,,,,,,,,,,,,,,,,,,
8723,0,,,248,246,251,246,,-0.16,-0.05,0.98,0,-0,-0,0.17,,87,0,6,28,99,0.619,0.0,115,1.06,12.8,0.0,1,0.0,0.0,0.0,0,0,1,0,0,,,,,,,,,,,,,,,,,,,,
8743,0,0,0,248,246,251,246,-6,-0.17,-0.05,0.98,0,-0,-0,0.17,1,87,0,6,28,99,0.619,0.0,115,1.06,12.8,0.0,1,0.0,0.0,0.0,0,0,1,0,0,0,250,250,0,0.0,0.0,0.0,0.0,0,0,0.0,0,0.0,-1,0.0,,0.0,0,0.0,0.1457
8763,0,,,248,246,251,246,,-0.17,-0.05,0.98,0,-0,-0,0.17,,87,0,6,28,99,0.619,0.0,115,1.06,12.8,0.0,1,0.0,0.0,0.0,0,0,1,0,0,,,,,,,,,,,,,,,,,,,,
8783,0,,,248,246,251,246,,-0.16,-0.05,0.98,0,-0,-0,0.17,,87,0,6,28,99,0.619,0.0,115,1.06,12.8,0.0,1,0.0,0.0,0.0,0,0,1,0,0,,,,,,,,,,,,,,,,,,,,
8803,0,,,248,246,251,246,,-0.16,-0.05,0.98,0,-0,-0,0.17,,87,0,6,28,99,0.619,0.0,115,1.06,12.8,0.0,1,0.0,0.0,0.0,0,0,1,0,0,,,,,,,,,,,,,,,,,,,,
8823,0,,,248,246,251,246,,-0.17,-0.05,0.98,0,-0,-0,0.17,,87,0,6,28,99,0.619,0.0,115,1.06,12.8,0.0,1,0.0,0.0,0.0,0,0,1,0,0,,,,,,,,,,,,,,,,,,,,
8843,0,0,2,248,246,251,246,-6,-0.16,-0.04,0.98,0,-0,-0,0.17,1,87,0,6,28,99,0.619,0.0,116,1.06,12.8,0.0,1,0.0,0.0,0.0,0,0,1,0,0,0,250,250,0,0.0,0.0,0.0,0.0,0,0,0.0,0,0.0,-1,0.0,0.0,0.0,0,0.0,0.1474
8863,0,,,248,246,251,246,,-0.16,-0.05,0.98,0,-0,-0,0.17,,87,0,6,28,99,0.619,0.0,115,1.06,12.8,0.0,1,0.0,0.0,0.0,0,0,1,0,0,,,,,,,,,,,,,,,,,,,,
8883,0,,,248,246,251,246,,-0.16,-0.04,0.99,0,-0,-0,0.17,,87,0,6,28,99,0.619,0.0,116,1.06,12.8,0.0,1,0.0,0.0,0.0,0,0,1,0,0,,,,,,,,,,,,,,,,,,,,
8903,0,,,248,246,251,246,,-0.16,-0.05,0.99,0,-0,-0,0.17,,87,0,6,28,99,0.619,0.0,115,1.06,12.8,0.0,1,0.0,0.0,0.0,0,0,1,0,0,,,,,,,,,,,,,,,,,,,,
8923,0,,,248,247,251,246,,-0.16,-0.05,0.99,0,-0,-0,0.17,,87,0,6,28,99,0.619,0.0,115,1.06,12.8,0.0,1,0.0,0.0,0.0,0,0,1,0,0,,,,,,,,,,,,,,,,,,,,
8943,0,0,1,248,246,251,246,-6,-0.16,-0.05,0.99,0,-0,-0,0.17,1,87,0,6,28,99,0.62,0.0,115,1.06,12.8,0.0,1,0.0,0.0,0.0,0,0,1,0,0,0,250,250,0,0.0,0.0,0.0,0.0,0,0,0.0,0,0.0,-1,0.0,,0.0,0,0.0,0.149
8963,0,,,248,247,251,246,,-0.16,-0.05,0.99,0,-0,-0,0.17,,87,0,6,28,99,0.62,0.0,116,1.06,12.8,0.0,1,0.0,0.0,0.0,0,0,1,0,0,,,,,,,,,,,,,,,,,,,,
8983,0,,,248,246,251,246,,-0.17,-0.05,0.99,0,-0,-0,0.17,,87,0,6,28,99,0.62,0.0,115,1.06,12.8,0.0,1,0.0,0.0,0.0,0,0,1,0,0,,,,,,,,,,,,,,,,,,,,
9003,0,,,248,246,251,246,,-0.16,-0.05,0.99,0,-0,-0,0.17,,87,0,6,28,99,0.62,0.0,115,1.05,12.8,0.0,1,0.0,0.0,0.0,0,0,1,0,0,,,,,,,,,,,,,,,,,,,,
9023,0,,,248,246,251,246,,-0.17,-0.05,0.99,0,-0,-0,0.17,,87,0,6,28,99,0.62,0.0,115,1.05,12.8,0.0,1,0.0,0.0,0.0,0,0,1,0,0,,,,,,,,,,,,,,,,,,,,
9043,0,0,2,248,247,251,246,-6,-0.17,-0.05,0.99,0,-0,-0,0.17,1,87,0,6,28,99,0.62,0.0,116,1.05,12.8,0.0,1,0.0,0.0,0.0,0,0,1,0,0,0,250,250,0,0.0,0.0,0.0,0.0,0,0,0.0,0,0.0,-1,0.0,0.0,0.0,0,0.0,0.1507
9063,0,,,248,246,251,246,,-0.17,-0.04,0.99,0,-0,-0,0.17,,87,0,6,28,99,0.62,0.0,115,1.05,12.8,0.0,1,0.0,0.0,0.0,0,0,1,0,0,,,,,,,,,,,,,,,,,,,,
9083,0,,,248,247,251,246,,-0.17,-0.05,0.99,0,-0,-0,0.17,,87,0,6,28,99,0.62,0.0,116,1.05,12.8,0.0,1,0.0,0.0,0.0,0,0,1,0,0,,,,,,,,,,,,,,,,,,,,
9103,0,,,248,246,251,246,,-0.17,-0.05,0.99,0,-0,-0,0.17,,87,0,6,28,99,0.62,0.0,115,1.05,12.8,0.0,1,0.0,0.0,0.0,0,0,1,0,0,,,,,,,,,,,,,,,,,,,,
9123,0,,,248,246,251,246,,-0.17,-0.04,0.99,0,-0,-0,0.17,,87,0,6,28,99,0.621,0.0,116,1.05,12.8,0.0,1,0.0,0.0,0.0,0,0,1,0,0,,,,,,,,,,,,,,,,,,,,
9143,0,0,2,248,247,251,246,-5,-0.17,-0.05,0.99,-0,-0,-0,0.17,1,87,0,6,28,99,0.621,0.0,115,1.05,12.8,0.0,1,0.0,0.0,0.0,0,0,1,0,0,0,250,250,0,0.0,0.0,0.0,0.0,0,0,0.0,0,0.0,-1,0.0,,0.0,0,0.0,0.1524
9163,0,,,248,247,251,246,,-0.17,-0.05,0.99,-0,-0,-0,0.17,,87,0,6,28,99,0.621,0.0,116,1.05,12.8,0.0,1,0.0,0.0,0.0,0,0,1,0,0,,,,,,,,,,,,,,,,,,,,
9183,0,,,248,247,251,246,,-0.17,-0.05,0.99,-0,-0,-0,0.17,,87,0,6,28,99,0.621,0.0,115,1.05,12.8,0.0,1,0.0,0.0,0.0,0,0,1,0,0,,,,,,,,,,,,,,,,,,,,
9203,0,,,248,247,251,246,,-0.17,-0.05,0.98,0,-0,-0,0.17,,87,0,6,28,99,0.62,0.0,115,1.05,12.8,0.0,1,0.0,0.0,0.0,0,0,1,0,0,,,,,,,,,,,,,,,,,,,,
9223,0,,,248,247,251,246,,-0.17,-0.04,0.98,-0,-0,-0,0.17,,87,0,6,28,99,0.62,0.0,115,1.05,12.8,0.0,1,0.0,0.0,0.0,0,0,1,0,0,,,,,,,,,,,,,,,,,,,,
9243,0,-1,2,248,246,251,246,-5,-0.17,-0.04,0.98,0,-0,-0,0.17,1,87,0,6,28,99,0.62,0.0,115,1.05,12.8,0.0,1,0.0,0.0,0.0,0,0,1,0,0,0,250,250,0,0.0,0.0,0.0,0.0,0,0,0.0,0,0.0,-1,0.0,0.0,0.0,0,0.0,0.154
9263,0,,,248,246,251,246,,-0.17,-0.04,0.98,0,-0,-0,0.17,,87,0,6,28,99,0.62,0.0,115,1.05,12.8,0.0,1,0.0,0.0,0.0,0,0,1,0,0,,,,,,,,,,,,,,,,,,,,
9283,0,,,248,247,251,246,,-0.17,-0.04,0.98,0,-0,-0,0.17,,87,0,6,28,99,0.62,0.0,115,1.05,12.8,0.0,1,0.0,0.0,0.0,0,0,1,0,0,,,,,,,,,,,,,,,,,,,,
9303,0,,,248,247,251,246,,-0.17,-0.04,0.98,0,-0,-0,0.17,,87,0,6,28,99,0.621,0.0,115,1.05,12.8,0.0,1,0.0,0.0,0.0,0,0,1,0,0,,,,,,,,,,,,,,,,,,,,
9323,0,,,248,247,251,246,,-0.17,-0.04,0.99,0,-0,-0,0.17,,87,0,6,28,99,0.621,0.0,115,1.05,12.8,0.0,1,0.0,0.0,0.0,0,0,1,0,0,,,,,,,,,,,,,,,,,,,,
9343,0,-1,2,248,247,251,246,-5,-0.17,-0.04,0.98,0,-0,-0,0.17,1,87,0,6,28,99,0.621,0.0,115,1.05,12.8,0.0,1,0.0,0.0,0.0,0,0,1,0,0,0,250,250,0,0.0,0.0,0.0,0.0,0,0,0.0,0,0.0,-1,0.0,,0.0,0,0.0,0.1557
9363,0,,,248,247,251,246,,-0.17,-0.04,0.99,0,-0,-0,0.17,,87,0,6,28,99,0.621,0.0,115,1.05,12.8,0.0,1,0.0,0.0,0.0,0,0,1,0,0,,,,,,,,,,,,,,,,,,,,
9383,0,,,248,247,251,246,,-0.17,-0.04,0.99,0,-0,-0,0.17,,87,0,6,28,99,0.621,0.0,115,1.05,12.8,0.0,1,0.0,0.0,0.0,0,0,1,0,0,,,,,,,,,,,,,,,,,,,,
9403,0,,,248,247,251,246,,-0.16,-0.04,0.99,0,-0,-0,0.17,,87,0,6,28,99,0.621,0.0,115,1.05,12.8,0.0,1,0.0,0.0,0.0,0,0,1,0,0,,,,,,,,,,,,,,,,,,,,
9423,0,,,248,247,251,246,,-0.16,-0.04,0.99,0,-0,-0,0.17,,87,0,6,28,99,0.621,0.0,116,1.05,12.8,0.0,1,0.0,0.0,0.0,0,0,1,0,0,,,,,,,,,,,,,,,,,,,,
9443,0,0,2,248,247,251,246,-6,-0.16,-0.04,0.99,0,-0,-0,0.17,1,87,0,6,28,99,0.621,0.0,115,1.05,12.8,0.0,1,0.0,0.0,0.0,0,0,1,0,0,0,250,250,0,0.0,0.0,0.0,0.0,0,0,0.0,0,0.0,-1,0.0,0.0,0.0,0,0.0,0.1574
9463,0,,,248,247,251,246,,-0.16,-0.04,0.99,0,-0,-0,0.17,,87,0,6,28,99,0.621,0.0,116,1.05,12.8,0.0,1,0.0,0.0,0.0,0,0,1,0,0,,,,,,,,,,,,,,,,,,,,
9483,0,,,248,247,251,246,,-0.16,-0.04,0.99,-0,-0,-0,0.17,,87,0,6,28,99,0.621,0.0,115,1.05,12.8,0.0,1,0.0,0.0,0.0,0,0,1,0,0,,,,,,,,,,,,,,,,,,,,
9503,0,,,248,247,251,246,,-0.16,-0.04,0.99,-0,-0,-0,0.17,,87,0,6,28,99,0.621,0.0,115,1.05,12.8,0.0,1,0.0,0.0,0.0,0,0,1,0,0,,,,,,,,,,,,,,,,,,,,
9523,0,,,248,247,251,246,,-0.16,-0.04,0.99,0,-0,-0,0.17,,87,0,6,28,99,0.621,0.0,115,1.05,12.8,0.0,1,0.0,0.0,0.0,0,0,1,0,0,,,,,,,,,,,,,,,,,,,,
9543,0,-0,2,248,247,251,246,-5,-0.16,-0.04,0.99,0,-0,-0,0.17,1,87,0,6,28,99,0.621,0.0,115,1.05,12.8,0.0,1,0.0,0.0,0.0,0,0,1,0,0,0,250,250,0,0.0,0.0,0.0,0.0,0,0,0.0,0,0.0,-1,0.0,,0.0,0,0.0,0.159
9563,0,,,248,247,251,246,,-0.16,-0.04,0.99,0,-0,-0,0.17,,87,0,6,28,99,0.621,0.0,115,1.05,12.8,0.0,1,0.0,0.0,0.0,0,0,1,0,0,,,,,,,,,,,,,,,,,,,,
9583,0,,,248,247,251,246,,-0.17,-0.04,0.99,0,-0,-0,0.17,,87,0,6,28,99,0.621,0.0,115,1.05,12.8,0.0,1,0.0,0.0,0.0,0,0,1,0,0,,,,,,,,,,,,,,,,,,,,
9603,0,,,248,246,251,246,,-0.17,-0.04,0.99,-0,-0,-0,0.17,,87,0,6,28,99,0.621,0.0,115,1.05,12.8,0.0,1,0.0,0.0,0.0,0,0,1,0,0,,,,,,,,,,,,,,,,,,,,
9623,0,,,248,246,251,246,,-0.17,-0.04,0.99,-0,-0,-0,0.17,,87,0,6,28,99,0.621,0.0,115,1.05,12.8,0.0,1,0.0,0.0,0.0,0,0,1,0,0,,,,,,,,,,,,,,,,,,,,
9643,0,-1,2,248,246,251,246,-5,-0.17,-0.04,0.99,-0,-0,-0,0.17,1,87,0,6,28,99,0.622,0.0,116,1.05,12.8,0.0,1,0.0,0.0,0.0,0,0,1,0,0,0,250,250,0,0.0,0.0,0.0,0.0,0,0,0.0,0,0.0,-1,0.0,0.0,0.0,0,0.0,0.1607
9663,0,,,248,247,251,246,,-0.17,-0.04,0.99,-0,-0,-0,0.17,,87,0,6,28,99,0.622,0.0,115,1.05,12.8,0.0,1,0.0,0.0,0.0,0,0,1,0,0,,,,,,,,,,,,,,,,,,,,
9683,0,,,248,246,251,246,,-0.16,-0.04,0.99,-0,0,-0,0.17,,87,0,6,28,99,0.622,0.0,115,1.05,12.8,0.0,1,0.0,0.0,0.0,0,0,1,0,0,,,,,,,,,,,,,,,,,,,,
9703,0,,,248,246,251,246,,-0.16,-0.04,0.99,0,0,-0,0.17,,87,0,6,28,99,0.622,0.0,115,1.05,12.8,0.0,1,0.0,0.0,0.0,0,0,1,0,0,,,,,,,,,,,,,,,,,,,,
9723,0,,,248,247,251,246,,-0.16,-0.04,0.99,0,0,-0,0.17,,87,0,6,28,99,0.622,0.0,116,1.05,12.8,0.0,1,0.0,0.0,0.0,0,0,1,0,0,,,,,,,,,,,,,,,,,,,,
9743,0,-0,1,248,246,251,246,-6,-0.16,-0.04,0.98,0,0,-0,0.17,1,87,0,6,28,99,0.623,0.0,115,1.05,12.8,0.0,1,0.0,0.0,0.0,0,0,1,0,0,0,250,250,0,0.0,0.0,0.0,0.0,0,0,0.0,0,0.0,-1,0.0,,0.0,0,0.0,0.1624
9763,0,,,248,247,251,246,,-0.16,-0.04,0.98,0,0,-0,0.17,,87,0,6,28,99,0.623,0.0,116,1.05,12.8,0.0,1,0.0,0.0,0.0,0,0,1,0,0,,,,,,,,,,,,,,,,,,,,
9783,0,,,248,247,251,246,,-0.16,-0.04,0.98,0,0,-0,0.17,,87,0,6,28,99,0.623,0.0,115,1.05,12.8,0.0,1,0.0,0.0,0.0,0,0,1,0,0,,,,,,,,,,,,,,,,,,,,
9803,0,,,248,247,251,246,,-0.16,-0.04,0.98,0,0,-0,0.17,,87,0,6,28,99,0.623,0.0,116,1.05,12.8,0.0,1,0.0,0.0,0.0,0,0,1,0,0,,,,,,,,,,,,,,,,,,,,
9823,0,,,248,247,251,246,,-0.17,-0.04,0.98,0,0,-0,0.17,,87,0,6,28,99,0.624,0.0,115,1.05,12.8,0.0,1,0.0,0.0,0.0,0,0,1,0,0,,,,,,,,,,,,,,,,,,,,
9843,0,0,0,248,247,251,246,-5,-0.17,-0.04,0.99,0,0,-0,0.17,1,87,0,6,28,99,0.623,0.0,115,1.05,12.8,0.0,1,0.0,0.0,0.0,0,0,1,0,0,0,250,250,0,0.0,0.0,0.0,0.0,0,0,0.0,0,0.0,-1,0.0,0.0,0.0,0,0.0,0.164
9863,0,,,248,247,251,246,,-0.17,-0.04,0.99,0,0,-0,0.17,,87,0,6,28,99,0.623,0.0,115,1.05,12.8,0.0,1,0.0,0.0,0.0,0,0,1,0,0,,,,,,,,,,,,,,,,,,,,
9883,0,,,248,246,251,246,,-0.17,-0.04,0.99,0,0,-0,0.17,,87,0,6,28,99,0.623,0.0,115,1.05,12.8,0.0,1,0.0,0.0,0.0,0,0,1,0,0,,,,,,,,,,,,,,,,,,,,
9903,0,,,248,247,251,246,,-0.17,-0.04,0.99,0,0,-0,0.17,,87,0,6,28,99,0.623,0.0,115,1.05,12.8,0.0,1,0.0,0.0,0.0,0,0,1,0,0,,,,,,,,,,,,,,,,,,,,
9923,0,,,248,247,251,246,,-0.17,-0.04,0.99,0,0,-0,0.17,,87,0,6,28,99,0.623,0.0,115,1.05,12.8,0.0,1,0.0,0.0,0.0,0,0,1,0,0,,,,,,,,,,,,,,,,,,,,
9943,0,0,2,248,246,251,246,-6,-0.17,-0.04,0.99,0,-0,-0,0.17,1,87,0,6,28,99,0.623,0.0,116,1.05,12.8,0.0,1,0.0,0.0,0.0,0,0,1,0,0,0,250,250,0,0.0,0.0,0.0,0.0,0,0,0.0,0,0.0,-1,0.0,,0.0,0,0.0,0.1657
9963,0,,,248,247,251,246,,-0.17,-0.04,0.99,0,-0,-0,0.17,,87,0,6,28,99,0.623,0.0,115,1.05,12.8,0.0,1,0.0,0.0,0.0,0,0,1,0,0,,,,,,,,,,,,,,,,,,,,
9983,0,,,248,247,251,246,,-0.17,-0.04,0.99,0,-0,-0,0.17,,87,0,6,28,99,0.623,0.0,115,1.05,12.8,0.0,1,0.0,0.0,0.0,0,0,1,0,0,,,,,,,,,,,,,,,,,,,,
10003,0,,,248,247,251,246,,-0.17,-0.04,0.99,0,-0,-0,0.17,,87,0,6,28,99,0.623,0.0,115,1.05,12.8,0.0,1,0.0,0.0,0.0,0,0,1,0,0,,,,,,,,,,,,,,,,,,,,
10023,0,,,248,247,251,246,,-0.17,-0.04,0.99,0,-0,-0,0.17,,87,0,6,28,99,0.622,0.0,115,1.05,12.8,0.0,1,0.0,0.0,0.0,0,0,1,0,0,,,,,,,,,,,,,,,,,,,,
10043,0,0,2,248,247,251,246,-6,-0.16,-0.04,0.99,0,-0,-0,0.17,1,87,0,6,28,99,0.622,0.0,116,1.05,12.8,0.0,1,0.0,0.0,0.0,0,0,1,0,0,0,250,250,0,0.0,0.0,0.0,0.0,0,0,0.0,0,0.0,-1,0.0,0.0,0.0,0,0.0,0.1674
10063,0,,,248,247,251,246,,-0.16,-0.04,0.99,0,-0,-0,0.17,,87,0,6,28,99,0.622,0.0,115,1.05,12.8,0.0,1,0.0,0.0,0.0,0,0,1,0,0,,,,,,,,,,,,,,,,,,,,
10083,0,,,248,247,251,246,,-0.16,-0.05,0.99,0,-0,-0,0.17,,87,0,6,28,99,0.623,0.0,115,1.05,12.8,0.0,1,0.0,0.0,0.0,0,0,1,0,0,,,,,,,,,,,,,,,,,,,,
10103,0,,,248,247,251,246,,-0.16,-0.04,0.99,0,-0,-0,0.17,,87,0,6,28,99,0.623,0.0,116,1.05,12.8,0.0,1,0.0,0.0,0.0,0,0,1,0,0,,,,,,,,,,,,,,,,,,,,
10123,0,,,248,247,251,246,,-0.16,-0.04,0.99,0,-0,-0,0.17,,87,0,6,28,99,0.623,0.0,115,1.05,12.8,0.0,1,0.0,0.0,0.0,0,0,1,0,0,,,,,,,,,,,,,,,,,,,,
10143,0,-1,2,248,247,251,246,-5,-0.16,-0.04,0.99,0,-0,-0,0.17,1,87,0,6,28,99,0.623,0.0,115,1.05,12.8,0.0,1,0.0,0.0,0.0,0,0,1,0,0,0,250,250,0,0.0,0.0,0.0,0.0,0,0,0.0,0,0.0,-1,0.0,,0.0,0,0.0,0.169
10163,0,,,248,247,251,246,,-0.16,-0.04,0.99,0,-0,-0,0.17,,87,0,6,28,99,0.623,0.0,115,1.05,12.8,0.0,1,0.0,0.0,0.0,0,0,1,0,0,,,,,,,,,,,,,,,,,,,,
10183,0,,,248,247,251,246,,-0.16,-0.05,0.99,0,-0,-0,0.17,,87,0,6,28,99,0.623,0.0,116,1.05,12.8,0.0,1,0.0,0.0,0.0,0,0,1,0,0,,,,,,,,,,,,,,,,,,,,
10203,0,,,248,247,251,246,,-0.16,-0.05,0.99,0,-0,-0,0.17,,87,0,6,28,99,0.623,0.0,115,1.05,12.8,0.0,1,0.0,0.0,0.0,0,0,1,0,0,,,,,,,,,,,,,,,,,,,,
10223,0,,,248,247,251,246,,-0.16,-0.05,0.99,0,-0,-0,0.17,,87,0,6,28,99,0.623,0.0,115,1.05,12.8,0.0,1,0.0,0.0,0.0,0,0,1,0,0,,,,,,,,,,,,,,,,,,,,
10243,0,0,2,248,247,251,246,-6,-0.16,-0.05,0.99,0,-0,-0,0.17,1,87,0,6,28,99,0.623,0.0,115,1.05,12.8,0.0,1,0.0,0.0,0.0,0,0,1,0,0,0,250,250,0,0.0,0.0,0.0,0.0,0,0,0.0,0,0.0,-1,0.0,0.0,0.0,0,0.0,0.1707
10263,0,,,248,247,251,246,,-0.17,-0.05,0.99,0,-0,-0,0.17,,87,0,6,28,99,0.623,0.0,115,1.05,12.8,0.0,1,0.0,0.0,0.0,0,0,1,0,0,,,,,,,,,,,,,,,,,,,,
10283,0,,,248,247,251,246,,-0.17,-0.05,0.99,0,-0,-0,0.17,,87,0,6,28,99,0.623,0.0,115,1.05,12.8,0.0,1,0.0,0.0,0.0,0,0,1,0,0,,,,,,,,,,,,,,,,,,,,
10303,0,,,248,247,251,246,,-0.17,-0.04,0.99,0,-0,-0,0.17,,87,0,6,28,99,0.623,0.0,116,1.05,12.8,0.0,1,0.0,0.0,0.0,0,0,1,0,0,,,,,,,,,,,,,,,,,,,,
10323,0,,,248,247,251,246,,-0.17,-0.04,0.99,0,-0,-0,0.17,,87,0,6,28,99,0.623,0.0,115,1.05,12.8,0.0,1,0.0,0.0,0.0,0,0,1,0,0,,,,,,,,,,,,,,,,,,,,
10343,0,-1,0,248,247,251,246,-5,-0.17,-0.05,0.99,0,-0,-0,0.18,1,87,0,6,28,99,0.623,0.0,115,1.05,12.8,0.0,1,0.0,0.0,0.0,0,0,1,0,0,0,250,250,0,0.0,0.0,0.0,0.0,0,0,0.0,0,0.0,-1,0.0,,0.0,0,0.0,0.1724
10363,0,,,248,247,251,246,,-0.17,-0.05,0.99,0,-0,-0,0.18,,87,0,6,28,99,0.623,0.0,115,1.05,12.8,0.0,1,0.0,0.0,0.0,0,0,1,0,0,,,,,,,,,,,,,,,,,,,,
10383,0,,,248,247,251,246,,-0.17,-0.05,0.98,0,0,-0,0.18,,87,0,6,28,99,0.623,0.0,115,1.05,12.8,0.0,1,0.0,0.0,0.0,0,0,1,0,0,,,,,,,,,,,,,,,,,,,,
10403,0,,,248,247,251,246,,-0.17,-0.05,0.99,0,-0,-0,0.18,,87,0,6,28,99,0.623,0.0,115,1.05,12.8,0.0,1,0.0,0.0,0.0,0,0,1,0,0,,,,,,,,,,,,,,,,,,,,
10423,0,,,248,247,251,246,,-0.17,-0.05,0.99,0,-0,-0,0.18,,87,0,6,28,99,0.623,0.0,116,1.05,12.8,0.0,1,0.0,0.0,0.0,0,0,1,0,0,,,,,,,,,,,,,,,,,,,,
10443,0,0,2,248,247,251,246,-6,-0.17,-0.05,0.99,0,-0,-0,0.17,1,87,0,6,28,99,0.623,0.0,115,1.05,12.8,0.0,1,0.0,0.0,0.0,0,0,1,0,0,0,250,250,0,0.0,0.0,0.0,0.0,0,0,0.0,0,0.0,-1,0.0,0.0,0.0,0,0.0,0.174
10463,0,,,248,247,251,246,,-0.17,-0.05,0.99,0,-0,-0,0.17,,87,0,6,28,99,0.623,0.0,115,1.05,12.8,0.0,1,0.0,0.0,0.0,0,0,1,0,0,,,,,,,,,,,,,,,,,,,,
10483,0,,,248,247,251,246,,-0.16,-0.05,0.99,0,-0,-0,0.17,,87,0,6,28,99,0.624,0.0,115,1.05,12.8,0.0,1,0.0,0.0,0.0,0,0,1,0,0,,,,,,,,,,,,,,,,,,,,
10503,0,,,248,247,251,246,,-0.16,-0.05,0.99,0,-0,-0,0.17,,87,0,6,28,99,0.624,0.0,115,1.05,12.8,0.0,1,0.0,0.0,0.0,0,0,1,0,0,,,,,,,,,,,,,,,,,,,,
10523,0,,,248,247,251,246,,-0.16,-0.05,0.99,0,-0,-0,0.17,,87,0,6,28,99,0.624,0.0,115,1.05,12.8,0.0,1,0.0,0.0,0.0,0,0,1,0,0,,,,,,,,,,,,,,,,,,,,
10543,0,0,2,248,247,251,246,-5,-0.16,-0.05,0.99,0,-0,-0,0.17,1,87,0,6,28,99,0.624,0.0,115,1.04,12.8,0.0,1,0.0,0.0,0.0,0,0,1,0,0,0,250,250,0,0.0,0.0,0.0,0.0,0,0,0.0,0,0.0,-1,0.0,,0.0,0,0.0,0.1757
10563,0,,,248,247,251,246,,-0.16,-0.05,0.99,0,-0,-0,0.17,,87,0,6,28,99,0.624,0.0,116,1.05,12.8,0.0,1,0.0,0.0,0.0,0,0,1,0,0,,,,,,,,,,,,,,,,,,,,
10583,0,,,248,247,251,246,,-0.16,-0.05,0.99,0,-0,-0,0.17,,87,0,6,28,99,0.625,0.0,116,1.05,12.8,0.0,1,0.0,0.0,0.0,0,0,1,0,0,,,,,,,,,,,,,,,,,,,,
10603,0,,,248,247,251,246,,-0.16,-0.05,0.99,0,-0,-0,0.17,,87,0,6,28,99,0.624,0.0,116,1.05,12.8,0.0,1,0.0,0.0,0.0,0,0,1,0,0,,,,,,,,,,,,,,,,,,,,
10623,0,,,248,247,251,246,,-0.17,-0.05,0.99,0,-0,-0,0.17,,87,0,6,28,99,0.625,0.0,115,1.05,12.8,0.0,1,0.0,0.0,0.0,0,0,1,0,0,,,,,,,,,,,,,,,,,,,,
10643,0,-1,2,248,247,251,246,-5,-0.17,-0.05,0.99,0,-0,-0,0.18,1,87,0,6,28,99,0.625,0.0,116,1.05,12.8,0.0,1,0.0,0.0,0.0,0,0,1,0,0,0,250,250,0,0.0,0.0,0.0,0.0,0,0,0.0,0,0.0,-1,0.0,0.0,0.0,0,0.0,0.1774
10663,0,,,248,247,251,246,,-0.17,-0.04,0.99,-0,-0,-0,0.18,,87,0,6,28,99,0.625,0.0,115,1.05,12.8,0.0,1,0.0,0.0,0.0,0,0,1,0,0,,,,,,,,,,,,,,,,,,,,
10683,0,,,248,247,251,246,,-0.17,-0.04,0.99,0,-0,-0,0.18,,87,0,6,28,99,0.625,0.0,115,1.05,12.8,0.0,1,0.0,0.0,0.0,0,0,1,0,0,,,,,,,,,,,,,,,,,,,,
10703,0,,,248,247,251,246,,-0.17,-0.04,0.99,0,-0,-0,0.18,,87,0,6,28,99,0.624,0.0,116,1.05,12.8,0.0,1,0.0,0.0,0.0,0,0,1,0,0,,,,,,,,,,,,,,,,,,,,
