"Interval"|"ms"|0|0|1,"Utc"|"ms"|0|0|1,"Brake_F"|"Bar"|0|2000|10,"Brake_R"|"Bar"|0|2000|10,"Height_RF"|"mm"|0|255|50,"Height_LF"|"mm"|0|255|50,"Height_LR"|"mm"|0|80|50,"Height_RR"|"mm"|0|255|50,"Steering"|"deg"|-100|100|10,"AccelX"|"G"|-3.0|3.0|50,"AccelY"|"G"|-3.0|3.0|50,"AccelZ"|"G"|-3.0|3.0|50,"Yaw"|"Deg/Sec"|-120|120|50,"Pitch"|"Deg/Sec"|-120|120|50,"Roll"|"Deg/Sec"|-120|120|50,"Gsum"|"G"|0.0|3.0|50,"Log_Button"|""|0.0|10.0|10,"WaterTemp"|"C"|0|150|50,"RPM"|"tr/min"|0|14000|50,"TPS"|"%"|0|100|50,"AirTemp"|"C"|0|150|50,"MAP"|"KPa"|0|100|50,"Lambda"|""|0.5|1.5|50,"SpeedDTA"|"kph"|0.0|250.0|50,"OilPress"|"KPa"|0|1500|50,"FuelPressur"|"Bar"|0.0|10.0|50,"Batterie"|"V"|0.0|20.0|50,"ConsoKm"|"L/100km"|0.0|200.0|50,"Gear"|""|0|6|50,"AdvIgnition"|"Deg"|-20.0|70.0|50,"Injection"|"ms"|0.0|10.0|50,"ConsoHr"|"L/Hr"|0.0|10000.0|50,"LC_But_Pres"|""|0|1|50,"LC_Active"|""|0|1|50,"TractionOn"|""|0|1|50,"TractionWet"|""|0|1|50,"FanOn"|""|0|1|50,"RD_Speed"|"km/h"|-30|250|10,"RUD_Speed"|"km/h"|-30|250|10,"LD_Speed"|"km/h"|-30|250|10,"LUD_Speed"|"km/h"|-30|250|10,"Latitude"|"Degrees"|-180.0|180.0|10,"Longitude"|"Degrees"|-180.0|180.0|10,"Speed"|"kph"|0.0|150.0|10,"Altitude"|"m"|0.0|4000.0|10,"GPSSats"|""|0|20|10,"GPSQual"|""|0|5|10,"GPSDOP"|""|0.0|20.0|10,"LapCount"|""|0|0|10,"LapTime"|"Min"|0.0|0.0|10,"Sector"|""|0|0|10,"SectorTime"|"Min"|0.0|0.0|10,"PredTime"|"Min"|0.0|0.0|5,"ElapsedTime"|"Min"|0.0|0.0|10,"CurrentLap"|""|0|0|10,"Distance"|"km"|0.0|0.0|10,"SessionTime"|"Min"|0.0|0.0|10
75063,1629360990234,,,247,252,239,231,,-0.07,0.34,1.46,26,-2,0,0.34,,80,4166,4,26,67,0.939,24.9,380,4.87,13.4,24.1,1,24.4,2.78,5.4,0,0,0,1,0,,,,,,,,,,,,,,,,,,,,
75083,1629360990254,,,247,250,239,231,,-0.09,0.33,1.35,26,-2,0,0.34,,80,4188,4,26,67,0.939,24.7,371,4.88,13.5,24.1,1,24.7,2.79,5.4,0,0,0,1,0,,,,,,,,,,,,,,,,,,,,
75103,1629360990274,,,247,251,240,231,,-0.07,0.33,1.24,26,-1,0,0.34,,80,4181,4,26,66,0.939,24.9,376,4.84,13.5,24.2,1,24.4,2.75,5.4,0,0,0,1,0,,,,,,,,,,,,,,,,,,,,
75123,1629360990292,,,247,251,239,231,,-0.07,0.34,1.24,26,-1,-0,0.34,,80,4179,4,26,66,0.938,24.6,371,4.81,13.2,24.2,1,24.4,2.75,5.4,0,0,0,1,0,,,,,,,,,,,,,,,,,,,,
75143,1629360990312,3,3,247,251,239,232,38,-0.08,0.36,1.43,26,-2,-1,0.37,1,80,4230,4,26,66,0.938,24.6,374,4.82,13.2,24.2,1,25.1,2.76,5.4,0,0,0,1,0,246,10812,-1496,224,49.329746,8.566894,21.78,104.3,11,2,2.0,0,0.0,-1,0.0,,0.0,0,0.14,1.2524
75163,1629360990332,,,246,251,239,232,,-0.1,0.4,1.46,26,-2,-0,0.41,,80,4230,4,26,67,0.939,24.8,371,4.88,13.4,24.2,1,25.3,2.81,5.4,0,0,0,1,0,,,,,,,,,,,,,,,,,,,,
75183,1629360990352,,,247,251,239,232,,-0.1,0.38,1.35,27,-2,0,0.4,,80,4166,4,26,67,0.938,24.8,376,4.87,13.5,24.2,1,24.4,2.74,5.4,0,0,0,1,0,,,,,,,,,,,,,,,,,,,,
75203,1629360990372,,,247,254,240,232,,-0.09,0.37,1.24,27,-1,1,0.38,,80,4265,4,26,66,0.938,24.9,375,4.82,13.4,24.1,1,25.5,2.79,5.4,0,0,0,1,0,,,,,,,,,,,,,,,,,,,,
75223,1629360990391,,,246,255,239,233,,-0.08,0.39,1.19,27,-2,1,0.39,,80,4287,4,26,66,0.937,24.7,379,4.86,13.4,24.1,1,25.8,2.8,5.4,0,0,0,1,0,,,,,,,,,,,,,,,,,,,,
75243,1629360990411,4,1,247,256,239,233,45,-0.08,0.4,1.24,28,-2,0,0.41,1,80,4190,4,26,66,0.936,24.3,382,4.84,13.1,24.1,1,24.5,2.75,5.4,0,0,0,1,0,247,10818,19968,221,49.329742,8.566888,20.63,104.3,11,2,2.0,0,0.0,-1,0.0,0.0,0.0,0,0.14,1.2541
75263,1629360990431,,,247,256,240,233,,-0.1,0.44,1.37,28,-2,0,0.45,,80,4258,4,26,66,0.935,24.9,374,4.87,13.3,24.1,1,25.9,2.8,5.4,0,0,0,1,0,,,,,,,,,,,,,,,,,,,,
75283,1629360990451,,,247,257,239,232,,-0.12,0.44,1.34,29,-2,1,0.46,,80,4281,4,26,67,0.935,24.7,382,4.85,13.4,24.1,1,26.0,2.83,5.4,0,0,0,1,0,,,,,,,,,,,,,,,,,,,,
75303,1629360990471,,,247,257,239,232,,-0.1,0.39,1.24,29,-1,1,0.4,,80,4128,4,26,67,0.933,25.2,374,4.88,13.5,24.0,1,23.9,2.72,5.3,0,0,0,1,0,,,,,,,,,,,,,,,,,,,,
75323,1629360990494,,,247,256,239,232,,-0.08,0.4,1.14,29,-1,1,0.41,,80,4181,4,26,66,0.932,24.9,376,4.87,13.4,24.0,1,24.4,2.75,5.3,0,0,0,1,0,,,,,,,,,,,,,,,,,,,,
75343,1629360990514,3,3,248,256,239,232,46,-0.1,0.39,1.26,29,-1,1,0.4,1,80,4212,4,26,66,0.929,24.6,370,4.82,13.1,24.0,1,24.8,2.76,5.3,0,0,0,1,0,246,10812,19968,219,49.329739,8.566883,22.68,104.4,11,2,2.0,0,0.0,-1,0.0,,0.0,0,0.14,1.2557
75363,1629360990534,,,246,254,239,232,,-0.1,0.43,1.28,30,0,0,0.44,,80,4162,4,26,67,0.926,24.1,373,4.9,13.4,24.0,1,24.4,2.78,5.3,0,0,0,1,0,,,,,,,,,,,,,,,,,,,,
75383,1629360990554,,,247,255,239,232,,-0.11,0.42,1.18,30,1,1,0.43,,80,4134,4,26,66,0.925,24.7,375,4.89,13.5,24.0,1,23.8,2.73,5.3,0,0,0,1,0,,,,,,,,,,,,,,,,,,,,
75403,1629360990574,,,248,254,239,232,,-0.1,0.39,1.09,30,2,1,0.41,,80,4222,4,26,66,0.923,24.7,370,4.88,13.4,24.7,1,25.0,2.77,5.4,0,0,0,1,0,,,,,,,,,,,,,,,,,,,,
75423,1629360990593,,,248,255,239,232,,-0.1,0.42,1.12,31,2,1,0.43,,80,4162,4,26,66,0.921,24.7,374,4.86,13.4,24.7,1,24.2,2.74,5.4,0,0,0,1,0,,,,,,,,,,,,,,,,,,,,
75443,1629360990613,4,2,247,255,239,232,52,-0.11,0.41,1.3,31,2,0,0.42,1,80,4147,4,26,66,0.918,24.7,367,4.83,13.2,24.7,1,24.0,2.72,5.4,0,0,0,1,0,245,-1494,15360,219,49.329735,8.566877,23.78,104.5,11,2,2.0,0,0.0,-1,0.0,0.0,0.0,0,0.14,1.2574
75463,1629360990633,,,248,254,241,232,,-0.13,0.42,1.36,32,2,1,0.44,,80,4187,4,26,66,0.919,25.1,374,4.87,13.4,24.7,1,24.5,2.75,5.4,0,0,0,1,0,,,,,,,,,,,,,,,,,,,,
75483,1629360990653,,,248,254,242,232,,-0.13,0.4,1.25,32,3,2,0.42,,80,4189,4,26,66,0.918,25.2,371,4.88,13.5,24.7,1,24.5,2.75,5.4,0,0,0,1,0,,,,,,,,,,,,,,,,,,,,
75503,1629360990673,,,248,254,243,231,,-0.12,0.41,1.15,33,4,2,0.42,,80,4178,4,26,66,0.919,25.2,377,4.86,13.4,24.6,1,24.4,2.75,5.3,0,0,0,1,0,,,,,,,,,,,,,,,,,,,,
75523,1629360990693,,,248,253,244,231,,-0.11,0.42,1.16,34,3,1,0.44,,80,4248,4,26,66,0.919,25.4,375,4.84,13.3,24.6,1,25.3,2.78,5.3,0,0,0,1,0,,,,,,,,,,,,,,,,,,,,
75543,1629360990713,4,4,248,251,244,231,57,-0.12,0.44,1.38,34,2,1,0.46,1,80,4247,4,26,66,0.92,25.4,376,4.81,13.1,24.6,1,25.3,2.78,5.3,0,0,0,1,0,248,-1,10824,217,49.329727,8.566874,26.05,104.5,11,2,2.3,0,0.0,-1,0.0,,0.0,0,0.14,1.259
75563,1629360990733,,,248,252,245,230,,-0.13,0.48,1.5,35,1,2,0.5,,80,4207,4,26,66,0.92,25.3,376,4.87,13.4,24.6,1,24.8,2.76,5.3,0,0,0,1,0,,,,,,,,,,,,,,,,,,,,
75583,1629360990753,,,248,251,245,229,,-0.15,0.48,1.39,35,1,2,0.5,,80,4279,4,26,67,0.921,25.2,378,4.85,13.5,24.6,1,26.0,2.79,5.3,0,0,0,1,0,,,,,,,,,,,,,,,,,,,,
75603,1629360990773,,,249,251,244,228,,-0.16,0.44,1.28,36,2,3,0.47,,80,4281,4,26,66,0.921,24.9,382,4.85,13.5,25.8,1,25.7,2.79,5.6,0,0,0,1,0,,,,,,,,,,,,,,,,,,,,
75623,1629360990795,,,249,251,245,230,,-0.15,0.4,1.18,36,3,3,0.43,,80,4215,4,26,66,0.922,25.0,378,4.88,13.5,25.8,1,24.9,2.76,5.6,0,0,0,1,0,,,,,,,,,,,,,,,,,,,,
75643,1629360990815,5,3,249,252,245,231,52,-0.14,0.39,1.27,36,2,2,0.42,1,80,4266,4,26,66,0.921,24.8,385,4.86,13.3,25.8,1,25.5,2.79,5.6,0,0,0,1,0,246,250,13468,217,49.329723,8.56687,27.03,104.5,11,2,2.3,0,0.0,-1,0.0,0.0,0.0,0,0.14,1.2607
75663,1629360990835,,,249,253,245,232,,-0.14,0.38,1.48,36,1,1,0.4,,80,4264,4,26,66,0.921,24.2,379,4.84,13.1,25.8,1,25.5,2.83,5.6,0,0,0,1,0,,,,,,,,,,,,,,,,,,,,
75683,1629360990855,,,250,253,245,231,,-0.16,0.42,1.67,36,0,1,0.45,,80,4267,4,26,67,0.921,24.6,381,4.89,13.3,25.8,1,25.8,2.83,5.6,0,0,0,1,0,,,,,,,,,,,,,,,,,,,,
75703,1629360990875,,,250,251,244,232,,-0.17,0.43,1.63,36,0,1,0.46,,80,4333,4,26,67,0.92,24.8,378,4.91,13.4,26.2,1,26.7,2.86,5.7,0,0,0,1,0,,,,,,,,,,,,,,,,,,,,
75723,1629360990893,,,250,251,243,232,,-0.16,0.38,1.5,36,1,2,0.41,,80,4273,4,26,67,0.92,24.9,384,4.87,13.5,26.2,1,25.9,2.83,5.7,0,0,0,1,0,,,,,,,,,,,,,,,,,,,,
75743,1629360990913,4,3,249,252,242,231,48,-0.14,0.36,1.38,36,2,2,0.39,1,80,4182,4,26,67,0.918,24.9,378,4.87,13.4,26.2,1,24.6,2.75,5.7,0,0,0,1,0,247,16896,19968,219,49.329716,8.566867,26.46,104.5,11,2,2.3,0,0.0,-1,0.0,,0.0,0,0.15,1.2624
75763,1629360990933,,,248,250,241,231,,-0.13,0.39,1.42,36,1,2,0.41,,80,4167,4,26,66,0.916,24.6,375,4.85,13.4,26.2,1,24.2,2.74,5.7,0,0,0,1,0,,,,,,,,,,,,,,,,,,,,
75783,1629360990953,,,248,253,240,231,,-0.14,0.41,1.48,36,1,2,0.43,,80,4148,4,26,66,0.916,24.6,373,4.83,13.2,26.2,1,24.0,2.77,5.7,0,0,0,1,0,,,,,,,,,,,,,,,,,,,,
75803,1629360990973,,,247,254,238,231,,-0.16,0.41,1.37,36,1,2,0.44,,80,4147,4,26,67,0.917,24.7,370,4.86,13.5,23.9,1,24.2,2.77,5.2,0,0,0,1,0,,,,,,,,,,,,,,,,,,,,
75823,1629360990993,,,246,254,237,231,,-0.15,0.38,1.26,36,1,2,0.4,,80,4123,4,26,66,0.917,24.8,375,4.87,13.4,23.9,1,23.6,2.72,5.2,0,0,0,1,0,,,,,,,,,,,,,,,,,,,,
75843,1629360991007,3,3,246,254,237,231,45,-0.14,0.38,1.27,36,1,2,0.4,1,80,4144,4,26,66,0.918,24.5,368,4.86,13.4,23.9,1,23.9,2.73,5.2,0,0,0,1,0,244,15360,1210,219,49.329708,8.566864,27.03,104.5,11,2,1.5,0,0.0,-1,0.0,0.0,0.0,0,0.15,1.264
75863,1629360991027,,,246,255,237,233,,-0.15,0.4,1.36,36,1,2,0.43,,80,4187,4,26,66,0.919,24.5,369,4.82,13.2,23.9,1,24.5,2.75,5.2,0,0,0,1,0,,,,,,,,,,,,,,,,,,,,
75883,1629360991047,,,245,253,237,234,,-0.16,0.39,1.29,36,2,2,0.42,,80,4191,4,26,67,0.92,24.8,369,4.87,13.5,23.9,1,24.8,2.75,5.2,0,0,0,1,0,,,,,,,,,,,,,,,,,,,,
75903,1629360991067,,,245,256,238,235,,-0.14,0.37,1.19,36,2,3,0.4,,80,4153,4,26,66,0.921,24.9,376,4.85,13.5,23.8,1,24.0,2.74,5.2,0,0,0,1,0,,,,,,,,,,,,,,,,,,,,
75923,1629360991095,,,245,257,239,235,,-0.12,0.37,1.18,36,2,3,0.39,,80,4150,4,26,66,0.922,24.7,369,4.88,13.5,23.8,1,24.0,2.73,5.2,0,0,0,1,0,,,,,,,,,,,,,,,,,,,,
75943,1629360991115,5,4,245,258,239,235,43,-0.12,0.41,1.34,35,1,2,0.42,1,80,4164,4,26,66,0.923,25.2,369,4.83,13.2,23.8,1,24.2,2.74,5.2,0,0,0,1,0,247,-1,1596,219,49.329704,8.566862,27.57,104.5,11,2,1.5,0,0.0,-1,0.0,,0.0,0,0.15,1.2657
75963,1629360991135,,,246,259,239,235,,-0.14,0.42,1.36,35,1,2,0.44,,80,4147,4,26,66,0.924,24.8,372,4.86,13.3,23.8,1,23.9,2.73,5.2,0,0,0,1,0,,,,,,,,,,,,,,,,,,,,
75983,1629360991155,,,245,259,239,235,,-0.15,0.38,1.25,35,1,2,0.4,,80,4132,4,26,66,0.925,24.9,370,4.86,13.5,23.8,1,23.8,2.73,5.2,0,0,0,1,0,,,,,,,,,,,,,,,,,,,,
76003,1629360991175,,,245,256,238,235,,-0.13,0.37,1.16,35,2,1,0.4,,80,4141,4,26,66,0.926,24.7,367,4.82,13.5,23.7,1,23.9,2.73,5.2,0,0,0,1,0,,,,,,,,,,,,,,,,,,,,
76023,1629360991195,,,246,256,238,235,,-0.14,0.39,1.27,34,2,1,0.41,,80,4148,4,26,66,0.925,24.5,366,4.82,13.1,23.7,1,24.0,2.73,5.2,0,0,0,1,0,,,,,,,,,,,,,,,,,,,,
76043,1629360991215,5,3,247,257,239,235,37,-0.14,0.37,1.33,34,2,0,0.4,1,80,4176,4,26,66,0.924,24.3,371,4.83,13.2,23.7,1,24.4,2.75,5.2,0,0,0,1,0,244,-1445,1596,216,49.329697,8.566862,25.75,104.5,11,2,1.5,0,0.0,-1,0.0,0.0,0.0,0,0.15,1.2674
76063,1629360991235,,,247,256,239,234,,-0.14,0.38,1.25,33,2,0,0.4,,80,4174,4,26,66,0.924,24.2,369,4.86,13.5,23.7,1,24.3,2.75,5.2,0,0,0,1,0,,,,,,,,,,,,,,,,,,,,
76083,1629360991255,,,247,255,240,234,,-0.13,0.35,1.15,33,2,0,0.37,,80,4154,4,26,66,0.923,24.1,374,4.86,13.5,23.7,1,24.1,2.74,5.2,0,0,0,1,0,,,,,,,,,,,,,,,,,,,,
76103,1629360991275,,,247,254,240,234,,-0.12,0.36,1.23,33,1,0,0.38,,80,4177,4,26,66,0.921,24.2,369,4.86,13.4,23.5,1,24.4,2.75,5.2,0,0,0,1,0,,,,,,,,,,,,,,,,,,,,
76123,1629360991295,,,247,253,239,234,,-0.12,0.36,1.36,32,1,-0,0.38,,80,4169,4,26,66,0.918,24.6,375,4.83,13.1,23.5,1,24.3,2.74,5.2,0,0,0,1,0,,,,,,,,,,,,,,,,,,,,
76143,1629360991315,4,4,247,253,240,234,36,-0.13,0.36,1.36,32,1,0,0.38,1,80,4119,4,26,66,0.917,24.5,367,4.86,13.4,23.5,1,23.6,2.72,5.2,0,0,0,1,0,243,15360,-1530,222,49.329693,8.566865,22.47,104.6,11,2,1.5,0,0.0,-1,0.0,,0.0,0,0.15,1.269
76163,1629360991335,,,247,253,240,234,,-0.12,0.31,1.26,31,1,1,0.34,,80,4149,4,26,66,0.914,24.8,368,4.87,13.5,23.5,1,24.0,2.73,5.2,0,0,0,1,0,,,,,,,,,,,,,,,,,,,,
76183,1629360991355,,,247,252,240,233,,-0.1,0.33,1.16,31,2,1,0.34,,80,4171,4,26,66,0.912,24.5,371,4.86,13.4,23.5,1,24.3,2.74,5.2,0,0,0,1,0,,,,,,,,,,,,,,,,,,,,
76203,1629360991375,,,247,252,240,233,,-0.1,0.35,1.3,31,1,-0,0.36,,80,4147,4,26,66,0.909,24.5,370,4.83,13.2,23.5,1,24.0,2.73,5.2,0,0,0,1,0,,,,,,,,,,,,,,,,,,,,
76223,1629360991393,,,247,251,240,233,,-0.11,0.36,1.39,30,0,-0,0.37,,80,4151,4,26,66,0.907,24.3,368,4.9,13.4,23.5,1,24.0,2.73,5.2,0,0,0,1,0,,,,,,,,,,,,,,,,,,,,
76243,1629360991413,5,4,248,250,241,233,36,-0.12,0.35,1.32,30,0,1,0.37,1,80,4181,4,26,66,0.905,24.2,371,4.9,13.5,23.5,1,24.4,2.75,5.2,0,0,0,1,0,243,23482,250,222,49.329685,8.566867,22.79,104.5,11,2,1.5,0,0.0,-1,0.0,0.0,0.0,0,0.15,1.2707
76263,1629360991433,,,248,251,242,233,,-0.1,0.33,1.21,29,1,1,0.34,,80,4121,4,26,66,0.902,24.1,375,4.9,13.5,23.5,1,23.6,2.72,5.2,0,0,0,1,0,,,,,,,,,,,,,,,,,,,,
76283,1629360991453,,,248,251,243,233,,-0.1,0.35,1.26,29,1,1,0.36,,80,4165,4,26,66,0.9,24.1,369,4.86,13.4,23.5,1,24.2,2.74,5.2,0,0,0,1,0,,,,,,,,,,,,,,,,,,,,
76303,1629360991473,,,248,251,243,233,,-0.1,0.34,1.46,28,0,-0,0.36,,80,4223,4,26,66,0.9,23.6,370,4.87,13.3,24.5,1,25.0,2.77,5.4,0,0,0,1,0,,,,,,,,,,,,,,,,,,,,
76323,1629360991495,,,248,250,243,233,,-0.12,0.37,1.51,28,-1,-0,0.38,,80,4180,4,26,66,0.899,24.2,369,4.88,13.4,24.5,1,24.4,2.75,5.4,0,0,0,1,0,,,,,,,,,,,,,,,,,,,,
76343,1629360991515,6,3,247,251,241,232,36,-0.11,0.33,1.4,28,-1,0,0.34,1,80,4173,4,26,66,0.899,24.5,378,4.89,13.5,24.5,1,24.3,2.74,5.4,0,0,0,1,0,243,15360,250,222,49.329681,8.566869,22.94,104.5,11,2,1.5,0,0.0,-1,0.0,,0.0,0,0.15,1.2724
76363,1629360991535,,,247,251,240,232,,-0.1,0.32,1.33,28,-1,-0,0.33,,80,4205,4,26,66,0.898,24.5,375,4.89,13.4,24.5,1,24.7,2.76,5.4,0,0,0,1,0,,,,,,,,,,,,,,,,,,,,
76383,1629360991555,,,246,250,239,231,,-0.1,0.33,1.37,28,-2,-0,0.35,,80,4139,4,26,66,0.897,24.7,370,4.82,13.1,24.5,1,23.9,2.73,5.4,0,0,0,1,0,,,,,,,,,,,,,,,,,,,,
76403,1629360991575,,,246,250,239,232,,-0.11,0.36,1.41,28,-2,-0,0.37,,80,4121,4,26,66,0.898,24.5,370,4.86,13.2,23.5,1,23.6,2.72,5.2,0,0,0,1,0,,,,,,,,,,,,,,,,,,,,
76423,1629360991594,,,246,251,239,232,,-0.12,0.35,1.3,28,-2,0,0.37,,80,4141,4,26,66,0.898,24.3,369,4.88,13.5,23.5,1,23.9,2.73,5.2,0,0,0,1,0,,,,,,,,,,,,,,,,,,,,
76443,1629360991614,6,3,246,253,239,232,41,-0.1,0.36,1.21,28,-2,1,0.37,1,80,4139,4,26,66,0.898,24.4,371,4.86,13.5,23.5,1,23.9,2.73,5.2,0,0,0,1,0,243,250,1596,220,49.329674,8.566871,22.67,104.6,11,2,1.9,0,0.0,-1,0.0,0.0,0.0,0,0.15,1.274
76463,1629360991634,,,246,253,239,233,,-0.11,0.4,1.29,28,-2,1,0.41,,80,4117,4,26,66,0.897,24.3,363,4.85,13.1,23.5,1,23.6,2.72,5.2,0,0,0,1,0,,,,,,,,,,,,,,,,,,,,
76483,1629360991654,,,246,254,240,233,,-0.13,0.39,1.35,28,-2,2,0.41,,80,4123,4,26,66,0.899,24.5,368,4.88,13.4,23.5,1,23.6,2.73,5.2,0,0,0,1,0,,,,,,,,,,,,,,,,,,,,
76503,1629360991674,,,246,255,240,234,,-0.13,0.37,1.25,29,-2,3,0.39,,80,4158,4,26,66,0.9,24.3,366,4.88,13.5,24.0,1,24.1,2.74,5.2,0,0,0,1,0,,,,,,,,,,,,,,,,,,,,
76523,1629360991694,,,246,255,241,233,,-0.12,0.37,1.15,29,-2,3,0.39,,80,4141,4,26,66,0.901,23.9,373,4.86,13.5,24.0,1,23.9,2.73,5.2,0,0,0,1,0,,,,,,,,,,,,,,,,,,,,
76543,1629360991714,5,4,246,254,241,233,50,-0.12,0.41,1.2,30,-2,2,0.43,1,80,4150,4,26,66,0.901,24.4,369,4.85,13.4,24.0,1,24.0,2.73,5.2,0,0,0,1,0,244,250,1210,214,49.32967,8.566872,22.73,104.6,11,2,1.9,0,0.0,-1,0.0,,0.0,0,0.15,1.2757
76563,1629360991734,,,245,254,240,231,,-0.13,0.42,1.29,30,-2,2,0.44,,80,4137,4,26,66,0.901,24.6,370,4.83,13.2,24.0,1,23.8,2.73,5.2,0,0,0,1,0,,,,,,,,,,,,,,,,,,,,
76583,1629360991754,,,246,254,240,230,,-0.14,0.41,1.2,30,-2,2,0.43,,80,4101,4,26,66,0.902,24.6,366,4.87,13.4,24.0,1,23.3,2.71,5.2,0,0,0,1,0,,,,,,,,,,,,,,,,,,,,
76603,1629360991774,,,246,253,240,230,,-0.14,0.38,1.11,31,-1,2,0.41,,80,4084,4,26,66,0.903,24.3,365,4.87,13.5,24.1,1,23.1,2.71,5.1,0,0,0,1,0,,,,,,,,,,,,,,,,,,,,
76623,1629360991794,,,246,253,240,230,,-0.16,0.41,1.28,31,-1,1,0.44,,80,4108,4,26,66,0.902,24.1,364,4.82,13.3,24.1,1,23.4,2.71,5.1,0,0,0,1,0,,,,,,,,,,,,,,,,,,,,
76643,1629360991814,6,4,246,253,240,231,52,-0.19,0.44,1.49,32,-2,-0,0.48,1,80,4200,4,26,66,0.903,24.2,367,4.82,13.2,24.1,1,24.7,2.76,5.1,0,0,0,1,0,240,23482,250,212,49.329666,8.566874,22.91,104.6,11,2,1.5,0,0.0,-1,0.0,0.0,0.0,0,0.15,1.2774
76663,1629360991834,,,245,253,241,232,,-0.21,0.45,1.46,32,-2,0,0.5,,80,4239,4,26,66,0.904,24.3,373,4.89,13.4,24.1,1,25.2,2.77,5.1,0,0,0,1,0,,,,,,,,,,,,,,,,,,,,
76683,1629360991854,,,246,253,241,234,,-0.24,0.48,1.41,33,-1,2,0.54,,80,4277,4,26,66,0.905,24.2,374,4.87,13.5,24.1,1,25.7,2.79,5.1,0,0,0,1,0,,,,,,,,,,,,,,,,,,,,
76703,1629360991874,,,245,253,242,235,,-0.27,0.49,1.3,34,0,3,0.55,,80,4351,4,26,66,0.905,24.2,387,4.87,13.5,27.4,1,26.7,2.82,5.6,0,0,0,1,0,,,,,,,,,,,,,,,,,,,,
76723,1629360991892,,,246,253,242,235,,-0.29,0.48,1.2,35,2,4,0.56,,80,4424,4,26,66,0.905,23.9,391,4.87,13.4,27.4,1,27.7,2.85,5.6,0,0,0,1,0,,,,,,,,,,,,,,,,,,,,
76743,1629360991912,7,3,246,254,242,234,60,-0.29,0.47,1.11,35,3,5,0.55,1,80,4428,4,26,66,0.906,23.5,399,4.85,13.5,27.4,1,27.7,2.85,5.6,0,0,0,1,0,233,-1484,12800,203,49.329658,8.566877,22.83,104.6,11,2,1.5,0,0.0,-1,0.0,,0.0,0,0.15,1.279
76763,1629360991932,,,245,253,242,234,,-0.29,0.47,1.02,36,4,5,0.55,,80,4519,4,26,66,0.906,23.7,399,4.88,13.5,27.4,1,29.0,2.89,5.6,0,0,0,1,0,,,,,,,,,,,,,,,,,,,,
76783,1629360991952,,,245,253,241,233,,-0.32,0.45,0.94,37,5,6,0.55,,80,4526,4,26,66,0.905,23.4,407,4.88,13.5,27.4,1,29.1,2.9,5.6,0,0,0,1,0,,,,,,,,,,,,,,,,,,,,
76803,1629360991972,,,245,253,241,233,,-0.34,0.44,0.87,37,7,6,0.55,,80,4613,4,26,66,0.904,23.6,413,4.92,13.4,30.9,1,30.2,2.94,6.1,0,0,0,1,0,,,,,,,,,,,,,,,,,,,,
76823,1629360991992,,,245,252,242,233,,-0.37,0.47,0.8,38,9,8,0.6,,80,4676,4,26,66,0.903,23.3,417,4.85,13.5,30.9,1,31.1,2.97,6.1,0,0,0,1,0,,,,,,,,,,,,,,,,,,,,
76843,1629360992006,7,4,245,252,241,234,61,-0.41,0.48,1.05,38,10,9,0.63,1,80,4751,4,26,66,0.903,23.0,421,4.85,13.4,30.9,1,32.1,3.0,6.1,0,0,0,1,0,227,10824,250,195,49.329655,8.56688,22.39,104.5,11,2,1.4,0,0.0,-1,0.0,0.0,0.0,0,0.15,1.2807
76863,1629360992026,,,245,253,241,234,,-0.36,0.47,1.28,39,7,6,0.6,,80,4818,4,26,65,0.904,22.8,428,4.81,13.3,30.9,1,32.8,3.03,6.1,0,0,0,1,0,,,,,,,,,,,,,,,,,,,,
76883,1629360992046,,,245,253,241,234,,-0.31,0.47,1.18,39,5,4,0.57,,80,4785,4,26,65,0.905,22.7,433,4.87,13.4,30.9,1,32.3,2.97,6.1,0,0,0,1,0,,,,,,,,,,,,,,,,,,,,
76903,1629360992066,,,245,254,242,234,,-0.29,0.45,1.09,39,5,4,0.54,,80,4738,4,26,65,0.905,22.6,438,4.9,13.4,34.5,1,31.7,2.94,6.6,0,0,0,1,0,,,,,,,,,,,,,,,,,,,,
76923,1629360992092,,,245,252,242,234,,-0.3,0.44,1.0,40,5,4,0.53,,80,4658,4,26,66,0.906,22.6,435,4.87,13.5,34.5,1,30.9,2.91,6.6,0,0,0,1,0,,,,,,,,,,,,,,,,,,,,
76943,1629360992112,7,4,244,251,242,234,61,-0.33,0.46,0.93,40,6,6,0.57,1,80,4636,4,26,65,0.907,22.4,426,4.88,13.5,34.5,1,30.3,2.9,6.6,0,0,0,1,0,219,250,-1,189,49.329647,8.566885,21.3,104.4,11,2,1.4,0,0.0,-1,0.0,,0.0,0,0.15,1.2824
76963,1629360992132,,,244,251,242,234,,-0.39,0.49,1.07,40,7,7,0.63,,80,4728,4,26,65,0.908,21.7,430,4.89,13.5,34.5,1,31.5,2.94,6.6,0,0,0,1,0,,,,,,,,,,,,,,,,,,,,
76983,1629360992152,,,245,252,242,233,,-0.41,0.52,1.3,41,7,6,0.66,,80,4758,4,26,65,0.909,22.2,431,4.81,13.3,34.5,1,32.1,2.95,6.6,0,0,0,1,0,,,,,,,,,,,,,,,,,,,,
77003,1629360992172,,,245,251,242,233,,-0.35,0.51,1.51,41,5,4,0.62,,80,4775,4,26,65,0.911,21.9,434,4.8,13.2,35.6,1,32.2,2.96,6.6,0,0,0,1,0,,,,,,,,,,,,,,,,,,,,
77023,1629360992192,,,245,251,242,232,,-0.31,0.46,1.39,41,3,4,0.55,,80,4808,4,26,65,0.914,21.5,435,4.88,13.4,35.6,1,32.6,2.97,6.6,0,0,0,1,0,,,,,,,,,,,,,,,,,,,,
77043,1629360992212,6,3,245,250,242,232,61,-0.33,0.44,1.28,41,5,5,0.55,1,80,4810,4,26,65,0.917,21.8,435,4.82,13.5,35.6,1,32.6,2.97,6.6,0,0,0,1,0,212,1210,-236,180,49.329647,8.566888,20.67,104.3,11,2,1.4,0,0.0,-1,0.0,0.0,0.0,0,0.15,1.284
77063,1629360992232,,,245,250,242,232,,-0.39,0.44,1.34,41,6,6,0.59,,80,4785,4,26,65,0.92,21.4,443,4.85,13.4,35.6,1,32.3,2.97,6.6,0,0,0,1,0,,,,,,,,,,,,,,,,,,,,
77083,1629360992252,,,245,249,243,232,,-0.41,0.47,1.54,41,6,6,0.62,,80,4779,4,26,65,0.922,21.1,437,4.83,13.4,35.6,1,32.2,2.96,6.6,0,0,0,1,0,,,,,,,,,,,,,,,,,,,,
77103,1629360992272,,,245,249,243,232,,-0.38,0.47,1.73,41,4,4,0.6,,80,4714,4,26,65,0.924,21.0,433,4.85,13.1,35.5,1,31.3,2.94,6.4,0,0,0,1,0,,,,,,,,,,,,,,,,,,,,
77123,1629360992294,,,245,249,243,232,,-0.32,0.45,1.68,41,1,3,0.56,,80,4731,4,26,65,0.926,21.0,433,4.81,13.1,35.5,1,31.6,2.94,6.4,0,0,0,1,0,,,,,,,,,,,,,,,,,,,,
77143,1629360992314,5,2,245,248,243,232,62,-0.28,0.43,1.55,41,1,2,0.51,1,80,4766,4,26,65,0.929,21.0,433,4.86,13.5,35.5,1,32.0,2.96,6.4,0,0,0,1,0,206,-14848,10620,176,49.329643,8.566892,19.88,104.3,11,2,1.6,0,0.0,-1,0.0,,0.0,0,0.15,1.2857
77163,1629360992334,,,245,249,243,232,,-0.31,0.41,1.43,40,2,4,0.51,,80,4781,4,26,65,0.931,20.8,444,4.86,13.4,35.5,1,32.2,2.96,6.4,0,0,0,1,0,,,,,,,,,,,,,,,,,,,,
77183,1629360992354,,,245,249,243,232,,-0.37,0.39,1.55,40,4,5,0.54,,80,4802,4,26,65,0.93,20.4,439,4.86,13.4,35.5,1,32.5,2.97,6.4,0,0,0,1,0,,,,,,,,,,,,,,,,,,,,
77203,1629360992374,,,245,248,243,232,,-0.38,0.41,1.74,40,2,3,0.56,,80,4766,4,26,65,0.93,20.3,433,4.82,13.2,37.1,1,32.4,2.96,6.5,0,0,0,1,0,,,,,,,,,,,,,,,,,,,,
77223,1629360992392,,,245,249,243,232,,-0.35,0.42,1.85,40,0,1,0.55,,80,4770,4,26,65,0.929,20.4,442,4.86,13.2,37.1,1,32.1,2.96,6.5,0,0,0,1,0,,,,,,,,,,,,,,,,,,,,
77243,1629360992412,5,3,245,249,243,232,61,-0.29,0.4,1.71,40,-0,0,0.49,1,80,4760,4,26,65,0.929,20.2,440,4.88,13.4,37.1,1,32.0,2.95,6.5,0,0,0,1,0,199,13874,-1,172,49.329636,8.566896,19.2,104.3,11,2,1.4,0,0.0,-1,0.0,0.0,0.0,0,0.16,1.2874
77263,1629360992432,,,245,249,242,232,,-0.26,0.37,1.58,40,-0,1,0.46,,80,4719,4,26,65,0.928,20.3,438,4.88,13.4,37.1,1,31.4,2.94,6.5,0,0,0,1,0,,,,,,,,,,,,,,,,,,,,
77283,1629360992452,,,245,248,242,233,,-0.31,0.36,1.46,40,2,2,0.48,,80,4722,4,26,65,0.927,20.1,437,4.87,13.5,37.1,1,31.4,2.94,6.5,0,0,0,1,0,,,,,,,,,,,,,,,,,,,,
77303,1629360992472,,,245,248,241,234,,-0.35,0.38,1.59,40,2,4,0.51,,80,4760,4,26,65,0.926,20.3,431,4.84,13.4,38.2,1,32.0,2.95,6.5,0,0,0,1,0,,,,,,,,,,,,,,,,,,,,
77323,1629360992492,,,245,250,241,234,,-0.38,0.38,1.77,40,2,3,0.53,,80,4767,4,26,65,0.924,19.9,437,4.85,13.4,38.2,1,32.1,2.96,6.5,0,0,0,1,0,,,,,,,,,,,,,,,,,,,,
77343,1629360992510,5,2,245,252,241,234,62,-0.33,0.37,1.94,40,-0,1,0.5,1,80,4777,4,26,65,0.923,19.6,437,4.81,13.2,38.2,1,32.2,2.96,6.5,0,0,0,1,0,193,250,250,164,49.329632,8.5669,19.13,104.3,11,2,1.4,0,0.0,-1,0.0,,0.0,0,0.16,1.289
77363,1629360992530,,,245,252,241,234,,-0.28,0.34,1.79,40,-2,1,0.45,,80,4780,4,26,65,0.921,19.5,435,4.88,13.4,38.2,1,32.2,2.96,6.5,0,0,0,1,0,,,,,,,,,,,,,,,,,,,,
77383,1629360992550,,,245,252,240,234,,-0.28,0.32,1.65,39,-1,2,0.43,,80,4754,4,26,65,0.92,19.4,439,4.86,13.5,38.2,1,31.9,2.9,6.5,0,0,0,1,0,,,,,,,,,,,,,,,,,,,,
77403,1629360992570,,,245,253,240,234,,-0.33,0.33,1.53,39,1,4,0.47,,80,4781,4,26,65,0.918,19.3,435,4.87,13.4,39.8,1,32.2,2.96,6.5,0,0,0,1,0,,,,,,,,,,,,,,,,,,,,
77423,1629360992590,,,245,253,240,234,,-0.37,0.35,1.72,39,3,4,0.51,,80,4754,4,26,65,0.917,19.1,436,4.86,13.4,39.8,1,31.9,2.95,6.5,0,0,0,1,0,,,,,,,,,,,,,,,,,,,,
77443,1629360992609,4,3,245,253,240,234,61,-0.35,0.37,1.89,39,1,2,0.5,1,80,4797,4,26,65,0.916,18.8,443,4.83,13.1,39.8,1,32.5,2.97,6.5,0,0,0,1,0,187,-1,-1,161,49.329628,8.566904,17.52,104.4,11,2,1.4,0,0.0,-1,0.0,0.0,0.0,0,0.16,1.2907
77463,1629360992629,,,245,253,240,234,,-0.28,0.37,1.81,39,-1,1,0.46,,80,4792,4,26,64,0.917,18.9,438,4.86,13.2,39.8,1,32.1,2.97,6.5,0,0,0,1,0,,,,,,,,,,,,,,,,,,,,
77483,1629360992649,,,244,253,240,234,,-0.25,0.33,1.67,39,-0,1,0.41,,80,4815,4,26,65,0.917,18.3,438,4.85,13.5,39.8,1,32.7,2.93,6.5,0,0,0,1,0,,,,,,,,,,,,,,,,,,,,
77503,1629360992669,,,244,253,240,234,,-0.28,0.35,1.55,39,1,3,0.45,,80,4777,4,26,65,0.918,18.8,440,4.86,13.5,41.1,1,32.2,2.96,6.5,0,0,0,1,0,,,,,,,,,,,,,,,,,,,,
77523,1629360992691,,,244,252,240,234,,-0.35,0.36,1.65,39,2,3,0.5,,80,4756,4,26,65,0.918,18.6,433,4.83,13.4,41.1,1,31.9,2.95,6.5,0,0,0,1,0,,,,,,,,,,,,,,,,,,,,
77543,1629360992711,5,1,244,252,240,234,61,-0.36,0.37,1.83,39,1,2,0.52,1,80,4719,4,26,65,0.919,18.4,435,4.85,13.3,41.1,1,31.4,2.94,6.5,0,0,0,1,0,181,-1,-23552,157,49.329628,8.566909,17.09,104.4,11,2,1.4,0,0.0,-1,0.0,,0.0,0,0.16,1.2924
77563,1629360992731,,,245,253,240,234,,-0.31,0.39,2.0,38,-1,-0,0.5,,80,4745,4,26,65,0.919,18.5,433,4.8,13.2,41.1,1,31.8,2.95,6.5,0,0,0,1,0,,,,,,,,,,,,,,,,,,,,
77583,1629360992751,,,245,253,240,234,,-0.24,0.38,1.84,38,-2,-1,0.45,,80,4730,4,26,64,0.92,18.5,434,4.87,13.4,41.1,1,31.3,2.89,6.5,0,0,0,1,0,,,,,,,,,,,,,,,,,,,,
77603,1629360992771,,,245,251,241,234,,-0.22,0.32,1.7,38,-3,-1,0.39,,80,4718,4,26,65,0.922,18.1,442,4.83,13.5,42.7,1,31.4,2.89,6.5,0,0,0,1,0,,,,,,,,,,,,,,,,,,,,
77623,1629360992793,,,245,251,242,234,,-0.25,0.31,1.57,38,-1,0,0.4,,80,4736,4,26,64,0.923,17.9,432,4.85,13.5,42.7,1,31.3,2.89,6.5,0,0,0,1,0,,,,,,,,,,,,,,,,,,,,
77643,1629360992813,3,2,246,251,241,234,62,-0.3,0.33,1.58,37,0,1,0.45,1,80,4768,4,26,65,0.924,17.8,438,4.88,13.4,42.7,1,32.1,2.91,6.5,0,0,0,1,0,175,5134,-1,151,49.329628,8.566912,15.71,104.6,11,2,1.4,0,0.0,-1,0.0,0.0,0.0,0,0.16,1.294
77663,1629360992833,,,246,251,241,234,,-0.34,0.34,1.76,37,1,1,0.48,,80,4752,4,26,64,0.924,17.8,435,4.82,13.2,42.7,1,31.7,2.95,6.5,0,0,0,1,0,,,,,,,,,,,,,,,,,,,,
77683,1629360992853,,,247,250,241,234,,-0.31,0.36,1.93,37,-1,-0,0.47,,80,4738,4,26,64,0.925,17.6,428,4.85,13.2,42.7,1,31.4,2.89,6.5,0,0,0,1,0,,,,,,,,,,,,,,,,,,,,
77703,1629360992873,,,246,249,242,233,,-0.25,0.35,1.8,37,-2,-1,0.43,,80,4754,4,26,64,0.926,17.5,441,4.87,13.4,42.9,1,31.6,2.9,6.4,0,0,0,1,0,,,,,,,,,,,,,,,,,,,,
77723,1629360992891,,,246,250,242,233,,-0.21,0.3,1.66,37,-1,-0,0.37,,80,4757,4,26,64,0.928,17.4,437,4.88,13.4,42.9,1,31.6,2.9,6.4,0,0,0,1,0,,,,,,,,,,,,,,,,,,,,
77743,1629360992911,4,3,247,249,242,233,62,-0.24,0.29,1.54,36,1,2,0.38,1,80,4778,4,26,65,0.929,17.1,437,4.88,13.5,42.9,1,32.2,2.91,6.4,0,0,0,1,0,169,-1281,-236,147,49.329624,8.566916,15.45,104.7,11,2,1.4,0,0.0,-1,0.0,,0.0,0,0.16,1.2957
77763,1629360992931,,,247,247,241,233,,-0.3,0.3,1.71,36,2,3,0.43,,80,4802,4,26,65,0.928,17.0,439,4.83,13.3,42.9,1,32.5,2.97,6.4,0,0,0,1,0,,,,,,,,,,,,,,,,,,,,
77783,1629360992951,,,247,247,242,232,,-0.33,0.33,1.88,36,1,2,0.46,,80,4716,4,26,64,0.928,16.7,428,4.83,13.2,42.9,1,31.1,2.94,6.4,0,0,0,1,0,,,,,,,,,,,,,,,,,,,,
77803,1629360992971,,,247,248,242,232,,-0.32,0.33,2.04,36,-0,1,0.46,,80,4707,4,26,64,0.928,16.9,433,4.82,13.2,42.7,1,30.9,2.93,6.2,0,0,0,1,0,,,,,,,,,,,,,,,,,,,,
77823,1629360992991,,,247,249,242,232,,-0.25,0.32,2.01,35,-2,-0,0.41,,80,4749,4,26,64,0.928,16.8,430,4.87,13.2,42.7,1,31.5,2.95,6.2,0,0,0,1,0,,,,,,,,,,,,,,,,,,,,
77843,1629360993005,5,3,247,248,243,232,61,-0.23,0.29,1.86,35,-1,0,0.37,1,80,4774,4,26,64,0.928,16.5,434,4.88,13.5,42.7,1,31.9,2.91,6.2,0,0,0,1,0,164,30720,-1,141,49.329624,8.566924,15.03,104.6,11,2,1.4,0,0.0,-1,0.0,0.0,0.0,0,0.16,1.2974
77863,1629360993025,,,247,248,243,232,,-0.25,0.28,1.71,35,1,2,0.38,,80,4783,4,26,65,0.928,16.6,435,4.87,13.5,42.7,1,32.3,2.91,6.2,0,0,0,1,0,,,,,,,,,,,,,,,,,,,,
77883,1629360993045,,,247,248,243,232,,-0.3,0.3,1.74,35,1,3,0.42,,80,4754,4,26,65,0.927,16.7,434,4.87,13.5,42.7,1,31.9,2.95,6.2,0,0,0,1,0,,,,,,,,,,,,,,,,,,,,
77903,1629360993065,,,247,249,242,232,,-0.32,0.3,1.91,34,0,1,0.44,,80,4784,4,26,65,0.925,16.4,433,4.87,13.2,46.4,1,32.9,2.97,6.5,0,0,0,1,0,,,,,,,,,,,,,,,,,,,,
77923,1629360993093,,,247,247,242,232,,-0.26,0.31,1.96,34,-1,-0,0.4,,80,4837,4,26,64,0.925,16.3,441,4.87,13.3,46.4,1,32.7,2.93,6.5,0,0,0,1,0,,,,,,,,,,,,,,,,,,,,
77943,1629360993113,4,3,247,248,242,232,61,-0.23,0.27,1.81,34,-0,1,0.35,1,80,4837,4,26,65,0.925,16.3,442,4.89,13.5,46.4,1,33.0,2.93,6.5,0,0,0,1,0,159,-1494,-1,137,49.329624,8.566929,14.35,104.8,11,2,1.4,0,0.0,-1,0.0,,0.0,0,0.16,1.299
77963,1629360993133,,,247,248,242,232,,-0.25,0.25,1.67,34,2,3,0.36,,80,4775,4,26,65,0.924,15.9,441,4.87,13.5,46.4,1,32.2,2.91,6.5,0,0,0,1,0,,,,,,,,,,,,,,,,,,,,
77983,1629360993153,,,246,248,242,233,,-0.29,0.27,1.8,34,1,3,0.4,,80,4803,4,26,65,0.923,16.0,442,4.87,13.5,46.4,1,32.6,2.97,6.5,0,0,0,1,0,,,,,,,,,,,,,,,,,,,,
78003,1629360993173,,,246,248,241,233,,-0.29,0.3,1.97,33,-1,1,0.41,,80,4836,4,26,65,0.922,15.9,439,4.84,13.2,49.6,1,33.0,2.98,6.7,0,0,0,1,0,,,,,,,,,,,,,,,,,,,,
78023,1629360993193,,,246,250,240,233,,-0.22,0.29,1.85,33,-2,-0,0.36,,80,4843,4,26,64,0.922,15.8,450,4.9,13.4,49.6,1,32.8,2.94,6.7,0,0,0,1,0,,,,,,,,,,,,,,,,,,,,
78043,1629360993213,4,3,246,251,239,233,62,-0.23,0.23,1.71,33,-1,2,0.33,1,80,4858,4,26,65,0.921,15.7,446,4.87,13.5,49.6,1,33.3,2.99,6.7,0,0,0,1,0,154,-1,-1,131,49.32962,8.566934,14.21,104.8,11,2,1.4,0,0.0,-1,0.0,0.0,0.0,0,0.16,1.3007
78063,1629360993233,,,246,251,239,233,,-0.3,0.24,1.62,33,0,3,0.38,,80,4848,4,26,65,0.921,15.5,445,4.84,13.5,49.6,1,33.2,2.99,6.7,0,0,0,1,0,,,,,,,,,,,,,,,,,,,,
78083,1629360993253,,,245,252,238,233,,-0.3,0.28,1.8,33,-1,1,0.41,,80,4881,4,26,65,0.921,15.5,451,4.8,13.1,49.6,1,33.6,3.0,6.7,0,0,0,1,0,,,,,,,,,,,,,,,,,,,,
78103,1629360993273,,,245,253,238,234,,-0.24,0.28,1.77,33,-3,0,0.37,,80,4860,4,26,64,0.922,14.9,455,4.89,13.4,51.5,1,33.0,2.94,6.6,0,0,0,1,0,,,,,,,,,,,,,,,,,,,,
78123,1629360993293,,,245,253,238,234,,-0.21,0.22,1.63,33,-1,1,0.31,,80,4820,4,26,65,0.922,15.4,448,4.9,13.5,51.5,1,32.8,2.98,6.6,0,0,0,1,0,,,,,,,,,,,,,,,,,,,,
78143,1629360993313,4,2,245,254,238,234,61,-0.26,0.22,1.5,32,-0,3,0.34,1,80,4821,4,26,65,0.922,15.1,448,4.85,13.4,51.5,1,32.8,2.98,6.6,0,0,0,1,0,147,-1281,11264,126,49.32962,8.566939,13.65,104.9,11,2,1.4,0,0.0,-1,0.0,,0.0,0,0.16,1.3024
78163,1629360993333,,,245,255,238,235,,-0.31,0.24,1.7,32,-0,2,0.39,,80,4844,4,26,65,0.922,15.0,441,4.83,13.2,51.5,1,33.2,2.99,6.6,0,0,0,1,0,,,,,,,,,,,,,,,,,,,,
78183,1629360993353,,,245,255,238,235,,-0.26,0.26,1.87,32,-2,0,0.37,,80,4846,4,26,65,0.923,14.8,445,4.86,13.3,51.5,1,33.1,2.99,6.6,0,0,0,1,0,,,,,,,,,,,,,,,,,,,,
78203,1629360993373,,,245,255,238,235,,-0.22,0.23,1.73,32,-1,1,0.32,,80,4831,4,26,65,0.925,14.9,447,4.92,13.4,54.0,1,32.9,2.98,6.7,0,0,0,1,0,,,,,,,,,,,,,,,,,,,,
78223,1629360993393,,,245,255,238,236,,-0.23,0.21,1.59,32,1,2,0.31,,80,4831,4,26,65,0.925,14.9,441,4.88,13.5,54.0,1,32.9,2.98,6.7,0,0,0,1,0,,,,,,,,,,,,,,,,,,,,
78243,1629360993413,4,3,245,255,238,236,60,-0.28,0.22,1.78,32,0,1,0.36,1,80,4889,4,26,65,0.925,14.6,447,4.84,13.3,54.0,1,33.7,3.0,6.7,0,0,0,1,0,142,-1,250,122,49.32962,8.566945,13.55,104.8,11,2,1.4,0,0.0,-1,0.0,0.0,0.0,0,0.16,1.304
78263,1629360993433,,,244,255,237,236,,-0.26,0.24,1.95,31,-2,-1,0.35,,80,4908,4,26,65,0.926,14.5,448,4.81,13.2,54.0,1,33.9,3.01,6.7,0,0,0,1,0,,,,,,,,,,,,,,,,,,,,
78283,1629360993453,,,244,255,237,236,,-0.2,0.21,1.8,31,-0,-0,0.29,,80,4893,4,26,65,0.928,14.3,445,4.84,13.5,54.0,1,33.7,3.01,6.7,0,0,0,1,0,,,,,,,,,,,,,,,,,,,,
78303,1629360993473,,,245,255,237,236,,-0.23,0.19,1.66,31,1,2,0.3,,80,4905,4,26,65,0.928,14.3,454,4.86,13.4,56.6,1,33.9,3.01,6.8,0,0,0,1,0,,,,,,,,,,,,,,,,,,,,
78323,1629360993493,,,245,255,237,236,,-0.27,0.22,1.84,31,-1,0,0.35,,80,4957,4,26,65,0.927,14.3,453,4.78,13.2,56.6,1,34.6,3.03,6.8,0,0,0,1,0,,,,,,,,,,,,,,,,,,,,
78343,1629360993513,4,2,245,255,236,236,57,-0.19,0.19,1.83,30,-2,-1,0.27,1,80,4978,4,26,64,0.928,14.1,454,4.9,13.4,56.6,1,34.6,2.99,6.8,0,0,0,1,0,138,5120,8192,118,49.32962,8.56695,13.23,104.8,11,2,1.4,0,0.0,-1,0.0,,0.0,0,0.16,1.3057
78363,1629360993533,,,245,255,236,236,,-0.22,0.18,1.68,30,1,2,0.28,,80,4984,4,26,64,0.929,14.0,461,4.86,13.5,56.6,1,34.6,2.99,6.8,0,0,0,1,0,,,,,,,,,,,,,,,,,,,,
78383,1629360993553,,,244,255,237,236,,-0.26,0.2,1.86,30,1,1,0.33,,80,4968,4,26,64,0.928,13.6,455,4.81,13.2,56.6,1,34.9,3.04,6.8,0,0,0,1,0,,,,,,,,,,,,,,,,,,,,
78403,1629360993573,,,245,253,237,236,,-0.18,0.18,1.9,29,-1,-1,0.25,,80,5049,4,26,64,0.928,13.6,462,4.9,13.4,59.4,1,34.9,2.99,6.9,0,0,0,1,0,,,,,,,,,,,,,,,,,,,,
78423,1629360993593,,,245,253,238,236,,-0.23,0.16,1.75,29,2,2,0.28,,80,5092,4,26,64,0.928,13.4,472,4.83,13.4,59.4,1,34.9,2.98,6.9,0,0,0,1,0,,,,,,,,,,,,,,,,,,,,
78443,1629360993613,4,3,245,253,238,236,53,-0.22,0.2,1.93,28,-1,-1,0.3,1,80,5092,4,26,64,0.928,13.4,467,4.8,13.2,59.4,1,34.9,2.98,6.9,0,0,0,1,0,132,-1,6656,115,49.32962,8.566956,13.06,104.8,11,2,1.4,0,0.0,-1,0.0,0.0,0.0,0,0.16,1.3074
78463,1629360993633,,,245,251,238,236,,-0.17,0.15,1.78,28,2,1,0.22,,80,5128,4,26,64,0.928,13.2,475,4.91,13.5,59.4,1,34.9,2.97,6.9,0,0,0,1,0,,,,,,,,,,,,,,,,,,,,
78483,1629360993653,,,245,251,238,236,,-0.23,0.15,1.95,28,1,0,0.28,,80,5108,4,26,64,0.927,12.9,478,4.81,13.2,59.4,1,34.9,2.98,6.9,0,0,0,1,0,,,,,,,,,,,,,,,,,,,,
78503,1629360993673,,,246,251,238,235,,-0.14,0.14,1.89,27,-1,-2,0.2,,80,5161,4,26,64,0.928,13.2,485,4.9,13.4,62.5,1,34.9,2.96,7.0,0,0,0,1,0,,,,,,,,,,,,,,,,,,,,
78523,1629360993692,,,246,251,239,236,,-0.21,0.16,2.05,27,3,1,0.26,,80,5159,4,26,64,0.928,12.9,483,4.79,13.5,62.5,1,34.9,2.96,7.0,0,0,0,1,0,,,,,,,,,,,,,,,,,,,,
78543,1629360993712,3,3,246,250,239,235,48,-0.14,0.18,2.2,26,-1,-3,0.23,1,80,5180,4,26,64,0.929,13.0,487,4.81,13.4,62.5,1,34.9,2.95,7.0,0,0,0,1,0,126,-1,13844,110,49.32962,8.56696,12.63,104.8,11,2,1.4,0,0.0,-1,0.0,,0.0,0,0.16,1.309
78563,1629360993732,,,246,250,239,235,,-0.23,0.19,2.22,26,3,1,0.3,,80,5205,4,26,64,0.929,12.6,491,4.87,13.4,62.5,1,34.9,2.94,7.0,0,0,0,1,0,,,,,,,,,,,,,,,,,,,,
78583,1629360993752,,,246,250,239,235,,-0.13,0.16,2.17,25,-2,-3,0.2,,80,5238,4,26,64,0.929,12.7,483,4.82,13.1,62.5,1,34.9,2.94,7.0,0,0,0,1,0,,,,,,,,,,,,,,,,,,,,
78603,1629360993772,,,246,250,239,235,,-0.22,0.17,2.0,25,4,2,0.28,,80,5252,4,26,64,0.929,12.7,498,4.85,13.4,63.9,1,34.9,2.85,7.1,0,0,0,1,0,,,,,,,,,,,,,,,,,,,,
78623,1629360993792,,,246,248,239,235,,-0.1,0.15,2.07,24,-2,-3,0.18,,80,5262,4,26,63,0.929,12.6,486,4.86,13.3,63.9,1,34.6,2.93,7.1,0,0,0,1,0,,,,,,,,,,,,,,,,,,,,
78643,1629360993812,3,3,246,249,239,234,41,-0.2,0.16,1.91,23,3,2,0.26,1,80,5203,4,26,63,0.928,12.3,490,4.86,13.4,63.9,1,34.6,2.87,7.1,0,0,0,1,0,121,-1482,5120,110,49.32962,8.566965,12.12,104.8,11,2,1.4,0,0.0,-1,0.0,0.0,0.0,0,0.16,1.3107
78663,1629360993832,,,246,250,240,234,,-0.1,0.18,2.07,23,-3,-3,0.21,,80,5253,4,26,63,0.928,12.2,497,4.78,13.2,63.9,1,34.6,2.85,7.1,0,0,0,1,0,,,,,,,,,,,,,,,,,,,,
78683,1629360993852,,,246,248,240,234,,-0.19,0.19,1.91,22,2,2,0.27,,80,5195,4,26,63,0.926,12.1,494,4.93,13.5,63.9,1,34.6,2.87,7.1,0,0,0,1,0,,,,,,,,,,,,,,,,,,,,
78703,1629360993872,,,246,250,240,234,,-0.11,0.19,2.07,22,-3,-2,0.22,,80,5178,4,26,63,0.926,12.1,487,4.76,13.2,63.8,1,34.6,2.88,6.9,0,0,0,1,0,,,,,,,,,,,,,,,,,,,,
78723,1629360993892,,,246,249,239,234,,-0.16,0.18,1.91,21,-1,1,0.24,,80,5165,4,26,63,0.925,11.9,490,4.91,13.5,63.8,1,34.6,2.89,6.9,0,0,0,1,0,,,,,,,,,,,,,,,,,,,,
78743,1629360993912,3,2,246,249,240,234,35,-0.16,0.2,2.07,20,-1,-0,0.26,1,80,5108,4,26,63,0.923,11.8,482,4.78,13.2,63.8,1,34.6,2.9,6.9,0,0,0,1,0,117,8192,13838,107,49.32962,8.566968,10.91,105.0,11,2,1.4,0,0.0,-1,0.0,,0.0,0,0.16,1.3124
78763,1629360993932,,,246,250,239,234,,-0.12,0.15,1.92,20,-2,-1,0.19,,80,5075,4,26,63,0.922,11.7,472,4.87,13.4,63.8,1,34.6,2.93,6.9,0,0,0,1,0,,,,,,,,,,,,,,,,,,,,
78783,1629360993952,,,246,249,239,234,,-0.2,0.13,1.97,19,1,2,0.24,,80,5066,4,26,64,0.919,11.5,473,4.86,13.4,63.8,1,34.9,2.93,6.9,0,0,0,1,0,,,,,,,,,,,,,,,,,,,,
78803,1629360993972,,,246,249,239,234,,-0.13,0.13,2.13,19,-3,-2,0.19,,80,5090,4,26,63,0.917,11.5,486,4.82,13.2,64.1,1,34.6,2.92,6.8,0,0,0,1,0,,,,,,,,,,,,,,,,,,,,
78823,1629360993992,,,246,250,239,234,,-0.17,0.1,1.96,18,-1,1,0.2,,80,5081,4,26,63,0.916,11.3,470,4.92,13.5,64.1,1,34.6,2.92,6.8,0,0,0,1,0,,,,,,,,,,,,,,,,,,,,
78843,1629360994006,4,3,246,250,239,235,30,-0.19,0.14,2.12,18,-1,0,0.23,1,80,5104,4,26,63,0.915,11.3,474,4.81,13.2,64.1,1,34.6,2.91,6.8,0,0,0,1,0,112,6656,13832,104,49.32962,8.566973,11.23,105.0,11,2,1.4,0,0.0,-1,0.0,0.0,0.0,0,0.16,1.314
78863,1629360994026,,,246,250,239,234,,-0.15,0.1,1.96,17,-3,-1,0.18,,80,5111,4,26,63,0.914,11.1,483,4.86,13.4,64.1,1,34.6,2.91,6.8,0,0,0,1,0,,,,,,,,,,,,,,,,,,,,
78883,1629360994046,,,246,250,238,235,,-0.23,0.11,1.92,17,0,2,0.25,,80,5099,4,26,63,0.914,11.0,471,4.85,13.4,64.1,1,34.6,2.91,6.8,0,0,0,1,0,,,,,,,,,,,,,,,,,,,,
78903,1629360994066,,,246,251,238,235,,-0.15,0.1,2.08,16,-4,-1,0.19,,80,5103,4,26,63,0.914,10.9,473,4.8,13.2,69.0,1,34.6,2.93,6.9,0,0,0,1,0,,,,,,,,,,,,,,,,,,,,
78923,1629360994092,,,246,251,238,235,,-0.17,0.09,1.92,16,-3,0,0.2,,80,5037,4,26,63,0.917,10.6,488,4.88,13.5,69.0,1,34.6,2.94,6.9,0,0,0,1,0,,,,,,,,,,,,,,,,,,,,
78943,1629360994112,4,2,246,251,237,235,29,-0.22,0.13,2.08,15,-1,1,0.25,1,80,5092,4,26,63,0.916,10.8,469,4.85,13.4,69.0,1,34.6,2.92,6.9,0,0,0,1,0,107,250,13736,98,49.32962,8.566978,11.11,104.9,11,2,1.4,0,0.0,-1,0.0,,0.0,0,0.16,1.3157
78963,1629360994132,,,246,252,237,235,,-0.14,0.1,1.97,15,-4,-1,0.17,,80,5020,4,26,63,0.917,10.7,467,4.86,13.3,69.0,1,34.6,2.94,6.9,0,0,0,1,0,,,,,,,,,,,,,,,,,,,,
78983,1629360994152,,,246,252,237,235,,-0.2,0.07,1.82,15,-1,2,0.21,,80,5102,4,26,63,0.917,10.5,473,4.9,13.5,69.0,1,34.6,2.91,6.9,0,0,0,1,0,,,,,,,,,,,,,,,,,,,,
79003,1629360994172,,,246,252,237,235,,-0.18,0.12,1.98,14,-3,-1,0.22,,80,5107,4,26,63,0.917,10.5,466,4.83,13.2,71.5,1,34.6,2.91,6.8,0,0,0,1,0,,,,,,,,,,,,,,,,,,,,
79023,1629360994192,,,246,252,237,235,,-0.13,0.09,1.83,14,-3,-1,0.16,,80,5057,4,26,63,0.917,10.3,470,4.86,13.3,71.5,1,34.6,2.93,6.8,0,0,0,1,0,,,,,,,,,,,,,,,,,,,,
79043,1629360994212,4,1,246,252,237,235,29,-0.21,0.08,2.0,14,-0,2,0.23,1,80,5062,4,26,63,0.916,10.3,475,4.84,13.4,71.5,1,34.6,2.93,6.8,0,0,0,1,0,102,-1482,14312,93,49.32962,8.566981,10.66,104.9,11,2,1.4,0,0.0,-1,0.0,0.0,0.0,0,0.16,1.3174
79063,1629360994232,,,246,252,237,235,,-0.14,0.09,2.15,13,-4,-2,0.17,,80,5093,4,26,63,0.917,10.3,471,4.81,13.3,71.5,1,34.6,2.92,6.8,0,0,0,1,0,,,,,,,,,,,,,,,,,,,,
79083,1629360994252,,,246,252,237,235,,-0.17,0.07,1.99,13,-0,1,0.19,,80,5051,4,26,63,0.918,10.2,467,4.9,13.5,71.5,1,34.6,2.93,6.8,0,0,0,1,0,,,,,,,,,,,,,,,,,,,,
79103,1629360994272,,,245,252,237,235,,-0.2,0.13,2.14,13,-1,1,0.24,,80,5034,4,26,63,0.917,10.2,467,4.81,13.2,73.9,1,34.6,2.94,6.8,0,0,0,1,0,,,,,,,,,,,,,,,,,,,,
79123,1629360994292,,,245,251,237,235,,-0.15,0.09,1.97,13,-3,-1,0.17,,80,5033,4,26,63,0.918,9.9,466,4.86,13.4,73.9,1,34.6,2.94,6.8,0,0,0,1,0,,,,,,,,,,,,,,,,,,,,
79143,1629360994312,4,2,245,252,237,235,28,-0.19,0.1,1.82,12,1,2,0.21,1,80,5057,4,26,63,0.916,9.8,470,4.91,13.5,73.9,1,34.6,2.93,6.8,0,0,0,1,0,97,13736,14298,90,49.32962,8.566986,9.98,104.7,11,2,1.4,0,0.0,-1,0.0,,0.0,0,0.16,1.3191
79163,1629360994332,,,245,252,237,235,,-0.18,0.12,1.99,12,-1,-0,0.22,,80,5047,4,26,63,0.914,9.7,468,4.85,13.4,73.9,1,34.6,2.93,6.8,0,0,0,1,0,,,,,,,,,,,,,,,,,,,,
79183,1629360994352,,,245,252,237,235,,-0.15,0.08,1.84,12,-2,-1,0.17,,80,5016,4,26,63,0.913,9.7,473,4.9,13.4,73.9,1,34.6,2.94,6.8,0,0,0,1,0,,,,,,,,,,,,,,,,,,,,
79203,1629360994372,,,245,252,237,235,,-0.21,0.08,1.7,12,1,2,0.22,,80,5016,4,26,63,0.911,9.6,463,4.88,13.5,78.1,1,34.6,2.94,6.8,0,0,0,1,0,,,,,,,,,,,,,,,,,,,,
79223,1629360994394,,,245,253,237,235,,-0.19,0.1,1.87,12,-1,0,0.21,,80,4970,4,26,63,0.911,9.6,461,4.82,13.2,78.1,1,34.1,2.93,6.8,0,0,0,1,0,,,,,,,,,,,,,,,,,,,,
79243,1629360994414,3,3,245,253,236,236,29,-0.14,0.07,1.73,12,-2,-1,0.16,1,80,5028,4,26,63,0.912,9.5,458,4.86,13.4,78.1,1,34.6,2.94,6.8,0,0,0,1,0,93,-1481,14284,86,49.32962,8.566989,8.9,104.7,11,2,1.4,0,0.0,-1,0.0,0.0,0.0,0,0.16,1.3207
79263,1629360994434,,,245,253,236,236,,-0.2,0.07,1.59,11,2,2,0.21,,80,5013,4,26,64,0.913,9.4,470,4.83,13.4,78.1,1,34.9,2.95,6.8,0,0,0,1,0,,,,,,,,,,,,,,,,,,,,
79283,1629360994454,,,245,253,236,236,,-0.2,0.09,1.78,11,-0,0,0.22,,80,4953,4,26,63,0.913,9.2,465,4.83,13.3,78.1,1,33.9,2.98,6.8,0,0,0,1,0,,,,,,,,,,,,,,,,,,,,
79303,1629360994474,,,245,253,236,236,,-0.14,0.08,1.64,11,-3,-2,0.16,,80,4948,4,26,63,0.914,9.1,457,4.82,13.4,79.5,1,33.9,2.93,6.6,0,0,0,1,0,,,,,,,,,,,,,,,,,,,,
79323,1629360994492,,,245,253,236,235,,-0.16,0.05,1.52,11,0,1,0.17,,80,4936,4,26,64,0.915,9.1,461,4.93,13.5,79.5,1,34.0,2.97,6.6,0,0,0,1,0,,,,,,,,,,,,,,,,,,,,
79343,1629360994512,3,2,245,253,236,236,28,-0.21,0.09,1.71,11,1,1,0.23,1,80,4919,4,26,64,0.915,8.9,455,4.85,13.3,79.5,1,33.8,2.97,6.6,0,0,0,1,0,88,-9728,14270,82,49.32962,8.566993,8.8,104.7,11,2,1.4,0,0.0,-1,0.0,,0.0,0,0.16,1.3224
79363,1629360994532,,,245,253,236,236,,-0.18,0.09,1.88,11,-2,-1,0.2,,80,4936,4,26,64,0.915,8.9,450,4.81,13.2,79.5,1,34.0,2.97,6.6,0,0,0,1,0,,,,,,,,,,,,,,,,,,,,
79383,1629360994552,,,245,253,236,236,,-0.13,0.05,1.74,10,-1,-1,0.15,,80,4912,4,26,64,0.917,8.7,455,4.84,13.5,79.5,1,33.7,2.96,6.6,0,0,0,1,0,,,,,,,,,,,,,,,,,,,,
79403,1629360994572,,,245,253,237,235,,-0.19,0.05,1.6,10,1,1,0.19,,80,4899,4,26,64,0.917,8.6,455,4.83,13.4,83.5,1,33.5,2.96,6.6,0,0,0,1,0,,,,,,,,,,,,,,,,,,,,
79423,1629360994592,,,245,253,237,235,,-0.22,0.08,1.79,10,1,0,0.23,,80,4879,4,26,64,0.917,8.6,447,4.81,13.2,83.5,1,33.3,2.95,6.6,0,0,0,1,0,,,,,,,,,,,,,,,,,,,,
79443,1629360994612,3,3,245,253,237,235,28,-0.17,0.08,1.89,10,-1,-2,0.18,1,80,4879,4,26,64,0.919,8.5,448,4.85,13.3,83.5,1,33.3,2.95,6.6,0,0,0,1,0,85,-13312,14256,77,49.32962,8.566995,7.44,104.7,11,2,1.4,0,0.0,-1,0.0,0.0,0.0,0,0.16,1.324
79463,1629360994632,,,245,252,237,235,,-0.14,0.04,1.74,10,-1,-1,0.15,,80,4857,4,26,64,0.918,8.1,444,4.88,13.4,83.5,1,33.0,2.94,6.6,0,0,0,1,0,,,,,,,,,,,,,,,,,,,,
79483,1629360994652,,,245,252,237,235,,-0.17,0.04,1.61,10,1,0,0.18,,79,4803,4,26,64,0.918,8.1,445,4.86,13.5,83.5,1,32.3,2.92,6.6,0,0,0,1,0,,,,,,,,,,,,,,,,,,,,
79503,1629360994672,,,245,251,237,235,,-0.22,0.04,1.72,10,2,1,0.23,,80,4749,4,26,64,0.916,8.2,442,4.86,13.5,82.8,1,31.5,2.9,6.3,0,0,0,1,0,,,,,,,,,,,,,,,,,,,,
79523,1629360994691,,,245,250,238,235,,-0.25,0.07,1.89,9,1,-0,0.26,,80,4770,4,26,64,0.914,8.1,434,4.82,13.2,82.8,1,31.8,2.91,6.3,0,0,0,1,0,,,,,,,,,,,,,,,,,,,,
79543,1629360994711,2,3,246,250,238,235,28,-0.2,0.07,2.0,9,-1,-2,0.21,1,80,4810,4,26,64,0.913,7.9,440,4.85,13.3,82.8,1,32.3,2.92,6.3,0,0,0,1,0,80,-1481,14242,74,49.32962,8.566997,7.72,104.7,11,2,1.4,0,0.0,-1,0.0,,0.0,0,0.16,1.3257
79563,1629360994731,,,246,249,238,235,,-0.16,0.03,1.84,9,-1,-2,0.17,,80,4832,4,26,64,0.914,7.9,445,4.86,13.5,82.8,1,32.6,2.93,6.3,0,0,0,1,0,,,,,,,,,,,,,,,,,,,,
79583,1629360994751,,,246,252,238,235,,-0.16,0.02,1.7,9,0,-0,0.16,,79,4737,4,26,64,0.912,7.9,439,4.85,13.4,82.8,1,31.3,2.89,6.3,0,0,0,1,0,,,,,,,,,,,,,,,,,,,,
79603,1629360994771,,,246,252,238,235,,-0.2,0.02,1.6,9,1,1,0.2,,79,4726,4,26,64,0.911,7.7,437,4.86,13.4,88.7,1,31.2,2.89,6.3,0,0,0,1,0,,,,,,,,,,,,,,,,,,,,
79623,1629360994791,,,246,251,238,235,,-0.25,0.02,1.7,9,2,1,0.25,,79,4665,4,26,64,0.911,7.7,427,4.82,13.3,88.7,1,30.4,2.86,6.3,0,0,0,1,0,,,,,,,,,,,,,,,,,,,,
79643,1629360994811,2,3,246,252,238,235,28,-0.26,0.06,1.88,9,1,0,0.26,1,80,4746,4,26,64,0.912,7.7,432,4.81,13.2,88.7,1,31.5,2.9,6.3,0,0,0,1,0,77,-20480,14228,70,49.32962,8.566998,7.73,104.6,11,2,1.4,0,0.0,-1,0.0,0.0,0.0,0,0.16,1.3274
79663,1629360994831,,,246,252,238,235,,-0.24,0.08,2.02,8,-1,-1,0.25,,80,4718,4,26,64,0.913,7.7,438,4.88,13.2,88.7,1,31.1,2.89,6.3,0,0,0,1,0,,,,,,,,,,,,,,,,,,,,
79683,1629360994851,,,246,252,238,235,,-0.17,0.04,1.86,8,-1,-1,0.18,,80,4712,4,26,64,0.915,7.7,434,4.88,13.4,88.7,1,31.0,2.88,6.3,0,0,0,1,0,,,,,,,,,,,,,,,,,,,,
79703,1629360994871,,,246,250,238,235,,-0.15,0.03,1.72,8,-1,-1,0.15,,80,4672,4,26,64,0.916,7.5,436,4.86,13.5,91.1,1,30.5,2.86,6.2,0,0,0,1,0,,,,,,,,,,,,,,,,,,,,
79723,1629360994893,,,246,252,238,235,,-0.14,0.01,1.59,8,-0,-0,0.14,,79,4650,4,26,64,0.919,7.3,429,4.88,13.5,91.1,1,30.2,2.86,6.2,0,0,0,1,0,,,,,,,,,,,,,,,,,,,,
79743,1629360994913,3,2,246,250,238,235,25,-0.15,-0.01,1.46,8,1,1,0.15,1,79,4685,4,26,64,0.921,7.3,431,4.86,13.5,91.1,1,30.6,2.82,6.2,0,0,0,1,0,72,-24064,250,67,49.32962,8.567001,7.03,104.5,11,2,1.4,0,0.0,-1,0.0,,0.0,0,0.16,1.3291
79763,1629360994933,,,246,250,238,235,,-0.19,0.01,1.35,8,2,2,0.19,,79,4593,4,26,64,0.924,7.2,427,4.87,13.4,91.1,1,29.4,2.83,6.2,0,0,0,1,0,,,,,,,,,,,,,,,,,,,,
79783,1629360994953,,,246,249,238,235,,-0.23,0.02,1.25,8,3,3,0.23,,79,4576,4,26,63,0.927,7.2,416,4.83,13.4,91.1,1,28.9,2.78,6.2,0,0,0,1,0,,,,,,,,,,,,,,,,,,,,
79803,1629360994973,,,246,250,238,235,,-0.28,0.04,1.35,8,4,3,0.28,,79,4618,4,26,63,0.928,7.0,424,4.8,13.5,90.7,1,29.4,2.79,5.9,0,0,0,1,0,,,,,,,,,,,,,,,,,,,,
79823,1629360994993,,,246,250,238,235,,-0.3,0.05,1.55,7,3,2,0.31,,79,4642,4,26,63,0.93,7.0,422,4.89,13.2,90.7,1,29.8,2.8,5.9,0,0,0,1,0,,,,,,,,,,,,,,,,,,,,
79843,1629360995007,4,2,246,250,238,235,21,-0.31,0.07,1.74,7,2,1,0.32,1,80,4703,4,26,63,0.931,7.0,419,4.84,13.3,90.7,1,30.6,2.83,5.9,0,0,0,1,0,68,14228,-6656,64,49.32962,8.567004,6.86,104.4,11,2,1.4,0,0.0,-1,0.0,0.0,0.0,0,0.16,1.3307
79863,1629360995027,,,246,250,238,234,,-0.26,0.07,1.82,7,1,0,0.27,,80,4731,4,26,63,0.932,6.8,426,4.87,13.3,90.7,1,31.0,2.84,5.9,0,0,0,1,0,,,,,,,,,,,,,,,,,,,,
79883,1629360995047,,,246,249,239,235,,-0.21,0.06,1.68,7,1,0,0.22,,79,4748,4,26,63,0.932,6.8,428,4.91,13.4,90.7,1,31.2,2.85,5.9,0,0,0,1,0,,,,,,,,,,,,,,,,,,,,
79903,1629360995067,,,246,250,238,235,,-0.2,0.03,1.55,7,2,1,0.2,,79,4689,4,26,63,0.932,6.7,431,4.87,13.4,95.3,1,30.4,2.82,6.1,0,0,0,1,0,,,,,,,,,,,,,,,,,,,,
79923,1629360995087,,,246,250,239,234,,-0.2,0.01,1.43,6,2,1,0.2,,79,4643,4,26,63,0.932,6.5,433,4.9,13.5,95.3,1,29.8,2.8,6.1,0,0,0,1,0,,,,,,,,,,,,,,,,,,,,
79943,1629360995107,4,2,246,250,239,234,15,-0.22,0.01,1.32,6,4,2,0.22,1,79,4620,4,26,63,0.932,6.5,420,4.85,13.4,95.3,1,29.5,2.79,6.1,0,0,0,1,0,65,-6656,-1,61,49.32962,8.567007,6.63,104.3,11,2,1.4,0,0.0,-1,0.0,,0.0,0,0.16,1.3324
79963,1629360995127,,,246,250,239,234,,-0.27,0.02,1.25,6,4,3,0.27,,79,4653,4,26,63,0.931,6.4,425,4.83,13.4,95.3,1,29.9,2.81,6.1,0,0,0,1,0,,,,,,,,,,,,,,,,,,,,
79983,1629360995147,,,246,249,239,234,,-0.3,0.04,1.46,6,4,2,0.3,,79,4674,4,26,63,0.93,6.4,421,4.84,13.4,95.3,1,30.2,2.82,6.1,0,0,0,1,0,,,,,,,,,,,,,,,,,,,,
80003,1629360995167,,,246,249,239,234,,-0.29,0.06,1.66,5,2,1,0.3,,79,4687,4,26,62,0.929,6.2,426,4.86,13.1,101.6,1,30.1,2.82,6.1,0,0,0,1,0,,,,,,,,,,,,,,,,,,,,
80023,1629360995193,,,246,248,239,234,,-0.26,0.09,1.83,5,1,-0,0.28,,79,4712,4,26,62,0.927,6.2,432,4.82,13.3,101.6,1,30.4,2.78,6.1,0,0,0,1,0,,,,,,,,,,,,,,,,,,,,
80043,1629360995213,3,3,247,249,239,234,9,-0.2,0.08,1.69,5,1,-0,0.22,1,79,4727,4,26,63,0.927,6.0,429,4.84,13.4,101.6,1,30.9,2.79,6.1,0,0,0,1,0,61,-1,-1,59,49.32962,8.56701,6.5,104.2,11,2,1.4,0,0.0,-1,0.0,0.0,0.0,0,0.16,1.334
80063,1629360995233,,,246,249,239,234,,-0.18,0.05,1.56,5,1,-0,0.18,,79,4669,4,26,63,0.926,6.0,436,4.85,13.5,101.6,1,30.1,2.81,6.1,0,0,0,1,0,,,,,,,,,,,,,,,,,,,,
80083,1629360995253,,,247,249,239,234,,-0.19,0.01,1.44,4,2,1,0.19,,79,4738,4,26,63,0.927,5.9,431,4.87,13.5,101.6,1,31.1,2.84,6.1,0,0,0,1,0,,,,,,,,,,,,,,,,,,,,
80103,1629360995273,,,246,248,239,234,,-0.22,0.0,1.33,4,3,2,0.22,,79,4680,4,26,63,0.927,5.9,428,4.83,13.4,107.0,1,30.3,2.82,6.1,0,0,0,1,0,,,,,,,,,,,,,,,,,,,,
80123,1629360995293,,,247,248,239,234,,-0.25,0.01,1.42,4,3,2,0.25,,79,4672,4,26,63,0.928,5.7,430,4.82,13.3,107.0,1,30.2,2.81,6.1,0,0,0,1,0,,,,,,,,,,,,,,,,,,,,
80143,1629360995313,5,2,247,248,239,234,1,-0.29,0.01,1.61,4,3,1,0.29,1,79,4647,4,26,63,0.928,5.6,421,4.83,13.2,107.0,1,29.8,2.8,6.1,0,0,0,1,0,55,-1,-1,55,49.32962,8.567011,6.23,104.1,11,2,1.4,0,0.0,-1,0.0,,0.0,0,0.16,1.3357
80163,1629360995333,,,247,248,239,234,,-0.3,0.04,1.8,3,1,0,0.3,,79,4641,4,26,63,0.929,5.5,426,4.85,13.1,107.0,1,29.7,2.81,6.1,0,0,0,1,0,,,,,,,,,,,,,,,,,,,,
80183,1629360995353,,,246,248,239,234,,-0.27,0.06,1.97,3,-1,-1,0.27,,79,4702,4,26,62,0.929,5.4,426,4.83,13.2,107.0,1,30.3,2.78,6.1,0,0,0,1,0,,,,,,,,,,,,,,,,,,,,
80203,1629360995373,,,246,248,239,234,,-0.22,0.06,1.9,3,-1,-2,0.23,,79,4728,4,26,62,0.93,5.3,428,4.83,13.4,113.2,1,30.6,2.79,6.0,0,0,0,1,0,,,,,,,,,,,,,,,,,,,,
80223,1629360995395,,,246,249,239,234,,-0.19,0.03,1.76,2,-0,-1,0.19,,79,4766,4,26,62,0.93,5.3,434,4.86,13.4,113.2,1,31.1,2.81,6.0,0,0,0,1,0,,,,,,,,,,,,,,,,,,,,
80243,1629360995415,6,3,246,249,239,234,-2,-0.2,0.0,1.62,2,1,1,0.2,1,79,4727,4,26,63,0.931,5.1,433,4.88,13.5,113.2,1,30.9,2.79,6.0,0,0,0,1,0,51,-1,-1,51,49.32962,8.567014,5.55,104.1,11,2,1.4,0,0.0,-1,0.0,0.0,0.0,0,0.17,1.3374
80263,1629360995435,,,246,248,239,234,,-0.26,-0.01,1.57,2,2,1,0.26,,79,4716,4,26,63,0.931,5.1,430,4.85,13.4,113.2,1,30.8,2.83,6.0,0,0,0,1,0,,,,,,,,,,,,,,,,,,,,
80283,1629360995455,,,246,248,239,234,,-0.3,0.0,1.71,2,2,1,0.3,,79,4674,4,26,63,0.932,4.8,431,4.82,13.2,113.2,1,29.9,2.82,6.0,0,0,0,1,0,,,,,,,,,,,,,,,,,,,,
80303,1629360995475,,,246,247,239,234,,-0.33,0.03,1.87,2,1,-0,0.33,,79,4678,4,26,63,0.933,4.8,426,4.83,13.3,127.0,1,29.7,2.82,6.1,0,0,0,1,0,,,,,,,,,,,,,,,,,,,,
80323,1629360995495,,,246,248,239,234,,-0.32,0.04,2.04,1,0,-1,0.32,,79,4633,4,26,63,0.934,4.6,426,4.89,13.2,127.0,1,29.6,2.8,6.1,0,0,0,1,0,,,,,,,,,,,,,,,,,,,,
80343,1629360995515,5,4,246,248,239,234,-2,-0.27,0.04,2.17,1,-1,-2,0.28,1,79,4691,4,26,62,0.934,4.6,425,4.81,13.3,127.0,1,30.1,2.82,6.1,0,0,0,1,0,45,-235,-1,45,49.32962,8.567016,5.05,104.0,11,2,1.4,0,0.0,-1,0.0,,0.0,0,0.17,1.3391
80363,1629360995535,,,246,248,239,234,,-0.22,0.03,2.01,1,-2,-2,0.22,,79,4698,4,26,62,0.934,4.5,422,4.83,13.4,127.0,1,30.2,2.78,6.1,0,0,0,1,0,,,,,,,,,,,,,,,,,,,,
80383,1629360995555,,,246,249,239,234,,-0.18,0.01,1.86,1,-2,-2,0.18,,79,4703,4,26,62,0.933,4.3,431,4.86,13.5,127.0,1,30.3,2.78,6.1,0,0,0,1,0,,,,,,,,,,,,,,,,,,,,
80403,1629360995575,,,246,249,239,234,,-0.24,0.02,1.75,1,-0,-0,0.24,,79,4716,4,26,63,0.932,4.2,423,4.85,13.5,145.2,1,30.8,2.78,6.1,0,0,0,1,0,,,,,,,,,,,,,,,,,,,,
80423,1629360995592,,,246,249,239,234,,-0.29,0.02,1.86,1,0,1,0.29,,79,4672,4,26,63,0.931,4.2,428,4.9,13.4,145.2,1,30.2,2.81,6.1,0,0,0,1,0,,,,,,,,,,,,,,,,,,,,
80443,1629360995612,5,3,246,248,239,234,-2,-0.34,0.06,2.02,1,1,1,0.34,1,79,4636,4,26,62,0.931,4.0,426,4.84,13.4,145.2,1,29.4,2.75,6.1,0,0,0,1,0,37,1018,1018,38,49.329624,8.567017,4.34,103.9,11,2,1.4,0,0.0,-1,0.0,0.0,0.0,0,0.17,1.3407
80463,1629360995632,,,246,249,239,234,,-0.33,0.08,2.17,0,1,-0,0.34,,79,4707,4,26,62,0.932,3.8,424,4.83,13.2,145.2,1,30.3,2.79,6.1,0,0,0,1,0,,,,,,,,,,,,,,,,,,,,
80483,1629360995652,,,246,249,239,234,,-0.29,0.1,2.2,0,-0,-1,0.31,,79,4645,4,26,62,0.933,3.8,427,4.86,13.2,145.2,1,29.5,2.76,6.1,0,0,0,1,0,,,,,,,,,,,,,,,,,,,,
80503,1629360995672,,,246,249,239,234,,-0.23,0.08,2.03,0,-1,-2,0.24,,79,4721,4,26,62,0.933,3.6,425,4.85,13.1,157.8,1,30.5,2.79,6.0,0,0,0,1,0,,,,,,,,,,,,,,,,,,,,
80523,1629360995692,,,246,249,239,234,,-0.2,0.06,1.87,0,-2,-2,0.2,,79,4660,4,26,62,0.934,3.6,433,4.86,13.3,157.8,1,29.7,2.76,6.0,0,0,0,1,0,,,,,,,,,,,,,,,,,,,,
80543,1629360995712,5,1,246,249,239,234,-3,-0.21,0.02,1.73,0,-1,-1,0.21,1,79,4742,4,26,63,0.932,3.5,428,4.85,13.5,157.8,1,31.1,2.8,6.0,0,0,0,1,0,33,-1,-1,35,49.329624,8.567018,3.81,103.9,11,2,1.4,0,0.0,-1,0.0,,0.0,0,0.17,1.3424
80563,1629360995732,,,246,249,239,234,,-0.24,0.02,1.71,0,-0,0,0.24,,79,4733,4,26,63,0.93,3.5,432,4.88,13.5,157.8,1,31.0,2.84,6.0,0,0,0,1,0,,,,,,,,,,,,,,,,,,,,
80583,1629360995752,,,246,249,239,234,,-0.3,0.05,1.87,0,1,1,0.3,,79,4685,4,26,63,0.929,3.2,434,4.86,13.5,157.8,1,30.3,2.82,6.0,0,0,0,1,0,,,,,,,,,,,,,,,,,,,,
80603,1629360995772,,,246,248,239,234,,-0.31,0.07,2.04,-0,1,0,0.32,,79,4683,4,26,63,0.927,3.2,430,4.81,13.4,203.3,1,30.3,2.82,6.1,0,0,0,1,0,,,,,,,,,,,,,,,,,,,,
80623,1629360995792,,,246,249,239,234,,-0.29,0.08,2.19,-0,-0,-1,0.3,,79,4680,4,26,63,0.927,3.0,423,4.82,13.2,203.3,1,30.5,2.82,6.1,0,0,0,1,0,,,,,,,,,,,,,,,,,,,,
80643,1629360995812,4,4,246,249,239,234,-3,-0.23,0.07,2.08,-0,-1,-2,0.24,1,79,4752,4,26,63,0.926,3.0,429,4.86,13.3,203.3,1,31.3,2.85,6.1,0,0,0,1,0,29,-235,-1,30,49.329624,8.567019,3.01,103.9,11,2,1.4,0,0.0,-1,0.0,0.0,0.0,0,0.17,1.344
80663,1629360995832,,,246,249,239,234,,-0.19,0.03,1.92,-0,-2,-2,0.19,,79,4736,4,26,62,0.926,3.0,430,4.86,13.4,203.3,1,30.7,2.79,6.1,0,0,0,1,0,,,,,,,,,,,,,,,,,,,,
80683,1629360995852,,,246,249,239,234,,-0.2,0.01,1.77,-0,-0,-1,0.2,,79,4774,4,26,63,0.925,2.7,432,4.87,13.5,203.3,1,31.6,2.81,6.1,0,0,0,1,0,,,,,,,,,,,,,,,,,,,,
80703,1629360995872,,,246,249,239,234,,-0.26,0.0,1.75,-0,1,1,0.26,,79,4742,4,26,63,0.923,2.7,440,4.85,13.4,248.0,1,31.1,2.8,6.2,0,0,0,1,0,,,,,,,,,,,,,,,,,,,,
80723,1629360995894,,,246,248,239,234,,-0.3,0.04,1.92,-0,1,1,0.3,,79,4727,4,26,63,0.92,2.5,428,4.83,13.4,248.0,1,30.9,2.84,6.2,0,0,0,1,0,,,,,,,,,,,,,,,,,,,,
80743,1629360995914,5,3,246,249,239,234,-2,-0.3,0.06,2.08,-0,1,0,0.3,1,79,4694,4,26,63,0.917,2.5,432,4.84,13.4,248.0,1,30.5,2.82,6.2,0,0,0,1,0,25,-1281,-1281,25,49.329624,8.567021,2.77,103.8,11,2,1.4,0,0.0,-1,0.0,,0.0,0,0.17,1.3457
80763,1629360995934,,,246,248,239,234,,-0.26,0.06,2.18,-0,-1,-1,0.27,,79,4734,4,26,62,0.916,2.5,427,4.86,13.2,248.0,1,30.7,2.79,6.2,0,0,0,1,0,,,,,,,,,,,,,,,,,,,,
80783,1629360995954,,,246,249,239,234,,-0.2,0.03,2.02,-0,-1,-1,0.2,,79,4734,4,26,63,0.915,2.3,428,4.86,13.2,248.0,1,31.0,2.84,6.2,0,0,0,1,0,,,,,,,,,,,,,,,,,,,,
80803,1629360995974,,,246,249,239,234,,-0.18,0.01,1.86,-0,-1,-1,0.18,,79,4685,4,26,63,0.915,2.3,436,4.87,13.4,290.4,1,30.3,2.82,6.1,0,0,0,1,0,,,,,,,,,,,,,,,,,,,,
80823,1629360995994,,,246,249,239,234,,-0.2,0.0,1.72,-0,-0,0,0.2,,79,4712,4,26,63,0.914,2.3,425,4.88,13.5,290.4,1,30.7,2.78,6.1,0,0,0,1,0,,,,,,,,,,,,,,,,,,,,
80843,1629360996007,5,3,246,249,239,234,-2,-0.25,0.03,1.71,-0,0,1,0.25,1,79,4748,4,26,63,0.913,2.1,432,4.88,13.5,290.4,1,31.2,2.85,6.1,0,0,0,1,0,19,5414,-1281,21,49.329624,8.567021,2.09,103.9,11,2,1.4,0,0.0,-1,0.0,0.0,0.0,0,0.17,1.3474
80863,1629360996027,,,246,249,239,234,,-0.29,0.05,1.89,-0,1,1,0.29,,79,4756,4,26,63,0.912,2.1,433,4.83,13.3,290.4,1,31.3,2.85,6.1,0,0,0,1,0,,,,,,,,,,,,,,,,,,,,
80883,1629360996047,,,246,249,239,234,,-0.24,0.04,2.05,-0,-1,-1,0.25,,79,4823,4,26,63,0.912,2.1,431,4.79,13.3,290.4,1,32.2,2.88,6.1,0,0,0,1,0,,,,,,,,,,,,,,,,,,,,
80903,1629360996067,,,246,249,239,234,,-0.19,0.01,1.89,-0,-2,-1,0.19,,79,4750,4,26,63,0.913,2.1,441,4.88,13.4,300.0,1,31.2,2.85,6.3,0,0,0,1,0,,,,,,,,,,,,,,,,,,,,
80923,1629360996092,,,246,248,239,234,,-0.17,-0.01,1.75,-0,-1,-1,0.17,,79,4745,4,26,63,0.914,2.1,432,4.82,13.5,300.0,1,31.2,2.85,6.3,0,0,0,1,0,,,,,,,,,,,,,,,,,,,,
80943,1629360996112,5,2,246,249,239,234,-2,-0.2,-0.01,1.61,-0,-0,0,0.2,1,79,4768,4,26,63,0.915,1.8,434,4.85,13.5,300.0,1,31.5,2.86,6.3,0,0,0,1,0,19,5414,9731,13,49.329624,8.567022,0.0,104.0,11,2,1.4,0,0.0,-1,0.0,,0.0,0,0.17,1.3491
80963,1629360996132,,,246,249,239,234,,-0.26,0.01,1.76,-0,1,1,0.26,,79,4754,4,26,64,0.915,1.8,438,4.84,13.5,300.0,1,31.6,2.85,6.3,0,0,0,1,0,,,,,,,,,,,,,,,,,,,,
80983,1629360996152,,,246,248,239,234,,-0.27,0.03,1.93,-0,-0,-0,0.27,,79,4781,4,26,63,0.916,1.8,434,4.85,13.2,300.0,1,31.6,2.86,6.3,0,0,0,1,0,,,,,,,,,,,,,,,,,,,,
81003,1629360996172,,,246,249,239,234,,-0.22,0.04,1.9,-0,-1,-1,0.22,,79,4772,4,26,63,0.917,1.8,433,4.87,13.2,0.0,1,31.5,2.86,6.3,0,0,0,1,0,,,,,,,,,,,,,,,,,,,,
81023,1629360996194,,,246,249,239,234,,-0.17,0.01,1.76,-0,-1,-1,0.17,,79,4805,4,26,63,0.918,1.8,437,4.86,13.3,0.0,1,32.0,2.87,6.3,0,0,0,1,0,,,,,,,,,,,,,,,,,,,,
81043,1629360996214,3,3,246,249,239,234,-2,-0.18,-0.0,1.62,-0,-0,0,0.18,1,79,4790,4,26,63,0.918,1.8,438,4.83,13.5,0.0,1,31.8,2.87,6.3,0,0,0,1,0,11,5414,9731,13,49.329624,8.567022,0.0,104.1,11,2,1.4,0,0.0,-1,0.0,0.0,0.0,0,0.17,1.3507
81063,1629360996234,,,246,249,239,234,,-0.24,0.01,1.73,-0,1,1,0.24,,79,4784,4,26,64,0.918,1.8,443,4.85,13.5,0.0,1,32.0,2.92,6.3,0,0,0,1,0,,,,,,,,,,,,,,,,,,,,
81083,1629360996254,,,246,248,239,234,,-0.27,0.03,1.9,-0,0,0,0.27,,79,4783,4,26,64,0.917,1.8,438,4.83,13.3,0.0,1,32.0,2.91,6.3,0,0,0,1,0,,,,,,,,,,,,,,,,,,,,
81103,1629360996274,,,246,249,239,234,,-0.21,0.04,1.93,-0,-1,-1,0.22,,79,4825,4,26,64,0.918,1.8,433,4.79,13.2,0.0,1,32.6,2.93,6.4,0,0,0,1,0,,,,,,,,,,,,,,,,,,,,
81123,1629360996294,,,246,249,239,234,,-0.16,0.02,1.78,-0,-1,-1,0.16,,79,4826,4,26,63,0.918,1.8,440,4.88,13.4,0.0,1,32.3,2.88,6.4,0,0,0,1,0,,,,,,,,,,,,,,,,,,,,
81143,1629360996314,4,2,247,249,239,234,-2,-0.16,0.01,1.65,-0,-0,1,0.16,1,79,4841,4,26,64,0.919,1.8,443,4.85,13.5,0.0,1,32.8,2.94,6.4,0,0,0,1,0,11,5414,9731,13,49.329624,8.567023,0.0,104.2,11,2,1.4,0,0.0,-1,0.0,,0.0,0,0.17,1.3524
81163,1629360996334,,,247,249,239,234,,-0.21,0.03,1.83,-0,0,1,0.21,,79,4846,4,26,64,0.918,1.8,439,4.86,13.4,0.0,1,32.8,2.94,6.4,0,0,0,1,0,,,,,,,,,,,,,,,,,,,,
81183,1629360996354,,,247,249,239,233,,-0.19,0.04,1.99,-0,-2,-1,0.19,,79,4848,4,26,64,0.918,1.8,441,4.83,13.3,0.0,1,32.9,2.94,6.4,0,0,0,1,0,,,,,,,,,,,,,,,,,,,,
81203,1629360996374,,,247,249,239,234,,-0.12,0.02,1.84,-0,-3,-2,0.12,,79,4843,4,26,64,0.919,1.8,441,4.9,13.4,0.0,1,32.8,2.94,6.5,0,0,0,1,0,,,,,,,,,,,,,,,,,,,,
81223,1629360996394,,,247,249,239,233,,-0.1,0.0,1.7,-0,-1,-0,0.1,,79,4862,4,26,64,0.919,1.8,442,4.89,13.5,0.0,1,33.0,2.94,6.5,0,0,0,1,0,,,,,,,,,,,,,,,,,,,,
81243,1629360996414,5,1,247,249,238,233,-2,-0.14,0.02,1.72,-0,-0,1,0.15,1,79,4857,4,26,64,0.919,1.8,449,4.86,13.5,0.0,1,33.0,2.94,6.5,0,0,0,1,0,11,5414,9731,13,49.329624,8.567023,0.0,104.3,11,2,1.4,0,0.0,-1,0.0,0.0,0.0,0,0.17,1.3541
81263,1629360996434,,,247,249,239,233,,-0.17,0.05,1.89,-0,-1,-1,0.17,,79,4879,4,26,64,0.919,1.8,440,4.88,13.4,0.0,1,33.2,2.95,6.5,0,0,0,1,0,,,,,,,,,,,,,,,,,,,,
81283,1629360996454,,,247,249,239,233,,-0.1,0.03,1.76,-0,-2,-2,0.11,,79,4851,4,26,64,0.923,1.8,445,4.89,13.4,0.0,1,32.9,2.94,6.5,0,0,0,1,0,,,,,,,,,,,,,,,,,,,,
81303,1629360996474,,,247,249,239,233,,-0.08,0.02,1.62,-0,-1,-0,0.08,,79,4865,4,26,64,0.925,1.8,443,4.89,13.5,0.0,1,33.1,2.95,6.5,0,0,0,1,0,,,,,,,,,,,,,,,,,,,,
81323,1629360996494,,,247,249,239,233,,-0.13,0.02,1.63,-0,1,1,0.13,,79,4890,4,26,64,0.927,1.8,439,4.85,13.4,0.0,1,33.4,2.95,6.5,0,0,0,1,0,,,,,,,,,,,,,,,,,,,,
81343,1629360996514,4,3,247,249,239,233,-2,-0.14,0.04,1.82,-0,-1,-1,0.15,1,79,4903,4,26,64,0.929,1.3,451,4.86,13.4,0.0,1,33.6,2.96,6.5,0,0,0,1,0,11,250,9731,13,49.329624,8.567023,0.0,104.4,11,2,1.4,0,0.0,-1,0.0,,0.0,0,0.17,1.3557
81363,1629360996534,,,247,249,239,233,,-0.09,0.02,1.68,-0,-2,-2,0.1,,79,4914,4,26,64,0.931,1.3,450,4.88,13.4,0.0,1,33.7,2.96,6.5,0,0,0,1,0,,,,,,,,,,,,,,,,,,,,
81383,1629360996554,,,247,249,239,233,,-0.1,0.01,1.55,-0,1,1,0.1,,79,4956,4,26,64,0.932,1.3,448,4.92,13.5,0.0,1,34.3,2.98,6.5,0,0,0,1,0,,,,,,,,,,,,,,,,,,,,
81403,1629360996574,,,247,249,239,233,,-0.15,0.02,1.74,-0,0,0,0.15,,79,4962,4,26,64,0.932,1.3,455,4.81,13.3,0.0,1,34.4,1.83,6.8,0,0,0,1,0,,,,,,,,,,,,,,,,,,,,
81423,1629360996594,,,247,248,239,233,,-0.1,0.03,1.91,-0,-3,-2,0.1,,79,4952,4,26,64,0.933,1.3,447,4.81,13.2,0.0,1,34.2,2.98,6.8,0,0,0,1,0,,,,,,,,,,,,,,,,,,,,
81443,1629360996614,3,3,247,248,239,233,-2,-0.09,0.0,1.76,-0,0,-0,0.09,1,79,4989,4,26,64,0.934,0.0,457,4.85,13.5,0.0,1,34.7,2.99,6.8,0,0,0,1,0,11,250,250,0,49.329624,8.567023,0.0,104.4,11,2,1.4,0,0.0,-1,0.0,0.0,0.0,0,0.17,1.3574
81463,1629360996634,,,247,249,239,233,,-0.14,0.01,1.93,-0,1,1,0.14,,79,4993,4,26,64,0.934,0.0,467,4.85,13.4,0.0,1,34.8,1.84,6.8,0,0,0,1,0,,,,,,,,,,,,,,,,,,,,
81483,1629360996654,,,247,249,238,233,,-0.09,0.03,2.09,-0,-3,-2,0.1,,79,5017,4,26,64,0.935,0.0,457,4.78,13.2,0.0,1,34.9,3.0,6.8,0,0,0,1,0,,,,,,,,,,,,,,,,,,,,
81503,1629360996674,,,247,249,239,233,,-0.08,0.02,1.93,-0,1,0,0.08,,79,5028,4,26,63,0.935,0.0,462,4.89,13.5,0.0,1,34.6,2.94,6.9,0,0,0,1,0,,,,,,,,,,,,,,,,,,,,
81523,1629360996693,,,247,249,239,233,,-0.13,0.02,2.09,-0,-0,-1,0.13,,79,5084,4,26,63,0.935,0.0,466,4.85,13.3,0.0,1,34.6,1.77,6.9,0,0,0,1,0,,,,,,,,,,,,,,,,,,,,
81543,1629360996713,5,1,247,248,238,233,-2,-0.06,-0.01,1.93,-0,-2,-3,0.06,1,79,5102,4,26,63,0.936,0.0,466,4.82,13.2,0.0,1,34.6,2.91,6.9,0,0,0,1,0,0,250,250,0,49.329624,8.567023,0.0,104.4,11,2,1.4,0,0.0,-1,0.0,,0.0,0,0.17,1.3591
81563,1629360996733,,,247,249,239,233,,-0.12,-0.01,1.78,-0,3,2,0.12,,79,5075,4,26,63,0.935,0.0,469,4.92,13.5,0.0,1,34.6,2.93,6.9,0,0,0,1,0,,,,,,,,,,,,,,,,,,,,
81583,1629360996753,,,246,249,239,233,,-0.08,0.04,1.95,-0,-2,-2,0.09,,79,5110,4,26,63,0.933,0.0,475,4.81,13.2,0.0,1,34.6,2.91,6.9,0,0,0,1,0,,,,,,,,,,,,,,,,,,,,
81603,1629360996773,,,247,248,238,233,,-0.07,-0.0,1.8,-0,-0,0,0.07,,79,5124,4,26,63,0.933,0.0,477,4.92,13.5,0.0,1,34.6,2.91,6.9,0,0,0,1,0,,,,,,,,,,,,,,,,,,,,
81623,1629360996795,,,247,249,239,233,,-0.12,0.01,1.97,-0,-0,-0,0.12,,79,5139,4,26,63,0.932,0.0,472,4.83,13.2,0.0,1,34.6,1.75,6.9,0,0,0,1,0,,,,,,,,,,,,,,,,,,,,
81643,1629360996815,5,2,247,248,238,233,-2,-0.04,-0.04,1.82,-0,-2,-2,0.06,1,79,5124,4,26,63,0.933,0.0,476,4.83,13.3,0.0,1,34.6,2.91,6.9,0,0,0,1,0,0,250,250,0,49.329624,8.567023,0.0,104.3,11,2,1.4,0,0.0,-1,0.0,0.0,0.0,0,0.17,1.3607
81663,1629360996835,,,247,249,238,233,,-0.11,-0.03,1.68,-0,2,2,0.11,,79,5099,4,26,63,0.932,0.0,471,4.86,13.4,0.0,1,34.6,1.76,6.9,0,0,0,1,0,,,,,,,,,,,,,,,,,,,,
81683,1629360996855,,,247,248,238,233,,-0.05,0.0,1.86,-0,-3,-3,0.06,,79,5134,4,26,62,0.932,0.0,474,4.83,13.2,0.0,1,34.3,2.9,6.9,0,0,0,1,0,,,,,,,,,,,,,,,,,,,,
81703,1629360996875,,,247,249,239,233,,-0.08,-0.02,1.71,-0,2,2,0.08,,79,5128,4,26,63,0.933,0.0,482,4.85,13.5,0.0,1,34.6,2.83,6.8,0,0,0,1,0,,,,,,,,,,,,,,,,,,,,
81723,1629360996893,,,247,249,239,233,,-0.09,0.02,1.89,-0,-2,-1,0.09,,79,5121,4,26,63,0.931,0.0,476,4.84,13.3,0.0,1,34.6,2.91,6.8,0,0,0,1,0,,,,,,,,,,,,,,,,,,,,
81743,1629360996913,4,2,247,248,239,233,-3,-0.06,-0.04,1.74,-0,-1,-0,0.08,1,79,5138,4,26,62,0.933,0.0,480,4.91,13.5,0.0,1,34.3,2.83,6.8,0,0,0,1,0,0,250,250,0,49.329624,8.567024,0.0,104.3,11,2,1.4,0,0.0,-1,0.0,,0.0,0,0.17,1.3624
