"Interval"|"ms"|0|0|1,"Utc"|"ms"|0|0|1,"Brake_F"|"Bar"|0|2000|10,"Brake_R"|"Bar"|0|2000|10,"Height_RF"|"mm"|0|255|50,"Height_LF"|"mm"|0|255|50,"Height_LR"|"mm"|0|80|50,"Height_RR"|"mm"|0|255|50,"Steering"|"deg"|-100|100|10,"AccelX"|"G"|-3.0|3.0|50,"AccelY"|"G"|-3.0|3.0|50,"AccelZ"|"G"|-3.0|3.0|50,"Yaw"|"Deg/Sec"|-120|120|50,"Pitch"|"Deg/Sec"|-120|120|50,"Roll"|"Deg/Sec"|-120|120|50,"Gsum"|"G"|0.0|3.0|50,"Log_Button"|""|0.0|10.0|10,"WaterTemp"|"C"|0|150|50,"RPM"|"tr/min"|0|14000|50,"TPS"|"%"|0|100|50,"AirTemp"|"C"|0|150|50,"MAP"|"KPa"|0|100|50,"Lambda"|""|0.5|1.5|50,"SpeedDTA"|"kph"|0.0|250.0|50,"OilPress"|"KPa"|0|1500|50,"FuelPressur"|"Bar"|0.0|10.0|50,"Batterie"|"V"|0.0|20.0|50,"ConsoKm"|"L/100km"|0.0|200.0|50,"Gear"|""|0|6|50,"AdvIgnition"|"Deg"|-20.0|70.0|50,"Injection"|"ms"|0.0|10.0|50,"ConsoHr"|"L/Hr"|0.0|10000.0|50,"LC_But_Pres"|""|0|1|50,"LC_Active"|""|0|1|50,"TractionOn"|""|0|1|50,"TractionWet"|""|0|1|50,"FanOn"|""|0|1|50,"RD_Speed"|"km/h"|-30|250|10,"RUD_Speed"|"km/h"|-30|250|10,"LD_Speed"|"km/h"|-30|250|10,"LUD_Speed"|"km/h"|-30|250|10,"Latitude"|"Degrees"|-180.0|180.0|10,"Longitude"|"Degrees"|-180.0|180.0|10,"Speed"|"kph"|0.0|150.0|10,"Altitude"|"m"|0.0|4000.0|10,"GPSSats"|""|0|20|10,"GPSQual"|""|0|5|10,"GPSDOP"|""|0.0|20.0|10,"LapCount"|""|0|0|10,"LapTime"|"Min"|0.0|0.0|10,"Sector"|""|0|0|10,"SectorTime"|"Min"|0.0|0.0|10,"PredTime"|"Min"|0.0|0.0|5,"ElapsedTime"|"Min"|0.0|0.0|10,"CurrentLap"|""|0|0|10,"Distance"|"km"|0.0|0.0|10,"SessionTime"|"Min"|0.0|0.0|10
63,0,,,248,246,251,246,,-0.17,-0.05,0.97,0,0,-0,0.17,,0,0,0,0,0,0.0,0.0,0,0.0,0.0,0.0,0,0.0,0.0,0.0,0,0,0,0,0,,,,,,,,,,,,,,,,,,,,
83,0,,,248,246,251,246,,-0.17,-0.05,0.97,0,0,-0,0.17,,0,0,0,0,0,0.0,0.0,0,0.0,0.0,0.0,0,0.0,0.0,0.0,0,0,0,0,0,,,,,,,,,,,,,,,,,,,,
103,0,,,248,246,251,246,,-0.17,-0.05,0.97,0,0,-0,0.17,,0,0,0,0,0,0.0,0.0,0,0.0,0.0,0.0,0,0.0,0.0,0.0,0,0,0,0,0,,,,,,,,,,,,,,,,,,,,
123,0,,,248,246,251,246,,-0.17,-0.05,0.98,-0,0,-0,0.17,,0,0,0,0,0,0.0,0.0,0,0.0,0.0,0.0,0,0.0,0.0,0.0,0,0,0,0,0,,,,,,,,,,,,,,,,,,,,
143,0,1,2,248,247,251,246,-5,-0.17,-0.05,0.98,-0,0,-0,0.17,1,0,0,0,0,0,0.0,0.0,0,0.0,0.0,0.0,0,0.0,0.0,0.0,0,0,0,0,0,0,0,0,0,0.0,0.0,0.0,0.0,0,0,0.0,0,0.0,-1,0.0,,0.0,0,0.0,0.0024
163,0,,,248,246,251,246,,-0.17,-0.05,0.98,-0,0,-0,0.17,,0,0,0,0,0,0.0,0.0,0,0.0,0.0,0.0,0,0.0,0.0,0.0,0,0,0,0,0,,,,,,,,,,,,,,,,,,,,
183,0,,,248,246,251,246,,-0.17,-0.05,0.98,-0,0,-0,0.17,,0,0,0,0,0,0.0,0.0,0,0.0,0.0,0.0,0,0.0,0.0,0.0,0,0,0,0,0,,,,,,,,,,,,,,,,,,,,
203,0,,,248,246,251,246,,-0.17,-0.05,0.98,-0,0,-0,0.17,,0,0,0,0,0,0.0,0.0,0,0.0,0.0,0.0,0,0.0,0.0,0.0,0,0,0,0,0,,,,,,,,,,,,,,,,,,,,
223,0,,,248,247,251,246,,-0.17,-0.05,0.98,-0,0,-0,0.17,,0,0,0,0,0,0.0,0.0,0,0.0,0.0,0.0,0,0.0,0.0,0.0,0,0,0,0,0,,,,,,,,,,,,,,,,,,,,
243,0,1,1,248,248,251,246,-5,-0.17,-0.05,0.98,-0,0,-0,0.17,1,0,0,0,0,0,0.0,0.0,0,0.0,0.0,0.0,0,0.0,0.0,0.0,0,0,0,0,0,0,0,0,0,0.0,0.0,0.0,0.0,0,0,0.0,0,0.0,-1,0.0,0.0,0.0,0,0.0,0.004
263,0,,,248,247,251,246,,-0.17,-0.05,0.98,-0,-0,-0,0.17,,0,0,0,0,0,0.0,0.0,0,0.0,0.0,0.0,0,0.0,0.0,0.0,0,0,0,0,0,,,,,,,,,,,,,,,,,,,,
283,0,,,248,246,251,246,,-0.17,-0.05,0.98,-0,-0,-0,0.17,,0,0,0,0,0,0.0,0.0,0,0.0,0.0,0.0,0,0.0,0.0,0.0,0,0,0,0,0,,,,,,,,,,,,,,,,,,,,
303,0,,,248,247,251,246,,-0.17,-0.05,0.99,-0,-0,-0,0.17,,0,0,0,0,0,0.0,0.0,0,0.0,0.0,0.0,0,0.0,0.0,0.0,0,0,0,0,0,,,,,,,,,,,,,,,,,,,,
323,0,,,248,247,251,246,,-0.17,-0.05,0.99,-0,-0,-0,0.17,,0,0,0,0,0,0.0,0.0,0,0.0,0.0,0.0,0,0.0,0.0,0.0,0,0,0,0,0,,,,,,,,,,,,,,,,,,,,
343,0,1,2,248,247,251,246,-6,-0.17,-0.05,0.99,-0,-0,-0,0.17,1,0,0,0,0,0,0.0,0.0,0,0.0,0.0,0.0,0,0.0,0.0,0.0,0,0,0,0,0,0,0,0,0,0.0,0.0,0.0,0.0,0,0,0.0,0,0.0,-1,0.0,,0.0,0,0.0,0.0057
363,0,,,248,247,251,247,,-0.17,-0.05,0.99,-0,-0,-0,0.17,,0,0,0,0,0,0.0,0.0,0,0.0,0.0,0.0,0,0.0,0.0,0.0,0,0,0,0,0,,,,,,,,,,,,,,,,,,,,
383,0,,,248,247,251,246,,-0.16,-0.05,0.99,-0,-0,-0,0.17,,0,0,0,0,0,0.0,0.0,0,0.0,0.0,0.0,0,0.0,0.0,0.0,0,0,0,0,0,,,,,,,,,,,,,,,,,,,,
403,0,,,248,247,251,246,,-0.16,-0.05,0.99,-0,-0,-0,0.17,,0,0,0,0,0,0.0,0.0,0,0.0,0.0,0.0,0,0.0,0.0,0.0,0,0,0,0,0,,,,,,,,,,,,,,,,,,,,
423,0,,,248,246,251,246,,-0.16,-0.05,0.99,-0,-0,-0,0.17,,0,0,0,0,0,0.0,0.0,0,0.0,0.0,0.0,0,0.0,0.0,0.0,0,0,0,0,0,,,,,,,,,,,,,,,,,,,,
443,0,0,0,248,247,251,246,-6,-0.16,-0.05,0.99,-0,-0,-0,0.17,1,0,0,0,0,0,0.0,0.0,0,0.0,0.0,0.0,0,0.0,0.0,0.0,0,0,0,0,0,0,0,0,0,0.0,0.0,0.0,0.0,0,0,0.0,0,0.0,-1,0.0,0.0,0.0,0,0.0,0.0074
463,0,,,248,247,251,246,,-0.16,-0.05,0.99,-0,-0,-0,0.17,,0,0,0,0,0,0.0,0.0,0,0.0,0.0,0.0,0,0.0,0.0,0.0,0,0,0,0,0,,,,,,,,,,,,,,,,,,,,
483,0,,,248,246,251,246,,-0.16,-0.05,0.99,-0,-0,-0,0.17,,0,0,0,0,0,0.0,0.0,0,0.0,0.0,0.0,0,0.0,0.0,0.0,0,0,0,0,0,,,,,,,,,,,,,,,,,,,,
503,0,,,248,247,251,246,,-0.17,-0.05,0.99,-0,-0,-0,0.17,,0,0,0,0,0,0.0,0.0,0,0.0,0.0,0.0,0,0.0,0.0,0.0,0,0,0,0,0,,,,,,,,,,,,,,,,,,,,
523,0,,,248,247,251,246,,-0.17,-0.05,0.99,-0,-0,-0,0.17,,0,0,0,0,0,0.0,0.0,0,0.0,0.0,0.0,0,0.0,0.0,0.0,0,0,0,0,0,,,,,,,,,,,,,,,,,,,,
543,0,0,2,248,246,251,247,-6,-0.17,-0.05,0.99,-0,-0,-0,0.17,1,0,0,0,0,0,0.0,0.0,0,0.0,0.0,0.0,0,0.0,0.0,0.0,0,0,0,0,0,0,0,0,0,0.0,0.0,0.0,0.0,0,0,0.0,0,0.0,-1,0.0,,0.0,0,0.0,0.0091
563,0,,,248,247,251,246,,-0.17,-0.05,0.99,-0,-0,-0,0.17,,0,0,0,0,0,0.0,0.0,0,0.0,0.0,0.0,0,0.0,0.0,0.0,0,0,0,0,0,,,,,,,,,,,,,,,,,,,,
583,0,,,248,246,251,246,,-0.17,-0.05,0.99,-0,-0,-0,0.17,,0,0,0,0,0,0.0,0.0,0,0.0,0.0,0.0,0,0.0,0.0,0.0,0,0,0,0,0,,,,,,,,,,,,,,,,,,,,
603,0,,,248,247,251,246,,-0.17,-0.05,0.99,-0,-0,-0,0.17,,0,0,0,0,0,0.0,0.0,0,0.0,0.0,0.0,0,0.0,0.0,0.0,0,0,0,0,0,,,,,,,,,,,,,,,,,,,,
623,0,,,248,247,251,246,,-0.16,-0.05,0.99,-0,-0,-0,0.17,,0,0,0,0,0,0.0,0.0,0,0.0,0.0,0.0,0,0.0,0.0,0.0,0,0,0,0,0,,,,,,,,,,,,,,,,,,,,
643,0,-1,2,248,246,251,246,-6,-0.16,-0.05,0.99,-0,-0,-0,0.17,1,0,0,0,0,0,0.0,0.0,0,0.0,0.0,0.0,0,0.0,0.0,0.0,0,0,0,0,0,0,0,0,0,0.0,0.0,0.0,0.0,0,0,0.0,0,0.0,-1,0.0,0.0,0.0,0,0.0,0.0107
663,0,,,248,247,251,246,,-0.16,-0.05,0.99,-0,-0,-0,0.17,,0,0,0,0,0,0.0,0.0,0,0.0,0.0,0.0,0,0.0,0.0,0.0,0,0,0,0,0,,,,,,,,,,,,,,,,,,,,
683,0,,,248,246,251,246,,-0.16,-0.05,0.99,-0,-0,-0,0.17,,0,0,0,0,0,0.0,0.0,0,0.0,0.0,0.0,0,0.0,0.0,0.0,0,0,0,0,0,,,,,,,,,,,,,,,,,,,,
703,0,,,248,248,251,246,,-0.16,-0.05,0.99,-0,-0,-0,0.17,,0,0,0,0,0,0.0,0.0,0,0.0,0.0,0.0,0,0.0,0.0,0.0,0,0,0,0,0,,,,,,,,,,,,,,,,,,,,
723,0,,,248,247,251,246,,-0.16,-0.05,0.99,-0,-0,-0,0.17,,0,0,0,0,0,0.0,0.0,0,0.0,0.0,0.0,0,0.0,0.0,0.0,0,0,0,0,0,,,,,,,,,,,,,,,,,,,,
743,0,0,2,248,247,251,246,-6,-0.16,-0.05,0.99,-0,-0,-0,0.17,1,0,0,0,0,0,0.0,0.0,0,0.0,0.0,0.0,0,0.0,0.0,0.0,0,0,0,0,0,0,0,0,0,0.0,0.0,0.0,0.0,0,0,0.0,0,0.0,-1,0.0,,0.0,0,0.0,0.0124
763,0,,,248,247,251,246,,-0.16,-0.05,0.99,-0,-0,-0,0.17,,0,0,0,0,0,0.0,0.0,0,0.0,0.0,0.0,0,0.0,0.0,0.0,0,0,0,0,0,,,,,,,,,,,,,,,,,,,,
783,0,,,248,247,251,246,,-0.16,-0.05,0.99,-0,-0,-0,0.17,,0,0,0,0,0,0.0,0.0,0,0.0,0.0,0.0,0,0.0,0.0,0.0,0,0,0,0,0,,,,,,,,,,,,,,,,,,,,
803,0,,,248,247,251,246,,-0.16,-0.05,0.99,-0,-0,-0,0.17,,0,0,0,0,0,0.0,0.0,0,0.0,0.0,0.0,0,0.0,0.0,0.0,0,0,0,0,0,,,,,,,,,,,,,,,,,,,,
823,0,,,248,247,251,246,,-0.16,-0.05,0.99,-0,-0,-0,0.17,,0,0,0,0,0,0.0,0.0,0,0.0,0.0,0.0,0,0.0,0.0,0.0,0,0,0,0,0,,,,,,,,,,,,,,,,,,,,
843,0,0,2,248,247,251,246,-6,-0.16,-0.05,0.99,-0,-0,-0,0.17,1,0,0,0,0,0,0.0,0.0,0,0.0,0.0,0.0,0,0.0,0.0,0.0,0,0,0,0,0,0,0,0,0,0.0,0.0,0.0,0.0,0,0,0.0,0,0.0,-1,0.0,0.0,0.0,0,0.0,0.014
863,0,,,248,248,251,246,,-0.16,-0.05,0.99,-0,-0,-0,0.17,,0,0,0,0,0,0.0,0.0,0,0.0,0.0,0.0,0,0.0,0.0,0.0,0,0,0,0,0,,,,,,,,,,,,,,,,,,,,
883,0,,,248,247,251,246,,-0.16,-0.05,0.99,-0,-0,-0,0.17,,0,0,0,0,0,0.0,0.0,0,0.0,0.0,0.0,0,0.0,0.0,0.0,0,0,0,0,0,,,,,,,,,,,,,,,,,,,,
903,0,,,248,247,251,246,,-0.16,-0.05,0.99,-0,-0,-0,0.17,,0,0,0,0,0,0.0,0.0,0,0.0,0.0,0.0,0,0.0,0.0,0.0,0,0,0,0,0,,,,,,,,,,,,,,,,,,,,
923,0,,,248,247,251,246,,-0.16,-0.05,0.99,-0,-0,-0,0.17,,0,0,0,0,0,0.0,0.0,0,0.0,0.0,0.0,0,0.0,0.0,0.0,0,0,0,0,0,,,,,,,,,,,,,,,,,,,,
943,0,0,2,248,247,251,246,-6,-0.16,-0.05,0.99,-0,-0,-0,0.17,1,0,0,0,0,0,0.0,0.0,0,0.0,0.0,0.0,0,0.0,0.0,0.0,0,0,0,0,0,0,0,0,0,0.0,0.0,0.0,0.0,0,0,0.0,0,0.0,-1,0.0,,0.0,0,0.0,0.0157
963,0,,,248,246,251,246,,-0.17,-0.05,0.99,-0,-0,-0,0.17,,0,0,0,0,0,0.0,0.0,0,0.0,0.0,0.0,0,0.0,0.0,0.0,0,0,0,0,0,,,,,,,,,,,,,,,,,,,,
983,0,,,248,246,251,246,,-0.16,-0.05,0.99,-0,-0,-0,0.17,,0,0,0,0,0,0.0,0.0,0,0.0,0.0,0.0,0,0.0,0.0,0.0,0,0,0,0,0,,,,,,,,,,,,,,,,,,,,
1003,0,,,248,246,251,246,,-0.16,-0.05,0.99,-0,-0,-0,0.17,,0,0,0,0,0,0.0,0.0,0,0.0,0.0,0.0,0,0.0,0.0,0.0,0,0,0,0,0,,,,,,,,,,,,,,,,,,,,
1023,0,,,248,246,251,246,,-0.16,-0.05,0.99,-0,-0,-0,0.17,,0,0,0,0,0,0.0,0.0,0,0.0,0.0,0.0,0,0.0,0.0,0.0,0,0,0,0,0,,,,,,,,,,,,,,,,,,,,
1043,0,0,0,248,246,251,246,-6,-0.16,-0.05,0.99,-0,-0,-0,0.17,1,0,0,0,0,0,0.0,0.0,0,0.0,0.0,0.0,0,0.0,0.0,0.0,0,0,0,0,0,0,0,0,0,0.0,0.0,0.0,0.0,0,0,0.0,0,0.0,-1,0.0,0.0,0.0,0,0.0,0.0174
1063,0,,,248,246,251,246,,-0.16,-0.05,0.99,-0,-0,-0,0.17,,0,0,0,0,0,0.0,0.0,0,0.0,0.0,0.0,0,0.0,0.0,0.0,0,0,0,0,0,,,,,,,,,,,,,,,,,,,,
1083,0,,,248,246,251,246,,-0.16,-0.05,0.99,-0,-0,-0,0.17,,0,0,0,0,0,0.0,0.0,0,0.0,0.0,0.0,0,0.0,0.0,0.0,0,0,0,0,0,,,,,,,,,,,,,,,,,,,,
1103,0,,,248,246,251,246,,-0.16,-0.05,0.99,-0,-0,-0,0.17,,0,0,0,0,0,0.0,0.0,0,0.0,0.0,0.0,0,0.0,0.0,0.0,0,0,0,0,0,,,,,,,,,,,,,,,,,,,,
1123,0,,,248,246,251,246,,-0.16,-0.05,0.99,-0,-0,-0,0.17,,0,0,0,0,0,0.0,0.0,0,0.0,0.0,0.0,0,0.0,0.0,0.0,0,0,0,0,0,,,,,,,,,,,,,,,,,,,,
1143,0,0,1,248,246,251,246,-6,-0.16,-0.05,0.99,-0,-0,-0,0.17,1,0,0,0,0,0,0.0,0.0,0,0.0,0.0,0.0,0,0.0,0.0,0.0,0,0,0,0,0,0,0,0,0,0.0,0.0,0.0,0.0,0,0,0.0,0,0.0,-1,0.0,,0.0,0,0.0,0.019
1163,0,,,248,247,251,246,,-0.16,-0.05,0.99,-0,-0,-0,0.17,,0,0,0,0,0,0.0,0.0,0,0.0,0.0,0.0,0,0.0,0.0,0.0,0,0,0,0,0,,,,,,,,,,,,,,,,,,,,
1183,0,,,248,247,251,246,,-0.17,-0.05,0.99,-0,-0,-0,0.17,,0,0,0,0,0,0.0,0.0,0,0.0,0.0,0.0,0,0.0,0.0,0.0,0,0,0,0,0,,,,,,,,,,,,,,,,,,,,
1203,0,,,248,247,251,246,,-0.17,-0.05,0.99,-0,-0,-0,0.17,,0,0,0,0,0,0.0,0.0,0,0.0,0.0,0.0,0,0.0,0.0,0.0,0,0,0,0,0,,,,,,,,,,,,,,,,,,,,
1223,0,,,248,247,251,246,,-0.17,-0.05,0.99,-0,-0,-0,0.17,,0,0,0,0,0,0.0,0.0,0,0.0,0.0,0.0,0,0.0,0.0,0.0,0,0,0,0,0,,,,,,,,,,,,,,,,,,,,
1243,0,-0,2,248,247,251,246,-6,-0.17,-0.05,0.99,-0,-0,-0,0.17,1,0,0,0,0,0,0.0,0.0,0,0.0,0.0,0.0,0,0.0,0.0,0.0,0,0,0,0,0,0,0,0,0,0.0,0.0,0.0,0.0,0,0,0.0,0,0.0,-1,0.0,0.0,0.0,0,0.0,0.0207
1263,0,,,248,247,251,246,,-0.17,-0.05,0.99,-0,-0,-0,0.17,,0,0,0,0,0,0.0,0.0,0,0.0,0.0,0.0,0,0.0,0.0,0.0,0,0,0,0,0,,,,,,,,,,,,,,,,,,,,
1283,0,,,248,247,251,246,,-0.17,-0.05,0.99,-0,-0,-0,0.17,,0,0,0,0,0,0.0,0.0,0,0.0,0.0,0.0,0,0.0,0.0,0.0,0,0,0,0,0,,,,,,,,,,,,,,,,,,,,
1303,0,,,248,247,251,246,,-0.16,-0.05,0.99,-0,-0,-0,0.17,,0,0,0,0,0,0.0,0.0,0,0.0,0.0,0.0,0,0.0,0.0,0.0,0,0,0,0,0,,,,,,,,,,,,,,,,,,,,
1323,0,,,248,247,251,247,,-0.17,-0.05,0.99,-0,-0,-0,0.17,,0,0,0,0,0,0.0,0.0,0,0.0,0.0,0.0,0,0.0,0.0,0.0,0,0,0,0,0,,,,,,,,,,,,,,,,,,,,
1343,0,-1,2,248,247,251,246,-6,-0.17,-0.05,0.99,-0,-0,-0,0.17,1,0,0,0,0,0,0.0,0.0,0,0.0,0.0,0.0,0,0.0,0.0,0.0,0,0,0,0,0,0,0,0,0,0.0,0.0,0.0,0.0,0,0,0.0,0,0.0,-1,0.0,,0.0,0,0.0,0.0224
1363,0,,,248,247,251,246,,-0.17,-0.05,0.99,-0,-0,-0,0.17,,0,0,0,0,0,0.0,0.0,0,0.0,0.0,0.0,0,0.0,0.0,0.0,0,0,0,0,0,,,,,,,,,,,,,,,,,,,,
1383,0,,,248,246,251,246,,-0.17,-0.05,0.99,-0,-0,-0,0.17,,0,0,0,0,0,0.0,0.0,0,0.0,0.0,0.0,0,0.0,0.0,0.0,0,0,0,0,0,,,,,,,,,,,,,,,,,,,,
1403,0,,,248,247,251,246,,-0.17,-0.05,0.99,-0,-0,-0,0.17,,0,0,0,0,0,0.0,0.0,0,0.0,0.0,0.0,0,0.0,0.0,0.0,0,0,0,0,0,,,,,,,,,,,,,,,,,,,,
1423,0,,,248,246,251,246,,-0.16,-0.05,0.99,-0,-0,-0,0.17,,0,0,0,0,0,0.0,0.0,0,0.0,0.0,0.0,0,0.0,0.0,0.0,0,0,0,0,0,,,,,,,,,,,,,,,,,,,,
1443,0,0,1,248,247,251,246,-6,-0.17,-0.05,0.99,-0,0,-0,0.17,1,0,0,0,0,0,0.0,0.0,0,0.0,0.0,0.0,0,0.0,0.0,0.0,0,0,0,0,0,0,0,0,0,0.0,0.0,0.0,0.0,0,0,0.0,0,0.0,-1,0.0,0.0,0.0,0,0.0,0.024
1463,0,,,248,246,251,246,,-0.17,-0.05,0.99,-0,0,-0,0.17,,0,0,0,0,0,0.0,0.0,0,0.0,0.0,0.0,0,0.0,0.0,0.0,0,0,0,0,0,,,,,,,,,,,,,,,,,,,,
1483,0,,,248,246,251,246,,-0.17,-0.05,0.99,-0,0,-0,0.17,,0,0,0,0,0,0.0,0.0,0,0.0,0.0,0.0,0,0.0,0.0,0.0,0,0,0,0,0,,,,,,,,,,,,,,,,,,,,
1503,0,,,248,246,251,246,,-0.17,-0.05,0.99,-0,0,-0,0.17,,0,0,0,0,0,0.0,0.0,0,0.0,0.0,0.0,0,0.0,0.0,0.0,0,0,0,0,0,,,,,,,,,,,,,,,,,,,,
1523,0,,,248,246,251,247,,-0.17,-0.05,0.99,-0,0,-0,0.17,,0,0,0,0,0,0.0,0.0,0,0.0,0.0,0.0,0,0.0,0.0,0.0,0,0,0,0,0,,,,,,,,,,,,,,,,,,,,
1543,0,-0,2,248,246,251,246,-5,-0.17,-0.05,0.99,-0,0,-0,0.17,1,0,0,0,0,0,0.0,0.0,0,0.0,0.0,0.0,0,0.0,0.0,0.0,0,0,0,0,0,0,0,0,0,0.0,0.0,0.0,0.0,0,0,0.0,0,0.0,-1,0.0,,0.0,0,0.0,0.0257
1563,0,,,248,246,251,246,,-0.17,-0.05,0.99,-0,0,-0,0.17,,0,0,0,0,0,0.0,0.0,0,0.0,0.0,0.0,0,0.0,0.0,0.0,0,0,0,0,0,,,,,,,,,,,,,,,,,,,,
1583,0,,,248,246,251,246,,-0.16,-0.05,0.99,-0,0,-0,0.17,,0,0,0,0,0,0.0,0.0,0,0.0,0.0,0.0,0,0.0,0.0,0.0,0,0,0,0,0,,,,,,,,,,,,,,,,,,,,
1603,0,,,248,246,251,246,,-0.16,-0.05,0.99,-0,0,-0,0.17,,0,0,0,0,0,0.0,0.0,0,0.0,0.0,0.0,0,0.0,0.0,0.0,0,0,0,0,0,,,,,,,,,,,,,,,,,,,,
1623,0,,,248,246,251,246,,-0.17,-0.05,0.99,-0,0,-0,0.17,,0,0,0,0,0,0.0,0.0,0,0.0,0.0,0.0,0,0.0,0.0,0.0,0,0,0,0,0,,,,,,,,,,,,,,,,,,,,
1643,0,-0,2,248,246,251,246,-6,-0.17,-0.05,0.99,-0,-0,-0,0.17,1,0,0,0,0,0,0.0,0.0,0,0.0,0.0,0.0,0,0.0,0.0,0.0,0,0,0,0,0,0,0,0,0,0.0,0.0,0.0,0.0,0,0,0.0,0,0.0,-1,0.0,0.0,0.0,0,0.0,0.0274
1663,0,,,248,246,251,246,,-0.17,-0.05,0.99,-0,-0,-0,0.17,,0,0,0,0,0,0.0,0.0,0,0.0,0.0,0.0,0,0.0,0.0,0.0,0,0,0,0,0,,,,,,,,,,,,,,,,,,,,
1683,0,,,248,246,251,246,,-0.17,-0.05,0.99,-0,-0,-0,0.17,,0,0,0,0,0,0.0,0.0,0,0.0,0.0,0.0,0,0.0,0.0,0.0,0,0,0,0,0,,,,,,,,,,,,,,,,,,,,
1703,0,,,248,246,251,246,,-0.17,-0.05,0.99,-0,-0,-0,0.17,,0,0,0,0,0,0.0,0.0,0,0.0,0.0,0.0,0,0.0,0.0,0.0,0,0,0,0,0,,,,,,,,,,,,,,,,,,,,
1723,0,,,248,246,251,246,,-0.17,-0.05,0.99,-0,-0,-0,0.17,,0,0,0,0,0,0.0,0.0,0,0.0,0.0,0.0,0,0.0,0.0,0.0,0,0,0,0,0,,,,,,,,,,,,,,,,,,,,
1743,0,0,2,248,246,251,246,-6,-0.17,-0.05,0.99,-0,-0,-0,0.17,1,0,0,0,0,0,0.0,0.0,0,0.0,0.0,0.0,0,0.0,0.0,0.0,0,0,0,0,0,0,0,0,0,0.0,0.0,0.0,0.0,0,0,0.0,0,0.0,-1,0.0,,0.0,0,0.0,0.029
1763,0,,,248,246,251,246,,-0.17,-0.05,0.99,-0,-0,-0,0.17,,0,0,0,0,0,0.0,0.0,0,0.0,0.0,0.0,0,0.0,0.0,0.0,0,0,0,0,0,,,,,,,,,,,,,,,,,,,,
1783,0,,,248,246,251,246,,-0.17,-0.05,0.99,-0,-0,-0,0.17,,0,0,0,0,0,0.0,0.0,0,0.0,0.0,0.0,0,0.0,0.0,0.0,0,0,0,0,0,,,,,,,,,,,,,,,,,,,,
1803,0,,,248,246,251,246,,-0.17,-0.05,0.99,-0,-0,-0,0.17,,0,0,0,0,0,0.0,0.0,0,0.0,0.0,0.0,0,0.0,0.0,0.0,0,0,0,0,0,,,,,,,,,,,,,,,,,,,,
1823,0,,,248,246,251,246,,-0.17,-0.05,0.99,-0,-0,-0,0.17,,0,0,0,0,0,0.0,0.0,0,0.0,0.0,0.0,0,0.0,0.0,0.0,0,0,0,0,0,,,,,,,,,,,,,,,,,,,,
1843,0,-0,2,248,246,251,246,-6,-0.17,-0.05,0.99,-0,-0,-0,0.17,1,0,0,0,0,0,0.0,0.0,0,0.0,0.0,0.0,0,0.0,0.0,0.0,0,0,0,0,0,0,0,0,0,0.0,0.0,0.0,0.0,0,0,0.0,0,0.0,-1,0.0,0.0,0.0,0,0.0,0.0307
1863,0,,,248,247,251,246,,-0.17,-0.05,0.99,-0,-0,-0,0.17,,0,0,0,0,0,0.0,0.0,0,0.0,0.0,0.0,0,0.0,0.0,0.0,0,0,0,0,0,,,,,,,,,,,,,,,,,,,,
1883,0,,,248,246,251,246,,-0.17,-0.05,0.99,-0,-0,-0,0.17,,0,0,0,0,0,0.0,0.0,0,0.0,0.0,0.0,0,0.0,0.0,0.0,0,0,0,0,0,,,,,,,,,,,,,,,,,,,,
1903,0,,,248,247,251,246,,-0.17,-0.05,0.99,-0,-0,-0,0.17,,0,0,0,0,0,0.0,0.0,0,0.0,0.0,0.0,0,0.0,0.0,0.0,0,0,0,0,0,,,,,,,,,,,,,,,,,,,,
1923,0,,,248,246,251,246,,-0.17,-0.05,0.99,-0,-0,-0,0.17,,0,0,0,0,0,0.0,0.0,0,0.0,0.0,0.0,0,0.0,0.0,0.0,0,0,0,0,0,,,,,,,,,,,,,,,,,,,,
1943,0,1,2,248,247,251,246,-6,-0.17,-0.05,0.99,-0,-0,-0,0.17,1,0,0,0,0,0,0.0,0.0,0,0.0,0.0,0.0,0,0.0,0.0,0.0,0,0,0,0,0,0,0,0,0,0.0,0.0,0.0,0.0,0,0,0.0,0,0.0,-1,0.0,,0.0,0,0.0,0.0324
1963,0,,,248,246,251,246,,-0.17,-0.05,0.99,-0,-0,-0,0.17,,0,0,0,0,0,0.0,0.0,0,0.0,0.0,0.0,0,0.0,0.0,0.0,0,0,0,0,0,,,,,,,,,,,,,,,,,,,,
1983,0,,,248,246,251,246,,-0.17,-0.05,0.99,-0,-0,-0,0.17,,0,0,0,0,0,0.0,0.0,0,0.0,0.0,0.0,0,0.0,0.0,0.0,0,0,0,0,0,,,,,,,,,,,,,,,,,,,,
2003,0,,,248,246,251,247,,-0.17,-0.05,0.99,-0,-0,-0,0.17,,0,0,0,0,0,0.0,0.0,0,0.0,0.0,0.0,0,0.0,0.0,0.0,0,0,0,0,0,,,,,,,,,,,,,,,,,,,,
2023,0,,,248,246,251,246,,-0.17,-0.05,0.99,-0,-0,-0,0.17,,0,0,0,0,0,0.0,0.0,0,0.0,0.0,0.0,0,0.0,0.0,0.0,0,0,0,0,0,,,,,,,,,,,,,,,,,,,,
2043,0,-1,2,248,246,251,246,-5,-0.17,-0.05,0.99,-0,-0,-0,0.17,1,0,0,0,0,0,0.0,0.0,0,0.0,0.0,0.0,0,0.0,0.0,0.0,0,0,0,0,0,0,0,0,0,0.0,0.0,0.0,0.0,0,0,0.0,0,0.0,-1,0.0,0.0,0.0,0,0.0,0.034
2063,0,,,248,246,251,246,,-0.17,-0.05,0.99,-0,-0,-0,0.17,,85,0,6,27,99,0.502,0.0,117,1.17,13.1,0.0,1,0.0,0.0,0.0,0,0,1,1,0,,,,,,,,,,,,,,,,,,,,
2083,0,,,248,246,251,246,,-0.17,-0.05,0.99,-0,-0,-0,0.17,,85,0,6,27,99,0.502,0.0,117,1.16,13.1,0.0,1,0.0,0.0,0.0,0,0,1,1,0,,,,,,,,,,,,,,,,,,,,
2103,0,,,248,246,251,246,,-0.17,-0.05,0.99,-0,-0,-0,0.17,,85,0,6,27,99,0.502,0.0,117,1.16,13.1,0.0,1,0.0,0.0,0.0,0,0,1,1,0,,,,,,,,,,,,,,,,,,,,
2123,0,,,248,246,251,246,,-0.17,-0.05,0.99,-0,-0,-0,0.17,,85,0,6,27,99,0.502,0.0,117,1.16,13.1,0.0,1,0.0,0.0,0.0,0,0,1,1,0,,,,,,,,,,,,,,,,,,,,
2143,0,-1,2,248,246,251,246,-6,-0.17,-0.05,0.99,-0,-0,-0,0.17,1,85,0,6,27,99,0.502,0.0,117,1.16,13.1,0.0,1,0.0,0.0,0.0,0,0,1,1,0,0,250,250,0,0.0,0.0,0.0,0.0,0,0,0.0,0,0.0,-1,0.0,,0.0,0,0.0,0.0357
2163,0,,,248,246,251,246,,-0.17,-0.05,0.99,-0,-0,-0,0.17,,85,0,6,27,99,0.502,0.0,117,1.16,13.1,0.0,1,0.0,0.0,0.0,0,0,1,1,0,,,,,,,,,,,,,,,,,,,,
2183,0,,,248,246,251,246,,-0.17,-0.05,0.99,-0,-0,-0,0.17,,85,0,6,27,99,0.502,0.0,117,1.16,13.1,0.0,1,0.0,0.0,0.0,0,0,1,1,0,,,,,,,,,,,,,,,,,,,,
2203,0,,,248,246,251,246,,-0.17,-0.05,0.99,-0,-0,-0,0.17,,85,0,6,27,99,0.502,0.0,117,1.16,13.1,0.0,1,0.0,0.0,0.0,0,0,1,1,0,,,,,,,,,,,,,,,,,,,,
2223,0,,,248,246,251,246,,-0.17,-0.05,0.99,-0,-0,-0,0.17,,85,0,6,27,99,0.502,0.0,117,1.16,13.1,0.0,1,0.0,0.0,0.0,0,0,1,1,0,,,,,,,,,,,,,,,,,,,,
2243,0,-1,2,248,246,251,246,-6,-0.17,-0.05,0.99,-0,-0,-0,0.17,1,85,0,6,27,99,0.502,0.0,117,1.15,13.1,0.0,1,0.0,0.0,0.0,0,0,1,1,0,0,250,250,0,0.0,0.0,0.0,0.0,0,0,0.0,0,0.0,-1,0.0,0.0,0.0,0,0.0,0.0374
2263,0,,,248,246,251,246,,-0.17,-0.05,0.99,-0,-0,-0,0.17,,85,0,6,27,99,0.502,0.0,117,1.16,13.1,0.0,1,0.0,0.0,0.0,0,0,1,1,0,,,,,,,,,,,,,,,,,,,,
2283,0,,,248,246,251,246,,-0.17,-0.05,0.99,-0,-0,-0,0.17,,85,0,6,27,99,0.502,0.0,117,1.15,13.1,0.0,1,0.0,0.0,0.0,0,0,1,1,0,,,,,,,,,,,,,,,,,,,,
2303,0,,,248,246,251,246,,-0.17,-0.05,0.99,-0,-0,-0,0.17,,85,0,6,27,99,0.502,0.0,117,1.15,13.1,0.0,1,0.0,0.0,0.0,0,0,1,1,0,,,,,,,,,,,,,,,,,,,,
2323,0,,,248,246,251,246,,-0.16,-0.05,0.99,-0,-0,-0,0.17,,85,0,6,27,99,0.502,0.0,117,1.15,13.1,0.0,1,0.0,0.0,0.0,0,0,1,1,0,,,,,,,,,,,,,,,,,,,,
2343,0,-1,2,248,246,251,246,-6,-0.17,-0.05,0.99,-0,-0,-0,0.17,1,85,0,6,27,99,0.502,0.0,117,1.15,13.1,0.0,1,0.0,0.0,0.0,0,0,1,1,0,0,250,250,0,0.0,0.0,0.0,0.0,0,0,0.0,0,0.0,-1,0.0,,0.0,0,0.0,0.0391
2363,0,,,248,247,251,246,,-0.17,-0.05,0.99,-0,-0,-0,0.17,,85,0,6,27,99,0.502,0.0,117,1.15,13.1,0.0,1,0.0,0.0,0.0,0,0,1,1,0,,,,,,,,,,,,,,,,,,,,
2383,0,,,248,247,251,246,,-0.17,-0.05,0.99,-0,-0,-0,0.17,,85,0,6,27,99,0.502,0.0,117,1.15,13.1,0.0,1,0.0,0.0,0.0,0,0,1,1,0,,,,,,,,,,,,,,,,,,,,
2403,0,,,248,246,251,246,,-0.17,-0.05,0.99,-0,-0,-0,0.17,,85,0,6,27,99,0.502,0.0,117,1.15,13.1,0.0,1,0.0,0.0,0.0,0,0,1,1,0,,,,,,,,,,,,,,,,,,,,
2423,0,,,248,246,251,246,,-0.17,-0.05,0.99,-0,-0,-0,0.17,,85,0,6,27,99,0.502,0.0,117,1.15,13.1,0.0,1,0.0,0.0,0.0,0,0,1,1,0,,,,,,,,,,,,,,,,,,,,
2443,0,0,0,248,246,251,246,-6,-0.17,-0.05,0.99,-0,-0,-0,0.17,1,85,0,6,27,99,0.502,0.0,117,1.15,13.1,0.0,1,0.0,0.0,0.0,0,0,1,1,0,0,250,250,0,0.0,0.0,0.0,0.0,0,0,0.0,0,0.0,-1,0.0,0.0,0.0,0,0.0,0.0407
2463,0,,,248,246,251,246,,-0.17,-0.05,0.99,-0,-0,-0,0.17,,85,0,6,27,99,0.502,0.0,117,1.15,13.1,0.0,1,0.0,0.0,0.0,0,0,1,1,0,,,,,,,,,,,,,,,,,,,,
2483,0,,,248,246,251,246,,-0.17,-0.05,0.99,-0,-0,-0,0.17,,85,0,6,27,99,0.502,0.0,117,1.15,13.1,0.0,1,0.0,0.0,0.0,0,0,1,1,0,,,,,,,,,,,,,,,,,,,,
2503,0,,,248,246,251,246,,-0.17,-0.05,0.99,-0,-0,-0,0.17,,85,0,6,27,99,0.502,0.0,117,1.15,13.1,0.0,1,0.0,0.0,0.0,0,0,1,1,0,,,,,,,,,,,,,,,,,,,,
2523,0,,,248,246,251,246,,-0.17,-0.05,0.99,-0,-0,-0,0.17,,85,0,6,27,99,0.502,0.0,117,1.15,13.1,0.0,1,0.0,0.0,0.0,0,0,1,1,0,,,,,,,,,,,,,,,,,,,,
2543,0,0,1,248,246,251,246,-6,-0.17,-0.05,0.99,-0,-0,-0,0.17,1,85,0,6,27,99,0.502,0.0,117,1.14,13.1,0.0,1,0.0,0.0,0.0,0,0,1,1,0,0,250,250,0,0.0,0.0,0.0,0.0,0,0,0.0,0,0.0,-1,0.0,,0.0,0,0.0,0.0424
2563,0,,,248,246,251,246,,-0.17,-0.05,0.99,-0,-0,-0,0.17,,85,0,6,27,99,0.502,0.0,117,1.14,13.1,0.0,1,0.0,0.0,0.0,0,0,1,1,0,,,,,,,,,,,,,,,,,,,,
2583,0,,,248,246,251,246,,-0.17,-0.05,0.99,-0,-0,-0,0.17,,85,0,6,27,99,0.502,0.0,117,1.14,13.1,0.0,1,0.0,0.0,0.0,0,0,1,1,0,,,,,,,,,,,,,,,,,,,,
2603,0,,,248,247,251,246,,-0.17,-0.05,0.99,-0,-0,-0,0.17,,85,0,6,27,99,0.502,0.0,117,1.14,13.1,0.0,1,0.0,0.0,0.0,0,0,1,1,0,,,,,,,,,,,,,,,,,,,,
2623,0,,,248,247,251,246,,-0.17,-0.05,0.99,-0,-0,-0,0.17,,85,0,6,27,99,0.502,0.0,117,1.14,13.1,0.0,1,0.0,0.0,0.0,0,0,1,1,0,,,,,,,,,,,,,,,,,,,,
2643,0,1,0,248,246,251,246,-6,-0.17,-0.05,0.99,-0,-0,-0,0.17,1,85,0,6,27,99,0.502,0.0,117,1.14,13.1,0.0,1,0.0,0.0,0.0,0,0,1,1,0,0,250,250,0,0.0,0.0,0.0,0.0,0,0,0.0,0,0.0,-1,0.0,0.0,0.0,0,0.0,0.044
2663,0,,,248,247,251,246,,-0.17,-0.05,0.99,-0,-0,-0,0.17,,85,0,6,27,99,0.502,0.0,117,1.13,13.1,0.0,1,0.0,0.0,0.0,0,0,1,1,0,,,,,,,,,,,,,,,,,,,,
2683,0,,,248,246,251,246,,-0.17,-0.05,0.99,-0,-0,-0,0.17,,85,0,6,27,99,0.502,0.0,117,1.13,13.1,0.0,1,0.0,0.0,0.0,0,0,1,1,0,,,,,,,,,,,,,,,,,,,,
2703,0,,,248,246,251,246,,-0.17,-0.05,0.99,-0,-0,-0,0.17,,85,0,6,27,99,0.502,0.0,117,1.13,13.1,0.0,1,0.0,0.0,0.0,0,0,1,1,0,,,,,,,,,,,,,,,,,,,,
2723,0,,,248,246,251,246,,-0.17,-0.05,0.99,-0,-0,-0,0.17,,85,0,6,27,99,0.502,0.0,117,1.13,13.1,0.0,1,0.0,0.0,0.0,0,0,1,1,0,,,,,,,,,,,,,,,,,,,,
2743,0,0,2,248,246,251,247,-6,-0.17,-0.05,0.99,-0,-0,-0,0.17,1,85,0,6,27,99,0.502,0.0,117,1.12,13.1,0.0,1,0.0,0.0,0.0,0,0,1,1,0,0,250,250,0,0.0,0.0,0.0,0.0,0,0,0.0,0,0.0,-1,0.0,,0.0,0,0.0,0.0457
2763,0,,,248,246,251,246,,-0.17,-0.05,0.99,-0,-0,-0,0.17,,85,0,6,27,99,0.502,0.0,117,1.12,13.1,0.0,1,0.0,0.0,0.0,0,0,1,1,0,,,,,,,,,,,,,,,,,,,,
2783,0,,,248,246,251,246,,-0.17,-0.05,0.99,-0,-0,-0,0.17,,85,0,6,27,99,0.502,0.0,118,1.13,13.1,0.0,1,0.0,0.0,0.0,0,0,1,1,0,,,,,,,,,,,,,,,,,,,,
2803,0,,,248,247,251,246,,-0.16,-0.05,0.99,-0,-0,-0,0.17,,85,0,6,27,99,0.502,0.0,117,1.12,13.1,0.0,1,0.0,0.0,0.0,0,0,1,1,0,,,,,,,,,,,,,,,,,,,,
2823,0,,,248,248,251,246,,-0.16,-0.05,0.99,-0,-0,-0,0.17,,85,0,6,27,99,0.502,0.0,117,1.12,13.1,0.0,1,0.0,0.0,0.0,0,0,1,1,0,,,,,,,,,,,,,,,,,,,,
2843,0,1,2,248,247,251,246,-6,-0.17,-0.05,0.99,-0,-0,-0,0.17,1,85,0,6,27,99,0.502,0.0,117,1.12,13.1,0.0,1,0.0,0.0,0.0,0,0,1,1,0,0,250,250,0,0.0,0.0,0.0,0.0,0,0,0.0,0,0.0,-1,0.0,0.0,0.0,0,0.0,0.0474
2863,0,,,248,247,251,246,,-0.17,-0.05,0.99,-0,-0,-0,0.17,,85,0,6,27,99,0.502,0.0,117,1.12,13.1,0.0,1,0.0,0.0,0.0,0,0,1,1,0,,,,,,,,,,,,,,,,,,,,
2883,0,,,248,247,251,246,,-0.17,-0.05,0.99,-0,-0,-0,0.17,,85,0,6,27,99,0.502,0.0,117,1.12,13.1,0.0,1,0.0,0.0,0.0,0,0,1,1,0,,,,,,,,,,,,,,,,,,,,
2903,0,,,248,247,251,246,,-0.17,-0.05,0.99,-0,-0,-0,0.17,,85,0,6,27,99,0.502,0.0,117,1.12,13.1,0.0,1,0.0,0.0,0.0,0,0,1,1,0,,,,,,,,,,,,,,,,,,,,
2923,0,,,248,247,251,246,,-0.17,-0.05,0.99,-0,-0,-0,0.17,,85,0,6,27,99,0.502,0.0,117,1.12,13.1,0.0,1,0.0,0.0,0.0,0,0,1,1,0,,,,,,,,,,,,,,,,,,,,
2943,0,1,0,248,247,251,246,-6,-0.17,-0.05,0.99,-0,-0,-0,0.17,1,85,0,6,27,99,0.502,0.0,117,1.12,13.1,0.0,1,0.0,0.0,0.0,0,0,1,1,0,0,250,250,0,0.0,0.0,0.0,0.0,0,0,0.0,0,0.0,-1,0.0,,0.0,0,0.0,0.049
2963,0,,,248,247,251,246,,-0.17,-0.05,0.99,-0,-0,-0,0.17,,85,0,6,27,99,0.502,0.0,117,1.12,13.1,0.0,1,0.0,0.0,0.0,0,0,1,1,0,,,,,,,,,,,,,,,,,,,,
2983,0,,,248,246,251,246,,-0.17,-0.05,0.99,-0,-0,-0,0.17,,85,0,6,27,99,0.502,0.0,117,1.12,13.1,0.0,1,0.0,0.0,0.0,0,0,1,1,0,,,,,,,,,,,,,,,,,,,,
3003,0,,,248,247,251,246,,-0.17,-0.05,0.99,-0,-0,-0,0.17,,85,0,6,27,99,0.502,0.0,117,1.12,13.1,0.0,1,0.0,0.0,0.0,0,0,1,1,0,,,,,,,,,,,,,,,,,,,,
3023,0,,,248,247,251,246,,-0.17,-0.05,0.99,-0,-0,-0,0.17,,85,0,6,27,99,0.502,0.0,117,1.12,13.1,0.0,1,0.0,0.0,0.0,0,0,1,1,0,,,,,,,,,,,,,,,,,,,,
3043,0,-1,1,248,248,251,246,-6,-0.16,-0.05,0.99,-0,-0,-0,0.17,1,85,0,6,27,99,0.502,0.0,117,1.12,13.1,0.0,1,0.0,0.0,0.0,0,0,1,1,0,0,250,250,0,0.0,0.0,0.0,0.0,0,0,0.0,0,0.0,-1,0.0,0.0,0.0,0,0.0,0.0507
3063,0,,,248,248,251,246,,-0.16,-0.05,0.99,-0,-0,-0,0.17,,85,0,6,27,99,0.502,0.0,117,1.12,13.1,0.0,1,0.0,0.0,0.0,0,0,1,0,0,,,,,,,,,,,,,,,,,,,,
3083,0,,,248,249,251,246,,-0.16,-0.05,0.99,-0,-0,-0,0.17,,85,0,6,27,99,0.502,0.0,117,1.12,13.1,0.0,1,0.0,0.0,0.0,0,0,1,0,0,,,,,,,,,,,,,,,,,,,,
3103,0,,,248,247,251,246,,-0.16,-0.05,0.99,-0,0,-0,0.17,,85,0,6,27,99,0.502,0.0,117,1.12,13.1,0.0,1,0.0,0.0,0.0,0,0,1,0,0,,,,,,,,,,,,,,,,,,,,
3123,0,,,248,247,251,246,,-0.16,-0.05,0.99,-0,-0,-0,0.17,,85,0,6,27,99,0.502,0.0,117,1.12,13.1,0.0,1,0.0,0.0,0.0,0,0,1,0,0,,,,,,,,,,,,,,,,,,,,
3143,0,0,2,248,247,251,246,-6,-0.16,-0.05,0.99,-0,-0,-0,0.17,1,85,0,6,27,99,0.502,0.0,117,1.11,13.1,0.0,1,0.0,0.0,0.0,0,0,1,0,0,0,250,250,0,0.0,0.0,0.0,0.0,0,0,0.0,0,0.0,-1,0.0,,0.0,0,0.0,0.0524
3163,0,,,248,247,251,246,,-0.17,-0.05,0.99,-0,0,-0,0.17,,85,0,6,27,99,0.502,0.0,117,1.11,13.1,0.0,1,0.0,0.0,0.0,0,0,1,0,0,,,,,,,,,,,,,,,,,,,,
3183,0,,,248,247,251,246,,-0.17,-0.05,0.99,-0,-0,-0,0.17,,85,0,6,27,99,0.502,0.0,117,1.11,13.1,0.0,1,0.0,0.0,0.0,0,0,1,0,0,,,,,,,,,,,,,,,,,,,,
3203,0,,,248,247,251,246,,-0.17,-0.05,0.99,-0,-0,-0,0.17,,85,0,6,27,99,0.502,0.0,117,1.11,13.1,0.0,1,0.0,0.0,0.0,0,0,1,0,0,,,,,,,,,,,,,,,,,,,,
3223,0,,,248,247,251,246,,-0.17,-0.05,0.99,-0,-0,-0,0.17,,85,0,6,27,99,0.502,0.0,116,1.11,13.1,0.0,1,0.0,0.0,0.0,0,0,1,0,0,,,,,,,,,,,,,,,,,,,,
3243,0,0,2,248,247,251,246,-6,-0.17,-0.05,0.99,-0,-0,-0,0.17,1,85,0,6,27,99,0.502,0.0,116,1.11,13.1,0.0,1,0.0,0.0,0.0,0,0,1,0,0,0,250,250,0,0.0,0.0,0.0,0.0,0,0,0.0,0,0.0,-1,0.0,0.0,0.0,0,0.0,0.054
3263,0,,,248,247,251,246,,-0.17,-0.05,0.99,-0,-0,-0,0.17,,85,0,6,27,99,0.502,0.0,116,1.11,13.1,0.0,1,0.0,0.0,0.0,0,0,1,0,0,,,,,,,,,,,,,,,,,,,,
3283,0,,,248,247,251,246,,-0.16,-0.05,0.99,-0,-0,-0,0.17,,85,0,6,27,99,0.502,0.0,116,1.11,13.1,0.0,1,0.0,0.0,0.0,0,0,1,0,0,,,,,,,,,,,,,,,,,,,,
3303,0,,,248,248,251,246,,-0.16,-0.05,0.99,-0,0,-0,0.17,,85,0,6,27,99,0.502,0.0,116,1.11,13.1,0.0,1,0.0,0.0,0.0,0,0,1,0,0,,,,,,,,,,,,,,,,,,,,
3323,0,,,248,247,251,246,,-0.16,-0.05,0.99,-0,0,-0,0.17,,85,0,6,27,99,0.502,0.0,116,1.11,13.1,0.0,1,0.0,0.0,0.0,0,0,1,0,0,,,,,,,,,,,,,,,,,,,,
3343,0,1,1,248,247,251,246,-6,-0.16,-0.05,0.98,-0,0,-0,0.17,1,85,0,6,27,99,0.502,0.0,116,1.11,13.1,0.0,1,0.0,0.0,0.0,0,0,1,0,0,0,250,250,0,0.0,0.0,0.0,0.0,0,0,0.0,0,0.0,-1,0.0,,0.0,0,0.0,0.0557
3363,0,,,248,247,251,246,,-0.16,-0.05,0.99,-0,0,-0,0.17,,85,0,6,27,99,0.502,0.0,116,1.11,13.1,0.0,1,0.0,0.0,0.0,0,0,1,0,0,,,,,,,,,,,,,,,,,,,,
3383,0,,,248,247,251,246,,-0.17,-0.05,0.99,-0,0,-0,0.17,,85,0,6,27,99,0.502,0.0,116,1.11,13.1,0.0,1,0.0,0.0,0.0,0,0,1,0,0,,,,,,,,,,,,,,,,,,,,
3403,0,,,248,247,251,246,,-0.17,-0.05,0.99,-0,0,-0,0.17,,85,0,6,27,99,0.502,0.0,116,1.11,13.1,0.0,1,0.0,0.0,0.0,0,0,1,0,0,,,,,,,,,,,,,,,,,,,,
3423,0,,,248,247,251,246,,-0.17,-0.05,0.99,-0,-0,-0,0.17,,85,0,6,27,99,0.502,0.0,116,1.1,13.1,0.0,1,0.0,0.0,0.0,0,0,1,0,0,,,,,,,,,,,,,,,,,,,,
3443,0,0,2,248,246,251,246,-6,-0.17,-0.05,0.99,-0,-0,-0,0.17,1,85,0,6,27,99,0.502,0.0,116,1.1,13.1,0.0,1,0.0,0.0,0.0,0,0,1,0,0,0,250,250,0,0.0,0.0,0.0,0.0,0,0,0.0,0,0.0,-1,0.0,0.0,0.0,0,0.0,0.0574
3463,0,,,248,246,251,246,,-0.17,-0.05,0.99,-0,0,-0,0.17,,85,0,6,27,99,0.502,0.0,116,1.1,13.1,0.0,1,0.0,0.0,0.0,0,0,1,0,0,,,,,,,,,,,,,,,,,,,,
3483,0,,,248,248,251,246,,-0.17,-0.05,0.99,-0,0,-0,0.17,,85,0,6,27,99,0.502,0.0,116,1.1,13.1,0.0,1,0.0,0.0,0.0,0,0,1,0,0,,,,,,,,,,,,,,,,,,,,
3503,0,,,248,247,251,246,,-0.16,-0.05,0.99,-0,-0,-0,0.17,,85,0,6,27,99,0.502,0.0,116,1.1,13.1,0.0,1,0.0,0.0,0.0,0,0,1,0,0,,,,,,,,,,,,,,,,,,,,
3523,0,,,248,247,251,246,,-0.16,-0.05,0.99,-0,-0,-0,0.17,,85,0,6,27,99,0.502,0.0,116,1.1,13.1,0.0,1,0.0,0.0,0.0,0,0,1,0,0,,,,,,,,,,,,,,,,,,,,
3543,0,1,2,248,247,251,246,-6,-0.16,-0.05,0.99,-0,-0,-0,0.17,1,85,0,6,27,99,0.502,0.0,116,1.1,13.1,0.0,1,0.0,0.0,0.0,0,0,1,0,0,0,250,250,0,0.0,0.0,0.0,0.0,0,0,0.0,0,0.0,-1,0.0,,0.0,0,0.0,0.059
3563,0,,,248,247,251,246,,-0.16,-0.05,0.99,-0,-0,-0,0.17,,85,0,6,27,99,0.502,0.0,116,1.1,13.1,0.0,1,0.0,0.0,0.0,0,0,1,0,0,,,,,,,,,,,,,,,,,,,,
3583,0,,,248,246,251,246,,-0.16,-0.05,0.99,-0,-0,-0,0.17,,85,0,6,27,99,0.502,0.0,116,1.1,13.1,0.0,1,0.0,0.0,0.0,0,0,1,0,0,,,,,,,,,,,,,,,,,,,,
3603,0,,,248,247,251,246,,-0.17,-0.05,0.99,-0,-0,-0,0.17,,85,0,6,27,99,0.502,0.0,116,1.1,13.1,0.0,1,0.0,0.0,0.0,0,0,1,0,0,,,,,,,,,,,,,,,,,,,,
3623,0,,,248,247,251,246,,-0.17,-0.05,0.99,-0,-0,-0,0.17,,85,0,6,27,99,0.502,0.0,116,1.1,13.1,0.0,1,0.0,0.0,0.0,0,0,1,0,0,,,,,,,,,,,,,,,,,,,,
3643,0,1,2,248,246,251,246,-5,-0.17,-0.05,0.99,-0,-0,-0,0.17,1,85,0,6,27,99,0.502,0.0,116,1.1,13.1,0.0,1,0.0,0.0,0.0,0,0,1,0,0,0,250,250,0,0.0,0.0,0.0,0.0,0,0,0.0,0,0.0,-1,0.0,0.0,0.0,0,0.0,0.0607
3663,0,,,248,246,251,246,,-0.17,-0.05,0.99,-0,-0,-0,0.17,,85,0,6,27,99,0.502,0.0,116,1.1,13.1,0.0,1,0.0,0.0,0.0,0,0,1,0,0,,,,,,,,,,,,,,,,,,,,
3683,0,,,248,246,251,246,,-0.16,-0.05,0.99,-0,-0,-0,0.17,,85,0,6,27,99,0.502,0.0,116,1.1,13.1,0.0,1,0.0,0.0,0.0,0,0,1,0,0,,,,,,,,,,,,,,,,,,,,
3703,0,,,248,247,251,246,,-0.16,-0.05,0.99,-0,-0,-0,0.17,,85,0,7,27,99,0.502,0.0,116,1.1,13.1,0.0,1,0.0,0.0,0.0,0,0,1,0,0,,,,,,,,,,,,,,,,,,,,
3723,0,,,248,247,251,246,,-0.16,-0.05,0.99,-0,-0,-0,0.17,,85,0,7,27,99,0.502,0.0,116,1.1,13.1,0.0,1,0.0,0.0,0.0,0,0,1,0,0,,,,,,,,,,,,,,,,,,,,
3743,0,0,2,248,247,251,246,-6,-0.16,-0.05,0.99,-0,-0,-0,0.17,1,85,0,7,27,99,0.502,0.0,116,1.1,13.1,0.0,1,0.0,0.0,0.0,0,0,1,0,0,0,250,250,0,0.0,0.0,0.0,0.0,0,0,0.0,0,0.0,-1,0.0,,0.0,0,0.0,0.0624
3763,0,,,248,247,251,246,,-0.16,-0.05,0.99,-0,-0,-0,0.17,,85,0,7,27,99,0.502,0.0,116,1.1,13.1,0.0,1,0.0,0.0,0.0,0,0,1,0,0,,,,,,,,,,,,,,,,,,,,
3783,0,,,248,247,251,246,,-0.16,-0.05,0.99,-0,-0,-0,0.17,,85,0,8,27,99,0.502,0.0,116,1.1,13.1,0.0,1,0.0,0.0,0.0,0,0,1,0,0,,,,,,,,,,,,,,,,,,,,
3803,0,,,248,246,251,246,,-0.16,-0.05,0.99,-0,-0,-0,0.17,,85,0,8,27,99,0.502,0.0,116,1.1,13.1,0.0,1,0.0,0.0,0.0,0,0,1,0,0,,,,,,,,,,,,,,,,,,,,
3823,0,,,248,246,251,246,,-0.17,-0.05,0.99,-0,-0,-0,0.17,,85,0,8,27,99,0.502,0.0,116,1.1,13.1,0.0,1,0.0,0.0,0.0,0,0,1,0,0,,,,,,,,,,,,,,,,,,,,
3843,0,-1,2,248,246,251,247,-6,-0.16,-0.05,0.99,-0,-0,-0,0.17,1,85,0,8,27,99,0.502,0.0,116,1.1,13.1,0.0,1,0.0,0.0,0.0,0,0,1,0,0,0,250,250,0,0.0,0.0,0.0,0.0,0,0,0.0,0,0.0,-1,0.0,0.0,0.0,0,0.0,0.064
3863,0,,,248,246,251,246,,-0.16,-0.05,0.99,-0,-0,-0,0.17,,85,0,8,27,99,0.502,0.0,116,1.1,13.1,0.0,1,0.0,0.0,0.0,0,0,1,0,0,,,,,,,,,,,,,,,,,,,,
3883,0,,,248,246,251,246,,-0.17,-0.05,0.99,-0,-0,-0,0.17,,85,0,8,27,99,0.502,0.0,116,1.1,13.1,0.0,1,0.0,0.0,0.0,0,0,1,0,0,,,,,,,,,,,,,,,,,,,,
3903,0,,,248,246,251,246,,-0.17,-0.05,0.99,-0,-0,-0,0.17,,85,0,11,27,99,0.502,0.0,116,1.1,13.1,0.0,1,0.0,0.0,0.0,0,0,1,0,0,,,,,,,,,,,,,,,,,,,,
3923,0,,,248,247,251,246,,-0.17,-0.05,0.99,-0,-0,-0,0.17,,85,0,14,27,99,0.502,0.0,116,1.1,13.1,0.0,1,0.0,0.0,0.0,0,0,1,0,0,,,,,,,,,,,,,,,,,,,,
3943,0,0,1,248,247,251,246,-5,-0.17,-0.05,0.99,-0,-0,-0,0.17,1,85,0,18,27,99,0.502,0.0,116,1.1,13.1,0.0,1,0.0,0.0,0.0,0,0,1,0,0,0,250,250,0,0.0,0.0,0.0,0.0,0,0,0.0,0,0.0,-1,0.0,,0.0,0,0.0,0.0657
3963,0,,,248,247,251,247,,-0.17,-0.05,0.99,-0,-0,-0,0.17,,85,0,24,27,99,0.502,0.0,116,1.1,13.1,0.0,1,0.0,0.0,0.0,0,0,1,0,0,,,,,,,,,,,,,,,,,,,,
3983,0,,,248,246,251,246,,-0.17,-0.05,0.99,-0,-0,-0,0.17,,85,0,29,27,99,0.502,0.0,116,1.1,13.1,0.0,1,0.0,0.0,0.0,0,0,1,0,0,,,,,,,,,,,,,,,,,,,,
4003,0,,,248,247,251,246,,-0.16,-0.05,0.99,-0,-0,-0,0.17,,85,0,33,27,99,0.502,0.0,116,1.1,13.1,0.0,1,0.0,0.0,0.0,0,0,1,0,0,,,,,,,,,,,,,,,,,,,,
4023,0,,,248,246,251,246,,-0.17,-0.05,0.99,-0,-0,-0,0.17,,85,0,38,27,99,0.502,0.0,116,1.1,13.1,0.0,1,0.0,0.0,0.0,0,0,1,0,0,,,,,,,,,,,,,,,,,,,,
4043,0,1,2,248,246,251,246,-6,-0.17,-0.05,0.99,-0,-0,-0,0.17,1,85,0,43,27,99,0.502,0.0,116,1.1,13.1,0.0,1,0.0,0.0,0.0,0,0,1,0,0,0,250,250,0,0.0,0.0,0.0,0.0,0,0,0.0,0,0.0,-1,0.0,0.0,0.0,0,0.0,0.0674
4063,0,,,248,247,251,246,,-0.17,-0.05,0.99,-0,-0,-0,0.17,,85,0,48,27,99,0.502,0.0,116,1.1,13.1,0.0,1,0.0,0.0,0.0,0,0,1,0,0,,,,,,,,,,,,,,,,,,,,
4083,0,,,248,246,251,246,,-0.16,-0.05,0.99,-0,-0,-0,0.17,,85,0,52,27,99,0.502,0.0,116,1.09,13.1,0.0,1,0.0,0.0,0.0,0,0,1,0,0,,,,,,,,,,,,,,,,,,,,
4103,0,,,248,246,251,246,,-0.16,-0.05,0.99,-0,-0,-0,0.17,,85,0,56,27,99,0.502,0.0,116,1.09,13.1,0.0,1,0.0,0.0,0.0,0,0,1,0,0,,,,,,,,,,,,,,,,,,,,
4123,0,,,248,246,251,246,,-0.16,-0.05,0.99,-0,-0,-0,0.17,,85,0,59,27,99,0.502,0.0,116,1.08,13.1,0.0,1,0.0,0.0,0.0,0,0,1,0,0,,,,,,,,,,,,,,,,,,,,
4143,0,1,2,248,247,251,246,-6,-0.17,-0.05,0.99,-0,-0,-0,0.17,1,85,0,62,27,99,0.502,0.0,116,1.08,13.1,0.0,1,0.0,0.0,0.0,0,0,1,0,0,0,250,250,0,0.0,0.0,0.0,0.0,0,0,0.0,0,0.0,-1,0.0,,0.0,0,0.0,0.069
4163,0,,,248,247,251,246,,-0.17,-0.05,0.99,-0,-0,-0,0.17,,85,0,65,27,99,0.502,0.0,116,1.08,13.1,0.0,1,0.0,0.0,0.0,0,0,1,0,0,,,,,,,,,,,,,,,,,,,,
4183,0,,,248,247,251,246,,-0.17,-0.05,0.99,-0,-0,-0,0.17,,85,0,68,27,99,0.502,0.0,116,1.07,13.1,0.0,1,0.0,0.0,0.0,0,0,1,0,0,,,,,,,,,,,,,,,,,,,,
4203,0,,,248,246,251,246,,-0.17,-0.05,0.99,-0,-0,-0,0.17,,85,0,70,27,99,0.502,0.0,116,1.07,13.1,0.0,1,0.0,0.0,0.0,0,0,1,0,0,,,,,,,,,,,,,,,,,,,,
4223,0,,,248,246,251,246,,-0.17,-0.05,0.99,-0,-0,-0,0.17,,85,0,73,27,99,0.502,0.0,117,1.07,13.1,0.0,1,0.0,0.0,0.0,0,0,1,0,0,,,,,,,,,,,,,,,,,,,,
4243,0,-1,2,248,247,251,246,-6,-0.17,-0.05,0.99,-0,-0,-0,0.17,1,85,0,75,27,99,0.502,0.0,117,1.07,13.1,0.0,1,0.0,0.0,0.0,0,0,1,0,0,0,250,250,0,0.0,0.0,0.0,0.0,0,0,0.0,0,0.0,-1,0.0,0.0,0.0,0,0.0,0.0707
4263,0,,,248,246,251,246,,-0.16,-0.05,0.99,-0,-0,-0,0.17,,85,0,76,27,99,0.502,0.0,117,1.07,13.1,0.0,1,0.0,0.0,0.0,0,0,1,0,0,,,,,,,,,,,,,,,,,,,,
4283,0,,,248,246,251,246,,-0.17,-0.05,0.99,-0,-0,-0,0.17,,85,0,78,27,99,0.502,0.0,117,1.07,13.1,0.0,1,0.0,0.0,0.0,0,0,1,0,0,,,,,,,,,,,,,,,,,,,,
4303,0,,,248,246,251,246,,-0.17,-0.05,0.99,-0,-0,-0,0.17,,85,0,80,27,99,0.502,0.0,117,1.07,13.1,0.0,1,0.0,0.0,0.0,0,0,1,0,0,,,,,,,,,,,,,,,,,,,,
4323,0,,,248,247,251,247,,-0.17,-0.05,0.99,-0,-0,-0,0.17,,85,0,82,27,99,0.502,0.0,117,1.07,13.1,0.0,1,0.0,0.0,0.0,0,0,1,0,0,,,,,,,,,,,,,,,,,,,,
4343,0,-1,2,248,247,251,246,-6,-0.17,-0.05,1.0,-0,-0,-0,0.17,1,85,0,84,27,99,0.502,0.0,117,1.07,13.1,0.0,1,0.0,0.0,0.0,0,0,1,0,0,0,250,250,0,0.0,0.0,0.0,0.0,0,0,0.0,0,0.0,-1,0.0,,0.0,0,0.0,0.0724
4363,0,,,248,246,251,246,,-0.17,-0.05,0.99,-0,-0,-0,0.17,,85,0,85,27,99,0.502,0.0,117,1.07,13.1,0.0,1,0.0,0.0,0.0,0,0,1,0,0,,,,,,,,,,,,,,,,,,,,
4383,0,,,248,246,251,246,,-0.17,-0.05,0.99,-0,-0,-0,0.17,,85,0,87,27,99,0.502,0.0,117,1.07,13.1,0.0,1,0.0,0.0,0.0,0,0,1,0,0,,,,,,,,,,,,,,,,,,,,
4403,0,,,248,246,251,246,,-0.17,-0.05,0.99,-0,-0,-0,0.17,,85,0,89,27,99,0.502,0.0,117,1.07,13.1,0.0,1,0.0,0.0,0.0,0,0,1,0,0,,,,,,,,,,,,,,,,,,,,
4423,0,,,248,246,251,246,,-0.17,-0.05,0.99,-0,-0,-0,0.17,,85,0,90,27,99,0.502,0.0,117,1.07,13.1,0.0,1,0.0,0.0,0.0,0,0,1,0,0,,,,,,,,,,,,,,,,,,,,
4443,0,1,1,248,246,251,246,-6,-0.17,-0.05,0.99,-0,-0,-0,0.17,1,85,0,91,27,99,0.502,0.0,117,1.07,13.1,0.0,1,0.0,0.0,0.0,0,0,1,0,0,0,250,250,0,0.0,0.0,0.0,0.0,0,0,0.0,0,0.0,-1,0.0,0.0,0.0,0,0.0,0.074
4463,0,,,248,246,251,246,,-0.17,-0.05,0.99,-0,-0,-0,0.17,,85,0,93,27,99,0.502,0.0,117,1.07,13.1,0.0,1,0.0,0.0,0.0,0,0,1,0,0,,,,,,,,,,,,,,,,,,,,
4483,0,,,248,246,251,246,,-0.17,-0.05,0.99,-0,-0,-0,0.17,,85,0,93,27,99,0.502,0.0,117,1.07,13.1,0.0,1,0.0,0.0,0.0,0,0,1,0,0,,,,,,,,,,,,,,,,,,,,
4503,0,,,248,246,251,246,,-0.17,-0.05,0.99,-0,-0,-0,0.17,,85,0,93,27,99,0.502,0.0,116,1.07,13.1,0.0,1,0.0,0.0,0.0,0,0,1,0,0,,,,,,,,,,,,,,,,,,,,
4523,0,,,248,246,251,246,,-0.17,-0.05,0.99,-0,-0,-0,0.17,,85,0,93,27,99,0.502,0.0,116,1.07,13.1,0.0,1,0.0,0.0,0.0,0,0,1,0,0,,,,,,,,,,,,,,,,,,,,
4543,0,-1,2,248,246,251,246,-5,-0.17,-0.05,0.99,-0,-0,-0,0.17,1,85,0,93,27,99,0.502,0.0,116,1.07,13.1,0.0,1,0.0,0.0,0.0,0,0,1,0,0,0,250,250,0,0.0,0.0,0.0,0.0,0,0,0.0,0,0.0,-1,0.0,,0.0,0,0.0,0.0757
4563,0,,,248,246,251,246,,-0.17,-0.05,0.99,-0,-0,-0,0.17,,85,0,93,27,99,0.502,0.0,116,1.07,13.1,0.0,1,0.0,0.0,0.0,0,0,1,0,0,,,,,,,,,,,,,,,,,,,,
4583,0,,,248,246,251,246,,-0.17,-0.05,0.99,-0,-0,-0,0.17,,85,0,93,27,99,0.502,0.0,116,1.07,13.1,0.0,1,0.0,0.0,0.0,0,0,1,0,0,,,,,,,,,,,,,,,,,,,,
4603,0,,,248,246,251,246,,-0.17,-0.05,0.99,-0,-0,-0,0.17,,85,0,93,27,99,0.502,0.0,116,1.07,13.1,0.0,1,0.0,0.0,0.0,0,0,1,0,0,,,,,,,,,,,,,,,,,,,,
4623,0,,,248,246,251,246,,-0.17,-0.05,0.99,-0,-0,-0,0.17,,85,0,93,27,99,0.502,0.0,116,1.07,13.1,0.0,1,0.0,0.0,0.0,0,0,1,0,0,,,,,,,,,,,,,,,,,,,,
4643,0,1,1,248,246,251,246,-6,-0.17,-0.05,0.99,-0,-0,-0,0.17,1,85,0,93,27,99,0.502,0.0,116,1.07,13.1,0.0,1,0.0,0.0,0.0,0,0,1,0,0,0,250,250,0,0.0,0.0,0.0,0.0,0,0,0.0,0,0.0,-1,0.0,0.0,0.0,0,0.0,0.0774
4663,0,,,248,246,251,246,,-0.17,-0.05,0.99,-0,-0,-0,0.17,,85,0,93,27,99,0.502,0.0,116,1.07,13.1,0.0,1,0.0,0.0,0.0,0,0,1,0,0,,,,,,,,,,,,,,,,,,,,
4683,0,,,248,246,251,246,,-0.17,-0.05,0.99,-0,-0,-0,0.17,,85,0,93,27,99,0.502,0.0,116,1.07,13.1,0.0,1,0.0,0.0,0.0,0,0,1,0,0,,,,,,,,,,,,,,,,,,,,
4703,0,,,248,246,251,246,,-0.17,-0.05,0.99,-0,0,-0,0.17,,85,0,93,27,99,0.502,0.0,116,1.07,13.1,0.0,1,0.0,0.0,0.0,0,0,1,0,0,,,,,,,,,,,,,,,,,,,,
4723,0,,,248,246,251,246,,-0.17,-0.05,0.99,-0,0,-0,0.17,,85,0,93,27,99,0.502,0.0,116,1.07,13.1,0.0,1,0.0,0.0,0.0,0,0,1,0,0,,,,,,,,,,,,,,,,,,,,
4743,0,-1,2,248,246,251,246,-6,-0.17,-0.05,0.99,-0,0,-0,0.17,1,85,0,93,27,99,0.502,0.0,116,1.07,13.1,0.0,1,0.0,0.0,0.0,0,0,1,0,0,0,250,250,0,0.0,0.0,0.0,0.0,0,0,0.0,0,0.0,-1,0.0,,0.0,0,0.0,0.079
4763,0,,,248,246,251,246,,-0.17,-0.05,0.99,-0,0,-0,0.17,,85,0,93,27,99,0.502,0.0,116,1.07,13.1,0.0,1,0.0,0.0,0.0,0,0,1,0,0,,,,,,,,,,,,,,,,,,,,
4783,0,,,248,246,251,246,,-0.17,-0.05,0.99,-0,0,-0,0.17,,85,0,93,27,99,0.502,0.0,116,1.07,13.1,0.0,1,0.0,0.0,0.0,0,0,1,0,0,,,,,,,,,,,,,,,,,,,,
4803,0,,,248,246,251,246,,-0.17,-0.05,0.99,-0,0,-0,0.17,,85,0,93,27,99,0.502,0.0,116,1.06,13.1,0.0,1,0.0,0.0,0.0,0,0,1,0,0,,,,,,,,,,,,,,,,,,,,
4823,0,,,248,246,251,246,,-0.17,-0.05,0.99,-0,0,-0,0.17,,85,0,93,27,99,0.502,0.0,117,1.06,13.1,0.0,1,0.0,0.0,0.0,0,0,1,0,0,,,,,,,,,,,,,,,,,,,,
4843,0,0,0,248,246,251,246,-5,-0.17,-0.05,0.99,-0,0,-0,0.17,1,85,0,93,27,99,0.502,0.0,117,1.07,13.1,0.0,1,0.0,0.0,0.0,0,0,1,0,0,0,250,250,0,0.0,0.0,0.0,0.0,0,0,0.0,0,0.0,-1,0.0,0.0,0.0,0,0.0,0.0807
4863,0,,,248,246,251,246,,-0.17,-0.05,0.99,-0,0,-0,0.17,,85,0,93,27,99,0.502,0.0,117,1.07,13.1,0.0,1,0.0,0.0,0.0,0,0,1,0,0,,,,,,,,,,,,,,,,,,,,
4883,0,,,248,246,251,246,,-0.17,-0.05,0.99,-0,0,-0,0.17,,85,0,93,27,99,0.502,0.0,117,1.07,13.1,0.0,1,0.0,0.0,0.0,0,0,1,0,0,,,,,,,,,,,,,,,,,,,,
4903,0,,,248,246,251,246,,-0.17,-0.05,0.99,-0,0,-0,0.17,,85,0,93,27,99,0.502,0.0,117,1.06,13.1,0.0,1,0.0,0.0,0.0,0,0,1,0,0,,,,,,,,,,,,,,,,,,,,
4923,0,,,248,246,251,246,,-0.17,-0.05,0.99,-0,0,-0,0.17,,85,0,93,27,99,0.502,0.0,117,1.06,13.1,0.0,1,0.0,0.0,0.0,0,0,1,0,0,,,,,,,,,,,,,,,,,,,,
4943,0,0,2,248,246,251,246,-5,-0.17,-0.05,0.99,-0,-0,-0,0.17,1,85,0,93,27,99,0.502,0.0,117,1.06,13.1,0.0,1,0.0,0.0,0.0,0,0,1,0,0,0,250,250,0,0.0,0.0,0.0,0.0,0,0,0.0,0,0.0,-1,0.0,,0.0,0,0.0,0.0824
4963,0,,,248,246,251,246,,-0.17,-0.05,0.99,-0,-0,-0,0.17,,85,0,93,27,99,0.502,0.0,117,1.05,13.1,0.0,1,0.0,0.0,0.0,0,0,1,0,0,,,,,,,,,,,,,,,,,,,,
4983,0,,,248,246,251,246,,-0.17,-0.05,0.99,-0,-0,-0,0.17,,85,0,93,27,99,0.502,0.0,117,1.05,13.1,0.0,1,0.0,0.0,0.0,0,0,1,0,0,,,,,,,,,,,,,,,,,,,,
5003,0,,,248,246,251,246,,-0.17,-0.05,0.99,-0,-0,-0,0.17,,85,0,93,27,99,0.502,0.0,117,1.05,13.1,0.0,1,0.0,0.0,0.0,0,0,1,0,0,,,,,,,,,,,,,,,,,,,,
5023,0,,,248,246,251,246,,-0.17,-0.05,0.99,-0,-0,-0,0.17,,85,0,93,27,99,0.502,0.0,117,1.05,13.1,0.0,1,0.0,0.0,0.0,0,0,1,0,0,,,,,,,,,,,,,,,,,,,,
5043,0,-1,2,248,246,251,246,-6,-0.17,-0.05,0.99,-0,-0,-0,0.17,1,85,0,93,27,99,0.502,0.0,117,1.05,13.1,0.0,1,0.0,0.0,0.0,0,0,1,0,0,0,250,250,0,0.0,0.0,0.0,0.0,0,0,0.0,0,0.0,-1,0.0,0.0,0.0,0,0.0,0.084
5063,0,,,248,246,251,246,,-0.17,-0.05,0.99,-0,-0,-0,0.17,,85,0,93,27,99,0.502,0.0,117,1.05,13.1,0.0,1,0.0,0.0,0.0,0,0,1,0,0,,,,,,,,,,,,,,,,,,,,
5083,0,,,248,246,251,246,,-0.17,-0.05,0.99,-0,-0,-0,0.17,,85,0,93,27,99,0.502,0.0,117,1.05,13.1,0.0,1,0.0,0.0,0.0,0,0,1,0,0,,,,,,,,,,,,,,,,,,,,
5103,0,,,248,246,251,246,,-0.17,-0.05,0.99,-0,-0,-0,0.17,,85,0,93,27,99,0.502,0.0,117,1.05,13.1,0.0,1,0.0,0.0,0.0,0,0,1,0,0,,,,,,,,,,,,,,,,,,,,
5123,0,,,248,246,251,246,,-0.17,-0.05,0.99,-0,-0,-0,0.17,,85,0,93,27,99,0.502,0.0,117,1.05,13.1,0.0,1,0.0,0.0,0.0,0,0,1,0,0,,,,,,,,,,,,,,,,,,,,
5143,0,-1,2,248,246,251,246,-5,-0.17,-0.05,0.99,-0,-0,-0,0.17,1,85,0,93,27,99,0.502,0.0,117,1.05,13.1,0.0,1,0.0,0.0,0.0,0,0,1,0,0,0,250,250,0,0.0,0.0,0.0,0.0,0,0,0.0,0,0.0,-1,0.0,,0.0,0,0.0,0.0857
5163,0,,,248,246,251,246,,-0.17,-0.05,0.99,-0,0,-0,0.17,,85,0,93,27,99,0.502,0.0,117,1.05,13.1,0.0,1,0.0,0.0,0.0,0,0,1,0,0,,,,,,,,,,,,,,,,,,,,
5183,0,,,248,246,251,246,,-0.17,-0.05,0.99,-0,0,-0,0.17,,85,0,93,27,99,0.502,0.0,116,1.05,13.1,0.0,1,0.0,0.0,0.0,0,0,1,0,0,,,,,,,,,,,,,,,,,,,,
5203,0,,,248,246,251,246,,-0.17,-0.05,0.99,-0,-0,-0,0.17,,85,0,93,27,99,0.502,0.0,116,1.05,13.1,0.0,1,0.0,0.0,0.0,0,0,1,0,0,,,,,,,,,,,,,,,,,,,,
5223,0,,,248,246,251,246,,-0.17,-0.05,0.99,-0,-0,-0,0.17,,85,0,93,27,99,0.502,0.0,116,1.05,13.1,0.0,1,0.0,0.0,0.0,0,0,1,0,0,,,,,,,,,,,,,,,,,,,,
5243,0,-1,2,248,246,251,246,-6,-0.17,-0.05,0.99,-0,-0,-0,0.17,1,85,0,93,27,99,0.502,0.0,116,1.05,13.1,0.0,1,0.0,0.0,0.0,0,0,1,0,0,0,250,250,0,0.0,0.0,0.0,0.0,0,0,0.0,0,0.0,-1,0.0,0.0,0.0,0,0.0,0.0874
5263,0,,,248,247,251,246,,-0.17,-0.05,0.99,-0,-0,-0,0.17,,85,0,93,27,99,0.502,0.0,116,1.05,13.1,0.0,1,0.0,0.0,0.0,0,0,1,0,0,,,,,,,,,,,,,,,,,,,,
5283,0,,,248,247,251,246,,-0.17,-0.05,0.99,-0,-0,-0,0.17,,85,0,93,27,99,0.502,0.0,117,1.05,13.1,0.0,1,0.0,0.0,0.0,0,0,1,0,0,,,,,,,,,,,,,,,,,,,,
5303,0,,,248,246,251,246,,-0.17,-0.05,0.99,-0,-0,-0,0.17,,85,0,93,27,99,0.502,0.0,117,1.05,13.1,0.0,1,0.0,0.0,0.0,0,0,1,0,0,,,,,,,,,,,,,,,,,,,,
5323,0,,,248,246,251,246,,-0.17,-0.05,0.99,-0,0,-0,0.17,,85,0,93,27,99,0.502,0.0,117,1.05,13.1,0.0,1,0.0,0.0,0.0,0,0,1,0,0,,,,,,,,,,,,,,,,,,,,
5343,0,0,2,248,247,251,246,-5,-0.17,-0.05,0.99,-0,0,-0,0.17,1,85,0,93,27,99,0.502,0.0,117,1.05,13.1,0.0,1,0.0,0.0,0.0,0,0,1,0,0,0,250,250,0,0.0,0.0,0.0,0.0,0,0,0.0,0,0.0,-1,0.0,,0.0,0,0.0,0.089
5363,0,,,248,246,251,246,,-0.17,-0.05,0.99,-0,-0,-0,0.17,,85,0,93,27,99,0.502,0.0,117,1.05,13.1,0.0,1,0.0,0.0,0.0,0,0,1,0,0,,,,,,,,,,,,,,,,,,,,
5383,0,,,248,246,251,246,,-0.17,-0.05,0.99,-0,-0,-0,0.17,,85,0,93,27,99,0.502,0.0,118,1.05,13.1,0.0,1,0.0,0.0,0.0,0,0,1,0,0,,,,,,,,,,,,,,,,,,,,
5403,0,,,248,246,251,246,,-0.17,-0.05,0.99,-0,-0,-0,0.17,,85,0,93,27,99,0.502,0.0,118,1.05,13.1,0.0,1,0.0,0.0,0.0,0,0,1,0,0,,,,,,,,,,,,,,,,,,,,
5423,0,,,248,246,251,246,,-0.17,-0.05,0.99,-0,-0,-0,0.17,,85,0,93,27,99,0.502,0.0,118,1.05,13.1,0.0,1,0.0,0.0,0.0,0,0,1,0,0,,,,,,,,,,,,,,,,,,,,
5443,0,0,2,248,246,251,246,-6,-0.17,-0.05,0.99,-0,-0,-0,0.17,1,85,0,93,27,99,0.502,0.0,118,1.05,13.1,0.0,1,0.0,0.0,0.0,0,0,1,0,0,0,250,250,0,0.0,0.0,0.0,0.0,0,0,0.0,0,0.0,-1,0.0,0.0,0.0,0,0.0,0.0907
5463,0,,,248,246,251,246,,-0.17,-0.05,0.99,-0,-0,-0,0.17,,85,0,93,27,99,0.502,0.0,118,1.05,13.1,0.0,1,0.0,0.0,0.0,0,0,1,0,0,,,,,,,,,,,,,,,,,,,,
5483,0,,,248,246,251,246,,-0.17,-0.05,0.99,-0,-0,-0,0.17,,85,0,93,27,99,0.502,0.0,118,1.05,13.1,0.0,1,0.0,0.0,0.0,0,0,1,0,0,,,,,,,,,,,,,,,,,,,,
5503,0,,,248,246,251,246,,-0.17,-0.05,0.99,-0,-0,-0,0.17,,85,0,93,27,99,0.502,0.0,118,1.05,13.1,0.0,1,0.0,0.0,0.0,0,0,1,0,0,,,,,,,,,,,,,,,,,,,,
5523,0,,,248,246,251,246,,-0.17,-0.05,0.99,-0,-0,-0,0.17,,85,0,93,27,99,0.502,0.0,118,1.05,13.1,0.0,1,0.0,0.0,0.0,0,0,1,0,0,,,,,,,,,,,,,,,,,,,,
5543,0,0,2,248,246,251,246,-6,-0.17,-0.05,0.99,-0,-0,-0,0.17,1,85,0,93,27,99,0.502,0.0,118,1.05,13.1,0.0,1,0.0,0.0,0.0,0,0,1,0,0,0,250,250,0,0.0,0.0,0.0,0.0,0,0,0.0,0,0.0,-1,0.0,,0.0,0,0.0,0.0924
5563,0,,,248,246,251,246,,-0.17,-0.05,0.99,-0,-0,-0,0.17,,85,0,93,27,99,0.502,0.0,118,1.05,13.1,0.0,1,0.0,0.0,0.0,0,0,1,0,0,,,,,,,,,,,,,,,,,,,,
5583,0,,,248,246,251,246,,-0.17,-0.05,0.99,-0,-0,-0,0.17,,85,0,93,27,99,0.502,0.0,118,1.05,13.1,0.0,1,0.0,0.0,0.0,0,0,1,0,0,,,,,,,,,,,,,,,,,,,,
5603,0,,,248,246,251,246,,-0.17,-0.05,0.99,-0,0,-0,0.17,,85,0,93,27,99,0.502,0.0,118,1.05,13.1,0.0,1,0.0,0.0,0.0,0,0,1,0,0,,,,,,,,,,,,,,,,,,,,
5623,0,,,248,248,251,246,,-0.17,-0.05,0.99,-0,0,-0,0.17,,85,0,93,27,99,0.502,0.0,118,1.05,13.1,0.0,1,0.0,0.0,0.0,0,0,1,0,0,,,,,,,,,,,,,,,,,,,,
5643,0,-0,2,248,247,251,246,-6,-0.17,-0.05,0.99,-0,0,-0,0.17,1,85,0,93,27,99,0.502,0.0,118,1.05,13.1,0.0,1,0.0,0.0,0.0,0,0,1,0,0,0,250,250,0,0.0,0.0,0.0,0.0,0,0,0.0,0,0.0,-1,0.0,0.0,0.0,0,0.0,0.094
5663,0,,,248,247,251,247,,-0.17,-0.05,0.99,-0,0,-0,0.17,,85,0,93,27,99,0.502,0.0,118,1.05,13.1,0.0,1,0.0,0.0,0.0,0,0,1,0,0,,,,,,,,,,,,,,,,,,,,
5683,0,,,248,247,251,246,,-0.17,-0.05,0.99,-0,0,-0,0.17,,85,0,93,27,99,0.502,0.0,118,1.05,13.1,0.0,1,0.0,0.0,0.0,0,0,1,0,0,,,,,,,,,,,,,,,,,,,,
5703,0,,,248,247,251,246,,-0.17,-0.05,0.99,-0,0,-0,0.17,,85,0,93,27,99,0.502,0.0,118,1.05,13.1,0.0,1,0.0,0.0,0.0,0,0,1,0,0,,,,,,,,,,,,,,,,,,,,
5723,0,,,248,246,251,246,,-0.17,-0.05,0.99,-0,0,-0,0.17,,85,0,93,27,99,0.502,0.0,118,1.05,13.1,0.0,1,0.0,0.0,0.0,0,0,1,0,0,,,,,,,,,,,,,,,,,,,,
5743,0,0,2,248,246,251,246,-5,-0.17,-0.05,0.99,-0,0,-0,0.17,1,85,0,93,27,99,0.502,0.0,118,1.05,13.1,0.0,1,0.0,0.0,0.0,0,0,1,0,0,0,250,250,0,0.0,0.0,0.0,0.0,0,0,0.0,0,0.0,-1,0.0,,0.0,0,0.0,0.0957
5763,0,,,248,246,251,246,,-0.17,-0.05,0.99,-0,0,-0,0.17,,85,0,93,27,99,0.502,0.0,118,1.05,13.1,0.0,1,0.0,0.0,0.0,0,0,1,0,0,,,,,,,,,,,,,,,,,,,,
5783,0,,,248,247,251,246,,-0.17,-0.05,0.99,-0,0,-0,0.17,,85,0,93,27,99,0.502,0.0,118,1.05,13.1,0.0,1,0.0,0.0,0.0,0,0,1,0,0,,,,,,,,,,,,,,,,,,,,
5803,0,,,248,246,251,246,,-0.17,-0.05,0.99,-0,0,-0,0.17,,85,0,93,27,99,0.502,0.0,118,1.05,13.1,0.0,1,0.0,0.0,0.0,0,0,1,0,0,,,,,,,,,,,,,,,,,,,,
5823,0,,,248,246,251,246,,-0.17,-0.05,0.99,-0,0,-0,0.17,,85,0,93,27,99,0.502,0.0,117,1.05,13.1,0.0,1,0.0,0.0,0.0,0,0,1,0,0,,,,,,,,,,,,,,,,,,,,
5843,0,1,1,248,246,251,246,-6,-0.17,-0.05,0.99,-0,0,-0,0.17,1,85,0,93,27,99,0.502,0.0,117,1.05,13.1,0.0,1,0.0,0.0,0.0,0,0,1,0,0,0,250,250,0,0.0,0.0,0.0,0.0,0,0,0.0,0,0.0,-1,0.0,0.0,0.0,0,0.0,0.0974
5863,0,,,248,247,251,246,,-0.17,-0.05,0.99,-0,0,-0,0.17,,85,0,93,27,99,0.502,0.0,117,1.05,13.1,0.0,1,0.0,0.0,0.0,0,0,1,0,0,,,,,,,,,,,,,,,,,,,,
5883,0,,,248,247,251,246,,-0.17,-0.05,0.99,-0,0,-0,0.17,,85,0,93,27,99,0.502,0.0,117,1.05,13.1,0.0,1,0.0,0.0,0.0,0,0,1,0,0,,,,,,,,,,,,,,,,,,,,
5903,0,,,248,247,251,246,,-0.17,-0.05,0.99,-0,0,-0,0.17,,85,0,93,27,99,0.502,0.0,117,1.05,13.1,0.0,1,0.0,0.0,0.0,0,0,1,0,0,,,,,,,,,,,,,,,,,,,,
5923,0,,,248,247,251,246,,-0.17,-0.05,0.99,-0,0,-0,0.17,,85,0,93,27,99,0.502,0.0,117,1.05,13.1,0.0,1,0.0,0.0,0.0,0,0,1,0,0,,,,,,,,,,,,,,,,,,,,
5943,0,-1,2,248,247,251,246,-6,-0.17,-0.05,0.99,-0,0,-0,0.17,1,85,0,93,27,99,0.502,0.0,117,1.05,13.1,0.0,1,0.0,0.0,0.0,0,0,1,0,0,0,250,250,0,0.0,0.0,0.0,0.0,0,0,0.0,0,0.0,-1,0.0,,0.0,0,0.0,0.099
5963,0,,,248,247,251,246,,-0.17,-0.05,0.99,-0,0,-0,0.17,,85,0,93,27,99,0.502,0.0,117,1.05,13.1,0.0,1,0.0,0.0,0.0,0,0,1,0,0,,,,,,,,,,,,,,,,,,,,
5983,0,,,248,247,251,246,,-0.17,-0.05,0.99,-0,0,-0,0.17,,85,0,93,27,99,0.502,0.0,117,1.05,13.1,0.0,1,0.0,0.0,0.0,0,0,1,0,0,,,,,,,,,,,,,,,,,,,,
6003,0,,,248,246,251,246,,-0.17,-0.05,0.99,-0,0,-0,0.17,,85,0,93,27,99,0.502,0.0,117,1.05,13.1,0.0,1,0.0,0.0,0.0,0,0,1,0,0,,,,,,,,,,,,,,,,,,,,
6023,0,,,248,246,251,246,,-0.17,-0.05,0.99,-0,0,-0,0.17,,85,0,93,27,99,0.502,0.0,117,1.05,13.1,0.0,1,0.0,0.0,0.0,0,0,1,0,0,,,,,,,,,,,,,,,,,,,,
6043,0,0,1,248,246,251,246,-6,-0.17,-0.05,0.99,-0,0,-0,0.17,1,85,0,93,27,99,0.502,0.0,117,1.05,13.1,0.0,1,0.0,0.0,0.0,0,0,1,0,0,0,250,250,0,0.0,0.0,0.0,0.0,0,0,0.0,0,0.0,-1,0.0,0.0,0.0,0,0.0,0.1007
6063,0,,,248,246,251,246,,-0.17,-0.05,0.99,-0,0,-0,0.17,,85,0,93,27,99,0.502,0.0,117,1.05,13.1,0.0,1,0.0,0.0,0.0,0,0,1,0,0,,,,,,,,,,,,,,,,,,,,
6083,0,,,248,247,251,246,,-0.17,-0.05,0.99,-0,0,-0,0.17,,85,0,93,27,99,0.502,0.0,116,1.05,13.1,0.0,1,0.0,0.0,0.0,0,0,1,0,0,,,,,,,,,,,,,,,,,,,,
6103,0,,,248,247,251,246,,-0.17,-0.05,0.99,-0,0,-0,0.17,,85,0,93,27,99,0.502,0.0,116,1.05,13.1,0.0,1,0.0,0.0,0.0,0,0,1,0,0,,,,,,,,,,,,,,,,,,,,
6123,0,,,248,247,251,246,,-0.17,-0.05,0.99,-0,0,-0,0.17,,85,0,93,27,99,0.502,0.0,116,1.05,13.1,0.0,1,0.0,0.0,0.0,0,0,1,0,0,,,,,,,,,,,,,,,,,,,,
6143,0,-1,2,248,247,251,246,-5,-0.17,-0.05,0.99,-0,0,-0,0.17,1,85,0,93,27,99,0.502,0.0,116,1.05,13.1,0.0,1,0.0,0.0,0.0,0,0,1,0,0,0,250,250,0,0.0,0.0,0.0,0.0,0,0,0.0,0,0.0,-1,0.0,,0.0,0,0.0,0.1024
6163,0,,,248,247,251,246,,-0.17,-0.05,0.99,-0,0,-0,0.17,,85,0,93,27,99,0.502,0.0,116,1.05,13.1,0.0,1,0.0,0.0,0.0,0,0,1,0,0,,,,,,,,,,,,,,,,,,,,
6183,0,,,248,246,251,246,,-0.17,-0.05,0.99,-0,0,-0,0.17,,85,0,93,27,99,0.502,0.0,116,1.05,13.1,0.0,1,0.0,0.0,0.0,0,0,1,0,0,,,,,,,,,,,,,,,,,,,,
6203,0,,,248,246,251,246,,-0.17,-0.05,0.99,-0,0,-0,0.17,,85,0,93,27,99,0.502,0.0,116,1.05,13.1,0.0,1,0.0,0.0,0.0,0,0,1,0,0,,,,,,,,,,,,,,,,,,,,
6223,0,,,248,246,251,246,,-0.17,-0.05,0.99,-0,0,-0,0.17,,85,0,93,27,99,0.502,0.0,116,1.05,13.1,0.0,1,0.0,0.0,0.0,0,0,1,0,0,,,,,,,,,,,,,,,,,,,,
6243,0,1,2,248,246,251,246,-6,-0.17,-0.05,0.99,-0,-0,-0,0.17,1,85,0,93,27,99,0.502,0.0,116,1.05,13.1,0.0,1,0.0,0.0,0.0,0,0,1,0,0,0,250,250,0,0.0,0.0,0.0,0.0,0,0,0.0,0,0.0,-1,0.0,0.0,0.0,0,0.0,0.104
6263,0,,,248,246,251,246,,-0.17,-0.05,0.99,-0,0,-0,0.17,,85,0,93,27,99,0.502,0.0,116,1.05,13.1,0.0,1,0.0,0.0,0.0,0,0,1,0,0,,,,,,,,,,,,,,,,,,,,
6283,0,,,248,246,251,246,,-0.17,-0.05,0.99,-0,0,-0,0.17,,85,0,93,27,99,0.502,0.0,116,1.05,13.1,0.0,1,0.0,0.0,0.0,0,0,1,0,0,,,,,,,,,,,,,,,,,,,,
6303,0,,,248,246,251,246,,-0.17,-0.05,0.99,-0,-0,-0,0.17,,85,0,93,27,99,0.502,0.0,116,1.05,13.1,0.0,1,0.0,0.0,0.0,0,0,1,0,0,,,,,,,,,,,,,,,,,,,,
6323,0,,,248,246,251,246,,-0.17,-0.05,0.98,-0,-0,-0,0.17,,85,0,94,27,99,0.502,0.0,116,1.05,13.1,0.0,1,0.0,0.0,0.0,0,0,1,0,0,,,,,,,,,,,,,,,,,,,,
6343,0,0,2,248,246,251,246,-5,-0.17,-0.05,0.99,-0,0,-0,0.17,1,85,0,96,27,99,0.502,0.0,116,1.05,13.1,0.0,1,0.0,0.0,0.0,0,0,1,0,0,0,250,250,0,0.0,0.0,0.0,0.0,0,0,0.0,0,0.0,-1,0.0,,0.0,0,0.0,0.1057
6363,0,,,248,246,251,246,,-0.17,-0.05,0.99,-0,0,-0,0.17,,85,0,97,27,99,0.502,0.0,116,1.05,13.1,0.0,1,0.0,0.0,0.0,0,0,1,0,0,,,,,,,,,,,,,,,,,,,,
6383,0,,,248,247,251,246,,-0.17,-0.05,0.98,-0,0,-0,0.17,,85,0,97,27,99,0.502,0.0,116,1.05,13.1,0.0,1,0.0,0.0,0.0,0,0,1,0,0,,,,,,,,,,,,,,,,,,,,
6403,0,,,248,247,251,246,,-0.17,-0.05,0.98,-0,0,-0,0.17,,85,0,97,27,99,0.502,0.0,116,1.05,13.1,0.0,1,0.0,0.0,0.0,0,0,1,0,0,,,,,,,,,,,,,,,,,,,,
6423,0,,,248,246,251,246,,-0.17,-0.05,0.99,-0,0,-0,0.17,,85,0,97,27,99,0.502,0.0,116,1.05,13.1,0.0,1,0.0,0.0,0.0,0,0,1,0,0,,,,,,,,,,,,,,,,,,,,
6443,0,-1,2,248,246,251,247,-6,-0.17,-0.05,0.99,-0,0,-0,0.17,1,85,0,97,27,99,0.502,0.0,116,1.05,13.1,0.0,1,0.0,0.0,0.0,0,0,1,0,0,0,250,250,0,0.0,0.0,0.0,0.0,0,0,0.0,0,0.0,-1,0.0,0.0,0.0,0,0.0,0.1074
6463,0,,,248,247,251,246,,-0.17,-0.05,0.99,-0,0,-0,0.17,,85,0,97,27,99,0.502,0.0,116,1.05,13.1,0.0,1,0.0,0.0,0.0,0,0,1,0,0,,,,,,,,,,,,,,,,,,,,
6483,0,,,248,248,251,246,,-0.16,-0.05,0.99,-0,0,-0,0.17,,85,0,97,27,99,0.502,0.0,116,1.05,13.1,0.0,1,0.0,0.0,0.0,0,0,1,0,0,,,,,,,,,,,,,,,,,,,,
6503,0,,,248,247,251,246,,-0.16,-0.05,0.99,-0,-0,-0,0.17,,85,0,97,27,99,0.502,0.0,116,1.05,13.1,0.0,1,0.0,0.0,0.0,0,0,1,0,0,,,,,,,,,,,,,,,,,,,,
6523,0,,,248,247,251,246,,-0.16,-0.05,0.98,-0,-0,-0,0.17,,85,0,97,27,99,0.502,0.0,116,1.05,13.1,0.0,1,0.0,0.0,0.0,0,0,1,0,0,,,,,,,,,,,,,,,,,,,,
6543,0,-1,2,248,247,251,246,-5,-0.17,-0.05,0.99,-0,-0,-0,0.17,1,85,0,97,27,99,0.502,0.0,117,1.05,13.1,0.0,1,0.0,0.0,0.0,0,0,1,0,0,0,250,250,0,0.0,0.0,0.0,0.0,0,0,0.0,0,0.0,-1,0.0,,0.0,0,0.0,0.109
6563,0,,,248,247,251,246,,-0.17,-0.05,0.99,-0,0,-0,0.17,,85,0,97,27,99,0.502,0.0,117,1.05,13.1,0.0,1,0.0,0.0,0.0,0,0,1,0,0,,,,,,,,,,,,,,,,,,,,
6583,0,,,248,247,251,246,,-0.17,-0.05,0.99,-0,-0,-0,0.17,,85,0,97,27,99,0.502,0.0,117,1.05,13.1,0.0,1,0.0,0.0,0.0,0,0,1,0,0,,,,,,,,,,,,,,,,,,,,
6603,0,,,248,246,251,246,,-0.17,-0.05,0.99,-0,-0,-0,0.17,,85,0,97,27,99,0.502,0.0,117,1.05,13.1,0.0,1,0.0,0.0,0.0,0,0,1,0,0,,,,,,,,,,,,,,,,,,,,
6623,0,,,248,247,251,246,,-0.17,-0.05,0.99,-0,-0,-0,0.17,,85,0,97,27,99,0.502,0.0,117,1.05,13.1,0.0,1,0.0,0.0,0.0,0,0,1,0,0,,,,,,,,,,,,,,,,,,,,
6643,0,0,2,248,247,251,246,-6,-0.17,-0.05,0.99,-0,-0,-0,0.17,1,85,0,97,27,99,0.502,0.0,117,1.05,13.1,0.0,1,0.0,0.0,0.0,0,0,1,0,0,0,250,250,0,0.0,0.0,0.0,0.0,0,0,0.0,0,0.0,-1,0.0,0.0,0.0,0,0.0,0.1107
6663,0,,,248,247,251,246,,-0.17,-0.05,0.99,-0,-0,-0,0.17,,85,0,97,27,99,0.502,0.0,117,1.05,13.1,0.0,1,0.0,0.0,0.0,0,0,1,0,0,,,,,,,,,,,,,,,,,,,,
6683,0,,,248,247,251,246,,-0.17,-0.05,0.99,-0,-0,-0,0.17,,85,0,97,27,99,0.502,0.0,117,1.05,13.1,0.0,1,0.0,0.0,0.0,0,0,1,0,0,,,,,,,,,,,,,,,,,,,,
6703,0,,,248,247,251,246,,-0.17,-0.05,0.99,-0,-0,-0,0.17,,85,0,97,27,99,0.502,0.0,117,1.05,13.1,0.0,1,0.0,0.0,0.0,0,0,1,0,0,,,,,,,,,,,,,,,,,,,,
6723,0,,,248,246,251,247,,-0.17,-0.05,0.99,-0,-0,-0,0.17,,85,0,97,27,99,0.502,0.0,117,1.05,13.1,0.0,1,0.0,0.0,0.0,0,0,1,0,0,,,,,,,,,,,,,,,,,,,,
6743,0,-1,2,248,247,251,246,-6,-0.17,-0.05,0.99,-0,-0,-0,0.17,1,85,0,97,27,99,0.502,0.0,117,1.05,13.1,0.0,1,0.0,0.0,0.0,0,0,1,0,0,0,250,250,0,0.0,0.0,0.0,0.0,0,0,0.0,0,0.0,-1,0.0,,0.0,0,0.0,0.1124
6763,0,,,248,246,251,246,,-0.17,-0.05,0.99,-0,-0,-0,0.17,,85,0,97,27,99,0.502,0.0,117,1.05,13.1,0.0,1,0.0,0.0,0.0,0,0,1,0,0,,,,,,,,,,,,,,,,,,,,
6783,0,,,248,246,251,246,,-0.17,-0.05,0.99,-0,-0,-0,0.17,,85,0,97,27,99,0.502,0.0,116,1.05,13.1,0.0,1,0.0,0.0,0.0,0,0,1,0,0,,,,,,,,,,,,,,,,,,,,
6803,0,,,248,246,251,246,,-0.17,-0.05,0.99,-0,-0,-0,0.17,,85,0,97,27,99,0.502,0.0,116,1.05,13.1,0.0,1,0.0,0.0,0.0,0,0,1,0,0,,,,,,,,,,,,,,,,,,,,
6823,0,,,248,246,251,246,,-0.17,-0.05,0.99,-0,-0,-0,0.17,,85,0,97,27,99,0.502,0.0,116,1.05,13.1,0.0,1,0.0,0.0,0.0,0,0,1,0,0,,,,,,,,,,,,,,,,,,,,
6843,0,-0,2,248,246,251,246,-6,-0.17,-0.05,0.99,-0,-0,-0,0.17,1,85,0,97,27,99,0.502,0.0,116,1.05,13.1,0.0,1,0.0,0.0,0.0,0,0,1,0,0,0,250,250,0,0.0,0.0,0.0,0.0,0,0,0.0,0,0.0,-1,0.0,0.0,0.0,0,0.0,0.114
6863,0,,,248,246,251,246,,-0.17,-0.05,0.99,-0,-0,-0,0.17,,85,0,97,27,99,0.502,0.0,117,1.05,13.1,0.0,1,0.0,0.0,0.0,0,0,1,0,0,,,,,,,,,,,,,,,,,,,,
6883,0,,,248,246,251,246,,-0.17,-0.05,0.99,-0,-0,-0,0.17,,85,0,97,27,99,0.502,0.0,117,1.05,13.1,0.0,1,0.0,0.0,0.0,0,0,1,0,0,,,,,,,,,,,,,,,,,,,,
6903,0,,,248,246,251,246,,-0.17,-0.05,0.99,-0,-0,-0,0.17,,85,0,97,27,99,0.502,0.0,117,1.05,13.1,0.0,1,0.0,0.0,0.0,0,0,1,0,0,,,,,,,,,,,,,,,,,,,,
6923,0,,,248,246,251,246,,-0.17,-0.05,0.99,-0,-0,-0,0.17,,85,0,97,27,99,0.502,0.0,117,1.05,13.1,0.0,1,0.0,0.0,0.0,0,0,1,0,0,,,,,,,,,,,,,,,,,,,,
6943,0,-1,2,248,246,251,246,-5,-0.17,-0.05,0.99,-0,-0,-0,0.17,1,85,0,97,27,99,0.502,0.0,116,1.05,13.1,0.0,1,0.0,0.0,0.0,0,0,1,0,0,0,250,250,0,0.0,0.0,0.0,0.0,0,0,0.0,0,0.0,-1,0.0,,0.0,0,0.0,0.1157
6963,0,,,248,246,251,246,,-0.17,-0.05,0.99,-0,-0,-0,0.17,,85,0,97,27,99,0.502,0.0,116,1.05,13.1,0.0,1,0.0,0.0,0.0,0,0,1,0,0,,,,,,,,,,,,,,,,,,,,
6983,0,,,248,246,251,246,,-0.17,-0.05,0.99,-0,-0,-0,0.17,,85,0,97,27,99,0.502,0.0,116,1.05,13.1,0.0,1,0.0,0.0,0.0,0,0,1,0,0,,,,,,,,,,,,,,,,,,,,
7003,0,,,248,246,251,246,,-0.17,-0.05,0.99,-0,-0,-0,0.17,,85,0,97,27,99,0.502,0.0,116,1.05,13.1,0.0,1,0.0,0.0,0.0,0,0,1,0,0,,,,,,,,,,,,,,,,,,,,
7023,0,,,248,246,251,246,,-0.17,-0.05,0.99,-0,-0,-0,0.17,,85,0,97,27,99,0.502,0.0,117,1.05,13.1,0.0,1,0.0,0.0,0.0,0,0,1,0,0,,,,,,,,,,,,,,,,,,,,
7043,0,-1,2,248,246,251,247,-6,-0.17,-0.05,0.99,-0,-0,-0,0.17,1,85,0,97,27,99,0.502,0.0,117,1.05,13.1,0.0,1,0.0,0.0,0.0,0,0,1,0,0,0,250,250,0,0.0,0.0,0.0,0.0,0,0,0.0,0,0.0,-1,0.0,0.0,0.0,0,0.0,0.1174
7063,0,,,248,246,251,246,,-0.17,-0.05,0.99,-0,-0,-0,0.17,,85,0,97,27,99,0.502,0.0,117,1.05,13.1,0.0,1,0.0,0.0,0.0,0,0,1,0,0,,,,,,,,,,,,,,,,,,,,
7083,0,,,248,246,251,246,,-0.17,-0.05,0.99,-0,-0,-0,0.17,,85,0,97,27,99,0.502,0.0,116,1.05,13.1,0.0,1,0.0,0.0,0.0,0,0,1,0,0,,,,,,,,,,,,,,,,,,,,
7103,0,,,248,246,251,246,,-0.16,-0.05,0.99,-0,-0,-0,0.17,,85,0,97,27,99,0.502,0.0,116,1.05,13.1,0.0,1,0.0,0.0,0.0,0,0,1,0,0,,,,,,,,,,,,,,,,,,,,
7123,0,,,248,246,251,246,,-0.16,-0.05,0.99,-0,-0,-0,0.17,,85,0,97,27,99,0.502,0.0,116,1.05,13.1,0.0,1,0.0,0.0,0.0,0,0,1,0,0,,,,,,,,,,,,,,,,,,,,
7143,0,0,2,248,246,251,246,-5,-0.16,-0.05,0.99,-0,-0,-0,0.17,1,85,0,97,27,99,0.502,0.0,116,1.05,13.1,0.0,1,0.0,0.0,0.0,0,0,1,0,0,0,250,250,0,0.0,0.0,0.0,0.0,0,0,0.0,0,0.0,-1,0.0,,0.0,0,0.0,0.119
7163,0,,,248,246,251,246,,-0.16,-0.05,0.99,-0,-0,-0,0.17,,85,0,97,27,99,0.502,0.0,116,1.05,13.1,0.0,1,0.0,0.0,0.0,0,0,1,0,0,,,,,,,,,,,,,,,,,,,,
7183,0,,,248,246,251,246,,-0.16,-0.05,0.99,-0,-0,-0,0.17,,85,0,97,27,99,0.502,0.0,116,1.05,13.1,0.0,1,0.0,0.0,0.0,0,0,1,0,0,,,,,,,,,,,,,,,,,,,,
7203,0,,,248,247,251,247,,-0.17,-0.05,0.99,-0,-0,-0,0.17,,85,0,97,27,99,0.502,0.0,116,1.05,13.1,0.0,1,0.0,0.0,0.0,0,0,1,0,0,,,,,,,,,,,,,,,,,,,,
7223,0,,,248,246,251,246,,-0.17,-0.05,0.99,-0,-0,-0,0.17,,85,0,97,27,99,0.502,0.0,116,1.05,13.1,0.0,1,0.0,0.0,0.0,0,0,1,0,0,,,,,,,,,,,,,,,,,,,,
7243,0,0,0,248,246,251,246,-6,-0.17,-0.05,0.99,-0,-0,-0,0.17,1,85,0,97,27,99,0.502,0.0,116,1.05,13.1,0.0,1,0.0,0.0,0.0,0,0,1,0,0,0,250,250,0,0.0,0.0,0.0,0.0,0,0,0.0,0,0.0,-1,0.0,0.0,0.0,0,0.0,0.1207
7263,0,,,248,246,251,246,,-0.17,-0.05,0.99,-0,-0,-0,0.17,,85,0,97,27,99,0.502,0.0,116,1.05,13.1,0.0,1,0.0,0.0,0.0,0,0,1,0,0,,,,,,,,,,,,,,,,,,,,
7283,0,,,248,246,251,246,,-0.17,-0.05,0.99,-0,-0,-0,0.17,,85,0,97,27,99,0.502,0.0,116,1.05,13.1,0.0,1,0.0,0.0,0.0,0,0,1,0,0,,,,,,,,,,,,,,,,,,,,
7303,0,,,248,247,251,246,,-0.17,-0.05,0.99,-0,-0,-0,0.17,,85,0,97,27,99,0.502,0.0,116,1.05,13.1,0.0,1,0.0,0.0,0.0,0,0,1,0,0,,,,,,,,,,,,,,,,,,,,
7323,0,,,248,246,251,246,,-0.17,-0.05,0.99,-0,-0,-0,0.17,,85,0,97,27,99,0.502,0.0,116,1.05,13.1,0.0,1,0.0,0.0,0.0,0,0,1,0,0,,,,,,,,,,,,,,,,,,,,
7343,0,0,0,248,246,251,246,-6,-0.17,-0.05,0.99,-0,-0,-0,0.17,1,85,0,97,27,99,0.502,0.0,116,1.05,13.1,0.0,1,0.0,0.0,0.0,0,0,1,0,0,0,250,250,0,0.0,0.0,0.0,0.0,0,0,0.0,0,0.0,-1,0.0,,0.0,0,0.0,0.1224
7363,0,,,248,246,251,246,,-0.17,-0.05,0.99,-0,-0,-0,0.17,,85,0,97,27,99,0.502,0.0,116,1.05,13.1,0.0,1,0.0,0.0,0.0,0,0,1,0,0,,,,,,,,,,,,,,,,,,,,
7383,0,,,248,246,251,246,,-0.17,-0.05,0.99,-0,-0,-0,0.17,,85,0,97,27,99,0.502,0.0,116,1.05,13.1,0.0,1,0.0,0.0,0.0,0,0,1,0,0,,,,,,,,,,,,,,,,,,,,
7403,0,,,248,246,251,246,,-0.17,-0.05,0.99,-0,-0,-0,0.17,,85,0,97,27,99,0.502,0.0,116,1.05,13.1,0.0,1,0.0,0.0,0.0,0,0,1,0,0,,,,,,,,,,,,,,,,,,,,
7423,0,,,248,246,251,246,,-0.17,-0.05,0.99,-0,-0,-0,0.17,,85,0,97,27,99,0.502,0.0,116,1.05,13.1,0.0,1,0.0,0.0,0.0,0,0,1,0,0,,,,,,,,,,,,,,,,,,,,
7443,0,0,1,248,246,251,246,-5,-0.17,-0.05,0.99,-0,-0,-0,0.17,1,85,0,97,27,99,0.502,0.0,116,1.05,13.1,0.0,1,0.0,0.0,0.0,0,0,1,0,0,0,250,250,0,0.0,0.0,0.0,0.0,0,0,0.0,0,0.0,-1,0.0,0.0,0.0,0,0.0,0.124
7463,0,,,248,246,251,246,,-0.17,-0.05,0.99,-0,-0,-0,0.17,,85,0,97,27,99,0.502,0.0,116,1.05,13.1,0.0,1,0.0,0.0,0.0,0,0,1,0,0,,,,,,,,,,,,,,,,,,,,
7483,0,,,248,246,251,246,,-0.17,-0.05,0.99,-0,-0,-0,0.17,,85,0,97,27,99,0.502,0.0,116,1.05,13.1,0.0,1,0.0,0.0,0.0,0,0,1,0,0,,,,,,,,,,,,,,,,,,,,
7503,0,,,248,246,251,246,,-0.17,-0.05,0.99,-0,-0,-0,0.17,,85,0,97,27,99,0.502,0.0,116,1.05,13.1,0.0,1,0.0,0.0,0.0,0,0,1,0,0,,,,,,,,,,,,,,,,,,,,
7523,0,,,248,246,251,246,,-0.17,-0.05,0.99,-0,-0,-0,0.17,,85,0,97,27,99,0.502,0.0,116,1.05,13.1,0.0,1,0.0,0.0,0.0,0,0,1,0,0,,,,,,,,,,,,,,,,,,,,
7543,0,1,1,248,246,251,247,-6,-0.17,-0.05,0.99,-0,-0,-0,0.17,1,85,0,97,27,99,0.502,0.0,116,1.05,13.1,0.0,1,0.0,0.0,0.0,0,0,1,0,0,0,250,250,0,0.0,0.0,0.0,0.0,0,0,0.0,0,0.0,-1,0.0,,0.0,0,0.0,0.1257
7563,0,,,248,246,251,246,,-0.17,-0.05,0.99,-0,0,-0,0.17,,85,0,97,27,99,0.502,0.0,116,1.05,13.1,0.0,1,0.0,0.0,0.0,0,0,1,0,0,,,,,,,,,,,,,,,,,,,,
7583,0,,,248,246,251,246,,-0.17,-0.05,0.99,-0,-0,-0,0.17,,85,0,97,27,99,0.502,0.0,116,1.05,13.1,0.0,1,0.0,0.0,0.0,0,0,1,0,0,,,,,,,,,,,,,,,,,,,,
7603,0,,,248,246,251,246,,-0.17,-0.05,0.99,-0,-0,-0,0.17,,85,0,97,27,99,0.502,0.0,116,1.05,13.1,0.0,1,0.0,0.0,0.0,0,0,1,0,0,,,,,,,,,,,,,,,,,,,,
7623,0,,,248,246,251,246,,-0.17,-0.05,0.99,-0,-0,-0,0.17,,85,0,97,27,99,0.502,0.0,116,1.05,13.1,0.0,1,0.0,0.0,0.0,0,0,1,0,0,,,,,,,,,,,,,,,,,,,,
7643,0,1,2,248,246,251,246,-6,-0.17,-0.05,0.99,-0,-0,-0,0.17,1,85,0,97,27,99,0.502,0.0,116,1.05,13.1,0.0,1,0.0,0.0,0.0,0,0,1,0,0,0,250,250,0,0.0,0.0,0.0,0.0,0,0,0.0,0,0.0,-1,0.0,0.0,0.0,0,0.0,0.1274
7663,0,,,248,246,251,246,,-0.17,-0.05,0.99,-0,-0,-0,0.17,,85,0,97,27,99,0.502,0.0,116,1.05,13.1,0.0,1,0.0,0.0,0.0,0,0,1,0,0,,,,,,,,,,,,,,,,,,,,
7683,0,,,248,246,251,246,,-0.17,-0.05,0.99,-0,0,-0,0.17,,85,0,97,27,99,0.502,0.0,116,1.05,13.1,0.0,1,0.0,0.0,0.0,0,0,1,0,0,,,,,,,,,,,,,,,,,,,,
7703,0,,,248,246,251,246,,-0.17,-0.05,0.99,-0,-0,-0,0.17,,85,0,97,27,99,0.502,0.0,116,1.05,13.1,0.0,1,0.0,0.0,0.0,0,0,1,0,0,,,,,,,,,,,,,,,,,,,,
7723,0,,,248,246,251,246,,-0.17,-0.05,0.99,-0,-0,-0,0.17,,85,0,97,27,99,0.502,0.0,116,1.05,13.1,0.0,1,0.0,0.0,0.0,0,0,1,0,0,,,,,,,,,,,,,,,,,,,,
7743,0,0,2,248,246,251,246,-5,-0.17,-0.05,0.99,-0,-0,-0,0.17,1,85,0,97,27,99,0.502,0.0,116,1.05,13.1,0.0,1,0.0,0.0,0.0,0,0,1,0,0,0,250,250,0,0.0,0.0,0.0,0.0,0,0,0.0,0,0.0,-1,0.0,,0.0,0,0.0,0.129
7763,0,,,248,246,251,246,,-0.17,-0.05,0.99,-0,-0,-0,0.17,,85,0,97,27,99,0.502,0.0,116,1.05,13.1,0.0,1,0.0,0.0,0.0,0,0,1,0,0,,,,,,,,,,,,,,,,,,,,
7783,0,,,248,246,251,247,,-0.17,-0.05,0.99,-0,-0,-0,0.17,,85,0,97,27,99,0.502,0.0,116,1.05,13.1,0.0,1,0.0,0.0,0.0,0,0,1,0,0,,,,,,,,,,,,,,,,,,,,
