"Interval"|"ms"|0|0|1,"Utc"|"ms"|0|0|1,"Brake_F"|"Bar"|0|2000|10,"Brake_R"|"Bar"|0|2000|10,"Height_RF"|"mm"|0|255|50,"Height_LF"|"mm"|0|255|50,"Height_LR"|"mm"|0|80|50,"Height_RR"|"mm"|0|255|50,"Steering"|"deg"|-100|100|10,"AccelX"|"G"|-3.0|3.0|50,"AccelY"|"G"|-3.0|3.0|50,"AccelZ"|"G"|-3.0|3.0|50,"Yaw"|"Deg/Sec"|-120|120|50,"Pitch"|"Deg/Sec"|-120|120|50,"Roll"|"Deg/Sec"|-120|120|50,"Gsum"|"G"|0.0|3.0|50,"Log_Button"|""|0.0|10.0|10,"WaterTemp"|"C"|0|150|50,"RPM"|"tr/min"|0|14000|50,"TPS"|"%"|0|100|50,"AirTemp"|"C"|0|150|50,"MAP"|"KPa"|0|100|50,"Lambda"|""|0.5|1.5|50,"SpeedDTA"|"kph"|0.0|250.0|50,"OilPress"|"KPa"|0|1500|50,"FuelPressur"|"Bar"|0.0|10.0|50,"Batterie"|"V"|0.0|20.0|50,"ConsoKm"|"L/100km"|0.0|200.0|50,"Gear"|""|0|6|50,"AdvIgnition"|"Deg"|-20.0|70.0|50,"Injection"|"ms"|0.0|10.0|50,"ConsoHr"|"L/Hr"|0.0|10000.0|50,"LC_But_Pres"|""|0|1|50,"LC_Active"|""|0|1|50,"TractionOn"|""|0|1|50,"TractionWet"|""|0|1|50,"FanOn"|""|0|1|50,"RD_Speed"|"km/h"|-30|250|10,"RUD_Speed"|"km/h"|-30|250|10,"LD_Speed"|"km/h"|-30|250|10,"LUD_Speed"|"km/h"|-30|250|10,"Latitude"|"Degrees"|-180.0|180.0|10,"Longitude"|"Degrees"|-180.0|180.0|10,"Speed"|"kph"|0.0|150.0|10,"Altitude"|"m"|0.0|4000.0|10,"GPSSats"|""|0|20|10,"GPSQual"|""|0|5|10,"GPSDOP"|""|0.0|20.0|10,"LapCount"|""|0|0|10,"LapTime"|"Min"|0.0|0.0|10,"Sector"|""|0|0|10,"SectorTime"|"Min"|0.0|0.0|10,"PredTime"|"Min"|0.0|0.0|5,"ElapsedTime"|"Min"|0.0|0.0|10,"CurrentLap"|""|0|0|10,"Distance"|"km"|0.0|0.0|10,"SessionTime"|"Min"|0.0|0.0|10
64,0,,,249,252,237,233,,-0.04,0.02,0.98,-0,0,-0,0.05,,0,0,0,0,0,0.0,0.0,0,0.0,0.0,0.0,0,0.0,0.0,0.0,0,0,0,0,0,,,,,,,,,,,,,,,,,,,,
84,0,,,249,252,237,233,,-0.05,0.02,0.98,-0,-0,-0,0.05,,0,0,0,0,0,0.0,0.0,0,0.0,0.0,0.0,0,0.0,0.0,0.0,0,0,0,0,0,,,,,,,,,,,,,,,,,,,,
104,0,,,249,252,237,233,,-0.05,0.02,0.98,-0,-0,-0,0.05,,0,0,0,0,0,0.0,0.0,0,0.0,0.0,0.0,0,0.0,0.0,0.0,0,0,0,0,0,,,,,,,,,,,,,,,,,,,,
124,0,,,249,252,237,233,,-0.05,0.02,0.98,-0,-0,-0,0.05,,0,0,0,0,0,0.0,0.0,0,0.0,0.0,0.0,0,0.0,0.0,0.0,0,0,0,0,0,,,,,,,,,,,,,,,,,,,,
144,0,8,5,249,252,237,233,-7,-0.05,0.02,0.98,-0,-0,-0,0.05,1,0,0,0,0,0,0.0,0.0,0,0.0,0.0,0.0,0,0.0,0.0,0.0,0,0,0,0,0,0,0,0,0,0.0,0.0,0.0,0.0,0,0,0.0,0,0.0,-1,0.0,,0.0,0,0.0,0.0024
164,0,,,249,251,237,233,,-0.04,0.02,0.98,-0,-0,-0,0.05,,0,0,0,0,0,0.0,0.0,0,0.0,0.0,0.0,0,0.0,0.0,0.0,0,0,0,0,0,,,,,,,,,,,,,,,,,,,,
184,0,,,249,252,237,233,,-0.05,0.02,0.98,-0,-0,-0,0.05,,0,0,0,0,0,0.0,0.0,0,0.0,0.0,0.0,0,0.0,0.0,0.0,0,0,0,0,0,,,,,,,,,,,,,,,,,,,,
204,0,,,249,252,237,233,,-0.05,0.02,0.98,-0,-0,-0,0.05,,0,0,0,0,0,0.0,0.0,0,0.0,0.0,0.0,0,0.0,0.0,0.0,0,0,0,0,0,,,,,,,,,,,,,,,,,,,,
224,0,,,249,252,237,233,,-0.05,0.02,0.98,-0,-0,-0,0.05,,0,0,0,0,0,0.0,0.0,0,0.0,0.0,0.0,0,0.0,0.0,0.0,0,0,0,0,0,,,,,,,,,,,,,,,,,,,,
244,0,7,7,249,252,237,233,-7,-0.05,0.02,0.98,-0,-0,-0,0.05,1,0,0,0,0,0,0.0,0.0,0,0.0,0.0,0.0,0,0.0,0.0,0.0,0,0,0,0,0,0,0,0,0,0.0,0.0,0.0,0.0,0,0,0.0,0,0.0,-1,0.0,0.0,0.0,0,0.0,0.0041
264,0,,,249,252,237,233,,-0.05,0.02,0.98,-0,-0,-0,0.05,,0,0,0,0,0,0.0,0.0,0,0.0,0.0,0.0,0,0.0,0.0,0.0,0,0,0,0,0,,,,,,,,,,,,,,,,,,,,
284,0,,,249,252,237,233,,-0.05,0.02,0.98,-0,-0,-0,0.05,,0,0,0,0,0,0.0,0.0,0,0.0,0.0,0.0,0,0.0,0.0,0.0,0,0,0,0,0,,,,,,,,,,,,,,,,,,,,
304,0,,,249,252,237,233,,-0.05,0.02,0.98,-0,-0,-0,0.05,,0,0,0,0,0,0.0,0.0,0,0.0,0.0,0.0,0,0.0,0.0,0.0,0,0,0,0,0,,,,,,,,,,,,,,,,,,,,
324,0,,,249,252,237,233,,-0.05,0.02,0.98,-0,-0,-0,0.05,,0,0,0,0,0,0.0,0.0,0,0.0,0.0,0.0,0,0.0,0.0,0.0,0,0,0,0,0,,,,,,,,,,,,,,,,,,,,
344,0,7,7,249,252,237,233,-8,-0.05,0.02,0.98,-0,-0,-0,0.05,1,0,0,0,0,0,0.0,0.0,0,0.0,0.0,0.0,0,0.0,0.0,0.0,0,0,0,0,0,0,0,0,0,0.0,0.0,0.0,0.0,0,0,0.0,0,0.0,-1,0.0,,0.0,0,0.0,0.0057
364,0,,,249,251,237,233,,-0.05,0.02,0.98,-0,-0,-0,0.05,,0,0,0,0,0,0.0,0.0,0,0.0,0.0,0.0,0,0.0,0.0,0.0,0,0,0,0,0,,,,,,,,,,,,,,,,,,,,
384,0,,,249,252,237,233,,-0.05,0.02,0.98,-0,-0,-0,0.05,,0,0,0,0,0,0.0,0.0,0,0.0,0.0,0.0,0,0.0,0.0,0.0,0,0,0,0,0,,,,,,,,,,,,,,,,,,,,
404,0,,,249,252,237,233,,-0.05,0.02,0.98,-0,-0,-0,0.05,,0,0,0,0,0,0.0,0.0,0,0.0,0.0,0.0,0,0.0,0.0,0.0,0,0,0,0,0,,,,,,,,,,,,,,,,,,,,
424,0,,,249,251,237,233,,-0.05,0.02,0.98,-0,-0,-0,0.05,,0,0,0,0,0,0.0,0.0,0,0.0,0.0,0.0,0,0.0,0.0,0.0,0,0,0,0,0,,,,,,,,,,,,,,,,,,,,
444,0,7,6,249,251,237,233,-7,-0.05,0.02,0.98,-0,-0,-0,0.05,1,0,0,0,0,0,0.0,0.0,0,0.0,0.0,0.0,0,0.0,0.0,0.0,0,0,0,0,0,0,0,0,0,0.0,0.0,0.0,0.0,0,0,0.0,0,0.0,-1,0.0,0.0,0.0,0,0.0,0.0074
464,0,,,249,251,237,233,,-0.05,0.02,0.98,-0,-0,-0,0.05,,0,0,0,0,0,0.0,0.0,0,0.0,0.0,0.0,0,0.0,0.0,0.0,0,0,0,0,0,,,,,,,,,,,,,,,,,,,,
484,0,,,249,252,237,233,,-0.05,0.02,0.98,-0,-0,-0,0.05,,0,0,0,0,0,0.0,0.0,0,0.0,0.0,0.0,0,0.0,0.0,0.0,0,0,0,0,0,,,,,,,,,,,,,,,,,,,,
504,0,,,249,251,237,233,,-0.05,0.02,0.98,-0,-0,-0,0.05,,0,0,0,0,0,0.0,0.0,0,0.0,0.0,0.0,0,0.0,0.0,0.0,0,0,0,0,0,,,,,,,,,,,,,,,,,,,,
524,0,,,249,252,237,233,,-0.05,0.02,0.98,-0,-0,-0,0.05,,0,0,0,0,0,0.0,0.0,0,0.0,0.0,0.0,0,0.0,0.0,0.0,0,0,0,0,0,,,,,,,,,,,,,,,,,,,,
544,0,6,7,249,252,237,233,-8,-0.05,0.02,0.98,-0,-0,-0,0.05,1,0,0,0,0,0,0.0,0.0,0,0.0,0.0,0.0,0,0.0,0.0,0.0,0,0,0,0,0,0,0,0,0,0.0,0.0,0.0,0.0,0,0,0.0,0,0.0,-1,0.0,,0.0,0,0.0,0.0091
564,0,,,249,252,237,233,,-0.05,0.02,0.98,-0,-0,-0,0.05,,0,0,0,0,0,0.0,0.0,0,0.0,0.0,0.0,0,0.0,0.0,0.0,0,0,0,0,0,,,,,,,,,,,,,,,,,,,,
584,0,,,249,252,237,233,,-0.05,0.02,0.98,-0,-0,-0,0.05,,0,0,0,0,0,0.0,0.0,0,0.0,0.0,0.0,0,0.0,0.0,0.0,0,0,0,0,0,,,,,,,,,,,,,,,,,,,,
604,0,,,249,252,237,233,,-0.05,0.02,0.98,-0,-0,-0,0.05,,0,0,0,0,0,0.0,0.0,0,0.0,0.0,0.0,0,0.0,0.0,0.0,0,0,0,0,0,,,,,,,,,,,,,,,,,,,,
624,0,,,249,252,237,233,,-0.05,0.02,0.98,-0,-0,-0,0.05,,0,0,0,0,0,0.0,0.0,0,0.0,0.0,0.0,0,0.0,0.0,0.0,0,0,0,0,0,,,,,,,,,,,,,,,,,,,,
644,0,5,6,249,252,237,233,-7,-0.05,0.02,0.98,-0,-0,-0,0.05,1,0,0,0,0,0,0.0,0.0,0,0.0,0.0,0.0,0,0.0,0.0,0.0,0,0,0,0,0,0,0,0,0,0.0,0.0,0.0,0.0,0,0,0.0,0,0.0,-1,0.0,0.0,0.0,0,0.0,0.0107
664,0,,,249,252,237,233,,-0.05,0.02,0.98,-0,-0,-0,0.05,,0,0,0,0,0,0.0,0.0,0,0.0,0.0,0.0,0,0.0,0.0,0.0,0,0,0,0,0,,,,,,,,,,,,,,,,,,,,
684,0,,,249,251,237,233,,-0.05,0.02,0.98,-0,-0,-0,0.05,,0,0,0,0,0,0.0,0.0,0,0.0,0.0,0.0,0,0.0,0.0,0.0,0,0,0,0,0,,,,,,,,,,,,,,,,,,,,
704,0,,,249,252,237,233,,-0.05,0.02,0.98,-0,-0,-0,0.05,,0,0,0,0,0,0.0,0.0,0,0.0,0.0,0.0,0,0.0,0.0,0.0,0,0,0,0,0,,,,,,,,,,,,,,,,,,,,
724,0,,,249,251,237,233,,-0.05,0.02,0.98,-0,-0,-0,0.05,,0,0,0,0,0,0.0,0.0,0,0.0,0.0,0.0,0,0.0,0.0,0.0,0,0,0,0,0,,,,,,,,,,,,,,,,,,,,
744,0,6,7,249,252,237,232,-8,-0.05,0.02,0.98,-0,-0,-0,0.05,1,0,0,0,0,0,0.0,0.0,0,0.0,0.0,0.0,0,0.0,0.0,0.0,0,0,0,0,0,0,0,0,0,0.0,0.0,0.0,0.0,0,0,0.0,0,0.0,-1,0.0,,0.0,0,0.0,0.0124
764,0,,,249,252,237,233,,-0.05,0.02,0.98,-0,-0,-0,0.05,,0,0,0,0,0,0.0,0.0,0,0.0,0.0,0.0,0,0.0,0.0,0.0,0,0,0,0,0,,,,,,,,,,,,,,,,,,,,
784,0,,,249,251,237,233,,-0.05,0.02,0.98,-0,-0,-0,0.05,,0,0,0,0,0,0.0,0.0,0,0.0,0.0,0.0,0,0.0,0.0,0.0,0,0,0,0,0,,,,,,,,,,,,,,,,,,,,
804,0,,,249,252,237,233,,-0.05,0.02,0.98,-0,-0,-0,0.05,,0,0,0,0,0,0.0,0.0,0,0.0,0.0,0.0,0,0.0,0.0,0.0,0,0,0,0,0,,,,,,,,,,,,,,,,,,,,
824,0,,,249,252,237,233,,-0.05,0.02,0.98,-0,-0,-0,0.05,,0,0,0,0,0,0.0,0.0,0,0.0,0.0,0.0,0,0.0,0.0,0.0,0,0,0,0,0,,,,,,,,,,,,,,,,,,,,
844,0,5,6,249,252,237,233,-7,-0.05,0.02,0.98,-0,-0,-0,0.05,1,0,0,0,0,0,0.0,0.0,0,0.0,0.0,0.0,0,0.0,0.0,0.0,0,0,0,0,0,0,0,0,0,0.0,0.0,0.0,0.0,0,0,0.0,0,0.0,-1,0.0,0.0,0.0,0,0.0,0.0141
864,0,,,249,252,237,232,,-0.05,0.02,0.98,-0,-0,-0,0.05,,0,0,0,0,0,0.0,0.0,0,0.0,0.0,0.0,0,0.0,0.0,0.0,0,0,0,0,0,,,,,,,,,,,,,,,,,,,,
884,0,,,249,252,237,232,,-0.05,0.02,0.98,-0,-0,-0,0.05,,0,0,0,0,0,0.0,0.0,0,0.0,0.0,0.0,0,0.0,0.0,0.0,0,0,0,0,0,,,,,,,,,,,,,,,,,,,,
904,0,,,249,252,237,233,,-0.05,0.02,0.98,-0,-0,-0,0.05,,0,0,0,0,0,0.0,0.0,0,0.0,0.0,0.0,0,0.0,0.0,0.0,0,0,0,0,0,,,,,,,,,,,,,,,,,,,,
924,0,,,249,252,237,233,,-0.05,0.02,0.98,-0,-0,-0,0.05,,0,0,0,0,0,0.0,0.0,0,0.0,0.0,0.0,0,0.0,0.0,0.0,0,0,0,0,0,,,,,,,,,,,,,,,,,,,,
944,0,5,7,249,251,237,232,-7,-0.05,0.02,0.98,-0,-0,-0,0.05,1,0,0,0,0,0,0.0,0.0,0,0.0,0.0,0.0,0,0.0,0.0,0.0,0,0,0,0,0,0,0,0,0,0.0,0.0,0.0,0.0,0,0,0.0,0,0.0,-1,0.0,,0.0,0,0.0,0.0157
964,0,,,249,252,237,233,,-0.05,0.02,0.98,-0,-0,-0,0.05,,0,0,0,0,0,0.0,0.0,0,0.0,0.0,0.0,0,0.0,0.0,0.0,0,0,0,0,0,,,,,,,,,,,,,,,,,,,,
984,0,,,249,251,237,233,,-0.05,0.02,0.98,-0,-0,-0,0.05,,0,0,0,0,0,0.0,0.0,0,0.0,0.0,0.0,0,0.0,0.0,0.0,0,0,0,0,0,,,,,,,,,,,,,,,,,,,,
1004,0,,,249,252,237,233,,-0.05,0.02,0.98,-0,-0,-0,0.05,,0,0,0,0,0,0.0,0.0,0,0.0,0.0,0.0,0,0.0,0.0,0.0,0,0,0,0,0,,,,,,,,,,,,,,,,,,,,
1024,0,,,249,252,237,233,,-0.05,0.02,0.98,-0,-0,-0,0.05,,0,0,0,0,0,0.0,0.0,0,0.0,0.0,0.0,0,0.0,0.0,0.0,0,0,0,0,0,,,,,,,,,,,,,,,,,,,,
1044,0,6,6,249,251,237,233,-7,-0.05,0.02,0.98,-0,-0,-0,0.05,1,0,0,0,0,0,0.0,0.0,0,0.0,0.0,0.0,0,0.0,0.0,0.0,0,0,0,0,0,0,0,0,0,0.0,0.0,0.0,0.0,0,0,0.0,0,0.0,-1,0.0,0.0,0.0,0,0.0,0.0174
1064,0,,,249,252,237,233,,-0.05,0.02,0.98,-0,-0,-0,0.05,,0,0,0,0,0,0.0,0.0,0,0.0,0.0,0.0,0,0.0,0.0,0.0,0,0,0,0,0,,,,,,,,,,,,,,,,,,,,
1084,0,,,249,252,237,233,,-0.05,0.02,0.98,-0,-0,-0,0.05,,0,0,0,0,0,0.0,0.0,0,0.0,0.0,0.0,0,0.0,0.0,0.0,0,0,0,0,0,,,,,,,,,,,,,,,,,,,,
1104,0,,,249,252,237,233,,-0.05,0.02,0.98,-0,-0,-0,0.05,,0,0,0,0,0,0.0,0.0,0,0.0,0.0,0.0,0,0.0,0.0,0.0,0,0,0,0,0,,,,,,,,,,,,,,,,,,,,
1124,0,,,249,252,237,233,,-0.05,0.02,0.98,-0,-0,-0,0.05,,0,0,0,0,0,0.0,0.0,0,0.0,0.0,0.0,0,0.0,0.0,0.0,0,0,0,0,0,,,,,,,,,,,,,,,,,,,,
1144,0,7,5,249,252,237,233,-7,-0.05,0.02,0.98,-0,-0,-0,0.05,1,0,0,0,0,0,0.0,0.0,0,0.0,0.0,0.0,0,0.0,0.0,0.0,0,0,0,0,0,0,0,0,0,0.0,0.0,0.0,0.0,0,0,0.0,0,0.0,-1,0.0,,0.0,0,0.0,0.0191
1164,0,,,249,252,237,233,,-0.05,0.02,0.98,-0,-0,-0,0.05,,0,0,0,0,0,0.0,0.0,0,0.0,0.0,0.0,0,0.0,0.0,0.0,0,0,0,0,0,,,,,,,,,,,,,,,,,,,,
1184,0,,,249,252,237,233,,-0.05,0.02,0.98,-0,-0,-0,0.05,,0,0,0,0,0,0.0,0.0,0,0.0,0.0,0.0,0,0.0,0.0,0.0,0,0,0,0,0,,,,,,,,,,,,,,,,,,,,
1204,0,,,249,252,237,233,,-0.05,0.02,0.98,-0,-0,-0,0.05,,0,0,0,0,0,0.0,0.0,0,0.0,0.0,0.0,0,0.0,0.0,0.0,0,0,0,0,0,,,,,,,,,,,,,,,,,,,,
1224,0,,,249,252,237,233,,-0.05,0.02,0.98,-0,-0,-0,0.05,,0,0,0,0,0,0.0,0.0,0,0.0,0.0,0.0,0,0.0,0.0,0.0,0,0,0,0,0,,,,,,,,,,,,,,,,,,,,
1244,0,5,6,249,252,237,233,-7,-0.05,0.02,0.98,-0,-0,-0,0.05,1,0,0,0,0,0,0.0,0.0,0,0.0,0.0,0.0,0,0.0,0.0,0.0,0,0,0,0,0,0,0,0,0,0.0,0.0,0.0,0.0,0,0,0.0,0,0.0,-1,0.0,0.0,0.0,0,0.0,0.0207
1264,0,,,249,251,237,233,,-0.05,0.02,0.98,-0,-0,-0,0.05,,0,0,0,0,0,0.0,0.0,0,0.0,0.0,0.0,0,0.0,0.0,0.0,0,0,0,0,0,,,,,,,,,,,,,,,,,,,,
1284,0,,,249,252,237,233,,-0.05,0.02,0.98,-0,-0,-0,0.05,,0,0,0,0,0,0.0,0.0,0,0.0,0.0,0.0,0,0.0,0.0,0.0,0,0,0,0,0,,,,,,,,,,,,,,,,,,,,
1304,0,,,249,252,237,233,,-0.05,0.02,0.98,-0,-0,-0,0.05,,0,0,0,0,0,0.0,0.0,0,0.0,0.0,0.0,0,0.0,0.0,0.0,0,0,0,0,0,,,,,,,,,,,,,,,,,,,,
1324,0,,,249,251,237,233,,-0.05,0.02,0.98,-0,-0,-0,0.05,,0,0,0,0,0,0.0,0.0,0,0.0,0.0,0.0,0,0.0,0.0,0.0,0,0,0,0,0,,,,,,,,,,,,,,,,,,,,
1344,0,7,7,249,252,237,233,-8,-0.05,0.02,0.98,-0,-0,-0,0.05,1,0,0,0,0,0,0.0,0.0,0,0.0,0.0,0.0,0,0.0,0.0,0.0,0,0,0,0,0,0,0,0,0,0.0,0.0,0.0,0.0,0,0,0.0,0,0.0,-1,0.0,,0.0,0,0.0,0.0224
1364,0,,,249,251,237,233,,-0.05,0.02,0.98,-0,-0,-0,0.05,,0,0,0,0,0,0.0,0.0,0,0.0,0.0,0.0,0,0.0,0.0,0.0,0,0,0,0,0,,,,,,,,,,,,,,,,,,,,
1384,0,,,249,252,237,233,,-0.05,0.02,0.98,-0,-0,-0,0.05,,0,0,0,0,0,0.0,0.0,0,0.0,0.0,0.0,0,0.0,0.0,0.0,0,0,0,0,0,,,,,,,,,,,,,,,,,,,,
1404,0,,,249,252,237,232,,-0.05,0.02,0.98,-0,-0,-0,0.05,,0,0,0,0,0,0.0,0.0,0,0.0,0.0,0.0,0,0.0,0.0,0.0,0,0,0,0,0,,,,,,,,,,,,,,,,,,,,
1424,0,,,249,252,237,233,,-0.05,0.02,0.98,-0,-0,-0,0.05,,0,0,0,0,0,0.0,0.0,0,0.0,0.0,0.0,0,0.0,0.0,0.0,0,0,0,0,0,,,,,,,,,,,,,,,,,,,,
1444,0,6,7,249,252,237,233,-8,-0.05,0.02,0.98,-0,-0,-0,0.05,1,0,0,0,0,0,0.0,0.0,0,0.0,0.0,0.0,0,0.0,0.0,0.0,0,0,0,0,0,0,0,0,0,0.0,0.0,0.0,0.0,0,0,0.0,0,0.0,-1,0.0,0.0,0.0,0,0.0,0.0241
1464,0,,,249,252,237,233,,-0.05,0.02,0.98,-0,-0,-0,0.05,,0,0,0,0,0,0.0,0.0,0,0.0,0.0,0.0,0,0.0,0.0,0.0,0,0,0,0,0,,,,,,,,,,,,,,,,,,,,
1484,0,,,249,251,237,233,,-0.05,0.02,0.98,-0,-0,-0,0.05,,0,0,0,0,0,0.0,0.0,0,0.0,0.0,0.0,0,0.0,0.0,0.0,0,0,0,0,0,,,,,,,,,,,,,,,,,,,,
1504,0,,,249,252,237,233,,-0.05,0.02,0.98,-0,-0,-0,0.05,,0,0,0,0,0,0.0,0.0,0,0.0,0.0,0.0,0,0.0,0.0,0.0,0,0,0,0,0,,,,,,,,,,,,,,,,,,,,
1524,0,,,249,251,237,233,,-0.05,0.02,0.98,-0,-0,-0,0.05,,0,0,0,0,0,0.0,0.0,0,0.0,0.0,0.0,0,0.0,0.0,0.0,0,0,0,0,0,,,,,,,,,,,,,,,,,,,,
1544,0,5,6,249,251,237,233,-7,-0.05,0.02,0.98,-0,-0,-0,0.05,1,0,0,0,0,0,0.0,0.0,0,0.0,0.0,0.0,0,0.0,0.0,0.0,0,0,0,0,0,0,0,0,0,0.0,0.0,0.0,0.0,0,0,0.0,0,0.0,-1,0.0,,0.0,0,0.0,0.0257
1564,0,,,249,251,237,233,,-0.05,0.02,0.98,-0,-0,-0,0.05,,0,0,0,0,0,0.0,0.0,0,0.0,0.0,0.0,0,0.0,0.0,0.0,0,0,0,0,0,,,,,,,,,,,,,,,,,,,,
1584,0,,,249,252,237,233,,-0.05,0.02,0.98,-0,-0,-0,0.05,,0,0,0,0,0,0.0,0.0,0,0.0,0.0,0.0,0,0.0,0.0,0.0,0,0,0,0,0,,,,,,,,,,,,,,,,,,,,
1604,0,,,249,251,237,233,,-0.05,0.02,0.98,-0,-0,-0,0.05,,0,0,0,0,0,0.0,0.0,0,0.0,0.0,0.0,0,0.0,0.0,0.0,0,0,0,0,0,,,,,,,,,,,,,,,,,,,,
1624,0,,,249,252,237,233,,-0.05,0.02,0.98,-0,-0,-0,0.05,,0,0,0,0,0,0.0,0.0,0,0.0,0.0,0.0,0,0.0,0.0,0.0,0,0,0,0,0,,,,,,,,,,,,,,,,,,,,
1644,0,7,7,249,251,237,233,-8,-0.05,0.02,0.98,-0,-0,-0,0.05,1,0,0,0,0,0,0.0,0.0,0,0.0,0.0,0.0,0,0.0,0.0,0.0,0,0,0,0,0,0,0,0,0,0.0,0.0,0.0,0.0,0,0,0.0,0,0.0,-1,0.0,0.0,0.0,0,0.0,0.0274
1664,0,,,249,252,237,233,,-0.05,0.02,0.98,-0,-0,-0,0.05,,0,0,0,0,0,0.0,0.0,0,0.0,0.0,0.0,0,0.0,0.0,0.0,0,0,0,0,0,,,,,,,,,,,,,,,,,,,,
1684,0,,,249,252,237,233,,-0.05,0.02,0.98,-0,-0,-0,0.05,,0,0,0,0,0,0.0,0.0,0,0.0,0.0,0.0,0,0.0,0.0,0.0,0,0,0,0,0,,,,,,,,,,,,,,,,,,,,
1704,0,,,249,252,237,233,,-0.05,0.02,0.98,-0,-0,-0,0.05,,0,0,0,0,0,0.0,0.0,0,0.0,0.0,0.0,0,0.0,0.0,0.0,0,0,0,0,0,,,,,,,,,,,,,,,,,,,,
1724,0,,,249,251,237,233,,-0.05,0.02,0.98,-0,-0,-0,0.05,,0,0,0,0,0,0.0,0.0,0,0.0,0.0,0.0,0,0.0,0.0,0.0,0,0,0,0,0,,,,,,,,,,,,,,,,,,,,
1744,0,7,5,249,252,237,233,-8,-0.05,0.02,0.98,-0,-0,-0,0.05,1,0,0,0,0,0,0.0,0.0,0,0.0,0.0,0.0,0,0.0,0.0,0.0,0,0,0,0,0,0,0,0,0,0.0,0.0,0.0,0.0,0,0,0.0,0,0.0,-1,0.0,,0.0,0,0.0,0.0291
1764,0,,,249,252,237,233,,-0.05,0.02,0.98,-0,-0,-0,0.05,,0,0,0,0,0,0.0,0.0,0,0.0,0.0,0.0,0,0.0,0.0,0.0,0,0,0,0,0,,,,,,,,,,,,,,,,,,,,
1784,0,,,249,251,237,233,,-0.05,0.02,0.98,-0,-0,-0,0.05,,0,0,0,0,0,0.0,0.0,0,0.0,0.0,0.0,0,0.0,0.0,0.0,0,0,0,0,0,,,,,,,,,,,,,,,,,,,,
1804,0,,,249,252,237,233,,-0.05,0.02,0.98,-0,-0,-0,0.05,,0,0,0,0,0,0.0,0.0,0,0.0,0.0,0.0,0,0.0,0.0,0.0,0,0,0,0,0,,,,,,,,,,,,,,,,,,,,
1824,0,,,249,251,237,233,,-0.05,0.02,0.98,-0,-0,-0,0.05,,0,0,0,0,0,0.0,0.0,0,0.0,0.0,0.0,0,0.0,0.0,0.0,0,0,0,0,0,,,,,,,,,,,,,,,,,,,,
1844,0,6,7,249,252,237,233,-8,-0.05,0.02,0.98,-0,-0,-0,0.05,1,0,0,0,0,0,0.0,0.0,0,0.0,0.0,0.0,0,0.0,0.0,0.0,0,0,0,0,0,0,0,0,0,0.0,0.0,0.0,0.0,0,0,0.0,0,0.0,-1,0.0,0.0,0.0,0,0.0,0.0307
1864,0,,,249,251,237,233,,-0.05,0.02,0.98,-0,-0,-0,0.05,,0,0,0,0,0,0.0,0.0,0,0.0,0.0,0.0,0,0.0,0.0,0.0,0,0,0,0,0,,,,,,,,,,,,,,,,,,,,
1884,0,,,249,252,237,233,,-0.05,0.02,0.98,-0,-0,-0,0.05,,0,0,0,0,0,0.0,0.0,0,0.0,0.0,0.0,0,0.0,0.0,0.0,0,0,0,0,0,,,,,,,,,,,,,,,,,,,,
1904,0,,,249,251,237,233,,-0.05,0.02,0.98,-0,-0,-0,0.05,,0,0,0,0,0,0.0,0.0,0,0.0,0.0,0.0,0,0.0,0.0,0.0,0,0,0,0,0,,,,,,,,,,,,,,,,,,,,
1924,0,,,249,251,237,233,,-0.05,0.02,0.98,-0,-0,-0,0.05,,0,0,0,0,0,0.0,0.0,0,0.0,0.0,0.0,0,0.0,0.0,0.0,0,0,0,0,0,,,,,,,,,,,,,,,,,,,,
1944,0,6,6,249,252,237,233,-7,-0.05,0.02,0.98,-0,-0,-0,0.05,1,0,0,0,0,0,0.0,0.0,0,0.0,0.0,0.0,0,0.0,0.0,0.0,0,0,0,0,0,0,0,0,0,0.0,0.0,0.0,0.0,0,0,0.0,0,0.0,-1,0.0,,0.0,0,0.0,0.0324
1964,0,,,249,251,237,233,,-0.05,0.02,0.98,-0,-0,-0,0.05,,0,0,0,0,0,0.0,0.0,0,0.0,0.0,0.0,0,0.0,0.0,0.0,0,0,0,0,0,,,,,,,,,,,,,,,,,,,,
1984,0,,,249,252,237,233,,-0.05,0.02,0.98,-0,-0,-0,0.05,,0,0,0,0,0,0.0,0.0,0,0.0,0.0,0.0,0,0.0,0.0,0.0,0,0,0,0,0,,,,,,,,,,,,,,,,,,,,
2004,0,,,249,252,237,233,,-0.05,0.02,0.98,-0,-0,-0,0.05,,0,0,0,0,0,0.0,0.0,0,0.0,0.0,0.0,0,0.0,0.0,0.0,0,0,0,0,0,,,,,,,,,,,,,,,,,,,,
2024,0,,,249,252,237,233,,-0.05,0.02,0.98,-0,-0,-0,0.05,,0,0,0,0,0,0.0,0.0,0,0.0,0.0,0.0,0,0.0,0.0,0.0,0,0,0,0,0,,,,,,,,,,,,,,,,,,,,
2044,0,5,7,249,252,237,233,-7,-0.05,0.02,0.98,-0,-0,-0,0.05,1,0,0,0,0,0,0.0,0.0,0,0.0,0.0,0.0,0,0.0,0.0,0.0,0,0,0,0,0,0,0,0,0,0.0,0.0,0.0,0.0,0,0,0.0,0,0.0,-1,0.0,0.0,0.0,0,0.0,0.0341
2064,0,,,249,251,237,233,,-0.05,0.02,0.98,-0,-0,-0,0.05,,0,0,0,0,0,0.0,0.0,0,0.0,0.0,0.0,0,0.0,0.0,0.0,0,0,0,0,0,,,,,,,,,,,,,,,,,,,,
2084,0,,,249,252,237,233,,-0.05,0.02,0.98,-0,-0,-0,0.05,,0,0,0,0,0,0.0,0.0,0,0.0,0.0,0.0,0,0.0,0.0,0.0,0,0,0,0,0,,,,,,,,,,,,,,,,,,,,
2104,0,,,249,252,237,232,,-0.05,0.02,0.98,-0,-0,-0,0.05,,0,0,0,0,0,0.0,0.0,0,0.0,0.0,0.0,0,0.0,0.0,0.0,0,0,0,0,0,,,,,,,,,,,,,,,,,,,,
2124,0,,,249,251,237,233,,-0.05,0.02,0.98,-0,-0,-0,0.05,,0,0,0,0,0,0.0,0.0,0,0.0,0.0,0.0,0,0.0,0.0,0.0,0,0,0,0,0,,,,,,,,,,,,,,,,,,,,
2144,0,6,7,249,251,237,233,-8,-0.05,0.02,0.98,-0,-0,-0,0.05,1,0,0,0,0,0,0.0,0.0,0,0.0,0.0,0.0,0,0.0,0.0,0.0,0,0,0,0,0,0,0,0,0,0.0,0.0,0.0,0.0,0,0,0.0,0,0.0,-1,0.0,,0.0,0,0.0,0.0357
2164,0,,,249,252,237,233,,-0.05,0.02,0.98,-0,-0,-0,0.05,,64,0,4,24,99,0.502,0.0,113,4.91,12.9,0.0,1,0.0,0.0,0.0,0,0,0,1,0,,,,,,,,,,,,,,,,,,,,
2184,0,,,249,252,237,233,,-0.05,0.02,0.98,-0,-0,-0,0.05,,64,0,4,24,99,0.502,0.0,113,4.92,12.9,0.0,1,0.0,0.0,0.0,0,0,0,1,0,,,,,,,,,,,,,,,,,,,,
2204,0,,,249,252,237,232,,-0.05,0.02,0.98,-0,-0,-0,0.05,,64,0,4,24,99,0.502,0.0,113,4.91,12.9,0.0,1,0.0,0.0,0.0,0,0,0,1,0,,,,,,,,,,,,,,,,,,,,
2224,0,,,249,251,237,233,,-0.05,0.02,0.98,-0,-0,-0,0.05,,64,0,4,24,99,0.502,0.0,113,4.91,12.9,0.0,1,0.0,0.0,0.0,0,0,0,1,0,,,,,,,,,,,,,,,,,,,,
2244,0,7,5,249,251,237,233,-7,-0.05,0.02,0.98,-0,-0,-0,0.05,1,64,0,4,24,99,0.502,0.0,113,4.9,12.9,0.0,1,0.0,0.0,0.0,0,0,0,1,0,0,250,250,0,0.0,0.0,0.0,0.0,0,0,0.0,0,0.0,-1,0.0,0.0,0.0,0,0.0,0.0374
2264,0,,,249,251,237,233,,-0.05,0.02,0.98,-0,-0,-0,0.05,,64,0,4,24,99,0.503,0.0,113,4.91,12.9,0.0,1,0.0,0.0,0.0,0,0,0,1,0,,,,,,,,,,,,,,,,,,,,
2284,0,,,249,252,237,232,,-0.05,0.02,0.98,-0,-0,-0,0.05,,64,0,4,24,99,0.503,0.0,113,4.91,12.9,0.0,1,0.0,0.0,0.0,0,0,0,1,0,,,,,,,,,,,,,,,,,,,,
2304,0,,,249,251,237,233,,-0.05,0.02,0.98,-0,-0,-0,0.05,,64,0,4,24,99,0.503,0.0,113,4.91,12.9,0.0,1,0.0,0.0,0.0,0,0,0,1,0,,,,,,,,,,,,,,,,,,,,
2324,0,,,249,251,237,233,,-0.05,0.02,0.98,-0,0,-0,0.05,,64,0,4,24,99,0.503,0.0,113,4.9,12.9,0.0,1,0.0,0.0,0.0,0,0,0,1,0,,,,,,,,,,,,,,,,,,,,
2344,0,6,8,249,252,237,233,-7,-0.05,0.02,0.98,-0,0,-0,0.05,1,64,0,4,24,99,0.506,0.0,113,4.91,12.9,0.0,1,0.0,0.0,0.0,0,0,0,1,0,0,250,250,0,0.0,0.0,0.0,0.0,0,0,0.0,0,0.0,-1,0.0,,0.0,0,0.0,0.0391
2364,0,,,249,252,237,233,,-0.05,0.02,0.98,-0,-0,-0,0.05,,64,0,4,24,99,0.511,0.0,113,4.91,12.9,0.0,1,0.0,0.0,0.0,0,0,0,1,0,,,,,,,,,,,,,,,,,,,,
2384,0,,,249,251,237,233,,-0.05,0.02,0.98,-0,-0,-0,0.05,,64,0,4,24,99,0.515,0.0,113,4.91,12.9,0.0,1,0.0,0.0,0.0,0,0,0,1,0,,,,,,,,,,,,,,,,,,,,
2404,0,,,249,252,237,233,,-0.05,0.02,0.98,-0,-0,-0,0.05,,64,0,4,24,99,0.52,0.0,113,4.91,12.9,0.0,1,0.0,0.0,0.0,0,0,0,1,0,,,,,,,,,,,,,,,,,,,,
2424,0,,,249,252,237,233,,-0.05,0.02,0.98,-0,-0,-0,0.05,,64,0,4,24,99,0.523,0.0,113,4.91,12.9,0.0,1,0.0,0.0,0.0,0,0,0,1,0,,,,,,,,,,,,,,,,,,,,
2444,0,6,6,249,252,237,233,-7,-0.05,0.02,0.98,-0,-0,-0,0.05,1,64,0,4,24,99,0.527,0.0,113,4.92,12.9,0.0,1,0.0,0.0,0.0,0,0,0,1,0,0,250,250,0,0.0,0.0,0.0,0.0,0,0,0.0,0,0.0,-1,0.0,0.0,0.0,0,0.0,0.0407
2464,0,,,249,252,237,233,,-0.05,0.02,0.98,-0,-0,-0,0.05,,64,0,4,24,99,0.532,0.0,113,4.9,12.9,0.0,1,0.0,0.0,0.0,0,0,0,1,0,,,,,,,,,,,,,,,,,,,,
2484,0,,,249,252,237,232,,-0.05,0.02,0.98,-0,-0,-0,0.05,,64,0,4,24,99,0.536,0.0,113,4.91,12.9,0.0,1,0.0,0.0,0.0,0,0,0,1,0,,,,,,,,,,,,,,,,,,,,
2504,0,,,249,252,237,232,,-0.05,0.02,0.98,-0,-0,-0,0.05,,64,0,4,24,99,0.541,0.0,113,4.9,12.8,0.0,1,0.0,0.0,0.0,0,0,0,1,0,,,,,,,,,,,,,,,,,,,,
2524,0,,,249,251,237,233,,-0.05,0.02,0.98,-0,-0,-0,0.05,,64,0,4,24,99,0.546,0.0,113,4.91,12.8,0.0,1,0.0,0.0,0.0,0,0,0,1,0,,,,,,,,,,,,,,,,,,,,
2544,0,7,7,249,252,237,233,-7,-0.05,0.02,0.98,-0,-0,-0,0.05,1,64,0,4,24,99,0.552,0.0,113,4.9,12.8,0.0,1,0.0,0.0,0.0,0,0,0,1,0,0,250,250,0,0.0,0.0,0.0,0.0,0,0,0.0,0,0.0,-1,0.0,,0.0,0,0.0,0.0424
2564,0,,,249,252,237,233,,-0.05,0.02,0.98,-0,-0,-0,0.05,,64,0,4,24,99,0.557,0.0,113,4.91,12.8,0.0,1,0.0,0.0,0.0,0,0,0,1,0,,,,,,,,,,,,,,,,,,,,
2584,0,,,249,252,237,233,,-0.05,0.02,0.98,-0,-0,-0,0.05,,64,0,4,24,99,0.56,0.0,113,4.9,12.8,0.0,1,0.0,0.0,0.0,0,0,0,1,0,,,,,,,,,,,,,,,,,,,,
2604,0,,,249,252,237,233,,-0.05,0.02,0.98,-0,-0,-0,0.05,,64,0,4,25,99,0.562,0.0,113,4.91,12.8,0.0,1,0.0,0.0,0.0,0,0,0,1,0,,,,,,,,,,,,,,,,,,,,
2624,0,,,249,251,237,233,,-0.05,0.02,0.98,-0,-0,-0,0.05,,64,0,4,25,99,0.562,0.0,113,4.91,12.8,0.0,1,0.0,0.0,0.0,0,0,0,1,0,,,,,,,,,,,,,,,,,,,,
2644,0,7,4,249,252,237,232,-7,-0.05,0.02,0.98,-0,-0,-0,0.05,1,64,0,4,25,99,0.564,0.0,113,4.91,12.8,0.0,1,0.0,0.0,0.0,0,0,0,1,0,0,250,250,0,0.0,0.0,0.0,0.0,0,0,0.0,0,0.0,-1,0.0,0.0,0.0,0,0.0,0.0441
2664,0,,,249,251,237,233,,-0.05,0.02,0.98,-0,-0,-0,0.05,,64,0,4,25,99,0.565,0.0,113,4.91,12.8,0.0,1,0.0,0.0,0.0,0,0,0,1,0,,,,,,,,,,,,,,,,,,,,
2684,0,,,249,252,237,233,,-0.05,0.02,0.98,-0,-0,-0,0.05,,64,0,4,25,99,0.566,0.0,113,4.91,12.8,0.0,1,0.0,0.0,0.0,0,0,0,1,0,,,,,,,,,,,,,,,,,,,,
2704,0,,,249,252,237,232,,-0.05,0.02,0.98,-0,-0,-0,0.05,,64,0,4,25,99,0.568,0.0,113,4.92,12.8,0.0,1,0.0,0.0,0.0,0,0,0,1,0,,,,,,,,,,,,,,,,,,,,
2724,0,,,249,252,237,233,,-0.05,0.02,0.98,-0,-0,-0,0.05,,64,0,4,25,99,0.569,0.0,113,4.9,12.8,0.0,1,0.0,0.0,0.0,0,0,0,1,0,,,,,,,,,,,,,,,,,,,,
2744,0,5,7,249,251,237,233,-7,-0.05,0.02,0.98,-0,-0,-0,0.05,1,64,0,4,25,99,0.57,0.0,113,4.9,12.9,0.0,1,0.0,0.0,0.0,0,0,0,1,0,0,250,250,0,0.0,0.0,0.0,0.0,0,0,0.0,0,0.0,-1,0.0,,0.0,0,0.0,0.0457
2764,0,,,249,252,237,232,,-0.05,0.02,0.98,-0,-0,-0,0.05,,64,0,4,25,99,0.569,0.0,113,4.9,12.9,0.0,1,0.0,0.0,0.0,0,0,0,1,0,,,,,,,,,,,,,,,,,,,,
2784,0,,,249,252,237,232,,-0.05,0.02,0.98,-0,-0,-0,0.05,,64,0,4,25,99,0.567,0.0,113,4.92,12.9,0.0,1,0.0,0.0,0.0,0,0,0,1,0,,,,,,,,,,,,,,,,,,,,
2804,0,,,249,252,237,233,,-0.05,0.02,0.98,-0,-0,-0,0.05,,64,0,4,25,99,0.567,0.0,113,4.9,12.9,0.0,1,0.0,0.0,0.0,0,0,0,1,0,,,,,,,,,,,,,,,,,,,,
2824,0,,,249,251,237,233,,-0.05,0.02,0.98,-0,-0,-0,0.05,,64,0,4,25,99,0.565,0.0,113,4.9,12.9,0.0,1,0.0,0.0,0.0,0,0,0,1,0,,,,,,,,,,,,,,,,,,,,
2844,0,7,6,249,252,237,233,-7,-0.05,0.02,0.98,-0,-0,-0,0.05,1,64,0,4,25,99,0.565,0.0,113,4.9,12.9,0.0,1,0.0,0.0,0.0,0,0,0,1,0,0,250,250,0,0.0,0.0,0.0,0.0,0,0,0.0,0,0.0,-1,0.0,0.0,0.0,0,0.0,0.0474
2864,0,,,249,251,237,233,,-0.05,0.02,0.98,-0,-0,-0,0.05,,64,0,4,25,99,0.565,0.0,113,4.9,12.9,0.0,1,0.0,0.0,0.0,0,0,0,1,0,,,,,,,,,,,,,,,,,,,,
2884,0,,,249,252,237,233,,-0.05,0.02,0.98,-0,-0,-0,0.05,,64,0,4,25,99,0.564,0.0,113,4.91,12.9,0.0,1,0.0,0.0,0.0,0,0,0,1,0,,,,,,,,,,,,,,,,,,,,
2904,0,,,249,252,237,232,,-0.05,0.02,0.98,-0,-0,-0,0.05,,64,0,4,25,99,0.563,0.0,113,4.9,12.9,0.0,1,0.0,0.0,0.0,0,0,0,1,0,,,,,,,,,,,,,,,,,,,,
2924,0,,,249,252,237,233,,-0.05,0.02,0.98,-0,-0,-0,0.05,,64,0,4,25,99,0.563,0.0,113,4.91,12.9,0.0,1,0.0,0.0,0.0,0,0,0,1,0,,,,,,,,,,,,,,,,,,,,
2944,0,7,5,249,252,237,233,-8,-0.05,0.02,0.98,-0,-0,-0,0.05,1,64,0,4,25,99,0.563,0.0,113,4.91,12.9,0.0,1,0.0,0.0,0.0,0,0,0,1,0,0,250,250,0,0.0,0.0,0.0,0.0,0,0,0.0,0,0.0,-1,0.0,,0.0,0,0.0,0.0491
2964,0,,,249,252,237,233,,-0.05,0.02,0.98,-0,-0,-0,0.05,,64,0,4,25,99,0.562,0.0,113,4.91,12.9,0.0,1,0.0,0.0,0.0,0,0,0,1,0,,,,,,,,,,,,,,,,,,,,
2984,0,,,249,251,237,233,,-0.05,0.02,0.98,-0,-0,-0,0.05,,64,0,4,25,99,0.563,0.0,113,4.9,12.9,0.0,1,0.0,0.0,0.0,0,0,0,1,0,,,,,,,,,,,,,,,,,,,,
3004,0,,,249,252,237,233,,-0.05,0.02,0.98,-0,-0,-0,0.05,,64,0,4,25,99,0.565,0.0,112,4.9,12.9,0.0,1,0.0,0.0,0.0,0,0,0,1,0,,,,,,,,,,,,,,,,,,,,
3024,0,,,249,251,237,233,,-0.05,0.02,0.98,-0,-0,-0,0.05,,64,0,4,25,99,0.568,0.0,113,4.91,12.9,0.0,1,0.0,0.0,0.0,0,0,0,1,0,,,,,,,,,,,,,,,,,,,,
3044,0,6,7,249,252,237,233,-7,-0.05,0.02,0.98,-0,-0,-0,0.05,1,64,0,4,25,99,0.569,0.0,113,4.9,12.9,0.0,1,0.0,0.0,0.0,0,0,0,1,0,0,250,250,0,0.0,0.0,0.0,0.0,0,0,0.0,0,0.0,-1,0.0,0.0,0.0,0,0.0,0.0507
3064,0,,,249,252,237,233,,-0.05,0.02,0.98,-0,-0,-0,0.05,,64,0,4,25,99,0.572,0.0,113,4.9,12.9,0.0,1,0.0,0.0,0.0,0,0,0,1,0,,,,,,,,,,,,,,,,,,,,
3084,0,,,249,252,237,233,,-0.05,0.02,0.98,-0,-0,-0,0.05,,64,0,4,25,99,0.573,0.0,113,4.9,12.9,0.0,1,0.0,0.0,0.0,0,0,0,1,0,,,,,,,,,,,,,,,,,,,,
3104,0,,,249,251,237,233,,-0.05,0.02,0.98,-0,-0,-0,0.05,,64,0,4,25,99,0.576,0.0,113,4.91,12.9,0.0,1,0.0,0.0,0.0,0,0,0,1,0,,,,,,,,,,,,,,,,,,,,
3124,0,,,249,252,237,233,,-0.05,0.02,0.98,-0,-0,-0,0.05,,64,0,4,25,99,0.578,0.0,113,4.9,12.9,0.0,1,0.0,0.0,0.0,0,0,0,1,0,,,,,,,,,,,,,,,,,,,,
3144,0,6,7,249,251,237,233,-7,-0.05,0.02,0.98,-0,-0,-0,0.05,1,64,0,4,25,99,0.581,0.0,113,4.91,12.9,0.0,1,0.0,0.0,0.0,0,0,0,1,0,0,250,250,0,0.0,0.0,0.0,0.0,0,0,0.0,0,0.0,-1,0.0,,0.0,0,0.0,0.0524
3164,0,,,249,252,237,233,,-0.05,0.02,0.98,-0,-0,-0,0.05,,64,0,4,25,99,0.584,0.0,113,4.9,12.9,0.0,1,0.0,0.0,0.0,0,0,0,0,0,,,,,,,,,,,,,,,,,,,,
3184,0,,,249,251,237,233,,-0.05,0.02,0.98,-0,-0,-0,0.05,,64,0,4,25,99,0.588,0.0,113,4.82,13.0,0.0,1,0.0,0.0,0.0,0,0,0,0,0,,,,,,,,,,,,,,,,,,,,
3204,0,,,249,252,237,233,,-0.05,0.02,0.98,-0,-0,-0,0.05,,64,0,4,25,99,0.59,0.0,113,4.58,13.0,0.0,1,0.0,0.0,0.0,0,0,0,0,0,,,,,,,,,,,,,,,,,,,,
3224,0,,,249,252,237,233,,-0.05,0.02,0.98,-0,-0,-0,0.05,,64,0,4,25,99,0.594,0.0,113,3.73,13.0,0.0,1,0.0,0.0,0.0,0,0,0,0,0,,,,,,,,,,,,,,,,,,,,
3244,0,7,5,249,252,237,233,-7,-0.05,0.02,0.98,-0,-0,-0,0.05,1,64,0,4,25,99,0.596,0.0,113,3.43,13.1,0.0,1,0.0,0.0,0.0,0,0,0,0,0,0,250,250,0,0.0,0.0,0.0,0.0,0,0,0.0,0,0.0,-1,0.0,0.0,0.0,0,0.0,0.0541
3264,0,,,249,252,237,233,,-0.05,0.02,0.98,-0,-0,-0,0.05,,64,0,5,25,99,0.598,0.0,113,3.24,13.1,0.0,1,0.0,0.0,0.0,0,0,0,0,0,,,,,,,,,,,,,,,,,,,,
3284,0,,,249,252,237,233,,-0.05,0.02,0.98,-0,-0,-0,0.05,,64,0,4,25,99,0.6,0.0,113,3.08,13.1,0.0,1,0.0,0.0,0.0,0,0,0,0,0,,,,,,,,,,,,,,,,,,,,
3304,0,,,249,251,237,233,,-0.05,0.02,0.98,-0,-0,-0,0.05,,64,0,4,25,99,0.603,0.0,113,2.95,13.1,0.0,1,0.0,0.0,0.0,0,0,0,0,0,,,,,,,,,,,,,,,,,,,,
3324,0,,,249,252,237,233,,-0.05,0.02,0.98,-0,-0,-0,0.05,,64,0,4,25,99,0.605,0.0,113,2.83,13.1,0.0,1,0.0,0.0,0.0,0,0,0,0,0,,,,,,,,,,,,,,,,,,,,
3344,0,5,7,249,251,237,233,-7,-0.05,0.02,0.98,-0,-0,-0,0.05,1,64,0,4,25,99,0.607,0.0,113,2.75,13.1,0.0,1,0.0,0.0,0.0,0,0,0,0,0,0,250,250,0,0.0,0.0,0.0,0.0,0,0,0.0,0,0.0,-1,0.0,,0.0,0,0.0,0.0557
3364,0,,,249,252,237,233,,-0.05,0.02,0.98,-0,-0,-0,0.05,,64,0,4,25,99,0.609,0.0,113,2.65,13.0,0.0,1,0.0,0.0,0.0,0,0,0,0,0,,,,,,,,,,,,,,,,,,,,
3384,0,,,249,252,237,233,,-0.05,0.02,0.98,-0,-0,-0,0.05,,64,0,4,25,99,0.612,0.0,113,2.58,13.0,0.0,1,0.0,0.0,0.0,0,0,0,0,0,,,,,,,,,,,,,,,,,,,,
3404,0,,,249,252,237,233,,-0.05,0.02,0.98,-0,-0,-0,0.05,,64,0,4,25,99,0.613,0.0,113,2.51,13.1,0.0,1,0.0,0.0,0.0,0,0,0,0,0,,,,,,,,,,,,,,,,,,,,
3424,0,,,249,251,237,233,,-0.05,0.02,0.98,-0,-0,-0,0.05,,64,0,4,25,99,0.616,0.0,113,2.43,13.1,0.0,1,0.0,0.0,0.0,0,0,0,0,0,,,,,,,,,,,,,,,,,,,,
3444,0,7,8,249,252,237,233,-8,-0.05,0.02,0.98,-0,-0,-0,0.05,1,64,0,4,25,99,0.617,0.0,113,2.38,13.1,0.0,1,0.0,0.0,0.0,0,0,0,0,0,0,250,250,0,0.0,0.0,0.0,0.0,0,0,0.0,0,0.0,-1,0.0,0.0,0.0,0,0.0,0.0574
3464,0,,,249,252,237,233,,-0.05,0.02,0.98,-0,-0,-0,0.05,,64,0,4,25,99,0.619,0.0,113,2.32,13.1,0.0,1,0.0,0.0,0.0,0,0,0,0,0,,,,,,,,,,,,,,,,,,,,
3484,0,,,249,252,237,233,,-0.05,0.02,0.98,-0,-0,-0,0.05,,64,0,4,25,99,0.62,0.0,113,2.27,13.1,0.0,1,0.0,0.0,0.0,0,0,0,0,0,,,,,,,,,,,,,,,,,,,,
3504,0,,,249,252,237,233,,-0.05,0.02,0.98,-0,-0,-0,0.05,,64,0,4,25,99,0.623,0.0,113,2.22,13.0,0.0,1,0.0,0.0,0.0,0,0,0,0,0,,,,,,,,,,,,,,,,,,,,
3524,0,,,249,252,237,232,,-0.05,0.02,0.98,-0,-0,-0,0.05,,64,0,4,25,99,0.625,0.0,113,2.19,13.0,0.0,1,0.0,0.0,0.0,0,0,0,0,0,,,,,,,,,,,,,,,,,,,,
3544,0,7,7,249,252,237,233,-7,-0.05,0.02,0.98,-0,-0,-0,0.05,1,64,0,4,25,99,0.627,0.0,113,2.15,13.0,0.0,1,0.0,0.0,0.0,0,0,0,0,0,0,250,250,0,0.0,0.0,0.0,0.0,0,0,0.0,0,0.0,-1,0.0,,0.0,0,0.0,0.0591
3564,0,,,249,251,237,233,,-0.05,0.02,0.98,-0,-0,-0,0.05,,64,0,4,25,99,0.629,0.0,113,2.11,13.0,0.0,1,0.0,0.0,0.0,0,0,0,0,0,,,,,,,,,,,,,,,,,,,,
3584,0,,,249,252,237,233,,-0.05,0.02,0.98,-0,-0,-0,0.05,,64,0,4,25,99,0.632,0.0,113,2.08,13.1,0.0,1,0.0,0.0,0.0,0,0,0,0,0,,,,,,,,,,,,,,,,,,,,
3604,0,,,249,251,237,233,,-0.05,0.02,0.98,-0,-0,-0,0.05,,64,0,5,25,99,0.634,0.0,113,2.05,13.1,0.0,1,0.0,0.0,0.0,0,0,0,0,0,,,,,,,,,,,,,,,,,,,,
3624,0,,,249,252,237,233,,-0.05,0.02,0.98,-0,-0,-0,0.05,,64,0,4,25,99,0.636,0.0,113,2.01,13.1,0.0,1,0.0,0.0,0.0,0,0,0,0,0,,,,,,,,,,,,,,,,,,,,
3644,0,7,7,249,252,237,233,-8,-0.05,0.02,0.98,-0,-0,-0,0.05,1,64,0,4,25,99,0.638,0.0,113,1.99,13.1,0.0,1,0.0,0.0,0.0,0,0,0,0,0,0,250,250,0,0.0,0.0,0.0,0.0,0,0,0.0,0,0.0,-1,0.0,0.0,0.0,0,0.0,0.0607
3664,0,,,249,251,237,233,,-0.05,0.02,0.98,-0,-0,-0,0.05,,64,0,4,25,99,0.64,0.0,113,1.96,13.1,0.0,1,0.0,0.0,0.0,0,0,0,0,0,,,,,,,,,,,,,,,,,,,,
3684,0,,,249,251,237,233,,-0.05,0.02,0.98,-0,-0,-0,0.05,,64,0,4,25,99,0.641,0.0,113,1.94,13.0,0.0,1,0.0,0.0,0.0,0,0,0,0,0,,,,,,,,,,,,,,,,,,,,
3704,0,,,249,252,237,233,,-0.05,0.02,0.98,-0,-0,-0,0.05,,64,0,4,25,99,0.642,0.0,113,1.92,13.0,0.0,1,0.0,0.0,0.0,0,0,0,0,0,,,,,,,,,,,,,,,,,,,,
3724,0,,,249,251,237,233,,-0.05,0.02,0.98,-0,-0,-0,0.05,,64,0,4,25,99,0.643,0.0,113,1.89,13.0,0.0,1,0.0,0.0,0.0,0,0,0,0,0,,,,,,,,,,,,,,,,,,,,
3744,0,7,6,249,252,237,233,-7,-0.05,0.02,0.98,-0,-0,-0,0.05,1,64,0,4,25,99,0.644,0.0,113,1.86,13.0,0.0,1,0.0,0.0,0.0,0,0,0,0,0,0,250,250,0,0.0,0.0,0.0,0.0,0,0,0.0,0,0.0,-1,0.0,,0.0,0,0.0,0.0624
3764,0,,,249,252,237,233,,-0.05,0.02,0.98,-0,-0,-0,0.05,,64,0,4,25,99,0.645,0.0,113,1.83,13.1,0.0,1,0.0,0.0,0.0,0,0,0,0,0,,,,,,,,,,,,,,,,,,,,
3784,0,,,249,251,237,233,,-0.05,0.02,0.98,-0,-0,-0,0.05,,64,0,4,25,99,0.645,0.0,113,1.83,13.1,0.0,1,0.0,0.0,0.0,0,0,0,0,0,,,,,,,,,,,,,,,,,,,,
3804,0,,,249,251,237,233,,-0.05,0.02,0.98,-0,-0,-0,0.05,,64,0,4,25,99,0.645,0.0,113,1.8,13.1,0.0,1,0.0,0.0,0.0,0,0,0,0,0,,,,,,,,,,,,,,,,,,,,
3824,0,,,249,252,237,233,,-0.05,0.02,0.98,-0,-0,-0,0.05,,64,0,4,25,99,0.646,0.0,113,1.79,13.1,0.0,1,0.0,0.0,0.0,0,0,0,0,0,,,,,,,,,,,,,,,,,,,,
3844,0,6,7,249,251,237,233,-7,-0.05,0.02,0.98,-0,-0,-0,0.05,1,64,0,4,25,99,0.646,0.0,113,1.78,13.0,0.0,1,0.0,0.0,0.0,0,0,0,0,0,0,250,250,0,0.0,0.0,0.0,0.0,0,0,0.0,0,0.0,-1,0.0,0.0,0.0,0,0.0,0.0641
3864,0,,,249,252,237,233,,-0.05,0.02,0.98,-0,-0,-0,0.05,,64,0,4,25,99,0.646,0.0,113,1.75,13.0,0.0,1,0.0,0.0,0.0,0,0,0,0,0,,,,,,,,,,,,,,,,,,,,
3884,0,,,249,252,237,233,,-0.05,0.02,0.98,-0,-0,-0,0.05,,64,0,4,25,99,0.647,0.0,113,1.75,13.0,0.0,1,0.0,0.0,0.0,0,0,0,0,0,,,,,,,,,,,,,,,,,,,,
3904,0,,,249,252,237,233,,-0.05,0.02,0.98,-0,-0,-0,0.05,,64,0,4,25,99,0.647,0.0,113,1.73,13.0,0.0,1,0.0,0.0,0.0,0,0,0,0,0,,,,,,,,,,,,,,,,,,,,
3924,0,,,249,252,237,233,,-0.05,0.02,0.98,-0,-0,-0,0.05,,64,0,4,25,99,0.647,0.0,113,1.73,13.1,0.0,1,0.0,0.0,0.0,0,0,0,0,0,,,,,,,,,,,,,,,,,,,,
3944,0,7,5,249,252,237,233,-7,-0.05,0.02,0.98,-0,-0,-0,0.05,1,64,0,4,25,99,0.647,0.0,113,1.7,13.1,0.0,1,0.0,0.0,0.0,0,0,0,0,0,0,250,250,0,0.0,0.0,0.0,0.0,0,0,0.0,0,0.0,-1,0.0,,0.0,0,0.0,0.0657
3964,0,,,249,251,237,233,,-0.05,0.02,0.98,-0,-0,-0,0.05,,64,0,4,25,99,0.646,0.0,112,1.69,13.1,0.0,1,0.0,0.0,0.0,0,0,0,0,0,,,,,,,,,,,,,,,,,,,,
3984,0,,,249,252,237,233,,-0.05,0.02,0.98,-0,-0,-0,0.05,,64,0,4,25,99,0.646,0.0,113,1.67,13.1,0.0,1,0.0,0.0,0.0,0,0,0,0,0,,,,,,,,,,,,,,,,,,,,
4004,0,,,249,252,237,233,,-0.05,0.02,0.99,-0,-0,-0,0.05,,64,0,4,25,99,0.643,0.0,113,1.66,9.5,0.0,1,0.0,0.0,0.0,0,0,0,0,0,,,,,,,,,,,,,,,,,,,,
4024,0,,,249,252,237,233,,-0.05,0.01,0.98,-0,-0,-0,0.05,,64,0,4,25,99,0.641,0.0,115,1.64,10.3,0.0,1,0.0,0.0,0.0,0,0,0,0,0,,,,,,,,,,,,,,,,,,,,
4044,0,6,7,249,251,237,233,-7,-0.05,0.01,0.97,-0,-0,-0,0.05,1,64,0,4,25,99,0.64,0.0,115,1.64,11.0,0.0,1,0.0,0.0,0.0,0,0,0,0,0,0,250,250,0,0.0,0.0,0.0,0.0,0,0,0.0,0,0.0,-1,0.0,0.0,0.0,0,0.0,0.0674
4064,0,,,249,251,237,233,,-0.05,0.02,0.97,-0,0,-0,0.05,,64,0,4,25,99,0.639,0.0,115,1.61,11.3,0.0,1,0.0,0.0,0.0,0,0,0,0,0,,,,,,,,,,,,,,,,,,,,
4084,0,,,249,251,237,232,,-0.05,0.02,0.97,-0,-0,-0,0.05,,64,0,4,25,99,0.641,0.0,115,1.61,11.4,0.0,1,0.0,0.0,0.0,0,0,0,0,0,,,,,,,,,,,,,,,,,,,,
4104,0,,,249,251,237,233,,-0.05,0.02,0.98,-0,-0,-0,0.05,,64,0,4,25,99,0.641,0.0,116,1.58,11.5,0.0,1,0.0,0.0,0.0,0,0,0,0,0,,,,,,,,,,,,,,,,,,,,
4124,0,,,249,252,237,233,,-0.05,0.02,0.98,-0,-0,-0,0.05,,64,0,4,25,99,0.642,0.0,115,1.58,11.4,0.0,1,0.0,0.0,0.0,0,0,0,0,0,,,,,,,,,,,,,,,,,,,,
4144,0,8,6,249,252,237,233,-8,-0.05,0.02,0.98,-0,-0,-0,0.05,1,64,0,4,25,99,0.642,0.0,116,1.56,11.5,0.0,1,0.0,0.0,0.0,0,0,0,0,0,0,250,250,0,0.0,0.0,0.0,0.0,0,0,0.0,0,0.0,-1,0.0,,0.0,0,0.0,0.0691
4164,0,,,249,251,237,232,,-0.05,0.02,0.98,-0,-0,-0,0.05,,64,0,4,25,99,0.643,0.0,116,1.56,11.8,0.0,1,0.0,0.0,0.0,0,0,0,0,0,,,,,,,,,,,,,,,,,,,,
4184,0,,,249,252,237,233,,-0.05,0.02,0.99,-0,-0,-0,0.05,,64,0,4,25,99,0.644,0.0,116,1.56,11.9,0.0,1,0.0,0.0,0.0,0,0,0,0,0,,,,,,,,,,,,,,,,,,,,
4204,0,,,249,251,237,233,,-0.04,0.02,0.98,-0,-0,-0,0.04,,64,0,4,25,98,0.645,0.0,116,1.53,11.6,0.0,1,0.0,0.0,0.0,0,0,0,0,0,,,,,,,,,,,,,,,,,,,,
4224,0,,,249,252,237,233,,-0.04,0.01,0.99,-0,-0,-0,0.04,,64,0,4,25,99,0.647,0.0,116,1.53,11.7,0.0,1,0.0,0.0,0.0,0,0,0,0,0,,,,,,,,,,,,,,,,,,,,
4244,0,8,6,249,252,237,233,-7,-0.04,0.01,0.98,-0,-0,-0,0.04,1,64,0,4,25,99,0.65,0.0,116,1.51,11.9,0.0,1,0.0,0.0,0.0,0,0,0,0,0,0,250,250,0,0.0,0.0,0.0,0.0,0,0,0.0,0,0.0,-1,0.0,0.0,0.0,0,0.0,0.0707
4264,0,,,249,251,237,233,,-0.04,0.01,0.97,-0,-0,-0,0.05,,64,0,4,25,98,0.655,0.0,116,1.51,11.9,0.0,1,0.0,0.0,0.0,0,0,0,0,0,,,,,,,,,,,,,,,,,,,,
4284,0,,,249,252,237,233,,-0.04,0.01,0.97,-0,-0,-0,0.05,,64,0,4,25,99,0.658,0.0,116,1.51,11.7,0.0,1,0.0,0.0,0.0,0,0,0,0,0,,,,,,,,,,,,,,,,,,,,
4304,0,,,249,252,237,233,,-0.05,0.01,0.98,-0,-0,-0,0.05,,64,0,4,25,99,0.661,0.0,116,1.5,11.9,0.0,1,0.0,0.0,0.0,0,0,0,0,0,,,,,,,,,,,,,,,,,,,,
4324,0,,,249,252,237,233,,-0.04,0.02,0.99,-0,-0,-0,0.05,,64,0,4,25,98,0.661,0.0,118,1.48,12.0,0.0,1,0.0,0.0,0.0,0,0,0,0,0,,,,,,,,,,,,,,,,,,,,
4344,0,6,8,249,251,237,233,-7,-0.05,0.02,0.99,-0,-0,-0,0.05,1,64,0,4,25,99,0.662,0.0,118,1.47,11.8,0.0,1,0.0,0.0,0.0,0,0,0,0,0,0,250,250,0,0.0,0.0,0.0,0.0,0,0,0.0,0,0.0,-1,0.0,,0.0,0,0.0,0.0724
4364,0,,,249,252,237,233,,-0.05,0.02,0.99,-0,-0,-0,0.05,,64,0,4,25,99,0.663,0.0,118,1.47,11.8,0.0,1,0.0,0.0,0.0,0,0,0,0,0,,,,,,,,,,,,,,,,,,,,
4384,0,,,249,251,237,233,,-0.05,0.02,0.99,-0,-0,-0,0.05,,64,0,4,25,98,0.665,0.0,118,1.45,12.0,0.0,1,0.0,0.0,0.0,0,0,0,0,0,,,,,,,,,,,,,,,,,,,,
4404,0,,,249,252,237,233,,-0.05,0.02,1.0,-0,-0,-0,0.05,,64,0,4,25,98,0.666,0.0,118,1.45,11.8,0.0,1,0.0,0.0,0.0,0,0,0,0,0,,,,,,,,,,,,,,,,,,,,
4424,0,,,249,251,237,233,,-0.04,0.02,1.01,-0,-0,-0,0.05,,64,0,4,25,99,0.666,0.0,118,1.45,11.8,0.0,1,0.0,0.0,0.0,0,0,0,0,0,,,,,,,,,,,,,,,,,,,,
4444,0,8,6,249,252,237,233,-7,-0.04,0.02,1.0,-0,-0,-0,0.05,1,64,0,4,25,98,0.665,0.0,118,1.45,12.1,0.0,1,0.0,0.0,0.0,0,0,0,0,0,0,250,250,0,0.0,0.0,0.0,0.0,0,0,0.0,0,0.0,-1,0.0,0.0,0.0,0,0.0,0.0741
4464,0,,,249,252,237,233,,-0.04,0.02,0.98,-0,0,-0,0.05,,64,0,4,25,98,0.664,0.0,118,1.42,11.9,0.0,1,0.0,0.0,0.0,0,0,0,0,0,,,,,,,,,,,,,,,,,,,,
4484,0,,,249,252,237,233,,-0.04,0.02,0.98,-0,-0,-0,0.05,,64,0,4,25,99,0.662,0.0,118,1.42,11.9,0.0,1,0.0,0.0,0.0,0,0,0,0,0,,,,,,,,,,,,,,,,,,,,
4504,0,,,249,251,237,233,,-0.04,0.02,0.98,-0,-0,-0,0.05,,64,0,4,25,98,0.66,0.0,118,1.42,12.1,0.0,1,0.0,0.0,0.0,0,0,0,0,0,,,,,,,,,,,,,,,,,,,,
4524,0,,,249,252,237,233,,-0.04,0.03,0.99,-0,-0,-0,0.05,,64,137,4,25,98,0.659,0.0,118,1.42,11.6,0.0,1,14.0,4.7,0.0,0,0,0,1,0,,,,,,,,,,,,,,,,,,,,
4544,0,7,7,249,251,237,233,-8,-0.04,0.02,1.0,-0,-0,-0,0.05,1,64,137,4,25,99,0.657,0.0,118,2.6,11.7,0.0,1,14.0,4.7,0.0,0,0,0,1,0,0,250,250,0,0.0,0.0,0.0,0.0,0,0,0.0,0,0.0,-1,0.0,,0.0,0,0.0,0.0757
4564,0,,,249,252,237,232,,-0.05,0.02,0.99,-0,-0,-0,0.05,,64,137,4,25,98,0.656,0.0,118,4.77,11.8,0.0,1,14.0,4.7,0.0,0,0,0,1,0,,,,,,,,,,,,,,,,,,,,
4584,0,,,249,252,237,233,,-0.05,0.03,0.98,-0,-0,0,0.05,,64,486,4,25,98,0.652,0.0,114,4.86,11.4,0.0,1,14.0,2.09,0.0,0,0,0,1,0,,,,,,,,,,,,,,,,,,,,
4604,0,,,249,251,237,233,,-0.05,0.03,0.97,-0,-0,0,0.05,,64,486,5,25,99,0.651,0.0,116,4.87,11.7,0.0,1,14.0,2.09,0.0,0,0,0,1,0,,,,,,,,,,,,,,,,,,,,
4624,0,,,249,252,237,233,,-0.05,0.02,0.98,-0,-0,-0,0.05,,64,486,8,25,99,0.649,0.0,118,4.88,11.9,0.0,1,14.0,4.7,1.0,0,0,0,1,0,,,,,,,,,,,,,,,,,,,,
4644,0,5,9,249,251,237,233,-7,-0.05,0.02,1.0,-0,-0,-0,0.05,1,64,477,14,25,98,0.646,0.0,115,4.87,11.5,0.0,1,30.0,4.7,1.0,0,0,0,1,0,0,250,250,0,0.0,0.0,0.0,0.0,0,0,0.0,0,0.0,-1,0.0,0.0,0.0,0,0.0,0.0774
4664,0,,,249,252,237,233,,-0.04,0.02,1.0,-0,-0,-0,0.05,,64,477,25,25,99,0.644,0.0,116,4.87,11.7,0.0,1,30.0,8.25,1.0,0,0,0,1,0,,,,,,,,,,,,,,,,,,,,
4684,0,,,249,251,237,233,,-0.04,0.02,1.0,-0,-0,-0,0.05,,64,477,35,25,99,0.642,0.0,116,4.88,11.8,0.0,1,30.0,7.1,1.0,0,0,0,1,0,,,,,,,,,,,,,,,,,,,,
4704,0,,,249,252,237,233,,-0.04,0.02,1.0,-0,0,-0,0.05,,64,484,45,25,99,0.642,0.0,116,4.83,11.6,0.0,1,30.0,8.25,1.0,0,0,0,1,0,,,,,,,,,,,,,,,,,,,,
4724,0,,,249,251,237,233,,-0.04,0.02,0.99,-0,-0,-0,0.05,,64,484,51,25,99,0.64,0.0,118,4.87,11.7,0.0,1,30.0,8.25,1.8,0,0,0,1,0,,,,,,,,,,,,,,,,,,,,
4744,0,6,7,249,251,237,233,-7,-0.04,0.02,1.0,-0,-0,-0,0.04,1,64,484,55,25,99,0.641,0.0,121,4.87,11.8,0.0,1,30.0,8.25,1.8,0,0,0,1,0,0,250,250,0,0.0,0.0,0.0,0.0,0,0,0.0,0,0.0,-1,0.0,,0.0,0,0.0,0.0791
4764,0,,,249,252,237,232,,-0.04,0.02,0.99,-0,-0,-0,0.04,,64,475,56,25,99,0.641,0.0,121,4.85,11.9,0.0,1,30.0,8.25,1.8,0,0,0,1,0,,,,,,,,,,,,,,,,,,,,
4784,0,,,249,251,237,233,,-0.04,0.02,0.99,-0,-0,-0,0.05,,64,475,57,25,99,0.639,0.0,121,4.87,11.7,0.0,1,30.0,2.09,1.8,0,0,0,1,0,,,,,,,,,,,,,,,,,,,,
4804,0,,,249,252,237,233,,-0.04,0.02,0.99,-0,-0,-0,0.05,,64,475,57,25,99,0.639,0.0,124,4.87,11.8,0.0,1,30.0,8.25,1.8,0,0,0,1,0,,,,,,,,,,,,,,,,,,,,
4824,0,,,249,252,237,233,,-0.04,0.01,0.97,-0,-0,-0,0.04,,64,475,57,25,99,0.639,0.0,124,4.83,11.9,0.0,1,30.0,8.13,1.8,0,0,0,1,0,,,,,,,,,,,,,,,,,,,,
4844,0,6,8,249,252,237,233,-8,-0.05,0.01,0.98,-0,-0,-0,0.05,1,64,482,54,25,99,0.639,0.0,124,4.85,11.8,0.0,1,30.0,8.13,1.8,0,0,0,1,0,0,250,250,0,0.0,0.0,0.0,0.0,0,0,0.0,0,0.0,-1,0.0,0.0,0.0,0,0.0,0.0807
4864,0,,,249,251,237,233,,-0.04,0.01,0.98,-0,-0,-0,0.05,,64,482,40,25,99,0.64,0.0,124,4.87,11.8,0.0,1,30.0,8.13,1.8,0,0,0,1,0,,,,,,,,,,,,,,,,,,,,
4884,0,,,249,252,237,233,,-0.04,0.02,0.98,-0,-0,-0,0.05,,64,482,21,25,99,0.64,0.0,126,4.88,11.9,0.0,1,30.0,8.13,1.8,0,0,0,1,0,,,,,,,,,,,,,,,,,,,,
4904,0,,,249,252,237,232,,-0.04,0.01,0.98,-0,-0,-0,0.04,,64,479,5,25,99,0.64,0.0,124,4.86,11.7,0.0,1,17.1,8.13,1.8,0,0,0,1,0,,,,,,,,,,,,,,,,,,,,
4924,0,,,249,251,237,233,,-0.04,0.02,0.99,-0,-0,-0,0.04,,64,479,5,25,99,0.641,0.0,126,4.87,11.8,0.0,1,17.1,8.13,1.7,0,0,0,1,0,,,,,,,,,,,,,,,,,,,,
4944,0,6,6,249,251,237,233,-7,-0.04,0.02,0.99,-0,-0,-0,0.05,1,64,479,4,25,98,0.641,0.0,126,4.88,11.9,0.0,1,17.1,2.09,1.7,0,0,0,1,0,0,250,250,0,0.0,0.0,0.0,0.0,0,0,0.0,0,0.0,-1,0.0,,0.0,0,0.0,0.0824
4964,0,,,249,251,237,233,,-0.04,0.02,0.98,-0,-0,-0,0.04,,64,481,4,25,98,0.64,0.0,123,4.86,11.7,0.0,1,17.1,2.09,1.7,0,0,0,1,0,,,,,,,,,,,,,,,,,,,,
4984,0,,,249,252,237,233,,-0.04,0.02,0.99,-0,-0,-0,0.05,,64,481,6,25,99,0.641,0.0,126,4.88,11.8,0.0,1,17.1,2.09,1.7,0,0,0,1,0,,,,,,,,,,,,,,,,,,,,
5004,0,,,249,252,237,233,,-0.04,0.02,0.99,-0,-0,-0,0.05,,64,481,21,25,99,0.64,0.0,126,4.88,11.9,0.0,1,30.0,8.03,1.7,0,0,0,1,0,,,,,,,,,,,,,,,,,,,,
5024,0,,,249,252,237,233,,-0.04,0.02,1.0,-0,-0,-0,0.05,,64,476,41,25,99,0.641,0.0,123,4.85,11.4,0.0,1,30.0,8.25,1.7,0,0,0,1,0,,,,,,,,,,,,,,,,,,,,
5044,0,5,6,249,252,237,233,-8,-0.05,0.02,1.0,-0,-0,-0,0.05,1,64,476,55,25,99,0.641,0.0,126,4.87,11.8,0.0,1,30.0,8.25,1.7,0,0,0,1,0,0,250,250,0,0.0,0.0,0.0,0.0,0,0,0.0,0,0.0,-1,0.0,0.0,0.0,0,0.0,0.0841
5064,0,,,249,252,237,232,,-0.04,0.02,1.02,-0,-0,-0,0.05,,64,686,61,25,99,0.641,0.0,130,4.86,11.9,0.0,1,30.0,2.09,1.7,0,0,0,1,0,,,,,,,,,,,,,,,,,,,,
5084,0,,,249,252,237,233,,-0.04,0.01,1.02,-0,-0,-0,0.05,,64,1118,65,25,99,0.643,0.0,138,4.89,12.1,0.0,1,30.9,8.25,1.7,0,0,0,1,0,,,,,,,,,,,,,,,,,,,,
5104,0,,,249,251,237,233,,-0.04,0.01,1.02,-0,-0,-0,0.05,,64,1118,65,25,99,0.64,0.0,135,4.86,11.8,0.0,1,30.9,8.25,1.7,0,0,0,1,0,,,,,,,,,,,,,,,,,,,,
5124,0,,,249,251,237,233,,-0.05,0.01,1.01,-0,-0,-0,0.05,,64,929,65,25,99,0.635,0.0,132,4.8,11.4,0.0,1,30.0,7.0,4.2,0,0,0,1,0,,,,,,,,,,,,,,,,,,,,
5144,0,2,3,249,252,237,232,-7,-0.05,0.01,1.02,-0,-0,-0,0.05,1,64,929,65,25,98,0.628,0.0,129,4.8,11.5,0.0,1,30.0,2.09,4.2,0,0,0,1,0,0,250,250,0,0.0,0.0,0.0,0.0,0,0,0.0,0,0.0,-1,0.0,,0.0,0,0.0,0.0857
5164,0,,,249,252,237,233,,-0.05,0.01,1.02,-0,-0,-0,0.05,,64,699,59,25,98,0.622,0.0,125,4.78,11.2,0.0,1,30.0,2.09,4.2,0,0,0,1,0,,,,,,,,,,,,,,,,,,,,
5184,0,,,249,251,237,233,,-0.05,0.02,1.02,-0,-0,-0,0.05,,64,699,39,25,98,0.613,0.0,120,4.76,11.0,0.0,1,30.0,7.0,4.2,0,0,0,1,0,,,,,,,,,,,,,,,,,,,,
5204,0,,,249,251,237,233,,-0.05,0.01,1.02,-0,-0,-0,0.05,,64,699,17,25,97,0.604,0.0,121,4.73,11.0,0.0,1,28.6,2.09,4.2,0,0,0,1,0,,,,,,,,,,,,,,,,,,,,
5224,0,,,249,252,237,233,,-0.05,0.01,1.03,-0,-0,-0,0.05,,65,600,3,25,97,0.594,0.0,115,4.73,10.6,0.0,1,18.8,2.09,1.9,0,0,0,1,0,,,,,,,,,,,,,,,,,,,,
5244,0,-1,3,249,251,237,233,-7,-0.05,0.01,1.02,-0,-0,-0,0.05,1,65,600,3,25,97,0.584,0.0,115,4.74,10.6,0.0,1,18.8,4.03,1.9,0,0,0,1,0,0,250,250,0,0.0,0.0,0.0,0.0,0,0,0.0,0,0.0,-1,0.0,0.0,0.0,0,0.0,0.0874
5264,0,,,249,252,237,233,,-0.05,0.01,1.03,-0,0,-0,0.05,,65,567,4,25,96,0.574,0.0,118,4.75,11.0,0.0,1,18.8,4.03,1.9,0,0,0,1,0,,,,,,,,,,,,,,,,,,,,
5284,0,,,249,251,237,233,,-0.04,0.01,1.04,-0,0,-0,0.05,,64,567,4,25,97,0.567,0.0,118,4.75,10.5,0.0,1,18.8,2.09,1.9,0,0,0,1,0,,,,,,,,,,,,,,,,,,,,
5304,0,,,249,252,237,233,,-0.05,0.01,1.05,-0,0,-0,0.05,,64,727,8,25,97,0.558,0.0,121,4.75,10.8,0.0,1,18.8,2.09,1.9,0,0,0,1,0,,,,,,,,,,,,,,,,,,,,
5324,0,,,249,252,237,233,,-0.04,0.01,1.04,-0,0,-0,0.05,,64,727,28,25,97,0.55,0.0,126,4.76,11.0,0.0,1,28.6,2.09,1.2,0,0,0,1,0,,,,,,,,,,,,,,,,,,,,
5344,0,-0,1,249,252,237,233,-8,-0.05,0.01,1.04,-0,0,-0,0.05,1,64,1145,54,25,98,0.543,0.0,129,4.77,11.1,0.0,1,31.1,2.09,1.2,0,0,0,1,0,0,250,250,0,0.0,0.0,0.0,0.0,0,0,0.0,0,0.0,-1,0.0,,0.0,0,0.0,0.0891
5364,0,,,249,252,237,232,,-0.05,0.02,1.03,-0,0,-0,0.05,,64,1265,68,25,99,0.538,0.0,137,4.77,11.1,0.0,1,32.1,2.09,1.2,0,0,0,1,0,,,,,,,,,,,,,,,,,,,,
5384,0,,,249,252,237,232,,-0.05,0.02,1.02,-0,0,-0,0.05,,65,1458,73,25,98,0.534,0.0,140,4.76,11.2,0.0,1,33.6,6.16,1.2,0,0,0,1,0,,,,,,,,,,,,,,,,,,,,
5404,0,,,249,252,237,233,,-0.05,0.01,1.0,-0,1,-0,0.05,,64,1505,76,25,99,0.533,0.0,151,4.79,11.6,0.0,1,34.0,6.16,1.2,0,0,0,1,0,,,,,,,,,,,,,,,,,,,,
5424,0,,,249,252,237,233,,-0.04,0.02,1.01,-0,1,-0,0.05,,64,1379,76,25,98,0.535,0.0,157,4.83,11.6,0.0,1,33.0,2.09,4.2,0,0,0,1,0,,,,,,,,,,,,,,,,,,,,
5444,0,0,2,249,252,237,233,-7,-0.04,0.01,0.99,-0,1,-0,0.04,1,64,1245,76,25,98,0.538,0.0,158,4.81,11.7,0.0,1,31.9,6.16,4.2,0,0,0,1,0,0,250,250,0,0.0,0.0,0.0,0.0,0,0,0.0,0,0.0,-1,0.0,0.0,0.0,0,0.0,0.0907
5464,0,,,249,252,237,232,,-0.04,0.01,0.98,-0,1,-0,0.05,,64,1311,76,25,97,0.54,0.0,156,4.77,11.5,0.0,1,31.0,6.16,4.2,0,0,0,1,0,,,,,,,,,,,,,,,,,,,,
5484,0,,,249,252,237,232,,-0.06,0.01,0.98,-0,1,0,0.06,,64,1779,65,25,97,0.543,0.0,166,4.76,11.7,0.0,1,32.6,6.08,4.2,0,0,0,1,0,,,,,,,,,,,,,,,,,,,,
5504,0,,,249,252,237,233,,-0.05,0.01,0.97,-0,1,0,0.06,,64,2182,47,25,98,0.547,0.0,188,4.84,12.0,0.0,1,34.0,6.01,4.2,0,0,0,1,0,,,,,,,,,,,,,,,,,,,,
5524,0,,,249,251,237,233,,-0.06,0.03,1.05,-0,0,0,0.06,,64,2307,26,25,98,0.556,0.0,209,4.86,12.4,0.0,1,34.0,6.01,6.6,0,0,0,1,0,,,,,,,,,,,,,,,,,,,,
5544,0,1,3,249,251,237,232,-7,-0.06,0.03,0.99,-0,0,0,0.07,1,64,2732,5,25,96,0.566,0.0,225,4.85,12.3,0.0,1,18.4,6.41,6.6,0,0,0,1,0,0,250,250,0,0.0,0.0,0.0,0.0,0,0,0.0,0,0.0,-1,0.0,,0.0,0,0.0,0.0924
5564,0,,,249,252,237,233,,-0.07,0.05,1.13,-0,1,-0,0.09,,64,3255,4,25,93,0.573,0.0,264,4.85,12.4,0.0,1,27.2,7.21,6.6,0,0,0,1,0,,,,,,,,,,,,,,,,,,,,
5584,0,,,249,251,237,233,,-0.07,0.02,1.04,-0,1,0,0.07,,64,3542,4,25,92,0.581,0.0,303,4.86,12.4,0.0,1,18.4,7.6,6.6,0,0,0,1,0,,,,,,,,,,,,,,,,,,,,
5604,0,,,249,252,237,233,,-0.05,0.02,1.08,-0,0,-0,0.06,,64,3513,4,25,89,0.588,0.0,337,4.86,12.4,0.0,1,18.4,6.94,6.6,0,0,0,1,0,,,,,,,,,,,,,,,,,,,,
5624,0,,,249,251,237,233,,-0.05,0.03,1.03,-0,0,-1,0.06,,64,3492,4,25,87,0.595,0.0,351,4.9,12.5,0.0,1,23.9,6.4,11.2,0,0,0,1,0,,,,,,,,,,,,,,,,,,,,
5644,0,0,3,249,252,237,232,-8,-0.05,0.03,0.98,-0,-0,-0,0.06,1,64,3539,4,25,86,0.604,0.0,363,4.84,12.5,0.0,1,18.4,6.08,11.2,0,0,0,1,0,0,250,250,0,0.0,0.0,0.0,0.0,0,0,0.0,0,0.0,-1,0.0,0.0,0.0,0,0.0,0.0941
5664,0,,,249,252,237,233,,-0.06,0.04,1.07,-0,-1,-0,0.07,,64,3540,4,25,85,0.61,0.0,364,4.86,12.3,0.0,1,23.3,5.75,11.2,0,0,0,1,0,,,,,,,,,,,,,,,,,,,,
5684,0,,,249,252,237,232,,-0.07,0.05,1.01,-0,1,0,0.08,,64,3510,10,25,84,0.615,0.0,369,4.93,12.5,0.0,1,22.8,5.45,11.2,0,0,0,1,0,,,,,,,,,,,,,,,,,,,,
5704,0,,,249,252,237,233,,-0.05,0.04,0.96,-0,1,0,0.06,,64,3409,22,25,86,0.62,0.0,364,4.85,12.9,0.0,1,23.5,5.37,11.2,0,0,0,1,0,,,,,,,,,,,,,,,,,,,,
5724,0,,,249,251,237,232,,-0.06,0.05,0.99,-0,-1,0,0.08,,64,3407,31,25,91,0.628,0.0,354,4.84,12.7,0.0,1,25.7,6.83,8.3,0,0,0,1,0,,,,,,,,,,,,,,,,,,,,
5744,0,-0,3,249,251,237,233,-7,-0.07,0.07,1.01,-0,-0,-0,0.09,1,64,3537,34,25,96,0.634,0.0,366,4.86,12.8,0.0,1,29.7,7.76,8.3,0,0,0,1,0,0,250,250,0,0.0,0.0,0.0,0.0,0,0,0.0,0,0.0,-1,0.0,,0.0,0,0.0,0.0957
5764,0,,,249,252,237,233,,-0.08,0.07,1.1,-0,1,0,0.11,,64,3984,34,25,97,0.636,0.0,380,4.88,12.8,0.0,1,34.6,7.75,8.3,0,0,0,1,0,,,,,,,,,,,,,,,,,,,,
5784,0,,,249,251,237,233,,-0.08,0.07,1.01,-0,1,1,0.11,,64,4165,34,25,97,0.635,0.0,427,4.87,12.9,0.0,1,36.1,7.53,8.3,0,0,0,1,0,,,,,,,,,,,,,,,,,,,,
5804,0,,,249,252,237,233,,-0.13,0.06,0.94,-0,2,3,0.14,,64,4694,32,25,96,0.634,0.0,483,4.87,12.8,0.0,1,40.0,2.88,8.3,0,0,0,1,0,,,,,,,,,,,,,,,,,,,,
5824,0,,,249,251,237,232,,-0.09,0.09,1.17,-0,-1,0,0.13,,64,5329,31,25,95,0.633,0.0,554,4.86,12.8,0.0,1,41.8,7.51,15.5,0,0,0,1,0,,,,,,,,,,,,,,,,,,,,
5844,0,-0,3,249,252,237,232,-8,-0.11,0.12,1.3,-0,8,7,0.16,1,64,5958,31,25,94,0.632,0.0,610,4.85,12.7,0.0,1,39.9,8.88,15.5,0,0,0,1,0,0,250,250,0,0.0,0.0,0.0,0.0,0,0,0.0,0,0.0,-1,0.0,0.0,0.0,0,0.0,0.0974
5864,0,,,249,251,237,233,,-0.05,0.12,1.51,-0,10,9,0.13,,64,6461,36,25,93,0.63,0.0,641,4.79,12.7,0.0,1,44.4,8.53,15.5,0,0,0,1,0,,,,,,,,,,,,,,,,,,,,
5884,0,,,249,250,237,232,,-0.11,0.07,1.39,-0,9,8,0.13,,64,6764,44,25,95,0.629,0.0,647,4.9,12.7,0.0,1,47.5,3.57,15.5,0,0,0,1,0,,,,,,,,,,,,,,,,,,,,
5904,0,,,249,251,237,232,,-0.04,0.08,1.59,-0,10,9,0.09,,64,6703,48,25,95,0.627,0.0,647,4.77,12.7,0.0,1,46.9,8.39,15.5,0,0,0,1,0,,,,,,,,,,,,,,,,,,,,
5924,0,,,249,250,237,232,,-0.08,0.07,1.47,-0,10,10,0.1,,64,7390,48,25,95,0.626,0.0,651,4.87,12.6,0.0,1,44.4,8.24,25.9,0,0,0,1,0,,,,,,,,,,,,,,,,,,,,
5944,0,1,1,249,250,237,232,-7,-0.07,0.05,1.66,-0,8,7,0.09,1,64,8085,47,25,94,0.625,0.0,666,4.85,12.6,0.0,1,36.8,10.07,25.9,0,0,0,1,0,0,250,250,0,0.0,0.0,0.0,0.0,0,0,0.0,0,0.0,-1,0.0,,0.0,0,0.0,0.0991
5964,0,,,249,252,237,232,,-0.04,0.03,1.62,0,8,9,0.05,,64,8712,32,25,91,0.622,0.0,681,4.81,12.5,0.0,1,41.6,11.41,25.9,0,0,0,1,0,,,,,,,,,,,,,,,,,,,,
5984,0,,,249,251,237,232,,-0.03,0.09,1.49,0,8,11,0.09,,64,8688,7,25,81,0.62,0.0,688,4.76,12.6,0.0,1,41.6,3.85,25.9,0,0,0,1,0,,,,,,,,,,,,,,,,,,,,
6004,0,,,249,250,237,232,,-0.05,0.07,1.57,0,7,8,0.09,,64,8457,4,25,72,0.617,0.0,686,4.87,12.8,0.0,1,42.5,6.4,25.9,0,0,0,1,0,,,,,,,,,,,,,,,,,,,,
6024,0,,,249,250,237,232,,-0.05,0.09,1.49,0,7,8,0.1,,64,8223,4,25,65,0.615,0.0,676,4.86,12.7,0.0,1,40.6,2.18,23.4,0,0,0,1,0,,,,,,,,,,,,,,,,,,,,
6044,0,1,1,249,250,237,232,-7,-0.05,0.05,1.69,-0,5,5,0.07,1,64,8036,4,25,60,0.614,0.0,673,4.82,12.8,0.0,1,37.9,1.43,23.4,0,0,0,1,0,0,250,250,0,0.0,0.0,0.0,0.0,0,0,0.0,0,0.0,-1,0.0,0.0,0.0,0,0.0,0.1007
6064,0,,,249,250,237,232,,-0.06,0.02,1.56,-0,3,3,0.06,,64,7835,4,25,57,0.613,0.0,671,4.89,12.7,0.0,1,37.2,1.34,23.4,0,0,0,1,0,,,,,,,,,,,,,,,,,,,,
6084,0,,,249,250,237,232,,-0.06,0.03,1.46,-0,2,2,0.07,,64,7634,4,25,54,0.613,0.0,664,4.89,12.7,0.0,1,36.6,3.02,23.4,0,0,0,1,0,,,,,,,,,,,,,,,,,,,,
6104,0,,,249,251,237,232,,-0.07,0.05,1.43,-0,1,1,0.08,,64,7425,4,25,52,0.615,0.0,663,4.9,12.8,0.0,1,35.9,2.85,23.4,0,0,0,1,0,,,,,,,,,,,,,,,,,,,,
6124,0,,,249,251,237,232,,-0.05,0.02,1.48,-0,-0,-0,0.05,,64,7219,4,25,51,0.615,0.0,657,4.93,12.8,0.0,1,35.2,1.15,9.4,0,0,0,1,0,,,,,,,,,,,,,,,,,,,,
6144,0,1,3,249,251,237,232,-7,-0.02,0.03,1.67,-0,0,-0,0.04,1,64,7006,4,25,50,0.615,0.0,657,4.79,12.8,0.0,1,34.4,2.55,9.4,0,0,0,1,0,0,250,250,0,0.0,0.0,0.0,0.0,0,0,0.0,0,0.0,-1,0.0,,0.0,0,0.0,0.1024
6164,0,,,249,252,237,232,,-0.09,-0.0,1.54,-0,2,0,0.09,,64,6833,4,25,49,0.616,0.0,654,4.82,12.6,0.0,1,33.5,1.13,9.4,0,0,0,1,0,,,,,,,,,,,,,,,,,,,,
6184,0,,,249,251,237,232,,-0.03,0.03,1.73,-0,1,1,0.04,,64,6609,4,25,49,0.616,0.0,649,4.87,12.9,0.0,1,33.1,2.47,9.4,0,0,0,1,0,,,,,,,,,,,,,,,,,,,,
6204,0,,,249,250,237,232,,0.02,-0.02,1.88,-0,-3,-4,0.03,,64,6427,4,25,48,0.618,0.0,644,4.95,12.9,0.0,1,32.3,1.16,9.4,0,0,0,1,0,,,,,,,,,,,,,,,,,,,,
6224,0,,,249,250,237,232,,-0.03,-0.03,1.74,-0,-4,-4,0.04,,64,6233,4,25,48,0.62,0.0,638,4.92,12.8,0.0,1,31.9,2.33,6.8,0,0,0,1,0,,,,,,,,,,,,,,,,,,,,
6244,0,1,3,249,252,237,232,-7,-0.11,-0.01,1.61,-0,-3,-4,0.11,1,64,5982,6,25,49,0.621,0.0,632,4.83,12.7,0.0,1,31.5,1.19,6.8,0,0,0,1,0,0,250,250,0,0.0,0.0,0.0,0.0,0,0,0.0,0,0.0,-1,0.0,0.0,0.0,0,0.0,0.1041
6264,0,,,249,251,237,232,,-0.12,-0.03,1.48,0,-6,-6,0.12,,64,5833,15,25,51,0.623,0.0,630,4.88,12.8,0.0,1,31.7,1.27,6.8,0,0,0,1,0,,,,,,,,,,,,,,,,,,,,
6284,0,,,249,251,237,232,,0.01,-0.05,1.67,-0,-12,-12,0.05,,64,5628,38,25,63,0.625,0.0,628,4.91,12.9,0.0,1,34.5,1.55,6.8,0,0,0,1,0,,,,,,,,,,,,,,,,,,,,
6304,0,,,249,251,237,232,,0.0,0.04,1.85,-0,-12,-12,0.04,,64,5445,53,25,78,0.627,0.0,616,4.87,12.9,0.0,1,38.3,4.41,6.8,0,0,0,1,0,,,,,,,,,,,,,,,,,,,,
6324,0,,,249,251,237,232,,-0.14,-0.01,1.71,0,-4,-3,0.14,,64,5877,60,24,90,0.626,0.0,617,4.81,12.8,0.0,1,40.1,5.6,11.7,0,0,0,1,0,,,,,,,,,,,,,,,,,,,,
6344,0,0,1,249,251,237,232,-7,-0.16,0.01,1.58,0,-0,1,0.16,1,64,6302,61,24,95,0.625,0.0,638,4.83,12.8,0.0,1,42.8,5.91,11.7,0,0,0,1,0,0,250,250,0,0.0,0.0,0.0,0.0,0,0,0.0,0,0.0,-1,0.0,,0.0,0,0.0,0.1057
6364,0,,,249,250,237,232,,-0.08,-0.0,1.76,0,-2,-1,0.08,,64,6544,61,24,96,0.625,0.0,644,4.87,12.9,0.0,1,45.3,3.81,11.7,0,0,0,1,0,,,,,,,,,,,,,,,,,,,,
6384,0,,,249,251,237,232,,-0.11,-0.04,1.63,0,-0,2,0.12,,64,7231,61,24,96,0.624,0.0,655,4.85,12.8,0.0,1,46.7,5.44,11.7,0,0,0,1,0,,,,,,,,,,,,,,,,,,,,
6404,0,,,249,252,237,232,,-0.09,-0.02,1.81,0,-1,0,0.1,,64,7918,56,24,96,0.625,0.0,666,4.86,12.7,0.0,1,36.6,6.07,11.7,0,0,0,1,0,,,,,,,,,,,,,,,,,,,,
6424,0,,,249,252,237,232,,-0.07,-0.04,1.67,0,-1,2,0.08,,64,8557,37,24,93,0.625,0.0,680,4.84,12.7,0.0,1,41.9,5.27,23.1,0,0,0,1,0,,,,,,,,,,,,,,,,,,,,
6444,0,0,2,249,252,237,232,-7,-0.02,0.04,1.54,0,-1,5,0.05,1,64,9450,15,24,83,0.624,0.0,686,4.78,12.6,0.0,1,38.8,4.21,23.1,0,0,0,1,0,0,250,250,0,0.0,0.0,0.0,0.0,0,0,0.0,0,0.0,-1,0.0,0.0,0.0,0,0.0,0.1074
6464,0,,,249,252,237,232,,-0.05,0.05,1.69,0,-1,4,0.07,,64,10086,4,24,71,0.623,0.0,700,4.83,12.7,0.0,1,39.9,3.33,23.1,0,0,0,1,0,,,,,,,,,,,,,,,,,,,,
6484,0,,,249,251,237,232,,-0.06,-0.11,1.56,0,-1,3,0.12,,64,10641,4,24,60,0.622,0.0,719,4.86,12.7,0.0,1,44.2,3.03,23.1,0,0,0,1,0,,,,,,,,,,,,,,,,,,,,
6504,0,,,249,251,237,232,,-0.01,-0.11,1.74,0,-2,3,0.11,,64,10990,4,24,52,0.622,0.0,716,4.82,12.7,0.0,1,39.4,3.55,23.1,0,0,0,1,0,,,,,,,,,,,,,,,,,,,,
6524,0,,,249,252,237,232,,-0.07,-0.05,1.61,0,1,5,0.08,,64,10958,4,24,47,0.621,0.0,716,4.85,12.6,0.0,1,38.0,1.7,16.9,0,0,0,1,0,,,,,,,,,,,,,,,,,,,,
6544,0,0,3,249,252,237,232,-7,-0.06,0.01,1.79,0,0,3,0.06,1,64,10708,4,24,44,0.62,0.0,714,4.83,12.7,0.0,1,35.7,2.76,16.9,0,0,0,1,0,0,250,250,0,0.0,0.0,0.0,0.0,0,0,0.0,0,0.0,-1,0.0,,0.0,0,0.0,0.1091
6564,0,,,249,252,237,232,,-0.07,-0.01,1.96,0,-0,3,0.07,,64,10463,4,24,42,0.621,0.0,715,4.81,12.7,0.0,1,34.2,2.67,16.9,0,0,0,1,0,,,,,,,,,,,,,,,,,,,,
6584,0,,,249,252,237,232,,-0.07,0.03,2.02,0,-1,2,0.07,,64,10201,4,24,40,0.624,0.0,709,4.86,12.7,0.0,1,32.7,1.43,16.9,0,0,0,1,0,,,,,,,,,,,,,,,,,,,,
6604,0,,,249,251,237,232,,-0.03,0.15,1.86,0,1,4,0.15,,64,9946,4,24,38,0.625,0.0,702,4.87,12.7,0.0,1,31.7,1.41,16.9,0,0,0,1,0,,,,,,,,,,,,,,,,,,,,
6624,0,,,249,250,237,232,,-0.06,0.08,2.03,0,-2,2,0.1,,64,9715,4,24,37,0.626,0.0,702,4.83,12.8,0.0,1,31.4,1.5,11.8,0,0,0,1,0,,,,,,,,,,,,,,,,,,,,
6644,0,-0,3,249,250,237,232,-8,-0.08,0.15,1.94,-0,-1,1,0.17,1,64,9484,4,24,35,0.626,0.0,694,4.88,12.7,0.0,1,30.8,2.68,11.8,0,0,0,1,0,0,250,250,0,0.0,0.0,0.0,0.0,0,0,0.0,0,0.0,-1,0.0,0.0,0.0,0,0.0,0.1107
6664,0,,,249,251,237,232,,-0.06,0.16,1.79,0,0,3,0.17,,64,9204,4,24,34,0.628,0.0,692,4.81,12.7,0.0,1,30.5,2.61,11.8,0,0,0,1,0,,,,,,,,,,,,,,,,,,,,
6684,0,,,249,251,237,232,,-0.03,0.22,1.65,0,1,7,0.22,,64,8971,5,24,33,0.629,0.0,692,4.78,12.6,0.0,1,30.2,2.52,11.8,0,0,0,1,0,,,,,,,,,,,,,,,,,,,,
6704,0,,,249,251,237,232,,-0.02,0.24,1.52,1,1,10,0.24,,64,8733,5,24,33,0.63,0.0,680,4.82,12.7,0.0,1,30.2,1.36,11.8,0,0,0,1,0,,,,,,,,,,,,,,,,,,,,
6724,0,,,249,251,237,232,,-0.02,0.22,1.68,1,0,8,0.22,,64,8542,5,24,33,0.632,0.0,683,4.85,12.8,0.0,1,30.2,2.52,10.1,0,0,0,1,0,,,,,,,,,,,,,,,,,,,,
6744,0,-1,3,249,251,237,232,-7,-0.02,0.23,1.61,1,0,8,0.24,1,64,8300,5,24,33,0.633,0.0,683,4.87,12.8,0.0,1,29.8,2.31,10.1,0,0,0,1,0,0,250,250,0,0.0,0.0,0.0,0.0,0,0,0.0,0,0.0,-1,0.0,,0.0,0,0.0,0.1124
6764,0,,,249,252,237,232,,-0.02,0.15,1.54,0,0,7,0.15,,64,8088,5,24,33,0.633,0.0,679,4.85,12.9,0.0,1,29.3,2.09,10.1,0,0,0,1,0,,,,,,,,,,,,,,,,,,,,
6784,0,,,249,250,237,232,,-0.04,0.16,1.42,0,1,9,0.17,,64,7841,5,24,34,0.635,0.0,667,4.91,12.7,0.0,1,29.5,2.06,10.1,0,0,0,1,0,,,,,,,,,,,,,,,,,,,,
6804,0,,,249,250,237,232,,-0.06,0.16,1.31,0,3,10,0.18,,64,7634,5,24,34,0.636,0.0,667,4.8,12.7,0.0,1,29.5,2.06,10.1,0,0,0,1,0,,,,,,,,,,,,,,,,,,,,
6824,0,,,249,250,237,232,,-0.09,0.2,1.21,1,4,10,0.22,,64,7416,5,24,34,0.636,0.0,660,4.88,12.8,0.0,1,29.5,2.06,7.2,0,0,0,1,0,,,,,,,,,,,,,,,,,,,,
6844,0,0,2,249,250,237,232,-7,-0.11,0.21,1.12,0,3,10,0.24,1,65,7203,5,24,35,0.637,0.0,658,4.86,12.7,0.0,1,29.8,0.96,7.2,0,0,0,1,0,0,250,250,0,0.0,0.0,0.0,0.0,0,0,0.0,0,0.0,-1,0.0,0.0,0.0,0,0.0,0.1141
6864,0,,,249,250,237,232,,-0.05,0.16,1.34,0,1,7,0.17,,65,7025,5,24,35,0.638,0.0,653,5.0,12.9,0.0,1,29.8,2.11,7.2,0,0,0,1,0,,,,,,,,,,,,,,,,,,,,
6884,0,,,249,250,237,232,,-0.1,0.18,1.24,0,3,8,0.21,,65,6795,5,24,36,0.638,0.0,648,4.78,12.7,0.0,1,29.8,2.17,7.2,0,0,0,1,0,,,,,,,,,,,,,,,,,,,,
6904,0,,,249,252,237,232,,-0.04,0.15,1.45,0,0,4,0.15,,65,6616,5,24,37,0.64,0.0,644,4.92,12.9,0.0,1,29.9,2.22,7.2,0,0,0,1,0,,,,,,,,,,,,,,,,,,,,
6924,0,,,249,252,237,232,,-0.11,0.1,1.34,0,3,6,0.14,,65,6384,5,24,37,0.641,0.0,645,4.85,12.7,0.0,1,29.7,1.06,6.7,0,0,0,1,0,,,,,,,,,,,,,,,,,,,,
6944,0,0,3,249,250,237,232,-8,-0.18,0.13,1.23,0,6,11,0.22,1,65,6198,5,24,38,0.64,0.0,643,4.78,12.8,0.0,1,29.7,2.27,6.7,0,0,0,1,0,0,250,250,0,0.0,0.0,0.0,0.0,0,0,0.0,0,0.0,-1,0.0,,0.0,0,0.0,0.1157
6964,0,,,249,250,237,232,,-0.23,0.15,1.14,0,10,14,0.27,,65,5996,5,24,40,0.64,0.0,638,4.88,12.9,0.0,1,29.8,2.34,6.7,0,0,0,1,0,,,,,,,,,,,,,,,,,,,,
6984,0,,,249,250,237,232,,-0.29,0.13,1.05,0,15,19,0.32,,65,5788,5,24,41,0.639,0.0,631,4.81,12.7,0.0,1,29.6,2.41,6.7,0,0,0,1,0,,,,,,,,,,,,,,,,,,,,
7004,0,,,249,250,237,232,,-0.28,0.07,0.97,1,15,20,0.29,,65,5628,5,24,43,0.639,0.0,620,4.85,12.7,0.0,1,29.6,1.36,6.7,0,0,0,1,0,,,,,,,,,,,,,,,,,,,,
7024,0,,,249,250,237,232,,-0.18,0.09,1.2,1,5,11,0.2,,65,5414,5,24,44,0.641,0.0,622,4.91,13.0,0.0,1,29.4,2.6,6.5,0,0,0,1,0,,,,,,,,,,,,,,,,,,,,
7044,0,0,2,249,252,236,232,-7,-0.24,0.08,1.11,1,10,15,0.25,1,65,5201,5,24,45,0.641,0.0,606,4.81,12.7,0.0,1,29.3,2.71,6.5,0,0,0,1,0,0,250,250,0,0.0,0.0,0.0,0.0,0,0,0.0,0,0.0,-1,0.0,0.0,0.0,0,0.0,0.1174
7064,0,,,249,252,237,232,,-0.18,0.1,1.33,1,5,9,0.2,,65,5044,5,24,45,0.642,0.0,586,4.87,13.0,0.0,1,29.0,2.77,6.5,0,0,0,1,0,,,,,,,,,,,,,,,,,,,,
7084,0,,,249,251,237,232,,-0.14,0.06,1.23,1,6,10,0.15,,65,4889,5,24,46,0.642,0.0,582,4.86,13.0,0.0,1,27.9,1.59,6.5,0,0,0,1,0,,,,,,,,,,,,,,,,,,,,
7104,0,,,249,252,237,232,,-0.13,0.04,1.13,1,6,11,0.13,,65,4800,5,24,47,0.643,0.0,563,4.85,12.8,0.0,1,27.1,1.56,6.5,0,0,0,1,0,,,,,,,,,,,,,,,,,,,,
7124,0,,,249,252,237,232,,-0.16,0.03,1.35,1,5,10,0.17,,65,4734,5,24,47,0.643,0.0,547,4.89,12.7,0.0,1,26.4,1.53,6.0,0,0,0,1,0,,,,,,,,,,,,,,,,,,,,
7144,0,-1,2,249,252,236,232,-7,-0.22,0.04,1.53,1,5,9,0.23,1,65,4584,5,24,48,0.644,0.0,547,4.89,12.7,0.0,1,24.8,2.61,6.0,0,0,0,1,0,0,250,250,0,0.0,0.0,0.0,0.0,0,0,0.0,0,0.0,-1,0.0,,0.0,0,0.0,0.1191
7164,0,,,249,252,237,232,,-0.28,0.06,1.6,0,5,8,0.29,,65,4510,5,24,48,0.643,0.0,514,4.88,12.7,0.0,1,23.9,2.58,6.0,0,0,0,1,0,,,,,,,,,,,,,,,,,,,,
7184,0,,,249,252,237,232,,-0.34,0.08,1.76,0,5,6,0.35,,65,4519,5,24,49,0.644,0.0,521,4.86,12.7,0.0,1,24.3,1.42,6.0,0,0,0,1,0,,,,,,,,,,,,,,,,,,,,
7204,0,,,249,252,236,232,,-0.38,0.1,1.9,0,5,5,0.39,,65,4414,5,24,50,0.646,0.0,508,4.88,12.8,0.0,1,23.3,2.52,6.0,0,0,0,1,0,,,,,,,,,,,,,,,,,,,,
7224,0,,,249,252,237,232,,-0.42,0.1,1.86,0,5,5,0.43,,65,4345,5,24,50,0.648,0.0,487,4.83,12.7,0.0,1,22.5,1.33,5.1,0,0,0,1,0,,,,,,,,,,,,,,,,,,,,
7244,0,-0,3,249,252,237,232,-7,-0.41,0.09,1.71,0,5,6,0.42,1,65,4307,5,24,51,0.65,0.0,500,4.89,12.9,0.0,1,22.2,2.47,5.1,0,0,0,1,0,0,250,250,0,0.0,0.0,0.0,0.0,0,0,0.0,0,0.0,-1,0.0,0.0,0.0,0,0.0,0.1207
7264,0,,,249,252,237,232,,-0.37,0.06,1.58,0,5,6,0.37,,65,4322,5,24,52,0.651,0.0,475,4.89,13.0,0.0,1,22.7,1.32,5.1,0,0,0,1,0,,,,,,,,,,,,,,,,,,,,
7284,0,,,249,251,237,232,,-0.29,0.03,1.46,0,5,7,0.29,,65,4325,5,24,52,0.651,0.0,494,4.9,13.0,0.0,1,22.7,1.32,5.1,0,0,0,1,0,,,,,,,,,,,,,,,,,,,,
7304,0,,,249,251,237,232,,-0.23,0.01,1.35,0,4,6,0.23,,65,4273,4,24,53,0.653,0.0,471,4.88,13.0,0.0,1,22.4,1.28,5.1,0,0,0,1,0,,,,,,,,,,,,,,,,,,,,
7324,0,,,249,250,237,232,,-0.16,0.0,1.27,0,4,4,0.16,,65,4301,5,24,53,0.654,0.0,477,4.86,13.0,0.0,1,22.7,2.46,4.8,0,0,0,1,0,,,,,,,,,,,,,,,,,,,,
7344,0,-1,3,249,251,237,232,-7,-0.12,0.01,1.38,0,3,3,0.12,1,65,4302,4,24,54,0.654,0.0,478,4.86,13.0,0.0,1,23.0,2.46,4.8,0,0,0,1,0,0,250,250,0,0.0,0.0,0.0,0.0,0,0,0.0,0,0.0,-1,0.0,,0.0,0,0.0,0.1224
7364,0,,,249,252,237,232,,-0.14,0.02,1.58,0,2,2,0.14,,65,4269,5,24,54,0.655,0.0,475,4.86,12.8,0.0,1,22.6,2.43,4.8,0,0,0,1,0,,,,,,,,,,,,,,,,,,,,
7384,0,,,249,252,237,232,,-0.19,0.04,1.76,0,2,3,0.2,,64,4357,5,24,55,0.656,0.0,491,4.9,12.9,0.0,1,23.9,1.34,4.8,0,0,0,1,0,,,,,,,,,,,,,,,,,,,,
7404,0,,,249,252,237,232,,-0.24,0.07,1.75,0,3,4,0.26,,64,4354,5,24,55,0.656,0.0,478,4.91,13.0,0.0,1,23.9,2.49,4.8,0,0,0,1,0,,,,,,,,,,,,,,,,,,,,
7424,0,,,249,252,237,232,,-0.28,0.07,1.61,0,4,5,0.29,,64,4338,5,24,55,0.657,0.0,492,4.91,12.9,0.0,1,23.7,1.33,4.9,0,0,0,1,0,,,,,,,,,,,,,,,,,,,,
7444,0,-1,3,249,251,237,232,-7,-0.28,0.05,1.49,0,4,6,0.28,1,64,4434,5,24,56,0.658,0.0,487,4.91,13.0,0.0,1,25.2,1.41,4.9,0,0,0,1,0,0,250,250,0,0.0,0.0,0.0,0.0,0,0,0.0,0,0.0,-1,0.0,0.0,0.0,0,0.0,0.1241
7464,0,,,249,252,237,232,,-0.26,0.03,1.37,0,4,6,0.26,,64,4450,5,24,56,0.659,0.0,500,4.83,13.0,0.0,1,25.4,1.42,4.9,0,0,0,1,0,,,,,,,,,,,,,,,,,,,,
7484,0,,,249,252,237,232,,-0.24,0.01,1.27,0,4,6,0.24,,64,4512,5,24,56,0.66,0.0,503,4.86,13.0,0.0,1,26.2,2.62,4.9,0,0,0,1,0,,,,,,,,,,,,,,,,,,,,
7504,0,,,249,251,237,232,,-0.24,-0.01,1.17,0,4,7,0.24,,64,4564,5,24,56,0.66,0.0,509,4.87,12.9,0.0,1,26.8,1.49,4.9,0,0,0,1,0,,,,,,,,,,,,,,,,,,,,
7524,0,,,249,252,237,232,,-0.24,-0.02,1.08,0,4,8,0.24,,64,4578,5,24,56,0.66,0.0,532,4.92,12.9,0.0,1,27.0,1.5,5.5,0,0,0,1,0,,,,,,,,,,,,,,,,,,,,
7544,0,0,2,249,252,237,232,-7,-0.27,-0.01,1.06,0,4,8,0.27,1,64,4634,5,24,56,0.66,0.0,520,4.89,12.8,0.0,1,27.9,1.54,5.5,0,0,0,1,0,0,250,250,0,0.0,0.0,0.0,0.0,0,0,0.0,0,0.0,-1,0.0,,0.0,0,0.0,0.1257
7564,0,,,249,252,237,232,,-0.32,-0.0,1.29,0,4,8,0.32,,64,4682,5,24,56,0.659,0.0,532,4.87,12.7,0.0,1,28.3,2.73,5.5,0,0,0,1,0,,,,,,,,,,,,,,,,,,,,
7584,0,,,249,251,237,232,,-0.34,0.02,1.5,0,3,6,0.34,,64,4738,5,24,56,0.658,0.0,538,4.88,12.7,0.0,1,29.0,2.77,5.5,0,0,0,1,0,,,,,,,,,,,,,,,,,,,,
7604,0,,,249,251,237,232,,-0.29,0.03,1.55,0,2,4,0.29,,64,4761,5,24,57,0.659,0.0,537,4.87,13.0,0.0,1,29.6,2.78,5.5,0,0,0,1,0,,,,,,,,,,,,,,,,,,,,
7624,0,,,249,252,237,232,,-0.22,0.02,1.43,0,3,4,0.22,,64,4781,5,24,57,0.658,0.0,560,4.88,13.1,0.0,1,29.9,2.8,6.1,0,0,0,1,0,,,,,,,,,,,,,,,,,,,,
7644,0,0,2,249,252,237,232,-8,-0.16,-0.01,1.32,0,3,5,0.16,1,64,4768,5,24,57,0.658,0.0,548,4.88,13.0,0.0,1,29.7,2.79,6.1,0,0,0,1,0,0,250,250,0,0.0,0.0,0.0,0.0,0,0,0.0,0,0.0,-1,0.0,0.0,0.0,0,0.0,0.1274
7664,0,,,249,252,237,232,,-0.19,0.0,1.37,0,3,5,0.19,,64,4766,4,24,57,0.658,0.0,544,4.83,12.8,0.0,1,29.5,2.79,6.1,0,0,0,1,0,,,,,,,,,,,,,,,,,,,,
7684,0,,,249,252,237,232,,-0.24,0.02,1.58,0,3,5,0.25,,64,4797,4,24,57,0.658,0.0,552,4.9,12.8,0.0,1,30.1,2.8,6.1,0,0,0,1,0,,,,,,,,,,,,,,,,,,,,
7704,0,,,249,252,237,232,,-0.23,0.05,1.76,-0,1,3,0.24,,64,4826,5,24,57,0.658,0.0,549,4.9,13.0,0.0,1,30.5,2.82,6.1,0,0,0,1,0,,,,,,,,,,,,,,,,,,,,
7724,0,,,249,252,237,232,,-0.17,0.02,1.63,-0,2,2,0.17,,64,4829,4,24,58,0.659,0.0,553,4.88,13.0,0.0,1,30.8,2.82,6.2,0,0,0,1,0,,,,,,,,,,,,,,,,,,,,
7744,0,0,2,249,252,237,232,-7,-0.13,0.0,1.5,-0,3,4,0.13,1,64,4863,4,24,58,0.658,0.0,558,4.86,13.1,0.0,1,31.2,1.67,6.2,0,0,0,1,0,0,250,250,0,0.0,0.0,0.0,0.0,0,0,0.0,0,0.0,-1,0.0,,0.0,0,0.0,0.1291
7764,0,,,249,252,237,232,,-0.18,0.02,1.69,0,3,4,0.18,,64,4847,4,24,58,0.657,0.0,555,4.85,12.7,0.0,1,31.0,1.66,6.2,0,0,0,1,0,,,,,,,,,,,,,,,,,,,,
