"Interval"|"ms"|0|0|1,"Utc"|"ms"|0|0|1,"Brake_F"|"Bar"|0|2000|10,"Brake_R"|"Bar"|0|2000|10,"Height_RF"|"mm"|0|255|50,"Height_LF"|"mm"|0|255|50,"Height_LR"|"mm"|0|80|50,"Height_RR"|"mm"|0|255|50,"Steering"|"deg"|-100|100|10,"AccelX"|"G"|-3.0|3.0|50,"AccelY"|"G"|-3.0|3.0|50,"AccelZ"|"G"|-3.0|3.0|50,"Yaw"|"Deg/Sec"|-120|120|50,"Pitch"|"Deg/Sec"|-120|120|50,"Roll"|"Deg/Sec"|-120|120|50,"Gsum"|"G"|0.0|3.0|50,"Log_Button"|""|0.0|10.0|10,"WaterTemp"|"C"|0|150|50,"RPM"|"tr/min"|0|14000|50,"TPS"|"%"|0|100|50,"AirTemp"|"C"|0|150|50,"MAP"|"KPa"|0|100|50,"Lambda"|""|0.5|1.5|50,"SpeedDTA"|"kph"|0.0|250.0|50,"OilPress"|"KPa"|0|1500|50,"FuelPressur"|"Bar"|0.0|10.0|50,"Batterie"|"V"|0.0|20.0|50,"ConsoKm"|"L/100km"|0.0|200.0|50,"Gear"|""|0|6|50,"AdvIgnition"|"Deg"|-20.0|70.0|50,"Injection"|"ms"|0.0|10.0|50,"ConsoHr"|"L/Hr"|0.0|10000.0|50,"LC_But_Pres"|""|0|1|50,"LC_Active"|""|0|1|50,"TractionOn"|""|0|1|50,"TractionWet"|""|0|1|50,"FanOn"|""|0|1|50,"RD_Speed"|"km/h"|-30|250|10,"RUD_Speed"|"km/h"|-30|250|10,"LD_Speed"|"km/h"|-30|250|10,"LUD_Speed"|"km/h"|-30|250|10,"Latitude"|"Degrees"|-180.0|180.0|10,"Longitude"|"Degrees"|-180.0|180.0|10,"Speed"|"kph"|0.0|150.0|10,"Altitude"|"m"|0.0|4000.0|10,"GPSSats"|""|0|20|10,"GPSQual"|""|0|5|10,"GPSDOP"|""|0.0|20.0|10,"LapCount"|""|0|0|10,"LapTime"|"Min"|0.0|0.0|10,"Sector"|""|0|0|10,"SectorTime"|"Min"|0.0|0.0|10,"PredTime"|"Min"|0.0|0.0|5,"ElapsedTime"|"Min"|0.0|0.0|10,"CurrentLap"|""|0|0|10,"Distance"|"km"|0.0|0.0|10,"SessionTime"|"Min"|0.0|0.0|10
1064,0,,,249,251,237,231,,-0.04,0.02,0.99,-0,-0,-0,0.05,,0,0,0,0,0,0.0,0.0,0,0.0,0.0,0.0,0,0.0,0.0,0.0,0,0,0,0,0,,,,,,,,,,,,,,,,,,,,
1084,0,,,249,251,237,232,,-0.05,0.02,0.99,-0,-0,-0,0.05,,0,0,0,0,0,0.0,0.0,0,0.0,0.0,0.0,0,0.0,0.0,0.0,0,0,0,0,0,,,,,,,,,,,,,,,,,,,,
1104,0,,,249,251,237,232,,-0.05,0.02,0.98,-0,-0,-0,0.05,,0,0,0,0,0,0.0,0.0,0,0.0,0.0,0.0,0,0.0,0.0,0.0,0,0,0,0,0,,,,,,,,,,,,,,,,,,,,
1124,0,,,249,251,237,232,,-0.05,0.02,0.98,-0,-0,-0,0.05,,0,0,0,0,0,0.0,0.0,0,0.0,0.0,0.0,0,0.0,0.0,0.0,0,0,0,0,0,,,,,,,,,,,,,,,,,,,,
1144,0,0,2,249,251,237,232,-0,-0.05,0.02,0.98,-0,-0,-0,0.05,1,0,0,0,0,0,0.0,0.0,0,0.0,0.0,0.0,0,0.0,0.0,0.0,0,0,0,0,0,0,0,0,0,0.0,0.0,0.0,0.0,0,0,0.0,0,0.0,-1,0.0,,0.0,0,0.0,0.0191
1164,0,,,249,251,237,232,,-0.05,0.02,0.99,-0,-0,-0,0.05,,0,0,0,0,0,0.0,0.0,0,0.0,0.0,0.0,0,0.0,0.0,0.0,0,0,0,0,0,,,,,,,,,,,,,,,,,,,,
1184,0,,,249,251,237,232,,-0.05,0.02,0.98,-0,-0,-0,0.05,,0,0,0,0,0,0.0,0.0,0,0.0,0.0,0.0,0,0.0,0.0,0.0,0,0,0,0,0,,,,,,,,,,,,,,,,,,,,
1204,0,,,249,251,237,232,,-0.05,0.02,0.98,-0,-0,-0,0.05,,0,0,0,0,0,0.0,0.0,0,0.0,0.0,0.0,0,0.0,0.0,0.0,0,0,0,0,0,,,,,,,,,,,,,,,,,,,,
1224,0,,,249,251,237,232,,-0.05,0.02,0.98,-0,-0,-0,0.05,,0,0,0,0,0,0.0,0.0,0,0.0,0.0,0.0,0,0.0,0.0,0.0,0,0,0,0,0,,,,,,,,,,,,,,,,,,,,
1244,0,0,3,249,251,237,232,-1,-0.05,0.02,0.98,-0,-0,-0,0.05,1,0,0,0,0,0,0.0,0.0,0,0.0,0.0,0.0,0,0.0,0.0,0.0,0,0,0,0,0,0,0,0,0,0.0,0.0,0.0,0.0,0,0,0.0,0,0.0,-1,0.0,0.0,0.0,0,0.0,0.0207
1264,0,,,249,251,237,231,,-0.05,0.02,0.98,-0,-0,-0,0.05,,0,0,0,0,0,0.0,0.0,0,0.0,0.0,0.0,0,0.0,0.0,0.0,0,0,0,0,0,,,,,,,,,,,,,,,,,,,,
1284,0,,,249,251,237,232,,-0.05,0.02,0.98,-0,-0,-0,0.05,,0,0,0,0,0,0.0,0.0,0,0.0,0.0,0.0,0,0.0,0.0,0.0,0,0,0,0,0,,,,,,,,,,,,,,,,,,,,
1304,0,,,249,251,237,231,,-0.05,0.02,0.98,-0,-0,-0,0.05,,0,0,0,0,0,0.0,0.0,0,0.0,0.0,0.0,0,0.0,0.0,0.0,0,0,0,0,0,,,,,,,,,,,,,,,,,,,,
1324,0,,,249,251,237,232,,-0.05,0.02,0.98,-0,-0,-0,0.05,,0,0,0,0,0,0.0,0.0,0,0.0,0.0,0.0,0,0.0,0.0,0.0,0,0,0,0,0,,,,,,,,,,,,,,,,,,,,
1344,0,0,2,249,251,237,232,-1,-0.05,0.02,0.98,-0,-0,-0,0.05,1,0,0,0,0,0,0.0,0.0,0,0.0,0.0,0.0,0,0.0,0.0,0.0,0,0,0,0,0,0,0,0,0,0.0,0.0,0.0,0.0,0,0,0.0,0,0.0,-1,0.0,,0.0,0,0.0,0.0224
1364,0,,,249,251,237,232,,-0.05,0.02,0.98,-0,-0,-0,0.05,,0,0,0,0,0,0.0,0.0,0,0.0,0.0,0.0,0,0.0,0.0,0.0,0,0,0,0,0,,,,,,,,,,,,,,,,,,,,
1384,0,,,249,251,237,232,,-0.05,0.02,0.98,-0,-0,-0,0.05,,0,0,0,0,0,0.0,0.0,0,0.0,0.0,0.0,0,0.0,0.0,0.0,0,0,0,0,0,,,,,,,,,,,,,,,,,,,,
1404,0,,,249,251,237,232,,-0.05,0.02,0.98,-0,-0,-0,0.05,,0,0,0,0,0,0.0,0.0,0,0.0,0.0,0.0,0,0.0,0.0,0.0,0,0,0,0,0,,,,,,,,,,,,,,,,,,,,
1424,0,,,249,251,237,232,,-0.05,0.02,0.98,-0,-0,-0,0.05,,0,0,0,0,0,0.0,0.0,0,0.0,0.0,0.0,0,0.0,0.0,0.0,0,0,0,0,0,,,,,,,,,,,,,,,,,,,,
1444,0,-1,3,249,251,237,232,0,-0.05,0.02,0.98,-0,-0,-0,0.05,1,0,0,0,0,0,0.0,0.0,0,0.0,0.0,0.0,0,0.0,0.0,0.0,0,0,0,0,0,0,0,0,0,0.0,0.0,0.0,0.0,0,0,0.0,0,0.0,-1,0.0,0.0,0.0,0,0.0,0.0241
1464,0,,,249,251,237,232,,-0.05,0.02,0.98,-0,-0,-0,0.05,,0,0,0,0,0,0.0,0.0,0,0.0,0.0,0.0,0,0.0,0.0,0.0,0,0,0,0,0,,,,,,,,,,,,,,,,,,,,
1484,0,,,249,251,237,232,,-0.05,0.02,0.98,-0,-0,-0,0.05,,0,0,0,0,0,0.0,0.0,0,0.0,0.0,0.0,0,0.0,0.0,0.0,0,0,0,0,0,,,,,,,,,,,,,,,,,,,,
1504,0,,,249,251,237,232,,-0.05,0.02,0.98,-0,-0,-0,0.05,,0,0,0,0,0,0.0,0.0,0,0.0,0.0,0.0,0,0.0,0.0,0.0,0,0,0,0,0,,,,,,,,,,,,,,,,,,,,
1524,0,,,249,251,237,232,,-0.05,0.02,0.98,-0,-0,-0,0.05,,0,0,0,0,0,0.0,0.0,0,0.0,0.0,0.0,0,0.0,0.0,0.0,0,0,0,0,0,,,,,,,,,,,,,,,,,,,,
1544,0,0,3,249,251,237,232,0,-0.05,0.02,0.98,-0,-0,-0,0.05,1,0,0,0,0,0,0.0,0.0,0,0.0,0.0,0.0,0,0.0,0.0,0.0,0,0,0,0,0,0,0,0,0,0.0,0.0,0.0,0.0,0,0,0.0,0,0.0,-1,0.0,,0.0,0,0.0,0.0257
1564,0,,,249,251,237,232,,-0.05,0.02,0.98,-0,-0,-0,0.05,,0,0,0,0,0,0.0,0.0,0,0.0,0.0,0.0,0,0.0,0.0,0.0,0,0,0,0,0,,,,,,,,,,,,,,,,,,,,
1584,0,,,249,251,237,232,,-0.05,0.01,0.98,-0,-0,-0,0.05,,0,0,0,0,0,0.0,0.0,0,0.0,0.0,0.0,0,0.0,0.0,0.0,0,0,0,0,0,,,,,,,,,,,,,,,,,,,,
1604,0,,,249,251,237,232,,-0.05,0.01,0.98,-0,-0,-0,0.05,,0,0,0,0,0,0.0,0.0,0,0.0,0.0,0.0,0,0.0,0.0,0.0,0,0,0,0,0,,,,,,,,,,,,,,,,,,,,
1624,0,,,249,251,237,231,,-0.05,0.01,0.98,-0,-0,-0,0.05,,0,0,0,0,0,0.0,0.0,0,0.0,0.0,0.0,0,0.0,0.0,0.0,0,0,0,0,0,,,,,,,,,,,,,,,,,,,,
1644,0,-1,3,249,251,237,232,-0,-0.05,0.01,0.98,-0,-0,-0,0.05,1,0,0,0,0,0,0.0,0.0,0,0.0,0.0,0.0,0,0.0,0.0,0.0,0,0,0,0,0,0,0,0,0,0.0,0.0,0.0,0.0,0,0,0.0,0,0.0,-1,0.0,0.0,0.0,0,0.0,0.0274
1664,0,,,249,251,237,232,,-0.05,0.01,0.98,-0,-0,-0,0.05,,0,0,0,0,0,0.0,0.0,0,0.0,0.0,0.0,0,0.0,0.0,0.0,0,0,0,0,0,,,,,,,,,,,,,,,,,,,,
1684,0,,,249,251,237,232,,-0.05,0.01,0.98,-0,-0,-0,0.05,,0,0,0,0,0,0.0,0.0,0,0.0,0.0,0.0,0,0.0,0.0,0.0,0,0,0,0,0,,,,,,,,,,,,,,,,,,,,
1704,0,,,249,251,237,232,,-0.05,0.02,0.98,-0,-0,-0,0.05,,0,0,0,0,0,0.0,0.0,0,0.0,0.0,0.0,0,0.0,0.0,0.0,0,0,0,0,0,,,,,,,,,,,,,,,,,,,,
1724,0,,,249,251,237,232,,-0.05,0.02,0.97,-0,-0,-0,0.05,,0,0,0,0,0,0.0,0.0,0,0.0,0.0,0.0,0,0.0,0.0,0.0,0,0,0,0,0,,,,,,,,,,,,,,,,,,,,
1744,0,-1,2,249,251,237,232,-0,-0.05,0.01,0.98,-0,-0,-0,0.05,1,0,0,0,0,0,0.0,0.0,0,0.0,0.0,0.0,0,0.0,0.0,0.0,0,0,0,0,0,0,0,0,0,0.0,0.0,0.0,0.0,0,0,0.0,0,0.0,-1,0.0,,0.0,0,0.0,0.0291
1764,0,,,249,251,237,232,,-0.05,0.01,0.98,-0,-0,-0,0.05,,0,0,0,0,0,0.0,0.0,0,0.0,0.0,0.0,0,0.0,0.0,0.0,0,0,0,0,0,,,,,,,,,,,,,,,,,,,,
1784,0,,,249,251,237,232,,-0.05,0.02,0.98,-0,-0,-0,0.05,,0,0,0,0,0,0.0,0.0,0,0.0,0.0,0.0,0,0.0,0.0,0.0,0,0,0,0,0,,,,,,,,,,,,,,,,,,,,
1804,0,,,249,251,237,232,,-0.05,0.02,0.98,-0,-0,-0,0.05,,0,0,0,0,0,0.0,0.0,0,0.0,0.0,0.0,0,0.0,0.0,0.0,0,0,0,0,0,,,,,,,,,,,,,,,,,,,,
1824,0,,,249,251,237,232,,-0.05,0.02,0.98,-0,-0,-0,0.05,,0,0,0,0,0,0.0,0.0,0,0.0,0.0,0.0,0,0.0,0.0,0.0,0,0,0,0,0,,,,,,,,,,,,,,,,,,,,
1844,0,1,1,249,251,237,231,-0,-0.05,0.02,0.98,-0,-0,-0,0.05,1,0,0,0,0,0,0.0,0.0,0,0.0,0.0,0.0,0,0.0,0.0,0.0,0,0,0,0,0,0,0,0,0,0.0,0.0,0.0,0.0,0,0,0.0,0,0.0,-1,0.0,0.0,0.0,0,0.0,0.0307
1864,0,,,249,251,237,232,,-0.05,0.02,0.98,-0,-0,-0,0.05,,0,0,0,0,0,0.0,0.0,0,0.0,0.0,0.0,0,0.0,0.0,0.0,0,0,0,0,0,,,,,,,,,,,,,,,,,,,,
1884,0,,,249,251,237,232,,-0.05,0.02,0.98,-0,-0,-0,0.05,,0,0,0,0,0,0.0,0.0,0,0.0,0.0,0.0,0,0.0,0.0,0.0,0,0,0,0,0,,,,,,,,,,,,,,,,,,,,
1904,0,,,249,251,237,232,,-0.05,0.02,0.98,-0,-0,-0,0.05,,0,0,0,0,0,0.0,0.0,0,0.0,0.0,0.0,0,0.0,0.0,0.0,0,0,0,0,0,,,,,,,,,,,,,,,,,,,,
1924,0,,,249,251,238,231,,-0.05,0.02,0.98,-0,-0,-0,0.05,,0,0,0,0,0,0.0,0.0,0,0.0,0.0,0.0,0,0.0,0.0,0.0,0,0,0,0,0,,,,,,,,,,,,,,,,,,,,
1944,0,-0,3,249,251,237,232,-1,-0.05,0.02,0.98,-0,-0,-0,0.05,1,0,0,0,0,0,0.0,0.0,0,0.0,0.0,0.0,0,0.0,0.0,0.0,0,0,0,0,0,0,0,0,0,0.0,0.0,0.0,0.0,0,0,0.0,0,0.0,-1,0.0,,0.0,0,0.0,0.0324
1964,0,,,249,251,237,232,,-0.05,0.02,0.98,-0,-0,-0,0.05,,0,0,0,0,0,0.0,0.0,0,0.0,0.0,0.0,0,0.0,0.0,0.0,0,0,0,0,0,,,,,,,,,,,,,,,,,,,,
1984,0,,,249,251,237,232,,-0.05,0.02,0.98,-0,-0,-0,0.05,,0,0,0,0,0,0.0,0.0,0,0.0,0.0,0.0,0,0.0,0.0,0.0,0,0,0,0,0,,,,,,,,,,,,,,,,,,,,
2004,0,,,249,251,237,231,,-0.05,0.02,0.98,-0,-0,-0,0.05,,0,0,0,0,0,0.0,0.0,0,0.0,0.0,0.0,0,0.0,0.0,0.0,0,0,0,0,0,,,,,,,,,,,,,,,,,,,,
2024,0,,,249,251,237,232,,-0.05,0.02,0.98,-0,-0,-0,0.05,,0,0,0,0,0,0.0,0.0,0,0.0,0.0,0.0,0,0.0,0.0,0.0,0,0,0,0,0,,,,,,,,,,,,,,,,,,,,
2044,0,-0,3,249,251,237,232,0,-0.05,0.02,0.98,-0,-0,-0,0.05,1,0,0,0,0,0,0.0,0.0,0,0.0,0.0,0.0,0,0.0,0.0,0.0,0,0,0,0,0,0,0,0,0,0.0,0.0,0.0,0.0,0,0,0.0,0,0.0,-1,0.0,0.0,0.0,0,0.0,0.0341
2064,0,,,249,251,237,232,,-0.05,0.02,0.98,-0,-0,-0,0.05,,0,0,0,0,0,0.0,0.0,0,0.0,0.0,0.0,0,0.0,0.0,0.0,0,0,0,0,0,,,,,,,,,,,,,,,,,,,,
2084,0,,,249,251,237,232,,-0.05,0.02,0.98,-0,-0,-0,0.05,,0,0,0,0,0,0.0,0.0,0,0.0,0.0,0.0,0,0.0,0.0,0.0,0,0,0,0,0,,,,,,,,,,,,,,,,,,,,
2104,0,,,249,251,237,232,,-0.05,0.02,0.98,-0,-0,-0,0.05,,0,0,0,0,0,0.0,0.0,0,0.0,0.0,0.0,0,0.0,0.0,0.0,0,0,0,0,0,,,,,,,,,,,,,,,,,,,,
2124,0,,,249,251,237,232,,-0.05,0.02,0.98,-0,-0,-0,0.05,,0,0,0,0,0,0.0,0.0,0,0.0,0.0,0.0,0,0.0,0.0,0.0,0,0,0,0,0,,,,,,,,,,,,,,,,,,,,
2144,0,0,4,249,251,237,232,0,-0.05,0.02,0.98,-0,-0,-0,0.06,1,0,0,0,0,0,0.0,0.0,0,0.0,0.0,0.0,0,0.0,0.0,0.0,0,0,0,0,0,0,0,0,0,0.0,0.0,0.0,0.0,0,0,0.0,0,0.0,-1,0.0,,0.0,0,0.0,0.0357
2164,0,,,249,251,238,232,,-0.05,0.02,0.98,-0,-0,-0,0.06,,63,0,4,23,99,0.504,0.0,113,4.9,12.8,0.0,1,0.0,0.0,0.0,0,0,0,1,0,,,,,,,,,,,,,,,,,,,,
2184,0,,,249,251,237,232,,-0.05,0.02,0.98,-0,-0,-0,0.06,,63,0,4,23,99,0.505,0.0,113,4.9,12.8,0.0,1,0.0,0.0,0.0,0,0,0,1,0,,,,,,,,,,,,,,,,,,,,
2204,0,,,249,251,237,232,,-0.05,0.02,0.98,-0,-0,-0,0.06,,63,0,4,23,99,0.506,0.0,113,4.91,12.8,0.0,1,0.0,0.0,0.0,0,0,0,1,0,,,,,,,,,,,,,,,,,,,,
2224,0,,,249,251,237,232,,-0.05,0.02,0.98,-0,-0,-0,0.05,,63,0,4,23,99,0.507,0.0,113,4.91,12.8,0.0,1,0.0,0.0,0.0,0,0,0,1,0,,,,,,,,,,,,,,,,,,,,
2244,0,1,1,249,251,237,231,-0,-0.05,0.02,0.98,-0,-0,-0,0.05,1,63,0,4,23,99,0.508,0.0,113,4.91,12.8,0.0,1,0.0,0.0,0.0,0,0,0,1,0,0,250,250,0,0.0,0.0,0.0,0.0,0,0,0.0,0,0.0,-1,0.0,0.0,0.0,0,0.0,0.0374
2264,0,,,249,251,237,231,,-0.05,0.02,0.98,-0,-0,-0,0.05,,63,0,4,23,99,0.509,0.0,113,4.9,12.8,0.0,1,0.0,0.0,0.0,0,0,0,1,0,,,,,,,,,,,,,,,,,,,,
2284,0,,,249,251,237,232,,-0.05,0.02,0.98,-0,-0,-0,0.05,,63,0,4,23,99,0.51,0.0,113,4.89,12.8,0.0,1,0.0,0.0,0.0,0,0,0,1,0,,,,,,,,,,,,,,,,,,,,
2304,0,,,249,251,237,232,,-0.05,0.02,0.98,-0,-0,-0,0.05,,63,0,4,23,99,0.511,0.0,113,4.9,12.8,0.0,1,0.0,0.0,0.0,0,0,0,1,0,,,,,,,,,,,,,,,,,,,,
2324,0,,,249,251,237,232,,-0.05,0.02,0.98,-0,-0,-0,0.05,,63,0,5,23,99,0.512,0.0,113,4.9,12.8,0.0,1,0.0,0.0,0.0,0,0,0,1,0,,,,,,,,,,,,,,,,,,,,
2344,0,1,1,249,251,237,232,0,-0.05,0.02,0.98,-0,-0,-0,0.05,1,63,0,4,23,99,0.514,0.0,113,4.89,12.8,0.0,1,0.0,0.0,0.0,0,0,0,1,0,0,250,250,0,0.0,0.0,0.0,0.0,0,0,0.0,0,0.0,-1,0.0,,0.0,0,0.0,0.0391
2364,0,,,249,251,237,232,,-0.05,0.02,0.98,-0,-0,-0,0.05,,63,0,4,23,99,0.519,0.0,113,4.9,12.8,0.0,1,0.0,0.0,0.0,0,0,0,1,0,,,,,,,,,,,,,,,,,,,,
2384,0,,,249,251,237,232,,-0.05,0.02,0.98,-0,-0,-0,0.05,,63,0,4,23,99,0.524,0.0,113,4.89,12.8,0.0,1,0.0,0.0,0.0,0,0,0,1,0,,,,,,,,,,,,,,,,,,,,
2404,0,,,249,251,237,231,,-0.05,0.02,0.98,-0,-0,-0,0.05,,63,0,4,23,99,0.529,0.0,113,4.88,12.8,0.0,1,0.0,0.0,0.0,0,0,0,1,0,,,,,,,,,,,,,,,,,,,,
2424,0,,,249,251,237,232,,-0.05,0.02,0.98,-0,-0,-0,0.05,,63,0,4,23,99,0.533,0.0,113,4.9,12.8,0.0,1,0.0,0.0,0.0,0,0,0,1,0,,,,,,,,,,,,,,,,,,,,
2444,0,1,1,249,251,237,232,0,-0.05,0.02,0.98,-0,-0,-0,0.05,1,63,0,4,23,99,0.536,0.0,113,4.88,12.9,0.0,1,0.0,0.0,0.0,0,0,0,1,0,0,250,250,0,0.0,0.0,0.0,0.0,0,0,0.0,0,0.0,-1,0.0,0.0,0.0,0,0.0,0.0407
2464,0,,,249,251,237,232,,-0.05,0.02,0.98,-0,-0,-0,0.05,,63,0,4,23,99,0.539,0.0,113,4.89,12.9,0.0,1,0.0,0.0,0.0,0,0,0,1,0,,,,,,,,,,,,,,,,,,,,
2484,0,,,249,251,237,232,,-0.05,0.02,0.98,-0,-0,-0,0.05,,63,0,4,23,99,0.541,0.0,113,4.9,12.9,0.0,1,0.0,0.0,0.0,0,0,0,1,0,,,,,,,,,,,,,,,,,,,,
2504,0,,,249,251,237,232,,-0.04,0.02,0.99,-0,-0,-0,0.05,,63,0,4,23,99,0.543,0.0,113,4.91,12.9,0.0,1,0.0,0.0,0.0,0,0,0,1,0,,,,,,,,,,,,,,,,,,,,
2524,0,,,249,251,237,232,,-0.04,0.02,0.98,-0,-0,-0,0.05,,63,0,4,23,99,0.547,0.0,113,4.9,12.9,0.0,1,0.0,0.0,0.0,0,0,0,1,0,,,,,,,,,,,,,,,,,,,,
2544,0,1,2,249,251,237,232,-0,-0.04,0.02,0.98,-0,-0,-0,0.05,1,63,0,4,23,99,0.55,0.0,113,4.88,12.9,0.0,1,0.0,0.0,0.0,0,0,0,1,0,0,250,250,0,0.0,0.0,0.0,0.0,0,0,0.0,0,0.0,-1,0.0,,0.0,0,0.0,0.0424
2564,0,,,249,251,237,232,,-0.05,0.02,0.98,-0,-0,-0,0.05,,63,0,4,23,99,0.554,0.0,113,4.9,12.9,0.0,1,0.0,0.0,0.0,0,0,0,1,0,,,,,,,,,,,,,,,,,,,,
2584,0,,,249,250,237,232,,-0.05,0.02,0.98,-0,-0,-0,0.05,,63,0,4,23,99,0.557,0.0,113,4.91,12.9,0.0,1,0.0,0.0,0.0,0,0,0,1,0,,,,,,,,,,,,,,,,,,,,
2604,0,,,249,251,237,232,,-0.05,0.02,0.98,-0,-0,-0,0.05,,63,0,4,23,99,0.557,0.0,113,4.9,12.9,0.0,1,0.0,0.0,0.0,0,0,0,1,0,,,,,,,,,,,,,,,,,,,,
2624,0,,,249,251,237,232,,-0.05,0.02,0.98,-0,-0,-0,0.05,,63,0,4,23,99,0.556,0.0,113,4.9,12.9,0.0,1,0.0,0.0,0.0,0,0,0,1,0,,,,,,,,,,,,,,,,,,,,
2644,0,0,2,249,251,237,232,-0,-0.05,0.02,0.98,-0,-0,-0,0.05,1,63,0,4,23,99,0.556,0.0,113,4.91,12.9,0.0,1,0.0,0.0,0.0,0,0,0,1,0,0,250,250,0,0.0,0.0,0.0,0.0,0,0,0.0,0,0.0,-1,0.0,0.0,0.0,0,0.0,0.0441
2664,0,,,249,251,237,232,,-0.05,0.02,0.98,-0,-0,-0,0.05,,63,0,4,24,99,0.555,0.0,113,4.9,12.9,0.0,1,0.0,0.0,0.0,0,0,0,1,0,,,,,,,,,,,,,,,,,,,,
2684,0,,,249,251,237,231,,-0.05,0.02,0.98,-0,-0,-0,0.05,,63,0,4,24,99,0.554,0.0,113,4.9,12.9,0.0,1,0.0,0.0,0.0,0,0,0,1,0,,,,,,,,,,,,,,,,,,,,
2704,0,,,249,251,237,231,,-0.05,0.02,0.98,-0,-0,-0,0.05,,63,0,4,24,99,0.554,0.0,113,4.9,12.9,0.0,1,0.0,0.0,0.0,0,0,0,1,0,,,,,,,,,,,,,,,,,,,,
2724,0,,,249,251,237,232,,-0.05,0.02,0.98,-0,-0,-0,0.05,,63,0,4,24,99,0.554,0.0,113,4.9,12.9,0.0,1,0.0,0.0,0.0,0,0,0,1,0,,,,,,,,,,,,,,,,,,,,
2744,0,0,4,249,251,237,232,0,-0.05,0.02,0.98,-0,-0,-0,0.05,1,63,0,4,24,99,0.554,0.0,113,4.9,12.9,0.0,1,0.0,0.0,0.0,0,0,0,1,0,0,250,250,0,0.0,0.0,0.0,0.0,0,0,0.0,0,0.0,-1,0.0,,0.0,0,0.0,0.0457
2764,0,,,249,251,237,232,,-0.05,0.02,0.98,-0,-0,-0,0.05,,63,0,5,24,99,0.553,0.0,113,4.91,12.9,0.0,1,0.0,0.0,0.0,0,0,0,1,0,,,,,,,,,,,,,,,,,,,,
2784,0,,,249,251,237,231,,-0.05,0.02,0.98,-0,-0,-0,0.05,,63,0,4,24,99,0.554,0.0,113,4.9,12.9,0.0,1,0.0,0.0,0.0,0,0,0,1,0,,,,,,,,,,,,,,,,,,,,
2804,0,,,249,251,237,232,,-0.05,0.02,0.98,-0,-0,-0,0.05,,63,0,4,24,99,0.553,0.0,113,4.9,12.9,0.0,1,0.0,0.0,0.0,0,0,0,1,0,,,,,,,,,,,,,,,,,,,,
2824,0,,,249,251,237,232,,-0.05,0.02,0.98,-0,-0,-0,0.05,,63,0,4,24,99,0.553,0.0,113,4.9,12.9,0.0,1,0.0,0.0,0.0,0,0,0,1,0,,,,,,,,,,,,,,,,,,,,
2844,0,-1,3,249,251,237,232,0,-0.05,0.02,0.98,-0,-0,-0,0.05,1,63,0,4,24,99,0.553,0.0,113,4.9,12.9,0.0,1,0.0,0.0,0.0,0,0,0,1,0,0,250,250,0,0.0,0.0,0.0,0.0,0,0,0.0,0,0.0,-1,0.0,0.0,0.0,0,0.0,0.0474
2864,0,,,249,251,237,232,,-0.05,0.02,0.98,-0,-0,-0,0.05,,63,0,4,24,99,0.554,0.0,113,4.9,12.9,0.0,1,0.0,0.0,0.0,0,0,0,1,0,,,,,,,,,,,,,,,,,,,,
2884,0,,,249,251,237,232,,-0.05,0.02,0.98,-0,-0,-0,0.05,,63,0,4,24,99,0.555,0.0,113,4.91,12.9,0.0,1,0.0,0.0,0.0,0,0,0,1,0,,,,,,,,,,,,,,,,,,,,
2904,0,,,249,251,237,231,,-0.05,0.02,0.98,-0,-0,-0,0.05,,63,0,4,24,99,0.556,0.0,113,4.9,12.9,0.0,1,0.0,0.0,0.0,0,0,0,1,0,,,,,,,,,,,,,,,,,,,,
2924,0,,,249,251,237,232,,-0.05,0.02,0.98,-0,-0,-0,0.05,,63,0,4,24,99,0.559,0.0,113,4.9,12.9,0.0,1,0.0,0.0,0.0,0,0,0,1,0,,,,,,,,,,,,,,,,,,,,
2944,0,1,1,249,251,237,232,-1,-0.05,0.02,0.98,-0,-0,-0,0.05,1,63,0,4,24,99,0.56,0.0,113,4.89,12.9,0.0,1,0.0,0.0,0.0,0,0,0,1,0,0,250,250,0,0.0,0.0,0.0,0.0,0,0,0.0,0,0.0,-1,0.0,,0.0,0,0.0,0.0491
2964,0,,,249,251,237,232,,-0.05,0.02,0.98,-0,-0,-0,0.05,,63,0,4,24,99,0.563,0.0,113,4.9,12.9,0.0,1,0.0,0.0,0.0,0,0,0,1,0,,,,,,,,,,,,,,,,,,,,
2984,0,,,249,251,238,231,,-0.05,0.02,0.98,-0,-0,-0,0.05,,63,0,4,24,99,0.564,0.0,113,4.88,12.9,0.0,1,0.0,0.0,0.0,0,0,0,1,0,,,,,,,,,,,,,,,,,,,,
3004,0,,,249,251,237,232,,-0.05,0.02,0.98,-0,-0,-0,0.05,,63,0,4,24,99,0.566,0.0,113,4.9,12.9,0.0,1,0.0,0.0,0.0,0,0,0,1,0,,,,,,,,,,,,,,,,,,,,
3024,0,,,249,251,237,232,,-0.05,0.02,0.98,-0,-0,-0,0.05,,63,0,5,24,99,0.569,0.0,113,4.88,12.9,0.0,1,0.0,0.0,0.0,0,0,0,1,0,,,,,,,,,,,,,,,,,,,,
3044,0,0,1,249,251,237,231,-0,-0.05,0.02,0.98,-0,-0,-0,0.05,1,63,0,4,24,99,0.572,0.0,113,4.89,12.9,0.0,1,0.0,0.0,0.0,0,0,0,1,0,0,250,250,0,0.0,0.0,0.0,0.0,0,0,0.0,0,0.0,-1,0.0,0.0,0.0,0,0.0,0.0507
3064,0,,,249,251,237,232,,-0.05,0.02,0.98,-0,-0,-0,0.05,,63,0,4,24,99,0.575,0.0,113,4.89,12.9,0.0,1,0.0,0.0,0.0,0,0,0,1,0,,,,,,,,,,,,,,,,,,,,
3084,0,,,249,251,237,232,,-0.05,0.02,0.98,-0,-0,-0,0.05,,63,0,4,24,99,0.579,0.0,113,4.89,12.9,0.0,1,0.0,0.0,0.0,0,0,0,1,0,,,,,,,,,,,,,,,,,,,,
3104,0,,,249,251,237,232,,-0.05,0.02,0.98,-0,-0,-0,0.05,,63,0,4,24,99,0.581,0.0,113,4.88,12.9,0.0,1,0.0,0.0,0.0,0,0,0,1,0,,,,,,,,,,,,,,,,,,,,
3124,0,,,249,251,237,232,,-0.05,0.02,0.98,-0,-0,-0,0.05,,63,0,4,24,99,0.584,0.0,113,4.89,12.9,0.0,1,0.0,0.0,0.0,0,0,0,1,0,,,,,,,,,,,,,,,,,,,,
3144,0,0,4,249,251,237,232,0,-0.05,0.02,0.98,-0,-0,-0,0.05,1,63,0,4,24,99,0.586,0.0,113,4.91,12.9,0.0,1,0.0,0.0,0.0,0,0,0,1,0,0,250,250,0,0.0,0.0,0.0,0.0,0,0,0.0,0,0.0,-1,0.0,,0.0,0,0.0,0.0524
3164,0,,,249,251,237,231,,-0.05,0.02,0.98,-0,-0,-0,0.05,,63,0,4,24,99,0.588,0.0,113,4.9,12.9,0.0,1,0.0,0.0,0.0,0,0,0,0,0,,,,,,,,,,,,,,,,,,,,
3184,0,,,249,251,237,231,,-0.05,0.02,0.98,-0,-0,-0,0.05,,63,0,4,24,99,0.591,0.0,113,4.82,13.1,0.0,1,0.0,0.0,0.0,0,0,0,0,0,,,,,,,,,,,,,,,,,,,,
3204,0,,,249,251,237,232,,-0.05,0.02,0.98,-0,-0,-0,0.05,,63,0,4,24,99,0.595,0.0,113,4.6,13.1,0.0,1,0.0,0.0,0.0,0,0,0,0,0,,,,,,,,,,,,,,,,,,,,
3224,0,,,249,251,237,232,,-0.05,0.02,0.98,-0,-0,-0,0.05,,63,0,4,24,99,0.598,0.0,113,3.73,13.1,0.0,1,0.0,0.0,0.0,0,0,0,0,0,,,,,,,,,,,,,,,,,,,,
3244,0,0,4,249,251,237,232,-1,-0.05,0.02,0.98,-0,-0,-0,0.05,1,63,0,5,24,99,0.602,0.0,113,3.43,13.1,0.0,1,0.0,0.0,0.0,0,0,0,0,0,0,250,250,0,0.0,0.0,0.0,0.0,0,0,0.0,0,0.0,-1,0.0,0.0,0.0,0,0.0,0.0541
3264,0,,,249,251,237,232,,-0.05,0.02,0.98,-0,-0,-0,0.05,,63,0,4,24,99,0.604,0.0,113,3.24,13.0,0.0,1,0.0,0.0,0.0,0,0,0,0,0,,,,,,,,,,,,,,,,,,,,
3284,0,,,249,251,237,232,,-0.05,0.02,0.98,-0,-0,-0,0.05,,63,0,5,24,99,0.607,0.0,113,3.08,13.0,0.0,1,0.0,0.0,0.0,0,0,0,0,0,,,,,,,,,,,,,,,,,,,,
3304,0,,,249,251,237,232,,-0.05,0.02,0.98,-0,-0,-0,0.05,,63,0,5,24,99,0.609,0.0,113,2.94,13.1,0.0,1,0.0,0.0,0.0,0,0,0,0,0,,,,,,,,,,,,,,,,,,,,
3324,0,,,249,251,237,232,,-0.05,0.02,0.98,-0,-0,-0,0.05,,63,0,5,24,99,0.612,0.0,113,2.82,13.1,0.0,1,0.0,0.0,0.0,0,0,0,0,0,,,,,,,,,,,,,,,,,,,,
3344,0,-1,3,249,251,237,231,0,-0.05,0.02,0.98,-0,-0,-0,0.05,1,63,0,4,24,99,0.615,0.0,113,2.73,13.1,0.0,1,0.0,0.0,0.0,0,0,0,0,0,0,250,250,0,0.0,0.0,0.0,0.0,0,0,0.0,0,0.0,-1,0.0,,0.0,0,0.0,0.0557
3364,0,,,249,251,237,232,,-0.05,0.02,0.98,-0,-0,-0,0.05,,63,0,5,24,99,0.617,0.0,113,2.65,13.1,0.0,1,0.0,0.0,0.0,0,0,0,0,0,,,,,,,,,,,,,,,,,,,,
3384,0,,,249,251,237,232,,-0.05,0.02,0.98,-0,-0,-0,0.05,,63,0,4,24,99,0.62,0.0,113,2.57,13.1,0.0,1,0.0,0.0,0.0,0,0,0,0,0,,,,,,,,,,,,,,,,,,,,
3404,0,,,249,251,237,232,,-0.05,0.02,0.98,-0,-0,-0,0.05,,63,0,4,24,99,0.623,0.0,113,2.49,13.1,0.0,1,0.0,0.0,0.0,0,0,0,0,0,,,,,,,,,,,,,,,,,,,,
3424,0,,,249,251,237,232,,-0.05,0.02,0.98,-0,-0,-0,0.05,,63,0,4,24,99,0.624,0.0,113,2.43,13.0,0.0,1,0.0,0.0,0.0,0,0,0,0,0,,,,,,,,,,,,,,,,,,,,
3444,0,-1,3,249,251,237,232,-0,-0.05,0.02,0.98,-0,-0,-0,0.05,1,63,0,5,24,99,0.627,0.0,113,2.37,13.0,0.0,1,0.0,0.0,0.0,0,0,0,0,0,0,250,250,0,0.0,0.0,0.0,0.0,0,0,0.0,0,0.0,-1,0.0,0.0,0.0,0,0.0,0.0574
3464,0,,,249,251,237,231,,-0.05,0.02,0.98,-0,-0,-0,0.05,,63,0,5,24,99,0.628,0.0,113,2.32,13.0,0.0,1,0.0,0.0,0.0,0,0,0,0,0,,,,,,,,,,,,,,,,,,,,
3484,0,,,249,251,237,232,,-0.05,0.02,0.98,-0,-0,-0,0.05,,63,0,4,24,99,0.63,0.0,113,2.27,13.1,0.0,1,0.0,0.0,0.0,0,0,0,0,0,,,,,,,,,,,,,,,,,,,,
3504,0,,,249,251,237,232,,-0.05,0.02,0.98,-0,-0,-0,0.05,,63,0,4,24,99,0.633,0.0,114,2.21,13.1,0.0,1,0.0,0.0,0.0,0,0,0,0,0,,,,,,,,,,,,,,,,,,,,
3524,0,,,249,251,237,232,,-0.05,0.02,0.98,-0,-0,-0,0.05,,63,0,5,24,99,0.635,0.0,114,2.17,13.1,0.0,1,0.0,0.0,0.0,0,0,0,0,0,,,,,,,,,,,,,,,,,,,,
3544,0,1,2,249,251,237,232,0,-0.05,0.02,0.98,-0,-0,-0,0.05,1,63,0,4,24,99,0.636,0.0,114,2.13,13.1,0.0,1,0.0,0.0,0.0,0,0,0,0,0,0,250,250,0,0.0,0.0,0.0,0.0,0,0,0.0,0,0.0,-1,0.0,,0.0,0,0.0,0.0591
3564,0,,,249,251,237,232,,-0.05,0.02,0.98,-0,-0,-0,0.05,,63,0,4,24,99,0.639,0.0,114,2.1,13.1,0.0,1,0.0,0.0,0.0,0,0,0,0,0,,,,,,,,,,,,,,,,,,,,
3584,0,,,249,251,237,232,,-0.05,0.02,0.98,-0,-0,-0,0.05,,63,0,4,24,99,0.64,0.0,114,2.06,13.0,0.0,1,0.0,0.0,0.0,0,0,0,0,0,,,,,,,,,,,,,,,,,,,,
3604,0,,,249,251,237,231,,-0.05,0.02,0.98,-0,-0,-0,0.05,,63,0,5,24,99,0.643,0.0,114,2.02,13.0,0.0,1,0.0,0.0,0.0,0,0,0,0,0,,,,,,,,,,,,,,,,,,,,
3624,0,,,249,251,237,232,,-0.05,0.02,0.98,-0,-0,-0,0.05,,63,0,4,24,99,0.644,0.0,114,2.0,13.0,0.0,1,0.0,0.0,0.0,0,0,0,0,0,,,,,,,,,,,,,,,,,,,,
3644,0,1,1,249,251,237,232,0,-0.05,0.02,0.98,-0,-0,-0,0.05,1,63,0,4,24,99,0.647,0.0,114,1.97,13.1,0.0,1,0.0,0.0,0.0,0,0,0,0,0,0,250,250,0,0.0,0.0,0.0,0.0,0,0,0.0,0,0.0,-1,0.0,0.0,0.0,0,0.0,0.0607
3664,0,,,249,251,237,232,,-0.05,0.02,0.98,-0,-0,-0,0.05,,63,0,4,24,99,0.649,0.0,113,1.94,13.1,0.0,1,0.0,0.0,0.0,0,0,0,0,0,,,,,,,,,,,,,,,,,,,,
3684,0,,,249,251,237,232,,-0.05,0.02,0.98,-0,-0,-0,0.05,,63,0,4,24,99,0.651,0.0,113,1.92,13.1,0.0,1,0.0,0.0,0.0,0,0,0,0,0,,,,,,,,,,,,,,,,,,,,
3704,0,,,249,251,237,232,,-0.05,0.02,0.98,-0,-0,-0,0.05,,63,0,4,24,99,0.652,0.0,113,1.89,13.1,0.0,1,0.0,0.0,0.0,0,0,0,0,0,,,,,,,,,,,,,,,,,,,,
3724,0,,,249,251,237,232,,-0.05,0.02,0.98,-0,-0,-0,0.05,,63,0,5,24,99,0.653,0.0,113,1.87,13.1,0.0,1,0.0,0.0,0.0,0,0,0,0,0,,,,,,,,,,,,,,,,,,,,
3744,0,1,2,249,251,237,232,-0,-0.05,0.02,0.98,-0,-0,-0,0.05,1,63,0,4,24,99,0.654,0.0,113,1.86,13.1,0.0,1,0.0,0.0,0.0,0,0,0,0,0,0,250,250,0,0.0,0.0,0.0,0.0,0,0,0.0,0,0.0,-1,0.0,,0.0,0,0.0,0.0624
3764,0,,,249,251,237,231,,-0.05,0.02,0.98,-0,-0,-0,0.05,,63,0,4,24,99,0.654,0.0,113,1.83,13.0,0.0,1,0.0,0.0,0.0,0,0,0,0,0,,,,,,,,,,,,,,,,,,,,
3784,0,,,249,251,237,232,,-0.05,0.02,0.98,-0,-0,-0,0.05,,63,0,5,24,99,0.655,0.0,113,1.8,13.0,0.0,1,0.0,0.0,0.0,0,0,0,0,0,,,,,,,,,,,,,,,,,,,,
3804,0,,,249,251,237,232,,-0.05,0.02,0.98,-0,-0,-0,0.05,,63,0,4,24,99,0.656,0.0,113,1.8,13.0,0.0,1,0.0,0.0,0.0,0,0,0,0,0,,,,,,,,,,,,,,,,,,,,
3824,0,,,249,251,237,232,,-0.05,0.02,0.98,-0,-0,-0,0.05,,63,0,5,24,99,0.657,0.0,113,1.78,13.1,0.0,1,0.0,0.0,0.0,0,0,0,0,0,,,,,,,,,,,,,,,,,,,,
3844,0,1,1,249,251,237,231,-0,-0.05,0.02,0.98,-0,-0,-0,0.05,1,63,0,4,24,99,0.656,0.0,113,1.77,13.1,0.0,1,0.0,0.0,0.0,0,0,0,0,0,0,250,250,0,0.0,0.0,0.0,0.0,0,0,0.0,0,0.0,-1,0.0,0.0,0.0,0,0.0,0.0641
3864,0,,,249,251,237,232,,-0.05,0.02,0.98,-0,-0,-0,0.05,,63,0,4,24,99,0.655,0.0,113,1.75,13.1,0.0,1,0.0,0.0,0.0,0,0,0,0,0,,,,,,,,,,,,,,,,,,,,
3884,0,,,249,251,237,232,,-0.05,0.02,0.98,-0,-0,-0,0.05,,63,0,4,24,99,0.654,0.0,113,1.73,13.1,0.0,1,0.0,0.0,0.0,0,0,0,0,0,,,,,,,,,,,,,,,,,,,,
3904,0,,,249,251,237,232,,-0.05,0.02,0.98,-0,-0,-0,0.05,,63,0,4,24,99,0.654,0.0,113,1.73,13.1,0.0,1,0.0,0.0,0.0,0,0,0,0,0,,,,,,,,,,,,,,,,,,,,
3924,0,,,249,251,237,232,,-0.05,0.02,0.98,-0,-0,-0,0.05,,63,0,5,24,99,0.653,0.0,113,1.7,13.0,0.0,1,0.0,0.0,0.0,0,0,0,0,0,,,,,,,,,,,,,,,,,,,,
3944,0,-0,3,249,251,237,232,-0,-0.05,0.02,0.98,-0,-0,-0,0.05,1,63,0,4,24,99,0.653,0.0,113,1.7,13.0,0.0,1,0.0,0.0,0.0,0,0,0,0,0,0,250,250,0,0.0,0.0,0.0,0.0,0,0,0.0,0,0.0,-1,0.0,,0.0,0,0.0,0.0657
3964,0,,,249,251,237,232,,-0.05,0.02,0.98,-0,-0,-0,0.05,,63,0,4,24,99,0.653,0.0,113,1.67,13.0,0.0,1,0.0,0.0,0.0,0,0,0,0,0,,,,,,,,,,,,,,,,,,,,
3984,0,,,249,251,237,231,,-0.05,0.02,0.98,-0,-0,-0,0.05,,63,0,4,24,99,0.653,0.0,113,1.67,13.1,0.0,1,0.0,0.0,0.0,0,0,0,0,0,,,,,,,,,,,,,,,,,,,,
4004,0,,,249,251,237,232,,-0.05,0.02,0.98,-0,-0,-0,0.05,,63,0,5,24,99,0.653,0.0,113,1.64,13.1,0.0,1,0.0,0.0,0.0,0,0,0,0,0,,,,,,,,,,,,,,,,,,,,
4024,0,,,249,251,237,232,,-0.05,0.02,0.98,-0,-0,-0,0.05,,63,0,4,24,99,0.653,0.0,113,1.64,13.1,0.0,1,0.0,0.0,0.0,0,0,0,0,0,,,,,,,,,,,,,,,,,,,,
4044,0,1,2,249,251,237,232,0,-0.05,0.02,0.98,-0,-0,-0,0.05,1,63,0,4,24,99,0.653,0.0,113,1.61,13.1,0.0,1,0.0,0.0,0.0,0,0,0,0,0,0,250,250,0,0.0,0.0,0.0,0.0,0,0,0.0,0,0.0,-1,0.0,0.0,0.0,0,0.0,0.0674
4064,0,,,249,251,237,231,,-0.05,0.02,0.98,-0,-0,-0,0.05,,63,0,5,24,99,0.652,0.0,113,1.61,13.1,0.0,1,0.0,0.0,0.0,0,0,0,0,0,,,,,,,,,,,,,,,,,,,,
4084,0,,,249,251,237,232,,-0.05,0.02,0.98,-0,-0,-0,0.05,,63,0,4,24,99,0.653,0.0,113,1.58,13.0,0.0,1,0.0,0.0,0.0,0,0,0,0,0,,,,,,,,,,,,,,,,,,,,
4104,0,,,249,251,237,231,,-0.05,0.02,0.98,-0,-0,-0,0.05,,63,0,4,24,99,0.653,0.0,113,1.58,13.0,0.0,1,0.0,0.0,0.0,0,0,0,0,0,,,,,,,,,,,,,,,,,,,,
4124,0,,,249,251,237,232,,-0.05,0.02,0.98,-0,-0,-0,0.05,,63,0,5,24,99,0.654,0.0,113,1.56,13.0,0.0,1,0.0,0.0,0.0,0,0,0,0,0,,,,,,,,,,,,,,,,,,,,
4144,0,-1,3,249,251,237,232,-0,-0.05,0.02,0.98,-0,-0,-0,0.05,1,63,0,4,24,99,0.654,0.0,113,1.56,13.1,0.0,1,0.0,0.0,0.0,0,0,0,0,0,0,250,250,0,0.0,0.0,0.0,0.0,0,0,0.0,0,0.0,-1,0.0,,0.0,0,0.0,0.0691
4164,0,,,249,251,237,232,,-0.05,0.02,0.98,-0,-0,-0,0.05,,63,0,4,24,99,0.654,0.0,113,1.56,13.1,0.0,1,0.0,0.0,0.0,0,0,0,0,0,,,,,,,,,,,,,,,,,,,,
4184,0,,,249,251,237,232,,-0.05,0.02,0.98,-0,-0,-0,0.05,,63,0,4,24,99,0.654,0.0,113,1.53,13.1,0.0,1,0.0,0.0,0.0,0,0,0,0,0,,,,,,,,,,,,,,,,,,,,
4204,0,,,249,251,237,232,,-0.05,0.02,0.98,-0,-0,-0,0.05,,63,0,5,24,99,0.654,0.0,113,1.53,13.1,0.0,1,0.0,0.0,0.0,0,0,0,0,0,,,,,,,,,,,,,,,,,,,,
4224,0,,,249,251,237,231,,-0.05,0.02,0.98,-0,-0,-0,0.05,,63,0,5,24,99,0.654,0.0,113,1.53,13.1,0.0,1,0.0,0.0,0.0,0,0,0,0,0,,,,,,,,,,,,,,,,,,,,
4244,0,1,1,249,251,237,231,0,-0.05,0.02,0.98,-0,-0,-0,0.05,1,63,0,4,24,99,0.653,0.0,113,1.51,13.1,0.0,1,0.0,0.0,0.0,0,0,0,0,0,0,250,250,0,0.0,0.0,0.0,0.0,0,0,0.0,0,0.0,-1,0.0,0.0,0.0,0,0.0,0.0707
4264,0,,,249,251,237,232,,-0.05,0.02,0.98,-0,-0,-0,0.05,,63,0,5,24,99,0.654,0.0,113,1.51,13.0,0.0,1,0.0,0.0,0.0,0,0,0,0,0,,,,,,,,,,,,,,,,,,,,
4284,0,,,249,251,237,231,,-0.05,0.02,0.98,-0,-0,-0,0.05,,63,0,5,24,99,0.654,0.0,113,1.51,13.0,0.0,1,0.0,0.0,0.0,0,0,0,0,0,,,,,,,,,,,,,,,,,,,,
4304,0,,,249,251,237,232,,-0.05,0.02,0.98,-0,-0,-0,0.05,,63,0,4,24,99,0.654,0.0,113,1.48,13.0,0.0,1,0.0,0.0,0.0,0,0,0,0,0,,,,,,,,,,,,,,,,,,,,
4324,0,,,249,251,237,232,,-0.05,0.02,0.98,-0,-0,-0,0.05,,63,0,4,24,99,0.654,0.0,113,1.48,13.1,0.0,1,0.0,0.0,0.0,0,0,0,0,0,,,,,,,,,,,,,,,,,,,,
4344,0,2,3,249,251,237,232,-0,-0.05,0.02,0.98,-0,-0,-0,0.05,1,63,0,4,24,99,0.654,0.0,113,1.48,13.1,0.0,1,0.0,0.0,0.0,0,0,0,0,0,0,250,250,0,0.0,0.0,0.0,0.0,0,0,0.0,0,0.0,-1,0.0,,0.0,0,0.0,0.0724
4364,0,,,249,251,237,231,,-0.05,0.02,0.98,-0,-0,-0,0.05,,63,0,4,24,99,0.655,0.0,113,1.46,13.1,0.0,1,0.0,0.0,0.0,0,0,0,0,0,,,,,,,,,,,,,,,,,,,,
4384,0,,,249,251,237,232,,-0.05,0.02,0.98,-0,-0,-0,0.05,,63,0,4,24,99,0.655,0.0,113,1.45,13.1,0.0,1,0.0,0.0,0.0,0,0,0,0,0,,,,,,,,,,,,,,,,,,,,
4404,0,,,249,251,237,231,,-0.05,0.02,0.98,-0,-0,-0,0.05,,63,0,4,24,99,0.655,0.0,113,1.45,13.1,0.0,1,0.0,0.0,0.0,0,0,0,0,0,,,,,,,,,,,,,,,,,,,,
4424,0,,,249,251,237,231,,-0.05,0.02,0.98,-0,-0,-0,0.05,,63,0,5,24,99,0.655,0.0,113,1.45,13.0,0.0,1,0.0,0.0,0.0,0,0,0,0,0,,,,,,,,,,,,,,,,,,,,
4444,0,1,3,249,251,237,232,0,-0.05,0.02,0.98,-0,-0,-0,0.05,1,63,0,4,24,99,0.655,0.0,113,1.42,13.0,0.0,1,0.0,0.0,0.0,0,0,0,0,0,0,250,250,0,0.0,0.0,0.0,0.0,0,0,0.0,0,0.0,-1,0.0,0.0,0.0,0,0.0,0.0741
4464,0,,,249,251,237,231,,-0.05,0.02,0.98,-0,-0,-0,0.05,,63,0,4,24,99,0.656,0.0,113,1.42,13.0,0.0,1,0.0,0.0,0.0,0,0,0,0,0,,,,,,,,,,,,,,,,,,,,
4484,0,,,249,251,237,232,,-0.05,0.02,0.98,-0,-0,-0,0.05,,63,0,4,24,99,0.656,0.0,113,1.42,13.1,0.0,1,0.0,0.0,0.0,0,0,0,0,0,,,,,,,,,,,,,,,,,,,,
4504,0,,,249,251,237,232,,-0.05,0.02,0.98,-0,-0,-0,0.05,,63,0,5,24,99,0.656,0.0,113,1.42,13.1,0.0,1,0.0,0.0,0.0,0,0,0,0,0,,,,,,,,,,,,,,,,,,,,
4524,0,,,249,251,237,232,,-0.05,0.02,0.98,-0,-0,-0,0.05,,63,0,4,24,99,0.656,0.0,113,1.4,13.1,0.0,1,0.0,0.0,0.0,0,0,0,0,0,,,,,,,,,,,,,,,,,,,,
4544,0,1,1,249,251,237,232,-1,-0.05,0.02,0.98,-0,-0,-0,0.05,1,63,0,5,24,99,0.656,0.0,113,1.4,13.1,0.0,1,0.0,0.0,0.0,0,0,0,0,0,0,250,250,0,0.0,0.0,0.0,0.0,0,0,0.0,0,0.0,-1,0.0,,0.0,0,0.0,0.0757
4564,0,,,249,251,237,232,,-0.05,0.02,0.98,-0,-0,-0,0.05,,63,0,4,24,99,0.656,0.0,113,1.4,13.1,0.0,1,0.0,0.0,0.0,0,0,0,0,0,,,,,,,,,,,,,,,,,,,,
4584,0,,,249,251,237,232,,-0.05,0.02,0.98,-0,-0,-0,0.05,,63,0,5,24,99,0.656,0.0,113,1.4,13.1,0.0,1,0.0,0.0,0.0,0,0,0,0,0,,,,,,,,,,,,,,,,,,,,
4604,0,,,249,251,237,232,,-0.05,0.02,0.98,-0,-0,-0,0.05,,63,0,5,24,99,0.656,0.0,113,1.4,13.0,0.0,1,0.0,0.0,0.0,0,0,0,0,0,,,,,,,,,,,,,,,,,,,,
4624,0,,,249,251,237,231,,-0.05,0.02,0.98,-0,-0,-0,0.05,,63,0,5,24,99,0.655,0.0,113,1.38,13.0,0.0,1,0.0,0.0,0.0,0,0,0,0,0,,,,,,,,,,,,,,,,,,,,
4644,0,2,3,249,251,237,232,-0,-0.05,0.02,0.98,-0,-0,-0,0.05,1,63,0,4,24,99,0.656,0.0,113,1.37,13.0,0.0,1,0.0,0.0,0.0,0,0,0,0,0,0,250,250,0,0.0,0.0,0.0,0.0,0,0,0.0,0,0.0,-1,0.0,0.0,0.0,0,0.0,0.0774
4664,0,,,249,251,237,232,,-0.05,0.02,0.98,-0,-0,-0,0.05,,63,0,4,24,99,0.656,0.0,113,1.37,13.1,0.0,1,0.0,0.0,0.0,0,0,0,0,0,,,,,,,,,,,,,,,,,,,,
4684,0,,,249,251,237,232,,-0.05,0.02,0.98,-0,-0,-0,0.05,,63,0,4,24,99,0.655,0.0,113,1.37,13.1,0.0,1,0.0,0.0,0.0,0,0,0,0,0,,,,,,,,,,,,,,,,,,,,
4704,0,,,249,251,237,232,,-0.05,0.01,0.98,-0,-0,-0,0.05,,63,0,4,24,99,0.654,0.0,113,1.36,11.7,0.0,1,0.0,0.0,0.0,0,0,0,0,0,,,,,,,,,,,,,,,,,,,,
4724,0,,,249,251,237,232,,-0.05,0.02,0.98,-0,-0,-0,0.05,,63,0,5,24,99,0.644,0.0,113,1.35,9.9,0.0,1,0.0,0.0,0.0,0,0,0,0,0,,,,,,,,,,,,,,,,,,,,
4744,0,3,4,249,251,237,232,-0,-0.05,0.02,0.99,-0,-0,-0,0.05,1,63,0,5,24,99,0.631,0.0,115,1.34,10.7,0.0,1,0.0,0.0,0.0,0,0,0,0,0,0,250,250,0,0.0,0.0,0.0,0.0,0,0,0.0,0,0.0,-1,0.0,,0.0,0,0.0,0.0791
4764,0,,,249,251,237,231,,-0.05,0.02,0.99,-0,-0,-0,0.05,,63,0,5,24,99,0.617,0.0,115,1.34,11.0,0.0,1,0.0,0.0,0.0,0,0,0,0,0,,,,,,,,,,,,,,,,,,,,
4784,0,,,249,251,237,232,,-0.05,0.01,0.99,-0,-0,-0,0.05,,63,0,4,24,99,0.605,0.0,115,1.34,11.2,0.0,1,0.0,0.0,0.0,0,0,0,0,0,,,,,,,,,,,,,,,,,,,,
4804,0,,,249,251,237,232,,-0.05,0.02,0.99,-0,-0,-0,0.05,,63,0,4,24,99,0.594,0.0,115,1.34,11.3,0.0,1,0.0,0.0,0.0,0,0,0,0,0,,,,,,,,,,,,,,,,,,,,
4824,0,,,249,251,237,232,,-0.05,0.02,0.99,-0,-0,-0,0.05,,63,0,4,24,99,0.586,0.0,116,1.33,11.2,0.0,1,0.0,0.0,0.0,0,0,0,0,0,,,,,,,,,,,,,,,,,,,,
4844,0,5,5,249,251,237,232,0,-0.05,0.02,0.99,-0,-0,-0,0.05,1,63,0,5,24,99,0.579,0.0,115,1.33,11.4,0.0,1,0.0,0.0,0.0,0,0,0,0,0,0,250,250,0,0.0,0.0,0.0,0.0,0,0,0.0,0,0.0,-1,0.0,0.0,0.0,0,0.0,0.0807
4864,0,,,249,251,237,232,,-0.05,0.02,0.99,-0,0,-0,0.05,,63,0,4,24,99,0.571,0.0,115,1.32,11.7,0.0,1,0.0,0.0,0.0,0,0,0,0,0,,,,,,,,,,,,,,,,,,,,
4884,0,,,249,251,237,232,,-0.05,0.02,1.0,-0,-0,-0,0.06,,63,0,4,24,99,0.564,0.0,116,1.32,11.8,0.0,1,0.0,0.0,0.0,0,0,0,0,0,,,,,,,,,,,,,,,,,,,,
4904,0,,,249,251,237,232,,-0.05,0.02,0.99,-0,-0,-0,0.05,,63,0,4,24,98,0.555,0.0,116,1.31,11.5,0.0,1,0.0,0.0,0.0,0,0,0,0,0,,,,,,,,,,,,,,,,,,,,
4924,0,,,249,251,237,232,,-0.05,0.02,0.99,-0,0,-0,0.05,,63,0,4,24,99,0.545,0.0,116,1.32,11.7,0.0,1,0.0,0.0,0.0,0,0,0,0,0,,,,,,,,,,,,,,,,,,,,
4944,0,5,5,249,251,237,232,0,-0.05,0.02,0.99,-0,0,-0,0.05,1,63,0,5,24,99,0.536,0.0,116,1.31,11.9,0.0,1,0.0,0.0,0.0,0,0,0,0,0,0,250,250,0,0.0,0.0,0.0,0.0,0,0,0.0,0,0.0,-1,0.0,,0.0,0,0.0,0.0824
4964,0,,,249,251,237,232,,-0.05,0.01,0.99,-0,-0,-0,0.05,,63,0,4,24,98,0.535,0.0,116,1.31,11.8,0.0,1,0.0,0.0,0.0,0,0,0,0,0,,,,,,,,,,,,,,,,,,,,
4984,0,,,249,251,237,232,,-0.05,0.01,1.0,-0,-0,-0,0.05,,63,0,5,24,99,0.541,0.0,116,1.31,11.7,0.0,1,0.0,0.0,0.0,0,0,0,0,0,,,,,,,,,,,,,,,,,,,,
5004,0,,,249,251,237,232,,-0.05,0.01,1.01,-0,-0,-0,0.05,,63,0,4,24,99,0.546,0.0,116,1.31,11.8,0.0,1,0.0,0.0,0.0,0,0,0,0,0,,,,,,,,,,,,,,,,,,,,
5024,0,,,249,251,237,232,,-0.05,0.02,0.99,-0,-0,-0,0.05,,63,0,4,24,98,0.551,0.0,116,1.31,12.0,0.0,1,0.0,0.0,0.0,0,0,0,0,0,,,,,,,,,,,,,,,,,,,,
5044,0,5,3,249,251,237,232,-0,-0.05,0.01,0.98,-0,-0,-0,0.05,1,63,0,4,24,99,0.554,0.0,116,1.29,11.7,0.0,1,0.0,0.0,0.0,0,0,0,0,0,0,250,250,0,0.0,0.0,0.0,0.0,0,0,0.0,0,0.0,-1,0.0,0.0,0.0,0,0.0,0.0841
5064,0,,,249,251,237,232,,-0.05,0.01,0.99,-0,-0,-0,0.05,,63,0,4,24,99,0.556,0.0,117,1.29,11.9,0.0,1,0.0,0.0,0.0,0,0,0,0,0,,,,,,,,,,,,,,,,,,,,
5084,0,,,249,251,237,232,,-0.05,0.01,0.98,-0,-0,-0,0.05,,63,0,4,24,98,0.558,0.0,117,1.28,12.0,0.0,1,0.0,0.0,0.0,0,0,0,0,0,,,,,,,,,,,,,,,,,,,,
5104,0,,,249,251,237,231,,-0.05,0.01,0.98,-0,0,-0,0.05,,63,128,4,24,99,0.56,0.0,118,1.34,11.5,0.0,1,15.7,2.09,0.0,0,0,0,1,0,,,,,,,,,,,,,,,,,,,,
5124,0,,,249,251,237,232,,-0.05,0.01,0.98,-0,0,-0,0.05,,63,128,4,24,99,0.56,0.0,118,3.03,11.7,0.0,1,15.7,4.73,0.0,0,0,0,1,0,,,,,,,,,,,,,,,,,,,,
5144,0,4,5,249,251,237,232,0,-0.05,0.01,0.98,-0,0,-0,0.05,1,63,128,4,24,98,0.56,0.0,118,4.82,11.9,0.0,1,15.7,2.11,0.0,0,0,0,1,0,0,250,250,0,0.0,0.0,0.0,0.0,0,0,0.0,0,0.0,-1,0.0,,0.0,0,0.0,0.0857
5164,0,,,249,251,237,232,,-0.05,0.01,0.98,-0,0,-0,0.05,,63,482,4,24,98,0.56,0.0,118,4.86,11.7,0.0,1,15.7,4.73,0.0,0,0,0,1,0,,,,,,,,,,,,,,,,,,,,
5184,0,,,249,251,238,232,,-0.05,0.01,0.99,-0,0,-0,0.05,,63,482,4,24,99,0.559,0.0,117,4.86,11.8,0.0,1,15.7,4.73,1.0,0,0,0,1,0,,,,,,,,,,,,,,,,,,,,
5204,0,,,249,251,237,232,,-0.05,0.02,0.99,-0,-0,-0,0.05,,63,482,4,24,98,0.558,0.0,118,4.88,11.9,0.0,1,15.7,2.11,1.0,0,0,0,1,0,,,,,,,,,,,,,,,,,,,,
5224,0,,,249,251,237,231,,-0.05,0.01,0.97,-0,-0,-0,0.05,,63,475,4,24,98,0.557,0.0,118,4.88,11.7,0.0,1,15.7,2.09,1.0,0,0,0,1,0,,,,,,,,,,,,,,,,,,,,
5244,0,4,4,249,251,237,232,-0,-0.05,0.01,0.97,-0,-0,-0,0.05,1,63,475,4,24,99,0.556,0.0,118,4.87,11.7,0.0,1,15.7,4.73,1.0,0,0,0,1,0,0,250,250,0,0.0,0.0,0.0,0.0,0,0,0.0,0,0.0,-1,0.0,0.0,0.0,0,0.0,0.0874
5264,0,,,249,251,237,232,,-0.05,0.01,0.97,-0,-0,-0,0.06,,63,475,4,24,98,0.556,0.0,118,4.88,11.9,0.0,1,15.7,2.09,1.0,0,0,0,1,0,,,,,,,,,,,,,,,,,,,,
5284,0,,,249,251,237,232,,-0.06,0.01,0.98,-0,-0,-0,0.06,,63,481,4,24,98,0.554,0.0,113,4.85,11.4,0.0,1,18.9,2.09,1.0,0,0,0,1,0,,,,,,,,,,,,,,,,,,,,
5304,0,,,249,251,237,232,,-0.05,0.02,0.99,-0,-0,-0,0.05,,63,481,4,24,99,0.552,0.0,116,4.86,11.8,0.0,1,18.9,4.73,1.0,0,0,0,1,0,,,,,,,,,,,,,,,,,,,,
5324,0,,,249,251,237,231,,-0.05,0.02,0.99,-0,0,-0,0.06,,63,481,4,24,99,0.552,0.0,116,4.87,11.9,0.0,1,18.9,4.73,1.0,0,0,0,1,0,,,,,,,,,,,,,,,,,,,,
5344,0,3,5,249,251,237,232,0,-0.05,0.02,1.0,-0,0,-0,0.06,1,63,468,4,24,98,0.55,0.0,115,4.89,11.5,0.0,1,18.9,2.09,1.0,0,0,0,1,0,0,250,250,0,0.0,0.0,0.0,0.0,0,0,0.0,0,0.0,-1,0.0,,0.0,0,0.0,0.0891
5364,0,,,249,251,237,232,,-0.05,0.02,1.0,-0,0,-0,0.05,,63,468,7,24,99,0.55,0.0,116,4.86,11.7,0.0,1,18.9,4.73,1.0,0,0,0,1,0,,,,,,,,,,,,,,,,,,,,
5384,0,,,249,251,237,232,,-0.05,0.01,0.99,-0,0,-0,0.05,,63,468,12,24,99,0.55,0.0,116,4.87,11.9,0.0,1,18.9,4.73,1.0,0,0,0,1,0,,,,,,,,,,,,,,,,,,,,
5404,0,,,249,251,237,231,,-0.05,0.02,0.99,-0,0,-0,0.05,,63,592,21,24,98,0.551,0.0,119,4.88,11.9,0.0,1,30.0,4.73,1.0,0,0,0,1,0,,,,,,,,,,,,,,,,,,,,
5424,0,,,249,251,237,232,,-0.05,0.01,0.98,-0,0,-0,0.05,,63,592,32,24,99,0.552,0.0,121,4.87,12.0,0.0,1,30.0,8.32,1.0,0,0,0,1,0,,,,,,,,,,,,,,,,,,,,
5444,0,3,2,249,251,237,232,-0,-0.05,0.01,0.98,-0,0,-0,0.05,1,63,572,40,24,99,0.553,0.0,120,4.84,11.9,0.0,1,30.0,8.32,1.0,0,0,0,1,0,0,250,250,0,0.0,0.0,0.0,0.0,0,0,0.0,0,0.0,-1,0.0,0.0,0.0,0,0.0,0.0907
5464,0,,,249,251,237,232,,-0.05,0.01,0.96,-0,0,-0,0.05,,63,572,45,24,99,0.553,0.0,120,4.87,11.9,0.0,1,30.0,2.09,1.0,0,0,0,1,0,,,,,,,,,,,,,,,,,,,,
5484,0,,,249,251,237,232,,-0.05,0.01,0.97,-0,0,-0,0.05,,63,572,48,24,99,0.555,0.0,119,4.87,12.0,0.0,1,30.0,8.32,2.1,0,0,0,1,0,,,,,,,,,,,,,,,,,,,,
5504,0,,,249,251,237,232,,-0.05,0.02,0.99,-0,0,-0,0.05,,63,539,49,24,99,0.557,0.0,117,4.86,11.7,0.0,1,30.0,8.32,2.1,0,0,0,1,0,,,,,,,,,,,,,,,,,,,,
5524,0,,,249,251,237,232,,-0.05,0.02,0.97,-0,0,-0,0.06,,63,539,50,24,99,0.558,0.0,118,4.87,11.8,0.0,1,30.0,2.09,2.1,0,0,0,1,0,,,,,,,,,,,,,,,,,,,,
5544,0,2,3,249,251,237,232,-0,-0.05,0.02,0.97,-0,0,-0,0.05,1,63,539,50,24,99,0.562,0.0,118,4.87,11.9,0.0,1,30.0,8.32,2.1,0,0,0,1,0,0,250,250,0,0.0,0.0,0.0,0.0,0,0,0.0,0,0.0,-1,0.0,,0.0,0,0.0,0.0924
5564,0,,,249,251,237,232,,-0.05,0.02,0.97,-0,0,-0,0.06,,63,514,49,24,99,0.562,0.0,117,4.85,11.6,0.0,1,30.0,8.32,2.1,0,0,0,1,0,,,,,,,,,,,,,,,,,,,,
5584,0,,,249,251,237,232,,-0.06,0.01,0.94,-0,0,-0,0.06,,63,514,43,24,99,0.563,0.0,118,4.87,11.9,0.0,1,30.0,8.32,1.9,0,0,0,1,0,,,,,,,,,,,,,,,,,,,,
5604,0,,,249,251,237,232,,-0.05,0.01,0.96,-0,0,-0,0.05,,63,738,24,24,99,0.565,0.0,121,4.83,12.0,0.0,1,30.0,8.2,1.9,0,0,0,1,0,,,,,,,,,,,,,,,,,,,,
5624,0,,,249,251,237,232,,-0.06,0.01,0.97,-0,0,-0,0.06,,63,1392,5,24,98,0.567,0.0,125,4.83,11.8,0.0,1,20.0,8.2,1.9,0,0,0,1,0,,,,,,,,,,,,,,,,,,,,
5644,0,1,0,249,251,237,232,0,-0.06,0.02,0.98,-0,-0,-0,0.06,1,64,1650,4,24,96,0.565,0.0,123,4.77,11.5,0.0,1,20.0,6.87,1.9,0,0,0,1,0,0,250,250,0,0.0,0.0,0.0,0.0,0,0,0.0,0,0.0,-1,0.0,0.0,0.0,0,0.0,0.0941
5664,0,,,249,251,237,231,,-0.06,0.02,1.02,-0,-0,-0,0.06,,64,1532,4,24,95,0.562,0.0,122,4.74,11.3,0.0,1,20.0,6.87,1.9,0,0,0,1,0,,,,,,,,,,,,,,,,,,,,
5684,0,,,249,251,237,232,,-0.06,0.02,1.02,-0,-0,-0,0.06,,64,1406,3,24,93,0.557,0.0,122,4.74,11.0,0.0,1,20.0,6.79,1.9,0,0,0,1,0,,,,,,,,,,,,,,,,,,,,
5704,0,,,249,251,237,232,,-0.06,0.02,1.02,-0,-0,-0,0.06,,64,1260,3,24,93,0.554,0.0,123,4.75,11.1,0.0,1,20.0,6.79,4.4,0,0,0,1,0,,,,,,,,,,,,,,,,,,,,
5724,0,,,249,251,237,232,,-0.05,0.02,1.05,-0,-0,-0,0.06,,64,1353,5,24,93,0.549,0.0,129,4.74,11.3,0.0,1,20.0,5.9,4.4,0,0,0,1,0,,,,,,,,,,,,,,,,,,,,
5744,0,0,1,249,251,237,232,-1,-0.06,0.02,1.04,-0,0,-0,0.06,1,64,1624,15,24,94,0.545,0.0,138,4.77,11.7,0.0,1,28.5,5.9,4.4,0,0,0,1,0,0,250,250,0,0.0,0.0,0.0,0.0,0,0,0.0,0,0.0,-1,0.0,,0.0,0,0.0,0.0957
5764,0,,,249,251,237,232,,-0.06,0.02,1.05,-0,0,-0,0.06,,64,1522,29,24,97,0.545,0.0,148,4.81,12.0,0.0,1,32.6,5.83,4.4,0,0,0,1,0,,,,,,,,,,,,,,,,,,,,
5784,0,,,249,251,237,232,,-0.06,0.02,1.05,-0,1,-0,0.06,,63,1424,40,24,98,0.547,0.0,154,4.82,12.0,0.0,1,33.3,6.21,4.0,0,0,0,1,0,,,,,,,,,,,,,,,,,,,,
5804,0,,,249,251,237,232,,-0.06,0.03,1.04,-0,1,-0,0.06,,63,1361,46,24,98,0.548,0.0,155,4.83,12.1,0.0,1,32.8,2.09,4.0,0,0,0,1,0,,,,,,,,,,,,,,,,,,,,
5824,0,,,249,251,237,232,,-0.05,0.03,1.03,-0,1,-0,0.06,,63,1584,47,24,98,0.553,0.0,157,4.83,12.1,0.0,1,34.0,6.21,4.0,0,0,0,1,0,,,,,,,,,,,,,,,,,,,,
5844,0,1,1,249,251,237,232,-0,-0.06,0.03,1.04,-0,2,-0,0.06,1,63,1978,47,24,99,0.554,0.0,166,4.86,12.5,0.0,1,34.0,6.21,4.0,0,0,0,1,0,0,250,250,0,0.0,0.0,0.0,0.0,0,0,0.0,0,0.0,-1,0.0,0.0,0.0,0,0.0,0.0974
5864,0,,,249,251,237,232,,-0.05,0.03,1.02,-0,1,-0,0.06,,63,2360,47,24,99,0.556,0.0,175,4.84,12.3,0.0,1,34.0,6.21,4.0,0,0,0,1,0,,,,,,,,,,,,,,,,,,,,
5884,0,,,249,251,237,231,,-0.06,0.03,1.09,-0,1,-0,0.07,,63,2365,44,24,99,0.561,0.0,185,4.89,12.5,0.0,1,34.0,6.21,4.0,0,0,0,1,0,,,,,,,,,,,,,,,,,,,,
5904,0,,,249,251,237,232,,-0.08,0.04,1.04,-0,1,0,0.09,,63,2866,29,24,98,0.567,0.0,198,4.88,12.5,0.0,1,31.9,7.15,6.8,0,0,0,1,0,,,,,,,,,,,,,,,,,,,,
5924,0,,,249,251,237,232,,-0.07,0.0,0.97,-0,3,0,0.07,,63,3463,11,24,96,0.574,0.0,217,4.85,12.5,0.0,1,0.0,8.38,6.8,0,0,0,1,0,,,,,,,,,,,,,,,,,,,,
5944,0,1,1,249,250,237,231,0,-0.05,0.02,1.12,-0,3,-1,0.06,1,63,4046,4,24,93,0.581,0.0,251,4.83,12.5,0.0,1,31.1,7.75,6.8,0,0,0,1,0,0,250,250,0,0.0,0.0,0.0,0.0,0,0,0.0,0,0.0,-1,0.0,,0.0,0,0.0,0.0991
5964,0,,,249,251,237,232,,-0.09,0.06,1.34,-0,2,-1,0.11,,63,4351,4,24,89,0.589,0.0,285,4.87,12.4,0.0,1,32.5,6.87,6.8,0,0,0,1,0,,,,,,,,,,,,,,,,,,,,
5984,0,,,249,251,238,232,,-0.14,0.09,1.39,-0,2,-0,0.17,,63,4267,4,24,85,0.598,0.0,327,4.85,12.5,0.0,1,30.2,6.25,6.8,0,0,0,1,0,,,,,,,,,,,,,,,,,,,,
6004,0,,,249,251,238,231,,-0.21,0.08,1.34,-0,4,2,0.23,,63,4625,4,24,83,0.604,0.0,379,4.86,12.7,0.0,1,35.0,6.08,12.1,0,0,0,1,0,,,,,,,,,,,,,,,,,,,,
6024,0,,,249,251,237,232,,-0.26,0.11,1.55,-0,3,1,0.28,,63,4851,4,24,80,0.607,0.0,437,4.87,13.0,0.0,1,37.4,5.75,12.1,0,0,0,1,0,,,,,,,,,,,,,,,,,,,,
6044,0,1,3,249,250,237,232,-1,-0.21,0.05,1.43,-0,1,-2,0.21,1,63,5131,4,24,78,0.608,0.0,523,4.85,12.7,0.0,1,38.8,5.84,12.1,0,0,0,1,0,0,250,250,0,0.0,0.0,0.0,0.0,0,0,0.0,0,0.0,-1,0.0,0.0,0.0,0,0.0,0.1007
6064,0,,,249,251,237,231,,-0.25,0.09,1.48,-0,6,3,0.27,,63,5225,4,24,75,0.61,0.0,567,4.91,12.9,0.0,1,37.8,5.44,12.1,0,0,0,1,0,,,,,,,,,,,,,,,,,,,,
6084,0,,,249,251,237,232,,-0.17,0.04,1.46,-0,-0,-2,0.17,,63,5234,4,24,74,0.61,0.0,582,4.82,12.7,0.0,1,37.6,5.03,12.2,0,0,0,1,0,,,,,,,,,,,,,,,,,,,,
6104,0,,,249,251,237,231,,-0.23,0.06,1.35,-0,7,4,0.24,,63,5313,4,24,72,0.613,0.0,612,4.91,12.9,0.0,1,37.0,4.69,12.2,0,0,0,1,0,,,,,,,,,,,,,,,,,,,,
6124,0,,,249,251,237,231,,-0.14,-0.01,1.25,-0,2,-1,0.14,,63,5233,4,24,71,0.613,0.0,615,4.86,12.7,0.0,1,36.8,2.27,12.2,0,0,0,1,0,,,,,,,,,,,,,,,,,,,,
6144,0,1,4,249,251,237,232,-1,-0.21,0.01,1.29,0,6,3,0.21,1,63,5240,4,24,69,0.615,0.0,612,4.88,12.9,0.0,1,36.3,4.2,12.2,0,0,0,1,0,0,250,250,0,0.0,0.0,0.0,0.0,0,0,0.0,0,0.0,-1,0.0,,0.0,0,0.0,0.1024
6164,0,,,249,251,237,231,,-0.11,-0.03,1.19,-0,1,-2,0.12,,63,5209,4,24,69,0.614,0.0,611,4.86,12.8,0.0,1,36.3,2.15,12.2,0,0,0,1,0,,,,,,,,,,,,,,,,,,,,
6184,0,,,249,251,237,232,,-0.17,-0.0,1.1,-0,8,4,0.17,,63,5136,4,24,68,0.617,0.0,615,4.93,13.0,0.0,1,36.2,3.85,9.1,0,0,0,1,0,,,,,,,,,,,,,,,,,,,,
6204,0,,,249,251,237,231,,-0.1,0.02,1.32,-0,1,-1,0.1,,63,5163,4,24,67,0.616,0.0,601,4.82,12.9,0.0,1,35.8,2.02,9.1,0,0,0,1,0,,,,,,,,,,,,,,,,,,,,
6224,0,,,249,251,237,232,,-0.12,0.0,1.22,-0,5,4,0.12,,63,5097,4,24,66,0.617,0.0,607,4.79,12.7,0.0,1,35.5,3.48,9.1,0,0,0,1,0,,,,,,,,,,,,,,,,,,,,
6244,0,0,2,249,251,237,232,-1,-0.12,0.04,1.43,-0,2,1,0.13,1,63,5107,4,24,65,0.617,0.0,613,4.85,13.0,0.0,1,35.2,3.29,9.1,0,0,0,1,0,0,250,250,0,0.0,0.0,0.0,0.0,0,0,0.0,0,0.0,-1,0.0,0.0,0.0,0,0.0,0.1041
6264,0,,,249,251,237,231,,-0.08,-0.02,1.32,-0,3,1,0.08,,63,5176,4,24,65,0.617,0.0,605,4.82,12.7,0.0,1,35.2,3.04,9.1,0,0,0,1,0,,,,,,,,,,,,,,,,,,,,
6284,0,,,249,251,237,232,,-0.13,0.01,1.53,-0,5,3,0.13,,63,5074,4,24,64,0.618,0.0,609,4.93,13.0,0.0,1,34.9,3.0,7.0,0,0,0,1,0,,,,,,,,,,,,,,,,,,,,
6304,0,,,249,251,237,232,,-0.06,0.0,1.72,-1,2,-1,0.06,,63,5176,4,24,64,0.617,0.0,607,4.88,12.8,0.0,1,34.9,1.8,7.0,0,0,0,1,0,,,,,,,,,,,,,,,,,,,,
6324,0,,,249,251,237,232,,-0.11,0.01,1.59,-0,8,4,0.11,,63,5127,4,24,64,0.618,0.0,607,4.82,12.8,0.0,1,34.9,2.98,7.0,0,0,0,1,0,,,,,,,,,,,,,,,,,,,,
6344,0,0,2,249,251,237,232,-0,-0.06,0.05,1.77,-1,1,-1,0.08,1,63,5156,4,24,63,0.617,0.0,607,4.87,13.0,0.0,1,34.6,2.9,7.0,0,0,0,1,0,0,250,250,0,0.0,0.0,0.0,0.0,0,0,0.0,0,0.0,-1,0.0,,0.0,0,0.0,0.1057
6364,0,,,249,251,237,232,,-0.09,0.01,1.63,-0,5,5,0.1,,63,5180,4,24,63,0.618,0.0,622,4.81,12.9,0.0,1,34.6,2.89,7.0,0,0,0,1,0,,,,,,,,,,,,,,,,,,,,
6384,0,,,249,251,237,232,,-0.09,0.07,1.82,-0,1,0,0.11,,63,5169,4,24,63,0.618,0.0,612,4.87,13.0,0.0,1,34.6,2.83,6.7,0,0,0,1,0,,,,,,,,,,,,,,,,,,,,
6404,0,,,249,250,237,231,,-0.09,-0.0,1.68,-0,4,3,0.09,,63,5271,4,24,62,0.618,0.0,618,4.81,12.8,0.0,1,34.3,2.77,6.7,0,0,0,1,0,,,,,,,,,,,,,,,,,,,,
6424,0,,,249,251,237,232,,-0.1,0.06,1.85,-0,-0,-1,0.11,,63,5218,4,24,62,0.618,0.0,619,4.86,13.0,0.0,1,34.3,1.64,6.7,0,0,0,1,0,,,,,,,,,,,,,,,,,,,,
6444,0,0,2,249,251,237,232,-1,-0.09,-0.01,1.71,-0,3,2,0.1,1,63,5305,4,24,61,0.618,0.0,614,4.85,12.7,0.0,1,34.0,2.75,6.7,0,0,0,1,0,0,250,250,0,0.0,0.0,0.0,0.0,0,0,0.0,0,0.0,-1,0.0,0.0,0.0,0,0.0,0.1074
6464,0,,,249,251,237,232,,-0.09,0.07,1.89,-0,-1,-2,0.12,,63,5272,4,24,61,0.617,0.0,619,4.91,13.1,0.0,1,34.0,2.69,6.7,0,0,0,1,0,,,,,,,,,,,,,,,,,,,,
6484,0,,,249,251,237,231,,-0.11,0.0,1.74,-0,3,2,0.11,,63,5329,4,24,61,0.618,0.0,622,4.83,12.9,0.0,1,34.0,2.65,6.5,0,0,0,1,0,,,,,,,,,,,,,,,,,,,,
6504,0,,,249,251,237,232,,-0.06,0.07,1.92,-0,-5,-4,0.09,,63,5337,4,24,61,0.617,0.0,626,4.85,13.0,0.0,1,34.0,1.49,6.5,0,0,0,1,0,,,,,,,,,,,,,,,,,,,,
6524,0,,,249,251,237,232,,-0.13,0.05,1.77,0,2,4,0.14,,63,5363,4,24,61,0.618,0.0,620,4.81,12.8,0.0,1,34.0,2.63,6.5,0,0,0,1,0,,,,,,,,,,,,,,,,,,,,
6544,0,0,2,249,251,237,231,0,-0.04,0.05,1.94,-0,-5,-4,0.06,1,63,5369,4,24,60,0.616,0.0,620,4.78,12.8,0.0,1,33.7,1.49,6.5,0,0,0,1,0,0,250,250,0,0.0,0.0,0.0,0.0,0,0,0.0,0,0.0,-1,0.0,,0.0,0,0.0,0.1091
6564,0,,,249,251,237,232,,-0.13,0.06,1.79,-0,2,2,0.14,,64,5389,4,24,60,0.617,0.0,630,4.86,13.0,0.0,1,33.7,2.64,6.5,0,0,0,1,0,,,,,,,,,,,,,,,,,,,,
6584,0,,,249,250,237,232,,-0.05,-0.01,1.65,0,1,-1,0.05,,63,5409,4,24,60,0.617,0.0,625,4.83,12.8,0.0,1,33.7,1.46,6.5,0,0,0,1,0,,,,,,,,,,,,,,,,,,,,
6604,0,,,249,250,237,232,,-0.06,0.07,1.83,-0,-2,-4,0.09,,64,5439,4,24,60,0.616,0.0,620,4.87,12.9,0.0,1,33.7,2.6,6.5,0,0,0,1,0,,,,,,,,,,,,,,,,,,,,
6624,0,,,249,251,238,232,,-0.14,0.02,1.69,0,4,4,0.15,,64,5464,4,24,59,0.617,0.0,630,4.84,12.8,0.0,1,33.4,2.6,6.5,0,0,0,1,0,,,,,,,,,,,,,,,,,,,,
6644,0,1,3,249,249,237,232,0,-0.02,-0.0,1.87,1,-5,-3,0.02,1,64,5524,4,24,59,0.615,0.0,628,4.81,12.7,0.0,1,33.4,1.4,6.5,0,0,0,1,0,0,250,250,0,0.0,0.0,0.0,0.0,0,0,0.0,0,0.0,-1,0.0,0.0,0.0,0,0.0,0.1107
6664,0,,,249,250,237,232,,-0.04,0.09,2.03,1,-4,-3,0.1,,64,5558,4,24,59,0.616,0.0,628,4.88,13.0,0.0,1,33.4,1.38,6.5,0,0,0,1,0,,,,,,,,,,,,,,,,,,,,
6684,0,,,249,250,237,232,,-0.14,0.04,1.88,1,3,5,0.14,,64,5557,4,24,59,0.616,0.0,631,4.91,13.0,0.0,1,33.4,2.55,6.5,0,0,0,1,0,,,,,,,,,,,,,,,,,,,,
6704,0,,,249,250,237,231,,-0.05,-0.03,1.73,1,1,3,0.06,,64,5555,4,24,58,0.616,0.0,632,4.8,12.8,0.0,1,33.2,2.55,6.5,0,0,0,1,0,,,,,,,,,,,,,,,,,,,,
6724,0,,,249,251,237,231,,-0.01,0.05,1.91,1,-6,-3,0.06,,64,5550,4,24,58,0.615,0.0,631,4.86,12.9,0.0,1,33.2,1.39,6.5,0,0,0,1,0,,,,,,,,,,,,,,,,,,,,
6744,0,-1,3,249,251,237,232,0,-0.11,0.07,1.76,1,1,3,0.13,1,64,5583,4,23,58,0.617,0.0,631,4.89,13.0,0.0,1,33.2,2.53,6.5,0,0,0,1,0,0,250,250,0,0.0,0.0,0.0,0.0,0,0,0.0,0,0.0,-1,0.0,,0.0,0,0.0,0.1124
6764,0,,,249,251,237,231,,-0.1,-0.02,1.62,1,3,4,0.11,,64,5534,4,23,58,0.616,0.0,627,4.81,12.9,0.0,1,33.2,2.56,6.5,0,0,0,1,0,,,,,,,,,,,,,,,,,,,,
6784,0,,,249,251,237,231,,-0.0,0.0,1.81,-0,-5,-3,0.0,,64,5605,4,23,58,0.616,0.0,631,4.84,12.9,0.0,1,33.2,2.51,6.5,0,0,0,1,0,,,,,,,,,,,,,,,,,,,,
6804,0,,,249,251,237,231,,-0.03,0.04,1.97,-0,-2,-2,0.05,,64,5600,4,23,57,0.616,0.0,636,4.91,13.1,0.0,1,32.9,2.53,6.5,0,0,0,1,0,,,,,,,,,,,,,,,,,,,,
6824,0,,,249,251,237,232,,-0.14,-0.0,1.82,-0,6,7,0.14,,64,5610,4,23,57,0.617,0.0,631,4.91,13.0,0.0,1,32.9,2.52,6.5,0,0,0,1,0,,,,,,,,,,,,,,,,,,,,
6844,0,0,4,249,250,237,231,0,-0.07,-0.07,1.68,-1,4,4,0.1,1,64,5628,4,23,57,0.617,0.0,635,4.82,12.9,0.0,1,33.0,2.51,6.5,0,0,0,1,0,0,250,250,0,0.0,0.0,0.0,0.0,0,0,0.0,0,0.0,-1,0.0,0.0,0.0,0,0.0,0.1141
6864,0,,,249,251,237,231,,0.02,0.0,1.86,-1,-3,-4,0.02,,64,5593,4,23,57,0.615,0.0,631,4.87,12.8,0.0,1,32.9,1.37,6.5,0,0,0,1,0,,,,,,,,,,,,,,,,,,,,
6884,0,,,249,250,237,232,,-0.02,0.01,1.97,-1,1,-2,0.03,,64,5645,4,23,57,0.617,0.0,628,4.88,13.0,0.0,1,33.0,2.5,6.5,0,0,0,1,0,,,,,,,,,,,,,,,,,,,,
6904,0,,,249,251,237,231,,-0.12,-0.02,1.82,-1,8,6,0.12,,64,5608,4,23,56,0.618,0.0,629,4.81,13.0,0.0,1,32.7,2.53,6.5,0,0,0,1,0,,,,,,,,,,,,,,,,,,,,
6924,0,,,249,249,237,232,,-0.04,-0.11,1.71,-1,6,5,0.11,,64,5656,4,23,57,0.617,0.0,633,4.77,12.7,0.0,1,33.0,2.49,6.5,0,0,0,1,0,,,,,,,,,,,,,,,,,,,,
6944,0,-1,3,249,251,237,232,-0,0.04,-0.02,1.89,-2,-3,-3,0.04,1,64,5639,4,23,56,0.615,0.0,633,4.8,12.7,0.0,1,32.7,1.35,6.5,0,0,0,1,0,0,250,250,0,0.0,0.0,0.0,0.0,0,0,0.0,0,0.0,-1,0.0,,0.0,0,0.0,0.1157
6964,0,,,249,250,237,232,,-0.01,0.02,2.05,-1,0,-1,0.02,,64,5627,4,23,56,0.617,0.0,634,4.9,13.1,0.0,1,32.7,1.36,6.5,0,0,0,1,0,,,,,,,,,,,,,,,,,,,,
6984,0,,,249,251,237,232,,-0.1,-0.01,1.89,-1,7,7,0.1,,64,5635,4,23,56,0.617,0.0,635,4.91,13.0,0.0,1,32.7,2.51,6.5,0,0,0,1,0,,,,,,,,,,,,,,,,,,,,
7004,0,,,249,250,237,232,,-0.04,-0.1,1.75,-1,6,4,0.11,,64,5603,4,23,56,0.616,0.0,633,4.8,12.7,0.0,1,32.7,2.53,6.5,0,0,0,1,0,,,,,,,,,,,,,,,,,,,,
7024,0,,,249,251,237,232,,0.04,-0.02,1.92,-1,-2,-4,0.04,,64,5615,4,23,56,0.616,0.0,633,4.86,12.8,0.0,1,32.7,2.53,6.5,0,0,0,1,0,,,,,,,,,,,,,,,,,,,,
7044,0,0,1,249,251,237,232,-0,-0.02,0.02,1.9,-1,1,-2,0.03,1,64,5608,4,23,56,0.617,0.0,631,4.88,13.0,0.0,1,32.7,1.37,6.5,0,0,0,1,0,0,250,250,0,0.0,0.0,0.0,0.0,0,0,0.0,0,0.0,-1,0.0,0.0,0.0,0,0.0,0.1174
7064,0,,,249,251,237,232,,-0.09,-0.01,1.76,-1,7,6,0.09,,64,5620,4,23,56,0.617,0.0,633,4.9,13.1,0.0,1,32.7,2.52,6.5,0,0,0,1,0,,,,,,,,,,,,,,,,,,,,
7084,0,,,249,251,237,232,,0.02,-0.09,1.93,-1,5,3,0.1,,64,5597,4,23,56,0.616,0.0,635,4.83,12.8,0.0,1,32.7,2.54,6.5,0,0,0,1,0,,,,,,,,,,,,,,,,,,,,
7104,0,,,249,250,237,231,,0.04,0.0,2.09,-1,-5,-4,0.04,,64,5612,4,23,56,0.617,0.0,632,4.88,12.8,0.0,1,32.7,1.37,6.5,0,0,0,1,0,,,,,,,,,,,,,,,,,,,,
7124,0,,,249,251,237,232,,0.03,0.09,2.24,-1,2,-0,0.09,,64,5585,4,23,56,0.618,0.0,633,4.9,13.1,0.0,1,32.7,2.55,6.5,0,0,0,1,0,,,,,,,,,,,,,,,,,,,,
7144,0,-0,2,249,251,237,232,0,-0.1,0.07,2.06,-1,8,6,0.12,1,64,5612,4,23,56,0.617,0.0,635,4.89,13.0,0.0,1,32.7,2.53,6.5,0,0,0,1,0,0,250,250,0,0.0,0.0,0.0,0.0,0,0,0.0,0,0.0,-1,0.0,,0.0,0,0.0,0.1191
7164,0,,,249,250,237,232,,-0.09,0.0,1.9,-1,0,0,0.09,,64,5585,4,23,56,0.616,0.0,632,4.83,12.8,0.0,1,32.7,1.39,6.5,0,0,0,1,0,,,,,,,,,,,,,,,,,,,,
7184,0,,,249,250,237,232,,0.03,0.04,2.07,-1,-6,-5,0.05,,64,5588,4,23,56,0.617,0.0,627,4.86,12.9,0.0,1,32.7,1.39,6.6,0,0,0,1,0,,,,,,,,,,,,,,,,,,,,
7204,0,,,249,251,237,232,,-0.01,0.07,2.21,-0,2,2,0.07,,64,5618,4,23,56,0.618,0.0,628,4.86,13.0,0.0,1,32.7,1.36,6.6,0,0,0,1,0,,,,,,,,,,,,,,,,,,,,
7224,0,,,249,249,237,232,,-0.11,0.02,2.04,-0,6,5,0.11,,64,5587,4,23,55,0.618,0.0,633,4.82,13.0,0.0,1,32.4,2.55,6.6,0,0,0,1,0,,,,,,,,,,,,,,,,,,,,
7244,0,0,2,249,250,237,232,-1,-0.02,-0.06,1.89,1,-4,-3,0.06,1,64,5618,4,23,56,0.616,0.0,635,4.81,12.7,0.0,1,32.7,1.36,6.6,0,0,0,1,0,0,250,250,0,0.0,0.0,0.0,0.0,0,0,0.0,0,0.0,-1,0.0,0.0,0.0,0,0.0,0.1207
7264,0,,,249,250,237,232,,0.04,0.03,2.05,0,-4,-4,0.05,,64,5632,4,23,56,0.618,0.0,631,4.83,12.9,0.0,1,32.7,1.36,6.6,0,0,0,1,0,,,,,,,,,,,,,,,,,,,,
7284,0,,,249,251,237,232,,-0.0,0.06,2.08,1,3,3,0.06,,64,5637,4,23,55,0.62,0.0,633,4.89,13.0,0.0,1,32.5,2.52,6.5,0,0,0,1,0,,,,,,,,,,,,,,,,,,,,
7304,0,,,249,250,237,232,,-0.1,0.02,1.92,1,5,5,0.1,,64,5654,4,23,55,0.619,0.0,638,4.84,13.0,0.0,1,32.5,2.51,6.5,0,0,0,1,0,,,,,,,,,,,,,,,,,,,,
7324,0,,,249,250,237,232,,-0.05,-0.07,1.78,2,-3,-3,0.09,,64,5661,4,23,55,0.617,0.0,635,4.82,12.8,0.0,1,32.5,1.35,6.5,0,0,0,1,0,,,,,,,,,,,,,,,,,,,,
7344,0,0,3,249,251,237,232,-1,0.04,-0.01,1.95,1,-8,-7,0.04,1,64,5600,4,23,55,0.618,0.0,632,4.86,12.9,0.0,1,32.4,2.55,6.5,0,0,0,1,0,0,250,250,0,0.0,0.0,0.0,0.0,0,0,0.0,0,0.0,-1,0.0,,0.0,0,0.0,0.1224
7364,0,,,249,251,237,232,,0.01,0.04,2.1,1,0,-1,0.04,,64,5639,4,23,55,0.619,0.0,632,4.9,13.1,0.0,1,32.5,2.52,6.5,0,0,0,1,0,,,,,,,,,,,,,,,,,,,,
7384,0,,,249,250,237,232,,-0.08,0.01,1.94,1,4,3,0.08,,64,5622,4,23,55,0.619,0.0,633,4.85,13.0,0.0,1,32.4,2.53,6.5,0,0,0,1,0,,,,,,,,,,,,,,,,,,,,
7404,0,,,249,251,237,232,,-0.0,-0.08,1.79,1,-4,-2,0.08,,64,5612,4,23,55,0.617,0.0,635,4.77,12.7,0.0,1,32.4,1.38,6.5,0,0,0,1,0,,,,,,,,,,,,,,,,,,,,
7424,0,,,249,250,237,232,,0.06,-0.01,1.96,1,-7,-6,0.06,,64,5600,4,23,55,0.619,0.0,631,4.81,13.0,0.0,1,32.4,2.55,6.5,0,0,0,1,0,,,,,,,,,,,,,,,,,,,,
7444,0,0,1,249,251,237,232,-1,-0.01,0.01,1.89,1,2,2,0.01,1,64,5583,4,23,55,0.619,0.0,636,4.85,13.1,0.0,1,32.4,2.56,6.5,0,0,0,1,0,0,250,250,0,0.0,0.0,0.0,0.0,0,0,0.0,0,0.0,-1,0.0,0.0,0.0,0,0.0,0.1241
7464,0,,,249,250,237,232,,-0.08,-0.04,1.74,1,3,2,0.09,,64,5567,4,23,55,0.618,0.0,635,4.81,12.7,0.0,1,32.4,2.57,6.5,0,0,0,1,0,,,,,,,,,,,,,,,,,,,,
7484,0,,,249,250,237,232,,0.04,-0.05,1.91,1,-6,-5,0.07,,64,5565,4,23,55,0.617,0.0,632,4.82,13.0,0.0,1,32.4,2.57,6.5,0,0,0,1,0,,,,,,,,,,,,,,,,,,,,
7504,0,,,249,250,237,232,,0.04,0.04,2.07,0,-1,-2,0.06,,64,5562,4,23,56,0.619,0.0,627,4.89,13.0,0.0,1,32.7,1.4,6.6,0,0,0,1,0,,,,,,,,,,,,,,,,,,,,
7524,0,,,249,251,237,232,,-0.09,0.0,1.91,1,5,5,0.09,,64,5544,4,23,55,0.618,0.0,632,4.88,13.0,0.0,1,32.4,2.59,6.6,0,0,0,1,0,,,,,,,,,,,,,,,,,,,,
7544,0,-1,3,249,249,237,232,-0,-0.02,-0.07,1.77,0,-3,-1,0.07,1,64,5575,4,23,56,0.615,0.0,632,4.86,12.8,0.0,1,32.7,1.39,6.6,0,0,0,1,0,0,250,250,0,0.0,0.0,0.0,0.0,0,0,0.0,0,0.0,-1,0.0,,0.0,0,0.0,0.1257
7564,0,,,249,251,237,232,,0.04,0.02,1.94,0,-6,-4,0.04,,64,5560,4,23,56,0.616,0.0,631,4.92,13.0,0.0,1,32.7,2.56,6.6,0,0,0,1,0,,,,,,,,,,,,,,,,,,,,
7584,0,,,249,251,237,232,,-0.06,0.04,1.79,0,2,4,0.08,,64,5558,4,23,55,0.618,0.0,627,4.86,13.0,0.0,1,32.4,2.58,6.6,0,0,0,1,0,,,,,,,,,,,,,,,,,,,,
7604,0,,,249,250,237,232,,-0.09,-0.02,1.65,-0,3,2,0.09,,64,5555,4,23,55,0.617,0.0,630,4.81,12.7,0.0,1,32.4,2.58,6.6,0,0,0,1,0,,,,,,,,,,,,,,,,,,,,
7624,0,,,249,250,237,232,,0.02,-0.01,1.83,0,-6,-5,0.02,,64,5519,4,23,56,0.615,0.0,631,4.83,12.8,0.0,1,32.7,1.43,6.6,0,0,0,1,0,,,,,,,,,,,,,,,,,,,,
7644,0,-0,3,249,251,237,231,0,-0.02,0.05,2.0,0,1,1,0.05,1,64,5537,4,23,56,0.617,0.0,631,4.87,13.0,0.0,1,32.7,1.42,6.6,0,0,0,1,0,0,250,250,0,0.0,0.0,0.0,0.0,0,0,0.0,0,0.0,-1,0.0,0.0,0.0,0,0.0,0.1274
7664,0,,,249,250,237,232,,-0.08,-0.01,1.84,0,3,3,0.08,,64,5537,4,23,56,0.618,0.0,629,4.87,13.0,0.0,1,32.7,2.58,6.6,0,0,0,1,0,,,,,,,,,,,,,,,,,,,,
7684,0,,,249,250,237,231,,0.04,-0.04,2.01,-0,-6,-6,0.06,,64,5540,4,23,56,0.616,0.0,633,4.85,13.0,0.0,1,32.7,1.42,6.6,0,0,0,1,0,,,,,,,,,,,,,,,,,,,,
7704,0,,,249,251,237,232,,0.01,0.04,2.16,-0,-0,-2,0.04,,64,5560,4,23,56,0.616,0.0,641,4.92,13.1,0.0,1,32.7,2.56,6.6,0,0,0,1,0,,,,,,,,,,,,,,,,,,,,
7724,0,,,249,251,237,232,,-0.09,-0.0,2.0,0,5,4,0.09,,64,5501,4,23,56,0.619,0.0,636,4.9,13.1,0.0,1,32.7,2.6,6.6,0,0,0,1,0,,,,,,,,,,,,,,,,,,,,
7744,0,1,3,249,249,237,232,-1,0.03,-0.05,2.15,-0,-2,-1,0.06,1,64,5565,4,23,56,0.617,0.0,630,4.81,12.7,0.0,1,32.7,1.4,6.6,0,0,0,1,0,0,250,250,0,0.0,0.0,0.0,0.0,0,0,0.0,0,0.0,-1,0.0,,0.0,0,0.0,0.1291
7764,0,,,249,250,237,232,,0.05,0.05,2.29,-0,-2,-3,0.07,,64,5583,4,23,56,0.618,0.0,636,4.91,13.0,0.0,1,32.7,1.39,6.6,0,0,0,1,0,,,,,,,,,,,,,,,,,,,,
7784,0,,,249,251,237,231,,-0.06,0.03,2.12,0,4,6,0.07,,64,5578,4,23,56,0.619,0.0,636,4.92,13.1,0.0,1,32.7,2.56,6.6,0,0,0,1,0,,,,,,,,,,,,,,,,,,,,
7804,0,,,249,249,237,232,,-0.06,-0.03,1.95,1,1,3,0.07,,64,5575,4,23,56,0.62,0.0,626,4.83,12.8,0.0,1,32.7,2.55,6.6,0,0,0,1,0,,,,,,,,,,,,,,,,,,,,
7824,0,,,249,251,237,232,,0.03,0.01,2.11,1,-9,-5,0.03,,64,5570,4,23,56,0.618,0.0,630,4.88,13.0,0.0,1,32.7,2.56,6.6,0,0,0,1,0,,,,,,,,,,,,,,,,,,,,
7844,0,-1,3,249,251,237,231,1,-0.01,0.05,2.25,1,-2,-0,0.05,1,64,5552,4,23,56,0.618,0.0,635,4.9,13.1,0.0,1,32.7,1.41,6.6,0,0,0,1,0,0,250,250,0,0.0,0.0,0.0,0.0,0,0,0.0,0,0.0,-1,0.0,0.0,0.0,0,0.0,0.1307
7864,0,,,249,251,237,232,,-0.09,0.0,2.08,1,2,4,0.09,,64,5557,4,23,56,0.62,0.0,629,4.8,12.8,0.0,1,32.7,2.57,6.6,0,0,0,1,0,,,,,,,,,,,,,,,,,,,,
7884,0,,,249,250,237,232,,0.03,-0.04,2.23,1,-5,-3,0.05,,64,5558,4,23,55,0.618,0.0,626,4.79,12.8,0.0,1,32.4,1.42,6.6,0,0,0,1,0,,,,,,,,,,,,,,,,,,,,
7904,0,,,249,251,237,232,,0.04,0.06,2.36,1,-4,-2,0.07,,64,5545,4,23,56,0.618,0.0,636,4.88,13.1,0.0,1,32.7,1.41,6.6,0,0,0,1,0,,,,,,,,,,,,,,,,,,,,
7924,0,,,249,251,237,231,,-0.08,0.05,2.18,1,2,6,0.09,,64,5558,4,23,56,0.619,0.0,635,4.85,12.9,0.0,1,32.7,2.57,6.6,0,0,0,1,0,,,,,,,,,,,,,,,,,,,,
7944,0,0,2,249,251,237,231,0,-0.01,-0.05,2.01,1,-1,2,0.05,1,64,5557,4,23,56,0.619,0.0,626,4.82,12.8,0.0,1,32.7,2.57,6.6,0,0,0,1,0,0,250,250,0,0.0,0.0,0.0,0.0,0,0,0.0,0,0.0,-1,0.0,,0.0,0,0.0,0.1324
7964,0,,,249,250,237,232,,0.03,0.03,2.17,1,-7,-4,0.05,,64,5558,4,23,56,0.618,0.0,627,4.84,12.9,0.0,1,32.7,1.41,6.6,0,0,0,1,0,,,,,,,,,,,,,,,,,,,,
7984,0,,,249,251,237,231,,-0.07,0.04,2.0,1,2,4,0.08,,64,5529,4,23,56,0.619,0.0,636,4.83,13.1,0.0,1,32.7,2.6,6.6,0,0,0,1,0,,,,,,,,,,,,,,,,,,,,
8004,0,,,249,250,237,232,,-0.08,-0.03,1.85,0,2,3,0.09,,64,5530,4,23,55,0.619,0.0,637,4.82,12.9,0.0,1,32.4,2.58,6.6,0,0,0,1,0,,,,,,,,,,,,,,,,,,,,
8024,0,,,249,250,237,232,,0.02,0.02,2.01,0,-8,-6,0.03,,64,5521,4,23,56,0.618,0.0,625,4.85,12.9,0.0,1,32.7,1.44,6.6,0,0,0,1,0,,,,,,,,,,,,,,,,,,,,
8044,0,-1,3,249,251,237,231,1,-0.05,0.03,1.86,0,0,-0,0.06,1,64,5485,4,23,56,0.618,0.0,632,4.9,13.1,0.0,1,32.6,2.62,6.6,0,0,0,1,0,0,250,250,0,0.0,0.0,0.0,0.0,0,0,0.0,0,0.0,-1,0.0,0.0,0.0,0,0.0,0.1341
8064,0,,,249,250,237,232,,-0.05,-0.03,1.71,0,2,-0,0.06,,64,5479,4,23,56,0.619,0.0,633,4.82,12.7,0.0,1,32.6,2.62,6.6,0,0,0,1,0,,,,,,,,,,,,,,,,,,,,
8084,0,,,249,250,237,232,,0.02,0.03,1.89,0,-7,-7,0.04,,64,5474,4,23,56,0.619,0.0,627,4.87,12.9,0.0,1,32.6,2.62,6.6,0,0,0,1,0,,,,,,,,,,,,,,,,,,,,
8104,0,,,249,251,237,232,,-0.08,0.05,1.74,1,1,-0,0.1,,64,5464,4,23,56,0.62,0.0,627,4.93,13.1,0.0,1,32.6,2.63,6.6,0,0,0,1,0,,,,,,,,,,,,,,,,,,,,
8124,0,,,249,250,237,232,,-0.04,-0.04,1.61,0,1,-1,0.05,,64,5477,4,23,56,0.62,0.0,632,4.81,12.8,0.0,1,32.6,2.62,6.6,0,0,0,1,0,,,,,,,,,,,,,,,,,,,,
8144,0,-1,2,249,250,237,232,-0,0.0,0.04,1.79,0,-4,-6,0.04,1,64,5485,4,23,56,0.621,0.0,632,4.86,12.9,0.0,1,32.6,2.62,6.6,0,0,0,1,0,0,250,250,0,0.0,0.0,0.0,0.0,0,0,0.0,0,0.0,-1,0.0,,0.0,0,0.0,0.1357
8164,0,,,249,251,237,232,,-0.11,0.06,1.65,1,3,2,0.12,,64,5456,4,23,56,0.621,0.0,630,4.92,13.1,0.0,1,32.6,2.63,6.6,0,0,0,1,0,,,,,,,,,,,,,,,,,,,,
8184,0,,,249,249,237,232,,-0.01,-0.03,1.53,-0,-0,-2,0.03,,64,5485,4,23,56,0.62,0.0,624,4.85,12.8,0.0,1,32.6,1.46,6.6,0,0,0,1,0,,,,,,,,,,,,,,,,,,,,
8204,0,,,249,250,237,232,,-0.01,0.05,1.72,-0,-3,-5,0.05,,64,5474,4,23,56,0.621,0.0,633,4.89,13.0,0.0,1,32.6,1.46,6.6,0,0,0,1,0,,,,,,,,,,,,,,,,,,,,
8224,0,,,249,251,237,231,,-0.11,0.01,1.58,0,4,3,0.11,,64,5433,4,23,56,0.622,0.0,633,4.91,13.1,0.0,1,32.6,2.65,6.6,0,0,0,1,0,,,,,,,,,,,,,,,,,,,,
8244,0,0,1,249,249,237,232,-0,0.02,-0.01,1.77,0,-5,-5,0.02,1,64,5448,4,23,56,0.62,0.0,622,4.84,12.9,0.0,1,32.6,1.49,6.6,0,0,0,1,0,0,250,250,0,0.0,0.0,0.0,0.0,0,0,0.0,0,0.0,-1,0.0,0.0,0.0,0,0.0,0.1374
8264,0,,,249,251,237,232,,-0.05,0.03,1.94,0,-0,-2,0.06,,64,5398,4,23,56,0.622,0.0,627,4.85,13.1,0.0,1,32.6,2.67,6.6,0,0,0,1,0,,,,,,,,,,,,,,,,,,,,
8284,0,,,249,251,237,232,,-0.05,-0.04,1.79,0,3,0,0.06,,64,5417,4,23,56,0.622,0.0,630,4.84,12.9,0.0,1,32.6,2.66,6.6,0,0,0,1,0,,,,,,,,,,,,,,,,,,,,
8304,0,,,249,250,237,231,,0.01,0.03,1.96,-0,-6,-6,0.03,,64,5384,4,23,57,0.621,0.0,621,4.9,13.1,0.0,1,32.9,2.67,6.6,0,0,0,1,0,,,,,,,,,,,,,,,,,,,,
8324,0,,,249,251,237,232,,-0.1,0.03,1.81,0,2,2,0.11,,64,5403,4,23,57,0.623,0.0,626,4.92,13.1,0.0,1,32.9,2.67,6.6,0,0,0,1,0,,,,,,,,,,,,,,,,,,,,
8344,0,0,1,249,250,237,232,-0,0.02,-0.01,1.98,-1,-2,-3,0.02,1,64,5412,4,23,57,0.622,0.0,630,4.8,12.8,0.0,1,32.9,1.49,6.6,0,0,0,1,0,0,250,250,0,0.0,0.0,0.0,0.0,0,0,0.0,0,0.0,-1,0.0,,0.0,0,0.0,0.1391
8364,0,,,249,251,237,232,,-0.03,0.06,2.13,-1,-0,-2,0.06,,64,5397,4,23,57,0.622,0.0,627,4.84,13.1,0.0,1,32.9,2.68,6.6,0,0,0,1,0,,,,,,,,,,,,,,,,,,,,
8384,0,,,249,251,237,232,,-0.02,-0.04,1.97,-0,2,1,0.04,,64,5398,4,23,57,0.623,0.0,626,4.82,13.0,0.0,1,32.9,2.66,6.6,0,0,0,1,0,,,,,,,,,,,,,,,,,,,,
8404,0,,,249,251,237,232,,0.01,0.03,2.13,-1,-5,-6,0.03,,64,5364,4,23,57,0.622,0.0,631,4.87,13.0,0.0,1,32.8,2.69,6.6,0,0,0,1,0,,,,,,,,,,,,,,,,,,,,
8424,0,,,249,251,237,231,,-0.09,0.01,1.96,-0,2,2,0.09,,64,5372,4,23,57,0.623,0.0,633,4.89,13.1,0.0,1,32.8,2.68,6.6,0,0,0,1,0,,,,,,,,,,,,,,,,,,,,
8444,0,1,1,249,249,237,232,0,0.02,0.02,2.12,-0,-5,-5,0.03,1,64,5351,4,23,57,0.623,0.0,621,4.77,12.8,0.0,1,32.8,1.54,6.6,0,0,0,1,0,0,250,250,0,0.0,0.0,0.0,0.0,0,0,0.0,0,0.0,-1,0.0,0.0,0.0,0,0.0,0.1407
8464,0,,,249,251,237,232,,-0.08,0.04,1.95,0,1,-0,0.08,,64,5343,4,23,57,0.623,0.0,629,4.87,13.0,0.0,1,32.8,2.7,6.6,0,0,0,1,0,,,,,,,,,,,,,,,,,,,,
8484,0,,,249,249,237,232,,0.01,-0.04,1.8,-0,0,-2,0.04,,64,5329,4,23,57,0.623,0.0,632,4.81,12.8,0.0,1,32.8,1.55,6.6,0,0,0,1,0,,,,,,,,,,,,,,,,,,,,
8504,0,,,249,251,237,232,,-0.04,0.02,1.97,-0,1,-3,0.05,,64,5311,4,23,57,0.625,0.0,622,4.89,13.1,0.0,1,32.8,1.56,6.6,0,0,0,1,0,,,,,,,,,,,,,,,,,,,,
8524,0,,,249,250,237,232,,-0.02,-0.06,1.82,-0,3,-0,0.07,,64,5334,4,23,57,0.624,0.0,624,4.82,12.8,0.0,1,32.8,2.71,6.6,0,0,0,1,0,,,,,,,,,,,,,,,,,,,,
8544,0,0,1,249,251,237,232,0,-0.02,0.01,1.99,-0,-2,-5,0.02,1,64,5310,4,23,57,0.625,0.0,636,4.92,13.1,0.0,1,32.8,2.72,6.6,0,0,0,1,0,0,250,250,0,0.0,0.0,0.0,0.0,0,0,0.0,0,0.0,-1,0.0,,0.0,0,0.0,0.1424
8564,0,,,249,251,237,232,,-0.05,-0.06,1.84,-0,3,2,0.07,,64,5311,4,23,57,0.625,0.0,626,4.87,13.0,0.0,1,32.8,2.72,6.6,0,0,0,1,0,,,,,,,,,,,,,,,,,,,,
8584,0,,,249,251,237,232,,-0.02,0.02,2.0,-0,-5,-5,0.03,,64,5269,4,23,57,0.625,0.0,621,4.9,13.1,0.0,1,32.8,2.75,6.7,0,0,0,1,0,,,,,,,,,,,,,,,,,,,,
8604,0,,,249,251,237,231,,-0.07,-0.02,1.85,-0,2,2,0.07,,64,5244,4,23,57,0.626,0.0,628,4.87,13.0,0.0,1,32.8,2.77,6.7,0,0,0,1,0,,,,,,,,,,,,,,,,,,,,
8624,0,,,249,251,237,232,,-0.01,0.03,2.01,-0,-6,-5,0.04,,63,5271,4,23,58,0.626,0.0,616,4.88,13.1,0.0,1,33.1,1.57,6.7,0,0,0,1,0,,,,,,,,,,,,,,,,,,,,
8644,0,-1,3,249,251,237,232,-0,-0.08,-0.01,1.86,0,1,2,0.08,1,63,5257,4,23,58,0.628,0.0,618,4.9,13.0,0.0,1,33.1,2.74,6.7,0,0,0,1,0,0,250,250,0,0.0,0.0,0.0,0.0,0,0,0.0,0,0.0,-1,0.0,0.0,0.0,0,0.0,0.1441
8664,0,,,249,251,237,231,,-0.02,0.05,2.02,-0,-7,-5,0.05,,63,5263,4,23,58,0.626,0.0,622,4.83,13.0,0.0,1,33.1,1.58,6.7,0,0,0,1,0,,,,,,,,,,,,,,,,,,,,
8684,0,,,249,251,237,232,,-0.09,0.01,1.87,-0,1,2,0.09,,63,5265,4,23,58,0.628,0.0,625,4.81,12.9,0.0,1,33.1,2.74,6.7,0,0,0,1,0,,,,,,,,,,,,,,,,,,,,
8704,0,,,249,251,237,232,,-0.02,0.06,2.03,-0,-7,-4,0.07,,63,5249,4,23,58,0.627,0.0,615,4.82,13.0,0.0,1,33.1,1.59,6.6,0,0,0,1,0,,,,,,,,,,,,,,,,,,,,
