"Interval"|"ms"|0|0|1,"Utc"|"ms"|0|0|1,"Brake_F"|"Bar"|0|2000|10,"Brake_R"|"Bar"|0|2000|10,"Height_RF"|"mm"|0|255|10,"Height_LF"|"mm"|0|255|10,"Height_LR"|"mm"|0|80|10,"Height_RR"|"mm"|0|255|10,"Steering"|"deg"|-100|100|10,"AccelX"|"G"|-3.0|3.0|50,"AccelY"|"G"|-3.0|3.0|50,"AccelZ"|"G"|-3.0|3.0|50,"Yaw"|"Deg/Sec"|-120|120|50,"Pitch"|"Deg/Sec"|-120|120|50,"Roll"|"Deg/Sec"|-120|120|50,"Gsum"|"G"|0.0|3.0|50,"Log_Button"|""|0.0|10.0|10,"WaterTemp"|"C"|0|150|50,"RPM"|"tr/min"|0|14000|50,"TPS"|"%"|0|100|50,"AirTemp"|"C"|0|150|50,"MAP"|"KPa"|0|100|50,"Lambda"|""|0.5|1.5|50,"SpeedDTA"|"kph"|0.0|250.0|50,"OilPress"|"KPa"|0|1500|50,"FuelPressur"|"Bar"|0.0|10.0|50,"Batterie"|"V"|0.0|20.0|50,"ConsoKm"|"L/100km"|0.0|200.0|50,"Gear"|""|0|6|50,"AdvIgnition"|"Deg"|-20.0|70.0|50,"Injection"|"ms"|0.0|10.0|50,"ConsoHr"|"L/Hr"|0.0|10000.0|50,"LC_But_Pres"|""|0|1|50,"LC_Active"|""|0|1|50,"TractionOn"|""|0|1|50,"TractionWet"|""|0|1|50,"FanOn"|""|0|1|50,"RD_Speed"|"km/h"|-30|250|50,"RUD_Speed"|"km/h"|-30|250|50,"LD_Speed"|"km/h"|-30|250|50,"LUD_Speed"|"km/h"|-30|250|50,"Latitude"|"Degrees"|-180.0|180.0|10,"Longitude"|"Degrees"|-180.0|180.0|10,"Speed"|"kph"|0.0|150.0|10,"Altitude"|"m"|0.0|4000.0|10,"GPSSats"|""|0|20|10,"GPSQual"|""|0|5|10,"GPSDOP"|""|0.0|20.0|10,"LapCount"|""|0|0|10,"LapTime"|"Min"|0.0|0.0|10,"Sector"|""|0|0|10,"SectorTime"|"Min"|0.0|0.0|10,"PredTime"|"Min"|0.0|0.0|5,"ElapsedTime"|"Min"|0.0|0.0|10,"CurrentLap"|""|0|0|10,"Distance"|"km"|0.0|0.0|10,"SessionTime"|"Min"|0.0|0.0|10
27064,1625577026877,,,,,,,,0.03,-0.02,1.98,0,0,0,0.03,,68,5134,8,29,60,0.633,0.0,585,4.81,13.9,0.0,1,33.7,1.64,6.6,0,0,0,1,0,0,250,250,0,,,,,,,,,,,,,,,,
27084,1625577026897,,,,,,,,-0.05,-0.01,2.15,0,3,2,0.05,,68,5145,8,29,60,0.633,0.0,602,4.76,13.7,0.0,1,33.7,2.77,6.6,0,0,0,1,0,0,250,250,0,,,,,,,,,,,,,,,,
27104,1625577026917,,,,,,,,0.08,-0.05,1.97,-0,-2,-3,0.09,,68,5201,8,29,60,0.634,0.0,596,4.86,13.9,0.0,1,33.7,1.6,6.6,0,0,0,1,0,0,250,250,0,,,,,,,,,,,,,,,,
27124,1625577026937,,,,,,,,-0.04,-0.05,1.8,0,5,3,0.07,,68,5228,8,29,60,0.634,0.0,602,4.81,13.7,0.0,1,33.7,1.58,6.6,0,0,0,1,0,0,250,250,0,,,,,,,,,,,,,,,,
27144,1625577026957,2,1,45,45,35,32,-26,0.11,-0.03,1.99,-0,-1,-4,0.12,0,68,5237,8,29,60,0.635,0.0,596,4.85,13.9,0.0,1,33.7,2.7,6.6,0,0,0,1,0,0,250,250,0,52.957394,6.522727,0.0,26.0,10,2,1.4,0,0.0,-1,0.0,,0.0,0,0.0,0.4524
27164,1625577026977,,,,,,,,-0.03,-0.05,1.82,-0,6,3,0.06,,68,5263,8,29,60,0.635,0.0,611,4.76,13.8,0.0,1,33.7,1.56,6.5,0,0,0,1,0,0,250,250,0,,,,,,,,,,,,,,,,
27184,1625577026997,,,,,,,,0.13,-0.03,2.0,-1,0,-2,0.13,,68,5260,8,29,60,0.637,0.0,598,4.85,13.9,0.0,1,33.7,2.69,6.5,0,0,0,1,0,0,250,250,0,,,,,,,,,,,,,,,,
27204,1625577027009,,,,,,,,-0.01,-0.07,1.83,-0,8,4,0.07,,68,5234,8,29,60,0.636,0.0,615,4.75,13.7,0.0,1,33.7,2.71,6.5,0,0,0,1,0,0,250,250,0,,,,,,,,,,,,,,,,
27224,1625577027029,,,,,,,,0.13,-0.06,2.01,-0,1,-2,0.14,,68,5211,8,29,60,0.637,0.0,607,4.88,13.9,0.0,1,33.7,2.72,6.5,0,0,0,1,0,0,250,250,0,,,,,,,,,,,,,,,,
27244,1625577027049,2,3,45,47,35,32,-26,-0.01,-0.09,1.85,-0,9,6,0.09,0,68,5222,8,29,60,0.636,0.0,601,4.79,13.8,0.0,1,33.7,2.71,6.5,0,0,0,1,0,0,250,250,0,52.957394,6.522727,0.0,26.0,10,2,1.4,0,0.0,-1,0.0,0.0,0.0,0,0.0,0.4541
27264,1625577027069,,,,,,,,0.12,-0.03,2.03,-1,1,-2,0.13,,68,5176,8,29,60,0.637,0.0,597,4.87,13.9,0.0,1,33.7,2.74,6.5,0,0,0,1,0,0,250,250,0,,,,,,,,,,,,,,,,
27284,1625577027093,,,,,,,,-0.02,-0.06,1.86,-0,9,6,0.06,,68,5189,8,29,60,0.636,0.0,602,4.77,13.7,0.0,1,33.7,2.73,6.5,0,0,0,1,0,0,250,250,0,,,,,,,,,,,,,,,,
27304,1625577027113,,,,,,,,0.09,0.01,2.03,-0,-1,-1,0.09,,68,5169,8,29,60,0.638,0.0,600,4.78,13.8,0.0,1,33.7,2.75,6.5,0,0,0,1,0,0,250,250,0,,,,,,,,,,,,,,,,
27324,1625577027133,,,,,,,,0.01,-0.05,1.86,-0,4,4,0.05,,68,5179,8,29,60,0.637,0.0,593,4.77,13.8,0.0,1,33.7,1.61,6.5,0,0,0,1,0,0,250,250,0,,,,,,,,,,,,,,,,
27344,1625577027153,2,3,45,47,35,32,-26,0.05,0.02,2.04,-0,-3,-2,0.06,0,68,5231,8,29,59,0.638,0.0,607,4.76,13.7,0.0,1,33.4,2.72,6.5,0,0,0,1,0,0,250,250,0,52.957394,6.522727,0.0,26.0,10,2,1.4,0,0.0,-1,0.0,,0.0,0,0.0,0.4557
27364,1625577027173,,,,,,,,0.0,-0.04,1.87,0,2,3,0.04,,68,5244,8,29,60,0.638,0.0,607,4.77,13.8,0.0,1,33.7,1.57,6.5,0,0,0,1,0,0,250,250,0,,,,,,,,,,,,,,,,
27384,1625577027196,,,,,,,,0.04,0.04,2.05,-0,-4,-2,0.05,,68,5235,8,29,59,0.639,0.0,602,4.77,13.7,0.0,1,33.4,2.71,6.5,0,0,0,1,0,0,250,250,0,,,,,,,,,,,,,,,,
27404,1625577027216,,,,,,,,-0.0,-0.04,1.88,0,1,2,0.04,,68,5252,8,29,60,0.638,0.0,610,4.81,13.8,0.0,1,33.7,1.56,6.5,0,0,0,1,0,0,250,250,0,,,,,,,,,,,,,,,,
27424,1625577027236,,,,,,,,0.01,0.02,2.05,0,-5,-2,0.02,,68,5230,8,29,59,0.639,0.0,607,4.77,13.7,0.0,1,33.4,2.71,6.5,0,0,0,1,0,0,250,250,0,,,,,,,,,,,,,,,,
27444,1625577027256,1,2,45,46,35,32,-26,-0.0,-0.06,1.88,0,-1,1,0.06,0,68,5209,8,29,60,0.638,0.0,603,4.8,13.8,0.0,1,33.7,2.72,6.5,0,0,0,1,0,0,250,250,0,52.957394,6.522727,0.0,26.0,10,2,1.4,0,0.0,-1,0.0,0.0,0.0,0,0.0,0.4574
27464,1625577027276,,,,,,,,-0.02,-0.02,2.06,0,-4,-2,0.03,,68,5219,8,29,59,0.638,0.0,602,4.8,13.8,0.0,1,33.4,2.71,6.6,0,0,0,1,0,0,250,250,0,,,,,,,,,,,,,,,,
27484,1625577027296,,,,,,,,-0.01,-0.08,1.89,0,-1,-1,0.08,,68,5246,8,29,60,0.638,0.0,609,4.77,13.9,0.0,1,33.7,2.7,6.6,0,0,0,1,0,0,250,250,0,,,,,,,,,,,,,,,,
27504,1625577027316,,,,,,,,-0.06,-0.04,2.06,0,-2,-2,0.07,,68,5205,8,29,59,0.638,0.0,609,4.77,13.8,0.0,1,33.4,2.72,6.6,0,0,0,1,0,0,250,250,0,,,,,,,,,,,,,,,,
27524,1625577027336,,,,,,,,0.0,-0.11,1.89,0,-1,-2,0.11,,68,5235,8,29,60,0.638,0.0,605,4.8,13.9,0.0,1,33.7,1.57,6.6,0,0,0,1,0,0,250,250,0,,,,,,,,,,,,,,,,
27544,1625577027356,3,1,45,47,35,32,-26,-0.07,-0.09,2.07,0,0,-1,0.12,0,68,5208,8,29,59,0.639,0.0,617,4.76,13.6,0.0,1,33.4,2.72,6.6,0,0,0,1,0,0,250,250,0,52.957394,6.522727,0.0,26.0,10,2,1.4,0,0.0,-1,0.0,,0.0,0,0.0,0.4591
27564,1625577027376,,,,,,,,0.03,-0.14,1.89,0,-2,-2,0.14,,68,5205,8,29,60,0.64,0.0,596,4.82,13.9,0.0,1,33.7,1.59,6.5,0,0,0,1,0,0,250,250,0,,,,,,,,,,,,,,,,
27584,1625577027396,,,,,,,,-0.07,-0.14,1.89,0,2,1,0.16,,68,5221,8,29,60,0.639,0.0,612,4.77,13.7,0.0,1,33.7,2.71,6.5,0,0,0,1,0,0,250,250,0,,,,,,,,,,,,,,,,
27604,1625577027416,,,,,,,,0.07,-0.14,2.04,0,-1,-1,0.16,,68,5206,8,29,59,0.632,0.0,603,4.9,14.0,0.0,1,33.4,2.73,6.5,0,0,0,1,0,0,250,250,0,,,,,,,,,,,,,,,,
27624,1625577027436,,,,,,,,-0.05,-0.16,1.87,0,5,3,0.16,,68,5212,8,29,59,0.622,0.0,601,4.81,13.8,0.0,1,33.4,2.72,6.5,0,0,0,1,0,0,250,250,0,,,,,,,,,,,,,,,,
27644,1625577027456,2,2,45,45,35,32,-26,0.1,-0.13,2.04,-0,-1,-2,0.16,0,68,5199,8,29,59,0.615,0.0,597,4.85,14.0,0.0,1,33.4,1.61,6.5,0,0,0,1,0,0,250,250,0,52.957394,6.522727,0.0,26.0,10,2,1.4,0,0.0,-1,0.0,0.0,0.0,0,0.0,0.4607
27664,1625577027476,,,,,,,,-0.04,-0.15,1.87,-0,6,4,0.15,,68,5175,8,29,59,0.606,0.0,608,4.8,13.7,0.0,1,33.4,1.62,6.6,0,0,0,1,0,0,250,250,0,,,,,,,,,,,,,,,,
27684,1625577027496,,,,,,,,0.09,-0.05,2.05,0,-3,-3,0.1,,68,5135,8,29,59,0.6,0.0,599,4.92,13.9,0.0,1,33.4,2.78,6.6,0,0,0,1,0,0,250,250,0,,,,,,,,,,,,,,,,
27704,1625577027516,,,,,,,,0.0,-0.11,1.88,0,4,4,0.11,,68,5122,8,29,60,0.592,0.0,592,4.79,13.8,0.0,1,33.6,1.65,6.6,0,0,0,1,0,0,250,250,0,,,,,,,,,,,,,,,,
27724,1625577027536,,,,,,,,0.0,-0.05,2.05,0,-2,-1,0.05,,68,5118,8,29,59,0.585,0.0,598,4.78,13.7,0.0,1,33.3,2.79,6.6,0,0,0,1,0,0,250,250,0,,,,,,,,,,,,,,,,
27744,1625577027556,2,3,45,45,35,32,-26,0.05,-0.11,1.88,0,0,1,0.12,0,68,5106,8,29,59,0.576,0.0,585,4.83,14.0,0.0,1,33.3,2.8,6.6,0,0,0,1,0,0,250,250,0,52.957394,6.522727,0.0,26.0,10,2,1.4,0,0.0,-1,0.0,,0.0,0,0.0,0.4624
27764,1625577027576,,,,,,,,-0.05,-0.1,1.78,0,3,3,0.11,,68,5075,8,29,60,0.568,0.0,589,4.77,13.7,0.0,1,33.6,1.68,6.6,0,0,0,1,0,0,250,250,0,,,,,,,,,,,,,,,,
27784,1625577027596,,,,,,,,0.05,-0.04,1.96,-0,-1,-3,0.07,,68,5032,8,29,59,0.558,0.0,588,4.88,13.9,0.0,1,33.3,2.84,6.6,0,0,0,1,0,0,250,250,0,,,,,,,,,,,,,,,,
27804,1625577027616,,,,,,,,0.03,-0.08,1.8,0,3,2,0.09,,68,5024,8,29,60,0.55,0.0,583,4.81,13.8,0.0,1,33.6,2.85,6.6,0,0,0,1,0,0,250,250,0,,,,,,,,,,,,,,,,
27824,1625577027636,,,,,,,,0.05,0.0,1.98,-0,2,-0,0.05,,68,5001,8,29,59,0.541,0.0,580,4.79,13.8,0.0,1,33.3,1.73,6.6,0,0,0,1,0,0,250,250,0,,,,,,,,,,,,,,,,
27844,1625577027656,3,1,45,46,35,33,-26,0.1,-0.08,1.82,-0,-2,-3,0.13,0,68,5016,8,29,60,0.534,0.0,577,4.86,14.0,0.0,1,33.6,2.84,6.6,0,0,0,1,0,0,250,250,0,52.957394,6.522727,0.0,26.0,10,2,1.4,0,0.0,-1,0.0,0.0,0.0,0,0.0,0.4641
27864,1625577027676,,,,,,,,-0.01,-0.08,1.66,0,5,3,0.08,,68,5062,8,29,60,0.53,0.0,579,4.8,14.0,0.0,1,33.6,2.82,6.5,0,0,0,1,0,0,250,250,0,,,,,,,,,,,,,,,,
27884,1625577027696,,,,,,,,0.07,-0.01,1.86,-0,-1,-1,0.07,,68,5057,8,29,60,0.527,0.0,588,4.8,13.8,0.0,1,33.6,2.82,6.5,0,0,0,1,0,0,250,250,0,,,,,,,,,,,,,,,,
27904,1625577027716,,,,,,,,0.05,-0.06,1.7,-0,0,-1,0.08,,68,5093,8,29,60,0.524,0.0,582,4.83,14.0,0.0,1,33.6,1.67,6.5,0,0,0,1,0,0,250,250,0,,,,,,,,,,,,,,,,
27924,1625577027736,,,,,,,,-0.01,-0.06,1.89,-0,6,3,0.06,,68,5106,8,29,60,0.522,0.0,595,4.78,13.7,0.0,1,33.6,1.66,6.5,0,0,0,1,0,0,250,250,0,,,,,,,,,,,,,,,,
27944,1625577027756,1,3,45,46,34,33,-26,0.1,-0.1,1.74,-0,-1,-4,0.14,0,68,5142,8,29,60,0.52,0.0,583,4.9,14.0,0.0,1,33.7,2.76,6.5,0,0,0,1,0,0,250,250,0,52.957394,6.522727,0.0,26.0,10,2,1.4,0,0.0,-1,0.0,,0.0,0,0.0,0.4657
27964,1625577027776,,,,,,,,-0.02,-0.11,1.59,-0,6,4,0.11,,68,5161,8,29,60,0.517,0.0,594,4.81,13.8,0.0,1,33.7,1.62,6.6,0,0,0,1,0,0,250,250,0,,,,,,,,,,,,,,,,
27984,1625577027796,,,,,,,,0.08,-0.03,1.79,-0,-1,-2,0.09,,68,5120,8,29,60,0.514,0.0,591,4.85,14.0,0.0,1,33.6,2.78,6.6,0,0,0,1,0,0,250,250,0,,,,,,,,,,,,,,,,
28004,1625577027816,,,,,,,,0.0,-0.07,1.64,-0,2,-0,0.07,,68,5115,8,29,60,0.51,0.0,586,4.85,14.0,0.0,1,33.6,2.78,6.6,0,0,0,1,0,0,250,250,0,,,,,,,,,,,,,,,,
28024,1625577027836,,,,,,,,-0.01,-0.03,1.84,0,3,1,0.03,,68,5096,8,29,60,0.507,0.0,598,4.79,13.7,0.0,1,33.6,2.79,6.6,0,0,0,1,0,0,250,250,0,,,,,,,,,,,,,,,,
28044,1625577027856,1,3,45,45,35,32,-25,0.04,-0.09,1.68,-0,-1,-2,0.1,0,68,5134,8,29,60,0.504,0.0,590,4.81,14.0,0.0,1,33.7,2.78,6.6,0,0,0,1,0,0,250,250,0,52.957394,6.522727,0.0,26.0,10,2,1.4,0,0.0,-1,0.0,0.0,0.0,0,0.0,0.4674
28064,1625577027876,,,,,,,,-0.06,-0.1,1.54,-0,6,4,0.11,,68,5078,8,29,60,0.501,0.0,591,4.77,13.8,0.0,1,33.6,2.81,6.5,0,0,0,1,0,0,250,250,0,,,,,,,,,,,,,,,,
28084,1625577027896,,,,,,,,0.06,-0.03,1.75,-0,-2,-2,0.06,,68,5122,8,29,59,0.501,0.0,595,4.8,13.8,0.0,1,33.3,2.79,6.5,0,0,0,1,0,0,250,250,0,,,,,,,,,,,,,,,,
28104,1625577027916,,,,,,,,-0.01,-0.08,1.6,0,0,1,0.08,,68,5071,8,29,60,0.501,0.0,583,4.84,14.0,0.0,1,33.6,1.68,6.5,0,0,0,1,0,0,250,250,0,,,,,,,,,,,,,,,,
28124,1625577027936,,,,,,,,-0.03,-0.03,1.8,0,1,1,0.04,,68,5102,8,29,60,0.501,0.0,586,4.78,13.7,0.0,1,33.6,1.66,6.5,0,0,0,1,0,0,250,250,0,,,,,,,,,,,,,,,,
28144,1625577027956,2,1,45,46,35,32,-26,0.05,-0.1,1.65,-0,-2,-3,0.11,0,68,5102,8,29,60,0.501,0.0,590,4.87,14.0,0.0,1,33.6,2.8,6.5,0,0,0,1,0,0,250,250,0,52.957394,6.522727,0.0,26.0,10,2,1.4,0,0.0,-1,0.0,,0.0,0,0.0,0.4691
28164,1625577027976,,,,,,,,-0.05,-0.09,1.51,0,4,4,0.11,,68,5068,8,29,60,0.501,0.0,587,4.78,13.9,0.0,1,33.6,1.68,6.5,0,0,0,1,0,0,250,250,0,,,,,,,,,,,,,,,,
28184,1625577027996,,,,,,,,0.01,-0.01,1.72,-0,-2,-1,0.02,,68,5049,8,29,60,0.501,0.0,581,4.85,13.9,0.0,1,33.6,2.82,6.5,0,0,0,1,0,0,250,250,0,,,,,,,,,,,,,,,,
28204,1625577028006,,,,,,,,0.04,-0.06,1.58,-0,0,-2,0.07,,68,4994,8,29,60,0.501,0.0,583,4.81,14.0,0.0,1,33.5,1.71,6.5,0,0,0,1,0,0,250,250,0,,,,,,,,,,,,,,,,
28224,1625577028026,,,,,,,,-0.05,-0.05,1.72,-0,5,3,0.07,,68,5049,8,29,60,0.501,0.0,583,4.77,13.8,0.0,1,33.6,1.69,6.5,0,0,0,1,0,0,250,250,0,,,,,,,,,,,,,,,,
28244,1625577028046,2,3,45,47,35,32,-26,0.02,-0.0,1.91,-0,-1,-2,0.02,0,68,4990,8,29,60,0.501,0.0,580,4.77,13.8,0.0,1,33.4,2.84,6.5,0,0,0,1,0,0,250,250,0,52.957394,6.522727,0.0,26.0,10,2,1.4,0,0.0,-1,0.0,0.0,0.0,0,0.0,0.4707
28264,1625577028066,,,,,,,,0.03,-0.05,1.75,-0,1,-2,0.06,,68,5036,8,29,60,0.501,0.0,581,4.81,14.0,0.0,1,33.6,1.7,6.5,0,0,0,1,0,0,250,250,0,,,,,,,,,,,,,,,,
28284,1625577028096,,,,,,,,-0.05,-0.06,1.94,-0,4,1,0.07,,68,5001,8,29,60,0.501,0.0,587,4.77,13.7,0.0,1,33.6,1.72,6.5,0,0,0,1,0,0,250,250,0,,,,,,,,,,,,,,,,
28304,1625577028116,,,,,,,,0.04,-0.02,2.11,-0,-3,-4,0.04,,68,5030,8,29,60,0.501,0.0,580,4.76,13.8,0.0,1,33.6,2.84,6.5,0,0,0,1,0,0,250,250,0,,,,,,,,,,,,,,,,
28324,1625577028136,,,,,,,,-0.0,-0.04,1.93,-0,1,-1,0.04,,68,5045,8,29,60,0.501,0.0,578,4.85,14.0,0.0,1,33.6,2.83,6.5,0,0,0,1,0,0,250,250,0,,,,,,,,,,,,,,,,
28344,1625577028156,3,2,45,47,35,32,-25,-0.06,-0.01,2.11,-0,3,1,0.06,0,68,5016,8,29,60,0.502,0.0,587,4.75,13.7,0.0,1,33.6,1.71,6.5,0,0,0,1,0,0,250,250,0,52.957394,6.522727,0.0,26.0,10,2,1.4,0,0.0,-1,0.0,,0.0,0,0.0,0.4724
28364,1625577028176,,,,,,,,0.02,0.0,2.26,-0,-2,-5,0.02,,68,4997,8,29,60,0.503,0.0,577,4.83,14.0,0.0,1,33.5,2.84,6.6,0,0,0,1,0,0,250,250,0,,,,,,,,,,,,,,,,
28384,1625577028196,,,,,,,,-0.02,-0.02,2.07,-0,1,-1,0.03,,68,5021,8,29,60,0.503,0.0,575,4.77,14.0,0.0,1,33.6,1.71,6.6,0,0,0,1,0,0,250,250,0,,,,,,,,,,,,,,,,
28404,1625577028216,,,,,,,,-0.06,-0.01,2.23,-0,2,0,0.06,,68,4984,8,29,60,0.504,0.0,583,4.75,13.7,0.0,1,33.4,1.71,6.6,0,0,0,1,0,0,250,250,0,,,,,,,,,,,,,,,,
28424,1625577028236,,,,,,,,0.03,-0.02,2.38,-0,-3,-5,0.03,,68,5013,8,29,60,0.504,0.0,575,4.88,14.0,0.0,1,33.6,2.85,6.6,0,0,0,1,0,0,250,250,0,,,,,,,,,,,,,,,,
28444,1625577028256,3,2,44,46,35,32,-26,-0.01,-0.03,2.18,-0,1,-1,0.03,0,68,5008,8,29,60,0.505,0.0,582,4.8,13.9,0.0,1,33.6,1.72,6.6,0,0,0,1,0,0,250,250,0,52.957394,6.522727,0.0,26.0,10,2,1.4,0,0.0,-1,0.0,0.0,0.0,0,0.0,0.4741
28464,1625577028276,,,,,,,,-0.06,-0.0,2.33,0,2,1,0.06,,68,4964,8,29,60,0.505,0.0,580,4.77,13.7,0.0,1,33.1,2.83,6.5,0,0,0,1,0,0,250,250,0,,,,,,,,,,,,,,,,
28484,1625577028295,,,,,,,,0.01,0.01,2.47,-0,-2,-4,0.01,,68,4965,8,29,60,0.506,0.0,572,4.87,14.0,0.0,1,33.1,2.83,6.5,0,0,0,1,0,0,250,250,0,,,,,,,,,,,,,,,,
28504,1625577028315,,,,,,,,0.02,-0.03,2.27,0,0,-1,0.04,,68,4949,8,29,60,0.506,0.0,572,4.83,13.9,0.0,1,32.9,2.83,6.5,0,0,0,1,0,0,250,250,0,,,,,,,,,,,,,,,,
28524,1625577028335,,,,,,,,-0.05,-0.04,2.41,0,3,1,0.06,,68,4968,8,29,60,0.506,0.0,571,4.76,13.7,0.0,1,33.2,1.7,6.5,0,0,0,1,0,0,250,250,0,,,,,,,,,,,,,,,,
28544,1625577028355,1,3,45,47,34,32,-26,-0.01,0.02,2.54,-0,-2,-3,0.02,0,68,4978,8,29,60,0.507,0.0,578,4.78,13.7,0.0,1,33.3,1.71,6.5,0,0,0,1,0,0,250,250,0,52.957394,6.522727,0.0,26.0,10,2,1.4,0,0.0,-1,0.0,,0.0,0,0.0,0.4757
28564,1625577028375,,,,,,,,0.03,-0.03,2.33,0,-0,-3,0.04,,68,4921,8,29,60,0.508,0.0,576,4.77,14.0,0.0,1,32.6,2.81,6.5,0,0,0,1,0,0,250,250,0,,,,,,,,,,,,,,,,
28584,1625577028395,,,,,,,,-0.01,-0.05,2.13,0,3,2,0.05,,68,4886,8,29,60,0.506,0.0,562,4.82,13.9,0.0,1,32.1,2.78,6.5,0,0,0,1,0,0,250,250,0,,,,,,,,,,,,,,,,
28604,1625577028415,,,,,,,,-0.05,0.0,2.29,0,1,-0,0.05,,68,4934,8,29,60,0.506,0.0,569,4.81,13.8,0.0,1,32.7,2.82,6.5,0,0,0,1,0,0,250,250,0,,,,,,,,,,,,,,,,
28624,1625577028435,,,,,,,,0.01,-0.01,2.39,0,-2,-3,0.02,,68,4860,8,29,60,0.506,0.0,560,4.84,14.0,0.0,1,31.8,2.78,6.5,0,0,0,1,0,0,250,250,0,,,,,,,,,,,,,,,,
28644,1625577028455,3,1,45,46,35,32,-26,0.04,-0.04,2.19,0,-0,-1,0.06,0,68,4901,8,29,61,0.505,0.0,552,4.83,14.0,0.0,1,32.7,2.8,6.5,0,0,0,1,0,0,250,250,0,52.957394,6.522727,0.0,26.0,10,2,1.4,0,0.0,-1,0.0,0.0,0.0,0,0.0,0.4774
28664,1625577028475,,,,,,,,-0.01,-0.05,2.01,0,3,2,0.05,,68,4863,8,29,61,0.505,0.0,570,4.78,13.9,0.0,1,32.2,2.77,6.3,0,0,0,1,0,0,250,250,0,,,,,,,,,,,,,,,,
28684,1625577028495,,,,,,,,-0.05,0.01,2.17,0,1,0,0.05,,68,4843,8,29,61,0.505,0.0,567,4.78,13.8,0.0,1,31.9,1.64,6.3,0,0,0,1,0,0,250,250,0,,,,,,,,,,,,,,,,
28704,1625577028515,,,,,,,,-0.03,0.02,2.33,0,-2,-3,0.03,,68,4829,8,29,61,0.505,0.0,557,4.85,13.9,0.0,1,31.7,2.76,6.3,0,0,0,1,0,0,250,250,0,,,,,,,,,,,,,,,,
28724,1625577028535,,,,,,,,0.04,-0.02,2.13,0,-1,-2,0.04,,68,4750,8,29,61,0.505,0.0,545,4.83,14.0,0.0,1,30.7,2.73,6.3,0,0,0,1,0,0,250,250,0,,,,,,,,,,,,,,,,
28744,1625577028555,3,2,45,46,35,33,-26,0.06,-0.02,1.95,0,1,-0,0.06,0,68,4810,8,29,61,0.505,0.0,537,4.83,14.0,0.0,1,31.5,1.62,6.3,0,0,0,1,0,0,250,250,0,52.957394,6.522727,0.0,26.0,10,2,1.4,0,0.0,-1,0.0,,0.0,0,0.0,0.4791
28764,1625577028575,,,,,,,,0.01,-0.04,1.86,0,2,2,0.04,,68,4752,8,29,61,0.505,0.0,555,4.8,13.9,0.0,1,30.7,2.73,6.1,0,0,0,1,0,0,250,250,0,,,,,,,,,,,,,,,,
28784,1625577028595,,,,,,,,-0.05,0.0,2.04,0,2,2,0.05,,68,4734,8,29,61,0.504,0.0,551,4.83,13.7,0.0,1,30.5,1.6,6.1,0,0,0,1,0,0,250,250,0,,,,,,,,,,,,,,,,
28804,1625577028615,,,,,,,,-0.1,0.03,2.2,0,1,-0,0.1,,68,4750,8,29,61,0.504,0.0,546,4.83,13.9,0.0,1,30.7,2.73,6.1,0,0,0,1,0,0,250,250,0,,,,,,,,,,,,,,,,
28824,1625577028635,,,,,,,,-0.08,0.01,2.35,0,-1,-2,0.08,,68,4707,8,29,61,0.504,0.0,542,4.81,14.0,0.0,1,30.1,2.71,6.1,0,0,0,1,0,0,250,250,0,,,,,,,,,,,,,,,,
28844,1625577028655,3,2,44,47,35,32,-25,-0.01,-0.01,2.15,0,-1,-2,0.02,0,68,4760,8,29,61,0.505,0.0,539,4.83,14.0,0.0,1,30.8,2.74,6.1,0,0,0,1,0,0,250,250,0,52.957394,6.522727,0.0,26.0,10,2,1.4,0,0.0,-1,0.0,0.0,0.0,0,0.0,0.4807
28864,1625577028675,,,,,,,,0.03,-0.03,1.97,0,0,-1,0.04,,68,4737,8,29,61,0.506,0.0,537,4.82,14.0,0.0,1,30.5,1.6,6.0,0,0,0,1,0,0,250,250,0,,,,,,,,,,,,,,,,
28884,1625577028695,,,,,,,,0.03,-0.04,1.81,0,1,1,0.05,,68,4740,8,29,61,0.506,0.0,543,4.86,13.9,0.0,1,30.5,1.6,6.0,0,0,0,1,0,0,250,250,0,,,,,,,,,,,,,,,,
28904,1625577028715,,,,,,,,-0.03,-0.02,1.9,0,2,2,0.04,,68,4707,8,29,60,0.506,0.0,543,4.8,13.7,0.0,1,29.8,1.58,6.0,0,0,0,1,0,0,250,250,0,,,,,,,,,,,,,,,,
28924,1625577028735,,,,,,,,-0.1,-0.0,2.07,0,1,1,0.1,,68,4718,8,29,60,0.507,0.0,546,4.83,13.7,0.0,1,30.0,2.72,6.0,0,0,0,1,0,0,250,250,0,,,,,,,,,,,,,,,,
28944,1625577028755,1,3,45,46,35,32,-26,-0.13,0.02,2.23,0,-0,-1,0.13,0,68,4669,8,29,60,0.507,0.0,547,4.82,13.7,0.0,1,29.3,2.7,6.0,0,0,0,1,0,0,250,250,0,52.957394,6.522727,0.0,26.0,10,2,1.4,0,0.0,-1,0.0,,0.0,0,0.0,0.4824
28964,1625577028775,,,,,,,,-0.09,0.02,2.38,0,-2,-3,0.09,,68,4711,8,29,60,0.508,0.0,530,4.82,13.9,0.0,1,29.9,2.72,5.8,0,0,0,1,0,0,250,250,0,,,,,,,,,,,,,,,,
28984,1625577028795,,,,,,,,-0.01,-0.02,2.18,0,-2,-3,0.02,,68,4715,8,29,60,0.508,0.0,541,4.82,14.0,0.0,1,29.9,2.72,5.8,0,0,0,1,0,0,250,250,0,,,,,,,,,,,,,,,,
29004,1625577028815,,,,,,,,0.04,-0.04,2.0,0,0,-1,0.05,,68,4794,8,29,60,0.508,0.0,539,4.83,13.9,0.0,1,31.0,1.63,5.8,0,0,0,1,0,0,250,250,0,,,,,,,,,,,,,,,,
29024,1625577028835,,,,,,,,0.01,-0.03,1.9,0,1,1,0.04,,68,4790,8,29,61,0.509,0.0,548,4.82,14.0,0.0,1,31.2,1.62,5.8,0,0,0,1,0,0,250,250,0,,,,,,,,,,,,,,,,
29044,1625577028855,3,1,45,47,35,32,-27,-0.06,-0.02,2.08,0,1,0,0.06,0,68,4714,8,29,60,0.51,0.0,558,4.76,13.8,0.0,1,29.9,2.72,5.8,0,0,0,1,0,0,250,250,0,52.957394,6.522727,0.0,26.0,10,2,1.4,0,0.0,-1,0.0,0.0,0.0,0,0.0,0.4841
29064,1625577028875,,,,,,,,-0.1,0.01,2.24,0,-1,-2,0.1,,68,4714,8,29,60,0.511,0.0,537,4.83,13.9,0.0,1,29.9,2.72,5.9,0,0,0,1,0,0,250,250,0,,,,,,,,,,,,,,,,
29084,1625577028895,,,,,,,,-0.1,0.02,2.38,0,-2,-3,0.1,,68,4712,8,29,60,0.511,0.0,526,4.81,14.0,0.0,1,29.9,2.72,5.9,0,0,0,1,0,0,250,250,0,,,,,,,,,,,,,,,,
29104,1625577028915,,,,,,,,-0.03,-0.0,2.18,0,-2,-3,0.03,,68,4749,8,29,60,0.512,0.0,530,4.81,14.0,0.0,1,30.4,2.74,5.9,0,0,0,1,0,0,250,250,0,,,,,,,,,,,,,,,,
29124,1625577028935,,,,,,,,0.02,-0.02,2.0,0,-1,-1,0.03,,68,4783,8,29,60,0.512,0.0,532,4.81,14.0,0.0,1,30.8,2.75,5.9,0,0,0,1,0,0,250,250,0,,,,,,,,,,,,,,,,
29144,1625577028955,1,2,45,47,35,32,-26,0.02,-0.04,1.83,0,1,1,0.04,0,68,4746,8,29,60,0.513,0.0,553,4.81,13.9,0.0,1,30.3,1.61,5.9,0,0,0,1,0,0,250,250,0,52.957394,6.522727,0.0,26.0,10,2,1.4,0,0.0,-1,0.0,,0.0,0,0.0,0.4857
29164,1625577028975,,,,,,,,-0.03,-0.02,1.9,0,1,2,0.04,,68,4720,8,29,60,0.513,0.0,539,4.81,13.7,0.0,1,30.0,2.72,5.9,0,0,0,1,0,0,250,250,0,,,,,,,,,,,,,,,,
29184,1625577028995,,,,,,,,-0.09,0.01,2.07,0,0,1,0.09,,68,4707,8,29,60,0.514,0.0,545,4.8,13.8,0.0,1,29.8,2.71,5.9,0,0,0,1,0,0,250,250,0,,,,,,,,,,,,,,,,
29204,1625577029007,,,,,,,,-0.11,0.03,2.23,0,-2,-2,0.11,,68,4768,8,29,60,0.514,0.0,552,4.79,13.8,0.0,1,30.6,2.75,5.9,0,0,0,1,0,0,250,250,0,,,,,,,,,,,,,,,,
29224,1625577029027,,,,,,,,-0.06,0.0,2.05,0,-2,-2,0.06,,68,4763,8,29,60,0.515,0.0,532,4.8,14.0,0.0,1,30.5,1.62,5.9,0,0,0,1,0,0,250,250,0,,,,,,,,,,,,,,,,
29244,1625577029047,1,2,45,46,35,32,-26,0.02,-0.01,1.88,0,-1,-1,0.02,0,68,4760,8,29,60,0.515,0.0,538,4.81,14.0,0.0,1,30.5,2.75,5.9,0,0,0,1,0,0,250,250,0,52.957394,6.522727,0.0,26.0,10,2,1.4,0,0.0,-1,0.0,0.0,0.0,0,0.0,0.4874
29264,1625577029067,,,,,,,,0.03,-0.03,1.72,0,1,2,0.04,,68,4797,8,29,60,0.515,0.0,545,4.79,13.9,0.0,1,31.0,1.63,6.1,0,0,0,1,0,0,250,250,0,,,,,,,,,,,,,,,,
29284,1625577029097,,,,,,,,-0.03,-0.02,1.89,0,1,2,0.04,,68,4769,8,29,60,0.515,0.0,550,4.8,13.7,0.0,1,30.6,1.62,6.1,0,0,0,1,0,0,250,250,0,,,,,,,,,,,,,,,,
29304,1625577029117,,,,,,,,-0.07,0.02,2.07,0,-1,-1,0.08,,68,4785,8,29,60,0.515,0.0,558,4.83,13.9,0.0,1,30.8,2.76,6.1,0,0,0,1,0,0,250,250,0,,,,,,,,,,,,,,,,
29324,1625577029137,,,,,,,,-0.05,0.02,2.23,0,-3,-2,0.05,,68,4786,8,29,60,0.515,0.0,555,4.79,14.0,0.0,1,30.8,2.76,6.1,0,0,0,1,0,0,250,250,0,,,,,,,,,,,,,,,,
29344,1625577029157,2,2,45,46,35,32,-26,0.01,-0.01,2.04,0,-2,-2,0.01,0,68,4734,8,29,60,0.514,0.0,544,4.84,14.0,0.0,1,30.2,2.73,6.1,0,0,0,1,0,0,250,250,0,52.957394,6.522727,0.0,26.0,10,2,1.4,0,0.0,-1,0.0,,0.0,0,0.0,0.4891
29364,1625577029177,,,,,,,,0.05,-0.04,1.87,0,-1,-0,0.06,,68,4779,8,29,61,0.514,0.0,546,4.82,14.0,0.0,1,31.1,2.74,6.0,0,0,0,1,0,0,250,250,0,,,,,,,,,,,,,,,,
29384,1625577029196,,,,,,,,0.02,-0.04,1.72,0,0,2,0.04,,68,4772,8,29,60,0.518,0.0,538,4.83,13.9,0.0,1,30.7,2.75,6.0,0,0,0,1,0,0,250,250,0,,,,,,,,,,,,,,,,
29404,1625577029216,,,,,,,,-0.04,-0.03,1.91,0,-0,1,0.05,,68,4848,8,29,60,0.523,0.0,552,4.81,13.7,0.0,1,31.7,1.65,6.0,0,0,0,1,0,0,250,250,0,,,,,,,,,,,,,,,,
29424,1625577029236,,,,,,,,-0.03,0.01,2.08,0,-3,-2,0.03,,68,4866,8,29,60,0.528,0.0,563,4.81,13.8,0.0,1,31.9,2.78,6.0,0,0,0,1,0,0,250,250,0,,,,,,,,,,,,,,,,
29444,1625577029256,3,2,45,46,35,32,-26,0.03,-0.02,1.91,0,-1,-1,0.03,0,68,4849,8,29,61,0.532,0.0,551,4.82,13.9,0.0,1,32.0,2.77,6.0,0,0,0,1,0,0,250,250,0,52.957394,6.522727,0.0,26.0,10,2,1.4,0,0.0,-1,0.0,0.0,0.0,0,0.0,0.4907
29464,1625577029276,,,,,,,,0.03,-0.04,1.75,0,1,2,0.05,,68,4863,8,29,61,0.536,0.0,562,4.8,13.9,0.0,1,32.2,1.64,6.2,0,0,0,1,0,0,250,250,0,,,,,,,,,,,,,,,,
29484,1625577029294,,,,,,,,-0.04,-0.03,1.93,0,1,2,0.05,,68,4836,8,29,61,0.541,0.0,559,4.8,13.8,0.0,1,31.8,2.76,6.2,0,0,0,1,0,0,250,250,0,,,,,,,,,,,,,,,,
29504,1625577029314,,,,,,,,-0.04,0.0,2.11,0,-3,-2,0.04,,68,4909,8,29,60,0.547,0.0,546,4.87,14.0,0.0,1,32.4,2.79,6.2,0,0,0,1,0,0,250,250,0,,,,,,,,,,,,,,,,
29524,1625577029334,,,,,,,,0.02,-0.05,1.93,0,-1,-0,0.06,,68,4951,8,29,61,0.553,0.0,562,4.8,14.0,0.0,1,33.3,2.81,6.2,0,0,0,1,0,0,250,250,0,,,,,,,,,,,,,,,,
29544,1625577029354,2,2,45,47,35,33,-26,-0.03,-0.06,1.77,0,3,3,0.06,0,68,4949,8,29,61,0.558,0.0,565,4.79,13.9,0.0,1,33.3,1.68,6.2,0,0,0,1,0,0,250,250,0,52.957394,6.522727,0.0,26.0,10,2,1.4,0,0.0,-1,0.0,,0.0,0,0.0,0.4924
29564,1625577029374,,,,,,,,-0.04,0.0,1.95,0,-2,-1,0.04,,68,4977,8,29,61,0.564,0.0,575,4.83,13.9,0.0,1,33.6,2.82,6.4,0,0,0,1,0,0,250,250,0,,,,,,,,,,,,,,,,
29584,1625577029396,,,,,,,,0.03,-0.03,1.79,0,-3,-2,0.04,,68,4965,8,29,61,0.57,0.0,568,4.82,14.0,0.0,1,33.5,2.81,6.4,0,0,0,1,0,0,250,250,0,,,,,,,,,,,,,,,,
29604,1625577029416,,,,,,,,-0.02,-0.04,1.64,0,2,3,0.04,,68,5005,8,29,61,0.574,0.0,565,4.8,14.0,0.0,1,34.0,2.83,6.4,0,0,0,1,0,0,250,250,0,,,,,,,,,,,,,,,,
29624,1625577029436,,,,,,,,-0.04,-0.0,1.84,0,-2,-1,0.04,,68,5033,8,29,61,0.578,0.0,585,4.72,13.7,0.0,1,34.0,2.81,6.4,0,0,0,1,0,0,250,250,0,,,,,,,,,,,,,,,,
29644,1625577029456,3,3,45,45,35,32,-26,0.04,-0.05,1.68,0,-3,-2,0.07,0,68,5060,8,29,61,0.577,0.0,577,4.83,14.0,0.0,1,34.0,2.82,6.4,0,0,0,1,0,0,250,250,0,52.957394,6.522727,0.0,26.0,10,2,1.4,0,0.0,-1,0.0,0.0,0.0,0,0.0,0.4941
29664,1625577029476,,,,,,,,-0.02,-0.05,1.88,0,2,3,0.05,,68,5104,8,29,61,0.577,0.0,585,4.79,13.7,0.0,1,34.0,2.77,6.5,0,0,0,1,0,0,250,250,0,,,,,,,,,,,,,,,,
29684,1625577029496,,,,,,,,0.1,-0.06,1.97,0,-6,-3,0.12,,68,5127,8,29,60,0.578,0.0,583,4.88,14.0,0.0,1,33.7,2.77,6.5,0,0,0,1,0,0,250,250,0,,,,,,,,,,,,,,,,
29704,1625577029516,,,,,,,,-0.02,-0.07,1.8,0,1,4,0.07,,68,5185,8,29,60,0.577,0.0,590,4.81,13.9,0.0,1,33.7,2.74,6.5,0,0,0,1,0,0,250,250,0,,,,,,,,,,,,,,,,
29724,1625577029536,,,,,,,,0.11,-0.0,1.99,0,-7,-2,0.11,,68,5205,8,29,60,0.577,0.0,592,4.84,14.0,0.0,1,33.7,2.72,6.5,0,0,0,1,0,0,250,250,0,,,,,,,,,,,,,,,,
29744,1625577029556,2,3,45,46,35,32,-26,-0.04,-0.03,1.82,0,-1,2,0.05,0,68,5253,8,29,60,0.576,0.0,595,4.82,13.9,0.0,1,33.7,2.69,6.5,0,0,0,1,0,0,250,250,0,52.957394,6.522727,0.0,26.0,10,2,1.4,0,0.0,-1,0.0,,0.0,0,0.0,0.4957
29764,1625577029576,,,,,,,,0.1,0.05,2.0,0,-8,-3,0.11,,68,5256,8,29,60,0.576,0.0,608,4.84,13.9,0.0,1,33.7,2.69,6.5,0,0,0,1,0,0,250,250,0,,,,,,,,,,,,,,,,
29784,1625577029596,,,,,,,,-0.04,0.01,1.83,1,-2,2,0.05,,68,5250,8,29,60,0.574,0.0,602,4.83,14.0,0.0,1,33.7,2.69,6.5,0,0,0,1,0,0,250,250,0,,,,,,,,,,,,,,,,
29804,1625577029616,,,,,,,,0.11,0.08,2.01,0,-9,-4,0.14,,68,5269,8,29,60,0.574,0.0,604,4.78,13.8,0.0,1,33.7,2.68,6.5,0,0,0,1,0,0,250,250,0,,,,,,,,,,,,,,,,
29824,1625577029636,,,,,,,,-0.05,0.04,1.85,1,-2,2,0.06,,68,5275,8,29,60,0.572,0.0,609,4.78,13.8,0.0,1,33.7,1.55,6.5,0,0,0,1,0,0,250,250,0,,,,,,,,,,,,,,,,
29844,1625577029656,3,2,45,46,35,33,-26,0.11,0.1,2.03,0,-10,-4,0.15,0,68,5259,8,29,60,0.571,0.0,603,4.88,13.9,0.0,1,33.7,2.69,6.5,0,0,0,1,0,0,250,250,0,52.957394,6.522727,0.0,26.0,10,2,1.4,0,0.0,-1,0.0,0.0,0.0,0,0.0,0.4974
29864,1625577029676,,,,,,,,-0.03,0.04,1.86,1,-4,1,0.05,,68,5211,8,29,60,0.569,0.0,600,4.83,13.9,0.0,1,33.7,2.72,6.5,0,0,0,1,0,0,250,250,0,,,,,,,,,,,,,,,,
29884,1625577029696,,,,,,,,0.1,0.1,2.03,0,-10,-4,0.15,,68,5231,8,29,60,0.571,0.0,604,4.76,13.9,0.0,1,33.7,2.71,6.5,0,0,0,1,0,0,250,250,0,,,,,,,,,,,,,,,,
29904,1625577029716,,,,,,,,-0.03,0.04,1.86,1,-4,1,0.05,,68,5218,8,29,60,0.571,0.0,616,4.78,13.9,0.0,1,33.7,1.59,6.5,0,0,0,1,0,0,250,250,0,,,,,,,,,,,,,,,,
29924,1625577029736,,,,,,,,0.08,0.12,2.04,1,-9,-3,0.14,,68,5206,8,29,60,0.572,0.0,602,4.77,13.9,0.0,1,33.7,2.72,6.5,0,0,0,1,0,0,250,250,0,,,,,,,,,,,,,,,,
29944,1625577029756,2,2,45,45,35,32,-26,0.01,0.05,1.87,1,-6,-1,0.05,0,68,5158,8,29,60,0.572,0.0,596,4.82,13.9,0.0,1,33.7,2.75,6.5,0,0,0,1,0,0,250,250,0,52.957394,6.522727,0.0,26.0,10,2,1.4,0,0.0,-1,0.0,,0.0,0,0.0,0.4991
29964,1625577029776,,,,,,,,0.02,0.1,2.05,0,-5,-1,0.1,,68,5159,8,29,60,0.572,0.0,608,4.77,13.7,0.0,1,33.7,2.75,6.5,0,0,0,1,0,0,250,250,0,,,,,,,,,,,,,,,,
29984,1625577029798,,,,,,,,0.05,0.03,1.88,0,-6,-4,0.06,,68,5132,8,29,60,0.574,0.0,583,4.87,14.0,0.0,1,33.7,2.77,6.5,0,0,0,1,0,0,250,250,0,,,,,,,,,,,,,,,,
30004,1625577029818,,,,,,,,-0.04,0.03,2.05,0,1,3,0.05,,68,5131,8,29,60,0.575,0.0,597,4.74,13.7,0.0,1,33.7,1.64,6.5,0,0,0,1,0,0,250,250,0,,,,,,,,,,,,,,,,
30024,1625577029838,,,,,,,,0.09,0.03,2.22,0,-7,-4,0.1,,68,5125,8,29,60,0.577,0.0,599,4.8,13.9,0.0,1,33.7,2.77,6.5,0,0,0,1,0,0,250,250,0,,,,,,,,,,,,,,,,
30044,1625577029858,2,2,45,46,35,32,-26,-0.02,-0.0,2.03,0,-0,3,0.02,0,68,5136,8,29,60,0.578,0.0,585,4.8,14.0,0.0,1,33.7,2.77,6.5,0,0,0,1,0,0,250,250,0,52.957394,6.522727,0.0,26.0,10,2,1.4,0,0.0,-1,0.0,0.0,0.0,0,0.0,0.5007
30064,1625577029878,,,,,,,,0.06,0.05,2.19,0,-6,-2,0.07,,68,5097,8,29,60,0.58,0.0,594,4.82,13.9,0.0,1,33.6,2.79,6.6,0,0,0,1,0,0,250,250,0,,,,,,,,,,,,,,,,
30084,1625577029898,,,,,,,,0.04,-0.02,2.01,0,-4,-2,0.05,,68,5075,8,29,60,0.581,0.0,584,4.82,14.0,0.0,1,33.6,1.68,6.6,0,0,0,1,0,0,250,250,0,,,,,,,,,,,,,,,,
30104,1625577029918,,,,,,,,-0.02,0.01,2.18,0,0,1,0.02,,68,5060,8,29,60,0.582,0.0,583,4.78,13.7,0.0,1,33.6,2.82,6.6,0,0,0,1,0,0,250,250,0,,,,,,,,,,,,,,,,
30124,1625577029938,,,,,,,,0.09,0.0,2.33,0,-6,-6,0.09,,68,5085,8,29,60,0.584,0.0,583,4.87,14.0,0.0,1,33.6,2.8,6.6,0,0,0,1,0,0,250,250,0,,,,,,,,,,,,,,,,
30144,1625577029958,1,2,45,46,35,32,-26,0.01,-0.02,2.13,0,-1,0,0.02,0,68,5068,8,29,60,0.585,0.0,588,4.78,14.0,0.0,1,33.6,1.68,6.6,0,0,0,1,0,0,250,250,0,52.957394,6.522727,0.0,26.0,10,2,1.4,0,0.0,-1,0.0,,0.0,0,0.0,0.5024
30164,1625577029978,,,,,,,,0.03,0.05,2.29,0,-3,-3,0.06,,68,5104,8,29,60,0.585,0.0,589,4.76,13.7,0.0,1,33.6,2.79,6.5,0,0,0,1,0,0,250,250,0,,,,,,,,,,,,,,,,
30184,1625577029998,,,,,,,,0.07,-0.02,2.1,0,-4,-3,0.07,,68,5108,8,29,60,0.587,0.0,583,4.78,14.0,0.0,1,33.6,1.66,6.5,0,0,0,1,0,0,250,250,0,,,,,,,,,,,,,,,,
30204,1625577030010,,,,,,,,-0.02,-0.04,2.26,0,1,1,0.05,,68,5092,8,29,60,0.587,0.0,588,4.77,13.7,0.0,1,33.6,1.67,6.5,0,0,0,1,0,0,250,250,0,,,,,,,,,,,,,,,,
30224,1625577030030,,,,,,,,0.09,-0.01,2.4,0,-6,-5,0.09,,68,5059,8,29,60,0.589,0.0,581,4.77,13.8,0.0,1,33.6,2.82,6.5,0,0,0,1,0,0,250,250,0,,,,,,,,,,,,,,,,
30244,1625577030050,2,2,45,46,35,32,-25,0.02,-0.03,2.2,0,-2,0,0.04,0,68,5048,8,29,60,0.589,0.0,584,4.8,13.9,0.0,1,33.6,2.82,6.5,0,0,0,1,0,0,250,250,0,52.957394,6.522727,0.0,26.0,10,2,1.4,0,0.0,-1,0.0,0.0,0.0,0,0.0,0.5041
30264,1625577030070,,,,,,,,-0.01,0.03,2.35,0,-1,-0,0.03,,68,5040,8,29,60,0.591,0.0,592,4.8,13.8,0.0,1,33.6,1.7,6.6,0,0,0,1,0,0,250,250,0,,,,,,,,,,,,,,,,
30284,1625577030098,,,,,,,,0.08,-0.02,2.15,0,-6,-4,0.08,,68,5036,8,29,60,0.592,0.0,573,4.82,13.9,0.0,1,33.6,2.83,6.6,0,0,0,1,0,0,250,250,0,,,,,,,,,,,,,,,,
30304,1625577030118,,,,,,,,0.01,-0.03,1.97,0,-0,2,0.03,,68,5028,8,29,60,0.592,0.0,581,4.8,13.9,0.0,1,33.6,1.71,6.6,0,0,0,1,0,0,250,250,0,,,,,,,,,,,,,,,,
30324,1625577030138,,,,,,,,0.0,0.03,2.14,0,-2,-0,0.03,,68,4980,8,29,60,0.592,0.0,580,4.81,13.8,0.0,1,33.3,2.84,6.6,0,0,0,1,0,0,250,250,0,,,,,,,,,,,,,,,,
30344,1625577030158,3,2,44,46,35,32,-28,0.08,-0.0,1.96,0,-5,-3,0.08,0,68,4989,8,29,60,0.593,0.0,564,4.87,14.0,0.0,1,33.4,2.84,6.6,0,0,0,1,0,0,250,250,0,52.957394,6.522727,0.0,26.0,10,2,1.4,0,0.0,-1,0.0,,0.0,0,0.0,0.5057
30364,1625577030178,,,,,,,,0.0,-0.03,1.8,0,1,3,0.03,,68,5032,8,29,60,0.596,0.0,582,4.79,13.9,0.0,1,33.6,1.7,6.6,0,0,0,1,0,0,250,250,0,,,,,,,,,,,,,,,,
30384,1625577030195,,,,,,,,0.01,0.05,1.98,0,-3,-0,0.05,,68,5038,8,29,60,0.599,0.0,589,4.81,13.8,0.0,1,33.6,2.83,6.6,0,0,0,1,0,0,250,250,0,,,,,,,,,,,,,,,,
30404,1625577030215,,,,,,,,0.06,-0.02,1.82,-0,-3,-3,0.07,,68,5028,8,29,60,0.602,0.0,571,4.82,14.0,0.0,1,33.6,2.84,6.6,0,0,0,1,0,0,250,250,0,,,,,,,,,,,,,,,,
30424,1625577030235,,,,,,,,-0.01,-0.04,1.66,0,3,3,0.04,,68,4985,8,29,60,0.605,0.0,577,4.8,13.8,0.0,1,33.4,1.71,6.6,0,0,0,1,0,0,250,250,0,,,,,,,,,,,,,,,,
30444,1625577030255,2,2,45,46,35,32,-26,-0.02,0.02,1.86,0,-1,-1,0.03,0,68,4994,8,29,60,0.609,0.0,581,4.78,13.7,0.0,1,33.5,2.84,6.6,0,0,0,1,0,0,250,250,0,52.957394,6.522727,0.0,26.0,10,2,1.4,0,0.0,-1,0.0,0.0,0.0,0,0.0,0.5074
30464,1625577030275,,,,,,,,0.05,-0.02,1.7,-0,-2,-2,0.05,,68,4989,8,29,60,0.613,0.0,566,4.84,14.0,0.0,1,33.4,2.84,6.5,0,0,0,1,0,0,250,250,0,,,,,,,,,,,,,,,,
30484,1625577030297,,,,,,,,-0.01,-0.03,1.56,0,2,3,0.03,,68,4969,8,29,60,0.617,0.0,571,4.8,14.0,0.0,1,33.2,2.83,6.5,0,0,0,1,0,0,250,250,0,,,,,,,,,,,,,,,,
30504,1625577030317,,,,,,,,-0.01,0.02,1.76,0,-0,0,0.02,,68,5005,8,29,60,0.62,0.0,585,4.78,13.8,0.0,1,33.6,2.85,6.5,0,0,0,1,0,0,250,250,0,,,,,,,,,,,,,,,,
30524,1625577030337,,,,,,,,0.06,-0.03,1.62,-0,-3,-3,0.07,,68,4981,8,29,60,0.623,0.0,571,4.86,13.9,0.0,1,33.3,2.84,6.5,0,0,0,1,0,0,250,250,0,,,,,,,,,,,,,,,,
30544,1625577030357,1,2,45,47,35,32,-26,-0.01,-0.03,1.48,0,2,3,0.04,0,68,5047,8,29,60,0.627,0.0,575,4.8,13.9,0.0,1,33.6,1.69,6.5,0,0,0,1,0,0,250,250,0,52.957394,6.522727,0.0,26.0,10,2,1.4,0,0.0,-1,0.0,,0.0,0,0.0,0.5091
30564,1625577030377,,,,,,,,0.0,0.02,1.69,0,-2,-1,0.02,,68,5030,8,29,60,0.631,0.0,582,4.77,13.8,0.0,1,33.6,2.84,6.6,0,0,0,1,0,0,250,250,0,,,,,,,,,,,,,,,,
30584,1625577030395,,,,,,,,0.06,-0.04,1.55,0,-3,-2,0.07,,68,5018,8,29,60,0.635,0.0,570,4.91,13.9,0.0,1,33.6,2.84,6.6,0,0,0,1,0,0,250,250,0,,,,,,,,,,,,,,,,
30604,1625577030415,,,,,,,,-0.03,-0.05,1.42,0,3,4,0.06,,68,5032,8,29,60,0.639,0.0,585,4.76,13.8,0.0,1,33.6,2.83,6.6,0,0,0,1,0,0,250,250,0,,,,,,,,,,,,,,,,
30624,1625577030435,,,,,,,,0.01,0.04,1.63,0,-2,-1,0.04,,68,5006,8,29,60,0.639,0.0,582,4.79,13.7,0.0,1,33.6,2.85,6.6,0,0,0,1,0,0,250,250,0,,,,,,,,,,,,,,,,
30644,1625577030455,1,2,45,45,35,32,-26,0.05,-0.03,1.5,0,-1,-1,0.06,0,68,5051,8,29,60,0.639,0.0,572,4.83,13.9,0.0,1,33.6,1.69,6.6,0,0,0,1,0,0,250,250,0,52.957394,6.522727,0.0,26.0,10,2,1.4,0,0.0,-1,0.0,0.0,0.0,0,0.0,0.5107
30664,1625577030475,,,,,,,,-0.05,-0.04,1.37,0,4,4,0.06,,68,5032,8,29,60,0.637,0.0,582,4.77,13.9,0.0,1,33.6,1.7,6.6,0,0,0,1,0,0,250,250,0,,,,,,,,,,,,,,,,
30684,1625577030497,,,,,,,,0.03,0.03,1.59,0,-3,-2,0.04,,68,5082,8,29,60,0.635,0.0,574,4.85,13.9,0.0,1,33.6,2.8,6.6,0,0,0,1,0,0,250,250,0,,,,,,,,,,,,,,,,
30704,1625577030517,,,,,,,,0.01,-0.04,1.46,0,-1,1,0.05,,68,5081,8,29,60,0.634,0.0,576,4.82,13.9,0.0,1,33.6,1.67,6.6,0,0,0,1,0,0,250,250,0,,,,,,,,,,,,,,,,
30724,1625577030537,,,,,,,,-0.05,-0.04,1.67,0,1,2,0.07,,68,5013,8,29,60,0.632,0.0,591,4.77,13.7,0.0,1,33.6,1.72,6.6,0,0,0,1,0,0,250,250,0,,,,,,,,,,,,,,,,
30744,1625577030557,3,1,45,46,34,32,-25,0.05,-0.03,1.86,0,-6,-3,0.06,0,68,5067,8,29,60,0.629,0.0,578,4.83,14.0,0.0,1,33.6,2.81,6.6,0,0,0,1,0,0,250,250,0,52.957394,6.522727,0.0,26.0,10,2,1.4,0,0.0,-1,0.0,,0.0,0,0.0,0.5124
30764,1625577030577,,,,,,,,-0.01,-0.05,1.71,1,-1,2,0.05,,68,5049,8,29,60,0.627,0.0,579,4.77,13.9,0.0,1,33.6,1.69,6.5,0,0,0,1,0,0,250,250,0,,,,,,,,,,,,,,,,
30784,1625577030597,,,,,,,,-0.04,-0.02,1.9,1,-2,0,0.05,,68,5037,8,29,60,0.625,0.0,582,4.78,13.8,0.0,1,33.6,2.83,6.5,0,0,0,1,0,0,250,250,0,,,,,,,,,,,,,,,,
30804,1625577030617,,,,,,,,0.05,-0.06,1.74,1,-6,-3,0.08,,68,5033,8,29,60,0.622,0.0,573,4.86,14.0,0.0,1,33.6,2.83,6.5,0,0,0,1,0,0,250,250,0,,,,,,,,,,,,,,,,
30824,1625577030637,,,,,,,,-0.01,-0.07,1.59,1,-0,3,0.07,,68,4993,8,29,60,0.621,0.0,567,4.8,14.0,0.0,1,33.5,2.84,6.5,0,0,0,1,0,0,250,250,0,,,,,,,,,,,,,,,,
30844,1625577030657,2,2,45,47,35,32,-25,-0.03,-0.03,1.79,1,-3,0,0.05,0,68,4962,8,29,60,0.618,0.0,587,4.77,13.9,0.0,1,33.1,2.83,6.5,0,0,0,1,0,0,250,250,0,52.957394,6.522727,0.0,26.0,10,2,1.4,0,0.0,-1,0.0,0.0,0.0,0,0.0,0.5141
30864,1625577030677,,,,,,,,0.04,-0.06,1.73,0,-5,-3,0.07,,68,4978,8,29,60,0.614,0.0,575,4.87,13.9,0.0,1,33.3,2.84,6.5,0,0,0,1,0,0,250,250,0,,,,,,,,,,,,,,,,
30884,1625577030697,,,,,,,,0.01,-0.07,1.58,1,-1,3,0.07,,68,4976,8,29,60,0.61,0.0,567,4.83,13.9,0.0,1,33.3,2.84,6.5,0,0,0,1,0,0,250,250,0,,,,,,,,,,,,,,,,
30904,1625577030717,,,,,,,,-0.04,-0.04,1.78,0,-1,1,0.05,,68,4942,8,29,60,0.607,0.0,580,4.8,13.8,0.0,1,32.8,2.82,6.5,0,0,0,1,0,0,250,250,0,,,,,,,,,,,,,,,,
30924,1625577030737,,,,,,,,0.03,-0.03,1.97,0,-5,-3,0.04,,68,4942,8,29,60,0.611,0.0,571,4.83,13.9,0.0,1,32.8,2.82,6.5,0,0,0,1,0,0,250,250,0,,,,,,,,,,,,,,,,
30944,1625577030757,3,0,45,45,35,33,-26,0.03,-0.06,1.8,0,-1,1,0.07,0,68,4955,8,29,61,0.635,0.0,565,4.78,14.0,0.0,1,33.4,1.68,6.5,0,0,0,1,0,0,250,250,0,52.957394,6.522727,0.0,26.0,10,2,1.4,0,0.0,-1,0.0,,0.0,0,0.0,0.5157
30964,1625577030777,,,,,,,,-0.04,-0.06,1.99,0,1,2,0.07,,68,4932,8,29,60,0.658,0.0,578,4.77,13.7,0.0,1,32.7,1.69,6.4,0,0,0,1,0,0,250,250,0,,,,,,,,,,,,,,,,
30984,1625577030797,,,,,,,,-0.02,0.02,2.15,0,-3,-2,0.02,,69,4929,8,29,60,0.683,0.0,567,4.85,13.9,0.0,1,32.7,2.81,6.4,0,0,0,1,0,0,250,250,0,,,,,,,,,,,,,,,,
31004,1625577030817,,,,,,,,0.03,-0.05,1.97,0,-3,-2,0.06,,69,4914,8,29,61,0.707,0.0,564,4.82,14.0,0.0,1,32.8,2.8,6.4,0,0,0,1,0,0,250,250,0,,,,,,,,,,,,,,,,
31024,1625577030837,,,,,,,,-0.0,-0.06,1.81,0,1,2,0.06,,69,4898,8,29,61,0.729,0.0,569,4.82,14.0,0.0,1,32.6,2.79,6.4,0,0,0,1,0,0,250,250,0,,,,,,,,,,,,,,,,
31044,1625577030857,2,2,44,47,35,32,-26,-0.05,-0.05,1.99,0,0,1,0.07,0,69,4882,8,29,61,0.754,0.0,563,4.76,13.8,0.0,1,32.4,2.78,6.4,0,0,0,1,0,0,250,250,0,52.957394,6.522727,0.0,26.0,10,2,1.4,0,0.0,-1,0.0,0.0,0.0,0,0.0,0.5174
31064,1625577030877,,,,,,,,-0.04,-0.0,2.16,0,-3,-2,0.04,,69,4854,8,29,60,0.778,0.0,555,4.85,13.9,0.0,1,31.7,2.78,6.2,0,0,0,1,0,0,250,250,0,,,,,,,,,,,,,,,,
31084,1625577030895,,,,,,,,0.02,-0.06,1.98,0,-1,-1,0.06,,69,4905,8,29,61,0.802,0.0,557,4.8,14.0,0.0,1,32.7,2.79,6.2,0,0,0,1,0,0,250,250,0,,,,,,,,,,,,,,,,
31104,1625577030915,,,,,,,,-0.0,-0.06,1.81,0,2,3,0.06,,69,4860,8,29,61,0.828,0.0,554,4.8,14.0,0.0,1,32.1,2.77,6.2,0,0,0,1,0,0,250,250,0,,,,,,,,,,,,,,,,
31124,1625577030935,,,,,,,,-0.07,-0.04,1.99,0,1,1,0.08,,69,4852,8,29,61,0.858,0.0,568,4.81,13.6,0.0,1,32.0,2.77,6.2,0,0,0,1,0,0,250,250,0,,,,,,,,,,,,,,,,
31144,1625577030955,2,3,45,46,35,32,-26,-0.06,-0.0,2.16,0,-2,-2,0.06,0,69,4827,8,29,61,0.889,0.0,560,4.8,13.8,0.0,1,31.7,2.76,6.2,0,0,0,1,0,0,250,250,0,52.957394,6.522727,0.0,26.0,10,2,1.4,0,0.0,-1,0.0,,0.0,0,0.0,0.5191
31164,1625577030975,,,,,,,,0.0,-0.03,1.98,0,-2,-2,0.03,,69,4826,8,29,61,0.921,0.0,541,4.85,14.0,0.0,1,31.7,2.76,6.1,0,0,0,1,0,0,250,250,0,,,,,,,,,,,,,,,,
31184,1625577030995,,,,,,,,0.02,-0.04,1.81,0,1,1,0.05,,69,4854,8,29,61,0.933,0.0,551,4.8,14.0,0.0,1,32.0,1.64,6.1,0,0,0,1,0,0,250,250,0,,,,,,,,,,,,,,,,
31204,1625577031007,,,,,,,,-0.01,-0.05,1.82,0,1,3,0.05,,69,4800,8,29,61,0.937,0.0,545,4.78,13.8,0.0,1,31.3,1.62,6.1,0,0,0,1,0,0,250,250,0,,,,,,,,,,,,,,,,
31224,1625577031027,,,,,,,,-0.07,-0.01,2.01,0,-1,0,0.07,,69,4832,8,29,61,0.942,0.0,556,4.78,13.7,0.0,1,31.7,2.76,6.1,0,0,0,1,0,0,250,250,0,,,,,,,,,,,,,,,,
31244,1625577031047,2,1,45,46,35,32,-26,-0.04,-0.0,2.17,0,-3,-2,0.04,0,69,4839,8,29,61,0.946,0.0,563,4.82,13.8,0.0,1,31.8,2.77,6.1,0,0,0,1,0,0,250,250,0,52.957394,6.522727,0.0,26.0,10,2,1.4,0,0.0,-1,0.0,0.0,0.0,0,0.0,0.5207
31264,1625577031067,,,,,,,,0.02,-0.04,1.99,0,-2,-1,0.05,,69,4805,8,29,61,0.951,0.0,542,4.82,14.0,0.0,1,31.4,2.75,6.1,0,0,0,1,0,0,250,250,0,,,,,,,,,,,,,,,,
31284,1625577031095,,,,,,,,0.05,-0.06,1.82,0,0,2,0.08,,69,4786,8,29,61,0.956,0.0,546,4.8,13.9,0.0,1,31.1,1.62,6.1,0,0,0,1,0,0,250,250,0,,,,,,,,,,,,,,,,
31304,1625577031115,,,,,,,,0.03,-0.06,1.68,0,0,3,0.07,,69,4691,8,29,61,0.961,0.0,546,4.8,13.8,0.0,1,29.8,1.58,6.1,0,0,0,1,0,0,250,250,0,,,,,,,,,,,,,,,,
31324,1625577031135,,,,,,,,-0.05,-0.04,1.81,0,1,2,0.06,,69,4726,8,29,61,0.967,0.0,534,4.79,13.8,0.0,1,30.4,1.59,6.1,0,0,0,1,0,0,250,250,0,,,,,,,,,,,,,,,,
31344,1625577031155,2,1,45,46,35,32,-27,-0.1,-0.02,1.99,0,-1,-0,0.1,0,69,4700,8,29,61,0.972,0.0,549,4.81,13.7,0.0,1,30.0,2.71,6.1,0,0,0,1,0,0,250,250,0,52.957394,6.522727,0.0,26.0,10,2,1.4,0,0.0,-1,0.0,,0.0,0,0.0,0.5224
31364,1625577031175,,,,,,,,-0.1,0.01,2.16,0,-2,-1,0.1,,69,4720,8,29,61,0.971,0.0,542,4.84,13.9,0.0,1,30.3,2.72,5.9,0,0,0,1,0,0,250,250,0,,,,,,,,,,,,,,,,
31384,1625577031195,,,,,,,,-0.04,0.01,2.17,0,-3,-2,0.05,,69,4671,8,29,61,0.971,0.0,532,4.81,14.0,0.0,1,29.6,2.7,5.9,0,0,0,1,0,0,250,250,0,,,,,,,,,,,,,,,,
31404,1625577031215,,,,,,,,0.03,-0.01,1.99,0,-3,-3,0.03,,69,4619,8,29,61,0.97,0.0,533,4.8,13.9,0.0,1,29.0,2.68,5.9,0,0,0,1,0,0,250,250,0,,,,,,,,,,,,,,,,
31424,1625577031235,,,,,,,,0.11,-0.05,1.82,0,-3,-2,0.12,,69,4623,8,29,61,0.97,0.0,521,4.8,14.0,0.0,1,29.0,1.56,5.9,0,0,0,1,0,0,250,250,0,,,,,,,,,,,,,,,,
31444,1625577031255,2,1,45,45,35,32,-26,0.17,-0.07,1.67,0,-2,-1,0.18,0,69,4576,8,29,61,0.968,0.0,524,4.81,14.0,0.0,1,28.4,1.54,5.9,0,0,0,1,0,0,250,250,0,52.957394,6.522727,0.0,26.0,10,2,1.4,0,0.0,-1,0.0,0.0,0.0,0,0.0,0.5241
31464,1625577031275,,,,,,,,0.17,-0.08,1.53,0,-0,2,0.19,,69,4688,8,29,61,0.967,0.0,528,4.78,13.9,0.0,1,29.9,1.58,5.7,0,0,0,1,0,0,250,250,0,,,,,,,,,,,,,,,,
31484,1625577031294,,,,,,,,0.14,-0.06,1.4,0,1,3,0.16,,69,4671,8,29,60,0.966,0.0,535,4.78,13.8,0.0,1,29.2,1.56,5.7,0,0,0,1,0,0,250,250,0,,,,,,,,,,,,,,,,
31504,1625577031314,,,,,,,,0.05,-0.04,1.62,0,2,3,0.06,,69,4709,8,29,60,0.965,0.0,542,4.78,13.7,0.0,1,29.8,1.59,5.7,0,0,0,1,0,0,250,250,0,,,,,,,,,,,,,,,,
31524,1625577031334,,,,,,,,0.04,-0.01,1.82,0,-0,0,0.04,,69,4746,8,29,60,0.962,0.0,538,4.83,13.9,0.0,1,30.3,2.74,5.7,0,0,0,1,0,0,250,250,0,,,,,,,,,,,,,,,,
31544,1625577031354,2,3,44,47,35,32,-25,0.1,-0.03,1.67,0,-2,-1,0.11,0,69,4713,8,29,60,0.961,0.0,538,4.86,13.9,0.0,1,29.9,2.72,5.7,0,0,0,1,0,0,250,250,0,52.957394,6.522727,0.0,26.0,10,2,1.4,0,0.0,-1,0.0,,0.0,0,0.0,0.5257
31564,1625577031374,,,,,,,,0.16,-0.05,1.53,0,-2,-1,0.17,,69,4695,8,29,60,0.959,0.0,529,4.81,14.0,0.0,1,29.7,2.71,5.9,0,0,0,1,0,0,250,250,0,,,,,,,,,,,,,,,,
31584,1625577031396,,,,,,,,0.2,-0.08,1.4,0,-2,-1,0.22,,69,4639,8,29,60,0.957,0.0,517,4.85,14.0,0.0,1,28.9,1.55,5.9,0,0,0,1,0,0,250,250,0,,,,,,,,,,,,,,,,
31604,1625577031416,,,,,,,,0.22,-0.09,1.29,0,-1,-0,0.23,,69,4577,8,29,60,0.955,0.0,524,4.82,14.0,0.0,1,28.1,1.53,5.9,0,0,0,1,0,0,250,250,0,,,,,,,,,,,,,,,,
31624,1625577031436,,,,,,,,0.18,-0.07,1.18,0,0,2,0.2,,69,4660,8,29,60,0.953,0.0,512,4.83,14.0,0.0,1,29.2,1.56,5.9,0,0,0,1,0,0,250,250,0,,,,,,,,,,,,,,,,
31644,1625577031456,1,2,45,47,34,32,-26,0.11,-0.07,1.12,0,2,4,0.13,0,69,4678,8,29,60,0.951,0.0,521,4.81,14.0,0.0,1,29.4,2.7,5.9,0,0,0,1,0,0,250,250,0,52.957394,6.522727,0.0,26.0,10,2,1.4,0,0.0,-1,0.0,0.0,0.0,0,0.0,0.5274
31664,1625577031476,,,,,,,,0.02,-0.05,1.36,0,3,4,0.06,,69,4720,8,29,60,0.948,0.0,545,4.83,13.7,0.0,1,30.0,1.59,5.8,0,0,0,1,0,0,250,250,0,,,,,,,,,,,,,,,,
31684,1625577031496,,,,,,,,-0.02,-0.01,1.58,0,1,2,0.03,,69,4738,8,29,60,0.944,0.0,538,4.84,13.9,0.0,1,30.2,2.74,5.8,0,0,0,1,0,0,250,250,0,,,,,,,,,,,,,,,,
31704,1625577031516,,,,,,,,0.02,-0.0,1.67,0,-0,0,0.02,,69,4738,8,29,60,0.94,0.0,548,4.81,13.9,0.0,1,30.2,2.74,5.8,0,0,0,1,0,0,250,250,0,,,,,,,,,,,,,,,,
31724,1625577031536,,,,,,,,0.09,-0.05,1.53,0,-1,-0,0.1,,69,4785,8,29,60,0.936,0.0,534,4.8,14.0,0.0,1,30.8,2.76,5.8,0,0,0,1,0,0,250,250,0,,,,,,,,,,,,,,,,
31744,1625577031556,1,3,45,44,35,32,-26,0.12,-0.08,1.4,0,0,1,0.14,0,69,4722,8,29,60,0.933,0.0,535,4.78,14.0,0.0,1,30.0,2.72,5.8,0,0,0,1,0,0,250,250,0,52.957394,6.522727,0.0,26.0,10,2,1.5,0,0.0,-1,0.0,,0.0,0,0.0,0.5291
31764,1625577031576,,,,,,,,0.1,-0.07,1.29,0,1,3,0.12,,69,4687,8,29,60,0.932,0.0,541,4.8,13.9,0.0,1,29.5,2.7,5.8,0,0,0,1,0,0,250,250,0,,,,,,,,,,,,,,,,
31784,1625577031596,,,,,,,,0.02,-0.03,1.35,0,2,4,0.04,,69,4676,8,29,60,0.931,0.0,524,4.84,14.0,0.0,1,29.4,2.7,5.8,0,0,0,1,0,0,250,250,0,,,,,,,,,,,,,,,,
31804,1625577031616,,,,,,,,-0.06,-0.02,1.57,0,2,4,0.06,,69,4715,8,29,60,0.93,0.0,533,4.83,13.7,0.0,1,29.9,1.59,5.8,0,0,0,1,0,0,250,250,0,,,,,,,,,,,,,,,,
31824,1625577031636,,,,,,,,-0.09,0.01,1.78,0,0,1,0.09,,69,4742,8,29,60,0.928,0.0,546,4.79,13.7,0.0,1,30.3,2.74,5.8,0,0,0,1,0,0,250,250,0,,,,,,,,,,,,,,,,
31844,1625577031656,2,1,45,46,35,32,-26,-0.05,0.01,1.88,0,-1,-0,0.05,0,69,4715,8,29,60,0.927,0.0,533,4.81,14.0,0.0,1,29.9,2.72,5.8,0,0,0,1,0,0,250,250,0,52.957394,6.522727,0.0,26.0,10,2,1.5,0,0.0,-1,0.0,0.0,0.0,0,0.0,0.5307
31864,1625577031676,,,,,,,,0.03,-0.04,1.73,0,-1,-1,0.05,,69,4758,8,29,60,0.927,0.0,548,4.81,14.0,0.0,1,30.5,2.75,5.9,0,0,0,1,0,0,250,250,0,,,,,,,,,,,,,,,,
31884,1625577031696,,,,,,,,0.07,-0.07,1.58,0,-1,0,0.1,,69,4706,8,29,60,0.927,0.0,536,4.78,14.0,0.0,1,29.8,2.71,5.9,0,0,0,1,0,0,250,250,0,,,,,,,,,,,,,,,,
31904,1625577031716,,,,,,,,0.04,-0.06,1.45,0,1,2,0.07,,69,4750,8,29,60,0.927,0.0,537,4.81,13.9,0.0,1,30.4,1.61,5.9,0,0,0,1,0,0,250,250,0,,,,,,,,,,,,,,,,
31924,1625577031736,,,,,,,,-0.02,-0.05,1.66,0,1,3,0.05,,69,4748,8,29,60,0.93,0.0,554,4.82,13.9,0.0,1,30.3,1.61,5.9,0,0,0,1,0,0,250,250,0,,,,,,,,,,,,,,,,
31944,1625577031756,1,3,45,46,35,32,-26,-0.08,-0.01,1.86,0,1,2,0.08,0,69,4692,8,29,60,0.935,0.0,538,4.8,13.9,0.0,1,29.6,2.7,5.9,0,0,0,1,0,0,250,250,0,52.957394,6.522727,0.0,26.0,10,2,1.5,0,0.0,-1,0.0,,0.0,0,0.0,0.5324
31964,1625577031776,,,,,,,,-0.1,0.02,2.03,0,-1,-1,0.1,,69,4691,8,29,60,0.94,0.0,545,4.88,14.0,0.0,1,29.6,1.57,5.9,0,0,0,1,0,0,250,250,0,,,,,,,,,,,,,,,,
31984,1625577031796,,,,,,,,-0.08,0.01,2.07,0,-1,-1,0.08,,69,4548,8,29,60,0.944,0.0,531,4.88,13.9,0.0,1,27.7,2.65,5.9,0,0,0,1,0,0,250,250,0,,,,,,,,,,,,,,,,
32004,1625577031816,,,,,,,,0.09,0.05,2.23,-0,-1,-2,0.1,,69,4408,8,29,60,0.948,0.0,516,4.84,13.9,0.0,1,25.9,2.59,5.9,0,0,0,1,0,0,250,250,0,,,,,,,,,,,,,,,,
32024,1625577031836,,,,,,,,0.06,0.02,2.3,-0,-2,-3,0.07,,69,4249,8,29,61,0.95,0.0,515,4.85,14.0,0.0,1,24.1,1.42,5.9,0,0,0,1,0,0,250,250,0,,,,,,,,,,,,,,,,
32044,1625577031856,2,3,46,48,34,32,-27,-0.02,0.04,2.44,-0,1,-2,0.05,0,69,4145,8,29,61,0.951,0.0,469,4.84,13.9,0.0,1,22.7,1.39,5.9,0,0,0,1,0,0,250,250,0,52.957394,6.522727,0.0,26.0,10,2,1.5,0,0.0,-1,0.0,0.0,0.0,0,0.0,0.5341
32064,1625577031876,,,,,,,,-0.1,0.07,2.24,-0,4,-1,0.13,,69,4368,8,29,61,0.953,0.0,473,4.83,14.0,0.0,1,25.7,1.46,5.0,0,0,0,1,0,0,250,250,0,,,,,,,,,,,,,,,,
32084,1625577031896,,,,,,,,-0.07,0.06,2.05,-0,4,1,0.1,,69,4461,8,29,61,0.955,0.0,481,4.85,14.0,0.0,1,26.9,1.5,5.0,0,0,0,1,0,0,250,250,0,,,,,,,,,,,,,,,,
32104,1625577031916,,,,,,,,0.1,0.04,1.88,0,5,2,0.11,,69,4496,8,29,61,0.956,0.0,489,4.81,14.0,0.0,1,27.3,2.64,5.0,0,0,0,1,0,0,250,250,0,,,,,,,,,,,,,,,,
32124,1625577031936,,,,,,,,0.05,0.02,1.72,0,6,4,0.06,,69,4626,8,29,61,0.957,0.0,511,4.81,13.9,0.0,1,29.1,1.56,5.0,0,0,0,1,0,0,250,250,0,,,,,,,,,,,,,,,,
32144,1625577031956,3,1,46,47,34,33,-28,-0.01,0.03,1.86,0,6,5,0.04,0,69,4620,8,29,61,0.956,0.0,514,4.81,13.9,0.0,1,29.2,1.56,5.0,0,0,0,1,0,0,250,250,0,52.957394,6.522727,0.0,26.0,10,2,1.5,0,0.0,-1,0.0,,0.0,0,0.0,0.5357
32164,1625577031976,,,,,,,,-0.08,0.08,2.04,-0,5,4,0.11,,69,4764,8,29,61,0.958,0.0,538,4.8,13.9,0.0,1,30.9,1.61,5.8,0,0,0,1,0,0,250,250,0,,,,,,,,,,,,,,,,
32184,1625577031996,,,,,,,,-0.06,0.14,2.2,-0,3,2,0.15,,69,4808,8,29,60,0.962,0.0,544,4.8,13.9,0.0,1,31.1,2.75,5.8,0,0,0,1,0,0,250,250,0,,,,,,,,,,,,,,,,
32204,1625577032006,,,,,,,,0.03,0.08,2.02,0,0,0,0.09,,69,4856,8,29,61,0.965,0.0,542,4.8,14.0,0.0,1,32.1,2.77,5.8,0,0,0,1,0,0,250,250,0,,,,,,,,,,,,,,,,
32224,1625577032026,,,,,,,,0.01,0.03,1.85,0,3,3,0.04,,69,4875,8,29,61,0.968,0.0,552,4.73,14.1,0.0,1,32.3,1.65,5.8,0,0,0,1,0,0,250,250,0,,,,,,,,,,,,,,,,
32244,1625577032046,2,3,45,47,35,33,-27,-0.04,0.05,2.03,0,4,4,0.06,0,69,4881,8,29,62,0.977,0.0,548,4.8,13.7,0.0,1,32.6,2.83,5.8,0,0,0,1,0,0,250,250,0,52.957394,6.522727,0.0,26.0,10,2,1.4,0,0.0,-1,0.0,0.0,0.0,0,0.0,0.5374
32264,1625577032066,,,,,,,,-0.05,0.08,2.19,-0,1,1,0.09,,69,4894,8,29,62,0.989,0.0,559,4.83,13.9,0.0,1,32.9,2.84,6.4,0,0,0,1,0,0,250,250,0,,,,,,,,,,,,,,,,
32284,1625577032096,,,,,,,,0.02,0.05,2.01,-0,0,-1,0.05,,69,4945,8,29,62,1.003,0.0,565,4.85,14.0,0.0,1,33.5,2.85,6.4,0,0,0,1,0,0,250,250,0,,,,,,,,,,,,,,,,
32304,1625577032116,,,,,,,,-0.06,0.02,1.84,0,5,4,0.07,,69,4965,9,29,62,1.017,0.0,560,4.8,14.0,0.0,1,33.8,2.86,6.4,0,0,0,1,0,0,250,250,0,,,,,,,,,,,,,,,,
32324,1625577032136,,,,,,,,-0.08,0.03,2.02,0,3,2,0.09,,69,4994,8,29,62,1.024,0.0,568,4.77,13.8,0.0,1,34.2,2.87,6.4,0,0,0,1,0,0,250,250,0,,,,,,,,,,,,,,,,
32344,1625577032156,3,3,45,47,35,33,-26,0.0,-0.02,1.85,0,0,-0,0.02,0,69,5070,8,29,62,1.03,0.0,571,4.83,14.0,0.0,1,34.3,2.85,6.4,0,0,0,1,0,0,250,250,0,52.957394,6.522727,0.0,26.0,10,2,1.4,0,0.0,-1,0.0,,0.0,0,0.0,0.5391
32364,1625577032176,,,,,,,,-0.11,-0.03,1.7,0,6,6,0.12,,69,5156,8,29,62,1.036,0.0,580,4.75,13.8,0.0,1,34.3,1.67,6.6,0,0,0,1,0,0,250,250,0,,,,,,,,,,,,,,,,
32384,1625577032196,,,,,,,,0.01,0.04,1.89,0,-3,-1,0.04,,69,5205,8,29,62,1.044,0.0,584,4.89,14.0,0.0,1,34.3,2.77,6.6,0,0,0,1,0,0,250,250,0,,,,,,,,,,,,,,,,
32404,1625577032216,,,,,,,,-0.12,0.03,1.73,0,4,7,0.13,,69,5302,8,29,62,1.047,0.0,612,4.75,13.8,0.0,1,34.2,1.59,6.6,0,0,0,1,0,0,250,250,0,,,,,,,,,,,,,,,,
32424,1625577032236,,,,,,,,0.03,0.06,1.92,0,-7,-2,0.07,,69,5381,8,29,62,1.044,0.0,603,4.8,13.9,0.0,1,34.2,1.55,6.6,0,0,0,1,0,0,250,250,0,,,,,,,,,,,,,,,,
32444,1625577032256,2,2,45,47,35,33,-26,-0.07,0.04,1.76,0,1,3,0.08,0,69,5468,8,29,62,1.041,0.0,620,4.76,13.8,0.0,1,34.2,2.64,6.6,0,0,0,1,0,0,250,250,0,52.957394,6.522727,0.0,26.0,10,2,1.4,0,0.0,-1,0.0,0.0,0.0,0,0.0,0.5407
32464,1625577032276,,,,,,,,-0.1,0.02,1.61,0,1,3,0.1,,69,5498,8,29,62,1.04,0.0,623,4.82,13.9,0.0,1,34.2,1.5,6.6,0,0,0,1,0,0,250,250,0,,,,,,,,,,,,,,,,
32484,1625577032295,,,,,,,,0.02,0.08,1.81,0,-6,-2,0.08,,69,5527,8,29,61,1.036,0.0,620,4.78,13.9,0.0,1,34.0,2.5,6.6,0,0,0,1,0,0,250,250,0,,,,,,,,,,,,,,,,
32504,1625577032315,,,,,,,,-0.04,0.04,1.66,0,-1,2,0.06,,69,5592,8,29,61,1.023,0.0,624,4.75,13.7,0.0,1,34.0,2.46,6.6,0,0,0,1,0,0,250,250,0,,,,,,,,,,,,,,,,
32524,1625577032335,,,,,,,,-0.15,0.01,1.52,0,4,5,0.15,,69,5623,8,29,61,1.011,0.0,625,4.81,13.8,0.0,1,34.0,1.29,6.6,0,0,0,1,0,0,250,250,0,,,,,,,,,,,,,,,,
32544,1625577032355,2,1,45,47,34,33,-26,-0.09,0.03,1.43,-0,1,1,0.1,0,69,5664,8,29,61,0.999,0.0,621,4.85,14.0,0.0,1,34.0,1.28,6.6,0,0,0,1,0,0,250,250,0,52.957394,6.522727,0.0,26.0,10,2,1.4,0,0.0,-1,0.0,,0.0,0,0.0,0.5424
32564,1625577032375,,,,,,,,0.03,0.05,1.65,-0,-5,-3,0.06,,69,5695,8,29,60,0.987,0.0,629,4.83,14.0,0.0,1,33.7,2.4,6.3,0,0,0,1,0,0,250,250,0,,,,,,,,,,,,,,,,
32584,1625577032395,,,,,,,,0.07,0.02,1.84,-0,-4,-3,0.07,,69,5719,8,29,60,0.982,0.0,631,4.77,13.7,0.0,1,33.7,2.39,6.3,0,0,0,1,0,0,250,250,0,,,,,,,,,,,,,,,,
32604,1625577032415,,,,,,,,0.01,-0.02,1.69,0,1,2,0.02,,69,5790,8,29,60,0.975,0.0,634,4.77,13.8,0.0,1,33.7,2.34,6.3,0,0,0,1,0,0,250,250,0,,,,,,,,,,,,,,,,
32624,1625577032435,,,,,,,,-0.11,-0.04,1.55,0,6,5,0.12,,69,5841,8,29,60,0.968,0.0,630,4.81,13.8,0.0,1,33.7,1.18,6.3,0,0,0,1,0,0,250,250,0,,,,,,,,,,,,,,,,
32644,1625577032455,1,3,45,47,34,33,-27,-0.21,-0.06,1.42,0,9,7,0.22,0,69,5890,8,29,59,0.962,0.0,633,4.81,13.8,0.0,1,33.5,1.16,6.3,0,0,0,1,0,0,250,250,0,52.957394,6.522727,0.0,26.0,10,2,1.4,0,0.0,-1,0.0,0.0,0.0,0,0.0,0.5441
32664,1625577032475,,,,,,,,-0.27,-0.07,1.3,0,10,8,0.28,,69,5920,8,29,59,0.959,0.0,631,4.81,13.8,0.0,1,33.5,1.14,6.2,0,0,0,1,0,0,250,250,0,,,,,,,,,,,,,,,,
32684,1625577032495,,,,,,,,-0.33,-0.09,1.19,0,12,10,0.34,,69,5990,8,29,59,0.956,0.0,633,4.82,13.8,0.0,1,33.5,1.09,6.2,0,0,0,1,0,0,250,250,0,,,,,,,,,,,,,,,,
32704,1625577032515,,,,,,,,-0.39,-0.09,1.09,0,14,11,0.41,,69,6030,8,29,58,0.954,0.0,638,4.78,13.8,0.0,1,33.6,1.1,6.2,0,0,0,1,0,0,250,250,0,,,,,,,,,,,,,,,,
32724,1625577032535,,,,,,,,-0.47,-0.12,1.0,0,16,14,0.49,,69,6115,8,29,58,0.95,0.0,646,4.77,13.8,0.0,1,33.8,1.11,6.2,0,0,0,1,0,0,250,250,0,,,,,,,,,,,,,,,,
32744,1625577032555,-1,2,45,47,35,33,-26,-0.54,-0.17,0.92,0,19,17,0.57,0,69,6159,8,29,57,0.947,0.0,644,4.77,13.7,0.0,1,33.7,1.12,6.2,0,0,0,1,0,0,250,250,0,52.957394,6.522727,0.0,26.0,10,2,1.4,0,0.0,-1,0.0,,0.0,0,0.0,0.5457
32764,1625577032575,,,,,,,,-0.53,-0.23,0.84,0,21,19,0.58,,69,6208,8,29,56,0.944,0.0,645,4.71,13.8,0.0,1,33.6,2.25,6.4,0,0,0,1,0,0,250,250,0,,,,,,,,,,,,,,,,
32784,1625577032595,,,,,,,,-0.42,-0.25,1.1,0,19,18,0.49,,69,6315,9,29,55,0.942,0.0,649,4.76,13.7,0.0,1,33.8,2.26,6.4,0,0,0,1,0,0,250,250,0,,,,,,,,,,,,,,,,
32804,1625577032615,,,,,,,,-0.31,-0.21,1.34,0,14,14,0.37,,69,6377,9,29,54,0.939,0.0,641,4.86,14.0,0.0,1,33.8,1.12,6.4,0,0,0,1,0,0,250,250,0,,,,,,,,,,,,,,,,
32824,1625577032635,,,,,,,,-0.38,-0.17,1.23,0,15,14,0.41,,69,6414,9,29,53,0.939,0.0,643,4.88,14.0,0.0,1,33.6,2.26,6.4,0,0,0,1,0,0,250,250,0,,,,,,,,,,,,,,,,
32844,1625577032655,-1,2,45,47,34,33,-26,-0.35,-0.19,1.13,0,16,15,0.4,0,69,6533,9,29,52,0.939,0.0,655,4.81,13.8,0.0,1,33.7,2.26,6.4,0,0,0,1,0,0,250,250,0,52.957394,6.522727,0.0,26.0,10,2,1.4,0,0.0,-1,0.0,0.0,0.0,0,0.0,0.5474
32864,1625577032675,,,,,,,,-0.25,-0.19,1.37,0,12,11,0.31,,69,6569,9,29,51,0.94,0.0,653,4.78,13.9,0.0,1,33.5,1.14,6.9,0,0,0,1,0,0,250,250,0,,,,,,,,,,,,,,,,
32884,1625577032695,,,,,,,,-0.33,-0.11,1.25,0,13,12,0.34,,69,6703,9,29,50,0.941,0.0,651,4.78,13.8,0.0,1,33.6,2.27,6.9,0,0,0,1,0,0,250,250,0,,,,,,,,,,,,,,,,
32904,1625577032715,,,,,,,,-0.22,-0.16,1.48,0,9,9,0.27,,69,6813,9,29,49,0.938,0.0,653,4.8,14.0,0.0,1,33.5,2.25,6.9,0,0,0,1,0,0,250,250,0,,,,,,,,,,,,,,,,
32924,1625577032735,,,,,,,,-0.27,-0.1,1.36,0,11,10,0.29,,69,6913,9,29,49,0.935,0.0,651,4.81,13.8,0.0,1,33.8,2.24,6.9,0,0,0,1,0,0,250,250,0,,,,,,,,,,,,,,,,
32944,1625577032755,-1,2,45,47,35,32,-26,-0.26,-0.11,1.24,0,10,9,0.28,0,69,6980,9,29,48,0.931,0.0,650,4.87,13.9,0.0,1,33.6,1.11,6.9,0,0,0,1,0,0,250,250,0,52.957394,6.522727,0.0,26.0,10,2,1.4,0,0.0,-1,0.0,,0.0,0,0.0,0.5491
32964,1625577032775,,,,,,,,-0.15,-0.15,1.47,0,6,6,0.21,,69,7040,9,29,47,0.928,0.0,653,4.76,13.9,0.0,1,33.5,2.23,7.2,0,0,0,1,0,0,250,250,0,,,,,,,,,,,,,,,,
32984,1625577032795,,,,,,,,-0.22,-0.16,1.35,0,8,8,0.27,,69,7102,9,29,46,0.924,0.0,659,4.78,13.8,0.0,1,33.3,2.24,7.2,0,0,0,1,0,0,250,250,0,,,,,,,,,,,,,,,,
33004,1625577032815,,,,,,,,-0.25,-0.07,1.24,0,9,9,0.26,,69,7140,9,29,46,0.92,0.0,656,4.86,13.9,0.0,1,33.4,2.26,7.2,0,0,0,1,0,0,250,250,0,,,,,,,,,,,,,,,,
33024,1625577032835,,,,,,,,-0.18,-0.09,1.25,0,7,7,0.21,,69,7170,9,29,45,0.915,0.0,658,4.83,14.0,0.0,1,33.1,2.27,7.2,0,0,0,1,0,0,250,250,0,,,,,,,,,,,,,,,,
33044,1625577032855,-1,2,45,47,34,33,-26,-0.11,-0.1,1.48,0,4,4,0.15,0,69,7236,9,29,45,0.91,0.0,660,4.84,14.0,0.0,1,33.3,1.14,7.2,0,0,0,1,0,0,250,250,0,52.957394,6.522727,0.0,26.0,10,2,1.4,0,0.0,-1,0.0,0.0,0.0,0,0.0,0.5507
33064,1625577032875,,,,,,,,-0.07,-0.14,1.69,0,3,3,0.16,,69,7275,9,29,44,0.905,0.0,660,4.82,13.9,0.0,1,33.0,2.28,7.6,0,0,0,1,0,0,250,250,0,,,,,,,,,,,,,,,,
33084,1625577032895,,,,,,,,-0.09,-0.15,1.55,0,4,4,0.17,,69,7309,9,29,43,0.902,0.0,665,4.77,13.8,0.0,1,32.6,2.29,7.6,0,0,0,1,0,0,250,250,0,,,,,,,,,,,,,,,,
33104,1625577032915,,,,,,,,-0.13,-0.07,1.44,0,4,4,0.14,,69,7338,9,29,43,0.899,0.0,657,4.71,13.8,0.0,1,32.7,1.16,7.6,0,0,0,1,0,0,250,250,0,,,,,,,,,,,,,,,,
33124,1625577032935,,,,,,,,-0.17,-0.02,1.32,0,6,6,0.17,,69,7350,9,29,42,0.896,0.0,662,4.78,13.8,0.0,1,32.3,1.16,7.6,0,0,0,1,0,0,250,250,0,,,,,,,,,,,,,,,,
33144,1625577032955,1,3,45,47,35,33,-26,-0.2,-0.01,1.21,0,7,7,0.2,0,69,7355,9,29,42,0.896,0.0,657,4.85,13.8,0.0,1,32.3,1.16,7.6,0,0,0,1,0,0,250,250,0,52.957394,6.522727,0.0,26.0,10,2,1.4,0,0.0,-1,0.0,,0.0,0,0.0,0.5524
33164,1625577032975,,,,,,,,-0.19,0.04,1.17,0,6,6,0.19,,69,7338,9,29,42,0.897,0.0,660,4.89,13.9,0.0,1,32.2,2.29,7.8,0,0,0,1,0,0,250,250,0,,,,,,,,,,,,,,,,
33184,1625577032995,,,,,,,,-0.15,0.02,1.24,0,5,6,0.15,,69,7324,9,28,41,0.899,0.0,657,4.84,13.9,0.0,1,31.8,2.3,7.8,0,0,0,1,0,0,250,250,0,,,,,,,,,,,,,,,,
33204,1625577033005,,,,,,,,-0.08,-0.05,1.42,0,3,4,0.09,,69,7332,9,28,41,0.902,0.0,663,4.86,13.9,0.0,1,31.8,2.3,7.8,0,0,0,1,0,0,250,250,0,,,,,,,,,,,,,,,,
33224,1625577033025,,,,,,,,-0.02,-0.07,1.64,0,1,1,0.07,,69,7341,9,28,40,0.904,0.0,662,4.74,13.9,0.0,1,31.4,2.3,7.8,0,0,0,1,0,0,250,250,0,,,,,,,,,,,,,,,,
33244,1625577033045,-1,2,45,47,34,33,-26,0.01,-0.1,1.78,0,-0,0,0.11,0,69,7329,9,28,40,0.906,0.0,657,4.76,13.7,0.0,1,31.4,2.3,7.8,0,0,0,1,0,0,250,250,0,52.957394,6.522727,0.0,26.0,10,2,1.4,0,0.0,-1,0.0,0.0,0.0,0,0.0,0.5541
33264,1625577033065,,,,,,,,-0.04,-0.11,1.64,0,1,1,0.12,,69,7295,9,28,40,0.909,0.0,662,4.73,13.8,0.0,1,31.4,2.3,7.8,0,0,0,1,0,0,250,250,0,,,,,,,,,,,,,,,,
33284,1625577033095,,,,,,,,-0.09,-0.03,1.5,0,2,2,0.09,,69,7267,9,28,40,0.912,0.0,662,4.76,13.7,0.0,1,31.4,2.3,7.8,0,0,0,1,0,0,250,250,0,,,,,,,,,,,,,,,,
33304,1625577033115,,,,,,,,-0.1,-0.0,1.37,0,4,4,0.1,,69,7222,9,28,40,0.914,0.0,656,4.85,13.9,0.0,1,31.3,2.3,7.8,0,0,0,1,0,0,250,250,0,,,,,,,,,,,,,,,,
33324,1625577033135,,,,,,,,-0.06,-0.01,1.39,0,3,2,0.06,,69,7219,9,28,40,0.913,0.0,657,4.83,13.9,0.0,1,31.3,2.3,7.8,0,0,0,1,0,0,250,250,0,,,,,,,,,,,,,,,,
33344,1625577033155,-1,2,45,47,34,33,-26,0.01,-0.06,1.61,0,-0,0,0.06,0,69,7167,9,28,39,0.913,0.0,657,4.76,13.9,0.0,1,31.0,2.3,7.8,0,0,0,1,0,0,250,250,0,52.957394,6.522727,0.0,26.0,10,2,1.4,0,0.0,-1,0.0,,0.0,0,0.0,0.5557
33364,1625577033175,,,,,,,,-0.04,-0.08,1.47,0,1,1,0.09,,69,7131,9,28,40,0.913,0.0,658,4.87,13.8,0.0,1,31.3,2.3,7.6,0,0,0,1,0,0,250,250,0,,,,,,,,,,,,,,,,
33384,1625577033195,,,,,,,,-0.09,-0.05,1.35,0,3,3,0.1,,69,7056,9,28,40,0.912,0.0,648,4.86,13.9,0.0,1,31.3,2.3,7.6,0,0,0,1,0,0,250,250,0,,,,,,,,,,,,,,,,
33404,1625577033215,,,,,,,,-0.12,-0.04,1.24,0,1,2,0.12,,69,7035,9,28,40,0.91,0.0,653,4.87,13.9,0.0,1,31.3,1.17,7.6,0,0,0,1,0,0,250,250,0,,,,,,,,,,,,,,,,
33424,1625577033235,,,,,,,,-0.04,-0.05,1.47,0,1,1,0.07,,69,6949,8,28,39,0.908,0.0,653,4.79,13.9,0.0,1,30.9,2.3,7.6,0,0,0,1,0,0,250,250,0,,,,,,,,,,,,,,,,
33444,1625577033255,-1,3,45,47,34,33,-26,-0.11,-0.05,1.35,0,3,3,0.12,0,69,6947,8,28,40,0.906,0.0,651,4.85,13.9,0.0,1,31.1,2.3,7.6,0,0,0,1,0,0,250,250,0,52.957394,6.522727,0.0,26.0,10,2,1.4,0,0.0,-1,0.0,0.0,0.0,0,0.0,0.5574
33464,1625577033275,,,,,,,,-0.05,-0.0,1.44,0,-1,0,0.05,,69,6860,8,28,40,0.903,0.0,656,4.84,14.0,0.0,1,31.0,2.3,7.3,0,0,0,1,0,0,250,250,0,,,,,,,,,,,,,,,,
33484,1625577033296,,,,,,,,-0.03,-0.04,1.48,0,3,3,0.05,,69,6823,8,28,40,0.901,0.0,648,4.82,13.8,0.0,1,30.9,2.3,7.3,0,0,0,1,0,0,250,250,0,,,,,,,,,,,,,,,,
33504,1625577033316,,,,,,,,-0.04,0.01,1.36,0,-1,1,0.04,,69,6759,8,28,40,0.9,0.0,651,4.85,14.0,0.0,1,30.9,1.17,7.3,0,0,0,1,0,0,250,250,0,,,,,,,,,,,,,,,,
33524,1625577033336,,,,,,,,-0.0,-0.0,1.45,0,2,3,0.0,,69,6727,8,28,40,0.9,0.0,648,4.79,13.8,0.0,1,30.8,2.3,7.3,0,0,0,1,0,0,250,250,0,,,,,,,,,,,,,,,,
33544,1625577033356,1,0,45,47,34,33,-26,0.02,-0.01,1.33,0,-1,0,0.02,0,69,6696,8,28,40,0.898,0.0,648,4.85,14.0,0.0,1,30.8,1.17,7.3,0,0,0,1,0,0,250,250,0,52.957394,6.522727,0.0,26.0,10,2,1.4,0,0.0,-1,0.0,,0.0,0,0.0,0.5591
33564,1625577033376,,,,,,,,-0.02,-0.01,1.22,0,2,3,0.02,,69,6651,8,28,40,0.901,0.0,647,4.8,13.8,0.0,1,30.7,2.3,7.1,0,0,0,1,0,0,250,250,0,,,,,,,,,,,,,,,,
33584,1625577033396,,,,,,,,0.07,-0.01,1.45,0,-1,0,0.07,,69,6616,8,28,40,0.901,0.0,651,4.73,13.9,0.0,1,30.7,2.3,7.1,0,0,0,1,0,0,250,250,0,,,,,,,,,,,,,,,,
33604,1625577033416,,,,,,,,-0.06,-0.0,1.33,0,-1,-0,0.06,,69,6503,8,28,40,0.904,0.0,645,4.83,13.9,0.0,1,30.6,1.17,7.1,0,0,0,1,0,0,250,250,0,,,,,,,,,,,,,,,,
33624,1625577033436,,,,,,,,-0.04,-0.05,1.31,0,2,2,0.06,,69,6447,8,28,40,0.904,0.0,652,4.78,13.8,0.0,1,30.5,1.17,7.1,0,0,0,1,0,0,250,250,0,,,,,,,,,,,,,,,,
33644,1625577033456,0,3,45,47,34,33,-27,0.07,-0.05,1.54,0,0,1,0.09,0,69,6362,8,28,40,0.906,0.0,652,4.75,14.0,0.0,1,30.4,2.3,7.1,0,0,0,1,0,0,250,250,0,52.957394,6.522727,0.0,26.0,10,2,1.4,0,0.0,-1,0.0,0.0,0.0,0,0.0,0.5607
33664,1625577033476,,,,,,,,0.14,-0.01,1.74,0,-4,-2,0.14,,69,6231,8,28,40,0.908,0.0,638,4.84,14.0,0.0,1,30.2,2.3,6.7,0,0,0,1,0,0,250,250,0,,,,,,,,,,,,,,,,
33684,1625577033496,,,,,,,,0.16,0.04,1.73,0,-8,-6,0.17,,69,6079,8,28,41,0.911,0.0,636,4.81,14.0,0.0,1,30.1,2.3,6.7,0,0,0,1,0,0,250,250,0,,,,,,,,,,,,,,,,
33704,1625577033516,,,,,,,,0.22,0.07,1.86,0,-13,-10,0.23,,69,5933,8,28,42,0.915,0.0,630,4.83,14.0,0.0,1,30.1,1.21,6.7,0,0,0,1,0,0,250,250,0,,,,,,,,,,,,,,,,
33724,1625577033536,,,,,,,,0.32,0.09,2.04,0,-17,-13,0.33,,69,5756,8,28,43,0.917,0.0,638,4.79,13.9,0.0,1,30.0,2.42,6.7,0,0,0,1,0,0,250,250,0,,,,,,,,,,,,,,,,
33744,1625577033556,0,1,45,47,35,33,-27,0.31,0.07,2.2,0,-13,-10,0.32,0,69,5582,8,28,44,0.919,0.0,632,4.78,13.8,0.0,1,29.8,2.5,6.7,0,0,0,1,0,0,250,250,0,52.957394,6.522727,0.0,26.0,10,2,1.4,0,0.0,-1,0.0,,0.0,0,0.0,0.5624
33764,1625577033576,,,,,,,,0.16,0.01,2.02,0,-9,-7,0.16,,69,5487,8,28,45,0.92,0.0,613,4.84,14.0,0.0,1,29.8,2.55,6.4,0,0,0,1,0,0,250,250,0,,,,,,,,,,,,,,,,
33784,1625577033596,,,,,,,,0.28,0.04,2.18,0,-18,-13,0.28,,69,5352,8,28,46,0.923,0.0,621,4.85,14.0,0.0,1,29.8,2.63,6.4,0,0,0,1,0,0,250,250,0,,,,,,,,,,,,,,,,
33804,1625577033616,,,,,,,,0.14,0.05,2.0,0,-9,-4,0.15,,69,5205,8,28,48,0.923,0.0,612,4.8,13.9,0.0,1,30.1,2.73,6.4,0,0,0,1,0,0,250,250,0,,,,,,,,,,,,,,,,
33824,1625577033636,,,,,,,,0.25,0.06,2.17,0,-17,-10,0.26,,69,5099,8,28,49,0.926,0.0,593,4.9,14.0,0.0,1,30.3,2.79,6.4,0,0,0,1,0,0,250,250,0,,,,,,,,,,,,,,,,
33844,1625577033656,-1,2,45,47,35,33,-26,0.18,0.01,1.99,1,-11,-5,0.18,0,69,4973,8,28,50,0.926,0.0,581,4.8,14.0,0.0,1,30.1,2.84,6.4,0,0,0,1,0,0,250,250,0,52.957394,6.522727,0.0,26.0,10,2,1.4,0,0.0,-1,0.0,0.0,0.0,0,0.0,0.5641
33864,1625577033676,,,,,,,,0.11,0.04,2.15,0,-10,-4,0.11,,69,4894,8,28,50,0.927,0.0,571,4.81,13.9,0.0,1,29.2,2.79,6.4,0,0,0,1,0,0,250,250,0,,,,,,,,,,,,,,,,
33884,1625577033696,,,,,,,,0.12,0.07,2.31,0,-13,-7,0.14,,69,4836,8,28,51,0.932,0.0,563,4.76,13.8,0.0,1,28.8,2.77,6.4,0,0,0,1,0,0,250,250,0,,,,,,,,,,,,,,,,
33904,1625577033716,,,,,,,,0.17,0.03,2.11,0,-13,-7,0.17,,69,4812,8,28,52,0.937,0.0,557,4.8,14.0,0.0,1,28.8,2.76,6.4,0,0,0,1,0,0,250,250,0,,,,,,,,,,,,,,,,
33924,1625577033736,,,,,,,,0.19,0.0,1.94,0,-10,-5,0.19,,69,4727,8,28,53,0.941,0.0,546,4.8,14.0,0.0,1,28.0,2.71,6.4,0,0,0,1,0,0,250,250,0,,,,,,,,,,,,,,,,
33944,1625577033756,1,3,45,47,35,33,-26,0.18,0.01,1.78,0,-8,-3,0.18,0,69,4669,8,28,53,0.945,0.0,532,4.81,14.0,0.0,1,27.3,2.68,6.4,0,0,0,1,0,0,250,250,0,52.957394,6.522727,0.0,26.0,10,2,1.4,0,0.0,-1,0.0,,0.0,0,0.0,0.5657
33964,1625577033776,,,,,,,,0.12,0.02,1.63,0,-6,-1,0.12,,69,4658,8,28,54,0.951,0.0,538,4.81,14.1,0.0,1,27.5,2.68,5.8,0,0,0,1,0,0,250,250,0,,,,,,,,,,,,,,,,
33984,1625577033796,,,,,,,,0.05,0.01,1.83,0,-5,0,0.06,,69,4621,8,28,54,0.958,0.0,525,4.82,13.9,0.0,1,26.8,2.65,5.8,0,0,0,1,0,0,250,250,0,,,,,,,,,,,,,,,,
34004,1625577033816,,,,,,,,-0.02,-0.0,2.01,0,-5,-0,0.02,,69,4611,8,28,54,0.968,0.0,534,4.83,13.8,0.0,1,26.9,1.51,5.8,0,0,0,1,0,0,250,250,0,,,,,,,,,,,,,,,,
34024,1625577033836,,,,,,,,-0.08,-0.0,2.17,0,-5,-1,0.08,,69,4594,8,28,55,0.977,0.0,523,4.81,13.9,0.0,1,26.9,1.5,5.8,0,0,0,1,0,0,250,250,0,,,,,,,,,,,,,,,,
