"Interval"|"ms"|0|0|1,"Utc"|"ms"|0|0|1,"Brake_F"|"Bar"|0|2000|10,"Brake_R"|"Bar"|0|2000|10,"Height_RF"|"mm"|0|255|10,"Height_LF"|"mm"|0|255|10,"Height_LR"|"mm"|0|80|10,"Height_RR"|"mm"|0|255|10,"Steering"|"deg"|-100|100|10,"AccelX"|"G"|-3.0|3.0|50,"AccelY"|"G"|-3.0|3.0|50,"AccelZ"|"G"|-3.0|3.0|50,"Yaw"|"Deg/Sec"|-120|120|50,"Pitch"|"Deg/Sec"|-120|120|50,"Roll"|"Deg/Sec"|-120|120|50,"Gsum"|"G"|0.0|3.0|50,"Log_Button"|""|0.0|10.0|10,"WaterTemp"|"C"|0|150|50,"RPM"|"tr/min"|0|14000|50,"TPS"|"%"|0|100|50,"AirTemp"|"C"|0|150|50,"MAP"|"KPa"|0|100|50,"Lambda"|""|0.5|1.5|50,"SpeedDTA"|"kph"|0.0|250.0|50,"OilPress"|"KPa"|0|1500|50,"FuelPressur"|"Bar"|0.0|10.0|50,"Batterie"|"V"|0.0|20.0|50,"ConsoKm"|"L/100km"|0.0|200.0|50,"Gear"|""|0|6|50,"AdvIgnition"|"Deg"|-20.0|70.0|50,"Injection"|"ms"|0.0|10.0|50,"ConsoHr"|"L/Hr"|0.0|10000.0|50,"LC_But_Pres"|""|0|1|50,"LC_Active"|""|0|1|50,"TractionOn"|""|0|1|50,"TractionWet"|""|0|1|50,"FanOn"|""|0|1|50,"RD_Speed"|"km/h"|-30|250|50,"RUD_Speed"|"km/h"|-30|250|50,"LD_Speed"|"km/h"|-30|250|50,"LUD_Speed"|"km/h"|-30|250|50,"Latitude"|"Degrees"|-180.0|180.0|10,"Longitude"|"Degrees"|-180.0|180.0|10,"Speed"|"kph"|0.0|150.0|10,"Altitude"|"m"|0.0|4000.0|10,"GPSSats"|""|0|20|10,"GPSQual"|""|0|5|10,"GPSDOP"|""|0.0|20.0|10,"LapCount"|""|0|0|10,"LapTime"|"Min"|0.0|0.0|10,"Sector"|""|0|0|10,"SectorTime"|"Min"|0.0|0.0|10,"PredTime"|"Min"|0.0|0.0|5,"ElapsedTime"|"Min"|0.0|0.0|10,"CurrentLap"|""|0|0|10,"Distance"|"km"|0.0|0.0|10,"SessionTime"|"Min"|0.0|0.0|10
14064,1625562644110,,,,,,,,0.05,-0.03,1.67,0,1,0,0.06,,64,4711,7,25,57,0.584,0.0,565,4.85,13.3,0.0,1,29.0,1.59,6.0,0,0,0,1,0,0,250,250,0,,,,,,,,,,,,,,,,
14084,1625562644130,,,,,,,,0.04,-0.06,1.53,0,4,3,0.07,,64,4720,7,25,57,0.584,0.0,573,4.85,13.3,0.0,1,29.1,2.74,6.0,0,0,0,1,0,0,250,250,0,,,,,,,,,,,,,,,,
14104,1625562644150,,,,,,,,-0.02,-0.05,1.74,0,4,3,0.05,,64,4734,7,25,56,0.585,0.0,562,4.86,13.1,0.0,1,29.0,1.6,6.0,0,0,0,1,0,0,250,250,0,,,,,,,,,,,,,,,,
14124,1625562644170,,,,,,,,-0.04,-0.03,1.93,0,1,1,0.05,,64,4715,7,25,56,0.585,0.0,562,4.85,13.2,0.0,1,28.7,2.74,6.0,0,0,0,1,0,0,250,250,0,,,,,,,,,,,,,,,,
14144,1625562644190,3,3,43,47,34,33,1,0.0,0.0,2.1,0,-2,-2,0.0,1,64,4686,7,25,56,0.586,0.0,569,4.83,13.3,0.0,1,28.3,2.72,6.0,0,0,0,1,0,0,250,250,0,52.959976,6.522209,0.0,5.9,5,2,2.4,0,0.0,-1,0.0,,0.0,0,0.0,0.2357
14164,1625562644210,,,,,,,,0.06,0.01,1.92,0,-3,-4,0.06,,64,4661,7,25,56,0.586,0.0,551,4.81,13.4,0.0,1,28.0,2.7,6.0,0,0,0,1,0,0,250,250,0,,,,,,,,,,,,,,,,
14184,1625562644230,,,,,,,,0.12,0.02,1.88,0,-5,-5,0.12,,64,4726,7,25,57,0.586,0.0,563,4.86,13.4,0.0,1,29.2,2.75,6.0,0,0,0,1,0,0,250,250,0,,,,,,,,,,,,,,,,
14204,1625562644250,,,,,,,,0.11,0.0,1.72,0,-2,-2,0.11,,64,4721,7,25,56,0.586,0.0,566,4.84,13.3,0.0,1,28.8,1.59,6.0,0,0,0,1,0,0,250,250,0,,,,,,,,,,,,,,,,
14224,1625562644270,,,,,,,,0.04,0.01,1.58,0,1,1,0.04,,64,4744,7,25,56,0.586,0.0,565,4.84,13.3,0.0,1,29.1,1.61,6.0,0,0,0,1,0,0,250,250,0,,,,,,,,,,,,,,,,
14244,1625562644290,3,3,43,47,34,32,0,-0.01,0.03,1.78,0,1,1,0.03,0,64,4744,7,25,56,0.587,0.0,576,4.86,13.1,0.0,1,29.1,1.61,6.0,0,0,0,1,0,0,250,250,0,52.959976,6.522209,0.0,6.2,5,2,2.4,0,0.0,-1,0.0,0.0,0.0,0,0.0,0.2374
14264,1625562644310,,,,,,,,-0.04,0.04,1.96,0,-3,-2,0.05,,64,4692,7,25,56,0.587,0.0,563,4.85,13.3,0.0,1,28.4,2.72,6.0,0,0,0,1,0,0,250,250,0,,,,,,,,,,,,,,,,
14284,1625562644330,,,,,,,,0.02,0.06,2.13,0,-5,-4,0.06,,64,4746,7,25,56,0.587,0.0,561,4.86,13.3,0.0,1,29.1,2.76,6.0,0,0,0,1,0,0,250,250,0,,,,,,,,,,,,,,,,
14304,1625562644338,,,,,,,,0.09,0.06,1.95,0,-6,-5,0.1,,64,4711,7,25,56,0.587,0.0,571,4.83,13.4,0.0,1,28.7,2.74,6.0,0,0,0,1,0,0,250,250,0,,,,,,,,,,,,,,,,
14324,1625562644358,,,,,,,,0.12,0.01,1.79,0,-3,-3,0.12,,64,4707,7,25,56,0.586,0.0,559,4.87,13.3,0.0,1,28.6,1.58,5.9,0,0,0,1,0,0,250,250,0,,,,,,,,,,,,,,,,
14344,1625562644378,2,4,43,47,34,32,1,0.11,-0.0,1.64,0,-1,-0,0.11,0,64,4692,7,25,56,0.586,0.0,562,4.85,13.3,0.0,1,28.4,1.57,5.9,0,0,0,1,0,0,250,250,0,52.959976,6.522209,0.0,6.3,5,2,2.4,0,0.0,-1,0.0,,0.0,0,0.0,0.2391
14364,1625562644398,,,,,,,,0.06,0.02,1.5,0,1,2,0.06,,64,4651,7,25,56,0.585,0.0,553,4.85,13.2,0.0,1,27.9,1.54,5.9,0,0,0,1,0,0,250,250,0,,,,,,,,,,,,,,,,
14384,1625562644418,,,,,,,,-0.01,0.03,1.67,0,2,3,0.04,,64,4701,7,25,56,0.586,0.0,555,4.87,13.1,0.0,1,28.5,1.58,5.9,0,0,0,1,0,0,250,250,0,,,,,,,,,,,,,,,,
14404,1625562644447,,,,,,,,-0.06,0.04,1.87,0,-0,1,0.07,,64,4713,7,25,56,0.586,0.0,572,4.85,13.2,0.0,1,28.7,2.74,5.9,0,0,0,1,0,0,250,250,0,,,,,,,,,,,,,,,,
14424,1625562644467,,,,,,,,-0.03,0.07,2.04,0,-4,-2,0.08,,64,4751,7,25,56,0.586,0.0,559,4.86,13.2,0.0,1,29.2,2.77,5.9,0,0,0,1,0,0,250,250,0,,,,,,,,,,,,,,,,
14444,1625562644487,1,3,43,47,34,32,2,0.04,0.07,1.87,0,-5,-4,0.08,0,64,4789,7,25,56,0.586,0.0,566,4.84,13.4,0.0,1,29.7,2.79,5.9,0,0,0,1,0,0,250,250,0,52.959976,6.522209,0.0,6.4,5,2,2.4,0,0.0,-1,0.0,0.0,0.0,0,0.0,0.2407
14464,1625562644507,,,,,,,,0.08,0.01,1.72,0,-3,-2,0.09,,64,4745,7,25,56,0.586,0.0,575,4.86,13.4,0.0,1,29.1,1.61,5.9,0,0,0,1,0,0,250,250,0,,,,,,,,,,,,,,,,
14484,1625562644527,,,,,,,,0.07,-0.01,1.57,0,0,1,0.07,,64,4742,7,25,56,0.585,0.0,565,4.86,13.4,0.0,1,29.1,2.76,5.9,0,0,0,1,0,0,250,250,0,,,,,,,,,,,,,,,,
14504,1625562644547,,,,,,,,-0.0,0.01,1.44,0,2,3,0.01,,64,4728,7,25,56,0.586,0.0,577,4.85,13.1,0.0,1,28.9,2.75,5.9,0,0,0,1,0,0,250,250,0,,,,,,,,,,,,,,,,
14524,1625562644567,,,,,,,,-0.05,0.04,1.65,0,2,2,0.06,,64,4746,7,25,56,0.586,0.0,570,4.83,13.1,0.0,1,29.1,2.76,6.0,0,0,0,1,0,0,250,250,0,,,,,,,,,,,,,,,,
14544,1625562644587,3,3,43,47,34,33,1,-0.06,0.06,1.85,0,-2,-0,0.09,0,64,4701,7,25,56,0.586,0.0,562,4.86,13.2,0.0,1,28.5,2.73,6.0,0,0,0,1,0,0,250,250,0,52.959976,6.522209,0.0,6.5,5,2,2.4,0,0.0,-1,0.0,,0.0,0,0.0,0.2424
14564,1625562644607,,,,,,,,0.01,0.08,2.03,0,-5,-3,0.08,,64,4754,7,25,56,0.586,0.0,566,4.82,13.4,0.0,1,29.2,2.77,6.0,0,0,0,1,0,0,250,250,0,,,,,,,,,,,,,,,,
14584,1625562644627,,,,,,,,0.07,0.05,1.86,0,-3,-2,0.09,,64,4746,7,25,56,0.587,0.0,564,4.87,13.4,0.0,1,29.1,2.76,6.0,0,0,0,1,0,0,250,250,0,,,,,,,,,,,,,,,,
14604,1625562644647,,,,,,,,0.09,0.01,1.7,0,-1,0,0.09,,64,4724,7,25,57,0.586,0.0,566,4.86,13.4,0.0,1,29.1,2.75,6.0,0,0,0,1,0,0,250,250,0,,,,,,,,,,,,,,,,
14624,1625562644667,,,,,,,,0.05,0.01,1.56,0,2,3,0.05,,64,4748,7,25,57,0.586,0.0,576,4.82,13.2,0.0,1,29.4,1.61,6.0,0,0,0,1,0,0,250,250,0,,,,,,,,,,,,,,,,
14644,1625562644687,3,3,43,47,34,32,1,-0.02,0.05,1.76,0,2,3,0.05,0,64,4703,7,25,56,0.587,0.0,565,4.85,13.1,0.0,1,28.6,1.58,6.0,0,0,0,1,0,0,250,250,0,52.959976,6.522209,0.0,6.5,5,2,2.4,0,0.0,-1,0.0,0.0,0.0,0,0.0,0.2441
14664,1625562644707,,,,,,,,-0.06,0.05,1.95,0,-0,1,0.08,,64,4707,7,25,56,0.587,0.0,569,4.82,13.2,0.0,1,28.6,2.73,6.0,0,0,0,1,0,0,250,250,0,,,,,,,,,,,,,,,,
14684,1625562644727,,,,,,,,-0.04,0.06,2.12,0,-3,-2,0.08,,64,4722,7,25,56,0.588,0.0,563,4.81,13.4,0.0,1,28.8,2.74,6.0,0,0,0,1,0,0,250,250,0,,,,,,,,,,,,,,,,
14704,1625562644747,,,,,,,,0.03,0.08,2.09,0,-4,-3,0.09,,64,4719,7,25,57,0.588,0.0,556,4.84,13.4,0.0,1,29.1,2.74,6.0,0,0,0,1,0,0,250,250,0,,,,,,,,,,,,,,,,
14724,1625562644767,,,,,,,,0.08,0.03,1.91,0,-3,-3,0.09,,64,4727,7,25,57,0.588,0.0,562,4.86,13.4,0.0,1,29.2,2.75,5.9,0,0,0,1,0,0,250,250,0,,,,,,,,,,,,,,,,
14744,1625562644787,3,1,43,47,34,32,2,0.09,-0.02,1.75,0,-0,0,0.09,0,64,4720,7,25,57,0.589,0.0,555,4.85,13.4,0.0,1,29.1,2.74,5.9,0,0,0,1,0,0,250,250,0,52.959976,6.522209,0.0,6.6,5,2,2.4,0,0.0,-1,0.0,,0.0,0,0.0,0.2457
14764,1625562644807,,,,,,,,0.04,-0.01,1.61,0,2,3,0.04,,64,4700,7,25,57,0.589,0.0,566,4.83,13.2,0.0,1,29.0,2.73,5.9,0,0,0,1,0,0,250,250,0,,,,,,,,,,,,,,,,
14784,1625562644827,,,,,,,,-0.03,0.01,1.81,0,2,3,0.03,,64,4727,7,25,56,0.59,0.0,568,4.83,13.2,0.0,1,28.9,1.6,5.9,0,0,0,1,0,0,250,250,0,,,,,,,,,,,,,,,,
14804,1625562644847,,,,,,,,-0.07,0.04,1.99,0,-0,1,0.08,,64,4708,7,25,56,0.591,0.0,557,4.83,13.2,0.0,1,28.6,2.73,5.9,0,0,0,1,0,0,250,250,0,,,,,,,,,,,,,,,,
14824,1625562644867,,,,,,,,-0.07,0.07,2.16,0,-4,-2,0.1,,64,4734,7,25,56,0.592,0.0,566,4.81,13.3,0.0,1,29.0,2.75,5.9,0,0,0,1,0,0,250,250,0,,,,,,,,,,,,,,,,
14844,1625562644887,2,3,43,47,34,33,2,0.0,0.08,2.1,0,-4,-3,0.08,0,64,4732,7,25,56,0.592,0.0,561,4.83,13.4,0.0,1,28.9,2.75,5.9,0,0,0,1,0,0,250,250,0,52.959976,6.522209,0.0,6.6,5,2,2.4,0,0.0,-1,0.0,0.0,0.0,0,0.0,0.2474
14864,1625562644907,,,,,,,,0.06,0.06,1.92,0,-2,-2,0.08,,64,4708,7,25,56,0.592,0.0,564,4.86,13.4,0.0,1,28.6,2.73,5.9,0,0,0,1,0,0,250,250,0,,,,,,,,,,,,,,,,
14884,1625562644927,,,,,,,,0.06,0.01,1.76,0,1,1,0.06,,64,4724,7,25,57,0.592,0.0,572,4.86,13.4,0.0,1,29.1,2.75,5.9,0,0,0,1,0,0,250,250,0,,,,,,,,,,,,,,,,
14904,1625562644945,,,,,,,,0.02,0.02,1.62,0,3,3,0.02,,64,4705,7,25,56,0.592,0.0,560,4.83,13.1,0.0,1,28.8,1.59,5.9,0,0,0,1,0,0,250,250,0,,,,,,,,,,,,,,,,
14924,1625562644965,,,,,,,,-0.05,0.05,1.81,0,3,3,0.07,,64,4738,7,25,56,0.592,0.0,568,4.85,13.1,0.0,1,29.0,1.61,5.9,0,0,0,1,0,0,250,250,0,,,,,,,,,,,,,,,,
14944,1625562644985,2,3,43,47,33,33,2,-0.08,0.06,2.0,0,-1,-0,0.1,0,64,4709,7,25,56,0.592,0.0,562,4.83,13.3,0.0,1,28.6,2.74,5.9,0,0,0,1,0,0,250,250,0,52.959976,6.522209,0.0,6.6,5,2,2.4,0,0.0,-1,0.0,,0.0,0,0.0,0.2491
14964,1625562645005,,,,,,,,-0.06,0.07,2.16,0,-4,-2,0.09,,64,4699,7,25,56,0.592,0.0,553,4.85,13.4,0.0,1,28.5,2.73,5.9,0,0,0,1,0,0,250,250,0,,,,,,,,,,,,,,,,
14984,1625562645025,,,,,,,,0.0,0.1,2.03,0,-4,-4,0.1,,64,4692,7,25,57,0.591,0.0,565,4.85,13.4,0.0,1,28.7,2.72,5.9,0,0,0,1,0,0,250,250,0,,,,,,,,,,,,,,,,
15004,1625562645045,,,,,,,,0.07,0.06,1.86,0,-2,-3,0.09,,64,4661,7,25,56,0.59,0.0,543,4.85,13.4,0.0,1,28.0,1.55,5.9,0,0,0,1,0,0,250,250,0,,,,,,,,,,,,,,,,
15024,1625562645065,,,,,,,,0.1,-0.01,1.71,0,1,0,0.1,,64,4725,7,25,57,0.589,0.0,563,4.86,13.3,0.0,1,29.1,1.6,5.8,0,0,0,1,0,0,250,250,0,,,,,,,,,,,,,,,,
15044,1625562645085,4,1,43,47,33,33,2,0.06,-0.0,1.56,0,3,3,0.06,0,64,4720,7,25,56,0.588,0.0,575,4.86,13.3,0.0,1,28.8,2.74,5.8,0,0,0,1,0,0,250,250,0,52.959976,6.522209,0.0,6.6,5,2,2.4,0,0.0,-1,0.0,0.0,0.0,0,0.0,0.2507
15064,1625562645105,,,,,,,,-0.01,0.01,1.52,0,3,3,0.01,,64,4708,7,25,56,0.588,0.0,561,4.85,13.2,0.0,1,28.6,2.73,5.8,0,0,0,1,0,0,250,250,0,,,,,,,,,,,,,,,,
15084,1625562645125,,,,,,,,-0.05,0.03,1.73,0,1,1,0.06,,64,4721,7,25,56,0.588,0.0,572,4.86,13.0,0.0,1,28.8,2.74,5.8,0,0,0,1,0,0,250,250,0,,,,,,,,,,,,,,,,
15104,1625562645145,,,,,,,,-0.07,0.05,1.92,0,-3,-2,0.08,,64,4663,7,25,56,0.588,0.0,559,4.83,13.2,0.0,1,28.0,2.7,5.8,0,0,0,1,0,0,250,250,0,,,,,,,,,,,,,,,,
15124,1625562645165,,,,,,,,-0.01,0.06,2.09,0,-4,-4,0.06,,64,4712,7,25,56,0.587,0.0,552,4.85,13.4,0.0,1,28.7,2.74,5.8,0,0,0,1,0,0,250,250,0,,,,,,,,,,,,,,,,
15144,1625562645185,2,3,43,47,34,32,1,0.05,0.05,1.92,-0,-4,-4,0.07,0,64,4694,7,25,56,0.587,0.0,563,4.83,13.4,0.0,1,28.4,2.72,5.8,0,0,0,1,0,0,250,250,0,52.959976,6.522209,0.0,6.6,5,2,2.4,0,0.0,-1,0.0,,0.0,0,0.0,0.2524
15164,1625562645205,,,,,,,,0.11,0.02,1.76,0,-1,-2,0.11,,64,4676,7,25,56,0.586,0.0,551,4.83,13.4,0.0,1,28.2,1.56,5.8,0,0,0,1,0,0,250,250,0,,,,,,,,,,,,,,,,
15184,1625562645225,,,,,,,,0.11,-0.02,1.61,0,2,2,0.11,,64,4748,7,25,56,0.587,0.0,566,4.87,13.2,0.0,1,29.1,2.76,5.8,0,0,0,1,0,0,250,250,0,,,,,,,,,,,,,,,,
15204,1625562645247,,,,,,,,0.03,0.02,1.81,0,3,3,0.04,,64,4686,7,25,56,0.586,0.0,563,4.85,13.3,0.0,1,28.2,2.72,5.8,0,0,0,1,0,0,250,250,0,,,,,,,,,,,,,,,,
15224,1625562645267,,,,,,,,0.0,0.03,1.99,0,2,1,0.03,,64,4760,7,25,56,0.587,0.0,555,4.85,13.2,0.0,1,29.3,2.77,5.8,0,0,0,1,0,0,250,250,0,,,,,,,,,,,,,,,,
15244,1625562645287,3,3,43,47,34,32,2,0.04,0.05,2.16,0,-2,-1,0.06,0,64,4712,7,25,56,0.587,0.0,565,4.85,13.2,0.0,1,28.7,2.74,5.8,0,0,0,1,0,0,250,250,0,52.959976,6.522209,0.0,6.6,5,2,2.4,0,0.0,-1,0.0,0.0,0.0,0,0.0,0.2541
15264,1625562645307,,,,,,,,0.11,0.05,1.98,0,-4,-4,0.12,,64,4700,7,25,56,0.588,0.0,551,4.86,13.4,0.0,1,28.5,2.73,5.8,0,0,0,1,0,0,250,250,0,,,,,,,,,,,,,,,,
15284,1625562645327,,,,,,,,0.15,-0.01,1.81,-0,-4,-4,0.15,,64,4722,7,25,56,0.588,0.0,561,4.82,13.4,0.0,1,28.8,2.74,5.8,0,0,0,1,0,0,250,250,0,,,,,,,,,,,,,,,,
15304,1625562645337,,,,,,,,0.14,-0.05,1.66,0,-1,-2,0.15,,64,4699,7,25,56,0.588,0.0,569,4.86,13.4,0.0,1,28.5,2.73,5.8,0,0,0,1,0,0,250,250,0,,,,,,,,,,,,,,,,
15324,1625562645357,,,,,,,,0.09,-0.04,1.52,0,2,2,0.09,,64,4743,7,25,56,0.588,0.0,561,4.85,13.2,0.0,1,29.1,1.61,5.9,0,0,0,1,0,0,250,250,0,,,,,,,,,,,,,,,,
15344,1625562645377,2,3,43,47,33,33,1,0.01,-0.02,1.73,0,3,3,0.02,0,64,4694,7,25,56,0.588,0.0,567,4.86,13.1,0.0,1,28.4,1.57,5.9,0,0,0,1,0,0,250,250,0,52.959976,6.522209,0.0,6.6,5,2,2.4,0,0.0,-1,0.0,,0.0,0,0.0,0.2557
15364,1625562645397,,,,,,,,-0.02,0.0,1.92,0,3,2,0.02,,64,4732,7,25,56,0.589,0.0,560,4.82,13.2,0.0,1,28.9,2.75,5.9,0,0,0,1,0,0,250,250,0,,,,,,,,,,,,,,,,
15384,1625562645417,,,,,,,,0.01,0.04,2.09,0,-1,-1,0.04,,64,4750,7,25,56,0.589,0.0,555,4.82,13.4,0.0,1,29.2,2.77,5.9,0,0,0,1,0,0,250,250,0,,,,,,,,,,,,,,,,
15404,1625562645444,,,,,,,,0.07,0.04,1.92,0,-3,-3,0.08,,64,4722,7,25,56,0.59,0.0,565,4.82,13.4,0.0,1,28.8,2.74,5.9,0,0,0,1,0,0,250,250,0,,,,,,,,,,,,,,,,
15424,1625562645464,,,,,,,,0.11,0.0,1.76,0,-2,-3,0.11,,64,4773,7,25,56,0.59,0.0,558,4.84,13.4,0.0,1,29.5,1.63,5.9,0,0,0,1,0,0,250,250,0,,,,,,,,,,,,,,,,
15444,1625562645484,3,3,43,47,34,32,1,0.08,-0.02,1.61,0,1,0,0.08,0,64,4734,7,25,56,0.59,0.0,571,4.83,13.3,0.0,1,29.0,2.75,5.9,0,0,0,1,0,0,250,250,0,52.959976,6.522209,0.0,6.6,5,2,2.4,0,0.0,-1,0.0,0.0,0.0,0,0.0,0.2574
15464,1625562645504,,,,,,,,0.02,0.01,1.49,0,3,3,0.02,,64,4688,7,25,56,0.59,0.0,573,4.83,13.2,0.0,1,28.8,2.72,5.9,0,0,0,1,0,0,250,250,0,,,,,,,,,,,,,,,,
15484,1625562645524,,,,,,,,-0.05,0.02,1.7,0,3,3,0.05,,64,4718,7,25,56,0.591,0.0,566,4.85,13.2,0.0,1,28.8,1.59,5.9,0,0,0,1,0,0,250,250,0,,,,,,,,,,,,,,,,
15504,1625562645544,,,,,,,,-0.05,0.02,1.89,0,1,1,0.06,,64,4712,7,25,56,0.592,0.0,570,4.83,13.3,0.0,1,28.7,2.74,5.9,0,0,0,1,0,0,250,250,0,,,,,,,,,,,,,,,,
15524,1625562645564,,,,,,,,0.0,0.04,2.07,0,-3,-2,0.04,,64,4749,7,25,56,0.592,0.0,562,4.85,13.3,0.0,1,29.2,2.76,5.9,0,0,0,1,0,0,250,250,0,,,,,,,,,,,,,,,,
15544,1625562645584,1,3,43,47,33,32,2,0.06,0.03,1.9,0,-3,-3,0.06,0,64,4721,7,25,56,0.592,0.0,561,4.85,13.4,0.0,1,28.8,2.74,5.9,0,0,0,1,0,0,250,250,0,52.959976,6.522209,0.0,6.6,5,2,2.4,0,0.0,-1,0.0,,0.0,0,0.0,0.2591
15564,1625562645604,,,,,,,,0.08,-0.03,1.74,0,-1,-2,0.08,,64,4705,7,25,56,0.591,0.0,571,4.87,13.4,0.0,1,28.6,1.58,5.9,0,0,0,1,0,0,250,250,0,,,,,,,,,,,,,,,,
15584,1625562645624,,,,,,,,0.03,-0.02,1.59,0,2,1,0.04,,64,4749,7,25,56,0.591,0.0,563,4.86,13.4,0.0,1,29.2,2.76,5.9,0,0,0,1,0,0,250,250,0,,,,,,,,,,,,,,,,
15604,1625562645645,,,,,,,,-0.03,0.01,1.74,0,4,3,0.03,,64,4712,7,25,56,0.591,0.0,561,4.86,13.1,0.0,1,28.7,1.59,5.9,0,0,0,1,0,0,250,250,0,,,,,,,,,,,,,,,,
15624,1625562645665,,,,,,,,-0.08,0.03,1.93,0,3,2,0.08,,64,4755,7,25,56,0.591,0.0,563,4.83,13.2,0.0,1,29.2,1.62,5.9,0,0,0,1,0,0,250,250,0,,,,,,,,,,,,,,,,
15644,1625562645685,3,2,43,47,33,33,2,-0.05,0.05,2.1,0,-1,-1,0.07,0,64,4708,7,25,56,0.591,0.0,557,4.86,13.2,0.0,1,28.6,1.58,5.9,0,0,0,1,0,0,250,250,0,52.959976,6.522209,0.0,6.6,5,2,2.4,0,0.0,-1,0.0,0.0,0.0,0,0.0,0.2607
15664,1625562645705,,,,,,,,0.01,0.07,2.07,0,-3,-3,0.07,,64,4694,7,25,56,0.591,0.0,563,4.85,13.4,0.0,1,28.4,2.72,5.9,0,0,0,1,0,0,250,250,0,,,,,,,,,,,,,,,,
15684,1625562645725,,,,,,,,0.07,0.02,1.9,0,-3,-3,0.08,,64,4773,7,25,57,0.59,0.0,566,4.87,13.4,0.0,1,29.8,1.63,5.9,0,0,0,1,0,0,250,250,0,,,,,,,,,,,,,,,,
15704,1625562645744,,,,,,,,0.05,-0.0,1.74,0,0,-0,0.05,,64,4755,7,25,57,0.589,0.0,565,4.85,13.4,0.0,1,29.5,1.62,5.9,0,0,0,1,0,0,250,250,0,,,,,,,,,,,,,,,,
15724,1625562645764,,,,,,,,-0.01,0.01,1.63,0,3,2,0.01,,64,4766,7,25,57,0.588,0.0,580,4.84,13.3,0.0,1,29.7,1.63,6.1,0,0,0,1,0,0,250,250,0,,,,,,,,,,,,,,,,
15744,1625562645784,3,4,43,47,34,33,0,-0.06,0.03,1.83,0,2,2,0.06,0,64,4732,7,25,56,0.588,0.0,562,4.87,13.2,0.0,1,28.9,1.6,6.1,0,0,0,1,0,0,250,250,0,52.959976,6.522209,0.0,6.6,5,2,2.4,0,0.0,-1,0.0,,0.0,0,0.0,0.2624
15764,1625562645804,,,,,,,,-0.06,0.03,2.01,0,-1,-1,0.07,,64,4711,7,25,56,0.588,0.0,561,4.85,13.1,0.0,1,28.7,2.74,6.1,0,0,0,1,0,0,250,250,0,,,,,,,,,,,,,,,,
15784,1625562645824,,,,,,,,0.01,0.05,2.17,0,-4,-3,0.05,,64,4754,7,25,56,0.589,0.0,557,4.84,13.3,0.0,1,29.2,2.77,6.1,0,0,0,1,0,0,250,250,0,,,,,,,,,,,,,,,,
15804,1625562645844,,,,,,,,0.08,0.03,1.99,0,-4,-4,0.08,,64,4687,7,25,57,0.589,0.0,553,4.83,13.4,0.0,1,28.6,1.57,6.1,0,0,0,1,0,0,250,250,0,,,,,,,,,,,,,,,,
15824,1625562645864,,,,,,,,0.1,-0.02,1.82,0,-2,-2,0.1,,64,4721,7,25,57,0.589,0.0,571,4.86,13.4,0.0,1,29.1,2.74,5.9,0,0,0,1,0,0,250,250,0,,,,,,,,,,,,,,,,
15844,1625562645884,3,1,43,47,34,33,0,0.08,-0.02,1.67,0,1,1,0.08,0,64,4711,7,25,57,0.589,0.0,568,4.83,13.3,0.0,1,29.0,1.59,5.9,0,0,0,1,0,0,250,250,0,52.959976,6.522209,0.0,6.6,5,2,2.4,0,0.0,-1,0.0,0.0,0.0,0,0.0,0.2641
15864,1625562645902,,,,,,,,0.0,0.02,1.64,0,3,3,0.02,,64,4724,7,25,57,0.589,0.0,562,4.85,13.1,0.0,1,29.1,1.6,5.9,0,0,0,1,0,0,250,250,0,,,,,,,,,,,,,,,,
15884,1625562645922,,,,,,,,-0.04,0.02,1.84,0,2,2,0.04,,64,4760,7,25,57,0.589,0.0,571,4.87,13.2,0.0,1,29.6,2.77,5.9,0,0,0,1,0,0,250,250,0,,,,,,,,,,,,,,,,
15904,1625562645942,,,,,,,,-0.03,0.07,2.02,0,-2,-1,0.07,,64,4703,7,25,56,0.589,0.0,552,4.83,13.4,0.0,1,28.6,2.73,5.9,0,0,0,1,0,0,250,250,0,,,,,,,,,,,,,,,,
15924,1625562645962,,,,,,,,0.04,0.07,2.11,0,-4,-3,0.09,,64,4708,7,25,57,0.59,0.0,563,4.83,13.4,0.0,1,28.9,2.73,5.9,0,0,0,1,0,0,250,250,0,,,,,,,,,,,,,,,,
15944,1625562645982,3,4,43,47,34,32,0,0.1,0.03,1.93,0,-4,-3,0.1,0,64,4711,7,25,57,0.59,0.0,561,4.82,13.4,0.0,1,29.0,2.74,5.9,0,0,0,1,0,0,250,250,0,52.959976,6.522209,0.0,6.6,5,2,2.4,0,0.0,-1,0.0,,0.0,0,0.0,0.2657
15964,1625562645994,,,,,,,,0.14,-0.01,1.77,0,-1,-2,0.14,,64,4666,7,25,56,0.59,0.0,554,4.82,13.4,0.0,1,28.1,1.55,5.9,0,0,0,1,0,0,250,250,0,,,,,,,,,,,,,,,,
15984,1625562646014,,,,,,,,0.1,0.01,1.62,0,1,1,0.1,,64,4745,7,25,57,0.59,0.0,567,4.82,13.3,0.0,1,29.4,1.61,5.9,0,0,0,1,0,0,250,250,0,,,,,,,,,,,,,,,,
16004,1625562646034,,,,,,,,0.03,0.01,1.73,0,3,3,0.03,,64,4733,7,25,56,0.59,0.0,562,4.79,13.3,0.0,1,28.8,2.75,5.9,0,0,0,1,0,0,250,250,0,,,,,,,,,,,,,,,,
16024,1625562646054,,,,,,,,-0.02,0.04,1.91,0,2,2,0.04,,64,4730,7,25,56,0.59,0.0,565,4.86,13.2,0.0,1,28.9,2.75,6.0,0,0,0,1,0,0,250,250,0,,,,,,,,,,,,,,,,
16044,1625562646074,3,1,43,47,33,32,1,-0.01,0.1,2.09,0,-2,-1,0.1,0,64,4760,7,25,56,0.59,0.0,565,4.85,13.3,0.0,1,29.3,2.77,6.0,0,0,0,1,0,0,250,250,0,52.959976,6.522209,0.0,7.1,8,2,1.7,0,0.0,-1,0.0,0.0,0.0,0,0.0,0.2674
16064,1625562646102,,,,,,,,0.07,0.07,2.06,0,-4,-3,0.1,,64,4724,7,25,57,0.59,0.0,555,4.82,13.4,0.0,1,29.1,2.75,6.0,0,0,0,1,0,0,250,250,0,,,,,,,,,,,,,,,,
16084,1625562646122,,,,,,,,0.11,0.02,1.89,0,-2,-2,0.11,,64,4781,7,25,57,0.59,0.0,570,4.86,13.4,0.0,1,29.9,2.78,6.0,0,0,0,1,0,0,250,250,0,,,,,,,,,,,,,,,,
16104,1625562646142,,,,,,,,0.08,0.0,1.73,0,1,1,0.08,,64,4743,7,25,57,0.59,0.0,570,4.83,13.3,0.0,1,29.4,1.61,6.0,0,0,0,1,0,0,250,250,0,,,,,,,,,,,,,,,,
16124,1625562646162,,,,,,,,0.02,0.01,1.58,0,3,4,0.02,,64,4720,7,25,57,0.59,0.0,558,4.83,13.1,0.0,1,29.1,1.59,6.0,0,0,0,1,0,0,250,250,0,,,,,,,,,,,,,,,,
16144,1625562646182,3,4,43,47,33,33,1,-0.04,0.02,1.79,0,3,3,0.05,0,64,4715,7,25,57,0.59,0.0,563,4.85,13.1,0.0,1,29.0,1.59,6.0,0,0,0,1,0,0,250,250,0,52.959976,6.522209,0.0,7.1,8,2,1.7,0,0.0,-1,0.0,,0.0,0,0.0,0.2691
16164,1625562646202,,,,,,,,-0.05,0.04,1.97,0,-1,0,0.06,,64,4745,7,25,57,0.591,0.0,549,4.87,13.2,0.0,1,29.4,2.76,6.0,0,0,0,1,0,0,250,250,0,,,,,,,,,,,,,,,,
16184,1625562646222,,,,,,,,0.02,0.06,2.14,0,-4,-3,0.06,,64,4750,7,25,57,0.591,0.0,564,4.82,13.4,0.0,1,29.5,2.77,6.0,0,0,0,1,0,0,250,250,0,,,,,,,,,,,,,,,,
16204,1625562646242,,,,,,,,0.08,0.03,1.96,0,-3,-3,0.09,,64,4716,7,25,57,0.591,0.0,571,4.84,13.4,0.0,1,29.0,2.74,6.0,0,0,0,1,0,0,250,250,0,,,,,,,,,,,,,,,,
16224,1625562646262,,,,,,,,0.1,-0.03,1.8,0,-1,-1,0.11,,64,4733,7,25,57,0.591,0.0,561,4.85,13.4,0.0,1,29.3,1.6,5.9,0,0,0,1,0,0,250,250,0,,,,,,,,,,,,,,,,
16244,1625562646282,3,2,43,47,34,33,0,0.07,-0.03,1.65,0,2,2,0.07,0,64,4709,7,25,57,0.591,0.0,572,4.84,13.4,0.0,1,28.9,1.59,5.9,0,0,0,1,0,0,250,250,0,52.959976,6.522209,0.0,7.1,8,2,1.7,0,0.0,-1,0.0,0.0,0.0,0,0.0,0.2707
16264,1625562646302,,,,,,,,-0.0,-0.01,1.65,0,3,3,0.01,,64,4740,7,25,57,0.591,0.0,561,4.81,13.1,0.0,1,29.3,1.61,5.9,0,0,0,1,0,0,250,250,0,,,,,,,,,,,,,,,,
16284,1625562646322,,,,,,,,-0.04,0.01,1.84,0,0,1,0.04,,64,4746,7,25,57,0.592,0.0,563,4.86,13.3,0.0,1,29.4,2.76,5.9,0,0,0,1,0,0,250,250,0,,,,,,,,,,,,,,,,
16304,1625562646342,,,,,,,,-0.03,0.04,2.02,0,-2,-1,0.05,,64,4718,7,25,56,0.594,0.0,566,4.86,13.2,0.0,1,28.8,2.74,5.9,0,0,0,1,0,0,250,250,0,,,,,,,,,,,,,,,,
16324,1625562646362,,,,,,,,0.03,0.07,2.04,0,-4,-3,0.08,,64,4748,7,25,57,0.594,0.0,554,4.82,13.4,0.0,1,29.4,2.76,6.0,0,0,0,1,0,0,250,250,0,,,,,,,,,,,,,,,,
16344,1625562646382,3,4,43,47,34,33,0,0.09,0.03,1.87,0,-2,-2,0.09,0,64,4718,7,25,57,0.594,0.0,568,4.86,13.4,0.0,1,29.1,1.59,6.0,0,0,0,1,0,0,250,250,0,52.959976,6.522209,0.0,7.1,8,2,1.7,0,0.0,-1,0.0,,0.0,0,0.0,0.2724
16364,1625562646402,,,,,,,,0.09,0.01,1.71,0,1,1,0.09,,64,4724,7,25,57,0.593,0.0,571,4.84,13.3,0.0,1,29.1,1.6,6.0,0,0,0,1,0,0,250,250,0,,,,,,,,,,,,,,,,
16384,1625562646422,,,,,,,,0.03,0.02,1.57,0,3,3,0.03,,64,4743,7,25,57,0.593,0.0,567,4.85,13.2,0.0,1,29.5,2.76,6.0,0,0,0,1,0,0,250,250,0,,,,,,,,,,,,,,,,
16404,1625562646442,,,,,,,,-0.03,0.04,1.77,0,2,3,0.05,,64,4742,7,25,57,0.593,0.0,568,4.86,13.2,0.0,1,29.4,2.76,6.0,0,0,0,1,0,0,250,250,0,,,,,,,,,,,,,,,,
16424,1625562646462,,,,,,,,-0.05,0.07,1.96,0,-2,-1,0.08,,64,4794,7,25,57,0.594,0.0,563,4.85,13.2,0.0,1,30.1,2.79,6.0,0,0,0,1,0,0,250,250,0,,,,,,,,,,,,,,,,
16444,1625562646482,3,1,43,47,34,32,0,0.02,0.06,2.13,0,-3,-2,0.07,0,64,4725,7,25,57,0.594,0.0,565,4.83,13.4,0.0,1,29.1,2.75,6.0,0,0,0,1,0,0,250,250,0,52.959976,6.522209,0.0,7.1,8,2,1.7,0,0.0,-1,0.0,0.0,0.0,0,0.0,0.2741
16464,1625562646501,,,,,,,,0.08,0.03,1.95,0,-2,-2,0.08,,64,4738,7,25,57,0.595,0.0,570,4.85,13.4,0.0,1,29.3,1.61,6.0,0,0,0,1,0,0,250,250,0,,,,,,,,,,,,,,,,
16484,1625562646521,,,,,,,,0.08,-0.02,1.79,0,1,1,0.09,,64,4736,7,25,57,0.595,0.0,562,4.86,13.4,0.0,1,29.3,1.6,6.0,0,0,0,1,0,0,250,250,0,,,,,,,,,,,,,,,,
16504,1625562646541,,,,,,,,0.05,-0.02,1.64,0,3,4,0.06,,64,4679,7,25,57,0.594,0.0,561,4.85,13.2,0.0,1,28.5,1.56,6.0,0,0,0,1,0,0,250,250,0,,,,,,,,,,,,,,,,
16524,1625562646561,,,,,,,,-0.02,-0.01,1.82,0,3,4,0.02,,64,4778,7,25,57,0.594,0.0,562,4.82,13.2,0.0,1,29.8,2.78,5.9,0,0,0,1,0,0,250,250,0,,,,,,,,,,,,,,,,
16544,1625562646581,2,3,43,47,33,32,1,-0.05,0.0,2.0,0,0,1,0.05,0,64,4698,7,25,57,0.595,0.0,556,4.85,13.2,0.0,1,28.8,2.73,5.9,0,0,0,1,0,0,250,250,0,52.959976,6.522209,0.0,7.1,8,2,1.7,0,0.0,-1,0.0,,0.0,0,0.0,0.2757
16564,1625562646601,,,,,,,,-0.03,0.06,2.16,0,-3,-1,0.07,,64,4740,7,25,57,0.595,0.0,563,4.82,13.4,0.0,1,29.3,2.76,5.9,0,0,0,1,0,0,250,250,0,,,,,,,,,,,,,,,,
16584,1625562646621,,,,,,,,0.03,0.05,1.99,0,-3,-2,0.06,,64,4706,7,25,57,0.595,0.0,554,4.83,13.4,0.0,1,28.9,2.73,5.9,0,0,0,1,0,0,250,250,0,,,,,,,,,,,,,,,,
16604,1625562646641,,,,,,,,0.08,0.0,1.83,0,-2,-2,0.08,,64,4657,7,25,57,0.596,0.0,556,4.87,13.4,0.0,1,28.3,1.55,5.9,0,0,0,1,0,0,250,250,0,,,,,,,,,,,,,,,,
16624,1625562646661,,,,,,,,0.09,-0.02,1.67,0,1,1,0.1,,64,4781,7,25,57,0.596,0.0,575,4.85,13.3,0.0,1,29.9,1.63,5.9,0,0,0,1,0,0,250,250,0,,,,,,,,,,,,,,,,
16644,1625562646681,2,2,43,47,34,32,2,0.05,0.01,1.53,0,3,3,0.05,0,64,4713,7,25,57,0.596,0.0,562,4.83,13.3,0.0,1,29.0,1.59,5.9,0,0,0,1,0,0,250,250,0,52.959976,6.522209,0.0,7.1,8,2,1.7,0,0.0,-1,0.0,0.0,0.0,0,0.0,0.2774
16664,1625562646701,,,,,,,,-0.02,-0.0,1.74,0,2,2,0.02,,64,4743,7,25,57,0.596,0.0,565,4.86,13.1,0.0,1,29.4,1.61,5.9,0,0,0,1,0,0,250,250,0,,,,,,,,,,,,,,,,
16684,1625562646721,,,,,,,,-0.04,0.02,1.93,0,-1,-1,0.05,,64,4724,7,25,57,0.598,0.0,557,4.86,13.3,0.0,1,29.1,2.75,5.9,0,0,0,1,0,0,250,250,0,,,,,,,,,,,,,,,,
16704,1625562646741,,,,,,,,-0.04,0.08,2.1,0,-4,-3,0.09,,64,4630,7,25,57,0.598,0.0,544,4.83,13.4,0.0,1,27.9,2.69,5.9,0,0,0,1,0,0,250,250,0,,,,,,,,,,,,,,,,
16724,1625562646761,,,,,,,,0.03,0.09,2.23,0,-5,-4,0.09,,64,4755,7,25,57,0.598,0.0,568,4.87,13.4,0.0,1,29.5,2.77,5.8,0,0,0,1,0,0,250,250,0,,,,,,,,,,,,,,,,
16744,1625562646781,3,1,43,47,34,32,2,0.09,0.03,2.04,0,-2,-2,0.09,0,64,4726,7,25,57,0.597,0.0,558,4.85,13.4,0.0,1,29.2,2.75,5.8,0,0,0,1,0,0,250,250,0,52.959976,6.522209,0.0,7.1,8,2,1.7,0,0.0,-1,0.0,,0.0,0,0.0,0.2791
16764,1625562646801,,,,,,,,0.09,0.01,1.87,0,1,1,0.09,,64,4724,7,25,57,0.596,0.0,567,4.83,13.3,0.0,1,29.1,1.6,5.8,0,0,0,1,0,0,250,250,0,,,,,,,,,,,,,,,,
16784,1625562646821,,,,,,,,0.04,0.03,1.71,0,2,3,0.05,,64,4768,7,25,57,0.596,0.0,574,4.83,13.1,0.0,1,29.7,1.63,5.8,0,0,0,1,0,0,250,250,0,,,,,,,,,,,,,,,,
16804,1625562646841,,,,,,,,-0.03,0.04,1.9,0,1,1,0.05,,64,4671,7,25,57,0.595,0.0,560,4.84,13.1,0.0,1,28.4,2.71,5.8,0,0,0,1,0,0,250,250,0,,,,,,,,,,,,,,,,
16824,1625562646861,,,,,,,,-0.05,0.06,2.08,0,-2,-1,0.08,,64,4756,7,25,57,0.595,0.0,566,4.85,13.4,0.0,1,29.6,2.77,5.8,0,0,0,1,0,0,250,250,0,,,,,,,,,,,,,,,,
16844,1625562646881,3,2,43,47,33,33,2,-0.01,0.09,2.24,0,-4,-3,0.09,0,64,4686,7,25,57,0.594,0.0,562,4.85,13.4,0.0,1,28.6,2.72,5.8,0,0,0,1,0,0,250,250,0,52.959976,6.522209,0.0,7.1,8,2,1.7,0,0.0,-1,0.0,0.0,0.0,0,0.0,0.2807
16864,1625562646901,,,,,,,,0.05,0.04,2.05,-0,-3,-3,0.06,,64,4694,7,25,57,0.593,0.0,550,4.83,13.4,0.0,1,28.7,1.57,5.8,0,0,0,1,0,0,250,250,0,,,,,,,,,,,,,,,,
16884,1625562646921,,,,,,,,0.03,0.04,1.88,0,-0,-1,0.05,,64,4810,7,25,57,0.592,0.0,568,4.85,13.4,0.0,1,30.3,2.8,5.8,0,0,0,1,0,0,250,250,0,,,,,,,,,,,,,,,,
16904,1625562646941,,,,,,,,-0.03,0.06,1.89,0,2,2,0.07,,64,4711,7,25,57,0.591,0.0,558,4.84,13.2,0.0,1,28.9,2.74,5.8,0,0,0,1,0,0,250,250,0,,,,,,,,,,,,,,,,
16924,1625562646961,,,,,,,,-0.07,0.06,2.06,0,2,2,0.09,,64,4851,7,25,57,0.59,0.0,566,4.86,13.2,0.0,1,30.8,1.67,5.9,0,0,0,1,0,0,250,250,0,,,,,,,,,,,,,,,,
16944,1625562646981,3,2,43,47,34,32,2,-0.01,0.08,2.22,0,-2,-2,0.08,0,64,4791,7,25,57,0.59,0.0,574,4.88,13.2,0.0,1,30.0,2.79,5.9,0,0,0,1,0,0,250,250,0,52.959976,6.522209,0.0,7.1,8,2,1.7,0,0.0,-1,0.0,,0.0,0,0.0,0.2824
16964,1625562646993,,,,,,,,0.05,0.04,2.04,0,-4,-3,0.06,,64,4777,7,25,57,0.589,0.0,562,4.85,13.4,0.0,1,29.8,2.78,5.9,0,0,0,1,0,0,250,250,0,,,,,,,,,,,,,,,,
16984,1625562647013,,,,,,,,0.04,0.0,1.87,0,-1,-1,0.04,,64,4822,7,25,57,0.589,0.0,578,4.82,13.4,0.0,1,30.4,2.81,5.9,0,0,0,1,0,0,250,250,0,,,,,,,,,,,,,,,,
17004,1625562647033,,,,,,,,-0.01,0.04,1.71,0,2,2,0.04,,64,4716,7,25,57,0.588,0.0,570,4.85,13.2,0.0,1,29.0,1.59,5.9,0,0,0,1,0,0,250,250,0,,,,,,,,,,,,,,,,
17024,1625562647053,,,,,,,,-0.07,0.03,1.9,0,3,3,0.07,,64,4834,7,25,57,0.588,0.0,562,4.82,13.2,0.0,1,30.6,2.81,5.9,0,0,0,1,0,0,250,250,0,,,,,,,,,,,,,,,,
17044,1625562647073,3,4,43,47,34,32,2,-0.03,0.06,2.08,0,-1,-0,0.07,0,64,4781,7,25,57,0.589,0.0,566,4.86,13.4,0.0,1,29.9,2.78,5.9,0,0,0,1,0,0,250,250,0,52.959976,6.522209,0.0,7.1,8,2,1.7,0,0.0,-1,0.0,0.0,0.0,0,0.0,0.2841
17064,1625562647099,,,,,,,,0.04,0.05,1.92,0,-3,-2,0.07,,64,4772,7,25,57,0.589,0.0,555,4.85,13.4,0.0,1,29.8,2.78,5.9,0,0,0,1,0,0,250,250,0,,,,,,,,,,,,,,,,
17084,1625562647119,,,,,,,,0.06,-0.0,1.76,0,-2,-1,0.06,,64,4828,7,25,57,0.589,0.0,570,4.83,13.5,0.0,1,30.5,2.81,5.9,0,0,0,1,0,0,250,250,0,,,,,,,,,,,,,,,,
17104,1625562647139,,,,,,,,0.02,0.01,1.61,0,2,2,0.02,,64,4743,7,25,57,0.59,0.0,580,4.83,13.3,0.0,1,29.4,1.61,5.9,0,0,0,1,0,0,250,250,0,,,,,,,,,,,,,,,,
17124,1625562647159,,,,,,,,-0.04,0.01,1.81,0,3,4,0.04,,64,4802,7,25,57,0.59,0.0,567,4.87,13.4,0.0,1,30.2,1.64,6.0,0,0,0,1,0,0,250,250,0,,,,,,,,,,,,,,,,
17144,1625562647179,3,3,43,47,34,32,2,-0.06,0.04,1.99,0,1,1,0.08,0,64,4706,7,25,57,0.591,0.0,572,4.92,13.4,0.0,1,28.9,1.58,6.0,0,0,0,1,0,0,250,250,0,52.959976,6.522209,0.0,7.1,8,2,1.7,0,0.0,-1,0.0,,0.0,0,0.0,0.2857
17164,1625562647201,,,,,,,,-0.03,0.07,2.16,0,-1,-0,0.07,,64,4550,7,25,57,0.592,0.0,552,4.84,13.4,0.0,1,26.9,1.49,6.0,0,0,0,1,0,0,250,250,0,,,,,,,,,,,,,,,,
17184,1625562647221,,,,,,,,-0.2,0.09,2.31,0,1,-0,0.22,,64,4398,7,25,57,0.595,0.0,534,4.87,13.4,0.0,1,25.0,2.55,6.0,0,0,0,1,0,0,250,250,0,,,,,,,,,,,,,,,,
17204,1625562647241,,,,,,,,-0.19,0.11,2.45,0,1,-0,0.22,,64,4230,7,25,57,0.597,0.0,522,4.89,13.4,0.0,1,22.8,1.31,6.0,0,0,0,1,0,0,250,250,0,,,,,,,,,,,,,,,,
17224,1625562647261,,,,,,,,-0.25,0.1,2.25,0,4,2,0.27,,64,4138,7,25,58,0.598,0.0,483,4.87,13.3,0.0,1,21.9,1.29,4.8,0,0,0,1,0,0,250,250,0,,,,,,,,,,,,,,,,
17244,1625562647281,3,4,44,48,33,31,1,-0.31,0.08,2.06,0,6,1,0.32,0,64,4334,7,25,58,0.599,0.0,506,4.86,13.4,0.0,1,24.4,2.54,4.8,0,0,0,1,0,0,250,250,0,52.959976,6.522209,0.0,7.1,8,2,1.7,0,0.0,-1,0.0,0.0,0.0,0,0.0,0.2874
17264,1625562647301,,,,,,,,-0.21,0.04,1.89,0,6,2,0.21,,64,4457,7,25,58,0.6,0.0,510,4.85,13.4,0.0,1,26.0,1.45,4.8,0,0,0,1,0,0,250,250,0,,,,,,,,,,,,,,,,
17284,1625562647321,,,,,,,,-0.09,0.07,1.73,0,8,2,0.11,,64,4413,7,25,58,0.601,0.0,515,4.86,13.4,0.0,1,25.4,2.58,4.8,0,0,0,1,0,0,250,250,0,,,,,,,,,,,,,,,,
17304,1625562647341,,,,,,,,-0.08,0.03,1.59,0,3,-0,0.08,,64,4548,7,25,58,0.603,0.0,529,4.85,13.5,0.0,1,27.1,2.65,4.8,0,0,0,1,0,0,250,250,0,,,,,,,,,,,,,,,,
17324,1625562647361,,,,,,,,-0.09,0.02,1.45,0,3,1,0.09,,64,4528,7,25,58,0.603,0.0,533,4.85,13.4,0.0,1,26.9,1.49,5.6,0,0,0,1,0,0,250,250,0,,,,,,,,,,,,,,,,
17344,1625562647381,3,4,43,48,33,33,0,-0.16,-0.02,1.33,0,5,1,0.17,0,64,4601,7,25,58,0.604,0.0,546,4.83,13.4,0.0,1,27.8,2.68,5.6,0,0,0,1,0,0,250,250,0,52.959976,6.522209,0.0,7.1,8,2,1.7,0,0.0,-1,0.0,,0.0,0,0.0,0.2891
17364,1625562647401,,,,,,,,-0.16,-0.03,1.22,0,7,4,0.16,,64,4700,7,25,57,0.605,0.0,548,4.84,13.3,0.0,1,28.8,1.58,5.6,0,0,0,1,0,0,250,250,0,,,,,,,,,,,,,,,,
17384,1625562647421,,,,,,,,-0.2,-0.03,1.16,0,9,6,0.2,,64,4680,7,25,57,0.605,0.0,562,4.83,13.2,0.0,1,28.6,1.58,5.6,0,0,0,1,0,0,250,250,0,,,,,,,,,,,,,,,,
17404,1625562647441,,,,,,,,-0.15,0.01,1.4,0,6,5,0.15,,64,4795,7,25,57,0.605,0.0,561,4.82,13.2,0.0,1,30.1,2.79,5.6,0,0,0,1,0,0,250,250,0,,,,,,,,,,,,,,,,
17424,1625562647461,,,,,,,,-0.11,0.07,1.62,0,2,2,0.13,,64,4738,7,25,57,0.604,0.0,552,4.85,13.4,0.0,1,29.3,2.76,6.2,0,0,0,1,0,0,250,250,0,,,,,,,,,,,,,,,,
17444,1625562647481,1,3,43,47,33,33,1,-0.03,0.06,1.62,0,-1,-0,0.06,0,64,4752,7,25,58,0.603,0.0,563,4.83,13.5,0.0,1,29.8,2.77,6.2,0,0,0,1,0,0,250,250,0,52.959976,6.522209,0.0,7.1,8,2,1.7,0,0.0,-1,0.0,0.0,0.0,0,0.0,0.2907
17464,1625562647500,,,,,,,,-0.01,0.02,1.48,0,1,1,0.02,,64,4746,7,25,58,0.602,0.0,552,4.83,13.4,0.0,1,29.7,2.76,6.2,0,0,0,1,0,0,250,250,0,,,,,,,,,,,,,,,,
17484,1625562647520,,,,,,,,-0.01,0.01,1.36,0,4,3,0.02,,64,4665,7,25,58,0.602,0.0,560,4.86,13.4,0.0,1,28.7,2.71,6.2,0,0,0,1,0,0,250,250,0,,,,,,,,,,,,,,,,
17504,1625562647540,,,,,,,,-0.04,0.0,1.25,0,6,7,0.04,,64,4683,7,25,58,0.601,0.0,565,4.85,13.2,0.0,1,28.9,1.59,6.2,0,0,0,1,0,0,250,250,0,,,,,,,,,,,,,,,,
17524,1625562647560,,,,,,,,-0.08,0.02,1.47,0,6,7,0.09,,64,4721,7,25,57,0.6,0.0,556,4.86,13.1,0.0,1,29.1,1.59,5.9,0,0,0,1,0,0,250,250,0,,,,,,,,,,,,,,,,
17544,1625562647580,2,3,43,47,33,33,1,-0.12,0.03,1.68,0,4,5,0.12,0,64,4725,7,25,58,0.6,0.0,561,4.86,13.2,0.0,1,29.4,2.75,5.9,0,0,0,1,0,0,250,250,0,52.959976,6.522209,0.0,7.1,8,2,1.7,0,0.0,-1,0.0,,0.0,0,0.0,0.2924
17564,1625562647600,,,,,,,,-0.05,0.07,1.88,0,-0,1,0.08,,64,4789,7,25,58,0.6,0.0,558,4.82,13.4,0.0,1,30.3,1.63,5.9,0,0,0,1,0,0,250,250,0,,,,,,,,,,,,,,,,
17584,1625562647620,,,,,,,,0.0,0.04,1.72,0,-1,-0,0.04,,64,4731,7,25,58,0.599,0.0,560,4.85,13.4,0.0,1,29.5,2.75,5.9,0,0,0,1,0,0,250,250,0,,,,,,,,,,,,,,,,
17604,1625562647640,,,,,,,,0.04,-0.02,1.58,0,1,0,0.05,,64,4702,7,25,58,0.598,0.0,565,4.87,13.4,0.0,1,29.1,2.73,5.9,0,0,0,1,0,0,250,250,0,,,,,,,,,,,,,,,,
17624,1625562647660,,,,,,,,0.02,-0.03,1.44,0,4,4,0.03,,64,4749,7,25,58,0.597,0.0,559,4.83,13.3,0.0,1,29.8,2.76,5.9,0,0,0,1,0,0,250,250,0,,,,,,,,,,,,,,,,
17644,1625562647680,2,3,43,48,33,32,1,-0.04,0.01,1.38,0,5,5,0.04,0,64,4699,7,25,58,0.597,0.0,565,4.84,13.3,0.0,1,29.0,2.72,5.9,0,0,0,1,0,0,250,250,0,52.959976,6.522209,0.0,7.1,8,2,1.7,0,0.0,-1,0.0,0.0,0.0,0,0.0,0.2941
17664,1625562647700,,,,,,,,-0.09,0.03,1.6,0,4,4,0.1,,64,4763,7,25,58,0.597,0.0,570,4.84,13.2,0.0,1,29.9,1.62,5.9,0,0,0,1,0,0,250,250,0,,,,,,,,,,,,,,,,
17684,1625562647720,,,,,,,,-0.08,0.08,1.8,0,0,1,0.11,,64,4770,7,25,58,0.597,0.0,562,4.87,13.4,0.0,1,30.0,2.77,5.9,0,0,0,1,0,0,250,250,0,,,,,,,,,,,,,,,,
17704,1625562647740,,,,,,,,-0.01,0.07,1.84,0,-2,-1,0.07,,64,4749,7,25,58,0.597,0.0,565,4.83,13.4,0.0,1,29.8,2.76,5.9,0,0,0,1,0,0,250,250,0,,,,,,,,,,,,,,,,
17724,1625562647760,,,,,,,,0.04,-0.01,1.69,0,-0,-0,0.04,,64,4772,7,25,58,0.597,0.0,562,4.85,13.4,0.0,1,30.1,1.62,6.0,0,0,0,1,0,0,250,250,0,,,,,,,,,,,,,,,,
17744,1625562647780,2,3,43,48,33,33,0,0.02,-0.01,1.55,0,3,3,0.02,0,64,4740,7,25,58,0.597,0.0,562,4.84,13.3,0.0,1,29.6,1.61,6.0,0,0,0,1,0,0,250,250,0,52.959976,6.522209,0.0,7.1,8,2,1.7,0,0.0,-1,0.0,,0.0,0,0.0,0.2957
17764,1625562647800,,,,,,,,-0.05,0.02,1.49,0,5,5,0.05,,64,4751,7,25,58,0.596,0.0,575,4.81,13.3,0.0,1,30.3,1.63,6.0,0,0,0,1,0,0,250,250,0,,,,,,,,,,,,,,,,
17784,1625562647820,,,,,,,,-0.08,0.04,1.7,0,3,3,0.09,,64,4791,7,25,58,0.596,0.0,565,4.85,13.3,0.0,1,30.3,2.78,6.0,0,0,0,1,0,0,250,250,0,,,,,,,,,,,,,,,,
17804,1625562647840,,,,,,,,-0.05,0.06,1.89,0,-1,-0,0.08,,64,4784,7,25,58,0.597,0.0,561,4.83,13.4,0.0,1,30.2,2.78,6.0,0,0,0,1,0,0,250,250,0,,,,,,,,,,,,,,,,
17824,1625562647860,,,,,,,,0.03,0.03,1.74,0,-2,-2,0.04,,64,4803,7,25,58,0.597,0.0,566,4.83,13.4,0.0,1,30.5,2.79,6.1,0,0,0,1,0,0,250,250,0,,,,,,,,,,,,,,,,
17844,1625562647880,2,3,43,47,33,33,1,0.03,-0.01,1.59,0,1,1,0.03,0,64,4807,7,25,58,0.597,0.0,562,4.85,13.4,0.0,1,30.5,1.64,6.1,0,0,0,1,0,0,250,250,0,52.959976,6.522209,0.0,7.1,8,2,1.7,0,0.0,-1,0.0,0.0,0.0,0,0.0,0.2974
17864,1625562647900,,,,,,,,-0.03,0.0,1.46,0,4,4,0.03,,64,4778,7,25,58,0.596,0.0,572,4.81,13.2,0.0,1,30.3,2.78,6.1,0,0,0,1,0,0,250,250,0,,,,,,,,,,,,,,,,
17884,1625562647920,,,,,,,,-0.07,0.03,1.67,0,2,2,0.08,,64,4797,7,25,58,0.596,0.0,566,4.87,13.2,0.0,1,30.4,2.79,6.1,0,0,0,1,0,0,250,250,0,,,,,,,,,,,,,,,,
17904,1625562647940,,,,,,,,-0.05,0.06,1.86,0,-2,-1,0.08,,64,4803,7,25,58,0.596,0.0,560,4.87,13.4,0.0,1,30.5,2.79,6.1,0,0,0,1,0,0,250,250,0,,,,,,,,,,,,,,,,
17924,1625562647960,,,,,,,,0.02,0.03,1.71,0,-2,-2,0.03,,64,4783,7,25,58,0.597,0.0,567,4.83,13.5,0.0,1,30.2,2.78,6.1,0,0,0,1,0,0,250,250,0,,,,,,,,,,,,,,,,
17944,1625562647980,-0,3,43,47,33,33,1,0.05,-0.0,1.56,0,-0,-1,0.05,0,64,4745,8,25,59,0.597,0.0,563,4.85,13.4,0.0,1,30.0,1.61,6.1,0,0,0,1,0,0,250,250,0,52.959976,6.522209,0.0,7.1,8,2,1.7,0,0.0,-1,0.0,,0.0,0,0.0,0.2991
17964,1625562647992,,,,,,,,0.03,0.0,1.43,0,3,3,0.03,,64,4744,14,25,60,0.596,0.0,570,4.84,13.4,0.0,1,30.3,1.61,6.1,0,0,0,1,0,0,250,250,0,,,,,,,,,,,,,,,,
17984,1625562648012,,,,,,,,-0.03,0.02,1.52,0,3,4,0.04,,64,4783,22,25,64,0.597,0.0,571,4.85,13.1,0.0,1,32.0,1.76,6.1,0,0,0,1,0,0,250,250,0,,,,,,,,,,,,,,,,
18004,1625562648032,,,,,,,,-0.02,0.08,1.73,0,-0,0,0.08,,64,4957,29,25,72,0.597,0.0,566,4.8,13.4,0.0,1,36.6,5.57,6.1,0,0,0,1,0,0,250,250,0,,,,,,,,,,,,,,,,
18024,1625562648052,,,,,,,,0.03,0.01,1.58,0,-1,-0,0.03,,64,5173,34,25,82,0.597,0.0,593,4.82,13.4,0.0,1,40.0,2.67,13.5,0,0,0,1,0,0,250,250,0,,,,,,,,,,,,,,,,
18044,1625562648072,-0,3,43,47,33,33,1,0.04,0.05,1.78,0,-1,-1,0.07,0,64,5522,37,25,89,0.598,0.0,626,4.82,13.2,0.0,1,40.9,7.45,13.5,0,0,0,1,0,0,250,250,0,52.959976,6.522209,0.0,7.1,8,2,1.7,0,0.0,-1,0.0,0.0,0.0,0,0.0,0.3007
18064,1625562648100,,,,,,,,-0.05,0.03,1.64,0,4,5,0.06,,64,5912,38,25,92,0.598,0.0,637,4.8,13.2,0.0,1,40.0,3.85,13.5,0,0,0,1,0,0,250,250,0,,,,,,,,,,,,,,,,
18084,1625562648120,,,,,,,,-0.02,0.02,1.66,0,4,5,0.02,,64,6375,38,25,93,0.597,0.0,648,4.77,13.2,0.0,1,43.5,8.67,13.5,0,0,0,1,0,0,250,250,0,,,,,,,,,,,,,,,,
18104,1625562648140,,,,,,,,-0.01,0.06,1.52,0,4,4,0.06,,64,6873,37,25,93,0.597,0.0,648,4.87,13.4,0.0,1,48.6,7.85,13.5,0,0,0,1,0,0,250,250,0,,,,,,,,,,,,,,,,
18124,1625562648160,,,,,,,,-0.02,0.1,1.4,0,4,5,0.1,,64,7588,26,25,90,0.598,0.0,667,4.82,13.2,0.0,1,41.8,3.89,25.7,0,0,0,1,0,0,250,250,0,,,,,,,,,,,,,,,,
18144,1625562648180,0,2,43,45,33,33,2,-0.02,0.12,1.28,1,5,7,0.13,0,64,8169,13,26,83,0.598,0.0,680,4.77,13.2,0.0,1,37.9,3.8,25.7,0,0,0,1,0,0,250,250,0,52.959976,6.522209,0.0,7.1,8,2,1.7,0,0.0,-1,0.0,,0.0,0,0.0,0.3024
18164,1625562648200,,,,,,,,-0.02,0.1,1.37,0,5,6,0.11,,64,8522,7,26,72,0.598,0.0,680,4.81,13.2,0.0,1,42.9,6.93,25.7,0,0,0,1,0,0,250,250,0,,,,,,,,,,,,,,,,
18184,1625562648220,,,,,,,,0.0,0.06,1.59,0,2,2,0.06,,64,8573,7,26,63,0.598,0.0,691,4.84,13.3,0.0,1,43.7,3.4,25.7,0,0,0,1,0,0,250,250,0,,,,,,,,,,,,,,,,
18204,1625562648240,,,,,,,,-0.01,0.03,1.45,0,3,4,0.03,,64,8453,7,26,57,0.598,0.0,689,4.89,13.2,0.0,1,40.9,3.16,25.7,0,0,0,1,0,0,250,250,0,,,,,,,,,,,,,,,,
18224,1625562648260,,,,,,,,-0.02,-0.02,1.54,0,2,3,0.03,,64,8307,7,26,53,0.598,0.0,678,4.83,13.3,0.0,1,38.0,2.86,11.7,0,0,0,1,0,0,250,250,0,,,,,,,,,,,,,,,,
18244,1625562648280,1,1,43,48,33,33,0,-0.01,-0.01,1.42,0,3,4,0.01,0,64,8252,7,26,49,0.598,0.0,690,4.82,13.3,0.0,1,37.1,2.71,11.7,0,0,0,1,0,0,250,250,0,52.959976,6.522209,0.0,7.1,8,2,1.7,0,0.0,-1,0.0,0.0,0.0,0,0.0,0.3041
18264,1625562648300,,,,,,,,0.01,-0.03,1.63,0,1,1,0.03,,64,8047,7,26,46,0.599,0.0,680,4.82,13.3,0.0,1,35.9,2.44,11.7,0,0,0,1,0,0,250,250,0,,,,,,,,,,,,,,,,
18284,1625562648320,,,,,,,,-0.03,0.03,1.49,0,2,3,0.04,,64,7832,7,26,44,0.599,0.0,674,4.89,13.2,0.0,1,34.0,2.34,11.7,0,0,0,1,0,0,250,250,0,,,,,,,,,,,,,,,,
18304,1625562648340,,,,,,,,-0.08,0.07,1.37,0,4,6,0.1,,64,7575,7,26,43,0.6,0.0,673,4.91,13.3,0.0,1,33.1,2.32,11.7,0,0,0,1,0,0,250,250,0,,,,,,,,,,,,,,,,
18324,1625562648360,,,,,,,,-0.12,0.06,1.25,0,6,8,0.14,,64,7358,7,26,42,0.602,0.0,675,4.82,13.2,0.0,1,32.3,2.32,8.1,0,0,0,1,0,0,250,250,0,,,,,,,,,,,,,,,,
18344,1625562648380,0,4,43,46,33,33,0,-0.1,0.07,1.42,0,5,5,0.12,0,64,7186,7,26,42,0.602,0.0,667,4.85,13.4,0.0,1,32.0,2.31,8.1,0,0,0,1,0,0,250,250,0,52.959976,6.522209,0.0,7.1,8,2,1.7,0,0.0,-1,0.0,,0.0,0,0.0,0.3057
18364,1625562648400,,,,,,,,-0.04,0.03,1.64,0,3,4,0.05,,64,6962,7,26,42,0.603,0.0,673,4.79,13.3,0.0,1,31.8,2.3,8.1,0,0,0,1,0,0,250,250,0,,,,,,,,,,,,,,,,
18384,1625562648420,,,,,,,,-0.1,0.03,1.5,0,5,6,0.1,,64,6739,7,26,42,0.603,0.0,663,4.8,13.1,0.0,1,31.4,2.31,8.1,0,0,0,1,0,0,250,250,0,,,,,,,,,,,,,,,,
18404,1625562648440,,,,,,,,-0.07,0.06,1.69,0,3,4,0.09,,64,6562,7,26,42,0.603,0.0,656,4.81,13.4,0.0,1,31.1,2.32,8.1,0,0,0,1,0,0,250,250,0,,,,,,,,,,,,,,,,
18424,1625562648460,,,,,,,,0.02,0.03,1.88,0,-0,1,0.04,,64,6377,7,26,43,0.605,0.0,652,4.88,13.4,0.0,1,31.1,2.32,7.0,0,0,0,1,0,0,250,250,0,,,,,,,,,,,,,,,,
18444,1625562648480,-0,3,43,47,33,33,0,0.06,0.01,1.81,0,-1,0,0.06,0,64,6192,7,26,43,0.605,0.0,645,4.83,13.3,0.0,1,30.8,1.18,7.0,0,0,0,1,0,0,250,250,0,52.959976,6.522209,0.0,7.1,8,2,1.7,0,0.0,-1,0.0,0.0,0.0,0,0.0,0.3074
18464,1625562648499,,,,,,,,0.08,-0.02,1.66,0,-1,-0,0.09,,64,6000,7,26,44,0.605,0.0,647,4.81,13.3,0.0,1,30.5,2.33,7.0,0,0,0,1,0,0,250,250,0,,,,,,,,,,,,,,,,
18484,1625562648519,,,,,,,,0.17,-0.03,1.85,0,-5,-4,0.17,,64,5804,7,26,45,0.606,0.0,651,4.85,13.3,0.0,1,30.4,1.28,7.0,0,0,0,1,0,0,250,250,0,,,,,,,,,,,,,,,,
18504,1625562648539,,,,,,,,0.26,-0.05,2.03,0,-12,-8,0.27,,64,5608,7,26,45,0.607,0.0,625,4.85,13.5,0.0,1,30.0,1.36,7.0,0,0,0,1,0,0,250,250,0,,,,,,,,,,,,,,,,
18524,1625562648559,,,,,,,,0.2,-0.04,2.2,0,-6,-3,0.21,,64,5409,7,26,46,0.607,0.0,621,4.79,13.3,0.0,1,29.9,2.62,6.5,0,0,0,1,0,0,250,250,0,,,,,,,,,,,,,,,,
18544,1625562648579,-0,3,43,47,33,33,1,0.16,-0.07,2.01,0,-7,-4,0.17,0,64,5265,7,26,47,0.606,0.0,622,4.83,13.4,0.0,1,30.0,1.56,6.5,0,0,0,1,0,0,250,250,0,52.959976,6.522209,0.0,7.1,8,2,1.7,0,0.0,-1,0.0,,0.0,0,0.0,0.3091
18564,1625562648599,,,,,,,,0.1,0.0,2.18,0,-3,-2,0.1,,64,5113,7,26,48,0.606,0.0,620,4.84,13.2,0.0,1,30.0,2.79,6.5,0,0,0,1,0,0,250,250,0,,,,,,,,,,,,,,,,
18584,1625562648619,,,,,,,,0.17,-0.03,2.0,-0,-6,-6,0.18,,64,4968,7,26,48,0.606,0.0,593,4.86,13.5,0.0,1,29.5,2.82,6.5,0,0,0,1,0,0,250,250,0,,,,,,,,,,,,,,,,
18604,1625562648639,,,,,,,,0.15,-0.05,1.83,0,-4,-3,0.16,,64,4833,8,26,49,0.606,0.0,592,4.82,13.4,0.0,1,28.1,1.61,6.5,0,0,0,1,0,0,250,250,0,,,,,,,,,,,,,,,,
18624,1625562648659,,,,,,,,0.09,-0.04,1.68,0,-1,1,0.1,,64,4757,14,26,51,0.604,0.0,571,4.83,13.3,0.0,1,27.8,1.59,6.0,0,0,0,1,0,0,250,250,0,,,,,,,,,,,,,,,,
18644,1625562648679,0,2,43,47,33,33,0,0.05,0.01,1.87,0,-0,1,0.05,0,64,4738,26,25,57,0.605,0.0,572,4.82,13.3,0.0,1,29.3,2.76,6.0,0,0,0,1,0,0,250,250,0,52.959976,6.522209,0.0,7.1,8,2,1.7,0,0.0,-1,0.0,0.0,0.0,0,0.0,0.3107
18664,1625562648699,,,,,,,,0.04,0.04,2.05,0,-1,-1,0.05,,64,4719,37,25,70,0.604,0.0,565,4.8,13.4,0.0,1,32.8,5.07,6.0,0,0,0,1,0,0,250,250,0,,,,,,,,,,,,,,,,
18684,1625562648719,,,,,,,,0.12,-0.0,1.88,-0,-5,-5,0.12,,64,5036,45,25,83,0.604,0.0,566,4.84,13.4,0.0,1,40.6,2.6,6.0,0,0,0,1,0,0,250,250,0,,,,,,,,,,,,,,,,
18704,1625562648739,,,,,,,,-0.01,-0.01,1.72,0,1,2,0.01,,64,5173,49,25,92,0.603,0.0,598,4.79,13.3,0.0,1,42.3,2.84,6.0,0,0,0,1,0,0,250,250,0,,,,,,,,,,,,,,,,
18724,1625562648759,,,,,,,,0.14,0.03,1.91,0,-8,-5,0.14,,64,5313,49,25,96,0.603,0.0,608,4.86,13.4,0.0,1,41.9,3.27,17.2,0,0,0,1,0,0,250,250,0,,,,,,,,,,,,,,,,
18744,1625562648779,1,4,43,47,33,32,-0,0.03,0.0,1.75,0,1,4,0.03,0,64,5583,49,25,96,0.602,0.0,626,4.76,13.2,0.0,1,41.0,3.65,17.2,0,0,0,1,0,0,250,250,0,52.959976,6.522209,0.0,7.1,8,2,1.7,0,0.0,-1,0.0,,0.0,0,0.0,0.3124
18764,1625562648800,,,,,,,,-0.05,0.03,1.6,0,3,4,0.06,,64,6027,49,25,96,0.601,0.0,638,4.8,13.1,0.0,1,39.9,4.22,17.2,0,0,0,1,0,0,250,250,0,,,,,,,,,,,,,,,,
18784,1625562648820,,,,,,,,0.0,0.07,1.8,0,5,6,0.07,,64,6634,42,25,95,0.601,0.0,650,4.77,13.3,0.0,1,46.2,8.39,17.2,0,0,0,1,0,0,250,250,0,,,,,,,,,,,,,,,,
18804,1625562648840,,,,,,,,-0.01,0.04,1.65,0,6,8,0.04,,64,7387,31,26,93,0.601,0.0,663,4.82,13.2,0.0,1,44.5,3.66,17.2,0,0,0,1,0,0,250,250,0,,,,,,,,,,,,,,,,
18824,1625562648860,,,,,,,,0.04,0.0,1.79,0,6,8,0.04,,64,7815,22,26,88,0.601,0.0,674,4.9,13.4,0.0,1,38.2,4.9,29.5,0,0,0,1,0,0,250,250,0,,,,,,,,,,,,,,,,
18844,1625562648880,1,3,43,47,33,33,2,0.03,0.03,1.78,0,4,4,0.04,0,64,8385,15,26,80,0.602,0.0,687,4.78,13.3,0.0,1,41.3,3.64,29.5,0,0,0,1,0,0,250,250,0,52.959976,6.522209,0.0,7.1,8,2,1.7,0,0.0,-1,0.0,0.0,0.0,0,0.0,0.3141
18864,1625562648899,,,,,,,,0.01,0.09,1.74,-0,3,1,0.09,,64,9097,11,26,71,0.602,0.0,695,4.85,13.3,0.0,1,41.3,3.89,29.5,0,0,0,1,0,0,250,250,0,,,,,,,,,,,,,,,,
18884,1625562648919,,,,,,,,0.04,0.24,1.6,-0,2,-0,0.24,,64,9650,9,26,62,0.602,0.0,700,4.78,13.2,0.0,1,41.3,3.64,29.5,0,0,0,1,0,0,250,250,0,,,,,,,,,,,,,,,,
18904,1625562648939,,,,,,,,0.03,0.12,1.47,-0,4,-0,0.13,,64,10124,9,26,55,0.602,0.0,710,4.77,13.3,0.0,1,40.2,2.5,29.5,0,0,0,1,0,0,250,250,0,,,,,,,,,,,,,,,,
18924,1625562648959,,,,,,,,-0.0,0.02,1.68,0,2,1,0.02,,64,10223,9,26,49,0.601,0.0,714,4.79,13.3,0.0,1,38.5,3.06,16.1,0,0,0,1,0,0,250,250,0,,,,,,,,,,,,,,,,
18944,1625562648979,-1,3,43,48,33,33,1,0.02,0.19,1.63,0,2,1,0.19,0,64,9973,9,26,46,0.601,0.0,716,4.84,13.2,0.0,1,37.2,1.68,16.1,0,0,0,1,0,0,250,250,0,52.959976,6.522209,0.0,7.1,8,2,1.7,0,0.0,-1,0.0,,0.0,0,0.0,0.3157
18964,1625562648991,,,,,,,,0.0,0.11,1.49,-0,3,0,0.11,,64,9750,9,26,43,0.6,0.0,708,4.77,13.3,0.0,1,35.0,2.82,16.1,0,0,0,1,0,0,250,250,0,,,,,,,,,,,,,,,,
18984,1625562649011,,,,,,,,0.04,0.19,1.39,0,4,3,0.19,,64,9488,9,26,41,0.599,0.0,702,4.77,13.2,0.0,1,33.4,2.86,16.1,0,0,0,1,0,0,250,250,0,,,,,,,,,,,,,,,,
19004,1625562649031,,,,,,,,0.05,0.12,1.6,0,2,5,0.13,,64,9268,9,26,40,0.599,0.0,699,4.81,13.3,0.0,1,32.6,2.82,16.1,0,0,0,1,0,0,250,250,0,,,,,,,,,,,,,,,,
19024,1625562649051,,,,,,,,0.04,-0.01,1.8,1,3,5,0.04,,64,9040,9,26,38,0.598,0.0,695,4.82,13.3,0.0,1,31.7,2.72,11.8,0,0,0,1,0,0,250,250,0,,,,,,,,,,,,,,,,
19044,1625562649071,-1,1,43,48,33,33,1,0.03,-0.08,1.98,1,2,5,0.08,0,64,8815,9,26,38,0.597,0.0,697,4.82,13.3,0.0,1,31.7,2.68,11.8,0,0,0,1,0,0,250,250,0,52.959976,6.522209,0.0,7.1,8,2,1.7,0,0.0,-1,0.0,0.0,0.0,0,0.0,0.3174
19064,1625562649099,,,,,,,,0.04,-0.12,1.81,1,4,8,0.12,,64,8589,9,26,37,0.597,0.0,687,4.8,13.3,0.0,1,31.4,2.68,11.8,0,0,0,1,0,0,250,250,0,,,,,,,,,,,,,,,,
19084,1625562649119,,,,,,,,-0.0,-0.1,1.66,1,3,7,0.1,,64,8385,9,26,37,0.597,0.0,687,4.85,13.4,0.0,1,31.1,2.57,11.8,0,0,0,1,0,0,250,250,0,,,,,,,,,,,,,,,,
19104,1625562649139,,,,,,,,0.02,-0.08,1.52,1,4,9,0.08,,64,8145,9,26,37,0.597,0.0,687,4.91,13.2,0.0,1,30.6,2.39,11.8,0,0,0,1,0,0,250,250,0,,,,,,,,,,,,,,,,
19124,1625562649159,,,,,,,,0.06,-0.09,1.73,1,2,6,0.11,,64,7948,9,26,37,0.597,0.0,675,4.76,13.4,0.0,1,30.4,1.06,8.7,0,0,0,1,0,0,250,250,0,,,,,,,,,,,,,,,,
19144,1625562649179,1,1,43,46,33,33,1,0.04,-0.03,1.59,1,1,5,0.05,0,64,7741,9,26,37,0.597,0.0,667,4.85,13.4,0.0,1,30.4,2.21,8.7,0,0,0,1,0,0,250,250,0,52.959976,6.522209,0.0,7.1,8,2,1.7,0,0.0,-1,0.0,,0.0,0,0.0,0.3191
19164,1625562649199,,,,,,,,-0.01,-0.0,1.45,1,1,5,0.01,,64,7530,9,26,38,0.597,0.0,667,4.9,13.4,0.0,1,30.7,1.11,8.7,0,0,0,1,0,0,250,250,0,,,,,,,,,,,,,,,,
19184,1625562649219,,,,,,,,-0.02,0.01,1.34,0,-0,3,0.02,,64,7318,10,26,39,0.598,0.0,661,4.86,13.4,0.0,1,31.0,2.26,8.7,0,0,0,1,0,0,250,250,0,,,,,,,,,,,,,,,,
19204,1625562649239,,,,,,,,0.04,0.02,1.56,0,-2,1,0.05,,64,7110,10,26,39,0.599,0.0,670,4.78,13.3,0.0,1,31.0,2.32,8.7,0,0,0,1,0,0,250,250,0,,,,,,,,,,,,,,,,
19224,1625562649259,,,,,,,,-0.02,0.02,1.43,0,1,4,0.03,,64,7009,11,26,41,0.599,0.0,664,4.84,13.3,0.0,1,31.6,2.31,7.6,0,0,0,1,0,0,250,250,0,,,,,,,,,,,,,,,,
19244,1625562649279,-0,1,43,47,33,33,1,0.0,0.04,1.49,0,-1,2,0.04,0,64,6913,12,26,42,0.6,0.0,658,4.9,13.4,0.0,1,31.7,1.15,7.6,0,0,0,1,0,0,250,250,0,52.959976,6.522209,0.0,7.1,8,2,1.7,0,0.0,-1,0.0,0.0,0.0,0,0.0,0.3207
19264,1625562649299,,,,,,,,0.03,0.07,1.62,0,0,3,0.08,,64,6781,13,26,44,0.601,0.0,655,4.88,13.4,0.0,1,32.0,2.3,7.6,0,0,0,1,0,0,250,250,0,,,,,,,,,,,,,,,,
19284,1625562649319,,,,,,,,0.02,0.04,1.48,0,-1,1,0.05,,64,6710,13,26,46,0.602,0.0,658,4.83,13.3,0.0,1,32.4,2.29,7.6,0,0,0,1,0,0,250,250,0,,,,,,,,,,,,,,,,
19304,1625562649339,,,,,,,,0.06,0.08,1.64,0,0,2,0.1,,64,6825,14,26,47,0.602,0.0,654,4.78,13.4,0.0,1,33.0,2.27,7.6,0,0,0,1,0,0,250,250,0,,,,,,,,,,,,,,,,
19324,1625562649359,,,,,,,,-0.02,0.02,1.51,0,2,2,0.03,,64,6911,14,26,49,0.604,0.0,656,4.89,13.3,0.0,1,33.8,1.11,7.2,0,0,0,1,0,0,250,250,0,,,,,,,,,,,,,,,,
19344,1625562649379,1,3,43,46,33,33,0,0.04,0.04,1.71,0,-1,-0,0.06,0,64,7025,14,26,50,0.604,0.0,655,4.9,13.5,0.0,1,34.4,2.25,7.2,0,0,0,1,0,0,250,250,0,52.959976,6.522209,0.0,7.1,8,2,1.7,0,0.0,-1,0.0,,0.0,0,0.0,0.3224
19364,1625562649399,,,,,,,,0.06,-0.02,1.64,0,-0,1,0.06,,64,7088,14,26,51,0.604,0.0,668,4.78,13.2,0.0,1,34.9,2.27,7.2,0,0,0,1,0,0,250,250,0,,,,,,,,,,,,,,,,
19384,1625562649419,,,,,,,,-0.0,-0.0,1.5,0,1,3,0.0,,64,7129,14,26,52,0.605,0.0,662,4.87,13.4,0.0,1,35.3,2.28,7.2,0,0,0,1,0,0,250,250,0,,,,,,,,,,,,,,,,
19404,1625562649439,,,,,,,,-0.02,-0.02,1.38,0,1,3,0.03,,64,7181,14,25,53,0.605,0.0,664,4.87,13.3,0.0,1,35.7,2.3,7.2,0,0,0,1,0,0,250,250,0,,,,,,,,,,,,,,,,
19424,1625562649459,,,,,,,,0.01,0.01,1.59,0,-1,-0,0.02,,64,7222,14,25,53,0.606,0.0,663,4.82,13.5,0.0,1,35.8,2.31,7.6,0,0,0,1,0,0,250,250,0,,,,,,,,,,,,,,,,
19444,1625562649479,-0,3,43,46,33,33,1,0.07,0.02,1.79,0,-2,-1,0.07,0,64,7244,15,25,54,0.606,0.0,666,4.82,13.5,0.0,1,36.1,1.17,7.6,0,0,0,1,0,0,250,250,0,52.959976,6.522209,0.0,7.1,8,2,1.7,0,0.0,-1,0.0,0.0,0.0,0,0.0,0.3241
19464,1625562649498,,,,,,,,0.09,-0.03,1.79,0,-2,-1,0.1,,64,7273,17,25,55,0.606,0.0,656,4.88,13.4,0.0,1,36.4,2.36,7.6,0,0,0,1,0,0,250,250,0,,,,,,,,,,,,,,,,
19484,1625562649518,,,,,,,,0.07,-0.03,1.7,0,-1,1,0.08,,64,7261,20,25,58,0.607,0.0,673,4.78,13.3,0.0,1,37.3,2.42,7.6,0,0,0,1,0,0,250,250,0,,,,,,,,,,,,,,,,
19504,1625562649538,,,,,,,,0.01,-0.03,1.56,0,1,3,0.03,,64,7167,21,25,61,0.607,0.0,664,4.88,13.4,0.0,1,38.2,2.55,7.6,0,0,0,1,0,0,250,250,0,,,,,,,,,,,,,,,,
19524,1625562649558,,,,,,,,0.05,-0.01,1.76,0,-1,0,0.05,,64,7033,23,25,64,0.609,0.0,665,4.9,13.4,0.0,1,39.3,1.8,8.4,0,0,0,1,0,0,250,250,0,,,,,,,,,,,,,,,,
19544,1625562649578,1,3,43,45,33,33,1,0.05,-0.03,1.69,0,-0,2,0.06,0,64,6835,23,26,67,0.609,0.0,668,4.79,13.2,0.0,1,39.4,3.33,8.4,0,0,0,1,0,0,250,250,0,52.959976,6.522209,0.0,7.1,8,2,1.7,0,0.0,-1,0.0,,0.0,0,0.0,0.3257
19564,1625562649600,,,,,,,,0.08,-0.03,1.68,0,-2,-1,0.09,,64,6670,23,25,70,0.61,0.0,662,4.76,13.3,0.0,1,39.4,3.6,8.4,0,0,0,1,0,0,250,250,0,,,,,,,,,,,,,,,,
19584,1625562649620,,,,,,,,-0.02,-0.02,1.54,0,1,2,0.03,,64,6494,24,25,73,0.61,0.0,658,4.71,13.2,0.0,1,39.1,3.81,8.4,0,0,0,1,0,0,250,250,0,,,,,,,,,,,,,,,,
19604,1625562649640,,,,,,,,0.04,-0.04,1.75,0,-1,1,0.05,,64,6521,24,25,75,0.611,0.0,638,4.82,13.5,0.0,1,39.8,3.95,8.4,0,0,0,1,0,0,250,250,0,,,,,,,,,,,,,,,,
19624,1625562649660,,,,,,,,-0.0,-0.03,1.6,0,0,1,0.03,,64,6679,24,26,76,0.612,0.0,663,4.8,13.2,0.0,1,41.5,2.82,12.0,0,0,0,1,0,0,250,250,0,,,,,,,,,,,,,,,,
19644,1625562649680,-1,2,43,47,33,33,1,0.06,-0.0,1.8,0,-1,-0,0.06,0,64,6840,24,26,77,0.613,0.0,650,4.9,13.5,0.0,1,42.4,2.8,12.0,0,0,0,1,0,0,250,250,0,52.959976,6.522209,0.0,7.1,8,2,1.7,0,0.0,-1,0.0,0.0,0.0,0,0.0,0.3274
19664,1625562649698,,,,,,,,-0.02,-0.01,1.65,0,1,2,0.02,,64,6954,24,26,77,0.613,0.0,666,4.82,13.2,0.0,1,43.1,2.77,12.0,0,0,0,1,0,0,250,250,0,,,,,,,,,,,,,,,,
19684,1625562649718,,,,,,,,0.04,0.01,1.85,0,-1,-1,0.05,,64,6988,24,26,78,0.614,0.0,658,4.85,13.4,0.0,1,43.7,3.92,12.0,0,0,0,1,0,0,250,250,0,,,,,,,,,,,,,,,,
19704,1625562649738,,,,,,,,0.07,0.0,1.86,0,-1,-0,0.07,,64,7051,24,26,79,0.616,0.0,674,4.77,13.3,0.0,1,43.8,3.95,12.0,0,0,0,1,0,0,250,250,0,,,,,,,,,,,,,,,,
19724,1625562649758,,,,,,,,0.01,0.02,1.7,0,0,1,0.02,,64,6980,24,26,79,0.616,0.0,662,4.83,13.2,0.0,1,43.9,2.78,12.7,0,0,0,1,0,0,250,250,0,,,,,,,,,,,,,,,,
19744,1625562649778,1,1,43,47,33,33,1,0.05,0.01,1.88,0,-1,-1,0.05,0,64,6959,24,26,80,0.616,0.0,656,4.85,13.4,0.0,1,44.2,2.81,12.7,0,0,0,1,0,0,250,250,0,52.959976,6.522209,0.0,7.1,8,2,1.7,0,0.0,-1,0.0,,0.0,0,0.0,0.3291
19764,1625562649800,,,,,,,,0.07,0.06,1.9,0,-2,-1,0.09,,64,6962,24,26,79,0.615,0.0,667,4.8,13.3,0.0,1,43.8,3.96,12.7,0,0,0,1,0,0,250,250,0,,,,,,,,,,,,,,,,
19784,1625562649820,,,,,,,,0.01,0.01,1.74,0,1,1,0.02,,64,6949,24,26,80,0.614,0.0,666,4.81,13.2,0.0,1,44.1,2.81,12.7,0,0,0,1,0,0,250,250,0,,,,,,,,,,,,,,,,
19804,1625562649840,,,,,,,,0.07,0.04,1.93,0,-2,-1,0.08,,64,6895,24,26,80,0.614,0.0,651,4.88,13.4,0.0,1,43.7,2.83,12.7,0,0,0,1,0,0,250,250,0,,,,,,,,,,,,,,,,
19824,1625562649860,,,,,,,,-0.01,0.01,1.77,0,1,2,0.02,,64,6810,24,26,80,0.613,0.0,658,4.81,13.2,0.0,1,43.2,4.0,12.7,0,0,0,1,0,0,250,250,0,,,,,,,,,,,,,,,,
19844,1625562649880,1,1,43,47,33,33,1,0.08,0.01,1.95,0,-3,-1,0.08,0,64,6713,24,26,80,0.613,0.0,650,4.88,13.4,0.0,1,42.5,2.91,12.7,0,0,0,1,0,0,250,250,0,52.959976,6.522209,0.0,7.1,8,2,1.7,0,0.0,-1,0.0,0.0,0.0,0,0.0,0.3307
19864,1625562649900,,,,,,,,-0.02,0.03,1.79,0,1,2,0.03,,64,6718,24,26,80,0.613,0.0,654,4.78,13.3,0.0,1,42.5,4.06,12.7,0,0,0,1,0,0,250,250,0,,,,,,,,,,,,,,,,
19884,1625562649920,,,,,,,,0.06,0.01,1.97,0,-3,-1,0.06,,64,6759,24,26,80,0.614,0.0,656,4.87,13.4,0.0,1,42.8,2.89,12.7,0,0,0,1,0,0,250,250,0,,,,,,,,,,,,,,,,
19904,1625562649940,,,,,,,,0.01,0.05,1.81,0,-1,1,0.05,,64,6921,24,26,80,0.614,0.0,668,4.78,13.2,0.0,1,43.9,3.99,12.7,0,0,0,1,0,0,250,250,0,,,,,,,,,,,,,,,,
19924,1625562649960,,,,,,,,0.01,0.03,1.66,0,0,2,0.03,,64,7048,24,26,81,0.615,0.0,662,4.87,13.4,0.0,1,44.5,3.97,12.7,0,0,0,1,0,0,250,250,0,,,,,,,,,,,,,,,,
19944,1625562649980,0,2,43,46,33,33,1,0.05,0.07,1.85,0,-2,-1,0.09,0,64,7208,24,26,81,0.614,0.0,660,4.91,13.4,0.0,1,43.1,2.94,12.7,0,0,0,1,0,0,250,250,0,52.959976,6.522209,0.0,7.1,8,2,1.7,0,0.0,-1,0.0,,0.0,0,0.0,0.3324
19964,1625562649992,,,,,,,,0.07,0.08,1.99,0,-3,-2,0.11,,64,7479,24,26,81,0.613,0.0,662,4.86,13.4,0.0,1,40.9,4.28,12.7,0,0,0,1,0,0,250,250,0,,,,,,,,,,,,,,,,
19984,1625562650012,,,,,,,,0.04,0.07,1.83,0,-2,-0,0.08,,64,7838,24,26,80,0.613,0.0,668,4.79,13.5,0.0,1,38.2,3.32,12.7,0,0,0,1,0,0,250,250,0,,,,,,,,,,,,,,,,
20004,1625562650032,,,,,,,,0.07,0.09,1.67,0,-1,2,0.11,,64,8370,24,26,77,0.612,0.0,686,4.85,13.4,0.0,1,41.5,4.57,12.7,0,0,0,1,0,0,250,250,0,,,,,,,,,,,,,,,,
20024,1625562650052,,,,,,,,0.07,0.1,1.53,1,0,4,0.13,,64,8886,24,26,74,0.612,0.0,686,4.68,13.3,0.0,1,41.4,4.21,17.5,0,0,0,1,0,0,250,250,0,,,,,,,,,,,,,,,,
20044,1625562650072,0,3,44,48,33,33,-0,0.11,0.1,1.41,1,0,4,0.16,0,64,9537,24,26,71,0.612,0.0,703,4.79,13.3,0.0,1,41.5,3.97,17.5,0,0,0,1,0,0,250,250,0,52.959976,6.522209,0.0,7.1,8,2,1.7,0,0.0,-1,0.0,0.0,0.0,0,0.0,0.3341
20064,1625562650100,,,,,,,,0.1,0.16,1.3,1,3,6,0.19,,64,9968,25,26,68,0.61,0.0,700,4.78,13.3,0.0,1,39.7,4.16,17.5,0,0,0,1,0,0,250,250,0,,,,,,,,,,,,,,,,
20084,1625562650120,,,,,,,,0.1,0.04,1.52,1,0,3,0.11,,64,10451,28,26,66,0.609,0.0,706,4.8,13.3,0.0,1,42.8,4.29,17.5,0,0,0,1,0,0,250,250,0,,,,,,,,,,,,,,,,
20104,1625562650140,,,,,,,,0.06,-0.05,1.39,1,3,5,0.07,,64,10907,29,26,66,0.607,0.0,717,4.82,13.2,0.0,1,43.5,3.19,17.5,0,0,0,1,0,0,250,250,0,,,,,,,,,,,,,,,,
20124,1625562650160,,,,,,,,0.11,-0.12,1.61,0,1,1,0.16,,64,11343,29,26,67,0.606,0.0,734,4.79,13.2,0.0,1,43.2,4.35,22.2,0,0,0,1,0,0,250,250,0,,,,,,,,,,,,,,,,
20144,1625562650180,0,4,43,46,33,32,1,0.07,-0.02,1.81,0,2,0,0.07,0,64,11653,29,26,67,0.604,0.0,742,4.8,13.2,0.0,1,43.2,3.21,22.2,0,0,0,1,0,0,250,250,0,52.959976,6.522209,0.0,7.1,8,2,1.7,0,0.0,-1,0.0,,0.0,0,0.0,0.3357
20164,1625562650200,,,,,,,,0.03,0.08,1.98,0,2,2,0.09,,64,11912,29,26,67,0.602,0.0,733,4.8,13.2,0.0,1,43.2,4.36,22.2,0,0,0,1,0,0,250,250,0,,,,,,,,,,,,,,,,
20184,1625562650220,,,,,,,,-0.03,0.13,2.15,0,2,3,0.13,,64,12214,29,26,67,0.601,0.0,735,4.81,13.2,0.0,1,43.2,4.35,22.2,0,0,0,1,0,0,250,250,0,,,,,,,,,,,,,,,,
20204,1625562650240,,,,,,,,-0.01,0.11,2.21,0,0,2,0.11,,64,12466,29,26,68,0.6,0.0,748,4.78,13.2,0.0,1,43.0,4.34,22.2,0,0,0,1,0,0,250,250,0,,,,,,,,,,,,,,,,
20224,1625562650260,,,,,,,,0.04,0.02,2.09,0,-1,-1,0.04,,64,12703,29,26,67,0.6,0.0,753,4.8,13.2,0.0,1,43.1,4.3,25.2,0,0,0,1,0,0,250,250,0,,,,,,,,,,,,,,,,
20244,1625562650280,1,1,44,46,33,32,2,-0.01,0.06,1.92,0,-0,1,0.06,0,64,12939,29,26,67,0.601,0.7,751,4.79,13.1,0.0,1,43.1,4.29,25.2,0,0,0,1,0,0,-1281,250,0,52.959976,6.522209,0.0,7.1,8,2,1.7,0,0.0,-1,0.0,0.0,0.0,0,0.0,0.3374
20264,1625562650300,,,,,,,,-0.02,0.01,1.95,0,0,-0,0.02,,64,13057,29,26,67,0.601,0.7,749,4.76,13.2,0.0,1,43.0,4.22,25.2,0,0,0,1,0,0,-1281,250,0,,,,,,,,,,,,,,,,
20284,1625562650320,,,,,,,,0.05,-0.03,1.93,0,-1,-0,0.06,,64,13111,29,26,66,0.602,0.9,753,4.81,13.3,0.0,1,43.0,4.22,25.2,0,0,0,1,0,0,-1281,250,9,,,,,,,,,,,,,,,,
20304,1625562650340,,,,,,,,0.1,0.0,1.78,0,-1,-0,0.1,,64,13130,28,26,65,0.602,0.9,746,4.81,13.2,0.0,1,43.0,4.17,25.2,0,0,0,1,0,12,-1281,250,9,,,,,,,,,,,,,,,,
20324,1625562650360,,,,,,,,0.09,-0.01,1.76,0,-1,1,0.09,,64,13084,26,26,64,0.603,0.9,753,4.8,13.2,0.0,1,43.0,4.11,25.3,0,0,0,1,0,12,-1281,-1,9,,,,,,,,,,,,,,,,
20344,1625562650380,0,2,44,49,32,32,0,0.09,-0.02,1.61,0,-1,-1,0.09,0,64,12993,25,26,63,0.603,0.9,747,4.82,13.3,0.0,1,43.1,4.06,25.3,0,0,0,1,0,12,-1281,-1,9,52.959976,6.522209,0.0,7.1,8,2,1.7,0,0.0,-1,0.0,,0.0,0,0.0,0.3391
20364,1625562650401,,,,,,,,0.13,-0.0,1.48,0,-1,1,0.13,,64,12868,24,26,61,0.603,1.7,740,4.78,13.2,0.0,1,43.2,4.02,25.3,0,0,0,1,0,12,9731,-1,9,,,,,,,,,,,,,,,,
20384,1625562650421,,,,,,,,0.13,-0.05,1.5,0,-1,-0,0.14,,64,12737,24,26,60,0.605,2.0,747,4.78,13.2,0.0,1,42.8,4.06,25.3,0,0,0,1,0,12,9731,-1,20,,,,,,,,,,,,,,,,
20404,1625562650441,,,,,,,,0.19,0.03,1.57,0,-2,-1,0.19,,64,12541,24,26,59,0.604,2.0,747,4.79,13.2,0.0,1,42.5,4.09,25.3,0,0,0,1,0,25,9731,-1,20,,,,,,,,,,,,,,,,
20424,1625562650461,,,,,,,,0.26,-0.01,1.44,1,-2,-1,0.26,,64,12359,24,26,59,0.603,2.0,751,4.86,13.2,0.0,1,42.6,4.16,23.8,0,0,0,1,0,25,9731,-235,20,,,,,,,,,,,,,,,,
20444,1625562650481,-1,3,45,50,32,32,2,0.27,-0.12,1.37,1,-2,-1,0.3,0,64,12214,24,26,58,0.603,3.1,731,4.8,13.2,0.0,1,42.2,4.14,23.8,0,0,0,1,0,25,-1,-235,33,52.959976,6.522209,0.0,7.1,8,2,1.7,0,0.0,-1,0.0,0.0,0.0,0,0.0,0.3407
20464,1625562650499,,,,,,,,0.26,-0.2,1.25,1,-3,-1,0.32,,64,12096,24,26,58,0.604,3.3,734,4.82,13.2,0.0,1,42.2,4.17,23.8,0,0,0,1,0,35,-1,-235,33,,,,,,,,,,,,,,,,
20484,1625562650519,,,,,,,,0.23,-0.27,1.15,1,-3,-1,0.35,,64,11973,24,26,59,0.604,3.3,734,4.83,13.2,0.0,1,42.8,4.27,23.8,0,0,0,1,0,35,-1,-1,33,,,,,,,,,,,,,,,,
20504,1625562650539,,,,,,,,0.24,-0.35,1.05,1,-3,-1,0.43,,64,11859,24,26,59,0.603,4.1,725,4.78,13.3,0.0,1,42.8,4.27,23.8,0,0,0,1,0,35,1018,-1,41,,,,,,,,,,,,,,,,
20524,1625562650559,,,,,,,,0.31,-0.41,0.98,1,-5,-2,0.51,,64,11704,24,26,58,0.603,4.1,726,4.78,13.3,565.8,1,42.2,4.16,23.2,0,0,0,1,0,44,1018,-1,41,,,,,,,,,,,,,,,,
20544,1625562650579,0,3,46,50,32,31,1,0.36,-0.37,1.16,1,-6,-3,0.51,0,64,11609,24,26,59,0.603,4.8,733,4.82,13.1,565.8,1,42.8,4.25,23.2,0,0,0,1,0,44,-1,-1,41,52.95998,6.522205,1.7,9.4,8,2,1.7,0,0.0,-1,0.0,,0.0,0,0.0,0.3424
20564,1625562650599,,,,,,,,0.34,-0.24,1.4,1,-6,-4,0.42,,64,11538,24,26,58,0.603,4.8,729,4.8,13.2,565.8,1,42.2,4.15,23.2,0,0,0,1,0,51,-1,-1,48,,,,,,,,,,,,,,,,
20584,1625562650619,,,,,,,,0.35,-0.33,1.58,1,-6,-4,0.49,,64,11460,24,26,59,0.603,5.4,724,4.8,13.2,565.8,1,42.9,4.24,23.2,0,0,0,1,0,51,-1,-1,48,,,,,,,,,,,,,,,,
20604,1625562650639,,,,,,,,0.36,-0.3,1.45,1,-5,-2,0.47,,64,11398,24,26,59,0.604,5.6,724,4.79,13.2,565.8,1,43.0,4.22,23.2,0,0,0,1,0,57,-1,-1,56,,,,,,,,,,,,,,,,
20624,1625562650659,,,,,,,,0.3,-0.22,1.33,1,-3,-1,0.37,,64,11336,24,26,58,0.604,6.0,724,4.82,13.3,396.4,1,42.5,4.12,22.2,0,0,0,1,0,57,-1,-1,56,,,,,,,,,,,,,,,,
20644,1625562650679,-0,3,47,48,32,31,2,0.36,-0.31,1.55,1,-5,-4,0.48,0,64,11274,24,26,58,0.605,6.0,729,4.81,13.3,396.4,1,42.5,4.12,22.2,0,0,0,1,0,63,-1,250,60,52.95998,6.522205,3.49,9.4,8,2,1.7,0,0.0,-1,0.0,0.0,0.0,0,0.0,0.3441
20664,1625562650699,,,,,,,,0.37,-0.11,1.72,1,-3,-3,0.39,,64,11220,24,26,58,0.607,6.7,726,4.8,13.3,396.4,1,42.6,4.11,22.2,0,0,0,1,0,68,-6656,250,67,,,,,,,,,,,,,,,,
20684,1625562650719,,,,,,,,0.4,-0.16,1.66,1,-2,-1,0.43,,64,11167,24,26,58,0.609,7.0,716,4.77,13.3,396.4,1,42.6,4.11,22.2,0,0,0,1,0,68,14228,-27648,67,,,,,,,,,,,,,,,,
20704,1625562650739,,,,,,,,0.39,-0.24,1.52,1,-2,-1,0.45,,65,11134,24,26,58,0.609,7.2,725,4.82,13.2,396.4,1,42.7,4.1,22.2,0,0,0,1,0,74,14228,-1481,72,,,,,,,,,,,,,,,,
20724,1625562650759,,,,,,,,0.42,-0.08,1.73,1,-4,-2,0.43,,65,11075,24,26,58,0.609,7.7,725,4.81,13.3,293.0,1,42.8,4.09,21.1,0,0,0,1,0,79,250,-1481,77,,,,,,,,,,,,,,,,
20744,1625562650779,0,3,47,51,32,30,1,0.41,-0.24,1.9,1,-2,-2,0.47,0,65,11029,24,26,58,0.609,7.8,719,4.78,13.3,293.0,1,42.8,4.09,21.1,0,0,0,1,0,79,14256,-1481,77,52.95998,6.522204,4.86,9.4,8,2,1.7,0,0.0,-1,0.0,,0.0,0,0.0,0.3457
20764,1625562650801,,,,,,,,0.41,-0.12,1.74,1,0,1,0.42,,65,10971,24,26,58,0.609,8.1,715,4.8,13.2,293.0,1,42.8,4.08,21.1,0,0,0,1,0,84,14256,250,81,,,,,,,,,,,,,,,,
20784,1625562650821,,,,,,,,0.45,0.06,1.93,1,-2,-1,0.45,,65,10856,24,26,58,0.609,8.7,721,4.77,13.2,293.0,1,42.8,4.06,21.1,0,0,0,1,0,89,-13312,14298,87,,,,,,,,,,,,,,,,
20804,1625562650841,,,,,,,,0.45,-0.11,2.03,1,-1,-0,0.46,,65,10720,24,26,58,0.609,9.1,709,4.83,13.3,293.0,1,42.8,4.03,21.1,0,0,0,1,0,94,-1481,-1481,91,,,,,,,,,,,,,,,,
20824,1625562650861,,,,,,,,0.47,-0.26,2.07,1,-4,-2,0.54,,65,10581,24,26,58,0.61,9.6,724,4.87,13.2,218.6,1,42.8,4.0,19.9,0,0,0,1,0,101,250,-1481,98,,,,,,,,,,,,,,,,
20844,1625562650881,1,1,48,51,32,30,2,0.44,-0.39,2.23,0,-5,-3,0.59,0,65,10451,24,26,57,0.611,10.3,712,4.84,13.2,218.6,1,41.9,3.89,19.9,0,0,0,1,0,106,-1482,13832,98,52.95998,6.522205,6.54,9.4,8,2,1.7,0,0.0,-1,0.0,0.0,0.0,0,0.0,0.3474
20864,1625562650901,,,,,,,,0.44,-0.52,2.25,0,-5,-6,0.68,,65,10324,24,26,57,0.609,10.6,709,4.87,13.2,218.6,1,41.5,3.86,19.9,0,0,0,1,0,110,13838,-1482,104,,,,,,,,,,,,,,,,
20884,1625562650921,,,,,,,,0.45,-0.48,2.39,1,-4,-4,0.66,,65,10190,24,26,57,0.608,11.2,709,4.79,13.3,218.6,1,41.0,3.83,19.9,0,0,0,1,0,115,250,250,108,,,,,,,,,,,,,,,,
20904,1625562650941,,,,,,,,0.52,-0.27,2.41,1,-6,-5,0.59,,65,10069,24,26,57,0.608,11.8,704,4.81,13.3,218.6,1,40.5,3.8,19.9,0,0,0,1,0,119,13856,250,112,,,,,,,,,,,,,,,,
20924,1625562650961,,,,,,,,0.49,-0.39,2.21,1,-4,-6,0.63,,65,9925,24,26,57,0.606,12.2,701,4.78,13.3,151.7,1,40.4,3.76,17.6,0,0,0,1,0,123,13862,250,122,,,,,,,,,,,,,,,,
20944,1625562650981,0,3,49,51,30,29,2,0.54,-0.33,2.36,1,-3,-3,0.63,0,65,9775,24,26,58,0.606,12.5,702,4.78,13.2,151.7,1,40.6,3.67,17.6,0,0,0,1,0,128,11264,-1,125,52.959976,6.522205,7.94,9.5,8,2,1.7,0,0.0,-1,0.0,,0.0,0,0.0,0.3491
20964,1625562650991,,,,,,,,0.53,-0.33,2.43,1,-5,-6,0.63,,65,9630,24,26,59,0.606,13.1,698,4.8,13.3,151.7,1,40.9,3.6,17.6,0,0,0,1,0,133,-1,-1,131,,,,,,,,,,,,,,,,
20984,1625562651011,,,,,,,,0.59,-0.16,2.23,1,-5,-3,0.61,,65,9455,24,26,60,0.607,13.4,702,4.81,13.2,151.7,1,41.0,3.47,17.6,0,0,0,1,0,139,-1,5140,134,,,,,,,,,,,,,,,,
21004,1625562651031,,,,,,,,0.63,-0.24,2.04,1,-4,-2,0.67,,65,9309,24,26,61,0.607,14.0,695,4.77,13.3,151.7,1,40.7,3.45,17.6,0,0,0,1,0,147,5140,-236,140,,,,,,,,,,,,,,,,
21024,1625562651051,,,,,,,,0.62,-0.32,1.98,1,-4,-3,0.7,,65,9146,24,26,62,0.608,14.7,697,4.75,13.2,107.1,1,40.2,3.49,15.0,0,0,0,1,0,150,-1,-1,143,,,,,,,,,,,,,,,,
21044,1625562651071,0,3,50,52,29,28,1,0.63,-0.42,2.01,1,-3,-5,0.76,0,65,9001,24,26,63,0.609,15.0,693,4.77,13.2,107.1,1,40.0,3.53,15.0,0,0,0,1,0,152,-1,-23552,149,52.959972,6.522205,9.86,9.6,8,2,1.7,0,0.0,-1,0.0,0.0,0.0,0,0.0,0.3507
