"Interval"|"ms"|0|0|1,"Utc"|"ms"|0|0|1,"FB_p"|"bar"|0|300|50,"Volant"|"F"|0.0|300.0|50,"xFR"|"mm"|0.0|5.0|50,"xRR"|"mm"|0.0|5.0|50,"xFL"|"mm"|0.0|5.0|50,"xRL"|"mm"|0.0|5.0|50,"AccelX"|"G"|-3.0|3.0|50,"AccelY"|"G"|-3.0|3.0|50,"AccelZ"|"G"|-3.0|3.0|50,"Yaw"|"Deg/Sec"|-120|120|50,"Pitch"|"Deg/Sec"|-120|120|50,"Roll"|"Deg/Sec"|-120|120|50,"Gsum"|"G"|0.0|3.0|50,"RPM"|""|0|14000|50,"TPS"|"%"|0|100|50,"WaterTemp"|"?C"|0|300|50,"AirTemp"|"?C"|-1000|1000|50,"MAP"|"KPa"|0|255|50,"Lambda"|""|0|1024|50,"WheelSpeed"|"MPH"|0.0|150.0|50,"OilPress"|"PSI"|0|150|50,"FuelPress"|"PSI"|0|150|50,"OilTemp"|"F"|0|300|50,"Battery"|"Volts"|0.0|20.0|50,"FuelCon"|"L/h"|-1000|1000|50,"Gear"|""|0|10|50,"Advance"|"Deg"|-360|360|50,"Injection"|"ms"|-1000|1000|50,"FuelCon"|"L/100km"|-1000|1000|50,"LC_But_Pres"|""|-1000|1000|50,"LC_Active"|""|-1000|1000|50,"RD_Speed"|""|-1000|1000|50,"RUD_Speed"|""|-1000|1000|50,"LD_Speed"|""|-1000|1000|50,"LUD_Speed"|""|-1000|1000|50,"Latitude"|"Degrees"|-180.0|180.0|10,"Longitude"|"Degrees"|-180.0|180.0|10,"Speed"|"kph"|0.0|150.0|10,"Altitude"|"m"|0.0|4000.0|10,"LapCount"|""|0|0|10,"LapTime"|"Min"|0.0|0.0|10,"Sector"|""|0|0|10,"SectorTime"|"Min"|0.0|0.0|10,"ElapsedTime"|"Min"|0.0|0.0|10,"CurrentLap"|""|0|0|10,"Distance"|"km"|0.0|0.0|10,"SessionTime"|"Min"|0.0|0.0|10
75264,1560699011675,28,2.28,1.64,3.57,1.57,5.05,1.2,-0.03,-0.12,4,0,6,1.2,7908,10,87,33,23,1002,523.0,610,449,60,117.0,85,1,269,154,46,0,0,375,-9212,-31744,520,,,,,,,,,,,,
75284,1560699011697,24,2.28,1.65,3.56,1.58,5.05,1.19,-0.11,-0.02,4,-0,5,1.19,7690,10,87,33,23,1003,515.0,606,450,60,116.0,85,1,266,154,46,0,0,364,-4054,-9166,516,,,,,,,,,,,,
75304,1560699011717,20,2.29,1.65,3.54,1.6,5.05,1.27,-0.11,0.02,4,-2,4,1.28,7548,10,87,33,23,1007,508.0,591,450,60,116.0,85,1,265,154,46,0,0,361,-22519,14488,506,,,,,,,,,,,,
75324,1560699011737,19,2.29,1.65,3.52,1.6,5.04,1.35,-0.14,0.13,3,-2,3,1.35,7364,10,87,33,23,1010,502.0,585,448,60,116.0,85,1,263,154,43,0,0,376,998,1,504,,,,,,,,,,,,
75344,1560699011757,20,2.28,1.64,3.53,1.6,5.08,1.41,-0.17,0.25,3,-2,3,1.42,7250,10,86,33,23,1023,498.0,577,447,60,117.0,85,1,262,154,43,0,0,388,-32768,-899,498,45.702064,4.910956,54.4,200.4,0,0.0,0,0.0,0.4033,1,0.32,1.2557
75364,1560699011777,17,2.28,1.63,3.51,1.58,5.06,1.32,-0.11,0.29,4,-1,3,1.33,7309,10,86,33,23,1035,490.0,567,453,60,118.0,85,1,263,154,43,0,0,371,-1818,20625,490,,,,,,,,,,,,
75384,1560699011797,17,2.27,1.63,3.53,1.58,5.04,1.22,-0.12,0.21,4,1,3,1.23,7350,10,86,33,23,1045,484.0,563,448,60,118.0,85,1,263,154,43,0,0,345,-10483,-3968,483,,,,,,,,,,,,
75404,1560699011817,18,2.25,1.64,3.52,1.59,5.05,1.09,-0.05,0.08,4,3,4,1.09,7281,10,86,34,23,1054,480.0,560,451,60,118.0,85,1,262,154,43,0,0,340,2212,-32702,479,,,,,,,,,,,,
75424,1560699011837,15,2.25,1.64,3.51,1.57,5.04,1.06,0.02,-0.07,3,2,4,1.06,7123,10,86,34,23,1061,474.0,558,452,60,116.0,86,1,261,154,41,0,0,353,-1923,-3856,474,,,,,,,,,,,,
75444,1560699011857,18,2.25,1.65,3.47,1.58,5.05,1.15,0.06,-0.02,1,2,2,1.15,7062,10,86,34,24,1067,468.0,549,452,60,117.0,86,1,260,156,41,0,0,390,-16384,23400,467,45.702053,4.910971,51.86,200.4,0,0.0,0,0.0,0.405,1,0.32,1.2574
75464,1560699011877,16,2.24,1.65,3.47,1.58,5.04,1.07,0.03,0.04,3,2,1,1.07,7102,10,86,34,24,1068,462.0,544,449,60,118.0,86,1,261,156,41,0,0,396,-23623,-6524,462,,,,,,,,,,,,
75484,1560699011896,10,2.25,1.65,3.46,1.57,5.06,1.06,0.11,-0.12,2,3,3,1.06,7159,10,86,34,24,1065,457.0,546,449,60,118.0,86,1,261,156,41,0,0,395,-9160,0,452,,,,,,,,,,,,
75504,1560699011916,9,2.24,1.65,3.46,1.57,5.08,1.02,0.15,-0.21,1,1,2,1.04,7183,10,86,34,24,1049,453.0,547,453,60,116.0,86,1,261,156,41,0,0,386,-8985,3082,450,,,,,,,,,,,,
75524,1560699011936,10,2.23,1.68,3.46,1.58,5.03,1.12,0.08,-0.16,-1,-1,1,1.13,7123,10,86,34,24,1028,450.0,547,451,60,116.0,94,1,261,156,42,0,0,380,-3267,-6656,446,,,,,,,,,,,,
75544,1560699011956,11,2.24,1.72,3.42,1.59,5.05,1.09,0.01,-0.02,-0,0,0,1.09,7091,10,86,34,24,1009,444.0,543,451,60,117.0,94,1,260,156,42,0,0,394,21432,-4059,441,45.702049,4.910984,48.9,200.4,0,0.0,0,0.0,0.4067,1,0.32,1.2591
75564,1560699011976,9,2.24,1.73,3.4,1.59,5.04,0.99,0.04,-0.06,-0,1,0,0.99,7164,10,86,34,24,991,436.0,541,451,60,118.0,94,1,261,156,42,0,0,407,5600,2524,434,,,,,,,,,,,,
75584,1560699011996,5,2.23,1.73,3.39,1.56,5.05,1.05,0.11,-0.24,-1,1,-1,1.05,7244,10,86,34,24,966,434.0,548,450,60,118.0,94,1,262,156,42,0,0,399,-768,-1562,431,,,,,,,,,,,,
75604,1560699012008,5,2.23,1.73,3.39,1.56,5.07,1.06,0.17,-0.24,-2,-2,-2,1.07,7338,10,86,34,24,938,430.0,557,451,60,117.0,94,1,263,156,42,0,0,393,1779,240,424,,,,,,,,,,,,
75624,1560699012028,4,2.23,1.73,3.39,1.56,5.04,1.16,0.13,-0.19,-3,-2,-3,1.16,7361,10,86,34,24,919,427.0,565,451,60,117.0,101,1,263,156,43,0,0,385,31796,-3866,422,,,,,,,,,,,,
75644,1560699012048,3,2.22,1.75,3.39,1.58,5.04,1.24,0.1,-0.12,-4,-3,-3,1.25,7413,10,86,34,24,910,424.0,563,452,60,116.0,101,1,264,156,43,0,0,385,-4082,6512,416,45.702038,4.910996,45.77,200.5,0,0.0,0,0.0,0.4083,1,0.33,1.2607
75664,1560699012068,2,2.21,1.76,3.37,1.57,5.04,1.24,0.03,-0.01,-4,-1,-3,1.24,7387,10,86,34,23,900,421.0,566,453,60,116.0,101,1,263,154,43,0,0,402,-21944,-3968,413,,,,,,,,,,,,
75684,1560699012088,7,2.2,1.76,3.34,1.56,5.04,1.29,-0.03,0.09,-4,-1,-3,1.29,7402,9,86,34,23,890,415.0,564,450,60,116.0,101,1,264,154,43,0,0,405,-26615,6512,410,,,,,,,,,,,,
75704,1560699012102,6,2.19,1.79,3.32,1.55,5.07,1.36,-0.09,0.16,-5,-1,-4,1.36,7440,9,86,34,23,885,411.0,565,451,60,117.0,101,1,264,154,43,0,0,393,-4059,-6656,407,,,,,,,,,,,,
75724,1560699012122,7,2.17,1.83,3.32,1.54,5.04,1.24,-0.13,0.2,-4,2,-4,1.24,7437,9,86,34,23,885,411.0,565,450,60,117.0,106,1,264,154,43,0,0,393,-4059,-6656,403,,,,,,,,,,,,
75744,1560699012142,3,2.16,1.86,3.28,1.53,5.06,1.2,-0.15,0.29,-3,2,-4,1.2,7461,9,86,34,23,886,410.0,564,451,60,117.0,106,1,264,154,43,0,0,396,9517,-1562,399,45.702034,4.911007,43.43,200.6,0,0.0,0,0.0,0.41,1,0.33,1.2624
75764,1560699012162,7,2.14,1.91,3.27,1.52,5.04,1.17,-0.18,0.35,-4,3,-4,1.18,7384,9,86,34,23,888,409.0,566,450,60,118.0,106,1,263,154,43,0,0,398,11560,505,395,,,,,,,,,,,,
75784,1560699012196,4,2.13,1.98,3.25,1.53,5.04,1.05,-0.11,0.3,-5,5,-4,1.06,7332,9,86,34,23,890,409.0,565,454,60,118.0,106,1,263,154,43,0,0,400,10392,-6524,391,,,,,,,,,,,,
75804,1560699012216,3,2.12,2.04,3.22,1.53,5.04,0.93,0.09,0.17,-5,5,-6,0.93,7250,9,86,34,23,892,407.0,566,448,60,118.0,106,1,262,154,43,0,0,402,2524,-19126,386,,,,,,,,,,,,
75824,1560699012236,4,2.1,2.07,3.17,1.52,5.04,1.02,0.2,0.12,-8,4,-8,1.04,7214,9,86,34,23,895,404.0,566,452,60,116.0,109,1,262,154,42,0,0,397,1504,2278,382,,,,,,,,,,,,
75844,1560699012256,6,2.07,2.12,3.16,1.51,5.07,1.04,0.22,0.18,-10,3,-9,1.07,7142,9,86,34,23,899,402.0,557,452,60,116.0,109,1,261,154,42,0,0,392,10541,0,378,45.702026,4.911018,40.95,200.7,0,0.0,0,0.0,0.4117,1,0.33,1.2641
75864,1560699012276,10,2.05,2.16,3.16,1.48,5.06,1.09,0.23,0.29,-10,3,-10,1.11,7091,9,86,34,23,903,400.0,556,448,60,118.0,109,1,260,154,42,0,0,392,6512,-6405,374,,,,,,,,,,,,
75884,1560699012296,8,2.03,2.2,3.14,1.48,5.07,0.93,0.41,0.15,-11,4,-11,1.02,7038,9,86,34,23,904,398.0,555,452,60,118.0,109,1,260,154,42,0,0,390,6384,-6640,370,,,,,,,,,,,,
75904,1560699012316,8,2.0,2.19,3.13,1.46,5.04,1.04,0.55,0.1,-14,1,-14,1.18,6952,9,86,34,23,906,396.0,555,454,60,117.0,109,1,260,153,42,0,0,390,-32702,2060,365,,,,,,,,,,,,
75924,1560699012336,10,1.98,2.2,3.12,1.42,5.07,1.0,0.47,0.21,-14,2,-17,1.11,6888,9,86,34,24,908,396.0,549,452,60,117.0,111,1,261,153,40,0,0,387,-32702,-1246,357,,,,,,,,,,,,
75944,1560699012356,6,1.96,2.23,3.1,1.4,5.05,0.98,0.62,0.15,-16,2,-20,1.16,6833,9,86,34,24,910,392.0,543,450,60,118.0,111,1,261,156,40,0,0,387,1,3327,352,45.702019,4.911027,38.71,200.7,0,0.0,0,0.0,0.4133,1,0.33,1.2657
75964,1560699012376,12,1.92,2.23,3.11,1.37,5.07,1.04,0.57,0.3,-17,1,-23,1.18,6722,9,86,34,24,911,391.0,534,456,60,117.0,111,1,262,156,40,0,0,389,505,-23296,347,,,,,,,,,,,,
75984,1560699012396,7,1.92,2.24,3.09,1.35,5.06,1.08,0.72,0.19,-20,1,-25,1.3,6576,9,86,34,25,912,390.0,524,448,60,118.0,111,1,265,159,40,0,0,386,-1562,160,340,,,,,,,,,,,,
76004,1560699012416,9,1.9,2.27,3.07,1.37,5.04,1.08,0.68,0.17,-21,1,-27,1.28,6485,9,86,34,25,916,384.0,521,447,60,118.0,111,1,266,159,40,0,0,382,-19019,-29696,337,,,,,,,,,,,,
76024,1560699012436,10,1.9,2.28,3.07,1.37,5.06,1.12,0.67,0.2,-23,-1,-28,1.3,6386,9,86,34,26,918,384.0,512,454,60,117.0,113,1,270,160,38,0,0,381,-19019,80,333,,,,,,,,,,,,
76044,1560699012456,13,1.9,2.3,3.07,1.37,5.04,1.08,0.77,0.17,-24,-2,-29,1.33,6264,9,86,34,26,921,379.0,508,451,60,116.0,113,1,271,160,38,0,0,379,8200,-1527,328,45.702015,4.911037,37.11,200.6,0,0.0,0,0.0,0.415,1,0.33,1.2674
76064,1560699012476,13,1.9,2.3,3.06,1.37,5.07,1.08,0.9,0.1,-26,-2,-30,1.4,6155,9,86,34,27,924,376.0,500,451,60,117.0,113,1,275,161,38,0,0,378,3,-1,328,,,,,,,,,,,,
76084,1560699012496,12,1.91,2.3,3.06,1.37,5.04,1.0,0.97,0.07,-27,-2,-32,1.39,6034,9,86,34,27,927,376.0,492,456,60,117.0,113,1,275,161,38,0,0,369,3,-1,324,,,,,,,,,,,,
76104,1560699012516,12,1.93,2.29,3.04,1.36,5.04,0.96,1.05,-0.0,-27,-2,-35,1.42,5879,9,86,34,28,930,375.0,485,449,60,117.0,113,1,276,162,38,0,0,370,770,-1494,324,,,,,,,,,,,,
76124,1560699012536,8,1.95,2.28,3.04,1.35,5.06,0.88,1.02,0.03,-27,-3,-38,1.34,5730,9,86,34,29,931,373.0,475,452,60,117.0,108,1,276,163,35,0,0,369,1,13468,322,,,,,,,,,,,,
76144,1560699012556,6,2.0,2.26,3.03,1.38,5.06,0.89,1.09,0.1,-27,-6,-39,1.41,5600,9,86,34,30,931,368.0,460,458,60,118.0,108,1,277,163,35,0,0,362,0,250,318,45.702007,4.911047,35.3,200.6,0,0.0,0,0.0,0.4167,1,0.33,1.2691
76164,1560699012576,10,2.01,2.26,3.06,1.39,5.05,1.0,1.0,0.17,-29,-8,-40,1.42,5453,9,86,34,31,930,360.0,446,453,60,118.0,108,1,276,162,35,0,0,357,-14707,-1,318,,,,,,,,,,,,
76184,1560699012594,1,2.04,2.23,3.09,1.42,5.04,0.93,0.78,0.17,-29,-3,-40,1.21,5366,9,86,34,33,930,360.0,436,455,60,117.0,108,1,279,168,35,0,0,354,-14707,-1527,319,,,,,,,,,,,,
76204,1560699012614,1,2.09,2.2,3.12,1.44,5.08,1.04,0.82,0.18,-27,-6,-39,1.32,5289,9,86,34,34,928,355.0,427,450,60,118.0,108,1,282,173,35,0,0,346,2060,21760,320,,,,,,,,,,,,
76224,1560699012634,2,2.13,2.17,3.16,1.45,5.08,0.99,0.71,0.18,-27,-5,-39,1.22,5405,9,86,34,35,927,351.0,426,463,60,117.0,112,1,289,179,36,0,0,322,-1246,-16896,318,,,,,,,,,,,,
76244,1560699012654,-2,2.18,2.09,3.2,1.49,5.06,0.9,0.71,0.19,-23,-3,-38,1.14,5488,9,86,34,36,928,345.0,428,455,60,118.0,112,1,293,186,36,0,0,321,6870,0,316,45.702004,4.911058,33.67,200.7,0,0.0,0,0.0,0.4183,1,0.33,1.2707
76264,1560699012674,-0,2.23,1.99,3.24,1.53,5.08,0.93,0.61,0.21,-22,-5,-38,1.11,5588,9,86,34,37,930,338.0,434,445,60,118.0,112,1,298,193,36,0,0,312,-31222,28160,316,,,,,,,,,,,,
76284,1560699012696,4,2.28,1.9,3.29,1.58,5.06,0.97,0.48,0.23,-21,-3,-36,1.09,5700,9,86,34,37,934,332.0,438,462,60,116.0,112,1,300,200,36,0,0,304,-32559,130,317,,,,,,,,,,,,
76304,1560699012716,3,2.33,1.85,3.34,1.65,5.08,0.89,0.41,0.25,-18,-2,-33,0.98,5803,9,86,34,37,937,324.0,447,456,60,117.0,112,1,301,195,36,0,0,303,160,125,318,,,,,,,,,,,,
76324,1560699012736,3,2.38,1.81,3.35,1.7,5.07,0.74,0.39,0.23,-14,-0,-29,0.83,5892,10,86,34,38,934,320.0,450,465,60,117.0,135,1,305,195,43,0,0,307,-27136,-30976,320,,,,,,,,,,,,
76344,1560699012756,2,2.44,1.78,3.37,1.76,5.04,0.7,0.36,0.26,-9,1,-25,0.79,5942,14,86,34,38,927,320.0,458,455,60,117.0,135,1,306,201,43,0,0,302,-30976,-29696,320,45.702,4.911068,32.71,200.7,0,0.0,0,0.0,0.42,1,0.33,1.2724
76364,1560699012776,3,2.48,1.76,3.42,1.81,5.04,0.64,0.29,0.33,-4,2,-21,0.7,6000,19,86,34,39,918,322.0,465,459,60,116.0,135,1,310,207,43,0,0,301,32000,-27136,322,,,,,,,,,,,,
76384,1560699012796,3,2.51,1.75,3.46,1.9,5.07,0.61,0.21,0.37,-1,2,-17,0.64,6038,25,86,34,41,910,324.0,468,457,60,117.0,135,1,322,210,43,0,0,304,115,150,324,,,,,,,,,,,,
76404,1560699012816,2,2.56,1.75,3.47,1.99,5.06,0.58,0.16,0.4,3,2,-13,0.6,6050,30,86,34,45,897,326.0,469,456,60,116.0,135,1,347,215,43,0,0,300,105,-25856,326,,,,,,,,,,,,
76424,1560699012836,2,2.6,1.75,3.51,2.07,5.05,0.55,0.15,0.39,6,2,-9,0.57,6119,35,86,34,50,883,328.0,471,459,60,117.0,161,1,370,229,53,0,0,297,100,160,328,,,,,,,,,,,,
76444,1560699012856,5,2.62,1.75,3.55,2.17,5.04,0.59,0.08,0.37,8,1,-5,0.6,6208,43,86,34,55,876,328.0,477,458,60,116.0,161,1,385,258,53,0,0,295,24320,160,328,45.701996,4.911079,31.39,200.7,0,0.0,0,0.0,0.4217,1,0.33,1.2741
76464,1560699012876,-2,2.65,1.75,3.59,2.18,5.06,0.63,0.04,0.28,10,2,0,0.64,6281,54,86,34,62,873,329.0,483,453,60,118.0,161,1,390,262,53,0,0,291,21760,-23296,329,,,,,,,,,,,,
76484,1560699012895,0,2.66,1.75,3.61,2.22,5.04,0.67,-0.09,0.29,12,2,4,0.68,6294,65,86,34,71,869,330.0,486,454,60,118.0,161,1,364,343,53,0,0,288,20480,-22016,330,,,,,,,,,,,,
76504,1560699012915,-0,2.7,1.75,3.62,2.26,5.06,0.66,-0.25,0.32,14,1,7,0.7,6208,73,86,34,80,865,331.0,486,450,60,118.0,161,1,352,462,53,0,0,289,41,-24576,330,,,,,,,,,,,,
76524,1560699012935,3,2.72,1.74,3.63,2.27,5.03,0.62,-0.39,0.36,18,0,11,0.73,6087,80,86,34,88,862,330.0,480,451,60,116.0,342,1,329,491,113,0,0,287,0,175,330,,,,,,,,,,,,
76544,1560699012955,2,2.74,1.74,3.63,2.26,5.07,0.67,-0.55,0.46,20,-1,13,0.87,5980,84,86,35,92,861,333.0,471,451,60,117.0,342,1,315,510,113,0,0,293,10686,-20736,332,45.701996,4.911089,30.51,200.7,0,0.0,0,0.0,0.4233,1,0.34,1.2757
76564,1560699012975,0,2.75,1.73,3.64,2.27,5.06,0.67,-0.69,0.52,23,-2,17,0.96,5828,87,86,35,94,861,334.0,461,451,60,118.0,342,1,310,525,113,0,0,305,10686,-22016,334,,,,,,,,,,,,
76584,1560699012995,-2,2.79,1.73,3.64,2.27,5.05,0.74,-0.76,0.53,24,-3,21,1.06,5719,90,86,35,94,863,335.0,452,448,60,118.0,342,1,306,543,113,0,0,303,250,170,335,,,,,,,,,,,,
76604,1560699013007,18,2.82,1.73,3.62,2.28,5.03,0.82,-0.84,0.48,25,-3,24,1.18,5735,93,86,35,95,867,335.0,442,456,60,117.0,342,1,306,555,113,0,0,290,-1529,-32559,335,,,,,,,,,,,,
76624,1560699013027,3,2.85,1.72,3.63,2.27,5.04,0.83,-0.84,0.38,25,-4,29,1.18,5877,95,86,35,95,872,335.0,437,461,60,116.0,363,1,312,547,121,0,0,285,1886,170,335,,,,,,,,,,,,
76644,1560699013047,-2,2.87,1.71,3.68,2.27,5.07,0.84,-0.84,0.29,27,-2,32,1.18,6050,97,86,35,95,924,334.0,441,458,60,117.0,363,1,319,539,121,0,0,302,24064,-12032,336,45.701996,4.911099,29.91,200.7,0,0.0,0,0.0,0.425,1,0.34,1.2774
76664,1560699013067,0,2.88,1.7,3.69,2.27,5.05,0.82,-0.86,0.22,28,-3,37,1.19,6279,97,86,35,95,1027,338.0,447,457,60,117.0,363,1,331,536,121,0,0,328,-1534,-12032,338,,,,,,,,,,,,
76684,1560699013097,2,2.89,1.71,3.69,2.28,5.06,0.72,-0.91,0.23,31,-1,39,1.16,6469,98,86,35,95,1129,338.0,456,454,60,118.0,363,1,341,532,121,0,0,369,630,-12032,338,,,,,,,,,,,,
76704,1560699013117,0,2.87,1.71,3.7,2.3,5.08,0.73,-0.92,0.21,33,-1,41,1.18,6776,98,86,35,95,1228,337.0,472,452,60,116.0,363,1,356,527,121,0,0,376,250,-6528,337,,,,,,,,,,,,
76724,1560699013137,5,2.84,1.72,3.69,2.3,5.04,0.72,-1.03,0.32,35,-1,44,1.25,6957,98,86,35,95,1322,339.0,488,455,60,118.0,404,1,366,525,137,0,0,369,250,-122,339,,,,,,,,,,,,
76744,1560699013157,3,2.82,1.71,3.69,2.32,5.07,0.56,-0.92,0.3,38,1,48,1.08,7151,98,86,35,95,1411,341.0,498,452,60,117.0,404,1,380,532,137,0,0,370,630,2811,342,45.701988,4.911108,28.56,200.7,0,0.0,0,0.0,0.4267,1,0.34,1.2791
76764,1560699013177,4,2.76,1.76,3.66,2.35,5.05,0.52,-0.88,0.34,39,1,52,1.02,7352,98,86,35,94,1476,346.0,514,453,60,117.0,404,1,396,543,137,0,0,397,630,-6640,346,,,,,,,,,,,,
76784,1560699013197,1,2.71,1.84,3.57,2.37,5.07,0.61,-0.95,0.44,39,0,54,1.13,7440,99,86,35,94,1466,353.0,526,451,60,118.0,404,1,403,547,137,0,0,407,1886,3,353,,,,,,,,,,,,
76804,1560699013217,3,2.63,1.96,3.46,2.41,5.05,0.66,-0.91,0.46,40,-0,56,1.13,7512,99,86,35,93,1446,357.0,464,450,60,118.0,404,1,409,550,137,0,0,395,10686,-1818,357,,,,,,,,,,,,
76824,1560699013237,4,2.55,2.1,3.36,2.42,5.06,0.79,-0.94,0.53,38,-2,58,1.23,7500,99,86,35,93,1391,363.0,380,453,60,118.0,432,1,408,550,157,0,0,384,21760,2524,363,,,,,,,,,,,,
76844,1560699013257,1,2.48,2.21,3.23,2.42,5.05,0.84,-0.87,0.53,38,-2,59,1.21,7473,100,86,35,94,1337,364.0,338,457,60,117.0,432,1,405,548,157,0,0,372,100,11560,364,45.701984,4.911116,28.99,200.8,0,0.0,0,0.0,0.4283,1,0.34,1.2807
76864,1560699013277,1,2.41,2.28,3.16,2.44,5.07,0.91,-0.85,0.59,37,-2,56,1.24,7361,100,86,35,94,1292,366.0,308,454,60,116.0,432,1,397,543,157,0,0,394,-30976,11545,366,,,,,,,,,,,,
76884,1560699013297,-1,2.37,2.32,3.14,2.47,5.07,1.02,-0.88,0.46,35,-2,54,1.35,7327,100,86,35,94,1242,366.0,304,453,60,117.0,432,1,394,542,157,0,0,418,155,17144,366,,,,,,,,,,,,
76904,1560699013317,1,2.32,2.32,3.14,2.47,5.07,1.07,-0.99,0.59,32,-4,50,1.46,7312,100,86,35,94,1170,366.0,318,459,60,116.0,432,1,393,541,157,0,0,396,-32559,1,366,,,,,,,,,,,,
76924,1560699013337,1,2.29,2.34,3.13,2.47,5.06,1.03,-1.02,0.69,30,-3,49,1.45,7344,100,86,35,94,1099,366.0,348,451,60,117.0,412,1,396,543,151,0,0,367,-31222,-32702,368,,,,,,,,,,,,
76944,1560699013357,5,2.27,2.35,3.11,2.45,5.06,0.95,-0.92,0.82,28,-2,46,1.32,7335,100,86,35,94,1071,369.0,365,452,60,117.0,412,1,395,542,151,0,0,379,28553,28696,369,45.701977,4.911124,30.27,200.8,0,0.0,0,0.0,0.43,1,0.34,1.2824
76964,1560699013377,4,2.26,2.38,3.06,2.44,5.07,0.69,-0.78,0.87,26,-1,41,1.04,7287,100,86,35,95,1044,373.0,351,452,60,117.0,412,1,390,539,151,0,0,386,-1268,-32702,373,,,,,,,,,,,,
76984,1560699013393,3,2.24,2.47,3.01,2.44,5.04,0.52,-0.64,0.82,24,1,38,0.83,7275,100,86,35,95,1016,375.0,378,457,60,117.0,412,1,389,539,151,0,0,392,742,11545,375,,,,,,,,,,,,
77004,1560699013413,0,2.24,2.5,2.97,2.45,5.06,0.6,-0.5,0.84,21,0,35,0.78,7256,100,86,35,95,990,380.0,392,455,60,117.0,412,1,388,537,151,0,0,398,8200,-32702,380,,,,,,,,,,,,
77024,1560699013433,1,2.22,2.51,2.91,2.42,5.04,0.72,-0.48,0.83,17,-1,33,0.86,7307,100,86,35,94,988,386.0,394,457,60,116.0,387,1,392,541,148,0,0,401,240,6384,383,,,,,,,,,,,,
77044,1560699013453,1,2.21,2.5,2.91,2.36,5.07,0.81,-0.43,0.88,14,-2,28,0.92,7408,100,86,35,94,987,393.0,388,453,60,116.0,387,1,400,546,148,0,0,402,-6656,10541,389,45.701973,4.911131,33.51,200.9,0,0.0,0,0.0,0.4317,1,0.34,1.2841
77064,1560699013473,2,2.2,2.49,2.92,2.32,5.05,0.89,-0.45,0.86,11,-2,24,1.0,7631,100,86,35,93,982,396.0,422,450,60,117.0,387,1,418,557,148,0,0,406,6384,11545,392,,,,,,,,,,,,
77084,1560699013497,4,2.18,2.51,2.92,2.3,5.07,0.97,-0.36,0.84,8,-4,21,1.04,7822,100,86,35,93,976,401.0,445,458,60,116.0,387,1,433,565,148,0,0,416,1504,13040,396,,,,,,,,,,,,
77104,1560699013517,1,2.13,2.52,2.91,2.28,5.08,0.87,-0.12,0.9,6,-4,19,0.88,8071,100,86,35,91,970,408.0,474,452,60,117.0,387,1,448,581,148,0,0,419,10392,-8165,399,,,,,,,,,,,,
77124,1560699013537,1,2.11,2.58,2.85,2.24,5.06,0.83,-0.09,0.85,4,-2,16,0.83,8278,100,86,35,91,964,417.0,507,451,60,116.0,465,1,442,594,186,0,0,429,-21944,-18341,400,,,,,,,,,,,,
77144,1560699013557,-1,2.06,2.65,2.84,2.25,5.06,0.67,0.12,0.89,2,-3,14,0.68,8393,100,86,35,89,955,423.0,525,450,60,116.0,465,1,437,604,186,0,0,445,3826,2524,402,45.701965,4.911139,36.39,200.9,0,0.0,0,0.0,0.4333,1,0.34,1.2857
77164,1560699013577,5,2.03,2.7,2.78,2.24,5.07,0.68,0.21,0.88,-1,-2,10,0.71,8557,100,86,35,89,944,430.0,550,457,60,117.0,465,1,433,617,186,0,0,448,-3322,17628,406,,,,,,,,,,,,
77184,1560699013595,3,2.0,2.74,2.74,2.24,5.08,0.75,0.05,0.92,-3,-3,7,0.75,8660,100,86,35,88,938,437.0,558,452,60,117.0,465,1,429,606,186,0,0,455,19477,-18108,407,,,,,,,,,,,,
77204,1560699013615,3,1.98,2.75,2.73,2.24,5.07,0.7,0.09,0.98,-5,-3,2,0.71,8737,100,86,35,87,934,442.0,577,455,60,116.0,465,1,426,606,186,0,0,470,23400,8488,410,,,,,,,,,,,,
77224,1560699013635,3,1.97,2.75,2.72,2.24,5.07,0.58,0.28,1.03,-7,-3,-0,0.65,8753,100,86,35,87,937,450.0,587,452,60,117.0,483,1,425,606,200,0,0,474,-3267,-23367,414,,,,,,,,,,,,
77244,1560699013655,1,1.98,2.77,2.72,2.23,5.04,0.44,0.46,0.95,-9,-3,-2,0.63,8907,100,86,35,87,943,454.0,591,454,60,117.0,483,1,421,606,200,0,0,472,2524,-16384,416,45.701958,4.911146,38.23,200.9,0,0.0,0,0.0,0.435,1,0.34,1.2874
77264,1560699013675,1,1.98,2.77,2.72,2.21,5.07,0.24,0.61,0.84,-10,-0,-3,0.66,8992,100,86,35,87,952,464.0,605,450,60,117.0,483,1,419,594,200,0,0,479,16408,-1562,420,,,,,,,,,,,,
77284,1560699013697,1,2.0,2.78,2.73,2.19,5.05,0.12,0.75,0.77,-13,-1,-5,0.76,9124,100,86,35,87,962,467.0,608,452,60,117.0,483,1,418,594,200,0,0,496,243,-3414,428,,,,,,,,,,,,
77304,1560699013717,5,2.01,2.77,2.74,2.15,5.03,-0.03,0.88,0.69,-14,1,-8,0.88,9328,100,86,35,87,987,476.0,616,454,60,116.0,483,1,418,594,200,0,0,497,-23367,505,432,,,,,,,,,,,,
77324,1560699013737,5,2.03,2.82,2.73,2.13,5.04,0.01,0.93,0.76,-16,0,-11,0.93,9517,100,86,35,86,1019,482.0,625,450,60,116.0,491,1,418,583,213,0,0,506,-899,-32248,434,,,,,,,,,,,,
77344,1560699013757,3,2.05,2.82,2.69,2.12,5.04,0.14,0.93,0.77,-18,2,-14,0.94,9679,100,86,35,86,1046,486.0,624,453,60,117.0,491,1,411,588,213,0,0,513,1,-22519,437,45.70195,4.911155,41.24,200.9,0,0.0,0,0.0,0.4367,1,0.34,1.2891
77364,1560699013777,6,2.06,2.82,2.65,2.1,5.06,0.17,1.01,0.83,-20,1,-16,1.03,9889,100,86,35,85,1068,492.0,628,454,60,116.0,491,1,401,576,213,0,0,518,-32768,-8187,442,,,,,,,,,,,,
77384,1560699013797,1,2.09,2.81,2.61,2.07,5.05,0.21,1.09,0.82,-21,1,-18,1.11,9978,100,86,35,85,1089,499.0,633,456,60,116.0,491,1,398,577,213,0,0,524,-22519,-9072,448,,,,,,,,,,,,
77404,1560699013817,2,2.1,2.82,2.6,2.09,5.04,0.29,0.9,0.93,-22,1,-21,0.94,9973,100,86,35,85,1110,506.0,632,451,60,117.0,491,1,397,576,213,0,0,538,-28648,-2336,454,,,,,,,,,,,,
77424,1560699013837,5,2.11,2.82,2.59,2.09,5.04,0.29,1.01,0.85,-23,0,-21,1.05,10042,100,86,35,85,1119,509.0,635,454,60,116.0,479,1,398,577,220,0,0,545,10994,-22519,461,,,,,,,,,,,,
77444,1560699013857,5,2.13,2.83,2.61,2.1,5.06,0.21,1.11,0.89,-24,-0,-22,1.13,10059,100,86,35,85,1117,515.0,628,446,60,117.0,479,1,399,577,220,0,0,538,-14,6273,465,45.701939,4.911165,43.57,200.9,0,0.0,0,0.0,0.4383,1,0.34,1.2907
77464,1560699013877,2,2.15,2.82,2.62,2.1,5.04,0.28,1.01,0.97,-25,-2,-23,1.04,10140,100,86,35,85,1108,517.0,631,455,60,116.0,479,1,405,577,220,0,0,553,15679,-22263,473,,,,,,,,,,,,
77484,1560699013894,3,2.17,2.82,2.61,2.11,5.04,0.29,0.92,0.97,-24,-1,-25,0.96,10341,100,86,35,85,1089,520.0,630,448,60,117.0,479,1,419,577,220,0,0,550,1248,-22519,479,,,,,,,,,,,,
77504,1560699013914,1,2.18,2.82,2.6,2.11,5.07,0.28,0.83,0.89,-24,-1,-26,0.87,10330,100,86,35,85,1072,524.0,634,458,60,116.0,479,1,418,577,220,0,0,556,10408,2211,485,,,,,,,,,,,,
77524,1560699013934,2,2.2,2.8,2.62,2.11,5.04,0.23,0.74,0.88,-23,-0,-26,0.78,10428,100,86,35,85,1056,527.0,636,457,60,116.0,464,1,426,577,227,0,0,563,6274,-25872,495,,,,,,,,,,,,
77544,1560699013954,2,2.21,2.77,2.67,2.1,5.08,0.3,0.81,0.93,-22,-1,-26,0.86,10527,100,86,35,85,1039,532.0,635,447,60,116.0,464,1,431,577,227,0,0,574,14504,6274,501,45.701935,4.911176,45.37,200.9,0,0.0,0,0.0,0.44,1,0.34,1.2924
77564,1560699013974,1,2.23,2.74,2.71,2.1,5.05,0.31,0.82,0.85,-21,0,-25,0.88,10665,100,86,35,85,1020,536.0,638,455,60,116.0,464,1,435,577,227,0,0,571,-28648,2104,510,,,,,,,,,,,,
77584,1560699013994,2,2.25,2.72,2.71,2.1,5.05,0.27,0.75,0.88,-20,1,-23,0.8,10683,100,86,35,85,1006,541.0,643,450,60,116.0,464,1,435,577,227,0,0,569,-2336,1267,521,,,,,,,,,,,,
77604,1560699014010,2,2.25,2.72,2.72,2.09,5.05,0.27,0.63,0.88,-19,2,-22,0.68,10788,100,86,35,85,1003,545.0,638,451,60,116.0,464,1,437,559,227,0,0,571,-22519,-1894,526,,,,,,,,,,,,
77624,1560699014030,3,2.26,2.74,2.71,2.14,5.07,0.24,0.56,0.92,-17,0,-22,0.6,10794,100,86,35,85,999,549.0,638,455,60,116.0,431,1,438,577,229,0,0,574,2104,1760,530,,,,,,,,,,,,
77644,1560699014050,3,2.28,2.74,2.74,2.23,5.04,0.26,0.53,1.03,-15,2,-22,0.59,10844,100,86,35,85,993,552.0,638,452,60,116.0,431,1,439,577,229,0,0,594,-28648,-3190,534,45.701923,4.911189,48.78,200.9,0,0.0,0,0.0,0.4417,1,0.35,1.2941
77664,1560699014070,3,2.3,2.73,2.76,2.28,5.04,0.29,0.53,0.99,-13,1,-20,0.61,10850,100,86,35,84,988,555.0,638,454,60,116.0,431,1,439,559,229,0,0,580,2216,1267,545,,,,,,,,,,,,
77684,1560699014096,2,2.31,2.7,2.79,2.32,5.06,0.32,0.35,1.05,-11,-0,-18,0.48,10800,100,86,35,84,985,559.0,633,454,60,115.0,431,1,437,559,229,0,0,585,6273,-25872,559,,,,,,,,,,,,
77704,1560699014116,3,2.31,2.68,2.83,2.34,5.04,0.33,0.26,1.03,-10,-1,-17,0.42,10901,100,86,35,84,982,564.0,639,451,60,116.0,431,1,440,559,229,0,0,590,12552,-12040,564,,,,,,,,,,,,
77724,1560699014136,3,2.31,2.64,2.88,2.35,5.03,0.3,0.17,1.12,-7,-2,-17,0.34,10964,100,86,35,85,976,573.0,646,453,60,116.0,420,1,443,577,240,0,0,596,-2934,23619,573,,,,,,,,,,,,
77744,1560699014156,5,2.31,2.61,3.04,2.38,5.07,0.34,0.24,1.15,-6,-4,-16,0.41,11114,100,86,35,85,971,574.0,646,449,60,116.0,420,1,443,577,240,0,0,610,-3190,-3210,579,45.701916,4.911203,51.54,200.9,0,0.0,0,0.0,0.4433,1,0.35,1.2957
77764,1560699014176,3,2.31,2.58,3.09,2.39,5.06,0.34,0.08,1.2,-5,-3,-13,0.34,11315,100,86,35,84,968,581.0,650,455,60,116.0,420,1,441,559,240,0,0,602,1,19621,581,,,,,,,,,,,,
77784,1560699014196,4,2.31,2.56,3.08,2.38,5.07,0.39,0.1,1.09,-4,-2,-10,0.4,11510,100,86,35,84,965,586.0,644,448,60,116.0,420,1,440,559,240,0,0,607,-3210,269,588,,,,,,,,,,,,
77804,1560699014216,1,2.31,2.54,3.08,2.38,5.06,0.32,0.14,1.05,-3,-1,-9,0.35,11645,100,86,35,84,958,593.0,651,457,60,116.0,420,1,440,561,240,0,0,614,15649,17740,593,,,,,,,,,,,,
77824,1560699014236,1,2.32,2.52,3.05,2.41,5.05,0.24,0.11,1.14,-1,-1,-8,0.26,11718,100,86,35,83,951,597.0,654,456,60,116.0,420,1,440,563,251,0,0,623,6273,19304,597,,,,,,,,,,,,
77844,1560699014256,3,2.3,2.52,3.06,2.43,5.07,0.2,0.02,1.14,-1,-3,-6,0.2,11718,100,86,35,83,947,601.0,655,455,60,116.0,420,1,440,546,251,0,0,640,-28648,17336,604,45.701908,4.911219,54.55,200.9,0,0.0,0,0.0,0.445,1,0.35,1.2974
77864,1560699014276,13,2.3,2.52,3.03,2.44,5.06,0.22,-0.02,1.18,-1,-2,-5,0.22,11770,100,86,35,83,942,607.0,646,452,60,115.0,420,1,440,548,251,0,0,632,243,-1346,607,,,,,,,,,,,,
77884,1560699014296,4,2.31,2.52,2.99,2.42,5.08,0.25,-0.09,1.09,-1,-5,-4,0.26,11829,100,86,35,83,922,610.0,655,455,60,116.0,420,1,440,549,251,0,0,634,19621,-2580,610,,,,,,,,,,,,
77904,1560699014316,5,2.31,2.51,2.99,2.41,5.07,0.33,-0.09,1.18,-1,-6,-4,0.34,11882,100,86,35,83,901,616.0,652,455,60,116.0,420,1,440,551,251,0,0,637,17740,24,618,,,,,,,,,,,,
77924,1560699014336,5,2.31,2.5,3.0,2.39,5.04,0.37,-0.08,1.26,-0,-7,-3,0.38,11942,100,86,35,83,884,625.0,636,454,60,116.0,402,1,440,553,250,0,0,639,30721,-4876,624,,,,,,,,,,,,
77944,1560699014356,5,2.3,2.49,3.04,2.36,5.04,0.43,-0.09,1.31,-0,-8,-3,0.44,12042,100,86,35,83,867,632.0,659,453,60,116.0,402,1,440,555,250,0,0,654,-1346,244,632,45.7019,4.911234,56.77,200.9,0,0.0,0,0.0,0.4467,1,0.35,1.2991
77964,1560699014376,6,2.3,2.48,3.07,2.36,5.04,0.47,-0.13,1.27,-0,-10,-1,0.48,12159,100,86,35,83,845,633.0,632,452,60,115.0,402,1,440,555,250,0,0,661,966,-2830,633,,,,,,,,,,,,
77984,1560699014398,2,2.31,2.48,3.07,2.34,5.05,0.5,-0.21,1.29,0,-9,-0,0.54,12287,100,86,35,83,824,636.0,658,456,60,116.0,402,1,440,555,250,0,0,656,3,31988,636,,,,,,,,,,,,
78004,1560699014418,4,2.32,2.47,3.07,2.34,5.08,0.48,-0.26,1.36,1,-11,-1,0.54,12458,100,86,35,83,814,640.0,655,460,60,115.0,402,1,440,555,250,0,0,664,-10251,-10344,640,,,,,,,,,,,,
78024,1560699014438,3,2.32,2.47,3.03,2.33,5.05,0.41,-0.14,1.32,2,-9,-1,0.43,12516,100,86,35,83,809,650.0,645,455,60,116.0,406,1,440,555,263,0,0,663,6208,1549,650,,,,,,,,,,,,
78044,1560699014458,3,2.3,2.47,2.98,2.34,5.06,0.4,-0.15,1.1,2,-8,2,0.42,12558,100,86,35,83,804,652.0,642,455,60,115.0,406,1,440,555,263,0,0,664,-8429,-3578,652,45.701893,4.911251,59.26,200.9,0,0.0,0,0.0,0.4483,1,0.35,1.3007
78064,1560699014478,4,2.31,2.44,2.97,2.33,5.07,0.5,-0.22,1.18,2,-7,-0,0.55,12592,100,86,35,83,799,659.0,656,450,60,115.0,406,1,440,555,263,0,0,669,-6006,-26892,659,,,,,,,,,,,,
78084,1560699014496,4,2.31,2.44,2.98,2.36,5.07,0.46,-0.11,0.98,2,-9,2,0.47,12609,100,86,35,83,798,661.0,646,452,60,115.0,406,1,440,555,263,0,0,683,-3488,-388,661,,,,,,,,,,,,
78104,1560699014516,5,2.3,2.44,2.98,2.36,5.06,0.44,-0.2,1.01,2,-6,2,0.48,12694,100,86,35,83,799,665.0,655,441,60,116.0,406,1,440,555,263,0,0,683,31988,3543,665,,,,,,,,,,,,
78124,1560699014536,14,2.31,2.41,3.01,2.35,5.06,0.51,-0.24,1.11,2,-8,2,0.56,12824,100,86,35,83,796,669.0,656,447,60,115.0,402,1,440,555,270,0,0,690,-26380,24,669,,,,,,,,,,,,
78144,1560699014556,6,2.31,2.39,3.0,2.33,5.07,0.45,-0.21,1.08,3,-6,2,0.49,12895,100,86,35,83,791,673.0,651,457,60,115.0,402,1,440,555,270,0,0,692,31988,-2830,673,45.701881,4.911268,61.21,200.9,0,0.0,0,0.0,0.45,1,0.35,1.3024
78164,1560699014576,3,2.3,2.38,3.05,2.32,5.05,0.56,-0.33,1.05,3,-6,3,0.65,12984,100,86,35,83,787,676.0,666,452,60,116.0,402,1,440,555,270,0,0,698,8958,6208,677,,,,,,,,,,,,
78184,1560699014596,3,2.3,2.36,3.09,2.31,5.03,0.56,-0.21,1.14,4,-6,2,0.6,13130,100,86,35,83,783,682.0,660,456,60,116.0,402,1,440,555,270,0,0,706,-26892,1780,682,,,,,,,,,,,,
78204,1560699014616,7,2.3,2.38,3.11,2.31,5.07,0.57,-0.19,1.22,4,-5,3,0.6,13148,100,86,35,83,780,684.0,658,455,60,115.0,402,1,440,555,270,0,0,709,-2345,-10448,684,,,,,,,,,,,,
78224,1560699014636,5,2.29,2.42,3.05,2.31,5.04,0.45,-0.26,1.0,3,-3,2,0.52,13213,100,86,35,83,779,686.0,659,445,60,115.0,405,1,440,555,278,0,0,705,-26562,-20693,685,,,,,,,,,,,,
78244,1560699014656,4,2.29,2.42,2.99,2.31,5.08,0.41,-0.16,0.86,3,-3,3,0.44,13297,100,86,35,83,779,688.0,662,453,60,116.0,405,1,440,555,278,0,0,700,24845,-13312,689,45.701874,4.911286,63.97,200.9,0,0.0,0,0.0,0.4517,1,0.36,1.3041
78264,1560699014676,4,2.28,2.43,2.97,2.31,5.05,0.5,-0.25,0.92,3,-3,2,0.56,13288,100,86,35,83,782,696.0,658,454,60,115.0,405,1,440,555,278,0,0,707,-3584,-4091,696,,,,,,,,,,,,
78284,1560699014698,-0,2.29,2.45,3.0,2.33,5.07,0.46,-0.2,1.02,3,-3,2,0.51,13383,100,86,34,83,783,695.0,665,454,60,115.0,405,1,440,560,278,0,0,717,11576,-2830,695,,,,,,,,,,,,
78304,1560699014718,-1,2.28,2.43,3.1,2.36,5.03,0.49,-0.13,1.12,3,-3,2,0.51,13029,100,86,34,84,786,698.0,676,457,60,119.0,405,1,440,575,278,0,0,735,11576,-4091,698,,,,,,,,,,,,
78324,1560699014738,0,2.27,2.42,3.1,2.34,5.04,0.45,-0.1,0.93,2,-5,4,0.46,12592,100,86,34,84,788,704.0,673,446,60,118.0,392,1,440,575,276,0,0,704,-3584,-2560,704,,,,,,,,,,,,
78344,1560699014758,-1,2.27,2.41,3.13,2.3,5.06,0.46,-0.11,0.9,1,-4,4,0.47,12343,100,86,34,84,790,704.0,671,454,60,118.0,392,1,440,575,276,0,0,706,24,19188,704,45.701862,4.911304,65.32,200.9,0,0.0,0,0.0,0.4533,1,0.36,1.3057
78364,1560699014778,-0,2.27,2.39,3.25,2.24,5.04,0.5,-0.04,0.94,2,-6,3,0.5,12135,100,86,34,85,800,705.0,672,456,60,118.0,392,1,440,592,276,0,0,693,8010,-10448,705,,,,,,,,,,,,
78384,1560699014798,-1,2.26,2.36,3.35,2.21,5.07,0.46,0.03,1.03,3,-4,2,0.46,11912,100,86,34,85,821,703.0,668,456,60,117.0,392,1,440,607,276,0,0,696,19188,8010,707,,,,,,,,,,,,
78404,1560699014818,3,2.25,2.37,3.35,2.22,5.04,0.33,0.06,1.02,4,-3,3,0.33,11638,100,86,34,86,842,704.0,660,448,60,115.0,392,1,440,1092,276,0,0,698,687,-12152,704,,,,,,,,,,,,
78424,1560699014838,4,2.26,2.45,3.28,2.23,5.04,0.33,0.15,1.12,3,-1,1,0.36,10913,100,86,34,87,860,705.0,648,450,60,115.0,610,1,443,986,427,0,0,768,-20693,-7436,707,,,,,,,,,,,,
78444,1560699014858,5,2.26,2.55,3.11,2.29,5.07,0.33,0.15,1.09,2,-4,1,0.36,10399,100,86,34,87,908,713.0,641,450,60,116.0,610,1,426,911,427,0,0,793,-13072,-2830,707,45.701851,4.911323,67.9,200.9,0,0.0,0,0.0,0.455,1,0.36,1.3074
78464,1560699014878,4,2.24,2.6,3.01,2.34,5.06,0.4,0.09,0.99,2,-2,0,0.41,10422,100,86,34,86,1020,715.0,632,453,60,115.0,610,1,426,783,427,0,0,765,-2560,-2358,713,,,,,,,,,,,,
78484,1560699014897,5,2.25,2.56,2.95,2.31,5.07,0.47,0.02,1.0,1,-2,1,0.47,10410,100,86,34,86,1129,725.0,633,453,60,115.0,610,1,425,673,427,0,0,755,-3344,-30694,721,,,,,,,,,,,,
78504,1560699014917,-0,2.26,2.54,2.93,2.27,5.05,0.54,-0.02,1.1,0,-1,0,0.55,10212,100,86,34,85,1222,733.0,635,450,60,116.0,610,1,410,582,427,0,0,766,-22796,6389,727,,,,,,,,,,,,
78524,1560699014937,4,2.26,2.54,2.91,2.24,5.07,0.59,-0.02,1.04,-0,-2,-0,0.59,10135,100,86,34,85,1305,736.0,639,461,60,115.0,306,1,407,582,224,0,0,768,-2830,-2344,733,,,,,,,,,,,,
78544,1560699014957,6,2.26,2.53,2.91,2.24,5.04,0.57,0.07,1.05,-0,-2,1,0.57,10206,100,86,34,85,1360,738.0,634,453,60,116.0,306,1,409,582,224,0,0,758,-13068,5876,737,45.701839,4.911342,67.93,200.9,0,0.0,0,0.0,0.4567,1,0.36,1.3091
78564,1560699014977,4,2.26,2.52,2.91,2.23,5.04,0.52,0.12,1.01,0,1,-1,0.54,10330,100,86,34,85,1409,745.0,641,450,60,116.0,306,1,418,582,224,0,0,756,6790,-31066,743,,,,,,,,,,,,
78584,1560699014991,3,2.26,2.49,2.91,2.2,5.08,0.56,0.16,0.92,-0,-0,-0,0.59,10480,100,86,34,85,1369,747.0,642,450,60,116.0,306,1,429,582,224,0,0,767,136,-10214,743,,,,,,,,,,,,
78604,1560699015011,3,2.27,2.49,2.93,2.21,5.07,0.52,0.14,1.01,-0,-1,-0,0.54,10492,100,86,34,85,1320,746.0,644,453,60,116.0,306,1,430,582,224,0,0,769,-31068,-2344,746,,,,,,,,,,,,
78624,1560699015031,5,2.26,2.54,2.95,2.26,5.08,0.57,0.11,1.0,-1,-1,-0,0.58,10575,100,86,34,85,1233,751.0,642,449,60,116.0,311,1,432,582,233,0,0,780,-23308,-2344,750,,,,,,,,,,,,
78644,1560699015051,5,2.26,2.6,2.94,2.33,5.05,0.55,0.16,1.04,-1,-2,-1,0.58,10587,100,86,34,85,1146,752.0,638,455,60,116.0,311,1,433,582,233,0,0,779,-31068,-2826,751,45.701828,4.911361,69.92,201.0,0,0.0,0,0.0,0.4583,1,0.36,1.3107
78664,1560699015071,6,2.25,2.66,2.94,2.33,5.06,0.5,0.14,0.98,-1,-2,0,0.52,10641,100,86,34,85,1098,759.0,642,450,60,116.0,311,1,434,582,233,0,0,784,5876,5344,750,,,,,,,,,,,,
78684,1560699015097,6,2.26,2.69,3.07,2.31,5.07,0.42,0.1,0.98,0,-3,-2,0.43,10714,100,86,34,85,1049,762.0,645,453,60,116.0,311,1,436,582,233,0,0,796,-2766,-2826,757,,,,,,,,,,,,
78704,1560699015117,1,2.27,2.65,3.2,2.3,5.05,0.44,0.12,1.02,0,-3,-2,0.45,10825,100,86,34,85,1007,768.0,640,456,60,115.0,311,1,439,582,233,0,0,812,-10214,3544,768,,,,,,,,,,,,
78724,1560699015137,4,2.27,2.61,3.29,2.3,5.04,0.39,0.16,1.05,-0,-3,-1,0.43,11042,100,86,34,85,965,772.0,646,450,60,116.0,316,1,444,582,242,0,0,820,-3368,-2826,768,,,,,,,,,,,,
78744,1560699015157,3,2.28,2.51,3.26,2.21,5.06,0.42,0.23,1.12,0,1,-2,0.48,11140,100,87,34,85,968,778.0,642,456,60,116.0,316,1,443,582,242,0,0,808,-2574,-30694,774,45.701817,4.91138,72.33,201.0,0,0.0,0,0.0,0.46,1,0.37,1.3124
78764,1560699015177,4,2.28,2.47,3.15,2.15,5.04,0.48,0.15,1.2,-0,-1,-5,0.5,11274,100,87,34,84,973,786.0,653,451,60,116.0,316,1,441,564,242,0,0,811,-2570,-2830,783,,,,,,,,,,,,
78784,1560699015197,3,2.28,2.46,3.01,2.15,5.06,0.53,0.06,1.22,-0,1,-5,0.53,11349,100,86,34,84,973,788.0,656,450,60,116.0,316,1,441,564,242,0,0,822,6389,-25858,786,,,,,,,,,,,,
78804,1560699015217,3,2.29,2.42,2.88,2.14,5.05,0.56,0.08,1.26,-0,1,-3,0.57,11200,100,86,34,84,971,795.0,653,452,60,116.0,316,1,442,564,242,0,0,824,-7436,1524,794,,,,,,,,,,,,
78824,1560699015237,3,2.29,2.4,2.66,2.17,5.06,0.59,0.05,1.26,1,2,-3,0.6,10971,100,87,34,84,967,797.0,641,454,60,116.0,296,1,442,564,236,0,0,814,6905,-2918,797,,,,,,,,,,,,
78844,1560699015257,1,2.29,2.4,2.64,2.19,5.07,0.62,-0.03,1.33,-1,1,-2,0.62,10819,100,86,34,85,960,800.0,641,453,60,115.0,296,1,439,564,236,0,0,821,-12152,-2918,800,45.701805,4.911401,74.11,201.0,0,0.0,0,0.0,0.4617,1,0.37,1.3141
78864,1560699015277,1,2.29,2.45,2.68,2.24,5.06,0.59,0.0,1.18,-0,1,-4,0.59,10932,100,86,34,85,946,800.0,636,455,60,116.0,296,1,442,582,236,0,0,813,6905,-2560,800,,,,,,,,,,,,
78884,1560699015297,5,2.27,2.46,2.79,2.25,5.04,0.61,0.14,1.19,0,-3,-2,0.63,11061,100,86,34,85,932,801.0,643,451,60,116.0,296,1,444,564,236,0,0,813,-3888,-2830,802,,,,,,,,,,,,
78904,1560699015317,3,2.28,2.47,3.05,2.26,5.07,0.64,0.05,1.16,0,-4,-3,0.64,11288,100,86,34,84,922,801.0,643,451,60,115.0,296,1,441,564,236,0,0,838,-3888,3462,801,,,,,,,,,,,,
78924,1560699015337,5,2.28,2.51,3.3,2.29,5.08,0.57,0.09,1.01,0,-4,-2,0.58,11481,100,86,34,84,913,806.0,648,455,60,116.0,306,1,441,564,245,0,0,854,204,-1580,802,,,,,,,,,,,,
78944,1560699015357,5,2.27,2.56,3.45,2.37,5.03,0.46,0.14,0.86,0,-3,-1,0.48,11704,100,86,34,84,907,805.0,658,456,60,115.0,306,1,440,569,245,0,0,874,204,-2311,805,45.701794,4.911422,75.44,201.0,0,0.0,0,0.0,0.4633,1,0.37,1.3157
78964,1560699015377,3,2.27,2.58,3.47,2.43,5.06,0.28,0.21,0.95,1,-2,0,0.35,11935,100,86,34,84,902,811.0,670,456,60,115.0,306,1,440,575,245,0,0,867,-23490,-22795,807,,,,,,,,,,,,
78984,1560699015397,4,2.28,2.62,3.45,2.42,5.04,0.14,0.3,0.89,2,-3,1,0.33,12096,100,87,34,83,901,811.0,671,457,60,116.0,306,1,440,560,245,0,0,882,1524,-2068,811,,,,,,,,,,,,
79004,1560699015417,6,2.28,2.63,3.4,2.44,5.04,0.01,0.4,0.8,4,-2,1,0.4,12287,100,86,34,83,904,818.0,665,455,60,116.0,306,1,440,560,245,0,0,872,-2830,-2068,818,,,,,,,,,,,,
79024,1560699015437,3,2.28,2.62,3.38,2.45,5.06,0.01,0.4,0.65,5,-1,3,0.4,12359,100,86,34,83,897,820.0,664,454,60,116.0,320,1,440,560,262,0,0,904,-2358,-2311,820,,,,,,,,,,,,
79044,1560699015457,3,2.28,2.62,3.32,2.45,5.04,0.0,0.48,0.46,4,2,3,0.48,12270,100,86,34,83,885,823.0,661,457,60,115.0,320,1,440,560,262,0,0,918,3462,-31068,825,45.701778,4.911444,78.19,201.0,0,0.0,0,0.0,0.465,1,0.37,1.3174
79064,1560699015477,2,2.28,2.6,3.17,2.41,5.05,0.12,0.41,0.61,3,1,4,0.42,12081,100,86,34,83,872,832.0,658,450,60,116.0,320,1,440,485,262,0,0,860,-2826,-780,829,,,,,,,,,,,,
79084,1560699015499,3,2.26,2.59,3.04,2.37,5.04,0.2,0.39,0.72,2,3,4,0.44,11904,100,86,34,83,858,840.0,653,449,60,115.0,320,1,440,557,262,0,0,869,-2830,-1277,837,,,,,,,,,,,,
79104,1560699015519,2,2.27,2.6,2.92,2.36,5.07,0.21,0.41,0.59,2,1,6,0.46,11726,100,86,34,83,838,845.0,657,451,60,116.0,320,1,440,551,262,0,0,872,-22795,-780,841,,,,,,,,,,,,
79124,1560699015539,4,2.28,2.57,2.89,2.35,5.07,0.2,0.48,0.6,2,3,5,0.52,11667,100,86,34,83,812,844.0,651,452,60,115.0,287,1,440,550,243,0,0,872,-31068,-775,844,,,,,,,,,,,,
79144,1560699015559,3,2.27,2.46,2.89,2.33,5.05,0.18,0.44,0.62,4,2,6,0.47,11733,100,86,34,83,792,855.0,651,456,60,116.0,287,1,440,550,243,0,0,865,-1578,-2426,855,45.701767,4.911466,78.85,201.0,0,0.0,0,0.0,0.4667,1,0.37,1.3191
79164,1560699015579,3,2.28,2.35,2.98,2.26,5.04,0.12,0.32,0.73,5,2,5,0.34,11852,100,86,34,83,780,855.0,652,454,60,115.0,287,1,440,555,243,0,0,875,-2311,-2564,857,,,,,,,,,,,,
79184,1560699015597,3,2.27,2.34,3.16,2.21,5.04,0.04,0.35,0.74,6,2,4,0.35,11996,100,86,34,83,776,857.0,655,455,60,116.0,287,1,440,559,243,0,0,891,-11532,-10508,856,,,,,,,,,,,,
79204,1560699015617,4,2.27,2.34,3.19,2.19,5.08,0.04,0.29,0.83,6,0,4,0.3,12159,100,86,34,83,779,863.0,651,455,60,115.0,287,1,440,560,243,0,0,885,-2830,-14848,861,,,,,,,,,,,,
79224,1560699015637,6,2.28,2.34,3.1,2.17,5.07,-0.07,0.31,0.94,6,3,5,0.31,12222,100,86,34,83,786,866.0,660,452,60,115.0,298,1,440,560,260,0,0,887,-2826,3,866,,,,,,,,,,,,
79244,1560699015657,5,2.28,2.35,2.96,2.16,5.05,-0.12,0.41,0.88,6,5,6,0.43,12199,100,86,34,83,802,873.0,664,457,60,115.0,298,1,440,560,260,0,0,898,-10508,-2820,870,45.701756,4.911489,81.17,201.0,0,0.0,0,0.0,0.4683,1,0.38,1.3207
79264,1560699015677,6,2.27,2.39,2.93,2.16,5.05,-0.2,0.46,0.76,7,4,6,0.5,12159,100,86,34,83,818,871.0,656,454,60,116.0,298,1,440,560,260,0,0,894,-2426,16,874,,,,,,,,,,,,
79284,1560699015697,6,2.28,2.39,2.92,2.17,5.05,-0.18,0.52,0.75,7,6,6,0.55,12159,100,86,34,83,831,878.0,660,452,60,116.0,298,1,440,560,260,0,0,902,-2570,-5120,879,,,,,,,,,,,,
79304,1560699015717,3,2.28,2.41,2.91,2.16,5.04,-0.12,0.59,0.58,6,6,7,0.6,12167,100,86,34,83,841,882.0,657,451,60,116.0,298,1,440,560,260,0,0,888,-2820,-2836,877,,,,,,,,,,,,
79324,1560699015737,4,2.28,2.4,2.97,2.14,5.07,-0.06,0.53,0.41,6,6,7,0.53,12214,100,86,34,83,839,883.0,658,452,60,116.0,295,1,440,560,259,0,0,905,-780,-4877,882,,,,,,,,,,,,
79344,1560699015757,8,2.27,2.37,3.05,2.12,5.04,0.05,0.4,0.48,5,6,6,0.4,12319,100,86,34,83,837,887.0,664,449,60,115.0,295,1,440,560,259,0,0,902,-14712,-3348,882,45.70174,4.911511,83.06,201.0,0,0.0,0,0.0,0.47,1,0.38,1.3224
79364,1560699015777,12,2.28,2.34,3.08,2.1,5.07,0.15,0.33,0.61,3,5,5,0.36,12376,100,86,34,83,833,886.0,656,455,60,116.0,295,1,440,560,259,0,0,909,-30469,-9476,880,,,,,,,,,,,,
79384,1560699015797,15,2.28,2.33,3.08,2.09,5.07,0.2,0.34,0.64,2,4,5,0.39,12409,94,86,34,83,829,883.0,661,447,60,116.0,295,1,440,560,259,0,0,909,-2820,-3092,877,,,,,,,,,,,,
79404,1560699015817,20,2.28,2.31,3.1,2.07,5.08,0.28,0.36,0.51,3,5,4,0.46,12409,81,86,34,81,826,881.0,666,450,60,116.0,295,1,440,541,259,0,0,913,-1576,-1044,881,,,,,,,,,,,,
79424,1560699015837,24,2.28,2.3,3.1,2.07,5.07,0.35,0.27,0.54,3,4,3,0.44,12278,65,86,34,75,822,877.0,666,453,60,115.0,267,1,440,494,235,0,0,910,-31066,-2324,875,,,,,,,,,,,,
79444,1560699015857,24,2.29,2.29,3.08,2.07,5.05,0.45,0.13,0.68,3,3,1,0.47,12096,47,86,34,67,811,873.0,672,450,60,115.0,267,1,440,444,235,0,0,904,-1578,-3092,867,45.701729,4.911536,84.5,201.1,0,0.0,0,0.0,0.4717,1,0.38,1.3241
79464,1560699015877,23,2.29,2.25,3.1,2.03,5.05,0.6,0.11,0.7,3,1,-0,0.61,11755,34,86,34,57,799,870.0,666,454,60,115.0,267,1,417,378,235,0,0,892,-22795,-14848,870,,,,,,,,,,,,
79484,1560699015896,25,2.28,2.12,3.24,1.97,5.05,0.7,0.21,0.69,3,-1,-1,0.73,11391,28,86,34,51,791,874.0,667,457,60,116.0,267,1,391,298,235,0,0,878,-31068,-2570,874,,,,,,,,,,,,
79504,1560699015916,23,2.3,2.0,3.35,1.86,5.06,0.76,0.14,0.65,3,-1,-1,0.77,11180,25,86,34,47,783,871.0,663,456,60,117.0,267,1,380,547,235,0,0,855,-10508,-11532,864,,,,,,,,,,,,
79524,1560699015936,26,2.29,1.96,3.47,1.81,5.04,0.79,0.19,0.46,3,0,-1,0.81,11022,24,86,34,44,773,860.0,660,455,60,116.0,254,1,357,520,219,0,0,851,-1582,-31066,860,,,,,,,,,,,,
79544,1560699015956,27,2.29,1.86,3.53,1.76,5.03,0.76,0.23,0.47,4,-0,-1,0.79,10794,24,86,34,41,763,862.0,661,455,60,116.0,254,1,335,483,219,0,0,825,-2311,-2574,862,45.701717,4.911561,85.76,201.1,0,0.0,0,0.0,0.4733,1,0.38,1.3257
79564,1560699015976,28,2.28,1.87,3.55,1.75,5.06,0.78,0.09,0.39,3,1,0,0.78,10665,24,86,34,40,761,851.0,657,454,60,116.0,254,1,327,465,219,0,0,829,-1578,-2830,854,,,,,,,,,,,,
79584,1560699015996,26,2.27,1.93,3.53,1.8,5.04,0.79,0.04,0.31,4,-0,-1,0.79,10575,24,86,34,39,759,835.0,653,453,60,116.0,254,1,320,444,219,0,0,808,-2830,-25858,835,,,,,,,,,,,,
79604,1560699016010,28,2.27,1.92,3.52,1.81,5.05,0.91,-0.07,0.25,2,-4,-1,0.92,10593,24,86,34,38,778,830.0,651,457,60,115.0,254,1,317,438,219,0,0,795,-2358,6905,831,,,,,,,,,,,,
79624,1560699016030,23,2.28,1.89,3.53,1.77,5.04,0.9,-0.08,0.22,4,-3,0,0.9,10611,24,86,34,37,798,831.0,656,453,60,116.0,212,1,314,434,176,0,0,771,-31066,-10216,829,,,,,,,,,,,,
79644,1560699016050,22,2.28,1.87,3.63,1.77,5.06,0.91,-0.15,0.24,3,-4,3,0.92,10451,23,86,34,36,820,828.0,653,451,60,116.0,212,1,311,429,176,0,0,731,-31066,-2358,828,45.701702,4.911585,85.36,201.1,0,0.0,0,0.0,0.475,1,0.39,1.3274
79664,1560699016070,25,2.28,1.87,3.69,1.76,5.04,0.85,-0.19,0.22,3,-3,3,0.87,10290,22,86,34,35,841,820.0,648,455,60,116.0,212,1,308,417,176,0,0,694,-2826,-3344,821,,,,,,,,,,,,
79684,1560699016098,25,2.28,1.87,3.67,1.76,5.04,0.84,-0.1,0.09,3,-1,3,0.84,10113,20,86,34,35,854,823.0,653,451,60,117.0,212,1,308,408,176,0,0,689,-25858,-2314,821,,,,,,,,,,,,
79704,1560699016118,23,2.28,1.86,3.64,1.79,5.04,0.96,-0.19,0.11,3,-2,3,0.98,9858,19,86,34,34,867,820.0,653,456,60,116.0,212,1,305,391,176,0,0,673,-13312,-2358,820,,,,,,,,,,,,
79724,1560699016138,23,2.3,1.84,3.58,1.78,5.05,0.92,-0.17,-0.01,3,-2,7,0.94,9674,18,86,34,33,863,807.0,644,456,60,116.0,171,1,302,375,139,0,0,677,-2560,-3344,810,,,,,,,,,,,,
79744,1560699016158,26,2.29,1.8,3.5,1.76,5.03,1.03,-0.29,0.05,3,-2,5,1.07,9479,18,86,34,32,855,808.0,640,458,60,116.0,171,1,300,357,139,0,0,741,-2540,6389,805,45.701691,4.911608,82.79,201.2,0,0.0,0,0.0,0.4767,1,0.39,1.3291
79764,1560699016178,21,2.29,1.75,3.47,1.75,5.04,1.0,-0.29,0.02,4,-1,6,1.04,9286,18,86,34,32,838,801.0,597,458,60,117.0,171,1,300,344,139,0,0,761,11277,6905,802,,,,,,,,,,,,
79784,1560699016194,22,2.28,1.67,3.53,1.71,5.08,0.94,-0.29,-0.07,4,2,7,0.98,9204,18,86,34,31,820,793.0,597,456,60,118.0,171,1,295,336,139,0,0,719,6389,-22795,793,,,,,,,,,,,,
79804,1560699016214,20,2.29,1.64,3.55,1.65,5.06,0.9,-0.22,-0.18,3,-0,7,0.93,9295,17,86,34,30,809,786.0,617,460,60,118.0,171,1,291,333,139,0,0,709,-10218,-31068,785,,,,,,,,,,,,
79824,1560699016234,20,2.29,1.63,3.52,1.6,5.04,0.9,-0.1,-0.18,3,-1,7,0.91,9250,18,86,34,29,800,776.0,622,458,60,118.0,146,1,287,326,114,0,0,715,-23308,1524,775,,,,,,,,,,,,
79844,1560699016254,21,2.28,1.64,3.54,1.58,5.05,1.01,-0.15,-0.11,2,-1,5,1.03,9282,17,86,34,29,793,772.0,618,461,60,118.0,146,1,287,325,114,0,0,696,-2570,204,771,45.701679,4.911631,80.4,201.2,0,0.0,0,0.0,0.4783,1,0.39,1.3307
79864,1560699016274,22,2.26,1.64,3.54,1.59,5.06,1.12,-0.18,0.03,2,-2,3,1.13,9309,17,86,34,28,787,760.0,633,456,60,118.0,146,1,282,319,114,0,0,683,5876,16599,760,,,,,,,,,,,,
79884,1560699016298,20,2.26,1.64,3.54,1.58,5.06,1.1,-0.21,-0.05,2,1,4,1.12,9300,17,86,34,28,786,756.0,636,458,60,118.0,146,1,282,547,114,0,0,673,-31066,-3584,749,,,,,,,,,,,,
79904,1560699016318,22,2.25,1.64,3.53,1.58,5.04,0.92,-0.14,-0.16,1,-1,4,0.93,9286,17,86,34,27,787,749.0,632,459,60,115.0,146,1,278,491,114,0,0,681,-3344,-388,748,,,,,,,,,,,,
79924,1560699016338,19,2.27,1.63,3.52,1.58,5.05,1.03,-0.26,-0.0,0,-0,4,1.06,9195,17,86,34,27,791,745.0,633,458,60,115.0,212,1,278,437,158,0,0,691,6790,-3038,745,,,,,,,,,,,,
79944,1560699016358,16,2.26,1.64,3.5,1.58,5.04,1.08,-0.36,0.11,-1,-4,3,1.14,9115,17,86,33,27,796,743.0,631,455,60,115.0,212,1,278,386,158,0,0,679,-2314,-10348,738,45.701664,4.911653,77.39,201.2,0,0.0,0,0.0,0.48,1,0.39,1.3324
79964,1560699016378,15,2.26,1.65,3.49,1.59,5.05,1.14,-0.41,0.04,-1,-2,2,1.22,9062,17,86,33,26,801,738.0,633,457,60,115.0,212,1,274,340,158,0,0,671,-2830,-26380,735,,,,,,,,,,,,
79984,1560699016396,11,2.28,1.65,3.44,1.59,5.04,1.15,-0.46,0.05,-2,-3,1,1.24,9049,17,86,33,26,803,732.0,623,455,60,115.0,212,1,274,296,158,0,0,679,-2826,24845,731,,,,,,,,,,,,
80004,1560699016416,9,2.29,1.64,3.44,1.57,5.08,1.19,-0.48,-0.01,-2,-3,-1,1.29,9071,17,86,33,26,826,728.0,618,451,60,115.0,212,1,274,292,158,0,0,682,-2830,11576,731,,,,,,,,,,,,
80024,1560699016436,4,2.3,1.65,3.37,1.58,5.07,1.06,-0.47,-0.03,-2,-5,-2,1.16,9084,17,86,33,26,869,726.0,626,456,60,115.0,137,1,274,289,100,0,0,701,-2918,12333,725,,,,,,,,,,,,
80044,1560699016456,4,2.31,1.65,3.36,1.59,5.08,0.99,-0.43,-0.08,-2,-3,-2,1.08,9119,17,86,33,26,912,724.0,628,452,60,116.0,137,1,274,286,100,0,0,697,-388,8010,720,45.701652,4.911674,74.05,201.2,0,0.0,0,0.0,0.4817,1,0.39,1.3341
80064,1560699016476,5,2.3,1.66,3.36,1.6,5.06,0.84,-0.28,-0.17,-2,-4,-2,0.88,9137,16,86,33,26,953,721.0,627,457,60,116.0,137,1,274,283,100,0,0,704,-2830,19188,718,,,,,,,,,,,,
80084,1560699016496,1,2.31,1.66,3.35,1.6,5.09,0.69,-0.14,-0.26,-1,0,-2,0.7,9168,16,86,33,25,985,717.0,640,451,60,115.0,137,1,270,279,100,0,0,701,204,19188,717,,,,,,,,,,,,
80104,1560699016516,-1,2.31,1.66,3.34,1.63,5.06,0.61,0.05,-0.29,0,-1,-0,0.61,9209,16,86,33,26,1007,716.0,634,459,60,116.0,137,1,274,276,100,0,0,695,-13312,-3584,717,,,,,,,,,,,,
80124,1560699016536,-0,2.31,1.68,3.34,1.64,5.06,0.58,0.15,-0.22,1,2,1,0.6,9231,16,86,33,25,1020,716.0,633,456,60,116.0,91,1,270,188,65,0,0,692,-30694,16599,716,,,,,,,,,,,,
80144,1560699016556,1,2.3,1.68,3.34,1.66,5.07,0.72,0.07,-0.05,1,-1,2,0.73,9259,16,86,33,25,1004,708.0,626,460,60,115.0,91,1,270,188,65,0,0,695,687,14342,711,45.701637,4.911694,71.17,201.2,0,0.0,0,0.0,0.4833,1,0.4,1.3357
80164,1560699016576,2,2.29,1.68,3.35,1.65,5.07,0.85,-0.08,0.09,2,-0,2,0.86,9263,16,86,33,25,985,708.0,632,457,60,115.0,91,1,270,188,65,0,0,691,15647,15647,708,,,,,,,,,,,,
80184,1560699016596,2,2.31,1.69,3.39,1.66,5.05,0.91,-0.16,0.07,1,-3,2,0.92,9286,16,86,34,25,960,708.0,634,454,60,115.0,91,1,270,188,65,0,0,685,8010,24,705,,,,,,,,,,,,
80204,1560699016616,1,2.29,1.68,3.39,1.64,5.06,0.81,-0.11,0.04,2,-1,1,0.81,9300,16,86,34,25,939,703.0,633,455,60,116.0,91,1,270,188,65,0,0,686,-2830,16599,703,,,,,,,,,,,,
80224,1560699016636,1,2.29,1.67,3.4,1.61,5.05,0.69,0.02,-0.05,3,2,2,0.69,9300,16,86,34,25,931,700.0,630,459,60,116.0,94,1,270,188,66,0,0,685,-2830,-10399,702,,,,,,,,,,,,
80244,1560699016656,2,2.29,1.67,3.37,1.62,5.04,0.78,-0.08,0.07,3,2,2,0.79,9295,16,86,34,25,925,700.0,634,456,60,116.0,94,1,270,188,66,0,0,691,-10448,6208,700,45.70163,4.911713,69.17,201.2,0,0.0,0,0.0,0.485,1,0.4,1.3374
80264,1560699016676,5,2.29,1.72,3.33,1.65,5.06,0.91,-0.26,0.14,2,3,2,0.94,9333,16,86,34,25,924,698.0,633,455,60,115.0,94,1,270,188,66,0,0,682,14342,-2345,698,,,,,,,,,,,,
80284,1560699016698,13,2.3,1.77,3.27,1.71,5.05,0.88,-0.32,0.12,2,2,2,0.94,9323,16,86,34,25,924,691.0,635,457,60,115.0,94,1,270,188,66,0,0,685,6208,-10399,690,,,,,,,,,,,,
80304,1560699016718,12,2.29,1.83,3.23,1.75,5.04,0.75,-0.23,0.01,1,4,2,0.78,9291,16,86,34,24,932,679.0,637,452,60,115.0,94,1,270,181,66,0,0,671,-2345,-388,679,,,,,,,,,,,,
80324,1560699016738,14,2.3,1.82,3.28,1.74,5.05,0.72,-0.13,-0.06,2,2,3,0.73,9213,16,86,34,24,942,676.0,638,453,60,115.0,92,1,270,181,63,0,0,672,-3038,-26380,676,,,,,,,,,,,,
80344,1560699016758,14,2.31,1.81,3.39,1.73,5.04,0.67,-0.04,-0.1,3,5,2,0.67,9093,16,86,34,24,965,677.0,637,460,60,115.0,92,1,270,181,63,0,0,663,31988,-2826,672,45.701618,4.911732,68.03,201.2,0,0.0,0,0.0,0.4867,1,0.4,1.3391
80364,1560699016778,12,2.31,1.77,3.51,1.71,5.05,0.81,-0.05,-0.05,3,1,3,0.81,8932,16,86,34,24,988,673.0,633,455,60,115.0,92,1,270,181,63,0,0,642,-3578,-3038,671,,,,,,,,,,,,
80384,1560699016798,19,2.31,1.77,3.57,1.73,5.07,0.73,0.02,-0.09,3,4,4,0.73,8761,15,86,34,25,1003,670.0,630,451,60,117.0,92,1,270,188,63,0,0,633,3543,-26380,670,,,,,,,,,,,,
80404,1560699016818,16,2.31,1.79,3.6,1.75,5.07,0.62,0.1,-0.1,4,2,5,0.63,8553,16,86,34,25,1019,666.0,617,452,60,115.0,92,1,270,188,63,0,0,635,8958,2024,666,,,,,,,,,,,,
80424,1560699016838,13,2.31,1.76,3.59,1.73,5.04,0.7,0.14,0.02,3,2,5,0.72,8400,15,86,34,26,1051,665.0,613,450,60,115.0,88,1,274,182,59,0,0,609,8958,3395,665,,,,,,,,,,,,
80444,1560699016858,11,2.31,1.74,3.59,1.73,5.04,0.77,0.09,-0.04,4,6,6,0.78,8359,16,86,34,26,1083,662.0,608,460,60,117.0,88,1,273,179,59,0,0,530,-3488,2104,662,45.701607,4.91175,66.65,201.2,0,0.0,0,0.0,0.4883,1,0.4,1.3407
80464,1560699016878,5,2.33,1.73,3.53,1.75,5.04,0.68,0.06,0.02,4,4,6,0.68,8484,16,86,34,27,1101,659.0,618,454,60,116.0,88,1,278,187,59,0,0,547,2024,-30139,659,,,,,,,,,,,,
80484,1560699016897,0,2.33,1.75,3.53,1.8,5.05,0.55,0.04,-0.19,6,10,7,0.55,8465,15,86,34,27,1118,655.0,622,460,60,117.0,88,1,278,185,59,0,0,521,4909,6274,655,,,,,,,,,,,,
80504,1560699016917,3,2.33,1.71,3.52,1.78,5.08,0.6,0.06,-0.12,6,10,8,0.61,8589,15,86,34,27,1140,652.0,625,454,60,117.0,88,1,278,188,59,0,0,545,244,208,652,,,,,,,,,,,,
80524,1560699016937,3,2.32,1.69,3.49,1.79,5.06,0.75,-0.12,-0.17,6,13,9,0.75,8573,15,86,34,27,1161,649.0,626,457,60,116.0,91,1,278,188,59,0,0,578,-2580,16529,649,,,,,,,,,,,,
80544,1560699016957,1,2.31,1.65,3.48,1.79,5.05,0.86,-0.29,-0.04,6,11,11,0.91,8596,15,86,34,27,1171,648.0,616,456,60,117.0,91,1,278,188,59,0,0,586,-2836,1010,648,45.701599,4.911768,65.27,201.3,0,0.0,0,0.0,0.49,1,0.4,1.3424
80564,1560699016977,-0,2.32,1.65,3.52,1.8,5.05,0.89,-0.3,0.04,7,12,15,0.94,8680,15,86,34,27,1176,641.0,630,456,60,117.0,91,1,278,188,59,0,0,603,771,-16883,641,,,,,,,,,,,,
80584,1560699016991,5,2.33,1.64,3.5,1.8,5.07,0.76,-0.23,-0.05,7,14,14,0.79,8636,16,86,34,28,1182,640.0,630,458,60,117.0,91,1,282,188,59,0,0,589,-1346,6273,640,,,,,,,,,,,,
80604,1560699017011,2,2.33,1.65,3.48,1.85,5.07,0.75,-0.19,-0.12,7,11,13,0.78,8806,21,86,34,29,1188,636.0,625,454,60,116.0,91,1,287,188,59,0,0,608,17336,1010,636,,,,,,,,,,,,
80624,1560699017031,3,2.33,1.64,3.49,1.87,5.08,0.8,-0.27,0.06,8,8,12,0.84,8806,28,86,34,31,1189,632.0,628,452,60,117.0,98,1,295,188,62,0,0,596,19320,-3820,632,,,,,,,,,,,,
80644,1560699017051,3,2.33,1.64,3.51,1.89,5.07,0.92,-0.35,0.02,6,5,12,0.98,8975,33,86,34,34,1189,625.0,625,455,60,117.0,98,1,305,195,62,0,0,593,16529,-16179,625,45.701584,4.911785,63.58,201.3,0,0.0,0,0.0,0.4917,1,0.41,1.3441
80664,1560699017071,4,2.33,1.64,3.53,1.89,5.08,0.96,-0.34,0.07,6,6,15,1.02,9236,38,86,34,38,1186,623.0,630,460,60,117.0,98,1,317,210,62,0,0,591,16529,-768,623,,,,,,,,,,,,
80684,1560699017097,1,2.34,1.65,3.5,1.89,5.05,0.85,-0.3,0.01,7,3,13,0.9,9503,44,86,34,41,1183,618.0,636,455,60,117.0,98,1,335,221,62,0,0,592,17740,-3210,618,,,,,,,,,,,,
80704,1560699017117,5,2.33,1.65,3.52,1.89,5.06,0.83,-0.34,-0.04,7,2,13,0.89,9931,50,86,34,45,1179,618.0,634,455,60,116.0,98,1,365,237,62,0,0,582,5344,-12040,618,,,,,,,,,,,,
80724,1560699017137,3,2.33,1.65,3.53,1.88,5.04,0.94,-0.36,0.0,6,3,14,1.01,10151,56,86,34,49,1174,616.0,642,452,60,117.0,159,1,385,268,98,0,0,581,-768,15649,615,,,,,,,,,,,,
80744,1560699017157,2,2.33,1.66,3.52,1.87,5.05,0.9,-0.32,0.06,6,1,14,0.95,10422,60,86,34,53,1145,612.0,654,453,60,117.0,159,1,397,313,98,0,0,580,-3210,-4035,612,45.701576,4.9118,61.61,201.4,0,0.0,0,0.0,0.4933,1,0.41,1.3457
80764,1560699017177,4,2.33,1.68,3.53,1.92,5.08,0.94,-0.39,0.1,6,1,13,1.02,10806,63,86,34,58,1105,608.0,657,455,60,117.0,159,1,428,358,98,0,0,572,4956,8488,608,,,,,,,,,,,,
80784,1560699017197,3,2.32,1.69,3.53,1.91,5.04,0.9,-0.5,0.2,7,2,12,1.03,11154,64,86,34,61,1066,603.0,660,455,60,116.0,159,1,447,390,98,0,0,580,-13043,15649,603,,,,,,,,,,,,
80804,1560699017217,6,2.34,1.68,3.53,1.91,5.03,0.91,-0.48,0.24,7,0,12,1.03,11391,64,86,34,62,1029,604.0,656,452,60,116.0,159,1,443,409,98,0,0,582,6273,-12040,602,,,,,,,,,,,,
80824,1560699017237,3,2.34,1.68,3.49,1.89,5.07,0.96,-0.41,0.2,7,1,14,1.04,11667,65,86,34,63,1018,606.0,666,449,60,116.0,298,1,440,412,181,0,0,591,-32504,-30139,606,,,,,,,,,,,,
80844,1560699017257,4,2.34,1.7,3.43,1.91,5.06,0.94,-0.39,0.35,6,-0,14,1.02,11942,65,86,35,63,1032,603.0,670,450,60,116.0,298,1,440,415,181,0,0,1340,-28648,-3210,602,45.701565,4.911815,60.12,201.4,0,0.0,0,0.0,0.495,1,0.41,1.3474
80864,1560699017277,5,2.33,1.72,3.49,1.95,5.05,0.99,-0.37,0.49,6,-0,15,1.05,12135,65,86,35,63,1063,603.0,677,448,60,116.0,298,1,440,415,181,0,0,1340,-28648,4956,603,,,,,,,,,,,,
80884,1560699017297,2,2.36,1.76,3.43,1.99,5.04,0.98,-0.26,0.42,7,-3,16,1.01,12311,65,86,35,64,1113,600.0,664,448,60,116.0,298,1,440,422,181,0,0,1340,2048,5344,600,,,,,,,,,,,,
80904,1560699017317,0,2.36,1.83,3.44,2.1,5.05,0.96,-0.3,0.47,7,-3,16,1.0,12327,64,86,35,64,1156,602.0,677,448,60,117.0,298,1,440,422,181,0,0,1340,-1894,-28304,601,,,,,,,,,,,,
80924,1560699017337,2,2.37,1.86,3.37,2.19,5.04,0.93,-0.44,0.61,8,-3,18,1.03,12034,57,86,35,62,1192,608.0,658,443,60,116.0,315,1,440,409,191,0,0,26,3472,771,608,,,,,,,,,,,,
80944,1560699017357,2,2.36,1.94,3.29,2.24,5.05,0.91,-0.45,0.68,8,-3,18,1.01,11807,46,86,35,58,1216,615.0,657,448,60,116.0,315,1,422,375,191,0,0,645,4956,3,615,45.701553,4.91183,58.85,201.4,0,0.0,0,0.0,0.4967,1,0.41,1.3491
80964,1560699017377,4,2.36,2.04,3.28,2.32,5.04,0.88,-0.32,0.62,8,-3,18,0.93,11595,37,86,35,52,1202,617.0,653,446,60,116.0,315,1,394,310,191,0,0,629,23619,24,617,,,,,,,,,,,,
80984,1560699017399,1,2.38,2.08,3.26,2.33,5.05,0.88,-0.33,0.64,8,-3,18,0.94,11377,30,86,35,46,1177,620.0,650,452,60,116.0,315,1,372,243,191,0,0,615,5344,-1346,620,,,,,,,,,,,,
81004,1560699017419,6,2.36,2.13,3.39,2.36,5.07,0.91,-0.45,0.64,8,-4,16,1.01,11274,28,86,35,41,1136,619.0,661,457,60,116.0,315,1,335,231,191,0,0,624,-3210,-1346,619,,,,,,,,,,,,
81024,1560699017439,3,2.37,2.1,3.43,2.34,5.05,0.87,-0.44,0.67,9,-5,18,0.98,11055,27,86,35,38,1097,618.0,655,453,60,116.0,152,1,317,227,95,0,0,609,-23055,30721,618,,,,,,,,,,,,
81044,1560699017459,1,2.37,2.07,3.43,2.31,5.06,0.89,-0.36,0.63,9,-6,17,0.96,10806,27,86,35,37,1069,623.0,653,455,60,117.0,152,1,314,222,95,0,0,604,-7939,19320,623,45.701542,4.911844,58.33,201.4,0,0.0,0,0.0,0.4983,1,0.41,1.3507
81064,1560699017479,5,2.36,2.04,3.51,2.29,5.06,0.79,-0.29,0.49,10,-5,18,0.85,10641,27,86,35,37,1035,621.0,649,453,60,117.0,152,1,314,218,95,0,0,602,-3820,3403,622,,,,,,,,,,,,
81084,1560699017499,4,2.37,2.0,3.49,2.28,5.07,0.82,-0.23,0.44,11,-3,19,0.85,10393,27,86,35,37,979,623.0,650,453,60,116.0,152,1,314,216,95,0,0,596,-768,269,621,,,,,,,,,,,,
81104,1560699017519,8,2.37,1.96,3.57,2.28,5.07,0.8,-0.35,0.38,11,-4,19,0.87,10240,27,86,35,37,927,626.0,647,455,60,117.0,152,1,314,216,95,0,0,582,17344,-28304,623,,,,,,,,,,,,
81124,1560699017539,11,2.37,1.88,3.56,2.24,5.05,0.9,-0.47,0.34,11,-6,21,1.02,10190,27,86,35,38,897,618.0,644,455,60,116.0,134,1,317,216,83,0,0,569,6273,-28648,618,,,,,,,,,,,,
81144,1560699017559,18,2.37,1.79,3.55,2.22,5.04,1.02,-0.61,0.46,11,-7,19,1.19,10229,25,86,35,37,870,608.0,648,456,60,116.0,134,1,314,215,83,0,0,550,-16384,10432,608,45.70153,4.911857,59.7,201.4,0,0.0,0,0.0,0.5,1,0.41,1.3524
81164,1560699017579,17,2.37,1.68,3.63,2.11,5.05,1.11,-0.66,0.48,11,-10,19,1.29,10347,23,86,35,36,850,603.0,651,448,60,117.0,134,1,311,215,83,0,0,524,10432,1267,607,,,,,,,,,,,,
81184,1560699017599,15,2.37,1.55,3.64,2.03,5.07,1.03,-0.62,0.52,13,-6,20,1.2,10285,21,86,35,34,830,604.0,651,458,60,116.0,134,1,305,213,83,0,0,501,1,-29984,604,,,,,,,,,,,,
81204,1560699017619,15,2.36,1.49,3.68,1.98,5.05,0.99,-0.5,0.52,13,-8,21,1.11,10179,19,86,35,33,839,604.0,646,459,60,116.0,134,1,302,211,83,0,0,470,774,-32504,601,,,,,,,,,,,,
81224,1560699017639,9,2.36,1.45,3.68,1.93,5.05,0.99,-0.56,0.51,13,-4,22,1.14,9936,18,86,35,32,850,603.0,645,451,60,116.0,130,1,300,205,78,0,0,438,774,-12040,600,,,,,,,,,,,,
81244,1560699017659,12,2.36,1.46,3.68,1.93,5.06,1.01,-0.59,0.32,15,-2,21,1.17,9755,16,86,35,31,898,598.0,641,460,60,117.0,130,1,295,199,78,0,0,416,-8188,17344,598,45.701519,4.91187,59.5,201.5,0,0.0,0,0.0,0.5017,1,0.42,1.3541
81264,1560699017679,12,2.34,1.51,3.66,1.96,5.06,1.0,-0.65,0.46,15,-3,22,1.19,9566,14,86,35,29,945,590.0,638,451,60,117.0,130,1,287,193,78,0,0,417,-2934,6273,591,,,,,,,,,,,,
81284,1560699017699,5,2.34,1.6,3.64,2.04,5.05,1.01,-0.68,0.3,15,2,20,1.22,9365,12,86,35,28,984,587.0,630,455,60,116.0,130,1,282,190,78,0,0,427,6273,-16384,587,,,,,,,,,,,,
81304,1560699017719,3,2.34,1.68,3.58,2.09,5.07,0.79,-0.51,0.18,15,-2,22,0.94,9150,11,86,35,26,1021,586.0,632,451,60,117.0,130,1,274,187,78,0,0,457,6273,10432,582,,,,,,,,,,,,
81324,1560699017739,2,2.33,1.69,3.54,2.09,5.06,0.79,-0.4,0.14,14,1,19,0.89,8962,11,86,35,24,1052,580.0,630,458,60,117.0,109,1,270,187,63,0,0,505,-18032,12552,580,,,,,,,,,,,,
81344,1560699017759,5,2.32,1.69,3.54,2.08,5.04,0.72,-0.23,0.04,13,-5,18,0.76,8894,11,86,35,24,1083,572.0,624,458,60,117.0,109,1,270,180,63,0,0,507,2216,-3082,569,45.701508,4.911883,58.28,201.5,0,0.0,0,0.0,0.5033,1,0.42,1.3557
81364,1560699017779,10,2.31,1.68,3.55,2.04,5.04,0.65,-0.16,-0.07,12,-2,19,0.67,8958,11,86,35,24,1082,563.0,525,458,60,117.0,109,1,270,180,63,0,0,508,2216,-22519,563,,,,,,,,,,,,
81384,1560699017799,9,2.31,1.67,3.61,1.96,5.03,0.54,-0.06,-0.07,11,-2,19,0.54,8945,10,86,35,23,1075,564.0,534,454,60,116.0,109,1,270,175,63,0,0,474,-9072,11560,564,,,,,,,,,,,,
81404,1560699017819,9,2.31,1.69,3.63,1.94,5.07,0.44,-0.02,-0.09,11,-1,19,0.44,8937,10,86,35,23,1092,563.0,544,450,60,116.0,109,1,270,175,63,0,0,466,-32248,12552,565,,,,,,,,,,,,
81424,1560699017839,10,2.3,1.72,3.6,1.92,5.04,0.39,0.09,-0.22,11,0,17,0.4,8786,10,86,35,23,1110,557.0,542,458,60,117.0,103,1,270,175,58,0,0,473,-32248,16648,557,,,,,,,,,,,,
81444,1560699017859,10,2.31,1.71,3.59,1.9,5.07,0.55,0.16,-0.27,10,-0,16,0.57,8708,10,86,35,23,1134,556.0,557,455,60,117.0,103,1,270,175,58,0,0,482,-2336,-22519,556,45.701496,4.911894,56.88,201.5,0,0.0,0,0.0,0.505,1,0.42,1.3574
81464,1560699017879,16,2.31,1.7,3.59,1.89,5.05,0.69,-0.06,-0.17,10,0,16,0.69,8668,10,86,35,23,1160,547.0,579,454,60,117.0,103,1,270,175,58,0,0,454,-32248,16648,547,,,,,,,,,,,,
81484,1560699017898,16,2.32,1.66,3.56,1.88,5.05,0.78,-0.12,-0.22,10,1,15,0.79,8672,10,86,35,23,1177,542.0,566,456,60,117.0,103,1,270,175,58,0,0,450,-9072,771,540,,,,,,,,,,,,
81504,1560699017918,21,2.32,1.54,3.56,1.82,5.04,0.76,-0.05,-0.23,9,1,16,0.76,8660,10,86,35,23,1192,537.0,587,453,60,117.0,103,1,270,175,58,0,0,433,-22519,505,533,,,,,,,,,,,,
81524,1560699017938,22,2.32,1.51,3.56,1.73,5.06,0.79,-0.08,-0.24,9,3,15,0.79,8624,10,86,35,23,1188,528.0,608,455,60,116.0,107,1,270,175,57,0,0,424,1341,-1923,529,,,,,,,,,,,,
81544,1560699017958,18,2.32,1.49,3.54,1.7,5.07,0.88,-0.11,-0.12,9,2,15,0.88,8495,10,86,35,23,1178,522.0,618,457,60,116.0,107,1,270,175,57,0,0,434,-4054,-6441,522,45.701481,4.911905,55.0,201.5,0,0.0,0,0.0,0.5067,1,0.42,1.3591
81564,1560699017978,22,2.32,1.49,3.54,1.69,5.06,0.92,-0.11,-0.17,10,2,13,0.92,8445,10,86,35,23,1168,516.0,620,457,60,117.0,107,1,270,172,57,0,0,452,2109,-23367,516,,,,,,,,,,,,
81584,1560699017992,20,2.31,1.48,3.55,1.69,5.04,1.02,-0.13,-0.08,9,2,12,1.03,8423,10,86,35,24,1159,510.0,617,452,60,117.0,107,1,270,177,57,0,0,431,2524,2212,506,,,,,,,,,,,,
81604,1560699018012,18,2.32,1.48,3.6,1.69,5.04,1.06,-0.23,-0.05,9,0,12,1.08,8366,10,86,35,23,1155,504.0,613,453,60,117.0,107,1,270,168,57,0,0,382,998,32033,502,,,,,,,,,,,,
81624,1560699018032,18,2.31,1.5,3.61,1.68,5.04,1.11,-0.32,-0.11,8,1,12,1.15,8227,10,86,35,24,1157,497.0,613,456,60,118.0,106,1,270,166,53,0,0,369,1,-6656,495,,,,,,,,,,,,
