"Interval"|"ms"|0|0|1,"Utc"|"ms"|0|0|1,"FB_p"|"bar"|0|300|50,"Volant"|"F"|0.0|300.0|50,"xFR"|"mm"|0.0|5.0|50,"xRR"|"mm"|0.0|5.0|50,"xFL"|"mm"|0.0|5.0|50,"xRL"|"mm"|0.0|5.0|50,"AccelX"|"G"|-3.0|3.0|50,"AccelY"|"G"|-3.0|3.0|50,"AccelZ"|"G"|-3.0|3.0|50,"Yaw"|"Deg/Sec"|-120|120|50,"Pitch"|"Deg/Sec"|-120|120|50,"Roll"|"Deg/Sec"|-120|120|50,"Gsum"|"G"|0.0|3.0|50,"RPM"|""|0|14000|50,"TPS"|"%"|0|100|50,"WaterTemp"|"?C"|0|300|50,"AirTemp"|"?C"|-1000|1000|50,"MAP"|"KPa"|0|255|50,"Lambda"|""|0|1024|50,"WheelSpeed"|"MPH"|0.0|150.0|50,"OilPress"|"PSI"|0|150|50,"FuelPress"|"PSI"|0|150|50,"OilTemp"|"F"|0|300|50,"Battery"|"Volts"|0.0|20.0|50,"FuelCon"|"L/h"|-1000|1000|50,"Gear"|""|0|10|50,"Advance"|"Deg"|-360|360|50,"Injection"|"ms"|-1000|1000|50,"FuelCon"|"L/100km"|-1000|1000|50,"LC_But_Pres"|""|-1000|1000|50,"LC_Active"|""|-1000|1000|50,"RD_Speed"|""|-1000|1000|50,"RUD_Speed"|""|-1000|1000|50,"LD_Speed"|""|-1000|1000|50,"LUD_Speed"|""|-1000|1000|50,"Ana1"|"bar"|-1000.0|1000.0|50,"Latitude"|"Degrees"|-180.0|180.0|10,"Longitude"|"Degrees"|-180.0|180.0|10,"Speed"|"kph"|0.0|150.0|10,"Altitude"|"m"|0.0|4000.0|10,"LapCount"|""|0|0|10,"LapTime"|"Min"|0.0|0.0|10,"Sector"|""|0|0|10,"SectorTime"|"Min"|0.0|0.0|10,"ElapsedTime"|"Min"|0.0|0.0|10,"CurrentLap"|""|0|0|10,"Distance"|"km"|0.0|0.0|10,"SessionTime"|"Min"|0.0|0.0|10
42163,1561297088016,2,2.06,2.27,3.41,1.57,3.19,1.09,0.67,0.53,-19,-3,-13,1.28,7600,16,89,39,25,894,427.0,565,463,60,126.0,111,1,266,157,45,0,0,420,31796,-1562,396,181.28,,,,,,,,,,,,
42183,1561297088036,1,2.05,2.33,3.46,1.57,3.14,1.16,0.81,0.45,-20,-4,-15,1.41,7545,15,89,39,26,893,426.0,566,458,60,124.0,111,1,268,158,45,0,0,419,13552,-19019,393,-5.59,,,,,,,,,,,,
42203,1561297088056,2,2.05,2.34,3.48,1.57,3.09,1.2,0.87,0.45,-21,-5,-17,1.48,7533,17,89,39,27,893,426.0,559,461,60,125.0,115,1,272,159,45,0,0,421,-3856,-6524,390,181.28,,,,,,,,,,,,
42223,1561297088076,2,2.04,2.38,3.51,1.57,3.09,1.23,0.9,0.4,-21,-6,-18,1.52,7479,20,89,39,29,892,424.0,562,461,60,125.0,115,1,278,162,45,0,0,419,-4082,-6475,388,181.28,,,,,,,,,,,,
42243,1561297088101,1,2.05,2.37,3.52,1.56,3.1,1.29,1.0,0.39,-21,-6,-19,1.63,7488,22,89,39,31,892,420.0,563,458,60,125.0,115,1,286,165,45,0,0,420,-8165,3,385,-5.59,45.698776,4.909781,40.0,196.8,0,0.0,0,0.0,0.4123,1,0.27,0.704
42263,1561297088121,1,2.05,2.37,3.51,1.57,3.1,1.3,1.06,0.36,-22,-6,-21,1.67,7440,14,89,39,33,897,420.0,565,459,60,126.0,115,1,292,172,45,0,0,413,-8165,-18948,385,-5.59,,,,,,,,,,,,
42283,1561297088141,1,2.05,2.37,3.5,1.56,3.09,1.37,1.12,0.4,-24,-9,-22,1.77,7437,18,89,39,34,900,422.0,561,460,60,126.0,115,1,295,177,45,0,0,418,-3414,-6656,383,181.28,,,,,,,,,,,,
42303,1561297088161,-2,2.05,2.38,3.48,1.56,3.08,1.43,1.21,0.44,-24,-10,-23,1.88,7361,25,89,39,36,904,422.0,556,460,60,126.0,132,1,301,188,51,0,0,415,-8165,-6656,381,181.28,,,,,,,,,,,,
42323,1561297088181,-0,2.05,2.39,3.48,1.56,3.09,1.49,1.29,0.49,-24,-9,-24,1.97,7352,21,89,39,38,912,420.0,558,462,60,126.0,132,1,307,200,51,0,0,416,-8165,486,381,181.28,,,,,,,,,,,,
42343,1561297088201,-0,2.05,2.39,3.45,1.54,3.11,1.54,1.24,0.61,-25,-9,-26,1.98,7358,22,89,39,39,922,419.0,560,459,60,124.0,132,1,310,206,51,0,0,411,7154,-6656,378,414.87,45.698776,4.909794,39.37,196.8,0,0.0,0,0.0,0.414,1,0.28,0.7057
42363,1561297088221,2,2.05,2.38,3.4,1.53,3.1,1.59,1.18,0.69,-26,-6,-27,1.98,7431,13,89,39,40,936,419.0,553,457,60,126.0,132,1,317,207,51,0,0,412,-3414,3,379,414.87,,,,,,,,,,,,
42383,1561297088241,4,2.05,2.39,3.42,1.54,3.1,1.41,1.1,0.65,-27,-3,-29,1.79,7434,26,89,39,42,942,417.0,550,462,60,124.0,132,1,332,210,51,0,0,413,-21944,742,378,-5.59,,,,,,,,,,,,
42403,1561297088261,-3,2.05,2.41,3.39,1.54,3.09,1.22,1.06,0.62,-28,-3,-29,1.62,7485,27,89,39,43,956,416.0,556,461,60,126.0,156,1,340,212,59,0,0,413,18584,8200,377,414.87,,,,,,,,,,,,
42423,1561297088281,-0,2.04,2.42,3.4,1.55,3.1,1.14,0.98,0.62,-29,-3,-31,1.5,7509,27,89,39,43,975,416.0,557,462,60,125.0,156,1,340,213,59,0,0,409,18584,-6656,376,-5.59,,,,,,,,,,,,
42443,1561297088300,-0,2.05,2.41,3.4,1.54,3.09,1.16,0.94,0.67,-30,-0,-33,1.49,7563,23,89,39,45,1000,414.0,565,458,60,125.0,156,1,355,216,59,0,0,412,2524,1,375,414.87,45.698784,4.909805,38.47,196.9,0,0.0,0,0.0,0.4157,1,0.28,0.7074
42463,1561297088320,-1,2.06,2.41,3.42,1.54,3.1,1.14,0.97,0.68,-30,0,-32,1.49,7591,29,89,39,45,1023,415.0,561,461,60,126.0,156,1,355,216,59,0,0,411,13040,742,374,414.87,,,,,,,,,,,,
42483,1561297088340,0,2.04,2.4,3.44,1.55,3.09,1.16,1.01,0.67,-30,0,-32,1.54,7609,28,89,39,45,1036,413.0,568,457,60,125.0,156,1,355,216,59,0,0,412,-9166,-6656,373,414.87,,,,,,,,,,,,
42503,1561297088360,-0,2.06,2.41,3.41,1.55,3.09,1.25,1.07,0.77,-30,-2,-33,1.64,7640,23,89,39,46,1064,413.0,570,460,60,126.0,166,1,362,218,62,0,0,409,-9166,-6656,372,181.28,,,,,,,,,,,,
42523,1561297088380,0,2.04,2.42,3.4,1.55,3.1,1.32,1.11,0.78,-30,-3,-33,1.73,7684,25,89,39,47,1100,412.0,573,461,60,126.0,166,1,370,220,62,0,0,409,13040,-6656,374,181.28,,,,,,,,,,,,
42543,1561297088400,2,2.06,2.46,3.4,1.56,3.11,1.37,1.1,0.79,-29,-5,-34,1.76,7678,30,89,39,48,1108,410.0,576,461,60,126.0,166,1,372,225,62,0,0,407,9517,770,373,181.28,45.698792,4.909815,38.53,196.9,0,0.0,0,0.0,0.4173,1,0.28,0.709
42563,1561297088420,2,2.05,2.45,3.4,1.56,3.11,1.28,1.08,0.78,-29,-7,-33,1.67,7693,32,89,39,49,1122,410.0,578,463,60,125.0,166,1,375,231,62,0,0,404,9517,1,372,-5.59,,,,,,,,,,,,
42583,1561297088440,3,2.06,2.45,3.4,1.56,3.11,1.08,1.02,0.67,-29,-5,-32,1.49,7674,29,89,39,49,1130,410.0,573,458,60,124.0,166,1,375,231,62,0,0,407,9517,-6656,373,-5.59,,,,,,,,,,,,
42603,1561297088460,5,2.05,2.44,3.39,1.56,3.07,0.8,0.87,0.58,-30,-3,-33,1.18,7594,32,89,39,50,1140,410.0,577,467,60,125.0,185,1,378,162,69,0,0,412,13040,-3866,372,-5.59,,,,,,,,,,,,
42623,1561297088480,4,2.05,2.45,3.38,1.55,3.05,0.56,0.83,0.49,-30,-2,-32,1.0,7530,31,89,39,51,1142,412.0,568,458,60,125.0,185,1,381,241,69,0,0,409,13040,-6656,372,414.87,,,,,,,,,,,,
42643,1561297088502,4,2.06,2.44,3.37,1.54,3.03,0.42,0.78,0.44,-30,-0,-32,0.89,7408,33,89,39,52,1142,411.0,557,463,60,125.0,185,1,384,246,69,0,0,408,-4059,6384,374,-5.59,45.698799,4.909825,37.8,196.9,0,0.0,0,0.0,0.419,1,0.28,0.7107
42663,1561297088522,3,2.06,2.44,3.35,1.56,3.03,0.31,0.71,0.37,-29,1,-33,0.78,7358,25,89,39,54,1155,412.0,550,460,60,125.0,185,1,390,251,69,0,0,410,13040,-31744,375,181.28,,,,,,,,,,,,
42683,1561297088542,1,2.06,2.44,3.38,1.59,3.04,0.37,0.72,0.39,-29,-1,-33,0.81,7352,30,89,39,55,1174,412.0,547,461,60,126.0,185,1,396,262,69,0,0,410,13040,-19126,375,-5.59,,,,,,,,,,,,
42703,1561297088562,0,2.06,2.44,3.4,1.59,3.06,0.54,0.78,0.45,-28,-4,-33,0.95,7329,33,89,39,56,1197,411.0,543,459,60,125.0,194,1,402,268,73,0,0,406,-4059,-19126,375,-5.59,,,,,,,,,,,,
42723,1561297088582,1,2.06,2.44,3.37,1.6,3.07,0.69,0.84,0.5,-28,-5,-33,1.09,7347,34,89,39,56,1211,412.0,538,463,60,126.0,194,1,402,194,73,0,0,409,13040,8200,376,-5.59,,,,,,,,,,,,
42743,1561297088600,0,2.07,2.45,3.35,1.6,3.08,0.82,0.88,0.57,-28,-5,-33,1.2,7387,29,89,39,57,1242,411.0,542,460,60,126.0,194,1,408,274,73,0,0,409,-4059,742,375,181.28,45.698807,4.909833,38.29,196.9,0,0.0,0,0.0,0.4207,1,0.28,0.7124
42763,1561297088620,-0,2.09,2.44,3.35,1.6,3.06,0.94,0.94,0.63,-28,-6,-33,1.33,7425,30,89,39,58,1260,412.0,547,461,60,126.0,194,1,415,279,73,0,0,410,13040,-19126,374,181.28,,,,,,,,,,,,
42783,1561297088640,1,2.11,2.43,3.35,1.59,3.06,1.04,1.0,0.63,-28,-6,-33,1.44,7437,31,89,39,58,1279,410.0,547,458,60,126.0,194,1,415,279,73,0,0,409,9517,-6656,374,181.28,,,,,,,,,,,,
42803,1561297088660,-1,2.16,2.42,3.33,1.6,3.07,1.11,1.05,0.68,-27,-6,-33,1.53,7527,35,89,39,58,1284,410.0,556,462,60,126.0,211,1,416,280,79,0,0,408,9517,-19126,376,181.28,,,,,,,,,,,,
42823,1561297088680,-0,2.21,2.41,3.28,1.65,3.09,1.19,1.08,0.76,-26,-7,-33,1.61,7527,34,89,39,58,1295,409.0,561,461,60,126.0,211,1,416,280,79,0,0,410,11560,-31744,377,181.28,,,,,,,,,,,,
42843,1561297088702,0,2.25,2.38,3.22,1.72,3.09,1.28,1.06,0.86,-24,-7,-33,1.66,7557,28,89,39,58,1303,408.0,557,461,60,126.0,211,1,417,280,79,0,0,407,10392,17144,382,181.28,45.698814,4.909841,38.01,196.9,0,0.0,0,0.0,0.4223,1,0.28,0.714
42863,1561297088722,1,2.32,2.31,3.13,1.82,3.15,1.35,1.02,0.96,-21,-9,-31,1.69,7524,33,89,39,58,1307,406.0,559,462,60,126.0,211,1,416,286,79,0,0,405,2524,-32702,386,181.28,,,,,,,,,,,,
42883,1561297088742,-0,2.38,2.25,3.06,1.93,3.24,1.42,0.96,1.04,-18,-8,-31,1.71,7551,33,89,39,59,1309,404.0,556,463,60,126.0,211,1,424,280,79,0,0,407,1504,11545,393,181.28,,,,,,,,,,,,
42903,1561297088762,-0,2.44,2.18,2.97,2.06,3.33,1.48,0.82,1.1,-14,-9,-28,1.69,7503,35,89,39,59,1306,401.0,557,460,60,126.0,206,1,423,286,81,0,0,404,11545,11545,397,181.28,,,,,,,,,,,,
42923,1561297088782,0,2.51,2.1,2.87,2.14,3.42,1.53,0.68,1.19,-11,-10,-25,1.68,7512,24,89,39,59,1297,402.0,554,460,60,126.0,206,1,423,286,81,0,0,403,-3968,13040,402,181.28,,,,,,,,,,,,
42943,1561297088803,2,2.57,2.03,2.83,2.21,3.49,1.58,0.56,1.27,-6,-11,-22,1.68,7533,36,89,39,59,1288,405.0,552,456,60,126.0,206,1,423,286,81,0,0,399,-1818,-4059,407,181.28,45.698822,4.909848,38.08,196.9,0,0.0,0,0.0,0.424,1,0.28,0.7157
42963,1561297088823,1,2.65,1.99,2.81,2.29,3.56,1.62,0.43,1.31,-3,-11,-17,1.68,7615,33,89,39,59,1275,408.0,556,465,60,125.0,206,1,425,287,81,0,0,400,-1562,-4059,408,-5.59,,,,,,,,,,,,
42983,1561297088843,3,2.73,1.97,2.8,2.35,3.59,1.66,0.37,1.26,-1,-12,-13,1.7,7625,30,89,39,59,1266,409.0,559,461,60,126.0,206,1,425,287,81,0,0,399,-31744,-26615,409,-5.59,,,,,,,,,,,,
43003,1561297088863,4,2.81,1.98,2.79,2.37,3.61,1.49,0.22,1.17,1,-12,-11,1.5,7681,35,89,39,59,1246,407.0,560,467,60,124.0,202,1,426,287,83,0,0,404,-3866,18584,407,-5.59,,,,,,,,,,,,
43023,1561297088883,-0,2.88,1.98,2.8,2.37,3.69,1.17,0.14,0.98,3,-10,-6,1.18,7760,33,89,39,59,1237,405.0,562,465,60,125.0,202,1,427,288,83,0,0,418,-19019,-26615,405,-5.59,,,,,,,,,,,,
43043,1561297088902,1,2.93,1.98,2.79,2.38,3.73,1.09,0.02,0.92,5,-8,-3,1.09,7825,31,89,39,59,1231,401.0,568,466,60,126.0,202,1,429,289,83,0,0,426,8200,-9166,401,414.87,45.69883,4.909855,38.32,196.9,0,0.0,0,0.0,0.4257,1,0.28,0.7174
43063,1561297088922,3,2.96,1.95,2.79,2.38,3.75,1.13,-0.08,0.95,7,-8,-1,1.14,7955,33,89,39,58,1221,397.0,575,457,60,126.0,202,1,423,284,83,0,0,429,-6656,-3414,397,181.28,,,,,,,,,,,,
43083,1561297088942,-1,2.96,1.91,2.8,2.37,3.76,1.06,-0.17,0.89,9,-7,1,1.07,8002,32,89,39,57,1212,397.0,582,460,60,126.0,202,1,415,280,83,0,0,445,486,-9166,397,-5.59,,,,,,,,,,,,
43103,1561297088962,0,2.95,1.88,2.78,2.38,3.75,1.09,-0.24,0.84,11,-8,6,1.11,8130,37,89,39,56,1199,399.0,594,462,60,126.0,218,1,406,284,87,0,0,431,0,-3414,399,414.87,,,,,,,,,,,,
43123,1561297088982,5,2.91,1.88,2.78,2.38,3.73,1.0,-0.3,0.85,13,-5,11,1.05,8216,37,89,39,55,1194,402.0,596,459,60,126.0,218,1,398,200,87,0,0,425,230,31796,403,-5.59,,,,,,,,,,,,
43143,1561297088996,-0,2.89,1.91,2.78,2.38,3.68,0.99,-0.36,0.85,15,-5,15,1.06,8212,35,89,39,54,1181,406.0,603,465,60,125.0,218,1,390,274,87,0,0,439,0,19477,409,414.87,45.698837,4.909862,39.96,196.9,0,0.0,0,0.0,0.4273,1,0.28,0.719
43163,1561297089016,4,2.85,1.92,2.76,2.42,3.62,0.98,-0.46,0.87,18,-4,18,1.08,8194,22,89,39,53,1169,411.0,597,461,60,126.0,218,1,387,267,87,0,0,420,0,19477,411,181.28,,,,,,,,,,,,
43183,1561297089036,-0,2.81,1.92,2.7,2.43,3.61,0.86,-0.48,0.88,20,-3,19,0.99,8106,37,89,39,54,1149,414.0,591,464,60,125.0,218,1,390,266,87,0,0,440,257,-768,414,181.28,,,,,,,,,,,,
43203,1561297089056,3,2.77,1.92,2.66,2.46,3.61,0.85,-0.52,0.9,21,-4,21,1.0,8085,30,89,39,53,1139,418.0,591,457,60,126.0,190,1,387,258,79,0,0,455,1,19477,418,181.28,,,,,,,,,,,,
43223,1561297089076,4,2.74,1.92,2.61,2.45,3.64,0.84,-0.6,0.87,23,-5,23,1.03,8047,32,89,39,54,1131,421.0,587,463,60,125.0,190,1,390,190,79,0,0,434,742,-768,421,-5.59,,,,,,,,,,,,
43243,1561297089094,2,2.7,1.91,2.61,2.44,3.69,0.81,-0.68,0.85,24,-5,23,1.05,8047,35,89,39,54,1110,422.0,581,466,60,126.0,190,1,390,264,79,0,0,413,8200,21580,422,414.87,45.698849,4.909871,40.49,197.0,0,0.0,0,0.0,0.429,1,0.28,0.7207
43263,1561297089114,2,2.66,1.86,2.6,2.44,3.75,0.85,-0.74,0.82,26,-5,24,1.13,8043,29,89,39,54,1097,426.0,587,462,60,126.0,190,1,390,264,79,0,0,451,19125,5600,426,-5.59,,,,,,,,,,,,
43283,1561297089134,-1,2.61,1.82,2.62,2.44,3.79,0.85,-0.77,0.73,28,-4,26,1.14,8116,38,89,39,55,1089,430.0,588,465,60,124.0,190,1,398,271,79,0,0,465,240,19477,430,-5.59,,,,,,,,,,,,
43303,1561297089154,4,2.55,1.84,2.66,2.46,3.79,0.87,-0.8,0.7,28,-2,28,1.18,8234,42,89,39,55,1084,436.0,593,464,60,125.0,193,1,398,281,84,0,0,459,240,-7939,437,181.28,,,,,,,,,,,,
43323,1561297089174,3,2.53,1.83,2.71,2.47,3.79,0.8,-0.84,0.69,28,-1,30,1.16,8461,39,89,39,57,1073,434.0,606,460,60,125.0,193,1,414,296,84,0,0,462,-31744,5600,434,181.28,,,,,,,,,,,,
43343,1561297089202,2,2.47,1.85,2.78,2.46,3.78,0.72,-0.8,0.71,28,-1,32,1.08,8644,39,89,39,57,1067,433.0,616,466,60,126.0,193,1,409,302,84,0,0,469,-31744,23400,433,181.28,45.698856,4.909881,41.29,197.0,0,0.0,0,0.0,0.4307,1,0.29,0.7224
43363,1561297089222,1,2.44,1.92,2.83,2.44,3.7,0.66,-0.76,0.75,28,0,34,1.01,8761,43,89,39,57,1064,435.0,605,471,60,125.0,193,1,405,306,84,0,0,469,-1562,21432,433,181.28,,,,,,,,,,,,
43383,1561297089242,4,2.4,1.98,2.78,2.45,3.6,0.65,-0.74,0.71,28,0,35,0.98,8761,42,89,39,57,1061,435.0,432,466,60,126.0,193,1,405,306,84,0,0,436,6384,-18108,435,181.28,,,,,,,,,,,,
43403,1561297089262,1,2.35,2.05,2.68,2.45,3.5,0.64,-0.74,0.7,27,2,34,0.97,8542,47,89,39,58,1061,436.0,446,455,60,124.0,233,1,419,306,102,0,0,452,-8151,2524,436,-5.59,,,,,,,,,,,,
43423,1561297089282,4,2.29,2.11,2.63,2.45,3.38,0.64,-0.73,0.72,26,1,33,0.97,8333,35,89,39,58,1060,435.0,391,467,60,126.0,233,1,423,306,102,0,0,444,2524,2524,436,181.28,,,,,,,,,,,,
43443,1561297089301,1,2.24,2.14,2.64,2.44,3.35,0.63,-0.68,0.66,23,2,31,0.93,8109,50,89,39,61,1061,434.0,349,462,60,125.0,233,1,450,308,102,0,0,430,11560,2131,434,414.87,45.69886,4.909892,41.18,197.0,0,0.0,0,0.0,0.4323,1,0.29,0.724
43463,1561297089321,4,2.19,2.19,2.7,2.33,3.33,0.62,-0.53,0.69,19,1,30,0.82,8026,45,89,39,63,1062,430.0,356,456,60,126.0,233,1,450,319,102,0,0,440,-8165,21580,429,414.87,,,,,,,,,,,,
43483,1561297089341,-1,2.15,2.25,2.89,2.14,3.22,0.57,-0.38,0.68,15,-1,28,0.69,8085,54,89,39,67,1106,429.0,337,463,60,125.0,233,1,448,345,102,0,0,434,-3322,-28332,425,-5.59,,,,,,,,,,,,
43503,1561297089361,3,2.12,2.31,3.09,2.03,3.16,0.59,-0.28,0.75,10,-1,26,0.66,8138,57,89,39,69,1140,437.0,395,464,60,124.0,264,1,445,372,112,0,0,442,19477,26704,422,414.87,,,,,,,,,,,,
43523,1561297089381,-0,2.1,2.39,3.24,1.92,3.08,0.57,-0.19,0.73,5,-2,24,0.6,8322,36,89,39,72,1183,443.0,375,458,60,126.0,264,1,435,406,112,0,0,444,-18341,19477,421,-5.59,,,,,,,,,,,,
43543,1561297089401,3,2.1,2.46,3.32,1.82,3.03,0.57,0.03,0.65,2,-2,18,0.57,8530,65,89,39,74,1238,449.0,403,456,60,126.0,264,1,428,429,112,0,0,447,15649,-8985,421,181.28,45.698868,4.909904,42.69,197.0,0,0.0,0,0.0,0.434,1,0.29,0.7257
43563,1561297089421,3,2.09,2.53,3.35,1.81,3.03,0.59,0.03,0.73,-1,-3,12,0.59,8604,68,89,39,77,1260,452.0,439,456,60,124.0,264,1,424,462,112,0,0,454,-6387,3580,423,414.87,,,,,,,,,,,,
43583,1561297089441,2,2.08,2.57,3.35,1.83,3.03,0.71,-0.07,0.77,-3,-4,8,0.71,8773,65,89,39,80,1297,453.0,481,456,60,124.0,264,1,421,489,112,0,0,462,-8985,32033,424,-5.59,,,,,,,,,,,,
43603,1561297089461,4,2.06,2.6,3.35,1.84,3.0,0.77,-0.03,0.78,-6,-3,5,0.77,8890,59,89,39,80,1298,456.0,523,468,60,125.0,402,1,417,503,169,0,0,465,14488,-8985,422,181.28,,,,,,,,,,,,
43623,1561297089481,4,2.06,2.61,3.35,1.86,2.99,0.76,0.07,0.82,-8,-3,3,0.77,8932,56,89,39,81,1284,456.0,570,460,60,125.0,402,1,418,517,169,0,0,470,17628,3580,425,-5.59,,,,,,,,,,,,
43643,1561297089501,6,2.06,2.64,3.34,1.86,2.97,0.77,0.14,0.82,-10,-2,-0,0.78,8979,55,89,39,82,1277,461.0,597,460,60,125.0,402,1,417,531,169,0,0,474,2211,-1818,426,-5.59,45.698875,4.909916,42.96,197.0,0,0.0,0,0.0,0.4357,1,0.29,0.7274
43663,1561297089521,2,2.07,2.69,3.33,1.86,2.9,0.69,0.17,0.8,-11,-2,-4,0.71,9132,49,89,39,82,1275,464.0,613,457,60,125.0,402,1,417,531,169,0,0,477,16408,8488,426,-5.59,,,,,,,,,,,,
43683,1561297089541,5,2.09,2.7,3.31,1.87,2.9,0.78,0.09,0.91,-13,-4,-10,0.78,9155,67,89,39,82,1280,468.0,613,453,60,124.0,402,1,417,531,169,0,0,480,243,-1818,427,-5.59,,,,,,,,,,,,
43703,1561297089561,5,2.11,2.69,3.28,1.88,2.9,0.69,0.02,0.89,-15,-3,-12,0.69,9195,55,89,39,83,1294,471.0,629,453,60,125.0,428,1,418,531,184,0,0,498,32033,-22519,434,414.87,,,,,,,,,,,,
43723,1561297089581,0,2.12,2.69,3.24,1.9,2.9,0.63,0.21,0.86,-16,-2,-15,0.66,9356,63,89,39,83,1314,476.0,628,456,60,125.0,428,1,418,531,184,0,0,493,-23367,32033,438,181.28,,,,,,,,,,,,
43743,1561297089603,4,2.13,2.68,3.22,1.9,2.86,0.61,0.35,0.97,-18,-2,-16,0.7,9426,62,89,39,82,1332,480.0,636,451,60,125.0,428,1,417,531,184,0,0,503,3580,-9216,443,181.28,45.698883,4.909928,43.9,197.0,0,0.0,0,0.0,0.4373,1,0.29,0.729
43763,1561297089623,5,2.15,2.68,3.19,1.89,2.83,0.6,0.22,1.02,-20,-2,-18,0.64,9537,72,89,39,82,1351,485.0,637,452,60,124.0,428,1,416,532,184,0,0,509,-6441,-3856,447,-5.59,,,,,,,,,,,,
43783,1561297089643,4,2.17,2.67,3.19,1.89,2.82,0.48,0.37,0.97,-20,-0,-20,0.61,9600,76,89,39,82,1362,492.0,628,457,60,124.0,428,1,413,531,184,0,0,510,-32768,-3856,452,181.28,,,,,,,,,,,,
43803,1561297089663,5,2.19,2.67,3.18,1.9,2.83,0.47,0.48,0.97,-19,-2,-22,0.68,9730,59,89,39,82,1356,493.0,638,458,60,125.0,427,1,405,530,194,0,0,518,-6528,-28648,456,181.28,,,,,,,,,,,,
43823,1561297089683,3,2.21,2.67,3.13,1.98,2.87,0.47,0.52,1.07,-20,-2,-24,0.7,9910,71,89,39,82,1338,496.0,633,456,60,125.0,427,1,400,528,194,0,0,537,3,26178,464,181.28,,,,,,,,,,,,
43843,1561297089701,0,2.22,2.67,3.08,2.06,2.88,0.49,0.53,0.94,-20,-2,-23,0.72,9931,80,89,39,82,1314,497.0,643,460,60,124.0,427,1,399,528,194,0,0,543,-22519,1248,469,-5.59,45.698891,4.909939,45.72,197.0,0,0.0,0,0.0,0.439,1,0.29,0.7307
43863,1561297089721,6,2.22,2.68,3.06,2.05,2.86,0.48,0.65,0.99,-20,-3,-22,0.81,9989,64,89,39,82,1292,504.0,643,455,60,125.0,427,1,397,528,194,0,0,524,-32248,-3082,476,414.87,,,,,,,,,,,,
43883,1561297089741,4,2.23,2.68,3.05,2.07,2.84,0.47,0.74,1.07,-19,-3,-22,0.88,10048,90,89,39,83,1260,506.0,642,455,60,125.0,427,1,398,535,194,0,0,530,-28648,2104,481,414.87,,,,,,,,,,,,
43903,1561297089761,4,2.24,2.67,3.04,2.08,2.85,0.41,0.74,0.99,-17,-4,-21,0.85,10113,72,89,39,83,1220,511.0,635,456,60,125.0,419,1,401,535,203,0,0,540,-3856,10408,488,181.28,,,,,,,,,,,,
43923,1561297089781,1,2.24,2.67,3.02,2.1,2.87,0.37,0.71,0.93,-16,-4,-20,0.8,10140,85,89,39,84,1183,513.0,638,457,60,124.0,419,1,406,554,203,0,0,546,26178,2524,493,181.28,,,,,,,,,,,,
43943,1561297089799,1,2.23,2.66,3.02,2.12,2.95,0.37,0.59,1.04,-16,-3,-19,0.69,10190,97,89,39,84,1172,516.0,638,457,60,125.0,419,1,407,554,203,0,0,565,16383,-9072,503,181.28,45.698898,4.90995,48.04,197.0,0,0.0,0,0.0,0.4407,1,0.29,0.7324
43963,1561297089819,5,2.23,2.65,3.01,2.12,2.94,0.35,0.45,1.11,-16,-2,-20,0.57,10257,75,89,39,84,1163,523.0,623,453,60,125.0,419,1,412,554,203,0,0,548,-22519,-18032,509,181.28,,,,,,,,,,,,
43983,1561297089839,5,2.22,2.66,3.01,2.13,2.93,0.32,0.41,1.2,-15,-2,-19,0.52,10376,75,89,39,84,1150,529.0,643,460,60,125.0,419,1,421,572,203,0,0,548,-9072,14504,513,414.87,,,,,,,,,,,,
44003,1561297089859,4,2.24,2.66,3.01,2.13,2.92,0.33,0.41,1.28,-15,-3,-20,0.53,10422,80,90,39,84,1137,532.0,638,458,60,118.0,436,1,424,572,225,0,0,555,14504,2211,520,414.87,,,,,,,,,,,,
44023,1561297089879,3,2.24,2.64,3.02,2.13,2.93,0.31,0.46,1.31,-14,-4,-19,0.56,10563,82,89,39,84,1134,537.0,643,456,60,118.0,436,1,431,554,225,0,0,565,-30064,-2934,523,414.87,,,,,,,,,,,,
44043,1561297089901,6,2.24,2.63,3.0,2.13,2.94,0.3,0.38,1.27,-14,-3,-18,0.48,10599,62,89,39,85,1133,543.0,645,458,60,118.0,436,1,433,572,225,0,0,572,-3082,-22359,529,-5.59,45.69891,4.909961,50.98,197.1,0,0.0,0,0.0,0.4423,1,0.29,0.734
44063,1561297089921,1,2.25,2.64,2.96,2.15,2.94,0.33,0.34,1.31,-13,-2,-17,0.47,10702,84,89,39,85,1126,546.0,641,462,60,117.0,436,1,436,572,225,0,0,571,14504,-29984,535,181.28,,,,,,,,,,,,
44083,1561297089941,2,2.25,2.63,2.95,2.15,2.94,0.32,0.39,1.37,-12,-1,-17,0.5,10738,94,89,39,84,1118,554.0,645,456,60,118.0,436,1,436,554,225,0,0,574,2524,-30159,541,181.28,,,,,,,,,,,,
44103,1561297089961,4,2.26,2.63,2.94,2.18,2.93,0.28,0.36,1.25,-12,-2,-16,0.45,10831,94,89,39,84,1114,556.0,645,461,60,118.0,418,1,438,554,226,0,0,580,-22359,2048,545,181.28,,,,,,,,,,,,
44123,1561297089981,3,2.28,2.63,2.94,2.17,2.94,0.3,0.41,1.21,-11,-4,-14,0.51,10875,81,89,39,84,1109,561.0,641,460,60,118.0,418,1,441,554,226,0,0,589,-2934,15649,551,-5.59,,,,,,,,,,,,
44143,1561297089995,3,2.29,2.62,2.94,2.19,2.98,0.27,0.3,1.2,-11,-2,-15,0.41,10971,60,89,39,84,1096,568.0,642,458,60,118.0,418,1,442,554,226,0,0,590,-8186,2048,557,414.87,45.698921,4.909973,53.35,197.1,0,0.0,0,0.0,0.444,1,0.3,0.7357
44163,1561297090015,4,2.29,2.6,2.93,2.19,3.0,0.27,0.4,1.03,-9,-0,-14,0.48,11094,78,89,39,84,1081,568.0,648,459,60,118.0,418,1,443,554,226,0,0,601,-8186,243,563,181.28,,,,,,,,,,,,
44183,1561297090035,1,2.29,2.58,2.93,2.22,3.0,0.27,0.34,1.1,-8,-1,-12,0.44,11207,80,89,39,84,1073,574.0,646,458,60,118.0,418,1,442,554,226,0,0,595,774,208,569,-5.59,,,,,,,,,,,,
44203,1561297090055,5,2.29,2.58,2.92,2.24,3.02,0.2,0.33,1.03,-7,0,-10,0.38,11261,97,89,39,84,1067,577.0,647,458,60,119.0,410,1,441,554,235,0,0,605,1,-3820,577,181.28,,,,,,,,,,,,
44223,1561297090075,4,2.29,2.55,2.9,2.25,3.03,0.26,0.31,1.07,-7,1,-9,0.4,11370,91,89,39,84,1056,580.0,655,460,60,118.0,410,1,441,554,235,0,0,605,8488,19621,580,181.28,,,,,,,,,,,,
44243,1561297090101,2,2.29,2.55,2.89,2.25,3.06,0.28,0.34,1.05,-6,1,-7,0.44,11510,89,89,39,84,1044,588.0,655,453,60,119.0,410,1,440,554,235,0,0,621,208,19320,585,181.28,45.698933,4.909984,56.13,197.1,0,0.0,0,0.0,0.4457,1,0.3,0.7374
44263,1561297090121,4,2.28,2.55,2.86,2.26,3.06,0.22,0.2,1.09,-6,1,-6,0.3,11609,81,89,39,84,1037,590.0,653,463,60,119.0,410,1,440,538,235,0,0,622,-32504,19320,588,181.28,,,,,,,,,,,,
44283,1561297090141,4,2.27,2.54,2.84,2.29,3.07,0.26,0.13,1.18,-6,-1,-7,0.29,11689,78,89,39,83,1033,595.0,651,459,60,119.0,410,1,440,540,235,0,0,623,-16179,3395,595,414.87,,,,,,,,,,,,
44303,1561297090161,2,2.25,2.54,2.85,2.28,3.06,0.24,0.11,1.06,-6,-2,-7,0.26,11762,77,89,39,83,1013,601.0,651,460,60,119.0,401,1,440,541,240,0,0,631,243,-16046,600,-5.59,,,,,,,,,,,,
44323,1561297090181,3,2.26,2.54,2.85,2.27,3.05,0.23,0.19,1.01,-6,-4,-7,0.3,11777,70,89,39,83,998,606.0,651,460,60,119.0,401,1,440,543,240,0,0,630,17740,20993,603,-5.59,,,,,,,,,,,,
44343,1561297090201,4,2.25,2.54,2.88,2.24,3.05,0.26,0.3,1.08,-7,-5,-8,0.4,11859,71,89,39,83,980,614.0,655,461,60,119.0,401,1,440,545,240,0,0,638,16529,6208,606,181.28,45.698944,4.909995,58.58,197.1,0,0.0,0,0.0,0.4473,1,0.3,0.739
44363,1561297090221,2,2.26,2.55,2.88,2.24,3.05,0.23,0.39,1.03,-7,-5,-8,0.45,11965,73,89,39,83,963,620.0,658,453,60,120.0,401,1,440,548,240,0,0,641,19320,8958,610,181.28,,,,,,,,,,,,
44383,1561297090241,5,2.24,2.56,2.89,2.23,3.05,0.19,0.39,1.1,-7,-5,-8,0.43,12104,84,89,39,83,937,623.0,658,457,60,120.0,401,1,440,550,240,0,0,652,3395,24,616,181.28,,,,,,,,,,,,
44403,1561297090261,5,2.25,2.57,2.87,2.23,3.05,0.18,0.25,1.04,-8,-5,-9,0.31,12262,83,89,39,83,915,631.0,661,457,60,120.0,413,1,440,550,254,0,0,657,-14655,4909,616,-5.59,,,,,,,,,,,,
44423,1561297090281,7,2.25,2.57,2.88,2.23,3.04,0.18,0.2,1.05,-8,-4,-10,0.27,12343,80,89,39,83,905,631.0,658,457,60,119.0,413,1,440,550,254,0,0,664,-2580,-388,624,181.28,,,,,,,,,,,,
44443,1561297090300,3,2.26,2.57,2.89,2.21,3.0,0.23,0.14,1.14,-9,-5,-9,0.27,12409,88,89,39,83,900,639.0,663,460,60,120.0,413,1,440,550,254,0,0,660,6208,31988,627,181.28,45.698956,4.910008,60.98,197.2,0,0.0,0,0.0,0.449,1,0.3,0.7407
44463,1561297090320,5,2.26,2.58,2.91,2.21,3.0,0.2,0.26,1.09,-8,-4,-8,0.33,12475,83,89,39,83,889,643.0,666,456,60,120.0,413,1,440,550,254,0,0,671,11776,-3578,631,181.28,,,,,,,,,,,,
44483,1561297090340,5,2.26,2.58,2.92,2.21,2.98,0.19,0.26,0.92,-7,-5,-7,0.32,12550,81,89,39,83,874,647.0,657,456,60,120.0,413,1,440,550,254,0,0,673,-8429,-10344,634,-5.59,,,,,,,,,,,,
44503,1561297090360,2,2.27,2.58,2.91,2.21,3.01,0.21,0.13,0.95,-7,-4,-6,0.24,12600,93,89,39,83,862,650.0,660,456,60,120.0,411,1,440,550,262,0,0,680,-6006,31988,641,181.28,,,,,,,,,,,,
44523,1561297090380,6,2.27,2.57,2.89,2.2,3.04,0.22,0.2,1.02,-6,-1,-6,0.3,12677,94,89,39,83,852,656.0,661,456,60,120.0,411,1,440,550,262,0,0,688,31988,-10346,647,181.28,,,,,,,,,,,,
44543,1561297090401,-0,2.29,2.57,2.88,2.21,3.04,0.21,0.28,1.02,-6,-0,-5,0.35,12798,77,89,39,83,842,658.0,655,457,60,120.0,411,1,440,550,262,0,0,680,-10344,-10399,652,181.28,45.698971,4.91002,63.22,197.2,0,0.0,0,0.0,0.4507,1,0.3,0.7424
44563,1561297090421,0,2.29,2.57,2.9,2.23,3.03,0.21,0.23,0.94,-6,3,-6,0.31,12533,97,89,39,83,830,660.0,668,462,60,123.0,411,1,440,550,262,0,0,687,-27404,16599,655,414.87,,,,,,,,,,,,
44583,1561297090441,-0,2.28,2.55,2.91,2.22,3.06,0.32,0.23,0.95,-6,2,-5,0.39,11988,83,89,39,85,825,666.0,662,460,60,123.0,411,1,440,565,262,0,0,673,3543,-388,662,181.28,,,,,,,,,,,,
44603,1561297090461,-1,2.29,2.5,2.97,2.17,3.13,0.29,0.3,0.72,-5,3,-4,0.42,11638,77,89,39,85,825,665.0,659,461,60,122.0,390,1,440,574,258,0,0,669,3543,-2826,662,181.28,,,,,,,,,,,,
44623,1561297090481,-1,2.3,2.39,3.08,2.08,3.23,0.29,0.3,0.65,-3,8,-3,0.42,11439,97,89,39,86,837,666.0,658,463,60,123.0,390,1,441,591,258,0,0,665,1549,-26380,659,181.28,,,,,,,,,,,,
44643,1561297090502,4,2.3,2.34,3.11,2.05,3.36,0.32,0.3,0.59,-2,8,-4,0.44,11207,98,89,39,86,851,666.0,652,463,60,122.0,390,1,443,591,258,0,0,667,1549,8958,658,181.28,45.698982,4.910032,65.53,197.2,0,0.0,0,0.0,0.4523,1,0.3,0.7441
44663,1561297090522,5,2.29,2.34,3.04,2.09,3.37,0.42,0.24,0.73,-2,2,-4,0.49,10945,92,89,39,87,869,666.0,651,460,60,121.0,390,1,444,1048,258,0,0,671,1549,-26380,662,-5.59,,,,,,,,,,,,
44683,1561297090542,6,2.28,2.36,2.95,2.11,3.28,0.41,0.3,0.78,-3,5,-4,0.51,10405,91,89,39,88,890,666.0,647,455,60,120.0,390,1,427,973,258,0,0,753,1549,-2826,666,181.28,,,,,,,,,,,,
44703,1561297090562,4,2.29,2.43,2.84,2.11,3.14,0.41,0.36,0.73,-2,5,-2,0.55,10059,97,89,39,86,961,678.0,635,455,60,120.0,514,1,400,810,344,0,0,786,-2345,-10216,674,414.87,,,,,,,,,,,,
44723,1561297090582,3,2.29,2.47,2.73,2.16,3.0,0.42,0.3,0.63,-2,5,-6,0.52,10195,79,89,39,85,1068,682.0,645,460,60,121.0,514,1,411,708,344,0,0,702,-10344,-23490,679,181.28,,,,,,,,,,,,
44743,1561297090600,6,2.3,2.48,2.67,2.26,3.01,0.42,0.28,0.76,-1,3,-5,0.51,10096,99,89,39,85,1167,687.0,637,460,60,121.0,514,1,402,586,344,0,0,729,6208,-23490,682,181.28,45.698998,4.910045,66.07,197.2,0,0.0,0,0.0,0.454,1,0.31,0.7457
44763,1561297090620,3,2.28,2.52,2.64,2.29,3.0,0.45,0.23,0.86,-1,4,-1,0.51,9770,80,89,39,85,1233,691.0,635,460,60,121.0,514,1,406,569,344,0,0,760,1780,3462,687,414.87,,,,,,,,,,,,
44783,1561297090640,6,2.29,2.52,2.68,2.3,3.03,0.52,0.25,0.89,-1,0,-3,0.58,9659,72,89,39,85,1308,700.0,636,462,60,121.0,514,1,411,568,344,0,0,713,-2830,-2830,695,181.28,,,,,,,,,,,,
44803,1561297090660,1,2.3,2.54,2.8,2.29,3.09,0.55,0.26,0.86,-1,-3,-2,0.61,9694,97,89,39,85,1319,698.0,629,466,60,122.0,305,1,410,569,213,0,0,720,24,-2358,695,-5.59,,,,,,,,,,,,
44823,1561297090680,5,2.28,2.55,2.88,2.31,3.21,0.48,0.32,0.92,-0,-3,-2,0.58,9816,63,90,39,86,1325,703.0,635,451,60,122.0,305,1,405,570,213,0,0,725,-2830,1524,698,181.28,,,,,,,,,,,,
44843,1561297090702,4,2.28,2.55,2.96,2.32,3.27,0.51,0.28,0.89,-0,-4,-1,0.58,10000,71,90,39,85,1229,704.0,643,455,60,122.0,305,1,395,572,213,0,0,734,11069,1524,705,414.87,45.699013,4.910057,68.51,197.2,0,0.0,0,0.0,0.4557,1,0.31,0.7474
44863,1561297090722,2,2.29,2.54,2.97,2.3,3.28,0.46,0.33,0.72,-0,-3,-0,0.57,10118,89,89,39,85,1171,708.0,639,458,60,121.0,305,1,407,572,213,0,0,739,-3888,-2314,708,-5.59,,,,,,,,,,,,
44883,1561297090742,3,2.27,2.52,3.0,2.28,3.29,0.44,0.32,0.76,-0,-2,-1,0.54,10240,83,89,39,85,1096,716.0,643,457,60,122.0,305,1,412,572,213,0,0,763,16118,-10212,714,181.28,,,,,,,,,,,,
44903,1561297090762,3,2.28,2.5,2.97,2.28,3.29,0.41,0.25,0.8,-0,1,-0,0.48,10353,64,89,39,85,1020,719.0,644,461,60,122.0,312,1,420,572,224,0,0,764,-25858,-10214,717,181.28,,,,,,,,,,,,
44923,1561297090782,1,2.25,2.49,2.88,2.27,3.19,0.46,0.17,0.92,-1,2,-0,0.49,10527,91,89,39,85,1022,726.0,647,461,60,122.0,312,1,431,572,224,0,0,755,-4091,-3450,723,181.28,,,,,,,,,,,,
44943,1561297090802,2,2.28,2.51,2.83,2.29,3.08,0.46,0.1,0.99,-1,-0,-0,0.47,10434,87,89,39,85,1024,732.0,646,451,60,122.0,312,1,426,572,224,0,0,757,-2314,-10218,726,181.28,45.699028,4.91007,70.61,197.2,0,0.0,0,0.0,0.4573,1,0.31,0.749
44963,1561297090822,0,2.28,2.49,2.73,2.26,3.0,0.51,0.08,1.08,-1,2,-0,0.51,10336,95,89,39,85,1026,736.0,648,456,60,122.0,312,1,419,572,224,0,0,768,1037,-31066,733,181.28,,,,,,,,,,,,
44983,1561297090842,4,2.28,2.48,2.72,2.22,2.95,0.55,0.11,1.17,-1,1,-1,0.56,10212,89,89,39,85,1028,739.0,641,457,60,122.0,312,1,410,572,224,0,0,758,-13068,-3450,736,181.28,,,,,,,,,,,,
45003,1561297090862,5,2.27,2.47,2.72,2.21,2.98,0.48,0.17,1.18,-1,0,-1,0.51,10285,96,89,39,85,1028,744.0,636,457,60,122.0,300,1,415,572,222,0,0,759,-31066,-3450,741,414.87,,,,,,,,,,,,
45023,1561297090882,4,2.29,2.45,2.78,2.19,3.13,0.48,0.18,1.0,-2,1,-2,0.51,10347,78,89,39,85,1027,749.0,640,455,60,122.0,300,1,420,572,222,0,0,771,136,-23308,742,414.87,,,,,,,,,,,,
45043,1561297090896,4,2.29,2.45,2.79,2.18,3.11,0.4,0.24,0.94,-2,1,-3,0.47,10504,86,89,39,85,1024,753.0,644,458,60,121.0,300,1,431,572,222,0,0,768,-31068,-2344,749,181.28,45.699043,4.910084,72.94,197.2,0,0.0,0,0.0,0.459,1,0.31,0.7507
45063,1561297090916,6,2.28,2.47,2.83,2.19,3.09,0.41,0.27,0.85,-1,1,-2,0.49,10599,96,89,39,85,1023,753.0,640,463,60,122.0,300,1,433,572,222,0,0,771,-3450,-3450,747,181.28,,,,,,,,,,,,
45083,1561297090936,4,2.29,2.49,2.8,2.22,3.1,0.38,0.24,0.86,-2,1,-2,0.45,10702,95,89,39,85,1020,755.0,639,461,60,122.0,300,1,436,572,222,0,0,788,5876,-2826,751,414.87,,,,,,,,,,,,
45103,1561297090956,3,2.28,2.54,2.79,2.27,3.11,0.37,0.11,0.9,-2,-1,-3,0.39,10714,60,89,39,85,1016,759.0,645,453,60,122.0,306,1,436,572,232,0,0,789,5876,-13312,757,181.28,,,,,,,,,,,,
45123,1561297090976,2,2.3,2.56,2.82,2.28,3.11,0.31,0.1,0.94,-2,1,-4,0.33,10738,79,89,39,84,1008,764.0,648,460,60,122.0,306,1,436,554,232,0,0,797,-10216,-12152,760,181.28,,,,,,,,,,,,
45143,1561297090994,5,2.29,2.54,2.85,2.29,3.14,0.36,0.04,0.85,-1,2,-3,0.36,10744,95,89,39,84,1002,768.0,650,458,60,122.0,306,1,436,572,232,0,0,792,-2826,204,765,181.28,45.699059,4.910098,74.56,197.2,0,0.0,0,0.0,0.4607,1,0.31,0.7524
45163,1561297091014,3,2.28,2.53,2.86,2.29,3.15,0.37,0.06,0.83,-1,-0,-3,0.38,10819,94,89,39,84,994,772.0,643,464,60,122.0,306,1,438,554,232,0,0,801,7413,5344,770,-5.59,,,,,,,,,,,,
45183,1561297091034,1,2.29,2.52,2.94,2.27,3.2,0.33,0.12,0.85,-1,-1,-2,0.35,10958,94,89,39,84,990,776.0,645,458,60,122.0,306,1,441,554,232,0,0,811,-23308,-3450,776,-5.59,,,,,,,,,,,,
45203,1561297091054,6,2.29,2.52,2.94,2.27,3.18,0.38,0.0,0.97,-1,-2,-3,0.38,11009,67,89,39,84,983,778.0,643,454,60,122.0,296,1,443,554,230,0,0,809,-2426,-2358,776,181.28,,,,,,,,,,,,
45223,1561297091074,5,2.3,2.52,2.86,2.28,3.21,0.35,0.05,0.96,-1,-1,-4,0.36,11140,82,89,39,84,976,781.0,652,457,60,122.0,296,1,442,554,230,0,0,803,-31066,-2826,782,181.28,,,,,,,,,,,,
45243,1561297091102,3,2.29,2.51,2.79,2.28,3.16,0.31,0.09,1.0,-1,1,-4,0.32,11160,72,89,39,84,975,786.0,653,461,60,121.0,296,1,442,554,230,0,0,833,3544,-25858,785,181.28,45.699078,4.910111,76.76,197.2,0,0.0,0,0.0,0.4623,1,0.32,0.754
45263,1561297091122,5,2.29,2.53,2.83,2.28,3.11,0.27,0.12,0.89,-1,1,-3,0.29,11120,94,89,39,84,974,792.0,650,461,60,122.0,296,1,442,554,230,0,0,813,-2540,-2314,790,181.28,,,,,,,,,,,,
45283,1561297091142,4,2.29,2.51,2.82,2.27,3.12,0.27,0.14,0.86,-0,3,-3,0.31,11134,88,89,39,84,970,793.0,650,461,60,122.0,296,1,443,554,230,0,0,824,-7436,-3450,791,181.28,,,,,,,,,,,,
45303,1561297091162,5,2.29,2.5,2.82,2.25,3.12,0.3,0.07,0.85,-0,2,-2,0.3,11207,76,89,39,84,962,801.0,646,458,60,122.0,295,1,442,554,234,0,0,819,-13072,-2358,798,181.28,,,,,,,,,,,,
45323,1561297091182,3,2.3,2.5,2.82,2.26,3.13,0.25,0.11,0.84,-0,1,-4,0.28,11247,75,89,39,84,957,805.0,651,460,60,121.0,295,1,442,554,234,0,0,826,204,-30694,799,-5.59,,,,,,,,,,,,
45343,1561297091202,3,2.31,2.48,2.84,2.25,3.19,0.27,0.13,0.95,-1,-2,-4,0.3,11274,66,89,38,84,953,807.0,650,455,60,122.0,295,1,441,554,234,0,0,849,-23490,136,805,181.28,45.699093,4.910126,78.76,197.2,0,0.0,0,0.0,0.464,1,0.32,0.7557
45363,1561297091222,4,2.3,2.47,2.81,2.24,3.14,0.34,0.06,0.96,-1,-1,-5,0.34,11412,65,89,38,84,948,809.0,654,458,60,122.0,295,1,441,554,234,0,0,830,-31068,-3450,808,181.28,,,,,,,,,,,,
45383,1561297091242,6,2.29,2.48,2.8,2.25,3.15,0.43,0.16,0.81,0,-1,-4,0.46,11453,77,89,38,84,940,813.0,656,457,60,122.0,295,1,441,554,234,0,0,846,-25858,-10508,812,181.28,,,,,,,,,,,,
45403,1561297091262,4,2.3,2.47,2.81,2.24,3.17,0.39,0.14,0.84,0,2,-3,0.42,11467,79,89,38,84,938,819.0,652,457,60,122.0,295,1,441,554,241,0,0,847,-13580,-22796,816,-5.59,,,,,,,,,,,,
45423,1561297091282,3,2.3,2.47,2.8,2.24,3.17,0.39,0.14,0.87,0,2,-1,0.42,11460,74,89,38,84,938,823.0,653,458,60,121.0,295,1,440,554,241,0,0,852,-22796,-2826,820,-5.59,,,,,,,,,,,,
45443,1561297091299,1,2.31,2.47,2.82,2.26,3.15,0.43,0.06,0.81,1,2,-1,0.43,11531,90,89,38,84,933,825.0,658,457,60,122.0,295,1,440,535,241,0,0,840,-22796,-1578,825,181.28,45.699112,4.91014,80.17,197.2,0,0.0,0,0.0,0.4657,1,0.32,0.7574
45463,1561297091319,2,2.3,2.47,2.83,2.3,3.16,0.46,0.02,0.82,1,-1,-1,0.46,11574,95,89,38,83,922,828.0,660,459,60,122.0,295,1,440,537,241,0,0,851,-2830,-2570,826,181.28,,,,,,,,,,,,
45483,1561297091339,1,2.3,2.47,2.83,2.28,3.14,0.49,0.01,0.84,1,-1,-1,0.49,11638,80,89,38,83,913,830.0,660,459,60,122.0,295,1,440,539,241,0,0,857,-22796,-2766,827,181.28,,,,,,,,,,,,
45503,1561297091359,-1,2.3,2.46,2.83,2.25,3.17,0.53,0.09,0.76,1,-0,-1,0.53,11531,87,89,38,83,906,835.0,657,461,60,124.0,287,1,440,540,239,0,0,854,6790,-3335,834,414.87,,,,,,,,,,,,
45523,1561297091379,-0,2.29,2.45,2.87,2.26,3.25,0.54,-0.0,0.83,1,-1,-1,0.54,10984,97,89,38,85,899,841.0,657,464,60,124.0,287,1,443,572,239,0,0,863,-4096,-2766,838,181.28,,,,,,,,,,,,
45543,1561297091401,-1,2.3,2.44,2.92,2.23,3.27,0.64,-0.03,0.92,0,-3,-2,0.64,10659,84,89,38,87,885,836.0,655,458,60,124.0,287,1,437,609,239,0,0,833,-30694,-30694,837,181.28,45.699127,4.910155,82.22,197.2,0,0.0,0,0.0,0.4673,1,0.32,0.759
45563,1561297091421,-1,2.3,2.35,2.98,2.16,3.31,0.64,-0.07,0.92,0,-2,-3,0.64,10515,100,89,38,87,878,836.0,651,462,60,124.0,287,1,433,609,239,0,0,843,-30694,-30694,836,181.28,,,,,,,,,,,,
45583,1561297091441,7,2.29,2.3,3.0,2.12,3.35,0.68,-0.04,0.85,1,-2,-3,0.68,10302,100,89,38,88,875,836.0,649,460,60,124.0,287,1,419,628,239,0,0,836,-2830,-3344,836,181.28,,,,,,,,,,,,
45603,1561297091461,2,2.3,2.31,3.04,2.13,3.39,0.62,0.04,0.85,-0,-2,-3,0.62,10135,100,89,38,88,892,838.0,638,458,60,122.0,290,1,406,1121,243,0,0,832,-4096,-31066,833,-5.59,,,,,,,,,,,,
45623,1561297091481,5,2.3,2.3,3.04,2.13,3.34,0.64,0.09,0.93,0,1,-2,0.65,10032,88,89,38,88,971,836.0,646,454,60,121.0,290,1,399,1011,243,0,0,849,-4096,-3038,836,-5.59,,,,,,,,,,,,
45643,1561297091501,3,2.3,2.31,2.94,2.12,3.26,0.58,0.04,1.04,0,3,-1,0.59,10190,73,89,38,86,1046,840.0,640,454,60,122.0,290,1,409,846,243,0,0,861,-2830,-1580,838,181.28,45.699146,4.910171,83.08,197.2,0,0.0,0,0.0,0.469,1,0.32,0.7607
45663,1561297091521,5,2.3,2.32,2.87,2.15,3.18,0.5,0.04,1.12,1,4,-2,0.5,10113,93,89,38,85,1148,844.0,635,457,60,122.0,290,1,403,719,243,0,0,894,8838,4231,844,181.28,,,,,,,,,,,,
45683,1561297091541,4,2.29,2.36,2.76,2.21,3.12,0.43,0.11,1.21,0,3,-1,0.44,9894,89,89,38,85,1239,850.0,631,455,60,122.0,290,1,400,620,243,0,0,895,-3038,-10508,849,414.87,,,,,,,,,,,,
45703,1561297091561,0,2.3,2.4,2.75,2.21,3.08,0.42,0.02,1.08,0,5,-1,0.42,9842,76,89,38,85,1314,855.0,636,456,60,122.0,252,1,403,570,214,0,0,873,-2311,-2311,849,181.28,,,,,,,,,,,,
45723,1561297091581,2,2.31,2.4,2.73,2.22,3.08,0.44,-0.02,1.17,0,5,-2,0.44,9894,96,89,38,85,1421,853.0,635,462,60,122.0,252,1,400,555,214,0,0,875,-9995,-9995,852,181.28,,,,,,,,,,,,
45743,1561297091601,2,2.3,2.38,2.78,2.21,3.13,0.42,-0.01,1.17,-0,3,-1,0.42,9899,92,89,38,85,1441,858.0,633,460,60,122.0,252,1,400,571,214,0,0,885,-2311,-5120,855,-5.59,45.699165,4.910186,83.96,197.2,0,0.0,0,0.0,0.4707,1,0.33,0.7624
45763,1561297091621,1,2.31,2.36,2.89,2.19,3.15,0.46,-0.17,1.03,-1,3,-1,0.49,9994,73,89,38,85,1447,861.0,643,453,60,122.0,252,1,396,572,214,0,0,883,-1580,-1277,860,181.28,,,,,,,,,,,,
45783,1561297091641,3,2.32,2.37,2.95,2.16,3.29,0.4,-0.19,1.12,-0,3,-2,0.45,10140,98,89,38,85,1358,867.0,639,455,60,122.0,252,1,405,554,214,0,0,898,-3450,-3604,861,181.28,,,,,,,,,,,,
45803,1561297091661,4,2.31,2.39,2.91,2.2,3.28,0.37,-0.26,1.18,0,4,-2,0.46,10223,83,89,38,85,1304,868.0,648,455,60,122.0,254,1,411,572,220,0,0,893,-2574,-30778,867,181.28,,,,,,,,,,,,
45823,1561297091681,3,2.31,2.43,2.84,2.26,3.26,0.32,-0.21,1.11,0,3,0,0.38,10268,66,89,38,85,1189,869.0,639,457,60,122.0,254,1,414,572,220,0,0,912,-2574,3,867,-5.59,,,,,,,,,,,,
45843,1561297091701,2,2.32,2.44,2.81,2.26,3.21,0.31,-0.12,0.97,0,3,0,0.34,10268,92,89,38,85,1099,873.0,641,461,60,122.0,254,1,411,572,220,0,0,905,-9995,-2836,873,-5.59,45.699181,4.910201,85.66,197.3,0,0.0,0,0.0,0.4723,1,0.33,0.764
45863,1561297091721,2,2.32,2.43,2.79,2.27,3.22,0.33,-0.08,0.95,0,2,0,0.34,10195,92,89,38,85,1038,876.0,638,454,60,122.0,254,1,409,572,220,0,0,907,-10508,-30778,879,181.28,,,,,,,,,,,,
45883,1561297091741,4,2.32,2.43,2.81,2.27,3.22,0.39,-0.12,1.02,0,2,-0,0.41,10234,61,89,38,85,946,882.0,643,455,60,122.0,254,1,411,554,220,0,0,909,-779,-4876,880,181.28,,,,,,,,,,,,
45903,1561297091761,5,2.32,2.42,2.83,2.26,3.22,0.5,-0.1,1.08,1,-0,-0,0.51,10257,80,89,38,84,957,885.0,645,458,60,122.0,252,1,412,554,222,0,0,903,-1277,-4875,883,181.28,,,,,,,,,,,,
45923,1561297091781,4,2.31,2.4,2.82,2.24,3.26,0.53,-0.15,1.1,1,1,-1,0.55,10370,89,89,38,85,966,888.0,638,456,60,122.0,252,1,421,572,222,0,0,912,966,-4874,890,181.28,,,,,,,,,,,,
45943,1561297091801,3,2.32,2.4,2.82,2.25,3.24,0.53,-0.16,1.07,1,0,1,0.56,10382,71,89,38,84,978,894.0,638,455,60,122.0,252,1,421,554,222,0,0,922,-5120,-773,894,181.28,45.6992,4.910217,87.7,197.3,0,0.0,0,0.0,0.474,1,0.33,0.7657
45963,1561297091821,5,2.31,2.4,2.83,2.25,3.24,0.45,-0.13,1.05,1,-1,1,0.47,10439,41,89,38,82,989,897.0,637,460,60,122.0,252,1,425,528,222,0,0,927,-30778,-4874,892,-5.59,,,,,,,,,,,,
45983,1561297091841,4,2.31,2.41,2.79,2.25,3.23,0.5,-0.06,1.04,2,-0,-0,0.51,10451,56,89,38,75,988,899.0,632,462,60,122.0,252,1,427,409,222,0,0,920,1772,-4871,897,-5.59,,,,,,,,,,,,
46003,1561297091861,6,2.3,2.4,2.8,2.24,3.25,0.47,0.04,0.95,2,-1,-0,0.47,10353,35,89,38,65,988,900.0,637,456,60,123.0,200,1,432,421,180,0,0,924,-5120,218,896,-5.59,,,,,,,,,,,,
46023,1561297091881,5,2.3,2.4,2.85,2.25,3.26,0.5,-0.01,0.81,1,1,1,0.5,10234,5,89,38,54,984,904.0,640,458,60,122.0,200,1,400,316,180,0,0,922,-3348,-4873,898,181.28,,,,,,,,,,,,
46043,1561297091901,8,2.3,2.38,2.98,2.19,3.35,0.55,0.03,0.81,1,-2,2,0.55,9801,0,89,38,44,980,899.0,634,459,60,123.0,200,1,357,230,180,0,0,906,-5114,-4873,901,181.28,45.699219,4.910234,89.18,197.3,0,0.0,0,0.0,0.4757,1,0.33,0.7674
46063,1561297091921,10,2.29,2.34,3.04,2.14,3.41,0.7,0.01,0.88,1,-2,0,0.7,9576,0,89,38,38,977,899.0,635,464,60,123.0,200,1,317,210,180,0,0,902,-5120,4231,894,181.28,,,,,,,,,,,,
46083,1561297091941,9,2.3,2.22,3.1,2.09,3.42,0.71,-0.01,0.78,0,-2,0,0.71,9393,0,89,38,34,974,897.0,635,459,60,123.0,200,1,305,198,180,0,0,891,-5114,1772,897,181.28,,,,,,,,,,,,
46103,1561297091961,9,2.29,2.22,3.15,2.06,3.47,0.59,0.15,0.65,-0,-4,-1,0.61,9204,0,89,38,31,953,898.0,636,461,60,123.0,75,1,295,189,68,0,0,877,2028,2028,896,414.87,,,,,,,,,,,,
46123,1561297091981,10,2.29,2.19,3.19,2.0,3.49,0.6,0.1,0.56,-1,-2,0,0.6,9155,0,89,38,29,918,893.0,630,457,60,123.0,75,1,287,187,68,0,0,858,-14848,-31068,889,181.28,,,,,,,,,,,,
46143,1561297091996,14,2.3,2.16,3.12,1.99,3.46,0.6,0.09,0.56,-1,-5,0,0.61,9245,0,89,38,27,893,891.0,636,462,60,123.0,75,1,278,187,68,0,0,862,966,-31066,890,181.28,45.699238,4.91025,89.32,197.3,0,0.0,0,0.0,0.4773,1,0.34,0.769
46163,1561297092016,13,2.29,2.16,3.16,1.97,3.46,0.72,0.14,0.62,-1,-3,0,0.73,9272,0,89,38,26,868,885.0,631,458,60,123.0,75,1,274,186,68,0,0,855,-1277,-2426,881,181.28,,,,,,,,,,,,
46183,1561297092036,13,2.29,2.16,3.19,1.95,3.51,0.79,0.07,0.58,-1,-5,-2,0.8,9314,0,89,38,24,856,878.0,645,470,60,125.0,75,1,270,179,68,0,0,841,-1576,-3038,878,414.87,,,,,,,,,,,,
46203,1561297092056,13,2.28,2.16,3.19,1.95,3.52,0.76,0.13,0.57,-1,-3,-2,0.77,9323,0,89,38,23,845,870.0,634,458,60,124.0,72,1,270,174,63,0,0,848,-31066,136,870,181.28,,,,,,,,,,,,
46223,1561297092076,14,2.28,2.12,3.29,1.93,3.57,0.76,0.16,0.38,-1,-2,-3,0.78,9370,0,89,38,23,845,868.0,637,460,60,124.0,72,1,270,174,63,0,0,816,-2426,-4096,867,181.28,,,,,,,,,,,,
46243,1561297092101,13,2.3,2.04,3.34,1.88,3.6,0.83,0.11,0.47,-1,-2,-2,0.84,9314,0,89,38,22,858,869.0,633,466,60,122.0,72,1,270,168,63,0,0,800,-22795,-2830,867,181.28,45.699257,4.910266,88.64,197.4,0,0.0,0,0.0,0.479,1,0.34,0.7707
46263,1561297092121,16,2.3,2.06,3.34,1.87,3.61,0.87,-0.0,0.39,-1,-0,0,0.87,9168,0,89,38,21,870,866.0,641,462,60,122.0,72,1,270,162,63,0,0,802,-3450,-4096,863,181.28,,,,,,,,,,,,
46283,1561297092141,14,2.29,1.96,3.28,1.84,3.53,0.91,-0.03,0.54,-0,2,0,0.91,8992,0,89,38,21,882,863.0,635,465,60,122.0,72,1,270,233,63,0,0,827,-2570,-22796,863,-5.59,,,,,,,,,,,,
46303,1561297092161,16,2.3,1.92,3.18,1.78,3.44,1.02,0.0,0.45,-0,2,3,1.02,8790,0,89,38,20,885,861.0,632,460,60,122.0,81,1,270,205,71,0,0,854,-11019,-2311,858,181.28,,,,,,,,,,,,
46323,1561297092181,16,2.31,1.9,3.13,1.68,3.39,0.72,0.02,0.24,-1,4,0,0.72,8644,0,89,38,19,881,855.0,626,458,60,123.0,81,1,270,182,71,0,0,801,-2311,-13312,852,181.28,,,,,,,,,,,,
46343,1561297092203,20,2.29,1.88,3.05,1.67,3.42,0.79,0.06,0.03,-1,-0,-3,0.79,8806,0,90,38,19,871,846.0,627,456,60,122.0,81,1,270,168,71,0,0,834,-3450,-13068,847,414.87,45.699276,4.910283,86.39,197.4,0,0.0,0,0.0,0.4807,1,0.34,0.7724
46363,1561297092223,19,2.29,1.85,2.97,1.65,3.38,0.75,0.11,-0.02,-1,0,5,0.76,8749,0,89,38,19,851,841.0,627,461,60,123.0,81,1,270,153,71,0,0,807,-2574,-4096,838,414.87,,,,,,,,,,,,
46383,1561297092243,17,2.3,1.84,3.04,1.64,3.37,0.88,0.04,0.12,-2,-2,3,0.88,8794,0,89,38,18,841,837.0,618,460,60,123.0,81,1,270,144,71,0,0,816,-31066,-30694,832,-5.59,,,,,,,,,,,,
46403,1561297092263,17,2.31,1.84,3.16,1.64,3.42,0.98,0.0,0.14,-1,-2,0,0.98,8920,0,89,38,18,828,828.0,619,459,60,123.0,57,1,270,144,48,0,0,804,1037,204,826,-5.59,,,,,,,,,,,,
46423,1561297092283,16,2.3,1.83,3.21,1.64,3.55,1.08,-0.1,0.18,-0,-5,1,1.09,8920,0,89,38,18,813,820.0,624,462,60,122.0,57,1,270,144,48,0,0,768,-13580,-7436,820,-5.59,,,,,,,,,,,,
46443,1561297092300,20,2.28,1.82,3.26,1.64,3.62,1.16,-0.1,0.24,-1,-5,1,1.17,8967,0,90,38,18,805,816.0,625,457,60,123.0,57,1,270,144,48,0,0,746,1524,6389,818,-5.59,45.699295,4.910298,84.17,197.4,0,0.0,0,0.0,0.4823,1,0.34,0.774
46463,1561297092320,21,2.28,1.81,3.34,1.65,3.68,1.22,-0.2,0.26,-2,-5,-0,1.24,9040,0,90,38,18,797,813.0,622,462,60,123.0,57,1,270,144,48,0,0,682,-25858,-388,813,-5.59,,,,,,,,,,,,
46483,1561297092340,18,2.28,1.87,3.42,1.64,3.68,1.29,-0.19,0.16,-2,-4,1,1.3,9071,0,89,38,18,798,809.0,631,463,60,123.0,57,1,270,144,48,0,0,642,-3450,-27404,806,181.28,,,,,,,,,,,,
46503,1561297092360,20,2.27,1.91,3.41,1.65,3.6,1.36,-0.28,0.19,-2,-3,-0,1.39,8971,0,90,38,17,800,803.0,630,465,60,122.0,61,1,270,60,49,0,0,653,-2560,2024,800,-5.59,,,,,,,,,,,,
46523,1561297092380,22,2.27,1.92,3.34,1.66,3.57,1.4,-0.27,0.2,-2,-3,1,1.42,8786,0,89,38,17,809,801.0,630,462,60,123.0,61,1,270,138,49,0,0,685,-13072,3543,794,181.28,,,,,,,,,,,,
46543,1561297092402,20,2.28,1.9,3.27,1.66,3.58,1.39,-0.3,0.15,-3,-2,-2,1.42,8757,0,90,38,17,815,793.0,629,460,60,123.0,61,1,270,138,49,0,0,636,-2540,16599,782,414.87,45.699314,4.910313,81.22,197.4,0,0.0,0,0.0,0.484,1,0.35,0.7757
46563,1561297092422,19,2.28,1.86,3.3,1.62,3.56,1.22,-0.21,0.08,-3,-0,-2,1.24,8790,0,89,38,17,824,784.0,626,458,60,123.0,61,1,270,138,49,0,0,615,-2344,-2345,778,181.28,,,,,,,,,,,,
46583,1561297092442,25,2.28,1.85,3.3,1.6,3.53,1.15,-0.05,-0.02,-4,-2,-3,1.15,8794,0,89,38,17,831,785.0,621,463,60,123.0,61,1,270,138,49,0,0,633,-2344,-4876,777,414.87,,,,,,,,,,,,
46603,1561297092462,25,2.31,1.82,3.32,1.56,3.55,1.19,-0.02,0.02,-4,-1,-4,1.19,8761,0,90,38,17,848,782.0,627,460,60,123.0,58,1,270,138,45,0,0,647,-22795,506,770,414.87,,,,,,,,,,,,
46623,1561297092482,22,2.32,1.79,3.29,1.55,3.55,1.28,-0.06,0.11,-4,-2,-6,1.28,8640,0,90,38,17,858,776.0,619,462,60,122.0,58,1,270,138,45,0,0,632,-31068,3403,765,-5.59,,,,,,,,,,,,
46643,1561297092502,23,2.31,1.79,3.24,1.59,3.51,1.29,-0.08,0.04,-3,-2,-6,1.29,8499,3,90,38,18,867,767.0,618,461,60,123.0,58,1,270,144,45,0,0,645,-10216,-10346,761,181.28,45.699333,4.910327,78.75,197.4,0,0.0,0,0.0,0.4857,1,0.35,0.7774
46663,1561297092522,23,2.33,1.81,3.24,1.59,3.5,1.25,-0.02,0.04,-3,-1,-7,1.25,8461,0,90,38,18,872,754.0,613,459,60,122.0,58,1,270,143,45,0,0,633,-2574,-388,754,-5.59,,,,,,,,,,,,
46683,1561297092542,23,2.32,1.79,3.26,1.52,3.52,1.33,-0.08,0.06,-4,-1,-7,1.33,8561,0,90,38,19,886,751.0,612,462,60,123.0,58,1,270,149,45,0,0,640,136,3543,740,-5.59,,,,,,,,,,,,
46703,1561297092562,18,2.32,1.76,3.29,1.49,3.56,1.3,0.01,0.09,-3,0,-8,1.3,8585,0,90,38,19,903,745.0,618,462,60,123.0,64,1,270,149,48,0,0,657,-2826,506,739,181.28,,,,,,,,,,,,
46723,1561297092582,23,2.32,1.77,3.29,1.52,3.61,1.22,0.1,0.06,-2,1,-6,1.22,8593,0,90,38,19,908,740.0,622,460,60,123.0,64,1,270,149,48,0,0,631,-2356,17344,738,181.28,,,,,,,,,,,,
46743,1561297092602,22,2.31,1.78,3.32,1.56,3.62,1.3,0.04,0.06,-3,0,-5,1.3,8461,0,90,38,19,919,733.0,623,461,60,122.0,64,1,270,148,48,0,0,559,-22796,11566,731,181.28,45.699348,4.910342,75.3,197.5,0,0.0,0,0.0,0.4873,1,0.35,0.779
46763,1561297092622,23,2.31,1.79,3.28,1.58,3.53,1.32,0.09,0.08,-2,-0,-6,1.32,8259,0,90,38,19,931,724.0,612,463,60,123.0,64,1,270,145,48,0,0,570,31988,24845,724,414.87,,,,,,,,,,,,
46783,1561297092642,19,2.3,1.78,3.26,1.55,3.51,1.39,0.09,0.05,-2,-1,-4,1.39,8130,0,90,38,20,946,720.0,603,461,60,123.0,64,1,270,147,48,0,0,619,-2830,1780,712,181.28,,,,,,,,,,,,
46803,1561297092662,22,2.3,1.78,3.29,1.53,3.52,1.42,0.11,0.05,-2,-3,-4,1.42,8166,0,90,38,20,958,709.0,595,462,60,123.0,61,1,270,147,44,0,0,625,-12152,-3488,709,181.28,,,,,,,,,,,,
46823,1561297092682,19,2.3,1.78,3.32,1.52,3.56,1.4,0.11,0.09,-3,-2,-3,1.4,8166,0,90,38,20,965,708.0,594,461,60,123.0,61,1,270,71,44,0,0,619,-30694,17344,705,-5.59,,,,,,,,,,,,
46843,1561297092702,18,2.31,1.78,3.32,1.51,3.57,1.38,0.08,0.08,-3,-5,-3,1.38,8155,0,90,38,20,984,705.0,598,460,60,123.0,61,1,270,147,44,0,0,588,687,4956,700,181.28,45.699364,4.910355,72.16,197.5,0,0.0,0,0.0,0.489,1,0.35,0.7807
46863,1561297092722,17,2.32,1.77,3.31,1.51,3.58,1.16,0.1,0.01,-2,-2,-4,1.16,8074,0,90,38,20,996,699.0,593,461,60,124.0,61,1,270,146,44,0,0,602,6208,23619,693,414.87,,,,,,,,,,,,
46883,1561297092742,18,2.32,1.78,3.3,1.54,3.56,1.14,0.01,-0.05,-2,-3,-4,1.14,7985,0,90,38,20,1008,690.0,584,462,60,124.0,61,1,269,144,44,0,0,607,-2830,243,687,181.28,,,,,,,,,,,,
46903,1561297092762,17,2.33,1.78,3.31,1.56,3.56,1.18,0.04,-0.08,-2,-4,-2,1.18,7988,0,90,38,20,1020,686.0,583,465,60,124.0,62,1,269,144,43,0,0,563,-26562,3472,686,181.28,,,,,,,,,,,,
46923,1561297092782,17,2.34,1.77,3.29,1.54,3.56,1.01,0.01,-0.15,-2,-2,-2,1.01,7968,0,90,38,20,1038,681.0,583,462,60,123.0,62,1,269,144,43,0,0,566,-2345,208,677,181.28,,,,,,,,,,,,
46943,1561297092802,22,2.33,1.74,3.3,1.52,3.56,0.84,-0.05,-0.21,-1,-2,0,0.84,7855,0,90,38,20,1051,674.0,581,462,60,123.0,62,1,268,144,43,0,0,586,-3038,-23055,675,181.28,45.699379,4.910368,69.64,197.5,0,0.0,0,0.0,0.4907,1,0.35,0.7824
46963,1561297092822,16,2.32,1.74,3.29,1.53,3.57,0.96,-0.06,-0.14,-1,-3,1,0.96,7848,0,90,38,20,1066,669.0,583,458,60,122.0,62,1,268,201,43,0,0,575,-2345,30208,669,181.28,,,,,,,,,,,,
46983,1561297092842,17,2.31,1.74,3.29,1.53,3.59,1.07,-0.03,-0.08,-1,-4,-0,1.07,7881,0,90,38,19,1071,665.0,580,462,60,122.0,62,1,268,187,43,0,0,547,8958,-2934,661,181.28,,,,,,,,,,,,
47003,1561297092862,20,2.31,1.75,3.3,1.54,3.58,1.12,-0.03,-0.05,0,-6,1,1.12,7741,0,90,39,19,1075,658.0,581,461,60,121.0,79,1,267,170,53,0,0,542,-6006,-768,658,-5.59,,,,,,,,,,,,
47023,1561297092882,20,2.31,1.74,3.25,1.56,3.56,1.09,-0.01,-0.08,1,-8,-0,1.09,7656,0,90,39,18,1076,650.0,579,460,60,121.0,79,1,266,62,53,0,0,568,-8429,28675,650,-5.59,,,,,,,,,,,,
47043,1561297092902,20,2.31,1.71,3.25,1.56,3.59,1.0,-0.02,-0.14,2,-6,-1,1.0,7631,0,90,39,18,1074,644.0,573,462,60,122.0,79,1,266,146,53,0,0,558,-10251,19621,644,181.28,45.699394,4.91038,66.5,197.5,0,0.0,0,0.0,0.4923,1,0.36,0.784
47063,1561297092922,20,2.3,1.68,3.28,1.59,3.6,0.83,-0.03,-0.19,1,-3,-0,0.83,7662,0,90,39,18,1066,640.0,572,462,60,121.0,79,1,266,140,53,0,0,539,966,208,640,-5.59,,,,,,,,,,,,
47083,1561297092942,21,2.29,1.67,3.29,1.57,3.6,0.79,-0.09,-0.23,1,-3,2,0.8,7643,0,90,39,18,1037,635.0,571,461,60,121.0,79,1,266,140,53,0,0,538,-16883,-3210,635,414.87,,,,,,,,,,,,
47103,1561297092962,21,2.29,1.67,3.32,1.56,3.6,0.79,-0.13,-0.19,2,-2,3,0.8,7539,0,90,39,18,971,631.0,565,460,60,122.0,63,1,265,140,40,0,0,531,17336,-3210,630,414.87,,,,,,,,,,,,
47123,1561297092982,22,2.28,1.67,3.29,1.57,3.6,0.77,-0.17,-0.27,2,3,2,0.79,7443,3,90,39,18,921,626.0,555,461,60,121.0,63,1,264,140,40,0,0,527,16529,2216,627,414.87,,,,,,,,,,,,
47143,1561297092996,19,2.28,1.68,3.22,1.62,3.61,0.77,-0.3,-0.11,1,-2,1,0.82,7244,3,90,39,18,872,617.0,549,462,60,121.0,63,1,262,140,40,0,0,535,-3446,28675,617,181.28,45.69941,4.910392,63.9,197.5,0,0.0,0,0.0,0.494,1,0.36,0.7857
47163,1561297093016,17,2.26,1.68,3.21,1.63,3.65,0.81,-0.24,-0.13,1,-2,5,0.85,7156,0,90,39,18,838,612.0,536,462,60,120.0,63,1,261,62,40,0,0,501,30227,4956,612,-5.59,,,,,,,,,,,,
47183,1561297093036,15,2.28,1.68,3.24,1.61,3.61,0.93,-0.11,0.05,2,-9,3,0.94,7043,3,90,39,18,795,603.0,535,465,60,122.0,63,1,260,140,40,0,0,410,23619,10432,603,414.87,,,,,,,,,,,,
47203,1561297093056,22,2.27,1.67,3.3,1.56,3.6,1.04,-0.08,0.06,2,-11,1,1.04,7214,0,90,39,19,763,601.0,538,461,60,122.0,64,1,262,143,39,0,0,415,23619,10408,601,181.28,,,,,,,,,,,,
47223,1561297093076,20,2.28,1.66,3.32,1.54,3.62,0.93,-0.15,-0.05,2,-6,1,0.94,7287,3,90,39,19,768,595.0,537,459,60,121.0,64,1,262,143,39,0,0,373,-28648,8200,595,-5.59,,,,,,,,,,,,
47243,1561297093102,18,2.28,1.65,3.3,1.56,3.63,0.75,-0.16,-0.09,2,-3,3,0.76,7164,3,90,39,19,780,592.0,537,462,60,123.0,64,1,261,65,39,0,0,346,208,-14707,591,-5.59,45.699421,4.910403,61.1,197.5,0,0.0,0,0.0,0.4957,1,0.36,0.7874
47263,1561297093122,15,2.28,1.67,3.28,1.6,3.59,0.87,-0.11,0.01,2,-3,3,0.88,7017,0,90,39,19,804,586.0,535,463,60,123.0,64,1,260,143,39,0,0,327,10432,-26615,586,-5.59,,,,,,,,,,,,
47283,1561297093142,19,2.26,1.68,3.24,1.6,3.57,0.99,-0.19,0.01,2,-4,2,1.01,6865,0,90,39,19,820,581.0,526,463,60,124.0,64,1,259,141,39,0,0,334,774,-21872,579,414.87,,,,,,,,,,,,
47303,1561297093162,16,2.26,1.67,3.24,1.62,3.56,0.96,-0.14,-0.06,2,-3,2,0.97,6815,0,90,39,19,831,574.0,519,462,60,122.0,62,1,259,140,36,0,0,331,1780,-3856,574,-5.59,,,,,,,,,,,,
47323,1561297093182,19,2.25,1.67,3.25,1.57,3.57,1.06,-0.1,0.02,1,-5,3,1.07,6865,3,90,39,19,855,564.0,518,461,60,124.0,62,1,259,141,36,0,0,303,-23623,6193,565,181.28,,,,,,,,,,,,
47343,1561297093202,15,2.25,1.66,3.28,1.53,3.6,0.93,-0.12,-0.11,0,-1,2,0.93,6900,3,90,39,19,876,558.0,519,461,60,123.0,62,1,259,141,36,0,0,283,-32504,21580,556,-5.59,45.699432,4.910414,58.11,197.5,0,0.0,0,0.0,0.4973,1,0.36,0.789
47363,1561297093222,19,2.25,1.68,3.29,1.53,3.61,1.04,-0.1,-0.01,0,-4,1,1.04,6838,3,90,39,20,906,557.0,514,463,60,123.0,62,1,259,143,36,0,0,255,2216,1779,552,181.28,,,,,,,,,,,,
47383,1561297093242,16,2.25,1.69,3.26,1.53,3.6,0.93,-0.05,-0.1,-1,-4,-1,0.93,6672,3,90,39,20,916,554.0,511,462,60,122.0,62,1,259,142,36,0,0,252,-22263,-23367,546,414.87,,,,,,,,,,,,
47403,1561297093262,16,2.25,1.68,3.21,1.55,3.59,1.02,-0.11,-0.0,-2,-3,-3,1.03,6558,3,90,39,20,940,547.0,503,456,60,124.0,64,1,258,141,35,0,0,264,-22519,-32248,542,181.28,,,,,,,,,,,,
47423,1561297093282,14,2.25,1.68,3.24,1.55,3.6,1.06,-0.05,-0.01,-2,-3,-3,1.07,6585,0,90,39,20,960,542.0,498,461,60,123.0,64,1,258,141,35,0,0,223,-3082,-4054,531,-5.59,,,,,,,,,,,,
47443,1561297093301,15,2.25,1.68,3.28,1.52,3.59,1.04,-0.04,-0.04,-3,-2,-2,1.05,6663,0,90,39,20,989,539.0,502,463,60,124.0,64,1,259,142,35,0,0,197,1780,-3210,527,414.87,45.699448,4.910425,55.56,197.5,0,0.0,0,0.0,0.499,1,0.36,0.7907
47463,1561297093321,18,2.23,1.69,3.31,1.49,3.57,1.14,-0.01,0.06,-5,-1,-4,1.14,6576,0,90,40,21,998,535.0,499,459,60,124.0,64,1,260,144,35,0,0,191,6274,248,521,181.28,,,,,,,,,,,,
47483,1561297093341,13,2.24,1.7,3.3,1.5,3.55,1.14,0.1,-0.05,-5,2,-6,1.14,6414,3,90,40,21,1014,532.0,497,461,60,122.0,64,1,260,143,35,0,0,205,14504,-9216,515,-5.59,,,,,,,,,,,,
47503,1561297093361,14,2.24,1.72,3.26,1.49,3.51,1.22,0.1,-0.14,-6,1,-7,1.23,6351,3,90,40,21,1034,530.0,499,461,60,123.0,66,1,260,142,34,0,0,227,-9072,248,506,414.87,,,,,,,,,,,,
47523,1561297093381,15,2.25,1.82,3.25,1.49,3.5,1.27,0.1,-0.05,-8,-1,-8,1.27,6379,0,90,40,21,1049,524.0,492,461,60,124.0,66,1,260,142,34,0,0,235,-9212,3576,501,181.28,,,,,,,,,,,,
47543,1561297093399,15,2.26,1.85,3.28,1.48,3.5,1.25,0.19,-0.02,-9,-2,-10,1.26,6452,0,90,40,21,1058,519.0,492,463,60,123.0,66,1,260,143,34,0,0,231,16383,7154,492,-5.59,45.699459,4.910434,52.44,197.5,0,0.0,0,0.0,0.5007,1,0.37,0.7924
47563,1561297093419,13,2.27,1.85,3.28,1.47,3.5,1.27,0.23,-0.09,-9,1,-14,1.29,6438,3,90,40,21,1064,514.0,499,463,60,123.0,66,1,260,143,34,0,0,265,17136,17144,487,414.87,,,,,,,,,,,,
47583,1561297093439,12,2.29,1.83,3.26,1.47,3.5,1.33,0.26,-0.07,-10,2,-14,1.36,6351,0,90,40,22,1076,509.0,492,457,60,124.0,66,1,261,146,34,0,0,309,10994,7154,481,414.87,,,,,,,,,,,,
47603,1561297093459,12,2.31,1.82,3.26,1.47,3.49,1.31,0.21,-0.03,-11,2,-14,1.33,6368,3,90,40,22,1086,504.0,489,459,60,124.0,73,1,261,146,35,0,0,322,-32248,-3866,476,181.28,,,,,,,,,,,,
47623,1561297093479,16,2.32,1.82,3.29,1.46,3.47,1.28,0.24,-0.02,-12,0,-14,1.3,6452,3,90,40,22,1088,495.0,492,461,60,123.0,73,1,261,146,35,0,0,342,771,-14714,469,-5.59,,,,,,,,,,,,
47643,1561297093499,9,2.33,1.83,3.36,1.45,3.49,1.19,0.25,-0.01,-13,1,-16,1.22,6461,0,90,40,22,1082,491.0,497,462,60,123.0,73,1,261,146,35,0,0,362,248,23040,465,414.87,45.69947,4.910444,49.74,197.5,0,0.0,0,0.0,0.5023,1,0.37,0.794
47663,1561297093519,11,2.36,1.84,3.35,1.46,3.49,1.21,0.21,0.06,-13,2,-17,1.23,6390,3,90,40,22,1057,488.0,493,461,60,124.0,73,1,261,146,35,0,0,376,-1562,105,463,181.28,,,,,,,,,,,,
47683,1561297093539,14,2.36,1.85,3.32,1.46,3.49,1.19,0.23,0.01,-13,1,-17,1.22,6315,3,90,40,22,1016,482.0,488,458,60,123.0,73,1,261,146,35,0,0,379,-899,-31222,458,181.28,,,,,,,,,,,,
47703,1561297093559,13,2.38,1.84,3.28,1.48,3.49,1.23,0.3,0.02,-12,0,-16,1.27,6334,3,90,40,22,989,471.0,483,461,60,123.0,73,1,261,146,34,0,0,350,32033,2060,455,-5.59,,,,,,,,,,,,
47723,1561297093579,9,2.38,1.85,3.27,1.49,3.49,1.2,0.26,-0.0,-12,1,-13,1.22,6445,0,90,40,22,952,464.0,489,462,60,122.0,73,1,261,146,34,0,0,312,16408,-14707,449,-5.59,,,,,,,,,,,,
47743,1561297093600,9,2.4,1.85,3.29,1.48,3.49,1.14,0.3,0.06,-13,-0,-13,1.17,6483,3,90,40,22,900,458.0,491,463,60,123.0,73,1,261,146,34,0,0,323,17628,165,446,414.87,45.699478,4.910452,46.99,197.5,0,0.0,0,0.0,0.504,1,0.37,0.7957
47763,1561297093620,11,2.4,1.85,3.31,1.48,3.48,1.12,0.34,0.13,-12,0,-13,1.17,6449,0,90,40,22,845,456.0,492,462,60,123.0,73,1,261,69,34,0,0,373,-6387,-25856,444,-5.59,,,,,,,,,,,,
47783,1561297093640,7,2.4,1.85,3.31,1.48,3.47,1.1,0.36,0.06,-10,1,-12,1.16,6403,3,90,40,22,807,450.0,497,461,60,122.0,73,1,261,146,34,0,0,386,-3267,6668,440,181.28,,,,,,,,,,,,
47803,1561297093660,8,2.4,1.84,3.32,1.47,3.46,1.2,0.3,0.12,-9,-2,-12,1.23,6476,3,90,40,22,792,441.0,496,464,60,123.0,79,1,261,146,35,0,0,339,-18341,-31206,438,414.87,,,,,,,,,,,,
47823,1561297093680,9,2.4,1.82,3.3,1.47,3.46,1.12,0.33,0.13,-8,-2,-11,1.16,6524,3,90,40,22,780,437.0,496,461,60,123.0,79,1,261,146,35,0,0,331,19477,3183,437,181.28,,,,,,,,,,,,
47843,1561297093699,3,2.4,1.84,3.29,1.47,3.47,1.09,0.37,0.06,-7,-1,-9,1.15,6546,3,90,40,22,774,433.0,495,464,60,123.0,79,1,261,146,35,0,0,345,243,770,433,181.28,45.69949,4.91046,44.73,197.5,0,0.0,0,0.0,0.5057,1,0.37,0.7974
47863,1561297093719,0,2.41,1.83,3.28,1.47,3.47,1.17,0.3,0.14,-6,-2,-9,1.21,6597,3,90,40,22,777,429.0,501,461,60,123.0,79,1,261,147,35,0,0,352,31796,-1268,429,414.87,,,,,,,,,,,,
47883,1561297093739,1,2.41,1.83,3.29,1.48,3.48,1.07,0.3,0.13,-5,1,-7,1.11,6694,3,90,40,22,793,429.0,502,462,60,123.0,79,1,261,147,35,0,0,374,-3856,-31206,427,-5.59,,,,,,,,,,,,
47903,1561297093759,3,2.4,1.87,3.27,1.52,3.46,1.16,0.24,0.25,-4,0,-5,1.19,6764,3,90,40,22,813,426.0,511,462,60,123.0,86,1,260,148,37,0,0,372,-8165,-29302,426,414.87,,,,,,,,,,,,
47923,1561297093779,-0,2.41,1.91,3.26,1.57,3.46,1.04,0.19,0.22,-2,1,-4,1.06,6848,3,90,40,21,847,425.0,515,462,60,122.0,86,1,260,148,37,0,0,381,-26615,19125,425,-5.59,,,,,,,,,,,,
47943,1561297093799,3,2.42,1.94,3.26,1.64,3.46,1.12,0.29,0.22,-0,-1,-2,1.15,6906,3,90,40,21,862,419.0,522,465,60,123.0,86,1,260,146,37,0,0,395,-26615,6384,419,414.87,45.699497,4.910467,42.35,197.5,0,0.0,0,0.0,0.5073,1,0.37,0.799
47963,1561297093819,1,2.42,1.92,3.26,1.63,3.47,1.12,0.14,0.21,2,-0,-1,1.13,6978,3,90,40,21,880,418.0,525,460,60,123.0,86,1,260,146,37,0,0,395,10541,28696,419,414.87,,,,,,,,,,,,
47983,1561297093839,1,2.41,1.87,3.25,1.66,3.48,0.99,0.12,0.15,5,1,1,1.0,7064,3,90,40,21,896,416.0,526,461,60,123.0,86,1,261,147,37,0,0,390,28696,1,416,181.28,,,,,,,,,,,,
48003,1561297093859,0,2.39,1.84,3.16,1.76,3.48,1.1,0.17,0.22,6,-3,2,1.11,7181,3,90,40,20,919,414.0,529,466,60,124.0,93,1,261,144,39,0,0,382,-32702,-6656,414,181.28,,,,,,,,,,,,
48023,1561297093879,-0,2.38,1.81,3.07,1.85,3.5,1.19,0.15,0.27,7,-3,4,1.2,7239,0,90,40,20,937,410.0,535,461,60,123.0,93,1,262,144,39,0,0,383,505,10541,410,414.87,,,,,,,,,,,,
48043,1561297093899,6,2.35,1.77,3.07,1.86,3.52,1.17,0.03,0.28,6,-2,5,1.17,7338,0,90,40,20,945,406.0,542,463,60,122.0,93,1,263,144,39,0,0,384,-1562,-1818,406,414.87,45.699509,4.910474,40.91,197.6,0,0.0,0,0.0,0.509,1,0.37,0.8007
48063,1561297093919,4,2.33,1.77,3.1,1.85,3.53,1.15,-0.05,0.31,6,-3,6,1.15,7350,0,90,40,19,955,400.0,547,458,60,123.0,93,1,263,142,39,0,0,384,-6524,240,403,414.87,,,,,,,,,,,,
48083,1561297093939,4,2.31,1.78,3.17,1.85,3.55,0.89,-0.16,0.22,5,2,7,0.9,7341,0,90,40,19,960,399.0,550,461,60,122.0,93,1,263,142,39,0,0,384,-31744,240,398,414.87,,,,,,,,,,,,
48103,1561297093959,2,2.28,1.84,3.16,1.87,3.51,0.68,-0.18,0.11,4,5,8,0.7,7244,3,90,40,19,965,398.0,547,461,60,122.0,97,1,262,142,39,0,0,384,-31744,-19126,396,-5.59,,,,,,,,,,,,
48123,1561297093979,0,2.26,1.87,3.14,1.83,3.43,0.72,-0.16,0.13,4,3,7,0.74,7181,0,90,40,19,964,395.0,542,460,60,123.0,97,1,261,142,39,0,0,386,-6524,505,393,181.28,,,,,,,,,,,,
48143,1561297093995,-1,2.26,1.87,3.13,1.83,3.41,0.85,-0.04,0.26,4,1,7,0.85,7129,0,90,40,19,963,391.0,538,461,60,123.0,97,1,261,142,39,0,0,389,-1562,-19126,391,181.28,45.699516,4.91048,39.6,197.6,0,0.0,0,0.0,0.5107,1,0.37,0.8024
48163,1561297094015,3,2.25,1.87,3.13,1.81,3.41,0.97,-0.1,0.32,3,1,5,0.98,7075,3,90,40,19,962,392.0,539,460,60,123.0,97,1,260,142,39,0,0,382,1,19125,386,414.87,,,,,,,,,,,,
48183,1561297094035,-0,2.25,1.89,3.12,1.77,3.41,0.71,-0.1,0.16,2,4,4,0.72,7080,3,90,40,19,962,389.0,533,462,60,122.0,97,1,260,142,39,0,0,381,-6524,2278,383,-5.59,,,,,,,,,,,,
48203,1561297094055,-2,2.26,1.92,3.13,1.75,3.41,0.84,0.01,0.22,1,1,3,0.85,7070,0,90,40,19,963,387.0,535,461,60,124.0,99,1,260,142,38,0,0,380,240,1,381,181.28,,,,,,,,,,,,
48223,1561297094075,4,2.26,1.94,3.13,1.74,3.42,0.96,-0.01,0.35,-0,1,3,0.96,7043,1,90,40,19,963,386.0,536,460,60,123.0,99,1,260,142,38,0,0,380,-3866,3,377,181.28,,,,,,,,,,,,
48243,1561297094101,0,2.26,1.98,3.14,1.74,3.43,0.8,-0.06,0.22,-1,3,3,0.8,7035,6,90,40,20,963,384.0,532,461,60,123.0,99,1,260,144,38,0,0,375,-19019,3,377,414.87,45.699528,4.910487,38.36,197.6,0,0.0,0,0.0,0.5123,1,0.37,0.8041
48263,1561297094121,-2,2.24,2.0,3.14,1.76,3.39,0.68,0.07,0.14,-1,5,2,0.68,7017,7,90,40,21,963,385.0,529,461,60,123.0,99,1,260,147,38,0,0,375,19125,-6656,376,-5.59,,,,,,,,,,,,
48283,1561297094141,3,2.21,2.04,3.13,1.76,3.32,0.81,0.13,0.29,-2,1,2,0.82,6965,6,90,40,23,961,381.0,530,459,60,124.0,99,1,260,151,38,0,0,376,-992,0,373,181.28,,,,,,,,,,,,
48303,1561297094161,2,2.18,2.08,3.15,1.75,3.31,0.77,0.12,0.18,-3,2,1,0.78,6936,8,90,40,25,958,379.0,523,459,60,122.0,107,1,261,156,40,0,0,372,3,-6656,370,181.28,,,,,,,,,,,,
48323,1561297094181,0,2.16,2.06,3.17,1.63,3.3,0.84,0.22,0.23,-4,-1,0,0.86,6911,8,90,40,26,954,377.0,519,460,60,123.0,107,1,265,157,40,0,0,369,-6656,0,367,181.28,,,,,,,,,,,,
