"Interval"|"ms"|0|0|1,"Utc"|"ms"|0|0|1,"FB_p"|"bar"|0|300|50,"Volant"|"F"|0.0|300.0|50,"xFR"|"mm"|0.0|5.0|50,"xRR"|"mm"|0.0|5.0|50,"xFL"|"mm"|0.0|5.0|50,"xRL"|"mm"|0.0|5.0|50,"AccelX"|"G"|-3.0|3.0|50,"AccelY"|"G"|-3.0|3.0|50,"AccelZ"|"G"|-3.0|3.0|50,"Yaw"|"Deg/Sec"|-120|120|50,"Pitch"|"Deg/Sec"|-120|120|50,"Roll"|"Deg/Sec"|-120|120|50,"Gsum"|"G"|0.0|3.0|50,"RPM"|""|0|14000|50,"TPS"|"%"|0|100|50,"WaterTemp"|"?C"|0|300|50,"AirTemp"|"?C"|-1000|1000|50,"MAP"|"KPa"|0|255|50,"Lambda"|""|0|1024|50,"WheelSpeed"|"MPH"|0.0|150.0|50,"OilPress"|"PSI"|0|150|50,"FuelPress"|"PSI"|0|150|50,"OilTemp"|"F"|0|300|50,"Battery"|"Volts"|0.0|20.0|50,"FuelCon"|"L/h"|-1000|1000|50,"Gear"|""|0|10|50,"Advance"|"Deg"|-360|360|50,"Injection"|"ms"|-1000|1000|50,"FuelCon"|"L/100km"|-1000|1000|50,"LC_But_Pres"|""|-1000|1000|50,"LC_Active"|""|-1000|1000|50,"RD_Speed"|""|-1000|1000|50,"RUD_Speed"|""|-1000|1000|50,"LD_Speed"|""|-1000|1000|50,"LUD_Speed"|""|-1000|1000|50,"Ana1"|"bar"|-1000.0|1000.0|50,"Latitude"|"Degrees"|-180.0|180.0|10,"Longitude"|"Degrees"|-180.0|180.0|10,"Speed"|"kph"|0.0|150.0|10,"Altitude"|"m"|0.0|4000.0|10,"LapCount"|""|0|0|10,"LapTime"|"Min"|0.0|0.0|10,"Sector"|""|0|0|10,"SectorTime"|"Min"|0.0|0.0|10,"ElapsedTime"|"Min"|0.0|0.0|10,"CurrentLap"|""|0|0|10,"Distance"|"km"|0.0|0.0|10,"SessionTime"|"Min"|0.0|0.0|10
3383,0,2,2.2,2.02,2.88,1.89,3.25,0.77,0.02,0.61,0,-1,0,0.77,0,0,100,39,98,506,0.0,123,371,60,123.0,0,1,0,0,0,0,0,0,250,250,0,181.28,,,,,,,,,,,,
3403,0,0,2.22,2.02,2.88,1.89,3.25,0.77,0.02,0.61,-0,-1,0,0.77,0,0,100,39,98,506,0.0,122,370,60,123.0,0,1,0,0,0,0,0,0,250,250,0,181.28,,,,,,,,,,,,
3423,0,2,2.21,2.01,2.88,1.89,3.24,0.77,0.02,0.61,-0,-1,0,0.77,0,0,100,39,98,507,0.0,122,368,60,123.0,0,1,0,0,0,0,0,0,250,250,0,181.28,,,,,,,,,,,,
3443,0,2,2.21,2.02,2.89,1.88,3.25,0.77,0.02,0.61,-1,-2,0,0.77,0,0,100,39,98,507,0.0,122,368,60,123.0,0,1,0,0,0,0,0,0,250,250,0,181.28,0.0,0.0,0.0,0.0,0,0.0,-1,0.0,0.0,0,0.0,0.0574
3463,0,0,2.21,2.02,2.88,1.88,3.24,0.77,0.02,0.61,-1,-2,0,0.77,0,0,100,39,98,507,0.0,122,367,60,123.0,0,1,0,0,0,0,0,0,250,250,0,181.28,,,,,,,,,,,,
3483,0,2,2.21,2.02,2.88,1.89,3.24,0.77,0.02,0.61,-1,-2,1,0.77,0,0,100,39,98,507,0.0,122,365,60,123.0,0,1,0,0,0,0,0,0,250,250,0,181.28,,,,,,,,,,,,
3503,0,0,2.21,2.02,2.88,1.88,3.24,0.77,0.02,0.61,-1,-2,1,0.77,0,0,100,39,98,507,0.0,122,365,60,123.0,0,1,0,0,0,0,0,0,250,250,0,181.28,,,,,,,,,,,,
3523,0,2,2.21,2.02,2.88,1.89,3.25,0.77,0.02,0.61,-1,-2,0,0.77,0,0,100,39,98,507,0.0,122,362,60,123.0,0,1,0,0,0,0,0,0,250,250,0,181.28,,,,,,,,,,,,
3543,0,3,2.21,2.02,2.89,1.9,3.25,0.77,0.02,0.61,-1,-2,0,0.77,0,0,100,39,98,507,0.0,122,362,60,123.0,0,1,0,0,0,0,0,0,250,250,0,181.28,0.0,0.0,0.0,0.0,0,0.0,-1,0.0,0.0,0,0.0,0.059
3563,0,2,2.21,2.02,2.88,1.9,3.25,0.77,0.02,0.61,-1,-2,0,0.77,0,0,100,39,98,507,0.0,122,362,60,123.0,0,1,0,0,0,0,0,0,250,250,0,181.28,,,,,,,,,,,,
3583,0,2,2.21,2.02,2.88,1.9,3.24,0.78,0.02,0.61,-0,-1,-0,0.78,0,0,100,39,98,507,0.0,122,361,60,123.0,0,1,0,0,0,0,0,0,250,250,0,181.28,,,,,,,,,,,,
3603,0,2,2.22,2.02,2.89,1.89,3.25,0.78,0.02,0.61,0,-1,-1,0.78,0,0,100,39,98,507,0.0,122,360,60,123.0,0,1,0,0,0,0,0,0,250,250,0,181.28,,,,,,,,,,,,
3623,0,2,2.21,2.02,2.88,1.89,3.24,0.77,0.02,0.61,0,-0,-1,0.77,0,0,100,39,98,507,0.0,122,360,60,123.0,0,1,0,0,0,0,0,0,250,250,0,181.28,,,,,,,,,,,,
3643,0,2,2.21,2.02,2.89,1.89,3.25,0.77,0.03,0.61,0,-0,-1,0.77,0,0,100,39,98,507,0.0,121,360,60,123.0,0,1,0,0,0,0,0,0,250,250,0,181.28,0.0,0.0,0.0,0.0,0,0.0,-1,0.0,0.0,0,0.0,0.0607
3663,0,1,2.22,2.02,2.88,1.89,3.24,0.77,0.02,0.61,0,-0,-1,0.77,0,0,100,39,98,507,0.0,121,357,60,123.0,0,1,0,0,0,0,0,0,250,250,0,181.28,,,,,,,,,,,,
3683,0,2,2.21,2.02,2.88,1.89,3.25,0.77,0.02,0.61,0,-0,-1,0.77,0,0,100,39,98,507,0.0,121,357,60,123.0,0,1,0,0,0,0,0,0,250,250,0,181.28,,,,,,,,,,,,
3703,0,0,2.21,2.02,2.89,1.88,3.25,0.77,0.02,0.61,0,-0,-0,0.77,0,0,100,39,98,507,0.0,121,357,60,123.0,0,1,0,0,0,0,0,0,250,250,0,181.28,,,,,,,,,,,,
3723,0,2,2.21,2.02,2.89,1.88,3.25,0.77,0.02,0.61,0,-0,-0,0.77,0,0,100,39,98,507,0.0,121,357,60,123.0,0,1,0,0,0,0,0,0,250,250,0,181.28,,,,,,,,,,,,
3743,0,0,2.21,2.02,2.89,1.9,3.25,0.77,0.02,0.62,0,-0,-0,0.77,0,0,100,39,98,507,0.0,121,355,60,123.0,0,1,0,0,0,0,0,0,250,250,0,181.28,0.0,0.0,0.0,0.0,0,0.0,-1,0.0,0.0,0,0.0,0.0624
3763,0,2,2.21,2.02,2.89,1.9,3.24,0.77,0.02,0.62,0,-0,-0,0.77,0,0,100,39,98,507,0.0,121,355,60,123.0,0,1,0,0,0,0,0,0,250,250,0,181.28,,,,,,,,,,,,
3783,0,2,2.21,2.02,2.88,1.89,3.25,0.77,0.02,0.62,0,-0,-0,0.77,0,0,100,39,98,507,0.0,121,354,60,123.0,0,1,0,0,0,0,0,0,250,250,0,181.28,,,,,,,,,,,,
3803,0,1,2.22,2.02,2.88,1.89,3.24,0.77,0.02,0.61,0,-0,-0,0.77,0,0,100,39,98,507,0.0,121,354,60,123.0,0,1,0,0,0,0,0,0,250,250,0,181.28,,,,,,,,,,,,
3823,0,2,2.21,2.02,2.88,1.89,3.24,0.77,0.02,0.62,0,-1,-0,0.77,0,0,100,39,98,507,0.0,121,352,60,123.0,0,1,0,0,0,0,0,0,250,250,0,181.28,,,,,,,,,,,,
3843,0,2,2.21,2.03,2.89,1.89,3.25,0.77,0.02,0.62,0,-0,-0,0.77,0,0,100,39,98,507,0.0,121,352,60,123.0,0,1,0,0,0,0,0,0,250,250,0,181.28,0.0,0.0,0.0,0.0,0,0.0,-1,0.0,0.0,0,0.0,0.064
3863,0,2,2.21,2.02,2.88,1.89,3.24,0.77,0.02,0.62,0,-0,-0,0.77,0,0,100,39,98,507,0.0,121,352,60,123.0,0,1,0,0,0,0,0,0,250,250,0,181.28,,,,,,,,,,,,
3883,0,2,2.21,2.02,2.89,1.89,3.24,0.77,0.02,0.62,0,-1,-0,0.77,0,0,100,39,98,507,0.0,121,352,60,123.0,0,1,0,0,0,0,0,0,250,250,0,181.28,,,,,,,,,,,,
3903,0,2,2.22,2.02,2.88,1.89,3.24,0.77,0.02,0.62,0,-1,-0,0.77,0,0,100,39,98,507,0.0,122,351,60,123.0,0,1,0,0,0,0,0,0,250,250,0,181.28,,,,,,,,,,,,
3923,0,1,2.21,2.02,2.88,1.89,3.25,0.77,0.02,0.62,0,-1,-0,0.77,0,0,100,39,98,508,0.0,122,349,60,123.0,0,1,0,0,0,0,0,0,250,250,0,181.28,,,,,,,,,,,,
3943,0,2,2.2,2.02,2.89,1.89,3.24,0.77,0.02,0.62,0,-1,-0,0.77,0,0,100,39,98,508,0.0,121,348,60,123.0,0,1,0,0,0,0,0,0,250,250,0,181.28,0.0,0.0,0.0,0.0,0,0.0,-1,0.0,0.0,0,0.0,0.0657
3963,0,2,2.21,2.02,2.89,1.89,3.24,0.77,0.02,0.62,0,-1,-0,0.77,0,0,100,39,98,508,0.0,121,348,60,123.0,0,1,0,0,0,0,0,0,250,250,0,181.28,,,,,,,,,,,,
3983,0,1,2.21,2.02,2.88,1.89,3.24,0.77,0.02,0.62,0,-1,-0,0.77,0,0,100,39,98,508,0.0,121,347,60,123.0,0,1,0,0,0,0,0,0,250,250,0,181.28,,,,,,,,,,,,
4003,0,0,2.21,2.02,2.89,1.89,3.24,0.77,0.02,0.62,0,-1,-0,0.77,0,0,100,39,98,507,0.0,121,346,60,123.0,0,1,0,0,0,0,0,0,250,250,0,181.28,,,,,,,,,,,,
4023,0,2,2.21,2.02,2.89,1.89,3.25,0.77,0.02,0.62,0,-1,-0,0.77,0,0,100,39,98,507,0.0,122,346,60,123.0,0,1,0,0,0,0,0,0,250,250,0,-5.59,,,,,,,,,,,,
4043,0,2,2.2,2.02,2.88,1.89,3.25,0.77,0.02,0.62,0,-1,-0,0.77,0,0,100,39,98,507,0.0,122,346,60,123.0,0,1,0,0,0,0,0,0,250,250,0,181.28,0.0,0.0,0.0,0.0,0,0.0,-1,0.0,0.0,0,0.0,0.0674
4063,0,1,2.21,2.02,2.89,1.89,3.24,0.77,0.02,0.62,0,-1,-0,0.77,0,0,100,39,98,507,0.0,122,346,60,123.0,0,1,0,0,0,0,0,0,250,250,0,181.28,,,,,,,,,,,,
4083,0,2,2.21,2.02,2.88,1.89,3.25,0.77,0.02,0.62,0,-1,-0,0.77,0,0,100,39,98,507,0.0,122,344,60,123.0,0,1,0,0,0,0,0,0,250,250,0,181.28,,,,,,,,,,,,
4103,0,0,2.21,2.02,2.89,1.88,3.25,0.77,0.02,0.62,0,-1,-0,0.77,0,0,100,39,98,507,0.0,121,343,60,123.0,0,1,0,0,0,0,0,0,250,250,0,181.28,,,,,,,,,,,,
4123,0,3,2.21,2.02,2.89,1.88,3.25,0.77,0.02,0.62,0,-1,-0,0.77,0,0,100,39,98,507,0.0,121,343,60,123.0,0,1,0,0,0,0,0,0,250,250,0,181.28,,,,,,,,,,,,
4143,0,1,2.2,2.02,2.89,1.89,3.24,0.77,0.02,0.62,0,-1,-0,0.77,0,0,100,39,98,507,0.0,121,343,60,123.0,0,1,0,0,0,0,0,0,250,250,0,181.28,0.0,0.0,0.0,0.0,0,0.0,-1,0.0,0.0,0,0.0,0.069
4163,0,1,2.22,2.02,2.89,1.89,3.25,0.77,0.02,0.62,0,-1,-0,0.77,0,0,100,39,98,507,0.0,121,342,60,123.0,0,1,0,0,0,0,0,0,250,250,0,181.28,,,,,,,,,,,,
4183,0,1,2.22,2.02,2.88,1.89,3.24,0.77,0.02,0.62,0,-1,-0,0.77,0,0,100,39,98,507,0.0,121,341,60,123.0,0,1,0,0,0,0,0,0,250,250,0,181.28,,,,,,,,,,,,
4203,0,1,2.22,2.02,2.89,1.89,3.24,0.77,0.02,0.62,0,-1,-0,0.77,0,0,100,39,98,507,0.0,121,341,60,123.0,0,1,0,0,0,0,0,0,250,250,0,181.28,,,,,,,,,,,,
4223,0,0,2.22,2.02,2.89,1.88,3.25,0.77,0.02,0.62,0,-1,-0,0.77,0,0,100,39,98,507,0.0,121,341,60,123.0,0,1,0,0,0,0,0,0,250,250,0,181.28,,,,,,,,,,,,
4243,0,2,2.21,2.02,2.89,1.89,3.24,0.77,0.02,0.62,0,-1,-0,0.78,0,0,100,39,98,507,0.0,121,341,60,123.0,0,1,0,0,0,0,0,0,250,250,0,181.28,0.0,0.0,0.0,0.0,0,0.0,-1,0.0,0.0,0,0.0,0.0707
4263,0,3,2.21,2.02,2.89,1.89,3.25,0.77,0.02,0.62,0,-1,-0,0.77,0,0,100,39,98,507,0.0,121,340,60,123.0,0,1,0,0,0,0,0,0,250,250,0,181.28,,,,,,,,,,,,
4283,0,3,2.21,2.02,2.89,1.89,3.24,0.77,0.02,0.62,0,-1,-0,0.77,0,0,100,39,98,507,0.0,121,338,60,123.0,0,1,0,0,0,0,0,0,250,250,0,181.28,,,,,,,,,,,,
4303,0,0,2.21,2.03,2.89,1.88,3.25,0.77,0.02,0.62,0,-1,-0,0.77,0,0,100,39,98,507,0.0,122,338,60,123.0,0,1,0,0,0,0,0,0,250,250,0,181.28,,,,,,,,,,,,
4323,0,1,2.21,2.02,2.89,1.89,3.24,0.77,0.02,0.62,0,-1,-0,0.77,0,0,100,39,98,507,0.0,122,338,60,123.0,0,1,0,0,0,0,0,0,250,250,0,181.28,,,,,,,,,,,,
4343,0,2,2.21,2.03,2.89,1.89,3.24,0.77,0.02,0.62,0,-1,-0,0.77,0,0,100,39,98,507,0.0,122,337,60,123.0,0,1,0,0,0,0,0,0,250,250,0,181.28,0.0,0.0,0.0,0.0,0,0.0,-1,0.0,0.0,0,0.0,0.0724
4363,0,2,2.22,2.03,2.89,1.89,3.25,0.77,0.02,0.62,0,-1,-0,0.77,0,0,100,39,98,507,0.0,122,336,60,123.0,0,1,0,0,0,0,0,0,250,250,0,181.28,,,,,,,,,,,,
4383,0,3,2.21,2.02,2.89,1.89,3.25,0.77,0.02,0.62,0,-1,-0,0.77,0,0,100,39,98,507,0.0,122,335,60,123.0,0,1,0,0,0,0,0,0,250,250,0,181.28,,,,,,,,,,,,
4403,0,3,2.21,2.02,2.89,1.88,3.25,0.77,0.02,0.62,0,-1,-0,0.77,0,0,100,39,98,507,0.0,122,335,60,123.0,0,1,0,0,0,0,0,0,250,250,0,181.28,,,,,,,,,,,,
4423,0,2,2.22,2.01,2.89,1.89,3.25,0.77,0.02,0.62,0,-1,-0,0.77,0,0,100,39,98,507,0.0,122,336,60,123.0,0,1,0,0,0,0,0,0,250,250,0,181.28,,,,,,,,,,,,
4443,0,1,2.21,2.02,2.88,1.89,3.24,0.77,0.02,0.62,0,-1,-0,0.77,0,0,100,39,98,507,0.0,122,336,60,123.0,0,1,0,0,0,0,0,0,250,250,0,181.28,0.0,0.0,0.0,0.0,0,0.0,-1,0.0,0.0,0,0.0,0.074
4463,0,0,2.22,2.02,2.88,1.89,3.24,0.77,0.02,0.62,0,-1,-0,0.77,0,0,100,39,98,507,0.0,122,336,60,123.0,0,1,0,0,0,0,0,0,250,250,0,181.28,,,,,,,,,,,,
4483,0,1,2.22,2.02,2.88,1.88,3.25,0.77,0.02,0.62,0,-1,-0,0.77,0,0,100,40,98,507,0.0,122,333,60,123.0,0,1,0,0,0,0,0,0,250,250,0,181.28,,,,,,,,,,,,
4503,0,0,2.21,2.02,2.88,1.88,3.24,0.77,0.02,0.61,0,-1,-0,0.77,0,0,100,40,98,507,0.0,121,333,60,123.0,0,1,0,0,0,0,0,0,250,250,0,181.28,,,,,,,,,,,,
4523,0,3,2.21,2.02,2.88,1.88,3.25,0.77,0.02,0.61,0,-1,-0,0.77,0,0,100,40,98,507,0.0,121,333,60,123.0,0,1,0,0,0,0,0,0,250,250,0,181.28,,,,,,,,,,,,
4543,0,0,2.21,2.02,2.89,1.89,3.24,0.77,0.02,0.61,0,-1,-0,0.77,0,0,100,40,98,507,0.0,121,333,60,123.0,0,1,0,0,0,0,0,0,250,250,0,181.28,0.0,0.0,0.0,0.0,0,0.0,-1,0.0,0.0,0,0.0,0.0757
4563,0,0,2.22,2.02,2.89,1.88,3.25,0.77,0.02,0.61,0,-1,-0,0.77,0,0,100,40,98,507,0.0,122,333,60,123.0,0,1,0,0,0,0,0,0,250,250,0,181.28,,,,,,,,,,,,
4583,0,1,2.2,2.02,2.89,1.89,3.24,0.77,0.02,0.61,0,-1,-0,0.77,0,0,100,40,98,507,0.0,122,331,60,123.0,0,1,0,0,0,0,0,0,250,250,0,181.28,,,,,,,,,,,,
4603,0,3,2.21,2.02,2.89,1.88,3.25,0.77,0.02,0.61,0,-1,-0,0.77,0,0,100,40,98,507,0.0,122,330,60,123.0,0,1,0,0,0,0,0,0,250,250,0,181.28,,,,,,,,,,,,
4623,0,2,2.22,2.02,2.89,1.89,3.25,0.77,0.02,0.61,0,-1,-0,0.77,0,0,100,40,98,507,0.0,122,330,60,123.0,0,1,0,0,0,0,0,0,250,250,0,181.28,,,,,,,,,,,,
4643,0,0,2.21,2.02,2.89,1.88,3.25,0.77,0.02,0.61,0,-1,-0,0.77,0,0,100,40,98,507,0.0,122,330,60,123.0,0,1,0,0,0,0,0,0,250,250,0,181.28,0.0,0.0,0.0,0.0,0,0.0,-1,0.0,0.0,0,0.0,0.0774
4663,0,1,2.22,2.02,2.88,1.89,3.24,0.77,0.02,0.61,0,-1,-0,0.77,0,0,100,40,98,507,0.0,122,330,60,123.0,0,1,0,0,0,0,0,0,250,250,0,181.28,,,,,,,,,,,,
4683,0,1,2.22,2.02,2.88,1.89,3.25,0.77,0.02,0.61,0,-1,-0,0.77,0,0,100,40,98,507,0.0,122,329,60,123.0,0,1,0,0,0,0,0,0,250,250,0,181.28,,,,,,,,,,,,
4703,0,2,2.2,2.02,2.88,1.89,3.24,0.77,0.02,0.61,0,-1,-0,0.77,0,0,100,40,98,507,0.0,122,328,60,123.0,0,1,0,0,0,0,0,0,250,250,0,181.28,,,,,,,,,,,,
4723,0,2,2.21,2.02,2.88,1.89,3.25,0.77,0.02,0.61,0,-1,-0,0.77,0,0,100,40,98,507,0.0,123,327,60,123.0,0,1,0,0,0,0,0,0,250,250,0,181.28,,,,,,,,,,,,
4743,0,2,2.21,2.02,2.89,1.89,3.24,0.77,0.02,0.61,0,-1,-0,0.77,0,0,100,40,98,507,0.0,123,327,60,123.0,0,1,0,0,0,0,0,0,250,250,0,181.28,0.0,0.0,0.0,0.0,0,0.0,-1,0.0,0.0,0,0.0,0.079
4763,0,2,2.21,2.01,2.88,1.89,3.24,0.77,0.02,0.61,0,-1,-0,0.77,0,0,100,40,98,507,0.0,123,327,60,123.0,0,1,0,0,0,0,0,0,250,250,0,181.28,,,,,,,,,,,,
4783,0,0,2.22,2.02,2.88,1.89,3.24,0.77,0.02,0.61,0,-1,-0,0.77,0,0,100,40,98,508,0.0,123,327,60,123.0,0,1,0,0,0,0,0,0,250,250,0,181.28,,,,,,,,,,,,
4803,0,2,2.22,2.01,2.89,1.89,3.25,0.77,0.02,0.61,0,-1,-0,0.77,0,0,100,40,98,508,0.0,123,327,60,123.0,0,1,0,0,0,0,0,0,250,250,0,181.28,,,,,,,,,,,,
4823,0,3,2.21,2.02,2.89,1.89,3.25,0.77,0.02,0.61,0,-1,-0,0.77,0,0,100,40,98,507,0.0,123,325,60,123.0,0,1,0,0,0,0,0,0,250,250,0,181.28,,,,,,,,,,,,
4843,0,2,2.22,2.02,2.88,1.89,3.24,0.77,0.02,0.61,0,-1,-0,0.77,0,0,100,40,98,507,0.0,123,325,60,123.0,0,1,0,0,0,0,0,0,250,250,0,181.28,0.0,0.0,0.0,0.0,0,0.0,-1,0.0,0.0,0,0.0,0.0807
4863,0,2,2.21,2.02,2.88,1.89,3.24,0.77,0.02,0.61,0,-1,-0,0.77,0,0,100,40,98,507,0.0,123,325,60,123.0,0,1,0,0,0,0,0,0,250,250,0,181.28,,,,,,,,,,,,
4883,0,1,2.21,2.02,2.88,1.89,3.25,0.77,0.02,0.61,0,-1,-0,0.77,0,0,100,40,98,507,0.0,123,325,60,123.0,0,1,0,0,0,0,0,0,250,250,0,181.28,,,,,,,,,,,,
4903,0,2,2.21,2.03,2.89,1.89,3.25,0.77,0.02,0.61,0,-1,-0,0.77,0,0,100,40,98,507,0.0,123,325,60,123.0,0,1,0,0,0,0,0,0,250,250,0,181.28,,,,,,,,,,,,
4923,0,1,2.22,2.02,2.88,1.89,3.24,0.77,0.02,0.61,0,-1,-0,0.77,0,0,100,40,98,507,0.0,123,324,60,123.0,0,1,0,0,0,0,0,0,250,250,0,181.28,,,,,,,,,,,,
4943,0,2,2.22,2.02,2.89,1.89,3.25,0.77,0.02,0.61,0,-1,-0,0.77,0,0,100,40,98,507,0.0,122,324,60,123.0,0,1,0,0,0,0,0,0,250,250,0,181.28,0.0,0.0,0.0,0.0,0,0.0,-1,0.0,0.0,0,0.0,0.0824
4963,0,2,2.21,2.02,2.89,1.89,3.25,0.77,0.02,0.61,0,-1,-0,0.77,0,0,100,40,98,507,0.0,122,322,60,123.0,0,1,0,0,0,0,0,0,250,250,0,181.28,,,,,,,,,,,,
4983,0,0,2.22,2.02,2.89,1.89,3.24,0.77,0.02,0.61,0,-1,-0,0.77,0,0,100,40,98,507,0.0,122,322,60,123.0,0,1,0,0,0,0,0,0,250,250,0,181.28,,,,,,,,,,,,
5003,0,2,2.21,2.02,2.89,1.88,3.25,0.77,0.02,0.61,0,-1,-0,0.77,0,0,100,40,98,507,0.0,122,322,60,123.0,0,1,0,0,0,0,0,0,250,250,0,181.28,,,,,,,,,,,,
5023,0,1,2.21,2.02,2.89,1.88,3.25,0.77,0.02,0.61,0,-1,-0,0.77,0,0,100,40,98,507,0.0,122,322,60,123.0,0,1,0,0,0,0,0,0,250,250,0,181.28,,,,,,,,,,,,
5043,0,1,2.21,2.02,2.89,1.89,3.25,0.77,0.02,0.61,0,-1,-0,0.77,0,0,100,40,98,507,0.0,122,322,60,123.0,0,1,0,0,0,0,0,0,250,250,0,181.28,0.0,0.0,0.0,0.0,0,0.0,-1,0.0,0.0,0,0.0,0.084
5063,0,3,2.21,2.02,2.89,1.89,3.25,0.77,0.02,0.61,0,-1,-0,0.77,0,0,100,40,98,507,0.0,122,321,60,123.0,0,1,0,0,0,0,0,0,250,250,0,181.28,,,,,,,,,,,,
5083,0,1,2.21,2.01,2.88,1.88,3.23,0.77,0.02,0.61,0,-1,-0,0.77,0,0,100,40,98,507,0.0,122,319,60,123.0,0,1,0,0,0,0,0,0,250,250,0,181.28,,,,,,,,,,,,
5103,0,1,2.22,2.02,2.89,1.89,3.25,0.77,0.02,0.61,0,-1,-0,0.77,0,0,100,40,98,507,0.0,122,319,60,123.0,0,1,0,0,0,0,0,0,250,250,0,181.28,,,,,,,,,,,,
5123,0,2,2.21,2.02,2.88,1.9,3.24,0.77,0.02,0.61,0,-1,-0,0.77,0,0,100,40,98,507,0.0,123,319,60,123.0,0,1,0,0,0,0,0,0,250,250,0,181.28,,,,,,,,,,,,
5143,0,2,2.21,2.02,2.89,1.88,3.25,0.77,0.02,0.61,0,-1,-0,0.77,0,0,100,40,98,507,0.0,123,319,60,123.0,0,1,0,0,0,0,0,0,250,250,0,181.28,0.0,0.0,0.0,0.0,0,0.0,-1,0.0,0.0,0,0.0,0.0857
5163,0,1,2.21,2.02,2.88,1.89,3.25,0.77,0.02,0.61,0,-1,-0,0.77,0,0,100,40,98,507,0.0,123,318,60,123.0,0,1,0,0,0,0,0,0,250,250,0,181.28,,,,,,,,,,,,
5183,0,3,2.2,2.02,2.88,1.89,3.25,0.77,0.02,0.61,0,-1,-0,0.77,0,0,100,40,98,507,0.0,123,317,60,123.0,0,1,0,0,0,0,0,0,250,250,0,181.28,,,,,,,,,,,,
5203,0,2,2.21,2.02,2.89,1.88,3.24,0.77,0.02,0.61,0,-1,-0,0.77,0,0,100,40,98,507,0.0,123,317,60,123.0,0,1,0,0,0,0,0,0,250,250,0,181.28,,,,,,,,,,,,
5223,0,2,2.2,2.02,2.88,1.89,3.24,0.77,0.02,0.61,0,-1,-0,0.77,0,0,100,40,98,507,0.0,123,317,60,123.0,0,1,0,0,0,0,0,0,250,250,0,181.28,,,,,,,,,,,,
5243,0,0,2.21,2.02,2.89,1.88,3.25,0.77,0.02,0.61,0,-1,-0,0.77,0,0,100,40,98,507,0.0,123,316,60,123.0,0,1,0,0,0,0,0,0,250,250,0,181.28,0.0,0.0,0.0,0.0,0,0.0,-1,0.0,0.0,0,0.0,0.0874
5263,0,2,2.21,2.02,2.88,1.89,3.25,0.77,0.02,0.61,0,-1,-0,0.77,0,0,100,40,98,507,0.0,123,316,60,123.0,0,1,0,0,0,0,0,0,250,250,0,181.28,,,,,,,,,,,,
5283,0,2,2.21,2.03,2.89,1.89,3.24,0.77,0.02,0.61,0,-1,-0,0.77,0,0,100,40,98,507,0.0,123,316,60,123.0,0,1,0,0,0,0,0,0,250,250,0,181.28,,,,,,,,,,,,
5303,0,1,2.21,2.03,2.89,1.89,3.25,0.77,0.02,0.61,0,-1,-0,0.77,0,0,100,40,98,507,0.0,123,316,60,123.0,0,1,0,0,0,0,0,0,250,250,0,181.28,,,,,,,,,,,,
5323,0,0,2.22,2.02,2.88,1.89,3.24,0.77,0.02,0.61,0,-1,-0,0.77,0,0,100,40,98,507,0.0,123,316,60,123.0,0,1,0,0,0,0,0,0,250,250,0,181.28,,,,,,,,,,,,
5343,0,1,2.2,2.02,2.89,1.89,3.24,0.77,0.02,0.61,0,-1,-0,0.77,0,0,100,40,98,507,0.0,123,315,60,123.0,0,1,0,0,0,0,0,0,250,250,0,181.28,0.0,0.0,0.0,0.0,0,0.0,-1,0.0,0.0,0,0.0,0.089
5363,0,3,2.21,2.02,2.88,1.89,3.24,0.77,0.02,0.61,0,-1,-0,0.77,0,0,100,40,98,507,0.0,123,314,60,123.0,0,1,0,0,0,0,0,0,250,250,0,181.28,,,,,,,,,,,,
5383,0,0,2.22,2.02,2.88,1.88,3.24,0.77,0.02,0.61,0,-1,-0,0.77,0,0,100,40,98,507,0.0,123,313,60,123.0,0,1,0,0,0,0,0,0,250,250,0,181.28,,,,,,,,,,,,
5403,0,1,2.22,2.02,2.88,1.89,3.24,0.77,0.02,0.61,0,-1,-0,0.77,0,0,100,40,98,507,0.0,123,313,60,123.0,0,1,0,0,0,0,0,0,250,250,0,181.28,,,,,,,,,,,,
5423,0,1,2.21,2.02,2.88,1.88,3.25,0.77,0.02,0.61,0,-1,-0,0.77,0,0,100,40,98,507,0.0,123,313,60,123.0,0,1,0,0,0,0,0,0,250,250,0,414.87,,,,,,,,,,,,
5443,0,2,2.21,2.02,2.89,1.89,3.24,0.77,0.02,0.61,0,-1,-0,0.77,0,0,100,40,98,507,0.0,123,313,60,123.0,0,1,0,0,0,0,0,0,250,250,0,181.28,0.0,0.0,0.0,0.0,0,0.0,-1,0.0,0.0,0,0.0,0.0907
5463,0,2,2.21,2.02,2.89,1.89,3.25,0.77,0.02,0.61,0,-1,-0,0.77,0,0,100,40,98,507,0.0,123,312,60,123.0,0,1,0,0,0,0,0,0,250,250,0,181.28,,,,,,,,,,,,
5483,0,2,2.21,2.02,2.89,1.89,3.24,0.77,0.02,0.61,0,-1,-0,0.77,0,0,100,40,98,507,0.0,123,312,60,123.0,0,1,0,0,0,0,0,0,250,250,0,181.28,,,,,,,,,,,,
5503,0,2,2.21,2.02,2.89,1.9,3.24,0.77,0.02,0.61,0,-1,-0,0.77,0,0,100,40,98,507,0.0,123,312,60,123.0,0,1,0,0,0,0,0,0,250,250,0,181.28,,,,,,,,,,,,
5523,0,2,2.21,2.02,2.88,1.89,3.25,0.77,0.02,0.61,0,-1,-0,0.77,0,0,100,40,98,507,0.0,123,311,60,123.0,0,1,0,0,0,0,0,0,250,250,0,181.28,,,,,,,,,,,,
5543,0,2,2.21,2.02,2.88,1.9,3.24,0.77,0.02,0.61,0,-1,-0,0.77,0,0,100,40,98,507,0.0,123,311,60,123.0,0,1,0,0,0,0,0,0,250,250,0,181.28,0.0,0.0,0.0,0.0,0,0.0,-1,0.0,0.0,0,0.0,0.0924
5563,0,2,2.21,2.03,2.89,1.89,3.24,0.77,0.02,0.61,0,-1,-0,0.77,0,0,100,40,98,507,0.0,123,311,60,123.0,0,1,0,0,0,0,0,0,250,250,0,181.28,,,,,,,,,,,,
5583,0,3,2.21,2.02,2.88,1.9,3.25,0.77,0.02,0.61,0,-1,-0,0.77,0,0,100,40,98,507,0.0,123,311,60,123.0,0,1,0,0,0,0,0,0,250,250,0,181.28,,,,,,,,,,,,
5603,0,2,2.22,2.02,2.89,1.89,3.25,0.77,0.02,0.61,0,-1,-0,0.77,0,0,100,40,98,507,0.0,123,311,60,123.0,0,1,0,0,0,0,0,0,250,250,0,181.28,,,,,,,,,,,,
5623,0,3,2.22,2.02,2.89,1.89,3.25,0.77,0.02,0.61,0,-1,-0,0.77,0,0,100,40,98,507,0.0,123,311,60,123.0,0,1,0,0,0,0,0,0,250,250,0,414.87,,,,,,,,,,,,
5643,0,2,2.21,2.02,2.89,1.89,3.24,0.77,0.02,0.61,0,-1,-0,0.77,0,0,100,40,98,507,0.0,123,311,60,123.0,0,1,0,0,0,0,0,0,250,250,0,181.28,0.0,0.0,0.0,0.0,0,0.0,-1,0.0,0.0,0,0.0,0.094
5663,0,2,2.21,2.02,2.89,1.9,3.25,0.77,0.02,0.61,0,-1,-0,0.77,0,0,100,40,98,507,0.0,123,310,60,123.0,0,1,0,0,0,0,0,0,250,250,0,181.28,,,,,,,,,,,,
5683,0,2,2.21,2.02,2.89,1.88,3.25,0.77,0.02,0.61,0,-1,-0,0.77,0,0,100,40,98,507,0.0,123,308,60,123.0,0,1,0,0,0,0,0,0,250,250,0,181.28,,,,,,,,,,,,
5703,0,2,2.21,2.02,2.88,1.89,3.24,0.77,0.02,0.61,0,-1,-0,0.77,0,0,100,40,98,507,0.0,123,308,60,123.0,0,1,0,0,0,0,0,0,250,250,0,181.28,,,,,,,,,,,,
5723,0,3,2.2,2.02,2.88,1.89,3.25,0.77,0.02,0.61,0,-1,-0,0.77,0,0,100,40,98,507,0.0,123,308,60,123.0,0,1,0,0,0,0,0,0,250,250,0,181.28,,,,,,,,,,,,
5743,0,2,2.21,2.02,2.89,1.88,3.25,0.77,0.02,0.61,0,-1,-0,0.77,0,0,100,40,98,507,0.0,122,308,60,123.0,0,1,0,0,0,0,0,0,250,250,0,181.28,0.0,0.0,0.0,0.0,0,0.0,-1,0.0,0.0,0,0.0,0.0957
5763,0,2,2.21,2.02,2.89,1.89,3.24,0.77,0.02,0.61,0,-1,-0,0.77,0,0,100,40,98,507,0.0,122,308,60,123.0,0,1,0,0,0,0,0,0,250,250,0,181.28,,,,,,,,,,,,
5783,0,3,2.22,2.02,2.89,1.89,3.25,0.77,0.02,0.61,0,-1,-0,0.77,0,0,100,40,98,507,0.0,122,308,60,123.0,0,1,0,0,0,0,0,0,250,250,0,181.28,,,,,,,,,,,,
5803,0,2,2.21,2.02,2.89,1.88,3.25,0.77,0.02,0.61,0,-1,-0,0.77,0,0,100,40,98,507,0.0,122,308,60,123.0,0,1,0,0,0,0,0,0,250,250,0,181.28,,,,,,,,,,,,
5823,0,0,2.22,2.02,2.88,1.88,3.25,0.77,0.02,0.61,0,-1,-0,0.77,0,0,100,40,98,507,0.0,122,308,60,123.0,0,1,0,0,0,0,0,0,250,250,0,181.28,,,,,,,,,,,,
5843,0,3,2.21,2.02,2.89,1.9,3.24,0.77,0.02,0.61,0,-1,-0,0.77,0,0,100,40,98,507,0.0,122,306,60,123.0,0,1,0,0,0,0,0,0,250,250,0,181.28,0.0,0.0,0.0,0.0,0,0.0,-1,0.0,0.0,0,0.0,0.0974
5863,0,1,2.21,2.02,2.88,1.89,3.24,0.77,0.02,0.61,0,-1,-0,0.77,0,0,100,40,98,507,0.0,122,306,60,123.0,0,1,0,0,0,0,0,0,250,250,0,181.28,,,,,,,,,,,,
5883,0,0,2.22,2.02,2.88,1.89,3.25,0.77,0.02,0.61,0,-1,-0,0.77,0,0,100,40,98,507,0.0,122,306,60,123.0,0,1,0,0,0,0,0,0,250,250,0,181.28,,,,,,,,,,,,
5903,0,2,2.2,2.01,2.88,1.88,3.23,0.77,0.02,0.61,0,-1,-0,0.77,0,0,100,40,98,507,0.0,122,306,60,123.0,0,1,0,0,0,0,0,0,250,250,0,181.28,,,,,,,,,,,,
5923,0,0,2.22,2.02,2.88,1.89,3.24,0.77,0.02,0.61,0,-1,-0,0.77,0,0,100,40,98,507,0.0,122,306,60,123.0,0,1,0,0,0,0,0,0,250,250,0,181.28,,,,,,,,,,,,
5943,0,2,2.2,2.02,2.89,1.89,3.25,0.77,0.02,0.61,0,-1,-0,0.77,0,0,100,40,98,507,0.0,122,306,60,123.0,0,1,0,0,0,0,0,0,250,250,0,181.28,0.0,0.0,0.0,0.0,0,0.0,-1,0.0,0.0,0,0.0,0.099
5963,0,2,2.21,2.02,2.9,1.9,3.24,0.77,0.02,0.61,0,-1,-0,0.77,0,0,100,40,98,507,0.0,122,306,60,123.0,0,1,0,0,0,0,0,0,250,250,0,181.28,,,,,,,,,,,,
5983,0,2,2.22,2.02,2.89,1.89,3.25,0.77,0.02,0.61,0,-1,-0,0.77,0,0,100,40,98,507,0.0,122,305,60,123.0,0,1,0,0,0,0,0,0,250,250,0,181.28,,,,,,,,,,,,
6003,0,1,2.22,2.02,2.88,1.89,3.24,0.77,0.02,0.61,0,-1,-0,0.77,0,0,100,40,98,507,0.0,122,303,60,123.0,0,1,0,0,0,0,0,0,250,250,0,181.28,,,,,,,,,,,,
6023,0,-0,2.22,2.02,2.88,1.89,3.25,0.77,0.02,0.62,0,-1,-0,0.77,0,0,100,40,98,507,0.0,122,303,60,123.0,0,1,0,0,0,0,0,0,250,250,0,181.28,,,,,,,,,,,,
6043,0,1,2.21,2.02,2.89,1.89,3.25,0.77,0.02,0.62,0,-1,-0,0.77,0,0,100,40,98,507,0.0,122,303,60,123.0,0,1,0,0,0,0,0,0,250,250,0,181.28,0.0,0.0,0.0,0.0,0,0.0,-1,0.0,0.0,0,0.0,0.1007
6063,0,-1,2.22,2.02,2.88,1.89,3.24,0.77,0.02,0.62,0,-1,-0,0.77,0,0,100,40,98,507,0.0,122,303,60,123.0,0,1,0,0,0,0,0,0,250,250,0,181.28,,,,,,,,,,,,
6083,0,0,2.21,2.02,2.88,1.89,3.24,0.77,0.02,0.62,0,-1,-0,0.77,0,0,100,40,98,507,0.0,122,302,60,123.0,0,1,0,0,0,0,0,0,250,250,0,181.28,,,,,,,,,,,,
6103,0,1,2.21,2.03,2.88,1.89,3.24,0.77,0.02,0.62,0,-1,-0,0.77,0,0,100,40,98,507,0.0,123,302,60,123.0,0,1,0,0,0,0,0,0,250,250,0,181.28,,,,,,,,,,,,
6123,0,1,2.21,2.02,2.89,1.88,3.25,0.77,0.02,0.62,0,-1,-0,0.77,0,0,100,40,98,507,0.0,123,302,60,123.0,0,1,0,0,0,0,0,0,250,250,0,181.28,,,,,,,,,,,,
6143,0,-0,2.21,2.02,2.89,1.9,3.24,0.77,0.02,0.62,0,-1,-0,0.77,0,0,100,40,98,507,0.0,123,302,60,123.0,0,1,0,0,0,0,0,0,250,250,0,-5.59,0.0,0.0,0.0,0.0,0,0.0,-1,0.0,0.0,0,0.0,0.1024
6163,0,-1,2.21,2.02,2.89,1.88,3.25,0.77,0.02,0.62,0,-1,-0,0.77,0,0,100,40,98,507,0.0,123,302,60,123.0,0,1,0,0,0,0,0,0,250,250,0,181.28,,,,,,,,,,,,
6183,0,1,2.21,2.02,2.89,1.89,3.25,0.77,0.02,0.62,0,-1,-0,0.77,0,0,100,40,98,507,0.0,123,300,60,123.0,0,1,0,0,0,0,0,0,250,250,0,-5.59,,,,,,,,,,,,
6203,0,-1,2.22,2.03,2.88,1.89,3.24,0.77,0.02,0.62,0,-1,-0,0.77,0,0,100,40,98,507,0.0,123,300,60,123.0,0,1,0,0,0,0,0,0,250,250,0,181.28,,,,,,,,,,,,
6223,0,-1,2.22,2.02,2.88,1.89,3.25,0.77,0.02,0.62,0,-1,-0,0.77,0,0,100,40,98,507,0.0,123,300,60,123.0,0,1,0,0,0,0,0,0,250,250,0,181.28,,,,,,,,,,,,
6243,0,0,2.21,2.02,2.88,1.89,3.25,0.77,0.02,0.62,0,-1,-0,0.77,0,0,100,40,98,507,0.0,123,300,60,123.0,0,1,0,0,0,0,0,0,250,250,0,181.28,0.0,0.0,0.0,0.0,0,0.0,-1,0.0,0.0,0,0.0,0.104
6263,0,-1,2.21,2.02,2.89,1.89,3.24,0.77,0.02,0.62,0,-1,-0,0.77,0,0,100,40,98,507,0.0,123,300,60,123.0,0,1,0,0,0,0,0,0,250,250,0,-5.59,,,,,,,,,,,,
6283,0,0,2.21,2.02,2.89,1.88,3.24,0.77,0.02,0.62,0,-1,-0,0.77,0,0,100,40,98,507,0.0,123,300,60,123.0,0,1,0,0,0,0,0,0,250,250,0,181.28,,,,,,,,,,,,
6303,0,-1,2.21,2.02,2.89,1.89,3.25,0.77,0.02,0.62,0,-1,-0,0.77,0,0,100,40,98,507,0.0,123,300,60,123.0,0,1,0,0,0,0,0,0,250,250,0,181.28,,,,,,,,,,,,
6323,0,0,2.22,2.02,2.88,1.88,3.25,0.77,0.02,0.62,0,-1,-0,0.77,0,0,100,40,98,507,0.0,123,299,60,123.0,0,1,0,0,0,0,0,0,250,250,0,181.28,,,,,,,,,,,,
6343,0,1,2.21,2.02,2.89,1.89,3.25,0.77,0.02,0.62,0,-1,-0,0.77,0,0,100,40,98,507,0.0,123,298,60,123.0,0,1,0,0,0,0,0,0,250,250,0,181.28,0.0,0.0,0.0,0.0,0,0.0,-1,0.0,0.0,0,0.0,0.1057
6363,0,0,2.21,2.02,2.89,1.89,3.24,0.77,0.02,0.62,0,-1,-0,0.77,0,0,100,40,98,507,0.0,123,297,60,123.0,0,1,0,0,0,0,0,0,250,250,0,181.28,,,,,,,,,,,,
6383,0,0,2.22,2.02,2.89,1.89,3.25,0.77,0.02,0.62,0,-1,-0,0.77,0,0,100,40,98,507,0.0,123,297,60,123.0,0,1,0,0,0,0,0,0,250,250,0,181.28,,,,,,,,,,,,
6403,0,-1,2.22,2.02,2.88,1.89,3.24,0.77,0.02,0.62,0,-1,-0,0.77,0,0,100,40,98,507,0.0,123,297,60,123.0,0,1,0,0,0,0,0,0,250,250,0,181.28,,,,,,,,,,,,
6423,0,-2,2.21,2.02,2.88,1.89,3.25,0.77,0.02,0.62,0,-1,-0,0.77,0,0,100,40,98,507,0.0,123,297,60,123.0,0,1,0,0,0,0,0,0,250,250,0,181.28,,,,,,,,,,,,
6443,0,0,2.21,2.02,2.88,1.89,3.24,0.77,0.02,0.62,0,-0,-0,0.77,0,0,100,40,98,507,0.0,123,297,60,123.0,0,1,0,0,0,0,0,0,250,250,0,181.28,0.0,0.0,0.0,0.0,0,0.0,-1,0.0,0.0,0,0.0,0.1074
6463,0,0,2.2,2.02,2.88,1.89,3.24,0.77,0.02,0.62,0,-0,-0,0.77,0,0,100,40,98,507,0.0,123,297,60,123.0,0,1,0,0,0,0,0,0,250,250,0,181.28,,,,,,,,,,,,
6483,0,1,2.21,2.02,2.89,1.89,3.25,0.77,0.02,0.62,0,-0,-0,0.77,0,0,100,40,98,507,0.0,123,297,60,123.0,0,1,0,0,0,0,0,0,250,250,0,181.28,,,,,,,,,,,,
6503,0,1,2.21,2.01,2.88,1.89,3.24,0.78,0.02,0.62,0,-0,-0,0.78,0,0,100,40,98,507,0.0,123,297,60,123.0,0,1,0,0,0,0,0,0,250,250,0,181.28,,,,,,,,,,,,
6523,0,-0,2.21,2.02,2.89,1.89,3.24,0.77,0.02,0.62,0,-0,-0,0.78,0,0,100,40,98,507,0.0,123,297,60,123.0,0,1,0,0,0,0,0,0,250,250,0,181.28,,,,,,,,,,,,
6543,0,-1,2.22,2.02,2.88,1.89,3.24,0.78,0.02,0.62,0,-0,-0,0.78,0,0,100,40,98,507,0.0,123,295,60,123.0,0,1,0,0,0,0,0,0,250,250,0,181.28,0.0,0.0,0.0,0.0,0,0.0,-1,0.0,0.0,0,0.0,0.109
6563,0,-0,2.21,2.02,2.89,1.89,3.24,0.78,0.02,0.62,0,-0,-0,0.78,0,0,100,40,98,507,0.0,123,295,60,123.0,0,1,0,0,0,0,0,0,250,250,0,181.28,,,,,,,,,,,,
6583,0,1,2.22,2.02,2.88,1.89,3.24,0.78,0.02,0.62,0,-0,-0,0.78,0,0,100,40,98,507,0.0,123,295,60,123.0,0,1,0,0,0,0,0,0,250,250,0,181.28,,,,,,,,,,,,
6603,0,-1,2.21,2.02,2.89,1.89,3.24,0.78,0.02,0.62,0,-1,-0,0.78,0,0,100,40,98,507,0.0,123,295,60,123.0,0,1,0,0,0,0,0,0,250,250,0,181.28,,,,,,,,,,,,
6623,0,1,2.2,2.02,2.88,1.89,3.24,0.78,0.02,0.62,0,-1,-0,0.78,0,0,100,40,98,507,0.0,123,295,60,123.0,0,1,0,0,0,0,0,0,250,250,0,181.28,,,,,,,,,,,,
6643,0,1,2.21,2.02,2.88,1.9,3.24,0.78,0.02,0.62,0,-1,-0,0.78,0,0,100,40,98,507,0.0,122,295,60,123.0,0,1,0,0,0,0,0,0,250,250,0,181.28,0.0,0.0,0.0,0.0,0,0.0,-1,0.0,0.0,0,0.0,0.1107
6663,0,1,2.2,2.02,2.88,1.89,3.25,0.77,0.02,0.62,0,-1,-0,0.78,0,0,100,40,98,507,0.0,122,295,60,123.0,0,1,0,0,0,0,0,0,250,250,0,181.28,,,,,,,,,,,,
6683,0,-1,2.21,2.02,2.89,1.89,3.24,0.77,0.02,0.62,0,-1,-0,0.77,0,0,100,40,98,507,0.0,122,295,60,123.0,0,1,0,0,0,0,0,0,250,250,0,181.28,,,,,,,,,,,,
6703,0,0,2.21,2.03,2.88,1.89,3.24,0.77,0.02,0.62,0,-1,-0,0.77,0,0,100,40,98,507,0.0,122,292,60,123.0,0,1,0,0,0,0,0,0,250,250,0,181.28,,,,,,,,,,,,
6723,0,1,2.22,2.02,2.88,1.89,3.24,0.77,0.02,0.62,0,-1,-0,0.77,0,0,100,40,98,507,0.0,122,292,60,123.0,0,1,0,0,0,0,0,0,250,250,0,181.28,,,,,,,,,,,,
6743,0,1,2.21,2.02,2.89,1.88,3.25,0.77,0.02,0.62,0,-1,-0,0.77,0,0,100,40,98,507,0.0,122,292,60,123.0,0,1,0,0,0,0,0,0,250,250,0,181.28,0.0,0.0,0.0,0.0,0,0.0,-1,0.0,0.0,0,0.0,0.1124
6763,0,-1,2.22,2.02,2.89,1.88,3.25,0.77,0.02,0.62,0,-1,-0,0.77,0,0,100,40,98,507,0.0,122,292,60,123.0,0,1,0,0,0,0,0,0,250,250,0,181.28,,,,,,,,,,,,
6783,0,1,2.21,2.02,2.89,1.89,3.25,0.77,0.02,0.61,0,-1,-0,0.77,0,0,100,40,98,507,0.0,122,292,60,123.0,0,1,0,0,0,0,0,0,250,250,0,181.28,,,,,,,,,,,,
6803,0,-1,2.22,2.02,2.89,1.89,3.24,0.77,0.02,0.61,0,-1,-0,0.77,0,0,100,40,98,507,0.0,122,292,60,123.0,0,1,0,0,0,0,0,0,250,250,0,181.28,,,,,,,,,,,,
6823,0,1,2.21,2.02,2.89,1.89,3.24,0.77,0.02,0.62,0,-1,-0,0.77,0,0,100,40,98,507,0.0,122,291,60,123.0,0,1,0,0,0,0,0,0,250,250,0,181.28,,,,,,,,,,,,
6843,0,1,2.21,2.03,2.89,1.9,3.24,0.77,0.02,0.61,0,-1,-0,0.77,0,0,100,40,98,507,0.0,122,291,60,123.0,0,1,0,0,0,0,0,0,250,250,0,181.28,0.0,0.0,0.0,0.0,0,0.0,-1,0.0,0.0,0,0.0,0.114
6863,0,1,2.21,2.02,2.88,1.89,3.25,0.77,0.02,0.61,0,-1,-0,0.77,0,0,100,40,98,507,0.0,122,291,60,123.0,0,1,0,0,0,0,0,0,250,250,0,181.28,,,,,,,,,,,,
6883,0,-0,2.21,2.02,2.89,1.89,3.24,0.77,0.02,0.61,0,-1,-0,0.77,0,0,100,40,98,507,0.0,122,291,60,123.0,0,1,0,0,0,0,0,0,250,250,0,181.28,,,,,,,,,,,,
6903,0,0,2.22,2.03,2.88,1.89,3.25,0.77,0.02,0.61,0,-1,-0,0.77,0,0,100,40,98,507,0.0,122,291,60,123.0,0,1,0,0,0,0,0,0,250,250,0,181.28,,,,,,,,,,,,
6923,0,1,2.21,2.02,2.88,1.89,3.25,0.77,0.02,0.61,0,-1,-0,0.77,0,0,100,40,98,507,0.0,122,290,60,123.0,0,1,0,0,0,0,0,0,250,250,0,181.28,,,,,,,,,,,,
6943,0,-0,2.22,2.02,2.88,1.89,3.24,0.77,0.02,0.61,0,-1,-0,0.77,0,0,100,40,98,507,0.0,122,290,60,123.0,0,1,0,0,0,0,0,0,250,250,0,181.28,0.0,0.0,0.0,0.0,0,0.0,-1,0.0,0.0,0,0.0,0.1157
6963,0,1,2.21,2.02,2.88,1.89,3.25,0.77,0.02,0.61,0,-1,-0,0.77,0,0,100,40,98,507,0.0,122,290,60,123.0,0,1,0,0,0,0,0,0,250,250,0,181.28,,,,,,,,,,,,
6983,0,1,2.21,2.02,2.88,1.89,3.24,0.77,0.02,0.61,0,-1,-0,0.77,0,0,100,40,98,507,0.0,122,290,60,123.0,0,1,0,0,0,0,0,0,250,250,0,181.28,,,,,,,,,,,,
7003,0,1,2.21,2.03,2.89,1.89,3.25,0.77,0.02,0.61,0,-1,-0,0.77,0,0,100,40,98,507,0.0,122,290,60,123.0,0,1,0,0,0,0,0,0,250,250,0,181.28,,,,,,,,,,,,
7023,0,-1,2.22,2.02,2.89,1.89,3.24,0.77,0.02,0.61,0,-1,-0,0.77,0,0,100,40,98,507,0.0,122,290,60,123.0,0,1,0,0,0,0,0,0,250,250,0,181.28,,,,,,,,,,,,
7043,0,1,2.21,2.02,2.88,1.89,3.25,0.77,0.02,0.61,0,-1,-0,0.77,0,0,100,40,98,507,0.0,122,290,60,123.0,0,1,0,0,0,0,0,0,250,250,0,181.28,0.0,0.0,0.0,0.0,0,0.0,-1,0.0,0.0,0,0.0,0.1174
7063,0,1,2.22,2.02,2.89,1.89,3.25,0.77,0.02,0.61,0,-1,-0,0.77,0,0,100,40,98,507,0.0,122,290,60,123.0,0,1,0,0,0,0,0,0,250,250,0,181.28,,,,,,,,,,,,
7083,0,-1,2.22,2.02,2.89,1.89,3.24,0.77,0.02,0.61,0,-1,-0,0.77,0,0,100,40,98,507,0.0,122,289,60,123.0,0,1,0,0,0,0,0,0,250,250,0,-5.59,,,,,,,,,,,,
7103,0,-1,2.21,2.02,2.88,1.88,3.24,0.77,0.02,0.61,0,-1,-0,0.77,0,0,100,40,98,507,0.0,122,288,60,123.0,0,1,0,0,0,0,0,0,250,250,0,181.28,,,,,,,,,,,,
7123,0,1,2.22,2.02,2.89,1.89,3.25,0.77,0.02,0.61,0,-1,-0,0.77,0,0,100,40,98,507,0.0,121,287,60,123.0,0,1,0,0,0,0,0,0,250,250,0,181.28,,,,,,,,,,,,
7143,0,1,2.2,2.02,2.89,1.89,3.25,0.77,0.02,0.61,0,-1,-0,0.77,0,0,100,40,98,507,0.0,121,287,60,123.0,0,1,0,0,0,0,0,0,250,250,0,181.28,0.0,0.0,0.0,0.0,0,0.0,-1,0.0,0.0,0,0.0,0.119
7163,0,-1,2.22,2.02,2.89,1.89,3.25,0.77,0.02,0.61,0,-1,-0,0.77,0,0,100,40,98,507,0.0,121,287,60,123.0,0,1,0,0,0,0,0,0,250,250,0,181.28,,,,,,,,,,,,
7183,0,1,2.21,2.02,2.88,1.89,3.24,0.77,0.02,0.61,0,-1,-0,0.77,0,0,100,40,98,507,0.0,121,287,60,123.0,0,1,0,0,0,0,0,0,250,250,0,181.28,,,,,,,,,,,,
7203,0,1,2.21,2.02,2.89,1.88,3.25,0.77,0.02,0.61,0,-1,-0,0.77,0,0,100,40,98,507,0.0,121,287,60,123.0,0,1,0,0,0,0,0,0,250,250,0,181.28,,,,,,,,,,,,
7223,0,1,2.21,2.02,2.88,1.9,3.24,0.77,0.02,0.61,0,-1,-0,0.77,0,0,100,40,98,507,0.0,122,287,60,123.0,0,1,0,0,0,0,0,0,250,250,0,181.28,,,,,,,,,,,,
7243,0,-1,2.22,2.02,2.89,1.88,3.25,0.77,0.02,0.61,0,-1,-0,0.77,0,0,100,40,98,507,0.0,122,287,60,123.0,0,1,0,0,0,0,0,0,250,250,0,181.28,0.0,0.0,0.0,0.0,0,0.0,-1,0.0,0.0,0,0.0,0.1207
7263,0,1,2.21,2.02,2.89,1.88,3.25,0.77,0.02,0.61,0,-1,-0,0.77,0,0,100,40,98,507,0.0,122,287,60,123.0,0,1,0,0,0,0,0,0,250,250,0,181.28,,,,,,,,,,,,
7283,0,1,2.21,2.02,2.88,1.89,3.25,0.77,0.02,0.61,0,-1,-0,0.77,0,0,100,40,98,507,0.0,122,286,60,123.0,0,1,0,0,0,0,0,0,250,250,0,181.28,,,,,,,,,,,,
7303,0,-1,2.22,2.02,2.89,1.88,3.25,0.77,0.02,0.61,0,-1,-0,0.77,0,0,100,40,98,507,0.0,122,286,60,123.0,0,1,0,0,0,0,0,0,250,250,0,181.28,,,,,,,,,,,,
7323,0,1,2.21,2.02,2.89,1.89,3.24,0.77,0.02,0.61,0,-1,-0,0.77,0,0,100,40,98,507,0.0,122,285,60,123.0,0,1,0,0,0,0,0,0,250,250,0,181.28,,,,,,,,,,,,
7343,0,-0,2.21,2.02,2.88,1.89,3.24,0.77,0.02,0.61,0,-1,-0,0.77,0,0,100,40,98,507,0.0,122,285,60,123.0,0,1,0,0,0,0,0,0,250,250,0,181.28,0.0,0.0,0.0,0.0,0,0.0,-1,0.0,0.0,0,0.0,0.1224
7363,0,1,2.21,2.02,2.89,1.88,3.25,0.77,0.02,0.61,0,-1,-0,0.77,0,0,100,40,98,507,0.0,122,284,60,123.0,0,1,0,0,0,0,0,0,250,250,0,181.28,,,,,,,,,,,,
7383,0,-1,2.22,2.02,2.89,1.88,3.25,0.77,0.02,0.61,0,-1,-0,0.77,0,0,100,40,98,507,0.0,122,284,60,123.0,0,1,0,0,0,0,0,0,250,250,0,181.28,,,,,,,,,,,,
7403,0,1,2.22,2.01,2.89,1.89,3.25,0.77,0.02,0.61,0,-1,-0,0.77,0,0,100,40,98,507,0.0,122,284,60,123.0,0,1,0,0,0,0,0,0,250,250,0,181.28,,,,,,,,,,,,
7423,0,1,2.21,2.02,2.89,1.89,3.25,0.77,0.02,0.61,0,-1,-0,0.77,0,0,100,40,98,507,0.0,122,284,60,123.0,0,1,0,0,0,0,0,0,250,250,0,181.28,,,,,,,,,,,,
7443,0,1,2.22,2.02,2.88,1.89,3.25,0.77,0.02,0.61,0,-1,-0,0.77,0,0,100,40,98,507,0.0,122,284,60,123.0,0,1,0,0,0,0,0,0,250,250,0,181.28,0.0,0.0,0.0,0.0,0,0.0,-1,0.0,0.0,0,0.0,0.124
7463,0,-0,2.22,2.02,2.89,1.89,3.25,0.77,0.02,0.61,0,-1,-0,0.77,0,0,100,40,98,507,0.0,122,284,60,123.0,0,1,0,0,0,0,0,0,250,250,0,181.28,,,,,,,,,,,,
7483,0,1,2.21,2.02,2.89,1.88,3.25,0.77,0.02,0.61,0,-1,-0,0.77,0,0,100,40,98,507,0.0,122,284,60,123.0,0,1,0,0,0,0,0,0,250,250,0,181.28,,,,,,,,,,,,
7503,0,1,2.21,2.03,2.89,1.9,3.24,0.77,0.02,0.61,0,-1,-0,0.77,0,0,100,40,98,507,0.0,122,283,60,123.0,0,1,0,0,0,0,0,0,250,250,0,181.28,,,,,,,,,,,,
7523,0,-0,2.21,2.02,2.89,1.88,3.25,0.77,0.02,0.61,0,-1,-0,0.77,0,0,100,40,98,507,0.0,122,283,60,123.0,0,1,0,0,0,0,0,0,250,250,0,181.28,,,,,,,,,,,,
7543,0,1,2.21,2.02,2.89,1.89,3.25,0.77,0.02,0.61,0,-1,-0,0.77,0,0,100,40,98,507,0.0,122,282,60,123.0,0,1,0,0,0,0,0,0,250,250,0,181.28,0.0,0.0,0.0,0.0,0,0.0,-1,0.0,0.0,0,0.0,0.1257
7563,0,1,2.21,2.02,2.89,1.88,3.25,0.77,0.02,0.61,0,-1,-0,0.77,0,0,100,40,98,507,0.0,122,281,60,123.0,0,1,0,0,0,0,0,0,250,250,0,181.28,,,,,,,,,,,,
7583,0,1,2.2,2.02,2.89,1.89,3.24,0.77,0.02,0.61,0,-1,-0,0.77,0,0,100,40,98,507,0.0,122,281,60,123.0,0,1,0,0,0,0,0,0,250,250,0,181.28,,,,,,,,,,,,
7603,0,1,2.21,2.02,2.89,1.89,3.25,0.77,0.02,0.61,0,-1,-0,0.77,0,0,100,40,98,507,0.0,122,281,60,123.0,0,1,0,0,0,0,0,0,250,250,0,181.28,,,,,,,,,,,,
7623,0,1,2.21,2.02,2.89,1.88,3.25,0.77,0.02,0.61,0,-1,-0,0.77,0,0,100,40,98,507,0.0,122,281,60,123.0,0,1,0,0,0,0,0,0,250,250,0,181.28,,,,,,,,,,,,
7643,0,1,2.22,2.02,2.89,1.89,3.25,0.77,0.02,0.61,0,-1,-0,0.77,0,0,100,40,98,507,0.0,122,281,60,123.0,0,1,0,0,0,0,0,0,250,250,0,181.28,0.0,0.0,0.0,0.0,0,0.0,-1,0.0,0.0,0,0.0,0.1274
7663,0,0,2.22,2.02,2.89,1.89,3.25,0.77,0.02,0.61,0,-1,-0,0.77,0,0,100,40,98,507,0.0,122,281,60,123.0,0,1,0,0,0,0,0,0,250,250,0,181.28,,,,,,,,,,,,
7683,0,0,2.21,2.03,2.88,1.9,3.24,0.77,0.02,0.61,0,-1,-0,0.77,0,0,100,40,98,507,0.0,122,281,60,123.0,0,1,0,0,0,0,0,0,250,250,0,181.28,,,,,,,,,,,,
7703,0,-1,2.22,2.02,2.88,1.89,3.25,0.77,0.02,0.61,0,-1,-0,0.77,0,0,100,40,98,507,0.0,122,281,60,123.0,0,1,0,0,0,0,0,0,250,250,0,181.28,,,,,,,,,,,,
7723,0,1,2.21,2.02,2.88,1.89,3.24,0.77,0.02,0.61,0,-1,-0,0.77,0,0,100,40,98,507,0.0,122,281,60,123.0,0,1,0,0,0,0,0,0,250,250,0,181.28,,,,,,,,,,,,
7743,0,-0,2.21,2.03,2.88,1.9,3.24,0.77,0.02,0.61,0,-1,-0,0.77,0,0,100,40,98,507,0.0,122,281,60,123.0,0,1,0,0,0,0,0,0,250,250,0,181.28,0.0,0.0,0.0,0.0,0,0.0,-1,0.0,0.0,0,0.0,0.129
7763,0,-0,2.21,2.02,2.89,1.89,3.24,0.77,0.02,0.61,0,-1,-0,0.77,0,0,100,40,98,507,0.0,122,281,60,123.0,0,1,0,0,0,0,0,0,250,250,0,181.28,,,,,,,,,,,,
7783,0,-1,2.22,2.02,2.89,1.88,3.25,0.77,0.02,0.61,0,-1,-0,0.77,0,0,100,40,98,507,0.0,121,281,60,123.0,0,1,0,0,0,0,0,0,250,250,0,181.28,,,,,,,,,,,,
7803,0,1,2.2,2.02,2.89,1.89,3.25,0.77,0.02,0.61,0,-1,-0,0.77,0,0,100,40,98,507,0.0,121,278,60,123.0,0,1,0,0,0,0,0,0,250,250,0,181.28,,,,,,,,,,,,
7823,0,1,2.21,2.02,2.89,1.88,3.25,0.77,0.02,0.61,0,-1,-0,0.77,0,0,100,40,98,507,0.0,121,278,60,123.0,0,1,0,0,0,0,0,0,250,250,0,181.28,,,,,,,,,,,,
7843,0,0,2.22,2.02,2.89,1.89,3.25,0.77,0.02,0.61,0,-1,-0,0.77,0,0,100,40,98,507,0.0,121,278,60,123.0,0,1,0,0,0,0,0,0,250,250,0,181.28,0.0,0.0,0.0,0.0,0,0.0,-1,0.0,0.0,0,0.0,0.1307
7863,0,-0,2.21,2.01,2.88,1.89,3.25,0.77,0.02,0.61,0,-1,-0,0.77,0,0,100,40,98,507,0.0,121,278,60,123.0,0,1,0,0,0,0,0,0,250,250,0,181.28,,,,,,,,,,,,
7883,0,1,2.21,2.02,2.89,1.89,3.24,0.77,0.02,0.61,0,-1,-0,0.77,0,0,100,40,98,507,0.0,121,278,60,123.0,0,1,0,0,0,0,0,0,250,250,0,181.28,,,,,,,,,,,,
7903,0,0,2.21,2.02,2.88,1.89,3.25,0.77,0.02,0.61,0,-1,-0,0.77,0,0,100,40,98,507,0.0,121,278,60,123.0,0,1,0,0,0,0,0,0,250,250,0,181.28,,,,,,,,,,,,
7923,0,1,2.22,2.02,2.88,1.89,3.25,0.77,0.02,0.61,0,-1,-0,0.77,0,0,100,40,98,507,0.0,121,278,60,123.0,0,1,0,0,0,0,0,0,250,250,0,181.28,,,,,,,,,,,,
7943,0,-0,2.21,2.02,2.88,1.9,3.24,0.77,0.02,0.61,0,-1,-0,0.77,0,0,100,40,98,507,0.0,121,278,60,123.0,0,1,0,0,0,0,0,0,250,250,0,181.28,0.0,0.0,0.0,0.0,0,0.0,-1,0.0,0.0,0,0.0,0.1324
7963,0,1,2.21,2.02,2.89,1.88,3.24,0.77,0.02,0.61,0,-1,-0,0.77,0,0,100,40,98,507,0.0,121,278,60,123.0,0,1,0,0,0,0,0,0,250,250,0,181.28,,,,,,,,,,,,
7983,0,1,2.21,2.02,2.88,1.88,3.24,0.77,0.02,0.61,0,-1,-0,0.77,0,0,100,40,98,507,0.0,121,278,60,123.0,0,1,0,0,0,0,0,0,250,250,0,181.28,,,,,,,,,,,,
8003,0,1,2.21,2.02,2.89,1.89,3.25,0.77,0.02,0.61,0,-1,-0,0.77,0,0,100,40,98,507,0.0,121,276,60,123.0,0,1,0,0,0,0,0,0,250,250,0,181.28,,,,,,,,,,,,
8023,0,1,2.22,2.01,2.89,1.89,3.25,0.77,0.02,0.61,0,-1,-0,0.77,0,0,100,40,98,507,0.0,121,276,60,123.0,0,1,0,0,0,0,0,0,250,250,0,181.28,,,,,,,,,,,,
8043,0,-0,2.22,2.02,2.89,1.88,3.25,0.77,0.02,0.61,0,-1,-0,0.77,0,0,100,40,98,508,0.0,121,276,60,123.0,0,1,0,0,0,0,0,0,250,250,0,181.28,0.0,0.0,0.0,0.0,0,0.0,-1,0.0,0.0,0,0.0,0.134
8063,0,1,2.22,2.03,2.88,1.9,3.24,0.77,0.02,0.61,0,-1,-0,0.77,0,0,100,40,98,508,0.0,121,276,60,123.0,0,1,0,0,0,0,0,0,250,250,0,181.28,,,,,,,,,,,,
8083,0,1,2.21,2.02,2.89,1.89,3.25,0.77,0.02,0.61,0,-1,-0,0.77,0,0,100,40,98,507,0.0,121,276,60,123.0,0,1,0,0,0,0,0,0,250,250,0,181.28,,,,,,,,,,,,
8103,0,1,2.21,2.03,2.89,1.89,3.24,0.77,0.02,0.61,0,-1,-0,0.77,0,0,100,40,98,507,0.0,121,276,60,123.0,0,1,0,0,0,0,0,0,250,250,0,-5.59,,,,,,,,,,,,
8123,0,1,2.21,2.02,2.88,1.89,3.24,0.77,0.02,0.61,0,-1,-0,0.77,0,0,100,40,98,507,0.0,121,275,60,123.0,0,1,0,0,0,0,0,0,250,250,0,181.28,,,,,,,,,,,,
8143,0,-0,2.22,2.02,2.88,1.89,3.24,0.77,0.02,0.61,0,-1,-0,0.77,0,0,100,40,98,507,0.0,122,275,60,123.0,0,1,0,0,0,0,0,0,250,250,0,181.28,0.0,0.0,0.0,0.0,0,0.0,-1,0.0,0.0,0,0.0,0.1357
8163,0,1,2.21,2.02,2.89,1.89,3.25,0.77,0.02,0.61,0,-1,-0,0.77,0,0,100,40,98,507,0.0,122,275,60,123.0,0,1,0,0,0,0,0,0,250,250,0,181.28,,,,,,,,,,,,
8183,0,2,2.21,2.02,2.88,1.89,3.24,0.77,0.02,0.61,0,-1,-0,0.77,0,0,100,40,98,507,0.0,122,275,60,123.0,0,1,0,0,0,0,0,0,250,250,0,181.28,,,,,,,,,,,,
8203,0,1,2.22,2.02,2.89,1.89,3.24,0.77,0.02,0.61,0,-1,-0,0.77,0,0,100,40,98,507,0.0,122,275,60,123.0,0,1,0,0,0,0,0,0,250,250,0,181.28,,,,,,,,,,,,
8223,0,-1,2.22,2.02,2.88,1.89,3.24,0.77,0.02,0.61,0,-1,-0,0.77,0,0,100,40,98,507,0.0,122,275,60,123.0,0,1,0,0,0,0,0,0,250,250,0,181.28,,,,,,,,,,,,
8243,0,1,2.21,2.02,2.89,1.89,3.24,0.77,0.02,0.61,0,-1,-0,0.77,0,0,100,40,98,507,0.0,122,275,60,123.0,0,1,0,0,0,0,0,0,250,250,0,181.28,0.0,0.0,0.0,0.0,0,0.0,-1,0.0,0.0,0,0.0,0.1374
8263,0,-1,2.21,2.02,2.89,1.89,3.25,0.77,0.02,0.61,0,-1,-0,0.77,0,0,100,40,98,507,0.0,122,273,60,123.0,0,1,0,0,0,0,0,0,250,250,0,181.28,,,,,,,,,,,,
8283,0,-0,2.22,2.02,2.88,1.89,3.24,0.77,0.02,0.61,0,-1,-0,0.77,0,0,100,40,98,507,0.0,122,273,60,123.0,0,1,0,0,0,0,0,0,250,250,0,181.28,,,,,,,,,,,,
8303,0,1,2.21,2.02,2.89,1.88,3.24,0.77,0.02,0.61,0,-1,-0,0.77,0,0,100,40,98,507,0.0,122,273,60,123.0,0,1,0,0,0,0,0,0,250,250,0,181.28,,,,,,,,,,,,
8323,0,0,2.21,2.03,2.89,1.89,3.25,0.77,0.02,0.61,0,-1,-0,0.77,0,0,100,40,98,507,0.0,122,273,60,123.0,0,1,0,0,0,0,0,0,250,250,0,181.28,,,,,,,,,,,,
8343,0,-1,2.21,2.02,2.88,1.88,3.24,0.77,0.02,0.62,0,-1,-0,0.77,0,0,100,40,98,507,0.0,122,273,60,123.0,0,1,0,0,0,0,0,0,250,250,0,181.28,0.0,0.0,0.0,0.0,0,0.0,-1,0.0,0.0,0,0.0,0.1391
8363,0,0,2.21,2.02,2.88,1.89,3.24,0.77,0.02,0.61,0,-1,-0,0.77,0,0,100,40,98,507,0.0,122,273,60,123.0,0,1,0,0,0,0,0,0,250,250,0,181.28,,,,,,,,,,,,
8383,0,1,2.21,2.02,2.88,1.89,3.24,0.77,0.02,0.61,0,-1,-0,0.77,0,0,100,40,98,507,0.0,122,273,60,123.0,0,1,0,0,0,0,0,0,250,250,0,181.28,,,,,,,,,,,,
8403,0,1,2.22,2.02,2.89,1.88,3.25,0.77,0.02,0.61,0,-1,-0,0.77,0,0,100,40,98,507,0.0,122,273,60,123.0,0,1,0,0,0,0,0,0,250,250,0,181.28,,,,,,,,,,,,
8423,0,1,2.21,2.02,2.89,1.88,3.25,0.77,0.02,0.61,0,-1,-0,0.77,0,0,100,40,98,507,0.0,122,273,60,123.0,0,1,0,0,0,0,0,0,250,250,0,181.28,,,,,,,,,,,,
8443,0,1,2.21,2.03,2.88,1.89,3.24,0.77,0.02,0.61,0,-1,-0,0.77,0,0,100,40,98,507,0.0,122,273,60,123.0,0,1,0,0,0,0,0,0,250,250,0,181.28,0.0,0.0,0.0,0.0,0,0.0,-1,0.0,0.0,0,0.0,0.1407
8463,0,-1,2.2,2.01,2.88,1.88,3.24,0.77,0.02,0.62,0,-1,-0,0.77,0,0,100,40,98,507,0.0,122,273,60,123.0,0,1,0,0,0,0,0,0,250,250,0,181.28,,,,,,,,,,,,
8483,0,1,2.21,2.01,2.88,1.89,3.24,0.77,0.02,0.62,0,-1,-0,0.77,0,0,100,40,98,507,0.0,122,273,60,123.0,0,1,0,0,0,0,0,0,250,250,0,181.28,,,,,,,,,,,,
8503,0,-1,2.22,2.02,2.88,1.89,3.25,0.77,0.02,0.62,0,-1,-0,0.77,0,0,100,40,98,507,0.0,122,271,60,123.0,0,1,0,0,0,0,0,0,250,250,0,181.28,,,,,,,,,,,,
8523,0,1,2.2,2.02,2.89,1.89,3.24,0.77,0.02,0.62,0,-1,-0,0.77,0,0,100,40,98,507,0.0,122,270,60,123.0,0,1,0,0,0,0,0,0,250,250,0,181.28,,,,,,,,,,,,
8543,0,1,2.21,2.02,2.89,1.89,3.25,0.77,0.02,0.62,0,-1,-0,0.77,0,0,100,40,98,507,0.0,122,270,60,123.0,0,1,0,0,0,0,0,0,250,250,0,181.28,0.0,0.0,0.0,0.0,0,0.0,-1,0.0,0.0,0,0.0,0.1424
8563,0,-1,2.22,2.02,2.89,1.89,3.24,0.77,0.02,0.62,0,-1,-0,0.77,0,0,100,40,98,507,0.0,122,270,60,123.0,0,1,0,0,0,0,0,0,250,250,0,181.28,,,,,,,,,,,,
8583,0,1,2.21,2.01,2.88,1.89,3.24,0.77,0.02,0.62,0,-1,-0,0.77,0,0,100,40,98,507,0.0,122,270,60,123.0,0,1,0,0,0,0,0,0,250,250,0,181.28,,,,,,,,,,,,
8603,0,1,2.21,2.02,2.89,1.88,3.25,0.78,0.02,0.61,0,-1,-0,0.78,0,0,100,40,98,507,0.0,122,270,60,123.0,0,1,0,0,0,0,0,0,250,250,0,181.28,,,,,,,,,,,,
8623,0,1,2.2,2.02,2.88,1.89,3.25,0.78,0.02,0.61,0,-1,-0,0.78,0,0,100,40,98,507,0.0,122,270,60,123.0,0,1,0,0,0,0,0,0,250,250,0,181.28,,,,,,,,,,,,
8643,0,-1,2.21,2.02,2.88,1.88,3.24,0.78,0.02,0.61,0,-1,-0,0.78,0,0,100,40,98,507,0.0,122,270,60,123.0,0,1,0,0,0,0,0,0,250,250,0,181.28,0.0,0.0,0.0,0.0,0,0.0,-1,0.0,0.0,0,0.0,0.144
8663,0,0,2.22,2.02,2.89,1.89,3.25,0.78,0.02,0.61,0,-1,-0,0.78,0,0,100,40,98,507,0.0,122,270,60,123.0,0,1,0,0,0,0,0,0,250,250,0,181.28,,,,,,,,,,,,
8683,0,-1,2.21,2.02,2.89,1.89,3.24,0.78,0.02,0.61,0,-1,-0,0.78,0,0,100,40,98,507,0.0,122,270,60,123.0,0,1,0,0,0,0,0,0,250,250,0,181.28,,,,,,,,,,,,
8703,1561296722220,1,2.21,2.03,2.89,1.88,3.24,0.78,0.02,0.61,0,-1,-0,0.78,0,0,100,40,98,507,0.0,122,270,60,123.0,0,1,0,0,0,0,0,0,250,250,0,181.28,,,,,,,,,,,,
8723,1561296722240,1,2.22,2.02,2.88,1.89,3.25,0.78,0.02,0.61,0,-1,-0,0.78,0,0,100,40,98,507,0.0,122,269,60,123.0,0,1,0,0,0,0,0,0,250,250,0,181.28,,,,,,,,,,,,
8743,1561296722260,-1,2.22,2.02,2.88,1.89,3.24,0.78,0.02,0.61,0,-1,-0,0.78,0,0,100,40,98,507,0.0,122,269,60,123.0,0,1,0,0,0,0,0,0,250,250,0,181.28,45.708328,4.912562,0.0,211.7,0,0.0,-1,0.0,0.0,0,0.0,0.1457
8763,1561296722280,0,2.21,2.03,2.89,1.89,3.25,0.78,0.02,0.61,0,-1,-0,0.78,0,0,100,40,98,507,0.0,122,268,60,123.0,0,1,0,0,0,0,0,0,250,250,0,181.28,,,,,,,,,,,,
8783,1561296722300,0,2.21,2.02,2.88,1.89,3.24,0.77,0.02,0.61,0,-1,-0,0.78,0,0,100,40,98,507,0.0,121,268,60,123.0,0,1,0,0,0,0,0,0,250,250,0,181.28,,,,,,,,,,,,
8803,1561296722320,-1,2.21,2.02,2.89,1.88,3.25,0.77,0.02,0.61,0,-1,-0,0.77,0,0,100,40,98,507,0.0,121,267,60,123.0,0,1,0,0,0,0,0,0,250,250,0,181.28,,,,,,,,,,,,
8823,1561296722340,0,2.22,2.02,2.89,1.89,3.25,0.77,0.02,0.61,0,-1,-0,0.77,0,0,100,40,98,507,0.0,121,267,60,123.0,0,1,0,0,0,0,0,0,250,250,0,181.28,,,,,,,,,,,,
8843,1561296722360,-0,2.21,2.02,2.89,1.89,3.25,0.78,0.02,0.61,0,-1,-0,0.78,0,1,100,40,98,507,0.0,121,267,60,123.0,0,1,0,0,0,0,0,0,250,250,0,181.28,45.708328,4.912562,0.0,211.7,0,0.0,-1,0.0,0.0,0,0.0,0.1474
8863,1561296722380,1,2.21,2.03,2.88,1.9,3.24,0.78,0.02,0.61,0,-1,-0,0.78,0,1,100,40,98,507,0.0,121,267,60,123.0,0,1,0,0,0,0,0,0,250,250,0,-5.59,,,,,,,,,,,,
8883,1561296722400,0,2.21,2.02,2.88,1.89,3.24,0.77,0.02,0.61,0,-1,-0,0.77,0,1,100,40,98,508,0.0,121,267,60,123.0,0,1,0,0,0,0,0,0,250,250,0,181.28,,,,,,,,,,,,
8903,1561296722420,0,2.21,2.03,2.89,1.88,3.24,0.77,0.02,0.61,0,-1,-0,0.77,0,1,100,40,98,507,0.0,121,267,60,123.0,0,1,0,0,0,0,0,0,250,250,0,181.28,,,,,,,,,,,,
8923,1561296722440,0,2.21,2.02,2.88,1.89,3.25,0.77,0.02,0.61,0,-1,-0,0.77,0,1,100,40,98,507,0.0,121,267,60,123.0,0,1,0,0,0,0,0,0,250,250,0,181.28,,,,,,,,,,,,
8943,1561296722460,-1,2.22,2.02,2.88,1.89,3.25,0.77,0.02,0.61,0,-1,-0,0.77,0,1,100,40,98,507,0.0,121,267,60,123.0,0,1,0,0,0,0,0,0,250,250,0,181.28,45.708328,4.912562,0.0,211.7,0,0.0,-1,0.0,0.0,0,0.0,0.149
8963,1561296722480,-0,2.2,2.02,2.89,1.89,3.24,0.77,0.02,0.62,0,-1,-0,0.77,0,1,100,40,98,507,0.0,121,267,60,123.0,0,1,0,0,0,0,0,0,250,250,0,181.28,,,,,,,,,,,,
8983,1561296722500,0,2.2,2.02,2.89,1.89,3.24,0.77,0.02,0.61,0,-1,-0,0.77,0,1,100,40,98,507,0.0,121,267,60,123.0,0,1,0,0,0,0,0,0,250,250,0,181.28,,,,,,,,,,,,
9003,1561296722520,-0,2.22,2.02,2.89,1.89,3.24,0.77,0.02,0.61,0,-1,-0,0.77,0,1,100,40,98,507,0.0,121,267,60,123.0,0,1,0,0,0,0,0,0,250,250,0,181.28,,,,,,,,,,,,
9023,1561296722540,-1,2.21,2.02,2.88,1.89,3.24,0.77,0.02,0.61,0,-1,-0,0.77,0,1,100,40,98,507,0.0,121,267,60,123.0,0,1,0,0,0,0,0,0,250,250,0,181.28,,,,,,,,,,,,
9043,1561296722560,0,2.21,2.02,2.89,1.88,3.24,0.77,0.02,0.61,0,-1,-0,0.77,0,1,100,40,98,507,0.0,121,266,60,123.0,0,1,0,0,0,0,0,0,250,250,0,181.28,45.708328,4.912562,0.0,211.7,0,0.0,-1,0.0,0.0,0,0.0,0.1507
9063,1561296722580,0,2.2,2.02,2.89,1.89,3.24,0.77,0.02,0.61,0,-1,-0,0.77,0,1,100,40,98,507,0.0,121,265,60,123.0,0,1,0,0,0,0,0,0,250,250,0,181.28,,,,,,,,,,,,
9083,1561296722600,-1,2.22,2.02,2.88,1.88,3.24,0.77,0.02,0.61,0,-1,-0,0.77,0,1,100,40,98,507,0.0,121,265,60,123.0,0,1,0,0,0,0,0,0,250,250,0,181.28,,,,,,,,,,,,
9103,1561296722620,0,2.22,2.02,2.89,1.89,3.25,0.77,0.02,0.61,0,-1,-0,0.77,0,1,100,40,98,507,0.0,121,265,60,123.0,0,1,0,0,0,0,0,0,250,250,0,181.28,,,,,,,,,,,,
9123,1561296722640,0,2.21,2.02,2.88,1.89,3.24,0.77,0.02,0.61,0,-1,-0,0.77,0,1,100,40,98,507,0.0,121,265,60,123.0,0,1,0,0,0,0,0,0,250,250,0,181.28,,,,,,,,,,,,
9143,1561296722660,0,2.21,2.02,2.89,1.89,3.24,0.77,0.02,0.61,0,-1,-0,0.77,0,1,100,40,98,507,0.0,121,265,60,123.0,0,1,0,0,0,0,0,0,250,250,0,181.28,45.708328,4.912562,0.0,211.7,0,0.0,-1,0.0,0.0,0,0.0,0.1524
9163,1561296722680,0,2.21,2.02,2.89,1.89,3.24,0.77,0.02,0.61,0,-1,-0,0.77,0,1,100,40,98,507,0.0,121,265,60,123.0,0,1,0,0,0,0,0,0,250,250,0,181.28,,,,,,,,,,,,
9183,1561296722700,0,2.21,2.01,2.88,1.89,3.24,0.77,0.02,0.61,0,-1,-0,0.77,0,1,100,40,98,507,0.0,121,265,60,123.0,0,1,0,0,0,0,0,0,250,250,0,181.28,,,,,,,,,,,,
9203,1561296722720,0,2.22,2.02,2.88,1.89,3.24,0.77,0.02,0.61,0,-1,-0,0.77,0,1,100,40,98,507,0.0,121,265,60,123.0,0,1,0,0,0,0,0,0,250,250,0,181.28,,,,,,,,,,,,
9223,1561296722740,0,2.21,2.01,2.89,1.89,3.24,0.77,0.02,0.61,0,-1,-0,0.77,0,1,100,40,98,507,0.0,121,265,60,123.0,0,1,0,0,0,0,0,0,250,250,0,181.28,,,,,,,,,,,,
9243,1561296722760,0,2.21,2.02,2.88,1.89,3.24,0.77,0.02,0.61,0,-1,-0,0.77,0,1,100,40,98,507,0.0,121,265,60,123.0,0,1,0,0,0,0,0,0,250,250,0,181.28,45.708328,4.912562,0.0,211.7,0,0.0,-1,0.0,0.0,0,0.0,0.154
9263,1561296722780,1,2.21,2.02,2.88,1.89,3.24,0.77,0.02,0.61,0,-1,-0,0.77,0,1,100,40,98,507,0.0,121,265,60,123.0,0,1,0,0,0,0,0,0,250,250,0,181.28,,,,,,,,,,,,
9283,1561296722800,-1,2.19,2.01,2.88,1.89,3.24,0.77,0.02,0.61,0,-1,-0,0.77,0,1,100,40,98,507,0.0,121,265,60,123.0,0,1,0,0,0,0,0,0,250,250,0,181.28,,,,,,,,,,,,
9303,1561296722820,-1,2.22,2.02,2.88,1.89,3.24,0.77,0.02,0.61,0,-1,-0,0.77,0,1,100,40,98,507,0.0,121,265,60,123.0,0,1,0,0,0,0,0,0,250,250,0,181.28,,,,,,,,,,,,
9323,1561296722840,0,2.21,2.02,2.88,1.89,3.24,0.77,0.02,0.61,0,-1,-0,0.77,0,1,100,40,98,507,0.0,121,265,60,123.0,0,1,0,0,0,0,0,0,250,250,0,181.28,,,,,,,,,,,,
9343,1561296722860,-1,2.22,2.03,2.88,1.89,3.24,0.77,0.02,0.61,0,-1,-0,0.77,0,1,100,40,98,507,0.0,121,265,60,123.0,0,1,0,0,0,0,0,0,250,250,0,181.28,45.708328,4.912562,0.0,211.7,0,0.0,-1,0.0,0.0,0,0.0,0.1557
9363,1561296722880,-1,2.21,2.02,2.88,1.89,3.24,0.77,0.02,0.61,0,-1,-0,0.77,0,1,100,40,98,507,0.0,121,263,60,123.0,0,1,0,0,0,0,0,0,250,250,0,181.28,,,,,,,,,,,,
9383,1561296722900,-1,2.22,2.02,2.89,1.89,3.25,0.77,0.02,0.61,0,-1,-0,0.77,0,1,100,40,98,507,0.0,121,263,60,123.0,0,1,0,0,0,0,0,0,250,250,0,181.28,,,,,,,,,,,,
9403,1561296722920,0,2.21,2.02,2.89,1.89,3.24,0.77,0.02,0.61,0,-1,-0,0.77,0,1,100,40,98,507,0.0,121,262,60,123.0,0,1,0,0,0,0,0,0,250,250,0,181.28,,,,,,,,,,,,
9423,1561296722940,1,2.21,2.02,2.89,1.89,3.25,0.77,0.02,0.61,0,-1,-0,0.77,0,1,100,40,98,507,0.0,121,262,60,123.0,0,1,0,0,0,0,0,0,250,250,0,181.28,,,,,,,,,,,,
9443,1561296722960,0,2.21,2.02,2.89,1.88,3.24,0.77,0.02,0.61,0,-1,-0,0.77,0,1,100,40,98,507,0.0,121,262,60,123.0,0,1,0,0,0,0,0,0,250,250,0,181.28,45.708328,4.912562,0.0,211.7,0,0.0,-1,0.0,0.0,0,0.0,0.1574
9463,1561296722980,-1,2.21,2.03,2.89,1.89,3.24,0.77,0.02,0.61,0,-1,-0,0.77,0,1,100,40,98,507,0.0,121,262,60,123.0,0,1,0,0,0,0,0,0,250,250,0,181.28,,,,,,,,,,,,
9483,1561296723000,0,2.21,2.03,2.89,1.89,3.25,0.77,0.02,0.61,0,-1,-0,0.77,0,1,100,40,98,507,0.0,121,262,60,123.0,0,1,0,0,0,0,0,0,250,250,0,181.28,,,,,,,,,,,,
9503,1561296723020,0,2.22,2.02,2.89,1.89,3.25,0.77,0.02,0.61,0,-1,-0,0.77,0,1,100,40,98,507,0.0,121,262,60,123.0,0,1,0,0,0,0,0,0,250,250,0,181.28,,,,,,,,,,,,
9523,1561296723040,-1,2.21,2.02,2.89,1.88,3.25,0.77,0.02,0.61,0,-1,-0,0.77,0,1,100,40,98,507,0.0,121,262,60,123.0,0,1,0,0,0,0,0,0,250,250,0,181.28,,,,,,,,,,,,
9543,1561296723060,-1,2.22,2.02,2.89,1.89,3.24,0.77,0.02,0.61,0,-1,-0,0.77,0,1,100,40,98,507,0.0,121,262,60,123.0,0,1,0,0,0,0,0,0,250,250,0,181.28,45.708328,4.912562,0.0,211.7,0,0.0,-1,0.0,0.0,0,0.0,0.159
9563,1561296723080,1,2.21,2.02,2.89,1.89,3.25,0.77,0.02,0.61,0,-1,-0,0.77,0,1,100,40,98,507,0.0,121,262,60,123.0,0,1,0,0,0,0,0,0,250,250,0,181.28,,,,,,,,,,,,
9583,1561296723100,-1,2.22,2.02,2.89,1.88,3.25,0.77,0.02,0.61,0,-1,-0,0.77,0,1,100,40,98,507,0.0,121,262,60,123.0,0,1,0,0,0,0,0,0,250,250,0,181.28,,,,,,,,,,,,
9603,1561296723120,-0,2.22,2.02,2.89,1.88,3.25,0.77,0.02,0.61,0,-1,-0,0.77,0,1,100,40,98,507,0.0,121,262,60,123.0,0,1,0,0,0,0,0,0,250,250,0,181.28,,,,,,,,,,,,
9623,1561296723140,0,2.21,2.01,2.88,1.89,3.25,0.77,0.02,0.61,0,-1,-0,0.77,0,1,100,40,98,507,0.0,121,261,60,123.0,0,1,0,0,0,0,0,0,250,250,0,181.28,,,,,,,,,,,,
9643,1561296723160,-0,2.21,2.01,2.88,1.89,3.24,0.77,0.02,0.61,0,-1,-0,0.77,0,1,100,40,98,507,0.0,122,260,60,123.0,0,1,0,0,0,0,0,0,250,250,0,181.28,45.708328,4.912562,0.0,211.7,0,0.0,-1,0.0,0.0,0,0.0,0.1607
9663,1561296723180,0,2.2,2.02,2.88,1.89,3.24,0.77,0.02,0.61,0,-1,-0,0.77,0,1,100,40,98,507,0.0,122,260,60,123.0,0,1,0,0,0,0,0,0,250,250,0,181.28,,,,,,,,,,,,
9683,1561296723200,-1,2.21,2.03,2.88,1.9,3.24,0.77,0.02,0.61,0,-1,-0,0.77,0,1,100,40,98,507,0.0,122,260,60,123.0,0,1,0,0,0,0,0,0,250,250,0,181.28,,,,,,,,,,,,
9703,1561296723220,0,2.21,2.02,2.89,1.88,3.25,0.77,0.02,0.61,0,-1,-0,0.77,0,1,100,40,98,507,0.0,122,260,60,123.0,0,1,0,0,0,0,0,0,250,250,0,181.28,,,,,,,,,,,,
9723,1561296723240,-2,2.22,2.02,2.89,1.88,3.25,0.77,0.02,0.61,0,-1,-0,0.77,0,1,100,40,98,507,0.0,122,260,60,123.0,0,1,0,0,0,0,0,0,250,250,0,181.28,,,,,,,,,,,,
9743,1561296723260,-1,2.21,2.02,2.89,1.88,3.25,0.77,0.02,0.61,0,-1,-0,0.77,0,1,100,40,98,507,0.0,122,260,60,123.0,0,1,0,0,0,0,0,0,250,250,0,181.28,45.708328,4.912562,0.0,211.7,0,0.0,-1,0.0,0.0,0,0.0,0.1624
9763,1561296723280,-1,2.22,2.02,2.88,1.89,3.24,0.77,0.02,0.61,0,-1,-0,0.77,0,1,100,40,98,507,0.0,122,260,60,123.0,0,1,0,0,0,0,0,0,250,250,0,181.28,,,,,,,,,,,,
9783,1561296723300,0,2.21,2.02,2.89,1.89,3.24,0.77,0.02,0.61,0,-1,-0,0.77,0,1,100,40,98,507,0.0,122,260,60,123.0,0,1,0,0,0,0,0,0,250,250,0,181.28,,,,,,,,,,,,
9803,1561296723320,0,2.21,2.01,2.89,1.89,3.24,0.77,0.02,0.61,0,-1,-0,0.77,0,1,100,40,98,507,0.0,122,260,60,123.0,0,1,0,0,0,0,0,0,250,250,0,181.28,,,,,,,,,,,,
9823,1561296723340,-2,2.22,2.02,2.88,1.89,3.24,0.77,0.02,0.61,0,-1,-0,0.77,0,1,100,40,98,507,0.0,122,260,60,123.0,0,1,0,0,0,0,0,0,250,250,0,181.28,,,,,,,,,,,,
9843,1561296723360,1,2.21,2.02,2.89,1.88,3.24,0.77,0.02,0.61,0,-1,-0,0.77,0,1,100,40,98,507,0.0,122,260,60,123.0,0,1,0,0,0,0,0,0,250,250,0,181.28,45.708328,4.912562,0.0,211.7,0,0.0,-1,0.0,0.0,0,0.0,0.164
9863,1561296723380,-2,2.21,2.02,2.88,1.88,3.25,0.77,0.02,0.61,0,-1,-0,0.77,0,1,100,40,98,507,0.0,121,260,60,123.0,0,1,0,0,0,0,0,0,250,250,0,181.28,,,,,,,,,,,,
9883,1561296723400,1,2.21,2.02,2.89,1.88,3.25,0.77,0.02,0.61,0,-1,-0,0.77,0,1,100,40,98,507,0.0,121,260,60,123.0,0,1,0,0,0,0,0,0,250,250,0,181.28,,,,,,,,,,,,
9903,1561296723420,0,2.22,2.02,2.89,1.89,3.25,0.77,0.02,0.61,0,-1,-0,0.77,0,1,100,40,98,507,0.0,121,260,60,123.0,0,1,0,0,0,0,0,0,250,250,0,181.28,,,,,,,,,,,,
9923,1561296723440,0,2.21,2.02,2.88,1.89,3.24,0.77,0.02,0.61,0,-1,-0,0.77,0,1,100,40,98,507,0.0,121,260,60,123.0,0,1,0,0,0,0,0,0,250,250,0,181.28,,,,,,,,,,,,
9943,1561296723460,0,2.21,2.03,2.89,1.89,3.25,0.77,0.02,0.61,0,-1,-0,0.77,0,1,100,40,98,507,0.0,121,260,60,123.0,0,1,0,0,0,0,0,0,250,250,0,181.28,45.708328,4.912562,0.0,211.7,0,0.0,-1,0.0,0.0,0,0.0,0.1657
9963,1561296723480,1,2.21,2.02,2.89,1.88,3.25,0.77,0.02,0.61,0,-1,-0,0.77,0,1,100,40,98,507,0.0,121,260,60,123.0,0,1,0,0,0,0,0,0,250,250,0,181.28,,,,,,,,,,,,
9983,1561296723500,0,2.21,2.03,2.89,1.89,3.24,0.77,0.02,0.61,0,-1,-0,0.77,0,1,100,40,98,507,0.0,121,257,60,123.0,0,1,0,0,0,0,0,0,250,250,0,181.28,,,,,,,,,,,,
10003,1561296723520,0,2.21,2.02,2.89,1.89,3.25,0.77,0.02,0.61,0,-1,-0,0.77,0,1,100,40,98,507,0.0,121,257,60,123.0,0,1,0,0,0,0,0,0,250,250,0,181.28,,,,,,,,,,,,
10023,1561296723540,-1,2.22,2.03,2.88,1.9,3.24,0.77,0.02,0.61,0,-1,-0,0.77,0,1,100,40,98,507,0.0,121,257,60,123.0,0,1,0,0,0,0,0,0,250,250,0,181.28,,,,,,,,,,,,
10043,1561296723560,-2,2.22,2.02,2.88,1.89,3.25,0.77,0.02,0.61,0,-1,-0,0.77,0,1,100,40,98,507,0.0,121,257,60,123.0,0,1,0,0,0,0,0,0,250,250,0,181.28,45.708328,4.912562,0.0,211.7,0,0.0,-1,0.0,0.0,0,0.0,0.1674
10063,1561296723580,-0,2.21,2.02,2.88,1.89,3.25,0.77,0.02,0.61,0,-1,-0,0.77,0,1,100,40,98,507,0.0,122,256,60,103.0,0,1,0,0,0,0,0,0,250,250,0,-5.59,,,,,,,,,,,,
10083,1561296723600,0,2.21,2.02,2.89,1.88,3.25,0.77,0.02,0.61,0,-0,-0,0.77,0,1,100,40,98,507,0.0,126,256,60,94.0,0,1,0,0,0,0,0,0,250,250,0,181.28,,,,,,,,,,,,
10103,1561296723620,-1,2.21,2.02,2.88,1.89,3.24,0.77,0.02,0.61,0,-0,-0,0.77,0,2,100,40,98,506,0.0,129,256,60,100.0,0,1,0,0,0,0,0,0,250,250,0,181.28,,,,,,,,,,,,
10123,1561296723640,-1,2.21,2.02,2.88,1.89,3.25,0.77,0.02,0.61,0,-0,-0,0.77,0,2,100,40,97,505,0.0,130,256,60,102.0,0,1,0,0,0,0,0,0,250,250,0,181.28,,,,,,,,,,,,
10143,1561296723660,-0,2.2,2.02,2.88,1.89,3.25,0.76,0.02,0.6,0,-0,-0,0.76,0,2,100,40,98,503,0.0,131,256,60,103.0,0,1,0,0,0,0,0,0,250,250,0,181.28,45.708328,4.912562,0.0,211.7,0,0.0,-1,0.0,0.0,0,0.0,0.169
10163,1561296723680,0,2.21,2.02,2.89,1.88,3.25,0.77,0.02,0.6,0,-1,-0,0.77,0,2,100,40,98,502,0.0,132,257,60,107.0,0,1,0,0,0,0,0,0,250,250,0,181.28,,,,,,,,,,,,
10183,1561296723700,-1,2.22,2.02,2.88,1.89,3.25,0.77,0.02,0.61,0,-1,-0,0.77,0,2,100,40,98,501,0.0,131,257,60,109.0,0,1,0,0,0,0,0,0,250,250,0,181.28,,,,,,,,,,,,
10203,1561296723720,-0,2.21,2.01,2.88,1.88,3.24,0.76,0.02,0.6,0,-0,-0,0.76,0,2,100,40,97,500,0.0,128,257,60,109.0,0,1,0,0,0,0,0,0,250,250,0,-5.59,,,,,,,,,,,,
10223,1561296723740,-2,2.21,2.02,2.88,1.88,3.24,0.77,0.02,0.6,0,-1,0,0.77,0,2,100,40,96,501,0.0,130,254,60,109.0,0,1,0,0,0,0,0,0,250,250,0,181.28,,,,,,,,,,,,
10243,1561296723760,-2,2.22,2.02,2.88,1.88,3.24,0.77,0.02,0.6,0,-1,0,0.78,0,2,100,40,98,501,0.0,130,255,60,107.0,0,1,0,0,0,0,0,0,250,250,0,181.28,45.708328,4.912562,0.0,211.7,0,0.0,-1,0.0,0.0,0,0.0,0.1707
10263,1561296723780,1,2.21,2.01,2.88,1.89,3.24,0.77,0.02,0.59,0,-1,0,0.77,0,2,100,40,98,501,0.0,130,255,60,110.0,0,1,0,0,0,0,0,0,250,250,0,181.28,,,,,,,,,,,,
10283,1561296723800,-2,2.22,2.02,2.88,1.89,3.24,0.77,0.02,0.59,0,-1,0,0.77,0,2,100,40,97,501,0.0,130,255,60,112.0,0,1,0,0,0,0,0,0,250,250,0,181.28,,,,,,,,,,,,
10303,1561296723820,-1,2.21,2.02,2.88,1.89,3.24,0.77,0.02,0.59,0,-1,-0,0.77,0,2,100,40,96,501,0.0,128,254,60,111.0,0,1,0,0,0,0,0,0,250,250,0,181.28,,,,,,,,,,,,
10323,1561296723840,-0,2.21,2.02,2.89,1.89,3.25,0.78,0.02,0.6,0,-1,-0,0.78,0,2,100,40,97,502,0.0,133,255,60,109.0,0,1,0,0,0,0,0,0,250,250,0,181.28,,,,,,,,,,,,
10343,1561296723860,0,2.2,2.01,2.88,1.89,3.24,0.77,0.02,0.6,0,-1,0,0.77,0,2,100,40,98,502,0.0,131,254,60,111.0,0,1,0,0,0,0,0,0,250,250,0,181.28,45.708328,4.912562,0.0,211.7,0,0.0,-1,0.0,0.0,0,0.0,0.1724
10363,1561296723880,-0,2.2,2.02,2.88,1.88,3.24,0.77,0.02,0.6,0,-1,-0,0.77,0,2,100,40,97,502,0.0,130,254,60,112.0,0,1,0,0,0,0,0,0,250,250,0,181.28,,,,,,,,,,,,
10383,1561296723900,-0,2.2,2.02,2.88,1.89,3.24,0.77,0.02,0.59,0,-1,-0,0.77,0,2,100,40,96,502,0.0,127,254,60,111.0,0,1,0,0,0,0,0,0,250,250,0,181.28,,,,,,,,,,,,
10403,1561296723920,1,2.21,2.02,2.88,1.89,3.24,0.77,0.03,0.6,0,-1,-0,0.78,0,2,100,40,98,502,0.0,131,254,60,111.0,0,1,0,0,0,0,0,0,250,250,0,181.28,,,,,,,,,,,,
10423,1561296723940,0,2.21,2.01,2.88,1.89,3.24,0.77,0.02,0.6,0,-0,-0,0.77,0,2,100,40,98,502,0.0,129,254,60,112.0,0,1,0,0,0,0,0,0,250,250,0,181.28,,,,,,,,,,,,
10443,1561296723960,-1,2.21,2.02,2.88,1.89,3.24,0.78,0.02,0.6,0,-0,-0,0.78,0,2,100,40,96,502,0.0,128,253,60,112.0,0,1,0,0,0,0,0,0,250,250,0,181.28,45.708328,4.912562,0.0,211.7,0,0.0,-1,0.0,0.0,0,0.0,0.174
10463,1561296723980,0,2.2,2.02,2.88,1.88,3.24,0.77,0.02,0.61,0,-1,-0,0.77,0,2,100,40,96,502,0.0,128,254,60,110.0,0,1,0,0,0,0,0,0,250,250,0,181.28,,,,,,,,,,,,
10483,1561296724000,-1,2.21,2.02,2.88,1.89,3.24,0.78,0.02,0.6,0,-1,0,0.78,0,2,100,40,98,502,0.0,126,253,60,111.0,0,1,0,0,0,0,0,0,250,250,0,181.28,,,,,,,,,,,,
10503,1561296724020,-0,2.21,2.01,2.88,1.89,3.24,0.78,0.02,0.6,0,-0,-0,0.78,0,2,100,40,97,502,0.0,127,253,60,112.0,0,1,0,0,0,0,0,0,250,250,0,181.28,,,,,,,,,,,,
10523,1561296724040,-1,2.21,2.02,2.88,1.88,3.24,0.78,0.02,0.61,0,-1,-0,0.78,0,2,100,40,96,502,0.0,128,253,60,111.0,0,1,0,0,0,0,0,0,250,250,0,-5.59,,,,,,,,,,,,
10543,1561296724060,-1,2.21,2.02,2.89,1.89,3.24,0.77,0.02,0.59,0,-0,0,0.77,0,2,100,40,97,502,0.0,130,253,60,110.0,0,1,0,0,0,0,0,0,250,250,0,181.28,45.708328,4.912562,0.0,211.7,0,0.0,-1,0.0,0.0,0,0.0,0.1757
10563,1561296724080,-0,2.21,2.01,2.88,1.89,3.24,0.77,0.02,0.6,0,-1,-0,0.77,0,2,100,40,98,502,0.0,129,252,60,111.0,0,1,0,0,0,0,0,0,250,250,0,181.28,,,,,,,,,,,,
10583,1561296724100,-1,2.21,2.02,2.88,1.89,3.25,0.77,0.02,0.6,0,-1,-0,0.77,0,2,100,40,97,502,0.0,128,252,60,113.0,0,1,0,0,0,0,0,0,250,250,0,181.28,,,,,,,,,,,,
10603,1561296724120,0,2.21,2.02,2.88,1.89,3.24,0.78,0.02,0.6,0,-1,-0,0.78,0,2,100,40,96,502,0.0,128,252,60,110.0,0,1,0,0,0,0,0,0,250,250,0,181.28,,,,,,,,,,,,
10623,1561296724140,0,2.21,2.02,2.89,1.88,3.25,0.78,0.03,0.6,0,-1,-0,0.78,0,2,100,40,98,502,0.0,131,252,60,110.0,0,1,0,0,0,0,0,0,250,250,0,181.28,,,,,,,,,,,,
10643,1561296724160,-1,2.22,2.02,2.88,1.89,3.24,0.77,0.03,0.6,0,-1,-0,0.77,0,2,100,40,97,502,0.0,130,252,60,112.0,0,1,0,0,0,0,0,0,250,250,0,181.28,45.708328,4.912562,0.0,211.7,0,0.0,-1,0.0,0.0,0,0.0,0.1774
10663,1561296724180,1,2.21,2.02,2.88,1.89,3.24,0.77,0.03,0.61,0,-1,-0,0.77,0,2,100,40,96,502,0.0,128,251,60,112.0,0,1,0,0,0,0,0,0,250,250,0,181.28,,,,,,,,,,,,
10683,1561296724200,1,2.21,2.02,2.88,1.89,3.25,0.78,0.02,0.62,0,-1,-0,0.78,118,2,100,40,97,502,0.0,130,252,60,107.0,0,1,400,418,0,0,0,0,250,250,0,181.28,,,,,,,,,,,,
10703,1561296724220,0,2.21,2.02,2.88,1.88,3.24,0.77,0.02,0.61,0,-1,-0,0.77,118,2,100,40,98,502,0.0,130,413,60,109.0,0,1,400,428,0,0,0,0,250,250,0,181.28,,,,,,,,,,,,
10723,1561296724240,0,2.2,2.02,2.89,1.89,3.24,0.77,0.02,0.61,0,-1,-0,0.77,118,2,100,40,97,502,0.0,128,455,60,110.0,0,1,400,418,0,0,0,0,250,250,0,181.28,,,,,,,,,,,,
10743,1561296724260,-1,2.21,2.02,2.89,1.88,3.25,0.77,0.02,0.63,0,-1,-0,0.77,405,2,100,40,96,502,0.0,130,457,60,109.0,0,1,152,411,0,0,0,0,250,250,0,181.28,45.708328,4.912562,0.0,211.7,0,0.0,-1,0.0,0.0,0,0.0,0.179
10763,1561296724280,0,2.21,2.02,2.89,1.88,3.25,0.77,0.02,0.63,0,-0,-0,0.77,405,2,100,40,98,502,0.0,128,458,60,108.0,0,1,400,428,6,0,0,0,250,250,0,181.28,,,,,,,,,,,,
10783,1561296724300,-1,2.22,2.02,2.89,1.88,3.25,0.76,0.02,0.62,0,-0,0,0.76,405,2,100,40,98,502,0.0,131,458,60,109.0,0,1,400,428,6,0,0,0,250,250,0,181.28,,,,,,,,,,,,
10803,1561296724320,0,2.21,2.02,2.89,1.89,3.24,0.76,0.02,0.61,0,-0,-0,0.76,405,3,100,40,96,502,0.0,130,458,60,110.0,0,1,400,411,6,0,0,0,250,250,0,181.28,,,,,,,,,,,,
10823,1561296724340,-0,2.2,2.02,2.88,1.89,3.24,0.76,0.02,0.63,0,-1,-0,0.76,421,3,100,40,96,502,0.0,128,457,60,107.0,0,1,400,411,6,0,0,0,250,250,0,181.28,,,,,,,,,,,,
