"Interval"|"ms"|0|0|1,"Utc"|"ms"|0|0|1,"FB_p"|"bar"|0|300|50,"Volant"|"F"|0.0|300.0|50,"xFR"|"mm"|0.0|5.0|50,"xRR"|"mm"|0.0|5.0|50,"xFL"|"mm"|0.0|5.0|50,"xRL"|"mm"|0.0|5.0|50,"AccelX"|"G"|-3.0|3.0|50,"AccelY"|"G"|-3.0|3.0|50,"AccelZ"|"G"|-3.0|3.0|50,"Yaw"|"Deg/Sec"|-120|120|50,"Pitch"|"Deg/Sec"|-120|120|50,"Roll"|"Deg/Sec"|-120|120|50,"Gsum"|"G"|0.0|3.0|50,"RPM"|""|0|14000|50,"TPS"|"%"|0|100|50,"WaterTemp"|"?C"|0|300|50,"AirTemp"|"?C"|-1000|1000|50,"MAP"|"KPa"|0|255|50,"Lambda"|""|0|1024|50,"WheelSpeed"|"MPH"|0.0|150.0|50,"OilPress"|"PSI"|0|150|50,"FuelPress"|"PSI"|0|150|50,"OilTemp"|"F"|0|300|50,"Battery"|"Volts"|0.0|20.0|50,"FuelCon"|"L/h"|-1000|1000|50,"Gear"|""|0|10|50,"Advance"|"Deg"|-360|360|50,"Injection"|"ms"|-1000|1000|50,"FuelCon"|"L/100km"|-1000|1000|50,"LC_But_Pres"|""|-1000|1000|50,"LC_Active"|""|-1000|1000|50,"RD_Speed"|""|-1000|1000|50,"RUD_Speed"|""|-1000|1000|50,"LD_Speed"|""|-1000|1000|50,"LUD_Speed"|""|-1000|1000|50,"Ana1"|"bar"|-1000.0|1000.0|50,"Latitude"|"Degrees"|-180.0|180.0|10,"Longitude"|"Degrees"|-180.0|180.0|10,"Speed"|"kph"|0.0|150.0|10,"Altitude"|"m"|0.0|4000.0|10,"LapCount"|""|0|0|10,"LapTime"|"Min"|0.0|0.0|10,"Sector"|""|0|0|10,"SectorTime"|"Min"|0.0|0.0|10,"ElapsedTime"|"Min"|0.0|0.0|10,"CurrentLap"|""|0|0|10,"Distance"|"km"|0.0|0.0|10,"SessionTime"|"Min"|0.0|0.0|10
4923,0,-0,1.5,2.1,3.08,1.82,3.32,0.77,0.06,0.61,-0,-2,-17,0.77,0,0,101,42,98,507,0.0,121,219,60,124.0,0,1,0,0,0,0,0,0,250,250,0,181.28,,,,,,,,,,,,
4943,0,2,1.5,2.09,3.08,1.82,3.33,0.77,0.06,0.61,-0,-2,-15,0.77,0,0,101,42,98,507,0.0,121,219,60,124.0,0,1,0,0,0,0,0,0,250,250,0,181.28,0.0,0.0,0.0,0.0,0,0.0,-1,0.0,0.0,0,0.0,0.0824
4963,0,1,1.5,2.1,3.08,1.81,3.33,0.77,0.06,0.61,-1,-2,-14,0.78,0,1,101,42,98,507,0.0,121,219,60,124.0,0,1,0,0,0,0,0,0,250,250,0,181.28,,,,,,,,,,,,
4983,0,2,1.49,2.1,3.08,1.81,3.33,0.77,0.06,0.61,-1,-3,-12,0.78,0,0,101,42,98,507,0.0,121,219,60,124.0,0,1,0,0,0,0,0,0,250,250,0,181.28,,,,,,,,,,,,
5003,0,1,1.49,2.1,3.08,1.82,3.32,0.78,0.06,0.61,-1,-3,-11,0.78,0,1,101,42,98,507,0.0,121,216,60,123.0,0,1,0,0,0,0,0,0,250,250,0,181.28,,,,,,,,,,,,
5023,0,1,1.5,2.1,3.07,1.81,3.33,0.78,0.06,0.61,-1,-3,-10,0.78,0,0,101,42,98,507,0.0,121,216,60,124.0,0,1,0,0,0,0,0,0,250,250,0,181.28,,,,,,,,,,,,
5043,0,2,1.5,2.1,3.08,1.82,3.33,0.78,0.06,0.61,-1,-2,-9,0.78,0,0,101,42,98,507,0.0,121,216,60,124.0,0,1,0,0,0,0,0,0,250,250,0,181.28,0.0,0.0,0.0,0.0,0,0.0,-1,0.0,0.0,0,0.0,0.084
5063,0,2,1.49,2.1,3.08,1.82,3.33,0.78,0.07,0.61,-1,-2,-8,0.78,0,0,101,42,98,507,0.0,121,216,60,124.0,0,1,0,0,0,0,0,0,250,250,0,181.28,,,,,,,,,,,,
5083,0,2,1.5,2.1,3.08,1.82,3.33,0.78,0.07,0.61,-1,-1,-7,0.78,0,0,101,42,98,507,0.0,121,216,60,124.0,0,1,0,0,0,0,0,0,250,250,0,181.28,,,,,,,,,,,,
5103,0,2,1.5,2.1,3.08,1.82,3.33,0.78,0.07,0.61,-0,-1,-7,0.78,0,0,101,42,98,507,0.0,121,216,60,124.0,0,1,0,0,0,0,0,0,250,250,0,181.28,,,,,,,,,,,,
5123,0,0,1.5,2.1,3.08,1.82,3.33,0.78,0.07,0.61,0,-1,-6,0.78,0,0,101,42,98,507,0.0,121,216,60,124.0,0,1,0,0,0,0,0,0,250,250,0,181.28,,,,,,,,,,,,
5143,0,2,1.5,2.1,3.08,1.81,3.34,0.78,0.06,0.6,0,-0,-6,0.78,0,0,101,42,98,507,0.0,121,214,60,124.0,0,1,0,0,0,0,0,0,250,250,0,181.28,0.0,0.0,0.0,0.0,0,0.0,-1,0.0,0.0,0,0.0,0.0857
5163,0,2,1.5,2.1,3.08,1.83,3.33,0.77,0.07,0.6,0,-0,-5,0.77,0,0,101,42,98,507,0.0,121,213,60,123.0,0,1,0,0,0,0,0,0,250,250,0,181.28,,,,,,,,,,,,
5183,0,1,1.5,2.1,3.08,1.82,3.33,0.78,0.06,0.6,0,-0,-4,0.78,0,0,101,42,98,507,0.0,121,213,60,124.0,0,1,0,0,0,0,0,0,250,250,0,181.28,,,,,,,,,,,,
5203,0,2,1.49,2.1,3.08,1.81,3.33,0.77,0.07,0.6,0,-0,-4,0.78,0,0,101,42,98,507,0.0,121,213,60,124.0,0,1,0,0,0,0,0,0,250,250,0,181.28,,,,,,,,,,,,
5223,0,2,1.49,2.1,3.08,1.82,3.32,0.78,0.06,0.6,0,-0,-4,0.78,0,0,101,42,98,507,0.0,121,213,60,124.0,0,1,0,0,0,0,0,0,250,250,0,181.28,,,,,,,,,,,,
5243,0,2,1.5,2.1,3.07,1.82,3.33,0.78,0.06,0.61,0,-0,-3,0.78,0,0,101,42,98,507,0.0,121,213,60,124.0,0,1,0,0,0,0,0,0,250,250,0,181.28,0.0,0.0,0.0,0.0,0,0.0,-1,0.0,0.0,0,0.0,0.0874
5263,0,2,1.49,2.11,3.08,1.82,3.33,0.78,0.06,0.61,0,-0,-3,0.78,0,0,101,42,98,507,0.0,121,213,60,124.0,0,1,0,0,0,0,0,0,250,250,0,181.28,,,,,,,,,,,,
5283,0,2,1.49,2.1,3.08,1.82,3.32,0.77,0.06,0.61,0,-0,-3,0.77,0,0,101,42,98,507,0.0,121,211,60,124.0,0,1,0,0,0,0,0,0,250,250,0,181.28,,,,,,,,,,,,
5303,0,2,1.49,2.1,3.07,1.83,3.33,0.77,0.06,0.6,0,-0,-2,0.77,0,0,101,42,98,507,0.0,121,211,60,124.0,0,1,0,0,0,0,0,0,250,250,0,181.28,,,,,,,,,,,,
5323,0,2,1.49,2.1,3.08,1.82,3.33,0.77,0.06,0.61,0,-0,-2,0.77,0,0,101,42,98,507,0.0,121,211,60,123.0,0,1,0,0,0,0,0,0,250,250,0,181.28,,,,,,,,,,,,
5343,0,2,1.49,2.09,3.07,1.81,3.33,0.77,0.06,0.6,0,-0,-2,0.77,0,0,101,42,98,507,0.0,121,211,60,123.0,0,1,0,0,0,0,0,0,250,250,0,181.28,0.0,0.0,0.0,0.0,0,0.0,-1,0.0,0.0,0,0.0,0.089
5363,0,2,1.49,2.1,3.08,1.82,3.32,0.77,0.06,0.6,0,-0,-2,0.77,0,0,101,42,98,507,0.0,121,211,60,123.0,0,1,0,0,0,0,0,0,250,250,0,181.28,,,,,,,,,,,,
5383,0,2,1.49,2.1,3.08,1.81,3.33,0.77,0.06,0.61,0,-0,-2,0.77,0,0,101,42,98,507,0.0,121,211,60,124.0,0,1,0,0,0,0,0,0,250,250,0,181.28,,,,,,,,,,,,
5403,0,2,1.49,2.1,3.08,1.82,3.33,0.77,0.06,0.61,0,-0,-1,0.77,0,0,101,42,98,507,0.0,121,211,60,124.0,0,1,0,0,0,0,0,0,250,250,0,181.28,,,,,,,,,,,,
5423,0,2,1.49,2.1,3.08,1.82,3.33,0.77,0.06,0.61,0,-0,-1,0.77,0,0,101,42,98,507,0.0,121,211,60,124.0,0,1,0,0,0,0,0,0,250,250,0,181.28,,,,,,,,,,,,
5443,0,2,1.49,2.1,3.08,1.82,3.32,0.77,0.06,0.61,0,-1,-1,0.77,0,0,101,42,98,507,0.0,121,210,60,124.0,0,1,0,0,0,0,0,0,250,250,0,181.28,0.0,0.0,0.0,0.0,0,0.0,-1,0.0,0.0,0,0.0,0.0907
5463,0,2,1.49,2.1,3.08,1.81,3.33,0.77,0.06,0.61,0,-1,-1,0.77,0,0,101,42,98,507,0.0,121,208,60,124.0,0,1,0,0,0,0,0,0,250,250,0,181.28,,,,,,,,,,,,
5483,0,2,1.5,2.09,3.07,1.82,3.32,0.77,0.06,0.61,0,-1,-1,0.77,0,0,101,42,98,507,0.0,121,208,60,124.0,0,1,0,0,0,0,0,0,250,250,0,181.28,,,,,,,,,,,,
5503,0,2,1.49,2.1,3.07,1.83,3.33,0.77,0.06,0.61,0,-1,-1,0.77,0,0,101,42,98,507,0.0,121,208,60,123.0,0,1,0,0,0,0,0,0,250,250,0,181.28,,,,,,,,,,,,
5523,0,2,1.49,2.1,3.08,1.81,3.33,0.77,0.06,0.61,0,-1,-1,0.77,0,0,101,42,98,507,0.0,121,208,60,124.0,0,1,0,0,0,0,0,0,250,250,0,181.28,,,,,,,,,,,,
5543,0,-0,1.5,2.1,3.08,1.82,3.32,0.77,0.06,0.61,0,-1,-1,0.78,0,0,101,42,98,507,0.0,121,208,60,124.0,0,1,0,0,0,0,0,0,250,250,0,181.28,0.0,0.0,0.0,0.0,0,0.0,-1,0.0,0.0,0,0.0,0.0924
5563,0,2,1.49,2.1,3.07,1.82,3.33,0.77,0.06,0.61,0,-1,-1,0.78,0,0,101,42,98,507,0.0,121,208,60,124.0,0,1,0,0,0,0,0,0,250,250,0,181.28,,,,,,,,,,,,
5583,0,2,1.5,2.1,3.08,1.82,3.33,0.77,0.06,0.61,0,-1,-1,0.78,0,0,101,42,98,507,0.0,121,208,60,124.0,0,1,0,0,0,0,0,0,250,250,0,181.28,,,,,,,,,,,,
5603,0,2,1.5,2.09,3.08,1.82,3.33,0.78,0.06,0.61,0,-1,-1,0.78,0,0,101,42,98,507,0.0,121,207,60,124.0,0,1,0,0,0,0,0,0,250,250,0,-5.59,,,,,,,,,,,,
5623,0,2,1.49,2.1,3.07,1.82,3.32,0.78,0.06,0.61,-0,-1,-1,0.78,0,0,101,42,98,507,0.0,121,206,60,124.0,0,1,0,0,0,0,0,0,250,250,0,181.28,,,,,,,,,,,,
5643,0,2,1.49,2.1,3.07,1.82,3.33,0.78,0.06,0.61,-0,-1,-1,0.78,0,0,101,42,98,507,0.0,121,205,60,124.0,0,1,0,0,0,0,0,0,250,250,0,181.28,0.0,0.0,0.0,0.0,0,0.0,-1,0.0,0.0,0,0.0,0.094
5663,0,0,1.5,2.1,3.08,1.82,3.32,0.78,0.06,0.61,-0,-1,-1,0.78,0,0,101,42,98,507,0.0,121,205,60,124.0,0,1,0,0,0,0,0,0,250,250,0,181.28,,,,,,,,,,,,
5683,0,0,1.5,2.1,3.08,1.82,3.33,0.78,0.06,0.61,-0,-1,-0,0.78,0,0,101,42,98,508,0.0,121,205,60,124.0,0,1,0,0,0,0,0,0,250,250,0,181.28,,,,,,,,,,,,
5703,0,1,1.5,2.1,3.08,1.82,3.33,0.78,0.06,0.61,-0,-1,-0,0.78,0,0,101,42,98,507,0.0,121,205,60,124.0,0,1,0,0,0,0,0,0,250,250,0,181.28,,,,,,,,,,,,
5723,0,0,1.5,2.1,3.07,1.82,3.33,0.78,0.06,0.61,-0,-1,-0,0.78,0,0,101,42,98,507,0.0,121,205,60,124.0,0,1,0,0,0,0,0,0,250,250,0,181.28,,,,,,,,,,,,
5743,0,2,1.49,2.1,3.08,1.82,3.33,0.78,0.06,0.61,-0,-1,-0,0.78,0,0,101,42,98,507,0.0,121,205,60,124.0,0,1,0,0,0,0,0,0,250,250,0,181.28,0.0,0.0,0.0,0.0,0,0.0,-1,0.0,0.0,0,0.0,0.0957
5763,0,2,1.49,2.1,3.08,1.82,3.33,0.78,0.06,0.61,-0,-1,-0,0.78,0,0,101,42,98,507,0.0,121,205,60,124.0,0,1,0,0,0,0,0,0,250,250,0,181.28,,,,,,,,,,,,
5783,0,2,1.5,2.1,3.08,1.82,3.33,0.78,0.06,0.61,-0,-1,-0,0.78,0,0,101,42,98,507,0.0,121,205,60,124.0,0,1,0,0,0,0,0,0,250,250,0,181.28,,,,,,,,,,,,
5803,0,2,1.49,2.1,3.08,1.82,3.33,0.78,0.06,0.61,-0,-1,-0,0.78,0,0,101,42,98,507,0.0,121,203,60,124.0,0,1,0,0,0,0,0,0,250,250,0,181.28,,,,,,,,,,,,
5823,0,1,1.5,2.1,3.07,1.82,3.33,0.78,0.06,0.61,-0,-1,-0,0.78,0,0,101,42,98,507,0.0,121,202,60,124.0,0,1,0,0,0,0,0,0,250,250,0,181.28,,,,,,,,,,,,
5843,0,2,1.5,2.1,3.08,1.83,3.33,0.78,0.06,0.61,-0,-1,-0,0.78,0,0,101,42,98,507,0.0,121,202,60,124.0,0,1,0,0,0,0,0,0,250,250,0,181.28,0.0,0.0,0.0,0.0,0,0.0,-1,0.0,0.0,0,0.0,0.0974
5863,0,2,1.5,2.1,3.08,1.82,3.33,0.78,0.06,0.61,-0,-1,-0,0.78,0,0,101,42,98,507,0.0,121,202,60,124.0,0,1,0,0,0,0,0,0,250,250,0,181.28,,,,,,,,,,,,
5883,0,-0,1.5,2.1,3.08,1.82,3.33,0.78,0.06,0.61,-0,-1,-0,0.78,0,0,101,42,98,507,0.0,121,202,60,124.0,0,1,0,0,0,0,0,0,250,250,0,181.28,,,,,,,,,,,,
5903,0,2,1.49,2.1,3.07,1.82,3.32,0.78,0.06,0.61,-0,-1,-0,0.78,0,0,101,42,98,507,0.0,121,202,60,124.0,0,1,0,0,0,0,0,0,250,250,0,181.28,,,,,,,,,,,,
5923,0,2,1.49,2.1,3.08,1.82,3.33,0.78,0.06,0.61,-0,-1,-0,0.78,0,0,101,42,98,507,0.0,121,202,60,124.0,0,1,0,0,0,0,0,0,250,250,0,-5.59,,,,,,,,,,,,
5943,0,1,1.5,2.1,3.07,1.82,3.33,0.78,0.06,0.61,-0,-0,-0,0.78,0,0,101,42,98,507,0.0,121,202,60,124.0,0,1,0,0,0,0,0,0,250,250,0,181.28,0.0,0.0,0.0,0.0,0,0.0,-1,0.0,0.0,0,0.0,0.099
5963,0,2,1.49,2.1,3.08,1.81,3.32,0.78,0.06,0.61,-0,-0,-0,0.78,0,0,101,42,98,507,0.0,121,202,60,124.0,0,1,0,0,0,0,0,0,250,250,0,181.28,,,,,,,,,,,,
5983,0,2,1.5,2.1,3.07,1.81,3.33,0.78,0.06,0.61,-0,-1,-0,0.78,0,0,101,42,98,507,0.0,121,200,60,124.0,0,1,0,0,0,0,0,0,250,250,0,181.28,,,,,,,,,,,,
6003,0,0,1.5,2.1,3.07,1.81,3.32,0.78,0.06,0.61,-0,-0,0,0.78,0,0,101,42,98,507,0.0,121,200,60,124.0,0,1,0,0,0,0,0,0,250,250,0,181.28,,,,,,,,,,,,
6023,0,1,1.49,2.09,3.08,1.82,3.33,0.78,0.06,0.61,-0,-0,0,0.78,0,0,101,42,98,507,0.0,121,200,60,124.0,0,1,0,0,0,0,0,0,250,250,0,181.28,,,,,,,,,,,,
6043,0,0,1.5,2.1,3.08,1.81,3.33,0.77,0.06,0.61,-0,-0,0,0.78,0,0,101,42,98,507,0.0,121,200,60,124.0,0,1,0,0,0,0,0,0,250,250,0,181.28,0.0,0.0,0.0,0.0,0,0.0,-1,0.0,0.0,0,0.0,0.1007
6063,0,2,1.5,2.1,3.07,1.82,3.32,0.78,0.06,0.61,-0,-0,-0,0.78,0,0,101,42,98,507,0.0,121,200,60,124.0,0,1,0,0,0,0,0,0,250,250,0,181.28,,,,,,,,,,,,
6083,0,2,1.5,2.09,3.08,1.81,3.33,0.78,0.06,0.61,-0,-0,-0,0.78,0,0,101,42,98,507,0.0,121,199,60,124.0,0,1,0,0,0,0,0,0,250,250,0,181.28,,,,,,,,,,,,
6103,0,1,1.5,2.1,3.07,1.82,3.33,0.78,0.06,0.61,-0,-1,-0,0.78,0,0,101,42,98,507,0.0,121,199,60,124.0,0,1,0,0,0,0,0,0,250,250,0,181.28,,,,,,,,,,,,
6123,0,2,1.49,2.1,3.08,1.81,3.33,0.78,0.06,0.61,-0,-1,-0,0.78,0,0,101,42,98,507,0.0,121,199,60,124.0,0,1,0,0,0,0,0,0,250,250,0,181.28,,,,,,,,,,,,
6143,0,2,1.49,2.1,3.08,1.81,3.33,0.78,0.06,0.61,-0,-1,-0,0.78,0,0,101,42,98,507,0.0,121,199,60,124.0,0,1,0,0,0,0,0,0,250,250,0,181.28,0.0,0.0,0.0,0.0,0,0.0,-1,0.0,0.0,0,0.0,0.1024
6163,0,-0,1.5,2.1,3.07,1.81,3.33,0.78,0.06,0.61,-0,-0,-0,0.78,0,0,101,42,98,507,0.0,121,199,60,124.0,0,1,0,0,0,0,0,0,250,250,0,181.28,,,,,,,,,,,,
6183,0,2,1.5,2.1,3.08,1.82,3.32,0.78,0.06,0.61,-0,-0,-0,0.78,0,0,101,42,98,507,0.0,121,199,60,123.0,0,1,0,0,0,0,0,0,250,250,0,181.28,,,,,,,,,,,,
6203,0,0,1.5,2.1,3.08,1.82,3.32,0.78,0.06,0.61,-0,-1,-0,0.78,0,0,101,42,98,507,0.0,121,198,60,123.0,0,1,0,0,0,0,0,0,250,250,0,181.28,,,,,,,,,,,,
6223,0,0,1.5,2.1,3.07,1.82,3.33,0.78,0.06,0.61,-0,-1,-0,0.78,0,0,101,42,98,507,0.0,121,197,60,124.0,0,1,0,0,0,0,0,0,250,250,0,181.28,,,,,,,,,,,,
6243,0,0,1.5,2.1,3.08,1.81,3.33,0.77,0.07,0.61,-0,-1,-0,0.78,0,0,101,42,98,507,0.0,121,197,60,124.0,0,1,0,0,0,0,0,0,250,250,0,181.28,0.0,0.0,0.0,0.0,0,0.0,-1,0.0,0.0,0,0.0,0.104
6263,0,1,1.5,2.1,3.08,1.82,3.33,0.77,0.07,0.61,-0,-1,-0,0.78,0,0,101,42,98,507,0.0,121,197,60,124.0,0,1,0,0,0,0,0,0,250,250,0,181.28,,,,,,,,,,,,
6283,0,0,1.5,2.1,3.08,1.82,3.33,0.77,0.06,0.61,-0,-1,-0,0.78,0,0,101,42,98,507,0.0,121,197,60,124.0,0,1,0,0,0,0,0,0,250,250,0,181.28,,,,,,,,,,,,
6303,0,1,1.5,2.1,3.08,1.82,3.33,0.77,0.06,0.61,-0,-1,-0,0.78,0,0,101,42,98,507,0.0,121,197,60,124.0,0,1,0,0,0,0,0,0,250,250,0,181.28,,,,,,,,,,,,
6323,0,0,1.5,2.1,3.08,1.82,3.32,0.77,0.06,0.61,-0,-1,-0,0.78,0,0,101,42,98,507,0.0,121,197,60,124.0,0,1,0,0,0,0,0,0,250,250,0,181.28,,,,,,,,,,,,
6343,0,2,1.49,2.1,3.08,1.81,3.34,0.77,0.06,0.61,-0,-1,-0,0.78,0,0,101,42,98,507,0.0,121,197,60,123.0,0,1,0,0,0,0,0,0,250,250,0,181.28,0.0,0.0,0.0,0.0,0,0.0,-1,0.0,0.0,0,0.0,0.1057
6363,0,2,1.49,2.1,3.08,1.82,3.33,0.77,0.06,0.61,-0,-1,-0,0.78,0,0,101,42,98,507,0.0,121,197,60,124.0,0,1,0,0,0,0,0,0,250,250,0,181.28,,,,,,,,,,,,
6383,0,2,1.51,2.1,3.08,1.82,3.34,0.77,0.06,0.61,-0,-1,-0,0.78,0,0,101,42,98,507,0.0,121,197,60,123.0,0,1,0,0,0,0,0,0,250,250,0,181.28,,,,,,,,,,,,
6403,0,2,1.49,2.1,3.08,1.82,3.33,0.77,0.06,0.61,-0,-1,-0,0.78,0,0,101,42,98,507,0.0,121,197,60,124.0,0,1,0,0,0,0,0,0,250,250,0,181.28,,,,,,,,,,,,
6423,0,3,1.49,2.1,3.08,1.81,3.32,0.77,0.06,0.61,-0,-1,-0,0.78,0,0,101,42,98,507,0.0,121,196,60,124.0,0,1,0,0,0,0,0,0,250,250,0,181.28,,,,,,,,,,,,
6443,0,3,1.49,2.1,3.07,1.82,3.33,0.77,0.06,0.61,-0,-1,-0,0.77,0,0,101,42,98,507,0.0,121,194,60,124.0,0,1,0,0,0,0,0,0,250,250,0,181.28,0.0,0.0,0.0,0.0,0,0.0,-1,0.0,0.0,0,0.0,0.1074
6463,0,2,1.5,2.1,3.07,1.82,3.33,0.77,0.06,0.61,-0,-1,-0,0.78,0,0,101,42,98,507,0.0,121,194,60,124.0,0,1,0,0,0,0,0,0,250,250,0,181.28,,,,,,,,,,,,
6483,0,1,1.5,2.1,3.08,1.82,3.32,0.77,0.06,0.61,-0,-1,-0,0.78,0,0,101,42,98,507,0.0,121,194,60,124.0,0,1,0,0,0,0,0,0,250,250,0,181.28,,,,,,,,,,,,
6503,0,1,1.5,2.1,3.08,1.82,3.33,0.77,0.06,0.61,-0,-1,-0,0.78,0,0,101,42,98,507,0.0,121,194,60,124.0,0,1,0,0,0,0,0,0,250,250,0,181.28,,,,,,,,,,,,
6523,0,3,1.49,2.09,3.07,1.8,3.32,0.77,0.06,0.61,-0,-1,-0,0.78,0,0,101,42,98,508,0.0,121,194,60,123.0,0,1,0,0,0,0,0,0,250,250,0,181.28,,,,,,,,,,,,
6543,0,3,1.5,2.09,3.08,1.82,3.33,0.77,0.06,0.61,-0,-1,-0,0.78,0,0,101,42,98,508,0.0,121,194,60,123.0,0,1,0,0,0,0,0,0,250,250,0,181.28,0.0,0.0,0.0,0.0,0,0.0,-1,0.0,0.0,0,0.0,0.109
6563,0,3,1.5,2.09,3.08,1.82,3.33,0.77,0.06,0.61,-0,-1,-0,0.78,0,0,101,42,98,507,0.0,121,194,60,123.0,0,1,0,0,0,0,0,0,250,250,0,181.28,,,,,,,,,,,,
6583,0,2,1.5,2.09,3.08,1.81,3.33,0.77,0.06,0.61,0,-1,-0,0.77,0,0,101,42,98,507,0.0,121,194,60,123.0,0,1,0,0,0,0,0,0,250,250,0,181.28,,,,,,,,,,,,
6603,0,3,1.49,2.09,3.07,1.81,3.33,0.77,0.06,0.61,-0,-1,-0,0.78,0,0,101,42,98,507,0.0,121,194,60,124.0,0,1,0,0,0,0,0,0,250,250,0,181.28,,,,,,,,,,,,
6623,0,2,1.5,2.1,3.08,1.81,3.33,0.77,0.06,0.61,-0,-1,-0,0.78,0,0,101,42,98,507,0.0,121,194,60,124.0,0,1,0,0,0,0,0,0,250,250,0,181.28,,,,,,,,,,,,
6643,0,1,1.5,2.1,3.08,1.81,3.33,0.77,0.06,0.61,-0,-1,-0,0.78,0,0,101,42,98,507,0.0,121,194,60,124.0,0,1,0,0,0,0,0,0,250,250,0,-5.59,0.0,0.0,0.0,0.0,0,0.0,-1,0.0,0.0,0,0.0,0.1107
6663,0,1,1.5,2.1,3.07,1.81,3.32,0.77,0.06,0.61,-0,-1,-0,0.78,0,0,101,42,98,507,0.0,121,194,60,124.0,0,1,0,0,0,0,0,0,250,250,0,181.28,,,,,,,,,,,,
6683,0,3,1.49,2.1,3.08,1.81,3.33,0.77,0.06,0.61,0,-1,-0,0.77,0,0,101,42,98,507,0.0,121,194,60,123.0,0,1,0,0,0,0,0,0,250,250,0,181.28,,,,,,,,,,,,
6703,0,0,1.5,2.1,3.08,1.81,3.33,0.77,0.06,0.61,0,-1,-0,0.77,0,0,101,42,98,507,0.0,121,193,60,123.0,0,1,0,0,0,0,0,0,250,250,0,181.28,,,,,,,,,,,,
6723,0,3,1.5,2.1,3.07,1.82,3.33,0.77,0.06,0.61,0,-1,-0,0.77,0,0,101,42,98,507,0.0,121,192,60,123.0,0,1,0,0,0,0,0,0,250,250,0,181.28,,,,,,,,,,,,
6743,0,2,1.49,2.1,3.08,1.82,3.33,0.77,0.06,0.61,0,-1,-0,0.77,0,0,101,42,98,507,0.0,121,192,60,124.0,0,1,0,0,0,0,0,0,250,250,0,181.28,0.0,0.0,0.0,0.0,0,0.0,-1,0.0,0.0,0,0.0,0.1124
6763,0,2,1.49,2.1,3.08,1.82,3.32,0.77,0.06,0.61,-0,-1,-0,0.77,0,0,101,42,98,507,0.0,121,192,60,124.0,0,1,0,0,0,0,0,0,250,250,0,181.28,,,,,,,,,,,,
6783,0,2,1.49,2.1,3.07,1.81,3.33,0.77,0.06,0.61,-0,-1,-0,0.78,0,0,101,42,98,507,0.0,121,192,60,124.0,0,1,0,0,0,0,0,0,250,250,0,181.28,,,,,,,,,,,,
6803,0,3,1.49,2.1,3.08,1.81,3.33,0.77,0.06,0.61,-0,-1,-0,0.78,0,0,101,42,98,507,0.0,121,191,60,124.0,0,1,0,0,0,0,0,0,250,250,0,181.28,,,,,,,,,,,,
6823,0,2,1.5,2.1,3.08,1.82,3.33,0.77,0.06,0.61,-0,-1,-0,0.78,0,0,101,42,98,507,0.0,121,191,60,124.0,0,1,0,0,0,0,0,0,250,250,0,181.28,,,,,,,,,,,,
6843,0,3,1.49,2.1,3.07,1.83,3.33,0.77,0.06,0.61,-0,-1,-0,0.78,0,0,101,42,98,507,0.0,121,191,60,124.0,0,1,0,0,0,0,0,0,250,250,0,181.28,0.0,0.0,0.0,0.0,0,0.0,-1,0.0,0.0,0,0.0,0.114
6863,0,3,1.5,2.1,3.08,1.81,3.33,0.77,0.06,0.61,-0,-1,-0,0.78,0,0,101,42,98,507,0.0,121,191,60,124.0,0,1,0,0,0,0,0,0,250,250,0,181.28,,,,,,,,,,,,
6883,0,2,1.5,2.09,3.08,1.82,3.33,0.77,0.06,0.61,-0,-1,-0,0.78,0,0,101,42,98,507,0.0,121,191,60,124.0,0,1,0,0,0,0,0,0,250,250,0,181.28,,,,,,,,,,,,
6903,0,2,1.49,2.1,3.08,1.82,3.33,0.77,0.06,0.61,-0,-1,-0,0.78,0,0,101,42,98,507,0.0,121,191,60,124.0,0,1,0,0,0,0,0,0,250,250,0,181.28,,,,,,,,,,,,
6923,0,2,1.49,2.1,3.08,1.82,3.33,0.78,0.06,0.61,-0,-1,-0,0.78,0,0,101,42,98,507,0.0,121,191,60,124.0,0,1,0,0,0,0,0,0,250,250,0,181.28,,,,,,,,,,,,
6943,0,3,1.5,2.1,3.08,1.81,3.33,0.77,0.06,0.61,-0,-1,-0,0.78,0,0,101,42,98,507,0.0,121,189,60,124.0,0,1,0,0,0,0,0,0,250,250,0,181.28,0.0,0.0,0.0,0.0,0,0.0,-1,0.0,0.0,0,0.0,0.1157
6963,0,2,1.5,2.1,3.08,1.82,3.33,0.77,0.06,0.61,-0,-1,-0,0.78,0,0,101,42,98,507,0.0,121,189,60,124.0,0,1,0,0,0,0,0,0,250,250,0,181.28,,,,,,,,,,,,
6983,0,2,1.5,2.1,3.08,1.82,3.34,0.77,0.06,0.61,-0,-1,-0,0.78,0,0,101,42,98,507,0.0,121,189,60,124.0,0,1,0,0,0,0,0,0,250,250,0,181.28,,,,,,,,,,,,
7003,0,2,1.49,2.1,3.08,1.82,3.33,0.78,0.06,0.61,-0,-1,-0,0.78,0,0,101,42,98,507,0.0,121,189,60,124.0,0,1,0,0,0,0,0,0,250,250,0,181.28,,,,,,,,,,,,
7023,0,3,1.49,2.1,3.08,1.81,3.34,0.78,0.06,0.61,-0,-1,-0,0.78,0,0,101,42,98,507,0.0,121,189,60,124.0,0,1,0,0,0,0,0,0,250,250,0,181.28,,,,,,,,,,,,
7043,0,1,1.5,2.1,3.08,1.82,3.33,0.78,0.06,0.61,-0,-1,-0,0.78,0,0,101,42,98,507,0.0,121,189,60,124.0,0,1,0,0,0,0,0,0,250,250,0,181.28,0.0,0.0,0.0,0.0,0,0.0,-1,0.0,0.0,0,0.0,0.1174
7063,0,2,1.5,2.1,3.08,1.82,3.33,0.78,0.06,0.61,-0,-1,-0,0.78,0,0,101,42,98,507,0.0,121,189,60,124.0,0,1,0,0,0,0,0,0,250,250,0,181.28,,,,,,,,,,,,
7083,0,2,1.49,2.1,3.08,1.82,3.33,0.78,0.06,0.61,-0,-1,-0,0.78,0,0,101,42,98,507,0.0,121,189,60,124.0,0,1,0,0,0,0,0,0,250,250,0,181.28,,,,,,,,,,,,
7103,0,2,1.49,2.1,3.08,1.83,3.32,0.78,0.06,0.61,-0,-1,-0,0.78,0,3,101,42,98,507,0.0,121,189,60,124.0,0,1,0,0,0,0,0,0,250,250,0,181.28,,,,,,,,,,,,
7123,0,2,1.5,2.1,3.08,1.82,3.33,0.78,0.06,0.61,-0,-1,-0,0.78,0,3,101,42,98,507,0.0,121,189,60,124.0,0,1,0,0,0,0,0,0,250,250,0,-5.59,,,,,,,,,,,,
7143,0,1,1.5,2.1,3.08,1.82,3.32,0.78,0.06,0.61,-0,-1,-0,0.78,0,3,101,42,98,507,0.0,121,189,60,124.0,0,1,0,0,0,0,0,0,250,250,0,181.28,0.0,0.0,0.0,0.0,0,0.0,-1,0.0,0.0,0,0.0,0.119
7163,0,2,1.5,2.09,3.08,1.81,3.33,0.78,0.06,0.61,-0,-1,-0,0.78,0,3,101,42,98,507,0.0,121,189,60,124.0,0,1,0,0,0,0,0,0,250,250,0,181.28,,,,,,,,,,,,
7183,0,2,1.49,2.1,3.08,1.82,3.32,0.78,0.06,0.61,-0,-1,-0,0.78,0,3,101,42,98,507,0.0,121,189,60,124.0,0,1,0,0,0,0,0,0,250,250,0,181.28,,,,,,,,,,,,
7203,0,1,1.5,2.1,3.07,1.82,3.32,0.78,0.06,0.61,-0,-1,-0,0.78,0,3,101,42,98,507,0.0,121,189,60,124.0,0,1,0,0,0,0,0,0,250,250,0,181.28,,,,,,,,,,,,
7223,0,3,1.49,2.1,3.08,1.81,3.33,0.78,0.06,0.61,-0,-1,-0,0.78,0,3,101,42,98,507,0.0,121,188,60,124.0,0,1,0,0,0,0,0,0,250,250,0,181.28,,,,,,,,,,,,
7243,0,2,1.49,2.1,3.07,1.82,3.32,0.78,0.06,0.61,-0,-1,-0,0.78,0,3,101,42,98,507,0.0,121,188,60,124.0,0,1,0,0,0,0,0,0,250,250,0,181.28,0.0,0.0,0.0,0.0,0,0.0,-1,0.0,0.0,0,0.0,0.1207
7263,0,2,1.5,2.1,3.07,1.82,3.32,0.78,0.06,0.61,-0,-1,-0,0.78,0,3,101,42,98,507,0.0,121,187,60,124.0,0,1,0,0,0,0,0,0,250,250,0,181.28,,,,,,,,,,,,
7283,0,0,1.5,2.1,3.08,1.82,3.32,0.78,0.06,0.61,-0,-1,-0,0.78,0,3,101,42,98,507,0.0,121,186,60,124.0,0,1,0,0,0,0,0,0,250,250,0,181.28,,,,,,,,,,,,
7303,0,1,1.49,2.1,3.08,1.81,3.32,0.78,0.06,0.61,-0,-1,-0,0.78,0,3,101,42,98,507,0.0,121,186,60,124.0,0,1,0,0,0,0,0,0,250,250,0,181.28,,,,,,,,,,,,
7323,0,2,1.5,2.1,3.07,1.82,3.33,0.78,0.06,0.61,-0,-1,-0,0.78,0,3,101,42,98,507,0.0,121,186,60,124.0,0,1,0,0,0,0,0,0,250,250,0,181.28,,,,,,,,,,,,
7343,0,1,1.47,2.09,3.08,1.82,3.33,0.78,0.06,0.61,-0,-1,-0,0.78,0,3,101,42,98,507,0.0,121,186,60,124.0,0,1,0,0,0,0,0,0,250,250,0,181.28,0.0,0.0,0.0,0.0,0,0.0,-1,0.0,0.0,0,0.0,0.1224
7363,0,2,1.5,2.09,3.07,1.81,3.32,0.78,0.06,0.61,-0,-1,-0,0.78,0,3,101,42,98,508,0.0,121,186,60,124.0,0,1,0,0,0,0,0,0,250,250,0,181.28,,,,,,,,,,,,
7383,0,2,1.49,2.1,3.07,1.82,3.33,0.78,0.06,0.61,-0,-1,-0,0.78,0,3,101,42,98,508,0.0,121,186,60,124.0,0,1,0,0,0,0,0,0,250,250,0,181.28,,,,,,,,,,,,
7403,0,1,1.5,2.1,3.07,1.82,3.32,0.78,0.06,0.61,-0,-1,-0,0.78,0,3,101,42,98,508,0.0,121,186,60,124.0,0,1,0,0,0,0,0,0,250,250,0,181.28,,,,,,,,,,,,
7423,0,2,1.5,2.1,3.08,1.82,3.33,0.78,0.06,0.61,-0,-1,-0,0.78,0,3,101,42,98,507,0.0,121,186,60,124.0,0,1,0,0,0,0,0,0,250,250,0,181.28,,,,,,,,,,,,
7443,0,0,1.5,2.1,3.08,1.81,3.33,0.78,0.06,0.61,-0,-1,-0,0.78,0,3,101,42,98,507,0.0,121,186,60,124.0,0,1,0,0,0,0,0,0,250,250,0,181.28,0.0,0.0,0.0,0.0,0,0.0,-1,0.0,0.0,0,0.0,0.124
7463,0,0,1.5,2.1,3.08,1.82,3.32,0.78,0.06,0.61,-0,-1,-0,0.78,0,3,101,42,98,507,0.0,121,186,60,124.0,0,1,0,0,0,0,0,0,250,250,0,181.28,,,,,,,,,,,,
7483,0,2,1.49,2.1,3.08,1.82,3.33,0.78,0.06,0.61,-0,-1,-0,0.78,0,3,101,42,98,507,0.0,121,186,60,124.0,0,1,0,0,0,0,0,0,250,250,0,181.28,,,,,,,,,,,,
7503,0,1,1.5,2.1,3.08,1.82,3.33,0.78,0.06,0.61,-0,-1,-0,0.78,0,3,101,42,98,507,0.0,121,186,60,124.0,0,1,0,0,0,0,0,0,250,250,0,181.28,,,,,,,,,,,,
7523,0,2,1.5,2.11,3.07,1.82,3.33,0.78,0.06,0.61,-0,-1,-0,0.78,0,3,101,42,98,507,0.0,121,185,60,124.0,0,1,0,0,0,0,0,0,250,250,0,181.28,,,,,,,,,,,,
7543,0,0,1.5,2.1,3.08,1.82,3.33,0.78,0.06,0.61,-0,-1,-0,0.78,0,3,101,42,98,507,0.0,121,184,60,124.0,0,1,0,0,0,0,0,0,250,250,0,181.28,0.0,0.0,0.0,0.0,0,0.0,-1,0.0,0.0,0,0.0,0.1257
7563,0,3,1.5,2.1,3.08,1.81,3.33,0.78,0.06,0.61,-0,-1,-0,0.78,0,3,101,42,98,507,0.0,121,183,60,124.0,0,1,0,0,0,0,0,0,250,250,0,181.28,,,,,,,,,,,,
7583,0,3,1.49,2.1,3.08,1.82,3.33,0.78,0.06,0.61,0,-1,-0,0.78,0,3,101,42,98,507,0.0,121,183,60,124.0,0,1,0,0,0,0,0,0,250,250,0,181.28,,,,,,,,,,,,
7603,0,2,1.49,2.1,3.08,1.81,3.33,0.77,0.06,0.61,0,-0,-0,0.78,0,3,101,42,98,507,0.0,121,183,60,124.0,0,1,0,0,0,0,0,0,250,250,0,181.28,,,,,,,,,,,,
7623,0,2,1.49,2.1,3.08,1.81,3.33,0.77,0.06,0.61,-0,-0,-0,0.78,0,3,101,42,98,507,0.0,121,183,60,124.0,0,1,0,0,0,0,0,0,250,250,0,181.28,,,,,,,,,,,,
7643,0,2,1.5,2.1,3.08,1.82,3.33,0.77,0.06,0.61,-0,-0,-0,0.78,0,3,101,42,98,507,0.0,120,183,60,124.0,0,1,0,0,0,0,0,0,250,250,0,181.28,0.0,0.0,0.0,0.0,0,0.0,-1,0.0,0.0,0,0.0,0.1274
7663,0,1,1.49,2.1,3.08,1.81,3.33,0.77,0.06,0.61,-0,-0,-0,0.77,0,3,101,42,98,507,0.0,121,183,60,124.0,0,1,0,0,0,0,0,0,250,250,0,181.28,,,,,,,,,,,,
7683,0,2,1.5,2.1,3.08,1.82,3.33,0.77,0.06,0.61,-0,-0,-0,0.78,0,3,101,42,98,507,0.0,121,183,60,124.0,0,1,0,0,0,0,0,0,250,250,0,181.28,,,,,,,,,,,,
7703,0,2,1.5,2.09,3.08,1.82,3.33,0.77,0.06,0.61,-0,-0,-0,0.77,0,3,101,42,98,507,0.0,121,183,60,124.0,0,1,0,0,0,0,0,0,250,250,0,181.28,,,,,,,,,,,,
7723,0,2,1.5,2.1,3.07,1.82,3.33,0.77,0.06,0.61,-0,-0,-0,0.77,0,3,101,42,98,507,0.0,121,183,60,124.0,0,1,0,0,0,0,0,0,250,250,0,181.28,,,,,,,,,,,,
7743,0,3,1.5,2.09,3.08,1.81,3.33,0.77,0.06,0.61,-0,-0,-0,0.78,0,3,101,42,98,507,0.0,121,183,60,124.0,0,1,0,0,0,0,0,0,250,250,0,181.28,0.0,0.0,0.0,0.0,0,0.0,-1,0.0,0.0,0,0.0,0.129
7763,0,2,1.5,2.1,3.08,1.81,3.33,0.77,0.06,0.61,-0,-0,-0,0.78,0,3,101,42,98,507,0.0,121,183,60,124.0,0,1,0,0,0,0,0,0,250,250,0,181.28,,,,,,,,,,,,
7783,0,3,1.49,2.1,3.08,1.82,3.33,0.77,0.06,0.61,-0,-1,-0,0.77,0,3,101,42,98,507,0.0,121,183,60,124.0,0,1,0,0,0,0,0,0,250,250,0,181.28,,,,,,,,,,,,
7803,0,2,1.5,2.1,3.08,1.83,3.33,0.77,0.06,0.61,-0,-1,-0,0.77,0,3,101,42,98,507,0.0,121,183,60,124.0,0,1,0,0,0,0,0,0,250,250,0,181.28,,,,,,,,,,,,
7823,0,2,1.49,2.09,3.07,1.82,3.33,0.77,0.06,0.61,-0,-1,-0,0.77,0,3,101,42,98,507,0.0,121,183,60,124.0,0,1,0,0,0,0,0,0,250,250,0,181.28,,,,,,,,,,,,
7843,0,2,1.5,2.09,3.08,1.82,3.33,0.77,0.06,0.61,-0,-1,-0,0.77,0,3,101,42,98,507,0.0,121,183,60,124.0,0,1,0,0,0,0,0,0,250,250,0,181.28,0.0,0.0,0.0,0.0,0,0.0,-1,0.0,0.0,0,0.0,0.1307
7863,0,2,1.49,2.1,3.08,1.82,3.32,0.77,0.06,0.61,-0,-1,-0,0.77,0,3,101,42,98,507,0.0,121,183,60,124.0,0,1,0,0,0,0,0,0,250,250,0,181.28,,,,,,,,,,,,
7883,0,0,1.5,2.1,3.07,1.82,3.33,0.77,0.06,0.61,-0,-1,-0,0.77,0,3,101,42,98,507,0.0,121,182,60,123.0,0,1,0,0,0,0,0,0,250,250,0,181.28,,,,,,,,,,,,
7903,0,2,1.5,2.1,3.08,1.82,3.33,0.77,0.06,0.61,-0,-1,-0,0.77,0,3,101,42,98,507,0.0,121,181,60,123.0,0,1,0,0,0,0,0,0,250,250,0,181.28,,,,,,,,,,,,
7923,0,1,1.49,2.1,3.08,1.82,3.33,0.77,0.06,0.61,-0,-1,-0,0.77,0,3,101,42,98,507,0.0,121,181,60,123.0,0,1,0,0,0,0,0,0,250,250,0,181.28,,,,,,,,,,,,
7943,0,3,1.49,2.09,3.07,1.81,3.33,0.77,0.06,0.61,-0,-1,-0,0.77,0,3,101,42,98,507,0.0,121,180,60,124.0,0,1,0,0,0,0,0,0,250,250,0,181.28,0.0,0.0,0.0,0.0,0,0.0,-1,0.0,0.0,0,0.0,0.1324
7963,0,0,1.5,2.1,3.08,1.82,3.33,0.77,0.06,0.61,-0,-1,-0,0.77,0,3,101,42,98,507,0.0,121,180,60,124.0,0,1,0,0,0,0,0,0,250,250,0,181.28,,,,,,,,,,,,
7983,0,1,1.5,2.1,3.07,1.81,3.33,0.77,0.06,0.61,-0,-1,-0,0.77,0,3,101,42,98,507,0.0,121,180,60,124.0,0,1,0,0,0,0,0,0,250,250,0,181.28,,,,,,,,,,,,
8003,0,2,1.5,2.09,3.08,1.82,3.33,0.77,0.06,0.61,-0,-1,-0,0.77,0,3,101,42,98,507,0.0,121,180,60,124.0,0,1,0,0,0,0,0,0,250,250,0,181.28,,,,,,,,,,,,
8023,0,2,1.49,2.1,3.08,1.82,3.33,0.77,0.06,0.61,-0,-1,-0,0.77,0,3,101,42,98,507,0.0,121,180,60,124.0,0,1,0,0,0,0,0,0,250,250,0,181.28,,,,,,,,,,,,
8043,0,2,1.49,2.1,3.08,1.82,3.32,0.77,0.06,0.61,-0,-1,-0,0.78,0,3,101,42,98,507,0.0,121,180,60,124.0,0,1,0,0,0,0,0,0,250,250,0,181.28,0.0,0.0,0.0,0.0,0,0.0,-1,0.0,0.0,0,0.0,0.134
8063,0,2,1.5,2.1,3.07,1.82,3.32,0.77,0.06,0.61,-0,-1,-0,0.78,0,3,101,42,98,507,0.0,121,180,60,123.0,0,1,0,0,0,0,0,0,250,250,0,181.28,,,,,,,,,,,,
8083,0,1,1.49,2.1,3.08,1.82,3.32,0.77,0.06,0.61,-0,-1,-0,0.78,0,3,101,42,98,507,0.0,121,180,60,124.0,0,1,0,0,0,0,0,0,250,250,0,181.28,,,,,,,,,,,,
8103,0,2,1.5,2.09,3.08,1.81,3.33,0.77,0.06,0.61,-0,-1,-0,0.78,0,3,101,42,98,507,0.0,121,180,60,124.0,0,1,0,0,0,0,0,0,250,250,0,181.28,,,,,,,,,,,,
8123,0,2,1.49,2.1,3.07,1.83,3.33,0.77,0.06,0.61,-0,-1,-0,0.78,0,3,101,42,98,507,0.0,121,180,60,124.0,0,1,0,0,0,0,0,0,250,250,0,181.28,,,,,,,,,,,,
8143,0,1,1.5,2.1,3.08,1.82,3.32,0.77,0.06,0.61,-0,-1,-0,0.78,0,3,101,42,98,507,0.0,121,180,60,124.0,0,1,0,0,0,0,0,0,250,250,0,181.28,0.0,0.0,0.0,0.0,0,0.0,-1,0.0,0.0,0,0.0,0.1357
8163,0,1,1.5,2.1,3.08,1.83,3.33,0.77,0.06,0.61,-0,-1,-0,0.78,0,3,101,42,98,507,0.0,121,180,60,124.0,0,1,0,0,0,0,0,0,250,250,0,181.28,,,,,,,,,,,,
8183,0,0,1.5,2.1,3.08,1.81,3.34,0.77,0.06,0.61,-0,-1,-0,0.78,0,3,101,42,98,507,0.0,121,180,60,124.0,0,1,0,0,0,0,0,0,250,250,0,181.28,,,,,,,,,,,,
8203,0,2,1.49,2.1,3.08,1.81,3.33,0.77,0.06,0.61,-0,-1,-0,0.78,0,3,101,42,98,507,0.0,121,179,60,124.0,0,1,0,0,0,0,0,0,250,250,0,181.28,,,,,,,,,,,,
8223,0,1,1.5,2.1,3.07,1.82,3.33,0.77,0.06,0.61,-0,-1,-0,0.78,0,3,101,42,98,507,0.0,121,179,60,123.0,0,1,0,0,0,0,0,0,250,250,0,181.28,,,,,,,,,,,,
8243,0,2,1.49,2.1,3.08,1.83,3.33,0.77,0.06,0.61,-0,-1,-0,0.78,0,3,101,42,98,507,0.0,121,179,60,124.0,0,1,0,0,0,0,0,0,250,250,0,181.28,0.0,0.0,0.0,0.0,0,0.0,-1,0.0,0.0,0,0.0,0.1374
8263,0,1,1.5,2.1,3.08,1.81,3.33,0.77,0.06,0.61,-0,-1,-0,0.78,0,3,101,42,98,507,0.0,121,178,60,124.0,0,1,0,0,0,0,0,0,250,250,0,181.28,,,,,,,,,,,,
8283,0,1,1.5,2.1,3.07,1.82,3.33,0.77,0.06,0.61,-0,-1,-0,0.78,0,3,101,42,98,507,0.0,121,178,60,124.0,0,1,0,0,0,0,0,0,250,250,0,181.28,,,,,,,,,,,,
8303,0,1,1.5,2.1,3.07,1.82,3.33,0.77,0.06,0.61,-0,-1,-0,0.78,0,3,101,42,98,507,0.0,121,178,60,124.0,0,1,0,0,0,0,0,0,250,250,0,181.28,,,,,,,,,,,,
8323,0,1,1.51,2.1,3.08,1.81,3.33,0.77,0.06,0.61,-0,-1,-0,0.78,0,3,101,42,98,507,0.0,121,178,60,124.0,0,1,0,0,0,0,0,0,250,250,0,181.28,,,,,,,,,,,,
8343,0,2,1.49,2.1,3.08,1.82,3.33,0.77,0.06,0.61,-0,-1,-0,0.78,0,3,101,42,98,507,0.0,121,177,60,124.0,0,1,0,0,0,0,0,0,250,250,0,181.28,0.0,0.0,0.0,0.0,0,0.0,-1,0.0,0.0,0,0.0,0.1391
8363,0,0,1.5,2.1,3.08,1.82,3.32,0.77,0.06,0.61,-0,-1,-0,0.78,0,3,101,42,98,507,0.0,121,178,60,124.0,0,1,0,0,0,0,0,0,250,250,0,181.28,,,,,,,,,,,,
8383,0,1,1.5,2.1,3.08,1.81,3.33,0.78,0.06,0.61,-0,-1,-0,0.78,0,3,101,42,98,507,0.0,121,178,60,124.0,0,1,0,0,0,0,0,0,250,250,0,181.28,,,,,,,,,,,,
8403,0,2,1.49,2.1,3.08,1.81,3.33,0.78,0.06,0.61,-0,-1,-0,0.78,0,3,101,42,98,507,0.0,121,178,60,124.0,0,1,0,0,0,0,0,0,250,250,0,-5.59,,,,,,,,,,,,
8423,0,2,1.49,2.1,3.08,1.81,3.33,0.78,0.06,0.61,-0,-1,-0,0.78,0,3,101,42,98,507,0.0,121,178,60,123.0,0,1,0,0,0,0,0,0,250,250,0,181.28,,,,,,,,,,,,
8443,0,3,1.49,2.1,3.08,1.83,3.33,0.78,0.06,0.61,-0,-1,-0,0.78,0,3,101,42,98,507,0.0,121,178,60,124.0,0,1,0,0,0,0,0,0,250,250,0,181.28,0.0,0.0,0.0,0.0,0,0.0,-1,0.0,0.0,0,0.0,0.1407
8463,0,2,1.49,2.1,3.08,1.82,3.32,0.78,0.06,0.61,-0,-1,-0,0.78,0,3,101,42,98,507,0.0,121,178,60,124.0,0,1,0,0,0,0,0,0,250,250,0,181.28,,,,,,,,,,,,
8483,0,3,1.49,2.1,3.08,1.81,3.33,0.78,0.06,0.61,-0,-1,-0,0.78,0,3,101,42,98,507,0.0,121,178,60,124.0,0,1,0,0,0,0,0,0,250,250,0,181.28,,,,,,,,,,,,
8503,0,1,1.5,2.1,3.07,1.82,3.33,0.78,0.06,0.61,-0,-1,-0,0.78,0,3,101,42,98,507,0.0,121,178,60,124.0,0,1,0,0,0,0,0,0,250,250,0,181.28,,,,,,,,,,,,
8523,0,3,1.49,2.1,3.07,1.82,3.33,0.78,0.06,0.61,-0,-1,-0,0.78,0,3,101,42,98,507,0.0,121,178,60,123.0,0,1,0,0,0,0,0,0,250,250,0,181.28,,,,,,,,,,,,
8543,0,2,1.5,2.09,3.08,1.82,3.33,0.78,0.06,0.61,-0,-1,-0,0.78,0,3,101,42,98,507,0.0,121,178,60,123.0,0,1,0,0,0,0,0,0,250,250,0,181.28,0.0,0.0,0.0,0.0,0,0.0,-1,0.0,0.0,0,0.0,0.1424
8563,0,2,1.49,2.1,3.08,1.81,3.33,0.78,0.06,0.61,-0,-1,-0,0.78,0,3,101,42,98,507,0.0,121,178,60,123.0,0,1,0,0,0,0,0,0,250,250,0,181.28,,,,,,,,,,,,
8583,0,2,1.49,2.1,3.08,1.81,3.32,0.78,0.06,0.61,-0,-1,-0,0.78,0,3,101,42,98,507,0.0,121,178,60,123.0,0,1,0,0,0,0,0,0,250,250,0,181.28,,,,,,,,,,,,
8603,0,0,1.5,2.1,3.07,1.82,3.32,0.77,0.06,0.61,-0,-1,-0,0.78,0,3,101,42,98,507,0.0,121,178,60,123.0,0,1,0,0,0,0,0,0,250,250,0,181.28,,,,,,,,,,,,
8623,0,2,1.49,2.09,3.08,1.82,3.33,0.77,0.06,0.61,-0,-1,-0,0.78,0,3,101,42,98,507,0.0,121,178,60,123.0,0,1,0,0,0,0,0,0,250,250,0,181.28,,,,,,,,,,,,
8643,0,3,1.49,2.09,3.07,1.82,3.33,0.78,0.06,0.61,-0,-1,-0,0.78,0,3,101,42,98,507,0.0,121,178,60,123.0,0,1,0,0,0,0,0,0,250,250,0,181.28,0.0,0.0,0.0,0.0,0,0.0,-1,0.0,0.0,0,0.0,0.144
8663,0,0,1.49,2.1,3.08,1.81,3.33,0.78,0.06,0.61,-0,-1,-0,0.78,0,3,101,42,98,507,0.0,121,178,60,123.0,0,1,0,0,0,0,0,0,250,250,0,181.28,,,,,,,,,,,,
8683,0,2,1.5,2.1,3.07,1.82,3.33,0.78,0.06,0.61,-0,-1,-0,0.78,0,3,101,42,98,507,0.0,121,178,60,123.0,0,1,0,0,0,0,0,0,250,250,0,181.28,,,,,,,,,,,,
8703,0,0,1.5,2.1,3.08,1.82,3.33,0.78,0.06,0.61,-0,-1,-0,0.78,0,3,101,42,98,507,0.0,121,175,60,123.0,0,1,0,0,0,0,0,0,250,250,0,181.28,,,,,,,,,,,,
8723,0,2,1.49,2.1,3.08,1.81,3.33,0.78,0.06,0.61,-0,-1,-0,0.78,0,3,101,42,98,507,0.0,121,175,60,123.0,0,1,0,0,0,0,0,0,250,250,0,181.28,,,,,,,,,,,,
8743,0,3,1.49,2.09,3.07,1.81,3.33,0.78,0.06,0.61,-0,-1,-0,0.78,0,3,101,42,98,507,0.0,121,175,60,123.0,0,1,0,0,0,0,0,0,250,250,0,181.28,0.0,0.0,0.0,0.0,0,0.0,-1,0.0,0.0,0,0.0,0.1457
8763,0,2,1.49,2.1,3.08,1.82,3.33,0.78,0.06,0.61,-0,-1,-0,0.78,0,3,101,42,98,507,0.0,121,175,60,123.0,0,1,0,0,0,0,0,0,250,250,0,181.28,,,,,,,,,,,,
8783,0,2,1.49,2.1,3.07,1.81,3.32,0.78,0.06,0.61,-0,-1,-0,0.78,0,3,101,42,98,507,0.0,121,175,60,123.0,0,1,0,0,0,0,0,0,250,250,0,181.28,,,,,,,,,,,,
8803,0,2,1.5,2.1,3.07,1.82,3.32,0.78,0.06,0.61,-0,-1,-0,0.78,0,3,101,42,98,507,0.0,123,175,60,113.0,0,1,0,0,0,0,0,0,250,250,0,181.28,,,,,,,,,,,,
8823,0,2,1.49,2.09,3.07,1.81,3.33,0.79,0.06,0.62,-0,-1,-0,0.79,0,3,101,42,98,506,0.0,125,175,60,93.0,0,1,0,0,0,0,0,0,250,250,0,181.28,,,,,,,,,,,,
8843,0,1,1.5,2.1,3.07,1.81,3.33,0.79,0.06,0.63,-0,-1,-0,0.79,0,3,101,42,98,505,0.0,129,175,60,101.0,0,1,0,0,0,0,0,0,250,250,0,181.28,0.0,0.0,0.0,0.0,0,0.0,-1,0.0,0.0,0,0.0,0.1474
8863,0,2,1.49,2.1,3.07,1.82,3.32,0.79,0.06,0.63,-0,-1,-0,0.79,0,3,101,42,98,504,0.0,132,175,60,103.0,0,1,0,0,0,0,0,0,250,250,0,181.28,,,,,,,,,,,,
8883,0,2,1.5,2.09,3.08,1.82,3.33,0.79,0.06,0.63,-0,-1,-1,0.79,0,3,101,42,98,503,0.0,130,175,60,106.0,0,1,0,0,0,0,0,0,250,250,0,181.28,,,,,,,,,,,,
8903,0,1,1.5,2.1,3.07,1.81,3.33,0.78,0.06,0.63,-0,-1,-1,0.79,0,3,101,42,98,502,0.0,131,175,60,107.0,0,1,0,0,0,0,0,0,250,250,0,181.28,,,,,,,,,,,,
8923,0,2,1.49,2.1,3.07,1.82,3.32,0.78,0.06,0.63,-0,-1,-0,0.78,0,3,101,42,97,502,0.0,132,175,60,107.0,0,1,0,0,0,0,0,0,250,250,0,181.28,,,,,,,,,,,,
8943,0,2,1.49,2.1,3.08,1.82,3.33,0.78,0.06,0.62,-0,-1,-0,0.78,0,3,101,42,96,501,0.0,131,174,60,107.0,0,1,0,0,0,0,0,0,250,250,0,181.28,0.0,0.0,0.0,0.0,0,0.0,-1,0.0,0.0,0,0.0,0.149
8963,0,2,1.5,2.09,3.07,1.81,3.33,0.78,0.06,0.62,-0,-1,-1,0.78,0,3,101,42,98,501,0.0,133,173,60,105.0,0,1,0,0,0,0,0,0,250,250,0,181.28,,,,,,,,,,,,
8983,0,1,1.5,2.1,3.07,1.81,3.33,0.78,0.06,0.62,-0,-1,-0,0.78,0,3,101,42,98,502,0.0,134,173,60,109.0,0,1,0,0,0,0,0,0,250,250,0,181.28,,,,,,,,,,,,
9003,0,2,1.5,2.1,3.08,1.82,3.32,0.78,0.06,0.62,-0,-0,-0,0.79,0,3,101,42,97,502,0.0,131,173,60,111.0,0,1,0,0,0,0,0,0,250,250,0,181.28,,,,,,,,,,,,
9023,0,2,1.49,2.1,3.08,1.81,3.33,0.77,0.06,0.61,-0,-0,-0,0.78,0,3,101,42,96,502,0.0,130,173,60,111.0,0,1,0,0,0,0,0,0,250,250,0,181.28,,,,,,,,,,,,
9043,0,2,1.49,2.1,3.07,1.82,3.32,0.77,0.06,0.61,-0,-0,-0,0.77,0,3,101,42,97,502,0.0,134,173,60,108.0,0,1,0,0,0,0,0,0,250,250,0,181.28,0.0,0.0,0.0,0.0,0,0.0,-1,0.0,0.0,0,0.0,0.1507
9063,0,2,1.49,2.1,3.07,1.82,3.33,0.77,0.06,0.62,-0,-1,-0,0.77,0,3,101,42,98,502,0.0,134,173,60,110.0,0,1,0,0,0,0,0,0,250,250,0,181.28,,,,,,,,,,,,
9083,0,1,1.49,2.09,3.07,1.82,3.32,0.77,0.06,0.62,0,-0,-0,0.77,0,3,101,42,97,502,0.0,132,173,60,112.0,0,1,0,0,0,0,0,0,250,250,0,-5.59,,,,,,,,,,,,
9103,0,1,1.5,2.1,3.07,1.82,3.32,0.77,0.06,0.62,-0,-0,-0,0.77,0,3,101,42,96,502,0.0,131,173,60,112.0,0,1,0,0,0,0,0,0,250,250,0,181.28,,,,,,,,,,,,
9123,0,0,1.5,2.1,3.08,1.81,3.33,0.77,0.06,0.62,-0,-1,-0,0.77,0,3,101,42,97,502,0.0,131,173,60,109.0,0,1,0,0,0,0,0,0,250,250,0,181.28,,,,,,,,,,,,
9143,0,2,1.49,2.09,3.08,1.82,3.32,0.77,0.07,0.62,-0,-0,-0,0.77,0,0,101,42,98,502,0.0,132,173,60,111.0,0,1,0,0,0,0,0,0,250,250,0,181.28,0.0,0.0,0.0,0.0,0,0.0,-1,0.0,0.0,0,0.0,0.1524
9163,0,0,1.5,2.1,3.07,1.81,3.32,0.79,0.06,0.64,-0,-1,-0,0.79,0,0,101,42,97,502,0.0,128,173,60,112.0,0,1,0,0,0,0,0,0,250,250,0,181.28,,,,,,,,,,,,
9183,0,2,1.49,2.1,3.08,1.81,3.32,0.79,0.06,0.64,-0,-1,-0,0.79,0,3,101,42,96,502,0.0,131,173,60,112.0,0,1,0,0,0,0,0,0,250,250,0,181.28,,,,,,,,,,,,
9203,0,2,1.49,2.09,3.08,1.82,3.32,0.79,0.06,0.64,-0,-1,-0,0.79,0,3,101,42,98,502,0.0,128,173,60,111.0,0,1,0,0,0,0,0,0,250,250,0,181.28,,,,,,,,,,,,
9223,0,2,1.5,2.1,3.07,1.82,3.32,0.78,0.06,0.63,-0,-1,-1,0.78,0,3,101,42,98,502,0.0,128,172,60,112.0,0,1,0,0,0,0,0,0,250,250,0,181.28,,,,,,,,,,,,
9243,0,3,1.49,2.1,3.08,1.81,3.32,0.78,0.06,0.63,-0,-1,-0,0.79,0,3,101,42,97,502,0.0,126,173,60,112.0,0,1,0,0,0,0,0,0,250,250,0,181.28,0.0,0.0,0.0,0.0,0,0.0,-1,0.0,0.0,0,0.0,0.154
9263,0,2,1.49,2.09,3.08,1.81,3.33,0.78,0.06,0.64,-0,-1,-0,0.78,0,3,101,42,96,502,0.0,127,173,60,110.0,0,1,0,0,0,0,0,0,250,250,0,181.28,,,,,,,,,,,,
9283,0,2,1.49,2.1,3.07,1.81,3.33,0.78,0.06,0.62,-0,-0,-0,0.78,0,3,101,42,98,502,0.0,131,173,60,110.0,0,1,0,0,0,0,0,0,250,250,0,181.28,,,,,,,,,,,,
9303,0,0,1.5,2.1,3.07,1.81,3.32,0.77,0.06,0.61,-0,-0,-1,0.77,0,3,101,42,97,502,0.0,128,173,60,112.0,0,1,0,0,0,0,0,0,250,250,0,181.28,,,,,,,,,,,,
9323,0,2,1.49,2.09,3.08,1.81,3.32,0.77,0.06,0.62,-0,-1,-1,0.77,0,3,101,42,96,502,0.0,128,173,60,111.0,0,1,0,0,0,0,0,0,250,250,0,181.28,,,,,,,,,,,,
9343,0,0,1.5,2.1,3.08,1.82,3.32,0.77,0.06,0.62,-0,-0,-1,0.77,0,3,101,42,97,502,0.0,131,173,60,110.0,0,1,0,0,0,0,0,0,250,250,0,181.28,0.0,0.0,0.0,0.0,0,0.0,-1,0.0,0.0,0,0.0,0.1557
9363,0,2,1.49,2.09,3.07,1.82,3.32,0.77,0.06,0.62,-0,-1,-0,0.77,0,3,101,42,98,502,0.0,131,173,60,111.0,0,1,0,0,0,0,0,0,250,250,0,181.28,,,,,,,,,,,,
9383,0,3,1.49,2.1,3.08,1.82,3.32,0.78,0.07,0.61,-0,-0,-1,0.78,0,3,101,42,97,502,0.0,127,173,60,113.0,0,1,0,0,0,0,0,0,250,250,0,181.28,,,,,,,,,,,,
9403,0,1,1.49,2.1,3.08,1.82,3.32,0.78,0.06,0.6,-0,-0,-1,0.78,0,3,101,42,96,502,0.0,127,173,60,110.0,0,1,0,0,0,0,0,0,250,250,0,181.28,,,,,,,,,,,,
9423,0,0,1.5,2.1,3.07,1.82,3.32,0.77,0.06,0.6,-0,-0,-1,0.78,0,3,101,42,98,502,0.0,128,171,60,110.0,0,1,0,0,0,0,0,0,250,250,0,181.28,,,,,,,,,,,,
9443,0,1,1.5,2.11,3.07,1.83,3.33,0.78,0.06,0.61,-0,-0,-0,0.78,0,3,101,42,98,502,0.0,129,170,60,112.0,0,1,0,0,0,0,0,0,250,250,0,181.28,0.0,0.0,0.0,0.0,0,0.0,-1,0.0,0.0,0,0.0,0.1574
9463,0,3,1.49,2.1,3.07,1.82,3.32,0.77,0.06,0.6,-0,-0,-0,0.78,0,3,101,42,96,502,0.0,127,170,60,112.0,0,1,0,0,0,0,0,0,250,250,0,181.28,,,,,,,,,,,,
9483,0,1,1.5,2.1,3.07,1.82,3.33,0.78,0.07,0.59,-0,-0,-1,0.78,119,3,101,42,97,502,0.0,131,170,60,106.0,0,1,400,414,0,0,0,0,250,250,0,181.28,,,,,,,,,,,,
9503,0,2,1.49,2.1,3.08,1.82,3.33,0.78,0.06,0.59,-0,-1,-0,0.78,119,3,101,42,98,502,0.0,130,352,60,109.0,0,1,400,423,0,0,0,0,250,250,0,181.28,,,,,,,,,,,,
9523,0,1,1.5,2.1,3.08,1.81,3.33,0.79,0.07,0.59,0,-0,-0,0.79,119,3,101,42,97,502,0.0,127,453,60,111.0,0,1,400,414,0,0,0,0,250,250,0,181.28,,,,,,,,,,,,
9543,0,2,1.49,2.1,3.08,1.81,3.33,0.77,0.07,0.6,-0,-0,-0,0.77,402,3,101,42,96,502,0.0,127,466,60,109.0,0,1,400,407,0,0,0,0,250,250,0,181.28,0.0,0.0,0.0,0.0,0,0.0,-1,0.0,0.0,0,0.0,0.159
9563,0,3,1.49,2.1,3.08,1.81,3.33,0.77,0.07,0.59,-0,-0,0,0.77,402,3,101,42,98,502,0.0,131,463,60,107.0,0,1,400,423,6,0,0,0,250,250,0,181.28,,,,,,,,,,,,
9583,0,1,1.49,2.09,3.08,1.82,3.32,0.77,0.06,0.59,-0,-0,-0,0.78,402,3,101,42,98,502,0.0,131,464,60,109.0,0,1,400,423,6,0,0,0,250,250,0,181.28,,,,,,,,,,,,
9603,0,2,1.5,2.1,3.07,1.82,3.32,0.78,0.06,0.6,0,-0,0,0.78,402,3,101,42,97,503,0.0,129,462,60,110.0,0,1,166,414,6,0,0,0,250,250,0,181.28,,,,,,,,,,,,
9623,0,1,1.49,2.1,3.07,1.82,3.33,0.78,0.07,0.59,0,-0,-0,0.78,423,3,101,42,96,503,0.0,133,462,60,107.0,0,1,400,407,6,0,0,0,250,250,0,181.28,,,,,,,,,,,,
9643,0,1,1.49,2.1,3.08,1.81,3.32,0.77,0.06,0.59,0,-0,0,0.78,423,3,101,42,98,503,0.0,131,462,60,108.0,0,1,400,423,6,0,0,0,250,250,0,181.28,0.0,0.0,0.0,0.0,0,0.0,-1,0.0,0.0,0,0.0,0.1607
9663,0,0,1.49,2.1,3.08,1.82,3.32,0.78,0.06,0.61,0,-0,0,0.78,423,3,101,42,97,503,0.0,132,465,60,110.0,0,1,400,423,6,0,0,0,250,250,0,181.28,,,,,,,,,,,,
9683,0,-0,1.5,2.09,3.07,1.82,3.32,0.78,0.06,0.6,0,-0,1,0.78,423,3,101,42,96,503,0.0,128,464,60,110.0,0,1,152,407,6,0,0,0,250,250,0,181.28,,,,,,,,,,,,
9703,0,-1,1.49,2.1,3.08,1.82,3.33,0.78,0.06,0.6,0,-0,0,0.78,408,3,101,42,97,503,0.0,133,464,60,108.0,0,1,400,414,6,0,0,0,250,250,0,181.28,,,,,,,,,,,,
9723,0,-2,1.5,2.09,3.08,1.81,3.33,0.78,0.06,0.6,0,-1,0,0.78,408,0,101,42,98,503,0.0,133,462,60,109.0,0,1,400,423,6,0,0,0,250,250,0,181.28,,,,,,,,,,,,
9743,0,-1,1.5,2.09,3.08,1.81,3.33,0.79,0.06,0.6,0,-1,0,0.8,408,3,101,42,97,503,0.0,130,464,60,110.0,0,1,400,414,6,0,0,0,250,250,0,181.28,0.0,0.0,0.0,0.0,0,0.0,-1,0.0,0.0,0,0.0,0.1624
9763,0,-0,1.5,2.09,3.07,1.82,3.32,0.79,0.06,0.61,0,-1,-0,0.79,420,3,101,42,96,503,0.0,131,464,60,109.0,0,1,400,407,6,0,0,0,250,250,0,181.28,,,,,,,,,,,,
9783,0,0,1.49,2.1,3.08,1.82,3.32,0.78,0.06,0.61,0,-1,0,0.79,420,3,101,42,98,504,0.0,130,463,60,108.0,0,1,400,423,6,0,0,0,250,250,0,181.28,,,,,,,,,,,,
9803,0,-2,1.5,2.09,3.07,1.81,3.33,0.78,0.06,0.61,0,-1,-0,0.79,420,3,101,42,98,503,0.0,131,463,60,110.0,0,1,400,423,6,0,0,0,250,250,0,181.28,,,,,,,,,,,,
9823,0,1,1.49,2.1,3.08,1.81,3.33,0.78,0.06,0.61,0,-1,-0,0.78,420,0,101,42,97,504,0.0,130,464,60,109.0,0,1,400,414,6,0,0,0,250,250,0,181.28,,,,,,,,,,,,
9843,0,0,1.49,2.1,3.07,1.82,3.32,0.78,0.06,0.61,0,-1,0,0.79,402,3,101,42,96,504,0.0,132,463,60,107.0,0,1,400,407,6,0,0,0,250,250,0,181.28,0.0,0.0,0.0,0.0,0,0.0,-1,0.0,0.0,0,0.0,0.164
9863,0,1,1.49,2.09,3.07,1.82,3.32,0.78,0.06,0.6,0,-1,-0,0.79,402,3,101,42,98,504,0.0,135,463,60,108.0,0,1,400,423,6,0,0,0,250,250,0,181.28,,,,,,,,,,,,
9883,0,0,1.49,2.1,3.08,1.81,3.33,0.78,0.07,0.59,0,-1,0,0.78,402,3,101,42,97,504,0.0,133,463,60,109.0,0,1,400,414,6,0,0,0,250,250,0,181.28,,,,,,,,,,,,
9903,0,-0,1.49,2.09,3.07,1.82,3.33,0.78,0.06,0.6,0,-1,-0,0.78,424,3,101,42,96,504,0.0,132,465,60,109.0,0,1,400,407,6,0,0,0,250,250,0,181.28,,,,,,,,,,,,
9923,0,-0,1.5,2.09,3.08,1.82,3.33,0.78,0.07,0.61,0,-1,-0,0.79,424,3,101,42,97,504,0.0,136,463,60,107.0,0,1,400,414,6,0,0,0,250,250,0,181.28,,,,,,,,,,,,
9943,0,0,1.49,2.09,3.08,1.82,3.32,0.78,0.07,0.61,0,-1,-0,0.78,424,3,101,42,98,504,0.0,136,462,60,109.0,0,1,400,423,6,0,0,0,250,250,0,181.28,0.0,0.0,0.0,0.0,0,0.0,-1,0.0,0.0,0,0.0,0.1657
9963,0,1,1.49,2.1,3.08,1.81,3.33,0.79,0.07,0.6,0,-1,-0,0.79,424,3,101,42,97,504,0.0,130,464,60,110.0,0,1,400,414,6,0,0,0,250,250,0,181.28,,,,,,,,,,,,
9983,0,1,1.49,2.1,3.08,1.81,3.32,0.79,0.07,0.61,0,-1,-1,0.79,401,0,101,42,96,504,0.0,133,464,60,107.0,0,1,400,407,6,0,0,0,250,250,0,181.28,,,,,,,,,,,,
10003,0,0,1.49,2.1,3.07,1.82,3.32,0.78,0.06,0.61,0,-1,-0,0.78,401,3,101,42,98,504,0.0,134,466,60,107.0,0,1,400,423,6,0,0,0,250,250,0,181.28,,,,,,,,,,,,
10023,0,0,1.49,2.1,3.07,1.82,3.33,0.78,0.06,0.62,0,-0,-0,0.79,401,3,101,42,98,504,0.0,133,463,60,109.0,0,1,400,423,6,0,0,0,250,250,0,181.28,,,,,,,,,,,,
10043,0,0,1.5,2.09,3.08,1.81,3.33,0.78,0.07,0.61,0,-0,-0,0.78,401,3,101,42,96,504,0.0,133,464,60,109.0,0,1,400,407,6,0,0,0,250,250,0,181.28,0.0,0.0,0.0,0.0,0,0.0,-1,0.0,0.0,0,0.0,0.1674
10063,0,-1,1.5,2.1,3.08,1.81,3.33,0.78,0.06,0.6,0,-1,-0,0.78,425,0,101,42,97,505,0.0,137,464,60,107.0,0,1,400,414,6,0,0,0,250,250,0,181.28,,,,,,,,,,,,
10083,0,0,1.49,2.1,3.08,1.82,3.33,0.78,0.06,0.6,0,-0,-0,0.78,425,3,101,42,98,505,0.0,136,464,60,108.0,0,1,400,423,6,0,0,0,250,250,0,181.28,,,,,,,,,,,,
10103,0,-0,1.49,2.1,3.08,1.82,3.33,0.78,0.06,0.61,-0,-1,0,0.78,425,3,101,42,97,505,0.0,132,463,60,110.0,0,1,400,414,6,0,0,0,250,250,0,181.28,,,,,,,,,,,,
10123,0,-1,1.5,2.1,3.08,1.81,3.33,0.77,0.07,0.59,0,0,0,0.78,397,3,101,42,97,505,0.0,131,463,60,108.0,0,1,400,414,6,0,0,0,250,250,0,181.28,,,,,,,,,,,,
10143,0,0,1.5,2.1,3.08,1.82,3.32,0.78,0.06,0.58,0,-0,0,0.78,397,3,101,42,98,505,0.0,137,465,60,106.0,0,1,400,423,6,0,0,0,250,250,0,181.28,0.0,0.0,0.0,0.0,0,0.0,-1,0.0,0.0,0,0.0,0.169
10163,0,0,1.49,2.1,3.07,1.82,3.33,0.78,0.07,0.59,-0,-1,-0,0.78,397,3,101,42,98,505,0.0,135,464,60,108.0,0,1,400,423,6,0,0,0,250,250,0,181.28,,,,,,,,,,,,
10183,0,-1,1.5,2.1,3.08,1.82,3.33,0.78,0.05,0.61,-0,-0,1,0.78,397,3,101,42,98,505,0.0,132,462,60,110.0,0,1,400,423,6,0,0,0,250,250,0,181.28,,,,,,,,,,,,
10203,0,0,1.49,2.1,3.07,1.81,3.32,0.78,0.06,0.61,-0,-0,0,0.78,428,3,101,42,98,505,0.0,133,466,60,107.0,0,1,400,423,6,0,0,0,250,250,0,181.28,,,,,,,,,,,,
10223,0,-1,1.5,2.1,3.08,1.82,3.32,0.77,0.06,0.61,-0,-1,0,0.78,428,3,101,42,98,505,0.0,136,464,60,108.0,0,1,400,423,6,0,0,0,250,250,0,181.28,,,,,,,,,,,,
10243,0,1,1.49,2.1,3.07,1.81,3.33,0.77,0.06,0.6,-0,-0,0,0.77,428,3,101,42,98,506,0.0,135,464,60,109.0,0,1,400,423,6,0,0,0,250,250,0,181.28,0.0,0.0,0.0,0.0,0,0.0,-1,0.0,0.0,0,0.0,0.1707
10263,0,-1,1.5,2.1,3.08,1.81,3.33,0.77,0.05,0.62,-0,-0,1,0.77,428,3,101,42,98,506,0.0,133,466,60,109.0,0,1,400,423,6,0,0,0,250,250,0,181.28,,,,,,,,,,,,
10283,0,0,1.49,2.1,3.08,1.81,3.33,0.78,0.06,0.61,0,-0,1,0.78,407,3,101,42,98,506,0.0,136,462,60,107.0,0,1,400,423,6,0,0,0,250,250,0,181.28,,,,,,,,,,,,
10303,0,0,1.49,2.1,3.08,1.82,3.33,0.77,0.05,0.6,0,-0,1,0.78,407,3,101,42,98,505,0.0,138,463,60,108.0,0,1,400,423,6,0,0,0,250,250,0,181.28,,,,,,,,,,,,
10323,0,1,1.49,2.1,3.08,1.82,3.32,0.78,0.06,0.6,0,-0,0,0.78,407,3,101,42,98,505,0.0,133,466,60,110.0,0,1,400,423,6,0,0,0,250,250,0,181.28,,,,,,,,,,,,
10343,0,-0,1.49,2.1,3.08,1.82,3.32,0.78,0.05,0.62,-0,-1,0,0.78,421,3,101,42,98,505,0.0,133,463,60,109.0,0,1,400,423,6,0,0,0,250,250,0,181.28,0.0,0.0,0.0,0.0,0,0.0,-1,0.0,0.0,0,0.0,0.1724
10363,0,1,1.49,2.1,3.08,1.82,3.33,0.78,0.05,0.62,-0,-0,0,0.78,421,3,101,42,98,505,0.0,132,463,60,108.0,0,1,400,423,6,0,0,0,250,250,0,181.28,,,,,,,,,,,,
10383,0,-1,1.5,2.1,3.07,1.81,3.33,0.78,0.06,0.62,-0,-0,0,0.78,421,3,101,42,98,505,0.0,134,462,60,109.0,0,1,400,423,6,0,0,0,250,250,0,181.28,,,,,,,,,,,,
10403,0,4,1.49,2.09,3.08,1.81,3.32,0.78,0.05,0.62,-0,-1,-0,0.78,421,3,101,42,98,506,0.0,132,467,60,109.0,0,1,400,423,6,0,0,0,250,250,0,181.28,,,,,,,,,,,,
10423,0,1,1.49,2.1,3.08,1.81,3.33,0.78,0.05,0.63,0,-1,0,0.79,402,3,101,42,98,505,0.0,135,460,60,105.0,0,1,400,423,6,0,0,0,250,250,0,-5.59,,,,,,,,,,,,
10443,0,0,1.49,2.1,3.07,1.82,3.32,0.78,0.06,0.62,0,-0,-0,0.79,402,3,101,42,98,505,0.0,138,464,60,107.0,0,1,400,423,6,0,0,0,250,250,0,181.28,0.0,0.0,0.0,0.0,0,0.0,-1,0.0,0.0,0,0.0,0.174
10463,0,5,1.49,2.09,3.07,1.81,3.32,0.78,0.06,0.62,0,-1,0,0.78,402,3,101,42,98,505,0.0,136,463,60,109.0,0,1,400,423,6,0,0,0,250,250,0,181.28,,,,,,,,,,,,
10483,0,-2,1.5,2.1,3.07,1.82,3.32,0.77,0.06,0.61,0,-0,-1,0.77,457,3,101,42,98,504,0.0,135,456,60,106.0,0,1,400,423,6,0,0,0,250,250,0,-5.59,,,,,,,,,,,,
10503,0,-1,1.5,2.1,3.07,1.82,3.33,0.77,0.05,0.61,0,-1,0,0.77,457,3,101,42,98,504,0.0,136,467,60,107.0,0,1,400,423,6,0,0,0,250,250,0,181.28,,,,,,,,,,,,
10523,0,4,1.5,2.1,3.07,1.81,3.33,0.78,0.06,0.6,0,-0,-0,0.78,457,3,101,42,98,504,0.0,137,462,60,109.0,0,1,180,423,6,0,0,0,250,250,0,181.28,,,,,,,,,,,,
10543,0,0,1.5,2.1,3.07,1.82,3.32,0.79,0.06,0.62,0,-1,0,0.79,500,3,101,42,98,504,0.0,133,456,60,107.0,0,1,400,423,6,0,0,0,250,250,0,-5.59,0.0,0.0,0.0,0.0,0,0.0,-1,0.0,0.0,0,0.0,0.1757
10563,0,-1,1.5,2.1,3.07,1.82,3.32,0.78,0.07,0.61,0,-1,-1,0.78,500,3,101,42,98,504,0.0,138,466,60,108.0,0,1,400,423,7,0,0,0,250,250,0,181.28,,,,,,,,,,,,
10583,0,-0,1.5,2.09,3.08,1.82,3.33,0.78,0.06,0.63,0,-1,0,0.78,500,25,101,42,98,505,0.0,136,462,60,110.0,0,1,400,423,7,0,0,0,250,250,0,181.28,,,,,,,,,,,,
10603,0,-1,1.5,2.09,3.08,1.81,3.33,0.78,0.07,0.61,0,-1,-0,0.78,586,44,101,42,98,505,0.0,132,462,60,110.0,0,1,180,423,7,0,0,0,250,250,0,181.28,,,,,,,,,,,,
10623,0,0,1.49,2.1,3.08,1.81,3.33,0.77,0.06,0.64,0,-1,0,0.78,586,14,101,42,98,505,0.0,133,465,60,113.0,0,1,400,423,7,0,0,0,250,250,0,181.28,,,,,,,,,,,,
10643,0,4,1.49,2.1,3.08,1.82,3.33,0.77,0.05,0.64,-0,-1,0,0.78,817,3,101,42,98,505,0.0,132,466,60,113.0,0,1,400,423,7,0,0,0,250,250,0,181.28,0.0,0.0,0.0,0.0,0,0.0,-1,0.0,0.0,0,0.0,0.1774
10663,0,4,1.49,2.1,3.07,1.81,3.32,0.77,0.05,0.62,-0,-0,0,0.77,1117,3,101,42,98,504,0.0,132,470,60,111.0,0,1,184,436,7,0,0,0,250,250,0,-5.59,,,,,,,,,,,,
10683,0,8,1.49,2.1,3.08,1.81,3.33,0.76,0.05,0.62,-0,-1,0,0.76,980,3,101,42,98,503,0.0,134,462,60,111.0,0,1,360,414,18,0,0,0,250,250,0,-5.59,,,,,,,,,,,,
10703,0,10,1.49,2.1,3.08,1.81,3.33,0.76,0.06,0.61,-0,-0,-0,0.76,980,3,101,42,98,502,0.0,134,466,60,109.0,0,1,360,423,18,0,0,0,250,250,0,-5.59,,,,,,,,,,,,
10723,0,11,1.49,2.1,3.08,1.82,3.32,0.76,0.06,0.61,-0,-0,-0,0.76,980,3,101,42,98,502,0.0,135,463,60,107.0,0,1,360,423,18,0,0,0,250,250,0,-5.59,,,,,,,,,,,,
10743,0,11,1.5,2.09,3.07,1.82,3.32,0.77,0.06,0.59,-0,-0,0,0.77,707,3,101,42,98,501,0.0,134,462,60,105.0,0,1,400,423,18,0,0,0,250,250,0,-5.59,0.0,0.0,0.0,0.0,0,0.0,-1,0.0,0.0,0,0.0,0.179
10763,0,14,1.49,2.1,3.07,1.81,3.33,0.77,0.06,0.58,-0,-0,-0,0.77,707,3,101,42,98,500,0.0,134,466,60,105.0,0,1,400,423,11,0,0,0,250,250,0,181.28,,,,,,,,,,,,
10783,0,12,1.5,2.1,3.07,1.82,3.33,0.77,0.06,0.6,-0,-1,0,0.77,554,3,101,42,98,500,0.0,134,460,60,103.0,0,1,400,423,11,0,0,0,250,250,0,-5.59,,,,,,,,,,,,
10803,0,14,1.49,2.09,3.08,1.82,3.32,0.77,0.06,0.58,-0,0,-0,0.77,554,3,101,42,98,500,0.0,135,464,60,101.0,0,1,400,423,11,0,0,0,250,250,0,181.28,,,,,,,,,,,,
10823,0,11,1.49,2.1,3.08,1.81,3.33,0.78,0.06,0.59,-0,-1,0,0.78,554,3,101,42,98,500,0.0,133,464,60,102.0,0,1,400,423,11,0,0,0,250,250,0,181.28,,,,,,,,,,,,
10843,0,9,1.5,2.1,3.07,1.82,3.32,0.74,0.06,0.61,-0,0,-0,0.75,554,3,101,42,98,500,0.0,132,466,60,103.0,0,1,400,423,11,0,0,0,250,250,0,414.87,0.0,0.0,0.0,0.0,0,0.0,-1,0.0,0.0,0,0.0,0.1807
10863,0,9,1.49,2.09,3.08,1.81,3.33,0.75,0.04,0.57,-0,0,1,0.75,457,3,101,42,98,500,0.0,137,462,60,91.0,0,1,400,423,7,0,0,0,250,250,0,181.28,,,,,,,,,,,,
10883,0,10,1.49,2.1,3.07,1.82,3.32,0.75,0.07,0.6,-0,0,-1,0.75,457,7,101,42,98,500,0.0,140,462,60,94.0,0,1,400,423,7,0,0,0,250,250,0,181.28,,,,,,,,,,,,
10903,0,7,1.49,2.1,3.07,1.82,3.33,0.73,0.06,0.62,-0,-1,-0,0.74,517,10,101,42,98,500,0.0,142,461,60,99.0,0,1,400,423,7,0,0,0,250,250,0,414.87,,,,,,,,,,,,
10923,0,5,1.5,2.1,3.07,1.81,3.33,0.75,0.06,0.58,-0,0,-1,0.75,517,0,101,42,98,500,0.0,143,462,60,103.0,0,1,400,423,7,0,0,0,250,250,0,181.28,,,,,,,,,,,,
10943,0,8,1.49,2.1,3.08,1.82,3.32,0.74,0.07,0.6,-0,-1,-0,0.74,854,6,101,42,98,500,0.0,143,462,60,105.0,0,1,400,423,7,0,0,0,250,250,0,181.28,0.0,0.0,0.0,0.0,0,0.0,-1,0.0,0.0,0,0.0,0.1824
10963,0,11,1.49,2.1,3.08,1.81,3.33,0.74,0.08,0.6,-0,-1,-2,0.75,1292,11,101,42,97,500,0.0,141,462,60,107.0,0,1,300,441,7,0,0,0,250,250,0,414.87,,,,,,,,,,,,
10983,0,7,1.5,2.09,3.07,1.82,3.33,0.73,0.09,0.65,-1,-4,-2,0.73,1706,21,101,42,97,500,0.0,142,461,60,106.0,0,1,205,477,21,0,0,0,250,250,0,-5.59,,,,,,,,,,,,
11003,0,4,1.49,2.1,3.07,1.82,3.32,0.75,0.07,0.6,-1,-2,-2,0.75,1913,67,101,42,98,500,0.0,143,471,60,109.0,0,1,216,514,21,0,0,0,250,250,0,181.28,,,,,,,,,,,,
11023,0,4,1.49,2.1,3.07,1.82,3.32,0.73,0.06,0.6,-0,-1,-2,0.73,1847,69,101,42,98,500,0.0,147,463,60,111.0,0,1,213,510,21,0,0,0,250,250,0,414.87,,,,,,,,,,,,
11043,0,0,1.49,2.1,3.08,1.81,3.33,0.7,0.09,0.56,-0,-3,-1,0.71,2035,68,101,42,97,500,0.0,150,458,60,113.0,0,1,217,321,21,0,0,0,250,250,0,-5.59,0.0,0.0,0.0,0.0,0,0.0,-1,0.0,0.0,0,0.0,0.184
11063,0,5,1.49,2.1,3.08,1.81,3.32,0.75,0.09,0.56,0,1,-3,0.75,2177,68,101,42,98,500,0.0,153,468,60,121.0,0,1,227,540,44,0,0,0,250,250,0,414.87,,,,,,,,,,,,
11083,0,-0,1.49,2.1,3.08,1.82,3.33,0.73,0.1,0.65,0,-5,-1,0.74,2424,64,101,42,97,500,0.0,157,465,60,122.0,0,1,231,536,44,0,0,0,250,250,0,181.28,,,,,,,,,,,,
11103,0,0,1.49,2.09,3.08,1.82,3.33,0.78,0.07,0.48,0,-3,-0,0.79,2653,68,101,42,97,500,0.0,167,460,60,120.0,0,1,235,353,44,0,0,0,250,250,0,-5.59,,,,,,,,,,,,
11123,0,1,1.5,2.09,3.08,1.81,3.33,0.78,0.04,0.45,-0,-3,-1,0.79,2789,61,101,42,97,500,0.0,173,462,60,122.0,0,1,236,554,44,0,0,0,250,250,0,181.28,,,,,,,,,,,,
11143,0,-1,1.5,2.1,3.08,1.81,3.33,0.8,0.03,0.47,-0,-5,1,0.8,3299,60,101,42,96,500,0.0,179,455,60,120.0,0,1,237,552,44,0,0,0,250,250,0,-5.59,0.0,0.0,0.0,0.0,0,0.0,-1,0.0,0.0,0,0.0,0.1857
11163,0,2,1.49,2.1,3.07,1.81,3.33,0.8,0.05,0.43,-0,-2,0,0.8,3720,53,101,42,95,500,0.0,187,465,60,122.0,0,1,265,563,79,0,0,0,250,250,0,181.28,,,,,,,,,,,,
11183,0,1,1.5,2.1,3.07,1.82,3.33,0.78,0.08,0.42,1,-1,-0,0.78,4209,51,101,42,93,500,0.0,206,456,60,122.0,0,1,295,582,79,0,0,0,250,250,0,181.28,,,,,,,,,,,,
11203,0,4,1.49,2.1,3.08,1.82,3.32,0.78,0.07,0.45,1,-1,-1,0.78,4523,43,101,42,91,500,0.0,227,454,60,121.0,0,1,289,589,79,0,0,0,250,250,0,181.28,,,,,,,,,,,,
11223,0,-0,1.5,2.1,3.08,1.82,3.32,0.78,0.09,0.52,2,-2,-0,0.79,4842,41,101,42,88,500,0.0,254,458,60,122.0,0,1,284,597,79,0,0,0,250,250,0,181.28,,,,,,,,,,,,
11243,0,1,1.49,2.1,3.08,1.82,3.33,0.73,0.04,0.49,1,-1,-2,0.74,5221,35,101,42,85,500,0.0,288,465,60,121.0,0,1,292,599,79,0,0,0,250,250,0,-5.59,0.0,0.0,0.0,0.0,0,0.0,-1,0.0,0.0,0,0.0,0.1874
11263,0,0,1.5,2.1,3.08,1.82,3.33,0.79,0.03,0.37,0,-1,-1,0.79,5714,22,101,42,81,500,0.0,326,458,60,122.0,0,1,326,578,125,0,0,0,250,250,0,181.28,,,,,,,,,,,,
11283,0,1,1.5,2.1,3.07,1.82,3.32,0.71,0.0,0.29,-0,1,-2,0.71,6200,18,101,42,79,500,0.0,376,457,60,122.0,0,1,353,582,125,0,0,0,250,250,0,181.28,,,,,,,,,,,,
11303,0,5,1.49,2.1,3.07,1.82,3.32,0.84,-0.01,0.39,-0,-0,-2,0.84,6606,19,101,42,77,500,0.0,432,462,60,121.0,0,1,367,573,125,0,0,0,250,250,0,-5.59,,,,,,,,,,,,
11323,0,2,1.5,2.1,3.07,1.83,3.33,0.78,-0.05,0.35,-0,-0,-3,0.78,6793,30,101,42,75,500,0.0,483,462,60,122.0,0,1,376,544,125,0,0,0,250,250,0,181.28,,,,,,,,,,,,
11343,0,0,1.5,2.1,3.07,1.82,3.33,0.82,0.04,0.39,-0,0,-3,0.82,6998,24,101,42,73,500,0.0,526,462,60,121.0,0,1,385,510,125,0,0,0,250,250,0,-5.59,0.0,0.0,0.0,0.0,0,0.0,-1,0.0,0.0,0,0.0,0.189
11363,0,-0,1.5,2.1,3.08,1.82,3.33,0.94,0.02,0.38,-0,-2,-4,0.94,7253,28,101,42,71,500,0.0,548,463,60,121.0,0,1,402,301,129,0,0,0,250,250,0,-5.59,,,,,,,,,,,,
11383,0,1,1.5,2.1,3.08,1.82,3.33,0.96,-0.07,0.42,-0,-2,-4,0.96,7506,39,101,42,69,500,0.0,578,465,60,121.0,0,1,422,452,129,0,0,0,250,250,0,-5.59,,,,,,,,,,,,
11403,0,4,1.5,2.1,3.07,1.83,3.33,1.01,-0.04,0.44,0,-3,-2,1.01,7901,40,101,42,66,500,0.0,597,464,60,121.0,0,1,445,445,129,0,0,0,250,250,0,181.28,,,,,,,,,,,,
11423,0,3,1.49,2.1,3.07,1.81,3.33,0.97,-0.04,0.45,-0,-5,-0,0.97,8259,26,101,42,63,500,0.0,631,465,60,122.0,0,1,446,422,129,0,0,0,250,250,0,181.28,,,,,,,,,,,,
11443,0,0,1.5,2.1,3.07,1.82,3.32,0.88,0.04,0.43,0,-1,-1,0.88,8720,35,101,42,58,500,0.0,648,457,60,122.0,0,1,411,397,129,0,0,0,250,250,0,414.87,0.0,0.0,0.0,0.0,0,0.0,-1,0.0,0.0,0,0.0,0.1907
11463,0,2,1.5,2.1,3.07,1.82,3.32,0.8,0.16,0.48,-0,-2,-3,0.82,9110,31,101,42,54,500,0.0,649,466,60,121.0,0,1,400,377,130,0,0,0,250,250,0,-5.59,,,,,,,,,,,,
11483,0,3,1.49,2.1,3.07,1.82,3.33,0.81,0.09,0.51,-0,-2,-1,0.82,9407,36,101,42,51,500,0.0,651,460,60,122.0,0,1,390,347,130,0,0,0,250,250,0,181.28,,,,,,,,,,,,
11503,0,2,1.49,2.1,3.07,1.81,3.33,0.81,0.11,0.42,-0,-2,-1,0.81,9630,24,101,42,49,500,0.0,658,461,60,122.0,0,1,385,322,130,0,0,0,250,250,0,-5.59,,,,,,,,,,,,
11523,0,4,1.49,2.1,3.07,1.82,3.32,0.72,0.13,0.41,0,-0,-1,0.73,9725,30,101,42,45,500,0.0,662,460,60,122.0,0,1,365,290,130,0,0,0,250,250,0,181.28,,,,,,,,,,,,
11543,0,5,1.49,2.1,3.07,1.82,3.32,0.85,0.01,0.44,-0,-2,-1,0.85,9537,24,101,42,42,500,0.0,658,462,60,122.0,0,1,342,273,130,0,0,0,250,250,0,181.28,0.0,0.0,0.0,0.0,0,0.0,-1,0.0,0.0,0,0.0,0.1924
11563,0,0,1.49,2.1,3.07,1.82,3.33,0.84,0.08,0.55,0,-2,-2,0.84,9323,17,101,42,39,500,0.0,661,464,60,121.0,0,1,320,259,91,0,0,0,250,250,0,-5.59,,,,,,,,,,,,
11583,0,-1,1.5,2.1,3.07,1.82,3.32,0.86,0.09,0.54,0,-1,-0,0.87,9115,19,101,42,37,500,0.0,656,457,60,121.0,0,1,314,248,91,0,0,0,250,250,0,-5.59,,,,,,,,,,,,
11603,0,4,1.5,2.1,3.07,1.82,3.33,0.9,0.1,0.57,0,-3,-2,0.91,8903,13,101,42,35,500,0.0,650,461,60,121.0,0,1,308,238,91,0,0,0,250,250,0,-5.59,,,,,,,,,,,,
11623,0,2,1.5,2.1,3.06,1.83,3.32,0.99,0.0,0.59,0,-3,-1,0.99,8696,19,101,42,34,500,0.0,647,459,60,122.0,0,1,305,234,91,0,0,0,250,250,0,-5.59,,,,,,,,,,,,
11643,0,1,1.5,2.09,3.07,1.82,3.33,0.87,-0.02,0.58,-0,-2,-1,0.87,8484,17,101,41,34,500,0.0,637,462,60,122.0,0,1,304,227,91,0,0,0,250,250,0,181.28,0.0,0.0,0.0,0.0,0,0.0,-1,0.0,0.0,0,0.0,0.194
11663,0,2,1.5,2.1,3.06,1.82,3.32,0.97,-0.01,0.61,-0,-4,-1,0.97,8267,18,101,41,33,500,0.0,637,462,60,121.0,0,1,297,215,67,0,0,0,250,250,0,-5.59,,,,,,,,,,,,
11683,0,5,1.5,2.1,3.06,1.82,3.32,0.85,-0.03,0.55,-0,-2,-1,0.85,8054,20,101,41,33,500,0.0,630,464,60,123.0,0,1,293,214,67,0,0,0,250,250,0,181.28,,,,,,,,,,,,
11703,0,0,1.5,2.1,3.07,1.82,3.33,0.75,-0.05,0.57,-1,-2,-2,0.76,7884,20,101,41,34,500,0.0,629,465,60,122.0,0,1,295,204,67,0,0,0,250,250,0,-5.59,,,,,,,,,,,,
11723,0,1,1.49,2.1,3.07,1.81,3.32,0.75,-0.15,0.6,-1,-2,-1,0.77,7674,21,101,41,34,500,0.0,630,463,60,122.0,0,1,295,211,67,0,0,0,250,250,0,181.28,,,,,,,,,,,,
11743,0,-2,1.5,2.09,3.07,1.82,3.32,0.79,-0.16,0.55,-1,-2,-2,0.8,7533,19,101,41,34,500,0.0,627,465,60,122.0,0,1,295,204,67,0,0,0,250,250,0,-5.59,0.0,0.0,0.0,0.0,0,0.0,-1,0.0,0.0,0,0.0,0.1957
11763,0,4,1.5,2.09,3.07,1.81,3.32,0.65,-0.2,0.54,-1,-0,-2,0.68,7321,16,101,41,33,500,0.0,610,464,60,122.0,0,1,292,204,67,0,0,0,250,250,0,-5.59,,,,,,,,,,,,
11783,0,3,1.49,2.09,3.06,1.81,3.32,0.54,-0.21,0.48,-1,-1,0,0.58,7142,15,101,41,33,500,0.0,601,463,60,123.0,0,1,292,204,56,0,0,0,250,250,0,181.28,,,,,,,,,,,,
11803,0,-0,1.5,2.1,3.07,1.81,3.33,0.66,-0.07,0.55,-1,-0,-1,0.67,6908,9,101,41,33,500,0.0,591,460,60,121.0,0,1,292,204,56,0,0,0,250,250,0,414.87,,,,,,,,,,,,
11823,0,2,1.49,2.09,3.06,1.82,3.32,0.69,-0.1,0.48,-1,1,-4,0.69,6737,8,101,41,32,500,0.0,570,464,60,123.0,0,1,290,196,56,0,0,0,250,250,0,-5.59,,,,,,,,,,,,
11843,0,5,1.49,2.1,3.07,1.81,3.33,0.82,-0.11,0.56,-0,-3,-4,0.83,6539,9,101,41,32,500,0.0,555,467,60,122.0,0,1,290,196,56,0,0,0,250,250,0,414.87,0.0,0.0,0.0,0.0,0,0.0,-1,0.0,0.0,0,0.0,0.1974
11863,0,-0,1.5,2.1,3.06,1.81,3.32,0.72,-0.07,0.56,-1,-4,-1,0.72,6390,12,101,41,32,500,0.0,542,463,60,123.0,0,1,290,196,56,0,0,0,250,250,0,181.28,,,,,,,,,,,,
11883,0,-1,1.49,2.1,3.06,1.82,3.32,0.57,-0.03,0.43,-1,-0,1,0.57,6281,9,101,41,32,500,0.0,525,459,60,123.0,0,1,290,196,47,0,0,0,250,250,0,181.28,,,,,,,,,,,,
11903,0,-0,1.49,2.1,3.07,1.81,3.33,0.61,-0.03,0.42,-1,2,0,0.61,6155,5,101,41,32,500,0.0,524,466,60,122.0,0,1,290,196,47,0,0,0,250,250,0,-5.59,,,,,,,,,,,,
11923,0,-0,1.49,2.1,3.07,1.81,3.32,0.73,-0.07,0.49,-1,3,-1,0.73,6013,6,101,41,33,500,0.0,511,463,60,122.0,0,1,292,195,47,0,0,0,250,250,0,-5.59,,,,,,,,,,,,
11943,0,2,1.5,2.09,3.07,1.81,3.33,0.81,-0.07,0.42,-2,4,-1,0.81,5870,3,101,41,33,501,0.0,507,465,60,122.0,0,1,290,199,47,0,0,0,250,250,0,181.28,0.0,0.0,0.0,0.0,0,0.0,-1,0.0,0.0,0,0.0,0.199
11963,0,3,1.49,2.1,3.07,1.81,3.33,0.91,-0.09,0.43,-2,5,-0,0.92,5712,4,101,41,34,501,0.0,497,464,60,123.0,0,1,290,197,42,0,0,0,250,250,0,181.28,,,,,,,,,,,,
11983,0,0,1.49,2.1,3.07,1.82,3.33,0.83,-0.06,0.44,-3,5,1,0.84,5558,4,101,41,34,501,0.0,483,463,60,121.0,0,1,287,203,42,0,0,0,250,250,0,181.28,,,,,,,,,,,,
12003,0,5,1.49,2.1,3.06,1.82,3.32,0.76,-0.05,0.37,-2,4,0,0.76,5441,7,101,41,35,501,0.0,476,464,60,122.0,0,1,289,209,42,0,0,0,250,250,0,-5.59,,,,,,,,,,,,
12023,0,-1,1.5,2.1,3.07,1.82,3.32,0.87,-0.07,0.46,-1,3,0,0.87,5292,9,101,41,36,501,0.0,465,463,60,123.0,0,1,290,215,42,0,0,0,250,250,0,181.28,,,,,,,,,,,,
12043,0,4,1.5,2.11,3.06,1.83,3.32,0.77,-0.08,0.48,-2,3,0,0.77,5206,7,101,41,37,501,0.0,456,475,60,121.0,0,1,294,231,42,0,0,0,250,250,0,-5.59,0.0,0.0,0.0,0.0,0,0.0,-1,0.0,0.0,0,0.0,0.2007
12063,0,-2,1.5,2.1,3.06,1.82,3.33,0.84,-0.09,0.48,-1,2,0,0.85,5139,8,101,41,39,501,0.0,442,456,60,123.0,0,1,301,230,44,0,0,0,250,250,0,414.87,,,,,,,,,,,,
12083,0,0,1.5,2.1,3.06,1.82,3.33,0.83,-0.08,0.46,-2,1,0,0.83,4997,11,101,41,40,501,0.0,432,467,60,123.0,0,1,299,238,44,0,0,0,250,250,0,-5.59,,,,,,,,,,,,
12103,0,3,1.49,2.1,3.06,1.82,3.32,0.81,-0.1,0.48,-2,2,-0,0.82,4857,10,101,41,41,501,0.0,422,463,60,121.0,0,1,294,238,44,0,0,0,250,250,0,-5.59,,,,,,,,,,,,
12123,0,5,1.5,2.09,3.07,1.82,3.33,0.83,-0.1,0.53,-2,3,0,0.83,4791,14,101,41,42,501,0.0,410,464,60,121.0,0,1,293,235,44,0,0,0,250,250,0,181.28,,,,,,,,,,,,
12143,0,6,1.49,2.1,3.06,1.82,3.32,0.8,-0.06,0.61,-1,2,-0,0.8,4678,15,101,41,43,501,0.0,404,456,60,123.0,0,1,291,235,44,0,0,0,250,250,0,414.87,0.0,0.0,0.0,0.0,0,0.0,-1,0.0,0.0,0,0.0,0.2024
12163,0,4,1.5,2.1,3.07,1.81,3.33,0.77,-0.01,0.69,-0,2,-1,0.77,4594,14,101,41,44,501,0.0,391,458,60,123.0,0,1,291,231,40,0,0,0,250,250,0,181.28,,,,,,,,,,,,
12183,0,4,1.5,2.1,3.07,1.82,3.32,0.78,0.06,0.71,1,2,-1,0.78,4482,15,101,41,45,500,0.0,381,458,60,123.0,0,1,291,231,40,0,0,0,250,250,0,181.28,,,,,,,,,,,,
12203,0,3,1.5,2.1,3.06,1.83,3.32,0.74,0.1,0.76,2,2,-1,0.75,4386,15,101,41,45,501,0.0,370,459,60,123.0,0,1,289,232,40,0,0,0,250,250,0,181.28,,,,,,,,,,,,
12223,0,2,1.5,2.1,3.06,1.83,3.32,0.74,0.15,0.85,2,3,-2,0.75,4299,15,101,41,46,501,0.0,367,456,60,123.0,0,1,291,232,40,0,0,0,250,250,0,181.28,,,,,,,,,,,,
12243,0,-1,1.5,2.1,3.06,1.83,3.32,0.72,0.1,0.85,2,2,-2,0.73,4228,15,101,41,47,501,0.0,359,463,60,122.0,0,1,294,236,40,0,0,0,250,250,0,181.28,0.0,0.0,0.0,0.0,0,0.0,-1,0.0,0.0,0,0.0,0.204
12263,0,0,1.49,2.1,3.06,1.82,3.32,0.73,0.09,0.8,1,0,-2,0.74,4205,16,101,41,48,501,0.0,347,465,60,123.0,0,1,293,239,40,0,0,0,250,250,0,-5.59,,,,,,,,,,,,
12283,0,5,1.49,2.1,3.06,1.82,3.32,0.75,0.07,0.79,0,-0,-2,0.75,4149,16,101,41,49,502,0.0,346,472,60,123.0,0,1,294,241,37,0,0,0,250,250,0,181.28,,,,,,,,,,,,
12303,0,1,1.5,2.1,3.06,1.82,3.32,0.74,0.12,0.82,1,1,-2,0.75,4114,16,101,41,49,502,0.0,342,460,60,123.0,0,1,293,241,37,0,0,0,250,250,0,181.28,,,,,,,,,,,,
12323,0,-0,1.5,2.09,3.07,1.82,3.32,0.73,0.12,0.81,1,1,-3,0.74,4156,17,101,41,50,502,0.0,343,458,60,122.0,0,1,295,247,37,0,0,0,250,250,0,181.28,,,,,,,,,,,,
12343,0,0,1.5,2.09,3.06,1.82,3.32,0.75,0.08,0.75,0,-1,-2,0.75,4155,15,101,41,51,502,0.0,341,471,60,123.0,0,1,295,251,37,0,0,0,250,250,0,-5.59,0.0,0.0,0.0,0.0,0,0.0,-1,0.0,0.0,0,0.0,0.2057
12363,0,-1,1.49,2.1,3.06,1.82,3.31,0.77,0.07,0.72,-0,-1,-2,0.77,4140,16,101,41,52,502,0.0,345,470,60,124.0,0,1,296,250,37,0,0,0,250,250,0,181.28,,,,,,,,,,,,
12383,0,3,1.5,2.1,3.07,1.82,3.32,0.74,0.1,0.7,1,1,-1,0.75,4204,17,101,41,52,502,0.0,343,466,60,124.0,0,1,296,257,40,0,0,0,250,250,0,181.28,,,,,,,,,,,,
12403,0,0,1.5,2.1,3.06,1.82,3.32,0.74,0.12,0.67,2,1,-1,0.75,4201,16,101,41,52,502,0.0,349,455,60,123.0,0,1,296,257,40,0,0,0,250,250,0,181.28,,,,,,,,,,,,
12423,0,-1,1.49,2.09,3.06,1.82,3.33,0.74,0.1,0.63,1,1,-2,0.74,4224,15,101,41,53,502,0.0,352,463,60,121.0,0,1,297,263,40,0,0,0,250,250,0,-5.59,,,,,,,,,,,,
12443,0,-0,1.5,2.1,3.06,1.83,3.32,0.72,0.07,0.62,-0,-1,-1,0.73,4267,16,101,41,53,502,0.0,349,468,60,123.0,0,1,297,263,40,0,0,0,250,250,0,-5.59,0.0,0.0,0.0,0.0,0,0.0,-1,0.0,0.0,0,0.0,0.2074
