"Interval"|"ms"|0|0|1,"Utc"|"ms"|0|0|1,"FB_p"|"bar"|0|300|50,"Volant"|"F"|0.0|300.0|50,"xFR"|"mm"|0.0|5.0|50,"xRR"|"mm"|0.0|5.0|50,"xFL"|"mm"|0.0|5.0|50,"xRL"|"mm"|0.0|5.0|50,"AccelX"|"G"|-3.0|3.0|50,"AccelY"|"G"|-3.0|3.0|50,"AccelZ"|"G"|-3.0|3.0|50,"Yaw"|"Deg/Sec"|-120|120|50,"Pitch"|"Deg/Sec"|-120|120|50,"Roll"|"Deg/Sec"|-120|120|50,"Gsum"|"G"|0.0|3.0|50,"RPM"|""|0|14000|50,"TPS"|"%"|0|100|50,"WaterTemp"|"?C"|0|300|50,"AirTemp"|"?C"|-1000|1000|50,"MAP"|"KPa"|0|255|50,"Lambda"|""|0|1024|50,"WheelSpeed"|"MPH"|0.0|150.0|50,"OilPress"|"PSI"|0|150|50,"FuelPress"|"PSI"|0|150|50,"OilTemp"|"F"|0|300|50,"Battery"|"Volts"|0.0|20.0|50,"FuelCon"|"L/h"|-1000|1000|50,"Gear"|""|0|10|50,"Advance"|"Deg"|-360|360|50,"Injection"|"ms"|-1000|1000|50,"FuelCon"|"L/100km"|-1000|1000|50,"LC_But_Pres"|""|-1000|1000|50,"LC_Active"|""|-1000|1000|50,"RD_Speed"|""|-1000|1000|50,"RUD_Speed"|""|-1000|1000|50,"LD_Speed"|""|-1000|1000|50,"LUD_Speed"|""|-1000|1000|50,"Ana1"|"bar"|-1000.0|1000.0|50,"Latitude"|"Degrees"|-180.0|180.0|10,"Longitude"|"Degrees"|-180.0|180.0|10,"Speed"|"kph"|0.0|150.0|10,"Altitude"|"m"|0.0|4000.0|10,"LapCount"|""|0|0|10,"LapTime"|"Min"|0.0|0.0|10,"Sector"|""|0|0|10,"SectorTime"|"Min"|0.0|0.0|10,"ElapsedTime"|"Min"|0.0|0.0|10,"CurrentLap"|""|0|0|10,"Distance"|"km"|0.0|0.0|10,"SessionTime"|"Min"|0.0|0.0|10
255163,1561295643440,-2,2.03,2.47,3.54,1.52,3.08,0.88,0.8,0.36,-23,-2,-22,1.19,5166,0,88,39,33,762,426.0,413,465,60,122.0,83,1,277,164,32,0,0,419,13552,28553,380,414.87,,,,,,,,,,,,
255183,1561295643460,4,2.04,2.48,3.52,1.52,3.09,0.94,0.88,0.35,-24,-2,-25,1.29,5115,3,88,39,34,771,425.0,408,460,60,123.0,83,1,280,170,32,0,0,416,-3856,-10554,379,414.87,,,,,,,,,,,,
255203,1561295643480,1,2.05,2.47,3.5,1.53,3.08,0.82,0.94,0.33,-25,-1,-26,1.24,5110,12,88,39,36,779,421.0,407,460,60,122.0,83,1,288,182,32,0,0,411,-21792,2811,376,-5.59,,,,,,,,,,,,
255223,1561295643502,2,2.08,2.46,3.5,1.53,3.13,0.92,0.92,0.28,-25,-3,-27,1.3,5158,31,88,39,40,788,417.0,405,461,60,123.0,83,1,302,202,32,0,0,406,-21944,-29978,374,181.28,,,,,,,,,,,,
255243,1561295643522,-0,2.11,2.46,3.5,1.54,3.15,0.79,0.93,0.33,-26,-1,-29,1.22,5233,43,88,39,49,799,414.0,407,457,60,124.0,83,1,317,221,32,0,0,404,2524,-6644,374,181.28,45.698845,4.90987,39.73,196.0,4,0.805,0,0.0,0.4217,5,0.27,4.254
255263,1561295643542,5,2.15,2.45,3.47,1.54,3.16,0.89,0.89,0.23,-26,-3,-30,1.26,5370,50,88,39,59,799,412.0,411,453,60,124.0,131,1,328,252,49,0,0,408,-4059,-14707,376,414.87,,,,,,,,,,,,
255283,1561295643562,1,2.19,2.42,3.4,1.56,3.16,0.95,0.82,0.4,-24,-2,-32,1.25,5488,33,88,39,68,802,412.0,416,470,60,123.0,131,1,320,308,49,0,0,407,9517,-6656,376,181.28,,,,,,,,,,,,
255303,1561295643582,-0,2.25,2.39,3.32,1.62,3.16,0.75,0.78,0.46,-23,1,-30,1.08,5548,52,88,39,76,803,405.0,422,463,60,122.0,131,1,317,382,49,0,0,406,-9211,8200,378,-5.59,,,,,,,,,,,,
255323,1561295643602,4,2.3,2.34,3.25,1.73,3.15,0.77,0.72,0.34,-21,0,-30,1.05,5513,45,88,39,79,803,403.0,421,449,60,125.0,131,1,314,419,49,0,0,401,-8151,-18948,380,181.28,,,,,,,,,,,,
255343,1561295643622,3,2.33,2.26,3.17,1.8,3.19,0.83,0.67,0.39,-19,-1,-29,1.06,5539,43,88,39,83,803,397.0,423,455,60,124.0,131,1,314,458,49,0,0,396,-3968,-18948,385,181.28,45.698837,4.909862,38.58,196.1,4,0.805,0,0.0,0.4233,5,0.27,4.2557
255363,1561295643642,1,2.37,2.11,3.13,1.79,3.3,0.79,0.52,0.45,-15,-1,-28,0.95,5674,53,88,40,86,802,389.0,427,468,60,123.0,255,1,317,465,98,0,0,368,-6524,486,384,-5.59,,,,,,,,,,,,
255383,1561295643662,2,2.4,1.95,3.12,1.8,3.42,0.74,0.38,0.53,-11,-0,-25,0.83,5935,71,88,40,89,811,383.0,434,462,60,124.0,255,1,318,479,98,0,0,378,19125,-18948,383,-5.59,,,,,,,,,,,,
255403,1561295643682,4,2.43,1.77,3.1,1.8,3.58,0.82,0.25,0.61,-8,-1,-24,0.86,6247,57,88,40,92,820,384.0,448,458,60,124.0,255,1,330,493,98,0,0,345,3,0,384,-5.59,,,,,,,,,,,,
255423,1561295643702,4,2.45,1.69,3.09,1.83,3.61,0.73,0.23,0.52,-6,-0,-18,0.77,6805,79,88,40,94,827,385.0,477,457,60,125.0,255,1,359,512,98,0,0,349,1,1,385,414.87,,,,,,,,,,,,
255443,1561295643722,2,2.45,1.68,3.07,1.87,3.62,0.77,0.18,0.57,-3,-0,-15,0.79,7102,77,88,40,94,836,384.0,502,463,60,124.0,255,1,376,518,98,0,0,362,486,1,384,181.28,45.698826,4.909856,38.24,196.1,4,0.805,0,0.0,0.425,5,0.27,4.2574
255463,1561295643742,2,2.46,1.7,3.01,1.96,3.62,0.9,0.14,0.71,-1,-0,-14,0.91,7402,48,88,40,94,906,385.0,520,463,60,124.0,381,1,400,536,147,0,0,363,230,-18948,385,-5.59,,,,,,,,,,,,
255483,1561295643762,3,2.47,1.72,2.95,2.04,3.63,1.01,0.08,0.7,1,0,-10,1.01,7855,64,88,40,93,987,385.0,538,462,60,124.0,381,1,435,557,147,0,0,367,-6405,-6475,385,-5.59,,,,,,,,,,,,
255503,1561295643782,1,2.48,1.72,2.9,2.1,3.61,1.11,0.02,0.71,3,-4,-5,1.11,8385,69,88,40,91,1061,384.0,572,455,60,124.0,381,1,439,608,147,0,0,362,-1268,19125,384,181.28,,,,,,,,,,,,
255523,1561295643802,3,2.49,1.74,2.84,2.15,3.58,0.94,-0.13,0.64,4,1,-2,0.95,8932,95,88,40,89,1133,384.0,602,457,60,123.0,381,1,420,606,147,0,0,368,2790,-3866,384,181.28,,,,,,,,,,,,
255543,1561295643822,1,2.5,1.84,2.77,2.23,3.53,0.89,-0.18,0.7,6,-1,2,0.91,8971,69,88,40,87,1201,388.0,611,459,60,124.0,381,1,419,584,147,0,0,437,-6405,-26615,388,181.28,45.698818,4.909849,37.51,196.1,4,0.805,0,0.0,0.4267,5,0.27,4.259
255563,1561295643842,1,2.49,1.95,2.67,2.28,3.42,0.77,-0.1,0.72,7,1,6,0.77,8737,70,88,40,87,1269,396.0,610,456,60,123.0,492,1,426,584,195,0,0,556,-6656,-6387,396,-5.59,,,,,,,,,,,,
255583,1561295643862,5,2.5,2.04,2.63,2.29,3.33,0.76,-0.1,0.85,10,1,10,0.77,8616,65,88,40,88,1294,404.0,612,451,60,123.0,492,1,430,584,195,0,0,473,257,-23623,404,-5.59,,,,,,,,,,,,
255603,1561295643882,4,2.51,2.11,2.6,2.36,3.28,0.79,-0.2,0.85,12,2,10,0.81,8585,57,88,40,88,1289,411.0,613,463,60,124.0,492,1,431,595,195,0,0,385,3,8488,411,181.28,,,,,,,,,,,,
255623,1561295643901,-1,2.51,2.15,2.55,2.43,3.29,0.68,-0.28,0.9,15,1,11,0.74,8389,56,88,40,88,1290,416.0,601,468,60,124.0,492,1,437,582,195,0,0,440,-18948,23400,416,181.28,,,,,,,,,,,,
255643,1561295643921,4,2.52,2.15,2.48,2.47,3.31,0.68,-0.34,0.97,17,1,13,0.76,8314,59,88,40,88,1294,423.0,595,452,60,124.0,492,1,439,574,195,0,0,517,-6475,2524,423,-5.59,45.698811,4.909841,37.27,196.1,4,0.805,0,0.0,0.4283,5,0.27,4.2607
255663,1561295643941,2,2.52,2.17,2.47,2.5,3.39,0.63,-0.38,0.91,18,1,14,0.73,8314,85,88,40,89,1300,427.0,588,458,60,124.0,427,1,440,584,182,0,0,441,-6524,-6387,427,181.28,,,,,,,,,,,,
255683,1561295643961,5,2.52,2.19,2.49,2.55,3.47,0.61,-0.43,0.93,19,1,17,0.74,8389,63,88,40,89,1308,430.0,581,458,60,124.0,427,1,438,592,182,0,0,420,-6524,2524,430,-5.59,,,,,,,,,,,,
255703,1561295643981,1,2.53,2.2,2.53,2.57,3.49,0.53,-0.4,0.9,20,1,18,0.66,8445,37,88,40,88,1313,434.0,590,466,60,124.0,427,1,435,599,182,0,0,467,-32702,-8985,434,181.28,,,,,,,,,,,,
255723,1561295643997,2,2.52,2.2,2.53,2.57,3.5,0.48,-0.51,0.92,21,2,17,0.71,8561,66,88,40,88,1315,438.0,578,464,60,124.0,427,1,432,606,182,0,0,480,10541,-18108,438,181.28,,,,,,,,,,,,
255743,1561295644017,3,2.52,2.17,2.52,2.57,3.53,0.35,-0.58,0.94,22,2,21,0.67,8761,47,88,40,87,1313,443.0,595,458,60,123.0,427,1,425,584,182,0,0,457,-26615,6193,443,181.28,45.698803,4.909833,39.77,196.1,4,0.805,0,0.0,0.43,5,0.27,4.2624
255763,1561295644037,2,2.52,2.15,2.49,2.56,3.56,0.44,-0.51,0.99,23,2,21,0.67,8954,65,88,40,87,1306,447.0,603,453,60,123.0,440,1,419,584,197,0,0,470,11560,-16384,447,-5.59,,,,,,,,,,,,
255783,1561295644057,1,2.52,2.15,2.5,2.58,3.52,0.33,-0.5,0.98,23,2,24,0.6,8992,57,88,40,86,1296,451.0,616,465,60,124.0,440,1,419,573,197,0,0,485,13040,8488,451,-5.59,,,,,,,,,,,,
255803,1561295644077,2,2.52,2.15,2.5,2.59,3.52,0.35,-0.47,0.97,24,2,24,0.59,9084,55,88,40,86,1285,456.0,616,462,60,123.0,440,1,418,584,197,0,0,479,-26615,-10483,457,181.28,,,,,,,,,,,,
255823,1561295644101,3,2.5,2.16,2.5,2.6,3.52,0.16,-0.44,0.99,24,3,27,0.47,9164,61,88,40,86,1274,461.0,608,461,60,123.0,440,1,418,573,197,0,0,504,-21944,3,461,181.28,,,,,,,,,,,,
255843,1561295644121,5,2.48,2.16,2.52,2.59,3.52,0.32,-0.42,1.02,25,-0,27,0.53,9314,72,88,40,86,1270,467.0,598,457,60,123.0,440,1,418,573,197,0,0,487,3826,6274,467,-5.59,45.698795,4.909823,42.54,196.0,4,0.805,0,0.0,0.4317,5,0.27,4.264
255863,1561295644141,5,2.44,2.17,2.52,2.58,3.53,0.35,-0.58,0.98,26,1,28,0.68,9422,70,88,40,86,1264,470.0,615,462,60,124.0,437,1,418,573,205,0,0,499,-3322,6274,470,181.28,,,,,,,,,,,,
255883,1561295644161,1,2.43,2.16,2.52,2.58,3.52,0.25,-0.62,1.08,26,2,29,0.67,9590,86,88,40,86,1256,475.0,537,465,60,123.0,437,1,415,574,205,0,0,524,19477,-4054,475,-5.59,,,,,,,,,,,,
255903,1561295644181,4,2.41,2.17,2.51,2.59,3.49,0.25,-0.67,1.16,26,1,29,0.71,9755,62,88,40,86,1251,478.0,581,453,60,124.0,437,1,407,564,205,0,0,516,26704,1341,478,181.28,,,,,,,,,,,,
255923,1561295644203,3,2.39,2.19,2.49,2.59,3.46,0.33,-0.6,1.14,25,1,30,0.68,9821,54,88,40,85,1248,481.0,491,461,60,123.0,437,1,404,565,205,0,0,509,10305,-9072,482,-5.59,,,,,,,,,,,,
255943,1561295644223,0,2.39,2.2,2.51,2.58,3.44,0.29,-0.67,1.12,24,1,29,0.74,9889,69,88,40,84,1242,486.0,501,458,60,123.0,437,1,401,550,205,0,0,533,14488,-8186,486,181.28,45.698788,4.909812,44.18,196.0,4,0.805,0,0.0,0.4333,5,0.27,4.2657
255963,1561295644243,5,2.39,2.2,2.53,2.59,3.35,0.27,-0.61,1.17,24,0,29,0.66,10048,21,88,40,82,1225,487.0,544,461,60,123.0,410,1,399,523,201,0,0,526,6193,-8962,487,414.87,,,,,,,,,,,,
255983,1561295644263,3,2.39,2.19,2.53,2.58,3.34,0.27,-0.62,1.11,24,1,29,0.68,10091,43,88,40,79,1209,494.0,477,463,60,123.0,410,1,402,500,201,0,0,533,10432,-8186,496,-5.59,,,,,,,,,,,,
256003,1561295644283,3,2.39,2.18,2.51,2.59,3.34,0.22,-0.7,1.09,23,2,28,0.73,10091,49,88,40,74,1194,500.0,520,459,60,124.0,410,1,403,464,201,0,0,565,3576,-22519,500,181.28,,,,,,,,,,,,
256023,1561295644303,5,2.39,2.19,2.51,2.59,3.33,0.19,-0.77,1.17,22,2,26,0.79,10135,22,88,40,69,1177,502.0,558,457,60,124.0,410,1,407,434,201,0,0,553,2212,2104,502,181.28,,,,,,,,,,,,
256043,1561295644323,2,2.39,2.18,2.51,2.58,3.32,0.16,-0.7,1.19,21,2,27,0.72,10080,32,88,40,63,1152,508.0,621,460,60,123.0,410,1,412,393,201,0,0,515,-10483,-8962,508,181.28,45.69878,4.9098,46.63,196.0,4,0.805,0,0.0,0.435,5,0.27,4.2674
256063,1561295644343,3,2.38,2.19,2.51,2.57,3.35,0.18,-0.73,1.07,20,2,24,0.75,9957,32,88,40,60,1127,513.0,632,458,60,124.0,271,1,408,356,139,0,0,532,-32768,-22519,513,-5.59,,,,,,,,,,,,
256083,1561295644363,3,2.39,2.19,2.52,2.54,3.41,0.13,-0.78,1.16,19,1,23,0.79,9852,2,88,40,57,1117,515.0,626,461,60,123.0,271,1,404,330,139,0,0,571,-22519,-32248,515,181.28,,,,,,,,,,,,
256103,1561295644383,2,2.38,2.2,2.52,2.52,3.47,0.21,-0.65,1.06,19,1,23,0.69,9847,21,88,40,56,1105,519.0,631,462,60,124.0,271,1,403,323,139,0,0,526,-28648,-22519,519,181.28,,,,,,,,,,,,
256123,1561295644403,4,2.4,2.19,2.53,2.49,3.51,0.31,-0.66,1.06,18,-1,20,0.73,9821,41,88,40,54,1065,522.0,634,459,60,124.0,271,1,400,310,139,0,0,526,10994,-2336,522,181.28,,,,,,,,,,,,
256143,1561295644423,3,2.41,2.18,2.56,2.48,3.52,0.35,-0.55,1.08,17,-2,21,0.65,9873,9,88,40,51,1026,522.0,632,458,60,123.0,271,1,391,289,139,0,0,526,17136,-22519,522,181.28,45.698772,4.909786,49.18,195.9,4,0.805,0,0.0,0.4367,5,0.28,4.2691
256163,1561295644443,1,2.41,2.18,2.62,2.45,3.47,0.48,-0.56,1.08,16,-2,20,0.74,9842,22,88,40,48,997,523.0,633,459,60,124.0,182,1,382,248,96,0,0,528,-3482,1780,523,181.28,,,,,,,,,,,,
256183,1561295644463,1,2.43,2.16,2.68,2.44,3.47,0.45,-0.49,1.06,16,-2,19,0.67,9654,22,88,40,43,969,527.0,638,461,60,124.0,182,1,350,224,96,0,0,526,15679,-28648,527,181.28,,,,,,,,,,,,
256203,1561295644483,2,2.43,2.14,2.73,2.44,3.46,0.43,-0.53,0.99,16,-2,19,0.68,9403,6,88,40,39,918,530.0,636,463,60,124.0,182,1,320,211,96,0,0,521,15679,-30064,530,181.28,,,,,,,,,,,,
256223,1561295644501,4,2.44,2.1,2.79,2.44,3.47,0.59,-0.64,1.0,16,-6,18,0.87,9186,19,88,40,36,867,531.0,627,453,60,124.0,182,1,311,200,96,0,0,510,26178,2524,530,181.28,,,,,,,,,,,,
256243,1561295644521,2,2.44,2.0,2.81,2.43,3.52,0.68,-0.7,0.98,16,-7,19,0.98,8967,9,88,40,34,839,530.0,627,454,60,125.0,182,1,305,192,96,0,0,513,-4054,-22519,532,414.87,45.698765,4.909771,51.07,195.9,4,0.805,0,0.0,0.4383,5,0.28,4.2707
256263,1561295644541,2,2.43,1.96,2.85,2.41,3.56,0.73,-0.79,0.97,16,-8,18,1.08,8745,16,88,40,32,817,533.0,623,464,60,124.0,116,1,300,185,62,0,0,509,-4054,-22519,533,181.28,,,,,,,,,,,,
256283,1561295644561,-1,2.45,1.93,2.86,2.39,3.57,0.65,-0.83,0.91,17,-6,19,1.05,8546,9,88,40,32,794,534.0,617,456,60,123.0,116,1,300,185,62,0,0,506,-4054,-28648,534,-5.59,,,,,,,,,,,,
256303,1561295644581,3,2.47,1.88,2.87,2.39,3.61,0.79,-0.85,0.89,17,-9,18,1.16,8468,8,88,40,31,771,535.0,615,462,60,124.0,116,1,294,183,62,0,0,490,10994,-14,535,181.28,,,,,,,,,,,,
256323,1561295644601,2,2.48,1.81,2.88,2.38,3.67,0.79,-0.85,0.84,18,-8,21,1.16,8503,14,88,40,31,764,529.0,613,461,60,124.0,116,1,295,185,62,0,0,479,-32248,-21872,529,181.28,,,,,,,,,,,,
256343,1561295644621,0,2.49,1.72,2.89,2.36,3.74,0.7,-0.87,0.77,18,-6,20,1.11,8549,16,88,40,30,763,530.0,612,461,60,124.0,116,1,291,185,62,0,0,465,10408,3,530,414.87,45.698757,4.909756,51.95,195.9,4,0.805,0,0.0,0.44,5,0.28,4.2724
256363,1561295644641,6,2.5,1.61,2.87,2.33,3.76,0.75,-0.88,0.74,20,-4,23,1.15,8596,18,88,40,31,779,529.0,608,460,60,123.0,113,1,295,185,60,0,0,458,771,-3856,529,-5.59,,,,,,,,,,,,
256383,1561295644661,2,2.51,1.55,2.88,2.33,3.77,0.75,-0.86,0.67,21,-4,24,1.14,8573,9,88,39,31,801,528.0,615,463,60,124.0,113,1,295,186,60,0,0,457,-6528,3,528,181.28,,,,,,,,,,,,
256403,1561295644681,1,2.51,1.52,2.86,2.33,3.76,0.8,-0.93,0.61,22,-3,25,1.23,8624,19,88,39,31,824,530.0,614,462,60,124.0,113,1,295,186,60,0,0,445,1,15661,530,181.28,,,,,,,,,,,,
256423,1561295644699,1,2.51,1.52,2.85,2.34,3.75,0.66,-0.95,0.6,22,-3,28,1.16,8656,15,88,39,32,847,524.0,615,459,60,124.0,113,1,300,186,60,0,0,440,-10483,3,524,414.87,,,,,,,,,,,,
256443,1561295644719,6,2.51,1.52,2.86,2.35,3.76,0.8,-0.88,0.58,24,-4,30,1.19,8700,17,88,39,32,883,521.0,616,456,60,123.0,113,1,300,186,60,0,0,445,10305,771,519,-5.59,45.698753,4.90974,51.27,195.9,4,0.805,0,0.0,0.4417,5,0.28,4.274
256463,1561295644739,3,2.51,1.52,2.85,2.36,3.75,0.91,-0.84,0.51,25,-2,32,1.24,8786,17,88,39,33,923,517.0,616,460,60,124.0,119,1,302,189,62,0,0,442,-9203,-9216,515,181.28,,,,,,,,,,,,
256483,1561295644759,3,2.5,1.51,2.82,2.35,3.77,0.92,-0.91,0.49,25,-3,31,1.3,8836,23,88,39,33,952,515.0,611,459,60,124.0,119,1,302,189,62,0,0,447,8488,3,515,-5.59,,,,,,,,,,,,
256503,1561295644779,4,2.5,1.49,2.8,2.35,3.78,1.03,-1.01,0.49,27,-2,32,1.44,8836,15,88,39,33,969,510.0,605,460,60,125.0,119,1,302,189,62,0,0,436,243,2524,510,181.28,,,,,,,,,,,,
256523,1561295644801,3,2.48,1.49,2.8,2.35,3.79,0.88,-1.1,0.45,26,-1,32,1.41,8840,23,88,39,34,987,507.0,573,458,60,124.0,119,1,305,193,62,0,0,432,30272,2524,507,181.28,,,,,,,,,,,,
256543,1561295644821,1,2.48,1.5,2.82,2.34,3.79,0.83,-1.14,0.43,26,-1,34,1.41,8844,21,88,39,35,1006,508.0,543,468,60,124.0,119,1,308,196,62,0,0,424,16408,3,508,181.28,45.698746,4.909724,50.02,195.9,4,0.805,0,0.0,0.4433,5,0.28,4.2757
256563,1561295644841,3,2.45,1.56,2.81,2.35,3.79,0.79,-1.09,0.43,27,-0,35,1.34,8894,24,88,39,38,1016,506.0,507,460,60,124.0,134,1,317,207,68,0,0,423,30272,15661,506,181.28,,,,,,,,,,,,
256583,1561295644861,3,2.43,1.63,2.79,2.35,3.79,0.69,-1.05,0.47,26,-1,36,1.26,8949,31,88,39,41,1017,501.0,402,466,60,124.0,134,1,332,214,68,0,0,439,16408,15661,501,414.87,,,,,,,,,,,,
256603,1561295644881,2,2.42,1.63,2.78,2.33,3.79,0.7,-0.94,0.46,26,-1,35,1.18,8988,40,88,39,45,1010,499.0,396,452,60,124.0,134,1,357,224,68,0,0,453,-3210,2109,499,414.87,,,,,,,,,,,,
256623,1561295644902,1,2.41,1.63,2.75,2.33,3.79,0.58,-0.87,0.46,26,0,36,1.05,9053,43,88,39,48,995,497.0,384,457,60,124.0,134,1,375,239,68,0,0,461,30272,-22519,497,414.87,,,,,,,,,,,,
256643,1561295644922,2,2.39,1.64,2.73,2.34,3.78,0.62,-0.82,0.43,24,-1,35,1.03,9101,52,88,39,52,978,492.0,412,453,60,124.0,134,1,392,268,68,0,0,466,243,-6656,494,414.87,45.698738,4.909708,48.65,195.9,4,0.805,0,0.0,0.445,5,0.28,4.2774
256663,1561295644942,1,2.4,1.63,2.74,2.32,3.72,0.51,-0.75,0.4,23,0,35,0.91,9075,53,88,39,55,960,491.0,428,461,60,124.0,200,1,400,296,98,0,0,473,10432,-6528,491,181.28,,,,,,,,,,,,
256683,1561295644962,2,2.39,1.63,2.77,2.28,3.68,0.51,-0.67,0.42,21,-0,33,0.85,9014,65,88,39,61,949,490.0,483,459,60,124.0,200,1,396,342,98,0,0,471,3576,1,490,181.28,,,,,,,,,,,,
256703,1561295644982,3,2.38,1.67,2.79,2.27,3.63,0.47,-0.61,0.41,20,2,33,0.77,9014,40,88,39,69,945,488.0,509,464,60,124.0,200,1,413,373,98,0,0,472,-9203,-6656,488,181.28,,,,,,,,,,,,
256723,1561295644996,2,2.39,1.73,2.78,2.25,3.53,0.44,-0.63,0.44,17,-0,30,0.76,9005,56,88,39,76,945,487.0,550,449,60,124.0,200,1,413,448,98,0,0,482,-17956,3580,486,181.28,,,,,,,,,,,,
256743,1561295645016,2,2.39,1.73,2.8,2.21,3.5,0.32,-0.55,0.42,16,3,30,0.63,8831,67,88,39,82,958,485.0,581,465,60,124.0,200,1,421,531,98,0,0,473,-9203,-6441,485,181.28,45.698738,4.909692,47.78,195.9,4,0.805,0,0.0,0.4467,5,0.28,4.279
256763,1561295645036,0,2.39,1.74,2.79,2.16,3.51,0.4,-0.38,0.45,16,2,29,0.55,8890,70,88,39,85,991,485.0,587,463,60,124.0,388,1,421,566,189,0,0,476,-9203,-899,485,414.87,,,,,,,,,,,,
256783,1561295645056,2,2.41,1.77,2.77,2.14,3.45,0.31,-0.27,0.47,15,4,28,0.42,9159,73,88,39,85,1085,487.0,601,462,60,124.0,388,1,418,566,189,0,0,472,3576,-10483,487,414.87,,,,,,,,,,,,
256803,1561295645076,5,2.41,1.79,2.77,2.14,3.42,0.33,-0.32,0.53,15,2,25,0.46,9508,71,88,39,84,1176,485.0,612,453,60,124.0,388,1,418,556,189,0,0,472,-1923,-10483,484,181.28,,,,,,,,,,,,
256823,1561295645102,3,2.41,1.79,2.79,2.13,3.46,0.46,-0.25,0.5,15,2,27,0.52,9873,65,88,39,84,1257,485.0,621,457,60,123.0,388,1,401,570,189,0,0,468,32033,-1562,485,-5.59,,,,,,,,,,,,
256843,1561295645122,2,2.42,1.76,2.82,2.1,3.5,0.54,-0.34,0.42,15,4,25,0.63,10168,83,88,39,83,1337,487.0,625,461,60,124.0,388,1,406,535,189,0,0,477,8488,-899,487,-5.59,45.698734,4.909675,47.87,195.9,4,0.805,0,0.0,0.4483,5,0.29,4.2807
256863,1561295645142,2,2.43,1.76,2.75,2.09,3.48,0.42,-0.47,0.55,15,4,23,0.63,10302,64,88,39,83,1418,488.0,639,464,60,124.0,428,1,415,535,209,0,0,495,-1923,11560,491,181.28,,,,,,,,,,,,
256883,1561295645162,6,2.42,1.81,2.64,2.14,3.38,0.29,-0.61,0.66,15,7,23,0.68,10162,47,88,39,83,1498,495.0,640,456,60,124.0,428,1,406,535,209,0,0,561,10305,17136,496,181.28,,,,,,,,,,,,
256903,1561295645182,3,2.43,1.95,2.57,2.23,3.3,0.29,-0.59,0.67,15,8,23,0.66,10016,69,88,39,82,1498,499.0,632,458,60,123.0,428,1,397,528,209,0,0,565,8488,-22519,504,-5.59,,,,,,,,,,,,
256923,1561295645202,2,2.44,2.06,2.49,2.3,3.27,0.22,-0.63,0.68,14,8,21,0.67,9978,15,88,39,75,1494,506.0,636,450,60,124.0,428,1,396,472,209,0,0,512,-6441,2088,506,181.28,,,,,,,,,,,,
256943,1561295645222,3,2.45,2.11,2.48,2.33,3.27,0.18,-0.66,0.81,14,10,22,0.68,9811,20,88,39,65,1466,512.0,640,455,60,124.0,428,1,407,393,209,0,0,518,-1562,-30064,512,414.87,45.698734,4.909658,47.46,195.9,4,0.805,0,0.0,0.45,5,0.29,4.2824
256963,1561295645242,2,2.45,2.14,2.48,2.34,3.24,0.25,-0.66,0.76,15,6,21,0.71,9704,34,88,39,58,1438,514.0,636,465,60,124.0,251,1,406,336,129,0,0,527,998,-22519,514,-5.59,,,,,,,,,,,,
256983,1561295645262,3,2.45,2.16,2.48,2.35,3.29,0.32,-0.52,0.79,16,4,21,0.61,9625,20,88,39,53,1410,516.0,635,452,60,124.0,251,1,397,312,129,0,0,530,-9216,-30064,516,414.87,,,,,,,,,,,,
257003,1561295645282,5,2.45,2.13,2.53,2.35,3.42,0.46,-0.58,0.76,16,2,20,0.74,9571,28,88,39,51,1383,518.0,630,458,60,124.0,251,1,391,279,129,0,0,542,2524,10408,518,181.28,,,,,,,,,,,,
257023,1561295645302,3,2.46,2.07,2.63,2.36,3.5,0.46,-0.46,0.76,17,2,20,0.66,9595,34,88,39,49,1325,521.0,623,460,60,124.0,251,1,385,258,129,0,0,533,11560,2104,521,181.28,,,,,,,,,,,,
257043,1561295645322,3,2.46,2.04,2.69,2.34,3.55,0.43,-0.55,0.79,16,1,20,0.7,9699,18,88,39,47,1269,525.0,635,459,60,124.0,251,1,380,238,129,0,0,513,15661,-32248,525,181.28,45.69873,4.909641,48.94,195.9,4,0.805,0,0.0,0.4517,5,0.29,4.284
257063,1561295645342,1,2.46,2.01,2.74,2.33,3.55,0.44,-0.6,0.73,17,1,21,0.74,9750,20,88,39,43,1237,527.0,633,461,60,124.0,163,1,350,230,86,0,0,515,-32248,-28648,527,-5.59,,,,,,,,,,,,
257083,1561295645362,5,2.46,2.0,2.76,2.32,3.55,0.43,-0.69,0.74,18,1,20,0.82,9654,4,88,39,38,1208,527.0,638,462,60,124.0,163,1,317,210,86,0,0,515,6274,-32248,527,181.28,,,,,,,,,,,,
257103,1561295645382,11,2.46,2.01,2.74,2.33,3.56,0.54,-0.69,0.78,18,1,20,0.88,9375,1,88,39,33,1137,530.0,631,457,60,124.0,163,1,302,195,86,0,0,509,2109,2524,530,181.28,,,,,,,,,,,,
257123,1561295645402,13,2.45,2.01,2.73,2.32,3.59,0.61,-0.59,0.72,18,-0,20,0.85,9141,0,88,39,30,1063,525.0,627,463,60,124.0,163,1,291,187,86,0,0,494,248,2524,525,-5.59,,,,,,,,,,,,
257143,1561295645422,12,2.46,1.96,2.73,2.29,3.61,0.73,-0.57,0.7,20,-0,20,0.93,8907,1,88,39,27,1012,519.0,628,459,60,124.0,163,1,278,186,86,0,0,482,-6441,-8187,518,181.28,45.69873,4.909623,51.42,195.9,4,0.805,0,0.0,0.4533,5,0.29,4.2857
257163,1561295645442,10,2.46,1.74,2.75,2.23,3.7,0.84,-0.59,0.7,20,-3,20,1.03,8688,2,88,39,26,969,519.0,620,461,60,124.0,117,1,274,186,61,0,0,473,505,-8187,517,181.28,,,,,,,,,,,,
257183,1561295645462,13,2.46,1.63,2.79,2.21,3.74,0.78,-0.62,0.62,20,-1,23,1.0,8453,3,88,39,25,919,516.0,615,460,60,125.0,117,1,270,183,61,0,0,449,-6656,26178,515,414.87,,,,,,,,,,,,
257203,1561295645482,12,2.45,1.61,2.86,2.16,3.76,0.91,-0.6,0.62,21,-3,21,1.09,8245,2,88,39,24,867,517.0,611,461,60,124.0,117,1,270,166,61,0,0,434,-10483,-3856,517,-5.59,,,,,,,,,,,,
257223,1561295645500,13,2.46,1.56,2.86,2.14,3.78,0.8,-0.62,0.54,21,1,21,1.02,8023,0,88,39,23,848,516.0,602,463,60,124.0,117,1,270,155,61,0,0,390,-899,10994,516,414.87,,,,,,,,,,,,
257243,1561295645520,15,2.45,1.55,2.9,2.13,3.78,0.73,-0.6,0.44,22,2,24,0.95,7874,0,88,39,23,840,515.0,593,461,60,124.0,117,1,268,152,61,0,0,332,2212,6274,515,414.87,45.698727,4.909605,51.21,195.9,4,0.805,0,0.0,0.455,5,0.29,4.2874
257263,1561295645540,10,2.46,1.61,2.85,2.14,3.77,0.82,-0.61,0.36,23,4,24,1.02,7665,0,88,39,22,843,511.0,585,462,60,125.0,85,1,266,149,44,0,0,306,3576,17136,511,181.28,,,,,,,,,,,,
257283,1561295645560,15,2.45,1.63,2.78,2.17,3.78,0.91,-0.64,0.34,23,6,24,1.11,7494,2,88,39,22,849,504.0,572,462,60,124.0,85,1,264,149,44,0,0,285,14488,-32248,504,181.28,,,,,,,,,,,,
257303,1561295645580,14,2.46,1.6,2.82,2.19,3.78,0.95,-0.71,0.34,22,7,25,1.18,7270,3,88,39,22,860,500.0,557,461,60,125.0,85,1,262,147,44,0,0,256,-7939,15661,500,181.28,,,,,,,,,,,,
257323,1561295645602,11,2.45,1.58,2.85,2.09,3.78,0.66,-0.73,0.22,22,8,27,0.98,7072,0,88,39,21,874,497.0,551,461,60,123.0,85,1,260,147,44,0,0,190,8488,998,497,-5.59,,,,,,,,,,,,
257343,1561295645622,15,2.43,1.56,2.8,2.05,3.78,0.76,-0.71,0.39,23,5,27,1.04,6898,0,88,39,21,888,499.0,543,464,60,124.0,85,1,260,145,44,0,0,165,30272,-6528,499,181.28,45.698727,4.909587,49.69,195.9,4,0.805,0,0.0,0.4567,5,0.29,4.2891
257363,1561295645642,10,2.43,1.55,2.8,2.07,3.77,0.82,-0.65,0.23,22,9,26,1.05,6634,3,88,39,21,902,495.0,531,463,60,125.0,72,1,260,144,36,0,0,151,2211,-32768,489,414.87,,,,,,,,,,,,
257383,1561295645662,12,2.42,1.57,2.84,2.06,3.73,0.78,-0.7,0.28,21,7,24,1.05,6343,0,88,39,21,909,488.0,515,461,60,125.0,72,1,260,143,36,0,0,140,-23623,505,488,181.28,,,,,,,,,,,,
257403,1561295645682,12,2.41,1.56,2.85,2.07,3.72,0.67,-0.77,0.4,20,7,23,1.02,6044,0,88,39,21,909,486.0,495,460,60,124.0,72,1,260,141,36,0,0,240,10305,-899,486,181.28,,,,,,,,,,,,
257423,1561295645702,12,2.42,1.55,2.85,2.06,3.71,0.7,-0.86,0.54,19,3,24,1.11,5857,0,88,39,22,907,481.0,477,460,60,126.0,72,1,260,144,36,0,0,250,15649,10305,480,181.28,,,,,,,,,,,,
257443,1561295645722,14,2.42,1.57,2.88,2.06,3.61,0.84,-0.89,0.54,19,1,24,1.22,5669,0,88,39,22,901,475.0,463,464,60,125.0,72,1,258,144,36,0,0,231,10305,2212,475,414.87,45.69873,4.90957,48.26,195.9,4,0.805,0,0.0,0.4583,5,0.29,4.2907
257463,1561295645742,14,2.41,1.56,2.91,2.07,3.58,0.96,-0.83,0.45,20,-0,23,1.26,5504,0,88,39,23,897,470.0,441,465,60,124.0,65,1,260,148,31,0,0,292,-7939,17628,470,181.28,,,,,,,,,,,,
257483,1561295645762,13,2.42,1.53,2.96,2.04,3.69,0.95,-0.77,0.43,19,1,24,1.22,5496,0,88,39,24,892,461.0,412,463,60,124.0,65,1,261,152,31,0,0,268,-28332,18584,460,-5.59,,,,,,,,,,,,
257503,1561295645782,13,2.41,1.51,3.07,1.95,3.77,0.97,-0.8,0.4,18,-1,21,1.26,5590,3,88,39,25,887,459.0,410,460,60,126.0,65,1,265,152,31,0,0,210,-768,-768,459,181.28,,,,,,,,,,,,
257523,1561295645802,16,2.4,1.52,3.12,1.9,3.77,1.06,-0.69,0.27,19,2,23,1.27,5453,0,88,39,25,882,458.0,400,467,60,123.0,65,1,264,157,31,0,0,148,-3322,20625,458,-5.59,,,,,,,,,,,,
257543,1561295645822,14,2.39,1.56,3.03,1.9,3.77,0.88,-0.67,0.26,18,2,22,1.1,5310,3,88,39,26,879,453.0,385,468,60,124.0,65,1,264,80,31,0,0,105,-3322,-8985,453,-5.59,45.69873,4.909553,46.6,195.9,4,0.805,0,0.0,0.46,5,0.3,4.2924
257563,1561295645842,13,2.37,1.64,3.01,1.94,3.77,0.99,-0.65,0.19,18,0,20,1.19,5122,3,88,39,27,879,448.0,384,460,60,123.0,66,1,264,157,30,0,0,105,-8165,16648,443,181.28,,,,,,,,,,,,
257583,1561295645862,14,2.36,1.65,3.04,2.01,3.79,1.03,-0.71,0.27,17,-2,22,1.25,4988,0,88,39,28,881,441.0,385,462,60,125.0,66,1,263,156,30,0,0,66,-26615,20625,441,181.28,,,,,,,,,,,,
257603,1561295645882,17,2.33,1.67,3.07,1.99,3.78,0.98,-0.64,0.32,15,-2,25,1.17,4831,0,88,39,29,884,437.0,381,467,60,124.0,66,1,254,78,30,0,0,66,3826,1779,437,-5.59,,,,,,,,,,,,
257623,1561295645901,17,2.33,1.72,3.12,1.95,3.74,0.94,-0.57,0.24,13,-1,22,1.1,4627,0,88,39,30,888,431.0,376,460,60,124.0,66,1,241,77,30,0,0,66,18584,3635,431,-5.59,,,,,,,,,,,,
257643,1561295645921,18,2.3,1.74,3.12,1.91,3.65,0.93,-0.55,0.27,13,0,21,1.08,4448,0,88,39,31,892,424.0,367,462,60,123.0,66,1,230,155,30,0,0,66,7154,1779,424,-5.59,45.698734,4.909537,44.61,195.9,4,0.805,0,0.0,0.4617,5,0.3,4.2941
257663,1561295645941,21,2.29,1.72,3.09,1.88,3.6,0.9,-0.53,0.32,11,0,19,1.05,4325,0,88,39,32,896,421.0,356,461,60,124.0,59,1,222,80,25,0,0,28,9517,-21792,421,-5.59,,,,,,,,,,,,
257683,1561295645961,16,2.29,1.69,3.11,1.82,3.56,0.98,-0.52,0.3,9,-3,19,1.11,4174,0,88,39,33,906,413.0,348,468,60,126.0,59,1,218,159,25,0,0,133,10392,-3414,410,181.28,,,,,,,,,,,,
257703,1561295645981,18,2.26,1.65,3.11,1.6,3.57,1.09,-0.43,0.33,8,-4,16,1.17,4021,0,88,39,33,913,409.0,332,456,60,124.0,59,1,208,158,25,0,0,156,10392,-26615,407,181.28,,,,,,,,,,,,
257723,1561295645997,19,2.25,1.63,3.13,1.43,3.59,1.13,-0.35,0.25,6,1,14,1.18,3945,0,88,39,34,919,409.0,326,462,60,124.0,59,1,209,159,25,0,0,160,11560,-3866,402,-5.59,,,,,,,,,,,,
257743,1561295646017,18,2.21,1.69,3.15,1.38,3.57,1.1,-0.24,0.23,4,-2,10,1.12,3997,0,88,39,34,926,405.0,317,463,60,126.0,59,1,213,159,25,0,0,125,-9211,28160,391,181.28,45.698734,4.909522,42.54,195.9,4,0.805,0,0.0,0.4633,5,0.3,4.2957
257763,1561295646037,18,2.19,1.8,3.18,1.35,3.58,1.19,-0.17,0.15,2,-1,9,1.2,4038,0,88,39,34,937,402.0,315,464,60,125.0,62,1,216,160,24,0,0,91,10541,10686,381,181.28,,,,,,,,,,,,
257783,1561295646057,18,2.16,1.93,3.21,1.35,3.54,1.18,-0.07,0.14,0,1,4,1.19,3910,3,88,39,35,950,397.0,312,462,60,124.0,62,1,215,161,24,0,0,118,-3968,150,365,-5.59,,,,,,,,,,,,
257803,1561295646077,14,2.14,2.01,3.23,1.34,3.54,1.21,-0.01,0.06,-3,-1,1,1.21,3903,0,88,39,35,956,394.0,308,460,60,126.0,62,1,214,161,24,0,0,156,-1818,-22016,355,181.28,,,,,,,,,,,,
257823,1561295646101,20,2.11,2.07,3.27,1.32,3.54,1.25,0.03,0.11,-7,-1,-1,1.25,4015,0,88,39,35,962,389.0,306,461,60,124.0,62,1,222,84,24,0,0,150,-6524,-1281,344,-5.59,,,,,,,,,,,,
257843,1561295646121,13,2.11,2.12,3.33,1.32,3.45,1.24,0.12,0.05,-10,1,-6,1.24,4047,0,88,39,36,974,388.0,307,463,60,124.0,62,1,231,86,24,0,0,164,-31744,-1532,332,-5.59,45.698738,4.909507,39.53,195.8,4,0.805,0,0.0,0.465,5,0.3,4.2974
257863,1561295646141,7,2.11,2.15,3.37,1.31,3.37,1.28,0.21,-0.01,-12,-2,-9,1.3,3974,0,88,39,36,985,383.0,310,465,60,126.0,72,1,226,162,24,0,0,310,-19126,16384,328,181.28,,,,,,,,,,,,
257883,1561295646161,3,2.11,2.16,3.43,1.28,3.37,1.28,0.35,0.02,-15,-5,-12,1.32,4057,0,88,39,36,990,377.0,308,459,60,124.0,72,1,231,163,24,0,0,285,-6656,-1480,322,181.28,,,,,,,,,,,,
257903,1561295646181,5,2.12,2.16,3.51,1.25,3.37,1.29,0.4,0.1,-17,-5,-17,1.35,4190,0,88,39,36,995,376.0,312,459,60,124.0,72,1,239,166,24,0,0,308,3,250,325,-5.59,,,,,,,,,,,,
257923,1561295646201,4,2.13,2.2,3.52,1.26,3.38,1.18,0.42,0.1,-19,-2,-22,1.25,4274,3,88,39,37,1005,375.0,315,465,60,124.0,72,1,254,170,24,0,0,288,770,250,320,-5.59,,,,,,,,,,,,
257943,1561295646221,1,2.13,2.26,3.53,1.28,3.39,1.0,0.48,0.14,-22,0,-25,1.11,4361,3,88,39,37,1015,375.0,319,472,60,126.0,72,1,255,172,24,0,0,303,770,250,317,181.28,45.698738,4.909494,36.31,195.8,4,0.805,0,0.0,0.4667,5,0.3,4.299
257963,1561295646241,-1,2.14,2.32,3.52,1.32,3.37,0.97,0.55,0.1,-25,1,-29,1.11,4275,0,88,39,37,1021,372.0,322,465,60,126.0,85,1,250,170,27,0,0,345,257,250,315,181.28,,,,,,,,,,,,
257983,1561295646261,0,2.15,2.37,3.52,1.33,3.3,0.96,0.59,0.04,-28,-2,-30,1.12,4253,0,88,39,37,1026,368.0,325,461,60,126.0,85,1,249,167,27,0,0,347,0,-1,311,181.28,,,,,,,,,,,,
258003,1561295646281,0,2.17,2.43,3.52,1.32,3.27,1.02,0.67,0.04,-30,-3,-32,1.22,4311,0,88,39,37,981,362.0,327,463,60,125.0,85,1,252,171,27,0,0,323,2790,5140,309,181.28,,,,,,,,,,,,
258023,1561295646301,-1,2.18,2.46,3.52,1.31,3.24,1.05,0.74,0.11,-30,-6,-33,1.29,4384,0,88,39,37,931,358.0,331,461,60,126.0,85,1,256,173,27,0,0,334,-29978,-1,305,181.28,,,,,,,,,,,,
258043,1561295646321,0,2.21,2.46,3.52,1.31,3.24,1.07,0.76,0.18,-30,-6,-34,1.31,4358,0,88,39,37,877,354.0,331,464,60,125.0,85,1,255,172,27,0,0,342,3302,-1482,305,181.28,45.698738,4.909482,33.59,195.8,4,0.805,0,0.0,0.4683,5,0.3,4.3007
258063,1561295646341,5,2.23,2.45,3.5,1.32,3.24,1.03,0.7,0.23,-29,-4,-35,1.25,4284,0,88,39,37,823,354.0,332,466,60,124.0,88,1,251,93,27,0,0,351,3302,14312,306,-5.59,,,,,,,,,,,,
258083,1561295646361,2,2.26,2.44,3.44,1.33,3.23,0.92,0.7,0.26,-29,-3,-37,1.15,4222,0,88,39,38,767,350.0,330,458,60,124.0,88,1,254,94,27,0,0,344,-30454,-1,306,-5.59,,,,,,,,,,,,
258103,1561295646381,-0,2.29,2.42,3.41,1.33,3.23,0.87,0.67,0.3,-29,-2,-36,1.1,4149,0,88,39,37,710,342.0,327,450,60,125.0,88,1,243,167,27,0,0,318,-31206,250,306,181.28,,,,,,,,,,,,
258123,1561295646401,0,2.32,2.4,3.4,1.33,3.28,0.89,0.73,0.24,-27,-4,-37,1.15,4218,0,88,39,37,690,338.0,327,461,60,125.0,88,1,247,169,27,0,0,296,3346,-1,306,181.28,,,,,,,,,,,,
258143,1561295646421,-0,2.36,2.29,3.37,1.32,3.36,0.99,0.73,0.19,-25,-6,-37,1.23,4319,3,88,39,37,688,331.0,329,458,60,125.0,88,1,252,172,27,0,0,289,-12032,-2560,303,181.28,45.698738,4.90947,32.11,195.8,4,0.805,0,0.0,0.47,5,0.3,4.3024
258163,1561295646441,-1,2.4,2.14,3.3,1.32,3.41,1.05,0.72,0.19,-23,-8,-34,1.28,4424,3,88,39,37,700,329.0,330,453,60,125.0,91,1,259,174,28,0,0,263,165,250,305,181.28,,,,,,,,,,,,
258183,1561295646461,-0,2.43,2.11,3.26,1.36,3.41,1.11,0.66,0.22,-21,-8,-31,1.29,4525,1,88,39,38,719,324.0,333,455,60,126.0,91,1,270,180,28,0,0,240,160,2414,303,181.28,,,,,,,,,,,,
258203,1561295646481,-2,2.48,2.1,3.24,1.41,3.4,1.12,0.67,0.26,-19,-9,-28,1.31,4644,3,88,39,38,739,317.0,339,453,60,124.0,91,1,276,183,28,0,0,259,-30976,-1,305,181.28,,,,,,,,,,,,
258223,1561295646503,2,2.5,2.09,3.24,1.45,3.37,1.07,0.7,0.25,-16,-9,-25,1.28,4734,3,88,39,39,760,307.0,347,453,60,125.0,91,1,286,186,28,0,0,290,30720,-1527,304,181.28,,,,,,,,,,,,
258243,1561295646523,5,2.52,2.06,3.23,1.46,3.37,0.89,0.61,0.36,-13,-5,-22,1.08,4854,2,88,39,39,786,307.0,352,462,60,126.0,91,1,292,195,28,0,0,283,25600,23040,306,181.28,45.698738,4.909459,30.98,195.8,4,0.805,0,0.0,0.4717,5,0.3,4.304
258263,1561295646543,-0,2.52,2.01,3.25,1.5,3.39,1.0,0.5,0.35,-9,-4,-18,1.12,4998,4,88,39,39,815,309.0,364,456,60,123.0,120,1,299,124,37,0,0,281,0,0,309,-5.59,,,,,,,,,,,,
258283,1561295646563,3,2.52,1.93,3.23,1.59,3.43,1.03,0.53,0.38,-4,-6,-13,1.15,5093,6,88,39,40,834,311.0,370,457,60,125.0,120,1,301,202,37,0,0,275,250,10686,311,181.28,,,,,,,,,,,,
258303,1561295646583,0,2.53,1.89,3.22,1.71,3.49,0.91,0.41,0.38,-0,-2,-11,1.0,5203,14,88,39,42,842,311.0,377,457,60,124.0,120,1,307,131,37,0,0,271,250,20480,310,-5.59,,,,,,,,,,,,
258323,1561295646601,1,2.54,1.84,3.16,1.86,3.53,1.02,0.37,0.3,4,-3,-8,1.09,5328,27,88,39,45,848,308.0,385,460,60,125.0,120,1,318,211,37,0,0,270,30208,0,308,414.87,,,,,,,,,,,,
258343,1561295646621,1,2.53,1.8,3.02,1.98,3.52,0.94,0.21,0.37,6,-1,-4,0.97,5508,31,87,39,51,854,304.0,394,460,60,123.0,120,1,337,232,37,0,0,274,2414,24320,304,-5.59,45.698738,4.909448,29.81,195.8,4,0.805,0,0.0,0.4733,5,0.3,4.3057
258363,1561295646641,-0,2.54,1.79,2.98,2.07,3.53,0.84,0.09,0.49,7,-1,-1,0.84,5630,24,87,39,55,857,302.0,403,457,60,125.0,172,1,352,172,52,0,0,271,250,85,301,-5.59,,,,,,,,,,,,
258383,1561295646661,-0,2.55,1.79,2.98,2.11,3.55,0.74,-0.03,0.54,8,-0,1,0.74,5779,28,87,39,58,854,301.0,413,460,60,126.0,172,1,363,249,52,0,0,271,-1281,100,301,181.28,,,,,,,,,,,,
258403,1561295646681,-1,2.58,1.8,2.98,2.14,3.57,0.73,-0.15,0.59,10,-2,4,0.74,5886,21,87,39,60,850,300.0,423,458,60,126.0,172,1,372,248,52,0,0,271,-1281,24320,300,181.28,,,,,,,,,,,,
258423,1561295646701,-1,2.58,1.79,2.95,2.16,3.57,0.75,-0.25,0.6,12,-2,6,0.79,5958,24,87,39,61,846,299.0,430,460,60,125.0,172,1,377,245,52,0,0,270,250,90,298,414.87,,,,,,,,,,,,
258443,1561295646721,-2,2.62,1.8,2.91,2.17,3.59,0.76,-0.3,0.62,13,-4,9,0.82,6040,20,87,39,62,844,300.0,440,459,60,125.0,172,1,379,254,52,0,0,267,-1281,90,300,181.28,45.698738,4.909437,29.23,195.8,4,0.805,0,0.0,0.475,5,0.3,4.3074
258463,1561295646741,-2,2.65,1.81,2.88,2.19,3.61,0.69,-0.37,0.6,15,-4,12,0.78,6111,24,87,39,62,842,301.0,446,461,60,125.0,196,1,382,257,59,0,0,267,-1,24320,301,181.28,,,,,,,,,,,,
258483,1561295646761,-1,2.65,1.85,2.83,2.18,3.64,0.61,-0.45,0.62,17,-3,14,0.76,6050,22,87,39,63,841,301.0,447,460,60,125.0,196,1,377,262,59,0,0,284,-1,25600,300,181.28,,,,,,,,,,,,
258503,1561295646781,-1,2.66,1.83,2.77,2.18,3.67,0.65,-0.52,0.7,19,-4,16,0.83,5870,19,87,39,64,844,303.0,448,456,60,125.0,196,1,360,263,59,0,0,330,-1,115,303,181.28,,,,,,,,,,,,
258523,1561295646801,5,2.66,1.83,2.71,2.18,3.67,0.7,-0.53,0.7,20,-4,19,0.88,5676,22,87,39,65,847,308.0,439,455,60,126.0,196,1,343,282,59,0,0,359,-1281,29440,308,181.28,,,,,,,,,,,,
258543,1561295646821,3,2.66,1.88,2.72,2.19,3.67,0.8,-0.47,0.59,22,-5,21,0.93,5686,24,87,39,66,852,308.0,432,462,60,123.0,196,1,340,290,59,0,0,320,-1281,110,309,414.87,45.698738,4.909427,28.37,195.8,4,0.805,0,0.0,0.4767,5,0.31,4.3091
258563,1561295646841,1,2.66,1.92,2.73,2.19,3.68,0.75,-0.49,0.51,23,-4,22,0.9,5709,24,87,39,67,865,307.0,426,460,60,124.0,208,1,339,297,64,0,0,277,250,115,307,-5.59,,,,,,,,,,,,
258583,1561295646861,-1,2.67,1.93,2.74,2.18,3.67,0.66,-0.55,0.57,23,-2,22,0.86,5669,24,87,39,68,906,308.0,431,463,60,124.0,208,1,333,306,64,0,0,288,250,30720,308,-5.59,,,,,,,,,,,,
258603,1561295646881,-0,2.67,1.94,2.72,2.19,3.66,0.66,-0.62,0.65,24,-3,23,0.9,5592,21,87,39,68,945,311.0,426,448,60,126.0,208,1,327,307,64,0,0,308,-1527,32000,311,181.28,,,,,,,,,,,,
258623,1561295646900,2,2.68,1.94,2.72,2.18,3.68,0.78,-0.6,0.61,25,-4,24,0.98,5661,25,87,39,69,980,310.0,420,463,60,123.0,208,1,332,318,64,0,0,314,250,115,310,414.87,,,,,,,,,,,,
258643,1561295646920,2,2.68,1.93,2.74,2.17,3.7,0.79,-0.56,0.55,26,-3,25,0.97,5704,22,87,40,69,1020,310.0,422,459,60,123.0,208,1,335,245,64,0,0,292,250,30720,310,-5.59,45.698738,4.909417,29.15,195.7,4,0.805,0,0.0,0.4783,5,0.31,4.3107
258663,1561295646940,1,2.68,1.92,2.75,2.16,3.72,0.77,-0.61,0.55,27,-3,25,0.99,5732,21,87,40,70,1084,311.0,428,471,60,124.0,219,1,336,316,68,0,0,290,250,125,311,-5.59,,,,,,,,,,,,
258683,1561295646960,-0,2.69,1.9,2.71,2.15,3.72,0.73,-0.71,0.67,28,-1,27,1.02,5742,17,87,40,69,1146,314.0,428,458,60,125.0,219,1,337,316,68,0,0,316,30208,-32256,314,-5.59,,,,,,,,,,,,
258703,1561295646980,-1,2.69,1.9,2.67,2.12,3.69,0.71,-0.78,0.72,28,-0,28,1.05,5815,13,87,40,69,1172,317.0,428,456,60,125.0,219,1,343,316,68,0,0,314,30208,-30976,317,181.28,,,,,,,,,,,,
258723,1561295646996,0,2.7,1.9,2.66,2.12,3.68,0.71,-0.8,0.76,30,2,30,1.07,5857,14,87,40,68,1199,319.0,429,457,60,125.0,219,1,347,302,68,0,0,292,30208,140,319,181.28,,,,,,,,,,,,
258743,1561295647016,1,2.7,1.89,2.66,2.13,3.68,0.76,-0.77,0.69,31,3,32,1.08,5848,17,87,40,68,1213,319.0,430,456,60,125.0,219,1,346,302,68,0,0,307,-1534,-28416,319,414.87,45.698738,4.909406,29.59,195.7,4,0.805,0,0.0,0.48,5,0.31,4.3124
258763,1561295647036,5,2.71,1.89,2.67,2.15,3.69,0.84,-0.74,0.61,32,4,33,1.12,5861,13,87,40,68,1226,320.0,430,459,60,124.0,209,1,347,302,67,0,0,342,630,-28416,320,181.28,,,,,,,,,,,,
258783,1561295647056,4,2.72,1.9,2.7,2.19,3.72,0.89,-0.71,0.53,32,3,35,1.14,5898,15,87,40,68,1214,321.0,430,458,60,123.0,209,1,350,302,67,0,0,335,250,140,321,-5.59,,,,,,,,,,,,
258803,1561295647076,4,2.75,1.9,2.72,2.22,3.71,0.9,-0.63,0.42,33,3,36,1.09,6011,14,87,40,67,1200,321.0,437,461,60,125.0,209,1,362,292,67,0,0,300,30208,150,321,414.87,,,,,,,,,,,,
258823,1561295647102,4,2.76,1.9,2.71,2.22,3.72,0.9,-0.63,0.34,34,5,37,1.1,6017,14,87,40,67,1187,322.0,439,457,60,124.0,209,1,362,292,67,0,0,287,-1534,-27136,322,414.87,,,,,,,,,,,,
258843,1561295647122,4,2.76,1.91,2.68,2.23,3.72,0.86,-0.57,0.38,35,5,37,1.03,5959,10,87,40,66,1174,324.0,442,456,60,125.0,209,1,361,284,67,0,0,344,250,155,324,414.87,45.698742,4.909395,30.01,195.7,4,0.805,0,0.0,0.4817,5,0.31,4.3141
258863,1561295647142,3,2.75,1.89,2.68,2.25,3.71,0.84,-0.56,0.36,37,7,36,1.01,5931,16,87,40,66,1171,324.0,445,461,60,123.0,197,1,359,285,64,0,0,343,-1534,145,325,-5.59,,,,,,,,,,,,
258883,1561295647162,3,2.74,1.88,2.68,2.24,3.72,0.84,-0.6,0.29,38,7,37,1.03,6013,16,87,40,66,1170,325.0,446,458,60,124.0,197,1,365,283,64,0,0,311,630,155,325,414.87,,,,,,,,,,,,
258903,1561295647182,5,2.72,1.85,2.68,2.23,3.72,0.86,-0.6,0.27,39,7,37,1.05,6034,19,87,40,66,1174,328.0,446,464,60,123.0,197,1,366,284,64,0,0,293,630,-24576,328,-5.59,,,,,,,,,,,,
258923,1561295647202,4,2.69,1.84,2.67,2.23,3.71,0.9,-0.56,0.27,40,7,38,1.06,5939,18,87,40,66,1179,329.0,446,457,60,125.0,197,1,360,285,64,0,0,320,1886,165,329,414.87,,,,,,,,,,,,
258943,1561295647222,3,2.66,1.85,2.67,2.22,3.71,0.86,-0.51,0.29,41,9,38,1.0,5935,15,87,40,67,1185,329.0,448,460,60,124.0,197,1,357,293,64,0,0,348,24064,-24576,329,414.87,45.698746,4.909385,30.41,195.6,4,0.805,0,0.0,0.4833,5,0.31,4.3157
258963,1561295647242,3,2.62,1.85,2.69,2.2,3.71,0.79,-0.47,0.28,41,9,38,0.92,6013,17,87,40,67,1191,328.0,451,455,60,124.0,201,1,362,292,66,0,0,328,250,-23296,328,414.87,,,,,,,,,,,,
258983,1561295647262,4,2.59,1.91,2.72,2.2,3.72,0.76,-0.44,0.14,40,11,40,0.88,6081,14,87,40,68,1202,326.0,456,466,60,123.0,201,1,360,301,66,0,0,296,-16896,-24576,326,181.28,,,,,,,,,,,,
259003,1561295647282,4,2.57,1.98,2.75,2.2,3.71,0.76,-0.38,0.13,39,11,39,0.85,6077,13,87,40,69,1215,325.0,455,462,60,124.0,201,1,359,317,66,0,0,316,41,165,325,181.28,,,,,,,,,,,,
259023,1561295647302,5,2.52,2.05,2.75,2.2,3.69,0.82,-0.32,0.11,37,10,39,0.88,5988,19,87,40,71,1224,324.0,456,457,60,125.0,201,1,354,347,66,0,0,342,20480,160,324,414.87,,,,,,,,,,,,
259043,1561295647322,4,2.49,2.07,2.74,2.19,3.61,0.9,-0.23,0.07,35,11,39,0.92,5984,23,87,40,73,1230,324.0,451,453,60,124.0,201,1,350,377,66,0,0,304,23040,150,324,414.87,45.69875,4.909374,30.87,195.6,4,0.805,0,0.0,0.485,5,0.31,4.3174
259063,1561295647342,5,2.44,2.12,2.74,2.16,3.52,0.82,-0.14,0.04,33,11,38,0.83,5954,29,87,40,75,1241,323.0,443,461,60,123.0,273,1,346,406,88,0,0,305,24320,160,323,414.87,,,,,,,,,,,,
259083,1561295647362,5,2.38,2.2,2.75,2.15,3.45,0.76,-0.12,0.01,30,11,37,0.76,6009,25,87,40,76,1254,320.0,442,461,60,123.0,273,1,348,425,88,0,0,306,25600,-25856,320,414.87,,,,,,,,,,,,
259103,1561295647382,-1,2.35,2.23,2.79,2.11,3.4,0.72,-0.09,0.01,27,10,35,0.73,6028,24,87,40,77,1264,319.0,442,457,60,123.0,273,1,348,430,88,0,0,314,110,150,319,181.28,,,,,,,,,,,,
259123,1561295647402,1,2.31,2.27,2.8,2.06,3.35,0.7,0.0,0.04,23,9,32,0.7,6083,19,87,40,78,1271,318.0,448,455,60,125.0,273,1,349,436,88,0,0,325,32000,-24576,318,181.28,,,,,,,,,,,,
259143,1561295647422,-0,2.27,2.32,2.81,2.02,3.24,0.65,0.03,0.11,20,10,29,0.65,6113,23,87,40,79,1280,316.0,452,458,60,125.0,273,1,349,442,88,0,0,324,-29696,-24576,316,181.28,45.698753,4.909365,30.75,195.6,4,0.805,0,0.0,0.4867,5,0.31,4.319
259163,1561295647442,1,2.23,2.34,2.82,2.0,3.16,0.58,0.02,0.17,17,11,26,0.58,6151,41,87,40,80,1290,320.0,453,454,60,125.0,324,1,350,449,103,0,0,326,150,160,317,181.28,,,,,,,,,,,,
259183,1561295647462,1,2.21,2.38,2.86,1.99,3.11,0.58,0.02,0.25,14,12,23,0.58,6169,25,87,40,80,1297,324.0,456,459,60,125.0,324,1,351,449,103,0,0,330,160,-20736,318,181.28,,,,,,,,,,,,
259203,1561295647482,2,2.17,2.42,2.92,1.98,3.1,0.6,0.03,0.39,11,10,19,0.6,6161,33,87,40,81,1299,329.0,458,458,60,124.0,324,1,350,455,103,0,0,336,-20736,-12032,318,-5.59,,,,,,,,,,,,
259223,1561295647502,2,2.16,2.44,2.95,1.97,3.1,0.58,0.08,0.47,10,9,16,0.58,6129,26,87,40,82,1294,334.0,460,461,60,124.0,324,1,348,460,103,0,0,337,4838,-20736,320,-5.59,,,,,,,,,,,,
259243,1561295647522,4,2.15,2.48,3.02,1.98,3.11,0.61,0.12,0.59,8,7,13,0.62,6196,27,87,40,83,1279,336.0,463,458,60,124.0,324,1,349,403,103,0,0,340,13,-6528,321,-5.59,45.698757,4.909355,31.36,195.6,4,0.805,0,0.0,0.4883,5,0.31,4.3207
259263,1561295647542,-0,2.15,2.51,3.09,1.98,3.15,0.68,0.21,0.6,7,5,10,0.71,6330,49,87,40,83,1263,339.0,467,464,60,124.0,346,1,354,468,111,0,0,344,-122,3346,320,-5.59,,,,,,,,,,,,
259283,1561295647562,0,2.14,2.51,3.11,1.98,3.16,0.59,0.27,0.46,5,7,7,0.65,6425,39,87,39,83,1245,341.0,473,455,60,124.0,346,1,357,475,111,0,0,345,-14714,13,322,414.87,,,,,,,,,,,,
259303,1561295647582,4,2.15,2.51,3.11,1.97,3.16,0.69,0.21,0.59,2,5,4,0.72,6512,36,87,39,83,1224,346.0,481,461,60,124.0,346,1,360,410,111,0,0,351,-30438,3327,324,-5.59,,,,,,,,,,,,
259323,1561295647602,1,2.15,2.51,3.1,1.98,3.15,0.56,0.27,0.6,1,4,2,0.62,6597,31,87,39,84,1200,347.0,487,459,60,124.0,346,1,361,483,111,0,0,351,8841,4104,328,181.28,,,,,,,,,,,,
259343,1561295647622,1,2.16,2.5,3.05,1.99,3.12,0.56,0.32,0.57,-0,6,-0,0.64,6670,31,87,39,84,1178,349.0,493,461,60,125.0,346,1,365,484,111,0,0,354,-30454,6870,331,181.28,45.698761,4.909345,32.3,195.5,4,0.805,0,0.0,0.49,5,0.31,4.3224
259363,1561295647642,-0,2.15,2.49,3.01,1.98,3.09,0.55,0.28,0.68,-1,2,-3,0.61,6730,31,87,39,84,1171,352.0,497,460,60,124.0,372,1,368,486,124,0,0,355,3183,-6644,333,-5.59,,,,,,,,,,,,
259383,1561295647662,4,2.16,2.49,2.98,1.99,3.08,0.57,0.3,0.66,-2,3,-4,0.64,6808,27,87,39,84,1161,354.0,500,456,60,125.0,372,1,370,488,124,0,0,358,3302,-29978,338,181.28,,,,,,,,,,,,
259403,1561295647682,0,2.15,2.49,2.98,1.99,3.09,0.47,0.28,0.66,-3,2,-5,0.55,6858,29,87,39,84,1146,359.0,503,461,60,124.0,372,1,372,489,124,0,0,364,-29302,0,340,-5.59,,,,,,,,,,,,
259423,1561295647702,2,2.16,2.48,2.99,2.0,3.09,0.63,0.34,0.76,-4,0,-5,0.71,6898,30,87,39,84,1132,361.0,505,456,60,125.0,372,1,373,489,124,0,0,369,3082,8200,345,181.28,,,,,,,,,,,,
259443,1561295647722,1,2.15,2.48,2.99,1.99,3.08,0.37,0.37,0.58,-5,4,-6,0.52,6988,31,87,39,84,1123,365.0,505,458,60,124.0,372,1,377,491,124,0,0,374,-6405,2278,350,414.87,45.698765,4.909335,33.27,195.5,4,0.805,0,0.0,0.4917,5,0.31,4.324
259463,1561295647742,1,2.16,2.47,2.98,2.0,3.09,0.53,0.4,0.65,-6,-1,-7,0.66,7033,29,87,39,84,1110,370.0,509,453,60,123.0,369,1,379,492,130,0,0,379,486,8200,352,181.28,,,,,,,,,,,,
259483,1561295647762,5,2.15,2.48,2.97,2.0,3.09,0.68,0.43,0.78,-6,-0,-9,0.81,7070,34,87,39,84,1085,373.0,515,458,60,124.0,369,1,382,493,130,0,0,382,-6656,-6656,356,-5.59,,,,,,,,,,,,
259503,1561295647782,4,2.17,2.46,2.97,2.0,3.09,0.42,0.39,0.67,-7,4,-10,0.57,7153,25,87,39,83,1059,377.0,514,455,60,125.0,369,1,387,488,130,0,0,383,-6656,-19019,361,414.87,,,,,,,,,,,,
259523,1561295647802,3,2.18,2.47,2.97,2.0,3.08,0.21,0.31,0.64,-8,2,-11,0.37,7200,22,87,39,83,1043,381.0,517,457,60,123.0,369,1,389,489,130,0,0,384,-18948,-1562,364,414.87,,,,,,,,,,,,
259543,1561295647822,1,2.17,2.47,2.98,2.01,3.09,0.32,0.29,0.77,-9,-0,-12,0.43,7315,28,87,39,83,1026,384.0,527,460,60,124.0,369,1,396,490,130,0,0,390,-19019,1,367,414.87,45.698769,4.909324,34.86,195.5,4,0.805,0,0.0,0.4933,5,0.31,4.3257
259563,1561295647842,1,2.19,2.47,2.98,2.0,3.1,0.49,0.29,0.85,-9,-3,-13,0.57,7393,27,87,39,82,989,388.0,532,458,60,123.0,363,1,402,482,134,0,0,396,-31744,505,370,181.28,,,,,,,,,,,,
259583,1561295647862,3,2.2,2.47,2.98,2.01,3.1,0.64,0.3,0.93,-9,-4,-14,0.71,7518,25,87,39,79,952,392.0,534,458,60,124.0,363,1,410,461,134,0,0,397,1,1504,375,181.28,,,,,,,,,,,,
259603,1561295647882,3,2.21,2.48,2.97,2.02,3.1,0.78,0.35,0.99,-9,-5,-14,0.85,7545,14,87,39,74,930,395.0,540,460,60,124.0,363,1,415,414,134,0,0,402,17144,-9211,379,-5.59,,,,,,,,,,,,
259623,1561295647901,1,2.22,2.48,2.97,2.02,3.11,0.85,0.41,0.98,-8,-7,-14,0.94,7503,13,87,39,67,909,398.0,550,460,60,123.0,363,1,424,341,134,0,0,406,6384,10392,382,181.28,,,,,,,,,,,,
259643,1561295647921,-0,2.23,2.48,2.94,2.01,3.12,0.96,0.41,1.08,-7,-8,-14,1.05,7253,6,87,39,62,888,399.0,548,460,60,124.0,363,1,427,300,134,0,0,405,28696,6512,388,-5.59,45.698772,4.909312,36.77,195.4,4,0.805,0,0.0,0.495,5,0.31,4.3274
259663,1561295647941,5,2.24,2.45,2.94,2.01,3.16,0.96,0.43,1.06,-7,-7,-14,1.05,7083,6,87,39,56,868,402.0,538,460,60,124.0,187,1,400,259,73,0,0,402,10541,6512,392,-5.59,,,,,,,,,,,,
259683,1561295647961,2,2.26,2.42,2.96,2.0,3.25,0.96,0.37,0.96,-7,-6,-15,1.03,6996,7,87,39,51,863,401.0,530,453,60,125.0,187,1,380,239,73,0,0,399,11545,6384,391,181.28,,,,,,,,,,,,
259703,1561295647981,-0,2.26,2.38,3.01,1.98,3.29,0.9,0.37,0.94,-7,-7,-14,0.97,6936,10,87,39,48,864,401.0,525,461,60,123.0,187,1,371,224,73,0,0,400,11545,-32702,389,181.28,,,,,,,,,,,,
259723,1561295647995,4,2.27,2.35,3.04,1.98,3.34,0.95,0.37,0.96,-6,-6,-14,1.01,6926,5,87,39,45,849,402.0,524,461,60,124.0,187,1,354,215,73,0,0,402,10541,-6524,389,181.28,,,,,,,,,,,,
259743,1561295648015,1,2.28,2.33,3.07,1.97,3.38,0.81,0.29,0.9,-7,-5,-12,0.87,6820,2,87,39,42,833,402.0,523,461,60,125.0,187,1,331,210,73,0,0,402,11545,-6524,390,414.87,45.698776,4.909299,38.58,195.4,4,0.805,0,0.0,0.4967,5,0.32,4.3291
259763,1561295648035,3,2.29,2.31,3.08,1.96,3.38,0.82,0.3,0.89,-7,-5,-11,0.87,6749,4,87,39,41,815,403.0,522,458,60,124.0,135,1,324,207,53,0,0,403,11545,-1562,393,-5.59,,,,,,,,,,,,
259783,1561295648055,1,2.3,2.29,3.06,1.97,3.36,0.86,0.23,0.81,-5,-4,-11,0.89,6609,5,87,39,39,799,401.0,515,462,60,124.0,135,1,310,206,53,0,0,399,11545,-6656,395,414.87,,,,,,,,,,,,
259803,1561295648075,2,2.32,2.25,3.05,1.95,3.37,0.92,0.19,0.85,-5,-5,-11,0.94,6569,4,87,39,38,780,399.0,510,460,60,125.0,135,1,307,200,53,0,0,391,28696,505,395,181.28,,,,,,,,,,,,
259823,1561295648097,5,2.32,2.18,3.05,1.96,3.38,0.84,0.16,0.77,-4,-3,-11,0.85,6644,10,86,39,37,762,394.0,510,458,60,123.0,135,1,304,194,53,0,0,377,-1818,19125,392,-5.59,,,,,,,,,,,,
259843,1561295648117,1,2.35,2.13,3.07,1.95,3.42,0.93,0.08,0.72,-3,-4,-11,0.93,6793,10,86,39,36,756,389.0,514,460,60,125.0,135,1,301,188,53,0,0,379,-6524,-19126,387,181.28,45.69878,4.909286,38.96,195.4,4,0.805,0,0.0,0.4983,5,0.32,4.3307
259863,1561295648137,-1,2.38,2.04,3.11,1.96,3.49,0.79,0.08,0.63,-3,-2,-9,0.79,6916,3,87,39,35,755,388.0,520,461,60,123.0,120,1,298,183,47,0,0,370,240,257,388,-5.59,,,,,,,,,,,,
259883,1561295648157,4,2.41,1.95,3.14,1.96,3.52,0.91,0.03,0.7,-1,-4,-7,0.91,7014,4,87,39,34,761,387.0,525,462,60,125.0,120,1,295,101,47,0,0,366,-6475,742,387,-5.59,,,,,,,,,,,,
259903,1561295648177,1,2.47,1.91,3.11,1.97,3.52,0.75,-0.07,0.59,0,0,-3,0.76,7126,4,87,39,33,770,388.0,532,464,60,125.0,120,1,292,172,47,0,0,369,8200,3,388,181.28,,,,,,,,,,,,
259923,1561295648201,1,2.52,1.87,3.05,2.0,3.52,0.71,-0.14,0.49,3,1,-2,0.73,7131,5,87,39,32,779,393.0,538,458,60,124.0,120,1,290,167,47,0,0,373,3,2278,393,-5.59,,,,,,,,,,,,
259943,1561295648221,0,2.55,1.8,2.97,2.05,3.54,0.73,-0.14,0.55,6,3,-1,0.74,7115,6,87,39,31,788,392.0,539,463,60,124.0,120,1,285,165,47,0,0,370,-6656,-6475,392,-5.59,45.698784,4.909273,38.62,195.3,4,0.805,0,0.0,0.5,5,0.32,4.3324
259963,1561295648241,4,2.59,1.76,2.86,2.13,3.55,0.85,-0.19,0.57,8,1,1,0.87,7075,1,87,39,31,802,394.0,537,461,60,125.0,111,1,285,165,44,0,0,364,0,-1562,394,181.28,,,,,,,,,,,,
259983,1561295648261,0,2.62,1.73,2.85,2.18,3.63,0.83,-0.3,0.51,11,1,4,0.88,7006,1,87,38,30,822,393.0,537,458,60,125.0,111,1,281,164,44,0,0,359,2790,-1562,393,414.87,,,,,,,,,,,,
260003,1561295648281,0,2.62,1.71,2.83,2.24,3.67,0.78,-0.42,0.55,13,-0,10,0.89,6965,4,87,38,30,835,393.0,531,461,60,123.0,111,1,281,164,44,0,0,354,4104,-31744,393,-5.59,,,,,,,,,,,,
260023,1561295648301,3,2.63,1.69,2.8,2.29,3.72,0.77,-0.45,0.59,15,-0,13,0.89,6908,2,87,38,29,844,393.0,533,463,60,125.0,111,1,277,164,44,0,0,354,3302,-6475,393,414.87,,,,,,,,,,,,
260043,1561295648321,-0,2.62,1.66,2.8,2.33,3.78,0.89,-0.48,0.47,18,2,13,1.02,6825,3,87,38,30,851,391.0,526,460,60,124.0,111,1,282,164,44,0,0,345,28553,-19019,391,414.87,45.698788,4.90926,37.67,195.3,4,0.805,0,0.0,0.5017,5,0.32,4.3341
260063,1561295648341,1,2.63,1.66,2.82,2.37,3.79,0.71,-0.59,0.55,19,3,14,0.93,6764,4,87,38,30,855,392.0,526,463,60,126.0,107,1,282,87,42,0,0,341,28553,-19126,392,-5.59,,,,,,,,,,,,
260083,1561295648361,-1,2.63,1.67,2.81,2.37,3.79,0.79,-0.63,0.42,21,3,17,1.01,6715,5,87,38,30,856,390.0,519,460,60,124.0,107,1,282,164,42,0,0,334,8841,-19126,391,414.87,,,,,,,,,,,,
260103,1561295648381,3,2.62,1.66,2.82,2.37,3.79,0.78,-0.72,0.56,22,-2,21,1.06,6677,4,87,38,30,850,390.0,520,463,60,125.0,107,1,282,164,42,0,0,334,-1246,8200,390,181.28,,,,,,,,,,,,
260123,1561295648401,0,2.61,1.66,2.82,2.36,3.79,0.81,-0.68,0.56,24,-2,25,1.06,6599,1,86,38,31,849,389.0,510,462,60,123.0,107,1,286,165,42,0,0,333,6870,8200,387,-5.59,,,,,,,,,,,,
260143,1561295648421,1,2.6,1.66,2.82,2.34,3.79,0.88,-0.71,0.53,25,-2,27,1.13,6585,0,86,38,31,850,386.0,510,462,60,126.0,107,1,286,165,42,0,0,323,-10554,-6656,386,181.28,45.698792,4.909248,37.5,195.3,4,0.805,0,0.0,0.5033,5,0.32,4.3357
260163,1561295648441,4,2.56,1.66,2.82,2.32,3.78,0.85,-0.75,0.53,26,1,29,1.14,6578,3,86,38,32,853,386.0,514,462,60,124.0,106,1,290,167,41,0,0,321,6668,-18948,384,-5.59,,,,,,,,,,,,
260183,1561295648461,0,2.55,1.67,2.83,2.33,3.78,0.94,-0.66,0.46,26,2,30,1.15,6553,2,86,38,32,860,383.0,512,463,60,124.0,106,1,290,167,41,0,0,328,6668,-992,383,414.87,,,,,,,,,,,,
260203,1561295648481,1,2.53,1.67,2.83,2.3,3.74,0.87,-0.69,0.45,25,2,30,1.11,6512,2,86,38,32,866,382.0,506,463,60,125.0,106,1,290,167,41,0,0,329,6668,-6656,382,181.28,,,,,,,,,,,,
260223,1561295648501,4,2.49,1.69,2.84,2.26,3.7,0.83,-0.68,0.38,25,2,30,1.08,6542,4,86,38,33,870,379.0,507,462,60,124.0,106,1,292,172,41,0,0,334,6668,-6656,379,-5.59,,,,,,,,,,,,
260243,1561295648521,-1,2.48,1.73,2.85,2.23,3.67,0.89,-0.61,0.28,25,2,29,1.08,6551,4,86,38,33,873,374.0,458,460,60,124.0,106,1,292,172,41,0,0,331,6668,-6405,374,414.87,45.698799,4.909236,36.79,195.3,4,0.805,0,0.0,0.505,5,0.32,4.3374
260263,1561295648541,3,2.45,1.76,2.86,2.19,3.65,0.79,-0.63,0.37,24,0,27,1.01,6581,7,86,38,34,868,369.0,369,460,60,125.0,116,1,295,177,43,0,0,335,-14714,-1268,369,181.28,,,,,,,,,,,,
260283,1561295648561,-1,2.43,1.76,2.87,2.17,3.61,0.74,-0.56,0.35,23,1,27,0.93,6623,7,86,38,34,866,365.0,403,464,60,124.0,116,1,295,177,43,0,0,341,-31206,-6458,365,181.28,,,,,,,,,,,,
260303,1561295648581,-0,2.41,1.79,2.87,2.14,3.57,0.86,-0.54,0.37,22,-2,27,1.01,6613,5,86,38,35,862,364.0,421,461,60,126.0,116,1,298,183,43,0,0,341,-14714,-6458,362,181.28,,,,,,,,,,,,
260323,1561295648601,4,2.36,1.84,2.88,2.12,3.5,0.87,-0.45,0.46,21,-3,27,0.98,6602,7,86,38,36,858,361.0,404,461,60,124.0,116,1,301,112,43,0,0,341,-14714,-29978,361,-5.59,,,,,,,,,,,,
260343,1561295648621,1,2.33,1.86,2.9,2.09,3.48,0.92,-0.42,0.43,19,-2,26,1.02,6581,4,86,38,37,859,356.0,400,457,60,124.0,116,1,304,194,43,0,0,341,-10554,4104,356,414.87,45.698799,4.909225,35.83,195.2,4,0.805,0,0.0,0.5067,5,0.32,4.339
260363,1561295648641,2,2.29,1.92,2.94,2.06,3.44,0.92,-0.33,0.44,17,-1,26,0.98,6576,5,86,38,39,857,355.0,389,458,60,125.0,144,1,310,206,51,0,0,344,6870,-6644,355,181.28,,,,,,,,,,,,
260383,1561295648661,-1,2.26,1.99,3.0,2.02,3.37,0.94,-0.29,0.45,14,-0,24,0.98,6618,12,86,38,42,854,352.0,399,463,60,124.0,144,1,331,209,51,0,0,346,8841,-30454,352,-5.59,,,,,,,,,,,,
260403,1561295648681,2,2.22,2.08,3.07,1.99,3.3,0.88,-0.2,0.42,11,-0,21,0.9,6625,13,86,38,44,850,349.0,395,460,60,125.0,144,1,345,213,51,0,0,347,2811,-1246,348,181.28,,,,,,,,,,,,
260423,1561295648701,4,2.19,2.12,3.16,1.96,3.26,0.95,-0.06,0.45,9,-2,19,0.95,6641,18,86,38,47,846,352.0,416,460,60,124.0,144,1,366,218,51,0,0,350,3183,-1246,345,-5.59,,,,,,,,,,,,
260443,1561295648721,1,2.15,2.16,3.17,1.93,3.22,0.85,-0.08,0.44,7,0,16,0.85,6670,18,86,38,49,843,353.0,449,461,60,125.0,144,1,372,228,51,0,0,353,3302,-14714,343,414.87,45.698807,4.909216,34.56,195.3,4,0.805,0,0.0,0.5083,5,0.32,4.3407
260463,1561295648741,4,2.12,2.22,3.25,1.91,3.2,0.92,0.05,0.47,4,-2,14,0.92,6718,18,86,38,53,835,353.0,463,462,60,124.0,181,1,385,243,62,0,0,353,-6644,-31206,340,-5.59,,,,,,,,,,,,
260483,1561295648761,2,2.07,2.28,3.33,1.89,3.17,0.78,0.07,0.41,1,-0,11,0.78,6791,22,86,38,56,830,356.0,487,458,60,125.0,181,1,395,262,62,0,0,356,4104,13,337,414.87,,,,,,,,,,,,
260503,1561295648781,-1,2.06,2.31,3.36,1.85,3.17,0.9,0.26,0.41,-1,-4,10,0.94,6883,25,86,38,59,826,357.0,495,462,60,124.0,181,1,409,204,62,0,0,356,-6640,4838,335,-5.59,,,,,,,,,,,,
260523,1561295648801,4,2.02,2.34,3.36,1.83,3.16,0.76,0.19,0.44,-4,-1,8,0.78,6926,26,86,38,62,822,359.0,503,456,60,125.0,181,1,416,293,62,0,0,357,-29302,-32559,332,414.87,,,,,,,,,,,,
260543,1561295648821,2,2.01,2.37,3.39,1.8,3.15,0.74,0.29,0.47,-7,-2,4,0.79,7059,21,86,38,64,830,362.0,512,461,60,125.0,181,1,413,306,62,0,0,361,2790,-12032,330,414.87,45.698814,4.909206,34.48,195.2,4,0.805,0,0.0,0.51,5,0.32,4.3424
260563,1561295648841,0,2.01,2.41,3.42,1.79,3.15,0.87,0.45,0.45,-9,-2,-1,0.98,7118,24,86,38,65,836,363.0,518,459,60,124.0,251,1,411,239,83,0,0,363,3082,-20736,329,-5.59,,,,,,,,,,,,
260583,1561295648861,5,2.0,2.45,3.42,1.78,3.13,0.81,0.47,0.49,-12,-0,-4,0.93,7107,15,86,38,67,845,365.0,523,462,60,124.0,251,1,402,316,83,0,0,362,-6405,4104,329,181.28,,,,,,,,,,,,
260603,1561295648881,3,2.0,2.5,3.37,1.79,3.09,0.61,0.47,0.42,-14,0,-6,0.77,7038,22,86,38,67,855,369.0,529,458,60,125.0,251,1,399,318,83,0,0,369,-6656,-18948,328,181.28,,,,,,,,,,,,
260623,1561295648901,0,2.01,2.51,3.33,1.79,3.06,0.75,0.51,0.53,-15,-2,-10,0.9,6962,18,86,38,68,896,370.0,525,466,60,124.0,251,1,390,321,83,0,0,373,486,-6475,331,181.28,,,,,,,,,,,,
260643,1561295648921,5,2.0,2.53,3.31,1.79,3.03,0.74,0.52,0.58,-17,-1,-13,0.91,6947,24,86,38,69,945,369.0,521,457,60,124.0,251,1,389,263,83,0,0,376,257,-29302,332,-5.59,45.698818,4.909197,33.62,195.2,4,0.805,0,0.0,0.5117,5,0.32,4.344
260663,1561295648941,2,2.01,2.52,3.29,1.79,3.0,0.55,0.5,0.58,-19,1,-15,0.75,6890,27,86,38,69,989,372.0,518,460,60,125.0,271,1,387,348,90,0,0,372,1,-1268,333,414.87,,,,,,,,,,,,
260683,1561295648961,1,2.0,2.52,3.28,1.79,2.99,0.7,0.55,0.67,-19,-2,-17,0.89,6835,24,86,38,71,1028,374.0,515,460,60,123.0,271,1,382,363,90,0,0,373,742,257,335,-5.59,,,,,,,,,,,,
260703,1561295648981,3,2.01,2.52,3.28,1.78,3.0,0.52,0.53,0.65,-21,0,-19,0.75,6865,25,86,38,71,1082,374.0,514,458,60,125.0,271,1,383,363,90,0,0,373,742,-6656,337,181.28,,,,,,,,,,,,
260723,1561295648996,-0,2.04,2.52,3.31,1.78,3.01,0.66,0.54,0.65,-21,-3,-21,0.85,6972,21,86,38,71,1140,376.0,518,465,60,124.0,271,1,387,365,90,0,0,375,3,2278,341,-5.59,,,,,,,,,,,,
260743,1561295649016,2,2.05,2.52,3.31,1.78,3.02,0.76,0.63,0.62,-21,-5,-22,0.98,7072,27,86,38,71,1176,377.0,516,461,60,124.0,271,1,392,367,90,0,0,374,-6656,19125,341,-5.59,45.698822,4.909186,33.93,195.2,4,0.805,0,0.0,0.5133,5,0.33,4.3457
260763,1561295649036,5,2.08,2.52,3.3,1.8,3.03,0.54,0.58,0.64,-22,-2,-23,0.79,7200,20,86,38,71,1194,379.0,521,462,60,125.0,296,1,399,371,101,0,0,375,8200,-6656,343,181.28,,,,,,,,,,,,
260783,1561295649056,3,2.12,2.51,3.26,1.82,3.06,0.39,0.49,0.69,-22,-2,-24,0.63,7321,17,86,38,70,1204,378.0,530,457,60,125.0,296,1,408,372,101,0,0,384,2278,19125,347,181.28,,,,,,,,,,,,
260803,1561295649076,2,2.16,2.5,3.18,1.89,3.06,0.41,0.46,0.74,-21,-2,-24,0.61,7304,25,86,38,70,1210,381.0,534,458,60,123.0,296,1,407,360,101,0,0,386,-18948,-3866,350,414.87,,,,,,,,,,,,
260823,1561295649102,2,2.19,2.5,3.08,1.96,3.05,0.57,0.43,0.86,-20,-5,-26,0.71,7292,21,86,38,70,1207,381.0,532,457,60,124.0,296,1,406,359,101,0,0,386,-18948,-18948,355,414.87,,,,,,,,,,,,
260843,1561295649122,-0,2.24,2.48,3.02,2.03,3.06,0.71,0.42,0.97,-18,-6,-25,0.83,7205,23,86,38,70,1195,382.0,523,464,60,123.0,296,1,401,357,101,0,0,388,19125,-6475,361,-5.59,45.698826,4.909175,34.79,195.2,4,0.805,0,0.0,0.515,5,0.33,4.3474
260863,1561295649142,1,2.27,2.47,2.97,2.1,3.08,0.65,0.41,0.97,-17,-4,-23,0.77,7145,14,86,38,69,1173,383.0,528,462,60,124.0,254,1,399,340,93,0,0,389,-19019,-6475,367,-5.59,,,,,,,,,,,,
260883,1561295649162,5,2.32,2.43,2.92,2.16,3.15,0.38,0.28,0.9,-16,-1,-22,0.47,7102,16,86,38,67,1142,385.0,523,461,60,125.0,254,1,402,321,93,0,0,388,-19126,-19019,374,181.28,,,,,,,,,,,,
260903,1561295649182,2,2.36,2.41,2.91,2.25,3.23,0.43,0.19,0.85,-13,-3,-22,0.47,7056,13,86,38,64,1116,382.0,515,460,60,123.0,254,1,413,310,93,0,0,388,19125,-31744,376,414.87,,,,,,,,,,,,
260923,1561295649202,-1,2.43,2.36,2.91,2.29,3.33,0.56,0.15,0.96,-10,-4,-21,0.57,7107,21,86,38,62,1096,381.0,521,460,60,124.0,254,1,422,298,93,0,0,385,-992,240,381,-5.59,,,,,,,,,,,,
260943,1561295649222,5,2.47,2.26,2.91,2.32,3.46,0.69,0.06,1.01,-7,-6,-19,0.7,7151,13,86,38,60,1074,385.0,517,461,60,124.0,254,1,421,288,93,0,0,383,2278,240,385,-5.59,45.698833,4.909164,36.29,195.2,4,0.805,0,0.0,0.5167,5,0.33,4.3491
260963,1561295649242,3,2.53,2.15,2.9,2.33,3.54,0.47,-0.12,0.88,-5,-3,-15,0.49,7217,7,86,38,57,1051,389.0,514,460,60,125.0,192,1,406,273,75,0,0,384,-6656,1,389,414.87,,,,,,,,,,,,
260983,1561295649262,4,2.54,1.92,2.85,2.21,3.61,0.23,-0.26,0.76,-1,-1,-11,0.34,7338,8,86,38,56,1032,393.0,529,462,60,125.0,192,1,402,268,75,0,0,385,770,-1818,393,181.28,,,,,,,,,,,,
261003,1561295649282,4,2.56,1.68,2.76,2.17,3.72,0.32,-0.32,0.8,3,-1,-9,0.45,7393,10,86,38,54,1029,400.0,533,461,60,123.0,192,1,390,257,75,0,0,391,2278,2524,400,181.28,,,,,,,,,,,,
261023,1561295649302,3,2.55,1.65,2.68,2.24,3.72,0.49,-0.32,0.85,5,-3,-7,0.58,7494,6,86,38,53,1023,405.0,532,457,60,124.0,192,1,387,252,75,0,0,407,-6656,-8151,404,414.87,,,,,,,,,,,,
261043,1561295649322,4,2.56,1.67,2.69,2.28,3.73,0.51,-0.39,0.86,7,-2,-2,0.65,7569,24,86,38,52,1013,408.0,538,462,60,123.0,192,1,384,247,75,0,0,419,770,11560,408,181.28,45.698837,4.909151,37.99,195.2,4,0.805,0,0.0,0.5183,5,0.33,4.3507
261063,1561295649342,5,2.57,1.68,2.71,2.33,3.76,0.37,-0.42,0.85,9,-1,4,0.56,7678,18,86,38,51,1003,409.0,553,462,60,125.0,173,1,381,242,71,0,0,399,-6656,11560,409,181.28,,,,,,,,,,,,
261083,1561295649362,1,2.56,1.7,2.72,2.38,3.75,0.3,-0.44,0.82,11,1,6,0.53,7722,13,86,38,50,996,407.0,561,462,60,125.0,173,1,378,238,71,0,0,392,742,-4059,407,181.28,,,,,,,,,,,,
261103,1561295649382,1,2.56,1.77,2.72,2.41,3.74,0.22,-0.48,0.74,12,5,7,0.53,7725,10,86,38,49,984,410.0,566,455,60,125.0,173,1,375,232,71,0,0,433,742,-26615,410,181.28,,,,,,,,,,,,
261123,1561295649402,1,2.55,1.84,2.67,2.43,3.57,0.37,-0.49,0.67,14,5,11,0.62,7706,22,86,38,49,954,411.0,566,462,60,124.0,173,1,375,232,71,0,0,414,-6656,13040,411,-5.59,,,,,,,,,,,,
261143,1561295649422,2,2.56,1.87,2.53,2.45,3.35,0.54,-0.51,0.68,15,2,15,0.74,7754,18,86,38,49,924,408.0,565,460,60,123.0,173,1,375,232,71,0,0,388,-6656,13040,408,-5.59,45.698837,4.909139,38.52,195.1,4,0.805,0,0.0,0.52,5,0.33,4.3524
261163,1561295649442,1,2.56,1.87,2.51,2.43,3.36,0.69,-0.53,0.78,16,-1,14,0.86,7681,31,86,38,50,901,407.0,563,462,60,124.0,169,1,378,237,69,0,0,394,742,11560,407,414.87,,,,,,,,,,,,
261183,1561295649462,2,2.54,1.86,2.58,2.42,3.48,0.79,-0.5,0.9,18,-3,14,0.94,7533,3,86,38,53,874,410.0,555,462,60,124.0,169,1,387,253,69,0,0,423,-6656,9517,409,414.87,,,,,,,,,,,,
261203,1561295649482,2,2.53,1.84,2.61,2.42,3.6,0.89,-0.51,0.99,19,-7,19,1.02,7566,20,86,38,57,835,409.0,552,460,60,124.0,169,1,410,275,69,0,0,445,-992,10392,409,414.87,,,,,,,,,,,,
261223,1561295649498,5,2.51,1.84,2.65,2.4,3.7,0.89,-0.49,0.97,19,-8,21,1.01,7687,28,86,38,60,797,411.0,553,458,60,125.0,169,1,433,293,69,0,0,424,19125,9517,411,414.87,,,,,,,,,,,,
261243,1561295649518,1,2.51,1.85,2.76,2.39,3.73,0.77,-0.52,0.92,19,-7,20,0.93,7861,18,86,38,64,780,413.0,560,461,60,125.0,169,1,444,324,69,0,0,399,-19126,-3414,413,181.28,45.698845,4.909126,39.58,195.1,4,0.805,0,0.0,0.5217,5,0.33,4.3541
261263,1561295649538,3,2.51,1.86,2.84,2.38,3.73,0.74,-0.6,0.86,19,-6,22,0.95,7938,43,86,38,69,765,413.0,566,459,60,125.0,259,1,445,368,107,0,0,410,-6475,-9166,413,-5.59,,,,,,,,,,,,
261283,1561295649558,4,2.51,1.9,2.85,2.37,3.73,0.74,-0.59,0.87,20,-7,24,0.95,7982,40,86,38,77,760,415.0,578,461,60,124.0,259,1,436,446,107,0,0,438,-3866,-3414,416,414.87,,,,,,,,,,,,
261303,1561295649578,-1,2.52,1.94,2.83,2.4,3.63,0.7,-0.59,0.88,20,-6,22,0.92,8050,35,86,37,82,755,418.0,577,462,60,124.0,259,1,437,496,107,0,0,421,240,-4082,418,181.28,,,,,,,,,,,,
