"Interval"|"ms"|0|0|1,"Utc"|"ms"|0|0|1,"Brake_F"|"Bar"|0|2000|10,"Brake_R"|"Bar"|0|2000|10,"Height_RF"|"mm"|0|255|10,"Height_LF"|"mm"|0|255|10,"Height_LR"|"mm"|0|80|10,"Height_RR"|"mm"|0|255|10,"Steering"|"deg"|-100|100|10,"AccelX"|"G"|-3.0|3.0|50,"AccelY"|"G"|-3.0|3.0|50,"AccelZ"|"G"|-3.0|3.0|50,"Yaw"|"Deg/Sec"|-120|120|50,"Pitch"|"Deg/Sec"|-120|120|50,"Roll"|"Deg/Sec"|-120|120|50,"Gsum"|"G"|0.0|3.0|50,"Log_Button"|""|0.0|10.0|10,"WaterTemp"|"C"|0|150|50,"RPM"|"tr/min"|0|14000|50,"TPS"|"%"|0|100|50,"AirTemp"|"C"|0|150|50,"MAP"|"KPa"|0|100|50,"Lambda"|""|0.5|1.5|50,"SpeedDTA"|"kph"|0.0|250.0|50,"OilPress"|"KPa"|0|1500|50,"FuelPressur"|"Bar"|0.0|10.0|50,"Batterie"|"V"|0.0|20.0|50,"ConsoKm"|"L/100km"|0.0|200.0|50,"Gear"|""|0|6|50,"AdvIgnition"|"Deg"|-20.0|70.0|50,"Injection"|"ms"|0.0|10.0|50,"ConsoHr"|"L/Hr"|0.0|10000.0|50,"LC_But_Pres"|""|0|1|50,"LC_Active"|""|0|1|50,"TractionOn"|""|0|1|50,"TractionWet"|""|0|1|50,"FanOn"|""|0|1|50,"RD_Speed"|"km/h"|-30|250|50,"RUD_Speed"|"km/h"|-30|250|50,"LD_Speed"|"km/h"|-30|250|50,"LUD_Speed"|"km/h"|-30|250|50,"Latitude"|"Degrees"|-180.0|180.0|10,"Longitude"|"Degrees"|-180.0|180.0|10,"Speed"|"kph"|0.0|150.0|10,"Altitude"|"m"|0.0|4000.0|10,"GPSSats"|""|0|20|10,"GPSQual"|""|0|5|10,"GPSDOP"|""|0.0|20.0|10,"LapCount"|""|0|0|10,"LapTime"|"Min"|0.0|0.0|10,"Sector"|""|0|0|10,"SectorTime"|"Min"|0.0|0.0|10,"PredTime"|"Min"|0.0|0.0|5,"ElapsedTime"|"Min"|0.0|0.0|10,"CurrentLap"|""|0|0|10,"Distance"|"km"|0.0|0.0|10,"SessionTime"|"Min"|0.0|0.0|10
365063,1620397049870,,,,,,,,0.28,0.02,-0.94,-0,2,1,0.28,,82,4575,7,29,55,0.836,0.0,466,4.9,11.9,0.0,1,26.6,1.49,5.5,0,0,1,1,0,0,250,250,0,,,,,,,,,,,,,,,,
365083,1620397049892,,,,,,,,0.29,0.03,-1.03,-0,4,1,0.29,,82,4577,7,29,54,0.835,0.0,472,4.92,11.9,0.0,1,26.5,1.49,5.5,0,0,1,1,0,0,250,250,0,,,,,,,,,,,,,,,,
365103,1620397049912,,,,,,,,0.23,0.03,-1.07,-0,6,1,0.23,,82,4575,7,29,55,0.834,0.0,483,4.91,12.0,0.0,1,26.6,1.49,5.5,0,0,1,1,0,0,250,250,0,,,,,,,,,,,,,,,,
365123,1620397049932,,,,,,,,0.17,0.04,-0.92,-0,9,2,0.18,,82,4569,7,29,55,0.833,0.0,462,4.99,11.9,0.0,1,26.6,1.48,5.5,0,0,1,1,0,0,250,250,0,,,,,,,,,,,,,,,,
365143,1620397049952,0,0,33,34,32,33,2,0.09,0.06,-0.69,-0,9,1,0.11,1,82,4576,7,29,54,0.833,0.0,472,4.89,12.0,0.0,1,26.5,1.49,5.5,0,0,1,1,0,0,250,250,0,45.845741,5.178853,0.0,217.3,10,3,1.6,0,0.0,-1,0.0,,0.0,0,0.0,6.0857
365163,1620397049972,,,,,,,,0.02,0.06,-0.46,-0,7,1,0.06,,82,4544,7,29,54,0.835,0.0,461,4.87,11.9,0.0,1,26.1,2.6,5.5,0,0,1,1,0,0,250,250,0,,,,,,,,,,,,,,,,
365183,1620397049992,,,,,,,,-0.03,0.06,-0.26,-0,6,0,0.07,,82,4534,7,29,54,0.836,0.0,455,4.84,11.9,0.0,1,25.9,2.59,5.5,0,0,1,1,0,0,250,250,0,,,,,,,,,,,,,,,,
365203,1620397050005,,,,,,,,-0.09,0.09,-0.07,-0,6,0,0.12,,82,4564,7,29,55,0.837,0.0,453,4.82,12.1,0.0,1,26.5,2.61,5.5,0,0,1,1,0,0,250,250,0,,,,,,,,,,,,,,,,
365223,1620397050025,,,,,,,,-0.16,0.09,0.1,-0,3,-1,0.18,,82,4514,7,29,54,0.837,0.0,444,4.84,12.1,0.0,1,25.7,2.58,5.5,0,0,1,1,0,0,250,250,0,,,,,,,,,,,,,,,,
365243,1620397050045,1,1,32,34,32,33,2,-0.21,0.09,0.26,-0,0,-1,0.22,0,82,4556,7,29,55,0.837,0.0,458,4.88,12.1,0.0,1,26.4,2.61,5.4,0,0,1,1,0,0,250,250,0,45.845741,5.178853,0.0,217.3,10,3,1.6,0,0.0,-1,0.0,0.0,0.0,0,0.0,6.0874
365263,1620397050065,,,,,,,,-0.23,0.07,0.41,-0,-2,-2,0.24,,82,4562,7,29,55,0.836,0.0,455,4.9,12.1,0.0,1,26.5,2.61,5.4,0,0,1,1,0,0,250,250,0,,,,,,,,,,,,,,,,
365283,1620397050085,,,,,,,,-0.27,0.08,0.54,-0,-4,-2,0.28,,82,4519,7,29,54,0.836,0.0,444,4.78,12.0,0.0,1,25.7,1.45,5.4,0,0,1,1,0,0,250,250,0,,,,,,,,,,,,,,,,
365303,1620397050110,,,,,,,,-0.28,0.05,0.66,-0,-7,-3,0.29,,82,4606,7,29,55,0.835,0.0,449,4.83,12.1,0.0,1,27.0,2.64,5.4,0,0,1,1,0,0,250,250,0,,,,,,,,,,,,,,,,
365323,1620397050130,,,,,,,,-0.24,0.03,0.73,-0,-10,-3,0.24,,82,4570,7,29,55,0.836,0.0,452,4.91,12.1,0.0,1,26.6,1.49,5.4,0,0,1,1,0,0,250,250,0,,,,,,,,,,,,,,,,
365343,1620397050150,-0,1,33,34,32,33,2,-0.2,0.02,0.64,-0,-11,-3,0.21,0,82,4588,7,29,55,0.836,0.0,475,4.9,12.1,0.0,1,26.8,2.63,5.4,0,0,1,1,0,0,250,250,0,45.845741,5.178853,0.0,217.3,10,3,1.6,0,0.0,-1,0.0,,0.0,0,0.0,6.089
365363,1620397050170,,,,,,,,-0.16,0.01,0.42,-0,-12,-2,0.16,,82,4631,7,29,55,0.836,0.0,474,4.88,12.1,0.0,1,27.3,2.66,5.4,0,0,1,1,0,0,250,250,0,,,,,,,,,,,,,,,,
365383,1620397050192,,,,,,,,-0.09,-0.0,0.22,-0,-13,-2,0.09,,82,4547,7,29,55,0.835,0.0,471,4.86,12.1,0.0,1,26.3,2.6,5.4,0,0,1,1,0,0,250,250,0,,,,,,,,,,,,,,,,
365403,1620397050212,,,,,,,,-0.01,-0.0,0.04,-0,-12,-2,0.01,,82,4603,7,29,55,0.833,0.0,474,4.82,12.2,0.0,1,27.0,1.51,5.4,0,0,1,1,0,0,250,250,0,,,,,,,,,,,,,,,,
365423,1620397050232,,,,,,,,0.03,0.01,-0.13,-0,-9,-1,0.04,,82,4589,7,29,54,0.831,0.0,468,4.87,12.1,0.0,1,26.6,1.5,5.4,0,0,1,1,0,0,250,250,0,,,,,,,,,,,,,,,,
365443,1620397050252,0,0,33,34,32,33,3,0.08,0.01,-0.29,-0,-7,-1,0.09,0,82,4553,7,29,54,0.829,0.0,473,4.86,12.1,0.0,1,26.2,2.6,5.4,0,0,1,1,0,0,250,250,0,45.845741,5.178853,0.0,217.3,10,3,1.6,0,0.0,-1,0.0,0.0,0.0,0,0.0,6.0907
365463,1620397050272,,,,,,,,0.13,0.01,-0.43,-0,-4,-1,0.13,,82,4597,7,29,55,0.827,0.0,468,4.85,12.0,0.0,1,26.9,2.63,5.4,0,0,1,1,0,0,250,250,0,,,,,,,,,,,,,,,,
365483,1620397050292,,,,,,,,0.14,0.02,-0.56,-0,0,0,0.15,,82,4557,7,29,55,0.825,0.0,471,4.89,12.0,0.0,1,26.4,2.61,5.4,0,0,1,1,0,0,250,250,0,,,,,,,,,,,,,,,,
365503,1620397050312,,,,,,,,0.12,0.03,-0.68,-0,4,1,0.12,,82,4568,7,29,54,0.824,0.0,483,4.91,11.9,0.0,1,26.4,1.48,5.4,0,0,1,1,0,0,250,250,0,,,,,,,,,,,,,,,,
365523,1620397050332,,,,,,,,0.11,0.03,-0.79,-0,6,1,0.11,,82,4579,7,29,54,0.822,0.0,465,4.87,11.9,0.0,1,26.5,1.49,5.4,0,0,1,1,0,0,250,250,0,,,,,,,,,,,,,,,,
365543,1620397050352,0,1,33,34,32,33,2,0.1,0.01,-0.89,-1,9,1,0.1,0,82,4527,7,29,54,0.821,0.0,473,5.01,12.0,0.0,1,25.8,1.45,5.4,0,0,1,1,0,0,250,250,0,45.845741,5.178853,0.0,217.3,10,3,1.6,0,0.0,-1,0.0,,0.0,0,0.0,6.0924
365563,1620397050372,,,,,,,,0.04,0.03,-0.9,-1,11,2,0.05,,82,4573,7,29,54,0.822,0.0,461,4.93,12.0,0.0,1,26.4,1.49,5.4,0,0,1,1,0,0,250,250,0,,,,,,,,,,,,,,,,
365583,1620397050392,,,,,,,,-0.02,0.03,-0.8,-1,10,1,0.03,,82,4544,7,29,54,0.822,0.0,465,4.9,12.0,0.0,1,26.1,1.47,5.4,0,0,1,1,0,0,250,250,0,,,,,,,,,,,,,,,,
365603,1620397050412,,,,,,,,-0.06,0.06,-0.64,-1,10,1,0.09,,82,4549,7,29,54,0.823,0.0,460,4.85,12.0,0.0,1,26.1,1.47,5.4,0,0,1,1,0,0,250,250,0,,,,,,,,,,,,,,,,
365623,1620397050432,,,,,,,,-0.12,0.08,-0.42,-0,10,1,0.15,,82,4591,7,29,54,0.824,0.0,456,4.9,11.9,0.0,1,26.6,2.63,5.4,0,0,1,1,0,0,250,250,0,,,,,,,,,,,,,,,,
365643,1620397050452,-1,2,33,34,32,33,2,-0.19,0.09,-0.22,-0,8,0,0.21,0,82,4553,7,29,54,0.824,0.0,460,4.83,12.1,0.0,1,26.2,2.6,5.4,0,0,1,1,0,0,250,250,0,45.845741,5.178853,0.0,217.3,10,3,1.6,0,0.0,-1,0.0,0.0,0.0,0,0.0,6.094
365663,1620397050472,,,,,,,,-0.23,0.08,-0.03,-0,4,-0,0.25,,82,4589,7,29,54,0.824,0.0,457,4.86,12.1,0.0,1,26.6,2.63,5.4,0,0,1,1,0,0,250,250,0,,,,,,,,,,,,,,,,
365683,1620397050492,,,,,,,,-0.25,0.06,0.13,-0,1,-1,0.26,,82,4578,7,29,55,0.825,0.0,459,4.88,12.1,0.0,1,26.7,2.62,5.4,0,0,1,1,0,0,250,250,0,,,,,,,,,,,,,,,,
365703,1620397050512,,,,,,,,-0.27,0.07,0.29,-0,-2,-1,0.28,,82,4549,7,29,55,0.825,0.0,461,4.9,12.1,0.0,1,26.3,2.6,5.4,0,0,1,1,0,0,250,250,0,,,,,,,,,,,,,,,,
365723,1620397050532,,,,,,,,-0.27,0.04,0.43,-0,-6,-2,0.28,,82,4609,7,29,55,0.825,0.0,445,4.85,12.1,0.0,1,27.1,2.64,5.4,0,0,1,1,0,0,250,250,0,,,,,,,,,,,,,,,,
365743,1620397050552,1,2,33,34,32,33,2,-0.23,0.02,0.48,-0,-8,-2,0.23,0,82,4577,7,29,55,0.825,0.0,468,4.9,12.1,0.0,1,26.7,1.49,5.5,0,0,1,1,0,0,250,250,0,45.845741,5.178853,0.0,217.3,10,3,1.6,0,0.0,-1,0.0,,0.0,0,0.0,6.0957
365763,1620397050572,,,,,,,,-0.19,0.02,0.34,-0,-9,-2,0.19,,82,4580,7,29,54,0.825,0.0,461,4.83,12.1,0.0,1,26.5,2.62,5.5,0,0,1,1,0,0,250,250,0,,,,,,,,,,,,,,,,
365783,1620397050591,,,,,,,,-0.14,0.01,0.14,-0,-9,-1,0.14,,82,4620,7,29,55,0.825,0.0,470,4.92,12.1,0.0,1,27.2,2.65,5.5,0,0,1,1,0,0,250,250,0,,,,,,,,,,,,,,,,
365803,1620397050611,,,,,,,,-0.08,-0.01,-0.04,-0,-10,-1,0.08,,82,4555,7,29,55,0.823,0.0,477,4.85,12.1,0.0,1,26.4,2.6,5.5,0,0,1,1,0,0,250,250,0,,,,,,,,,,,,,,,,
365823,1620397050631,,,,,,,,0.0,-0.0,-0.2,-0,-8,-1,0.01,,82,4612,7,29,55,0.821,0.0,471,4.87,12.0,0.0,1,27.1,1.52,5.5,0,0,1,1,0,0,250,250,0,,,,,,,,,,,,,,,,
365843,1620397050651,-1,2,33,34,32,33,2,0.05,0.01,-0.35,-0,-5,-0,0.05,0,82,4587,7,29,54,0.819,0.0,483,4.94,12.0,0.0,1,26.6,1.48,5.5,0,0,1,1,0,0,250,250,0,45.845741,5.178853,0.0,217.3,10,3,1.6,0,0.0,-1,0.0,0.0,0.0,0,0.0,6.0974
365863,1620397050671,,,,,,,,0.1,0.01,-0.49,-0,-2,0,0.1,,82,4542,7,29,54,0.817,0.0,466,4.92,12.0,0.0,1,26.4,1.48,5.5,0,0,1,1,0,0,250,250,0,,,,,,,,,,,,,,,,
365883,1620397050691,,,,,,,,0.13,0.02,-0.61,-0,1,0,0.13,,82,4612,7,29,54,0.817,0.0,477,4.91,12.0,0.0,1,26.9,1.51,5.5,0,0,1,1,0,0,250,250,0,,,,,,,,,,,,,,,,
365903,1620397050711,,,,,,,,0.15,0.03,-0.73,-0,5,1,0.15,,82,4526,7,30,54,0.817,0.0,488,4.91,12.0,0.0,1,25.6,1.44,5.5,0,0,1,1,0,0,250,250,0,,,,,,,,,,,,,,,,
365923,1620397050731,,,,,,,,0.13,0.03,-0.83,-0,7,1,0.13,,82,4583,7,30,54,0.817,0.0,466,4.85,11.9,0.0,1,26.5,1.49,5.5,0,0,1,1,0,0,250,250,0,,,,,,,,,,,,,,,,
365943,1620397050751,-1,2,33,34,32,33,2,0.13,0.02,-0.93,-0,9,2,0.13,0,82,4523,7,30,54,0.817,0.0,476,4.92,12.0,0.0,1,25.8,2.57,5.4,0,0,1,1,0,0,250,250,0,45.845741,5.178853,0.0,217.3,10,3,1.6,0,0.0,-1,0.0,,0.0,0,0.0,6.0991
365963,1620397050771,,,,,,,,0.14,0.02,-1.02,-1,11,2,0.14,,82,4550,7,30,55,0.817,0.0,460,4.94,12.0,0.0,1,26.3,2.59,5.4,0,0,1,1,0,0,250,250,0,,,,,,,,,,,,,,,,
365983,1620397050793,,,,,,,,0.09,0.03,-1.1,-1,13,2,0.1,,82,4592,7,30,54,0.818,0.0,464,4.83,12.0,0.0,1,26.7,1.5,5.4,0,0,1,1,0,0,250,250,0,,,,,,,,,,,,,,,,
366003,1620397050813,,,,,,,,0.04,0.03,-1.08,-0,13,2,0.05,,82,4524,7,30,54,0.819,0.0,465,4.8,12.0,0.0,1,25.8,2.57,5.4,0,0,1,1,0,0,250,250,0,,,,,,,,,,,,,,,,
366023,1620397050833,,,,,,,,-0.01,0.07,-0.9,-0,12,2,0.07,,82,4617,7,30,54,0.82,0.0,453,4.82,12.0,0.0,1,27.0,2.63,5.4,0,0,1,1,0,0,250,250,0,,,,,,,,,,,,,,,,
366043,1620397050853,1,0,33,34,32,33,2,-0.06,0.08,-0.65,-0,11,1,0.11,0,82,4558,7,30,54,0.821,0.0,475,4.83,12.0,0.0,1,26.2,1.48,5.5,0,0,1,1,0,0,250,250,0,45.845741,5.178853,0.0,217.3,10,3,1.6,0,0.0,-1,0.0,0.0,0.0,0,0.0,6.1007
366063,1620397050873,,,,,,,,-0.14,0.1,-0.43,-0,9,1,0.17,,82,4548,7,30,54,0.822,0.0,456,4.73,12.0,0.0,1,26.1,1.47,5.5,0,0,1,1,0,0,250,250,0,,,,,,,,,,,,,,,,
366083,1620397050891,,,,,,,,-0.19,0.09,-0.23,-0,5,-0,0.21,,82,4608,7,30,54,0.822,0.0,455,4.81,12.1,0.0,1,26.9,1.51,5.5,0,0,1,1,0,0,250,250,0,,,,,,,,,,,,,,,,
366103,1620397050911,,,,,,,,-0.21,0.08,-0.04,-0,2,-0,0.23,,82,4512,7,30,54,0.823,0.0,456,4.83,12.1,0.0,1,25.7,2.56,5.5,0,0,1,1,0,0,250,250,0,,,,,,,,,,,,,,,,
366123,1620397050931,,,,,,,,-0.25,0.09,0.13,-0,-1,-1,0.27,,82,4582,7,30,54,0.824,0.0,443,4.82,12.1,0.0,1,26.5,2.61,5.5,0,0,1,1,0,0,250,250,0,,,,,,,,,,,,,,,,
366143,1620397050951,0,0,33,34,32,33,2,-0.27,0.07,0.28,-0,-5,-1,0.28,0,82,4563,7,30,55,0.824,0.0,472,4.91,12.1,0.0,1,26.5,2.6,5.5,0,0,1,1,0,0,250,250,0,45.845741,5.178853,0.0,217.3,10,3,1.6,0,0.0,-1,0.0,,0.0,0,0.0,6.1024
366163,1620397050971,,,,,,,,-0.26,0.06,0.43,-0,-8,-2,0.27,,82,4544,7,30,55,0.824,0.0,460,4.9,12.1,0.0,1,26.3,1.47,5.5,0,0,1,1,0,0,250,250,0,,,,,,,,,,,,,,,,
366183,1620397050991,,,,,,,,-0.23,0.04,0.51,-0,-9,-1,0.23,,82,4617,7,30,55,0.825,0.0,471,4.89,12.1,0.0,1,27.2,2.63,5.5,0,0,1,1,0,0,250,250,0,,,,,,,,,,,,,,,,
366203,1620397051005,,,,,,,,-0.21,0.02,0.49,-0,-11,-1,0.21,,82,4555,7,30,55,0.825,0.0,468,5.01,12.1,0.0,1,26.4,2.59,5.5,0,0,1,1,0,0,250,250,0,,,,,,,,,,,,,,,,
366223,1620397051025,,,,,,,,-0.15,0.01,0.31,-0,-12,-1,0.15,,82,4586,7,30,55,0.826,0.0,458,4.92,12.1,0.0,1,26.8,1.5,5.5,0,0,1,1,0,0,250,250,0,,,,,,,,,,,,,,,,
366243,1620397051045,-0,1,33,34,32,33,3,-0.07,-0.01,0.12,-0,-11,-1,0.07,0,82,4595,7,30,55,0.828,0.0,469,4.86,12.1,0.0,1,26.9,1.5,5.6,0,0,1,1,0,0,250,250,0,45.845741,5.178853,0.0,217.3,10,3,1.6,0,0.0,-1,0.0,0.0,0.0,0,0.0,6.1041
366263,1620397051065,,,,,,,,-0.0,-0.0,-0.05,-0,-8,-0,0.0,,82,4552,7,30,55,0.829,0.0,464,4.86,12.1,0.0,1,26.4,2.59,5.6,0,0,1,1,0,0,250,250,0,,,,,,,,,,,,,,,,
366283,1620397051085,,,,,,,,0.04,0.02,-0.22,-0,-6,-0,0.04,,82,4657,7,30,55,0.83,0.0,479,4.89,12.0,0.0,1,27.7,1.55,5.6,0,0,1,1,0,0,250,250,0,,,,,,,,,,,,,,,,
366303,1620397051107,,,,,,,,0.06,0.02,-0.36,-0,-3,0,0.07,,82,4552,7,30,54,0.832,0.0,488,4.95,12.0,0.0,1,26.2,1.47,5.6,0,0,1,1,0,0,250,250,0,,,,,,,,,,,,,,,,
366323,1620397051127,,,,,,,,0.06,0.04,-0.5,-0,1,1,0.07,,82,4554,7,30,54,0.833,0.0,463,4.95,11.9,0.0,1,26.2,1.47,5.6,0,0,1,1,0,0,250,250,0,,,,,,,,,,,,,,,,
366343,1620397051147,0,-0,33,34,32,33,2,0.03,0.04,-0.63,-0,5,2,0.05,0,82,4567,7,30,55,0.834,0.0,482,4.91,12.0,0.0,1,26.3,1.47,5.5,0,0,1,1,0,0,250,250,0,45.845741,5.178853,0.0,217.3,10,3,1.6,0,0.0,-1,0.0,,0.0,0,0.0,6.1057
366363,1620397051167,,,,,,,,0.01,0.06,-0.68,-0,7,2,0.06,,82,4509,7,30,54,0.836,0.0,463,4.86,11.9,0.0,1,25.6,1.44,5.5,0,0,1,1,0,0,250,250,0,,,,,,,,,,,,,,,,
366383,1620397051191,,,,,,,,-0.02,0.06,-0.55,-1,9,2,0.07,,82,4594,7,30,55,0.836,0.0,466,4.96,12.0,0.0,1,26.9,2.62,5.5,0,0,1,1,0,0,250,250,0,,,,,,,,,,,,,,,,
366403,1620397051211,,,,,,,,-0.08,0.08,-0.45,-1,11,2,0.12,,82,4536,7,30,55,0.837,0.0,476,4.96,12.0,0.0,1,26.2,2.58,5.5,0,0,1,1,0,0,250,250,0,,,,,,,,,,,,,,,,
366423,1620397051231,,,,,,,,-0.15,0.07,-0.26,-1,12,2,0.16,,82,4557,7,30,55,0.837,0.0,461,4.9,12.0,0.0,1,26.4,2.6,5.5,0,0,1,1,0,0,250,250,0,,,,,,,,,,,,,,,,
366443,1620397051251,0,2,32,34,32,33,2,-0.18,0.09,-0.07,-1,12,2,0.2,0,82,4647,7,30,54,0.838,0.0,472,4.82,12.0,0.0,1,27.3,2.65,5.6,0,0,1,1,0,0,250,250,0,45.845741,5.178853,0.0,217.3,10,3,1.6,0,0.0,-1,0.0,0.0,0.0,0,0.0,6.1074
366463,1620397051271,,,,,,,,-0.23,0.11,0.1,-1,11,2,0.26,,82,4564,7,30,54,0.838,0.0,464,4.81,12.1,0.0,1,26.3,2.6,5.6,0,0,1,1,0,0,250,250,0,,,,,,,,,,,,,,,,
366483,1620397051291,,,,,,,,-0.26,0.1,0.26,-0,8,1,0.28,,82,4611,7,30,54,0.838,0.0,453,4.85,12.1,0.0,1,26.9,2.62,5.6,0,0,1,1,0,0,250,250,0,,,,,,,,,,,,,,,,
366503,1620397051307,,,,,,,,-0.24,0.08,0.39,-0,4,0,0.25,,82,4627,7,30,55,0.837,0.0,469,4.9,12.1,0.0,1,27.3,2.64,5.6,0,0,1,1,0,0,250,250,0,,,,,,,,,,,,,,,,
366523,1620397051327,,,,,,,,-0.2,0.06,0.4,-0,1,-0,0.21,,82,4575,7,30,55,0.837,0.0,460,4.89,12.1,0.0,1,26.6,2.61,5.6,0,0,1,1,0,0,250,250,0,,,,,,,,,,,,,,,,
366543,1620397051347,1,1,32,34,32,33,2,-0.16,0.05,0.2,-0,-2,-0,0.16,0,82,4656,7,30,54,0.836,0.0,472,4.87,12.1,0.0,1,27.5,1.55,5.6,0,0,1,1,0,0,250,250,0,45.845741,5.178853,0.0,217.3,10,3,1.6,0,0.0,-1,0.0,,0.0,0,0.0,6.109
366563,1620397051367,,,,,,,,-0.1,0.04,0.02,-0,-5,-1,0.1,,82,4591,7,30,54,0.835,0.0,470,4.85,12.1,0.0,1,26.6,2.62,5.6,0,0,1,1,0,0,250,250,0,,,,,,,,,,,,,,,,
366583,1620397051391,,,,,,,,-0.01,0.04,-0.15,-0,-5,-0,0.04,,82,4622,7,30,55,0.833,0.0,467,4.92,12.1,0.0,1,27.2,2.63,5.6,0,0,1,1,0,0,250,250,0,,,,,,,,,,,,,,,,
366603,1620397051411,,,,,,,,0.04,0.05,-0.31,-0,-3,0,0.06,,82,4601,7,30,54,0.832,0.0,481,4.88,12.0,0.0,1,26.8,1.51,5.6,0,0,1,1,0,0,250,250,0,,,,,,,,,,,,,,,,
366623,1620397051431,,,,,,,,0.09,0.04,-0.45,-0,-2,0,0.1,,82,4539,7,30,54,0.831,0.0,464,4.88,12.0,0.0,1,26.0,1.46,5.6,0,0,1,1,0,0,250,250,0,,,,,,,,,,,,,,,,
366643,1620397051451,0,2,32,34,32,33,2,0.14,0.04,-0.58,-0,0,0,0.14,0,82,4562,7,30,54,0.83,0.0,468,4.92,12.0,0.0,1,26.3,1.48,5.5,0,0,1,1,0,0,250,250,0,45.845741,5.178853,0.0,217.3,10,3,1.6,0,0.0,-1,0.0,0.0,0.0,0,0.0,6.1107
366663,1620397051471,,,,,,,,0.17,0.04,-0.69,-0,3,1,0.17,,82,4500,7,30,54,0.829,0.0,459,4.87,12.1,0.0,1,25.5,1.44,5.5,0,0,1,1,0,0,250,250,0,,,,,,,,,,,,,,,,
366683,1620397051493,,,,,,,,0.18,0.05,-0.8,-0,5,1,0.19,,82,4493,7,30,55,0.828,0.0,463,4.86,12.1,0.0,1,25.6,1.44,5.5,0,0,1,1,0,0,250,250,0,,,,,,,,,,,,,,,,
366703,1620397051513,,,,,,,,0.22,0.03,-0.9,-0,6,1,0.22,,82,4522,7,30,55,0.828,0.0,475,4.86,12.0,0.0,1,26.0,1.46,5.5,0,0,1,1,0,0,250,250,0,,,,,,,,,,,,,,,,
366723,1620397051533,,,,,,,,0.26,0.03,-0.99,-0,8,1,0.26,,82,4474,7,30,55,0.828,0.0,451,4.93,12.0,0.0,1,25.4,1.43,5.5,0,0,1,1,0,0,250,250,0,,,,,,,,,,,,,,,,
366743,1620397051553,-0,2,33,34,32,33,3,0.29,0.03,-1.08,-0,10,2,0.29,0,82,4521,7,30,55,0.828,0.0,465,4.87,12.1,0.0,1,26.0,2.58,5.4,0,0,1,1,0,0,250,250,0,45.845741,5.178853,0.0,217.3,10,3,1.6,0,0.0,-1,0.0,,0.0,0,0.0,6.1124
366763,1620397051573,,,,,,,,0.29,0.03,-1.15,-0,12,2,0.3,,82,4508,7,30,55,0.829,0.0,462,4.9,12.1,0.0,1,25.8,2.57,5.4,0,0,1,1,0,0,250,250,0,,,,,,,,,,,,,,,,
366783,1620397051592,,,,,,,,0.32,0.01,-1.22,-0,13,2,0.32,,82,4480,7,30,55,0.829,0.0,458,4.95,12.0,0.0,1,25.5,1.43,5.4,0,0,1,1,0,0,250,250,0,,,,,,,,,,,,,,,,
366803,1620397051612,,,,,,,,0.35,0.01,-1.29,-0,14,2,0.35,,82,4539,7,30,55,0.829,0.0,472,4.95,12.0,0.0,1,26.3,1.47,5.4,0,0,1,1,0,0,250,250,0,,,,,,,,,,,,,,,,
366823,1620397051632,,,,,,,,0.34,0.01,-1.35,-1,17,3,0.34,,82,4521,7,30,55,0.83,0.0,461,4.94,12.0,0.0,1,26.0,1.46,5.4,0,0,1,1,0,0,250,250,0,,,,,,,,,,,,,,,,
366843,1620397051652,0,0,33,34,32,33,3,0.32,0.02,-1.4,-1,18,3,0.32,0,82,4531,7,30,55,0.83,0.0,477,4.88,12.0,0.0,1,26.1,1.46,5.4,0,0,1,1,0,0,250,250,0,45.845741,5.178853,0.0,217.3,10,3,1.6,0,0.0,-1,0.0,0.0,0.0,0,0.0,6.114
366863,1620397051672,,,,,,,,0.31,0.01,-1.45,-1,19,3,0.31,,82,4548,7,30,55,0.829,0.0,460,4.93,12.0,0.0,1,26.3,1.47,5.4,0,0,1,1,0,0,250,250,0,,,,,,,,,,,,,,,,
366883,1620397051692,,,,,,,,0.31,0.02,-1.5,-1,21,4,0.31,,82,4541,7,30,55,0.828,0.0,460,4.93,12.0,0.0,1,26.1,1.46,5.4,0,0,1,1,0,0,250,250,0,,,,,,,,,,,,,,,,
366903,1620397051710,,,,,,,,0.27,0.02,-1.54,-1,24,4,0.27,,82,4565,7,30,55,0.827,0.0,463,4.92,11.9,0.0,1,26.5,1.48,5.4,0,0,1,1,0,0,250,250,0,,,,,,,,,,,,,,,,
366923,1620397051730,,,,,,,,0.21,0.03,-1.58,-1,25,4,0.21,,82,4562,7,30,55,0.826,0.0,459,4.83,11.9,0.0,1,26.5,1.48,5.4,0,0,1,1,0,0,250,250,0,,,,,,,,,,,,,,,,
366943,1620397051750,1,0,33,34,32,33,2,0.15,0.06,-1.43,-1,25,4,0.17,0,82,4580,7,30,55,0.825,0.0,467,4.93,12.0,0.0,1,26.7,2.61,5.4,0,0,1,1,0,0,250,250,0,45.845741,5.178853,0.0,217.3,10,3,1.6,0,0.0,-1,0.0,,0.0,0,0.0,6.1157
366963,1620397051770,,,,,,,,0.09,0.08,-1.15,-1,25,4,0.12,,82,4620,7,30,55,0.823,0.0,458,4.82,12.0,0.0,1,27.2,1.52,5.4,0,0,1,1,0,0,250,250,0,,,,,,,,,,,,,,,,
366983,1620397051790,,,,,,,,-0.0,0.09,-0.88,-1,23,3,0.09,,82,4606,7,30,55,0.822,0.0,457,4.82,12.1,0.0,1,27.0,2.62,5.4,0,0,1,1,0,0,250,250,0,,,,,,,,,,,,,,,,
367003,1620397051810,,,,,,,,-0.06,0.09,-0.64,-1,19,2,0.11,,82,4617,7,30,55,0.82,0.0,466,4.83,12.1,0.0,1,27.2,2.63,5.4,0,0,1,1,0,0,250,250,0,,,,,,,,,,,,,,,,
367023,1620397051830,,,,,,,,-0.05,0.06,-0.42,-1,14,2,0.08,,82,4628,7,30,55,0.82,0.0,454,4.8,12.0,0.0,1,27.3,1.53,5.4,0,0,1,1,0,0,250,250,0,,,,,,,,,,,,,,,,
367043,1620397051850,-1,2,33,34,32,33,2,-0.06,0.05,-0.28,-1,10,1,0.07,0,82,4614,7,30,55,0.821,0.0,463,4.83,12.1,0.0,1,27.1,2.63,5.6,0,0,1,1,0,0,250,250,0,45.845741,5.178853,0.0,217.3,10,3,1.6,0,0.0,-1,0.0,0.0,0.0,0,0.0,6.1174
367063,1620397051870,,,,,,,,-0.04,0.05,-0.25,-0,6,0,0.07,,82,4573,7,30,54,0.821,0.0,461,4.88,12.1,0.0,1,26.4,1.49,5.6,0,0,1,1,0,0,250,250,0,,,,,,,,,,,,,,,,
367083,1620397051890,,,,,,,,0.01,0.02,-0.33,-0,3,0,0.03,,82,4577,7,30,55,0.821,0.0,462,4.92,12.1,0.0,1,26.7,2.61,5.6,0,0,1,1,0,0,250,250,0,,,,,,,,,,,,,,,,
367103,1620397051910,,,,,,,,0.05,0.03,-0.45,-0,1,1,0.06,,82,4526,7,30,55,0.822,0.0,469,4.91,12.2,0.0,1,26.0,2.58,5.6,0,0,1,1,0,0,250,250,0,,,,,,,,,,,,,,,,
367123,1620397051930,,,,,,,,0.08,0.04,-0.58,-0,-1,1,0.09,,82,4556,7,30,55,0.823,0.0,461,4.84,12.1,0.0,1,26.4,2.6,5.6,0,0,1,1,0,0,250,250,0,,,,,,,,,,,,,,,,
367143,1620397051950,0,2,32,34,32,33,2,0.13,0.02,-0.7,-0,-3,1,0.13,0,82,4537,7,30,55,0.825,0.0,473,4.85,12.1,0.0,1,26.2,1.46,5.5,0,0,1,1,0,0,250,250,0,45.845741,5.178853,0.0,217.3,10,3,1.6,0,0.0,-1,0.0,,0.0,0,0.0,6.1191
367163,1620397051970,,,,,,,,0.19,0.01,-0.81,-0,-3,1,0.19,,82,4506,7,30,55,0.826,0.0,459,4.85,12.1,0.0,1,25.8,1.45,5.5,0,0,1,1,0,0,250,250,0,,,,,,,,,,,,,,,,
367183,1620397051990,,,,,,,,0.21,0.03,-0.91,-0,-2,1,0.22,,82,4545,7,30,55,0.827,0.0,470,4.87,12.1,0.0,1,26.3,2.59,5.5,0,0,1,1,0,0,250,250,0,,,,,,,,,,,,,,,,
367203,1620397052004,,,,,,,,0.25,0.05,-1.0,-0,-3,1,0.25,,82,4522,7,30,55,0.828,0.0,462,4.78,12.1,0.0,1,26.0,1.46,5.5,0,0,1,1,0,0,250,250,0,,,,,,,,,,,,,,,,
367223,1620397052024,,,,,,,,0.29,0.04,-1.08,-0,-3,1,0.29,,82,4544,7,30,55,0.829,0.0,454,4.86,12.0,0.0,1,26.3,1.47,5.5,0,0,1,1,0,0,250,250,0,,,,,,,,,,,,,,,,
367243,1620397052044,0,2,32,34,32,33,2,0.34,0.05,-1.16,-0,-1,1,0.35,0,82,4558,7,30,55,0.83,0.0,477,4.87,12.0,0.0,1,26.4,1.48,5.4,0,0,1,1,0,0,250,250,0,45.845741,5.178853,0.0,217.3,10,3,1.6,0,0.0,-1,0.0,0.0,0.0,0,0.0,6.1207
367263,1620397052064,,,,,,,,0.36,0.05,-1.23,-0,1,1,0.36,,82,4544,7,30,55,0.83,0.0,466,4.95,12.0,0.0,1,26.3,1.44,5.4,0,0,1,1,0,0,250,250,0,,,,,,,,,,,,,,,,
367283,1620397052084,,,,,,,,0.38,0.03,-1.29,-0,3,1,0.38,,82,4566,7,30,55,0.829,0.0,462,4.86,12.1,0.0,1,26.5,2.6,5.4,0,0,1,1,0,0,250,250,0,,,,,,,,,,,,,,,,
367303,1620397052110,,,,,,,,0.4,0.03,-1.35,-0,6,1,0.4,,82,4558,7,30,55,0.829,0.0,471,4.97,12.0,0.0,1,26.4,1.47,5.4,0,0,1,1,0,0,250,250,0,,,,,,,,,,,,,,,,
367323,1620397052130,,,,,,,,0.4,0.03,-1.41,-1,10,2,0.4,,82,4575,7,30,55,0.828,0.0,457,4.92,12.0,0.0,1,26.6,1.49,5.4,0,0,1,1,0,0,250,250,0,,,,,,,,,,,,,,,,
367343,1620397052150,-1,2,33,34,32,33,3,0.35,0.03,-1.46,-1,12,2,0.35,0,82,4614,7,30,55,0.827,0.0,483,5.0,12.0,0.0,1,27.1,1.52,5.5,0,0,1,1,0,0,250,250,0,45.845741,5.178853,0.0,217.3,10,3,1.6,0,0.0,-1,0.0,,0.0,0,0.0,6.1224
367363,1620397052170,,,,,,,,0.3,0.03,-1.5,-1,13,2,0.3,,82,4588,7,30,55,0.826,0.0,464,4.92,12.0,0.0,1,26.8,1.5,5.5,0,0,1,1,0,0,250,250,0,,,,,,,,,,,,,,,,
367383,1620397052192,,,,,,,,0.24,0.04,-1.35,-1,15,3,0.24,,82,4605,7,30,55,0.824,0.0,468,4.93,11.9,0.0,1,27.0,2.62,5.5,0,0,1,1,0,0,250,250,0,,,,,,,,,,,,,,,,
367403,1620397052212,,,,,,,,0.15,0.06,-1.07,-1,14,2,0.16,,82,4614,7,30,54,0.823,0.0,471,4.87,12.0,0.0,1,26.9,1.52,5.5,0,0,1,1,0,0,250,250,0,,,,,,,,,,,,,,,,
367423,1620397052232,,,,,,,,0.06,0.05,-0.81,-1,11,1,0.08,,82,4613,7,30,54,0.822,0.0,458,4.86,12.0,0.0,1,26.9,2.63,5.5,0,0,1,1,0,0,250,250,0,,,,,,,,,,,,,,,,
367443,1620397052252,-1,2,33,34,32,33,2,0.02,0.03,-0.58,-0,8,0,0.04,0,82,4638,7,30,54,0.821,0.0,467,4.87,12.1,0.0,1,27.2,1.53,5.6,0,0,1,1,0,0,250,250,0,45.845741,5.178853,0.0,217.3,10,3,1.6,0,0.0,-1,0.0,0.0,0.0,0,0.0,6.1241
367463,1620397052272,,,,,,,,0.0,0.02,-0.36,-0,4,-0,0.02,,82,4614,7,30,55,0.821,0.0,465,4.92,12.1,0.0,1,27.1,2.63,5.6,0,0,1,1,0,0,250,250,0,,,,,,,,,,,,,,,,
367483,1620397052292,,,,,,,,-0.0,0.02,-0.25,-0,0,-1,0.02,,82,4603,7,30,55,0.82,0.0,468,4.92,12.1,0.0,1,27.0,2.62,5.6,0,0,1,1,0,0,250,250,0,,,,,,,,,,,,,,,,
367503,1620397052312,,,,,,,,0.03,0.0,-0.29,-0,-2,-0,0.03,,82,4593,7,30,54,0.82,0.0,482,4.87,12.1,0.0,1,26.7,2.62,5.6,0,0,1,1,0,0,250,250,0,,,,,,,,,,,,,,,,
367523,1620397052332,,,,,,,,0.07,0.0,-0.4,-0,-3,-0,0.07,,82,4550,7,30,54,0.82,0.0,463,4.86,12.1,0.0,1,26.1,2.59,5.6,0,0,1,1,0,0,250,250,0,,,,,,,,,,,,,,,,
367543,1620397052352,-0,2,32,34,32,33,2,0.1,0.01,-0.53,-0,-4,-0,0.1,0,82,4555,7,30,54,0.821,0.0,466,4.92,12.1,0.0,1,26.2,2.59,5.4,0,0,1,1,0,0,250,250,0,45.845741,5.178853,0.0,217.3,10,3,1.6,0,0.0,-1,0.0,,0.0,0,0.0,6.1257
367563,1620397052372,,,,,,,,0.13,-0.01,-0.65,-0,-6,-0,0.13,,82,4511,7,30,55,0.822,0.0,468,4.86,12.1,0.0,1,25.8,1.45,5.4,0,0,1,1,0,0,250,250,0,,,,,,,,,,,,,,,,
367583,1620397052393,,,,,,,,0.19,-0.02,-0.71,-0,-6,0,0.19,,82,4497,7,30,55,0.823,0.0,453,4.89,12.1,0.0,1,25.7,1.44,5.4,0,0,1,1,0,0,250,250,0,,,,,,,,,,,,,,,,
367603,1620397052413,,,,,,,,0.22,-0.02,-0.82,-0,-6,0,0.22,,82,4515,7,30,55,0.824,0.0,460,4.81,12.1,0.0,1,25.9,1.46,5.4,0,0,1,1,0,0,250,250,0,,,,,,,,,,,,,,,,
367623,1620397052433,,,,,,,,0.24,-0.01,-0.91,-0,-6,0,0.24,,82,4497,7,30,55,0.826,0.0,455,4.87,12.1,0.0,1,25.7,1.44,5.4,0,0,1,1,0,0,250,250,0,,,,,,,,,,,,,,,,
367643,1620397052453,-1,2,33,34,32,33,2,0.28,-0.01,-1.0,-0,-6,0,0.28,0,82,4563,7,30,55,0.827,0.0,475,4.87,12.1,0.0,1,26.5,2.6,5.4,0,0,1,1,0,0,250,250,0,45.845741,5.178853,0.0,217.3,10,3,1.6,0,0.0,-1,0.0,0.0,0.0,0,0.0,6.1274
367663,1620397052473,,,,,,,,0.32,-0.02,-1.09,-0,-5,0,0.32,,82,4525,7,30,55,0.829,0.0,462,4.88,12.1,0.0,1,26.0,2.58,5.4,0,0,1,1,0,0,250,250,0,,,,,,,,,,,,,,,,
367683,1620397052492,,,,,,,,0.33,-0.01,-1.16,-0,-4,0,0.33,,82,4520,7,30,55,0.831,0.0,461,4.88,12.1,0.0,1,26.0,2.58,5.4,0,0,1,1,0,0,250,250,0,,,,,,,,,,,,,,,,
367703,1620397052512,,,,,,,,0.36,0.02,-1.23,-0,-3,0,0.36,,82,4572,7,30,55,0.832,0.0,465,4.87,12.1,0.0,1,26.6,2.61,5.4,0,0,1,1,0,0,250,250,0,,,,,,,,,,,,,,,,
367723,1620397052532,,,,,,,,0.4,0.01,-1.3,-0,-2,0,0.4,,82,4501,7,30,55,0.833,0.0,453,4.86,12.1,0.0,1,25.7,1.45,5.4,0,0,1,1,0,0,250,250,0,,,,,,,,,,,,,,,,
367743,1620397052552,1,-0,33,34,32,33,2,0.44,0.02,-1.36,-0,1,1,0.44,0,82,4554,7,30,55,0.835,0.0,471,4.93,12.0,0.0,1,26.4,1.47,5.4,0,0,1,1,0,0,250,250,0,45.845741,5.178853,0.0,217.3,10,3,1.6,0,0.0,-1,0.0,,0.0,0,0.0,6.129
367763,1620397052572,,,,,,,,0.45,0.03,-1.41,-0,4,1,0.45,,82,4556,7,30,55,0.835,0.0,470,4.94,12.0,0.0,1,26.2,2.6,5.4,0,0,1,1,0,0,250,250,0,,,,,,,,,,,,,,,,
367783,1620397052591,,,,,,,,0.47,0.02,-1.46,-0,6,1,0.47,,82,4526,7,30,55,0.834,0.0,462,4.94,12.0,0.0,1,26.4,2.58,5.4,0,0,1,1,0,0,250,250,0,,,,,,,,,,,,,,,,
367803,1620397052611,,,,,,,,0.48,0.02,-1.5,-0,8,2,0.48,,82,4605,7,30,55,0.833,0.0,471,4.94,12.0,0.0,1,27.0,1.51,5.4,0,0,1,1,0,0,250,250,0,,,,,,,,,,,,,,,,
367823,1620397052631,,,,,,,,0.46,0.03,-1.54,-0,12,2,0.46,,82,4565,7,30,55,0.832,0.0,458,4.91,11.9,0.0,1,26.2,1.47,5.4,0,0,1,1,0,0,250,250,0,,,,,,,,,,,,,,,,
367843,1620397052651,0,2,32,34,32,33,2,0.4,0.04,-1.58,-0,13,2,0.41,0,82,4600,7,30,55,0.831,0.0,467,5.01,12.0,0.0,1,27.0,1.51,5.5,0,0,1,1,0,0,250,250,0,45.845741,5.178853,0.0,217.3,10,3,1.6,0,0.0,-1,0.0,0.0,0.0,0,0.0,6.1307
367863,1620397052671,,,,,,,,0.34,0.04,-1.62,-0,14,2,0.35,,82,4613,7,30,54,0.83,0.0,457,4.86,12.0,0.0,1,26.9,1.52,5.5,0,0,1,1,0,0,250,250,0,,,,,,,,,,,,,,,,
367883,1620397052691,,,,,,,,0.28,0.04,-1.51,-1,15,2,0.29,,82,4552,7,30,55,0.829,0.0,463,4.91,11.9,0.0,1,26.4,2.59,5.5,0,0,1,1,0,0,250,250,0,,,,,,,,,,,,,,,,
367903,1620397052711,,,,,,,,0.18,0.07,-1.23,-1,14,2,0.2,,82,4601,7,30,55,0.829,0.0,463,4.88,11.9,0.0,1,27.0,1.47,5.5,0,0,1,1,0,0,250,250,0,,,,,,,,,,,,,,,,
367923,1620397052731,,,,,,,,0.1,0.06,-0.96,-1,11,1,0.11,,82,4572,7,30,55,0.828,0.0,450,4.85,12.1,0.0,1,26.6,1.49,5.5,0,0,1,1,0,0,250,250,0,,,,,,,,,,,,,,,,
367943,1620397052751,1,0,33,34,32,33,2,0.04,0.07,-0.72,-0,8,0,0.08,0,82,4591,7,30,55,0.829,0.0,457,4.87,12.1,0.0,1,26.8,1.5,5.4,0,0,1,1,0,0,250,250,0,45.845741,5.178853,0.0,217.3,10,3,1.6,0,0.0,-1,0.0,,0.0,0,0.0,6.1324
367963,1620397052771,,,,,,,,-0.02,0.07,-0.49,-0,5,-0,0.08,,82,4637,7,30,54,0.83,0.0,451,4.93,12.1,0.0,1,27.2,1.53,5.4,0,0,1,1,0,0,250,250,0,,,,,,,,,,,,,,,,
367983,1620397052791,,,,,,,,-0.06,0.06,-0.28,-0,0,-1,0.08,,82,4559,7,30,54,0.83,0.0,456,4.91,12.1,0.0,1,26.2,2.6,5.4,0,0,1,1,0,0,250,250,0,,,,,,,,,,,,,,,,
368003,1620397052811,,,,,,,,-0.05,0.04,-0.1,-0,-3,-1,0.06,,82,4606,7,30,55,0.831,0.0,455,4.88,12.2,0.0,1,27.0,1.51,5.4,0,0,1,1,0,0,250,250,0,,,,,,,,,,,,,,,,
368023,1620397052831,,,,,,,,-0.03,0.03,-0.08,-0,-4,-1,0.04,,82,4611,7,30,55,0.832,0.0,463,4.91,12.1,0.0,1,27.1,1.51,5.4,0,0,1,1,0,0,250,250,0,,,,,,,,,,,,,,,,
368043,1620397052851,-1,2,33,34,32,33,2,-0.01,0.01,-0.15,-0,-6,-1,0.01,0,82,4543,7,30,54,0.833,0.0,478,4.88,12.1,0.0,1,26.0,1.47,5.4,0,0,1,1,0,0,250,250,0,45.845741,5.178853,0.0,217.3,10,3,1.6,0,0.0,-1,0.0,0.0,0.0,0,0.0,6.134
368063,1620397052871,,,,,,,,0.04,-0.0,-0.31,-0,-6,-0,0.04,,82,4615,7,30,55,0.835,0.0,477,4.86,12.1,0.0,1,27.1,2.63,5.4,0,0,1,1,0,0,250,250,0,,,,,,,,,,,,,,,,
368083,1620397052891,,,,,,,,0.1,-0.02,-0.45,-0,-5,-0,0.11,,82,4554,7,30,54,0.836,0.0,468,4.84,12.0,0.0,1,26.2,1.47,5.4,0,0,1,1,0,0,250,250,0,,,,,,,,,,,,,,,,
368103,1620397052911,,,,,,,,0.14,-0.01,-0.58,-0,-3,0,0.14,,82,4550,7,30,55,0.837,0.0,472,4.9,12.0,0.0,1,26.3,1.47,5.4,0,0,1,1,0,0,250,250,0,,,,,,,,,,,,,,,,
368123,1620397052931,,,,,,,,0.18,0.01,-0.7,-0,-1,0,0.18,,82,4627,7,30,54,0.838,0.0,471,4.91,12.0,0.0,1,27.1,1.51,5.4,0,0,1,1,0,0,250,250,0,,,,,,,,,,,,,,,,
368143,1620397052951,1,0,33,34,32,33,2,0.23,-0.0,-0.8,-0,2,1,0.23,0,82,4546,7,30,54,0.838,0.0,481,4.86,12.1,0.0,1,26.1,2.6,5.4,0,0,1,1,0,0,250,250,0,45.845741,5.178853,0.0,217.3,10,3,1.6,0,0.0,-1,0.0,,0.0,0,0.0,6.1357
368163,1620397052971,,,,,,,,0.25,0.01,-0.9,-0,6,1,0.25,,82,4630,7,30,55,0.839,0.0,473,4.87,12.0,0.0,1,27.3,1.53,5.4,0,0,1,1,0,0,250,250,0,,,,,,,,,,,,,,,,
368183,1620397052991,,,,,,,,0.22,0.02,-0.99,-1,8,2,0.22,,82,4567,7,30,54,0.838,0.0,478,4.88,11.9,0.0,1,26.3,1.48,5.4,0,0,1,1,0,0,250,250,0,,,,,,,,,,,,,,,,
368203,1620397053005,,,,,,,,0.19,0.03,-1.08,-1,10,2,0.2,,82,4612,7,30,54,0.837,0.0,481,4.94,11.9,0.0,1,26.9,2.63,5.4,0,0,1,1,0,0,250,250,0,,,,,,,,,,,,,,,,
368223,1620397053025,,,,,,,,0.11,0.05,-0.82,-1,10,2,0.13,,82,4592,7,30,54,0.836,0.0,462,4.83,12.0,0.0,1,26.7,2.62,5.4,0,0,1,1,0,0,250,250,0,,,,,,,,,,,,,,,,
368243,1620397053045,0,2,32,34,32,33,2,0.03,0.06,-0.59,-1,10,2,0.06,0,82,4515,7,30,54,0.836,0.0,457,4.86,12.0,0.0,1,25.7,2.57,5.3,0,0,1,1,0,0,250,250,0,45.845741,5.178853,0.0,217.3,10,3,1.6,0,0.0,-1,0.0,0.0,0.0,0,0.0,6.1374
368263,1620397053065,,,,,,,,-0.04,0.06,-0.37,-1,7,1,0.07,,82,4583,7,30,54,0.835,0.0,448,4.82,12.0,0.0,1,26.5,2.61,5.3,0,0,1,1,0,0,250,250,0,,,,,,,,,,,,,,,,
368283,1620397053093,,,,,,,,-0.08,0.05,-0.17,-0,5,0,0.09,,82,4498,7,30,54,0.834,0.0,453,4.84,12.1,0.0,1,25.5,1.43,5.3,0,0,1,1,0,0,250,250,0,,,,,,,,,,,,,,,,
368303,1620397053113,,,,,,,,-0.14,0.07,0.01,-0,5,0,0.16,,82,4489,7,30,54,0.834,0.0,454,4.82,12.0,0.0,1,25.4,2.55,5.3,0,0,1,1,0,0,250,250,0,,,,,,,,,,,,,,,,
368323,1620397053133,,,,,,,,-0.19,0.07,0.17,-0,2,-0,0.21,,82,4535,7,30,54,0.833,0.0,445,4.81,12.0,0.0,1,25.9,2.58,5.3,0,0,1,1,0,0,250,250,0,,,,,,,,,,,,,,,,
368343,1620397053153,1,2,33,34,32,33,3,-0.23,0.06,0.33,-0,-0,-1,0.24,0,82,4497,7,30,55,0.833,0.0,455,4.81,12.0,0.0,1,25.7,1.44,5.3,0,0,1,1,0,0,250,250,0,45.845741,5.178853,0.0,217.3,10,3,1.6,0,0.0,-1,0.0,,0.0,0,0.0,6.1391
368363,1620397053173,,,,,,,,-0.25,0.04,0.47,-0,-2,-1,0.25,,82,4548,7,30,55,0.832,0.0,442,4.86,12.1,0.0,1,26.3,2.59,5.3,0,0,1,1,0,0,250,250,0,,,,,,,,,,,,,,,,
368383,1620397053193,,,,,,,,-0.27,0.03,0.59,-0,-4,-2,0.27,,82,4573,7,30,55,0.832,0.0,455,4.87,12.1,0.0,1,26.6,2.61,5.3,0,0,1,1,0,0,250,250,0,,,,,,,,,,,,,,,,
368403,1620397053213,,,,,,,,-0.28,0.02,0.7,-0,-7,-2,0.28,,82,4514,7,30,55,0.831,0.0,452,4.91,12.1,0.0,1,25.9,1.46,5.3,0,0,1,1,0,0,250,250,0,,,,,,,,,,,,,,,,
368423,1620397053233,,,,,,,,-0.26,0.0,0.78,-0,-10,-3,0.26,,82,4573,7,30,55,0.832,0.0,443,4.92,12.1,0.0,1,26.6,1.49,5.3,0,0,1,1,0,0,250,250,0,,,,,,,,,,,,,,,,
368443,1620397053253,0,1,33,34,32,33,2,-0.24,-0.0,0.84,-0,-11,-3,0.24,0,82,4537,7,30,55,0.833,0.0,459,4.86,12.1,0.0,1,26.2,1.46,5.4,0,0,1,1,0,0,250,250,0,45.845741,5.178853,0.0,217.3,10,3,1.6,0,0.0,-1,0.0,0.0,0.0,0,0.0,6.1407
368463,1620397053273,,,,,,,,-0.22,-0.02,0.82,-0,-13,-3,0.22,,82,4546,7,30,55,0.834,0.0,454,4.86,12.1,0.0,1,26.3,1.47,5.4,0,0,1,1,0,0,250,250,0,,,,,,,,,,,,,,,,
368483,1620397053293,,,,,,,,-0.17,-0.03,0.65,-0,-16,-3,0.17,,82,4609,7,30,55,0.835,0.0,465,4.91,12.1,0.0,1,27.1,2.62,5.4,0,0,1,1,0,0,250,250,0,,,,,,,,,,,,,,,,
368503,1620397053313,,,,,,,,-0.09,-0.05,0.49,-0,-17,-3,0.1,,82,4532,7,30,55,0.834,0.0,465,4.89,12.1,0.0,1,26.1,1.46,5.4,0,0,1,1,0,0,250,250,0,,,,,,,,,,,,,,,,
368523,1620397053333,,,,,,,,-0.03,-0.03,0.29,-0,-17,-2,0.05,,82,4574,7,30,55,0.833,0.0,458,4.87,12.2,0.0,1,26.6,1.49,5.4,0,0,1,1,0,0,250,250,0,,,,,,,,,,,,,,,,
368543,1620397053353,-0,2,32,34,32,33,3,0.02,-0.01,0.1,-0,-17,-2,0.02,0,82,4579,7,30,55,0.832,0.0,480,4.86,12.1,0.0,1,26.7,1.49,5.5,0,0,1,1,0,0,250,250,0,45.845741,5.178853,0.0,217.3,10,3,1.6,0,0.0,-1,0.0,,0.0,0,0.0,6.1424
368563,1620397053373,,,,,,,,0.08,-0.01,-0.08,-0,-17,-2,0.09,,82,4545,7,30,55,0.83,0.0,462,4.85,12.1,0.0,1,26.3,2.59,5.5,0,0,1,1,0,0,250,250,0,,,,,,,,,,,,,,,,
368583,1620397053393,,,,,,,,0.14,0.0,-0.24,-0,-14,-1,0.14,,82,4645,7,30,55,0.829,0.0,475,4.89,12.0,0.0,1,27.5,1.54,5.5,0,0,1,1,0,0,250,250,0,,,,,,,,,,,,,,,,
368603,1620397053413,,,,,,,,0.16,0.01,-0.39,-0,-11,-1,0.16,,82,4582,7,30,55,0.829,0.0,490,4.91,12.0,0.0,1,26.7,1.49,5.5,0,0,1,1,0,0,250,250,0,,,,,,,,,,,,,,,,
368623,1620397053433,,,,,,,,0.17,0.0,-0.52,-0,-8,-1,0.17,,82,4565,7,30,55,0.828,0.0,460,4.85,12.1,0.0,1,26.5,2.6,5.5,0,0,1,1,0,0,250,250,0,,,,,,,,,,,,,,,,
368643,1620397053453,-0,1,33,34,32,33,3,0.18,-0.0,-0.64,-0,-4,-0,0.18,0,82,4592,7,30,55,0.827,0.0,474,4.87,12.0,0.0,1,26.9,1.48,5.5,0,0,1,1,0,0,250,250,0,45.845741,5.178853,0.0,217.3,10,3,1.6,0,0.0,-1,0.0,0.0,0.0,0,0.0,6.1441
368663,1620397053473,,,,,,,,0.17,0.02,-0.76,-0,0,1,0.17,,82,4515,7,30,54,0.827,0.0,458,4.92,11.9,0.0,1,25.7,1.45,5.5,0,0,1,1,0,0,250,250,0,,,,,,,,,,,,,,,,
368683,1620397053493,,,,,,,,0.13,0.01,-0.86,-0,3,1,0.13,,82,4606,7,30,55,0.827,0.0,467,4.92,11.9,0.0,1,27.0,2.62,5.5,0,0,1,1,0,0,250,250,0,,,,,,,,,,,,,,,,
368703,1620397053513,,,,,,,,0.09,0.03,-0.85,-0,5,1,0.1,,82,4544,7,30,54,0.826,0.0,475,4.88,11.9,0.0,1,26.1,1.47,5.5,0,0,1,1,0,0,250,250,0,,,,,,,,,,,,,,,,
368723,1620397053533,,,,,,,,0.05,0.02,-0.76,-0,8,1,0.06,,82,4545,7,30,55,0.826,0.0,452,4.94,11.9,0.0,1,26.3,2.59,5.5,0,0,1,1,0,0,250,250,0,,,,,,,,,,,,,,,,
368743,1620397053553,1,2,33,34,32,33,2,-0.03,0.05,-0.59,-0,9,1,0.05,0,82,4609,7,30,55,0.827,0.0,467,4.92,11.9,0.0,1,27.1,2.62,5.6,0,0,1,1,0,0,250,250,0,45.845741,5.178853,0.0,217.3,10,3,1.6,0,0.0,-1,0.0,,0.0,0,0.0,6.1457
368763,1620397053573,,,,,,,,-0.09,0.04,-0.37,-0,8,1,0.1,,82,4530,7,30,54,0.828,0.0,453,4.82,12.0,0.0,1,25.9,2.58,5.6,0,0,1,1,0,0,250,250,0,,,,,,,,,,,,,,,,
368783,1620397053592,,,,,,,,-0.14,0.05,-0.17,-0,7,0,0.15,,82,4595,7,30,55,0.83,0.0,455,4.81,11.9,0.0,1,26.9,1.5,5.6,0,0,1,1,0,0,250,250,0,,,,,,,,,,,,,,,,
368803,1620397053612,,,,,,,,-0.18,0.06,0.01,-0,6,-0,0.19,,82,4619,7,30,55,0.831,0.0,461,4.82,12.1,0.0,1,27.2,1.52,5.6,0,0,1,1,0,0,250,250,0,,,,,,,,,,,,,,,,
368823,1620397053632,,,,,,,,-0.21,0.05,0.17,-0,2,-1,0.22,,82,4575,7,30,55,0.833,0.0,454,4.9,12.1,0.0,1,26.6,2.61,5.6,0,0,1,1,0,0,250,250,0,,,,,,,,,,,,,,,,
368843,1620397053652,-0,2,32,34,32,33,2,-0.18,0.03,0.26,-0,-2,-1,0.18,0,82,4654,7,30,55,0.834,0.0,475,4.9,12.1,0.0,1,27.6,1.55,5.6,0,0,1,1,0,0,250,250,0,45.845741,5.178853,0.0,217.3,10,3,1.6,0,0.0,-1,0.0,0.0,0.0,0,0.0,6.1474
368863,1620397053672,,,,,,,,-0.14,0.01,0.23,-0,-4,-1,0.14,,82,4601,7,30,54,0.835,0.0,463,4.88,12.1,0.0,1,26.8,2.62,5.6,0,0,1,1,0,0,250,250,0,,,,,,,,,,,,,,,,
368883,1620397053692,,,,,,,,-0.09,-0.0,0.05,-0,-6,-1,0.09,,82,4577,7,30,55,0.836,0.0,465,4.9,12.1,0.0,1,26.7,2.61,5.6,0,0,1,1,0,0,250,250,0,,,,,,,,,,,,,,,,
368903,1620397053712,,,,,,,,-0.04,-0.01,-0.12,-0,-8,-1,0.04,,82,4588,7,30,55,0.837,0.0,469,4.91,12.1,0.0,1,26.8,2.62,5.6,0,0,1,1,0,0,250,250,0,,,,,,,,,,,,,,,,
368923,1620397053732,,,,,,,,0.05,-0.01,-0.27,-0,-8,-1,0.05,,82,4569,7,30,54,0.836,0.0,459,4.91,12.1,0.0,1,26.4,1.48,5.6,0,0,1,1,0,0,250,250,0,,,,,,,,,,,,,,,,
368943,1620397053752,-1,0,32,34,32,33,2,0.09,-0.0,-0.42,-0,-6,-1,0.09,0,82,4583,7,30,54,0.835,0.0,482,4.85,12.0,0.0,1,26.5,1.49,5.5,0,0,1,1,0,0,250,250,0,45.845741,5.178853,0.0,217.3,10,3,1.6,0,0.0,-1,0.0,,0.0,0,0.0,6.149
368963,1620397053772,,,,,,,,0.13,0.0,-0.55,-0,-5,-0,0.13,,82,4541,7,30,54,0.835,0.0,472,4.89,12.0,0.0,1,26.0,1.46,5.5,0,0,1,1,0,0,250,250,0,,,,,,,,,,,,,,,,
368983,1620397053792,,,,,,,,0.18,-0.0,-0.67,-0,-3,-0,0.18,,82,4535,7,30,55,0.834,0.0,465,4.82,12.1,0.0,1,26.1,1.46,5.5,0,0,1,1,0,0,250,250,0,,,,,,,,,,,,,,,,
369003,1620397053810,,,,,,,,0.23,0.01,-0.78,-0,0,0,0.23,,82,4565,7,30,54,0.835,0.0,481,4.93,12.0,0.0,1,25.9,1.46,5.5,0,0,1,1,0,0,250,250,0,,,,,,,,,,,,,,,,
369023,1620397053830,,,,,,,,0.25,0.02,-0.88,-0,3,1,0.25,,82,4497,7,30,54,0.835,0.0,459,4.95,12.0,0.0,1,25.5,1.43,5.5,0,0,1,1,0,0,250,250,0,,,,,,,,,,,,,,,,
369043,1620397053850,0,0,33,34,32,33,3,0.27,0.01,-0.97,-0,5,1,0.27,0,82,4554,7,30,55,0.835,0.0,464,4.87,12.1,0.0,1,26.4,2.59,5.4,0,0,1,1,0,0,250,250,0,45.845741,5.178853,0.0,217.3,10,3,1.6,0,0.0,-1,0.0,0.0,0.0,0,0.0,6.1507
369063,1620397053870,,,,,,,,0.3,0.02,-1.06,-0,7,1,0.3,,82,4536,7,30,55,0.835,0.0,458,4.93,12.0,0.0,1,26.2,1.46,5.4,0,0,1,1,0,0,250,250,0,,,,,,,,,,,,,,,,
369083,1620397053892,,,,,,,,0.29,0.04,-1.14,-0,11,2,0.29,,82,4521,7,30,55,0.836,0.0,461,4.95,11.9,0.0,1,26.0,1.46,5.4,0,0,1,1,0,0,250,250,0,,,,,,,,,,,,,,,,
369103,1620397053912,,,,,,,,0.25,0.04,-1.21,-0,13,2,0.26,,82,4558,7,30,55,0.837,0.0,475,4.91,12.0,0.0,1,26.2,1.46,5.4,0,0,1,1,0,0,250,250,0,,,,,,,,,,,,,,,,
369123,1620397053932,,,,,,,,0.24,0.04,-1.28,-1,14,2,0.25,,82,4515,7,30,55,0.838,0.0,455,4.92,11.9,0.0,1,25.9,1.46,5.4,0,0,1,1,0,0,250,250,0,,,,,,,,,,,,,,,,
369143,1620397053952,1,2,33,34,32,33,2,0.24,0.04,-1.34,-1,17,3,0.24,0,82,4592,7,30,55,0.838,0.0,467,4.9,11.9,0.0,1,26.9,1.5,5.5,0,0,1,1,0,0,250,250,0,45.845741,5.178853,0.0,217.3,10,3,1.6,0,0.0,-1,0.0,,0.0,0,0.0,6.1524
369163,1620397053972,,,,,,,,0.19,0.05,-1.39,-1,19,3,0.19,,82,4519,7,30,55,0.838,0.0,456,4.88,11.9,0.0,1,25.9,1.46,5.5,0,0,1,1,0,0,250,250,0,,,,,,,,,,,,,,,,
369183,1620397053992,,,,,,,,0.13,0.06,-1.39,-1,19,3,0.14,,82,4569,7,30,55,0.839,0.0,457,4.86,11.9,0.0,1,26.6,2.6,5.5,0,0,1,1,0,0,250,250,0,,,,,,,,,,,,,,,,
369203,1620397054006,,,,,,,,0.07,0.08,-1.23,-1,18,2,0.11,,82,4588,7,30,54,0.839,0.0,460,4.84,12.0,0.0,1,26.6,1.5,5.5,0,0,1,1,0,0,250,250,0,,,,,,,,,,,,,,,,
369223,1620397054026,,,,,,,,0.02,0.09,-0.96,-1,19,2,0.09,,82,4545,7,30,55,0.839,0.0,453,4.83,12.0,0.0,1,26.3,1.47,5.5,0,0,1,1,0,0,250,250,0,,,,,,,,,,,,,,,,
369243,1620397054046,-0,2,33,34,32,33,2,-0.07,0.11,-0.71,-1,16,1,0.13,0,82,4647,7,30,54,0.838,0.0,467,4.77,11.9,0.0,1,27.3,1.54,5.6,0,0,1,1,0,0,250,250,0,45.845741,5.178853,0.0,217.3,10,3,1.6,0,0.0,-1,0.0,0.0,0.0,0,0.0,6.154
369263,1620397054066,,,,,,,,-0.11,0.09,-0.49,-1,12,1,0.14,,82,4595,7,30,54,0.837,0.0,462,4.84,12.1,0.0,1,26.7,2.62,5.6,0,0,1,1,0,0,250,250,0,,,,,,,,,,,,,,,,
369283,1620397054092,,,,,,,,-0.12,0.06,-0.28,-1,8,-0,0.13,,82,4613,7,30,55,0.837,0.0,453,4.91,12.1,0.0,1,27.1,1.52,5.6,0,0,1,1,0,0,250,250,0,,,,,,,,,,,,,,,,
369303,1620397054112,,,,,,,,-0.12,0.04,-0.09,-0,5,-1,0.12,,82,4627,7,30,55,0.836,0.0,460,4.83,12.1,0.0,1,27.3,2.64,5.6,0,0,1,1,0,0,250,250,0,,,,,,,,,,,,,,,,
369323,1620397054132,,,,,,,,-0.11,0.02,-0.06,-0,1,-1,0.11,,82,4560,7,30,55,0.835,0.0,459,4.9,12.1,0.0,1,26.5,1.48,5.6,0,0,1,1,0,0,250,250,0,,,,,,,,,,,,,,,,
369343,1620397054152,1,2,33,34,32,33,2,-0.04,0.0,-0.16,-0,-2,-1,0.04,0,82,4636,7,30,55,0.834,0.0,480,4.88,12.1,0.0,1,27.4,1.53,5.5,0,0,1,1,0,0,250,250,0,45.845741,5.178853,0.0,217.3,10,3,1.6,0,0.0,-1,0.0,,0.0,0,0.0,6.1557
369363,1620397054172,,,,,,,,0.02,0.01,-0.31,-0,-2,-0,0.02,,82,4582,7,30,55,0.833,0.0,471,4.92,12.1,0.0,1,26.7,2.61,5.5,0,0,1,1,0,0,250,250,0,,,,,,,,,,,,,,,,
369383,1620397054192,,,,,,,,0.06,0.02,-0.45,-0,-2,0,0.06,,82,4566,7,30,55,0.832,0.0,465,4.9,12.1,0.0,1,26.5,2.6,5.5,0,0,1,1,0,0,250,250,0,,,,,,,,,,,,,,,,
369403,1620397054212,,,,,,,,0.12,0.02,-0.58,-0,-2,0,0.12,,82,4568,7,30,54,0.832,0.0,472,4.87,12.1,0.0,1,26.4,1.48,5.5,0,0,1,1,0,0,250,250,0,,,,,,,,,,,,,,,,
369423,1620397054232,,,,,,,,0.18,0.03,-0.7,-0,1,1,0.18,,82,4556,7,30,55,0.832,0.0,464,4.88,12.0,0.0,1,26.4,1.48,5.5,0,0,1,1,0,0,250,250,0,,,,,,,,,,,,,,,,
369443,1620397054252,-1,2,33,34,32,33,2,0.21,0.04,-0.81,-0,3,1,0.22,0,82,4544,7,30,55,0.833,0.0,475,4.91,12.0,0.0,1,26.3,1.47,5.4,0,0,1,1,0,0,250,250,0,45.845741,5.178853,0.0,217.3,10,3,1.6,0,0.0,-1,0.0,0.0,0.0,0,0.0,6.1574
369463,1620397054272,,,,,,,,0.24,0.03,-0.91,-0,5,1,0.24,,82,4567,7,30,55,0.833,0.0,460,4.88,12.1,0.0,1,26.5,2.6,5.4,0,0,1,1,0,0,250,250,0,,,,,,,,,,,,,,,,
369483,1620397054292,,,,,,,,0.28,0.03,-1.0,-0,7,2,0.28,,82,4524,7,30,54,0.834,0.0,467,4.96,12.0,0.0,1,26.0,2.58,5.4,0,0,1,1,0,0,250,250,0,,,,,,,,,,,,,,,,
369503,1620397054312,,,,,,,,0.29,0.04,-1.08,-0,11,2,0.29,,82,4559,7,30,55,0.836,0.0,476,4.89,12.0,0.0,1,26.4,2.6,5.4,0,0,1,1,0,0,250,250,0,,,,,,,,,,,,,,,,
369523,1620397054332,,,,,,,,0.26,0.05,-1.16,-0,13,3,0.27,,82,4542,7,30,55,0.837,0.0,461,4.91,12.0,0.0,1,26.2,2.59,5.4,0,0,1,1,0,0,250,250,0,,,,,,,,,,,,,,,,
369543,1620397054352,0,0,33,34,32,33,2,0.26,0.04,-1.23,-1,15,3,0.26,0,82,4556,7,30,55,0.839,0.0,472,5.01,12.0,0.0,1,26.3,1.47,5.4,0,0,1,1,0,0,250,250,0,45.845741,5.178853,0.0,217.3,10,3,1.6,0,0.0,-1,0.0,,0.0,0,0.0,6.159
369563,1620397054372,,,,,,,,0.25,0.03,-1.29,-1,17,3,0.25,,82,4572,7,30,54,0.839,0.0,460,4.88,11.9,0.0,1,26.4,2.61,5.4,0,0,1,1,0,0,250,250,0,,,,,,,,,,,,,,,,
369583,1620397054392,,,,,,,,0.2,0.05,-1.35,-1,18,3,0.2,,82,4534,7,30,55,0.839,0.0,460,4.94,11.9,0.0,1,26.1,1.46,5.4,0,0,1,1,0,0,250,250,0,,,,,,,,,,,,,,,,
369603,1620397054412,,,,,,,,0.13,0.04,-1.25,-1,17,3,0.13,,82,4601,7,30,54,0.839,0.0,462,4.85,12.0,0.0,1,26.8,1.51,5.4,0,0,1,1,0,0,250,250,0,,,,,,,,,,,,,,,,
369623,1620397054432,,,,,,,,0.08,0.07,-1.1,-1,17,2,0.1,,82,4541,7,30,54,0.839,0.0,453,4.82,12.0,0.0,1,26.0,2.58,5.4,0,0,1,1,0,0,250,250,0,,,,,,,,,,,,,,,,
369643,1620397054452,1,1,32,34,32,33,2,0.02,0.08,-0.85,-1,16,2,0.08,0,82,4563,7,30,54,0.838,0.0,462,4.88,11.9,0.0,1,26.3,2.6,5.4,0,0,1,1,0,0,250,250,0,45.845741,5.178853,0.0,217.3,10,3,1.6,0,0.0,-1,0.0,0.0,0.0,0,0.0,6.1607
369663,1620397054472,,,,,,,,-0.06,0.09,-0.61,-1,13,1,0.11,,82,4577,7,30,54,0.836,0.0,455,4.75,11.9,0.0,1,26.5,1.49,5.4,0,0,1,1,0,0,250,250,0,,,,,,,,,,,,,,,,
369683,1620397054492,,,,,,,,-0.11,0.08,-0.39,-1,10,0,0.14,,82,4510,7,30,54,0.834,0.0,452,4.81,12.1,0.0,1,25.6,2.56,5.4,0,0,1,1,0,0,250,250,0,,,,,,,,,,,,,,,,
369703,1620397054512,,,,,,,,-0.16,0.07,-0.19,-0,7,-0,0.18,,82,4569,7,30,54,0.832,0.0,449,4.73,12.0,0.0,1,26.4,1.48,5.4,0,0,1,1,0,0,250,250,0,,,,,,,,,,,,,,,,
369723,1620397054532,,,,,,,,-0.21,0.09,-0.01,-0,4,-1,0.22,,82,4572,7,30,55,0.83,0.0,450,4.88,12.1,0.0,1,26.6,2.61,5.4,0,0,1,1,0,0,250,250,0,,,,,,,,,,,,,,,,
369743,1620397054552,-1,2,33,34,32,33,2,-0.26,0.09,0.16,-0,0,-1,0.27,0,82,4512,7,30,55,0.829,0.0,453,4.83,12.0,0.0,1,25.9,2.57,5.3,0,0,1,1,0,0,250,250,0,45.845741,5.178853,0.0,217.3,10,3,1.6,0,0.0,-1,0.0,,0.0,0,0.0,6.1624
369763,1620397054572,,,,,,,,-0.26,0.07,0.31,-0,-3,-2,0.27,,82,4600,7,30,55,0.827,0.0,446,4.82,12.1,0.0,1,27.0,1.51,5.3,0,0,1,1,0,0,250,250,0,,,,,,,,,,,,,,,,
369783,1620397054591,,,,,,,,-0.24,0.05,0.45,-0,-5,-2,0.25,,82,4552,7,30,55,0.825,0.0,455,4.96,12.1,0.0,1,26.4,1.47,5.3,0,0,1,1,0,0,250,250,0,,,,,,,,,,,,,,,,
369803,1620397054611,,,,,,,,-0.25,0.03,0.58,-0,-8,-2,0.25,,82,4541,7,30,55,0.823,0.0,464,4.91,12.1,0.0,1,26.2,2.59,5.3,0,0,1,1,0,0,250,250,0,,,,,,,,,,,,,,,,
369823,1620397054631,,,,,,,,-0.23,0.01,0.57,-0,-11,-2,0.23,,82,4600,7,30,55,0.823,0.0,451,4.91,12.1,0.0,1,27.0,2.62,5.3,0,0,1,1,0,0,250,250,0,,,,,,,,,,,,,,,,
369843,1620397054651,0,1,33,34,32,33,1,-0.18,-0.01,0.56,-0,-13,-2,0.18,0,82,4527,7,30,55,0.823,0.0,460,4.92,12.1,0.0,1,26.0,2.58,5.4,0,0,1,1,0,0,250,250,0,45.845741,5.178853,0.0,217.3,10,3,1.6,0,0.0,-1,0.0,0.0,0.0,0,0.0,6.1641
369863,1620397054671,,,,,,,,-0.13,-0.01,0.35,-0,-12,-2,0.13,,82,4597,7,30,55,0.822,0.0,451,4.92,12.1,0.0,1,26.9,1.5,5.4,0,0,1,1,0,0,250,250,0,,,,,,,,,,,,,,,,
369883,1620397054691,,,,,,,,-0.08,-0.0,0.15,-0,-12,-1,0.08,,82,4565,7,30,55,0.822,0.0,466,4.91,12.1,0.0,1,26.5,1.48,5.4,0,0,1,1,0,0,250,250,0,,,,,,,,,,,,,,,,
369903,1620397054711,,,,,,,,-0.02,-0.02,-0.03,-0,-11,-1,0.03,,82,4583,7,30,55,0.823,0.0,470,4.88,12.1,0.0,1,26.7,1.49,5.4,0,0,1,1,0,0,250,250,0,,,,,,,,,,,,,,,,
369923,1620397054731,,,,,,,,0.06,-0.0,-0.19,-0,-7,-0,0.06,,82,4658,7,30,55,0.824,0.0,478,4.89,12.0,0.0,1,27.7,1.55,5.4,0,0,1,1,0,0,250,250,0,,,,,,,,,,,,,,,,
369943,1620397054751,0,2,33,34,32,33,2,0.1,0.01,-0.34,-0,-4,0,0.1,0,82,4585,7,30,54,0.824,0.0,483,4.92,12.0,0.0,1,26.6,1.5,5.5,0,0,1,1,0,0,250,250,0,45.845741,5.178853,0.0,217.3,10,3,1.6,0,0.0,-1,0.0,,0.0,0,0.0,6.1657
369963,1620397054771,,,,,,,,0.11,0.01,-0.48,-0,-1,0,0.11,,82,4635,7,30,54,0.825,0.0,466,4.93,11.9,0.0,1,27.2,1.53,5.5,0,0,1,1,0,0,250,250,0,,,,,,,,,,,,,,,,
369983,1620397054793,,,,,,,,0.12,0.02,-0.61,-1,2,1,0.12,,82,4556,7,30,54,0.827,0.0,476,4.93,12.0,0.0,1,26.2,2.6,5.5,0,0,1,1,0,0,250,250,0,,,,,,,,,,,,,,,,
370003,1620397054813,,,,,,,,0.08,0.04,-0.72,-1,5,1,0.09,,82,4628,7,30,54,0.828,0.0,471,4.95,11.9,0.0,1,27.1,1.53,5.5,0,0,1,1,0,0,250,250,0,,,,,,,,,,,,,,,,
370023,1620397054833,,,,,,,,0.02,0.03,-0.72,-1,5,1,0.04,,82,4589,7,30,54,0.83,0.0,461,4.84,12.0,0.0,1,26.6,1.5,5.5,0,0,1,1,0,0,250,250,0,,,,,,,,,,,,,,,,
370043,1620397054853,-1,2,33,34,32,33,3,-0.03,0.06,-0.55,-1,4,0,0.07,0,82,4592,7,30,54,0.832,0.0,472,4.87,11.9,0.0,1,26.7,2.62,5.5,0,0,1,1,0,0,250,250,0,45.845741,5.178853,0.0,217.3,10,3,1.6,0,0.0,-1,0.0,0.0,0.0,0,0.0,6.1674
370063,1620397054873,,,,,,,,-0.09,0.08,-0.33,-1,3,-0,0.12,,82,4617,7,30,54,0.833,0.0,463,4.82,12.0,0.0,1,27.0,1.52,5.5,0,0,1,1,0,0,250,250,0,,,,,,,,,,,,,,,,
370083,1620397054891,,,,,,,,-0.16,0.09,-0.14,-1,-0,-1,0.18,,82,4570,7,30,54,0.834,0.0,453,4.82,12.0,0.0,1,26.4,1.49,5.5,0,0,1,1,0,0,250,250,0,,,,,,,,,,,,,,,,
370103,1620397054911,,,,,,,,-0.18,0.07,0.04,-0,-4,-1,0.19,,82,4627,7,30,54,0.835,0.0,457,4.86,12.1,0.0,1,27.1,1.53,5.5,0,0,1,1,0,0,250,250,0,,,,,,,,,,,,,,,,
370123,1620397054931,,,,,,,,-0.17,0.05,0.2,-0,-6,-1,0.17,,82,4593,7,30,54,0.837,0.0,464,4.93,12.1,0.0,1,26.7,1.5,5.5,0,0,1,1,0,0,250,250,0,,,,,,,,,,,,,,,,
370143,1620397054951,0,2,33,34,32,33,1,-0.11,0.03,0.02,-0,-8,-1,0.12,0,82,4587,7,30,54,0.837,0.0,471,4.92,12.1,0.0,1,26.6,1.5,5.4,0,0,1,1,0,0,250,250,0,45.845741,5.178853,0.0,217.3,10,3,1.6,0,0.0,-1,0.0,,0.0,0,0.0,6.1691
370163,1620397054971,,,,,,,,-0.04,0.04,-0.15,-0,-10,-1,0.06,,82,4649,7,30,54,0.838,0.0,474,4.88,12.1,0.0,1,27.4,1.54,5.4,0,0,1,1,0,0,250,250,0,,,,,,,,,,,,,,,,
370183,1620397054991,,,,,,,,0.03,0.03,-0.3,-0,-9,-1,0.05,,82,4538,7,30,54,0.839,0.0,466,4.85,12.1,0.0,1,26.0,1.46,5.4,0,0,1,1,0,0,250,250,0,,,,,,,,,,,,,,,,
370203,1620397055005,,,,,,,,0.08,0.04,-0.44,-0,-8,-0,0.09,,82,4541,7,30,54,0.84,0.0,475,4.85,12.1,0.0,1,26.0,2.58,5.4,0,0,1,1,0,0,250,250,0,,,,,,,,,,,,,,,,
370223,1620397055025,,,,,,,,0.12,0.04,-0.57,-0,-7,-0,0.13,,82,4558,7,30,54,0.839,0.0,460,4.88,12.1,0.0,1,26.2,2.6,5.4,0,0,1,1,0,0,250,250,0,,,,,,,,,,,,,,,,
370243,1620397055045,0,0,33,34,32,33,2,0.18,0.04,-0.69,-0,-6,-0,0.18,0,82,4526,7,30,54,0.838,0.0,466,4.86,12.1,0.0,1,25.8,1.45,5.4,0,0,1,1,0,0,250,250,0,45.845741,5.178853,0.0,217.3,10,3,1.6,0,0.0,-1,0.0,0.0,0.0,0,0.0,6.1707
370263,1620397055065,,,,,,,,0.22,0.05,-0.8,-0,-3,0,0.22,,82,4548,7,30,55,0.837,0.0,461,4.86,12.0,0.0,1,26.3,1.47,5.4,0,0,1,1,0,0,250,250,0,,,,,,,,,,,,,,,,
370283,1620397055093,,,,,,,,0.24,0.05,-0.9,-0,-1,0,0.24,,82,4510,7,30,55,0.837,0.0,467,4.87,12.1,0.0,1,25.8,1.45,5.4,0,0,1,1,0,0,250,250,0,,,,,,,,,,,,,,,,
370303,1620397055113,,,,,,,,0.27,0.04,-0.99,-0,1,1,0.27,,82,4521,7,30,55,0.835,0.0,475,4.87,12.0,0.0,1,26.0,1.46,5.4,0,0,1,1,0,0,250,250,0,,,,,,,,,,,,,,,,
370323,1620397055133,,,,,,,,0.3,0.04,-1.08,-0,3,1,0.3,,82,4563,7,30,55,0.833,0.0,463,4.95,12.0,0.0,1,26.5,1.46,5.4,0,0,1,1,0,0,250,250,0,,,,,,,,,,,,,,,,
370343,1620397055153,0,0,33,34,32,33,2,0.3,0.06,-1.15,-1,6,1,0.3,0,82,4514,7,30,55,0.831,0.0,468,4.87,12.0,0.0,1,25.9,1.46,5.3,0,0,1,1,0,0,250,250,0,45.845741,5.178853,0.0,217.3,10,3,1.6,0,0.0,-1,0.0,,0.0,0,0.0,6.1724
370363,1620397055173,,,,,,,,0.26,0.06,-1.22,-1,9,2,0.27,,82,4593,7,30,55,0.829,0.0,470,4.94,12.0,0.0,1,26.7,2.62,5.3,0,0,1,1,0,0,250,250,0,,,,,,,,,,,,,,,,
370383,1620397055193,,,,,,,,0.24,0.06,-1.29,-1,10,2,0.25,,82,4520,7,30,54,0.828,0.0,466,4.93,11.9,0.0,1,25.8,1.45,5.3,0,0,1,1,0,0,250,250,0,,,,,,,,,,,,,,,,
370403,1620397055213,,,,,,,,0.21,0.06,-1.25,-1,13,3,0.22,,82,4614,7,30,55,0.828,0.0,470,4.92,12.0,0.0,1,27.1,2.63,5.3,0,0,1,1,0,0,250,250,0,,,,,,,,,,,,,,,,
370423,1620397055233,,,,,,,,0.14,0.07,-1.18,-1,15,3,0.16,,82,4559,7,30,55,0.828,0.0,468,4.92,11.9,0.0,1,26.4,1.48,5.3,0,0,1,1,0,0,250,250,0,,,,,,,,,,,,,,,,
370443,1620397055253,0,2,32,34,32,33,3,0.06,0.05,-0.94,-1,15,2,0.08,0,82,4592,7,30,55,0.827,0.0,481,4.97,11.9,0.0,1,26.9,1.47,5.4,0,0,1,1,0,0,250,250,0,45.845741,5.178853,0.0,217.3,10,3,1.6,0,0.0,-1,0.0,0.0,0.0,0,0.0,6.174
370463,1620397055273,,,,,,,,0.01,0.07,-0.69,-1,14,2,0.07,,82,4646,7,30,54,0.827,0.0,468,4.83,12.0,0.0,1,27.3,2.65,5.4,0,0,1,1,0,0,250,250,0,,,,,,,,,,,,,,,,
370483,1620397055293,,,,,,,,-0.05,0.09,-0.47,-1,13,2,0.1,,82,4588,7,30,54,0.826,0.0,456,4.81,12.1,0.0,1,26.6,1.5,5.4,0,0,1,1,0,0,250,250,0,,,,,,,,,,,,,,,,
370503,1620397055313,,,,,,,,-0.09,0.06,-0.26,-0,9,1,0.11,,82,4650,7,30,54,0.825,0.0,466,4.86,12.1,0.0,1,27.4,1.54,5.4,0,0,1,1,0,0,250,250,0,,,,,,,,,,,,,,,,
370523,1620397055333,,,,,,,,-0.06,0.03,-0.19,-0,4,1,0.07,,82,4649,7,30,54,0.825,0.0,467,4.93,12.1,0.0,1,27.4,1.54,5.4,0,0,1,1,0,0,250,250,0,,,,,,,,,,,,,,,,
370543,1620397055353,-0,2,32,34,32,33,2,-0.02,0.02,-0.29,-0,2,0,0.03,0,82,4573,7,30,54,0.825,0.0,471,4.86,12.1,0.0,1,26.4,1.49,5.5,0,0,1,1,0,0,250,250,0,45.845741,5.178853,0.0,217.3,10,3,1.6,0,0.0,-1,0.0,,0.0,0,0.0,6.1757
370563,1620397055373,,,,,,,,0.02,0.03,-0.43,-0,-1,0,0.04,,82,4612,7,30,54,0.826,0.0,463,4.93,12.1,0.0,1,26.9,1.52,5.5,0,0,1,1,0,0,250,250,0,,,,,,,,,,,,,,,,
370583,1620397055393,,,,,,,,0.07,0.01,-0.56,-0,-3,0,0.07,,82,4538,7,30,54,0.827,0.0,461,4.94,12.1,0.0,1,26.0,2.58,5.5,0,0,1,1,0,0,250,250,0,,,,,,,,,,,,,,,,
370603,1620397055413,,,,,,,,0.13,0.01,-0.68,-0,-4,0,0.13,,82,4572,7,30,55,0.828,0.0,470,4.91,12.1,0.0,1,26.6,1.49,5.5,0,0,1,1,0,0,250,250,0,,,,,,,,,,,,,,,,
370623,1620397055433,,,,,,,,0.17,0.02,-0.79,-0,-3,1,0.17,,82,4556,7,30,54,0.829,0.0,462,4.88,12.1,0.0,1,26.2,1.48,5.5,0,0,1,1,0,0,250,250,0,,,,,,,,,,,,,,,,
370643,1620397055453,0,0,33,34,32,33,2,0.21,0.03,-0.89,-0,-3,1,0.21,0,82,4530,7,30,54,0.829,0.0,465,4.88,12.1,0.0,1,25.9,2.58,5.4,0,0,1,1,0,0,250,250,0,45.845741,5.178853,0.0,217.3,10,3,1.6,0,0.0,-1,0.0,0.0,0.0,0,0.0,6.1774
370663,1620397055473,,,,,,,,0.27,0.02,-0.98,-0,-2,1,0.27,,82,4542,7,30,55,0.829,0.0,461,4.92,12.0,0.0,1,26.2,1.47,5.4,0,0,1,1,0,0,250,250,0,,,,,,,,,,,,,,,,
370683,1620397055493,,,,,,,,0.32,0.03,-1.07,-0,0,1,0.32,,82,4509,7,30,55,0.829,0.0,460,4.86,12.1,0.0,1,25.8,2.57,5.4,0,0,1,1,0,0,250,250,0,,,,,,,,,,,,,,,,
370703,1620397055513,,,,,,,,0.34,0.03,-1.15,-0,2,1,0.34,,82,4514,7,30,55,0.83,0.0,473,4.85,12.1,0.0,1,25.9,1.46,5.4,0,0,1,1,0,0,250,250,0,,,,,,,,,,,,,,,,
370723,1620397055533,,,,,,,,0.37,0.02,-1.22,-0,3,1,0.37,,82,4510,7,30,55,0.831,0.0,458,4.86,12.0,0.0,1,25.8,1.45,5.4,0,0,1,1,0,0,250,250,0,,,,,,,,,,,,,,,,
370743,1620397055553,0,0,33,34,32,33,2,0.41,0.02,-1.28,-0,4,1,0.41,0,82,4541,7,30,55,0.832,0.0,468,4.92,12.0,0.0,1,26.2,1.47,5.4,0,0,1,1,0,0,250,250,0,45.845741,5.178853,0.0,217.3,10,3,1.6,0,0.0,-1,0.0,,0.0,0,0.0,6.179
370763,1620397055573,,,,,,,,0.45,0.02,-1.34,-0,7,2,0.45,,82,4496,7,30,55,0.833,0.0,459,4.96,12.0,0.0,1,25.7,1.44,5.4,0,0,1,1,0,0,250,250,0,,,,,,,,,,,,,,,,
370783,1620397055593,,,,,,,,0.45,0.03,-1.4,-0,8,2,0.46,,82,4519,7,30,55,0.834,0.0,462,4.87,12.1,0.0,1,25.9,2.58,5.4,0,0,1,1,0,0,250,250,0,,,,,,,,,,,,,,,,
370803,1620397055613,,,,,,,,0.48,0.02,-1.45,-0,9,2,0.48,,82,4514,7,30,55,0.834,0.0,465,4.94,12.0,0.0,1,25.9,1.46,5.4,0,0,1,1,0,0,250,250,0,,,,,,,,,,,,,,,,
370823,1620397055633,,,,,,,,0.5,0.02,-1.49,-0,10,2,0.5,,82,4485,7,30,55,0.834,0.0,453,4.94,12.0,0.0,1,25.5,1.45,5.4,0,0,1,1,0,0,250,250,0,,,,,,,,,,,,,,,,
370843,1620397055653,1,1,32,34,32,33,2,0.51,0.02,-1.53,-0,13,2,0.51,0,82,4530,7,30,55,0.834,0.0,472,4.94,12.0,0.0,1,26.1,1.46,5.4,0,0,1,1,0,0,250,250,0,45.845741,5.178853,0.0,217.3,10,3,1.6,0,0.0,-1,0.0,0.0,0.0,0,0.0,6.1807
370863,1620397055673,,,,,,,,0.49,0.02,-1.57,-0,14,2,0.5,,82,4506,7,30,55,0.834,0.0,465,4.95,12.0,0.0,1,25.8,1.45,5.4,0,0,1,1,0,0,250,250,0,,,,,,,,,,,,,,,,
370883,1620397055692,,,,,,,,0.5,0.01,-1.61,-0,15,3,0.5,,82,4543,7,30,55,0.833,0.0,454,4.87,12.1,0.0,1,26.2,2.59,5.4,0,0,1,1,0,0,250,250,0,,,,,,,,,,,,,,,,
370903,1620397055712,,,,,,,,0.5,0.02,-1.64,-0,17,3,0.5,,82,4547,7,30,55,0.832,0.0,458,4.88,12.0,0.0,1,26.3,2.59,5.4,0,0,1,1,0,0,250,250,0,,,,,,,,,,,,,,,,
370923,1620397055732,,,,,,,,0.48,0.03,-1.67,-1,20,3,0.48,,82,4528,7,30,55,0.83,0.0,451,4.9,12.0,0.0,1,26.1,1.43,5.4,0,0,1,1,0,0,250,250,0,,,,,,,,,,,,,,,,
370943,1620397055752,0,2,32,34,32,33,1,0.42,0.03,-1.7,-1,22,4,0.42,0,82,4597,7,30,55,0.829,0.0,468,4.92,12.0,0.0,1,26.8,1.5,5.5,0,0,1,1,0,0,250,250,0,45.845741,5.178853,0.0,217.3,10,3,1.6,0,0.0,-1,0.0,,0.0,0,0.0,6.1824
370963,1620397055772,,,,,,,,0.37,0.03,-1.72,-1,22,4,0.37,,82,4573,7,30,55,0.828,0.0,459,4.91,11.9,0.0,1,26.6,1.49,5.5,0,0,1,1,0,0,250,250,0,,,,,,,,,,,,,,,,
370983,1620397055792,,,,,,,,0.3,0.04,-1.56,-1,23,4,0.3,,82,4608,7,30,54,0.827,0.0,461,4.84,11.9,0.0,1,26.9,2.62,5.5,0,0,1,1,0,0,250,250,0,,,,,,,,,,,,,,,,
371003,1620397055812,,,,,,,,0.21,0.06,-1.32,-1,23,3,0.22,,82,4603,7,30,54,0.826,0.0,463,4.83,12.0,0.0,1,26.8,1.51,5.5,0,0,1,1,0,0,250,250,0,,,,,,,,,,,,,,,,
371023,1620397055832,,,,,,,,0.12,0.05,-1.04,-1,20,3,0.13,,82,4594,7,30,54,0.825,0.0,449,4.82,12.0,0.0,1,26.7,2.62,5.5,0,0,1,1,0,0,250,250,0,,,,,,,,,,,,,,,,
371043,1620397055852,-0,2,33,34,32,33,2,0.06,0.05,-0.79,-1,16,2,0.07,0,82,4593,7,30,55,0.826,0.0,460,4.85,12.1,0.0,1,26.9,2.62,5.5,0,0,1,1,0,0,250,250,0,45.845741,5.178853,0.0,217.3,10,3,1.6,0,0.0,-1,0.0,0.0,0.0,0,0.0,6.1841
371063,1620397055872,,,,,,,,-0.0,0.06,-0.56,-1,13,1,0.06,,82,4543,7,30,55,0.826,0.0,445,4.93,12.1,0.0,1,26.2,1.47,5.5,0,0,1,1,0,0,250,250,0,,,,,,,,,,,,,,,,
371083,1620397055892,,,,,,,,-0.05,0.05,-0.34,-0,9,0,0.07,,82,4559,7,30,54,0.827,0.0,452,4.8,12.0,0.0,1,26.2,2.6,5.5,0,0,1,1,0,0,250,250,0,,,,,,,,,,,,,,,,
371103,1620397055912,,,,,,,,-0.06,0.02,-0.15,-0,5,-0,0.06,,82,4542,7,30,54,0.827,0.0,466,4.92,12.1,0.0,1,26.0,1.47,5.5,0,0,1,1,0,0,250,250,0,,,,,,,,,,,,,,,,
371123,1620397055932,,,,,,,,-0.05,0.01,0.03,-0,2,-0,0.05,,82,4557,7,30,54,0.829,0.0,443,4.87,12.1,0.0,1,26.2,2.6,5.5,0,0,1,1,0,0,250,250,0,,,,,,,,,,,,,,,,
371143,1620397055952,-1,2,33,34,32,33,2,-0.07,-0.01,0.19,-0,-1,-1,0.07,0,82,4546,7,30,55,0.83,0.0,465,4.88,12.1,0.0,1,26.3,1.47,5.4,0,0,1,1,0,0,250,250,0,45.845741,5.178853,0.0,217.3,10,3,1.6,0,0.0,-1,0.0,,0.0,0,0.0,6.1857
371163,1620397055972,,,,,,,,-0.09,-0.02,0.27,-0,-5,-1,0.09,,82,4480,7,30,55,0.832,0.0,438,4.88,12.1,0.0,1,25.5,2.55,5.4,0,0,1,1,0,0,250,250,0,,,,,,,,,,,,,,,,
371183,1620397055992,,,,,,,,-0.07,-0.04,0.37,-0,-8,-1,0.08,,82,4526,7,30,55,0.833,0.0,450,4.86,12.1,0.0,1,26.0,1.46,5.4,0,0,1,1,0,0,250,250,0,,,,,,,,,,,,,,,,
371203,1620397056006,,,,,,,,-0.07,-0.04,0.46,-0,-9,-1,0.08,,82,4500,7,30,55,0.834,0.0,445,4.91,12.1,0.0,1,25.7,2.57,5.4,0,0,1,1,0,0,250,250,0,,,,,,,,,,,,,,,,
371223,1620397056026,,,,,,,,-0.09,-0.05,0.58,-0,-12,-2,0.1,,82,4493,7,30,55,0.836,0.0,439,4.89,12.1,0.0,1,25.6,1.44,5.4,0,0,1,1,0,0,250,250,0,,,,,,,,,,,,,,,,
371243,1620397056046,0,0,33,34,32,33,2,-0.09,-0.06,0.56,-0,-14,-2,0.11,0,82,4526,7,30,55,0.837,0.0,464,4.92,12.1,0.0,1,26.0,2.58,5.4,0,0,1,1,0,0,250,250,0,45.845741,5.178853,0.0,217.3,10,3,1.6,0,0.0,-1,0.0,0.0,0.0,0,0.0,6.1874
371263,1620397056066,,,,,,,,-0.07,-0.08,0.64,-0,-16,-2,0.11,,82,4500,7,30,55,0.839,0.0,442,4.89,12.1,0.0,1,25.7,2.57,5.4,0,0,1,1,0,0,250,250,0,,,,,,,,,,,,,,,,
371283,1620397056092,,,,,,,,-0.06,-0.07,0.62,-0,-17,-2,0.09,,82,4545,7,30,55,0.84,0.0,457,4.87,12.1,0.0,1,26.3,2.59,5.4,0,0,1,1,0,0,250,250,0,,,,,,,,,,,,,,,,
371303,1620397056112,,,,,,,,-0.06,-0.08,0.62,-0,-18,-2,0.09,,82,4524,7,30,55,0.84,0.0,453,4.89,12.1,0.0,1,26.0,1.46,5.4,0,0,1,1,0,0,250,250,0,,,,,,,,,,,,,,,,
371323,1620397056132,,,,,,,,-0.03,-0.07,0.53,-0,-20,-2,0.08,,82,4536,7,30,55,0.84,0.0,445,4.9,12.1,0.0,1,26.2,2.58,5.4,0,0,1,1,0,0,250,250,0,,,,,,,,,,,,,,,,
371343,1620397056152,0,0,32,34,32,33,2,0.02,-0.08,0.42,-0,-20,-2,0.08,0,82,4562,7,30,55,0.84,0.0,462,4.91,12.1,0.0,1,26.5,1.48,5.4,0,0,1,1,0,0,250,250,0,45.845741,5.178853,0.0,217.3,10,3,1.6,0,0.0,-1,0.0,,0.0,0,0.0,6.1891
371363,1620397056172,,,,,,,,0.05,-0.06,0.24,-0,-19,-1,0.08,,82,4527,7,30,55,0.84,0.0,451,4.91,12.1,0.0,1,26.0,1.46,5.4,0,0,1,1,0,0,250,250,0,,,,,,,,,,,,,,,,
371383,1620397056192,,,,,,,,0.08,-0.06,0.05,-0,-19,-1,0.1,,82,4555,7,30,55,0.839,0.0,460,4.91,12.1,0.0,1,26.4,1.47,5.4,0,0,1,1,0,0,250,250,0,,,,,,,,,,,,,,,,
371403,1620397056212,,,,,,,,0.13,-0.06,-0.12,-0,-19,-1,0.14,,82,4534,7,30,55,0.838,0.0,462,4.85,12.1,0.0,1,26.1,1.46,5.4,0,0,1,1,0,0,250,250,0,,,,,,,,,,,,,,,,
371423,1620397056232,,,,,,,,0.19,-0.07,-0.28,-0,-17,-1,0.2,,82,4556,7,30,55,0.837,0.0,454,4.86,12.1,0.0,1,26.4,1.48,5.4,0,0,1,1,0,0,250,250,0,,,,,,,,,,,,,,,,
371443,1620397056252,0,0,33,34,32,33,2,0.22,-0.05,-0.42,-0,-15,-1,0.23,0,82,4597,7,30,55,0.836,0.0,470,4.86,12.1,0.0,1,26.9,2.62,5.5,0,0,1,1,0,0,250,250,0,45.845741,5.178853,0.0,217.3,10,3,1.6,0,0.0,-1,0.0,0.0,0.0,0,0.0,6.1907
371463,1620397056272,,,,,,,,0.26,-0.03,-0.55,-0,-12,-0,0.26,,82,4562,7,30,55,0.834,0.0,454,4.93,12.0,0.0,1,26.5,1.48,5.5,0,0,1,1,0,0,250,250,0,,,,,,,,,,,,,,,,
371483,1620397056292,,,,,,,,0.3,-0.03,-0.67,-0,-9,-0,0.3,,82,4556,7,30,55,0.832,0.0,467,4.85,12.1,0.0,1,26.4,2.6,5.5,0,0,1,1,0,0,250,250,0,,,,,,,,,,,,,,,,
371503,1620397056312,,,,,,,,0.32,-0.01,-0.78,-0,-4,1,0.32,,82,4589,7,30,55,0.83,0.0,467,4.95,12.0,0.0,1,26.8,1.5,5.5,0,0,1,1,0,0,250,250,0,,,,,,,,,,,,,,,,
371523,1620397056332,,,,,,,,0.3,0.01,-0.88,-0,-1,1,0.3,,82,4589,7,30,55,0.828,0.0,460,4.94,11.9,0.0,1,26.8,1.5,5.5,0,0,1,1,0,0,250,250,0,,,,,,,,,,,,,,,,
371543,1620397056352,-0,1,33,34,32,33,2,0.27,0.0,-0.98,-0,2,1,0.27,0,82,4614,7,30,55,0.828,0.0,476,4.91,12.0,0.0,1,27.1,2.63,5.5,0,0,1,1,0,0,250,250,0,45.845741,5.178853,0.0,217.3,10,3,1.6,0,0.0,-1,0.0,,0.0,0,0.0,6.1924
371563,1620397056372,,,,,,,,0.22,0.01,-0.96,-0,4,2,0.22,,82,4611,7,30,54,0.828,0.0,463,4.84,12.0,0.0,1,26.9,1.51,5.5,0,0,1,1,0,0,250,250,0,,,,,,,,,,,,,,,,
371583,1620397056392,,,,,,,,0.14,0.03,-0.8,-0,5,1,0.15,,82,4612,7,30,54,0.828,0.0,467,4.83,12.0,0.0,1,26.9,1.52,5.5,0,0,1,1,0,0,250,250,0,,,,,,,,,,,,,,,,
371603,1620397056412,,,,,,,,0.07,0.03,-0.57,-0,3,0,0.07,,82,4588,7,30,54,0.828,0.0,461,4.87,12.0,0.0,1,26.6,2.62,5.5,0,0,1,1,0,0,250,250,0,,,,,,,,,,,,,,,,
371623,1620397056432,,,,,,,,0.01,0.04,-0.36,-0,1,-0,0.04,,82,4558,7,30,54,0.83,0.0,458,4.76,12.0,0.0,1,26.2,2.6,5.5,0,0,1,1,0,0,250,250,0,,,,,,,,,,,,,,,,
371643,1620397056452,-1,2,33,34,32,33,3,-0.06,0.07,-0.16,-0,-0,-1,0.09,0,82,4505,7,30,54,0.831,0.0,457,4.85,12.1,0.0,1,25.6,2.56,5.3,0,0,1,1,0,0,250,250,0,45.845741,5.178853,0.0,217.3,10,3,1.6,0,0.0,-1,0.0,0.0,0.0,0,0.0,6.194
371663,1620397056472,,,,,,,,-0.13,0.07,0.02,-0,-3,-1,0.15,,82,4535,7,30,55,0.832,0.0,443,4.89,12.1,0.0,1,26.1,2.58,5.3,0,0,1,1,0,0,250,250,0,,,,,,,,,,,,,,,,
371683,1620397056492,,,,,,,,-0.17,0.06,0.19,-0,-6,-2,0.18,,82,4512,7,30,54,0.833,0.0,450,4.85,12.1,0.0,1,25.7,2.56,5.3,0,0,1,1,0,0,250,250,0,,,,,,,,,,,,,,,,
371703,1620397056512,,,,,,,,-0.21,0.05,0.34,-0,-8,-2,0.21,,82,4532,7,30,55,0.835,0.0,445,4.91,12.1,0.0,1,26.1,2.58,5.3,0,0,1,1,0,0,250,250,0,,,,,,,,,,,,,,,,
371723,1620397056532,,,,,,,,-0.26,0.07,0.48,-0,-10,-2,0.27,,82,4525,7,30,54,0.836,0.0,448,4.82,12.1,0.0,1,25.8,2.57,5.3,0,0,1,1,0,0,250,250,0,,,,,,,,,,,,,,,,
371743,1620397056552,-1,2,33,34,32,33,2,-0.3,0.06,0.6,-0,-13,-3,0.3,0,82,4509,7,30,55,0.838,0.0,452,4.87,12.1,0.0,1,25.8,1.45,5.3,0,0,1,1,0,0,250,250,0,45.845741,5.178853,0.0,217.3,10,3,1.6,0,0.0,-1,0.0,,0.0,0,0.0,6.1957
371763,1620397056572,,,,,,,,-0.32,0.05,0.72,-0,-15,-3,0.32,,82,4534,7,30,55,0.84,0.0,446,4.91,12.1,0.0,1,26.1,1.46,5.3,0,0,1,1,0,0,250,250,0,,,,,,,,,,,,,,,,
371783,1620397056591,,,,,,,,-0.32,0.03,0.83,-0,-16,-3,0.32,,82,4531,7,30,55,0.84,0.0,459,4.85,12.1,0.0,1,26.1,1.46,5.3,0,0,1,1,0,0,250,250,0,,,,,,,,,,,,,,,,
371803,1620397056611,,,,,,,,-0.34,0.03,0.92,-0,-18,-3,0.34,,82,4538,7,30,55,0.84,0.0,456,4.92,12.1,0.0,1,26.2,1.46,5.3,0,0,1,1,0,0,250,250,0,,,,,,,,,,,,,,,,
371823,1620397056631,,,,,,,,-0.33,0.0,0.97,-0,-20,-3,0.33,,82,4565,7,30,55,0.84,0.0,455,4.91,12.1,0.0,1,26.5,1.48,5.3,0,0,1,1,0,0,250,250,0,,,,,,,,,,,,,,,,
371843,1620397056651,-0,2,33,34,32,33,2,-0.3,-0.02,1.02,-0,-21,-3,0.3,0,82,4552,7,30,55,0.84,0.0,461,4.9,12.1,0.0,1,26.4,2.59,5.5,0,0,1,1,0,0,250,250,0,45.845741,5.178853,0.0,217.3,10,3,1.6,0,0.0,-1,0.0,0.0,0.0,0,0.0,6.1974
371863,1620397056671,,,,,,,,-0.26,-0.01,0.95,-0,-21,-3,0.26,,82,4564,7,30,55,0.839,0.0,449,4.92,12.1,0.0,1,26.5,2.6,5.5,0,0,1,1,0,0,250,250,0,,,,,,,,,,,,,,,,
371883,1620397056691,,,,,,,,-0.22,-0.02,0.83,-0,-21,-2,0.22,,82,4595,7,30,55,0.838,0.0,467,4.92,12.1,0.0,1,26.9,2.62,5.5,0,0,1,1,0,0,250,250,0,,,,,,,,,,,,,,,,
371903,1620397056711,,,,,,,,-0.15,-0.03,0.6,-0,-21,-2,0.16,,82,4576,7,30,55,0.838,0.0,465,4.88,12.1,0.0,1,26.7,2.61,5.5,0,0,1,1,0,0,250,250,0,,,,,,,,,,,,,,,,
371923,1620397056731,,,,,,,,-0.07,-0.04,0.38,-0,-18,-2,0.08,,82,4610,7,30,55,0.837,0.0,464,4.88,12.1,0.0,1,27.1,2.62,5.5,0,0,1,1,0,0,250,250,0,,,,,,,,,,,,,,,,
371943,1620397056751,-1,2,33,34,32,33,2,-0.01,-0.02,0.18,-0,-14,-1,0.02,0,82,4589,7,30,55,0.836,0.0,476,4.93,12.0,0.0,1,26.8,1.5,5.5,0,0,1,1,0,0,250,250,0,45.845741,5.178853,0.0,217.3,10,3,1.6,0,0.0,-1,0.0,,0.0,0,0.0,6.199
