"Interval"|"ms"|0|0|1,"Utc"|"ms"|0|0|1,"Brake_F"|"Bar"|0|2000|10,"Brake_R"|"Bar"|0|2000|10,"Height_RF"|"mm"|0|255|10,"Height_LF"|"mm"|0|255|10,"Height_LR"|"mm"|0|80|10,"Height_RR"|"mm"|0|255|10,"Steering"|"deg"|-100|100|10,"AccelX"|"G"|-3.0|3.0|50,"AccelY"|"G"|-3.0|3.0|50,"AccelZ"|"G"|-3.0|3.0|50,"Yaw"|"Deg/Sec"|-120|120|50,"Pitch"|"Deg/Sec"|-120|120|50,"Roll"|"Deg/Sec"|-120|120|50,"Gsum"|"G"|0.0|3.0|50,"Log_Button"|""|0.0|10.0|10,"WaterTemp"|"C"|0|150|50,"RPM"|"tr/min"|0|14000|50,"TPS"|"%"|0|100|50,"AirTemp"|"C"|0|150|50,"MAP"|"KPa"|0|100|50,"Lambda"|""|0.5|1.5|50,"SpeedDTA"|"kph"|0.0|250.0|50,"OilPress"|"KPa"|0|1500|50,"FuelPressur"|"Bar"|0.0|10.0|50,"Batterie"|"V"|0.0|20.0|50,"ConsoKm"|"L/100km"|0.0|200.0|50,"Gear"|""|0|6|50,"AdvIgnition"|"Deg"|-20.0|70.0|50,"Injection"|"ms"|0.0|10.0|50,"ConsoHr"|"L/Hr"|0.0|10000.0|50,"LC_But_Pres"|""|0|1|50,"LC_Active"|""|0|1|50,"TractionOn"|""|0|1|50,"TractionWet"|""|0|1|50,"FanOn"|""|0|1|50,"RD_Speed"|"km/h"|-30|250|50,"RUD_Speed"|"km/h"|-30|250|50,"LD_Speed"|"km/h"|-30|250|50,"LUD_Speed"|"km/h"|-30|250|50,"Latitude"|"Degrees"|-180.0|180.0|10,"Longitude"|"Degrees"|-180.0|180.0|10,"Speed"|"kph"|0.0|150.0|10,"Altitude"|"m"|0.0|4000.0|10,"GPSSats"|""|0|20|10,"GPSQual"|""|0|5|10,"GPSDOP"|""|0.0|20.0|10,"LapCount"|""|0|0|10,"LapTime"|"Min"|0.0|0.0|10,"Sector"|""|0|0|10,"SectorTime"|"Min"|0.0|0.0|10,"PredTime"|"Min"|0.0|0.0|5,"ElapsedTime"|"Min"|0.0|0.0|10,"CurrentLap"|""|0|0|10,"Distance"|"km"|0.0|0.0|10,"SessionTime"|"Min"|0.0|0.0|10
141963,1620407237559,,,,,,,,-0.17,0.15,-0.63,4,1,-0,0.23,,86,8134,10,23,32,0.832,51.1,645,4.86,12.1,15.0,1,29.2,2.09,7.7,0,0,1,1,0,513,-3856,-21872,510,,,,,,,,,,,,,,,,
141983,1620407237579,,,,,,,,-0.18,0.13,-0.62,4,1,1,0.23,,86,8116,10,23,32,0.822,51.5,650,4.94,12.0,15.0,1,29.2,2.07,7.7,0,0,1,1,0,508,17136,-3414,514,,,,,,,,,,,,,,,,
142003,1620407237597,,,,,,,,-0.19,0.11,-0.4,4,-0,0,0.22,,86,8116,10,23,32,0.813,51.2,655,4.93,12.0,15.0,1,29.2,2.07,7.7,0,0,1,1,0,511,26178,6274,508,,,,,,,,,,,,,,,,
142023,1620407237617,,,,,,,,-0.18,0.12,-0.53,4,1,1,0.22,,86,8095,10,23,32,0.804,50.8,651,4.9,12.0,14.9,1,29.1,2.05,7.6,0,0,1,1,0,509,-3414,6274,501,,,,,,,,,,,,,,,,
142043,1620407237637,5,4,23,27,35,35,6,-0.17,0.17,-0.32,5,-2,1,0.24,0,86,8071,10,23,32,0.796,50.8,648,4.92,12.0,14.9,1,29.1,2.03,7.6,0,0,1,1,0,511,-3414,-32248,504,45.846767,5.178249,53.88,219.4,10,3,1.7,0,0.0,-1,0.0,0.0,0.0,0,1.02,2.3674
142063,1620407237657,,,,,,,,-0.2,0.15,-0.42,5,-1,1,0.25,,86,8036,10,23,32,0.787,50.9,645,4.88,12.1,14.9,1,29.0,1.99,7.6,0,0,1,1,0,509,10994,-32248,500,,,,,,,,,,,,,,,,
142083,1620407237677,,,,,,,,-0.18,0.15,-0.55,5,0,2,0.24,,86,8026,10,23,33,0.778,51.3,647,4.93,12.0,14.9,1,29.2,1.98,7.6,0,0,1,1,0,507,-3482,15661,503,,,,,,,,,,,,,,,,
142103,1620407237699,,,,,,,,-0.18,0.14,-0.34,5,-2,2,0.23,,86,7995,10,23,33,0.773,50.5,647,4.95,12.0,14.9,1,29.2,2.01,7.6,0,0,1,1,0,503,-3414,11560,503,,,,,,,,,,,,,,,,
142123,1620407237719,,,,,,,,-0.18,0.13,-0.48,5,-0,3,0.23,,86,7955,10,23,33,0.768,50.6,649,4.84,12.0,14.8,1,29.2,2.01,7.4,0,0,1,1,0,505,-32248,-9216,499,,,,,,,,,,,,,,,,
142143,1620407237739,5,1,23,27,35,35,7,-0.2,0.12,-0.6,5,2,4,0.23,0,86,7938,10,23,33,0.762,50.2,645,4.91,12.0,14.8,1,29.2,2.01,7.4,0,0,1,1,0,502,-22519,10408,502,45.846783,5.17824,53.06,219.4,10,3,1.7,0,0.0,-1,0.0,,0.0,0,1.02,2.3691
142163,1620407237759,,,,,,,,-0.18,0.14,-0.39,5,-1,4,0.23,,86,7928,10,23,33,0.757,50.3,644,4.86,12.0,14.8,1,29.2,2.01,7.4,0,0,1,1,0,504,2109,771,499,,,,,,,,,,,,,,,,
142183,1620407237779,,,,,,,,-0.16,0.13,-0.19,6,-1,2,0.2,,86,7884,10,23,33,0.756,49.7,641,4.84,12.0,14.8,1,29.2,2.06,7.4,0,0,1,1,0,503,3,771,497,,,,,,,,,,,,,,,,
142203,1620407237797,,,,,,,,-0.15,0.13,-0.34,6,-2,2,0.2,,86,7891,10,23,34,0.756,50.0,641,4.77,12.1,14.8,1,29.5,2.06,7.4,0,0,1,1,0,500,10408,771,495,,,,,,,,,,,,,,,,
142223,1620407237817,,,,,,,,-0.15,0.14,-0.48,6,-1,2,0.21,,86,7855,10,23,34,0.755,50.0,643,4.92,12.0,15.0,1,29.5,2.06,7.5,0,0,1,1,0,498,-22519,-6528,494,,,,,,,,,,,,,,,,
142243,1620407237837,5,3,23,27,35,35,7,-0.12,0.16,-0.27,6,-2,2,0.2,0,86,7832,10,23,34,0.754,50.0,648,4.88,12.0,15.0,1,29.5,2.06,7.5,0,0,1,1,0,497,3,-6528,491,45.84679,5.17823,52.26,219.4,10,3,1.7,0,0.0,-1,0.0,0.0,0.0,0,1.02,2.3707
142263,1620407237857,,,,,,,,-0.12,0.2,-0.08,6,-4,1,0.23,,86,7835,10,23,35,0.758,49.7,640,4.9,12.0,15.0,1,29.8,2.11,7.5,0,0,1,1,0,496,771,-1818,485,,,,,,,,,,,,,,,,
142283,1620407237877,,,,,,,,-0.18,0.15,-0.24,7,-2,1,0.24,,86,7789,10,23,34,0.761,49.9,645,4.74,12.0,15.0,1,29.5,2.11,7.5,0,0,1,1,0,499,771,-32768,492,,,,,,,,,,,,,,,,
142303,1620407237899,,,,,,,,-0.23,0.14,-0.39,7,-0,2,0.27,,86,7815,10,23,35,0.765,50.0,640,4.87,12.0,15.0,1,29.8,2.11,7.5,0,0,1,1,0,496,10408,1,488,,,,,,,,,,,,,,,,
142323,1620407237919,,,,,,,,-0.18,0.17,-0.52,7,-0,2,0.25,,86,7783,10,23,35,0.768,49.1,636,4.92,12.0,15.5,1,29.8,2.11,7.6,0,0,1,1,0,494,-6656,-1562,485,,,,,,,,,,,,,,,,
142343,1620407237939,5,2,23,28,35,34,8,-0.19,0.2,-0.31,7,-0,1,0.28,0,86,7786,10,23,35,0.774,49.2,641,4.91,12.0,15.5,1,29.8,2.11,7.6,0,0,1,1,0,492,-32768,-1562,487,45.846806,5.178222,51.63,219.4,10,3,1.7,0,0.0,-1,0.0,,0.0,0,1.02,2.3724
142363,1620407237959,,,,,,,,-0.17,0.23,-0.2,7,-2,-0,0.29,,86,7789,10,23,35,0.78,49.6,638,4.82,12.0,15.5,1,29.8,2.17,7.6,0,0,1,1,0,491,3,-899,479,,,,,,,,,,,,,,,,
142383,1620407237979,,,,,,,,-0.22,0.24,-0.35,7,-1,0,0.33,,86,7747,10,23,36,0.786,48.3,636,4.87,12.1,15.5,1,30.1,2.17,7.6,0,0,1,1,0,491,3580,-899,483,,,,,,,,,,,,,,,,
142403,1620407237999,,,,,,,,-0.23,0.21,-0.49,8,0,2,0.31,,86,7763,10,23,36,0.792,49.2,638,4.8,12.1,15.5,1,30.1,2.17,7.6,0,0,1,1,0,490,-32768,-899,475,,,,,,,,,,,,,,,,
142423,1620407238009,,,,,,,,-0.27,0.19,-0.62,8,0,2,0.33,,86,7735,10,23,36,0.797,49.5,635,4.87,12.0,15.9,1,30.1,2.17,7.7,0,0,1,1,0,490,771,8488,480,,,,,,,,,,,,,,,,
142443,1620407238029,6,3,24,29,35,34,10,-0.22,0.22,-0.56,8,1,2,0.31,0,86,7738,10,23,37,0.803,49.0,637,4.93,12.0,15.9,1,30.4,2.17,7.7,0,0,1,1,0,486,-1818,10305,476,45.846813,5.178212,51.24,219.4,10,3,1.7,0,0.0,-1,0.0,0.0,0.0,0,1.02,2.374
142463,1620407238049,,,,,,,,-0.23,0.25,-0.6,8,-0,1,0.34,,86,7684,10,23,36,0.808,48.3,634,4.88,12.0,15.9,1,30.1,2.17,7.7,0,0,1,1,0,488,3580,-23367,478,,,,,,,,,,,,,,,,
142483,1620407238069,,,,,,,,-0.19,0.28,-0.55,9,-1,1,0.34,,86,7681,10,23,37,0.813,48.3,642,4.82,12.0,15.9,1,30.4,2.22,7.7,0,0,1,1,0,486,3580,2212,474,,,,,,,,,,,,,,,,
142503,1620407238099,,,,,,,,-0.15,0.31,-0.44,9,-2,0,0.34,,86,7678,10,23,37,0.818,48.8,638,4.86,12.0,15.9,1,30.4,2.22,7.7,0,0,1,1,0,487,1,16648,476,,,,,,,,,,,,,,,,
142523,1620407238119,,,,,,,,-0.2,0.27,-0.47,9,-1,0,0.33,,86,7662,10,23,37,0.821,48.1,633,4.82,12.1,16.6,1,30.4,2.22,7.9,0,0,1,1,0,485,-1562,-9203,471,,,,,,,,,,,,,,,,
142543,1620407238139,6,1,24,30,35,34,11,-0.2,0.31,-0.41,10,-1,0,0.37,0,86,7643,10,23,37,0.825,48.4,631,4.86,12.1,16.6,1,30.4,2.22,7.9,0,0,1,1,0,482,-10483,3576,471,45.846825,5.178203,50.12,219.4,10,3,1.7,0,0.0,-1,0.0,,0.0,0,1.02,2.3757
142563,1620407238159,,,,,,,,-0.2,0.31,-0.5,10,0,-0,0.37,,86,7634,10,23,37,0.829,48.0,637,4.88,12.1,16.6,1,30.4,2.22,7.9,0,0,1,1,0,482,8488,-1923,473,,,,,,,,,,,,,,,,
142583,1620407238179,,,,,,,,-0.22,0.31,-0.62,10,1,0,0.39,,86,7621,10,23,38,0.831,48.2,635,4.9,12.1,16.6,1,30.7,2.22,7.9,0,0,1,1,0,480,-899,10432,469,,,,,,,,,,,,,,,,
142603,1620407238200,,,,,,,,-0.26,0.32,-0.73,11,1,1,0.41,,86,7591,10,23,38,0.832,47.7,628,4.92,12.1,16.6,1,30.7,2.27,7.9,0,0,1,1,0,482,2212,8488,472,,,,,,,,,,,,,,,,
142623,1620407238220,,,,,,,,-0.27,0.34,-0.84,11,2,1,0.43,,86,7584,10,23,38,0.833,48.0,632,4.92,12.0,16.9,1,30.7,2.27,7.9,0,0,1,1,0,480,8488,10432,468,,,,,,,,,,,,,,,,
142643,1620407238240,5,2,24,27,36,34,11,-0.27,0.28,-0.93,11,2,1,0.39,0,86,7563,10,23,38,0.834,48.0,630,4.85,12.0,16.9,1,30.7,2.27,7.9,0,0,1,1,0,477,8488,243,461,45.846836,5.178193,49.49,219.4,10,3,1.7,0,0.0,-1,0.0,0.0,0.0,0,1.02,2.3774
142663,1620407238260,,,,,,,,-0.23,0.33,-1.0,11,2,1,0.41,,86,7554,10,23,38,0.834,47.8,630,4.91,12.0,16.9,1,30.7,2.27,7.9,0,0,1,1,0,478,16648,16408,467,,,,,,,,,,,,,,,,
142683,1620407238280,,,,,,,,-0.16,0.35,-1.08,12,2,1,0.38,,86,7560,10,23,38,0.833,47.7,621,4.91,12.1,16.9,1,30.7,2.27,7.9,0,0,1,1,0,475,2212,16408,467,,,,,,,,,,,,,,,,
142703,1620407238300,,,,,,,,-0.14,0.37,-1.16,12,2,2,0.4,,86,7545,10,23,38,0.833,47.4,632,4.86,12.0,16.9,1,30.7,2.27,7.9,0,0,1,1,0,476,-9203,12552,463,,,,,,,,,,,,,,,,
142723,1620407238320,,,,,,,,-0.11,0.35,-1.23,12,2,2,0.37,,86,7557,10,23,39,0.832,47.2,630,4.93,12.0,17.7,1,31.0,2.33,8.1,0,0,1,1,0,473,-1923,-3210,463,,,,,,,,,,,,,,,,
142743,1620407238340,5,3,23,30,36,34,10,-0.12,0.36,-1.29,12,1,2,0.38,0,86,7569,10,23,39,0.831,47.2,637,4.95,12.0,17.7,1,31.0,2.33,8.1,0,0,1,1,0,472,-1923,12552,459,45.846844,5.178183,48.99,219.4,10,3,1.7,0,0.0,-1,0.0,,0.0,0,1.03,2.3791
142763,1620407238360,,,,,,,,-0.13,0.35,-1.35,13,1,2,0.38,,86,7563,10,23,39,0.83,47.5,632,4.81,12.0,17.7,1,31.0,2.33,8.1,0,0,1,1,0,473,-9203,-23623,453,,,,,,,,,,,,,,,,
142783,1620407238380,,,,,,,,-0.11,0.42,-1.4,13,1,1,0.44,,86,7569,10,23,39,0.828,47.4,636,4.87,12.0,17.7,1,31.0,2.33,8.1,0,0,1,1,0,472,243,17628,458,,,,,,,,,,,,,,,,
142803,1620407238401,,,,,,,,-0.1,0.45,-1.23,13,-1,0,0.46,,86,7548,10,23,39,0.827,47.1,633,4.82,12.0,17.7,1,31.0,2.33,8.1,0,0,1,1,0,470,10432,2211,461,,,,,,,,,,,,,,,,
142823,1620407238421,,,,,,,,-0.08,0.44,-1.03,13,-1,0,0.45,,86,7542,10,23,39,0.825,46.8,630,4.82,12.0,17.7,1,31.0,2.33,8.1,0,0,1,1,0,468,-16384,-9160,457,,,,,,,,,,,,,,,,
142843,1620407238441,5,3,23,31,36,34,10,-0.05,0.45,-0.98,13,-2,-0,0.45,0,86,7518,10,23,39,0.825,46.1,631,4.83,12.0,17.7,1,31.0,2.33,8.1,0,0,1,1,0,469,2211,2211,452,45.846855,5.178174,47.9,219.4,10,3,1.7,0,0.0,-1,0.0,0.0,0.0,0,1.03,2.3807
142863,1620407238461,,,,,,,,-0.02,0.44,-1.0,13,-2,-1,0.44,,86,7458,10,23,39,0.825,46.6,631,4.85,12.0,17.7,1,31.0,2.33,8.1,0,0,1,1,0,467,-3210,-18108,456,,,,,,,,,,,,,,,,
142883,1620407238481,,,,,,,,-0.01,0.41,-1.07,13,-2,-0,0.41,,86,7384,10,23,39,0.825,46.7,616,4.89,12.0,17.7,1,31.0,2.33,8.1,0,0,1,1,0,467,8488,-23623,451,,,,,,,,,,,,,,,,
142903,1620407238500,,,,,,,,0.02,0.39,-1.04,13,-1,-0,0.39,,86,7278,10,23,40,0.824,46.6,622,4.86,12.0,17.7,1,31.4,2.33,8.1,0,0,1,1,0,465,12552,-23623,453,,,,,,,,,,,,,,,,
142923,1620407238520,,,,,,,,0.02,0.43,-1.12,13,-0,0,0.43,,86,7217,10,23,40,0.825,46.4,599,4.91,12.0,17.0,1,31.3,2.33,7.8,0,0,1,1,0,462,16408,-23623,453,,,,,,,,,,,,,,,,
142943,1620407238540,5,3,24,28,36,33,10,0.01,0.36,-1.19,13,0,0,0.36,0,86,7175,10,23,40,0.827,46.1,606,4.9,12.1,17.0,1,31.3,2.33,7.8,0,0,1,1,0,463,2211,-26615,455,45.846863,5.178163,48.37,219.4,10,3,1.7,0,0.0,-1,0.0,,0.0,0,1.03,2.3824
142963,1620407238560,,,,,,,,-0.04,0.31,-0.94,13,-2,-1,0.32,,86,7172,10,23,40,0.828,45.8,602,4.85,12.1,17.0,1,31.3,2.33,7.8,0,0,1,1,0,463,17628,-26615,447,,,,,,,,,,,,,,,,
142983,1620407238580,,,,,,,,-0.02,0.31,-0.7,13,-3,-2,0.31,,86,7161,10,23,41,0.829,46.1,609,4.81,12.0,17.0,1,31.7,2.32,7.8,0,0,1,1,0,462,2211,-6387,454,,,,,,,,,,,,,,,,
143003,1620407238600,,,,,,,,-0.01,0.31,-0.81,13,0,0,0.31,,86,7170,10,23,41,0.829,46.4,615,4.9,12.0,17.0,1,31.7,2.32,7.8,0,0,1,1,0,462,16408,-6387,452,,,,,,,,,,,,,,,,
143023,1620407238620,,,,,,,,-0.03,0.3,-0.91,12,0,0,0.3,,86,7142,10,23,41,0.829,46.0,606,4.85,12.1,17.0,1,31.7,2.32,7.7,0,0,1,1,0,460,17628,15649,448,,,,,,,,,,,,,,,,
143043,1620407238640,7,2,25,28,36,34,9,-0.04,0.29,-0.99,12,-0,-1,0.29,0,86,7192,10,23,41,0.83,45.9,611,4.87,12.1,17.0,1,31.7,2.32,7.7,0,0,1,1,0,459,-18108,15649,446,45.846874,5.178153,47.93,219.4,10,3,1.7,0,0.0,-1,0.0,0.0,0.0,0,1.03,2.384
143063,1620407238660,,,,,,,,-0.09,0.26,-0.74,12,-2,-2,0.28,,86,7203,10,23,41,0.83,45.8,621,4.82,12.0,17.0,1,31.7,2.32,7.7,0,0,1,1,0,456,17628,15649,448,,,,,,,,,,,,,,,,
143083,1620407238680,,,,,,,,-0.06,0.32,-0.51,12,-3,-1,0.32,,86,7225,10,23,42,0.832,45.1,613,4.82,12.0,17.0,1,32.1,2.32,7.7,0,0,1,1,0,455,3571,10305,442,,,,,,,,,,,,,,,,
143103,1620407238700,,,,,,,,-0.07,0.34,-0.64,12,0,-0,0.35,,86,7236,10,23,42,0.833,45.5,611,4.95,12.0,17.0,1,32.1,2.32,7.7,0,0,1,1,0,453,3571,2131,442,,,,,,,,,,,,,,,,
143123,1620407238720,,,,,,,,-0.06,0.34,-0.75,12,-1,0,0.35,,86,7233,10,23,42,0.835,45.1,609,4.85,12.0,17.4,1,32.1,2.32,7.7,0,0,1,1,0,451,3571,16648,439,,,,,,,,,,,,,,,,
143143,1620407238740,11,4,25,28,36,35,8,-0.05,0.31,-0.86,12,-1,-0,0.31,0,86,7225,10,23,42,0.837,45.2,607,4.88,12.1,17.4,1,32.1,2.32,7.7,0,0,1,1,0,453,-6387,21432,440,45.846882,5.178142,47.43,219.5,10,3,1.7,0,0.0,-1,0.0,,0.0,0,1.03,2.3857
143163,1620407238760,,,,,,,,-0.11,0.32,-0.64,12,-2,-1,0.34,,86,7181,10,23,42,0.841,44.8,606,4.85,12.1,17.4,1,32.0,2.32,7.7,0,0,1,1,0,450,8488,21432,444,,,,,,,,,,,,,,,,
143183,1620407238780,,,,,,,,-0.12,0.33,-0.42,12,-3,-0,0.35,,86,7091,10,23,42,0.844,44.6,601,4.82,12.0,17.4,1,31.9,2.31,7.7,0,0,1,1,0,448,8488,21432,433,,,,,,,,,,,,,,,,
143203,1620407238800,,,,,,,,-0.11,0.34,-0.55,12,1,1,0.36,,86,7043,10,23,42,0.848,44.3,588,4.9,12.1,17.4,1,31.9,2.31,7.7,0,0,1,1,0,449,-18341,21432,436,,,,,,,,,,,,,,,,
143223,1620407238820,,,,,,,,-0.14,0.33,-0.67,12,-3,-0,0.36,,86,7001,10,23,42,0.852,44.5,586,4.87,12.1,17.3,1,31.9,2.31,7.5,0,0,1,1,0,446,2131,20625,435,,,,,,,,,,,,,,,,
143243,1620407238840,11,3,25,29,36,34,9,-0.14,0.35,-0.45,12,-3,-0,0.38,0,86,6972,10,23,43,0.857,44.0,590,4.87,12.0,17.3,1,32.1,2.3,7.5,0,0,1,1,0,444,20625,19477,435,45.846893,5.178131,46.55,219.5,10,3,1.7,0,0.0,-1,0.0,0.0,0.0,0,1.03,2.3874
143263,1620407238860,,,,,,,,-0.14,0.36,-0.58,11,1,1,0.39,,86,6980,10,23,43,0.863,44.2,587,4.87,12.1,17.3,1,32.1,2.3,7.5,0,0,1,1,0,442,23400,-7939,428,,,,,,,,,,,,,,,,
143283,1620407238880,,,,,,,,-0.18,0.33,-0.36,11,-3,-1,0.38,,86,6944,10,23,43,0.869,44.2,593,4.76,12.0,17.3,1,32.0,2.3,7.5,0,0,1,1,0,440,21580,-768,430,,,,,,,,,,,,,,,,
143303,1620407238900,,,,,,,,-0.16,0.34,-0.16,11,-2,0,0.38,,86,6908,10,23,43,0.875,43.6,586,4.83,12.0,17.3,1,31.9,2.3,7.5,0,0,1,1,0,440,5600,243,428,,,,,,,,,,,,,,,,
143323,1620407238920,,,,,,,,-0.16,0.31,-0.32,11,-0,-0,0.35,,86,6890,10,24,43,0.878,43.4,597,4.87,12.1,17.0,1,31.9,2.31,7.3,0,0,1,1,0,436,-768,1779,429,,,,,,,,,,,,,,,,
143343,1620407238940,12,5,25,30,36,35,8,-0.2,0.29,-0.12,11,-4,-1,0.35,0,86,6888,10,24,43,0.88,42.7,592,4.85,12.0,17.0,1,31.9,2.31,7.3,0,0,1,1,0,436,-7939,243,422,45.846901,5.17812,46.0,219.6,10,3,1.7,0,0.0,-1,0.0,,0.0,0,1.03,2.389
143363,1620407238960,,,,,,,,-0.19,0.27,-0.28,11,1,2,0.33,,86,6848,10,24,44,0.882,43.9,577,4.9,12.1,17.0,1,32.1,2.3,7.3,0,0,1,1,0,436,-28332,3635,422,,,,,,,,,,,,,,,,
143383,1620407238980,,,,,,,,-0.22,0.25,-0.09,11,-1,-0,0.33,,86,6823,10,24,43,0.884,43.4,575,4.87,12.1,17.0,1,31.8,2.31,7.3,0,0,1,1,0,433,-768,31796,424,,,,,,,,,,,,,,,,
143403,1620407239000,,,,,,,,-0.19,0.28,-0.25,10,2,2,0.34,,86,6786,10,24,44,0.885,42.4,581,4.93,12.0,17.0,1,32.0,2.31,7.3,0,0,1,1,0,429,-4082,-3856,418,,,,,,,,,,,,,,,,
143423,1620407239010,,,,,,,,-0.22,0.26,-0.06,10,-3,-1,0.34,,86,6771,10,24,43,0.885,42.6,569,4.87,12.1,17.2,1,31.7,2.31,7.2,0,0,1,1,0,425,-3856,-4082,424,,,,,,,,,,,,,,,,
143443,1620407239030,12,7,25,28,35,36,6,-0.19,0.24,-0.22,10,0,1,0.3,0,86,6776,10,24,44,0.884,42.3,567,4.93,12.1,17.2,1,32.0,2.31,7.2,0,0,1,1,0,423,3826,3826,415,45.846909,5.178109,45.34,219.7,10,3,1.7,0,0.0,-1,0.0,0.0,0.0,0,1.03,2.3907
143463,1620407239050,,,,,,,,-0.17,0.18,-0.04,9,-3,-1,0.25,,86,6739,10,24,44,0.884,42.0,568,4.86,12.1,17.2,1,31.9,2.31,7.2,0,0,1,1,0,426,-8165,3826,419,,,,,,,,,,,,,,,,
143483,1620407239070,,,,,,,,-0.18,0.23,-0.2,9,1,-0,0.29,,86,6679,10,24,44,0.883,42.2,569,4.9,12.0,17.2,1,31.8,2.32,7.2,0,0,1,1,0,423,-3414,-3414,417,,,,,,,,,,,,,,,,
143503,1620407239098,,,,,,,,-0.18,0.14,-0.02,9,-5,-2,0.23,,86,6616,10,24,44,0.881,41.4,563,4.87,12.1,17.2,1,31.7,2.32,7.2,0,0,1,1,0,420,-3414,7154,410,,,,,,,,,,,,,,,,
143523,1620407239118,,,,,,,,-0.19,0.15,-0.18,8,-0,-0,0.24,,86,6581,10,24,44,0.879,41.4,558,4.91,12.1,16.9,1,31.6,2.32,7.0,0,0,1,1,0,416,2524,18584,407,,,,,,,,,,,,,,,,
143543,1620407239138,16,7,25,28,36,36,5,-0.22,0.21,-0.0,8,-6,-2,0.3,0,86,6555,10,24,44,0.878,41.4,553,4.88,12.0,16.9,1,31.6,2.32,7.0,0,0,1,1,0,414,2524,2524,408,45.84692,5.178099,44.48,219.7,10,3,1.7,0,0.0,-1,0.0,,0.0,0,1.04,2.3924
143563,1620407239158,,,,,,,,-0.18,0.1,-0.17,8,-7,-2,0.21,,86,6544,10,24,44,0.877,41.4,550,4.77,12.1,16.9,1,31.5,2.32,7.0,0,0,1,1,0,411,11560,13040,414,,,,,,,,,,,,,,,,
143583,1620407239178,,,,,,,,-0.18,0.13,-0.32,7,-0,-0,0.22,,86,6535,10,24,44,0.878,40.8,551,4.92,12.1,16.9,1,31.5,2.32,7.0,0,0,1,1,0,410,10392,11560,407,,,,,,,,,,,,,,,,
143603,1620407239200,,,,,,,,-0.22,0.14,-0.13,7,-5,-2,0.26,,86,6514,10,24,44,0.879,40.5,562,4.78,12.0,16.9,1,31.5,2.32,7.0,0,0,1,1,0,406,-32702,10392,403,,,,,,,,,,,,,,,,
143623,1620407239220,,,,,,,,-0.21,0.09,-0.28,6,-5,-2,0.23,,86,6496,10,24,45,0.88,40.4,556,4.88,12.2,17.3,1,31.7,2.33,6.9,0,0,1,1,0,408,10541,-9211,402,,,,,,,,,,,,,,,,
143643,1620407239240,16,7,25,27,36,36,5,-0.2,0.08,-0.42,6,-0,0,0.21,0,86,6458,10,24,45,0.88,40.1,552,4.88,12.0,17.3,1,31.7,2.33,6.9,0,0,1,1,0,405,11545,2524,399,45.846924,5.178087,43.33,219.8,10,3,1.7,0,0.0,-1,0.0,0.0,0.0,0,1.04,2.3941
143663,1620407239260,,,,,,,,-0.23,0.12,-0.22,6,-0,0,0.25,,86,6386,10,24,45,0.879,40.0,543,4.85,12.0,17.3,1,31.5,2.33,6.9,0,0,1,1,0,402,6512,1504,393,,,,,,,,,,,,,,,,
143683,1620407239280,,,,,,,,-0.24,0.04,-0.04,5,-4,-2,0.24,,86,6300,10,24,45,0.879,39.8,537,4.85,12.1,17.3,1,31.3,2.33,6.9,0,0,1,1,0,400,-1818,28696,393,,,,,,,,,,,,,,,,
143703,1620407239299,,,,,,,,-0.26,0.01,-0.2,5,-7,-3,0.26,,86,6210,10,24,45,0.878,39.8,519,4.88,12.1,17.3,1,31.2,2.33,6.9,0,0,1,1,0,397,1,-32702,389,,,,,,,,,,,,,,,,
143723,1620407239319,,,,,,,,-0.22,0.0,-0.35,5,-4,-1,0.22,,86,6151,10,24,46,0.876,39.5,520,4.88,12.1,17.0,1,31.3,2.34,6.6,0,0,1,1,0,394,17144,-1818,392,,,,,,,,,,,,,,,,
143743,1620407239339,16,9,25,25,36,37,4,-0.25,-0.03,-0.49,4,-2,2,0.25,0,86,6073,10,24,47,0.87,38.9,513,4.96,12.2,17.0,1,31.3,2.36,6.6,0,0,1,1,0,388,-31744,-1562,389,45.846931,5.178077,42.15,219.8,10,3,1.7,0,0.0,-1,0.0,,0.0,0,1.04,2.3957
143763,1620407239359,,,,,,,,-0.29,-0.02,-0.61,4,3,3,0.29,,86,5975,10,24,48,0.866,38.6,506,4.93,12.2,17.0,1,31.3,2.38,6.6,0,0,1,1,0,384,-3866,-3866,385,,,,,,,,,,,,,,,,
143783,1620407239379,,,,,,,,-0.23,-0.02,-0.73,4,5,5,0.23,,86,5899,10,24,49,0.861,38.3,497,4.88,12.1,17.0,1,31.4,2.41,6.6,0,0,1,1,0,383,-19126,-19126,383,,,,,,,,,,,,,,,,
143803,1620407239399,,,,,,,,-0.2,-0.06,-0.83,4,6,5,0.21,,86,5826,10,24,49,0.856,37.9,498,4.84,12.1,17.0,1,31.3,2.44,6.6,0,0,1,1,0,381,8200,3,379,,,,,,,,,,,,,,,,
143823,1620407239419,,,,,,,,-0.18,-0.09,-0.93,3,4,5,0.2,,86,5837,10,24,50,0.851,37.7,501,4.86,12.0,17.1,1,31.5,2.43,6.5,0,0,1,1,0,375,-6656,1,375,,,,,,,,,,,,,,,,
143843,1620407239439,19,9,24,24,36,37,2,-0.19,-0.13,-0.69,3,1,3,0.23,0,86,5817,10,24,51,0.846,37.4,500,4.83,12.1,17.1,1,31.7,2.43,6.5,0,0,1,1,0,372,1,-6656,375,45.846943,5.178066,41.27,219.9,10,3,1.7,0,0.0,-1,0.0,0.0,0.0,0,1.04,2.3974
143863,1620407239459,,,,,,,,-0.27,-0.11,-0.46,3,-1,1,0.29,,86,5830,10,24,52,0.841,37.2,496,4.87,12.0,17.1,1,31.9,2.42,6.5,0,0,1,1,0,368,0,0,365,,,,,,,,,,,,,,,,
143883,1620407239479,,,,,,,,-0.35,-0.06,-0.26,2,-3,-0,0.35,,86,5815,10,24,53,0.837,36.6,493,4.86,12.0,17.1,1,32.1,2.43,6.5,0,0,1,1,0,362,-1268,230,365,,,,,,,,,,,,,,,,
143903,1620407239501,,,,,,,,-0.42,-0.02,-0.07,2,-1,0,0.42,,86,5819,10,24,53,0.833,36.2,497,4.86,12.0,17.1,1,32.1,2.42,6.5,0,0,1,1,0,360,2790,3082,360,,,,,,,,,,,,,,,,
143923,1620407239521,,,,,,,,-0.47,-0.03,-0.23,2,0,1,0.47,,86,5835,10,24,54,0.829,36.0,502,4.83,12.1,17.9,1,32.4,1.24,6.4,0,0,1,1,0,358,-14707,-14707,357,,,,,,,,,,,,,,,,
143943,1620407239541,19,13,24,24,37,38,0,-0.44,-0.05,-0.38,1,4,2,0.44,0,86,5833,10,24,54,0.824,35.6,493,4.92,12.2,17.9,1,32.4,2.4,6.4,0,0,1,1,0,354,4104,4104,356,45.846947,5.178056,39.53,219.9,10,3,1.7,0,0.0,-1,0.0,,0.0,0,1.04,2.399
143963,1620407239561,,,,,,,,-0.4,-0.11,-0.51,1,6,4,0.42,,86,5886,10,24,55,0.82,35.1,483,4.93,12.2,17.9,1,32.7,2.36,6.4,0,0,1,1,0,352,28553,3302,349,,,,,,,,,,,,,,,,
143983,1620407239581,,,,,,,,-0.36,-0.16,-0.64,0,6,4,0.39,,86,5821,10,24,55,0.82,34.9,493,4.87,12.1,17.9,1,32.6,2.4,6.4,0,0,1,1,0,352,-10554,3183,349,,,,,,,,,,,,,,,,
144003,1620407239601,,,,,,,,-0.3,-0.19,-0.63,0,3,3,0.36,,86,5707,10,24,55,0.82,34.8,483,4.87,12.1,17.9,1,32.5,2.47,6.4,0,0,1,1,0,349,3327,-6644,348,,,,,,,,,,,,,,,,
144023,1620407239621,,,,,,,,-0.35,-0.15,-0.46,-0,2,2,0.38,,86,5563,10,24,56,0.821,34.3,480,4.83,12.0,18.9,1,32.7,2.56,6.6,0,0,1,1,0,349,3327,28553,343,,,,,,,,,,,,,,,,
144043,1620407239641,14,7,25,25,36,38,-1,-0.31,-0.17,-0.59,-1,4,3,0.35,0,86,5387,10,24,57,0.822,34.4,453,4.86,12.1,18.9,1,32.9,2.67,6.6,0,0,1,1,0,347,-122,2811,344,45.846954,5.178046,37.67,220.0,10,3,1.7,0,0.0,-1,0.0,0.0,0.0,0,1.04,2.4007
144063,1620407239661,,,,,,,,-0.34,-0.21,-0.37,-1,0,1,0.4,,86,5240,10,24,58,0.82,34.0,446,4.8,12.0,18.9,1,33.1,2.75,6.6,0,0,1,1,0,342,4838,6870,340,,,,,,,,,,,,,,,,
144083,1620407239681,,,,,,,,-0.3,-0.19,-0.51,-1,2,1,0.36,,86,5221,10,24,58,0.818,33.7,422,4.93,12.2,18.9,1,33.1,2.76,6.6,0,0,1,1,0,337,3346,-31206,337,,,,,,,,,,,,,,,,
144103,1620407239699,,,,,,,,-0.37,-0.19,-0.3,-2,1,1,0.42,,86,5222,10,24,59,0.816,33.9,428,4.86,12.0,18.9,1,33.4,2.75,6.6,0,0,1,1,0,335,-6528,-31222,339,,,,,,,,,,,,,,,,
144123,1620407239719,,,,,,,,-0.31,-0.2,-0.44,-2,2,1,0.37,,86,5247,10,24,60,0.813,33.5,427,4.93,12.2,19.4,1,33.7,2.74,6.6,0,0,1,1,0,332,175,2560,335,,,,,,,,,,,,,,,,
144143,1620407239739,8,4,26,24,36,38,-6,-0.37,-0.21,-0.24,-3,-0,0,0.43,0,86,5301,10,24,60,0.812,33.6,435,4.86,12.0,19.4,1,33.7,2.69,6.6,0,0,1,1,0,330,-32559,13,336,45.846962,5.178037,36.61,220.0,10,3,1.7,0,0.0,-1,0.0,,0.0,0,1.04,2.4024
144163,1620407239759,,,,,,,,-0.35,-0.21,-0.38,-3,3,1,0.41,,86,5326,10,24,61,0.812,33.7,429,4.88,12.1,19.4,1,34.0,2.68,6.6,0,0,1,1,0,330,165,13,340,,,,,,,,,,,,,,,,
144183,1620407239779,,,,,,,,-0.36,-0.21,-0.19,-4,-0,0,0.41,,86,5398,10,24,61,0.812,33.7,442,4.87,12.0,19.4,1,34.0,2.61,6.6,0,0,1,1,0,328,160,4838,337,,,,,,,,,,,,,,,,
144203,1620407239799,,,,,,,,-0.37,-0.18,-0.26,-5,2,0,0.41,,86,5419,10,24,61,0.813,33.5,452,4.86,12.0,19.4,1,34.0,2.6,6.6,0,0,1,1,0,328,150,4838,335,,,,,,,,,,,,,,,,
144223,1620407239819,,,,,,,,-0.3,-0.23,-0.41,-6,1,0,0.38,,86,5360,10,24,62,0.814,33.0,451,4.95,12.2,19.4,1,34.2,2.63,6.5,0,0,1,1,0,329,-29696,13,330,,,,,,,,,,,,,,,,
144243,1620407239839,4,4,28,25,34,38,-13,-0.32,-0.24,-0.21,-7,1,-0,0.4,0,86,5286,10,24,62,0.816,33.4,432,4.87,12.0,19.4,1,34.3,2.76,6.5,0,0,1,1,0,330,-25856,-6528,331,45.846966,5.178028,34.94,220.0,10,3,1.7,0,0.0,-1,0.0,0.0,0.0,0,1.04,2.404
144263,1620407239859,,,,,,,,-0.26,-0.3,-0.35,-7,0,-0,0.4,,86,5205,10,24,62,0.817,33.4,426,4.91,12.2,19.4,1,34.3,2.8,6.5,0,0,1,1,0,327,-28416,13,334,,,,,,,,,,,,,,,,
144283,1620407239879,,,,,,,,-0.28,-0.28,-0.49,-8,2,-0,0.4,,86,5114,10,24,63,0.817,33.6,422,4.9,12.0,19.4,1,34.6,2.92,6.5,0,0,1,1,0,324,155,-6528,336,,,,,,,,,,,,,,,,
144303,1620407239899,,,,,,,,-0.26,-0.33,-0.36,-9,-1,-0,0.42,,86,5122,10,24,63,0.819,33.2,415,4.8,12.0,19.4,1,34.6,2.92,6.5,0,0,1,1,0,319,-29696,4838,332,,,,,,,,,,,,,,,,
144323,1620407239919,,,,,,,,-0.23,-0.34,-0.5,-10,2,1,0.4,,86,5141,10,24,63,0.823,33.3,421,4.86,12.1,20.7,1,34.6,2.9,6.9,0,0,1,1,0,318,-32256,-32559,331,,,,,,,,,,,,,,,,
144343,1620407239939,6,2,31,27,32,37,-20,-0.26,-0.34,-0.29,-11,-0,-1,0.43,0,86,5202,10,24,63,0.826,32.8,432,4.83,12.0,20.7,1,34.6,2.88,6.9,0,0,1,1,0,314,-32256,-20736,328,45.846973,5.178019,34.03,220.0,10,3,1.7,0,0.0,-1,0.0,,0.0,0,1.04,2.4057
144363,1620407239959,,,,,,,,-0.2,-0.39,-0.43,-13,2,0,0.44,,87,5241,10,24,63,0.829,33.3,423,4.93,12.1,20.7,1,34.6,2.87,6.9,0,0,1,1,0,313,125,-12032,333,,,,,,,,,,,,,,,,
144383,1620407239979,,,,,,,,-0.23,-0.41,-0.23,-14,-1,-1,0.47,,87,5240,10,24,63,0.832,33.4,430,4.8,12.0,20.7,1,34.6,2.87,6.9,0,0,1,1,0,317,125,-12032,334,,,,,,,,,,,,,,,,
144403,1620407239999,,,,,,,,-0.2,-0.43,-0.37,-15,0,-1,0.47,,87,5191,10,24,64,0.833,33.0,423,4.93,12.1,20.7,1,34.9,2.96,6.9,0,0,1,1,0,318,105,-32559,336,,,,,,,,,,,,,,,,
144423,1620407240010,,,,,,,,-0.26,-0.43,-0.18,-17,-0,-1,0.5,,87,5079,10,24,64,0.835,33.1,413,4.86,11.9,21.0,1,34.9,2.98,7.0,0,0,1,1,0,319,120,-32559,331,,,,,,,,,,,,,,,,
144443,1620407240030,6,2,31,25,30,37,-24,-0.2,-0.44,-0.18,-17,-2,-2,0.48,0,87,5037,9,24,64,0.837,33.1,411,4.85,12.2,21.0,1,34.9,3.0,7.0,0,0,1,1,0,315,100,-32559,331,45.846981,5.178011,34.09,220.1,10,3,1.7,0,0.0,-1,0.0,0.0,0.0,0,1.05,2.4074
144463,1620407240050,,,,,,,,-0.17,-0.41,-0.33,-19,2,-1,0.44,,87,5016,9,24,64,0.839,33.0,410,4.88,12.2,21.0,1,34.9,3.01,7.0,0,0,1,1,0,311,120,175,330,,,,,,,,,,,,,,,,
144483,1620407240070,,,,,,,,-0.26,-0.44,-0.14,-20,-1,-2,0.51,,87,5025,9,24,64,0.84,33.0,416,4.86,12.0,21.0,1,34.9,3.01,7.0,0,0,1,1,0,308,28160,175,332,,,,,,,,,,,,,,,,
144503,1620407240096,,,,,,,,-0.21,-0.47,-0.29,-21,0,-2,0.52,,87,5073,9,24,64,0.84,33.4,412,4.89,12.2,21.0,1,34.9,3.0,7.0,0,0,1,1,0,312,26880,-12032,334,,,,,,,,,,,,,,,,
144523,1620407240116,,,,,,,,-0.21,-0.51,-0.44,-23,2,-1,0.55,,87,5099,9,24,64,0.841,32.8,417,4.86,12.0,21.0,1,34.9,2.98,7.0,0,0,1,1,0,304,25600,-20736,328,,,,,,,,,,,,,,,,
144543,1620407240136,6,4,32,25,32,40,-33,-0.23,-0.58,-0.29,-24,-1,-2,0.62,0,87,5107,9,24,63,0.841,33.1,410,4.89,12.1,21.0,1,34.6,2.99,7.0,0,0,1,1,0,303,95,175,331,45.846985,5.178003,33.49,220.1,10,3,1.7,0,0.0,-1,0.0,,0.0,0,1.05,2.409
144563,1620407240156,,,,,,,,-0.16,-0.6,-0.43,-26,2,-1,0.62,,87,5089,9,24,64,0.844,32.8,410,4.85,12.1,21.0,1,34.9,2.99,7.0,0,0,1,1,0,306,23040,175,328,,,,,,,,,,,,,,,,
144583,1620407240176,,,,,,,,-0.23,-0.63,-0.25,-28,2,-2,0.67,,87,5043,8,24,64,0.847,32.7,412,4.86,12.0,21.0,1,34.9,3.0,7.0,0,0,1,1,0,305,21760,-12032,327,,,,,,,,,,,,,,,,
144603,1620407240198,,,,,,,,-0.19,-0.63,-0.35,-29,1,-2,0.66,,87,5030,8,24,63,0.849,33.1,407,4.92,12.2,21.0,1,34.6,2.95,7.0,0,0,1,1,0,304,21760,-12032,331,,,,,,,,,,,,,,,,
144623,1620407240218,,,,,,,,-0.16,-0.67,-0.48,-31,3,-1,0.69,,87,4982,8,24,63,0.851,33.2,405,4.89,12.2,20.7,1,34.3,2.95,6.9,0,0,1,1,0,302,20480,-22016,324,,,,,,,,,,,,,,,,
144643,1620407240238,8,3,33,24,31,40,-44,-0.21,-0.67,-0.28,-32,3,-2,0.7,0,87,4962,8,24,64,0.852,32.8,402,4.83,12.0,20.7,1,34.4,1.83,6.9,0,0,1,1,0,299,41,165,328,45.846992,5.177997,33.32,220.2,10,3,1.7,0,0.0,-1,0.0,0.0,0.0,0,1.05,2.4107
144663,1620407240258,,,,,,,,-0.24,-0.71,-0.14,-34,1,-2,0.75,,87,4956,8,24,63,0.853,32.5,393,4.92,12.2,20.7,1,34.0,2.94,6.9,0,0,1,1,0,298,250,165,325,,,,,,,,,,,,,,,,
144683,1620407240278,,,,,,,,-0.22,-0.74,-0.29,-35,3,-1,0.77,,87,4907,8,24,64,0.854,32.3,401,4.82,12.2,20.7,1,33.6,2.92,6.9,0,0,1,1,0,315,250,160,328,,,,,,,,,,,,,,,,
144703,1620407240298,,,,,,,,-0.29,-0.75,-0.1,-37,4,-1,0.8,,87,4922,8,24,64,0.855,32.8,401,4.87,12.1,20.7,1,33.8,2.98,6.9,0,0,1,1,0,309,-1527,-23296,328,,,,,,,,,,,,,,,,
144723,1620407240318,,,,,,,,-0.26,-0.73,-0.04,-39,1,-3,0.77,,87,4939,8,24,64,0.856,32.7,400,4.87,12.0,20.6,1,34.1,2.98,6.7,0,0,1,1,0,286,-1281,-23296,327,,,,,,,,,,,,,,,,
144743,1620407240338,7,4,33,22,31,42,-56,-0.21,-0.83,-0.2,-40,2,-2,0.86,0,87,4925,8,24,64,0.855,32.6,398,4.91,12.2,20.6,1,33.9,2.93,6.7,0,0,1,1,0,287,-1281,-24576,326,45.847,5.17799,31.52,220.1,10,3,1.7,0,0.0,-1,0.0,,0.0,0,1.05,2.4124
144763,1620407240358,,,,,,,,-0.2,-0.79,-0.35,-42,3,-2,0.81,,87,4884,8,24,64,0.856,32.3,394,4.83,12.1,20.6,1,33.3,2.96,6.7,0,0,1,1,0,288,-1,-25856,323,,,,,,,,,,,,,,,,
144783,1620407240378,,,,,,,,-0.31,-0.74,-0.16,-44,4,-2,0.8,,87,4825,9,24,64,0.856,31.8,391,4.83,12.0,20.6,1,32.1,2.93,6.7,0,0,1,1,0,289,-1,155,318,,,,,,,,,,,,,,,,
144803,1620407240398,,,,,,,,-0.32,-0.84,-0.08,-45,2,-2,0.9,,87,4808,9,24,64,0.854,31.7,394,4.88,12.0,20.6,1,32.3,2.93,6.7,0,0,1,1,0,293,-1,-27136,317,,,,,,,,,,,,,,,,
144823,1620407240418,,,,,,,,-0.28,-0.86,-0.24,-46,2,-2,0.91,,87,4794,9,24,64,0.852,31.6,390,4.89,12.1,20.4,1,32.1,2.93,6.5,0,0,1,1,0,285,-1,-28416,316,,,,,,,,,,,,,,,,
144843,1620407240438,6,4,35,22,32,43,-70,-0.25,-0.89,-0.39,-47,2,-1,0.92,0,87,4797,9,24,64,0.849,31.8,389,4.86,12.2,20.4,1,32.2,2.93,6.5,0,0,1,1,0,291,-1494,-28416,318,45.847008,5.177985,31.2,220.1,10,3,1.7,0,0.0,-1,0.0,0.0,0.0,0,1.05,2.4141
144863,1620407240458,,,,,,,,-0.25,-0.87,-0.52,-49,4,-0,0.9,,87,4783,9,24,64,0.847,31.4,389,4.87,12.1,20.4,1,32.0,2.92,6.5,0,0,1,1,0,293,-1,-29696,314,,,,,,,,,,,,,,,,
144883,1620407240478,,,,,,,,-0.34,-0.88,-0.31,-50,6,-1,0.95,,87,4808,9,24,64,0.845,31.1,385,4.89,12.1,20.4,1,32.3,1.77,6.5,0,0,1,1,0,291,-1445,-30976,311,,,,,,,,,,,,,,,,
144903,1620407240498,,,,,,,,-0.38,-0.96,-0.17,-51,3,-1,1.03,,87,4822,9,24,65,0.843,30.8,392,4.88,12.0,20.4,1,32.8,2.99,6.5,0,0,1,1,0,279,250,-30976,305,,,,,,,,,,,,,,,,
144923,1620407240518,,,,,,,,-0.32,-0.96,-0.33,-52,3,-2,1.01,,87,4794,9,24,65,0.841,30.7,384,4.93,12.2,21.8,1,32.4,2.98,6.6,0,0,1,1,0,285,23482,32000,307,,,,,,,,,,,,,,,,
144943,1620407240538,7,2,34,22,32,43,-73,-0.26,-1.0,-0.46,-53,3,-2,1.03,0,87,4764,10,24,65,0.839,30.5,379,4.87,12.2,21.8,1,32.0,2.97,6.6,0,0,1,1,0,304,13468,30720,306,45.847015,5.17798,29.92,220.1,10,3,1.7,0,0.0,-1,0.0,,0.0,0,1.05,2.4157
144963,1620407240558,,,,,,,,-0.28,-1.01,-0.59,-54,5,-1,1.05,,87,4756,10,24,66,0.838,30.2,387,4.83,12.2,21.8,1,32.2,3.01,6.6,0,0,1,1,0,322,13468,115,302,,,,,,,,,,,,,,,,
144983,1620407240578,,,,,,,,-0.33,-0.99,-0.42,-55,7,-1,1.04,,87,4780,10,24,66,0.836,30.0,383,4.86,12.0,21.8,1,32.5,3.02,6.6,0,0,1,1,0,321,13468,110,304,,,,,,,,,,,,,,,,
145003,1620407240598,,,,,,,,-0.35,-1.01,-0.28,-56,4,-2,1.07,,87,4885,10,24,66,0.835,30.3,389,4.88,12.0,21.8,1,33.9,3.06,6.6,0,0,1,1,0,313,13602,105,303,,,,,,,,,,,,,,,,
145023,1620407240618,,,,,,,,-0.3,-1.01,-0.43,-57,4,-2,1.06,,87,4939,10,24,66,0.833,30.0,400,4.9,12.1,23.3,1,34.7,3.09,7.0,0,0,1,1,0,306,13602,105,304,,,,,,,,,,,,,,,,
145043,1620407240638,6,3,33,22,33,44,-72,-0.31,-0.93,-0.56,-58,5,-1,0.98,0,87,4947,10,24,67,0.833,30.1,392,4.9,12.2,23.3,1,35.1,3.14,7.0,0,0,1,1,0,298,-1484,100,301,45.847023,5.177977,29.44,220.2,10,3,1.7,0,0.0,-1,0.0,0.0,0.0,0,1.05,2.4174
145063,1620407240658,,,,,,,,-0.35,-0.94,-0.34,-59,4,-1,1.01,,87,4955,10,24,67,0.832,30.0,400,4.78,12.0,23.3,1,35.2,3.14,7.0,0,0,1,1,0,304,-1484,105,300,,,,,,,,,,,,,,,,
145083,1620407240678,,,,,,,,-0.3,-0.9,-0.31,-60,1,-2,0.95,,87,4961,10,24,67,0.831,30.0,404,4.85,12.1,23.3,1,35.2,3.15,7.0,0,0,1,1,0,312,-25600,105,300,,,,,,,,,,,,,,,,
145103,1620407240698,,,,,,,,-0.23,-0.94,-0.45,-61,2,-3,0.96,,87,4885,11,24,68,0.83,29.4,394,4.86,12.2,23.3,1,34.6,3.18,7.0,0,0,1,1,0,301,-25600,105,294,,,,,,,,,,,,,,,,
145123,1620407240718,,,,,,,,-0.23,-0.89,-0.58,-61,3,-3,0.92,,87,4773,11,24,68,0.83,30.1,388,4.87,12.1,23.2,1,33.0,3.12,6.9,0,0,1,1,0,297,10824,100,301,,,,,,,,,,,,,,,,
145143,1620407240738,2,2,37,24,32,43,-73,-0.28,-0.89,-0.4,-62,4,-3,0.93,0,87,4700,10,24,68,0.829,29.8,383,4.89,12.1,23.2,1,32.0,3.09,6.9,0,0,1,1,0,300,250,95,298,45.847027,5.177976,27.73,220.1,10,3,1.7,0,0.0,-1,0.0,,0.0,0,1.05,2.419
145163,1620407240758,,,,,,,,-0.32,-0.84,-0.2,-62,4,-3,0.9,,87,4658,10,24,68,0.828,29.4,374,4.87,12.0,23.2,1,31.5,3.07,6.9,0,0,1,1,0,298,-1530,95,294,,,,,,,,,,,,,,,,
145183,1620407240778,,,,,,,,-0.36,-0.81,-0.02,-62,1,-3,0.89,,87,4672,10,24,68,0.827,29.7,378,4.87,12.0,23.2,1,31.7,3.07,6.9,0,0,1,1,0,290,250,23040,297,,,,,,,,,,,,,,,,
145203,1620407240799,,,,,,,,-0.35,-0.83,0.15,-62,-2,-4,0.9,,87,4674,10,24,68,0.827,29.5,378,4.87,12.0,23.2,1,31.7,3.08,6.9,0,0,1,1,0,289,250,23040,295,,,,,,,,,,,,,,,,
145223,1620407240819,,,,,,,,-0.29,-0.82,0.05,-62,-3,-4,0.87,,87,4615,10,24,68,0.826,29.2,378,4.93,12.1,21.7,1,30.9,3.05,6.5,0,0,1,1,0,285,250,23040,292,,,,,,,,,,,,,,,,
145243,1620407240839,0,2,37,25,31,42,-74,-0.23,-0.85,-0.12,-62,-4,-3,0.88,0,87,4583,10,24,68,0.825,29.2,375,4.88,12.2,21.7,1,30.4,3.03,6.5,0,0,1,1,0,291,13468,21760,295,45.847034,5.177975,27.12,220.2,10,3,1.7,0,0.0,-1,0.0,0.0,0.0,0,1.05,2.4207
145263,1620407240859,,,,,,,,-0.15,-0.86,-0.28,-62,-5,-3,0.87,,87,4592,10,24,68,0.824,29.4,365,4.83,12.1,21.7,1,30.6,3.04,6.5,0,0,1,1,0,304,-25600,85,294,,,,,,,,,,,,,,,,
145283,1620407240879,,,,,,,,-0.09,-0.8,-0.42,-62,-4,-2,0.8,,87,4556,11,25,69,0.823,29.3,363,4.81,12.2,21.7,1,30.3,3.01,6.5,0,0,1,1,0,284,250,85,293,,,,,,,,,,,,,,,,
145303,1620407240898,,,,,,,,-0.08,-0.88,-0.55,-63,-2,-2,0.89,,87,4596,11,25,69,0.822,29.0,361,4.87,12.2,21.7,1,30.8,3.03,6.5,0,0,1,1,0,283,-1445,21760,290,,,,,,,,,,,,,,,,
145323,1620407240918,,,,,,,,-0.06,-0.81,-0.67,-63,-1,-2,0.81,,87,4565,11,25,69,0.821,29.6,364,4.9,12.2,21.8,1,30.4,3.02,6.4,0,0,1,1,0,297,-17920,21760,296,,,,,,,,,,,,,,,,
145343,1620407240938,2,2,37,25,32,42,-73,-0.04,-0.83,-0.78,-64,2,-1,0.83,0,87,4629,11,25,69,0.819,29.4,373,4.89,12.2,21.8,1,31.3,3.06,6.4,0,0,1,1,0,320,23482,80,296,45.847042,5.177976,27.48,220.2,10,3,1.7,0,0.0,-1,0.0,,0.0,0,1.05,2.4224
145363,1620407240958,,,,,,,,-0.1,-0.78,-0.88,-64,5,-1,0.79,,87,4739,11,25,69,0.818,29.8,376,4.87,12.1,21.8,1,32.8,3.11,6.4,0,0,1,1,0,320,13468,20480,298,,,,,,,,,,,,,,,,
145383,1620407240978,,,,,,,,-0.19,-0.83,-0.64,-65,2,-2,0.86,,87,4865,11,25,69,0.816,29.5,384,4.87,12.0,21.8,1,34.5,2.03,6.4,0,0,1,1,0,287,13468,21760,296,,,,,,,,,,,,,,,,
145403,1620407240998,,,,,,,,-0.15,-0.84,-0.5,-66,1,-2,0.86,,87,4871,11,25,69,0.813,30.0,397,4.83,12.0,21.8,1,34.6,3.19,6.4,0,0,1,1,0,277,-25600,90,300,,,,,,,,,,,,,,,,
145423,1620407241006,,,,,,,,-0.11,-0.78,-0.62,-66,0,-2,0.79,,87,4791,10,25,70,0.811,30.0,384,4.88,12.2,23.6,1,33.8,3.18,7.1,0,0,1,1,0,315,13468,23040,300,,,,,,,,,,,,,,,,
145443,1620407241026,2,2,37,26,31,42,-74,-0.07,-0.8,-0.74,-67,1,-2,0.8,0,87,4667,10,25,70,0.808,29.7,382,4.86,12.2,23.6,1,32.1,3.1,7.1,0,0,1,1,0,312,-25600,21760,297,45.84705,5.177977,27.6,220.2,10,3,1.7,0,0.0,-1,0.0,0.0,0.0,0,1.05,2.4241
145463,1620407241046,,,,,,,,-0.08,-0.77,-0.84,-67,5,-2,0.78,,87,4750,10,25,70,0.804,29.4,375,4.88,12.2,23.6,1,33.2,3.15,7.1,0,0,1,1,0,286,13602,90,294,,,,,,,,,,,,,,,,
145483,1620407241066,,,,,,,,-0.16,-0.87,-0.72,-68,3,-2,0.89,,87,4702,10,25,69,0.801,29.6,379,4.83,12.0,23.6,1,31.9,3.12,7.1,0,0,1,1,0,292,10824,85,296,,,,,,,,,,,,,,,,
145503,1620407241099,,,,,,,,-0.21,-0.87,-0.49,-68,3,-2,0.9,,87,4669,9,25,69,0.797,29.5,384,4.86,12.0,23.6,1,31.8,3.08,7.1,0,0,1,1,0,316,-25600,80,295,,,,,,,,,,,,,,,,
145523,1620407241119,,,,,,,,-0.3,-0.9,-0.28,-68,2,-2,0.95,,87,4652,9,25,69,0.795,29.7,375,4.86,12.0,21.8,1,31.6,1.92,6.5,0,0,1,1,0,313,-1483,21760,292,,,,,,,,,,,,,,,,
145543,1620407241139,1,2,37,25,31,42,-74,-0.3,-0.9,-0.14,-69,-0,-3,0.95,0,87,4742,9,25,69,0.795,29.1,380,4.9,12.0,21.8,1,32.8,3.12,6.5,0,0,1,1,0,299,250,21760,291,45.847057,5.17798,27.76,220.3,10,3,1.7,0,0.0,-1,0.0,,0.0,0,1.05,2.4257
145563,1620407241159,,,,,,,,-0.23,-0.93,-0.28,-69,-1,-3,0.96,,87,4707,9,25,68,0.795,29.2,377,4.84,12.2,21.8,1,32.1,3.08,6.5,0,0,1,1,0,295,-25600,21760,292,,,,,,,,,,,,,,,,
145583,1620407241179,,,,,,,,-0.16,-0.85,-0.42,-69,-0,-3,0.87,,87,4691,9,25,69,0.796,29.6,373,4.86,12.2,21.8,1,32.1,3.07,6.5,0,0,1,1,0,280,250,80,296,,,,,,,,,,,,,,,,
145603,1620407241199,,,,,,,,-0.13,-0.89,-0.55,-69,2,-2,0.9,,87,4620,9,25,68,0.797,28.8,377,4.84,12.2,21.8,1,30.9,3.04,6.5,0,0,1,1,0,292,250,20480,288,,,,,,,,,,,,,,,,
145623,1620407241219,,,,,,,,-0.07,-0.97,-0.68,-69,3,-1,0.97,,87,4488,9,25,68,0.799,29.2,359,4.9,12.2,21.5,1,29.1,2.98,6.2,0,0,1,1,0,304,13602,0,292,,,,,,,,,,,,,,,,
145643,1620407241239,2,1,38,25,31,41,-74,-0.06,-0.95,-0.79,-69,7,-0,0.95,0,87,4604,9,25,68,0.8,29.2,368,4.87,12.1,21.5,1,30.7,3.03,6.2,0,0,1,1,0,293,10824,0,292,45.847061,5.177984,27.16,220.2,10,3,1.7,0,0.0,-1,0.0,0.0,0.0,0,1.06,2.4274
145663,1620407241259,,,,,,,,-0.08,-0.94,-0.89,-69,7,0,0.95,,87,4612,9,25,67,0.802,28.8,371,4.83,12.1,21.5,1,30.5,2.99,6.2,0,0,1,1,0,293,-1494,0,288,,,,,,,,,,,,,,,,
145683,1620407241279,,,,,,,,-0.13,-0.98,-0.91,-69,7,0,0.99,,87,4629,9,25,67,0.804,28.9,370,4.86,12.0,21.5,1,30.8,2.99,6.2,0,0,1,1,0,294,8704,0,289,,,,,,,,,,,,,,,,
145703,1620407241297,,,,,,,,-0.18,-0.99,-0.67,-70,6,-0,1.01,,87,4689,9,25,67,0.805,29.3,383,4.84,12.0,21.5,1,31.6,3.03,6.2,0,0,1,1,0,281,10824,0,293,,,,,,,,,,,,,,,,
145723,1620407241317,,,,,,,,-0.27,-0.98,-0.45,-70,4,-1,1.02,,87,4577,9,25,67,0.806,29.3,375,4.88,12.0,22.0,1,30.1,2.97,6.4,0,0,1,1,0,278,13602,0,293,,,,,,,,,,,,,,,,
145743,1620407241337,1,2,37,25,31,42,-74,-0.34,-1.03,-0.24,-70,2,-1,1.09,0,87,4558,9,25,67,0.807,29.3,375,4.86,12.0,22.0,1,29.8,2.96,6.4,0,0,1,1,0,293,8704,41,293,45.847065,5.177989,26.39,220.3,10,3,1.7,0,0.0,-1,0.0,,0.0,0,1.06,2.429
145763,1620407241357,,,,,,,,-0.36,-1.06,-0.06,-71,-1,-1,1.12,,87,4557,9,25,67,0.808,29.2,376,4.89,12.0,22.0,1,29.8,2.96,6.4,0,0,1,1,0,300,8704,0,292,,,,,,,,,,,,,,,,
145783,1620407241377,,,,,,,,-0.42,-1.03,0.11,-72,-2,-2,1.11,,87,4538,9,25,66,0.805,29.8,366,4.82,12.1,22.0,1,29.2,2.9,6.4,0,0,1,1,0,297,18432,10686,298,,,,,,,,,,,,,,,,
145803,1620407241397,,,,,,,,-0.41,-1.08,0.18,-72,-4,-2,1.15,,87,4626,9,25,66,0.802,29.5,369,4.87,12.1,22.0,1,30.4,2.94,6.4,0,0,1,1,0,293,8704,41,295,,,,,,,,,,,,,,,,
145823,1620407241417,,,,,,,,-0.36,-1.09,0.18,-73,-5,-3,1.15,,87,4627,9,25,66,0.798,29.4,368,4.86,12.1,21.7,1,30.4,2.94,6.4,0,0,1,1,0,290,18432,0,294,,,,,,,,,,,,,,,,
145843,1620407241437,2,1,37,24,32,42,-72,-0.31,-1.08,0.0,-73,-5,-3,1.12,0,87,4645,9,25,66,0.795,29.3,373,4.87,12.1,21.7,1,30.7,2.95,6.4,0,0,1,1,0,285,18432,0,293,45.847073,5.177995,27.65,220.3,10,3,1.7,0,0.0,-1,0.0,0.0,0.0,0,1.06,2.4307
145863,1620407241457,,,,,,,,-0.25,-1.03,-0.17,-74,-5,-3,1.06,,87,4636,9,25,67,0.791,28.9,374,4.87,12.2,21.7,1,30.9,3.0,6.4,0,0,1,1,0,286,250,0,293,,,,,,,,,,,,,,,,
145883,1620407241477,,,,,,,,-0.18,-1.06,-0.32,-74,-3,-3,1.07,,87,4569,9,25,67,0.786,29.1,366,4.88,12.2,21.7,1,29.9,2.92,6.4,0,0,1,1,0,301,-1496,0,291,,,,,,,,,,,,,,,,
145903,1620407241497,,,,,,,,-0.1,-1.05,-0.46,-74,-1,-3,1.05,,87,4562,9,25,67,0.782,29.1,367,4.89,12.2,21.7,1,29.8,2.96,6.4,0,0,1,1,0,301,-1496,41,291,,,,,,,,,,,,,,,,
145923,1620407241517,,,,,,,,-0.09,-1.01,-0.59,-74,2,-2,1.01,,87,4589,9,25,67,0.778,28.4,364,4.9,12.2,21.7,1,30.2,2.98,6.3,0,0,1,1,0,286,-1496,10686,284,,,,,,,,,,,,,,,,
145943,1620407241537,2,1,37,25,31,42,-72,-0.07,-1.02,-0.7,-74,4,-2,1.03,0,87,4549,9,25,67,0.775,28.7,369,4.87,12.1,21.7,1,29.7,2.96,6.3,0,0,1,1,0,275,250,-16896,287,45.847076,5.178002,27.53,220.4,10,3,1.7,0,0.0,-1,0.0,,0.0,0,1.06,2.4324
145963,1620407241557,,,,,,,,-0.06,-1.01,-0.81,-74,6,-2,1.01,,87,4530,10,25,67,0.772,28.8,364,4.84,12.1,21.7,1,29.4,2.95,6.3,0,0,1,1,0,282,19968,-16896,288,,,,,,,,,,,,,,,,
145983,1620407241577,,,,,,,,-0.05,-0.99,-0.91,-75,8,-1,0.99,,87,4507,10,25,67,0.77,28.6,359,4.88,12.2,21.7,1,29.1,2.94,6.3,0,0,1,1,0,300,250,-16896,286,,,,,,,,,,,,,,,,
146003,1620407241600,,,,,,,,-0.06,-0.9,-1.0,-75,9,-1,0.9,,87,4513,11,25,67,0.768,28.4,369,4.86,12.1,21.7,1,29.2,2.94,6.3,0,0,1,1,0,310,19968,1886,284,,,,,,,,,,,,,,,,
146023,1620407241620,,,,,,,,-0.09,-0.97,-1.02,-75,11,1,0.98,,87,4606,11,25,68,0.767,28.6,372,4.86,12.1,22.0,1,30.8,2.98,6.3,0,0,1,1,0,303,250,1886,285,,,,,,,,,,,,,,,,
146043,1620407241640,1,3,37,25,33,43,-72,-0.13,-0.88,-0.88,-75,10,1,0.89,0,87,4653,11,25,68,0.767,28.3,373,4.8,12.1,22.0,1,31.4,1.91,6.3,0,0,1,1,0,301,19968,1886,283,45.84708,5.178009,26.75,220.3,10,3,1.7,0,0.0,-1,0.0,0.0,0.0,0,1.06,2.4341
146063,1620407241660,,,,,,,,-0.21,-0.93,-0.64,-74,7,-0,0.95,,87,4763,12,25,68,0.766,28.6,379,4.91,12.0,22.0,1,32.9,3.11,6.3,0,0,1,1,0,280,19968,24064,286,,,,,,,,,,,,,,,,
146083,1620407241680,,,,,,,,-0.24,-0.98,-0.42,-74,4,-1,1.0,,87,4725,12,25,69,0.765,28.4,377,4.91,12.1,22.0,1,32.6,3.11,6.3,0,0,1,1,0,270,250,250,286,,,,,,,,,,,,,,,,
146103,1620407241697,,,,,,,,-0.22,-0.96,-0.35,-74,2,-2,0.99,,87,4532,12,25,70,0.765,28.6,380,4.91,12.1,22.0,1,30.2,3.02,6.3,0,0,1,1,0,314,19968,250,286,,,,,,,,,,,,,,,,
146123,1620407241717,,,,,,,,-0.23,-0.98,-0.15,-74,-1,-1,1.01,,87,4447,12,25,71,0.764,28.3,364,4.86,12.1,21.5,1,29.2,2.97,6.1,0,0,1,1,0,330,1596,-16896,283,,,,,,,,,,,,,,,,
146143,1620407241737,3,1,38,26,31,40,-71,-0.23,-0.99,-0.01,-74,-3,-2,1.01,0,87,4583,13,25,71,0.764,28.5,362,4.85,12.1,21.5,1,31.1,3.06,6.1,0,0,1,1,0,300,1596,630,285,45.847084,5.178017,27.03,220.4,10,3,1.7,0,0.0,-1,0.0,,0.0,0,1.06,2.4357
146163,1620407241757,,,,,,,,-0.2,-0.94,-0.02,-74,-2,-2,0.96,,87,4588,13,25,72,0.763,28.6,370,4.87,12.2,21.5,1,31.5,3.09,6.1,0,0,1,1,0,246,10318,250,286,,,,,,,,,,,,,,,,
146183,1620407241777,,,,,,,,-0.16,-0.94,-0.16,-74,-4,-2,0.95,,87,4531,13,25,72,0.764,28.2,368,4.86,12.1,21.5,1,30.6,3.05,6.1,0,0,1,1,0,304,10318,-1529,282,,,,,,,,,,,,,,,,
146203,1620407241799,,,,,,,,-0.11,-0.88,-0.28,-74,-4,-3,0.89,,87,4542,13,25,73,0.765,28.7,366,4.85,12.1,21.5,1,31.0,3.06,6.1,0,0,1,1,0,327,10318,-1529,287,,,,,,,,,,,,,,,,
146223,1620407241819,,,,,,,,-0.07,-0.9,-0.42,-74,-3,-4,0.9,,87,4633,13,25,74,0.766,28.5,361,4.9,12.2,23.0,1,32.6,3.16,6.6,0,0,1,1,0,292,15360,1886,285,,,,,,,,,,,,,,,,
146243,1620407241839,2,2,39,25,31,41,-70,-0.0,-0.88,-0.55,-74,-0,-2,0.88,0,87,4664,13,25,74,0.768,28.2,370,4.88,12.2,23.0,1,33.0,3.18,6.6,0,0,1,1,0,286,250,41,283,45.847088,5.178027,26.84,220.4,10,3,1.7,0,0.0,-1,0.0,0.0,0.0,0,1.06,2.4374
146263,1620407241859,,,,,,,,0.02,-0.84,-0.67,-75,2,-1,0.84,,87,4674,14,25,75,0.77,28.4,374,4.87,12.2,23.0,1,33.4,3.21,6.6,0,0,1,1,0,302,250,41,284,,,,,,,,,,,,,,,,
146283,1620407241879,,,,,,,,-0.0,-0.83,-0.78,-75,3,-2,0.83,,87,4706,14,25,75,0.774,28.7,376,4.82,12.0,23.0,1,33.8,3.25,6.6,0,0,1,1,0,302,15360,10686,287,,,,,,,,,,,,,,,,
146303,1620407241899,,,,,,,,-0.06,-0.88,-0.65,-75,4,-2,0.88,,87,4668,14,25,76,0.777,28.6,379,4.83,12.0,23.0,1,33.6,3.26,6.6,0,0,1,1,0,286,250,41,288,,,,,,,,,,,,,,,,
146323,1620407241919,,,,,,,,-0.12,-0.9,-0.42,-75,3,-3,0.91,,87,4683,14,25,76,0.78,28.9,378,4.88,12.0,24.4,1,33.8,3.25,7.0,0,0,1,1,0,295,19968,80,289,,,,,,,,,,,,,,,,
146343,1620407241939,3,2,39,27,30,42,-67,-0.17,-0.89,-0.22,-76,1,-4,0.91,0,87,4668,14,25,76,0.785,29.0,373,4.9,12.1,24.4,1,33.6,3.24,7.0,0,0,1,1,0,312,1596,21760,290,45.847088,5.178036,26.47,220.3,10,3,1.7,0,0.0,-1,0.0,,0.0,0,1.06,2.439
146363,1620407241959,,,,,,,,-0.17,-0.91,-0.18,-76,0,-3,0.93,,87,4705,14,25,76,0.793,29.5,375,4.88,12.2,24.4,1,34.1,3.27,7.0,0,0,1,1,0,320,15360,0,295,,,,,,,,,,,,,,,,
146383,1620407241979,,,,,,,,-0.13,-0.89,-0.33,-76,0,-3,0.9,,87,4783,14,25,77,0.8,29.1,376,4.88,12.2,24.4,1,35.5,3.35,7.0,0,0,1,1,0,321,250,41,291,,,,,,,,,,,,,,,,
146403,1620407241999,,,,,,,,-0.09,-0.89,-0.47,-77,2,-3,0.9,,87,4867,14,25,77,0.808,29.0,390,4.87,12.1,24.4,1,36.7,3.47,7.0,0,0,1,1,0,325,10824,0,287,,,,,,,,,,,,,,,,
146423,1620407242009,,,,,,,,-0.13,-0.9,-0.27,-77,3,-4,0.91,,87,4895,14,25,77,0.816,28.7,398,4.79,12.0,27.3,1,37.1,3.5,7.9,0,0,1,1,0,318,-1494,41,287,,,,,,,,,,,,,,,,
146443,1620407242029,2,1,37,26,30,43,-63,-0.17,-0.91,-0.13,-77,-1,-4,0.93,0,87,4910,14,25,77,0.824,28.6,389,4.94,12.1,27.3,1,37.4,3.53,7.9,0,0,1,1,0,329,10824,0,286,45.847088,5.178045,26.11,220.4,10,3,1.8,0,0.0,-1,0.0,0.0,0.0,0,1.06,2.4407
146463,1620407242049,,,,,,,,-0.12,-0.91,-0.29,-77,1,-4,0.92,,87,4894,14,25,78,0.832,28.9,391,4.95,12.2,27.3,1,37.4,3.53,7.9,0,0,1,1,0,338,18432,21760,291,,,,,,,,,,,,,,,,
146483,1620407242069,,,,,,,,-0.18,-0.9,-0.11,-78,1,-3,0.92,,87,4931,14,25,78,0.84,29.2,398,4.83,12.0,27.3,1,38.0,3.55,7.9,0,0,1,1,0,342,-1494,80,292,,,,,,,,,,,,,,,,
146503,1620407242100,,,,,,,,-0.15,-0.95,0.02,-77,-0,-4,0.96,,87,5021,14,25,78,0.847,29.3,399,4.86,12.1,27.3,1,39.0,3.63,7.9,0,0,1,1,0,342,250,10686,286,,,,,,,,,,,,,,,,
146523,1620407242120,,,,,,,,-0.12,-0.95,-0.15,-77,1,-3,0.96,,87,5107,14,25,78,0.854,28.9,405,4.91,12.2,29.6,1,38.9,3.68,8.6,0,0,1,1,0,347,18432,-16896,289,,,,,,,,,,,,,,,,
146543,1620407242140,2,2,38,27,30,43,-60,-0.18,-0.92,0.03,-77,1,-3,0.94,0,87,5173,14,25,78,0.861,28.8,416,4.86,12.0,29.6,1,38.8,2.57,8.6,0,0,1,1,0,348,8704,10686,288,45.847088,5.178054,25.94,220.3,10,3,1.8,0,0.0,-1,0.0,,0.0,0,1.06,2.4424
146563,1620407242160,,,,,,,,-0.13,-0.95,-0.14,-77,1,-2,0.96,,87,5208,14,25,77,0.868,29.0,410,4.93,12.2,29.6,1,38.4,3.72,8.6,0,0,1,1,0,352,10824,0,287,,,,,,,,,,,,,,,,
146583,1620407242180,,,,,,,,-0.17,-0.97,0.04,-77,1,-3,0.98,,87,5231,14,25,77,0.875,28.8,416,4.84,12.0,29.6,1,38.3,3.73,8.6,0,0,1,1,0,343,-1494,80,288,,,,,,,,,,,,,,,,
146603,1620407242200,,,,,,,,-0.08,-0.96,-0.13,-77,0,-3,0.96,,87,5209,15,25,77,0.877,29.2,421,4.92,12.1,29.6,1,38.4,3.72,8.6,0,0,1,1,0,337,8704,100,292,,,,,,,,,,,,,,,,
146623,1620407242220,,,,,,,,-0.08,-0.95,0.02,-77,1,-2,0.95,,87,5096,15,25,78,0.878,29.3,411,4.81,12.0,29.5,1,38.9,3.67,8.7,0,0,1,1,0,336,-1483,26880,293,,,,,,,,,,,,,,,,
146643,1620407242240,2,2,39,28,29,40,-58,-0.09,-0.96,0.19,-77,1,-2,0.96,0,87,4905,15,25,78,0.88,29.9,407,4.89,12.1,29.5,1,37.6,3.53,8.7,0,0,1,1,0,319,13602,30720,299,45.847088,5.178064,26.89,220.4,10,3,1.8,0,0.0,-1,0.0,0.0,0.0,0,1.06,2.4441
146663,1620407242260,,,,,,,,-0.06,-0.95,0.01,-77,-1,-3,0.95,,87,4721,15,25,79,0.881,29.9,392,4.94,12.2,29.5,1,35.2,3.42,8.7,0,0,1,1,0,296,-1484,120,299,,,,,,,,,,,,,,,,
146683,1620407242280,,,,,,,,0.0,-0.91,-0.15,-76,-2,-3,0.91,,87,4550,15,25,79,0.88,30.0,376,4.89,12.2,29.5,1,32.7,3.29,8.7,0,0,1,1,0,299,-1484,29440,300,,,,,,,,,,,,,,,,
146703,1620407242300,,,,,,,,0.03,-0.91,-0.31,-76,-1,-2,0.91,,87,4548,16,25,80,0.878,30.1,365,4.85,12.2,29.5,1,33.0,3.34,8.7,0,0,1,1,0,309,-1484,110,301,,,,,,,,,,,,,,,,
146723,1620407242320,,,,,,,,0.06,-0.97,-0.45,-76,-1,-2,0.97,,87,4651,17,25,81,0.877,30.0,362,4.86,12.2,24.1,1,34.8,3.41,7.2,0,0,1,1,0,285,-17920,100,300,,,,,,,,,,,,,,,,
146743,1620407242340,2,2,40,28,31,40,-56,0.09,-0.98,-0.58,-76,2,-3,0.98,0,87,4756,19,25,82,0.876,30.1,375,4.87,12.2,24.1,1,36.6,3.53,7.2,0,0,1,1,0,279,-1445,26880,305,45.847084,5.178073,26.48,220.4,10,3,1.8,0,0.0,-1,0.0,,0.0,0,1.06,2.4457
146763,1620407242360,,,,,,,,0.03,-0.98,-0.45,-75,3,-2,0.98,,87,4826,21,25,83,0.872,30.2,388,4.86,12.1,24.1,1,38.0,3.64,7.2,0,0,1,1,0,301,250,25600,302,,,,,,,,,,,,,,,,
146783,1620407242380,,,,,,,,-0.01,-0.98,-0.25,-75,2,-2,0.98,,87,4886,23,25,85,0.868,30.2,386,4.82,12.0,24.1,1,39.5,3.67,7.2,0,0,1,1,0,342,10812,25600,302,,,,,,,,,,,,,,,,
146803,1620407242397,,,,,,,,0.04,-1.0,-0.4,-74,1,-3,1.0,,87,5026,24,25,87,0.863,30.0,395,4.92,12.1,24.1,1,41.8,3.7,7.2,0,0,1,1,0,345,250,95,300,,,,,,,,,,,,,,,,
146823,1620407242417,,,,,,,,-0.01,-0.98,-0.2,-74,2,-2,0.98,,87,5103,26,25,89,0.859,29.6,406,4.88,12.1,29.3,1,42.2,3.79,8.7,0,0,1,1,0,343,250,95,302,,,,,,,,,,,,,,,,
146843,1620407242437,1,3,39,27,32,42,-50,0.05,-0.98,-0.35,-74,1,-1,0.98,0,87,5308,26,25,90,0.857,29.9,413,4.84,12.1,29.3,1,41.9,4.05,8.7,0,0,1,1,0,348,10812,100,299,45.847084,5.178082,27.3,220.4,10,3,1.8,0,0.0,-1,0.0,0.0,0.0,0,1.06,2.4474
146863,1620407242457,,,,,,,,0.02,-0.97,-0.15,-73,-1,-2,0.97,,87,5464,26,25,90,0.858,30.1,435,4.85,12.0,29.3,1,41.4,4.27,8.7,0,0,1,1,0,333,250,110,300,,,,,,,,,,,,,,,,
146883,1620407242477,,,,,,,,0.06,-0.93,-0.3,-72,0,-2,0.93,,87,5397,26,25,90,0.858,30.1,436,4.94,12.1,29.3,1,41.6,4.17,8.7,0,0,1,1,0,324,-214,120,301,,,,,,,,,,,,,,,,
146903,1620407242498,,,,,,,,0.06,-0.92,-0.11,-72,-2,-3,0.92,,87,5202,27,25,91,0.857,30.6,429,4.83,12.0,29.3,1,42.2,3.97,8.7,0,0,1,1,0,319,-1,-30976,305,,,,,,,,,,,,,,,,
146923,1620407242518,,,,,,,,0.11,-0.91,-0.25,-71,-2,-3,0.91,,87,4964,26,25,92,0.863,30.8,400,4.93,12.2,28.1,1,42.3,3.71,8.7,0,0,1,1,0,335,-1,-25856,308,,,,,,,,,,,,,,,,
146943,1620407242538,1,2,41,30,29,38,-42,0.18,-0.88,-0.39,-70,-0,-2,0.9,0,87,4872,26,25,92,0.874,31.1,392,4.83,12.1,28.1,1,41.1,3.79,8.7,0,0,1,1,0,317,-41,-24576,311,45.84708,5.178091,27.28,220.5,10,3,1.8,0,0.0,-1,0.0,,0.0,0,1.07,2.449
146963,1620407242558,,,,,,,,0.12,-0.87,-0.19,-69,-1,-2,0.87,,87,4863,26,25,92,0.884,31.4,391,4.81,11.9,28.1,1,40.9,3.79,8.7,0,0,1,1,0,292,-1,-28416,314,,,,,,,,,,,,,,,,
146983,1620407242578,,,,,,,,0.11,-0.86,-0.01,-67,-3,-3,0.86,,87,4820,26,25,92,0.894,31.3,393,4.82,12.0,28.1,1,40.4,3.86,8.7,0,0,1,1,0,296,-1,135,313,,,,,,,,,,,,,,,,
147003,1620407242600,,,,,,,,0.14,-0.89,-0.06,-66,-4,-4,0.9,,87,4727,25,25,93,0.909,31.0,387,4.9,12.1,28.1,1,39.4,3.88,8.7,0,0,1,1,0,323,250,-30976,310,,,,,,,,,,,,,,,,
147023,1620407242620,,,,,,,,0.2,-0.83,-0.22,-64,-3,-3,0.85,,87,4791,25,25,92,0.929,31.2,379,4.93,12.2,27.3,1,39.9,3.8,8.5,0,0,1,1,0,325,2414,130,312,,,,,,,,,,,,,,,,
147043,1620407242640,1,3,40,32,28,38,-41,0.16,-0.85,-0.32,-63,-1,-2,0.86,0,87,4927,26,25,93,0.95,31.3,387,4.87,12.1,27.3,1,41.8,3.84,8.5,0,0,1,1,0,307,250,135,314,45.847076,5.1781,28.91,220.5,10,3,1.8,0,0.0,-1,0.0,0.0,0.0,0,1.07,2.4507
147063,1620407242660,,,,,,,,0.15,-0.83,-0.13,-62,-3,-2,0.84,,87,5032,26,25,93,0.971,31.0,399,4.8,12.0,27.3,1,42.8,3.85,8.5,0,0,1,1,0,290,-1527,-29696,310,,,,,,,,,,,,,,,,
147083,1620407242680,,,,,,,,0.23,-0.79,-0.28,-60,-1,-2,0.82,,87,5078,27,25,93,0.989,31.6,397,4.95,12.2,27.3,1,42.6,3.91,8.5,0,0,1,1,0,297,-1534,-28416,316,,,,,,,,,,,,,,,,
147103,1620407242700,,,,,,,,0.2,-0.72,-0.09,-59,-1,-3,0.74,,87,5113,27,25,93,1.004,31.7,410,4.81,12.0,27.3,1,42.5,3.96,8.5,0,0,1,1,0,331,1886,145,317,,,,,,,,,,,,,,,,
147123,1620407242720,,,,,,,,0.18,-0.69,-0.25,-58,-2,-3,0.72,,87,5201,27,25,92,1.018,32.1,413,4.94,12.1,29.6,1,42.2,4.03,9.4,0,0,1,1,0,348,250,-25856,321,,,,,,,,,,,,,,,,
147143,1620407242740,1,2,39,31,29,37,-31,0.16,-0.65,-0.11,-57,-2,-2,0.67,0,87,5322,28,25,92,1.034,32.2,420,4.8,12.0,29.6,1,41.7,4.19,9.4,0,0,1,1,0,357,10686,-24576,321,45.847073,5.178108,29.58,220.5,10,3,1.8,0,0.0,-1,0.0,,0.0,0,1.07,2.4524
147163,1620407242760,,,,,,,,0.21,-0.64,-0.27,-55,-0,-1,0.68,,87,5358,28,25,92,1.049,32.1,426,4.92,12.2,29.6,1,41.7,4.24,9.4,0,0,1,1,0,298,0,-20736,321,,,,,,,,,,,,,,,,
147183,1620407242780,,,,,,,,0.19,-0.67,-0.08,-54,-2,-1,0.7,,87,5340,28,25,92,1.058,32.7,430,4.8,12.0,29.6,1,41.9,4.22,9.4,0,0,1,1,0,312,0,-6528,327,,,,,,,,,,,,,,,,
147203,1620407242800,,,,,,,,0.27,-0.62,-0.24,-52,-2,-2,0.68,,87,5166,28,25,92,1.066,32.6,415,4.93,12.2,29.6,1,42.3,3.98,9.4,0,0,1,1,0,342,100,-6528,325,,,,,,,,,,,,,,,,
147223,1620407242820,,,,,,,,0.21,-0.59,-0.12,-51,-2,-2,0.62,,87,5118,28,25,93,1.074,32.8,414,4.84,12.1,28.6,1,42.5,2.82,9.4,0,0,1,1,0,354,26880,4838,328,,,,,,,,,,,,,,,,
147243,1620407242840,-0,2,38,33,28,35,-25,0.26,-0.58,-0.28,-49,-3,-2,0.64,0,87,5238,28,25,93,1.083,33.1,423,4.86,12.1,28.6,1,42.1,4.14,9.4,0,0,1,1,0,331,105,4838,331,45.847065,5.178115,29.95,220.6,10,3,1.8,0,0.0,-1,0.0,0.0,0.0,0,1.07,2.4541
147263,1620407242860,,,,,,,,0.25,-0.56,-0.09,-48,-4,-2,0.61,,87,5387,28,25,93,1.083,33.3,430,4.84,12.0,28.6,1,41.7,4.34,9.4,0,0,1,1,0,315,110,13,333,,,,,,,,,,,,,,,,
147283,1620407242880,,,,,,,,0.27,-0.56,-0.25,-47,-2,-2,0.62,,88,5456,28,25,92,1.084,33.7,430,4.95,12.1,28.6,1,41.4,4.38,9.4,0,0,1,1,0,326,115,-122,333,,,,,,,,,,,,,,,,
147303,1620407242900,,,,,,,,0.3,-0.59,-0.06,-45,-5,-3,0.66,,88,5448,28,25,92,1.083,33.3,440,4.82,12.0,28.6,1,41.5,4.36,9.4,0,0,1,1,0,355,130,-31206,333,,,,,,,,,,,,,,,,
147323,1620407242920,,,,,,,,0.26,-0.52,-0.04,-44,-4,-2,0.58,,88,5461,29,25,92,1.083,33.9,429,4.87,12.1,32.6,1,41.4,4.38,11.0,0,0,1,1,0,371,32000,-10554,339,,,,,,,,,,,,,,,,
147343,1620407242940,1,2,38,34,27,35,-21,0.28,-0.54,-0.2,-43,-2,-1,0.61,0,88,5557,29,25,92,1.083,33.8,435,4.91,12.1,32.6,1,41.1,4.51,11.0,0,0,1,1,0,363,-30976,8841,338,45.847061,5.178122,31.61,220.6,10,3,1.8,0,0.0,-1,0.0,,0.0,0,1.07,2.4557
147363,1620407242960,,,,,,,,0.33,-0.58,-0.35,-42,-3,-2,0.67,,88,5692,29,25,91,1.081,34.3,460,4.83,12.0,32.6,1,40.7,4.64,11.0,0,0,1,1,0,322,140,4104,343,,,,,,,,,,,,,,,,
147383,1620407242980,,,,,,,,0.29,-0.59,-0.16,-41,-5,-3,0.66,,88,5654,29,25,91,1.081,34.6,469,4.78,12.0,32.6,1,40.8,4.58,11.0,0,0,1,1,0,347,165,-6644,346,,,,,,,,,,,,,,,,
147403,1620407242992,,,,,,,,0.25,-0.51,-0.01,-40,-3,-3,0.57,,88,5605,29,25,91,1.08,34.4,448,4.87,12.1,32.6,1,41.0,4.52,11.0,0,0,1,1,0,396,-25856,-6644,344,,,,,,,,,,,,,,,,
147423,1620407243012,,,,,,,,0.27,-0.49,-0.18,-40,-0,-2,0.56,,88,5678,29,25,91,1.078,35.0,452,4.92,12.1,34.1,1,40.7,4.62,11.9,0,0,1,1,0,371,-25856,-29302,350,,,,,,,,,,,,,,,,
147443,1620407243032,0,2,38,34,26,34,-18,0.32,-0.54,-0.33,-39,3,-1,0.63,0,88,5756,29,25,90,1.074,35.6,472,4.87,12.1,34.1,1,40.5,4.66,11.9,0,0,1,1,0,342,-22016,-6458,356,45.847054,5.178129,32.99,220.5,10,3,1.8,0,0.0,-1,0.0,0.0,0.0,0,1.07,2.4574
147463,1620407243052,,,,,,,,0.37,-0.59,-0.47,-38,1,-1,0.7,,88,5788,29,25,90,1.071,35.2,481,4.82,12.0,34.1,1,40.4,4.71,11.9,0,0,1,1,0,348,-6528,-6656,352,,,,,,,,,,,,,,,,
147483,1620407243072,,,,,,,,0.39,-0.55,-0.26,-37,-3,-3,0.67,,88,5785,29,25,90,1.067,35.9,480,4.84,12.1,34.1,1,40.4,4.7,11.9,0,0,1,1,0,377,-32559,230,359,,,,,,,,,,,,,,,,
147503,1620407243099,,,,,,,,0.39,-0.52,-0.07,-37,-6,-5,0.65,,88,5888,29,25,90,1.07,35.6,472,4.81,12.0,34.1,1,40.1,4.84,11.9,0,0,1,1,0,414,3346,0,356,,,,,,,,,,,,,,,,
147523,1620407243119,,,,,,,,0.33,-0.42,0.1,-36,-12,-6,0.53,,88,6058,29,25,90,1.072,36.2,487,4.81,12.0,38.7,1,40.2,4.96,13.9,0,0,1,1,0,368,2560,770,362,,,,,,,,,,,,,,,,
147543,1620407243139,-0,0,39,33,28,33,-15,0.32,-0.38,0.26,-35,-18,-9,0.5,0,88,6167,29,25,89,1.074,36.2,510,4.81,12.0,38.7,1,41.1,4.81,13.9,0,0,1,1,0,356,-10554,-6656,362,45.847046,5.178135,34.7,220.6,10,3,1.8,0,0.0,-1,0.0,,0.0,0,1.07,2.459
147563,1620407243159,,,,,,,,0.32,-0.43,0.4,-34,-22,-10,0.53,,88,6169,29,25,89,1.076,37.0,517,4.81,12.0,38.7,1,41.1,4.81,13.9,0,0,1,1,0,383,-30438,-992,370,,,,,,,,,,,,,,,,
147583,1620407243179,,,,,,,,0.37,-0.5,0.46,-34,-24,-10,0.62,,88,6196,28,25,88,1.076,37.2,512,4.83,12.1,38.7,1,41.1,3.57,13.9,0,0,1,1,0,413,-1246,-6656,372,,,,,,,,,,,,,,,,
147603,1620407243201,,,,,,,,0.44,-0.59,0.26,-33,-21,-9,0.73,,88,6319,27,25,87,1.077,37.1,511,4.87,12.1,38.7,1,41.9,4.58,13.9,0,0,1,1,0,385,2811,1,371,,,,,,,,,,,,,,,,
147623,1620407243221,,,,,,,,0.41,-0.5,0.07,-33,-13,-6,0.64,,88,6394,26,25,87,1.078,37.8,520,4.85,12.0,35.9,1,42.5,4.53,13.4,0,0,1,1,0,380,-6644,505,378,,,,,,,,,,,,,,,,
147643,1620407243241,1,2,40,35,26,32,-14,0.33,-0.43,0.23,-32,-22,-7,0.55,0,88,6328,25,25,86,1.079,38.1,525,4.8,12.0,35.9,1,41.6,4.5,13.4,0,0,1,1,0,417,-29302,-32702,379,45.847038,5.178141,35.88,220.6,10,3,1.8,0,0.0,-1,0.0,0.0,0.0,0,1.07,2.4607
147663,1620407243261,,,,,,,,0.4,-0.52,0.38,-32,-25,-8,0.65,,88,6304,25,25,85,1.069,38.6,530,4.78,12.0,35.9,1,41.1,4.45,13.4,0,0,1,1,0,438,2790,-26615,383,,,,,,,,,,,,,,,,
147683,1620407243281,,,,,,,,0.46,-0.56,0.18,-32,-19,-8,0.73,,88,6461,25,25,84,1.057,38.8,525,4.88,12.1,35.9,1,42.0,4.3,13.4,0,0,1,1,0,417,-6405,11545,388,,,,,,,,,,,,,,,,
147703,1620407243299,,,,,,,,0.38,-0.44,-0.0,-32,-17,-7,0.59,,88,6630,24,25,84,1.046,38.7,542,4.83,12.0,35.9,1,43.2,4.23,13.4,0,0,1,1,0,389,1,13040,387,,,,,,,,,,,,,,,,
147723,1620407243319,,,,,,,,0.39,-0.49,0.17,-32,-21,-7,0.63,,88,6588,24,25,84,1.034,39.6,535,4.82,12.1,32.8,1,42.9,4.24,12.9,0,0,1,1,0,422,486,13040,396,,,,,,,,,,,,,,,,
147743,1620407243339,1,2,39,35,27,34,-10,0.44,-0.41,-0.01,-32,-12,-5,0.6,0,88,6599,24,25,84,1.009,40.2,534,4.88,12.0,32.8,1,43.0,4.24,12.9,0,0,1,1,0,428,-6656,-8165,397,45.847031,5.178147,37.45,220.7,10,3,1.8,0,0.0,-1,0.0,,0.0,0,1.07,2.4624
147763,1620407243359,,,,,,,,0.41,-0.42,0.15,-32,-14,-7,0.59,,88,6696,24,25,83,0.977,40.5,547,4.81,12.1,32.8,1,43.3,4.14,12.9,0,0,1,1,0,396,-6656,-768,405,,,,,,,,,,,,,,,,
147783,1620407243379,,,,,,,,0.43,-0.46,-0.03,-32,-10,-5,0.63,,88,6732,24,25,83,0.944,40.5,550,4.93,12.1,32.8,1,43.6,4.12,12.9,0,0,1,1,0,426,3,-9166,405,,,,,,,,,,,,,,,,
147803,1620407243401,,,,,,,,0.35,-0.4,0.14,-31,-19,-7,0.53,,88,6781,24,25,83,0.912,40.8,556,4.81,12.1,32.8,1,44.0,4.09,12.9,0,0,1,1,0,430,-6656,3635,402,,,,,,,,,,,,,,,,
147823,1620407243421,,,,,,,,0.42,-0.48,-0.03,-31,-11,-5,0.63,,88,6838,24,25,83,0.88,40.6,556,4.89,12.0,31.4,1,44.4,4.07,12.8,0,0,1,1,0,436,-3866,243,406,,,,,,,,,,,,,,,,
147843,1620407243441,1,1,39,36,26,34,-4,0.43,-0.41,0.13,-31,-9,-8,0.59,0,88,6903,24,25,83,0.854,40.4,565,4.79,12.1,31.4,1,44.8,4.03,12.8,0,0,1,1,0,438,-6524,1779,404,45.847023,5.178153,39.07,220.7,10,3,1.8,0,0.0,-1,0.0,0.0,0.0,0,1.07,2.4641
147863,1620407243461,,,,,,,,0.43,-0.35,-0.04,-30,-8,-5,0.56,,88,6931,23,25,83,0.827,41.3,566,4.94,12.0,31.4,1,45.0,4.02,12.8,0,0,1,1,0,457,505,-3322,415,,,,,,,,,,,,,,,,
147883,1620407243481,,,,,,,,0.4,-0.42,-0.21,-30,-9,-5,0.58,,88,6959,23,25,82,0.799,41.3,561,4.9,12.1,31.4,1,44.9,3.99,12.8,0,0,1,1,0,435,-1818,21580,413,,,,,,,,,,,,,,,,
147903,1620407243499,,,,,,,,0.4,-0.35,-0.02,-29,-8,-6,0.53,,88,6996,23,25,82,0.777,41.9,570,4.83,12.0,31.4,1,45.1,3.97,12.8,0,0,1,1,0,417,28696,-3267,418,,,,,,,,,,,,,,,,
147923,1620407243519,,,,,,,,0.38,-0.36,-0.19,-29,-6,-3,0.53,,88,6972,23,25,81,0.767,41.7,566,4.9,12.0,30.4,1,44.5,3.97,12.8,0,0,1,1,0,449,-8151,20625,417,,,,,,,,,,,,,,,,
147943,1620407243539,0,1,36,35,26,34,2,0.38,-0.38,-0.16,-28,-6,-3,0.54,0,88,6983,23,25,81,0.758,42.0,565,4.86,12.0,30.4,1,44.6,3.96,12.8,0,0,1,1,0,459,28696,21580,421,45.847012,5.178158,40.42,220.7,10,3,1.8,0,0.0,-1,0.0,,0.0,0,1.07,2.4657
147963,1620407243559,,,,,,,,0.4,-0.36,0.02,-27,-4,-4,0.54,,88,7070,23,25,81,0.748,42.1,573,4.84,12.1,30.4,1,44.3,3.99,12.8,0,0,1,1,0,429,13040,16408,421,,,,,,,,,,,,,,,,
147983,1620407243579,,,,,,,,0.37,-0.32,-0.14,-25,-6,-3,0.49,,88,7175,23,25,80,0.743,42.7,580,4.88,11.9,30.4,1,43.2,4.05,12.8,0,0,1,1,0,435,2524,243,425,,,,,,,,,,,,,,,,
148003,1620407243599,,,,,,,,0.41,-0.24,-0.3,-24,-3,-2,0.48,,88,7183,22,25,80,0.751,42.6,579,4.91,12.1,30.4,1,43.2,4.05,12.8,0,0,1,1,0,455,-21792,21580,426,,,,,,,,,,,,,,,,
148023,1620407243619,,,,,,,,0.47,-0.3,-0.11,-22,-4,-2,0.56,,88,7142,23,25,79,0.76,42.8,586,4.87,12.0,31.2,1,43.2,4.0,13.2,0,0,1,1,0,473,-8165,-8985,426,,,,,,,,,,,,,,,,
148043,1620407243639,0,1,35,34,26,33,8,0.47,-0.24,0.07,-21,-5,-4,0.53,0,88,7123,22,25,79,0.769,42.7,593,4.79,12.1,31.2,1,43.3,3.99,13.2,0,0,1,1,0,434,3635,-26615,427,45.847004,5.178163,42.28,220.7,10,3,1.8,0,0.0,-1,0.0,0.0,0.0,0,1.08,2.4674
148063,1620407243659,,,,,,,,0.51,-0.2,-0.1,-19,-5,-2,0.54,,88,7056,21,25,79,0.777,43.0,583,4.82,12.0,31.2,1,43.8,3.95,13.2,0,0,1,1,0,466,-3856,10305,438,,,,,,,,,,,,,,,,
148083,1620407243679,,,,,,,,0.54,-0.24,-0.26,-18,-1,-0,0.59,,88,7038,20,25,78,0.785,43.7,577,4.9,12.1,31.2,1,43.6,3.93,13.2,0,0,1,1,0,451,19477,-6387,435,,,,,,,,,,,,,,,,
148103,1620407243699,,,,,,,,0.53,-0.22,-0.07,-16,-5,-2,0.58,,88,7094,20,25,77,0.793,43.8,582,4.88,12.1,31.2,1,43.0,3.93,13.2,0,0,1,1,0,442,-3322,14488,429,,,,,,,,,,,,,,,,
148123,1620407243719,,,,,,,,0.52,-0.23,0.07,-15,-4,-2,0.57,,88,7172,20,25,77,0.801,44.6,590,4.82,11.9,29.9,1,42.6,3.97,13.1,0,0,1,1,0,451,16648,2524,436,,,,,,,,,,,,,,,,
148143,1620407243739,1,2,33,32,29,32,11,0.52,-0.13,-0.1,-13,-2,-1,0.54,0,88,7208,20,25,76,0.808,44.1,596,4.81,12.0,29.9,1,42.3,3.97,13.1,0,0,1,1,0,453,21432,-9160,438,45.846989,5.178167,43.58,220.7,10,3,1.8,0,0.0,-1,0.0,,0.0,0,1.08,2.469
148163,1620407243759,,,,,,,,0.54,-0.13,-0.26,-11,-4,0,0.56,,88,7231,20,25,75,0.808,44.7,589,4.88,12.0,29.9,1,41.8,3.92,13.1,0,0,1,1,0,451,10305,-26615,446,,,,,,,,,,,,,,,,
148183,1620407243779,,,,,,,,0.54,-0.14,-0.22,-10,-2,0,0.56,,88,7267,20,25,75,0.808,45.0,596,4.88,12.0,29.9,1,41.7,3.93,13.1,0,0,1,1,0,453,-3267,3571,440,,,,,,,,,,,,,,,,
148203,1620407243801,,,,,,,,0.45,-0.12,-0.03,-8,-4,-0,0.47,,88,7304,20,25,74,0.808,44.6,596,4.84,12.1,29.9,1,41.4,2.74,13.1,0,0,1,1,0,462,26704,2211,442,,,,,,,,,,,,,,,,
148223,1620407243821,,,,,,,,0.52,-0.11,0.14,-7,-3,-0,0.53,,88,7355,20,25,74,0.808,45.4,603,4.91,12.1,29.6,1,41.2,3.9,13.2,0,0,1,1,0,463,14488,12552,451,,,,,,,,,,,,,,,,
148243,1620407243841,1,1,32,35,29,29,14,0.42,-0.05,0.29,-5,-5,-0,0.42,0,88,7327,20,25,73,0.803,46.0,600,4.77,12.1,29.6,1,41.1,3.83,13.2,0,0,1,1,0,465,-23623,16408,448,45.846981,5.178171,44.96,220.7,10,3,1.8,0,0.0,-1,0.0,0.0,0.0,0,1.08,2.4707
148263,1620407243861,,,,,,,,0.37,-0.01,0.43,-4,-6,-1,0.37,,88,7318,20,25,73,0.798,45.3,604,4.85,12.1,29.6,1,41.1,3.89,13.2,0,0,1,1,0,465,-8985,505,453,,,,,,,,,,,,,,,,
148283,1620407243881,,,,,,,,0.32,0.05,0.55,-3,-7,-1,0.32,,88,7399,20,24,73,0.792,45.5,606,4.88,12.0,29.6,1,40.8,3.87,13.2,0,0,1,1,0,463,14488,-3210,452,,,,,,,,,,,,,,,,
148303,1620407243899,,,,,,,,0.31,0.04,0.67,-1,-8,-0,0.31,,88,7464,20,24,73,0.787,46.1,616,4.79,12.0,29.6,1,40.6,3.89,13.2,0,0,1,1,0,464,-18108,6193,446,,,,,,,,,,,,,,,,
148323,1620407243919,,,,,,,,0.27,0.07,0.65,-0,-7,-1,0.28,,88,7494,20,24,73,0.781,45.7,611,4.81,12.0,29.7,1,40.5,3.9,13.5,0,0,1,1,0,473,-9160,-1923,447,,,,,,,,,,,,,,,,
148343,1620407243939,0,2,37,38,32,28,12,0.26,0.13,0.77,1,-7,-1,0.29,0,88,7527,20,24,72,0.774,46.2,615,4.81,12.0,29.7,1,40.2,3.84,13.5,0,0,1,1,0,471,12552,-23367,450,45.846966,5.178175,45.65,220.8,10,3,1.8,0,0.0,-1,0.0,,0.0,0,1.08,2.4724
148363,1620407243959,,,,,,,,0.24,0.1,0.87,2,-8,-1,0.27,,88,7551,20,24,72,0.769,46.7,617,4.83,12.0,29.7,1,40.1,3.85,13.5,0,0,1,1,0,479,243,8488,452,,,,,,,,,,,,,,,,
148383,1620407243979,,,,,,,,0.22,0.11,0.76,4,-7,-1,0.25,,88,7575,20,24,72,0.763,46.4,621,4.87,12.0,29.7,1,40.0,3.85,13.5,0,0,1,1,0,476,16408,-4054,453,,,,,,,,,,,,,,,,
148403,1620407243992,,,,,,,,0.1,0.14,0.76,5,-5,-1,0.17,,88,7681,21,24,72,0.758,47.1,627,4.87,11.9,29.7,1,39.7,3.88,13.5,0,0,1,1,0,484,32033,2524,451,,,,,,,,,,,,,,,,
