"Interval"|"ms"|0|0|1,"Utc"|"ms"|0|0|1,"Brake_F"|"Bar"|0|2000|10,"Brake_R"|"Bar"|0|2000|10,"Height_RF"|"mm"|0|255|10,"Height_LF"|"mm"|0|255|10,"Height_LR"|"mm"|0|80|10,"Height_RR"|"mm"|0|255|10,"Steering"|"deg"|-100|100|10,"AccelX"|"G"|-3.0|3.0|50,"AccelY"|"G"|-3.0|3.0|50,"AccelZ"|"G"|-3.0|3.0|50,"Yaw"|"Deg/Sec"|-120|120|50,"Pitch"|"Deg/Sec"|-120|120|50,"Roll"|"Deg/Sec"|-120|120|50,"Gsum"|"G"|0.0|3.0|50,"Log_Button"|""|0.0|10.0|10,"WaterTemp"|"C"|0|150|50,"RPM"|"tr/min"|0|14000|50,"TPS"|"%"|0|100|50,"AirTemp"|"C"|0|150|50,"MAP"|"KPa"|0|100|50,"Lambda"|""|0.5|1.5|50,"SpeedDTA"|"kph"|0.0|250.0|50,"OilPress"|"KPa"|0|1500|50,"FuelPressur"|"Bar"|0.0|10.0|50,"Batterie"|"V"|0.0|20.0|50,"ConsoKm"|"L/100km"|0.0|200.0|50,"Gear"|""|0|6|50,"AdvIgnition"|"Deg"|-20.0|70.0|50,"Injection"|"ms"|0.0|10.0|50,"ConsoHr"|"L/Hr"|0.0|10000.0|50,"LC_But_Pres"|""|0|1|50,"LC_Active"|""|0|1|50,"TractionOn"|""|0|1|50,"TractionWet"|""|0|1|50,"FanOn"|""|0|1|50,"RD_Speed"|"km/h"|-30|250|50,"RUD_Speed"|"km/h"|-30|250|50,"LD_Speed"|"km/h"|-30|250|50,"LUD_Speed"|"km/h"|-30|250|50,"Latitude"|"Degrees"|-180.0|180.0|10,"Longitude"|"Degrees"|-180.0|180.0|10,"Speed"|"kph"|0.0|150.0|10,"Altitude"|"m"|0.0|4000.0|10,"GPSSats"|""|0|20|10,"GPSQual"|""|0|5|10,"GPSDOP"|""|0.0|20.0|10,"LapCount"|""|0|0|10,"LapTime"|"Min"|0.0|0.0|10,"Sector"|""|0|0|10,"SectorTime"|"Min"|0.0|0.0|10,"PredTime"|"Min"|0.0|0.0|5,"ElapsedTime"|"Min"|0.0|0.0|10,"CurrentLap"|""|0|0|10,"Distance"|"km"|0.0|0.0|10,"SessionTime"|"Min"|0.0|0.0|10
241863,1620407337459,,,,,,,,-0.32,0.23,-0.37,5,1,0,0.39,,85,8095,9,22,31,0.914,52.5,646,4.9,12.0,16.2,1,28.8,2.1,8.5,0,0,0,1,0,516,2088,-3482,512,,,,,,,,,,,,,,,,
241883,1620407337479,,,,,,,,-0.25,0.27,-0.47,5,1,-0,0.37,,85,8106,9,22,31,0.932,52.1,623,4.83,12.2,15.0,1,28.8,2.09,7.8,0,0,0,1,0,513,-9212,26178,515,,,,,,,,,,,,,,,,
241903,1620407337505,,,,,,,,-0.33,0.27,-0.3,6,-0,-1,0.43,,85,8085,9,22,31,0.955,51.9,639,4.9,12.1,15.0,1,28.8,2.09,7.8,0,0,0,1,0,510,-8187,-28648,515,,,,,,,,,,,,,,,,
241923,1620407337525,,,,,,,,-0.29,0.29,-0.44,6,1,-0,0.41,,85,8120,9,23,30,0.973,51.6,631,4.8,12.1,15.0,1,28.5,2.12,7.8,0,0,0,1,0,511,16383,-28648,513,,,,,,,,,,,,,,,,
241943,1620407337545,3,2,22,27,36,35,9,-0.26,0.29,-0.34,6,1,-1,0.39,0,85,8123,9,23,30,0.983,51.6,643,4.91,12.1,15.0,1,28.5,2.12,7.8,0,0,0,1,0,511,1248,-32248,508,45.846825,5.178198,54.14,220.1,10,3,1.9,0,0.0,-1,0.0,,0.0,0,2.11,4.0324
241963,1620407337565,,,,,,,,-0.3,0.25,-0.48,6,2,-0,0.39,,85,8159,9,23,30,0.993,51.9,639,4.93,12.1,15.0,1,28.6,2.14,7.8,0,0,0,1,0,512,10408,-28648,508,,,,,,,,,,,,,,,,
241983,1620407337585,,,,,,,,-0.26,0.25,-0.47,7,-0,-1,0.36,,85,8113,9,23,29,1.002,51.8,636,4.83,12.1,15.9,1,28.2,2.11,8.1,0,0,0,1,0,514,1341,2109,506,,,,,,,,,,,,,,,,
242003,1620407337598,,,,,,,,-0.23,0.24,-0.6,7,1,-0,0.33,,85,8061,9,23,29,1.014,51.4,640,4.91,12.1,15.9,1,28.2,2.09,8.1,0,0,0,1,0,512,-3482,15661,505,,,,,,,,,,,,,,,,
242023,1620407337618,,,,,,,,-0.24,0.27,-0.59,8,2,0,0.36,,85,8033,9,23,29,1.012,50.9,625,4.82,12.1,15.9,1,28.1,2.03,8.1,0,0,0,1,0,511,17136,15661,505,,,,,,,,,,,,,,,,
242043,1620407337638,3,1,22,28,36,34,9,-0.29,0.27,-0.48,8,-1,-1,0.4,0,85,7948,9,23,29,1.006,51.6,626,4.84,12.2,15.9,1,28.1,2.03,8.1,0,0,0,1,0,511,26178,15661,505,45.846836,5.178188,53.51,220.1,10,3,2.1,0,0.0,-1,0.0,0.0,0.0,0,2.12,4.034
242063,1620407337658,,,,,,,,-0.27,0.23,-0.61,8,0,-1,0.35,,85,7881,9,23,30,0.996,51.4,631,4.91,12.1,14.7,1,28.3,2.01,7.3,0,0,0,1,0,511,-3482,-22519,504,,,,,,,,,,,,,,,,
242083,1620407337678,,,,,,,,-0.29,0.27,-0.73,9,2,-0,0.39,,85,7904,9,23,30,0.99,51.3,624,4.95,12.1,14.7,1,28.4,2.01,7.3,0,0,0,1,0,507,26178,-9216,492,,,,,,,,,,,,,,,,
242103,1620407337705,,,,,,,,-0.3,0.28,-0.5,9,0,-0,0.41,,85,7918,9,23,30,0.974,51.1,619,4.87,12.2,14.7,1,28.4,2.01,7.3,0,0,0,1,0,502,-3856,-6528,497,,,,,,,,,,,,,,,,
242123,1620407337725,,,,,,,,-0.35,0.23,-0.47,10,-1,-2,0.42,,85,7971,9,23,30,0.959,50.8,624,4.85,12.2,14.7,1,28.4,2.01,7.3,0,0,0,1,0,503,-3856,-6528,499,,,,,,,,,,,,,,,,
242143,1620407337745,3,2,21,29,35,34,11,-0.33,0.21,-0.6,10,0,-1,0.39,0,85,7958,9,23,30,0.939,50.3,636,4.9,12.1,14.7,1,28.4,2.01,7.3,0,0,0,1,0,506,-22519,-32768,494,45.846848,5.178179,52.63,220.0,10,3,2.0,0,0.0,-1,0.0,,0.0,0,2.12,4.0357
242163,1620407337765,,,,,,,,-0.31,0.26,-0.38,11,-1,-1,0.41,,85,7961,9,23,30,0.913,50.6,623,4.86,12.2,15.0,1,28.4,2.01,7.4,0,0,0,1,0,503,-28648,-32768,491,,,,,,,,,,,,,,,,
242183,1620407337785,,,,,,,,-0.3,0.29,-0.19,11,-2,-2,0.42,,85,7908,9,23,30,0.892,51.3,628,4.9,12.1,15.0,1,28.4,2.01,7.4,0,0,0,1,0,502,26178,248,493,,,,,,,,,,,,,,,,
242203,1620407337797,,,,,,,,-0.32,0.26,-0.34,11,-3,-3,0.41,,85,7861,9,23,30,0.873,50.7,633,4.9,12.1,15.0,1,28.3,2.01,7.4,0,0,0,1,0,504,-21872,248,487,,,,,,,,,,,,,,,,
242223,1620407337817,,,,,,,,-0.32,0.29,-0.47,12,-1,-1,0.43,,85,7763,9,23,30,0.859,50.0,629,4.92,12.1,15.0,1,28.3,2.01,7.4,0,0,0,1,0,501,15661,505,488,,,,,,,,,,,,,,,,
242243,1620407337837,4,2,23,29,36,33,11,-0.24,0.32,-0.47,12,1,-0,0.4,0,85,7741,9,23,31,0.841,49.6,617,4.92,12.1,15.0,1,28.6,2.01,7.4,0,0,0,1,0,496,15661,-1562,482,45.846859,5.178169,51.28,219.9,10,3,2.0,0,0.0,-1,0.0,0.0,0.0,0,2.12,4.0374
242263,1620407337857,,,,,,,,-0.26,0.35,-0.28,12,1,-0,0.44,,85,7712,9,23,31,0.82,50.3,606,4.84,12.2,14.5,1,28.6,1.99,7.1,0,0,0,1,0,496,15661,-10483,488,,,,,,,,,,,,,,,,
242283,1620407337877,,,,,,,,-0.24,0.36,-0.15,13,-0,-0,0.43,,85,7767,9,23,31,0.812,50.3,607,4.88,12.2,14.5,1,28.6,1.99,7.1,0,0,0,1,0,491,2109,32033,487,,,,,,,,,,,,,,,,
242303,1620407337905,,,,,,,,-0.28,0.39,-0.21,13,-2,-1,0.48,,85,7741,9,23,31,0.804,49.7,609,4.93,12.1,14.5,1,28.6,1.99,7.1,0,0,0,1,0,494,-9216,8488,482,,,,,,,,,,,,,,,,
242323,1620407337925,,,,,,,,-0.29,0.4,-0.36,13,-1,-1,0.5,,85,7754,9,23,32,0.797,49.5,614,4.95,12.2,14.5,1,29.0,1.96,7.1,0,0,0,1,0,487,771,16648,483,,,,,,,,,,,,,,,,
242343,1620407337945,6,4,23,27,37,34,12,-0.31,0.39,-0.5,14,1,-1,0.5,0,85,7700,9,23,32,0.788,49.5,602,4.87,12.0,14.5,1,29.0,1.96,7.1,0,0,0,1,0,490,771,32033,479,45.846867,5.178158,50.76,219.7,10,3,2.0,0,0.0,-1,0.0,,0.0,0,2.12,4.0391
242363,1620407337965,,,,,,,,-0.28,0.41,-0.57,14,1,-1,0.5,,85,7662,9,23,32,0.788,48.7,610,4.91,12.1,14.5,1,29.0,1.96,7.1,0,0,0,1,0,488,505,2212,479,,,,,,,,,,,,,,,,
242383,1620407337985,,,,,,,,-0.25,0.44,-0.69,14,3,0,0.51,,85,7606,9,23,32,0.788,49.0,605,4.88,12.0,14.4,1,29.0,1.96,6.9,0,0,0,1,0,488,-1818,-23367,479,,,,,,,,,,,,,,,,
242403,1620407337993,,,,,,,,-0.21,0.41,-0.8,14,1,0,0.46,,85,7581,9,23,33,0.788,49.5,600,4.83,12.1,14.4,1,29.2,1.96,6.9,0,0,0,1,0,488,771,3576,473,,,,,,,,,,,,,,,,
242423,1620407338013,,,,,,,,-0.19,0.4,-0.9,14,3,1,0.44,,85,7536,9,23,33,0.788,48.4,602,4.84,12.2,14.4,1,29.2,2.01,6.9,0,0,0,1,0,482,-10483,-1923,473,,,,,,,,,,,,,,,,
242443,1620407338033,7,4,22,27,37,34,10,-0.19,0.39,-0.88,14,2,1,0.44,0,85,7557,9,23,33,0.79,48.5,593,4.81,12.2,14.4,1,29.2,2.01,6.9,0,0,0,1,0,480,-6441,-16384,469,45.846882,5.178148,50.49,219.7,10,3,2.0,0,0.0,-1,0.0,0.0,0.0,0,2.12,4.0407
242463,1620407338053,,,,,,,,-0.17,0.41,-0.97,14,3,1,0.44,,85,7584,9,23,33,0.792,48.7,597,4.86,12.2,14.8,1,29.2,2.01,7.0,0,0,0,1,0,477,505,243,467,,,,,,,,,,,,,,,,
242483,1620407338073,,,,,,,,-0.18,0.44,-0.92,14,2,1,0.47,,86,7578,9,23,33,0.793,47.4,598,4.86,11.7,14.8,1,29.2,2.01,7.0,0,0,1,1,0,480,-9203,-3210,469,,,,,,,,,,,,,,,,
242503,1620407338091,,,,,,,,-0.16,0.47,-0.91,15,2,1,0.49,,86,7551,9,23,34,0.794,48.1,601,4.91,11.7,14.8,1,29.5,2.06,7.0,0,0,1,1,0,480,32033,16408,465,,,,,,,,,,,,,,,,
242523,1620407338111,,,,,,,,-0.12,0.48,-0.85,15,1,1,0.5,,86,7503,9,23,34,0.796,48.5,590,4.88,11.6,14.8,1,29.5,2.06,7.0,0,0,1,1,0,478,-6441,30272,459,,,,,,,,,,,,,,,,
242543,1620407338131,9,4,23,26,37,34,11,-0.12,0.55,-0.83,15,1,1,0.56,0,86,7491,9,23,34,0.797,47.4,592,4.81,11.6,14.8,1,29.5,2.06,7.0,0,0,1,1,0,476,-9203,2211,464,45.84689,5.178137,50.16,219.7,10,3,2.0,0,0.0,-1,0.0,,0.0,0,2.12,4.0424
242563,1620407338151,,,,,,,,-0.11,0.53,-0.93,15,1,2,0.54,,86,7419,9,23,34,0.798,47.2,587,4.81,11.6,14.8,1,29.5,2.06,7.0,0,0,1,1,0,472,-1923,-18108,457,,,,,,,,,,,,,,,,
242583,1620407338171,,,,,,,,-0.11,0.55,-1.02,15,2,2,0.56,,86,7413,9,23,35,0.799,47.0,578,4.78,11.6,15.0,1,29.8,2.11,7.0,0,0,1,1,0,472,8488,17628,457,,,,,,,,,,,,,,,,
242603,1620407338192,,,,,,,,-0.1,0.52,-1.1,15,1,2,0.53,,86,7381,9,23,35,0.8,47.2,576,4.82,11.7,15.0,1,29.8,2.11,7.0,0,0,1,1,0,472,-1923,-9160,458,,,,,,,,,,,,,,,,
242623,1620407338212,,,,,,,,-0.11,0.46,-1.17,15,3,2,0.47,,86,7352,9,23,35,0.801,47.3,582,4.85,11.6,15.0,1,29.8,2.11,7.0,0,0,1,1,0,467,6193,2524,453,,,,,,,,,,,,,,,,
242643,1620407338232,10,3,23,30,36,35,12,-0.14,0.37,-1.24,15,2,1,0.39,0,86,7315,9,23,35,0.801,47.2,590,4.89,11.7,15.0,1,29.8,2.17,7.0,0,0,1,1,0,464,-1923,-6387,446,45.846901,5.178126,49.08,219.7,10,3,2.0,0,0.0,-1,0.0,0.0,0.0,0,2.12,4.0441
242663,1620407338252,,,,,,,,-0.18,0.33,-0.97,15,1,-0,0.37,,86,7290,9,23,36,0.803,46.5,581,4.86,11.6,16.2,1,30.1,2.17,7.3,0,0,1,1,0,465,30272,-6387,448,,,,,,,,,,,,,,,,
242683,1620407338272,,,,,,,,-0.21,0.32,-0.72,15,-0,-0,0.38,,86,7270,9,23,36,0.803,46.2,591,4.89,11.7,16.2,1,30.1,2.17,7.3,0,0,1,1,0,461,12552,15649,450,,,,,,,,,,,,,,,,
242703,1620407338310,,,,,,,,-0.22,0.38,-0.55,15,-0,-0,0.44,,86,7250,9,23,36,0.804,45.7,584,4.89,11.8,16.2,1,30.1,2.17,7.3,0,0,1,1,0,460,-9160,-3267,447,,,,,,,,,,,,,,,,
242723,1620407338330,,,,,,,,-0.16,0.41,-0.67,15,2,1,0.44,,86,7219,9,23,36,0.805,44.9,576,4.83,11.7,16.2,1,30.1,2.17,7.3,0,0,1,1,0,460,2211,16648,438,,,,,,,,,,,,,,,,
242743,1620407338350,11,5,22,27,37,35,11,-0.16,0.4,-0.78,15,2,1,0.43,0,86,7214,9,23,37,0.806,45.8,570,4.85,11.8,16.2,1,30.4,2.22,7.3,0,0,1,1,0,457,2524,-18341,445,45.846909,5.178115,47.9,219.7,10,3,2.0,0,0.0,-1,0.0,,0.0,0,2.12,4.0457
242763,1620407338370,,,,,,,,-0.19,0.36,-0.72,15,2,-1,0.41,,86,7170,9,23,37,0.807,46.2,571,4.83,11.7,16.2,1,30.4,2.22,7.3,0,0,1,1,0,455,12552,-28332,443,,,,,,,,,,,,,,,,
242783,1620407338390,,,,,,,,-0.22,0.38,-0.49,15,-1,-1,0.44,,86,7170,9,23,37,0.809,45.6,571,4.85,11.7,16.4,1,30.4,2.22,7.3,0,0,1,1,0,450,14488,-28332,438,,,,,,,,,,,,,,,,
242803,1620407338409,,,,,,,,-0.19,0.42,-0.5,16,-0,-1,0.46,,86,7115,9,23,37,0.811,45.2,567,4.82,11.8,16.4,1,30.4,2.22,7.3,0,0,1,1,0,450,3571,21580,431,,,,,,,,,,,,,,,,
242823,1620407338429,,,,,,,,-0.16,0.44,-0.63,16,2,0,0.47,,86,7094,9,23,37,0.813,45.0,562,4.85,11.8,16.4,1,30.4,2.22,7.3,0,0,1,1,0,449,-3267,-768,432,,,,,,,,,,,,,,,,
242843,1620407338449,14,6,23,29,37,35,12,-0.21,0.37,-0.69,16,-0,-1,0.42,0,86,7064,9,23,38,0.815,43.8,560,4.87,11.8,16.4,1,30.7,2.27,7.3,0,0,1,1,0,446,21580,-3322,430,45.846916,5.178103,47.26,219.7,10,3,1.8,0,0.0,-1,0.0,0.0,0.0,0,2.13,4.0474
242863,1620407338469,,,,,,,,-0.21,0.39,-0.46,16,-2,-1,0.45,,86,7054,9,23,38,0.818,44.3,556,4.9,11.8,17.2,1,30.7,2.27,7.4,0,0,1,1,0,444,2131,13552,427,,,,,,,,,,,,,,,,
242883,1620407338489,,,,,,,,-0.21,0.44,-0.59,16,2,0,0.49,,86,7040,9,23,38,0.82,44.5,561,4.9,11.8,17.2,1,30.7,2.27,7.4,0,0,1,1,0,440,2131,-3856,429,,,,,,,,,,,,,,,,
242903,1620407338504,,,,,,,,-0.22,0.39,-0.71,16,1,0,0.44,,86,7022,9,23,38,0.821,43.4,561,4.86,11.8,17.2,1,30.7,2.27,7.4,0,0,1,1,0,437,-768,-3414,422,,,,,,,,,,,,,,,,
242923,1620407338524,,,,,,,,-0.24,0.4,-0.48,16,-0,-1,0.47,,86,7019,9,23,39,0.824,43.7,561,4.88,11.8,17.2,1,31.0,2.27,7.4,0,0,1,1,0,432,243,-8165,421,,,,,,,,,,,,,,,,
242943,1620407338544,16,6,22,29,38,35,12,-0.23,0.46,-0.61,16,2,1,0.51,0,86,7006,9,23,38,0.826,43.0,553,4.83,11.9,17.2,1,30.7,2.27,7.4,0,0,1,1,0,429,-3314,-21944,417,45.846924,5.178092,46.15,219.6,10,3,1.8,0,0.0,-1,0.0,,0.0,0,2.13,4.049
242963,1620407338564,,,,,,,,-0.24,0.41,-0.72,16,1,-0,0.48,,86,6959,9,23,39,0.828,42.8,558,4.8,11.8,18.1,1,30.9,2.33,7.5,0,0,1,1,0,429,-3856,-21944,413,,,,,,,,,,,,,,,,
242983,1620407338584,,,,,,,,-0.26,0.45,-0.5,16,-1,-1,0.52,,86,6913,9,24,39,0.83,42.3,559,4.87,11.8,18.1,1,30.8,2.33,7.5,0,0,1,1,0,426,3826,-21944,408,,,,,,,,,,,,,,,,
243003,1620407338600,,,,,,,,-0.29,0.44,-0.62,16,2,0,0.53,,86,6803,9,24,39,0.832,42.0,539,4.85,11.9,18.1,1,30.7,2.33,7.5,0,0,1,1,0,425,-3414,-8165,408,,,,,,,,,,,,,,,,
243023,1620407338620,,,,,,,,-0.3,0.45,-0.4,15,-3,-2,0.54,,86,6674,9,24,39,0.833,42.0,534,4.9,11.9,18.1,1,30.6,2.33,7.5,0,0,1,1,0,423,-8165,7154,405,,,,,,,,,,,,,,,,
243043,1620407338640,18,8,23,28,38,36,9,-0.25,0.3,-0.54,15,-1,-0,0.39,0,86,6537,9,24,40,0.833,42.0,533,4.85,11.8,18.1,1,30.6,2.33,7.5,0,0,1,1,0,419,-21944,-26615,404,45.846935,5.17808,44.82,219.6,10,3,1.8,0,0.0,-1,0.0,0.0,0.0,0,2.13,4.0507
243063,1620407338660,,,,,,,,-0.26,0.37,-0.58,15,3,0,0.45,,86,6472,9,24,40,0.835,41.4,506,4.91,11.9,17.2,1,30.5,2.33,6.9,0,0,1,1,0,416,2524,-4059,399,,,,,,,,,,,,,,,,
243083,1620407338680,,,,,,,,-0.32,0.41,-0.37,14,-2,-1,0.52,,86,6423,9,24,40,0.835,41.3,511,4.87,11.8,17.2,1,30.5,2.33,6.9,0,0,1,1,0,411,-9166,2524,397,,,,,,,,,,,,,,,,
243103,1620407338694,,,,,,,,-0.31,0.34,-0.35,14,-6,-3,0.46,,86,6302,9,24,40,0.833,40.2,503,4.83,11.8,17.2,1,30.3,2.33,6.9,0,0,1,1,0,409,10541,11545,399,,,,,,,,,,,,,,,,
243123,1620407338714,,,,,,,,-0.25,0.22,-0.49,14,-4,-1,0.33,,86,6254,9,24,41,0.833,40.3,500,4.77,11.9,17.2,1,30.5,2.33,6.9,0,0,1,1,0,405,-8151,28696,398,,,,,,,,,,,,,,,,
243143,1620407338734,18,10,22,25,38,36,6,-0.26,0.18,-0.61,14,3,2,0.31,0,86,6173,9,24,42,0.832,40.3,504,4.85,11.9,17.2,1,30.5,2.33,6.9,0,0,1,1,0,401,-8151,1,396,45.846943,5.178069,43.64,219.7,10,3,1.8,0,0.0,-1,0.0,,0.0,0,2.13,4.0524
243163,1620407338754,,,,,,,,-0.3,0.22,-0.73,13,7,4,0.37,,86,6071,9,24,42,0.831,40.0,497,4.82,11.9,17.2,1,30.3,2.34,6.9,0,0,1,1,0,399,-3968,-6524,390,,,,,,,,,,,,,,,,
243183,1620407338774,,,,,,,,-0.35,0.26,-0.83,12,10,5,0.43,,86,5975,9,24,43,0.831,39.3,479,4.84,11.9,16.6,1,30.4,2.36,6.5,0,0,1,1,0,393,-6656,-6475,388,,,,,,,,,,,,,,,,
243203,1620407338794,,,,,,,,-0.34,0.24,-0.93,12,14,7,0.42,,86,5848,9,24,44,0.829,38.9,464,4.88,12.0,16.6,1,30.3,2.42,6.5,0,0,1,1,0,389,-6524,-6475,381,,,,,,,,,,,,,,,,
243223,1620407338808,,,,,,,,-0.29,0.19,-1.02,11,15,7,0.34,,86,5719,9,24,45,0.828,38.7,460,4.82,11.8,16.6,1,30.3,2.48,6.5,0,0,1,1,0,386,240,-992,380,,,,,,,,,,,,,,,,
243243,1620407338828,18,10,23,24,38,37,4,-0.27,0.13,-1.06,11,13,7,0.29,0,86,5688,9,24,46,0.826,38.0,455,4.85,11.8,16.6,1,30.4,2.51,6.5,0,0,1,1,0,382,3,-18948,379,45.846947,5.178057,42.08,219.7,10,3,1.7,0,0.0,-1,0.0,0.0,0.0,0,2.13,4.054
243263,1620407338848,,,,,,,,-0.31,0.12,-0.8,10,10,6,0.33,,86,5637,9,24,48,0.825,37.8,452,4.87,11.9,17.7,1,30.8,2.54,6.6,0,0,1,1,0,377,2278,770,372,,,,,,,,,,,,,,,,
243283,1620407338868,,,,,,,,-0.35,0.18,-0.9,9,11,6,0.39,,86,5583,9,24,49,0.824,37.7,433,4.85,12.0,17.7,1,30.9,2.57,6.6,0,0,1,1,0,373,-6656,1,372,,,,,,,,,,,,,,,,
243303,1620407338908,,,,,,,,-0.35,0.13,-0.99,9,12,5,0.38,,87,5578,9,24,49,0.823,37.4,434,4.82,11.9,17.7,1,30.9,2.57,6.6,0,0,1,1,0,365,486,-1268,374,,,,,,,,,,,,,,,,
243323,1620407338928,,,,,,,,-0.37,0.08,-0.74,8,8,4,0.38,,87,5602,9,24,51,0.822,37.0,436,4.88,11.8,17.7,1,31.4,2.56,6.6,0,0,1,1,0,358,486,-6640,362,,,,,,,,,,,,,,,,
243343,1620407338948,19,10,23,24,38,37,4,-0.42,0.14,-0.51,8,6,3,0.44,0,87,5685,9,24,52,0.824,36.3,453,4.88,11.9,17.7,1,31.8,2.51,6.6,0,0,1,1,0,355,3082,-30454,361,45.846958,5.178046,40.44,219.7,10,3,1.7,0,0.0,-1,0.0,,0.0,0,2.13,4.0557
243363,1620407338968,,,,,,,,-0.46,0.17,-0.55,7,6,3,0.49,,87,5683,9,24,52,0.825,35.9,441,4.93,12.0,17.7,1,31.8,2.51,6.6,0,0,1,1,0,356,-29302,3183,355,,,,,,,,,,,,,,,,
243383,1620407338988,,,,,,,,-0.43,0.13,-0.67,7,7,4,0.45,,87,5678,9,24,53,0.827,35.5,452,4.83,11.8,18.5,1,32.0,2.51,6.6,0,0,1,1,0,354,2060,-6644,354,,,,,,,,,,,,,,,,
243403,1620407338996,,,,,,,,-0.37,0.07,-0.78,6,6,3,0.37,,87,5690,9,24,53,0.829,35.3,448,4.84,11.8,18.5,1,32.0,2.51,6.6,0,0,1,1,0,350,-6644,-1246,349,,,,,,,,,,,,,,,,
243423,1620407339016,,,,,,,,-0.39,0.06,-0.55,6,3,3,0.4,,87,5693,9,24,54,0.833,34.9,445,4.86,11.9,18.5,1,32.3,2.49,6.6,0,0,1,1,0,350,-30454,-10554,347,,,,,,,,,,,,,,,,
243443,1620407339036,19,9,23,23,38,38,2,-0.49,0.09,-0.34,6,2,1,0.5,0,87,5695,9,24,54,0.836,34.6,437,4.92,12.0,18.5,1,32.3,2.49,6.6,0,0,1,1,0,344,-30438,-14714,346,45.846962,5.178035,38.79,219.7,10,3,1.7,0,0.0,-1,0.0,0.0,0.0,0,2.13,4.0574
243463,1620407339056,,,,,,,,-0.57,0.08,-0.47,5,5,2,0.57,,87,5681,9,24,55,0.84,34.3,455,4.88,12.0,18.5,1,32.5,2.49,6.6,0,0,1,1,0,328,-31206,3327,343,,,,,,,,,,,,,,,,
243483,1620407339076,,,,,,,,-0.52,0.02,-0.6,5,7,3,0.52,,87,5702,9,24,55,0.846,33.7,455,4.82,11.8,18.9,1,32.5,2.48,6.5,0,0,1,1,0,335,2560,4838,334,,,,,,,,,,,,,,,,
243503,1620407339096,,,,,,,,-0.48,-0.02,-0.72,4,6,3,0.48,,87,5704,9,24,56,0.846,33.3,448,4.87,11.8,18.9,1,32.7,2.46,6.5,0,0,1,1,0,329,-6528,-32559,331,,,,,,,,,,,,,,,,
243523,1620407339110,,,,,,,,-0.46,-0.03,-0.49,4,1,1,0.46,,87,5712,9,24,56,0.844,33.1,443,4.86,11.9,18.9,1,32.7,2.46,6.5,0,0,1,1,0,328,170,-12032,327,,,,,,,,,,,,,,,,
243543,1620407339130,14,5,23,24,37,38,-5,-0.48,0.01,-0.28,3,-1,0,0.48,0,87,5704,9,24,56,0.841,32.5,457,4.9,12.0,18.9,1,32.7,2.47,6.5,0,0,1,1,0,330,-23296,-6528,325,45.84697,5.178025,36.48,219.7,10,3,1.7,0,0.0,-1,0.0,,0.0,0,2.13,4.0591
243563,1620407339150,,,,,,,,-0.46,0.0,-0.43,2,2,1,0.46,,87,5530,9,24,56,0.84,32.9,437,4.83,11.9,18.9,1,32.7,2.57,6.5,0,0,1,1,0,331,145,2560,329,,,,,,,,,,,,,,,,
243583,1620407339170,,,,,,,,-0.46,-0.06,-0.22,1,-0,0,0.47,,87,5259,9,24,57,0.837,32.8,411,4.82,11.8,20.0,1,32.8,2.72,6.6,0,0,1,1,0,332,145,2560,328,,,,,,,,,,,,,,,,
243603,1620407339206,,,,,,,,-0.41,-0.07,-0.37,-0,0,0,0.42,,87,5028,9,24,58,0.833,32.8,390,4.91,12.0,20.0,1,33.0,2.9,6.6,0,0,1,1,0,332,135,-6528,328,,,,,,,,,,,,,,,,
243623,1620407339226,,,,,,,,-0.45,-0.08,-0.36,-1,2,0,0.45,,87,4839,9,24,59,0.829,32.7,374,4.83,12.0,20.0,1,31.2,2.82,6.6,0,0,1,1,0,326,-27136,-20736,327,,,,,,,,,,,,,,,,
243643,1620407339246,13,7,28,25,33,37,-13,-0.5,-0.13,-0.25,-2,1,-0,0.51,0,87,4801,9,24,59,0.823,32.9,369,4.87,11.9,20.0,1,30.7,2.79,6.6,0,0,1,1,0,317,140,-23296,329,45.846973,5.178015,34.81,219.7,10,3,1.7,0,0.0,-1,0.0,0.0,0.0,0,2.14,4.0607
243663,1620407339266,,,,,,,,-0.45,-0.16,-0.17,-4,0,-1,0.48,,87,4853,9,24,59,0.819,32.7,374,4.87,11.8,19.2,1,31.4,2.82,6.3,0,0,1,1,0,309,-32256,160,326,,,,,,,,,,,,,,,,
243683,1620407339286,,,,,,,,-0.39,-0.21,-0.32,-5,1,-1,0.45,,87,4866,9,24,60,0.814,32.6,365,4.87,12.0,19.2,1,31.9,2.82,6.3,0,0,1,1,0,306,30720,160,326,,,,,,,,,,,,,,,,
243703,1620407339299,,,,,,,,-0.39,-0.24,-0.46,-7,2,-0,0.46,,87,4894,9,24,61,0.809,32.3,369,4.86,12.0,19.2,1,32.6,2.83,6.3,0,0,1,1,0,304,29440,155,323,,,,,,,,,,,,,,,,
243723,1620407339319,,,,,,,,-0.47,-0.28,-0.26,-8,2,-1,0.54,,87,4918,9,24,61,0.8,32.1,387,4.89,11.9,19.2,1,32.9,2.82,6.3,0,0,1,1,0,302,100,-25856,321,,,,,,,,,,,,,,,,
243743,1620407339339,13,7,28,23,33,40,-23,-0.42,-0.33,-0.3,-10,-0,-1,0.54,0,87,4943,9,24,62,0.799,31.7,376,4.87,11.9,19.2,1,33.5,2.88,6.3,0,0,1,1,0,297,0,-28416,317,45.846981,5.178006,34.2,219.7,10,3,1.7,0,0.0,-1,0.0,,0.0,0,2.14,4.0624
243763,1620407339359,,,,,,,,-0.4,-0.37,-0.44,-12,2,-0,0.54,,87,5005,9,24,62,0.802,31.6,372,4.92,12.0,21.2,1,34.3,2.91,6.7,0,0,1,1,0,291,21760,140,316,,,,,,,,,,,,,,,,
243783,1620407339379,,,,,,,,-0.48,-0.39,-0.24,-13,-1,-1,0.62,,87,5049,9,24,63,0.804,31.7,385,4.87,12.0,21.2,1,34.6,2.94,6.7,0,0,1,1,0,289,10686,-29696,317,,,,,,,,,,,,,,,,
243803,1620407339393,,,,,,,,-0.42,-0.44,-0.38,-15,-0,-1,0.61,,87,5103,9,24,63,0.807,31.9,385,4.85,11.9,21.2,1,34.6,2.92,6.7,0,0,1,1,0,287,0,135,319,,,,,,,,,,,,,,,,
243823,1620407339413,,,,,,,,-0.44,-0.47,-0.47,-17,0,-1,0.64,,87,5104,9,24,63,0.808,31.7,382,4.9,12.0,21.2,1,34.6,2.92,6.7,0,0,1,1,0,290,1886,135,311,,,,,,,,,,,,,,,,
243843,1620407339433,11,7,29,22,33,41,-35,-0.44,-0.52,-0.41,-19,-1,-2,0.69,0,87,5026,9,24,63,0.813,31.2,390,4.86,12.0,21.2,1,34.6,2.95,6.7,0,0,1,1,0,299,-1534,135,312,45.846985,5.177997,32.74,219.8,10,3,1.7,0,0.0,-1,0.0,0.0,0.0,0,2.14,4.0641
243863,1620407339453,,,,,,,,-0.38,-0.57,-0.54,-21,-1,-2,0.69,,87,4805,9,24,63,0.816,31.2,374,4.86,11.9,21.2,1,32.0,2.93,6.7,0,0,1,1,0,313,630,135,310,,,,,,,,,,,,,,,,
243883,1620407339473,,,,,,,,-0.36,-0.6,-0.66,-23,0,-1,0.7,,87,4719,9,24,64,0.82,31.4,358,4.9,12.0,20.6,1,31.1,2.9,6.4,0,0,1,1,0,344,-1281,32000,314,,,,,,,,,,,,,,,,
243903,1620407339493,,,,,,,,-0.41,-0.59,-0.65,-25,2,-1,0.72,,87,4784,9,24,64,0.823,31.2,355,4.9,12.0,20.6,1,32.0,2.93,6.4,0,0,1,1,0,301,250,120,312,,,,,,,,,,,,,,,,
243923,1620407339507,,,,,,,,-0.42,-0.6,-0.43,-27,2,-1,0.74,,87,4880,9,24,64,0.824,30.6,365,4.85,12.0,20.6,1,33.3,2.96,6.4,0,0,1,1,0,273,-1,120,306,,,,,,,,,,,,,,,,
243943,1620407339527,9,4,30,22,32,43,-48,-0.39,-0.62,-0.48,-29,1,-2,0.73,0,87,4862,9,24,65,0.825,30.8,378,4.9,11.9,20.6,1,33.0,3.0,6.4,0,0,1,1,0,281,14337,115,308,45.846992,5.177988,31.65,219.8,10,3,1.7,0,0.0,-1,0.0,,0.0,0,2.14,4.0657
243963,1620407339547,,,,,,,,-0.33,-0.65,-0.6,-31,-0,-2,0.73,,87,4757,9,24,65,0.825,30.8,367,4.88,11.9,21.1,1,31.9,2.96,6.5,0,0,1,1,0,308,-10440,115,308,,,,,,,,,,,,,,,,
243983,1620407339567,,,,,,,,-0.32,-0.67,-0.72,-33,1,-2,0.75,,87,4693,10,24,65,0.826,31.0,353,4.9,11.9,21.1,1,31.0,2.93,6.5,0,0,1,1,0,303,-1,29440,310,,,,,,,,,,,,,,,,
244003,1620407339603,,,,,,,,-0.34,-0.68,-0.73,-35,2,-2,0.77,,87,4783,10,24,65,0.825,31.0,353,4.87,12.0,21.1,1,32.3,2.97,6.5,0,0,1,1,0,293,-10440,115,306,,,,,,,,,,,,,,,,
244023,1620407339623,,,,,,,,-0.39,-0.7,-0.5,-37,3,-2,0.8,,87,4795,10,24,65,0.824,30.9,365,4.91,12.0,21.1,1,32.4,2.98,6.5,0,0,1,1,0,296,-1,115,309,,,,,,,,,,,,,,,,
244043,1620407339643,5,3,31,22,32,42,-62,-0.41,-0.77,-0.32,-39,1,-2,0.87,0,87,4791,10,24,66,0.823,30.8,369,4.85,11.9,21.1,1,32.8,3.03,6.5,0,0,1,1,0,290,-1,29440,303,45.847,5.177981,30.39,219.9,10,3,1.7,0,0.0,-1,0.0,0.0,0.0,0,2.14,4.0674
244063,1620407339663,,,,,,,,-0.34,-0.85,-0.46,-41,-1,-3,0.92,,87,4816,10,24,66,0.822,30.6,371,4.85,11.9,21.1,1,33.0,3.04,6.5,0,0,1,1,0,275,10818,110,306,,,,,,,,,,,,,,,,
244083,1620407339683,,,,,,,,-0.29,-0.84,-0.59,-43,-0,-3,0.88,,87,4727,10,24,66,0.821,30.5,351,4.92,12.0,21.8,1,31.8,3.0,6.7,0,0,1,1,0,282,250,110,307,,,,,,,,,,,,,,,,
244103,1620407339699,,,,,,,,-0.26,-0.87,-0.71,-45,1,-3,0.91,,87,4671,10,24,66,0.82,30.3,349,4.89,12.0,21.8,1,31.0,2.97,6.7,0,0,1,1,0,321,-1494,28160,303,,,,,,,,,,,,,,,,
244123,1620407339719,,,,,,,,-0.27,-0.79,-0.76,-47,3,-2,0.83,,87,4738,10,24,66,0.819,30.1,348,4.86,12.1,21.8,1,32.0,3.0,6.7,0,0,1,1,0,327,-1494,26880,305,,,,,,,,,,,,,,,,
244143,1620407339739,2,3,35,23,32,43,-77,-0.34,-0.86,-0.53,-48,3,-3,0.93,0,87,4806,10,24,67,0.817,30.5,360,4.88,12.0,21.8,1,33.2,3.08,6.7,0,0,1,1,0,321,-1494,26880,305,45.847004,5.177974,28.36,219.9,10,3,1.7,0,0.0,-1,0.0,,0.0,0,2.14,4.069
244163,1620407339759,,,,,,,,-0.32,-0.95,-0.45,-50,0,-3,1.0,,87,4844,10,25,67,0.817,30.5,374,4.86,12.0,22.6,1,34.0,3.09,6.9,0,0,1,1,0,297,-25600,26880,305,,,,,,,,,,,,,,,,
244183,1620407339779,,,,,,,,-0.26,-0.96,-0.58,-51,1,-2,0.99,,87,4905,10,25,67,0.817,30.3,374,4.84,11.9,22.6,1,34.5,3.11,6.9,0,0,1,1,0,286,-17920,26880,303,,,,,,,,,,,,,,,,
244203,1620407339791,,,,,,,,-0.28,-0.92,-0.7,-53,2,-2,0.96,,87,4851,10,25,68,0.818,30.1,365,4.84,12.0,22.6,1,34.1,3.09,6.9,0,0,1,1,0,278,23482,26880,300,,,,,,,,,,,,,,,,
244223,1620407339811,,,,,,,,-0.32,-0.91,-0.53,-54,3,-1,0.97,,87,4744,10,25,68,0.818,29.9,366,4.88,12.0,22.6,1,32.6,3.1,6.9,0,0,1,1,0,305,13468,100,299,,,,,,,,,,,,,,,,
244243,1620407339831,3,2,36,23,32,43,-83,-0.36,-0.88,-0.32,-55,3,-2,0.95,0,87,4682,10,25,68,0.817,29.5,359,4.89,12.0,22.6,1,31.8,3.07,6.9,0,0,1,1,0,326,250,95,297,45.847012,5.177969,28.78,219.8,10,3,1.7,0,0.0,-1,0.0,0.0,0.0,0,2.14,4.0707
244263,1620407339851,,,,,,,,-0.37,-0.94,-0.12,-56,-0,-3,1.01,,87,4763,10,25,68,0.816,29.5,362,4.88,12.0,22.6,1,32.9,1.96,6.9,0,0,1,1,0,314,8704,95,295,,,,,,,,,,,,,,,,
244283,1620407339871,,,,,,,,-0.32,-0.98,-0.28,-57,-0,-3,1.03,,87,4842,10,25,68,0.815,29.4,370,4.8,11.9,23.0,1,34.0,3.14,6.8,0,0,1,1,0,292,10824,90,294,,,,,,,,,,,,,,,,
244303,1620407339891,,,,,,,,-0.31,-0.93,-0.42,-58,1,-2,0.98,,87,4854,10,25,69,0.814,29.2,361,4.92,12.0,23.0,1,34.3,3.15,6.8,0,0,1,1,0,296,250,90,292,,,,,,,,,,,,,,,,
244323,1620407339907,,,,,,,,-0.3,-0.91,-0.35,-59,2,-2,0.96,,87,4788,11,25,69,0.814,29.4,368,4.88,12.0,23.0,1,33.4,3.15,6.8,0,0,1,1,0,302,250,24320,294,,,,,,,,,,,,,,,,
244343,1620407339927,2,3,37,25,32,42,-83,-0.39,-0.95,-0.16,-60,3,-3,1.03,0,87,4693,11,25,69,0.814,29.3,360,4.88,12.0,23.0,1,32.1,3.09,6.8,0,0,1,1,0,280,8704,90,294,45.847019,5.177965,27.35,219.9,10,3,1.7,0,0.0,-1,0.0,,0.0,0,2.14,4.0724
244363,1620407339947,,,,,,,,-0.42,-0.99,0.02,-61,1,-3,1.08,,87,4675,10,25,69,0.814,29.2,356,4.89,12.0,22.6,1,31.9,3.09,6.6,0,0,1,1,0,285,13602,90,292,,,,,,,,,,,,,,,,
244383,1620407339967,,,,,,,,-0.41,-0.99,0.17,-61,-1,-3,1.07,,87,4637,10,25,69,0.814,29.3,355,4.86,11.9,22.6,1,31.4,3.06,6.6,0,0,1,1,0,309,-1483,85,296,,,,,,,,,,,,,,,,
244403,1620407339993,,,,,,,,-0.38,-0.97,0.22,-62,-3,-4,1.05,,87,4689,10,25,69,0.814,29.4,352,4.82,11.9,22.6,1,32.1,3.09,6.6,0,0,1,1,0,320,-1494,85,294,,,,,,,,,,,,,,,,
244423,1620407340013,,,,,,,,-0.31,-1.02,0.04,-63,-4,-3,1.07,,87,4762,10,25,69,0.814,29.4,357,4.88,12.0,22.6,1,33.1,3.13,6.6,0,0,1,1,0,324,8704,21760,294,,,,,,,,,,,,,,,,
244443,1620407340033,4,2,36,24,32,44,-82,-0.29,-0.95,-0.13,-64,-1,-2,0.99,0,88,4843,10,25,69,0.814,29.0,360,4.92,12.0,22.6,1,34.2,3.17,6.6,0,0,1,1,0,323,13602,80,290,45.847023,5.177962,27.77,219.9,10,3,1.7,0,0.0,-1,0.0,0.0,0.0,0,2.14,4.074
244463,1620407340053,,,,,,,,-0.35,-1.01,-0.02,-65,-1,-2,1.07,,88,4889,10,25,69,0.814,29.3,371,4.86,12.0,24.5,1,34.8,3.19,7.2,0,0,1,1,0,321,8704,21760,293,,,,,,,,,,,,,,,,
244483,1620407340073,,,,,,,,-0.3,-1.02,-0.11,-65,-2,-2,1.06,,88,4940,10,25,69,0.815,28.9,385,4.84,11.9,24.5,1,35.6,3.23,7.2,0,0,1,1,0,315,8704,80,293,,,,,,,,,,,,,,,,
244503,1620407340091,,,,,,,,-0.26,-1.07,-0.26,-66,-1,-2,1.1,,88,4921,10,25,69,0.816,29.1,371,4.82,11.9,24.5,1,35.3,3.21,7.2,0,0,1,1,0,319,10824,80,291,,,,,,,,,,,,,,,,
244523,1620407340111,,,,,,,,-0.29,-1.07,-0.24,-67,-1,-2,1.11,,88,4909,10,25,70,0.816,29.5,366,4.88,12.0,24.5,1,35.4,3.2,7.2,0,0,1,1,0,323,250,85,295,,,,,,,,,,,,,,,,
244543,1620407340131,2,3,36,24,31,44,-81,-0.34,-1.04,-0.05,-68,-1,-2,1.1,0,88,4889,10,25,70,0.817,29.7,379,4.86,12.0,24.5,1,35.1,3.23,7.2,0,0,1,1,0,323,-1496,21760,297,45.847031,5.177961,26.99,219.9,10,3,1.7,0,0.0,-1,0.0,,0.0,0,2.14,4.0757
244563,1620407340151,,,,,,,,-0.31,-1.12,-0.06,-69,-3,-2,1.16,,88,4862,10,25,70,0.817,29.3,371,4.85,11.9,24.5,1,34.7,3.22,7.2,0,0,1,1,0,322,250,20480,293,,,,,,,,,,,,,,,,
244583,1620407340171,,,,,,,,-0.23,-1.11,-0.22,-69,-2,-2,1.13,,88,4825,10,25,70,0.817,29.0,362,4.92,12.0,24.5,1,34.3,3.19,7.2,0,0,1,1,0,296,250,20480,290,,,,,,,,,,,,,,,,
244603,1620407340209,,,,,,,,-0.2,-1.11,-0.37,-69,-2,-1,1.13,,88,4748,9,25,70,0.817,29.0,361,4.9,12.0,24.5,1,33.2,3.12,7.2,0,0,1,1,0,283,1596,80,290,,,,,,,,,,,,,,,,
244623,1620407340229,,,,,,,,-0.19,-1.09,-0.5,-70,1,-1,1.1,,88,4617,9,25,70,0.817,28.6,349,4.88,12.0,24.5,1,31.4,3.05,7.2,0,0,1,1,0,311,15360,80,293,,,,,,,,,,,,,,,,
244643,1620407340249,3,2,38,26,32,43,-82,-0.21,-0.91,-0.63,-70,4,-1,0.93,0,88,4606,9,25,69,0.816,28.9,343,4.87,12.0,24.5,1,31.0,3.04,7.2,0,0,1,1,0,298,1596,20480,289,45.847038,5.17796,26.24,219.9,10,3,1.7,0,0.0,-1,0.0,0.0,0.0,0,2.14,4.0774
244663,1620407340269,,,,,,,,-0.25,-0.93,-0.5,-70,4,-1,0.96,,88,4623,9,25,69,0.816,29.1,348,4.86,12.0,24.5,1,31.2,3.05,7.2,0,0,1,1,0,269,250,0,291,,,,,,,,,,,,,,,,
244683,1620407340289,,,,,,,,-0.27,-0.88,-0.41,-70,4,-1,0.92,,88,4531,8,25,68,0.816,28.5,348,4.86,12.0,22.3,1,29.7,3.0,6.5,0,0,1,1,0,288,250,0,282,,,,,,,,,,,,,,,,
244703,1620407340308,,,,,,,,-0.33,-0.74,-0.21,-69,5,-1,0.81,,88,4465,8,25,68,0.815,28.6,343,4.88,12.1,22.3,1,28.8,2.97,6.5,0,0,1,1,0,285,250,41,286,,,,,,,,,,,,,,,,
244723,1620407340328,,,,,,,,-0.38,-0.78,-0.1,-69,5,-1,0.87,,88,4390,8,25,67,0.815,28.9,331,4.9,12.0,22.3,1,27.5,2.88,6.5,0,0,1,1,0,296,250,41,289,,,,,,,,,,,,,,,,
244743,1620407340348,1,3,38,26,31,41,-81,-0.37,-0.88,-0.25,-69,5,-0,0.95,0,88,4378,8,25,67,0.815,28.5,333,4.91,12.0,22.3,1,27.3,2.88,6.5,0,0,1,1,0,276,1596,-16896,285,45.847042,5.177962,26.38,220.0,10,3,1.7,0,0.0,-1,0.0,,0.0,0,2.14,4.0791
244763,1620407340368,,,,,,,,-0.33,-0.8,-0.39,-69,7,-0,0.86,,88,4375,8,25,67,0.816,28.4,332,4.92,12.0,20.4,1,27.3,2.88,5.8,0,0,1,1,0,248,19968,250,284,,,,,,,,,,,,,,,,
244783,1620407340388,,,,,,,,-0.29,-0.82,-0.53,-69,9,0,0.86,,88,4374,8,25,66,0.815,28.6,328,4.8,12.0,20.4,1,27.0,2.83,5.8,0,0,1,1,0,272,10318,-1529,286,,,,,,,,,,,,,,,,
244803,1620407340402,,,,,,,,-0.23,-0.85,-0.65,-69,11,1,0.88,,88,4379,8,25,66,0.816,28.3,328,4.81,11.9,20.4,1,27.0,2.84,5.8,0,0,1,1,0,303,250,250,283,,,,,,,,,,,,,,,,
244823,1620407340422,,,,,,,,-0.14,-0.85,-0.76,-69,10,1,0.86,,88,4503,9,25,66,0.815,28.5,335,4.82,11.9,20.4,1,28.7,2.89,5.8,0,0,1,1,0,291,-1530,250,285,,,,,,,,,,,,,,,,
244843,1620407340442,3,3,37,25,32,42,-81,-0.1,-0.83,-0.86,-69,11,1,0.84,0,88,4535,9,25,66,0.814,28.3,345,4.83,11.9,20.4,1,29.2,2.9,5.8,0,0,1,1,0,283,10318,24064,283,45.84705,5.177964,27.02,220.0,10,3,1.7,0,0.0,-1,0.0,0.0,0.0,0,2.15,4.0807
244863,1620407340462,,,,,,,,-0.06,-0.79,-0.96,-69,12,0,0.8,,88,4636,10,25,66,0.813,28.2,341,4.87,12.0,22.3,1,30.6,2.95,6.3,0,0,1,1,0,266,-1530,1886,282,,,,,,,,,,,,,,,,
244883,1620407340482,,,,,,,,-0.07,-0.83,-1.05,-70,14,1,0.83,,88,4638,10,25,67,0.812,28.0,346,4.88,12.0,22.3,1,30.9,2.95,6.3,0,0,1,1,0,263,250,250,280,,,,,,,,,,,,,,,,
244903,1620407340500,,,,,,,,-0.08,-0.85,-1.12,-70,15,0,0.85,,88,4531,10,25,67,0.812,28.4,338,4.91,12.1,22.3,1,29.4,2.95,6.3,0,0,1,1,0,276,19968,1886,284,,,,,,,,,,,,,,,,
244923,1620407340520,,,,,,,,-0.1,-0.9,-1.2,-70,16,1,0.91,,88,4511,10,25,67,0.812,28.4,332,4.9,12.0,22.3,1,29.2,2.94,6.3,0,0,1,1,0,316,10318,-1529,284,,,,,,,,,,,,,,,,
244943,1620407340540,2,3,38,25,32,42,-81,-0.13,-0.91,-1.26,-71,17,2,0.92,0,88,4492,10,25,68,0.813,28.2,338,4.87,12.0,22.3,1,29.2,2.98,6.3,0,0,1,1,0,328,-1530,24064,282,45.847057,5.177967,26.37,220.0,10,3,1.7,0,0.0,-1,0.0,,0.0,0,2.15,4.0824
244963,1620407340560,,,,,,,,-0.16,-0.83,-1.33,-71,19,2,0.85,,88,4567,10,25,68,0.814,28.2,339,4.91,12.0,22.3,1,30.2,3.02,6.3,0,0,1,1,0,324,250,630,283,,,,,,,,,,,,,,,,
244983,1620407340580,,,,,,,,-0.23,-0.82,-1.22,-72,17,0,0.85,,88,4598,10,25,68,0.819,28.1,349,4.9,12.0,22.3,1,30.6,3.03,6.3,0,0,1,1,0,302,250,-1534,281,,,,,,,,,,,,,,,,
245003,1620407340598,,,,,,,,-0.26,-0.82,-0.95,-72,14,1,0.86,,88,4716,10,25,68,0.823,28.0,363,4.86,12.0,22.3,1,32.3,3.08,6.3,0,0,1,1,0,284,-1532,-1534,280,,,,,,,,,,,,,,,,
245023,1620407340618,,,,,,,,-0.26,-0.83,-0.71,-72,12,1,0.87,,88,4801,10,25,68,0.827,28.4,364,4.88,12.0,22.3,1,33.4,1.97,6.3,0,0,1,1,0,279,-1532,630,284,,,,,,,,,,,,,,,,
245043,1620407340638,2,3,37,26,32,42,-82,-0.23,-0.8,-0.71,-72,9,-0,0.84,0,88,4696,11,25,69,0.832,27.7,363,4.84,11.9,22.3,1,32.2,3.11,6.3,0,0,1,1,0,295,-1532,250,282,45.847061,5.17797,26.69,220.0,10,3,1.7,0,0.0,-1,0.0,0.0,0.0,0,2.15,4.0841
245063,1620407340658,,,,,,,,-0.17,-0.83,-0.73,-72,8,-1,0.85,,88,4584,10,25,69,0.836,27.9,352,4.86,12.0,22.3,1,30.7,3.03,6.3,0,0,1,1,0,297,-17920,-1529,279,,,,,,,,,,,,,,,,
245083,1620407340678,,,,,,,,-0.12,-0.87,-0.79,-72,7,-0,0.88,,88,4470,10,25,69,0.842,28.1,344,4.87,12.0,22.9,1,29.1,2.97,6.4,0,0,1,1,0,292,-1532,250,281,,,,,,,,,,,,,,,,
245103,1620407340696,,,,,,,,-0.06,-0.84,-0.89,-72,6,-0,0.84,,88,4442,10,25,69,0.846,27.9,347,4.92,11.9,22.9,1,28.7,2.96,6.4,0,0,1,1,0,277,1210,1886,282,,,,,,,,,,,,,,,,
245123,1620407340716,,,,,,,,-0.07,-0.8,-0.77,-72,4,-1,0.8,,88,4393,10,25,69,0.85,28.3,339,4.93,11.9,22.9,1,28.0,2.94,6.4,0,0,1,1,0,271,250,1886,283,,,,,,,,,,,,,,,,
245143,1620407340736,2,1,38,27,30,41,-81,-0.12,-0.83,-0.56,-72,2,-2,0.84,0,88,4319,10,25,69,0.853,28.0,337,4.94,12.0,22.9,1,27.0,2.88,6.4,0,0,1,1,0,267,15360,24064,280,45.847069,5.177975,26.03,220.0,10,3,1.7,0,0.0,-1,0.0,,0.0,0,2.15,4.0857
245163,1620407340756,,,,,,,,-0.19,-0.89,-0.38,-72,1,-1,0.91,,88,4289,10,25,69,0.855,28.0,332,4.92,12.0,20.3,1,26.6,2.89,5.7,0,0,1,1,0,273,-1530,630,284,,,,,,,,,,,,,,,,
245183,1620407340776,,,,,,,,-0.23,-0.76,-0.18,-72,-1,-2,0.8,,88,4345,10,25,69,0.856,28.6,332,4.87,12.0,20.3,1,27.4,2.91,5.7,0,0,1,1,0,262,250,-1534,286,,,,,,,,,,,,,,,,
245203,1620407340793,,,,,,,,-0.25,-0.76,-0.24,-72,1,-2,0.8,,88,4300,10,25,70,0.857,27.9,320,4.91,12.1,20.3,1,27.0,2.89,5.7,0,0,1,1,0,264,-1532,630,279,,,,,,,,,,,,,,,,
245223,1620407340813,,,,,,,,-0.23,-0.74,-0.38,-72,2,-2,0.78,,88,4346,11,25,70,0.856,28.2,327,4.95,12.0,20.3,1,27.6,2.91,5.7,0,0,1,1,0,267,250,250,278,,,,,,,,,,,,,,,,
245243,1620407340833,1,3,39,25,31,41,-81,-0.2,-0.78,-0.52,-72,4,-2,0.81,0,88,4348,11,25,70,0.852,28.3,329,4.84,12.0,20.3,1,27.6,2.92,5.7,0,0,1,1,0,278,10318,250,283,45.847076,5.177981,27.6,220.0,10,3,1.8,0,0.0,-1,0.0,0.0,0.0,0,2.15,4.0874
245263,1620407340853,,,,,,,,-0.11,-0.77,-0.64,-73,6,-2,0.78,,88,4332,12,25,70,0.849,27.7,327,4.88,12.0,20.3,1,27.4,2.91,5.7,0,0,1,1,0,297,-1532,30208,277,,,,,,,,,,,,,,,,
245283,1620407340873,,,,,,,,-0.06,-0.74,-0.75,-72,6,-2,0.74,,88,4384,12,25,71,0.844,27.6,328,4.84,11.9,20.9,1,28.3,2.93,5.8,0,0,1,1,0,277,250,-1527,281,,,,,,,,,,,,,,,,
245303,1620407340893,,,,,,,,-0.05,-0.54,-0.58,-72,5,-3,0.54,,88,4397,13,25,72,0.842,28.2,336,4.89,11.9,20.9,1,28.8,2.95,5.8,0,0,1,1,0,249,15360,250,282,,,,,,,,,,,,,,,,
245323,1620407340908,,,,,,,,-0.09,-0.49,-0.37,-72,3,-4,0.5,,88,4343,13,25,73,0.84,27.8,337,4.91,11.8,20.9,1,27.8,2.91,5.8,0,0,1,1,0,291,1210,-1527,278,,,,,,,,,,,,,,,,
245343,1620407340928,2,1,38,26,32,41,-80,-0.14,-0.53,-0.18,-72,-0,-6,0.55,0,88,4335,13,25,73,0.837,27.7,327,4.92,11.9,20.9,1,28.1,2.91,5.8,0,0,1,1,0,291,1210,-1527,277,45.84708,5.177987,26.83,219.9,10,3,1.8,0,0.0,-1,0.0,,0.0,0,2.15,4.089
245363,1620407340948,,,,,,,,-0.2,-0.55,0.0,-72,-2,-6,0.58,,88,4460,13,25,74,0.834,27.8,342,4.9,12.0,22.3,1,30.1,3.0,6.2,0,0,1,1,0,265,1210,2414,278,,,,,,,,,,,,,,,,
245383,1620407340968,,,,,,,,-0.24,-0.66,0.17,-72,-4,-5,0.7,,88,4375,13,25,75,0.836,27.6,343,4.86,12.1,22.3,1,29.1,2.93,6.2,0,0,1,1,0,264,1210,2414,276,,,,,,,,,,,,,,,,
245403,1620407340988,,,,,,,,-0.28,-0.63,0.21,-72,-3,-4,0.69,,88,4339,13,25,75,0.842,27.0,329,4.89,12.0,22.3,1,28.6,2.91,6.2,0,0,1,1,0,280,1088,250,270,,,,,,,,,,,,,,,,
245423,1620407341002,,,,,,,,-0.28,-0.64,0.07,-72,-3,-4,0.7,,88,4362,13,25,75,0.849,27.6,333,4.86,12.1,22.3,1,28.9,2.92,6.2,0,0,1,1,0,282,250,28160,272,,,,,,,,,,,,,,,,
245443,1620407341022,1,3,37,26,31,41,-79,-0.27,-0.69,-0.1,-72,-1,-4,0.74,0,88,4328,13,25,76,0.856,27.5,328,4.83,12.0,22.3,1,28.7,2.89,6.2,0,0,1,1,0,283,1088,-1,275,45.84708,5.177994,25.81,219.9,10,3,1.7,0,0.0,-1,0.0,0.0,0.0,0,2.15,4.0907
245463,1620407341042,,,,,,,,-0.19,-0.78,-0.26,-72,2,-3,0.8,,88,4308,14,25,76,0.866,27.4,325,4.89,12.0,22.3,1,28.5,2.87,6.2,0,0,1,1,0,291,16384,-1281,274,,,,,,,,,,,,,,,,
245483,1620407341062,,,,,,,,-0.15,-0.77,-0.41,-72,4,-1,0.78,,88,4339,15,25,77,0.882,26.9,321,4.83,12.0,20.8,1,29.1,2.97,5.7,0,0,1,1,0,291,-17920,250,269,,,,,,,,,,,,,,,,
245503,1620407341102,,,,,,,,-0.08,-0.59,-0.5,-71,3,-3,0.6,,88,4368,15,25,77,0.895,26.8,328,4.82,11.9,20.8,1,29.5,3.0,5.7,0,0,1,1,0,282,16384,-1,270,,,,,,,,,,,,,,,,
245523,1620407341122,,,,,,,,-0.12,-0.67,-0.5,-71,1,-2,0.68,,88,4346,15,25,78,0.905,27.3,341,4.9,11.9,20.8,1,29.5,3.05,5.7,0,0,1,1,0,233,-1533,-1,273,,,,,,,,,,,,,,,,
245543,1620407341142,2,2,37,27,32,41,-79,-0.16,-0.74,-0.35,-71,-1,-2,0.76,0,88,4315,16,25,79,0.925,26.9,335,4.88,11.9,20.8,1,29.3,3.13,5.7,0,0,1,1,0,233,250,-1281,269,45.847084,5.178003,26.35,220.0,10,3,1.7,0,0.0,-1,0.0,,0.0,0,2.15,4.0924
245563,1620407341162,,,,,,,,-0.24,-0.74,-0.24,-71,-2,-1,0.78,,88,4206,16,25,80,0.939,26.9,329,4.89,12.0,20.8,1,28.0,3.1,5.7,0,0,1,1,0,281,16384,-1,269,,,,,,,,,,,,,,,,
245583,1620407341182,,,,,,,,-0.25,-0.82,-0.39,-71,-2,-1,0.85,,88,4129,16,25,80,0.963,27.0,311,4.86,12.1,22.3,1,26.9,3.05,6.0,0,0,1,1,0,298,-1532,-1,272,,,,,,,,,,,,,,,,
245603,1620407341199,,,,,,,,-0.2,-0.88,-0.52,-71,-1,-0,0.9,,88,4206,17,25,81,0.982,27.0,315,4.89,12.0,22.3,1,28.2,3.19,6.0,0,0,1,1,0,276,250,-1,270,,,,,,,,,,,,,,,,
245623,1620407341219,,,,,,,,-0.16,-0.92,-0.65,-71,0,-0,0.93,,88,4310,17,25,81,1.005,27.3,318,4.82,11.9,22.3,1,29.7,3.25,6.0,0,0,1,1,0,239,-1532,-1,273,,,,,,,,,,,,,,,,
245643,1620407341239,1,2,38,26,32,40,-76,-0.13,-0.83,-0.73,-70,0,-1,0.84,0,88,4283,18,25,82,1.023,27.1,332,4.87,11.9,22.3,1,29.6,2.17,6.0,0,0,1,1,0,226,-1533,-1,271,45.847088,5.178012,25.85,219.9,10,3,1.7,0,0.0,-1,0.0,0.0,0.0,0,2.15,4.094
245663,1620407341259,,,,,,,,-0.18,-0.79,-0.51,-70,-1,-1,0.82,,88,4188,18,25,83,1.048,27.3,326,4.87,11.9,22.3,1,28.5,3.35,6.0,0,0,1,1,0,273,250,-1,273,,,,,,,,,,,,,,,,
245683,1620407341279,,,,,,,,-0.21,-0.74,-0.5,-70,-1,-1,0.77,,88,4102,19,25,84,1.079,27.2,317,4.92,12.0,23.4,1,27.5,3.38,6.4,0,0,1,1,0,308,16384,-1,271,,,,,,,,,,,,,,,,
245703,1620407341293,,,,,,,,-0.22,-0.83,-0.62,-70,2,-0,0.86,,88,4164,20,25,85,1.107,26.8,314,4.9,12.0,23.4,1,28.6,3.47,6.4,0,0,1,1,0,287,16384,-1,268,,,,,,,,,,,,,,,,
245723,1620407341313,,,,,,,,-0.18,-0.89,-0.74,-70,2,0,0.91,,88,4158,22,25,86,1.135,26.9,316,4.84,11.9,23.4,1,28.8,3.53,6.4,0,0,1,1,0,256,250,-1,269,,,,,,,,,,,,,,,,
245743,1620407341333,1,2,38,26,32,41,-74,-0.22,-0.9,-0.56,-70,2,0,0.93,0,88,4149,24,25,88,1.163,27.1,321,4.86,11.9,23.4,1,29.1,3.66,6.4,0,0,1,1,0,227,-17920,-1,271,45.847088,5.178021,25.1,219.9,10,3,1.7,0,0.0,-1,0.0,,0.0,0,2.15,4.0957
245763,1620407341353,,,,,,,,-0.28,-0.9,-0.45,-71,0,0,0.94,,88,4180,26,25,89,1.191,27.3,320,4.92,12.0,26.3,1,29.8,3.72,7.2,0,0,1,1,0,222,-1532,-1,268,,,,,,,,,,,,,,,,
245783,1620407341373,,,,,,,,-0.27,-0.9,-0.58,-72,1,-0,0.94,,88,4110,28,25,91,1.213,27.3,312,4.9,12.0,26.3,1,29.9,3.88,7.2,0,0,1,1,0,236,-1532,-1,273,,,,,,,,,,,,,,,,
245803,1620407341393,,,,,,,,-0.21,-0.91,-0.7,-72,1,-1,0.94,,88,4046,28,25,93,1.237,27.3,311,4.82,11.8,26.3,1,31.1,2.91,7.2,0,0,1,1,0,284,1088,-1,273,,,,,,,,,,,,,,,,
245823,1620407341409,,,,,,,,-0.24,-0.94,-0.59,-73,0,-1,0.97,,88,4067,29,25,94,1.26,27.0,323,4.92,12.0,26.3,1,32.3,4.13,7.2,0,0,1,1,0,274,1088,-1,270,,,,,,,,,,,,,,,,
245843,1620407341429,2,1,37,26,31,42,-68,-0.28,-0.93,-0.56,-73,-0,-1,0.97,0,88,4038,29,25,94,1.289,26.9,308,4.88,12.0,26.3,1,32.0,4.14,7.2,0,0,1,1,0,260,-1533,-1,268,45.847092,5.17803,24.87,219.9,10,3,1.7,0,0.0,-1,0.0,0.0,0.0,0,2.15,4.0974
245863,1620407341449,,,,,,,,-0.23,-0.94,-0.68,-73,0,-1,0.96,,88,4043,29,25,94,1.306,27.0,310,4.85,11.9,28.5,1,32.1,4.14,7.7,0,0,1,1,0,256,1088,-1,270,,,,,,,,,,,,,,,,
245883,1620407341469,,,,,,,,-0.21,-0.91,-0.68,-73,-1,-1,0.93,,88,4151,29,25,94,1.336,27.1,316,4.82,11.9,28.5,1,33.3,4.21,7.7,0,0,1,1,0,251,1088,-1,271,,,,,,,,,,,,,,,,
245903,1620407341507,,,,,,,,-0.25,-0.92,-0.51,-73,-2,-2,0.95,,88,4236,29,25,95,1.358,26.8,324,4.91,12.0,28.5,1,35.0,4.16,7.7,0,0,1,1,0,242,16384,-1,268,,,,,,,,,,,,,,,,
245923,1620407341527,,,,,,,,-0.31,-0.92,-0.3,-72,-2,-2,0.97,,88,4411,29,25,94,1.374,26.6,323,4.88,12.1,28.5,1,36.2,4.04,7.7,0,0,1,1,0,222,-14848,-1,266,,,,,,,,,,,,,,,,
245943,1620407341547,2,2,36,26,31,42,-64,-0.31,-0.89,-0.44,-72,-1,-1,0.95,0,88,4212,29,25,94,1.395,26.7,317,4.91,12.0,28.5,1,33.9,4.1,7.7,0,0,1,1,0,259,1088,-1,268,45.847088,5.17804,24.82,219.9,10,3,1.7,0,0.0,-1,0.0,,0.0,0,2.15,4.0991
245963,1620407341567,,,,,,,,-0.27,-0.91,-0.57,-72,-0,-1,0.95,,88,4015,29,25,94,1.413,26.9,314,4.9,12.0,28.6,1,31.8,4.15,7.7,0,0,1,1,0,312,1088,-1,269,,,,,,,,,,,,,,,,
245983,1620407341587,,,,,,,,-0.29,-0.89,-0.39,-71,-0,-1,0.93,,88,3980,29,25,94,1.423,26.7,316,4.89,11.9,28.6,1,31.5,4.23,7.7,0,0,1,1,0,289,1088,-41,267,,,,,,,,,,,,,,,,
246003,1620407341606,,,,,,,,-0.29,-0.86,-0.41,-71,-1,-1,0.91,,88,3969,29,25,94,1.435,26.6,304,4.9,12.0,28.6,1,31.3,4.15,7.7,0,0,1,1,0,278,-1532,-1,266,,,,,,,,,,,,,,,,
246023,1620407341626,,,,,,,,-0.24,-0.87,-0.54,-71,-0,-1,0.9,,88,4045,29,25,95,1.45,26.4,303,4.89,12.0,28.6,1,33.1,4.22,7.7,0,0,1,1,0,264,250,-1,264,,,,,,,,,,,,,,,,
246043,1620407341646,2,2,36,27,32,41,-63,-0.26,-0.85,-0.52,-71,-0,-2,0.89,0,88,4204,29,25,95,1.462,26.8,319,4.83,11.9,28.6,1,34.7,4.21,7.7,0,0,1,1,0,217,1088,-41,263,45.847088,5.178049,24.39,219.9,10,3,1.7,0,0.0,-1,0.0,0.0,0.0,0,2.15,4.1007
246063,1620407341666,,,,,,,,-0.25,-0.84,-0.34,-70,-3,-2,0.88,,88,4383,29,25,95,1.47,26.5,325,4.87,12.0,31.3,1,36.5,4.12,8.3,0,0,1,1,0,207,1088,-10440,265,,,,,,,,,,,,,,,,
246083,1620407341686,,,,,,,,-0.28,-0.85,-0.18,-70,-4,-2,0.9,,88,4428,29,25,95,1.484,26.3,341,4.86,12.0,31.3,1,36.9,4.11,8.3,0,0,1,1,0,223,16384,-1,263,,,,,,,,,,,,,,,,
246103,1620407341701,,,,,,,,-0.28,-0.82,-0.07,-70,-6,-2,0.87,,88,4213,29,25,95,1.496,26.4,325,4.87,12.0,31.3,1,34.7,4.17,8.3,0,0,1,1,0,302,16384,-1,264,,,,,,,,,,,,,,,,
246123,1620407341721,,,,,,,,-0.26,-0.83,-0.22,-70,-4,-2,0.87,,88,4153,29,25,94,1.498,26.7,317,4.92,12.0,31.3,1,33.3,4.11,8.3,0,0,1,1,0,289,250,-1,267,,,,,,,,,,,,,,,,
246143,1620407341741,1,2,38,27,31,38,-59,-0.21,-0.81,-0.36,-69,-3,-2,0.84,0,88,4039,29,25,94,1.498,26.7,320,4.82,11.8,31.3,1,32.0,4.14,8.3,0,0,1,1,0,247,-17920,-1,267,45.847088,5.178057,24.11,219.8,10,3,1.7,0,0.0,-1,0.0,,0.0,0,2.15,4.1024
246163,1620407341761,,,,,,,,-0.22,-0.8,-0.26,-68,-3,-2,0.83,,88,3969,29,25,95,1.498,26.4,308,4.9,11.9,31.3,1,32.3,3.08,8.3,0,0,1,1,0,229,1088,-1,264,,,,,,,,,,,,,,,,
246183,1620407341781,,,,,,,,-0.18,-0.82,-0.35,-68,-3,-2,0.84,,88,3804,29,25,95,1.498,26.2,298,4.87,12.0,29.1,1,31.0,4.24,7.7,0,0,1,1,0,231,-1532,-10440,262,,,,,,,,,,,,,,,,
246203,1620407341801,,,,,,,,-0.19,-0.79,-0.28,-67,-2,-2,0.82,,88,3762,29,25,96,1.496,26.5,294,4.88,12.0,29.1,1,31.6,4.32,7.7,0,0,1,1,0,223,1210,14337,265,,,,,,,,,,,,,,,,
246223,1620407341821,,,,,,,,-0.19,-0.79,-0.42,-67,-2,-2,0.81,,88,3963,29,25,95,1.49,26.5,291,4.87,12.0,29.1,1,32.3,4.23,7.7,0,0,1,1,0,227,-1532,-41,265,,,,,,,,,,,,,,,,
246243,1620407341841,1,2,37,28,30,39,-55,-0.11,-0.76,-0.55,-66,-1,-2,0.77,0,88,4081,30,25,95,1.485,26.4,306,4.83,11.9,29.1,1,33.4,4.21,7.7,0,0,1,1,0,238,-17920,-1,264,45.847084,5.178065,24.62,219.9,10,3,1.7,0,0.0,-1,0.0,0.0,0.0,0,2.16,4.1041
246263,1620407341861,,,,,,,,-0.13,-0.75,-0.49,-66,-1,-2,0.76,,88,4097,30,25,95,1.48,26.4,317,4.91,12.0,29.1,1,33.6,3.06,7.7,0,0,1,1,0,271,-1530,-1,266,,,,,,,,,,,,,,,,
246283,1620407341881,,,,,,,,-0.17,-0.73,-0.35,-65,-2,-3,0.75,,88,4149,31,25,95,1.477,26.6,311,4.89,12.1,29.6,1,34.1,4.19,7.9,0,0,1,1,0,276,1596,-1,266,,,,,,,,,,,,,,,,
246303,1620407341897,,,,,,,,-0.18,-0.72,-0.48,-64,-0,-2,0.74,,88,4169,31,25,95,1.477,26.8,315,4.91,12.0,29.6,1,34.3,4.18,7.9,0,0,1,1,0,273,250,-1,268,,,,,,,,,,,,,,,,
246323,1620407341917,,,,,,,,-0.1,-0.72,-0.61,-64,2,-1,0.72,,88,4331,32,25,95,1.477,26.6,315,4.91,12.0,29.6,1,36.0,4.13,7.9,0,0,1,1,0,277,15360,-1,266,,,,,,,,,,,,,,,,
246343,1620407341937,2,2,36,28,30,39,-52,-0.02,-0.7,-0.73,-63,3,-1,0.7,0,88,4349,32,25,95,1.477,26.7,323,4.85,12.0,29.6,1,36.2,4.13,7.9,0,0,1,1,0,245,1596,-1,267,45.84708,5.178073,24.42,219.9,10,3,1.7,0,0.0,-1,0.0,,0.0,0,2.16,4.1057
246363,1620407341957,,,,,,,,0.02,-0.68,-0.75,-63,3,-1,0.68,,88,4225,32,25,95,1.474,27.1,325,4.84,11.9,29.8,1,34.9,4.16,8.1,0,0,1,1,0,257,250,-1,271,,,,,,,,,,,,,,,,
246383,1620407341977,,,,,,,,-0.02,-0.68,-0.58,-62,1,-1,0.68,,88,4074,32,25,96,1.469,27.0,322,4.9,12.0,29.8,1,34.4,3.14,8.1,0,0,1,1,0,275,10318,-1,270,,,,,,,,,,,,,,,,
246403,1620407341997,,,,,,,,-0.02,-0.67,-0.7,-61,0,-1,0.67,,88,3988,32,25,95,1.463,27.0,301,4.9,12.0,29.8,1,32.5,4.23,8.1,0,0,1,1,0,263,-1496,-1,270,,,,,,,,,,,,,,,,
246423,1620407342009,,,,,,,,-0.01,-0.67,-0.81,-61,1,-1,0.67,,88,3964,33,25,96,1.456,27.1,307,4.85,11.9,29.8,1,33.4,4.31,8.1,0,0,1,1,0,247,19968,-1,271,,,,,,,,,,,,,,,,
246443,1620407342029,1,3,36,28,30,38,-48,-0.04,-0.68,-0.69,-60,1,-1,0.69,0,88,4005,36,25,96,1.45,26.5,317,4.88,12.0,29.8,1,33.7,4.31,8.1,0,0,1,1,0,230,18432,-1,265,45.84708,5.178081,24.51,220.0,10,3,1.7,0,0.0,-1,0.0,0.0,0.0,0,2.16,4.1074
246463,1620407342049,,,,,,,,-0.05,-0.64,-0.8,-59,1,-0,0.64,,88,4136,40,25,97,1.448,26.5,303,4.89,12.0,54.3,1,35.8,7.55,14.4,0,0,1,1,0,234,18432,-1,265,,,,,,,,,,,,,,,,
246483,1620407342069,,,,,,,,-0.03,-0.65,-0.9,-58,3,-0,0.65,,88,4312,43,25,97,1.445,26.8,314,4.88,12.0,54.3,1,37.2,7.43,14.4,0,0,1,1,0,242,-1496,-1,268,,,,,,,,,,,,,,,,
246503,1620407342101,,,,,,,,0.07,-0.63,-0.99,-58,4,0,0.63,,88,4501,45,25,97,1.442,26.8,328,4.86,11.9,54.3,1,38.8,7.29,14.4,0,0,1,1,0,279,10824,-1,268,,,,,,,,,,,,,,,,
246523,1620407342121,,,,,,,,0.09,-0.64,-1.07,-57,6,0,0.65,,88,4775,49,25,97,1.441,26.8,344,4.85,12.0,54.3,1,41.0,7.11,14.4,0,0,1,1,0,306,-1483,250,268,,,,,,,,,,,,,,,,
246543,1620407342141,0,2,36,29,29,37,-40,0.11,-0.6,-0.82,-56,4,-0,0.61,0,88,4861,51,25,97,1.441,27.2,364,4.8,12.0,54.3,1,41.7,7.05,14.4,0,0,1,1,0,308,13602,24064,272,45.847076,5.178089,24.97,220.1,10,3,1.7,0,0.0,-1,0.0,,0.0,0,2.16,4.109
246563,1620407342161,,,,,,,,0.15,-0.62,-0.64,-56,2,-0,0.64,,88,4873,53,25,97,1.441,27.6,371,4.85,11.8,57.2,1,41.8,7.01,15.8,0,0,1,1,0,285,-1483,20480,276,,,,,,,,,,,,,,,,
246583,1620407342181,,,,,,,,0.22,-0.63,-0.75,-55,-0,-0,0.67,,88,4712,54,25,97,1.441,27.9,370,4.9,12.0,57.2,1,40.4,7.15,15.8,0,0,1,1,0,269,23482,26880,279,,,,,,,,,,,,,,,,
246603,1620407342192,,,,,,,,0.29,-0.55,-0.86,-54,-0,-1,0.62,,88,4453,55,25,97,1.44,28.3,351,4.9,11.9,57.2,1,38.4,7.33,15.8,0,0,1,1,0,297,10812,90,286,,,,,,,,,,,,,,,,
246623,1620407342212,,,,,,,,0.29,-0.62,-0.79,-52,-1,-1,0.68,,88,4287,56,25,97,1.413,28.8,337,4.9,11.8,57.2,1,37.1,7.38,15.8,0,0,1,1,0,313,-1,21760,288,,,,,,,,,,,,,,,,
246643,1620407342232,-1,2,40,35,25,33,-38,0.27,-0.64,-0.61,-51,-3,-1,0.69,0,88,4371,57,25,97,1.381,28.5,330,4.88,11.8,57.2,1,37.7,3.12,15.8,0,0,1,1,0,286,16896,80,285,45.847073,5.178095,25.2,220.1,10,3,1.7,0,0.0,-1,0.0,0.0,0.0,0,2.16,4.1107
246663,1620407342252,,,,,,,,0.28,-0.64,-0.39,-50,-5,-1,0.7,,88,4485,59,25,97,1.361,28.7,339,4.83,11.9,57.2,1,38.6,7.15,15.8,0,0,1,1,0,277,-1,0,287,,,,,,,,,,,,,,,,
246683,1620407342272,,,,,,,,0.29,-0.69,-0.23,-49,-7,-3,0.75,,88,4647,61,25,97,1.322,29.1,354,4.88,11.8,52.2,1,40.0,7.16,15.0,0,0,1,1,0,290,-1,85,291,,,,,,,,,,,,,,,,
246703,1620407342302,,,,,,,,0.35,-0.69,-0.38,-49,-7,-3,0.77,,88,4689,63,25,97,1.286,29.4,353,4.9,11.9,52.2,1,40.3,7.06,15.0,0,0,1,1,0,293,-1,24320,297,,,,,,,,,,,,,,,,
246723,1620407342322,,,,,,,,0.41,-0.63,-0.51,-48,-4,-3,0.75,,88,4784,63,25,97,1.225,29.8,352,4.91,12.0,52.2,1,41.0,6.82,15.0,0,0,1,1,0,324,-1,25600,298,,,,,,,,,,,,,,,,
246743,1620407342342,0,1,38,34,27,35,-30,0.34,-0.63,-0.33,-48,-3,-3,0.72,0,88,4952,63,25,97,1.187,29.9,362,4.9,12.0,52.2,1,42.4,6.66,15.0,0,0,1,1,0,315,-1281,105,299,45.847065,5.178102,25.66,220.1,10,3,1.7,0,0.0,-1,0.0,,0.0,0,2.16,4.1124
246763,1620407342362,,,,,,,,0.37,-0.6,-0.4,-47,-4,-3,0.71,,88,5153,63,25,97,1.139,30.4,385,4.81,11.9,53.2,1,42.4,6.96,16.2,0,0,1,1,0,283,-1281,30720,304,,,,,,,,,,,,,,,,
246783,1620407342382,,,,,,,,0.41,-0.57,-0.54,-46,-1,-2,0.7,,88,5118,63,25,97,1.078,30.4,383,4.85,12.0,53.2,1,42.5,3.06,16.2,0,0,1,1,0,322,28160,125,304,,,,,,,,,,,,,,,,
246803,1620407342395,,,,,,,,0.36,-0.54,-0.32,-45,-3,-3,0.65,,88,5040,63,25,97,1.0,30.5,393,4.83,11.9,53.2,1,42.7,6.57,16.2,0,0,1,1,0,339,250,-29696,305,,,,,,,,,,,,,,,,
246823,1620407342415,,,,,,,,0.39,-0.54,-0.4,-44,-2,-3,0.66,,88,5013,63,25,97,0.953,30.7,385,4.85,11.8,53.2,1,42.8,6.44,16.2,0,0,1,1,0,337,250,-27136,308,,,,,,,,,,,,,,,,
246843,1620407342435,0,3,38,35,27,34,-21,0.39,-0.51,-0.46,-44,-1,-2,0.64,0,88,5078,63,25,97,0.873,31.3,378,4.88,12.0,53.2,1,42.6,6.58,16.2,0,0,1,1,0,312,1886,-25856,313,45.847061,5.178108,28.06,220.1,10,3,1.7,0,0.0,-1,0.0,0.0,0.0,0,2.16,4.114
246863,1620407342455,,,,,,,,0.4,-0.53,-0.26,-43,-4,-3,0.67,,88,5128,63,25,97,0.843,31.4,391,4.82,11.9,50.3,1,42.5,6.66,15.8,0,0,1,1,0,298,-16896,-24576,314,,,,,,,,,,,,,,,,
246883,1620407342475,,,,,,,,0.45,-0.5,-0.4,-42,-1,-2,0.67,,88,5088,63,25,97,0.811,31.5,387,4.85,12.0,50.3,1,42.6,6.49,15.8,0,0,1,1,0,308,0,160,315,,,,,,,,,,,,,,,,
246903,1620407342504,,,,,,,,0.37,-0.44,-0.32,-40,-0,-1,0.58,,88,4905,63,25,97,0.77,31.7,376,4.84,12.0,50.3,1,42.0,6.3,15.8,0,0,1,1,0,319,25600,-23296,317,,,,,,,,,,,,,,,,
246923,1620407342524,,,,,,,,0.32,-0.4,-0.12,-39,-2,-3,0.51,,88,4890,63,25,97,0.745,31.9,375,4.82,11.9,50.3,1,41.9,6.26,15.8,0,0,1,1,0,311,100,165,319,,,,,,,,,,,,,,,,
246943,1620407342544,-0,2,39,35,27,33,-12,0.37,-0.38,-0.28,-37,-2,-3,0.54,0,88,4922,63,25,97,0.725,32.2,379,4.83,11.8,50.3,1,42.2,6.29,15.8,0,0,1,1,0,327,105,160,322,45.847057,5.178114,29.79,220.1,10,3,1.7,0,0.0,-1,0.0,,0.0,0,2.16,4.1157
246963,1620407342564,,,,,,,,0.35,-0.4,-0.42,-36,-1,-2,0.53,,88,5134,63,25,97,0.716,32.0,380,4.91,12.0,47.5,1,42.4,6.41,15.2,0,0,1,1,0,324,26880,160,320,,,,,,,,,,,,,,,,
246983,1620407342584,,,,,,,,0.4,-0.39,-0.55,-34,-1,-1,0.56,,88,5428,63,25,97,0.708,32.3,403,4.85,11.9,47.5,1,41.5,7.04,15.2,0,0,1,1,0,326,30720,-23296,321,,,,,,,,,,,,,,,,
247003,1620407342598,,,,,,,,0.42,-0.44,-0.34,-33,-5,-2,0.61,,88,5605,63,25,97,0.699,32.1,406,4.89,12.0,47.5,1,41.0,7.39,15.2,0,0,1,1,0,329,32000,-32559,321,,,,,,,,,,,,,,,,
247023,1620407342618,,,,,,,,0.42,-0.39,-0.15,-32,-5,-2,0.57,,88,5650,63,25,97,0.693,32.4,421,4.83,12.0,47.5,1,40.8,7.42,15.2,0,0,1,1,0,340,-29696,-31206,324,,,,,,,,,,,,,,,,
247043,1620407342638,-0,0,38,36,27,31,-10,0.47,-0.32,-0.3,-30,-1,-1,0.57,0,88,5666,63,25,97,0.69,33.1,431,4.82,12.0,47.5,1,40.8,7.37,15.2,0,0,1,1,0,355,140,-1246,332,45.84705,5.17812,31.61,220.1,10,3,1.7,0,0.0,-1,0.0,0.0,0.0,0,2.16,4.1174
247063,1620407342658,,,,,,,,0.57,-0.33,-0.44,-29,1,-1,0.66,,88,5595,62,25,97,0.688,33.7,432,4.83,11.9,54.8,1,41.0,7.13,18.5,0,0,1,1,0,373,-24576,-6644,337,,,,,,,,,,,,,,,,
247083,1620407342678,,,,,,,,0.48,-0.33,-0.24,-27,-2,-2,0.59,,88,5605,61,25,97,0.684,33.7,419,4.87,12.0,54.8,1,41.0,7.09,18.5,0,0,1,1,0,369,-22016,2060,337,,,,,,,,,,,,,,,,
247103,1620407342694,,,,,,,,0.42,-0.32,-0.05,-26,-6,-2,0.52,,88,5669,60,25,97,0.682,34.2,420,4.86,12.0,54.8,1,40.8,3.83,18.5,0,0,1,1,0,364,3346,8200,342,,,,,,,,,,,,,,,,
247123,1620407342714,,,,,,,,0.41,-0.31,-0.21,-26,-1,-1,0.51,,88,5813,59,25,96,0.681,34.8,432,4.87,12.0,54.8,1,40.3,7.34,18.5,0,0,1,1,0,387,-32559,-1268,348,,,,,,,,,,,,,,,,
247143,1620407342734,-1,2,39,37,27,30,-9,0.39,-0.25,-0.36,-25,4,1,0.46,0,88,6011,58,25,96,0.68,34.9,448,4.78,11.9,54.8,1,39.8,7.67,18.5,0,0,1,1,0,384,-31222,-6405,349,45.847042,5.178125,32.56,220.2,10,3,1.7,0,0.0,-1,0.0,,0.0,0,2.16,4.1191
247163,1620407342754,,,,,,,,0.28,-0.12,-0.45,-24,6,1,0.31,,88,6157,58,25,96,0.679,35.3,461,4.87,12.0,59.7,1,41.3,7.41,21.1,0,0,1,1,0,381,-122,-6656,351,,,,,,,,,,,,,,,,
247183,1620407342774,,,,,,,,0.29,-0.09,-0.24,-24,3,-0,0.3,,88,6198,58,25,96,0.68,35.8,471,4.89,11.9,59.7,1,41.7,7.27,21.1,0,0,1,1,0,369,-31206,11545,355,,,,,,,,,,,,,,,,
247203,1620407342794,,,,,,,,0.27,-0.07,-0.06,-24,-1,-2,0.27,,88,6032,55,25,96,0.681,36.2,462,4.87,12.0,59.7,1,40.0,7.39,21.1,0,0,1,1,0,391,6870,-19126,362,,,,,,,,,,,,,,,,
247223,1620407342814,,,,,,,,0.23,0.03,0.11,-23,1,-2,0.23,,88,5767,51,25,96,0.683,36.6,454,4.9,11.9,59.7,1,40.5,6.85,21.1,0,0,1,1,0,407,-6644,-19126,364,,,,,,,,,,,,,,,,
247243,1620407342834,1,2,39,36,26,31,-9,0.21,-0.0,-0.06,-23,2,-1,0.21,0,88,5501,45,25,96,0.684,36.7,433,4.84,11.9,59.7,1,41.3,6.23,21.1,0,0,1,1,0,354,-30454,19125,367,45.847034,5.178131,34.61,220.2,10,3,1.7,0,0.0,-1,0.0,0.0,0.0,0,2.16,4.1207
247263,1620407342854,,,,,,,,0.25,-0.14,-0.22,-23,4,-1,0.29,,88,5874,42,25,96,0.686,36.9,442,4.81,11.9,59.7,1,40.1,5.08,21.1,0,0,1,1,0,358,-6644,257,370,,,,,,,,,,,,,,,,
247283,1620407342874,,,,,,,,0.31,-0.22,-0.37,-22,9,2,0.39,,88,6279,41,25,95,0.687,37.1,473,4.81,12.0,37.3,1,42.5,4.99,13.8,0,0,1,1,0,374,-6644,770,365,,,,,,,,,,,,,,,,
247303,1620407342894,,,,,,,,0.3,-0.11,-0.51,-22,6,3,0.32,,88,6606,41,25,94,0.688,36.7,487,4.86,12.0,37.3,1,45.9,3.64,13.8,0,0,1,1,0,399,4104,-31744,368,,,,,,,,,,,,,,,,
247323,1620407342908,,,,,,,,0.37,-0.15,-0.3,-22,8,1,0.4,,88,6701,41,25,95,0.689,37.0,524,4.84,11.9,37.3,1,46.9,4.77,13.8,0,0,1,1,0,415,-14707,-9166,370,,,,,,,,,,,,,,,,
247343,1620407342928,-0,2,37,36,27,33,-5,0.36,-0.27,-0.44,-22,7,3,0.46,0,88,6419,41,25,95,0.691,37.7,500,4.87,12.0,37.3,1,44.0,4.99,13.8,0,0,1,1,0,446,-29978,-3314,377,45.847023,5.178136,36.55,220.2,10,3,1.7,0,0.0,-1,0.0,,0.0,0,2.16,4.1224
247363,1620407342948,,,,,,,,0.33,-0.29,-0.24,-22,3,0,0.44,,88,6684,41,25,95,0.693,37.9,503,4.9,11.9,39.0,1,46.7,4.78,14.8,0,0,1,1,0,430,2790,-6656,379,,,,,,,,,,,,,,,,
247383,1620407342968,,,,,,,,0.37,-0.32,-0.38,-23,6,0,0.49,,88,6853,41,25,94,0.694,38.4,527,4.82,11.9,39.0,1,48.4,4.6,14.8,0,0,1,1,0,389,486,-4059,384,,,,,,,,,,,,,,,,
247403,1620407342988,,,,,,,,0.31,-0.28,-0.18,-22,4,-2,0.42,,88,6632,40,25,94,0.695,39.0,514,4.88,11.9,39.0,1,46.2,4.77,14.8,0,0,1,1,0,435,1,-4059,390,,,,,,,,,,,,,,,,
247423,1620407343004,,,,,,,,0.34,-0.33,-0.34,-22,5,-0,0.47,,88,6660,39,25,94,0.697,38.8,500,4.82,12.0,39.0,1,46.4,4.75,14.8,0,0,1,1,0,438,-6656,-21792,394,,,,,,,,,,,,,,,,
247443,1620407343024,0,1,37,37,25,33,-3,0.27,-0.28,-0.14,-22,-2,-2,0.39,0,88,6771,39,25,94,0.697,39.6,516,4.87,11.9,39.0,1,47.6,4.66,14.8,0,0,1,1,0,407,-992,5600,396,45.847019,5.178142,36.78,220.2,10,3,1.7,0,0.0,-1,0.0,0.0,0.0,0,2.16,4.1241
247463,1620407343044,,,,,,,,0.39,-0.41,-0.3,-22,2,-0,0.57,,88,6845,39,25,94,0.698,39.4,519,4.84,12.0,37.0,1,48.4,4.6,14.6,0,0,1,1,0,409,-19126,23400,394,,,,,,,,,,,,,,,,
247483,1620407343064,,,,,,,,0.4,-0.31,-0.1,-22,2,-2,0.5,,88,6853,39,25,94,0.698,39.5,524,4.88,11.9,37.0,1,48.4,4.6,14.6,0,0,1,1,0,422,240,-3414,395,,,,,,,,,,,,,,,,
247503,1620407343102,,,,,,,,0.34,-0.28,-0.26,-21,1,-0,0.44,,88,6865,39,25,94,0.698,40.3,526,4.81,11.9,37.0,1,48.6,4.59,14.6,0,0,1,1,0,487,-6475,-4082,401,,,,,,,,,,,,,,,,
247523,1620407343122,,,,,,,,0.42,-0.31,-0.41,-21,-2,-1,0.53,,88,6985,39,25,94,0.699,40.3,532,4.87,11.9,37.0,1,49.8,4.5,14.6,0,0,1,1,0,430,-3866,21432,403,,,,,,,,,,,,,,,,
247543,1620407343142,1,0,38,33,26,31,4,0.39,-0.28,-0.21,-20,-0,-3,0.48,0,88,7046,40,25,94,0.701,40.9,538,4.88,11.9,37.0,1,49.4,4.52,14.6,0,0,1,1,0,411,-3968,3571,409,45.847008,5.178147,39.35,220.2,10,3,1.7,0,0.0,-1,0.0,,0.0,0,2.17,4.1257
247563,1620407343162,,,,,,,,0.44,-0.21,-0.36,-20,-2,-1,0.49,,88,7067,40,25,94,0.703,41.7,525,4.87,12.0,35.4,1,49.1,4.54,14.8,0,0,1,1,0,465,1504,19477,417,,,,,,,,,,,,,,,,
247583,1620407343182,,,,,,,,0.56,-0.23,-0.49,-19,-1,-0,0.6,,88,7142,41,25,94,0.704,41.5,542,4.84,11.8,35.4,1,48.0,4.61,14.8,0,0,1,1,0,465,2524,3571,415,,,,,,,,,,,,,,,,
247603,1620407343202,,,,,,,,0.5,-0.24,-0.62,-18,-0,-2,0.55,,88,7236,41,25,94,0.707,41.3,558,4.86,11.8,35.4,1,46.6,4.69,14.8,0,0,1,1,0,439,10392,30272,413,,,,,,,,,,,,,,,,
247623,1620407343222,,,,,,,,0.51,-0.17,-0.41,-17,-1,-2,0.54,,88,7290,42,25,94,0.709,42.0,555,4.88,11.9,35.4,1,45.8,4.76,14.8,0,0,1,1,0,466,-26615,20625,420,,,,,,,,,,,,,,,,
247643,1620407343242,1,3,38,36,26,30,8,0.44,-0.12,-0.21,-16,-2,-2,0.46,0,88,7332,42,25,94,0.711,42.2,553,4.87,11.9,35.4,1,45.3,4.79,14.8,0,0,1,1,0,471,13040,-3210,425,45.847,5.178153,41.55,220.1,10,3,1.7,0,0.0,-1,0.0,0.0,0.0,0,2.17,4.1274
247663,1620407343262,,,,,,,,0.4,-0.07,-0.03,-15,-2,-2,0.41,,88,7416,42,25,94,0.712,42.8,555,4.83,11.9,35.4,1,44.1,4.88,14.8,0,0,1,1,0,436,-3856,-3210,428,,,,,,,,,,,,,,,,
247683,1620407343282,,,,,,,,0.42,-0.01,0.11,-14,-3,-1,0.42,,88,7428,43,25,94,0.715,42.9,563,4.81,12.0,39.0,1,43.9,4.89,16.7,0,0,1,1,0,482,13180,10305,434,,,,,,,,,,,,,,,,
247703,1620407343297,,,,,,,,0.45,-0.02,0.23,-13,-4,-1,0.45,,88,7470,43,25,94,0.719,43.6,566,4.82,12.0,39.0,1,43.3,4.93,16.7,0,0,1,1,0,459,21580,2212,430,,,,,,,,,,,,,,,,
247723,1620407343317,,,,,,,,0.43,-0.01,0.31,-12,-4,-1,0.43,,88,7512,44,25,94,0.723,43.7,569,4.81,12.0,39.0,1,42.7,4.97,16.7,0,0,1,1,0,474,5600,32033,437,,,,,,,,,,,,,,,,
247743,1620407343337,1,0,36,35,26,30,11,0.43,-0.05,0.45,-11,-6,-1,0.43,0,88,7560,44,25,94,0.726,44.4,566,4.82,12.0,39.0,1,42.0,5.01,16.7,0,0,1,1,0,492,21432,10432,442,45.846989,5.178158,42.91,220.1,10,3,1.7,0,0.0,-1,0.0,,0.0,0,2.17,4.129
247763,1620407343357,,,,,,,,0.35,0.02,0.48,-10,-7,-2,0.35,,89,7643,45,25,94,0.73,44.7,581,4.87,11.9,40.5,1,40.8,5.1,18.0,0,0,1,1,0,462,15649,-1923,444,,,,,,,,,,,,,,,,
247783,1620407343377,,,,,,,,0.32,0.08,0.5,-8,-8,-1,0.33,,89,7640,45,25,94,0.734,44.6,585,4.89,11.9,40.5,1,40.8,5.09,18.0,0,0,1,1,0,471,2131,-6528,450,,,,,,,,,,,,,,,,
247803,1620407343397,,,,,,,,0.31,0.11,0.29,-7,-9,-0,0.33,,89,7637,45,25,94,0.737,45.3,587,4.88,11.9,40.5,1,40.9,5.09,18.0,0,0,1,1,0,471,-8985,15679,453,,,,,,,,,,,,,,,,
247823,1620407343417,,,,,,,,0.36,0.11,0.1,-6,-7,0,0.38,,89,7700,46,25,94,0.739,45.8,582,4.88,11.9,40.5,1,39.4,5.15,18.0,0,0,1,1,0,475,2211,1341,458,,,,,,,,,,,,,,,,
247843,1620407343437,0,3,40,36,29,24,10,0.37,0.1,0.26,-4,-7,1,0.39,0,89,7901,48,25,94,0.742,46.2,604,4.91,11.8,40.5,1,37.0,5.35,18.0,0,0,1,1,0,488,-9160,30272,458,45.846977,5.178163,44.99,220.1,10,3,1.7,0,0.0,-1,0.0,0.0,0.0,0,2.17,4.1307
247863,1620407343457,,,,,,,,0.3,0.08,0.27,-3,-7,0,0.31,,89,7971,49,25,93,0.743,46.2,608,4.86,11.9,44.0,1,36.2,5.4,19.9,0,0,1,1,0,515,12552,-1562,460,,,,,,,,,,,,,,,,
247883,1620407343477,,,,,,,,0.32,0.07,0.08,-1,-5,0,0.32,,89,7988,49,25,93,0.744,46.9,600,4.81,11.9,44.0,1,35.9,5.42,19.9,0,0,1,1,0,546,10432,16383,462,,,,,,,,,,,,,,,,
247903,1620407343493,,,,,,,,0.36,0.09,0.22,-0,-5,1,0.37,,89,8198,50,25,93,0.745,47.0,620,4.92,11.8,44.0,1,38.7,5.81,19.9,0,0,1,1,0,507,8488,-6656,458,,,,,,,,,,,,,,,,
247923,1620407343513,,,,,,,,0.41,0.07,0.03,0,-4,2,0.42,,89,8314,51,25,92,0.746,47.4,621,4.77,11.9,44.0,1,40.5,5.99,19.9,0,0,1,1,0,504,-9203,16383,465,,,,,,,,,,,,,,,,
247943,1620407343533,1,2,40,44,27,28,12,0.35,0.12,0.19,1,-2,2,0.37,0,89,8366,52,25,92,0.747,48.4,628,4.86,11.9,44.0,1,41.3,6.09,19.9,0,0,1,1,0,519,-10483,-22519,471,45.846966,5.178167,46.83,220.1,10,3,1.7,0,0.0,-1,0.0,,0.0,0,2.17,4.1324
247963,1620407343553,,,,,,,,0.37,0.16,0.01,2,0,2,0.41,,89,8453,53,25,92,0.748,48.3,625,4.78,11.9,44.0,1,43.2,6.25,19.9,0,0,1,1,0,574,3580,-9072,471,,,,,,,,,,,,,,,,
247983,1620407343573,,,,,,,,0.41,0.22,-0.16,3,2,3,0.46,,89,8782,57,25,91,0.748,48.9,642,4.83,11.9,52.6,1,40.9,6.34,24.8,0,0,1,1,0,579,-6656,-22359,482,,,,,,,,,,,,,,,,
248003,1620407343591,,,,,,,,0.4,0.3,-0.31,4,1,2,0.5,,89,9213,60,25,91,0.75,49.9,648,4.86,11.9,52.6,1,38.8,6.39,24.8,0,0,1,1,0,541,-22519,2524,485,,,,,,,,,,,,,,,,
248023,1620407343611,,,,,,,,0.46,0.42,-0.16,5,-2,2,0.62,,89,9328,63,25,90,0.754,49.4,651,4.88,11.8,52.6,1,38.9,7.43,24.8,0,0,1,1,0,555,998,506,490,,,,,,,,,,,,,,,,
248043,1620407343631,0,2,36,37,31,29,4,0.45,0.38,-0.17,6,-2,2,0.59,0,89,9436,67,25,91,0.758,51.0,653,4.78,11.9,52.6,1,38.9,7.43,24.8,0,0,1,1,0,634,-4054,-2580,493,45.846954,5.178172,49.23,220.0,10,3,1.7,0,0.0,-1,0.0,0.0,0.0,0,2.17,4.134
248063,1620407343651,,,,,,,,0.55,0.36,-0.32,7,-1,1,0.66,,89,9791,70,25,91,0.761,51.2,659,4.83,11.8,69.7,1,39.4,7.57,34.3,0,0,1,1,0,672,10994,17344,492,,,,,,,,,,,,,,,,
248083,1620407343671,,,,,,,,0.55,0.42,-0.46,8,-2,2,0.69,,89,10223,72,25,90,0.768,50.9,660,4.8,11.8,69.7,1,40.6,7.6,34.3,0,0,1,1,0,582,10994,19621,500,,,,,,,,,,,,,,,,
248103,1620407343693,,,,,,,,0.44,0.29,-0.26,8,-1,0,0.52,,89,10234,72,25,89,0.779,51.9,668,4.8,11.8,69.7,1,40.5,7.41,34.3,0,0,1,1,0,572,-8187,506,495,,,,,,,,,,,,,,,,
248123,1620407343713,,,,,,,,0.46,0.3,-0.4,9,-1,2,0.55,,89,9915,72,25,89,0.787,51.6,663,4.8,11.8,69.7,1,39.5,7.26,34.3,0,0,1,1,0,676,16383,-2830,504,,,,,,,,,,,,,,,,
248143,1620407343733,0,3,38,38,25,25,1,0.5,0.32,-0.54,9,-1,4,0.6,0,89,9952,72,25,88,0.8,52.2,655,4.82,11.9,69.7,1,39.6,6.89,34.3,0,0,1,1,0,690,10408,269,512,45.846943,5.178178,50.94,220.0,10,3,1.7,0,0.0,-1,0.0,,0.0,0,2.17,4.1357
248163,1620407343753,,,,,,,,0.46,0.31,-0.38,10,1,3,0.56,,89,10184,72,25,88,0.805,53.4,659,4.82,11.8,69.7,1,40.2,6.94,34.3,0,0,1,1,0,607,-32248,-388,512,,,,,,,,,,,,,,,,
248183,1620407343773,,,,,,,,0.45,0.35,-0.18,11,1,2,0.57,,89,10324,73,25,88,0.804,52.9,672,4.82,11.8,62.3,1,40.8,6.56,31.9,0,0,1,1,0,602,-9072,16599,521,,,,,,,,,,,,,,,,
248203,1620407343793,,,,,,,,0.45,0.35,-0.0,12,-1,1,0.57,,89,10492,75,25,87,0.803,53.9,665,4.83,11.8,62.3,1,41.2,6.24,31.9,0,0,1,1,0,702,1780,-388,515,,,,,,,,,,,,,,,,
248223,1620407343813,,,,,,,,0.41,0.37,0.16,13,0,1,0.56,,89,10751,77,25,87,0.802,53.6,667,4.83,11.8,62.3,1,41.9,5.85,31.9,0,0,1,1,0,752,-28648,1010,525,,,,,,,,,,,,,,,,
248243,1620407343833,1,0,37,41,29,26,2,0.52,0.31,-0.02,14,0,0,0.61,0,89,11016,77,25,87,0.8,54.6,678,4.81,11.8,62.3,1,42.6,5.65,31.9,0,0,1,1,0,657,2524,31988,527,45.846928,5.178184,52.58,220.0,10,3,1.7,0,0.0,-1,0.0,0.0,0.0,0,2.17,4.1374
248263,1620407343853,,,,,,,,0.54,0.35,0.11,15,-1,1,0.64,,89,11234,78,25,87,0.797,55.0,680,4.85,11.8,55.5,1,42.8,5.65,29.4,0,0,1,1,0,627,-32248,13016,529,,,,,,,,,,,,,,,,
248283,1620407343873,,,,,,,,0.63,0.29,0.25,17,-4,0,0.69,,89,11363,79,25,88,0.794,55.1,691,4.83,11.8,55.5,1,42.9,5.81,29.4,0,0,1,1,0,707,6274,8010,534,,,,,,,,,,,,,,,,
248303,1620407343895,,,,,,,,0.6,0.3,0.37,18,-5,-1,0.68,,89,11336,80,25,88,0.79,55.8,691,4.81,11.8,55.5,1,42.9,5.81,29.4,0,0,1,1,0,763,-28648,687,531,,,,,,,,,,,,,,,,
