"Interval"|"ms"|0|0|1,"Utc"|"ms"|0|0|1,"Brake_F"|"Bar"|0|2000|10,"Brake_R"|"Bar"|0|2000|10,"Height_RF"|"mm"|0|255|10,"Height_LF"|"mm"|0|255|10,"Height_LR"|"mm"|0|80|10,"Height_RR"|"mm"|0|255|10,"Steering"|"deg"|-100|100|10,"AccelX"|"G"|-3.0|3.0|50,"AccelY"|"G"|-3.0|3.0|50,"AccelZ"|"G"|-3.0|3.0|50,"Yaw"|"Deg/Sec"|-120|120|50,"Pitch"|"Deg/Sec"|-120|120|50,"Roll"|"Deg/Sec"|-120|120|50,"Gsum"|"G"|0.0|3.0|50,"Log_Button"|""|0.0|10.0|10,"WaterTemp"|"C"|0|150|50,"RPM"|"tr/min"|0|14000|50,"TPS"|"%"|0|100|50,"AirTemp"|"C"|0|150|50,"MAP"|"KPa"|0|100|50,"Lambda"|""|0.5|1.5|50,"SpeedDTA"|"kph"|0.0|250.0|50,"OilPress"|"KPa"|0|1500|50,"FuelPressur"|"Bar"|0.0|10.0|50,"Batterie"|"V"|0.0|20.0|50,"ConsoKm"|"L/100km"|0.0|200.0|50,"Gear"|""|0|6|50,"AdvIgnition"|"Deg"|-20.0|70.0|50,"Injection"|"ms"|0.0|10.0|50,"ConsoHr"|"L/Hr"|0.0|10000.0|50,"LC_But_Pres"|""|0|1|50,"LC_Active"|""|0|1|50,"TractionOn"|""|0|1|50,"TractionWet"|""|0|1|50,"FanOn"|""|0|1|50,"RD_Speed"|"km/h"|-30|250|50,"RUD_Speed"|"km/h"|-30|250|50,"LD_Speed"|"km/h"|-30|250|50,"LUD_Speed"|"km/h"|-30|250|50,"Latitude"|"Degrees"|-180.0|180.0|10,"Longitude"|"Degrees"|-180.0|180.0|10,"Speed"|"kph"|0.0|150.0|10,"Altitude"|"m"|0.0|4000.0|10,"GPSSats"|""|0|20|10,"GPSQual"|""|0|5|10,"GPSDOP"|""|0.0|20.0|10,"LapCount"|""|0|0|10,"LapTime"|"Min"|0.0|0.0|10,"Sector"|""|0|0|10,"SectorTime"|"Min"|0.0|0.0|10,"PredTime"|"Min"|0.0|0.0|5,"ElapsedTime"|"Min"|0.0|0.0|10,"CurrentLap"|""|0|0|10,"Distance"|"km"|0.0|0.0|10,"SessionTime"|"Min"|0.0|0.0|10
294363,1620409039975,,,,,,,,-0.4,0.26,-0.59,7,-1,-1,0.48,,98,8061,7,23,30,0.5,54.3,615,4.82,10.1,15.5,1,28.5,2.06,8.3,0,0,1,1,0,548,1779,14504,527,,,,,,,,,,,,,,,,
294383,1620409039995,,,,,,,,-0.37,0.32,-0.7,7,1,0,0.49,,98,7988,8,23,30,0.5,54.4,606,4.85,10.1,15.5,1,28.4,2.03,8.3,0,0,1,1,0,543,-2336,2524,525,,,,,,,,,,,,,,,,
294403,1620409040005,,,,,,,,-0.32,0.4,-0.81,8,2,1,0.52,,98,7881,8,23,29,0.5,53.2,600,4.85,10.0,15.5,1,28.0,2.03,8.3,0,0,1,1,0,538,14504,-32248,519,,,,,,,,,,,,,,,,
294423,1620409040025,,,,,,,,-0.39,0.36,-0.58,8,-1,-1,0.53,,98,7918,8,23,29,0.5,53.7,608,4.82,10.0,14.2,1,28.1,2.03,7.4,0,0,1,1,0,526,-30064,-3482,520,,,,,,,,,,,,,,,,
294443,1620409040045,12,4,27,31,37,36,8,-0.41,0.3,-0.7,9,-0,-0,0.51,0,99,8012,8,22,28,0.5,53.8,594,4.79,10.1,14.2,1,27.8,2.06,7.4,0,0,1,1,0,521,-2934,10994,516,45.846764,5.178255,56.34,222.9,10,3,1.7,0,0.0,-1,0.0,0.0,0.0,0,1.87,4.9074
294463,1620409040065,,,,,,,,-0.36,0.33,-0.8,9,1,0,0.49,,99,8054,8,22,28,0.5,53.2,611,4.87,10.2,14.2,1,27.9,2.1,7.4,0,0,1,1,0,512,14504,-3414,518,,,,,,,,,,,,,,,,
294483,1620409040093,,,,,,,,-0.44,0.29,-0.57,9,-0,-0,0.53,,99,8130,8,22,28,0.5,52.4,611,4.85,10.2,14.2,1,27.9,2.18,7.4,0,0,1,1,0,513,-32248,6274,509,,,,,,,,,,,,,,,,
294503,1620409040113,,,,,,,,-0.36,0.36,-0.69,9,0,-0,0.51,,99,8191,8,22,28,0.5,52.0,612,4.88,10.0,14.2,1,27.9,2.23,7.4,0,0,1,1,0,510,1248,11560,510,,,,,,,,,,,,,,,,
294523,1620409040133,,,,,,,,-0.37,0.38,-0.48,9,0,-2,0.53,,99,8194,8,22,27,0.5,51.8,613,4.88,10.0,14.2,1,27.6,2.24,7.4,0,0,1,1,0,511,1341,6274,509,,,,,,,,,,,,,,,,
294543,1620409040153,6,5,27,32,38,36,8,-0.31,0.41,-0.61,10,2,-2,0.52,0,99,8148,8,22,27,0.5,51.8,615,4.85,10.1,16.6,1,27.6,2.21,8.5,0,0,1,1,0,514,-9212,6274,502,45.846775,5.178245,55.59,222.9,10,3,1.7,0,0.0,-1,0.0,,0.0,0,1.87,4.909
294563,1620409040173,,,,,,,,-0.29,0.44,-0.39,10,-0,-3,0.52,,99,8071,8,22,27,0.5,51.5,620,4.86,10.0,16.6,1,27.6,2.14,8.5,0,0,1,1,0,516,-4054,-32248,504,,,,,,,,,,,,,,,,
294583,1620409040195,,,,,,,,-0.34,0.37,-0.22,10,-0,-3,0.5,,99,8002,8,22,27,0.5,51.2,606,4.81,10.0,16.6,1,27.5,2.08,8.5,0,0,1,1,0,510,17136,2109,495,,,,,,,,,,,,,,,,
294603,1620409040215,,,,,,,,-0.29,0.43,-0.37,10,2,-1,0.52,,99,7928,8,22,27,0.5,51.1,595,4.75,10.1,16.6,1,27.5,2.08,8.5,0,0,1,1,0,509,-3856,11560,501,,,,,,,,,,,,,,,,
294623,1620409040235,,,,,,,,-0.25,0.46,-0.42,10,0,-2,0.52,,99,7878,8,22,27,0.5,49.9,597,4.86,10.0,15.1,1,27.4,2.08,7.5,0,0,1,1,0,505,-22519,2524,496,,,,,,,,,,,,,,,,
294643,1620409040255,6,2,27,31,37,36,7,-0.26,0.45,-0.22,10,-0,-4,0.52,0,99,7841,8,22,27,0.5,50.5,597,4.83,10.0,15.1,1,27.4,2.08,7.5,0,0,1,1,0,497,6274,-6528,497,45.846786,5.178235,54.26,222.9,10,3,1.7,0,0.0,-1,0.0,0.0,0.0,0,1.88,4.9107
294663,1620409040275,,,,,,,,-0.33,0.37,-0.03,9,-1,-4,0.5,,99,7819,8,22,27,0.5,50.8,599,4.81,10.0,15.1,1,27.4,2.08,7.5,0,0,1,1,0,496,10408,-6656,497,,,,,,,,,,,,,,,,
294683,1620409040294,,,,,,,,-0.3,0.38,-0.2,9,1,-2,0.49,,99,7828,8,22,27,0.5,49.9,590,4.83,10.1,15.1,1,27.4,2.08,7.5,0,0,1,1,0,494,-22519,505,492,,,,,,,,,,,,,,,,
294703,1620409040314,,,,,,,,-0.26,0.41,-0.35,9,3,-1,0.49,,99,7812,8,22,27,0.5,49.6,583,4.85,10.0,15.1,1,27.4,2.08,7.5,0,0,1,1,0,494,3,1,493,,,,,,,,,,,,,,,,
294723,1620409040334,,,,,,,,-0.29,0.43,-0.15,9,-2,-2,0.52,,99,7789,8,22,27,0.5,49.2,600,4.86,10.0,15.4,1,27.3,2.08,7.5,0,0,1,1,0,491,-32768,-6441,486,,,,,,,,,,,,,,,,
294743,1620409040354,7,3,27,31,37,36,7,-0.28,0.38,0.03,9,-3,-3,0.47,0,99,7767,8,22,28,0.5,49.1,592,4.87,10.0,15.4,1,27.6,2.06,7.5,0,0,1,1,0,488,248,-1562,485,45.846798,5.178226,52.82,222.9,10,3,1.7,0,0.0,-1,0.0,,0.0,0,1.88,4.9124
294763,1620409040374,,,,,,,,-0.34,0.36,0.19,9,-5,-5,0.49,,99,7703,8,22,28,0.5,49.3,581,4.83,10.1,15.4,1,27.6,2.06,7.5,0,0,1,1,0,487,-6528,-10483,484,,,,,,,,,,,,,,,,
294783,1620409040392,,,,,,,,-0.36,0.33,0.01,9,-3,-4,0.49,,99,7631,8,22,28,0.5,49.0,582,4.79,10.0,15.4,1,27.6,2.06,7.5,0,0,1,1,0,489,-1818,8488,478,,,,,,,,,,,,,,,,
294803,1620409040412,,,,,,,,-0.34,0.29,-0.16,9,-1,-3,0.45,,99,7578,8,22,28,0.5,48.6,574,4.87,10.2,15.4,1,27.5,2.06,7.5,0,0,1,1,0,486,-1562,16648,479,,,,,,,,,,,,,,,,
294823,1620409040432,,,,,,,,-0.37,0.28,-0.31,9,1,-2,0.47,,99,7530,8,22,28,0.5,48.3,567,4.8,10.0,15.4,1,27.5,2.06,7.5,0,0,1,1,0,481,3580,-17956,474,,,,,,,,,,,,,,,,
294843,1620409040452,9,3,27,30,37,36,6,-0.37,0.26,-0.45,9,3,-1,0.45,0,99,7545,8,22,29,0.5,47.8,565,4.86,10.1,14.9,1,27.9,2.04,7.1,0,0,1,1,0,476,16648,32033,470,45.846809,5.178216,51.36,222.9,10,3,1.7,0,0.0,-1,0.0,0.0,0.0,0,1.88,4.9141
294863,1620409040472,,,,,,,,-0.39,0.25,-0.58,9,4,-1,0.46,,99,7527,8,22,29,0.5,47.8,570,4.87,10.2,14.9,1,27.9,2.04,7.1,0,0,1,1,0,474,16648,8488,471,,,,,,,,,,,,,,,,
294883,1620409040494,,,,,,,,-0.32,0.32,-0.7,8,7,0,0.45,,99,7512,8,22,29,0.5,48.1,565,4.86,10.1,14.9,1,27.9,2.04,7.1,0,0,1,1,0,472,32033,10432,473,,,,,,,,,,,,,,,,
294903,1620409040514,,,,,,,,-0.3,0.35,-0.81,8,7,1,0.47,,99,7485,8,22,29,0.5,47.0,576,4.88,10.1,14.9,1,27.8,2.04,7.1,0,0,1,1,0,475,8488,243,467,,,,,,,,,,,,,,,,
294923,1620409040534,,,,,,,,-0.26,0.37,-0.91,8,9,2,0.45,,99,7419,8,22,29,0.5,47.2,560,4.81,10.1,14.9,1,27.8,2.02,7.1,0,0,1,1,0,471,10432,16408,459,,,,,,,,,,,,,,,,
294943,1620409040554,9,4,27,28,37,36,5,-0.28,0.32,-1.0,8,9,1,0.43,0,99,7387,8,22,30,0.5,46.7,559,4.85,10.1,15.0,1,28.2,2.02,7.0,0,0,1,1,0,467,-1923,6193,455,45.846821,5.178205,50.81,222.9,10,3,1.7,0,0.0,-1,0.0,,0.0,0,1.88,4.9157
294963,1620409040574,,,,,,,,-0.28,0.23,-1.08,8,6,-1,0.36,,99,7324,8,22,30,0.5,46.2,560,4.82,10.0,15.0,1,28.2,2.02,7.0,0,0,1,1,0,466,12552,-23623,458,,,,,,,,,,,,,,,,
294983,1620409040594,,,,,,,,-0.32,0.21,-0.82,8,3,-3,0.39,,99,7292,8,22,30,0.5,46.3,561,4.87,10.2,15.0,1,28.2,2.02,7.0,0,0,1,1,0,463,6193,-23623,460,,,,,,,,,,,,,,,,
295003,1620409040614,,,,,,,,-0.33,0.18,-0.59,8,-0,-3,0.38,,99,7228,8,22,31,0.5,46.7,561,4.87,10.1,15.0,1,28.6,2.0,7.0,0,0,1,1,0,461,243,-9160,461,,,,,,,,,,,,,,,,
295023,1620409040634,,,,,,,,-0.3,0.2,-0.37,7,5,-1,0.36,,99,7205,8,22,31,0.5,45.5,548,4.87,10.1,14.7,1,28.6,2.0,6.6,0,0,1,1,0,455,-26615,-6387,455,,,,,,,,,,,,,,,,
295043,1620409040654,9,4,27,31,36,37,5,-0.3,0.18,-0.51,7,6,0,0.35,0,100,7197,8,22,31,0.5,45.3,543,4.84,10.1,14.7,1,28.5,2.0,6.6,0,0,1,1,0,452,-9160,15649,452,45.846828,5.178196,49.45,223.0,10,3,1.7,0,0.0,-1,0.0,0.0,0.0,0,1.88,4.9174
295063,1620409040674,,,,,,,,-0.28,0.14,-0.63,7,7,-1,0.32,,100,7181,8,22,31,0.5,45.3,543,4.82,10.2,14.7,1,28.5,2.0,6.6,0,0,1,1,0,454,-8985,15649,445,,,,,,,,,,,,,,,,
295083,1620409040694,,,,,,,,-0.32,0.11,-0.41,6,3,-2,0.34,,100,7151,8,22,32,0.5,45.0,545,4.86,10.2,14.7,1,29.0,1.97,6.6,0,0,1,1,0,449,-3267,16648,444,,,,,,,,,,,,,,,,
295103,1620409040714,,,,,,,,-0.3,0.15,-0.21,6,1,-2,0.33,,100,7102,8,22,32,0.5,44.6,547,4.86,10.1,14.7,1,29.0,1.97,6.6,0,0,1,1,0,448,16648,10305,444,,,,,,,,,,,,,,,,
295123,1620409040734,,,,,,,,-0.29,0.17,-0.36,6,6,1,0.34,,100,7070,8,22,32,0.5,44.7,547,4.85,10.1,14.4,1,29.0,1.97,6.4,0,0,1,1,0,446,15649,-18341,442,,,,,,,,,,,,,,,,
295143,1620409040754,9,6,28,31,36,37,4,-0.35,0.14,-0.5,6,2,-1,0.38,0,100,7011,8,22,32,0.5,44.3,537,4.81,10.2,14.4,1,29.0,1.97,6.4,0,0,1,1,0,443,-18341,26704,442,45.84684,5.178186,47.99,222.9,10,3,1.7,0,0.0,-1,0.0,,0.0,0,1.88,4.9191
295163,1620409040774,,,,,,,,-0.33,0.13,-0.29,5,1,-1,0.35,,100,6929,8,22,32,0.5,44.1,535,4.83,10.1,14.4,1,28.9,1.97,6.4,0,0,1,1,0,441,26704,19477,438,,,,,,,,,,,,,,,,
295183,1620409040794,,,,,,,,-0.32,0.14,-0.43,5,5,0,0.35,,100,6883,8,22,32,0.5,44.0,523,4.85,10.3,14.4,1,28.9,1.97,6.4,0,0,1,1,0,439,20625,19477,438,,,,,,,,,,,,,,,,
295203,1620409040814,,,,,,,,-0.34,0.13,-0.23,5,-1,-1,0.37,,100,6840,8,22,33,0.5,43.4,515,4.81,10.2,14.4,1,29.1,2.02,6.4,0,0,1,1,0,436,-768,-3322,434,,,,,,,,,,,,,,,,
295223,1620409040834,,,,,,,,-0.34,0.17,-0.38,4,3,1,0.38,,100,6838,8,22,33,0.5,43.2,519,4.87,10.2,14.4,1,29.1,2.02,6.4,0,0,1,1,0,431,-3322,-3322,426,,,,,,,,,,,,,,,,
295243,1620409040854,11,4,27,28,36,37,0,-0.33,0.14,-0.18,4,-2,-1,0.36,0,100,6860,8,23,33,0.5,42.9,510,4.83,10.3,15.0,1,29.1,2.01,6.4,0,0,1,1,0,422,31796,13552,429,45.846848,5.178177,46.89,222.9,10,3,1.7,0,0.0,-1,0.0,0.0,0.0,0,1.88,4.9207
295263,1620409040874,,,,,,,,-0.32,0.18,-0.33,3,5,1,0.37,,100,6808,8,23,33,0.5,42.7,514,4.87,10.3,15.0,1,29.0,2.01,6.4,0,0,1,1,0,425,31796,-4082,424,,,,,,,,,,,,,,,,
295283,1620409040894,,,,,,,,-0.34,0.1,-0.47,3,2,-1,0.36,,100,6791,8,23,33,0.5,42.6,507,4.83,10.3,15.0,1,29.0,2.01,6.4,0,0,1,1,0,425,13552,-4082,425,,,,,,,,,,,,,,,,
295303,1620409040914,,,,,,,,-0.38,0.1,-0.6,3,2,1,0.39,,100,6718,8,23,33,0.5,41.9,515,4.88,10.3,15.0,1,29.0,2.01,6.4,0,0,1,1,0,422,7154,-4082,417,,,,,,,,,,,,,,,,
295323,1620409040934,,,,,,,,-0.3,0.06,-0.38,2,-5,-1,0.31,,100,6667,8,23,33,0.5,41.7,507,4.86,10.2,14.8,1,29.0,2.01,6.2,0,0,1,1,0,419,-21944,-3414,417,,,,,,,,,,,,,,,,
295343,1620409040954,12,5,28,30,35,37,-3,-0.35,0.07,-0.51,1,3,2,0.36,0,100,6613,8,23,33,0.5,41.7,497,4.87,10.3,14.8,1,28.9,2.01,6.2,0,0,1,1,0,415,-9166,7154,415,45.846859,5.178167,45.55,222.9,10,3,1.7,0,0.0,-1,0.0,,0.0,0,1.88,4.9224
295363,1620409040974,,,,,,,,-0.38,0.05,-0.3,1,-2,0,0.38,,100,6574,8,23,34,0.5,41.7,498,4.82,10.3,14.8,1,29.1,2.06,6.2,0,0,1,1,0,414,9517,7154,417,,,,,,,,,,,,,,,,
295383,1620409040994,,,,,,,,-0.31,-0.03,-0.45,0,-7,-1,0.31,,100,6514,8,23,34,0.5,41.5,499,4.91,10.3,14.8,1,29.1,2.06,6.2,0,0,1,1,0,410,11560,-26615,413,,,,,,,,,,,,,,,,
295403,1620409041008,,,,,,,,-0.3,0.04,-0.58,-1,3,3,0.3,,100,6485,8,23,34,0.5,41.4,500,4.88,10.2,14.8,1,29.0,2.06,6.2,0,0,1,1,0,407,2524,-4059,414,,,,,,,,,,,,,,,,
295423,1620409041028,,,,,,,,-0.34,0.02,-0.36,-1,-4,1,0.34,,100,6447,8,23,34,0.5,41.2,491,4.81,10.2,14.8,1,29.0,2.06,6.2,0,0,1,1,0,401,6512,9517,412,,,,,,,,,,,,,,,,
295443,1620409041048,12,7,28,28,35,38,-6,-0.28,-0.06,-0.33,-2,-9,-1,0.29,0,100,6425,8,23,35,0.5,40.5,484,4.86,10.2,14.8,1,29.3,2.11,6.1,0,0,1,1,0,400,-3968,11560,403,45.846867,5.178158,44.36,222.9,10,3,1.7,0,0.0,-1,0.0,0.0,0.0,0,1.89,4.924
295463,1620409041068,,,,,,,,-0.33,-0.11,-0.47,-3,-3,2,0.35,,100,6381,8,23,35,0.5,40.3,488,4.85,10.1,14.8,1,29.2,2.11,6.1,0,0,1,1,0,398,1,-9211,403,,,,,,,,,,,,,,,,
295483,1620409041094,,,,,,,,-0.38,-0.05,-0.42,-4,2,4,0.38,,100,6323,8,23,35,0.5,40.2,489,4.86,10.1,14.8,1,29.1,2.11,6.1,0,0,1,1,0,393,-6475,1504,402,,,,,,,,,,,,,,,,
295503,1620409041114,,,,,,,,-0.4,-0.0,-0.22,-5,-0,1,0.4,,100,6302,8,23,36,0.5,40.1,482,4.81,10.2,14.8,1,29.4,2.17,6.1,0,0,1,1,0,389,-3866,10541,401,,,,,,,,,,,,,,,,
295523,1620409041134,,,,,,,,-0.3,-0.04,-0.03,-7,-8,-2,0.3,,100,6243,8,23,36,0.5,39.9,473,4.83,10.2,14.8,1,29.3,2.17,6.1,0,0,1,1,0,388,-3866,11545,399,,,,,,,,,,,,,,,,
295543,1620409041154,11,7,29,27,35,39,-10,-0.29,-0.12,-0.19,-9,-10,-1,0.31,0,100,6175,8,23,37,0.5,40.1,469,4.85,10.3,15.5,1,29.5,2.22,6.2,0,0,1,1,0,385,19125,6384,401,45.846878,5.178149,42.7,222.9,10,3,1.7,0,0.0,-1,0.0,,0.0,0,1.89,4.9257
295563,1620409041174,,,,,,,,-0.17,-0.23,-0.35,-10,-8,-1,0.29,,100,6087,8,23,38,0.5,39.7,468,4.91,10.1,15.5,1,29.6,2.22,6.2,0,0,1,1,0,381,-992,-32702,395,,,,,,,,,,,,,,,,
295583,1620409041192,,,,,,,,-0.16,-0.32,-0.48,-11,-6,-1,0.35,,100,6007,8,23,38,0.5,38.8,455,4.85,10.1,15.5,1,29.6,2.27,6.2,0,0,1,1,0,376,-6656,-6656,388,,,,,,,,,,,,,,,,
295603,1620409041212,,,,,,,,-0.15,-0.34,-0.61,-11,-11,-2,0.37,,100,5927,8,23,39,0.5,39.0,448,4.86,10.1,15.5,1,29.6,2.36,6.2,0,0,1,1,0,373,-6656,240,390,,,,,,,,,,,,,,,,
295623,1620409041232,,,,,,,,-0.18,-0.34,-0.45,-12,-12,-3,0.38,,100,5890,8,23,40,0.5,38.8,444,4.83,10.1,15.5,1,29.6,2.37,6.2,0,0,1,1,0,364,0,-19019,388,,,,,,,,,,,,,,,,
295643,1620409041252,12,7,28,25,35,39,-13,-0.16,-0.34,-0.27,-13,-16,-5,0.37,0,100,5946,8,23,41,0.5,38.8,443,4.88,10.1,16.4,1,29.9,2.36,6.4,0,0,1,1,0,361,-6405,-19126,388,45.846886,5.178141,41.62,222.8,10,3,1.7,0,0.0,-1,0.0,0.0,0.0,0,1.89,4.9274
295663,1620409041272,,,,,,,,-0.12,-0.35,-0.08,-14,-17,-6,0.37,,100,5988,8,23,41,0.5,38.3,449,4.85,10.1,16.4,1,30.0,2.34,6.4,0,0,1,1,0,357,-29302,8200,381,,,,,,,,,,,,,,,,
295683,1620409041293,,,,,,,,-0.09,-0.37,0.1,-15,-21,-8,0.38,,100,5961,8,23,42,0.5,37.8,458,4.86,10.1,16.4,1,30.2,2.36,6.4,0,0,1,1,0,357,2790,-18948,383,,,,,,,,,,,,,,,,
295703,1620409041313,,,,,,,,-0.11,-0.36,0.25,-16,-24,-9,0.37,,100,5903,8,23,43,0.5,37.9,452,4.84,10.0,16.4,1,30.2,2.39,6.4,0,0,1,1,0,355,-6644,-6656,379,,,,,,,,,,,,,,,,
295723,1620409041333,,,,,,,,-0.19,-0.37,0.4,-17,-27,-10,0.42,,100,5839,8,23,43,0.5,37.0,443,4.81,10.1,17.5,1,30.1,2.41,6.5,0,0,1,1,0,353,-30454,3,370,,,,,,,,,,,,,,,,
295743,1620409041353,12,5,30,25,35,40,-20,-0.25,-0.38,0.53,-18,-27,-10,0.45,0,100,5778,8,23,44,0.5,36.9,440,4.85,10.0,17.5,1,30.2,2.44,6.5,0,0,1,1,0,349,-1246,-6656,369,45.846893,5.178132,39.65,222.9,10,3,1.7,0,0.0,-1,0.0,,0.0,0,1.89,4.929
295763,1620409041373,,,,,,,,-0.26,-0.4,0.32,-19,-22,-7,0.48,,100,5719,8,23,45,0.5,37.1,434,4.85,10.0,17.5,1,30.3,2.48,6.5,0,0,1,1,0,348,-14714,257,371,,,,,,,,,,,,,,,,
295783,1620409041393,,,,,,,,-0.23,-0.45,0.13,-20,-18,-6,0.51,,100,5662,8,23,46,0.5,36.9,425,4.83,10.1,17.5,1,30.3,2.51,6.5,0,0,1,1,0,343,2560,0,369,,,,,,,,,,,,,,,,
295803,1620409041413,,,,,,,,-0.25,-0.54,0.29,-22,-18,-6,0.59,,100,5593,8,23,46,0.5,36.8,420,4.86,10.1,17.5,1,30.2,2.54,6.5,0,0,1,1,0,337,175,0,368,,,,,,,,,,,,,,,,
295823,1620409041433,,,,,,,,-0.33,-0.5,0.43,-23,-17,-6,0.6,,100,5539,8,23,47,0.5,37.1,418,4.77,10.0,17.7,1,30.4,2.59,6.6,0,0,1,1,0,330,175,-1268,371,,,,,,,,,,,,,,,,
295843,1620409041453,11,6,32,23,34,41,-29,-0.27,-0.56,0.23,-25,-15,-5,0.62,0,100,5490,8,23,48,0.5,36.5,421,4.85,10.1,17.7,1,30.5,2.61,6.6,0,0,1,1,0,329,-6528,-1268,365,45.846905,5.178125,38.27,222.8,10,3,1.7,0,0.0,-1,0.0,0.0,0.0,0,1.89,4.9307
295863,1620409041473,,,,,,,,-0.28,-0.64,0.36,-26,-16,-6,0.7,,100,5420,8,23,48,0.5,36.4,408,4.86,10.1,17.7,1,30.4,2.64,6.6,0,0,1,1,0,325,-24576,3082,364,,,,,,,,,,,,,,,,
295883,1620409041493,,,,,,,,-0.31,-0.66,0.18,-28,-13,-5,0.73,,100,5343,8,23,49,0.5,35.7,405,4.8,10.0,17.7,1,30.6,2.68,6.6,0,0,1,1,0,319,-28416,-14707,357,,,,,,,,,,,,,,,,
295903,1620409041513,,,,,,,,-0.27,-0.72,-0.0,-29,-14,-5,0.77,,100,5287,8,23,50,0.5,35.8,402,4.89,10.1,17.7,1,30.8,2.73,6.6,0,0,1,1,0,316,-28416,-29978,358,,,,,,,,,,,,,,,,
295923,1620409041533,,,,,,,,-0.29,-0.72,-0.17,-31,-11,-5,0.78,,100,5230,8,23,51,0.5,35.4,400,4.79,10.0,18.9,1,31.0,2.77,6.7,0,0,1,1,0,311,-30976,2060,354,,,,,,,,,,,,,,,,
295943,1620409041553,11,6,32,23,34,43,-35,-0.29,-0.76,-0.15,-32,-12,-4,0.81,0,100,5198,8,23,51,0.5,35.5,382,4.89,10.1,18.9,1,31.0,2.79,6.7,0,0,1,1,0,308,115,2060,355,45.846909,5.178118,37.33,222.8,10,3,1.7,0,0.0,-1,0.0,,0.0,0,1.89,4.9324
295963,1620409041573,,,,,,,,-0.33,-0.75,-0.3,-33,-8,-3,0.82,,100,5172,8,23,52,0.5,35.2,391,4.83,10.0,18.9,1,31.3,2.82,6.7,0,0,1,1,0,293,24320,-1246,352,,,,,,,,,,,,,,,,
295983,1620409041595,,,,,,,,-0.38,-0.81,-0.11,-35,-9,-3,0.9,,101,5129,8,23,52,0.5,34.6,370,4.87,10.1,18.9,1,31.3,2.86,6.7,0,0,1,1,0,290,105,-1246,346,,,,,,,,,,,,,,,,
296003,1620409041615,,,,,,,,-0.29,-0.84,-0.27,-36,-9,-4,0.89,,101,5093,8,23,53,0.5,34.5,375,4.87,10.1,18.9,1,31.5,2.88,6.7,0,0,1,1,0,292,25600,-30438,349,,,,,,,,,,,,,,,,
296023,1620409041635,,,,,,,,-0.35,-0.81,-0.14,-38,-8,-4,0.88,,101,5052,8,23,52,0.5,34.5,385,4.82,10.1,18.9,1,31.1,2.9,6.7,0,0,1,1,0,285,28160,6870,346,,,,,,,,,,,,,,,,
296043,1620409041655,9,6,33,23,34,44,-39,-0.38,-0.88,-0.17,-39,-8,-3,0.96,0,101,5013,8,23,53,0.5,34.0,367,4.82,10.1,19.4,1,31.4,2.95,6.7,0,0,1,1,0,276,90,-31206,340,45.84692,5.178113,35.53,222.8,10,3,1.7,0,0.0,-1,0.0,0.0,0.0,0,1.89,4.9341
296063,1620409041675,,,,,,,,-0.34,-0.91,-0.32,-40,-6,-3,0.97,,101,4985,8,23,53,0.5,33.9,375,4.86,10.1,19.4,1,31.2,2.93,6.7,0,0,1,1,0,272,0,3327,339,,,,,,,,,,,,,,,,
296083,1620409041695,,,,,,,,-0.37,-0.92,-0.42,-42,-5,-3,0.99,,101,4925,8,23,53,0.5,33.7,371,4.85,10.0,19.4,1,30.5,2.9,6.7,0,0,1,1,0,290,20480,3346,337,,,,,,,,,,,,,,,,
296103,1620409041715,,,,,,,,-0.45,-0.85,-0.22,-43,-5,-3,0.96,,101,4909,8,23,54,0.5,33.3,356,4.86,10.1,19.4,1,30.6,2.9,6.7,0,0,1,1,0,283,10686,4838,338,,,,,,,,,,,,,,,,
296123,1620409041735,,,,,,,,-0.38,-0.84,-0.36,-43,-8,-3,0.93,,101,4881,8,23,54,0.5,33.3,358,4.86,10.1,19.4,1,30.3,2.88,6.7,0,0,1,1,0,278,-1529,175,333,,,,,,,,,,,,,,,,
296143,1620409041755,7,5,33,22,35,44,-41,-0.31,-0.88,-0.5,-45,-6,-2,0.94,0,101,4852,8,23,55,0.5,33.6,366,4.81,10.1,19.5,1,30.2,2.86,6.5,0,0,1,1,0,269,-1529,170,336,45.846928,5.178109,34.07,222.8,10,3,1.7,0,0.0,-1,0.0,,0.0,0,1.89,4.9357
296163,1620409041775,,,,,,,,-0.32,-0.88,-0.62,-46,-4,-1,0.94,,101,4779,8,23,55,0.5,32.9,358,4.86,10.0,19.5,1,29.3,2.81,6.5,0,0,1,1,0,271,-1529,-20736,329,,,,,,,,,,,,,,,,
296183,1620409041793,,,,,,,,-0.39,-0.82,-0.5,-46,-3,-1,0.91,,101,4768,8,23,55,0.5,32.7,352,4.85,10.0,19.5,1,29.1,2.8,6.5,0,0,1,1,0,281,30208,-22016,327,,,,,,,,,,,,,,,,
296203,1620409041813,,,,,,,,-0.46,-0.83,-0.29,-47,-3,-2,0.96,,101,4751,8,23,55,0.5,32.5,346,4.87,10.1,19.5,1,28.9,2.79,6.5,0,0,1,1,0,279,-1,160,325,,,,,,,,,,,,,,,,
296223,1620409041833,,,,,,,,-0.49,-0.87,-0.19,-48,-5,-2,1.0,,101,4734,8,23,55,0.5,32.1,342,4.87,10.1,19.5,1,28.7,2.77,6.5,0,0,1,1,0,279,24064,-25856,321,,,,,,,,,,,,,,,,
296243,1620409041853,6,5,36,22,35,42,-45,-0.43,-0.85,-0.25,-48,-5,-1,0.95,0,101,4726,8,23,56,0.5,32.1,350,4.83,10.1,18.6,1,28.9,2.77,6.0,0,0,1,1,0,276,-1,150,321,45.846935,5.178106,33.0,222.8,10,3,1.7,0,0.0,-1,0.0,0.0,0.0,0,1.89,4.9374
296263,1620409041873,,,,,,,,-0.39,-0.87,-0.39,-49,-4,-1,0.96,,101,4733,8,24,56,0.5,32.4,353,4.85,10.0,18.6,1,29.0,2.77,6.0,0,0,1,1,0,272,-1,-27136,324,,,,,,,,,,,,,,,,
296283,1620409041893,,,,,,,,-0.36,-0.91,-0.53,-50,-4,-1,0.98,,101,4722,8,24,56,0.5,32.0,350,4.85,10.0,18.6,1,28.8,2.75,6.0,0,0,1,1,0,277,-1281,145,320,,,,,,,,,,,,,,,,
296303,1620409041913,,,,,,,,-0.38,-0.94,-0.55,-50,-2,0,1.01,,101,4763,8,24,56,0.5,31.7,353,4.86,10.0,18.6,1,29.3,2.79,6.0,0,0,1,1,0,271,-1,140,317,,,,,,,,,,,,,,,,
296323,1620409041933,,,,,,,,-0.46,-0.92,-0.33,-51,-2,-0,1.03,,101,4780,8,24,56,0.5,31.5,345,4.88,10.0,19.6,1,29.6,2.81,6.2,0,0,1,1,0,269,-1,-30976,315,,,,,,,,,,,,,,,,
296343,1620409041953,3,3,37,24,34,42,-53,-0.5,-0.96,-0.16,-51,-3,-1,1.08,0,101,4775,8,24,57,0.5,31.3,343,4.86,10.3,19.6,1,29.8,2.8,6.2,0,0,1,1,0,269,10818,32000,313,45.846943,5.178103,32.55,222.8,10,3,1.7,0,0.0,-1,0.0,,0.0,0,1.9,4.9391
296363,1620409041973,,,,,,,,-0.44,-0.99,-0.32,-52,-3,-1,1.08,,101,4783,8,24,57,0.5,31.1,349,4.82,10.3,19.6,1,29.9,2.8,6.2,0,0,1,1,0,266,-1,120,311,,,,,,,,,,,,,,,,
296383,1620409041993,,,,,,,,-0.37,-1.02,-0.46,-53,-2,-1,1.08,,101,4766,8,24,57,0.5,31.2,353,4.87,10.3,19.6,1,29.7,2.8,6.2,0,0,1,1,0,262,-1,125,312,,,,,,,,,,,,,,,,
296403,1620409042007,,,,,,,,-0.35,-0.97,-0.59,-54,1,0,1.03,,101,4773,8,24,57,0.5,31.2,360,4.85,10.0,19.6,1,29.8,2.8,6.2,0,0,1,1,0,262,-1,32000,312,,,,,,,,,,,,,,,,
296423,1620409042027,,,,,,,,-0.42,-0.93,-0.49,-55,2,-0,1.03,,101,4779,8,24,57,0.5,31.1,350,4.85,10.1,19.6,1,29.9,1.63,6.2,0,0,1,1,0,260,-10440,32000,311,,,,,,,,,,,,,,,,
296443,1620409042047,2,3,36,26,33,44,-55,-0.45,-0.93,-0.29,-56,-1,-1,1.03,0,101,4777,8,24,58,0.5,31.2,347,4.83,10.1,19.9,1,30.1,2.79,6.2,0,0,1,1,0,260,-1,120,308,45.84695,5.178103,30.74,222.8,10,3,1.8,0,0.0,-1,0.0,0.0,0.0,0,1.9,4.9407
296463,1620409042067,,,,,,,,-0.45,-0.92,-0.2,-57,-2,-1,1.03,,101,4760,8,24,58,0.5,31.1,351,4.83,10.1,19.9,1,29.9,2.79,6.2,0,0,1,1,0,264,14337,120,311,,,,,,,,,,,,,,,,
296483,1620409042093,,,,,,,,-0.36,-0.95,-0.35,-57,-2,-1,1.02,,101,4725,8,24,58,0.5,31.0,348,4.87,10.1,19.9,1,29.4,2.77,6.2,0,0,1,1,0,275,506,30720,310,,,,,,,,,,,,,,,,
296503,1620409042113,,,,,,,,-0.28,-0.95,-0.49,-58,-1,-1,0.99,,101,4691,8,24,59,0.5,30.8,353,4.85,10.1,19.9,1,29.3,2.74,6.2,0,0,1,1,0,286,506,29440,308,,,,,,,,,,,,,,,,
296523,1620409042133,,,,,,,,-0.22,-0.94,-0.61,-58,1,0,0.96,,101,4659,8,24,59,0.5,31.0,346,4.86,10.0,18.7,1,28.8,2.73,5.8,0,0,1,1,0,293,506,110,310,,,,,,,,,,,,,,,,
296543,1620409042153,2,3,37,27,33,43,-59,-0.26,-0.92,-0.63,-59,2,1,0.96,0,101,4692,8,24,58,0.5,30.8,342,4.91,10.0,18.7,1,29.0,2.74,5.8,0,0,1,1,0,299,506,28160,308,45.846958,5.178103,29.4,222.7,10,3,1.7,0,0.0,-1,0.0,,0.0,0,1.9,4.9424
296563,1620409042173,,,,,,,,-0.3,-0.91,-0.41,-59,1,-0,0.96,,101,4705,9,24,58,0.5,30.3,346,4.92,10.0,18.7,1,29.2,2.75,5.8,0,0,1,1,0,290,-1,28160,303,,,,,,,,,,,,,,,,
296583,1620409042195,,,,,,,,-0.32,-0.92,-0.21,-59,0,-1,0.98,,101,4709,9,24,59,0.5,30.1,345,4.83,10.1,18.7,1,29.5,2.76,5.8,0,0,1,1,0,270,16896,105,301,,,,,,,,,,,,,,,,
296603,1620409042215,,,,,,,,-0.35,-0.97,-0.2,-59,-2,-1,1.03,,101,4631,8,24,59,0.5,30.5,342,4.87,10.1,18.7,1,28.5,2.72,5.8,0,0,1,1,0,270,-214,26880,305,,,,,,,,,,,,,,,,
296623,1620409042235,,,,,,,,-0.31,-0.99,-0.23,-59,-2,-2,1.03,,101,4583,8,24,59,0.5,30.6,332,4.86,10.1,18.6,1,27.9,2.69,5.7,0,0,1,1,0,286,506,105,301,,,,,,,,,,,,,,,,
296643,1620409042255,2,0,38,27,32,41,-61,-0.24,-0.91,-0.38,-60,-3,-2,0.94,0,101,4549,8,24,59,0.5,30.4,336,4.88,10.1,18.6,1,27.4,2.68,5.7,0,0,1,1,0,295,-214,105,304,45.846966,5.178105,28.86,222.7,10,3,1.7,0,0.0,-1,0.0,0.0,0.0,0,1.9,4.944
296663,1620409042275,,,,,,,,-0.22,-0.92,-0.51,-60,-4,-2,0.94,,101,4587,8,24,59,0.5,30.6,340,4.87,10.1,18.6,1,27.9,2.69,5.7,0,0,1,1,0,269,14337,26880,303,,,,,,,,,,,,,,,,
296683,1620409042294,,,,,,,,-0.17,-0.91,-0.53,-60,-7,-2,0.93,,101,4568,8,24,59,0.5,30.3,337,4.83,10.1,18.6,1,27.7,2.69,5.7,0,0,1,1,0,266,-1,25600,303,,,,,,,,,,,,,,,,
296703,1620409042314,,,,,,,,-0.03,-0.83,-0.65,-60,-7,-2,0.83,,101,4500,8,24,59,0.5,30.0,332,4.8,10.1,18.6,1,26.8,2.66,5.7,0,0,1,1,0,276,16896,100,304,,,,,,,,,,,,,,,,
296723,1620409042334,,,,,,,,0.01,-0.81,-0.76,-60,-8,-2,0.81,,101,4505,8,24,60,0.5,30.0,332,4.89,10.1,18.3,1,27.2,2.67,5.5,0,0,1,1,0,270,10818,100,300,,,,,,,,,,,,,,,,
296743,1620409042354,2,1,38,29,32,41,-64,0.04,-0.82,-0.86,-59,-8,-2,0.83,0,101,4427,8,24,60,0.5,29.9,329,4.84,10.2,18.3,1,26.1,2.63,5.5,0,0,1,1,0,262,-1494,90,299,45.846973,5.178108,29.58,222.7,10,3,1.7,0,0.0,-1,0.0,,0.0,0,1.9,4.9457
296763,1620409042374,,,,,,,,0.03,-0.89,-0.93,-59,-8,-2,0.89,,101,4408,8,24,60,0.5,29.5,321,4.85,10.1,18.3,1,25.9,2.61,5.5,0,0,1,1,0,264,-17920,90,295,,,,,,,,,,,,,,,,
296783,1620409042394,,,,,,,,-0.01,-0.94,-0.68,-59,-9,-2,0.94,,101,4331,8,24,60,0.5,29.7,312,4.82,10.1,18.3,1,24.9,2.6,5.5,0,0,1,1,0,258,23482,23040,297,,,,,,,,,,,,,,,,
296803,1620409042414,,,,,,,,-0.07,-0.87,-0.46,-59,-8,-2,0.87,,101,4356,8,24,60,0.5,29.6,319,4.82,10.1,18.3,1,25.2,2.61,5.5,0,0,1,1,0,255,23482,23040,296,,,,,,,,,,,,,,,,
296823,1620409042434,,,,,,,,-0.14,-0.87,-0.37,-59,-6,-2,0.88,,101,4326,8,24,60,0.5,29.7,322,4.87,10.1,18.3,1,24.8,2.6,5.5,0,0,1,1,0,254,-1494,21760,297,,,,,,,,,,,,,,,,
296843,1620409042454,2,2,38,29,32,41,-64,-0.16,-0.83,-0.5,-59,-4,-1,0.85,0,101,4278,8,24,60,0.5,29.5,321,4.83,10.2,17.5,1,24.2,2.57,5.2,0,0,1,1,0,251,15360,85,298,45.846981,5.178112,28.53,222.7,10,3,1.7,0,0.0,-1,0.0,0.0,0.0,0,1.9,4.9474
296863,1620409042474,,,,,,,,-0.15,-0.86,-0.62,-60,-2,-1,0.87,,101,4317,9,24,61,0.5,29.8,327,4.9,10.1,17.5,1,25.0,2.61,5.2,0,0,1,1,0,251,23482,85,298,,,,,,,,,,,,,,,,
296883,1620409042494,,,,,,,,-0.11,-0.94,-0.74,-60,-2,-1,0.95,,101,4308,8,24,61,0.5,29.8,321,4.87,10.1,17.5,1,24.9,1.44,5.2,0,0,1,1,0,251,-1494,85,293,,,,,,,,,,,,,,,,
296903,1620409042514,,,,,,,,-0.08,-0.98,-0.8,-61,-2,-1,0.98,,101,4229,8,24,61,0.5,29.6,319,4.87,10.1,17.5,1,23.8,2.58,5.2,0,0,1,1,0,253,-1445,20480,296,,,,,,,,,,,,,,,,
296923,1620409042534,,,,,,,,-0.1,-1.02,-0.68,-62,-4,-2,1.03,,101,4273,8,24,61,0.5,29.6,309,4.85,10.3,17.2,1,24.4,2.6,5.1,0,0,1,1,0,252,15360,80,293,,,,,,,,,,,,,,,,
296943,1620409042554,1,2,38,27,32,42,-61,-0.15,-0.97,-0.47,-62,-4,-2,0.98,0,101,4278,8,24,61,0.5,29.8,316,4.86,10.1,17.2,1,24.5,2.6,5.1,0,0,1,1,0,257,23482,80,298,45.846985,5.178116,28.09,222.6,10,3,1.7,0,0.0,-1,0.0,,0.0,0,1.9,4.949
296963,1620409042574,,,,,,,,-0.22,-0.98,-0.36,-63,-3,-2,1.0,,101,4221,8,24,61,0.5,29.6,311,4.82,10.1,17.2,1,23.7,2.58,5.1,0,0,1,1,0,249,13468,20480,296,,,,,,,,,,,,,,,,
296983,1620409042594,,,,,,,,-0.22,-0.9,-0.44,-63,-1,-2,0.93,,101,4268,8,24,61,0.5,29.4,317,4.81,10.0,17.2,1,24.4,2.59,5.1,0,0,1,1,0,240,-1445,20480,294,,,,,,,,,,,,,,,,
297003,1620409042614,,,,,,,,-0.19,-0.91,-0.57,-64,-1,-1,0.93,,101,4301,8,24,61,0.5,29.2,322,4.85,10.0,17.2,1,24.8,1.44,5.1,0,0,1,1,0,241,13468,41,292,,,,,,,,,,,,,,,,
297023,1620409042634,,,,,,,,-0.13,-0.94,-0.69,-64,0,-2,0.95,,101,4267,8,24,61,0.5,29.2,317,4.87,10.3,17.4,1,24.3,2.59,5.1,0,0,1,1,0,244,-25600,0,291,,,,,,,,,,,,,,,,
297043,1620409042654,2,3,38,29,33,41,-61,-0.11,-0.87,-0.7,-64,-2,-2,0.87,0,101,4259,8,24,62,0.5,29.3,316,4.86,10.1,17.4,1,24.4,2.63,5.1,0,0,1,1,0,242,-1483,10686,293,45.846989,5.178122,28.15,222.5,10,3,1.7,0,0.0,-1,0.0,0.0,0.0,0,1.9,4.9507
297063,1620409042674,,,,,,,,-0.13,-0.89,-0.49,-64,-5,-3,0.9,,101,4278,8,24,62,0.5,28.9,309,4.87,10.1,17.4,1,24.7,2.6,5.1,0,0,1,1,0,247,13468,10686,290,,,,,,,,,,,,,,,,
297083,1620409042694,,,,,,,,-0.18,-0.91,-0.33,-63,-6,-2,0.93,,101,4276,8,24,62,0.5,28.3,315,4.83,10.3,17.4,1,24.7,2.6,5.1,0,0,1,1,0,242,-1445,10686,283,,,,,,,,,,,,,,,,
297103,1620409042714,,,,,,,,-0.24,-0.92,-0.33,-63,-3,-2,0.95,,101,4268,8,24,61,0.5,29.0,311,4.8,10.0,17.4,1,24.4,2.59,5.1,0,0,1,1,0,245,-1445,250,290,,,,,,,,,,,,,,,,
297123,1620409042734,,,,,,,,-0.21,-0.99,-0.46,-62,-1,-2,1.01,,101,4274,8,24,62,0.5,28.1,321,4.88,10.2,18.5,1,24.6,2.64,5.2,0,0,1,1,0,243,-1445,-1529,282,,,,,,,,,,,,,,,,
297143,1620409042754,1,2,38,27,32,41,-61,-0.15,-1.0,-0.59,-62,-1,0,1.01,0,101,4222,8,24,62,0.5,28.4,321,4.92,10.3,18.5,1,24.0,2.62,5.2,0,0,1,1,0,248,250,-1529,284,45.846996,5.178128,27.16,222.5,10,3,1.7,0,0.0,-1,0.0,,0.0,0,1.9,4.9524
297163,1620409042774,,,,,,,,-0.09,-1.02,-0.62,-61,-1,0,1.02,,101,4201,9,24,62,0.5,27.9,309,4.84,10.1,18.5,1,23.7,2.61,5.2,0,0,1,1,0,252,13468,24064,279,,,,,,,,,,,,,,,,
297183,1620409042794,,,,,,,,-0.14,-1.09,-0.43,-61,-4,0,1.1,,101,4206,10,24,62,0.5,28.0,306,4.87,10.1,18.5,1,23.7,2.61,5.2,0,0,1,1,0,247,250,24064,284,,,,,,,,,,,,,,,,
297203,1620409042814,,,,,,,,-0.19,-1.08,-0.31,-61,-4,-1,1.09,,101,4151,11,24,63,0.5,28.6,303,4.85,10.1,18.5,1,23.2,2.59,5.2,0,0,1,1,0,245,-25600,1886,286,,,,,,,,,,,,,,,,
297223,1620409042834,,,,,,,,-0.16,-1.03,-0.45,-61,-3,-0,1.04,,101,4170,11,24,63,0.5,28.3,318,4.88,10.0,18.5,1,23.6,2.68,5.2,0,0,1,1,0,255,13468,-1529,283,,,,,,,,,,,,,,,,
297243,1620409042854,2,1,38,26,32,39,-62,-0.1,-1.03,-0.58,-61,-3,-0,1.03,0,101,4182,13,24,65,0.5,28.6,316,4.89,10.1,18.0,1,24.1,2.73,5.1,0,0,1,1,0,239,250,-1534,288,45.847004,5.178135,26.98,222.4,10,3,1.7,0,0.0,-1,0.0,0.0,0.0,0,1.9,4.9541
297263,1620409042874,,,,,,,,-0.14,-1.08,-0.5,-61,-5,0,1.09,,101,4179,14,24,66,0.5,28.9,305,4.85,10.1,18.0,1,24.4,2.77,5.1,0,0,1,1,0,242,-1483,24064,289,,,,,,,,,,,,,,,,
297283,1620409042894,,,,,,,,-0.18,-1.11,-0.3,-61,-6,1,1.13,,101,4242,14,24,68,0.5,28.5,302,4.86,10.1,18.0,1,25.8,2.89,5.1,0,0,1,1,0,246,-1494,250,285,,,,,,,,,,,,,,,,
297303,1620409042914,,,,,,,,-0.21,-1.09,-0.3,-61,-5,-1,1.11,,101,4224,14,24,69,0.5,28.5,310,4.82,10.1,18.0,1,25.7,2.87,5.1,0,0,1,1,0,244,250,250,288,,,,,,,,,,,,,,,,
297323,1620409042934,,,,,,,,-0.17,-1.15,-0.44,-61,-3,-1,1.16,,101,4108,14,24,70,0.5,28.1,312,4.85,10.0,19.2,1,24.3,2.79,5.4,0,0,1,1,0,244,-1483,1886,281,,,,,,,,,,,,,,,,
297343,1620409042954,2,1,39,26,31,39,-59,-0.11,-1.1,-0.57,-62,-5,-0,1.11,0,101,4082,14,24,72,0.5,28.2,305,4.9,10.1,19.2,1,24.4,1.57,5.4,0,0,1,1,0,253,8704,630,282,45.847004,5.178143,27.19,222.4,10,3,1.7,0,0.0,-1,0.0,,0.0,0,1.9,4.9557
297363,1620409042974,,,,,,,,-0.15,-1.12,-0.56,-61,-7,0,1.13,,101,4110,14,24,73,0.5,28.1,298,4.85,10.1,19.2,1,25.0,2.75,5.4,0,0,1,1,0,256,-25600,-1534,278,,,,,,,,,,,,,,,,
297383,1620409042994,,,,,,,,-0.16,-1.07,-0.68,-61,-6,-1,1.09,,101,4066,14,24,74,0.5,28.1,302,4.85,10.1,19.2,1,24.6,2.69,5.4,0,0,1,1,0,240,10824,30208,281,,,,,,,,,,,,,,,,
297403,1620409043006,,,,,,,,-0.13,-1.06,-0.78,-61,-5,-0,1.07,,101,4027,14,24,75,0.5,28.0,311,4.85,10.2,19.2,1,24.2,2.63,5.4,0,0,1,1,0,235,8704,250,280,,,,,,,,,,,,,,,,
297423,1620409043026,,,,,,,,-0.16,-1.03,-0.79,-61,-5,-0,1.05,,101,3973,14,24,76,0.5,28.0,292,4.87,10.1,19.2,1,23.8,2.6,5.4,0,0,1,1,0,235,250,28160,280,,,,,,,,,,,,,,,,
297443,1620409043046,2,2,38,27,31,40,-59,-0.18,-0.97,-0.88,-61,-5,-0,0.99,0,101,3890,14,24,77,0.5,28.0,295,4.82,10.1,16.7,1,23.3,2.74,4.7,0,0,1,1,0,230,-1494,250,280,45.847008,5.178151,26.92,222.3,10,3,1.7,0,0.0,-1,0.0,0.0,0.0,0,1.9,4.9574
297463,1620409043066,,,,,,,,-0.2,-0.94,-0.87,-61,-3,-0,0.96,,101,3810,14,24,78,0.5,28.0,293,4.86,10.1,16.7,1,23.0,2.87,4.7,0,0,1,1,0,226,10824,250,280,,,,,,,,,,,,,,,,
297483,1620409043092,,,,,,,,-0.18,-0.95,-0.87,-61,-5,-0,0.97,,101,3701,14,24,79,0.5,27.8,280,4.81,10.2,16.7,1,22.5,3.01,4.7,0,0,1,1,0,229,-1496,-1281,278,,,,,,,,,,,,,,,,
297503,1620409043112,,,,,,,,-0.22,-0.95,-0.8,-62,-3,-0,0.97,,101,3612,14,24,80,0.5,27.8,276,4.88,10.1,16.7,1,22.2,1.96,4.7,0,0,1,1,0,229,250,250,277,,,,,,,,,,,,,,,,
297523,1620409043132,,,,,,,,-0.2,-0.91,-0.77,-62,-3,0,0.94,,101,3527,14,24,81,0.5,27.4,274,4.85,10.2,16.7,1,21.9,3.26,4.7,0,0,1,1,0,229,18432,250,274,,,,,,,,,,,,,,,,
297543,1620409043152,2,2,38,27,32,40,-58,-0.18,-0.92,-0.77,-62,-3,0,0.94,0,101,3404,14,24,82,0.5,27.5,263,4.84,10.1,19.3,1,22.1,3.31,5.3,0,0,1,1,0,228,10318,250,275,45.847012,5.17816,26.63,222.2,10,3,1.7,0,0.0,-1,0.0,,0.0,0,1.91,4.9591
297563,1620409043172,,,,,,,,-0.24,-0.91,-0.71,-62,-2,1,0.95,,101,3345,14,24,83,0.5,27.6,259,4.89,10.1,19.3,1,22.5,3.36,5.3,0,0,1,1,0,223,15360,-1,274,,,,,,,,,,,,,,,,
297583,1620409043194,,,,,,,,-0.3,-0.93,-0.7,-62,-2,0,0.98,,101,3404,15,24,84,0.5,27.3,263,4.87,10.1,19.3,1,22.8,3.44,5.3,0,0,1,1,0,215,19968,-1,273,,,,,,,,,,,,,,,,
297603,1620409043214,,,,,,,,-0.28,-0.91,-0.81,-62,-2,0,0.96,,101,3599,17,24,84,0.5,27.1,263,4.84,10.0,19.3,1,23.4,3.47,5.3,0,0,1,1,0,211,250,-1,271,,,,,,,,,,,,,,,,
297623,1620409043234,,,,,,,,-0.3,-0.89,-0.65,-63,-1,-0,0.94,,101,3672,21,24,86,0.5,27.0,269,4.9,10.3,22.5,1,24.5,3.62,6.1,0,0,1,1,0,210,15360,-1,270,,,,,,,,,,,,,,,,
297643,1620409043254,3,2,37,25,34,39,-55,-0.29,-0.87,-0.76,-63,-2,-0,0.92,0,101,3766,24,24,88,0.5,27.0,276,4.82,10.2,22.5,1,25.6,6.37,6.1,0,0,1,1,0,214,15360,15360,270,45.847015,5.178169,26.98,222.1,10,3,1.7,0,0.0,-1,0.0,0.0,0.0,0,1.91,4.9607
297663,1620409043274,,,,,,,,-0.33,-0.83,-0.6,-63,-1,-1,0.89,,101,3771,27,24,90,0.5,26.7,278,4.9,10.3,22.5,1,26.3,2.73,6.1,0,0,1,1,0,213,-1532,16896,268,,,,,,,,,,,,,,,,
297683,1620409043293,,,,,,,,-0.3,-0.8,-0.72,-63,-1,-1,0.85,,101,3752,30,24,93,0.5,26.7,285,4.84,10.2,22.5,1,28.9,2.95,6.1,0,0,1,1,0,212,-1532,-1281,267,,,,,,,,,,,,,,,,
297703,1620409043313,,,,,,,,-0.29,-0.85,-0.61,-62,-2,-1,0.9,,101,4032,33,25,95,0.5,26.3,291,4.83,10.1,22.5,1,32.9,7.17,6.1,0,0,1,1,0,211,1088,-10440,263,,,,,,,,,,,,,,,,
297723,1620409043333,,,,,,,,-0.26,-0.77,-0.72,-62,-2,-1,0.82,,101,4458,34,25,96,0.5,25.7,312,4.82,10.3,56.8,1,37.9,7.09,14.6,0,0,1,1,0,213,1088,14337,257,,,,,,,,,,,,,,,,
297743,1620409043353,1,3,37,27,32,40,-56,-0.23,-0.79,-0.83,-61,0,-0,0.82,0,101,4889,35,25,96,0.5,25.9,346,4.82,10.1,56.8,1,42.8,6.95,14.6,0,0,1,1,0,215,250,10818,259,45.847015,5.178178,26.44,222.1,10,3,1.7,0,0.0,-1,0.0,,0.0,0,1.91,4.9624
297763,1620409043373,,,,,,,,-0.23,-0.75,-0.59,-61,-3,-1,0.79,,101,5259,35,25,95,0.5,25.8,365,4.84,10.2,56.8,1,42.0,7.42,14.6,0,0,1,1,0,223,250,-1,258,,,,,,,,,,,,,,,,
297783,1620409043393,,,,,,,,-0.2,-0.79,-0.71,-62,-0,0,0.82,,101,5334,35,25,95,0.5,26.1,377,4.85,10.1,56.8,1,41.8,7.55,14.6,0,0,1,1,0,313,250,-1,262,,,,,,,,,,,,,,,,
297803,1620409043413,,,,,,,,-0.19,-0.83,-0.49,-61,-3,-0,0.85,,101,5395,35,25,95,0.5,26.3,376,4.85,10.2,56.8,1,41.6,3.32,14.6,0,0,1,1,0,367,-1532,-1,263,,,,,,,,,,,,,,,,
297823,1620409043433,,,,,,,,-0.18,-0.68,-0.28,-61,-4,0,0.71,,101,5524,34,25,95,0.5,26.7,402,4.81,10.0,76.0,1,41.2,3.5,20.3,0,0,1,1,0,365,-1532,250,267,,,,,,,,,,,,,,,,
297843,1620409043453,0,3,37,32,28,38,-55,-0.16,-0.7,-0.42,-62,0,1,0.72,0,101,5612,32,25,94,0.5,27.1,410,4.81,10.0,76.0,1,40.9,8.02,20.3,0,0,1,1,0,364,15360,-16896,271,45.847015,5.178187,24.6,222.1,10,3,1.7,0,0.0,-1,0.0,0.0,0.0,0,1.91,4.964
297863,1620409043473,,,,,,,,-0.11,-0.76,-0.55,-62,2,3,0.77,,101,5749,30,25,93,0.5,27.4,405,4.87,10.2,76.0,1,40.5,8.18,20.3,0,0,1,1,0,329,10318,-30976,274,,,,,,,,,,,,,,,,
297883,1620409043493,,,,,,,,0.07,-0.76,-0.67,-63,1,3,0.77,,101,5879,28,25,92,0.5,27.6,418,4.82,10.2,76.0,1,40.1,3.8,20.3,0,0,1,1,0,288,19968,28553,275,,,,,,,,,,,,,,,,
297903,1620409043513,,,,,,,,0.14,-0.86,-0.78,-64,4,2,0.88,,101,5982,27,25,90,0.5,28.5,432,4.83,10.3,76.0,1,39.8,8.27,20.3,0,0,1,1,0,311,250,100,285,,,,,,,,,,,,,,,,
297923,1620409043533,,,,,,,,0.22,-0.94,-0.88,-65,4,-0,0.97,,101,6077,26,25,89,0.5,28.4,438,4.82,10.1,76.0,1,40.1,3.72,20.3,0,0,1,1,0,356,250,28160,284,,,,,,,,,,,,,,,,
297943,1620409043553,1,1,43,34,27,36,-54,0.34,-0.9,-0.98,-66,14,2,0.96,0,101,6151,26,25,88,0.5,29.1,442,4.85,10.1,79.2,1,40.6,7.72,22.5,0,0,1,1,0,348,-1494,-32256,291,45.847015,5.178195,24.58,222.0,10,3,1.7,0,0.0,-1,0.0,,0.0,0,1.91,4.9657
297963,1620409043573,,,,,,,,0.31,-0.93,-1.06,-68,21,9,0.98,,101,6204,24,25,86,0.5,29.2,446,4.88,10.3,79.2,1,40.6,7.34,22.5,0,0,1,1,0,353,8704,-31222,292,,,,,,,,,,,,,,,,
297983,1620409043595,,,,,,,,0.28,-0.84,-1.14,-69,23,9,0.89,,101,6206,23,25,85,0.5,29.7,457,4.84,10.1,79.2,1,40.3,7.13,22.5,0,0,1,1,0,323,-1483,-14714,298,,,,,,,,,,,,,,,,
298003,1620409043615,,,,,,,,0.15,-0.83,-0.92,-70,20,8,0.85,,101,6169,20,25,83,0.5,29.8,462,4.83,10.1,79.2,1,39.5,3.25,22.5,0,0,1,1,0,320,-1483,-31222,298,,,,,,,,,,,,,,,,
298023,1620409043635,,,,,,,,0.06,-0.76,-0.68,-71,15,5,0.76,,101,6105,17,25,81,0.5,30.2,453,4.78,10.2,62.9,1,38.5,6.73,19.0,0,0,1,1,0,339,-1484,-20736,304,,,,,,,,,,,,,,,,
298043,1620409043655,0,3,45,35,27,36,-53,0.04,-0.72,-0.46,-72,8,5,0.72,0,101,6000,16,25,78,0.5,30.4,447,4.81,10.1,62.9,1,37.3,6.58,19.0,0,0,1,1,0,359,250,-30454,304,45.847015,5.178205,26.32,221.9,10,3,1.7,0,0.0,-1,0.0,0.0,0.0,0,1.91,4.9674
298063,1620409043675,,,,,,,,0.0,-0.68,-0.25,-73,9,2,0.68,,101,5732,16,25,77,0.5,30.3,434,4.77,10.1,62.9,1,37.6,6.06,19.0,0,0,1,1,0,346,13468,-19019,312,,,,,,,,,,,,,,,,
298083,1620409043695,,,,,,,,0.07,-0.74,-0.4,-75,9,1,0.74,,101,5485,16,25,77,0.5,31.1,414,4.78,10.1,62.9,1,37.9,5.75,19.0,0,0,1,1,0,347,250,486,311,,,,,,,,,,,,,,,,
298103,1620409043715,,,,,,,,-0.01,-0.74,-0.2,-76,8,-1,0.74,,101,5145,16,25,77,0.5,31.5,394,4.87,10.3,62.9,1,38.5,5.35,19.0,0,0,1,1,0,388,-1445,165,315,,,,,,,,,,,,,,,,
298123,1620409043735,,,,,,,,0.04,-0.77,-0.35,-76,9,-1,0.78,,101,5165,16,25,78,0.5,30.9,376,4.87,10.3,62.9,1,38.8,5.39,19.0,0,0,1,1,0,392,-1445,-30976,309,,,,,,,,,,,,,,,,
298143,1620409043755,0,2,44,31,29,41,-44,-0.05,-0.76,-0.15,-77,5,-2,0.76,0,101,5352,16,25,78,0.5,30.8,386,4.83,10.3,41.7,1,38.4,5.58,12.9,0,0,1,1,0,389,23482,32000,308,45.847015,5.178215,28.4,221.8,10,3,1.7,0,0.0,-1,0.0,,0.0,0,1.91,4.969
298163,1620409043775,,,,,,,,0.02,-0.77,-0.3,-78,9,-1,0.77,,101,5506,17,25,79,0.5,30.9,408,4.76,10.2,41.7,1,38.3,5.67,12.9,0,0,1,1,0,387,-1445,110,307,,,,,,,,,,,,,,,,
298183,1620409043795,,,,,,,,0.1,-0.81,-0.45,-78,10,-0,0.82,,101,5711,17,25,79,0.5,30.6,408,4.86,10.2,41.7,1,38.0,5.84,12.9,0,0,1,1,0,387,-1445,125,306,,,,,,,,,,,,,,,,
298203,1620409043815,,,,,,,,0.15,-0.89,-0.58,-78,10,-2,0.9,,101,5914,18,25,79,0.5,31.0,416,4.83,10.2,41.7,1,37.7,6.0,12.9,0,0,1,1,0,365,-1445,120,308,,,,,,,,,,,,,,,,
298223,1620409043835,,,,,,,,0.24,-0.94,-0.69,-79,12,-1,0.97,,101,6050,18,25,78,0.5,30.8,436,4.85,10.1,41.7,1,37.6,3.09,12.9,0,0,1,1,0,381,-1445,175,308,,,,,,,,,,,,,,,,
298243,1620409043855,-1,1,43,33,32,41,-28,0.28,-0.99,-0.8,-80,14,0,1.03,0,101,6056,18,25,77,0.5,30.8,443,4.86,10.2,53.8,1,37.4,5.83,16.6,0,0,1,1,0,407,-1484,3302,312,45.847012,5.178225,28.95,221.8,10,3,1.7,0,0.0,-1,0.0,0.0,0.0,0,1.91,4.9707
298263,1620409043875,,,,,,,,0.28,-1.02,-0.9,-80,18,2,1.05,,101,6056,18,25,76,0.5,31.3,447,4.88,10.1,53.8,1,37.2,5.71,16.6,0,0,1,1,0,398,-1494,-6656,313,,,,,,,,,,,,,,,,
298283,1620409043895,,,,,,,,0.27,-1.01,-0.99,-81,21,2,1.05,,101,6017,17,25,76,0.5,31.3,438,4.87,10.2,53.8,1,37.0,5.66,16.6,0,0,1,1,0,354,-214,8200,313,,,,,,,,,,,,,,,,
298303,1620409043915,,,,,,,,0.3,-1.02,-1.08,-81,21,1,1.06,,101,5826,16,25,75,0.5,31.4,427,4.87,10.1,53.8,1,37.0,5.29,16.6,0,0,1,1,0,379,10818,2811,314,,,,,,,,,,,,,,,,
298323,1620409043935,,,,,,,,0.3,-0.97,-0.92,-80,16,0,1.01,,101,5504,16,25,75,0.5,31.4,395,4.9,10.2,40.4,1,37.4,4.99,12.7,0,0,1,1,0,391,-1281,3183,314,,,,,,,,,,,,,,,,
298343,1620409043955,-0,2,44,34,29,38,-18,0.29,-0.99,-1.01,-80,16,-0,1.03,0,101,5272,16,25,76,0.5,31.6,300,4.85,10.1,40.4,1,38.0,2.59,12.7,0,0,1,1,0,353,-1281,3327,313,45.847008,5.178234,29.39,221.7,10,3,1.7,0,0.0,-1,0.0,,0.0,0,1.91,4.9724
298363,1620409043975,,,,,,,,0.24,-0.96,-0.76,-79,15,-2,0.99,,101,5156,17,25,77,0.5,31.0,251,4.81,10.3,40.4,1,38.5,4.75,12.7,0,0,1,1,0,318,14337,165,310,,,,,,,,,,,,,,,,
298383,1620409043995,,,,,,,,0.27,-0.93,-0.86,-78,16,-1,0.97,,101,5186,20,25,79,0.5,31.0,247,4.91,10.2,40.4,1,39.0,3.77,12.7,0,0,1,1,0,318,14337,-25856,310,,,,,,,,,,,,,,,,
298403,1620409044007,,,,,,,,0.21,-0.95,-0.63,-76,13,-2,0.97,,101,5233,23,25,81,0.5,31.1,291,4.83,10.3,40.4,1,39.5,2.69,12.7,0,0,1,1,0,327,-1,165,311,,,,,,,,,,,,,,,,
298423,1620409044027,,,,,,,,0.23,-0.99,-0.74,-76,15,-1,1.02,,101,5280,25,25,84,0.5,31.4,309,4.94,10.1,40.4,1,40.2,2.8,12.7,0,0,1,1,0,346,-1,-32559,314,,,,,,,,,,,,,,,,
298443,1620409044047,0,1,43,33,31,41,-17,0.23,-0.96,-0.51,-75,8,-4,0.99,0,101,5442,26,25,86,0.5,31.6,333,4.89,10.3,35.0,1,40.4,4.75,11.0,0,0,1,1,0,353,-1,-31222,316,45.847004,5.178243,29.92,221.7,10,3,1.7,0,0.0,-1,0.0,0.0,0.0,0,1.91,4.974
298463,1620409044067,,,,,,,,0.18,-0.95,-0.3,-74,7,-4,0.96,,101,5676,26,25,88,0.5,31.7,370,4.79,10.1,35.0,1,40.3,5.07,11.0,0,0,1,1,0,347,-1281,-31222,317,,,,,,,,,,,,,,,,
298483,1620409044095,,,,,,,,0.16,-0.95,-0.11,-74,10,-3,0.96,,101,5813,26,25,88,0.5,31.8,387,4.83,10.1,35.0,1,39.8,5.21,11.0,0,0,1,1,0,341,-1,-122,318,,,,,,,,,,,,,,,,
298503,1620409044115,,,,,,,,0.13,-0.79,-0.27,-73,15,-0,0.8,,101,5886,26,25,87,0.5,31.6,399,4.87,10.1,35.0,1,39.4,5.16,11.0,0,0,1,1,0,368,-1,-30454,316,,,,,,,,,,,,,,,,
298523,1620409044135,,,,,,,,0.16,-0.81,-0.41,-72,20,3,0.82,,101,5912,26,25,87,0.5,31.7,407,4.82,10.1,44.1,1,39.4,5.12,14.0,0,0,1,1,0,374,-1,230,317,,,,,,,,,,,,,,,,
298543,1620409044155,0,1,43,34,29,39,-15,0.26,-0.79,-0.54,-72,23,5,0.83,0,101,5956,26,25,87,0.5,31.5,418,4.85,10.2,44.1,1,39.3,5.11,14.0,0,0,1,1,0,369,-1,19125,322,45.847,5.178252,30.38,221.6,10,3,1.7,0,0.0,-1,0.0,,0.0,0,1.91,4.9757
298563,1620409044175,,,,,,,,0.27,-0.8,-0.67,-72,27,6,0.85,,101,6052,26,25,87,0.5,32.4,429,4.83,10.1,44.1,1,39.5,5.07,14.0,0,0,1,1,0,375,-1,-32702,324,,,,,,,,,,,,,,,,
298583,1620409044191,,,,,,,,0.28,-0.72,-0.78,-71,30,7,0.77,,101,6123,27,25,86,0.5,32.9,432,4.89,10.3,44.1,1,39.8,4.87,14.0,0,0,1,1,0,393,250,3,329,,,,,,,,,,,,,,,,
298603,1620409044211,,,,,,,,0.21,-0.54,-0.54,-70,30,7,0.58,,100,6212,27,25,86,0.5,33.1,447,4.8,10.1,44.1,1,40.6,4.72,14.0,0,0,1,1,0,398,28160,742,327,,,,,,,,,,,,,,,,
298623,1620409044231,,,,,,,,0.23,-0.58,-0.33,-70,25,5,0.63,,100,6325,28,25,86,0.5,33.2,455,4.81,10.2,40.0,1,41.6,4.56,13.3,0,0,1,1,0,386,250,19125,332,,,,,,,,,,,,,,,,
298643,1620409044251,0,3,45,35,27,37,-8,0.24,-0.67,-0.47,-70,21,5,0.71,0,100,6447,28,25,86,0.5,33.0,460,4.81,10.2,40.0,1,42.7,4.43,13.3,0,0,1,1,0,385,28160,505,330,45.846992,5.17826,30.66,221.6,10,3,1.7,0,0.0,-1,0.0,0.0,0.0,0,1.91,4.9774
298663,1620409044271,,,,,,,,0.31,-0.66,-0.6,-71,25,8,0.73,,100,6558,28,25,86,0.5,33.2,472,4.85,10.1,40.0,1,43.6,4.37,13.3,0,0,1,1,0,396,30208,2524,332,,,,,,,,,,,,,,,,
298683,1620409044294,,,,,,,,0.26,-0.7,-0.38,-71,19,5,0.75,,100,6663,28,25,86,0.5,33.6,485,4.79,10.3,40.0,1,44.5,4.3,13.3,0,0,1,1,0,413,250,18584,337,,,,,,,,,,,,,,,,
298703,1620409044314,,,,,,,,0.26,-0.67,-0.52,-71,23,5,0.72,,100,6742,29,25,87,0.5,34.0,480,4.84,10.1,40.0,1,45.7,4.31,13.3,0,0,1,1,0,427,-1529,3826,340,,,,,,,,,,,,,,,,
298723,1620409044334,,,,,,,,0.23,-0.72,-0.31,-71,16,3,0.76,,100,6855,30,25,88,0.5,34.2,495,4.79,10.1,39.7,1,47.3,4.28,13.6,0,0,1,1,0,411,10686,-9166,342,,,,,,,,,,,,,,,,
298743,1620409044354,0,1,44,33,27,36,3,0.34,-0.68,-0.45,-70,18,4,0.76,0,100,6908,30,25,88,0.5,34.4,494,4.87,10.1,39.7,1,47.8,4.24,13.6,0,0,1,1,0,426,0,13180,344,45.846989,5.178267,31.76,221.5,10,3,1.7,0,0.0,-1,0.0,,0.0,0,1.91,4.9791
298763,1620409044374,,,,,,,,0.33,-0.79,-0.58,-71,19,2,0.86,,100,6965,31,25,89,0.5,35.0,505,4.81,10.3,39.7,1,48.9,4.24,13.6,0,0,1,1,0,425,0,31796,350,,,,,,,,,,,,,,,,
298783,1620409044394,,,,,,,,0.22,-0.75,-0.36,-71,10,-0,0.78,,100,7046,31,25,89,0.5,35.1,515,4.8,10.2,39.7,1,48.8,4.26,13.6,0,0,1,1,0,444,21760,1779,351,,,,,,,,,,,,,,,,
298803,1620409044414,,,,,,,,0.3,-0.74,-0.35,-71,12,2,0.8,,100,7113,33,25,90,0.5,34.9,515,4.83,10.0,39.7,1,48.1,4.38,13.6,0,0,1,1,0,454,23040,-18341,349,,,,,,,,,,,,,,,,
298823,1620409044434,,,,,,,,0.29,-0.75,-0.48,-71,17,3,0.81,,100,7261,34,25,90,0.5,35.5,516,4.83,10.1,43.0,1,46.4,4.55,15.3,0,0,1,1,0,437,90,17628,348,,,,,,,,,,,,,,,,
298843,1620409044454,0,1,43,37,26,36,13,0.35,-0.74,-0.61,-71,15,4,0.82,0,100,7393,35,25,91,0.5,35.4,526,4.85,10.1,43.0,1,44.5,4.7,15.3,0,0,1,1,0,454,95,3571,354,45.846981,5.178274,33.29,221.6,10,3,1.7,0,0.0,-1,0.0,0.0,0.0,0,1.92,4.9807
298863,1620409044474,,,,,,,,0.33,-0.78,-0.73,-72,17,4,0.85,,100,7470,35,25,91,0.5,35.8,534,4.85,10.1,43.0,1,43.5,4.79,15.3,0,0,1,1,0,473,85,20625,358,,,,,,,,,,,,,,,,
298883,1620409044494,,,,,,,,0.27,-0.77,-0.83,-72,17,5,0.82,,100,7566,35,25,91,0.5,36.1,542,4.85,10.1,43.0,1,42.1,4.9,15.3,0,0,1,1,0,469,28160,-6387,361,,,,,,,,,,,,,,,,
298903,1620409044514,,,,,,,,0.31,-0.61,-0.93,-73,17,6,0.68,,100,7668,35,25,90,0.5,36.2,551,4.76,10.3,43.0,1,40.7,5.02,15.3,0,0,1,1,0,474,105,243,362,,,,,,,,,,,,,,,,
298923,1620409044534,,,,,,,,0.34,-0.7,-0.69,-73,14,4,0.78,,100,7809,35,25,90,0.5,36.8,559,4.9,10.0,50.8,1,38.4,5.18,18.7,0,0,1,1,0,468,120,-6656,368,,,,,,,,,,,,,,,,
298943,1620409044554,1,3,43,37,26,36,24,0.28,-0.79,-0.46,-74,11,2,0.84,0,100,7948,33,25,89,0.5,36.5,576,4.86,10.2,50.8,1,36.6,5.25,18.7,0,0,1,1,0,471,30720,-16384,365,45.846973,5.17828,34.74,221.5,10,3,1.7,0,0.0,-1,0.0,,0.0,0,1.92,4.9824
298963,1620409044574,,,,,,,,0.4,-0.79,-0.59,-74,13,3,0.89,,100,8088,29,25,87,0.5,36.6,584,4.87,10.1,50.8,1,37.0,5.25,18.7,0,0,1,1,0,514,110,2131,366,,,,,,,,,,,,,,,,
298983,1620409044594,,,,,,,,0.38,-0.74,-0.37,-74,11,2,0.84,,100,8285,23,25,82,0.5,36.4,587,4.76,10.2,50.8,1,39.8,4.93,18.7,0,0,1,1,0,495,120,-1562,367,,,,,,,,,,,,,,,,
299003,1620409044614,,,,,,,,0.43,-0.75,-0.44,-74,11,2,0.87,,100,8461,20,25,76,0.5,37.0,604,4.93,10.1,50.8,1,42.3,3.22,18.7,0,0,1,1,0,478,130,-8186,368,,,,,,,,,,,,,,,,
299023,1620409044634,,,,,,,,0.42,-0.73,-0.54,-74,8,3,0.84,,100,8640,17,25,70,0.5,36.6,618,4.73,10.2,50.8,1,42.6,3.8,18.7,0,0,1,1,0,505,130,-22519,370,,,,,,,,,,,,,,,,
299043,1620409044654,1,2,44,37,26,33,57,0.43,-0.82,-0.66,-73,9,3,0.93,0,100,8696,15,25,65,0.5,37.3,636,4.8,10.2,41.5,1,42.6,3.5,15.2,0,0,1,1,0,555,-32256,-17956,373,45.846962,5.178285,35.59,221.5,10,3,1.7,0,0.0,-1,0.0,0.0,0.0,0,1.92,4.984
299063,1620409044674,,,,,,,,0.47,-0.8,-0.77,-72,9,2,0.93,,100,8648,12,25,60,0.5,36.8,626,4.77,10.0,41.5,1,42.7,3.28,15.2,0,0,1,1,0,524,150,-32248,368,,,,,,,,,,,,,,,,
299083,1620409044694,,,,,,,,0.48,-0.67,-0.71,-71,7,2,0.82,,100,8553,10,25,56,0.5,37.2,625,4.89,10.3,41.5,1,40.5,3.15,15.2,0,0,1,1,0,505,-22016,-18032,372,,,,,,,,,,,,,,,,
299103,1620409044714,,,,,,,,0.49,-0.75,-0.7,-69,5,1,0.89,,100,8366,10,25,52,0.5,37.4,628,4.78,10.2,41.5,1,37.9,2.94,15.2,0,0,1,1,0,555,-6528,2104,374,,,,,,,,,,,,,,,,
299123,1620409044734,,,,,,,,0.53,-0.66,-0.81,-67,5,2,0.85,,100,8173,10,25,50,0.5,37.6,608,4.8,10.3,26.5,1,37.1,2.64,10.0,0,0,1,1,0,527,-32559,3,376,,,,,,,,,,,,,,,,
299143,1620409044754,0,2,42,36,28,33,73,0.45,-0.65,-0.57,-65,3,-1,0.79,0,100,8029,11,25,48,0.5,37.3,605,4.88,10.0,26.5,1,36.6,2.42,10.0,0,0,1,1,0,508,2560,771,373,45.846958,5.178289,35.61,221.6,10,3,1.7,0,0.0,-1,0.0,,0.0,0,1.92,4.9857
299163,1620409044774,,,,,,,,0.49,-0.69,-0.36,-63,4,-2,0.85,,100,7618,11,25,46,0.5,37.5,595,4.75,10.2,26.5,1,34.7,2.32,10.0,0,0,1,1,0,485,-10554,-21872,375,,,,,,,,,,,,,,,,
299183,1620409044794,,,,,,,,0.46,-0.72,-0.16,-60,-1,-3,0.85,,100,7396,11,25,45,0.5,37.3,571,4.83,10.3,26.5,1,33.7,2.31,10.0,0,0,1,1,0,467,-30438,16408,373,,,,,,,,,,,,,,,,
299203,1620409044814,,,,,,,,0.46,-0.68,0.02,-57,1,-2,0.82,,100,7051,11,25,45,0.5,37.4,558,4.85,10.0,26.5,1,32.8,2.27,10.0,0,0,1,1,0,456,8841,21580,374,,,,,,,,,,,,,,,,
299223,1620409044834,,,,,,,,0.44,-0.72,-0.15,-54,3,-1,0.84,,100,6845,12,25,46,0.5,37.8,527,4.86,10.1,26.5,1,32.7,2.28,10.0,0,0,1,1,0,437,3183,-18341,378,,,,,,,,,,,,,,,,
299243,1620409044854,0,3,40,35,29,36,73,0.37,-0.65,0.03,-51,-6,-3,0.75,0,100,6776,13,25,47,0.5,37.3,523,4.8,10.1,19.0,1,32.9,2.28,7.2,0,0,1,1,0,415,3183,13180,372,45.846947,5.178292,37.3,221.5,10,3,1.7,0,0.0,-1,0.0,0.0,0.0,0,1.92,4.9874
299263,1620409044874,,,,,,,,0.46,-0.74,-0.14,-48,-2,-2,0.87,,100,6677,17,25,49,0.5,37.1,518,4.87,10.1,19.0,1,33.2,2.29,7.2,0,0,1,1,0,414,-6458,2524,369,,,,,,,,,,,,,,,,
299283,1620409044894,,,,,,,,0.38,-0.62,0.04,-44,0,-4,0.72,,100,6562,21,25,53,0.5,36.7,506,4.87,10.2,19.0,1,34.1,2.28,7.2,0,0,1,1,0,405,-29978,2524,370,,,,,,,,,,,,,,,,
299303,1620409044914,,,,,,,,0.39,-0.66,0.2,-40,-6,-6,0.77,,100,6445,23,25,58,0.5,37.0,485,4.82,10.1,19.0,1,35.0,2.53,7.2,0,0,1,1,0,415,2790,-4059,371,,,,,,,,,,,,,,,,
299323,1620409044934,,,,,,,,0.46,-0.67,0.02,-36,-4,-5,0.81,,100,6330,25,25,63,0.5,37.2,472,4.9,10.1,23.1,1,35.9,2.92,8.5,0,0,1,1,0,407,1,-4059,370,,,,,,,,,,,,,,,,
299343,1620409044954,1,2,40,33,29,36,73,0.39,-0.67,-0.15,-31,3,-2,0.77,0,100,6275,28,25,69,0.5,37.0,463,4.88,10.1,23.1,1,37.1,3.98,8.5,0,0,1,1,0,398,486,10541,370,45.846939,5.178295,37.82,221.5,10,3,1.7,0,0.0,-1,0.0,,0.0,0,1.92,4.989
299363,1620409044974,,,,,,,,0.31,-0.57,-0.21,-26,2,-2,0.65,,100,6343,32,24,76,0.5,37.2,460,4.8,10.2,23.1,1,39.0,4.69,8.5,0,0,1,1,0,389,1,-3866,366,,,,,,,,,,,,,,,,
299383,1620409044994,,,,,,,,0.33,-0.46,-0.03,-21,-1,-3,0.57,,100,6340,36,24,82,0.5,38.3,470,4.79,10.2,23.1,1,40.4,4.93,8.5,0,0,1,1,0,394,-3866,-19126,367,,,,,,,,,,,,,,,,
299403,1620409045006,,,,,,,,0.35,-0.48,0.14,-15,-7,-5,0.59,,100,6266,41,24,88,0.5,39.2,460,4.87,10.1,23.1,1,41.7,5.41,8.5,0,0,1,1,0,400,-32702,505,364,,,,,,,,,,,,,,,,
299423,1620409045026,,,,,,,,0.4,-0.51,-0.04,-10,-7,-4,0.65,,99,6184,43,24,92,0.5,39.9,451,4.85,10.2,45.2,1,41.5,5.79,16.6,0,0,1,1,0,398,28696,-6656,367,,,,,,,,,,,,,,,,
299443,1620409045046,-1,2,39,34,29,36,52,0.46,-0.6,-0.2,-5,-1,-2,0.76,0,99,6218,44,24,94,0.5,39.9,442,4.86,10.1,45.2,1,41.9,5.91,16.6,0,0,1,1,0,396,28696,8200,364,45.846928,5.178296,38.15,221.4,10,3,1.7,0,0.0,-1,0.0,0.0,0.0,0,1.92,4.9907
299463,1620409045066,,,,,,,,0.48,-0.59,-0.35,-0,6,2,0.76,,99,6198,44,24,95,0.5,40.1,442,4.83,10.1,45.2,1,41.7,5.94,16.6,0,0,1,1,0,401,-9211,1,365,,,,,,,,,,,,,,,,
299483,1620409045094,,,,,,,,0.42,-0.5,-0.49,5,5,2,0.66,,99,6206,44,24,95,0.5,39.9,447,4.84,10.2,45.2,1,41.8,4.01,16.6,0,0,1,1,0,404,28696,-6656,364,,,,,,,,,,,,,,,,
299503,1620409045114,,,,,,,,0.37,-0.4,-0.28,8,-1,1,0.54,,99,6294,44,24,95,0.5,39.6,452,4.83,10.0,45.2,1,42.7,5.63,16.6,0,0,1,1,0,405,-32702,-6656,365,,,,,,,,,,,,,,,,
299523,1620409045134,,,,,,,,0.42,-0.43,-0.09,10,-4,-1,0.6,,99,6379,42,24,94,0.5,40.1,460,4.86,10.2,42.7,1,43.6,5.41,15.9,0,0,1,1,0,404,10541,240,372,,,,,,,,,,,,,,,,
299543,1620409045154,1,1,39,36,28,33,5,0.46,-0.54,-0.25,10,-1,1,0.71,0,99,6368,42,24,94,0.5,40.1,462,4.85,10.1,42.7,1,43.4,5.34,15.9,0,0,1,1,0,402,11545,6512,376,45.84692,5.178296,38.4,221.4,10,3,1.7,0,0.0,-1,0.0,,0.0,0,1.92,4.9924
299563,1620409045174,,,,,,,,0.53,-0.51,-0.39,10,6,3,0.73,,99,6414,42,24,94,0.5,39.7,463,4.85,10.1,42.7,1,43.9,5.19,15.9,0,0,1,1,0,401,-3968,-4059,380,,,,,,,,,,,,,,,,
299583,1620409045194,,,,,,,,0.45,-0.52,-0.19,9,4,1,0.68,,99,6646,42,24,94,0.5,39.4,478,4.81,10.0,42.7,1,46.3,4.97,15.9,0,0,1,1,0,403,-1818,18584,386,,,,,,,,,,,,,,,,
299603,1620409045214,,,,,,,,0.44,-0.53,-0.34,8,7,4,0.69,,99,6798,42,25,94,0.5,39.4,484,4.87,10.1,42.7,1,47.9,4.7,15.9,0,0,1,1,0,407,28696,-3414,394,,,,,,,,,,,,,,,,
299623,1620409045234,,,,,,,,0.49,-0.59,-0.15,7,3,4,0.76,,99,6962,42,25,94,0.5,40.1,509,4.8,10.1,42.7,1,49.6,3.36,15.9,0,0,1,1,0,409,-6656,2524,401,,,,,,,,,,,,,,,,
299643,1620409045254,-1,2,41,36,28,31,-9,0.52,-0.52,0.03,5,4,2,0.73,0,99,7019,42,25,95,0.5,40.4,510,4.86,10.1,36.1,1,49.8,4.55,14.5,0,0,1,1,0,413,-1562,7154,404,45.846909,5.178295,39.33,221.4,10,3,1.7,0,0.0,-1,0.0,0.0,0.0,0,1.92,4.994
299663,1620409045274,,,,,,,,0.47,-0.46,-0.14,4,6,4,0.66,,99,6993,42,25,95,0.5,40.4,505,4.86,10.1,36.1,1,49.9,4.54,14.5,0,0,1,1,0,418,-3968,-3414,411,,,,,,,,,,,,,,,,
299683,1620409045293,,,,,,,,0.44,-0.53,0.04,2,-0,3,0.69,,99,6970,41,25,95,0.5,41.3,515,4.82,10.1,36.1,1,49.6,4.56,14.5,0,0,1,1,0,428,10541,3635,413,,,,,,,,,,,,,,,,
299703,1620409045313,,,,,,,,0.49,-0.47,0.2,0,3,2,0.68,,99,6985,40,25,94,0.5,41.1,510,4.84,10.1,36.1,1,49.8,4.5,14.5,0,0,1,1,0,432,1504,243,411,,,,,,,,,,,,,,,,
299723,1620409045333,,,,,,,,0.45,-0.49,0.02,-1,6,4,0.67,,99,7004,37,25,94,0.5,41.7,512,4.87,10.0,36.1,1,50.0,4.48,14.5,0,0,1,1,0,431,11545,13180,417,,,,,,,,,,,,,,,,
299743,1620409045353,-0,3,42,38,28,31,-2,0.43,-0.45,0.18,-2,1,3,0.62,0,99,7030,34,25,93,0.5,41.9,517,4.78,10.1,34.7,1,49.6,4.45,14.5,0,0,1,1,0,439,-26615,-7939,419,45.846901,5.178295,41.09,221.4,10,3,1.7,0,0.0,-1,0.0,,0.0,0,1.92,4.9957
299763,1620409045373,,,,,,,,0.46,-0.33,0.34,-3,4,2,0.56,,99,7067,31,25,92,0.5,42.2,511,4.85,10.0,34.7,1,49.1,4.3,14.5,0,0,1,1,0,441,-26615,-7939,422,,,,,,,,,,,,,,,,
299783,1620409045395,,,,,,,,0.43,-0.25,0.14,-3,2,4,0.5,,99,7137,30,25,91,0.5,42.3,516,4.85,10.1,34.7,1,47.8,4.45,14.5,0,0,1,1,0,461,11560,26704,423,,,,,,,,,,,,,,,,
299803,1620409045415,,,,,,,,0.45,-0.19,-0.04,-3,5,6,0.49,,99,7205,30,25,90,0.5,42.6,525,4.86,10.2,34.7,1,47.2,4.49,14.5,0,0,1,1,0,447,13552,16648,421,,,,,,,,,,,,,,,,
299823,1620409045435,,,,,,,,0.43,-0.2,0.08,-2,5,6,0.47,,98,7281,30,25,89,0.5,43.4,532,4.79,10.1,35.7,1,45.6,4.52,15.2,0,0,1,1,0,440,-768,-6387,425,,,,,,,,,,,,,,,,
299843,1620409045455,1,2,37,41,30,30,34,0.44,-0.12,-0.09,-1,3,5,0.46,0,98,7381,30,25,89,0.5,43.5,537,4.82,10.1,35.7,1,44.2,4.63,15.2,0,0,1,1,0,446,-7939,2524,426,45.84689,5.178294,42.47,221.4,10,3,1.7,0,0.0,-1,0.0,0.0,0.0,0,1.93,4.9974
299863,1620409045475,,,,,,,,0.41,-0.05,-0.25,1,4,4,0.41,,98,7485,31,25,88,0.5,44.0,548,4.81,10.0,35.7,1,42.5,4.68,15.2,0,0,1,1,0,449,20625,10305,427,,,,,,,,,,,,,,,,
299883,1620409045493,,,,,,,,0.4,0.04,-0.39,3,6,5,0.4,,98,7594,31,25,88,0.5,44.4,549,4.81,10.1,35.7,1,41.1,4.79,15.2,0,0,1,1,0,456,21432,-9160,420,,,,,,,,,,,,,,,,
299903,1620409045513,,,,,,,,0.43,0.12,-0.53,5,4,7,0.45,,98,7706,31,25,87,0.5,44.5,557,4.83,10.0,35.7,1,39.4,4.84,15.2,0,0,1,1,0,457,2131,8488,426,,,,,,,,,,,,,,,,
299923,1620409045533,,,,,,,,0.39,0.26,-0.32,7,8,8,0.47,,98,7822,31,25,87,0.5,45.4,566,4.74,10.1,35.7,1,37.9,4.96,15.2,0,0,1,1,0,463,-6387,2212,425,,,,,,,,,,,,,,,,
299943,1620409045553,-1,2,37,43,34,27,40,0.38,0.29,-0.12,10,4,5,0.48,0,98,7985,31,25,86,0.5,45.8,567,4.85,10.1,42.1,1,35.9,5.02,17.9,0,0,1,1,0,464,17628,248,429,45.846878,5.178292,44.01,221.4,10,3,1.7,0,0.0,-1,0.0,,0.0,0,1.93,4.9991
299963,1620409045573,,,,,,,,0.37,0.42,-0.28,13,2,5,0.56,,98,8162,31,25,84,0.5,46.5,588,4.86,10.0,42.1,1,37.8,5.14,17.9,0,0,1,1,0,477,30272,-1562,426,,,,,,,,,,,,,,,,
299983,1620409045595,,,,,,,,0.41,0.47,-0.09,15,2,5,0.63,,98,8355,32,25,83,0.5,46.5,590,4.9,10.0,42.1,1,41.3,5.1,17.9,0,0,1,1,0,481,30272,248,428,,,,,,,,,,,,,,,,
300003,1620409045615,,,,,,,,0.42,0.45,0.08,18,1,5,0.62,,98,8616,35,25,81,0.5,47.2,600,4.75,10.0,42.1,1,42.1,5.11,17.9,0,0,1,1,0,490,-1923,505,433,,,,,,,,,,,,,,,,
300023,1620409045635,,,,,,,,0.43,0.44,0.05,19,3,5,0.61,,98,8861,38,25,82,0.5,46.7,628,4.9,10.0,48.2,1,40.3,5.15,21.1,0,0,1,1,0,495,243,505,437,,,,,,,,,,,,,,,,
300043,1620409045655,0,1,39,43,34,27,16,0.39,0.46,0.2,21,2,6,0.61,0,98,9010,40,25,83,0.5,47.2,640,4.74,10.0,48.2,1,38.8,5.31,21.1,0,0,1,1,0,496,-9203,-1923,443,45.846867,5.178291,45.55,221.3,10,3,1.7,0,0.0,-1,0.0,0.0,0.0,0,1.93,5.0007
300063,1620409045675,,,,,,,,0.38,0.48,0.13,22,1,4,0.62,,98,9115,41,25,84,0.5,48.0,638,4.87,10.0,48.2,1,38.8,6.32,21.1,0,0,1,1,0,489,-10483,-32248,443,,,,,,,,,,,,,,,,
300083,1620409045695,,,,,,,,0.41,0.53,0.09,22,1,3,0.67,,98,9177,42,25,85,0.5,47.5,635,4.8,10.0,48.2,1,38.8,6.5,21.1,0,0,1,1,0,499,-17956,1248,457,,,,,,,,,,,,,,,,
300103,1620409045715,,,,,,,,0.45,0.53,-0.08,22,1,5,0.7,,98,9272,45,25,86,0.5,48.2,645,4.82,10.1,48.2,1,38.8,6.58,21.1,0,0,1,1,0,516,-899,3576,459,,,,,,,,,,,,,,,,
300123,1620409045735,,,,,,,,0.44,0.47,-0.24,21,4,5,0.64,,98,9379,47,25,87,0.5,48.0,642,4.86,10.0,61.8,1,38.8,6.62,28.7,0,0,1,1,0,495,3580,-6528,464,,,,,,,,,,,,,,,,
300143,1620409045755,-1,2,39,41,32,28,13,0.43,0.5,-0.05,21,3,3,0.66,0,98,9498,47,25,88,0.5,48.0,648,4.81,10.0,61.8,1,38.8,6.49,28.7,0,0,1,1,0,503,-17956,-28648,466,45.846855,5.178291,46.88,221.3,10,3,1.7,0,0.0,-1,0.0,,0.0,0,1.93,5.0024
300163,1620409045775,,,,,,,,0.46,0.49,-0.18,21,3,3,0.67,,98,9694,47,25,88,0.5,48.4,646,4.84,10.0,61.8,1,39.2,6.55,28.7,0,0,1,1,0,517,-6656,26178,474,,,,,,,,,,,,,,,,
300183,1620409045795,,,,,,,,0.46,0.5,0.01,20,3,1,0.68,,98,9868,47,25,88,0.5,49.4,654,4.77,10.0,61.8,1,39.4,6.25,28.7,0,0,1,1,0,510,-22519,-32248,471,,,,,,,,,,,,,,,,
300203,1620409045815,,,,,,,,0.47,0.59,-0.16,20,4,4,0.76,,98,10042,47,25,87,0.5,48.8,652,4.81,10.0,61.8,1,39.7,6.14,28.7,0,0,1,1,0,512,-9216,-3414,482,,,,,,,,,,,,,,,,
300223,1620409045835,,,,,,,,0.53,0.55,-0.16,19,2,2,0.77,,98,10212,47,25,86,0.5,50.1,658,4.82,10.0,57.8,1,40.2,5.9,27.9,0,0,1,1,0,521,11560,-22519,482,,,,,,,,,,,,,,,,
300243,1620409045855,-1,3,42,45,32,27,14,0.44,0.36,-0.31,19,2,-1,0.57,0,98,10359,49,25,85,0.5,49.5,668,4.74,10.0,57.8,1,40.6,5.74,27.9,0,0,1,1,0,542,771,-32248,485,45.846844,5.178291,48.56,221.3,10,3,1.7,0,0.0,-1,0.0,0.0,0.0,0,1.93,5.004
300263,1620409045875,,,,,,,,0.46,0.31,-0.16,19,1,-3,0.56,,98,10515,50,25,85,0.5,50.4,656,4.8,10.0,57.8,1,41.1,5.73,27.9,0,0,1,1,0,547,-32248,1780,484,,,,,,,,,,,,,,,,
300283,1620409045895,,,,,,,,0.56,0.28,-0.31,19,1,-3,0.62,,98,10665,50,25,85,0.5,50.5,669,4.82,10.0,57.8,1,41.5,5.45,27.9,0,0,1,1,0,579,6274,-28648,490,,,,,,,,,,,,,,,,
300303,1620409045915,,,,,,,,0.68,0.32,-0.4,19,-2,-1,0.75,,98,10788,50,25,84,0.5,51.4,665,4.86,10.0,57.8,1,41.7,5.35,27.9,0,0,1,1,0,618,-3482,-32504,500,,,,,,,,,,,,,,,,
300323,1620409045935,,,,,,,,0.57,0.42,-0.3,20,-1,1,0.71,,98,10907,50,25,85,0.5,52.1,666,4.86,9.9,55.3,1,42.1,5.44,27.5,0,0,1,1,0,578,6274,17344,497,,,,,,,,,,,,,,,,
300343,1620409045955,0,1,35,46,31,28,18,0.56,0.34,-0.45,21,-3,-1,0.66,0,98,10964,51,25,85,0.5,52.6,667,4.83,10.0,55.3,1,42.3,5.37,27.5,0,0,1,1,0,547,-32248,-2826,499,45.846828,5.178292,50.79,221.2,10,3,1.7,0,0.0,-1,0.0,,0.0,0,1.93,5.0057
300363,1620409045975,,,,,,,,0.66,0.4,-0.57,23,-3,-2,0.77,,97,11035,60,25,85,0.5,52.9,668,4.76,10.0,55.3,1,42.4,5.34,27.5,0,0,1,1,0,590,2088,6658,502,,,,,,,,,,,,,,,,
300383,1620409045995,,,,,,,,0.66,0.54,-0.36,25,-1,-2,0.85,,97,11114,65,25,86,0.5,53.8,668,4.83,10.1,55.3,1,42.6,5.5,27.5,0,0,1,1,0,662,-2934,-13072,502,,,,,,,,,,,,,,,,
300403,1620409046007,,,,,,,,0.77,0.51,-0.5,26,-3,2,0.93,,97,11174,66,25,86,0.5,54.3,676,4.77,10.2,55.3,1,42.6,6.37,27.5,0,0,1,1,0,738,1779,6273,510,,,,,,,,,,,,,,,,
300423,1620409046027,,,,,,,,0.71,0.54,-0.55,27,-4,3,0.9,,97,11234,66,25,87,0.5,54.1,667,4.81,10.2,66.6,1,42.7,6.55,34.1,0,0,1,1,0,614,-2336,6208,512,,,,,,,,,,,,,,,,
300443,1620409046047,-0,2,39,45,31,23,14,0.8,0.52,-0.52,28,-6,1,0.95,0,97,11268,64,25,87,0.5,54.9,665,4.83,9.9,66.6,1,42.8,6.55,34.1,0,0,1,1,0,569,2104,204,511,45.846817,5.178294,52.77,221.2,10,3,1.7,0,0.0,-1,0.0,0.0,0.0,0,1.93,5.0074
300463,1620409046067,,,,,,,,0.78,0.57,-0.58,29,-5,1,0.96,,97,11391,64,25,87,0.5,54.6,667,4.8,9.9,66.6,1,42.9,6.37,34.1,0,0,1,1,0,596,2524,-26380,510,,,,,,,,,,,,,,,,
300483,1620409046093,,,,,,,,0.76,0.56,-0.7,30,-3,3,0.95,,97,11398,64,25,87,0.5,54.6,674,4.82,10.2,66.6,1,42.9,6.19,34.1,0,0,1,1,0,701,2524,-10251,519,,,,,,,,,,,,,,,,
300503,1620409046113,,,,,,,,0.73,0.47,-0.81,31,-2,2,0.87,,97,11488,66,25,88,0.5,56.1,673,4.82,10.2,66.6,1,42.9,6.18,34.1,0,0,1,1,0,702,-18032,506,530,,,,,,,,,,,,,,,,
300523,1620409046133,,,,,,,,0.77,0.55,-0.91,31,-2,2,0.94,,97,11552,67,25,88,0.5,56.7,673,4.81,9.9,60.9,1,43.0,6.0,32.1,0,0,1,1,0,624,2211,31988,527,,,,,,,,,,,,,,,,
300543,1620409046153,0,1,40,44,30,27,-3,0.81,0.62,-0.97,32,-2,4,1.02,0,97,11566,66,25,88,0.5,56.6,676,4.8,9.9,60.9,1,43.0,5.87,32.1,0,0,1,1,0,655,-2934,-10344,528,45.846806,5.178296,54.44,221.2,10,3,1.7,0,0.0,-1,0.0,,0.0,0,1.94,5.009
300563,1620409046173,,,,,,,,0.85,0.62,-0.84,32,-1,4,1.06,,97,11595,64,25,88,0.5,56.3,672,4.81,9.9,60.9,1,43.0,5.68,32.1,0,0,1,1,0,711,12552,3,538,,,,,,,,,,,,,,,,
300583,1620409046195,,,,,,,,0.75,0.57,-0.64,32,-0,3,0.94,,97,11588,64,25,88,0.5,56.7,676,4.82,9.9,60.9,1,43.0,5.84,32.1,0,0,1,1,0,676,774,-3038,533,,,,,,,,,,,,,,,,
300603,1620409046215,,,,,,,,0.74,0.49,-0.47,32,-1,4,0.89,,97,11566,63,25,87,0.5,58.0,673,4.83,9.9,60.9,1,43.0,5.68,32.1,0,0,1,1,0,638,-16384,31988,542,,,,,,,,,,,,,,,,
300623,1620409046235,,,,,,,,0.77,0.51,-0.59,32,2,4,0.92,,97,11602,63,25,88,0.5,57.5,676,4.8,10.0,57.9,1,43.0,5.84,31.4,0,0,1,1,0,661,259,-13072,542,,,,,,,,,,,,,,,,
300643,1620409046255,0,0,39,44,31,27,-5,0.67,0.64,-0.71,33,4,5,0.93,0,97,11682,64,25,88,0.5,58.2,671,4.8,9.9,57.9,1,43.0,5.87,31.4,0,0,1,1,0,735,8488,-3038,547,45.84679,5.178299,56.34,221.1,10,3,1.7,0,0.0,-1,0.0,0.0,0.0,0,1.94,5.0107
300663,1620409046275,,,,,,,,0.75,0.67,-0.82,34,3,5,1.0,,96,11718,64,25,87,0.5,57.9,674,4.8,9.9,57.9,1,43.0,5.73,31.4,0,0,1,1,0,750,774,-2826,550,,,,,,,,,,,,,,,,
300683,1620409046292,,,,,,,,0.77,0.77,-0.91,34,2,5,1.09,,96,11755,65,25,88,0.5,59.1,670,4.8,9.9,57.9,1,43.0,5.89,31.4,0,0,1,1,0,662,6273,8838,548,,,,,,,,,,,,,,,,
300703,1620409046312,,,,,,,,0.69,0.71,-0.81,35,1,4,0.99,,96,11814,65,25,87,0.5,59.0,676,4.8,9.9,57.9,1,43.0,5.77,31.4,0,0,1,1,0,667,-32504,-31068,553,,,,,,,,,,,,,,,,
300723,1620409046332,,,,,,,,0.68,0.62,-0.58,36,-2,4,0.92,,96,11897,65,25,87,0.5,59.4,680,4.8,9.9,58.2,1,43.0,5.8,32.0,0,0,1,1,0,722,-13043,16599,549,,,,,,,,,,,,,,,,
300743,1620409046352,-0,2,39,45,32,27,-6,0.66,0.58,-0.36,37,-3,3,0.88,0,96,11980,65,25,88,0.5,59.8,678,4.8,9.9,58.2,1,43.0,5.98,32.0,0,0,1,1,0,742,4956,24,557,45.846779,5.178303,58.06,221.1,10,3,1.7,0,0.0,-1,0.0,,0.0,0,1.94,5.0124
300763,1620409046372,,,,,,,,0.63,0.57,-0.17,37,-4,2,0.85,,96,12042,66,25,88,0.5,60.2,675,4.8,9.9,58.2,1,43.0,5.99,32.0,0,0,1,1,0,724,-768,-22796,562,,,,,,,,,,,,,,,,
300783,1620409046392,,,,,,,,0.58,0.53,-0.06,38,-5,0,0.78,,96,12128,66,25,88,0.5,60.7,678,4.79,9.9,58.2,1,43.0,5.99,32.0,0,0,1,1,0,712,19621,-22795,557,,,,,,,,,,,,,,,,
300803,1620409046412,,,,,,,,0.56,0.52,-0.17,38,-7,-1,0.76,,96,12207,67,25,87,0.5,60.0,673,4.79,9.9,58.2,1,43.0,5.84,32.0,0,0,1,1,0,748,-3210,-2314,568,,,,,,,,,,,,,,,,
300823,1620409046432,,,,,,,,0.59,0.52,-0.32,39,-6,-2,0.79,,96,12303,67,25,87,0.5,60.9,672,4.8,9.8,57.3,1,43.0,5.7,32.5,0,0,1,1,0,770,-30139,-3344,567,,,,,,,,,,,,,,,,
300843,1620409046452,0,1,40,46,31,27,-34,0.65,0.46,-0.46,38,-5,-1,0.8,0,96,12400,67,24,87,0.5,60.3,681,4.8,9.8,57.3,1,43.0,5.88,32.5,0,0,1,1,0,755,-7939,-31066,577,45.846764,5.178307,59.77,221.1,10,3,1.7,0,0.0,-1,0.0,0.0,0.0,0,1.94,5.0141
