"Interval"|"ms"|0|0|1,"Utc"|"ms"|0|0|1,"Brake_F"|"Bar"|0|2000|10,"Brake_R"|"Bar"|0|2000|10,"Height_RF"|"mm"|0|255|10,"Height_LF"|"mm"|0|255|10,"Height_LR"|"mm"|0|80|10,"Height_RR"|"mm"|0|255|10,"Steering"|"deg"|-100|100|10,"AccelX"|"G"|-3.0|3.0|50,"AccelY"|"G"|-3.0|3.0|50,"AccelZ"|"G"|-3.0|3.0|50,"Yaw"|"Deg/Sec"|-120|120|50,"Pitch"|"Deg/Sec"|-120|120|50,"Roll"|"Deg/Sec"|-120|120|50,"Gsum"|"G"|0.0|3.0|50,"Log_Button"|""|0.0|10.0|10,"WaterTemp"|"C"|0|150|50,"RPM"|"tr/min"|0|14000|50,"TPS"|"%"|0|100|50,"AirTemp"|"C"|0|150|50,"MAP"|"KPa"|0|100|50,"Lambda"|""|0.5|1.5|50,"SpeedDTA"|"kph"|0.0|250.0|50,"OilPress"|"KPa"|0|1500|50,"FuelPressur"|"Bar"|0.0|10.0|50,"Batterie"|"V"|0.0|20.0|50,"ConsoKm"|"L/100km"|0.0|200.0|50,"Gear"|""|0|6|50,"AdvIgnition"|"Deg"|-20.0|70.0|50,"Injection"|"ms"|0.0|10.0|50,"ConsoHr"|"L/Hr"|0.0|10000.0|50,"LC_But_Pres"|""|0|1|50,"LC_Active"|""|0|1|50,"TractionOn"|""|0|1|50,"TractionWet"|""|0|1|50,"FanOn"|""|0|1|50,"RD_Speed"|"km/h"|-30|250|50,"RUD_Speed"|"km/h"|-30|250|50,"LD_Speed"|"km/h"|-30|250|50,"LUD_Speed"|"km/h"|-30|250|50,"Latitude"|"Degrees"|-180.0|180.0|10,"Longitude"|"Degrees"|-180.0|180.0|10,"Speed"|"kph"|0.0|150.0|10,"Altitude"|"m"|0.0|4000.0|10,"GPSSats"|""|0|20|10,"GPSQual"|""|0|5|10,"GPSDOP"|""|0.0|20.0|10,"LapCount"|""|0|0|10,"LapTime"|"Min"|0.0|0.0|10,"Sector"|""|0|0|10,"SectorTime"|"Min"|0.0|0.0|10,"PredTime"|"Min"|0.0|0.0|5,"ElapsedTime"|"Min"|0.0|0.0|10,"CurrentLap"|""|0|0|10,"Distance"|"km"|0.0|0.0|10,"SessionTime"|"Min"|0.0|0.0|10
177363,1620407272960,,,,,,,,-0.72,0.2,0.36,6,-3,-0,0.75,,85,7924,19,21,69,0.793,54.6,612,4.8,12.2,23.2,1,38.6,4.09,12.8,0,0,0,1,0,506,2524,6274,544,,,,,,,,,,,,,,,,
177383,1620407272980,,,,,,,,-0.72,0.24,0.46,6,-5,-1,0.76,,85,8553,18,21,67,0.799,55.1,640,4.76,12.2,23.2,1,43.2,4.0,12.8,0,0,0,1,0,504,6274,17136,534,,,,,,,,,,,,,,,,
177403,1620407272992,,,,,,,,-0.73,0.24,0.26,7,-5,-1,0.77,,85,9049,18,21,62,0.829,54.8,662,4.72,12.2,23.2,1,39.9,3.7,12.8,0,0,0,1,0,534,14504,-9072,531,,,,,,,,,,,,,,,,
177423,1620407273012,,,,,,,,-0.7,0.23,0.07,7,-4,-1,0.74,,85,9450,18,21,58,0.858,54.1,676,4.75,12.2,29.7,1,40.6,3.62,15.7,0,0,0,1,0,539,2104,2088,525,,,,,,,,,,,,,,,,
177443,1620407273032,14,9,14,22,39,38,6,-0.66,0.27,0.23,8,-5,-0,0.71,0,85,9730,18,21,56,0.888,53.5,675,4.73,12.2,29.7,1,40.3,3.63,15.7,0,0,0,1,0,534,6274,-22519,519,45.846783,5.178249,57.81,222.2,10,3,1.8,0,0.0,-1,0.0,0.0,0.0,0,1.38,2.9574
177463,1620407273052,,,,,,,,-0.55,0.32,0.05,8,-3,1,0.63,,85,9832,17,22,52,0.918,52.9,668,4.88,12.1,29.7,1,39.4,3.47,15.7,0,0,0,1,0,544,-9072,-32248,518,,,,,,,,,,,,,,,,
177483,1620407273072,,,,,,,,-0.51,0.24,0.18,8,-4,1,0.57,,85,9508,16,22,50,0.932,53.0,675,4.77,12.2,29.7,1,38.8,3.31,15.7,0,0,0,1,0,583,14504,-3446,522,,,,,,,,,,,,,,,,
177503,1620407273102,,,,,,,,-0.47,0.22,0.24,9,-6,-0,0.52,,85,9066,13,22,47,0.946,53.9,658,4.9,12.2,29.7,1,37.1,3.09,15.7,0,0,0,1,0,616,1780,19320,517,,,,,,,,,,,,,,,,
177523,1620407273122,,,,,,,,-0.47,0.25,0.34,9,-6,1,0.53,,85,8865,8,22,45,0.96,52.8,660,4.84,12.2,22.7,1,35.7,2.9,12.0,0,0,0,1,0,592,6274,14504,526,,,,,,,,,,,,,,,,
177543,1620407273142,12,5,23,27,34,33,6,-0.4,0.22,0.14,9,-4,3,0.46,0,85,8700,7,22,42,0.974,53.6,652,4.91,12.3,22.7,1,33.8,2.81,12.0,0,0,0,1,0,548,-28648,1779,527,45.84679,5.17824,55.93,222.2,10,3,1.8,0,0.0,-1,0.0,,0.0,0,1.38,2.959
177563,1620407273162,,,,,,,,-0.42,0.21,-0.04,9,-3,1,0.47,,85,8396,7,22,40,0.985,52.8,658,4.85,12.2,22.7,1,32.3,2.7,12.0,0,0,0,1,0,547,-28648,-22519,523,,,,,,,,,,,,,,,,
177583,1620407273182,,,,,,,,-0.4,0.23,0.08,9,-2,1,0.46,,85,8173,7,22,37,0.996,53.4,648,4.85,12.2,22.7,1,30.7,2.45,12.0,0,0,0,1,0,541,14504,-28648,524,,,,,,,,,,,,,,,,
177603,1620407273201,,,,,,,,-0.44,0.22,0.24,9,-3,1,0.49,,85,8054,7,22,36,1.006,53.1,647,4.9,12.1,22.7,1,30.2,2.23,12.0,0,0,0,1,0,530,-22519,10408,522,,,,,,,,,,,,,,,,
177623,1620407273221,,,,,,,,-0.43,0.2,0.05,8,-3,0,0.47,,85,7982,7,22,34,1.017,52.8,640,4.83,12.3,14.9,1,29.5,2.12,7.8,0,0,0,1,0,525,-28648,1248,518,,,,,,,,,,,,,,,,
177643,1620407273241,14,8,23,27,36,35,6,-0.39,0.23,-0.03,8,-1,1,0.46,0,85,7921,7,22,34,1.008,52.4,642,4.88,12.2,14.9,1,29.5,2.07,7.8,0,0,0,1,0,523,10408,-14,511,45.846806,5.178231,55.52,222.2,10,3,1.8,0,0.0,-1,0.0,0.0,0.0,0,1.39,2.9607
177663,1620407273261,,,,,,,,-0.38,0.28,0.14,8,-2,0,0.47,,85,7828,7,22,33,0.983,52.5,647,4.89,12.2,14.9,1,29.2,2.02,7.8,0,0,0,1,0,521,2088,17136,516,,,,,,,,,,,,,,,,
177683,1620407273281,,,,,,,,-0.36,0.26,0.22,8,-2,-0,0.44,,85,7709,7,22,32,0.958,51.3,650,4.82,12.2,14.9,1,29.0,1.97,7.8,0,0,0,1,0,518,-4054,-28648,506,,,,,,,,,,,,,,,,
177703,1620407273299,,,,,,,,-0.38,0.23,0.28,8,-3,-0,0.45,,85,7578,7,22,32,0.933,52.2,639,4.92,12.2,14.9,1,29.0,1.97,7.8,0,0,0,1,0,512,26178,10994,508,,,,,,,,,,,,,,,,
177723,1620407273319,,,,,,,,-0.45,0.24,0.35,8,-2,-0,0.51,,85,7473,7,22,32,0.912,51.5,631,4.83,12.2,13.2,1,29.0,1.97,6.8,0,0,0,1,0,515,-14,-32248,508,,,,,,,,,,,,,,,,
177743,1620407273339,14,8,21,26,37,37,7,-0.53,0.23,0.41,9,-3,-1,0.58,0,85,7479,7,22,32,0.898,51.0,627,4.83,12.2,13.2,1,29.0,1.97,6.8,0,0,0,1,0,497,-4054,-6528,502,45.846817,5.178221,54.45,222.2,10,3,1.7,0,0.0,-1,0.0,,0.0,0,1.39,2.9624
177763,1620407273359,,,,,,,,-0.58,0.24,0.42,8,-2,-1,0.63,,85,7578,7,22,32,0.884,50.7,630,4.8,12.2,13.2,1,29.0,1.97,6.8,0,0,0,1,0,481,-21872,2212,499,,,,,,,,,,,,,,,,
177783,1620407273379,,,,,,,,-0.61,0.23,0.34,9,-1,-1,0.65,,85,7741,7,22,31,0.87,50.1,630,4.8,12.2,13.2,1,28.6,2.0,6.8,0,0,0,1,0,483,11560,243,494,,,,,,,,,,,,,,,,
177803,1620407273401,,,,,,,,-0.59,0.26,0.14,9,-1,-1,0.64,,85,7780,7,22,31,0.856,49.8,637,4.83,12.2,13.2,1,28.6,2.0,6.8,0,0,0,1,0,486,2524,32033,490,,,,,,,,,,,,,,,,
177823,1620407273421,,,,,,,,-0.55,0.26,-0.03,9,0,0,0.6,,85,7731,7,22,31,0.843,49.5,626,4.82,12.3,14.6,1,28.6,2.0,7.1,0,0,0,1,0,488,10408,16648,485,,,,,,,,,,,,,,,,
177843,1620407273441,15,6,19,22,39,38,8,-0.51,0.3,-0.2,9,1,1,0.6,0,85,7649,7,22,31,0.829,49.2,627,4.9,12.2,14.6,1,28.6,2.02,7.1,0,0,0,1,0,485,1,3576,476,45.846828,5.178211,53.71,222.2,10,3,1.7,0,0.0,-1,0.0,0.0,0.0,0,1.39,2.9641
177863,1620407273461,,,,,,,,-0.49,0.33,-0.32,9,0,1,0.59,,85,7554,7,22,31,0.816,48.7,627,4.85,12.2,14.6,1,28.6,2.0,7.1,0,0,0,1,0,487,1,16648,476,,,,,,,,,,,,,,,,
177883,1620407273481,,,,,,,,-0.46,0.3,-0.46,9,0,1,0.55,,85,7470,7,22,31,0.806,48.3,622,4.84,12.2,14.6,1,28.6,2.0,7.1,0,0,0,1,0,484,-1562,-16384,471,,,,,,,,,,,,,,,,
177903,1620407273499,,,,,,,,-0.43,0.31,-0.59,9,2,2,0.53,,85,7455,7,22,31,0.805,47.7,630,4.87,12.2,14.6,1,28.6,2.0,7.1,0,0,0,1,0,472,8488,243,466,,,,,,,,,,,,,,,,
177923,1620407273519,,,,,,,,-0.4,0.33,-0.7,9,2,2,0.52,,85,7440,7,22,31,0.805,47.6,621,4.89,12.2,14.8,1,28.6,2.0,6.9,0,0,0,1,0,470,32033,2211,467,,,,,,,,,,,,,,,,
177943,1620407273539,14,7,19,21,39,37,7,-0.38,0.33,-0.81,9,3,2,0.5,0,86,7428,7,22,31,0.804,47.8,631,4.87,11.7,14.8,1,28.6,2.0,6.9,0,0,1,1,0,468,10305,17628,469,45.84684,5.178202,51.3,222.2,10,3,1.7,0,0.0,-1,0.0,,0.0,0,1.39,2.9657
177963,1620407273559,,,,,,,,-0.4,0.33,-0.91,9,2,2,0.52,,86,7364,7,22,31,0.804,46.5,612,4.82,11.7,14.8,1,28.6,2.0,6.9,0,0,1,1,0,463,30272,17628,457,,,,,,,,,,,,,,,,
177983,1620407273579,,,,,,,,-0.44,0.29,-0.82,9,1,1,0.52,,86,7309,7,22,31,0.806,46.8,611,4.85,11.8,14.8,1,28.6,2.0,6.9,0,0,1,1,0,465,-16384,14488,458,,,,,,,,,,,,,,,,
178003,1620407273603,,,,,,,,-0.45,0.26,-0.67,10,-0,0,0.52,,86,7244,7,22,31,0.809,46.6,602,4.81,11.8,14.8,1,28.6,2.0,6.9,0,0,1,1,0,462,-3210,3571,451,,,,,,,,,,,,,,,,
178023,1620407273623,,,,,,,,-0.44,0.28,-0.44,10,-2,-0,0.53,,86,7186,7,22,31,0.811,46.1,609,4.88,11.7,14.5,1,28.5,2.0,6.6,0,0,1,1,0,460,-6387,-6387,449,,,,,,,,,,,,,,,,
178043,1620407273643,13,5,19,25,38,37,8,-0.41,0.33,-0.57,10,-0,0,0.52,0,86,7140,7,22,32,0.813,45.8,598,4.88,11.7,14.5,1,29.0,1.97,6.6,0,0,1,1,0,459,2211,8488,449,45.846848,5.178193,49.21,222.1,10,3,1.8,0,0.0,-1,0.0,0.0,0.0,0,1.39,2.9674
178063,1620407273663,,,,,,,,-0.4,0.31,-0.69,10,1,1,0.5,,86,7067,7,22,32,0.816,45.9,585,4.86,11.8,14.5,1,29.0,1.97,6.6,0,0,1,1,0,451,-18108,10305,447,,,,,,,,,,,,,,,,
178083,1620407273683,,,,,,,,-0.47,0.29,-0.47,9,-1,-1,0.55,,86,7051,7,22,32,0.818,45.0,584,4.86,11.8,14.5,1,29.0,1.97,6.6,0,0,1,1,0,444,8488,26704,440,,,,,,,,,,,,,,,,
178103,1620407273701,,,,,,,,-0.46,0.31,-0.39,9,-2,-1,0.55,,86,7043,7,22,32,0.82,44.7,590,4.85,11.7,14.5,1,29.0,1.97,6.6,0,0,1,1,0,447,15649,5600,440,,,,,,,,,,,,,,,,
178123,1620407273721,,,,,,,,-0.43,0.28,-0.52,9,-1,-0,0.51,,86,6998,7,22,33,0.822,44.5,588,4.89,11.8,14.9,1,29.1,1.97,6.5,0,0,1,1,0,441,10305,5600,441,,,,,,,,,,,,,,,,
178143,1620407273741,11,5,20,26,38,37,9,-0.48,0.26,-0.31,9,-2,-2,0.54,0,86,6959,7,22,33,0.82,44.1,577,4.81,11.7,14.9,1,29.1,2.02,6.5,0,0,1,1,0,443,26704,-7939,434,45.846859,5.178183,47.31,222.1,10,3,1.8,0,0.0,-1,0.0,,0.0,0,1.39,2.969
178163,1620407273761,,,,,,,,-0.46,0.22,-0.45,9,-2,-1,0.51,,86,6916,7,22,33,0.818,44.2,588,4.95,11.8,14.9,1,29.1,2.02,6.5,0,0,1,1,0,441,20625,-3322,427,,,,,,,,,,,,,,,,
178183,1620407273781,,,,,,,,-0.45,0.21,-0.58,9,-0,-0,0.5,,86,6893,7,22,33,0.816,44.1,570,4.8,11.9,14.9,1,29.1,2.02,6.5,0,0,1,1,0,436,26704,1779,429,,,,,,,,,,,,,,,,
178203,1620407273801,,,,,,,,-0.41,0.22,-0.37,10,-3,-1,0.46,,86,6823,7,22,33,0.814,43.8,576,4.82,11.8,14.9,1,29.0,2.02,6.5,0,0,1,1,0,438,21580,13552,425,,,,,,,,,,,,,,,,
178223,1620407273821,,,,,,,,-0.37,0.28,-0.5,10,2,1,0.46,,86,6810,7,22,34,0.812,43.5,567,4.86,11.9,15.3,1,29.3,2.07,6.5,0,0,1,1,0,433,-7939,13552,425,,,,,,,,,,,,,,,,
178243,1620407273841,9,5,20,27,37,36,10,-0.38,0.33,-0.29,10,-2,-1,0.5,0,86,6737,7,22,34,0.812,43.2,568,4.81,11.8,15.3,1,29.3,2.07,6.5,0,0,1,1,0,434,-3322,3826,418,45.846867,5.178174,45.99,222.0,10,3,1.8,0,0.0,-1,0.0,0.0,0.0,0,1.39,2.9707
178263,1620407273861,,,,,,,,-0.36,0.26,-0.43,10,1,1,0.44,,86,6732,7,22,34,0.811,42.9,571,4.88,11.9,15.3,1,29.3,2.07,6.5,0,0,1,1,0,428,13180,-8165,419,,,,,,,,,,,,,,,,
178283,1620407273881,,,,,,,,-0.34,0.32,-0.23,10,-1,-0,0.47,,86,6689,7,22,34,0.81,43.1,576,4.83,11.8,15.3,1,29.3,2.07,6.5,0,0,1,1,0,425,1779,18584,415,,,,,,,,,,,,,,,,
178303,1620407273901,,,,,,,,-0.32,0.29,-0.38,10,1,0,0.43,,86,6670,7,22,34,0.809,42.3,556,4.91,11.9,15.3,1,29.3,2.07,6.5,0,0,1,1,0,426,3826,-9166,417,,,,,,,,,,,,,,,,
178323,1620407273921,,,,,,,,-0.34,0.35,-0.25,11,0,0,0.49,,86,6597,7,22,34,0.808,43.1,552,4.92,11.9,15.1,1,29.2,2.07,6.3,0,0,1,1,0,420,1779,2524,413,,,,,,,,,,,,,,,,
178343,1620407273941,10,3,21,27,37,36,11,-0.4,0.35,-0.06,11,-3,-1,0.53,0,86,6590,7,22,34,0.808,41.9,551,4.82,11.9,15.1,1,29.2,2.07,6.3,0,0,1,1,0,420,-4082,-26615,415,45.846878,5.178164,45.39,222.0,10,3,1.8,0,0.0,-1,0.0,,0.0,0,1.4,2.9724
178363,1620407273961,,,,,,,,-0.39,0.33,-0.22,11,1,1,0.51,,86,6562,7,22,34,0.806,41.9,539,4.88,11.9,15.1,1,29.1,2.07,6.3,0,0,1,1,0,419,7154,-9211,410,,,,,,,,,,,,,,,,
178383,1620407273981,,,,,,,,-0.38,0.37,-0.04,11,-3,-2,0.53,,86,6542,7,22,34,0.807,41.5,548,4.8,11.9,15.1,1,29.1,2.12,6.3,0,0,1,1,0,416,-8165,-9211,404,,,,,,,,,,,,,,,,
178403,1620407273991,,,,,,,,-0.36,0.27,-0.2,11,-3,-2,0.45,,86,6514,7,22,34,0.807,41.0,543,4.83,11.9,15.1,1,29.1,2.07,6.3,0,0,1,1,0,414,9517,2524,405,,,,,,,,,,,,,,,,
178423,1620407274011,,,,,,,,-0.33,0.3,-0.35,11,1,1,0.45,,86,6465,7,22,35,0.806,41.5,548,4.9,11.9,15.6,1,29.3,2.12,6.3,0,0,1,1,0,415,-9166,10541,405,,,,,,,,,,,,,,,,
178443,1620407274031,9,5,21,27,37,36,12,-0.37,0.37,-0.15,12,-5,-1,0.52,0,86,6410,7,22,35,0.807,41.4,544,4.82,11.9,15.6,1,29.2,2.12,6.3,0,0,1,1,0,410,2524,10541,401,45.846886,5.178155,43.9,222.0,10,3,1.8,0,0.0,-1,0.0,0.0,0.0,0,1.4,2.974
178463,1620407274051,,,,,,,,-0.36,0.32,0.03,12,-8,-3,0.48,,86,6319,7,22,35,0.808,40.9,533,4.83,12.0,15.6,1,29.1,2.12,6.3,0,0,1,1,0,411,11560,6384,402,,,,,,,,,,,,,,,,
178483,1620407274071,,,,,,,,-0.26,0.23,-0.14,12,-5,-1,0.35,,86,6266,7,22,35,0.809,40.8,529,4.92,12.0,15.6,1,29.1,2.12,6.3,0,0,1,1,0,406,2524,17144,394,,,,,,,,,,,,,,,,
178503,1620407274097,,,,,,,,-0.26,0.17,-0.3,12,3,1,0.31,,86,6212,7,22,36,0.809,40.3,517,4.91,12.0,15.6,1,29.3,2.18,6.3,0,0,1,1,0,399,-8151,-6524,395,,,,,,,,,,,,,,,,
178523,1620407274117,,,,,,,,-0.26,0.21,-0.44,12,6,3,0.33,,86,6184,7,22,36,0.81,40.3,523,4.9,12.0,15.9,1,29.3,2.18,6.2,0,0,1,1,0,397,-8151,-31744,389,,,,,,,,,,,,,,,,
178543,1620407274137,10,6,21,25,37,36,12,-0.33,0.31,-0.24,12,2,1,0.46,0,86,6200,7,22,37,0.811,39.6,524,4.83,11.9,15.9,1,29.5,2.23,6.2,0,0,1,1,0,393,-1562,-19019,389,45.846893,5.178146,42.78,222.0,10,3,1.8,0,0.0,-1,0.0,,0.0,0,1.4,2.9757
178563,1620407274157,,,,,,,,-0.33,0.36,-0.05,12,-4,-1,0.49,,86,6165,7,22,37,0.813,39.5,525,4.85,11.9,15.9,1,29.4,2.28,6.2,0,0,1,1,0,393,17144,-19126,386,,,,,,,,,,,,,,,,
178583,1620407274177,,,,,,,,-0.39,0.35,0.12,12,-7,-2,0.53,,86,6129,7,22,38,0.814,39.5,515,4.81,11.9,15.9,1,29.6,2.28,6.2,0,0,1,1,0,391,17144,-992,383,,,,,,,,,,,,,,,,
178603,1620407274200,,,,,,,,-0.37,0.31,0.28,12,-8,-4,0.48,,86,6083,7,22,39,0.816,39.1,514,4.81,12.0,15.9,1,29.8,2.34,6.2,0,0,1,1,0,385,505,8200,381,,,,,,,,,,,,,,,,
178623,1620407274220,,,,,,,,-0.37,0.23,0.42,12,-12,-5,0.44,,86,6023,7,22,39,0.817,39.2,512,4.84,11.9,17.1,1,29.8,2.34,6.5,0,0,1,1,0,387,-31744,770,379,,,,,,,,,,,,,,,,
178643,1620407274240,8,6,21,26,37,36,12,-0.34,0.15,0.55,12,-14,-6,0.37,0,86,5946,7,22,40,0.818,38.4,505,4.8,12.0,17.1,1,29.7,2.36,6.5,0,0,1,1,0,383,-19019,770,377,45.846905,5.178136,42.14,222.0,10,3,1.8,0,0.0,-1,0.0,0.0,0.0,0,1.4,2.9774
178663,1620407274260,,,,,,,,-0.32,0.09,0.41,12,-16,-7,0.33,,86,5911,7,22,40,0.82,38.5,500,4.81,11.9,17.1,1,29.6,2.38,6.5,0,0,1,1,0,377,-6475,1,372,,,,,,,,,,,,,,,,
178683,1620407274280,,,,,,,,-0.34,0.06,0.54,12,-18,-7,0.35,,86,5888,7,22,41,0.821,37.8,498,4.83,11.9,17.1,1,29.8,2.39,6.5,0,0,1,1,0,375,2278,0,367,,,,,,,,,,,,,,,,
178703,1620407274302,,,,,,,,-0.36,0.06,0.66,12,-21,-8,0.36,,86,5899,7,22,42,0.825,37.7,488,4.86,12.0,17.1,1,30.0,2.39,6.5,0,0,1,1,0,372,-6656,3082,366,,,,,,,,,,,,,,,,
178723,1620407274322,,,,,,,,-0.35,0.04,0.78,12,-23,-9,0.35,,86,5886,7,22,42,0.83,37.2,498,4.83,12.0,17.8,1,30.0,2.4,6.5,0,0,1,1,0,373,1,-1268,362,,,,,,,,,,,,,,,,
178743,1620407274342,8,4,21,25,37,36,11,-0.41,0.07,0.88,12,-22,-9,0.42,0,86,5837,7,22,43,0.836,37.8,489,4.9,12.0,17.8,1,30.1,2.42,6.5,0,0,1,1,0,369,2278,3082,365,45.846912,5.178126,40.27,222.0,10,3,1.8,0,0.0,-1,0.0,,0.0,0,1.4,2.979
178763,1620407274362,,,,,,,,-0.46,0.13,0.94,12,-17,-7,0.47,,86,5769,7,22,44,0.841,36.8,482,4.89,12.0,17.8,1,30.2,2.45,6.5,0,0,1,1,0,367,257,-6458,366,,,,,,,,,,,,,,,,
178783,1620407274382,,,,,,,,-0.47,0.16,0.7,12,-13,-6,0.49,,86,5756,7,22,44,0.846,36.7,476,4.92,12.1,17.8,1,30.2,2.46,6.5,0,0,1,1,0,366,0,4104,356,,,,,,,,,,,,,,,,
178803,1620407274402,,,,,,,,-0.42,0.14,0.47,12,-11,-4,0.44,,86,5706,7,22,45,0.852,36.6,479,4.91,12.1,17.8,1,30.2,2.5,6.5,0,0,1,1,0,361,230,3302,355,,,,,,,,,,,,,,,,
178823,1620407274422,,,,,,,,-0.35,0.11,0.47,12,-13,-5,0.37,,86,5635,7,22,45,0.859,36.2,472,4.83,11.9,18.7,1,30.1,2.53,6.6,0,0,1,1,0,360,2790,3183,350,,,,,,,,,,,,,,,,
178843,1620407274442,9,7,22,24,37,36,10,-0.39,0.14,0.6,12,-13,-5,0.41,0,86,5595,7,22,46,0.866,35.5,476,4.87,12.0,18.7,1,30.2,2.55,6.6,0,0,1,1,0,357,-14707,-30454,351,45.84692,5.178117,38.98,222.0,10,3,1.7,0,0.0,-1,0.0,0.0,0.0,0,1.4,2.9807
178863,1620407274462,,,,,,,,-0.41,0.19,0.38,12,-9,-4,0.45,,86,5547,7,22,46,0.873,35.8,467,4.84,12.1,18.7,1,30.1,2.57,6.6,0,0,1,1,0,357,-29978,2811,349,,,,,,,,,,,,,,,,
178883,1620407274482,,,,,,,,-0.39,0.17,0.19,12,-10,-5,0.42,,86,5485,7,22,47,0.882,35.8,467,4.82,12.0,18.7,1,30.3,2.62,6.6,0,0,1,1,0,355,-29978,8841,348,,,,,,,,,,,,,,,,
178903,1620407274502,,,,,,,,-0.43,0.17,0.34,12,-11,-5,0.46,,86,5463,7,22,48,0.89,35.4,463,4.87,12.1,18.7,1,30.5,2.63,6.6,0,0,1,1,0,350,3302,-10554,345,,,,,,,,,,,,,,,,
178923,1620407274522,,,,,,,,-0.4,0.19,0.15,11,-7,-3,0.44,,86,5442,7,22,48,0.899,35.2,440,4.9,12.1,19.0,1,30.5,2.64,6.6,0,0,1,1,0,346,3183,6668,341,,,,,,,,,,,,,,,,
178943,1620407274542,9,5,22,26,37,36,11,-0.38,0.13,0.18,11,-9,-4,0.41,0,86,5460,7,22,49,0.906,34.7,461,4.85,11.9,19.0,1,30.8,2.63,6.6,0,0,1,1,0,340,8841,13,338,45.846924,5.178108,37.66,222.0,10,3,1.7,0,0.0,-1,0.0,,0.0,0,1.4,2.9824
178963,1620407274562,,,,,,,,-0.47,0.18,0.33,11,-7,-3,0.5,,86,5468,7,22,49,0.908,34.4,448,4.91,12.1,19.0,1,30.8,2.63,6.6,0,0,1,1,0,341,-10554,3346,338,,,,,,,,,,,,,,,,
178983,1620407274582,,,,,,,,-0.41,0.18,0.14,11,-5,-2,0.45,,86,5466,7,22,50,0.909,34.2,444,4.91,12.0,19.0,1,31.0,2.64,6.6,0,0,1,1,0,341,6668,13,333,,,,,,,,,,,,,,,,
179003,1620407274600,,,,,,,,-0.4,0.15,0.29,11,-7,-2,0.43,,86,5392,7,22,50,0.911,33.5,453,4.84,11.9,19.0,1,31.0,2.69,6.6,0,0,1,1,0,341,-10554,3346,335,,,,,,,,,,,,,,,,
179023,1620407274620,,,,,,,,-0.39,0.2,0.1,11,-4,-2,0.44,,86,5366,7,22,51,0.914,34.0,440,4.92,12.1,20.0,1,31.1,2.71,6.7,0,0,1,1,0,340,3327,3346,335,,,,,,,,,,,,,,,,
179043,1620407274640,4,3,23,27,36,35,7,-0.34,0.2,0.08,10,-6,-3,0.39,0,86,5290,7,22,51,0.912,33.9,450,4.84,12.0,20.0,1,31.1,2.76,6.7,0,0,1,1,0,340,-122,-6528,330,45.846931,5.178099,36.32,222.0,10,3,1.7,0,0.0,-1,0.0,0.0,0.0,0,1.4,2.984
179063,1620407274660,,,,,,,,-0.34,0.22,-0.09,10,-3,-2,0.4,,86,5256,7,22,52,0.91,33.6,431,4.86,12.1,20.0,1,31.4,2.79,6.7,0,0,1,1,0,337,13,-6528,332,,,,,,,,,,,,,,,,
179083,1620407274680,,,,,,,,-0.31,0.2,-0.09,10,-4,-2,0.37,,86,5202,7,22,52,0.907,33.8,432,4.82,11.9,20.0,1,31.3,2.82,6.7,0,0,1,1,0,335,-31222,-32559,335,,,,,,,,,,,,,,,,
179103,1620407274700,,,,,,,,-0.3,0.17,-0.25,9,-2,-1,0.35,,86,5189,7,22,53,0.905,33.6,425,4.91,12.1,20.0,1,31.6,2.84,6.7,0,0,1,1,0,333,3346,170,332,,,,,,,,,,,,,,,,
179123,1620407274720,,,,,,,,-0.33,0.13,-0.06,9,-4,-2,0.35,,86,5175,7,22,53,0.901,33.4,422,4.83,12.0,20.4,1,31.6,2.85,6.8,0,0,1,1,0,330,4838,-22016,331,,,,,,,,,,,,,,,,
179143,1620407274740,2,2,25,27,35,35,2,-0.28,0.12,-0.23,8,-2,-1,0.31,0,86,5193,7,22,53,0.896,32.9,420,4.91,12.1,20.4,1,31.6,2.83,6.8,0,0,1,1,0,329,-20736,170,325,45.846939,5.17809,35.22,221.9,10,3,1.7,0,0.0,-1,0.0,,0.0,0,1.41,2.9857
179163,1620407274760,,,,,,,,-0.3,0.08,-0.04,8,-4,-2,0.32,,86,5234,7,22,54,0.891,32.9,430,4.85,12.0,20.4,1,31.9,2.83,6.8,0,0,1,1,0,328,-24576,170,329,,,,,,,,,,,,,,,,
179183,1620407274780,,,,,,,,-0.25,0.08,-0.2,7,-2,-1,0.26,,86,5260,7,22,54,0.887,32.8,416,4.92,12.1,20.4,1,32.0,2.81,6.8,0,0,1,1,0,325,165,165,328,,,,,,,,,,,,,,,,
179203,1620407274800,,,,,,,,-0.26,0.04,-0.02,6,-5,-2,0.27,,86,5252,7,22,54,0.883,32.8,443,4.86,12.0,20.4,1,32.0,2.81,6.8,0,0,1,1,0,325,155,165,328,,,,,,,,,,,,,,,,
179223,1620407274820,,,,,,,,-0.24,0.05,-0.18,5,-2,-1,0.24,,86,5233,7,22,55,0.881,32.7,436,4.94,12.2,20.7,1,32.2,2.82,6.8,0,0,1,1,0,324,-22016,-22016,327,,,,,,,,,,,,,,,,
179243,1620407274840,2,3,27,27,34,35,-2,-0.28,0.02,-0.0,4,-4,-2,0.28,0,86,5199,7,22,55,0.878,32.6,437,4.81,12.0,20.7,1,32.2,2.84,6.8,0,0,1,1,0,325,160,165,326,45.846943,5.178081,34.45,221.9,10,3,1.7,0,0.0,-1,0.0,0.0,0.0,0,1.41,2.9874
179263,1620407274860,,,,,,,,-0.21,0.01,-0.17,4,-3,-2,0.21,,86,5135,7,22,55,0.875,32.5,415,4.86,12.0,20.7,1,32.2,2.88,6.8,0,0,1,1,0,323,150,165,325,,,,,,,,,,,,,,,,
179283,1620407274880,,,,,,,,-0.26,-0.01,-0.04,3,-2,-1,0.26,,86,5103,7,22,55,0.874,32.4,433,4.86,12.0,20.7,1,32.1,2.89,6.8,0,0,1,1,0,322,-27136,165,326,,,,,,,,,,,,,,,,
179303,1620407274900,,,,,,,,-0.23,-0.05,-0.04,2,-3,-1,0.23,,86,5062,7,22,55,0.872,32.5,415,4.82,11.9,20.7,1,32.1,2.92,6.8,0,0,1,1,0,319,150,-24576,325,,,,,,,,,,,,,,,,
179323,1620407274920,,,,,,,,-0.17,-0.05,-0.2,1,-1,-1,0.17,,86,5057,7,22,56,0.871,32.0,410,4.85,12.1,21.2,1,32.4,2.93,6.8,0,0,1,1,0,319,140,-24576,320,,,,,,,,,,,,,,,,
179343,1620407274940,3,3,28,27,33,36,-4,-0.25,-0.05,-0.02,0,-2,-1,0.26,0,86,5075,7,23,56,0.869,32.2,430,4.83,12.0,21.2,1,32.4,2.89,6.8,0,0,1,1,0,317,140,155,322,45.84695,5.178072,34.01,221.9,10,3,1.7,0,0.0,-1,0.0,,0.0,0,1.41,2.989
179363,1620407274960,,,,,,,,-0.19,-0.07,-0.18,-1,-1,-1,0.2,,86,5104,7,23,56,0.865,32.4,407,4.91,12.1,21.2,1,32.4,2.87,6.8,0,0,1,1,0,316,-29696,-24576,324,,,,,,,,,,,,,,,,
179383,1620407274980,,,,,,,,-0.23,-0.08,-0.12,-2,0,-0,0.24,,86,5102,7,23,56,0.861,32.0,402,4.9,12.1,21.2,1,32.4,2.88,6.8,0,0,1,1,0,315,-29696,155,320,,,,,,,,,,,,,,,,
179403,1620407275000,,,,,,,,-0.22,-0.1,-0.03,-2,-1,-1,0.24,,86,5079,7,23,56,0.856,32.3,420,4.81,12.0,21.2,1,32.4,2.89,6.8,0,0,1,1,0,312,-28416,155,323,,,,,,,,,,,,,,,,
179423,1620407275010,,,,,,,,-0.16,-0.09,-0.2,-3,0,-0,0.18,,86,5062,7,23,56,0.851,32.0,398,4.91,12.2,20.9,1,32.4,2.9,6.8,0,0,1,1,0,315,125,155,320,,,,,,,,,,,,,,,,
179443,1620407275030,3,2,28,27,33,36,-6,-0.24,-0.13,-0.01,-4,1,-0,0.27,0,86,5049,7,23,56,0.848,32.3,406,4.87,12.0,20.9,1,32.4,2.89,6.8,0,0,1,1,0,313,125,-27136,323,45.846954,5.178064,33.45,221.9,10,3,1.7,0,0.0,-1,0.0,0.0,0.0,0,1.41,2.9907
179463,1620407275050,,,,,,,,-0.17,-0.12,-0.12,-5,-0,-1,0.21,,86,5057,7,23,56,0.843,32.2,426,4.82,11.9,20.9,1,32.4,2.91,6.8,0,0,1,1,0,311,-32256,-27136,322,,,,,,,,,,,,,,,,
179483,1620407275070,,,,,,,,-0.15,-0.14,-0.28,-6,1,1,0.2,,86,5048,7,23,57,0.839,32.1,406,4.88,12.1,20.9,1,32.7,2.89,6.8,0,0,1,1,0,308,32000,145,321,,,,,,,,,,,,,,,,
179503,1620407275098,,,,,,,,-0.21,-0.17,-0.09,-6,1,0,0.26,,86,5036,7,23,57,0.835,32.0,407,4.85,12.0,20.9,1,32.7,2.9,6.8,0,0,1,1,0,307,30720,145,320,,,,,,,,,,,,,,,,
179523,1620407275118,,,,,,,,-0.17,-0.22,-0.25,-7,0,-1,0.28,,86,5029,7,23,56,0.831,32.0,403,4.91,12.1,21.2,1,32.4,2.93,6.8,0,0,1,1,0,307,120,-28416,318,,,,,,,,,,,,,,,,
179543,1620407275138,3,3,29,26,33,36,-12,-0.15,-0.2,-0.39,-8,2,-0,0.25,0,86,5018,7,23,57,0.826,31.7,402,4.86,12.1,21.2,1,32.7,2.91,6.8,0,0,1,1,0,307,110,-27136,317,45.846962,5.178056,32.85,221.9,10,3,1.7,0,0.0,-1,0.0,,0.0,0,1.41,2.9924
179563,1620407275158,,,,,,,,-0.22,-0.24,-0.19,-9,0,-1,0.32,,86,5005,7,23,57,0.821,31.9,407,4.85,12.0,21.2,1,32.5,2.92,6.8,0,0,1,1,0,305,110,-28416,319,,,,,,,,,,,,,,,,
179583,1620407275178,,,,,,,,-0.15,-0.26,-0.34,-10,0,-1,0.3,,86,4980,7,23,57,0.817,31.9,404,4.92,12.1,21.2,1,32.4,2.91,6.8,0,0,1,1,0,302,29440,-28416,319,,,,,,,,,,,,,,,,
179603,1620407275201,,,,,,,,-0.13,-0.27,-0.48,-11,1,-0,0.3,,86,4955,7,23,57,0.813,32.1,397,4.86,12.1,21.2,1,32.1,2.89,6.8,0,0,1,1,0,303,95,-28416,321,,,,,,,,,,,,,,,,
179623,1620407275221,,,,,,,,-0.18,-0.3,-0.28,-12,1,-1,0.35,,86,4953,7,23,57,0.812,31.8,402,4.86,12.0,20.7,1,32.1,2.89,6.6,0,0,1,1,0,300,25600,-29696,316,,,,,,,,,,,,,,,,
179643,1620407275241,3,3,29,25,32,37,-18,-0.18,-0.32,-0.4,-13,0,-1,0.36,0,87,4916,7,23,57,0.811,31.8,399,4.84,11.9,20.7,1,31.6,2.86,6.6,0,0,1,1,0,299,24320,-29696,318,45.846966,5.178047,33.02,221.8,10,3,1.7,0,0.0,-1,0.0,0.0,0.0,0,1.41,2.994
179663,1620407275261,,,,,,,,-0.11,-0.36,-0.53,-14,0,-1,0.37,,87,4905,7,23,57,0.81,31.4,384,4.9,12.1,20.7,1,31.5,2.86,6.6,0,0,1,1,0,296,90,140,314,,,,,,,,,,,,,,,,
179683,1620407275281,,,,,,,,-0.14,-0.37,-0.65,-15,2,-1,0.4,,87,4843,7,23,58,0.81,31.8,391,4.88,12.2,20.7,1,31.0,2.83,6.6,0,0,1,1,0,296,21760,135,318,,,,,,,,,,,,,,,,
179703,1620407275299,,,,,,,,-0.22,-0.36,-0.43,-16,1,-1,0.42,,87,4873,7,23,58,0.81,31.7,404,4.87,12.1,20.7,1,31.4,2.84,6.6,0,0,1,1,0,295,41,140,317,,,,,,,,,,,,,,,,
179723,1620407275319,,,,,,,,-0.19,-0.39,-0.41,-18,1,-2,0.44,,87,4849,7,23,58,0.809,31.7,388,4.88,12.0,20.0,1,31.1,2.83,6.3,0,0,1,1,0,291,20480,135,317,,,,,,,,,,,,,,,,
179743,1620407275339,5,4,30,24,32,38,-27,-0.15,-0.39,-0.54,-19,-1,-2,0.42,0,87,4831,7,23,58,0.81,31.5,382,4.9,12.1,20.0,1,30.8,2.81,6.3,0,0,1,1,0,290,10686,-30976,315,45.846973,5.17804,31.99,221.7,10,3,1.7,0,0.0,-1,0.0,,0.0,0,1.41,2.9957
179763,1620407275359,,,,,,,,-0.13,-0.4,-0.66,-20,1,-1,0.42,,87,4832,7,23,58,0.81,31.6,378,4.89,12.2,20.0,1,30.8,2.81,6.3,0,0,1,1,0,288,0,-30976,316,,,,,,,,,,,,,,,,
179783,1620407275379,,,,,,,,-0.22,-0.46,-0.49,-22,1,-1,0.52,,87,4833,7,23,58,0.811,31.8,391,4.87,12.0,20.0,1,30.9,2.81,6.3,0,0,1,1,0,286,-16896,-30976,312,,,,,,,,,,,,,,,,
179803,1620407275401,,,,,,,,-0.25,-0.49,-0.28,-23,0,-1,0.56,,87,4802,7,23,58,0.811,31.2,397,4.86,11.9,20.0,1,30.5,2.8,6.3,0,0,1,1,0,284,-1529,-32256,312,,,,,,,,,,,,,,,,
179823,1620407275421,,,,,,,,-0.24,-0.51,-0.27,-25,-0,-1,0.56,,87,4800,7,23,58,0.812,31.3,386,4.83,11.9,19.4,1,30.4,2.8,6.1,0,0,1,1,0,281,24064,-32256,314,,,,,,,,,,,,,,,,
179843,1620407275441,5,4,31,24,32,39,-36,-0.18,-0.5,-0.41,-26,-1,-2,0.54,0,87,4751,7,23,58,0.812,31.1,382,4.9,12.1,19.4,1,29.8,2.77,6.1,0,0,1,1,0,279,-1534,125,311,45.846981,5.178032,32.01,221.7,10,3,1.7,0,0.0,-1,0.0,0.0,0.0,0,1.41,2.9974
179863,1620407275461,,,,,,,,-0.17,-0.54,-0.55,-28,0,-1,0.57,,87,4703,7,23,59,0.814,30.9,379,4.86,12.2,19.4,1,29.5,2.74,6.1,0,0,1,1,0,277,250,125,309,,,,,,,,,,,,,,,,
179883,1620407275481,,,,,,,,-0.17,-0.57,-0.67,-29,2,-1,0.59,,87,4725,7,23,58,0.815,31.2,371,4.88,12.1,19.4,1,29.4,2.76,6.1,0,0,1,1,0,274,250,32000,312,,,,,,,,,,,,,,,,
179903,1620407275499,,,,,,,,-0.21,-0.55,-0.67,-31,3,-1,0.59,,87,4669,7,23,58,0.816,31.0,381,4.88,12.0,19.4,1,28.7,2.72,6.1,0,0,1,1,0,272,-1,30720,310,,,,,,,,,,,,,,,,
179923,1620407275519,,,,,,,,-0.27,-0.56,-0.45,-32,3,-2,0.62,,87,4680,7,23,58,0.818,31.0,373,4.88,12.0,18.7,1,28.9,2.72,5.8,0,0,1,1,0,271,250,115,310,,,,,,,,,,,,,,,,
179943,1620407275539,5,4,31,23,32,40,-42,-0.32,-0.54,-0.28,-34,1,-2,0.63,0,87,4656,7,23,58,0.817,31.0,375,4.87,12.0,18.7,1,28.5,2.71,5.8,0,0,1,1,0,270,-1,30720,310,45.846985,5.178026,31.13,221.6,10,3,1.7,0,0.0,-1,0.0,,0.0,0,1.41,2.9991
179963,1620407275559,,,,,,,,-0.32,-0.57,-0.09,-35,-2,-3,0.65,,87,4689,7,23,58,0.815,31.4,378,4.88,12.0,18.7,1,29.0,2.73,5.8,0,0,1,1,0,267,-1,115,308,,,,,,,,,,,,,,,,
179983,1620407275579,,,,,,,,-0.27,-0.59,-0.14,-37,-2,-2,0.65,,87,4653,7,23,58,0.814,30.7,368,4.88,12.1,18.7,1,28.5,2.72,5.8,0,0,1,1,0,266,-1,110,307,,,,,,,,,,,,,,,,
180003,1620407275599,,,,,,,,-0.25,-0.6,-0.29,-38,-2,-2,0.65,,87,4628,7,23,58,0.813,30.8,370,4.87,12.1,18.7,1,28.2,2.7,5.8,0,0,1,1,0,267,-1,110,306,,,,,,,,,,,,,,,,
180023,1620407275619,,,,,,,,-0.15,-0.71,-0.43,-39,-3,-1,0.72,,87,4625,7,23,58,0.813,30.1,362,4.85,12.2,18.5,1,28.1,2.7,5.7,0,0,1,1,0,264,-1,105,301,,,,,,,,,,,,,,,,
180043,1620407275639,6,4,33,23,32,41,-52,-0.12,-0.71,-0.56,-41,0,-1,0.72,0,87,4572,7,23,58,0.813,30.1,355,4.87,12.2,18.5,1,27.4,2.67,5.7,0,0,1,1,0,266,-1,100,301,45.846992,5.17802,30.03,221.5,10,3,1.7,0,0.0,-1,0.0,0.0,0.0,0,1.41,3.0007
180063,1620407275659,,,,,,,,-0.08,-0.77,-0.68,-42,2,0,0.78,,87,4554,7,23,58,0.812,30.8,365,4.91,12.2,18.5,1,27.2,2.66,5.7,0,0,1,1,0,269,-1281,28160,308,,,,,,,,,,,,,,,,
180083,1620407275679,,,,,,,,-0.06,-0.85,-0.79,-44,3,0,0.85,,87,4534,7,23,58,0.812,30.3,353,4.93,12.2,18.5,1,26.9,2.65,5.7,0,0,1,1,0,269,-1,105,307,,,,,,,,,,,,,,,,
180103,1620407275701,,,,,,,,-0.03,-0.91,-0.89,-45,5,-0,0.91,,87,4476,7,23,58,0.812,30.5,351,4.91,12.2,18.5,1,26.2,2.62,5.7,0,0,1,1,0,259,10818,26880,305,,,,,,,,,,,,,,,,
180123,1620407275721,,,,,,,,0.01,-0.92,-0.99,-47,7,0,0.92,,87,4491,7,23,58,0.812,30.4,357,4.85,12.2,17.8,1,26.4,2.63,5.4,0,0,1,1,0,254,16896,105,304,,,,,,,,,,,,,,,,
180143,1620407275741,6,3,35,22,32,41,-65,0.02,-0.93,-1.07,-48,8,0,0.93,0,87,4436,7,23,58,0.811,30.4,346,4.92,12.2,17.8,1,25.7,2.6,5.4,0,0,1,1,0,260,15360,25600,304,45.847,5.178014,29.33,221.5,10,3,1.7,0,0.0,-1,0.0,,0.0,0,1.41,3.0024
180163,1620407275761,,,,,,,,0.03,-0.95,-1.15,-50,9,1,0.95,,87,4434,7,23,58,0.81,30.1,345,4.88,12.1,17.8,1,25.7,2.6,5.4,0,0,1,1,0,260,-1484,100,296,,,,,,,,,,,,,,,,
180183,1620407275781,,,,,,,,0.05,-0.92,-1.08,-51,9,0,0.92,,87,4365,7,23,59,0.809,29.8,338,4.91,12.2,17.8,1,25.0,2.56,5.4,0,0,1,1,0,260,-1484,90,298,,,,,,,,,,,,,,,,
180203,1620407275799,,,,,,,,0.05,-0.95,-0.99,-52,9,-1,0.96,,87,4348,7,23,58,0.808,29.2,343,4.87,12.1,17.8,1,24.6,2.55,5.4,0,0,1,1,0,266,250,85,291,,,,,,,,,,,,,,,,
180223,1620407275819,,,,,,,,-0.01,-1.0,-0.97,-53,8,-1,1.0,,87,4336,7,23,59,0.807,29.3,350,4.88,12.1,17.9,1,24.7,2.57,5.2,0,0,1,1,0,267,250,80,293,,,,,,,,,,,,,,,,
180243,1620407275839,5,3,34,22,31,42,-76,-0.07,-0.87,-0.76,-54,6,-1,0.88,0,87,4325,7,23,59,0.806,29.6,353,4.82,12.0,17.9,1,24.5,2.57,5.2,0,0,1,1,0,271,18432,80,296,45.847004,5.17801,27.9,221.4,10,3,1.7,0,0.0,-1,0.0,0.0,0.0,0,1.41,3.0041
180263,1620407275859,,,,,,,,-0.17,-0.91,-0.53,-55,3,-1,0.93,,87,4377,7,23,59,0.804,28.8,356,4.89,12.0,17.9,1,25.2,2.57,5.2,0,0,1,1,0,274,250,0,288,,,,,,,,,,,,,,,,
180283,1620407275879,,,,,,,,-0.26,-0.99,-0.41,-56,1,-2,1.02,,87,4403,8,23,59,0.801,28.6,346,4.9,12.1,17.9,1,25.5,2.6,5.2,0,0,1,1,0,274,10318,41,286,,,,,,,,,,,,,,,,
180303,1620407275899,,,,,,,,-0.34,-0.98,-0.28,-57,2,-2,1.04,,87,4384,8,23,59,0.799,28.9,353,4.83,12.2,17.9,1,25.3,2.59,5.2,0,0,1,1,0,247,13602,0,289,,,,,,,,,,,,,,,,
180323,1620407275919,,,,,,,,-0.37,-1.01,-0.42,-58,3,-2,1.07,,87,4414,8,23,60,0.796,28.8,345,4.86,12.1,18.2,1,26.0,2.62,5.3,0,0,1,1,0,249,18432,10686,288,,,,,,,,,,,,,,,,
180343,1620407275939,5,2,34,23,33,43,-76,-0.36,-1.05,-0.49,-60,3,-1,1.11,0,87,4416,8,23,60,0.793,28.5,355,4.88,12.1,18.2,1,26.0,2.62,5.3,0,0,1,1,0,252,19968,-16896,285,45.847012,5.178008,27.81,221.4,10,3,1.7,0,0.0,-1,0.0,,0.0,0,1.42,3.0057
180363,1620407275959,,,,,,,,-0.34,-1.01,-0.62,-61,5,-1,1.07,,87,4411,8,23,60,0.79,28.4,343,4.85,12.2,18.2,1,25.9,2.62,5.3,0,0,1,1,0,268,-1496,250,289,,,,,,,,,,,,,,,,
180383,1620407275979,,,,,,,,-0.31,-0.99,-0.73,-63,6,-2,1.04,,87,4400,8,23,61,0.787,28.9,352,4.88,12.2,18.2,1,26.1,2.63,5.3,0,0,1,1,0,284,15360,10686,289,,,,,,,,,,,,,,,,
180403,1620407275999,,,,,,,,-0.26,-0.97,-0.84,-64,7,-1,1.01,,87,4390,8,23,61,0.784,28.5,352,4.9,12.2,18.2,1,26.0,2.63,5.3,0,0,1,1,0,288,1088,250,281,,,,,,,,,,,,,,,,
180423,1620407276007,,,,,,,,-0.19,-1.01,-0.94,-64,9,-1,1.03,,87,4468,9,23,61,0.784,28.1,342,4.95,12.2,18.8,1,27.0,2.66,5.4,0,0,1,1,0,281,250,1886,281,,,,,,,,,,,,,,,,
180443,1620407276027,3,3,35,23,34,43,-76,-0.2,-1.06,-1.02,-65,9,-2,1.08,0,87,4483,9,23,61,0.786,28.4,348,4.87,12.1,18.8,1,27.2,2.66,5.4,0,0,1,1,0,266,1596,24064,284,45.847019,5.178006,26.11,221.3,10,3,1.7,0,0.0,-1,0.0,0.0,0.0,0,1.42,3.0074
180463,1620407276047,,,,,,,,-0.17,-1.08,-1.11,-66,10,-2,1.09,,87,4506,9,23,62,0.788,28.1,348,4.9,12.2,18.8,1,27.7,2.71,5.4,0,0,1,1,0,263,1210,-1534,281,,,,,,,,,,,,,,,,
180483,1620407276067,,,,,,,,-0.11,-1.03,-1.18,-66,11,-2,1.04,,87,4464,9,23,62,0.79,28.1,348,4.86,12.1,18.8,1,27.1,2.7,5.4,0,0,1,1,0,288,966,30208,281,,,,,,,,,,,,,,,,
180503,1620407276097,,,,,,,,-0.07,-0.9,-1.25,-67,13,-2,0.9,,87,4453,10,23,63,0.794,27.9,352,4.88,12.2,18.8,1,27.3,2.69,5.4,0,0,1,1,0,301,-1482,-1527,279,,,,,,,,,,,,,,,,
180523,1620407276117,,,,,,,,-0.05,-0.88,-1.31,-67,12,-1,0.88,,87,4478,10,23,63,0.799,27.1,345,4.89,12.2,20.6,1,27.6,2.75,5.6,0,0,1,1,0,300,250,-1527,271,,,,,,,,,,,,,,,,
180543,1620407276137,3,3,35,24,34,44,-76,-0.04,-0.94,-1.37,-67,11,-2,0.94,0,87,4478,11,23,64,0.804,26.9,350,4.9,12.1,20.6,1,27.9,2.79,5.6,0,0,1,1,0,295,-1532,2414,276,45.847023,5.178006,25.69,221.2,10,3,1.7,0,0.0,-1,0.0,,0.0,0,1.42,3.009
180563,1620407276157,,,,,,,,0.0,-0.94,-1.42,-67,10,-3,0.94,,87,4541,11,23,65,0.81,27.6,347,4.91,12.2,20.6,1,29.0,2.87,5.6,0,0,1,1,0,259,-1532,-1281,276,,,,,,,,,,,,,,,,
180583,1620407276177,,,,,,,,0.03,-0.99,-1.47,-67,10,-3,0.99,,87,4407,12,23,65,0.816,27.0,350,4.87,12.1,20.6,1,27.2,2.81,5.6,0,0,1,1,0,241,250,-1527,270,,,,,,,,,,,,,,,,
180603,1620407276200,,,,,,,,0.04,-0.95,-1.51,-68,9,-3,0.95,,87,4318,12,23,66,0.823,27.2,337,4.89,12.1,20.6,1,26.2,2.82,5.6,0,0,1,1,0,303,250,250,272,,,,,,,,,,,,,,,,
180623,1620407276220,,,,,,,,-0.01,-0.95,-1.26,-68,7,-3,0.95,,87,4272,12,23,67,0.831,27.7,342,4.85,12.0,20.2,1,25.9,2.84,5.6,0,0,1,1,0,310,-17920,250,273,,,,,,,,,,,,,,,,
180643,1620407276240,3,1,36,24,32,42,-75,-0.05,-0.96,-0.99,-68,4,-3,0.96,0,87,4291,12,23,68,0.839,27.4,351,4.91,12.0,20.2,1,26.8,2.9,5.6,0,0,1,1,0,283,-1533,-1,274,45.847031,5.178007,25.58,221.2,10,3,1.7,0,0.0,-1,0.0,0.0,0.0,0,1.42,3.0107
180663,1620407276260,,,,,,,,-0.1,-1.0,-0.74,-68,2,-3,1.01,,87,4406,12,23,69,0.847,27.2,347,4.9,12.0,20.2,1,28.2,2.95,5.6,0,0,1,1,0,254,16384,-1,272,,,,,,,,,,,,,,,,
180683,1620407276280,,,,,,,,-0.16,-0.96,-0.51,-68,0,-3,0.97,,87,4401,12,23,70,0.852,27.0,364,4.92,12.0,20.2,1,28.3,2.95,5.6,0,0,1,1,0,244,-14848,-1,270,,,,,,,,,,,,,,,,
180703,1620407276298,,,,,,,,-0.21,-0.89,-0.43,-68,0,-4,0.92,,87,4268,12,23,70,0.858,27.3,339,4.86,12.1,20.2,1,26.5,2.88,5.6,0,0,1,1,0,268,250,-1,273,,,,,,,,,,,,,,,,
180723,1620407276318,,,,,,,,-0.18,-0.8,-0.56,-69,1,-4,0.82,,87,4254,12,23,71,0.864,27.2,338,4.86,12.2,20.3,1,26.5,2.86,5.6,0,0,1,1,0,294,-1533,-1,272,,,,,,,,,,,,,,,,
180743,1620407276338,2,3,36,24,32,42,-76,-0.13,-0.87,-0.68,-69,1,-3,0.88,0,87,4310,12,23,71,0.87,27.1,334,4.88,12.1,20.3,1,27.3,2.9,5.6,0,0,1,1,0,291,13964,-1,271,45.847038,5.178008,24.86,221.2,10,3,1.7,0,0.0,-1,0.0,,0.0,0,1.42,3.0124
180763,1620407276358,,,,,,,,-0.1,-0.95,-0.79,-69,2,-3,0.95,,87,4402,12,23,71,0.877,26.7,346,4.84,12.0,20.3,1,28.6,2.96,5.6,0,0,1,1,0,277,250,-1,267,,,,,,,,,,,,,,,,
180783,1620407276378,,,,,,,,-0.07,-0.93,-0.81,-68,0,-3,0.93,,87,4398,12,23,72,0.884,27.0,353,4.83,12.0,20.3,1,28.8,2.96,5.6,0,0,1,1,0,233,-1482,-1,269,,,,,,,,,,,,,,,,
180803,1620407276400,,,,,,,,-0.09,-0.95,-0.58,-68,-1,-4,0.95,,87,4152,12,23,72,0.891,26.7,343,4.78,12.0,20.3,1,25.3,2.78,5.6,0,0,1,1,0,253,250,-1,267,,,,,,,,,,,,,,,,
180823,1620407276420,,,,,,,,-0.15,-0.89,-0.68,-68,-2,-4,0.9,,87,4080,12,23,73,0.899,27.1,334,4.94,12.1,19.0,1,24.5,2.71,5.1,0,0,1,1,0,312,-1533,-1,271,,,,,,,,,,,,,,,,
180843,1620407276440,3,1,36,24,31,40,-77,-0.15,-0.97,-0.73,-68,-1,-2,0.98,0,87,4135,12,23,73,0.911,26.5,323,4.88,12.2,19.0,1,25.3,2.75,5.1,0,0,1,1,0,298,1088,-1,265,45.847042,5.178011,25.54,221.2,10,3,1.7,0,0.0,-1,0.0,0.0,0.0,0,1.42,3.0141
180863,1620407276460,,,,,,,,-0.07,-0.92,-0.84,-68,0,-2,0.93,,87,4234,12,23,73,0.922,26.7,330,4.88,12.1,19.0,1,26.7,2.83,5.1,0,0,1,1,0,279,250,-1,267,,,,,,,,,,,,,,,,
180883,1620407276480,,,,,,,,-0.06,-0.95,-0.93,-68,1,-2,0.95,,87,4350,12,23,73,0.934,26.6,335,4.83,12.0,19.0,1,28.3,2.93,5.1,0,0,1,1,0,265,13964,-1,261,,,,,,,,,,,,,,,,
180903,1620407276500,,,,,,,,-0.03,-0.96,-0.96,-68,0,-2,0.96,,87,4360,12,23,73,0.946,26.8,350,4.84,11.9,19.0,1,28.5,2.93,5.1,0,0,1,1,0,236,250,-1,268,,,,,,,,,,,,,,,,
180923,1620407276520,,,,,,,,-0.1,-0.99,-0.71,-68,-2,-3,1.0,,87,4178,12,23,74,0.961,26.9,342,4.9,12.0,20.9,1,26.1,2.78,5.6,0,0,1,1,0,260,1088,-1,269,,,,,,,,,,,,,,,,
180943,1620407276540,3,0,37,25,31,40,-76,-0.15,-1.0,-0.65,-68,-3,-3,1.01,0,87,4131,12,23,74,0.977,27.2,336,4.91,12.1,20.9,1,25.4,2.74,5.6,0,0,1,1,0,277,250,-1,272,45.84705,5.178015,24.7,221.2,10,3,1.7,0,0.0,-1,0.0,,0.0,0,1.42,3.0157
180963,1620407276560,,,,,,,,-0.17,-0.99,-0.76,-68,-2,-2,1.01,,87,4145,12,23,74,0.992,27.2,333,4.89,12.2,20.9,1,25.6,2.74,5.6,0,0,1,1,0,302,966,-1,267,,,,,,,,,,,,,,,,
180983,1620407276580,,,,,,,,-0.14,-1.01,-0.86,-69,-1,-2,1.02,,87,4155,12,23,74,1.008,27.1,323,4.85,12.1,20.9,1,25.8,2.75,5.6,0,0,1,1,0,290,-1482,-1,268,,,,,,,,,,,,,,,,
181003,1620407276598,,,,,,,,-0.11,-1.03,-0.81,-69,-2,-2,1.04,,87,4259,12,23,74,1.025,26.7,336,4.87,12.0,20.9,1,27.3,2.85,5.6,0,0,1,1,0,251,-14848,-1,267,,,,,,,,,,,,,,,,
181023,1620407276618,,,,,,,,-0.14,-1.04,-0.63,-70,-3,-2,1.05,,87,4394,12,23,74,1.042,26.7,348,4.93,12.0,22.1,1,29.2,2.96,5.9,0,0,1,1,0,241,13964,-1,267,,,,,,,,,,,,,,,,
181043,1620407276638,2,2,36,25,32,42,-75,-0.22,-1.1,-0.41,-70,-5,-3,1.12,0,87,4333,12,23,74,1.059,26.5,353,4.9,12.0,22.1,1,27.5,2.91,5.9,0,0,1,1,0,237,-14848,-1,265,45.847054,5.178019,23.95,221.2,10,3,1.7,0,0.0,-1,0.0,0.0,0.0,0,1.42,3.0174
181063,1620407276658,,,,,,,,-0.22,-1.03,-0.39,-71,-3,-2,1.05,,87,4153,12,23,75,1.076,27.1,340,4.92,12.1,22.1,1,25.9,2.74,5.9,0,0,1,1,0,268,250,-1,269,,,,,,,,,,,,,,,,
181083,1620407276678,,,,,,,,-0.16,-1.03,-0.53,-71,-2,-3,1.05,,87,4082,12,23,75,1.094,26.9,323,4.88,12.1,22.1,1,25.0,2.67,5.9,0,0,1,1,0,288,-29696,-1,269,,,,,,,,,,,,,,,,
181103,1620407276700,,,,,,,,-0.19,-1.02,-0.54,-71,-1,-3,1.04,,87,4127,12,24,75,1.109,26.7,333,4.85,12.0,22.1,1,25.6,2.71,5.9,0,0,1,1,0,274,250,-1,267,,,,,,,,,,,,,,,,
181123,1620407276720,,,,,,,,-0.25,-0.97,-0.42,-71,-3,-3,1.0,,87,4156,12,24,75,1.125,26.4,339,4.87,12.0,19.5,1,26.2,2.74,5.2,0,0,1,1,0,268,250,-1,264,,,,,,,,,,,,,,,,
181143,1620407276740,3,1,37,25,32,41,-73,-0.29,-1.03,-0.4,-72,-3,-2,1.07,0,87,4254,12,24,75,1.141,26.6,338,4.93,12.1,19.5,1,27.4,2.83,5.2,0,0,1,1,0,260,14412,-41,266,45.847061,5.178025,25.72,221.3,10,3,1.7,0,0.0,-1,0.0,,0.0,0,1.42,3.019
181163,1620407276760,,,,,,,,-0.25,-1.02,-0.54,-72,-2,-2,1.05,,87,4254,13,24,75,1.157,26.5,333,4.86,12.2,19.5,1,27.4,2.83,5.2,0,0,1,1,0,265,-29696,-1,269,,,,,,,,,,,,,,,,
181183,1620407276780,,,,,,,,-0.21,-1.06,-0.66,-73,-0,-1,1.08,,87,4207,13,24,75,1.171,26.7,334,4.87,12.2,19.5,1,26.7,2.79,5.2,0,0,1,1,0,264,250,-1,267,,,,,,,,,,,,,,,,
181203,1620407276798,,,,,,,,-0.16,-0.97,-0.69,-73,0,-2,0.98,,87,4184,13,24,76,1.186,26.8,340,4.89,12.1,19.5,1,26.7,2.77,5.2,0,0,1,1,0,260,250,-1,268,,,,,,,,,,,,,,,,
181223,1620407276818,,,,,,,,-0.2,-0.97,-0.51,-73,-1,-3,0.99,,87,4149,14,24,76,1.201,26.5,344,4.87,12.0,19.4,1,26.4,2.72,5.2,0,0,1,1,0,251,-1482,-1,265,,,,,,,,,,,,,,,,
181243,1620407276838,3,3,38,26,31,41,-73,-0.26,-0.96,-0.51,-73,-1,-3,1.0,0,87,4126,14,24,77,1.214,26.9,323,4.89,12.1,19.4,1,26.1,2.78,5.2,0,0,1,1,0,255,-1480,-1,269,45.847061,5.17803,24.79,221.2,10,3,1.7,0,0.0,-1,0.0,0.0,0.0,0,1.42,3.0207
181263,1620407276858,,,,,,,,-0.2,-0.97,-0.64,-74,-1,-2,0.99,,87,4032,14,24,77,1.222,26.4,326,4.85,12.2,19.4,1,24.7,2.69,5.2,0,0,1,1,0,278,-29696,-10440,265,,,,,,,,,,,,,,,,
181283,1620407276878,,,,,,,,-0.24,-1.0,-0.58,-74,0,-2,1.03,,87,4064,16,24,78,1.23,26.3,326,4.86,12.0,19.4,1,25.4,2.82,5.2,0,0,1,1,0,269,250,-10440,263,,,,,,,,,,,,,,,,
181303,1620407276900,,,,,,,,-0.28,-0.92,-0.37,-74,-1,-2,0.96,,87,4047,16,24,79,1.239,26.2,327,4.88,12.1,19.4,1,25.4,2.9,5.2,0,0,1,1,0,232,-29696,14337,262,,,,,,,,,,,,,,,,
181323,1620407276920,,,,,,,,-0.24,-0.87,-0.51,-74,-1,-3,0.9,,87,4041,17,24,80,1.247,26.1,315,4.91,12.2,21.2,1,25.6,2.99,5.6,0,0,1,1,0,234,-1482,-1,261,,,,,,,,,,,,,,,,
181343,1620407276940,3,0,36,26,31,40,-71,-0.23,-0.84,-0.54,-74,0,-3,0.88,0,87,4027,17,24,81,1.251,26.4,321,4.88,12.1,21.2,1,25.6,3.09,5.6,0,0,1,1,0,236,13964,-41,264,45.847065,5.178037,23.28,221.3,10,3,1.7,0,0.0,-1,0.0,,0.0,0,1.42,3.0224
181363,1620407276960,,,,,,,,-0.27,-0.81,-0.41,-73,-0,-3,0.86,,87,3978,17,24,83,1.256,26.5,321,4.88,12.1,21.2,1,25.6,2.13,5.6,0,0,1,1,0,250,13964,-10440,265,,,,,,,,,,,,,,,,
181383,1620407276980,,,,,,,,-0.25,-0.86,-0.54,-73,-1,-3,0.9,,87,3939,17,24,84,1.26,26.3,315,4.88,12.2,21.2,1,25.5,3.38,5.6,0,0,1,1,0,266,13874,-1,260,,,,,,,,,,,,,,,,
181403,1620407276992,,,,,,,,-0.28,-0.84,-0.35,-73,1,-2,0.89,,87,3980,18,24,85,1.266,26.1,318,4.84,12.0,21.2,1,26.0,3.45,5.6,0,0,1,1,0,273,19456,-1,261,,,,,,,,,,,,,,,,
181423,1620407277012,,,,,,,,-0.32,-0.85,-0.27,-73,0,-2,0.91,,87,4033,18,24,86,1.274,25.8,327,4.87,12.1,24.7,1,26.9,3.53,6.4,0,0,1,1,0,267,-1481,-1,258,,,,,,,,,,,,,,,,
181443,1620407277032,2,2,37,25,33,41,-70,-0.31,-0.85,-0.42,-72,2,-2,0.9,0,87,4147,19,24,86,1.281,25.7,319,4.87,12.2,24.7,1,28.6,3.55,6.4,0,0,1,1,0,245,13874,-1,257,45.847069,5.178044,23.83,221.4,10,3,1.8,0,0.0,-1,0.0,0.0,0.0,0,1.42,3.024
181463,1620407277052,,,,,,,,-0.27,-0.83,-0.55,-72,3,-2,0.88,,87,4213,19,24,86,1.289,25.8,321,4.88,12.2,24.7,1,29.6,3.56,6.4,0,0,1,1,0,229,13964,-1281,258,,,,,,,,,,,,,,,,
181483,1620407277072,,,,,,,,-0.27,-0.81,-0.45,-72,2,-2,0.85,,87,4100,19,24,86,1.296,26.2,333,4.8,12.0,24.7,1,27.9,3.54,6.4,0,0,1,1,0,262,-1482,506,262,,,,,,,,,,,,,,,,
181503,1620407277100,,,,,,,,-0.28,-0.78,-0.43,-73,2,-2,0.83,,87,3998,20,24,87,1.304,26.0,325,4.91,12.1,24.7,1,26.6,3.61,6.4,0,0,1,1,0,275,13964,-1281,260,,,,,,,,,,,,,,,,
181523,1620407277120,,,,,,,,-0.27,-0.79,-0.56,-73,2,-2,0.83,,88,3957,20,24,88,1.311,25.9,314,4.87,12.1,25.8,1,26.6,3.69,6.7,0,0,1,1,0,263,-1482,-1,261,,,,,,,,,,,,,,,,
181543,1620407277140,2,2,36,25,31,41,-66,-0.28,-0.72,-0.53,-73,1,-2,0.78,0,88,3903,21,24,89,1.319,26.0,317,4.85,11.9,25.8,1,26.6,3.79,6.7,0,0,1,1,0,248,-29696,-1,260,45.847073,5.178052,23.75,221.3,10,3,1.8,0,0.0,-1,0.0,,0.0,0,1.42,3.0257
181563,1620407277160,,,,,,,,-0.25,-0.66,-0.64,-72,1,-1,0.7,,88,3990,23,24,90,1.326,25.9,321,4.89,12.2,25.8,1,27.3,3.85,6.7,0,0,1,1,0,238,13874,-1,259,,,,,,,,,,,,,,,,
181583,1620407277180,,,,,,,,-0.24,-0.64,-0.65,-72,2,-3,0.69,,88,3988,24,24,91,1.332,25.6,315,4.88,12.1,25.8,1,28.3,3.93,6.7,0,0,1,1,0,217,250,-1,256,,,,,,,,,,,,,,,,
181603,1620407277201,,,,,,,,-0.26,-0.63,-0.49,-71,0,-3,0.69,,88,3914,26,24,92,1.338,25.4,325,4.83,12.0,25.8,1,28.6,4.01,6.7,0,0,1,1,0,227,13874,-214,254,,,,,,,,,,,,,,,,
181623,1620407277221,,,,,,,,-0.24,-0.64,-0.62,-71,1,-2,0.68,,88,3877,28,24,94,1.344,25.6,300,4.91,12.2,28.9,1,30.7,4.1,7.4,0,0,1,1,0,269,250,10818,256,,,,,,,,,,,,,,,,
181643,1620407277241,2,1,36,26,31,40,-66,-0.24,-0.65,-0.48,-70,1,-3,0.69,0,88,3914,31,24,95,1.349,25.7,320,4.84,12.0,28.9,1,31.9,4.26,7.4,0,0,1,1,0,266,13964,16896,257,45.847073,5.17806,23.35,221.3,10,3,1.8,0,0.0,-1,0.0,0.0,0.0,0,1.42,3.0274
181663,1620407277261,,,,,,,,-0.26,-0.64,-0.52,-70,0,-2,0.69,,88,3980,32,24,95,1.362,25.3,308,4.91,12.2,28.9,1,32.5,4.26,7.4,0,0,1,1,0,235,250,16896,253,,,,,,,,,,,,,,,,
181683,1620407277281,,,,,,,,-0.21,-0.65,-0.65,-70,2,-2,0.68,,88,4076,33,24,96,1.373,25.3,317,4.9,12.2,28.9,1,34.4,4.32,7.4,0,0,1,1,0,247,250,250,253,,,,,,,,,,,,,,,,
181703,1620407277299,,,,,,,,-0.19,-0.68,-0.55,-69,2,-2,0.7,,88,4092,33,24,96,1.383,25.7,331,4.85,12.0,28.9,1,34.5,4.32,7.4,0,0,1,1,0,262,250,-214,257,,,,,,,,,,,,,,,,
181723,1620407277319,,,,,,,,-0.23,-0.69,-0.43,-69,0,-3,0.73,,88,4093,33,24,96,1.394,26.0,326,4.86,12.0,31.7,1,34.5,4.32,8.1,0,0,1,1,0,253,13964,-1,260,,,,,,,,,,,,,,,,
181743,1620407277339,2,0,36,26,31,40,-63,-0.21,-0.66,-0.46,-69,-0,-3,0.69,0,88,4098,33,24,96,1.406,25.9,317,4.88,12.2,31.7,1,34.6,4.32,8.1,0,0,1,1,0,247,13964,-1,259,45.847073,5.178069,23.62,221.2,10,3,1.7,0,0.0,-1,0.0,,0.0,0,1.43,3.0291
181763,1620407277359,,,,,,,,-0.18,-0.66,-0.59,-68,1,-3,0.68,,88,4029,33,24,96,1.418,25.5,322,4.87,12.1,31.7,1,34.0,4.33,8.1,0,0,1,1,0,255,-29696,-1,255,,,,,,,,,,,,,,,,
181783,1620407277379,,,,,,,,-0.21,-0.64,-0.38,-68,-0,-3,0.68,,88,4048,33,24,96,1.43,25.7,321,4.84,12.0,31.7,1,34.1,4.33,8.1,0,0,1,1,0,241,-1533,-1281,257,,,,,,,,,,,,,,,,
181803,1620407277401,,,,,,,,-0.2,-0.62,-0.38,-67,-1,-2,0.65,,88,4065,34,24,96,1.443,25.5,317,4.88,12.1,31.7,1,34.3,4.32,8.1,0,0,1,1,0,276,-1482,-1,255,,,,,,,,,,,,,,,,
181823,1620407277421,,,,,,,,-0.14,-0.66,-0.52,-67,1,-2,0.67,,88,4175,34,24,96,1.455,25.6,323,4.88,12.2,32.0,1,35.3,4.29,8.2,0,0,1,1,0,293,13964,506,256,,,,,,,,,,,,,,,,
181843,1620407277441,1,2,36,27,30,39,-62,-0.09,-0.62,-0.64,-67,1,-2,0.63,0,88,4273,34,24,96,1.467,26.0,328,4.88,12.1,32.0,1,36.2,4.26,8.2,0,0,1,1,0,260,-14848,14337,260,45.847073,5.178077,23.2,221.2,10,3,1.8,0,0.0,-1,0.0,0.0,0.0,0,1.43,3.0307
181863,1620407277461,,,,,,,,-0.08,-0.66,-0.47,-67,1,-3,0.66,,88,4234,34,24,96,1.48,26.1,336,4.86,12.1,32.0,1,35.8,4.27,8.2,0,0,1,1,0,237,-1533,-1,260,,,,,,,,,,,,,,,,
181883,1620407277481,,,,,,,,-0.1,-0.66,-0.38,-67,-2,-3,0.66,,88,4107,34,24,96,1.492,26.5,331,4.88,12.0,32.0,1,34.7,3.14,8.2,0,0,1,1,0,289,-1533,-1,265,,,,,,,,,,,,,,,,
181903,1620407277501,,,,,,,,-0.07,-0.69,-0.52,-67,-2,-3,0.7,,88,3984,34,24,96,1.495,26.4,315,4.88,12.2,32.0,1,33.6,4.34,8.2,0,0,1,1,0,295,250,-1,264,,,,,,,,,,,,,,,,
181923,1620407277521,,,,,,,,-0.04,-0.66,-0.53,-66,-2,-3,0.67,,88,4050,34,24,96,1.491,26.4,311,4.88,12.1,30.3,1,34.1,4.33,8.0,0,0,1,1,0,249,-1533,-10440,264,,,,,,,,,,,,,,,,
181943,1620407277541,1,2,37,28,30,39,-60,-0.07,-0.66,-0.37,-66,-2,-3,0.67,0,88,4097,34,24,96,1.486,26.5,331,4.85,12.0,30.3,1,34.5,4.32,8.0,0,0,1,1,0,229,1088,-1,265,45.847073,5.178085,23.97,221.2,10,3,1.8,0,0.0,-1,0.0,,0.0,0,1.43,3.0324
181963,1620407277561,,,,,,,,-0.05,-0.68,-0.38,-66,-3,-3,0.68,,88,4186,34,24,96,1.482,26.6,326,4.88,12.1,30.3,1,35.4,4.29,8.0,0,0,1,1,0,255,966,-1,266,,,,,,,,,,,,,,,,
181983,1620407277581,,,,,,,,-0.0,-0.72,-0.51,-66,-1,-3,0.72,,88,4213,34,24,96,1.474,26.6,326,4.87,12.2,30.3,1,35.6,4.28,8.0,0,0,1,1,0,268,250,-1,266,,,,,,,,,,,,,,,,
182003,1620407277601,,,,,,,,0.07,-0.74,-0.64,-65,1,-2,0.75,,88,4318,34,24,96,1.465,26.9,331,4.9,12.2,30.3,1,36.6,4.25,8.0,0,0,1,1,0,270,-1532,-1,269,,,,,,,,,,,,,,,,
182023,1620407277621,,,,,,,,0.09,-0.75,-0.75,-65,2,-2,0.75,,88,4275,34,24,96,1.455,26.8,337,4.85,12.1,31.6,1,36.2,4.26,8.4,0,0,1,1,0,277,1210,-1,268,,,,,,,,,,,,,,,,
182043,1620407277641,0,2,37,28,29,38,-58,0.08,-0.74,-0.52,-65,1,-2,0.74,0,88,4269,34,24,96,1.446,26.7,336,4.83,12.1,31.6,1,36.1,4.26,8.4,0,0,1,1,0,296,1596,-1,267,45.847073,5.178093,24.19,221.2,10,3,1.8,0,0.0,-1,0.0,0.0,0.0,0,1.43,3.034
182063,1620407277661,,,,,,,,0.02,-0.76,-0.31,-64,-1,-2,0.76,,88,4346,34,24,96,1.44,26.8,341,4.85,11.9,31.6,1,36.9,4.24,8.4,0,0,1,1,0,263,-1532,-1,269,,,,,,,,,,,,,,,,
182083,1620407277681,,,,,,,,-0.02,-0.76,-0.16,-64,-3,-2,0.76,,88,4304,34,24,96,1.436,26.9,346,4.87,12.0,31.6,1,36.5,3.07,8.4,0,0,1,1,0,249,15360,-1,269,,,,,,,,,,,,,,,,
182103,1620407277701,,,,,,,,-0.01,-0.76,-0.32,-64,-3,-2,0.76,,88,4211,34,24,96,1.433,26.9,329,4.86,12.2,31.6,1,35.6,4.28,8.4,0,0,1,1,0,291,1596,-1281,269,,,,,,,,,,,,,,,,
182123,1620407277721,,,,,,,,0.05,-0.71,-0.46,-64,-1,-3,0.72,,88,4140,34,24,96,1.429,27.4,327,4.91,12.2,30.1,1,34.9,4.3,8.2,0,0,1,1,0,269,19968,-1281,274,,,,,,,,,,,,,,,,
182143,1620407277741,1,3,37,29,29,38,-57,0.06,-0.68,-0.39,-63,-0,-2,0.69,0,88,4116,34,24,96,1.422,27.3,336,4.84,12.0,30.1,1,34.8,4.31,8.2,0,0,1,1,0,234,19968,250,273,45.847069,5.178102,23.96,221.2,10,3,1.8,0,0.0,-1,0.0,,0.0,0,1.43,3.0357
182163,1620407277761,,,,,,,,0.01,-0.72,-0.21,-63,-1,-2,0.72,,88,4129,34,24,96,1.413,27.4,336,4.87,11.9,30.1,1,34.9,4.31,8.2,0,0,1,1,0,259,18432,-1,274,,,,,,,,,,,,,,,,
182183,1620407277781,,,,,,,,-0.02,-0.72,-0.24,-62,-1,-2,0.73,,88,4237,34,24,96,1.403,27.3,328,4.88,12.1,30.1,1,35.8,4.27,8.2,0,0,1,1,0,274,250,-1,273,,,,,,,,,,,,,,,,
182203,1620407277799,,,,,,,,-0.01,-0.65,-0.39,-62,0,-2,0.65,,88,4427,34,24,96,1.395,27.3,336,4.85,12.1,30.1,1,37.5,4.21,8.2,0,0,1,1,0,278,18432,-1281,273,,,,,,,,,,,,,,,,
182223,1620407277819,,,,,,,,-0.04,-0.66,-0.32,-62,0,-2,0.66,,88,4530,34,24,96,1.388,27.5,347,4.87,12.0,31.6,1,38.5,3.0,8.7,0,0,1,1,0,285,250,-1527,276,,,,,,,,,,,,,,,,
182243,1620407277839,2,3,37,29,29,38,-53,-0.07,-0.66,-0.13,-62,0,-2,0.66,0,88,4580,34,24,96,1.387,27.9,355,4.84,12.1,31.6,1,39.0,4.15,8.7,0,0,1,1,0,285,-1494,250,279,45.847069,5.17811,24.79,221.2,10,3,1.8,0,0.0,-1,0.0,0.0,0.0,0,1.43,3.0374
182263,1620407277859,,,,,,,,-0.08,-0.69,0.05,-62,-1,-2,0.69,,88,4680,34,24,96,1.387,28.0,369,4.82,12.0,31.6,1,39.9,2.94,8.7,0,0,1,1,0,294,10824,-1534,280,,,,,,,,,,,,,,,,
182283,1620407277879,,,,,,,,-0.09,-0.68,0.21,-62,-4,-3,0.68,,88,4707,34,24,96,1.386,28.0,371,4.83,12.0,31.6,1,40.1,4.11,8.7,0,0,1,1,0,310,250,250,280,,,,,,,,,,,,,,,,
182303,1620407277901,,,,,,,,-0.05,-0.71,0.27,-62,-6,-3,0.72,,88,4721,34,24,96,1.384,28.3,370,4.87,12.0,31.6,1,40.3,4.11,8.7,0,0,1,1,0,284,250,80,283,,,,,,,,,,,,,,,,
182323,1620407277921,,,,,,,,0.04,-0.65,0.08,-62,-7,-3,0.65,,88,4706,34,24,96,1.37,28.8,375,4.95,12.1,31.6,1,40.1,4.11,9.0,0,0,1,1,0,272,-1483,80,288,,,,,,,,,,,,,,,,
182343,1620407277941,1,2,39,32,27,36,-52,0.09,-0.67,-0.09,-61,-5,-2,0.68,0,88,4644,34,24,96,1.356,28.6,360,4.93,12.1,31.6,1,39.6,4.13,9.0,0,0,1,1,0,293,-25600,23040,291,45.847065,5.178118,25.35,221.2,10,3,1.8,0,0.0,-1,0.0,,0.0,0,1.43,3.0391
182363,1620407277961,,,,,,,,0.15,-0.69,-0.25,-61,-3,-2,0.7,,88,4643,34,24,96,1.342,29.1,361,4.89,12.1,31.6,1,39.6,4.13,9.0,0,0,1,1,0,312,23482,85,291,,,,,,,,,,,,,,,,
182383,1620407277981,,,,,,,,0.14,-0.67,-0.39,-61,1,-2,0.68,,88,4678,34,24,96,1.325,29.4,370,4.86,12.1,31.6,1,39.9,4.11,9.0,0,0,1,1,0,302,10812,24320,294,,,,,,,,,,,,,,,,
182403,1620407277991,,,,,,,,0.1,-0.7,-0.26,-61,1,-2,0.71,,88,4737,34,24,96,1.306,30.0,372,4.84,12.0,31.6,1,40.4,4.1,9.0,0,0,1,1,0,308,250,100,300,,,,,,,,,,,,,,,,
182423,1620407278011,,,,,,,,0.08,-0.76,-0.07,-61,-1,-2,0.76,,88,4768,34,24,96,1.288,30.2,384,4.83,11.9,29.8,1,40.7,4.09,9.0,0,0,1,1,0,305,10812,29440,302,,,,,,,,,,,,,,,,
182443,1620407278031,1,1,40,31,28,37,-47,0.14,-0.75,-0.23,-61,-2,-2,0.76,0,88,4877,34,24,96,1.27,30.2,375,4.91,12.1,29.8,1,41.7,4.05,9.0,0,0,1,1,0,297,-1494,29440,302,45.847061,5.178126,27.03,221.2,10,3,1.8,0,0.0,-1,0.0,0.0,0.0,0,1.43,3.0407
182463,1620407278051,,,,,,,,0.19,-0.77,-0.38,-61,-2,-2,0.79,,88,4949,35,24,96,1.252,30.3,378,4.9,12.1,29.8,1,42.3,4.03,9.0,0,0,1,1,0,282,-1,115,303,,,,,,,,,,,,,,,,
182483,1620407278071,,,,,,,,0.14,-0.71,-0.18,-61,-1,-2,0.72,,88,4908,35,24,96,1.221,30.8,385,4.87,12.1,29.8,1,41.9,4.04,9.0,0,0,1,1,0,316,14337,32000,308,,,,,,,,,,,,,,,,
182503,1620407278099,,,,,,,,0.15,-0.74,0.0,-60,-2,-3,0.76,,88,4931,35,24,96,1.188,30.7,391,4.81,11.9,29.8,1,42.2,4.04,9.0,0,0,1,1,0,336,-1,125,307,,,,,,,,,,,,,,,,
182523,1620407278119,,,,,,,,0.19,-0.72,-0.16,-60,0,-2,0.74,,88,5034,35,24,96,1.157,30.7,393,4.92,12.1,30.2,1,42.7,4.05,9.3,0,0,1,1,0,302,-1,-29696,307,,,,,,,,,,,,,,,,
182543,1620407278139,1,3,41,33,28,37,-42,0.13,-0.71,0.02,-59,-1,-2,0.72,0,88,5066,35,24,96,1.125,30.9,409,4.82,12.0,30.2,1,42.6,4.1,9.3,0,0,1,1,0,320,-1,135,309,45.847057,5.178133,27.74,221.2,10,3,1.8,0,0.0,-1,0.0,,0.0,0,1.43,3.0424
182563,1620407278159,,,,,,,,0.2,-0.72,0.03,-59,-3,-3,0.75,,88,5127,35,24,95,1.095,31.4,405,4.87,12.1,30.2,1,42.5,4.19,9.3,0,0,1,1,0,366,250,155,314,,,,,,,,,,,,,,,,
182583,1620407278179,,,,,,,,0.18,-0.68,0.07,-58,-1,-3,0.7,,88,5305,35,24,95,1.066,31.9,402,4.93,12.1,30.2,1,41.9,4.38,9.3,0,0,1,1,0,326,250,-25856,319,,,,,,,,,,,,,,,,
182603,1620407278196,,,,,,,,0.24,-0.67,-0.1,-57,-1,-2,0.71,,88,5500,35,24,95,1.037,32.0,436,4.82,12.1,30.2,1,41.3,4.65,9.3,0,0,1,1,0,296,30208,-22016,320,,,,,,,,,,,,,,,,
182623,1620407278216,,,,,,,,0.23,-0.7,0.08,-57,-2,-3,0.74,,88,5463,35,24,95,1.009,31.9,434,4.81,12.0,36.2,1,41.4,4.6,11.6,0,0,1,1,0,357,30208,-12032,319,,,,,,,,,,,,,,,,
182643,1620407278236,1,3,40,34,26,36,-28,0.23,-0.62,-0.1,-56,-0,-2,0.66,0,88,5397,35,24,95,0.988,32.3,419,4.92,12.2,36.2,1,41.6,4.5,11.6,0,0,1,1,0,387,-1529,6668,318,45.847054,5.178141,27.94,221.2,10,3,1.7,0,0.0,-1,0.0,0.0,0.0,0,1.43,3.044
182663,1620407278256,,,,,,,,0.28,-0.68,-0.26,-56,-1,-2,0.74,,88,5472,35,24,94,0.97,32.6,435,4.82,12.0,36.2,1,41.4,4.55,11.6,0,0,1,1,0,391,41,13,326,,,,,,,,,,,,,,,,
182683,1620407278276,,,,,,,,0.3,-0.72,-0.07,-55,-5,-3,0.78,,88,5686,35,24,94,0.953,32.8,446,4.79,12.0,36.2,1,40.7,4.77,11.6,0,0,1,1,0,361,20480,2560,328,,,,,,,,,,,,,,,,
182703,1620407278300,,,,,,,,0.31,-0.68,0.11,-54,-6,-4,0.74,,88,5788,35,24,94,0.935,32.8,450,4.82,12.0,36.2,1,40.4,4.99,11.6,0,0,1,1,0,332,23040,8841,331,,,,,,,,,,,,,,,,
182723,1620407278320,,,,,,,,0.27,-0.62,0.2,-53,-3,-4,0.68,,88,5704,35,24,93,0.924,33.3,448,4.93,12.1,38.7,1,40.7,4.81,12.9,0,0,1,1,0,336,25600,-1246,333,,,,,,,,,,,,,,,,
182743,1620407278340,1,1,41,35,26,34,-22,0.3,-0.63,0.02,-52,-1,-3,0.7,0,88,5511,35,24,94,0.916,33.8,443,4.94,12.1,38.7,1,41.3,4.61,12.9,0,0,1,1,0,365,26880,-29302,338,45.847046,5.178147,30.41,221.2,10,3,1.7,0,0.0,-1,0.0,,0.0,0,1.43,3.0457
182763,1620407278360,,,,,,,,0.32,-0.7,0.18,-51,-6,-4,0.77,,88,5450,34,24,94,0.908,33.8,444,4.81,12.0,38.7,1,41.4,4.52,12.9,0,0,1,1,0,394,28160,-6644,338,,,,,,,,,,,,,,,,
182783,1620407278380,,,,,,,,0.29,-0.67,0.32,-49,-2,-3,0.73,,88,5539,34,24,94,0.901,34.5,428,4.93,12.1,38.7,1,41.2,4.64,12.9,0,0,1,1,0,337,30720,-6458,345,,,,,,,,,,,,,,,,
182803,1620407278399,,,,,,,,0.32,-0.62,0.12,-48,2,-3,0.7,,88,5659,34,24,94,0.9,34.5,443,4.87,12.1,38.7,1,40.8,4.81,12.9,0,0,1,1,0,325,-29696,-29302,345,,,,,,,,,,,,,,,,
182823,1620407278419,,,,,,,,0.36,-0.73,-0.05,-47,-0,-3,0.82,,88,5716,34,24,93,0.902,34.4,464,4.79,12.0,36.9,1,40.6,4.82,12.7,0,0,1,1,0,355,135,-6458,344,,,,,,,,,,,,,,,,
182843,1620407278439,1,2,42,35,27,33,-20,0.42,-0.72,0.12,-46,-4,-5,0.83,0,88,5771,34,24,93,0.905,34.7,471,4.79,12.0,36.9,1,40.5,4.9,12.7,0,0,1,1,0,363,150,-29302,347,45.847042,5.178153,32.43,221.2,10,3,1.7,0,0.0,-1,0.0,0.0,0.0,0,1.43,3.0474
182863,1620407278459,,,,,,,,0.42,-0.68,0.27,-45,-8,-7,0.8,,88,5821,34,24,93,0.909,35.1,465,4.85,12.0,36.9,1,40.2,5.0,12.7,0,0,1,1,0,371,-20736,-1268,351,,,,,,,,,,,,,,,,
182883,1620407278479,,,,,,,,0.39,-0.62,0.42,-43,-9,-7,0.73,,88,5879,34,24,93,0.915,35.5,471,4.81,12.0,36.9,1,40.1,5.05,12.7,0,0,1,1,0,369,3346,0,355,,,,,,,,,,,,,,,,
182903,1620407278500,,,,,,,,0.36,-0.53,0.55,-42,-8,-6,0.63,,88,5886,34,24,93,0.925,35.6,461,4.9,12.1,36.9,1,40.1,5.06,12.7,0,0,1,1,0,370,-32559,486,356,,,,,,,,,,,,,,,,
182923,1620407278520,,,,,,,,0.29,-0.46,0.67,-40,-7,-5,0.55,,88,5922,34,24,93,0.933,35.8,462,4.91,12.0,38.3,1,40.0,5.11,13.9,0,0,1,1,0,382,3327,770,358,,,,,,,,,,,,,,,,
182943,1620407278540,1,1,41,36,26,33,-12,0.28,-0.42,0.78,-39,-6,-4,0.51,0,88,5986,34,24,93,0.942,36.2,465,4.91,12.1,38.3,1,39.8,5.21,13.9,0,0,1,1,0,375,-10554,8200,362,45.847031,5.178158,33.89,221.2,10,3,1.8,0,0.0,-1,0.0,,0.0,0,1.43,3.0491
182963,1620407278560,,,,,,,,0.22,-0.33,0.88,-37,-2,-3,0.39,,88,6040,34,24,93,0.949,36.5,470,4.86,12.0,38.3,1,40.1,4.02,13.9,0,0,1,1,0,377,6870,-32702,365,,,,,,,,,,,,,,,,
182983,1620407278580,,,,,,,,0.18,-0.22,0.98,-36,-4,-5,0.28,,88,6159,34,24,93,0.956,36.9,484,4.85,12.0,38.3,1,41.3,5.1,13.9,0,0,1,1,0,394,-30454,-9211,369,,,,,,,,,,,,,,,,
183003,1620407278600,,,,,,,,0.17,-0.17,1.06,-35,-9,-7,0.24,,88,6408,34,24,92,0.964,37.3,508,4.82,12.0,38.3,1,43.9,4.85,13.9,0,0,1,1,0,413,4104,-3866,373,,,,,,,,,,,,,,,,
183023,1620407278620,,,,,,,,0.22,-0.25,0.81,-34,-5,-7,0.33,,88,6569,34,24,92,0.97,37.5,519,4.86,12.1,38.8,1,45.5,4.73,14.4,0,0,1,1,0,380,-14707,10541,375,,,,,,,,,,,,,,,,
183043,1620407278640,0,2,39,38,28,32,-6,0.16,-0.11,0.57,-33,-4,-6,0.19,0,88,6461,34,24,92,0.973,37.5,525,4.89,12.1,38.8,1,44.4,4.81,14.4,0,0,1,1,0,403,0,13040,375,45.847023,5.178164,36.13,221.3,10,3,1.8,0,0.0,-1,0.0,0.0,0.0,0,1.44,3.0507
183063,1620407278660,,,,,,,,0.22,-0.03,0.69,-31,-10,-7,0.22,,88,6371,34,24,92,0.971,38.0,513,4.87,12.0,38.8,1,43.5,4.88,14.4,0,0,1,1,0,440,230,-32702,380,,,,,,,,,,,,,,,,
183083,1620407278680,,,,,,,,0.3,-0.19,0.47,-30,-12,-7,0.36,,88,6530,35,24,92,0.968,38.0,521,4.82,12.0,38.8,1,45.1,4.76,14.4,0,0,1,1,0,409,0,1504,380,,,,,,,,,,,,,,,,
183103,1620407278700,,,,,,,,0.36,-0.12,0.26,-29,-5,-5,0.38,,88,6627,35,24,92,0.965,39.0,520,4.87,12.1,38.8,1,46.1,4.68,14.4,0,0,1,1,0,387,-6656,-26615,390,,,,,,,,,,,,,,,,
183123,1620407278720,,,,,,,,0.32,-0.05,0.41,-28,-8,-7,0.32,,88,6510,35,24,93,0.957,38.7,527,4.82,12.0,37.6,1,44.9,4.78,14.5,0,0,1,1,0,439,8200,-8165,387,,,,,,,,,,,,,,,,
183143,1620407278740,1,0,36,39,25,33,1,0.32,-0.17,0.21,-27,-6,-5,0.36,0,88,6572,35,24,92,0.935,39.1,518,4.89,12.1,37.6,1,45.5,4.73,14.5,0,0,1,1,0,431,2278,23400,391,45.847015,5.178169,37.68,221.3,10,3,1.8,0,0.0,-1,0.0,,0.0,0,1.44,3.0524
183163,1620407278760,,,,,,,,0.29,-0.1,0.36,-26,-12,-6,0.31,,88,6788,35,24,92,0.914,39.8,541,4.9,12.0,37.6,1,47.8,4.56,14.5,0,0,1,1,0,423,-31744,7154,400,,,,,,,,,,,,,,,,
183183,1620407278780,,,,,,,,0.43,-0.1,0.16,-25,-10,-5,0.44,,88,6959,35,24,92,0.892,40.0,545,4.89,12.0,37.6,1,49.5,4.44,14.5,0,0,1,1,0,401,-31744,-3314,400,,,,,,,,,,,,,,,,
183203,1620407278800,,,,,,,,0.5,-0.1,0.31,-24,-8,-7,0.51,,88,6949,35,24,92,0.871,40.2,561,4.81,12.0,37.6,1,49.4,4.49,14.5,0,0,1,1,0,448,505,-3414,402,,,,,,,,,,,,,,,,
183223,1620407278820,,,,,,,,0.48,-0.05,0.12,-23,-9,-5,0.48,,88,6934,35,24,93,0.848,41.1,556,4.87,12.0,35.0,1,49.3,4.5,14.4,0,0,1,1,0,457,6384,15649,405,,,,,,,,,,,,,,,,
183243,1620407278840,1,1,37,35,26,30,5,0.52,-0.12,-0.06,-22,-9,-5,0.54,0,88,7014,35,24,92,0.825,41.0,564,4.81,12.1,35.0,1,49.9,4.46,14.4,0,0,1,1,0,415,-8151,5600,410,45.847004,5.178174,39.67,221.3,10,3,1.8,0,0.0,-1,0.0,0.0,0.0,0,1.44,3.054
183263,1620407278860,,,,,,,,0.49,-0.08,0.12,-20,-8,-6,0.49,,88,7025,35,24,92,0.802,40.7,564,4.83,12.0,35.0,1,49.7,4.47,14.4,0,0,1,1,0,434,2524,21580,407,,,,,,,,,,,,,,,,
183283,1620407278880,,,,,,,,0.56,-0.09,-0.06,-19,-5,-4,0.57,,88,6985,35,24,92,0.78,41.8,551,4.87,11.9,35.0,1,49.8,4.42,14.4,0,0,1,1,0,461,2524,-28332,418,,,,,,,,,,,,,,,,
183303,1620407278900,,,,,,,,0.56,-0.14,-0.22,-18,-3,-4,0.57,,88,6972,35,24,92,0.765,42.2,557,4.81,12.1,35.0,1,49.7,4.48,14.4,0,0,1,1,0,428,-26615,10305,422,,,,,,,,,,,,,,,,
183323,1620407278920,,,,,,,,0.54,-0.15,-0.04,-16,-7,-6,0.56,,88,6975,35,24,93,0.75,41.9,555,4.86,12.0,34.3,1,49.7,4.48,14.4,0,0,1,1,0,445,-8165,-9160,420,,,,,,,,,,,,,,,,
183343,1620407278940,0,1,37,39,24,30,10,0.56,-0.1,-0.2,-15,-5,-3,0.57,0,88,7046,35,24,92,0.736,42.6,558,4.89,12.0,34.3,1,49.4,4.44,14.4,0,0,1,1,0,450,3826,-7939,426,45.846996,5.178178,41.25,221.3,10,3,1.8,0,0.0,-1,0.0,,0.0,0,1.44,3.0557
183363,1620407278960,,,,,,,,0.53,-0.12,-0.35,-14,-6,-3,0.55,,88,7131,36,24,92,0.722,43.0,563,4.88,12.0,34.3,1,48.2,4.53,14.4,0,0,1,1,0,456,-3314,2131,430,,,,,,,,,,,,,,,,
183383,1620407278980,,,,,,,,0.53,-0.09,-0.16,-12,-5,-3,0.54,,88,7208,36,24,92,0.723,43.5,573,4.83,12.0,34.3,1,47.1,4.61,14.4,0,0,1,1,0,445,-7939,3571,435,,,,,,,,,,,,,,,,
183403,1620407279000,,,,,,,,0.5,-0.13,0.02,-11,-7,-4,0.52,,88,7233,36,24,92,0.729,43.5,581,4.86,11.9,34.3,1,46.8,4.64,14.4,0,0,1,1,0,448,-7939,-9160,433,,,,,,,,,,,,,,,,
183423,1620407279010,,,,,,,,0.49,-0.02,0.12,-10,-10,-4,0.49,,88,7242,38,24,92,0.734,44.1,583,4.88,12.0,35.3,1,46.7,4.65,15.6,0,0,1,1,0,458,26704,2211,441,,,,,,,,,,,,,,,,
183443,1620407279030,1,2,35,34,28,27,10,0.54,0.01,-0.05,-9,-7,-3,0.54,0,88,7315,39,24,93,0.74,44.4,578,4.86,12.0,35.3,1,45.6,4.76,15.6,0,0,1,1,0,461,21432,16648,444,45.846985,5.178183,43.02,221.3,10,3,1.7,0,0.0,-1,0.0,0.0,0.0,0,1.44,3.0574
183463,1620407279050,,,,,,,,0.54,-0.0,-0.01,-8,-8,-3,0.54,,88,7476,39,24,93,0.749,45.5,590,4.9,12.0,35.3,1,43.3,4.93,15.6,0,0,1,1,0,464,-26615,11560,444,,,,,,,,,,,,,,,,
183483,1620407279070,,,,,,,,0.55,0.04,0.04,-6,-11,-3,0.55,,88,7678,39,24,93,0.759,44.7,601,4.81,12.0,35.3,1,40.4,5.11,15.6,0,0,1,1,0,472,-26615,2524,447,,,,,,,,,,,,,,,,
183503,1620407279098,,,,,,,,0.6,0.09,0.21,-5,-12,-3,0.6,,88,7684,39,24,93,0.769,45.1,613,4.88,12.0,35.3,1,40.3,5.13,15.6,0,0,1,1,0,467,3571,2211,447,,,,,,,,,,,,,,,,
183523,1620407279118,,,,,,,,0.6,0.11,0.36,-4,-12,-3,0.61,,88,7539,39,24,92,0.78,45.8,611,4.92,11.9,40.0,1,42.4,4.96,17.8,0,0,1,1,0,472,17628,3576,451,,,,,,,,,,,,,,,,
183543,1620407279138,1,2,38,39,23,24,12,0.6,0.09,0.49,-3,-10,-3,0.61,0,88,7376,38,24,92,0.785,45.8,604,4.87,11.9,40.0,1,44.7,4.83,17.8,0,0,1,1,0,495,-6387,-23367,455,45.846977,5.178188,45.07,221.3,10,3,1.7,0,0.0,-1,0.0,,0.0,0,1.44,3.0591
183563,1620407279158,,,,,,,,0.61,0.09,0.45,-3,-10,-2,0.62,,88,7364,38,24,93,0.79,46.1,593,4.89,11.9,40.0,1,44.9,4.8,17.8,0,0,1,1,0,537,-3210,3580,450,,,,,,,,,,,,,,,,
183583,1620407279178,,,,,,,,0.61,0.03,0.36,-2,-9,-1,0.61,,88,7575,38,24,93,0.794,46.9,595,4.9,12.0,40.0,1,40.9,5.09,17.8,0,0,1,1,0,468,-9203,-9216,461,,,,,,,,,,,,,,,,
183603,1620407279200,,,,,,,,0.56,-0.02,0.31,-1,-7,-1,0.56,,88,7968,38,24,92,0.798,46.3,621,4.92,11.9,40.0,1,36.3,5.42,17.8,0,0,1,1,0,486,12552,-3482,463,,,,,,,,,,,,,,,,
183623,1620407279220,,,,,,,,0.53,-0.03,0.29,-1,-6,-1,0.53,,88,8355,40,24,90,0.797,47.0,635,4.74,12.0,48.8,1,41.3,6.03,22.6,0,0,1,1,0,535,8488,-9212,465,,,,,,,,,,,,,,,,
183643,1620407279240,1,1,37,37,33,32,8,0.56,-0.01,0.13,0,-6,0,0.56,0,88,8848,44,24,89,0.793,47.7,658,4.82,12.0,48.8,1,40.2,6.2,22.6,0,0,1,1,0,541,2212,15679,471,45.846962,5.178192,46.98,221.3,10,3,1.7,0,0.0,-1,0.0,0.0,0.0,0,1.44,3.0607
183663,1620407279260,,,,,,,,0.57,0.06,0.09,1,-6,1,0.58,,88,9132,47,24,88,0.789,47.1,656,4.75,12.0,48.8,1,38.8,7.06,22.6,0,0,1,1,0,539,10432,-2934,471,,,,,,,,,,,,,,,,
183683,1620407279280,,,,,,,,0.53,0.17,0.25,2,-7,-2,0.56,,88,9241,48,24,88,0.784,48.7,656,4.87,12.0,48.8,1,38.8,7.25,22.6,0,0,1,1,0,563,505,-10251,469,,,,,,,,,,,,,,,,
183703,1620407279299,,,,,,,,0.46,0.23,0.35,3,-8,-2,0.51,,88,9488,48,24,89,0.782,49.3,663,4.85,11.9,48.8,1,38.8,7.21,22.6,0,0,1,1,0,643,-6528,243,475,,,,,,,,,,,,,,,,
183723,1620407279319,,,,,,,,0.49,0.27,0.21,4,-7,-2,0.57,,88,9796,48,24,89,0.779,49.0,672,4.81,11.9,69.0,1,39.3,7.1,32.8,0,0,1,1,0,653,-1818,-8186,483,,,,,,,,,,,,,,,,
183743,1620407279339,0,1,36,40,29,28,3,0.48,0.2,0.11,5,-6,-1,0.52,0,88,9952,48,24,87,0.777,49.9,667,4.83,11.9,69.0,1,39.5,7.0,32.8,0,0,1,1,0,512,-22519,24,482,45.846954,5.178198,48.84,221.3,10,3,1.7,0,0.0,-1,0.0,,0.0,0,1.44,3.0624
183763,1620407279359,,,,,,,,0.46,0.28,0.08,5,-7,-2,0.54,,88,9821,47,24,87,0.775,49.6,663,4.84,11.9,69.0,1,39.3,6.62,32.8,0,0,1,1,0,561,771,1549,496,,,,,,,,,,,,,,,,
183783,1620407279379,,,,,,,,0.48,0.26,0.09,6,-9,-2,0.55,,88,9709,47,24,86,0.775,50.6,663,4.85,11.9,69.0,1,39.1,6.23,32.8,0,0,1,1,0,728,-28648,-3820,494,,,,,,,,,,,,,,,,
183803,1620407279399,,,,,,,,0.45,0.26,0.08,6,-11,-1,0.52,,88,9852,48,24,87,0.779,50.3,671,4.79,11.9,69.0,1,39.3,6.29,32.8,0,0,1,1,0,711,-28648,30208,499,,,,,,,,,,,,,,,,
183823,1620407279419,,,,,,,,0.47,0.32,-0.09,7,-8,0,0.57,,88,10157,48,24,87,0.783,51.3,672,4.8,11.9,57.8,1,40.1,6.03,29.1,0,0,1,1,0,600,26178,-14655,507,,,,,,,,,,,,,,,,
