"Interval"|"ms"|0|0|1,"Utc"|"ms"|0|0|1,"Brake_F"|"Bar"|0|2000|10,"Brake_R"|"Bar"|0|2000|10,"Height_RF"|"mm"|0|255|10,"Height_LF"|"mm"|0|255|10,"Height_LR"|"mm"|0|80|10,"Height_RR"|"mm"|0|255|10,"Steering"|"deg"|-100|100|10,"AccelX"|"G"|-3.0|3.0|50,"AccelY"|"G"|-3.0|3.0|50,"AccelZ"|"G"|-3.0|3.0|50,"Yaw"|"Deg/Sec"|-120|120|50,"Pitch"|"Deg/Sec"|-120|120|50,"Roll"|"Deg/Sec"|-120|120|50,"Gsum"|"G"|0.0|3.0|50,"Log_Button"|""|0.0|10.0|10,"WaterTemp"|"C"|0|150|50,"RPM"|"tr/min"|0|14000|50,"TPS"|"%"|0|100|50,"AirTemp"|"C"|0|150|50,"MAP"|"KPa"|0|100|50,"Lambda"|""|0.5|1.5|50,"SpeedDTA"|"kph"|0.0|250.0|50,"OilPress"|"KPa"|0|1500|50,"FuelPressur"|"Bar"|0.0|10.0|50,"Batterie"|"V"|0.0|20.0|50,"ConsoKm"|"L/100km"|0.0|200.0|50,"Gear"|""|0|6|50,"AdvIgnition"|"Deg"|-20.0|70.0|50,"Injection"|"ms"|0.0|10.0|50,"ConsoHr"|"L/Hr"|0.0|10000.0|50,"LC_But_Pres"|""|0|1|50,"LC_Active"|""|0|1|50,"TractionOn"|""|0|1|50,"TractionWet"|""|0|1|50,"FanOn"|""|0|1|50,"RD_Speed"|"km/h"|-30|250|50,"RUD_Speed"|"km/h"|-30|250|50,"LD_Speed"|"km/h"|-30|250|50,"LUD_Speed"|"km/h"|-30|250|50,"Latitude"|"Degrees"|-180.0|180.0|10,"Longitude"|"Degrees"|-180.0|180.0|10,"Speed"|"kph"|0.0|150.0|10,"Altitude"|"m"|0.0|4000.0|10,"GPSSats"|""|0|20|10,"GPSQual"|""|0|5|10,"GPSDOP"|""|0.0|20.0|10,"LapCount"|""|0|0|10,"LapTime"|"Min"|0.0|0.0|10,"Sector"|""|0|0|10,"SectorTime"|"Min"|0.0|0.0|10,"PredTime"|"Min"|0.0|0.0|5,"ElapsedTime"|"Min"|0.0|0.0|10,"CurrentLap"|""|0|0|10,"Distance"|"km"|0.0|0.0|10,"SessionTime"|"Min"|0.0|0.0|10
82463,1620397474017,,,,,,,,-0.62,0.14,-0.4,5,-2,-0,0.64,,83,7958,10,20,32,1.015,68.0,647,4.88,11.6,10.6,1,29.0,1.97,7.3,0,0,1,1,0,678,-10346,-26892,687,,,,,,,,,,,,,,,,
82483,1620397474037,,,,,,,,-0.62,0.11,-0.21,5,-2,-0,0.63,,83,7918,10,20,32,1.001,68.3,645,4.83,11.7,10.6,1,29.0,1.97,7.3,0,0,1,1,0,675,3543,-2826,676,,,,,,,,,,,,,,,,
82503,1620397474054,,,,,,,,-0.64,0.09,-0.12,5,-2,-0,0.65,,83,7851,10,20,32,0.987,68.3,650,4.75,11.7,10.6,1,29.0,1.97,7.3,0,0,1,1,0,667,-2345,-388,679,,,,,,,,,,,,,,,,
82523,1620397474074,,,,,,,,-0.67,0.06,-0.28,5,-1,0,0.67,,83,7815,10,20,32,0.972,67.3,637,4.86,11.7,10.6,1,29.0,1.97,7.3,0,0,1,1,0,663,-3038,3543,673,,,,,,,,,,,,,,,,
82543,1620397474094,15,19,19,20,37,37,1,-0.72,0.03,-0.32,4,-1,-0,0.72,0,83,7760,10,20,32,0.952,66.5,640,4.85,11.6,10.6,1,29.0,1.97,7.3,0,0,1,1,0,659,-27404,24583,665,45.846378,5.179652,76.11,218.5,4,2,2.8,0,0.0,-1,0.0,,0.0,0,0.19,1.3757
82563,1620397474114,,,,,,,,-0.67,0.1,-0.46,4,-1,-0,0.68,,83,7690,10,20,33,0.937,67.0,640,4.86,11.6,10.5,1,29.2,2.02,7.0,0,0,1,1,0,658,-388,-3488,665,,,,,,,,,,,,,,,,
82583,1620397474134,,,,,,,,-0.62,0.12,-0.56,4,1,0,0.63,,83,7609,10,20,33,0.911,66.2,635,4.78,11.7,10.5,1,29.2,2.02,7.0,0,0,1,1,0,649,-27404,31988,658,,,,,,,,,,,,,,,,
82603,1620397474156,,,,,,,,-0.63,0.12,-0.68,4,-1,1,0.64,,83,7542,10,20,34,0.896,65.6,633,4.84,11.7,10.5,1,29.5,2.07,7.0,0,0,1,1,0,616,-388,-3584,658,,,,,,,,,,,,,,,,
82623,1620397474176,,,,,,,,-0.58,0.08,-0.79,3,1,1,0.59,,83,7473,10,20,34,0.87,66.2,630,4.82,11.7,10.5,1,29.5,2.07,7.0,0,0,1,1,0,630,-30207,6208,662,,,,,,,,,,,,,,,,
82643,1620397474196,14,20,18,20,37,38,-0,-0.54,0.13,-0.89,3,0,1,0.55,0,83,7373,10,20,34,0.857,65.4,630,4.82,11.7,10.5,1,29.5,2.07,7.0,0,0,1,1,0,640,479,11776,654,45.846394,5.179637,74.02,218.6,4,2,2.8,0,0.0,-1,0.0,0.0,0.0,0,0.19,1.3774
82663,1620397474216,,,,,,,,-0.53,0.07,-0.98,3,2,2,0.53,,83,7273,9,20,35,0.835,65.8,621,4.81,11.6,11.1,1,29.8,2.12,7.2,0,0,1,1,0,632,-30207,24,643,,,,,,,,,,,,,,,,
82683,1620397474236,,,,,,,,-0.59,0.04,-0.74,2,-1,0,0.59,,83,7228,10,20,36,0.818,64.7,621,4.89,11.6,11.1,1,30.1,2.18,7.2,0,0,1,1,0,632,4909,24,647,,,,,,,,,,,,,,,,
82703,1620397474256,,,,,,,,-0.62,0.04,-0.51,2,-2,-1,0.62,,83,7181,9,20,36,0.801,64.2,618,4.85,11.6,11.1,1,30.1,2.18,7.2,0,0,1,1,0,632,-2830,-2836,640,,,,,,,,,,,,,,,,
82723,1620397474276,,,,,,,,-0.59,0.06,-0.63,2,-2,-1,0.59,,83,7175,10,20,36,0.795,63.7,621,4.87,11.7,11.1,1,30.1,2.18,7.2,0,0,1,1,0,623,-10251,-2836,640,,,,,,,,,,,,,,,,
82743,1620397474296,10,18,18,20,35,37,2,-0.53,0.07,-0.75,2,-1,1,0.53,0,83,7115,10,20,37,0.788,63.5,624,4.8,11.7,11.1,1,30.4,2.23,7.2,0,0,1,1,0,619,16599,-16046,626,45.846409,5.179623,69.67,218.6,4,2,2.8,0,0.0,-1,0.0,,0.0,0,0.19,1.3791
82763,1620397474316,,,,,,,,-0.58,0.0,-0.52,1,0,-0,0.58,,83,7115,10,20,37,0.783,63.4,615,4.89,11.6,11.6,1,30.4,2.23,7.3,0,0,1,1,0,622,3,20993,628,,,,,,,,,,,,,,,,
82783,1620397474336,,,,,,,,-0.63,0.05,-0.31,1,-4,-2,0.64,,83,7096,10,20,38,0.777,62.6,613,4.85,11.7,11.6,1,30.7,2.23,7.3,0,0,1,1,0,621,-1346,269,626,,,,,,,,,,,,,,,,
82803,1620397474356,,,,,,,,-0.56,0.08,-0.45,1,-2,-1,0.56,,83,7083,10,20,38,0.775,61.9,616,4.8,11.7,11.6,1,30.7,2.28,7.3,0,0,1,1,0,614,3403,28675,619,,,,,,,,,,,,,,,,
82823,1620397474376,,,,,,,,-0.55,0.04,-0.58,1,1,0,0.55,,83,7078,10,20,38,0.777,62.3,606,4.84,11.6,11.6,1,30.7,2.28,7.3,0,0,1,1,0,612,3395,19621,620,,,,,,,,,,,,,,,,
82843,1620397474396,20,26,20,20,36,37,3,-0.6,0.01,-0.36,0,-3,-2,0.6,0,83,7001,10,20,39,0.781,61.3,603,4.86,11.8,11.6,1,31.0,2.34,7.3,0,0,1,1,0,604,-28304,5344,613,45.846424,5.17961,66.79,218.6,4,2,2.8,0,0.0,-1,0.0,0.0,0.0,0,0.19,1.3807
82863,1620397474416,,,,,,,,-0.56,0.06,-0.5,1,1,1,0.56,,83,6863,10,20,39,0.784,61.0,591,4.86,11.8,12.3,1,30.8,2.34,7.5,0,0,1,1,0,596,-3446,23619,601,,,,,,,,,,,,,,,,
82883,1620397474436,,,,,,,,-0.64,-0.0,-0.29,0,-2,-1,0.64,,83,6686,10,20,39,0.789,60.4,581,4.83,11.7,12.3,1,30.6,2.34,7.5,0,0,1,1,0,593,5344,-32504,601,,,,,,,,,,,,,,,,
82903,1620397474456,,,,,,,,-0.59,-0.03,-0.43,0,3,1,0.59,,83,6539,10,20,39,0.793,59.5,569,4.88,11.7,12.3,1,30.4,2.34,7.5,0,0,1,1,0,581,-16179,208,597,,,,,,,,,,,,,,,,
82923,1620397474476,,,,,,,,-0.65,0.02,-0.56,1,3,0,0.65,,83,6392,10,20,39,0.797,59.4,556,4.88,11.5,12.3,1,30.2,2.34,7.5,0,0,1,1,0,572,-13043,30208,580,,,,,,,,,,,,,,,,
82943,1620397474496,29,38,17,20,38,39,4,-0.73,0.17,-0.35,1,-3,-1,0.75,0,83,6247,10,20,40,0.799,58.1,547,4.88,11.6,12.3,1,30.2,2.34,7.5,0,0,1,1,0,538,-3210,-22359,581,45.846436,5.179596,67.04,218.6,4,2,2.8,0,0.0,-1,0.0,,0.0,0,0.19,1.3824
82963,1620397474516,,,,,,,,-0.75,0.14,-0.15,2,-15,-3,0.77,,83,6368,10,20,40,0.804,58.1,547,4.8,11.6,11.5,1,30.4,2.34,6.7,0,0,1,1,0,503,10432,10408,578,,,,,,,,,,,,,,,,
82983,1620397474536,,,,,,,,-0.68,0.09,-0.31,2,-5,1,0.69,,83,6578,10,20,41,0.806,57.3,557,4.77,11.6,11.5,1,30.9,2.34,6.7,0,0,1,1,0,449,1760,8488,575,,,,,,,,,,,,,,,,
83003,1620397474556,,,,,,,,-0.72,0.13,-0.11,3,-8,-1,0.73,,83,6658,10,20,41,0.811,57.0,570,4.88,11.6,11.5,1,31.1,2.34,6.7,0,0,1,1,0,404,-3190,13040,570,,,,,,,,,,,,,,,,
83023,1620397474576,,,,,,,,-0.7,0.08,-0.27,3,-5,2,0.7,,83,6764,10,20,41,0.814,56.9,572,4.86,11.7,11.5,1,31.2,2.33,6.7,0,0,1,1,0,385,1760,-6524,552,,,,,,,,,,,,,,,,
83043,1620397474596,27,33,16,18,39,40,4,-0.75,0.12,-0.08,4,-5,-0,0.76,0,83,6800,10,20,41,0.836,55.7,578,4.85,11.6,11.5,1,31.2,2.33,6.7,0,0,1,1,0,361,-28648,-6656,551,45.846451,5.179583,65.11,218.7,4,2,2.8,0,0.0,-1,0.0,0.0,0.0,0,0.2,1.384
83063,1620397474616,,,,,,,,-0.78,0.1,-0.24,4,-5,3,0.78,,83,6823,10,20,41,0.856,55.3,583,4.88,11.7,13.3,1,31.2,2.33,7.3,0,0,1,1,0,341,-9072,4104,547,,,,,,,,,,,,,,,,
83083,1620397474636,,,,,,,,-0.78,0.18,-0.05,5,-12,1,0.8,,83,6620,10,20,42,0.89,54.9,578,4.84,11.6,13.3,1,31.2,2.34,7.3,0,0,1,1,0,375,2104,-6405,540,,,,,,,,,,,,,,,,
83103,1620397474654,,,,,,,,-0.72,0.14,0.12,6,-12,-1,0.74,,84,6262,10,20,42,0.917,54.3,557,4.81,11.6,13.3,1,30.7,2.34,7.3,0,0,1,1,0,486,1779,20625,535,,,,,,,,,,,,,,,,
83123,1620397474674,,,,,,,,-0.79,0.03,-0.06,7,-8,0,0.79,,84,6233,10,20,42,0.939,53.9,538,4.77,11.8,13.3,1,30.6,2.34,7.3,0,0,1,1,0,517,-8186,3576,521,,,,,,,,,,,,,,,,
83143,1620397474694,17,24,16,20,39,39,2,-0.77,-0.02,-0.22,6,-3,3,0.77,0,83,6218,10,20,43,0.974,52.6,530,4.89,11.8,13.3,1,30.8,2.34,7.3,0,0,1,1,0,518,-32248,8488,520,45.846466,5.17957,63.53,218.7,4,2,2.8,0,0.0,-1,0.0,,0.0,0,0.2,1.3857
83163,1620397474714,,,,,,,,-0.72,-0.0,-0.37,6,3,4,0.72,,84,6289,11,20,44,0.996,52.9,531,4.96,11.8,12.8,1,31.1,2.34,6.7,0,0,1,1,0,480,-9072,13552,511,,,,,,,,,,,,,,,,
83183,1620397474734,,,,,,,,-0.74,-0.06,-0.17,7,-3,1,0.74,,84,6590,11,20,45,1.031,52.3,554,4.82,11.6,12.8,1,31.9,2.33,6.7,0,0,1,1,0,445,1248,2524,512,,,,,,,,,,,,,,,,
83203,1620397474756,,,,,,,,-0.72,-0.0,-0.32,7,-1,5,0.72,,84,6754,11,20,45,1.048,51.8,566,4.83,11.7,12.8,1,32.2,2.31,6.7,0,0,1,1,0,416,1341,13040,515,,,,,,,,,,,,,,,,
83223,1620397474776,,,,,,,,-0.7,-0.1,-0.46,7,-2,3,0.71,,84,6895,11,20,45,1.052,51.1,574,4.88,11.6,12.8,1,32.6,2.31,6.7,0,0,1,1,0,401,-3856,19477,506,,,,,,,,,,,,,,,,
83243,1620397474796,14,20,16,20,38,39,-0,-0.78,-0.09,-0.26,7,-2,3,0.78,0,84,6985,11,20,45,1.057,51.1,590,4.9,11.7,12.8,1,32.7,2.3,6.7,0,0,1,1,0,413,-3856,32033,496,45.846474,5.179559,50.42,218.5,4,2,2.8,0,0.0,-1,0.0,0.0,0.0,0,0.2,1.3874
83263,1620397474816,,,,,,,,-0.71,-0.05,-0.4,7,-1,5,0.72,,84,7038,11,20,45,1.06,50.5,606,4.81,11.6,14.9,1,32.8,2.29,7.4,0,0,1,1,0,464,6274,16648,492,,,,,,,,,,,,,,,,
83283,1620397474836,,,,,,,,-0.67,-0.03,-0.54,7,1,4,0.67,,84,7250,11,20,45,1.058,49.9,612,4.8,11.6,14.9,1,33.4,2.31,7.4,0,0,1,1,0,477,-32768,-9160,488,,,,,,,,,,,,,,,,
83303,1620397474844,,,,,,,,-0.65,-0.02,-0.66,6,-1,4,0.65,,84,7494,11,20,45,1.035,48.9,633,4.82,11.6,14.9,1,33.9,2.34,7.4,0,0,1,1,0,470,-6441,243,489,,,,,,,,,,,,,,,,
83323,1620397474864,,,,,,,,-0.63,0.0,-0.77,6,1,4,0.63,,84,7621,11,20,44,1.018,48.8,638,4.85,11.6,14.9,1,33.6,2.34,7.4,0,0,1,1,0,466,-899,16648,484,,,,,,,,,,,,,,,,
83343,1620397474884,9,14,17,21,38,37,-0,-0.61,0.02,-0.78,5,-1,4,0.61,0,84,7678,11,20,43,0.99,48.3,646,4.79,11.7,14.9,1,33.2,2.35,7.4,0,0,1,1,0,478,-10483,-16384,474,45.846485,5.179549,51.99,218.6,4,2,2.8,0,0.0,-1,0.0,,0.0,0,0.2,1.389
83363,1620397474904,,,,,,,,-0.6,0.02,-0.64,5,0,3,0.6,,84,7738,11,20,43,0.967,47.8,643,4.81,11.7,17.4,1,33.3,2.35,8.3,0,0,1,1,0,476,-1923,8488,475,,,,,,,,,,,,,,,,
83383,1620397474924,,,,,,,,-0.62,-0.02,-0.52,4,-0,2,0.62,,84,7786,11,20,43,0.949,47.5,643,4.87,11.7,17.4,1,33.4,2.36,8.3,0,0,1,1,0,469,-1923,32033,473,,,,,,,,,,,,,,,,
83403,1620397474956,,,,,,,,-0.58,0.0,-0.64,3,-0,3,0.58,,84,7825,11,20,42,0.925,47.4,647,4.84,11.6,17.4,1,32.8,2.35,8.3,0,0,1,1,0,466,32033,10432,474,,,,,,,,,,,,,,,,
83423,1620397474976,,,,,,,,-0.53,0.08,-0.7,3,-0,3,0.53,,84,7888,11,20,42,0.9,47.6,647,4.92,11.6,17.4,1,32.9,2.35,8.3,0,0,1,1,0,465,6193,-16384,476,,,,,,,,,,,,,,,,
83443,1620397474996,1,5,22,24,35,37,1,-0.51,0.08,-0.47,2,-2,2,0.51,0,84,7914,11,20,41,0.872,47.0,652,4.81,11.7,17.4,1,32.3,2.35,8.3,0,0,1,1,0,463,-3210,-16384,470,45.846493,5.179538,51.47,218.6,4,2,2.8,0,0.0,-1,0.0,0.0,0.0,0,0.2,1.3907
83463,1620397475016,,,,,,,,-0.48,0.09,-0.6,2,-2,2,0.49,,84,7944,11,20,41,0.874,47.1,647,4.77,11.7,18.2,1,32.3,2.35,8.6,0,0,1,1,0,468,32033,243,462,,,,,,,,,,,,,,,,
83483,1620397475036,,,,,,,,-0.41,0.08,-0.7,2,-1,2,0.42,,84,7851,11,20,40,0.878,47.0,647,4.83,11.7,18.2,1,31.6,2.34,8.6,0,0,1,1,0,471,30272,-9203,467,,,,,,,,,,,,,,,,
83503,1620397475055,,,,,,,,-0.37,0.06,-0.8,1,-1,2,0.37,,84,7591,11,20,40,0.883,46.9,640,4.84,11.6,18.2,1,31.5,2.34,8.6,0,0,1,1,0,475,8488,16648,470,,,,,,,,,,,,,,,,
83523,1620397475075,,,,,,,,-0.33,0.04,-0.9,1,-2,1,0.34,,84,7393,11,20,41,0.886,47.2,628,4.86,11.7,18.2,1,31.8,2.34,8.6,0,0,1,1,0,477,32033,-23367,473,,,,,,,,,,,,,,,,
83543,1620397475095,-1,1,27,29,31,34,2,-0.38,-0.0,-0.66,1,-3,0,0.38,0,84,7231,11,20,42,0.89,47.5,619,4.89,11.7,18.2,1,32.1,2.33,8.6,0,0,1,1,0,476,6193,3576,470,45.846504,5.179527,48.2,218.6,4,2,2.8,0,0.0,-1,0.0,,0.0,0,0.2,1.3924
83563,1620397475115,,,,,,,,-0.38,-0.04,-0.44,1,-2,1,0.38,,84,7211,11,20,42,0.893,47.2,623,4.81,11.7,16.2,1,32.1,2.33,7.7,0,0,1,1,0,472,10432,32033,472,,,,,,,,,,,,,,,,
83583,1620397475135,,,,,,,,-0.34,-0.02,-0.57,1,0,2,0.34,,84,7247,11,20,42,0.897,47.6,622,4.8,11.6,16.2,1,32.1,2.33,7.7,0,0,1,1,0,469,-23367,-16384,464,,,,,,,,,,,,,,,,
83603,1620397475155,,,,,,,,-0.29,-0.0,-0.69,1,-0,2,0.29,,84,7247,12,20,43,0.901,46.9,631,4.84,11.6,16.2,1,32.5,2.32,7.7,0,0,1,1,0,469,10432,243,467,,,,,,,,,,,,,,,,
83623,1620397475175,,,,,,,,-0.23,0.0,-0.8,1,1,3,0.23,,84,7290,13,20,43,0.906,47.2,623,4.8,11.6,16.2,1,32.6,2.33,7.7,0,0,1,1,0,468,10432,-16384,472,,,,,,,,,,,,,,,,
83643,1620397475195,1,0,29,30,32,33,4,-0.23,-0.0,-0.79,1,-0,2,0.23,0,84,7315,13,20,45,0.908,46.9,621,4.9,11.6,16.2,1,33.5,2.33,7.7,0,0,1,1,0,468,32033,243,467,45.846512,5.179518,46.47,218.6,4,2,2.8,0,0.0,-1,0.0,0.0,0.0,0,0.21,1.394
83663,1620397475215,,,,,,,,-0.23,-0.02,-0.63,1,-0,1,0.23,,84,7347,13,20,45,0.911,47.2,624,4.87,11.7,16.8,1,33.6,2.32,7.9,0,0,1,1,0,468,-9160,30272,464,,,,,,,,,,,,,,,,
83683,1620397475235,,,,,,,,-0.26,-0.03,-0.56,1,-1,0,0.26,,84,7422,13,20,46,0.914,46.8,628,4.88,11.7,16.8,1,34.2,2.33,7.9,0,0,1,1,0,466,32033,30272,468,,,,,,,,,,,,,,,,
83703,1620397475255,,,,,,,,-0.27,-0.04,-0.35,1,-2,-0,0.28,,84,7512,14,21,46,0.912,47.3,630,4.88,11.7,16.8,1,34.4,2.34,7.9,0,0,1,1,0,468,3576,-3210,463,,,,,,,,,,,,,,,,
83723,1620397475275,,,,,,,,-0.29,0.0,-0.4,1,-1,-0,0.29,,84,7512,14,21,47,0.908,46.4,626,4.83,11.7,16.8,1,35.0,2.34,7.9,0,0,1,1,0,468,16408,30272,464,,,,,,,,,,,,,,,,
83743,1620397475295,-0,0,28,31,33,34,5,-0.27,0.0,-0.47,1,-1,-0,0.27,0,84,7603,15,21,48,0.903,46.7,636,4.86,11.6,16.8,1,35.4,2.36,7.9,0,0,1,1,0,466,243,16408,466,45.846523,5.179507,46.99,218.6,4,2,2.8,0,0.0,-1,0.0,,0.0,0,0.21,1.3957
83763,1620397475315,,,,,,,,-0.23,0.03,-0.6,2,-1,0,0.23,,84,7684,15,21,49,0.897,47.0,637,4.87,11.6,17.8,1,35.8,2.38,8.3,0,0,1,1,0,465,8488,6193,461,,,,,,,,,,,,,,,,
83783,1620397475335,,,,,,,,-0.14,0.08,-0.7,2,0,0,0.17,,84,7731,15,21,49,0.899,46.9,633,4.85,11.6,17.8,1,35.9,2.39,8.3,0,0,1,1,0,469,17628,30272,460,,,,,,,,,,,,,,,,
83803,1620397475357,,,,,,,,-0.08,0.15,-0.74,3,-0,1,0.17,,84,7625,15,21,50,0.905,46.6,634,4.78,11.6,17.8,1,35.9,2.38,8.3,0,0,1,1,0,472,-1923,8488,466,,,,,,,,,,,,,,,,
83823,1620397475377,,,,,,,,-0.05,0.21,-0.84,3,1,2,0.22,,84,7494,15,21,50,0.909,47.4,629,4.78,11.7,17.8,1,35.5,2.36,8.3,0,0,1,1,0,474,-9203,3576,462,,,,,,,,,,,,,,,,
83843,1620397475397,1,1,28,31,33,32,9,-0.02,0.2,-0.94,3,1,2,0.21,0,84,7373,15,21,52,0.912,46.7,631,4.86,11.6,17.8,1,35.7,2.34,8.3,0,0,1,1,0,475,243,-1923,464,45.846531,5.179496,49.19,218.7,4,2,2.8,0,0.0,-1,0.0,0.0,0.0,0,0.21,1.3974
83863,1620397475417,,,,,,,,-0.04,0.21,-1.03,4,2,2,0.21,,84,7298,15,21,52,0.919,47.1,623,4.8,11.6,16.9,1,35.6,2.33,7.9,0,0,1,1,0,474,32033,32033,466,,,,,,,,,,,,,,,,
83883,1620397475437,,,,,,,,-0.08,0.2,-0.78,4,0,1,0.21,,84,7250,15,21,53,0.924,47.4,615,4.86,11.6,16.9,1,35.8,2.33,7.9,0,0,1,1,0,472,-9203,-3210,466,,,,,,,,,,,,,,,,
83903,1620397475455,,,,,,,,-0.12,0.17,-0.54,5,-1,1,0.21,,84,7228,15,21,54,0.929,46.9,616,4.85,11.7,16.9,1,36.1,2.34,7.9,0,0,1,1,0,471,2211,6193,462,,,,,,,,,,,,,,,,
83923,1620397475475,,,,,,,,-0.1,0.22,-0.61,5,1,2,0.24,,84,7178,15,21,54,0.936,47.5,610,4.85,11.7,16.9,1,36.1,2.33,7.9,0,0,1,1,0,471,-17956,12552,464,,,,,,,,,,,,,,,,
83943,1620397475495,1,2,28,32,33,32,10,-0.08,0.19,-0.72,6,0,2,0.2,0,84,7083,15,21,55,0.943,47.8,613,4.84,11.7,16.9,1,36.2,2.33,7.9,0,0,1,1,0,471,16648,6193,459,45.846542,5.179486,48.82,218.7,4,2,2.8,0,0.0,-1,0.0,,0.0,0,0.21,1.399
83963,1620397475515,,,,,,,,-0.09,0.17,-0.5,6,-2,-1,0.19,,84,6993,16,21,55,0.96,46.9,597,4.83,11.6,16.3,1,36.1,2.32,7.6,0,0,1,1,0,472,-9203,6193,462,,,,,,,,,,,,,,,,
83983,1620397475535,,,,,,,,-0.08,0.22,-0.62,7,2,2,0.24,,84,6855,16,21,56,0.973,47.2,590,4.83,11.7,16.3,1,36.0,2.35,7.6,0,0,1,1,0,471,8488,12552,462,,,,,,,,,,,,,,,,
84003,1620397475555,,,,,,,,-0.11,0.15,-0.4,7,-3,0,0.19,,84,6703,16,21,56,0.986,47.1,588,4.82,11.6,16.3,1,35.5,2.33,7.6,0,0,1,1,0,469,-16384,2211,461,,,,,,,,,,,,,,,,
84023,1620397475575,,,,,,,,-0.09,0.18,-0.54,8,1,1,0.2,,84,6597,16,21,57,0.999,46.5,584,4.78,11.7,16.3,1,35.4,2.35,7.6,0,0,1,1,0,466,6193,14488,458,,,,,,,,,,,,,,,,
84043,1620397475595,-0,2,28,32,34,33,11,-0.13,0.23,-0.32,8,-4,-1,0.26,0,84,6625,16,21,57,1.017,47.1,566,4.9,11.7,16.3,1,35.5,2.35,7.6,0,0,1,1,0,456,32033,15649,459,45.84655,5.179475,48.2,218.8,4,2,2.8,0,0.0,-1,0.0,0.0,0.0,0,0.21,1.4007
84063,1620397475615,,,,,,,,-0.12,0.28,-0.46,9,0,0,0.3,,84,6710,16,21,57,1.041,47.2,568,4.81,11.7,15.8,1,35.8,2.36,7.2,0,0,1,1,0,455,-1923,15649,450,,,,,,,,,,,,,,,,
84083,1620397475635,,,,,,,,-0.15,0.33,-0.26,9,-1,-2,0.36,,84,6798,16,21,57,1.056,46.6,575,4.88,11.7,15.8,1,36.1,2.38,7.2,0,0,1,1,0,449,-3210,23400,452,,,,,,,,,,,,,,,,
84103,1620397475655,,,,,,,,-0.14,0.3,-0.4,9,-0,1,0.33,,84,6939,16,21,58,1.091,46.2,589,4.81,11.7,15.8,1,36.9,2.43,7.2,0,0,1,1,0,449,12552,21432,453,,,,,,,,,,,,,,,,
84123,1620397475675,,,,,,,,-0.16,0.28,-0.45,10,-1,0,0.33,,84,7040,16,21,58,1.123,46.1,595,4.88,11.6,15.8,1,37.2,2.45,7.2,0,0,1,1,0,445,17628,-18341,449,,,,,,,,,,,,,,,,
84143,1620397475695,1,2,26,32,35,34,12,-0.2,0.3,-0.24,10,0,-1,0.36,0,84,7096,16,21,58,1.164,45.2,602,4.85,11.7,15.8,1,37.3,2.45,7.2,0,0,1,1,0,445,-3267,-18341,452,45.846561,5.179464,48.34,218.8,4,2,2.8,0,0.0,-1,0.0,,0.0,0,0.21,1.4024
84163,1620397475715,,,,,,,,-0.18,0.37,-0.34,11,-2,-0,0.41,,84,7110,17,21,58,1.217,45.9,612,4.82,11.7,17.8,1,37.3,2.45,8.0,0,0,1,1,0,446,-18108,26704,447,,,,,,,,,,,,,,,,
84183,1620397475735,,,,,,,,-0.14,0.36,-0.47,11,1,1,0.38,,84,7091,17,21,59,1.248,45.9,613,4.85,11.7,17.8,1,37.6,2.49,8.0,0,0,1,1,0,446,-23623,21580,444,,,,,,,,,,,,,,,,
84203,1620397475755,,,,,,,,-0.19,0.27,-0.31,11,0,-1,0.33,,84,7078,18,21,59,1.284,45.3,617,4.83,11.6,17.8,1,37.6,2.49,8.0,0,0,1,1,0,448,-26615,21580,438,,,,,,,,,,,,,,,,
84223,1620397475775,,,,,,,,-0.21,0.3,-0.12,12,-5,-1,0.37,,84,7046,19,21,61,1.329,45.2,609,4.87,11.7,17.8,1,38.3,2.57,8.0,0,0,1,1,0,447,-6387,19477,440,,,,,,,,,,,,,,,,
84243,1620397475795,-1,2,26,30,35,34,12,-0.15,0.28,-0.28,12,2,0,0.32,0,84,6998,21,21,62,1.356,45.2,606,4.86,11.7,17.8,1,38.5,2.7,8.0,0,0,1,1,0,444,-6387,-28332,441,45.846569,5.179453,47.89,218.8,4,2,2.8,0,0.0,-1,0.0,0.0,0.0,0,0.21,1.404
84263,1620397475815,,,,,,,,-0.22,0.27,-0.09,12,-1,-1,0.35,,84,6903,24,21,65,1.402,44.6,609,4.83,11.6,22.0,1,39.3,3.1,9.6,0,0,1,1,0,443,26704,1779,437,,,,,,,,,,,,,,,,
84283,1620397475835,,,,,,,,-0.22,0.35,0.04,12,-3,-1,0.41,,84,6903,24,21,67,1.419,45.0,596,4.83,11.7,22.0,1,39.7,3.39,9.6,0,0,1,1,0,440,-3267,-7939,441,,,,,,,,,,,,,,,,
84303,1620397475843,,,,,,,,-0.2,0.28,-0.13,12,1,0,0.34,,84,6858,26,21,70,1.45,45.1,586,4.79,11.7,22.0,1,40.5,3.63,9.6,0,0,1,1,0,444,3571,1779,434,,,,,,,,,,,,,,,,
84323,1620397475863,,,,,,,,-0.23,0.34,0.05,12,-1,-2,0.41,,84,6858,26,21,72,1.468,44.5,578,4.88,11.7,22.0,1,41.0,3.75,9.6,0,0,1,1,0,439,23400,-3314,437,,,,,,,,,,,,,,,,
84343,1620397475883,0,3,27,30,36,33,11,-0.2,0.33,-0.12,12,-2,1,0.39,0,84,6908,26,21,75,1.492,44.3,582,4.81,11.7,22.0,1,42.2,3.91,9.6,0,0,1,1,0,436,-18341,13180,434,45.846577,5.179441,47.28,218.9,4,2,2.8,0,0.0,-1,0.0,,0.0,0,0.22,1.4057
84363,1620397475903,,,,,,,,-0.21,0.29,-0.06,12,-2,0,0.36,,84,7161,27,21,77,1.498,44.0,586,4.8,11.6,29.4,1,43.2,3.97,12.7,0,0,1,1,0,439,20625,13180,427,,,,,,,,,,,,,,,,
84383,1620397475923,,,,,,,,-0.25,0.26,0.11,12,-2,-1,0.36,,84,7161,27,21,78,1.498,44.1,593,4.86,11.7,29.4,1,42.9,4.04,12.7,0,0,1,1,0,436,5600,-3314,431,,,,,,,,,,,,,,,,
84403,1620397475957,,,,,,,,-0.27,0.24,0.25,12,-3,-1,0.36,,84,7259,27,21,79,1.498,44.0,599,4.85,11.7,29.4,1,42.4,4.12,12.7,0,0,1,1,0,441,20625,13180,428,,,,,,,,,,,,,,,,
84423,1620397475977,,,,,,,,-0.29,0.26,0.3,13,-4,-1,0.38,,84,7437,27,21,80,1.498,44.0,614,4.8,11.7,29.4,1,41.3,4.28,12.7,0,0,1,1,0,438,20625,13180,431,,,,,,,,,,,,,,,,
84443,1620397475997,-1,2,27,29,35,33,10,-0.29,0.3,0.31,12,-3,-1,0.42,0,84,7955,27,21,80,1.498,43.9,626,4.87,11.7,29.4,1,40.1,4.38,12.7,0,0,1,1,0,439,20625,13552,426,45.846584,5.179431,46.6,218.9,4,2,2.8,0,0.0,-1,0.0,0.0,0.0,0,0.22,1.4074
84463,1620397476017,,,,,,,,-0.24,0.31,0.11,12,-3,0,0.4,,84,7955,27,21,80,1.498,43.9,640,4.82,11.7,38.2,1,37.3,4.61,16.3,0,0,1,1,0,438,-28332,-3314,425,,,,,,,,,,,,,,,,
84483,1620397476037,,,,,,,,-0.22,0.24,0.0,12,-2,-0,0.33,,84,8381,26,21,77,1.498,44.0,646,4.76,11.7,38.2,1,41.6,4.63,16.3,0,0,1,1,0,447,20625,23400,429,,,,,,,,,,,,,,,,
84503,1620397476056,,,,,,,,-0.1,0.2,-0.07,12,-4,-1,0.23,,84,8340,25,21,75,1.498,43.8,643,4.75,11.6,38.2,1,41.5,4.23,16.3,0,0,1,1,0,464,-18341,2524,434,,,,,,,,,,,,,,,,
84523,1620397476076,,,,,,,,-0.04,0.2,-0.23,13,-4,-0,0.2,,83,8259,21,21,72,1.488,45.1,654,4.9,11.7,38.2,1,40.8,4.05,16.3,0,0,1,1,0,479,3571,-22519,437,,,,,,,,,,,,,,,,
84543,1620397476096,-1,2,33,37,28,29,9,0.05,0.17,-0.38,13,-5,-0,0.18,0,83,8173,17,21,67,1.471,45.0,643,4.86,11.6,38.2,1,40.0,3.51,16.3,0,0,1,1,0,486,-3267,-6387,441,45.846596,5.17942,45.81,218.9,4,2,2.8,0,0.0,-1,0.0,,0.0,0,0.22,1.409
84563,1620397476116,,,,,,,,0.09,0.17,-0.24,13,-5,-1,0.19,,83,7709,12,21,63,1.457,46.7,644,4.77,11.7,26.9,1,37.9,2.82,12.0,0,0,1,1,0,486,-18108,2211,449,,,,,,,,,,,,,,,,
84583,1620397476136,,,,,,,,0.18,0.15,-0.05,13,-4,-0,0.24,,83,7709,12,21,59,1.447,46.5,642,4.75,11.7,26.9,1,37.5,2.5,12.0,0,0,1,1,0,472,30272,10432,452,,,,,,,,,,,,,,,,
84603,1620397476157,,,,,,,,0.21,0.2,-0.05,12,-5,-0,0.28,,83,7396,12,21,57,1.397,46.3,623,4.86,11.7,26.9,1,37.0,2.42,12.0,0,0,1,1,0,476,6193,16648,454,,,,,,,,,,,,,,,,
84623,1620397476177,,,,,,,,0.22,0.15,-0.21,12,-3,1,0.27,,83,7070,12,21,57,1.35,46.4,607,4.8,11.7,26.9,1,36.9,2.37,12.0,0,0,1,1,0,473,16408,-1923,462,,,,,,,,,,,,,,,,
84643,1620397476197,-1,2,35,40,29,28,8,0.18,0.13,-0.03,12,-6,-1,0.22,0,83,6965,12,21,57,1.302,47.2,584,4.85,11.6,26.9,1,36.7,2.4,12.0,0,0,1,1,0,474,-1923,8488,461,45.846603,5.179408,46.11,218.9,4,2,2.8,0,0.0,-1,0.0,0.0,0.0,0,0.22,1.4107
84663,1620397476217,,,,,,,,0.16,0.18,0.0,12,-2,-1,0.24,,83,7054,12,21,56,1.266,46.6,588,4.81,11.7,16.3,1,36.5,2.37,7.6,0,0,1,1,0,468,30272,6193,466,,,,,,,,,,,,,,,,
84683,1620397476237,,,,,,,,0.16,0.21,-0.16,12,-3,-1,0.26,,83,7170,12,21,56,1.202,47.3,601,4.85,11.7,16.3,1,36.7,2.39,7.6,0,0,1,1,0,468,8488,-23623,459,,,,,,,,,,,,,,,,
84703,1620397476256,,,,,,,,0.19,0.23,-0.31,11,-1,0,0.3,,83,7324,12,21,55,1.161,47.2,607,4.85,11.7,16.3,1,36.4,2.39,7.6,0,0,1,1,0,471,30272,2211,463,,,,,,,,,,,,,,,,
84723,1620397476276,,,,,,,,0.19,0.21,-0.46,11,-1,1,0.28,,83,7665,12,21,54,1.092,46.9,624,4.81,11.6,16.3,1,36.4,2.4,7.6,0,0,1,1,0,466,-16384,-23623,461,,,,,,,,,,,,,,,,
84743,1620397476296,1,1,32,32,33,31,8,0.21,0.2,-0.5,11,-0,1,0.29,0,83,7665,12,21,54,1.051,46.4,628,4.86,11.6,16.3,1,36.6,2.44,7.6,0,0,1,1,0,467,16408,16408,458,45.846611,5.179396,47.23,218.9,4,2,2.8,0,0.0,-1,0.0,,0.0,0,0.22,1.4124
84763,1620397476316,,,,,,,,0.22,0.2,-0.33,11,-1,0,0.3,,83,7722,12,21,52,0.992,46.9,643,4.78,11.7,18.6,1,36.4,2.42,8.6,0,0,1,1,0,472,10432,243,460,,,,,,,,,,,,,,,,
84783,1620397476336,,,,,,,,0.2,0.18,-0.22,11,-2,-0,0.27,,83,7760,12,21,51,0.963,46.5,634,4.85,11.7,18.6,1,36.3,2.43,8.6,0,0,1,1,0,472,30272,-1923,463,,,,,,,,,,,,,,,,
84803,1620397476356,,,,,,,,0.18,0.19,-0.13,10,-1,-1,0.26,,83,7697,12,21,51,0.924,47.1,636,4.86,11.7,18.6,1,36.2,2.39,8.6,0,0,1,1,0,479,32033,2212,464,,,,,,,,,,,,,,,,
84823,1620397476376,,,,,,,,0.15,0.17,-0.06,10,-2,-0,0.23,,83,7600,12,21,50,0.876,47.3,631,4.89,11.6,18.6,1,35.8,2.37,8.6,0,0,1,1,0,481,3576,2212,468,,,,,,,,,,,,,,,,
84843,1620397476396,1,3,33,37,32,30,8,0.11,0.15,0.11,10,-1,-1,0.19,0,83,7470,12,21,49,0.856,47.4,626,4.88,11.7,18.6,1,35.3,2.34,8.6,0,0,1,1,0,479,-9203,2212,467,45.846619,5.179383,47.73,219.0,4,2,2.8,0,0.0,-1,0.0,0.0,0.0,0,0.22,1.414
84863,1620397476416,,,,,,,,0.06,0.19,0.25,10,-2,-1,0.2,,83,7324,12,21,50,0.855,47.5,618,4.88,11.7,17.1,1,35.1,2.32,8.0,0,0,1,1,0,478,-17956,2212,471,,,,,,,,,,,,,,,,
84883,1620397476436,,,,,,,,0.05,0.23,0.06,10,-3,-1,0.24,,83,7281,12,21,50,0.854,47.6,617,4.8,11.7,17.1,1,35.0,2.32,8.0,0,0,1,1,0,477,-23367,3576,469,,,,,,,,,,,,,,,,
84903,1620397476444,,,,,,,,0.08,0.25,-0.11,10,-1,-1,0.26,,83,7440,13,21,50,0.854,47.2,612,4.86,11.7,17.1,1,35.2,2.33,8.0,0,0,1,1,0,480,16648,10432,472,,,,,,,,,,,,,,,,
84923,1620397476464,,,,,,,,0.12,0.28,-0.18,10,-2,-1,0.31,,83,7440,13,21,50,0.852,47.8,625,4.8,11.6,17.1,1,35.4,2.35,8.0,0,0,1,1,0,478,8488,-16384,467,,,,,,,,,,,,,,,,
84943,1620397476484,-0,2,31,34,32,33,8,0.15,0.3,-0.26,10,-3,-1,0.33,0,83,7637,15,21,50,0.854,47.5,630,4.81,11.6,17.1,1,35.7,2.37,8.0,0,0,1,1,0,475,8488,10432,471,45.846626,5.179369,48.76,219.1,5,2,2.8,0,0.0,-1,0.0,,0.0,0,0.22,1.4157
84963,1620397476504,,,,,,,,0.15,0.33,-0.07,10,-4,-1,0.36,,83,7637,15,21,50,0.856,47.8,638,4.8,11.7,17.7,1,35.9,2.38,8.3,0,0,1,1,0,475,16648,-16384,467,,,,,,,,,,,,,,,,
84983,1620397476524,,,,,,,,0.11,0.29,-0.23,10,-4,-1,0.31,,83,7681,15,21,51,0.859,47.5,639,4.85,11.7,17.7,1,36.1,2.4,8.3,0,0,1,1,0,476,-17956,32033,472,,,,,,,,,,,,,,,,
85003,1620397476556,,,,,,,,0.09,0.3,-0.2,10,-3,-1,0.31,,83,7712,15,21,51,0.862,47.7,637,4.91,11.7,17.7,1,36.2,2.41,8.3,0,0,1,1,0,477,2212,-17956,467,,,,,,,,,,,,,,,,
85023,1620397476576,,,,,,,,0.14,0.3,-0.35,10,-2,-1,0.33,,83,7728,15,21,52,0.863,47.5,635,4.83,11.6,17.7,1,36.4,2.42,8.3,0,0,1,1,0,483,-17956,-17956,472,,,,,,,,,,,,,,,,
85043,1620397476596,1,1,33,35,32,31,7,0.2,0.32,-0.49,9,0,-0,0.38,0,83,7637,14,21,52,0.865,47.9,632,4.84,11.6,17.7,1,36.2,2.41,8.3,0,0,1,1,0,486,10305,32033,473,45.846634,5.179355,48.89,219.2,5,2,2.8,0,0.0,-1,0.0,0.0,0.0,0,0.22,1.4174
85063,1620397476616,,,,,,,,0.21,0.33,-0.61,9,-0,0,0.39,,83,7542,13,21,51,0.866,47.9,641,4.79,11.6,17.9,1,35.9,2.4,8.4,0,0,1,1,0,482,10305,3580,476,,,,,,,,,,,,,,,,
85083,1620397476636,,,,,,,,0.22,0.36,-0.73,9,2,1,0.43,,83,7464,12,21,51,0.868,47.8,629,4.88,11.6,17.9,1,35.7,2.36,8.4,0,0,1,1,0,480,16648,-10483,472,,,,,,,,,,,,,,,,
85103,1620397476652,,,,,,,,0.23,0.37,-0.83,8,2,1,0.44,,83,7449,11,21,50,0.871,47.5,630,4.86,11.6,17.9,1,35.4,2.35,8.4,0,0,1,1,0,478,3576,2212,475,,,,,,,,,,,,,,,,
85123,1620397476672,,,,,,,,0.21,0.4,-0.93,8,2,0,0.45,,83,7488,10,21,49,0.875,47.4,625,4.83,11.6,17.9,1,35.3,2.35,8.4,0,0,1,1,0,478,-9203,10305,474,,,,,,,,,,,,,,,,
85143,1620397476692,-1,2,32,32,32,33,4,0.23,0.4,-1.02,8,2,0,0.47,0,83,7530,10,21,48,0.877,48.0,631,4.92,11.7,17.9,1,35.3,2.35,8.4,0,0,1,1,0,478,32033,-17956,470,45.846642,5.17934,49.14,219.2,5,2,2.8,0,0.0,-1,0.0,,0.0,0,0.23,1.419
85163,1620397476712,,,,,,,,0.26,0.44,-1.03,8,3,0,0.51,,83,7615,10,21,47,0.882,47.7,633,4.83,11.5,17.2,1,35.3,2.35,8.2,0,0,1,1,0,477,2212,-9203,476,,,,,,,,,,,,,,,,
85183,1620397476732,,,,,,,,0.24,0.43,-0.78,7,1,0,0.49,,83,7671,9,21,46,0.89,48.1,633,4.82,11.6,17.2,1,34.9,2.35,8.2,0,0,1,1,0,479,8488,-23367,469,,,,,,,,,,,,,,,,
85203,1620397476754,,,,,,,,0.24,0.37,-0.79,7,1,0,0.44,,83,7690,9,21,44,0.902,47.6,634,4.78,11.6,17.2,1,33.8,2.35,8.2,0,0,1,1,0,479,16648,32033,476,,,,,,,,,,,,,,,,
85223,1620397476774,,,,,,,,0.22,0.34,-0.56,7,-1,-0,0.41,,83,7621,9,21,43,0.916,47.6,640,4.77,11.7,17.2,1,33.1,2.34,8.2,0,0,1,1,0,482,32033,16648,476,,,,,,,,,,,,,,,,
85243,1620397476794,-1,2,33,35,32,33,4,0.19,0.34,-0.35,7,-1,-0,0.39,0,83,7533,9,21,42,0.925,47.9,633,4.78,11.6,17.2,1,32.5,2.34,8.2,0,0,1,1,0,480,8488,8488,476,45.846649,5.179327,49.42,219.3,5,2,2.8,0,0.0,-1,0.0,0.0,0.0,0,0.23,1.4207
85263,1620397476814,,,,,,,,0.21,0.35,-0.17,6,-1,0,0.41,,83,7437,8,21,42,0.935,48.2,636,4.75,11.6,17.0,1,32.3,2.34,8.1,0,0,1,1,0,479,-899,16648,471,,,,,,,,,,,,,,,,
85283,1620397476834,,,,,,,,0.19,0.31,-0.16,6,-1,0,0.37,,83,7431,8,21,41,0.948,47.7,631,4.82,11.7,17.0,1,31.9,2.34,8.1,0,0,1,1,0,481,8488,-23367,477,,,,,,,,,,,,,,,,
85303,1620397476844,,,,,,,,0.2,0.31,-0.32,6,-1,0,0.37,,83,7434,8,21,41,0.958,47.8,642,4.79,11.7,17.0,1,31.9,2.34,8.1,0,0,1,1,0,476,16648,-23367,472,,,,,,,,,,,,,,,,
85323,1620397476864,,,,,,,,0.21,0.33,-0.46,5,0,1,0.39,,83,7434,8,21,40,0.966,47.8,632,4.84,11.6,17.0,1,31.4,2.34,8.1,0,0,1,1,0,475,16648,-1923,474,,,,,,,,,,,,,,,,
85343,1620397476884,-0,3,32,34,33,34,5,0.22,0.3,-0.57,5,-0,1,0.37,0,83,7446,8,21,40,0.967,47.4,633,4.86,11.6,17.0,1,31.4,2.34,8.1,0,0,1,1,0,478,-16384,32033,474,45.846657,5.179312,49.36,219.3,5,2,2.8,0,0.0,-1,0.0,,0.0,0,0.23,1.4224
85363,1620397476904,,,,,,,,0.25,0.29,-0.69,5,1,2,0.38,,83,7431,8,21,39,0.964,48.1,627,4.8,11.6,16.9,1,31.0,2.34,8.0,0,0,1,1,0,473,32033,-1923,477,,,,,,,,,,,,,,,,
85383,1620397476924,,,,,,,,0.27,0.25,-0.8,5,-1,3,0.37,,83,7370,8,21,39,0.962,48.4,633,4.81,11.6,16.9,1,31.0,2.34,8.0,0,0,1,1,0,481,-10483,-1923,479,,,,,,,,,,,,,,,,
85403,1620397476955,,,,,,,,0.25,0.21,-0.9,5,-0,3,0.32,,83,7370,8,21,38,0.959,48.1,630,4.87,11.6,16.9,1,30.7,2.28,8.0,0,0,1,1,0,478,32033,2212,473,,,,,,,,,,,,,,,,
85423,1620397476975,,,,,,,,0.2,0.19,-0.99,5,-1,1,0.27,,83,7381,8,21,38,0.946,47.6,628,4.85,11.6,16.9,1,30.7,2.28,8.0,0,0,1,1,0,478,-23367,32033,471,,,,,,,,,,,,,,,,
85443,1620397476995,1,1,31,29,34,32,7,0.18,0.16,-0.99,5,-1,1,0.24,0,83,7367,8,21,38,0.936,47.3,625,4.83,11.6,16.9,1,30.7,2.28,8.0,0,0,1,1,0,475,3576,3576,470,45.846664,5.179297,48.99,219.3,5,2,2.8,0,0.0,-1,0.0,0.0,0.0,0,0.23,1.424
85463,1620397477015,,,,,,,,0.11,0.16,-0.81,5,-3,0,0.19,,83,7338,8,21,38,0.919,48.0,632,4.85,11.6,16.4,1,30.7,2.28,7.7,0,0,1,1,0,474,8488,8488,472,,,,,,,,,,,,,,,,
85483,1620397477035,,,,,,,,0.06,0.14,-0.57,5,-2,-0,0.15,,83,7307,8,21,38,0.906,47.8,630,4.9,11.7,16.4,1,30.7,2.28,7.7,0,0,1,1,0,474,8488,8488,476,,,,,,,,,,,,,,,,
85503,1620397477053,,,,,,,,0.03,0.2,-0.39,5,-0,1,0.2,,83,7292,9,21,38,0.891,47.9,626,4.83,11.7,16.4,1,30.7,2.23,7.7,0,0,1,1,0,474,32033,8488,469,,,,,,,,,,,,,,,,
85523,1620397477073,,,,,,,,0.03,0.24,-0.53,5,0,2,0.24,,83,7270,9,21,37,0.879,47.4,628,4.78,11.6,16.4,1,30.4,2.23,7.7,0,0,1,1,0,469,32033,243,462,,,,,,,,,,,,,,,,
85543,1620397477093,-0,2,30,31,35,35,9,0.07,0.28,-0.65,6,3,2,0.29,0,83,7253,9,21,37,0.86,47.2,621,4.8,11.7,16.4,1,30.4,2.23,7.7,0,0,1,1,0,468,-9203,16408,463,45.846668,5.179283,49.05,219.2,5,2,2.8,0,0.0,-1,0.0,,0.0,0,0.23,1.4257
85563,1620397477113,,,,,,,,0.05,0.24,-0.76,6,3,3,0.24,,83,7244,9,21,37,0.848,46.9,627,4.88,11.6,16.1,1,30.4,2.23,7.5,0,0,1,1,0,471,10432,30272,465,,,,,,,,,,,,,,,,
85583,1620397477133,,,,,,,,-0.01,0.23,-0.53,7,1,1,0.23,,83,7219,9,21,38,0.833,47.6,621,4.86,11.6,16.1,1,30.7,2.28,7.5,0,0,1,1,0,472,-23367,-3210,466,,,,,,,,,,,,,,,,
85603,1620397477153,,,,,,,,-0.06,0.25,-0.32,7,1,-0,0.26,,83,7244,9,21,38,0.825,47.0,614,4.87,11.7,16.1,1,30.7,2.28,7.5,0,0,1,1,0,476,8488,12552,470,,,,,,,,,,,,,,,,
85623,1620397477173,,,,,,,,-0.05,0.29,-0.18,7,-1,1,0.3,,83,7290,9,21,38,0.818,47.6,613,4.87,11.7,16.1,1,30.7,2.28,7.5,0,0,1,1,0,471,-23367,6193,466,,,,,,,,,,,,,,,,
85643,1620397477193,-0,2,30,34,36,35,9,-0.01,0.34,-0.33,8,2,2,0.34,0,83,7290,9,21,38,0.812,47.0,616,4.76,11.6,16.1,1,30.7,2.28,7.5,0,0,1,1,0,467,8488,12552,461,45.84668,5.179269,48.74,219.2,5,2,2.8,0,0.0,-1,0.0,0.0,0.0,0,0.23,1.4274
85663,1620397477213,,,,,,,,0.01,0.39,-0.47,8,1,2,0.39,,83,7358,10,21,38,0.805,47.2,630,4.8,11.7,16.5,1,30.7,2.28,7.7,0,0,1,1,0,463,-1923,17628,461,,,,,,,,,,,,,,,,
85683,1620397477233,,,,,,,,0.0,0.38,-0.6,8,2,2,0.38,,83,7419,10,21,38,0.804,46.9,623,4.85,11.6,16.5,1,30.7,2.28,7.7,0,0,1,1,0,469,10432,17628,463,,,,,,,,,,,,,,,,
85703,1620397477253,,,,,,,,0.03,0.39,-0.71,9,0,2,0.39,,83,7449,10,21,38,0.802,47.1,627,4.83,11.6,16.5,1,30.7,2.28,7.7,0,0,1,1,0,470,3576,14488,462,,,,,,,,,,,,,,,,
85723,1620397477273,,,,,,,,0.05,0.4,-0.82,9,2,2,0.4,,83,7431,10,21,38,0.8,46.6,627,4.82,11.6,16.5,1,30.7,2.28,7.7,0,0,1,1,0,470,10432,2211,465,,,,,,,,,,,,,,,,
85743,1620397477293,1,0,28,33,34,33,10,0.08,0.4,-0.92,9,1,2,0.41,0,83,7425,10,21,38,0.799,46.8,627,4.86,11.7,16.5,1,30.7,2.28,7.7,0,0,1,1,0,467,-16384,-9160,461,45.846684,5.179254,49.27,219.1,5,2,2.8,0,0.0,-1,0.0,,0.0,0,0.23,1.429
85763,1620397477313,,,,,,,,0.08,0.39,-1.01,9,2,2,0.39,,83,7419,10,21,39,0.801,46.8,627,4.87,11.6,17.1,1,31.0,2.34,7.8,0,0,1,1,0,468,-16384,-18108,456,,,,,,,,,,,,,,,,
85783,1620397477333,,,,,,,,0.04,0.37,-1.09,10,2,1,0.38,,83,7428,10,21,39,0.802,46.8,628,4.83,11.6,17.1,1,31.0,2.34,7.8,0,0,1,1,0,464,-16384,17628,457,,,,,,,,,,,,,,,,
85803,1620397477355,,,,,,,,-0.01,0.34,-0.89,10,1,0,0.34,,83,7428,10,21,39,0.804,46.5,630,4.85,11.7,17.1,1,31.0,2.34,7.8,0,0,1,1,0,466,30272,-18108,456,,,,,,,,,,,,,,,,
85823,1620397477375,,,,,,,,-0.06,0.33,-0.77,10,1,0,0.34,,83,7422,10,21,39,0.805,46.7,635,4.85,11.6,17.1,1,31.0,2.34,7.8,0,0,1,1,0,467,243,14488,457,,,,,,,,,,,,,,,,
85843,1620397477395,0,2,28,31,33,33,7,-0.08,0.36,-0.55,10,1,0,0.37,0,82,7443,11,20,40,0.806,46.3,632,4.88,11.7,17.1,1,31.4,2.34,7.8,0,0,1,1,0,467,-3210,17628,463,45.846691,5.179238,49.66,219.0,5,2,2.8,0,0.0,-1,0.0,0.0,0.0,0,0.24,1.4307
85863,1620397477415,,,,,,,,-0.11,0.31,-0.34,10,-0,-1,0.33,,82,7434,11,21,40,0.806,46.5,634,4.87,11.7,17.3,1,31.4,2.34,8.0,0,0,1,1,0,464,10432,-9160,458,,,,,,,,,,,,,,,,
85883,1620397477435,,,,,,,,-0.11,0.29,-0.18,10,-0,-2,0.31,,82,7440,13,21,41,0.806,46.4,626,4.86,11.7,17.3,1,31.9,2.34,8.0,0,0,1,1,0,463,16408,-9160,458,,,,,,,,,,,,,,,,
85903,1620397477455,,,,,,,,-0.15,0.29,-0.04,10,-2,-1,0.32,,82,7458,14,21,42,0.806,46.5,629,4.85,11.7,17.3,1,32.4,2.34,8.0,0,0,1,1,0,464,30272,-9160,451,,,,,,,,,,,,,,,,
85923,1620397477475,,,,,,,,-0.17,0.24,0.05,9,-2,-2,0.3,,82,7488,14,21,43,0.806,46.0,632,4.85,11.7,17.3,1,32.9,2.34,8.0,0,0,1,1,0,462,-23623,-9160,455,,,,,,,,,,,,,,,,
85943,1620397477495,-1,2,29,34,33,33,5,-0.22,0.22,0.01,9,-2,-2,0.31,0,82,7548,15,21,45,0.806,46.5,630,4.84,11.7,17.3,1,34.0,2.34,8.0,0,0,1,1,0,463,30272,-26615,454,45.846699,5.179222,47.26,219.0,5,2,2.8,0,0.0,-1,0.0,,0.0,0,0.24,1.4324
85963,1620397477515,,,,,,,,-0.21,0.19,0.08,9,-1,-3,0.28,,82,7662,15,21,46,0.806,45.7,631,4.88,11.7,17.9,1,34.7,2.34,8.2,0,0,1,1,0,463,6193,-26615,454,,,,,,,,,,,,,,,,
85983,1620397477535,,,,,,,,-0.22,0.2,-0.03,9,-2,-3,0.3,,82,7662,15,21,47,0.806,46.1,636,4.87,11.7,17.9,1,35.5,2.36,8.2,0,0,1,1,0,460,2211,-26615,451,,,,,,,,,,,,,,,,
86003,1620397477555,,,,,,,,-0.17,0.25,-0.19,8,-1,-3,0.3,,82,7731,16,21,48,0.804,45.8,632,4.86,11.6,17.9,1,35.8,2.37,8.2,0,0,1,1,0,461,17628,14488,457,,,,,,,,,,,,,,,,
86023,1620397477575,,,,,,,,-0.09,0.23,-0.34,8,-3,-3,0.25,,82,7728,16,21,49,0.803,46.2,633,4.81,11.6,17.9,1,35.9,2.39,8.2,0,0,1,1,0,462,12552,12552,454,,,,,,,,,,,,,,,,
86043,1620397477595,-1,2,30,33,32,32,4,-0.02,0.21,-0.48,8,-2,-3,0.21,0,82,7609,18,20,50,0.801,46.2,633,4.77,11.7,17.9,1,35.8,2.39,8.2,0,0,1,1,0,469,12552,-16384,455,45.846706,5.179206,46.92,218.9,5,2,2.8,0,0.0,-1,0.0,0.0,0.0,0,0.24,1.434
86063,1620397477615,,,,,,,,0.05,0.25,-0.61,7,-1,-2,0.25,,82,7422,19,21,53,0.8,46.3,637,4.78,11.7,18.0,1,36.1,2.37,8.3,0,0,1,1,0,470,16408,-3210,459,,,,,,,,,,,,,,,,
86083,1620397477635,,,,,,,,0.04,0.24,-0.72,7,0,-1,0.24,,82,7281,19,21,55,0.804,46.1,618,4.82,11.6,18.0,1,36.4,2.38,8.3,0,0,1,1,0,473,30272,32033,461,,,,,,,,,,,,,,,,
86103,1620397477655,,,,,,,,-0.02,0.2,-0.5,6,-1,-4,0.2,,82,7131,19,21,58,0.807,46.6,613,4.84,11.6,18.0,1,37.3,2.42,8.3,0,0,1,1,0,467,-3210,16408,459,,,,,,,,,,,,,,,,
86123,1620397477675,,,,,,,,-0.03,0.18,-0.62,6,-2,-2,0.18,,82,6962,19,21,59,0.81,46.2,609,4.84,11.7,18.0,1,37.4,2.47,8.3,0,0,1,1,0,464,2211,12552,462,,,,,,,,,,,,,,,,
86143,1620397477695,-0,2,31,34,32,33,2,-0.01,0.12,-0.74,5,0,-3,0.13,0,82,6742,19,21,60,0.815,46.1,598,4.83,11.6,18.0,1,37.2,2.48,8.3,0,0,1,1,0,462,-23623,2211,457,45.84671,5.17919,47.3,218.8,5,2,2.8,0,0.0,-1,0.0,,0.0,0,0.24,1.4357
86163,1620397477715,,,,,,,,-0.04,0.14,-0.57,5,4,-2,0.14,,82,6742,19,21,62,0.824,45.9,584,4.92,11.7,17.0,1,37.5,2.62,7.8,0,0,1,1,0,461,-18108,-18108,458,,,,,,,,,,,,,,,,
86183,1620397477735,,,,,,,,-0.03,0.11,-0.36,4,2,-2,0.11,,82,6578,19,21,62,0.835,46.4,569,4.86,11.6,17.0,1,36.7,2.57,7.8,0,0,1,1,0,460,12552,-18108,460,,,,,,,,,,,,,,,,
86203,1620397477755,,,,,,,,-0.0,0.11,-0.5,5,3,-1,0.11,,82,6469,19,21,63,0.847,46.1,560,4.78,11.7,17.0,1,36.5,2.7,7.8,0,0,1,1,0,464,17628,12552,462,,,,,,,,,,,,,,,,
86223,1620397477775,,,,,,,,-0.08,0.15,-0.29,4,8,-1,0.16,,82,6427,19,21,64,0.859,46.4,547,4.88,11.7,17.0,1,36.6,2.84,7.8,0,0,1,1,0,454,6193,14488,457,,,,,,,,,,,,,,,,
86243,1620397477795,0,3,28,30,34,35,2,-0.14,0.08,-0.1,5,-1,-3,0.16,0,82,6514,19,21,65,0.891,45.9,550,4.79,11.6,17.0,1,37.2,3.02,7.8,0,0,1,1,0,446,-9160,2131,459,45.846718,5.179175,47.93,218.8,5,2,2.8,0,0.0,-1,0.0,0.0,0.0,0,0.24,1.4374
86263,1620397477815,,,,,,,,-0.1,0.17,-0.26,4,2,-1,0.2,,82,6696,19,21,65,0.922,46.1,560,4.82,11.8,20.5,1,38.2,3.05,9.3,0,0,1,1,0,444,-9160,2131,461,,,,,,,,,,,,,,,,
86283,1620397477835,,,,,,,,-0.17,0.09,-0.18,4,0,-2,0.19,,82,7102,19,21,65,0.945,45.8,575,4.86,11.6,20.5,1,39.2,3.1,9.3,0,0,1,1,0,446,-6387,16648,458,,,,,,,,,,,,,,,,
86303,1620397477843,,,,,,,,-0.18,0.1,-0.0,3,-3,-3,0.21,,82,7102,19,21,66,0.976,45.5,592,4.9,11.7,20.5,1,39.8,3.27,9.3,0,0,1,1,0,447,-26615,-18341,455,,,,,,,,,,,,,,,,
86323,1620397477863,,,,,,,,-0.15,0.11,0.02,3,-1,-3,0.19,,82,7219,19,21,66,1.022,45.5,610,4.81,11.7,20.5,1,39.6,3.28,9.3,0,0,1,1,0,448,-3267,3571,455,,,,,,,,,,,,,,,,
86343,1620397477883,0,1,31,30,32,34,3,-0.12,0.19,-0.14,3,-1,-2,0.22,0,82,7270,19,21,67,1.087,45.5,622,4.84,11.7,20.5,1,39.7,3.43,9.3,0,0,1,1,0,450,8488,15649,453,45.846725,5.17916,47.65,218.8,5,2,2.8,0,0.0,-1,0.0,,0.0,0,0.24,1.439
86363,1620397477903,,,,,,,,-0.09,0.19,-0.3,3,2,-0,0.21,,82,7270,19,21,67,1.126,45.0,621,4.8,11.6,25.7,1,39.8,3.42,11.6,0,0,1,1,0,446,-3267,10305,450,,,,,,,,,,,,,,,,
86383,1620397477923,,,,,,,,-0.1,0.17,-0.39,2,1,0,0.2,,82,7219,19,21,67,1.177,44.8,614,4.85,11.6,25.7,1,39.9,3.42,11.6,0,0,1,1,0,448,8488,16648,447,,,,,,,,,,,,,,,,
86403,1620397477955,,,,,,,,-0.15,0.14,-0.19,2,2,-1,0.2,,82,7236,18,21,67,1.227,44.7,609,4.86,11.7,25.7,1,39.9,3.42,11.6,0,0,1,1,0,443,-18341,10305,447,,,,,,,,,,,,,,,,
86423,1620397477975,,,,,,,,-0.18,0.13,-0.0,2,2,-2,0.22,,82,7304,18,21,66,1.283,43.9,620,4.87,11.7,25.7,1,39.4,3.29,11.6,0,0,1,1,0,449,19477,23400,439,,,,,,,,,,,,,,,,
86443,1620397477995,1,0,30,33,34,35,2,-0.21,0.15,0.16,2,2,-3,0.26,0,82,7437,18,21,66,1.327,44.4,618,4.87,11.7,25.7,1,39.2,3.14,11.6,0,0,1,1,0,442,21432,-18341,442,45.846725,5.179145,47.03,218.7,5,2,2.8,0,0.0,-1,0.0,0.0,0.0,0,0.24,1.4407
86463,1620397478015,,,,,,,,-0.23,0.08,0.21,2,1,-3,0.25,,82,7572,17,21,65,1.361,44.9,623,4.88,11.7,24.6,1,38.8,3.15,10.9,0,0,1,1,0,441,8488,26704,442,,,,,,,,,,,,,,,,
86483,1620397478035,,,,,,,,-0.23,0.09,0.11,2,2,-3,0.25,,82,7678,18,21,64,1.407,44.7,635,4.87,11.6,24.6,1,38.3,3.01,10.9,0,0,1,1,0,443,10305,-18341,447,,,,,,,,,,,,,,,,
86503,1620397478054,,,,,,,,-0.14,0.07,0.07,2,-0,-2,0.16,,82,7988,19,21,64,1.433,44.6,651,4.81,11.6,24.6,1,38.0,3.03,10.9,0,0,1,1,0,445,16648,16648,442,,,,,,,,,,,,,,,,
86523,1620397478074,,,,,,,,-0.09,0.04,0.16,1,-0,-3,0.1,,82,8088,19,21,63,1.452,44.6,641,4.82,11.7,24.6,1,38.9,3.11,10.9,0,0,1,1,0,460,8488,-18108,446,,,,,,,,,,,,,,,,
86543,1620397478094,1,1,32,34,32,33,1,-0.04,0.06,0.09,1,-0,-3,0.07,0,82,7584,19,21,63,1.484,45.2,637,4.91,11.6,24.6,1,38.0,2.73,10.9,0,0,1,1,0,477,-18341,-899,452,45.846733,5.179131,46.7,218.7,5,2,2.8,0,0.0,-1,0.0,,0.0,0,0.24,1.4424
86563,1620397478114,,,,,,,,-0.01,0.07,0.21,1,-2,-3,0.07,,82,7584,19,21,63,1.489,45.6,636,4.9,11.7,21.3,1,38.3,2.86,9.7,0,0,1,1,0,479,2524,-6656,457,,,,,,,,,,,,,,,,
86583,1620397478134,,,,,,,,0.02,0.07,0.36,1,-2,-4,0.08,,82,6947,15,21,63,1.468,46.6,616,4.83,11.7,21.3,1,38.8,2.85,9.7,0,0,1,1,0,479,-3210,8488,464,,,,,,,,,,,,,,,,
86603,1620397478154,,,,,,,,0.06,0.13,0.16,1,0,-2,0.14,,82,6947,15,21,63,1.446,46.4,591,4.78,11.6,21.3,1,38.6,2.83,9.7,0,0,1,1,0,471,-18108,243,464,,,,,,,,,,,,,,,,
86623,1620397478174,,,,,,,,0.02,0.1,0.32,1,-0,-3,0.1,,82,6944,15,21,63,1.425,46.3,576,4.86,11.6,21.3,1,38.6,2.83,9.7,0,0,1,1,0,467,6193,16408,458,,,,,,,,,,,,,,,,
86643,1620397478194,1,2,34,35,30,32,2,-0.02,0.09,0.37,1,-3,-3,0.09,0,82,7014,15,21,63,1.387,46.2,586,4.88,11.7,21.3,1,38.9,2.85,9.7,0,0,1,1,0,463,2211,12552,460,45.846741,5.179116,47.37,218.7,5,2,2.8,0,0.0,-1,0.0,0.0,0.0,0,0.25,1.4441
86663,1620397478214,,,,,,,,0.03,0.14,0.17,1,1,-2,0.15,,82,7107,15,21,62,1.342,46.0,597,4.82,11.7,20.2,1,38.6,2.71,9.3,0,0,1,1,0,461,-23623,12552,461,,,,,,,,,,,,,,,,
86683,1620397478234,,,,,,,,0.04,0.15,-0.01,1,-0,-1,0.16,,82,7284,17,21,62,1.308,46.0,605,4.81,11.6,20.2,1,38.5,2.71,9.3,0,0,1,1,0,460,-18108,12552,460,,,,,,,,,,,,,,,,
86703,1620397478254,,,,,,,,0.02,0.08,-0.02,0,1,-0,0.08,,82,7284,17,21,62,1.264,46.7,609,4.89,11.7,20.2,1,38.4,2.72,9.3,0,0,1,1,0,461,30272,2211,467,,,,,,,,,,,,,,,,
86723,1620397478274,,,,,,,,-0.02,0.06,-0.02,0,2,-1,0.06,,82,7373,17,21,62,1.212,46.5,618,4.83,11.6,20.2,1,38.3,2.72,9.3,0,0,1,1,0,462,17628,-23623,464,,,,,,,,,,,,,,,,
86743,1620397478294,-0,3,32,32,32,33,1,-0.05,0.03,0.06,0,2,-1,0.06,0,82,7681,17,21,63,1.175,46.1,619,4.86,11.6,20.2,1,38.4,2.86,9.3,0,0,1,1,0,461,12552,6193,456,45.846745,5.179101,47.67,218.7,5,2,2.8,0,0.0,-1,0.0,,0.0,0,0.25,1.4457
86763,1620397478314,,,,,,,,-0.02,0.07,-0.11,-0,1,-1,0.07,,82,7681,17,21,62,1.147,45.9,633,4.92,11.7,20.4,1,38.0,2.72,9.5,0,0,1,1,0,461,-18108,-18108,460,,,,,,,,,,,,,,,,
86783,1620397478334,,,,,,,,0.06,0.16,-0.16,-0,1,-2,0.17,,82,7884,17,21,62,1.101,46.0,633,4.75,11.6,20.4,1,37.9,2.72,9.5,0,0,1,1,0,465,14488,243,464,,,,,,,,,,,,,,,,
86803,1620397478354,,,,,,,,0.14,0.14,-0.02,-0,0,-1,0.19,,82,7948,17,21,61,1.073,46.3,636,4.87,11.7,20.4,1,37.8,2.57,9.5,0,0,1,1,0,472,6193,-17956,463,,,,,,,,,,,,,,,,
86823,1620397478374,,,,,,,,0.16,0.12,-0.19,-0,-0,-1,0.2,,82,7874,15,21,60,1.065,47.2,638,4.92,11.6,20.4,1,37.6,2.55,9.5,0,0,1,1,0,481,10432,-6441,472,,,,,,,,,,,,,,,,
86843,1620397478394,-1,2,34,36,29,31,3,0.2,0.09,-0.05,-0,-1,-1,0.22,0,82,7615,13,21,58,1.062,47.1,630,4.88,11.7,20.4,1,37.4,2.51,9.5,0,0,1,1,0,488,-3210,-6441,469,45.846752,5.179087,48.0,218.7,5,2,2.8,0,0.0,-1,0.0,0.0,0.0,0,0.25,1.4474
86863,1620397478414,,,,,,,,0.17,0.07,0.05,0,-3,-2,0.18,,82,7292,11,21,57,1.056,47.0,611,4.88,11.6,18.0,1,37.0,2.44,8.5,0,0,1,1,0,481,32033,8488,466,,,,,,,,,,,,,,,,
86883,1620397478434,,,,,,,,0.14,0.06,0.21,0,-1,-1,0.15,,82,7145,11,21,55,1.052,47.0,606,4.85,11.7,18.0,1,36.3,2.39,8.5,0,0,1,1,0,479,8488,16648,472,,,,,,,,,,,,,,,,
86903,1620397478454,,,,,,,,0.15,0.06,0.03,0,2,1,0.16,,82,7134,10,21,54,1.05,47.0,606,4.79,11.7,18.0,1,36.0,2.32,8.5,0,0,1,1,0,474,8488,3576,474,,,,,,,,,,,,,,,,
86923,1620397478474,,,,,,,,0.15,0.07,-0.14,0,1,1,0.17,,81,7189,10,21,53,1.052,47.2,614,4.86,11.7,18.0,1,35.8,2.32,8.5,0,0,0,1,0,471,32033,-1923,471,,,,,,,,,,,,,,,,
86943,1620397478496,-1,2,33,34,32,33,2,0.16,0.02,-0.17,0,0,-0,0.16,0,81,7231,10,21,52,1.055,47.7,612,4.9,11.8,18.0,1,35.5,2.32,8.5,0,0,0,1,0,473,2212,8488,469,45.846764,5.179064,48.34,218.8,5,2,2.8,0,0.0,-1,0.0,,0.0,0,0.25,1.449
86963,1620397478516,,,,,,,,0.11,0.03,-0.16,0,0,-1,0.11,,81,7315,11,21,51,1.058,47.4,616,4.88,11.8,16.5,1,35.4,2.33,7.8,0,0,0,1,0,471,32033,32033,474,,,,,,,,,,,,,,,,
86983,1620397478536,,,,,,,,0.07,0.01,0.02,0,0,-1,0.07,,81,7566,12,21,50,1.053,47.1,628,4.9,11.8,16.5,1,35.4,2.35,7.8,0,0,0,1,0,472,32033,32033,468,,,,,,,,,,,,,,,,
87003,1620397478556,,,,,,,,0.03,0.06,-0.07,0,-0,-1,0.06,,81,7566,12,21,50,1.046,47.2,630,4.83,11.9,16.5,1,35.7,2.36,7.8,0,0,0,1,0,471,-9203,-1923,471,,,,,,,,,,,,,,,,
87023,1620397478576,,,,,,,,0.06,0.07,-0.23,1,1,-0,0.09,,81,7799,13,21,49,1.038,47.3,636,4.91,11.8,16.5,1,35.8,2.38,7.8,0,0,0,1,0,472,30272,-1923,473,,,,,,,,,,,,,,,,
87043,1620397478596,1,0,32,34,32,33,2,0.05,0.09,-0.26,1,0,0,0.1,0,81,7799,13,21,49,1.033,47.4,638,4.91,11.8,16.5,1,36.2,2.4,7.8,0,0,0,1,0,471,3576,8488,469,45.846767,5.179049,48.82,218.8,5,2,2.8,0,0.0,-1,0.0,0.0,0.0,0,0.25,1.4507
87063,1620397478616,,,,,,,,0.03,0.01,-0.41,1,-0,-0,0.03,,81,7988,13,21,48,1.025,47.5,642,4.86,11.8,18.6,1,36.5,2.41,8.8,0,0,0,1,0,473,-17956,8488,470,,,,,,,,,,,,,,,,
87083,1620397478636,,,,,,,,0.07,0.03,-0.45,0,1,0,0.08,,81,8040,13,21,47,1.011,47.1,644,4.86,11.8,18.6,1,36.6,2.45,8.8,0,0,0,1,0,479,-3210,32033,473,,,,,,,,,,,,,,,,
87103,1620397478656,,,,,,,,0.13,0.02,-0.39,0,-0,1,0.13,,81,7888,13,21,47,1.0,47.4,643,4.88,11.8,18.6,1,36.2,2.4,8.8,0,0,0,1,0,483,-9203,-1562,469,,,,,,,,,,,,,,,,
87123,1620397478676,,,,,,,,0.15,0.02,-0.52,0,2,1,0.15,,81,7637,13,21,46,0.992,47.8,633,4.82,11.8,18.6,1,34.8,2.35,8.8,0,0,0,1,0,487,16648,-1818,474,,,,,,,,,,,,,,,,
87143,1620397478696,1,1,34,34,30,31,3,0.16,0.05,-0.65,0,1,1,0.17,0,81,7405,13,21,47,0.982,48.0,634,4.85,11.8,18.6,1,34.6,2.32,8.8,0,0,0,1,0,485,10432,-10483,480,45.846775,5.179034,48.92,218.8,5,2,2.8,0,0.0,-1,0.0,,0.0,0,0.25,1.4524
87163,1620397478716,,,,,,,,0.16,0.05,-0.76,1,2,1,0.17,,81,7307,12,21,47,0.98,48.2,623,4.8,11.8,16.3,1,34.3,2.31,7.8,0,0,0,1,0,485,-899,3580,479,,,,,,,,,,,,,,,,
87183,1620397478736,,,,,,,,0.13,0.02,-0.86,1,1,0,0.13,,81,7370,12,21,47,0.976,48.4,622,4.87,11.8,16.3,1,34.5,2.32,7.8,0,0,0,1,0,481,-10483,10305,475,,,,,,,,,,,,,,,,
87203,1620397478756,,,,,,,,0.11,0.04,-0.81,1,2,-0,0.11,,81,7527,12,21,47,0.973,48.2,632,4.88,11.8,16.3,1,34.7,2.33,7.8,0,0,0,1,0,478,-899,-17956,478,,,,,,,,,,,,,,,,
87223,1620397478776,,,,,,,,0.07,0.07,-0.79,1,1,0,0.09,,81,7527,12,21,47,0.97,47.9,636,4.87,11.9,16.3,1,35.0,2.34,7.8,0,0,0,1,0,479,10305,2212,474,,,,,,,,,,,,,,,,
87243,1620397478796,-1,2,32,34,32,33,3,0.06,0.09,-0.89,1,2,0,0.11,0,81,7615,12,21,47,0.965,47.6,635,4.85,11.9,16.3,1,35.3,2.35,7.8,0,0,0,1,0,478,-9203,16648,476,45.846783,5.179019,49.43,218.8,5,2,2.8,0,0.0,-1,0.0,0.0,0.0,0,0.25,1.4541
87263,1620397478816,,,,,,,,0.08,0.1,-0.86,1,0,-0,0.13,,81,7716,12,21,46,0.959,48.0,643,4.91,11.8,17.5,1,35.0,2.36,8.3,0,0,0,1,0,478,8488,-9203,472,,,,,,,,,,,,,,,,
87283,1620397478836,,,,,,,,0.11,0.1,-0.8,1,0,-0,0.15,,81,7796,12,21,46,0.955,48.2,640,4.8,11.8,17.5,1,35.2,2.37,8.3,0,0,0,1,0,481,-1923,16648,475,,,,,,,,,,,,,,,,
87303,1620397478856,,,,,,,,0.09,0.08,-0.81,1,-0,-0,0.13,,81,7812,12,21,45,0.948,48.5,643,4.82,11.9,17.5,1,34.6,2.37,8.3,0,0,0,1,0,482,16648,-899,480,,,,,,,,,,,,,,,,
87323,1620397478876,,,,,,,,0.04,0.04,-0.87,1,-1,-1,0.05,,81,7738,12,21,45,0.94,48.2,637,4.88,11.9,17.5,1,34.5,2.36,8.3,0,0,0,1,0,483,-23367,3580,478,,,,,,,,,,,,,,,,
87343,1620397478896,1,2,32,31,31,32,3,0.05,-0.0,-0.87,1,-1,-1,0.05,0,81,7659,12,21,45,0.927,48.0,631,4.86,11.8,17.5,1,34.3,2.35,8.3,0,0,0,1,0,483,10305,-10483,480,45.846786,5.179004,49.53,218.8,5,2,2.8,0,0.0,-1,0.0,,0.0,0,0.26,1.4557
87363,1620397478916,,,,,,,,0.02,0.01,-0.97,1,-1,-0,0.02,,81,7591,11,21,45,0.916,48.1,633,4.91,11.8,17.1,1,34.1,2.34,8.2,0,0,0,1,0,484,16648,-1562,478,,,,,,,,,,,,,,,,
87383,1620397478936,,,,,,,,-0.01,-0.01,-0.98,1,1,-0,0.02,,81,7503,11,21,45,0.91,48.0,634,4.84,11.8,17.1,1,34.0,2.34,8.2,0,0,0,1,0,485,-10483,3580,480,,,,,,,,,,,,,,,,
87403,1620397478956,,,,,,,,-0.02,-0.02,-1.07,1,0,-1,0.03,,81,7467,11,21,45,0.907,47.8,627,4.91,11.8,17.1,1,33.8,2.34,8.2,0,0,0,1,0,483,2212,8488,481,,,,,,,,,,,,,,,,
87423,1620397478976,,,,,,,,-0.07,-0.0,-1.01,1,1,-1,0.07,,81,7494,11,21,44,0.903,48.2,633,4.89,11.8,17.1,1,33.4,2.34,8.2,0,0,0,1,0,481,32033,-23367,475,,,,,,,,,,,,,,,,
87443,1620397478996,-1,2,32,31,32,33,3,-0.11,0.01,-0.99,1,-0,-1,0.11,0,81,7578,10,21,44,0.9,47.9,641,4.88,11.8,17.1,1,33.5,2.34,8.2,0,0,0,1,0,478,10305,-899,482,45.846786,5.179004,49.53,218.8,5,2,2.8,0,0.0,-1,0.0,0.0,0.0,0,0.26,1.4574
87463,1620397479003,,,,,,,,-0.1,0.0,-0.98,1,0,-1,0.1,,81,7578,10,21,43,0.898,48.2,641,4.93,11.9,17.2,1,33.1,2.34,8.2,0,0,0,1,0,481,-899,2212,481,,,,,,,,,,,,,,,,
87483,1620397479023,,,,,,,,-0.07,-0.04,-1.07,1,-0,-1,0.08,,81,7628,10,21,43,0.9,47.8,636,4.88,11.8,17.2,1,33.2,2.34,8.2,0,0,0,1,0,478,16648,16648,476,,,,,,,,,,,,,,,,
87503,1620397479043,,,,,,,,-0.03,0.0,-1.14,1,2,-1,0.03,,81,7656,10,21,42,0.902,47.9,635,4.82,11.8,17.2,1,32.6,2.34,8.2,0,0,0,1,0,479,2212,-23367,479,,,,,,,,,,,,,,,,
87523,1620397479063,,,,,,,,0.01,0.05,-1.07,2,-1,-1,0.05,,81,7687,10,21,42,0.903,48.0,644,4.79,11.8,17.2,1,32.6,2.34,8.2,0,0,0,1,0,480,8488,16648,478,,,,,,,,,,,,,,,,
87543,1620397479095,1,2,31,33,32,33,3,0.03,0.04,-1.02,2,-0,-1,0.05,0,81,7706,10,21,41,0.904,47.9,638,4.79,11.9,17.2,1,32.1,2.34,8.2,0,0,0,1,0,480,10305,16648,472,45.846802,5.178973,49.7,218.8,5,3,2.8,0,0.0,-1,0.0,,0.0,0,0.26,1.459
87563,1620397479115,,,,,,,,0.04,0.04,-0.86,2,-2,-2,0.06,,81,7659,9,21,40,0.902,48.0,641,4.82,11.9,17.4,1,31.5,2.34,8.3,0,0,0,1,0,480,8488,3580,477,,,,,,,,,,,,,,,,
87583,1620397479135,,,,,,,,0.02,-0.01,-0.75,2,-3,-2,0.02,,81,7594,9,21,40,0.9,47.9,630,4.8,11.9,17.4,1,31.5,2.34,8.3,0,0,0,1,0,478,10305,32033,473,,,,,,,,,,,,,,,,
87603,1620397479155,,,,,,,,-0.01,0.02,-0.56,2,-3,-2,0.02,,81,7500,9,21,39,0.899,47.5,633,4.84,11.9,17.4,1,31.0,2.34,8.3,0,0,0,1,0,481,-17956,32033,475,,,,,,,,,,,,,,,,
87623,1620397479175,,,,,,,,-0.02,0.03,-0.38,2,-3,-2,0.04,,81,7455,9,21,39,0.897,47.8,630,4.78,11.9,17.4,1,31.0,2.34,8.3,0,0,0,1,0,477,2212,16648,478,,,,,,,,,,,,,,,,
87643,1620397479195,1,1,31,30,31,33,4,-0.0,0.01,-0.4,2,-3,-2,0.01,0,81,7434,9,21,39,0.892,48.2,630,4.83,11.9,17.4,1,31.0,2.34,8.3,0,0,0,1,0,478,32033,-17956,482,45.846806,5.178957,49.36,218.8,5,3,2.8,0,0.0,-1,0.0,0.0,0.0,0,0.26,1.4607
87663,1620397479215,,,,,,,,0.0,-0.0,-0.44,2,-2,-2,0.0,,81,7452,9,21,39,0.889,47.4,631,4.8,11.9,16.7,1,31.0,2.34,8.0,0,0,0,1,0,476,-9203,-23367,479,,,,,,,,,,,,,,,,
87683,1620397479235,,,,,,,,0.06,0.06,-0.57,2,-3,-2,0.09,,81,7419,9,21,38,0.885,47.6,639,4.85,11.9,16.7,1,30.7,2.28,8.0,0,0,0,1,0,474,-23367,3576,470,,,,,,,,,,,,,,,,
87703,1620397479255,,,,,,,,0.09,0.09,-0.69,2,-1,-1,0.13,,81,7428,9,21,38,0.88,47.7,633,4.78,11.9,16.7,1,30.7,2.28,8.0,0,0,0,1,0,478,16648,-9203,474,,,,,,,,,,,,,,,,
87723,1620397479275,,,,,,,,0.11,0.08,-0.8,2,-1,-1,0.14,,81,7405,9,21,38,0.875,47.3,641,4.85,11.8,16.7,1,30.7,2.28,8.0,0,0,0,1,0,476,-16384,-1923,474,,,,,,,,,,,,,,,,
87743,1620397479295,-0,2,30,34,32,34,4,0.13,0.1,-0.9,2,1,-0,0.16,0,81,7381,9,21,38,0.865,47.6,630,4.83,11.8,16.7,1,30.7,2.34,8.0,0,0,0,1,0,479,8488,-23367,473,45.846809,5.178943,49.52,218.8,5,3,2.8,0,0.0,-1,0.0,,0.0,0,0.26,1.4624
87763,1620397479315,,,,,,,,0.12,0.1,-0.99,2,0,-0,0.16,,81,7370,9,21,38,0.86,48.1,635,4.87,11.8,16.5,1,30.7,2.28,7.8,0,0,0,1,0,475,10305,-9203,478,,,,,,,,,,,,,,,,
87783,1620397479335,,,,,,,,0.11,0.07,-1.08,2,2,0,0.13,,81,7358,9,21,38,0.85,47.2,633,4.85,11.8,16.5,1,30.7,2.28,7.8,0,0,0,1,0,474,16648,3576,472,,,,,,,,,,,,,,,,
87803,1620397479355,,,,,,,,0.05,0.08,-0.94,3,0,-1,0.1,,81,7344,9,21,38,0.844,47.5,626,4.86,11.8,16.5,1,30.7,2.28,7.8,0,0,0,1,0,473,-17956,32033,467,,,,,,,,,,,,,,,,
87823,1620397479375,,,,,,,,0.03,0.06,-0.7,3,-0,-2,0.07,,81,7327,9,21,38,0.84,47.7,627,4.83,11.9,16.5,1,30.7,2.28,7.8,0,0,0,1,0,474,2212,32033,468,,,,,,,,,,,,,,,,
87843,1620397479396,-1,2,29,30,33,33,4,0.01,0.03,-0.47,3,-1,-2,0.03,0,81,7309,9,21,38,0.832,47.6,616,4.89,11.9,16.5,1,30.7,2.28,7.8,0,0,0,1,0,475,30272,10432,476,45.846817,5.178927,49.23,218.7,5,3,2.8,0,0.0,-1,0.0,0.0,0.0,0,0.26,1.4641
87863,1620397479416,,,,,,,,-0.01,0.09,-0.47,3,-2,-2,0.1,,81,7292,9,21,38,0.828,47.4,633,4.81,11.9,16.3,1,30.7,2.28,7.7,0,0,0,1,0,473,-9203,-9203,471,,,,,,,,,,,,,,,,
87883,1620397479436,,,,,,,,0.05,0.12,-0.59,3,-1,-2,0.13,,81,7292,9,21,38,0.823,48.2,621,4.81,11.8,16.3,1,30.7,2.28,7.7,0,0,0,1,0,473,-899,-1923,471,,,,,,,,,,,,,,,,
87903,1620397479456,,,,,,,,0.07,0.12,-0.71,3,-1,-1,0.14,,81,7292,9,21,38,0.818,47.5,628,4.8,11.9,16.3,1,30.7,2.28,7.7,0,0,0,1,0,473,-17956,10432,475,,,,,,,,,,,,,,,,
87923,1620397479476,,,,,,,,0.08,0.08,-0.82,3,2,-1,0.12,,81,7295,9,21,38,0.814,47.1,616,4.8,11.8,16.3,1,30.7,2.28,7.7,0,0,0,1,0,471,32033,32033,466,,,,,,,,,,,,,,,,
87943,1620397479495,-1,2,31,33,32,33,4,0.04,0.08,-0.69,3,-1,-1,0.09,0,81,7292,9,21,38,0.812,47.2,617,4.89,11.8,16.3,1,30.7,2.28,7.7,0,0,0,1,0,472,-16384,-16384,466,45.846825,5.178913,48.5,218.7,5,3,2.8,0,0.0,-1,0.0,,0.0,0,0.26,1.4657
87963,1620397479515,,,,,,,,-0.02,0.09,-0.46,3,-1,-1,0.1,,81,7273,9,21,38,0.808,46.8,620,4.87,11.9,16.3,1,30.7,2.28,7.6,0,0,0,1,0,467,8488,8488,468,,,,,,,,,,,,,,,,
87983,1620397479535,,,,,,,,-0.04,0.08,-0.29,3,-1,-2,0.09,,81,7292,9,21,38,0.807,47.3,620,4.86,11.9,16.3,1,30.7,2.28,7.6,0,0,0,1,0,470,3576,30272,466,,,,,,,,,,,,,,,,
88003,1620397479555,,,,,,,,-0.06,0.11,-0.3,3,-1,-1,0.13,,81,7344,9,21,38,0.805,47.5,625,4.87,11.9,16.3,1,30.7,2.28,7.6,0,0,0,1,0,465,-17956,6193,464,,,,,,,,,,,,,,,,
88023,1620397479575,,,,,,,,-0.04,0.06,-0.43,3,0,-1,0.08,,81,7399,8,21,37,0.802,46.9,624,4.85,11.9,16.3,1,30.4,2.23,7.6,0,0,0,1,0,460,10432,6193,468,,,,,,,,,,,,,,,,
88043,1620397479595,-1,2,30,32,34,35,4,-0.01,0.1,-0.56,2,0,-1,0.1,0,81,7393,8,21,37,0.802,46.8,633,4.81,11.8,16.3,1,30.4,2.23,7.6,0,0,0,1,0,463,-16384,17628,461,45.846828,5.178897,48.69,218.7,5,3,2.8,0,0.0,-1,0.0,0.0,0.0,0,0.26,1.4674
88063,1620397479615,,,,,,,,0.03,0.13,-0.64,2,0,-1,0.14,,81,7393,8,21,37,0.802,46.4,627,4.77,11.8,16.3,1,30.4,2.23,7.6,0,0,0,1,0,462,2211,-3210,464,,,,,,,,,,,,,,,,
88083,1620397479635,,,,,,,,0.05,0.11,-0.75,3,1,-0,0.12,,81,7384,8,21,37,0.802,46.4,634,4.86,11.9,16.3,1,30.4,2.23,7.6,0,0,0,1,0,466,-3210,12552,464,,,,,,,,,,,,,,,,
88103,1620397479655,,,,,,,,0.07,0.11,-0.85,2,3,1,0.13,,81,7387,8,21,37,0.802,47.0,623,4.8,11.9,16.3,1,30.4,2.23,7.6,0,0,0,1,0,467,-18108,16408,464,,,,,,,,,,,,,,,,
88123,1620397479675,,,,,,,,0.09,0.1,-0.95,2,2,1,0.13,,81,7324,8,21,37,0.803,47.0,627,4.86,11.8,16.3,1,30.4,2.23,7.6,0,0,0,1,0,464,8488,12552,461,,,,,,,,,,,,,,,,
88143,1620397479695,-0,2,30,30,33,34,3,0.04,0.06,-0.74,2,2,1,0.07,0,81,7324,8,21,37,0.804,46.5,621,4.9,11.9,16.3,1,30.4,2.23,7.6,0,0,0,1,0,463,30272,-18108,462,45.846836,5.178883,48.24,218.7,5,3,2.8,0,0.0,-1,0.0,,0.0,0,0.27,1.469
88163,1620397479715,,,,,,,,-0.03,0.03,-0.51,2,1,-0,0.04,,81,7275,8,21,37,0.805,46.3,618,4.88,11.9,16.1,1,30.4,2.23,7.5,0,0,0,1,0,462,6193,12552,458,,,,,,,,,,,,,,,,
88183,1620397479735,,,,,,,,-0.05,0.03,-0.3,2,-2,-1,0.06,,81,7290,8,21,36,0.806,46.1,622,4.85,11.9,16.1,1,30.1,2.18,7.5,0,0,0,1,0,462,2211,2211,461,,,,,,,,,,,,,,,,
88203,1620397479755,,,,,,,,-0.02,0.02,-0.36,2,-0,-1,0.03,,81,7275,8,21,36,0.806,46.4,624,4.88,11.9,16.1,1,30.1,2.18,7.5,0,0,0,1,0,461,-3210,-23623,464,,,,,,,,,,,,,,,,
88223,1620397479775,,,,,,,,0.0,0.09,-0.5,2,-0,0,0.09,,81,7253,8,21,36,0.807,46.5,622,4.85,11.9,16.1,1,30.1,2.18,7.5,0,0,0,1,0,463,-18108,12552,462,,,,,,,,,,,,,,,,
88243,1620397479795,-1,3,31,31,32,33,2,0.02,0.08,-0.62,2,1,1,0.08,0,81,7270,8,21,36,0.808,46.8,624,4.83,11.9,16.1,1,30.1,2.18,7.5,0,0,0,1,0,461,-16384,-18108,459,45.84684,5.178867,48.0,218.7,5,3,2.8,0,0.0,-1,0.0,0.0,0.0,0,0.27,1.4707
88263,1620397479815,,,,,,,,-0.01,0.06,-0.74,2,2,1,0.06,,81,7259,8,21,36,0.809,46.3,630,4.84,11.8,15.7,1,30.1,2.18,7.3,0,0,0,1,0,456,6193,17628,460,,,,,,,,,,,,,,,,
88283,1620397479835,,,,,,,,-0.05,0.01,-0.51,2,1,-0,0.05,,81,7281,8,21,36,0.809,45.7,627,4.86,11.8,15.7,1,30.1,2.18,7.3,0,0,0,1,0,457,-9160,14488,454,,,,,,,,,,,,,,,,
88303,1620397479855,,,,,,,,-0.08,0.02,-0.3,2,-0,-1,0.08,,81,7250,8,21,36,0.808,45.6,630,4.89,11.9,15.7,1,30.1,2.18,7.3,0,0,0,1,0,456,14488,-9160,455,,,,,,,,,,,,,,,,
88323,1620397479875,,,,,,,,-0.1,0.04,-0.29,2,-1,-1,0.11,,81,7228,8,21,36,0.807,45.3,622,4.82,11.9,15.7,1,30.1,1.01,7.3,0,0,0,1,0,455,8488,2524,457,,,,,,,,,,,,,,,,
88343,1620397479895,2,5,30,32,32,34,2,-0.05,0.07,-0.44,1,1,1,0.09,0,80,7194,8,21,36,0.806,45.9,610,4.82,12.0,15.7,1,30.1,2.18,7.3,0,0,0,1,0,456,-18108,-26615,454,45.846844,5.178852,47.67,218.7,5,3,2.8,0,0.0,-1,0.0,,0.0,0,0.27,1.4724
88363,1620397479915,,,,,,,,-0.06,0.05,-0.57,1,2,1,0.08,,81,7205,8,21,36,0.805,46.0,622,4.87,11.8,15.8,1,30.1,2.18,7.2,0,0,0,1,0,452,-18108,-3267,460,,,,,,,,,,,,,,,,
88383,1620397479935,,,,,,,,-0.09,0.03,-0.35,1,1,-0,0.1,,81,7161,8,21,36,0.803,45.6,617,4.83,11.8,15.8,1,30.1,2.23,7.2,0,0,0,1,0,450,14488,-8985,456,,,,,,,,,,,,,,,,
88403,1620397479955,,,,,,,,-0.13,0.0,-0.16,1,-0,-1,0.13,,81,7181,8,21,36,0.802,45.3,612,4.87,11.9,15.8,1,30.1,2.18,7.2,0,0,0,1,0,451,-8985,-3267,450,,,,,,,,,,,,,,,,
88423,1620397479975,,,,,,,,-0.14,0.05,-0.31,1,-1,-0,0.15,,81,7102,8,21,37,0.8,45.3,609,4.87,11.9,15.8,1,30.4,2.23,7.2,0,0,0,1,0,448,-8985,3571,450,,,,,,,,,,,,,,,,
88443,1620397479995,5,11,30,29,33,34,2,-0.1,0.04,-0.45,1,3,1,0.11,0,81,7102,8,21,37,0.799,44.9,609,4.82,11.7,15.8,1,30.4,2.23,7.2,0,0,0,1,0,448,20625,16648,449,45.846844,5.178852,47.67,218.7,5,3,2.8,0,0.0,-1,0.0,0.0,0.0,0,0.27,1.4741
88463,1620397480002,,,,,,,,-0.18,-0.0,-0.25,1,-1,-0,0.18,,81,7080,8,21,37,0.798,44.9,611,4.85,11.8,16.4,1,30.4,2.23,7.3,0,0,0,1,0,442,15649,21432,449,,,,,,,,,,,,,,,,
88483,1620397480022,,,,,,,,-0.18,0.02,-0.06,1,-3,-1,0.18,,80,7062,8,21,37,0.798,45.3,608,4.83,11.9,16.4,1,30.4,2.23,7.3,0,0,0,1,0,446,-8985,16648,455,,,,,,,,,,,,,,,,
88503,1620397480042,,,,,,,,-0.18,0.05,-0.22,0,1,1,0.19,,81,7019,8,21,37,0.798,44.4,603,4.87,12.0,16.4,1,30.4,2.23,7.3,0,0,0,1,0,446,20625,-18341,444,,,,,,,,,,,,,,,,
88523,1620397480062,,,,,,,,-0.24,-0.03,-0.04,-0,-0,1,0.25,,81,6972,8,21,37,0.797,44.3,608,4.81,11.8,16.4,1,30.3,2.23,7.3,0,0,0,1,0,441,23400,-18341,443,,,,,,,,,,,,,,,,
88543,1620397480094,7,12,29,27,34,35,0,-0.22,0.05,0.13,0,-1,0,0.23,0,81,6936,8,21,37,0.798,44.3,605,4.89,12.0,16.4,1,30.3,2.23,7.3,0,0,0,1,0,436,21580,5600,437,45.846855,5.178823,46.59,218.7,5,3,2.8,0,0.0,-1,0.0,,0.0,0,0.27,1.4757
88563,1620397480114,,,,,,,,-0.19,-0.0,-0.04,-0,2,3,0.19,,81,6936,8,21,37,0.798,43.9,601,4.82,11.8,16.2,1,30.3,2.23,7.1,0,0,0,1,0,432,243,19477,439,,,,,,,,,,,,,,,,
88583,1620397480134,,,,,,,,-0.25,-0.03,0.13,-0,-3,0,0.25,,81,6895,8,21,38,0.799,43.8,602,4.85,11.8,16.2,1,30.5,2.28,7.1,0,0,0,1,0,431,-7939,-7939,438,,,,,,,,,,,,,,,,
88603,1620397480154,,,,,,,,-0.21,-0.02,-0.05,-0,2,2,0.21,,80,6813,8,21,37,0.799,43.6,595,4.87,12.0,16.2,1,30.2,2.23,7.1,0,0,0,1,0,432,-768,243,436,,,,,,,,,,,,,,,,
88623,1620397480174,,,,,,,,-0.25,-0.03,0.12,0,-1,0,0.25,,80,6813,8,21,38,0.8,43.4,589,4.86,11.9,16.2,1,30.4,2.28,7.1,0,0,0,1,0,426,243,31796,434,,,,,,,,,,,,,,,,
88643,1620397480195,10,14,28,28,35,37,0,-0.26,0.0,-0.06,-0,-2,1,0.26,0,80,6793,8,21,38,0.801,43.2,586,4.9,12.0,16.2,1,30.4,2.23,7.1,0,0,0,1,0,417,13552,-4082,427,45.846863,5.178809,45.78,218.6,5,3,2.8,0,0.0,-1,0.0,0.0,0.0,0,0.27,1.4774
88663,1620397480215,,,,,,,,-0.25,-0.08,0.12,0,-4,-0,0.26,,81,6764,8,21,38,0.802,42.6,585,4.86,11.8,16.5,1,30.4,2.28,7.1,0,0,0,1,0,419,13552,-21792,423,,,,,,,,,,,,,,,,
88683,1620397480235,,,,,,,,-0.24,-0.0,-0.06,-0,0,2,0.24,,80,6706,8,21,38,0.803,42.3,573,4.88,11.9,16.5,1,30.3,2.28,7.1,0,0,0,1,0,420,-3414,-21792,426,,,,,,,,,,,,,,,,
88703,1620397480255,,,,,,,,-0.25,-0.11,-0.22,-0,-3,1,0.27,,81,6684,8,21,38,0.802,42.4,574,4.81,11.8,16.5,1,30.3,2.28,7.1,0,0,0,1,0,414,-3414,7154,424,,,,,,,,,,,,,,,,
88723,1620397480275,,,,,,,,-0.27,-0.01,-0.24,-1,1,3,0.27,,80,6641,8,21,38,0.803,42.0,575,4.82,11.9,16.5,1,30.3,2.28,7.1,0,0,0,1,0,410,-8165,-21944,419,,,,,,,,,,,,,,,,
88743,1620397480294,9,16,27,28,35,38,-0,-0.26,-0.1,-0.05,-1,-4,-0,0.28,0,80,6641,8,21,38,0.802,42.0,574,4.91,11.9,16.5,1,30.2,2.28,7.1,0,0,0,1,0,403,-8165,13040,419,45.846867,5.178794,44.72,218.6,5,3,2.8,0,0.0,-1,0.0,,0.0,0,0.27,1.4791
88763,1620397480314,,,,,,,,-0.25,-0.08,-0.22,-1,2,2,0.26,,80,6565,8,21,38,0.802,40.8,573,4.85,11.9,17.0,1,30.2,2.28,7.0,0,0,0,1,0,406,2524,10392,408,,,,,,,,,,,,,,,,
88783,1620397480334,,,,,,,,-0.27,-0.06,-0.03,-1,-0,2,0.28,,81,6553,8,21,38,0.802,41.1,560,4.88,12.0,17.0,1,30.1,2.28,7.0,0,0,0,1,0,398,10392,1504,413,,,,,,,,,,,,,,,,
88803,1620397480354,,,,,,,,-0.28,-0.11,-0.19,0,-7,-1,0.3,,81,6553,8,21,38,0.802,41.1,560,4.89,11.9,17.0,1,30.1,2.28,7.0,0,0,0,1,0,400,-26615,6512,411,,,,,,,,,,,,,,,,
88823,1620397480374,,,,,,,,-0.25,-0.04,-0.34,0,0,2,0.25,,80,6499,8,21,38,0.802,40.9,565,4.82,11.9,17.0,1,30.0,2.28,7.0,0,0,0,1,0,397,-9211,11545,409,,,,,,,,,,,,,,,,
88843,1620397480394,11,16,26,27,35,36,0,-0.32,0.0,-0.15,0,-5,0,0.32,0,81,6521,8,21,39,0.803,40.2,566,4.9,11.9,17.0,1,30.4,2.34,7.0,0,0,0,1,0,400,10541,11545,400,45.84687,5.178781,43.6,218.7,5,3,2.8,0,0.0,-1,0.0,0.0,0.0,0,0.28,1.4807
88863,1620397480414,,,,,,,,-0.27,-0.09,-0.3,-0,-6,-1,0.29,,81,6430,8,21,39,0.803,40.1,563,4.78,11.8,17.4,1,30.3,2.34,7.0,0,0,0,1,0,392,17144,6384,399,,,,,,,,,,,,,,,,
88883,1620397480434,,,,,,,,-0.32,-0.1,-0.44,-1,-1,2,0.34,,80,6321,8,21,39,0.804,40.3,562,4.87,12.0,17.4,1,30.2,2.34,7.0,0,0,0,1,0,386,-8151,1,401,,,,,,,,,,,,,,,,
88903,1620397480454,,,,,,,,-0.35,0.02,-0.24,-1,5,3,0.35,,80,6321,8,21,39,0.805,39.4,560,4.93,12.0,17.4,1,30.1,2.34,7.0,0,0,0,1,0,382,-31744,240,396,,,,,,,,,,,,,,,,
88923,1620397480474,,,,,,,,-0.45,0.07,-0.05,-1,2,1,0.46,,80,6220,8,21,39,0.806,39.4,547,4.85,11.9,17.4,1,30.0,2.34,7.0,0,0,0,1,0,380,-6524,-31744,394,,,,,,,,,,,,,,,,
88943,1620397480494,10,14,26,27,35,36,-1,-0.5,0.14,0.12,-1,-7,-2,0.52,0,81,6135,8,21,40,0.806,39.1,530,4.88,11.9,17.4,1,30.0,2.34,7.0,0,0,0,1,0,382,-3866,-31744,391,45.846878,5.178768,42.08,218.7,5,3,2.8,0,0.0,-1,0.0,,0.0,0,0.28,1.4824
88963,1620397480514,,,,,,,,-0.5,0.15,0.27,-1,-9,-4,0.52,,80,5986,8,21,41,0.806,38.7,524,4.82,11.9,16.7,1,30.0,2.35,6.5,0,0,0,1,0,384,-19126,-18948,387,,,,,,,,,,,,,,,,
88983,1620397480534,,,,,,,,-0.53,0.15,0.42,-2,-9,-3,0.56,,81,5870,8,21,42,0.805,38.7,513,4.85,11.9,16.7,1,29.9,2.4,6.5,0,0,0,1,0,369,19125,-18948,380,,,,,,,,,,,,,,,,
