"Interval"|"ms"|0|0|1,"Utc"|"ms"|0|0|1,"Brake_F"|"Bar"|0|2000|10,"Brake_R"|"Bar"|0|2000|10,"Height_RF"|"mm"|0|255|10,"Height_LF"|"mm"|0|255|10,"Height_LR"|"mm"|0|80|10,"Height_RR"|"mm"|0|255|10,"Steering"|"deg"|-100|100|10,"AccelX"|"G"|-3.0|3.0|50,"AccelY"|"G"|-3.0|3.0|50,"AccelZ"|"G"|-3.0|3.0|50,"Yaw"|"Deg/Sec"|-120|120|50,"Pitch"|"Deg/Sec"|-120|120|50,"Roll"|"Deg/Sec"|-120|120|50,"Gsum"|"G"|0.0|3.0|50,"Log_Button"|""|0.0|10.0|10,"WaterTemp"|"C"|0|150|50,"RPM"|"tr/min"|0|14000|50,"TPS"|"%"|0|100|50,"AirTemp"|"C"|0|150|50,"MAP"|"KPa"|0|100|50,"Lambda"|""|0.5|1.5|50,"SpeedDTA"|"kph"|0.0|250.0|50,"OilPress"|"KPa"|0|1500|50,"FuelPressur"|"Bar"|0.0|10.0|50,"Batterie"|"V"|0.0|20.0|50,"ConsoKm"|"L/100km"|0.0|200.0|50,"Gear"|""|0|6|50,"AdvIgnition"|"Deg"|-20.0|70.0|50,"Injection"|"ms"|0.0|10.0|50,"ConsoHr"|"L/Hr"|0.0|10000.0|50,"LC_But_Pres"|""|0|1|50,"LC_Active"|""|0|1|50,"TractionOn"|""|0|1|50,"TractionWet"|""|0|1|50,"FanOn"|""|0|1|50,"RD_Speed"|"km/h"|-30|250|50,"RUD_Speed"|"km/h"|-30|250|50,"LD_Speed"|"km/h"|-30|250|50,"LUD_Speed"|"km/h"|-30|250|50,"Latitude"|"Degrees"|-180.0|180.0|10,"Longitude"|"Degrees"|-180.0|180.0|10,"Speed"|"kph"|0.0|150.0|10,"Altitude"|"m"|0.0|4000.0|10,"GPSSats"|""|0|20|10,"GPSQual"|""|0|5|10,"GPSDOP"|""|0.0|20.0|10,"LapCount"|""|0|0|10,"LapTime"|"Min"|0.0|0.0|10,"Sector"|""|0|0|10,"SectorTime"|"Min"|0.0|0.0|10,"PredTime"|"Min"|0.0|0.0|5,"ElapsedTime"|"Min"|0.0|0.0|10,"CurrentLap"|""|0|0|10,"Distance"|"km"|0.0|0.0|10,"SessionTime"|"Min"|0.0|0.0|10
90863,1620400658770,,,,,,,,0.0,-0.04,-0.78,-14,-2,2,0.04,,73,7548,11,22,41,0.784,47.1,659,4.83,11.9,17.2,1,32.0,2.34,8.1,0,0,0,1,0,473,32033,243,471,,,,,,,,,,,,,,,,
90883,1620400658790,,,,,,,,-0.03,-0.04,-0.6,-12,-3,2,0.05,,73,7557,11,22,41,0.785,47.6,660,4.85,12.0,17.2,1,32.0,2.34,8.1,0,0,0,1,0,475,-9203,30272,466,,,,,,,,,,,,,,,,
90903,1620400658810,,,,,,,,-0.01,0.01,-0.4,-10,-3,2,0.02,,74,7566,11,22,41,0.787,47.3,660,4.86,12.0,17.7,1,32.0,2.34,8.2,0,0,0,1,0,475,3576,30272,469,,,,,,,,,,,,,,,,
90923,1620400658830,,,,,,,,-0.04,-0.02,-0.53,-8,-4,1,0.04,,74,7563,11,22,41,0.789,47.4,661,4.9,12.0,17.7,1,32.0,2.34,8.2,0,0,0,1,0,475,-9203,6193,461,,,,,,,,,,,,,,,,
90943,1620400658850,-1,2,29,35,34,33,19,-0.04,0.07,-0.45,-5,-5,0,0.09,0,74,7563,11,22,41,0.791,47.7,661,4.77,12.0,17.7,1,32.0,2.34,8.2,0,0,0,1,0,477,2212,6193,456,45.846348,5.17964,48.75,217.7,6,3,3.3,0,0.0,-1,0.0,,0.0,0,0.23,1.5157
90963,1620400658870,,,,,,,,-0.07,0.13,-0.58,-3,-5,1,0.15,,74,7557,11,22,42,0.794,47.9,658,4.91,12.0,17.7,1,32.5,2.34,8.2,0,0,0,1,0,476,10305,-23623,461,,,,,,,,,,,,,,,,
90983,1620400658890,,,,,,,,-0.07,0.14,-0.7,-1,-4,1,0.16,,74,7557,11,22,41,0.798,47.7,662,4.91,12.0,17.7,1,32.0,2.34,8.2,0,0,0,1,0,476,2212,-18108,459,,,,,,,,,,,,,,,,
91003,1620400658910,,,,,,,,-0.1,0.21,-0.81,1,-5,-0,0.23,,74,7518,11,22,41,0.801,47.6,659,4.87,12.0,17.6,1,32.0,2.34,8.1,0,0,0,1,0,477,-23367,-18108,456,,,,,,,,,,,,,,,,
91023,1620400658930,,,,,,,,-0.09,0.22,-0.74,4,-4,-0,0.24,,74,7440,11,22,41,0.804,47.6,658,4.82,12.0,17.6,1,31.9,2.34,8.1,0,0,0,1,0,479,-17956,6193,450,,,,,,,,,,,,,,,,
91043,1620400658950,1,2,28,37,36,32,26,-0.11,0.24,-0.71,6,-4,-0,0.27,0,74,7378,11,22,42,0.809,47.8,660,4.89,12.0,17.6,1,32.3,2.34,8.1,0,0,0,1,0,479,16648,17628,456,45.846355,5.179628,48.73,217.7,6,3,3.3,0,0.0,-1,0.0,0.0,0.0,0,0.23,1.5174
91063,1620400658970,,,,,,,,-0.12,0.28,-0.48,8,-4,-0,0.31,,74,7307,11,22,42,0.811,48.1,658,4.9,12.0,17.6,1,32.2,2.33,8.1,0,0,0,1,0,480,-6441,2211,448,,,,,,,,,,,,,,,,
91083,1620400658990,,,,,,,,-0.07,0.4,-0.27,10,-4,0,0.4,,74,7307,11,22,42,0.813,48.0,659,4.87,12.0,17.6,1,32.2,2.33,8.1,0,0,0,1,0,480,16648,2524,453,,,,,,,,,,,,,,,,
91103,1620400658998,,,,,,,,-0.05,0.53,-0.33,12,-3,1,0.53,,74,7273,11,22,42,0.816,48.2,652,4.81,11.9,17.2,1,32.2,2.32,7.8,0,0,0,1,0,478,10305,-26615,453,,,,,,,,,,,,,,,,
91123,1620400659018,,,,,,,,-0.0,0.59,-0.47,14,-1,1,0.59,,74,7273,11,22,43,0.818,48.2,659,4.9,11.9,17.2,1,32.6,2.32,7.8,0,0,0,1,0,480,-899,3571,450,,,,,,,,,,,,,,,,
91143,1620400659038,1,3,27,39,37,31,31,-0.0,0.64,-0.6,16,-1,2,0.64,0,74,7275,11,22,43,0.821,47.8,660,4.9,12.0,17.2,1,32.6,2.32,7.8,0,0,0,1,0,479,8488,-3267,446,45.846367,5.179615,48.58,217.8,6,3,3.3,0,0.0,-1,0.0,,0.0,0,0.23,1.519
91163,1620400659058,,,,,,,,-0.02,0.57,-0.58,18,-1,2,0.57,,74,7290,11,22,43,0.823,47.9,666,4.91,12.0,17.2,1,32.6,2.33,7.8,0,0,0,1,0,479,3580,15649,450,,,,,,,,,,,,,,,,
91183,1620400659078,,,,,,,,-0.02,0.55,-0.58,20,-3,1,0.55,,74,7301,11,22,43,0.824,48.4,660,4.85,12.0,17.2,1,32.6,2.33,7.8,0,0,0,1,0,478,505,10305,449,,,,,,,,,,,,,,,,
91203,1620400659110,,,,,,,,-0.02,0.55,-0.36,22,-5,0,0.55,,74,7304,11,22,43,0.825,47.7,658,4.81,11.9,17.3,1,32.6,2.33,7.8,0,0,0,1,0,480,-10483,16648,446,,,,,,,,,,,,,,,,
91223,1620400659130,,,,,,,,-0.02,0.57,-0.19,23,-4,1,0.57,,74,7332,11,22,43,0.828,47.9,661,4.86,12.0,17.3,1,32.7,2.33,7.8,0,0,0,1,0,478,10305,16648,444,,,,,,,,,,,,,,,,
91243,1620400659150,-1,2,27,40,38,31,32,-0.03,0.66,-0.07,25,-3,1,0.66,0,74,7364,11,22,43,0.829,47.9,661,4.86,11.9,17.3,1,32.7,2.33,7.8,0,0,0,1,0,476,10305,16648,446,45.846374,5.179602,48.57,217.8,6,3,3.3,0,0.0,-1,0.0,0.0,0.0,0,0.23,1.5207
91263,1620400659170,,,,,,,,-0.01,0.74,-0.23,26,-3,1,0.74,,74,7381,11,22,43,0.832,46.8,665,4.83,11.9,17.3,1,32.8,2.33,7.8,0,0,0,1,0,478,-16384,21432,440,,,,,,,,,,,,,,,,
91283,1620400659190,,,,,,,,0.0,0.79,-0.37,28,-2,2,0.79,,74,7387,11,22,43,0.834,48.1,659,4.86,11.8,17.3,1,32.8,2.33,7.8,0,0,0,1,0,475,32033,-18341,444,,,,,,,,,,,,,,,,
91303,1620400659210,,,,,,,,0.0,0.79,-0.51,29,0,3,0.79,,74,7381,11,22,43,0.838,48.4,659,4.86,11.8,17.8,1,32.8,2.33,7.9,0,0,0,1,0,476,-10483,21432,442,,,,,,,,,,,,,,,,
91323,1620400659230,,,,,,,,0.02,0.82,-0.63,30,1,3,0.82,,74,7390,11,22,43,0.842,47.8,658,4.9,12.0,17.8,1,32.8,2.33,7.9,0,0,0,1,0,477,16648,26704,440,,,,,,,,,,,,,,,,
91343,1620400659250,1,3,26,37,39,31,33,0.01,0.82,-0.74,31,1,4,0.82,0,74,7399,12,22,44,0.849,47.5,661,4.9,11.9,17.8,1,33.2,2.33,7.9,0,0,0,1,0,475,-17956,2131,447,45.846382,5.179588,48.63,217.9,6,3,3.3,0,0.0,-1,0.0,,0.0,0,0.23,1.5224
91363,1620400659270,,,,,,,,-0.06,0.76,-0.85,32,2,4,0.76,,74,7387,12,22,44,0.852,47.5,664,4.86,11.9,17.8,1,33.2,2.33,7.9,0,0,0,1,0,473,-17956,21432,437,,,,,,,,,,,,,,,,
91383,1620400659290,,,,,,,,-0.08,0.71,-0.81,33,2,3,0.71,,74,7387,12,22,44,0.858,47.9,661,4.91,12.0,17.8,1,33.2,2.33,7.9,0,0,0,1,0,478,10305,21432,441,,,,,,,,,,,,,,,,
91403,1620400659310,,,,,,,,-0.1,0.7,-0.66,34,0,3,0.71,,74,7329,12,22,44,0.865,47.0,658,4.87,12.0,18.2,1,33.1,2.33,7.9,0,0,0,1,0,474,8488,16648,443,,,,,,,,,,,,,,,,
91423,1620400659330,,,,,,,,-0.14,0.78,-0.44,35,-1,2,0.79,,74,7318,12,22,45,0.873,47.4,662,4.87,12.0,18.2,1,33.5,2.32,7.9,0,0,0,1,0,475,-9203,10305,437,,,,,,,,,,,,,,,,
91443,1620400659350,1,0,27,41,38,31,34,-0.15,0.86,-0.24,35,-1,2,0.87,0,74,7270,12,22,45,0.877,47.5,661,4.81,11.9,18.2,1,33.4,2.31,7.9,0,0,0,1,0,474,-1923,10305,440,45.846386,5.179574,48.18,217.9,6,3,3.3,0,0.0,-1,0.0,0.0,0.0,0,0.23,1.524
91463,1620400659370,,,,,,,,-0.1,0.9,-0.27,36,-1,2,0.91,,74,7256,12,22,45,0.884,47.1,656,4.82,11.9,18.2,1,33.4,2.31,7.9,0,0,0,1,0,472,-1923,21432,437,,,,,,,,,,,,,,,,
91483,1620400659390,,,,,,,,-0.11,0.93,-0.42,36,2,3,0.93,,74,7211,12,22,46,0.886,47.0,658,4.87,11.8,18.2,1,33.6,2.3,7.9,0,0,0,1,0,468,10432,2131,442,,,,,,,,,,,,,,,,
91503,1620400659409,,,,,,,,-0.1,0.91,-0.55,36,1,3,0.92,,74,7172,12,22,47,0.888,47.1,656,4.86,11.9,17.2,1,33.9,2.3,7.6,0,0,0,1,0,470,32033,26704,438,,,,,,,,,,,,,,,,
91523,1620400659429,,,,,,,,-0.1,0.92,-0.34,37,-1,2,0.92,,74,7123,12,22,47,0.891,47.0,655,4.88,12.0,17.2,1,33.7,2.28,7.6,0,0,0,1,0,469,8488,26704,434,,,,,,,,,,,,,,,,
91543,1620400659449,0,1,27,38,39,31,30,-0.09,0.96,-0.23,37,1,2,0.97,0,74,7104,12,22,47,0.892,47.3,657,4.82,11.8,17.2,1,33.7,2.28,7.6,0,0,0,1,0,473,3576,20625,437,45.846394,5.179559,47.37,217.8,6,3,3.3,0,0.0,-1,0.0,,0.0,0,0.23,1.5257
91563,1620400659469,,,,,,,,-0.1,0.99,-0.38,38,2,4,0.99,,74,7051,12,22,48,0.893,46.9,648,4.91,11.9,17.2,1,33.8,2.27,7.6,0,0,0,1,0,471,10432,21580,439,,,,,,,,,,,,,,,,
91583,1620400659489,,,,,,,,-0.09,0.9,-0.23,38,1,2,0.9,,74,7048,12,22,48,0.895,47.1,652,4.94,12.0,17.2,1,33.8,2.27,7.6,0,0,0,1,0,467,32033,5600,434,,,,,,,,,,,,,,,,
91603,1620400659510,,,,,,,,-0.04,0.96,-0.37,38,5,4,0.96,,74,7030,12,22,48,0.895,46.7,654,4.83,12.0,16.7,1,33.7,2.27,7.3,0,0,0,1,0,467,243,5600,434,,,,,,,,,,,,,,,,
91623,1620400659530,,,,,,,,-0.06,0.96,-0.51,38,6,5,0.97,,74,6996,12,22,49,0.898,47.0,655,4.84,11.8,16.7,1,34.0,2.28,7.3,0,0,0,1,0,466,243,-7939,439,,,,,,,,,,,,,,,,
91643,1620400659550,-0,2,27,37,38,31,24,-0.05,0.9,-0.3,38,4,3,0.9,0,74,6988,12,22,49,0.902,46.2,658,4.88,12.0,16.7,1,34.0,2.28,7.3,0,0,0,1,0,464,10432,5600,434,45.846401,5.179544,48.75,217.7,6,3,3.3,0,0.0,-1,0.0,0.0,0.0,0,0.23,1.5274
91663,1620400659570,,,,,,,,-0.04,0.93,-0.11,38,3,3,0.93,,74,6939,12,22,49,0.908,46.6,655,4.82,11.9,16.7,1,33.8,2.28,7.3,0,0,0,1,0,464,-3210,5600,432,,,,,,,,,,,,,,,,
91683,1620400659590,,,,,,,,-0.04,0.88,-0.27,37,5,5,0.88,,74,6890,12,22,49,0.914,46.2,653,4.91,12.0,16.7,1,33.7,2.29,7.3,0,0,0,1,0,463,12552,5600,436,,,,,,,,,,,,,,,,
91703,1620400659607,,,,,,,,-0.03,0.83,-0.08,37,3,3,0.83,,74,6883,12,22,49,0.923,46.2,653,4.87,12.0,16.6,1,33.7,2.29,7.3,0,0,0,1,0,461,12552,-7939,437,,,,,,,,,,,,,,,,
91723,1620400659627,,,,,,,,-0.04,0.86,-0.24,36,6,4,0.86,,74,6828,12,22,50,0.936,45.9,648,4.89,11.9,16.6,1,33.9,1.12,7.3,0,0,0,1,0,461,-18108,19477,438,,,,,,,,,,,,,,,,
91743,1620400659647,-1,2,28,35,37,32,15,-0.05,0.76,-0.05,35,2,2,0.77,0,74,6788,12,22,50,0.958,46.3,646,4.91,12.0,16.6,1,33.8,2.3,7.3,0,0,0,1,0,460,-9160,19477,436,45.846405,5.179528,47.89,217.7,6,3,3.3,0,0.0,-1,0.0,,0.0,0,0.24,1.529
91763,1620400659667,,,,,,,,-0.04,0.78,-0.21,34,5,4,0.78,,74,6820,12,22,50,0.97,45.4,648,4.83,11.9,16.6,1,33.9,2.29,7.3,0,0,0,1,0,453,2524,-768,437,,,,,,,,,,,,,,,,
91783,1620400659687,,,,,,,,-0.06,0.67,-0.05,32,5,3,0.67,,74,6911,12,22,50,0.987,45.6,649,4.91,12.0,16.6,1,34.2,2.28,7.3,0,0,0,1,0,452,14488,5600,441,,,,,,,,,,,,,,,,
91803,1620400659709,,,,,,,,-0.09,0.64,0.12,31,3,2,0.65,,74,7040,12,22,50,1.014,45.1,648,4.84,12.0,16.7,1,34.5,2.27,7.3,0,0,0,1,0,448,3571,-3322,438,,,,,,,,,,,,,,,,
91823,1620400659729,,,,,,,,-0.08,0.61,-0.06,29,4,2,0.62,,74,7113,12,22,50,1.031,44.9,655,4.83,11.9,16.7,1,34.6,2.29,7.3,0,0,0,1,0,445,-3267,19477,435,,,,,,,,,,,,,,,,
91843,1620400659749,-1,2,29,30,35,33,1,-0.11,0.55,-0.22,27,5,2,0.56,0,74,7140,12,22,50,1.059,44.3,656,4.88,11.9,16.7,1,34.7,2.29,7.3,0,0,0,1,0,441,-18341,20625,440,45.846409,5.179512,46.31,217.5,6,3,3.3,0,0.0,-1,0.0,0.0,0.0,0,0.24,1.5307
91863,1620400659769,,,,,,,,-0.13,0.45,-0.03,25,2,1,0.46,,74,7107,12,22,50,1.076,44.4,656,4.9,12.0,16.7,1,34.6,2.29,7.3,0,0,0,1,0,443,21432,20625,444,,,,,,,,,,,,,,,,
91883,1620400659789,,,,,,,,-0.12,0.38,0.14,22,1,0,0.4,,74,7102,12,22,50,1.102,44.4,660,4.9,12.0,16.7,1,34.6,2.29,7.3,0,0,0,1,0,441,21580,26704,442,,,,,,,,,,,,,,,,
91903,1620400659809,,,,,,,,-0.1,0.36,-0.04,20,3,1,0.38,,74,7030,12,22,50,1.132,44.6,656,4.83,11.9,16.7,1,34.4,2.27,7.4,0,0,0,1,0,440,16648,23400,439,,,,,,,,,,,,,,,,
91923,1620400659829,,,,,,,,-0.13,0.26,-0.21,17,2,0,0.29,,74,7051,13,22,50,1.15,44.3,656,4.9,12.0,16.7,1,34.5,2.28,7.4,0,0,0,1,0,437,-28332,21432,443,,,,,,,,,,,,,,,,
91943,1620400659849,-0,2,33,31,31,34,-8,-0.1,0.18,-0.02,15,0,-1,0.2,0,74,7017,13,22,50,1.174,44.8,653,4.82,12.0,16.7,1,34.4,2.27,7.4,0,0,0,1,0,435,-7939,2131,448,45.846413,5.179496,45.94,217.4,6,3,3.3,0,0.0,-1,0.0,,0.0,0,0.24,1.5324
91963,1620400659869,,,,,,,,-0.11,0.19,-0.19,12,4,1,0.22,,74,7030,13,22,51,1.192,44.4,651,4.82,11.9,16.7,1,34.8,2.28,7.4,0,0,0,1,0,433,-768,-18341,444,,,,,,,,,,,,,,,,
91983,1620400659889,,,,,,,,-0.09,0.11,-0.34,10,4,1,0.15,,74,7025,14,22,51,1.202,45.0,650,4.89,11.9,16.7,1,34.8,2.28,7.4,0,0,0,1,0,432,-3414,-18341,444,,,,,,,,,,,,,,,,
92003,1620400659909,,,,,,,,-0.09,0.01,-0.14,7,3,-0,0.09,,74,7086,14,22,52,1.209,44.9,650,4.82,12.0,16.5,1,35.3,2.29,7.4,0,0,0,1,0,431,1779,16648,449,,,,,,,,,,,,,,,,
92023,1620400659929,,,,,,,,-0.09,0.01,-0.3,5,3,0,0.09,,74,7056,14,22,52,1.221,44.3,651,4.81,12.0,16.5,1,35.2,2.29,7.4,0,0,0,1,0,430,1779,16648,443,,,,,,,,,,,,,,,,
92043,1620400659949,1,2,34,29,31,36,-13,-0.1,-0.08,-0.44,2,4,1,0.13,0,74,7046,15,22,53,1.228,44.2,652,4.91,12.0,16.5,1,35.5,2.29,7.4,0,0,0,1,0,429,3635,21432,444,45.846416,5.179481,45.59,217.4,6,3,3.3,0,0.0,-1,0.0,0.0,0.0,0,0.24,1.534
92063,1620400659969,,,,,,,,-0.1,-0.13,-0.24,-0,4,-1,0.16,,74,7017,15,22,54,1.234,44.5,652,4.88,12.0,16.5,1,35.9,2.28,7.4,0,0,0,1,0,427,31796,10305,445,,,,,,,,,,,,,,,,
92083,1620400659989,,,,,,,,-0.12,-0.17,-0.3,-2,2,-0,0.21,,74,6944,15,22,54,1.238,44.8,656,4.82,11.8,16.5,1,35.7,2.29,7.4,0,0,0,1,0,426,31796,21432,448,,,,,,,,,,,,,,,,
92103,1620400659997,,,,,,,,-0.07,-0.23,-0.44,-4,3,-0,0.24,,74,6870,15,22,55,1.244,44.5,652,4.91,11.9,16.4,1,35.7,2.32,7.3,0,0,0,1,0,426,-3856,2131,450,,,,,,,,,,,,,,,,
92123,1620400660017,,,,,,,,-0.08,-0.23,-0.24,-6,-0,-1,0.24,,74,6773,15,22,55,1.243,44.1,653,4.8,12.0,16.4,1,35.4,2.31,7.3,0,0,0,1,0,427,-3856,-18341,441,,,,,,,,,,,,,,,,
92143,1620400660037,1,1,35,29,31,37,-15,-0.04,-0.26,-0.39,-7,1,-1,0.26,0,74,6677,15,22,56,1.234,44.3,644,4.9,12.0,16.4,1,35.4,2.33,7.3,0,0,0,1,0,423,7154,21432,443,45.84642,5.179464,45.65,217.3,6,3,3.3,0,0.0,-1,0.0,,0.0,0,0.24,1.5357
92163,1620400660057,,,,,,,,-0.08,-0.25,-0.19,-9,-1,-2,0.26,,74,6549,15,22,56,1.222,44.4,648,4.82,12.0,16.4,1,34.9,2.32,7.3,0,0,0,1,0,424,3635,23400,440,,,,,,,,,,,,,,,,
92183,1620400660077,,,,,,,,-0.07,-0.32,-0.0,-10,-6,-3,0.33,,74,6481,15,22,56,1.215,44.5,639,4.86,12.0,16.4,1,34.6,2.31,7.3,0,0,0,1,0,422,-3856,2131,445,,,,,,,,,,,,,,,,
92203,1620400660109,,,,,,,,-0.04,-0.36,-0.17,-12,0,0,0.37,,74,6452,15,22,57,1.21,44.3,633,4.88,11.9,15.4,1,34.8,2.32,6.9,0,0,0,1,0,417,-21792,19477,443,,,,,,,,,,,,,,,,
92223,1620400660129,,,,,,,,-0.14,-0.34,0.01,-13,-2,-1,0.37,,74,6674,15,22,57,1.215,44.1,638,4.83,11.9,15.4,1,35.7,2.35,6.9,0,0,0,1,0,412,-3414,-3322,441,,,,,,,,,,,,,,,,
92243,1620400660149,1,2,34,29,32,38,-13,-0.1,-0.29,-0.16,-14,-1,-0,0.31,0,74,6926,15,22,57,1.221,43.9,652,4.91,12.0,15.4,1,36.5,2.39,6.9,0,0,0,1,0,404,2524,1779,439,45.846424,5.179449,45.79,217.4,6,3,3.3,0,0.0,-1,0.0,0.0,0.0,0,0.24,1.5374
92263,1620400660169,,,,,,,,-0.1,-0.39,0.02,-15,-0,-1,0.4,,74,6998,15,22,58,1.228,43.7,652,4.86,12.0,15.4,1,37.1,2.44,6.9,0,0,0,1,0,406,7154,-768,438,,,,,,,,,,,,,,,,
92283,1620400660189,,,,,,,,-0.11,-0.32,-0.15,-16,-3,-0,0.34,,74,6993,15,22,58,1.237,43.4,656,4.86,12.0,15.4,1,37.1,2.44,6.9,0,0,0,1,0,413,-3414,5600,434,,,,,,,,,,,,,,,,
92303,1620400660209,,,,,,,,-0.06,-0.37,-0.3,-16,0,0,0.37,,74,6941,15,22,58,1.262,43.8,657,4.88,11.9,18.2,1,36.9,2.43,7.9,0,0,0,1,0,418,7154,243,438,,,,,,,,,,,,,,,,
92323,1620400660229,,,,,,,,-0.1,-0.34,-0.11,-16,-2,-1,0.36,,74,6825,15,22,58,1.277,43.8,650,4.82,12.0,18.2,1,36.5,2.41,7.9,0,0,0,1,0,418,-21944,243,438,,,,,,,,,,,,,,,,
92343,1620400660249,0,3,33,29,31,37,-6,-0.09,-0.35,-0.27,-16,0,-0,0.36,0,74,6722,15,22,58,1.297,43.2,646,4.91,12.0,18.2,1,36.0,2.38,7.9,0,0,0,1,0,420,7154,31796,432,45.846428,5.179433,45.26,217.5,6,3,3.3,0,0.0,-1,0.0,,0.0,0,0.24,1.539
92363,1620400660269,,,,,,,,-0.13,-0.28,-0.08,-16,-1,-2,0.31,,74,6572,14,22,58,1.324,43.6,640,4.85,12.0,18.2,1,35.6,2.36,7.9,0,0,0,1,0,418,-21944,-3322,428,,,,,,,,,,,,,,,,
92383,1620400660289,,,,,,,,-0.11,-0.33,-0.2,-16,-3,-2,0.35,,74,6432,14,22,57,1.344,43.1,636,4.9,12.0,18.2,1,34.8,2.32,7.9,0,0,0,1,0,420,-4059,1779,431,,,,,,,,,,,,,,,,
92403,1620400660309,,,,,,,,-0.12,-0.35,-0.35,-16,3,2,0.37,,74,6321,14,22,57,1.378,42.4,636,4.93,11.9,15.8,1,34.3,2.3,6.8,0,0,0,1,0,420,-3414,13180,424,,,,,,,,,,,,,,,,
92423,1620400660329,,,,,,,,-0.13,-0.3,-0.49,-16,9,3,0.32,,74,6355,14,22,57,1.397,42.5,636,4.86,11.9,15.8,1,34.4,2.3,6.8,0,0,0,1,0,417,-3856,3826,421,,,,,,,,,,,,,,,,
92443,1620400660349,-1,2,31,31,32,36,3,-0.18,-0.21,-0.28,-14,2,0,0.28,0,74,6597,14,22,57,1.424,42.2,645,4.81,11.9,15.8,1,35.4,2.35,6.8,0,0,0,1,0,413,18584,18584,422,45.846428,5.179417,44.41,217.5,6,3,3.3,0,0.0,-1,0.0,0.0,0.0,0,0.25,1.5407
92463,1620400660369,,,,,,,,-0.13,-0.14,-0.42,-13,3,3,0.19,,74,6991,14,22,57,1.447,42.1,647,4.87,11.8,15.8,1,36.8,2.4,6.8,0,0,0,1,0,413,-3414,-26615,421,,,,,,,,,,,,,,,,
92483,1620400660389,,,,,,,,-0.15,-0.2,-0.22,-12,5,2,0.25,,74,7083,14,22,57,1.46,41.9,657,4.9,12.0,15.8,1,36.9,2.41,6.8,0,0,0,1,0,417,-3414,-21944,418,,,,,,,,,,,,,,,,
92503,1620400660408,,,,,,,,-0.12,-0.14,-0.03,-11,2,1,0.18,,74,7137,14,22,57,1.481,41.9,655,4.87,12.0,18.6,1,36.9,2.42,7.9,0,0,0,1,0,417,7154,18584,417,,,,,,,,,,,,,,,,
92523,1620400660428,,,,,,,,-0.11,-0.09,-0.2,-9,-0,2,0.14,,74,7121,14,22,57,1.494,42.0,650,4.78,11.9,18.6,1,36.9,2.42,7.9,0,0,0,1,0,421,3826,-26615,415,,,,,,,,,,,,,,,,
92543,1620400660448,1,0,29,34,34,34,12,-0.07,-0.06,-0.35,-8,3,3,0.1,0,74,7102,14,22,57,1.498,41.7,653,4.91,11.9,18.6,1,36.9,2.42,7.9,0,0,0,1,0,420,-21944,-9166,410,45.846432,5.179402,43.7,217.3,6,3,3.3,0,0.0,-1,0.0,,0.0,0,0.25,1.5424
92563,1620400660468,,,,,,,,-0.08,-0.07,-0.15,-6,1,2,0.11,,74,7027,14,22,56,1.498,42.8,654,4.9,12.0,18.6,1,36.5,2.37,7.9,0,0,0,1,0,421,-8165,13040,411,,,,,,,,,,,,,,,,
92583,1620400660488,,,,,,,,-0.07,0.05,-0.22,-4,-1,2,0.09,,74,6888,14,22,56,1.498,42.2,650,4.86,12.0,18.6,1,36.1,2.35,7.9,0,0,0,1,0,422,-3414,2524,411,,,,,,,,,,,,,,,,
92603,1620400660508,,,,,,,,-0.07,0.04,-0.13,-2,-0,1,0.08,,74,6682,14,22,56,1.498,42.6,648,4.89,12.0,17.9,1,35.4,2.33,7.3,0,0,0,1,0,425,13552,-26615,411,,,,,,,,,,,,,,,,
92623,1620400660528,,,,,,,,-0.08,0.11,-0.29,-0,3,3,0.13,,74,6410,15,22,57,1.479,42.6,647,4.82,11.9,17.9,1,34.7,2.32,7.3,0,0,0,1,0,425,13552,-3414,409,,,,,,,,,,,,,,,,
92643,1620400660548,-1,2,30,35,36,31,20,-0.14,0.23,-0.1,2,-4,1,0.27,0,74,6323,16,22,57,1.458,42.0,646,4.86,11.9,17.9,1,34.3,2.3,7.3,0,0,0,1,0,425,-8165,11560,405,45.846436,5.179387,43.9,217.2,6,3,3.3,0,0.0,-1,0.0,0.0,0.0,0,0.25,1.544
92663,1620400660568,,,,,,,,-0.09,0.28,0.08,3,-5,0,0.3,,74,6336,18,22,59,1.431,42.5,640,4.91,12.0,17.9,1,34.9,2.32,7.3,0,0,0,1,0,425,-3856,2524,408,,,,,,,,,,,,,,,,
92683,1620400660588,,,,,,,,-0.07,0.23,-0.1,5,-5,1,0.24,,74,6399,21,22,61,1.409,42.6,641,4.87,11.9,17.9,1,35.7,2.36,7.3,0,0,0,1,0,427,1779,10392,408,,,,,,,,,,,,,,,,
92703,1620400660604,,,,,,,,-0.05,0.31,0.08,6,-0,2,0.32,,74,6576,22,22,65,1.409,42.8,641,4.88,11.9,20.0,1,37.5,2.88,8.1,0,0,0,1,0,427,13180,1504,405,,,,,,,,,,,,,,,,
92723,1620400660624,,,,,,,,-0.05,0.28,-0.09,8,-0,1,0.29,,74,6756,23,22,67,1.409,42.6,642,4.87,12.0,20.0,1,39.0,3.36,8.1,0,0,0,1,0,424,31796,1504,408,,,,,,,,,,,,,,,,
92743,1620400660644,1,2,29,36,36,31,25,-0.1,0.28,0.08,10,-4,1,0.29,0,74,6959,23,22,69,1.409,42.8,646,4.84,11.8,20.0,1,40.7,3.58,8.1,0,0,0,1,0,425,13180,1504,405,45.846439,5.179372,43.74,217.2,6,2,3.3,0,0.0,-1,0.0,,0.0,0,0.25,1.5457
92763,1620400660664,,,,,,,,0.02,0.34,-0.09,11,-4,2,0.34,,74,7099,23,22,72,1.409,42.4,647,4.83,11.8,20.0,1,41.6,3.75,8.1,0,0,0,1,0,424,-3414,-26615,407,,,,,,,,,,,,,,,,
92783,1620400660684,,,,,,,,0.02,0.31,-0.23,13,-3,2,0.31,,74,7062,23,22,73,1.409,42.7,654,4.92,12.0,20.0,1,42.0,3.8,8.1,0,0,0,1,0,428,31796,-21944,400,,,,,,,,,,,,,,,,
92803,1620400660708,,,,,,,,0.05,0.35,-0.04,14,-3,2,0.36,,74,6921,23,22,74,1.409,43.1,652,4.86,12.0,30.4,1,42.0,3.86,12.3,0,0,0,1,0,431,3826,243,405,,,,,,,,,,,,,,,,
92823,1620400660728,,,,,,,,0.03,0.38,-0.21,15,-2,2,0.38,,74,6737,23,22,76,1.409,43.6,645,4.88,11.9,30.4,1,41.4,3.95,12.3,0,0,0,1,0,433,5600,-3856,408,,,,,,,,,,,,,,,,
92843,1620400660748,0,0,30,40,34,30,26,0.02,0.44,-0.02,16,-4,1,0.44,0,74,6551,23,22,77,1.409,43.0,640,4.81,11.8,30.4,1,40.5,4.09,12.3,0,0,0,1,0,431,243,-3322,408,45.846447,5.179358,42.66,217.2,6,3,3.3,0,0.0,-1,0.0,0.0,0.0,0,0.25,1.5474
92863,1620400660768,,,,,,,,0.09,0.39,-0.19,17,-6,0,0.4,,74,6646,24,22,77,1.407,43.0,645,4.87,12.0,30.4,1,41.2,4.06,12.3,0,0,0,1,0,430,-3314,18584,404,,,,,,,,,,,,,,,,
92883,1620400660788,,,,,,,,0.07,0.43,-0.01,18,-0,2,0.44,,74,6835,24,22,78,1.407,42.9,642,4.87,11.9,30.4,1,42.6,4.03,12.3,0,0,0,1,0,433,-768,2524,409,,,,,,,,,,,,,,,,
92903,1620400660808,,,,,,,,0.08,0.39,-0.17,19,1,1,0.4,,74,6959,24,22,78,1.408,42.9,648,4.91,12.0,31.2,1,43.5,3.98,12.8,0,0,0,1,0,434,3635,-8165,412,,,,,,,,,,,,,,,,
92923,1620400660828,,,,,,,,0.05,0.37,0.01,20,-5,-0,0.38,,74,7035,24,22,79,1.409,43.4,650,4.86,12.0,31.2,1,43.9,3.99,12.8,0,0,0,1,0,437,-768,2131,411,,,,,,,,,,,,,,,,
92943,1620400660848,0,1,30,37,35,30,25,0.08,0.47,-0.12,21,-0,1,0.47,0,74,7019,24,22,79,1.404,43.8,653,4.8,11.9,31.2,1,44.1,3.98,12.8,0,0,0,1,0,442,23400,20625,411,45.846447,5.179343,42.98,217.2,6,3,3.3,0,0.0,-1,0.0,,0.0,0,0.25,1.549
92963,1620400660868,,,,,,,,0.06,0.44,-0.27,22,-2,1,0.44,,74,6903,24,22,79,1.393,43.9,644,4.86,11.9,31.2,1,43.4,4.01,12.8,0,0,0,1,0,441,-28332,-768,410,,,,,,,,,,,,,,,,
92983,1620400660888,,,,,,,,0.06,0.52,-0.08,22,-3,0,0.52,,74,6722,24,22,80,1.379,43.7,646,4.77,11.9,31.2,1,42.5,4.1,12.8,0,0,0,1,0,440,20625,-3322,414,,,,,,,,,,,,,,,,
93003,1620400660908,,,,,,,,0.1,0.43,-0.24,23,-3,1,0.44,,74,6718,24,22,80,1.365,43.8,643,4.9,12.0,30.3,1,42.5,4.11,12.7,0,0,0,1,0,438,21580,31796,410,,,,,,,,,,,,,,,,
93023,1620400660928,,,,,,,,0.08,0.48,-0.06,23,1,1,0.49,,74,6860,24,22,80,1.338,43.9,649,4.84,12.0,30.3,1,43.5,4.04,12.7,0,0,0,1,0,436,-28332,3826,416,,,,,,,,,,,,,,,,
93043,1620400660948,-1,3,30,37,35,29,29,0.09,0.54,-0.22,24,3,2,0.54,0,74,7048,24,22,80,1.318,44.1,647,4.89,11.9,30.3,1,44.2,4.01,12.7,0,0,0,1,0,441,20625,-3856,412,45.846451,5.179328,42.61,217.2,6,3,3.3,0,0.0,-1,0.0,0.0,0.0,0,0.25,1.5507
93063,1620400660968,,,,,,,,0.1,0.48,-0.2,25,-0,1,0.49,,74,7129,25,22,81,1.292,43.8,653,4.83,11.9,30.3,1,43.8,4.09,12.7,0,0,0,1,0,443,21580,-7939,416,,,,,,,,,,,,,,,,
93083,1620400660988,,,,,,,,0.07,0.49,-0.02,25,-1,1,0.49,,74,7200,25,22,81,1.265,44.3,656,4.8,12.0,30.3,1,43.2,4.14,12.7,0,0,0,1,0,443,-18341,26704,412,,,,,,,,,,,,,,,,
93103,1620400660998,,,,,,,,0.12,0.52,0.15,26,-1,1,0.53,,74,7192,26,22,81,1.241,44.5,650,4.82,11.8,33.0,1,43.3,4.13,13.9,0,0,0,1,0,449,21432,2131,417,,,,,,,,,,,,,,,,
93123,1620400661018,,,,,,,,0.13,0.57,-0.03,26,1,1,0.58,,74,7175,26,22,82,1.248,44.9,649,4.85,11.9,33.0,1,43.6,4.14,13.9,0,0,0,1,0,451,15649,6193,420,,,,,,,,,,,,,,,,
93143,1620400661038,-0,2,31,41,34,28,29,0.14,0.6,-0.19,27,2,2,0.62,0,74,7161,26,22,82,1.252,44.7,652,4.88,11.9,33.0,1,43.7,4.13,13.9,0,0,0,1,0,451,10305,-1923,424,45.846451,5.179313,42.68,217.2,6,3,3.3,0,0.0,-1,0.0,,0.0,0,0.25,1.5524
93163,1620400661058,,,,,,,,0.14,0.49,-0.27,27,1,2,0.51,,74,7281,26,22,82,1.259,44.1,658,4.88,11.9,33.0,1,42.6,4.24,13.9,0,0,0,1,0,453,-8985,-3210,423,,,,,,,,,,,,,,,,
93183,1620400661078,,,,,,,,0.11,0.53,-0.31,28,-0,2,0.54,,74,7352,25,22,82,1.259,45.6,653,4.86,12.0,33.0,1,42.0,4.29,13.9,0,0,0,1,0,457,14488,15649,427,,,,,,,,,,,,,,,,
93203,1620400661110,,,,,,,,0.1,0.5,-0.14,29,-0,1,0.51,,74,7419,25,22,82,1.233,46.3,653,4.86,12.0,34.5,1,41.4,4.34,14.8,0,0,0,1,0,463,6193,16408,427,,,,,,,,,,,,,,,,
93223,1620400661130,,,,,,,,0.08,0.53,-0.11,30,-2,1,0.53,,74,7500,25,22,81,1.218,46.2,657,4.82,12.0,34.5,1,40.7,4.4,14.8,0,0,0,1,0,467,12552,248,424,,,,,,,,,,,,,,,,
93243,1620400661150,1,0,32,38,35,28,32,0.12,0.55,-0.12,30,-2,2,0.57,0,74,7621,24,22,81,1.192,46.1,659,4.87,12.0,34.5,1,39.7,4.44,14.8,0,0,0,1,0,469,2211,243,430,45.846455,5.179297,44.06,217.1,6,3,3.3,0,0.0,-1,0.0,0.0,0.0,0,0.25,1.554
93263,1620400661170,,,,,,,,0.13,0.54,-0.28,31,-1,2,0.55,,74,7674,23,22,80,1.172,46.6,657,4.86,11.9,34.5,1,39.5,4.37,14.8,0,0,0,1,0,471,-23623,6193,427,,,,,,,,,,,,,,,,
93283,1620400661190,,,,,,,,0.15,0.53,-0.42,32,-0,2,0.55,,74,7603,21,22,78,1.155,45.9,653,4.89,11.9,34.5,1,40.3,4.24,14.8,0,0,0,1,0,475,243,32033,435,,,,,,,,,,,,,,,,
93303,1620400661210,,,,,,,,0.17,0.5,-0.56,32,-0,2,0.53,,74,7473,20,22,76,1.143,47.5,656,4.87,12.0,33.6,1,41.2,2.92,14.6,0,0,0,1,0,481,-17956,2524,437,,,,,,,,,,,,,,,,
93323,1620400661230,,,,,,,,0.17,0.48,-0.61,33,-0,2,0.51,,74,7387,19,22,75,1.127,48.1,659,4.88,11.9,33.6,1,41.2,4.02,14.6,0,0,0,1,0,483,32033,-23623,440,,,,,,,,,,,,,,,,
93343,1620400661250,0,1,32,44,35,28,32,0.15,0.47,-0.54,33,-1,2,0.5,0,74,7367,19,22,74,1.103,47.7,654,4.88,11.9,33.6,1,41.1,3.89,14.6,0,0,0,1,0,480,2212,2212,437,45.846455,5.179282,45.13,217.2,6,3,3.3,0,0.0,-1,0.0,,0.0,0,0.26,1.5557
93363,1620400661270,,,,,,,,0.11,0.49,-0.41,34,-1,2,0.5,,74,7413,18,22,73,1.072,47.8,654,4.88,12.0,33.6,1,40.8,3.84,14.6,0,0,0,1,0,481,16648,10432,442,,,,,,,,,,,,,,,,
93383,1620400661290,,,,,,,,0.07,0.52,-0.29,34,-1,1,0.53,,74,7539,18,22,71,1.031,47.4,656,4.81,12.0,33.6,1,40.0,3.8,14.6,0,0,0,1,0,479,-9203,-23623,443,,,,,,,,,,,,,,,,
93403,1620400661308,,,,,,,,0.06,0.48,-0.33,34,-1,1,0.48,,74,7640,17,22,70,0.98,47.8,665,4.89,12.0,29.7,1,39.5,3.76,13.2,0,0,0,1,0,483,16648,3,447,,,,,,,,,,,,,,,,
93423,1620400661328,,,,,,,,0.04,0.51,-0.47,35,0,1,0.51,,74,7805,17,22,68,0.949,48.2,662,4.83,12.0,29.7,1,38.8,3.62,13.2,0,0,0,1,0,481,-9203,8488,454,,,,,,,,,,,,,,,,
93443,1620400661348,0,3,31,42,35,28,32,0.09,0.53,-0.51,35,1,2,0.54,0,74,7881,16,22,66,0.918,48.0,665,4.91,11.9,29.7,1,38.3,3.33,13.2,0,0,0,1,0,486,8488,32033,447,45.846458,5.179265,45.78,217.2,6,3,3.3,0,0.0,-1,0.0,0.0,0.0,0,0.26,1.5574
93463,1620400661368,,,,,,,,0.16,0.57,-0.34,35,-1,2,0.59,,74,7858,16,22,63,0.885,48.1,666,4.81,11.9,29.7,1,38.0,3.02,13.2,0,0,0,1,0,488,32033,10408,452,,,,,,,,,,,,,,,,
93483,1620400661388,,,,,,,,0.14,0.52,-0.25,36,-1,1,0.54,,74,7835,15,22,61,0.859,48.4,662,4.86,12.0,29.7,1,37.8,2.57,13.2,0,0,0,1,0,491,-10483,-3856,451,,,,,,,,,,,,,,,,
93503,1620400661409,,,,,,,,0.13,0.53,-0.35,36,-0,2,0.55,,74,7851,14,22,59,0.84,48.8,657,4.85,12.0,20.4,1,37.5,2.54,9.3,0,0,0,1,0,496,1,-23367,456,,,,,,,,,,,,,,,,
93523,1620400661429,,,,,,,,0.14,0.58,-0.49,37,-1,1,0.6,,74,7805,13,22,57,0.815,49.2,668,4.88,11.8,20.4,1,37.2,2.51,9.3,0,0,0,1,0,496,-32768,-22519,457,,,,,,,,,,,,,,,,
93543,1620400661449,0,2,32,42,36,28,33,0.17,0.67,-0.39,37,-0,1,0.7,0,74,7776,12,22,55,0.802,49.3,664,4.8,11.9,20.4,1,36.9,2.47,9.3,0,0,0,1,0,501,-6528,-6656,456,45.846455,5.179248,47.38,217.1,6,3,3.3,0,0.0,-1,0.0,,0.0,0,0.26,1.5591
93563,1620400661469,,,,,,,,0.16,0.68,-0.19,37,-2,1,0.7,,74,7747,11,22,53,0.78,49.4,662,4.86,12.0,20.4,1,36.5,2.46,9.3,0,0,0,1,0,499,998,-6441,454,,,,,,,,,,,,,,,,
93583,1620400661489,,,,,,,,0.14,0.71,-0.12,37,-2,0,0.72,,74,7700,11,22,51,0.762,49.1,663,4.88,12.0,20.4,1,36.2,2.42,9.3,0,0,0,1,0,497,248,248,461,,,,,,,,,,,,,,,,
93603,1620400661509,,,,,,,,0.11,0.75,-0.21,37,-1,1,0.76,,74,7684,11,22,50,0.756,49.1,663,4.92,12.0,18.6,1,36.0,2.39,8.5,0,0,0,1,0,495,248,-6528,455,,,,,,,,,,,,,,,,
93623,1620400661529,,,,,,,,0.08,0.7,-0.36,37,-0,2,0.71,,74,7653,11,22,49,0.751,48.7,662,4.91,11.9,18.6,1,35.7,2.38,8.5,0,0,0,1,0,496,505,-17956,460,,,,,,,,,,,,,,,,
93643,1620400661549,-1,2,30,40,37,28,32,0.07,0.71,-0.42,37,0,1,0.71,0,74,7678,11,22,48,0.748,49.5,665,4.9,11.9,18.6,1,35.6,2.37,8.5,0,0,0,1,0,494,771,1,466,45.846455,5.179231,48.23,217.2,6,3,3.3,0,0.0,-1,0.0,0.0,0.0,0,0.26,1.5607
93663,1620400661569,,,,,,,,0.07,0.67,-0.55,37,0,2,0.67,,74,7665,11,22,47,0.744,50.0,660,4.9,11.9,18.6,1,35.5,2.36,8.5,0,0,0,1,0,493,10408,-21872,463,,,,,,,,,,,,,,,,
93683,1620400661589,,,,,,,,0.11,0.76,-0.67,37,2,2,0.77,,74,7719,11,22,46,0.744,49.0,667,4.91,11.9,18.6,1,35.1,2.36,8.5,0,0,0,1,0,500,-1818,243,459,,,,,,,,,,,,,,,,
93703,1620400661609,,,,,,,,0.13,0.78,-0.57,37,1,2,0.79,,74,7741,11,22,45,0.747,49.6,667,4.86,11.9,18.0,1,34.5,2.36,8.4,0,0,0,1,0,497,771,3576,466,,,,,,,,,,,,,,,,
93723,1620400661629,,,,,,,,0.09,0.87,-0.36,38,-1,2,0.88,,74,7712,11,22,44,0.75,50.0,663,4.81,12.0,18.0,1,33.8,2.35,8.4,0,0,0,1,0,494,248,3576,456,,,,,,,,,,,,,,,,
93743,1620400661649,1,2,29,41,37,30,31,0.07,0.91,-0.28,38,-1,2,0.92,0,74,7728,11,22,44,0.752,49.7,665,4.78,11.9,18.0,1,33.9,2.35,8.4,0,0,0,1,0,497,-9216,8488,463,45.846455,5.179213,48.83,217.0,6,3,3.3,0,0.0,-1,0.0,,0.0,0,0.26,1.5624
93763,1620400661669,,,,,,,,0.02,0.84,-0.37,39,-2,2,0.84,,74,7631,11,22,43,0.755,50.0,662,4.83,12.0,18.0,1,33.2,2.34,8.4,0,0,0,1,0,496,-6528,32033,462,,,,,,,,,,,,,,,,
93783,1620400661689,,,,,,,,0.01,0.84,-0.41,39,-0,2,0.84,,74,7649,11,22,43,0.757,49.6,660,4.84,12.0,18.0,1,33.2,2.35,8.4,0,0,0,1,0,495,3,10432,462,,,,,,,,,,,,,,,,
93803,1620400661709,,,,,,,,-0.03,0.86,-0.54,39,-0,3,0.86,,74,7588,11,22,43,0.759,49.4,662,4.88,11.9,17.5,1,33.1,2.34,8.2,0,0,0,1,0,495,998,243,458,,,,,,,,,,,,,,,,
93823,1620400661729,,,,,,,,-0.07,0.85,-0.66,39,1,3,0.85,,74,7603,11,22,43,0.761,49.6,662,4.86,11.9,17.5,1,33.1,2.34,8.2,0,0,0,1,0,495,3,243,462,,,,,,,,,,,,,,,,
93843,1620400661749,0,3,27,38,39,30,30,-0.08,0.84,-0.77,40,0,3,0.84,0,74,7563,11,22,42,0.763,49.4,659,4.87,11.9,17.5,1,32.5,2.34,8.2,0,0,0,1,0,496,998,3576,463,45.846451,5.179196,49.58,216.8,6,3,3.3,0,0.0,-1,0.0,0.0,0.0,0,0.26,1.564
93863,1620400661769,,,,,,,,-0.07,0.92,-0.88,40,2,2,0.92,,74,7539,11,22,42,0.764,49.6,657,4.9,11.8,17.5,1,32.5,2.34,8.2,0,0,0,1,0,495,3,30272,460,,,,,,,,,,,,,,,,
93883,1620400661789,,,,,,,,-0.11,0.87,-0.97,40,3,3,0.88,,74,7485,11,22,42,0.765,49.5,657,4.92,11.9,17.5,1,32.4,2.34,8.2,0,0,0,1,0,494,771,6193,459,,,,,,,,,,,,,,,,
93903,1620400661809,,,,,,,,-0.11,0.91,-1.06,40,4,3,0.91,,74,7479,11,22,42,0.767,49.1,662,4.88,12.0,17.6,1,32.4,2.34,8.1,0,0,0,1,0,492,248,2211,457,,,,,,,,,,,,,,,,
93923,1620400661829,,,,,,,,-0.12,0.91,-1.13,40,4,4,0.92,,74,7449,11,22,42,0.768,49.4,656,4.9,11.9,17.6,1,32.4,2.34,8.1,0,0,0,1,0,490,-1818,-18108,453,,,,,,,,,,,,,,,,
93943,1620400661849,-1,2,27,38,38,30,31,-0.11,0.91,-1.21,40,5,3,0.92,0,74,7464,11,22,42,0.768,49.1,655,4.86,11.9,17.6,1,32.4,2.34,8.1,0,0,0,1,0,489,-32768,17628,456,45.846447,5.179178,49.2,216.7,6,3,3.3,0,0.0,-1,0.0,,0.0,0,0.26,1.5657
93963,1620400661869,,,,,,,,-0.13,0.91,-1.27,40,5,4,0.92,,74,7488,10,22,42,0.768,48.7,658,4.9,11.9,17.6,1,32.4,2.34,8.1,0,0,0,1,0,489,32033,14488,457,,,,,,,,,,,,,,,,
93983,1620400661889,,,,,,,,-0.11,0.88,-1.33,40,7,4,0.88,,74,7494,10,22,42,0.768,49.0,662,4.87,11.9,17.6,1,32.4,2.34,8.1,0,0,0,1,0,489,771,14488,452,,,,,,,,,,,,,,,,
94003,1620400661910,,,,,,,,-0.14,0.83,-1.39,41,6,3,0.84,,74,7488,10,22,42,0.769,49.8,661,4.88,11.9,17.7,1,32.4,2.34,8.1,0,0,0,1,0,487,771,-26615,456,,,,,,,,,,,,,,,,
94023,1620400661930,,,,,,,,-0.15,0.84,-1.44,41,7,4,0.85,,74,7461,10,22,41,0.77,48.7,661,4.85,11.9,17.7,1,31.9,2.34,8.1,0,0,0,1,0,491,-32768,-26615,456,,,,,,,,,,,,,,,,
94043,1620400661950,0,1,27,36,39,31,25,-0.18,0.84,-1.36,41,5,4,0.86,0,74,7455,10,22,42,0.771,48.8,661,4.91,11.9,17.7,1,32.4,2.34,8.1,0,0,0,1,0,488,1,-26615,458,45.846443,5.179162,49.56,216.6,6,3,3.3,0,0.0,-1,0.0,0.0,0.0,0,0.27,1.5674
94063,1620400661970,,,,,,,,-0.18,0.8,-1.41,40,6,3,0.82,,74,7455,10,22,42,0.772,48.8,663,4.87,11.9,17.7,1,32.4,2.34,8.1,0,0,0,1,0,481,3580,-26615,456,,,,,,,,,,,,,,,,
94083,1620400661990,,,,,,,,-0.21,0.74,-1.44,40,6,3,0.77,,74,7455,10,22,41,0.773,47.6,662,4.86,11.9,17.7,1,31.9,2.34,8.1,0,0,0,1,0,483,505,14488,460,,,,,,,,,,,,,,,,
94103,1620400661999,,,,,,,,-0.2,0.71,-1.26,39,6,3,0.74,,74,7449,10,22,41,0.775,48.7,659,4.92,12.0,17.6,1,31.9,2.34,8.0,0,0,0,1,0,481,16648,-26615,457,,,,,,,,,,,,,,,,
94123,1620400662019,,,,,,,,-0.2,0.65,-1.12,38,4,2,0.68,,74,7452,10,22,41,0.779,48.8,658,4.89,12.0,17.6,1,31.9,2.34,8.0,0,0,0,1,0,482,8488,-26615,454,,,,,,,,,,,,,,,,
94143,1620400662039,-1,1,28,38,37,32,14,-0.2,0.63,-0.86,37,5,2,0.66,0,74,7396,10,22,41,0.781,48.0,661,4.86,12.0,17.6,1,31.9,2.34,8.0,0,0,0,1,0,479,8488,-9160,458,45.846436,5.179146,49.48,216.5,6,3,3.3,0,0.0,-1,0.0,,0.0,0,0.27,1.5691
94163,1620400662059,,,,,,,,-0.21,0.61,-0.63,36,4,1,0.64,,74,7411,10,22,41,0.783,47.6,661,4.81,12.0,17.6,1,31.9,2.34,8.0,0,0,0,1,0,475,-23367,17628,460,,,,,,,,,,,,,,,,
94183,1620400662091,,,,,,,,-0.2,0.59,-0.41,34,2,-1,0.62,,74,7393,10,22,40,0.786,47.2,658,4.77,11.9,17.6,1,31.4,2.34,8.0,0,0,0,1,0,473,-1923,2211,461,,,,,,,,,,,,,,,,
94203,1620400662111,,,,,,,,-0.21,0.55,-0.32,33,1,-1,0.59,,74,7393,10,22,40,0.789,47.3,659,4.84,12.0,17.4,1,31.4,2.34,8.0,0,0,0,1,0,471,3576,-23623,455,,,,,,,,,,,,,,,,
94223,1620400662131,,,,,,,,-0.17,0.54,-0.32,31,1,-2,0.57,,74,7361,10,22,40,0.791,46.4,655,4.86,11.8,17.4,1,31.4,2.34,8.0,0,0,0,1,0,472,16408,12552,462,,,,,,,,,,,,,,,,
94243,1620400662151,-1,2,30,32,34,34,1,-0.1,0.51,-0.46,28,3,-2,0.52,0,74,7373,10,22,40,0.794,46.9,658,4.86,11.9,17.4,1,31.4,2.34,8.0,0,0,0,1,0,467,10432,6193,458,45.846428,5.179131,49.18,216.4,6,3,3.3,0,0.0,-1,0.0,0.0,0.0,0,0.27,1.5707
94263,1620400662171,,,,,,,,-0.1,0.43,-0.59,26,2,-1,0.44,,75,7355,9,22,40,0.797,46.6,654,4.83,11.9,17.4,1,31.4,2.34,8.0,0,0,0,1,0,465,-3210,16408,464,,,,,,,,,,,,,,,,
94283,1620400662191,,,,,,,,-0.07,0.38,-0.71,24,4,-1,0.38,,74,7329,9,21,40,0.8,46.7,660,4.83,11.8,17.4,1,31.4,2.34,8.0,0,0,0,1,0,462,243,12552,462,,,,,,,,,,,,,,,,
94303,1620400662211,,,,,,,,-0.05,0.28,-0.81,21,3,-0,0.29,,74,7321,9,21,40,0.803,46.7,661,4.88,11.9,17.0,1,31.4,2.34,7.9,0,0,0,1,0,460,2211,-3210,467,,,,,,,,,,,,,,,,
94323,1620400662231,,,,,,,,-0.07,0.19,-0.74,18,3,-0,0.2,,74,7281,9,21,40,0.806,46.3,661,4.87,11.9,17.0,1,31.4,2.34,7.9,0,0,0,1,0,460,12552,243,463,,,,,,,,,,,,,,,,
94343,1620400662251,-1,2,31,30,32,36,-6,-0.09,0.12,-0.51,16,2,-2,0.15,0,75,7275,9,21,40,0.809,46.7,655,4.9,11.9,17.0,1,31.4,2.34,7.9,0,0,0,1,0,463,17628,243,467,45.846424,5.179116,48.28,216.4,6,3,3.3,0,0.0,-1,0.0,,0.0,0,0.27,1.5724
94363,1620400662271,,,,,,,,-0.13,0.09,-0.3,14,-2,-3,0.16,,75,7273,9,21,40,0.81,46.9,656,4.9,12.0,17.0,1,31.4,2.34,7.9,0,0,0,1,0,458,14488,30272,463,,,,,,,,,,,,,,,,
94383,1620400662291,,,,,,,,-0.14,0.05,-0.44,11,-3,-3,0.15,,75,7259,9,21,39,0.812,46.5,663,4.83,11.8,17.0,1,31.0,2.34,7.9,0,0,0,1,0,457,2524,-3210,468,,,,,,,,,,,,,,,,
94403,1620400662301,,,,,,,,-0.14,0.02,-0.57,9,-2,-2,0.14,,75,7203,9,21,39,0.814,46.5,661,4.81,11.9,16.7,1,31.0,2.34,7.8,0,0,0,1,0,455,2524,30272,468,,,,,,,,,,,,,,,,
94423,1620400662321,,,,,,,,-0.14,-0.08,-0.69,7,1,-1,0.16,,75,7222,9,21,40,0.815,46.7,657,4.9,12.0,16.7,1,31.3,2.34,7.8,0,0,0,1,0,451,8488,-16384,467,,,,,,,,,,,,,,,,
94443,1620400662341,-0,2,33,30,30,36,-10,-0.15,-0.11,-0.61,5,1,-1,0.18,0,75,7194,9,21,39,0.815,46.3,657,4.87,12.0,16.7,1,31.0,2.34,7.8,0,0,0,1,0,450,-6387,-3210,463,45.846416,5.179102,47.71,216.4,7,3,2.7,0,0.0,-1,0.0,0.0,0.0,0,0.27,1.574
94463,1620400662361,,,,,,,,-0.14,-0.14,-0.39,3,-2,-3,0.2,,75,7178,9,21,40,0.815,46.6,655,4.89,12.0,16.7,1,31.3,2.34,7.8,0,0,0,1,0,450,16648,30272,466,,,,,,,,,,,,,,,,
94483,1620400662381,,,,,,,,-0.11,-0.15,-0.52,1,-0,-3,0.18,,75,7145,9,21,39,0.815,45.9,658,4.82,12.0,16.7,1,31.0,2.34,7.8,0,0,0,1,0,450,-8985,6193,459,,,,,,,,,,,,,,,,
94503,1620400662410,,,,,,,,-0.09,-0.13,-0.65,-1,1,-2,0.16,,75,7129,9,21,40,0.814,46.7,651,4.86,11.9,16.4,1,31.3,2.34,7.7,0,0,0,1,0,448,-3267,6193,468,,,,,,,,,,,,,,,,
94523,1620400662430,,,,,,,,-0.09,-0.17,-0.76,-3,3,-1,0.19,,75,7131,9,21,40,0.814,46.2,651,4.86,11.9,16.4,1,31.3,2.34,7.7,0,0,0,1,0,447,10305,6193,470,,,,,,,,,,,,,,,,
94543,1620400662450,1,2,34,29,31,38,-12,-0.1,-0.25,-0.78,-5,1,-3,0.27,0,75,7094,9,21,40,0.813,46.8,654,4.9,12.0,16.4,1,31.3,2.34,7.7,0,0,0,1,0,444,-18341,243,468,45.846409,5.179089,47.67,216.4,7,3,2.7,0,0.0,-1,0.0,,0.0,0,0.27,1.5757
94563,1620400662470,,,,,,,,-0.13,-0.27,-0.54,-6,-1,-3,0.3,,75,7088,9,21,40,0.813,46.2,649,4.82,12.0,16.4,1,31.3,2.34,7.7,0,0,0,1,0,447,21580,16408,462,,,,,,,,,,,,,,,,
94583,1620400662490,,,,,,,,-0.1,-0.24,-0.67,-8,3,-2,0.26,,75,7075,9,21,40,0.813,46.6,659,4.95,11.9,16.4,1,31.3,2.34,7.7,0,0,0,1,0,446,-3267,6193,466,,,,,,,,,,,,,,,,
94603,1620400662510,,,,,,,,-0.12,-0.29,-0.78,-9,1,-2,0.31,,75,7064,9,21,40,0.812,46.0,651,4.89,12.0,16.3,1,31.3,2.34,7.6,0,0,0,1,0,445,2524,6193,460,,,,,,,,,,,,,,,,
94623,1620400662530,,,,,,,,-0.14,-0.39,-0.54,-10,-2,-3,0.41,,75,7080,9,21,40,0.812,46.4,651,4.86,12.0,16.3,1,31.3,2.34,7.6,0,0,0,1,0,446,23400,12552,466,,,,,,,,,,,,,,,,
94643,1620400662550,0,3,34,29,30,38,-12,-0.13,-0.3,-0.33,-11,0,-1,0.33,0,75,7072,9,21,40,0.811,46.0,653,4.81,11.9,16.3,1,31.3,2.34,7.6,0,0,0,1,0,445,21432,2211,466,45.846405,5.179074,47.29,216.4,7,3,2.7,0,0.0,-1,0.0,0.0,0.0,0,0.27,1.5774
94663,1620400662570,,,,,,,,-0.13,-0.34,-0.47,-12,1,-1,0.37,,75,7102,9,21,40,0.812,46.2,650,4.9,12.0,16.3,1,31.3,2.34,7.6,0,0,0,1,0,442,16648,-18108,462,,,,,,,,,,,,,,,,
94683,1620400662590,,,,,,,,-0.12,-0.43,-0.41,-13,-1,-3,0.45,,75,7091,9,21,40,0.812,45.7,655,4.83,12.0,16.3,1,31.3,2.34,7.6,0,0,0,1,0,438,-28332,-18108,457,,,,,,,,,,,,,,,,
94703,1620400662610,,,,,,,,-0.17,-0.45,-0.21,-14,-0,-3,0.48,,75,7137,9,21,40,0.813,46.0,658,4.87,12.0,16.9,1,31.3,2.34,7.7,0,0,0,1,0,440,26704,-18108,460,,,,,,,,,,,,,,,,
94723,1620400662630,,,,,,,,-0.11,-0.41,-0.3,-14,-1,-3,0.42,,75,7145,9,21,40,0.814,45.8,652,4.85,11.9,16.9,1,31.3,2.34,7.7,0,0,0,1,0,443,-18341,14488,454,,,,,,,,,,,,,,,,
94743,1620400662650,0,3,33,30,30,37,-5,-0.09,-0.39,-0.44,-15,3,-1,0.4,0,75,7104,9,21,40,0.814,45.7,657,4.85,11.9,16.9,1,31.3,2.34,7.7,0,0,0,1,0,441,21432,-26615,457,45.846397,5.17906,46.74,216.4,7,3,2.7,0,0.0,-1,0.0,,0.0,0,0.27,1.5791
94763,1620400662670,,,,,,,,-0.15,-0.41,-0.52,-15,0,-2,0.44,,75,7129,9,21,40,0.814,45.3,657,4.9,12.0,16.9,1,31.3,2.34,7.7,0,0,0,1,0,438,23400,3571,453,,,,,,,,,,,,,,,,
94783,1620400662691,,,,,,,,-0.09,-0.39,-0.31,-14,-3,-3,0.4,,75,7126,9,21,40,0.814,45.4,651,4.88,12.0,16.9,1,31.3,2.34,7.7,0,0,0,1,0,441,21432,-8985,454,,,,,,,,,,,,,,,,
94803,1620400662711,,,,,,,,-0.09,-0.34,-0.45,-14,1,-1,0.35,,75,7123,9,21,40,0.814,44.7,651,4.83,11.9,16.9,1,31.3,2.34,7.7,0,0,0,1,0,443,23400,-6387,447,,,,,,,,,,,,,,,,
94823,1620400662731,,,,,,,,-0.11,-0.29,-0.58,-13,2,0,0.31,,75,7134,9,21,40,0.814,44.7,656,4.95,11.9,16.9,1,31.3,2.34,7.7,0,0,0,1,0,444,-18341,16648,447,,,,,,,,,,,,,,,,
94843,1620400662751,0,1,32,32,33,36,6,-0.1,-0.28,-0.54,-12,1,-0,0.3,0,75,7131,9,21,40,0.813,44.8,655,4.91,12.0,16.9,1,31.3,2.34,7.7,0,0,0,1,0,446,26704,2131,448,45.84639,5.179046,46.59,216.4,7,3,2.7,0,0.0,-1,0.0,0.0,0.0,0,0.28,1.5807
94863,1620400662771,,,,,,,,-0.14,-0.23,-0.33,-11,0,-1,0.27,,75,7104,9,21,40,0.813,44.8,649,4.8,12.0,16.9,1,31.3,2.34,7.7,0,0,0,1,0,448,8488,-18341,444,,,,,,,,,,,,,,,,
94883,1620400662791,,,,,,,,-0.13,-0.16,-0.47,-9,1,1,0.2,,75,7062,9,21,40,0.812,44.7,653,4.81,11.8,16.9,1,31.3,2.34,7.7,0,0,0,1,0,446,16648,21432,447,,,,,,,,,,,,,,,,
94903,1620400662810,,,,,,,,-0.15,-0.11,-0.6,-8,4,2,0.19,,75,7088,9,21,40,0.812,44.6,649,4.93,12.0,17.0,1,31.3,2.34,7.6,0,0,0,1,0,445,16648,26704,443,,,,,,,,,,,,,,,,
94923,1620400662830,,,,,,,,-0.15,-0.08,-0.38,-6,1,1,0.17,,75,7072,9,21,40,0.812,44.6,650,4.86,12.0,17.0,1,31.3,2.34,7.6,0,0,0,1,0,447,16648,-28332,435,,,,,,,,,,,,,,,,
94943,1620400662850,-0,1,31,33,33,33,13,-0.09,0.02,-0.18,-5,1,1,0.09,0,75,7043,9,21,40,0.811,44.8,651,4.82,11.9,17.0,1,31.3,2.34,7.6,0,0,0,1,0,449,8488,-28332,435,45.846386,5.179031,46.31,216.4,7,3,2.7,0,0.0,-1,0.0,,0.0,0,0.28,1.5824
94963,1620400662870,,,,,,,,-0.05,0.11,-0.33,-3,3,3,0.13,,75,7019,9,21,40,0.811,45.3,650,4.84,11.9,17.0,1,31.3,2.34,7.6,0,0,0,1,0,447,21432,21580,437,,,,,,,,,,,,,,,,
94983,1620400662890,,,,,,,,-0.09,0.08,-0.14,-1,-1,1,0.12,,75,7014,9,21,40,0.811,45.7,653,4.85,12.0,17.0,1,31.3,2.34,7.6,0,0,0,1,0,450,-9160,5600,436,,,,,,,,,,,,,,,,
95003,1620400662910,,,,,,,,-0.06,0.18,0.04,1,-0,1,0.19,,75,7009,9,21,40,0.81,45.0,651,4.85,11.9,17.5,1,31.3,2.34,7.6,0,0,0,1,0,451,-3267,243,433,,,,,,,,,,,,,,,,
95023,1620400662930,,,,,,,,-0.05,0.2,-0.13,2,3,2,0.21,,75,6970,9,21,40,0.809,44.9,651,4.88,11.8,17.5,1,31.2,2.34,7.6,0,0,0,1,0,449,8488,-3322,431,,,,,,,,,,,,,,,,
95043,1620400662950,-1,2,30,36,35,32,21,-0.07,0.23,0.05,4,-2,1,0.24,0,75,6957,9,21,40,0.809,45.0,652,4.83,12.0,17.5,1,31.2,2.34,7.6,0,0,0,1,0,445,-3267,243,430,45.846382,5.179017,46.19,216.4,7,3,2.7,0,0.0,-1,0.0,0.0,0.0,0,0.28,1.584
95063,1620400662970,,,,,,,,-0.05,0.32,0.08,6,0,1,0.32,,75,6972,9,21,40,0.808,44.3,648,4.85,11.8,17.5,1,31.2,2.34,7.6,0,0,0,1,0,449,-18341,-3314,434,,,,,,,,,,,,,,,,
95083,1620400662990,,,,,,,,-0.04,0.35,-0.09,7,2,2,0.35,,75,6931,9,21,41,0.808,44.9,653,4.92,11.9,17.5,1,31.4,2.34,7.6,0,0,0,1,0,447,-8985,3635,429,,,,,,,,,,,,,,,,
95103,1620400663000,,,,,,,,-0.08,0.36,0.09,9,-3,1,0.37,,75,6923,9,21,41,0.807,45.5,651,4.85,12.0,17.2,1,31.4,2.34,7.4,0,0,0,1,0,449,17628,31796,425,,,,,,,,,,,,,,,,
95123,1620400663020,,,,,,,,-0.03,0.46,-0.09,11,0,2,0.46,,75,6903,9,21,41,0.806,45.1,649,4.83,11.8,17.2,1,31.3,2.33,7.4,0,0,0,1,0,450,3571,31796,428,,,,,,,,,,,,,,,,
95143,1620400663040,1,3,29,37,36,32,25,-0.05,0.39,-0.01,12,-1,1,0.4,0,75,6893,9,21,41,0.805,44.9,653,4.87,12.0,17.2,1,31.3,2.33,7.4,0,0,0,1,0,450,15649,31796,422,45.846374,5.179002,46.05,216.5,7,3,2.7,0,0.0,-1,0.0,,0.0,0,0.28,1.5857
95163,1620400663060,,,,,,,,-0.08,0.43,0.16,14,-0,1,0.44,,75,6900,9,21,41,0.804,45.1,649,4.86,12.0,17.2,1,31.3,2.33,7.4,0,0,0,1,0,449,3571,-3856,428,,,,,,,,,,,,,,,,
95183,1620400663080,,,,,,,,-0.06,0.48,-0.02,15,0,1,0.49,,75,6918,9,21,41,0.803,44.8,651,4.85,11.9,17.2,1,31.4,2.33,7.4,0,0,0,1,0,447,8488,-3414,420,,,,,,,,,,,,,,,,
95203,1620400663110,,,,,,,,-0.08,0.5,0.15,17,-2,-0,0.5,,75,6900,9,21,41,0.803,44.9,652,4.81,11.9,17.5,1,31.3,2.33,7.4,0,0,0,1,0,450,15649,-4082,419,,,,,,,,,,,,,,,,
95223,1620400663130,,,,,,,,-0.08,0.59,-0.03,18,1,1,0.6,,75,6900,9,21,41,0.801,45.4,655,4.83,11.8,17.5,1,31.3,2.33,7.4,0,0,0,1,0,450,2524,-3414,423,,,,,,,,,,,,,,,,
95243,1620400663150,0,1,28,34,37,32,27,-0.08,0.53,0.02,19,-2,-0,0.54,0,75,6903,9,21,41,0.802,45.0,648,4.92,12.0,17.5,1,31.3,2.33,7.4,0,0,0,1,0,448,10305,-21792,422,45.846367,5.178988,45.8,216.5,7,3,2.7,0,0.0,-1,0.0,0.0,0.0,0,0.28,1.5874
95263,1620400663170,,,,,,,,-0.07,0.6,0.19,21,-1,1,0.6,,75,6913,9,21,41,0.804,44.9,655,4.83,12.0,17.5,1,31.4,2.33,7.4,0,0,0,1,0,447,15649,-8165,422,,,,,,,,,,,,,,,,
95283,1620400663190,,,,,,,,-0.07,0.61,0.0,21,2,2,0.61,,75,6893,9,21,41,0.805,44.7,647,4.86,11.9,17.5,1,31.3,2.33,7.4,0,0,0,1,0,446,10305,-3414,421,,,,,,,,,,,,,,,,
95303,1620400663210,,,,,,,,-0.09,0.59,0.17,23,-2,1,0.59,,75,6908,9,21,41,0.806,44.7,652,4.85,11.9,17.5,1,31.3,2.33,7.4,0,0,0,1,0,445,21432,7154,419,,,,,,,,,,,,,,,,
95323,1620400663230,,,,,,,,-0.03,0.69,-0.01,24,0,3,0.69,,75,6895,9,21,41,0.807,44.9,642,4.92,11.9,17.5,1,31.3,2.33,7.4,0,0,0,1,0,446,15649,7154,415,,,,,,,,,,,,,,,,
95343,1620400663250,0,3,28,36,37,32,27,-0.05,0.61,0.16,24,1,2,0.61,0,75,6898,9,21,41,0.809,44.7,651,4.86,12.0,17.5,1,31.3,2.33,7.4,0,0,0,1,0,447,10305,-3414,419,45.846367,5.178975,44.91,216.6,7,3,2.7,0,0.0,-1,0.0,,0.0,0,0.28,1.5891
95363,1620400663270,,,,,,,,-0.08,0.72,0.31,25,-1,2,0.73,,75,6888,9,21,41,0.81,44.4,650,4.78,11.8,17.5,1,31.3,2.33,7.4,0,0,0,1,0,444,8488,18584,420,,,,,,,,,,,,,,,,
95383,1620400663290,,,,,,,,-0.02,0.67,0.12,26,-0,2,0.67,,75,6880,9,21,41,0.812,44.5,646,4.92,11.9,17.5,1,31.3,2.33,7.4,0,0,0,1,0,444,2131,-26615,418,,,,,,,,,,,,,,,,
95403,1620400663309,,,,,,,,-0.02,0.67,0.28,27,-2,0,0.68,,75,6873,9,21,41,0.812,44.5,652,4.86,12.0,17.7,1,31.3,2.33,7.4,0,0,0,1,0,442,2131,-26615,421,,,,,,,,,,,,,,,,
95423,1620400663329,,,,,,,,-0.03,0.73,0.09,28,-1,1,0.73,,75,6870,9,21,41,0.812,44.1,656,4.86,11.8,17.7,1,31.3,2.33,7.4,0,0,0,1,0,443,-18341,18584,414,,,,,,,,,,,,,,,,
95443,1620400663349,-1,2,27,35,38,32,28,-0.03,0.71,0.25,29,-5,-1,0.71,0,75,6840,9,21,41,0.811,44.5,653,4.88,12.0,17.7,1,31.3,2.33,7.4,0,0,0,1,0,444,2131,-26615,417,45.846355,5.178962,44.97,216.7,7,3,2.7,0,0.0,-1,0.0,0.0,0.0,0,0.28,1.5907
95463,1620400663369,,,,,,,,-0.0,0.8,0.06,30,-2,1,0.8,,75,6838,9,21,41,0.811,44.1,651,4.83,11.9,17.7,1,31.3,2.33,7.4,0,0,0,1,0,442,26704,-26615,418,,,,,,,,,,,,,,,,
95483,1620400663389,,,,,,,,-0.05,0.73,0.22,30,-2,0,0.73,,75,6808,9,21,41,0.81,45.3,649,4.92,12.0,17.7,1,31.2,2.33,7.4,0,0,0,1,0,445,-18341,-26615,415,,,,,,,,,,,,,,,,
95503,1620400663409,,,,,,,,-0.08,0.81,0.09,31,-2,1,0.81,,75,6800,9,21,41,0.807,44.7,649,4.82,11.9,17.7,1,31.2,2.33,7.3,0,0,0,1,0,440,10305,-9166,408,,,,,,,,,,,,,,,,
95523,1620400663429,,,,,,,,-0.07,0.72,-0.08,31,-2,-0,0.72,,75,6766,9,22,42,0.806,44.4,643,4.88,12.0,17.7,1,31.4,2.33,7.3,0,0,0,1,0,443,21432,13040,414,,,,,,,,,,,,,,,,
95543,1620400663449,1,2,27,36,37,31,28,-0.08,0.79,0.09,31,-1,0,0.79,0,75,6786,9,22,41,0.803,44.3,646,4.82,12.0,17.7,1,31.2,2.33,7.3,0,0,0,1,0,437,5600,13040,410,45.846348,5.17895,44.54,216.9,7,3,2.7,0,0.0,-1,0.0,,0.0,0,0.28,1.5924
95563,1620400663469,,,,,,,,-0.07,0.69,-0.08,32,1,1,0.69,,75,6773,9,22,41,0.801,43.0,643,4.91,12.0,17.7,1,31.2,2.33,7.3,0,0,0,1,0,439,-3314,-4059,414,,,,,,,,,,,,,,,,
95583,1620400663489,,,,,,,,-0.12,0.74,0.09,32,-1,-0,0.75,,75,6776,9,22,42,0.8,44.2,651,4.87,12.0,17.7,1,31.5,2.33,7.3,0,0,0,1,0,437,23400,9517,407,,,,,,,,,,,,,,,,
95603,1620400663510,,,,,,,,-0.08,0.68,-0.08,32,0,0,0.69,,75,6783,9,22,41,0.798,44.2,645,4.93,11.9,17.9,1,31.2,2.33,7.3,0,0,0,1,0,436,23400,13040,406,,,,,,,,,,,,,,,,
95623,1620400663530,,,,,,,,-0.13,0.75,0.09,33,-1,-1,0.76,,75,6766,9,22,41,0.796,43.4,653,4.83,11.9,17.9,1,31.2,2.33,7.3,0,0,0,1,0,438,-768,11560,410,,,,,,,,,,,,,,,,
95643,1620400663550,-1,2,27,39,37,31,27,-0.07,0.7,-0.08,33,0,-0,0.71,0,75,6771,9,22,42,0.795,43.9,652,4.96,12.0,17.9,1,31.4,2.33,7.3,0,0,0,1,0,435,5600,11560,409,45.846344,5.178938,44.2,216.9,7,3,2.7,0,0.0,-1,0.0,0.0,0.0,0,0.29,1.594
95663,1620400663570,,,,,,,,-0.14,0.77,0.09,33,-5,-1,0.78,,75,6756,9,22,42,0.795,43.5,650,4.84,12.0,17.9,1,31.4,2.33,7.3,0,0,0,1,0,436,-7939,10392,407,,,,,,,,,,,,,,,,
95683,1620400663590,,,,,,,,-0.1,0.74,-0.08,33,-2,0,0.74,,75,6788,9,22,41,0.795,43.4,645,4.9,11.9,17.9,1,31.2,2.33,7.3,0,0,0,1,0,435,-768,-26615,411,,,,,,,,,,,,,,,,
95703,1620400663609,,,,,,,,-0.11,0.73,0.09,34,-3,-1,0.74,,75,6773,10,22,42,0.795,43.7,645,4.82,11.9,17.9,1,31.5,2.33,7.3,0,0,0,1,0,435,5600,11560,409,,,,,,,,,,,,,,,,
95723,1620400663629,,,,,,,,-0.11,0.72,-0.08,33,-0,0,0.73,,75,6791,11,22,42,0.795,43.9,644,4.86,11.8,17.9,1,31.5,2.33,7.3,0,0,0,1,0,437,-28332,2524,404,,,,,,,,,,,,,,,,
95743,1620400663649,1,2,28,36,37,31,25,-0.13,0.69,0.09,33,-6,-1,0.7,0,75,6791,11,22,43,0.796,43.3,646,4.81,11.9,17.9,1,31.8,2.32,7.3,0,0,0,1,0,433,5600,11560,405,45.846333,5.178927,43.56,217.0,7,3,2.7,0,0.0,-1,0.0,,0.0,0,0.29,1.5957
95763,1620400663669,,,,,,,,-0.05,0.72,-0.08,33,-0,1,0.72,,75,6818,12,22,44,0.798,43.4,650,4.85,11.8,17.9,1,32.0,2.31,7.3,0,0,0,1,0,433,-768,-26615,407,,,,,,,,,,,,,,,,
95783,1620400663689,,,,,,,,-0.08,0.66,0.09,33,-1,-1,0.66,,75,6825,13,22,44,0.799,43.5,650,4.86,12.0,17.9,1,32.1,2.31,7.3,0,0,0,1,0,430,-7939,-26615,407,,,,,,,,,,,,,,,,
95803,1620400663709,,,,,,,,-0.15,0.71,-0.08,33,2,2,0.72,,75,6830,13,22,46,0.8,43.0,654,4.88,11.8,17.8,1,32.7,2.3,7.3,0,0,0,1,0,431,-3314,10392,407,,,,,,,,,,,,,,,,
95823,1620400663729,,,,,,,,-0.18,0.64,0.09,33,-3,-0,0.66,,75,6830,14,22,47,0.803,43.3,649,4.92,12.0,17.8,1,33.0,2.29,7.3,0,0,0,1,0,431,243,-26615,409,,,,,,,,,,,,,,,,
95843,1620400663749,1,0,28,35,37,32,25,-0.1,0.7,-0.08,33,3,1,0.71,0,75,6868,14,22,48,0.804,43.7,650,4.82,11.9,17.8,1,33.4,2.29,7.3,0,0,0,1,0,432,13180,-4059,407,45.846329,5.178917,43.74,217.0,7,3,2.7,0,0.0,-1,0.0,0.0,0.0,0,0.29,1.5974
95863,1620400663769,,,,,,,,-0.12,0.65,-0.24,33,5,1,0.66,,75,6840,15,22,49,0.805,44.0,643,4.85,11.9,17.8,1,33.6,2.29,7.3,0,0,0,1,0,433,20625,2524,403,,,,,,,,,,,,,,,,
95883,1620400663789,,,,,,,,-0.15,0.68,-0.06,33,-2,0,0.7,,75,6764,16,22,51,0.806,43.0,648,4.87,12.0,17.8,1,34.1,2.3,7.3,0,0,0,1,0,434,19477,18584,405,,,,,,,,,,,,,,,,
95903,1620400663809,,,,,,,,-0.07,0.64,-0.22,33,-0,1,0.64,,75,6682,16,22,53,0.81,43.2,642,4.9,11.9,17.4,1,34.5,2.3,7.1,0,0,0,1,0,434,-3322,-3414,410,,,,,,,,,,,,,,,,
95923,1620400663829,,,,,,,,-0.05,0.75,-0.13,32,3,-1,0.75,,75,6623,16,22,54,0.811,43.5,643,4.86,11.9,17.4,1,34.6,2.29,7.1,0,0,0,1,0,433,-7939,-21944,409,,,,,,,,,,,,,,,,
95943,1620400663849,0,3,28,34,37,31,24,-0.03,0.68,0.05,32,2,-1,0.68,0,75,6606,17,22,56,0.815,42.7,644,4.88,12.0,17.4,1,35.1,2.31,7.1,0,0,0,1,0,431,31796,2524,411,45.846317,5.178908,43.69,217.1,7,3,2.7,0,0.0,-1,0.0,,0.0,0,0.29,1.5991
95963,1620400663869,,,,,,,,-0.08,0.7,-0.12,32,3,0,0.7,,75,6674,17,22,57,0.818,43.5,648,4.87,11.8,17.4,1,35.7,2.35,7.1,0,0,0,1,0,435,-7939,13040,407,,,,,,,,,,,,,,,,
95983,1620400663889,,,,,,,,-0.1,0.73,0.05,32,-1,-2,0.74,,75,6727,19,22,59,0.824,43.4,651,4.9,12.0,17.4,1,36.4,2.41,7.1,0,0,0,1,0,433,21580,-4059,408,,,,,,,,,,,,,,,,
96003,1620400663909,,,,,,,,-0.06,0.73,-0.12,31,4,1,0.73,,75,6715,20,22,61,0.828,43.4,645,4.93,11.8,18.3,1,37.1,2.44,7.5,0,0,0,1,0,432,-768,9517,405,,,,,,,,,,,,,,,,
96023,1620400663929,,,,,,,,-0.04,0.73,0.06,31,3,-2,0.73,,75,6718,20,22,63,0.836,43.4,646,4.92,12.0,18.3,1,37.7,2.77,7.5,0,0,0,1,0,432,-768,-9166,410,,,,,,,,,,,,,,,,
96043,1620400663949,0,1,29,35,36,32,23,-0.06,0.7,-0.11,31,5,0,0.7,0,75,6646,21,22,65,0.842,43.3,642,4.9,11.8,18.3,1,37.9,3.04,7.5,0,0,0,1,0,431,243,-4059,411,45.846306,5.1789,43.29,217.2,7,3,2.7,0,0.0,-1,0.0,0.0,0.0,0,0.29,1.6007
96063,1620400663969,,,,,,,,-0.13,0.77,0.06,31,-6,-2,0.78,,75,6616,21,22,66,0.854,43.3,640,4.87,12.0,18.3,1,38.1,3.2,7.5,0,0,0,1,0,434,243,9517,409,,,,,,,,,,,,,,,,
96083,1620400663989,,,,,,,,-0.15,0.69,-0.11,31,-1,-1,0.71,,75,6606,21,22,68,0.876,43.3,645,4.91,11.9,18.3,1,38.6,3.35,7.5,0,0,0,1,0,433,-768,11560,412,,,,,,,,,,,,,,,,
96103,1620400663999,,,,,,,,-0.24,0.81,-0.27,31,-4,-1,0.84,,75,6620,21,22,69,0.888,42.6,647,4.82,11.8,26.4,1,38.9,3.56,10.7,0,0,0,1,0,430,13552,13040,404,,,,,,,,,,,,,,,,
96123,1620400664019,,,,,,,,-0.22,0.77,-0.08,31,-6,-1,0.8,,75,6670,21,22,70,0.911,43.7,649,4.91,12.0,26.4,1,39.4,3.64,10.7,0,0,0,1,0,434,-3322,11560,409,,,,,,,,,,,,,,,,
96143,1620400664039,1,2,28,35,36,31,24,-0.16,0.8,-0.24,31,0,0,0.81,0,75,6778,22,22,71,0.947,43.7,655,4.8,11.9,26.4,1,40.3,3.71,10.7,0,0,0,1,0,432,19477,11560,411,45.846298,5.178892,43.42,217.3,7,3,2.7,0,0.0,-1,0.0,,0.0,0,0.29,1.6024
96163,1620400664059,,,,,,,,-0.18,0.71,-0.05,31,-0,-1,0.73,,75,6893,22,22,72,0.976,43.3,651,4.86,11.9,26.4,1,41.2,3.75,10.7,0,0,0,1,0,434,-3322,13040,410,,,,,,,,,,,,,,,,
96183,1620400664079,,,,,,,,-0.18,0.74,-0.19,31,-5,-1,0.76,,75,6962,22,22,73,1.021,43.5,653,4.84,12.0,26.4,1,41.9,3.8,10.7,0,0,0,1,0,433,-7939,-21944,404,,,,,,,,,,,,,,,,
96203,1620400664107,,,,,,,,-0.1,0.7,-0.34,30,-0,1,0.71,,75,6954,22,22,74,1.049,42.4,647,4.87,11.9,29.7,1,41.9,3.86,12.2,0,0,0,1,0,434,-4082,-3856,411,,,,,,,,,,,,,,,,
96223,1620400664127,,,,,,,,-0.09,0.66,-0.14,30,-2,-1,0.67,,75,6830,22,22,74,1.109,43.2,645,4.88,11.9,29.7,1,41.4,3.87,12.2,0,0,0,1,0,435,19477,-3322,411,,,,,,,,,,,,,,,,
96243,1620400664147,-1,2,31,39,35,30,25,-0.08,0.64,-0.3,29,-1,1,0.65,0,75,6840,22,22,75,1.146,43.7,642,4.84,11.8,29.7,1,41.8,3.93,12.2,0,0,0,1,0,436,19477,-3322,414,45.846287,5.178885,42.94,217.3,7,3,2.7,0,0.0,-1,0.0,0.0,0.0,0,0.29,1.604
96263,1620400664167,,,,,,,,-0.09,0.61,-0.1,29,-4,0,0.62,,75,6895,22,22,75,1.195,43.4,646,4.82,11.9,29.7,1,42.1,3.91,12.2,0,0,0,1,0,435,-3314,-3414,413,,,,,,,,,,,,,,,,
96283,1620400664187,,,,,,,,0.0,0.64,-0.26,29,-0,1,0.64,,75,6959,22,22,76,1.244,43.7,646,4.83,11.9,29.7,1,42.8,3.96,12.2,0,0,0,1,0,437,19477,3635,411,,,,,,,,,,,,,,,,
96303,1620400664209,,,,,,,,0.02,0.63,-0.41,28,1,1,0.63,,75,6967,22,22,76,1.282,43.5,647,4.81,11.8,30.6,1,42.8,3.95,12.7,0,0,0,1,0,438,-7939,21580,414,,,,,,,,,,,,,,,,
96323,1620400664229,,,,,,,,0.0,0.6,-0.21,28,-5,-1,0.6,,75,6898,21,22,76,1.304,43.8,647,4.91,12.0,30.6,1,42.4,3.97,12.7,0,0,0,1,0,441,21580,-28332,414,,,,,,,,,,,,,,,,
96343,1620400664249,0,1,31,37,34,30,24,0.1,0.65,-0.36,28,2,1,0.66,0,75,6878,21,22,76,1.325,43.9,647,4.83,11.8,30.6,1,42.3,3.98,12.7,0,0,0,1,0,442,-28332,-3322,420,45.846279,5.178878,43.92,217.4,7,3,2.7,0,0.0,-1,0.0,,0.0,0,0.29,1.6057
96363,1620400664269,,,,,,,,0.06,0.57,-0.16,28,3,0,0.58,,75,6908,21,22,76,1.352,43.8,649,4.85,11.9,30.6,1,42.5,3.97,12.7,0,0,0,1,0,446,23400,5600,416,,,,,,,,,,,,,,,,
96383,1620400664289,,,,,,,,0.04,0.52,0.02,28,-3,-1,0.52,,75,6975,21,22,76,1.358,44.3,652,4.81,11.9,30.6,1,42.9,2.75,12.7,0,0,0,1,0,444,-18341,2524,420,,,,,,,,,,,,,,,,
96403,1620400664310,,,,,,,,0.12,0.59,-0.15,28,2,0,0.61,,75,7080,21,22,76,1.345,44.4,656,4.82,11.8,30.4,1,42.8,3.97,12.8,0,0,0,1,0,443,21432,19477,419,,,,,,,,,,,,,,,,
96423,1620400664330,,,,,,,,0.11,0.55,-0.3,28,2,1,0.57,,75,7126,21,22,76,1.335,44.4,651,4.87,11.8,30.4,1,42.6,3.99,12.8,0,0,0,1,0,446,8488,21432,422,,,,,,,,,,,,,,,,
96443,1620400664350,0,1,32,37,35,31,23,0.11,0.55,-0.2,28,1,0,0.56,0,75,7183,21,22,76,1.324,44.3,649,4.88,11.9,30.4,1,42.4,4.01,12.8,0,0,0,1,0,448,16648,5600,422,45.846268,5.178872,44.56,217.6,7,3,2.7,0,0.0,-1,0.0,0.0,0.0,0,0.3,1.6074
96463,1620400664370,,,,,,,,0.1,0.53,-0.08,28,-1,-0,0.54,,75,7270,21,22,76,1.304,45.0,653,4.86,12.0,30.4,1,42.0,3.98,12.8,0,0,0,1,0,451,-3267,26704,427,,,,,,,,,,,,,,,,
96483,1620400664390,,,,,,,,0.12,0.55,0.09,28,-2,-0,0.56,,75,7298,21,22,76,1.281,45.2,653,4.85,12.0,30.4,1,41.9,4.05,12.8,0,0,0,1,0,449,16648,2211,427,,,,,,,,,,,,,,,,
96503,1620400664408,,,,,,,,0.14,0.59,0.08,28,-1,0,0.61,,75,7307,22,22,75,1.242,45.7,655,4.82,11.9,31.6,1,41.6,4.0,13.5,0,0,0,1,0,456,-6387,-6441,427,,,,,,,,,,,,,,,,
96523,1620400664428,,,,,,,,0.15,0.63,0.05,28,-2,1,0.65,,75,7367,22,22,75,1.211,45.8,650,4.83,11.8,31.6,1,41.3,4.01,13.5,0,0,0,1,0,461,17628,2524,433,,,,,,,,,,,,,,,,
96543,1620400664448,0,3,32,38,34,29,24,0.24,0.63,-0.12,28,-0,1,0.68,0,75,7408,22,22,75,1.187,45.5,654,4.84,11.9,31.6,1,41.2,4.03,13.5,0,0,0,1,0,468,-26615,8488,435,45.846256,5.178867,45.33,217.8,7,3,2.7,0,0.0,-1,0.0,,0.0,0,0.3,1.6091
96563,1620400664468,,,,,,,,0.29,0.67,-0.28,28,0,2,0.73,,75,7381,22,22,75,1.163,45.6,651,4.8,11.8,31.6,1,41.3,4.02,13.5,0,0,0,1,0,463,14488,17628,435,,,,,,,,,,,,,,,,
96583,1620400664488,,,,,,,,0.33,0.63,-0.42,28,1,2,0.71,,75,7324,22,22,75,1.149,45.4,660,4.83,11.8,31.6,1,41.5,4.0,13.5,0,0,0,1,0,467,30272,-899,433,,,,,,,,,,,,,,,,
96603,1620400664508,,,,,,,,0.3,0.61,-0.55,28,1,1,0.68,,75,7327,22,22,76,1.126,46.6,655,4.9,11.9,31.5,1,41.8,4.07,13.8,0,0,0,1,0,465,-3210,-9160,438,,,,,,,,,,,,,,,,
96623,1620400664528,,,,,,,,0.28,0.57,-0.57,28,1,0,0.64,,75,7370,23,22,76,1.103,47.1,655,4.87,11.9,31.5,1,41.6,4.08,13.8,0,0,0,1,0,468,32033,-23623,444,,,,,,,,,,,,,,,,
96643,1620400664548,0,1,33,40,33,29,24,0.24,0.58,-0.64,27,0,-0,0.63,0,75,7461,23,22,76,1.085,46.9,656,4.83,12.0,31.5,1,41.2,4.12,13.8,0,0,0,1,0,469,10432,-16384,444,45.846245,5.178863,46.02,217.9,7,3,2.7,0,0.0,-1,0.0,0.0,0.0,0,0.3,1.6107
96663,1620400664568,,,,,,,,0.29,0.55,-0.69,27,-0,-0,0.62,,75,7566,24,22,77,1.062,46.7,661,4.87,11.9,31.5,1,40.7,4.21,13.8,0,0,0,1,0,471,243,-6441,442,,,,,,,,,,,,,,,,
96683,1620400664588,,,,,,,,0.29,0.5,-0.8,27,-0,-1,0.58,,75,7649,24,22,77,1.033,46.5,657,4.86,11.9,31.5,1,40.2,4.19,13.8,0,0,0,1,0,477,30272,3580,448,,,,,,,,,,,,,,,,
96703,1620400664610,,,,,,,,0.29,0.52,-0.9,27,1,0,0.6,,75,7703,25,22,76,1.016,47.5,655,4.86,11.9,33.3,1,40.2,4.23,15.0,0,0,0,1,0,480,-17956,-10483,453,,,,,,,,,,,,,,,,
96723,1620400664630,,,,,,,,0.34,0.49,-0.99,28,1,0,0.59,,75,7735,25,22,77,0.985,47.8,658,4.86,11.8,33.3,1,39.9,4.29,15.0,0,0,0,1,0,481,-9203,-6528,454,,,,,,,,,,,,,,,,
96743,1620400664650,0,3,35,43,33,29,25,0.36,0.56,-0.86,27,2,-0,0.66,0,75,7802,25,22,77,0.966,48.4,661,4.88,11.8,33.3,1,39.5,4.32,15.0,0,0,0,1,0,486,2212,-6656,452,45.846233,5.178858,46.99,218.0,7,3,2.7,0,0.0,-1,0.0,,0.0,0,0.3,1.6124
96763,1620400664670,,,,,,,,0.34,0.53,-0.68,28,0,0,0.63,,75,7841,25,22,76,0.935,48.5,661,4.82,11.9,33.3,1,39.6,4.28,15.0,0,0,0,1,0,489,10305,3580,459,,,,,,,,,,,,,,,,
96783,1620400664690,,,,,,,,0.32,0.47,-0.79,28,1,1,0.56,,75,7858,25,22,76,0.917,48.8,658,4.82,11.9,33.3,1,39.5,4.29,15.0,0,0,0,1,0,492,-6656,2524,457,,,,,,,,,,,,,,,,
96803,1620400664710,,,,,,,,0.34,0.53,-0.78,28,1,1,0.63,,75,7888,25,22,76,0.893,48.8,668,4.86,11.9,33.9,1,39.4,4.3,15.7,0,0,0,1,0,495,1,-3856,462,,,,,,,,,,,,,,,,
96823,1620400664730,,,,,,,,0.33,0.52,-0.63,28,-0,1,0.62,,75,7988,25,22,75,0.864,49.2,659,4.83,11.9,33.9,1,38.9,4.25,15.7,0,0,0,1,0,498,248,-1818,465,,,,,,,,,,,,,,,,
96843,1620400664750,0,3,35,42,34,28,26,0.32,0.56,-0.74,28,-0,1,0.65,0,75,8019,25,22,74,0.848,48.9,660,4.85,11.9,33.9,1,38.8,4.17,15.7,0,0,0,1,0,505,3,11560,468,45.846222,5.178856,48.17,218.1,7,3,2.7,0,0.0,-1,0.0,0.0,0.0,0,0.3,1.614
96863,1620400664770,,,,,,,,0.31,0.61,-0.77,29,2,1,0.68,,75,8054,25,22,74,0.819,49.9,668,4.92,11.8,33.9,1,39.3,4.17,15.7,0,0,0,1,0,506,-22519,-32504,467,,,,,,,,,,,,,,,,
96883,1620400664790,,,,,,,,0.3,0.66,-0.59,29,1,1,0.73,,75,8259,25,22,73,0.811,50.2,670,4.91,11.8,33.9,1,40.8,4.13,15.7,0,0,0,1,0,514,15661,998,472,,,,,,,,,,,,,,,,
96903,1620400664810,,,,,,,,0.31,0.7,-0.67,29,0,1,0.76,,75,8363,25,22,71,0.802,50.2,666,4.83,11.9,33.0,1,41.7,3.98,15.7,0,0,0,1,0,511,15661,10408,472,,,,,,,,,,,,,,,,
96923,1620400664830,,,,,,,,0.31,0.65,-0.78,30,1,0,0.72,,75,8359,25,22,69,0.79,50.3,671,4.79,11.9,33.0,1,41.8,3.82,15.7,0,0,0,1,0,522,2109,-28648,477,,,,,,,,,,,,,,,,
96943,1620400664850,0,3,35,42,33,28,24,0.31,0.61,-0.64,31,1,0,0.69,0,75,8423,25,22,68,0.78,51.0,671,4.83,11.8,33.0,1,42.4,3.76,15.7,0,0,0,1,0,532,15679,-28648,481,45.846207,5.178853,49.42,218.1,7,3,2.7,0,0.0,-1,0.0,,0.0,0,0.3,1.6157
96963,1620400664870,,,,,,,,0.32,0.69,-0.75,31,1,1,0.77,,75,8577,25,22,67,0.78,52.3,678,4.81,11.9,33.0,1,43.2,3.78,15.7,0,0,0,1,0,534,2088,-3856,483,,,,,,,,,,,,,,,,
96983,1620400664890,,,,,,,,0.35,0.73,-0.8,32,0,2,0.8,,75,8632,25,22,67,0.781,52.4,675,4.87,11.9,33.0,1,42.8,3.67,15.7,0,0,0,1,0,532,10408,2524,483,,,,,,,,,,,,,,,,
97003,1620400664910,,,,,,,,0.36,0.77,-0.57,33,-2,0,0.85,,75,8491,25,22,66,0.782,52.3,677,4.87,11.9,30.0,1,43.5,3.65,14.5,0,0,0,1,0,540,-32248,-22359,490,,,,,,,,,,,,,,,,
97023,1620400664930,,,,,,,,0.36,0.78,-0.68,33,-0,1,0.86,,75,8423,25,22,65,0.783,52.3,673,4.81,11.9,30.0,1,42.9,3.61,14.5,0,0,0,1,0,548,-32248,-2934,488,,,,,,,,,,,,,,,,
97043,1620400664950,0,3,34,46,34,26,23,0.32,0.8,-0.79,34,1,1,0.86,0,75,8514,25,22,66,0.793,53.0,670,4.95,11.8,30.0,1,43.6,3.66,14.5,0,0,0,1,0,547,2524,2524,494,45.846195,5.178852,50.33,218.2,7,3,2.7,0,0.0,-1,0.0,0.0,0.0,0,0.3,1.6174
97063,1620400664970,,,,,,,,0.32,0.83,-0.56,34,-1,0,0.89,,75,8640,25,22,65,0.809,53.2,680,4.92,11.9,30.0,1,43.0,3.62,14.5,0,0,0,1,0,544,-2934,-22519,498,,,,,,,,,,,,,,,,
97083,1620400664990,,,,,,,,0.3,0.82,-0.66,35,-1,0,0.87,,75,8692,25,22,65,0.823,53.2,679,4.78,11.8,30.0,1,42.6,3.62,14.5,0,0,0,1,0,545,14504,-28648,501,,,,,,,,,,,,,,,,
97103,1620400664998,,,,,,,,0.31,0.83,-0.78,34,0,2,0.89,,75,8700,25,22,65,0.833,53.7,679,4.88,11.9,28.4,1,42.6,3.62,14.4,0,0,0,1,0,548,-30064,-8188,501,,,,,,,,,,,,,,,,
97123,1620400665018,,,,,,,,0.32,0.8,-0.88,34,-0,2,0.86,,75,8794,25,22,65,0.852,53.0,680,4.89,11.9,28.4,1,41.9,3.63,14.4,0,0,0,1,0,552,2524,-3082,508,,,,,,,,,,,,,,,,
97143,1620400665038,0,3,34,42,34,27,11,0.37,0.79,-0.97,34,-1,2,0.87,0,75,8827,25,22,64,0.881,54.1,679,4.9,11.9,28.4,1,41.6,3.58,14.4,0,0,0,1,0,549,-2336,1779,507,45.846184,5.178851,51.69,218.2,7,3,2.7,0,0.0,-1,0.0,,0.0,0,0.31,1.6191
97163,1620400665058,,,,,,,,0.33,0.7,-0.84,33,-3,1,0.77,,75,8708,26,22,65,0.899,53.5,676,4.93,11.9,28.4,1,42.6,3.57,14.4,0,0,0,1,0,555,-2336,259,511,,,,,,,,,,,,,,,,
97183,1620400665078,,,,,,,,0.33,0.75,-0.6,33,-5,-1,0.82,,75,8733,26,22,65,0.923,54.3,673,4.76,11.8,28.4,1,42.3,3.58,14.4,0,0,0,1,0,557,1779,-22359,521,,,,,,,,,,,,,,,,
97203,1620400665109,,,,,,,,0.33,0.72,-0.72,31,-3,-0,0.79,,75,8811,26,22,65,0.955,54.5,677,4.75,11.8,27.7,1,41.8,3.63,14.5,0,0,0,1,0,552,-8962,1780,522,,,,,,,,,,,,,,,,
97223,1620400665129,,,,,,,,0.33,0.73,-0.52,30,-3,-0,0.8,,75,8798,26,22,64,0.972,54.6,680,4.9,11.9,27.7,1,41.8,3.63,14.5,0,0,0,1,0,554,2524,-22359,526,,,,,,,,,,,,,,,,
97243,1620400665149,-0,2,35,41,34,27,9,0.39,0.72,-0.65,29,-2,-0,0.81,0,75,8794,26,22,65,0.996,53.4,680,4.9,11.9,27.7,1,41.9,3.63,14.5,0,0,0,1,0,556,-22519,-28648,535,45.846168,5.178852,53.52,218.2,7,3,2.7,0,0.0,-1,0.0,0.0,0.0,0,0.31,1.6207
97263,1620400665169,,,,,,,,0.34,0.69,-0.76,27,-0,0,0.77,,75,8753,26,22,64,1.025,54.2,675,4.87,11.9,27.7,1,42.1,3.62,14.5,0,0,0,1,0,557,-3082,-28648,533,,,,,,,,,,,,,,,,
97283,1620400665189,,,,,,,,0.34,0.66,-0.76,26,1,-1,0.74,,75,8806,26,22,65,1.046,54.9,677,4.91,11.9,27.7,1,41.8,3.63,14.5,0,0,0,1,0,558,-9072,2524,539,,,,,,,,,,,,,,,,
97303,1620400665210,,,,,,,,0.37,0.6,-0.86,25,1,-1,0.71,,75,8869,26,22,65,1.057,55.1,679,4.82,11.8,27.3,1,41.4,3.63,14.8,0,0,0,1,0,561,6274,-22359,549,,,,,,,,,,,,,,,,
97323,1620400665230,,,,,,,,0.35,0.56,-0.62,23,1,-2,0.66,,75,8869,26,22,65,1.077,55.2,683,4.87,11.9,27.3,1,41.4,3.63,14.8,0,0,0,1,0,564,-22359,12552,546,,,,,,,,,,,,,,,,
97343,1620400665250,1,1,35,39,32,28,10,0.33,0.51,-0.47,22,0,-2,0.61,0,75,8802,27,22,65,1.088,54.6,677,4.75,11.8,27.3,1,41.8,3.63,14.8,0,0,0,1,0,564,2524,-32504,541,45.846153,5.178854,55.23,218.2,7,3,2.7,0,0.0,-1,0.0,,0.0,0,0.31,1.6224
97363,1620400665270,,,,,,,,0.33,0.55,-0.36,21,0,-2,0.64,,75,8848,28,22,66,1.104,56.1,687,4.83,11.8,27.3,1,41.5,3.68,14.8,0,0,0,1,0,568,-22359,-18032,548,,,,,,,,,,,,,,,,
