"Interval"|"ms"|0|0|1,"Utc"|"ms"|0|0|1,"Brake_F"|"Bar"|0|2000|10,"Brake_R"|"Bar"|0|2000|10,"Height_RF"|"mm"|0|255|10,"Height_LF"|"mm"|0|255|10,"Height_LR"|"mm"|0|80|10,"Height_RR"|"mm"|0|255|10,"Steering"|"deg"|-100|100|10,"AccelX"|"G"|-3.0|3.0|50,"AccelY"|"G"|-3.0|3.0|50,"AccelZ"|"G"|-3.0|3.0|50,"Yaw"|"Deg/Sec"|-120|120|50,"Pitch"|"Deg/Sec"|-120|120|50,"Roll"|"Deg/Sec"|-120|120|50,"Gsum"|"G"|0.0|3.0|50,"Log_Button"|""|0.0|10.0|10,"WaterTemp"|"C"|0|150|50,"RPM"|"tr/min"|0|14000|50,"TPS"|"%"|0|100|50,"AirTemp"|"C"|0|150|50,"MAP"|"KPa"|0|100|50,"Lambda"|""|0.5|1.5|50,"SpeedDTA"|"kph"|0.0|250.0|50,"OilPress"|"KPa"|0|1500|50,"FuelPressur"|"Bar"|0.0|10.0|50,"Batterie"|"V"|0.0|20.0|50,"ConsoKm"|"L/100km"|0.0|200.0|50,"Gear"|""|0|6|50,"AdvIgnition"|"Deg"|-20.0|70.0|50,"Injection"|"ms"|0.0|10.0|50,"ConsoHr"|"L/Hr"|0.0|10000.0|50,"LC_But_Pres"|""|0|1|50,"LC_Active"|""|0|1|50,"TractionOn"|""|0|1|50,"TractionWet"|""|0|1|50,"FanOn"|""|0|1|50,"RD_Speed"|"km/h"|-30|250|50,"RUD_Speed"|"km/h"|-30|250|50,"LD_Speed"|"km/h"|-30|250|50,"LUD_Speed"|"km/h"|-30|250|50,"Latitude"|"Degrees"|-180.0|180.0|10,"Longitude"|"Degrees"|-180.0|180.0|10,"Speed"|"kph"|0.0|150.0|10,"Altitude"|"m"|0.0|4000.0|10,"GPSSats"|""|0|20|10,"GPSQual"|""|0|5|10,"GPSDOP"|""|0.0|20.0|10,"LapCount"|""|0|0|10,"LapTime"|"Min"|0.0|0.0|10,"Sector"|""|0|0|10,"SectorTime"|"Min"|0.0|0.0|10,"PredTime"|"Min"|0.0|0.0|5,"ElapsedTime"|"Min"|0.0|0.0|10,"CurrentLap"|""|0|0|10,"Distance"|"km"|0.0|0.0|10,"SessionTime"|"Min"|0.0|0.0|10
165663,1620400733569,,,,,,,,-0.06,-0.86,-1.0,-15,-13,-6,0.87,,80,5828,8,23,44,0.834,37.6,612,4.81,11.5,16.7,1,30.3,2.42,6.5,0,0,0,1,0,358,4104,742,376,,,,,,,,,,,,,,,,
165683,1620400733591,,,,,,,,-0.13,-0.85,-0.75,-16,-15,-8,0.86,,79,5760,8,23,44,0.835,37.5,601,4.82,11.5,16.7,1,30.2,2.44,6.5,0,0,0,1,0,356,3302,1,375,,,,,,,,,,,,,,,,
165703,1620400733611,,,,,,,,-0.27,-0.77,-0.52,-16,-14,-7,0.82,,79,5712,8,23,45,0.836,37.1,591,4.85,11.7,17.5,1,30.3,2.48,6.5,0,0,0,1,0,351,-1246,1,371,,,,,,,,,,,,,,,,
165723,1620400733631,,,,,,,,-0.29,-0.74,-0.64,-17,-11,-6,0.8,,79,5620,8,23,46,0.84,37.0,587,4.9,11.7,17.5,1,30.2,2.53,6.5,0,0,0,1,0,346,8841,0,370,,,,,,,,,,,,,,,,
165743,1620400733651,15,6,30,25,35,41,-19,-0.19,-0.75,-0.75,-18,-12,-6,0.77,0,79,5557,8,23,46,0.842,36.8,583,4.78,11.5,17.5,1,30.1,2.58,6.5,0,0,0,1,0,342,6870,-1268,368,45.845715,5.179895,39.73,219.8,10,3,1.5,0,0.0,-1,0.0,,0.0,0,0.64,2.7624
165763,1620400733671,,,,,,,,-0.24,-0.8,-0.52,-19,-13,-6,0.83,,79,5544,8,23,47,0.846,36.6,576,4.85,11.5,17.5,1,30.4,2.58,6.5,0,0,0,1,0,329,6668,3082,366,,,,,,,,,,,,,,,,
165783,1620400733691,,,,,,,,-0.27,-0.74,-0.65,-20,-9,-5,0.79,,79,5480,8,23,48,0.851,35.7,570,4.91,11.6,17.5,1,30.5,2.61,6.5,0,0,0,1,0,338,-31222,-14707,357,,,,,,,,,,,,,,,,
165803,1620400733709,,,,,,,,-0.19,-0.75,-0.76,-21,-11,-5,0.77,,79,5488,8,23,49,0.857,35.5,567,4.86,11.6,18.3,1,30.8,2.61,6.6,0,0,0,1,0,331,4838,-6644,355,,,,,,,,,,,,,,,,
165823,1620400733729,,,,,,,,-0.28,-0.75,-0.53,-22,-11,-6,0.8,,79,5450,8,23,50,0.862,35.6,566,4.86,11.6,18.3,1,31.0,2.64,6.6,0,0,0,1,0,321,170,3183,356,,,,,,,,,,,,,,,,
165843,1620400733749,13,7,30,25,35,41,-22,-0.27,-0.71,-0.65,-23,-8,-5,0.76,0,79,5392,8,23,50,0.87,35.1,558,4.88,11.7,18.3,1,31.0,2.67,6.6,0,0,0,1,0,324,-24576,3183,351,45.845707,5.179886,38.07,219.8,10,3,1.5,0,0.0,-1,0.0,0.0,0.0,0,0.64,2.764
165863,1620400733769,,,,,,,,-0.27,-0.72,-0.43,-24,-11,-6,0.77,,79,5310,8,23,51,0.875,35.0,556,4.82,11.5,18.3,1,31.1,2.71,6.6,0,0,0,1,0,323,155,2811,350,,,,,,,,,,,,,,,,
165883,1620400733789,,,,,,,,-0.27,-0.7,-0.56,-24,-8,-4,0.75,,79,5237,8,23,52,0.884,35.1,552,4.92,11.7,18.3,1,31.3,2.78,6.6,0,0,0,1,0,321,130,8841,351,,,,,,,,,,,,,,,,
165903,1620400733809,,,,,,,,-0.29,-0.72,-0.35,-25,-9,-5,0.77,,79,5163,8,23,52,0.889,34.7,540,4.82,11.5,19.4,1,31.3,2.82,6.7,0,0,0,1,0,315,135,6870,343,,,,,,,,,,,,,,,,
165923,1620400733829,,,,,,,,-0.25,-0.74,-0.49,-26,-8,-4,0.78,,79,5125,8,23,53,0.898,34.4,530,4.88,11.7,19.4,1,31.6,2.86,6.7,0,0,0,1,0,308,125,-31206,343,,,,,,,,,,,,,,,,
165943,1620400733849,8,5,30,24,34,41,-28,-0.29,-0.72,-0.28,-27,-7,-4,0.77,0,79,5079,8,23,54,0.901,33.8,526,4.84,11.7,19.4,1,31.8,2.89,6.7,0,0,0,1,0,311,-29696,3327,338,45.845699,5.179877,36.26,219.8,10,3,1.5,0,0.0,-1,0.0,,0.0,0,0.64,2.7657
165963,1620400733869,,,,,,,,-0.26,-0.74,-0.29,-28,-8,-4,0.79,,79,5090,8,23,54,0.905,33.9,515,4.87,11.6,19.4,1,31.8,2.9,6.7,0,0,0,1,0,306,-32256,-31222,339,,,,,,,,,,,,,,,,
165983,1620400733891,,,,,,,,-0.29,-0.73,-0.43,-29,-5,-3,0.78,,79,5104,8,23,54,0.91,33.8,516,4.85,11.7,19.4,1,31.8,2.89,6.7,0,0,0,1,0,307,30720,3346,338,,,,,,,,,,,,,,,,
166003,1620400733911,,,,,,,,-0.26,-0.73,-0.23,-30,-8,-3,0.77,,79,5145,8,23,54,0.913,33.9,530,4.85,11.6,20.1,1,31.9,2.87,6.8,0,0,0,1,0,304,115,3346,335,,,,,,,,,,,,,,,,
166023,1620400733931,,,,,,,,-0.19,-0.72,-0.38,-30,-6,-3,0.75,,79,5141,8,23,55,0.91,33.6,526,4.83,11.7,20.1,1,32.2,2.86,6.8,0,0,0,1,0,301,28160,4838,336,,,,,,,,,,,,,,,,
166043,1620400733951,4,1,32,25,33,41,-31,-0.27,-0.72,-0.18,-31,-6,-3,0.77,0,79,5117,8,23,55,0.905,33.5,517,4.83,11.5,20.1,1,32.1,2.88,6.8,0,0,0,1,0,302,100,-6528,335,45.845692,5.179868,35.58,219.7,10,3,1.5,0,0.0,-1,0.0,0.0,0.0,0,0.64,2.7674
166063,1620400733971,,,,,,,,-0.23,-0.74,-0.33,-32,-7,-3,0.77,,79,5086,8,23,55,0.902,33.7,525,4.87,11.6,20.1,1,32.1,2.9,6.8,0,0,0,1,0,301,24320,-6528,337,,,,,,,,,,,,,,,,
166083,1620400733991,,,,,,,,-0.27,-0.7,-0.47,-33,-4,-3,0.75,,79,5053,8,23,56,0.899,33.5,510,4.83,11.7,20.1,1,32.4,2.92,6.8,0,0,0,1,0,298,100,175,333,,,,,,,,,,,,,,,,
166103,1620400734003,,,,,,,,-0.29,-0.75,-0.26,-34,-6,-3,0.8,,79,5045,8,23,56,0.894,33.3,503,4.8,11.5,20.4,1,32.4,2.91,6.8,0,0,0,1,0,297,90,-20736,333,,,,,,,,,,,,,,,,
166123,1620400734023,,,,,,,,-0.22,-0.74,-0.41,-34,-5,-3,0.77,,79,5006,8,23,56,0.89,33.4,520,4.9,11.6,20.4,1,32.4,2.94,6.8,0,0,0,1,0,296,100,-20736,334,,,,,,,,,,,,,,,,
166143,1620400734043,3,2,33,25,32,40,-38,-0.26,-0.71,-0.41,-36,-3,-3,0.76,0,79,5018,7,23,57,0.885,33.1,508,4.82,11.6,20.4,1,32.7,2.91,6.8,0,0,0,1,0,295,23040,-20736,331,45.845692,5.179859,33.98,219.7,10,3,1.5,0,0.0,-1,0.0,,0.0,0,0.64,2.7691
166163,1620400734063,,,,,,,,-0.28,-0.71,-0.21,-36,-4,-3,0.77,,79,4957,7,23,56,0.88,33.0,493,4.81,11.5,20.4,1,31.8,2.89,6.8,0,0,0,1,0,294,23040,-20736,332,,,,,,,,,,,,,,,,
166183,1620400734091,,,,,,,,-0.18,-0.74,-0.36,-37,-6,-3,0.77,,79,4929,7,23,57,0.876,32.9,500,4.84,11.5,20.4,1,31.8,2.87,6.8,0,0,0,1,0,291,21760,-22016,329,,,,,,,,,,,,,,,,
166203,1620400734111,,,,,,,,-0.18,-0.71,-0.5,-38,-2,-2,0.73,,79,4904,7,23,57,0.871,33.0,481,4.82,11.7,19.3,1,31.5,2.86,6.4,0,0,0,1,0,289,0,165,330,,,,,,,,,,,,,,,,
166223,1620400734131,,,,,,,,-0.23,-0.7,-0.35,-39,-2,-3,0.74,,79,4877,7,23,57,0.865,32.7,481,4.84,11.7,19.3,1,31.1,2.85,6.4,0,0,0,1,0,290,0,165,327,,,,,,,,,,,,,,,,
166243,1620400734151,3,1,35,26,32,40,-44,-0.27,-0.74,-0.15,-40,-3,-3,0.79,0,79,4852,7,23,57,0.858,32.6,485,4.83,11.5,19.3,1,30.8,2.83,6.4,0,0,0,1,0,289,41,-23296,329,45.845684,5.179849,32.66,219.7,10,3,1.5,0,0.0,-1,0.0,0.0,0.0,0,0.64,2.7707
166263,1620400734171,,,,,,,,-0.22,-0.79,-0.3,-41,-4,-2,0.82,,79,4828,7,23,57,0.854,32.8,472,4.87,11.6,19.3,1,30.5,2.82,6.4,0,0,0,1,0,286,250,165,328,,,,,,,,,,,,,,,,
166283,1620400734191,,,,,,,,-0.1,-0.78,-0.45,-42,-4,-2,0.79,,79,4796,7,23,57,0.85,32.4,470,4.84,11.7,19.3,1,30.1,2.8,6.4,0,0,0,1,0,288,10686,160,324,,,,,,,,,,,,,,,,
166303,1620400734211,,,,,,,,-0.16,-0.76,-0.57,-43,0,-3,0.78,,79,4780,7,23,58,0.846,32.6,465,4.9,11.7,18.5,1,30.2,2.79,6.1,0,0,0,1,0,284,-1529,-24576,328,,,,,,,,,,,,,,,,
166323,1620400734231,,,,,,,,-0.23,-0.79,-0.48,-44,-0,-3,0.83,,79,4754,7,23,58,0.842,32.7,462,4.85,11.7,18.5,1,29.8,2.77,6.1,0,0,0,1,0,282,-16896,155,327,,,,,,,,,,,,,,,,
166343,1620400734251,3,1,36,26,31,41,-48,-0.29,-0.8,-0.27,-45,-0,-3,0.85,0,79,4731,7,23,58,0.837,32.4,469,4.86,11.6,18.5,1,29.5,2.76,6.1,0,0,0,1,0,280,24064,155,324,45.84568,5.179839,31.44,219.7,10,3,1.5,0,0.0,-1,0.0,,0.0,0,0.64,2.7724
166363,1620400734271,,,,,,,,-0.26,-0.83,-0.18,-46,-2,-2,0.87,,79,4740,7,23,58,0.833,32.6,461,4.82,11.5,18.5,1,29.6,2.77,6.1,0,0,0,1,0,277,250,-25856,326,,,,,,,,,,,,,,,,
166383,1620400734291,,,,,,,,-0.2,-0.87,-0.33,-47,-4,-2,0.89,,79,4738,7,23,58,0.828,32.4,460,4.83,11.7,18.5,1,29.6,2.77,6.1,0,0,0,1,0,275,-1534,-25856,324,,,,,,,,,,,,,,,,
166403,1620400734311,,,,,,,,-0.15,-0.88,-0.47,-48,-2,-2,0.89,,79,4737,7,23,57,0.825,32.7,465,4.86,11.7,18.5,1,29.3,2.77,6.0,0,0,0,1,0,273,-1534,150,327,,,,,,,,,,,,,,,,
166423,1620400734331,,,,,,,,-0.16,-0.88,-0.6,-49,0,-2,0.9,,79,4725,7,23,58,0.823,32.5,459,4.89,11.7,18.5,1,29.4,2.76,6.0,0,0,0,1,0,274,630,145,325,,,,,,,,,,,,,,,,
166443,1620400734351,3,2,36,26,31,41,-47,-0.24,-0.88,-0.55,-50,1,-2,0.91,0,79,4731,7,23,58,0.824,32.3,460,4.83,11.6,18.5,1,29.5,2.76,6.0,0,0,0,1,0,273,250,-27136,323,45.845676,5.179829,31.78,219.7,10,3,1.5,0,0.0,-1,0.0,0.0,0.0,0,0.64,2.774
166463,1620400734371,,,,,,,,-0.28,-0.88,-0.34,-51,2,-2,0.92,,79,4722,7,23,58,0.825,32.3,455,4.87,11.6,18.5,1,29.4,2.75,6.0,0,0,0,1,0,272,250,-28416,323,,,,,,,,,,,,,,,,
166483,1620400734391,,,,,,,,-0.32,-0.88,-0.14,-51,-1,-2,0.93,,79,4715,7,23,58,0.826,32.1,458,4.83,11.5,18.5,1,29.3,2.75,6.0,0,0,0,1,0,275,2414,-28416,321,,,,,,,,,,,,,,,,
166503,1620400734411,,,,,,,,-0.3,-0.91,0.01,-52,-3,-2,0.96,,79,4642,8,23,58,0.828,31.9,462,4.86,11.5,18.4,1,28.4,2.71,5.9,0,0,0,1,0,273,250,-29696,319,,,,,,,,,,,,,,,,
166523,1620400734431,,,,,,,,-0.23,-0.92,-0.16,-52,-3,-2,0.95,,79,4669,9,23,58,0.832,31.8,457,4.81,11.6,18.4,1,28.7,2.72,5.9,0,0,0,1,0,272,250,135,318,,,,,,,,,,,,,,,,
166543,1620400734451,2,1,36,26,31,41,-48,-0.19,-0.92,-0.31,-53,-3,-2,0.94,0,79,4651,10,23,59,0.835,31.7,452,4.79,11.6,18.4,1,28.8,2.72,5.9,0,0,0,1,0,271,28160,-30976,317,45.845673,5.179818,31.55,219.7,10,3,1.5,0,0.0,-1,0.0,,0.0,0,0.64,2.7757
166563,1620400734471,,,,,,,,-0.12,-0.9,-0.45,-53,-1,-2,0.91,,79,4709,11,23,60,0.839,31.9,453,4.86,11.7,18.4,1,29.8,2.75,5.9,0,0,0,1,0,270,28160,130,319,,,,,,,,,,,,,,,,
166583,1620400734491,,,,,,,,-0.15,-0.87,-0.58,-53,3,-2,0.89,,79,4730,12,23,62,0.841,31.3,438,4.9,11.7,18.4,1,30.7,2.76,5.9,0,0,0,1,0,269,-1281,-32256,313,,,,,,,,,,,,,,,,
166603,1620400734510,,,,,,,,-0.22,-0.89,-0.44,-54,2,-2,0.91,,79,4803,12,23,63,0.844,31.5,423,4.86,11.6,19.6,1,32.0,2.88,6.2,0,0,0,1,0,268,-1281,125,315,,,,,,,,,,,,,,,,
166623,1620400734530,,,,,,,,-0.26,-0.85,-0.23,-54,1,-1,0.89,,79,4834,13,23,64,0.846,31.0,385,4.8,11.5,19.6,1,32.7,2.94,6.2,0,0,0,1,0,268,250,120,310,,,,,,,,,,,,,,,,
166643,1620400734550,0,3,36,26,31,40,-39,-0.17,-0.85,-0.38,-53,-1,-1,0.86,0,79,4889,13,23,65,0.848,31.3,403,4.87,11.6,19.6,1,33.7,3.01,6.2,0,0,0,1,0,268,-1,120,309,45.845673,5.179808,30.84,219.7,10,3,1.5,0,0.0,-1,0.0,0.0,0.0,0,0.65,2.7774
166663,1620400734570,,,,,,,,-0.13,-0.79,-0.51,-53,1,-2,0.8,,79,4962,13,23,67,0.849,31.0,380,4.81,11.7,19.6,1,35.3,3.15,6.2,0,0,0,1,0,268,-1,120,310,,,,,,,,,,,,,,,,
166683,1620400734590,,,,,,,,-0.19,-0.75,-0.3,-52,-1,-1,0.78,,79,5008,13,23,68,0.848,30.7,397,4.81,11.5,19.6,1,36.2,3.23,6.2,0,0,0,1,0,268,250,110,309,,,,,,,,,,,,,,,,
166703,1620400734610,,,,,,,,-0.11,-0.75,-0.42,-52,-1,-1,0.76,,79,5022,12,23,69,0.848,30.7,408,4.83,11.5,24.6,1,36.4,3.28,7.5,0,0,0,1,0,274,-1,29440,307,,,,,,,,,,,,,,,,
166723,1620400734630,,,,,,,,-0.1,-0.73,-0.55,-51,-0,-1,0.74,,79,4981,12,23,69,0.847,30.6,426,4.88,11.7,24.6,1,36.1,3.27,7.5,0,0,0,1,0,281,-1527,29440,306,,,,,,,,,,,,,,,,
166743,1620400734650,2,1,36,29,31,38,-33,-0.12,-0.68,-0.41,-50,-2,-1,0.69,0,79,4826,11,23,70,0.846,31.0,437,4.85,11.5,24.6,1,34.3,3.21,7.5,0,0,0,1,0,297,-1527,30720,310,45.845673,5.179797,30.13,219.7,10,3,1.5,0,0.0,-1,0.0,,0.0,0,0.65,2.779
166763,1620400734670,,,,,,,,-0.16,-0.64,-0.21,-49,-2,-1,0.66,,79,4635,9,23,69,0.842,30.5,438,4.83,11.5,24.6,1,31.3,3.07,7.5,0,0,0,1,0,312,30208,29440,305,,,,,,,,,,,,,,,,
166783,1620400734691,,,,,,,,-0.22,-0.63,-0.02,-47,-5,-1,0.67,,79,4565,8,23,69,0.837,30.8,440,4.88,11.5,24.6,1,30.4,3.03,7.5,0,0,0,1,0,294,-1534,29440,308,,,,,,,,,,,,,,,,
166803,1620400734711,,,,,,,,-0.23,-0.65,0.15,-46,-7,-1,0.69,,79,4614,7,23,67,0.833,30.4,435,4.83,11.5,20.8,1,30.6,3.05,6.4,0,0,0,1,0,281,30208,115,304,,,,,,,,,,,,,,,,
166823,1620400734731,,,,,,,,-0.21,-0.67,0.28,-46,-8,-1,0.71,,79,4643,7,23,66,0.83,31.0,444,4.86,11.5,20.8,1,30.7,3.01,6.4,0,0,0,1,0,282,-1534,29440,310,,,,,,,,,,,,,,,,
166843,1620400734751,1,3,36,30,31,37,-35,-0.18,-0.66,0.21,-45,-9,-1,0.69,0,79,4650,7,23,65,0.829,30.8,441,4.84,11.6,20.8,1,30.5,2.96,6.4,0,0,0,1,0,281,-1534,30720,308,45.845673,5.179786,30.91,219.7,10,3,1.5,0,0.0,-1,0.0,0.0,0.0,0,0.65,2.7807
166863,1620400734771,,,,,,,,-0.1,-0.68,0.03,-45,-10,-1,0.69,,79,4689,7,23,65,0.828,30.8,445,4.8,11.7,20.8,1,31.0,2.93,6.4,0,0,0,1,0,280,28160,115,310,,,,,,,,,,,,,,,,
166883,1620400734791,,,,,,,,-0.03,-0.66,-0.14,-44,-7,-0,0.66,,79,4683,7,23,65,0.827,31.1,452,4.86,11.7,20.8,1,30.9,2.93,6.4,0,0,0,1,0,284,630,120,311,,,,,,,,,,,,,,,,
166903,1620400734810,,,,,,,,-0.06,-0.65,-0.3,-44,-4,-1,0.65,,79,4598,7,23,64,0.827,31.0,445,4.86,11.7,20.0,1,29.5,2.85,6.2,0,0,0,1,0,280,250,30720,310,,,,,,,,,,,,,,,,
166923,1620400734830,,,,,,,,-0.05,-0.65,-0.44,-44,-3,-1,0.65,,79,4597,7,23,64,0.828,31.4,443,4.86,11.7,20.0,1,29.5,2.85,6.2,0,0,0,1,0,278,24064,120,314,,,,,,,,,,,,,,,,
166943,1620400734850,2,3,36,30,30,37,-38,-0.07,-0.67,-0.57,-44,1,-1,0.67,0,79,4583,7,23,63,0.829,31.1,439,4.85,11.7,20.0,1,29.0,2.79,6.2,0,0,0,1,0,277,250,30720,308,45.845673,5.179775,30.67,219.7,10,3,1.5,0,0.0,-1,0.0,,0.0,0,0.65,2.7824
166963,1620400734870,,,,,,,,-0.14,-0.67,-0.36,-44,2,-1,0.69,,79,4600,7,23,63,0.831,31.0,438,4.82,11.6,20.0,1,29.2,2.8,6.2,0,0,0,1,0,276,30208,115,310,,,,,,,,,,,,,,,,
166983,1620400734892,,,,,,,,-0.21,-0.71,-0.16,-44,2,-1,0.74,,79,4666,7,23,63,0.832,30.6,444,4.83,11.6,20.0,1,30.1,1.66,6.2,0,0,0,1,0,275,-1527,30720,306,,,,,,,,,,,,,,,,
167003,1620400734912,,,,,,,,-0.2,-0.73,0.02,-44,0,-2,0.76,,79,4596,7,23,62,0.834,31.1,441,4.83,11.6,18.9,1,28.9,2.75,5.8,0,0,0,1,0,274,2414,115,311,,,,,,,,,,,,,,,,
167023,1620400734932,,,,,,,,-0.23,-0.76,0.18,-45,-1,-2,0.79,,79,4657,7,23,62,0.838,31.0,446,4.86,11.5,18.9,1,29.7,1.61,5.8,0,0,0,1,0,274,2414,30720,310,,,,,,,,,,,,,,,,
167043,1620400734952,1,1,36,29,30,38,-41,-0.19,-0.78,0.09,-45,-5,-2,0.81,0,79,4573,7,23,62,0.841,31.0,448,4.89,11.5,18.9,1,28.6,2.74,5.8,0,0,0,1,0,275,28160,115,310,45.845673,5.179764,30.69,219.7,10,3,1.5,0,0.0,-1,0.0,0.0,0.0,0,0.65,2.784
167063,1620400734972,,,,,,,,-0.14,-0.81,-0.03,-45,-7,-2,0.82,,79,4627,7,23,61,0.844,31.2,441,4.89,11.5,18.9,1,29.1,2.72,5.8,0,0,0,1,0,272,-1,120,312,,,,,,,,,,,,,,,,
167083,1620400734992,,,,,,,,-0.08,-0.79,-0.19,-45,-7,-1,0.79,,79,4588,7,23,61,0.843,31.2,448,4.83,11.6,18.9,1,28.6,2.7,5.8,0,0,0,1,0,273,28160,120,311,,,,,,,,,,,,,,,,
167103,1620400735004,,,,,,,,-0.04,-0.76,-0.35,-46,-8,-1,0.76,,79,4534,7,23,61,0.841,31.3,437,4.83,11.5,18.1,1,27.8,2.68,5.6,0,0,0,1,0,273,2414,115,313,,,,,,,,,,,,,,,,
167123,1620400735024,,,,,,,,0.03,-0.74,-0.48,-46,-8,-2,0.75,,79,4636,7,23,60,0.839,31.0,445,4.81,11.6,18.1,1,28.9,2.72,5.6,0,0,0,1,0,272,2414,29440,308,,,,,,,,,,,,,,,,
167143,1620400735044,1,2,37,30,30,39,-46,0.09,-0.76,-0.61,-46,-6,-1,0.76,0,79,4552,7,23,60,0.838,31.0,442,4.75,11.6,18.1,1,27.8,2.68,5.6,0,0,0,1,0,273,-1281,115,310,45.845673,5.179754,30.25,219.7,10,3,1.5,0,0.0,-1,0.0,,0.0,0,0.65,2.7857
167163,1620400735064,,,,,,,,0.06,-0.77,-0.72,-46,-3,-2,0.77,,79,4623,7,23,60,0.833,30.6,441,4.81,11.7,18.1,1,28.7,2.71,5.6,0,0,0,1,0,271,-1,115,306,,,,,,,,,,,,,,,,
167183,1620400735084,,,,,,,,0.06,-0.78,-0.83,-47,-3,-2,0.78,,79,4639,7,23,60,0.828,31.0,448,4.84,11.7,18.1,1,28.9,2.71,5.6,0,0,0,1,0,269,-1,115,310,,,,,,,,,,,,,,,,
167203,1620400735110,,,,,,,,0.01,-0.79,-0.92,-47,1,-2,0.79,,79,4554,7,23,60,0.822,31.1,439,4.83,11.7,18.2,1,27.8,2.68,5.6,0,0,0,1,0,270,-1,29440,311,,,,,,,,,,,,,,,,
167223,1620400735130,,,,,,,,-0.05,-0.76,-0.85,-48,4,-2,0.76,,79,4665,7,23,60,0.815,30.9,443,4.85,11.7,18.2,1,29.3,2.72,5.6,0,0,0,1,0,269,-1,115,309,,,,,,,,,,,,,,,,
167243,1620400735150,1,2,37,29,29,39,-46,-0.12,-0.81,-0.71,-48,4,-2,0.82,0,79,4559,7,23,60,0.81,30.9,442,4.83,11.6,18.2,1,27.9,2.68,5.6,0,0,0,1,0,270,-1,29440,309,45.845673,5.179743,30.2,219.7,10,3,1.5,0,0.0,-1,0.0,0.0,0.0,0,0.65,2.7874
167263,1620400735170,,,,,,,,-0.16,-0.79,-0.49,-49,4,-2,0.81,,79,4547,9,23,60,0.805,30.8,435,4.82,11.6,18.2,1,27.7,2.68,5.6,0,0,0,1,0,269,-1,29440,309,,,,,,,,,,,,,,,,
167283,1620400735190,,,,,,,,-0.21,-0.77,-0.28,-49,4,-2,0.79,,79,4609,10,23,60,0.802,31.1,443,4.84,11.7,18.2,1,28.5,2.7,5.6,0,0,0,1,0,268,-1,110,311,,,,,,,,,,,,,,,,
167303,1620400735210,,,,,,,,-0.28,-0.78,-0.09,-49,4,-2,0.83,,79,4485,11,23,61,0.797,30.6,433,4.82,11.6,18.3,1,27.2,2.66,5.6,0,0,0,1,0,269,-1,110,306,,,,,,,,,,,,,,,,
167323,1620400735230,,,,,,,,-0.32,-0.82,0.08,-50,3,-3,0.88,,79,4580,11,23,62,0.792,30.7,434,4.87,11.5,18.3,1,28.6,2.74,5.6,0,0,0,1,0,270,-1,29440,307,,,,,,,,,,,,,,,,
167343,1620400735250,-0,2,37,29,31,39,-45,-0.35,-0.82,0.24,-50,1,-3,0.89,0,79,4557,12,23,63,0.79,30.6,437,4.87,11.5,18.3,1,28.1,2.78,5.6,0,0,0,1,0,270,-1,115,306,45.845676,5.179732,30.19,219.7,10,3,1.5,0,0.0,-1,0.0,,0.0,0,0.65,2.7891
167363,1620400735270,,,,,,,,-0.37,-0.84,0.39,-50,-0,-3,0.91,,79,4527,12,23,65,0.787,31.0,428,4.87,11.5,18.3,1,29.4,2.86,5.6,0,0,0,1,0,270,-1,115,310,,,,,,,,,,,,,,,,
167383,1620400735290,,,,,,,,-0.36,-0.84,0.52,-50,-4,-3,0.92,,80,4612,14,23,66,0.784,30.9,438,4.85,11.5,18.3,1,30.2,2.95,5.6,0,0,0,1,0,269,-1,110,309,,,,,,,,,,,,,,,,
167403,1620400735310,,,,,,,,-0.32,-0.87,0.64,-50,-5,-2,0.93,,79,4577,16,23,68,0.784,30.6,432,4.9,11.5,20.4,1,30.4,3.03,6.3,0,0,0,1,0,271,-1,29440,306,,,,,,,,,,,,,,,,
167423,1620400735330,,,,,,,,-0.24,-0.84,0.54,-50,-6,-2,0.87,,79,4628,18,23,71,0.786,30.7,438,4.88,11.5,20.4,1,31.8,3.11,6.3,0,0,0,1,0,272,-1,110,307,,,,,,,,,,,,,,,,
167443,1620400735350,1,2,38,29,31,39,-46,-0.19,-0.81,0.33,-50,-7,-2,0.83,0,80,4621,20,23,74,0.788,30.7,440,4.87,11.5,20.4,1,32.4,2.0,6.3,0,0,0,1,0,274,-1,29440,307,45.84568,5.179722,30.04,219.6,10,3,1.5,0,0.0,-1,0.0,0.0,0.0,0,0.65,2.7907
167463,1620400735370,,,,,,,,-0.09,-0.82,0.14,-50,-8,-2,0.83,,79,4658,21,23,77,0.79,31.1,438,4.82,11.6,20.4,1,33.7,3.29,6.3,0,0,0,1,0,277,-1,110,311,,,,,,,,,,,,,,,,
167483,1620400735390,,,,,,,,-0.05,-0.8,-0.04,-50,-5,-2,0.8,,79,4659,23,23,80,0.791,31.0,443,4.82,11.6,20.4,1,34.6,3.44,6.3,0,0,0,1,0,275,-1,30720,308,,,,,,,,,,,,,,,,
167503,1620400735410,,,,,,,,-0.03,-0.8,-0.2,-50,-3,-2,0.8,,79,4610,25,23,83,0.793,31.0,438,4.85,11.7,24.2,1,34.8,3.57,7.5,0,0,0,1,0,282,-1,30720,310,,,,,,,,,,,,,,,,
167523,1620400735430,,,,,,,,-0.05,-0.75,-0.35,-50,-0,-2,0.75,,79,4573,26,23,86,0.794,30.9,437,4.87,11.7,24.2,1,35.0,3.63,7.5,0,0,0,1,0,280,-1,110,307,,,,,,,,,,,,,,,,
167543,1620400735450,1,0,38,30,30,39,-45,-0.07,-0.75,-0.49,-50,2,-2,0.76,0,79,4574,27,23,89,0.795,30.9,440,4.87,11.7,24.2,1,35.9,3.71,7.5,0,0,0,1,0,276,250,30720,309,45.845684,5.179712,29.92,219.6,10,3,1.5,0,0.0,-1,0.0,,0.0,0,0.65,2.7924
167563,1620400735470,,,,,,,,-0.11,-0.74,-0.42,-51,4,-2,0.75,,79,4635,28,23,91,0.8,30.8,437,4.83,11.6,24.2,1,37.5,3.79,7.5,0,0,0,1,0,274,-1,29440,308,,,,,,,,,,,,,,,,
167583,1620400735491,,,,,,,,-0.17,-0.76,-0.32,-51,4,-2,0.78,,79,4539,29,24,92,0.806,31.0,438,4.85,11.7,24.2,1,36.6,3.89,7.5,0,0,0,1,0,274,250,115,310,,,,,,,,,,,,,,,,
167603,1620400735511,,,,,,,,-0.23,-0.74,-0.19,-51,5,-3,0.78,,79,4474,30,24,93,0.815,31.0,431,4.83,11.6,25.6,1,36.3,3.97,8.0,0,0,0,1,0,271,250,30720,310,,,,,,,,,,,,,,,,
167623,1620400735531,,,,,,,,-0.25,-0.72,-0.25,-51,5,-3,0.77,,79,4437,31,24,94,0.822,31.0,426,4.83,11.6,25.6,1,36.5,4.05,8.0,0,0,0,1,0,269,-1,30720,310,,,,,,,,,,,,,,,,
167643,1620400735551,0,2,38,29,30,38,-42,-0.31,-0.69,-0.26,-51,7,-3,0.76,0,79,4472,32,24,94,0.832,31.3,423,4.86,11.7,25.6,1,36.9,4.04,8.0,0,0,0,1,0,269,-1,29440,313,45.845692,5.179703,29.81,219.6,10,3,1.5,0,0.0,-1,0.0,0.0,0.0,0,0.65,2.794
167663,1620400735571,,,,,,,,-0.31,-0.71,-0.4,-51,7,-3,0.77,,79,4381,32,24,94,0.858,31.0,418,4.84,11.7,25.6,1,35.8,4.07,8.0,0,0,0,1,0,269,-1,29440,305,,,,,,,,,,,,,,,,
167683,1620400735591,,,,,,,,-0.21,-0.73,-0.54,-51,8,-3,0.76,,79,4301,32,24,94,0.874,30.7,421,4.87,11.7,25.6,1,35.0,4.09,8.0,0,0,0,1,0,267,-1,29440,307,,,,,,,,,,,,,,,,
167703,1620400735609,,,,,,,,-0.17,-0.73,-0.66,-51,8,-3,0.75,,79,4234,32,24,95,0.895,30.9,412,4.82,11.6,26.9,1,35.0,4.19,8.3,0,0,0,1,0,269,-1,105,303,,,,,,,,,,,,,,,,
167723,1620400735629,,,,,,,,-0.18,-0.73,-0.55,-50,7,-3,0.75,,80,4148,33,24,95,0.923,30.8,407,4.79,11.5,26.9,1,34.1,4.22,8.3,0,0,0,1,0,267,-1,105,308,,,,,,,,,,,,,,,,
167743,1620400735649,-0,2,37,29,30,38,-41,-0.19,-0.73,-0.47,-50,5,-2,0.75,0,79,4077,34,24,95,0.992,30.5,396,4.82,11.6,26.9,1,33.4,4.24,8.3,0,0,0,1,0,267,-1,105,306,45.845692,5.179695,29.15,219.6,10,3,1.5,0,0.0,-1,0.0,,0.0,0,0.65,2.7957
167763,1620400735669,,,,,,,,-0.16,-0.74,-0.57,-50,5,-2,0.75,,79,3994,34,24,95,1.033,30.5,392,4.87,11.7,26.9,1,32.6,4.26,8.3,0,0,0,1,0,266,-1,105,305,,,,,,,,,,,,,,,,
167783,1620400735689,,,,,,,,-0.18,-0.69,-0.43,-50,5,-2,0.72,,80,3952,34,24,96,1.089,30.2,381,4.8,11.5,26.9,1,33.3,4.34,8.3,0,0,0,1,0,263,-1,95,303,,,,,,,,,,,,,,,,
167803,1620400735709,,,,,,,,-0.24,-0.67,-0.41,-49,5,-2,0.71,,79,4020,34,24,96,1.145,30.1,383,4.87,11.6,26.1,1,33.9,4.34,7.9,0,0,0,1,0,257,-1,21760,301,,,,,,,,,,,,,,,,
167823,1620400735729,,,,,,,,-0.23,-0.66,-0.54,-49,6,-2,0.7,,79,4217,36,24,96,1.208,29.7,389,4.86,11.7,26.1,1,35.7,4.27,7.9,0,0,0,1,0,250,-1,0,300,,,,,,,,,,,,,,,,
167843,1620400735749,1,2,35,29,32,39,-33,-0.19,-0.62,-0.66,-49,8,-1,0.65,0,79,4409,39,24,96,1.246,29.8,400,4.88,11.7,26.1,1,37.4,4.21,7.9,0,0,0,1,0,256,-1,0,298,45.845696,5.179687,28.76,219.6,10,3,1.5,0,0.0,-1,0.0,0.0,0.0,0,0.66,2.7974
167863,1620400735769,,,,,,,,-0.18,-0.59,-0.77,-48,9,-1,0.62,,79,4480,41,24,96,1.295,29.7,418,4.87,11.7,26.1,1,38.0,4.19,7.9,0,0,0,1,0,257,-1,0,297,,,,,,,,,,,,,,,,
167883,1620400735791,,,,,,,,-0.13,-0.57,-0.88,-47,10,-1,0.58,,79,4451,42,24,96,1.345,29.2,418,4.83,11.7,26.1,1,37.8,7.25,7.9,0,0,0,1,0,259,-1,0,292,,,,,,,,,,,,,,,,
167903,1620400735811,,,,,,,,-0.05,-0.54,-0.97,-46,11,-1,0.54,,79,4424,42,24,96,1.392,28.9,423,4.81,11.7,52.4,1,37.5,7.27,15.2,0,0,0,1,0,260,-1,0,289,,,,,,,,,,,,,,,,
167923,1620400735831,,,,,,,,-0.09,-0.51,-1.06,-45,13,-1,0.52,,79,4777,42,24,96,1.418,28.8,428,4.82,11.7,52.4,1,40.8,7.0,15.2,0,0,0,1,0,261,-1,41,288,,,,,,,,,,,,,,,,
167943,1620400735851,-0,0,35,30,31,38,-32,-0.17,-0.52,-0.8,-45,10,-1,0.55,0,79,5151,42,24,96,1.452,28.8,456,4.79,11.5,52.4,1,42.0,7.21,15.2,0,0,0,1,0,261,-10440,-16896,288,45.845703,5.17968,28.97,219.6,10,3,1.5,0,0.0,-1,0.0,,0.0,0,0.66,2.799
167963,1620400735871,,,,,,,,-0.14,-0.53,-0.72,-44,10,-2,0.55,,79,5686,42,24,96,1.487,28.9,516,4.82,11.6,52.4,1,40.7,8.59,15.2,0,0,0,1,0,259,-1,-16896,289,,,,,,,,,,,,,,,,
167983,1620400735891,,,,,,,,-0.09,-0.53,-0.51,-44,8,-2,0.53,,79,6054,42,24,95,1.498,29.1,560,4.85,11.6,52.4,1,40.2,4.13,15.2,0,0,0,1,0,299,-1,25600,291,,,,,,,,,,,,,,,,
168003,1620400735911,,,,,,,,-0.1,-0.47,-0.3,-43,8,-3,0.48,,80,6056,42,24,95,1.498,29.6,575,4.87,11.6,87.3,1,40.2,9.11,25.6,0,0,0,1,0,383,-1,-27136,296,,,,,,,,,,,,,,,,
168023,1620400735931,,,,,,,,-0.11,-0.44,-0.11,-43,5,-4,0.45,,80,6036,42,24,95,1.498,30.3,581,4.86,11.5,87.3,1,40.0,9.06,25.6,0,0,0,1,0,371,-1,-23296,300,,,,,,,,,,,,,,,,
168043,1620400735951,-1,2,39,34,27,33,-30,-0.1,-0.41,0.07,-44,2,-5,0.42,0,80,6013,41,24,95,1.498,30.3,587,4.8,11.5,87.3,1,39.8,9.0,25.6,0,0,0,1,0,331,-1,2790,303,45.845711,5.179674,28.53,219.6,10,3,1.5,0,0.0,-1,0.0,0.0,0.0,0,0.66,2.8007
168063,1620400735971,,,,,,,,-0.15,-0.4,0.23,-44,1,-5,0.42,,80,5956,41,24,95,1.47,31.1,589,4.81,11.5,87.3,1,39.9,8.8,25.6,0,0,0,1,0,336,28160,257,311,,,,,,,,,,,,,,,,
168083,1620400735991,,,,,,,,-0.14,-0.38,0.38,-44,2,-6,0.41,,80,5939,41,24,95,1.448,31.2,585,4.87,11.6,87.3,1,39.9,8.68,25.6,0,0,0,1,0,339,630,165,312,,,,,,,,,,,,,,,,
168103,1620400736003,,,,,,,,-0.16,-0.35,0.34,-44,3,-6,0.38,,79,5924,41,24,95,1.42,31.5,581,4.86,11.6,75.6,1,40.0,8.57,23.6,0,0,0,1,0,378,630,175,315,,,,,,,,,,,,,,,,
168123,1620400736023,,,,,,,,-0.12,-0.28,0.15,-44,7,-6,0.3,,79,5929,41,24,95,1.385,32.1,581,4.88,11.6,75.6,1,40.0,8.48,23.6,0,0,0,1,0,375,-16896,2560,322,,,,,,,,,,,,,,,,
168143,1620400736043,0,1,43,37,26,33,-24,-0.04,-0.19,-0.03,-44,10,-6,0.2,0,79,5952,41,24,95,1.343,32.7,588,4.82,11.6,75.6,1,39.9,8.47,23.6,0,0,0,1,0,362,0,2060,327,45.845715,5.179668,28.78,219.6,10,3,1.5,0,0.0,-1,0.0,,0.0,0,0.66,2.8024
168163,1620400736063,,,,,,,,0.07,-0.18,-0.19,-45,12,-5,0.2,,79,5992,41,24,95,1.271,33.0,592,4.89,11.6,75.6,1,39.8,8.48,23.6,0,0,0,1,0,346,24320,-6656,330,,,,,,,,,,,,,,,,
168183,1620400736083,,,,,,,,0.12,-0.2,-0.35,-45,15,-5,0.23,,79,6027,41,24,95,1.213,33.3,592,4.87,11.6,75.6,1,39.9,8.39,23.6,0,0,0,1,0,332,100,-6656,333,,,,,,,,,,,,,,,,
168203,1620400736109,,,,,,,,0.13,-0.16,-0.48,-44,18,-6,0.2,,79,6052,41,24,95,1.169,33.4,596,4.82,11.6,68.9,1,40.2,8.28,23.3,0,0,0,1,0,375,29440,-30438,340,,,,,,,,,,,,,,,,
168223,1620400736129,,,,,,,,0.12,-0.15,-0.61,-43,16,-6,0.19,,80,6077,41,24,95,1.109,33.9,599,4.84,11.6,68.9,1,40.4,8.16,23.3,0,0,0,1,0,390,120,2811,339,,,,,,,,,,,,,,,,
168243,1620400736149,1,2,44,38,25,33,-16,0.05,-0.07,-0.72,-43,16,-7,0.09,0,80,6069,39,24,94,1.031,34.2,602,4.86,11.5,68.9,1,40.4,7.99,23.3,0,0,0,1,0,379,130,0,342,45.845722,5.179662,30.4,219.6,10,3,1.5,0,0.0,-1,0.0,0.0,0.0,0,0.66,2.804
168263,1620400736169,,,,,,,,0.03,-0.09,-0.71,-42,18,-6,0.09,,79,5984,37,24,94,0.984,35.0,603,4.81,11.5,68.9,1,39.8,4.08,23.3,0,0,0,1,0,371,-29696,-31744,350,,,,,,,,,,,,,,,,
168283,1620400736191,,,,,,,,0.01,-0.04,-0.82,-42,18,-5,0.04,,79,5877,36,24,94,0.921,35.3,595,4.86,11.6,68.9,1,40.1,3.93,23.3,0,0,0,1,0,355,145,1,353,,,,,,,,,,,,,,,,
168303,1620400736211,,,,,,,,0.04,-0.07,-0.91,-41,19,-5,0.08,,79,5787,34,24,93,0.857,35.7,582,4.86,11.6,55.9,1,40.4,7.21,19.7,0,0,0,1,0,366,-20736,2790,357,,,,,,,,,,,,,,,,
168323,1620400736231,,,,,,,,0.1,-0.15,-1.0,-40,18,-5,0.18,,80,5799,30,24,93,0.831,35.6,581,4.78,11.5,55.9,1,40.4,7.17,19.7,0,0,0,1,0,384,-32559,230,356,,,,,,,,,,,,,,,,
168343,1620400736251,1,2,44,38,25,33,-13,0.2,-0.25,-1.09,-39,17,-5,0.32,0,80,5956,24,24,91,0.797,36.0,585,4.79,11.5,55.9,1,39.9,7.24,19.7,0,0,0,1,0,378,6668,486,360,45.84573,5.179657,32.66,219.6,10,3,1.5,0,0.0,-1,0.0,,0.0,0,0.66,2.8057
168363,1620400736271,,,,,,,,0.3,-0.36,-1.16,-38,17,-4,0.47,,80,6067,19,24,87,0.753,36.5,595,4.78,11.6,55.9,1,39.6,4.72,19.7,0,0,0,1,0,365,3327,1,365,,,,,,,,,,,,,,,,
168383,1620400736291,,,,,,,,0.37,-0.47,-1.23,-37,18,-3,0.6,,79,6048,18,24,84,0.731,36.8,596,4.86,11.6,55.9,1,38.8,4.52,19.7,0,0,0,1,0,366,6870,8200,368,,,,,,,,,,,,,,,,
168403,1620400736311,,,,,,,,0.46,-0.56,-1.3,-35,16,-4,0.72,,80,5804,17,24,82,0.726,36.7,592,4.86,11.5,32.0,1,38.5,4.22,11.8,0,0,0,1,0,377,28553,-19019,367,,,,,,,,,,,,,,,,
168423,1620400736331,,,,,,,,0.38,-0.55,-1.02,-34,13,-4,0.66,,80,5545,14,24,80,0.718,37.1,577,4.78,11.5,32.0,1,38.7,4.08,11.8,0,0,0,1,0,367,-29302,-992,371,,,,,,,,,,,,,,,,
168443,1620400736351,0,3,43,38,26,33,-18,0.36,-0.55,-1.1,-33,15,-3,0.66,0,79,5176,12,24,79,0.71,37.7,548,4.81,11.7,32.0,1,39.0,3.77,11.8,0,0,0,1,0,363,2060,-6656,377,45.845737,5.179653,35.13,219.6,10,3,1.5,0,0.0,-1,0.0,0.0,0.0,0,0.66,2.8074
168463,1620400736371,,,,,,,,0.28,-0.57,-0.84,-33,13,-3,0.64,,80,5320,12,24,78,0.704,37.2,533,4.8,11.5,32.0,1,38.5,3.84,11.8,0,0,0,1,0,357,-14707,770,372,,,,,,,,,,,,,,,,
168483,1620400736391,,,,,,,,0.25,-0.51,-0.94,-32,14,-2,0.57,,80,5539,11,24,77,0.703,37.7,551,4.91,11.6,32.0,1,37.8,3.94,11.8,0,0,0,1,0,354,-6644,770,377,,,,,,,,,,,,,,,,
168503,1620400736411,,,,,,,,0.3,-0.54,-1.03,-32,15,-1,0.61,,80,5707,11,24,75,0.704,37.9,567,4.87,11.6,27.3,1,37.2,3.93,10.3,0,0,0,1,0,356,2790,3,379,,,,,,,,,,,,,,,,
168523,1620400736431,,,,,,,,0.33,-0.64,-1.11,-31,15,-1,0.72,,80,5931,11,24,73,0.704,37.4,575,4.79,11.6,27.3,1,36.5,3.86,10.3,0,0,0,1,0,357,2060,742,374,,,,,,,,,,,,,,,,
168543,1620400736451,1,2,38,31,29,36,-18,0.42,-0.7,-1.18,-31,17,-0,0.82,0,80,6151,11,24,71,0.704,37.5,590,4.88,11.6,27.3,1,36.8,3.7,10.3,0,0,0,1,0,358,-6640,3,377,45.845745,5.179648,37.4,219.6,10,3,1.5,0,0.0,-1,0.0,,0.0,0,0.66,2.8091
168563,1620400736471,,,,,,,,0.38,-0.71,-1.25,-31,21,-1,0.8,,80,6192,11,24,69,0.705,37.3,608,4.89,11.6,27.3,1,36.6,3.52,10.3,0,0,0,1,0,358,-6640,742,379,,,,,,,,,,,,,,,,
168583,1620400736491,,,,,,,,0.38,-0.66,-1.31,-30,20,-1,0.76,,80,6067,11,24,67,0.705,37.6,621,4.84,11.6,27.3,1,35.5,3.26,10.3,0,0,0,1,0,361,3302,770,376,,,,,,,,,,,,,,,,
168603,1620400736510,,,,,,,,0.37,-0.63,-1.37,-30,21,-1,0.73,,79,5826,11,24,65,0.705,38.0,608,4.87,11.7,22.4,1,34.9,2.93,8.4,0,0,0,1,0,362,3183,-6656,380,,,,,,,,,,,,,,,,
168623,1620400736530,,,,,,,,0.4,-0.64,-1.42,-30,20,-1,0.75,,80,5728,11,24,64,0.705,37.9,593,4.79,11.5,22.4,1,34.7,2.94,8.4,0,0,0,1,0,359,-6644,2278,379,,,,,,,,,,,,,,,,
168643,1620400736550,1,2,37,31,30,36,-20,0.37,-0.72,-1.18,-30,16,-1,0.81,0,80,5524,11,24,65,0.707,37.8,576,4.8,11.5,22.4,1,35.0,2.97,8.4,0,0,0,1,0,356,2060,-6656,378,45.845753,5.179644,37.83,219.6,10,3,1.5,0,0.0,-1,0.0,0.0,0.0,0,0.66,2.8107
168663,1620400736570,,,,,,,,0.32,-0.67,-1.25,-30,16,-1,0.74,,80,5405,11,24,65,0.709,38.0,569,4.84,11.6,22.4,1,35.1,3.0,8.4,0,0,0,1,0,355,-6644,3,380,,,,,,,,,,,,,,,,
168683,1620400736590,,,,,,,,0.36,-0.72,-1.17,-30,13,-2,0.8,,80,5346,11,24,65,0.711,37.8,552,4.82,11.5,22.4,1,35.1,3.01,8.4,0,0,0,1,0,355,-6644,770,378,,,,,,,,,,,,,,,,
168703,1620400736610,,,,,,,,0.21,-0.72,-0.91,-30,12,-2,0.75,,80,5392,11,24,66,0.715,37.5,546,4.83,11.5,19.8,1,35.4,3.1,7.5,0,0,0,1,0,355,3302,3,375,,,,,,,,,,,,,,,,
168723,1620400736630,,,,,,,,0.3,-0.7,-1.0,-30,12,-1,0.76,,80,5372,11,24,66,0.723,37.5,548,4.9,11.6,19.8,1,35.4,3.1,7.5,0,0,0,1,0,354,3302,770,376,,,,,,,,,,,,,,,,
168743,1620400736650,1,1,37,30,29,36,-21,0.21,-0.69,-0.75,-30,8,-1,0.72,0,80,5372,12,24,66,0.729,37.6,548,4.81,11.5,19.8,1,35.4,3.1,7.5,0,0,0,1,0,353,-30454,770,375,45.845764,5.17964,38.38,219.6,10,3,1.5,0,0.0,-1,0.0,,0.0,0,0.66,2.8124
168763,1620400736670,,,,,,,,0.12,-0.63,-0.74,-30,10,-1,0.64,,80,5408,12,24,67,0.736,37.2,539,4.83,11.7,19.8,1,35.7,3.21,7.5,0,0,0,1,0,350,6870,257,376,,,,,,,,,,,,,,,,
168783,1620400736690,,,,,,,,0.12,-0.66,-0.84,-30,11,-1,0.67,,80,5642,12,24,67,0.746,37.6,553,4.83,11.6,19.8,1,35.5,3.23,7.5,0,0,0,1,0,345,-30454,486,376,,,,,,,,,,,,,,,,
168803,1620400736710,,,,,,,,0.17,-0.7,-0.94,-30,8,-1,0.72,,80,5803,12,24,67,0.756,36.9,572,4.77,11.5,22.8,1,35.4,3.24,8.5,0,0,0,1,0,344,-1246,-6656,369,,,,,,,,,,,,,,,,
168823,1620400736730,,,,,,,,0.23,-0.75,-1.03,-29,5,-1,0.78,,80,6044,13,24,67,0.77,37.2,583,4.78,11.5,22.8,1,35.4,3.26,8.5,0,0,0,1,0,347,8841,0,372,,,,,,,,,,,,,,,,
168843,1620400736750,1,2,36,31,30,37,-18,0.25,-0.77,-1.11,-29,6,-1,0.81,0,80,6237,13,24,66,0.787,36.9,602,4.78,11.6,22.8,1,36.2,3.11,8.5,0,0,0,1,0,346,-1246,-6656,369,45.845772,5.179637,38.11,219.6,10,3,1.5,0,0.0,-1,0.0,0.0,0.0,0,0.66,2.814
168863,1620400736770,,,,,,,,0.21,-0.68,-1.18,-29,9,-1,0.71,,80,6399,13,24,65,0.797,36.9,613,4.79,11.6,22.8,1,36.7,1.81,8.5,0,0,0,1,0,348,-1246,230,369,,,,,,,,,,,,,,,,
168883,1620400736790,,,,,,,,0.21,-0.67,-0.92,-29,11,-2,0.7,,80,6508,11,24,63,0.804,36.7,623,4.87,11.5,22.8,1,36.7,2.69,8.5,0,0,0,1,0,348,-30438,-6405,367,,,,,,,,,,,,,,,,
168903,1620400736810,,,,,,,,0.23,-0.69,-1.01,-29,4,-2,0.73,,80,6565,11,24,62,0.807,36.8,635,4.85,11.5,21.3,1,36.6,2.56,7.8,0,0,0,1,0,358,-10554,-6656,368,,,,,,,,,,,,,,,,
168923,1620400736830,,,,,,,,0.27,-0.72,-1.09,-29,7,-3,0.76,,80,6204,11,24,60,0.812,36.9,631,4.87,11.6,21.3,1,34.6,2.28,7.8,0,0,0,1,0,379,-10554,-6656,369,,,,,,,,,,,,,,,,
168943,1620400736850,3,2,38,31,29,36,-27,0.3,-0.71,-1.17,-28,7,-4,0.78,0,80,5916,10,24,59,0.817,37.3,607,4.86,11.7,21.3,1,33.5,2.3,7.8,0,0,0,1,0,399,2811,-992,373,45.845783,5.179636,37.29,219.6,10,3,1.5,0,0.0,-1,0.0,,0.0,0,0.67,2.8157
168963,1620400736870,,,,,,,,0.33,-0.74,-1.24,-29,7,-4,0.81,,80,5568,10,24,59,0.812,37.9,586,4.8,11.6,21.3,1,33.4,2.53,7.8,0,0,0,1,0,390,2811,-6656,379,,,,,,,,,,,,,,,,
168983,1620400736890,,,,,,,,0.19,-0.76,-0.97,-29,7,-4,0.78,,80,5344,10,24,60,0.803,37.7,568,4.86,11.5,21.3,1,33.7,2.66,7.8,0,0,0,1,0,354,-1246,770,377,,,,,,,,,,,,,,,,
169003,1620400736910,,,,,,,,0.2,-0.78,-1.05,-30,7,-4,0.81,,80,5192,10,23,61,0.798,37.1,556,4.79,11.5,17.5,1,34.0,2.74,6.6,0,0,0,1,0,348,-10554,742,371,,,,,,,,,,,,,,,,
169023,1620400736930,,,,,,,,0.12,-0.81,-0.92,-31,9,-4,0.82,,80,5122,10,23,61,0.79,37.2,537,4.87,11.7,17.5,1,34.0,2.79,6.6,0,0,0,1,0,346,-31206,742,375,,,,,,,,,,,,,,,,
169043,1620400736950,15,6,38,30,30,39,-32,0.15,-0.84,-0.81,-32,5,-5,0.85,0,80,5084,10,23,62,0.777,37.5,521,4.79,11.5,17.5,1,34.3,2.87,6.6,0,0,0,1,0,342,13,742,371,45.845791,5.179635,37.22,219.6,10,3,1.5,0,0.0,-1,0.0,0.0,0.0,0,0.67,2.8174
169063,1620400736970,,,,,,,,0.1,-0.79,-0.91,-33,8,-4,0.8,,80,5079,10,23,62,0.764,36.7,514,4.87,11.7,17.5,1,34.3,2.87,6.6,0,0,0,1,0,336,165,486,372,,,,,,,,,,,,,,,,
169083,1620400736990,,,,,,,,-0.01,-0.76,-0.67,-34,5,-4,0.76,,80,5121,9,23,63,0.754,36.8,508,4.85,11.5,17.5,1,34.6,2.92,6.6,0,0,0,1,0,315,-25856,230,368,,,,,,,,,,,,,,,,
169103,1620400737004,,,,,,,,-0.03,-0.82,-0.78,-36,7,-3,0.82,,80,5295,9,23,63,0.738,36.3,521,4.91,11.6,18.8,1,34.5,2.85,6.9,0,0,0,1,0,292,-24576,-29978,363,,,,,,,,,,,,,,,,
169123,1620400737024,,,,,,,,-0.05,-0.84,-0.55,-37,4,-3,0.84,,80,5439,9,23,63,0.734,36.5,546,4.74,11.5,18.8,1,34.5,2.8,6.9,0,0,0,1,0,277,145,-29978,365,,,,,,,,,,,,,,,,
169143,1620400737044,21,7,33,24,35,43,-33,-0.15,-0.8,-0.67,-38,7,-3,0.82,0,80,5403,9,23,63,0.737,36.0,544,4.92,11.7,18.8,1,34.5,2.8,6.9,0,0,0,1,0,263,-25856,-29978,360,45.845802,5.179634,37.05,219.6,10,3,1.5,0,0.0,-1,0.0,,0.0,0,0.67,2.8191
169163,1620400737064,,,,,,,,-0.12,-0.83,-0.78,-39,3,-4,0.84,,80,5383,9,23,63,0.739,35.3,544,4.81,11.6,18.8,1,34.5,2.81,6.9,0,0,0,1,0,253,135,3302,358,,,,,,,,,,,,,,,,
169183,1620400737084,,,,,,,,-0.2,-0.81,-0.55,-40,4,-4,0.83,,80,5380,9,23,63,0.741,35.3,545,4.83,11.5,18.8,1,34.5,2.81,6.9,0,0,0,1,0,257,29440,-30454,351,,,,,,,,,,,,,,,,
169203,1620400737109,,,,,,,,-0.16,-0.84,-0.67,-41,4,-3,0.85,,80,5397,9,23,63,0.744,34.9,550,4.82,11.5,19.8,1,34.5,2.8,7.0,0,0,0,1,0,261,110,2811,349,,,,,,,,,,,,,,,,
169223,1620400737129,,,,,,,,-0.17,-0.86,-0.45,-42,2,-3,0.88,,80,5398,9,23,63,0.751,34.8,541,4.83,11.5,19.8,1,34.5,2.8,7.0,0,0,0,1,0,266,30720,2811,348,,,,,,,,,,,,,,,,
169243,1620400737149,10,3,33,24,33,43,-33,-0.16,-0.82,-0.57,-43,5,-2,0.83,0,80,5176,9,23,63,0.759,34.8,537,4.86,11.6,19.8,1,34.6,2.89,7.0,0,0,0,1,0,329,28160,8841,348,45.84581,5.179634,35.92,219.6,10,3,1.5,0,0.0,-1,0.0,0.0,0.0,0,0.67,2.8207
169263,1620400737169,,,,,,,,-0.27,-0.83,-0.36,-43,4,-3,0.88,,80,5026,9,23,64,0.766,34.1,516,4.82,11.5,19.8,1,34.9,3.01,7.0,0,0,0,1,0,343,95,-10554,341,,,,,,,,,,,,,,,,
169283,1620400737189,,,,,,,,-0.22,-0.84,-0.41,-43,3,-2,0.87,,80,4981,9,23,64,0.773,34.4,489,4.82,11.5,19.8,1,34.6,3.0,7.0,0,0,0,1,0,319,28160,3327,344,,,,,,,,,,,,,,,,
169303,1620400737210,,,,,,,,-0.19,-0.83,-0.55,-43,4,-1,0.85,,80,4970,9,23,64,0.775,33.8,385,4.89,11.6,20.0,1,34.5,2.99,6.8,0,0,0,1,0,303,26880,-122,341,,,,,,,,,,,,,,,,
169323,1620400737230,,,,,,,,-0.27,-0.83,-0.33,-43,5,-1,0.88,,80,4953,9,23,64,0.778,33.5,309,4.83,11.6,20.0,1,34.2,2.99,6.8,0,0,0,1,0,302,120,3346,335,,,,,,,,,,,,,,,,
169343,1620400737250,5,2,34,25,32,42,-36,-0.28,-0.85,-0.15,-43,3,-1,0.9,0,80,4970,9,23,64,0.781,33.7,282,4.83,11.5,20.0,1,34.5,1.83,6.8,0,0,0,1,0,301,105,13,337,45.845818,5.179635,35.14,219.5,10,3,1.5,0,0.0,-1,0.0,,0.0,0,0.67,2.8224
169363,1620400737270,,,,,,,,-0.22,-0.83,-0.3,-43,2,-1,0.86,,80,4993,9,23,64,0.783,33.5,312,4.87,11.6,20.0,1,34.8,3.0,6.8,0,0,0,1,0,300,26880,4838,335,,,,,,,,,,,,,,,,
169383,1620400737290,,,,,,,,-0.31,-0.83,-0.11,-44,2,-1,0.89,,80,5013,9,23,64,0.78,33.6,341,4.82,11.6,20.0,1,34.9,3.01,6.8,0,0,0,1,0,299,24320,-6528,336,,,,,,,,,,,,,,,,
169403,1620400737310,,,,,,,,-0.26,-0.83,-0.15,-44,1,-2,0.87,,80,5088,9,23,64,0.778,33.5,311,4.82,11.5,20.9,1,34.9,2.99,7.0,0,0,0,1,0,295,24320,-32559,333,,,,,,,,,,,,,,,,
169423,1620400737330,,,,,,,,-0.3,-0.83,-0.3,-45,4,-1,0.88,,80,5099,9,23,64,0.775,33.7,321,4.87,11.7,20.9,1,34.9,2.98,7.0,0,0,0,1,0,294,20480,175,337,,,,,,,,,,,,,,,,
169443,1620400737350,18,10,33,25,32,42,-40,-0.35,-0.84,-0.11,-45,2,-1,0.91,0,80,5106,9,23,64,0.774,32.7,311,4.82,11.6,20.9,1,34.9,2.99,7.0,0,0,0,1,0,291,-16896,170,327,45.845829,5.179637,33.75,219.5,10,3,1.5,0,0.0,-1,0.0,0.0,0.0,0,0.67,2.824
169463,1620400737370,,,,,,,,-0.3,-0.83,-0.27,-45,1,-1,0.88,,80,5142,9,23,64,0.771,32.7,330,4.86,11.7,20.9,1,34.9,2.97,7.0,0,0,0,1,0,287,250,155,323,,,,,,,,,,,,,,,,
169483,1620400737390,,,,,,,,-0.35,-0.79,-0.09,-46,1,-1,0.86,,80,5128,9,23,64,0.768,31.8,364,4.86,11.6,20.9,1,34.9,2.98,7.0,0,0,0,1,0,289,-1534,150,318,,,,,,,,,,,,,,,,
169503,1620400737406,,,,,,,,-0.36,-0.82,-0.01,-46,-1,-1,0.9,,80,4929,9,23,63,0.766,31.5,385,4.8,11.4,21.6,1,33.6,1.77,6.8,0,0,0,1,0,303,-1527,145,315,,,,,,,,,,,,,,,,
169523,1620400737426,,,,,,,,-0.29,-0.82,-0.17,-46,-1,-1,0.87,,80,4777,9,23,64,0.763,31.4,408,4.84,11.6,21.6,1,31.9,2.92,6.8,0,0,0,1,0,320,-1527,-30976,314,,,,,,,,,,,,,,,,
169543,1620400737446,24,15,32,24,34,42,-41,-0.32,-0.82,-0.32,-46,1,-1,0.88,0,80,4705,9,23,64,0.765,31.2,416,4.84,11.6,21.6,1,30.9,2.89,6.8,0,0,0,1,0,297,-1,32000,312,45.845833,5.179641,32.92,219.5,10,3,1.5,0,0.0,-1,0.0,,0.0,0,0.67,2.8257
169563,1620400737466,,,,,,,,-0.35,-0.78,-0.46,-47,3,-0,0.86,,80,4721,9,23,64,0.768,30.8,425,4.86,11.7,21.6,1,31.1,2.9,6.8,0,0,0,1,0,271,-1,115,307,,,,,,,,,,,,,,,,
169583,1620400737491,,,,,,,,-0.42,-0.75,-0.52,-47,5,0,0.86,,80,4620,9,23,64,0.77,30.2,430,4.86,11.6,21.6,1,29.8,2.85,6.8,0,0,0,1,0,271,-1281,105,302,,,,,,,,,,,,,,,,
169603,1620400737511,,,,,,,,-0.47,-0.76,-0.55,-47,5,-0,0.89,,80,4506,9,23,64,0.772,30.2,433,4.88,11.7,19.5,1,28.3,2.81,5.9,0,0,0,1,0,270,-1,95,298,,,,,,,,,,,,,,,,
169623,1620400737531,,,,,,,,-0.51,-0.75,-0.45,-47,6,-0,0.9,,80,4510,10,23,64,0.775,29.5,430,4.86,11.7,19.5,1,28.3,2.81,5.9,0,0,0,1,0,265,10818,90,295,,,,,,,,,,,,,,,,
169643,1620400737551,6,4,33,24,35,42,-42,-0.48,-0.77,-0.55,-47,7,-0,0.91,0,80,4357,11,23,65,0.779,29.7,428,4.87,11.7,19.5,1,26.5,2.79,5.9,0,0,0,1,0,273,14337,21760,297,45.84584,5.179645,31.92,219.5,10,3,1.5,0,0.0,-1,0.0,0.0,0.0,0,0.67,2.8274
169663,1620400737571,,,,,,,,-0.44,-0.76,-0.67,-47,8,-0,0.88,,80,4367,12,23,66,0.783,29.4,420,4.85,11.7,19.5,1,26.9,2.84,5.9,0,0,0,1,0,264,-1,21760,294,,,,,,,,,,,,,,,,
169683,1620400737591,,,,,,,,-0.39,-0.75,-0.78,-47,8,0,0.84,,80,4345,12,23,67,0.785,29.8,419,4.84,11.7,19.5,1,26.9,2.87,5.9,0,0,0,1,0,264,-10440,21760,298,,,,,,,,,,,,,,,,
169703,1620400737611,,,,,,,,-0.32,-0.76,-0.88,-47,9,-0,0.82,,80,4359,12,23,68,0.787,29.6,416,4.81,11.6,19.7,1,27.4,2.93,5.8,0,0,0,1,0,259,-1,20480,296,,,,,,,,,,,,,,,,
169723,1620400737631,,,,,,,,-0.25,-0.78,-0.98,-47,8,-0,0.82,,80,4470,13,23,69,0.788,29.4,418,4.76,11.5,19.7,1,29.1,2.98,5.8,0,0,0,1,0,261,-1,21760,294,,,,,,,,,,,,,,,,
169743,1620400737651,-0,3,35,26,32,39,-44,-0.15,-0.77,-1.05,-47,5,0,0.79,0,80,4430,15,23,70,0.79,29.2,421,4.8,11.5,19.7,1,28.7,2.97,5.8,0,0,0,1,0,263,-1,21760,297,45.845848,5.17965,29.72,219.4,10,3,1.5,0,0.0,-1,0.0,,0.0,0,0.67,2.8291
169763,1620400737671,,,,,,,,-0.1,-0.75,-1.12,-47,3,-0,0.76,,80,4471,16,23,72,0.791,29.6,419,4.8,11.5,19.7,1,29.8,3.01,5.8,0,0,0,1,0,262,-10440,80,296,,,,,,,,,,,,,,,,
169783,1620400737691,,,,,,,,-0.05,-0.75,-1.17,-47,2,-0,0.75,,80,4469,18,23,75,0.79,29.6,367,4.85,11.6,19.7,1,30.5,3.02,5.8,0,0,0,1,0,269,-41,21760,299,,,,,,,,,,,,,,,,
169803,1620400737711,,,,,,,,-0.02,-0.78,-1.14,-47,-1,-0,0.78,,80,4433,19,23,77,0.79,29.9,362,4.86,11.6,20.9,1,30.4,3.07,6.2,0,0,0,1,0,268,-41,85,299,,,,,,,,,,,,,,,,
169823,1620400737731,,,,,,,,-0.01,-0.81,-1.03,-47,-1,-1,0.81,,80,4465,20,23,79,0.789,29.9,354,4.85,11.5,20.9,1,31.5,3.24,6.2,0,0,0,1,0,264,-1,21760,299,,,,,,,,,,,,,,,,
169843,1620400737751,-0,2,36,28,30,38,-55,-0.02,-0.82,-0.87,-48,-3,-1,0.82,0,80,4416,20,23,81,0.788,30.0,371,4.83,11.5,20.9,1,31.3,3.41,6.2,0,0,0,1,0,265,-1,24320,300,45.845852,5.179655,29.44,219.4,10,3,1.5,0,0.0,-1,0.0,0.0,0.0,0,0.67,2.8307
169863,1620400737771,,,,,,,,-0.05,-0.82,-0.63,-49,-5,-1,0.83,,80,4399,20,23,83,0.79,29.9,376,4.85,11.5,20.9,1,31.7,3.47,6.2,0,0,0,1,0,262,-10440,24320,299,,,,,,,,,,,,,,,,
169883,1620400737791,,,,,,,,-0.11,-0.84,-0.45,-50,-7,-1,0.85,,80,4438,20,23,84,0.791,30.1,376,4.91,11.5,20.9,1,32.5,3.53,6.2,0,0,0,1,0,262,-1,24320,301,,,,,,,,,,,,,,,,
169903,1620400737811,,,,,,,,-0.16,-0.87,-0.25,-51,-8,-2,0.89,,80,4465,20,23,85,0.793,30.3,375,4.85,11.5,24.0,1,33.1,3.6,7.3,0,0,0,1,0,264,506,95,303,,,,,,,,,,,,,,,,
169923,1620400737831,,,,,,,,-0.21,-0.88,-0.06,-52,-8,-1,0.9,,80,4434,20,23,86,0.794,30.5,377,4.85,11.5,24.0,1,32.9,3.6,7.3,0,0,0,1,0,267,-1,25600,305,,,,,,,,,,,,,,,,
169943,1620400737851,-1,2,38,28,29,39,-59,-0.26,-0.88,0.06,-53,-9,-2,0.92,0,80,4407,20,23,87,0.803,30.5,378,4.87,11.5,24.0,1,32.8,3.64,7.3,0,0,0,1,0,264,-41,25600,305,45.84586,5.179662,29.42,219.4,10,3,1.5,0,0.0,-1,0.0,,0.0,0,0.68,2.8324
169963,1620400737871,,,,,,,,-0.32,-0.86,0.09,-54,-9,-3,0.92,,80,4453,20,23,88,0.812,30.4,385,4.83,11.6,24.0,1,33.7,3.68,7.3,0,0,0,1,0,258,-1281,95,304,,,,,,,,,,,,,,,,
169983,1620400737892,,,,,,,,-0.34,-0.89,0.09,-55,-9,-3,0.95,,80,4400,21,23,88,0.824,30.4,393,4.83,11.7,24.0,1,32.9,3.68,7.3,0,0,0,1,0,262,-1,26880,304,,,,,,,,,,,,,,,,
170003,1620400737912,,,,,,,,-0.33,-0.86,-0.06,-56,-7,-2,0.92,,80,4378,22,23,89,0.835,30.7,397,4.84,11.7,24.4,1,32.9,3.73,7.4,0,0,0,1,0,265,-1,25600,307,,,,,,,,,,,,,,,,
170023,1620400737932,,,,,,,,-0.33,-0.87,-0.22,-57,-4,-3,0.93,,80,4410,23,23,89,0.856,30.5,406,4.87,11.7,24.4,1,33.4,3.72,7.4,0,0,0,1,0,252,-1281,95,305,,,,,,,,,,,,,,,,
170043,1620400737952,1,3,37,28,30,40,-58,-0.32,-0.85,-0.37,-57,-1,-2,0.9,0,80,4421,24,23,90,0.887,30.2,410,4.88,11.7,24.4,1,33.8,3.77,7.4,0,0,0,1,0,252,-1,95,302,45.845867,5.179669,28.97,219.4,10,3,1.5,0,0.0,-1,0.0,0.0,0.0,0,0.68,2.834
170063,1620400737972,,,,,,,,-0.26,-0.86,-0.5,-58,1,-2,0.9,,80,4376,25,23,91,0.918,30.2,410,4.87,11.7,24.4,1,33.7,3.85,7.4,0,0,0,1,0,253,-1,25600,304,,,,,,,,,,,,,,,,
170083,1620400737992,,,,,,,,-0.16,-0.88,-0.63,-59,0,-2,0.9,,80,4311,26,23,91,0.949,30.5,410,4.84,11.6,24.4,1,32.8,2.69,7.4,0,0,0,1,0,252,-1,95,305,,,,,,,,,,,,,,,,
170103,1620400738003,,,,,,,,-0.09,-0.92,-0.67,-60,-0,-1,0.92,,80,4273,28,23,92,0.987,30.5,406,4.81,11.5,25.6,1,33.1,2.78,7.8,0,0,0,1,0,253,-1,95,303,,,,,,,,,,,,,,,,
170123,1620400738023,,,,,,,,-0.13,-0.93,-0.46,-60,-0,-1,0.94,,80,4208,30,23,93,1.034,30.4,405,4.82,11.5,25.6,1,33.1,4.04,7.8,0,0,0,1,0,253,-1281,90,304,,,,,,,,,,,,,,,,
170143,1620400738043,1,2,38,28,31,40,-60,-0.22,-0.91,-0.3,-60,-1,-2,0.93,0,80,4123,31,23,94,1.083,30.4,397,4.87,11.7,25.6,1,32.9,4.14,7.8,0,0,0,1,0,249,10818,90,302,45.845871,5.179677,28.43,219.4,10,3,1.5,0,0.0,-1,0.0,,0.0,0,0.68,2.8357
170163,1620400738063,,,,,,,,-0.21,-0.95,-0.44,-61,0,-2,0.97,,80,4142,32,23,95,1.143,30.0,398,4.85,11.7,25.6,1,34.0,4.13,7.8,0,0,0,1,0,248,506,90,300,,,,,,,,,,,,,,,,
170183,1620400738091,,,,,,,,-0.15,-0.92,-0.55,-61,1,-2,0.93,,80,4098,32,23,95,1.192,29.8,392,4.87,11.7,25.6,1,33.6,4.24,7.8,0,0,0,1,0,248,-214,85,304,,,,,,,,,,,,,,,,
170203,1620400738111,,,,,,,,-0.17,-0.87,-0.48,-61,1,-2,0.89,,80,4030,33,23,95,1.237,30.1,370,4.78,11.4,26.1,1,32.9,4.25,7.9,0,0,0,1,0,246,16896,90,301,,,,,,,,,,,,,,,,
170223,1620400738131,,,,,,,,-0.16,-0.84,-0.6,-61,0,-1,0.85,,80,4011,35,23,96,1.282,29.6,320,4.87,11.6,26.1,1,33.8,4.34,7.9,0,0,0,1,0,248,-214,85,297,,,,,,,,,,,,,,,,
170243,1620400738151,1,0,36,29,31,39,-42,-0.14,-0.79,-0.7,-61,2,-1,0.8,0,80,4100,37,23,96,1.316,29.5,300,4.85,11.6,26.1,1,34.6,3.14,7.9,0,0,0,1,0,248,-1,21760,295,45.845871,5.179685,28.48,219.4,10,3,1.5,0,0.0,-1,0.0,0.0,0.0,0,0.68,2.8374
170263,1620400738171,,,,,,,,-0.15,-0.73,-0.56,-60,1,-1,0.75,,80,4083,38,23,96,1.368,29.7,289,4.81,11.5,26.1,1,34.4,4.32,7.9,0,0,0,1,0,251,-1281,20480,297,,,,,,,,,,,,,,,,
170283,1620400738191,,,,,,,,-0.19,-0.68,-0.55,-59,-1,-1,0.7,,80,4110,39,23,97,1.388,29.3,304,4.86,11.6,26.1,1,35.6,4.39,7.9,0,0,0,1,0,253,506,41,293,,,,,,,,,,,,,,,,
170303,1620400738211,,,,,,,,-0.19,-0.63,-0.67,-57,-0,-1,0.66,,80,4179,40,23,97,1.421,29.0,315,4.85,11.7,29.2,1,36.2,4.37,8.4,0,0,0,1,0,254,-1,10686,290,,,,,,,,,,,,,,,,
170323,1620400738231,,,,,,,,-0.12,-0.59,-0.79,-56,1,-1,0.6,,80,4286,42,23,97,1.441,28.8,303,4.88,11.7,29.2,1,37.1,4.33,8.4,0,0,0,1,0,254,14337,-16896,288,,,,,,,,,,,,,,,,
170343,1620400738251,1,3,35,31,32,38,-33,-0.1,-0.58,-0.89,-54,3,-0,0.59,0,80,4465,43,23,97,1.467,28.8,282,4.83,11.6,29.2,1,38.5,4.19,8.4,0,0,0,1,0,255,14337,-1529,288,45.845875,5.179694,28.29,219.4,10,3,1.5,0,0.0,-1,0.0,,0.0,0,0.68,2.8391
170363,1620400738271,,,,,,,,-0.02,-0.56,-0.98,-53,5,-0,0.56,,80,4545,43,23,97,1.476,28.8,286,4.85,11.6,29.2,1,39.2,4.24,8.4,0,0,0,1,0,256,506,-1529,288,,,,,,,,,,,,,,,,
170383,1620400738291,,,,,,,,0.02,-0.55,-1.06,-51,7,0,0.55,,80,4654,43,23,97,1.483,28.7,316,4.86,11.6,29.2,1,40.0,4.12,8.4,0,0,0,1,0,256,-1,1886,286,,,,,,,,,,,,,,,,
170403,1620400738311,,,,,,,,-0.03,-0.52,-1.1,-50,7,-0,0.52,,80,4786,43,23,97,1.49,28.4,339,4.86,11.7,31.9,1,41.1,4.14,9.1,0,0,0,1,0,256,14337,24064,284,,,,,,,,,,,,,,,,
170423,1620400738331,,,,,,,,-0.15,-0.52,-0.84,-49,6,-0,0.54,,80,4823,43,24,97,1.496,28.1,362,4.81,11.6,31.9,1,41.4,4.13,9.1,0,0,0,1,0,255,-1281,1886,281,,,,,,,,,,,,,,,,
170443,1620400738351,0,3,35,31,30,37,-38,-0.1,-0.55,-0.65,-48,5,-1,0.56,0,80,4931,43,24,96,1.498,28.4,389,4.87,11.6,31.9,1,42.2,4.1,9.1,0,0,0,1,0,257,-1281,24064,284,45.845879,5.179703,27.94,219.4,10,3,1.5,0,0.0,-1,0.0,0.0,0.0,0,0.68,2.8407
170463,1620400738371,,,,,,,,-0.02,-0.56,-0.76,-47,6,-1,0.56,,80,4854,44,24,97,1.498,28.5,409,4.88,11.7,31.9,1,41.6,4.12,9.1,0,0,0,1,0,272,14337,10686,285,,,,,,,,,,,,,,,,
170483,1620400738391,,,,,,,,0.05,-0.57,-0.86,-47,8,-0,0.58,,80,4639,44,24,97,1.498,29.0,412,4.87,11.7,31.9,1,39.9,4.21,9.1,0,0,0,1,0,293,14337,0,290,,,,,,,,,,,,,,,,
170503,1620400738411,,,,,,,,0.09,-0.56,-0.96,-46,10,-1,0.57,,80,4455,44,24,97,1.498,29.1,414,4.88,11.7,30.3,1,38.4,3.09,8.8,0,0,0,1,0,312,14337,20480,291,,,,,,,,,,,,,,,,
170523,1620400738431,,,,,,,,0.13,-0.6,-1.04,-46,11,-0,0.62,,80,4424,44,24,97,1.498,29.5,411,4.86,11.7,30.3,1,38.1,4.28,8.8,0,0,0,1,0,294,14337,20480,295,,,,,,,,,,,,,,,,
170543,1620400738451,1,0,38,32,28,37,-50,0.19,-0.62,-1.12,-46,12,-0,0.65,0,80,4463,44,24,97,1.498,29.4,414,4.85,11.7,30.3,1,38.5,4.26,8.8,0,0,0,1,0,268,-41,21760,294,45.845882,5.179713,27.62,219.5,10,3,1.5,0,0.0,-1,0.0,,0.0,0,0.68,2.8424
170563,1620400738471,,,,,,,,0.22,-0.7,-1.2,-46,14,0,0.74,,80,4485,44,24,97,1.498,29.5,415,4.87,11.7,30.3,1,38.6,4.26,8.8,0,0,0,1,0,279,-10440,85,295,,,,,,,,,,,,,,,,
170583,1620400738492,,,,,,,,0.25,-0.69,-1.26,-47,14,0,0.74,,80,4473,44,24,97,1.498,29.8,417,4.86,11.7,30.3,1,38.6,4.26,8.8,0,0,0,1,0,287,-10440,21760,298,,,,,,,,,,,,,,,,
170603,1620400738512,,,,,,,,0.26,-0.72,-1.32,-47,15,0,0.76,,80,4597,44,24,97,1.498,29.7,425,4.86,11.7,29.5,1,39.5,4.22,8.8,0,0,0,1,0,283,-1,24320,297,,,,,,,,,,,,,,,,
170623,1620400738532,,,,,,,,0.19,-0.72,-1.18,-48,16,0,0.75,,80,4777,44,24,97,1.498,30.2,431,4.87,11.7,29.5,1,41.0,4.15,8.8,0,0,0,1,0,272,-1,24320,298,,,,,,,,,,,,,,,,
170643,1620400738552,1,1,38,32,28,37,-51,0.13,-0.75,-0.91,-49,14,-1,0.76,0,80,4803,44,24,97,1.498,30.2,440,4.81,11.5,29.5,1,41.2,4.14,8.8,0,0,0,1,0,298,-1,25600,302,45.845886,5.179722,28.34,219.5,10,3,1.5,0,0.0,-1,0.0,0.0,0.0,0,0.68,2.844
170663,1620400738572,,,,,,,,0.16,-0.79,-0.76,-49,10,-1,0.81,,80,4898,44,24,97,1.498,30.2,448,4.83,11.5,29.5,1,41.9,4.1,8.8,0,0,0,1,0,314,-1,26880,305,,,,,,,,,,,,,,,,
170683,1620400738592,,,,,,,,0.2,-0.8,-0.87,-50,11,-1,0.82,,80,4932,44,24,97,1.497,30.5,460,4.88,11.6,29.5,1,42.3,4.1,8.8,0,0,0,1,0,315,-1,28160,305,,,,,,,,,,,,,,,,
170703,1620400738610,,,,,,,,0.12,-0.8,-0.63,-50,10,-1,0.81,,80,4997,44,24,97,1.495,30.7,471,4.88,11.6,31.1,1,42.7,4.08,9.5,0,0,0,1,0,323,-1,115,307,,,,,,,,,,,,,,,,
170723,1620400738630,,,,,,,,0.12,-0.86,-0.41,-51,8,-1,0.87,,80,4993,44,24,97,1.493,31.3,474,4.8,11.5,31.1,1,42.7,4.08,9.5,0,0,0,1,0,321,-1,32000,313,,,,,,,,,,,,,,,,
170743,1620400738650,-1,2,40,32,28,37,-53,0.16,-0.82,-0.54,-52,7,-1,0.84,0,80,5067,44,24,97,1.491,31.0,470,4.9,11.6,31.1,1,42.6,4.16,9.5,0,0,0,1,0,312,-1,-32256,310,45.845886,5.179732,28.26,219.4,10,3,1.5,0,0.0,-1,0.0,,0.0,0,0.68,2.8457
170763,1620400738670,,,,,,,,0.11,-0.84,-0.33,-52,7,-1,0.85,,80,5049,43,24,97,1.48,31.2,466,4.88,11.6,31.1,1,42.7,4.13,9.5,0,0,0,1,0,308,-1,-30976,312,,,,,,,,,,,,,,,,
170783,1620400738691,,,,,,,,0.16,-0.89,-0.28,-53,5,-2,0.9,,80,5006,39,24,96,1.456,31.2,463,4.82,11.5,31.1,1,42.8,4.01,9.5,0,0,0,1,0,314,-1,140,312,,,,,,,,,,,,,,,,
170803,1620400738711,,,,,,,,0.17,-0.85,-0.43,-54,6,-2,0.86,,80,4926,29,24,95,1.438,31.9,462,4.92,11.7,29.9,1,42.0,3.98,9.4,0,0,0,1,0,316,-1,-28416,319,,,,,,,,,,,,,,,,
170823,1620400738731,,,,,,,,0.12,-0.86,-0.23,-54,6,-2,0.87,,80,4965,18,24,93,1.424,31.9,469,4.86,11.6,29.9,1,42.3,3.85,9.4,0,0,0,1,0,326,-1527,145,319,,,,,,,,,,,,,,,,
170843,1620400738751,-1,2,41,32,28,37,-54,0.12,-0.89,-0.04,-55,4,-2,0.9,0,80,4993,11,24,90,1.405,32.3,468,4.78,11.5,29.9,1,42.6,2.5,9.4,0,0,0,1,0,319,-1281,150,323,45.845886,5.179743,28.96,219.4,10,3,1.5,0,0.0,-1,0.0,0.0,0.0,0,0.68,2.8474
170863,1620400738771,,,,,,,,0.16,-0.88,-0.21,-55,4,-2,0.9,,80,5060,10,24,87,1.381,32.1,471,4.9,11.7,29.9,1,41.7,3.69,9.4,0,0,0,1,0,310,28160,-25856,321,,,,,,,,,,,,,,,,
170883,1620400738791,,,,,,,,0.08,-0.86,-0.02,-56,5,-2,0.87,,80,5049,10,24,84,1.361,32.3,475,4.81,11.5,29.9,1,40.8,3.7,9.4,0,0,0,1,0,321,-1527,155,323,,,,,,,,,,,,,,,,
170903,1620400738810,,,,,,,,0.14,-0.91,-0.09,-56,2,-2,0.92,,80,5089,10,24,82,1.346,32.4,480,4.79,11.4,26.7,1,40.1,3.7,8.7,0,0,0,1,0,323,-1527,160,324,,,,,,,,,,,,,,,,
170923,1620400738830,,,,,,,,0.1,-0.92,-0.25,-57,4,-2,0.93,,80,5115,10,24,81,1.32,32.2,488,4.88,11.6,26.7,1,39.8,3.75,8.7,0,0,0,1,0,323,2414,160,322,,,,,,,,,,,,,,,,
170943,1620400738850,1,2,42,32,29,38,-56,0.1,-0.98,-0.06,-58,2,-2,0.98,0,80,5202,10,24,79,1.299,32.7,505,4.73,11.4,26.7,1,39.0,3.76,8.7,0,0,0,1,0,337,30208,-23296,327,45.845886,5.179754,29.97,219.4,10,3,1.5,0,0.0,-1,0.0,,0.0,0,0.68,2.849
170963,1620400738870,,,,,,,,0.09,-0.96,-0.22,-58,5,-1,0.97,,80,5182,14,24,78,1.278,32.6,507,4.91,11.7,26.7,1,38.7,3.75,8.7,0,0,0,1,0,337,-1534,170,326,,,,,,,,,,,,,,,,
170983,1620400738890,,,,,,,,0.06,-0.97,-0.04,-59,3,-1,0.98,,80,5218,20,24,80,1.262,32.6,501,4.8,11.5,26.7,1,39.2,3.83,8.7,0,0,0,1,0,321,250,170,330,,,,,,,,,,,,,,,,
171003,1620400738910,,,,,,,,0.07,-0.95,-0.2,-60,5,-1,0.95,,80,5292,23,24,82,1.234,33.2,514,4.91,11.7,28.3,1,39.7,3.93,9.4,0,0,0,1,0,322,-1534,170,332,,,,,,,,,,,,,,,,
171023,1620400738930,,,,,,,,0.06,-1.01,-0.04,-60,3,-1,1.02,,80,5351,26,24,85,1.216,32.7,515,4.77,11.4,28.3,1,40.3,4.59,9.4,0,0,0,1,0,322,-16896,175,327,,,,,,,,,,,,,,,,
171043,1620400738950,1,2,41,32,28,39,-56,0.01,-0.99,-0.05,-61,5,-1,0.99,0,80,5425,27,24,87,1.202,33.2,524,4.88,11.6,28.3,1,40.7,2.98,9.4,0,0,0,1,0,352,-1534,-32559,332,45.845886,5.179764,30.1,219.4,10,3,1.5,0,0.0,-1,0.0,0.0,0.0,0,0.68,2.8507
171063,1620400738970,,,,,,,,0.07,-1.03,-0.21,-62,5,-1,1.03,,80,5568,27,24,89,1.179,33.4,536,4.85,11.6,28.3,1,40.8,5.05,9.4,0,0,0,1,0,367,1886,2560,340,,,,,,,,,,,,,,,,
171083,1620400738990,,,,,,,,0.12,-1.09,-0.31,-62,2,-1,1.1,,80,5721,27,24,89,1.154,33.9,548,4.8,11.5,28.3,1,40.3,5.22,9.4,0,0,0,1,0,370,-1529,-31206,339,,,,,,,,,,,,,,,,
171103,1620400739004,,,,,,,,0.11,-1.1,-0.12,-63,-2,-2,1.11,,80,5795,28,24,89,1.128,34.0,517,4.81,11.5,40.9,1,40.0,5.27,14.0,0,0,0,1,0,374,-1529,6870,340,,,,,,,,,,,,,,,,
171123,1620400739024,,,,,,,,0.09,-1.08,0.06,-64,-4,-2,1.08,,80,5846,28,24,89,1.092,33.9,529,4.86,11.6,40.9,1,39.9,5.25,14.0,0,0,0,1,0,377,250,2811,339,,,,,,,,,,,,,,,,
171143,1620400739044,-0,2,43,33,28,39,-56,0.03,-1.07,0.22,-64,-6,-4,1.07,0,80,5879,28,24,89,1.057,34.4,520,4.87,11.6,40.9,1,39.8,3.61,14.0,0,0,0,1,0,367,10686,-29978,344,45.845882,5.179775,30.77,219.4,10,3,1.5,0,0.0,-1,0.0,,0.0,0,0.68,2.8524
171163,1620400739064,,,,,,,,0.0,-1.02,0.37,-65,-6,-5,1.02,,80,5855,28,24,89,1.015,35.0,488,4.83,11.6,40.9,1,39.9,5.12,14.0,0,0,0,1,0,366,0,-29302,350,,,,,,,,,,,,,,,,
171183,1620400739084,,,,,,,,-0.01,-0.94,0.2,-66,-1,-5,0.94,,80,5819,28,24,89,0.995,35.3,493,4.87,11.6,40.9,1,40.0,5.0,14.0,0,0,0,1,0,382,21760,-1268,349,,,,,,,,,,,,,,,,
171203,1620400739110,,,,,,,,0.01,-0.9,0.01,-67,1,-3,0.9,,80,5828,22,24,88,0.961,35.5,529,4.9,11.6,37.5,1,39.8,4.88,13.3,0,0,0,1,0,372,95,742,357,,,,,,,,,,,,,,,,
171223,1620400739130,,,,,,,,0.06,-0.86,-0.15,-68,4,-3,0.86,,80,5885,15,24,85,0.933,35.9,548,4.87,11.6,37.5,1,39.0,4.43,13.3,0,0,0,1,0,362,95,2278,363,,,,,,,,,,,,,,,,
171243,1620400739150,-0,2,44,34,28,38,-54,0.12,-0.94,-0.31,-69,5,-3,0.94,0,80,5920,10,24,81,0.908,36.3,565,4.83,11.6,37.5,1,38.1,4.26,13.3,0,0,0,1,0,371,100,-6656,363,45.845882,5.179787,32.06,219.4,10,3,1.5,0,0.0,-1,0.0,0.0,0.0,0,0.69,2.854
171263,1620400739170,,,,,,,,0.22,-0.99,-0.45,-69,6,-3,1.01,,80,5954,10,24,77,0.903,36.3,577,4.81,11.6,37.5,1,37.2,4.15,13.3,0,0,0,1,0,388,25600,8200,361,,,,,,,,,,,,,,,,
171283,1620400739190,,,,,,,,0.3,-1.04,-0.58,-70,7,-4,1.08,,80,6000,10,24,74,0.899,35.9,585,4.81,11.6,37.5,1,36.5,3.91,13.3,0,0,0,1,0,379,28160,19125,361,,,,,,,,,,,,,,,,
171303,1620400739210,,,,,,,,0.41,-1.12,-0.7,-71,9,-4,1.19,,80,6003,10,24,71,0.895,36.2,588,4.82,11.6,28.8,1,36.0,3.73,10.6,0,0,0,1,0,380,115,-992,367,,,,,,,,,,,,,,,,
171323,1620400739230,,,,,,,,0.51,-1.17,-0.8,-71,11,-5,1.27,,80,5853,9,24,69,0.888,36.7,589,4.75,11.5,28.8,1,35.8,3.48,10.6,0,0,0,1,0,380,28160,-19126,366,,,,,,,,,,,,,,,,
171343,1620400739250,1,1,45,34,28,39,-48,0.42,-1.16,-0.57,-72,7,-4,1.23,0,80,5618,9,23,68,0.894,36.6,582,4.78,11.5,28.8,1,35.8,3.35,10.6,0,0,0,1,0,371,30720,8200,371,45.845875,5.179798,33.86,219.4,10,3,1.5,0,0.0,-1,0.0,,0.0,0,0.69,2.8557
171363,1620400739270,,,,,,,,0.34,-1.2,-0.69,-72,8,-4,1.25,,80,5335,9,23,67,0.902,37.0,567,4.8,11.6,28.8,1,35.7,3.2,10.6,0,0,0,1,0,354,125,0,368,,,,,,,,,,,,,,,,
171383,1620400739290,,,,,,,,0.27,-1.23,-0.46,-72,8,-4,1.26,,80,5203,9,23,67,0.912,37.0,546,4.81,11.5,28.8,1,35.8,3.19,10.6,0,0,0,1,0,346,32000,-1268,363,,,,,,,,,,,,,,,,
171403,1620400739310,,,,,,,,0.3,-1.24,-0.59,-72,9,-4,1.27,,80,5146,9,23,67,0.922,36.2,538,4.89,11.6,20.5,1,35.8,3.11,7.6,0,0,0,1,0,340,125,2790,367,,,,,,,,,,,,,,,,
171423,1620400739330,,,,,,,,0.23,-1.26,-0.38,-72,7,-3,1.28,,80,5168,9,23,67,0.917,36.5,525,4.79,11.5,20.5,1,35.8,3.19,7.6,0,0,0,1,0,340,115,-6458,365,,,,,,,,,,,,,,,,
171443,1620400739350,0,2,43,30,31,42,-31,0.31,-1.24,-0.51,-72,6,-3,1.28,0,80,5161,9,23,66,0.911,36.2,521,4.88,11.6,20.5,1,35.5,3.11,7.6,0,0,0,1,0,341,30720,-6458,366,45.845871,5.179809,34.75,219.3,10,3,1.5,0,0.0,-1,0.0,0.0,0.0,0,0.69,2.8574
171463,1620400739370,,,,,,,,0.21,-1.18,-0.3,-72,5,-3,1.2,,80,5185,9,23,67,0.905,36.4,525,4.78,11.5,20.5,1,35.8,3.19,7.6,0,0,0,1,0,343,120,-29302,364,,,,,,,,,,,,,,,,
171483,1620400739390,,,,,,,,0.23,-1.14,-0.44,-71,3,-2,1.17,,80,5120,9,23,67,0.901,36.0,523,4.75,11.4,20.5,1,35.8,3.19,7.6,0,0,0,1,0,339,125,4104,361,,,,,,,,,,,,,,,,
171503,1620400739410,,,,,,,,0.15,-1.1,-0.54,-70,4,-2,1.11,,80,5173,9,23,67,0.888,35.8,489,4.85,11.6,21.2,1,35.8,3.11,7.6,0,0,0,1,0,318,32000,8841,358,,,,,,,,,,,,,,,,
171523,1620400739430,,,,,,,,0.19,-1.11,-0.55,-68,2,-3,1.12,,80,5292,9,23,66,0.876,35.5,379,4.77,11.5,21.2,1,35.4,3.1,7.6,0,0,0,1,0,303,-32256,3327,353,,,,,,,,,,,,,,,,
171543,1620400739450,-0,2,40,30,33,42,-22,0.09,-1.11,-0.34,-67,3,-3,1.11,0,80,5355,9,23,66,0.862,34.9,336,4.86,11.6,21.2,1,35.4,3.1,7.6,0,0,0,1,0,300,-30976,-30454,349,45.845871,5.179819,34.62,219.3,10,3,1.5,0,0.0,-1,0.0,,0.0,0,0.69,2.859
171563,1620400739470,,,,,,,,0.16,-1.1,-0.48,-65,2,-3,1.12,,80,5338,9,23,65,0.85,35.1,310,4.86,11.6,21.2,1,35.1,3.01,7.6,0,0,0,1,0,304,-32256,-10554,351,,,,,,,,,,,,,,,,
171583,1620400739491,,,,,,,,0.04,-1.07,-0.27,-63,2,-3,1.07,,80,5367,9,23,65,0.84,34.7,302,4.83,11.5,21.2,1,35.1,3.0,7.6,0,0,0,1,0,310,130,-30438,347,,,,,,,,,,,,,,,,
171603,1620400739511,,,,,,,,0.04,-1.03,-0.41,-60,3,-2,1.03,,80,5377,9,23,65,0.828,34.6,320,4.9,11.6,21.5,1,35.1,3.0,7.4,0,0,0,1,0,313,125,-31206,346,,,,,,,,,,,,,,,,
171623,1620400739531,,,,,,,,0.04,-1.07,-0.21,-58,2,-2,1.07,,80,5352,9,23,64,0.818,34.3,305,4.79,11.4,21.5,1,34.8,3.01,7.4,0,0,0,1,0,315,130,6668,343,,,,,,,,,,,,,,,,
171643,1620400739551,1,1,41,29,31,42,-34,-0.01,-1.03,-0.36,-57,5,-2,1.03,0,80,5338,11,23,65,0.81,34.1,288,4.91,11.6,21.5,1,35.1,2.92,7.4,0,0,0,1,0,314,130,-122,343,45.845863,5.179828,33.9,219.4,10,3,1.5,0,0.0,-1,0.0,0.0,0.0,0,0.69,2.8607
171663,1620400739571,,,,,,,,0.05,-1.01,-0.29,-55,1,-2,1.01,,80,5310,18,23,67,0.803,34.2,270,4.83,11.5,21.5,1,35.7,3.2,7.4,0,0,0,1,0,311,130,3327,342,,,,,,,,,,,,,,,,
171683,1620400739591,,,,,,,,0.01,-0.99,-0.32,-54,2,-3,0.99,,80,5329,21,23,71,0.802,34.2,262,4.86,11.6,21.5,1,36.7,3.94,7.4,0,0,0,1,0,310,30720,-31222,342,,,,,,,,,,,,,,,,
171703,1620400739609,,,,,,,,0.1,-1.02,-0.46,-54,2,-3,1.02,,80,5472,24,23,75,0.802,34.1,254,4.82,11.6,30.0,1,37.4,4.33,10.3,0,0,0,1,0,308,-32256,6668,341,,,,,,,,,,,,,,,,
171723,1620400739629,,,,,,,,0.11,-1.02,-0.26,-53,-1,-2,1.03,,80,5709,29,23,80,0.802,34.5,246,4.78,11.5,30.0,1,38.3,4.76,10.3,0,0,0,1,0,309,32000,-122,345,,,,,,,,,,,,,,,,
171743,1620400739649,-0,2,39,30,31,41,-37,0.12,-1.01,-0.07,-52,-4,-2,1.01,0,80,5929,35,23,85,0.798,34.4,240,4.84,11.4,30.0,1,38.7,5.26,10.3,0,0,0,1,0,310,120,3327,344,45.845856,5.179836,33.44,219.4,10,3,1.5,0,0.0,-1,0.0,,0.0,0,0.69,2.8624
171763,1620400739669,,,,,,,,0.18,-1.0,0.1,-52,-8,-2,1.02,,80,6133,40,23,90,0.791,34.0,236,4.8,11.4,30.0,1,41.0,5.61,10.3,0,0,0,1,0,337,30720,-1246,348,,,,,,,,,,,,,,,,
171783,1620400739691,,,,,,,,0.23,-1.02,0.26,-52,-10,-1,1.04,,80,6077,42,23,93,0.787,34.6,240,4.79,11.4,30.0,1,40.4,5.97,10.3,0,0,0,1,0,407,32000,-6644,346,,,,,,,,,,,,,,,,
171803,1620400739711,,,,,,,,0.25,-1.09,0.29,-52,-9,-1,1.12,,80,6042,42,23,94,0.782,34.9,256,4.8,11.4,47.8,1,40.1,6.09,16.8,0,0,0,1,0,433,-32256,-6458,349,,,,,,,,,,,,,,,,
171823,1620400739731,,,,,,,,0.29,-1.17,0.19,-52,-11,-2,1.2,,80,6101,42,23,94,0.778,35.6,270,4.8,11.4,47.8,1,40.7,4.03,16.8,0,0,0,1,0,396,130,3082,356,,,,,,,,,,,,,,,,
171843,1620400739751,0,3,43,34,28,37,-45,0.42,-1.23,0.01,-53,-7,-3,1.3,0,80,6115,41,23,94,0.779,36.1,302,4.8,11.5,47.8,1,40.8,5.9,16.8,0,0,0,1,0,372,145,257,361,45.845848,5.179842,33.43,219.4,10,3,1.5,0,0.0,-1,0.0,0.0,0.0,0,0.69,2.864
171863,1620400739771,,,,,,,,0.5,-1.3,-0.16,-53,-4,-3,1.39,,80,6034,34,23,94,0.779,36.2,334,4.8,11.5,47.8,1,40.0,5.89,16.8,0,0,0,1,0,368,140,8200,362,,,,,,,,,,,,,,,,
171883,1620400739791,,,,,,,,0.6,-1.32,-0.31,-54,1,-3,1.45,,80,5961,21,23,91,0.779,37.2,368,4.8,11.5,47.8,1,39.9,4.91,16.8,0,0,0,1,0,396,155,-31744,372,,,,,,,,,,,,,,,,
171903,1620400739811,,,,,,,,0.68,-1.38,-0.45,-54,3,-3,1.54,,80,5975,11,23,86,0.787,37.4,400,4.87,11.6,35.1,1,39.0,4.59,13.1,0,0,0,1,0,392,-23296,-6524,374,,,,,,,,,,,,,,,,
171923,1620400739831,,,,,,,,0.74,-1.43,-0.58,-55,6,-5,1.61,,80,6046,10,23,81,0.804,37.9,430,4.87,11.6,35.1,1,38.1,4.3,13.1,0,0,0,1,0,360,-12032,-3866,374,,,,,,,,,,,,,,,,
171943,1620400739851,-1,3,46,35,27,38,-49,0.75,-1.47,-0.7,-55,9,-4,1.65,0,80,6064,10,23,77,0.819,38.2,461,4.88,11.6,35.1,1,37.4,4.13,13.1,0,0,0,1,0,392,-22016,-31744,380,45.84584,5.179848,34.56,219.3,10,3,1.5,0,0.0,-1,0.0,,0.0,0,0.69,2.8657
171963,1620400739871,,,,,,,,0.74,-1.49,-0.81,-56,14,-2,1.66,,80,6065,10,23,73,0.835,37.8,493,4.9,11.6,35.1,1,36.7,3.8,13.1,0,0,0,1,0,401,175,-6524,378,,,,,,,,,,,,,,,,
171983,1620400739891,,,,,,,,0.72,-1.48,-0.91,-57,20,-1,1.64,,80,6015,9,23,70,0.846,38.4,522,4.84,11.6,35.1,1,35.8,3.62,13.1,0,0,0,1,0,388,-6528,-31744,384,,,,,,,,,,,,,,,,
172003,1620400739911,,,,,,,,0.71,-1.47,-1.0,-57,21,-1,1.63,,80,5848,9,23,68,0.86,38.6,530,4.75,11.6,25.0,1,35.7,3.4,9.6,0,0,0,1,0,370,175,-31744,386,,,,,,,,,,,,,,,,
172023,1620400739931,,,,,,,,0.73,-1.51,-1.08,-57,20,-2,1.68,,80,5627,9,23,66,0.876,38.0,530,4.75,11.5,25.0,1,35.2,3.08,9.6,0,0,0,1,0,364,175,-19126,380,,,,,,,,,,,,,,,,
172043,1620400739951,1,1,45,33,28,41,-63,0.58,-1.41,-0.83,-57,18,-3,1.52,0,80,5509,9,23,66,0.886,38.3,507,4.83,11.5,25.0,1,35.3,3.09,9.6,0,0,0,1,0,373,-22016,19125,383,45.845833,5.179853,36.9,219.3,10,3,1.5,0,0.0,-1,0.0,0.0,0.0,0,0.69,2.8674
172063,1620400739971,,,,,,,,0.54,-1.43,-0.92,-58,19,-2,1.53,,80,5378,9,23,65,0.898,37.6,503,4.83,11.6,25.0,1,35.1,3.0,9.6,0,0,0,1,0,372,175,8200,382,,,,,,,,,,,,,,,,
172083,1620400739991,,,,,,,,0.46,-1.38,-0.68,-58,17,-3,1.46,,80,5358,9,23,65,0.897,37.9,497,4.76,11.5,25.0,1,35.1,3.01,9.6,0,0,0,1,0,369,-22016,-992,379,,,,,,,,,,,,,,,,
172103,1620400740003,,,,,,,,0.36,-1.36,-0.79,-59,18,-3,1.41,,80,5378,9,23,65,0.894,38.1,499,4.81,11.6,19.4,1,35.1,3.0,7.4,0,0,0,1,0,366,3346,8200,381,,,,,,,,,,,,,,,,
