"Interval"|"ms"|0|0|1,"Utc"|"ms"|0|0|1,"Brake_F"|"Bar"|0|2000|10,"Brake_R"|"Bar"|0|2000|10,"Height_RF"|"mm"|0|255|10,"Height_LF"|"mm"|0|255|10,"Height_LR"|"mm"|0|80|10,"Height_RR"|"mm"|0|255|10,"Steering"|"deg"|-100|100|10,"AccelX"|"G"|-3.0|3.0|50,"AccelY"|"G"|-3.0|3.0|50,"AccelZ"|"G"|-3.0|3.0|50,"Yaw"|"Deg/Sec"|-120|120|50,"Pitch"|"Deg/Sec"|-120|120|50,"Roll"|"Deg/Sec"|-120|120|50,"Gsum"|"G"|0.0|3.0|50,"Log_Button"|""|0.0|10.0|10,"WaterTemp"|"C"|0|150|50,"RPM"|"tr/min"|0|14000|50,"TPS"|"%"|0|100|50,"AirTemp"|"C"|0|150|50,"MAP"|"KPa"|0|100|50,"Lambda"|""|0.5|1.5|50,"SpeedDTA"|"kph"|0.0|250.0|50,"OilPress"|"KPa"|0|1500|50,"FuelPressur"|"Bar"|0.0|10.0|50,"Batterie"|"V"|0.0|20.0|50,"ConsoKm"|"L/100km"|0.0|200.0|50,"Gear"|""|0|6|50,"AdvIgnition"|"Deg"|-20.0|70.0|50,"Injection"|"ms"|0.0|10.0|50,"ConsoHr"|"L/Hr"|0.0|10000.0|50,"LC_But_Pres"|""|0|1|50,"LC_Active"|""|0|1|50,"TractionOn"|""|0|1|50,"TractionWet"|""|0|1|50,"FanOn"|""|0|1|50,"RD_Speed"|"km/h"|-30|250|50,"RUD_Speed"|"km/h"|-30|250|50,"LD_Speed"|"km/h"|-30|250|50,"LUD_Speed"|"km/h"|-30|250|50,"Latitude"|"Degrees"|-180.0|180.0|10,"Longitude"|"Degrees"|-180.0|180.0|10,"Speed"|"kph"|0.0|150.0|10,"Altitude"|"m"|0.0|4000.0|10,"GPSSats"|""|0|20|10,"GPSQual"|""|0|5|10,"GPSDOP"|""|0.0|20.0|10,"LapCount"|""|0|0|10,"LapTime"|"Min"|0.0|0.0|10,"Sector"|""|0|0|10,"SectorTime"|"Min"|0.0|0.0|10,"PredTime"|"Min"|0.0|0.0|5,"ElapsedTime"|"Min"|0.0|0.0|10,"CurrentLap"|""|0|0|10,"Distance"|"km"|0.0|0.0|10,"SessionTime"|"Min"|0.0|0.0|10
77663,1620401385529,,,,,,,,0.53,-0.79,-0.34,-21,-2,-4,0.95,,80,10605,56,23,85,0.908,61.2,695,4.76,10.9,47.2,1,41.3,5.7,28.0,0,0,0,1,0,617,-3210,-6006,612,,,,,,,,,,,,,,,,
77683,1620401385549,,,,,,,,0.57,-0.85,-0.48,-21,-3,-4,1.02,,80,10647,56,23,85,0.891,61.1,695,4.72,10.9,47.2,1,41.4,5.67,28.0,0,0,0,1,0,633,23619,-2580,611,,,,,,,,,,,,,,,,
77703,1620401385569,,,,,,,,0.57,-0.93,-0.49,-21,-2,-4,1.09,,80,10659,56,23,85,0.874,61.6,700,4.74,10.9,47.2,1,41.5,5.66,28.0,0,0,0,1,0,671,243,966,616,,,,,,,,,,,,,,,,
77723,1620401385589,,,,,,,,0.55,-0.93,-0.6,-21,-1,-3,1.08,,80,10708,56,23,85,0.858,61.4,700,4.74,10.9,47.2,1,41.6,5.62,28.0,0,0,0,1,0,676,-13043,4909,614,,,,,,,,,,,,,,,,
77743,1620401385609,1,2,43,38,24,30,-4,0.58,-0.87,-0.72,-20,-1,-2,1.04,0,80,10732,56,23,85,0.852,62.0,699,4.68,10.9,44.5,1,41.7,5.6,27.8,0,0,0,1,0,639,-768,16118,620,45.845833,5.179109,61.94,221.1,8,2,1.6,0,0.0,-1,0.0,,0.0,0,0.43,1.2957
77763,1620401385629,,,,,,,,0.58,-0.78,-0.59,-20,-2,-2,0.97,,80,10665,55,23,85,0.853,63.1,697,4.75,10.9,44.5,1,41.5,5.65,27.8,0,0,0,1,0,651,-28304,8958,630,,,,,,,,,,,,,,,,
77783,1620401385649,,,,,,,,0.51,-0.74,-0.38,-20,-1,-3,0.9,,80,10653,48,23,85,0.854,62.9,697,4.75,10.9,44.5,1,41.4,5.66,27.8,0,0,0,1,0,677,19320,11776,638,,,,,,,,,,,,,,,,
77803,1620401385669,,,,,,,,0.51,-0.79,-0.29,-19,-3,-3,0.94,,80,10738,39,23,83,0.856,63.3,703,4.69,10.9,44.5,1,41.5,5.15,27.8,0,0,0,1,0,662,30721,-3038,633,,,,,,,,,,,,,,,,
77823,1620401385689,,,,,,,,0.59,-0.79,-0.27,-19,-4,-2,0.99,,80,10726,33,23,80,0.861,64.4,703,4.75,10.9,44.5,1,41.5,4.97,27.8,0,0,0,1,0,661,20993,-3578,644,,,,,,,,,,,,,,,,
77843,1620401385709,1,2,42,37,23,30,-3,0.6,-0.76,-0.42,-19,-4,-2,0.97,0,80,10587,27,23,75,0.875,65.3,697,4.72,10.9,37.0,1,41.5,4.73,24.1,0,0,0,1,0,672,-2830,31988,640,45.845852,5.179105,64.04,221.1,8,2,1.6,0,0.0,-1,0.0,0.0,0.0,0,0.44,1.2974
77863,1620401385729,,,,,,,,0.6,-0.76,-0.41,-18,-4,-1,0.97,,80,10474,21,23,69,0.888,64.9,691,4.76,10.9,37.0,1,42.0,4.33,24.1,0,0,0,1,0,666,16599,-3578,643,,,,,,,,,,,,,,,,
77883,1620401385749,,,,,,,,0.61,-0.76,-0.54,-18,-3,-2,0.97,,80,10359,16,23,63,0.901,65.6,696,4.78,10.9,37.0,1,42.2,3.84,24.1,0,0,0,1,0,664,24,1549,656,,,,,,,,,,,,,,,,
77903,1620401385769,,,,,,,,0.51,-0.71,-0.33,-17,-3,-4,0.88,,80,10251,14,23,56,0.913,65.3,696,4.79,10.9,37.0,1,40.5,3.58,24.1,0,0,0,1,0,669,-2580,-388,656,,,,,,,,,,,,,,,,
77923,1620401385789,,,,,,,,0.48,-0.65,-0.14,-16,-3,-4,0.81,,80,10173,13,23,52,0.923,65.0,689,4.78,10.9,37.0,1,39.4,3.41,24.1,0,0,0,1,0,660,-8429,-388,650,,,,,,,,,,,,,,,,
77943,1620401385809,6,4,39,38,24,30,-3,0.46,-0.64,-0.12,-16,-2,-2,0.79,0,80,10162,12,23,48,0.934,65.8,695,4.79,10.9,23.8,1,38.2,3.19,15.5,0,0,0,1,0,656,4909,-10348,656,45.845867,5.179101,65.89,221.1,8,2,1.6,0,0.0,-1,0.0,,0.0,0,0.44,1.299
77963,1620401385829,,,,,,,,0.4,-0.61,-0.28,-15,-1,-2,0.73,,80,10005,12,23,45,0.944,65.0,695,4.76,11.0,23.8,1,36.5,3.15,15.5,0,0,0,1,0,653,479,31988,653,,,,,,,,,,,,,,,,
77983,1620401385849,,,,,,,,0.35,-0.63,-0.36,-15,-2,-4,0.72,,80,9894,12,23,43,0.948,64.6,700,4.73,10.9,23.8,1,35.0,3.0,15.5,0,0,0,1,0,653,6208,31988,645,,,,,,,,,,,,,,,,
78003,1620401385869,,,,,,,,0.31,-0.55,-0.28,-14,-0,-3,0.63,,80,9745,11,23,42,0.936,64.8,694,4.72,11.0,23.8,1,34.2,2.93,15.5,0,0,0,1,0,643,4909,4909,655,,,,,,,,,,,,,,,,
78023,1620401385889,,,,,,,,0.19,-0.57,-0.43,-13,1,-3,0.6,,80,9640,11,22,40,0.925,64.4,692,4.75,10.9,23.8,1,32.7,2.87,15.5,0,0,0,1,0,637,-10251,-8429,644,,,,,,,,,,,,,,,,
78043,1620401385909,23,10,31,28,32,35,-0,0.16,-0.45,-0.54,-13,2,-2,0.48,0,80,9605,11,22,38,0.914,64.7,687,4.72,10.9,19.5,1,31.7,2.81,12.6,0,0,0,1,0,637,771,244,647,45.845882,5.179099,67.9,221.1,8,2,1.6,0,0.0,-1,0.0,0.0,0.0,0,0.44,1.3007
78063,1620401385929,,,,,,,,0.04,-0.45,-0.4,-12,2,-2,0.45,,80,9479,10,22,37,0.902,63.4,687,4.81,10.9,19.5,1,31.4,2.76,12.6,0,0,0,1,0,629,506,3,635,,,,,,,,,,,,,,,,
78083,1620401385949,,,,,,,,0.01,-0.43,-0.54,-12,3,-2,0.43,,80,9398,10,22,36,0.887,63.2,687,4.66,10.9,19.5,1,31.1,2.72,12.6,0,0,0,1,0,612,19320,26688,632,,,,,,,,,,,,,,,,
78103,1620401385969,,,,,,,,0.04,-0.33,-0.66,-11,5,0,0.33,,80,9493,9,22,34,0.873,63.3,696,4.68,11.0,19.5,1,30.5,2.7,12.6,0,0,0,1,0,596,506,-3210,619,,,,,,,,,,,,,,,,
78123,1620401385989,,,,,,,,-0.01,-0.3,-0.44,-10,3,-0,0.3,,80,9585,9,22,33,0.858,61.9,691,4.76,10.9,19.5,1,30.2,2.65,12.6,0,0,0,1,0,590,30721,-12040,615,,,,,,,,,,,,,,,,
78143,1620401385999,29,14,26,23,37,39,-0,-0.13,-0.35,-0.46,-10,2,1,0.37,0,80,9460,9,22,32,0.844,61.9,688,4.68,10.9,18.4,1,30.0,2.6,11.5,0,0,0,1,0,587,-28304,-1894,619,45.845898,5.179096,67.21,221.1,8,2,1.6,0,0.0,-1,0.0,,0.0,0,0.44,1.3024
78163,1620401386019,,,,,,,,-0.21,-0.36,-0.41,-10,3,-0,0.42,,80,9300,9,22,31,0.832,61.1,686,4.73,11.0,18.4,1,29.5,2.55,11.5,0,0,0,1,0,603,243,3472,611,,,,,,,,,,,,,,,,
78183,1620401386039,,,,,,,,-0.21,-0.29,-0.51,-10,2,-0,0.36,,80,9186,8,22,31,0.821,61.3,682,4.68,10.9,18.4,1,29.5,2.52,11.5,0,0,0,1,0,578,-768,17344,613,,,,,,,,,,,,,,,,
78203,1620401386059,,,,,,,,-0.28,-0.26,-0.35,-9,2,0,0.38,,80,9088,8,22,31,0.809,60.4,682,4.81,11.0,18.4,1,29.5,2.5,11.5,0,0,0,1,0,585,-28648,6273,604,,,,,,,,,,,,,,,,
78223,1620401386079,,,,,,,,-0.34,-0.24,-0.48,-9,2,1,0.41,,80,9031,8,22,31,0.798,59.6,683,4.92,11.0,18.4,1,29.5,2.49,11.5,0,0,0,1,0,559,-25872,259,596,,,,,,,,,,,,,,,,
78243,1620401386107,29,15,22,21,37,40,-0,-0.37,-0.22,-0.38,-8,1,1,0.43,0,80,9014,8,22,31,0.798,58.4,679,4.77,11.0,17.4,1,29.5,2.49,10.4,0,0,0,1,0,549,-4035,2211,584,45.845913,5.179094,64.61,221.0,8,2,1.6,0,0.0,-1,0.0,0.0,0.0,0,0.44,1.304
78263,1620401386127,,,,,,,,-0.37,-0.15,-0.37,-8,2,1,0.4,,80,8903,8,22,30,0.799,58.1,677,4.69,11.0,17.4,1,29.1,2.49,10.4,0,0,0,1,0,539,-29984,6273,582,,,,,,,,,,,,,,,,
78283,1620401386147,,,,,,,,-0.39,-0.13,-0.32,-7,0,1,0.41,,80,8729,8,22,30,0.8,57.2,669,4.79,11.0,17.4,1,29.1,2.49,10.4,0,0,0,1,0,545,-2934,-8186,577,,,,,,,,,,,,,,,,
78303,1620401386167,,,,,,,,-0.44,-0.15,-0.46,-7,1,1,0.46,,80,8596,8,22,31,0.802,56.8,665,4.79,11.0,17.4,1,29.5,2.49,10.4,0,0,0,1,0,551,-2934,-28648,568,,,,,,,,,,,,,,,,
78323,1620401386187,,,,,,,,-0.51,-0.09,-0.3,-6,1,1,0.52,,80,8549,8,22,31,0.806,56.3,668,4.78,10.9,17.4,1,29.5,2.49,10.4,0,0,0,1,0,527,-23623,-9072,554,,,,,,,,,,,,,,,,
78343,1620401386209,28,15,19,20,37,41,0,-0.53,-0.07,-0.11,-6,-1,1,0.53,0,80,8476,8,22,30,0.811,55.7,670,4.76,11.0,17.5,1,29.0,2.47,9.8,0,0,0,1,0,505,2216,-30064,554,45.845932,5.179091,62.94,221.0,8,2,1.6,0,0.0,-1,0.0,,0.0,0,0.45,1.3057
78363,1620401386229,,,,,,,,-0.54,-0.15,-0.26,-6,0,1,0.56,,80,8344,8,22,30,0.816,54.5,677,4.77,11.0,17.5,1,28.8,2.35,9.8,0,0,0,1,0,508,-2934,-8186,545,,,,,,,,,,,,,,,,
78383,1620401386249,,,,,,,,-0.57,-0.17,-0.41,-6,1,1,0.6,,80,8202,8,22,30,0.821,54.6,662,4.77,11.0,17.5,1,28.7,2.2,9.8,0,0,0,1,0,508,-32248,1780,544,,,,,,,,,,,,,,,,
78403,1620401386269,,,,,,,,-0.61,-0.2,-0.54,-5,2,1,0.64,,80,8095,8,22,31,0.833,54.2,660,4.74,10.9,17.5,1,28.8,2.09,9.8,0,0,0,1,0,514,-22519,-9212,539,,,,,,,,,,,,,,,,
78423,1620401386289,,,,,,,,-0.62,-0.22,-0.66,-6,2,1,0.66,,80,8061,8,22,31,0.845,52.6,662,4.78,11.0,17.5,1,28.8,2.05,9.8,0,0,0,1,0,516,-32248,998,525,,,,,,,,,,,,,,,,
78443,1620401386308,36,19,19,20,38,41,-1,-0.6,-0.18,-0.62,-5,2,0,0.63,0,80,8009,8,22,31,0.857,52.3,665,4.8,11.0,14.9,1,28.7,2.0,7.5,0,0,0,1,0,482,-22519,1,520,45.845947,5.17909,59.07,221.0,8,2,1.6,0,0.0,-1,0.0,0.0,0.0,0,0.45,1.3074
78463,1620401386328,,,,,,,,-0.67,-0.25,-0.6,-5,2,1,0.72,,80,7848,8,22,32,0.869,51.8,656,4.81,11.0,14.9,1,29.0,1.97,7.5,0,0,0,1,0,448,1,6274,515,,,,,,,,,,,,,,,,
78483,1620401386348,,,,,,,,-0.7,-0.21,-0.71,-5,2,2,0.73,,80,7709,8,22,32,0.885,51.4,658,4.73,11.0,14.9,1,29.0,1.97,7.5,0,0,0,1,0,455,-3414,-32248,514,,,,,,,,,,,,,,,,
78503,1620401386368,,,,,,,,-0.75,-0.19,-0.82,-5,4,2,0.77,,80,7569,8,22,32,0.902,50.9,656,4.75,11.0,14.9,1,29.0,1.97,7.5,0,0,0,1,0,449,10994,10408,506,,,,,,,,,,,,,,,,
78523,1620401386388,,,,,,,,-0.74,-0.14,-0.92,-5,3,2,0.75,,80,7434,8,22,32,0.919,49.9,657,4.77,11.0,14.9,1,29.0,1.97,7.5,0,0,0,1,0,453,1,-32768,499,,,,,,,,,,,,,,,,
78543,1620401386408,37,21,19,18,40,41,-1,-0.76,-0.08,-1.01,-5,4,3,0.76,0,80,7329,8,22,32,0.936,49.0,652,4.74,11.0,13.4,1,29.0,1.97,6.7,0,0,0,1,0,464,505,14488,490,45.845959,5.179089,56.29,221.0,8,2,1.6,0,0.0,-1,0.0,,0.0,0,0.45,1.309
78563,1620401386428,,,,,,,,-0.79,-0.08,-1.04,-6,4,2,0.79,,80,7219,8,22,32,0.952,48.8,651,4.78,10.9,13.4,1,29.0,2.02,6.7,0,0,0,1,0,466,16648,6193,488,,,,,,,,,,,,,,,,
78583,1620401386448,,,,,,,,-0.84,-0.14,-0.79,-6,-1,0,0.85,,80,7175,8,22,33,0.967,48.1,642,4.79,11.0,13.4,1,29.2,2.02,6.7,0,0,0,1,0,440,16408,2211,481,,,,,,,,,,,,,,,,
78603,1620401386468,,,,,,,,-0.81,-0.11,-0.75,-6,-0,-0,0.81,,80,7121,8,22,33,0.981,47.3,646,4.76,11.0,13.4,1,29.2,2.02,6.7,0,0,0,1,0,462,10432,-3210,473,,,,,,,,,,,,,,,,
78623,1620401386488,,,,,,,,-0.8,-0.1,-0.86,-6,1,1,0.8,,80,7059,8,22,34,0.995,46.8,650,4.75,10.9,13.4,1,29.5,2.07,6.7,0,0,0,1,0,444,243,-16384,468,,,,,,,,,,,,,,,,
78643,1620401386506,35,19,19,18,39,42,0,-0.84,-0.14,-0.62,-6,1,0,0.85,0,80,7035,9,22,34,1.002,45.6,645,4.77,10.9,14.3,1,29.5,2.07,6.7,0,0,0,1,0,429,-8985,3571,456,45.84597,5.179087,52.87,221.0,8,2,1.6,0,0.0,-1,0.0,0.0,0.0,0,0.45,1.3107
78663,1620401386526,,,,,,,,-0.89,-0.07,-0.4,-6,-2,-0,0.9,,80,6991,9,22,35,0.999,45.5,647,4.8,11.0,14.3,1,29.7,2.12,6.7,0,0,0,1,0,428,16648,10305,454,,,,,,,,,,,,,,,,
78683,1620401386546,,,,,,,,-0.86,-0.07,-0.53,-6,-1,1,0.86,,80,6931,9,22,35,0.996,44.7,651,4.73,11.0,14.3,1,29.7,2.12,6.7,0,0,0,1,0,422,16648,21580,447,,,,,,,,,,,,,,,,
78703,1620401386566,,,,,,,,-0.86,-0.11,-0.32,-6,-2,-1,0.87,,80,6888,9,22,36,0.994,44.2,641,4.83,10.9,14.3,1,29.9,2.18,6.7,0,0,0,1,0,422,31796,5600,442,,,,,,,,,,,,,,,,
78723,1620401386586,,,,,,,,-0.86,-0.05,-0.46,-6,1,1,0.86,,80,6830,9,22,36,0.986,44.0,640,4.75,11.0,14.3,1,29.8,2.18,6.7,0,0,0,1,0,420,13180,-3314,430,,,,,,,,,,,,,,,,
78743,1620401386608,28,14,19,18,39,41,2,-0.83,-0.09,-0.28,-6,0,2,0.84,0,80,6798,9,22,36,0.972,42.7,641,4.76,10.9,15.7,1,29.8,2.18,6.8,0,0,0,1,0,423,31796,13552,427,45.845985,5.179087,49.2,221.0,8,2,1.6,0,0.0,-1,0.0,,0.0,0,0.45,1.3124
78763,1620401386628,,,,,,,,-0.8,-0.05,-0.38,-6,3,2,0.8,,80,6749,9,22,37,0.957,42.5,630,4.81,11.0,15.7,1,30.0,2.23,6.8,0,0,0,1,0,422,-4082,7154,418,,,,,,,,,,,,,,,,
78783,1620401386648,,,,,,,,-0.77,-0.13,-0.43,-6,7,3,0.79,,80,6706,9,22,37,0.942,41.8,630,4.79,10.9,15.7,1,30.0,2.23,6.8,0,0,0,1,0,413,-3414,7154,418,,,,,,,,,,,,,,,,
78803,1620401386668,,,,,,,,-0.74,-0.03,-0.56,-6,7,3,0.74,,80,6684,9,22,37,0.926,41.8,630,4.85,11.0,15.7,1,30.0,2.23,6.8,0,0,0,1,0,416,2524,-26615,418,,,,,,,,,,,,,,,,
78823,1620401386688,,,,,,,,-0.69,-0.07,-0.35,-6,6,3,0.7,,80,6634,9,22,37,0.909,41.4,633,4.78,10.9,15.7,1,29.9,2.28,6.8,0,0,0,1,0,412,-26615,13040,414,,,,,,,,,,,,,,,,
78843,1620401386706,14,8,20,20,38,39,3,-0.64,-0.1,-0.49,-6,13,6,0.65,0,80,6630,9,22,38,0.892,41.1,637,4.75,10.9,17.0,1,30.2,2.28,7.0,0,0,0,1,0,412,9517,9517,411,45.845997,5.179086,45.92,221.0,8,2,1.6,0,0.0,-1,0.0,0.0,0.0,0,0.45,1.314
78863,1620401386726,,,,,,,,-0.67,-0.1,-0.28,-5,5,3,0.67,,80,6588,9,22,38,0.875,40.8,633,4.81,11.0,17.0,1,30.2,2.28,7.0,0,0,0,1,0,405,10392,-9211,408,,,,,,,,,,,,,,,,
78883,1620401386746,,,,,,,,-0.65,-0.07,-0.42,-5,8,5,0.65,,80,6558,9,22,39,0.859,40.6,627,4.73,10.9,17.0,1,30.4,2.34,7.0,0,0,0,1,0,402,2524,-9211,402,,,,,,,,,,,,,,,,
78903,1620401386766,,,,,,,,-0.76,0.0,-0.22,-4,2,3,0.76,,80,6528,9,22,39,0.85,39.8,626,4.74,11.0,17.0,1,30.4,2.34,7.0,0,0,0,1,0,402,-1818,-3968,391,,,,,,,,,,,,,,,,
78923,1620401386786,,,,,,,,-0.7,-0.05,-0.03,-4,1,2,0.7,,80,6512,9,22,39,0.842,39.5,623,4.74,11.0,17.0,1,30.4,2.34,7.0,0,0,0,1,0,394,17144,-1818,388,,,,,,,,,,,,,,,,
78943,1620401386808,22,13,20,22,38,38,4,-0.67,-0.02,-0.2,-5,10,7,0.67,0,80,6467,9,22,39,0.833,39.1,627,4.78,10.9,17.8,1,30.3,2.34,7.0,0,0,0,1,0,392,505,-31744,386,45.846008,5.179085,43.41,220.9,8,2,1.6,0,0.0,-1,0.0,,0.0,0,0.45,1.3157
78963,1620401386828,,,,,,,,-0.76,0.05,-0.01,-4,8,5,0.76,,80,6438,9,22,39,0.825,38.5,625,4.8,11.1,17.8,1,30.3,2.34,7.0,0,0,0,1,0,387,-6475,-19019,385,,,,,,,,,,,,,,,,
78983,1620401386848,,,,,,,,-0.67,0.02,0.15,-2,-0,2,0.67,,80,6392,9,22,40,0.824,38.0,621,4.81,11.0,17.8,1,30.4,2.34,7.0,0,0,0,1,0,387,-19019,-19126,380,,,,,,,,,,,,,,,,
79003,1620401386868,,,,,,,,-0.58,-0.06,-0.03,-1,3,2,0.59,,80,6270,9,22,41,0.823,37.9,610,4.81,11.0,17.8,1,30.5,2.34,7.0,0,0,0,1,0,385,-18948,-18948,373,,,,,,,,,,,,,,,,
79023,1620401386888,,,,,,,,-0.54,-0.1,-0.19,-1,11,6,0.55,,80,6105,9,22,41,0.822,37.8,595,4.75,10.9,17.8,1,30.1,2.34,7.0,0,0,0,1,0,380,2278,-992,375,,,,,,,,,,,,,,,,
79043,1620401386908,21,12,20,23,37,38,2,-0.49,-0.12,-0.34,-2,16,10,0.5,0,80,5837,9,22,43,0.821,37.4,580,4.76,10.9,17.2,1,30.1,2.4,6.5,0,0,0,1,0,377,742,-6656,372,45.846016,5.179084,41.44,220.9,8,2,1.6,0,0.0,-1,0.0,0.0,0.0,0,0.46,1.3174
79063,1620401386928,,,,,,,,-0.47,-0.14,-0.48,-1,18,10,0.49,,80,5659,9,22,44,0.821,36.9,570,4.78,11.0,17.2,1,29.9,2.51,6.5,0,0,0,1,0,372,-6656,0,366,,,,,,,,,,,,,,,,
79083,1620401386948,,,,,,,,-0.51,-0.13,-0.27,-1,14,8,0.53,,80,5487,9,22,46,0.821,36.4,552,4.83,11.1,17.2,1,30.0,2.6,6.5,0,0,0,1,0,365,-1268,-6405,364,,,,,,,,,,,,,,,,
79103,1620401386968,,,,,,,,-0.59,-0.05,-0.4,-1,15,8,0.59,,80,5369,9,22,47,0.821,36.5,538,4.74,10.9,17.2,1,30.1,2.69,6.5,0,0,0,1,0,360,-6405,2790,363,,,,,,,,,,,,,,,,
79123,1620401386988,,,,,,,,-0.53,-0.09,-0.53,-0,13,7,0.54,,80,5322,9,22,49,0.82,36.1,526,4.82,11.1,17.2,1,30.6,2.72,6.5,0,0,0,1,0,360,-6458,-29302,359,,,,,,,,,,,,,,,,
79143,1620401386998,10,5,21,24,37,38,6,-0.56,-0.07,-0.57,-0,13,7,0.57,0,80,5219,9,22,50,0.818,35.9,520,4.72,10.9,18.6,1,30.7,2.79,6.7,0,0,0,1,0,362,-29302,-6640,357,45.846027,5.179084,39.83,220.9,8,2,1.6,0,0.0,-1,0.0,,0.0,0,0.46,1.3191
79163,1620401387018,,,,,,,,-0.43,-0.06,-0.69,0,10,7,0.44,,80,5155,10,22,51,0.816,35.9,506,4.76,11.1,18.6,1,31.0,2.84,6.7,0,0,0,1,0,361,2060,4104,359,,,,,,,,,,,,,,,,
79183,1620401387038,,,,,,,,-0.45,-0.04,-0.8,0,10,7,0.45,,80,5100,10,22,53,0.813,36.2,505,4.77,10.9,18.6,1,31.5,2.9,6.7,0,0,0,1,0,358,2790,4104,356,,,,,,,,,,,,,,,,
79203,1620401387058,,,,,,,,-0.43,-0.04,-0.9,1,7,5,0.43,,80,5146,10,22,53,0.811,35.4,506,4.84,11.1,18.6,1,31.6,2.87,6.7,0,0,0,1,0,353,3302,6870,349,,,,,,,,,,,,,,,,
79223,1620401387078,,,,,,,,-0.48,0.02,-0.91,2,10,6,0.48,,80,5322,10,22,54,0.808,35.3,505,4.76,11.0,18.6,1,32.1,2.77,6.7,0,0,0,1,0,347,-6644,2560,343,,,,,,,,,,,,,,,,
79243,1620401387104,4,4,22,26,37,36,12,-0.4,0.0,-1.0,2,8,5,0.4,0,80,5555,10,22,55,0.805,35.1,525,4.82,11.1,19.4,1,32.4,2.59,6.7,0,0,0,1,0,344,28553,-122,343,45.846035,5.179083,38.17,220.9,8,2,1.6,0,0.0,-1,0.0,0.0,0.0,0,0.46,1.3207
79263,1620401387124,,,,,,,,-0.39,-0.01,-0.75,3,4,4,0.39,,80,5681,10,22,55,0.802,35.1,551,4.75,11.0,19.4,1,32.5,2.5,6.7,0,0,0,1,0,346,-1246,3327,343,,,,,,,,,,,,,,,,
79283,1620401387144,,,,,,,,-0.4,0.05,-0.52,4,4,3,0.4,,80,5730,10,22,56,0.799,34.9,561,4.75,10.9,19.4,1,32.7,2.46,6.7,0,0,0,1,0,350,2811,3327,340,,,,,,,,,,,,,,,,
79303,1620401387164,,,,,,,,-0.41,0.13,-0.42,5,6,4,0.43,,80,5728,10,22,57,0.8,34.9,564,4.76,11.0,19.4,1,33.0,2.45,6.7,0,0,0,1,0,351,2811,-122,339,,,,,,,,,,,,,,,,
79323,1620401387184,,,,,,,,-0.36,0.2,-0.55,6,6,5,0.41,,80,5719,10,22,57,0.803,34.7,560,4.77,11.0,19.4,1,33.0,2.46,6.7,0,0,0,1,0,352,8841,2560,340,,,,,,,,,,,,,,,,
79343,1620401387208,1,1,23,30,35,34,19,-0.22,0.18,-0.67,7,2,5,0.29,0,80,5749,11,22,58,0.806,35.5,562,4.75,11.1,19.4,1,33.2,2.44,6.5,0,0,0,1,0,350,2060,-31222,336,45.846046,5.179082,36.41,220.9,8,2,1.6,0,0.0,-1,0.0,,0.0,0,0.46,1.3224
79363,1620401387228,,,,,,,,-0.15,0.13,-0.78,8,-1,3,0.2,,80,5735,12,22,58,0.809,34.8,560,4.82,11.1,19.4,1,33.2,2.44,6.5,0,0,0,1,0,348,-1246,3346,336,,,,,,,,,,,,,,,,
79383,1620401387248,,,,,,,,-0.13,0.15,-0.55,9,-3,2,0.2,,80,5758,15,22,60,0.812,35.1,558,4.77,11.0,19.4,1,33.7,2.4,6.5,0,0,0,1,0,350,28553,3346,337,,,,,,,,,,,,,,,,
79403,1620401387268,,,,,,,,-0.23,0.19,-0.34,10,-2,2,0.3,,80,5751,16,22,62,0.816,34.9,558,4.8,11.0,19.4,1,34.2,2.54,6.5,0,0,0,1,0,348,3183,4838,334,,,,,,,,,,,,,,,,
79423,1620401387288,,,,,,,,-0.29,0.27,-0.29,11,2,3,0.39,,80,5721,18,22,65,0.82,35.2,559,4.71,10.9,19.4,1,34.9,2.96,6.5,0,0,0,1,0,347,8841,4838,334,,,,,,,,,,,,,,,,
79443,1620401387307,0,3,26,33,36,33,22,-0.2,0.31,-0.44,12,1,3,0.37,0,80,5650,18,22,68,0.824,34.8,553,4.74,11.0,24.8,1,35.8,3.25,8.2,0,0,0,1,0,350,-14714,13,332,45.846054,5.179081,35.55,220.8,8,2,1.6,0,0.0,-1,0.0,0.0,0.0,0,0.46,1.324
79463,1620401387327,,,,,,,,-0.11,0.27,-0.26,13,-3,2,0.29,,80,5558,19,22,70,0.828,35.0,533,4.84,11.1,24.8,1,36.3,3.5,8.2,0,0,0,1,0,351,-30454,-122,333,,,,,,,,,,,,,,,,
79483,1620401387347,,,,,,,,-0.14,0.32,-0.07,13,-2,2,0.35,,80,5514,19,22,73,0.832,34.8,536,4.71,10.9,24.8,1,37.0,3.71,8.2,0,0,0,1,0,354,-1246,3327,333,,,,,,,,,,,,,,,,
79503,1620401387367,,,,,,,,-0.12,0.36,-0.23,14,2,3,0.38,,80,5495,20,22,75,0.835,35.6,535,4.76,11.0,24.8,1,37.4,3.85,8.2,0,0,0,1,0,352,4104,-122,335,,,,,,,,,,,,,,,,
79523,1620401387387,,,,,,,,-0.09,0.35,-0.29,15,-2,1,0.36,,80,5480,21,22,77,0.84,35.0,533,4.78,11.0,24.8,1,37.9,3.94,8.2,0,0,0,1,0,353,-30454,-122,335,,,,,,,,,,,,,,,,
79543,1620401387407,0,3,27,34,35,31,24,-0.15,0.37,-0.1,15,-1,1,0.4,0,80,5539,22,22,80,0.848,35.4,525,4.72,10.9,30.2,1,38.6,4.07,10.0,0,0,0,1,0,352,3302,-31222,332,45.846066,5.179079,35.94,220.8,8,2,1.6,0,0.0,-1,0.0,,0.0,0,0.46,1.3257
79563,1620401387427,,,,,,,,-0.13,0.42,-0.26,16,3,3,0.44,,80,5590,23,22,81,0.857,35.3,531,4.75,11.0,30.2,1,38.8,4.14,10.0,0,0,0,1,0,355,-6644,-14714,337,,,,,,,,,,,,,,,,
79583,1620401387447,,,,,,,,-0.05,0.36,-0.4,16,0,2,0.36,,80,5553,24,22,83,0.866,35.1,535,4.84,11.1,30.2,1,39.4,4.19,10.0,0,0,0,1,0,355,28553,-1246,337,,,,,,,,,,,,,,,,
79603,1620401387467,,,,,,,,-0.05,0.35,-0.2,17,-2,0,0.35,,80,5539,25,22,85,0.875,34.9,535,4.77,11.0,30.2,1,39.9,4.25,10.0,0,0,0,1,0,357,2811,-30438,336,,,,,,,,,,,,,,,,
79623,1620401387487,,,,,,,,-0.07,0.4,-0.35,17,0,2,0.4,,80,5542,25,22,86,0.888,35.5,529,4.77,11.0,30.2,1,40.1,4.29,10.0,0,0,0,1,0,357,2060,6870,340,,,,,,,,,,,,,,,,
79643,1620401387507,1,1,29,37,34,31,23,-0.01,0.43,-0.49,18,-0,2,0.43,0,80,5488,25,22,87,0.907,35.6,533,4.83,11.1,32.1,1,40.5,4.27,10.9,0,0,0,1,0,360,4104,-10554,343,45.846073,5.179077,35.35,220.7,8,2,1.6,0,0.0,-1,0.0,0.0,0.0,0,0.46,1.3274
79663,1620401387527,,,,,,,,-0.04,0.44,-0.28,18,-2,1,0.44,,80,5537,26,22,87,0.926,35.5,530,4.75,10.9,32.1,1,40.4,4.32,10.9,0,0,0,1,0,358,2060,-14714,338,,,,,,,,,,,,,,,,
79683,1620401387547,,,,,,,,-0.09,0.5,-0.3,18,2,2,0.5,,80,5513,27,22,88,0.943,35.4,524,4.75,10.9,32.1,1,40.7,4.32,10.9,0,0,0,1,0,357,-29302,-14714,339,,,,,,,,,,,,,,,,
79703,1620401387567,,,,,,,,-0.03,0.47,-0.45,19,2,3,0.47,,80,5530,28,22,89,0.963,35.9,529,4.83,11.1,32.1,1,40.9,4.35,10.9,0,0,0,1,0,357,-29978,-10554,338,,,,,,,,,,,,,,,,
79723,1620401387587,,,,,,,,-0.02,0.43,-0.24,19,-2,1,0.43,,80,5539,29,22,89,0.987,36.0,535,4.82,11.0,32.1,1,40.9,4.39,10.9,0,0,0,1,0,359,-29978,-10554,338,,,,,,,,,,,,,,,,
79743,1620401387607,1,0,29,35,34,31,22,-0.05,0.47,-0.1,20,1,1,0.47,0,80,5504,29,23,90,1.011,35.7,534,4.75,10.9,33.0,1,41.3,4.35,11.2,0,0,0,1,0,359,-29978,-14714,341,45.846085,5.179074,35.74,220.7,8,2,1.6,0,0.0,-1,0.0,,0.0,0,0.46,1.3291
79763,1620401387627,,,,,,,,-0.01,0.48,-0.26,20,3,2,0.48,,80,5568,29,23,90,1.035,35.3,530,4.74,11.0,33.0,1,41.1,4.44,11.2,0,0,0,1,0,359,-6644,6668,338,,,,,,,,,,,,,,,,
79783,1620401387647,,,,,,,,0.03,0.44,-0.21,20,-1,1,0.44,,80,5587,29,23,90,1.065,35.7,532,4.82,11.0,33.0,1,41.0,4.46,11.2,0,0,0,1,0,358,-6640,-14714,342,,,,,,,,,,,,,,,,
79803,1620401387667,,,,,,,,-0.04,0.45,-0.02,21,-3,0,0.45,,80,5565,29,23,91,1.103,35.9,536,4.73,10.9,33.0,1,41.1,4.49,11.2,0,0,0,1,0,359,-29302,-14714,340,,,,,,,,,,,,,,,,
79823,1620401387687,,,,,,,,-0.05,0.5,-0.19,21,2,2,0.51,,80,5607,29,23,91,1.139,35.7,532,4.72,10.9,33.0,1,41.0,4.56,11.2,0,0,0,1,0,358,-6640,6870,343,,,,,,,,,,,,,,,,
79843,1620401387707,-1,2,30,36,34,31,20,0.01,0.43,-0.34,21,3,3,0.43,0,80,5620,29,23,91,1.175,36.0,530,4.83,11.1,33.4,1,40.9,4.57,11.5,0,0,0,1,0,358,-14707,-10554,341,45.846092,5.17907,35.91,220.7,8,2,1.6,0,0.0,-1,0.0,0.0,0.0,0,0.46,1.3307
79863,1620401387727,,,,,,,,0.04,0.41,-0.14,21,-1,1,0.41,,80,5623,29,23,91,1.214,35.8,538,4.76,11.0,33.4,1,40.9,4.57,11.5,0,0,0,1,0,359,-29978,-30438,339,,,,,,,,,,,,,,,,
79883,1620401387747,,,,,,,,0.0,0.46,0.04,21,-0,0,0.46,,80,5630,29,23,91,1.249,35.7,538,4.72,10.9,33.4,1,40.9,4.58,11.5,0,0,0,1,0,358,-6640,-30438,339,,,,,,,,,,,,,,,,
79903,1620401387767,,,,,,,,0.01,0.45,-0.13,20,2,1,0.46,,80,5570,29,23,91,1.283,35.6,529,4.73,10.9,33.4,1,41.1,4.5,11.5,0,0,0,1,0,358,4104,8841,344,,,,,,,,,,,,,,,,
79923,1620401387787,,,,,,,,0.06,0.37,-0.29,20,-0,1,0.37,,80,5570,29,23,91,1.318,35.9,533,4.81,11.1,33.4,1,41.1,4.5,11.5,0,0,0,1,0,359,-29302,-30438,346,,,,,,,,,,,,,,,,
79943,1620401387807,-0,2,29,36,33,31,14,-0.03,0.35,-0.1,20,-1,-0,0.36,0,80,5535,29,23,91,1.353,36.0,541,4.75,10.9,33.9,1,41.2,4.45,11.7,0,0,0,1,0,356,-14707,-1246,344,45.8461,5.179067,36.02,220.7,8,2,1.6,0,0.0,-1,0.0,,0.0,0,0.46,1.3324
79963,1620401387827,,,,,,,,-0.09,0.41,-0.14,20,2,0,0.41,,80,5524,29,23,91,1.382,36.1,534,4.72,10.9,33.9,1,41.2,4.45,11.7,0,0,0,1,0,358,-6458,-1246,345,,,,,,,,,,,,,,,,
79983,1620401387847,,,,,,,,-0.01,0.37,-0.3,19,2,1,0.37,,80,5555,29,23,91,1.411,35.8,533,4.83,11.0,33.9,1,41.1,4.48,11.7,0,0,0,1,0,356,-29978,-1246,348,,,,,,,,,,,,,,,,
80003,1620401387867,,,,,,,,0.03,0.29,-0.1,19,-2,-1,0.29,,80,5617,29,23,91,1.44,35.6,538,4.83,11.0,33.9,1,40.9,4.56,11.7,0,0,0,1,0,357,4104,8841,347,,,,,,,,,,,,,,,,
80023,1620401387887,,,,,,,,-0.0,0.3,0.07,18,-4,-2,0.3,,80,5725,29,23,91,1.468,35.5,551,4.77,11.0,33.9,1,40.6,4.71,11.7,0,0,0,1,0,355,2060,-30454,344,,,,,,,,,,,,,,,,
80043,1620401387909,1,1,30,36,32,33,6,-0.05,0.32,0.23,17,-3,-2,0.33,0,80,5748,29,23,91,1.48,35.7,558,4.73,10.9,37.5,1,40.5,4.74,12.9,0,0,0,1,0,356,-6640,3302,346,45.846108,5.179063,36.12,220.6,8,2,1.6,0,0.0,-1,0.0,0.0,0.0,0,0.47,1.334
80063,1620401387929,,,,,,,,-0.04,0.29,0.05,16,1,-1,0.3,,80,5861,29,23,91,1.486,35.3,556,4.73,10.9,37.5,1,40.2,4.9,12.9,0,0,0,1,0,359,-6644,-29978,350,,,,,,,,,,,,,,,,
80083,1620401387949,,,,,,,,0.01,0.24,-0.12,15,6,1,0.25,,80,5905,29,23,91,1.492,35.7,558,4.73,10.9,37.5,1,40.1,4.96,12.9,0,0,0,1,0,360,-6640,-14707,355,,,,,,,,,,,,,,,,
80103,1620401387969,,,,,,,,0.08,0.16,-0.28,14,8,3,0.18,,80,5905,28,23,90,1.497,35.9,560,4.77,11.0,37.5,1,40.0,4.9,12.9,0,0,0,1,0,362,2060,230,357,,,,,,,,,,,,,,,,
80123,1620401387989,,,,,,,,0.16,0.04,-0.42,13,8,3,0.16,,80,5971,27,23,90,1.498,36.2,561,4.79,11.0,37.5,1,39.8,4.99,12.9,0,0,0,1,0,367,-6405,0,362,,,,,,,,,,,,,,,,
80143,1620401387999,-1,2,35,36,29,32,-4,0.25,-0.07,-0.55,11,10,4,0.26,0,80,5977,25,23,88,1.498,36.5,563,4.79,11.0,37.7,1,39.4,4.84,13.6,0,0,0,1,0,371,-29302,1,365,45.846119,5.179059,36.33,220.6,8,2,1.6,0,0.0,-1,0.0,,0.0,0,0.47,1.3357
80163,1620401388019,,,,,,,,0.36,-0.19,-0.67,9,16,7,0.41,,80,6003,23,23,87,1.498,37.0,561,4.81,11.0,37.7,1,39.1,4.8,13.6,0,0,0,1,0,374,3082,2278,370,,,,,,,,,,,,,,,,
80183,1620401388039,,,,,,,,0.42,-0.31,-0.79,7,18,6,0.52,,80,6036,22,23,85,1.498,36.8,566,4.72,10.9,37.7,1,38.9,4.64,13.6,0,0,0,1,0,379,0,-992,368,,,,,,,,,,,,,,,,
80203,1620401388059,,,,,,,,0.53,-0.41,-0.89,6,20,8,0.67,,80,6075,21,23,84,1.485,37.3,571,4.73,10.9,37.7,1,39.0,4.55,13.6,0,0,0,1,0,383,-6405,-19019,376,,,,,,,,,,,,,,,,
80223,1620401388079,,,,,,,,0.57,-0.44,-0.98,4,24,9,0.72,,80,6139,21,23,82,1.467,37.9,571,4.77,11.0,37.7,1,39.1,4.4,13.6,0,0,0,1,0,383,-1268,-31744,379,,,,,,,,,,,,,,,,
80243,1620401388109,0,3,40,37,27,32,-14,0.62,-0.45,-1.06,3,31,13,0.77,0,80,6214,21,23,81,1.449,38.5,581,4.71,10.9,32.5,1,39.3,4.33,12.5,0,0,0,1,0,386,1,1,385,45.84613,5.179054,37.37,220.6,8,2,1.6,0,0.0,-1,0.0,0.0,0.0,0,0.47,1.3374
80263,1620401388129,,,,,,,,0.53,-0.38,-1.14,1,31,12,0.65,,80,6256,21,23,80,1.431,39.0,582,4.68,11.0,32.5,1,39.3,4.27,12.5,0,0,0,1,0,396,3,-32702,390,,,,,,,,,,,,,,,,
80283,1620401388149,,,,,,,,0.45,-0.34,-0.88,-0,23,9,0.56,,80,6277,21,23,79,1.397,39.0,586,4.81,11.0,32.5,1,39.3,4.23,12.5,0,0,0,1,0,396,2278,11545,390,,,,,,,,,,,,,,,,
80303,1620401388169,,,,,,,,0.45,-0.37,-0.64,-2,15,6,0.58,,80,6291,21,23,79,1.357,39.8,588,4.83,11.0,32.5,1,39.4,4.22,12.5,0,0,0,1,0,397,-19126,-8151,398,,,,,,,,,,,,,,,,
80323,1620401388189,,,,,,,,0.48,-0.46,-0.69,-3,11,4,0.67,,80,6323,22,23,79,1.316,40.0,590,4.83,11.0,32.5,1,39.6,4.21,12.5,0,0,0,1,0,396,-19019,1504,394,,,,,,,,,,,,,,,,
80343,1620401388209,-1,2,40,37,27,32,-16,0.55,-0.48,-0.8,-4,19,7,0.73,0,80,6377,22,23,79,1.275,39.7,597,4.64,10.9,30.9,1,39.9,4.19,12.3,0,0,0,1,0,405,-6475,-26615,397,45.846138,5.179049,38.87,220.6,8,2,1.6,0,0.0,-1,0.0,,0.0,0,0.47,1.3391
80363,1620401388229,,,,,,,,0.52,-0.43,-0.9,-5,19,5,0.68,,80,6452,22,23,79,1.225,40.5,602,4.74,10.9,30.9,1,40.4,4.16,12.3,0,0,0,1,0,420,-3866,-4059,405,,,,,,,,,,,,,,,,
80383,1620401388249,,,,,,,,0.44,-0.47,-0.66,-6,7,3,0.64,,80,6569,22,23,79,1.169,40.7,607,4.79,11.0,30.9,1,41.2,4.11,12.3,0,0,0,1,0,410,505,-9166,407,,,,,,,,,,,,,,,,
80403,1620401388269,,,,,,,,0.51,-0.45,-0.77,-7,10,4,0.68,,80,6701,22,23,79,1.112,41.0,618,4.74,10.9,30.9,1,42.1,4.06,12.3,0,0,0,1,0,412,-6524,18584,410,,,,,,,,,,,,,,,,
80423,1620401388289,,,,,,,,0.44,-0.42,-0.54,-8,3,1,0.6,,80,6744,22,23,79,1.055,41.2,624,4.79,11.0,30.9,1,42.4,4.05,12.3,0,0,0,1,0,408,11545,-3414,417,,,,,,,,,,,,,,,,
80443,1620401388308,-1,2,41,37,26,32,-18,0.52,-0.46,-0.66,-10,7,1,0.7,0,80,6739,22,23,79,1.002,41.6,627,4.68,11.0,30.7,1,42.3,4.05,12.6,0,0,0,1,0,428,6384,-3414,416,45.846149,5.179045,40.64,220.6,8,2,1.6,0,0.0,-1,0.0,0.0,0.0,0,0.47,1.3407
80463,1620401388328,,,,,,,,0.48,-0.41,-0.44,-11,6,-0,0.63,,80,6739,22,23,80,0.965,41.6,627,4.77,11.0,30.7,1,42.6,4.05,12.6,0,0,0,1,0,437,6512,-4082,416,,,,,,,,,,,,,,,,
80483,1620401388348,,,,,,,,0.5,-0.43,-0.57,-12,8,-0,0.66,,80,6768,22,23,80,0.926,42.4,626,4.75,10.9,30.7,1,42.9,4.06,12.6,0,0,0,1,0,432,10541,1779,424,,,,,,,,,,,,,,,,
80503,1620401388368,,,,,,,,0.41,-0.47,-0.36,-13,2,-1,0.62,,80,6776,21,23,79,0.888,42.5,620,4.82,11.0,30.7,1,42.6,4.04,12.6,0,0,0,1,0,428,10541,-3314,427,,,,,,,,,,,,,,,,
80523,1620401388388,,,,,,,,0.43,-0.49,-0.49,-15,5,1,0.66,,80,6828,21,23,79,0.855,42.9,631,4.75,11.0,30.7,1,42.9,4.01,12.6,0,0,0,1,0,433,10392,-7939,429,,,,,,,,,,,,,,,,
80543,1620401388408,-0,2,41,36,27,32,-19,0.45,-0.48,-0.28,-16,5,-1,0.66,0,80,6880,20,23,79,0.842,43.3,631,4.8,10.9,29.6,1,43.3,3.99,12.7,0,0,0,1,0,431,2524,-768,436,45.846157,5.179041,41.95,220.7,8,2,1.6,0,0.0,-1,0.0,,0.0,0,0.47,1.3424
80563,1620401388428,,,,,,,,0.42,-0.44,-0.43,-17,6,1,0.61,,80,6949,20,23,78,0.828,42.8,631,4.8,11.0,29.6,1,43.4,3.95,12.7,0,0,0,1,0,430,-9166,19477,428,,,,,,,,,,,,,,,,
80583,1620401388448,,,,,,,,0.38,-0.48,-0.22,-18,1,0,0.61,,80,6991,19,23,77,0.814,43.5,630,4.73,10.9,29.6,1,43.3,3.93,12.7,0,0,0,1,0,459,-9166,-28332,435,,,,,,,,,,,,,,,,
80603,1620401388468,,,,,,,,0.38,-0.5,-0.11,-18,5,0,0.63,,80,7033,18,23,76,0.803,44.0,632,4.81,10.9,29.6,1,43.0,3.92,12.7,0,0,0,1,0,424,18584,23400,440,,,,,,,,,,,,,,,,
80623,1620401388488,,,,,,,,0.38,-0.47,-0.26,-19,4,0,0.6,,80,7059,16,23,75,0.811,43.9,636,4.73,11.0,29.6,1,42.6,3.87,12.7,0,0,0,1,0,433,7154,2131,439,,,,,,,,,,,,,,,,
80643,1620401388508,-0,3,41,35,26,33,-22,0.38,-0.49,-0.08,-20,5,-0,0.62,0,80,7019,14,23,73,0.819,43.9,638,4.71,10.9,28.0,1,42.2,3.76,12.4,0,0,0,1,0,454,-26615,10305,445,45.846168,5.179038,43.6,220.6,8,2,1.6,0,0.0,-1,0.0,0.0,0.0,0,0.47,1.344
80663,1620401388528,,,,,,,,0.33,-0.56,0.1,-21,1,-1,0.65,,80,7054,13,23,71,0.828,44.7,642,4.83,11.0,28.0,1,41.4,3.67,12.4,0,0,0,1,0,470,-3414,8488,447,,,,,,,,,,,,,,,,
80683,1620401388548,,,,,,,,0.38,-0.53,-0.08,-22,4,-1,0.65,,80,7151,13,23,69,0.836,45.1,646,4.82,11.0,28.0,1,40.6,3.58,12.4,0,0,0,1,0,444,3826,-8985,451,,,,,,,,,,,,,,,,
80703,1620401388568,,,,,,,,0.36,-0.54,-0.24,-23,4,-0,0.65,,80,7186,12,23,66,0.844,45.1,642,4.8,11.0,28.0,1,39.7,3.4,12.4,0,0,0,1,0,451,-3414,-8985,449,,,,,,,,,,,,,,,,
80723,1620401388588,,,,,,,,0.33,-0.62,-0.06,-24,5,-1,0.7,,80,7175,12,23,65,0.851,44.7,647,4.75,10.9,28.0,1,39.4,3.1,12.4,0,0,0,1,0,450,3826,-26615,447,,,,,,,,,,,,,,,,
80743,1620401388608,0,1,41,34,27,36,-22,0.29,-0.65,0.11,-25,2,-1,0.71,0,80,7153,12,23,63,0.859,45.3,644,4.77,10.9,21.0,1,38.9,2.83,9.4,0,0,0,1,0,462,13552,14488,453,45.84618,5.179035,44.44,220.6,8,2,1.6,0,0.0,-1,0.0,,0.0,0,0.47,1.3457
80763,1620401388628,,,,,,,,0.3,-0.63,-0.07,-26,4,-1,0.7,,80,7156,12,23,61,0.866,45.7,645,4.85,11.0,21.0,1,38.3,2.56,9.4,0,0,0,1,0,442,-4082,17628,449,,,,,,,,,,,,,,,,
80783,1620401388648,,,,,,,,0.28,-0.6,-0.23,-26,3,-1,0.67,,80,7183,11,23,60,0.866,45.6,651,4.71,11.0,21.0,1,37.9,2.52,9.4,0,0,0,1,0,453,-3314,14488,458,,,,,,,,,,,,,,,,
80803,1620401388668,,,,,,,,0.32,-0.54,-0.37,-27,5,-1,0.63,,80,7203,11,23,58,0.865,45.4,647,4.71,11.0,21.0,1,37.3,2.45,9.4,0,0,0,1,0,454,1779,17628,454,,,,,,,,,,,,,,,,
80823,1620401388688,,,,,,,,0.26,-0.6,-0.18,-28,3,-2,0.66,,80,7239,11,23,57,0.864,45.7,642,4.76,10.9,21.0,1,37.0,2.42,9.4,0,0,0,1,0,451,5600,-26615,457,,,,,,,,,,,,,,,,
80843,1620401388708,0,0,40,33,27,36,-22,0.22,-0.61,0.01,-28,2,-2,0.65,0,80,7231,11,23,56,0.863,45.3,643,4.76,10.9,17.5,1,36.7,2.39,8.0,0,0,0,1,0,462,3635,-18108,453,45.846188,5.179033,45.18,220.6,8,2,1.6,0,0.0,-1,0.0,0.0,0.0,0,0.47,1.3474
80863,1620401388728,,,,,,,,0.18,-0.64,0.17,-29,2,-2,0.66,,80,7256,11,23,55,0.853,45.7,646,4.8,10.9,17.5,1,36.4,2.36,8.0,0,0,0,1,0,476,13180,-18108,458,,,,,,,,,,,,,,,,
80883,1620401388748,,,,,,,,0.2,-0.69,0.28,-29,2,-2,0.72,,80,7275,11,23,53,0.841,46.2,646,4.73,11.0,17.5,1,35.9,2.33,8.0,0,0,0,1,0,444,1779,2211,462,,,,,,,,,,,,,,,,
80903,1620401388768,,,,,,,,0.2,-0.64,0.09,-30,4,-2,0.68,,80,7256,11,23,53,0.83,46.2,642,4.76,10.9,17.5,1,35.9,2.32,8.0,0,0,0,1,0,457,31796,2211,462,,,,,,,,,,,,,,,,
80923,1620401388788,,,,,,,,0.18,-0.65,-0.08,-31,4,-2,0.67,,80,7244,11,23,52,0.818,45.8,643,4.73,11.0,17.5,1,35.5,2.31,8.0,0,0,0,1,0,462,-3314,-23623,458,,,,,,,,,,,,,,,,
80943,1620401388808,-1,2,40,32,28,37,-25,0.15,-0.66,-0.17,-31,3,-3,0.68,0,80,7270,12,23,51,0.807,46.5,647,4.75,10.9,16.7,1,35.3,2.31,7.7,0,0,0,1,0,460,-3322,2211,465,45.846203,5.179032,45.72,220.6,8,2,1.6,0,0.0,-1,0.0,,0.0,0,0.48,1.3491
80963,1620401388828,,,,,,,,0.11,-0.72,-0.06,-32,1,-4,0.73,,80,7298,13,23,52,0.797,45.8,650,4.86,10.9,16.7,1,35.6,2.32,7.7,0,0,0,1,0,450,243,-23623,457,,,,,,,,,,,,,,,,
80983,1620401388848,,,,,,,,0.07,-0.76,0.11,-33,2,-3,0.76,,80,7301,15,23,52,0.786,46.2,648,4.8,10.9,16.7,1,35.6,2.32,7.7,0,0,0,1,0,481,-3314,2211,462,,,,,,,,,,,,,,,,
81003,1620401388868,,,,,,,,0.06,-0.82,0.27,-33,0,-3,0.82,,80,7402,17,23,54,0.775,46.5,651,4.78,10.9,16.7,1,36.3,2.36,7.7,0,0,0,1,0,473,1779,6193,465,,,,,,,,,,,,,,,,
81023,1620401388888,,,,,,,,0.03,-0.81,0.38,-34,0,-3,0.81,,80,7518,17,23,55,0.768,46.2,646,4.8,10.9,16.7,1,36.7,2.41,7.7,0,0,0,1,0,443,1779,6193,462,,,,,,,,,,,,,,,,
81043,1620401388908,-1,2,39,31,28,39,-25,0.05,-0.84,0.39,-34,-1,-3,0.84,0,80,7530,17,22,57,0.763,46.1,654,4.8,10.9,18.3,1,37.1,2.45,8.5,0,0,0,1,0,459,1779,16408,461,45.84621,5.179031,45.19,220.6,8,2,1.6,0,0.0,-1,0.0,0.0,0.0,0,0.48,1.3507
81063,1620401388928,,,,,,,,0.05,-0.9,0.52,-35,-2,-3,0.9,,80,7416,17,22,58,0.759,46.7,645,4.81,10.9,18.3,1,37.3,2.46,8.5,0,0,0,1,0,498,13180,-3210,467,,,,,,,,,,,,,,,,
81083,1620401388948,,,,,,,,0.05,-0.87,0.56,-35,-2,-3,0.88,,80,7408,17,22,58,0.755,46.3,647,4.79,11.0,18.3,1,37.3,2.48,8.5,0,0,0,1,0,476,19477,-16384,461,,,,,,,,,,,,,,,,
81103,1620401388968,,,,,,,,0.05,-0.89,0.53,-36,-2,-2,0.89,,80,7428,16,22,59,0.756,46.7,644,4.83,11.0,18.3,1,37.6,2.51,8.5,0,0,0,1,0,466,-768,10432,467,,,,,,,,,,,,,,,,
81123,1620401388988,,,,,,,,0.05,-0.89,0.32,-37,-1,-2,0.9,,80,7408,16,22,59,0.76,46.9,650,4.77,11.0,18.3,1,37.5,2.51,8.5,0,0,0,1,0,454,1779,8488,469,,,,,,,,,,,,,,,,
81143,1620401388998,-1,2,40,30,28,39,-28,0.07,-0.84,0.13,-37,-1,-2,0.84,0,80,7396,15,22,59,0.764,46.7,647,4.81,11.0,18.2,1,37.5,2.51,8.6,0,0,0,1,0,466,-768,8488,467,45.846226,5.179032,44.87,220.6,8,2,1.6,0,0.0,-1,0.0,,0.0,0,0.48,1.3524
81163,1620401389018,,,,,,,,0.08,-0.8,-0.05,-38,1,-1,0.8,,80,7304,14,22,58,0.768,46.7,645,4.73,10.9,18.2,1,37.3,2.47,8.6,0,0,0,1,0,469,13180,10432,467,,,,,,,,,,,,,,,,
81183,1620401389038,,,,,,,,0.09,-0.82,-0.21,-38,1,-2,0.83,,80,7309,12,22,58,0.777,46.9,652,4.74,10.9,18.2,1,37.3,2.48,8.6,0,0,0,1,0,460,-768,-16384,469,,,,,,,,,,,,,,,,
81203,1620401389058,,,,,,,,0.07,-0.82,-0.31,-39,0,-2,0.82,,80,7295,12,22,56,0.789,46.3,650,4.73,10.9,18.2,1,36.7,2.44,8.6,0,0,0,1,0,445,19477,10432,465,,,,,,,,,,,,,,,,
81223,1620401389078,,,,,,,,0.02,-0.82,-0.21,-39,1,-2,0.82,,80,7290,12,22,55,0.801,46.7,654,4.74,10.9,18.2,1,36.4,2.39,8.6,0,0,0,1,0,460,-768,243,466,,,,,,,,,,,,,,,,
81243,1620401389110,0,3,40,30,29,39,-28,-0.02,-0.89,-0.03,-40,1,-3,0.9,0,80,7290,11,22,54,0.812,46.9,645,4.84,10.9,17.0,1,36.2,2.35,8.0,0,0,0,1,0,472,-768,-3210,462,45.846233,5.179034,46.4,220.6,8,2,1.6,0,0.0,-1,0.0,0.0,0.0,0,0.48,1.3541
81263,1620401389130,,,,,,,,-0.03,-0.88,0.0,-40,-1,-2,0.88,,80,7338,11,22,53,0.828,46.7,647,4.8,11.0,17.0,1,36.0,2.35,8.0,0,0,0,1,0,470,-768,-16384,467,,,,,,,,,,,,,,,,
81283,1620401389150,,,,,,,,0.0,-0.9,-0.13,-41,-0,-2,0.9,,80,7422,11,22,52,0.85,46.7,651,4.82,11.0,17.0,1,35.9,2.36,8.0,0,0,0,1,0,453,1779,10432,467,,,,,,,,,,,,,,,,
81303,1620401389170,,,,,,,,0.02,-0.89,-0.22,-41,1,-2,0.89,,80,7464,11,22,51,0.871,46.9,656,4.76,11.0,17.0,1,35.7,2.36,8.0,0,0,0,1,0,445,1779,-16384,469,,,,,,,,,,,,,,,,
81323,1620401389190,,,,,,,,0.02,-0.93,-0.25,-41,0,-1,0.93,,80,7419,11,22,50,0.893,46.4,652,4.82,11.0,17.0,1,35.4,2.34,8.0,0,0,0,1,0,465,13180,10432,464,,,,,,,,,,,,,,,,
81343,1620401389208,1,2,40,29,29,40,-27,0.01,-0.88,-0.39,-42,2,-0,0.88,0,80,7393,11,22,50,0.915,46.8,648,4.78,11.0,17.2,1,35.3,2.33,8.0,0,0,0,1,0,496,1779,-16384,468,45.846249,5.179039,47.23,220.5,8,2,1.6,0,0.0,-1,0.0,,0.0,0,0.48,1.3557
81363,1620401389228,,,,,,,,0.06,-0.91,-0.53,-42,2,0,0.91,,80,7440,11,22,49,0.935,46.9,653,4.75,11.0,17.2,1,35.2,2.34,8.0,0,0,0,1,0,476,243,-3210,462,,,,,,,,,,,,,,,,
81383,1620401389248,,,,,,,,0.08,-0.92,-0.65,-42,3,0,0.92,,80,7506,11,22,48,0.955,46.5,656,4.78,11.0,17.2,1,35.2,2.34,8.0,0,0,0,1,0,447,3635,243,468,,,,,,,,,,,,,,,,
81403,1620401389268,,,,,,,,0.11,-0.88,-0.76,-42,3,-0,0.89,,80,7437,10,22,47,0.975,46.3,650,4.76,11.0,17.2,1,34.7,2.33,8.0,0,0,0,1,0,447,-3322,8488,463,,,,,,,,,,,,,,,,
81423,1620401389288,,,,,,,,0.13,-0.84,-0.87,-42,4,-0,0.85,,80,7290,10,22,46,0.992,46.9,646,4.72,11.0,17.2,1,33.8,2.31,8.0,0,0,0,1,0,471,3826,10432,469,,,,,,,,,,,,,,,,
81443,1620401389309,-1,2,40,29,28,40,-28,0.08,-0.88,-0.96,-42,2,-1,0.88,0,80,7228,10,22,47,0.997,46.3,646,4.76,10.9,16.4,1,34.1,2.31,7.7,0,0,0,1,0,482,1779,-16384,463,45.846256,5.179042,47.79,220.5,8,2,1.6,0,0.0,-1,0.0,0.0,0.0,0,0.48,1.3574
81463,1620401389329,,,,,,,,0.03,-0.88,-0.71,-42,2,-2,0.88,,80,7253,10,22,46,1.003,46.5,637,4.86,10.9,16.4,1,33.8,2.31,7.7,0,0,0,1,0,472,243,-3210,468,,,,,,,,,,,,,,,,
81483,1620401389349,,,,,,,,0.04,-0.97,-0.53,-43,0,-3,0.97,,80,7307,10,22,46,1.008,46.6,567,4.78,10.9,16.4,1,33.8,2.32,7.7,0,0,0,1,0,453,-768,16408,462,,,,,,,,,,,,,,,,
81503,1620401389369,,,,,,,,0.03,-0.95,-0.32,-43,-1,-3,0.95,,80,7332,10,22,45,1.012,46.6,619,4.78,11.0,16.4,1,33.5,2.32,7.7,0,0,0,1,0,439,-3322,-3210,468,,,,,,,,,,,,,,,,
81523,1620401389389,,,,,,,,0.05,-0.95,-0.34,-43,-0,-3,0.95,,80,7350,10,22,45,0.999,46.7,606,4.73,11.0,16.4,1,33.6,2.32,7.7,0,0,0,1,0,442,13180,10432,467,,,,,,,,,,,,,,,,
81543,1620401389409,0,3,39,29,30,40,-30,0.05,-0.96,-0.48,-44,0,-3,0.96,0,80,7298,10,22,45,0.987,46.9,621,4.81,11.0,16.7,1,33.4,2.32,7.8,0,0,0,1,0,440,13180,243,469,45.846268,5.179048,47.52,220.5,8,2,1.6,0,0.0,-1,0.0,,0.0,0,0.48,1.3591
81563,1620401389429,,,,,,,,0.07,-0.9,-0.61,-44,2,-2,0.9,,80,7236,10,22,44,0.974,46.3,643,4.71,10.9,16.7,1,32.9,2.32,7.8,0,0,0,1,0,445,-3314,-3210,463,,,,,,,,,,,,,,,,
81583,1620401389449,,,,,,,,0.04,-0.88,-0.6,-44,1,-2,0.88,,80,7164,10,22,44,0.962,46.7,650,4.73,10.9,16.7,1,32.8,2.31,7.8,0,0,0,1,0,465,-3414,30272,467,,,,,,,,,,,,,,,,
81603,1620401389469,,,,,,,,0.05,-0.97,-0.38,-45,-2,-4,0.97,,80,7140,10,22,44,0.946,46.2,638,4.84,10.9,16.7,1,32.7,2.31,7.8,0,0,0,1,0,467,31796,243,462,,,,,,,,,,,,,,,,
81623,1620401389489,,,,,,,,0.06,-0.99,-0.43,-45,1,-3,0.99,,80,7148,10,22,43,0.931,46.6,642,4.8,11.0,16.7,1,32.4,2.31,7.8,0,0,0,1,0,438,13180,-16384,467,,,,,,,,,,,,,,,,
81643,1620401389507,-1,2,40,28,29,41,-32,0.04,-0.98,-0.56,-46,1,-2,0.98,0,80,7094,10,22,43,0.915,46.5,643,4.76,11.0,16.2,1,32.3,2.31,7.6,0,0,0,1,0,442,13552,30272,469,45.846279,5.179054,48.09,220.4,8,2,1.6,0,0.0,-1,0.0,0.0,0.0,0,0.48,1.3607
81663,1620401389527,,,,,,,,0.04,-1.05,-0.36,-46,-0,-2,1.05,,80,7083,10,22,43,0.9,46.6,647,4.75,10.9,16.2,1,32.3,2.31,7.6,0,0,0,1,0,436,13180,16408,466,,,,,,,,,,,,,,,,
81683,1620401389547,,,,,,,,0.0,-1.1,-0.16,-46,1,-3,1.1,,80,7075,10,22,44,0.891,46.3,646,4.78,10.9,16.2,1,32.6,2.31,7.6,0,0,0,1,0,433,-3414,12552,463,,,,,,,,,,,,,,,,
81703,1620401389567,,,,,,,,-0.03,-1.08,-0.32,-47,-0,-1,1.08,,80,7078,10,22,43,0.885,46.5,647,4.74,11.0,16.2,1,32.3,2.31,7.6,0,0,0,1,0,432,-4082,12552,465,,,,,,,,,,,,,,,,
81723,1620401389587,,,,,,,,0.0,-1.07,-0.46,-47,2,-0,1.07,,80,7054,10,22,43,0.878,46.1,642,4.75,10.9,16.2,1,32.2,2.31,7.6,0,0,0,1,0,429,31796,12552,461,,,,,,,,,,,,,,,,
81743,1620401389609,1,2,40,27,29,41,-34,-0.05,-1.09,-0.25,-48,0,-3,1.09,0,80,7064,10,22,43,0.872,46.3,644,4.8,10.9,16.2,1,32.3,2.31,7.5,0,0,0,1,0,423,13552,2211,463,45.846291,5.179062,47.54,220.4,8,2,1.6,0,0.0,-1,0.0,,0.0,0,0.49,1.3624
81763,1620401389629,,,,,,,,-0.08,-1.11,-0.32,-48,-1,-2,1.11,,80,7043,10,22,43,0.872,46.1,640,4.82,10.9,16.2,1,32.2,2.31,7.5,0,0,0,1,0,424,-8165,6193,467,,,,,,,,,,,,,,,,
81783,1620401389649,,,,,,,,-0.04,-1.03,-0.46,-49,3,-1,1.03,,80,7025,10,22,43,0.874,46.3,643,4.77,11.0,16.2,1,32.2,2.31,7.5,0,0,0,1,0,426,-3414,2211,463,,,,,,,,,,,,,,,,
81803,1620401389669,,,,,,,,-0.1,-1.05,-0.26,-49,0,-2,1.06,,80,7009,10,22,43,0.876,45.7,645,4.78,10.9,16.2,1,32.2,2.31,7.5,0,0,0,1,0,427,18584,12552,457,,,,,,,,,,,,,,,,
81823,1620401389689,,,,,,,,-0.12,-1.06,-0.07,-50,1,-2,1.07,,80,6967,10,22,43,0.878,46.2,641,4.81,11.0,16.2,1,32.1,2.31,7.5,0,0,0,1,0,426,-8165,-23623,462,,,,,,,,,,,,,,,,
81843,1620401389707,0,3,40,28,29,42,-39,-0.12,-1.07,-0.23,-50,3,-1,1.08,0,80,6965,10,22,43,0.882,46.0,638,4.72,11.0,16.0,1,32.1,2.31,7.4,0,0,0,1,0,422,13040,-18108,454,45.846302,5.179072,47.22,220.2,8,2,1.6,0,0.0,-1,0.0,0.0,0.0,0,0.49,1.3641
81863,1620401389727,,,,,,,,-0.18,-1.03,-0.04,-50,-0,-3,1.05,,80,6957,10,22,43,0.887,46.1,637,4.78,10.9,16.0,1,32.0,2.31,7.4,0,0,0,1,0,423,-3414,14488,457,,,,,,,,,,,,,,,,
81883,1620401389747,,,,,,,,-0.16,-1.02,-0.21,-51,1,-2,1.03,,80,6959,10,22,43,0.891,45.5,505,4.8,11.0,16.0,1,32.1,2.31,7.4,0,0,0,1,0,423,13040,-9160,455,,,,,,,,,,,,,,,,
81903,1620401389767,,,,,,,,-0.15,-1.02,-0.36,-52,4,-3,1.03,,80,6936,10,22,43,0.896,45.6,441,4.73,10.9,16.0,1,32.0,2.31,7.4,0,0,0,1,0,420,-9166,14488,456,,,,,,,,,,,,,,,,
81923,1620401389787,,,,,,,,-0.2,-1.08,-0.16,-52,0,-3,1.1,,80,6931,10,22,43,0.901,45.4,437,4.76,10.9,16.0,1,32.0,2.31,7.4,0,0,0,1,0,418,9517,14488,454,,,,,,,,,,,,,,,,
81943,1620401389809,-0,1,40,27,30,42,-39,-0.19,-1.05,-0.31,-53,5,-0,1.07,0,80,6911,10,22,43,0.905,45.3,373,4.76,11.0,16.1,1,32.0,2.31,7.4,0,0,0,1,0,420,10392,-8985,456,45.846306,5.179082,46.3,220.2,8,2,1.6,0,0.0,-1,0.0,,0.0,0,0.49,1.3657
81963,1620401389829,,,,,,,,-0.2,-1.09,-0.12,-53,4,-1,1.11,,80,6903,10,22,43,0.909,45.6,382,4.8,10.9,16.1,1,31.9,2.31,7.4,0,0,0,1,0,422,9517,2524,456,,,,,,,,,,,,,,,,
81983,1620401389849,,,,,,,,-0.22,-1.09,0.06,-53,4,-1,1.11,,80,6895,10,22,43,0.913,45.2,350,4.81,11.0,16.1,1,31.9,2.32,7.4,0,0,0,1,0,420,-9211,3571,452,,,,,,,,,,,,,,,,
82003,1620401389869,,,,,,,,-0.19,-1.12,-0.11,-54,4,-1,1.13,,80,6858,10,22,43,0.916,45.9,342,4.73,10.9,16.1,1,31.9,2.32,7.4,0,0,0,1,0,417,11560,3571,449,,,,,,,,,,,,,,,,
82023,1620401389889,,,,,,,,-0.23,-1.17,0.06,-54,-1,-3,1.2,,80,6858,10,22,43,0.917,45.5,340,4.8,11.0,16.1,1,31.9,2.32,7.4,0,0,0,1,0,419,-26615,15649,453,,,,,,,,,,,,,,,,
82043,1620401389909,-0,2,40,27,30,42,-36,-0.22,-1.11,-0.11,-55,5,-0,1.13,0,80,6840,10,22,43,0.919,44.6,397,4.75,11.0,16.1,1,31.9,2.32,7.3,0,0,0,1,0,418,2524,-3267,446,45.846317,5.179094,45.68,220.2,8,2,1.6,0,0.0,-1,0.0,0.0,0.0,0,0.49,1.3674
82063,1620401389929,,,,,,,,-0.23,-1.18,0.07,-55,2,-3,1.2,,80,6835,10,22,43,0.921,45.0,369,4.78,10.9,16.1,1,31.8,2.32,7.3,0,0,0,1,0,412,2524,-3267,450,,,,,,,,,,,,,,,,
82083,1620401389949,,,,,,,,-0.29,-1.17,-0.11,-55,2,-1,1.2,,80,6820,10,22,43,0.923,45.3,366,4.76,11.0,16.1,1,31.8,2.32,7.3,0,0,0,1,0,412,11545,8488,453,,,,,,,,,,,,,,,,
82103,1620401389969,,,,,,,,-0.23,-1.22,0.07,-55,-1,-2,1.24,,80,6791,10,22,43,0.924,45.0,389,4.8,10.9,16.1,1,31.8,2.32,7.3,0,0,0,1,0,415,-8151,-3267,450,,,,,,,,,,,,,,,,
82123,1620401389989,,,,,,,,-0.19,-1.15,-0.1,-55,4,-3,1.17,,80,6805,10,22,43,0.925,45.1,380,4.81,11.0,16.1,1,31.8,2.32,7.3,0,0,0,1,0,412,-8151,16648,451,,,,,,,,,,,,,,,,
82143,1620401389997,-1,1,40,27,30,42,-24,-0.21,-1.17,-0.26,-56,5,-3,1.19,0,80,6768,9,22,43,0.926,44.8,402,4.78,10.8,16.2,1,31.7,2.32,7.3,0,0,0,1,0,404,-8151,21432,448,45.846325,5.179106,44.5,220.1,8,2,1.6,0,0.0,-1,0.0,,0.0,0,0.49,1.3691
82163,1620401390017,,,,,,,,-0.23,-1.11,-0.07,-55,1,-3,1.13,,80,6778,10,22,43,0.926,44.7,400,4.85,11.0,16.2,1,31.8,2.32,7.3,0,0,0,1,0,408,-9211,-18341,447,,,,,,,,,,,,,,,,
82183,1620401390037,,,,,,,,-0.17,-1.07,-0.23,-55,3,-2,1.08,,80,6766,9,22,43,0.925,43.8,398,4.74,10.8,16.2,1,31.7,2.32,7.3,0,0,0,1,0,409,1504,26704,438,,,,,,,,,,,,,,,,
82203,1620401390057,,,,,,,,-0.22,-1.0,-0.05,-53,4,-3,1.02,,80,6768,9,22,43,0.923,44.2,366,4.75,11.0,16.2,1,31.7,2.32,7.3,0,0,0,1,0,407,11560,-7939,436,,,,,,,,,,,,,,,,
82223,1620401390077,,,,,,,,-0.23,-0.92,-0.21,-51,4,-3,0.95,,80,6754,10,22,43,0.922,43.6,385,4.73,10.8,16.2,1,31.7,2.32,7.3,0,0,0,1,0,410,-26615,243,436,,,,,,,,,,,,,,,,
82243,1620401390109,-1,2,37,29,32,40,-1,-0.24,-0.78,-0.02,-48,-2,-4,0.82,0,80,6725,9,22,43,0.921,43.1,367,4.82,11.0,16.6,1,31.6,2.32,7.2,0,0,0,1,0,412,-26615,13180,431,45.846329,5.179119,44.93,220.1,8,2,1.6,0,0.0,-1,0.0,0.0,0.0,0,0.49,1.3707
82263,1620401390129,,,,,,,,-0.17,-0.81,-0.19,-45,1,-4,0.82,,80,6698,9,22,43,0.923,43.1,396,4.76,10.8,16.6,1,31.6,2.33,7.2,0,0,0,1,0,418,7154,31796,431,,,,,,,,,,,,,,,,
82283,1620401390149,,,,,,,,-0.19,-0.67,-0.18,-41,-3,-4,0.7,,80,6694,9,22,43,0.923,42.2,411,4.81,11.0,16.6,1,31.6,2.33,7.2,0,0,0,1,0,420,7154,3826,422,,,,,,,,,,,,,,,,
82303,1620401390169,,,,,,,,-0.15,-0.63,0.0,-38,3,-3,0.65,,80,6706,9,22,43,0.925,42.1,411,4.83,10.9,16.6,1,31.6,2.32,7.2,0,0,0,1,0,421,-21792,-21792,415,,,,,,,,,,,,,,,,
82323,1620401390189,,,,,,,,-0.17,-0.46,-0.16,-34,2,-1,0.49,,80,6686,9,22,43,0.926,42.2,441,4.83,11.0,16.6,1,31.6,2.33,7.2,0,0,0,1,0,422,-4082,-21944,417,,,,,,,,,,,,,,,,
82343,1620401390209,1,2,32,34,33,33,16,-0.11,-0.43,0.02,-30,1,-2,0.45,0,80,6713,9,22,43,0.926,41.9,461,4.79,10.9,17.2,1,31.6,2.32,7.2,0,0,0,1,0,423,7154,-26615,417,45.846336,5.179133,44.1,220.0,8,2,1.6,0,0.0,-1,0.0,,0.0,0,0.49,1.3724
82363,1620401390229,,,,,,,,-0.11,-0.31,-0.15,-27,4,1,0.33,,80,6720,9,22,43,0.926,41.6,495,4.81,11.0,17.2,1,31.6,2.32,7.2,0,0,0,1,0,422,31796,-9166,413,,,,,,,,,,,,,,,,
82383,1620401390249,,,,,,,,-0.1,-0.19,0.03,-25,-1,1,0.22,,80,6706,9,22,43,0.925,42.8,522,4.8,10.9,17.2,1,31.6,2.32,7.2,0,0,0,1,0,426,13180,-9166,417,,,,,,,,,,,,,,,,
82403,1620401390269,,,,,,,,-0.01,-0.07,-0.14,-21,9,5,0.07,,80,6686,9,22,43,0.925,43.2,547,4.73,10.9,17.2,1,31.6,2.33,7.2,0,0,0,1,0,426,-768,11560,407,,,,,,,,,,,,,,,,
82423,1620401390289,,,,,,,,-0.04,0.0,0.04,-17,8,3,0.04,,80,6660,9,22,43,0.925,42.7,562,4.89,11.0,17.2,1,31.5,2.33,7.2,0,0,0,1,0,429,31796,10392,408,,,,,,,,,,,,,,,,
82443,1620401390308,1,1,29,37,36,32,31,0.0,0.09,-0.13,-13,9,6,0.09,0,80,6639,9,22,43,0.925,43.2,582,4.75,10.8,17.6,1,31.5,2.33,7.1,0,0,0,1,0,429,-3322,11560,409,45.846344,5.179146,43.47,220.0,8,2,1.6,0,0.0,-1,0.0,0.0,0.0,0,0.5,1.3741
82463,1620401390328,,,,,,,,-0.03,0.25,0.05,-9,3,3,0.26,,80,6583,9,22,43,0.925,43.2,592,4.77,11.0,17.6,1,31.4,2.33,7.1,0,0,0,1,0,431,-3322,-26615,404,,,,,,,,,,,,,,,,
82483,1620401390348,,,,,,,,0.02,0.31,-0.12,-5,3,1,0.31,,80,6576,9,22,43,0.925,43.0,595,4.83,10.9,17.6,1,31.4,2.33,7.1,0,0,0,1,0,431,-3314,2524,400,,,,,,,,,,,,,,,,
82503,1620401390368,,,,,,,,0.03,0.43,0.05,-1,5,2,0.43,,80,6558,9,22,43,0.92,43.4,601,4.76,11.0,17.6,1,31.4,2.33,7.1,0,0,0,1,0,431,-768,-9211,401,,,,,,,,,,,,,,,,
82523,1620401390388,,,,,,,,0.03,0.43,0.21,2,0,-2,0.44,,80,6537,9,22,43,0.917,43.1,603,4.81,11.0,17.6,1,31.3,2.33,7.1,0,0,0,1,0,431,1779,1504,403,,,,,,,,,,,,,,,,
82543,1620401390408,-1,0,28,36,37,32,41,-0.0,0.5,0.03,5,1,-0,0.5,0,80,6535,9,22,43,0.913,43.4,608,4.76,10.8,17.4,1,31.3,2.33,7.0,0,0,0,1,0,433,-3322,6384,403,45.846348,5.17916,42.53,220.1,8,2,1.6,0,0.0,-1,0.0,,0.0,0,0.5,1.3757
82563,1620401390428,,,,,,,,-0.03,0.62,0.19,8,1,-1,0.62,,80,6490,9,22,43,0.91,43.0,606,4.77,11.0,17.4,1,31.2,2.34,7.0,0,0,0,1,0,430,-3314,-3968,399,,,,,,,,,,,,,,,,
82583,1620401390448,,,,,,,,-0.01,0.53,0.03,12,-4,-3,0.53,,80,6496,9,22,43,0.903,43.2,605,4.85,10.9,17.4,1,31.2,2.34,7.0,0,0,0,1,0,430,1779,17144,399,,,,,,,,,,,,,,,,
82603,1620401390468,,,,,,,,0.01,0.56,-0.14,15,-0,-0,0.56,,80,6487,9,22,43,0.896,42.7,617,4.82,10.9,17.4,1,31.2,2.34,7.0,0,0,0,1,0,429,31796,1,394,,,,,,,,,,,,,,,,
82623,1620401390488,,,,,,,,0.02,0.68,0.04,18,-2,-1,0.68,,80,6494,9,22,43,0.888,42.2,617,4.77,11.0,17.4,1,31.2,2.34,7.0,0,0,0,1,0,426,-3322,-1818,389,,,,,,,,,,,,,,,,
82643,1620401390508,1,0,26,37,39,31,43,0.03,0.58,0.15,20,-4,-3,0.58,0,80,6461,9,22,43,0.882,43.6,615,4.82,11.0,17.7,1,31.2,2.34,7.0,0,0,0,1,0,429,5600,-6656,393,45.846352,5.179173,42.54,220.1,8,2,1.6,0,0.0,-1,0.0,0.0,0.0,0,0.5,1.3774
82663,1620401390528,,,,,,,,0.02,0.64,-0.03,23,-3,-1,0.64,,80,6503,9,22,44,0.873,43.9,613,4.77,10.8,17.7,1,31.5,2.33,7.0,0,0,0,1,0,431,-28332,6384,395,,,,,,,,,,,,,,,,
82683,1620401390548,,,,,,,,-0.07,0.76,0.14,26,0,-2,0.76,,80,6481,9,22,43,0.863,43.1,616,4.68,11.0,17.7,1,31.2,2.34,7.0,0,0,0,1,0,431,1779,-6524,387,,,,,,,,,,,,,,,,
82703,1620401390568,,,,,,,,-0.07,0.76,0.3,28,-3,-3,0.77,,80,6505,9,22,43,0.855,43.0,620,4.78,11.0,17.7,1,31.3,2.33,7.0,0,0,0,1,0,430,-3314,-31744,388,,,,,,,,,,,,,,,,
82723,1620401390588,,,,,,,,-0.07,0.77,0.11,30,-1,-1,0.77,,80,6512,9,22,44,0.846,43.2,632,4.79,10.8,17.7,1,31.5,2.33,7.0,0,0,0,1,0,429,243,-31744,390,,,,,,,,,,,,,,,,
82743,1620401390608,0,2,26,40,40,31,42,-0.1,0.84,0.26,32,3,-1,0.85,0,80,6505,9,22,43,0.838,42.7,632,4.73,10.9,18.2,1,31.3,2.33,7.0,0,0,0,1,0,429,31796,240,388,45.846359,5.179186,42.52,220.1,8,2,1.6,0,0.0,-1,0.0,,0.0,0,0.5,1.3791
82763,1620401390628,,,,,,,,-0.06,0.79,0.41,33,-4,-2,0.79,,80,6521,9,22,43,0.832,42.7,626,4.82,10.9,18.2,1,31.3,2.33,7.0,0,0,0,1,0,425,31796,-3866,387,,,,,,,,,,,,,,,,
82783,1620401390648,,,,,,,,-0.15,0.86,0.21,34,4,0,0.87,,80,6533,9,22,44,0.824,42.7,625,4.73,10.8,18.2,1,31.5,2.33,7.0,0,0,0,1,0,424,31796,-6475,386,,,,,,,,,,,,,,,,
82803,1620401390668,,,,,,,,-0.22,0.96,0.36,35,4,1,0.98,,80,6505,9,22,43,0.818,42.5,621,4.73,11.0,18.2,1,31.3,2.33,7.0,0,0,0,1,0,426,31796,-31744,389,,,,,,,,,,,,,,,,
82823,1620401390688,,,,,,,,-0.19,0.87,0.36,36,1,1,0.89,,80,6474,9,22,43,0.812,42.3,621,4.76,10.9,18.2,1,31.2,2.34,7.0,0,0,0,1,0,424,3826,-3866,382,,,,,,,,,,,,,,,,
82843,1620401390706,-0,3,26,39,40,31,36,-0.19,0.87,0.17,37,5,4,0.89,0,80,6467,9,22,44,0.808,42.1,618,4.77,10.8,18.1,1,31.4,2.34,7.0,0,0,0,1,0,422,3826,-31744,386,45.846367,5.179197,42.48,220.2,8,2,1.6,0,0.0,-1,0.0,0.0,0.0,0,0.5,1.3807
82863,1620401390726,,,,,,,,-0.23,0.94,0.32,37,10,4,0.97,,80,6432,9,22,43,0.805,41.8,619,4.73,10.9,18.1,1,31.2,2.34,7.0,0,0,0,1,0,421,-3414,240,380,,,,,,,,,,,,,,,,
82883,1620401390746,,,,,,,,-0.14,0.87,0.46,38,1,1,0.88,,80,6445,9,22,44,0.801,41.3,613,4.83,10.9,18.1,1,31.4,2.34,7.0,0,0,0,1,0,418,3826,240,382,,,,,,,,,,,,,,,,
82903,1620401390766,,,,,,,,-0.07,0.81,0.26,38,1,2,0.81,,80,6421,9,22,44,0.799,42.2,616,4.76,10.9,18.1,1,31.4,2.34,7.0,0,0,0,1,0,417,-3414,240,383,,,,,,,,,,,,,,,,
82923,1620401390786,,,,,,,,-0.06,0.89,0.07,38,12,7,0.89,,80,6386,9,22,44,0.798,42.4,611,4.8,10.8,18.1,1,31.3,2.34,7.0,0,0,0,1,0,418,13552,240,386,,,,,,,,,,,,,,,,
82943,1620401390808,-1,2,26,37,39,33,25,-0.11,0.95,0.23,38,6,4,0.95,0,80,6373,9,22,44,0.797,41.6,606,4.8,11.0,17.8,1,31.3,2.34,6.9,0,0,0,1,0,418,18584,240,386,45.846371,5.179208,41.32,220.2,8,2,1.6,0,0.0,-1,0.0,,0.0,0,0.5,1.3824
82963,1620401390828,,,,,,,,-0.04,0.81,0.26,38,-2,2,0.81,,80,6319,9,22,44,0.796,41.6,616,4.81,10.9,17.8,1,31.2,2.34,6.9,0,0,0,1,0,415,18584,-31744,388,,,,,,,,,,,,,,,,
82983,1620401390848,,,,,,,,0.0,0.69,0.07,37,2,3,0.69,,80,6328,9,22,44,0.796,41.2,617,4.78,10.9,17.8,1,31.1,2.34,6.9,0,0,0,1,0,412,13040,-6524,390,,,,,,,,,,,,,,,,
83003,1620401390868,,,,,,,,-0.02,0.7,-0.1,36,10,6,0.7,,80,6294,9,22,44,0.796,41.0,619,4.77,10.9,17.8,1,31.1,2.34,6.9,0,0,0,1,0,411,9517,-1562,386,,,,,,,,,,,,,,,,
83023,1620401390888,,,,,,,,-0.09,0.76,0.07,35,12,5,0.77,,80,6273,9,22,44,0.796,41.3,617,4.8,11.0,17.8,1,31.1,2.34,6.9,0,0,0,1,0,410,-4059,505,390,,,,,,,,,,,,,,,,
83043,1620401390908,0,0,28,37,36,33,16,-0.13,0.74,0.23,34,8,3,0.75,0,80,6227,9,22,44,0.798,40.4,606,4.75,11.0,17.1,1,31.0,2.34,6.7,0,0,0,1,0,410,1504,-1562,390,45.846382,5.179217,41.0,220.2,8,2,1.6,0,0.0,-1,0.0,0.0,0.0,0,0.5,1.384
83063,1620401390928,,,,,,,,-0.06,0.62,0.38,33,-0,-0,0.63,,80,6225,9,22,44,0.799,41.1,605,4.8,11.0,17.1,1,31.0,2.34,6.7,0,0,0,1,0,405,-4059,505,394,,,,,,,,,,,,,,,,
83083,1620401390948,,,,,,,,0.11,0.48,0.18,30,2,0,0.49,,80,6161,8,22,45,0.802,40.3,601,4.81,10.9,17.1,1,31.1,2.35,6.7,0,0,0,1,0,404,-26615,505,392,,,,,,,,,,,,,,,,
83103,1620401390968,,,,,,,,0.18,0.39,-0.0,28,7,1,0.43,,80,6163,8,22,45,0.805,40.5,601,4.81,10.9,17.1,1,31.1,2.35,6.7,0,0,0,1,0,404,-9211,-6656,394,,,,,,,,,,,,,,,,
83123,1620401390988,,,,,,,,0.12,0.34,-0.17,27,13,4,0.36,,80,6097,8,22,45,0.808,40.1,594,4.83,10.9,17.1,1,31.0,2.36,6.7,0,0,0,1,0,403,11545,505,392,,,,,,,,,,,,,,,,
83143,1620401390996,-0,2,29,32,34,33,7,0.15,0.34,-0.32,26,19,7,0.37,0,80,6064,8,22,45,0.809,40.1,587,4.75,10.9,16.8,1,30.8,2.36,6.6,0,0,0,1,0,403,6384,-1562,388,45.846386,5.179226,40.83,220.3,8,2,1.6,0,0.0,-1,0.0,,0.0,0,0.5,1.3857
83163,1620401391016,,,,,,,,0.18,0.32,-0.46,24,25,9,0.37,,80,5956,8,22,46,0.811,40.0,583,4.73,10.9,16.8,1,30.9,2.38,6.6,0,0,0,1,0,399,6512,-6656,390,,,,,,,,,,,,,,,,
83183,1620401391036,,,,,,,,0.19,0.31,-0.59,22,30,11,0.37,,80,5905,8,22,47,0.812,39.5,581,4.78,10.9,16.8,1,31.0,2.42,6.6,0,0,0,1,0,399,17144,505,394,,,,,,,,,,,,,,,,
83203,1620401391056,,,,,,,,0.23,0.26,-0.71,20,29,12,0.34,,80,5828,8,22,47,0.814,40.3,580,4.76,10.9,16.8,1,30.9,2.46,6.6,0,0,0,1,0,395,-3968,-1818,394,,,,,,,,,,,,,,,,
83223,1620401391076,,,,,,,,0.24,0.19,-0.81,19,27,11,0.31,,80,5806,8,22,48,0.815,39.6,573,4.81,11.0,16.8,1,31.0,2.47,6.6,0,0,0,1,0,390,-32702,-1562,394,,,,,,,,,,,,,,,,
83243,1620401391108,1,0,31,29,33,33,-3,0.24,0.07,-0.91,17,22,9,0.25,0,80,5894,8,22,48,0.814,39.2,571,4.83,11.0,16.7,1,31.2,2.43,6.6,0,0,0,1,0,387,1,-31744,391,45.846397,5.179234,40.61,220.3,8,2,1.6,0,0.0,-1,0.0,0.0,0.0,0,0.5,1.3874
83263,1620401391128,,,,,,,,0.24,-0.03,-0.89,15,17,7,0.25,,80,6107,8,22,48,0.813,39.4,575,4.8,11.0,16.7,1,31.6,2.35,6.6,0,0,0,1,0,380,-31744,-18948,394,,,,,,,,,,,,,,,,
83283,1620401391148,,,,,,,,0.31,-0.17,-0.98,14,18,7,0.35,,80,6285,8,22,49,0.812,39.2,591,4.83,11.0,16.7,1,32.2,2.34,6.6,0,0,0,1,0,377,-19019,-19019,388,,,,,,,,,,,,,,,,
83303,1620401391168,,,,,,,,0.26,-0.22,-1.07,11,20,8,0.34,,80,6397,8,22,48,0.811,38.9,611,4.77,10.9,16.7,1,32.3,2.34,6.6,0,0,0,1,0,378,-19019,1,389,,,,,,,,,,,,,,,,
83323,1620401391188,,,,,,,,0.15,-0.19,-0.81,8,24,8,0.24,,80,6490,8,22,47,0.808,39.3,615,4.77,11.0,16.7,1,32.2,2.33,6.6,0,0,0,1,0,381,8200,-6656,393,,,,,,,,,,,,,,,,
83343,1620401391210,-0,2,32,28,32,36,-14,0.14,-0.29,-0.58,7,10,4,0.32,0,80,6553,8,22,46,0.806,38.8,623,4.81,10.9,17.7,1,32.1,2.33,7.0,0,0,0,1,0,381,-19019,1,388,45.846405,5.179243,40.71,220.3,8,2,1.6,0,0.0,-1,0.0,,0.0,0,0.51,1.389
83363,1620401391230,,,,,,,,0.19,-0.29,-0.69,4,14,5,0.35,,80,6576,8,22,45,0.804,39.2,632,4.81,10.9,17.7,1,31.9,2.33,7.0,0,0,0,1,0,377,770,-6656,396,,,,,,,,,,,,,,,,
83383,1620401391250,,,,,,,,0.16,-0.3,-0.47,2,13,4,0.34,,80,6606,8,22,45,0.802,39.2,629,4.73,10.9,17.7,1,32.0,2.32,7.0,0,0,0,1,0,376,2278,-6656,392,,,,,,,,,,,,,,,,
83403,1620401391270,,,,,,,,0.09,-0.39,-0.29,-1,10,3,0.4,,80,6644,8,22,44,0.802,39.5,630,4.78,10.9,17.7,1,31.8,2.33,7.0,0,0,0,1,0,377,770,1,395,,,,,,,,,,,,,,,,
83423,1620401391290,,,,,,,,0.15,-0.36,-0.43,-3,14,5,0.39,,80,6595,8,22,43,0.802,39.6,628,4.73,10.9,17.7,1,31.5,2.33,7.0,0,0,0,1,0,377,257,17144,392,,,,,,,,,,,,,,,,
83443,1620401391307,1,1,34,29,30,36,-20,0.14,-0.39,-0.23,-5,6,1,0.41,0,80,6452,8,22,43,0.802,39.9,623,4.81,10.9,17.8,1,31.2,2.34,7.0,0,0,0,1,0,388,-6405,28696,394,45.846413,5.179251,40.33,220.4,8,2,1.6,0,0.0,-1,0.0,0.0,0.0,0,0.51,1.3907
83463,1620401391327,,,,,,,,0.17,-0.44,-0.38,-7,6,1,0.47,,80,6204,8,22,43,0.802,39.7,611,4.79,10.9,17.8,1,30.8,2.34,7.0,0,0,0,1,0,413,770,6384,397,,,,,,,,,,,,,,,,
83483,1620401391347,,,,,,,,0.31,-0.52,-0.51,-9,11,3,0.61,,80,6052,8,22,44,0.804,39.4,595,4.8,10.9,17.8,1,30.7,2.35,7.0,0,0,0,1,0,390,8200,6512,394,,,,,,,,,,,,,,,,
83503,1620401391367,,,,,,,,0.25,-0.6,-0.63,-11,13,4,0.65,,80,5939,8,22,44,0.807,40.3,586,4.77,11.0,17.8,1,30.5,2.38,7.0,0,0,0,1,0,381,3,28696,399,,,,,,,,,,,,,,,,
83523,1620401391387,,,,,,,,0.39,-0.69,-0.75,-13,16,5,0.8,,80,5797,8,22,45,0.811,39.6,575,4.8,10.9,17.8,1,30.4,2.45,7.0,0,0,0,1,0,376,742,-3968,396,,,,,,,,,,,,,,,,
83543,1620401391407,-0,2,36,30,29,36,-24,0.38,-0.74,-0.75,-15,15,4,0.83,0,80,5645,8,22,46,0.815,40.0,567,4.78,11.0,16.4,1,30.3,2.53,6.6,0,0,0,1,0,373,1,-3968,400,45.846424,5.179259,40.04,220.5,8,2,1.6,0,0.0,-1,0.0,,0.0,0,0.51,1.3924
83563,1620401391427,,,,,,,,0.31,-0.73,-0.52,-16,13,2,0.8,,80,5529,8,22,47,0.823,40.0,552,4.76,10.8,16.4,1,30.4,2.6,6.6,0,0,0,1,0,372,770,-32702,400,,,,,,,,,,,,,,,,
83583,1620401391447,,,,,,,,0.25,-0.68,-0.64,-18,16,3,0.73,,80,5477,8,22,48,0.831,39.8,545,4.8,10.9,16.4,1,30.5,2.63,6.6,0,0,0,1,0,370,0,28696,398,,,,,,,,,,,,,,,,
83603,1620401391467,,,,,,,,0.24,-0.74,-0.64,-20,13,3,0.77,,80,5434,8,22,48,0.839,40.1,547,4.78,11.0,16.4,1,30.4,2.65,6.6,0,0,0,1,0,366,486,-32702,401,,,,,,,,,,,,,,,,
83623,1620401391487,,,,,,,,0.14,-0.7,-0.42,-21,11,2,0.72,,80,5562,8,22,49,0.848,39.6,542,4.77,10.8,16.4,1,30.9,2.59,6.6,0,0,0,1,0,359,-6405,-6656,396,,,,,,,,,,,,,,,,
83643,1620401391507,-1,2,35,29,30,38,-25,0.1,-0.67,-0.55,-22,13,2,0.68,0,80,5714,8,22,50,0.858,39.4,547,4.75,10.9,16.7,1,31.3,2.54,6.6,0,0,0,1,0,358,486,-3866,393,45.846428,5.179269,40.23,220.5,8,2,1.6,0,0.0,-1,0.0,0.0,0.0,0,0.51,1.394
83663,1620401391527,,,,,,,,0.12,-0.72,-0.67,-24,14,3,0.73,,80,5841,8,22,50,0.87,39.6,558,4.78,11.0,16.7,1,31.5,2.43,6.6,0,0,0,1,0,354,2790,240,392,,,,,,,,,,,,,,,,
83683,1620401391547,,,,,,,,0.16,-0.8,-0.78,-25,15,4,0.81,,80,5956,8,22,50,0.882,39.4,571,4.83,11.0,16.7,1,31.7,2.37,6.6,0,0,0,1,0,346,-1268,-1562,394,,,,,,,,,,,,,,,,
83703,1620401391567,,,,,,,,0.23,-0.86,-0.89,-27,18,6,0.9,,80,6042,8,22,51,0.893,39.3,578,4.78,10.9,16.7,1,32.0,2.34,6.6,0,0,0,1,0,358,-14707,-31744,393,,,,,,,,,,,,,,,,
83723,1620401391587,,,,,,,,0.36,-0.93,-0.98,-27,19,5,1.0,,80,6064,8,22,51,0.905,39.4,581,4.78,10.9,16.7,1,32.1,2.34,6.6,0,0,0,1,0,357,4104,-6524,386,,,,,,,,,,,,,,,,
83743,1620401391607,1,2,36,28,31,40,-29,0.37,-0.98,-1.06,-28,21,8,1.05,0,80,6105,8,22,50,0.916,39.1,579,4.72,10.9,16.9,1,32.0,2.33,6.6,0,0,0,1,0,355,3183,-31744,389,45.846439,5.179278,39.56,220.5,8,2,1.6,0,0.0,-1,0.0,,0.0,0,0.51,1.3957
83763,1620401391627,,,,,,,,0.42,-1.02,-1.14,-29,27,11,1.1,,80,6103,8,22,50,0.927,38.4,583,4.8,10.8,16.9,1,32.0,2.34,6.6,0,0,0,1,0,355,-6640,-6475,384,,,,,,,,,,,,,,,,
83783,1620401391647,,,,,,,,0.38,-1.01,-1.21,-30,33,14,1.08,,80,6105,8,22,50,0.938,38.9,591,4.72,10.8,16.9,1,32.0,2.33,6.6,0,0,0,1,0,356,-6640,240,389,,,,,,,,,,,,,,,,
83803,1620401391667,,,,,,,,0.38,-0.99,-1.28,-31,38,15,1.06,,80,6105,8,22,50,0.941,39.4,592,4.78,10.8,16.9,1,32.0,2.33,6.6,0,0,0,1,0,354,4104,240,394,,,,,,,,,,,,,,,,
83823,1620401391687,,,,,,,,0.28,-0.93,-1.34,-32,36,14,0.97,,80,6109,8,22,50,0.937,38.6,590,4.73,10.9,16.9,1,32.0,2.33,6.6,0,0,0,1,0,355,-6640,240,390,,,,,,,,,,,,,,,,
83843,1620401391709,0,3,36,28,30,39,-30,0.14,-0.85,-1.06,-33,35,12,0.86,0,80,6107,8,22,50,0.932,38.8,585,4.76,10.8,16.6,1,32.0,2.33,6.5,0,0,0,1,0,353,3302,-3866,388,45.846447,5.179288,39.11,220.5,8,2,1.6,0,0.0,-1,0.0,0.0,0.0,0,0.51,1.3974
83863,1620401391729,,,,,,,,0.03,-0.74,-0.8,-34,30,8,0.74,,80,6085,8,22,49,0.928,39.1,553,4.76,10.9,16.6,1,31.7,2.34,6.5,0,0,0,1,0,352,3302,-6475,391,,,,,,,,,,,,,,,,
83883,1620401391749,,,,,,,,-0.05,-0.67,-0.57,-35,20,4,0.67,,80,6099,8,22,49,0.922,39.0,529,4.77,11.0,16.6,1,31.8,2.35,6.5,0,0,0,1,0,351,28553,-19019,390,,,,,,,,,,,,,,,,
83903,1620401391769,,,,,,,,-0.08,-0.61,-0.36,-36,12,1,0.62,,80,6073,8,22,49,0.911,39.1,557,4.8,11.0,16.6,1,31.7,2.35,6.5,0,0,0,1,0,351,-30438,-31744,391,,,,,,,,,,,,,,,,
83923,1620401391789,,,,,,,,-0.18,-0.62,-0.16,-37,4,-3,0.64,,80,6027,8,22,49,0.9,38.8,548,4.74,11.0,16.6,1,31.6,2.35,6.5,0,0,0,1,0,354,-6644,-3866,386,,,,,,,,,,,,,,,,
83943,1620401391809,0,1,36,29,31,39,-31,-0.23,-0.64,0.02,-37,-1,-5,0.68,0,80,5978,8,22,50,0.888,38.7,549,4.83,11.0,16.7,1,31.7,2.36,6.5,0,0,0,1,0,353,3302,-19019,390,45.846451,5.179299,38.73,220.4,8,2,1.6,0,0.0,-1,0.0,,0.0,0,0.51,1.399
83963,1620401391829,,,,,,,,-0.33,-0.62,0.19,-38,-7,-8,0.7,,80,5852,8,22,50,0.877,38.5,565,4.78,10.9,16.7,1,31.5,2.43,6.5,0,0,0,1,0,353,28553,-6475,385,,,,,,,,,,,,,,,,
83983,1620401391849,,,,,,,,-0.42,-0.55,0.34,-38,-9,-9,0.69,,80,5742,8,22,50,0.864,38.5,570,4.78,10.9,16.7,1,31.3,2.49,6.5,0,0,0,1,0,355,3183,-19019,385,,,,,,,,,,,,,,,,
84003,1620401391869,,,,,,,,-0.41,-0.46,0.14,-39,-8,-8,0.62,,80,5673,8,22,51,0.852,38.2,566,4.78,10.9,16.7,1,31.5,2.53,6.5,0,0,0,1,0,354,28553,-19019,382,,,,,,,,,,,,,,,,
84023,1620401391889,,,,,,,,-0.29,-0.51,-0.04,-39,-5,-7,0.58,,80,5617,8,22,52,0.84,38.3,557,4.79,10.9,16.7,1,31.7,2.56,6.5,0,0,0,1,0,350,28553,19125,387,,,,,,,,,,,,,,,,
84043,1620401391905,1,2,36,29,30,39,-30,-0.27,-0.61,0.13,-40,-8,-7,0.67,0,80,5562,8,22,52,0.829,38.6,547,4.78,10.9,17.1,1,31.6,2.59,6.6,0,0,0,1,0,348,2811,-18948,385,45.846458,5.17931,38.9,220.4,8,2,1.6,0,0.0,-1,0.0,0.0,0.0,0,0.51,1.4007
84063,1620401391925,,,,,,,,-0.37,-0.56,0.29,-40,-8,-8,0.67,,80,5521,8,22,53,0.826,38.4,546,4.77,10.8,17.1,1,31.9,2.61,6.6,0,0,0,1,0,347,-30454,-18948,384,,,,,,,,,,,,,,,,
84083,1620401391945,,,,,,,,-0.25,-0.55,0.1,-40,-5,-6,0.6,,80,5479,8,22,54,0.824,38.4,539,4.77,10.9,17.1,1,32.1,2.64,6.6,0,0,0,1,0,347,-30454,-18948,384,,,,,,,,,,,,,,,,
84103,1620401391965,,,,,,,,-0.19,-0.57,-0.08,-41,-6,-5,0.6,,80,5414,8,22,54,0.822,38.6,532,4.83,11.0,17.1,1,32.1,2.7,6.6,0,0,0,1,0,347,-30454,-18948,386,,,,,,,,,,,,,,,,
84123,1620401391985,,,,,,,,-0.26,-0.58,0.1,-41,-4,-5,0.63,,80,5358,8,22,54,0.818,38.3,533,4.73,10.8,17.1,1,32.0,2.73,6.6,0,0,0,1,0,346,-1246,-992,383,,,,,,,,,,,,,,,,
84143,1620401391997,-0,2,37,28,31,39,-31,-0.18,-0.58,-0.08,-41,-4,-4,0.61,0,80,5326,8,22,55,0.819,37.8,520,4.82,11.0,17.4,1,32.2,2.75,6.7,0,0,0,1,0,345,2811,2278,378,45.846462,5.179322,38.49,220.3,8,2,1.6,0,0.0,-1,0.0,,0.0,0,0.51,1.4024
