"Interval"|"ms"|0|0|1,"Utc"|"ms"|0|0|1,"Brake_F"|"Bar"|0|2000|10,"Brake_R"|"Bar"|0|2000|10,"Height_RF"|"mm"|0|255|10,"Height_LF"|"mm"|0|255|10,"Height_LR"|"mm"|0|80|10,"Height_RR"|"mm"|0|255|10,"Steering"|"deg"|-100|100|10,"AccelX"|"G"|-3.0|3.0|50,"AccelY"|"G"|-3.0|3.0|50,"AccelZ"|"G"|-3.0|3.0|50,"Yaw"|"Deg/Sec"|-120|120|50,"Pitch"|"Deg/Sec"|-120|120|50,"Roll"|"Deg/Sec"|-120|120|50,"Gsum"|"G"|0.0|3.0|50,"Log_Button"|""|0.0|10.0|10,"WaterTemp"|"C"|0|150|50,"RPM"|"tr/min"|0|14000|50,"TPS"|"%"|0|100|50,"AirTemp"|"C"|0|150|50,"MAP"|"KPa"|0|100|50,"Lambda"|""|0.5|1.5|50,"SpeedDTA"|"kph"|0.0|250.0|50,"OilPress"|"KPa"|0|1500|50,"FuelPressur"|"Bar"|0.0|10.0|50,"Batterie"|"V"|0.0|20.0|50,"ConsoKm"|"L/100km"|0.0|200.0|50,"Gear"|""|0|6|50,"AdvIgnition"|"Deg"|-20.0|70.0|50,"Injection"|"ms"|0.0|10.0|50,"ConsoHr"|"L/Hr"|0.0|10000.0|50,"LC_But_Pres"|""|0|1|50,"LC_Active"|""|0|1|50,"TractionOn"|""|0|1|50,"TractionWet"|""|0|1|50,"FanOn"|""|0|1|50,"RD_Speed"|"km/h"|-30|250|50,"RUD_Speed"|"km/h"|-30|250|50,"LD_Speed"|"km/h"|-30|250|50,"LUD_Speed"|"km/h"|-30|250|50,"Latitude"|"Degrees"|-180.0|180.0|10,"Longitude"|"Degrees"|-180.0|180.0|10,"Speed"|"kph"|0.0|150.0|10,"Altitude"|"m"|0.0|4000.0|10,"GPSSats"|""|0|20|10,"GPSQual"|""|0|5|10,"GPSDOP"|""|0.0|20.0|10,"LapCount"|""|0|0|10,"LapTime"|"Min"|0.0|0.0|10,"Sector"|""|0|0|10,"SectorTime"|"Min"|0.0|0.0|10,"PredTime"|"Min"|0.0|0.0|5,"ElapsedTime"|"Min"|0.0|0.0|10,"CurrentLap"|""|0|0|10,"Distance"|"km"|0.0|0.0|10,"SessionTime"|"Min"|0.0|0.0|10
30063,1620404210665,,,,,,,,-0.05,0.05,-0.59,-0,-4,-1,0.07,,63,4175,7,24,58,0.502,0.0,524,4.93,13.4,0.0,1,22.3,2.46,4.8,0,0,0,1,0,0,250,250,0,,,,,,,,,,,,,,,,
30083,1620404210685,,,,,,,,-0.04,0.05,-0.71,-0,-2,-1,0.06,,63,4273,7,24,58,0.502,0.0,546,4.93,13.3,0.0,1,23.6,2.52,4.8,0,0,0,1,0,0,250,250,0,,,,,,,,,,,,,,,,
30103,1620404210705,,,,,,,,0.01,0.02,-0.81,-0,-1,-1,0.02,,63,4196,7,24,58,0.502,0.0,534,4.9,13.2,0.0,1,22.6,1.32,4.8,0,0,0,1,0,0,250,250,0,,,,,,,,,,,,,,,,
30123,1620404210725,,,,,,,,0.05,0.01,-0.78,-0,-2,-1,0.05,,63,4222,7,24,58,0.502,0.0,543,4.9,13.1,0.0,1,23.0,1.33,4.8,0,0,0,1,0,0,250,250,0,,,,,,,,,,,,,,,,
30143,1620404210745,11,6,33,33,31,33,-2,0.04,0.0,-0.68,-0,-4,-1,0.04,1,63,4282,7,24,59,0.502,0.0,534,4.93,13.4,0.0,1,24.0,2.54,4.8,0,0,0,1,0,0,250,250,0,45.845802,5.178921,0.0,224.9,6,3,2.5,0,0.0,-1,0.0,,0.0,0,0.0,0.5024
30163,1620404210765,,,,,,,,-0.0,0.01,-0.65,-0,-4,-1,0.01,,63,4225,7,24,58,0.502,0.0,543,4.96,13.4,0.0,1,23.0,2.49,5.0,0,0,0,1,0,0,250,250,0,,,,,,,,,,,,,,,,
30183,1620404210785,,,,,,,,-0.04,0.03,-0.7,-0,-2,-1,0.05,,63,4222,7,24,58,0.502,0.0,532,4.93,13.3,0.0,1,23.0,2.49,5.0,0,0,0,1,0,0,250,250,0,,,,,,,,,,,,,,,,
30203,1620404210805,,,,,,,,-0.02,0.02,-0.8,-0,-0,-0,0.03,,63,4304,7,24,58,0.502,0.0,547,4.87,13.2,0.0,1,24.0,2.53,5.0,0,0,0,1,0,0,250,250,0,,,,,,,,,,,,,,,,
30223,1620404210825,,,,,,,,0.02,0.02,-0.9,-0,-0,-0,0.03,,63,4217,7,24,58,0.502,0.0,550,4.86,13.2,0.0,1,22.9,2.49,5.0,0,0,0,1,0,0,250,250,0,,,,,,,,,,,,,,,,
30243,1620404210845,12,8,33,34,31,33,-2,0.06,0.03,-0.97,-0,-2,-1,0.07,0,63,4272,7,24,58,0.502,0.0,533,4.9,13.1,0.0,1,23.6,1.36,4.9,0,0,0,1,0,0,250,250,0,45.845802,5.178921,0.0,224.9,6,3,2.5,0,0.0,-1,0.0,0.0,0.0,0,0.0,0.504
30263,1620404210865,,,,,,,,0.05,0.02,-0.9,-0,-4,-1,0.06,,63,4326,7,24,59,0.502,0.0,554,4.92,13.3,0.0,1,24.5,2.57,4.9,0,0,0,1,0,0,250,250,0,,,,,,,,,,,,,,,,
30283,1620404210885,,,,,,,,0.01,0.03,-0.7,-0,-4,-1,0.03,,63,4222,7,24,59,0.502,0.0,537,4.94,13.3,0.0,1,23.2,2.49,4.9,0,0,0,1,0,0,250,250,0,,,,,,,,,,,,,,,,
30303,1620404210905,,,,,,,,-0.04,0.05,-0.58,-0,-3,-1,0.06,,63,4302,7,24,59,0.502,0.0,547,4.96,13.3,0.0,1,24.2,2.55,4.9,0,0,0,1,0,0,250,250,0,,,,,,,,,,,,,,,,
30323,1620404210925,,,,,,,,-0.04,0.06,-0.7,-0,-1,-0,0.07,,63,4316,7,24,58,0.502,0.0,543,4.94,13.4,0.0,1,24.2,2.54,4.9,0,0,0,1,0,0,250,250,0,,,,,,,,,,,,,,,,
30343,1620404210945,11,7,33,35,31,33,-1,-0.02,0.04,-0.8,-0,0,-0,0.04,0,63,4264,7,24,58,0.502,0.0,556,4.86,13.1,0.0,1,23.5,2.51,4.9,0,0,0,1,0,0,250,250,0,45.845802,5.178921,0.0,224.9,6,3,2.5,0,0.0,-1,0.0,,0.0,0,0.0,0.5057
30363,1620404210965,,,,,,,,0.03,0.04,-0.9,-0,1,0,0.05,,63,4376,7,24,58,0.502,0.0,556,4.89,13.1,0.0,1,25.0,2.57,4.9,0,0,0,1,0,0,250,250,0,,,,,,,,,,,,,,,,
30383,1620404210985,,,,,,,,0.07,0.05,-0.94,-0,0,-0,0.09,,63,4313,7,24,58,0.502,0.0,556,4.92,13.2,0.0,1,24.2,2.54,4.9,0,0,0,1,0,0,250,250,0,,,,,,,,,,,,,,,,
30403,1620404211005,,,,,,,,0.09,0.05,-0.84,-0,-1,-1,0.1,,63,4290,7,24,58,0.502,0.0,560,4.93,13.2,0.0,1,24.3,1.38,4.9,0,0,0,1,0,0,250,250,0,,,,,,,,,,,,,,,,
30423,1620404211010,,,,,,,,0.07,0.04,-0.73,-0,-3,-1,0.08,,63,4372,7,24,59,0.502,0.0,547,4.92,13.4,0.0,1,25.1,2.58,4.9,0,0,0,1,0,0,250,250,0,,,,,,,,,,,,,,,,
30443,1620404211030,12,7,33,35,31,33,-1,0.02,0.04,-0.58,-0,-4,-1,0.04,0,63,4332,7,24,59,0.502,0.0,557,4.96,13.3,0.0,1,24.6,1.41,4.9,0,0,0,1,0,0,250,250,0,45.845802,5.178921,0.0,224.9,6,3,2.5,0,0.0,-1,0.0,0.0,0.0,0,0.0,0.5074
30463,1620404211050,,,,,,,,-0.05,0.05,-0.42,-0,-4,-1,0.07,,63,4342,7,24,59,0.502,0.0,544,4.95,13.4,0.0,1,24.7,2.57,5.1,0,0,0,1,0,0,250,250,0,,,,,,,,,,,,,,,,
30483,1620404211070,,,,,,,,-0.09,0.07,-0.33,-0,-4,-1,0.11,,63,4425,7,24,59,0.502,0.0,560,4.92,13.4,0.0,1,25.8,2.61,5.1,0,0,0,1,0,0,250,250,0,,,,,,,,,,,,,,,,
30503,1620404211104,,,,,,,,-0.1,0.08,-0.33,-0,-2,-1,0.12,,63,4332,7,24,58,0.502,0.0,557,4.93,13.4,0.0,1,24.4,1.39,5.1,0,0,0,1,0,0,250,250,0,,,,,,,,,,,,,,,,
30523,1620404211124,,,,,,,,-0.09,0.05,-0.41,-0,0,-0,0.11,,63,4406,7,24,59,0.502,0.0,555,4.95,13.4,0.0,1,25.6,2.59,5.1,0,0,0,1,0,0,250,250,0,,,,,,,,,,,,,,,,
30543,1620404211144,13,6,33,35,31,33,-1,-0.06,0.04,-0.55,-0,3,0,0.07,0,63,4396,7,24,58,0.502,0.0,571,4.87,13.3,0.0,1,25.2,2.58,5.1,0,0,0,1,0,0,250,250,0,45.845802,5.178921,0.0,224.9,6,3,2.5,0,0.0,-1,0.0,,0.0,0,0.0,0.509
30563,1620404211164,,,,,,,,-0.04,0.02,-0.67,-0,3,0,0.04,,63,4371,7,24,58,0.502,0.0,556,4.87,13.1,0.0,1,24.9,2.56,5.2,0,0,0,1,0,0,250,250,0,,,,,,,,,,,,,,,,
30583,1620404211184,,,,,,,,0.02,0.02,-0.78,-0,4,0,0.03,,63,4434,7,24,58,0.502,0.0,568,4.86,13.2,0.0,1,25.7,2.6,5.2,0,0,0,1,0,0,250,250,0,,,,,,,,,,,,,,,,
30603,1620404211204,,,,,,,,0.08,0.03,-0.88,-0,4,0,0.09,,63,4382,7,24,58,0.501,0.0,560,4.86,13.1,0.0,1,25.0,1.41,5.2,0,0,0,1,0,0,250,250,0,,,,,,,,,,,,,,,,
30623,1620404211224,,,,,,,,0.13,0.04,-0.97,-0,4,-0,0.14,,63,4423,7,24,59,0.501,0.0,565,4.96,13.2,0.0,1,25.8,1.45,5.2,0,0,0,1,0,0,250,250,0,,,,,,,,,,,,,,,,
30643,1620404211244,13,5,33,33,31,33,-1,0.14,0.03,-1.05,-0,3,0,0.15,0,63,4430,7,24,59,0.502,0.0,566,4.97,13.3,0.0,1,25.5,2.61,5.2,0,0,0,1,0,0,250,250,0,45.845802,5.178921,0.0,224.9,6,3,2.5,0,0.0,-1,0.0,0.0,0.0,0,0.0,0.5107
30663,1620404211264,,,,,,,,0.14,0.02,-0.97,-0,1,0,0.14,,63,4350,7,24,58,0.502,0.0,553,4.95,13.2,0.0,1,24.6,1.39,5.2,0,0,0,1,0,0,250,250,0,,,,,,,,,,,,,,,,
30683,1620404211284,,,,,,,,0.13,0.03,-0.94,-0,-1,0,0.13,,63,4412,7,24,58,0.502,0.0,564,4.95,13.3,0.0,1,25.4,1.43,5.2,0,0,0,1,0,0,250,250,0,,,,,,,,,,,,,,,,
30703,1620404211306,,,,,,,,0.1,0.02,-0.86,-0,-3,0,0.1,,63,4396,7,24,58,0.502,0.0,558,4.91,13.4,0.0,1,25.2,2.58,5.2,0,0,0,1,0,0,250,250,0,,,,,,,,,,,,,,,,
30723,1620404211326,,,,,,,,0.04,0.03,-0.62,-0,-4,-0,0.05,,63,4382,7,24,58,0.502,0.0,561,4.92,13.4,0.0,1,25.0,2.57,5.2,0,0,0,1,0,0,250,250,0,,,,,,,,,,,,,,,,
30743,1620404211346,13,6,33,35,31,33,-1,-0.02,0.05,-0.48,-0,-4,-0,0.06,0,63,4428,7,24,58,0.502,0.0,558,4.93,13.4,0.0,1,25.6,2.59,5.3,0,0,0,1,0,0,250,250,0,45.845802,5.178921,0.0,224.9,6,3,2.5,0,0.0,-1,0.0,,0.0,0,0.0,0.5124
30763,1620404211366,,,,,,,,-0.08,0.06,-0.42,-0,-4,-1,0.1,,63,4347,7,24,58,0.502,0.0,558,4.91,13.4,0.0,1,24.6,2.55,5.3,0,0,0,1,0,0,250,250,0,,,,,,,,,,,,,,,,
30783,1620404211386,,,,,,,,-0.1,0.08,-0.47,-0,-3,-0,0.13,,63,4411,7,24,58,0.502,0.0,565,4.94,13.4,0.0,1,25.4,2.59,5.3,0,0,0,1,0,0,250,250,0,,,,,,,,,,,,,,,,
30803,1620404211406,,,,,,,,-0.1,0.08,-0.59,-0,-2,-0,0.13,,63,4375,7,24,58,0.502,0.0,555,4.89,13.3,0.0,1,24.9,2.57,5.3,0,0,0,1,0,0,250,250,0,,,,,,,,,,,,,,,,
30823,1620404211426,,,,,,,,-0.06,0.07,-0.71,-0,1,0,0.09,,63,4402,7,24,58,0.502,0.0,566,4.87,13.2,0.0,1,25.3,2.58,5.3,0,0,0,1,0,0,250,250,0,,,,,,,,,,,,,,,,
30843,1620404211446,13,8,33,35,31,33,-1,-0.03,0.06,-0.82,-0,3,1,0.06,0,63,4429,7,24,58,0.502,0.0,565,4.96,13.3,0.0,1,25.6,2.59,5.3,0,0,0,1,0,0,250,250,0,45.845802,5.178921,0.0,224.9,6,3,2.5,0,0.0,-1,0.0,0.0,0.0,0,0.0,0.514
30863,1620404211466,,,,,,,,0.02,0.04,-0.92,-0,4,1,0.04,,63,4340,7,24,58,0.502,0.0,568,4.9,13.1,0.0,1,24.5,2.55,5.3,0,0,0,1,0,0,250,250,0,,,,,,,,,,,,,,,,
30883,1620404211486,,,,,,,,0.07,0.05,-1.01,-0,4,1,0.08,,63,4395,7,24,58,0.501,0.0,556,4.91,13.2,0.0,1,25.2,2.58,5.3,0,0,0,1,0,0,250,250,0,,,,,,,,,,,,,,,,
30903,1620404211506,,,,,,,,0.1,0.05,-0.99,-0,3,1,0.11,,63,4361,7,24,58,0.501,0.0,563,4.92,13.1,0.0,1,24.8,1.4,5.3,0,0,0,1,0,0,250,250,0,,,,,,,,,,,,,,,,
30923,1620404211526,,,,,,,,0.1,0.04,-0.87,-0,1,0,0.11,,63,4316,7,24,58,0.501,0.0,567,4.91,13.2,0.0,1,24.2,1.38,5.3,0,0,0,1,0,0,250,250,0,,,,,,,,,,,,,,,,
30943,1620404211546,11,7,33,35,31,33,-1,0.07,0.03,-0.77,-0,-1,-0,0.08,0,63,4376,7,24,59,0.502,0.0,550,4.95,13.3,0.0,1,25.2,1.42,5.2,0,0,0,1,0,0,250,250,0,45.845802,5.178921,0.0,224.9,6,3,2.5,0,0.0,-1,0.0,,0.0,0,0.0,0.5157
30963,1620404211566,,,,,,,,0.03,0.02,-0.7,-0,-2,-0,0.03,,63,4349,7,24,58,0.502,0.0,557,4.87,13.4,0.0,1,24.6,1.39,5.2,0,0,0,1,0,0,250,250,0,,,,,,,,,,,,,,,,
30983,1620404211586,,,,,,,,-0.03,0.04,-0.65,-0,-2,-0,0.05,,63,4326,7,24,58,0.502,0.0,546,4.94,13.4,0.0,1,24.3,2.55,5.2,0,0,0,1,0,0,250,250,0,,,,,,,,,,,,,,,,
31003,1620404211606,,,,,,,,-0.06,0.06,-0.61,-0,-2,-0,0.09,,63,4419,7,24,58,0.502,0.0,561,4.88,13.4,0.0,1,25.5,2.59,5.2,0,0,0,1,0,0,250,250,0,,,,,,,,,,,,,,,,
31023,1620404211626,,,,,,,,-0.06,0.05,-0.66,-0,0,-0,0.08,,63,4338,7,24,58,0.502,0.0,556,4.93,13.3,0.0,1,24.5,2.55,5.2,0,0,0,1,0,0,250,250,0,,,,,,,,,,,,,,,,
31043,1620404211646,13,8,33,35,31,33,-1,-0.02,0.03,-0.77,-0,2,0,0.04,0,63,4399,7,24,59,0.502,0.0,556,4.94,13.3,0.0,1,25.5,2.58,5.2,0,0,0,1,0,0,250,250,0,45.845802,5.178921,0.0,224.9,6,3,2.5,0,0.0,-1,0.0,0.0,0.0,0,0.0,0.5174
31063,1620404211666,,,,,,,,0.0,0.02,-0.88,-0,4,1,0.02,,63,4390,7,24,58,0.502,0.0,568,4.93,13.3,0.0,1,25.1,2.58,5.2,0,0,0,1,0,0,250,250,0,,,,,,,,,,,,,,,,
31083,1620404211686,,,,,,,,0.06,-0.0,-0.97,-0,5,1,0.06,,63,4335,7,24,58,0.502,0.0,553,4.86,13.1,0.0,1,24.4,2.55,5.2,0,0,0,1,0,0,250,250,0,,,,,,,,,,,,,,,,
31103,1620404211706,,,,,,,,0.11,0.0,-1.05,-0,5,1,0.11,,63,4443,7,24,59,0.501,0.0,565,4.89,13.2,0.0,1,26.1,2.62,5.2,0,0,0,1,0,0,250,250,0,,,,,,,,,,,,,,,,
31123,1620404211726,,,,,,,,0.14,0.01,-1.05,-0,4,0,0.14,,63,4370,7,24,58,0.501,0.0,558,4.94,13.2,0.0,1,24.9,2.56,5.2,0,0,0,1,0,0,250,250,0,,,,,,,,,,,,,,,,
31143,1620404211746,12,7,33,33,31,33,-1,0.17,0.02,-1.06,-0,3,0,0.17,0,63,4416,7,24,58,0.501,0.0,563,4.92,13.1,0.0,1,25.5,1.43,5.3,0,0,0,1,0,0,250,250,0,45.845802,5.178921,0.0,224.9,6,3,2.5,0,0.0,-1,0.0,,0.0,0,0.0,0.519
31163,1620404211766,,,,,,,,0.16,0.02,-1.04,-0,2,0,0.16,,63,4431,7,24,59,0.501,0.0,561,4.95,13.3,0.0,1,25.9,2.61,5.3,0,0,0,1,0,0,250,250,0,,,,,,,,,,,,,,,,
31183,1620404211786,,,,,,,,0.14,-0.01,-0.94,-0,0,0,0.14,,63,4395,7,24,58,0.501,0.0,559,4.96,13.2,0.0,1,25.2,1.42,5.3,0,0,0,1,0,0,250,250,0,,,,,,,,,,,,,,,,
31203,1620404211806,,,,,,,,0.11,-0.02,-0.88,-0,-2,0,0.11,,63,4446,7,24,59,0.501,0.0,569,4.93,13.3,0.0,1,26.1,2.62,5.3,0,0,0,1,0,0,250,250,0,,,,,,,,,,,,,,,,
31223,1620404211826,,,,,,,,0.08,-0.04,-0.75,-0,-3,-0,0.09,,63,4419,7,24,58,0.501,0.0,562,4.96,13.3,0.0,1,25.5,1.43,5.3,0,0,0,1,0,0,250,250,0,,,,,,,,,,,,,,,,
31243,1620404211846,11,7,33,35,31,33,-1,0.02,-0.02,-0.52,-0,-5,-0,0.03,0,63,4393,7,24,58,0.502,0.0,565,4.92,13.3,0.0,1,25.2,1.42,5.2,0,0,0,1,0,0,250,250,0,45.845802,5.178921,0.0,224.9,6,3,2.5,0,0.0,-1,0.0,0.0,0.0,0,0.0,0.5207
31263,1620404211866,,,,,,,,-0.05,0.01,-0.33,-0,-6,-1,0.05,,63,4447,7,24,58,0.502,0.0,563,4.92,13.4,0.0,1,25.8,1.45,5.2,0,0,0,1,0,0,250,250,0,,,,,,,,,,,,,,,,
31283,1620404211886,,,,,,,,-0.1,0.03,-0.3,-0,-7,-1,0.11,,63,4391,7,24,58,0.502,0.0,561,4.95,13.4,0.0,1,25.1,2.58,5.2,0,0,0,1,0,0,250,250,0,,,,,,,,,,,,,,,,
31303,1620404211906,,,,,,,,-0.13,0.05,-0.24,-0,-7,-2,0.14,,63,4426,7,24,58,0.502,0.0,561,4.97,13.4,0.0,1,25.6,2.59,5.2,0,0,0,1,0,0,250,250,0,,,,,,,,,,,,,,,,
31323,1620404211926,,,,,,,,-0.14,0.07,-0.26,-0,-5,-2,0.15,,63,4430,7,24,58,0.501,0.0,560,4.93,13.4,0.0,1,25.6,2.59,5.2,0,0,0,1,0,0,250,250,0,,,,,,,,,,,,,,,,
31343,1620404211946,12,7,33,35,31,33,-1,-0.12,0.05,-0.32,-0,-3,-1,0.13,0,63,4396,7,24,58,0.501,0.0,570,4.89,13.4,0.0,1,25.2,2.58,5.2,0,0,0,1,0,0,250,250,0,45.845802,5.178921,0.0,224.9,6,3,2.5,0,0.0,-1,0.0,,0.0,0,0.0,0.5224
31363,1620404211966,,,,,,,,-0.1,0.03,-0.46,-0,-1,-1,0.11,,63,4429,7,24,58,0.501,0.0,562,4.9,13.3,0.0,1,25.6,2.59,5.2,0,0,0,1,0,0,250,250,0,,,,,,,,,,,,,,,,
31383,1620404211986,,,,,,,,-0.07,-0.0,-0.59,-0,-0,-0,0.07,,63,4384,7,24,58,0.501,0.0,569,4.87,13.2,0.0,1,25.1,2.57,5.2,0,0,0,1,0,0,250,250,0,,,,,,,,,,,,,,,,
31403,1620404211991,,,,,,,,-0.04,-0.02,-0.7,-0,1,0,0.05,,63,4392,7,24,58,0.501,0.0,560,4.88,13.3,0.0,1,25.2,2.58,5.2,0,0,0,1,0,0,250,250,0,,,,,,,,,,,,,,,,
31423,1620404212011,,,,,,,,0.02,-0.02,-0.8,-0,2,0,0.03,,63,4394,7,24,58,0.501,0.0,563,4.87,13.2,0.0,1,25.2,2.58,5.2,0,0,0,1,0,0,250,250,0,,,,,,,,,,,,,,,,
31443,1620404212031,12,7,33,35,31,33,-1,0.07,-0.03,-0.9,-0,3,0,0.07,0,63,4381,7,24,58,0.501,0.0,567,4.86,13.2,0.0,1,25.0,2.57,5.2,0,0,0,1,0,0,250,250,0,45.845802,5.178921,0.0,224.9,6,3,2.5,0,0.0,-1,0.0,0.0,0.0,0,0.0,0.524
31463,1620404212051,,,,,,,,0.1,-0.02,-0.99,-0,3,0,0.1,,63,4392,7,24,58,0.501,0.0,554,4.96,13.2,0.0,1,25.2,1.42,5.2,0,0,0,1,0,0,250,250,0,,,,,,,,,,,,,,,,
31483,1620404212071,,,,,,,,0.14,-0.0,-1.07,-0,1,0,0.14,,63,4376,7,24,58,0.502,0.0,566,4.97,13.3,0.0,1,25.0,1.41,5.2,0,0,0,1,0,0,250,250,0,,,,,,,,,,,,,,,,
31503,1620404212103,,,,,,,,0.16,0.0,-1.05,-0,-1,-0,0.16,,63,4385,7,24,58,0.501,0.0,554,4.95,13.2,0.0,1,25.1,1.41,5.2,0,0,0,1,0,0,250,250,0,,,,,,,,,,,,,,,,
31523,1620404212123,,,,,,,,0.15,-0.01,-1.02,-0,-2,-0,0.15,,63,4381,7,24,58,0.502,0.0,557,4.96,13.3,0.0,1,25.0,2.57,5.2,0,0,0,1,0,0,250,250,0,,,,,,,,,,,,,,,,
31543,1620404212143,12,7,33,35,31,33,-1,0.11,-0.0,-0.85,-0,-3,-0,0.11,0,63,4372,7,24,58,0.502,0.0,553,4.93,13.4,0.0,1,24.9,2.56,5.1,0,0,0,1,0,0,250,250,0,45.845802,5.178921,0.0,224.9,6,3,2.5,0,0.0,-1,0.0,,0.0,0,0.0,0.5257
31563,1620404212163,,,,,,,,0.06,0.01,-0.74,-0,-3,-1,0.06,,63,4410,7,24,58,0.502,0.0,557,4.92,13.4,0.0,1,25.4,1.43,5.1,0,0,0,1,0,0,250,250,0,,,,,,,,,,,,,,,,
31583,1620404212183,,,,,,,,-0.0,0.03,-0.71,-0,-3,-1,0.03,,63,4383,7,24,58,0.502,0.0,562,4.92,13.4,0.0,1,25.0,2.57,5.1,0,0,0,1,0,0,250,250,0,,,,,,,,,,,,,,,,
31603,1620404212203,,,,,,,,-0.05,0.04,-0.64,-0,-3,-1,0.07,,63,4378,7,24,58,0.502,0.0,552,4.92,13.4,0.0,1,25.0,2.57,5.1,0,0,0,1,0,0,250,250,0,,,,,,,,,,,,,,,,
31623,1620404212223,,,,,,,,-0.07,0.04,-0.62,-0,-1,-0,0.08,,63,4401,7,24,58,0.502,0.0,567,4.91,13.3,0.0,1,25.3,2.58,5.1,0,0,0,1,0,0,250,250,0,,,,,,,,,,,,,,,,
31643,1620404212243,11,7,33,35,31,33,-0,-0.07,0.01,-0.66,-0,1,0,0.07,0,63,4369,7,24,58,0.502,0.0,558,4.86,13.2,0.0,1,24.9,2.56,5.1,0,0,0,1,0,0,250,250,0,45.845802,5.178921,0.0,224.9,6,3,2.5,0,0.0,-1,0.0,0.0,0.0,0,0.0,0.5274
31663,1620404212263,,,,,,,,-0.06,0.0,-0.77,-0,3,1,0.06,,63,4404,7,24,58,0.501,0.0,561,4.96,13.3,0.0,1,25.3,2.58,5.1,0,0,0,1,0,0,250,250,0,,,,,,,,,,,,,,,,
31683,1620404212283,,,,,,,,-0.02,-0.03,-0.87,-0,4,1,0.03,,63,4392,7,24,58,0.501,0.0,562,4.9,13.1,0.0,1,25.2,2.58,5.1,0,0,0,1,0,0,250,250,0,,,,,,,,,,,,,,,,
31703,1620404212303,,,,,,,,0.03,-0.03,-0.96,-0,4,1,0.05,,63,4403,7,24,58,0.501,0.0,562,4.92,13.1,0.0,1,25.3,2.58,5.1,0,0,0,1,0,0,250,250,0,,,,,,,,,,,,,,,,
31723,1620404212323,,,,,,,,0.09,-0.02,-1.05,-0,3,1,0.09,,63,4395,7,24,58,0.501,0.0,567,4.88,13.1,0.0,1,25.2,1.42,5.1,0,0,0,1,0,0,250,250,0,,,,,,,,,,,,,,,,
31743,1620404212343,12,5,33,35,31,33,-1,0.13,-0.01,-1.05,-0,2,0,0.13,0,63,4367,7,24,58,0.501,0.0,560,4.92,13.1,0.0,1,24.8,1.4,5.2,0,0,0,1,0,0,250,250,0,45.845802,5.178921,0.0,224.9,6,3,2.5,0,0.0,-1,0.0,,0.0,0,0.0,0.529
31763,1620404212363,,,,,,,,0.14,-0.01,-1.08,-0,1,0,0.14,,63,4396,7,24,58,0.501,0.0,567,4.94,13.2,0.0,1,25.0,1.41,5.2,0,0,0,1,0,0,250,250,0,,,,,,,,,,,,,,,,
31783,1620404212383,,,,,,,,0.12,-0.03,-1.01,-0,-1,1,0.13,,63,4362,7,24,58,0.501,0.0,557,4.92,13.4,0.0,1,24.8,2.56,5.2,0,0,0,1,0,0,250,250,0,,,,,,,,,,,,,,,,
31803,1620404212403,,,,,,,,0.07,-0.03,-0.81,-0,-3,0,0.08,,63,4356,7,24,58,0.501,0.0,552,4.92,13.3,0.0,1,24.7,1.4,5.2,0,0,0,1,0,0,250,250,0,,,,,,,,,,,,,,,,
31823,1620404212423,,,,,,,,0.02,-0.03,-0.66,-0,-4,-1,0.03,,63,4383,7,24,58,0.502,0.0,557,4.93,13.4,0.0,1,25.0,2.57,5.2,0,0,0,1,0,0,250,250,0,,,,,,,,,,,,,,,,
31843,1620404212443,11,7,33,35,31,33,-1,-0.03,-0.0,-0.53,-0,-4,-1,0.03,0,63,4357,7,24,58,0.502,0.0,550,4.96,13.4,0.0,1,24.7,2.56,5.1,0,0,0,1,0,0,250,250,0,45.845802,5.178921,0.0,224.9,6,3,2.5,0,0.0,-1,0.0,0.0,0.0,0,0.0,0.5307
31863,1620404212463,,,,,,,,-0.06,0.01,-0.5,-0,-2,-0,0.06,,63,4353,7,24,58,0.501,0.0,558,4.95,13.4,0.0,1,24.7,2.56,5.1,0,0,0,1,0,0,250,250,0,,,,,,,,,,,,,,,,
31883,1620404212483,,,,,,,,-0.07,0.01,-0.58,-0,0,-0,0.07,,63,4384,7,24,58,0.501,0.0,551,4.96,13.4,0.0,1,25.1,2.57,5.1,0,0,0,1,0,0,250,250,0,,,,,,,,,,,,,,,,
31903,1620404212503,,,,,,,,-0.04,-0.01,-0.7,-0,2,0,0.04,,63,4359,7,24,58,0.501,0.0,563,4.92,13.3,0.0,1,24.7,2.56,5.1,0,0,0,1,0,0,250,250,0,,,,,,,,,,,,,,,,
31923,1620404212523,,,,,,,,0.01,-0.01,-0.81,-0,3,0,0.02,,63,4334,7,24,58,0.501,0.0,557,4.86,13.2,0.0,1,24.4,2.55,5.1,0,0,0,1,0,0,250,250,0,,,,,,,,,,,,,,,,
31943,1620404212543,12,6,33,35,31,33,-1,0.07,-0.01,-0.91,-0,2,0,0.08,0,63,4362,7,24,58,0.501,0.0,554,4.93,13.2,0.0,1,24.8,1.4,5.1,0,0,0,1,0,0,250,250,0,45.845802,5.178921,0.0,224.9,6,3,2.5,0,0.0,-1,0.0,,0.0,0,0.0,0.5324
31963,1620404212563,,,,,,,,0.09,0.01,-0.88,-0,1,-0,0.09,,63,4337,7,24,58,0.501,0.0,559,4.88,13.1,0.0,1,24.5,1.39,5.1,0,0,0,1,0,0,250,250,0,,,,,,,,,,,,,,,,
31983,1620404212583,,,,,,,,0.09,0.01,-0.9,-0,-0,0,0.09,,63,4325,7,24,59,0.501,0.0,547,4.95,13.3,0.0,1,24.5,2.57,5.1,0,0,0,1,0,0,250,250,0,,,,,,,,,,,,,,,,
32003,1620404212603,,,,,,,,0.05,0.0,-0.75,-0,-2,-0,0.05,,63,4381,7,24,59,0.501,0.0,561,4.97,13.3,0.0,1,25.2,1.43,5.1,0,0,0,1,0,0,250,250,0,,,,,,,,,,,,,,,,
32023,1620404212623,,,,,,,,0.0,-0.0,-0.64,-0,-4,-1,0.0,,63,4338,7,24,59,0.502,0.0,549,4.95,13.4,0.0,1,24.7,1.41,5.1,0,0,0,1,0,0,250,250,0,,,,,,,,,,,,,,,,
32043,1620404212643,13,5,33,35,31,33,-1,-0.05,0.01,-0.55,-0,-4,-1,0.05,0,63,4336,7,24,59,0.501,0.0,555,4.92,13.4,0.0,1,24.7,2.57,5.1,0,0,0,1,0,0,250,250,0,45.845802,5.178921,0.0,224.9,6,3,2.5,0,0.0,-1,0.0,0.0,0.0,0,0.0,0.534
32063,1620404212663,,,,,,,,-0.06,0.01,-0.56,-0,-3,-1,0.06,,63,4330,7,24,58,0.502,0.0,551,4.95,13.4,0.0,1,24.4,2.55,5.1,0,0,0,1,0,0,250,250,0,,,,,,,,,,,,,,,,
32083,1620404212683,,,,,,,,-0.02,-0.0,-0.68,-0,-0,-0,0.02,,63,4309,7,24,58,0.502,0.0,548,4.9,13.4,0.0,1,24.1,2.54,5.1,0,0,0,1,0,0,250,250,0,,,,,,,,,,,,,,,,
32103,1620404212701,,,,,,,,0.03,-0.02,-0.79,-0,1,0,0.04,,63,4279,7,24,58,0.502,0.0,551,4.86,13.2,0.0,1,23.7,2.52,5.1,0,0,0,1,0,0,250,250,0,,,,,,,,,,,,,,,,
32123,1620404212721,,,,,,,,0.06,-0.01,-0.84,-0,1,-0,0.06,,63,4315,7,24,58,0.502,0.0,550,4.87,13.1,0.0,1,24.2,1.38,5.1,0,0,0,1,0,0,250,250,0,,,,,,,,,,,,,,,,
32143,1620404212741,11,7,33,35,31,33,-1,0.06,0.01,-0.8,-0,-0,-0,0.06,0,63,4303,7,24,58,0.501,0.0,558,4.92,13.2,0.0,1,24.0,1.37,5.0,0,0,0,1,0,0,250,250,0,45.845802,5.178921,0.0,224.9,6,3,2.5,0,0.0,-1,0.0,,0.0,0,0.0,0.5357
32163,1620404212761,,,,,,,,0.03,0.01,-0.63,-0,-3,-1,0.03,,63,4295,7,24,59,0.501,0.0,539,4.92,13.4,0.0,1,24.1,2.55,5.0,0,0,0,1,0,0,250,250,0,,,,,,,,,,,,,,,,
32183,1620404212781,,,,,,,,-0.02,0.01,-0.51,-0,-5,-1,0.02,,63,4312,7,24,59,0.502,0.0,555,4.92,13.4,0.0,1,24.4,2.56,5.0,0,0,0,1,0,0,250,250,0,,,,,,,,,,,,,,,,
32203,1620404212803,,,,,,,,-0.06,0.03,-0.47,-0,-4,-1,0.06,,63,4292,7,24,59,0.502,0.0,547,4.92,13.4,0.0,1,24.1,2.55,5.0,0,0,0,1,0,0,250,250,0,,,,,,,,,,,,,,,,
32223,1620404212823,,,,,,,,-0.03,0.02,-0.59,-0,-1,-0,0.04,,63,4280,7,24,58,0.502,0.0,546,4.93,13.3,0.0,1,23.7,2.52,5.0,0,0,0,1,0,0,250,250,0,,,,,,,,,,,,,,,,
32243,1620404212843,13,5,33,35,31,33,-1,0.01,-0.01,-0.71,-0,1,0,0.01,0,63,4285,7,24,58,0.502,0.0,550,4.95,13.3,0.0,1,23.8,2.52,5.0,0,0,0,1,0,0,250,250,0,45.845802,5.178921,0.0,224.9,6,3,2.5,0,0.0,-1,0.0,0.0,0.0,0,0.0,0.5374
32263,1620404212863,,,,,,,,0.04,-0.0,-0.8,-0,2,0,0.04,,63,4262,7,24,58,0.502,0.0,547,4.87,13.1,0.0,1,23.5,2.51,5.0,0,0,0,1,0,0,250,250,0,,,,,,,,,,,,,,,,
32283,1620404212883,,,,,,,,0.04,-0.01,-0.69,-0,-0,0,0.04,,63,4220,7,24,59,0.502,0.0,550,4.91,13.2,0.0,1,23.2,1.35,5.0,0,0,0,1,0,0,250,250,0,,,,,,,,,,,,,,,,
32303,1620404212903,,,,,,,,-0.03,0.01,-0.59,-0,-2,-0,0.03,,63,4246,7,24,59,0.502,0.0,528,4.92,13.4,0.0,1,23.5,1.37,5.0,0,0,0,1,0,0,250,250,0,,,,,,,,,,,,,,,,
32323,1620404212923,,,,,,,,-0.07,0.03,-0.56,-0,-3,-1,0.08,,63,4297,7,24,59,0.502,0.0,551,4.91,13.4,0.0,1,24.2,2.55,5.0,0,0,0,1,0,0,250,250,0,,,,,,,,,,,,,,,,
32343,1620404212943,12,7,33,35,31,33,-2,-0.06,0.03,-0.68,-0,-2,-0,0.07,0,63,4218,7,24,59,0.502,0.0,532,4.94,13.4,0.0,1,23.2,2.51,4.9,0,0,0,1,0,0,250,250,0,45.845802,5.178921,0.0,224.9,6,3,2.5,0,0.0,-1,0.0,,0.0,0,0.0,0.539
32363,1620404212963,,,,,,,,-0.0,0.02,-0.79,-0,-0,0,0.02,,63,4260,7,24,59,0.502,0.0,541,4.89,13.3,0.0,1,23.7,2.53,4.9,0,0,0,1,0,0,250,250,0,,,,,,,,,,,,,,,,
32383,1620404212983,,,,,,,,0.05,0.01,-0.8,-0,1,0,0.05,,63,4261,7,24,59,0.502,0.0,546,4.88,13.2,0.0,1,23.7,2.53,4.9,0,0,0,1,0,0,250,250,0,,,,,,,,,,,,,,,,
32403,1620404213003,,,,,,,,0.04,0.0,-0.73,-0,-0,0,0.04,,63,4208,7,24,59,0.502,0.0,540,4.93,13.2,0.0,1,22.8,1.33,4.9,0,0,0,1,0,0,250,250,0,,,,,,,,,,,,,,,,
32423,1620404213004,,,,,,,,-0.02,0.02,-0.61,-0,-1,-0,0.03,,63,4230,7,24,59,0.502,0.0,530,4.95,13.4,0.0,1,23.3,2.52,4.9,0,0,0,1,0,0,250,250,0,,,,,,,,,,,,,,,,
32443,1620404213024,11,7,33,35,31,33,-1,-0.06,0.04,-0.65,-0,-2,0,0.07,0,63,4259,7,24,59,0.502,0.0,536,4.92,13.4,0.0,1,23.7,2.53,4.9,0,0,0,1,0,0,250,250,0,45.845802,5.178921,0.0,224.9,6,3,2.5,0,0.0,-1,0.0,0.0,0.0,0,0.0,0.5407
32463,1620404213044,,,,,,,,-0.04,0.05,-0.76,-0,0,1,0.06,,63,4183,7,24,59,0.502,0.0,546,4.95,13.4,0.0,1,22.7,2.49,4.9,0,0,0,1,0,0,250,250,0,,,,,,,,,,,,,,,,
32483,1620404213064,,,,,,,,0.01,0.04,-0.86,-0,1,1,0.04,,63,4311,7,24,59,0.502,0.0,533,4.89,13.3,0.0,1,24.3,2.56,4.9,0,0,0,1,0,0,250,250,0,,,,,,,,,,,,,,,,
32503,1620404213102,,,,,,,,0.04,0.04,-0.85,-0,1,0,0.06,,63,4228,7,24,59,0.502,0.0,549,4.91,13.2,0.0,1,23.3,1.36,4.9,0,0,0,1,0,0,250,250,0,,,,,,,,,,,,,,,,
32523,1620404213122,,,,,,,,0.03,0.03,-0.74,-0,-0,-0,0.04,,63,4204,7,24,59,0.502,0.0,533,4.95,13.4,0.0,1,23.0,2.5,4.9,0,0,0,1,0,0,250,250,0,,,,,,,,,,,,,,,,
32543,1620404213142,12,5,33,35,31,33,-1,-0.02,0.03,-0.52,-0,-2,-1,0.03,0,63,4312,7,24,59,0.502,0.0,547,4.94,13.4,0.0,1,24.4,1.4,5.1,0,0,0,1,0,0,250,250,0,45.845802,5.178921,0.0,224.9,6,3,2.5,0,0.0,-1,0.0,,0.0,0,0.0,0.5424
32563,1620404213162,,,,,,,,-0.04,0.03,-0.54,-0,-2,-0,0.06,,63,4238,7,24,59,0.502,0.0,537,4.94,13.4,0.0,1,23.4,2.52,5.1,0,0,0,1,0,0,250,250,0,,,,,,,,,,,,,,,,
32583,1620404213182,,,,,,,,-0.03,0.05,-0.66,-0,0,0,0.06,,63,4252,7,24,59,0.502,0.0,541,4.9,13.4,0.0,1,23.6,2.53,5.1,0,0,0,1,0,0,250,250,0,,,,,,,,,,,,,,,,
32603,1620404213202,,,,,,,,0.0,0.03,-0.78,-0,2,1,0.03,,63,4336,7,24,59,0.502,0.0,553,4.92,13.3,0.0,1,24.7,2.57,5.1,0,0,0,1,0,0,250,250,0,,,,,,,,,,,,,,,,
32623,1620404213222,,,,,,,,0.04,0.04,-0.88,-0,2,1,0.05,,63,4236,7,24,58,0.502,0.0,542,4.84,13.1,0.0,1,23.1,1.33,5.1,0,0,0,1,0,0,250,250,0,,,,,,,,,,,,,,,,
32643,1620404213242,12,8,33,35,31,33,-1,0.05,0.02,-0.86,-0,1,0,0.05,0,63,4276,7,24,59,0.501,0.0,550,4.94,13.3,0.0,1,23.9,2.54,4.9,0,0,0,1,0,0,250,250,0,45.845802,5.178921,0.0,224.9,6,3,2.5,0,0.0,-1,0.0,0.0,0.0,0,0.0,0.544
32663,1620404213262,,,,,,,,0.02,0.02,-0.75,-0,-1,0,0.03,,63,4315,7,24,59,0.502,0.0,542,4.93,13.3,0.0,1,24.4,1.4,4.9,0,0,0,1,0,0,250,250,0,,,,,,,,,,,,,,,,
32683,1620404213282,,,,,,,,-0.02,0.04,-0.53,-0,-3,-0,0.04,,63,4273,7,24,59,0.502,0.0,548,4.92,13.4,0.0,1,23.9,2.54,4.9,0,0,0,1,0,0,250,250,0,,,,,,,,,,,,,,,,
32703,1620404213302,,,,,,,,-0.05,0.05,-0.48,-0,-2,-0,0.07,,63,4287,7,24,59,0.502,0.0,535,4.94,13.4,0.0,1,24.0,2.54,4.9,0,0,0,1,0,0,250,250,0,,,,,,,,,,,,,,,,
32723,1620404213322,,,,,,,,-0.04,0.04,-0.61,-0,-1,-0,0.06,,63,4339,7,24,59,0.502,0.0,548,4.95,13.4,0.0,1,24.7,2.57,4.9,0,0,0,1,0,0,250,250,0,,,,,,,,,,,,,,,,
32743,1620404213342,13,6,33,35,31,33,-1,-0.0,0.02,-0.72,-0,1,1,0.02,0,63,4284,7,24,59,0.502,0.0,555,4.86,13.2,0.0,1,24.0,2.54,4.9,0,0,0,1,0,0,250,250,0,45.845802,5.178921,0.0,224.9,6,3,2.5,0,0.0,-1,0.0,,0.0,0,0.0,0.5457
32763,1620404213362,,,,,,,,0.04,0.02,-0.83,-0,2,1,0.05,,63,4322,7,24,59,0.502,0.0,547,4.87,13.1,0.0,1,24.5,2.56,5.0,0,0,0,1,0,0,250,250,0,,,,,,,,,,,,,,,,
32783,1620404213382,,,,,,,,0.07,0.03,-0.85,-0,1,0,0.07,,63,4330,7,24,59,0.502,0.0,560,4.87,13.1,0.0,1,24.6,1.41,5.0,0,0,0,1,0,0,250,250,0,,,,,,,,,,,,,,,,
32803,1620404213402,,,,,,,,0.06,0.03,-0.71,-0,-0,-0,0.07,,63,4275,7,24,59,0.502,0.0,547,4.9,13.2,0.0,1,23.9,1.38,5.0,0,0,0,1,0,0,250,250,0,,,,,,,,,,,,,,,,
32823,1620404213422,,,,,,,,0.01,0.02,-0.49,-0,-2,-1,0.03,,63,4320,7,24,59,0.502,0.0,549,4.91,13.3,0.0,1,24.5,2.56,5.0,0,0,0,1,0,0,250,250,0,,,,,,,,,,,,,,,,
32843,1620404213442,11,7,33,35,31,33,-1,-0.04,0.03,-0.37,-0,-3,-1,0.05,0,63,4340,7,24,59,0.502,0.0,542,4.93,13.4,0.0,1,24.7,2.57,5.1,0,0,0,1,0,0,250,250,0,45.845802,5.178921,0.0,224.9,6,3,2.5,0,0.0,-1,0.0,0.0,0.0,0,0.0,0.5474
32863,1620404213462,,,,,,,,-0.08,0.06,-0.33,-0,-3,-0,0.1,,63,4247,7,24,59,0.502,0.0,550,4.91,13.4,0.0,1,23.5,2.53,5.1,0,0,0,1,0,0,250,250,0,,,,,,,,,,,,,,,,
32883,1620404213482,,,,,,,,-0.11,0.07,-0.31,-0,-1,-0,0.13,,63,4309,7,24,59,0.501,0.0,547,4.9,13.3,0.0,1,24.3,2.56,5.1,0,0,0,1,0,0,250,250,0,,,,,,,,,,,,,,,,
32903,1620404213502,,,,,,,,-0.09,0.06,-0.45,-0,1,0,0.11,,63,4343,7,24,59,0.502,0.0,548,4.93,13.4,0.0,1,24.7,2.57,5.1,0,0,0,1,0,0,250,250,0,,,,,,,,,,,,,,,,
32923,1620404213522,,,,,,,,-0.02,0.04,-0.58,-0,2,0,0.04,,63,4271,7,24,59,0.502,0.0,554,4.88,13.2,0.0,1,23.8,2.54,5.1,0,0,0,1,0,0,250,250,0,,,,,,,,,,,,,,,,
32943,1620404213542,13,5,33,35,31,33,-0,0.03,0.03,-0.7,-0,2,0,0.05,0,63,4391,7,24,59,0.501,0.0,550,4.86,13.2,0.0,1,25.4,1.43,5.2,0,0,0,1,0,0,250,250,0,45.845802,5.178921,0.0,224.9,6,3,2.5,0,0.0,-1,0.0,,0.0,0,0.0,0.549
32963,1620404213562,,,,,,,,0.05,0.04,-0.73,-0,1,0,0.07,,63,4317,7,24,58,0.502,0.0,558,4.9,13.2,0.0,1,24.2,1.38,5.2,0,0,0,1,0,0,250,250,0,,,,,,,,,,,,,,,,
32983,1620404213582,,,,,,,,0.07,0.04,-0.7,-0,-2,-0,0.08,,63,4311,7,24,59,0.502,0.0,540,4.94,13.3,0.0,1,24.3,1.4,5.2,0,0,0,1,0,0,250,250,0,,,,,,,,,,,,,,,,
33003,1620404213602,,,,,,,,0.05,0.03,-0.64,-0,-4,-0,0.06,,63,4434,7,24,59,0.502,0.0,561,4.98,13.3,0.0,1,25.9,1.46,5.2,0,0,0,1,0,0,250,250,0,,,,,,,,,,,,,,,,
33023,1620404213622,,,,,,,,0.02,0.02,-0.45,-0,-6,-1,0.03,,63,4351,7,24,59,0.502,0.0,558,4.95,13.4,0.0,1,24.8,2.57,5.2,0,0,0,1,0,0,250,250,0,,,,,,,,,,,,,,,,
33043,1620404213642,12,7,33,35,31,33,-1,-0.03,0.02,-0.25,-0,-6,-1,0.04,0,63,4393,7,24,59,0.502,0.0,550,4.93,13.4,0.0,1,25.4,2.59,5.2,0,0,0,1,0,0,250,250,0,45.845802,5.178921,0.0,224.9,6,3,2.5,0,0.0,-1,0.0,0.0,0.0,0,0.0,0.5507
33063,1620404213662,,,,,,,,-0.09,0.06,-0.15,-0,-4,-1,0.11,,63,4414,7,24,59,0.502,0.0,562,4.93,13.4,0.0,1,25.7,2.6,5.2,0,0,0,1,0,0,250,250,0,,,,,,,,,,,,,,,,
33083,1620404213682,,,,,,,,-0.13,0.08,-0.1,-0,-3,-1,0.16,,63,4365,7,24,59,0.502,0.0,550,4.93,13.4,0.0,1,25.0,2.58,5.2,0,0,0,1,0,0,250,250,0,,,,,,,,,,,,,,,,
33103,1620404213702,,,,,,,,-0.16,0.09,-0.13,-0,-2,-0,0.18,,64,4443,7,24,59,0.502,0.0,564,4.9,13.4,0.0,1,26.1,2.62,5.2,0,0,0,1,0,0,250,250,0,,,,,,,,,,,,,,,,
33123,1620404213722,,,,,,,,-0.14,0.07,-0.25,-0,-0,-0,0.16,,64,4380,7,24,58,0.502,0.0,557,4.87,13.3,0.0,1,25.0,2.57,5.2,0,0,0,1,0,0,250,250,0,,,,,,,,,,,,,,,,
33143,1620404213742,12,6,33,35,31,33,-1,-0.12,0.07,-0.35,-0,2,0,0.14,0,64,4409,7,24,58,0.502,0.0,561,4.92,13.3,0.0,1,25.4,2.59,5.2,0,0,0,1,0,0,250,250,0,45.845802,5.178921,0.0,224.9,6,3,2.5,0,0.0,-1,0.0,,0.0,0,0.0,0.5524
33163,1620404213762,,,,,,,,-0.11,0.06,-0.49,-0,4,1,0.12,,64,4444,7,24,58,0.502,0.0,566,4.88,13.3,0.0,1,25.8,1.44,5.2,0,0,0,1,0,0,250,250,0,,,,,,,,,,,,,,,,
33183,1620404213782,,,,,,,,-0.06,0.04,-0.62,-0,5,1,0.08,,64,4356,7,24,58,0.502,0.0,562,4.8,13.1,0.0,1,24.7,2.58,5.2,0,0,0,1,0,0,250,250,0,,,,,,,,,,,,,,,,
33203,1620404213802,,,,,,,,0.01,0.04,-0.73,-0,5,1,0.04,,64,4433,7,24,59,0.501,0.0,567,4.86,13.2,0.0,1,25.9,2.62,5.2,0,0,0,1,0,0,250,250,0,,,,,,,,,,,,,,,,
33223,1620404213822,,,,,,,,0.06,0.04,-0.84,-0,4,1,0.08,,64,4375,7,24,59,0.502,0.0,559,4.95,13.2,0.0,1,25.2,2.58,5.2,0,0,0,1,0,0,250,250,0,,,,,,,,,,,,,,,,
33243,1620404213842,12,7,33,34,31,33,-1,0.11,0.05,-0.89,-0,3,0,0.12,0,64,4412,7,24,58,0.502,0.0,567,4.91,13.2,0.0,1,25.4,1.43,5.2,0,0,0,1,0,0,250,250,0,45.845802,5.178921,0.0,224.9,6,3,2.5,0,0.0,-1,0.0,0.0,0.0,0,0.0,0.5541
33263,1620404213862,,,,,,,,0.13,0.05,-0.99,-0,2,1,0.15,,64,4477,7,24,59,0.501,0.0,560,4.96,13.3,0.0,1,26.5,1.47,5.2,0,0,0,1,0,0,250,250,0,,,,,,,,,,,,,,,,
33283,1620404213882,,,,,,,,0.14,0.04,-0.98,-0,-0,0,0.14,,64,4414,7,24,58,0.501,0.0,564,4.96,13.2,0.0,1,25.4,1.43,5.2,0,0,0,1,0,0,250,250,0,,,,,,,,,,,,,,,,
33303,1620404213902,,,,,,,,0.14,0.02,-0.93,0,-3,0,0.14,,64,4432,7,24,58,0.501,0.0,566,4.98,13.3,0.0,1,25.7,1.44,5.2,0,0,0,1,0,0,250,250,0,,,,,,,,,,,,,,,,
33323,1620404213922,,,,,,,,0.15,0.02,-0.86,0,-4,-0,0.15,,64,4488,7,24,59,0.501,0.0,560,4.91,13.4,0.0,1,26.6,2.64,5.2,0,0,0,1,0,0,250,250,0,,,,,,,,,,,,,,,,
33343,1620404213942,12,8,33,34,31,33,-2,0.12,0.02,-0.73,0,-6,-0,0.13,0,64,4422,7,24,58,0.501,0.0,569,4.93,13.3,0.0,1,25.5,1.43,5.3,0,0,0,1,0,0,250,250,0,45.845802,5.178921,0.0,224.9,6,3,2.5,0,0.0,-1,0.0,,0.0,0,0.0,0.5557
33363,1620404213962,,,,,,,,0.1,0.01,-0.63,0,-8,-1,0.1,,64,4513,7,24,58,0.501,0.0,563,4.93,13.3,0.0,1,26.7,1.48,5.3,0,0,0,1,0,0,250,250,0,,,,,,,,,,,,,,,,
33383,1620404213982,,,,,,,,0.09,0.0,-0.59,0,-10,-1,0.09,,64,4488,7,24,58,0.501,0.0,570,4.92,13.3,0.0,1,26.4,1.47,5.3,0,0,0,1,0,0,250,250,0,,,,,,,,,,,,,,,,
33403,1620404214002,,,,,,,,0.09,-0.01,-0.5,0,-11,-1,0.09,,64,4484,7,24,58,0.501,0.0,565,4.88,13.4,0.0,1,26.3,1.46,5.3,0,0,0,1,0,0,250,250,0,,,,,,,,,,,,,,,,
33423,1620404214003,,,,,,,,0.09,0.0,-0.42,0,-12,-1,0.09,,64,4580,7,24,58,0.501,0.0,572,4.92,13.4,0.0,1,27.5,2.67,5.3,0,0,0,1,0,0,250,250,0,,,,,,,,,,,,,,,,
33443,1620404214023,13,7,33,34,31,33,-1,0.07,-0.0,-0.41,0,-14,-2,0.07,0,64,4496,7,24,58,0.501,0.0,580,4.98,13.3,0.0,1,26.5,2.63,5.3,0,0,0,1,0,0,250,250,0,45.845802,5.178921,0.0,224.9,6,3,2.5,0,0.0,-1,0.0,0.0,0.0,0,0.0,0.5574
33463,1620404214043,,,,,,,,0.1,-0.01,-0.46,0,-16,-2,0.1,,64,4576,7,24,58,0.501,0.0,570,4.91,13.4,0.0,1,27.5,2.67,5.4,0,0,0,1,0,0,250,250,0,,,,,,,,,,,,,,,,
33483,1620404214063,,,,,,,,0.17,0.01,-0.5,0,-16,-2,0.17,,64,4585,7,24,58,0.501,0.0,583,4.95,13.2,0.0,1,27.3,1.5,5.4,0,0,0,1,0,0,250,250,0,,,,,,,,,,,,,,,,
33503,1620404214101,,,,,,,,0.19,0.02,-0.63,0,-15,-2,0.2,,64,4531,7,24,57,0.501,0.0,577,4.96,13.2,0.0,1,26.7,1.48,5.4,0,0,0,1,0,0,250,250,0,,,,,,,,,,,,,,,,
33523,1620404214121,,,,,,,,0.21,0.02,-0.74,0,-16,-2,0.21,,64,4579,7,24,57,0.501,0.0,579,4.95,13.1,0.0,1,27.3,1.51,5.4,0,0,0,1,0,0,250,250,0,,,,,,,,,,,,,,,,
33543,1620404214141,13,7,32,35,31,33,-1,0.26,0.01,-0.83,0,-16,-2,0.26,0,64,4491,7,24,57,0.501,0.0,583,4.93,13.1,0.0,1,26.2,1.46,5.4,0,0,0,1,0,0,250,250,0,45.845802,5.178921,0.0,224.9,6,3,2.5,0,0.0,-1,0.0,,0.0,0,0.0,0.559
33563,1620404214161,,,,,,,,0.31,-0.01,-0.93,0,-14,-2,0.31,,64,4506,7,24,57,0.501,0.0,572,4.95,13.3,0.0,1,26.9,2.63,5.4,0,0,0,1,0,0,250,250,0,,,,,,,,,,,,,,,,
33583,1620404214181,,,,,,,,0.3,0.01,-1.02,0,-13,-1,0.3,,64,4544,7,24,57,0.501,0.0,583,4.95,13.2,0.0,1,26.9,1.49,5.4,0,0,0,1,0,0,250,250,0,,,,,,,,,,,,,,,,
33603,1620404214201,,,,,,,,0.32,0.03,-1.1,0,-13,-1,0.32,,64,4486,7,24,57,0.501,0.0,578,4.86,13.1,0.0,1,26.1,1.45,5.4,0,0,0,1,0,0,250,250,0,,,,,,,,,,,,,,,,
33623,1620404214221,,,,,,,,0.37,0.02,-1.17,0,-11,-1,0.37,,64,4537,7,24,57,0.501,0.0,573,4.87,13.1,0.0,1,26.8,1.48,5.4,0,0,0,1,0,0,250,250,0,,,,,,,,,,,,,,,,
33643,1620404214241,11,7,33,35,31,33,-1,0.39,0.01,-1.22,0,-9,-1,0.39,0,64,4497,7,24,57,0.501,0.0,582,4.95,13.2,0.0,1,26.3,2.62,5.4,0,0,0,1,0,0,250,250,0,45.845802,5.178921,0.0,224.9,6,3,2.5,0,0.0,-1,0.0,0.0,0.0,0,0.0,0.5607
33663,1620404214261,,,,,,,,0.39,0.03,-1.28,0,-8,-1,0.39,,64,4471,7,24,57,0.501,0.0,570,4.93,13.2,0.0,1,25.9,2.6,5.4,0,0,0,1,0,0,250,250,0,,,,,,,,,,,,,,,,
33683,1620404214281,,,,,,,,0.4,0.02,-1.34,0,-8,-1,0.4,,64,4498,7,24,57,0.501,0.0,582,4.88,13.1,0.0,1,26.3,1.46,5.4,0,0,0,1,0,0,250,250,0,,,,,,,,,,,,,,,,
33703,1620404214301,,,,,,,,0.44,0.01,-1.4,0,-8,-1,0.44,,64,4451,7,24,57,0.501,0.0,575,4.9,13.1,0.0,1,25.7,1.43,5.4,0,0,0,1,0,0,250,250,0,,,,,,,,,,,,,,,,
33723,1620404214321,,,,,,,,0.45,0.01,-1.39,0,-7,-1,0.45,,64,4454,7,24,57,0.501,0.0,572,4.91,13.1,0.0,1,25.7,1.43,5.4,0,0,0,1,0,0,250,250,0,,,,,,,,,,,,,,,,
33743,1620404214341,12,6,33,34,31,33,-1,0.42,0.0,-1.33,0,-8,-1,0.42,0,64,4429,7,24,57,0.501,0.0,572,4.94,13.3,0.0,1,25.4,1.42,5.4,0,0,0,1,0,0,250,250,0,45.845802,5.178921,0.0,224.9,6,3,2.5,0,0.0,-1,0.0,,0.0,0,0.0,0.5624
33763,1620404214361,,,,,,,,0.38,-0.02,-1.28,0,-9,-1,0.38,,64,4384,7,24,58,0.501,0.0,553,4.93,13.3,0.0,1,25.1,1.41,5.2,0,0,0,1,0,0,250,250,0,,,,,,,,,,,,,,,,
33783,1620404214381,,,,,,,,0.33,-0.03,-1.23,0,-10,-1,0.33,,64,4400,7,24,58,0.501,0.0,560,4.92,13.3,0.0,1,25.3,1.42,5.2,0,0,0,1,0,0,250,250,0,,,,,,,,,,,,,,,,
33803,1620404214401,,,,,,,,0.26,-0.03,-1.09,0,-11,-1,0.26,,64,4364,7,24,58,0.501,0.0,550,4.95,13.4,0.0,1,24.8,1.4,5.2,0,0,0,1,0,0,250,250,0,,,,,,,,,,,,,,,,
33823,1620404214421,,,,,,,,0.2,-0.01,-0.92,0,-10,-1,0.2,,64,4344,7,24,58,0.501,0.0,558,4.91,13.4,0.0,1,24.6,2.55,5.2,0,0,0,1,0,0,250,250,0,,,,,,,,,,,,,,,,
33843,1620404214441,12,5,33,35,31,33,-2,0.15,0.0,-0.91,0,-9,-1,0.15,0,64,4356,7,24,58,0.501,0.0,553,4.89,13.4,0.0,1,24.7,2.56,5.2,0,0,0,1,0,0,250,250,0,45.845802,5.178921,0.0,224.9,6,3,2.5,0,0.0,-1,0.0,0.0,0.0,0,0.0,0.564
33863,1620404214461,,,,,,,,0.14,0.0,-1.0,0,-6,-0,0.14,,64,4335,7,24,58,0.501,0.0,546,4.97,13.4,0.0,1,24.4,2.55,5.1,0,0,0,1,0,0,250,250,0,,,,,,,,,,,,,,,,
33883,1620404214481,,,,,,,,0.16,-0.02,-1.08,-0,-4,0,0.16,,64,4312,7,24,58,0.501,0.0,557,4.93,13.3,0.0,1,24.1,2.54,5.1,0,0,0,1,0,0,250,250,0,,,,,,,,,,,,,,,,
33903,1620404214501,,,,,,,,0.2,-0.01,-1.16,-0,-3,0,0.2,,64,4330,7,24,58,0.502,0.0,546,4.86,13.2,0.0,1,24.4,2.55,5.1,0,0,0,1,0,0,250,250,0,,,,,,,,,,,,,,,,
33923,1620404214521,,,,,,,,0.22,-0.01,-1.18,-0,-3,-0,0.22,,64,4309,7,24,58,0.502,0.0,554,4.89,13.1,0.0,1,24.1,1.38,5.1,0,0,0,1,0,0,250,250,0,,,,,,,,,,,,,,,,
33943,1620404214541,12,5,33,34,31,33,-1,0.2,-0.01,-1.06,-0,-5,-0,0.2,0,64,4308,7,24,58,0.502,0.0,542,4.93,13.2,0.0,1,23.8,1.36,5.0,0,0,0,1,0,0,250,250,0,45.845802,5.178921,0.0,224.9,6,3,2.5,0,0.0,-1,0.0,,0.0,0,0.0,0.5657
33963,1620404214561,,,,,,,,0.15,-0.01,-0.91,-0,-6,-0,0.15,,64,4321,7,24,59,0.502,0.0,555,4.94,13.3,0.0,1,24.5,1.4,5.0,0,0,0,1,0,0,250,250,0,,,,,,,,,,,,,,,,
33983,1620404214581,,,,,,,,0.09,0.01,-0.83,-0,-6,-0,0.09,,64,4291,7,24,58,0.502,0.0,544,4.91,13.4,0.0,1,23.9,2.52,5.0,0,0,0,1,0,0,250,250,0,,,,,,,,,,,,,,,,
34003,1620404214601,,,,,,,,0.07,0.03,-0.93,-0,-4,0,0.07,,64,4230,7,24,58,0.502,0.0,536,4.93,13.4,0.0,1,23.1,2.49,5.0,0,0,0,1,0,0,250,250,0,,,,,,,,,,,,,,,,
34023,1620404214621,,,,,,,,0.08,0.01,-1.02,-0,-2,0,0.08,,64,4330,7,24,58,0.502,0.0,551,4.94,13.4,0.0,1,24.4,2.55,5.0,0,0,0,1,0,0,250,250,0,,,,,,,,,,,,,,,,
34043,1620404214641,13,5,33,35,31,33,-1,0.12,0.0,-1.1,-0,-1,1,0.12,0,64,4282,7,24,58,0.502,0.0,543,4.89,13.3,0.0,1,23.7,2.52,4.9,0,0,0,1,0,0,250,250,0,45.845802,5.178921,0.0,224.9,6,3,2.5,0,0.0,-1,0.0,0.0,0.0,0,0.0,0.5674
34063,1620404214661,,,,,,,,0.15,0.01,-1.11,-0,-1,0,0.15,,64,4283,7,24,59,0.502,0.0,551,4.87,13.1,0.0,1,24.0,1.38,4.9,0,0,0,1,0,0,250,250,0,,,,,,,,,,,,,,,,
34083,1620404214681,,,,,,,,0.15,0.02,-1.02,-0,-2,-0,0.15,,64,4333,7,24,59,0.502,0.0,544,4.96,13.3,0.0,1,24.6,1.41,4.9,0,0,0,1,0,0,250,250,0,,,,,,,,,,,,,,,,
34103,1620404214701,,,,,,,,0.1,0.01,-0.88,-0,-3,-0,0.1,,64,4260,7,24,59,0.502,0.0,552,4.99,13.3,0.0,1,23.7,2.53,4.9,0,0,0,1,0,0,250,250,0,,,,,,,,,,,,,,,,
34123,1620404214721,,,,,,,,0.04,0.03,-0.77,-0,-4,-0,0.05,,64,4273,7,24,59,0.502,0.0,535,4.92,13.4,0.0,1,23.9,2.54,4.9,0,0,0,1,0,0,250,250,0,,,,,,,,,,,,,,,,
34143,1620404214741,12,8,33,35,31,33,-2,0.01,0.04,-0.86,-0,-3,0,0.04,0,64,4326,7,24,59,0.502,0.0,543,4.92,13.4,0.0,1,24.5,2.57,5.1,0,0,0,1,0,0,250,250,0,45.845802,5.178921,0.0,224.9,6,3,2.5,0,0.0,-1,0.0,,0.0,0,0.0,0.569
34163,1620404214761,,,,,,,,0.03,0.03,-0.96,-0,-1,0,0.05,,64,4239,7,24,59,0.501,0.0,550,4.92,13.3,0.0,1,23.4,2.52,5.1,0,0,0,1,0,0,250,250,0,,,,,,,,,,,,,,,,
34183,1620404214781,,,,,,,,0.08,0.04,-1.04,-0,0,1,0.09,,64,4321,7,24,59,0.501,0.0,541,4.92,13.3,0.0,1,24.5,2.56,5.1,0,0,0,1,0,0,250,250,0,,,,,,,,,,,,,,,,
34203,1620404214803,,,,,,,,0.1,0.04,-1.03,-0,0,0,0.11,,64,4287,7,24,59,0.501,0.0,556,4.86,13.1,0.0,1,24.0,2.54,5.1,0,0,0,1,0,0,250,250,0,,,,,,,,,,,,,,,,
34223,1620404214823,,,,,,,,0.1,0.04,-0.9,-0,-1,-0,0.1,,64,4239,7,24,59,0.501,0.0,535,4.96,13.3,0.0,1,23.4,1.36,5.1,0,0,0,1,0,0,250,250,0,,,,,,,,,,,,,,,,
34243,1620404214843,12,5,33,33,31,33,-1,0.06,0.02,-0.7,-0,-3,-0,0.06,0,64,4359,7,24,59,0.502,0.0,551,4.93,13.4,0.0,1,25.0,2.58,5.2,0,0,0,1,0,0,250,250,0,45.845802,5.178921,0.0,224.9,6,3,2.5,0,0.0,-1,0.0,0.0,0.0,0,0.0,0.5707
34263,1620404214863,,,,,,,,0.01,0.03,-0.61,-0,-4,-0,0.03,,64,4304,7,24,59,0.502,0.0,540,4.93,13.4,0.0,1,24.3,2.55,5.2,0,0,0,1,0,0,250,250,0,,,,,,,,,,,,,,,,
34283,1620404214883,,,,,,,,-0.05,0.06,-0.64,-0,-3,-0,0.07,,64,4311,7,24,59,0.502,0.0,547,4.92,13.4,0.0,1,24.3,2.56,5.2,0,0,0,1,0,0,250,250,0,,,,,,,,,,,,,,,,
34303,1620404214901,,,,,,,,-0.06,0.06,-0.7,-0,-3,-0,0.08,,64,4398,7,24,59,0.502,0.0,555,4.89,13.4,0.0,1,25.5,2.59,5.2,0,0,0,1,0,0,250,250,0,,,,,,,,,,,,,,,,
34323,1620404214921,,,,,,,,-0.01,0.06,-0.81,-0,-0,0,0.06,,64,4306,7,24,59,0.501,0.0,545,4.94,13.4,0.0,1,24.3,2.56,5.2,0,0,0,1,0,0,250,250,0,,,,,,,,,,,,,,,,
34343,1620404214941,12,7,33,35,31,33,-1,0.01,0.03,-0.9,-0,2,1,0.03,0,64,4384,7,24,59,0.502,0.0,556,4.87,13.2,0.0,1,25.3,2.59,5.2,0,0,0,1,0,0,250,250,0,45.845802,5.178921,0.0,224.9,6,3,2.5,0,0.0,-1,0.0,,0.0,0,0.0,0.5724
34363,1620404214961,,,,,,,,0.04,0.01,-0.99,-0,4,1,0.04,,64,4383,7,24,59,0.502,0.0,554,4.93,13.3,0.0,1,25.3,2.59,5.2,0,0,0,1,0,0,250,250,0,,,,,,,,,,,,,,,,
34383,1620404214981,,,,,,,,0.08,0.01,-1.08,-0,4,1,0.08,,64,4338,7,24,59,0.502,0.0,562,4.89,13.2,0.0,1,24.7,2.57,5.2,0,0,0,1,0,0,250,250,0,,,,,,,,,,,,,,,,
34403,1620404215001,,,,,,,,0.13,0.02,-1.15,-0,3,1,0.13,,64,4442,7,24,59,0.501,0.0,551,4.98,13.2,0.0,1,26.0,1.46,5.2,0,0,0,1,0,0,250,250,0,,,,,,,,,,,,,,,,
34423,1620404215004,,,,,,,,0.16,0.01,-1.19,-0,1,1,0.16,,64,4378,7,24,59,0.501,0.0,562,4.96,13.3,0.0,1,25.2,2.58,5.2,0,0,0,1,0,0,250,250,0,,,,,,,,,,,,,,,,
34443,1620404215024,10,5,33,35,31,33,-1,0.19,0.02,-1.1,-0,-1,-0,0.19,0,64,4412,7,24,59,0.501,0.0,561,4.95,13.2,0.0,1,25.6,1.44,5.2,0,0,0,1,0,0,250,250,0,45.845802,5.178921,0.0,224.9,6,3,2.5,0,0.0,-1,0.0,0.0,0.0,0,0.0,0.574
34463,1620404215044,,,,,,,,0.2,0.02,-1.18,-0,-2,0,0.2,,64,4487,7,24,59,0.501,0.0,560,4.91,13.3,0.0,1,26.6,1.48,5.2,0,0,0,1,0,0,250,250,0,,,,,,,,,,,,,,,,
34483,1620404215064,,,,,,,,0.19,0.01,-1.13,-0,-4,-0,0.19,,64,4426,7,24,59,0.501,0.0,568,4.95,13.3,0.0,1,25.8,1.45,5.2,0,0,0,1,0,0,250,250,0,,,,,,,,,,,,,,,,
34503,1620404215102,,,,,,,,0.19,-0.0,-1.08,0,-6,-1,0.19,,64,4435,7,24,59,0.501,0.0,558,4.92,13.3,0.0,1,25.9,1.46,5.2,0,0,0,1,0,0,250,250,0,,,,,,,,,,,,,,,,
34523,1620404215122,,,,,,,,0.21,-0.02,-1.11,0,-7,-1,0.21,,64,4516,7,24,59,0.501,0.0,573,4.92,13.3,0.0,1,27.0,2.66,5.2,0,0,0,1,0,0,250,250,0,,,,,,,,,,,,,,,,
34543,1620404215142,12,7,33,34,31,33,-2,0.19,-0.01,-1.01,0,-8,-1,0.19,0,64,4438,7,24,59,0.501,0.0,565,4.92,13.4,0.0,1,26.0,2.62,5.3,0,0,0,1,0,0,250,250,0,45.845802,5.178921,0.0,224.9,6,3,2.5,0,0.0,-1,0.0,,0.0,0,0.0,0.5757
34563,1620404215162,,,,,,,,0.18,-0.01,-0.96,0,-10,-1,0.18,,64,4546,7,24,59,0.501,0.0,571,4.92,13.3,0.0,1,27.4,1.51,5.3,0,0,0,1,0,0,250,250,0,,,,,,,,,,,,,,,,
34583,1620404215182,,,,,,,,0.18,-0.01,-0.91,0,-12,-1,0.18,,64,4532,7,24,58,0.501,0.0,581,4.95,13.3,0.0,1,26.9,1.49,5.3,0,0,0,1,0,0,250,250,0,,,,,,,,,,,,,,,,
34603,1620404215202,,,,,,,,0.2,-0.02,-0.83,0,-13,-1,0.2,,64,4492,7,24,58,0.501,0.0,570,4.93,13.3,0.0,1,26.4,1.47,5.3,0,0,0,1,0,0,250,250,0,,,,,,,,,,,,,,,,
34623,1620404215222,,,,,,,,0.21,0.0,-0.93,0,-13,-1,0.21,,64,4584,7,24,58,0.501,0.0,580,4.88,13.4,0.0,1,27.6,1.52,5.3,0,0,0,1,0,0,250,250,0,,,,,,,,,,,,,,,,
34643,1620404215242,13,7,33,35,31,33,-1,0.22,0.0,-1.0,0,-15,-1,0.22,0,64,4500,7,24,58,0.501,0.0,570,4.91,13.4,0.0,1,26.5,1.48,5.3,0,0,0,1,0,0,250,250,0,45.845802,5.178921,0.0,224.9,6,3,2.5,0,0.0,-1,0.0,0.0,0.0,0,0.0,0.5774
34663,1620404215262,,,,,,,,0.27,-0.01,-1.09,0,-17,-1,0.27,,64,4557,7,24,58,0.501,0.0,576,4.92,13.2,0.0,1,27.2,1.5,5.5,0,0,0,1,0,0,250,250,0,,,,,,,,,,,,,,,,
34683,1620404215282,,,,,,,,0.3,-0.01,-1.07,0,-16,-1,0.3,,64,4536,7,24,58,0.501,0.0,587,4.93,13.2,0.0,1,27.0,1.48,5.5,0,0,0,1,0,0,250,250,0,,,,,,,,,,,,,,,,
34703,1620404215302,,,,,,,,0.3,0.01,-1.14,0,-15,-1,0.3,,64,4479,7,24,58,0.501,0.0,567,4.92,13.3,0.0,1,26.2,2.63,5.5,0,0,0,1,0,0,250,250,0,,,,,,,,,,,,,,,,
34723,1620404215322,,,,,,,,0.31,0.02,-1.22,0,-16,-1,0.31,,64,4505,7,24,58,0.501,0.0,575,4.97,13.2,0.0,1,26.6,1.48,5.5,0,0,0,1,0,0,250,250,0,,,,,,,,,,,,,,,,
34743,1620404215342,12,5,33,35,31,33,-0,0.33,0.01,-1.18,0,-17,-1,0.34,0,64,4473,7,24,58,0.501,0.0,567,4.96,13.2,0.0,1,26.1,1.46,5.4,0,0,0,1,0,0,250,250,0,45.845802,5.178921,0.0,224.9,6,3,2.5,0,0.0,-1,0.0,,0.0,0,0.0,0.579
34763,1620404215362,,,,,,,,0.36,0.01,-1.24,0,-16,-1,0.36,,64,4471,7,24,58,0.501,0.0,572,4.96,13.2,0.0,1,26.5,1.47,5.4,0,0,0,1,0,0,250,250,0,,,,,,,,,,,,,,,,
34783,1620404215382,,,,,,,,0.34,0.01,-1.2,0,-16,-1,0.34,,64,4482,7,24,58,0.501,0.0,567,4.92,13.4,0.0,1,26.3,1.46,5.4,0,0,0,1,0,0,250,250,0,,,,,,,,,,,,,,,,
34803,1620404215402,,,,,,,,0.32,0.0,-1.21,0,-17,-1,0.32,,64,4471,7,24,58,0.501,0.0,563,4.9,13.4,0.0,1,26.1,1.46,5.4,0,0,0,1,0,0,250,250,0,,,,,,,,,,,,,,,,
34823,1620404215422,,,,,,,,0.32,-0.0,-1.14,0,-18,-1,0.32,,64,4491,7,24,58,0.501,0.0,573,4.96,13.3,0.0,1,26.4,1.47,5.4,0,0,0,1,0,0,250,250,0,,,,,,,,,,,,,,,,
34843,1620404215442,12,5,33,35,31,33,-2,0.31,-0.01,-1.06,0,-18,-1,0.31,0,64,4420,7,24,58,0.501,0.0,560,4.96,13.3,0.0,1,25.5,2.59,5.4,0,0,0,1,0,0,250,250,0,45.845802,5.178921,0.0,224.9,6,3,2.5,0,0.0,-1,0.0,0.0,0.0,0,0.0,0.5807
34863,1620404215462,,,,,,,,0.28,0.0,-0.95,0,-18,-2,0.28,,64,4487,7,24,58,0.501,0.0,566,4.91,13.4,0.0,1,26.3,2.63,5.3,0,0,0,1,0,0,250,250,0,,,,,,,,,,,,,,,,
34883,1620404215482,,,,,,,,0.23,-0.01,-0.86,0,-19,-2,0.23,,64,4466,7,24,58,0.501,0.0,565,4.92,13.4,0.0,1,26.1,2.62,5.3,0,0,0,1,0,0,250,250,0,,,,,,,,,,,,,,,,
34903,1620404215502,,,,,,,,0.18,-0.01,-0.71,0,-20,-2,0.18,,64,4422,7,24,58,0.501,0.0,563,4.93,13.4,0.0,1,25.5,1.43,5.3,0,0,0,1,0,0,250,250,0,,,,,,,,,,,,,,,,
34923,1620404215522,,,,,,,,0.16,-0.01,-0.6,0,-20,-2,0.16,,64,4491,7,24,58,0.501,0.0,571,4.91,13.4,0.0,1,26.4,2.63,5.3,0,0,0,1,0,0,250,250,0,,,,,,,,,,,,,,,,
34943,1620404215542,11,7,33,34,31,33,-1,0.11,0.0,-0.47,0,-19,-2,0.11,0,64,4429,7,24,58,0.501,0.0,563,4.93,13.4,0.0,1,25.6,1.43,5.3,0,0,0,1,0,0,250,250,0,45.845802,5.178921,0.0,224.9,6,3,2.5,0,0.0,-1,0.0,,0.0,0,0.0,0.5824
34963,1620404215562,,,,,,,,0.03,0.03,-0.35,0,-18,-2,0.04,,64,4441,7,24,58,0.501,0.0,567,4.92,13.4,0.0,1,25.8,2.6,5.3,0,0,0,1,0,0,250,250,0,,,,,,,,,,,,,,,,
34983,1620404215582,,,,,,,,-0.02,0.04,-0.34,0,-18,-2,0.05,,64,4509,7,24,58,0.501,0.0,564,4.95,13.4,0.0,1,26.6,2.64,5.3,0,0,0,1,0,0,250,250,0,,,,,,,,,,,,,,,,
35003,1620404215602,,,,,,,,-0.06,0.05,-0.19,0,-18,-3,0.07,,64,4405,7,24,58,0.501,0.0,563,4.94,13.4,0.0,1,25.3,2.58,5.3,0,0,0,1,0,0,250,250,0,,,,,,,,,,,,,,,,
35023,1620404215622,,,,,,,,-0.1,0.06,-0.06,0,-16,-3,0.12,,64,4466,7,24,58,0.501,0.0,561,4.95,13.4,0.0,1,26.1,2.62,5.3,0,0,0,1,0,0,250,250,0,,,,,,,,,,,,,,,,
35043,1620404215642,12,7,33,35,31,33,-1,-0.15,0.07,-0.02,0,-14,-2,0.16,0,64,4433,7,24,58,0.501,0.0,561,4.88,13.4,0.0,1,25.7,2.6,5.3,0,0,0,1,0,0,250,250,0,45.845802,5.178921,0.0,224.9,6,3,2.5,0,0.0,-1,0.0,0.0,0.0,0,0.0,0.584
35063,1620404215662,,,,,,,,-0.18,0.06,-0.04,-0,-12,-2,0.19,,64,4413,7,24,58,0.501,0.0,566,4.89,13.4,0.0,1,25.4,2.59,5.3,0,0,0,1,0,0,250,250,0,,,,,,,,,,,,,,,,
35083,1620404215682,,,,,,,,-0.19,0.05,-0.05,-0,-10,-2,0.2,,64,4468,7,24,58,0.502,0.0,561,4.91,13.4,0.0,1,26.1,2.62,5.3,0,0,0,1,0,0,250,250,0,,,,,,,,,,,,,,,,
35103,1620404215700,,,,,,,,-0.17,0.05,-0.13,-0,-8,-1,0.18,,64,4403,7,24,58,0.501,0.0,567,4.88,13.3,0.0,1,25.3,2.58,5.3,0,0,0,1,0,0,250,250,0,,,,,,,,,,,,,,,,
35123,1620404215720,,,,,,,,-0.15,0.03,-0.23,-0,-5,-1,0.15,,64,4443,7,24,58,0.501,0.0,563,4.92,13.4,0.0,1,25.8,2.6,5.3,0,0,0,1,0,0,250,250,0,,,,,,,,,,,,,,,,
35143,1620404215740,12,7,33,35,31,33,-2,-0.14,0.03,-0.38,-0,-3,-0,0.14,0,64,4462,7,24,58,0.501,0.0,562,4.92,13.4,0.0,1,26.0,2.62,5.4,0,0,0,1,0,0,250,250,0,45.845802,5.178921,0.0,224.9,6,3,2.5,0,0.0,-1,0.0,,0.0,0,0.0,0.5857
35163,1620404215760,,,,,,,,-0.1,0.01,-0.51,-0,-1,-0,0.1,,64,4393,7,24,58,0.501,0.0,569,4.91,13.3,0.0,1,25.2,2.58,5.4,0,0,0,1,0,0,250,250,0,,,,,,,,,,,,,,,,
35183,1620404215780,,,,,,,,-0.05,0.0,-0.64,-0,0,0,0.05,,64,4523,7,24,58,0.501,0.0,561,4.86,13.3,0.0,1,26.8,2.65,5.4,0,0,0,1,0,0,250,250,0,,,,,,,,,,,,,,,,
35203,1620404215802,,,,,,,,0.0,0.0,-0.75,-0,3,1,0.0,,64,4472,7,24,58,0.501,0.0,577,4.87,13.3,0.0,1,26.2,2.62,5.4,0,0,0,1,0,0,250,250,0,,,,,,,,,,,,,,,,
35223,1620404215822,,,,,,,,0.04,0.02,-0.86,-0,5,1,0.04,,64,4474,7,24,58,0.501,0.0,569,4.87,13.3,0.0,1,26.2,2.62,5.4,0,0,0,1,0,0,250,250,0,,,,,,,,,,,,,,,,
35243,1620404215842,12,8,33,35,31,33,-1,0.05,0.03,-0.95,-0,6,1,0.06,0,64,4549,7,24,58,0.501,0.0,572,4.92,13.1,0.0,1,27.1,2.66,5.4,0,0,0,1,0,0,250,250,0,45.845802,5.178921,0.0,224.9,6,3,2.5,0,0.0,-1,0.0,0.0,0.0,0,0.0,0.5874
35263,1620404215862,,,,,,,,0.11,0.02,-1.04,-0,8,2,0.11,,64,4460,7,24,58,0.502,0.0,577,4.89,13.3,0.0,1,26.0,2.62,5.6,0,0,0,1,0,0,250,250,0,,,,,,,,,,,,,,,,
35283,1620404215882,,,,,,,,0.15,0.01,-1.12,-0,10,2,0.15,,64,4547,7,24,58,0.502,0.0,567,4.92,13.3,0.0,1,27.1,2.66,5.6,0,0,0,1,0,0,250,250,0,,,,,,,,,,,,,,,,
35303,1620404215902,,,,,,,,0.14,0.02,-1.19,-0,13,3,0.15,,64,4535,7,24,58,0.502,0.0,580,4.88,13.2,0.0,1,27.0,2.65,5.6,0,0,0,1,0,0,250,250,0,,,,,,,,,,,,,,,,
35323,1620404215922,,,,,,,,0.14,0.02,-1.26,-0,13,3,0.14,,64,4500,7,24,57,0.502,0.0,570,4.89,13.2,0.0,1,26.3,2.63,5.6,0,0,0,1,0,0,250,250,0,,,,,,,,,,,,,,,,
35343,1620404215942,12,7,33,35,31,33,-2,0.16,0.03,-1.32,-0,13,3,0.16,0,64,4542,7,24,57,0.502,0.0,577,4.88,13.2,0.0,1,26.8,2.65,5.5,0,0,0,1,0,0,250,250,0,45.845802,5.178921,0.0,224.9,6,3,2.5,0,0.0,-1,0.0,,0.0,0,0.0,0.589
35363,1620404215962,,,,,,,,0.18,0.02,-1.38,-0,16,3,0.18,,64,4512,7,24,57,0.502,0.0,576,4.9,13.4,0.0,1,26.5,1.47,5.5,0,0,0,1,0,0,250,250,0,,,,,,,,,,,,,,,,
35383,1620404215982,,,,,,,,0.17,0.04,-1.43,-0,17,4,0.18,,64,4515,7,24,57,0.502,0.0,568,4.91,13.4,0.0,1,26.5,2.64,5.5,0,0,0,1,0,0,250,250,0,,,,,,,,,,,,,,,,
35403,1620404216002,,,,,,,,0.17,0.03,-1.48,-0,17,4,0.17,,64,4451,7,24,57,0.502,0.0,574,4.91,13.4,0.0,1,25.7,1.43,5.5,0,0,0,1,0,0,250,250,0,,,,,,,,,,,,,,,,
35423,1620404216003,,,,,,,,0.21,0.02,-1.52,-0,17,4,0.21,,64,4461,7,24,57,0.501,0.0,563,4.87,13.4,0.0,1,25.8,2.6,5.5,0,0,0,1,0,0,250,250,0,,,,,,,,,,,,,,,,
35443,1620404216023,11,5,33,35,31,33,-1,0.27,0.01,-1.56,-0,19,4,0.27,0,64,4410,7,24,57,0.501,0.0,568,4.88,13.3,0.0,1,25.1,2.57,5.2,0,0,0,1,0,0,250,250,0,45.845802,5.178921,0.0,224.9,6,3,2.5,0,0.0,-1,0.0,0.0,0.0,0,0.0,0.5907
35463,1620404216043,,,,,,,,0.29,0.02,-1.6,-0,19,4,0.29,,64,4397,7,24,57,0.501,0.0,564,4.86,13.2,0.0,1,25.0,1.4,5.2,0,0,0,1,0,0,250,250,0,,,,,,,,,,,,,,,,
35483,1620404216063,,,,,,,,0.29,0.04,-1.6,-0,17,4,0.3,,64,4375,7,24,58,0.501,0.0,562,4.95,13.2,0.0,1,24.9,1.41,5.2,0,0,0,1,0,0,250,250,0,,,,,,,,,,,,,,,,
35503,1620404216101,,,,,,,,0.29,0.05,-1.56,-0,15,3,0.3,,64,4368,7,24,58,0.501,0.0,566,4.96,13.3,0.0,1,24.9,1.4,5.2,0,0,0,1,0,0,250,250,0,,,,,,,,,,,,,,,,
35523,1620404216121,,,,,,,,0.27,0.05,-1.4,-0,11,3,0.27,,64,4359,7,24,58,0.501,0.0,547,4.95,13.2,0.0,1,24.7,1.4,5.2,0,0,0,1,0,0,250,250,0,,,,,,,,,,,,,,,,
35543,1620404216141,10,7,33,33,31,33,-1,0.22,0.03,-1.25,-0,8,3,0.22,0,64,4353,7,24,58,0.501,0.0,557,4.96,13.3,0.0,1,24.7,2.56,5.2,0,0,0,1,0,0,250,250,0,45.845802,5.178921,0.0,224.9,6,3,2.5,0,0.0,-1,0.0,,0.0,0,0.0,0.5924
35563,1620404216161,,,,,,,,0.16,0.03,-1.06,-0,6,2,0.16,,64,4398,7,24,58,0.501,0.0,548,4.92,13.4,0.0,1,25.2,2.58,5.1,0,0,0,1,0,0,250,250,0,,,,,,,,,,,,,,,,
35583,1620404216181,,,,,,,,0.1,0.07,-0.83,-0,5,2,0.12,,64,4358,7,24,58,0.501,0.0,553,4.93,13.4,0.0,1,24.7,2.56,5.1,0,0,0,1,0,0,250,250,0,,,,,,,,,,,,,,,,
35603,1620404216201,,,,,,,,0.04,0.08,-0.76,-0,5,1,0.09,,64,4408,7,24,59,0.501,0.0,552,4.92,13.4,0.0,1,25.6,2.59,5.1,0,0,0,1,0,0,250,250,0,,,,,,,,,,,,,,,,
35623,1620404216221,,,,,,,,0.02,0.09,-0.83,-0,5,1,0.09,,64,4370,7,24,58,0.501,0.0,551,4.93,13.4,0.0,1,24.9,2.56,5.1,0,0,0,1,0,0,250,250,0,,,,,,,,,,,,,,,,
35643,1620404216241,12,7,33,35,31,33,-2,0.04,0.08,-0.93,-0,6,1,0.09,0,64,4347,7,24,59,0.501,0.0,561,4.95,13.4,0.0,1,24.8,2.55,5.1,0,0,0,1,0,0,250,250,0,45.845802,5.178921,0.0,224.9,6,3,2.5,0,0.0,-1,0.0,0.0,0.0,0,0.0,0.594
35663,1620404216261,,,,,,,,0.07,0.07,-1.02,-0,8,1,0.1,,64,4359,7,24,58,0.501,0.0,551,4.87,13.2,0.0,1,24.7,2.56,5.1,0,0,0,1,0,0,250,250,0,,,,,,,,,,,,,,,,
35683,1620404216281,,,,,,,,0.13,0.06,-1.1,-0,9,1,0.14,,64,4372,7,24,59,0.501,0.0,562,4.93,13.3,0.0,1,25.1,2.58,5.1,0,0,0,1,0,0,250,250,0,,,,,,,,,,,,,,,,
35703,1620404216301,,,,,,,,0.14,0.07,-1.17,-0,9,1,0.15,,64,4354,7,24,58,0.501,0.0,553,4.87,13.2,0.0,1,24.7,2.56,5.1,0,0,0,1,0,0,250,250,0,,,,,,,,,,,,,,,,
35723,1620404216321,,,,,,,,0.16,0.07,-1.16,-0,7,1,0.18,,64,4383,7,24,58,0.501,0.0,556,4.9,13.1,0.0,1,25.0,1.41,5.1,0,0,0,1,0,0,250,250,0,,,,,,,,,,,,,,,,
35743,1620404216341,12,5,33,33,31,33,-1,0.15,0.07,-1.07,-0,5,1,0.17,0,64,4374,7,24,59,0.501,0.0,552,4.98,13.3,0.0,1,25.1,2.58,5.1,0,0,0,1,0,0,250,250,0,45.845802,5.178921,0.0,224.9,6,3,2.5,0,0.0,-1,0.0,,0.0,0,0.0,0.5957
35763,1620404216361,,,,,,,,0.12,0.05,-0.91,-0,3,0,0.13,,64,4361,7,24,59,0.501,0.0,550,4.94,13.4,0.0,1,25.0,2.58,5.2,0,0,0,1,0,0,250,250,0,,,,,,,,,,,,,,,,
35783,1620404216381,,,,,,,,0.1,0.04,-0.86,-0,1,0,0.11,,64,4360,7,24,59,0.501,0.0,561,4.94,13.4,0.0,1,25.0,1.42,5.2,0,0,0,1,0,0,250,250,0,,,,,,,,,,,,,,,,
35803,1620404216401,,,,,,,,0.05,0.03,-0.76,-0,1,0,0.06,,64,4317,7,24,59,0.501,0.0,540,4.95,13.4,0.0,1,24.4,2.56,5.2,0,0,0,1,0,0,250,250,0,,,,,,,,,,,,,,,,
35823,1620404216421,,,,,,,,-0.01,0.05,-0.67,-0,1,0,0.05,,64,4353,7,24,59,0.501,0.0,552,4.9,13.4,0.0,1,24.9,2.58,5.2,0,0,0,1,0,0,250,250,0,,,,,,,,,,,,,,,,
35843,1620404216441,11,7,33,35,31,33,-1,-0.04,0.07,-0.64,-0,1,0,0.08,0,64,4333,7,24,59,0.501,0.0,546,4.94,13.4,0.0,1,24.6,2.57,5.1,0,0,0,1,0,0,250,250,0,45.845802,5.178921,0.0,224.9,6,3,2.5,0,0.0,-1,0.0,0.0,0.0,0,0.0,0.5974
35863,1620404216461,,,,,,,,-0.03,0.06,-0.75,-0,3,0,0.06,,64,4317,7,24,59,0.501,0.0,552,4.87,13.3,0.0,1,24.4,2.56,5.1,0,0,0,1,0,0,250,250,0,,,,,,,,,,,,,,,,
35883,1620404216481,,,,,,,,0.02,0.04,-0.86,-0,4,0,0.04,,64,4295,7,24,59,0.501,0.0,547,4.92,13.3,0.0,1,24.1,2.55,5.1,0,0,0,1,0,0,250,250,0,,,,,,,,,,,,,,,,
35903,1620404216501,,,,,,,,0.07,0.03,-0.95,-0,4,0,0.08,,64,4340,7,24,59,0.501,0.0,548,4.86,13.1,0.0,1,24.7,1.41,5.1,0,0,0,1,0,0,250,250,0,,,,,,,,,,,,,,,,
35923,1620404216521,,,,,,,,0.09,0.04,-1.01,-0,2,0,0.1,,64,4342,7,24,59,0.501,0.0,562,4.92,13.2,0.0,1,24.7,1.41,5.1,0,0,0,1,0,0,250,250,0,,,,,,,,,,,,,,,,
35943,1620404216541,12,5,33,34,31,33,-1,0.09,0.04,-0.99,-0,0,0,0.1,0,64,4307,7,24,59,0.501,0.0,540,4.93,13.3,0.0,1,24.3,1.4,5.1,0,0,0,1,0,0,250,250,0,45.845802,5.178921,0.0,224.9,6,3,2.5,0,0.0,-1,0.0,,0.0,0,0.0,0.599
35963,1620404216561,,,,,,,,0.05,0.03,-0.83,-0,-2,-0,0.06,,64,4352,7,24,59,0.501,0.0,553,4.95,13.4,0.0,1,24.9,1.42,5.1,0,0,0,1,0,0,250,250,0,,,,,,,,,,,,,,,,
35983,1620404216581,,,,,,,,0.01,0.03,-0.63,-0,-3,-1,0.03,,64,4375,7,24,59,0.501,0.0,548,4.92,13.4,0.0,1,25.2,2.58,5.1,0,0,0,1,0,0,250,250,0,,,,,,,,,,,,,,,,
36003,1620404216601,,,,,,,,-0.04,0.04,-0.46,-0,-3,-1,0.06,,64,4358,7,24,59,0.501,0.0,552,4.9,13.4,0.0,1,24.9,2.58,5.1,0,0,0,1,0,0,250,250,0,,,,,,,,,,,,,,,,
36023,1620404216621,,,,,,,,-0.07,0.07,-0.4,-0,-1,-1,0.1,,64,4375,7,24,59,0.501,0.0,548,4.93,13.4,0.0,1,25.2,2.58,5.1,0,0,0,1,0,0,250,250,0,,,,,,,,,,,,,,,,
36043,1620404216641,12,8,33,35,31,33,-2,-0.09,0.08,-0.5,-0,1,-0,0.12,0,64,4366,7,24,59,0.501,0.0,548,4.95,13.4,0.0,1,25.0,2.58,5.2,0,0,0,1,0,0,250,250,0,45.845802,5.178921,0.0,224.9,6,3,2.5,0,0.0,-1,0.0,0.0,0.0,0,0.0,0.6007
36063,1620404216661,,,,,,,,-0.07,0.06,-0.62,-0,2,0,0.09,,64,4345,7,24,59,0.501,0.0,565,4.88,13.4,0.0,1,24.8,2.57,5.2,0,0,0,1,0,0,250,250,0,,,,,,,,,,,,,,,,
36083,1620404216681,,,,,,,,-0.03,0.05,-0.74,-0,3,0,0.05,,64,4404,7,24,59,0.501,0.0,549,4.87,13.3,0.0,1,25.5,2.6,5.2,0,0,0,1,0,0,250,250,0,,,,,,,,,,,,,,,,
36103,1620404216701,,,,,,,,0.03,0.04,-0.84,-0,3,0,0.05,,64,4383,7,24,59,0.501,0.0,563,4.84,13.2,0.0,1,25.3,2.59,5.2,0,0,0,1,0,0,250,250,0,,,,,,,,,,,,,,,,
36123,1620404216721,,,,,,,,0.08,0.03,-0.94,-0,3,-0,0.09,,64,4376,7,24,59,0.501,0.0,553,4.94,13.2,0.0,1,25.2,1.42,5.2,0,0,0,1,0,0,250,250,0,,,,,,,,,,,,,,,,
36143,1620404216741,12,7,33,35,31,33,-1,0.11,0.04,-1.03,-0,2,0,0.12,0,64,4431,7,24,59,0.501,0.0,558,4.9,13.2,0.0,1,25.9,1.45,5.3,0,0,0,1,0,0,250,250,0,45.845802,5.178921,0.0,224.9,6,3,2.5,0,0.0,-1,0.0,,0.0,0,0.0,0.6024
36163,1620404216761,,,,,,,,0.13,0.04,-1.0,-0,0,-0,0.14,,64,4374,7,24,59,0.501,0.0,557,4.94,13.2,0.0,1,25.1,1.42,5.3,0,0,0,1,0,0,250,250,0,,,,,,,,,,,,,,,,
36183,1620404216781,,,,,,,,0.14,0.02,-0.99,-0,-2,-0,0.15,,64,4407,7,24,59,0.501,0.0,552,4.93,13.3,0.0,1,25.6,1.44,5.3,0,0,0,1,0,0,250,250,0,,,,,,,,,,,,,,,,
36203,1620404216803,,,,,,,,0.15,0.01,-1.02,-0,-3,-0,0.15,,64,4422,7,24,59,0.501,0.0,565,4.96,13.3,0.0,1,25.8,1.45,5.3,0,0,0,1,0,0,250,250,0,,,,,,,,,,,,,,,,
36223,1620404216823,,,,,,,,0.12,0.0,-0.86,-0,-4,-0,0.12,,64,4409,7,24,59,0.501,0.0,552,4.92,13.4,0.0,1,25.6,1.44,5.3,0,0,0,1,0,0,250,250,0,,,,,,,,,,,,,,,,
36243,1620404216843,12,5,33,35,31,33,-1,0.07,0.02,-0.64,-0,-5,-1,0.07,0,64,4430,7,24,59,0.502,0.0,560,4.95,13.4,0.0,1,25.9,1.45,5.3,0,0,0,1,0,0,250,250,0,45.845802,5.178921,0.0,224.9,6,3,2.5,0,0.0,-1,0.0,0.0,0.0,0,0.0,0.604
36263,1620404216863,,,,,,,,0.01,0.01,-0.53,-0,-7,-1,0.02,,64,4425,7,24,59,0.502,0.0,558,4.92,13.4,0.0,1,25.8,2.61,5.3,0,0,0,1,0,0,250,250,0,,,,,,,,,,,,,,,,
36283,1620404216883,,,,,,,,-0.03,0.01,-0.36,-0,-8,-2,0.04,,64,4421,7,24,59,0.501,0.0,559,4.91,13.4,0.0,1,25.8,2.61,5.3,0,0,0,1,0,0,250,250,0,,,,,,,,,,,,,,,,
36303,1620404216903,,,,,,,,-0.08,0.05,-0.16,-0,-7,-2,0.09,,64,4431,7,24,59,0.501,0.0,561,4.87,13.4,0.0,1,25.9,2.61,5.3,0,0,0,1,0,0,250,250,0,,,,,,,,,,,,,,,,
36323,1620404216923,,,,,,,,-0.14,0.08,0.01,-0,-6,-2,0.16,,64,4456,7,24,59,0.501,0.0,556,4.91,13.4,0.0,1,26.2,1.46,5.3,0,0,0,1,0,0,250,250,0,,,,,,,,,,,,,,,,
36343,1620404216943,12,7,33,35,31,33,-0,-0.19,0.09,0.06,-0,-5,-2,0.21,0,64,4442,7,24,59,0.501,0.0,565,4.95,13.4,0.0,1,26.0,2.62,5.3,0,0,0,1,0,0,250,250,0,45.845802,5.178921,0.0,224.9,6,3,2.5,0,0.0,-1,0.0,,0.0,0,0.0,0.6057
36363,1620404216963,,,,,,,,-0.21,0.1,0.06,-0,-4,-2,0.24,,64,4453,7,24,59,0.501,0.0,563,4.93,13.4,0.0,1,26.2,2.62,5.3,0,0,0,1,0,0,250,250,0,,,,,,,,,,,,,,,,
36383,1620404216983,,,,,,,,-0.21,0.1,0.09,-0,-3,-2,0.24,,64,4461,7,24,59,0.501,0.0,563,4.88,13.4,0.0,1,26.3,2.63,5.3,0,0,0,1,0,0,250,250,0,,,,,,,,,,,,,,,,
36403,1620404217003,,,,,,,,-0.23,0.09,0.03,-0,0,-1,0.25,,64,4478,7,24,59,0.501,0.0,562,4.96,13.4,0.0,1,26.5,1.47,5.3,0,0,0,1,0,0,250,250,0,,,,,,,,,,,,,,,,
36423,1620404217004,,,,,,,,-0.26,0.09,0.0,-0,2,-1,0.27,,64,4500,7,24,58,0.501,0.0,567,4.88,13.4,0.0,1,26.5,2.64,5.3,0,0,0,1,0,0,250,250,0,,,,,,,,,,,,,,,,
36443,1620404217024,12,7,33,35,31,33,-1,-0.25,0.07,-0.11,-0,2,-1,0.26,0,64,4477,7,24,58,0.501,0.0,575,4.9,13.4,0.0,1,26.2,2.62,5.3,0,0,0,1,0,0,250,250,0,45.845802,5.178921,0.0,224.9,6,3,2.5,0,0.0,-1,0.0,0.0,0.0,0,0.0,0.6074
36463,1620404217044,,,,,,,,-0.24,0.07,-0.13,-0,4,-0,0.25,,64,4487,7,24,58,0.501,0.0,566,4.85,13.3,0.0,1,26.3,2.63,5.4,0,0,0,1,0,0,250,250,0,,,,,,,,,,,,,,,,
36483,1620404217064,,,,,,,,-0.25,0.06,-0.12,-0,7,0,0.25,,64,4494,7,24,58,0.501,0.0,571,4.95,13.4,0.0,1,26.4,2.63,5.4,0,0,0,1,0,0,250,250,0,,,,,,,,,,,,,,,,
36503,1620404217102,,,,,,,,-0.27,0.07,-0.13,-0,8,0,0.28,,64,4497,7,24,58,0.501,0.0,571,4.94,13.4,0.0,1,26.5,2.63,5.4,0,0,0,1,0,0,250,250,0,,,,,,,,,,,,,,,,
36523,1620404217122,,,,,,,,-0.28,0.05,-0.21,-0,7,0,0.28,,64,4525,7,24,58,0.501,0.0,570,4.95,13.4,0.0,1,26.8,2.65,5.4,0,0,0,1,0,0,250,250,0,,,,,,,,,,,,,,,,
36543,1620404217142,13,5,33,35,31,33,-1,-0.26,0.04,-0.19,-0,8,0,0.27,0,64,4498,7,24,58,0.501,0.0,572,4.96,13.4,0.0,1,26.5,2.63,5.4,0,0,0,1,0,0,250,250,0,45.845802,5.178921,0.0,224.9,6,3,2.5,0,0.0,-1,0.0,,0.0,0,0.0,0.609
36563,1620404217162,,,,,,,,-0.26,0.04,-0.19,-0,10,1,0.26,,64,4489,7,24,58,0.501,0.0,565,4.87,13.4,0.0,1,26.4,2.63,5.4,0,0,0,1,0,0,250,250,0,,,,,,,,,,,,,,,,
36583,1620404217182,,,,,,,,-0.28,0.05,-0.26,-0,11,1,0.28,,64,4510,7,24,58,0.501,0.0,580,4.87,13.4,0.0,1,26.6,2.64,5.4,0,0,0,1,0,0,250,250,0,,,,,,,,,,,,,,,,
36603,1620404217200,,,,,,,,-0.27,0.04,-0.4,-0,11,1,0.27,,64,4465,7,24,58,0.501,0.0,572,4.9,13.3,0.0,1,26.1,2.62,5.4,0,0,0,1,0,0,250,250,0,,,,,,,,,,,,,,,,
36623,1620404217220,,,,,,,,-0.24,0.04,-0.48,-0,12,1,0.24,,64,4484,7,24,58,0.501,0.0,568,4.94,13.4,0.0,1,26.3,2.62,5.4,0,0,0,1,0,0,250,250,0,,,,,,,,,,,,,,,,
36643,1620404217240,13,5,33,35,31,33,-0,-0.2,0.03,-0.57,-0,14,1,0.2,0,64,4454,7,24,58,0.501,0.0,573,4.87,13.3,0.0,1,25.9,2.61,5.3,0,0,0,1,0,0,250,250,0,45.845802,5.178921,0.0,224.9,6,3,2.5,0,0.0,-1,0.0,0.0,0.0,0,0.0,0.6107
36663,1620404217260,,,,,,,,-0.19,0.04,-0.69,-0,15,2,0.2,,64,4453,7,24,58,0.501,0.0,563,4.86,13.3,0.0,1,25.9,2.61,5.3,0,0,0,1,0,0,250,250,0,,,,,,,,,,,,,,,,
36683,1620404217280,,,,,,,,-0.17,0.01,-0.8,-1,15,2,0.17,,64,4467,7,24,58,0.501,0.0,569,4.92,13.4,0.0,1,26.1,2.62,5.3,0,0,0,1,0,0,250,250,0,,,,,,,,,,,,,,,,
36703,1620404217302,,,,,,,,-0.1,0.01,-0.9,-0,15,2,0.11,,64,4454,7,24,58,0.501,0.0,560,4.9,13.4,0.0,1,25.9,2.61,5.3,0,0,0,1,0,0,250,250,0,,,,,,,,,,,,,,,,
36723,1620404217322,,,,,,,,-0.04,0.01,-0.99,-0,17,3,0.04,,64,4442,7,24,58,0.501,0.0,565,4.87,13.4,0.0,1,25.8,2.6,5.3,0,0,0,1,0,0,250,250,0,,,,,,,,,,,,,,,,
36743,1620404217342,10,7,33,35,31,33,-0,0.0,0.01,-1.08,-0,18,3,0.01,0,64,4463,7,24,58,0.501,0.0,569,4.87,13.3,0.0,1,26.0,2.62,5.4,0,0,0,1,0,0,250,250,0,45.845802,5.178921,0.0,224.9,6,3,2.5,0,0.0,-1,0.0,,0.0,0,0.0,0.6124
36763,1620404217362,,,,,,,,0.04,0.01,-1.15,-0,17,3,0.04,,64,4421,7,24,58,0.501,0.0,560,4.89,13.2,0.0,1,25.5,2.59,5.4,0,0,0,1,0,0,250,250,0,,,,,,,,,,,,,,,,
36783,1620404217382,,,,,,,,0.09,0.02,-1.22,-0,16,3,0.1,,64,4431,7,24,58,0.501,0.0,567,4.86,13.2,0.0,1,25.6,1.44,5.4,0,0,0,1,0,0,250,250,0,,,,,,,,,,,,,,,,
36803,1620404217400,,,,,,,,0.14,0.02,-1.22,-0,15,2,0.14,,64,4422,7,24,58,0.501,0.0,561,4.88,13.1,0.0,1,25.5,1.43,5.4,0,0,0,1,0,0,250,250,0,,,,,,,,,,,,,,,,
36823,1620404217420,,,,,,,,0.17,0.02,-1.12,-0,13,2,0.17,,64,4390,7,24,58,0.501,0.0,566,5.01,13.3,0.0,1,25.0,1.41,5.4,0,0,0,1,0,0,250,250,0,,,,,,,,,,,,,,,,
36843,1620404217440,12,5,33,33,31,33,-1,0.16,0.02,-1.1,-0,11,2,0.16,0,64,4406,7,24,58,0.501,0.0,554,4.93,13.2,0.0,1,25.3,2.59,5.4,0,0,0,1,0,0,250,250,0,45.845802,5.178921,0.0,224.9,6,3,2.5,0,0.0,-1,0.0,0.0,0.0,0,0.0,0.614
36863,1620404217460,,,,,,,,0.13,-0.01,-1.01,-0,8,2,0.14,,64,4394,7,24,58,0.501,0.0,561,4.96,13.3,0.0,1,25.2,1.42,5.3,0,0,0,1,0,0,250,250,0,,,,,,,,,,,,,,,,
36883,1620404217480,,,,,,,,0.08,-0.02,-0.85,-0,5,1,0.08,,64,4336,7,24,59,0.501,0.0,558,4.97,13.4,0.0,1,24.7,1.41,5.3,0,0,0,1,0,0,250,250,0,,,,,,,,,,,,,,,,
36903,1620404217500,,,,,,,,0.02,-0.02,-0.63,-0,3,1,0.03,,64,4415,7,24,59,0.501,0.0,550,4.92,13.4,0.0,1,25.7,1.44,5.3,0,0,0,1,0,0,250,250,0,,,,,,,,,,,,,,,,
36923,1620404217520,,,,,,,,-0.02,0.0,-0.48,-0,2,1,0.02,,64,4372,7,24,59,0.501,0.0,558,4.95,13.4,0.0,1,25.1,2.58,5.3,0,0,0,1,0,0,250,250,0,,,,,,,,,,,,,,,,
36943,1620404217540,12,7,33,35,31,33,-1,-0.06,0.01,-0.43,-0,2,1,0.06,0,64,4372,7,24,59,0.501,0.0,545,4.95,13.4,0.0,1,25.1,2.58,5.2,0,0,0,1,0,0,250,250,0,45.845802,5.178921,0.0,224.9,6,3,2.5,0,0.0,-1,0.0,,0.0,0,0.0,0.6157
36963,1620404217560,,,,,,,,-0.08,0.01,-0.42,-0,3,1,0.08,,64,4445,7,24,59,0.501,0.0,556,4.96,13.4,0.0,1,26.1,2.62,5.2,0,0,0,1,0,0,250,250,0,,,,,,,,,,,,,,,,
36983,1620404217580,,,,,,,,-0.07,0.0,-0.55,-0,4,1,0.07,,64,4361,7,24,59,0.501,0.0,558,4.92,13.4,0.0,1,25.0,2.56,5.2,0,0,0,1,0,0,250,250,0,,,,,,,,,,,,,,,,
