"Interval"|"ms"|0|0|1,"Utc"|"ms"|0|0|1,"Brake_F"|"Bar"|0|2000|10,"Brake_R"|"Bar"|0|2000|10,"Height_RF"|"mm"|0|255|10,"Height_LF"|"mm"|0|255|10,"Height_LR"|"mm"|0|80|10,"Height_RR"|"mm"|0|255|10,"Steering"|"deg"|-100|100|10,"AccelX"|"G"|-3.0|3.0|50,"AccelY"|"G"|-3.0|3.0|50,"AccelZ"|"G"|-3.0|3.0|50,"Yaw"|"Deg/Sec"|-120|120|50,"Pitch"|"Deg/Sec"|-120|120|50,"Roll"|"Deg/Sec"|-120|120|50,"Gsum"|"G"|0.0|3.0|50,"Log_Button"|""|0.0|10.0|10,"WaterTemp"|"C"|0|150|50,"RPM"|"tr/min"|0|14000|50,"TPS"|"%"|0|100|50,"AirTemp"|"C"|0|150|50,"MAP"|"KPa"|0|100|50,"Lambda"|""|0.5|1.5|50,"SpeedDTA"|"kph"|0.0|250.0|50,"OilPress"|"KPa"|0|1500|50,"FuelPressur"|"Bar"|0.0|10.0|50,"Batterie"|"V"|0.0|20.0|50,"ConsoKm"|"L/100km"|0.0|200.0|50,"Gear"|""|0|6|50,"AdvIgnition"|"Deg"|-20.0|70.0|50,"Injection"|"ms"|0.0|10.0|50,"ConsoHr"|"L/Hr"|0.0|10000.0|50,"LC_But_Pres"|""|0|1|50,"LC_Active"|""|0|1|50,"TractionOn"|""|0|1|50,"TractionWet"|""|0|1|50,"FanOn"|""|0|1|50,"RD_Speed"|"km/h"|-30|250|50,"RUD_Speed"|"km/h"|-30|250|50,"LD_Speed"|"km/h"|-30|250|50,"LUD_Speed"|"km/h"|-30|250|50,"Latitude"|"Degrees"|-180.0|180.0|10,"Longitude"|"Degrees"|-180.0|180.0|10,"Speed"|"kph"|0.0|150.0|10,"Altitude"|"m"|0.0|4000.0|10,"GPSSats"|""|0|20|10,"GPSQual"|""|0|5|10,"GPSDOP"|""|0.0|20.0|10,"LapCount"|""|0|0|10,"LapTime"|"Min"|0.0|0.0|10,"Sector"|""|0|0|10,"SectorTime"|"Min"|0.0|0.0|10,"PredTime"|"Min"|0.0|0.0|5,"ElapsedTime"|"Min"|0.0|0.0|10,"CurrentLap"|""|0|0|10,"Distance"|"km"|0.0|0.0|10,"SessionTime"|"Min"|0.0|0.0|10
790063,1620404970682,,,,,,,,-0.28,-1.17,0.08,-55,-17,-7,1.2,,88,5519,8,24,47,0.852,41.3,358,4.83,12.8,15.7,1,30.4,2.6,6.5,0,0,1,1,1,297,-6405,-4059,413,,,,,,,,,,,,,,,,
790083,1620404970702,,,,,,,,-0.25,-1.12,-0.09,-55,-13,-6,1.15,,88,5437,8,24,48,0.861,41.4,340,4.91,13.0,15.7,1,30.4,2.64,6.5,0,0,1,1,1,295,3082,9517,414,,,,,,,,,,,,,,,,
790103,1620404970722,,,,,,,,-0.28,-1.17,0.05,-56,-14,-7,1.2,,88,5415,8,24,49,0.871,41.0,314,4.95,13.0,15.7,1,30.7,2.65,6.5,0,0,1,1,1,283,-1268,-9211,410,,,,,,,,,,,,,,,,
790123,1620404970742,,,,,,,,-0.35,-1.12,0.15,-56,-12,-7,1.17,,88,5423,8,24,49,0.88,40.9,317,4.78,12.8,16.1,1,30.7,2.65,6.6,0,0,1,1,1,291,-14707,28696,409,,,,,,,,,,,,,,,,
790143,1620404970762,0,2,36,22,31,44,-32,-0.31,-1.14,-0.03,-56,-10,-6,1.18,0,88,5441,8,24,50,0.889,39.9,315,4.91,13.0,16.1,1,31.0,2.64,6.6,0,0,1,1,1,288,-6640,-3968,399,45.846233,5.179282,40.61,216.0,9,3,1.7,0,0.0,-1,0.0,,0.0,0,4.81,13.1691
790163,1620404970782,,,,,,,,-0.35,-1.14,0.14,-56,-12,-7,1.2,,88,5474,8,24,51,0.895,40.1,289,4.92,13.0,16.1,1,31.3,2.63,6.6,0,0,1,1,1,274,4104,17144,401,,,,,,,,,,,,,,,,
790183,1620404970801,,,,,,,,-0.34,-1.14,-0.04,-56,-8,-6,1.19,,88,5437,8,24,51,0.9,39.7,274,4.82,12.8,16.1,1,31.2,2.65,6.6,0,0,1,1,1,269,-6640,-3968,403,,,,,,,,,,,,,,,,
790203,1620404970821,,,,,,,,-0.29,-1.12,-0.09,-56,-10,-6,1.16,,88,5352,8,24,52,0.907,40.3,277,4.86,13.0,16.1,1,31.4,2.7,6.6,0,0,1,1,1,273,-6640,6384,403,,,,,,,,,,,,,,,,
790223,1620404970841,,,,,,,,-0.35,-1.06,-0.0,-56,-7,-5,1.12,,88,5271,8,24,52,0.911,40.1,267,4.78,12.8,16.7,1,31.4,2.76,6.7,0,0,1,1,1,300,-29978,-32702,401,,,,,,,,,,,,,,,,
790243,1620404970861,0,1,37,23,32,43,-33,-0.34,-1.08,-0.11,-56,-7,-5,1.13,0,88,5238,8,24,53,0.913,39.7,262,4.85,13.0,16.7,1,31.6,2.79,6.7,0,0,1,1,1,307,3302,-31744,397,45.846233,5.179296,39.55,216.0,9,3,1.7,0,0.0,-1,0.0,0.0,0.0,0,4.82,13.1707
790263,1620404970881,,,,,,,,-0.38,-1.07,0.06,-56,-5,-4,1.14,,88,5323,8,24,53,0.914,39.4,261,4.86,12.9,16.7,1,31.7,2.74,6.7,0,0,1,1,1,297,-1246,19125,398,,,,,,,,,,,,,,,,
790283,1620404970901,,,,,,,,-0.33,-1.08,-0.11,-56,-3,-3,1.13,,88,5408,8,24,54,0.915,38.8,277,4.93,13.0,16.7,1,32.1,2.69,6.7,0,0,1,1,1,286,-1246,2278,388,,,,,,,,,,,,,,,,
790303,1620404970921,,,,,,,,-0.34,-1.11,0.07,-56,-5,-4,1.16,,88,5455,8,24,54,0.914,39.2,272,4.85,12.9,16.7,1,32.1,2.66,6.7,0,0,1,1,1,279,8841,19125,392,,,,,,,,,,,,,,,,
790323,1620404970941,,,,,,,,-0.37,-1.04,-0.04,-56,-2,-3,1.11,,88,5466,8,24,54,0.911,38.8,267,4.88,12.9,17.2,1,32.1,2.65,6.7,0,0,1,1,1,275,-30438,-31744,388,,,,,,,,,,,,,,,,
790343,1620404970961,-0,2,36,23,32,43,-30,-0.32,-1.06,-0.2,-56,-4,-3,1.11,0,88,5409,8,24,55,0.907,39.1,258,4.93,13.0,17.2,1,32.3,2.68,6.7,0,0,1,1,1,275,2811,240,389,45.84623,5.179309,39.12,216.0,9,3,1.7,0,0.0,-1,0.0,,0.0,0,4.82,13.1724
790363,1620404970981,,,,,,,,-0.37,-1.01,-0.02,-56,-3,-4,1.07,,88,5332,8,24,55,0.903,39.1,263,4.88,12.6,17.2,1,32.2,2.73,6.7,0,0,1,1,1,303,8841,-3866,391,,,,,,,,,,,,,,,,
790383,1620404970993,,,,,,,,-0.32,-1.01,-0.18,-56,-2,-3,1.06,,88,5284,8,24,56,0.899,38.8,269,4.87,13.0,17.2,1,32.5,2.75,6.7,0,0,1,1,1,323,-1246,-19019,388,,,,,,,,,,,,,,,,
790403,1620404971013,,,,,,,,-0.36,-1.01,0.0,-56,-4,-3,1.07,,88,5347,8,24,56,0.893,38.5,260,4.82,12.8,17.2,1,32.5,1.55,6.7,0,0,1,1,1,314,-14714,2278,385,,,,,,,,,,,,,,,,
790423,1620404971033,,,,,,,,-0.32,-0.99,-0.17,-55,-0,-3,1.04,,88,5397,8,24,56,0.889,38.5,254,4.9,12.7,17.4,1,32.6,2.68,6.7,0,0,1,1,1,312,-10554,3082,385,,,,,,,,,,,,,,,,
790443,1620404971053,0,1,35,23,32,43,-29,-0.28,-1.04,-0.27,-55,-3,-3,1.08,0,88,5509,8,24,57,0.884,38.3,256,4.95,13.0,17.4,1,32.9,2.6,6.7,0,0,1,1,1,305,3327,-6656,382,45.846226,5.179322,38.23,216.1,9,3,1.7,0,0.0,-1,0.0,0.0,0.0,0,4.82,13.1741
790463,1620404971073,,,,,,,,-0.31,-1.0,-0.08,-55,-5,-4,1.05,,88,5567,9,24,57,0.878,37.8,265,4.83,12.8,17.4,1,32.9,2.55,6.7,0,0,1,1,1,301,-31222,-6656,378,,,,,,,,,,,,,,,,
790483,1620404971103,,,,,,,,-0.28,-0.98,-0.24,-55,-2,-2,1.02,,88,5557,9,24,57,0.874,37.7,265,4.88,12.8,17.4,1,32.9,2.55,6.7,0,0,1,1,1,323,3346,3,377,,,,,,,,,,,,,,,,
790503,1620404971123,,,,,,,,-0.23,-1.02,-0.39,-54,-2,-2,1.05,,88,5597,9,24,57,0.871,37.6,275,4.92,13.0,17.4,1,32.9,2.53,6.7,0,0,1,1,1,332,-122,-6656,376,,,,,,,,,,,,,,,,
790523,1620404971143,,,,,,,,-0.22,-1.04,-0.19,-54,-4,-3,1.07,,87,5632,9,24,58,0.867,37.5,275,4.87,12.7,17.4,1,33.2,2.5,6.7,0,0,1,1,1,332,3346,1,375,,,,,,,,,,,,,,,,
790543,1620404971163,0,1,37,25,31,42,-29,-0.27,-0.94,-0.0,-53,-4,-3,0.98,0,87,5650,10,24,58,0.861,37.3,288,4.86,12.8,17.3,1,33.2,2.48,6.5,0,0,1,1,1,336,-31222,1,373,45.846222,5.179334,37.82,216.2,9,3,1.7,0,0.0,-1,0.0,,0.0,0,4.82,13.1757
790563,1620404971183,,,,,,,,-0.3,-0.92,-0.17,-52,-1,-3,0.97,,87,5657,10,24,59,0.855,36.8,295,4.85,12.9,17.3,1,33.5,2.47,6.5,0,0,1,1,1,334,13,0,368,,,,,,,,,,,,,,,,
790583,1620404971203,,,,,,,,-0.2,-0.92,-0.32,-52,2,-1,0.94,,87,5692,10,24,59,0.849,37.2,306,4.9,13.0,17.3,1,33.5,2.44,6.5,0,0,1,1,1,334,-31222,0,372,,,,,,,,,,,,,,,,
790603,1620404971223,,,,,,,,-0.13,-0.99,-0.46,-51,-0,-1,1.0,,87,5725,10,24,59,0.842,37.1,312,5.0,13.0,17.3,1,33.5,2.42,6.5,0,0,1,1,1,332,2560,0,371,,,,,,,,,,,,,,,,
790623,1620404971243,,,,,,,,-0.16,-1.05,-0.26,-50,-3,-2,1.06,,87,5725,10,24,59,0.835,37.2,318,4.9,13.0,17.2,1,33.5,2.42,6.4,0,0,1,1,1,335,13,0,372,,,,,,,,,,,,,,,,
790643,1620404971263,-1,2,36,25,31,41,-29,-0.24,-1.01,-0.07,-50,-3,-3,1.04,0,87,5756,10,24,59,0.826,37.1,325,4.83,12.9,17.2,1,33.5,2.39,6.4,0,0,1,1,1,333,-32559,-6656,371,45.846214,5.179345,37.24,216.2,9,3,1.7,0,0.0,-1,0.0,0.0,0.0,0,4.82,13.1774
790663,1620404971283,,,,,,,,-0.28,-0.93,0.1,-50,-1,-2,0.97,,87,5746,10,24,60,0.819,37.0,318,4.87,12.9,17.2,1,33.7,2.39,6.4,0,0,1,1,1,332,-20736,0,370,,,,,,,,,,,,,,,,
790683,1620404971303,,,,,,,,-0.25,-0.9,-0.07,-49,2,-1,0.93,,87,5765,10,24,60,0.811,37.0,321,4.88,12.9,17.2,1,33.7,2.39,6.4,0,0,1,1,1,333,3346,0,370,,,,,,,,,,,,,,,,
790703,1620404971323,,,,,,,,-0.19,-0.91,-0.23,-49,4,-0,0.93,,87,5790,10,24,60,0.804,37.0,322,4.92,13.0,17.2,1,33.7,2.37,6.4,0,0,1,1,1,333,-12032,0,370,,,,,,,,,,,,,,,,
790723,1620404971343,,,,,,,,-0.12,-1.0,-0.38,-49,4,1,1.01,,87,5832,10,24,60,0.799,37.4,322,4.94,13.0,16.8,1,33.7,2.34,6.3,0,0,1,1,1,333,3327,0,366,,,,,,,,,,,,,,,,
790743,1620404971363,0,2,36,25,31,41,-29,-0.08,-1.05,-0.51,-49,2,-0,1.05,0,88,5870,10,24,60,0.793,37.0,326,4.91,13.0,16.8,1,33.7,2.32,6.3,0,0,1,1,1,332,-12032,0,368,45.846207,5.179355,36.3,216.2,9,3,1.7,0,0.0,-1,0.0,,0.0,0,4.82,13.1791
790763,1620404971383,,,,,,,,-0.05,-1.03,-0.3,-48,-1,-2,1.03,,87,5844,10,24,60,0.786,36.6,332,4.85,13.0,16.8,1,33.7,2.33,6.3,0,0,1,1,1,334,4838,0,366,,,,,,,,,,,,,,,,
790783,1620404971401,,,,,,,,-0.05,-0.96,-0.11,-48,-5,-3,0.96,,87,5839,10,24,60,0.78,36.9,341,4.83,12.9,16.8,1,33.7,2.34,6.3,0,0,1,1,1,341,4838,230,369,,,,,,,,,,,,,,,,
790803,1620404971421,,,,,,,,-0.1,-0.84,0.06,-48,-6,-4,0.85,,87,5765,10,24,60,0.781,37.1,354,4.82,12.9,16.8,1,33.7,2.39,6.3,0,0,1,1,1,345,3346,257,370,,,,,,,,,,,,,,,,
790823,1620404971441,,,,,,,,-0.14,-0.79,-0.11,-47,-4,-3,0.8,,87,5659,10,24,61,0.783,37.2,365,4.88,12.9,17.1,1,34.0,2.44,6.3,0,0,1,1,1,352,-6528,0,372,,,,,,,,,,,,,,,,
790843,1620404971461,0,3,36,27,29,39,-29,-0.07,-0.88,-0.27,-47,-2,-2,0.88,0,87,5578,10,24,61,0.785,37.0,372,4.89,12.9,17.1,1,34.0,2.5,6.3,0,0,1,1,1,343,2560,0,370,45.846203,5.179365,36.39,216.2,9,3,1.7,0,0.0,-1,0.0,0.0,0.0,0,4.82,13.1807
790863,1620404971481,,,,,,,,-0.05,-0.87,-0.08,-46,-6,-3,0.87,,87,5513,10,24,62,0.787,36.6,379,4.84,12.7,17.1,1,34.2,2.65,6.3,0,0,1,1,1,341,-31222,230,366,,,,,,,,,,,,,,,,
790883,1620404971503,,,,,,,,-0.09,-0.85,-0.13,-45,-4,-2,0.85,,87,5500,10,24,62,0.793,36.7,384,4.81,12.8,17.1,1,34.2,2.65,6.3,0,0,1,1,1,339,-122,-1268,367,,,,,,,,,,,,,,,,
790903,1620404971523,,,,,,,,-0.04,-0.9,-0.29,-45,-2,-1,0.9,,87,5477,10,24,63,0.8,36.7,388,4.88,13.0,17.1,1,34.5,2.66,6.3,0,0,1,1,1,337,13,-6405,367,,,,,,,,,,,,,,,,
790923,1620404971543,,,,,,,,-0.08,-0.9,-0.1,-44,-4,-2,0.91,,87,5500,10,24,63,0.806,36.9,392,4.92,12.8,18.9,1,34.5,2.76,7.0,0,0,1,1,1,336,-6528,-1268,369,,,,,,,,,,,,,,,,
790943,1620404971563,-0,2,36,29,30,39,-28,-0.12,-0.85,-0.22,-44,-1,-2,0.86,0,87,5508,10,24,63,0.811,36.5,389,4.83,12.9,18.9,1,34.5,1.6,7.0,0,0,1,1,1,336,13,-6405,365,45.846195,5.179373,35.97,216.2,9,3,1.7,0,0.0,-1,0.0,,0.0,0,4.82,13.1824
790963,1620404971583,,,,,,,,-0.06,-0.86,-0.37,-44,1,-1,0.86,,87,5539,10,24,64,0.819,36.9,393,4.88,12.7,18.9,1,34.8,2.86,7.0,0,0,1,1,1,335,-32559,-6405,369,,,,,,,,,,,,,,,,
790983,1620404971603,,,,,,,,-0.09,-0.87,-0.17,-44,-2,-3,0.88,,87,5563,10,24,63,0.827,36.5,398,4.89,13.0,18.9,1,34.5,2.85,7.0,0,0,1,1,1,334,-6528,-6405,365,,,,,,,,,,,,,,,,
791003,1620404971623,,,,,,,,-0.14,-0.81,0.01,-44,-2,-3,0.82,,87,5602,10,24,64,0.835,36.7,393,4.91,12.9,18.9,1,34.7,2.84,7.0,0,0,1,1,1,336,4838,-1268,367,,,,,,,,,,,,,,,,
791023,1620404971643,,,,,,,,-0.12,-0.76,-0.16,-44,2,-1,0.77,,87,5645,10,24,64,0.844,37.0,397,4.86,12.8,20.0,1,34.7,2.84,7.4,0,0,1,1,1,335,13,-1268,370,,,,,,,,,,,,,,,,
791043,1620404971663,0,2,36,27,31,39,-28,-0.07,-0.84,-0.31,-44,3,-1,0.84,0,87,5685,10,24,64,0.852,37.0,404,4.92,13.0,20.0,1,34.7,2.82,7.4,0,0,1,1,1,337,4838,230,370,45.846188,5.17938,36.16,216.2,9,3,1.7,0,0.0,-1,0.0,0.0,0.0,0,4.82,13.184
791063,1620404971683,,,,,,,,-0.03,-0.85,-0.12,-44,0,-2,0.85,,87,5733,10,24,63,0.857,36.6,410,4.91,13.0,20.0,1,34.4,2.67,7.4,0,0,1,1,1,338,3346,0,366,,,,,,,,,,,,,,,,
791083,1620404971705,,,,,,,,-0.03,-0.76,0.06,-44,-4,-4,0.76,,87,5702,10,24,63,0.861,36.6,413,4.91,13.0,20.0,1,34.5,2.68,7.4,0,0,1,1,1,345,3346,0,366,,,,,,,,,,,,,,,,
791103,1620404971725,,,,,,,,-0.08,-0.72,0.16,-44,-3,-4,0.72,,87,5686,10,24,63,0.865,36.9,410,4.85,12.8,20.0,1,34.5,2.69,7.4,0,0,1,1,1,359,3346,0,369,,,,,,,,,,,,,,,,
791123,1620404971745,,,,,,,,-0.08,-0.72,-0.02,-43,-0,-2,0.72,,87,5656,10,24,63,0.868,36.4,412,4.85,12.8,19.2,1,34.5,2.7,7.0,0,0,1,1,1,342,13,230,364,,,,,,,,,,,,,,,,
791143,1620404971765,-1,2,36,26,30,39,-27,-0.05,-0.81,-0.18,-43,-1,-1,0.81,0,87,5637,10,24,63,0.869,36.8,414,4.92,13.0,19.2,1,34.5,2.71,7.0,0,0,1,1,1,349,3346,0,368,45.846184,5.179387,35.84,216.2,9,3,1.7,0,0.0,-1,0.0,,0.0,0,4.82,13.1857
791163,1620404971785,,,,,,,,-0.03,-0.83,0.0,-43,-4,-2,0.83,,87,5642,10,24,63,0.869,37.3,417,4.93,13.0,19.2,1,34.5,2.7,7.0,0,0,1,1,1,342,175,230,373,,,,,,,,,,,,,,,,
791183,1620404971802,,,,,,,,-0.06,-0.74,0.17,-43,-5,-3,0.74,,87,5642,10,24,63,0.869,36.7,413,4.83,12.8,19.2,1,34.5,2.7,7.0,0,0,1,1,1,342,2560,0,367,,,,,,,,,,,,,,,,
791203,1620404971822,,,,,,,,-0.05,-0.7,-0.01,-42,-2,-2,0.7,,87,5662,10,24,63,0.868,37.2,413,4.9,12.9,19.2,1,34.5,2.7,7.0,0,0,1,1,1,342,13,0,372,,,,,,,,,,,,,,,,
791223,1620404971842,,,,,,,,0.01,-0.74,-0.18,-42,-1,-1,0.74,,87,5623,10,24,63,0.865,36.8,411,4.89,13.0,19.0,1,34.5,2.71,7.0,0,0,1,1,1,347,6870,0,370,,,,,,,,,,,,,,,,
791243,1620404971862,0,1,36,28,28,37,-26,-0.01,-0.75,0.0,-41,-4,-2,0.75,0,87,5602,10,24,63,0.863,36.9,413,4.91,12.7,19.0,1,34.5,2.72,7.0,0,0,1,1,1,346,13,-6656,369,45.846172,5.179394,35.36,216.2,9,3,1.7,0,0.0,-1,0.0,0.0,0.0,0,4.83,13.1874
791263,1620404971882,,,,,,,,-0.08,-0.72,0.14,-41,-3,-1,0.73,,87,5575,10,24,63,0.859,36.7,416,4.85,12.9,19.0,1,34.5,2.73,7.0,0,0,1,1,1,345,-122,0,368,,,,,,,,,,,,,,,,
791283,1620404971902,,,,,,,,-0.05,-0.64,-0.04,-40,0,-1,0.64,,87,5582,10,24,63,0.856,36.6,412,4.82,12.9,19.0,1,34.5,2.73,7.0,0,0,1,1,1,342,3327,-1268,366,,,,,,,,,,,,,,,,
791303,1620404971922,,,,,,,,0.0,-0.74,-0.2,-40,-0,0,0.74,,87,5598,10,24,63,0.855,36.7,416,4.92,12.7,19.0,1,34.5,2.72,7.0,0,0,1,1,1,341,3327,0,366,,,,,,,,,,,,,,,,
791323,1620404971942,,,,,,,,-0.04,-0.74,-0.02,-39,-4,-2,0.74,,87,5607,10,24,63,0.853,36.4,417,4.93,13.0,19.2,1,34.5,2.72,7.0,0,0,1,1,1,343,2560,3082,368,,,,,,,,,,,,,,,,
791343,1620404971962,-1,2,34,30,26,38,-22,-0.13,-0.66,0.11,-39,-3,-3,0.67,0,87,5650,10,24,63,0.851,36.5,412,4.87,12.6,19.2,1,34.5,2.7,7.0,0,0,1,1,1,341,3327,2790,364,45.846168,5.179399,36.47,216.2,9,3,1.7,0,0.0,-1,0.0,,0.0,0,4.83,13.189
791363,1620404971982,,,,,,,,-0.1,-0.63,-0.07,-39,2,-1,0.64,,87,5678,10,24,63,0.85,36.4,415,4.85,12.8,19.2,1,34.5,2.7,7.0,0,0,1,1,1,342,3346,-6405,361,,,,,,,,,,,,,,,,
791383,1620404971996,,,,,,,,-0.04,-0.68,-0.23,-39,3,1,0.68,,87,5690,10,24,62,0.849,36.6,419,4.91,13.0,19.2,1,34.2,2.55,7.0,0,0,1,1,1,347,-14714,3082,363,,,,,,,,,,,,,,,,
791403,1620404972016,,,,,,,,-0.02,-0.67,-0.04,-38,-1,-0,0.67,,87,5686,10,24,62,0.849,36.9,420,4.95,13.0,19.2,1,34.2,2.56,7.0,0,0,1,1,1,346,3327,230,368,,,,,,,,,,,,,,,,
791423,1620404972036,,,,,,,,-0.06,-0.61,0.13,-38,-3,-1,0.62,,87,5654,10,24,62,0.848,37.0,415,4.85,12.8,19.2,1,34.2,2.57,7.0,0,0,1,1,1,343,2560,230,363,,,,,,,,,,,,,,,,
791443,1620404972056,1,1,35,22,32,35,-20,-0.07,-0.58,-0.05,-37,0,0,0.59,0,87,5593,9,25,62,0.847,36.9,415,4.85,12.8,18.1,1,34.2,2.58,6.7,0,0,1,1,1,346,-31206,0,369,45.846157,5.179403,36.4,216.2,9,3,1.7,0,0.0,-1,0.0,0.0,0.0,0,4.83,13.1907
791463,1620404972076,,,,,,,,-0.03,-0.64,-0.21,-37,0,0,0.65,,87,5562,9,24,62,0.847,36.9,417,4.94,13.0,18.1,1,34.2,2.62,6.7,0,0,1,1,1,347,-10554,230,373,,,,,,,,,,,,,,,,
791483,1620404972104,,,,,,,,-0.03,-0.58,-0.03,-37,-3,-2,0.58,,87,5522,9,24,62,0.846,36.7,414,4.83,12.7,18.1,1,34.2,2.64,6.7,0,0,1,1,1,347,-31222,0,367,,,,,,,,,,,,,,,,
791503,1620404972124,,,,,,,,-0.06,-0.5,-0.19,-36,-1,-1,0.51,,87,5552,9,24,62,0.845,36.9,413,4.81,12.8,18.1,1,34.2,2.74,6.7,0,0,1,1,1,344,-31206,0,369,,,,,,,,,,,,,,,,
791523,1620404972144,,,,,,,,-0.04,-0.48,-0.34,-36,1,0,0.48,,87,5573,9,24,62,0.845,36.4,413,4.91,13.0,18.1,1,34.2,2.61,6.7,0,0,1,1,1,346,-14714,-1268,364,,,,,,,,,,,,,,,,
791543,1620404972164,0,1,36,27,29,37,-18,-0.0,-0.54,-0.48,-35,0,0,0.54,0,87,5580,9,24,62,0.841,36.3,411,4.87,13.0,18.4,1,34.2,2.61,6.7,0,0,1,1,1,343,-30438,-1268,363,45.846149,5.179407,36.42,216.2,9,3,1.7,0,0.0,-1,0.0,,0.0,0,4.83,13.1924
791563,1620404972184,,,,,,,,-0.05,-0.57,-0.27,-34,-2,-1,0.57,,87,5602,9,24,62,0.837,36.3,415,4.85,12.8,18.4,1,34.2,2.6,6.7,0,0,1,1,1,344,6668,3082,363,,,,,,,,,,,,,,,,
791583,1620404972204,,,,,,,,-0.13,-0.53,-0.08,-34,1,-0,0.55,,87,5615,9,25,62,0.835,36.7,417,4.87,12.9,18.4,1,34.2,2.58,6.7,0,0,1,1,1,347,-10554,2790,367,,,,,,,,,,,,,,,,
791603,1620404972224,,,,,,,,-0.07,-0.46,-0.24,-33,3,1,0.47,,87,5612,9,25,62,0.832,36.3,419,4.9,13.0,18.4,1,34.2,2.46,6.7,0,0,1,1,1,344,-14714,2790,363,,,,,,,,,,,,,,,,
791623,1620404972244,,,,,,,,-0.05,-0.54,-0.38,-32,-0,0,0.54,,87,5567,9,25,61,0.829,36.2,420,4.89,13.0,18.4,1,34.0,2.49,6.7,0,0,1,1,1,346,-10554,3082,362,,,,,,,,,,,,,,,,
791643,1620404972264,-1,2,30,28,29,38,-13,-0.08,-0.54,-0.18,-32,-1,0,0.54,0,87,5578,9,24,61,0.825,36.3,419,4.88,12.9,17.6,1,34.0,2.5,6.4,0,0,1,1,1,347,-14714,-6458,363,45.846138,5.17941,36.48,216.2,9,3,1.7,0,0.0,-1,0.0,0.0,0.0,0,4.83,13.194
791663,1620404972284,,,,,,,,-0.11,-0.41,-0.3,-31,3,0,0.42,,87,5630,9,25,61,0.823,36.4,415,4.87,12.8,17.6,1,34.0,2.46,6.4,0,0,1,1,1,344,-10554,-14707,364,,,,,,,,,,,,,,,,
791683,1620404972304,,,,,,,,-0.05,-0.41,-0.44,-31,3,1,0.41,,87,5669,9,25,61,0.822,36.7,421,4.87,12.7,17.6,1,34.0,2.43,6.4,0,0,1,1,1,345,6870,3082,367,,,,,,,,,,,,,,,,
791703,1620404972324,,,,,,,,0.02,-0.48,-0.57,-30,-1,0,0.48,,87,5695,9,24,61,0.818,36.4,423,4.93,13.0,17.6,1,34.0,2.43,6.4,0,0,1,1,1,345,6870,-6458,364,,,,,,,,,,,,,,,,
791723,1620404972344,,,,,,,,0.03,-0.47,-0.36,-30,-4,-1,0.47,,87,5744,9,24,60,0.813,36.0,422,4.85,12.6,17.6,1,33.7,2.4,6.4,0,0,1,1,1,342,-31206,3082,363,,,,,,,,,,,,,,,,
791743,1620404972364,0,1,32,24,30,35,-12,0.01,-0.39,-0.16,-29,-4,-2,0.39,0,87,5753,9,24,60,0.81,36.1,422,4.87,12.9,17.3,1,33.7,2.39,6.3,0,0,1,1,1,345,6870,-14707,361,45.84613,5.179412,36.62,216.2,9,3,1.7,0,0.0,-1,0.0,,0.0,0,4.83,13.1957
791763,1620404972384,,,,,,,,-0.04,-0.3,-0.05,-29,-1,-1,0.3,,87,5719,9,24,60,0.807,36.3,423,4.88,12.9,17.3,1,33.7,2.42,6.3,0,0,1,1,1,352,-10554,3082,363,,,,,,,,,,,,,,,,
791783,1620404972404,,,,,,,,0.0,-0.33,-0.21,-28,-1,-1,0.33,,87,5620,9,24,60,0.803,36.0,425,4.96,12.7,17.3,1,33.7,2.48,6.3,0,0,1,1,1,349,-14714,2790,367,,,,,,,,,,,,,,,,
791803,1620404972424,,,,,,,,0.03,-0.41,-0.06,-27,-5,-3,0.41,,87,5572,8,24,60,0.8,36.4,426,4.92,13.0,17.3,1,33.7,2.53,6.3,0,0,1,1,1,354,-14714,-29302,364,,,,,,,,,,,,,,,,
791823,1620404972444,,,,,,,,-0.04,-0.38,0.11,-27,-4,-3,0.38,,87,5504,8,24,60,0.796,36.3,420,4.84,12.8,17.3,1,33.7,2.56,6.3,0,0,1,1,1,350,6870,-6458,358,,,,,,,,,,,,,,,,
791843,1620404972464,0,1,32,28,29,36,-12,-0.03,-0.36,-0.07,-26,-2,-2,0.36,0,87,5495,8,24,60,0.793,35.7,413,4.89,12.9,18.1,1,33.7,2.57,6.5,0,0,1,1,1,346,8841,2790,357,45.846123,5.179414,36.38,216.2,9,3,1.7,0,0.0,-1,0.0,0.0,0.0,0,4.83,13.1974
791863,1620404972484,,,,,,,,-0.01,-0.41,0.07,-26,-5,-3,0.41,,87,5442,8,24,60,0.789,36.3,413,4.95,13.0,18.1,1,33.7,2.6,6.5,0,0,1,1,1,344,-10554,-6458,360,,,,,,,,,,,,,,,,
791883,1620404972504,,,,,,,,-0.06,-0.35,0.09,-26,-3,-2,0.36,,87,5405,8,24,60,0.785,36.2,408,4.88,12.8,18.1,1,33.7,1.47,6.5,0,0,1,1,1,342,-14714,-14707,359,,,,,,,,,,,,,,,,
791903,1620404972524,,,,,,,,-0.01,-0.36,-0.08,-25,-2,-1,0.36,,87,5374,8,24,60,0.782,36.0,403,4.91,13.0,18.1,1,33.7,2.65,6.5,0,0,1,1,1,343,8841,-14707,361,,,,,,,,,,,,,,,,
791923,1620404972544,,,,,,,,-0.09,-0.37,0.09,-24,-3,-2,0.38,,87,5369,8,24,60,0.778,36.0,402,4.9,13.0,18.1,1,33.7,2.63,6.5,0,0,1,1,1,343,-30438,-6640,362,,,,,,,,,,,,,,,,
791943,1620404972564,1,3,29,28,29,37,-7,-0.01,-0.33,-0.08,-24,-2,-2,0.33,0,87,5325,8,24,61,0.776,36.3,403,4.87,12.9,18.0,1,34.0,2.66,6.5,0,0,1,1,1,345,6870,-29978,356,45.846111,5.179415,36.93,216.2,9,3,1.7,0,0.0,-1,0.0,,0.0,0,4.83,13.199
791963,1620404972584,,,,,,,,-0.06,-0.31,0.09,-23,-4,-3,0.31,,87,5347,8,24,60,0.776,36.1,405,4.93,13.0,18.0,1,33.7,2.64,6.5,0,0,1,1,1,344,-10554,-29978,359,,,,,,,,,,,,,,,,
791983,1620404972604,,,,,,,,-0.03,-0.29,-0.08,-22,-2,-2,0.29,,87,5323,8,24,61,0.776,35.4,400,4.88,12.9,18.0,1,34.0,2.66,6.5,0,0,1,1,1,345,8841,4104,354,,,,,,,,,,,,,,,,
792003,1620404972624,,,,,,,,-0.04,-0.26,0.09,-21,-4,-3,0.26,,87,5281,8,24,61,0.776,35.1,405,4.97,13.0,18.0,1,34.0,2.69,6.5,0,0,1,1,1,346,2811,3302,355,,,,,,,,,,,,,,,,
792023,1620404972644,,,,,,,,-0.03,-0.2,-0.08,-21,-2,-2,0.2,,87,5260,8,24,61,0.775,35.5,399,4.9,12.7,18.0,1,34.0,1.54,6.5,0,0,1,1,1,344,6870,-6644,355,,,,,,,,,,,,,,,,
792043,1620404972664,0,2,30,28,31,35,4,-0.05,-0.19,-0.01,-19,-3,-2,0.2,0,87,5274,8,24,61,0.776,35.1,400,4.95,13.0,18.3,1,34.0,2.69,6.5,0,0,1,1,1,343,-1246,-30454,351,45.846104,5.179415,37.03,216.2,9,3,1.7,0,0.0,-1,0.0,0.0,0.0,0,4.83,13.2007
792063,1620404972684,,,,,,,,-0.08,-0.12,-0.18,-18,-0,-1,0.14,,87,5313,8,24,61,0.778,35.0,396,4.9,12.8,18.3,1,34.0,2.66,6.5,0,0,1,1,1,342,-1246,8841,350,,,,,,,,,,,,,,,,
792083,1620404972704,,,,,,,,-0.07,-0.14,-0.33,-16,-1,-1,0.15,,87,5403,8,24,61,0.779,35.2,403,4.93,13.0,18.3,1,34.0,2.61,6.5,0,0,1,1,1,344,-30438,-14714,352,,,,,,,,,,,,,,,,
792103,1620404972724,,,,,,,,-0.11,-0.11,-0.14,-15,-2,-1,0.15,,87,5534,8,24,61,0.78,34.3,405,4.82,13.0,18.3,1,34.0,2.52,6.5,0,0,1,1,1,342,-14714,6668,343,,,,,,,,,,,,,,,,
792123,1620404972744,,,,,,,,-0.11,-0.03,-0.29,-13,2,-0,0.12,,87,5603,8,24,61,0.781,34.4,408,4.9,12.9,18.3,1,34.0,2.48,6.5,0,0,1,1,1,342,-14714,-31206,344,,,,,,,,,,,,,,,,
792143,1620404972764,1,0,28,30,34,34,13,-0.04,-0.04,-0.43,-12,3,0,0.05,0,87,5635,8,24,60,0.783,34.1,415,4.93,13.0,18.6,1,33.7,2.47,6.4,0,0,1,1,1,345,3327,-10554,341,45.846092,5.179415,36.9,216.2,9,3,1.7,0,0.0,-1,0.0,,0.0,0,4.83,13.2024
792163,1620404972784,,,,,,,,0.01,-0.01,-0.26,-10,-2,-1,0.01,,87,5662,8,24,60,0.784,35.0,422,4.88,13.0,18.6,1,33.7,2.45,6.4,0,0,1,1,1,348,-30454,6668,340,,,,,,,,,,,,,,,,
792183,1620404972803,,,,,,,,-0.01,0.04,-0.07,-9,-5,-2,0.04,,87,5718,8,24,59,0.785,35.1,421,4.84,12.6,18.6,1,33.5,2.42,6.4,0,0,1,1,1,347,28553,-14714,342,,,,,,,,,,,,,,,,
792203,1620404972823,,,,,,,,-0.07,0.13,0.1,-7,-4,-1,0.14,,87,5779,8,24,59,0.782,34.9,424,4.88,12.8,18.6,1,33.5,2.39,6.4,0,0,1,1,1,347,2811,6668,339,,,,,,,,,,,,,,,,
792223,1620404972843,,,,,,,,-0.14,0.24,0.16,-5,-1,1,0.28,,87,5808,8,24,59,0.782,35.1,430,4.82,12.9,18.6,1,33.5,2.37,6.4,0,0,1,1,1,349,28553,3327,340,,,,,,,,,,,,,,,,
792243,1620404972863,1,0,28,31,35,33,23,-0.13,0.25,-0.02,-3,1,2,0.28,0,87,5788,8,24,58,0.78,35.1,436,4.87,12.9,18.5,1,33.3,2.39,6.3,0,0,1,1,1,350,28553,-31222,343,45.846085,5.179415,36.44,216.2,9,3,1.7,0,0.0,-1,0.0,0.0,0.0,0,4.84,13.2041
792263,1620404972883,,,,,,,,-0.11,0.25,-0.19,-1,2,2,0.28,,87,5803,8,24,58,0.78,35.2,442,4.98,12.8,18.5,1,33.3,2.38,6.3,0,0,1,1,1,352,3183,2560,339,,,,,,,,,,,,,,,,
792283,1620404972903,,,,,,,,-0.01,0.2,-0.34,1,2,3,0.2,,87,5792,8,24,58,0.777,34.9,439,4.96,13.0,18.5,1,33.3,2.39,6.3,0,0,1,1,1,351,28553,13,337,,,,,,,,,,,,,,,,
792303,1620404972923,,,,,,,,0.05,0.26,-0.4,3,-2,2,0.26,,87,5778,8,24,57,0.775,34.5,443,4.95,12.8,18.5,1,33.0,2.41,6.3,0,0,1,1,1,353,2060,-31222,331,,,,,,,,,,,,,,,,
792323,1620404972943,,,,,,,,0.02,0.31,-0.2,5,-4,1,0.31,,87,5668,8,24,57,0.772,35.4,442,4.91,13.0,18.5,1,33.0,2.47,6.3,0,0,1,1,1,355,3302,-10554,333,,,,,,,,,,,,,,,,
792343,1620404972963,1,2,27,34,36,30,35,-0.01,0.37,-0.35,7,-0,1,0.37,0,87,5485,8,24,58,0.77,35.8,435,4.86,12.6,19.5,1,33.1,2.55,6.5,0,0,1,1,1,357,-29978,-30454,335,45.846073,5.179416,35.91,216.3,9,3,1.7,0,0.0,-1,0.0,,0.0,0,4.84,13.2057
792363,1620404972983,,,,,,,,-0.0,0.32,-0.35,9,-4,1,0.32,,87,5380,8,24,58,0.768,36.0,423,4.96,12.9,19.5,1,33.1,2.66,6.5,0,0,1,1,1,355,-14707,-14714,335,,,,,,,,,,,,,,,,
792383,1620404972993,,,,,,,,-0.09,0.43,-0.16,12,-2,2,0.44,,87,5298,8,24,58,0.766,36.1,416,4.88,12.6,19.5,1,33.1,2.71,6.5,0,0,1,1,1,355,-6458,-6528,333,,,,,,,,,,,,,,,,
792403,1620404973013,,,,,,,,-0.04,0.43,-0.31,14,-3,2,0.43,,87,5240,8,24,59,0.764,36.0,408,4.91,12.7,19.5,1,33.4,2.74,6.5,0,0,1,1,1,360,-14707,-32559,330,,,,,,,,,,,,,,,,
792423,1620404973033,,,,,,,,-0.08,0.43,-0.3,16,-1,2,0.44,,87,5188,8,24,59,0.762,35.8,398,4.84,12.8,19.5,1,33.4,2.77,6.5,0,0,1,1,1,357,-29978,175,327,,,,,,,,,,,,,,,,
792443,1620404973053,0,2,27,36,37,31,49,-0.07,0.5,-0.2,18,-3,2,0.5,0,87,5124,8,24,59,0.763,35.8,397,4.95,12.8,20.1,1,33.3,2.82,6.6,0,0,1,1,1,358,-29978,-22016,327,45.846066,5.179416,35.5,216.3,9,3,1.8,0,0.0,-1,0.0,0.0,0.0,0,4.84,13.2074
792463,1620404973073,,,,,,,,-0.03,0.54,-0.35,21,0,2,0.54,,87,5096,8,24,60,0.762,36.2,393,4.87,12.7,20.1,1,33.6,2.82,6.6,0,0,1,1,1,359,2790,-23296,327,,,,,,,,,,,,,,,,
792483,1620404973103,,,,,,,,-0.12,0.6,-0.15,23,1,3,0.61,,87,4997,8,24,60,0.762,36.3,390,4.87,12.8,20.1,1,33.5,2.87,6.6,0,0,1,1,1,359,3082,-24576,321,,,,,,,,,,,,,,,,
792503,1620404973123,,,,,,,,-0.13,0.67,-0.13,25,1,3,0.68,,87,4944,8,24,60,0.761,36.5,383,4.88,12.7,20.1,1,32.9,2.85,6.6,0,0,1,1,1,359,-6405,155,321,,,,,,,,,,,,,,,,
792523,1620404973143,,,,,,,,-0.06,0.68,-0.28,27,1,3,0.68,,87,4925,8,24,60,0.762,36.2,378,4.87,13.0,20.1,1,32.6,2.84,6.6,0,0,1,1,1,356,2790,-27136,321,,,,,,,,,,,,,,,,
792543,1620404973163,-1,2,24,34,38,30,51,-0.15,0.74,-0.09,30,2,2,0.75,0,87,5068,8,24,60,0.763,36.1,373,4.85,12.7,19.9,1,33.6,2.84,6.4,0,0,1,1,1,355,-6458,120,318,45.846058,5.179416,35.32,216.3,9,3,1.8,0,0.0,-1,0.0,,0.0,0,4.84,13.2091
792563,1620404973183,,,,,,,,-0.13,0.74,-0.25,32,-0,2,0.75,,87,5173,8,24,61,0.766,36.0,380,4.95,12.7,19.9,1,34.0,2.75,6.4,0,0,1,1,1,352,-14707,25600,318,,,,,,,,,,,,,,,,
792583,1620404973203,,,,,,,,-0.15,0.82,-0.06,34,0,2,0.83,,87,5313,8,24,61,0.767,36.1,388,4.85,12.6,19.9,1,34.0,2.66,6.4,0,0,1,1,1,354,-6458,23040,319,,,,,,,,,,,,,,,,
792603,1620404973223,,,,,,,,-0.1,0.79,-0.23,36,1,2,0.8,,87,5374,9,24,61,0.771,35.7,395,4.89,13.0,19.9,1,34.0,2.63,6.4,0,0,1,1,1,358,-6640,23040,317,,,,,,,,,,,,,,,,
792623,1620404973243,,,,,,,,-0.14,0.82,-0.04,38,-3,0,0.83,,87,5405,9,24,61,0.776,35.9,402,4.84,12.8,19.9,1,34.0,2.61,6.4,0,0,1,1,1,356,-29302,120,315,,,,,,,,,,,,,,,,
792643,1620404973263,1,0,25,38,40,33,51,-0.14,0.81,-0.2,39,-0,2,0.83,0,87,5437,9,24,61,0.779,35.7,406,4.9,12.6,20.6,1,34.0,2.6,6.5,0,0,1,1,1,358,-6640,125,310,45.84605,5.179418,34.87,216.3,9,3,1.8,0,0.0,-1,0.0,0.0,0.0,0,4.84,13.2107
792663,1620404973283,,,,,,,,-0.12,0.81,-0.17,41,-2,1,0.82,,87,5422,9,24,61,0.784,36.3,407,4.95,13.0,20.6,1,34.0,2.59,6.5,0,0,1,1,1,357,3082,125,316,,,,,,,,,,,,,,,,
792683,1620404973303,,,,,,,,-0.2,0.81,0.01,42,-2,1,0.84,,87,5455,9,24,61,0.787,35.2,410,4.84,12.5,20.6,1,34.0,2.57,6.5,0,0,1,1,1,354,3183,125,312,,,,,,,,,,,,,,,,
792703,1620404973323,,,,,,,,-0.13,0.88,-0.15,43,2,3,0.89,,87,5456,9,24,62,0.791,35.2,414,4.87,12.6,20.6,1,34.2,2.67,6.5,0,0,1,1,1,351,3183,-32256,311,,,,,,,,,,,,,,,,
792723,1620404973343,,,,,,,,-0.14,0.84,0.03,43,-1,2,0.85,,87,5490,9,24,61,0.794,35.1,419,4.9,12.7,20.6,1,34.0,2.55,6.5,0,0,1,1,1,349,28553,125,312,,,,,,,,,,,,,,,,
792743,1620404973363,-1,2,25,35,40,31,48,-0.18,0.89,0.13,44,1,1,0.91,0,87,5500,9,24,61,0.797,35.0,417,4.88,12.7,20.5,1,34.0,2.54,6.4,0,0,1,1,1,347,2811,-32256,312,45.846039,5.17942,33.97,216.2,9,3,1.7,0,0.0,-1,0.0,,0.0,0,4.84,13.2124
792763,1620404973383,,,,,,,,-0.12,0.85,-0.05,45,3,2,0.86,,87,5535,9,24,61,0.798,35.0,414,4.89,12.9,20.5,1,34.0,2.52,6.4,0,0,1,1,1,350,-1246,130,313,,,,,,,,,,,,,,,,
792783,1620404973403,,,,,,,,-0.09,0.89,0.12,46,-1,1,0.89,,87,5550,9,24,61,0.797,35.2,420,4.88,12.7,20.5,1,34.0,2.51,6.4,0,0,1,1,1,351,3183,120,312,,,,,,,,,,,,,,,,
792803,1620404973423,,,,,,,,-0.15,0.93,0.28,46,-3,0,0.95,,87,5553,9,24,61,0.796,34.6,419,4.84,12.5,20.5,1,34.0,2.51,6.4,0,0,1,1,1,349,-30438,125,311,,,,,,,,,,,,,,,,
792823,1620404973443,,,,,,,,-0.12,0.89,0.09,47,2,2,0.9,,87,5542,9,24,61,0.795,35.6,417,4.86,12.6,20.5,1,34.0,2.52,6.4,0,0,1,1,1,349,4104,-30976,309,,,,,,,,,,,,,,,,
792843,1620404973463,0,2,26,35,40,31,47,-0.08,0.81,0.18,47,-1,2,0.82,0,87,5458,9,24,61,0.793,34.8,417,4.98,12.7,20.5,1,34.0,2.57,6.4,0,0,1,1,1,350,-1246,175,312,45.846031,5.179424,34.04,216.3,9,3,1.7,0,0.0,-1,0.0,0.0,0.0,0,4.84,13.2141
792863,1620404973483,,,,,,,,-0.14,0.85,0.33,47,-1,2,0.87,,87,5323,9,24,62,0.789,35.0,411,4.85,12.6,20.5,1,34.2,2.75,6.4,0,0,1,1,1,349,-30454,-6644,312,,,,,,,,,,,,,,,,
792883,1620404973503,,,,,,,,-0.07,0.81,0.13,47,-2,3,0.81,,87,5310,9,24,62,0.786,35.2,402,4.9,12.8,20.5,1,34.2,2.75,6.4,0,0,1,1,1,348,3183,-12032,309,,,,,,,,,,,,,,,,
792903,1620404973523,,,,,,,,-0.15,0.81,0.29,47,-1,2,0.82,,87,5290,9,24,62,0.782,35.0,401,4.83,12.8,20.5,1,34.2,2.76,6.4,0,0,1,1,1,349,-30438,130,312,,,,,,,,,,,,,,,,
792923,1620404973543,,,,,,,,-0.11,0.8,0.1,47,-2,2,0.81,,87,5233,9,24,63,0.779,34.6,405,4.93,12.7,22.1,1,34.6,2.87,6.9,0,0,1,1,1,348,-14714,140,311,,,,,,,,,,,,,,,,
792943,1620404973563,-1,2,26,39,38,31,45,-0.16,0.77,0.14,47,-0,1,0.79,0,87,5195,9,24,63,0.776,34.9,400,4.83,12.9,22.1,1,34.6,2.88,6.9,0,0,1,1,1,346,28553,140,314,45.846027,5.179429,33.04,216.3,9,3,1.7,0,0.0,-1,0.0,,0.0,0,4.84,13.2157
792963,1620404973583,,,,,,,,-0.11,0.76,-0.04,47,-3,2,0.77,,87,5186,9,24,63,0.773,34.6,396,4.95,13.0,22.1,1,34.6,2.89,6.9,0,0,1,1,1,347,-30438,130,307,,,,,,,,,,,,,,,,
792983,1620404973603,,,,,,,,-0.12,0.82,-0.2,47,1,3,0.83,,87,5176,9,24,63,0.769,35.2,393,4.82,12.6,22.1,1,34.6,2.89,6.9,0,0,1,1,1,346,3183,-32256,311,,,,,,,,,,,,,,,,
793003,1620404973623,,,,,,,,-0.1,0.82,-0.02,47,-2,2,0.82,,87,5144,9,24,63,0.768,34.5,391,4.97,12.8,22.1,1,34.6,2.9,6.9,0,0,1,1,1,344,6870,130,308,,,,,,,,,,,,,,,,
793023,1620404973643,,,,,,,,-0.07,0.84,-0.18,47,-0,3,0.84,,87,5152,9,24,63,0.768,34.9,387,4.87,12.5,22.1,1,34.6,2.9,6.9,0,0,1,1,1,345,2811,125,313,,,,,,,,,,,,,,,,
793043,1620404973663,1,2,26,40,37,32,44,-0.18,0.81,-0.0,47,0,2,0.83,0,87,5118,9,24,63,0.77,34.8,388,4.93,12.7,22.0,1,34.6,2.92,6.9,0,0,1,1,1,344,-1246,-32256,310,45.846016,5.179434,34.48,216.3,9,3,1.7,0,0.0,-1,0.0,0.0,0.0,0,4.84,13.2174
793063,1620404973683,,,,,,,,-0.1,0.82,-0.17,47,0,2,0.83,,87,5121,9,24,64,0.771,34.9,388,4.91,12.9,22.0,1,34.9,2.92,6.9,0,0,1,1,1,345,-30438,125,307,,,,,,,,,,,,,,,,
793083,1620404973703,,,,,,,,-0.17,0.79,-0.03,47,1,2,0.81,,87,5149,9,24,63,0.772,34.4,385,4.87,12.6,22.0,1,34.6,2.9,6.9,0,0,1,1,1,344,3327,115,308,,,,,,,,,,,,,,,,
793103,1620404973723,,,,,,,,-0.12,0.8,-0.19,47,1,1,0.81,,87,5186,9,24,64,0.775,34.5,387,4.95,12.8,22.0,1,34.9,2.96,6.9,0,0,1,1,1,343,6870,115,308,,,,,,,,,,,,,,,,
793123,1620404973743,,,,,,,,-0.13,0.82,-0.34,47,2,2,0.83,,87,5205,9,24,64,0.777,34.2,388,4.88,12.6,22.0,1,34.9,2.95,6.9,0,0,1,1,1,340,-31206,30720,312,,,,,,,,,,,,,,,,
793143,1620404973763,1,3,26,36,38,32,43,-0.08,0.81,-0.29,47,0,2,0.81,0,87,5227,9,24,64,0.779,34.9,389,4.92,12.7,22.7,1,34.9,2.95,7.1,0,0,1,1,1,343,2811,30720,306,45.846008,5.17944,34.0,216.3,9,3,1.7,0,0.0,-1,0.0,,0.0,0,4.84,13.2191
793163,1620404973783,,,,,,,,-0.14,0.83,-0.43,47,2,3,0.84,,87,5237,9,24,64,0.781,34.3,394,4.87,12.7,22.7,1,34.9,2.95,7.1,0,0,1,1,1,343,-14714,30720,307,,,,,,,,,,,,,,,,
793183,1620404973802,,,,,,,,-0.12,0.84,-0.33,47,-0,2,0.84,,87,5250,9,24,64,0.782,34.4,396,4.93,12.7,22.7,1,34.9,2.94,7.1,0,0,1,1,1,342,-10554,32000,304,,,,,,,,,,,,,,,,
793203,1620404973822,,,,,,,,-0.13,0.83,-0.47,47,3,3,0.84,,87,5230,9,24,64,0.783,34.2,392,4.84,12.5,22.7,1,34.9,1.79,7.1,0,0,1,1,1,342,6870,32000,309,,,,,,,,,,,,,,,,
793223,1620404973842,,,,,,,,-0.15,0.8,-0.27,46,-0,3,0.82,,87,5180,9,24,64,0.784,34.3,391,4.85,12.7,22.7,1,34.9,2.96,7.1,0,0,1,1,1,342,-14714,130,307,,,,,,,,,,,,,,,,
793243,1620404973862,1,2,27,36,38,31,43,-0.12,0.82,-0.41,46,3,3,0.82,0,87,5136,9,24,64,0.784,34.0,388,4.85,12.5,23.1,1,34.9,2.97,7.1,0,0,1,1,1,341,3327,-29696,309,45.846004,5.179448,33.66,216.3,9,3,1.7,0,0.0,-1,0.0,0.0,0.0,0,4.85,13.2207
793263,1620404973882,,,,,,,,-0.17,0.82,-0.21,46,0,2,0.84,,87,5120,9,24,64,0.783,34.4,384,4.92,12.7,23.1,1,34.9,2.98,7.1,0,0,1,1,1,341,-10554,125,310,,,,,,,,,,,,,,,,
793283,1620404973902,,,,,,,,-0.06,0.76,-0.36,46,1,3,0.77,,87,5145,9,24,64,0.782,33.8,387,4.9,12.7,23.1,1,34.9,2.97,7.1,0,0,1,1,1,339,-31222,120,308,,,,,,,,,,,,,,,,
793303,1620404973922,,,,,,,,-0.12,0.78,-0.22,45,1,3,0.79,,87,5124,9,24,64,0.781,34.7,389,4.91,12.7,23.1,1,34.9,2.98,7.1,0,0,1,1,1,340,8841,32000,313,,,,,,,,,,,,,,,,
793323,1620404973942,,,,,,,,-0.1,0.73,-0.19,45,0,2,0.74,,87,5172,9,24,65,0.779,34.3,388,4.89,12.7,23.1,1,35.2,1.88,7.1,0,0,1,1,1,339,3327,120,308,,,,,,,,,,,,,,,,
793343,1620404973962,-1,2,30,38,37,31,41,-0.17,0.74,-0.14,45,2,3,0.76,0,87,5196,9,24,65,0.778,34.1,387,4.89,12.6,23.3,1,35.2,3.03,7.2,0,0,1,1,1,336,6668,115,306,45.845997,5.179456,33.64,216.2,9,3,1.7,0,0.0,-1,0.0,,0.0,0,4.85,13.2224
793363,1620404973982,,,,,,,,-0.13,0.73,-0.21,45,1,3,0.74,,87,5196,9,24,65,0.776,33.8,391,4.91,12.9,23.3,1,35.2,2.96,7.2,0,0,1,1,1,337,-31222,32000,306,,,,,,,,,,,,,,,,
793383,1620404973994,,,,,,,,-0.15,0.73,-0.36,44,3,3,0.75,,87,5198,9,24,64,0.774,34.1,389,4.89,12.8,23.3,1,34.9,3.03,7.2,0,0,1,1,1,339,6668,135,310,,,,,,,,,,,,,,,,
793403,1620404974014,,,,,,,,-0.16,0.74,-0.16,44,-0,3,0.76,,87,5139,9,24,65,0.772,33.9,389,4.95,12.8,23.3,1,35.2,2.98,7.2,0,0,1,1,1,338,-122,130,310,,,,,,,,,,,,,,,,
793423,1620404974034,,,,,,,,-0.08,0.75,-0.32,44,2,3,0.75,,87,5115,9,24,65,0.77,34.3,391,4.83,12.6,23.3,1,35.2,3.05,7.2,0,0,1,1,1,339,3327,135,309,,,,,,,,,,,,,,,,
793443,1620404974054,0,2,28,38,37,30,40,-0.15,0.77,-0.12,44,-0,2,0.78,0,87,5121,9,24,65,0.769,34.4,387,4.88,13.0,23.3,1,35.2,3.05,7.2,0,0,1,1,1,341,-10554,-28416,307,45.845993,5.179464,33.45,216.3,9,3,1.7,0,0.0,-1,0.0,0.0,0.0,0,4.85,13.224
793463,1620404974074,,,,,,,,-0.1,0.7,-0.28,44,-1,2,0.71,,87,5110,9,24,65,0.768,34.4,385,4.89,12.9,23.3,1,35.2,3.05,7.2,0,0,1,1,1,338,-10554,30720,307,,,,,,,,,,,,,,,,
793483,1620404974104,,,,,,,,-0.14,0.73,-0.36,43,1,2,0.74,,87,5141,9,24,65,0.767,33.9,387,4.86,12.5,23.3,1,35.2,3.04,7.2,0,0,1,1,1,337,-122,30720,310,,,,,,,,,,,,,,,,
793503,1620404974124,,,,,,,,-0.09,0.71,-0.49,44,0,3,0.71,,87,5163,9,25,65,0.767,33.9,388,4.96,12.8,23.3,1,35.2,3.03,7.2,0,0,1,1,1,336,-122,120,309,,,,,,,,,,,,,,,,
793523,1620404974144,,,,,,,,-0.14,0.71,-0.44,43,2,3,0.73,,87,5144,9,24,65,0.767,34.1,386,4.81,12.5,23.4,1,35.2,3.04,7.2,0,0,1,1,1,339,6668,120,307,,,,,,,,,,,,,,,,
793543,1620404974164,-1,2,28,36,36,32,38,-0.06,0.71,-0.53,43,-0,3,0.72,0,87,5152,9,24,65,0.767,34.0,388,4.95,13.0,23.4,1,35.2,3.04,7.2,0,0,1,1,1,337,-31206,120,307,45.845989,5.179474,33.2,216.2,9,3,1.7,0,0.0,-1,0.0,,0.0,0,4.85,13.2257
793563,1620404974184,,,,,,,,-0.04,0.72,-0.65,43,2,3,0.73,,88,5138,9,24,65,0.767,33.9,388,4.84,12.8,23.4,1,35.2,3.04,7.2,0,0,1,1,1,336,-122,125,308,,,,,,,,,,,,,,,,
793583,1620404974202,,,,,,,,-0.1,0.69,-0.43,43,3,3,0.7,,88,5079,9,25,65,0.766,34.3,385,4.92,12.7,23.4,1,35.2,3.04,7.2,0,0,1,1,1,338,-14714,125,307,,,,,,,,,,,,,,,,
793603,1620404974222,,,,,,,,-0.06,0.69,-0.56,42,2,2,0.69,,88,5104,9,25,65,0.767,33.9,384,4.9,12.6,23.4,1,35.2,3.04,7.2,0,0,1,1,1,335,-122,125,307,,,,,,,,,,,,,,,,
793623,1620404974242,,,,,,,,-0.12,0.7,-0.35,42,4,3,0.71,,88,5104,9,25,65,0.766,33.7,383,4.85,12.5,23.2,1,35.2,3.04,7.1,0,0,1,1,1,336,-31206,30720,305,,,,,,,,,,,,,,,,
793643,1620404974262,-1,2,27,36,37,32,37,-0.07,0.62,-0.49,42,0,2,0.62,0,88,5158,9,25,65,0.767,33.9,382,4.93,12.7,23.2,1,35.2,3.03,7.1,0,0,1,1,1,337,3327,120,308,45.845985,5.179483,33.44,216.2,9,3,1.7,0,0.0,-1,0.0,0.0,0.0,0,4.85,13.2274
793663,1620404974282,,,,,,,,-0.08,0.64,-0.61,41,3,3,0.64,,88,5196,9,25,65,0.766,33.9,384,4.88,12.6,23.2,1,35.2,3.02,7.1,0,0,1,1,1,335,-122,120,308,,,,,,,,,,,,,,,,
793683,1620404974302,,,,,,,,-0.05,0.64,-0.45,41,-1,2,0.64,,88,5195,9,25,65,0.766,33.8,391,4.96,12.7,23.2,1,35.2,3.02,7.1,0,0,1,1,1,336,-31222,32000,310,,,,,,,,,,,,,,,,
793703,1620404974322,,,,,,,,-0.02,0.66,-0.58,41,2,3,0.66,,88,5193,9,25,65,0.766,33.9,385,4.88,12.5,23.2,1,35.2,3.02,7.1,0,0,1,1,1,337,-122,-28416,307,,,,,,,,,,,,,,,,
793723,1620404974342,,,,,,,,-0.06,0.67,-0.37,40,1,2,0.67,,88,5071,9,24,65,0.765,33.5,385,4.88,12.6,23.0,1,35.2,3.06,7.1,0,0,1,1,1,336,2560,-29696,308,,,,,,,,,,,,,,,,
793743,1620404974362,1,0,28,34,36,30,38,-0.03,0.64,-0.5,40,-1,2,0.64,0,88,5025,10,24,66,0.766,33.2,387,4.87,12.7,23.0,1,35.5,3.12,7.1,0,0,1,1,1,336,-32559,-29696,311,45.845978,5.179493,33.14,216.1,9,3,1.7,0,0.0,-1,0.0,,0.0,0,4.85,13.229
793763,1620404974382,,,,,,,,-0.04,0.65,-0.63,40,2,3,0.65,,88,4990,10,25,66,0.765,33.6,378,4.85,12.7,23.0,1,35.3,3.1,7.1,0,0,1,1,1,337,13,32000,308,,,,,,,,,,,,,,,,
793783,1620404974402,,,,,,,,-0.07,0.64,-0.41,40,-1,2,0.64,,88,5055,10,24,66,0.766,33.9,380,4.95,12.7,23.0,1,35.5,3.12,7.1,0,0,1,1,1,337,-122,125,307,,,,,,,,,,,,,,,,
793803,1620404974422,,,,,,,,0.0,0.66,-0.54,39,-0,2,0.66,,88,5074,10,25,66,0.766,34.1,382,4.83,12.7,23.0,1,35.5,3.11,7.1,0,0,1,1,1,336,2560,120,305,,,,,,,,,,,,,,,,
793823,1620404974442,,,,,,,,-0.11,0.66,-0.33,39,1,2,0.67,,88,5155,10,25,66,0.765,33.6,379,4.85,12.6,23.9,1,35.5,3.1,7.4,0,0,1,1,1,336,-31222,120,309,,,,,,,,,,,,,,,,
793843,1620404974462,0,3,28,34,36,30,38,-0.05,0.63,-0.47,39,-1,2,0.63,0,88,5175,10,25,66,0.765,33.8,387,4.9,12.7,23.9,1,35.5,3.1,7.4,0,0,1,1,1,335,-31222,120,308,45.845974,5.179504,33.03,216.1,9,3,1.7,0,0.0,-1,0.0,0.0,0.0,0,4.85,13.2307
793863,1620404974482,,,,,,,,-0.1,0.65,-0.35,39,1,3,0.65,,88,5227,10,25,66,0.763,33.8,391,4.87,12.5,23.9,1,35.5,3.1,7.4,0,0,1,1,1,335,-31222,120,310,,,,,,,,,,,,,,,,
793883,1620404974502,,,,,,,,-0.06,0.61,-0.47,39,-1,2,0.62,,88,5240,10,24,66,0.763,33.4,393,4.93,12.7,23.9,1,35.5,3.11,7.4,0,0,1,1,1,336,4838,125,309,,,,,,,,,,,,,,,,
793903,1620404974522,,,,,,,,-0.07,0.61,-0.34,39,1,3,0.62,,88,5235,10,25,66,0.762,33.4,396,4.84,12.5,23.9,1,35.5,3.09,7.4,0,0,1,1,1,338,175,-32256,308,,,,,,,,,,,,,,,,
793923,1620404974542,,,,,,,,-0.0,0.56,-0.48,38,-2,3,0.56,,88,5185,9,24,66,0.763,33.7,394,4.94,12.7,24.1,1,35.5,3.11,7.4,0,0,1,1,1,336,2560,-29696,309,,,,,,,,,,,,,,,,
793943,1620404974562,1,0,28,37,36,30,40,0.02,0.57,-0.61,38,2,4,0.57,0,88,5103,9,25,66,0.763,33.3,389,4.83,12.5,24.1,1,35.5,3.1,7.4,0,0,1,1,1,336,-6528,140,308,45.84597,5.179514,33.06,216.1,9,3,1.7,0,0.0,-1,0.0,,0.0,0,4.85,13.2324
793963,1620404974582,,,,,,,,-0.04,0.6,-0.39,38,-0,3,0.6,,88,5064,9,25,66,0.764,34.1,386,4.89,12.7,24.1,1,35.5,3.11,7.4,0,0,1,1,1,336,6668,135,307,,,,,,,,,,,,,,,,
793983,1620404974602,,,,,,,,0.0,0.6,-0.52,38,0,3,0.6,,88,5044,9,25,66,0.765,33.5,384,4.87,12.6,24.1,1,35.5,3.1,7.4,0,0,1,1,1,335,3346,-32256,306,,,,,,,,,,,,,,,,
794003,1620404974622,,,,,,,,-0.01,0.6,-0.65,38,2,4,0.6,,88,4990,9,25,66,0.764,33.6,377,4.86,12.5,24.1,1,35.3,3.1,7.4,0,0,1,1,1,332,-122,30720,308,,,,,,,,,,,,,,,,
794023,1620404974642,,,,,,,,-0.04,0.64,-0.43,38,1,4,0.64,,88,5006,9,25,65,0.763,33.8,379,4.9,12.6,24.1,1,35.2,3.06,7.4,0,0,1,1,1,336,-31222,30720,308,,,,,,,,,,,,,,,,
794043,1620404974662,1,2,28,34,37,30,42,0.02,0.62,-0.56,39,1,4,0.62,0,88,5028,9,25,66,0.762,33.9,375,4.88,12.6,22.7,1,35.5,3.05,7.0,0,0,1,1,1,336,-122,120,308,45.84597,5.179526,33.35,216.0,9,3,1.7,0,0.0,-1,0.0,0.0,0.0,0,4.85,13.234
794063,1620404974682,,,,,,,,-0.06,0.64,-0.56,39,4,4,0.64,,88,5029,9,25,65,0.761,33.7,371,4.86,12.5,22.7,1,35.2,3.04,7.0,0,0,1,1,1,335,2560,115,307,,,,,,,,,,,,,,,,
794083,1620404974702,,,,,,,,-0.03,0.67,-0.37,39,-0,4,0.67,,88,5067,9,25,65,0.762,34.1,377,4.86,12.7,22.7,1,35.2,3.05,7.0,0,0,1,1,1,336,3327,115,307,,,,,,,,,,,,,,,,
794103,1620404974722,,,,,,,,0.01,0.68,-0.5,40,2,4,0.68,,88,5106,9,25,65,0.762,34.1,378,4.83,12.6,22.7,1,35.2,3.04,7.0,0,0,1,1,1,338,3346,29440,302,,,,,,,,,,,,,,,,
794123,1620404974742,,,,,,,,-0.07,0.72,-0.29,40,1,3,0.72,,88,5125,9,25,64,0.762,34.1,384,4.91,12.7,23.3,1,34.9,3.03,7.1,0,0,1,1,1,335,6668,110,304,,,,,,,,,,,,,,,,
794143,1620404974762,0,1,28,36,37,31,44,-0.03,0.7,-0.44,40,1,3,0.7,0,88,5161,9,25,65,0.762,33.8,385,4.9,12.6,23.3,1,35.2,2.96,7.1,0,0,1,1,1,336,-31222,29440,304,45.84597,5.179538,33.54,216.0,9,3,1.7,0,0.0,-1,0.0,,0.0,0,4.85,13.2357
794163,1620404974782,,,,,,,,-0.11,0.7,-0.23,41,3,3,0.71,,89,5188,9,25,64,0.763,33.8,387,4.86,12.8,23.3,1,34.9,2.95,7.1,0,0,1,1,1,335,-31222,28160,301,,,,,,,,,,,,,,,,
794183,1620404974801,,,,,,,,-0.07,0.7,-0.38,41,2,3,0.7,,89,5189,9,25,64,0.764,33.9,392,4.88,12.7,23.3,1,34.9,2.95,7.1,0,0,1,1,1,337,2560,105,303,,,,,,,,,,,,,,,,
794203,1620404974821,,,,,,,,-0.11,0.69,-0.37,41,4,4,0.7,,89,5188,9,25,64,0.764,33.8,391,4.83,12.6,23.3,1,34.9,2.95,7.1,0,0,1,1,1,336,-31222,28160,302,,,,,,,,,,,,,,,,
794223,1620404974841,,,,,,,,-0.09,0.68,-0.31,42,1,3,0.68,,89,5100,8,25,64,0.765,33.6,398,4.94,12.7,23.3,1,34.9,2.97,7.0,0,0,1,1,1,335,13,30720,300,,,,,,,,,,,,,,,,
794243,1620404974861,1,2,27,37,37,31,46,-0.04,0.68,-0.45,42,2,3,0.68,0,89,4990,8,25,64,0.765,33.9,385,4.85,12.5,23.3,1,34.7,2.99,7.0,0,0,1,1,1,336,-122,32000,304,45.84597,5.179549,33.17,216.0,9,3,1.7,0,0.0,-1,0.0,0.0,0.0,0,4.85,13.2374
794263,1620404974881,,,,,,,,-0.1,0.7,-0.48,42,5,3,0.71,,89,4899,8,25,64,0.766,34.1,377,4.85,12.6,23.3,1,33.5,2.96,7.0,0,0,1,1,1,335,6668,110,302,,,,,,,,,,,,,,,,
794283,1620404974901,,,,,,,,-0.15,0.72,-0.27,42,3,2,0.73,,89,4921,8,25,64,0.768,33.9,375,4.92,12.6,23.3,1,33.8,2.97,7.0,0,0,1,1,1,337,-31206,105,300,,,,,,,,,,,,,,,,
794303,1620404974921,,,,,,,,-0.09,0.71,-0.41,43,2,2,0.71,,89,4917,8,25,64,0.769,33.6,373,4.92,12.7,23.3,1,33.8,2.96,7.0,0,0,1,1,1,335,13,26880,298,,,,,,,,,,,,,,,,
794323,1620404974941,,,,,,,,-0.08,0.7,-0.55,43,4,3,0.7,,89,4948,8,25,64,0.77,33.8,375,4.85,12.6,22.5,1,34.2,2.97,6.8,0,0,1,1,1,334,-31222,25600,302,,,,,,,,,,,,,,,,
794343,1620404974961,0,3,27,36,37,31,45,-0.14,0.74,-0.33,43,3,2,0.75,0,89,4930,8,25,63,0.771,33.8,376,4.95,12.6,22.5,1,33.6,2.92,6.8,0,0,1,1,1,334,-31222,95,302,45.845966,5.179561,33.77,216.1,9,3,1.7,0,0.0,-1,0.0,,0.0,0,4.86,13.239
794363,1620404974981,,,,,,,,-0.11,0.72,-0.24,44,1,1,0.73,,89,4904,8,25,63,0.771,33.5,370,4.89,12.7,22.5,1,33.3,2.91,6.8,0,0,1,1,1,334,3346,25600,299,,,,,,,,,,,,,,,,
794383,1620404974993,,,,,,,,-0.07,0.73,-0.38,44,0,1,0.74,,89,4921,8,25,63,0.772,33.5,371,4.89,12.6,22.5,1,33.5,2.92,6.8,0,0,1,1,1,334,2560,24320,300,,,,,,,,,,,,,,,,
794403,1620404975013,,,,,,,,-0.09,0.78,-0.46,44,2,2,0.78,,89,4914,8,25,63,0.773,33.0,370,4.88,12.5,22.5,1,33.4,2.91,6.8,0,0,1,1,1,335,175,95,297,,,,,,,,,,,,,,,,
794423,1620404975033,,,,,,,,-0.16,0.82,-0.26,45,1,1,0.84,,89,4895,8,25,63,0.774,33.5,369,4.88,12.7,22.5,1,33.2,2.91,6.8,0,0,1,1,1,334,3346,23040,296,,,,,,,,,,,,,,,,
794443,1620404975053,1,2,26,37,38,31,55,-0.11,0.85,-0.3,45,-1,1,0.86,0,89,4909,8,24,63,0.775,33.9,369,4.88,12.7,21.9,1,33.4,2.92,6.5,0,0,1,1,1,334,-122,23040,297,45.845966,5.179573,32.57,216.1,9,3,1.7,0,0.0,-1,0.0,0.0,0.0,0,4.86,13.2407
794463,1620404975073,,,,,,,,-0.02,0.86,-0.45,46,1,1,0.86,,89,4886,8,25,63,0.776,34.4,366,4.87,12.6,21.9,1,33.1,2.9,6.5,0,0,1,1,1,333,3346,85,294,,,,,,,,,,,,,,,,
794483,1620404975095,,,,,,,,-0.06,0.9,-0.43,47,3,2,0.9,,89,4886,8,25,63,0.775,33.4,369,4.88,12.6,21.9,1,33.1,2.9,6.5,0,0,1,1,1,332,4838,21760,296,,,,,,,,,,,,,,,,
794503,1620404975115,,,,,,,,-0.13,0.9,-0.23,47,1,2,0.91,,89,4849,8,24,63,0.774,33.8,374,4.92,12.9,21.9,1,32.6,2.85,6.5,0,0,1,1,1,331,-31222,21760,294,,,,,,,,,,,,,,,,
794523,1620404975135,,,,,,,,-0.11,0.94,-0.29,48,-1,1,0.95,,89,4875,8,24,63,0.774,33.6,371,4.88,12.9,21.9,1,32.9,2.91,6.5,0,0,1,1,1,333,13,20480,291,,,,,,,,,,,,,,,,
794543,1620404975155,-1,2,26,36,39,31,59,-0.04,0.95,-0.43,49,0,1,0.95,0,89,4852,8,24,63,0.773,33.2,366,4.88,12.6,22.3,1,32.6,1.74,6.5,0,0,1,1,1,332,-32559,0,292,45.845966,5.179584,32.81,216.1,9,3,1.7,0,0.0,-1,0.0,,0.0,0,4.86,13.2424
794563,1620404975175,,,,,,,,-0.08,0.97,-0.56,50,2,2,0.98,,90,4837,8,24,63,0.773,33.4,362,4.87,12.8,22.3,1,32.4,1.73,6.5,0,0,1,1,1,332,4838,0,290,,,,,,,,,,,,,,,,
794583,1620404975203,,,,,,,,-0.17,1.0,-0.35,51,4,2,1.02,,90,4818,8,24,63,0.774,33.7,364,4.88,12.7,22.3,1,32.2,2.89,6.5,0,0,1,1,1,333,2560,41,291,,,,,,,,,,,,,,,,
794603,1620404975223,,,,,,,,-0.2,0.99,-0.17,51,1,2,1.01,,90,4803,8,24,63,0.775,33.3,371,4.91,12.8,22.3,1,32.0,2.88,6.5,0,0,1,1,1,333,-6528,-16896,291,,,,,,,,,,,,,,,,
794623,1620404975243,,,,,,,,-0.11,0.99,-0.26,52,-2,1,0.99,,90,4779,8,24,63,0.776,33.9,367,4.9,12.7,21.7,1,31.6,2.87,6.3,0,0,1,1,1,331,-122,10686,289,,,,,,,,,,,,,,,,
794643,1620404975263,-1,2,26,37,39,31,59,-0.08,0.97,-0.41,53,-1,2,0.97,0,90,4743,8,24,63,0.777,33.6,363,4.9,12.7,21.7,1,31.1,2.86,6.3,0,0,1,1,1,331,4838,250,287,45.84597,5.179595,32.15,216.2,9,3,1.7,0,0.0,-1,0.0,0.0,0.0,0,4.86,13.2441
794663,1620404975283,,,,,,,,-0.06,0.96,-0.54,54,0,3,0.97,,90,4790,8,24,63,0.777,33.4,357,4.85,12.5,21.7,1,31.8,2.88,6.3,0,0,1,1,1,329,4838,-1529,284,,,,,,,,,,,,,,,,
794683,1620404975303,,,,,,,,-0.12,0.95,-0.45,54,3,3,0.96,,90,4749,8,24,63,0.778,33.5,357,4.88,12.5,21.7,1,31.2,2.86,6.3,0,0,1,1,1,330,3346,24064,283,,,,,,,,,,,,,,,,
794703,1620404975323,,,,,,,,-0.21,1.0,-0.24,55,2,2,1.02,,90,4748,8,24,63,0.778,33.5,359,4.9,12.7,21.7,1,31.2,2.86,6.3,0,0,1,1,1,329,3346,250,284,,,,,,,,,,,,,,,,
794723,1620404975343,,,,,,,,-0.22,0.98,-0.06,55,-0,2,1.01,,90,4740,8,24,64,0.779,33.1,366,4.87,12.7,21.6,1,31.4,2.86,6.2,0,0,1,1,1,325,-20736,250,286,,,,,,,,,,,,,,,,
794743,1620404975363,1,1,25,37,39,31,59,-0.17,0.99,-0.22,56,-2,2,1.0,0,90,4794,8,24,64,0.783,33.3,361,4.9,12.6,21.6,1,32.1,2.93,6.2,0,0,1,1,1,326,-6528,30208,284,45.84597,5.179607,31.59,216.2,9,3,1.7,0,0.0,-1,0.0,,0.0,0,4.86,13.2457
794763,1620404975383,,,,,,,,-0.13,0.99,-0.37,57,-1,3,1.0,,90,4832,9,24,64,0.786,33.3,365,4.93,12.8,21.6,1,32.6,2.94,6.2,0,0,1,1,1,327,-6528,30208,284,,,,,,,,,,,,,,,,
794783,1620404975403,,,,,,,,-0.18,1.01,-0.46,57,2,3,1.03,,90,4775,9,24,64,0.789,33.2,366,4.9,12.7,21.6,1,31.9,2.92,6.2,0,0,1,1,1,326,-32559,630,285,,,,,,,,,,,,,,,,
794803,1620404975423,,,,,,,,-0.25,1.02,-0.26,57,3,3,1.05,,90,4760,9,24,64,0.792,32.8,362,4.92,12.6,21.6,1,31.7,2.91,6.2,0,0,1,1,1,325,-20736,30208,283,,,,,,,,,,,,,,,,
794823,1620404975443,,,,,,,,-0.28,1.0,-0.07,57,-1,2,1.04,,90,4774,9,24,64,0.794,33.0,365,4.92,12.7,21.6,1,31.9,2.92,6.2,0,0,1,1,1,324,175,250,281,,,,,,,,,,,,,,,,
794843,1620404975463,1,1,25,36,40,31,59,-0.19,1.03,-0.23,58,-1,2,1.04,0,90,4812,9,24,64,0.796,32.7,362,4.89,12.7,22.7,1,32.4,2.94,6.4,0,0,1,1,1,320,-22016,250,281,45.84597,5.179618,31.67,216.2,9,3,1.7,0,0.0,-1,0.0,0.0,0.0,0,4.86,13.2474
794863,1620404975483,,,,,,,,-0.15,1.0,-0.38,58,1,3,1.01,,90,4844,9,24,64,0.798,32.8,360,4.88,12.5,22.7,1,33.0,3.0,6.4,0,0,1,1,1,320,-22016,2414,278,,,,,,,,,,,,,,,,
794883,1620404975503,,,,,,,,-0.22,0.98,-0.36,58,2,3,1.01,,90,4836,9,24,64,0.799,32.3,369,4.88,12.5,22.7,1,32.7,2.94,6.4,0,0,1,1,1,322,-24576,28160,278,,,,,,,,,,,,,,,,
794903,1620404975523,,,,,,,,-0.29,1.01,-0.17,58,1,3,1.05,,90,4834,9,24,64,0.799,31.8,369,4.9,12.7,22.7,1,32.7,2.94,6.4,0,0,1,1,1,321,145,-1527,280,,,,,,,,,,,,,,,,
794923,1620404975543,,,,,,,,-0.27,1.01,-0.16,58,-1,2,1.04,,90,4821,9,24,65,0.799,32.3,362,4.87,12.7,23.5,1,32.8,2.99,6.6,0,0,1,1,1,321,-24576,2414,280,,,,,,,,,,,,,,,,
794943,1620404975563,1,2,25,36,40,31,58,-0.17,1.01,-0.31,58,-1,2,1.02,0,91,4822,9,24,64,0.799,32.2,361,4.88,12.5,23.5,1,32.5,1.78,6.6,0,0,1,1,1,319,155,28160,279,45.845974,5.179628,31.4,216.2,9,3,1.7,0,0.0,-1,0.0,,0.0,0,4.86,13.2491
794963,1620404975583,,,,,,,,-0.18,1.01,-0.45,58,1,3,1.03,,91,4843,9,24,65,0.799,32.8,363,4.87,12.5,23.5,1,33.1,3.0,6.6,0,0,1,1,1,319,170,-1527,278,,,,,,,,,,,,,,,,
794983,1620404975603,,,,,,,,-0.22,1.03,-0.25,58,1,2,1.06,,91,4826,9,24,65,0.798,32.4,367,4.9,12.6,23.5,1,32.9,2.99,6.6,0,0,1,1,1,318,150,28160,280,,,,,,,,,,,,,,,,
795003,1620404975623,,,,,,,,-0.25,1.03,-0.06,58,-1,1,1.06,,91,4848,9,24,65,0.797,32.3,370,4.89,12.7,23.5,1,33.2,2.95,6.6,0,0,1,1,1,317,-24576,2414,279,,,,,,,,,,,,,,,,
795023,1620404975643,,,,,,,,-0.18,0.99,-0.22,58,-1,1,1.01,,91,4858,9,24,65,0.796,32.1,364,4.88,12.8,24.1,1,33.3,3.0,6.7,0,0,1,1,1,318,-25856,250,277,,,,,,,,,,,,,,,,
795043,1620404975663,0,2,25,35,40,31,58,-0.14,0.98,-0.37,58,1,2,0.99,0,91,4889,9,24,65,0.795,32.1,367,4.87,12.5,24.1,1,33.7,3.01,6.7,0,0,1,1,1,316,155,28160,279,45.845978,5.179637,31.1,216.3,9,3,1.7,0,0.0,-1,0.0,0.0,0.0,0,4.86,13.2507
795063,1620404975683,,,,,,,,-0.21,0.98,-0.17,58,-0,2,1.0,,91,4912,9,24,65,0.793,32.0,366,4.86,12.6,24.1,1,34.0,3.02,6.7,0,0,1,1,1,316,150,250,273,,,,,,,,,,,,,,,,
795083,1620404975705,,,,,,,,-0.17,0.95,-0.09,58,-1,1,0.96,,91,4955,9,24,65,0.791,31.9,373,4.89,12.7,24.1,1,34.6,3.04,6.7,0,0,1,1,1,318,-27136,250,272,,,,,,,,,,,,,,,,
795103,1620404975725,,,,,,,,-0.13,0.94,-0.25,58,1,2,0.95,,91,4988,9,24,65,0.788,31.8,378,4.87,12.6,24.1,1,35.0,1.9,6.7,0,0,1,1,1,315,150,28160,273,,,,,,,,,,,,,,,,
795123,1620404975745,,,,,,,,-0.16,0.93,-0.11,58,1,2,0.95,,91,4894,9,24,65,0.786,31.8,375,4.84,12.7,24.1,1,33.8,3.02,6.7,0,0,1,1,1,314,145,250,275,,,,,,,,,,,,,,,,
795143,1620404975765,-1,2,26,37,39,31,58,-0.22,0.94,0.06,57,-1,2,0.97,0,91,4794,9,24,65,0.785,31.7,372,4.9,12.7,24.7,1,32.4,2.93,6.8,0,0,1,1,1,315,-28416,80,275,45.845985,5.179646,29.72,216.3,9,3,1.7,0,0.0,-1,0.0,,0.0,0,4.86,13.2524
795163,1620404975785,,,,,,,,-0.19,0.96,0.06,57,-3,1,0.97,,91,4683,9,24,65,0.785,31.6,365,4.86,12.7,24.7,1,30.9,2.93,6.8,0,0,1,1,1,315,140,105,274,,,,,,,,,,,,,,,,
795183,1620404975804,,,,,,,,-0.16,0.92,0.02,57,-4,1,0.93,,91,4709,9,24,65,0.784,31.8,357,4.9,12.8,24.7,1,31.3,2.94,6.8,0,0,1,1,1,315,145,630,278,,,,,,,,,,,,,,,,
795203,1620404975824,,,,,,,,-0.09,0.87,-0.15,57,-5,1,0.88,,91,4713,9,24,65,0.783,31.9,357,4.88,12.6,24.7,1,31.3,2.94,6.8,0,0,1,1,1,314,-27136,630,278,,,,,,,,,,,,,,,,
795223,1620404975844,,,,,,,,-0.01,0.85,-0.3,57,-1,2,0.85,,91,4671,9,24,65,0.783,31.7,357,4.89,12.7,22.7,1,30.7,2.93,6.3,0,0,1,1,1,314,-28416,-1527,277,,,,,,,,,,,,,,,,
795243,1620404975864,0,1,25,37,38,31,57,0.01,0.83,-0.44,56,2,2,0.84,0,91,4693,9,24,65,0.782,31.6,355,4.88,12.5,22.7,1,31.0,2.93,6.3,0,0,1,1,1,313,140,-1527,276,45.845989,5.179654,31.01,216.2,9,3,1.7,0,0.0,-1,0.0,0.0,0.0,0,4.86,13.2541
795263,1620404975884,,,,,,,,-0.03,0.83,-0.52,56,3,3,0.83,,91,4631,9,24,64,0.782,32.0,357,4.9,12.6,22.7,1,29.9,2.86,6.3,0,0,1,1,1,315,-28416,-1527,272,,,,,,,,,,,,,,,,
795283,1620404975904,,,,,,,,-0.07,0.87,-0.36,56,2,2,0.87,,91,4679,9,24,64,0.781,31.9,353,4.9,12.6,22.7,1,30.6,2.93,6.3,0,0,1,1,1,313,-27136,-1527,273,,,,,,,,,,,,,,,,
795303,1620404975924,,,,,,,,-0.15,0.91,-0.18,56,1,1,0.92,,92,4657,9,24,65,0.781,32.2,354,4.89,12.7,22.7,1,30.6,2.87,6.3,0,0,1,1,1,314,155,2414,273,,,,,,,,,,,,,,,,
795323,1620404975944,,,,,,,,-0.18,0.92,-0.0,57,-2,1,0.94,,92,4683,9,24,65,0.782,31.8,352,4.89,12.7,23.0,1,30.9,2.93,6.3,0,0,1,1,1,314,145,28160,275,,,,,,,,,,,,,,,,
795343,1620404975964,0,1,26,39,38,31,56,-0.19,0.9,0.06,57,-4,1,0.92,0,92,4681,10,24,65,0.783,32.0,348,4.91,12.7,23.0,1,30.9,2.93,6.3,0,0,1,1,1,313,150,-1527,274,45.845997,5.17966,30.49,216.2,9,3,1.7,0,0.0,-1,0.0,,0.0,0,4.86,13.2557
795363,1620404975984,,,,,,,,-0.14,0.9,-0.11,56,-5,1,0.91,,92,4660,10,24,65,0.783,31.7,352,4.93,12.8,23.0,1,30.6,2.92,6.3,0,0,1,1,1,314,-28416,30208,272,,,,,,,,,,,,,,,,
795383,1620404975994,,,,,,,,-0.09,0.86,-0.27,56,-4,0,0.86,,92,4627,10,24,65,0.783,31.7,350,4.88,12.6,23.0,1,30.1,2.95,6.3,0,0,1,1,1,311,-28416,-1527,273,,,,,,,,,,,,,,,,
795403,1620404976014,,,,,,,,-0.04,0.86,-0.41,56,-2,1,0.86,,92,4652,10,24,66,0.784,31.3,348,4.87,12.6,23.0,1,30.8,1.8,6.3,0,0,1,1,1,313,-30976,2414,275,,,,,,,,,,,,,,,,
795423,1620404976034,,,,,,,,-0.02,0.85,-0.54,56,1,2,0.85,,92,4619,11,24,66,0.784,31.3,349,4.87,12.4,23.0,1,30.3,1.79,6.3,0,0,1,1,1,310,-30976,28160,274,,,,,,,,,,,,,,,,
795443,1620404976054,1,1,26,36,38,32,57,-0.01,0.83,-0.66,56,3,3,0.83,0,92,4672,11,24,66,0.785,31.7,345,4.88,12.5,22.9,1,31.1,2.97,6.3,0,0,1,1,1,312,-28416,250,273,45.846004,5.179666,30.56,216.2,9,3,1.7,0,0.0,-1,0.0,0.0,0.0,0,4.87,13.2574
795463,1620404976074,,,,,,,,-0.1,0.87,-0.44,56,3,3,0.88,,92,4678,11,24,67,0.785,31.8,352,4.91,12.5,22.9,1,31.4,3.03,6.3,0,0,1,1,1,313,-32256,2414,271,,,,,,,,,,,,,,,,
795483,1620404976104,,,,,,,,-0.11,0.86,-0.24,56,1,2,0.87,,92,4728,11,24,67,0.784,31.9,357,4.91,12.7,22.9,1,32.1,3.05,6.3,0,0,1,1,1,312,-27136,-1527,270,,,,,,,,,,,,,,,,
795503,1620404976124,,,,,,,,-0.07,0.82,-0.34,55,-1,1,0.83,,92,4769,11,24,68,0.784,31.7,356,4.87,12.7,22.9,1,33.0,3.12,6.3,0,0,1,1,1,312,-28416,24064,273,,,,,,,,,,,,,,,,
795523,1620404976144,,,,,,,,-0.02,0.83,-0.48,55,-2,1,0.83,,92,4745,11,24,68,0.783,31.7,360,4.85,12.6,25.0,1,32.7,3.13,6.8,0,0,1,1,1,312,130,250,272,,,,,,,,,,,,,,,,
795543,1620404976164,-1,2,26,35,38,30,56,0.02,0.81,-0.61,55,-1,1,0.81,0,92,4705,11,24,68,0.782,31.6,356,4.88,12.7,25.0,1,32.1,1.93,6.8,0,0,1,1,1,312,140,630,271,45.846008,5.179671,30.55,216.2,9,3,1.7,0,0.0,-1,0.0,,0.0,0,4.87,13.2591
795563,1620404976184,,,,,,,,0.03,0.78,-0.72,55,2,2,0.78,,92,4685,11,24,69,0.781,31.3,351,4.9,12.5,25.0,1,32.0,3.1,6.8,0,0,1,1,1,312,-30976,1886,274,,,,,,,,,,,,,,,,
795583,1620404976198,,,,,,,,-0.01,0.8,-0.71,55,4,3,0.8,,92,4688,11,24,69,0.779,31.4,351,4.88,12.5,25.0,1,32.1,3.1,6.8,0,0,1,1,1,312,135,250,274,,,,,,,,,,,,,,,,
795603,1620404976218,,,,,,,,-0.09,0.84,-0.48,55,3,3,0.84,,92,4758,11,25,69,0.778,31.1,352,4.92,12.7,25.0,1,33.0,3.12,6.8,0,0,1,1,1,313,-32256,250,273,,,,,,,,,,,,,,,,
795623,1620404976238,,,,,,,,-0.1,0.84,-0.38,55,1,2,0.85,,92,4748,11,24,70,0.776,31.8,358,4.88,12.7,25.0,1,33.2,3.13,6.8,0,0,1,1,1,316,140,1886,275,,,,,,,,,,,,,,,,
795643,1620404976258,-0,2,26,37,38,30,56,-0.07,0.8,-0.39,54,-2,1,0.81,0,92,4733,11,24,70,0.774,31.3,357,4.88,12.7,25.0,1,33.0,3.15,6.8,0,0,1,1,1,315,-30976,-1529,275,45.846016,5.179676,29.91,216.1,9,3,1.7,0,0.0,-1,0.0,0.0,0.0,0,4.87,13.2607
795663,1620404976278,,,,,,,,-0.01,0.77,-0.53,54,-3,0,0.77,,93,4733,11,24,70,0.772,32.1,353,4.88,12.6,25.0,1,33.0,3.15,6.8,0,0,1,1,1,313,-25856,250,273,,,,,,,,,,,,,,,,
795683,1620404976304,,,,,,,,0.04,0.74,-0.65,54,-2,1,0.74,,93,4711,11,24,70,0.77,31.7,355,4.88,12.6,25.0,1,32.7,3.14,6.8,0,0,1,1,1,313,-28416,250,277,,,,,,,,,,,,,,,,
795703,1620404976324,,,,,,,,0.03,0.71,-0.74,54,2,2,0.71,,93,4749,11,24,70,0.768,31.6,353,4.86,12.6,25.0,1,33.2,3.17,6.8,0,0,1,1,1,312,140,-16896,276,,,,,,,,,,,,,,,,
795723,1620404976344,,,,,,,,-0.05,0.73,-0.51,53,3,2,0.73,,93,4730,11,24,71,0.767,31.7,356,4.9,12.6,25.0,1,33.2,3.18,6.8,0,0,1,1,1,313,140,10686,275,,,,,,,,,,,,,,,,
795743,1620404976364,1,0,26,37,37,30,56,-0.11,0.76,-0.3,53,2,2,0.77,0,93,4694,11,24,71,0.766,31.6,356,4.87,12.7,25.0,1,32.7,3.12,6.9,0,0,1,1,1,313,140,24064,273,45.846024,5.179679,29.85,216.1,9,3,1.7,0,0.0,-1,0.0,,0.0,0,4.87,13.2624
795763,1620404976384,,,,,,,,-0.15,0.77,-0.11,53,0,1,0.78,,93,4737,11,25,71,0.764,31.5,353,4.91,12.7,25.0,1,33.2,3.17,6.9,0,0,1,1,1,313,-29696,1886,277,,,,,,,,,,,,,,,,
795783,1620404976404,,,,,,,,-0.08,0.77,-0.27,53,-3,1,0.77,,93,4746,11,25,71,0.763,31.2,356,4.9,12.6,25.0,1,33.4,3.18,6.9,0,0,1,1,1,313,130,250,277,,,,,,,,,,,,,,,,
795803,1620404976424,,,,,,,,-0.04,0.79,-0.41,53,-2,1,0.79,,93,4775,11,25,71,0.762,31.7,356,4.87,12.6,25.0,1,33.8,3.2,6.9,0,0,1,1,1,315,-28416,250,276,,,,,,,,,,,,,,,,
795823,1620404976444,,,,,,,,-0.07,0.83,-0.49,53,0,2,0.83,,93,4829,11,25,71,0.762,31.7,356,4.84,12.5,25.0,1,34.5,3.25,6.9,0,0,1,1,1,315,145,21760,275,,,,,,,,,,,,,,,,
795843,1620404976464,0,2,26,38,37,30,55,-0.13,0.86,-0.28,53,0,2,0.87,0,93,4872,11,25,71,0.762,32.3,365,4.94,12.6,26.1,1,35.1,3.3,7.2,0,0,1,1,1,317,-24576,250,277,45.846031,5.179682,29.88,216.2,9,3,1.7,0,0.0,-1,0.0,0.0,0.0,0,4.87,13.264
795863,1620404976484,,,,,,,,-0.11,0.84,-0.23,53,-2,1,0.84,,93,4901,11,25,72,0.762,31.7,365,4.89,12.7,26.1,1,35.8,3.32,7.2,0,0,1,1,1,316,-28416,10686,275,,,,,,,,,,,,,,,,
795883,1620404976502,,,,,,,,-0.03,0.82,-0.37,53,-2,1,0.82,,93,4834,11,25,72,0.762,31.8,364,4.87,12.6,26.1,1,34.9,3.27,7.2,0,0,1,1,1,315,150,90,279,,,,,,,,,,,,,,,,
795903,1620404976522,,,,,,,,-0.02,0.81,-0.51,53,0,2,0.81,,93,4761,11,25,72,0.761,31.8,364,4.86,12.4,26.1,1,33.9,3.22,7.2,0,0,1,1,1,315,145,0,276,,,,,,,,,,,,,,,,
795923,1620404976542,,,,,,,,-0.05,0.85,-0.42,53,2,3,0.85,,93,4708,11,25,72,0.761,32.0,355,4.85,12.4,26.1,1,33.1,3.18,7.2,0,0,1,1,1,317,150,25600,278,,,,,,,,,,,,,,,,
795943,1620404976562,0,1,26,35,37,30,55,-0.11,0.87,-0.22,53,2,3,0.88,0,93,4786,11,25,72,0.76,31.9,356,4.91,12.6,24.8,1,34.2,3.24,6.9,0,0,1,1,1,317,-27136,23040,276,45.846035,5.179684,30.04,216.2,9,3,1.7,0,0.0,-1,0.0,,0.0,0,4.87,13.2657
795963,1620404976582,,,,,,,,-0.11,0.87,-0.14,53,0,3,0.88,,93,4853,11,25,73,0.76,32.2,361,4.89,12.8,24.8,1,35.4,3.29,6.9,0,0,1,1,1,317,155,1886,279,,,,,,,,,,,,,,,,
795983,1620404976604,,,,,,,,-0.04,0.83,-0.3,53,-0,3,0.83,,93,4854,11,24,73,0.759,32.5,362,4.87,12.7,24.8,1,35.4,3.34,6.9,0,0,1,1,1,320,-23296,41,280,,,,,,,,,,,,,,,,
796003,1620404976624,,,,,,,,-0.04,0.85,-0.44,53,2,3,0.85,,93,4825,12,25,73,0.758,32.2,366,4.88,12.8,24.8,1,35.0,3.29,6.9,0,0,1,1,1,318,155,0,278,,,,,,,,,,,,,,,,
796023,1620404976644,,,,,,,,-0.09,0.85,-0.24,53,2,3,0.86,,93,4822,12,25,73,0.757,32.3,364,4.92,12.7,26.2,1,35.0,3.29,7.3,0,0,1,1,1,319,-24576,80,278,,,,,,,,,,,,,,,,
796043,1620404976664,0,2,27,35,37,29,55,-0.13,0.89,-0.05,53,1,3,0.9,0,93,4851,12,25,73,0.757,32.3,362,4.94,12.7,26.2,1,35.4,3.31,7.3,0,0,1,1,1,318,-24576,41,281,45.846046,5.179685,29.87,216.2,9,3,1.7,0,0.0,-1,0.0,0.0,0.0,0,4.87,13.2674
796063,1620404976684,,,,,,,,-0.09,0.86,-0.15,53,-1,2,0.86,,94,4900,12,25,73,0.756,32.1,366,4.9,12.7,26.2,1,36.1,3.35,7.3,0,0,1,1,1,319,-25856,0,279,,,,,,,,,,,,,,,,
796083,1620404976704,,,,,,,,-0.05,0.83,-0.31,52,2,3,0.83,,94,4900,12,25,73,0.755,32.2,364,4.85,12.5,26.2,1,36.1,3.41,7.3,0,0,1,1,1,317,155,25600,282,,,,,,,,,,,,,,,,
796103,1620404976724,,,,,,,,-0.11,0.83,-0.11,52,2,3,0.84,,94,4896,12,25,74,0.754,32.3,367,4.86,12.4,26.2,1,36.3,3.39,7.3,0,0,1,1,1,319,150,95,281,,,,,,,,,,,,,,,,
796123,1620404976744,,,,,,,,-0.12,0.85,0.01,52,-0,2,0.86,,94,4923,12,25,74,0.754,32.0,370,4.86,12.6,26.2,1,36.6,3.42,7.3,0,0,1,1,1,320,150,95,283,,,,,,,,,,,,,,,,
796143,1620404976764,1,2,27,38,37,30,54,-0.07,0.81,-0.15,52,-0,2,0.81,0,94,4923,12,25,74,0.754,32.3,366,4.86,12.6,27.5,1,36.6,3.42,7.8,0,0,1,1,1,320,-24576,21760,281,45.84605,5.179684,30.44,216.2,9,3,1.7,0,0.0,-1,0.0,,0.0,0,4.87,13.269
796163,1620404976784,,,,,,,,-0.05,0.81,-0.31,52,1,4,0.81,,94,4945,12,25,74,0.754,32.4,368,4.87,12.6,27.5,1,37.0,3.43,7.8,0,0,1,1,1,320,-25856,90,285,,,,,,,,,,,,,,,,
796183,1620404976803,,,,,,,,-0.1,0.82,-0.11,52,1,2,0.83,,94,4918,12,25,74,0.754,32.8,371,4.96,12.7,27.5,1,36.6,3.41,7.8,0,0,1,1,1,323,170,115,284,,,,,,,,,,,,,,,,
796203,1620404976823,,,,,,,,-0.06,0.81,-0.21,52,-2,2,0.81,,94,4875,12,25,75,0.754,32.7,366,4.89,12.7,27.5,1,36.3,3.37,7.8,0,0,1,1,1,321,-22016,100,284,,,,,,,,,,,,,,,,
796223,1620404976843,,,,,,,,0.01,0.77,-0.36,52,-1,2,0.77,,94,4853,12,25,75,0.754,32.4,366,4.88,12.6,27.5,1,35.9,3.39,7.8,0,0,1,1,1,322,160,100,288,,,,,,,,,,,,,,,,
796243,1620404976863,1,0,27,37,37,29,53,-0.03,0.8,-0.36,52,1,3,0.8,0,94,4895,12,25,75,0.755,32.6,368,4.85,12.5,26.7,1,36.5,3.43,7.6,0,0,1,1,1,323,165,100,286,45.846062,5.179683,30.57,216.2,9,3,1.7,0,0.0,-1,0.0,0.0,0.0,0,4.87,13.2707
796263,1620404976883,,,,,,,,-0.04,0.84,-0.16,52,-1,2,0.84,,94,4947,12,25,75,0.755,32.5,370,4.92,12.6,26.7,1,37.3,3.47,7.6,0,0,1,1,1,323,-23296,80,281,,,,,,,,,,,,,,,,
796283,1620404976903,,,,,,,,0.02,0.8,-0.31,52,-1,1,0.8,,94,4973,12,25,75,0.755,32.3,372,4.92,12.7,26.7,1,37.7,3.5,7.6,0,0,1,1,1,323,-24576,80,285,,,,,,,,,,,,,,,,
796303,1620404976923,,,,,,,,0.01,0.82,-0.45,51,2,3,0.82,,94,4969,12,25,75,0.755,32.0,371,4.8,12.4,26.7,1,37.6,3.49,7.6,0,0,1,1,1,324,-20736,25600,288,,,,,,,,,,,,,,,,
796323,1620404976943,,,,,,,,-0.04,0.83,-0.25,51,0,2,0.83,,94,4982,12,25,75,0.755,32.5,376,4.96,12.6,28.2,1,37.8,3.51,8.1,0,0,1,1,1,326,-23296,105,287,,,,,,,,,,,,,,,,
796343,1620404976963,1,2,26,39,36,30,52,-0.0,0.8,-0.39,51,-1,1,0.8,0,94,5000,12,25,75,0.755,32.9,376,4.9,12.6,28.2,1,38.1,3.53,8.1,0,0,1,1,1,327,-20736,28160,289,45.846069,5.17968,31.46,216.3,9,3,1.7,0,0.0,-1,0.0,,0.0,0,4.87,13.2724
796363,1620404976983,,,,,,,,-0.01,0.82,-0.53,51,2,2,0.82,,94,5052,12,25,75,0.755,33.4,372,4.8,12.5,28.2,1,38.1,3.56,8.1,0,0,1,1,1,329,170,26880,290,,,,,,,,,,,,,,,,
796383,1620404976995,,,,,,,,-0.05,0.83,-0.31,51,-1,1,0.83,,94,5071,12,25,75,0.755,32.7,379,4.87,12.8,28.2,1,38.0,3.57,8.1,0,0,1,1,1,327,-22016,95,293,,,,,,,,,,,,,,,,
796403,1620404977015,,,,,,,,0.02,0.8,-0.46,51,-1,1,0.8,,94,5060,12,25,75,0.754,33.0,382,4.85,12.6,28.2,1,38.1,3.56,8.1,0,0,1,1,1,327,175,28160,293,,,,,,,,,,,,,,,,
796423,1620404977035,,,,,,,,-0.0,0.81,-0.53,50,2,2,0.81,,94,4996,12,25,75,0.753,33.0,378,4.88,12.5,27.6,1,38.0,3.52,8.1,0,0,1,1,1,324,175,170,293,,,,,,,,,,,,,,,,
796443,1620404977055,0,1,28,37,36,30,51,-0.02,0.77,-0.32,50,-1,2,0.77,0,94,5016,12,25,75,0.754,33.0,378,4.98,12.8,27.6,1,38.1,3.53,8.1,0,0,1,1,1,327,-20736,160,293,45.846073,5.179677,31.99,216.3,9,3,1.7,0,0.0,-1,0.0,0.0,0.0,0,4.87,13.274
796463,1620404977075,,,,,,,,0.05,0.77,-0.46,50,1,2,0.77,,94,5051,12,25,75,0.753,32.9,379,4.84,12.5,27.6,1,38.1,3.56,8.1,0,0,1,1,1,328,-20736,-30976,290,,,,,,,,,,,,,,,,
796483,1620404977101,,,,,,,,-0.01,0.79,-0.25,50,0,2,0.79,,94,5136,12,25,75,0.753,33.1,379,4.87,12.5,27.6,1,37.9,3.6,8.1,0,0,1,1,1,328,-12032,28160,294,,,,,,,,,,,,,,,,
796503,1620404977121,,,,,,,,0.04,0.75,-0.4,49,-0,1,0.75,,94,5180,12,25,75,0.753,32.9,384,4.93,12.7,27.6,1,37.9,3.62,8.1,0,0,1,1,1,329,-20736,-32256,293,,,,,,,,,,,,,,,,
796523,1620404977141,,,,,,,,0.0,0.76,-0.4,49,1,2,0.76,,94,5192,12,25,75,0.753,33.6,389,4.86,12.5,29.1,1,37.9,3.63,8.7,0,0,1,1,1,332,-31222,135,294,,,,,,,,,,,,,,,,
796543,1620404977161,-1,2,28,36,36,29,45,0.06,0.74,-0.53,49,-1,1,0.74,0,94,5192,12,25,75,0.753,33.5,387,4.87,12.7,29.1,1,37.9,3.63,8.7,0,0,1,1,1,330,3346,2560,298,45.846085,5.179672,32.28,216.3,9,3,1.7,0,0.0,-1,0.0,,0.0,0,4.87,13.2757
