"Interval"|"ms"|0|0|1,"Utc"|"ms"|0|0|1,"Brake_F"|"Bar"|0|2000|10,"Brake_R"|"Bar"|0|2000|10,"Height_RF"|"mm"|0|255|10,"Height_LF"|"mm"|0|255|10,"Height_LR"|"mm"|0|80|10,"Height_RR"|"mm"|0|255|10,"Steering"|"deg"|-100|100|10,"AccelX"|"G"|-3.0|3.0|50,"AccelY"|"G"|-3.0|3.0|50,"AccelZ"|"G"|-3.0|3.0|50,"Yaw"|"Deg/Sec"|-120|120|50,"Pitch"|"Deg/Sec"|-120|120|50,"Roll"|"Deg/Sec"|-120|120|50,"Gsum"|"G"|0.0|3.0|50,"Log_Button"|""|0.0|10.0|10,"WaterTemp"|"C"|0|150|50,"RPM"|"tr/min"|0|14000|50,"TPS"|"%"|0|100|50,"AirTemp"|"C"|0|150|50,"MAP"|"KPa"|0|100|50,"Lambda"|""|0.5|1.5|50,"SpeedDTA"|"kph"|0.0|250.0|50,"OilPress"|"KPa"|0|1500|50,"FuelPressur"|"Bar"|0.0|10.0|50,"Batterie"|"V"|0.0|20.0|50,"ConsoKm"|"L/100km"|0.0|200.0|50,"Gear"|""|0|6|50,"AdvIgnition"|"Deg"|-20.0|70.0|50,"Injection"|"ms"|0.0|10.0|50,"ConsoHr"|"L/Hr"|0.0|10000.0|50,"LC_But_Pres"|""|0|1|50,"LC_Active"|""|0|1|50,"TractionOn"|""|0|1|50,"TractionWet"|""|0|1|50,"FanOn"|""|0|1|50,"RD_Speed"|"km/h"|-30|250|50,"RUD_Speed"|"km/h"|-30|250|50,"LD_Speed"|"km/h"|-30|250|50,"LUD_Speed"|"km/h"|-30|250|50,"Latitude"|"Degrees"|-180.0|180.0|10,"Longitude"|"Degrees"|-180.0|180.0|10,"Speed"|"kph"|0.0|150.0|10,"Altitude"|"m"|0.0|4000.0|10,"GPSSats"|""|0|20|10,"GPSQual"|""|0|5|10,"GPSDOP"|""|0.0|20.0|10,"LapCount"|""|0|0|10,"LapTime"|"Min"|0.0|0.0|10,"Sector"|""|0|0|10,"SectorTime"|"Min"|0.0|0.0|10,"PredTime"|"Min"|0.0|0.0|5,"ElapsedTime"|"Min"|0.0|0.0|10,"CurrentLap"|""|0|0|10,"Distance"|"km"|0.0|0.0|10,"SessionTime"|"Min"|0.0|0.0|10
1030763,1620405211389,,,,,,,,-0.1,0.93,-0.07,49,5,6,0.94,,87,6656,10,22,44,0.824,44.1,525,4.92,12.4,18.0,1,31.8,2.33,7.1,0,0,1,1,1,435,26704,10541,396,,,,,,,,,,,,,,,,
1030783,1620405211407,,,,,,,,-0.11,1.0,0.1,50,6,6,1.01,,87,6667,10,22,44,0.824,43.7,533,4.81,12.4,18.0,1,31.8,2.33,7.1,0,0,1,1,1,433,1779,6384,391,,,,,,,,,,,,,,,,
1030803,1620405211427,,,,,,,,-0.14,0.96,-0.07,50,5,5,0.97,,87,6703,10,22,44,0.825,43.9,535,4.88,12.5,18.0,1,31.9,2.32,7.1,0,0,1,1,1,434,-28332,28696,387,,,,,,,,,,,,,,,,
1030823,1620405211447,,,,,,,,-0.13,1.02,-0.23,51,3,5,1.03,,87,6691,10,22,44,0.824,43.8,536,4.82,12.5,18.5,1,31.9,2.33,7.2,0,0,1,1,1,433,21580,10541,388,,,,,,,,,,,,,,,,
1030843,1620405211467,1,1,25,39,40,31,49,-0.09,0.92,-0.05,51,1,5,0.93,0,87,6698,10,22,44,0.824,43.4,536,4.93,12.6,18.5,1,31.9,2.33,7.2,0,0,1,1,1,436,-768,11560,387,45.846481,5.17924,42.57,215.5,9,3,1.7,0,0.0,-1,0.0,0.0,0.0,0,6.46,17.1807
1030863,1620405211487,,,,,,,,-0.02,1.01,-0.21,51,9,7,1.02,,87,6689,10,22,44,0.824,43.4,543,4.84,12.4,18.5,1,31.9,2.33,7.2,0,0,1,1,1,433,-768,11560,389,,,,,,,,,,,,,,,,
1030883,1620405211509,,,,,,,,-0.08,1.01,-0.03,52,5,4,1.01,,87,6691,10,22,44,0.824,42.9,541,4.78,12.4,18.5,1,31.9,2.33,7.2,0,0,1,1,1,432,-3856,-4059,388,,,,,,,,,,,,,,,,
1030903,1620405211529,,,,,,,,-0.1,1.04,-0.19,53,5,7,1.05,,87,6691,10,22,44,0.823,43.2,533,4.87,12.5,18.5,1,31.9,2.33,7.2,0,0,1,1,1,431,-3322,-9166,392,,,,,,,,,,,,,,,,
1030923,1620405211549,,,,,,,,-0.11,1.09,-0.01,53,-0,4,1.09,,87,6665,10,22,44,0.823,43.7,534,4.8,12.5,18.6,1,31.8,2.33,7.2,0,0,1,1,1,431,19477,-3414,387,,,,,,,,,,,,,,,,
1030943,1620405211569,1,2,24,38,41,30,49,-0.05,1.1,-0.17,54,6,6,1.1,0,87,6679,10,22,44,0.821,43.4,537,4.9,12.5,18.6,1,31.8,2.33,7.2,0,0,1,1,1,432,-768,3826,381,45.846481,5.179225,42.31,215.4,9,3,1.7,0,0.0,-1,0.0,,0.0,0,6.46,17.1824
1030963,1620405211589,,,,,,,,-0.04,1.12,0.01,54,2,4,1.12,,87,6710,10,22,44,0.821,43.1,544,4.83,12.5,18.6,1,31.9,2.32,7.2,0,0,1,1,1,430,-7939,-21792,382,,,,,,,,,,,,,,,,
1030983,1620405211609,,,,,,,,-0.05,1.08,-0.16,55,3,5,1.09,,87,6730,10,22,44,0.818,43.3,540,4.91,12.4,18.6,1,31.9,2.32,7.2,0,0,1,1,1,432,243,3635,383,,,,,,,,,,,,,,,,
1031003,1620405211629,,,,,,,,-0.04,1.13,0.02,55,-6,3,1.13,,87,6768,10,22,44,0.817,43.0,542,4.85,12.6,18.6,1,32.0,2.32,7.2,0,0,1,1,1,431,-3314,-3414,382,,,,,,,,,,,,,,,,
1031023,1620405211649,,,,,,,,0.03,1.12,-0.15,55,2,7,1.12,,87,6803,10,22,44,0.815,43.2,541,4.9,12.4,18.7,1,32.0,2.31,7.2,0,0,1,1,1,431,3635,13040,384,,,,,,,,,,,,,,,,
1031043,1620405211669,0,1,24,39,42,31,50,0.02,1.14,0.03,55,1,3,1.14,0,87,6810,10,22,44,0.814,42.3,548,4.82,12.5,18.7,1,32.0,2.31,7.2,0,0,1,1,1,428,3826,-9166,380,45.846478,5.179211,42.31,215.4,9,3,1.7,0,0.0,-1,0.0,0.0,0.0,0,6.46,17.184
1031063,1620405211689,,,,,,,,-0.02,1.18,-0.14,56,2,5,1.18,,87,6808,10,22,44,0.813,43.3,542,4.89,12.4,18.7,1,32.0,2.31,7.2,0,0,1,1,1,428,13180,-3856,383,,,,,,,,,,,,,,,,
1031083,1620405211709,,,,,,,,-0.07,1.19,0.04,56,-6,2,1.19,,87,6795,10,22,44,0.812,43.1,537,4.8,12.6,18.7,1,32.0,2.32,7.2,0,0,1,1,1,428,1779,-4082,381,,,,,,,,,,,,,,,,
1031103,1620405211729,,,,,,,,-0.02,1.19,-0.13,56,3,5,1.19,,87,6727,10,22,44,0.811,43.0,537,4.88,12.4,18.7,1,31.9,2.32,7.2,0,0,1,1,1,430,13552,-26615,387,,,,,,,,,,,,,,,,
1031123,1620405211749,,,,,,,,-0.06,1.21,0.05,55,1,2,1.21,,87,6672,10,22,44,0.811,43.0,539,4.88,12.5,18.7,1,31.8,2.33,7.2,0,0,1,1,1,428,-3314,-4082,381,,,,,,,,,,,,,,,,
1031143,1620405211769,-1,1,25,40,42,31,49,-0.03,1.23,-0.12,55,3,4,1.23,0,87,6625,10,22,44,0.81,42.0,534,4.98,12.4,18.8,1,31.7,2.33,7.2,0,0,1,1,1,425,-3414,21432,374,45.846474,5.179196,41.52,215.5,9,3,1.7,0,0.0,-1,0.0,,0.0,0,6.47,17.1857
1031163,1620405211789,,,,,,,,-0.1,1.3,0.05,56,-3,2,1.3,,87,6658,10,22,44,0.81,42.3,533,4.8,12.5,18.8,1,31.8,2.33,7.2,0,0,1,1,1,422,3826,1779,380,,,,,,,,,,,,,,,,
1031183,1620405211809,,,,,,,,-0.06,1.16,-0.12,56,1,4,1.16,,87,6696,10,22,44,0.81,42.6,536,4.91,12.6,18.8,1,31.9,2.33,7.2,0,0,1,1,1,424,-3314,2524,383,,,,,,,,,,,,,,,,
1031203,1620405211829,,,,,,,,-0.08,1.23,0.06,56,1,2,1.24,,87,6751,10,22,44,0.81,42.6,542,4.84,12.5,18.8,1,32.0,2.32,7.2,0,0,1,1,1,425,13552,11560,377,,,,,,,,,,,,,,,,
1031223,1620405211849,,,,,,,,-0.08,1.18,-0.11,56,4,3,1.18,,87,6768,10,22,44,0.812,42.4,547,4.91,12.5,18.9,1,32.0,2.32,7.2,0,0,1,1,1,426,31796,1504,380,,,,,,,,,,,,,,,,
1031243,1620405211869,0,0,24,38,42,31,46,-0.15,1.22,0.06,56,-2,1,1.23,0,87,6720,10,22,44,0.815,42.7,542,4.82,12.5,18.9,1,31.9,2.32,7.2,0,0,1,1,1,426,31796,-21944,376,45.846466,5.179183,41.14,215.4,9,3,1.7,0,0.0,-1,0.0,0.0,0.0,0,6.47,17.1874
1031263,1620405211889,,,,,,,,-0.16,1.13,0.23,56,-2,-1,1.14,,87,6665,10,22,44,0.816,42.3,534,4.89,12.6,18.9,1,31.8,2.33,7.2,0,0,1,1,1,424,3826,-7939,379,,,,,,,,,,,,,,,,
1031283,1620405211909,,,,,,,,-0.1,1.12,0.04,56,3,0,1.13,,87,6663,10,22,44,0.819,42.4,532,4.82,12.5,18.9,1,31.8,2.33,7.2,0,0,1,1,1,423,-4082,7154,378,,,,,,,,,,,,,,,,
1031303,1620405211929,,,,,,,,-0.16,1.06,0.2,56,-1,0,1.08,,87,6684,10,22,44,0.821,42.3,537,4.87,12.6,18.9,1,31.9,2.33,7.2,0,0,1,1,1,419,-21944,-21792,377,,,,,,,,,,,,,,,,
1031323,1620405211949,,,,,,,,-0.08,1.06,0.02,55,7,4,1.06,,87,6672,10,22,44,0.823,42.5,533,4.82,12.5,18.9,1,31.8,2.33,7.2,0,0,1,1,1,422,-3856,6384,379,,,,,,,,,,,,,,,,
1031343,1620405211969,-1,0,26,39,41,30,45,-0.11,1.12,0.19,55,5,0,1.13,0,87,6588,10,22,44,0.825,42.1,528,4.78,12.6,18.9,1,31.6,2.33,7.2,0,0,1,1,1,422,-4082,-4082,381,45.846466,5.17917,41.39,215.4,9,3,1.7,0,0.0,-1,0.0,,0.0,0,6.47,17.1891
1031363,1620405211989,,,,,,,,-0.13,1.11,0.0,54,7,4,1.12,,87,6553,10,22,44,0.827,42.3,522,4.91,12.4,18.9,1,31.6,2.33,7.2,0,0,1,1,1,422,3826,-3414,379,,,,,,,,,,,,,,,,
1031383,1620405212001,,,,,,,,-0.16,1.14,0.17,54,7,2,1.15,,87,6569,10,22,44,0.828,42.0,528,4.83,12.6,18.9,1,31.6,2.33,7.2,0,0,1,1,1,420,-3414,-3968,378,,,,,,,,,,,,,,,,
1031403,1620405212021,,,,,,,,-0.13,1.05,-0.01,55,-2,-0,1.06,,87,6537,10,22,44,0.829,41.7,525,4.91,12.6,18.9,1,31.5,2.33,7.2,0,0,1,1,1,419,-21944,10392,377,,,,,,,,,,,,,,,,
1031423,1620405212041,,,,,,,,-0.03,1.1,-0.18,55,6,2,1.1,,87,6535,10,22,44,0.829,42.1,517,4.89,12.5,18.5,1,31.5,2.33,7.0,0,0,1,1,1,419,-21792,-3322,378,,,,,,,,,,,,,,,,
1031443,1620405212061,1,2,26,38,41,33,44,-0.1,1.12,0.01,55,-1,-0,1.13,0,87,6546,10,22,44,0.83,42.4,520,4.84,12.5,18.5,1,31.6,2.33,7.0,0,0,1,1,1,418,-4082,-4082,379,45.846458,5.179158,41.44,215.5,9,3,1.7,0,0.0,-1,0.0,0.0,0.0,0,6.47,17.1907
1031463,1620405212081,,,,,,,,-0.01,1.13,-0.16,55,0,1,1.13,,87,6585,10,22,44,0.829,42.2,524,4.87,12.5,18.5,1,31.6,2.33,7.0,0,0,1,1,1,422,-4082,-3866,377,,,,,,,,,,,,,,,,
1031483,1620405212108,,,,,,,,-0.05,1.17,0.02,54,6,2,1.17,,87,6637,10,22,45,0.828,41.9,534,4.91,12.4,18.5,1,32.0,2.32,7.0,0,0,1,1,1,420,7154,19125,376,,,,,,,,,,,,,,,,
1031503,1620405212128,,,,,,,,-0.05,1.1,0.12,54,5,1,1.1,,87,6616,10,22,44,0.827,41.8,539,4.87,12.5,18.5,1,31.7,2.33,7.0,0,0,1,1,1,420,-3414,-6656,378,,,,,,,,,,,,,,,,
1031523,1620405212148,,,,,,,,-0.07,1.11,-0.05,54,6,4,1.11,,87,6519,10,22,44,0.826,41.7,528,4.95,12.4,18.5,1,31.5,2.33,7.0,0,0,1,1,1,420,-21944,13040,380,,,,,,,,,,,,,,,,
1031543,1620405212168,0,2,25,38,41,30,43,-0.11,1.19,0.12,53,7,2,1.19,0,87,6452,10,22,44,0.824,41.2,514,4.83,12.4,18.4,1,31.4,2.34,7.0,0,0,1,1,1,418,13040,-3856,380,45.846451,5.179146,40.68,215.6,9,3,1.7,0,0.0,-1,0.0,,0.0,0,6.47,17.1924
1031563,1620405212188,,,,,,,,-0.09,1.13,0.27,53,1,-1,1.14,,87,6436,10,22,44,0.821,42.0,513,4.9,12.5,18.4,1,31.4,2.34,7.0,0,0,1,1,1,419,-8165,-21792,378,,,,,,,,,,,,,,,,
1031583,1620405212208,,,,,,,,0.02,1.1,0.08,51,7,0,1.1,,87,6427,10,22,45,0.817,42.2,515,4.88,12.4,18.4,1,31.6,2.34,7.0,0,0,1,1,1,415,-3414,-6475,379,,,,,,,,,,,,,,,,
1031603,1620405212228,,,,,,,,-0.03,1.18,0.19,51,12,3,1.18,,87,6447,10,22,45,0.815,42.0,517,4.83,12.5,18.4,1,31.6,2.34,7.0,0,0,1,1,1,417,-26615,-18948,378,,,,,,,,,,,,,,,,
1031623,1620405212248,,,,,,,,-0.1,1.19,0.34,51,3,1,1.19,,87,6441,10,22,44,0.811,41.9,515,4.82,12.6,18.3,1,31.4,2.34,6.9,0,0,1,1,1,416,7154,-6524,382,,,,,,,,,,,,,,,,
1031643,1620405212268,0,1,26,37,40,30,43,-0.02,1.04,0.15,51,-2,0,1.04,0,87,6381,10,22,45,0.806,42.0,511,4.92,12.6,18.3,1,31.5,2.34,6.9,0,0,1,1,1,418,-21944,-31744,373,45.846447,5.179135,40.76,215.6,9,3,1.7,0,0.0,-1,0.0,0.0,0.0,0,6.47,17.194
1031663,1620405212288,,,,,,,,-0.06,1.04,-0.03,50,4,4,1.04,,87,6358,10,22,45,0.802,41.6,505,4.98,12.6,18.3,1,31.4,2.34,6.9,0,0,1,1,1,417,18584,-6475,379,,,,,,,,,,,,,,,,
1031683,1620405212308,,,,,,,,-0.11,1.12,0.14,50,8,5,1.13,,87,6304,10,22,45,0.799,41.6,507,4.9,12.3,18.3,1,31.3,2.34,6.9,0,0,1,1,1,414,18584,-19126,374,,,,,,,,,,,,,,,,
1031703,1620405212328,,,,,,,,-0.18,1.12,0.29,50,4,2,1.14,,87,6273,10,22,45,0.795,41.3,501,4.83,12.5,18.3,1,31.3,2.34,6.9,0,0,1,1,1,414,-9166,-3866,375,,,,,,,,,,,,,,,,
1031723,1620405212348,,,,,,,,-0.12,1.08,0.44,50,-2,0,1.08,,87,6196,10,22,46,0.792,42.0,499,4.85,12.5,17.9,1,31.4,2.35,6.7,0,0,1,1,1,414,-8165,-31744,373,,,,,,,,,,,,,,,,
1031743,1620405212368,-0,0,26,37,40,31,43,-0.11,0.99,0.57,51,-8,-2,1.0,0,87,6131,10,22,46,0.787,41.2,495,4.91,12.6,17.9,1,31.2,2.35,6.7,0,0,1,1,1,411,-21944,2278,377,45.846436,5.179126,40.73,215.6,9,3,1.7,0,0.0,-1,0.0,,0.0,0,6.47,17.1957
1031763,1620405212388,,,,,,,,-0.07,0.95,0.62,51,-11,-4,0.95,,87,6019,10,22,47,0.784,41.4,491,4.86,12.5,17.9,1,31.2,2.37,6.7,0,0,1,1,1,414,2524,-6656,374,,,,,,,,,,,,,,,,
1031783,1620405212408,,,,,,,,-0.08,0.95,0.71,51,-14,-6,0.95,,87,5939,10,22,48,0.779,41.4,480,4.9,12.5,17.9,1,31.3,2.4,6.7,0,0,1,1,1,413,18584,-6656,371,,,,,,,,,,,,,,,,
1031803,1620405212428,,,,,,,,-0.13,0.93,0.82,51,-14,-6,0.94,,87,5810,10,22,49,0.776,41.2,472,4.88,12.6,17.9,1,31.2,2.46,6.7,0,0,1,1,1,413,13040,1,375,,,,,,,,,,,,,,,,
1031823,1620405212448,,,,,,,,-0.18,0.98,0.8,52,-10,-5,1.0,,87,5676,10,22,50,0.774,41.7,464,4.82,12.4,17.9,1,31.3,2.53,6.7,0,0,1,1,1,413,-21944,-6656,374,,,,,,,,,,,,,,,,
1031843,1620405212468,1,2,23,38,40,31,42,-0.2,1.0,0.57,52,-6,-3,1.02,0,87,5680,10,22,51,0.772,41.8,450,4.83,12.4,17.6,1,31.5,2.53,6.6,0,0,1,1,1,410,-3414,257,368,45.846428,5.179119,40.92,215.7,9,3,1.7,0,0.0,-1,0.0,0.0,0.0,0,6.47,17.1974
1031863,1620405212488,,,,,,,,-0.17,1.0,0.35,52,-7,-3,1.01,,87,5671,10,22,52,0.77,41.5,451,4.86,12.7,17.6,1,31.8,2.53,6.6,0,0,1,1,1,408,-26615,3082,369,,,,,,,,,,,,,,,,
1031883,1620405212508,,,,,,,,-0.15,0.96,0.2,52,-10,-4,0.97,,87,5803,10,22,53,0.769,41.4,458,4.95,12.5,17.6,1,32.1,2.44,6.6,0,0,1,1,1,400,11560,3302,365,,,,,,,,,,,,,,,,
1031903,1620405212528,,,,,,,,-0.13,0.88,0.01,51,-9,-4,0.89,,87,6040,10,22,54,0.768,40.8,477,4.9,12.7,17.6,1,32.7,2.29,6.6,0,0,1,1,1,395,10392,3183,367,,,,,,,,,,,,,,,,
1031923,1620405212548,,,,,,,,-0.06,0.75,-0.15,51,-5,-2,0.75,,87,6233,10,22,54,0.767,40.7,496,4.89,12.7,17.6,1,33.3,1.12,6.6,0,0,1,1,1,402,-26615,-1246,368,,,,,,,,,,,,,,,,
1031943,1620405212568,0,2,23,36,40,32,40,-0.03,0.75,-0.31,51,2,2,0.75,0,87,6434,10,22,53,0.767,40.3,497,4.87,12.5,17.9,1,33.7,2.3,6.6,0,0,1,1,1,404,11545,3183,362,45.846416,5.179112,40.58,215.7,9,3,1.7,0,0.0,-1,0.0,,0.0,0,6.47,17.1991
1031963,1620405212588,,,,,,,,-0.06,0.8,-0.11,51,-3,-0,0.8,,87,6551,10,22,52,0.772,40.5,509,4.82,12.5,17.9,1,33.8,2.3,6.6,0,0,1,1,1,403,-9211,2790,362,,,,,,,,,,,,,,,,
1031983,1620405212608,,,,,,,,-0.08,0.8,-0.27,51,1,-0,0.81,,87,6686,11,22,51,0.777,40.4,517,4.9,12.5,17.9,1,33.9,2.3,6.6,0,0,1,1,1,399,1504,-6458,358,,,,,,,,,,,,,,,,
1032003,1620405212628,,,,,,,,-0.15,0.79,-0.08,51,-8,-3,0.8,,87,6805,11,22,51,0.782,40.3,534,4.83,12.6,17.9,1,34.2,2.29,6.6,0,0,1,1,1,401,-8151,-14707,363,,,,,,,,,,,,,,,,
1032023,1620405212648,,,,,,,,-0.03,0.83,-0.24,51,-5,0,0.83,,87,6848,11,22,50,0.787,39.9,539,4.89,12.6,17.9,1,33.9,2.29,6.6,0,0,1,1,1,400,28696,0,362,,,,,,,,,,,,,,,,
1032043,1620405212668,-0,2,25,39,40,32,40,-0.01,0.88,-0.05,50,-4,-1,0.88,0,87,6667,11,22,50,0.791,39.9,531,4.82,12.6,19.8,1,33.5,2.31,7.2,0,0,1,1,1,407,28696,10392,365,45.846409,5.179107,39.29,215.6,9,3,1.7,0,0.0,-1,0.0,0.0,0.0,0,6.48,17.2007
1032063,1620405212688,,,,,,,,0.02,0.77,-0.22,50,-5,-2,0.77,,87,6452,11,22,49,0.795,40.4,524,4.91,12.4,19.8,1,32.6,2.32,7.2,0,0,1,1,1,406,28696,26704,363,,,,,,,,,,,,,,,,
1032083,1620405212708,,,,,,,,0.0,0.7,-0.37,49,1,1,0.7,,87,6313,11,22,49,0.798,39.5,511,4.96,12.4,19.8,1,32.2,2.32,7.2,0,0,1,1,1,405,17144,6384,365,,,,,,,,,,,,,,,,
1032103,1620405212728,,,,,,,,-0.03,0.81,-0.5,49,7,2,0.81,,87,6243,10,22,49,0.802,40.0,498,4.87,12.6,19.8,1,32.1,2.34,7.2,0,0,1,1,1,403,6512,-19019,370,,,,,,,,,,,,,,,,
1032123,1620405212748,,,,,,,,-0.1,0.91,-0.29,48,6,1,0.92,,87,6225,10,22,50,0.809,40.3,496,4.77,12.4,18.1,1,32.3,2.33,6.7,0,0,1,1,1,399,2524,6512,369,,,,,,,,,,,,,,,,
1032143,1620405212768,0,1,26,37,38,31,40,-0.17,0.93,-0.1,48,-0,-1,0.95,0,87,6163,10,22,50,0.816,40.5,497,4.85,12.6,18.1,1,32.1,2.33,6.7,0,0,1,1,1,403,-9211,-19019,372,45.846401,5.179102,38.78,215.7,9,3,1.7,0,0.0,-1,0.0,,0.0,0,6.48,17.2024
1032163,1620405212788,,,,,,,,-0.12,0.89,0.07,48,-4,-4,0.9,,87,6171,10,22,50,0.823,40.2,507,4.81,12.6,18.1,1,32.1,2.33,6.7,0,0,1,1,1,402,10541,742,371,,,,,,,,,,,,,,,,
1032183,1620405212810,,,,,,,,-0.12,0.83,0.21,48,-10,-6,0.84,,87,6141,10,22,50,0.829,40.4,507,4.85,12.4,18.1,1,32.1,2.33,6.7,0,0,1,1,1,404,1504,8200,371,,,,,,,,,,,,,,,,
1032203,1620405212830,,,,,,,,-0.12,0.74,0.02,48,-11,-6,0.75,,87,6089,10,22,51,0.838,40.1,496,4.9,12.7,18.1,1,32.1,2.34,6.7,0,0,1,1,1,405,11545,770,370,,,,,,,,,,,,,,,,
1032223,1620405212850,,,,,,,,-0.1,0.72,-0.14,47,-13,-6,0.73,,87,6048,10,22,51,0.846,39.9,487,4.87,12.7,18.1,1,32.1,2.33,6.7,0,0,1,1,1,404,28696,257,368,,,,,,,,,,,,,,,,
1032243,1620405212870,0,1,26,36,38,31,38,-0.01,0.68,-0.3,47,-15,-7,0.68,0,87,6011,10,22,52,0.855,40.3,483,4.93,12.4,17.6,1,32.2,2.32,6.5,0,0,1,1,1,402,2524,486,370,45.84639,5.1791,39.29,215.7,9,3,1.7,0,0.0,-1,0.0,0.0,0.0,0,6.48,17.2041
1032263,1620405212890,,,,,,,,0.01,0.65,-0.44,47,-16,-6,0.65,,87,5994,10,22,53,0.863,40.8,491,4.88,12.7,17.6,1,32.3,2.32,6.5,0,0,1,1,1,401,10392,486,368,,,,,,,,,,,,,,,,
1032283,1620405212910,,,,,,,,0.04,0.63,-0.53,47,-18,-6,0.63,,87,5944,10,22,53,0.869,40.4,484,4.9,12.5,17.6,1,32.3,2.34,6.5,0,0,1,1,1,402,1504,0,363,,,,,,,,,,,,,,,,
1032303,1620405212930,,,,,,,,0.01,0.6,-0.35,47,-20,-7,0.6,,87,5952,10,22,54,0.875,40.2,475,4.85,12.6,17.6,1,32.5,2.33,6.5,0,0,1,1,1,402,-9211,230,363,,,,,,,,,,,,,,,,
1032323,1620405212950,,,,,,,,0.0,0.59,-0.15,47,-22,-8,0.59,,87,5941,10,22,55,0.881,40.4,470,4.91,12.7,17.4,1,32.7,2.34,6.4,0,0,1,1,1,404,1504,-6405,366,,,,,,,,,,,,,,,,
1032343,1620405212970,-1,2,26,36,38,31,39,-0.01,0.59,0.03,47,-25,-9,0.59,0,87,5975,10,22,55,0.887,39.9,478,4.84,12.5,17.4,1,32.7,2.31,6.4,0,0,1,1,1,402,28696,-1268,362,45.846382,5.179099,39.0,215.7,9,3,1.7,0,0.0,-1,0.0,,0.0,0,6.48,17.2057
1032363,1620405212990,,,,,,,,-0.01,0.58,0.19,47,-26,-11,0.58,,87,6000,10,22,56,0.882,39.4,482,4.91,12.7,17.4,1,33.0,2.29,6.4,0,0,1,1,1,400,10541,-1268,365,,,,,,,,,,,,,,,,
1032383,1620405213002,,,,,,,,-0.04,0.6,0.34,48,-28,-12,0.6,,87,6030,10,22,56,0.876,40.2,490,4.85,12.4,17.4,1,33.0,2.28,6.4,0,0,1,1,1,398,10541,3082,369,,,,,,,,,,,,,,,,
1032403,1620405213022,,,,,,,,-0.01,0.57,0.17,48,-29,-12,0.57,,87,6083,10,22,56,0.87,40.6,487,4.87,12.5,17.4,1,33.2,2.28,6.4,0,0,1,1,1,398,2524,2790,361,,,,,,,,,,,,,,,,
1032423,1620405213042,,,,,,,,0.02,0.52,-0.01,47,-25,-10,0.52,,87,6113,10,22,56,0.865,40.1,485,4.93,12.7,17.5,1,33.3,2.29,6.4,0,0,1,1,1,399,28696,-1268,364,,,,,,,,,,,,,,,,
1032443,1620405213062,0,1,26,37,38,31,37,0.08,0.48,-0.17,47,-22,-8,0.49,0,87,6192,10,22,56,0.855,39.9,492,4.91,12.5,17.5,1,33.6,1.12,6.4,0,0,1,1,1,396,28696,3082,361,45.846371,5.179099,38.34,215.8,9,3,1.7,0,0.0,-1,0.0,0.0,0.0,0,6.48,17.2074
1032463,1620405213082,,,,,,,,0.07,0.49,-0.33,47,-14,-4,0.49,,87,6302,10,22,55,0.842,39.9,501,4.85,12.5,17.5,1,33.7,2.29,6.4,0,0,1,1,1,399,28696,2790,363,,,,,,,,,,,,,,,,
1032483,1620405213107,,,,,,,,-0.03,0.61,-0.13,46,-14,-5,0.61,,87,6430,11,22,55,0.829,39.6,507,4.88,12.5,17.5,1,34.2,2.3,6.4,0,0,1,1,1,397,-32702,-6458,363,,,,,,,,,,,,,,,,
1032503,1620405213127,,,,,,,,0.01,0.6,0.05,47,-18,-7,0.6,,87,6535,11,22,54,0.816,39.8,514,4.8,12.5,17.5,1,34.3,2.29,6.4,0,0,1,1,1,399,6384,230,364,,,,,,,,,,,,,,,,
1032523,1620405213147,,,,,,,,0.05,0.56,-0.12,46,-12,-3,0.56,,88,6496,11,22,53,0.806,39.9,510,4.93,12.5,17.5,1,33.9,2.3,6.4,0,0,1,1,1,398,28696,-8151,362,,,,,,,,,,,,,,,,
1032543,1620405213167,0,0,26,35,39,30,36,0.02,0.63,-0.13,45,-8,-1,0.63,0,88,6373,11,22,52,0.801,40.5,508,4.81,12.4,19.0,1,33.2,2.31,6.9,0,0,1,1,1,401,-9211,-3314,363,45.846363,5.1791,39.22,215.8,9,3,1.7,0,0.0,-1,0.0,,0.0,0,6.48,17.209
1032563,1620405213187,,,,,,,,-0.04,0.7,0.05,45,-15,-3,0.7,,88,6419,11,22,52,0.796,40.2,510,4.79,12.5,19.0,1,33.3,2.31,6.9,0,0,1,1,1,402,-3968,1504,369,,,,,,,,,,,,,,,,
1032583,1620405213209,,,,,,,,-0.03,0.59,-0.12,44,-9,-2,0.6,,88,6410,11,22,52,0.79,39.9,512,4.88,12.6,19.0,1,33.3,2.31,6.9,0,0,1,1,1,401,28696,-992,370,,,,,,,,,,,,,,,,
1032603,1620405213229,,,,,,,,-0.01,0.63,-0.28,43,-4,1,0.63,,88,6355,11,22,51,0.791,40.3,501,4.83,12.4,19.0,1,32.8,2.32,6.9,0,0,1,1,1,403,-8151,1,370,,,,,,,,,,,,,,,,
1032623,1620405213249,,,,,,,,0.05,0.74,-0.42,43,4,5,0.74,,88,6223,11,22,51,0.8,39.8,489,4.85,12.4,19.0,1,32.5,2.32,6.9,0,0,1,1,1,404,6384,28696,369,,,,,,,,,,,,,,,,
1032643,1620405213269,0,1,27,35,37,29,33,-0.08,0.85,-0.22,42,3,3,0.85,0,88,6149,11,22,51,0.81,40.2,487,4.81,12.4,17.8,1,32.3,2.32,6.6,0,0,1,1,1,400,10541,1,373,45.846352,5.179102,39.11,215.7,9,3,1.7,0,0.0,-1,0.0,0.0,0.0,0,6.48,17.2107
1032663,1620405213289,,,,,,,,-0.07,0.94,-0.03,42,-1,0,0.95,,88,6085,11,22,52,0.819,40.6,483,4.8,12.4,17.8,1,32.3,2.32,6.6,0,0,1,1,1,403,2524,-19019,374,,,,,,,,,,,,,,,,
1032683,1620405213309,,,,,,,,-0.16,0.99,0.14,42,-5,-1,1.0,,88,6067,11,22,53,0.83,40.6,486,4.78,12.3,17.8,1,32.5,2.31,6.6,0,0,1,1,1,402,2524,2278,379,,,,,,,,,,,,,,,,
1032703,1620405213329,,,,,,,,-0.17,0.99,0.29,41,-8,-3,1.0,,88,6056,11,22,53,0.842,39.9,482,4.88,12.5,17.8,1,32.5,2.31,6.6,0,0,1,1,1,402,28696,-6656,370,,,,,,,,,,,,,,,,
1032723,1620405213349,,,,,,,,-0.23,0.98,0.43,41,-12,-5,1.0,,88,6065,11,22,54,0.853,40.3,483,4.81,12.4,17.8,1,32.8,2.29,6.6,0,0,1,1,1,400,-8151,-6656,373,,,,,,,,,,,,,,,,
1032743,1620405213369,-0,2,27,35,37,30,28,-0.21,0.91,0.56,41,-16,-8,0.94,0,88,6101,11,22,54,0.865,40.0,481,4.92,12.5,17.1,1,32.9,2.29,6.4,0,0,1,1,1,399,6512,-6656,369,45.846344,5.179105,39.99,215.7,9,3,1.7,0,0.0,-1,0.0,,0.0,0,6.48,17.2124
1032763,1620405213389,,,,,,,,-0.17,0.86,0.68,40,-18,-9,0.87,,88,6113,11,22,55,0.876,39.7,488,4.88,12.5,17.1,1,33.1,2.29,6.4,0,0,1,1,1,399,6512,-6656,372,,,,,,,,,,,,,,,,
1032783,1620405213409,,,,,,,,-0.16,0.76,0.57,40,-19,-9,0.77,,88,6137,11,22,55,0.882,40.0,491,4.83,12.5,17.1,1,33.2,2.29,6.4,0,0,1,1,1,398,6512,-6656,372,,,,,,,,,,,,,,,,
1032803,1620405213429,,,,,,,,-0.08,0.65,0.36,39,-16,-7,0.65,,88,6194,11,22,55,0.889,40.1,496,4.86,12.6,17.1,1,33.4,2.29,6.4,0,0,1,1,1,398,11545,-6656,373,,,,,,,,,,,,,,,,
1032823,1620405213449,,,,,,,,-0.05,0.55,0.16,37,-5,-1,0.55,,88,6270,11,22,55,0.897,39.9,497,4.84,12.4,17.6,1,33.6,2.29,6.6,0,0,1,1,1,398,1504,742,373,,,,,,,,,,,,,,,,
1032843,1620405213469,0,3,27,35,36,31,21,-0.07,0.63,-0.02,36,-2,-1,0.63,0,88,6349,11,22,55,0.904,39.4,499,4.87,12.4,17.6,1,33.9,2.29,6.6,0,0,1,1,1,398,-1818,3,372,45.846333,5.17911,39.95,215.6,9,3,1.7,0,0.0,-1,0.0,0.0,0.0,0,6.48,17.2141
1032863,1620405213489,,,,,,,,-0.04,0.72,0.15,36,-7,-2,0.72,,88,6315,11,22,54,0.9,39.6,505,4.71,12.5,17.6,1,33.6,2.29,6.6,0,0,1,1,1,397,-32702,-19019,376,,,,,,,,,,,,,,,,
1032883,1620405213509,,,,,,,,-0.01,0.65,0.31,34,-15,-4,0.65,,88,6311,11,22,54,0.895,39.8,500,4.87,12.5,17.6,1,33.6,2.29,6.6,0,0,1,1,1,397,6384,-6656,375,,,,,,,,,,,,,,,,
1032903,1620405213529,,,,,,,,0.02,0.54,0.11,33,-11,-3,0.54,,88,6289,11,22,53,0.891,39.5,492,4.91,12.6,17.6,1,33.2,2.3,6.6,0,0,1,1,1,400,-3968,-1818,375,,,,,,,,,,,,,,,,
1032923,1620405213549,,,,,,,,0.02,0.45,-0.06,31,-4,2,0.45,,88,6268,11,22,53,0.887,39.9,492,4.93,12.4,17.6,1,33.1,2.3,6.6,0,0,1,1,1,399,28696,-32702,383,,,,,,,,,,,,,,,,
1032943,1620405213569,-0,3,29,33,34,31,13,0.07,0.48,-0.22,30,2,2,0.49,0,88,6247,11,22,53,0.881,39.8,493,4.83,12.3,17.2,1,33.1,2.3,6.6,0,0,1,1,1,399,6384,-6656,379,45.846325,5.179114,40.45,215.6,9,3,1.7,0,0.0,-1,0.0,,0.0,0,6.49,17.2157
1032963,1620405213589,,,,,,,,0.04,0.58,-0.04,29,-1,1,0.58,,88,6241,11,22,53,0.875,40.2,492,4.78,12.5,17.2,1,33.0,2.3,6.6,0,0,1,1,1,397,10541,-32702,384,,,,,,,,,,,,,,,,
1032983,1620405213609,,,,,,,,-0.03,0.55,0.13,28,-10,-2,0.55,,88,6254,11,22,53,0.869,39.5,490,4.94,12.5,17.2,1,33.1,2.3,6.6,0,0,1,1,1,398,17144,-1562,391,,,,,,,,,,,,,,,,
1033003,1620405213629,,,,,,,,0.04,0.44,0.29,27,-9,-2,0.44,,88,6287,11,22,53,0.863,39.8,490,4.92,12.6,17.2,1,33.2,2.3,6.6,0,0,1,1,1,397,6384,1,384,,,,,,,,,,,,,,,,
1033023,1620405213649,,,,,,,,0.13,0.36,0.1,26,-1,-1,0.39,,88,6332,11,22,53,0.862,39.8,497,4.9,12.4,17.2,1,33.3,2.3,6.7,0,0,1,1,1,397,6384,1,389,,,,,,,,,,,,,,,,
1033043,1620405213669,1,2,29,35,32,31,9,0.16,0.35,-0.08,24,6,1,0.38,0,88,6332,11,22,53,0.861,39.6,503,4.91,12.4,17.2,1,33.3,2.3,6.7,0,0,1,1,1,400,-3968,-1818,390,45.846314,5.17912,40.53,215.6,9,3,1.7,0,0.0,-1,0.0,0.0,0.0,0,6.49,17.2174
1033063,1620405213691,,,,,,,,0.05,0.45,0.1,23,-1,-1,0.45,,88,6281,11,22,53,0.86,40.0,508,4.77,12.5,17.2,1,33.2,2.3,6.7,0,0,1,1,1,400,6512,11545,391,,,,,,,,,,,,,,,,
1033083,1620405213711,,,,,,,,0.02,0.46,0.25,22,-10,-4,0.46,,88,6241,11,22,52,0.858,40.1,497,4.91,12.5,17.2,1,32.8,2.3,6.7,0,0,1,1,1,399,11545,-3968,393,,,,,,,,,,,,,,,,
1033103,1620405213731,,,,,,,,0.09,0.39,0.4,20,-7,-3,0.4,,88,6227,11,22,52,0.859,40.3,495,4.94,12.5,17.2,1,32.8,2.3,6.7,0,0,1,1,1,399,-8151,-32702,391,,,,,,,,,,,,,,,,
1033123,1620405213751,,,,,,,,0.15,0.31,0.2,18,-1,-2,0.34,,88,6252,11,22,53,0.862,39.7,496,4.9,12.4,16.7,1,33.1,2.3,6.6,0,0,1,1,1,399,-3968,17144,397,,,,,,,,,,,,,,,,
1033143,1620405213771,1,1,30,35,31,32,7,0.18,0.27,0.02,17,8,2,0.32,0,88,6300,11,22,53,0.867,39.9,503,4.88,12.6,16.7,1,33.2,2.3,6.6,0,0,1,1,1,398,28696,17144,388,45.846306,5.179126,39.85,215.6,9,3,1.7,0,0.0,-1,0.0,,0.0,0,6.49,17.219
1033163,1620405213791,,,,,,,,0.15,0.33,0.14,16,7,1,0.36,,88,6388,11,22,53,0.871,39.9,506,4.84,12.4,16.7,1,33.5,2.3,6.6,0,0,1,1,1,399,28696,-1818,391,,,,,,,,,,,,,,,,
1033183,1620405213809,,,,,,,,0.08,0.31,0.3,16,2,-1,0.32,,88,6452,11,22,52,0.875,39.4,506,4.88,12.6,16.7,1,33.4,2.31,6.6,0,0,1,1,1,399,-3968,-32702,387,,,,,,,,,,,,,,,,
1033203,1620405213829,,,,,,,,0.14,0.22,0.11,14,8,1,0.26,,88,6465,11,22,52,0.878,40.0,506,4.87,12.6,16.7,1,33.5,2.31,6.6,0,0,1,1,1,400,6512,6512,396,,,,,,,,,,,,,,,,
1033223,1620405213849,,,,,,,,0.18,0.2,-0.07,14,13,3,0.27,,88,6401,11,22,52,0.882,40.5,504,4.87,12.5,17.0,1,33.3,2.31,6.8,0,0,1,1,1,404,-9211,10541,398,,,,,,,,,,,,,,,,
1033243,1620405213869,-1,2,30,32,32,31,6,0.1,0.33,0.1,13,9,1,0.34,0,88,6298,11,22,51,0.887,40.4,505,4.81,12.4,17.0,1,32.7,2.32,6.8,0,0,1,1,1,405,10392,1504,398,45.846294,5.179133,41.1,215.7,9,3,1.7,0,0.0,-1,0.0,0.0,0.0,0,6.49,17.2207
1033263,1620405213889,,,,,,,,-0.03,0.33,0.26,11,1,-1,0.33,,88,6237,11,22,52,0.89,40.0,500,4.88,12.5,17.0,1,32.8,2.31,6.8,0,0,1,1,1,405,6512,-8151,398,,,,,,,,,,,,,,,,
1033283,1620405213909,,,,,,,,0.11,0.27,0.07,10,4,-0,0.29,,88,6260,11,22,52,0.89,40.2,496,4.87,12.5,17.0,1,32.9,2.31,6.8,0,0,1,1,1,401,10541,11545,397,,,,,,,,,,,,,,,,
1033303,1620405213929,,,,,,,,0.13,0.22,-0.1,9,7,3,0.26,,88,6319,11,22,52,0.891,40.2,493,4.88,12.4,17.0,1,33.1,2.31,6.8,0,0,1,1,1,401,11545,28696,398,,,,,,,,,,,,,,,,
1033323,1620405213949,,,,,,,,0.09,0.28,0.08,9,10,4,0.29,,88,6430,11,22,52,0.892,39.9,496,4.87,12.6,17.0,1,33.4,2.31,6.8,0,0,1,1,1,402,10541,10541,395,,,,,,,,,,,,,,,,
1033343,1620405213969,1,0,31,31,33,32,5,0.08,0.2,0.24,9,0,-0,0.21,0,88,6492,11,22,51,0.896,40.3,508,4.83,12.6,17.2,1,33.3,2.31,6.8,0,0,1,1,1,404,-8151,10541,401,45.846287,5.17914,41.07,215.7,9,3,1.7,0,0.0,-1,0.0,,0.0,0,6.49,17.2224
1033363,1620405213989,,,,,,,,0.11,0.14,0.05,8,3,1,0.18,,88,6505,11,22,51,0.899,40.5,510,4.88,12.6,17.2,1,33.3,2.31,6.8,0,0,1,1,1,405,-9211,1504,402,,,,,,,,,,,,,,,,
1033383,1620405214001,,,,,,,,0.01,0.18,0.21,7,9,4,0.18,,88,6425,11,22,50,0.903,40.7,510,4.91,12.3,17.2,1,32.9,2.31,6.8,0,0,1,1,1,406,9517,-9211,401,,,,,,,,,,,,,,,,
1033403,1620405214021,,,,,,,,-0.09,0.17,0.36,7,-1,1,0.19,,88,6399,11,22,50,0.906,40.2,511,4.82,12.5,17.2,1,32.8,2.32,6.8,0,0,1,1,1,405,10541,1504,407,,,,,,,,,,,,,,,,
1033423,1620405214041,,,,,,,,-0.01,0.12,0.17,5,1,2,0.12,,88,6394,10,22,50,0.91,40.4,512,4.85,12.6,17.2,1,32.8,2.32,6.8,0,0,1,1,1,404,1504,1504,398,,,,,,,,,,,,,,,,
1033443,1620405214061,-1,2,30,34,32,32,4,0.06,0.12,-0.01,5,8,5,0.13,0,88,6443,10,22,49,0.915,40.4,511,4.87,12.5,17.0,1,32.7,2.32,6.8,0,0,1,1,1,405,1504,1504,402,45.846279,5.179147,41.35,215.7,9,3,1.7,0,0.0,-1,0.0,0.0,0.0,0,6.49,17.2241
1033463,1620405214081,,,,,,,,0.05,0.15,0.15,5,8,5,0.16,,88,6449,9,22,49,0.92,40.4,510,4.82,12.5,17.0,1,32.6,2.32,6.8,0,0,1,1,1,408,1504,2524,397,,,,,,,,,,,,,,,,
1033483,1620405214108,,,,,,,,0.09,0.04,0.31,5,2,2,0.1,,88,6463,9,22,48,0.925,40.5,508,4.87,12.6,17.0,1,32.4,2.33,6.8,0,0,1,1,1,407,-26615,2524,404,,,,,,,,,,,,,,,,
1033503,1620405214128,,,,,,,,0.08,0.0,0.12,4,4,3,0.08,,88,6430,9,22,48,0.929,40.9,510,4.89,12.5,17.0,1,32.3,1.16,6.8,0,0,1,1,1,408,10541,10392,405,,,,,,,,,,,,,,,,
1033523,1620405214148,,,,,,,,-0.01,0.1,0.27,4,9,5,0.1,,88,6410,9,22,47,0.936,41.1,517,4.83,12.5,17.0,1,32.1,2.33,6.9,0,0,1,1,1,409,-4059,-26615,404,,,,,,,,,,,,,,,,
1033543,1620405214168,0,3,30,33,31,33,-0,-0.05,0.13,0.42,3,1,2,0.14,0,88,6401,9,22,46,0.942,41.0,516,4.78,12.7,17.0,1,31.7,2.34,6.9,0,0,1,1,1,407,11560,10392,410,45.846268,5.179154,41.93,215.7,9,3,1.7,0,0.0,-1,0.0,,0.0,0,6.49,17.2257
1033563,1620405214188,,,,,,,,-0.01,0.07,0.22,2,3,3,0.07,,88,6408,9,22,46,0.948,40.8,506,4.92,12.5,17.0,1,31.7,2.34,6.9,0,0,1,1,1,409,10392,2524,403,,,,,,,,,,,,,,,,
1033583,1620405214208,,,,,,,,0.04,0.02,0.03,2,9,6,0.05,,88,6469,9,22,46,0.953,40.6,505,4.87,12.6,17.0,1,31.9,2.34,6.9,0,0,1,1,1,406,1504,-9211,406,,,,,,,,,,,,,,,,
1033603,1620405214228,,,,,,,,0.06,0.03,0.2,2,5,4,0.06,,88,6517,8,22,45,0.959,40.8,510,4.81,12.5,17.0,1,31.8,2.33,6.9,0,0,1,1,1,405,6512,10392,408,,,,,,,,,,,,,,,,
1033623,1620405214248,,,,,,,,0.1,0.02,0.01,2,-3,1,0.1,,88,6517,8,22,45,0.965,40.8,516,4.87,12.7,17.1,1,31.8,2.33,7.0,0,0,1,1,1,407,2524,-26615,408,,,,,,,,,,,,,,,,
1033643,1620405214268,1,0,31,30,32,33,-1,0.13,0.06,-0.16,1,5,5,0.14,0,88,6485,8,22,44,0.97,40.9,518,4.91,12.4,17.1,1,31.4,2.34,7.0,0,0,1,1,1,407,11545,-4059,405,45.84626,5.179162,41.61,215.7,9,3,2.0,0,0.0,-1,0.0,0.0,0.0,0,6.49,17.2274
1033663,1620405214288,,,,,,,,0.05,0.12,0.02,1,4,3,0.13,,88,6465,8,22,44,0.974,41.2,515,4.81,12.5,17.1,1,31.4,2.34,7.0,0,0,1,1,1,409,-26615,9517,410,,,,,,,,,,,,,,,,
1033683,1620405214310,,,,,,,,0.09,0.08,0.07,2,-3,1,0.12,,88,6430,8,22,44,0.974,41.2,513,4.85,12.7,17.1,1,31.4,2.34,7.0,0,0,1,1,1,408,-26615,13040,412,,,,,,,,,,,,,,,,
1033703,1620405214330,,,,,,,,0.1,0.06,-0.1,1,0,2,0.11,,88,6403,8,22,43,0.973,40.7,505,5.0,12.5,17.1,1,31.1,2.34,7.0,0,0,1,1,1,411,-26615,11560,410,,,,,,,,,,,,,,,,
1033723,1620405214350,,,,,,,,0.0,0.08,0.07,1,3,2,0.08,,88,6427,8,22,43,0.972,40.9,508,4.81,12.5,16.8,1,31.2,2.34,6.9,0,0,1,1,1,406,-4059,11560,409,,,,,,,,,,,,,,,,
1033743,1620405214370,1,3,31,31,32,33,-1,-0.01,0.05,0.23,1,-4,0,0.05,0,88,6445,8,22,43,0.971,41.3,511,4.78,12.6,16.8,1,31.2,2.34,6.9,0,0,1,1,1,406,1504,-26615,413,45.846249,5.179169,42.15,215.7,9,3,1.7,0,0.0,-1,0.0,,0.0,0,6.49,17.229
1033763,1620405214390,,,,,,,,0.02,-0.01,0.05,1,-7,-1,0.02,,88,6465,8,22,43,0.965,40.9,517,4.86,12.6,16.8,1,31.2,2.34,6.9,0,0,1,1,1,406,-26615,10392,408,,,,,,,,,,,,,,,,
1033783,1620405214410,,,,,,,,0.04,0.05,-0.12,1,-0,2,0.06,,88,6458,8,22,42,0.958,40.4,524,4.87,12.5,16.8,1,31.0,2.34,6.9,0,0,1,1,1,404,-9211,9517,404,,,,,,,,,,,,,,,,
1033803,1620405214430,,,,,,,,0.03,0.14,0.05,1,-5,-0,0.14,,88,6485,8,22,42,0.952,40.9,525,4.82,12.4,16.8,1,31.0,2.34,6.9,0,0,1,1,1,405,2524,10392,409,,,,,,,,,,,,,,,,
1033823,1620405214450,,,,,,,,0.09,0.08,-0.12,0,-3,-0,0.12,,88,6499,8,22,42,0.946,41.1,529,4.86,12.7,16.8,1,31.0,2.34,6.9,0,0,1,1,1,407,10392,2524,405,,,,,,,,,,,,,,,,
1033843,1620405214470,0,1,31,29,31,33,-1,0.15,0.08,-0.28,0,3,3,0.17,0,88,6505,8,22,42,0.937,41.0,519,4.86,12.5,17.2,1,31.1,2.34,7.0,0,0,1,1,1,408,-9211,9517,410,45.846241,5.179177,42.26,215.7,9,3,1.7,0,0.0,-1,0.0,0.0,0.0,0,6.5,17.2307
1033863,1620405214490,,,,,,,,0.1,0.12,-0.09,1,0,2,0.16,,88,6503,8,22,42,0.928,40.8,517,4.85,12.6,17.2,1,31.1,2.34,7.0,0,0,1,1,1,408,10392,-26615,403,,,,,,,,,,,,,,,,
1033883,1620405214508,,,,,,,,0.11,0.13,-0.24,1,-5,0,0.17,,88,6458,8,22,42,0.919,40.4,517,4.88,12.5,17.2,1,31.0,2.34,7.0,0,0,1,1,1,408,-8151,10392,404,,,,,,,,,,,,,,,,
1033903,1620405214528,,,,,,,,0.09,0.08,-0.39,1,5,3,0.12,,88,6397,8,22,41,0.909,40.7,519,4.92,12.4,17.2,1,30.6,2.34,7.0,0,0,1,1,1,407,-26615,11560,405,,,,,,,,,,,,,,,,
1033923,1620405214548,,,,,,,,-0.0,0.13,-0.19,0,7,4,0.13,,88,6366,8,22,42,0.9,40.5,515,4.86,12.5,17.0,1,30.8,2.34,6.9,0,0,1,1,1,405,-9211,10392,407,,,,,,,,,,,,,,,,
1033943,1620405214568,0,1,30,32,32,33,-0,-0.04,0.11,-0.01,0,-2,1,0.12,0,88,6336,8,22,41,0.891,40.6,512,4.8,12.6,17.0,1,30.6,2.34,6.9,0,0,1,1,1,406,-26615,10392,406,45.84623,5.179184,42.18,215.7,9,3,2.0,0,0.0,-1,0.0,,0.0,0,6.5,17.2324
1033963,1620405214588,,,,,,,,0.04,0.05,-0.17,-0,-4,-0,0.06,,88,6313,8,22,41,0.881,40.4,504,4.9,12.6,17.0,1,30.5,2.34,6.9,0,0,1,1,1,406,1504,2524,404,,,,,,,,,,,,,,,,
1033983,1620405214610,,,,,,,,0.1,-0.01,-0.33,-0,-2,3,0.1,,88,6302,8,22,41,0.871,40.7,504,4.91,12.6,17.0,1,30.5,2.34,6.9,0,0,1,1,1,407,-9211,2524,407,,,,,,,,,,,,,,,,
1034003,1620405214630,,,,,,,,0.11,0.01,-0.47,-1,6,6,0.11,,88,6270,8,22,42,0.864,40.7,504,4.91,12.6,17.0,1,30.7,2.34,6.9,0,0,1,1,1,406,-26615,2524,402,,,,,,,,,,,,,,,,
1034023,1620405214650,,,,,,,,-0.02,0.11,-0.26,-1,7,6,0.11,,88,6239,8,22,42,0.858,40.2,504,4.78,12.4,16.6,1,30.6,2.34,6.7,0,0,1,1,1,404,-3968,2524,402,,,,,,,,,,,,,,,,
1034043,1620405214670,1,1,30,27,32,33,-0,-0.05,0.12,-0.07,-1,-0,3,0.13,0,88,6196,8,22,42,0.851,40.7,502,4.85,12.6,16.6,1,30.6,2.34,6.7,0,0,1,1,1,403,-9211,2524,406,45.846222,5.179191,41.93,215.7,9,3,1.7,0,0.0,-1,0.0,0.0,0.0,0,6.5,17.2341
1034063,1620405214690,,,,,,,,-0.09,0.09,0.1,-1,-7,1,0.12,,88,6141,8,22,43,0.845,40.8,492,4.78,12.5,16.6,1,30.7,2.35,6.7,0,0,1,1,1,402,11560,2524,408,,,,,,,,,,,,,,,,
1034083,1620405214710,,,,,,,,-0.09,0.04,0.26,-1,-13,-2,0.1,,88,6064,8,22,43,0.837,40.7,488,4.9,12.6,16.6,1,30.5,2.35,6.7,0,0,1,1,1,404,2524,1504,405,,,,,,,,,,,,,,,,
1034103,1620405214730,,,,,,,,-0.08,0.0,0.4,-1,-17,-4,0.08,,88,5965,8,22,44,0.829,40.5,487,4.9,12.5,16.6,1,30.5,2.37,6.7,0,0,1,1,1,405,-9211,-9211,407,,,,,,,,,,,,,,,,
1034123,1620405214750,,,,,,,,-0.12,0.01,0.54,-1,-20,-5,0.12,,88,5863,8,22,45,0.821,40.6,480,4.88,12.6,16.0,1,30.5,2.42,6.5,0,0,1,1,1,401,10541,10541,406,,,,,,,,,,,,,,,,
1034143,1620405214770,1,1,29,31,32,33,1,-0.18,0.11,0.66,-0,-20,-6,0.21,0,88,5855,8,22,45,0.814,40.1,469,4.85,12.5,16.0,1,30.5,2.42,6.5,0,0,1,1,1,395,6384,-1818,401,45.846214,5.179198,42.19,215.7,9,3,1.7,0,0.0,-1,0.0,,0.0,0,6.5,17.2357
1034163,1620405214790,,,,,,,,-0.24,0.15,0.77,-0,-22,-8,0.28,,88,5992,8,22,46,0.809,39.8,463,4.84,12.3,16.0,1,30.9,2.37,6.5,0,0,1,1,1,386,-6656,505,398,,,,,,,,,,,,,,,,
1034183,1620405214810,,,,,,,,-0.24,0.14,0.87,0,-23,-9,0.28,,88,6175,8,22,46,0.805,39.7,483,4.85,12.7,16.0,1,31.3,2.35,6.5,0,0,1,1,1,392,6512,-1818,396,,,,,,,,,,,,,,,,
1034203,1620405214830,,,,,,,,-0.2,0.06,0.97,1,-30,-10,0.21,,88,6332,8,22,46,0.801,39.8,496,4.92,12.7,16.0,1,31.6,2.34,6.5,0,0,1,1,1,388,6512,505,397,,,,,,,,,,,,,,,,
1034223,1620405214850,,,,,,,,-0.14,0.02,0.72,1,-21,-7,0.14,,88,6405,9,22,46,0.797,39.7,507,4.92,12.5,17.5,1,31.7,2.34,6.9,0,0,1,1,1,394,-3968,-1818,396,,,,,,,,,,,,,,,,
1034243,1620405214870,3,1,28,32,32,35,0,-0.18,0.12,0.83,1,-17,-6,0.21,0,88,6512,9,22,45,0.796,39.6,513,4.81,12.4,17.5,1,31.8,2.33,6.9,0,0,1,1,1,395,-32702,-1818,396,45.846207,5.179206,41.86,215.7,9,3,1.7,0,0.0,-1,0.0,0.0,0.0,0,6.5,17.2374
1034263,1620405214890,,,,,,,,-0.19,0.08,0.93,1,-21,-7,0.21,,88,6592,9,22,45,0.794,39.6,515,4.91,12.6,17.5,1,32.0,2.33,6.9,0,0,1,1,1,396,1,-1818,394,,,,,,,,,,,,,,,,
1034283,1620405214910,,,,,,,,-0.15,0.07,0.68,1,-14,-4,0.17,,88,6679,9,22,44,0.793,38.9,521,4.96,12.5,17.5,1,31.8,2.33,6.9,0,0,1,1,1,394,-6524,-6656,386,,,,,,,,,,,,,,,,
1034303,1620405214930,,,,,,,,-0.17,0.05,0.79,1,-20,-6,0.18,,88,6727,9,22,44,0.792,38.8,533,4.85,12.7,17.5,1,31.9,2.32,6.9,0,0,1,1,1,393,-3866,1,391,,,,,,,,,,,,,,,,
1034323,1620405214950,,,,,,,,-0.12,0.08,0.56,1,-13,-3,0.14,,88,6791,9,22,44,0.793,39.2,534,4.89,12.6,17.5,1,32.0,2.32,6.9,0,0,1,1,1,391,505,-6656,392,,,,,,,,,,,,,,,,
1034343,1620405214970,3,1,29,28,33,34,2,-0.12,0.01,0.68,1,-12,-5,0.12,0,88,6830,9,22,43,0.797,39.4,542,4.84,12.6,18.6,1,31.8,2.32,7.3,0,0,1,1,1,391,17144,-1818,394,45.846195,5.179213,41.41,215.7,9,3,1.7,0,0.0,-1,0.0,,0.0,0,6.5,17.239
1034363,1620405214990,,,,,,,,-0.13,0.04,0.46,1,-10,-2,0.14,,88,6730,9,22,43,0.8,39.3,539,4.85,12.5,18.6,1,31.7,2.32,7.3,0,0,1,1,1,401,-1818,11545,393,,,,,,,,,,,,,,,,
1034383,1620405215002,,,,,,,,-0.1,0.07,0.59,1,-18,-4,0.12,,88,6503,9,22,43,0.803,39.4,534,4.8,12.5,18.6,1,31.3,2.33,7.3,0,0,1,1,1,404,-1818,-26615,399,,,,,,,,,,,,,,,,
1034403,1620405215022,,,,,,,,0.0,-0.01,0.7,0,-17,-4,0.01,,88,6266,9,22,43,0.804,40.1,518,4.85,12.5,18.6,1,30.9,2.34,7.3,0,0,1,1,1,408,-32702,-8151,399,,,,,,,,,,,,,,,,
1034423,1620405215042,,,,,,,,-0.0,-0.06,0.5,1,-19,-5,0.06,,88,6083,9,22,43,0.803,39.9,497,4.91,12.4,16.7,1,30.5,2.35,6.6,0,0,1,1,1,403,-1818,-8151,395,,,,,,,,,,,,,,,,
1034443,1620405215062,2,0,31,32,32,32,3,-0.0,-0.11,0.29,1,-22,-6,0.11,0,88,5965,9,22,44,0.803,39.5,483,4.93,12.6,16.7,1,30.5,2.37,6.6,0,0,1,1,1,399,505,6384,394,45.846188,5.179219,40.84,215.7,9,3,1.7,0,0.0,-1,0.0,0.0,0.0,0,6.5,17.2407
1034463,1620405215082,,,,,,,,0.02,-0.1,0.43,1,-23,-7,0.1,,88,5844,9,22,46,0.803,39.7,475,4.89,12.7,16.7,1,30.7,2.43,6.6,0,0,1,1,1,396,-32702,-3968,394,,,,,,,,,,,,,,,,
1034483,1620405215109,,,,,,,,-0.05,-0.03,0.56,1,-23,-8,0.05,,88,5702,9,22,47,0.804,39.9,471,4.85,12.5,16.7,1,30.7,2.52,6.6,0,0,1,1,1,395,28696,-32702,398,,,,,,,,,,,,,,,,
1034503,1620405215129,,,,,,,,-0.1,0.04,0.35,2,-19,-6,0.11,,88,5563,9,22,48,0.807,39.6,458,4.82,12.3,16.7,1,30.7,2.58,6.6,0,0,1,1,1,399,11545,-32702,396,,,,,,,,,,,,,,,,
1034523,1620405215149,,,,,,,,-0.09,-0.03,0.35,2,-20,-6,0.1,,88,5492,9,22,49,0.812,39.6,441,4.86,12.6,16.7,1,30.8,2.62,6.6,0,0,1,1,1,397,-32702,17144,393,,,,,,,,,,,,,,,,
1034543,1620405215169,2,2,29,31,32,33,5,-0.14,0.0,0.48,2,-22,-7,0.14,0,88,5553,9,22,49,0.814,39.5,441,4.85,12.4,16.7,1,30.9,2.59,6.6,0,0,1,1,1,388,17144,-3866,393,45.846176,5.179226,41.14,215.7,9,3,1.7,0,0.0,-1,0.0,,0.0,0,6.5,17.2424
1034563,1620405215189,,,,,,,,-0.18,0.13,0.61,2,-19,-7,0.22,,88,5688,9,22,50,0.818,39.6,451,4.78,12.4,16.7,1,31.3,2.52,6.6,0,0,1,1,1,386,505,-19126,384,,,,,,,,,,,,,,,,
1034583,1620405215209,,,,,,,,-0.25,0.2,0.39,3,-14,-5,0.32,,88,5863,9,22,51,0.822,39.1,464,4.83,12.6,16.7,1,31.7,2.42,6.6,0,0,1,1,1,381,-19019,2278,384,,,,,,,,,,,,,,,,
1034603,1620405215229,,,,,,,,-0.31,0.28,0.53,3,-9,-4,0.41,,88,6107,9,22,51,0.825,38.8,471,4.83,12.6,16.7,1,32.2,2.33,6.6,0,0,1,1,1,380,-31744,8200,386,,,,,,,,,,,,,,,,
1034623,1620405215249,,,,,,,,-0.44,0.36,0.65,4,-13,-5,0.57,,88,6264,9,22,51,0.828,38.9,497,4.83,12.5,17.5,1,32.6,2.32,6.7,0,0,1,1,1,380,-6524,-18948,381,,,,,,,,,,,,,,,,
1034643,1620405215269,1,2,27,31,34,34,10,-0.37,0.34,0.76,4,-16,-6,0.5,0,88,6394,9,22,50,0.832,39.1,505,4.87,12.6,17.5,1,32.8,2.32,6.7,0,0,1,1,1,387,505,-19126,383,45.846168,5.179233,40.98,215.6,9,3,1.7,0,0.0,-1,0.0,0.0,0.0,0,6.5,17.244
1034663,1620405215289,,,,,,,,-0.27,0.36,0.53,3,-9,-4,0.45,,88,6476,9,22,49,0.843,39.0,512,4.92,12.5,17.5,1,32.7,2.32,6.7,0,0,1,1,1,390,-31744,19125,379,,,,,,,,,,,,,,,,
1034683,1620405215309,,,,,,,,-0.32,0.42,0.65,4,-11,-5,0.53,,88,6611,9,22,48,0.855,39.0,521,4.8,12.6,17.5,1,32.8,2.31,6.7,0,0,1,1,1,392,-1562,-18948,381,,,,,,,,,,,,,,,,
1034703,1620405215329,,,,,,,,-0.3,0.33,0.44,4,-7,-4,0.45,,88,6701,9,22,47,0.867,39.1,530,4.82,12.7,17.5,1,32.7,2.3,6.7,0,0,1,1,1,389,505,-992,380,,,,,,,,,,,,,,,,
1034723,1620405215349,,,,,,,,-0.25,0.39,0.57,5,-5,-4,0.46,,88,6808,9,22,46,0.878,38.6,540,4.8,12.5,18.7,1,32.6,2.29,7.2,0,0,1,1,1,390,-3866,8200,383,,,,,,,,,,,,,,,,
1034743,1620405215369,1,2,28,33,34,33,13,-0.2,0.32,0.36,5,-1,-3,0.38,0,88,6835,9,22,46,0.878,38.9,541,4.94,12.7,18.7,1,32.7,2.3,7.2,0,0,1,1,1,392,-6524,-19126,381,45.846157,5.17924,40.62,215.6,9,3,1.7,0,0.0,-1,0.0,,0.0,0,6.51,17.2457
1034763,1620405215389,,,,,,,,-0.2,0.4,0.43,6,-5,-3,0.45,,88,6595,9,22,46,0.877,38.6,532,4.88,12.3,18.7,1,32.2,2.32,7.2,0,0,1,1,1,398,17144,10541,381,,,,,,,,,,,,,,,,
1034783,1620405215409,,,,,,,,-0.18,0.41,0.56,6,-12,-5,0.45,,88,6296,9,22,45,0.876,39.4,515,4.85,12.7,18.7,1,31.3,2.34,7.2,0,0,1,1,1,403,-1818,28696,385,,,,,,,,,,,,,,,,
1034803,1620405215429,,,,,,,,-0.21,0.41,0.68,7,-17,-7,0.46,,88,6003,9,22,46,0.875,40.0,500,4.9,12.6,18.7,1,31.0,2.36,7.2,0,0,1,1,1,401,6512,-3968,391,,,,,,,,,,,,,,,,
1034823,1620405215449,,,,,,,,-0.3,0.41,0.79,7,-17,-8,0.51,,88,5804,9,22,47,0.869,39.7,474,4.9,12.5,17.2,1,30.8,2.47,6.6,0,0,1,1,1,400,-3968,505,382,,,,,,,,,,,,,,,,
1034843,1620405215469,1,0,29,32,32,31,13,-0.29,0.43,0.56,8,-13,-6,0.52,0,88,5659,9,22,48,0.863,39.6,454,4.82,12.3,17.2,1,30.8,2.54,6.6,0,0,1,1,1,399,6384,-6475,386,45.846149,5.179247,40.41,215.6,9,3,1.7,0,0.0,-1,0.0,0.0,0.0,0,6.51,17.2474
1034863,1620405215489,,,,,,,,-0.21,0.39,0.35,8,-12,-6,0.44,,88,5547,9,22,49,0.858,39.4,446,4.87,12.5,17.2,1,30.9,2.59,6.6,0,0,1,1,1,395,-1818,240,382,,,,,,,,,,,,,,,,
1034883,1620405215509,,,,,,,,-0.26,0.4,0.48,9,-15,-6,0.48,,88,5408,8,22,50,0.852,39.8,449,4.93,12.5,17.2,1,31.0,2.68,6.6,0,0,1,1,1,399,6384,-19019,384,,,,,,,,,,,,,,,,
1034903,1620405215529,,,,,,,,-0.2,0.39,0.28,9,-10,-4,0.44,,88,5334,8,22,51,0.849,39.3,432,4.85,12.4,17.2,1,31.1,2.73,6.6,0,0,1,1,1,395,-6656,-19126,387,,,,,,,,,,,,,,,,
1034923,1620405215549,,,,,,,,-0.19,0.35,0.42,10,-11,-4,0.4,,88,5455,8,22,52,0.843,40.2,421,4.97,12.5,17.2,1,31.5,2.66,6.6,0,0,1,1,1,383,17144,770,384,,,,,,,,,,,,,,,,
1034943,1620405215569,-1,2,28,31,34,32,12,-0.23,0.41,0.55,10,-14,-5,0.47,0,88,5645,8,22,53,0.837,39.2,431,4.88,12.6,17.4,1,32.0,2.55,6.7,0,0,1,1,1,387,1,3,382,45.846142,5.179255,40.18,215.5,9,3,1.7,0,0.0,-1,0.0,,0.0,0,6.51,17.2491
1034963,1620405215589,,,,,,,,-0.32,0.5,0.67,10,-13,-6,0.59,,88,5828,8,22,53,0.832,39.2,452,4.83,12.7,17.4,1,32.1,2.42,6.7,0,0,1,1,1,381,1,770,382,,,,,,,,,,,,,,,,
1034983,1620405215609,,,,,,,,-0.36,0.57,0.78,10,-15,-7,0.68,,88,6040,8,22,53,0.833,38.9,470,4.81,12.4,17.4,1,32.4,2.31,6.7,0,0,1,1,1,376,-6524,257,380,,,,,,,,,,,,,,,,
1035003,1620405215629,,,,,,,,-0.38,0.6,0.89,11,-24,-8,0.71,,88,6243,8,22,52,0.838,38.5,487,4.81,12.3,17.4,1,32.9,2.31,6.7,0,0,1,1,1,381,-19126,742,374,,,,,,,,,,,,,,,,
1035023,1620405215649,,,,,,,,-0.31,0.55,0.98,10,-22,-7,0.63,,88,6414,8,22,52,0.842,38.8,502,4.83,12.6,17.4,1,33.3,2.31,6.7,0,0,1,1,1,386,-19019,742,374,,,,,,,,,,,,,,,,
1035043,1620405215669,-1,2,28,29,34,32,11,-0.18,0.47,0.73,11,-12,-2,0.51,0,88,6533,8,22,50,0.847,38.2,512,4.87,12.4,18.1,1,33.1,2.31,6.8,0,0,1,1,1,386,19125,770,375,45.84613,5.179263,40.38,215.5,9,3,1.7,0,0.0,-1,0.0,0.0,0.0,0,6.51,17.2507
1035063,1620405215689,,,,,,,,-0.21,0.52,0.84,11,-17,-3,0.56,,88,6658,8,22,49,0.855,39.1,526,4.84,12.4,18.1,1,33.2,2.31,6.8,0,0,1,1,1,386,505,770,375,,,,,,,,,,,,,,,,
1035083,1620405215709,,,,,,,,-0.22,0.45,0.6,11,-13,-1,0.5,,88,6766,8,22,48,0.865,38.3,534,4.92,12.5,18.1,1,33.2,2.3,6.8,0,0,1,1,1,385,-19126,770,375,,,,,,,,,,,,,,,,
1035103,1620405215729,,,,,,,,-0.23,0.42,0.72,11,-19,-3,0.47,,88,6863,8,22,47,0.874,38.5,546,4.88,12.6,18.1,1,33.0,2.29,6.8,0,0,1,1,1,385,-3866,770,371,,,,,,,,,,,,,,,,
1035123,1620405215749,,,,,,,,-0.12,0.37,0.49,11,-9,0,0.39,,88,6742,8,22,46,0.883,38.4,546,4.87,12.5,19.1,1,32.5,2.3,7.2,0,0,1,1,1,391,-19019,-6475,376,,,,,,,,,,,,,,,,
1035143,1620405215769,0,2,29,35,32,31,12,-0.17,0.45,0.62,11,-12,-2,0.48,0,88,6421,8,22,46,0.885,38.7,530,4.83,12.6,19.1,1,31.8,2.34,7.2,0,0,1,1,1,397,240,28696,381,45.846127,5.17927,40.33,215.5,9,3,1.7,0,0.0,-1,0.0,,0.0,0,6.51,17.2524
1035163,1620405215789,,,,,,,,-0.1,0.41,0.73,11,-17,-5,0.42,,88,6025,8,22,45,0.879,39.3,496,4.9,12.5,19.1,1,30.8,2.36,7.2,0,0,1,1,1,405,-6656,6512,383,,,,,,,,,,,,,,,,
1035183,1620405215809,,,,,,,,-0.16,0.4,0.84,11,-16,-5,0.43,,88,5692,8,22,46,0.874,39.3,477,4.81,12.5,19.1,1,30.4,2.51,7.2,0,0,1,1,1,396,-6656,505,384,,,,,,,,,,,,,,,,
1035203,1620405215829,,,,,,,,-0.09,0.42,0.6,11,-12,-4,0.43,,88,5496,8,22,48,0.87,39.8,455,4.87,12.4,19.1,1,30.5,2.64,7.2,0,0,1,1,1,393,-3968,-6475,386,,,,,,,,,,,,,,,,
1035223,1620405215849,,,,,,,,-0.16,0.38,0.72,12,-13,-5,0.41,,88,5357,8,22,49,0.864,38.8,434,4.92,12.5,17.4,1,30.6,2.7,6.7,0,0,1,1,1,392,-31744,-18948,382,,,,,,,,,,,,,,,,
1035243,1620405215869,0,1,30,36,33,32,12,-0.11,0.41,0.49,12,-10,-4,0.42,0,88,5211,8,22,51,0.858,39.3,418,4.87,12.4,17.4,1,31.0,2.8,6.7,0,0,1,1,1,391,-6656,-19126,385,45.846115,5.179278,39.82,215.5,9,3,1.7,0,0.0,-1,0.0,0.0,0.0,0,6.51,17.254
1035263,1620405215889,,,,,,,,-0.16,0.41,0.62,12,-10,-3,0.44,,88,5136,8,22,51,0.852,39.3,417,4.87,12.5,17.4,1,31.0,2.85,6.7,0,0,1,1,1,385,-6656,3,378,,,,,,,,,,,,,,,,
1035283,1620405215909,,,,,,,,-0.11,0.35,0.4,12,-9,-3,0.37,,88,5158,8,22,53,0.847,38.7,410,4.83,12.4,17.4,1,31.6,2.86,6.7,0,0,1,1,1,379,-6524,257,378,,,,,,,,,,,,,,,,
1035303,1620405215929,,,,,,,,-0.15,0.35,0.53,13,-11,-4,0.38,,88,5344,8,22,53,0.841,38.4,411,4.88,12.6,17.4,1,31.7,2.74,6.7,0,0,1,1,1,377,-6524,486,374,,,,,,,,,,,,,,,,
1035323,1620405215949,,,,,,,,-0.21,0.43,0.32,13,-6,-2,0.48,,88,5500,8,22,54,0.835,39.1,424,4.85,12.3,17.7,1,32.2,2.63,6.7,0,0,1,1,1,373,505,486,377,,,,,,,,,,,,,,,,
1035343,1620405215969,0,2,26,34,34,34,13,-0.17,0.4,0.13,13,-4,-1,0.43,0,88,5683,8,22,54,0.829,38.8,438,4.87,12.4,17.7,1,32.3,2.51,6.7,0,0,1,1,1,374,-31744,486,375,45.846108,5.179286,39.86,215.5,9,3,1.7,0,0.0,-1,0.0,,0.0,0,6.51,17.2557
1035363,1620405215989,,,,,,,,-0.14,0.31,-0.05,13,-4,-2,0.34,,88,5855,8,23,54,0.823,38.4,452,4.89,12.4,17.7,1,32.4,2.38,6.7,0,0,1,1,1,373,-19019,0,373,,,,,,,,,,,,,,,,
1035383,1620405216001,,,,,,,,-0.08,0.23,-0.21,13,-4,-2,0.24,,88,6058,8,23,54,0.818,38.1,475,4.92,12.7,17.7,1,32.7,2.3,6.7,0,0,1,1,1,374,-18948,0,372,,,,,,,,,,,,,,,,
1035403,1620405216021,,,,,,,,-0.04,0.2,-0.36,14,2,2,0.21,,88,6204,8,23,53,0.825,38.3,494,4.91,12.7,17.7,1,32.9,2.29,6.7,0,0,1,1,1,379,-19126,-6656,374,,,,,,,,,,,,,,,,
1035423,1620405216041,,,,,,,,-0.15,0.31,-0.16,14,6,3,0.34,,88,6289,8,23,52,0.832,38.4,503,4.91,12.6,17.7,1,33.1,2.3,6.7,0,0,1,1,1,383,8200,0,370,,,,,,,,,,,,,,,,
1035443,1620405216061,-1,2,27,30,35,32,14,-0.18,0.31,0.02,14,3,1,0.36,0,88,6403,8,23,51,0.838,37.3,511,4.81,12.4,18.0,1,33.0,2.3,6.7,0,0,1,1,1,382,-6656,486,367,45.8461,5.179295,39.87,215.5,9,3,1.7,0,0.0,-1,0.0,0.0,0.0,0,6.51,17.2574
1035463,1620405216081,,,,,,,,-0.16,0.18,-0.15,14,-1,1,0.24,,88,6494,8,23,50,0.844,37.9,513,4.86,12.5,18.0,1,33.0,2.31,6.7,0,0,1,1,1,381,8200,486,367,,,,,,,,,,,,,,,,
1035483,1620405216108,,,,,,,,-0.12,0.25,-0.23,14,8,4,0.28,,88,6623,8,23,48,0.851,38.3,521,4.93,12.4,18.0,1,32.8,2.31,6.7,0,0,1,1,1,379,-19126,-6656,369,,,,,,,,,,,,,,,,
1035503,1620405216128,,,,,,,,-0.11,0.23,-0.04,14,3,2,0.25,,88,6698,8,23,47,0.857,38.2,533,4.83,12.5,18.0,1,32.7,2.3,6.7,0,0,1,1,1,381,19125,486,365,,,,,,,,,,,,,,,,
1035523,1620405216148,,,,,,,,-0.08,0.18,-0.2,14,6,4,0.19,,88,6604,8,23,46,0.863,38.3,525,4.9,12.6,18.9,1,32.0,2.31,7.0,0,0,1,1,1,389,19125,-18948,370,,,,,,,,,,,,,,,,
1035543,1620405216168,0,3,28,34,33,31,15,-0.11,0.29,-0.02,14,9,6,0.31,0,88,6256,8,23,46,0.868,38.5,509,4.86,12.4,18.9,1,31.5,2.33,7.0,0,0,1,1,1,395,-6475,505,376,45.846092,5.179304,39.2,215.5,9,3,1.7,0,0.0,-1,0.0,,0.0,0,6.51,17.2591
1035563,1620405216188,,,,,,,,-0.16,0.39,0.15,14,14,7,0.42,,88,5963,8,23,46,0.864,39.1,489,4.82,12.4,18.9,1,30.9,2.37,7.0,0,0,1,1,1,394,505,-1562,372,,,,,,,,,,,,,,,,
1035583,1620405216206,,,,,,,,-0.18,0.37,-0.03,14,15,8,0.41,,88,5711,8,23,47,0.859,38.4,468,4.83,12.4,18.9,1,30.7,2.5,7.0,0,0,1,1,1,391,-19019,-19019,375,,,,,,,,,,,,,,,,
1035603,1620405216226,,,,,,,,-0.17,0.33,0.14,14,10,6,0.37,,88,5477,8,23,48,0.854,38.8,449,4.9,12.4,18.9,1,30.5,2.62,7.0,0,0,1,1,1,389,-31744,770,373,,,,,,,,,,,,,,,,
1035623,1620405216246,,,,,,,,-0.18,0.41,-0.04,15,12,6,0.44,,88,5332,8,23,49,0.85,38.1,441,4.82,12.2,17.6,1,30.6,2.7,6.6,0,0,1,1,1,386,-18948,742,374,,,,,,,,,,,,,,,,
1035643,1620405216266,0,3,29,34,34,32,15,-0.17,0.4,0.13,15,10,5,0.44,0,88,5225,8,23,50,0.843,39.2,422,4.85,12.4,17.6,1,30.7,2.77,6.6,0,0,1,1,1,387,240,-6656,373,45.846085,5.179312,39.05,215.4,9,3,1.7,0,0.0,-1,0.0,0.0,0.0,0,6.52,17.2607
1035663,1620405216286,,,,,,,,-0.11,0.39,-0.05,15,11,6,0.4,,88,5082,8,23,51,0.835,39.0,406,4.83,12.3,17.6,1,30.9,2.86,6.6,0,0,1,1,1,388,-1562,1,374,,,,,,,,,,,,,,,,
1035683,1620405216310,,,,,,,,-0.22,0.39,0.12,15,12,5,0.44,,88,4981,8,23,52,0.827,38.8,403,4.91,12.7,17.6,1,30.8,2.9,6.6,0,0,1,1,1,382,-31744,257,374,,,,,,,,,,,,,,,,
1035703,1620405216330,,,,,,,,-0.21,0.38,0.27,15,7,4,0.44,,88,4885,8,23,53,0.819,38.6,395,4.86,12.5,17.6,1,30.0,2.85,6.6,0,0,1,1,1,387,-3866,-6656,376,,,,,,,,,,,,,,,,
1035723,1620405216350,,,,,,,,-0.15,0.36,0.08,16,6,4,0.39,,88,4802,8,23,53,0.812,38.5,379,4.9,12.5,17.6,1,29.0,2.79,6.6,0,0,1,1,1,386,-6475,-6656,375,,,,,,,,,,,,,,,,
1035743,1620405216370,1,1,28,35,33,32,15,-0.06,0.36,-0.1,16,5,4,0.37,0,88,4807,7,23,54,0.804,38.8,382,4.83,12.3,16.5,1,29.3,2.82,6.2,0,0,1,1,1,387,240,742,368,45.846077,5.179322,39.5,215.5,9,3,1.7,0,0.0,-1,0.0,,0.0,0,6.52,17.2624
1035763,1620405216390,,,,,,,,-0.05,0.35,-0.25,16,7,4,0.35,,88,4744,7,23,54,0.797,38.4,378,4.88,12.5,16.5,1,28.6,2.77,6.2,0,0,1,1,1,385,-19019,742,370,,,,,,,,,,,,,,,,
1035783,1620405216408,,,,,,,,-0.12,0.37,-0.21,16,9,4,0.39,,88,4706,7,23,54,0.789,39.2,374,4.87,12.4,16.5,1,28.1,2.74,6.2,0,0,1,1,1,385,1,742,373,,,,,,,,,,,,,,,,
1035803,1620405216428,,,,,,,,-0.2,0.36,-0.03,16,10,4,0.41,,88,4705,7,23,55,0.791,38.2,371,4.88,12.5,16.5,1,28.3,2.74,6.2,0,0,1,1,1,386,19125,742,368,,,,,,,,,,,,,,,,
1035823,1620405216448,,,,,,,,-0.24,0.38,0.14,16,8,3,0.45,,88,4654,7,23,55,0.796,38.5,364,4.9,12.5,15.5,1,27.6,2.71,5.8,0,0,1,1,1,383,-6475,742,372,,,,,,,,,,,,,,,,
1035843,1620405216468,1,2,28,34,32,32,14,-0.27,0.38,0.29,16,5,2,0.46,0,88,4587,7,23,55,0.8,38.3,365,4.92,12.5,15.5,1,26.8,2.66,5.8,0,0,1,1,1,384,19125,486,375,45.846069,5.179331,39.05,215.4,9,3,1.7,0,0.0,-1,0.0,0.0,0.0,0,6.52,17.264
1035863,1620405216488,,,,,,,,-0.3,0.38,0.44,16,3,1,0.48,,88,4554,7,23,55,0.806,38.0,362,4.88,12.5,15.5,1,26.4,2.63,5.8,0,0,1,1,1,383,-19019,257,368,,,,,,,,,,,,,,,,
1035883,1620405216510,,,,,,,,-0.3,0.37,0.52,16,-0,-0,0.47,,88,4547,7,23,55,0.819,38.6,356,4.86,12.5,15.5,1,26.3,2.63,5.8,0,0,1,1,1,382,-3866,486,370,,,,,,,,,,,,,,,,
1035903,1620405216530,,,,,,,,-0.28,0.34,0.54,16,-3,-0,0.44,,88,4604,7,23,56,0.834,38.7,357,4.87,12.4,15.5,1,27.3,2.67,5.8,0,0,1,1,1,382,240,-6656,366,,,,,,,,,,,,,,,,
1035923,1620405216550,,,,,,,,-0.2,0.31,0.32,16,-6,-0,0.37,,88,4588,7,23,56,0.849,38.6,356,4.9,12.5,15.3,1,27.1,2.68,5.7,0,0,1,1,1,380,-3866,-6656,371,,,,,,,,,,,,,,,,
1035943,1620405216570,-1,2,27,34,33,33,12,-0.12,0.28,0.13,16,-7,-1,0.31,0,88,4617,7,23,56,0.865,38.6,358,4.9,12.4,15.3,1,27.5,1.52,5.7,0,0,1,1,1,381,-3866,486,368,45.846066,5.179341,39.46,215.4,9,3,1.7,0,0.0,-1,0.0,,0.0,0,6.52,17.2657
1035963,1620405216590,,,,,,,,-0.02,0.28,-0.05,16,-6,-1,0.28,,88,4683,7,23,55,0.873,38.2,365,4.87,12.4,15.3,1,28.0,2.73,5.7,0,0,1,1,1,381,19125,-6656,369,,,,,,,,,,,,,,,,
1035983,1620405216608,,,,,,,,0.02,0.28,-0.21,16,-4,-0,0.28,,88,4650,7,23,56,0.876,38.0,361,4.92,12.3,15.3,1,27.9,2.7,5.7,0,0,1,1,1,382,-19019,-6656,371,,,,,,,,,,,,,,,,
1036003,1620405216628,,,,,,,,0.03,0.26,-0.36,16,-2,0,0.26,,88,4642,7,23,56,0.88,38.0,367,4.82,12.4,15.3,1,27.8,2.7,5.7,0,0,1,1,1,380,-992,486,374,,,,,,,,,,,,,,,,
1036023,1620405216648,,,,,,,,0.01,0.28,-0.48,16,1,0,0.28,,88,4658,7,23,56,0.884,37.3,360,4.86,12.5,15.5,1,28.0,2.71,5.8,0,0,1,1,1,381,-6656,-6656,370,,,,,,,,,,,,,,,,
1036043,1620405216668,1,2,28,34,33,32,13,-0.05,0.3,-0.37,15,3,1,0.3,0,88,4597,7,23,56,0.885,37.9,362,4.84,12.5,15.5,1,27.2,2.67,5.8,0,0,1,1,1,379,8200,-6656,366,45.846058,5.179351,39.15,215.4,9,3,1.7,0,0.0,-1,0.0,0.0,0.0,0,6.52,17.2674
1036063,1620405216688,,,,,,,,-0.13,0.3,-0.28,15,4,1,0.33,,88,4552,7,23,56,0.882,38.1,356,4.91,12.5,15.5,1,26.7,2.64,5.8,0,0,1,1,1,380,-18948,-6656,367,,,,,,,,,,,,,,,,
1036083,1620405216710,,,,,,,,-0.2,0.34,-0.09,15,3,1,0.39,,88,4596,7,23,56,0.879,37.9,353,4.92,12.5,15.5,1,27.2,2.67,5.8,0,0,1,1,1,380,8200,486,368,,,,,,,,,,,,,,,,
1036103,1620405216730,,,,,,,,-0.25,0.35,0.09,15,2,-0,0.43,,88,4591,7,23,56,0.876,37.9,364,4.83,12.5,15.5,1,27.1,2.67,5.8,0,0,1,1,1,378,8200,0,364,,,,,,,,,,,,,,,,
1036123,1620405216750,,,,,,,,-0.3,0.36,0.25,15,-1,-0,0.47,,88,4584,7,23,56,0.869,37.8,357,4.87,12.5,15.2,1,27.1,2.67,5.6,0,0,1,1,1,379,8200,-6656,367,,,,,,,,,,,,,,,,
1036143,1620405216770,0,4,28,34,33,32,11,-0.27,0.35,0.39,15,-4,-1,0.44,0,88,4610,7,23,57,0.855,37.9,358,4.86,12.4,15.2,1,27.7,2.68,5.6,0,0,1,1,1,378,8200,0,371,45.84605,5.179361,38.94,215.4,9,3,1.7,0,0.0,-1,0.0,,0.0,0,6.52,17.2691
1036163,1620405216790,,,,,,,,-0.23,0.33,0.25,15,-6,-2,0.4,,88,4601,7,23,56,0.841,37.4,357,4.84,12.4,15.2,1,27.3,2.68,5.6,0,0,1,1,1,378,742,0,364,,,,,,,,,,,,,,,,
1036183,1620405216810,,,,,,,,-0.17,0.31,0.15,14,-8,-2,0.36,,88,4657,7,23,56,0.828,37.7,359,4.86,12.3,15.2,1,28.0,2.7,5.6,0,0,1,1,1,377,-6656,230,364,,,,,,,,,,,,,,,,
1036203,1620405216830,,,,,,,,-0.05,0.25,-0.03,14,-9,-2,0.26,,88,4628,7,23,57,0.816,37.2,363,4.88,12.4,15.2,1,27.9,1.54,5.6,0,0,1,1,1,375,1,-6405,362,,,,,,,,,,,,,,,,
1036223,1620405216850,,,,,,,,0.02,0.26,-0.2,14,-6,-1,0.26,,88,4646,7,23,57,0.814,38.1,362,4.87,12.4,15.2,1,28.1,2.7,5.6,0,0,1,1,1,376,-18948,-1268,364,,,,,,,,,,,,,,,,
1036243,1620405216870,3,1,28,30,34,32,10,0.05,0.27,-0.35,14,-3,-1,0.27,0,88,4669,7,23,56,0.812,37.4,364,4.86,12.4,15.9,1,28.1,2.72,5.8,0,0,1,1,1,377,742,-6405,364,45.846046,5.179372,38.82,215.3,9,3,1.7,0,0.0,-1,0.0,0.0,0.0,0,6.52,17.2707
1036263,1620405216890,,,,,,,,0.03,0.27,-0.48,14,1,1,0.27,,88,4625,7,23,57,0.81,37.6,371,4.87,12.5,15.9,1,27.9,2.7,5.8,0,0,1,1,1,375,3,-1268,365,,,,,,,,,,,,,,,,
1036283,1620405216910,,,,,,,,-0.0,0.25,-0.56,14,3,1,0.25,,88,4625,7,23,57,0.807,37.6,360,4.87,12.5,15.9,1,27.9,2.7,5.8,0,0,1,1,1,373,3,-1268,365,,,,,,,,,,,,,,,,
1036303,1620405216930,,,,,,,,-0.06,0.27,-0.48,13,4,1,0.27,,88,4635,7,23,57,0.807,37.1,364,4.88,12.5,15.9,1,28.0,2.7,5.8,0,0,1,1,1,373,1,-6405,360,,,,,,,,,,,,,,,,
1036323,1620405216950,,,,,,,,-0.16,0.28,-0.28,13,4,1,0.32,,88,4614,7,23,57,0.807,36.5,358,4.86,12.5,15.9,1,27.7,2.69,5.8,0,0,1,1,1,373,-6656,3082,362,,,,,,,,,,,,,,,,
1036343,1620405216970,5,1,28,32,33,33,11,-0.24,0.3,-0.09,13,2,0,0.38,0,88,4665,7,23,57,0.806,37.4,360,4.9,12.5,15.7,1,28.4,2.71,5.7,0,0,1,1,1,370,742,2790,361,45.846039,5.179382,38.55,215.3,9,3,1.7,0,0.0,-1,0.0,,0.0,0,6.52,17.2724
1036363,1620405216990,,,,,,,,-0.27,0.33,0.09,13,-1,-1,0.42,,88,4593,7,23,57,0.805,37.2,362,4.93,12.5,15.7,1,27.5,2.67,5.7,0,0,1,1,1,369,1,-6458,363,,,,,,,,,,,,,,,,
1036383,1620405217002,,,,,,,,-0.31,0.29,0.25,13,-4,-2,0.43,,88,4643,7,23,57,0.805,37.0,358,4.87,12.4,15.7,1,28.1,1.54,5.7,0,0,1,1,1,370,0,-14707,361,,,,,,,,,,,,,,,,
1036403,1620405217022,,,,,,,,-0.24,0.24,0.16,12,-7,-2,0.33,,88,4651,7,23,57,0.805,36.6,366,4.86,12.3,15.7,1,28.2,2.72,5.7,0,0,1,1,1,368,230,-14707,362,,,,,,,,,,,,,,,,
1036423,1620405217042,,,,,,,,-0.18,0.23,-0.02,12,-6,-2,0.29,,88,4643,7,23,57,0.805,36.6,360,4.86,12.4,16.2,1,28.1,2.7,5.8,0,0,1,1,1,370,230,-29978,358,,,,,,,,,,,,,,,,
1036443,1620405217062,5,3,28,28,34,32,9,-0.11,0.21,-0.18,12,-5,-1,0.24,0,88,4701,7,23,57,0.804,36.7,362,4.9,12.4,16.2,1,28.8,2.74,5.8,0,0,1,1,1,368,0,-14707,358,45.846031,5.179393,38.52,215.3,9,3,1.7,0,0.0,-1,0.0,0.0,0.0,0,6.52,17.274
1036463,1620405217082,,,,,,,,-0.05,0.21,-0.33,12,-3,-1,0.22,,88,4588,7,23,57,0.803,36.2,364,4.83,12.5,16.2,1,27.4,2.67,5.8,0,0,1,1,1,366,2790,-29978,357,,,,,,,,,,,,,,,,
1036483,1620405217109,,,,,,,,-0.01,0.21,-0.47,12,-0,0,0.21,,88,4586,7,23,57,0.801,36.5,360,4.86,12.4,16.2,1,27.4,2.67,5.8,0,0,1,1,1,364,-6405,2060,356,,,,,,,,,,,,,,,,
1036503,1620405217129,,,,,,,,0.0,0.23,-0.6,11,2,1,0.23,,88,4592,7,23,57,0.8,36.0,358,4.88,12.5,16.2,1,27.5,2.67,5.8,0,0,1,1,1,362,-14707,4104,352,,,,,,,,,,,,,,,,
1036523,1620405217149,,,,,,,,-0.04,0.24,-0.72,11,4,2,0.24,,88,4618,7,23,57,0.799,36.5,361,4.87,12.5,16.0,1,27.8,2.69,5.7,0,0,1,1,1,362,-6405,4104,356,,,,,,,,,,,,,,,,
1036543,1620405217169,9,2,28,30,33,32,7,-0.12,0.25,-0.49,11,4,2,0.27,0,88,4646,7,23,57,0.798,35.8,356,4.9,12.5,16.0,1,28.1,2.7,5.7,0,0,1,1,1,361,-29978,2060,353,45.846031,5.179404,37.61,215.2,9,3,1.7,0,0.0,-1,0.0,,0.0,0,6.53,17.2757
1036563,1620405217189,,,,,,,,-0.21,0.26,-0.28,11,2,1,0.33,,88,4691,7,23,58,0.797,35.7,364,4.87,12.5,16.0,1,29.0,2.73,5.7,0,0,1,1,1,358,-6640,3183,351,,,,,,,,,,,,,,,,
1036583,1620405217209,,,,,,,,-0.22,0.24,-0.09,10,-1,0,0.33,,88,4705,7,23,57,0.797,35.5,365,4.86,12.4,16.0,1,28.9,2.74,5.7,0,0,1,1,1,356,2060,-30454,350,,,,,,,,,,,,,,,,
1036603,1620405217229,,,,,,,,-0.19,0.21,-0.15,10,-3,-0,0.28,,88,4676,7,23,57,0.797,35.5,364,4.86,12.4,16.0,1,28.5,1.56,5.7,0,0,1,1,1,353,-6644,3183,348,,,,,,,,,,,,,,,,
1036623,1620405217249,,,,,,,,-0.15,0.2,-0.3,10,-4,-0,0.25,,88,4653,7,23,58,0.797,35.1,370,4.85,12.6,16.6,1,28.5,2.72,5.8,0,0,1,1,1,354,28553,8841,348,,,,,,,,,,,,,,,,
1036643,1620405217269,8,4,28,31,33,33,6,-0.1,0.14,-0.45,9,-4,0,0.17,0,88,4606,7,23,57,0.797,35.2,362,4.87,12.3,16.6,1,27.6,2.69,5.8,0,0,1,1,1,351,3183,6870,344,45.846024,5.179414,37.32,215.2,9,3,1.7,0,0.0,-1,0.0,0.0,0.0,0,6.53,17.2774
1036663,1620405217289,,,,,,,,-0.05,0.1,-0.57,9,-1,2,0.12,,88,4626,7,23,57,0.797,34.6,366,4.81,12.5,16.6,1,27.9,2.7,5.8,0,0,1,1,1,349,-30438,6870,342,,,,,,,,,,,,,,,,
1036683,1620405217309,,,,,,,,-0.03,0.11,-0.69,9,2,2,0.11,,88,4647,7,23,57,0.797,35.1,364,4.83,12.4,16.6,1,28.1,2.7,5.8,0,0,1,1,1,350,28553,-10554,344,,,,,,,,,,,,,,,,
1036703,1620405217329,,,,,,,,-0.04,0.11,-0.8,8,5,3,0.12,,88,4642,7,23,58,0.796,34.3,362,4.82,12.5,16.6,1,28.4,2.7,5.8,0,0,1,1,1,347,-14714,6870,342,,,,,,,,,,,,,,,,
1036723,1620405217349,,,,,,,,-0.09,0.1,-0.85,8,6,3,0.13,,88,4668,7,23,57,0.794,34.3,362,4.82,12.5,16.6,1,28.4,2.72,5.8,0,0,1,1,1,344,-14714,-31206,340,,,,,,,,,,,,,,,,
1036743,1620405217369,9,3,28,30,34,34,5,-0.16,0.13,-0.7,8,7,3,0.21,0,88,4638,7,23,58,0.792,34.2,363,4.85,12.5,17.0,1,28.3,2.7,5.8,0,0,1,1,1,344,-31206,-31222,337,45.846016,5.179425,36.82,215.2,9,3,1.7,0,0.0,-1,0.0,,0.0,0,6.53,17.2791
1036763,1620405217389,,,,,,,,-0.23,0.14,-0.48,7,5,2,0.27,,88,4600,7,23,58,0.791,34.2,365,4.88,12.5,17.0,1,27.8,2.68,5.8,0,0,1,1,1,342,-31206,3327,337,,,,,,,,,,,,,,,,
1036783,1620405217409,,,,,,,,-0.29,0.15,-0.28,7,3,2,0.33,,88,4644,7,23,58,0.791,33.7,363,4.91,12.5,17.0,1,28.4,2.71,5.8,0,0,1,1,1,341,2560,13,335,,,,,,,,,,,,,,,,
1036803,1620405217429,,,,,,,,-0.31,0.14,-0.09,7,1,2,0.34,,88,4606,7,23,58,0.791,33.7,358,4.86,12.6,17.0,1,27.9,2.69,5.8,0,0,1,1,1,339,2560,13,337,,,,,,,,,,,,,,,,
1036823,1620405217449,,,,,,,,-0.3,0.08,0.03,6,-3,1,0.31,,88,4661,7,23,57,0.792,33.4,361,4.87,12.5,17.3,1,28.3,2.71,5.8,0,0,1,1,1,338,-6528,13,334,,,,,,,,,,,,,,,,
1036843,1620405217469,8,2,28,28,34,34,0,-0.24,0.04,-0.09,6,-4,1,0.24,0,88,4604,7,23,58,0.793,33.9,362,4.9,12.4,17.3,1,27.9,2.7,5.8,0,0,1,1,1,336,-31222,-32559,335,45.846012,5.179436,36.38,215.2,9,3,1.7,0,0.0,-1,0.0,0.0,0.0,0,6.53,17.2807
1036863,1620405217489,,,,,,,,-0.19,0.02,-0.25,5,-4,-0,0.19,,89,4553,7,23,57,0.794,33.5,358,4.85,12.4,17.3,1,27.0,2.66,5.8,0,0,1,1,1,334,3346,-32559,332,,,,,,,,,,,,,,,,
1036883,1620405217509,,,,,,,,-0.15,0.02,-0.39,5,-2,-0,0.15,,88,4673,7,23,58,0.794,33.0,361,4.91,12.3,17.3,1,28.8,2.72,5.8,0,0,1,1,1,332,175,-32559,328,,,,,,,,,,,,,,,,
1036903,1620405217529,,,,,,,,-0.11,-0.01,-0.53,5,-0,1,0.11,,89,4614,7,23,57,0.794,32.8,360,4.89,12.4,17.3,1,27.7,2.69,5.8,0,0,1,1,1,331,170,-20736,325,,,,,,,,,,,,,,,,
1036923,1620405217549,,,,,,,,-0.07,-0.0,-0.65,4,2,2,0.07,,89,4647,7,23,57,0.795,32.9,366,4.82,12.5,17.6,1,28.1,2.7,5.8,0,0,1,1,1,329,-22016,170,331,,,,,,,,,,,,,,,,
1036943,1620405217569,9,2,29,29,34,35,-1,-0.07,0.01,-0.76,3,4,2,0.07,0,89,4678,7,23,58,0.796,33.1,361,4.87,12.5,17.6,1,28.8,2.72,5.8,0,0,1,1,1,325,-22016,175,331,45.846008,5.179447,35.39,215.1,9,3,1.7,0,0.0,-1,0.0,,0.0,0,6.53,17.2824
1036963,1620405217589,,,,,,,,-0.12,-0.0,-0.7,2,4,3,0.12,,89,4613,7,23,58,0.797,32.4,360,4.9,12.5,17.6,1,28.0,2.69,5.8,0,0,1,1,1,326,-27136,-22016,324,,,,,,,,,,,,,,,,
1036983,1620405217609,,,,,,,,-0.15,0.01,-0.55,2,5,3,0.15,,89,4633,7,23,58,0.799,32.4,358,4.91,12.5,17.6,1,28.2,2.7,5.8,0,0,1,1,1,322,145,165,323,,,,,,,,,,,,,,,,
1037003,1620405217629,,,,,,,,-0.26,-0.01,-0.34,1,4,2,0.26,,89,4600,7,23,58,0.801,32.3,358,4.92,12.6,17.6,1,27.8,1.53,5.8,0,0,1,1,1,320,-25856,160,323,,,,,,,,,,,,,,,,
1037023,1620405217649,,,,,,,,-0.32,-0.05,-0.14,1,1,1,0.32,,89,4628,7,23,58,0.802,31.9,364,4.88,12.5,17.8,1,28.2,2.7,5.7,0,0,1,1,1,320,145,160,319,,,,,,,,,,,,,,,,
1037043,1620405217669,7,4,28,28,34,36,-4,-0.31,-0.03,0.01,0,-1,0,0.31,0,89,4657,7,23,58,0.801,32.1,364,4.85,12.3,17.8,1,28.6,2.72,5.7,0,0,1,1,1,317,135,155,321,45.846004,5.179457,34.84,215.1,9,3,1.7,0,0.0,-1,0.0,0.0,0.0,0,6.53,17.284
1037063,1620405217689,,,,,,,,-0.31,-0.06,0.06,-0,-3,-1,0.31,,89,4617,7,23,58,0.801,32.3,362,4.85,12.5,17.8,1,28.2,2.69,5.7,0,0,1,1,1,316,-29696,150,323,,,,,,,,,,,,,,,,
1037083,1620405217709,,,,,,,,-0.22,-0.09,-0.11,-1,-5,-0,0.24,,89,4609,7,23,58,0.8,31.8,362,4.92,12.4,17.8,1,27.9,2.69,5.7,0,0,1,1,1,318,-29696,140,318,,,,,,,,,,,,,,,,
1037103,1620405217729,,,,,,,,-0.17,-0.1,-0.27,-1,-4,-0,0.2,,89,4537,7,23,57,0.799,31.9,358,4.9,12.3,17.8,1,26.8,2.65,5.7,0,0,1,1,1,313,-32256,155,317,,,,,,,,,,,,,,,,
1037123,1620405217749,,,,,,,,-0.13,-0.09,-0.41,-2,-2,0,0.16,,89,4611,7,23,57,0.798,31.3,361,4.88,12.5,18.2,1,27.7,2.69,5.7,0,0,1,1,1,314,125,-29696,313,,,,,,,,,,,,,,,,
1037143,1620405217769,9,2,28,28,33,37,-5,-0.08,-0.15,-0.54,-2,-2,-0,0.17,0,89,4586,7,23,58,0.797,31.2,360,4.89,12.3,18.2,1,27.6,2.68,5.7,0,0,1,1,1,304,125,140,317,45.846001,5.179467,33.84,215.1,9,3,1.7,0,0.0,-1,0.0,,0.0,0,6.53,17.2857
1037163,1620405217789,,,,,,,,-0.09,-0.12,-0.63,-3,1,0,0.15,,89,4627,7,23,57,0.797,31.2,356,4.81,12.7,18.2,1,27.9,2.7,5.7,0,0,1,1,1,311,32000,-30976,312,,,,,,,,,,,,,,,,
1037183,1620405217809,,,,,,,,-0.16,-0.1,-0.56,-3,4,1,0.19,,89,4665,7,23,57,0.796,30.8,369,4.85,12.6,18.2,1,28.4,2.71,5.7,0,0,1,1,1,304,30720,135,308,,,,,,,,,,,,,,,,
1037203,1620405217829,,,,,,,,-0.21,-0.13,-0.42,-3,5,1,0.25,,89,4645,7,23,58,0.795,30.7,361,4.87,12.5,18.2,1,28.4,2.7,5.7,0,0,1,1,1,305,28160,-32256,307,,,,,,,,,,,,,,,,
1037223,1620405217849,,,,,,,,-0.27,-0.11,-0.22,-4,4,0,0.29,,89,4676,7,23,58,0.793,30.8,361,4.9,12.5,19.1,1,28.8,2.73,5.9,0,0,1,1,1,305,26880,32000,308,,,,,,,,,,,,,,,,
1037243,1620405217869,9,3,28,28,33,36,-5,-0.31,-0.14,-0.03,-4,3,0,0.34,0,89,4652,7,23,58,0.792,30.9,361,4.9,12.4,19.1,1,28.5,2.71,5.9,0,0,1,1,1,300,26880,120,306,45.845993,5.179476,33.21,215.0,9,3,1.7,0,0.0,-1,0.0,0.0,0.0,0,6.53,17.2874
