"Interval"|"ms"|0|0|1,"Utc"|"ms"|0|0|1,"Brake_F"|"Bar"|0|2000|10,"Brake_R"|"Bar"|0|2000|10,"Height_RF"|"mm"|0|255|10,"Height_LF"|"mm"|0|255|10,"Height_LR"|"mm"|0|80|10,"Height_RR"|"mm"|0|255|10,"Steering"|"deg"|-100|100|10,"AccelX"|"G"|-3.0|3.0|50,"AccelY"|"G"|-3.0|3.0|50,"AccelZ"|"G"|-3.0|3.0|50,"Yaw"|"Deg/Sec"|-120|120|50,"Pitch"|"Deg/Sec"|-120|120|50,"Roll"|"Deg/Sec"|-120|120|50,"Gsum"|"G"|0.0|3.0|50,"Log_Button"|""|0.0|10.0|10,"WaterTemp"|"C"|0|150|50,"RPM"|"tr/min"|0|14000|50,"TPS"|"%"|0|100|50,"AirTemp"|"C"|0|150|50,"MAP"|"KPa"|0|100|50,"Lambda"|""|0.5|1.5|50,"SpeedDTA"|"kph"|0.0|250.0|50,"OilPress"|"KPa"|0|1500|50,"FuelPressur"|"Bar"|0.0|10.0|50,"Batterie"|"V"|0.0|20.0|50,"ConsoKm"|"L/100km"|0.0|200.0|50,"Gear"|""|0|6|50,"AdvIgnition"|"Deg"|-20.0|70.0|50,"Injection"|"ms"|0.0|10.0|50,"ConsoHr"|"L/Hr"|0.0|10000.0|50,"LC_But_Pres"|""|0|1|50,"LC_Active"|""|0|1|50,"TractionOn"|""|0|1|50,"TractionWet"|""|0|1|50,"FanOn"|""|0|1|50,"RD_Speed"|"km/h"|-30|250|50,"RUD_Speed"|"km/h"|-30|250|50,"LD_Speed"|"km/h"|-30|250|50,"LUD_Speed"|"km/h"|-30|250|50,"Latitude"|"Degrees"|-180.0|180.0|10,"Longitude"|"Degrees"|-180.0|180.0|10,"Speed"|"kph"|0.0|150.0|10,"Altitude"|"m"|0.0|4000.0|10,"GPSSats"|""|0|20|10,"GPSQual"|""|0|5|10,"GPSDOP"|""|0.0|20.0|10,"LapCount"|""|0|0|10,"LapTime"|"Min"|0.0|0.0|10,"Sector"|""|0|0|10,"SectorTime"|"Min"|0.0|0.0|10,"PredTime"|"Min"|0.0|0.0|5,"ElapsedTime"|"Min"|0.0|0.0|10,"CurrentLap"|""|0|0|10,"Distance"|"km"|0.0|0.0|10,"SessionTime"|"Min"|0.0|0.0|10
38063,0,,,,,,,,-0.03,0.05,-0.43,-1,0,-1,0.06,,71,7982,12,25,37,0.5,0.0,652,4.86,12.8,0.0,1,30.4,1.06,8.1,0,0,0,1,0,0,250,250,0,,,,,,,,,,,,,,,,
38083,0,,,,,,,,-0.07,0.0,-0.54,-1,-0,-2,0.07,,72,7971,12,25,37,0.5,0.0,650,4.95,12.8,0.0,1,30.4,2.21,8.1,0,0,0,1,0,0,250,250,0,,,,,,,,,,,,,,,,
38103,0,,,,,,,,-0.08,-0.0,-0.66,-1,2,-1,0.08,,72,7985,12,25,37,0.5,0.0,658,4.84,12.7,0.0,1,30.4,1.06,8.1,0,0,0,1,0,0,250,250,0,,,,,,,,,,,,,,,,
38123,0,,,,,,,,-0.07,0.0,-0.44,-1,1,-1,0.07,,72,7995,12,25,37,0.5,0.0,653,4.89,12.9,0.0,1,30.4,1.06,8.1,0,0,0,1,0,0,250,250,0,,,,,,,,,,,,,,,,
38143,0,0,2,34,34,32,33,5,-0.1,-0.06,-0.48,-1,-0,-2,0.12,1,71,8002,12,25,37,0.5,0.0,656,4.92,12.9,0.0,1,30.4,1.07,8.1,0,0,0,1,0,0,250,250,0,0.0,0.0,0.0,0.0,0,0,0.0,0,0.0,-1,0.0,,0.0,0,0.0,0.6357
38163,0,,,,,,,,-0.1,-0.06,-0.61,-1,2,-1,0.12,,72,8033,12,25,37,0.5,0.0,660,4.94,12.7,0.0,1,30.4,2.24,8.3,0,0,0,1,0,0,250,250,0,,,,,,,,,,,,,,,,
38183,0,,,,,,,,-0.09,-0.04,-0.39,-1,1,-2,0.1,,72,8061,12,25,37,0.5,0.0,658,4.9,12.9,0.0,1,30.5,1.12,8.3,0,0,0,1,0,0,250,250,0,,,,,,,,,,,,,,,,
38203,0,,,,,,,,-0.15,-0.1,-0.53,-1,1,-2,0.18,,72,8092,12,25,37,0.5,0.0,663,4.99,12.8,0.0,1,30.5,2.3,8.3,0,0,0,1,0,0,250,250,0,,,,,,,,,,,,,,,,
38223,0,,,,,,,,-0.15,-0.07,-0.65,-1,3,-1,0.16,,72,8134,12,25,37,0.5,0.0,672,4.89,12.7,0.0,1,30.6,2.34,8.3,0,0,0,1,0,0,250,250,0,,,,,,,,,,,,,,,,
38243,0,-1,2,34,34,32,33,4,-0.14,-0.06,-0.43,-1,1,-2,0.15,1,72,8159,12,25,36,0.5,0.0,655,4.87,12.8,0.0,1,30.4,1.16,8.3,0,0,0,1,0,0,250,250,0,0.0,0.0,0.0,0.0,0,0,0.0,0,0.0,-1,0.0,0.0,0.0,0,0.0,0.6374
38263,0,,,,,,,,-0.13,-0.03,-0.56,-1,2,0,0.13,,72,8198,12,25,36,0.5,0.0,661,4.91,12.8,0.0,1,30.4,2.35,9.0,0,0,0,1,0,0,250,250,0,,,,,,,,,,,,,,,,
38283,0,,,,,,,,-0.15,-0.03,-0.35,-0,0,-2,0.15,,72,8220,12,25,36,0.5,0.0,665,5.03,12.8,0.0,1,30.5,1.22,9.0,0,0,0,1,0,0,250,250,0,,,,,,,,,,,,,,,,
38303,0,,,,,,,,-0.13,-0.02,-0.48,-0,2,-1,0.13,,72,8249,12,25,36,0.5,0.0,664,4.96,12.7,0.0,1,30.5,2.39,9.0,0,0,0,1,0,0,250,250,0,,,,,,,,,,,,,,,,
38323,0,,,,,,,,-0.11,-0.03,-0.28,-0,-1,-2,0.12,,72,8278,12,25,36,0.5,0.0,653,4.9,12.8,0.0,1,30.6,1.27,9.0,0,0,0,1,0,0,250,250,0,,,,,,,,,,,,,,,,
38343,0,0,1,34,34,32,33,4,-0.09,-0.02,-0.42,-0,-0,-0,0.09,0,72,8325,12,25,36,0.5,0.0,656,4.92,12.8,0.0,1,30.7,2.47,9.0,0,0,0,1,0,0,250,250,0,0.0,0.0,0.0,0.0,0,0,0.0,0,0.0,-1,0.0,,0.0,0,0.0,0.639
38363,0,,,,,,,,-0.09,0.01,-0.35,-0,-1,-2,0.1,,72,8351,12,25,35,0.5,0.0,662,4.87,12.8,0.0,1,30.5,1.29,9.4,0,0,0,1,0,0,250,250,0,,,,,,,,,,,,,,,,
38383,0,,,,,,,,-0.04,0.02,-0.49,-0,2,-1,0.04,,72,8396,12,25,35,0.5,0.0,666,4.95,12.7,0.0,1,30.5,1.34,9.4,0,0,0,1,0,0,250,250,0,,,,,,,,,,,,,,,,
38403,0,,,,,,,,-0.05,0.01,-0.61,-0,1,-0,0.05,,72,8419,12,25,35,0.5,0.0,666,4.96,12.7,0.0,1,30.6,2.52,9.4,0,0,0,1,0,0,250,250,0,,,,,,,,,,,,,,,,
38423,0,,,,,,,,-0.07,0.03,-0.39,-0,-1,-1,0.08,,72,8442,12,25,35,0.5,0.0,653,4.91,12.8,0.0,1,30.6,1.38,9.4,0,0,0,1,0,0,250,250,0,,,,,,,,,,,,,,,,
38443,0,0,0,34,34,32,33,4,-0.07,0.06,-0.53,-0,0,-0,0.09,0,72,8442,12,25,35,0.5,0.0,662,4.93,12.8,0.0,1,30.6,2.53,9.4,0,0,0,1,0,0,250,250,0,0.0,0.0,0.0,0.0,0,0,0.0,0,0.0,-1,0.0,0.0,0.0,0,0.0,0.6407
38463,0,,,,,,,,-0.08,0.03,-0.65,-0,0,-1,0.08,,72,8468,12,25,35,0.5,0.0,670,4.95,12.8,0.0,1,30.7,1.41,9.7,0,0,0,1,0,0,250,250,0,,,,,,,,,,,,,,,,
38483,0,,,,,,,,-0.06,0.04,-0.65,-0,1,-2,0.07,,72,8472,12,25,34,0.5,0.0,655,4.96,12.8,0.0,1,30.4,1.37,9.7,0,0,0,1,0,0,250,250,0,,,,,,,,,,,,,,,,
38503,0,,,,,,,,-0.05,0.05,-0.74,-0,1,-1,0.07,,72,8461,12,25,34,0.5,0.0,671,4.95,12.7,0.0,1,30.4,2.51,9.7,0,0,0,1,0,0,250,250,0,,,,,,,,,,,,,,,,
38523,0,,,,,,,,-0.07,0.02,-0.51,-0,-1,-2,0.07,,72,8472,12,25,34,0.5,0.0,662,4.92,12.8,0.0,1,30.4,1.37,9.7,0,0,0,1,0,0,250,250,0,,,,,,,,,,,,,,,,
38543,0,1,0,34,34,32,33,4,-0.07,0.03,-0.54,-0,-2,-3,0.07,0,72,8468,12,25,34,0.5,0.0,660,4.92,12.8,0.0,1,30.4,2.51,9.7,0,0,0,1,0,0,250,250,0,0.0,0.0,0.0,0.0,0,0,0.0,0,0.0,-1,0.0,,0.0,0,0.0,0.6424
38563,0,,,,,,,,-0.05,-0.04,-0.66,-0,0,-2,0.06,,72,8465,12,25,34,0.5,0.0,660,4.94,12.8,0.0,1,30.4,2.51,9.8,0,0,0,1,0,0,250,250,0,,,,,,,,,,,,,,,,
38583,0,,,,,,,,-0.03,-0.04,-0.44,-0,-0,-3,0.05,,72,8445,12,25,34,0.5,0.0,665,4.95,12.8,0.0,1,30.3,1.34,9.8,0,0,0,1,0,0,250,250,0,,,,,,,,,,,,,,,,
38603,0,,,,,,,,-0.01,-0.0,-0.51,-0,-0,-2,0.02,,72,8419,12,25,34,0.5,0.0,662,4.96,12.8,0.0,1,30.3,2.46,9.8,0,0,0,1,0,0,250,250,0,,,,,,,,,,,,,,,,
38623,0,,,,,,,,-0.02,-0.02,-0.39,-0,-2,-2,0.03,,72,8423,12,25,34,0.5,0.0,664,4.93,12.8,0.0,1,30.3,2.45,9.8,0,0,0,1,0,0,250,250,0,,,,,,,,,,,,,,,,
38643,0,-0,2,34,34,32,33,4,-0.04,-0.01,-0.34,-0,-2,-3,0.04,0,72,8396,12,25,34,0.5,0.0,667,4.93,12.8,0.0,1,30.2,2.44,9.8,0,0,0,1,0,0,250,250,0,0.0,0.0,0.0,0.0,0,0,0.0,0,0.0,-1,0.0,0.0,0.0,0,0.0,0.644
38663,0,,,,,,,,-0.07,-0.1,-0.48,-0,-1,-2,0.12,,72,8351,12,25,34,0.5,0.0,670,4.97,12.8,0.0,1,30.2,2.4,9.3,0,0,0,1,0,0,250,250,0,,,,,,,,,,,,,,,,
38683,0,,,,,,,,-0.03,-0.08,-0.27,-0,-1,-3,0.09,,72,8307,12,25,34,0.5,0.0,661,4.97,12.8,0.0,1,30.1,1.21,9.3,0,0,0,1,0,0,250,250,0,,,,,,,,,,,,,,,,
38703,0,,,,,,,,-0.04,-0.06,-0.42,-0,0,-1,0.07,,72,8249,12,25,34,0.5,0.0,664,4.98,12.8,0.0,1,29.9,2.35,9.3,0,0,0,1,0,0,250,250,0,,,,,,,,,,,,,,,,
38723,0,,,,,,,,-0.04,-0.04,-0.22,-0,-3,-2,0.06,,72,8191,12,25,34,0.5,0.0,651,4.9,12.8,0.0,1,29.8,1.09,9.3,0,0,0,1,0,0,250,250,0,,,,,,,,,,,,,,,,
38743,0,-1,2,34,34,32,33,4,-0.06,-0.06,-0.36,-0,-1,-1,0.09,0,72,8152,12,25,35,0.5,0.0,661,4.95,12.7,0.0,1,30.1,2.26,9.3,0,0,0,1,0,0,250,250,0,0.0,0.0,0.0,0.0,0,0,0.0,0,0.0,-1,0.0,,0.0,0,0.0,0.6457
38763,0,,,,,,,,-0.01,0.02,-0.25,-0,-2,-1,0.02,,72,8102,12,25,35,0.5,0.0,661,4.96,12.8,0.0,1,30.0,1.06,8.4,0,0,0,1,0,0,250,250,0,,,,,,,,,,,,,,,,
38783,0,,,,,,,,-0.01,-0.03,-0.19,-0,-2,-1,0.04,,72,8081,12,25,35,0.5,0.0,656,4.98,12.8,0.0,1,29.9,1.04,8.4,0,0,0,1,0,0,250,250,0,,,,,,,,,,,,,,,,
38803,0,,,,,,,,-0.01,0.02,-0.34,-0,-0,-0,0.02,,72,8085,12,25,35,0.5,0.0,655,4.96,12.7,0.0,1,29.9,2.19,8.4,0,0,0,1,0,0,250,250,0,,,,,,,,,,,,,,,,
38823,0,,,,,,,,-0.01,0.05,-0.14,-0,-1,-2,0.05,,72,8071,12,25,35,0.5,0.0,655,4.96,12.8,0.0,1,29.9,2.18,8.4,0,0,0,1,0,0,250,250,0,,,,,,,,,,,,,,,,
38843,0,1,1,34,34,32,33,4,-0.02,-0.02,-0.3,-0,0,-1,0.03,0,72,8074,12,25,36,0.5,0.0,661,5.03,12.8,0.0,1,30.2,1.07,8.4,0,0,0,1,0,0,250,250,0,0.0,0.0,0.0,0.0,0,0,0.0,0,0.0,-1,0.0,0.0,0.0,0,0.0,0.6474
38863,0,,,,,,,,-0.0,0.02,-0.35,-0,-0,-1,0.02,,72,8085,12,25,35,0.5,0.0,653,4.91,12.8,0.0,1,29.9,2.19,8.1,0,0,0,1,0,0,250,250,0,,,,,,,,,,,,,,,,
38883,0,,,,,,,,0.02,0.01,-0.19,-0,-1,-3,0.02,,72,8081,12,25,36,0.5,0.0,662,4.93,12.8,0.0,1,30.2,1.09,8.1,0,0,0,1,0,0,250,250,0,,,,,,,,,,,,,,,,
38903,0,,,,,,,,0.04,0.02,-0.34,-0,2,-1,0.04,,72,8102,12,25,36,0.5,0.0,656,4.9,12.8,0.0,1,30.3,2.26,8.1,0,0,0,1,0,0,250,250,0,,,,,,,,,,,,,,,,
38923,1620405941044,,,,,,,,0.04,0.01,-0.15,-0,-0,-2,0.05,,72,8123,12,25,36,0.5,0.0,651,4.86,12.8,0.0,1,30.3,1.13,8.1,0,0,0,1,0,0,250,250,0,,,,,,,,,,,,,,,,
38943,1620405941064,0,0,34,34,32,33,4,-0.02,-0.07,-0.3,-0,1,-1,0.07,0,72,8130,12,25,36,0.5,0.0,662,4.96,12.7,0.0,1,30.3,2.27,8.1,0,0,0,1,0,0,250,250,0,45.845852,5.179043,0.0,199.9,4,2,9.3,0,0.0,-1,0.0,,0.0,0,0.0,0.649
38963,1620405941084,,,,,,,,0.02,-0.03,-0.35,-0,0,-1,0.03,,72,8145,12,25,36,0.5,0.0,661,4.91,12.8,0.0,1,30.3,1.15,8.6,0,0,0,1,0,0,250,250,0,,,,,,,,,,,,,,,,
38983,1620405941104,,,,,,,,0.02,-0.03,-0.15,-0,0,-1,0.04,,72,8148,12,25,36,0.5,0.0,668,5.0,12.8,0.0,1,30.3,1.16,8.6,0,0,0,1,0,0,250,250,0,,,,,,,,,,,,,,,,
39003,1620405941145,,,,,,,,-0.01,0.02,-0.31,-0,1,-0,0.02,,72,8177,12,25,36,0.5,0.0,660,4.98,12.7,0.0,1,30.4,2.33,8.6,0,0,0,1,0,0,250,250,0,,,,,,,,,,,,,,,,
39023,1620405941165,,,,,,,,-0.02,0.0,-0.12,-0,-1,-1,0.02,,72,8169,12,25,36,0.5,0.0,654,4.99,12.8,0.0,1,30.4,2.27,8.6,0,0,0,1,0,0,250,250,0,,,,,,,,,,,,,,,,
39043,1620405941185,0,0,34,34,32,33,4,-0.0,0.03,-0.27,-0,0,0,0.03,0,72,8184,12,25,36,0.5,0.0,661,4.98,12.8,0.0,1,30.4,2.34,8.6,0,0,0,1,0,0,250,250,0,45.845848,5.179043,0.0,201.0,4,3,9.3,0,0.0,-1,0.0,0.0,0.0,0,0.0,0.6507
39063,1620405941205,,,,,,,,-0.01,0.04,-0.08,-0,-2,-2,0.04,,72,8212,12,25,36,0.5,0.0,658,4.96,12.8,0.0,1,30.5,1.21,8.9,0,0,0,1,0,0,250,250,0,,,,,,,,,,,,,,,,
39083,1620405941225,,,,,,,,-0.04,0.02,-0.24,-0,-1,-0,0.04,,72,8223,12,25,35,0.5,0.0,653,4.9,12.8,0.0,1,30.2,2.32,8.9,0,0,0,1,0,0,250,250,0,,,,,,,,,,,,,,,,
39103,1620405941245,,,,,,,,-0.03,0.1,-0.06,-0,-1,-1,0.1,,72,8223,12,25,35,0.5,0.0,659,4.84,12.8,0.0,1,30.2,1.17,8.9,0,0,0,1,0,0,250,250,0,,,,,,,,,,,,,,,,
39123,1620405941248,,,,,,,,-0.03,0.03,-0.22,-0,2,0,0.04,,72,8245,12,25,35,0.5,0.0,659,4.91,12.8,0.0,1,30.2,2.34,8.9,0,0,0,1,0,0,250,250,0,,,,,,,,,,,,,,,,
39143,1620405941268,-1,2,34,34,32,33,5,-0.02,0.05,-0.03,-0,-0,-1,0.05,0,72,8274,12,25,35,0.5,0.0,657,4.86,12.9,0.0,1,30.3,1.22,8.9,0,0,0,1,0,0,250,250,0,45.845833,5.179026,0.0,203.8,5,3,3.1,0,0.0,-1,0.0,,0.0,0,0.0,0.6524
39163,1620405941288,,,,,,,,-0.03,-0.05,-0.2,-0,1,1,0.06,,72,8296,12,25,35,0.5,0.0,656,4.95,12.8,0.0,1,30.3,2.4,9.0,0,0,0,1,0,0,250,250,0,,,,,,,,,,,,,,,,
39183,1620405941308,,,,,,,,-0.01,-0.01,-0.01,-0,-0,0,0.02,,72,8303,12,25,35,0.5,0.0,663,4.9,12.9,0.0,1,30.4,2.4,9.0,0,0,0,1,0,0,250,250,0,,,,,,,,,,,,,,,,
39203,1620405941328,,,,,,,,-0.01,-0.01,-0.18,-1,1,1,0.02,,72,8333,12,25,35,0.5,0.0,661,4.97,12.8,0.0,1,30.4,2.43,9.0,0,0,0,1,0,0,250,250,0,,,,,,,,,,,,,,,,
39223,1620405941348,,,,,,,,-0.03,-0.02,0.0,-0,-2,-0,0.03,,72,8351,12,25,35,0.5,0.0,659,4.91,12.8,0.0,1,30.5,1.29,9.0,0,0,0,1,0,0,250,250,0,,,,,,,,,,,,,,,,
39243,1620405941344,1,0,34,34,32,33,4,-0.0,0.01,-0.16,-0,-2,-0,0.01,0,72,8381,12,25,35,0.5,0.0,659,4.88,12.9,0.0,1,30.5,2.47,9.0,0,0,0,1,0,0,250,250,0,45.845833,5.179022,0.0,211.7,6,3,2.8,0,0.0,-1,0.0,0.0,0.0,0,0.0,0.654
39263,1620405941364,,,,,,,,-0.01,-0.02,-0.32,-1,0,0,0.03,,72,8389,12,25,35,0.5,0.0,661,4.95,12.8,0.0,1,30.5,2.48,9.5,0,0,0,1,0,0,250,250,0,,,,,,,,,,,,,,,,
39283,1620405941384,,,,,,,,0.01,-0.01,-0.36,-1,0,-0,0.01,,72,8381,12,25,34,0.5,0.0,661,4.9,12.8,0.0,1,30.2,1.28,9.5,0,0,0,1,0,0,250,250,0,,,,,,,,,,,,,,,,
39303,1620405941404,,,,,,,,0.03,0.0,-0.49,-0,0,1,0.03,,72,8415,12,25,35,0.5,0.0,660,4.96,12.8,0.0,1,30.6,2.51,9.5,0,0,0,1,0,0,250,250,0,,,,,,,,,,,,,,,,
39323,1620405941436,,,,,,,,0.01,0.01,-0.29,-0,-2,-0,0.01,,72,8442,12,25,34,0.5,0.0,662,4.95,12.8,0.0,1,30.3,1.34,9.5,0,0,0,1,0,0,250,250,0,,,,,,,,,,,,,,,,
39343,1620405941456,-1,2,34,34,32,33,4,0.03,0.03,-0.43,-0,-2,-1,0.05,0,72,8442,12,25,34,0.5,0.0,665,4.9,12.8,0.0,1,30.3,2.49,9.5,0,0,0,1,0,0,250,250,0,45.845829,5.179017,0.0,216.0,6,3,2.8,0,0.0,-1,0.0,,0.0,0,0.0,0.6557
39363,1620405941476,,,,,,,,0.03,0.02,-0.56,-0,-0,-1,0.03,,72,8453,12,25,34,0.5,0.0,665,4.94,12.8,0.0,1,30.4,2.5,9.7,0,0,0,1,0,0,250,250,0,,,,,,,,,,,,,,,,
39383,1620405941496,,,,,,,,0.01,0.02,-0.49,-0,-0,-1,0.02,,72,8445,12,25,34,0.5,0.0,670,4.96,12.8,0.0,1,30.3,1.34,9.7,0,0,0,1,0,0,250,250,0,,,,,,,,,,,,,,,,
39403,1620405941516,,,,,,,,0.03,0.07,-0.3,-0,-0,-1,0.08,,72,8461,12,25,34,0.5,0.0,662,4.96,12.8,0.0,1,30.4,2.51,9.7,0,0,0,1,0,0,250,250,0,,,,,,,,,,,,,,,,
39423,1620405941536,,,,,,,,0.04,0.04,-0.44,-0,-1,-1,0.06,,72,8434,12,25,34,0.5,0.0,667,4.95,12.8,0.0,1,30.3,2.48,9.7,0,0,0,1,0,0,250,250,0,,,,,,,,,,,,,,,,
39443,1620405941556,0,2,34,34,32,33,3,0.01,0.03,-0.32,-0,-2,-2,0.03,0,72,8453,12,25,34,0.5,0.0,657,4.91,12.8,0.0,1,30.4,1.35,9.7,0,0,0,1,0,0,250,250,0,45.845829,5.179017,0.0,216.0,6,3,2.8,0,0.0,-1,0.0,0.0,0.0,0,0.0,0.6574
39463,1620405941549,,,,,,,,0.03,0.02,-0.43,-0,-1,-0,0.03,,72,8419,12,25,34,0.5,0.0,659,4.95,12.8,0.0,1,30.3,2.46,9.7,0,0,0,1,0,0,250,250,0,,,,,,,,,,,,,,,,
39483,1620405941569,,,,,,,,0.03,0.01,-0.55,-0,-1,-1,0.04,,72,8415,12,25,34,0.5,0.0,661,4.94,12.8,0.0,1,30.3,2.46,9.7,0,0,0,1,0,0,250,250,0,,,,,,,,,,,,,,,,
39503,1620405941639,,,,,,,,0.02,0.06,-0.34,-0,-1,-1,0.07,,72,8389,12,25,34,0.5,0.0,661,4.92,12.8,0.0,1,30.2,2.44,9.7,0,0,0,1,0,0,250,250,0,,,,,,,,,,,,,,,,
39523,1620405941659,,,,,,,,0.03,0.04,-0.48,-0,-1,-1,0.05,,72,8363,12,25,34,0.5,0.0,665,4.94,12.8,0.0,1,30.2,2.41,9.7,0,0,0,1,0,0,250,250,0,,,,,,,,,,,,,,,,
39543,1620405941679,-1,2,34,34,32,33,5,0.02,0.01,-0.27,-0,-2,-1,0.02,0,72,8340,12,25,34,0.5,0.0,662,4.9,12.8,0.0,1,30.1,1.24,9.7,0,0,0,1,0,0,250,250,0,45.845825,5.179012,0.0,217.7,7,3,2.5,0,0.0,-1,0.0,,0.0,0,0.0,0.659
39563,1620405941699,,,,,,,,0.02,0.0,-0.42,-0,0,-0,0.02,,72,8252,12,25,34,0.5,0.0,657,4.95,12.8,0.0,1,30.0,2.3,8.9,0,0,0,1,0,0,250,250,0,,,,,,,,,,,,,,,,
39583,1620405941719,,,,,,,,0.01,0.01,-0.21,-0,-1,-1,0.01,,72,8234,12,25,34,0.5,0.0,663,4.92,12.9,0.0,1,29.9,2.28,8.9,0,0,0,1,0,0,250,250,0,,,,,,,,,,,,,,,,
39603,1620405941739,,,,,,,,0.05,0.02,-0.36,-0,0,-0,0.05,,72,8194,12,25,35,0.5,0.0,668,5.02,12.8,0.0,1,30.1,1.15,8.9,0,0,0,1,0,0,250,250,0,,,,,,,,,,,,,,,,
39623,1620405941759,,,,,,,,0.04,0.02,-0.17,-0,-2,-1,0.05,,72,8152,12,25,34,0.5,0.0,649,4.88,12.8,0.0,1,29.8,2.21,8.9,0,0,0,1,0,0,250,250,0,,,,,,,,,,,,,,,,
39643,1620405941779,-1,2,34,34,32,33,4,0.02,-0.01,-0.32,-0,-2,-0,0.02,0,72,8130,12,25,35,0.5,0.0,662,4.98,12.8,0.0,1,30.0,1.09,8.9,0,0,0,1,0,0,250,250,0,45.845821,5.17901,0.0,218.2,7,3,2.5,0,0.0,-1,0.0,0.0,0.0,0,0.0,0.6607
39663,1620405941799,,,,,,,,0.06,0.09,-0.13,-0,-1,1,0.11,,72,8109,12,25,35,0.5,0.0,662,4.95,12.8,0.0,1,30.0,2.22,8.4,0,0,0,1,0,0,250,250,0,,,,,,,,,,,,,,,,
39683,1620405941819,,,,,,,,0.05,0.04,-0.22,-0,-3,-1,0.06,,72,8134,12,25,35,0.5,0.0,656,4.97,12.8,0.0,1,30.0,1.09,8.4,0,0,0,1,0,0,250,250,0,,,,,,,,,,,,,,,,
39703,1620405941839,,,,,,,,0.02,0.1,-0.37,-0,-1,1,0.1,,72,8134,12,25,35,0.5,0.0,654,4.88,12.8,0.0,1,30.0,2.24,8.4,0,0,0,1,0,0,250,250,0,,,,,,,,,,,,,,,,
39723,1620405941859,,,,,,,,0.03,0.07,-0.18,-0,-2,-1,0.08,,72,8109,12,25,35,0.5,0.0,656,4.83,12.9,0.0,1,30.0,1.07,8.4,0,0,0,1,0,0,250,250,0,,,,,,,,,,,,,,,,
39743,1620405941879,0,1,34,34,32,33,4,0.06,0.06,-0.33,-0,0,-0,0.09,0,72,8123,12,25,35,0.5,0.0,666,4.94,12.8,0.0,1,30.0,2.23,8.4,0,0,0,1,0,0,250,250,0,45.845821,5.179008,0.0,218.5,7,3,2.5,0,0.0,-1,0.0,,0.0,0,0.0,0.6624
39763,1620405941899,,,,,,,,0.07,0.05,-0.14,-1,-1,-0,0.09,,72,8123,12,25,35,0.5,0.0,656,4.89,12.9,0.0,1,30.0,1.08,8.5,0,0,0,1,0,0,250,250,0,,,,,,,,,,,,,,,,
39783,1620405941919,,,,,,,,0.01,-0.05,-0.29,-1,-1,-1,0.05,,72,8127,12,25,35,0.5,0.0,655,4.91,12.8,0.0,1,30.0,1.08,8.5,0,0,0,1,0,0,250,250,0,,,,,,,,,,,,,,,,
39803,1620405941940,,,,,,,,0.04,0.0,-0.28,-1,1,0,0.04,,72,8134,12,25,35,0.5,0.0,656,4.91,12.8,0.0,1,30.0,2.29,8.5,0,0,0,1,0,0,250,250,0,,,,,,,,,,,,,,,,
39823,1620405941960,,,,,,,,0.03,-0.02,-0.09,-1,-0,-1,0.04,,72,8159,12,25,36,0.5,0.0,661,4.95,12.9,0.0,1,30.4,2.31,8.5,0,0,0,1,0,0,250,250,0,,,,,,,,,,,,,,,,
39843,1620405941980,-0,2,34,34,32,33,5,-0.0,0.04,-0.25,-1,1,1,0.04,0,72,8155,12,25,36,0.5,0.0,655,4.9,12.8,0.0,1,30.4,2.31,8.5,0,0,0,1,0,0,250,250,0,45.845821,5.179007,0.0,218.7,7,3,2.5,0,0.0,-1,0.0,0.0,0.0,0,0.0,0.664
39863,1620405942000,,,,,,,,-0.02,0.02,-0.06,-0,-1,-0,0.03,,72,8166,12,25,36,0.5,0.0,658,4.96,12.9,0.0,1,30.4,1.17,8.7,0,0,0,1,0,0,250,250,0,,,,,,,,,,,,,,,,
39883,1620405942020,,,,,,,,0.0,0.01,-0.22,-0,0,1,0.01,,72,8166,12,25,36,0.5,0.0,668,5.02,12.8,0.0,1,30.4,1.17,8.7,0,0,0,1,0,0,250,250,0,,,,,,,,,,,,,,,,
39903,1620405942039,,,,,,,,0.01,0.03,-0.04,-0,-2,-0,0.03,,73,8198,12,25,35,0.5,0.0,661,4.9,12.9,0.0,1,30.1,2.3,8.7,0,0,0,1,0,0,250,250,0,,,,,,,,,,,,,,,,
39923,1620405942059,,,,,,,,-0.02,-0.02,-0.2,-0,-2,0,0.03,,73,8202,12,25,36,0.5,0.0,663,4.97,12.8,0.0,1,30.5,1.21,8.7,0,0,0,1,0,0,250,250,0,,,,,,,,,,,,,,,,
39943,1620405942079,0,0,34,34,32,33,4,0.0,0.07,-0.04,-0,-1,1,0.07,0,73,8212,12,25,35,0.5,0.0,661,4.9,12.8,0.0,1,30.2,2.31,8.7,0,0,0,1,0,0,250,250,0,45.845821,5.179007,0.0,218.7,7,3,2.5,0,0.0,-1,0.0,,0.0,0,0.0,0.6657
39963,1620405942099,,,,,,,,0.0,0.0,-0.21,-0,-1,-0,0.0,,73,8227,12,25,36,0.5,0.0,666,4.99,12.7,0.0,1,30.5,2.34,8.8,0,0,0,1,0,0,250,250,0,,,,,,,,,,,,,,,,
39983,1620405942119,,,,,,,,-0.0,0.02,-0.13,-0,-1,-0,0.02,,73,8263,12,25,35,0.5,0.0,658,4.88,12.9,0.0,1,30.3,2.36,8.8,0,0,0,1,0,0,250,250,0,,,,,,,,,,,,,,,,
40003,1620405942139,,,,,,,,-0.04,-0.1,-0.28,-0,-1,-0,0.11,,73,8252,12,25,35,0.5,0.0,657,4.95,12.7,0.0,1,30.3,1.22,8.8,0,0,0,1,0,0,250,250,0,,,,,,,,,,,,,,,,
40023,1620405942159,,,,,,,,-0.0,-0.03,-0.09,-0,-0,-0,0.03,,73,8270,12,25,35,0.5,0.0,659,4.91,12.9,0.0,1,30.3,2.37,8.8,0,0,0,1,0,0,250,250,0,,,,,,,,,,,,,,,,
40043,1620405942179,0,2,34,34,32,33,3,-0.01,-0.05,-0.25,-0,0,1,0.05,0,73,8289,12,25,35,0.5,0.0,662,4.97,12.8,0.0,1,30.3,2.39,8.8,0,0,0,1,0,0,250,250,0,45.845821,5.179007,0.0,218.7,7,3,2.5,0,0.0,-1,0.0,0.0,0.0,0,0.0,0.6674
40063,1620405942199,,,,,,,,-0.01,0.01,-0.06,-0,-2,-0,0.01,,73,8311,12,25,35,0.5,0.0,657,4.94,12.8,0.0,1,30.4,1.26,9.1,0,0,0,1,0,0,250,250,0,,,,,,,,,,,,,,,,
40083,1620405942219,,,,,,,,-0.03,0.0,-0.23,-0,-1,0,0.03,,73,8333,12,25,35,0.5,0.0,658,4.95,12.7,0.0,1,30.4,2.43,9.1,0,0,0,1,0,0,250,250,0,,,,,,,,,,,,,,,,
40103,1620405942239,,,,,,,,-0.01,0.03,-0.04,-0,-1,-1,0.03,,73,8337,12,25,35,0.5,0.0,660,4.9,12.8,0.0,1,30.4,2.43,9.1,0,0,0,1,0,0,250,250,0,,,,,,,,,,,,,,,,
40123,1620405942259,,,,,,,,0.02,-0.0,-0.2,-0,0,1,0.02,,73,8348,12,25,35,0.5,0.0,666,4.97,12.7,0.0,1,30.4,2.44,9.1,0,0,0,1,0,0,250,250,0,,,,,,,,,,,,,,,,
40143,1620405942279,0,0,34,34,32,33,4,-0.02,-0.01,-0.07,-0,-1,0,0.02,0,73,8381,12,25,35,0.5,0.0,673,4.95,12.8,0.0,1,30.5,1.32,9.1,0,0,0,1,0,0,250,250,0,45.845821,5.179007,0.0,218.7,7,3,2.5,0,0.0,-1,0.0,,0.0,0,0.0,0.669
40163,1620405942299,,,,,,,,-0.02,0.01,-0.11,-0,-0,1,0.02,,73,8370,12,25,34,0.5,0.0,656,4.92,12.9,0.0,1,30.2,2.46,9.4,0,0,0,1,0,0,250,250,0,,,,,,,,,,,,,,,,
40183,1620405942319,,,,,,,,-0.02,0.02,-0.26,-0,-0,1,0.03,,73,8393,12,25,34,0.5,0.0,665,5.0,12.8,0.0,1,30.2,1.29,9.4,0,0,0,1,0,0,250,250,0,,,,,,,,,,,,,,,,
40203,1620405942339,,,,,,,,-0.01,0.08,-0.08,-0,-1,1,0.08,,73,8404,12,25,35,0.5,0.0,662,4.94,12.8,0.0,1,30.6,1.35,9.4,0,0,0,1,0,0,250,250,0,,,,,,,,,,,,,,,,
40223,1620405942359,,,,,,,,0.01,0.07,-0.24,-0,0,1,0.07,,73,8419,12,25,34,0.5,0.0,671,4.97,12.8,0.0,1,30.3,2.47,9.4,0,0,0,1,0,0,250,250,0,,,,,,,,,,,,,,,,
40243,1620405942379,1,1,34,34,32,33,4,-0.02,0.06,-0.21,-0,-1,1,0.06,0,73,8434,12,25,34,0.5,0.0,668,4.93,12.8,0.0,1,30.3,1.33,9.4,0,0,0,1,0,0,250,250,0,45.845821,5.179007,0.0,218.7,7,3,2.5,0,0.0,-1,0.0,0.0,0.0,0,0.0,0.6707
40263,1620405942399,,,,,,,,0.0,0.08,-0.27,-0,-1,2,0.08,,73,8449,12,25,34,0.5,0.0,660,4.93,12.9,0.0,1,30.3,2.49,9.7,0,0,0,1,0,0,250,250,0,,,,,,,,,,,,,,,,
40283,1620405942419,,,,,,,,0.0,0.08,-0.41,-0,1,2,0.08,,73,8449,12,25,34,0.5,0.0,665,5.0,12.8,0.0,1,30.4,1.35,9.7,0,0,0,1,0,0,250,250,0,,,,,,,,,,,,,,,,
40303,1620405942439,,,,,,,,0.01,0.08,-0.26,-0,0,1,0.08,,73,8442,12,25,34,0.5,0.0,663,4.92,12.8,0.0,1,30.3,2.49,9.7,0,0,0,1,0,0,250,250,0,,,,,,,,,,,,,,,,
40323,1620405942445,,,,,,,,0.05,0.09,-0.41,-0,2,2,0.1,,73,8453,12,25,34,0.5,0.0,666,4.94,12.7,0.0,1,30.4,2.5,9.7,0,0,0,1,0,0,250,250,0,,,,,,,,,,,,,,,,
40343,1620405942465,-0,2,34,34,32,33,4,0.03,0.07,-0.54,-0,1,2,0.08,0,73,8445,12,25,34,0.5,0.0,667,4.92,12.8,0.0,1,30.3,2.47,9.7,0,0,0,1,0,0,250,250,0,45.845821,5.179007,0.0,218.7,7,3,2.5,0,0.0,-1,0.0,,0.0,0,0.0,0.6724
40363,1620405942485,,,,,,,,-0.0,0.09,-0.33,-0,-1,1,0.09,,73,8442,12,25,34,0.5,0.0,652,4.97,12.8,0.0,1,30.3,1.34,9.7,0,0,0,1,0,0,250,250,0,,,,,,,,,,,,,,,,
40383,1620405942505,,,,,,,,0.0,0.11,-0.47,-0,0,2,0.11,,73,8434,12,25,34,0.5,0.0,658,4.95,12.8,0.0,1,30.3,2.48,9.7,0,0,0,1,0,0,250,250,0,,,,,,,,,,,,,,,,
40403,1620405942538,,,,,,,,0.0,0.09,-0.49,-0,1,0,0.09,,73,8426,12,25,34,0.5,0.0,663,4.93,12.8,0.0,1,30.3,2.47,9.7,0,0,0,1,0,0,250,250,0,,,,,,,,,,,,,,,,
40423,1620405942558,,,,,,,,0.01,0.08,-0.61,-0,1,1,0.08,,73,8419,12,25,34,0.5,0.0,663,4.95,12.9,0.0,1,30.3,2.46,9.7,0,0,0,1,0,0,250,250,0,,,,,,,,,,,,,,,,
40443,1620405942578,-1,2,34,34,32,33,4,0.02,0.08,-0.73,-0,1,1,0.08,0,73,8396,12,25,34,0.5,0.0,675,4.96,12.8,0.0,1,30.2,2.44,9.7,0,0,0,1,0,0,250,250,0,45.845821,5.179007,0.0,218.7,7,3,2.5,0,0.0,-1,0.0,0.0,0.0,0,0.0,0.674
40463,1620405942598,,,,,,,,0.0,0.1,-0.5,-0,-2,0,0.1,,73,8378,12,25,34,0.5,0.0,657,4.95,12.8,0.0,1,30.2,1.28,9.4,0,0,0,1,0,0,250,250,0,,,,,,,,,,,,,,,,
40483,1620405942618,,,,,,,,-0.02,0.11,-0.62,-0,-1,1,0.11,,73,8359,12,25,34,0.5,0.0,665,4.92,12.8,0.0,1,30.2,2.41,9.4,0,0,0,1,0,0,250,250,0,,,,,,,,,,,,,,,,
40503,1620405942638,,,,,,,,-0.01,0.11,-0.48,-0,-1,-0,0.11,,73,8325,12,25,34,0.5,0.0,663,4.9,12.8,0.0,1,30.1,2.38,9.4,0,0,0,1,0,0,250,250,0,,,,,,,,,,,,,,,,
40523,1620405942658,,,,,,,,0.03,0.11,-0.61,-0,1,1,0.11,,73,8311,12,25,34,0.5,0.0,657,4.95,12.8,0.0,1,30.1,2.36,9.4,0,0,0,1,0,0,250,250,0,,,,,,,,,,,,,,,,
40543,1620405942678,0,1,34,34,32,33,3,-0.02,0.09,-0.44,-0,-0,0,0.09,0,73,8314,12,25,34,0.5,0.0,661,4.95,12.8,0.0,1,30.1,1.22,9.4,0,0,0,1,0,0,250,250,0,45.845821,5.179007,0.0,218.7,7,3,2.5,0,0.0,-1,0.0,,0.0,0,0.0,0.6757
40563,1620405942698,,,,,,,,-0.03,0.1,-0.57,-0,-0,1,0.11,,73,8278,12,25,34,0.5,0.0,651,4.88,12.9,0.0,1,30.0,2.33,9.0,0,0,0,1,0,0,250,250,0,,,,,,,,,,,,,,,,
40583,1620405942718,,,,,,,,-0.02,0.09,-0.36,-0,-0,1,0.09,,73,8245,12,25,34,0.5,0.0,662,5.0,12.8,0.0,1,29.9,2.29,9.0,0,0,0,1,0,0,250,250,0,,,,,,,,,,,,,,,,
40603,1620405942739,,,,,,,,0.01,0.13,-0.43,-0,0,1,0.13,,73,8249,12,25,34,0.5,0.0,663,4.93,12.7,0.0,1,29.9,2.3,9.0,0,0,0,1,0,0,250,250,0,,,,,,,,,,,,,,,,
40623,1620405942759,,,,,,,,0.0,0.08,-0.23,-0,-1,0,0.08,,73,8252,12,25,35,0.5,0.0,665,4.98,12.8,0.0,1,30.2,2.3,9.0,0,0,0,1,0,0,250,250,0,,,,,,,,,,,,,,,,
40643,1620405942779,0,0,34,34,32,33,4,0.02,0.13,-0.38,-0,-0,1,0.13,0,73,8238,12,25,35,0.5,0.0,661,4.92,12.9,0.0,1,30.2,1.19,9.0,0,0,0,1,0,0,250,250,0,45.845821,5.179007,0.0,218.7,7,3,2.5,0,0.0,-1,0.0,0.0,0.0,0,0.0,0.6774
40663,1620405942799,,,,,,,,0.0,0.1,-0.33,-0,-0,0,0.1,,73,8212,12,25,35,0.5,0.0,669,5.0,12.8,0.0,1,30.2,2.31,8.7,0,0,0,1,0,0,250,250,0,,,,,,,,,,,,,,,,
40683,1620405942819,,,,,,,,0.02,0.09,-0.47,-0,1,1,0.09,,73,8187,12,25,35,0.5,0.0,663,4.9,12.9,0.0,1,30.1,2.29,8.7,0,0,0,1,0,0,250,250,0,,,,,,,,,,,,,,,,
40703,1620405942838,,,,,,,,-0.01,0.08,-0.27,-0,-0,-0,0.08,,73,8202,12,25,35,0.5,0.0,658,4.98,12.8,0.0,1,30.2,1.15,8.7,0,0,0,1,0,0,250,250,0,,,,,,,,,,,,,,,,
40723,1620405942858,,,,,,,,0.01,0.07,-0.41,-0,0,2,0.07,,73,8209,12,25,35,0.5,0.0,658,4.89,12.8,0.0,1,30.2,2.31,8.7,0,0,0,1,0,0,250,250,0,,,,,,,,,,,,,,,,
40743,1620405942878,1,1,34,34,32,33,4,-0.02,0.1,-0.21,-0,-1,0,0.1,0,73,8198,12,25,35,0.5,0.0,657,4.87,12.8,0.0,1,30.1,1.15,8.7,0,0,0,1,0,0,250,250,0,45.845821,5.179007,0.0,218.7,7,3,2.5,0,0.0,-1,0.0,,0.0,0,0.0,0.6791
40763,1620405942898,,,,,,,,-0.02,0.08,-0.36,-0,1,1,0.09,,73,8184,12,25,35,0.5,0.0,659,4.94,12.8,0.0,1,30.1,2.29,8.7,0,0,0,1,0,0,250,250,0,,,,,,,,,,,,,,,,
40783,1620405942918,,,,,,,,0.01,0.1,-0.16,-0,-2,-1,0.1,,73,8198,12,25,35,0.5,0.0,656,4.96,12.8,0.0,1,30.1,2.3,8.7,0,0,0,1,0,0,250,250,0,,,,,,,,,,,,,,,,
40803,1620405942938,,,,,,,,-0.02,0.03,-0.31,-0,-1,1,0.04,,73,8184,12,25,35,0.5,0.0,657,5.02,12.8,0.0,1,30.1,1.14,8.7,0,0,0,1,0,0,250,250,0,,,,,,,,,,,,,,,,
40823,1620405942958,,,,,,,,0.0,0.1,-0.19,-0,-2,-0,0.1,,73,8198,12,25,35,0.5,0.0,657,4.88,12.8,0.0,1,30.1,2.3,8.7,0,0,0,1,0,0,250,250,0,,,,,,,,,,,,,,,,
40843,1620405942978,-0,2,34,34,32,33,4,0.0,0.04,-0.34,-0,-0,0,0.04,0,73,8187,12,25,35,0.5,0.0,662,4.95,12.7,0.0,1,30.1,1.14,8.7,0,0,0,1,0,0,250,250,0,45.845821,5.179007,0.0,218.7,7,3,2.5,0,0.0,-1,0.0,0.0,0.0,0,0.0,0.6807
40863,1620405942998,,,,,,,,0.02,0.1,-0.44,-0,-1,-0,0.1,,73,8194,12,25,35,0.5,0.0,653,4.88,12.8,0.0,1,30.1,2.3,8.6,0,0,0,1,0,0,250,250,0,,,,,,,,,,,,,,,,
40883,1620405943002,,,,,,,,-0.01,0.02,-0.57,-0,-1,-1,0.02,,73,8202,12,25,35,0.5,0.0,664,4.96,12.8,0.0,1,30.2,2.3,8.6,0,0,0,1,0,0,250,250,0,,,,,,,,,,,,,,,,
40903,1620405943022,,,,,,,,0.01,0.04,-0.69,-0,-0,-0,0.04,,73,8220,12,25,35,0.5,0.0,662,4.94,12.8,0.0,1,30.2,1.17,8.6,0,0,0,1,0,0,250,250,0,,,,,,,,,,,,,,,,
40923,1620405943042,,,,,,,,-0.01,0.02,-0.46,-0,-0,-0,0.02,,73,8227,12,25,35,0.5,0.0,662,4.95,12.8,0.0,1,30.2,2.33,8.6,0,0,0,1,0,0,250,250,0,,,,,,,,,,,,,,,,
40943,1620405943062,0,2,34,34,32,33,4,-0.01,0.05,-0.59,-0,-1,-0,0.05,0,74,8263,12,25,35,0.5,0.0,659,4.93,12.9,0.0,1,30.3,1.21,8.6,0,0,0,1,0,0,250,250,0,45.845821,5.179007,0.0,218.7,7,3,2.5,0,0.0,-1,0.0,,0.0,0,0.0,0.6824
40963,1620405943092,,,,,,,,-0.02,0.03,-0.37,-0,-2,-0,0.04,,74,8259,12,25,35,0.5,0.0,661,4.98,12.8,0.0,1,30.3,2.38,9.0,0,0,0,1,0,0,250,250,0,,,,,,,,,,,,,,,,
40983,1620405943112,,,,,,,,0.02,0.07,-0.48,-0,-1,-0,0.07,,74,8278,12,25,35,0.5,0.0,665,4.95,12.8,0.0,1,30.3,1.23,9.0,0,0,0,1,0,0,250,250,0,,,,,,,,,,,,,,,,
41003,1620405943132,,,,,,,,0.01,0.04,-0.29,-0,-1,-0,0.04,,74,8296,12,25,35,0.5,0.0,662,4.97,12.8,0.0,1,30.3,2.4,9.0,0,0,0,1,0,0,250,250,0,,,,,,,,,,,,,,,,
41023,1620405943152,,,,,,,,0.01,0.07,-0.43,-0,-3,-2,0.07,,74,8311,12,25,35,0.5,0.0,656,4.89,12.8,0.0,1,30.4,1.26,9.0,0,0,0,1,0,0,250,250,0,,,,,,,,,,,,,,,,
41043,1620405943172,-0,2,34,34,32,33,5,0.01,-0.0,-0.56,-0,-1,-1,0.01,0,74,8322,12,25,35,0.5,0.0,658,4.95,12.8,0.0,1,30.4,2.42,9.0,0,0,0,1,0,0,250,250,0,45.845821,5.179007,0.0,218.7,7,3,2.5,0,0.0,-1,0.0,0.0,0.0,0,0.0,0.684
41063,1620405943192,,,,,,,,0.03,0.02,-0.47,-0,-1,-2,0.04,,74,8329,12,25,35,0.5,0.0,655,4.9,12.8,0.0,1,30.4,1.27,9.3,0,0,0,1,0,0,250,250,0,,,,,,,,,,,,,,,,
41083,1620405943212,,,,,,,,0.06,0.05,-0.56,-0,0,-1,0.08,,74,8351,12,25,35,0.5,0.0,662,5.0,12.8,0.0,1,30.5,2.44,9.3,0,0,0,1,0,0,250,250,0,,,,,,,,,,,,,,,,
41103,1620405943232,,,,,,,,0.05,0.02,-0.44,-0,-2,-2,0.05,,74,8378,12,25,35,0.5,0.0,662,4.92,12.9,0.0,1,30.5,2.47,9.3,0,0,0,1,0,0,250,250,0,,,,,,,,,,,,,,,,
41123,1620405943252,,,,,,,,0.03,0.05,-0.39,-0,-2,-2,0.06,,74,8393,12,25,35,0.5,0.0,654,4.91,12.8,0.0,1,30.5,2.49,9.3,0,0,0,1,0,0,250,250,0,,,,,,,,,,,,,,,,
41143,1620405943272,0,1,34,34,32,33,4,0.01,-0.03,-0.52,-0,-2,-2,0.03,0,74,8393,12,25,34,0.5,0.0,666,4.93,12.8,0.0,1,30.2,2.44,9.3,0,0,0,1,0,0,250,250,0,45.845821,5.179007,0.0,218.7,7,3,2.5,0,0.0,-1,0.0,,0.0,0,0.0,0.6857
41163,1620405943294,,,,,,,,0.04,-0.03,-0.34,-0,-1,-2,0.05,,74,8408,12,25,34,0.5,0.0,664,4.93,12.8,0.0,1,30.3,1.3,9.5,0,0,0,1,0,0,250,250,0,,,,,,,,,,,,,,,,
41183,1620405943314,,,,,,,,0.06,0.01,-0.47,-0,-0,-1,0.06,,74,8411,12,25,34,0.5,0.0,672,4.95,12.8,0.0,1,30.3,2.46,9.5,0,0,0,1,0,0,250,250,0,,,,,,,,,,,,,,,,
41203,1620405943334,,,,,,,,0.02,-0.02,-0.42,-0,-2,-2,0.03,,74,8434,12,25,34,0.5,0.0,663,4.92,12.8,0.0,1,30.3,1.33,9.5,0,0,0,1,0,0,250,250,0,,,,,,,,,,,,,,,,
41223,1620405943354,,,,,,,,0.0,-0.01,-0.35,-0,-2,-3,0.01,,74,8430,12,25,34,0.5,0.0,657,4.92,12.8,0.0,1,30.3,2.47,9.5,0,0,0,1,0,0,250,250,0,,,,,,,,,,,,,,,,
41243,1620405943374,-0,2,34,34,32,33,4,0.01,-0.07,-0.49,-0,-1,-2,0.07,0,74,8423,12,25,34,0.5,0.0,662,4.97,12.7,0.0,1,30.3,1.32,9.5,0,0,0,1,0,0,250,250,0,45.845821,5.179007,0.0,218.7,7,3,2.5,0,0.0,-1,0.0,0.0,0.0,0,0.0,0.6874
41263,1620405943394,,,,,,,,-0.01,-0.08,-0.29,-0,-1,-4,0.09,,74,8426,12,25,34,0.5,0.0,660,4.93,12.8,0.0,1,30.3,1.32,9.6,0,0,0,1,0,0,250,250,0,,,,,,,,,,,,,,,,
41283,1620405943414,,,,,,,,0.02,-0.03,-0.3,-0,-1,-3,0.04,,74,8400,12,25,34,0.5,0.0,656,4.95,12.8,0.0,1,30.3,2.45,9.6,0,0,0,1,0,0,250,250,0,,,,,,,,,,,,,,,,
41303,1620405943434,,,,,,,,0.0,-0.07,-0.34,-0,-3,-3,0.07,,74,8396,12,25,34,0.5,0.0,660,4.96,12.8,0.0,1,30.2,1.29,9.6,0,0,0,1,0,0,250,250,0,,,,,,,,,,,,,,,,
41323,1620405943454,,,,,,,,-0.02,-0.06,-0.19,-0,-3,-3,0.06,,74,8385,12,25,34,0.5,0.0,659,4.94,12.9,0.0,1,30.2,2.43,9.6,0,0,0,1,0,0,250,250,0,,,,,,,,,,,,,,,,
41343,1620405943474,0,2,34,34,32,33,3,-0.02,-0.14,-0.34,-0,-2,-3,0.14,0,74,8348,12,25,34,0.5,0.0,666,4.95,12.8,0.0,1,30.2,2.41,9.6,0,0,0,1,0,0,250,250,0,45.845821,5.179007,0.0,218.7,7,3,2.5,0,0.0,-1,0.0,,0.0,0,0.0,0.689
41363,1620405943494,,,,,,,,-0.0,-0.11,-0.15,-0,-1,-3,0.11,,74,8337,12,25,34,0.5,0.0,658,4.91,12.8,0.0,1,30.1,1.24,9.2,0,0,0,1,0,0,250,250,0,,,,,,,,,,,,,,,,
41383,1620405943514,,,,,,,,-0.01,-0.08,-0.3,-0,-0,-2,0.08,,74,8314,12,25,34,0.5,0.0,672,4.96,12.7,0.0,1,30.1,1.22,9.2,0,0,0,1,0,0,250,250,0,,,,,,,,,,,,,,,,
41403,1620405943534,,,,,,,,-0.02,-0.1,-0.11,-0,-3,-3,0.1,,74,8325,12,25,34,0.5,0.0,652,4.96,12.8,0.0,1,30.1,1.23,9.2,0,0,0,1,0,0,250,250,0,,,,,,,,,,,,,,,,
41423,1620405943554,,,,,,,,0.01,-0.04,-0.27,-0,-2,-2,0.04,,74,8322,12,25,34,0.5,0.0,661,4.92,12.8,0.0,1,30.1,2.37,9.2,0,0,0,1,0,0,250,250,0,,,,,,,,,,,,,,,,
41443,1620405943574,-0,2,34,34,32,33,4,-0.01,-0.05,-0.28,-0,-2,-3,0.05,0,74,8307,12,25,34,0.5,0.0,660,4.88,12.8,0.0,1,30.1,1.21,9.2,0,0,0,1,0,0,250,250,0,45.845821,5.179007,0.0,218.7,7,3,2.5,0,0.0,-1,0.0,0.0,0.0,0,0.0,0.6907
41463,1620405943593,,,,,,,,0.02,-0.05,-0.42,-0,0,-1,0.06,,74,8296,12,25,34,0.5,0.0,660,4.92,12.8,0.0,1,30.0,2.35,9.0,0,0,0,1,0,0,250,250,0,,,,,,,,,,,,,,,,
41483,1620405943613,,,,,,,,0.02,-0.07,-0.38,-0,-1,-2,0.08,,74,8289,12,25,34,0.5,0.0,663,4.97,12.8,0.0,1,30.0,1.19,9.0,0,0,0,1,0,0,250,250,0,,,,,,,,,,,,,,,,
41503,1620405943633,,,,,,,,0.01,-0.03,-0.42,-0,-0,-0,0.03,,74,8274,12,25,34,0.5,0.0,657,4.98,12.9,0.0,1,30.0,2.32,9.0,0,0,0,1,0,0,250,250,0,,,,,,,,,,,,,,,,
41523,1620405943653,,,,,,,,0.0,-0.04,-0.43,-0,-1,-1,0.04,,74,8252,12,25,35,0.5,0.0,658,4.98,12.8,0.0,1,30.3,1.21,9.0,0,0,0,1,0,0,250,250,0,,,,,,,,,,,,,,,,
41543,1620405943673,0,2,34,34,32,33,5,0.04,0.02,-0.41,-0,-0,-0,0.04,0,74,8263,12,25,34,0.5,0.0,663,4.97,12.8,0.0,1,30.0,2.31,9.0,0,0,0,1,0,0,250,250,0,45.845821,5.179007,0.0,218.7,7,3,2.5,0,0.0,-1,0.0,,0.0,0,0.0,0.6924
41563,1620405943693,,,,,,,,0.02,-0.04,-0.36,-0,-2,-1,0.04,,74,8267,12,25,35,0.5,0.0,667,4.99,12.8,0.0,1,30.3,2.32,9.0,0,0,0,1,0,0,250,250,0,,,,,,,,,,,,,,,,
41583,1620405943713,,,,,,,,0.02,0.0,-0.48,-0,-2,-1,0.02,,74,8285,12,25,35,0.5,0.0,661,4.96,12.7,0.0,1,30.3,2.39,9.0,0,0,0,1,0,0,250,250,0,,,,,,,,,,,,,,,,
41603,1620405943733,,,,,,,,0.01,-0.09,-0.61,-0,-1,-2,0.09,,74,8281,12,25,35,0.5,0.0,666,4.91,12.9,0.0,1,30.3,1.23,9.0,0,0,0,1,0,0,250,250,0,,,,,,,,,,,,,,,,
41623,1620405943753,,,,,,,,0.03,-0.05,-0.57,-0,1,-1,0.05,,74,8281,12,25,35,0.5,0.0,668,4.92,12.8,0.0,1,30.3,2.38,9.0,0,0,0,1,0,0,250,250,0,,,,,,,,,,,,,,,,
41643,1620405943773,0,0,34,34,32,33,4,0.02,-0.06,-0.68,-0,-0,-1,0.07,0,74,8292,12,25,35,0.5,0.0,671,4.97,12.8,0.0,1,30.3,1.24,9.0,0,0,0,1,0,0,250,250,0,45.845821,5.179007,0.0,218.7,7,3,2.5,0,0.0,-1,0.0,0.0,0.0,0,0.0,0.694
41663,1620405943793,,,,,,,,0.02,0.0,-0.46,-0,-1,-1,0.02,,74,8307,12,25,35,0.5,0.0,665,4.92,12.9,0.0,1,30.4,2.41,9.1,0,0,0,1,0,0,250,250,0,,,,,,,,,,,,,,,,
41683,1620405943813,,,,,,,,-0.01,-0.03,-0.59,-0,-1,-0,0.03,,74,8296,12,25,35,0.5,0.0,658,4.94,12.7,0.0,1,30.4,1.25,9.1,0,0,0,1,0,0,250,250,0,,,,,,,,,,,,,,,,
41703,1620405943833,,,,,,,,-0.02,0.03,-0.37,-0,-1,-1,0.04,,74,8292,12,25,35,0.5,0.0,659,4.92,12.9,0.0,1,30.3,2.39,9.1,0,0,0,1,0,0,250,250,0,,,,,,,,,,,,,,,,
41723,1620405943853,,,,,,,,-0.0,-0.01,-0.51,-0,-0,-0,0.01,,74,8303,12,25,35,0.5,0.0,662,4.98,12.8,0.0,1,30.4,2.4,9.1,0,0,0,1,0,0,250,250,0,,,,,,,,,,,,,,,,
41743,1620405943873,0,1,34,34,32,33,3,0.01,-0.01,-0.3,-0,-2,-1,0.01,0,75,8318,12,25,35,0.5,0.0,656,4.89,12.8,0.0,1,30.4,1.26,9.1,0,0,0,1,0,0,250,250,0,45.845821,5.179007,0.0,218.7,7,3,2.5,0,0.0,-1,0.0,,0.0,0,0.0,0.6957
41763,1620405943893,,,,,,,,-0.0,-0.06,-0.44,-0,-0,0,0.06,,75,8325,12,25,35,0.5,0.0,659,4.96,12.8,0.0,1,30.4,2.42,9.2,0,0,0,1,0,0,250,250,0,,,,,,,,,,,,,,,,
41783,1620405943913,,,,,,,,-0.02,-0.04,-0.24,-0,-1,-1,0.05,,75,8311,12,25,34,0.5,0.0,658,4.91,12.9,0.0,1,30.1,2.36,9.2,0,0,0,1,0,0,250,250,0,,,,,,,,,,,,,,,,
41803,1620405943933,,,,,,,,0.02,0.0,-0.38,-0,-0,-0,0.02,,75,8318,12,25,35,0.5,0.0,657,5.01,12.8,0.0,1,30.4,1.26,9.2,0,0,0,1,0,0,250,250,0,,,,,,,,,,,,,,,,
41823,1620405943953,,,,,,,,-0.02,-0.03,-0.18,-0,-3,-1,0.03,,75,8325,12,25,35,0.5,0.0,673,4.94,12.8,0.0,1,30.4,2.42,9.2,0,0,0,1,0,0,250,250,0,,,,,,,,,,,,,,,,
41843,1620405943973,-0,2,34,34,32,33,5,-0.01,0.02,-0.33,-0,-3,-1,0.02,0,75,8348,12,25,35,0.5,0.0,665,4.97,12.9,0.0,1,30.4,2.44,9.2,0,0,0,1,0,0,250,250,0,45.845821,5.179007,0.0,218.7,7,3,2.5,0,0.0,-1,0.0,0.0,0.0,0,0.0,0.6974
41863,1620405943993,,,,,,,,-0.01,-0.03,-0.47,-0,-2,-1,0.03,,75,8329,12,25,35,0.5,0.0,667,4.98,12.8,0.0,1,30.4,2.37,9.3,0,0,0,1,0,0,250,250,0,,,,,,,,,,,,,,,,
41883,1620405944001,,,,,,,,0.01,-0.0,-0.36,-0,-0,-1,0.01,,75,8333,12,25,34,0.5,0.0,660,4.92,12.9,0.0,1,30.1,2.43,9.3,0,0,0,1,0,0,250,250,0,,,,,,,,,,,,,,,,
41903,1620405944021,,,,,,,,0.0,-0.0,-0.5,-0,-1,-1,0.01,,75,8325,12,25,35,0.5,0.0,669,5.0,12.8,0.0,1,30.4,1.27,9.3,0,0,0,1,0,0,250,250,0,,,,,,,,,,,,,,,,
41923,1620405944041,,,,,,,,-0.01,0.04,-0.29,-0,-2,-1,0.05,,75,8351,12,25,34,0.5,0.0,654,4.92,12.9,0.0,1,30.2,2.4,9.3,0,0,0,1,0,0,250,250,0,,,,,,,,,,,,,,,,
41943,1620405944061,0,2,34,34,32,33,5,-0.03,0.04,-0.43,-0,-1,-0,0.04,0,75,8340,12,25,35,0.5,0.0,662,5.02,12.8,0.0,1,30.4,2.39,9.3,0,0,0,1,0,0,250,250,0,45.845821,5.179007,0.0,218.7,7,3,2.5,0,0.0,-1,0.0,,0.0,0,0.0,0.699
41963,1620405944091,,,,,,,,-0.03,0.04,-0.28,-0,-1,-2,0.05,,75,8333,12,25,34,0.5,0.0,661,4.95,12.8,0.0,1,30.1,2.38,9.2,0,0,0,1,0,0,250,250,0,,,,,,,,,,,,,,,,
41983,1620405944111,,,,,,,,0.01,0.04,-0.42,-0,0,-1,0.04,,75,8337,12,25,34,0.5,0.0,663,4.94,12.7,0.0,1,30.1,2.39,9.2,0,0,0,1,0,0,250,250,0,,,,,,,,,,,,,,,,
42003,1620405944131,,,,,,,,-0.03,0.02,-0.31,-0,-1,-1,0.03,,75,8348,12,25,34,0.5,0.0,662,4.94,12.9,0.0,1,30.1,1.25,9.2,0,0,0,1,0,0,250,250,0,,,,,,,,,,,,,,,,
42023,1620405944151,,,,,,,,-0.03,0.04,-0.41,-0,-1,0,0.05,,75,8333,12,25,34,0.5,0.0,660,4.97,12.8,0.0,1,30.1,2.38,9.2,0,0,0,1,0,0,250,250,0,,,,,,,,,,,,,,,,
42043,1620405944171,-1,2,34,34,32,33,4,-0.01,0.05,-0.48,-0,-0,0,0.05,0,75,8333,12,25,34,0.5,0.0,663,4.98,12.8,0.0,1,30.1,2.37,9.2,0,0,0,1,0,0,250,250,0,45.845821,5.179007,0.0,218.7,7,3,2.5,0,0.0,-1,0.0,0.0,0.0,0,0.0,0.7007
42063,1620405944191,,,,,,,,0.01,0.11,-0.32,-0,-1,-0,0.11,,75,8333,12,25,34,0.5,0.0,658,4.92,12.8,0.0,1,30.1,2.38,9.2,0,0,0,1,0,0,250,250,0,,,,,,,,,,,,,,,,
42083,1620405944211,,,,,,,,-0.01,0.06,-0.46,-0,-0,0,0.06,,75,8329,12,25,34,0.5,0.0,668,4.97,12.7,0.0,1,30.1,1.22,9.2,0,0,0,1,0,0,250,250,0,,,,,,,,,,,,,,,,
42103,1620405944231,,,,,,,,-0.01,0.07,-0.26,-0,-2,-0,0.07,,75,8337,12,25,34,0.5,0.0,663,4.92,12.8,0.0,1,30.1,1.24,9.2,0,0,0,1,0,0,250,250,0,,,,,,,,,,,,,,,,
42123,1620405944251,,,,,,,,-0.01,0.0,-0.4,-0,0,1,0.01,,75,8333,12,25,35,0.5,0.0,670,5.02,12.8,0.0,1,30.4,2.38,9.2,0,0,0,1,0,0,250,250,0,,,,,,,,,,,,,,,,
42143,1620405944271,0,2,34,34,32,33,5,-0.01,0.02,-0.2,-0,-0,-0,0.03,0,75,8337,12,25,34,0.5,0.0,664,4.97,12.8,0.0,1,30.1,2.39,9.2,0,0,0,1,0,0,250,250,0,45.845821,5.179007,0.0,218.7,7,3,2.5,0,0.0,-1,0.0,,0.0,0,0.0,0.7024
42163,1620405944292,,,,,,,,0.0,0.03,-0.35,-0,0,0,0.03,,75,8314,12,25,34,0.5,0.0,669,4.91,12.8,0.0,1,30.1,2.37,9.2,0,0,0,1,0,0,250,250,0,,,,,,,,,,,,,,,,
42183,1620405944312,,,,,,,,-0.01,0.02,-0.16,-0,-2,-1,0.02,,75,8314,12,25,34,0.5,0.0,658,4.92,12.9,0.0,1,30.1,1.22,9.2,0,0,0,1,0,0,250,250,0,,,,,,,,,,,,,,,,
42203,1620405944332,,,,,,,,0.0,0.05,-0.31,-0,-1,-0,0.05,,75,8289,12,25,34,0.5,0.0,660,4.88,12.9,0.0,1,30.0,2.39,9.2,0,0,0,1,0,0,250,250,0,,,,,,,,,,,,,,,,
42223,1620405944352,,,,,,,,-0.0,0.01,-0.33,-0,-0,-1,0.01,,75,8296,12,25,35,0.5,0.0,661,4.98,12.8,0.0,1,30.3,1.25,9.2,0,0,0,1,0,0,250,250,0,,,,,,,,,,,,,,,,
42243,1620405944372,0,1,34,34,32,33,4,0.03,0.02,-0.47,-0,1,-1,0.03,0,75,8311,12,25,34,0.5,0.0,663,4.9,12.9,0.0,1,30.1,2.41,9.2,0,0,0,1,0,0,250,250,0,45.845821,5.179007,0.0,218.7,7,3,2.5,0,0.0,-1,0.0,0.0,0.0,0,0.0,0.704
42263,1620405944391,,,,,,,,0.01,-0.01,-0.46,-0,1,-1,0.02,,75,8307,12,25,35,0.5,0.0,659,4.97,12.8,0.0,1,30.3,1.25,9.2,0,0,0,1,0,0,250,250,0,,,,,,,,,,,,,,,,
42283,1620405944411,,,,,,,,0.01,0.03,-0.43,-0,-1,-0,0.03,,75,8300,12,25,34,0.5,0.0,654,4.93,12.9,0.0,1,30.1,2.4,9.2,0,0,0,1,0,0,250,250,0,,,,,,,,,,,,,,,,
42303,1620405944431,,,,,,,,0.0,0.02,-0.56,-0,-0,-0,0.02,,75,8303,12,25,35,0.5,0.0,659,4.98,12.7,0.0,1,30.4,2.4,9.2,0,0,0,1,0,0,250,250,0,,,,,,,,,,,,,,,,
42323,1620405944451,,,,,,,,0.02,0.09,-0.36,-0,-0,-1,0.09,,75,8300,12,25,34,0.5,0.0,656,4.92,12.8,0.0,1,30.1,2.35,9.2,0,0,0,1,0,0,250,250,0,,,,,,,,,,,,,,,,
42343,1620405944471,1,2,34,34,32,33,4,0.01,0.02,-0.5,-0,1,0,0.02,0,75,8314,12,25,35,0.5,0.0,671,5.02,12.8,0.0,1,30.4,1.25,9.2,0,0,0,1,0,0,250,250,0,45.845821,5.179007,0.0,218.7,7,3,2.5,0,0.0,-1,0.0,,0.0,0,0.0,0.7057
42363,1620405944491,,,,,,,,0.01,0.05,-0.33,-0,-1,-1,0.05,,75,8307,12,25,35,0.5,0.0,663,4.9,12.9,0.0,1,30.4,2.41,9.0,0,0,0,1,0,0,250,250,0,,,,,,,,,,,,,,,,
42383,1620405944511,,,,,,,,-0.01,-0.05,-0.47,-0,1,0,0.05,,75,8300,12,25,34,0.5,0.0,665,4.91,12.8,0.0,1,30.1,2.34,9.0,0,0,0,1,0,0,250,250,0,,,,,,,,,,,,,,,,
42403,1620405944531,,,,,,,,0.01,-0.0,-0.26,-1,-0,-1,0.01,,75,8274,12,25,35,0.5,0.0,659,4.9,12.9,0.0,1,30.3,1.22,9.0,0,0,0,1,0,0,250,250,0,,,,,,,,,,,,,,,,
42423,1620405944551,,,,,,,,0.02,0.01,-0.41,-1,0,-0,0.02,,75,8296,12,25,35,0.5,0.0,668,4.92,12.8,0.0,1,30.3,2.4,9.0,0,0,0,1,0,0,250,250,0,,,,,,,,,,,,,,,,
42443,1620405944571,1,-0,34,34,32,33,5,0.03,0.0,-0.21,-0,-2,-2,0.03,0,75,8303,12,25,35,0.5,0.0,658,4.87,12.8,0.0,1,30.4,1.25,9.0,0,0,0,1,0,0,250,250,0,45.845821,5.179007,0.0,218.7,7,3,2.5,0,0.0,-1,0.0,0.0,0.0,0,0.0,0.7074
42463,1620405944591,,,,,,,,0.04,0.0,-0.36,-0,-1,-0,0.04,,75,8296,12,25,35,0.5,0.0,658,4.9,12.8,0.0,1,30.3,2.4,9.1,0,0,0,1,0,0,250,250,0,,,,,,,,,,,,,,,,
42483,1620405944610,,,,,,,,0.04,0.02,-0.21,-0,-1,-2,0.04,,75,8322,12,25,35,0.5,0.0,662,4.9,12.9,0.0,1,30.4,2.42,9.1,0,0,0,1,0,0,250,250,0,,,,,,,,,,,,,,,,
42503,1620405944630,,,,,,,,0.07,0.02,-0.36,-1,1,-0,0.07,,76,8303,12,25,35,0.5,0.0,656,4.9,12.9,0.0,1,30.4,2.4,9.1,0,0,0,1,0,0,250,250,0,,,,,,,,,,,,,,,,
42523,1620405944650,,,,,,,,0.02,0.01,-0.19,-1,1,-0,0.02,,76,8333,12,25,35,0.5,0.0,662,4.96,12.8,0.0,1,30.4,1.28,9.1,0,0,0,1,0,0,250,250,0,,,,,,,,,,,,,,,,
42543,1620405944670,0,2,34,34,32,33,3,0.01,0.03,-0.34,-0,-0,0,0.03,0,76,8322,12,25,35,0.5,0.0,656,4.94,12.9,0.0,1,30.4,2.42,9.1,0,0,0,1,0,0,250,250,0,45.845821,5.179007,0.0,218.7,7,3,2.5,0,0.0,-1,0.0,,0.0,0,0.0,0.709
42563,1620405944690,,,,,,,,0.02,0.03,-0.31,-0,1,0,0.04,,76,8340,12,25,34,0.5,0.0,663,4.97,12.8,0.0,1,30.1,2.39,9.3,0,0,0,1,0,0,250,250,0,,,,,,,,,,,,,,,,
42583,1620405944710,,,,,,,,0.04,0.09,-0.22,-1,0,-0,0.1,,76,8314,12,25,35,0.5,0.0,660,4.94,12.9,0.0,1,30.4,1.26,9.3,0,0,0,1,0,0,250,250,0,,,,,,,,,,,,,,,,
42603,1620405944730,,,,,,,,0.02,0.04,-0.37,-1,1,-0,0.04,,76,8337,12,25,35,0.5,0.0,670,4.94,12.7,0.0,1,30.4,1.28,9.3,0,0,0,1,0,0,250,250,0,,,,,,,,,,,,,,,,
42623,1620405944750,,,,,,,,0.01,0.06,-0.23,-1,-1,-1,0.06,,76,8355,12,25,34,0.5,0.0,655,4.9,12.8,0.0,1,30.2,1.26,9.3,0,0,0,1,0,0,250,250,0,,,,,,,,,,,,,,,,
42643,1620405944770,1,0,34,34,32,33,5,0.01,-0.01,-0.37,-1,1,1,0.02,0,76,8363,12,25,34,0.5,0.0,661,4.95,12.8,0.0,1,30.2,2.46,9.3,0,0,0,1,0,0,250,250,0,45.845821,5.179007,0.0,218.7,7,3,2.5,0,0.0,-1,0.0,0.0,0.0,0,0.0,0.7107
42663,1620405944790,,,,,,,,0.0,-0.0,-0.18,-1,0,0,0.0,,76,8344,12,25,34,0.5,0.0,660,4.98,12.8,0.0,1,30.1,1.25,9.3,0,0,0,1,0,0,250,250,0,,,,,,,,,,,,,,,,
42683,1620405944810,,,,,,,,0.02,0.02,-0.33,-1,1,0,0.03,,76,8340,12,26,34,0.5,0.0,664,4.91,12.9,0.0,1,30.1,2.39,9.3,0,0,0,1,0,0,250,250,0,,,,,,,,,,,,,,,,
42703,1620405944830,,,,,,,,-0.0,0.0,-0.13,-1,-1,-0,0.0,,76,8355,12,26,34,0.5,0.0,658,4.95,12.8,0.0,1,30.2,2.39,9.3,0,0,0,1,0,0,250,250,0,,,,,,,,,,,,,,,,
42723,1620405944850,,,,,,,,-0.03,0.01,-0.23,-1,-2,-0,0.03,,76,8374,12,26,34,0.5,0.0,662,4.9,12.9,0.0,1,30.2,1.27,9.3,0,0,0,1,0,0,250,250,0,,,,,,,,,,,,,,,,
42743,1620405944870,-0,1,34,34,32,33,5,-0.04,-0.04,-0.37,-1,-0,-0,0.06,0,76,8378,12,26,34,0.5,0.0,660,4.96,12.8,0.0,1,30.2,2.43,9.3,0,0,0,1,0,0,250,250,0,45.845821,5.179007,0.0,218.7,7,3,2.5,0,0.0,-1,0.0,,0.0,0,0.0,0.7124
42763,1620405944890,,,,,,,,-0.01,-0.0,-0.22,-1,-0,-1,0.01,,76,8366,12,26,34,0.5,0.0,655,4.88,12.9,0.0,1,30.2,1.27,9.3,0,0,0,1,0,0,250,250,0,,,,,,,,,,,,,,,,
42783,1620405944910,,,,,,,,-0.02,0.0,-0.37,-1,1,0,0.02,,76,8322,12,26,34,0.5,0.0,658,4.95,12.8,0.0,1,30.1,2.42,9.3,0,0,0,1,0,0,250,250,0,,,,,,,,,,,,,,,,
42803,1620405944930,,,,,,,,-0.01,0.02,-0.17,-1,-2,-1,0.03,,76,8322,12,26,34,0.5,0.0,662,4.98,12.8,0.0,1,30.1,1.22,9.3,0,0,0,1,0,0,250,250,0,,,,,,,,,,,,,,,,
42823,1620405944950,,,,,,,,-0.01,0.05,-0.19,-1,-1,-1,0.06,,76,8303,12,26,34,0.5,0.0,655,4.88,12.8,0.0,1,30.1,2.35,9.3,0,0,0,1,0,0,250,250,0,,,,,,,,,,,,,,,,
42843,1620405944970,1,0,34,34,32,33,4,-0.03,-0.02,-0.34,-1,-1,-1,0.04,0,76,8307,12,26,34,0.5,0.0,666,4.9,12.8,0.0,1,30.1,2.36,9.3,0,0,0,1,0,0,250,250,0,45.845821,5.179007,0.0,218.7,7,3,2.5,0,0.0,-1,0.0,0.0,0.0,0,0.0,0.714
42863,1620405944990,,,,,,,,-0.0,0.02,-0.15,-0,1,-0,0.02,,76,8296,12,26,34,0.5,0.0,661,4.92,12.9,0.0,1,30.0,2.35,9.1,0,0,0,1,0,0,250,250,0,,,,,,,,,,,,,,,,
42883,1620405945000,,,,,,,,0.0,0.02,-0.31,-0,0,-0,0.02,,76,8303,12,26,35,0.5,0.0,672,4.98,12.8,0.0,1,30.4,2.37,9.1,0,0,0,1,0,0,250,250,0,,,,,,,,,,,,,,,,
42903,1620405945020,,,,,,,,-0.01,0.05,-0.12,-0,-1,0,0.05,,76,8322,12,26,35,0.5,0.0,665,4.92,12.8,0.0,1,30.4,2.42,9.1,0,0,0,1,0,0,250,250,0,,,,,,,,,,,,,,,,
42923,1620405945040,,,,,,,,-0.03,0.02,-0.27,-0,-1,1,0.04,,76,8311,12,26,35,0.5,0.0,665,4.98,12.7,0.0,1,30.4,2.35,9.1,0,0,0,1,0,0,250,250,0,,,,,,,,,,,,,,,,
42943,1620405945060,1,0,34,34,32,33,4,-0.01,0.05,-0.12,-0,-1,0,0.05,0,76,8281,12,26,34,0.5,0.0,661,4.92,12.8,0.0,1,30.0,2.33,9.1,0,0,0,1,0,0,250,250,0,45.845821,5.179007,0.0,218.7,7,3,2.5,0,0.0,-1,0.0,,0.0,0,0.0,0.7157
42963,1620405945092,,,,,,,,0.01,0.03,-0.28,-0,0,1,0.04,,76,8296,12,26,35,0.5,0.0,660,4.95,12.8,0.0,1,30.3,1.24,8.9,0,0,0,1,0,0,250,250,0,,,,,,,,,,,,,,,,
42983,1620405945112,,,,,,,,-0.01,0.01,-0.09,-0,-2,-1,0.01,,76,8292,12,26,34,0.5,0.0,659,4.91,12.9,0.0,1,30.0,2.39,8.9,0,0,0,1,0,0,250,250,0,,,,,,,,,,,,,,,,
43003,1620405945132,,,,,,,,-0.0,0.01,-0.25,-0,0,1,0.01,,76,8289,12,26,35,0.5,0.0,658,5.08,12.8,0.0,1,30.3,1.24,8.9,0,0,0,1,0,0,250,250,0,,,,,,,,,,,,,,,,
43023,1620405945152,,,,,,,,-0.03,0.01,-0.06,-0,-0,-0,0.04,,76,8285,12,26,35,0.5,0.0,660,4.98,12.9,0.0,1,30.3,1.24,8.9,0,0,0,1,0,0,250,250,0,,,,,,,,,,,,,,,,
43043,1620405945172,0,1,34,34,32,33,3,-0.01,0.03,-0.22,-0,1,1,0.04,0,76,8296,12,26,35,0.5,0.0,666,5.02,12.8,0.0,1,30.3,2.4,8.9,0,0,0,1,0,0,250,250,0,45.845821,5.179007,0.0,218.7,7,3,2.5,0,0.0,-1,0.0,0.0,0.0,0,0.0,0.7174
43063,1620405945192,,,,,,,,-0.02,0.02,-0.03,-0,-3,-1,0.03,,76,8300,12,26,35,0.5,0.0,668,4.95,12.8,0.0,1,30.4,2.4,9.1,0,0,0,1,0,0,250,250,0,,,,,,,,,,,,,,,,
43083,1620405945212,,,,,,,,-0.01,0.07,-0.2,-0,-1,-0,0.07,,76,8300,12,26,35,0.5,0.0,670,4.95,12.8,0.0,1,30.4,2.4,9.1,0,0,0,1,0,0,250,250,0,,,,,,,,,,,,,,,,
43103,1620405945232,,,,,,,,-0.03,0.02,-0.35,-0,-1,-2,0.04,,76,8281,12,26,35,0.5,0.0,660,4.91,12.9,0.0,1,30.3,1.23,9.1,0,0,0,1,0,0,250,250,0,,,,,,,,,,,,,,,,
43123,1620405945252,,,,,,,,-0.02,0.02,-0.49,-0,1,-0,0.03,,76,8289,12,26,35,0.5,0.0,661,4.91,12.9,0.0,1,30.3,2.39,9.1,0,0,0,1,0,0,250,250,0,,,,,,,,,,,,,,,,
43143,1620405945272,0,0,34,34,32,33,4,-0.01,0.0,-0.45,-1,-0,-0,0.01,0,76,8292,12,26,35,0.5,0.0,660,4.95,12.9,0.0,1,30.3,1.24,9.1,0,0,0,1,0,0,250,250,0,45.845821,5.179007,0.0,218.7,7,3,2.5,0,0.0,-1,0.0,,0.0,0,0.0,0.719
43163,1620405945292,,,,,,,,-0.01,0.07,-0.33,-0,-0,1,0.07,,76,8318,12,26,35,0.5,0.0,653,4.91,12.9,0.0,1,30.4,2.41,9.1,0,0,0,1,0,0,250,250,0,,,,,,,,,,,,,,,,
43183,1620405945312,,,,,,,,-0.01,0.03,-0.47,-0,-1,0,0.04,,76,8311,12,26,35,0.5,0.0,658,4.95,12.9,0.0,1,30.4,2.42,9.1,0,0,0,1,0,0,250,250,0,,,,,,,,,,,,,,,,
43203,1620405945332,,,,,,,,0.01,0.11,-0.3,-0,-1,-0,0.11,,76,8311,12,26,35,0.5,0.0,661,4.95,12.9,0.0,1,30.4,1.26,9.1,0,0,0,1,0,0,250,250,0,,,,,,,,,,,,,,,,
43223,1620405945352,,,,,,,,-0.0,0.07,-0.44,-0,-1,-0,0.07,,76,8322,12,26,35,0.5,0.0,660,4.96,12.8,0.0,1,30.4,2.42,9.1,0,0,0,1,0,0,250,250,0,,,,,,,,,,,,,,,,
43243,1620405945372,-0,2,34,34,32,33,4,0.01,0.08,-0.24,-0,-3,-1,0.08,0,76,8344,12,26,35,0.5,0.0,654,4.91,12.8,0.0,1,30.4,2.44,9.1,0,0,0,1,0,0,250,250,0,45.845821,5.179007,0.0,218.7,7,3,2.5,0,0.0,-1,0.0,0.0,0.0,0,0.0,0.7207
43263,1620405945392,,,,,,,,0.01,0.03,-0.38,-0,-1,-0,0.03,,76,8351,12,26,35,0.5,0.0,658,4.97,12.8,0.0,1,30.5,1.29,9.3,0,0,0,1,0,0,250,250,0,,,,,,,,,,,,,,,,
43283,1620405945412,,,,,,,,-0.02,0.04,-0.18,-0,-1,-1,0.04,,76,8351,12,26,34,0.5,0.0,667,4.92,12.8,0.0,1,30.2,2.4,9.3,0,0,0,1,0,0,250,250,0,,,,,,,,,,,,,,,,
43303,1620405945432,,,,,,,,0.0,0.07,-0.32,-0,-0,0,0.07,,76,8348,12,26,35,0.5,0.0,660,4.92,12.8,0.0,1,30.4,2.44,9.3,0,0,0,1,0,0,250,250,0,,,,,,,,,,,,,,,,
43323,1620405945452,,,,,,,,0.01,0.04,-0.21,-0,-3,-1,0.04,,76,8359,12,26,34,0.5,0.0,662,4.88,12.8,0.0,1,30.2,1.26,9.3,0,0,0,1,0,0,250,250,0,,,,,,,,,,,,,,,,
43343,1620405945472,1,1,34,34,32,33,4,-0.0,0.06,-0.25,-0,-3,-1,0.06,0,76,8366,12,26,34,0.5,0.0,656,4.89,12.9,0.0,1,30.2,2.46,9.3,0,0,0,1,0,0,250,250,0,45.845821,5.179007,0.0,218.7,7,3,2.5,0,0.0,-1,0.0,,0.0,0,0.0,0.7224
43363,1620405945492,,,,,,,,-0.02,-0.02,-0.4,-0,-1,-1,0.03,,76,8370,12,26,34,0.5,0.0,665,4.98,12.8,0.0,1,30.2,1.28,9.5,0,0,0,1,0,0,250,250,0,,,,,,,,,,,,,,,,
43383,1620405945512,,,,,,,,0.01,0.01,-0.2,-0,-1,-1,0.02,,76,8381,12,26,34,0.5,0.0,660,4.92,12.9,0.0,1,30.2,1.28,9.5,0,0,0,1,0,0,250,250,0,,,,,,,,,,,,,,,,
43403,1620405945532,,,,,,,,0.02,0.04,-0.35,-0,-0,-0,0.04,,77,8385,12,26,34,0.5,0.0,669,4.97,12.8,0.0,1,30.2,2.43,9.5,0,0,0,1,0,0,250,250,0,,,,,,,,,,,,,,,,
43423,1620405945552,,,,,,,,-0.01,0.03,-0.16,-0,-3,-1,0.03,,77,8400,12,26,34,0.5,0.0,660,4.88,12.9,0.0,1,30.3,1.3,9.5,0,0,0,1,0,0,250,250,0,,,,,,,,,,,,,,,,
43443,1620405945572,0,2,34,34,32,33,4,-0.0,0.04,-0.3,-0,-2,-1,0.04,0,77,8393,12,26,34,0.5,0.0,658,4.91,12.9,0.0,1,30.2,2.44,9.5,0,0,0,1,0,0,250,250,0,45.845821,5.179007,0.0,218.7,7,3,2.5,0,0.0,-1,0.0,0.0,0.0,0,0.0,0.724
43463,1620405945591,,,,,,,,-0.01,-0.02,-0.44,-0,-1,-1,0.02,,77,8381,12,26,34,0.5,0.0,659,4.97,12.8,0.0,1,30.2,1.29,9.4,0,0,0,1,0,0,250,250,0,,,,,,,,,,,,,,,,
43483,1620405945611,,,,,,,,0.01,-0.0,-0.24,-0,-1,-2,0.01,,77,8404,12,26,34,0.5,0.0,657,4.93,12.9,0.0,1,30.3,1.3,9.4,0,0,0,1,0,0,250,250,0,,,,,,,,,,,,,,,,
43503,1620405945631,,,,,,,,0.01,-0.01,-0.38,-0,-0,-1,0.01,,77,8381,12,26,34,0.5,0.0,663,4.96,12.8,0.0,1,30.2,2.43,9.4,0,0,0,1,0,0,250,250,0,,,,,,,,,,,,,,,,
43523,1620405945651,,,,,,,,-0.0,-0.03,-0.19,-0,-3,-2,0.03,,77,8393,12,26,34,0.5,0.0,660,4.9,12.8,0.0,1,30.2,1.29,9.4,0,0,0,1,0,0,250,250,0,,,,,,,,,,,,,,,,
43543,1620405945671,1,0,34,34,32,33,4,-0.0,-0.0,-0.34,-0,-2,-1,0.0,0,77,8366,12,26,34,0.5,0.0,653,4.9,12.9,0.0,1,30.2,2.42,9.4,0,0,0,1,0,0,250,250,0,45.845821,5.179007,0.0,218.7,7,3,2.5,0,0.0,-1,0.0,,0.0,0,0.0,0.7257
43563,1620405945691,,,,,,,,-0.01,-0.05,-0.48,-0,-2,-3,0.05,,77,8366,12,26,34,0.5,0.0,666,4.98,12.8,0.0,1,30.2,1.27,9.3,0,0,0,1,0,0,250,250,0,,,,,,,,,,,,,,,,
43583,1620405945711,,,,,,,,0.03,-0.03,-0.46,-0,-1,-2,0.04,,77,8344,12,26,34,0.5,0.0,665,4.96,12.8,0.0,1,30.1,1.25,9.3,0,0,0,1,0,0,250,250,0,,,,,,,,,,,,,,,,
43603,1620405945731,,,,,,,,0.02,-0.04,-0.59,-0,-1,-1,0.05,,77,8322,12,26,34,0.5,0.0,671,4.94,12.8,0.0,1,30.1,2.39,9.3,0,0,0,1,0,0,250,250,0,,,,,,,,,,,,,,,,
43623,1620405945751,,,,,,,,0.01,0.01,-0.37,-0,-3,-2,0.01,,77,8314,12,26,34,0.5,0.0,655,4.92,12.9,0.0,1,30.1,2.37,9.3,0,0,0,1,0,0,250,250,0,,,,,,,,,,,,,,,,
43643,1620405945771,-1,2,34,34,32,33,5,-0.03,-0.01,-0.51,-0,-1,-1,0.03,0,77,8318,12,26,34,0.5,0.0,663,4.98,12.8,0.0,1,30.1,2.37,9.3,0,0,0,1,0,0,250,250,0,45.845821,5.179007,0.0,218.7,7,3,2.5,0,0.0,-1,0.0,0.0,0.0,0,0.0,0.7274
43663,1620405945791,,,,,,,,-0.01,0.01,-0.3,-0,-1,-2,0.01,,77,8325,12,26,34,0.5,0.0,661,4.88,12.9,0.0,1,30.1,1.23,9.1,0,0,0,1,0,0,250,250,0,,,,,,,,,,,,,,,,
43683,1620405945811,,,,,,,,0.02,-0.02,-0.44,-0,-0,-1,0.02,,77,8329,12,26,35,0.5,0.0,661,4.98,12.8,0.0,1,30.4,1.27,9.1,0,0,0,1,0,0,250,250,0,,,,,,,,,,,,,,,,
43703,1620405945831,,,,,,,,-0.03,-0.02,-0.24,-0,-1,-1,0.03,,77,8337,12,26,34,0.5,0.0,663,4.96,12.8,0.0,1,30.1,2.39,9.1,0,0,0,1,0,0,250,250,0,,,,,,,,,,,,,,,,
43723,1620405945851,,,,,,,,-0.03,-0.01,-0.39,-0,-0,-0,0.03,,77,8351,12,26,35,0.5,0.0,659,4.98,12.8,0.0,1,30.5,2.44,9.1,0,0,0,1,0,0,250,250,0,,,,,,,,,,,,,,,,
43743,1620405945871,1,0,34,34,32,33,5,-0.03,-0.0,-0.36,-0,-1,-0,0.03,0,77,8322,12,26,35,0.5,0.0,664,4.99,12.8,0.0,1,30.4,2.42,9.1,0,0,0,1,0,0,250,250,0,45.845821,5.179007,0.0,218.7,7,3,2.5,0,0.0,-1,0.0,,0.0,0,0.0,0.729
43763,1620405945892,,,,,,,,0.01,0.04,-0.28,-1,-0,-0,0.04,,77,8329,12,26,35,0.5,0.0,660,4.94,12.8,0.0,1,30.4,2.42,9.2,0,0,0,1,0,0,250,250,0,,,,,,,,,,,,,,,,
43783,1620405945912,,,,,,,,-0.01,0.0,-0.42,-1,-0,-1,0.02,,77,8322,12,26,34,0.5,0.0,665,4.93,12.8,0.0,1,30.1,2.37,9.2,0,0,0,1,0,0,250,250,0,,,,,,,,,,,,,,,,
43803,1620405945932,,,,,,,,-0.02,0.02,-0.32,-1,-2,-1,0.03,,77,8322,12,26,34,0.5,0.0,656,4.93,12.8,0.0,1,30.1,2.42,9.2,0,0,0,1,0,0,250,250,0,,,,,,,,,,,,,,,,
43823,1620405945952,,,,,,,,-0.02,-0.06,-0.46,-1,-0,-1,0.07,,77,8314,12,26,35,0.5,0.0,667,4.96,12.8,0.0,1,30.4,2.41,9.2,0,0,0,1,0,0,250,250,0,,,,,,,,,,,,,,,,
43843,1620405945972,-0,2,34,34,32,33,4,0.01,-0.04,-0.26,-1,-0,-1,0.04,0,77,8318,12,26,35,0.5,0.0,658,4.9,12.9,0.0,1,30.4,1.26,9.2,0,0,0,1,0,0,250,250,0,45.845821,5.179007,0.0,218.7,7,3,2.5,0,0.0,-1,0.0,0.0,0.0,0,0.0,0.7307
43863,1620405945992,,,,,,,,-0.0,-0.03,-0.4,-1,1,-0,0.03,,77,8314,12,26,35,0.5,0.0,667,4.96,12.8,0.0,1,30.4,2.41,9.2,0,0,0,1,0,0,250,250,0,,,,,,,,,,,,,,,,
43883,1620405945999,,,,,,,,-0.01,-0.03,-0.2,-0,-2,-1,0.03,,77,8329,12,26,35,0.5,0.0,658,4.92,12.9,0.0,1,30.4,2.42,9.2,0,0,0,1,0,0,250,250,0,,,,,,,,,,,,,,,,
43903,1620405946019,,,,,,,,0.03,-0.01,-0.35,-0,-1,-0,0.03,,77,8340,12,26,35,0.5,0.0,665,5.0,12.8,0.0,1,30.4,1.28,9.2,0,0,0,1,0,0,250,250,0,,,,,,,,,,,,,,,,
43923,1620405946039,,,,,,,,-0.01,-0.01,-0.34,-1,-0,-1,0.01,,77,8337,12,26,35,0.5,0.0,661,4.96,12.8,0.0,1,30.4,2.43,9.2,0,0,0,1,0,0,250,250,0,,,,,,,,,,,,,,,,
43943,1620405946059,1,2,34,34,32,33,4,0.01,-0.02,-0.47,-1,1,-1,0.03,0,77,8344,12,26,35,0.5,0.0,666,4.91,12.9,0.0,1,30.4,1.29,9.2,0,0,0,1,0,0,250,250,0,45.845821,5.179007,0.0,218.7,7,3,2.5,0,0.0,-1,0.0,,0.0,0,0.0,0.7324
43963,1620405946091,,,,,,,,0.01,-0.02,-0.57,-1,0,-0,0.02,,77,8355,12,26,35,0.5,0.0,662,4.95,12.8,0.0,1,30.5,2.46,9.5,0,0,0,1,0,0,250,250,0,,,,,,,,,,,,,,,,
43983,1620405946111,,,,,,,,-0.0,0.01,-0.39,-0,-2,-1,0.01,,77,8374,12,26,35,0.5,0.0,660,4.92,12.9,0.0,1,30.5,2.47,9.5,0,0,0,1,0,0,250,250,0,,,,,,,,,,,,,,,,
44003,1620405946131,,,,,,,,-0.04,-0.0,-0.52,-0,-0,0,0.04,,77,8400,13,26,36,0.5,0.0,662,4.98,12.8,0.0,1,30.9,1.39,9.5,0,0,0,1,0,0,250,250,0,,,,,,,,,,,,,,,,
44023,1620405946151,,,,,,,,-0.0,0.02,-0.4,-0,-0,-1,0.02,,77,8381,13,26,36,0.5,0.0,663,4.94,12.8,0.0,1,30.8,2.47,9.5,0,0,0,1,0,0,250,250,0,,,,,,,,,,,,,,,,
44043,1620405946171,0,0,34,34,32,33,3,0.01,0.02,-0.53,-0,1,-0,0.03,0,77,8400,13,26,36,0.5,0.0,670,4.96,12.7,0.0,1,30.9,2.54,9.5,0,0,0,1,0,0,250,250,0,45.845821,5.179007,0.0,218.7,7,3,2.5,0,0.0,-1,0.0,0.0,0.0,0,0.0,0.734
44063,1620405946191,,,,,,,,-0.01,0.02,-0.65,-0,0,0,0.03,,77,8438,13,26,36,0.5,0.0,671,4.94,12.8,0.0,1,30.9,1.42,10.0,0,0,0,1,0,0,250,250,0,,,,,,,,,,,,,,,,
44083,1620405946211,,,,,,,,-0.03,0.03,-0.43,-0,-2,-0,0.05,,77,8472,13,26,36,0.5,0.0,665,4.93,12.9,0.0,1,31.0,2.61,10.0,0,0,0,1,0,0,250,250,0,,,,,,,,,,,,,,,,
44103,1620405946231,,,,,,,,-0.04,0.04,-0.56,-0,-1,-0,0.05,,77,8480,13,26,36,0.5,0.0,677,4.96,12.8,0.0,1,31.0,2.61,10.0,0,0,0,1,0,0,250,250,0,,,,,,,,,,,,,,,,
44123,1620405946251,,,,,,,,-0.05,0.02,-0.68,-1,0,-1,0.05,,77,8522,13,26,36,0.5,0.0,672,4.92,12.8,0.0,1,31.1,2.64,10.0,0,0,0,1,0,0,250,250,0,,,,,,,,,,,,,,,,
44143,1620405946271,1,1,34,34,32,33,4,-0.01,0.02,-0.51,-1,0,-1,0.03,0,77,8549,13,26,36,0.5,0.0,665,4.92,12.9,0.0,1,31.1,2.64,10.0,0,0,0,1,0,0,250,250,0,45.845821,5.179007,0.0,218.7,7,3,2.5,0,0.0,-1,0.0,,0.0,0,0.0,0.7357
44163,1620405946291,,,,,,,,0.0,0.02,-0.55,-0,-1,-1,0.02,,77,8600,13,26,37,0.5,0.0,664,4.96,12.9,0.0,1,31.4,2.68,10.6,0,0,0,1,0,0,250,250,0,,,,,,,,,,,,,,,,
44183,1620405946311,,,,,,,,-0.01,-0.01,-0.67,-0,-0,-0,0.02,,77,8644,14,26,37,0.5,0.0,670,4.97,12.7,0.0,1,31.4,2.68,10.6,0,0,0,1,0,0,250,250,0,,,,,,,,,,,,,,,,
44203,1620405946331,,,,,,,,-0.03,0.01,-0.75,-0,-0,0,0.03,,77,8700,14,26,37,0.5,0.0,667,4.96,12.8,0.0,1,31.4,1.53,10.6,0,0,0,1,0,0,250,250,0,,,,,,,,,,,,,,,,
44223,1620405946351,,,,,,,,-0.06,0.02,-0.52,-0,-2,-1,0.07,,77,8749,14,26,36,0.5,0.0,666,4.95,12.8,0.0,1,31.1,2.64,10.6,0,0,0,1,0,0,250,250,0,,,,,,,,,,,,,,,,
44243,1620405946371,-0,2,34,34,32,33,5,-0.07,0.02,-0.31,-0,-3,-2,0.08,0,77,8790,14,26,37,0.5,0.0,663,4.93,12.9,0.0,1,31.4,1.53,10.6,0,0,0,1,0,0,250,250,0,45.845821,5.179007,0.0,218.7,7,3,2.5,0,0.0,-1,0.0,0.0,0.0,0,0.0,0.7374
44263,1620405946391,,,,,,,,-0.08,-0.03,-0.45,-0,-3,-2,0.09,,77,8823,14,26,37,0.5,0.0,663,4.97,12.9,0.0,1,31.4,2.68,10.9,0,0,0,1,0,0,250,250,0,,,,,,,,,,,,,,,,
44283,1620405946407,,,,,,,,-0.06,-0.04,-0.58,-0,-3,-1,0.07,,77,8877,14,26,38,0.5,0.0,664,4.92,12.8,0.0,1,31.7,2.72,10.9,0,0,0,1,0,0,250,250,0,,,,,,,,,,,,,,,,
44303,1620405946427,,,,,,,,-0.01,-0.05,-0.7,-0,-1,0,0.05,,77,8928,15,26,38,0.5,0.0,675,4.84,12.8,0.0,1,31.7,2.72,10.9,0,0,0,1,0,0,250,250,0,,,,,,,,,,,,,,,,
44323,1620405946447,,,,,,,,-0.01,-0.03,-0.81,-0,0,2,0.03,,77,8954,15,26,39,0.5,0.0,670,4.9,12.8,0.0,1,32.0,2.72,10.9,0,0,0,1,0,0,250,250,0,,,,,,,,,,,,,,,,
44343,1620405946467,1,1,34,34,32,33,4,0.02,-0.07,-0.91,-0,2,3,0.07,0,77,9014,15,26,39,0.5,0.0,676,4.8,12.8,0.0,1,32.0,2.77,10.9,0,0,0,1,0,0,250,250,0,45.845821,5.179007,0.0,218.7,7,3,2.5,0,0.0,-1,0.0,,0.0,0,0.0,0.739
44363,1620405946493,,,,,,,,0.03,-0.03,-1.0,-1,3,4,0.04,,77,9062,16,26,40,0.5,0.0,681,4.91,12.7,0.0,1,32.6,2.8,11.5,0,0,0,1,0,0,250,250,0,,,,,,,,,,,,,,,,
44383,1620405946513,,,,,,,,0.06,-0.07,-1.08,-1,4,4,0.09,,77,9159,16,26,40,0.5,0.0,677,4.88,12.7,0.0,1,32.6,2.81,11.5,0,0,0,1,0,0,250,250,0,,,,,,,,,,,,,,,,
44403,1620405946533,,,,,,,,0.01,-0.08,-1.0,-1,3,3,0.08,,77,9254,16,26,41,0.5,0.0,675,4.95,12.8,0.0,1,33.3,2.85,11.5,0,0,0,1,0,0,250,250,0,,,,,,,,,,,,,,,,
44423,1620405946553,,,,,,,,-0.01,-0.1,-0.75,-0,1,2,0.1,,77,9323,16,26,41,0.5,0.0,669,5.06,12.8,0.0,1,33.4,1.7,11.5,0,0,0,1,0,0,250,250,0,,,,,,,,,,,,,,,,
44443,1620405946573,1,2,34,34,32,33,4,-0.05,-0.09,-0.65,-1,1,3,0.1,0,77,9455,16,26,41,0.5,0.0,683,4.9,12.8,0.0,1,33.4,2.86,11.5,0,0,0,1,0,0,250,250,0,45.845821,5.179007,0.0,218.7,7,3,2.5,0,0.0,-1,0.0,0.0,0.0,0,0.0,0.7407
44463,1620405946592,,,,,,,,-0.01,-0.07,-0.76,-1,0,3,0.07,,77,9566,16,26,41,0.5,0.0,675,4.86,12.8,0.0,1,33.5,2.87,12.6,0,0,0,1,0,0,250,250,0,,,,,,,,,,,,,,,,
44483,1620405946612,,,,,,,,-0.07,-0.06,-0.53,-1,-0,1,0.09,,78,9699,16,26,41,0.5,0.0,678,4.87,12.9,0.0,1,33.5,2.88,12.6,0,0,0,1,0,0,250,250,0,,,,,,,,,,,,,,,,
44503,1620405946632,,,,,,,,0.01,0.03,-0.65,-1,1,2,0.03,,78,9858,16,26,40,0.5,0.0,693,4.98,12.8,0.0,1,32.7,1.71,12.6,0,0,0,1,0,0,250,250,0,,,,,,,,,,,,,,,,
44523,1620405946652,,,,,,,,-0.06,-0.01,-0.43,-1,1,1,0.06,,78,9962,16,26,40,0.5,0.0,696,4.93,12.8,0.0,1,32.7,2.86,12.6,0,0,0,1,0,0,250,250,0,,,,,,,,,,,,,,,,
44543,1620405946672,1,1,34,34,32,33,4,-0.05,-0.06,-0.23,-1,-1,-2,0.08,0,78,10048,16,26,39,0.5,0.0,696,4.93,12.8,0.0,1,32.0,1.68,12.6,0,0,0,1,0,0,250,250,0,45.845821,5.179007,0.0,218.7,7,3,2.5,0,0.0,-1,0.0,,0.0,0,0.0,0.7424
44563,1620405946692,,,,,,,,-0.11,-0.09,-0.04,-1,-1,-0,0.14,,78,10113,16,26,39,0.5,0.0,688,4.92,12.8,0.0,1,32.0,2.83,13.2,0,0,0,1,0,0,250,250,0,,,,,,,,,,,,,,,,
44583,1620405946712,,,,,,,,-0.09,-0.08,-0.2,-1,1,1,0.12,,78,10162,16,26,39,0.5,0.0,691,4.95,12.8,0.0,1,32.0,2.83,13.2,0,0,0,1,0,0,250,250,0,,,,,,,,,,,,,,,,
44603,1620405946732,,,,,,,,-0.03,-0.08,-0.35,-1,-0,-0,0.08,,78,10162,16,26,39,0.5,0.0,691,4.94,13.0,0.0,1,32.0,2.83,13.2,0,0,0,1,0,0,250,250,0,,,,,,,,,,,,,,,,
44623,1620405946752,,,,,,,,-0.11,-0.1,-0.16,-1,-0,-1,0.15,,78,9899,16,26,39,0.5,0.0,693,4.98,13.0,0.0,1,32.0,1.67,13.2,0,0,0,1,0,0,250,250,0,,,,,,,,,,,,,,,,
44643,1620405946772,-1,2,34,34,32,33,4,-0.05,-0.05,-0.31,-1,0,-0,0.07,0,78,9674,16,26,39,0.501,0.0,686,4.97,13.0,0.0,1,32.0,2.81,13.2,0,0,0,1,0,0,250,250,0,45.845821,5.179007,0.0,218.7,7,3,2.5,0,0.0,-1,0.0,0.0,0.0,0,0.0,0.7441
44663,1620405946792,,,,,,,,0.12,-0.08,-0.24,-0,-4,-2,0.14,,78,9412,16,26,41,0.501,0.0,676,4.9,12.8,0.0,1,33.4,2.83,12.5,0,0,0,1,0,0,250,250,0,,,,,,,,,,,,,,,,
44683,1620405946812,,,,,,,,0.27,-0.19,-0.29,-0,-3,-2,0.34,,78,9195,16,26,42,0.502,0.0,678,4.9,13.0,0.0,1,33.9,2.87,12.5,0,0,0,1,0,0,250,250,0,,,,,,,,,,,,,,,,
44703,1620405946832,,,,,,,,0.08,-0.19,-0.44,-0,-1,-3,0.21,,78,9093,14,26,42,0.502,0.0,672,4.87,12.8,0.0,1,33.9,1.71,12.5,0,0,0,1,0,0,250,250,0,,,,,,,,,,,,,,,,
44723,1620405946852,,,,,,,,0.01,-0.22,-0.44,-0,-0,-3,0.22,,78,9164,13,26,41,0.502,0.0,674,5.0,12.9,0.0,1,33.3,2.87,12.5,0,0,0,1,0,0,250,250,0,,,,,,,,,,,,,,,,
44743,1620405946872,0,0,34,32,32,33,4,0.1,-0.19,-0.57,-0,-1,-3,0.22,0,78,9250,14,26,41,0.502,0.0,683,4.93,12.8,0.0,1,33.3,2.85,12.5,0,0,0,1,0,0,250,250,0,45.845821,5.179007,0.0,218.7,7,3,2.5,0,0.0,-1,0.0,,0.0,0,0.0,0.7457
44763,1620405946892,,,,,,,,0.12,-0.13,-0.69,-0,1,-0,0.18,,78,9365,15,26,41,0.502,0.0,685,4.93,12.8,0.0,1,33.4,2.85,12.3,0,0,0,1,0,0,250,250,0,,,,,,,,,,,,,,,,
44783,1620405946912,,,,,,,,0.02,-0.14,-0.69,-0,2,-0,0.14,,78,9474,15,26,40,0.502,0.0,683,4.93,12.8,0.0,1,32.7,2.86,12.3,0,0,0,1,0,0,250,250,0,,,,,,,,,,,,,,,,
44803,1620405946932,,,,,,,,-0.01,-0.17,-0.63,-0,1,-1,0.17,,78,9566,15,26,40,0.502,0.0,682,4.98,12.9,0.0,1,32.7,2.84,12.3,0,0,0,1,0,0,250,250,0,,,,,,,,,,,,,,,,
44823,1620405946952,,,,,,,,0.15,-0.17,-0.74,-0,-0,0,0.23,,78,9699,15,26,40,0.502,0.0,686,4.92,12.8,0.0,1,32.7,2.81,12.3,0,0,0,1,0,0,250,250,0,,,,,,,,,,,,,,,,
44843,1620405946972,1,0,34,35,32,33,4,0.14,-0.2,-0.51,-0,-3,-2,0.24,0,78,9811,16,26,39,0.502,0.0,684,4.88,12.9,0.0,1,32.0,1.67,12.3,0,0,0,1,0,0,250,250,0,45.845821,5.179007,0.0,218.7,7,3,2.5,0,0.0,-1,0.0,0.0,0.0,0,0.0,0.7474
44863,1620405946992,,,,,,,,0.12,-0.16,-0.64,-0,1,0,0.2,,78,9936,17,26,40,0.501,0.0,685,4.96,12.8,0.0,1,32.7,2.82,12.9,0,0,0,1,0,0,250,250,0,,,,,,,,,,,,,,,,
44883,1620405947000,,,,,,,,0.1,-0.17,-0.72,-1,1,-1,0.2,,78,10048,18,26,40,0.501,0.0,687,4.93,12.9,0.0,1,32.7,2.87,12.9,0,0,0,1,0,0,250,250,0,,,,,,,,,,,,,,,,
44903,1620405947020,,,,,,,,0.07,-0.2,-0.58,-1,-0,-3,0.22,,78,10168,19,26,41,0.5,0.0,698,4.97,12.9,0.0,1,33.5,2.92,12.9,0,0,0,1,0,0,250,250,0,,,,,,,,,,,,,,,,
44923,1620405947040,,,,,,,,0.02,-0.25,-0.36,-0,-1,-2,0.25,,78,10319,19,26,42,0.5,0.0,686,4.9,12.9,0.0,1,34.2,2.96,12.9,0,0,0,1,0,0,250,250,0,,,,,,,,,,,,,,,,
44943,1620405947060,1,1,33,35,32,33,4,0.05,-0.3,-0.26,-0,-1,-1,0.3,0,78,10463,19,26,42,0.5,0.0,687,4.91,12.9,0.0,1,34.2,2.96,12.9,0,0,0,1,0,0,250,250,0,45.845821,5.179007,0.0,218.7,7,3,2.5,0,0.0,-1,0.0,,0.0,0,0.0,0.749
44963,1620405947092,,,,,,,,0.01,-0.4,-0.11,-0,-1,-1,0.4,,78,10617,20,26,43,0.5,0.0,691,4.92,12.9,0.0,1,35.0,2.97,14.4,0,0,0,1,0,0,250,8195,0,,,,,,,,,,,,,,,,
44983,1620405947112,,,,,,,,0.05,-0.47,-0.12,-0,-2,-3,0.47,,78,10738,20,26,43,0.5,0.0,700,4.93,12.8,0.0,1,35.0,1.88,14.4,0,0,0,1,0,0,250,8195,0,,,,,,,,,,,,,,,,
45003,1620405947132,,,,,,,,0.04,-0.4,-0.24,-0,-2,-1,0.41,,78,10875,20,26,44,0.5,0.0,692,4.92,12.8,0.0,1,35.7,3.08,14.4,0,0,0,1,0,0,250,8195,0,,,,,,,,,,,,,,,,
45023,1620405947152,,,,,,,,0.06,-0.32,-0.38,-0,-1,-0,0.32,,78,10990,20,26,44,0.5,0.0,694,4.94,12.8,0.0,1,35.7,1.94,14.4,0,0,0,1,0,0,250,8195,0,,,,,,,,,,,,,,,,
45043,1620405947172,-1,2,34,34,32,33,4,0.02,-0.28,-0.41,-0,-1,-1,0.28,0,78,11094,20,26,45,0.5,0.0,706,4.92,12.8,0.0,1,36.5,3.13,14.4,0,0,0,1,0,0,250,8195,0,45.845821,5.179007,0.0,218.7,7,3,2.5,0,0.0,-1,0.0,0.0,0.0,0,0.0,0.7507
45063,1620405947192,,,,,,,,0.02,-0.33,-0.34,0,-3,-2,0.33,,78,11220,20,26,45,0.5,0.0,708,4.93,12.8,0.0,1,36.5,3.13,16.2,0,0,0,1,0,0,250,8195,0,,,,,,,,,,,,,,,,
