"Interval"|"ms"|0|0|1,"Utc"|"ms"|0|0|1,"Brake_F"|"Bar"|0|2000|10,"Brake_R"|"Bar"|0|2000|10,"Height_RF"|"mm"|0|255|10,"Height_LF"|"mm"|0|255|10,"Height_LR"|"mm"|0|80|10,"Height_RR"|"mm"|0|255|10,"Steering"|"deg"|-100|100|10,"AccelX"|"G"|-3.0|3.0|50,"AccelY"|"G"|-3.0|3.0|50,"AccelZ"|"G"|-3.0|3.0|50,"Yaw"|"Deg/Sec"|-120|120|50,"Pitch"|"Deg/Sec"|-120|120|50,"Roll"|"Deg/Sec"|-120|120|50,"Gsum"|"G"|0.0|3.0|50,"Log_Button"|""|0.0|10.0|10,"WaterTemp"|"C"|0|150|50,"RPM"|"tr/min"|0|14000|50,"TPS"|"%"|0|100|50,"AirTemp"|"C"|0|150|50,"MAP"|"KPa"|0|100|50,"Lambda"|""|0.5|1.5|50,"SpeedDTA"|"kph"|0.0|250.0|50,"OilPress"|"KPa"|0|1500|50,"FuelPressur"|"Bar"|0.0|10.0|50,"Batterie"|"V"|0.0|20.0|50,"ConsoKm"|"L/100km"|0.0|200.0|50,"Gear"|""|0|6|50,"AdvIgnition"|"Deg"|-20.0|70.0|50,"Injection"|"ms"|0.0|10.0|50,"ConsoHr"|"L/Hr"|0.0|10000.0|50,"LC_But_Pres"|""|0|1|50,"LC_Active"|""|0|1|50,"TractionOn"|""|0|1|50,"TractionWet"|""|0|1|50,"FanOn"|""|0|1|50,"RD_Speed"|"km/h"|-30|250|50,"RUD_Speed"|"km/h"|-30|250|50,"LD_Speed"|"km/h"|-30|250|50,"LUD_Speed"|"km/h"|-30|250|50,"Latitude"|"Degrees"|-180.0|180.0|10,"Longitude"|"Degrees"|-180.0|180.0|10,"Speed"|"kph"|0.0|150.0|10,"Altitude"|"m"|0.0|4000.0|10,"GPSSats"|""|0|20|10,"GPSQual"|""|0|5|10,"GPSDOP"|""|0.0|20.0|10,"LapCount"|""|0|0|10,"LapTime"|"Min"|0.0|0.0|10,"Sector"|""|0|0|10,"SectorTime"|"Min"|0.0|0.0|10,"PredTime"|"Min"|0.0|0.0|5,"ElapsedTime"|"Min"|0.0|0.0|10,"CurrentLap"|""|0|0|10,"Distance"|"km"|0.0|0.0|10,"SessionTime"|"Min"|0.0|0.0|10
16063,0,,,,,,,,-0.04,0.08,-0.38,-0,1,0,0.09,,67,8187,12,25,35,0.5,0.0,676,4.85,12.9,0.0,1,30.1,1.14,8.5,0,0,0,1,0,0,250,250,0,,,,,,,,,,,,,,,,
16083,0,,,,,,,,-0.03,0.01,-0.41,-0,2,0,0.03,,67,8191,12,25,35,0.5,0.0,672,4.86,12.9,0.0,1,30.1,2.34,8.5,0,0,0,1,0,0,250,250,0,,,,,,,,,,,,,,,,
16103,0,,,,,,,,-0.02,0.07,-0.52,-0,-0,-0,0.07,,67,8227,12,25,35,0.5,0.0,671,4.86,13.0,0.0,1,30.2,2.33,8.5,0,0,0,1,0,0,250,250,0,,,,,,,,,,,,,,,,
16123,0,,,,,,,,-0.05,-0.02,-0.64,-1,1,0,0.06,,67,8234,12,25,35,0.5,0.0,671,4.93,12.8,0.0,1,30.2,1.18,8.9,0,0,0,1,0,0,250,250,0,,,,,,,,,,,,,,,,
16143,0,-1,2,32,34,32,33,-0,-0.02,0.01,-0.73,-0,2,-0,0.02,1,67,8245,12,25,35,0.5,0.0,670,4.95,12.9,0.0,1,30.2,2.34,8.9,0,0,0,1,0,0,250,250,0,0.0,0.0,0.0,0.0,0,0,0.0,0,0.0,-1,0.0,,0.0,0,0.0,0.269
16163,0,,,,,,,,-0.01,-0.02,-0.76,-0,3,-0,0.02,,67,8252,12,25,35,0.5,0.0,676,4.97,12.8,0.0,1,30.3,2.35,8.9,0,0,0,1,0,0,250,250,0,,,,,,,,,,,,,,,,
16183,0,,,,,,,,0.02,0.03,-0.82,-0,1,-0,0.03,,67,8281,12,25,35,0.5,0.0,673,4.91,12.9,0.0,1,30.3,2.38,8.9,0,0,0,1,0,0,250,250,0,,,,,,,,,,,,,,,,
16203,0,,,,,,,,0.01,0.02,-0.91,-0,1,0,0.02,,67,8267,12,25,35,0.5,0.0,673,4.91,12.8,0.0,1,30.3,2.37,8.9,0,0,0,1,0,0,250,250,0,,,,,,,,,,,,,,,,
16223,0,,,,,,,,0.0,0.03,-0.79,-0,1,-1,0.03,,67,8274,12,25,35,0.5,0.0,673,4.92,12.9,0.0,1,30.3,1.22,9.1,0,0,0,1,0,0,250,250,0,,,,,,,,,,,,,,,,
16243,0,0,2,32,34,32,34,-1,0.05,0.05,-0.89,-0,1,-1,0.07,0,67,8270,12,25,35,0.5,0.0,677,4.95,12.9,0.0,1,30.3,2.37,9.1,0,0,0,1,0,0,250,250,0,0.0,0.0,0.0,0.0,0,0,0.0,0,0.0,-1,0.0,0.0,0.0,0,0.0,0.2707
16263,0,,,,,,,,0.01,0.03,-0.91,-0,-1,-1,0.03,,67,8278,12,25,35,0.5,0.0,675,4.94,12.9,0.0,1,30.3,2.38,9.1,0,0,0,1,0,0,250,250,0,,,,,,,,,,,,,,,,
16283,0,,,,,,,,0.01,0.03,-1.0,-0,0,-0,0.03,,67,8285,12,25,35,0.5,0.0,676,4.93,12.8,0.0,1,30.3,2.39,9.1,0,0,0,1,0,0,250,250,0,,,,,,,,,,,,,,,,
16303,0,,,,,,,,-0.02,0.02,-0.86,-0,1,-1,0.03,,67,8274,12,25,35,0.5,0.0,672,4.95,12.8,0.0,1,30.3,2.37,9.1,0,0,0,1,0,0,250,250,0,,,,,,,,,,,,,,,,
16323,0,,,,,,,,0.01,0.06,-0.76,-0,2,0,0.06,,67,8274,12,25,35,0.5,0.0,675,4.88,12.9,0.0,1,30.3,2.37,9.1,0,0,0,1,0,0,250,250,0,,,,,,,,,,,,,,,,
16343,0,0,2,32,34,32,33,-1,-0.03,0.04,-0.53,-0,-0,-1,0.05,0,67,8285,12,25,35,0.5,0.0,673,4.95,12.8,0.0,1,30.3,2.34,9.1,0,0,0,1,0,0,250,250,0,0.0,0.0,0.0,0.0,0,0,0.0,0,0.0,-1,0.0,,0.0,0,0.0,0.2724
16363,0,,,,,,,,0.01,0.08,-0.65,-0,-1,-0,0.08,,67,8263,12,25,35,0.5,0.0,673,4.89,12.9,0.0,1,30.3,2.36,9.1,0,0,0,1,0,0,250,250,0,,,,,,,,,,,,,,,,
16383,0,,,,,,,,-0.01,0.05,-0.74,-0,-0,-1,0.05,,67,8263,12,25,35,0.5,0.0,670,4.85,12.9,0.0,1,30.3,1.21,9.1,0,0,0,1,0,0,250,250,0,,,,,,,,,,,,,,,,
16403,0,,,,,,,,0.03,0.05,-0.84,-0,1,-1,0.05,,67,8259,12,25,35,0.5,0.0,676,4.9,12.8,0.0,1,30.3,2.36,9.1,0,0,0,1,0,0,250,250,0,,,,,,,,,,,,,,,,
16423,0,,,,,,,,0.01,0.03,-0.82,-0,-0,-1,0.03,,67,8241,12,25,35,0.5,0.0,676,4.95,12.8,0.0,1,30.2,1.19,8.9,0,0,0,1,0,0,250,250,0,,,,,,,,,,,,,,,,
16443,0,1,0,32,33,32,33,1,0.03,0.06,-0.92,-1,0,1,0.07,0,67,8256,12,25,35,0.5,0.0,677,4.84,12.9,0.0,1,30.3,1.21,8.9,0,0,0,1,0,0,250,250,0,0.0,0.0,0.0,0.0,0,0,0.0,0,0.0,-1,0.0,0.0,0.0,0,0.0,0.274
16463,0,,,,,,,,-0.0,0.04,-0.87,-0,1,0,0.04,,67,8227,12,25,35,0.5,0.0,675,4.93,12.8,0.0,1,30.2,2.32,8.9,0,0,0,1,0,0,250,250,0,,,,,,,,,,,,,,,,
16483,0,,,,,,,,0.04,0.07,-0.78,-0,2,0,0.08,,67,8245,12,25,35,0.5,0.0,676,4.87,12.9,0.0,1,30.2,2.34,8.9,0,0,0,1,0,0,250,250,0,,,,,,,,,,,,,,,,
16503,0,,,,,,,,0.02,0.02,-0.55,-0,-1,-0,0.03,,67,8249,12,25,35,0.5,0.0,678,4.91,12.8,0.0,1,30.2,1.2,8.9,0,0,0,1,0,0,250,250,0,,,,,,,,,,,,,,,,
16523,0,,,,,,,,0.03,0.07,-0.67,-0,-1,-0,0.08,,67,8241,12,25,35,0.5,0.0,676,4.85,12.9,0.0,1,30.2,2.34,8.9,0,0,0,1,0,0,250,250,0,,,,,,,,,,,,,,,,
16543,0,0,2,32,34,32,33,-0,-0.01,0.07,-0.69,-0,-1,-1,0.07,0,67,8227,12,25,35,0.5,0.0,675,4.89,12.9,0.0,1,30.2,1.18,8.9,0,0,0,1,0,0,250,250,0,0.0,0.0,0.0,0.0,0,0,0.0,0,0.0,-1,0.0,,0.0,0,0.0,0.2757
16563,0,,,,,,,,0.03,0.07,-0.8,-0,0,-0,0.08,,67,8194,12,25,35,0.5,0.0,672,4.85,12.9,0.0,1,30.1,2.3,8.9,0,0,0,1,0,0,250,250,0,,,,,,,,,,,,,,,,
16583,0,,,,,,,,0.01,0.06,-0.64,-0,-1,-1,0.06,,67,8198,12,25,35,0.5,0.0,673,4.9,12.9,0.0,1,30.1,2.3,8.9,0,0,0,1,0,0,250,250,0,,,,,,,,,,,,,,,,
16603,0,,,,,,,,0.0,0.03,-0.76,-0,-1,-0,0.03,,67,8205,12,25,35,0.5,0.0,668,4.88,12.9,0.0,1,30.2,2.31,8.9,0,0,0,1,0,0,250,250,0,,,,,,,,,,,,,,,,
16623,0,,,,,,,,-0.0,0.04,-0.62,-0,1,-1,0.04,,67,8205,12,25,35,0.5,0.0,667,4.87,13.0,0.0,1,30.2,2.31,8.7,0,0,0,1,0,0,250,250,0,,,,,,,,,,,,,,,,
16643,0,0,0,32,33,32,33,0,-0.0,0.03,-0.74,-0,2,0,0.03,0,67,8191,12,25,35,0.5,0.0,672,4.95,12.8,0.0,1,30.1,2.3,8.7,0,0,0,1,0,0,250,250,0,0.0,0.0,0.0,0.0,0,0,0.0,0,0.0,-1,0.0,0.0,0.0,0,0.0,0.2774
16663,0,,,,,,,,-0.01,0.07,-0.51,-0,-0,0,0.07,,67,8205,12,25,35,0.5,0.0,673,4.94,12.9,0.0,1,30.2,2.31,8.7,0,0,0,1,0,0,250,250,0,,,,,,,,,,,,,,,,
16683,0,,,,,,,,-0.04,0.01,-0.6,-0,-1,0,0.04,,67,8173,12,25,35,0.5,0.0,671,4.85,12.8,0.0,1,30.1,1.13,8.7,0,0,0,1,0,0,250,250,0,,,,,,,,,,,,,,,,
16703,0,,,,,,,,-0.01,0.1,-0.53,-0,1,0,0.1,,67,8166,12,25,35,0.5,0.0,675,4.85,12.9,0.0,1,30.1,2.27,8.7,0,0,0,1,0,0,250,250,0,,,,,,,,,,,,,,,,
16723,0,,,,,,,,-0.03,0.07,-0.35,-0,-1,-0,0.08,,67,8166,12,25,35,0.5,0.0,671,4.92,12.9,0.0,1,30.1,2.27,8.5,0,0,0,1,0,0,250,250,0,,,,,,,,,,,,,,,,
16743,0,0,2,32,33,32,33,1,-0.02,0.12,-0.49,-0,-2,0,0.12,0,67,8180,12,25,35,0.5,0.0,681,4.91,12.8,0.0,1,30.1,1.13,8.5,0,0,0,1,0,0,250,250,0,0.0,0.0,0.0,0.0,0,0,0.0,0,0.0,-1,0.0,,0.0,0,0.0,0.279
16763,0,,,,,,,,-0.04,0.08,-0.53,-0,-1,-1,0.09,,67,8173,12,25,35,0.5,0.0,672,4.92,12.9,0.0,1,30.1,2.28,8.5,0,0,0,1,0,0,250,250,0,,,,,,,,,,,,,,,,
16783,0,,,,,,,,0.02,0.07,-0.65,-1,1,0,0.08,,67,8166,12,25,35,0.5,0.0,673,4.83,12.8,0.0,1,30.1,1.12,8.5,0,0,0,1,0,0,250,250,0,,,,,,,,,,,,,,,,
16803,0,,,,,,,,-0.0,0.06,-0.48,-1,-1,-1,0.06,,67,8173,12,25,35,0.5,0.0,673,4.96,12.9,0.0,1,30.1,2.28,8.5,0,0,0,1,0,0,250,250,0,,,,,,,,,,,,,,,,
16823,0,,,,,,,,-0.03,-0.01,-0.6,-1,-0,-0,0.03,,67,8177,12,25,35,0.5,0.0,670,4.84,12.9,0.0,1,30.1,2.28,8.5,0,0,0,1,0,0,250,250,0,,,,,,,,,,,,,,,,
16843,0,1,1,32,33,32,34,-0,-0.01,0.05,-0.49,-1,0,0,0.05,0,67,8162,12,25,35,0.5,0.0,669,4.94,12.9,0.0,1,30.1,2.27,8.5,0,0,0,1,0,0,250,250,0,0.0,0.0,0.0,0.0,0,0,0.0,0,0.0,-1,0.0,0.0,0.0,0,0.0,0.2807
16863,0,,,,,,,,-0.0,0.01,-0.61,-0,1,1,0.01,,67,8180,12,25,35,0.5,0.0,672,4.98,12.8,0.0,1,30.1,2.29,8.5,0,0,0,1,0,0,250,250,0,,,,,,,,,,,,,,,,
16883,0,,,,,,,,-0.01,0.07,-0.54,-0,0,1,0.07,,67,8187,12,25,35,0.5,0.0,670,4.8,12.9,0.0,1,30.1,1.14,8.5,0,0,0,1,0,0,250,250,0,,,,,,,,,,,,,,,,
16903,0,,,,,,,,-0.04,0.01,-0.61,-0,-1,1,0.04,,67,8205,12,25,35,0.5,0.0,674,4.92,12.8,0.0,1,30.2,1.16,8.5,0,0,0,1,0,0,250,250,0,,,,,,,,,,,,,,,,
16923,0,,,,,,,,-0.0,0.11,-0.59,-0,1,1,0.11,,67,8198,12,25,35,0.5,0.0,675,4.87,12.9,0.0,1,30.1,1.15,8.7,0,0,0,1,0,0,250,250,0,,,,,,,,,,,,,,,,
16943,0,0,0,32,34,32,34,1,-0.01,0.05,-0.39,-0,-1,-0,0.05,0,67,8216,12,25,35,0.5,0.0,670,4.94,12.9,0.0,1,30.2,2.32,8.7,0,0,0,1,0,0,250,250,0,0.0,0.0,0.0,0.0,0,0,0.0,0,0.0,-1,0.0,,0.0,0,0.0,0.2824
16963,0,,,,,,,,0.0,0.11,-0.48,-0,-2,-0,0.11,,67,8227,12,25,35,0.5,0.0,675,4.86,12.9,0.0,1,30.2,2.33,8.7,0,0,0,1,0,0,250,250,0,,,,,,,,,,,,,,,,
16983,0,,,,,,,,-0.03,0.06,-0.48,-0,-2,-1,0.06,,67,8205,12,25,35,0.5,0.0,672,4.91,12.8,0.0,1,30.2,2.3,8.7,0,0,0,1,0,0,250,250,0,,,,,,,,,,,,,,,,
17003,0,,,,,,,,0.01,0.08,-0.61,-0,1,-0,0.08,,67,8220,12,25,35,0.5,0.0,676,4.86,12.8,0.0,1,30.2,2.32,8.7,0,0,0,1,0,0,250,250,0,,,,,,,,,,,,,,,,
17023,0,,,,,,,,-0.02,0.06,-0.59,-0,-0,0,0.07,,67,8238,12,25,35,0.5,0.0,679,4.95,12.8,0.0,1,30.2,1.19,8.8,0,0,0,1,0,0,250,250,0,,,,,,,,,,,,,,,,
17043,0,0,0,32,34,32,33,0,0.0,0.08,-0.7,-0,-0,2,0.08,0,67,8227,12,25,35,0.5,0.0,676,4.89,13.0,0.0,1,30.2,2.33,8.8,0,0,0,1,0,0,250,250,0,0.0,0.0,0.0,0.0,0,0,0.0,0,0.0,-1,0.0,0.0,0.0,0,0.0,0.284
17063,0,,,,,,,,-0.02,0.06,-0.55,-0,1,1,0.07,,67,8234,12,25,35,0.5,0.0,673,4.96,12.8,0.0,1,30.2,1.18,8.8,0,0,0,1,0,0,250,250,0,,,,,,,,,,,,,,,,
17083,0,,,,,,,,0.0,0.06,-0.67,-0,2,2,0.06,,67,8238,12,25,35,0.5,0.0,670,4.86,12.9,0.0,1,30.2,2.34,8.8,0,0,0,1,0,0,250,250,0,,,,,,,,,,,,,,,,
17103,0,,,,,,,,-0.02,0.03,-0.45,-0,-1,0,0.03,,67,8263,12,25,35,0.5,0.0,675,4.89,12.9,0.0,1,30.3,1.21,8.8,0,0,0,1,0,0,250,250,0,,,,,,,,,,,,,,,,
17123,0,,,,,,,,-0.0,0.04,-0.58,-0,-1,1,0.04,,67,8274,12,25,35,0.5,0.0,673,4.81,12.9,0.0,1,30.3,2.37,9.1,0,0,0,1,0,0,250,250,0,,,,,,,,,,,,,,,,
17143,0,-1,2,32,34,32,33,1,-0.03,0.04,-0.46,-0,-1,-0,0.05,0,67,8274,12,25,35,0.5,0.0,672,4.9,12.9,0.0,1,30.3,1.22,9.1,0,0,0,1,0,0,250,250,0,0.0,0.0,0.0,0.0,0,0,0.0,0,0.0,-1,0.0,,0.0,0,0.0,0.2857
17163,0,,,,,,,,0.02,0.03,-0.59,-0,0,0,0.04,,67,8256,12,25,35,0.5,0.0,673,4.85,12.8,0.0,1,30.3,2.36,9.1,0,0,0,1,0,0,250,250,0,,,,,,,,,,,,,,,,
17183,0,,,,,,,,-0.0,-0.0,-0.53,-0,-0,0,0.0,,68,8263,12,25,35,0.5,0.0,676,4.89,12.8,0.0,1,30.3,1.21,9.1,0,0,0,1,0,0,250,250,0,,,,,,,,,,,,,,,,
17203,0,,,,,,,,-0.02,-0.01,-0.65,-0,-0,1,0.02,,68,8270,12,25,35,0.5,0.0,676,4.87,13.0,0.0,1,30.3,2.37,9.1,0,0,0,1,0,0,250,250,0,,,,,,,,,,,,,,,,
17223,0,,,,,,,,-0.05,-0.01,-0.56,-0,0,1,0.05,,68,8256,12,25,35,0.5,0.0,672,4.93,12.8,0.0,1,30.3,1.21,9.0,0,0,0,1,0,0,250,250,0,,,,,,,,,,,,,,,,
17243,0,1,0,32,34,32,33,1,0.0,0.02,-0.54,-0,1,1,0.02,0,68,8256,12,25,35,0.5,0.0,675,4.86,12.9,0.0,1,30.3,2.36,9.0,0,0,0,1,0,0,250,250,0,0.0,0.0,0.0,0.0,0,0,0.0,0,0.0,-1,0.0,0.0,0.0,0,0.0,0.2874
17263,0,,,,,,,,-0.02,-0.02,-0.33,-0,-1,0,0.02,,68,8256,12,25,35,0.5,0.0,680,4.95,12.8,0.0,1,30.2,1.2,9.0,0,0,0,1,0,0,250,250,0,,,,,,,,,,,,,,,,
17283,0,,,,,,,,-0.01,0.01,-0.47,-0,-2,0,0.02,,68,8259,12,25,35,0.5,0.0,676,4.88,12.9,0.0,1,30.3,1.21,9.0,0,0,0,1,0,0,250,250,0,,,,,,,,,,,,,,,,
17303,0,,,,,,,,-0.03,-0.01,-0.45,-1,-2,-1,0.03,,68,8263,12,25,35,0.5,0.0,671,4.9,12.9,0.0,1,30.3,2.36,9.0,0,0,0,1,0,0,250,250,0,,,,,,,,,,,,,,,,
17323,0,,,,,,,,0.03,0.01,-0.58,-1,1,-1,0.03,,68,8245,12,25,35,0.5,0.0,672,4.91,12.9,0.0,1,30.2,2.34,8.9,0,0,0,1,0,0,250,250,0,,,,,,,,,,,,,,,,
17343,0,-0,2,32,33,32,33,1,-0.01,-0.01,-0.59,-1,-0,-1,0.01,0,68,8245,12,25,35,0.5,0.0,677,4.93,12.9,0.0,1,30.2,2.34,8.9,0,0,0,1,0,0,250,250,0,0.0,0.0,0.0,0.0,0,0,0.0,0,0.0,-1,0.0,,0.0,0,0.0,0.2891
17363,0,,,,,,,,-0.01,-0.01,-0.71,-0,-1,0,0.02,,68,8252,12,25,35,0.5,0.0,670,4.86,13.0,0.0,1,30.3,2.35,8.9,0,0,0,1,0,0,250,250,0,,,,,,,,,,,,,,,,
17383,0,,,,,,,,-0.03,-0.01,-0.59,-0,0,1,0.03,,68,8249,12,25,35,0.5,0.0,670,4.95,12.8,0.0,1,30.2,2.33,8.9,0,0,0,1,0,0,250,250,0,,,,,,,,,,,,,,,,
17403,0,,,,,,,,-0.01,-0.01,-0.62,-1,2,1,0.01,,68,8223,12,25,35,0.5,0.0,673,4.85,12.8,0.0,1,30.2,1.17,8.9,0,0,0,1,0,0,250,250,0,,,,,,,,,,,,,,,,
17423,0,,,,,,,,-0.03,-0.02,-0.4,-0,-0,-0,0.04,,68,8223,12,25,35,0.5,0.0,673,4.95,12.8,0.0,1,30.2,1.17,8.8,0,0,0,1,0,0,250,250,0,,,,,,,,,,,,,,,,
17443,0,0,2,32,32,32,34,-1,-0.01,0.01,-0.53,-0,-1,1,0.02,0,68,8212,12,25,35,0.5,0.0,675,4.83,12.9,0.0,1,30.2,2.31,8.8,0,0,0,1,0,0,250,250,0,0.0,0.0,0.0,0.0,0,0,0.0,0,0.0,-1,0.0,0.0,0.0,0,0.0,0.2907
17463,0,,,,,,,,-0.0,0.02,-0.41,-1,-1,-0,0.02,,68,8191,12,25,35,0.5,0.0,672,4.91,12.9,0.0,1,30.1,2.29,8.8,0,0,0,1,0,0,250,250,0,,,,,,,,,,,,,,,,
17483,0,,,,,,,,-0.0,-0.0,-0.54,-0,1,-0,0.0,,68,8187,12,25,35,0.5,0.0,678,4.9,12.8,0.0,1,30.1,2.29,8.8,0,0,0,1,0,0,250,250,0,,,,,,,,,,,,,,,,
17503,0,,,,,,,,0.02,0.01,-0.42,-0,-1,-1,0.03,,68,8194,12,25,35,0.5,0.0,673,4.95,12.9,0.0,1,30.1,2.3,8.8,0,0,0,1,0,0,250,250,0,,,,,,,,,,,,,,,,
17523,0,,,,,,,,0.01,-0.05,-0.55,-0,-0,0,0.05,,68,8198,12,25,35,0.5,0.0,670,4.94,12.9,0.0,1,30.1,2.3,8.7,0,0,0,1,0,0,250,250,0,,,,,,,,,,,,,,,,
17543,0,1,0,32,34,31,34,0,0.04,0.03,-0.55,-0,1,0,0.05,0,68,8184,12,25,35,0.5,0.0,670,4.95,12.9,0.0,1,30.1,2.29,8.7,0,0,0,1,0,0,250,250,0,0.0,0.0,0.0,0.0,0,0,0.0,0,0.0,-1,0.0,,0.0,0,0.0,0.2924
17563,0,,,,,,,,0.03,-0.01,-0.62,-0,2,0,0.03,,68,8177,12,25,35,0.5,0.0,675,4.98,12.8,0.0,1,30.1,2.28,8.7,0,0,0,1,0,0,250,250,0,,,,,,,,,,,,,,,,
17583,0,,,,,,,,0.06,0.06,-0.73,-0,-0,0,0.08,,68,8184,12,25,35,0.5,0.0,672,4.91,12.9,0.0,1,30.1,2.29,8.7,0,0,0,1,0,0,250,250,0,,,,,,,,,,,,,,,,
17603,0,,,,,,,,-0.0,0.0,-0.61,-0,-0,0,0.0,,68,8198,12,25,35,0.5,0.0,670,4.83,12.8,0.0,1,30.1,1.15,8.7,0,0,0,1,0,0,250,250,0,,,,,,,,,,,,,,,,
17623,0,,,,,,,,0.03,0.02,-0.62,-0,0,-0,0.04,,68,8173,12,25,35,0.5,0.0,669,4.87,12.9,0.0,1,30.1,1.13,8.6,0,0,0,1,0,0,250,250,0,,,,,,,,,,,,,,,,
17643,0,1,2,32,33,32,34,-0,0.02,-0.01,-0.4,-0,-1,-1,0.02,0,68,8173,12,25,35,0.5,0.0,671,4.92,12.9,0.0,1,30.1,1.12,8.6,0,0,0,1,0,0,250,250,0,0.0,0.0,0.0,0.0,0,0,0.0,0,0.0,-1,0.0,0.0,0.0,0,0.0,0.294
17663,0,,,,,,,,0.03,0.02,-0.54,-1,-2,-0,0.03,,68,8177,12,25,35,0.5,0.0,673,4.87,12.8,0.0,1,30.1,2.28,8.6,0,0,0,1,0,0,250,250,0,,,,,,,,,,,,,,,,
17683,0,,,,,,,,0.02,0.04,-0.32,-0,-2,-1,0.05,,68,8173,12,25,35,0.5,0.0,665,4.93,12.8,0.0,1,30.1,1.13,8.6,0,0,0,1,0,0,250,250,0,,,,,,,,,,,,,,,,
17703,0,,,,,,,,0.01,0.02,-0.46,-1,0,-1,0.02,,68,8173,12,25,35,0.5,0.0,677,4.86,13.0,0.0,1,30.1,2.28,8.6,0,0,0,1,0,0,250,250,0,,,,,,,,,,,,,,,,
17723,0,,,,,,,,0.04,0.06,-0.36,-0,-2,-1,0.07,,68,8166,12,25,35,0.5,0.0,673,4.94,12.9,0.0,1,30.1,1.12,8.5,0,0,0,1,0,0,250,250,0,,,,,,,,,,,,,,,,
17743,0,0,1,32,32,32,34,-0,0.01,-0.05,-0.5,-0,-1,-1,0.05,0,68,8166,12,25,35,0.5,0.0,672,4.87,12.9,0.0,1,30.1,2.27,8.5,0,0,0,1,0,0,250,250,0,0.0,0.0,0.0,0.0,0,0,0.0,0,0.0,-1,0.0,,0.0,0,0.0,0.2957
17763,0,,,,,,,,-0.03,-0.04,-0.36,-0,-0,-1,0.05,,68,8169,12,25,35,0.5,0.0,674,4.83,12.9,0.0,1,30.1,1.12,8.5,0,0,0,1,0,0,250,250,0,,,,,,,,,,,,,,,,
17783,0,,,,,,,,-0.01,-0.08,-0.35,-0,1,-0,0.08,,68,8162,12,25,35,0.5,0.0,676,4.9,12.8,0.0,1,30.1,2.27,8.5,0,0,0,1,0,0,250,250,0,,,,,,,,,,,,,,,,
17803,0,,,,,,,,-0.01,-0.04,-0.15,-0,-1,-0,0.04,,68,8184,12,25,35,0.5,0.0,672,4.85,12.9,0.0,1,30.1,2.29,8.5,0,0,0,1,0,0,250,250,0,,,,,,,,,,,,,,,,
17823,0,,,,,,,,-0.05,-0.09,-0.31,-0,-1,-0,0.11,,68,8191,12,25,35,0.5,0.0,670,4.95,12.9,0.0,1,30.1,1.14,8.7,0,0,0,1,0,0,250,250,0,,,,,,,,,,,,,,,,
17843,0,1,1,32,33,32,34,-0,-0.03,0.01,-0.18,-0,0,0,0.03,0,68,8187,12,25,35,0.5,0.0,673,4.87,12.9,0.0,1,30.1,2.29,8.7,0,0,0,1,0,0,250,250,0,0.0,0.0,0.0,0.0,0,0,0.0,0,0.0,-1,0.0,0.0,0.0,0,0.0,0.2974
17863,0,,,,,,,,-0.02,-0.04,-0.05,-0,-2,-1,0.04,,68,8184,12,25,35,0.5,0.0,671,4.93,12.8,0.0,1,30.1,2.3,8.7,0,0,0,1,0,0,250,250,0,,,,,,,,,,,,,,,,
17883,0,,,,,,,,-0.02,0.02,-0.22,-0,-3,-0,0.03,,68,8198,12,25,35,0.5,0.0,671,4.9,13.0,0.0,1,30.1,2.3,8.7,0,0,0,1,0,0,250,250,0,,,,,,,,,,,,,,,,
17903,0,,,,,,,,-0.06,-0.07,-0.36,-0,-2,-1,0.09,,68,8205,12,25,35,0.5,0.0,667,4.91,12.8,0.0,1,30.2,1.16,8.7,0,0,0,1,0,0,250,250,0,,,,,,,,,,,,,,,,
17923,0,,,,,,,,0.03,-0.03,-0.5,-0,-0,-1,0.04,,68,8202,12,25,35,0.5,0.0,669,4.88,12.9,0.0,1,30.2,2.3,8.7,0,0,0,1,0,0,250,250,0,,,,,,,,,,,,,,,,
17943,0,1,2,32,33,32,34,0,-0.01,-0.06,-0.47,-0,-2,-1,0.06,0,68,8220,12,25,35,0.5,0.0,671,4.86,12.9,0.0,1,30.2,1.17,8.7,0,0,0,1,0,0,250,250,0,0.0,0.0,0.0,0.0,0,0,0.0,0,0.0,-1,0.0,,0.0,0,0.0,0.299
17963,0,,,,,,,,-0.01,-0.05,-0.6,-0,-1,-0,0.05,,68,8238,12,25,35,0.5,0.0,673,4.85,12.9,0.0,1,30.2,2.34,8.7,0,0,0,1,0,0,250,250,0,,,,,,,,,,,,,,,,
17983,0,,,,,,,,-0.03,-0.06,-0.49,-0,-1,-1,0.07,,68,8241,12,25,35,0.5,0.0,673,4.88,12.9,0.0,1,30.2,2.34,8.7,0,0,0,1,0,0,250,250,0,,,,,,,,,,,,,,,,
18003,0,,,,,,,,0.01,-0.0,-0.47,-0,1,-0,0.01,,68,8263,12,25,35,0.5,0.0,680,4.87,12.8,0.0,1,30.3,2.36,8.7,0,0,0,1,0,0,250,250,0,,,,,,,,,,,,,,,,
18023,0,,,,,,,,-0.02,-0.03,-0.26,-0,-2,-1,0.03,,68,8270,12,25,35,0.5,0.0,676,4.89,12.9,0.0,1,30.3,2.37,9.0,0,0,0,1,0,0,250,250,0,,,,,,,,,,,,,,,,
18043,0,0,0,32,34,32,33,1,0.01,0.03,-0.41,-0,-2,-0,0.03,0,68,8274,12,25,35,0.5,0.0,674,4.88,12.9,0.0,1,30.3,2.37,9.0,0,0,0,1,0,0,250,250,0,0.0,0.0,0.0,0.0,0,0,0.0,0,0.0,-1,0.0,0.0,0.0,0,0.0,0.3007
18063,0,,,,,,,,-0.02,-0.0,-0.52,-0,-2,-1,0.02,,68,8289,12,25,35,0.5,0.0,676,4.92,12.8,0.0,1,30.3,1.24,9.0,0,0,0,1,0,0,250,250,0,,,,,,,,,,,,,,,,
18083,0,,,,,,,,0.02,-0.0,-0.64,-0,0,-1,0.02,,68,8278,12,25,35,0.5,0.0,673,4.91,12.8,0.0,1,30.3,1.23,9.0,0,0,0,1,0,0,250,250,0,,,,,,,,,,,,,,,,
18103,0,,,,,,,,-0.0,0.0,-0.74,-0,-1,-0,0.0,,68,8300,12,25,35,0.5,0.0,678,4.93,12.8,0.0,1,30.4,1.25,9.0,0,0,0,1,0,0,250,250,0,,,,,,,,,,,,,,,,
18123,0,,,,,,,,0.03,0.05,-0.85,-1,-0,1,0.06,,68,8318,12,25,35,0.5,0.0,672,4.88,12.9,0.0,1,30.4,2.41,9.2,0,0,0,1,0,0,250,250,0,,,,,,,,,,,,,,,,
18143,0,1,0,32,34,31,34,0,-0.0,0.03,-0.89,-0,1,1,0.03,0,68,8337,12,25,35,0.5,0.0,672,4.93,12.8,0.0,1,30.4,2.43,9.2,0,0,0,1,0,0,250,250,0,0.0,0.0,0.0,0.0,0,0,0.0,0,0.0,-1,0.0,,0.0,0,0.0,0.3024
18163,0,,,,,,,,0.0,0.09,-0.65,-0,1,1,0.09,,68,8340,12,25,35,0.5,0.0,674,4.88,12.9,0.0,1,30.4,2.43,9.2,0,0,0,1,0,0,250,250,0,,,,,,,,,,,,,,,,
18183,0,,,,,,,,0.0,0.07,-0.58,-1,-0,1,0.07,,68,8344,12,25,35,0.5,0.0,672,4.92,12.8,0.0,1,30.4,2.44,9.2,0,0,0,1,0,0,250,250,0,,,,,,,,,,,,,,,,
18203,0,,,,,,,,0.0,0.07,-0.59,-0,-2,0,0.07,,68,8344,12,25,35,0.5,0.0,677,4.9,12.9,0.0,1,30.4,2.44,9.2,0,0,0,1,0,0,250,250,0,,,,,,,,,,,,,,,,
18223,0,,,,,,,,-0.0,0.03,-0.7,-1,-1,0,0.03,,68,8348,12,25,35,0.5,0.0,674,4.94,12.9,0.0,1,30.4,2.44,9.4,0,0,0,1,0,0,250,250,0,,,,,,,,,,,,,,,,
18243,0,-1,2,32,34,31,34,0,-0.01,0.0,-0.7,-1,0,-0,0.01,0,68,8337,12,25,35,0.5,0.0,673,4.95,12.9,0.0,1,30.5,2.43,9.4,0,0,0,1,0,0,250,250,0,0.0,0.0,0.0,0.0,0,0,0.0,0,0.0,-1,0.0,0.0,0.0,0,0.0,0.304
18263,0,,,,,,,,0.02,0.05,-0.52,-0,1,0,0.05,,68,8348,12,25,35,0.5,0.0,672,4.88,12.9,0.0,1,30.4,1.29,9.4,0,0,0,1,0,0,250,250,0,,,,,,,,,,,,,,,,
18283,0,,,,,,,,-0.01,0.02,-0.35,-0,-1,-0,0.02,,68,8351,12,25,35,0.5,0.0,679,4.88,12.9,0.0,1,30.5,1.29,9.4,0,0,0,1,0,0,250,250,0,,,,,,,,,,,,,,,,
18303,0,,,,,,,,0.01,0.03,-0.35,-1,-3,-1,0.03,,68,8359,12,25,34,0.5,0.0,675,4.87,12.9,0.0,1,30.2,2.41,9.4,0,0,0,1,0,0,250,250,0,,,,,,,,,,,,,,,,
18323,0,,,,,,,,-0.01,-0.03,-0.49,-1,-2,-2,0.03,,68,8366,12,25,35,0.5,0.0,675,4.98,12.8,0.0,1,30.5,1.31,9.5,0,0,0,1,0,0,250,250,0,,,,,,,,,,,,,,,,
18343,0,0,3,32,34,32,33,0,0.01,0.0,-0.51,-1,-0,-2,0.01,0,68,8351,12,25,35,0.5,0.0,670,4.93,12.9,0.0,1,30.5,1.29,9.5,0,0,0,1,0,0,250,250,0,0.0,0.0,0.0,0.0,0,0,0.0,0,0.0,-1,0.0,,0.0,0,0.0,0.3057
18363,0,,,,,,,,0.02,0.03,-0.59,-1,1,-1,0.04,,68,8348,12,25,35,0.5,0.0,680,4.95,12.8,0.0,1,30.4,1.29,9.5,0,0,0,1,0,0,250,250,0,,,,,,,,,,,,,,,,
18383,0,,,,,,,,0.0,0.02,-0.37,-1,-1,-2,0.02,,68,8337,12,25,35,0.5,0.0,673,4.93,12.9,0.0,1,30.4,2.39,9.5,0,0,0,1,0,0,250,250,0,,,,,,,,,,,,,,,,
18403,0,,,,,,,,0.02,0.04,-0.46,-1,-2,-2,0.04,,68,8296,12,25,35,0.5,0.0,673,4.93,12.8,0.0,1,30.3,2.4,9.5,0,0,0,1,0,0,250,250,0,,,,,,,,,,,,,,,,
18423,0,,,,,,,,0.01,0.02,-0.37,-1,-2,-3,0.02,,68,8296,12,25,35,0.5,0.0,673,4.9,12.8,0.0,1,30.4,1.25,9.0,0,0,0,1,0,0,250,250,0,,,,,,,,,,,,,,,,
18443,0,-1,2,32,33,31,34,0,0.06,0.06,-0.5,-1,-1,-2,0.08,0,68,8259,12,25,34,0.5,0.0,680,4.85,12.8,0.0,1,30.0,2.31,9.0,0,0,0,1,0,0,250,250,0,0.0,0.0,0.0,0.0,0,0,0.0,0,0.0,-1,0.0,0.0,0.0,0,0.0,0.3074
18463,0,,,,,,,,0.01,0.05,-0.58,-1,-1,-2,0.05,,68,8252,12,25,35,0.5,0.0,676,4.95,12.8,0.0,1,30.3,2.32,9.0,0,0,0,1,0,0,250,250,0,,,,,,,,,,,,,,,,
18483,0,,,,,,,,0.02,0.05,-0.7,-1,-1,-1,0.05,,68,8263,12,25,35,0.5,0.0,675,4.85,13.0,0.0,1,30.3,1.21,9.0,0,0,0,1,0,0,250,250,0,,,,,,,,,,,,,,,,
18503,0,,,,,,,,-0.02,0.01,-0.52,-0,-1,-1,0.02,,68,8249,12,25,35,0.5,0.0,672,4.9,12.9,0.0,1,30.2,1.2,9.0,0,0,0,1,0,0,250,250,0,,,,,,,,,,,,,,,,
18523,0,,,,,,,,0.02,0.04,-0.44,-0,0,-1,0.05,,68,8249,12,25,35,0.5,0.0,672,4.87,12.8,0.0,1,30.2,2.35,9.0,0,0,0,1,0,0,250,250,0,,,,,,,,,,,,,,,,
18543,0,1,2,32,34,32,34,0,-0.01,0.02,-0.24,-0,-2,-2,0.02,0,68,8245,12,25,35,0.5,0.0,672,4.96,12.8,0.0,1,30.2,1.19,9.0,0,0,0,1,0,0,250,250,0,0.0,0.0,0.0,0.0,0,0,0.0,0,0.0,-1,0.0,,0.0,0,0.0,0.309
18563,0,,,,,,,,0.02,0.06,-0.38,-0,-2,-1,0.06,,68,8249,12,25,35,0.5,0.0,674,4.9,12.9,0.0,1,30.2,1.2,9.0,0,0,0,1,0,0,250,250,0,,,,,,,,,,,,,,,,
18583,0,,,,,,,,0.01,0.04,-0.45,-0,-2,-2,0.04,,68,8249,12,25,35,0.5,0.0,667,4.88,12.9,0.0,1,30.2,1.2,9.0,0,0,0,1,0,0,250,250,0,,,,,,,,,,,,,,,,
18603,0,,,,,,,,0.04,0.03,-0.58,-0,0,-1,0.05,,68,8230,12,25,35,0.5,0.0,673,4.88,12.8,0.0,1,30.2,2.33,9.0,0,0,0,1,0,0,250,250,0,,,,,,,,,,,,,,,,
18623,0,,,,,,,,0.01,0.01,-0.53,-0,-1,-1,0.02,,68,8223,12,25,35,0.5,0.0,673,4.95,12.8,0.0,1,30.2,1.17,8.8,0,0,0,1,0,0,250,250,0,,,,,,,,,,,,,,,,
18643,0,-1,2,32,32,32,34,0,0.01,0.04,-0.65,-0,-0,1,0.04,0,68,8230,12,25,35,0.5,0.0,673,4.85,12.9,0.0,1,30.2,1.18,8.8,0,0,0,1,0,0,250,250,0,0.0,0.0,0.0,0.0,0,0,0.0,0,0.0,-1,0.0,0.0,0.0,0,0.0,0.3107
18663,0,,,,,,,,-0.03,0.02,-0.55,-0,0,-0,0.04,,68,8256,12,25,35,0.5,0.0,673,4.96,12.8,0.0,1,30.3,1.21,8.8,0,0,0,1,0,0,250,250,0,,,,,,,,,,,,,,,,
18683,0,,,,,,,,-0.01,0.02,-0.58,-1,1,0,0.03,,68,8249,12,25,35,0.5,0.0,673,4.86,12.9,0.0,1,30.2,2.35,8.8,0,0,0,1,0,0,250,250,0,,,,,,,,,,,,,,,,
18703,0,,,,,,,,-0.01,0.0,-0.36,-0,-1,-1,0.01,,68,8270,12,25,35,0.5,0.0,676,4.97,12.9,0.0,1,30.3,1.22,8.8,0,0,0,1,0,0,250,250,0,,,,,,,,,,,,,,,,
18723,0,,,,,,,,-0.01,0.01,-0.5,-0,-2,-1,0.01,,68,8270,12,25,35,0.5,0.0,678,4.84,12.9,0.0,1,30.3,2.37,9.0,0,0,0,1,0,0,250,250,0,,,,,,,,,,,,,,,,
18743,0,-0,2,32,34,32,33,0,-0.03,0.01,-0.41,-0,-2,-2,0.03,0,68,8256,12,25,35,0.5,0.0,672,4.97,12.9,0.0,1,30.3,1.21,9.0,0,0,0,1,0,0,250,250,0,0.0,0.0,0.0,0.0,0,0,0.0,0,0.0,-1,0.0,,0.0,0,0.0,0.3124
18763,0,,,,,,,,0.03,0.03,-0.54,-0,-0,-1,0.04,,68,8278,12,25,35,0.5,0.0,672,4.88,12.8,0.0,1,30.3,2.38,9.0,0,0,0,1,0,0,250,250,0,,,,,,,,,,,,,,,,
18783,0,,,,,,,,0.0,0.01,-0.57,-0,-0,-0,0.01,,68,8292,12,25,35,0.5,0.0,675,5.0,12.9,0.0,1,30.3,1.24,9.0,0,0,0,1,0,0,250,250,0,,,,,,,,,,,,,,,,
18803,0,,,,,,,,-0.01,0.0,-0.69,-0,-1,1,0.01,,68,8303,12,25,35,0.5,0.0,672,4.86,12.9,0.0,1,30.4,2.4,9.0,0,0,0,1,0,0,250,250,0,,,,,,,,,,,,,,,,
18823,0,,,,,,,,-0.03,-0.01,-0.63,-0,-0,1,0.03,,68,8303,12,25,35,0.5,0.0,668,4.91,12.9,0.0,1,30.4,1.26,9.2,0,0,0,1,0,0,250,250,0,,,,,,,,,,,,,,,,
18843,0,1,1,32,34,32,34,0,0.02,0.04,-0.45,-0,0,1,0.05,0,68,8311,12,25,35,0.5,0.0,672,4.87,12.9,0.0,1,30.4,2.41,9.2,0,0,0,1,0,0,250,250,0,0.0,0.0,0.0,0.0,0,0,0.0,0,0.0,-1,0.0,0.0,0.0,0,0.0,0.314
18863,0,,,,,,,,0.01,0.01,-0.37,-0,-1,1,0.02,,68,8325,12,25,35,0.5,0.0,672,4.94,12.9,0.0,1,30.4,1.27,9.2,0,0,0,1,0,0,250,250,0,,,,,,,,,,,,,,,,
18883,0,,,,,,,,0.0,0.03,-0.39,-0,-3,-0,0.03,,68,8340,12,25,35,0.5,0.0,678,4.88,12.9,0.0,1,30.4,2.43,9.2,0,0,0,1,0,0,250,250,0,,,,,,,,,,,,,,,,
18903,0,,,,,,,,0.01,-0.03,-0.53,-0,-1,1,0.03,,68,8359,12,25,35,0.5,0.0,671,4.93,12.9,0.0,1,30.5,1.3,9.2,0,0,0,1,0,0,250,250,0,,,,,,,,,,,,,,,,
18923,0,,,,,,,,0.02,-0.01,-0.59,-0,0,0,0.03,,68,8366,12,25,35,0.5,0.0,670,4.94,12.9,0.0,1,30.5,1.32,9.5,0,0,0,1,0,0,250,250,0,,,,,,,,,,,,,,,,
18943,0,-0,1,32,33,32,34,-0,0.04,-0.0,-0.64,-0,1,1,0.04,0,68,8355,12,25,35,0.5,0.0,677,4.87,12.9,0.0,1,30.5,2.45,9.5,0,0,0,1,0,0,250,250,0,0.0,0.0,0.0,0.0,0,0,0.0,0,0.0,-1,0.0,,0.0,0,0.0,0.3157
18963,0,,,,,,,,0.03,-0.04,-0.42,-0,-1,-0,0.05,,68,8351,12,25,35,0.5,0.0,674,4.92,12.8,0.0,1,30.5,2.45,9.5,0,0,0,1,0,0,250,250,0,,,,,,,,,,,,,,,,
18983,0,,,,,,,,0.02,-0.01,-0.28,-0,-3,-1,0.03,,68,8366,12,25,35,0.5,0.0,676,4.87,12.9,0.0,1,30.5,2.46,9.5,0,0,0,1,0,0,250,250,0,,,,,,,,,,,,,,,,
19003,0,,,,,,,,0.0,-0.06,-0.42,-0,-2,-2,0.06,,68,8374,12,25,35,0.5,0.0,672,4.93,12.9,0.0,1,30.5,1.32,9.5,0,0,0,1,0,0,250,250,0,,,,,,,,,,,,,,,,
19023,0,,,,,,,,0.04,-0.02,-0.55,-0,-1,-2,0.05,,68,8366,12,25,35,0.5,0.0,668,4.93,12.9,0.0,1,30.5,2.46,9.5,0,0,0,1,0,0,250,250,0,,,,,,,,,,,,,,,,
19043,0,-0,2,32,33,32,34,-0,0.04,-0.02,-0.67,-0,0,-1,0.04,0,68,8393,12,25,35,0.5,0.0,680,4.93,12.8,0.0,1,30.5,2.49,9.5,0,0,0,1,0,0,250,250,0,0.0,0.0,0.0,0.0,0,0,0.0,0,0.0,-1,0.0,0.0,0.0,0,0.0,0.3174
19063,0,,,,,,,,0.03,-0.02,-0.49,-0,-1,-1,0.04,,69,8389,12,25,35,0.5,0.0,675,4.91,12.8,0.0,1,30.5,2.44,9.5,0,0,0,1,0,0,250,250,0,,,,,,,,,,,,,,,,
19083,0,,,,,,,,0.04,0.02,-0.48,-0,-2,-2,0.04,,69,8389,12,25,35,0.5,0.0,677,4.87,12.8,0.0,1,30.5,2.48,9.5,0,0,0,1,0,0,250,250,0,,,,,,,,,,,,,,,,
19103,0,,,,,,,,0.01,0.01,-0.51,-0,-2,-2,0.01,,69,8385,12,25,35,0.5,0.0,680,4.92,12.8,0.0,1,30.5,1.33,9.5,0,0,0,1,0,0,250,250,0,,,,,,,,,,,,,,,,
19123,0,,,,,,,,0.05,0.02,-0.59,-0,-1,-2,0.05,,69,8378,12,25,34,0.5,0.0,671,4.9,12.9,0.0,1,30.2,1.28,9.6,0,0,0,1,0,0,250,250,0,,,,,,,,,,,,,,,,
19143,0,-1,2,32,32,32,34,0,0.05,0.03,-0.71,-0,0,-2,0.06,0,69,8370,12,25,35,0.5,0.0,677,4.97,12.8,0.0,1,30.5,1.31,9.6,0,0,0,1,0,0,250,250,0,0.0,0.0,0.0,0.0,0,0,0.0,0,0.0,-1,0.0,,0.0,0,0.0,0.3191
19163,0,,,,,,,,0.02,0.04,-0.56,-0,-2,-2,0.04,,69,8363,12,26,35,0.5,0.0,672,4.93,12.9,0.0,1,30.5,2.46,9.6,0,0,0,1,0,0,250,250,0,,,,,,,,,,,,,,,,
19183,0,,,,,,,,-0.01,0.05,-0.64,-0,-2,-2,0.05,,69,8366,12,25,35,0.5,0.0,672,4.92,12.8,0.0,1,30.5,2.46,9.6,0,0,0,1,0,0,250,250,0,,,,,,,,,,,,,,,,
19203,0,,,,,,,,0.01,0.03,-0.48,-0,-2,-3,0.03,,69,8363,12,25,35,0.5,0.0,668,4.93,12.8,0.0,1,30.5,2.44,9.6,0,0,0,1,0,0,250,250,0,,,,,,,,,,,,,,,,
19223,0,,,,,,,,0.05,0.04,-0.61,-0,-0,-2,0.06,,69,8340,12,26,35,0.5,0.0,673,4.87,12.9,0.0,1,30.4,2.43,9.4,0,0,0,1,0,0,250,250,0,,,,,,,,,,,,,,,,
19243,0,0,2,32,33,32,34,-1,0.02,0.03,-0.72,-0,0,-1,0.03,0,69,8322,12,26,35,0.5,0.0,677,4.92,12.8,0.0,1,30.4,1.27,9.4,0,0,0,1,0,0,250,250,0,0.0,0.0,0.0,0.0,0,0,0.0,0,0.0,-1,0.0,0.0,0.0,0,0.0,0.3207
19263,0,,,,,,,,0.04,0.05,-0.83,-0,-1,-1,0.07,,69,8314,12,26,35,0.5,0.0,677,4.92,12.9,0.0,1,30.4,1.26,9.4,0,0,0,1,0,0,250,250,0,,,,,,,,,,,,,,,,
19283,0,,,,,,,,0.02,0.04,-0.87,-0,0,0,0.04,,69,8311,12,26,35,0.5,0.0,675,4.95,12.8,0.0,1,30.4,2.4,9.4,0,0,0,1,0,0,250,250,0,,,,,,,,,,,,,,,,
19303,0,,,,,,,,0.04,0.08,-0.63,-0,0,-1,0.09,,69,8303,12,26,35,0.5,0.0,670,4.89,12.9,0.0,1,30.4,2.4,9.4,0,0,0,1,0,0,250,250,0,,,,,,,,,,,,,,,,
19323,0,,,,,,,,0.04,0.04,-0.41,-0,-1,-1,0.06,,69,8289,12,26,35,0.5,0.0,678,4.95,12.8,0.0,1,30.3,1.24,9.1,0,0,0,1,0,0,250,250,0,,,,,,,,,,,,,,,,
19343,0,-0,2,32,33,32,34,-1,0.04,0.05,-0.38,-0,-2,-1,0.06,0,69,8285,12,26,35,0.5,0.0,673,4.94,12.9,0.0,1,30.3,1.24,9.1,0,0,0,1,0,0,250,250,0,0.0,0.0,0.0,0.0,0,0,0.0,0,0.0,-1,0.0,,0.0,0,0.0,0.3224
19363,0,,,,,,,,0.02,0.04,-0.51,-0,-1,-0,0.05,,69,8281,12,26,35,0.5,0.0,670,4.95,12.9,0.0,1,30.3,2.38,9.1,0,0,0,1,0,0,250,250,0,,,,,,,,,,,,,,,,
19383,0,,,,,,,,-0.01,0.01,-0.46,-0,-0,-1,0.02,,69,8278,12,26,35,0.5,0.0,665,4.93,12.9,0.0,1,30.3,2.38,9.1,0,0,0,1,0,0,250,250,0,,,,,,,,,,,,,,,,
19403,0,,,,,,,,0.04,0.05,-0.35,-0,1,-0,0.07,,69,8270,12,26,35,0.5,0.0,673,4.92,12.8,0.0,1,30.3,2.37,9.1,0,0,0,1,0,0,250,250,0,,,,,,,,,,,,,,,,
19423,0,,,,,,,,0.0,0.02,-0.16,-0,-2,-1,0.02,,69,8267,12,26,35,0.5,0.0,670,4.94,12.9,0.0,1,30.3,2.37,8.9,0,0,0,1,0,0,250,250,0,,,,,,,,,,,,,,,,
19443,0,1,2,32,34,32,34,0,0.01,0.06,-0.27,-0,-3,-1,0.06,0,69,8267,12,26,35,0.5,0.0,668,4.86,12.9,0.0,1,30.3,1.22,8.9,0,0,0,1,0,0,250,250,0,0.0,0.0,0.0,0.0,0,0,0.0,0,0.0,-1,0.0,0.0,0.0,0,0.0,0.324
19463,0,,,,,,,,-0.01,0.04,-0.35,-0,-2,-2,0.04,,69,8289,12,26,35,0.5,0.0,670,4.93,12.9,0.0,1,30.3,2.39,8.9,0,0,0,1,0,0,250,250,0,,,,,,,,,,,,,,,,
19483,0,,,,,,,,0.03,0.06,-0.49,-0,-0,-1,0.06,,69,8296,12,26,35,0.5,0.0,676,4.85,12.9,0.0,1,30.3,2.4,8.9,0,0,0,1,0,0,250,250,0,,,,,,,,,,,,,,,,
19503,0,,,,,,,,0.01,0.05,-0.62,-0,-1,-1,0.05,,69,8318,12,26,35,0.5,0.0,677,4.9,12.9,0.0,1,30.4,1.26,8.9,0,0,0,1,0,0,250,250,0,,,,,,,,,,,,,,,,
19523,0,,,,,,,,0.03,0.08,-0.73,-0,-1,0,0.09,,69,8322,12,26,35,0.5,0.0,673,4.88,12.9,0.0,1,30.4,2.42,9.2,0,0,0,1,0,0,250,250,0,,,,,,,,,,,,,,,,
19543,0,1,1,32,34,32,34,0,0.02,0.06,-0.79,-0,0,1,0.07,0,69,8329,12,26,35,0.5,0.0,673,4.92,12.8,0.0,1,30.4,2.42,9.2,0,0,0,1,0,0,250,250,0,0.0,0.0,0.0,0.0,0,0,0.0,0,0.0,-1,0.0,,0.0,0,0.0,0.3257
19563,0,,,,,,,,0.01,0.11,-0.56,-0,0,1,0.11,,69,8329,12,26,35,0.5,0.0,675,4.88,12.9,0.0,1,30.4,2.42,9.2,0,0,0,1,0,0,250,250,0,,,,,,,,,,,,,,,,
19583,0,,,,,,,,0.02,0.11,-0.46,-0,-1,0,0.11,,69,8351,12,26,35,0.5,0.0,674,4.96,12.8,0.0,1,30.5,1.29,9.2,0,0,0,1,0,0,250,250,0,,,,,,,,,,,,,,,,
19603,0,,,,,,,,0.02,0.1,-0.46,-0,-3,-0,0.11,,69,8355,12,26,35,0.5,0.0,674,4.88,12.9,0.0,1,30.5,2.45,9.2,0,0,0,1,0,0,250,250,0,,,,,,,,,,,,,,,,
19623,0,,,,,,,,0.01,0.11,-0.59,-0,-2,-0,0.11,,69,8370,12,26,35,0.5,0.0,670,4.92,12.8,0.0,1,30.5,2.46,9.4,0,0,0,1,0,0,250,250,0,,,,,,,,,,,,,,,,
19643,0,-0,2,32,34,32,34,-0,-0.01,0.07,-0.66,-0,-1,-0,0.07,0,69,8363,12,26,35,0.5,0.0,667,4.96,12.8,0.0,1,30.5,2.46,9.4,0,0,0,1,0,0,250,250,0,0.0,0.0,0.0,0.0,0,0,0.0,0,0.0,-1,0.0,0.0,0.0,0,0.0,0.3274
19663,0,,,,,,,,0.04,0.13,-0.47,-0,0,0,0.13,,69,8340,12,26,35,0.5,0.0,674,4.87,12.9,0.0,1,30.4,1.28,9.4,0,0,0,1,0,0,250,250,0,,,,,,,,,,,,,,,,
19683,0,,,,,,,,0.01,0.09,-0.33,-0,-2,-0,0.09,,69,8359,12,26,35,0.5,0.0,675,4.95,12.9,0.0,1,30.5,1.3,9.4,0,0,0,1,0,0,250,250,0,,,,,,,,,,,,,,,,
19703,0,,,,,,,,-0.0,0.09,-0.29,-0,-4,-1,0.09,,69,8363,12,26,35,0.5,0.0,679,4.88,12.9,0.0,1,30.5,1.31,9.4,0,0,0,1,0,0,250,250,0,,,,,,,,,,,,,,,,
19723,0,,,,,,,,0.01,0.03,-0.44,-0,-3,-1,0.03,,69,8378,12,26,35,0.5,0.0,673,4.97,12.9,0.0,1,30.5,1.32,9.5,0,0,0,1,0,0,250,250,0,,,,,,,,,,,,,,,,
19743,0,-1,2,32,33,32,33,1,0.01,0.04,-0.49,-0,-1,-2,0.04,0,69,8370,12,26,35,0.5,0.0,674,4.93,12.9,0.0,1,30.5,1.31,9.5,0,0,0,1,0,0,250,250,0,0.0,0.0,0.0,0.0,0,0,0.0,0,0.0,-1,0.0,,0.0,0,0.0,0.329
19763,0,,,,,,,,0.03,0.05,-0.51,-0,-1,-1,0.06,,69,8359,12,26,35,0.5,0.0,682,4.92,12.8,0.0,1,30.5,2.45,9.5,0,0,0,1,0,0,250,250,0,,,,,,,,,,,,,,,,
19783,0,,,,,,,,-0.0,0.0,-0.31,-0,-3,-2,0.0,,69,8355,12,26,35,0.5,0.0,674,4.89,12.9,0.0,1,30.5,2.43,9.5,0,0,0,1,0,0,250,250,0,,,,,,,,,,,,,,,,
19803,0,,,,,,,,-0.0,0.03,-0.14,-0,-4,-2,0.03,,69,8355,12,26,35,0.5,0.0,675,4.88,12.8,0.0,1,30.5,2.45,9.5,0,0,0,1,0,0,250,250,0,,,,,,,,,,,,,,,,
19823,0,,,,,,,,-0.02,-0.02,-0.3,-0,-3,-3,0.03,,69,8344,12,26,35,0.5,0.0,670,4.92,12.8,0.0,1,30.4,2.44,9.4,0,0,0,1,0,0,250,250,0,,,,,,,,,,,,,,,,
19843,0,1,0,32,34,31,33,1,0.02,0.02,-0.44,-0,-2,-3,0.03,0,69,8322,12,26,35,0.5,0.0,670,4.86,12.9,0.0,1,30.4,2.42,9.4,0,0,0,1,0,0,250,250,0,0.0,0.0,0.0,0.0,0,0,0.0,0,0.0,-1,0.0,0.0,0.0,0,0.0,0.3307
19863,0,,,,,,,,0.02,0.02,-0.57,-1,-1,-1,0.03,,69,8329,12,26,35,0.5,0.0,676,4.95,12.8,0.0,1,30.4,2.42,9.4,0,0,0,1,0,0,250,250,0,,,,,,,,,,,,,,,,
19883,0,,,,,,,,0.01,0.02,-0.45,-1,-2,-1,0.02,,69,8329,12,26,35,0.5,0.0,673,4.9,12.9,0.0,1,30.4,2.42,9.4,0,0,0,1,0,0,250,250,0,,,,,,,,,,,,,,,,
19903,0,,,,,,,,-0.01,0.05,-0.54,-1,-1,-1,0.05,,69,8307,12,26,35,0.5,0.0,671,4.94,12.8,0.0,1,30.4,2.41,9.4,0,0,0,1,0,0,250,250,0,,,,,,,,,,,,,,,,
19923,0,,,,,,,,-0.02,0.05,-0.38,-1,-1,-1,0.05,,69,8303,12,26,35,0.5,0.0,668,4.91,12.9,0.0,1,30.4,1.25,9.2,0,0,0,1,0,0,250,250,0,,,,,,,,,,,,,,,,
19943,0,-0,3,32,34,32,33,1,0.01,0.02,-0.52,-1,-1,-1,0.02,0,69,8300,12,26,35,0.5,0.0,676,4.95,12.9,0.0,1,30.4,2.4,9.2,0,0,0,1,0,0,250,250,0,0.0,0.0,0.0,0.0,0,0,0.0,0,0.0,-1,0.0,,0.0,0,0.0,0.3324
19963,0,,,,,,,,0.02,0.0,-0.57,-1,-2,-1,0.02,,69,8311,12,26,35,0.5,0.0,677,4.95,12.9,0.0,1,30.3,2.41,9.2,0,0,0,1,0,0,250,250,0,,,,,,,,,,,,,,,,
19983,0,,,,,,,,-0.01,0.02,-0.69,-1,-1,0,0.02,,69,8314,12,26,35,0.5,0.0,673,4.91,12.8,0.0,1,30.4,2.41,9.2,0,0,0,1,0,0,250,250,0,,,,,,,,,,,,,,,,
20003,0,,,,,,,,-0.04,-0.01,-0.63,-1,0,0,0.04,,69,8311,12,26,35,0.5,0.0,671,4.93,12.8,0.0,1,30.4,1.26,9.2,0,0,0,1,0,0,250,250,0,,,,,,,,,,,,,,,,
20023,0,,,,,,,,0.01,0.04,-0.48,-1,1,1,0.05,,69,8307,12,26,35,0.5,0.0,677,4.88,12.8,0.0,1,30.4,2.41,9.2,0,0,0,1,0,0,250,250,0,,,,,,,,,,,,,,,,
20043,0,-0,2,32,34,32,34,-0,-0.01,0.01,-0.27,-1,-1,0,0.01,0,69,8314,12,26,35,0.5,0.0,672,4.94,12.8,0.0,1,30.4,2.42,9.2,0,0,0,1,0,0,250,250,0,0.0,0.0,0.0,0.0,0,0,0.0,0,0.0,-1,0.0,0.0,0.0,0,0.0,0.334
20063,0,,,,,,,,-0.01,0.02,-0.21,-1,-3,-1,0.02,,69,8322,12,26,35,0.5,0.0,673,4.87,12.9,0.0,1,30.4,2.42,9.2,0,0,0,1,0,0,250,250,0,,,,,,,,,,,,,,,,
20083,0,,,,,,,,-0.03,-0.04,-0.36,-1,-2,-1,0.05,,69,8337,12,26,35,0.5,0.0,668,4.95,12.8,0.0,1,30.4,1.28,9.2,0,0,0,1,0,0,250,250,0,,,,,,,,,,,,,,,,
20103,0,,,,,,,,0.0,0.01,-0.5,-1,-1,-2,0.01,,69,8322,12,26,35,0.5,0.0,667,4.9,12.9,0.0,1,30.4,1.27,9.2,0,0,0,1,0,0,250,250,0,,,,,,,,,,,,,,,,
20123,0,,,,,,,,0.01,0.0,-0.62,-1,0,-1,0.01,,69,8289,12,26,35,0.5,0.0,672,4.94,12.8,0.0,1,30.3,2.4,9.1,0,0,0,1,0,0,250,250,0,,,,,,,,,,,,,,,,
20143,0,1,0,32,34,31,33,0,-0.01,0.01,-0.43,-1,-2,-1,0.02,0,69,8325,12,26,35,0.5,0.0,674,4.92,12.9,0.0,1,30.4,1.27,9.1,0,0,0,1,0,0,250,250,0,0.0,0.0,0.0,0.0,0,0,0.0,0,0.0,-1,0.0,,0.0,0,0.0,0.3357
20163,0,,,,,,,,-0.01,0.03,-0.51,-1,-1,-0,0.03,,69,8314,12,26,35,0.5,0.0,669,4.95,12.9,0.0,1,30.4,2.41,9.1,0,0,0,1,0,0,250,250,0,,,,,,,,,,,,,,,,
20183,0,,,,,,,,-0.02,0.02,-0.39,-1,-1,-1,0.03,,69,8322,12,26,35,0.5,0.0,673,4.92,12.9,0.0,1,30.4,2.42,9.1,0,0,0,1,0,0,250,250,0,,,,,,,,,,,,,,,,
20203,0,,,,,,,,0.03,0.01,-0.53,-1,-1,-1,0.03,,69,8333,12,26,35,0.5,0.0,679,4.93,12.8,0.0,1,30.4,2.43,9.1,0,0,0,1,0,0,250,250,0,,,,,,,,,,,,,,,,
20223,0,,,,,,,,0.01,-0.01,-0.62,-0,-1,-0,0.01,,69,8333,12,26,35,0.5,0.0,673,4.91,12.8,0.0,1,30.4,2.43,9.3,0,0,0,1,0,0,250,250,0,,,,,,,,,,,,,,,,
20243,0,1,0,32,33,31,34,1,0.01,0.01,-0.74,-0,-0,1,0.01,0,69,8340,12,26,35,0.5,0.0,670,4.9,13.0,0.0,1,30.4,1.28,9.3,0,0,0,1,0,0,250,250,0,0.0,0.0,0.0,0.0,0,0,0.0,0,0.0,-1,0.0,0.0,0.0,0,0.0,0.3374
20263,0,,,,,,,,-0.02,-0.01,-0.79,-0,1,1,0.03,,69,8340,12,26,35,0.5,0.0,671,4.92,12.8,0.0,1,30.4,2.43,9.3,0,0,0,1,0,0,250,250,0,,,,,,,,,,,,,,,,
20283,0,,,,,,,,0.02,0.04,-0.56,-0,0,1,0.05,,69,8344,12,26,35,0.5,0.0,670,4.87,12.9,0.0,1,30.4,1.29,9.3,0,0,0,1,0,0,250,250,0,,,,,,,,,,,,,,,,
20303,0,,,,,,,,0.02,-0.0,-0.47,-0,-0,1,0.02,,69,8333,12,26,35,0.5,0.0,672,4.95,12.8,0.0,1,30.4,1.28,9.3,0,0,0,1,0,0,250,250,0,,,,,,,,,,,,,,,,
20323,0,,,,,,,,-0.01,-0.0,-0.42,-0,-3,0,0.01,,69,8348,12,26,35,0.5,0.0,675,4.91,12.9,0.0,1,30.4,1.29,9.3,0,0,0,1,0,0,250,250,0,,,,,,,,,,,,,,,,
20343,0,0,2,32,34,32,33,1,-0.0,-0.04,-0.55,-0,-1,1,0.04,0,69,8374,12,26,35,0.5,0.0,672,4.93,12.8,0.0,1,30.5,2.47,9.3,0,0,0,1,0,0,250,250,0,0.0,0.0,0.0,0.0,0,0,0.0,0,0.0,-1,0.0,,0.0,0,0.0,0.339
20363,0,,,,,,,,0.02,-0.05,-0.64,-0,0,0,0.05,,69,8329,12,26,35,0.5,0.0,667,4.96,12.8,0.0,1,30.4,2.42,9.3,0,0,0,1,0,0,250,250,0,,,,,,,,,,,,,,,,
20383,0,,,,,,,,0.02,-0.04,-0.62,-0,1,1,0.04,,69,8355,12,26,35,0.5,0.0,678,4.9,12.8,0.0,1,30.5,2.45,9.3,0,0,0,1,0,0,250,250,0,,,,,,,,,,,,,,,,
20403,0,,,,,,,,-0.02,-0.06,-0.4,-0,-1,0,0.06,,69,8359,12,26,35,0.5,0.0,677,4.91,12.9,0.0,1,30.5,1.29,9.3,0,0,0,1,0,0,250,250,0,,,,,,,,,,,,,,,,
20423,0,,,,,,,,-0.0,-0.02,-0.32,-0,-3,-1,0.02,,69,8359,12,26,35,0.5,0.0,671,4.84,12.9,0.0,1,30.5,2.45,9.4,0,0,0,1,0,0,250,250,0,,,,,,,,,,,,,,,,
20443,0,1,0,32,33,31,33,0,-0.02,-0.07,-0.46,-1,-2,-1,0.08,0,69,8370,12,26,35,0.5,0.0,670,4.93,12.9,0.0,1,30.5,1.31,9.4,0,0,0,1,0,0,250,250,0,0.0,0.0,0.0,0.0,0,0,0.0,0,0.0,-1,0.0,0.0,0.0,0,0.0,0.3407
20463,0,,,,,,,,-0.01,-0.04,-0.59,-1,-1,-1,0.05,,69,8363,12,26,35,0.5,0.0,669,4.92,12.9,0.0,1,30.5,2.46,9.4,0,0,0,1,0,0,250,250,0,,,,,,,,,,,,,,,,
20483,0,,,,,,,,-0.0,-0.02,-0.7,-0,0,0,0.02,,69,8351,12,26,35,0.5,0.0,677,4.89,12.8,0.0,1,30.5,2.44,9.4,0,0,0,1,0,0,250,250,0,,,,,,,,,,,,,,,,
20503,0,,,,,,,,-0.02,-0.02,-0.48,-0,-2,-1,0.03,,69,8359,12,26,35,0.5,0.0,674,4.93,12.8,0.0,1,30.5,2.45,9.4,0,0,0,1,0,0,250,250,0,,,,,,,,,,,,,,,,
20523,0,,,,,,,,-0.0,0.01,-0.53,-1,-3,-1,0.01,,69,8351,12,26,35,0.5,0.0,674,4.86,12.8,0.0,1,30.5,2.44,9.5,0,0,0,1,0,0,250,250,0,,,,,,,,,,,,,,,,
20543,0,0,0,32,34,32,34,-0,-0.01,-0.02,-0.56,-1,-2,-2,0.02,0,69,8363,12,26,35,0.5,0.0,671,4.92,12.8,0.0,1,30.5,2.46,9.5,0,0,0,1,0,0,250,250,0,0.0,0.0,0.0,0.0,0,0,0.0,0,0.0,-1,0.0,,0.0,0,0.0,0.3424
20563,0,,,,,,,,0.02,0.01,-0.67,-1,-1,-2,0.02,,69,8351,12,26,35,0.5,0.0,672,4.87,12.9,0.0,1,30.5,2.44,9.5,0,0,0,1,0,0,250,250,0,,,,,,,,,,,,,,,,
20583,0,,,,,,,,0.02,0.0,-0.78,-1,0,-1,0.02,,69,8355,12,26,35,0.5,0.0,675,4.87,12.8,0.0,1,30.5,2.46,9.5,0,0,0,1,0,0,250,250,0,,,,,,,,,,,,,,,,
20603,0,,,,,,,,0.01,0.03,-0.76,-0,-1,-1,0.03,,69,8355,12,26,35,0.5,0.0,673,4.9,12.9,0.0,1,30.5,2.45,9.5,0,0,0,1,0,0,250,250,0,,,,,,,,,,,,,,,,
20623,0,,,,,,,,-0.03,0.03,-0.76,-1,-1,-1,0.04,,69,8348,12,26,35,0.5,0.0,667,4.94,12.9,0.0,1,30.4,2.44,9.4,0,0,0,1,0,0,250,250,0,,,,,,,,,,,,,,,,
20643,0,1,3,32,34,32,34,-0,-0.03,0.04,-0.53,-1,-1,-2,0.05,0,69,8340,12,26,35,0.5,0.0,667,4.92,12.9,0.0,1,30.5,2.43,9.4,0,0,0,1,0,0,250,250,0,0.0,0.0,0.0,0.0,0,0,0.0,0,0.0,-1,0.0,0.0,0.0,0,0.0,0.344
20663,0,,,,,,,,0.02,0.04,-0.64,-1,-0,-1,0.05,,70,8333,12,26,35,0.5,0.0,668,4.88,12.9,0.0,1,30.4,1.28,9.4,0,0,0,1,0,0,250,250,0,,,,,,,,,,,,,,,,
20683,0,,,,,,,,-0.0,0.02,-0.75,-1,-0,-1,0.02,,69,8325,12,26,35,0.5,0.0,675,4.95,12.9,0.0,1,30.4,1.27,9.4,0,0,0,1,0,0,250,250,0,,,,,,,,,,,,,,,,
20703,0,,,,,,,,-0.0,0.0,-0.85,-1,-1,-0,0.0,,69,8363,12,26,35,0.5,0.0,671,4.86,12.9,0.0,1,30.5,2.46,9.4,0,0,0,1,0,0,250,250,0,,,,,,,,,,,,,,,,
20723,0,,,,,,,,-0.02,-0.01,-0.87,-1,0,1,0.02,,70,8355,12,26,35,0.5,0.0,671,4.95,12.9,0.0,1,30.5,1.3,9.4,0,0,0,1,0,0,250,250,0,,,,,,,,,,,,,,,,
20743,0,-0,2,32,34,32,33,1,0.02,0.05,-0.64,-1,0,-0,0.05,0,69,8314,12,26,35,0.5,0.0,671,4.9,12.9,0.0,1,30.4,2.41,9.4,0,0,0,1,0,0,250,250,0,0.0,0.0,0.0,0.0,0,0,0.0,0,0.0,-1,0.0,,0.0,0,0.0,0.3457
20763,0,,,,,,,,0.01,0.02,-0.6,-0,0,-0,0.02,,70,8300,12,26,35,0.5,0.0,673,4.88,12.9,0.0,1,30.4,2.4,9.4,0,0,0,1,0,0,250,250,0,,,,,,,,,,,,,,,,
20783,0,,,,,,,,-0.0,0.01,-0.61,-1,-1,-1,0.01,,70,8322,12,26,35,0.5,0.0,677,4.92,12.9,0.0,1,30.4,1.27,9.4,0,0,0,1,0,0,250,250,0,,,,,,,,,,,,,,,,
20803,0,,,,,,,,0.01,-0.03,-0.73,-1,0,0,0.03,,70,8322,12,26,35,0.5,0.0,671,4.82,12.9,0.0,1,30.4,2.42,9.4,0,0,0,1,0,0,250,250,0,,,,,,,,,,,,,,,,
20823,0,,,,,,,,0.02,-0.01,-0.74,-0,1,0,0.02,,70,8322,12,26,35,0.5,0.0,667,4.95,12.9,0.0,1,30.4,2.42,9.3,0,0,0,1,0,0,250,250,0,,,,,,,,,,,,,,,,
20843,0,1,0,32,34,32,34,1,0.03,0.01,-0.76,-0,2,0,0.03,0,70,8314,12,26,35,0.5,0.0,676,4.87,12.9,0.0,1,30.4,2.41,9.3,0,0,0,1,0,0,250,250,0,0.0,0.0,0.0,0.0,0,0,0.0,0,0.0,-1,0.0,0.0,0.0,0,0.0,0.3474
20863,0,,,,,,,,0.02,0.01,-0.53,-0,-0,-1,0.02,,70,8314,12,26,35,0.5,0.0,670,4.9,12.8,0.0,1,30.4,2.42,9.3,0,0,0,1,0,0,250,250,0,,,,,,,,,,,,,,,,
20883,0,,,,,,,,0.02,0.02,-0.57,-0,-2,-1,0.03,,70,8318,12,26,35,0.5,0.0,671,4.88,12.9,0.0,1,30.4,2.41,9.3,0,0,0,1,0,0,250,250,0,,,,,,,,,,,,,,,,
20903,0,,,,,,,,-0.0,0.01,-0.53,-1,-2,-2,0.01,,70,8337,12,26,35,0.5,0.0,667,4.98,12.9,0.0,1,30.4,1.29,9.3,0,0,0,1,0,0,250,250,0,,,,,,,,,,,,,,,,
20923,0,,,,,,,,0.03,0.02,-0.65,-0,0,-2,0.04,,70,8340,12,26,35,0.5,0.0,670,4.91,12.9,0.0,1,30.4,1.28,9.4,0,0,0,1,0,0,250,250,0,,,,,,,,,,,,,,,,
20943,0,1,2,32,33,32,34,1,0.01,0.02,-0.77,-0,1,-1,0.02,0,70,8329,12,26,35,0.5,0.0,676,4.94,12.9,0.0,1,30.4,2.43,9.4,0,0,0,1,0,0,250,250,0,0.0,0.0,0.0,0.0,0,0,0.0,0,0.0,-1,0.0,,0.0,0,0.0,0.349
20963,0,,,,,,,,-0.01,-0.01,-0.54,-0,-1,-1,0.01,,70,8363,12,26,35,0.5,0.0,676,4.91,12.9,0.0,1,30.5,2.46,9.4,0,0,0,1,0,0,250,250,0,,,,,,,,,,,,,,,,
20983,0,,,,,,,,0.0,0.02,-0.53,-0,-1,-1,0.03,,70,8374,12,26,35,0.5,0.0,672,4.91,12.8,0.0,1,30.5,2.47,9.4,0,0,0,1,0,0,250,250,0,,,,,,,,,,,,,,,,
21003,0,,,,,,,,-0.03,-0.01,-0.64,-0,-0,-2,0.03,,70,8381,12,26,35,0.5,0.0,675,4.88,12.8,0.0,1,30.5,2.47,9.4,0,0,0,1,0,0,250,250,0,,,,,,,,,,,,,,,,
21023,0,,,,,,,,0.01,-0.0,-0.75,-0,0,-2,0.01,,70,8396,12,26,35,0.5,0.0,676,4.87,12.9,0.0,1,30.5,2.49,9.7,0,0,0,1,0,0,250,250,0,,,,,,,,,,,,,,,,
21043,0,0,1,32,34,32,34,0,0.02,0.04,-0.85,-0,1,-1,0.04,0,70,8396,12,26,35,0.5,0.0,678,4.91,12.8,0.0,1,30.5,2.49,9.7,0,0,0,1,0,0,250,250,0,0.0,0.0,0.0,0.0,0,0,0.0,0,0.0,-1,0.0,0.0,0.0,0,0.0,0.3507
21063,0,,,,,,,,-0.0,0.03,-0.62,-0,-1,-1,0.03,,70,8404,12,26,35,0.5,0.0,675,4.88,12.9,0.0,1,30.6,2.5,9.7,0,0,0,1,0,0,250,250,0,,,,,,,,,,,,,,,,
21083,0,,,,,,,,0.01,0.06,-0.58,-0,-0,-0,0.06,,70,8404,12,26,35,0.5,0.0,671,4.87,12.9,0.0,1,30.6,2.5,9.7,0,0,0,1,0,0,250,250,0,,,,,,,,,,,,,,,,
21103,0,,,,,,,,-0.01,0.02,-0.67,-0,-0,-1,0.02,,70,8381,12,26,35,0.5,0.0,668,4.88,12.9,0.0,1,30.5,2.47,9.7,0,0,0,1,0,0,250,250,0,,,,,,,,,,,,,,,,
21123,0,,,,,,,,0.02,0.05,-0.72,-0,0,-1,0.05,,70,8396,12,26,35,0.5,0.0,675,4.87,12.9,0.0,1,30.5,2.49,9.7,0,0,0,1,0,0,250,250,0,,,,,,,,,,,,,,,,
21143,0,1,2,32,33,32,33,1,0.03,0.06,-0.83,-0,0,-0,0.06,0,70,8404,12,26,35,0.5,0.0,680,4.92,12.8,0.0,1,30.6,2.5,9.7,0,0,0,1,0,0,250,250,0,0.0,0.0,0.0,0.0,0,0,0.0,0,0.0,-1,0.0,,0.0,0,0.0,0.3524
21163,0,,,,,,,,0.01,0.05,-0.62,-0,-1,-0,0.05,,70,8393,12,26,35,0.5,0.0,675,4.91,12.9,0.0,1,30.5,1.34,9.7,0,0,0,1,0,0,250,250,0,,,,,,,,,,,,,,,,
21183,0,,,,,,,,0.0,0.08,-0.59,-0,0,1,0.08,,70,8393,12,26,35,0.5,0.0,670,4.92,12.8,0.0,1,30.5,1.34,9.7,0,0,0,1,0,0,250,250,0,,,,,,,,,,,,,,,,
21203,0,,,,,,,,-0.03,0.06,-0.56,-0,-0,-0,0.06,,70,8378,12,26,35,0.5,0.0,676,4.92,12.9,0.0,1,30.5,2.47,9.7,0,0,0,1,0,0,250,250,0,,,,,,,,,,,,,,,,
21223,0,,,,,,,,0.03,0.08,-0.68,-0,0,-0,0.09,,70,8366,12,26,35,0.5,0.0,680,4.88,12.9,0.0,1,30.5,1.31,9.5,0,0,0,1,0,0,250,250,0,,,,,,,,,,,,,,,,
21243,0,1,0,32,34,31,34,1,0.02,0.06,-0.79,-0,0,0,0.06,0,70,8396,12,26,35,0.5,0.0,680,4.91,12.8,0.0,1,30.5,2.49,9.5,0,0,0,1,0,0,250,250,0,0.0,0.0,0.0,0.0,0,0,0.0,0,0.0,-1,0.0,0.0,0.0,0,0.0,0.354
21263,0,,,,,,,,-0.01,0.06,-0.67,-0,-1,0,0.06,,70,8404,12,26,35,0.5,0.0,672,4.87,13.0,0.0,1,30.6,1.35,9.5,0,0,0,1,0,0,250,250,0,,,,,,,,,,,,,,,,
21283,0,,,,,,,,-0.01,0.11,-0.71,-0,0,1,0.11,,70,8396,12,26,35,0.5,0.0,673,4.93,12.8,0.0,1,30.5,2.49,9.5,0,0,0,1,0,0,250,250,0,,,,,,,,,,,,,,,,
21303,0,,,,,,,,-0.02,0.07,-0.66,-0,0,0,0.08,,70,8381,12,26,35,0.5,0.0,668,4.92,12.9,0.0,1,30.5,2.47,9.5,0,0,0,1,0,0,250,250,0,,,,,,,,,,,,,,,,
21323,0,,,,,,,,0.02,0.08,-0.77,-0,1,0,0.08,,70,8374,12,26,35,0.5,0.0,677,4.91,13.0,0.0,1,30.5,1.32,9.5,0,0,0,1,0,0,250,250,0,,,,,,,,,,,,,,,,
21343,0,0,2,32,34,32,33,1,0.01,0.06,-0.87,-0,1,1,0.06,0,70,8340,12,26,35,0.5,0.0,676,4.93,12.8,0.0,1,30.4,2.44,9.5,0,0,0,1,0,0,250,250,0,0.0,0.0,0.0,0.0,0,0,0.0,0,0.0,-1,0.0,,0.0,0,0.0,0.3557
21363,0,,,,,,,,0.03,0.09,-0.91,-1,1,2,0.1,,70,8318,12,26,35,0.5,0.0,670,4.9,12.9,0.0,1,30.4,1.26,9.5,0,0,0,1,0,0,250,250,0,,,,,,,,,,,,,,,,
21383,0,,,,,,,,-0.0,0.06,-1.0,-1,1,2,0.06,,70,8311,12,26,35,0.5,0.0,667,4.93,12.9,0.0,1,30.4,1.27,9.5,0,0,0,1,0,0,250,250,0,,,,,,,,,,,,,,,,
21403,0,,,,,,,,0.0,0.13,-0.75,-1,1,2,0.13,,70,8314,12,26,35,0.5,0.0,676,4.87,12.9,0.0,1,30.4,2.41,9.5,0,0,0,1,0,0,250,250,0,,,,,,,,,,,,,,,,
21423,0,,,,,,,,0.0,0.09,-0.72,-1,0,2,0.09,,70,8300,12,26,35,0.5,0.0,672,4.98,12.9,0.0,1,30.4,1.25,9.1,0,0,0,1,0,0,250,250,0,,,,,,,,,,,,,,,,
21443,0,1,1,32,34,31,34,1,0.0,0.1,-0.69,-0,-2,1,0.1,0,70,8300,12,26,35,0.5,0.0,675,4.93,12.9,0.0,1,30.4,2.4,9.1,0,0,0,1,0,0,250,250,0,0.0,0.0,0.0,0.0,0,0,0.0,0,0.0,-1,0.0,0.0,0.0,0,0.0,0.3574
21463,0,,,,,,,,0.01,0.05,-0.8,-0,-1,1,0.05,,70,8325,12,26,36,0.5,0.0,669,4.95,12.8,0.0,1,30.7,2.45,9.1,0,0,0,1,0,0,250,250,0,,,,,,,,,,,,,,,,
21483,0,,,,,,,,0.02,0.05,-0.83,-1,1,0,0.05,,70,8318,12,26,35,0.5,0.0,665,4.92,12.9,0.0,1,30.4,2.41,9.1,0,0,0,1,0,0,250,250,0,,,,,,,,,,,,,,,,
21503,0,,,,,,,,0.03,0.05,-0.81,-1,2,1,0.06,,70,8325,12,26,35,0.5,0.0,678,4.92,12.8,0.0,1,30.4,2.42,9.1,0,0,0,1,0,0,250,250,0,,,,,,,,,,,,,,,,
21523,0,,,,,,,,-0.01,0.03,-0.57,-0,-1,0,0.03,,70,8333,12,26,35,0.5,0.0,672,4.89,12.8,0.0,1,30.4,2.43,9.4,0,0,0,1,0,0,250,250,0,,,,,,,,,,,,,,,,
21543,0,1,1,32,33,32,34,0,0.01,0.05,-0.62,-0,-1,0,0.05,0,70,8337,12,26,35,0.5,0.0,667,4.85,13.0,0.0,1,30.4,1.28,9.4,0,0,0,1,0,0,250,250,0,0.0,0.0,0.0,0.0,0,0,0.0,0,0.0,-1,0.0,,0.0,0,0.0,0.359
21563,0,,,,,,,,-0.01,0.02,-0.73,-0,-0,-0,0.02,,70,8329,12,26,35,0.5,0.0,668,4.9,12.8,0.0,1,30.4,2.41,9.4,0,0,0,1,0,0,250,250,0,,,,,,,,,,,,,,,,
21583,0,,,,,,,,0.02,0.02,-0.84,-0,1,-0,0.03,,70,8337,12,26,35,0.5,0.0,670,4.87,13.0,0.0,1,30.4,2.43,9.4,0,0,0,1,0,0,250,250,0,,,,,,,,,,,,,,,,
21603,0,,,,,,,,0.02,0.02,-0.94,-0,1,1,0.03,,70,8340,12,26,35,0.5,0.0,674,4.93,12.9,0.0,1,30.4,1.28,9.4,0,0,0,1,0,0,250,250,0,,,,,,,,,,,,,,,,
21623,0,,,,,,,,0.01,0.04,-0.69,-0,0,1,0.04,,70,8355,12,26,35,0.5,0.0,673,4.86,13.0,0.0,1,30.5,2.45,9.4,0,0,0,1,0,0,250,250,0,,,,,,,,,,,,,,,,
21643,0,-1,2,32,33,32,34,0,-0.04,0.03,-0.8,-0,1,1,0.05,0,70,8348,12,26,35,0.5,0.0,673,4.87,12.9,0.0,1,30.4,2.44,9.4,0,0,0,1,0,0,250,250,0,0.0,0.0,0.0,0.0,0,0,0.0,0,0.0,-1,0.0,0.0,0.0,0,0.0,0.3607
21663,0,,,,,,,,-0.02,0.04,-0.6,-0,1,0,0.04,,70,8363,12,26,35,0.5,0.0,672,4.92,12.9,0.0,1,30.5,1.31,9.4,0,0,0,1,0,0,250,250,0,,,,,,,,,,,,,,,,
21683,0,,,,,,,,0.03,0.04,-0.72,-0,1,1,0.05,,70,8370,12,26,35,0.5,0.0,678,4.93,12.8,0.0,1,30.5,1.31,9.4,0,0,0,1,0,0,250,250,0,,,,,,,,,,,,,,,,
21703,0,,,,,,,,-0.02,0.03,-0.82,-0,1,1,0.03,,70,8374,12,26,35,0.5,0.0,676,4.88,12.9,0.0,1,30.5,2.46,9.4,0,0,0,1,0,0,250,250,0,,,,,,,,,,,,,,,,
21723,0,,,,,,,,0.02,0.07,-0.92,-0,1,2,0.07,,70,8385,12,26,35,0.5,0.0,670,4.87,13.0,0.0,1,30.5,1.33,9.5,0,0,0,1,0,0,250,250,0,,,,,,,,,,,,,,,,
21743,0,-1,2,32,34,32,34,0,0.01,0.06,-1.01,-0,3,3,0.06,0,70,8404,12,26,35,0.5,0.0,671,4.94,12.9,0.0,1,30.6,2.5,9.5,0,0,0,1,0,0,250,250,0,0.0,0.0,0.0,0.0,0,0,0.0,0,0.0,-1,0.0,,0.0,0,0.0,0.3624
21763,0,,,,,,,,-0.02,0.09,-0.76,-0,2,2,0.09,,70,8411,12,26,35,0.5,0.0,670,4.88,13.0,0.0,1,30.6,1.35,9.5,0,0,0,1,0,0,250,250,0,,,,,,,,,,,,,,,,
21783,0,,,,,,,,0.01,0.1,-0.8,-0,1,2,0.1,,70,8404,12,26,35,0.5,0.0,676,4.86,13.0,0.0,1,30.6,2.5,9.5,0,0,0,1,0,0,250,250,0,,,,,,,,,,,,,,,,
21803,0,,,,,,,,-0.02,0.07,-0.9,-0,1,2,0.08,,70,8404,12,26,35,0.5,0.0,680,4.93,12.8,0.0,1,30.6,1.34,9.5,0,0,0,1,0,0,250,250,0,,,,,,,,,,,,,,,,
21823,0,,,,,,,,-0.02,0.08,-1.0,-0,0,2,0.08,,70,8393,12,26,35,0.5,0.0,672,4.89,13.0,0.0,1,30.5,2.49,9.6,0,0,0,1,0,0,250,250,0,,,,,,,,,,,,,,,,
21843,0,0,1,32,34,32,34,-0,-0.02,0.07,-1.07,-0,1,3,0.07,0,70,8389,12,26,35,0.5,0.0,666,4.95,12.9,0.0,1,30.5,2.48,9.6,0,0,0,1,0,0,250,250,0,0.0,0.0,0.0,0.0,0,0,0.0,0,0.0,-1,0.0,0.0,0.0,0,0.0,0.364
21863,0,,,,,,,,-0.02,0.13,-0.82,-0,1,2,0.13,,70,8378,12,26,35,0.5,0.0,671,4.87,12.9,0.0,1,30.5,1.32,9.6,0,0,0,1,0,0,250,250,0,,,,,,,,,,,,,,,,
21883,0,,,,,,,,-0.0,0.11,-0.92,-0,1,2,0.11,,70,8378,12,26,35,0.5,0.0,673,4.91,12.9,0.0,1,30.5,2.47,9.6,0,0,0,1,0,0,250,250,0,,,,,,,,,,,,,,,,
21903,0,,,,,,,,-0.02,0.08,-0.95,-0,-0,2,0.08,,70,8385,12,26,35,0.5,0.0,673,4.91,12.9,0.0,1,30.5,1.33,9.6,0,0,0,1,0,0,250,250,0,,,,,,,,,,,,,,,,
21923,0,,,,,,,,-0.01,0.08,-1.03,-0,0,3,0.08,,70,8389,12,26,35,0.5,0.0,668,4.89,13.0,0.0,1,30.5,2.48,9.5,0,0,0,1,0,0,250,250,0,,,,,,,,,,,,,,,,
21943,0,1,1,32,33,32,34,1,-0.03,0.07,-1.12,-0,2,4,0.07,0,70,8381,12,26,35,0.5,0.0,670,4.93,12.9,0.0,1,30.5,2.47,9.5,0,0,0,1,0,0,250,250,0,0.0,0.0,0.0,0.0,0,0,0.0,0,0.0,-1,0.0,,0.0,0,0.0,0.3657
21963,0,,,,,,,,-0.02,0.13,-0.86,-0,2,3,0.13,,70,8374,12,26,35,0.5,0.0,670,4.88,12.9,0.0,1,30.5,2.47,9.5,0,0,0,1,0,0,250,250,0,,,,,,,,,,,,,,,,
21983,0,,,,,,,,-0.01,0.12,-0.76,-0,1,3,0.12,,70,8378,12,26,35,0.5,0.0,679,4.91,12.8,0.0,1,30.5,2.47,9.5,0,0,0,1,0,0,250,250,0,,,,,,,,,,,,,,,,
22003,0,,,,,,,,-0.02,0.11,-0.7,-0,-1,2,0.11,,70,8396,12,26,35,0.5,0.0,675,4.87,12.9,0.0,1,30.5,1.34,9.5,0,0,0,1,0,0,250,250,0,,,,,,,,,,,,,,,,
22023,0,,,,,,,,-0.02,0.1,-0.8,-0,0,3,0.11,,70,8393,12,26,35,0.5,0.0,677,4.9,12.8,0.0,1,30.5,2.49,9.6,0,0,0,1,0,0,250,250,0,,,,,,,,,,,,,,,,
22043,0,0,3,32,34,32,33,1,-0.03,0.08,-0.9,-0,2,4,0.08,0,70,8370,12,26,35,0.5,0.0,665,4.88,12.9,0.0,1,30.5,1.32,9.6,0,0,0,1,0,0,250,250,0,0.0,0.0,0.0,0.0,0,0,0.0,0,0.0,-1,0.0,0.0,0.0,0,0.0,0.3674
22063,0,,,,,,,,0.01,0.14,-0.66,-0,2,3,0.14,,70,8374,12,26,35,0.5,0.0,674,4.88,12.9,0.0,1,30.5,2.47,9.6,0,0,0,1,0,0,250,250,0,,,,,,,,,,,,,,,,
22083,0,,,,,,,,-0.0,0.1,-0.6,-0,1,2,0.1,,70,8366,12,26,35,0.5,0.0,671,4.87,12.9,0.0,1,30.5,2.46,9.6,0,0,0,1,0,0,250,250,0,,,,,,,,,,,,,,,,
22103,0,,,,,,,,-0.01,0.1,-0.52,-0,-1,2,0.1,,70,8393,12,26,35,0.5,0.0,672,4.91,12.9,0.0,1,30.5,1.34,9.6,0,0,0,1,0,0,250,250,0,,,,,,,,,,,,,,,,
22123,0,,,,,,,,-0.02,0.06,-0.65,-0,0,3,0.07,,70,8393,12,26,35,0.5,0.0,670,4.9,12.8,0.0,1,30.5,2.49,9.6,0,0,0,1,0,0,250,250,0,,,,,,,,,,,,,,,,
22143,0,1,1,32,33,32,34,0,-0.05,0.05,-0.7,-0,1,3,0.07,0,70,8400,12,26,35,0.5,0.0,669,4.93,12.8,0.0,1,30.6,2.48,9.6,0,0,0,1,0,0,250,250,0,0.0,0.0,0.0,0.0,0,0,0.0,0,0.0,-1,0.0,,0.0,0,0.0,0.369
22163,0,,,,,,,,-0.0,0.11,-0.52,-0,1,3,0.11,,70,8400,12,26,35,0.5,0.0,677,4.89,12.9,0.0,1,30.6,2.49,9.6,0,0,0,1,0,0,250,250,0,,,,,,,,,,,,,,,,
22183,0,,,,,,,,-0.02,0.07,-0.41,-0,1,3,0.07,,70,8404,12,26,35,0.5,0.0,679,4.9,12.9,0.0,1,30.6,2.5,9.6,0,0,0,1,0,0,250,250,0,,,,,,,,,,,,,,,,
22203,0,,,,,,,,-0.04,0.08,-0.32,-0,-2,2,0.09,,70,8411,12,26,35,0.5,0.0,678,4.91,12.9,0.0,1,30.6,1.35,9.6,0,0,0,1,0,0,250,250,0,,,,,,,,,,,,,,,,
22223,0,,,,,,,,-0.03,0.04,-0.46,-0,-0,3,0.05,,70,8426,12,26,35,0.5,0.0,679,4.91,13.0,0.0,1,30.6,2.52,9.8,0,0,0,1,0,0,250,250,0,,,,,,,,,,,,,,,,
22243,0,0,2,32,34,32,34,1,-0.04,0.02,-0.59,-0,1,3,0.04,0,70,8426,12,26,35,0.5,0.0,671,4.91,12.8,0.0,1,30.6,2.51,9.8,0,0,0,1,0,0,250,250,0,0.0,0.0,0.0,0.0,0,0,0.0,0,0.0,-1,0.0,0.0,0.0,0,0.0,0.3707
22263,0,,,,,,,,-0.01,0.08,-0.4,-0,1,3,0.08,,70,8400,12,26,35,0.5,0.0,675,4.88,12.9,0.0,1,30.6,2.49,9.8,0,0,0,1,0,0,250,250,0,,,,,,,,,,,,,,,,
22283,0,,,,,,,,-0.0,0.04,-0.26,-0,-0,3,0.04,,70,8378,12,26,35,0.5,0.0,673,4.85,12.9,0.0,1,30.5,2.47,9.8,0,0,0,1,0,0,250,250,0,,,,,,,,,,,,,,,,
22303,0,,,,,,,,-0.02,0.05,-0.11,-0,-2,1,0.06,,70,8400,12,26,35,0.5,0.0,672,4.9,12.9,0.0,1,30.6,2.49,9.8,0,0,0,1,0,0,250,250,0,,,,,,,,,,,,,,,,
22323,0,,,,,,,,-0.03,0.01,-0.27,-0,-1,2,0.03,,70,8363,12,26,35,0.5,0.0,671,4.92,13.0,0.0,1,30.5,2.46,9.4,0,0,0,1,0,0,250,250,0,,,,,,,,,,,,,,,,
22343,0,1,2,32,33,32,34,-0,0.01,-0.02,-0.36,-0,0,2,0.02,0,70,8351,12,26,35,0.5,0.0,666,4.92,12.8,0.0,1,30.5,2.44,9.4,0,0,0,1,0,0,250,250,0,0.0,0.0,0.0,0.0,0,0,0.0,0,0.0,-1,0.0,,0.0,0,0.0,0.3724
22363,0,,,,,,,,0.02,0.03,-0.33,-0,1,2,0.04,,70,8351,12,26,35,0.5,0.0,672,4.87,13.0,0.0,1,30.5,1.29,9.4,0,0,0,1,0,0,250,250,0,,,,,,,,,,,,,,,,
22383,0,,,,,,,,-0.02,0.02,-0.14,-0,-1,2,0.02,,70,8363,12,26,35,0.5,0.0,676,4.93,12.9,0.0,1,30.5,1.31,9.4,0,0,0,1,0,0,250,250,0,,,,,,,,,,,,,,,,
22403,0,,,,,,,,-0.01,0.04,-0.13,-0,-3,1,0.04,,70,8374,12,26,35,0.5,0.0,676,4.88,12.9,0.0,1,30.5,2.47,9.4,0,0,0,1,0,0,250,250,0,,,,,,,,,,,,,,,,
22423,0,,,,,,,,-0.02,-0.03,-0.28,-0,-1,1,0.04,,70,8363,12,26,35,0.5,0.0,668,4.92,12.9,0.0,1,30.5,2.46,9.5,0,0,0,1,0,0,250,250,0,,,,,,,,,,,,,,,,
22443,0,-1,2,32,33,32,34,-0,-0.01,-0.0,-0.31,-0,0,1,0.01,0,70,8351,12,26,36,0.5,0.0,674,4.95,12.9,0.0,1,30.8,1.34,9.5,0,0,0,1,0,0,250,250,0,0.0,0.0,0.0,0.0,0,0,0.0,0,0.0,-1,0.0,0.0,0.0,0,0.0,0.374
22463,0,,,,,,,,0.0,0.02,-0.42,-0,1,1,0.02,,71,8344,12,26,35,0.5,0.0,671,4.88,12.9,0.0,1,30.4,2.44,9.5,0,0,0,1,0,0,250,250,0,,,,,,,,,,,,,,,,
22483,0,,,,,,,,0.0,0.01,-0.22,-0,-1,0,0.01,,71,8355,12,26,35,0.5,0.0,675,4.93,12.8,0.0,1,30.5,1.3,9.5,0,0,0,1,0,0,250,250,0,,,,,,,,,,,,,,,,
22503,0,,,,,,,,0.0,0.03,-0.29,-0,-3,-1,0.03,,71,8363,12,26,35,0.5,0.0,671,4.92,13.0,0.0,1,30.5,1.31,9.5,0,0,0,1,0,0,250,250,0,,,,,,,,,,,,,,,,
22523,0,,,,,,,,0.02,0.0,-0.43,-0,-2,-1,0.02,,71,8378,12,26,35,0.5,0.0,675,4.91,12.8,0.0,1,30.5,1.32,9.5,0,0,0,1,0,0,250,250,0,,,,,,,,,,,,,,,,
22543,0,1,0,32,33,32,34,1,0.03,-0.02,-0.53,-0,-0,-1,0.03,0,71,8370,12,26,35,0.5,0.0,670,4.87,13.0,0.0,1,30.5,1.31,9.5,0,0,0,1,0,0,250,250,0,0.0,0.0,0.0,0.0,0,0,0.0,0,0.0,-1,0.0,,0.0,0,0.0,0.3757
22563,0,,,,,,,,0.04,-0.0,-0.49,-0,0,0,0.04,,71,8366,12,26,35,0.5,0.0,674,4.91,12.9,0.0,1,30.5,2.51,9.5,0,0,0,1,0,0,250,250,0,,,,,,,,,,,,,,,,
22583,0,,,,,,,,0.01,-0.03,-0.28,-0,-2,-0,0.03,,71,8385,12,26,35,0.5,0.0,672,4.88,13.0,0.0,1,30.5,2.48,9.5,0,0,0,1,0,0,250,250,0,,,,,,,,,,,,,,,,
22603,0,,,,,,,,0.01,-0.0,-0.18,-0,-2,-0,0.01,,71,8396,12,26,35,0.5,0.0,672,4.87,12.9,0.0,1,30.5,2.49,9.5,0,0,0,1,0,0,250,250,0,,,,,,,,,,,,,,,,
22623,0,,,,,,,,0.0,-0.07,-0.33,-0,-2,-1,0.07,,71,8411,12,26,35,0.5,0.0,672,4.91,12.9,0.0,1,30.6,2.5,9.7,0,0,0,1,0,0,250,250,0,,,,,,,,,,,,,,,,
22643,0,1,0,32,34,31,34,0,0.03,-0.09,-0.44,-0,-0,-1,0.09,0,71,8404,12,26,35,0.5,0.0,673,4.87,13.0,0.0,1,30.6,1.35,9.7,0,0,0,1,0,0,250,250,0,0.0,0.0,0.0,0.0,0,0,0.0,0,0.0,-1,0.0,0.0,0.0,0,0.0,0.3774
22663,0,,,,,,,,0.06,-0.04,-0.38,-0,0,0,0.07,,71,8389,12,26,35,0.5,0.0,676,4.9,12.9,0.0,1,30.5,2.48,9.7,0,0,0,1,0,0,250,250,0,,,,,,,,,,,,,,,,
22683,0,,,,,,,,0.01,-0.06,-0.18,-0,-2,-1,0.06,,71,8400,12,26,35,0.5,0.0,673,4.89,12.9,0.0,1,30.6,2.49,9.7,0,0,0,1,0,0,250,250,0,,,,,,,,,,,,,,,,
22703,0,,,,,,,,0.0,-0.04,-0.12,-0,-3,-1,0.04,,71,8426,12,26,35,0.5,0.0,672,4.86,13.0,0.0,1,30.6,2.52,9.7,0,0,0,1,0,0,250,250,0,,,,,,,,,,,,,,,,
22723,0,,,,,,,,0.0,-0.1,-0.27,-0,-2,-1,0.1,,71,8415,12,26,35,0.5,0.0,668,4.9,12.9,0.0,1,30.6,2.51,9.8,0,0,0,1,0,0,250,250,0,,,,,,,,,,,,,,,,
22743,0,-1,2,32,34,32,34,0,0.01,-0.09,-0.3,-0,-1,-3,0.09,0,71,8400,12,26,35,0.5,0.0,670,4.89,13.0,0.0,1,30.6,1.34,9.8,0,0,0,1,0,0,250,250,0,0.0,0.0,0.0,0.0,0,0,0.0,0,0.0,-1,0.0,,0.0,0,0.0,0.379
22763,0,,,,,,,,0.04,-0.05,-0.27,-0,-1,-2,0.06,,71,8396,12,26,35,0.5,0.0,678,4.9,12.9,0.0,1,30.5,2.49,9.8,0,0,0,1,0,0,250,250,0,,,,,,,,,,,,,,,,
22783,0,,,,,,,,0.01,-0.07,-0.08,-0,-3,-3,0.07,,71,8408,12,26,35,0.5,0.0,672,4.9,12.9,0.0,1,30.6,2.49,9.8,0,0,0,1,0,0,250,250,0,,,,,,,,,,,,,,,,
22803,0,,,,,,,,-0.0,-0.06,0.07,-0,-4,-3,0.06,,71,8415,12,26,35,0.5,0.0,673,4.91,12.9,0.0,1,30.6,2.51,9.8,0,0,0,1,0,0,250,250,0,,,,,,,,,,,,,,,,
22823,0,,,,,,,,0.01,-0.11,-0.1,-0,-3,-3,0.11,,71,8438,12,26,35,0.5,0.0,672,4.91,12.9,0.0,1,30.6,2.53,9.8,0,0,0,1,0,0,250,250,0,,,,,,,,,,,,,,,,
22843,0,0,1,32,34,32,34,-0,0.05,-0.12,-0.26,-0,-2,-3,0.13,0,71,8423,12,26,35,0.5,0.0,670,4.88,13.0,0.0,1,30.6,1.37,9.8,0,0,0,1,0,0,250,250,0,0.0,0.0,0.0,0.0,0,0,0.0,0,0.0,-1,0.0,0.0,0.0,0,0.0,0.3807
22863,0,,,,,,,,0.07,-0.08,-0.16,-0,-1,-2,0.1,,71,8426,12,26,35,0.5,0.0,672,4.9,12.9,0.0,1,30.6,2.52,9.8,0,0,0,1,0,0,250,250,0,,,,,,,,,,,,,,,,
22883,0,,,,,,,,0.05,-0.12,-0.08,-0,-3,-2,0.12,,71,8445,12,26,36,0.5,0.0,678,4.92,12.8,0.0,1,30.9,2.55,9.8,0,0,0,1,0,0,250,250,0,,,,,,,,,,,,,,,,
22903,0,,,,,,,,0.03,-0.1,0.03,-0,-4,-3,0.1,,71,8423,12,26,35,0.5,0.0,670,4.87,12.9,0.0,1,30.6,1.37,9.8,0,0,0,1,0,0,250,250,0,,,,,,,,,,,,,,,,
22923,0,,,,,,,,0.02,-0.11,-0.14,-0,-3,-2,0.11,,71,8423,12,26,35,0.5,0.0,672,4.88,12.8,0.0,1,30.6,2.52,9.8,0,0,0,1,0,0,250,250,0,,,,,,,,,,,,,,,,
22943,0,0,2,32,34,32,34,-1,0.01,-0.13,-0.27,-0,-2,-2,0.13,0,71,8408,12,26,35,0.5,0.0,673,4.93,12.9,0.0,1,30.6,2.5,9.8,0,0,0,1,0,0,250,250,0,0.0,0.0,0.0,0.0,0,0,0.0,0,0.0,-1,0.0,,0.0,0,0.0,0.3824
22963,0,,,,,,,,0.06,-0.05,-0.11,-0,-1,-2,0.08,,71,8385,12,26,35,0.5,0.0,683,4.92,12.9,0.0,1,30.5,2.48,9.8,0,0,0,1,0,0,250,250,0,,,,,,,,,,,,,,,,
22983,0,,,,,,,,0.04,-0.07,-0.08,-0,-2,-2,0.08,,71,8389,12,26,35,0.5,0.0,675,4.9,12.8,0.0,1,30.5,1.3,9.8,0,0,0,1,0,0,250,250,0,,,,,,,,,,,,,,,,
23003,0,,,,,,,,0.02,-0.05,-0.04,-0,-4,-2,0.05,,71,8359,12,26,35,0.5,0.0,674,4.87,13.0,0.0,1,30.5,1.3,9.8,0,0,0,1,0,0,250,250,0,,,,,,,,,,,,,,,,
23023,0,,,,,,,,0.02,-0.1,-0.21,-0,-3,-2,0.1,,71,8366,12,26,36,0.5,0.0,669,4.95,12.8,0.0,1,30.8,2.45,9.4,0,0,0,1,0,0,250,250,0,,,,,,,,,,,,,,,,
23043,0,-0,2,32,34,32,33,1,0.03,-0.1,-0.28,-0,-1,-2,0.1,0,71,8359,12,26,36,0.5,0.0,663,4.94,12.9,0.0,1,30.8,2.5,9.4,0,0,0,1,0,0,250,250,0,0.0,0.0,0.0,0.0,0,0,0.0,0,0.0,-1,0.0,0.0,0.0,0,0.0,0.384
23063,0,,,,,,,,0.04,-0.08,-0.32,-0,-1,-2,0.09,,71,8351,12,26,36,0.5,0.0,678,4.92,12.8,0.0,1,30.8,2.49,9.4,0,0,0,1,0,0,250,250,0,,,,,,,,,,,,,,,,
23083,0,,,,,,,,0.01,-0.12,-0.13,-0,-3,-2,0.12,,71,8329,12,26,35,0.5,0.0,670,4.88,12.8,0.0,1,30.4,1.27,9.4,0,0,0,1,0,0,250,250,0,,,,,,,,,,,,,,,,
23103,0,,,,,,,,0.01,-0.07,-0.01,-0,-3,-2,0.07,,71,8355,12,26,36,0.5,0.0,671,4.87,12.9,0.0,1,30.8,2.5,9.4,0,0,0,1,0,0,250,250,0,,,,,,,,,,,,,,,,
23123,0,,,,,,,,-0.02,-0.12,-0.17,-0,-3,-2,0.12,,71,8363,12,26,36,0.5,0.0,667,4.91,12.9,0.0,1,30.8,1.37,9.7,0,0,0,1,0,0,250,250,0,,,,,,,,,,,,,,,,
23143,0,1,1,32,33,32,34,-0,0.02,-0.09,-0.33,-0,-1,-3,0.1,0,71,8378,12,26,36,0.5,0.0,673,4.87,13.0,0.0,1,30.8,2.52,9.7,0,0,0,1,0,0,250,250,0,0.0,0.0,0.0,0.0,0,0,0.0,0,0.0,-1,0.0,,0.0,0,0.0,0.3857
23163,0,,,,,,,,0.04,-0.07,-0.46,-0,-0,-2,0.08,,71,8393,12,26,36,0.5,0.0,680,4.96,12.9,0.0,1,30.8,2.53,9.7,0,0,0,1,0,0,250,250,0,,,,,,,,,,,,,,,,
23183,0,,,,,,,,0.0,-0.06,-0.26,-0,-2,-2,0.06,,71,8396,12,26,36,0.5,0.0,678,4.91,12.9,0.0,1,30.8,2.53,9.7,0,0,0,1,0,0,250,250,0,,,,,,,,,,,,,,,,
23203,0,,,,,,,,0.02,-0.02,-0.26,-0,-3,-2,0.03,,71,8396,12,26,36,0.5,0.0,679,4.92,12.8,0.0,1,30.8,2.53,9.7,0,0,0,1,0,0,250,250,0,,,,,,,,,,,,,,,,
23223,0,,,,,,,,0.01,-0.06,-0.41,-0,-2,-3,0.06,,71,8404,12,26,36,0.5,0.0,668,4.91,12.8,0.0,1,30.9,2.49,9.8,0,0,0,1,0,0,250,250,0,,,,,,,,,,,,,,,,
23243,0,1,1,32,34,32,34,0,0.02,-0.05,-0.49,-0,-1,-3,0.06,0,71,8408,12,26,36,0.5,0.0,675,4.92,13.0,0.0,1,30.9,1.39,9.8,0,0,0,1,0,0,250,250,0,0.0,0.0,0.0,0.0,0,0,0.0,0,0.0,-1,0.0,0.0,0.0,0,0.0,0.3874
23263,0,,,,,,,,0.04,-0.04,-0.59,-0,-1,-2,0.05,,72,8411,12,26,36,0.5,0.0,677,4.9,12.9,0.0,1,30.9,2.55,9.8,0,0,0,1,0,0,250,250,0,,,,,,,,,,,,,,,,
23283,0,,,,,,,,0.02,-0.02,-0.38,-0,-2,-2,0.03,,72,8423,12,26,35,0.5,0.0,670,4.87,13.0,0.0,1,30.6,2.52,9.8,0,0,0,1,0,0,250,250,0,,,,,,,,,,,,,,,,
23303,0,,,,,,,,0.0,-0.0,-0.34,-0,-3,-2,0.0,,72,8430,12,26,35,0.5,0.0,672,4.87,12.9,0.0,1,30.6,2.56,9.8,0,0,0,1,0,0,250,250,0,,,,,,,,,,,,,,,,
23323,0,,,,,,,,0.01,-0.07,-0.48,-0,-2,-3,0.07,,72,8426,12,26,36,0.5,0.0,666,4.9,12.9,0.0,1,30.9,2.56,9.8,0,0,0,1,0,0,250,250,0,,,,,,,,,,,,,,,,
23343,0,1,0,32,34,32,33,0,0.02,-0.03,-0.54,-0,-1,-4,0.03,0,72,8408,12,26,35,0.5,0.0,670,4.91,12.9,0.0,1,30.6,2.5,9.8,0,0,0,1,0,0,250,250,0,0.0,0.0,0.0,0.0,0,0,0.0,0,0.0,-1,0.0,,0.0,0,0.0,0.389
23363,0,,,,,,,,0.01,-0.02,-0.66,-0,-0,-3,0.02,,72,8411,12,26,35,0.5,0.0,682,4.87,12.9,0.0,1,30.6,2.5,9.8,0,0,0,1,0,0,250,250,0,,,,,,,,,,,,,,,,
23383,0,,,,,,,,-0.01,-0.06,-0.44,-0,-2,-3,0.06,,72,8426,12,26,35,0.5,0.0,675,4.87,12.9,0.0,1,30.6,1.37,9.8,0,0,0,1,0,0,250,250,0,,,,,,,,,,,,,,,,
23403,0,,,,,,,,-0.01,-0.02,-0.26,-0,-3,-3,0.03,,72,8442,12,26,35,0.5,0.0,673,4.9,12.9,0.0,1,30.6,2.53,9.8,0,0,0,1,0,0,250,250,0,,,,,,,,,,,,,,,,
23423,0,,,,,,,,-0.02,-0.08,-0.41,-0,-2,-3,0.09,,72,8453,12,26,36,0.5,0.0,675,4.92,12.9,0.0,1,31.0,2.58,9.9,0,0,0,1,0,0,250,250,0,,,,,,,,,,,,,,,,
23443,0,0,2,32,34,32,33,1,0.01,-0.09,-0.47,-0,-1,-4,0.1,0,72,8461,12,26,35,0.5,0.0,670,4.9,12.9,0.0,1,30.7,1.4,9.9,0,0,0,1,0,0,250,250,0,0.0,0.0,0.0,0.0,0,0,0.0,0,0.0,-1,0.0,0.0,0.0,0,0.0,0.3907
23463,0,,,,,,,,0.05,-0.05,-0.41,-0,-1,-3,0.07,,72,8434,12,26,35,0.5,0.0,678,4.88,13.0,0.0,1,30.6,1.38,9.9,0,0,0,1,0,0,250,250,0,,,,,,,,,,,,,,,,
23483,0,,,,,,,,0.01,-0.08,-0.29,-0,-2,-3,0.08,,72,8449,12,26,36,0.5,0.0,673,4.92,12.9,0.0,1,30.9,1.43,9.9,0,0,0,1,0,0,250,250,0,,,,,,,,,,,,,,,,
23503,0,,,,,,,,-0.01,-0.06,-0.22,-0,-4,-4,0.06,,72,8430,12,26,35,0.5,0.0,672,4.89,12.9,0.0,1,30.6,2.52,9.9,0,0,0,1,0,0,250,250,0,,,,,,,,,,,,,,,,
23523,0,,,,,,,,0.0,-0.1,-0.37,-0,-2,-2,0.1,,72,8426,12,26,35,0.5,0.0,667,4.91,12.8,0.0,1,30.6,2.52,9.7,0,0,0,1,0,0,250,250,0,,,,,,,,,,,,,,,,
23543,0,1,0,32,34,32,33,1,-0.01,-0.1,-0.4,-0,-1,-2,0.1,0,72,8389,12,26,36,0.5,0.0,670,4.96,12.9,0.0,1,30.9,2.48,9.7,0,0,0,1,0,0,250,250,0,0.0,0.0,0.0,0.0,0,0,0.0,0,0.0,-1,0.0,,0.0,0,0.0,0.3924
23563,0,,,,,,,,0.03,-0.06,-0.36,-0,-0,-1,0.07,,72,8355,12,26,35,0.5,0.0,676,4.87,13.0,0.0,1,30.5,2.5,9.7,0,0,0,1,0,0,250,250,0,,,,,,,,,,,,,,,,
23583,0,,,,,,,,0.01,-0.08,-0.16,-0,-2,-2,0.08,,72,8359,12,26,36,0.5,0.0,675,4.93,12.9,0.0,1,30.7,1.34,9.7,0,0,0,1,0,0,250,250,0,,,,,,,,,,,,,,,,
23603,0,,,,,,,,-0.01,-0.07,-0.11,-0,-4,-2,0.07,,72,8322,12,26,36,0.5,0.0,673,4.89,13.0,0.0,1,30.7,1.31,9.7,0,0,0,1,0,0,250,250,0,,,,,,,,,,,,,,,,
23623,0,,,,,,,,-0.02,-0.14,-0.26,-0,-3,-3,0.14,,72,8325,12,26,36,0.5,0.0,669,4.99,12.9,0.0,1,30.7,1.32,9.4,0,0,0,1,0,0,250,250,0,,,,,,,,,,,,,,,,
23643,0,-1,2,32,33,32,34,-0,0.01,-0.1,-0.41,-0,-1,-3,0.1,0,72,8322,12,26,36,0.5,0.0,666,4.93,12.9,0.0,1,30.7,2.46,9.4,0,0,0,1,0,0,250,250,0,0.0,0.0,0.0,0.0,0,0,0.0,0,0.0,-1,0.0,0.0,0.0,0,0.0,0.394
23663,0,,,,,,,,0.02,-0.11,-0.54,-1,-0,-2,0.11,,72,8337,12,26,36,0.5,0.0,678,4.92,12.9,0.0,1,30.7,2.49,9.4,0,0,0,1,0,0,250,250,0,,,,,,,,,,,,,,,,
23683,0,,,,,,,,0.0,-0.08,-0.36,-0,-2,-2,0.08,,72,8344,12,26,36,0.5,0.0,671,4.91,12.9,0.0,1,30.7,2.49,9.4,0,0,0,1,0,0,250,250,0,,,,,,,,,,,,,,,,
