"Interval"|"ms"|0|0|1,"Utc"|"ms"|0|0|1,"FB_p"|"bar"|0|300|50,"Volant"|"F"|0.0|300.0|50,"xFR"|"mm"|0.0|5.0|50,"xRR"|"mm"|0.0|5.0|50,"xFL"|"mm"|0.0|5.0|50,"xRL"|"mm"|0.0|5.0|50,"AccelX"|"G"|-3.0|3.0|50,"AccelY"|"G"|-3.0|3.0|50,"AccelZ"|"G"|-3.0|3.0|50,"Yaw"|"Deg/Sec"|-120|120|50,"Pitch"|"Deg/Sec"|-120|120|50,"Roll"|"Deg/Sec"|-120|120|50,"Gsum"|"G"|0.0|3.0|50,"RPM"|""|0|14000|50,"TPS"|"%"|0|100|50,"WaterTemp"|"?C"|0|300|50,"AirTemp"|"?C"|-1000|1000|50,"MAP"|"KPa"|0|255|50,"Lambda"|""|0|1024|50,"WheelSpeed"|"MPH"|0.0|150.0|50,"OilPress"|"PSI"|0|150|50,"FuelPress"|"PSI"|0|150|50,"OilTemp"|"F"|0|300|50,"Battery"|"Volts"|0.0|20.0|50,"FuelCon"|"L/h"|-1000|1000|50,"Gear"|""|0|10|50,"Advance"|"Deg"|-360|360|50,"Injection"|"ms"|-1000|1000|50,"FuelCon"|"L/100km"|-1000|1000|50,"LC_But_Pres"|""|-1000|1000|50,"LC_Active"|""|-1000|1000|50,"RD_Speed"|""|-1000|1000|50,"RUD_Speed"|""|-1000|1000|50,"LD_Speed"|""|-1000|1000|50,"LUD_Speed"|""|-1000|1000|50,"Ana1"|"bar"|-1000.0|1000.0|50,"Latitude"|"Degrees"|-180.0|180.0|10,"Longitude"|"Degrees"|-180.0|180.0|10,"Speed"|"kph"|0.0|150.0|10,"Altitude"|"m"|0.0|4000.0|10,"LapCount"|""|0|0|10,"LapTime"|"Min"|0.0|0.0|10,"Sector"|""|0|0|10,"SectorTime"|"Min"|0.0|0.0|10,"ElapsedTime"|"Min"|0.0|0.0|10,"CurrentLap"|""|0|0|10,"Distance"|"km"|0.0|0.0|10,"SessionTime"|"Min"|0.0|0.0|10
256264,1564237648620,1,2.28,0.96,0.31,1.33,0.97,0.9,0.18,0.53,-5,-3,-8,0.92,6686,14,86,37,40,838,487.0,542,462,60,123.0,107,1,317,208,52,0,0,492,1,-10483,485,-5.59,,,,,,,,,,,,
256284,1564237648640,-0,2.29,0.96,0.3,1.33,0.98,0.78,0.17,0.51,-4,-2,-8,0.8,6696,14,86,37,40,840,487.0,533,462,60,122.0,107,1,317,208,52,0,0,488,505,1,483,-5.59,,,,,,,,,,,,
256304,1564237648660,0,2.29,0.97,0.31,1.34,0.98,0.89,0.21,0.46,-4,-0,-7,0.92,6720,14,86,37,40,840,487.0,535,467,60,121.0,107,1,317,208,52,0,0,484,505,-899,482,-5.59,,,,,,,,,,,,
256324,1564237648680,-0,2.28,0.97,0.31,1.33,0.97,0.86,0.17,0.48,-4,-1,-7,0.88,6725,14,86,37,40,842,486.0,530,462,60,123.0,107,1,317,208,52,0,0,487,-1562,-1562,483,-5.59,,,,,,,,,,,,
256344,1564237648698,1,2.29,0.97,0.3,1.33,0.97,0.91,0.15,0.48,-4,-1,-8,0.92,6727,14,86,37,41,845,485.0,533,463,60,121.0,107,1,324,208,52,0,0,486,-6441,16648,481,-5.59,44.681389,10.02088,47.92,177.9,0,0.0,-1,0.0,0.0,0,1.68,4.2724
256364,1564237648718,-2,2.3,0.97,0.31,1.34,0.97,0.84,0.15,0.49,-4,-1,-8,0.85,6730,14,86,37,40,849,484.0,529,465,60,123.0,109,1,317,208,53,0,0,486,-10483,-10483,481,-5.59,,,,,,,,,,,,
256384,1564237648738,1,2.29,0.97,0.3,1.32,0.97,0.88,0.17,0.46,-4,-2,-7,0.9,6756,14,86,37,40,854,486.0,527,461,60,122.0,109,1,317,208,53,0,0,486,-10483,-10483,481,-5.59,,,,,,,,,,,,
256404,1564237648758,6,2.29,0.97,0.3,1.34,0.97,0.84,0.16,0.53,-4,-1,-6,0.85,6742,14,86,37,40,857,484.0,528,462,60,123.0,109,1,317,208,53,0,0,485,-1562,10305,481,-5.59,,,,,,,,,,,,
256424,1564237648778,-1,2.29,0.97,0.3,1.33,0.97,0.89,0.19,0.51,-4,-1,-5,0.91,6694,14,86,37,40,859,483.0,532,463,60,122.0,109,1,317,210,53,0,0,485,-10483,-6441,481,-5.59,,,,,,,,,,,,
256444,1564237648800,3,2.28,0.97,0.31,1.34,0.98,0.83,0.13,0.55,-4,-3,-5,0.84,6658,14,86,37,40,862,484.0,529,461,60,123.0,109,1,317,210,53,0,0,488,-10483,-6441,480,-5.59,44.681389,10.020864,47.75,177.9,0,0.0,-1,0.0,0.0,0,1.68,4.2741
256464,1564237648820,-2,2.29,0.97,0.31,1.33,0.98,0.84,0.18,0.51,-3,-1,-6,0.86,6595,14,86,37,41,865,483.0,523,466,60,122.0,110,1,324,210,53,0,0,493,3580,3580,480,-5.59,,,,,,,,,,,,
256484,1564237648840,1,2.28,0.97,0.31,1.34,0.97,0.82,0.14,0.51,-4,-1,-5,0.83,6560,15,86,37,41,867,484.0,520,460,60,127.0,110,1,323,210,53,0,0,493,3580,3580,480,-5.59,,,,,,,,,,,,
256504,1564237648860,0,2.28,0.96,0.31,1.33,0.98,0.79,0.17,0.52,-4,-0,-5,0.81,6510,15,86,37,41,868,484.0,517,465,60,124.0,110,1,323,210,53,0,0,487,-10483,-899,477,-5.59,,,,,,,,,,,,
256524,1564237648880,-2,2.28,0.96,0.31,1.33,0.98,0.84,0.16,0.5,-4,-1,-5,0.85,6469,15,86,37,42,870,485.0,516,463,60,122.0,110,1,330,211,53,0,0,487,-6441,2212,477,-5.59,,,,,,,,,,,,
256544,1564237648900,1,2.27,0.97,0.31,1.33,0.98,0.85,0.16,0.59,-5,-2,-5,0.86,6474,15,86,37,42,872,485.0,514,462,60,123.0,110,1,330,211,53,0,0,487,3580,-899,478,-5.59,44.681393,10.020847,47.59,177.9,0,0.0,-1,0.0,0.0,0,1.68,4.2757
256564,1564237648920,1,2.26,0.96,0.31,1.34,0.97,0.82,0.19,0.58,-4,-1,-6,0.84,6485,15,86,37,42,873,486.0,510,465,60,123.0,109,1,330,211,52,0,0,487,3580,-899,478,-5.59,,,,,,,,,,,,
256584,1564237648940,-2,2.27,0.96,0.31,1.33,0.98,0.84,0.26,0.53,-4,0,-6,0.88,6521,15,86,37,43,873,484.0,512,465,60,121.0,109,1,337,213,52,0,0,487,-10483,16648,478,-5.59,,,,,,,,,,,,
256604,1564237648960,1,2.27,0.96,0.31,1.33,0.98,0.84,0.23,0.61,-5,-1,-6,0.87,6533,15,86,37,42,876,483.0,522,460,60,122.0,109,1,330,237,52,0,0,485,3580,-23367,475,-5.59,,,,,,,,,,,,
256624,1564237648980,-0,2.26,0.97,0.31,1.34,0.98,0.77,0.27,0.6,-5,0,-7,0.82,6526,15,86,37,43,877,486.0,520,462,60,124.0,109,1,337,236,52,0,0,488,-1562,8488,475,-5.59,,,,,,,,,,,,
256644,1564237648991,-0,2.26,0.97,0.31,1.34,0.98,0.85,0.28,0.56,-5,1,-7,0.9,6508,15,86,37,43,878,486.0,524,465,60,122.0,109,1,337,232,52,0,0,487,-1562,-899,475,-5.59,44.681396,10.02083,47.5,178.0,0,0.0,-1,0.0,0.0,0,1.69,4.2774
256664,1564237649011,1,2.26,0.97,0.31,1.33,0.98,0.87,0.22,0.6,-6,-1,-7,0.9,6512,15,86,37,43,880,484.0,528,463,60,122.0,120,1,337,230,57,0,0,484,-10483,-23367,476,-5.59,,,,,,,,,,,,
256684,1564237649031,-1,2.27,0.96,0.31,1.34,0.97,0.83,0.26,0.57,-5,0,-7,0.87,6524,15,86,37,43,883,483.0,516,462,60,123.0,120,1,337,227,57,0,0,484,-10483,-23367,476,-5.59,,,,,,,,,,,,
256704,1564237649051,0,2.25,0.97,0.31,1.34,0.98,0.85,0.27,0.56,-5,0,-7,0.89,6549,10,86,37,43,886,482.0,520,462,60,121.0,120,1,337,226,57,0,0,484,3580,-9203,474,-5.59,,,,,,,,,,,,
256724,1564237649071,3,2.26,0.97,0.31,1.34,0.98,0.85,0.25,0.57,-6,-1,-7,0.88,6546,16,86,37,43,889,482.0,514,462,60,123.0,120,1,337,239,57,0,0,484,32033,-9203,476,-5.59,,,,,,,,,,,,
256744,1564237649099,-2,2.26,0.97,0.31,1.33,0.98,0.86,0.31,0.6,-5,0,-7,0.91,6539,16,86,37,44,891,483.0,514,460,60,122.0,120,1,344,238,57,0,0,484,3580,2212,473,-5.59,44.681396,10.020815,47.19,178.0,0,0.0,-1,0.0,0.0,0,1.69,4.2791
256764,1564237649119,1,2.26,0.97,0.3,1.33,0.98,0.89,0.24,0.63,-6,-1,-8,0.92,6537,15,86,37,44,895,481.0,519,466,60,120.0,122,1,344,234,58,0,0,482,3580,10305,475,-5.59,,,,,,,,,,,,
256784,1564237649139,3,2.26,0.96,0.3,1.33,0.97,0.85,0.28,0.61,-6,-1,-9,0.9,6546,16,86,37,44,900,483.0,521,461,60,123.0,122,1,344,231,58,0,0,481,3580,16648,473,-5.59,,,,,,,,,,,,
256804,1564237649159,-1,2.26,0.96,0.31,1.34,0.98,0.86,0.35,0.55,-5,0,-8,0.93,6560,15,86,37,44,902,482.0,518,465,60,122.0,122,1,344,228,58,0,0,482,-899,-16384,473,-5.59,,,,,,,,,,,,
256824,1564237649179,1,2.25,0.97,0.3,1.34,0.98,0.89,0.23,0.58,-6,-2,-8,0.92,6583,15,86,37,44,905,479.0,519,462,60,121.0,122,1,344,226,58,0,0,480,10305,-17956,474,-5.59,,,,,,,,,,,,
256844,1564237649199,0,2.25,0.97,0.31,1.33,0.98,0.78,0.27,0.59,-6,-0,-9,0.82,6592,10,86,37,44,907,478.0,515,463,60,123.0,122,1,344,240,58,0,0,481,8488,8488,471,-5.59,44.6814,10.020799,47.18,178.0,0,0.0,-1,0.0,0.0,0,1.69,4.2807
256864,1564237649219,-1,2.26,0.97,0.3,1.33,0.98,0.9,0.27,0.55,-6,-1,-9,0.94,6555,9,86,37,44,908,479.0,520,465,60,122.0,127,1,344,214,60,0,0,481,10305,2212,471,-5.59,,,,,,,,,,,,
256884,1564237649239,2,2.25,0.97,0.31,1.34,0.98,0.85,0.21,0.61,-7,-3,-8,0.88,6494,16,86,37,44,909,481.0,521,461,60,124.0,127,1,343,238,60,0,0,481,10305,2212,471,-5.59,,,,,,,,,,,,
256904,1564237649259,0,2.25,0.97,0.31,1.33,0.98,0.8,0.26,0.58,-6,-0,-7,0.85,6469,16,86,37,45,908,482.0,519,466,60,122.0,127,1,350,237,60,0,0,481,32033,16648,473,-5.59,,,,,,,,,,,,
256924,1564237649279,-2,2.26,0.96,0.31,1.32,0.98,0.9,0.28,0.53,-6,-1,-8,0.95,6456,15,86,37,45,906,482.0,516,465,60,121.0,127,1,350,235,60,0,0,481,32033,2212,473,-5.59,,,,,,,,,,,,
256944,1564237649299,1,2.25,0.96,0.3,1.33,0.98,0.9,0.25,0.57,-6,-2,-8,0.93,6496,14,86,37,45,906,481.0,514,459,60,122.0,127,1,350,232,60,0,0,481,-899,-9203,473,-5.59,44.6814,10.020782,46.98,178.0,0,0.0,-1,0.0,0.0,0,1.69,4.2824
256964,1564237649319,0,2.26,0.97,0.31,1.33,0.98,0.83,0.25,0.57,-6,-1,-8,0.87,6505,16,86,37,45,905,480.0,521,462,60,122.0,118,1,351,229,56,0,0,481,32033,3576,472,-5.59,,,,,,,,,,,,
256984,1564237649339,-0,2.26,0.96,0.31,1.33,0.98,0.9,0.26,0.56,-6,-2,-8,0.94,6508,16,86,37,46,904,480.0,516,463,60,122.0,118,1,358,140,56,0,0,482,8488,-23367,471,-5.59,,,,,,,,,,,,
257004,1564237649359,3,2.25,0.97,0.31,1.34,0.98,0.85,0.22,0.61,-7,-3,-8,0.88,6517,17,86,37,45,904,481.0,519,461,60,123.0,118,1,351,139,56,0,0,481,32033,-1923,472,-5.59,,,,,,,,,,,,
257024,1564237649379,-1,2.25,0.96,0.32,1.33,0.98,0.79,0.24,0.58,-7,-0,-8,0.82,6512,15,86,37,45,904,481.0,512,462,60,123.0,118,1,351,139,56,0,0,480,32033,-9203,470,-5.59,,,,,,,,,,,,
257044,1564237649399,-1,2.26,0.97,0.31,1.34,0.98,0.91,0.26,0.58,-7,-1,-7,0.95,6517,16,86,37,45,905,479.0,516,463,60,122.0,118,1,351,218,56,0,0,480,32033,-9203,470,-5.59,44.6814,10.020766,46.92,178.1,0,0.0,-1,0.0,0.0,0,1.69,4.2841
257064,1564237649419,3,2.25,0.97,0.32,1.34,0.98,0.84,0.22,0.66,-7,-2,-8,0.87,6492,15,86,37,45,906,481.0,519,463,60,123.0,112,1,350,217,53,0,0,483,32033,3576,472,-5.59,,,,,,,,,,,,
257084,1564237649439,-1,2.25,0.97,0.31,1.33,0.98,0.72,0.25,0.59,-6,1,-8,0.77,6485,0,87,37,46,905,480.0,513,463,60,123.0,112,1,357,212,53,0,0,483,32033,3576,472,-5.59,,,,,,,,,,,,
257104,1564237649459,-1,2.25,0.96,0.31,1.34,0.98,0.85,0.26,0.62,-7,1,-8,0.89,6469,11,86,37,46,904,479.0,516,463,60,122.0,112,1,357,243,53,0,0,482,8488,-9203,472,-5.59,,,,,,,,,,,,
257124,1564237649479,4,2.25,0.97,0.31,1.33,0.98,0.85,0.22,0.61,-7,-2,-8,0.88,6481,17,86,37,46,903,480.0,514,461,60,123.0,112,1,357,240,53,0,0,481,32033,-9203,472,-5.59,,,,,,,,,,,,
257144,1564237649499,-1,2.25,0.97,0.31,1.34,0.97,0.74,0.24,0.62,-7,-1,-8,0.78,6499,17,87,37,46,901,479.0,508,462,60,122.0,112,1,357,237,53,0,0,479,10305,-16384,471,-5.59,44.6814,10.02075,46.91,178.1,0,0.0,-1,0.0,0.0,0,1.69,4.2857
257164,1564237649519,-1,2.26,0.97,0.32,1.34,0.97,0.84,0.27,0.6,-6,-0,-8,0.88,6521,17,86,37,46,902,477.0,515,465,60,122.0,123,1,358,234,58,0,0,479,10305,-16384,471,-5.59,,,,,,,,,,,,
257184,1564237649539,1,2.26,0.97,0.31,1.33,0.98,0.81,0.21,0.56,-7,0,-8,0.84,6508,16,87,37,46,905,480.0,516,462,60,123.0,123,1,358,232,58,0,0,481,2212,-9203,472,-5.59,,,,,,,,,,,,
257204,1564237649559,-1,2.25,0.97,0.31,1.34,0.98,0.78,0.26,0.56,-7,1,-8,0.83,6503,16,87,37,46,908,478.0,514,462,60,123.0,123,1,358,229,58,0,0,483,16648,3576,473,-5.59,,,,,,,,,,,,
257224,1564237649579,-0,2.25,0.97,0.31,1.34,0.98,0.86,0.27,0.56,-7,-1,-9,0.9,6463,0,86,37,46,913,479.0,520,465,60,121.0,123,1,357,219,58,0,0,483,16648,3576,473,-5.59,,,,,,,,,,,,
257244,1564237649599,1,2.26,0.97,0.31,1.33,0.98,0.8,0.24,0.6,-7,-2,-9,0.83,6465,15,87,37,46,921,482.0,513,462,60,124.0,123,1,357,244,58,0,0,485,10305,32033,470,-5.59,44.681404,10.020734,46.83,178.1,0,0.0,-1,0.0,0.0,0,1.69,4.2874
257264,1564237649619,-1,2.26,0.96,0.31,1.33,0.98,0.73,0.27,0.58,-7,2,-9,0.78,6465,17,87,37,46,931,480.0,509,463,60,123.0,127,1,357,241,60,0,0,485,10305,3576,470,-5.59,,,,,,,,,,,,
257284,1564237649639,-1,2.25,0.97,0.31,1.34,0.98,0.86,0.33,0.6,-7,0,-9,0.93,6456,16,87,37,47,938,478.0,509,465,60,123.0,127,1,364,241,60,0,0,478,16648,-9203,469,-5.59,,,,,,,,,,,,
257304,1564237649659,2,2.26,0.97,0.31,1.33,0.98,0.78,0.26,0.65,-7,-2,-9,0.82,6510,16,87,37,46,945,480.0,511,460,60,123.0,127,1,358,238,60,0,0,478,16648,-9203,469,-5.59,,,,,,,,,,,,
257324,1564237649679,0,2.26,0.97,0.32,1.34,0.98,0.68,0.3,0.61,-7,1,-9,0.74,6512,17,87,37,47,949,477.0,513,463,60,124.0,127,1,365,235,60,0,0,483,2212,-9203,469,-5.59,,,,,,,,,,,,
257344,1564237649700,-2,2.26,0.96,0.31,1.33,0.99,0.81,0.38,0.63,-7,0,-7,0.9,6512,17,87,37,47,949,478.0,517,461,60,123.0,127,1,364,231,60,0,0,480,16648,3576,471,-5.59,44.681404,10.020718,46.87,178.1,0,0.0,-1,0.0,0.0,0,1.7,4.2891
257364,1564237649720,1,2.27,0.97,0.31,1.33,0.97,0.75,0.34,0.66,-7,-3,-8,0.82,6472,14,86,37,47,950,478.0,519,460,60,121.0,121,1,364,228,57,0,0,482,16648,-9203,470,-5.59,,,,,,,,,,,,
257384,1564237649740,2,2.27,0.97,0.31,1.33,0.99,0.71,0.26,0.66,-6,-3,-11,0.76,6443,17,87,37,47,946,479.0,514,462,60,124.0,121,1,364,225,57,0,0,477,10305,-17956,471,-5.59,,,,,,,,,,,,
257404,1564237649760,-1,2.26,0.96,0.31,1.34,0.98,0.82,0.28,0.57,-6,-2,-9,0.86,6441,17,87,37,47,941,478.0,506,466,60,123.0,121,1,364,142,57,0,0,475,16648,16648,470,-5.59,,,,,,,,,,,,
257424,1564237649780,0,2.26,0.97,0.31,1.33,0.98,0.82,0.28,0.48,-6,-3,-9,0.86,6472,17,87,37,47,937,478.0,508,466,60,124.0,121,1,364,220,57,0,0,475,16648,16648,470,-5.59,,,,,,,,,,,,
257444,1564237649799,-2,2.28,0.97,0.31,1.33,0.97,0.79,0.23,0.55,-6,-2,-9,0.82,6379,16,87,37,47,935,478.0,514,459,60,124.0,121,1,363,218,57,0,0,475,16648,3576,469,-5.59,44.681404,10.0207,46.75,178.2,0,0.0,-1,0.0,0.0,0,1.7,4.2907
257464,1564237649819,-1,2.26,0.96,0.31,1.33,0.97,0.84,0.26,0.49,-7,-1,-9,0.87,6216,17,87,37,47,937,475.0,502,461,60,123.0,110,1,362,218,52,0,0,483,-17956,-16384,468,-5.59,,,,,,,,,,,,
257484,1564237649839,-2,2.27,0.97,0.31,1.33,0.98,0.88,0.29,0.55,-6,-2,-9,0.93,6069,17,87,37,47,938,477.0,491,466,60,123.0,110,1,360,217,52,0,0,478,2212,243,469,181.28,,,,,,,,,,,,
257504,1564237649859,-1,2.28,0.97,0.3,1.34,0.97,1.0,0.27,0.62,-7,1,-10,1.03,5920,7,87,37,48,938,478.0,479,462,60,124.0,110,1,355,212,52,0,0,478,2212,243,469,-5.59,,,,,,,,,,,,
257524,1564237649879,2,2.28,0.97,0.3,1.34,0.98,1.05,0.27,0.62,-7,-1,-9,1.09,5767,16,87,37,48,938,474.0,470,464,60,121.0,110,1,342,409,52,0,0,477,-23367,32033,468,-5.59,,,,,,,,,,,,
257544,1564237649899,3,2.27,0.97,0.3,1.33,0.97,0.99,0.32,0.64,-7,-0,-8,1.05,5635,0,87,37,49,937,475.0,464,464,60,123.0,110,1,334,336,52,0,0,468,-17956,-9160,467,-5.59,44.681404,10.020685,46.75,178.2,0,0.0,-1,0.0,0.0,0,1.7,4.2924
257564,1564237649919,-0,2.28,0.97,0.3,1.33,0.97,1.0,0.22,0.57,-6,-4,-10,1.03,5771,15,87,37,51,934,468.0,459,459,60,123.0,152,1,353,371,71,0,0,426,-16384,5600,461,-5.59,,,,,,,,,,,,
257584,1564237649939,0,2.28,0.97,0.3,1.32,0.97,0.99,0.18,0.51,-6,-7,-10,1.01,6279,13,87,37,51,938,465.0,473,463,60,123.0,152,1,375,334,71,0,0,426,-16384,5600,461,-5.59,,,,,,,,,,,,
257604,1564237649959,3,2.27,0.97,0.3,1.32,0.96,1.04,0.25,0.47,-6,-8,-11,1.07,6430,16,87,37,50,944,463.0,493,458,60,124.0,152,1,373,286,71,0,0,461,30272,16648,460,-5.59,,,,,,,,,,,,
257624,1564237649979,-2,2.28,0.97,0.3,1.33,0.97,0.96,0.36,0.35,-5,-8,-9,1.02,6818,16,87,37,50,951,460.0,516,467,60,122.0,152,1,376,254,71,0,0,424,6193,-8165,454,-5.59,,,,,,,,,,,,
257644,1564237649992,1,2.29,0.97,0.31,1.33,0.97,0.98,0.35,0.42,-6,-8,-8,1.04,7088,16,87,37,48,958,459.0,534,463,60,123.0,152,1,372,243,71,0,0,445,-23623,243,454,-5.59,44.681404,10.020669,46.28,178.2,0,0.0,-1,0.0,0.0,0,1.7,4.2941
257664,1564237650012,3,2.28,0.97,0.31,1.33,0.97,0.98,0.38,0.34,-5,-5,-7,1.05,7467,15,87,37,47,1047,454.0,556,463,60,124.0,146,1,370,234,66,0,0,437,2524,21580,450,-5.59,,,,,,,,,,,,
257684,1564237650032,-1,2.28,0.97,0.31,1.33,0.97,0.95,0.44,0.32,-5,-4,-6,1.04,7687,8,87,37,45,1116,453.0,584,461,60,123.0,146,1,355,218,66,0,0,445,-3267,-7939,446,-5.59,,,,,,,,,,,,
257704,1564237650052,0,2.28,0.98,0.3,1.34,0.97,1.06,0.47,0.36,-5,-4,-6,1.16,8061,5,87,37,43,1204,447.0,600,465,60,122.0,146,1,340,138,66,0,0,434,10305,-768,442,-5.59,,,,,,,,,,,,
257724,1564237650072,2,2.29,0.97,0.31,1.33,0.98,0.99,0.48,0.36,-4,-3,-6,1.1,8220,6,87,37,41,1287,443.0,615,463,60,122.0,146,1,328,235,66,0,0,428,-18341,21580,441,-5.59,,,,,,,,,,,,
257744,1564237650098,0,2.28,0.97,0.3,1.34,0.98,1.08,0.45,0.39,-4,-4,-5,1.17,8337,8,87,37,38,1309,441.0,627,466,60,123.0,146,1,313,202,66,0,0,435,26704,243,440,-5.59,44.681404,10.020653,44.65,178.2,0,0.0,-1,0.0,0.0,0,1.7,4.2957
257764,1564237650118,2,2.3,0.97,0.3,1.33,0.98,0.96,0.31,0.4,-4,-4,-6,1.01,8400,5,87,37,36,1291,441.0,628,465,60,123.0,147,1,309,199,65,0,0,435,26704,243,440,-5.59,,,,,,,,,,,,
257784,1564237650138,1,2.29,0.97,0.3,1.34,0.98,1.02,0.32,0.42,-4,-3,-6,1.07,8393,14,87,37,35,1216,441.0,635,462,60,122.0,147,1,305,194,65,0,0,442,23400,23400,439,-5.59,,,,,,,,,,,,
257804,1564237650158,-1,2.29,0.97,0.31,1.33,0.99,0.97,0.29,0.4,-4,-1,-5,1.01,8337,15,87,37,34,1142,440.0,633,466,60,123.0,147,1,301,188,65,0,0,443,20625,21432,436,-5.59,,,,,,,,,,,,
257824,1564237650178,1,2.29,0.98,0.31,1.34,0.98,0.96,0.31,0.47,-4,-1,-5,1.0,8191,11,87,37,34,1040,441.0,625,466,60,123.0,147,1,298,184,65,0,0,441,20625,21580,436,-5.59,,,,,,,,,,,,
257844,1564237650198,2,2.3,0.98,0.3,1.34,0.98,0.91,0.29,0.48,-4,1,-5,0.96,8026,4,87,37,33,908,438.0,627,463,60,123.0,147,1,292,171,65,0,0,441,20625,21580,436,-5.59,44.681404,10.020638,43.25,178.2,0,0.0,-1,0.0,0.0,0,1.7,4.2974
257864,1564237650218,-1,2.3,0.97,0.31,1.33,0.99,1.02,0.27,0.5,-4,0,-5,1.06,7978,1,87,37,33,865,436.0,613,465,60,125.0,122,1,292,170,53,0,0,440,5600,1779,434,-5.59,,,,,,,,,,,,
257884,1564237650238,2,2.3,0.97,0.31,1.34,0.98,0.96,0.25,0.57,-4,-0,-5,0.99,7904,16,87,37,33,855,435.0,608,462,60,122.0,122,1,292,173,53,0,0,440,5600,1779,434,-5.59,,,,,,,,,,,,
257904,1564237650258,3,2.29,0.97,0.31,1.33,0.99,0.93,0.17,0.59,-3,-1,-5,0.95,7874,15,87,37,33,849,434.0,612,464,60,123.0,122,1,292,178,53,0,0,431,-768,-3314,431,-5.59,,,,,,,,,,,,
257924,1564237650278,-1,2.3,0.97,0.3,1.33,0.99,0.97,0.13,0.51,-3,-1,-5,0.98,7951,16,87,37,33,837,433.0,606,464,60,124.0,122,1,292,173,53,0,0,424,243,13180,430,-5.59,,,,,,,,,,,,
257944,1564237650298,1,2.3,0.97,0.31,1.34,0.98,0.99,0.14,0.52,-3,-2,-6,1.0,7982,11,87,37,34,831,429.0,608,463,60,122.0,122,1,295,170,53,0,0,424,243,13180,430,-5.59,44.681404,10.020622,43.1,178.2,0,0.0,-1,0.0,0.0,0,1.7,4.2991
257964,1564237650318,2,2.29,0.97,0.31,1.34,0.99,0.88,0.14,0.53,-3,-1,-5,0.89,7968,1,87,37,34,830,431.0,616,465,60,123.0,124,1,295,175,53,0,0,427,1779,-3314,425,-5.59,,,,,,,,,,,,
257984,1564237650338,-1,2.3,0.96,0.31,1.33,0.99,0.9,0.17,0.46,-3,-1,-4,0.92,8026,4,87,37,33,830,427.0,615,464,60,123.0,124,1,292,190,53,0,0,427,1779,-3314,425,-5.59,,,,,,,,,,,,
258004,1564237650358,1,2.3,0.97,0.31,1.34,0.98,0.96,0.2,0.52,-3,-1,-5,0.98,7995,13,87,37,33,833,427.0,616,466,60,122.0,124,1,292,190,53,0,0,425,31796,13180,426,-5.59,,,,,,,,,,,,
258024,1564237650378,2,2.3,0.97,0.31,1.33,0.98,0.85,0.2,0.5,-2,-0,-6,0.87,7918,15,87,37,34,835,427.0,618,465,60,122.0,124,1,295,101,53,0,0,426,31796,-21792,426,-5.59,,,,,,,,,,,,
258044,1564237650398,4,2.31,0.97,0.31,1.33,0.98,0.87,0.16,0.44,-2,1,-4,0.88,7951,16,87,37,33,841,425.0,620,465,60,124.0,124,1,292,95,53,0,0,419,-3856,13552,423,-5.59,44.681404,10.020607,42.52,178.3,0,0.0,-1,0.0,0.0,0,1.7,4.3007
258064,1564237650418,-2,2.32,0.97,0.3,1.33,0.98,0.98,0.14,0.51,-2,-1,-4,0.99,7904,15,87,37,33,844,425.0,611,463,60,123.0,120,1,292,173,51,0,0,421,-3856,-3856,422,-5.59,,,,,,,,,,,,
258084,1564237650438,1,2.31,0.97,0.31,1.34,0.99,0.95,0.18,0.56,-2,-2,-5,0.97,7874,11,87,37,34,845,422.0,611,466,60,122.0,120,1,295,173,51,0,0,421,3826,-8165,422,-5.59,,,,,,,,,,,,
258104,1564237650458,1,2.31,0.97,0.31,1.33,0.98,0.85,0.15,0.48,-2,-1,-4,0.87,7891,16,87,37,33,843,423.0,608,463,60,124.0,120,1,292,197,51,0,0,423,3826,-8165,421,-5.59,,,,,,,,,,,,
258124,1564237650478,-1,2.32,0.97,0.31,1.33,0.98,0.86,0.12,0.46,-2,-0,-3,0.87,7855,15,87,37,34,838,420.0,605,465,60,124.0,120,1,295,194,51,0,0,423,3826,-8165,421,-5.59,,,,,,,,,,,,
258144,1564237650500,-1,2.32,0.96,0.31,1.33,0.99,0.97,0.11,0.55,-2,-1,-3,0.97,7812,15,87,37,34,833,420.0,598,465,60,123.0,120,1,295,191,51,0,0,415,-8165,-8165,421,-5.59,44.681404,10.020593,41.76,178.3,0,0.0,-1,0.0,0.0,0,1.71,4.3024
258164,1564237650520,1,2.33,0.97,0.31,1.33,0.99,0.94,0.11,0.58,-1,-1,-3,0.95,7809,15,87,37,34,829,420.0,600,463,60,123.0,133,1,295,189,56,0,0,419,-8165,-8165,420,-5.59,,,,,,,,,,,,
258184,1564237650540,1,2.32,0.96,0.31,1.33,0.98,0.87,0.13,0.56,-1,-2,-3,0.88,7760,16,87,37,34,825,419.0,600,466,60,122.0,133,1,295,186,56,0,0,418,-3414,-21944,419,-5.59,,,,,,,,,,,,
258204,1564237650560,4,2.31,0.97,0.31,1.34,0.98,0.76,0.13,0.46,-1,0,-3,0.77,7776,4,87,37,34,825,417.0,599,463,60,123.0,133,1,295,175,56,0,0,416,-21944,-8165,418,-5.59,,,,,,,,,,,,
258224,1564237650580,2,2.31,0.97,0.31,1.33,0.98,0.81,0.09,0.42,-0,1,-1,0.81,7719,16,87,37,34,824,415.0,599,463,60,124.0,133,1,295,195,56,0,0,415,-26615,-21944,415,-5.59,,,,,,,,,,,,
258244,1564237650600,0,2.32,0.97,0.31,1.34,0.97,0.92,0.13,0.43,-1,-1,-1,0.93,7697,15,87,37,35,823,416.0,593,465,60,123.0,133,1,298,193,56,0,0,415,-26615,-21944,415,-5.59,44.6814,10.020577,41.47,178.3,0,0.0,-1,0.0,0.0,0,1.71,4.3041
258264,1564237650620,-0,2.3,0.97,0.31,1.34,0.97,1.01,0.08,0.49,-1,-2,-3,1.01,7716,14,87,37,35,821,415.0,596,465,60,122.0,139,1,298,197,58,0,0,416,-26615,-9166,416,-5.59,,,,,,,,,,,,
258284,1564237650640,1,2.31,0.96,0.31,1.34,0.98,0.98,0.14,0.49,-1,-2,-2,0.99,7735,16,87,37,35,820,413.0,598,465,60,122.0,139,1,298,194,58,0,0,409,-9166,-9166,412,-5.59,,,,,,,,,,,,
258304,1564237650660,1,2.31,0.97,0.31,1.33,0.99,0.88,0.14,0.51,-1,-2,-0,0.89,7747,15,87,37,35,818,412.0,596,462,60,122.0,139,1,298,204,58,0,0,409,13040,10392,413,-5.59,,,,,,,,,,,,
258324,1564237650680,2,2.31,0.97,0.31,1.33,0.99,0.75,0.08,0.52,-0,-0,-2,0.76,7693,16,87,37,35,815,411.0,603,465,60,123.0,139,1,298,201,58,0,0,412,-4059,9517,411,-5.59,,,,,,,,,,,,
258344,1564237650698,3,2.31,0.97,0.31,1.34,0.98,0.7,0.07,0.42,0,0,-3,0.7,7681,15,87,37,35,812,410.0,597,465,60,123.0,139,1,298,199,58,0,0,406,9517,10392,410,-5.59,44.6814,10.020563,41.18,178.3,0,0.0,-1,0.0,0.0,0,1.71,4.3057
258364,1564237650718,3,2.32,0.97,0.31,1.34,0.98,0.71,0.06,0.35,0,1,-1,0.71,7621,15,87,37,35,811,409.0,606,463,60,123.0,139,1,298,196,57,0,0,406,9517,10392,410,-5.59,,,,,,,,,,,,
258384,1564237650738,4,2.31,0.96,0.31,1.33,0.98,0.77,0.06,0.32,-0,1,-0,0.77,7637,15,87,37,35,811,409.0,595,463,60,123.0,139,1,298,204,57,0,0,406,10392,2524,408,-5.59,,,,,,,,,,,,
258404,1564237650758,2,2.31,0.97,0.31,1.34,0.98,0.83,0.07,0.34,-0,0,-1,0.83,7591,16,87,37,35,810,405.0,592,462,60,123.0,139,1,298,203,57,0,0,404,-9211,10541,405,-5.59,,,,,,,,,,,,
258424,1564237650778,3,2.32,0.97,0.31,1.34,0.98,0.91,0.01,0.4,-0,-0,-0,0.91,7569,16,87,37,36,809,404.0,591,463,60,123.0,139,1,301,207,57,0,0,405,-8151,-8151,404,-5.59,,,,,,,,,,,,
258444,1564237650800,3,2.33,0.96,0.31,1.33,0.99,1.0,0.01,0.48,-0,-1,0,1.0,7521,16,87,37,36,809,405.0,588,462,60,123.0,139,1,301,205,57,0,0,405,-8151,11545,402,-5.59,44.6814,10.020549,40.48,178.3,0,0.0,-1,0.0,0.0,0,1.71,4.3074
258464,1564237650820,3,2.33,0.97,0.31,1.34,0.98,1.1,-0.02,0.55,-1,-2,-1,1.1,7485,15,87,37,36,809,403.0,578,466,60,122.0,144,1,301,202,58,0,0,399,-8151,28696,402,-5.59,,,,,,,,,,,,
258484,1564237650840,1,2.34,0.96,0.31,1.33,0.99,1.13,-0.05,0.6,-1,-2,-1,1.13,7434,15,87,37,36,808,401.0,582,463,60,123.0,144,1,301,198,58,0,0,397,11545,-8151,401,-5.59,,,,,,,,,,,,
258504,1564237650860,2,2.34,0.97,0.31,1.34,0.98,1.15,-0.13,0.66,-1,-1,-0,1.16,7425,16,87,37,37,806,400.0,577,464,60,123.0,144,1,304,203,58,0,0,398,6384,-32702,400,-5.59,,,,,,,,,,,,
258524,1564237650880,6,2.34,0.97,0.31,1.34,0.98,1.17,-0.11,0.61,-1,-2,1,1.18,7399,15,87,37,37,804,398.0,585,462,60,124.0,144,1,304,199,58,0,0,395,-3968,6512,398,-5.59,,,,,,,,,,,,
258544,1564237650900,6,2.34,0.97,0.31,1.33,0.98,1.2,-0.08,0.6,-1,-1,0,1.21,7416,16,87,37,37,803,396.0,574,463,60,124.0,144,1,304,118,58,0,0,395,-32702,-32702,396,-5.59,44.6814,10.020535,39.88,178.3,0,0.0,-1,0.0,0.0,0,1.71,4.3091
258564,1564237650920,7,2.34,0.97,0.31,1.33,0.99,1.12,-0.08,0.5,-0,0,-0,1.12,7384,14,87,37,37,801,394.0,580,465,60,122.0,138,1,304,195,55,0,0,390,1,-1818,394,-5.59,,,,,,,,,,,,
258584,1564237650940,7,2.33,0.97,0.31,1.34,0.99,1.05,-0.08,0.4,0,1,2,1.05,7393,16,87,37,37,799,391.0,574,463,60,121.0,138,1,304,195,55,0,0,388,505,-6524,390,-5.59,,,,,,,,,,,,
258604,1564237650960,7,2.34,0.97,0.32,1.33,0.99,0.96,-0.04,0.33,0,2,3,0.97,7344,9,87,37,37,798,389.0,577,462,60,123.0,138,1,304,225,55,0,0,387,240,-1818,389,-5.59,,,,,,,,,,,,
258624,1564237650980,7,2.33,0.97,0.31,1.33,0.99,0.86,-0.01,0.27,1,2,1,0.86,7347,13,87,37,38,797,387.0,573,467,60,121.0,138,1,307,222,55,0,0,382,-3866,-3866,387,-5.59,,,,,,,,,,,,
258644,1564237650993,10,2.34,0.97,0.32,1.33,0.99,0.84,-0.03,0.22,1,1,0,0.84,7335,0,87,37,38,796,383.0,571,465,60,123.0,138,1,307,201,55,0,0,376,19125,-6475,383,-5.59,44.6814,10.020522,39.09,178.4,0,0.0,-1,0.0,0.0,0,1.71,4.3107
258664,1564237651013,8,2.34,0.97,0.31,1.34,0.98,0.91,-0.07,0.23,1,1,1,0.91,7335,0,87,37,38,793,382.0,570,468,60,122.0,146,1,307,197,56,0,0,374,-992,-19019,382,-5.59,,,,,,,,,,,,
258684,1564237651033,7,2.34,0.97,0.31,1.34,0.98,0.99,-0.09,0.34,1,-0,2,0.99,7352,0,87,37,38,792,379.0,568,465,60,124.0,146,1,307,197,56,0,0,375,-6656,770,379,-5.59,,,,,,,,,,,,
258704,1564237651053,7,2.35,0.97,0.31,1.34,0.98,1.09,-0.08,0.46,1,-2,2,1.09,7312,15,88,37,38,790,377.0,571,460,60,123.0,146,1,307,201,56,0,0,374,-6656,770,376,-5.59,,,,,,,,,,,,
258724,1564237651073,8,2.34,0.97,0.31,1.34,0.99,1.16,-0.09,0.46,1,-3,2,1.17,7329,16,88,37,38,789,375.0,569,468,60,124.0,146,1,307,201,56,0,0,365,257,770,375,-5.59,,,,,,,,,,,,
258744,1564237651099,10,2.34,0.97,0.31,1.33,0.98,1.06,-0.1,0.44,1,-1,2,1.06,7253,8,88,37,38,791,374.0,568,464,60,124.0,146,1,307,197,56,0,0,364,0,0,375,-5.59,44.6814,10.020507,38.18,178.4,0,0.0,-1,0.0,0.0,0,1.71,4.3124
258764,1564237651119,9,2.35,0.97,0.31,1.34,0.99,0.94,-0.06,0.35,2,1,4,0.94,7267,0,88,37,38,794,372.0,565,465,60,123.0,144,1,307,203,54,0,0,367,0,486,372,-5.59,,,,,,,,,,,,
258784,1564237651139,6,2.36,0.97,0.31,1.33,0.99,0.86,-0.02,0.31,3,2,4,0.86,7145,16,87,37,39,797,370.0,568,462,60,123.0,144,1,310,229,54,0,0,367,0,486,372,-5.59,,,,,,,,,,,,
258804,1564237651159,4,2.35,0.97,0.31,1.34,0.98,0.86,-0.07,0.37,3,1,3,0.86,7025,16,88,37,39,801,370.0,557,465,60,123.0,144,1,310,227,54,0,0,370,-6405,3,370,-5.59,,,,,,,,,,,,
258824,1564237651179,7,2.35,0.97,0.31,1.34,0.98,0.94,-0.11,0.38,2,1,3,0.95,6848,16,88,37,40,804,369.0,555,464,60,123.0,144,1,317,225,54,0,0,371,230,1,369,-5.59,,,,,,,,,,,,
258844,1564237651199,4,2.36,0.97,0.31,1.33,0.99,0.85,-0.08,0.33,3,2,3,0.86,6761,15,88,37,40,807,370.0,538,464,60,121.0,144,1,317,223,54,0,0,368,-1268,257,370,-5.59,44.6814,10.020494,36.66,178.4,0,0.0,-1,0.0,0.0,0,1.71,4.3141
258864,1564237651219,7,2.36,0.97,0.31,1.33,0.98,0.93,-0.14,0.36,2,0,4,0.94,6653,16,88,37,41,807,366.0,536,459,60,122.0,154,1,324,133,57,0,0,368,-6458,230,366,-5.59,,,,,,,,,,,,
258884,1564237651239,4,2.35,0.97,0.31,1.34,0.98,0.9,-0.14,0.36,3,1,4,0.91,6648,16,88,37,42,808,365.0,523,463,60,123.0,154,1,331,220,57,0,0,360,-29302,-6405,365,-5.59,,,,,,,,,,,,
258904,1564237651259,6,2.35,0.97,0.32,1.33,0.99,0.95,-0.17,0.36,2,-0,4,0.97,6670,15,88,37,42,811,363.0,524,462,60,122.0,154,1,331,217,57,0,0,356,-6640,-14707,363,-5.59,,,,,,,,,,,,
258924,1564237651279,2,2.37,0.97,0.32,1.34,0.98,0.87,-0.15,0.34,3,1,5,0.88,6679,15,88,37,42,814,362.0,528,463,60,124.0,154,1,331,214,57,0,0,355,-6640,-6458,362,-5.59,,,,,,,,,,,,
258944,1564237651300,5,2.36,0.97,0.31,1.34,0.98,0.96,-0.1,0.39,2,-0,5,0.96,6667,15,88,37,43,816,360.0,528,466,60,122.0,154,1,338,213,57,0,0,353,4104,-29302,360,-5.59,44.6814,10.020482,36.07,178.4,0,0.0,-1,0.0,0.0,0,1.71,4.3157
258964,1564237651320,7,2.36,0.98,0.31,1.34,0.99,0.88,-0.17,0.42,2,-2,5,0.89,6672,15,88,37,43,818,359.0,530,463,60,123.0,150,1,338,213,54,0,0,352,3302,-6640,359,-5.59,,,,,,,,,,,,
258984,1564237651340,5,2.37,0.97,0.32,1.34,0.99,0.89,-0.09,0.35,3,1,5,0.9,6720,15,88,37,43,817,358.0,526,468,60,123.0,150,1,338,213,54,0,0,352,3302,-29302,358,-5.59,,,,,,,,,,,,
259004,1564237651360,6,2.36,0.97,0.32,1.34,0.99,0.92,-0.14,0.34,3,-1,5,0.93,6710,15,88,37,43,816,356.0,528,464,60,122.0,150,1,338,213,54,0,0,350,3183,-6640,356,-5.59,,,,,,,,,,,,
259024,1564237651380,3,2.37,0.97,0.32,1.34,0.99,0.91,-0.07,0.36,3,0,5,0.91,6670,15,88,37,43,812,355.0,532,465,60,122.0,150,1,338,213,54,0,0,350,3183,-6640,356,-5.59,,,,,,,,,,,,
259044,1564237651397,7,2.36,0.97,0.31,1.34,0.98,0.91,-0.12,0.41,3,-0,6,0.92,6623,15,88,37,43,810,353.0,523,461,60,124.0,150,1,338,213,54,0,0,352,-1246,-6640,355,-5.59,44.6814,10.020469,35.46,178.4,0,0.0,-1,0.0,0.0,0,1.72,4.3174
259064,1564237651417,3,2.37,0.97,0.31,1.33,0.99,0.9,-0.08,0.42,3,2,6,0.9,6576,14,88,37,44,810,352.0,519,465,60,122.0,150,1,344,137,53,0,0,347,-30438,-6640,352,-5.59,,,,,,,,,,,,
259084,1564237651437,3,2.37,0.97,0.32,1.33,0.99,0.9,-0.14,0.38,2,-1,5,0.91,6514,15,88,37,44,811,352.0,517,463,60,123.0,150,1,344,214,53,0,0,347,-30438,-6640,352,-5.59,,,,,,,,,,,,
259104,1564237651457,5,2.37,0.97,0.32,1.34,0.99,0.81,-0.15,0.44,3,2,5,0.82,6461,15,88,37,44,814,351.0,514,461,60,124.0,150,1,343,214,53,0,0,349,-30438,-30454,350,-5.59,,,,,,,,,,,,
259124,1564237651477,3,2.37,0.96,0.31,1.33,0.99,0.82,-0.09,0.4,3,3,6,0.82,6438,15,88,37,45,818,350.0,509,463,60,123.0,150,1,350,214,53,0,0,347,-14714,-30454,350,-5.59,,,,,,,,,,,,
259144,1564237651499,4,2.37,0.97,0.31,1.34,0.99,0.94,-0.06,0.41,3,1,6,0.94,6408,15,88,37,45,828,349.0,508,464,60,123.0,150,1,350,216,53,0,0,342,-31206,-1246,349,-5.59,44.6814,10.020457,34.77,178.5,0,0.0,-1,0.0,0.0,0,1.72,4.3191
259164,1564237651519,5,2.37,0.97,0.31,1.33,0.99,0.89,-0.12,0.44,3,-1,7,0.9,6414,15,88,37,45,842,347.0,512,461,60,124.0,149,1,350,216,52,0,0,342,-31206,-1246,349,-5.59,,,,,,,,,,,,
259184,1564237651539,3,2.37,0.97,0.31,1.34,0.98,0.84,-0.13,0.49,4,-1,7,0.85,6419,15,88,37,45,847,346.0,514,465,60,123.0,149,1,350,216,52,0,0,341,-122,6870,346,-5.59,,,,,,,,,,,,
259204,1564237651559,4,2.36,0.97,0.32,1.34,0.98,0.86,-0.07,0.42,4,0,6,0.86,6397,15,88,37,45,854,344.0,509,462,60,124.0,149,1,350,216,52,0,0,340,-31222,-31206,344,-5.59,,,,,,,,,,,,
259224,1564237651579,3,2.37,0.97,0.32,1.33,0.99,0.93,-0.05,0.38,4,-0,6,0.93,6416,14,88,37,45,868,343.0,510,466,60,123.0,149,1,350,217,52,0,0,339,13,6870,343,-5.59,,,,,,,,,,,,
259244,1564237651599,5,2.37,0.98,0.31,1.34,0.98,0.82,-0.13,0.36,3,0,7,0.83,6388,14,88,37,45,880,343.0,507,461,60,123.0,149,1,349,215,52,0,0,339,13,6870,343,-5.59,44.6814,10.020444,34.25,178.5,0,0.0,-1,0.0,0.0,0,1.72,4.3207
259264,1564237651619,4,2.36,0.97,0.31,1.34,0.98,0.84,-0.12,0.4,3,1,6,0.85,6351,14,88,37,46,884,341.0,506,466,60,124.0,148,1,356,216,51,0,0,338,3346,-122,341,-5.59,,,,,,,,,,,,
259284,1564237651639,2,2.36,0.97,0.32,1.34,0.98,0.9,-0.04,0.39,3,1,6,0.9,6321,13,88,37,46,889,341.0,510,463,60,123.0,148,1,355,216,51,0,0,339,13,3327,340,-5.59,,,,,,,,,,,,
259304,1564237651659,3,2.36,0.97,0.31,1.34,0.99,0.94,-0.06,0.38,3,-1,7,0.94,6285,14,88,37,46,898,340.0,506,465,60,123.0,148,1,355,216,51,0,0,339,13,3327,340,-5.59,,,,,,,,,,,,
259324,1564237651679,5,2.36,0.97,0.32,1.33,0.99,0.87,-0.15,0.37,3,-2,7,0.89,6287,14,88,37,46,905,338.0,504,462,60,122.0,148,1,355,216,51,0,0,335,-6528,6668,338,-5.59,,,,,,,,,,,,
259344,1564237651699,4,2.36,0.97,0.32,1.33,0.99,0.81,-0.14,0.45,3,-1,6,0.83,6275,14,88,37,46,913,337.0,499,460,60,123.0,148,1,355,216,51,0,0,333,-32559,-122,337,-5.59,44.6814,10.020432,33.68,178.5,0,0.0,-1,0.0,0.0,0,1.72,4.3224
259364,1564237651719,1,2.34,0.97,0.32,1.33,0.99,0.86,-0.1,0.42,3,-1,6,0.86,6270,14,88,37,46,917,338.0,498,463,60,124.0,150,1,355,216,51,0,0,333,-12032,3346,338,-5.59,,,,,,,,,,,,
259384,1564237651739,2,2.33,0.97,0.32,1.34,0.99,0.9,-0.05,0.4,3,-0,6,0.91,6258,14,88,37,46,924,337.0,497,466,60,123.0,150,1,355,216,51,0,0,335,175,13,336,-5.59,,,,,,,,,,,,
259404,1564237651759,2,2.34,0.97,0.32,1.34,0.98,0.99,-0.0,0.44,3,-1,7,0.99,6252,14,88,37,46,931,336.0,495,465,60,122.0,150,1,355,216,51,0,0,330,175,3346,336,-5.59,,,,,,,,,,,,
259424,1564237651779,3,2.33,0.97,0.32,1.34,0.99,0.92,-0.09,0.45,2,-1,6,0.92,6202,13,88,37,46,937,336.0,492,463,60,122.0,150,1,355,216,51,0,0,333,-20736,-6528,336,-5.59,,,,,,,,,,,,
259444,1564237651799,4,2.33,0.97,0.32,1.34,0.99,0.82,-0.18,0.53,2,-1,6,0.84,6202,14,88,37,46,941,335.0,491,466,60,122.0,150,1,355,216,51,0,0,333,-20736,3346,335,-5.59,44.6814,10.020421,33.16,178.6,0,0.0,-1,0.0,0.0,0,1.72,4.3241
259464,1564237651819,5,2.32,0.97,0.31,1.34,0.98,0.74,-0.22,0.57,2,0,6,0.77,6196,13,88,37,46,945,331.0,496,461,60,124.0,150,1,354,215,50,0,0,331,-20736,-20736,331,-5.59,,,,,,,,,,,,
259484,1564237651839,4,2.34,0.97,0.32,1.33,0.99,0.68,-0.17,0.54,2,2,6,0.7,6188,14,88,37,46,947,332.0,500,460,60,124.0,150,1,354,215,50,0,0,330,170,-20736,332,-5.59,,,,,,,,,,,,
259504,1564237651859,6,2.32,0.97,0.32,1.34,0.99,0.68,-0.1,0.54,3,4,5,0.69,6177,14,88,37,46,949,330.0,495,465,60,123.0,150,1,354,217,50,0,0,327,165,175,330,-5.59,,,,,,,,,,,,
259524,1564237651879,2,2.33,0.97,0.31,1.34,0.98,0.77,-0.04,0.52,3,4,6,0.77,6165,14,88,37,47,949,329.0,495,464,60,123.0,150,1,361,217,50,0,0,326,-23296,-20736,331,-5.59,,,,,,,,,,,,
259544,1564237651899,2,2.32,0.97,0.31,1.34,0.98,0.85,0.01,0.49,3,4,6,0.85,6129,14,88,37,47,948,329.0,492,465,60,123.0,150,1,361,217,50,0,0,327,-23296,160,329,-5.59,44.6814,10.020409,32.7,178.6,0,0.0,-1,0.0,0.0,0,1.72,4.3257
259564,1564237651919,2,2.32,0.97,0.32,1.33,0.99,0.93,0.05,0.47,3,3,6,0.93,6133,14,88,37,47,947,327.0,493,466,60,123.0,152,1,361,217,50,0,0,327,160,-24576,327,-5.59,,,,,,,,,,,,
259584,1564237651939,3,2.32,0.97,0.32,1.33,0.98,1.04,0.08,0.48,2,1,6,1.04,6125,13,88,37,47,945,326.0,492,463,60,123.0,152,1,361,217,50,0,0,324,155,170,326,-5.59,,,,,,,,,,,,
259604,1564237651959,3,2.31,0.97,0.32,1.33,0.98,1.11,0.1,0.42,1,-1,6,1.11,6073,13,88,37,47,945,325.0,488,464,60,122.0,152,1,360,217,50,0,0,324,150,160,325,-5.59,,,,,,,,,,,,
259624,1564237651979,5,2.31,0.96,0.32,1.34,0.98,1.14,0.08,0.41,1,-3,6,1.14,6048,13,88,37,47,944,323.0,483,461,60,121.0,152,1,360,217,50,0,0,325,155,-23296,323,-5.59,,,,,,,,,,,,
259644,1564237651992,4,2.31,0.97,0.31,1.34,0.99,1.11,0.05,0.45,-0,-6,6,1.11,6025,13,88,37,47,944,323.0,479,464,60,122.0,152,1,360,217,50,0,0,324,-25856,-23296,322,-5.59,44.6814,10.020397,32.37,178.7,0,0.0,-1,0.0,0.0,0,1.72,4.3274
259664,1564237652012,5,2.31,0.97,0.32,1.33,0.99,1.1,0.02,0.43,-1,-7,6,1.11,5984,13,88,37,47,944,321.0,482,466,60,122.0,152,1,358,217,49,0,0,322,150,-22016,321,-5.59,,,,,,,,,,,,
259684,1564237652032,5,2.31,0.97,0.32,1.34,0.98,1.16,0.03,0.39,-1,-9,6,1.16,5961,13,88,37,48,945,321.0,480,464,60,122.0,152,1,359,222,49,0,0,321,-27136,155,320,-5.59,,,,,,,,,,,,
259704,1564237652052,3,2.31,0.97,0.31,1.34,0.98,1.18,0.03,0.36,-2,-11,6,1.18,5950,13,88,37,48,944,320.0,477,465,60,122.0,152,1,358,222,49,0,0,321,-28416,-25856,320,-5.59,,,,,,,,,,,,
259724,1564237652072,3,2.31,0.97,0.31,1.34,0.98,1.21,0.04,0.31,-2,-13,6,1.21,5937,13,88,37,48,941,318.0,474,461,60,122.0,152,1,357,145,49,0,0,319,145,-28416,318,-5.59,,,,,,,,,,,,
259744,1564237652100,3,2.31,0.96,0.31,1.33,0.98,1.26,0.07,0.28,-2,-15,5,1.26,5922,13,88,37,48,938,316.0,472,462,60,122.0,152,1,355,222,49,0,0,320,140,140,316,-5.59,44.6814,10.020386,31.85,178.7,0,0.0,-1,0.0,0.0,0,1.72,4.3291
259764,1564237652120,3,2.32,0.97,0.32,1.34,0.98,1.28,0.11,0.32,-2,-16,5,1.29,5901,13,88,37,48,934,315.0,474,462,60,122.0,155,1,351,222,49,0,0,315,-29696,-29696,315,-5.59,,,,,,,,,,,,
259784,1564237652140,3,2.3,0.97,0.31,1.34,0.98,1.35,0.14,0.39,-2,-16,4,1.35,5894,13,88,37,48,930,314.0,472,463,60,123.0,155,1,353,222,49,0,0,316,-30976,135,314,-5.59,,,,,,,,,,,,
259804,1564237652160,4,2.31,0.97,0.32,1.34,0.99,1.42,0.17,0.46,-2,-16,4,1.42,5877,13,88,37,49,923,313.0,467,462,60,122.0,155,1,355,227,49,0,0,315,-30976,-30976,312,-5.59,,,,,,,,,,,,
259824,1564237652180,4,2.31,0.97,0.31,1.34,0.98,1.42,0.18,0.5,-2,-14,3,1.43,5841,13,88,37,49,916,312.0,469,463,60,124.0,155,1,352,227,49,0,0,312,130,32000,312,-5.59,,,,,,,,,,,,
259844,1564237652198,6,2.31,0.97,0.32,1.34,0.98,1.35,0.19,0.51,-2,-12,2,1.37,5806,13,88,37,50,913,311.0,466,463,60,124.0,155,1,352,227,49,0,0,312,-32256,32000,310,-5.59,44.6814,10.020374,31.26,178.7,0,0.0,-1,0.0,0.0,0,1.72,4.3307
259864,1564237652218,7,2.31,0.97,0.32,1.33,0.99,1.23,0.16,0.51,-1,-8,2,1.24,5801,13,88,37,50,910,310.0,463,464,60,124.0,158,1,352,231,49,0,0,310,125,120,309,-5.59,,,,,,,,,,,,
259884,1564237652238,6,2.31,0.97,0.31,1.34,0.98,1.05,0.07,0.51,-1,-5,3,1.06,5772,13,88,37,50,903,308.0,465,460,60,124.0,158,1,350,231,49,0,0,310,125,120,309,-5.59,,,,,,,,,,,,
259904,1564237652258,3,2.32,0.97,0.31,1.34,0.99,0.94,0.02,0.47,-1,-4,3,0.94,5749,13,88,37,51,898,307.0,457,465,60,124.0,158,1,351,235,49,0,0,306,29440,32000,306,-5.59,,,,,,,,,,,,
259924,1564237652278,4,2.31,0.97,0.32,1.33,0.99,0.96,0.06,0.45,-1,-5,3,0.96,5699,13,88,37,51,894,305.0,455,463,60,124.0,158,1,347,158,49,0,0,305,29440,110,305,-5.59,,,,,,,,,,,,
259944,1564237652298,4,2.31,0.97,0.32,1.34,0.99,1.07,0.07,0.55,-1,-7,2,1.07,5669,13,88,37,51,890,304.0,451,463,60,124.0,158,1,344,158,49,0,0,306,110,26880,304,-5.59,44.6814,10.020364,30.63,178.7,0,0.0,-1,0.0,0.0,0,1.72,4.3324
259964,1564237652318,7,2.32,0.97,0.32,1.34,0.98,1.05,0.06,0.52,-0,-5,2,1.05,5607,13,87,37,52,880,303.0,449,463,60,125.0,167,1,343,238,51,0,0,300,105,28160,303,181.28,,,,,,,,,,,,
259984,1564237652338,5,2.32,0.97,0.31,1.33,0.98,0.94,0.03,0.55,-0,-2,2,0.94,5562,13,87,37,53,869,302.0,448,463,60,124.0,167,1,343,242,51,0,0,300,105,28160,303,-5.59,,,,,,,,,,,,
260004,1564237652358,3,2.32,0.96,0.31,1.33,0.99,0.95,0.05,0.5,-1,-4,2,0.95,5542,13,88,37,54,862,300.0,446,466,60,123.0,167,1,343,246,51,0,0,300,100,26880,301,-5.59,,,,,,,,,,,,
260024,1564237652378,5,2.3,0.97,0.31,1.33,0.98,1.01,0.05,0.59,-1,-4,1,1.02,5524,13,88,37,54,855,298.0,441,464,60,125.0,167,1,344,246,51,0,0,300,25600,25600,300,-5.59,,,,,,,,,,,,
260044,1564237652400,5,2.32,0.97,0.32,1.34,0.99,0.95,0.03,0.55,-1,-3,1,0.95,5542,13,87,37,54,846,297.0,441,462,60,125.0,167,1,345,246,51,0,0,295,24320,25600,295,-5.59,44.6814,10.020353,30.0,178.7,0,0.0,-1,0.0,0.0,0,1.72,4.3341
260064,1564237652420,5,2.31,0.97,0.31,1.33,0.99,0.97,0.04,0.45,-1,-4,1,0.97,5552,13,87,37,55,835,295.0,440,465,60,123.0,172,1,344,247,51,0,0,294,23040,85,295,-5.59,,,,,,,,,,,,
260084,1564237652440,5,2.31,0.97,0.31,1.33,0.99,1.05,0.06,0.51,-1,-4,-0,1.05,5527,13,87,37,55,829,293.0,442,463,60,125.0,172,1,342,247,51,0,0,294,23040,85,295,-5.59,,,,,,,,,,,,
260104,1564237652460,5,2.32,0.97,0.31,1.34,0.98,0.97,0.09,0.49,-0,-3,1,0.97,5537,13,87,37,55,824,292.0,446,465,60,124.0,172,1,343,247,51,0,0,292,85,23040,293,-5.59,,,,,,,,,,,,
260124,1564237652480,4,2.31,0.97,0.31,1.33,0.99,0.91,0.01,0.38,-1,-2,1,0.91,5500,13,87,37,56,819,292.0,446,465,60,124.0,172,1,338,248,51,0,0,292,0,21760,292,-5.59,,,,,,,,,,,,
260144,1564237652500,7,2.31,0.97,0.31,1.34,0.98,1.01,0.07,0.45,-0,-3,0,1.02,5477,13,87,37,56,816,291.0,438,461,60,125.0,172,1,336,248,51,0,0,293,20480,0,291,-5.59,44.681404,10.020343,29.4,178.7,0,0.0,-1,0.0,0.0,0,1.73,4.3357
260164,1564237652520,3,2.3,0.96,0.32,1.33,0.99,0.97,0.09,0.49,0,-1,0,0.97,5417,13,87,37,56,815,290.0,433,463,60,125.0,175,1,330,250,51,0,0,292,0,20480,290,-5.59,,,,,,,,,,,,
260184,1564237652540,3,2.31,0.97,0.32,1.33,0.99,0.94,0.04,0.36,-0,-0,1,0.94,5329,13,87,37,57,815,289.0,426,467,60,124.0,175,1,319,249,51,0,0,288,41,0,289,-5.59,,,,,,,,,,,,
260204,1564237652560,5,2.31,0.97,0.31,1.33,0.98,0.98,0.12,0.47,0,-1,0,0.98,5290,13,87,37,57,815,287.0,430,461,60,125.0,175,1,316,249,51,0,0,289,41,41,286,-5.59,,,,,,,,,,,,
260224,1564237652580,4,2.3,0.97,0.32,1.34,0.98,0.9,0.05,0.35,0,-1,2,0.9,5299,13,87,37,58,813,286.0,431,465,60,123.0,175,1,313,252,51,0,0,286,10686,41,286,-5.59,,,,,,,,,,,,
260244,1564237652600,5,2.31,0.96,0.31,1.34,0.98,0.95,0.09,0.51,-0,-1,-1,0.95,5295,13,87,37,58,811,285.0,424,464,60,125.0,175,1,313,252,51,0,0,286,-16896,10686,284,-5.59,44.681404,10.020333,28.63,178.7,0,0.0,-1,0.0,0.0,0,1.73,4.3374
260264,1564237652620,3,2.3,0.96,0.31,1.34,0.98,0.92,0.08,0.36,-0,0,1,0.92,5286,13,87,38,59,810,284.0,417,465,60,124.0,176,1,309,253,50,0,0,282,250,1886,283,-5.59,,,,,,,,,,,,
260284,1564237652640,5,2.31,0.96,0.31,1.34,0.99,0.97,0.12,0.46,-0,-2,-1,0.98,5304,13,87,38,59,807,282.0,423,463,60,124.0,176,1,311,252,50,0,0,282,1886,24064,282,-5.59,,,,,,,,,,,,
260304,1564237652660,3,2.3,0.97,0.31,1.34,0.99,0.86,0.09,0.37,-0,-1,1,0.87,5302,13,87,38,59,804,281.0,427,466,60,122.0,176,1,311,252,50,0,0,281,24064,250,281,-5.59,,,,,,,,,,,,
260324,1564237652680,5,2.3,0.96,0.32,1.33,0.99,0.94,0.12,0.39,-0,-2,-1,0.95,5307,13,87,38,59,803,281.0,417,461,60,123.0,176,1,311,252,50,0,0,285,24064,24064,280,-5.59,,,,,,,,,,,,
260344,1564237652700,2,2.3,0.97,0.31,1.33,0.99,0.83,0.1,0.39,0,1,0,0.84,5269,13,87,38,59,803,280.0,418,465,60,122.0,176,1,308,256,50,0,0,276,250,-1529,278,-5.59,44.681404,10.020324,28.22,178.7,0,0.0,-1,0.0,0.0,0,1.73,4.3391
260364,1564237652720,6,2.3,0.97,0.31,1.34,0.99,0.95,0.11,0.43,-0,-1,-0,0.96,5238,13,87,38,60,805,278.0,415,461,60,124.0,183,1,301,253,51,0,0,276,250,-1529,278,-5.59,,,,,,,,,,,,
260384,1564237652740,2,2.29,0.96,0.32,1.34,0.98,0.85,0.06,0.47,-0,1,0,0.85,5176,13,87,38,60,807,278.0,417,466,60,123.0,183,1,295,256,51,0,0,276,630,630,276,-5.59,,,,,,,,,,,,
260404,1564237652760,5,2.29,0.97,0.32,1.33,0.99,0.92,0.07,0.56,-0,-0,-1,0.92,5161,13,87,38,60,811,276.0,411,463,60,124.0,183,1,293,257,51,0,0,276,250,2414,276,-5.59,,,,,,,,,,,,
260424,1564237652780,4,2.29,0.97,0.32,1.34,0.98,0.85,0.07,0.45,-1,2,-0,0.85,5111,13,87,38,61,815,276.0,405,465,60,124.0,183,1,284,262,51,0,0,277,-1527,-1527,275,-5.59,,,,,,,,,,,,
260444,1564237652800,3,2.3,0.97,0.31,1.34,0.98,0.92,0.13,0.55,-0,-1,-2,0.93,5066,13,87,38,61,824,275.0,409,462,60,123.0,183,1,279,263,51,0,0,277,-1527,-1527,275,-5.59,44.681404,10.020313,27.57,178.7,0,0.0,-1,0.0,0.0,0,1.73,4.3407
260464,1564237652820,7,2.29,0.96,0.31,1.34,0.98,0.91,0.14,0.39,-1,-2,-0,0.92,5051,13,87,38,62,833,273.0,400,464,60,125.0,183,1,277,263,50,0,0,274,28160,250,272,-5.59,,,,,,,,,,,,
260484,1564237652840,3,2.29,0.97,0.32,1.33,1.0,0.85,0.08,0.45,-1,1,-1,0.85,5055,13,87,38,62,841,273.0,403,466,60,123.0,183,1,277,270,50,0,0,274,28160,250,272,-5.59,,,,,,,,,,,,
260504,1564237652860,7,2.29,0.97,0.32,1.35,0.99,0.95,0.07,0.45,-1,-0,-1,0.95,5004,13,87,38,62,847,271.0,402,462,60,124.0,183,1,272,271,50,0,0,269,-1281,-1281,268,-5.59,,,,,,,,,,,,
260524,1564237652880,6,2.3,0.97,0.32,1.34,0.99,0.88,0.07,0.37,-1,-1,-0,0.88,5020,13,87,38,63,853,269.0,398,461,60,125.0,183,1,274,271,50,0,0,268,-1,-1,266,-5.59,,,,,,,,,,,,
260544,1564237652900,4,2.29,0.97,0.32,1.34,0.99,0.85,0.06,0.49,-1,0,-1,0.86,5026,13,87,38,63,859,268.0,398,463,60,123.0,183,1,274,277,50,0,0,269,-1,-1,266,-5.59,44.681404,10.020304,26.95,178.7,0,0.0,-1,0.0,0.0,0,1.73,4.3424
260564,1564237652920,7,2.29,0.97,0.31,1.34,0.98,0.93,0.05,0.43,-1,-1,-2,0.93,4996,13,87,38,63,864,266.0,401,463,60,124.0,195,1,271,203,52,0,0,265,-1,-1,264,-5.59,,,,,,,,,,,,
260584,1564237652940,8,2.29,0.97,0.32,1.34,0.99,0.88,0.09,0.35,-1,-1,-1,0.89,4977,13,87,38,63,865,264.0,397,464,60,125.0,195,1,269,276,52,0,0,265,-1,-1,263,-5.59,,,,,,,,,,,,
260604,1564237652960,4,2.29,0.96,0.32,1.34,0.99,0.83,0.09,0.4,-1,0,-2,0.84,4912,13,87,38,63,867,263.0,394,465,60,124.0,195,1,263,276,52,0,0,263,-1,-1,261,-5.59,,,,,,,,,,,,
260624,1564237652980,2,2.29,0.97,0.31,1.33,0.99,0.94,0.1,0.39,-1,-1,-2,0.95,4890,13,87,38,63,869,261.0,392,464,60,124.0,195,1,261,275,52,0,0,263,-1,-1,261,-5.59,,,,,,,,,,,,
260644,1564237652991,6,2.29,0.96,0.31,1.34,0.99,0.97,0.07,0.39,-1,-3,-2,0.97,4842,13,87,38,64,871,261.0,387,456,60,125.0,195,1,257,275,52,0,0,261,-1,-1,261,-5.59,44.681404,10.020294,26.3,178.7,0,0.0,-1,0.0,0.0,0,1.73,4.3441
260664,1564237653011,5,2.29,0.97,0.32,1.34,0.98,0.94,0.09,0.38,-1,-0,-2,0.95,4799,13,87,38,64,871,259.0,380,464,60,125.0,193,1,254,281,50,0,0,259,-41,-1,257,-5.59,,,,,,,,,,,,
260684,1564237653031,4,2.29,0.97,0.32,1.33,0.99,0.93,0.04,0.39,-1,-0,-2,0.93,4810,13,87,38,64,872,258.0,380,467,60,125.0,193,1,255,209,50,0,0,257,-10440,506,256,-5.59,,,,,,,,,,,,
260704,1564237653051,3,2.29,0.97,0.32,1.34,0.99,0.93,-0.01,0.48,-1,-2,-3,0.93,4770,13,87,38,64,872,256.0,382,464,60,123.0,193,1,251,281,50,0,0,257,-10440,506,256,-5.59,,,,,,,,,,,,
260724,1564237653071,2,2.3,0.97,0.32,1.34,0.99,0.97,0.02,0.47,-1,-2,-3,0.97,4750,13,87,38,64,872,257.0,379,463,60,124.0,193,1,249,281,50,0,0,254,506,14337,254,-5.59,,,,,,,,,,,,
260744,1564237653099,5,2.29,0.97,0.31,1.34,0.99,1.0,0.01,0.44,-2,-3,-2,1.0,4724,13,87,38,64,872,255.0,373,456,60,125.0,193,1,247,280,50,0,0,253,-1281,-1,252,-5.59,44.681404,10.020286,25.68,178.8,0,0.0,-1,0.0,0.0,0,1.73,4.3457
260764,1564237653119,5,2.29,0.96,0.31,1.34,0.99,1.0,0.02,0.38,-2,-1,-1,1.0,4731,13,87,38,64,871,252.0,369,459,60,125.0,198,1,247,280,50,0,0,252,-1,-1,252,-5.59,,,,,,,,,,,,
260784,1564237653139,7,2.29,0.97,0.32,1.34,0.99,1.0,0.05,0.35,-2,-1,-1,1.0,4716,13,87,38,64,869,252.0,370,466,60,125.0,198,1,246,280,50,0,0,252,-1,-1,252,-5.59,,,,,,,,,,,,
260804,1564237653159,2,2.29,0.96,0.31,1.34,0.99,0.94,0.05,0.4,-1,-2,-2,0.94,4689,13,87,38,64,867,251.0,370,463,60,124.0,198,1,243,280,50,0,0,252,-214,250,250,-5.59,,,,,,,,,,,,
260824,1564237653179,0,2.3,0.97,0.32,1.33,1.0,0.92,0.05,0.42,-1,-0,-2,0.92,4668,13,87,38,64,867,249.0,370,453,60,125.0,198,1,242,280,50,0,0,249,16896,-214,249,-5.59,,,,,,,,,,,,
260844,1564237653199,2,2.3,0.96,0.32,1.34,1.0,0.92,0.08,0.47,-1,-1,-2,0.92,4559,13,87,38,64,867,249.0,364,464,60,126.0,198,1,232,278,50,0,0,250,16896,16896,247,181.28,44.681404,10.020277,25.07,178.8,0,0.0,-1,0.0,0.0,0,1.73,4.3474
260864,1564237653219,0,2.29,0.97,0.32,1.34,0.98,0.9,0.09,0.51,-1,-2,-2,0.9,4396,13,87,38,63,863,249.0,362,458,60,125.0,193,1,215,271,48,0,0,249,16896,10812,248,181.28,,,,,,,,,,,,
260884,1564237653239,1,2.3,0.97,0.31,1.34,0.99,0.87,0.08,0.52,-1,-2,-3,0.88,4309,13,87,38,63,861,247.0,347,461,60,124.0,193,1,204,271,48,0,0,249,16896,10812,248,-5.59,,,,,,,,,,,,
260904,1564237653259,0,2.29,0.97,0.32,1.34,0.99,0.82,0.08,0.5,-1,-0,-4,0.82,4184,13,87,38,63,859,247.0,337,459,60,125.0,193,1,195,195,48,0,0,246,-1494,10812,244,-5.59,,,,,,,,,,,,
260924,1564237653279,-1,2.3,0.97,0.32,1.34,0.99,0.81,0.1,0.46,-1,1,-4,0.82,4038,13,87,38,63,857,246.0,334,456,60,125.0,193,1,182,195,48,0,0,245,10812,-1445,244,-5.59,,,,,,,,,,,,
260944,1564237653299,-1,2.3,0.97,0.32,1.34,1.0,0.85,0.07,0.47,-1,-1,-3,0.86,3921,13,87,38,63,853,245.0,329,453,60,123.0,193,1,175,396,48,0,0,245,15360,-1445,243,-5.59,44.681408,10.020268,24.5,178.8,0,0.0,-1,0.0,0.0,0,1.73,4.3491
260964,1564237653319,3,2.3,0.97,0.32,1.34,0.99,0.83,0.06,0.47,-1,-1,-3,0.83,3907,12,87,38,64,850,244.0,314,477,60,126.0,238,1,177,365,58,0,0,243,250,23482,243,181.28,,,,,,,,,,,,
260984,1564237653339,0,2.29,0.97,0.32,1.33,1.0,0.82,0.08,0.42,-1,1,-3,0.82,4152,13,87,38,64,849,244.0,321,450,60,125.0,238,1,194,334,58,0,0,243,250,-1445,243,-5.59,,,,,,,,,,,,
261004,1564237653359,-0,2.28,0.97,0.32,1.33,0.99,0.86,0.1,0.42,-1,1,-2,0.87,4167,13,87,38,64,848,243.0,330,467,60,124.0,238,1,196,295,58,0,0,244,-1445,23482,241,-5.59,,,,,,,,,,,,
261024,1564237653379,0,2.27,0.97,0.31,1.34,0.99,0.89,0.12,0.46,-1,-1,-2,0.9,4165,13,87,38,64,862,243.0,329,467,60,124.0,238,1,196,274,58,0,0,243,-1445,-17920,241,-5.59,,,,,,,,,,,,
261044,1564237653399,4,2.27,0.97,0.32,1.33,0.99,0.85,0.12,0.48,-1,-1,-2,0.86,4264,13,87,38,64,881,242.0,329,461,60,125.0,238,1,205,202,58,0,0,243,23482,250,240,-5.59,44.681408,10.02026,24.06,178.8,0,0.0,-1,0.0,0.0,0,1.73,4.3507
261064,1564237653419,3,2.26,0.97,0.31,1.34,0.99,0.82,0.11,0.48,-1,1,-3,0.83,4281,13,87,38,64,907,241.0,335,461,60,125.0,183,1,206,275,44,0,0,243,23482,250,240,-5.59,,,,,,,,,,,,
261084,1564237653439,0,2.26,0.97,0.31,1.33,0.99,0.83,0.12,0.45,-2,2,-3,0.84,4310,13,87,38,64,928,241.0,337,456,60,125.0,183,1,209,276,44,0,0,242,-17920,-1484,238,-5.59,,,,,,,,,,,,
261104,1564237653459,2,2.25,0.97,0.31,1.34,0.99,0.86,0.12,0.43,-2,1,-3,0.87,4397,13,87,38,64,1031,240.0,338,459,60,124.0,183,1,217,276,44,0,0,240,250,13602,236,-5.59,,,,,,,,,,,,
261124,1564237653479,-0,2.24,0.97,0.31,1.34,0.99,0.88,0.14,0.42,-3,1,-3,0.9,4392,12,87,38,64,1109,241.0,346,463,60,124.0,183,1,216,203,44,0,0,239,-17920,8704,235,-5.59,,,,,,,,,,,,
261144,1564237653499,1,2.24,0.96,0.32,1.33,0.99,0.9,0.17,0.39,-3,1,-3,0.92,4466,13,87,38,64,1224,239.0,347,460,60,124.0,183,1,223,278,44,0,0,239,-17920,8704,235,-5.59,44.681408,10.020251,23.79,178.8,0,0.0,-1,0.0,0.0,0,1.73,4.3524
261164,1564237653519,-0,2.24,0.96,0.32,1.33,0.99,0.94,0.19,0.38,-3,0,-2,0.96,4505,13,87,38,64,1308,239.0,349,458,60,123.0,200,1,226,278,47,0,0,240,-1484,8704,233,-5.59,,,,,,,,,,,,
261184,1564237653539,1,2.23,0.97,0.32,1.33,0.99,0.95,0.18,0.37,-4,-1,-2,0.96,4505,12,87,38,64,1336,239.0,351,456,60,123.0,200,1,226,278,47,0,0,237,-1484,8704,231,-5.59,,,,,,,,,,,,
261204,1564237653559,1,2.24,0.97,0.31,1.34,0.99,0.95,0.17,0.38,-4,-1,-2,0.97,4542,13,87,38,64,1346,237.0,350,457,60,123.0,200,1,230,273,47,0,0,237,-25600,250,231,-5.59,,,,,,,,,,,,
261224,1564237653579,0,2.24,0.96,0.32,1.33,0.99,0.97,0.18,0.36,-4,-1,-2,0.98,4544,13,87,38,64,1311,238.0,358,461,60,123.0,200,1,230,278,47,0,0,236,-25600,250,230,-5.59,,,,,,,,,,,,
261244,1564237653599,1,2.23,0.96,0.32,1.33,0.99,0.97,0.19,0.31,-4,0,-2,0.99,4526,13,87,38,63,1237,236.0,354,460,60,123.0,200,1,228,199,47,0,0,235,250,18432,230,-5.59,44.681408,10.020244,23.23,178.8,0,0.0,-1,0.0,0.0,0,1.73,4.3541
261264,1564237653619,3,2.23,0.97,0.32,1.33,0.99,1.02,0.18,0.3,-5,-0,-2,1.03,4619,13,87,38,64,1132,236.0,355,453,60,122.0,208,1,237,274,48,0,0,235,250,18432,230,-5.59,,,,,,,,,,,,
261284,1564237653639,3,2.23,0.97,0.32,1.34,0.99,1.05,0.19,0.3,-5,0,-3,1.07,4595,13,87,38,64,1064,234.0,361,457,60,124.0,208,1,235,205,48,0,0,234,13602,-1496,227,-5.59,,,,,,,,,,,,
261304,1564237653659,3,2.24,0.96,0.31,1.33,0.99,1.07,0.2,0.27,-5,1,-3,1.09,4626,13,87,38,64,988,232.0,357,460,60,124.0,208,1,238,279,48,0,0,234,13602,-1496,227,181.28,,,,,,,,,,,,
261324,1564237653679,5,2.23,0.97,0.32,1.33,0.99,1.03,0.15,0.3,-5,1,-3,1.04,4635,12,87,38,64,972,231.0,359,463,60,125.0,208,1,239,279,48,0,0,231,-1494,250,224,-5.59,,,,,,,,,,,,
261344,1564237653700,8,2.23,0.97,0.32,1.34,0.99,1.0,0.14,0.31,-5,1,-4,1.01,4623,13,87,38,64,957,230.0,358,460,60,125.0,208,1,238,279,48,0,0,230,10824,1596,222,181.28,44.681408,10.020235,22.89,178.8,0,0.0,-1,0.0,0.0,0,1.73,4.3557
261364,1564237653720,5,2.23,0.97,0.32,1.33,0.99,0.95,0.12,0.33,-5,2,-5,0.95,4671,13,87,38,64,932,228.0,361,465,60,123.0,216,1,242,207,48,0,0,227,250,1596,222,-5.59,,,,,,,,,,,,
261384,1564237653740,4,2.24,0.96,0.32,1.33,0.99,0.98,0.09,0.38,-5,1,-5,0.99,4693,13,87,38,64,910,226.0,371,466,60,123.0,216,1,244,207,48,0,0,225,10318,-1532,219,-5.59,,,,,,,,,,,,
261404,1564237653760,6,2.23,0.97,0.32,1.33,1.0,0.99,0.07,0.42,-5,-2,-5,0.99,4693,13,87,38,64,901,225.0,370,462,60,123.0,216,1,244,280,48,0,0,223,-1530,250,217,-5.59,,,,,,,,,,,,
261424,1564237653780,6,2.23,0.97,0.32,1.34,0.99,0.99,0.09,0.41,-5,-1,-5,1.0,4732,13,87,38,64,886,222.0,372,462,60,124.0,216,1,248,280,48,0,0,223,-1530,250,217,-5.59,,,,,,,,,,,,
261444,1564237653799,9,2.23,0.97,0.32,1.34,1.0,1.01,0.08,0.4,-5,-2,-5,1.01,4755,6,87,38,64,871,219.0,373,455,60,125.0,216,1,250,281,48,0,0,217,1596,16384,215,-5.59,44.681408,10.020227,22.29,178.8,0,0.0,-1,0.0,0.0,0,1.73,4.3574
261464,1564237653819,12,2.23,0.96,0.31,1.34,1.0,1.01,0.1,0.34,-5,-1,-5,1.02,4763,7,87,38,65,859,217.0,372,464,60,125.0,234,1,251,281,50,0,0,215,-1532,250,209,181.28,,,,,,,,,,,,
261484,1564237653839,8,2.24,0.97,0.32,1.34,1.0,1.03,0.08,0.28,-5,-0,-6,1.04,4811,4,87,38,65,852,214.0,380,467,60,124.0,234,1,255,321,50,0,0,212,1088,-1482,207,-5.59,,,,,,,,,,,,
261504,1564237653859,9,2.23,0.96,0.32,1.34,0.99,1.02,0.05,0.35,-5,-3,-6,1.02,4834,13,87,38,64,848,210.0,377,464,60,123.0,234,1,257,209,50,0,0,208,966,-29696,203,-5.59,,,,,,,,,,,,
261524,1564237653879,9,2.23,0.96,0.32,1.34,0.99,1.03,0.06,0.37,-5,-2,-6,1.03,4880,13,86,38,64,844,208.0,382,463,60,124.0,234,1,261,302,50,0,0,206,250,12800,202,-5.59,,,,,,,,,,,,
261544,1564237653899,10,2.23,0.96,0.32,1.33,0.99,1.06,0.06,0.33,-5,-2,-6,1.06,4879,13,87,38,64,841,205.0,387,461,60,123.0,234,1,261,209,50,0,0,202,-29696,-1480,198,-5.59,44.681408,10.02022,21.22,178.8,0,0.0,-1,0.0,0.0,0,1.74,4.3591
261564,1564237653919,9,2.24,0.96,0.32,1.34,1.0,1.05,0.05,0.33,-5,-1,-6,1.05,4899,13,87,38,65,845,203.0,386,468,60,123.0,272,1,263,297,54,0,0,201,12800,-1481,196,-5.59,,,,,,,,,,,,
261584,1564237653939,7,2.24,0.97,0.31,1.34,0.99,1.07,0.03,0.37,-5,-2,-7,1.07,4984,13,86,38,64,849,199.0,396,463,60,121.0,272,1,270,290,54,0,0,197,-1480,14326,194,-5.59,,,,,,,,,,,,
261604,1564237653959,7,2.25,0.96,0.32,1.34,0.99,1.08,0.06,0.32,-5,-3,-6,1.08,5022,13,87,38,64,854,195.0,395,460,60,122.0,272,1,274,284,54,0,0,195,-1481,-1281,191,-5.59,,,,,,,,,,,,
261624,1564237653979,7,2.25,0.96,0.32,1.34,0.99,1.02,0.06,0.28,-5,-1,-6,1.03,5032,13,87,38,65,862,194.0,391,463,60,124.0,272,1,275,291,54,0,0,191,14326,-1,188,-5.59,,,,,,,,,,,,
261644,1564237653992,6,2.26,0.96,0.32,1.34,0.99,1.04,0.09,0.32,-4,-1,-6,1.04,5064,13,86,38,64,867,191.0,400,461,60,122.0,272,1,278,210,54,0,0,190,-1,-1,186,-5.59,44.681408,10.020213,19.8,178.8,0,0.0,-1,0.0,0.0,0,1.74,4.3607
261664,1564237654012,8,2.27,0.97,0.32,1.33,1.0,1.06,0.08,0.28,-5,-2,-5,1.07,5104,13,87,38,64,872,188.0,399,458,60,124.0,293,1,283,282,54,0,0,190,-1,-1,186,-5.59,,,,,,,,,,,,
261684,1564237654032,5,2.29,0.96,0.32,1.34,0.99,1.0,0.06,0.35,-4,-0,-5,1.0,5148,13,87,38,64,875,187.0,400,465,60,122.0,293,1,288,209,54,0,0,186,-1,-1,181,-5.59,,,,,,,,,,,,
261704,1564237654052,6,2.3,0.97,0.32,1.34,0.99,1.04,0.07,0.35,-4,-0,-7,1.04,5158,13,86,38,64,879,184.0,403,459,60,123.0,293,1,289,282,54,0,0,186,-1,-1,181,-5.59,,,,,,,,,,,,
261724,1564237654072,5,2.3,0.97,0.32,1.34,0.99,0.98,0.11,0.28,-4,-1,-5,0.98,5202,13,86,38,64,879,182.0,412,468,60,123.0,293,1,293,281,54,0,0,180,-1,5134,178,-5.59,,,,,,,,,,,,
261744,1564237654098,5,2.31,0.97,0.32,1.34,0.99,0.99,0.16,0.36,-3,-1,-6,1.0,5257,13,86,38,63,878,178.0,411,462,60,122.0,293,1,299,274,54,0,0,178,5134,250,178,-5.59,44.681408,10.020206,18.37,178.8,0,0.0,-1,0.0,0.0,0,1.74,4.3624
261764,1564237654118,2,2.31,0.96,0.32,1.33,1.0,0.95,0.16,0.22,-3,1,-3,0.96,5274,13,87,38,63,873,177.0,413,466,60,122.0,303,1,300,274,54,0,0,175,3584,3584,176,-5.59,,,,,,,,,,,,
261784,1564237654138,6,2.31,0.96,0.32,1.33,1.0,1.0,0.18,0.38,-3,0,-5,1.02,5316,13,86,38,62,867,176.0,422,462,60,122.0,303,1,306,273,54,0,0,174,250,250,174,-5.59,,,,,,,,,,,,
261804,1564237654158,2,2.31,0.96,0.32,1.34,1.0,0.92,0.13,0.31,-2,1,-2,0.93,5367,13,86,38,62,861,174.0,429,466,60,122.0,303,1,311,264,54,0,0,173,10620,-1281,173,-5.59,,,,,,,,,,,,
261824,1564237654178,5,2.31,0.97,0.32,1.34,0.99,0.97,0.18,0.43,-3,1,-3,0.99,5419,13,86,38,62,854,173.0,428,462,60,123.0,303,1,316,263,54,0,0,173,10620,-1281,173,-5.59,,,,,,,,,,,,
261844,1564237654198,4,2.31,0.97,0.31,1.34,0.99,0.93,0.14,0.44,-2,2,-3,0.94,5503,13,86,38,61,847,171.0,437,462,60,123.0,303,1,326,254,54,0,0,170,-1281,-1,169,-5.59,44.681404,10.0202,17.55,178.8,0,0.0,-1,0.0,0.0,0,1.74,4.3641
261864,1564237654218,1,2.32,0.97,0.32,1.34,0.98,0.96,0.11,0.34,-3,1,-2,0.96,5600,13,86,38,61,839,169.0,443,462,60,122.0,313,1,337,253,53,0,0,170,-1,-253,169,-5.59,,,,,,,,,,,,
261884,1564237654238,1,2.32,0.97,0.32,1.34,1.0,1.02,0.13,0.37,-2,-1,-3,1.02,5659,13,86,38,60,835,167.0,446,465,60,122.0,313,1,345,250,53,0,0,170,-1,-253,169,-5.59,,,,,,,,,,,,
261904,1564237654258,4,2.32,0.97,0.32,1.33,1.0,1.0,0.14,0.35,-2,0,-4,1.01,5758,13,86,38,58,834,166.0,455,463,60,123.0,313,1,358,249,53,0,0,165,888,30720,165,-5.59,,,,,,,,,,,,
261924,1564237654278,6,2.31,0.97,0.32,1.34,1.0,0.95,0.14,0.34,-1,1,-3,0.96,5896,13,86,38,57,831,165.0,463,463,60,123.0,313,1,373,250,53,0,0,165,888,30720,165,-5.59,,,,,,,,,,,,
261944,1564237654298,6,2.32,0.96,0.32,1.34,1.0,0.86,0.12,0.34,-1,2,-3,0.87,6044,13,86,38,55,829,163.0,475,463,60,123.0,313,1,384,253,53,0,0,162,10764,3072,163,-5.59,44.681404,10.020194,16.67,178.8,0,0.0,-1,0.0,0.0,0,1.74,4.3657
261964,1564237654318,3,2.31,0.97,0.32,1.34,0.99,0.77,0.14,0.32,-0,5,-3,0.78,6173,13,86,38,54,828,161.0,481,466,60,123.0,355,1,385,254,58,0,0,160,3072,250,161,-5.59,,,,,,,,,,,,
261984,1564237654338,2,2.32,0.97,0.32,1.34,0.99,0.74,0.2,0.27,0,6,-3,0.77,6300,13,86,38,53,828,159.0,492,466,60,123.0,355,1,381,242,58,0,0,158,-1281,-1281,158,-5.59,,,,,,,,,,,,
262004,1564237654358,5,2.31,0.96,0.32,1.34,1.0,0.82,0.19,0.23,-0,5,-2,0.84,6463,13,86,38,51,827,158.0,502,467,60,123.0,355,1,376,238,58,0,0,157,-1,-1,157,-5.59,,,,,,,,,,,,
262024,1564237654378,5,2.3,0.97,0.32,1.34,0.99,0.91,0.16,0.24,-1,4,-2,0.92,6553,13,86,38,50,826,156.0,509,464,60,125.0,355,1,374,233,58,0,0,156,-1,23460,156,-5.59,,,,,,,,,,,,
262044,1564237654400,1,2.3,0.97,0.32,1.34,1.0,0.84,0.15,0.26,-0,4,-2,0.85,6644,12,86,38,49,825,155.0,519,465,60,123.0,355,1,372,153,58,0,0,155,-165,-23552,154,-5.59,44.681404,10.020188,15.87,178.8,0,0.0,-1,0.0,0.0,0,1.74,4.3674
262064,1564237654420,6,2.3,0.96,0.32,1.34,0.99,0.9,0.09,0.3,-1,3,-2,0.9,6715,13,86,38,47,822,154.0,532,463,60,123.0,370,1,367,218,57,0,0,152,-23552,-23552,154,-5.59,,,,,,,,,,,,
262084,1564237654440,3,2.3,0.97,0.31,1.34,1.0,0.87,0.08,0.28,-0,4,-2,0.87,6778,12,86,38,46,821,152.0,530,465,60,123.0,370,1,360,216,57,0,0,150,250,-1,150,-5.59,,,,,,,,,,,,
262104,1564237654460,6,2.29,0.97,0.32,1.34,0.99,0.91,0.04,0.34,-1,2,-2,0.91,6843,12,86,38,45,820,151.0,538,464,60,124.0,370,1,353,140,57,0,0,149,-1281,-1,149,-5.59,,,,,,,,,,,,
262124,1564237654480,3,2.3,0.97,0.32,1.34,1.0,0.84,0.05,0.29,-0,4,-2,0.85,6890,12,86,38,45,821,149.0,539,467,60,124.0,370,1,353,215,57,0,0,148,-1,-1,148,-5.59,,,,,,,,,,,,
262144,1564237654500,5,2.3,0.96,0.33,1.34,1.0,0.95,0.04,0.39,-1,1,-2,0.95,6883,12,86,38,44,821,147.0,546,463,60,124.0,370,1,346,213,57,0,0,146,-1,-1,147,-5.59,44.681404,10.020183,15.05,178.8,0,0.0,-1,0.0,0.0,0,1.74,4.3691
262164,1564237654520,5,2.3,0.96,0.32,1.34,0.99,0.88,0.09,0.32,-0,2,-2,0.89,6962,12,86,38,43,826,145.0,545,467,60,123.0,374,1,339,212,55,0,0,144,-1,-236,145,-5.59,,,,,,,,,,,,
262184,1564237654540,2,2.31,0.97,0.32,1.34,0.99,0.87,0.03,0.33,-0,2,-2,0.87,6965,12,86,38,42,835,144.0,549,460,60,123.0,374,1,332,210,55,0,0,143,-1,-236,143,-5.59,,,,,,,,,,,,
262204,1564237654560,7,2.32,0.96,0.32,1.34,1.0,0.97,0.0,0.37,-1,1,-1,0.97,6975,12,86,38,42,844,142.0,558,465,60,124.0,374,1,332,210,55,0,0,142,5140,5120,142,-5.59,,,,,,,,,,,,
262224,1564237654580,4,2.31,0.97,0.32,1.35,0.99,0.91,0.1,0.3,-0,2,-0,0.91,7006,12,86,38,41,852,140.0,556,465,60,123.0,374,1,325,209,55,0,0,139,250,250,140,-5.59,,,,,,,,,,,,
262244,1564237654600,2,2.32,0.97,0.32,1.33,1.0,0.89,0.09,0.38,0,1,-1,0.89,7011,12,86,38,41,859,140.0,562,465,60,124.0,374,1,325,209,55,0,0,137,-1281,-1,140,-5.59,44.681404,10.020178,14.52,178.8,0,0.0,-1,0.0,0.0,0,1.74,4.3707
262264,1564237654620,5,2.32,0.97,0.32,1.34,1.0,1.0,0.08,0.39,-0,-1,-1,1.0,6978,12,86,38,40,862,138.0,560,462,60,124.0,401,1,317,207,55,0,0,136,-1,-1,136,-5.59,,,,,,,,,,,,
262284,1564237654640,4,2.32,0.97,0.32,1.34,0.99,0.88,0.11,0.29,0,1,-0,0.88,6985,12,86,38,40,863,136.0,554,467,60,123.0,401,1,317,232,55,0,0,135,-1,-1,135,-5.59,,,,,,,,,,,,
262304,1564237654660,3,2.32,0.97,0.32,1.35,0.99,0.92,0.06,0.37,0,-0,-1,0.92,6980,12,86,38,40,857,135.0,556,465,60,123.0,401,1,317,232,55,0,0,134,-1,-1,133,-5.59,,,,,,,,,,,,
262324,1564237654680,5,2.32,0.96,0.32,1.34,1.0,0.97,0.04,0.37,-0,-0,-1,0.97,6936,12,86,38,40,852,133.0,558,462,60,123.0,401,1,317,228,55,0,0,131,-1,-1,132,-5.59,,,,,,,,,,,,
262344,1564237654700,1,2.32,0.97,0.32,1.34,0.99,0.92,0.07,0.34,0,1,-0,0.92,6903,12,86,37,40,842,131.0,549,467,60,123.0,401,1,317,226,55,0,0,131,-1,-1,131,-5.59,44.681404,10.020173,13.54,178.8,0,0.0,-1,0.0,0.0,0,1.74,4.3724
262364,1564237654720,3,2.31,0.97,0.32,1.33,1.0,0.94,-0.02,0.48,0,-0,-0,0.94,6895,12,86,37,39,831,130.0,547,463,60,124.0,442,1,310,223,58,0,0,131,-1,-1,131,-5.59,,,,,,,,,,,,
262384,1564237654740,4,2.32,0.97,0.31,1.34,0.99,0.94,0.02,0.41,-0,-0,-0,0.94,6813,12,86,37,39,826,129.0,548,463,60,123.0,442,1,310,219,58,0,0,129,-1,-1,129,-5.59,,,,,,,,,,,,
262404,1564237654760,1,2.32,0.97,0.32,1.34,0.99,0.89,-0.02,0.48,-0,-1,-1,0.89,6793,12,86,37,39,822,127.0,540,462,60,124.0,442,1,310,217,58,0,0,126,-202,-202,126,-5.59,,,,,,,,,,,,
262424,1564237654780,3,2.32,0.97,0.32,1.34,1.0,0.95,0.03,0.42,-0,-1,-0,0.95,6798,12,86,37,39,814,126.0,539,464,60,123.0,442,1,310,130,58,0,0,125,13868,11264,126,-5.59,,,,,,,,,,,,
262444,1564237654800,1,2.32,0.97,0.32,1.34,1.0,0.93,-0.01,0.45,-0,-0,-1,0.93,6751,12,86,37,39,806,126.0,540,465,60,124.0,442,1,310,212,58,0,0,125,13868,11264,126,-5.59,44.681404,10.020168,12.8,178.8,0,0.0,-1,0.0,0.0,0,1.74,4.3741
262464,1564237654820,3,2.32,0.97,0.32,1.34,0.99,0.96,-0.04,0.45,-0,-1,-1,0.96,6708,12,86,37,40,803,124.0,543,466,60,123.0,427,1,317,209,53,0,0,123,250,-1482,124,-5.59,,,,,,,,,,,,
262484,1564237654840,1,2.31,0.97,0.32,1.34,0.99,0.93,-0.03,0.47,-0,0,-1,0.93,6679,12,86,37,40,800,122.0,537,463,60,124.0,427,1,317,207,53,0,0,121,13862,13862,122,-5.59,,,,,,,,,,,,
262504,1564237654860,3,2.31,0.97,0.31,1.35,0.99,0.95,0.03,0.41,-0,-1,-1,0.95,6672,12,86,37,40,795,122.0,539,463,60,123.0,427,1,317,208,53,0,0,121,9728,250,122,-5.59,,,,,,,,,,,,
