"Interval"|"ms"|0|0|1,"Utc"|"ms"|0|0|1,"FB_p"|"bar"|0|300|50,"Volant"|"F"|0.0|300.0|50,"xFR"|"mm"|0.0|5.0|50,"xRR"|"mm"|0.0|5.0|50,"xFL"|"mm"|0.0|5.0|50,"xRL"|"mm"|0.0|5.0|50,"AccelX"|"G"|-3.0|3.0|50,"AccelY"|"G"|-3.0|3.0|50,"AccelZ"|"G"|-3.0|3.0|50,"Yaw"|"Deg/Sec"|-120|120|50,"Pitch"|"Deg/Sec"|-120|120|50,"Roll"|"Deg/Sec"|-120|120|50,"Gsum"|"G"|0.0|3.0|50,"RPM"|""|0|14000|50,"TPS"|"%"|0|100|50,"WaterTemp"|"?C"|0|300|50,"AirTemp"|"?C"|-1000|1000|50,"MAP"|"KPa"|0|255|50,"Lambda"|""|0|1024|50,"WheelSpeed"|"MPH"|0.0|150.0|50,"OilPress"|"PSI"|0|150|50,"FuelPress"|"PSI"|0|150|50,"OilTemp"|"F"|0|300|50,"Battery"|"Volts"|0.0|20.0|50,"FuelCon"|"L/h"|-1000|1000|50,"Gear"|""|0|10|50,"Advance"|"Deg"|-360|360|50,"Injection"|"ms"|-1000|1000|50,"FuelCon"|"L/100km"|-1000|1000|50,"LC_But_Pres"|""|-1000|1000|50,"LC_Active"|""|-1000|1000|50,"RD_Speed"|""|-1000|1000|50,"RUD_Speed"|""|-1000|1000|50,"LD_Speed"|""|-1000|1000|50,"LUD_Speed"|""|-1000|1000|50,"Ana1"|"bar"|-1000.0|1000.0|50,"Latitude"|"Degrees"|-180.0|180.0|10,"Longitude"|"Degrees"|-180.0|180.0|10,"Speed"|"kph"|0.0|150.0|10,"Altitude"|"m"|0.0|4000.0|10,"LapCount"|""|0|0|10,"LapTime"|"Min"|0.0|0.0|10,"Sector"|""|0|0|10,"SectorTime"|"Min"|0.0|0.0|10,"ElapsedTime"|"Min"|0.0|0.0|10,"CurrentLap"|""|0|0|10,"Distance"|"km"|0.0|0.0|10,"SessionTime"|"Min"|0.0|0.0|10
286463,1564236504795,1,2.54,0.99,0.34,1.44,1.08,0.83,-0.4,0.57,14,3,5,0.92,7104,19,88,35,45,835,525.0,617,453,60,128.0,109,1,355,218,58,0,0,528,998,2088,525,-5.59,,,,,,,,,,,,
286483,1564236504815,-2,2.56,0.99,0.34,1.43,1.09,0.92,-0.5,0.57,15,1,8,1.05,7113,19,88,35,45,840,522.0,615,460,60,126.0,110,1,355,218,58,0,0,530,-6528,2088,522,-5.59,,,,,,,,,,,,
286503,1564236504835,-1,2.55,0.99,0.35,1.43,1.09,0.93,-0.5,0.55,15,1,10,1.06,7200,19,88,35,45,847,523.0,612,460,60,126.0,110,1,355,218,58,0,0,538,-32768,-28648,523,-5.59,,,,,,,,,,,,
286523,1564236504855,4,2.54,1.0,0.34,1.44,1.08,0.89,-0.5,0.57,16,1,13,1.02,7233,20,88,35,45,851,519.0,612,462,60,128.0,110,1,355,141,58,0,0,535,-32768,2088,519,-5.59,,,,,,,,,,,,
286543,1564236504875,0,2.55,0.99,0.34,1.43,1.09,0.83,-0.49,0.48,17,0,15,0.97,7273,20,88,35,45,859,523.0,614,461,60,129.0,110,1,355,218,58,0,0,530,-32768,2088,523,-5.59,44.681335,10.021049,50.84,175.7,0,0.0,-1,0.0,0.0,0,1.68,4.7757
286563,1564236504895,1,2.53,0.99,0.35,1.43,1.08,0.79,-0.56,0.45,19,1,16,0.97,7312,20,88,35,45,869,523.0,613,461,60,128.0,110,1,355,216,58,0,0,539,248,2088,525,-5.59,,,,,,,,,,,,
286583,1564236504915,1,2.52,0.99,0.34,1.43,1.09,0.81,-0.67,0.5,20,2,17,1.05,7259,20,88,35,44,873,526.0,608,461,60,128.0,114,1,347,218,60,0,0,528,248,-22519,526,-5.59,,,,,,,,,,,,
286603,1564236504935,-1,2.5,0.99,0.34,1.44,1.08,0.85,-0.72,0.54,21,2,19,1.11,7231,20,88,35,44,878,526.0,607,461,60,128.0,114,1,347,216,60,0,0,537,-1818,-22519,527,-5.59,,,,,,,,,,,,
286623,1564236504955,4,2.49,1.0,0.33,1.43,1.08,0.84,-0.77,0.53,22,2,20,1.14,7137,20,88,35,45,882,528.0,610,463,60,126.0,114,1,355,216,60,0,0,524,-32768,6274,526,-5.59,,,,,,,,,,,,
286643,1564236504975,2,2.48,0.99,0.33,1.44,1.08,0.84,-0.74,0.5,22,1,21,1.12,7070,19,88,35,45,892,523.0,612,463,60,127.0,114,1,355,218,60,0,0,514,-6528,-9072,525,-5.59,44.681343,10.021033,50.54,175.7,0,0.0,-1,0.0,0.0,0,1.68,4.7774
286663,1564236504995,-1,2.47,0.99,0.33,1.44,1.08,0.78,-0.79,0.48,22,1,21,1.11,7040,20,88,35,45,897,523.0,608,460,60,128.0,114,1,355,218,60,0,0,515,-6528,-32248,524,-5.59,,,,,,,,,,,,
286683,1564236505007,-1,2.46,0.99,0.34,1.43,1.06,0.83,-0.81,0.52,22,0,22,1.16,6985,20,88,35,45,900,522.0,524,464,60,127.0,108,1,354,217,57,0,0,517,3,2088,523,-5.59,,,,,,,,,,,,
286703,1564236505027,2,2.44,0.99,0.34,1.43,1.08,0.81,-0.74,0.53,21,1,22,1.09,6972,20,88,35,45,904,521.0,435,459,60,127.0,108,1,354,217,57,0,0,509,771,-9212,521,-5.59,,,,,,,,,,,,
286723,1564236505047,-2,2.43,0.99,0.33,1.43,1.07,0.77,-0.75,0.56,20,2,23,1.08,7014,20,88,35,45,907,521.0,377,462,60,127.0,108,1,355,220,57,0,0,508,-9216,-32248,520,-5.59,,,,,,,,,,,,
286743,1564236505067,-0,2.4,0.99,0.33,1.43,1.07,0.81,-0.79,0.55,19,1,23,1.14,6996,20,88,35,46,909,519.0,384,464,60,127.0,108,1,361,219,57,0,0,506,2524,1248,519,-5.59,44.681347,10.021019,50.38,175.7,0,0.0,-1,0.0,0.0,0,1.68,4.779
286763,1564236505087,2,2.38,0.98,0.33,1.43,1.07,0.83,-0.68,0.5,18,1,24,1.07,6975,20,88,35,46,908,518.0,356,466,60,126.0,108,1,361,219,57,0,0,507,10408,1248,519,-5.59,,,,,,,,,,,,
286783,1564236505110,0,2.36,0.99,0.33,1.42,1.07,0.75,-0.66,0.5,17,1,22,1.0,6993,20,88,35,46,908,518.0,351,461,60,127.0,110,1,361,219,57,0,0,510,11560,-8187,517,-5.59,,,,,,,,,,,,
286803,1564236505130,3,2.34,0.98,0.33,1.43,1.07,0.82,-0.65,0.47,16,0,22,1.04,6965,20,88,35,46,908,516.0,353,460,60,127.0,110,1,361,219,57,0,0,509,2109,-3482,517,-5.59,,,,,,,,,,,,
286823,1564236505150,1,2.3,0.98,0.33,1.42,1.07,0.79,-0.51,0.52,14,0,20,0.94,6931,20,88,35,46,909,515.0,333,459,60,128.0,110,1,361,219,57,0,0,510,-32248,-14,513,-5.59,,,,,,,,,,,,
286843,1564236505170,-1,2.26,0.98,0.32,1.41,1.08,0.79,-0.47,0.53,12,1,19,0.92,6934,21,88,35,46,910,513.0,337,460,60,128.0,110,1,361,221,57,0,0,512,-28648,16383,510,-5.59,44.681358,10.021005,50.49,175.8,0,0.0,-1,0.0,0.0,0,1.68,4.7807
286863,1564236505192,3,2.22,0.98,0.32,1.4,1.05,0.86,-0.44,0.55,9,1,18,0.96,6921,21,88,35,47,913,510.0,355,458,60,127.0,110,1,369,221,57,0,0,514,-4054,-3856,508,-5.59,,,,,,,,,,,,
286883,1564236505212,0,2.19,0.96,0.31,1.38,1.05,0.8,-0.24,0.63,6,1,16,0.83,6929,21,88,35,47,924,511.0,340,460,60,128.0,114,1,369,221,58,0,0,514,17136,10994,506,-5.59,,,,,,,,,,,,
286903,1564236505232,-1,2.15,0.94,0.3,1.35,1.03,0.83,-0.21,0.58,3,-0,14,0.86,6978,21,88,35,47,933,514.0,369,457,60,128.0,114,1,369,221,58,0,0,516,26178,-21872,502,-5.59,,,,,,,,,,,,
286923,1564236505252,2,2.13,0.93,0.29,1.33,1.02,0.85,-0.07,0.6,0,-1,10,0.86,6993,21,88,35,47,939,518.0,365,462,60,128.0,114,1,369,221,58,0,0,520,1248,-4054,499,-5.59,,,,,,,,,,,,
286943,1564236505272,-1,2.1,0.92,0.29,1.31,1.01,0.82,0.08,0.52,-2,-2,6,0.82,6985,21,88,35,47,948,519.0,400,463,60,128.0,114,1,369,221,58,0,0,519,-8187,11560,495,-5.59,44.681362,10.020991,50.4,175.8,0,0.0,-1,0.0,0.0,0,1.68,4.7824
286963,1564236505294,0,2.08,0.91,0.28,1.31,1.0,0.81,0.17,0.5,-5,-2,3,0.83,6967,11,88,35,47,961,522.0,416,448,60,127.0,114,1,369,216,58,0,0,524,-8187,6274,493,-5.59,,,,,,,,,,,,
286983,1564236505314,2,2.04,0.91,0.28,1.3,1.0,0.84,0.29,0.5,-8,-2,0,0.89,6944,15,88,35,47,975,522.0,451,442,60,127.0,131,1,369,144,65,0,0,525,-22519,-28648,491,-5.59,,,,,,,,,,,,
287003,1564236505334,-2,2.03,0.91,0.28,1.31,0.99,0.78,0.46,0.44,-9,-1,-3,0.91,6929,21,88,35,47,983,521.0,479,413,60,128.0,131,1,369,243,65,0,0,523,2524,771,489,-5.59,,,,,,,,,,,,
287023,1564236505354,2,2.02,0.9,0.28,1.31,1.0,0.85,0.43,0.52,-12,-3,-7,0.95,6970,22,88,35,48,987,519.0,506,448,60,127.0,131,1,371,149,65,0,0,526,2524,2524,487,-5.59,,,,,,,,,,,,
287043,1564236505374,1,2.01,0.91,0.27,1.31,0.99,0.81,0.52,0.42,-13,-2,-9,0.96,6967,22,88,35,48,996,521.0,529,453,60,129.0,131,1,371,149,65,0,0,525,-9212,-22519,485,-5.59,44.681374,10.020979,50.12,175.8,0,0.0,-1,0.0,0.0,0,1.68,4.784
287063,1564236505394,-1,2.0,0.92,0.27,1.32,1.0,0.78,0.65,0.4,-15,-1,-12,1.01,6967,20,88,35,48,1005,519.0,550,448,60,129.0,131,1,371,255,65,0,0,528,15679,15661,484,-5.59,,,,,,,,,,,,
287083,1564236505414,2,2.0,0.91,0.28,1.31,1.0,0.83,0.61,0.5,-17,-2,-16,1.03,7006,11,88,36,48,1008,522.0,558,455,60,127.0,136,1,372,222,66,0,0,524,2524,15661,482,-5.59,,,,,,,,,,,,
287103,1564236505434,1,1.99,0.91,0.28,1.31,1.0,0.75,0.74,0.46,-18,-1,-17,1.05,7017,21,88,35,48,1010,520.0,572,460,60,128.0,136,1,372,254,66,0,0,521,1341,2109,481,-5.59,,,,,,,,,,,,
287123,1564236505454,-1,1.99,0.92,0.27,1.32,0.99,0.72,0.86,0.4,-19,-0,-20,1.12,6978,22,88,35,48,1012,520.0,586,457,60,128.0,136,1,371,249,66,0,0,525,-9212,11560,479,-5.59,,,,,,,,,,,,
287143,1564236505474,2,1.99,0.91,0.28,1.31,1.0,0.82,0.82,0.41,-21,-2,-21,1.16,6975,22,88,36,48,1013,520.0,593,458,60,127.0,136,1,371,246,66,0,0,525,1248,-21872,480,-5.59,44.681381,10.020966,49.72,175.8,0,0.0,-1,0.0,0.0,0,1.69,4.7857
287163,1564236505494,1,1.99,0.92,0.28,1.32,1.0,0.75,0.89,0.33,-21,-1,-23,1.16,6975,22,88,35,48,1013,518.0,600,456,60,128.0,136,1,371,149,66,0,0,521,16383,10994,478,-5.59,,,,,,,,,,,,
287183,1564236505514,-1,1.99,0.92,0.27,1.32,1.0,0.73,0.97,0.36,-22,-1,-25,1.22,6957,21,88,36,48,1012,517.0,603,452,60,127.0,131,1,371,239,63,0,0,521,15679,-28648,477,-5.59,,,,,,,,,,,,
287203,1564236505534,2,1.99,0.91,0.27,1.31,1.0,0.81,0.92,0.43,-24,-2,-26,1.23,6993,21,88,35,48,1001,518.0,607,462,60,127.0,131,1,371,236,63,0,0,522,-8187,15661,477,-5.59,,,,,,,,,,,,
287223,1564236505554,1,1.99,0.92,0.28,1.32,1.0,0.77,1.03,0.32,-25,-1,-27,1.29,6975,13,88,35,48,995,519.0,611,456,60,129.0,131,1,371,233,63,0,0,519,15679,-32248,476,-5.59,,,,,,,,,,,,
287243,1564236505574,-1,1.99,0.91,0.27,1.32,1.0,0.76,1.07,0.4,-26,-2,-29,1.31,6929,22,88,35,48,983,520.0,611,453,60,128.0,131,1,371,252,63,0,0,524,-8187,-3414,477,-5.59,44.681389,10.020952,49.54,175.8,0,0.0,-1,0.0,0.0,0,1.69,4.7874
287263,1564236505594,1,1.99,0.91,0.28,1.31,1.0,0.86,1.05,0.38,-27,-3,-30,1.35,6923,22,88,35,49,974,518.0,607,460,60,127.0,131,1,374,249,63,0,0,520,15679,-32248,476,-5.59,,,,,,,,,,,,
287283,1564236505614,0,1.99,0.92,0.29,1.32,1.0,0.75,1.14,0.3,-26,-1,-31,1.36,7004,22,88,35,48,965,516.0,609,457,60,128.0,138,1,372,247,66,0,0,518,-14,10994,474,-5.59,,,,,,,,,,,,
287303,1564236505634,-0,1.99,0.92,0.28,1.33,1.0,0.87,1.14,0.38,-27,-3,-32,1.44,7009,22,88,36,48,953,515.0,611,452,60,127.0,138,1,372,150,66,0,0,520,-3482,2109,472,-5.59,,,,,,,,,,,,
287323,1564236505654,1,2.0,0.92,0.28,1.32,1.0,0.89,1.08,0.42,-28,-3,-34,1.4,7019,22,88,35,49,947,514.0,611,457,60,128.0,138,1,375,244,66,0,0,514,26178,-3414,473,-5.59,,,,,,,,,,,,
287343,1564236505674,1,1.98,0.92,0.28,1.32,1.0,0.83,1.17,0.34,-28,-2,-35,1.44,6998,22,88,35,48,944,515.0,613,458,60,128.0,138,1,371,236,66,0,0,515,-14,-14,473,-5.59,44.681396,10.020938,49.13,175.9,0,0.0,-1,0.0,0.0,0,1.69,4.7891
287363,1564236505694,0,1.98,0.92,0.27,1.33,1.0,0.85,1.12,0.44,-29,-3,-35,1.41,6939,22,88,35,49,943,513.0,605,460,60,127.0,138,1,374,154,66,0,0,520,26178,-14,471,-5.59,,,,,,,,,,,,
287383,1564236505714,1,1.98,0.92,0.28,1.32,1.0,0.87,1.14,0.42,-30,-3,-36,1.44,6941,22,88,35,49,943,512.0,605,461,60,128.0,131,1,374,233,62,0,0,516,17136,1341,470,-5.59,,,,,,,,,,,,
287403,1564236505734,-1,1.98,0.92,0.29,1.32,1.0,0.79,1.23,0.39,-29,-3,-36,1.46,6983,2,88,35,49,947,512.0,607,456,60,128.0,131,1,374,225,62,0,0,514,17136,15661,468,-5.59,,,,,,,,,,,,
287423,1564236505754,2,1.99,0.92,0.28,1.33,1.0,0.84,1.19,0.44,-30,-4,-37,1.46,6985,22,88,35,49,949,509.0,612,459,60,127.0,131,1,374,260,62,0,0,518,10994,10994,470,-5.59,,,,,,,,,,,,
287443,1564236505774,-0,2.0,0.92,0.28,1.33,1.0,0.8,1.17,0.42,-30,-4,-38,1.41,6965,22,88,35,49,953,514.0,615,460,60,127.0,131,1,374,257,62,0,0,516,-3482,16383,469,-5.59,44.6814,10.020923,48.26,175.9,0,0.0,-1,0.0,0.0,0,1.69,4.7907
287463,1564236505795,-1,1.98,0.91,0.28,1.33,1.0,0.76,1.25,0.34,-30,-3,-38,1.46,6991,22,88,35,49,957,510.0,612,459,60,127.0,131,1,374,254,62,0,0,515,-4054,-32248,469,-5.59,,,,,,,,,,,,
287483,1564236505815,2,1.99,0.92,0.28,1.33,1.0,0.82,1.12,0.45,-31,-4,-40,1.39,6957,23,88,35,49,960,511.0,611,462,60,127.0,140,1,374,249,66,0,0,514,-3856,-21872,469,-5.59,,,,,,,,,,,,
287503,1564236505835,-0,1.99,0.92,0.28,1.33,1.01,0.75,1.18,0.36,-31,-2,-39,1.4,6947,23,88,35,49,960,511.0,613,460,60,127.0,140,1,374,246,66,0,0,512,-3856,-3482,469,-5.59,,,,,,,,,,,,
287523,1564236505855,-2,1.98,0.92,0.29,1.33,1.0,0.69,1.25,0.4,-30,-3,-40,1.43,6988,23,88,35,49,963,510.0,612,458,60,128.0,140,1,374,243,66,0,0,517,-4054,-14,468,-5.59,,,,,,,,,,,,
287543,1564236505875,2,1.99,0.92,0.28,1.34,1.01,0.81,1.21,0.42,-31,-3,-39,1.46,6978,23,88,36,49,966,509.0,610,462,60,126.0,140,1,374,239,66,0,0,510,10994,6274,468,-5.59,44.681408,10.020907,48.21,175.9,0,0.0,-1,0.0,0.0,0,1.69,4.7924
287563,1564236505894,1,1.99,0.92,0.28,1.33,1.01,0.72,1.28,0.4,-31,-2,-39,1.47,6954,23,88,35,49,968,509.0,613,460,60,128.0,140,1,374,236,66,0,0,516,10994,-3414,466,-5.59,,,,,,,,,,,,
287583,1564236505914,-0,1.99,0.93,0.28,1.33,1.01,0.73,1.34,0.39,-31,-2,-40,1.53,6921,23,88,36,49,971,508.0,611,461,60,128.0,133,1,374,233,62,0,0,511,10994,-3482,469,-5.59,,,,,,,,,,,,
287603,1564236505934,2,1.98,0.92,0.28,1.33,1.01,0.77,1.25,0.36,-32,-4,-40,1.47,6921,23,88,35,49,973,508.0,609,462,60,127.0,133,1,374,230,62,0,0,514,10994,1248,464,-5.59,,,,,,,,,,,,
287623,1564236505954,-1,1.99,0.92,0.29,1.33,1.01,0.68,1.33,0.28,-30,-1,-41,1.49,6885,23,88,36,49,974,508.0,613,461,60,128.0,133,1,374,230,62,0,0,511,-21872,-4054,465,-5.59,,,,,,,,,,,,
287643,1564236505974,-0,2.0,0.92,0.29,1.33,1.01,0.81,1.16,0.41,-32,-4,-42,1.42,6978,23,88,36,50,974,508.0,612,466,60,126.0,133,1,377,235,62,0,0,511,-3414,2109,464,-5.59,44.681412,10.020891,47.79,175.9,0,0.0,-1,0.0,0.0,0,1.69,4.7941
287663,1564236505994,2,1.99,0.93,0.29,1.33,1.01,0.78,1.13,0.37,-31,-2,-41,1.37,6993,23,88,36,50,971,507.0,616,462,60,127.0,133,1,377,235,62,0,0,511,-21872,-32768,463,-5.59,,,,,,,,,,,,
287683,1564236506007,-0,1.99,0.93,0.29,1.34,1.0,0.74,1.21,0.36,-31,-1,-40,1.42,6898,23,88,35,50,970,509.0,622,460,60,127.0,133,1,377,235,62,0,0,511,10994,15661,465,-5.59,,,,,,,,,,,,
287703,1564236506027,2,1.99,0.93,0.28,1.35,1.01,0.83,1.11,0.48,-32,-1,-41,1.39,6850,23,88,36,50,969,507.0,611,463,60,127.0,133,1,377,235,62,0,0,510,-21872,17136,464,-5.59,,,,,,,,,,,,
287723,1564236506047,0,1.99,0.93,0.29,1.34,1.01,0.81,1.2,0.41,-31,-1,-42,1.45,6855,23,88,36,50,968,507.0,612,462,60,128.0,133,1,377,235,62,0,0,512,-21872,6274,465,-5.59,,,,,,,,,,,,
287743,1564236506067,2,2.0,0.92,0.29,1.34,1.01,0.84,1.11,0.55,-32,-3,-42,1.4,6833,23,88,36,51,968,505.0,604,466,60,127.0,133,1,379,235,62,0,0,510,6274,-22519,464,-5.59,44.681416,10.020875,47.66,175.9,0,0.0,-1,0.0,0.0,0,1.69,4.7957
287763,1564236506093,-0,2.01,0.93,0.29,1.34,1.02,0.79,1.17,0.47,-31,-1,-43,1.41,6865,23,88,36,51,970,505.0,608,464,60,128.0,133,1,380,235,62,0,0,511,6274,-6528,465,-5.59,,,,,,,,,,,,
287783,1564236506113,-0,2.0,0.93,0.29,1.35,1.02,0.78,1.14,0.52,-31,-2,-42,1.38,6880,23,88,36,51,978,506.0,607,460,60,127.0,133,1,380,240,62,0,0,509,-28648,-28648,463,-5.59,,,,,,,,,,,,
287803,1564236506133,1,2.0,0.93,0.29,1.34,1.02,0.85,1.09,0.52,-31,-2,-41,1.38,6860,23,88,36,51,984,505.0,605,466,60,127.0,133,1,380,240,62,0,0,507,6274,-3414,463,-5.59,,,,,,,,,,,,
287823,1564236506153,0,2.0,0.93,0.29,1.35,1.01,0.8,1.15,0.52,-31,-2,-41,1.4,6853,23,88,36,51,988,505.0,608,462,60,128.0,133,1,380,270,62,0,0,509,6274,1,465,-5.59,,,,,,,,,,,,
287843,1564236506173,3,2.0,0.93,0.29,1.35,1.01,0.84,1.06,0.56,-32,-3,-42,1.35,6858,24,88,36,51,994,507.0,607,462,60,126.0,133,1,380,267,62,0,0,511,-3414,998,464,-5.59,44.681416,10.020858,47.48,175.9,0,0.0,-1,0.0,0.0,0,1.7,4.7974
287863,1564236506195,0,2.01,0.93,0.29,1.34,1.02,0.82,1.16,0.51,-31,-1,-41,1.42,6838,24,88,36,51,1001,506.0,605,464,60,128.0,133,1,380,164,62,0,0,507,-28648,11560,464,-5.59,,,,,,,,,,,,
287883,1564236506215,1,2.02,0.93,0.29,1.35,1.02,0.84,1.05,0.63,-32,-3,-43,1.34,6825,24,88,36,51,1009,502.0,606,460,60,126.0,144,1,379,259,67,0,0,511,15661,-6528,463,-5.59,,,,,,,,,,,,
287903,1564236506235,0,2.01,0.94,0.29,1.35,1.02,0.81,1.15,0.54,-30,-2,-42,1.41,6828,24,88,36,52,1011,505.0,604,465,60,128.0,144,1,382,169,67,0,0,506,6274,-32248,463,-5.59,,,,,,,,,,,,
287923,1564236506255,-1,2.02,0.93,0.3,1.36,1.01,0.82,1.11,0.66,-31,-3,-42,1.38,6868,24,88,36,52,1013,504.0,610,463,60,127.0,144,1,383,258,67,0,0,507,-32248,-21872,463,-5.59,,,,,,,,,,,,
287943,1564236506275,2,2.02,0.93,0.29,1.35,1.02,0.89,1.08,0.61,-31,-2,-41,1.4,6875,24,88,36,52,1014,505.0,606,464,60,126.0,144,1,383,254,67,0,0,508,6274,-9216,464,-5.59,44.681416,10.020841,47.11,175.9,0,0.0,-1,0.0,0.0,0,1.7,4.799
287963,1564236506293,-0,2.02,0.93,0.29,1.35,1.01,0.84,1.12,0.62,-30,-1,-41,1.4,6818,24,88,36,52,1015,507.0,611,459,60,127.0,144,1,382,249,67,0,0,509,-21872,-32248,464,-5.59,,,,,,,,,,,,
287983,1564236506313,3,2.04,0.94,0.29,1.36,1.02,0.91,1.05,0.67,-31,-2,-42,1.39,6843,24,88,36,52,1014,504.0,603,467,60,127.0,137,1,383,246,64,0,0,504,-32248,15661,466,-5.59,,,,,,,,,,,,
288003,1564236506333,-1,2.06,0.94,0.3,1.35,1.02,0.88,1.12,0.62,-30,-1,-42,1.42,6868,24,88,36,52,1012,505.0,606,461,60,127.0,137,1,383,245,64,0,0,509,-21872,1,463,-5.59,,,,,,,,,,,,
288023,1564236506353,3,2.09,0.94,0.3,1.36,1.02,0.9,1.01,0.74,-30,-2,-43,1.36,6835,24,88,36,52,1003,507.0,603,463,60,127.0,137,1,383,245,64,0,0,508,-21872,1,465,-5.59,,,,,,,,,,,,
288043,1564236506373,-1,2.13,0.94,0.3,1.35,1.03,0.83,1.08,0.68,-29,-0,-42,1.36,6795,22,88,35,52,997,505.0,605,460,60,128.0,137,1,382,169,64,0,0,508,6274,-32768,463,-5.59,44.681416,10.020824,47.27,175.9,0,0.0,-1,0.0,0.0,0,1.7,4.8007
288063,1564236506393,1,2.19,0.94,0.3,1.37,1.02,0.83,0.97,0.71,-29,-0,-42,1.28,6766,24,88,36,53,989,507.0,598,468,60,127.0,137,1,385,250,64,0,0,509,-21872,-9216,467,-5.59,,,,,,,,,,,,
288083,1564236506413,-1,2.26,0.94,0.3,1.36,1.03,0.78,0.99,0.67,-26,0,-41,1.26,6756,25,88,36,53,983,503.0,597,463,60,128.0,137,1,385,250,64,0,0,509,2109,-6656,470,-5.59,,,,,,,,,,,,
288103,1564236506433,3,2.32,0.95,0.31,1.38,1.04,0.7,0.86,0.67,-24,0,-40,1.11,6725,25,88,36,53,972,497.0,595,464,60,127.0,137,1,385,250,64,0,0,505,-9216,505,474,-5.59,,,,,,,,,,,,
288123,1564236506453,-1,2.39,0.97,0.31,1.4,1.04,0.72,0.87,0.64,-21,0,-38,1.13,6713,25,88,36,53,967,494.0,595,463,60,127.0,137,1,385,250,64,0,0,499,998,-1562,480,-5.59,,,,,,,,,,,,
288143,1564236506473,4,2.44,0.97,0.33,1.42,1.07,0.69,0.69,0.74,-17,-0,-36,0.98,6713,16,88,36,53,964,491.0,593,466,60,126.0,137,1,385,256,64,0,0,492,-1818,3,486,-5.59,44.681416,10.020807,47.44,175.9,0,0.0,-1,0.0,0.0,0,1.7,4.8024
288163,1564236506493,-2,2.49,0.99,0.34,1.42,1.08,0.68,0.61,0.73,-13,1,-32,0.91,6703,25,88,36,54,964,491.0,589,462,60,127.0,137,1,388,289,64,0,0,489,-1562,2524,491,-5.59,,,,,,,,,,,,
288183,1564236506513,2,2.52,0.99,0.35,1.44,1.08,0.7,0.39,0.72,-9,-0,-28,0.8,6727,24,88,36,54,969,494.0,586,468,60,126.0,146,1,388,284,72,0,0,494,-899,-22519,497,-5.59,,,,,,,,,,,,
288203,1564236506533,-2,2.54,1.0,0.35,1.45,1.08,0.65,0.3,0.66,-5,2,-24,0.72,6720,22,88,36,54,978,499.0,588,463,60,128.0,146,1,388,280,72,0,0,491,8488,-32248,501,-5.59,,,,,,,,,,,,
288223,1564236506553,3,2.55,1.0,0.35,1.45,1.09,0.76,0.14,0.69,-3,-0,-19,0.77,6749,22,88,36,54,984,501.0,586,470,60,127.0,146,1,388,277,72,0,0,490,-23367,-32248,501,-5.59,,,,,,,,,,,,
288243,1564236506573,-0,2.58,1.0,0.35,1.44,1.08,0.67,0.1,0.82,1,2,-14,0.68,6820,21,88,36,53,992,506.0,593,461,60,128.0,146,1,385,174,72,0,0,503,-9203,-21872,506,-5.59,44.681412,10.020791,47.72,175.9,0,0.0,-1,0.0,0.0,0,1.7,4.804
288263,1564236506595,3,2.58,1.0,0.35,1.44,1.08,0.78,-0.05,0.71,4,3,-8,0.78,6838,21,88,36,53,1000,505.0,588,466,60,127.0,146,1,386,174,72,0,0,496,3576,-21872,505,-5.59,,,,,,,,,,,,
288283,1564236506615,1,2.59,0.99,0.35,1.44,1.08,0.73,-0.1,0.72,6,4,-4,0.74,6870,21,88,36,52,1008,507.0,600,461,60,128.0,134,1,383,253,68,0,0,504,8488,-4054,507,-5.59,,,,,,,,,,,,
288303,1564236506635,-1,2.59,0.99,0.35,1.44,1.08,0.74,-0.24,0.69,9,4,0,0.77,6913,21,88,36,52,1012,507.0,596,465,60,128.0,134,1,383,249,68,0,0,514,10432,10994,507,-5.59,,,,,,,,,,,,
288323,1564236506655,2,2.59,0.99,0.34,1.44,1.08,0.79,-0.32,0.67,10,4,5,0.85,6959,21,88,36,52,1011,505.0,596,467,60,126.0,134,1,383,245,68,0,0,513,8488,17136,505,-5.59,,,,,,,,,,,,
288343,1564236506675,1,2.59,0.99,0.34,1.44,1.08,0.74,-0.4,0.66,13,4,7,0.84,6962,3,88,36,51,1001,507.0,597,463,60,128.0,134,1,380,235,68,0,0,521,10432,-28648,507,-5.59,44.681408,10.020775,48.3,175.9,0,0.0,-1,0.0,0.0,0,1.7,4.8057
288363,1564236506693,-1,2.6,0.99,0.35,1.44,1.08,0.76,-0.52,0.68,15,3,10,0.93,7017,13,88,36,51,989,507.0,598,470,60,126.0,134,1,381,241,68,0,0,539,30272,10994,505,-5.59,,,,,,,,,,,,
288383,1564236506713,1,2.6,0.99,0.35,1.44,1.08,0.79,-0.5,0.62,16,2,14,0.94,7072,10,88,36,51,974,506.0,604,466,60,126.0,120,1,381,267,61,0,0,535,-3210,-3414,505,-5.59,,,,,,,,,,,,
288403,1564236506733,2,2.59,0.99,0.35,1.44,1.08,0.7,-0.57,0.63,18,2,16,0.9,7126,0,88,36,50,960,505.0,607,465,60,128.0,120,1,378,262,61,0,0,532,30272,-28648,505,-5.59,,,,,,,,,,,,
288423,1564236506753,-0,2.59,0.99,0.34,1.44,1.08,0.72,-0.72,0.65,20,2,18,1.02,7205,14,88,36,50,939,505.0,607,463,60,128.0,120,1,378,264,61,0,0,538,6193,-32248,505,-5.59,,,,,,,,,,,,
288443,1564236506773,-2,2.6,0.99,0.32,1.43,1.08,0.77,-0.82,0.65,21,2,21,1.13,7203,7,88,36,49,922,507.0,611,464,60,129.0,120,1,375,259,61,0,0,552,30272,-3414,507,-5.59,44.681404,10.020759,48.42,175.9,0,0.0,-1,0.0,0.0,0,1.7,4.8074
288463,1564236506795,3,2.58,1.0,0.33,1.45,1.08,0.85,-0.82,0.59,22,0,24,1.18,7189,9,88,36,49,911,507.0,612,466,60,126.0,120,1,375,256,61,0,0,563,12552,-32248,507,-5.59,,,,,,,,,,,,
288483,1564236506815,1,2.59,0.99,0.33,1.44,1.09,0.89,-0.8,0.52,23,0,25,1.2,7250,21,88,36,49,910,505.0,612,465,60,128.0,139,1,375,258,71,0,0,563,-23623,-3856,505,-5.59,,,,,,,,,,,,
288503,1564236506835,3,2.58,0.99,0.33,1.44,1.08,0.83,-0.89,0.52,24,1,26,1.22,7275,21,88,36,49,907,505.0,589,465,60,128.0,139,1,375,155,71,0,0,560,-23623,6274,505,-5.59,,,,,,,,,,,,
288523,1564236506855,1,2.56,0.99,0.33,1.45,1.08,0.82,-0.95,0.53,25,1,28,1.26,7329,21,88,36,48,907,503.0,463,468,60,128.0,139,1,372,247,71,0,0,570,2211,-3414,503,-5.59,,,,,,,,,,,,
288543,1564236506875,1,2.54,0.99,0.33,1.43,1.09,0.77,-1.03,0.58,26,1,29,1.29,7335,21,88,36,48,907,503.0,393,465,60,127.0,139,1,372,243,71,0,0,575,-23623,-32248,503,-5.59,44.6814,10.020741,48.68,175.9,0,0.0,-1,0.0,0.0,0,1.7,4.8091
288563,1564236506895,0,2.53,0.99,0.33,1.44,1.08,0.75,-1.1,0.68,26,1,30,1.34,7364,21,88,36,47,910,502.0,350,465,60,128.0,139,1,370,145,71,0,0,579,2211,6274,503,-5.59,,,,,,,,,,,,
288583,1564236506915,-0,2.51,0.99,0.33,1.44,1.08,0.79,-1.09,0.74,26,1,31,1.35,7350,21,88,36,47,910,505.0,339,467,60,125.0,131,1,370,150,66,0,0,584,6193,10994,505,-5.59,,,,,,,,,,,,
288603,1564236506935,-0,2.46,0.99,0.33,1.44,1.08,0.85,-1.14,0.71,26,0,31,1.42,7413,21,88,36,47,900,504.0,315,465,60,127.0,131,1,370,227,66,0,0,576,2211,6274,504,-5.59,,,,,,,,,,,,
288623,1564236506955,-1,2.45,0.99,0.34,1.44,1.08,0.87,-1.1,0.67,25,1,32,1.4,7399,9,88,36,47,894,501.0,307,461,60,126.0,131,1,370,223,66,0,0,571,6193,6274,501,-5.59,,,,,,,,,,,,
288643,1564236506975,0,2.42,0.99,0.33,1.44,1.08,0.88,-1.03,0.65,24,0,32,1.36,7364,13,88,36,46,883,498.0,294,466,60,127.0,131,1,362,220,66,0,0,550,10432,-28648,498,-5.59,44.6814,10.020724,48.62,175.9,0,0.0,-1,0.0,0.0,0,1.71,4.8107
288663,1564236506995,2,2.39,0.99,0.33,1.44,1.07,0.9,-0.92,0.62,22,0,31,1.28,7126,18,88,36,47,868,498.0,293,466,60,126.0,131,1,370,220,66,0,0,513,-9203,26178,498,-5.59,,,,,,,,,,,,
288683,1564236507006,-1,2.36,0.99,0.33,1.44,1.08,0.8,-0.83,0.67,20,2,30,1.16,6858,16,88,36,46,856,499.0,290,460,60,127.0,118,1,360,219,59,0,0,526,2212,16383,500,-5.59,,,,,,,,,,,,
288703,1564236507026,2,2.35,0.99,0.33,1.44,1.07,0.85,-0.89,0.58,18,-1,27,1.23,6627,9,88,36,45,840,502.0,291,464,60,126.0,118,1,351,216,59,0,0,491,8488,-3482,501,-5.59,,,,,,,,,,,,
288723,1564236507046,-1,2.36,0.98,0.32,1.42,1.06,0.83,-0.86,0.43,17,-0,26,1.2,6472,6,88,36,43,833,496.0,282,460,60,127.0,118,1,337,214,59,0,0,488,-6441,-21872,497,-5.59,,,,,,,,,,,,
288743,1564236507066,-0,2.35,0.97,0.32,1.42,1.06,0.88,-0.73,0.42,15,-0,25,1.14,6434,0,88,36,42,829,494.0,279,460,60,128.0,118,1,330,211,59,0,0,486,-6441,-9216,494,-5.59,44.6814,10.020707,48.5,175.9,0,0.0,-1,0.0,0.0,0,1.71,4.8124
288763,1564236507092,2,2.35,0.98,0.32,1.42,1.06,0.95,-0.75,0.44,13,-3,23,1.21,6408,0,88,36,41,824,491.0,281,463,60,126.0,118,1,323,133,59,0,0,486,-10483,-1818,491,-5.59,,,,,,,,,,,,
288783,1564236507112,2,2.36,0.98,0.32,1.41,1.06,0.82,-0.76,0.5,12,-2,22,1.11,6360,0,88,36,40,817,493.0,292,463,60,126.0,101,1,316,131,50,0,0,481,3580,-6528,491,-5.59,,,,,,,,,,,,
288803,1564236507132,2,2.36,0.97,0.32,1.42,1.05,0.71,-0.62,0.47,12,0,20,0.94,6302,0,88,36,38,817,492.0,295,460,60,126.0,101,1,307,207,50,0,0,487,-6441,248,493,-5.59,,,,,,,,,,,,
288823,1564236507152,-1,2.35,0.98,0.32,1.42,1.05,0.79,-0.5,0.48,12,1,20,0.94,6239,0,88,36,38,817,496.0,306,462,60,128.0,101,1,307,201,50,0,0,485,-1562,3,496,-5.59,,,,,,,,,,,,
288843,1564236507172,-0,2.34,0.98,0.32,1.41,1.06,0.91,-0.43,0.47,11,-0,19,1.01,6169,0,88,36,38,817,493.0,319,465,60,127.0,101,1,307,195,50,0,0,485,-1562,15661,493,-5.59,44.6814,10.020691,48.58,175.9,0,0.0,-1,0.0,0.0,0,1.71,4.8141
288863,1564236507194,-0,2.34,0.98,0.31,1.42,1.05,1.02,-0.35,0.41,9,-3,18,1.08,6099,0,88,36,37,816,492.0,317,465,60,127.0,101,1,304,195,50,0,0,482,3580,-6441,492,-5.59,,,,,,,,,,,,
288883,1564236507214,2,2.33,0.98,0.31,1.42,1.05,1.12,-0.38,0.38,8,-6,18,1.19,6155,0,88,36,37,815,488.0,332,462,60,127.0,91,1,304,195,45,0,0,476,-899,-899,488,-5.59,,,,,,,,,,,,
288903,1564236507234,4,2.31,0.98,0.32,1.42,1.05,1.12,-0.34,0.37,7,-8,17,1.17,6283,0,88,36,37,815,484.0,346,465,60,128.0,91,1,304,195,45,0,0,471,10305,3576,481,-5.59,,,,,,,,,,,,
288923,1564236507254,7,2.31,0.97,0.31,1.41,1.06,1.04,-0.32,0.46,7,-7,14,1.09,6463,0,88,36,36,813,480.0,370,461,60,127.0,91,1,301,189,45,0,0,471,2212,32033,480,-5.59,,,,,,,,,,,,
288943,1564236507274,1,2.31,0.97,0.32,1.42,1.05,1.05,-0.23,0.38,6,-6,13,1.08,6558,0,88,36,35,810,476.0,395,462,60,127.0,91,1,298,184,45,0,0,469,-9203,-3210,475,-5.59,44.681404,10.020674,48.71,176.0,0,0.0,-1,0.0,0.0,0,1.71,4.8157
288963,1564236507294,6,2.3,0.98,0.31,1.41,1.06,1.07,-0.21,0.34,5,-7,12,1.09,6526,0,88,36,35,808,475.0,416,465,60,127.0,91,1,298,184,45,0,0,469,3576,30272,474,-5.59,,,,,,,,,,,,
288983,1564236507314,4,2.28,0.98,0.31,1.41,1.06,1.0,-0.2,0.34,4,-5,11,1.02,6465,0,88,36,34,807,473.0,427,465,60,126.0,94,1,295,184,45,0,0,470,-1923,3576,473,-5.59,,,,,,,,,,,,
289003,1564236507334,3,2.28,0.97,0.32,1.4,1.06,1.02,-0.11,0.37,3,-3,11,1.03,6377,0,88,36,34,808,473.0,435,465,60,128.0,94,1,295,178,45,0,0,473,3576,3576,471,-5.59,,,,,,,,,,,,
289023,1564236507354,3,2.29,0.97,0.31,1.4,1.05,1.03,-0.15,0.34,1,-4,8,1.04,6300,0,88,35,34,809,474.0,432,467,60,126.0,94,1,295,178,45,0,0,469,-9203,30272,470,-5.59,,,,,,,,,,,,
289043,1564236507374,5,2.27,0.97,0.31,1.4,1.04,0.99,-0.14,0.31,1,-2,7,1.0,6239,0,88,35,34,811,471.0,436,465,60,127.0,94,1,295,178,45,0,0,472,32033,8488,468,-5.59,44.681404,10.020657,48.01,176.0,0,0.0,-1,0.0,0.0,0,1.71,4.8174
289063,1564236507395,7,2.27,0.97,0.31,1.39,1.05,0.93,-0.14,0.36,0,-1,7,0.94,6233,0,88,35,34,813,470.0,447,464,60,127.0,94,1,295,178,45,0,0,467,8488,2211,462,-5.59,,,,,,,,,,,,
289083,1564236507415,6,2.26,0.97,0.3,1.4,1.04,0.85,0.01,0.32,1,0,5,0.85,6252,0,88,35,34,819,467.0,466,459,60,128.0,90,1,295,178,42,0,0,462,243,14488,459,-5.59,,,,,,,,,,,,
289103,1564236507435,3,2.26,0.97,0.31,1.41,1.04,0.88,0.04,0.32,1,0,4,0.88,6285,0,88,35,34,825,465.0,483,463,60,127.0,90,1,295,178,42,0,0,457,12552,-9160,457,-5.59,,,,,,,,,,,,
289123,1564236507455,3,2.27,0.97,0.31,1.41,1.04,0.97,0.09,0.31,-0,-1,3,0.98,6254,0,88,35,34,830,460.0,492,463,60,128.0,90,1,295,178,42,0,0,460,-23623,-18108,455,-5.59,,,,,,,,,,,,
289143,1564236507475,3,2.26,0.97,0.31,1.4,1.05,1.01,0.09,0.27,-2,-3,3,1.02,6227,0,88,35,34,833,461.0,502,467,60,127.0,90,1,295,178,42,0,0,458,2211,16648,454,-5.59,44.681408,10.02064,46.88,176.1,0,0.0,-1,0.0,0.0,0,1.71,4.819
289163,1564236507494,4,2.26,0.96,0.31,1.41,1.05,1.01,-0.03,0.3,-3,-3,2,1.01,6159,0,88,35,34,837,462.0,510,466,60,127.0,90,1,295,178,42,0,0,455,12552,3571,453,-5.59,,,,,,,,,,,,
289183,1564236507514,4,2.25,0.96,0.31,1.4,1.05,0.96,-0.1,0.35,-4,-4,1,0.97,6101,0,88,35,34,839,458.0,511,470,60,126.0,90,1,295,178,41,0,0,457,17628,16648,452,-5.59,,,,,,,,,,,,
289203,1564236507534,3,2.26,0.97,0.31,1.4,1.05,0.88,-0.09,0.44,-4,-4,-0,0.89,6046,0,88,35,34,839,458.0,513,465,60,126.0,90,1,295,178,41,0,0,457,14488,16648,451,-5.59,,,,,,,,,,,,
289223,1564236507554,4,2.28,0.97,0.31,1.4,1.05,0.79,-0.1,0.48,-4,-2,-1,0.8,5975,0,88,35,34,837,456.0,515,462,60,127.0,90,1,293,178,41,0,0,454,14488,8488,448,181.28,,,,,,,,,,,,
289243,1564236507574,4,2.28,0.97,0.31,1.41,1.05,0.75,-0.17,0.52,-3,-1,-2,0.77,5885,0,88,35,35,838,453.0,517,464,60,126.0,90,1,292,182,41,0,0,453,-8985,15649,449,-5.59,44.681408,10.020624,45.86,176.1,0,0.0,-1,0.0,0.0,0,1.71,4.8207
289263,1564236507594,3,2.29,0.98,0.31,1.42,1.06,0.73,-0.2,0.51,-4,-2,-2,0.76,5826,0,88,35,35,841,452.0,516,466,60,127.0,90,1,285,182,41,0,0,453,-6387,8488,445,-5.59,,,,,,,,,,,,
289283,1564236507614,3,2.29,0.98,0.31,1.41,1.05,0.82,-0.15,0.51,-4,-4,-2,0.84,5676,0,88,35,36,845,448.0,508,466,60,127.0,87,1,282,187,39,0,0,445,8488,2131,446,-5.59,,,,,,,,,,,,
289303,1564236507634,5,2.29,0.98,0.32,1.42,1.06,0.88,-0.13,0.54,-4,-5,-2,0.89,5519,0,88,35,37,851,447.0,505,462,60,127.0,87,1,276,192,39,0,0,447,10305,21432,444,-5.59,,,,,,,,,,,,
289323,1564236507654,3,2.29,0.98,0.32,1.42,1.06,0.78,-0.17,0.55,-3,-2,-2,0.8,5384,0,88,35,38,856,446.0,496,466,60,126.0,87,1,269,196,39,0,0,445,16648,-28332,444,-5.59,,,,,,,,,,,,
289343,1564236507674,6,2.29,0.98,0.32,1.42,1.06,0.86,-0.14,0.62,-4,-5,-3,0.87,5222,0,88,35,39,863,445.0,489,463,60,127.0,87,1,263,203,39,0,0,445,2131,20625,445,-5.59,44.681412,10.020608,44.82,176.1,0,0.0,-1,0.0,0.0,0,1.71,4.8224
289363,1564236507694,2,2.29,0.98,0.32,1.42,1.06,0.78,-0.15,0.55,-4,-2,-3,0.8,5074,0,88,35,40,869,445.0,481,468,60,127.0,87,1,256,205,39,0,0,151,2131,26704,441,-5.59,,,,,,,,,,,,
289383,1564236507714,3,2.3,0.98,0.31,1.42,1.06,0.84,-0.09,0.62,-4,-2,-3,0.84,4989,0,88,35,41,873,442.0,470,461,60,127.0,88,1,253,206,39,0,0,438,23400,2131,440,-5.59,,,,,,,,,,,,
289403,1564236507734,3,2.3,0.98,0.33,1.43,1.06,0.89,-0.06,0.5,-4,-4,-3,0.89,4863,0,88,35,43,875,440.0,457,460,60,128.0,88,1,246,203,39,0,0,438,20625,5600,436,-5.59,,,,,,,,,,,,
289423,1564236507754,7,2.29,0.97,0.32,1.43,1.06,0.87,-0.06,0.47,-4,-3,-3,0.87,4762,0,88,35,44,876,442.0,449,462,60,128.0,88,1,238,204,39,0,0,440,23400,-768,436,-5.59,,,,,,,,,,,,
289443,1564236507774,6,2.28,0.98,0.32,1.44,1.07,0.86,-0.05,0.46,-4,-2,-2,0.86,4644,0,88,35,45,878,439.0,441,464,60,128.0,88,1,228,204,39,0,0,440,20625,243,435,-5.59,44.681412,10.020592,44.29,176.2,0,0.0,-1,0.0,0.0,0,1.72,4.824
289463,1564236507794,3,2.28,0.98,0.32,1.43,1.07,0.82,-0.04,0.49,-4,-1,-3,0.82,4565,0,88,35,46,880,439.0,429,452,60,128.0,88,1,222,205,39,0,0,436,-28332,1779,434,-5.59,,,,,,,,,,,,
289483,1564236507814,1,2.29,0.98,0.33,1.43,1.06,0.81,-0.03,0.47,-4,-1,-3,0.81,4495,0,88,36,46,884,438.0,420,460,60,128.0,80,1,214,203,35,0,0,436,5600,-3314,432,-5.59,,,,,,,,,,,,
289503,1564236507834,4,2.28,0.98,0.32,1.43,1.07,0.8,-0.02,0.48,-4,-0,-3,0.8,4363,0,89,36,46,890,434.0,408,459,60,127.0,80,1,201,200,35,0,0,438,-768,13180,431,-5.59,,,,,,,,,,,,
289523,1564236507854,2,2.28,0.98,0.33,1.42,1.06,0.81,0.0,0.44,-4,1,-3,0.81,4206,0,89,36,47,897,431.0,400,462,60,127.0,80,1,186,197,35,0,0,434,1779,3635,430,-5.59,,,,,,,,,,,,
289543,1564236507874,2,2.28,0.98,0.32,1.42,1.06,0.82,0.0,0.46,-4,1,-4,0.82,4063,0,89,36,47,903,432.0,387,460,60,127.0,80,1,171,198,35,0,0,435,-3322,3635,427,-5.59,44.681416,10.020576,43.68,176.2,0,0.0,-1,0.0,0.0,0,1.72,4.8257
289563,1564236507894,7,2.28,0.98,0.33,1.43,1.07,0.82,-0.01,0.46,-4,-1,-4,0.82,3958,0,89,36,48,907,432.0,379,463,60,125.0,80,1,163,123,35,0,0,432,-3322,-8165,427,-5.59,,,,,,,,,,,,
289583,1564236507914,4,2.27,0.97,0.32,1.43,1.07,0.88,0.03,0.35,-4,-0,-3,0.88,3968,0,88,36,48,895,431.0,369,466,60,128.0,103,1,164,285,44,0,0,423,1779,-3414,426,-5.59,,,,,,,,,,,,
289603,1564236507934,5,2.27,0.99,0.32,1.42,1.07,0.86,0.06,0.45,-4,-5,-2,0.86,4093,0,88,36,49,884,427.0,367,455,60,127.0,103,1,176,264,44,0,0,409,31796,13040,419,-5.59,,,,,,,,,,,,
289623,1564236507954,8,2.29,0.98,0.32,1.42,1.07,0.84,0.06,0.45,-4,-4,-4,0.84,3951,0,88,36,49,868,425.0,365,466,60,126.0,103,1,164,242,44,0,0,425,3826,2524,417,-5.59,,,,,,,,,,,,
289643,1564236507974,4,2.28,0.98,0.32,1.42,1.07,0.85,0.06,0.39,-4,-0,-4,0.85,3898,0,88,36,49,857,422.0,358,464,60,128.0,103,1,162,125,44,0,0,420,-3414,-26615,416,-5.59,44.681416,10.020562,43.28,176.2,0,0.0,-1,0.0,0.0,0,1.72,4.8274
289663,1564236507994,5,2.27,0.98,0.32,1.43,1.06,0.86,0.05,0.45,-4,-2,-4,0.86,3905,0,88,36,50,841,421.0,356,456,60,126.0,103,1,163,207,44,0,0,425,-21792,31796,416,-5.59,,,,,,,,,,,,
289683,1564236508007,5,2.27,0.98,0.32,1.43,1.07,0.9,0.08,0.38,-4,-0,-4,0.91,3834,0,88,36,50,829,421.0,348,470,60,128.0,72,1,161,205,30,0,0,424,-21792,18584,415,-5.59,,,,,,,,,,,,
289703,1564236508027,5,2.27,0.99,0.32,1.43,1.07,0.92,0.09,0.43,-5,-3,-4,0.92,3725,0,88,36,50,832,420.0,345,453,60,126.0,72,1,157,203,30,0,0,421,7154,-9166,412,-5.59,,,,,,,,,,,,
289723,1564236508047,4,2.28,0.98,0.32,1.42,1.07,0.91,0.14,0.38,-5,-1,-5,0.92,3733,0,88,36,51,838,419.0,337,470,60,128.0,72,1,157,208,30,0,0,416,7154,9517,411,-5.59,,,,,,,,,,,,
289743,1564236508067,5,2.28,0.98,0.33,1.42,1.07,0.91,0.12,0.39,-5,-2,-4,0.92,3689,0,88,36,52,862,416.0,335,455,60,126.0,72,1,156,211,30,0,0,413,18584,10392,410,-5.59,44.681416,10.020547,42.37,176.2,0,0.0,-1,0.0,0.0,0,1.72,4.8291
289763,1564236508093,5,2.27,0.98,0.32,1.43,1.06,0.96,0.12,0.39,-4,-1,-4,0.97,3606,0,89,36,53,880,414.0,331,466,60,128.0,72,1,153,137,30,0,0,411,2524,-26615,408,-5.59,,,,,,,,,,,,
289783,1564236508113,7,2.27,0.99,0.32,1.42,1.07,0.98,0.13,0.41,-5,-3,-5,0.99,3554,0,89,36,54,903,411.0,325,461,60,127.0,69,1,152,141,28,0,0,402,-4059,6512,405,-5.59,,,,,,,,,,,,
289803,1564236508133,4,2.27,0.98,0.33,1.43,1.07,0.99,0.11,0.4,-5,-4,-5,0.99,3495,0,88,36,54,930,408.0,322,461,60,128.0,69,1,0,217,28,0,0,408,-26615,-9211,402,-5.59,,,,,,,,,,,,
289823,1564236508153,5,2.27,0.99,0.32,1.43,1.06,0.95,0.13,0.36,-5,-1,-6,0.96,3415,0,89,36,56,970,408.0,316,472,60,128.0,69,1,0,221,28,0,0,406,-26615,11545,399,-5.59,,,,,,,,,,,,
289843,1564236508173,4,2.27,0.98,0.33,1.42,1.07,0.95,0.13,0.35,-5,0,-6,0.96,3357,0,89,36,57,1010,405.0,311,458,60,129.0,69,1,150,228,28,0,0,402,-9211,-8151,398,-5.59,44.681419,10.020532,41.21,176.2,0,0.0,-1,0.0,0.0,0,1.72,4.8307
289863,1564236508195,4,2.28,0.98,0.33,1.43,1.06,0.94,0.12,0.36,-5,-1,-5,0.95,3267,0,89,36,57,1025,404.0,308,461,60,127.0,69,1,0,228,28,0,0,404,1504,28696,396,-5.59,,,,,,,,,,,,
289883,1564236508215,5,2.27,0.98,0.33,1.43,1.07,0.96,0.14,0.35,-5,-4,-4,0.97,3154,0,89,36,58,1047,402.0,308,460,60,127.0,70,1,0,233,28,0,0,403,10541,28696,395,-5.59,,,,,,,,,,,,
289903,1564236508235,6,2.28,0.99,0.33,1.42,1.08,0.95,0.16,0.36,-5,-6,-6,0.97,3051,0,88,36,59,1051,402.0,301,463,60,126.0,70,1,150,237,28,0,0,399,10541,-6656,393,-5.59,,,,,,,,,,,,
289923,1564236508255,7,2.28,0.99,0.32,1.43,1.07,0.97,0.13,0.33,-5,-9,-5,0.98,2945,0,88,36,60,1058,397.0,296,465,60,125.0,70,1,0,241,28,0,0,398,-3968,-1818,392,-5.59,,,,,,,,,,,,
289943,1564236508275,6,2.27,0.98,0.32,1.42,1.08,0.98,0.11,0.34,-5,-12,-2,0.98,2854,0,89,36,62,1052,396.0,288,466,60,127.0,70,1,153,246,28,0,0,395,-32702,505,390,-5.59,44.681419,10.020517,40.53,176.3,0,0.0,-1,0.0,0.0,0,1.72,4.8324
289963,1564236508295,4,2.28,0.99,0.33,1.43,1.08,0.96,0.11,0.38,-5,-13,-2,0.97,2824,0,89,36,62,1040,393.0,279,458,60,129.0,70,1,0,248,28,0,0,394,-6656,-6524,389,-5.59,,,,,,,,,,,,
289983,1564236508315,5,2.28,0.99,0.32,1.43,1.07,0.91,0.12,0.44,-5,-12,-3,0.91,2752,0,89,36,63,1017,392.0,273,462,60,128.0,66,1,0,251,26,0,0,390,1,-31744,386,-5.59,,,,,,,,,,,,
290003,1564236508335,5,2.27,0.99,0.32,1.43,1.07,0.92,0.14,0.41,-5,-7,-5,0.93,2628,0,89,36,64,1002,392.0,270,468,60,128.0,66,1,156,254,26,0,0,388,1,-19126,384,-5.59,,,,,,,,,,,,
290023,1564236508355,4,2.28,0.99,0.32,1.43,1.07,0.96,0.14,0.3,-5,-5,-4,0.97,2506,0,88,36,65,986,390.0,265,460,60,125.0,66,1,155,257,26,0,0,387,-1562,-6475,383,-5.59,,,,,,,,,,,,
290043,1564236508375,5,2.28,0.98,0.32,1.43,1.07,0.94,0.15,0.29,-5,-6,-5,0.96,2441,0,89,36,67,981,389.0,256,461,60,128.0,66,1,158,263,26,0,0,389,-6524,2278,383,181.28,44.681419,10.020504,39.69,176.3,0,0.0,-1,0.0,0.0,0,1.72,4.8341
290063,1564236508395,5,2.28,0.99,0.33,1.43,1.07,0.93,0.16,0.34,-5,-6,-6,0.94,2329,0,88,36,68,974,387.0,252,462,60,127.0,66,1,160,266,26,0,0,384,240,8200,380,-5.59,,,,,,,,,,,,
290083,1564236508415,5,2.27,0.99,0.33,1.43,1.07,0.94,0.13,0.31,-5,-5,-5,0.95,2279,0,89,36,70,967,385.0,243,457,60,128.0,60,1,155,263,23,0,0,383,-6475,8200,380,-5.59,,,,,,,,,,,,
290103,1564236508435,2,2.28,0.99,0.33,1.42,1.08,0.92,0.14,0.35,-5,-3,-6,0.93,2187,0,88,36,71,963,383.0,239,461,60,128.0,60,1,153,262,23,0,0,383,-19126,2278,376,-5.59,,,,,,,,,,,,
290123,1564236508455,2,2.27,0.99,0.32,1.42,1.07,0.95,0.14,0.32,-5,-4,-5,0.96,2116,0,89,36,73,963,381.0,232,461,60,129.0,60,1,148,260,23,0,0,381,-18948,-6656,375,-5.59,,,,,,,,,,,,
290143,1564236508475,4,2.27,0.99,0.33,1.42,1.07,0.94,0.16,0.33,-5,-4,-4,0.95,1934,0,89,36,73,964,379.0,228,465,60,127.0,60,1,148,259,23,0,0,376,8200,742,373,-5.59,44.681419,10.020491,38.66,176.3,0,0.0,-1,0.0,0.0,0,1.72,4.8357
290163,1564236508495,4,2.27,0.98,0.32,1.42,1.07,0.96,0.18,0.32,-5,-4,-5,0.97,1846,0,88,36,75,964,379.0,221,462,60,126.0,60,1,143,256,23,0,0,375,8200,-6656,372,-5.59,,,,,,,,,,,,
290183,1564236508515,3,2.27,0.99,0.32,1.43,1.07,0.93,0.17,0.34,-5,-5,-6,0.95,1786,0,89,36,76,964,375.0,215,469,60,129.0,45,1,0,254,17,0,0,375,770,486,370,-5.59,,,,,,,,,,,,
290203,1564236508535,1,2.28,0.99,0.32,1.43,1.07,0.93,0.15,0.32,-5,-3,-6,0.95,1712,0,89,36,78,965,374.0,209,462,60,127.0,45,1,138,256,17,0,0,373,742,3082,369,-5.59,,,,,,,,,,,,
290223,1564236508555,1,2.27,0.98,0.32,1.42,1.08,0.93,0.16,0.34,-5,-3,-5,0.95,1615,0,89,36,80,964,375.0,202,462,60,127.0,45,1,0,258,17,0,0,373,742,0,370,-5.59,,,,,,,,,,,,
290243,1564236508575,0,2.27,0.99,0.32,1.42,1.07,0.92,0.15,0.38,-5,-2,-5,0.93,1498,0,89,36,81,963,374.0,198,460,60,127.0,45,1,0,261,17,0,0,373,-6656,-6405,369,-5.59,44.681419,10.020477,37.7,176.3,0,0.0,-1,0.0,0.0,0,1.73,4.8374
290263,1564236508595,0,2.27,0.99,0.33,1.42,1.07,0.92,0.15,0.43,-5,-2,-5,0.94,1380,0,89,36,82,961,373.0,194,461,60,128.0,45,1,0,262,17,0,0,374,-6656,0,367,-5.59,,,,,,,,,,,,
290283,1564236508615,0,2.26,0.98,0.32,1.43,1.07,0.91,0.14,0.46,-5,-2,-5,0.92,1289,0,89,36,83,960,373.0,189,468,60,128.0,35,1,113,264,13,0,0,376,-6656,230,367,-5.59,,,,,,,,,,,,
290303,1564236508635,0,2.27,0.98,0.33,1.43,1.07,0.91,0.15,0.47,-5,-2,-5,0.93,1221,0,89,36,84,959,372.0,184,458,60,126.0,35,1,0,265,13,0,0,372,1,-6656,366,-5.59,,,,,,,,,,,,
290323,1564236508655,3,2.27,0.98,0.33,1.42,1.07,0.89,0.14,0.47,-5,-3,-5,0.9,1221,0,89,36,86,957,372.0,179,462,60,126.0,35,1,0,267,13,0,0,372,1,-6405,365,-5.59,,,,,,,,,,,,
290343,1564236508675,-2,2.28,0.98,0.33,1.43,1.07,0.89,0.14,0.44,-5,-2,-5,0.9,1135,0,89,36,88,953,370.0,173,463,60,128.0,35,1,100,269,13,0,0,372,486,-6405,366,-5.59,44.681423,10.020464,37.13,176.3,0,0.0,-1,0.0,0.0,0,1.73,4.839
290363,1564236508695,-1,2.27,0.98,0.33,1.42,1.07,0.89,0.16,0.42,-4,-2,-5,0.9,1013,0,88,36,87,952,370.0,176,468,60,123.0,35,1,38,268,13,0,0,369,486,-1268,365,-5.59,,,,,,,,,,,,
290383,1564236508715,0,2.28,0.99,0.32,1.43,1.07,0.87,0.17,0.45,-4,-3,-5,0.88,1013,0,89,36,90,950,371.0,168,458,60,127.0,27,1,91,271,10,0,0,371,486,-6405,365,-5.59,,,,,,,,,,,,
290403,1564236508735,-1,2.28,0.98,0.33,1.42,1.07,0.86,0.16,0.47,-4,-2,-6,0.87,856,0,89,36,90,947,371.0,165,462,60,126.0,27,1,90,271,10,0,0,371,257,-6656,364,-5.59,,,,,,,,,,,,
290423,1564236508755,-1,2.28,0.98,0.33,1.42,1.06,0.87,0.16,0.47,-4,-2,-6,0.88,856,0,89,36,93,945,369.0,161,461,60,126.0,27,1,131,292,10,0,0,369,-6656,3082,364,-5.59,,,,,,,,,,,,
290443,1564236508775,0,2.26,0.99,0.33,1.42,1.07,0.87,0.16,0.48,-4,-2,-6,0.88,856,0,89,36,92,944,370.0,160,470,60,124.0,27,1,105,284,10,0,0,369,486,3082,363,-5.59,44.681423,10.020452,36.4,176.3,0,0.0,-1,0.0,0.0,0,1.73,4.8407
290463,1564236508795,-0,2.27,0.98,0.32,1.43,1.07,0.87,0.16,0.47,-5,-2,-6,0.89,565,0,89,36,92,943,368.0,153,460,60,126.0,27,1,163,284,10,0,0,368,0,2790,363,-5.59,,,,,,,,,,,,
290483,1564236508815,-1,2.27,0.98,0.33,1.43,1.07,0.86,0.16,0.48,-5,-2,-6,0.87,565,0,89,36,95,941,368.0,145,459,60,126.0,16,1,176,231,6,0,0,367,0,3082,362,-5.59,,,,,,,,,,,,
290503,1564236508835,-2,2.28,0.98,0.33,1.42,1.08,0.86,0.16,0.47,-5,-2,-6,0.88,565,0,89,36,96,938,367.0,140,463,60,126.0,16,1,176,314,6,0,0,369,0,-1268,362,-5.59,,,,,,,,,,,,
290523,1564236508855,-0,2.27,0.99,0.33,1.42,1.07,0.88,0.16,0.46,-5,-2,-6,0.89,565,0,89,36,97,937,369.0,138,461,60,126.0,16,1,186,321,6,0,0,367,0,3082,361,-5.59,,,,,,,,,,,,
290543,1564236508875,-0,2.27,0.99,0.33,1.43,1.07,0.87,0.17,0.48,-5,-2,-6,0.88,565,9,89,36,97,935,368.0,134,461,60,126.0,16,1,186,562,6,0,0,366,0,-14707,361,-5.59,44.681423,10.020438,36.19,176.3,0,0.0,-1,0.0,0.0,0,1.73,4.8424
290563,1564236508895,-0,2.27,0.98,0.32,1.43,1.07,0.86,0.16,0.47,-4,-1,-6,0.88,565,27,89,36,97,931,367.0,131,460,60,126.0,16,1,186,246,6,0,0,366,0,-14707,361,-5.59,,,,,,,,,,,,
290583,1564236508915,-1,2.26,0.98,0.32,1.42,1.07,0.87,0.17,0.47,-4,-1,-6,0.88,565,44,89,36,97,929,365.0,128,461,60,126.0,30,1,186,562,11,0,0,366,-6405,0,360,-5.59,,,,,,,,,,,,
290603,1564236508935,0,2.27,0.98,0.33,1.42,1.08,0.85,0.16,0.46,-5,-1,-6,0.87,565,58,89,36,97,926,366.0,128,458,60,126.0,30,1,186,562,11,0,0,368,230,2790,360,-5.59,,,,,,,,,,,,
290623,1564236508955,-0,2.26,0.98,0.32,1.43,1.07,0.85,0.15,0.46,-5,-1,-6,0.87,565,74,89,37,97,924,364.0,126,462,60,126.0,30,1,186,246,11,0,0,365,-1268,230,359,-5.59,,,,,,,,,,,,
290643,1564236508975,0,2.26,0.99,0.32,1.43,1.07,0.84,0.16,0.45,-5,-1,-6,0.85,565,91,89,37,97,922,365.0,126,461,60,125.0,30,1,186,562,11,0,0,365,-6405,-6458,359,-5.59,44.681423,10.020426,36.08,176.4,0,0.0,-1,0.0,0.0,0,1.73,4.844
290663,1564236508995,-0,2.28,0.98,0.32,1.42,1.07,0.83,0.16,0.45,-5,-1,-6,0.84,565,96,89,37,97,918,365.0,125,460,60,126.0,30,1,186,246,11,0,0,365,-6405,-29302,358,-5.59,,,,,,,,,,,,
290683,1564236509007,0,2.27,0.98,0.33,1.42,1.08,0.82,0.15,0.45,-5,-1,-6,0.83,565,96,89,37,97,918,365.0,123,461,60,125.0,30,1,186,562,11,0,0,364,-6405,-29978,358,-5.59,,,,,,,,,,,,
290703,1564236509027,-1,2.27,0.98,0.33,1.41,1.07,0.82,0.16,0.44,-5,-0,-6,0.83,565,96,89,37,97,916,364.0,123,461,60,125.0,30,1,186,246,11,0,0,364,-1268,-6640,358,-5.59,,,,,,,,,,,,
290723,1564236509047,-1,2.28,0.98,0.33,1.42,1.07,0.81,0.17,0.46,-5,-0,-6,0.83,565,93,89,37,97,915,365.0,123,459,60,125.0,30,1,186,562,11,0,0,364,-6405,4104,358,-5.59,,,,,,,,,,,,
290743,1564236509067,0,2.28,0.98,0.32,1.42,1.07,0.82,0.16,0.49,-5,-0,-6,0.83,565,65,89,37,97,913,362.0,123,461,60,125.0,30,1,186,562,11,0,0,366,2790,-14707,357,-5.59,44.681423,10.020412,35.9,176.4,0,0.0,-1,0.0,0.0,0,1.73,4.8457
290763,1564236509094,-1,2.29,0.99,0.32,1.43,1.07,0.84,0.15,0.49,-4,0,-6,0.85,565,30,89,37,97,912,362.0,122,460,60,125.0,30,1,186,562,11,0,0,361,2790,-1268,357,-5.59,,,,,,,,,,,,
290783,1564236509114,-1,2.29,0.98,0.33,1.42,1.07,0.85,0.15,0.48,-4,-0,-6,0.86,565,0,89,37,97,911,362.0,121,458,60,125.0,30,1,189,562,11,0,0,363,2790,2790,358,-5.59,,,,,,,,,,,,
290803,1564236509134,-0,2.3,0.98,0.33,1.42,1.08,0.85,0.14,0.49,-4,0,-5,0.86,565,0,89,37,97,910,362.0,121,461,60,125.0,30,1,189,246,11,0,0,362,2790,-6640,357,-5.59,,,,,,,,,,,,
290823,1564236509154,-1,2.31,0.98,0.33,1.42,1.07,0.83,0.14,0.48,-4,0,-5,0.84,565,0,89,37,97,909,361.0,121,458,60,125.0,30,1,189,562,11,0,0,362,-6458,-6640,358,-5.59,,,,,,,,,,,,
290843,1564236509174,-0,2.32,0.98,0.33,1.43,1.08,0.82,0.13,0.49,-4,0,-5,0.83,565,0,89,37,97,145,360.0,120,462,60,125.0,30,1,0,0,11,0,0,0,250,250,0,-5.59,44.681419,10.020401,35.71,176.4,0,0.0,-1,0.0,0.0,0,1.73,4.8474
290863,1564236509194,-2,2.31,0.99,0.33,1.42,1.08,0.82,0.12,0.49,-3,1,-5,0.83,0,0,89,37,97,565,358.0,120,460,60,125.0,0,1,0,0,0,0,0,359,-29978,-29978,358,-5.59,,,,,,,,,,,,
290883,1564236509214,-0,2.31,0.98,0.33,1.42,1.08,0.82,0.13,0.48,-3,1,-4,0.83,0,0,89,37,97,630,359.0,120,462,60,125.0,0,1,0,0,0,0,0,359,-29302,-29978,357,-5.59,,,,,,,,,,,,
290903,1564236509234,-2,2.32,0.99,0.33,1.42,1.08,0.81,0.12,0.48,-3,1,-4,0.82,0,0,89,37,97,695,358.0,120,462,60,125.0,0,1,0,0,0,0,0,358,-6640,-29978,358,-5.59,,,,,,,,,,,,
290923,1564236509254,-1,2.32,0.98,0.33,1.43,1.08,0.81,0.12,0.48,-3,0,-4,0.82,0,8,89,37,97,759,357.0,119,461,60,125.0,0,1,0,0,0,0,0,358,-6640,2060,357,-5.59,,,,,,,,,,,,
290943,1564236509274,-1,2.33,0.99,0.33,1.43,1.07,0.84,0.12,0.48,-3,0,-4,0.84,0,20,89,37,97,825,357.0,119,461,60,126.0,0,1,0,0,0,0,0,361,-6640,4104,356,-5.59,44.681419,10.020388,35.51,176.4,0,0.0,-1,0.0,0.0,0,1.73,4.849
290963,1564236509294,-1,2.32,0.99,0.33,1.43,1.08,0.84,0.11,0.48,-2,0,-4,0.85,0,36,89,37,97,889,357.0,119,460,60,125.0,0,1,0,0,0,0,0,355,-6640,-29978,355,-5.59,,,,,,,,,,,,
290983,1564236509314,-2,2.29,0.98,0.33,1.42,1.08,0.83,0.1,0.49,-2,0,-3,0.84,0,51,89,37,97,905,356.0,119,461,60,125.0,0,1,0,0,0,0,0,355,4104,-29978,355,-5.59,,,,,,,,,,,,
291003,1564236509334,-0,2.3,0.99,0.33,1.43,1.08,0.82,0.09,0.47,-2,0,-3,0.83,0,64,89,37,97,905,355.0,119,460,60,125.0,0,1,0,0,0,0,0,355,2060,-6644,354,-5.59,,,,,,,,,,,,
291023,1564236509354,-1,2.3,0.98,0.33,1.43,1.08,0.81,0.08,0.48,-2,0,-3,0.82,0,76,89,37,97,905,355.0,119,462,60,125.0,0,1,0,0,0,0,0,353,2060,3302,355,-5.59,,,,,,,,,,,,
291043,1564236509374,-0,2.3,0.98,0.33,1.43,1.08,0.8,0.08,0.48,-2,-0,-3,0.8,0,87,89,37,97,905,356.0,118,462,60,125.0,0,1,0,0,0,0,0,357,4104,3183,354,-5.59,44.681419,10.020375,35.38,176.4,0,0.0,-1,0.0,0.0,0,1.73,4.8507
291063,1564236509394,-1,2.3,0.99,0.33,1.42,1.08,0.79,0.06,0.49,-2,0,-3,0.8,0,93,89,37,97,904,356.0,119,462,60,125.0,0,1,0,0,0,0,0,354,2060,-6644,354,-5.59,,,,,,,,,,,,
291083,1564236509414,0,2.3,0.98,0.33,1.43,1.08,0.81,0.07,0.48,-2,0,-3,0.82,0,94,89,37,97,904,355.0,118,462,60,125.0,0,1,0,0,0,0,0,356,2060,-29978,353,-5.59,,,,,,,,,,,,
291103,1564236509434,-1,2.31,0.99,0.33,1.43,1.09,0.82,0.08,0.5,-2,-0,-3,0.83,0,94,89,37,97,903,355.0,118,461,60,125.0,0,1,0,0,0,0,0,356,2060,-29978,353,-5.59,,,,,,,,,,,,
291123,1564236509454,1,2.3,0.99,0.33,1.42,1.08,0.83,0.08,0.51,-2,-1,-3,0.84,0,94,89,37,97,903,354.0,118,461,60,125.0,0,1,0,0,0,0,0,355,3302,-30454,352,-5.59,,,,,,,,,,,,
291143,1564236509474,3,2.3,0.98,0.34,1.43,1.08,0.84,0.08,0.5,-2,-1,-3,0.84,0,94,89,37,97,903,353.0,118,460,60,125.0,0,1,0,0,0,0,0,351,3183,3183,349,-5.59,44.681419,10.020363,34.95,176.5,0,0.0,-1,0.0,0.0,0,1.73,4.8524
291163,1564236509494,6,2.3,0.98,0.33,1.43,1.08,0.86,0.08,0.47,-2,-1,-3,0.86,0,94,89,37,97,903,350.0,118,458,60,125.0,0,1,0,0,0,0,0,351,-30454,8841,347,-5.59,,,,,,,,,,,,
291183,1564236509514,7,2.3,0.99,0.33,1.44,1.08,0.86,0.09,0.44,-2,-1,-3,0.87,0,87,89,37,97,903,350.0,118,461,60,125.0,0,1,0,0,0,0,0,347,-30454,-30438,348,-5.59,,,,,,,,,,,,
291203,1564236509534,8,2.29,0.99,0.33,1.44,1.08,0.86,0.08,0.42,-2,-1,-3,0.87,0,73,89,37,97,904,346.0,119,458,60,124.0,0,1,0,0,0,0,0,344,8841,-30438,345,-5.59,,,,,,,,,,,,
291223,1564236509554,8,2.3,0.99,0.33,1.43,1.08,0.89,0.08,0.41,-2,-1,-2,0.89,0,58,89,37,97,904,345.0,118,462,60,124.0,0,1,0,0,0,0,0,343,6870,6668,343,-5.59,,,,,,,,,,,,
291243,1564236509574,9,2.31,0.99,0.33,1.43,1.09,0.89,0.09,0.4,-1,-1,-2,0.9,0,45,89,37,97,904,341.0,118,460,60,124.0,0,1,0,0,0,0,0,340,3327,-31222,341,-5.59,44.681419,10.02035,35.15,176.5,0,0.0,-1,0.0,0.0,0,1.74,4.8541
291263,1564236509594,10,2.3,0.98,0.33,1.43,1.08,0.91,0.08,0.4,-1,-1,-2,0.92,0,36,89,37,97,904,338.0,118,458,60,125.0,0,1,0,0,0,0,0,338,2560,3327,336,-5.59,,,,,,,,,,,,
291283,1564236509614,11,2.3,0.99,0.33,1.44,1.08,0.94,0.09,0.38,-1,-1,-2,0.94,0,30,89,37,97,905,335.0,118,460,60,125.0,0,1,0,0,0,0,0,337,3346,4838,334,-5.59,,,,,,,,,,,,
291303,1564236509634,10,2.3,0.99,0.33,1.43,1.08,0.95,0.07,0.37,-1,-2,-2,0.95,0,26,89,37,97,905,333.0,118,460,60,124.0,0,1,0,0,0,0,0,329,-6528,-12032,331,-5.59,,,,,,,,,,,,
291323,1564236509654,10,2.31,0.99,0.34,1.43,1.09,0.97,0.06,0.36,-1,-2,-2,0.97,0,23,89,37,97,906,331.0,118,461,60,125.0,0,1,0,0,0,0,0,327,-12032,-12032,328,-5.59,,,,,,,,,,,,
291343,1564236509674,10,2.3,0.99,0.34,1.43,1.08,0.96,0.06,0.36,-2,-2,-2,0.97,0,18,89,37,97,906,326.0,118,461,60,125.0,0,1,0,0,0,0,0,325,165,-23296,324,-5.59,44.681419,10.020338,34.44,176.5,0,0.0,-1,0.0,0.0,0,1.74,4.8557
291363,1564236509694,10,2.31,0.99,0.34,1.43,1.08,0.97,0.07,0.33,-1,-2,-2,0.97,0,13,89,37,97,907,326.0,118,460,60,125.0,0,1,0,0,0,0,0,325,165,-22016,322,-5.59,,,,,,,,,,,,
291383,1564236509714,10,2.31,0.99,0.34,1.43,1.09,1.0,0.08,0.32,-1,-2,-2,1.0,0,7,89,37,97,908,322.0,118,461,60,124.0,0,1,0,0,0,0,0,319,155,-25856,321,-5.59,,,,,,,,,,,,
291403,1564236509734,11,2.31,0.98,0.33,1.44,1.08,1.0,0.08,0.32,-1,-1,-2,1.0,0,5,89,37,97,909,319.0,118,461,60,124.0,0,1,0,0,0,0,0,317,-27136,-28416,318,-5.59,,,,,,,,,,,,
291423,1564236509754,9,2.32,0.99,0.33,1.43,1.08,1.01,0.07,0.3,-1,-1,-2,1.01,0,0,89,37,97,910,315.0,118,459,60,124.0,0,1,0,0,0,0,0,312,-29696,-29696,315,-5.59,,,,,,,,,,,,
291443,1564236509774,10,2.31,0.99,0.34,1.43,1.08,1.02,0.07,0.31,-1,-0,-2,1.02,0,0,89,37,97,911,312.0,118,460,60,125.0,0,1,0,0,0,0,0,311,130,130,311,-5.59,44.681416,10.020327,33.59,176.5,0,0.0,-1,0.0,0.0,0,1.74,4.8574
291463,1564236509795,10,2.3,0.99,0.33,1.44,1.08,1.02,0.07,0.3,-1,-0,-2,1.02,0,0,89,37,97,912,310.0,118,461,60,124.0,0,1,0,0,0,0,0,310,125,125,309,-5.59,,,,,,,,,,,,
291483,1564236509815,10,2.31,0.98,0.33,1.43,1.09,1.04,0.07,0.3,-1,-1,-2,1.04,0,0,89,37,97,914,307.0,118,461,60,124.0,0,1,0,0,0,0,0,306,30720,110,306,-5.59,,,,,,,,,,,,
291503,1564236509835,10,2.3,0.99,0.33,1.44,1.08,1.03,0.06,0.3,-1,-1,-1,1.03,0,0,89,37,97,914,305.0,118,461,60,124.0,0,1,0,0,0,0,0,305,29440,105,304,-5.59,,,,,,,,,,,,
291523,1564236509855,9,2.31,0.99,0.33,1.44,1.08,1.01,0.06,0.28,-1,-1,-1,1.02,0,0,89,37,97,915,303.0,118,461,60,125.0,0,1,0,0,0,0,0,301,26880,105,301,-5.59,,,,,,,,,,,,
291543,1564236509875,9,2.31,0.99,0.33,1.44,1.09,1.01,0.07,0.28,-1,-1,-1,1.02,0,0,89,37,97,916,299.0,118,461,60,124.0,0,1,0,0,0,0,0,300,25600,24320,298,-5.59,44.681416,10.020315,32.11,176.6,0,0.0,-1,0.0,0.0,0,1.74,4.859
291563,1564236509894,8,2.31,0.99,0.34,1.43,1.09,1.02,0.07,0.28,-1,-1,-1,1.02,0,0,89,37,97,917,297.0,118,461,60,124.0,0,1,0,0,0,0,0,295,24320,21760,297,-5.59,,,,,,,,,,,,
291583,1564236509914,6,2.32,0.99,0.34,1.43,1.09,1.02,0.07,0.29,-1,-1,-1,1.02,0,0,89,37,97,918,297.0,118,461,60,124.0,0,1,0,0,0,0,0,292,24320,80,294,-5.59,,,,,,,,,,,,
291603,1564236509934,5,2.31,0.99,0.34,1.43,1.08,1.02,0.07,0.29,-1,-1,-1,1.02,0,0,89,37,97,919,293.0,118,462,60,124.0,0,1,0,0,0,0,0,292,21760,21760,293,-5.59,,,,,,,,,,,,
291623,1564236509954,6,2.31,0.99,0.34,1.43,1.09,1.02,0.07,0.3,-1,-0,-1,1.02,0,0,89,37,97,920,290.0,118,461,60,124.0,0,1,0,0,0,0,0,289,0,0,290,-5.59,,,,,,,,,,,,
291643,1564236509974,5,2.31,0.99,0.33,1.43,1.09,1.02,0.07,0.31,-1,-1,-1,1.03,0,0,89,37,97,922,288.0,118,463,60,124.0,0,1,0,0,0,0,0,289,0,-16896,288,-5.59,44.681416,10.020304,30.57,176.6,0,0.0,-1,0.0,0.0,0,1.74,4.8607
291663,1564236509994,6,2.31,0.99,0.33,1.44,1.08,1.02,0.07,0.31,-1,-1,-1,1.03,0,0,89,37,97,923,287.0,118,461,60,124.0,0,1,0,0,0,0,0,287,41,0,285,-5.59,,,,,,,,,,,,
291683,1564236510005,3,2.31,0.99,0.34,1.43,1.08,1.01,0.06,0.33,-1,-2,-1,1.01,0,0,89,37,97,924,285.0,119,463,60,124.0,0,1,0,0,0,0,0,284,-16896,41,284,-5.59,,,,,,,,,,,,
291703,1564236510025,2,2.31,0.99,0.34,1.43,1.09,0.98,0.05,0.35,-1,-1,-1,0.98,0,0,89,37,97,925,285.0,118,461,60,124.0,0,1,0,0,0,0,0,281,-16896,-1529,283,-5.59,,,,,,,,,,,,
291723,1564236510045,0,2.31,0.99,0.33,1.44,1.08,0.96,0.06,0.37,-1,-0,-0,0.97,0,0,89,37,97,926,284.0,118,461,60,124.0,0,1,0,0,0,0,0,281,250,1886,284,-5.59,,,,,,,,,,,,
291743,1564236510065,0,2.31,0.99,0.34,1.42,1.09,0.96,0.06,0.4,-1,-0,-1,0.97,0,0,89,37,97,927,283.0,118,461,60,124.0,0,1,0,0,0,0,0,284,-1529,24064,283,-5.59,44.681416,10.020294,29.28,176.6,0,0.0,-1,0.0,0.0,0,1.74,4.8624
291763,1564236510093,-0,2.3,0.99,0.33,1.44,1.09,0.95,0.05,0.43,-1,-0,-1,0.95,0,0,89,37,97,927,284.0,118,458,60,124.0,0,1,0,0,0,0,0,283,250,1886,282,-5.59,,,,,,,,,,,,
291783,1564236510113,-0,2.3,0.99,0.33,1.43,1.08,0.93,0.05,0.44,-1,0,-1,0.93,0,0,89,37,97,928,283.0,118,461,60,124.0,0,1,0,0,0,0,0,283,1886,-1534,282,-5.59,,,,,,,,,,,,
291803,1564236510133,-1,2.3,0.99,0.33,1.43,1.08,0.92,0.06,0.45,-1,1,-1,0.92,0,0,89,37,97,930,282.0,118,460,60,124.0,0,1,0,0,0,0,0,282,1886,1886,282,-5.59,,,,,,,,,,,,
291823,1564236510153,-0,2.32,0.98,0.33,1.43,1.09,0.89,0.05,0.46,-1,1,-1,0.9,0,0,89,37,97,931,281.0,118,459,60,124.0,0,1,0,0,0,0,0,281,24064,250,280,-5.59,,,,,,,,,,,,
291843,1564236510173,0,2.31,0.98,0.33,1.43,1.08,0.9,0.05,0.45,-1,1,-1,0.9,0,0,89,37,97,932,280.0,118,460,60,124.0,0,1,0,0,0,0,0,282,250,250,280,-5.59,44.681416,10.020284,28.43,176.6,0,0.0,-1,0.0,0.0,0,1.74,4.864
291863,1564236510193,-2,2.31,0.99,0.34,1.42,1.08,0.89,0.04,0.45,-1,0,-1,0.89,0,0,89,37,97,933,280.0,119,460,60,124.0,0,1,0,0,0,0,0,280,250,-1529,280,-5.59,,,,,,,,,,,,
291883,1564236510213,-1,2.31,0.99,0.33,1.44,1.08,0.88,0.04,0.46,-1,-0,-1,0.88,0,0,89,37,97,935,280.0,118,460,60,124.0,0,1,0,0,0,0,0,283,250,-1529,280,-5.59,,,,,,,,,,,,
291903,1564236510233,-0,2.3,0.99,0.33,1.43,1.08,0.86,0.04,0.45,-1,0,-1,0.86,0,0,89,37,97,936,280.0,118,460,60,123.0,0,1,0,0,0,0,0,279,250,250,280,-5.59,,,,,,,,,,,,
291923,1564236510253,-1,2.31,0.99,0.33,1.43,1.09,0.86,0.05,0.46,-1,0,-1,0.86,0,0,89,37,97,936,280.0,118,458,60,124.0,0,1,0,0,0,0,0,279,250,250,279,-5.59,,,,,,,,,,,,
291943,1564236510273,0,2.31,0.98,0.33,1.43,1.09,0.86,0.05,0.47,-1,0,-1,0.86,0,0,89,37,97,936,280.0,118,460,60,124.0,0,1,0,0,0,0,0,280,250,630,279,-5.59,44.681416,10.020274,27.81,176.7,0,0.0,-1,0.0,0.0,0,1.74,4.8657
291963,1564236510293,-2,2.31,0.99,0.34,1.44,1.08,0.86,0.05,0.46,-1,0,-1,0.86,0,0,89,37,97,938,279.0,118,461,60,124.0,0,1,0,0,0,0,0,280,-1534,630,279,-5.59,,,,,,,,,,,,
291983,1564236510313,-2,2.31,0.98,0.34,1.42,1.09,0.85,0.03,0.47,-1,0,-1,0.85,0,0,89,37,97,939,279.0,118,460,60,124.0,0,1,0,0,0,0,0,278,-1534,30208,278,-5.59,,,,,,,,,,,,
292003,1564236510333,-1,2.31,0.99,0.34,1.43,1.08,0.85,0.04,0.46,-0,0,-1,0.85,0,0,89,37,97,940,278.0,118,460,60,124.0,0,1,0,0,0,0,0,279,630,-1534,278,-5.59,,,,,,,,,,,,
292023,1564236510353,-1,2.32,0.99,0.33,1.42,1.08,0.84,0.04,0.46,-1,-0,-1,0.84,0,0,89,37,97,941,278.0,118,460,60,124.0,0,1,0,0,0,0,0,278,630,30208,277,-5.59,,,,,,,,,,,,
292043,1564236510373,-0,2.31,0.98,0.33,1.43,1.08,0.84,0.03,0.47,-1,0,-1,0.84,0,0,89,37,97,942,277.0,118,461,60,124.0,0,1,0,0,0,0,0,277,30208,2414,278,-5.59,44.681412,10.020264,27.64,176.7,0,0.0,-1,0.0,0.0,0,1.74,4.8674
292063,1564236510395,0,2.31,0.99,0.33,1.44,1.08,0.85,0.04,0.47,-1,0,-1,0.85,0,0,89,37,97,944,277.0,119,460,60,124.0,0,1,0,0,0,0,0,278,250,630,277,-5.59,,,,,,,,,,,,
292083,1564236510415,0,2.32,0.99,0.33,1.43,1.08,0.84,0.03,0.48,-1,0,-1,0.84,0,0,89,37,97,944,276.0,118,460,60,124.0,0,1,0,0,0,0,0,278,250,-1527,276,-5.59,,,,,,,,,,,,
292103,1564236510435,1,2.31,0.99,0.33,1.43,1.08,0.85,0.03,0.49,-1,-0,-1,0.85,0,0,89,37,97,945,275.0,118,461,60,124.0,0,1,0,0,0,0,0,276,-1527,30208,275,-5.59,,,,,,,,,,,,
292123,1564236510455,2,2.32,0.98,0.33,1.43,1.08,0.84,0.03,0.5,-1,-0,-1,0.84,0,0,89,37,97,946,275.0,118,461,60,124.0,0,1,0,0,0,0,0,274,2414,2414,275,-5.59,,,,,,,,,,,,
292143,1564236510475,1,2.32,0.98,0.33,1.43,1.08,0.84,0.04,0.51,-1,-0,-1,0.84,0,0,89,37,97,947,274.0,118,461,60,124.0,0,1,0,0,0,0,0,272,2414,28160,273,-5.59,44.681412,10.020254,27.56,176.7,0,0.0,-1,0.0,0.0,0,1.74,4.869
292163,1564236510493,1,2.32,0.99,0.33,1.43,1.08,0.85,0.03,0.49,-1,0,-1,0.85,0,0,89,37,97,948,274.0,118,462,60,123.0,0,1,0,0,0,0,0,274,2414,-1281,273,-5.59,,,,,,,,,,,,
292183,1564236510513,2,2.32,0.98,0.33,1.43,1.08,0.86,0.03,0.47,-1,0,-1,0.86,0,0,89,37,97,948,273.0,118,460,60,123.0,0,1,0,0,0,0,0,272,28160,250,271,-5.59,,,,,,,,,,,,
292203,1564236510533,1,2.32,0.99,0.34,1.42,1.08,0.85,0.04,0.47,-1,-0,-1,0.86,0,0,89,37,97,950,272.0,118,462,60,124.0,0,1,0,0,0,0,0,269,250,-1,272,-5.59,,,,,,,,,,,,
292223,1564236510553,2,2.32,0.99,0.34,1.42,1.08,0.85,0.03,0.47,-1,0,-1,0.85,0,0,89,37,97,951,271.0,118,462,60,123.0,0,1,0,0,0,0,0,269,-1,-1,270,-5.59,,,,,,,,,,,,
292243,1564236510573,2,2.31,0.99,0.33,1.43,1.08,0.87,0.03,0.46,-1,1,-1,0.87,0,0,89,37,97,952,270.0,118,460,60,124.0,0,1,0,0,0,0,0,268,-1,-1,270,-5.59,44.681412,10.020245,27.41,176.8,0,0.0,-1,0.0,0.0,0,1.74,4.8707
292263,1564236510595,2,2.32,0.98,0.34,1.43,1.08,0.87,0.03,0.45,-0,1,-0,0.87,0,0,89,37,97,952,268.0,118,462,60,124.0,0,1,0,0,0,0,0,265,-1,-1,268,-5.59,,,,,,,,,,,,
292283,1564236510615,1,2.32,0.98,0.34,1.43,1.08,0.87,0.03,0.45,-0,1,-0,0.87,0,0,89,37,97,954,265.0,118,461,60,124.0,0,1,0,0,0,0,0,266,-1,-1,265,-5.59,,,,,,,,,,,,
292303,1564236510635,1,2.33,0.99,0.34,1.43,1.08,0.88,0.02,0.45,-1,1,-0,0.88,0,0,89,37,97,955,265.0,118,461,60,123.0,0,1,0,0,0,0,0,264,-1,-1,264,-5.59,,,,,,,,,,,,
292323,1564236510655,2,2.32,0.98,0.34,1.43,1.08,0.88,0.02,0.45,-1,-0,-0,0.88,0,0,89,37,97,955,263.0,118,461,60,124.0,0,1,0,0,0,0,0,262,-1,-1,263,-5.59,,,,,,,,,,,,
292343,1564236510675,2,2.32,0.98,0.33,1.43,1.08,0.88,0.02,0.46,-1,0,-0,0.88,0,0,89,37,97,956,263.0,118,461,60,124.0,0,1,0,0,0,0,0,261,-1,-1,262,-5.59,44.681412,10.020235,26.96,176.8,0,0.0,-1,0.0,0.0,0,1.74,4.8724
292363,1564236510695,1,2.33,0.98,0.33,1.43,1.08,0.88,0.02,0.44,-1,-0,-0,0.88,0,0,89,37,97,957,262.0,118,461,60,124.0,0,1,0,0,0,0,0,260,-1,-41,262,-5.59,,,,,,,,,,,,
292383,1564236510715,1,2.33,0.98,0.33,1.42,1.09,0.88,0.02,0.42,-1,-0,-0,0.88,0,0,89,37,97,958,261.0,118,458,60,124.0,0,1,0,0,0,0,0,261,-1,-1,260,-5.59,,,,,,,,,,,,
292403,1564236510735,2,2.33,0.99,0.33,1.43,1.08,0.88,0.02,0.42,-1,0,-1,0.88,0,0,89,37,97,959,260.0,118,458,60,124.0,0,1,0,0,0,0,0,259,-1,-10440,259,-5.59,,,,,,,,,,,,
292423,1564236510755,2,2.32,0.99,0.34,1.42,1.08,0.89,0.02,0.42,-0,0,-0,0.89,0,0,89,37,97,959,258.0,118,461,60,124.0,0,1,0,0,0,0,0,255,-10440,-1,258,-5.59,,,,,,,,,,,,
292443,1564236510775,2,2.33,0.99,0.33,1.43,1.08,0.9,0.02,0.43,-0,-0,-0,0.9,0,0,89,37,97,960,258.0,118,460,60,124.0,0,1,0,0,0,0,0,255,-10440,506,258,-5.59,44.681408,10.020226,26.56,176.8,0,0.0,-1,0.0,0.0,0,1.75,4.8741
292463,1564236510795,2,2.33,0.99,0.33,1.43,1.08,0.9,0.03,0.43,-0,0,-0,0.9,0,0,89,37,97,961,256.0,118,461,60,124.0,0,1,0,0,0,0,0,254,506,506,256,-5.59,,,,,,,,,,,,
292483,1564236510815,2,2.33,0.98,0.34,1.43,1.09,0.9,0.01,0.43,-0,1,-1,0.9,0,0,89,37,97,962,254.0,118,460,60,124.0,0,1,0,0,0,0,0,252,-1,-1,254,-5.59,,,,,,,,,,,,
292503,1564236510835,2,2.32,0.99,0.33,1.43,1.08,0.9,0.02,0.41,-0,1,-0,0.9,0,0,89,37,97,962,253.0,118,461,60,124.0,0,1,0,0,0,0,0,252,-1,-1,253,-5.59,,,,,,,,,,,,
292523,1564236510855,1,2.33,0.98,0.33,1.43,1.09,0.9,0.02,0.41,-0,1,-0,0.9,0,0,89,37,97,963,253.0,118,459,60,124.0,0,1,0,0,0,0,0,251,-214,10818,253,-5.59,,,,,,,,,,,,
292543,1564236510875,2,2.33,0.99,0.33,1.43,1.08,0.89,0.02,0.42,-0,1,0,0.89,0,0,89,37,97,964,251.0,118,461,60,123.0,0,1,0,0,0,0,0,251,-214,-1,251,-5.59,44.681408,10.020217,25.86,176.8,0,0.0,-1,0.0,0.0,0,1.75,4.8757
292563,1564236510895,2,2.33,0.99,0.33,1.44,1.08,0.89,0.02,0.42,-0,1,0,0.89,0,0,89,37,97,965,250.0,118,458,60,123.0,0,1,0,0,0,0,0,251,10818,-214,250,-5.59,,,,,,,,,,,,
292583,1564236510915,2,2.32,0.98,0.33,1.43,1.08,0.89,0.02,0.41,-0,1,0,0.89,0,0,89,37,97,965,250.0,118,462,60,124.0,0,1,0,0,0,0,0,246,16896,16896,250,-5.59,,,,,,,,,,,,
292603,1564236510935,0,2.33,0.98,0.33,1.43,1.09,0.9,0.02,0.42,-0,0,0,0.9,0,0,89,37,97,966,248.0,118,461,60,124.0,0,1,0,0,0,0,0,246,250,-1494,248,-5.59,,,,,,,,,,,,
292623,1564236510955,2,2.33,0.98,0.34,1.42,1.09,0.88,0.02,0.44,-0,0,0,0.88,0,0,89,37,97,967,247.0,118,462,60,123.0,0,1,0,0,0,0,0,246,-1494,15360,246,-5.59,,,,,,,,,,,,
292643,1564236510975,2,2.33,0.99,0.33,1.43,1.08,0.89,0.02,0.44,-0,1,-0,0.89,0,0,89,37,97,967,246.0,118,460,60,124.0,0,1,0,0,0,0,0,245,10812,15360,246,-5.59,44.681408,10.020208,25.08,176.8,0,0.0,-1,0.0,0.0,0,1.75,4.8774
292663,1564236510995,2,2.32,0.99,0.34,1.43,1.08,0.9,0.03,0.43,-0,0,-0,0.9,0,0,89,37,97,968,245.0,118,461,60,124.0,0,1,0,0,0,0,0,244,15360,15360,245,-5.59,,,,,,,,,,,,
292683,1564236511006,2,2.32,0.99,0.34,1.42,1.09,0.9,0.03,0.44,0,-1,0,0.9,0,0,89,37,97,968,244.0,118,462,60,124.0,0,1,0,0,0,0,0,241,250,23482,244,-5.59,,,,,,,,,,,,
292703,1564236511026,1,2.32,0.99,0.34,1.43,1.08,0.9,0.03,0.45,0,-1,0,0.9,0,0,89,37,97,969,243.0,118,462,60,124.0,0,1,0,0,0,0,0,240,23482,-17920,243,-5.59,,,,,,,,,,,,
292723,1564236511046,2,2.32,0.98,0.33,1.43,1.08,0.9,0.03,0.45,0,-1,-0,0.9,0,0,89,37,97,970,241.0,118,461,60,123.0,0,1,0,0,0,0,0,239,250,-17920,241,-5.59,,,,,,,,,,,,
292743,1564236511066,0,2.32,0.99,0.34,1.42,1.09,0.9,0.03,0.46,0,-1,0,0.9,0,0,89,37,97,971,240.0,118,462,60,124.0,0,1,0,0,0,0,0,239,250,13468,240,-5.59,44.681408,10.0202,24.53,176.8,0,0.0,-1,0.0,0.0,0,1.75,4.8791
292763,1564236511094,2,2.32,0.99,0.34,1.42,1.09,0.89,0.02,0.46,0,-1,-0,0.89,0,0,89,37,97,971,239.0,118,461,60,124.0,0,1,0,0,0,0,0,238,-1484,13468,239,-5.59,,,,,,,,,,,,
292783,1564236511114,1,2.33,0.99,0.33,1.43,1.09,0.89,0.05,0.44,0,-0,0,0.89,0,0,89,37,97,972,238.0,118,461,60,124.0,0,1,0,0,0,0,0,237,-25600,-17920,238,-5.59,,,,,,,,,,,,
