"Interval"|"ms"|0|0|1,"Utc"|"ms"|0|0|1,"FB_p"|"bar"|0|300|50,"Volant"|"F"|0.0|300.0|50,"xFR"|"mm"|0.0|5.0|50,"xRR"|"mm"|0.0|5.0|50,"xFL"|"mm"|0.0|5.0|50,"xRL"|"mm"|0.0|5.0|50,"AccelX"|"G"|-3.0|3.0|50,"AccelY"|"G"|-3.0|3.0|50,"AccelZ"|"G"|-3.0|3.0|50,"Yaw"|"Deg/Sec"|-120|120|50,"Pitch"|"Deg/Sec"|-120|120|50,"Roll"|"Deg/Sec"|-120|120|50,"Gsum"|"G"|0.0|3.0|50,"RPM"|""|0|14000|50,"TPS"|"%"|0|100|50,"WaterTemp"|"?C"|0|300|50,"AirTemp"|"?C"|-1000|1000|50,"MAP"|"KPa"|0|255|50,"Lambda"|""|0|1024|50,"WheelSpeed"|"MPH"|0.0|150.0|50,"OilPress"|"PSI"|0|150|50,"FuelPress"|"PSI"|0|150|50,"OilTemp"|"F"|0|300|50,"Battery"|"Volts"|0.0|20.0|50,"FuelCon"|"L/h"|-1000|1000|50,"Gear"|""|0|10|50,"Advance"|"Deg"|-360|360|50,"Injection"|"ms"|-1000|1000|50,"FuelCon"|"L/100km"|-1000|1000|50,"LC_But_Pres"|""|-1000|1000|50,"LC_Active"|""|-1000|1000|50,"RD_Speed"|""|-1000|1000|50,"RUD_Speed"|""|-1000|1000|50,"LD_Speed"|""|-1000|1000|50,"LUD_Speed"|""|-1000|1000|50,"Ana1"|"bar"|-1000.0|1000.0|50,"Latitude"|"Degrees"|-180.0|180.0|10,"Longitude"|"Degrees"|-180.0|180.0|10,"Speed"|"kph"|0.0|150.0|10,"Altitude"|"m"|0.0|4000.0|10,"LapCount"|""|0|0|10,"LapTime"|"Min"|0.0|0.0|10,"Sector"|""|0|0|10,"SectorTime"|"Min"|0.0|0.0|10,"ElapsedTime"|"Min"|0.0|0.0|10,"CurrentLap"|""|0|0|10,"Distance"|"km"|0.0|0.0|10,"SessionTime"|"Min"|0.0|0.0|10
350464,1564237742822,1,2.73,0.99,0.35,1.34,0.99,0.68,-1.1,0.34,31,-1,32,1.3,7506,14,92,40,31,869,465.0,340,465,60,123.0,98,1,286,164,46,0,0,337,-21944,-18108,465,-5.59,,,,,,,,,,,,
350484,1564237742842,0,2.73,0.98,0.35,1.34,0.99,0.66,-1.15,0.31,32,0,33,1.32,7473,17,92,40,31,863,460.0,320,466,60,123.0,98,1,286,164,46,0,0,319,-26615,-18108,460,-5.59,,,,,,,,,,,,
350504,1564237742862,1,2.71,0.99,0.35,1.34,0.99,0.59,-1.19,0.3,33,2,37,1.32,7473,37,92,40,36,859,460.0,295,463,60,123.0,98,1,301,182,46,0,0,316,-9166,2211,460,-5.59,,,,,,,,,,,,
350524,1564237742882,0,2.72,0.98,0.35,1.34,1.0,0.52,-1.19,0.38,34,2,38,1.3,7449,57,92,40,45,859,460.0,308,462,60,124.0,98,1,355,213,46,0,0,316,13040,-23623,460,-5.59,,,,,,,,,,,,
350544,1564237742902,1,2.7,0.99,0.35,1.34,1.0,0.52,-1.27,0.31,34,2,39,1.37,7416,77,92,40,59,859,458.0,313,463,60,124.0,145,1,421,283,67,0,0,313,-4059,17628,458,-5.59,44.680557,10.016782,44.0,179.5,0,0.0,-1,0.0,0.0,0,2.16,5.8424
350564,1564237742922,-0,2.7,0.99,0.35,1.35,0.99,0.58,-1.34,0.33,33,3,40,1.46,7304,98,92,40,78,859,457.0,299,466,60,124.0,145,1,398,441,67,0,0,313,10392,17628,457,-5.59,,,,,,,,,,,,
350584,1564237742942,1,2.67,0.98,0.35,1.35,0.99,0.6,-1.39,0.36,34,4,41,1.51,7225,100,92,40,89,859,458.0,293,464,60,123.0,145,1,390,523,67,0,0,317,9517,14488,455,-5.59,,,,,,,,,,,,
350604,1564237742962,0,2.66,0.98,0.35,1.35,0.99,0.67,-1.34,0.39,34,3,43,1.5,7145,100,92,41,92,858,457.0,285,467,60,122.0,145,1,382,525,67,0,0,319,11560,-9160,457,-5.59,,,,,,,,,,,,
350624,1564237742982,3,2.64,0.98,0.35,1.35,0.99,0.68,-1.26,0.35,35,3,44,1.43,7194,100,92,41,92,862,455.0,277,462,60,122.0,145,1,386,527,67,0,0,319,10392,-9160,454,-5.59,,,,,,,,,,,,
350644,1564237742996,2,2.63,0.98,0.35,1.34,0.99,0.67,-1.31,0.29,35,3,44,1.47,7309,100,92,41,92,883,453.0,275,464,60,123.0,317,1,395,533,145,0,0,319,-26615,-26615,453,-5.59,44.68055,10.016782,43.63,179.5,0,0.0,-1,0.0,0.0,0,2.16,5.8441
350664,1564237743016,2,2.62,0.98,0.35,1.34,1.0,0.67,-1.31,0.25,35,3,45,1.47,7566,100,92,41,93,910,454.0,264,465,60,123.0,317,1,413,542,145,0,0,316,-26615,8488,453,-5.59,,,,,,,,,,,,
350684,1564237743036,3,2.59,0.98,0.35,1.34,0.98,0.67,-1.31,0.22,36,2,45,1.48,8002,100,92,41,92,932,453.0,259,466,60,122.0,317,1,448,562,145,0,0,324,2524,3571,453,-5.59,,,,,,,,,,,,
350704,1564237743056,2,2.59,0.98,0.35,1.34,0.99,0.76,-1.27,0.23,34,1,45,1.48,8561,100,92,41,89,974,451.0,256,464,60,123.0,317,1,433,617,145,0,0,326,2524,-3267,449,-5.59,,,,,,,,,,,,
350724,1564237743076,2,2.57,0.98,0.35,1.34,0.99,0.81,-1.31,0.38,33,2,45,1.54,9079,100,92,41,87,1076,450.0,256,467,60,123.0,317,1,418,595,145,0,0,397,-26615,14488,450,-5.59,,,,,,,,,,,,
350744,1564237743101,3,2.56,0.98,0.35,1.35,0.99,0.78,-1.3,0.35,33,3,45,1.52,9218,100,92,41,87,1153,450.0,252,462,60,123.0,450,1,418,573,202,0,0,598,11560,16408,450,-5.59,44.680534,10.016779,43.23,179.5,0,0.0,-1,0.0,0.0,0,2.16,5.8457
350764,1564237743121,-1,2.54,0.97,0.35,1.34,0.99,0.86,-1.22,0.15,32,5,47,1.49,9527,100,92,41,86,1235,456.0,253,470,60,122.0,450,1,415,575,202,0,0,635,10392,-8985,456,-5.59,,,,,,,,,,,,
350784,1564237743141,2,2.53,0.98,0.35,1.34,1.0,0.92,-1.27,0.22,30,4,46,1.57,9936,100,92,41,86,1325,450.0,259,461,60,122.0,450,1,399,663,202,0,0,618,11560,-9160,450,-5.59,,,,,,,,,,,,
350804,1564237743161,3,2.51,0.98,0.35,1.34,0.99,0.86,-1.34,0.4,30,4,43,1.59,10410,96,92,41,85,1359,447.0,268,462,60,121.0,450,1,424,649,202,0,0,531,13040,2524,447,-5.59,,,,,,,,,,,,
350824,1564237743181,1,2.48,0.97,0.35,1.33,0.98,0.79,-1.3,0.44,29,6,43,1.53,10510,68,92,41,85,1384,450.0,273,467,60,122.0,450,1,431,567,202,0,0,526,18584,505,450,-5.59,,,,,,,,,,,,
350844,1564237743201,2,2.45,0.98,0.35,1.33,0.99,0.68,-1.22,0.5,28,8,44,1.4,10324,100,92,41,84,1357,464.0,279,461,60,121.0,494,1,417,489,225,0,0,587,-3414,-23623,464,-5.59,44.680527,10.016776,42.77,179.5,0,0.0,-1,0.0,0.0,0,2.16,5.8474
350864,1564237743221,0,2.43,0.98,0.35,1.33,1.0,0.58,-1.24,0.59,27,10,45,1.37,10257,100,92,41,85,1310,468.0,298,460,60,121.0,494,1,413,644,225,0,0,535,13180,1010,468,-5.59,,,,,,,,,,,,
350884,1564237743241,1,2.41,0.97,0.35,1.33,1.0,0.47,-1.11,0.73,27,8,40,1.21,10330,77,92,41,85,1240,472.0,311,457,60,121.0,494,1,418,552,225,0,0,466,5600,6274,472,-5.59,,,,,,,,,,,,
350904,1564237743261,3,2.41,0.97,0.34,1.33,0.99,0.58,-1.0,0.85,28,4,37,1.16,10069,100,92,41,85,1183,476.0,336,465,60,122.0,494,1,400,654,225,0,0,586,8488,2524,476,-5.59,,,,,,,,,,,,
350924,1564237743281,2,2.39,0.97,0.35,1.34,0.99,0.62,-0.94,0.96,28,2,35,1.12,9858,99,92,41,85,1176,484.0,363,462,60,122.0,494,1,402,506,225,0,0,630,10305,1248,484,-5.59,,,,,,,,,,,,
350944,1564237743302,1,2.37,0.97,0.35,1.34,0.99,0.58,-0.99,1.06,27,3,33,1.14,9920,99,92,41,85,1167,487.0,393,466,60,122.0,489,1,399,619,237,0,0,505,15649,15679,487,-5.59,44.680515,10.016771,44.01,179.5,0,0.0,-1,0.0,0.0,0,2.16,5.8491
350964,1564237743322,2,2.34,0.98,0.35,1.33,0.98,0.65,-0.91,0.99,24,2,33,1.11,9915,52,92,41,84,1147,489.0,422,465,60,121.0,489,1,399,534,237,0,0,499,-9160,-32504,489,-5.59,,,,,,,,,,,,
350984,1564237743342,2,2.32,0.97,0.34,1.34,0.99,0.49,-0.93,1.04,23,2,31,1.05,9832,61,92,41,78,1122,496.0,448,470,60,122.0,489,1,403,575,237,0,0,540,-9203,-2934,495,-5.59,,,,,,,,,,,,
351004,1564237743362,2,2.3,0.97,0.35,1.33,0.99,0.47,-0.91,1.02,21,0,29,1.03,9801,38,92,41,67,1100,494.0,462,467,60,122.0,489,1,405,402,237,0,0,524,-10483,-3082,496,-5.59,,,,,,,,,,,,
351024,1564237743382,2,2.27,0.98,0.34,1.34,0.99,0.38,-0.77,0.97,20,2,28,0.86,9775,18,92,41,57,1089,499.0,476,470,60,123.0,489,1,405,328,237,0,0,535,-1818,-22519,499,-5.59,,,,,,,,,,,,
351044,1564237743401,2,2.23,0.97,0.35,1.33,0.99,0.37,-0.66,0.86,17,4,25,0.75,9546,9,92,41,47,1066,502.0,487,467,60,122.0,201,1,380,233,101,0,0,526,2524,2524,502,-5.59,44.680508,10.016765,47.5,179.5,0,0.0,-1,0.0,0.0,0,2.16,5.8507
351064,1564237743421,3,2.21,0.97,0.34,1.33,0.98,0.5,-0.55,0.89,14,0,22,0.74,9141,8,92,41,41,1052,507.0,495,468,60,122.0,201,1,333,214,101,0,0,513,-21872,-8187,503,-5.59,,,,,,,,,,,,
351084,1564237743441,3,2.18,0.97,0.34,1.31,0.99,0.62,-0.35,0.77,11,1,20,0.71,8962,7,92,41,37,1040,511.0,508,466,60,123.0,201,1,314,201,101,0,0,513,-3856,26178,500,-5.59,,,,,,,,,,,,
351104,1564237743461,2,2.14,0.95,0.33,1.31,0.97,0.76,-0.16,0.82,7,-3,17,0.78,8852,7,92,41,34,1036,514.0,526,468,60,122.0,201,1,305,192,101,0,0,513,-3482,-22519,496,-5.59,,,,,,,,,,,,
351124,1564237743481,3,2.11,0.95,0.32,1.3,0.96,0.89,-0.15,0.78,2,-4,13,0.9,8680,22,92,41,33,1015,516.0,534,465,60,123.0,201,1,302,188,101,0,0,519,16383,-6528,492,-5.59,,,,,,,,,,,,
351144,1564237743501,-2,2.07,0.94,0.33,1.27,0.97,0.91,-0.12,0.71,-2,-4,10,0.92,8468,42,92,41,38,995,519.0,539,463,60,122.0,128,1,316,204,63,0,0,518,-8187,-32768,489,-5.59,44.680492,10.016758,49.88,179.4,0,0.0,-1,0.0,0.0,0,2.16,5.8524
351164,1564237743521,3,2.04,0.94,0.32,1.28,0.95,0.87,0.09,0.75,-6,-3,7,0.88,8400,44,92,41,46,966,521.0,548,462,60,122.0,128,1,363,219,63,0,0,523,-9212,-6656,487,-5.59,,,,,,,,,,,,
351184,1564237743541,1,2.04,0.94,0.31,1.28,0.95,0.99,0.21,0.64,-9,-5,3,1.01,8620,49,92,41,52,949,523.0,547,466,60,124.0,128,1,385,260,63,0,0,513,-22519,2211,484,-5.59,,,,,,,,,,,,
351204,1564237743561,2,2.01,0.95,0.32,1.28,0.95,1.04,0.13,0.69,-12,-8,-1,1.05,9106,46,92,41,55,922,519.0,564,467,60,123.0,128,1,400,300,63,0,0,512,-8187,-3414,481,-5.59,,,,,,,,,,,,
351224,1564237743581,3,2.0,0.94,0.32,1.28,0.95,1.14,0.14,0.74,-15,-5,-7,1.15,9464,0,92,41,56,905,517.0,590,465,60,123.0,128,1,403,247,63,0,0,520,15679,-9211,477,-5.59,,,,,,,,,,,,
351244,1564237743601,0,2.01,0.94,0.33,1.28,0.95,1.18,0.32,0.65,-16,-6,-10,1.22,9816,53,92,41,57,890,519.0,601,459,60,122.0,245,1,404,261,117,0,0,519,-8187,-8151,476,-5.59,44.680485,10.01675,49.57,179.4,0,0.0,-1,0.0,0.0,0,2.16,5.8541
351264,1564237743621,-1,2.01,0.94,0.32,1.28,0.96,1.26,0.28,0.78,-19,-7,-14,1.3,10069,53,92,41,56,891,521.0,623,463,60,123.0,245,1,404,364,117,0,0,525,-9212,-26615,474,-5.59,,,,,,,,,,,,
351284,1564237743641,3,2.0,0.95,0.33,1.28,0.96,1.26,0.22,0.88,-21,-7,-18,1.28,10212,27,92,41,56,890,518.0,634,463,60,123.0,245,1,407,330,117,0,0,521,1341,32033,474,-5.59,,,,,,,,,,,,
351304,1564237743661,2,2.0,0.95,0.32,1.29,0.96,1.27,0.27,0.85,-23,-5,-23,1.3,10206,52,92,41,56,886,521.0,644,466,60,122.0,245,1,407,375,117,0,0,529,-9212,3,473,-5.59,,,,,,,,,,,,
351324,1564237743681,1,2.01,0.94,0.33,1.29,0.97,1.11,0.44,0.64,-23,-6,-23,1.19,10336,53,92,41,57,880,520.0,647,466,60,123.0,245,1,415,376,117,0,0,522,1248,-2830,470,-5.59,,,,,,,,,,,,
351344,1564237743701,3,1.99,0.95,0.32,1.29,0.96,0.98,0.6,0.45,-23,-3,-25,1.15,10629,54,92,41,57,876,514.0,648,468,60,121.0,317,1,421,374,149,0,0,521,-3482,17336,467,-5.59,44.68047,10.016745,48.04,179.4,0,0.0,-1,0.0,0.0,0,2.17,5.8557
351364,1564237743721,3,2.0,0.95,0.33,1.29,0.97,0.95,0.59,0.3,-24,-5,-27,1.12,10806,56,92,41,60,877,511.0,653,464,60,123.0,317,1,442,394,149,0,0,514,-3856,-8186,469,-5.59,,,,,,,,,,,,
351384,1564237743741,3,2.0,0.95,0.33,1.28,0.96,0.95,0.62,0.47,-25,-6,-29,1.13,10971,72,92,41,64,886,508.0,653,463,60,123.0,317,1,450,464,149,0,0,529,-3414,-32504,467,-5.59,,,,,,,,,,,,
351404,1564237743761,2,2.02,0.95,0.33,1.29,0.96,0.91,0.53,0.61,-25,-3,-32,1.06,10875,81,92,41,70,895,512.0,652,466,60,122.0,317,1,447,496,149,0,0,555,17136,-23055,467,-5.59,,,,,,,,,,,,
351424,1564237743781,3,2.03,0.95,0.33,1.29,0.97,0.82,0.68,0.46,-26,-4,-32,1.06,10856,92,92,41,77,913,519.0,648,469,60,122.0,317,1,440,521,149,0,0,569,-9212,5344,470,-5.59,,,,,,,,,,,,
351444,1564237743803,3,2.04,0.95,0.32,1.3,0.96,0.81,0.53,0.61,-27,-5,-35,0.97,10888,97,92,41,81,924,526.0,644,465,60,121.0,472,1,440,541,222,0,0,575,-32248,-2934,472,-5.59,44.680462,10.01674,48.19,179.4,0,0.0,-1,0.0,0.0,0,2.17,5.8574
351464,1564237743823,1,2.06,0.95,0.33,1.29,0.97,0.86,0.6,0.74,-30,-3,-36,1.05,10863,89,92,41,83,939,534.0,648,467,60,122.0,472,1,438,616,222,0,0,570,-32248,1267,477,-5.59,,,,,,,,,,,,
351484,1564237743843,2,2.06,0.95,0.33,1.29,0.96,0.83,0.74,0.69,-31,-4,-36,1.12,10863,90,92,41,86,954,537.0,643,463,60,122.0,472,1,441,686,222,0,0,555,-30064,6273,477,-5.59,,,,,,,,,,,,
351504,1564237743863,3,2.07,0.95,0.33,1.3,0.96,0.94,0.6,0.82,-33,-4,-38,1.11,9337,84,92,41,88,955,533.0,635,438,60,122.0,472,1,418,698,222,0,0,543,2104,-9212,477,-5.59,,,,,,,,,,,,
351524,1564237743883,3,2.09,0.94,0.32,1.3,0.96,0.95,0.72,0.7,-32,-5,-36,1.19,9222,86,92,41,89,961,530.0,630,445,60,123.0,472,1,418,711,222,0,0,530,2524,-22519,474,-5.59,,,,,,,,,,,,
351544,1564237743901,0,2.1,0.95,0.33,1.29,0.97,0.81,0.85,0.43,-31,-7,-33,1.18,9847,100,92,41,86,1029,528.0,630,442,60,122.0,518,1,403,667,247,0,0,532,-28648,-22519,474,-5.59,44.680447,10.016738,48.84,179.4,0,0.0,-1,0.0,0.0,0,2.17,5.8591
351564,1564237743921,2,2.1,0.94,0.33,1.3,0.96,0.84,0.89,0.53,-29,-7,-34,1.23,10469,100,92,41,85,1085,527.0,637,443,60,122.0,518,1,428,635,247,0,0,530,6274,-8187,474,-5.59,,,,,,,,,,,,
351584,1564237743941,3,2.11,0.95,0.33,1.29,0.96,0.78,0.95,0.56,-28,-7,-35,1.23,10788,100,92,41,84,1126,530.0,650,422,60,122.0,518,1,437,595,247,0,0,545,2524,5344,481,-5.59,,,,,,,,,,,,
351604,1564237743961,2,2.13,0.95,0.33,1.3,0.97,0.71,1.03,0.52,-27,-6,-36,1.25,11140,99,92,41,84,1202,535.0,650,396,60,123.0,518,1,442,642,247,0,0,556,-30064,-8429,492,-5.59,,,,,,,,,,,,
351624,1564237743981,4,2.15,0.96,0.33,1.3,0.97,0.75,0.8,0.66,-28,-4,-39,1.1,11453,100,92,41,84,1288,539.0,665,387,60,122.0,518,1,441,642,247,0,0,555,-2934,-14655,494,-5.59,,,,,,,,,,,,
351644,1564237743995,1,2.18,0.95,0.33,1.3,0.97,0.69,0.85,0.47,-28,-6,-39,1.1,11588,0,92,41,83,1353,542.0,658,437,60,122.0,557,1,440,519,276,0,0,576,-3082,-28648,496,-5.59,44.680435,10.016736,50.24,179.4,0,0.0,-1,0.0,0.0,0,2.17,5.8607
351664,1564237744015,2,2.18,0.95,0.33,1.3,0.97,0.58,0.96,0.48,-28,-6,-37,1.13,11667,48,92,41,83,1394,546.0,667,467,60,121.0,557,1,440,627,276,0,0,598,2524,17740,504,-5.59,,,,,,,,,,,,
351684,1564237744035,2,2.2,0.97,0.33,1.31,0.97,0.65,0.79,0.63,-28,-4,-39,1.03,11667,0,92,41,85,1422,551.0,655,463,60,122.0,557,1,440,555,276,0,0,601,6274,1010,507,-5.59,,,,,,,,,,,,
351704,1564237744055,3,2.22,0.95,0.34,1.31,0.98,0.79,0.64,0.76,-29,-5,-39,1.01,637,98,92,41,87,1388,554.0,646,456,60,122.0,557,1,90,298,276,0,0,569,-9072,-2336,508,-5.59,,,,,,,,,,,,
351724,1564237744075,1,2.23,0.96,0.34,1.31,0.97,0.7,0.69,0.75,-28,-7,-36,0.98,9503,98,92,41,88,1344,547.0,645,461,60,123.0,557,1,419,677,276,0,0,556,-22519,-2934,514,-5.59,,,,,,,,,,,,
351744,1564237744102,2,2.24,0.96,0.33,1.31,0.97,0.62,0.77,0.63,-26,-6,-34,0.99,9412,86,92,41,88,1275,545.0,632,425,60,122.0,461,1,418,595,239,0,0,549,-8962,-32248,519,-5.59,44.680424,10.016736,50.74,179.4,0,0.0,-1,0.0,0.0,0,2.17,5.8624
351764,1564237744122,-1,2.24,0.96,0.33,1.3,0.97,0.64,0.7,0.67,-23,-7,-34,0.95,9858,71,92,41,87,1199,543.0,637,406,60,122.0,461,1,403,581,239,0,0,547,1779,2088,523,-5.59,,,,,,,,,,,,
351784,1564237744142,2,2.25,0.96,0.33,1.31,0.97,0.64,0.64,0.75,-20,-10,-33,0.91,10439,100,92,41,85,1179,542.0,637,381,60,123.0,461,1,426,649,239,0,0,543,-3082,-22519,528,-5.59,,,,,,,,,,,,
351804,1564237744162,1,2.25,0.97,0.33,1.32,0.98,0.73,0.54,0.88,-18,-7,-32,0.91,10945,100,92,41,84,1179,543.0,650,389,60,122.0,461,1,441,609,239,0,0,548,-2336,2524,531,-5.59,,,,,,,,,,,,
351824,1564237744182,2,2.26,0.97,0.33,1.32,0.97,0.66,0.69,0.67,-16,-6,-28,0.95,11187,100,92,41,84,1230,547.0,652,395,60,123.0,461,1,442,595,239,0,0,564,2104,-8186,538,-5.59,,,,,,,,,,,,
351844,1564237744200,0,2.25,0.97,0.34,1.33,0.97,0.67,0.45,0.8,-15,-3,-27,0.81,11207,48,92,41,84,1307,554.0,655,441,60,122.0,420,1,442,549,227,0,0,577,2524,243,541,-5.59,44.680408,10.016738,52.86,179.3,0,0.0,-1,0.0,0.0,0,2.17,5.8641
351864,1564237744220,3,2.26,0.97,0.34,1.33,0.98,0.6,0.53,0.66,-15,1,-25,0.8,11247,100,92,41,84,1347,560.0,658,458,60,122.0,420,1,442,638,227,0,0,586,-28648,-4035,547,-5.59,,,,,,,,,,,,
351884,1564237744240,-0,2.25,0.98,0.34,1.32,0.98,0.64,0.47,0.79,-13,0,-25,0.79,11227,97,92,41,84,1361,567.0,656,455,60,122.0,420,1,442,624,227,0,0,585,-30159,-25872,554,-5.59,,,,,,,,,,,,
351904,1564237744260,2,2.26,0.97,0.34,1.32,0.99,0.56,0.5,0.8,-13,1,-22,0.75,11055,97,92,41,84,1343,572.0,656,461,60,122.0,420,1,443,605,227,0,0,598,-8188,2048,559,-5.59,,,,,,,,,,,,
351924,1564237744280,3,2.26,0.97,0.34,1.33,0.98,0.51,0.39,0.86,-12,1,-22,0.64,10920,99,92,41,84,1272,576.0,649,454,60,120.0,420,1,440,586,227,0,0,601,774,-7939,565,-5.59,,,,,,,,,,,,
351944,1564237744300,1,2.26,0.97,0.33,1.33,0.98,0.6,0.2,0.97,-12,1,-21,0.64,10958,98,92,41,84,1195,577.0,646,461,60,120.0,419,1,441,572,239,0,0,597,30208,6273,568,-5.59,44.680397,10.016741,53.42,179.3,0,0.0,-1,0.0,0.0,0,2.17,5.8657
351964,1564237744320,2,2.27,0.98,0.34,1.33,0.99,0.57,0.38,0.95,-11,-1,-18,0.69,10997,99,92,41,84,1135,579.0,646,458,60,122.0,419,1,443,553,239,0,0,600,243,-768,573,-5.59,,,,,,,,,,,,
351984,1564237744340,2,2.28,0.97,0.34,1.33,0.98,0.48,0.26,0.78,-10,-1,-19,0.55,11160,99,92,41,84,1075,585.0,648,459,60,122.0,419,1,442,549,239,0,0,603,-25872,-13043,577,-5.59,,,,,,,,,,,,
352004,1564237744360,2,2.27,0.98,0.34,1.32,0.98,0.5,0.33,0.9,-9,-1,-18,0.61,11391,99,92,41,84,1056,588.0,651,461,60,123.0,419,1,441,549,239,0,0,614,208,-30139,582,-5.59,,,,,,,,,,,,
352024,1564237744380,-0,2.28,0.97,0.34,1.33,0.98,0.54,0.3,0.84,-9,-1,-17,0.62,11609,99,92,41,83,1025,595.0,660,460,60,122.0,419,1,440,534,239,0,0,615,-16179,28675,588,-5.59,,,,,,,,,,,,
352044,1564237744402,4,2.29,0.97,0.34,1.33,0.99,0.53,0.43,0.79,-9,-3,-15,0.68,11777,99,92,41,83,1006,597.0,659,461,60,121.0,402,1,440,538,238,0,0,621,4956,-14655,593,-5.59,44.680382,10.016744,56.33,179.3,0,0.0,-1,0.0,0.0,0,2.18,5.8674
352064,1564237744422,4,2.3,0.98,0.34,1.34,0.98,0.44,0.5,0.79,-8,-2,-13,0.66,11889,90,92,41,83,990,603.0,658,455,60,120.0,402,1,440,541,238,0,0,632,-7939,966,597,-5.59,,,,,,,,,,,,
352084,1564237744442,7,2.31,0.98,0.34,1.34,0.98,0.39,0.54,0.83,-7,-1,-12,0.66,11927,72,92,41,80,989,607.0,662,461,60,121.0,402,1,440,514,238,0,0,636,19621,-2580,599,-5.59,,,,,,,,,,,,
352104,1564237744462,6,2.33,0.98,0.33,1.34,0.98,0.31,0.46,0.94,-6,-1,-11,0.55,11837,54,92,41,72,973,610.0,658,457,60,121.0,402,1,440,464,238,0,0,633,1010,3395,603,-5.59,,,,,,,,,,,,
352124,1564237744482,6,2.34,0.97,0.35,1.33,0.99,0.28,0.21,1.05,-6,-1,-10,0.35,11624,36,92,40,64,956,611.0,658,463,60,120.0,402,1,440,415,238,0,0,635,1010,20993,608,-5.59,,,,,,,,,,,,
352144,1564237744502,10,2.33,0.98,0.34,1.34,0.98,0.28,-0.01,0.89,-5,-2,-10,0.28,11234,20,92,40,54,927,614.0,645,462,60,122.0,265,1,400,329,162,0,0,628,28675,3395,610,-5.59,44.68037,10.016748,58.71,179.3,0,0.0,-1,0.0,0.0,0,2.18,5.8691
352164,1564237744522,11,2.35,0.98,0.34,1.33,0.99,0.45,-0.03,1.0,-3,-2,-9,0.45,10838,9,92,40,46,911,609.0,638,466,60,122.0,265,1,372,243,162,0,0,617,-30139,30721,608,-5.59,,,,,,,,,,,,
352184,1564237744542,15,2.36,0.98,0.33,1.34,0.99,0.56,0.11,0.92,-1,-4,-7,0.57,10545,6,92,40,41,884,602.0,636,464,60,122.0,265,1,335,221,162,0,0,596,-768,-3446,602,-5.59,,,,,,,,,,,,
352204,1564237744562,18,2.36,0.97,0.34,1.34,0.99,0.63,0.23,0.73,0,-7,-5,0.67,10307,5,92,40,38,840,601.0,632,470,60,122.0,265,1,317,213,162,0,0,583,23619,-16179,602,-5.59,,,,,,,,,,,,
352224,1564237744582,20,2.37,0.98,0.34,1.33,0.99,0.69,0.15,0.68,1,-9,-4,0.7,10140,5,92,40,35,818,599.0,628,462,60,122.0,265,1,308,209,162,0,0,547,17344,6273,598,-5.59,,,,,,,,,,,,
352244,1564237744600,23,2.37,0.98,0.34,1.33,1.0,0.66,-0.03,0.67,2,-7,-4,0.67,9994,5,92,40,34,802,599.0,629,469,60,122.0,131,1,305,205,79,0,0,493,-13043,-32504,599,-5.59,44.680351,10.016752,61.18,179.2,0,0.0,-1,0.0,0.0,0,2.18,5.8707
352264,1564237744620,20,2.38,0.98,0.34,1.34,1.0,0.69,0.06,0.57,2,-4,-3,0.69,9760,0,92,40,33,797,597.0,631,466,60,122.0,131,1,302,201,79,0,0,434,3472,-32504,597,-5.59,,,,,,,,,,,,
352284,1564237744640,22,2.38,0.98,0.34,1.34,0.99,0.7,-0.07,0.61,3,-5,-2,0.71,9585,0,92,40,31,800,596.0,633,463,60,122.0,131,1,295,194,79,0,0,372,-28648,4956,596,-5.59,,,,,,,,,,,,
352304,1564237744660,22,2.37,0.98,0.34,1.34,0.99,0.84,-0.06,0.52,3,-2,-2,0.84,9412,0,92,40,30,808,594.0,629,468,60,123.0,131,1,291,190,79,0,0,363,-12040,-12040,593,-5.59,,,,,,,,,,,,
352324,1564237744680,17,2.37,0.98,0.33,1.34,0.98,0.95,0.0,0.48,4,-3,-1,0.95,9231,6,92,40,29,824,588.0,623,463,60,122.0,131,1,287,187,79,0,0,438,243,15649,588,-5.59,,,,,,,,,,,,
352344,1564237744700,14,2.37,0.98,0.33,1.34,0.99,0.88,0.08,0.44,5,-1,0,0.89,9036,4,92,40,28,834,584.0,620,461,60,122.0,107,1,282,185,63,0,0,499,-29984,10432,580,-5.59,44.68034,10.016756,59.74,179.2,0,0.0,-1,0.0,0.0,0,2.18,5.8724
352364,1564237744720,15,2.38,0.98,0.34,1.34,0.98,0.93,0.08,0.4,7,-0,0,0.93,8869,0,92,40,27,838,579.0,628,463,60,122.0,107,1,278,185,63,0,0,545,1780,-16384,579,-5.59,,,,,,,,,,,,
352384,1564237744740,17,2.38,0.98,0.33,1.34,0.99,0.95,0.09,0.34,7,-1,2,0.95,8753,0,92,40,26,841,571.0,615,468,60,123.0,107,1,274,185,63,0,0,507,-23623,-28648,570,-5.59,,,,,,,,,,,,
352404,1564237744760,17,2.39,0.98,0.33,1.34,0.98,0.99,0.13,0.36,7,-2,4,0.99,8827,5,92,40,25,829,563.0,630,463,60,122.0,107,1,270,185,63,0,0,488,-22263,2524,562,-5.59,,,,,,,,,,,,
352424,1564237744780,16,2.39,0.98,0.33,1.34,0.98,1.04,0.15,0.44,7,-1,3,1.05,8831,5,92,40,25,812,560.0,620,469,60,123.0,107,1,270,185,63,0,0,425,-9072,11560,560,-5.59,,,,,,,,,,,,
352444,1564237744802,15,2.4,0.98,0.34,1.34,0.99,1.13,0.05,0.44,7,-3,3,1.14,8773,0,92,40,24,795,557.0,622,465,60,122.0,111,1,270,178,62,0,0,385,-8962,998,557,-5.59,44.680325,10.016759,57.64,179.2,0,0.0,-1,0.0,0.0,0,2.18,5.8741
352464,1564237744822,15,2.41,0.98,0.34,1.35,0.99,1.08,-0.09,0.37,8,-1,4,1.09,8577,0,92,40,24,772,552.0,621,462,60,122.0,111,1,270,178,62,0,0,364,-8186,2104,552,-5.59,,,,,,,,,,,,
352484,1564237744842,16,2.42,0.98,0.34,1.34,0.98,1.02,-0.16,0.29,9,-1,4,1.03,8442,0,92,40,25,762,552.0,623,465,60,123.0,111,1,270,181,62,0,0,340,-30064,-9072,552,-5.59,,,,,,,,,,,,
352504,1564237744862,12,2.43,0.98,0.34,1.34,0.99,1.12,-0.2,0.3,10,-2,5,1.14,8238,4,92,40,25,752,550.0,605,466,60,123.0,111,1,270,170,62,0,0,329,-22519,2524,550,-5.59,,,,,,,,,,,,
352524,1564237744882,14,2.42,0.98,0.34,1.34,0.99,1.06,-0.22,0.25,11,-0,6,1.09,8029,6,92,40,25,754,545.0,586,466,60,123.0,111,1,270,157,62,0,0,332,2088,-8962,545,-5.59,,,,,,,,,,,,
352544,1564237744902,13,2.42,0.98,0.34,1.35,0.99,1.12,-0.26,0.19,11,-1,8,1.15,7825,5,92,40,25,756,542.0,514,461,60,122.0,86,1,268,156,47,0,0,343,16383,-28648,542,-5.59,44.680309,10.016762,55.17,179.2,0,0.0,-1,0.0,0.0,0,2.18,5.8757
352564,1564237744922,12,2.43,0.98,0.34,1.35,0.99,1.18,-0.32,0.15,11,-2,9,1.22,7760,5,92,40,25,769,533.0,482,467,60,123.0,86,1,267,157,47,0,0,329,17136,1248,532,-5.59,,,,,,,,,,,,
352584,1564237744942,14,2.44,0.98,0.34,1.34,0.99,1.25,-0.27,0.17,12,-2,8,1.28,7678,5,92,40,25,779,526.0,483,465,60,122.0,86,1,266,156,47,0,0,278,-28648,2524,526,-5.59,,,,,,,,,,,,
352604,1564237744962,12,2.44,0.99,0.34,1.34,1.0,1.26,-0.36,0.28,12,-3,9,1.31,7575,5,92,40,25,813,527.0,423,467,60,123.0,86,1,265,156,47,0,0,224,6274,6274,527,-5.59,,,,,,,,,,,,
352624,1564237744982,11,2.44,0.99,0.34,1.34,0.99,1.27,-0.47,0.4,12,-4,11,1.35,7373,6,92,40,25,835,524.0,418,465,60,122.0,86,1,263,156,47,0,0,193,6274,-28648,524,-5.59,,,,,,,,,,,,
352644,1564237744994,11,2.44,0.98,0.34,1.34,1.0,1.33,-0.5,0.5,12,-4,12,1.42,7217,6,92,40,25,858,526.0,373,465,60,123.0,81,1,262,156,43,0,0,161,2109,10408,526,-5.59,44.680298,10.016765,53.24,179.2,0,0.0,-1,0.0,0.0,0,2.19,5.8774
352664,1564237745014,14,2.43,0.99,0.34,1.35,0.99,1.32,-0.52,0.57,13,-6,12,1.42,7004,5,92,40,26,874,520.0,385,468,60,121.0,81,1,264,157,43,0,0,121,-22519,-9212,520,-5.59,,,,,,,,,,,,
352684,1564237745034,11,2.43,0.99,0.34,1.35,0.99,1.27,-0.51,0.49,14,-2,11,1.37,6691,5,93,40,26,892,519.0,379,463,60,123.0,81,1,267,157,43,0,0,109,998,2088,519,-5.59,,,,,,,,,,,,
352704,1564237745054,12,2.43,0.99,0.34,1.34,0.99,1.27,-0.6,0.39,14,-2,13,1.41,6345,5,92,40,27,921,517.0,373,468,60,122.0,81,1,273,158,43,0,0,296,-6528,15679,517,-5.59,,,,,,,,,,,,
352724,1564237745074,12,2.43,0.98,0.34,1.35,0.99,1.14,-0.66,0.36,16,-1,16,1.32,6175,5,92,40,28,930,512.0,388,463,60,122.0,81,1,278,160,43,0,0,344,1,-14,512,-5.59,,,,,,,,,,,,
352744,1564237745101,12,2.44,0.98,0.34,1.35,0.99,1.01,-0.55,0.3,17,4,16,1.15,6097,4,92,40,29,935,504.0,387,465,60,122.0,72,1,281,85,37,0,0,347,3580,11560,504,-5.59,44.680286,10.016767,51.07,179.2,0,0.0,-1,0.0,0.0,0,2.19,5.8791
352764,1564237745121,13,2.43,0.98,0.34,1.35,0.99,0.9,-0.48,0.34,17,6,15,1.02,6071,5,92,40,29,945,498.0,389,464,60,122.0,72,1,281,161,37,0,0,269,8488,32033,495,-5.59,,,,,,,,,,,,
352784,1564237745141,14,2.44,0.98,0.34,1.33,0.99,0.77,-0.47,0.34,16,4,15,0.91,6237,5,92,40,30,961,497.0,401,464,60,123.0,72,1,283,163,37,0,0,243,3576,-10483,496,-5.59,,,,,,,,,,,,
352804,1564237745161,13,2.46,0.98,0.34,1.35,0.98,0.84,-0.49,0.3,15,3,15,0.97,6287,5,92,40,30,968,485.0,416,463,60,123.0,72,1,283,164,37,0,0,201,32033,-9203,485,-5.59,,,,,,,,,,,,
352824,1564237745181,10,2.47,0.98,0.34,1.35,0.98,0.96,-0.5,0.22,16,2,16,1.08,6192,5,92,40,31,974,493.0,427,467,60,124.0,72,1,287,164,37,0,0,137,-1923,1,493,-5.59,,,,,,,,,,,,
352844,1564237745201,13,2.48,0.98,0.34,1.35,0.99,1.06,-0.44,0.28,17,-1,16,1.15,6040,5,92,40,32,982,489.0,432,463,60,123.0,77,1,290,166,38,0,0,137,-3210,1,489,-5.59,44.680271,10.016767,49.42,179.1,0,0.0,-1,0.0,0.0,0,2.19,5.8807
352864,1564237745221,12,2.5,0.99,0.34,1.34,1.0,1.16,-0.48,0.3,18,-5,18,1.26,5864,0,92,40,33,992,490.0,420,463,60,123.0,77,1,285,93,38,0,0,137,6193,-6656,492,-5.59,,,,,,,,,,,,
352884,1564237745241,13,2.49,0.99,0.34,1.34,0.99,1.25,-0.5,0.28,19,-3,19,1.34,5555,0,93,40,34,999,489.0,402,461,60,122.0,77,1,271,173,38,0,0,39,17628,-32768,489,-5.59,,,,,,,,,,,,
352904,1564237745261,12,2.49,0.99,0.34,1.35,1.0,1.14,-0.55,0.29,20,2,20,1.27,5219,5,92,40,36,1004,484.0,388,466,60,123.0,77,1,257,182,38,0,0,110,-6387,-10483,484,-5.59,,,,,,,,,,,,
352924,1564237745281,12,2.49,0.98,0.34,1.34,1.0,1.23,-0.57,0.3,20,-3,21,1.35,5025,6,92,40,37,978,481.0,383,464,60,121.0,77,1,248,193,38,0,0,173,21432,8488,481,-5.59,,,,,,,,,,,,
352944,1564237745301,9,2.48,0.98,0.35,1.34,0.99,1.19,-0.6,0.26,20,-0,23,1.34,4921,6,93,40,39,950,474.0,362,461,60,124.0,77,1,242,197,37,0,0,187,19477,10305,475,-5.59,44.68026,10.016767,47.56,179.1,0,0.0,-1,0.0,0.0,0,2.19,5.8824
352964,1564237745321,6,2.49,0.98,0.34,1.34,0.99,1.27,-0.63,0.23,20,1,23,1.42,4847,5,93,40,41,912,469.0,345,460,60,124.0,77,1,240,198,37,0,0,227,243,-26615,469,-5.59,,,,,,,,,,,,
352984,1564237745341,2,2.48,0.98,0.34,1.34,0.99,1.32,-0.67,0.34,20,-5,25,1.48,4885,5,92,40,42,861,457.0,351,465,60,122.0,77,1,245,200,37,0,0,197,243,2524,457,-5.59,,,,,,,,,,,,
353004,1564237745361,2,2.47,0.98,0.34,1.34,0.99,1.35,-0.68,0.27,19,-6,24,1.51,5037,6,92,40,43,832,461.0,353,461,60,122.0,77,1,262,206,37,0,0,161,-7939,20625,461,-5.59,,,,,,,,,,,,
353024,1564237745381,1,2.45,0.98,0.34,1.35,0.99,1.2,-0.68,0.24,18,-1,26,1.38,5115,4,93,40,45,793,459.0,352,464,60,123.0,77,1,274,208,37,0,0,118,-768,23400,459,-5.59,,,,,,,,,,,,
353044,1564237745401,2,2.43,0.98,0.33,1.34,0.99,1.25,-0.69,0.34,17,-3,27,1.43,5108,5,92,40,45,764,458.0,360,464,60,120.0,87,1,273,210,40,0,0,118,-7939,-26615,458,-5.59,44.680248,10.016766,46.13,179.2,0,0.0,-1,0.0,0.0,0,2.19,5.8841
353064,1564237745421,-0,2.41,0.98,0.34,1.35,0.99,1.16,-0.66,0.28,17,-1,28,1.33,5033,6,93,40,45,766,458.0,361,464,60,124.0,87,1,266,210,40,0,0,61,-3322,2524,458,-5.59,,,,,,,,,,,,
353084,1564237745441,-0,2.4,0.98,0.34,1.34,0.99,1.1,-0.62,0.35,17,-0,26,1.26,4942,5,93,40,46,774,454.0,362,464,60,123.0,87,1,260,210,40,0,0,106,3635,-26615,454,-5.59,,,,,,,,,,,,
353104,1564237745461,0,2.39,0.98,0.33,1.35,0.98,1.19,-0.63,0.27,17,-1,24,1.35,4993,4,92,40,46,786,446.0,364,462,60,122.0,87,1,266,211,40,0,0,186,-3856,-3414,446,-5.59,,,,,,,,,,,,
353124,1564237745481,-0,2.38,0.98,0.33,1.34,0.98,1.15,-0.54,0.18,16,-1,25,1.27,5099,5,93,40,47,797,439.0,363,460,60,123.0,87,1,278,214,40,0,0,217,-4082,19477,439,-5.59,,,,,,,,,,,,
353144,1564237745501,-0,2.39,0.97,0.34,1.34,0.99,1.13,-0.48,0.17,15,-2,25,1.23,5233,6,93,40,47,807,436.0,367,465,60,122.0,95,1,290,217,42,0,0,246,-3414,-4059,434,-5.59,44.680237,10.016764,44.17,179.2,0,0.0,-1,0.0,0.0,0,2.19,5.8857
353164,1564237745521,-0,2.38,0.98,0.34,1.34,0.99,1.15,-0.41,0.06,14,-0,25,1.22,5337,11,93,40,47,811,429.0,374,462,60,122.0,95,1,300,214,42,0,0,246,7154,-21944,429,-5.59,,,,,,,,,,,,
353184,1564237745541,2,2.38,0.98,0.33,1.34,0.99,1.14,-0.41,0.15,13,-1,22,1.21,5524,17,92,40,49,809,427.0,380,465,60,121.0,95,1,324,222,42,0,0,312,-26615,28696,427,-5.59,,,,,,,,,,,,
353204,1564237745561,0,2.38,0.98,0.33,1.33,0.99,1.01,-0.46,0.14,13,1,21,1.11,5733,31,93,40,53,803,423.0,384,464,60,123.0,95,1,357,241,42,0,0,351,13040,17144,421,-5.59,,,,,,,,,,,,
353224,1564237745581,0,2.37,0.98,0.34,1.33,0.99,0.91,-0.55,0.12,12,2,21,1.07,5984,39,93,40,59,790,419.0,394,466,60,121.0,95,1,384,247,42,0,0,385,10392,1,419,-5.59,,,,,,,,,,,,
353244,1564237745601,2,2.33,0.98,0.33,1.34,0.98,0.88,-0.54,0.17,12,3,20,1.03,6456,15,92,40,66,780,416.0,411,464,60,122.0,147,1,381,339,62,0,0,392,-9211,6384,416,-5.59,44.680229,10.016762,42.73,179.2,0,0.0,-1,0.0,0.0,0,2.19,5.8874
353264,1564237745621,-0,2.32,0.98,0.33,1.34,0.98,0.9,-0.4,0.18,11,2,19,0.99,6808,60,93,40,73,776,413.0,433,463,60,123.0,147,1,379,447,62,0,0,397,-9211,-32702,413,-5.59,,,,,,,,,,,,
353284,1564237745641,-0,2.29,0.98,0.33,1.33,0.98,0.93,-0.48,0.25,10,0,17,1.04,7104,64,93,40,79,773,408.0,461,460,60,123.0,147,1,386,518,62,0,0,397,10541,-3866,408,-5.59,,,,,,,,,,,,
353304,1564237745661,-1,2.28,0.97,0.33,1.32,0.97,1.04,-0.38,0.23,8,-0,16,1.1,7512,67,92,40,82,779,404.0,483,462,60,120.0,147,1,409,536,62,0,0,390,10541,-6524,404,-5.59,,,,,,,,,,,,
353324,1564237745681,0,2.26,0.97,0.33,1.32,0.98,1.08,-0.31,0.27,5,-0,14,1.12,7958,67,92,40,82,787,400.0,507,464,60,120.0,147,1,435,540,62,0,0,397,6512,505,399,-5.59,,,,,,,,,,,,
353344,1564237745702,2,2.24,0.97,0.33,1.31,0.98,0.96,-0.25,0.2,4,2,13,1.0,8411,65,93,40,80,811,404.0,532,461,60,122.0,425,1,429,431,169,0,0,404,1504,28696,398,-5.59,44.680218,10.016759,40.57,179.2,0,0.0,-1,0.0,0.0,0,2.19,5.8891
353364,1564237745722,3,2.21,0.97,0.33,1.31,0.98,1.05,-0.11,0.21,3,3,12,1.06,9018,24,92,40,74,835,403.0,575,468,60,122.0,425,1,413,435,169,0,0,405,1504,28696,397,-5.59,,,,,,,,,,,,
353384,1564237745742,-0,2.19,0.96,0.32,1.3,0.97,0.92,0.1,0.16,2,8,10,0.93,9488,0,92,40,66,855,406.0,605,466,60,121.0,425,1,414,366,169,0,0,412,2524,2524,394,-5.59,,,,,,,,,,,,
353404,1564237745762,1,2.16,0.97,0.33,1.3,0.97,0.79,0.24,0.24,-0,7,7,0.83,9356,0,92,40,58,867,412.0,631,468,60,122.0,425,1,404,329,169,0,0,447,13040,15649,395,-5.59,,,,,,,,,,,,
353424,1564237745782,1,2.15,0.97,0.32,1.31,0.98,0.69,0.14,0.42,-3,11,3,0.71,8928,0,92,40,51,913,422.0,627,466,60,123.0,425,1,386,271,169,0,0,484,-3414,-8186,400,-5.59,,,,,,,,,,,,
353444,1564237745801,0,2.12,0.97,0.33,1.32,0.98,0.62,0.12,0.57,-5,12,0,0.63,8596,0,92,40,46,973,428.0,617,461,60,122.0,197,1,363,222,79,0,0,456,-3314,-23623,402,-5.59,44.68021,10.016756,39.14,179.2,0,0.0,-1,0.0,0.0,0,2.2,5.8907
353464,1564237745821,2,2.09,0.97,0.33,1.32,0.97,0.59,0.29,0.63,-6,11,-1,0.66,8184,12,93,40,42,1004,431.0,595,464,60,123.0,197,1,334,234,79,0,0,453,1779,-28332,402,-5.59,,,,,,,,,,,,
353484,1564237745841,-1,2.07,0.97,0.33,1.31,0.98,0.49,0.36,0.61,-7,10,-2,0.61,7958,10,93,40,40,1028,437.0,575,462,60,122.0,197,1,317,226,79,0,0,451,19477,19477,407,181.28,,,,,,,,,,,,
353504,1564237745861,3,2.04,0.97,0.33,1.31,0.97,0.44,0.53,0.43,-7,9,-3,0.68,7275,9,93,40,39,1057,432.0,554,463,60,121.0,197,1,310,220,79,0,0,441,-3322,3635,407,-5.59,,,,,,,,,,,,
353524,1564237745881,2,2.02,0.96,0.32,1.3,0.97,0.4,0.66,0.3,-8,8,-4,0.77,7214,8,93,40,38,1079,429.0,537,464,60,123.0,197,1,307,205,79,0,0,433,3635,13040,404,-5.59,,,,,,,,,,,,
353544,1564237745901,1,2.01,0.95,0.32,1.31,0.96,0.48,0.7,0.32,-9,5,-7,0.85,7170,7,93,40,37,1070,425.0,530,467,60,124.0,136,1,304,202,55,0,0,432,-3856,6512,403,-5.59,44.680199,10.016754,40.45,179.2,0,0.0,-1,0.0,0.0,0,2.2,5.8924
353564,1564237745921,-0,2.03,0.96,0.32,1.3,0.95,0.46,0.57,0.43,-11,2,-10,0.73,7121,1,93,40,36,1060,431.0,530,466,60,123.0,136,1,301,193,55,0,0,431,1779,28696,403,-5.59,,,,,,,,,,,,
353584,1564237745941,3,2.03,0.96,0.32,1.3,0.96,0.54,0.61,0.36,-13,1,-12,0.82,7038,8,93,40,36,1050,436.0,524,464,60,122.0,136,1,301,190,55,0,0,434,5600,-32702,401,-5.59,,,,,,,,,,,,
353604,1564237745961,4,2.03,0.96,0.32,1.31,0.96,0.5,0.73,0.23,-15,2,-13,0.89,7017,9,93,40,35,1040,437.0,523,465,60,124.0,136,1,298,183,55,0,0,435,19477,-6475,398,-5.59,,,,,,,,,,,,
353624,1564237745981,2,2.03,0.96,0.31,1.31,0.96,0.62,0.77,0.25,-17,0,-16,0.99,7038,0,93,40,35,1037,441.0,516,466,60,122.0,136,1,298,178,55,0,0,431,26704,257,398,-5.59,,,,,,,,,,,,
353644,1564237745995,4,2.03,0.96,0.32,1.31,0.96,0.71,0.81,0.3,-20,0,-19,1.08,7189,0,93,40,34,1039,439.0,516,464,60,122.0,118,1,295,176,47,0,0,425,-28332,2811,395,-5.59,44.680187,10.016752,42.13,179.3,0,0.0,-1,0.0,0.0,0,2.2,5.8941
353664,1564237746015,2,2.02,0.96,0.32,1.3,0.96,0.68,0.93,0.24,-21,0,-22,1.15,7307,7,93,40,34,1033,438.0,520,466,60,124.0,118,1,295,176,47,0,0,427,21580,6870,392,-5.59,,,,,,,,,,,,
353684,1564237746035,1,2.01,0.95,0.32,1.3,0.97,0.7,0.9,0.21,-23,-1,-25,1.15,7419,9,93,40,33,1029,435.0,525,465,60,123.0,118,1,292,171,47,0,0,427,5600,-29978,388,-5.59,,,,,,,,,,,,
353704,1564237746055,2,2.0,0.96,0.32,1.31,0.97,0.74,1.01,0.13,-24,-1,-26,1.25,7476,9,93,40,33,1020,431.0,536,465,60,123.0,118,1,292,166,47,0,0,427,1779,-14707,385,-5.59,,,,,,,,,,,,
353724,1564237746075,2,2.01,0.96,0.32,1.31,0.96,0.62,1.11,-0.03,-25,1,-27,1.28,7521,9,93,40,32,1013,432.0,531,461,60,123.0,118,1,290,166,47,0,0,425,-3322,-1268,382,-5.59,,,,,,,,,,,,
353744,1564237746102,1,2.02,0.95,0.32,1.31,0.97,0.62,1.2,-0.07,-26,3,-30,1.35,7464,9,93,40,32,987,428.0,529,462,60,124.0,122,1,290,164,47,0,0,427,-3322,-6405,381,-5.59,44.680176,10.016751,40.21,179.3,0,0.0,-1,0.0,0.0,0,2.2,5.8957
353764,1564237746122,1,2.04,0.96,0.32,1.31,0.96,0.6,1.27,-0.09,-26,2,-34,1.4,7458,4,93,40,31,962,428.0,530,464,60,124.0,122,1,286,161,47,0,0,428,13180,-6405,381,-5.59,,,,,,,,,,,,
353784,1564237746142,1,2.06,0.96,0.32,1.3,0.97,0.58,1.27,-0.07,-26,2,-36,1.4,7347,9,93,40,31,925,426.0,535,453,60,124.0,122,1,286,164,47,0,0,423,13552,-6656,379,-5.59,,,,,,,,,,,,
353804,1564237746162,1,2.07,0.97,0.32,1.31,0.96,0.54,1.32,-0.11,-26,4,-36,1.43,7332,9,93,40,31,905,423.0,530,460,60,124.0,122,1,286,88,47,0,0,420,3826,770,379,-5.59,,,,,,,,,,,,
353824,1564237746182,-2,2.08,0.96,0.32,1.31,0.97,0.63,1.27,-0.1,-26,3,-35,1.42,7290,9,93,40,31,879,420.0,529,455,60,125.0,122,1,286,164,47,0,0,416,7154,-6656,378,-5.59,,,,,,,,,,,,
353844,1564237746200,-0,2.08,0.96,0.32,1.31,0.97,0.66,1.13,0.05,-26,2,-36,1.31,7301,5,93,40,30,845,415.0,529,447,60,124.0,119,1,282,164,45,0,0,410,-26615,257,379,-5.59,44.680168,10.016751,39.34,179.3,0,0.0,-1,0.0,0.0,0,2.2,5.8974
353864,1564237746220,-0,2.08,0.97,0.32,1.32,0.96,0.78,1.01,0.16,-27,-0,-37,1.27,7267,17,93,40,32,832,412.0,531,451,60,123.0,119,1,290,182,45,0,0,406,13040,0,377,-5.59,,,,,,,,,,,,
353884,1564237746240,2,2.08,0.97,0.32,1.31,0.97,0.79,1.02,0.11,-27,-0,-36,1.29,7312,34,93,40,36,831,409.0,533,453,60,124.0,119,1,301,112,45,0,0,404,11560,486,376,-5.59,,,,,,,,,,,,
353904,1564237746260,3,2.06,0.97,0.32,1.31,0.97,0.66,1.02,0.08,-27,2,-36,1.21,7367,48,93,40,45,830,409.0,535,453,60,123.0,119,1,355,236,45,0,0,406,11560,742,376,-5.59,,,,,,,,,,,,
353924,1564237746280,1,2.05,0.96,0.32,1.31,0.97,0.59,1.12,0.03,-27,2,-35,1.26,7364,66,93,40,57,828,407.0,536,459,60,124.0,119,1,408,303,45,0,0,407,10392,0,375,-5.59,,,,,,,,,,,,
353944,1564237746300,2,2.02,0.96,0.32,1.31,0.96,0.51,1.21,-0.01,-26,3,-36,1.31,7413,82,93,40,73,825,410.0,538,447,60,123.0,266,1,408,459,100,0,0,407,9517,257,373,-5.59,44.680157,10.016754,38.28,179.3,0,0.0,-1,0.0,0.0,0,2.2,5.8991
353964,1564237746320,2,2.02,0.96,0.32,1.31,0.96,0.48,1.19,-0.01,-26,4,-36,1.29,7341,93,93,40,86,824,410.0,537,442,60,123.0,266,1,398,586,100,0,0,410,9517,0,371,-5.59,,,,,,,,,,,,
353984,1564237746340,0,2.03,0.96,0.32,1.31,0.96,0.55,1.25,-0.0,-27,3,-35,1.36,7338,98,93,40,91,823,410.0,537,432,60,123.0,266,1,398,611,100,0,0,406,9517,486,368,-5.59,,,,,,,,,,,,
354004,1564237746360,1,2.03,0.96,0.33,1.31,0.96,0.67,1.25,0.02,-28,3,-35,1.42,7458,97,93,40,92,825,409.0,527,441,60,123.0,266,1,406,602,100,0,0,407,11560,0,369,-5.59,,,,,,,,,,,,
354024,1564237746380,1,2.03,0.96,0.32,1.3,0.97,0.7,1.29,0.11,-28,2,-37,1.47,7776,96,93,40,92,826,409.0,532,431,60,124.0,266,1,430,608,100,0,0,404,11560,230,368,-5.59,,,,,,,,,,,,
354044,1564237746400,1,2.04,0.96,0.32,1.3,0.97,0.6,1.32,0.1,-28,3,-37,1.45,8396,95,93,40,91,829,409.0,550,411,60,122.0,504,1,438,655,185,0,0,407,10392,230,367,-5.59,44.680149,10.016757,38.2,179.3,0,0.0,-1,0.0,0.0,0,2.2,5.9007
354064,1564237746420,0,2.05,0.96,0.31,1.31,0.97,0.54,1.39,0.15,-27,2,-34,1.49,9062,91,93,40,88,874,407.0,575,397,60,123.0,504,1,418,579,185,0,0,410,2524,1,366,-5.59,,,,,,,,,,,,
354084,1564237746440,2,2.04,0.96,0.32,1.3,0.96,0.48,1.44,0.18,-27,4,-36,1.51,9177,86,93,40,86,979,409.0,607,392,60,120.0,504,1,418,671,185,0,0,431,11560,-16384,370,-5.59,,,,,,,,,,,,
354104,1564237746460,1,2.04,0.96,0.32,1.31,0.96,0.45,1.45,0.23,-27,5,-37,1.51,9177,64,93,40,88,1081,419.0,601,430,60,122.0,504,1,418,579,185,0,0,454,7154,-32248,374,-5.59,,,,,,,,,,,,
354124,1564237746480,1,2.04,0.96,0.32,1.31,0.97,0.32,1.37,0.25,-28,8,-36,1.41,7868,46,93,40,91,1156,424.0,583,433,60,122.0,504,1,438,648,185,0,0,427,-4082,-3314,374,-5.59,,,,,,,,,,,,
354144,1564237746502,-2,2.05,0.96,0.32,1.31,0.97,0.39,1.33,0.25,-29,5,-36,1.39,7533,54,93,40,92,1273,420.0,561,411,60,122.0,413,1,411,633,156,0,0,422,-8165,-31744,378,-5.59,44.680141,10.016761,37.57,179.4,0,0.0,-1,0.0,0.0,0,2.2,5.9024
354164,1564237746522,-1,2.04,0.96,0.33,1.31,0.96,0.4,1.17,0.41,-30,4,-37,1.24,7408,7,93,40,92,1323,418.0,546,419,60,122.0,413,1,402,536,156,0,0,419,18584,6384,378,-5.59,,,,,,,,,,,,
354184,1564237746542,1,2.04,0.96,0.32,1.3,0.97,0.47,1.09,0.36,-30,5,-37,1.19,7643,0,93,40,92,1389,416.0,533,424,60,122.0,413,1,420,486,156,0,0,416,18584,-3968,377,-5.59,,,,,,,,,,,,
354204,1564237746562,1,2.02,0.95,0.32,1.31,0.96,0.62,0.94,0.52,-31,2,-37,1.13,7841,98,93,40,92,1353,415.0,541,396,60,123.0,413,1,435,650,156,0,0,417,-26615,-4059,380,-5.59,,,,,,,,,,,,
354224,1564237746582,3,2.01,0.96,0.32,1.3,0.96,0.72,0.97,0.61,-30,0,-36,1.21,8102,87,93,40,91,1327,416.0,553,373,60,124.0,413,1,447,558,156,0,0,415,18584,21580,381,-5.59,,,,,,,,,,,,
354244,1564237746600,-0,2.02,0.95,0.32,1.31,0.96,0.67,0.86,0.54,-31,0,-37,1.09,8600,99,93,40,90,1332,419.0,558,343,60,122.0,577,1,433,700,221,0,0,432,7154,14488,383,-5.59,44.68013,10.016767,38.72,179.4,0,0.0,-1,0.0,0.0,0,2.2,5.9041
354264,1564237746620,1,2.01,0.96,0.32,1.31,0.97,0.55,0.95,0.61,-31,1,-39,1.1,8954,56,93,40,87,1337,426.0,584,317,60,123.0,577,1,419,568,221,0,0,441,13552,6193,385,-5.59,,,,,,,,,,,,
354284,1564237746640,1,2.02,0.95,0.32,1.31,0.97,0.3,1.05,0.66,-31,5,-39,1.1,9031,0,93,40,87,1378,433.0,602,295,60,122.0,577,1,418,568,221,0,0,461,243,32033,388,-5.59,,,,,,,,,,,,
354304,1564237746660,0,2.01,0.95,0.32,1.31,0.97,0.16,1.15,0.77,-32,6,-40,1.16,8600,0,93,40,87,1414,442.0,603,299,60,122.0,577,1,430,584,221,0,0,464,20625,-9203,390,-5.59,,,,,,,,,,,,
354324,1564237746680,1,2.01,0.96,0.32,1.31,0.97,0.28,1.2,0.86,-32,6,-40,1.23,8285,83,93,40,87,1404,446.0,583,332,60,124.0,577,1,438,651,221,0,0,461,16648,23400,392,-5.59,,,,,,,,,,,,
354344,1564237746700,-1,2.0,0.95,0.33,1.31,0.97,0.17,1.28,0.78,-33,6,-40,1.29,8241,77,93,40,87,1396,446.0,572,346,60,123.0,508,1,439,632,201,0,0,459,16648,-3414,398,-5.59,44.680122,10.016773,39.13,179.4,0,0.0,-1,0.0,0.0,0,2.21,5.9057
354364,1564237746720,3,1.99,0.96,0.32,1.32,0.97,0.27,1.36,0.73,-33,5,-39,1.38,8378,77,93,40,85,1344,446.0,570,333,60,124.0,508,1,433,614,201,0,0,457,16648,243,400,-5.59,,,,,,,,,,,,
354384,1564237746740,0,1.99,0.95,0.32,1.31,0.96,0.31,1.16,0.79,-34,4,-40,1.2,8573,12,93,40,84,1306,446.0,583,308,60,124.0,508,1,428,640,201,0,0,461,16648,3580,399,-5.59,,,,,,,,,,,,
354404,1564237746760,-1,1.97,0.96,0.32,1.31,0.97,0.21,1.21,0.8,-33,3,-42,1.23,8786,80,93,40,83,1291,448.0,590,293,60,123.0,508,1,423,627,201,0,0,465,3571,8488,397,-5.59,,,,,,,,,,,,
354424,1564237746780,-1,1.95,0.95,0.33,1.3,0.97,0.02,1.29,0.67,-32,4,-41,1.29,8882,79,93,40,82,1288,451.0,603,282,60,124.0,508,1,420,597,201,0,0,474,3571,-23623,397,-5.59,,,,,,,,,,,,
354444,1564237746802,-0,1.94,0.95,0.32,1.31,0.96,0.05,1.36,0.66,-31,3,-41,1.36,8865,73,93,40,82,1325,453.0,615,263,60,123.0,480,1,420,583,192,0,0,475,-9160,-6528,406,-5.59,44.680115,10.016781,41.13,179.3,0,0.0,-1,0.0,0.0,0,2.21,5.9074
354464,1564237746822,2,1.93,0.96,0.33,1.31,0.96,0.1,1.38,0.62,-31,3,-40,1.38,8794,79,93,40,81,1372,461.0,611,277,60,123.0,480,1,420,555,192,0,0,478,2211,-6441,409,-5.59,,,,,,,,,,,,
354484,1564237746842,4,1.91,0.95,0.32,1.31,0.97,0.29,1.26,0.65,-32,0,-41,1.29,8790,57,93,40,81,1387,464.0,618,325,60,124.0,480,1,421,598,192,0,0,477,16408,3571,410,-5.59,,,,,,,,,,,,
354504,1564237746862,2,1.91,0.96,0.32,1.32,0.96,0.45,1.04,0.73,-33,-0,-42,1.13,8737,0,93,40,81,1408,463.0,602,367,60,123.0,480,1,422,512,192,0,0,477,6193,-1562,410,-5.59,,,,,,,,,,,,
354524,1564237746882,2,1.91,0.95,0.32,1.3,0.97,0.48,0.88,0.82,-34,-1,-44,1.0,9014,58,93,40,81,1391,464.0,615,376,60,124.0,480,1,416,594,192,0,0,476,16408,-1562,411,-5.59,,,,,,,,,,,,
354544,1564237746902,1,1.91,0.95,0.33,1.3,0.97,0.63,0.71,0.93,-36,-3,-46,0.95,9195,72,93,40,80,1361,467.0,615,400,60,123.0,501,1,416,512,207,0,0,481,30272,-899,415,-5.59,44.680107,10.01679,42.37,179.3,0,0.0,-1,0.0,0.0,0,2.21,5.9091
354564,1564237746922,3,1.92,0.95,0.32,1.3,0.96,0.74,0.55,1.04,-37,-3,-47,0.92,9384,27,93,40,80,1350,471.0,626,425,60,123.0,501,1,416,486,207,0,0,487,32033,26178,417,-5.59,,,,,,,,,,,,
354584,1564237746942,1,1.92,0.96,0.32,1.31,0.97,0.58,0.7,0.83,-36,-0,-45,0.9,9605,78,93,40,79,1342,476.0,628,436,60,122.0,501,1,412,565,207,0,0,500,-23367,6274,419,-5.59,,,,,,,,,,,,
354604,1564237746962,3,1.93,0.96,0.32,1.31,0.96,0.72,0.7,0.95,-37,-2,-47,1.01,9770,76,93,40,79,1351,477.0,634,442,60,123.0,501,1,406,559,207,0,0,505,10305,2524,420,-5.59,,,,,,,,,,,,
354624,1564237746982,2,1.94,0.95,0.32,1.31,0.96,0.59,0.83,0.85,-37,-2,-48,1.02,9837,73,93,40,78,1380,482.0,638,454,60,122.0,501,1,403,534,207,0,0,535,-899,2088,421,-5.59,,,,,,,,,,,,
354644,1564237746994,1,1.94,0.95,0.33,1.31,0.96,0.74,0.8,0.96,-37,-2,-50,1.09,9915,19,93,40,77,1376,488.0,636,457,60,123.0,416,1,400,418,175,0,0,530,1,17136,421,-5.59,44.6801,10.016802,43.76,179.2,0,0.0,-1,0.0,0.0,0,2.21,5.9107
354664,1564237747014,1,1.95,0.96,0.32,1.31,0.96,0.62,0.89,0.92,-37,-4,-50,1.09,9915,30,93,40,75,1349,490.0,635,460,60,121.0,416,1,399,533,175,0,0,531,-1818,-22519,422,-5.59,,,,,,,,,,,,
354684,1564237747034,1,1.95,0.95,0.32,1.31,0.97,0.42,1.01,0.85,-38,-1,-48,1.09,8765,43,93,40,75,1316,491.0,627,463,60,122.0,416,1,421,790,175,0,0,512,-32768,8488,421,-5.59,,,,,,,,,,,,
354704,1564237747054,2,1.94,0.95,0.31,1.3,0.97,0.46,1.11,0.74,-37,-0,-46,1.2,8419,60,93,40,75,1272,490.0,612,451,60,123.0,416,1,429,764,175,0,0,497,-1818,6193,421,-5.59,,,,,,,,,,,,
354724,1564237747074,0,1.95,0.95,0.32,1.31,0.96,0.59,0.96,0.86,-37,-5,-47,1.13,8526,62,93,40,74,1243,483.0,595,451,60,123.0,416,1,428,506,175,0,0,492,3580,243,421,-5.59,,,,,,,,,,,,
354744,1564237747101,2,1.95,0.95,0.32,1.31,0.96,0.69,0.91,0.94,-37,-5,-48,1.14,9031,53,93,40,73,1220,482.0,606,463,60,123.0,390,1,413,473,164,0,0,492,-899,-3210,420,-5.59,44.680092,10.016813,45.15,179.2,0,0.0,-1,0.0,0.0,0,2.21,5.9124
354764,1564237747121,1,1.96,0.96,0.32,1.3,0.97,0.82,0.67,1.05,-36,-7,-51,1.06,9522,65,93,40,70,1218,484.0,621,467,60,123.0,390,1,416,459,164,0,0,488,-10483,16648,424,-5.59,,,,,,,,,,,,
354784,1564237747141,2,1.98,0.95,0.32,1.3,0.97,0.79,0.77,0.99,-36,-7,-51,1.1,9952,65,93,40,69,1234,487.0,636,457,60,122.0,390,1,398,360,164,0,0,492,505,2088,436,-5.59,,,,,,,,,,,,
354804,1564237747161,1,2.01,0.95,0.31,1.3,0.96,0.68,0.89,0.84,-37,-7,-51,1.12,10190,45,93,40,67,1276,495.0,641,469,60,123.0,390,1,415,421,164,0,0,514,771,-25872,442,-5.59,,,,,,,,,,,,
354824,1564237747181,-0,2.03,0.96,0.32,1.31,0.97,0.8,0.81,0.96,-38,-5,-52,1.14,10405,23,93,40,66,1316,502.0,641,461,60,123.0,390,1,436,407,164,0,0,516,15661,8488,444,-5.59,,,,,,,,,,,,
354844,1564237747201,-1,2.04,0.95,0.31,1.3,0.96,0.83,0.86,1.06,-38,-4,-52,1.19,10605,0,93,40,66,1373,504.0,650,459,60,123.0,378,1,445,422,168,0,0,524,15661,-18032,444,-5.59,44.680088,10.016827,45.45,179.1,0,0.0,-1,0.0,0.0,0,2.21,5.9141
354864,1564237747221,1,2.04,0.96,0.32,1.31,0.97,0.74,0.87,1.01,-39,0,-53,1.14,10551,61,93,40,66,1405,504.0,660,462,60,123.0,378,1,445,485,168,0,0,534,2109,-28648,447,-5.59,,,,,,,,,,,,
354884,1564237747241,1,2.06,0.95,0.32,1.3,0.97,0.87,0.76,1.11,-40,1,-55,1.16,10551,0,93,40,67,1412,509.0,645,468,60,122.0,378,1,444,430,168,0,0,548,10994,6273,445,-5.59,,,,,,,,,,,,
354904,1564237747261,1,2.05,0.96,0.32,1.31,0.96,0.65,0.88,0.96,-40,1,-54,1.09,763,8,93,40,69,1368,513.0,641,467,60,122.0,378,1,118,442,168,0,0,539,-4054,6274,444,-5.59,,,,,,,,,,,,
354924,1564237747281,1,2.05,0.96,0.32,1.3,0.96,0.68,0.71,1.06,-40,1,-52,0.98,8975,34,93,40,70,1323,509.0,638,454,60,122.0,378,1,414,688,168,0,0,523,10994,8488,442,-5.59,,,,,,,,,,,,
354944,1564237747302,0,2.05,0.95,0.32,1.31,0.97,0.82,0.55,1.12,-39,2,-52,0.98,9106,37,93,40,71,1248,507.0,621,460,60,122.0,541,1,413,704,239,0,0,512,-21872,998,444,-5.59,44.68008,10.016841,45.74,179.1,0,0.0,-1,0.0,0.0,0,2.21,5.9157
354964,1564237747322,1,2.06,0.96,0.32,1.3,0.97,0.91,0.4,1.2,-38,-0,-51,0.99,9498,67,93,40,71,1173,502.0,623,467,60,122.0,541,1,415,694,239,0,0,503,15661,-8187,439,-5.59,,,,,,,,,,,,
354984,1564237747342,1,2.06,0.95,0.31,1.31,0.96,0.71,0.56,0.95,-35,0,-51,0.91,9873,69,93,40,71,1165,501.0,635,463,60,123.0,541,1,401,731,239,0,0,512,11560,-2934,440,-5.59,,,,,,,,,,,,
355004,1564237747362,-0,2.07,0.95,0.32,1.3,0.97,0.64,0.65,0.78,-34,-2,-51,0.92,10319,73,93,40,71,1172,502.0,650,465,60,123.0,541,1,423,731,239,0,0,513,15661,-32504,440,-5.59,,,,,,,,,,,,
355024,1564237747382,1,2.07,0.96,0.32,1.3,0.97,0.73,0.58,0.81,-32,-1,-52,0.93,10557,42,93,40,72,1241,507.0,647,465,60,122.0,541,1,439,826,239,0,0,534,-21872,15649,440,-5.59,,,,,,,,,,,,
355044,1564237747399,3,2.08,0.96,0.32,1.3,0.97,0.73,0.72,0.88,-32,-2,-54,1.02,10782,74,93,40,73,1291,512.0,651,468,60,121.0,765,1,441,848,342,0,0,556,16383,-4035,465,-5.59,44.680077,10.016856,47.75,179.0,0,0.0,-1,0.0,0.0,0,2.21,5.9174
355064,1564237747419,2,2.09,0.96,0.32,1.31,0.97,0.63,0.85,0.64,-33,0,-53,1.06,10732,59,93,40,73,1253,523.0,645,465,60,121.0,765,1,441,848,342,0,0,556,-22519,-22519,470,-5.59,,,,,,,,,,,,
355084,1564237747439,2,2.1,0.96,0.32,1.31,0.96,0.48,0.95,0.56,-35,3,-51,1.07,10370,69,93,40,74,1220,525.0,646,464,60,121.0,765,1,424,817,342,0,0,553,2088,2211,468,-5.59,,,,,,,,,,,,
355104,1564237747459,1,2.12,0.96,0.31,1.31,0.96,0.41,1.05,0.49,-36,7,-51,1.13,9899,20,93,40,75,1120,528.0,642,462,60,122.0,765,1,400,782,342,0,0,548,-28648,2211,473,-5.59,,,,,,,,,,,,
355124,1564237747479,2,2.14,0.95,0.32,1.3,0.97,0.57,0.92,0.64,-36,8,-49,1.08,9561,0,94,40,77,1044,528.0,625,468,60,122.0,765,1,414,819,342,0,0,543,-28648,998,470,-5.59,,,,,,,,,,,,
355144,1564237747501,3,2.17,0.95,0.32,1.31,0.97,0.59,0.91,0.72,-36,3,-49,1.08,9254,79,94,40,81,932,524.0,625,453,60,122.0,672,1,416,918,316,0,0,527,10408,2524,470,-5.59,44.680073,10.016873,47.99,179.1,0,0.0,-1,0.0,0.0,0,2.22,5.9191
355164,1564237747521,3,2.19,0.96,0.31,1.31,0.96,0.69,1.02,0.59,-34,1,-48,1.23,9088,81,94,40,84,818,517.0,611,463,60,122.0,672,1,418,1022,316,0,0,521,15679,771,468,-5.59,,,,,,,,,,,,
355184,1564237747541,4,2.21,0.96,0.32,1.3,0.97,0.6,1.12,0.4,-30,-1,-46,1.27,9049,93,94,40,87,778,513.0,605,463,60,123.0,672,1,418,1036,316,0,0,516,26178,-1818,469,-5.59,,,,,,,,,,,,
355204,1564237747561,4,2.23,0.96,0.32,1.3,0.97,0.63,1.21,0.36,-27,-5,-45,1.36,9027,99,94,40,88,765,513.0,595,464,60,122.0,672,1,418,1032,316,0,0,515,26178,-32768,491,-5.59,,,,,,,,,,,,
355224,1564237747581,2,2.24,0.96,0.32,1.31,0.97,0.62,1.29,0.29,-24,-6,-43,1.43,8915,76,94,40,88,770,511.0,597,465,60,122.0,672,1,421,1110,316,0,0,513,-3856,-1818,492,-5.59,,,,,,,,,,,,
355244,1564237747601,3,2.24,0.97,0.32,1.32,0.98,0.76,1.31,0.28,-23,-9,-41,1.52,8937,34,94,40,88,778,513.0,591,466,60,122.0,770,1,420,600,380,0,0,511,26178,771,495,-5.59,44.680073,10.01689,49.84,179.1,0,0.0,-1,0.0,0.0,0,2.22,5.9207
355264,1564237747621,2,2.25,0.97,0.32,1.32,0.97,0.89,1.23,0.21,-21,-8,-40,1.52,8932,0,94,40,88,800,513.0,602,461,60,123.0,770,1,420,606,380,0,0,515,26178,771,496,-5.59,,,,,,,,,,,,
355284,1564237747641,2,2.26,0.97,0.32,1.32,0.98,1.0,1.19,0.26,-21,-8,-38,1.56,9241,100,94,40,88,817,513.0,610,457,60,123.0,770,1,418,692,380,0,0,508,-3856,-22519,498,-5.59,,,,,,,,,,,,
355304,1564237747661,1,2.26,0.97,0.32,1.32,0.97,0.92,1.2,0.24,-19,-6,-33,1.51,9946,95,94,40,86,843,512.0,628,466,60,122.0,770,1,399,676,380,0,0,511,17136,-32248,499,-5.59,,,,,,,,,,,,
355324,1564237747681,1,2.26,0.97,0.32,1.33,0.98,0.82,1.22,0.16,-18,-4,-31,1.47,10647,100,94,40,85,864,510.0,644,461,60,122.0,770,1,434,625,380,0,0,514,10994,-3414,500,-5.59,,,,,,,,,,,,
355344,1564237747701,2,2.26,0.97,0.32,1.33,0.98,0.86,1.24,-0.04,-17,-5,-27,1.5,11160,27,94,40,84,868,509.0,653,463,60,122.0,506,1,442,567,253,0,0,508,-4054,-9216,497,-5.59,44.680073,10.016908,49.36,179.0,0,0.0,-1,0.0,0.0,0,2.22,5.9224
355364,1564237747721,2,2.25,0.97,0.33,1.33,0.97,0.87,1.26,0.16,-16,-6,-25,1.53,11496,0,94,40,84,866,513.0,650,467,60,122.0,506,1,441,549,253,0,0,538,17136,14504,501,-5.59,,,,,,,,,,,,
355384,1564237747741,2,2.26,0.98,0.32,1.33,0.97,0.81,0.96,0.34,-15,-3,-26,1.26,11301,7,94,40,83,848,520.0,654,467,60,121.0,506,1,441,621,253,0,0,588,2524,30227,510,-5.59,,,,,,,,,,,,
355404,1564237747761,-0,2.26,0.97,0.32,1.32,0.98,0.77,1.06,0.41,-14,2,-25,1.31,11042,0,94,40,84,833,527.0,640,461,60,122.0,506,1,443,549,253,0,0,617,14504,24583,518,-5.59,,,,,,,,,,,,
355424,1564237747781,2,2.25,0.97,0.33,1.33,0.97,0.71,0.85,0.51,-14,2,-23,1.1,11003,95,94,40,84,815,537.0,652,458,60,121.0,506,1,443,638,253,0,0,571,-2934,2524,524,-5.59,,,,,,,,,,,,
355444,1564237747801,1,2.26,0.98,0.32,1.33,0.97,0.75,0.72,0.66,-14,2,-23,1.04,10990,100,94,40,84,797,542.0,643,469,60,122.0,500,1,442,624,264,0,0,580,-3082,-29984,529,-5.59,44.680073,10.016925,49.56,179.0,0,0.0,-1,0.0,0.0,0,2.22,5.9241
355464,1564237747821,1,2.26,0.97,0.33,1.32,0.97,0.61,0.72,0.67,-13,1,-22,0.94,9780,95,94,40,86,780,546.0,630,457,60,121.0,500,1,406,640,264,0,0,569,2524,-8186,536,-5.59,,,,,,,,,,,,
355484,1564237747841,3,2.27,0.97,0.32,1.33,0.98,0.63,0.67,0.78,-13,-1,-22,0.92,9709,100,94,40,86,773,548.0,617,454,60,122.0,500,1,409,622,264,0,0,565,14504,-28648,537,-5.59,,,,,,,,,,,,
355504,1564237747861,2,2.29,0.97,0.32,1.33,0.97,0.77,0.55,0.78,-13,-3,-21,0.94,10168,98,94,40,85,772,550.0,635,458,60,123.0,500,1,407,596,264,0,0,556,14504,-9072,538,-5.59,,,,,,,,,,,,
355524,1564237747881,2,2.32,0.97,0.33,1.32,0.98,0.64,0.33,0.84,-11,-5,-20,0.72,10659,100,94,40,84,779,550.0,645,465,60,122.0,500,1,434,576,264,0,0,563,-32248,6273,543,-5.59,,,,,,,,,,,,
355544,1564237747901,4,2.34,0.97,0.32,1.32,0.98,0.75,0.11,0.95,-10,-4,-20,0.76,11101,100,94,40,84,803,550.0,642,467,60,120.0,417,1,442,549,227,0,0,569,-32248,-16384,546,-5.59,44.680073,10.016943,52.96,178.9,0,0.0,-1,0.0,0.0,0,2.22,5.9257
355564,1564237747921,2,2.36,0.97,0.32,1.32,0.98,0.58,0.23,0.77,-7,-2,-17,0.63,11384,88,94,40,84,848,555.0,651,462,60,121.0,417,1,441,534,227,0,0,611,-9072,23619,556,-5.59,,,,,,,,,,,,
355584,1564237747941,1,2.38,0.98,0.32,1.33,0.98,0.53,0.28,0.89,-6,-2,-17,0.6,11517,0,94,40,84,890,560.0,649,465,60,121.0,417,1,440,549,227,0,0,620,-28648,5344,563,-5.59,,,,,,,,,,,,
355604,1564237747961,3,2.38,0.97,0.32,1.32,0.98,0.49,0.05,0.93,-5,0,-15,0.49,11667,0,94,40,83,927,570.0,641,461,60,122.0,417,1,440,522,227,0,0,602,-30159,28675,570,-5.59,,,,,,,,,,,,
355624,1564237747981,1,2.38,0.97,0.33,1.32,0.98,0.48,-0.15,0.73,-3,1,-13,0.5,11674,43,94,40,83,958,578.0,648,460,60,121.0,417,1,440,627,227,0,0,611,-3190,-768,580,-5.59,,,,,,,,,,,,
355644,1564237747995,2,2.38,0.97,0.32,1.34,0.98,0.43,-0.15,0.6,-1,2,-10,0.46,11602,100,94,40,83,961,586.0,648,461,60,122.0,467,1,440,615,273,0,0,617,1760,269,586,-5.59,44.680073,10.016962,54.85,178.8,0,0.0,-1,0.0,0.0,0,2.22,5.9274
355664,1564237748015,0,2.41,0.98,0.32,1.33,0.98,0.5,-0.12,0.74,0,1,-10,0.51,11467,98,94,40,83,957,588.0,654,459,60,122.0,467,1,441,594,273,0,0,625,-3210,269,592,-5.59,,,,,,,,,,,,
355684,1564237748035,3,2.43,0.97,0.33,1.33,0.98,0.58,-0.23,0.86,2,1,-9,0.62,11398,91,94,40,83,916,595.0,636,460,60,122.0,467,1,441,531,273,0,0,629,-16384,269,595,-5.59,,,,,,,,,,,,
355704,1564237748055,3,2.46,0.98,0.32,1.33,0.98,0.52,-0.17,0.86,3,1,-6,0.55,11377,0,94,40,81,890,597.0,641,465,60,122.0,467,1,441,509,273,0,0,621,-4035,-16883,597,-5.59,,,,,,,,,,,,
355724,1564237748075,5,2.48,0.98,0.33,1.33,0.99,0.46,-0.36,0.93,4,-2,-4,0.58,11481,55,94,40,73,852,601.0,641,465,60,122.0,467,1,441,533,273,0,0,630,208,-18357,604,-5.59,,,,,,,,,,,,
355744,1564237748102,3,2.5,0.97,0.33,1.33,0.99,0.43,-0.17,0.7,6,-5,-1,0.46,11439,0,94,39,64,812,606.0,660,471,60,122.0,314,1,442,417,190,0,0,622,10432,966,606,-5.59,44.680073,10.016982,57.22,178.8,0,0.0,-1,0.0,0.0,0,2.22,5.9291
355764,1564237748122,2,2.51,0.97,0.33,1.33,0.99,0.55,-0.25,0.83,6,-4,-2,0.61,11187,27,94,39,56,808,606.0,647,467,60,122.0,314,1,413,397,190,0,0,622,30208,-28304,611,-5.59,,,,,,,,,,,,
355784,1564237748142,5,2.5,0.98,0.32,1.33,0.98,0.46,-0.07,0.54,7,-3,3,0.46,10831,18,94,39,49,802,610.0,642,468,60,122.0,314,1,385,294,190,0,0,615,259,16529,609,-5.59,,,,,,,,,,,,
355804,1564237748162,5,2.5,0.97,0.32,1.33,0.98,0.47,-0.19,0.42,8,-5,7,0.51,10593,13,95,39,45,800,604.0,647,468,60,122.0,314,1,365,253,190,0,0,588,-3210,19621,604,-5.59,,,,,,,,,,,,
355824,1564237748182,9,2.5,0.98,0.33,1.33,0.98,0.48,-0.3,0.52,10,-7,10,0.57,10439,10,94,39,41,798,606.0,639,467,60,122.0,314,1,335,231,190,0,0,563,1760,19621,606,-5.59,,,,,,,,,,,,
355844,1564237748200,12,2.5,0.98,0.32,1.34,0.98,0.43,-0.28,0.46,12,-6,13,0.52,10206,8,94,39,38,803,605.0,633,468,60,122.0,141,1,317,218,86,0,0,529,1780,19621,603,-5.59,44.680073,10.017002,60.11,178.7,0,0.0,-1,0.0,0.0,0,2.23,5.9307
355864,1564237748220,18,2.49,0.99,0.32,1.34,0.99,0.51,-0.15,0.31,14,-8,15,0.54,10037,8,95,39,36,808,605.0,627,465,60,123.0,141,1,311,210,86,0,0,493,-22263,-7939,605,-5.59,,,,,,,,,,,,
355884,1564237748240,17,2.49,0.98,0.33,1.34,0.98,0.64,-0.3,0.4,16,-8,15,0.71,9884,8,95,39,34,819,601.0,632,463,60,122.0,141,1,305,208,86,0,0,430,1780,-7939,601,-5.59,,,,,,,,,,,,
355904,1564237748260,16,2.5,0.98,0.32,1.33,0.98,0.63,-0.38,0.36,18,-7,17,0.74,9704,8,95,39,33,828,600.0,628,468,60,123.0,141,1,302,202,86,0,0,378,-22263,23619,599,-5.59,,,,,,,,,,,,
355924,1564237748280,17,2.48,0.98,0.32,1.33,0.99,0.76,-0.51,0.46,20,-8,19,0.91,9450,8,95,39,32,833,601.0,618,473,60,122.0,141,1,300,196,86,0,0,336,2104,4956,601,-5.59,,,,,,,,,,,,
355944,1564237748302,16,2.47,0.98,0.33,1.33,0.99,0.83,-0.57,0.39,21,-5,20,1.01,9173,4,95,39,31,840,600.0,617,467,60,122.0,113,1,295,188,68,0,0,292,-22519,-7939,595,-5.59,44.680069,10.017023,59.39,178.7,0,0.0,-1,0.0,0.0,0,2.23,5.9324
355964,1564237748322,17,2.45,0.98,0.33,1.33,0.98,0.95,-0.61,0.3,22,-3,21,1.12,8688,0,95,39,30,838,598.0,602,466,60,123.0,113,1,291,182,68,0,0,404,-2934,-13043,596,-5.59,,,,,,,,,,,,
355984,1564237748342,15,2.43,0.98,0.32,1.34,0.98,0.98,-0.7,0.23,23,-3,24,1.2,8344,6,95,39,28,836,591.0,535,465,60,123.0,113,1,281,177,68,0,0,410,6274,6273,591,-5.59,,,,,,,,,,,,
356004,1564237748362,16,2.43,0.98,0.32,1.33,0.98,1.08,-0.76,0.26,22,-2,26,1.32,8184,8,95,39,28,828,586.0,411,466,60,123.0,113,1,279,170,68,0,0,353,2524,-16384,584,-5.59,,,,,,,,,,,,
356024,1564237748382,15,2.41,0.98,0.32,1.33,0.98,1.04,-0.78,0.18,21,-1,27,1.3,7965,8,95,39,29,821,581.0,347,467,60,123.0,113,1,281,162,68,0,0,309,-21872,243,581,-5.59,,,,,,,,,,,,
356044,1564237748400,19,2.39,0.97,0.32,1.34,0.98,1.11,-0.77,0.12,21,-1,29,1.35,7728,8,95,39,29,807,577.0,324,467,60,122.0,82,1,280,162,48,0,0,261,-32248,1267,577,-5.59,44.680069,10.017043,57.85,178.6,0,0.0,-1,0.0,0.0,0,2.23,5.9341
356064,1564237748420,18,2.38,0.98,0.33,1.33,0.99,1.16,-0.79,0.17,20,-1,31,1.4,7554,8,95,39,29,787,571.0,302,465,60,122.0,82,1,279,162,48,0,0,189,-9212,6273,571,-5.59,,,,,,,,,,,,
356084,1564237748440,20,2.37,0.99,0.32,1.33,0.98,1.12,-0.79,0.21,20,-0,30,1.38,7309,8,95,39,29,782,563.0,290,465,60,122.0,82,1,278,162,48,0,0,133,16383,-22263,563,-5.59,,,,,,,,,,,,
356104,1564237748460,18,2.37,0.98,0.32,1.34,0.97,1.09,-0.77,0.13,20,2,31,1.34,7027,8,95,39,29,773,558.0,301,466,60,122.0,82,1,277,161,48,0,0,133,1341,-18032,559,-5.59,,,,,,,,,,,,
356124,1564237748480,17,2.36,0.98,0.33,1.34,0.98,0.97,-0.77,0.04,21,3,31,1.24,6537,8,95,39,29,772,558.0,322,466,60,122.0,82,1,279,162,48,0,0,206,-14,2524,555,-5.59,,,,,,,,,,,,
356144,1564237748500,20,2.36,0.98,0.32,1.34,0.98,1.08,-0.75,0.03,21,3,30,1.31,6325,8,95,39,29,771,547.0,320,460,60,121.0,70,1,280,162,39,0,0,249,-21872,-32248,547,-5.59,44.680065,10.017063,56.19,178.6,0,0.0,-1,0.0,0.0,0,2.23,5.9357
356164,1564237748520,22,2.36,0.98,0.33,1.34,0.98,1.17,-0.81,0.02,19,-1,28,1.42,6177,7,95,39,31,774,539.0,306,463,60,123.0,70,1,287,164,39,0,0,198,248,-506,539,-5.59,,,,,,,,,,,,
356184,1564237748540,22,2.36,0.98,0.32,1.33,0.99,1.18,-0.9,-0.02,18,-5,27,1.48,6042,7,95,39,31,781,533.0,290,462,60,123.0,70,1,287,165,39,0,0,153,11560,2524,533,-5.59,,,,,,,,,,,,
356204,1564237748560,24,2.34,0.98,0.33,1.33,0.99,1.21,-0.92,0.02,16,-7,27,1.52,5948,8,95,39,32,796,524.0,279,465,60,124.0,70,1,287,166,39,0,0,153,11560,-28648,524,-5.59,,,,,,,,,,,,
356224,1564237748580,24,2.32,0.98,0.32,1.33,0.98,1.28,-0.86,0.06,14,-12,26,1.54,5795,8,95,39,33,812,521.0,278,464,60,123.0,70,1,281,169,39,0,0,153,3,2524,519,-5.59,,,,,,,,,,,,
356244,1564237748600,28,2.28,0.98,0.32,1.34,0.98,1.35,-0.81,0.07,12,-11,25,1.58,5617,8,95,39,35,822,513.0,292,463,60,121.0,71,1,277,180,37,0,0,153,11560,-3856,513,-5.59,44.680061,10.017081,54.0,178.6,0,0.0,-1,0.0,0.0,0,2.23,5.9374
356264,1564237748620,26,2.25,0.98,0.32,1.33,0.97,1.38,-0.71,0.09,9,-8,26,1.55,5358,8,95,39,37,832,508.0,290,464,60,120.0,71,1,267,183,37,0,0,153,-9216,17136,508,-5.59,,,,,,,,,,,,
356284,1564237748640,29,2.21,0.98,0.32,1.32,0.96,1.37,-0.63,0.06,6,-8,26,1.51,4890,8,95,39,39,848,500.0,278,463,60,119.0,71,1,240,197,37,0,0,29,-9216,3,500,-5.59,,,,,,,,,,,,
356304,1564237748660,30,2.18,0.96,0.31,1.31,0.96,1.32,-0.52,-0.05,3,-5,24,1.42,4679,8,95,39,41,873,491.0,278,464,60,123.0,71,1,224,194,37,0,0,90,248,10432,480,-5.59,,,,,,,,,,,,
356324,1564237748680,30,2.16,0.95,0.31,1.29,0.96,1.32,-0.43,-0.14,2,-3,20,1.39,4557,8,95,39,42,893,481.0,275,460,60,123.0,71,1,214,193,37,0,0,157,32033,17628,460,-5.59,,,,,,,,,,,,
356344,1564237748700,29,2.14,0.95,0.3,1.28,0.95,1.34,-0.36,-0.16,1,-3,16,1.38,4456,6,95,39,43,909,480.0,268,461,60,122.0,72,1,206,193,33,0,0,205,8488,5600,453,-5.59,44.680058,10.017099,51.11,178.6,0,0.0,-1,0.0,0.0,0,2.23,5.9391
356364,1564237748720,31,2.13,0.94,0.3,1.28,0.94,1.31,-0.26,-0.2,-1,-4,13,1.33,4515,0,95,39,45,927,471.0,259,461,60,123.0,72,1,215,200,33,0,0,182,32033,-29978,440,-5.59,,,,,,,,,,,,
356384,1564237748740,33,2.1,0.95,0.3,1.28,0.94,1.28,-0.2,-0.14,-4,-6,9,1.3,4565,0,95,39,46,952,471.0,253,460,60,121.0,72,1,222,201,33,0,0,134,32033,-214,442,181.28,,,,,,,,,,,,
356404,1564237748760,33,2.09,0.95,0.29,1.29,0.94,1.25,-0.13,-0.15,-8,-3,6,1.26,4460,0,95,39,47,966,472.0,257,460,60,123.0,72,1,213,205,33,0,0,109,-16384,19456,425,-5.59,,,,,,,,,,,,
356424,1564237748780,29,2.08,0.95,0.3,1.29,0.95,1.23,-0.01,-0.31,-10,-3,2,1.23,4317,0,95,39,48,971,468.0,262,462,60,123.0,72,1,199,202,33,0,0,122,-16384,-1,407,-5.59,,,,,,,,,,,,
356444,1564237748802,20,2.07,0.95,0.3,1.29,0.95,1.21,0.13,-0.31,-13,-2,-2,1.22,3814,8,95,39,48,972,465.0,264,469,60,123.0,80,1,159,196,32,0,0,307,30272,3072,399,-5.59,44.680054,10.017117,47.91,178.6,0,0.0,-1,0.0,0.0,0,2.23,5.9407
356464,1564237748822,16,2.06,0.95,0.3,1.29,0.96,1.26,0.21,-0.28,-15,2,-8,1.28,3737,0,95,39,50,969,461.0,262,460,60,124.0,80,1,157,198,32,0,0,409,2211,-1,387,-5.59,,,,,,,,,,,,
356484,1564237748842,9,2.04,0.95,0.3,1.28,0.94,1.34,0.32,-0.18,-20,4,-13,1.37,3664,0,96,39,51,965,456.0,265,465,60,121.0,80,1,155,130,32,0,0,2107,14488,-1,396,-5.59,,,,,,,,,,,,
356504,1564237748862,11,2.03,0.95,0.3,1.29,0.95,1.38,0.37,-0.19,-22,3,-15,1.43,3738,0,95,39,52,957,1636.0,263,458,60,123.0,80,1,158,210,32,0,0,2535,-1542,13874,1636,-5.59,,,,,,,,,,,,
356524,1564237748882,7,2.03,0.95,0.29,1.28,0.94,1.41,0.49,-0.17,-24,-0,-18,1.49,4000,0,96,39,52,950,1636.0,267,466,60,122.0,80,1,168,216,32,0,0,2535,-1542,-1,1636,-5.59,,,,,,,,,,,,
356544,1564237748902,6,2.01,0.95,0.3,1.28,0.95,1.34,0.54,-0.07,-27,-3,-21,1.44,4067,0,96,39,53,948,1636.0,268,462,60,124.0,22,1,177,245,36,0,0,2535,-1542,-22528,1636,-5.59,44.68005,10.017131,43.6,178.6,0,0.0,-1,0.0,0.0,0,2.24,5.9424
356564,1564237748922,3,2.01,0.95,0.3,1.28,0.95,1.29,0.6,0.06,-29,-1,-26,1.42,4222,0,96,39,53,947,1636.0,269,458,60,125.0,22,1,197,245,36,0,0,2535,-1542,-22528,1636,-5.59,,,,,,,,,,,,
356584,1564237748942,2,2.0,0.95,0.3,1.29,0.94,1.26,0.64,0.09,-32,-0,-31,1.42,4134,0,95,39,53,953,434.0,276,460,60,124.0,22,1,185,237,36,0,0,2535,-768,-22528,28,-5.59,,,,,,,,,,,,
