"Interval"|"ms"|0|0|1,"Utc"|"ms"|0|0|1,"FB_p"|"bar"|0|300|50,"Volant"|"F"|0.0|300.0|50,"xFR"|"mm"|0.0|5.0|50,"xRR"|"mm"|0.0|5.0|50,"xFL"|"mm"|0.0|5.0|50,"xRL"|"mm"|0.0|5.0|50,"AccelX"|"G"|-3.0|3.0|50,"AccelY"|"G"|-3.0|3.0|50,"AccelZ"|"G"|-3.0|3.0|50,"Yaw"|"Deg/Sec"|-120|120|50,"Pitch"|"Deg/Sec"|-120|120|50,"Roll"|"Deg/Sec"|-120|120|50,"Gsum"|"G"|0.0|3.0|50,"RPM"|""|0|14000|50,"TPS"|"%"|0|100|50,"WaterTemp"|"?C"|0|300|50,"AirTemp"|"?C"|-1000|1000|50,"MAP"|"KPa"|0|255|50,"Lambda"|""|0|1024|50,"WheelSpeed"|"MPH"|0.0|150.0|50,"OilPress"|"PSI"|0|150|50,"FuelPress"|"PSI"|0|150|50,"OilTemp"|"F"|0|300|50,"Battery"|"Volts"|0.0|20.0|50,"FuelCon"|"L/h"|-1000|1000|50,"Gear"|""|0|10|50,"Advance"|"Deg"|-360|360|50,"Injection"|"ms"|-1000|1000|50,"FuelCon"|"L/100km"|-1000|1000|50,"LC_But_Pres"|""|-1000|1000|50,"LC_Active"|""|-1000|1000|50,"RD_Speed"|""|-1000|1000|50,"RUD_Speed"|""|-1000|1000|50,"LD_Speed"|""|-1000|1000|50,"LUD_Speed"|""|-1000|1000|50,"Ana1"|"bar"|-1000.0|1000.0|50,"Latitude"|"Degrees"|-180.0|180.0|10,"Longitude"|"Degrees"|-180.0|180.0|10,"Speed"|"kph"|0.0|150.0|10,"Altitude"|"m"|0.0|4000.0|10,"LapCount"|""|0|0|10,"LapTime"|"Min"|0.0|0.0|10,"Sector"|""|0|0|10,"SectorTime"|"Min"|0.0|0.0|10,"ElapsedTime"|"Min"|0.0|0.0|10,"CurrentLap"|""|0|0|10,"Distance"|"km"|0.0|0.0|10,"SessionTime"|"Min"|0.0|0.0|10
142964,1564237535312,9,1.84,0.98,0.38,1.3,0.97,1.07,0.98,0.28,-32,-1,-41,1.45,7855,1,87,41,44,857,417.0,631,463,60,128.0,185,1,347,236,63,0,0,425,-21944,3826,344,-5.59,,,,,,,,,,,,
142984,1564237535332,10,1.85,0.98,0.38,1.31,0.98,1.0,1.08,0.21,-32,-2,-40,1.48,7884,4,86,41,44,865,414.0,623,461,60,129.0,204,1,347,234,70,0,0,423,2524,1779,342,-5.59,,,,,,,,,,,,
143004,1564237535352,11,1.84,0.98,0.38,1.31,0.97,0.91,1.16,0.14,-32,-2,-42,1.47,7861,10,87,41,44,877,410.0,621,463,60,129.0,204,1,347,239,70,0,0,418,9517,-8165,330,-5.59,,,,,,,,,,,,
143024,1564237535372,7,1.85,0.98,0.38,1.31,0.97,0.92,1.04,0.22,-32,-1,-44,1.39,7891,8,87,41,44,891,407.0,620,462,60,128.0,204,1,347,236,70,0,0,419,-26615,-8165,331,-5.59,,,,,,,,,,,,
143044,1564237535392,3,1.84,0.98,0.38,1.31,0.97,1.02,1.04,0.31,-33,-0,-45,1.46,7864,17,87,41,45,899,409.0,619,463,60,128.0,204,1,355,232,70,0,0,416,9517,-3856,342,-5.59,44.681316,10.016898,40.3,180.1,0,0.0,-1,0.0,0.0,0,0.43,2.3841
143064,1564237535405,0,1.84,0.97,0.38,1.3,0.97,1.02,1.08,0.33,-34,-2,-47,1.48,7841,10,86,41,44,905,410.0,624,463,60,129.0,204,1,347,236,70,0,0,418,-9166,3826,343,-5.59,,,,,,,,,,,,
143084,1564237535425,3,1.84,0.98,0.37,1.31,0.97,0.92,1.11,0.31,-35,-3,-49,1.44,7861,0,87,41,45,911,412.0,621,462,60,128.0,202,1,355,209,70,0,0,419,13040,7154,350,-5.59,,,,,,,,,,,,
143104,1564237535445,2,1.85,0.97,0.38,1.3,0.97,0.85,0.99,0.31,-35,-2,-48,1.31,7799,0,87,41,45,916,415.0,620,461,60,128.0,202,1,355,215,70,0,0,418,-26615,18584,360,-5.59,,,,,,,,,,,,
143124,1564237535465,0,1.86,0.98,0.38,1.3,0.97,0.91,0.99,0.37,-36,-0,-47,1.34,7776,7,86,41,45,918,415.0,623,462,60,127.0,202,1,355,240,70,0,0,419,-26615,-4059,362,-5.59,,,,,,,,,,,,
143144,1564237535499,-1,1.9,0.98,0.37,1.3,0.98,1.02,0.97,0.49,-36,-2,-48,1.41,7776,6,87,41,45,918,413.0,626,461,60,128.0,202,1,355,210,70,0,0,416,13040,-4082,362,-5.59,44.681297,10.016892,37.67,180.0,0,0.0,-1,0.0,0.0,0,0.43,2.3857
143164,1564237535519,3,1.93,0.98,0.37,1.31,0.97,1.01,1.07,0.49,-36,-2,-49,1.47,7760,0,87,41,45,916,411.0,623,464,60,129.0,202,1,355,210,70,0,0,415,9517,-3414,361,-5.59,,,,,,,,,,,,
143184,1564237535539,2,1.97,0.98,0.37,1.31,0.98,0.85,1.17,0.42,-35,-4,-48,1.44,7789,0,87,41,45,915,411.0,623,461,60,129.0,171,1,355,215,62,0,0,415,-4059,11545,363,-5.59,,,,,,,,,,,,
143204,1564237535559,3,2.01,0.98,0.37,1.31,0.97,0.69,1.22,0.34,-34,-3,-49,1.4,7706,13,86,41,45,913,415.0,620,458,60,128.0,171,1,355,240,62,0,0,416,-26615,13040,365,-5.59,,,,,,,,,,,,
143224,1564237535579,3,2.06,0.98,0.38,1.31,0.97,0.56,1.13,0.3,-34,-2,-48,1.27,7631,22,87,41,46,912,414.0,619,463,60,128.0,171,1,362,236,62,0,0,415,2524,13180,366,-5.59,,,,,,,,,,,,
143244,1564237535593,4,2.12,0.98,0.38,1.32,0.98,0.56,0.99,0.32,-33,0,-47,1.14,7684,23,86,41,46,914,415.0,620,462,60,128.0,171,1,362,236,62,0,0,411,-26615,9517,367,-5.59,44.68129,10.016891,37.51,180.0,0,0.0,-1,0.0,0.0,0,0.43,2.3874
143264,1564237535613,-0,2.18,0.98,0.38,1.32,0.97,0.62,0.84,0.47,-31,0,-47,1.04,7628,12,87,41,46,920,411.0,615,465,60,129.0,171,1,362,217,62,0,0,411,-9166,-31744,370,-5.59,,,,,,,,,,,,
143284,1564237535633,1,2.23,0.99,0.38,1.32,0.97,0.71,0.74,0.56,-28,1,-47,1.03,7588,22,86,41,46,926,409.0,614,461,60,128.0,188,1,362,241,70,0,0,409,9517,-9211,374,-5.59,,,,,,,,,,,,
143304,1564237535653,1,2.28,0.99,0.38,1.31,0.98,0.8,0.61,0.64,-25,2,-44,1.0,7530,21,86,41,46,933,405.0,612,465,60,128.0,188,1,362,217,70,0,0,405,-9211,11545,379,-5.59,,,,,,,,,,,,
143324,1564237535673,0,2.33,0.99,0.39,1.32,0.99,0.9,0.48,0.71,-22,2,-42,1.02,7494,23,86,41,46,942,403.0,607,465,60,128.0,188,1,362,217,70,0,0,404,-8151,-1562,385,-5.59,,,,,,,,,,,,
143344,1564237535693,4,2.36,1.0,0.38,1.32,0.98,0.92,0.36,0.73,-19,2,-39,0.99,7402,21,86,41,47,954,398.0,601,461,60,128.0,188,1,370,219,70,0,0,401,6384,-3968,390,-5.59,44.68129,10.016891,37.51,180.0,0,0.0,-1,0.0,0.0,0,0.43,2.3891
143364,1564237535705,5,2.38,1.0,0.38,1.33,0.99,0.93,0.34,0.72,-15,3,-35,0.99,7370,23,86,41,47,963,397.0,601,462,60,128.0,188,1,370,246,70,0,0,401,-3968,6512,395,-5.59,,,,,,,,,,,,
143384,1564237535725,3,2.41,1.0,0.38,1.32,0.98,0.85,0.33,0.67,-12,4,-32,0.91,7361,22,86,41,48,968,397.0,595,463,60,127.0,172,1,372,242,68,0,0,394,-1818,-3968,397,-5.59,,,,,,,,,,,,
143404,1564237535745,3,2.44,0.99,0.39,1.32,0.98,0.77,0.34,0.61,-9,4,-27,0.84,7352,23,86,41,48,972,398.0,596,462,60,129.0,172,1,372,245,68,0,0,394,1,28696,398,-5.59,,,,,,,,,,,,
143424,1564237535765,2,2.47,1.0,0.38,1.32,0.98,0.71,0.28,0.57,-6,3,-23,0.77,7419,23,86,41,48,977,400.0,599,465,60,128.0,172,1,372,242,68,0,0,393,-6524,6512,400,-5.59,,,,,,,,,,,,
143444,1564237535801,1,2.51,0.99,0.39,1.33,0.98,0.61,0.23,0.53,-3,3,-19,0.65,7449,23,86,41,48,980,402.0,602,459,60,129.0,172,1,372,232,68,0,0,392,240,11545,402,-5.59,44.681271,10.016893,38.97,180.0,0,0.0,-1,0.0,0.0,0,0.44,2.3907
143464,1564237535821,3,2.53,1.0,0.38,1.32,0.98,0.49,0.11,0.53,-1,3,-17,0.5,7503,23,86,41,48,979,404.0,605,462,60,129.0,172,1,372,235,68,0,0,393,-6475,-8151,404,-5.59,,,,,,,,,,,,
143484,1564237535841,2,2.55,1.0,0.39,1.33,0.98,0.45,0.04,0.47,2,4,-12,0.46,7509,23,86,41,48,980,407.0,603,463,60,128.0,163,1,372,225,66,0,0,397,-19019,1504,407,-5.59,,,,,,,,,,,,
143504,1564237535861,2,2.58,1.0,0.39,1.32,0.99,0.43,-0.04,0.47,4,5,-7,0.44,7584,23,86,41,48,983,409.0,603,463,60,129.0,163,1,372,223,66,0,0,405,-6475,-4059,409,-5.59,,,,,,,,,,,,
143524,1564237535881,1,2.59,0.99,0.39,1.33,0.98,0.42,-0.1,0.41,6,5,-3,0.43,7600,23,86,41,48,987,412.0,607,462,60,128.0,163,1,372,219,66,0,0,399,-18948,11560,412,-5.59,,,,,,,,,,,,
143544,1564237535901,3,2.62,0.99,0.39,1.33,0.99,0.44,-0.17,0.42,8,5,-1,0.47,7668,22,86,41,48,990,412.0,607,463,60,127.0,163,1,372,219,66,0,0,405,-18948,10392,412,-5.59,44.681271,10.016893,38.97,180.0,0,0.0,-1,0.0,0.0,0,0.44,2.3924
143564,1564237535910,-1,2.62,1.0,0.38,1.32,0.98,0.49,-0.31,0.43,11,5,3,0.58,7693,23,86,41,47,993,412.0,612,462,60,128.0,163,1,370,219,66,0,0,420,8200,-4059,412,-5.59,,,,,,,,,,,,
143584,1564237535930,-1,2.63,0.99,0.38,1.32,0.99,0.56,-0.36,0.45,13,3,8,0.66,7716,23,86,41,47,991,414.0,612,463,60,128.0,152,1,370,219,63,0,0,420,2278,18584,415,-5.59,,,,,,,,,,,,
143604,1564237535950,1,2.63,0.99,0.38,1.33,0.99,0.59,-0.42,0.52,15,1,10,0.72,7789,23,86,41,47,990,416.0,616,465,60,128.0,152,1,370,219,63,0,0,411,-6656,13040,415,-5.59,,,,,,,,,,,,
143624,1564237535970,1,2.64,0.99,0.38,1.32,0.99,0.56,-0.48,0.51,17,1,12,0.74,7809,23,86,41,46,985,418.0,613,463,60,129.0,152,1,362,217,63,0,0,418,742,-21792,418,-5.59,,,,,,,,,,,,
143644,1564237535990,3,2.64,0.99,0.38,1.33,0.99,0.58,-0.54,0.46,18,1,17,0.79,7881,23,86,41,46,980,418.0,614,464,60,128.0,152,1,362,217,63,0,0,427,3,-21944,418,-5.59,44.681263,10.016895,39.53,180.0,0,0.0,-1,0.0,0.0,0,0.44,2.3941
143664,1564237536002,-1,2.66,0.99,0.39,1.32,0.99,0.69,-0.53,0.47,20,1,20,0.87,7931,23,86,41,46,977,420.0,619,465,60,128.0,152,1,362,217,63,0,0,422,770,-3414,420,-5.59,,,,,,,,,,,,
143684,1564237536022,-0,2.66,0.99,0.38,1.32,1.0,0.72,-0.59,0.48,22,-1,21,0.93,7904,23,86,41,45,974,418.0,618,462,60,129.0,155,1,355,215,65,0,0,422,770,7154,420,-5.59,,,,,,,,,,,,
143704,1564237536042,3,2.65,1.0,0.39,1.32,1.0,0.69,-0.66,0.48,23,-0,25,0.95,7928,23,86,41,45,977,420.0,625,465,60,128.0,155,1,355,215,65,0,0,434,770,-3414,420,-5.59,,,,,,,,,,,,
143724,1564237536062,0,2.65,0.99,0.38,1.33,0.99,0.76,-0.67,0.46,25,-1,27,1.02,7958,14,86,41,45,979,421.0,623,465,60,128.0,155,1,355,210,65,0,0,431,-6656,-8165,421,-5.59,,,,,,,,,,,,
143744,1564237536098,-0,2.67,1.0,0.39,1.32,0.99,0.78,-0.77,0.52,26,-2,27,1.1,7941,15,86,41,45,982,421.0,625,463,60,127.0,155,1,355,215,65,0,0,428,770,-4082,421,-5.59,44.681244,10.016894,39.55,179.9,0,0.0,-1,0.0,0.0,0,0.44,2.3957
143764,1564237536118,2,2.65,1.0,0.39,1.33,0.99,0.73,-0.84,0.5,27,-1,31,1.11,7965,16,86,41,44,985,421.0,625,465,60,129.0,155,1,347,213,65,0,0,428,-6656,13180,423,-5.59,,,,,,,,,,,,
143784,1564237536138,-1,2.66,1.0,0.38,1.33,0.99,0.72,-0.85,0.46,28,-1,34,1.12,7982,10,86,41,44,986,423.0,500,463,60,128.0,151,1,347,209,64,0,0,432,-6656,-4082,423,-5.59,,,,,,,,,,,,
143804,1564237536158,0,2.66,0.99,0.39,1.33,0.99,0.76,-0.93,0.45,29,1,34,1.2,7958,19,86,41,44,986,424.0,483,463,60,127.0,151,1,347,236,64,0,0,434,742,-4082,424,-5.59,,,,,,,,,,,,
143824,1564237536178,4,2.65,1.0,0.39,1.33,0.99,0.73,-0.98,0.39,30,1,37,1.22,8002,23,86,41,44,986,423.0,463,462,60,128.0,151,1,347,235,64,0,0,430,742,3826,423,-5.59,,,,,,,,,,,,
143844,1564237536198,-1,2.65,1.0,0.39,1.32,0.99,0.74,-0.98,0.41,31,1,37,1.23,7985,23,86,41,44,985,425.0,407,466,60,128.0,151,1,347,238,64,0,0,441,770,31796,422,-5.59,44.681244,10.016894,39.55,179.9,0,0.0,-1,0.0,0.0,0,0.44,2.3974
143864,1564237536210,1,2.66,1.0,0.38,1.33,0.99,0.77,-1.04,0.44,32,0,37,1.29,8023,24,86,41,43,984,423.0,412,461,60,128.0,151,1,340,235,64,0,0,444,770,-21792,423,-5.59,,,,,,,,,,,,
143884,1564237536230,2,2.66,0.99,0.39,1.32,0.99,0.71,-1.08,0.42,33,1,39,1.29,8088,24,86,41,43,983,424.0,363,462,60,128.0,167,1,340,230,71,0,0,441,742,7154,424,-5.59,,,,,,,,,,,,
143904,1564237536250,1,2.66,0.99,0.39,1.32,1.0,0.84,-1.07,0.46,32,-0,41,1.36,8102,24,86,41,43,980,422.0,342,463,60,127.0,167,1,341,227,71,0,0,444,742,-3856,422,-5.59,,,,,,,,,,,,
143924,1564237536270,2,2.65,1.0,0.38,1.34,0.99,0.78,-1.1,0.46,33,-1,39,1.35,8152,23,86,41,42,977,423.0,328,462,60,128.0,167,1,334,223,71,0,0,447,-6656,-3314,421,-5.59,,,,,,,,,,,,
143944,1564237536290,-1,2.64,1.0,0.39,1.33,1.0,0.9,-1.15,0.43,33,-2,42,1.46,8187,24,86,41,42,975,422.0,311,465,60,127.0,167,1,334,218,71,0,0,455,1,-4082,422,-5.59,44.681232,10.016893,40.07,180.0,0,0.0,-1,0.0,0.0,0,0.44,2.3991
143964,1564237536302,3,2.62,0.99,0.39,1.33,0.98,0.82,-1.11,0.46,33,-3,43,1.38,8238,24,86,41,42,974,423.0,313,467,60,128.0,167,1,335,215,71,0,0,455,-6656,-21792,423,-5.59,,,,,,,,,,,,
143984,1564237536322,1,2.58,0.99,0.38,1.33,0.99,0.88,-1.14,0.47,33,-2,42,1.44,8220,24,86,41,42,967,423.0,315,462,60,127.0,155,1,335,212,66,0,0,455,742,-3414,423,-5.59,,,,,,,,,,,,
144004,1564237536342,2,2.54,0.99,0.39,1.33,1.0,0.79,-1.11,0.45,33,-2,45,1.36,8223,24,86,41,41,959,425.0,370,464,60,128.0,155,1,328,212,66,0,0,444,742,-21792,425,-5.59,,,,,,,,,,,,
144024,1564237536362,2,2.49,0.99,0.39,1.32,0.99,0.76,-1.03,0.48,32,-0,45,1.28,8202,24,86,41,41,952,422.0,359,466,60,128.0,155,1,328,210,66,0,0,429,-6656,13180,422,-5.59,,,,,,,,,,,,
144044,1564237536398,5,2.45,1.0,0.39,1.32,0.99,0.83,-0.96,0.54,31,0,44,1.27,8067,24,86,41,41,945,420.0,339,462,60,127.0,155,1,325,210,66,0,0,421,-6656,-3322,420,-5.59,44.681213,10.016883,40.24,180.0,0,0.0,-1,0.0,0.0,0,0.44,2.4007
144064,1564237536418,4,2.44,0.99,0.39,1.33,0.99,0.82,-0.97,0.53,29,-0,43,1.27,7871,21,86,41,41,940,419.0,325,463,60,128.0,155,1,325,210,66,0,0,410,19125,13552,419,-5.59,,,,,,,,,,,,
144084,1564237536438,5,2.42,1.0,0.38,1.33,0.98,0.73,-0.95,0.5,27,-1,42,1.2,7678,14,86,41,40,936,417.0,316,462,60,129.0,147,1,317,206,62,0,0,404,240,3826,417,-5.59,,,,,,,,,,,,
144104,1564237536458,2,2.4,0.99,0.38,1.33,0.98,0.81,-0.89,0.52,24,-2,38,1.2,7381,11,86,41,39,936,414.0,306,459,60,129.0,147,1,310,204,62,0,0,404,-1562,7154,414,-5.59,,,,,,,,,,,,
144124,1564237536478,1,2.39,0.99,0.38,1.31,0.99,0.89,-0.85,0.62,21,-2,37,1.23,7225,9,86,41,37,939,411.0,300,460,60,129.0,147,1,304,199,62,0,0,400,-6656,13040,411,-5.59,,,,,,,,,,,,
144144,1564237536498,4,2.37,0.98,0.38,1.31,0.99,0.99,-0.79,0.6,19,-3,36,1.27,7142,9,86,41,37,942,407.0,303,462,60,128.0,147,1,304,193,62,0,0,393,17144,9517,407,-5.59,44.681213,10.016883,40.24,180.0,0,0.0,-1,0.0,0.0,0,0.44,2.4024
144164,1564237536510,2,2.33,0.99,0.38,1.3,0.97,0.89,-0.61,0.51,18,-3,33,1.08,7110,9,86,41,36,947,405.0,320,462,60,128.0,147,1,301,187,62,0,0,394,-1818,1504,405,-5.59,,,,,,,,,,,,
144184,1564237536530,2,2.31,0.98,0.37,1.3,0.98,0.82,-0.52,0.47,16,-4,30,0.97,7091,9,86,41,36,950,402.0,317,462,60,128.0,123,1,301,187,50,0,0,391,-1818,11545,402,-5.59,,,,,,,,,,,,
144204,1564237536550,5,2.28,0.99,0.38,1.31,0.97,0.92,-0.46,0.53,14,-4,28,1.03,7030,9,86,41,35,952,401.0,335,462,60,128.0,123,1,298,187,50,0,0,393,-32702,11545,401,-5.59,,,,,,,,,,,,
144224,1564237536570,2,2.28,0.98,0.37,1.31,0.98,0.85,-0.33,0.45,12,-2,26,0.91,6980,8,86,41,35,950,400.0,351,464,60,128.0,123,1,298,182,50,0,0,397,-32702,1504,400,-5.59,,,,,,,,,,,,
144244,1564237536590,-1,2.26,0.99,0.38,1.31,0.98,0.81,-0.22,0.44,11,-2,22,0.84,6939,8,86,41,35,943,398.0,375,462,60,128.0,123,1,298,182,50,0,0,397,6384,17144,398,-5.59,44.681202,10.016877,40.37,180.0,0,0.0,-1,0.0,0.0,0,0.44,2.4041
144264,1564237536600,3,2.24,0.98,0.38,1.31,0.99,0.93,-0.21,0.52,9,-3,20,0.95,6875,0,86,41,35,935,400.0,398,460,60,128.0,123,1,298,182,50,0,0,400,6384,-1818,395,-5.59,,,,,,,,,,,,
144284,1564237536620,-1,2.21,0.99,0.38,1.31,0.98,0.83,-0.05,0.39,8,-1,18,0.83,6853,0,86,41,35,927,400.0,417,461,60,128.0,118,1,298,182,47,0,0,397,11545,-1818,394,-5.59,,,,,,,,,,,,
144304,1564237536640,0,2.15,0.98,0.38,1.31,0.98,0.88,0.03,0.37,5,-2,16,0.88,6936,0,86,41,35,917,399.0,430,461,60,129.0,118,1,298,178,47,0,0,394,28696,-6475,391,-5.59,,,,,,,,,,,,
144324,1564237536660,3,2.1,0.98,0.37,1.3,0.97,0.95,0.14,0.38,3,-2,13,0.96,7078,9,86,41,35,901,397.0,441,463,60,127.0,118,1,298,200,47,0,0,386,-3968,8200,385,-5.59,,,,,,,,,,,,
144344,1564237536696,2,2.05,0.97,0.37,1.3,0.97,0.88,0.25,0.29,0,-0,11,0.92,7267,8,86,41,35,885,396.0,451,462,60,128.0,118,1,298,198,47,0,0,387,-32702,770,378,-5.59,44.681187,10.016863,39.03,180.0,0,0.0,-1,0.0,0.0,0,0.45,2.4057
144364,1564237536716,1,2.01,0.98,0.37,1.3,0.96,0.78,0.35,0.28,-2,0,7,0.86,7332,9,86,41,34,877,398.0,451,462,60,128.0,118,1,295,188,47,0,0,392,6384,-6656,373,-5.59,,,,,,,,,,,,
144384,1564237536736,0,1.99,0.98,0.37,1.31,0.97,0.72,0.52,0.21,-5,2,3,0.88,7352,8,86,41,33,868,399.0,461,460,60,129.0,139,1,292,181,52,0,0,398,28696,-6405,370,-5.59,,,,,,,,,,,,
144404,1564237536756,0,1.95,0.98,0.38,1.3,0.97,0.65,0.67,0.11,-8,1,-1,0.93,7364,1,86,41,33,857,402.0,480,462,60,129.0,139,1,292,179,52,0,0,403,10541,230,368,-5.59,,,,,,,,,,,,
144424,1564237536776,-2,1.92,0.97,0.37,1.29,0.97,0.67,0.75,0.09,-11,1,-4,1.01,7298,0,86,41,33,848,404.0,507,461,60,130.0,139,1,292,176,52,0,0,403,1504,-14707,363,-5.59,,,,,,,,,,,,
144444,1564237536796,-0,1.9,0.97,0.38,1.3,0.98,0.73,0.77,0.18,-14,-0,-9,1.06,7267,7,86,41,33,846,403.0,524,461,60,130.0,139,1,292,188,52,0,0,402,-8151,3082,361,-5.59,44.681187,10.016863,39.03,180.0,0,0.0,-1,0.0,0.0,0,0.45,2.4074
144464,1564237536808,3,1.89,0.97,0.37,1.3,0.98,0.8,0.76,0.22,-16,-0,-13,1.1,7178,10,86,41,33,844,403.0,538,457,60,129.0,139,1,292,185,52,0,0,402,-8151,-29978,358,-5.59,,,,,,,,,,,,
144484,1564237536828,0,1.89,0.97,0.37,1.3,0.98,0.75,0.89,0.16,-17,1,-15,1.16,7131,14,86,41,34,842,401.0,545,463,60,128.0,139,1,295,189,50,0,0,400,28696,-6640,358,-5.59,,,,,,,,,,,,
144504,1564237536848,-2,1.88,0.97,0.37,1.3,0.98,0.68,1.0,0.09,-19,0,-17,1.21,7099,0,86,41,38,841,399.0,548,462,60,129.0,139,1,307,189,50,0,0,399,28696,4104,355,-5.59,,,,,,,,,,,,
144524,1564237536868,-0,1.88,0.98,0.37,1.31,0.97,0.75,0.95,0.19,-21,-1,-20,1.21,7062,0,86,41,46,840,399.0,553,461,60,129.0,139,1,362,215,50,0,0,399,28696,4104,355,-5.59,,,,,,,,,,,,
144544,1564237536888,2,1.89,0.97,0.37,1.3,0.97,0.84,0.95,0.31,-23,-1,-24,1.26,7140,67,86,41,59,841,397.0,562,462,60,128.0,139,1,416,318,50,0,0,804,-3968,3183,352,-5.59,44.681179,10.016856,38.07,180.0,0,0.0,-1,0.0,0.0,0,0.45,2.4091
144564,1564237536904,0,1.88,0.97,0.37,1.3,0.97,0.74,1.05,0.22,-24,-1,-27,1.29,7134,91,86,41,76,842,398.0,561,462,60,128.0,139,1,388,491,50,0,0,391,6384,2811,352,-5.59,,,,,,,,,,,,
144584,1564237536924,-1,1.87,0.98,0.37,1.3,0.97,0.7,1.07,0.18,-25,-1,-30,1.28,7091,100,86,41,89,843,399.0,560,460,60,129.0,404,1,380,578,142,0,0,396,28696,8841,351,-5.59,,,,,,,,,,,,
144604,1564237536944,3,1.87,0.97,0.38,1.3,0.97,0.83,1.0,0.25,-28,-2,-31,1.31,7046,100,86,41,92,843,397.0,560,465,60,128.0,404,1,374,608,142,0,0,397,-3968,2811,350,-5.59,,,,,,,,,,,,
144624,1564237536964,1,1.88,0.97,0.38,1.3,0.98,0.88,0.94,0.34,-29,-1,-32,1.29,7153,77,86,41,92,844,399.0,553,461,60,128.0,404,1,382,526,142,0,0,395,28696,6870,348,-5.59,,,,,,,,,,,,
144644,1564237536995,1,1.87,0.97,0.38,1.3,0.97,0.92,0.94,0.36,-30,-1,-35,1.32,7461,96,86,41,93,865,399.0,555,451,60,129.0,404,1,405,629,142,0,0,395,28696,8841,346,-5.59,44.681164,10.016847,36.35,180.0,0,0.0,-1,0.0,0.0,0,0.45,2.4107
144664,1564237537015,1,1.88,0.97,0.37,1.3,0.97,1.03,0.95,0.49,-32,-3,-39,1.4,7868,94,86,41,92,886,397.0,567,464,60,128.0,404,1,437,652,142,0,0,394,-3968,-10554,345,-5.59,,,,,,,,,,,,
144684,1564237537035,3,1.88,0.97,0.37,1.31,0.97,1.06,0.88,0.49,-33,-1,-42,1.38,8408,44,86,41,90,908,396.0,588,461,60,129.0,478,1,439,590,165,0,0,402,-32702,3082,344,-5.59,,,,,,,,,,,,
144704,1564237537055,-1,1.88,0.97,0.38,1.3,0.98,0.9,0.94,0.48,-34,1,-42,1.3,8733,82,86,41,88,929,399.0,613,460,60,128.0,478,1,426,711,165,0,0,413,28696,1,344,-5.59,,,,,,,,,,,,
144724,1564237537075,1,1.9,0.98,0.37,1.31,0.97,0.81,0.96,0.63,-35,3,-44,1.25,8997,100,86,41,87,1000,405.0,636,458,60,128.0,478,1,419,674,165,0,0,439,-9211,-28648,345,-5.59,,,,,,,,,,,,
144744,1564237537095,1,1.93,0.97,0.37,1.3,0.98,0.71,0.86,0.69,-36,5,-48,1.11,9259,100,86,41,87,1089,410.0,638,463,60,129.0,478,1,418,659,165,0,0,440,13040,2109,346,-5.59,44.681164,10.016847,36.35,180.0,0,0.0,-1,0.0,0.0,0,0.45,2.4124
144764,1564237537109,4,1.96,0.98,0.37,1.31,0.97,0.75,0.72,0.61,-37,3,-51,1.04,9370,100,86,41,86,1162,416.0,645,467,60,128.0,478,1,418,632,165,0,0,495,18584,-17956,347,-5.59,,,,,,,,,,,,
144784,1564237537129,3,2.02,0.98,0.37,1.31,0.97,0.84,0.7,0.52,-39,3,-53,1.09,9323,100,85,41,86,1229,423.0,646,465,60,127.0,637,1,418,612,223,0,0,526,3826,-9216,349,-5.59,,,,,,,,,,,,
144804,1564237537149,2,2.06,0.98,0.37,1.31,0.98,0.66,0.83,0.67,-40,3,-53,1.06,9412,99,85,41,86,1258,430.0,644,464,60,128.0,637,1,418,666,223,0,0,504,-3314,6274,352,-5.59,,,,,,,,,,,,
144824,1564237537169,3,2.11,0.97,0.38,1.3,0.97,0.59,0.91,0.8,-41,3,-54,1.08,9484,100,85,41,86,1273,431.0,648,459,60,128.0,637,1,418,651,223,0,0,502,1779,-4054,358,-5.59,,,,,,,,,,,,
144844,1564237537189,-1,2.17,0.98,0.37,1.31,0.97,0.58,0.84,0.62,-42,2,-54,1.02,9566,100,85,41,86,1255,432.0,643,465,60,128.0,637,1,414,638,223,0,0,518,-3322,-32248,362,-5.59,44.681152,10.016843,35.51,179.9,0,0.0,-1,0.0,0.0,0,0.45,2.4141
144864,1564237537201,3,2.22,0.99,0.38,1.31,0.98,0.66,0.88,0.75,-43,-1,-56,1.11,9730,100,85,41,85,1203,438.0,650,465,60,128.0,637,1,408,628,223,0,0,523,21580,10408,361,-5.59,,,,,,,,,,,,
144884,1564237537221,2,2.28,0.99,0.38,1.32,0.97,0.58,0.65,0.67,-43,-1,-57,0.87,9889,97,85,41,85,1151,441.0,656,467,60,128.0,620,1,401,600,224,0,0,539,26704,-32248,361,-5.59,,,,,,,,,,,,
144904,1564237537241,2,2.35,0.98,0.38,1.32,0.98,0.65,0.64,0.68,-43,-3,-57,0.91,10032,97,85,41,85,1099,443.0,653,462,60,128.0,620,1,397,581,224,0,0,546,-18341,2104,361,-5.59,,,,,,,,,,,,
144924,1564237537261,3,2.4,0.99,0.38,1.32,0.98,0.71,0.78,0.78,-42,-4,-57,1.05,10212,100,85,41,84,1071,444.0,658,460,60,128.0,620,1,409,549,224,0,0,553,-18341,6274,385,-5.59,,,,,,,,,,,,
144944,1564237537297,4,2.45,0.99,0.38,1.31,0.98,0.75,0.9,0.9,-41,-4,-55,1.17,10313,98,85,41,85,1071,447.0,655,463,60,127.0,620,1,417,567,224,0,0,555,10305,-2336,398,-5.59,44.681137,10.016842,39.57,179.9,0,0.0,-1,0.0,0.0,0,0.45,2.4157
144964,1564237537317,4,2.51,0.99,0.37,1.32,0.98,0.64,0.82,1.01,-39,-3,-52,1.04,10347,100,85,41,85,1070,446.0,655,462,60,127.0,620,1,421,567,224,0,0,553,16648,-22263,406,-5.59,,,,,,,,,,,,
144984,1564237537337,3,2.54,0.98,0.38,1.32,0.99,0.67,0.75,1.09,-37,-2,-49,1.01,10439,100,85,41,85,1067,446.0,664,466,60,127.0,546,1,426,567,222,0,0,542,16648,-18032,416,-5.59,,,,,,,,,,,,
145004,1564237537357,3,2.55,0.99,0.38,1.32,0.98,0.69,0.61,1.18,-34,-3,-46,0.92,10533,100,85,41,85,1065,447.0,661,458,60,128.0,546,1,431,659,222,0,0,555,10305,-32504,426,-5.59,,,,,,,,,,,,
145024,1564237537377,3,2.54,0.98,0.38,1.32,0.98,0.69,0.68,1.26,-31,-3,-42,0.97,10416,100,85,41,85,1063,450.0,656,466,60,128.0,546,1,425,640,222,0,0,571,-3267,-8962,435,-5.59,,,,,,,,,,,,
145044,1564237537397,3,2.55,0.98,0.38,1.32,0.99,0.61,0.69,1.27,-28,-1,-37,0.92,10492,100,85,41,85,1064,452.0,653,465,60,128.0,546,1,430,625,222,0,0,547,-6387,-28648,451,-5.59,44.681137,10.016842,39.57,179.9,0,0.0,-1,0.0,0.0,0,0.45,2.4174
145064,1564237537409,3,2.53,0.99,0.38,1.32,0.98,0.49,0.63,1.31,-23,1,-32,0.8,10445,99,85,41,85,1069,460.0,662,461,60,128.0,546,1,427,610,222,0,0,553,-26615,1780,460,-5.59,,,,,,,,,,,,
145084,1564237537429,2,2.52,0.99,0.38,1.32,0.98,0.42,0.41,1.38,-19,2,-29,0.59,10359,98,85,41,85,1073,469.0,658,460,60,127.0,520,1,421,591,239,0,0,562,-18108,-32248,469,-5.59,,,,,,,,,,,,
145104,1564237537449,2,2.5,0.99,0.38,1.32,0.99,0.37,0.21,1.41,-15,1,-25,0.42,10336,100,85,41,85,1080,477.0,654,465,60,128.0,520,1,419,576,239,0,0,563,-23623,-3082,478,-5.59,,,,,,,,,,,,
145124,1564237537469,1,2.45,0.99,0.38,1.32,0.98,0.36,0.16,1.4,-11,1,-20,0.4,10257,100,85,41,85,1080,488.0,650,463,60,128.0,520,1,413,567,239,0,0,553,243,-506,488,-5.59,,,,,,,,,,,,
145144,1564237537489,4,2.41,0.98,0.38,1.32,0.99,0.47,0.19,1.3,-8,1,-15,0.51,10229,100,85,41,85,1068,496.0,654,458,60,128.0,520,1,411,549,239,0,0,542,8488,-2934,496,-5.59,44.681122,10.016843,42.46,179.9,0,0.0,-1,0.0,0.0,0,0.45,2.4191
145164,1564237537503,4,2.36,0.99,0.38,1.32,0.98,0.48,0.33,1.37,-5,-2,-10,0.58,10129,100,85,41,85,1055,501.0,652,467,60,127.0,520,1,404,567,239,0,0,538,-23367,2524,501,-5.59,,,,,,,,,,,,
145184,1564237537523,0,2.34,0.99,0.38,1.32,0.98,0.27,0.32,1.21,-2,-1,-7,0.42,10026,100,85,41,85,1036,507.0,650,467,60,128.0,432,1,400,567,218,0,0,553,-10483,-8962,507,-5.59,,,,,,,,,,,,
145204,1564237537543,-0,2.36,0.99,0.38,1.32,0.99,0.27,0.16,1.21,-0,-1,-7,0.31,10069,100,85,41,85,1020,508.0,650,465,60,128.0,432,1,400,567,218,0,0,544,-1818,1779,509,-5.59,,,,,,,,,,,,
145224,1564237537563,3,2.43,0.99,0.38,1.32,0.99,0.34,0.23,1.21,1,-5,-4,0.42,10069,100,85,41,85,1008,511.0,653,463,60,128.0,432,1,400,567,218,0,0,550,-9216,2524,513,-5.59,,,,,,,,,,,,
145244,1564237537597,1,2.49,0.99,0.39,1.33,0.98,0.29,0.13,1.17,4,-4,-4,0.31,10135,100,85,41,85,997,517.0,651,467,60,128.0,432,1,408,567,218,0,0,552,6274,-2336,517,-5.59,44.681103,10.016847,48.69,179.9,0,0.0,-1,0.0,0.0,0,0.46,2.4207
145264,1564237537617,2,2.54,1.0,0.38,1.32,0.99,0.25,-0.08,1.11,6,-2,-4,0.27,10273,100,85,41,85,1003,523.0,650,461,60,127.0,432,1,414,567,218,0,0,553,-3414,-8962,523,-5.59,,,,,,,,,,,,
145284,1564237537637,4,2.57,0.99,0.38,1.33,0.99,0.19,-0.27,1.17,8,-3,-2,0.33,10341,99,85,41,85,1010,531.0,652,462,60,127.0,409,1,424,567,214,0,0,578,-21872,-28648,531,-5.59,,,,,,,,,,,,
145304,1564237537657,2,2.54,0.99,0.38,1.32,0.98,0.21,-0.41,1.25,10,1,-1,0.46,10569,100,85,41,85,1016,534.0,649,463,60,127.0,409,1,432,567,214,0,0,568,10994,-9072,534,-5.59,,,,,,,,,,,,
145324,1564237537677,3,2.49,0.99,0.38,1.33,0.99,0.24,-0.52,1.32,12,3,0,0.57,10671,100,85,41,84,1022,541.0,652,463,60,128.0,409,1,434,549,214,0,0,559,17136,774,541,-5.59,,,,,,,,,,,,
145344,1564237537693,1,2.44,0.98,0.38,1.32,0.99,0.31,-0.5,1.39,14,6,3,0.59,10800,100,85,41,84,1021,551.0,651,465,60,126.0,409,1,437,549,214,0,0,586,16383,259,551,-5.59,44.681091,10.016849,51.57,179.9,0,0.0,-1,0.0,0.0,0,0.46,2.4224
145364,1564237537713,1,2.38,0.99,0.38,1.31,0.99,0.31,-0.52,1.2,15,6,7,0.61,10971,100,85,41,84,1021,558.0,658,463,60,127.0,409,1,442,549,214,0,0,595,10408,15649,557,-5.59,,,,,,,,,,,,
145384,1564237537733,4,2.37,0.98,0.38,1.32,0.99,0.33,-0.59,1.28,15,6,8,0.67,11029,100,85,41,84,1012,560.0,664,462,60,127.0,411,1,443,549,229,0,0,586,2524,-32504,560,-5.59,,,,,,,,,,,,
145404,1564237537753,3,2.38,0.98,0.37,1.31,0.98,0.36,-0.55,1.22,14,4,11,0.65,11120,100,85,41,84,1003,563.0,658,466,60,127.0,411,1,442,549,229,0,0,582,1780,3472,563,-5.59,,,,,,,,,,,,
145424,1564237537773,2,2.4,0.98,0.37,1.31,0.98,0.42,-0.66,1.2,14,4,10,0.78,11214,100,85,41,84,994,563.0,663,466,60,127.0,411,1,442,549,229,0,0,579,2524,-3446,567,-5.59,,,,,,,,,,,,
145444,1564237537793,2,2.41,0.98,0.38,1.32,0.98,0.38,-0.64,1.27,15,3,10,0.74,11227,100,85,41,84,985,569.0,661,467,60,127.0,411,1,441,549,229,0,0,614,-32248,-3210,569,-5.59,44.681091,10.016849,51.57,179.9,0,0.0,-1,0.0,0.0,0,0.46,2.4241
145464,1564237537805,4,2.43,0.98,0.38,1.32,0.99,0.41,-0.73,1.32,15,3,10,0.83,11301,100,85,41,84,976,575.0,660,464,60,127.0,411,1,441,549,229,0,0,623,2524,5344,575,-5.59,,,,,,,,,,,,
145484,1564237537825,2,2.43,0.98,0.38,1.32,0.99,0.41,-0.6,1.21,14,1,12,0.73,11405,100,85,41,84,965,578.0,667,462,60,126.0,411,1,441,549,236,0,0,622,-32504,-23055,580,-5.59,,,,,,,,,,,,
145504,1564237537845,1,2.42,0.98,0.38,1.31,0.98,0.39,-0.55,1.25,14,3,13,0.68,11517,100,85,41,84,963,585.0,667,461,60,127.0,411,1,441,531,236,0,0,598,-28648,26688,585,-5.59,,,,,,,,,,,,
145524,1564237537865,3,2.42,0.98,0.38,1.33,0.98,0.42,-0.67,1.32,14,3,13,0.79,11552,100,85,41,83,962,588.0,653,461,60,127.0,411,1,440,532,236,0,0,614,1780,17336,588,-5.59,,,,,,,,,,,,
145544,1564237537902,3,2.42,0.99,0.38,1.32,0.98,0.39,-0.65,1.18,15,2,14,0.76,11609,100,85,41,83,955,593.0,657,463,60,126.0,411,1,440,534,236,0,0,630,774,-16883,596,-5.59,44.681065,10.016851,56.16,179.9,0,0.0,-1,0.0,0.0,0,0.46,2.4257
145564,1564237537922,1,2.44,0.98,0.38,1.32,0.99,0.33,-0.54,1.04,16,1,15,0.63,11653,100,85,41,83,948,600.0,656,466,60,128.0,411,1,440,535,236,0,0,627,774,-16046,600,-5.59,,,,,,,,,,,,
145584,1564237537942,2,2.44,0.98,0.38,1.32,0.99,0.26,-0.46,1.09,17,1,16,0.53,11755,100,85,41,83,940,603.0,661,464,60,127.0,394,1,440,537,237,0,0,645,-3210,966,604,-5.59,,,,,,,,,,,,
145604,1564237537962,2,2.44,0.98,0.38,1.32,0.99,0.13,-0.45,1.08,17,1,17,0.47,11867,98,85,41,83,934,609.0,665,466,60,127.0,394,1,440,541,237,0,0,639,-16384,-2836,609,-5.59,,,,,,,,,,,,
145624,1564237537982,3,2.44,0.98,0.38,1.33,0.99,0.01,-0.41,1.02,18,2,18,0.41,11965,100,85,41,83,918,612.0,656,466,60,126.0,394,1,440,543,237,0,0,631,2048,-3038,612,-5.59,,,,,,,,,,,,
145644,1564237537992,3,2.43,0.99,0.38,1.33,0.98,-0.07,-0.32,1.04,19,3,18,0.33,12050,100,85,41,83,900,621.0,671,466,60,127.0,394,1,440,545,237,0,0,653,3472,16599,621,-5.59,44.681049,10.016851,58.52,179.9,0,0.0,-1,0.0,0.0,0,0.46,2.4274
145664,1564237538012,4,2.42,0.99,0.38,1.33,0.98,-0.14,-0.24,1.11,20,4,19,0.28,12128,100,85,41,83,887,622.0,671,467,60,126.0,394,1,440,545,237,0,0,648,-16179,4909,624,-5.59,,,,,,,,,,,,
145684,1564237538032,4,2.41,0.98,0.38,1.32,0.99,-0.11,-0.25,0.95,20,3,20,0.28,12207,100,85,41,83,876,627.0,668,466,60,127.0,402,1,440,545,251,0,0,654,30227,11776,628,-5.59,,,,,,,,,,,,
145704,1564237538052,4,2.41,0.99,0.38,1.32,0.99,-0.03,-0.43,0.99,19,3,19,0.43,12311,100,85,41,83,858,631.0,678,468,60,127.0,402,1,440,545,251,0,0,650,-7939,31988,631,-5.59,,,,,,,,,,,,
145724,1564237538072,2,2.4,0.99,0.39,1.32,0.99,0.1,-0.52,1.09,19,4,19,0.53,12359,100,85,41,83,837,634.0,669,467,60,127.0,402,1,440,545,251,0,0,663,1010,-388,634,-5.59,,,,,,,,,,,,
145744,1564237538092,3,2.4,0.98,0.39,1.32,1.0,0.06,-0.45,1.0,18,4,19,0.45,12409,100,85,41,83,821,640.0,679,459,60,127.0,402,1,440,545,251,0,0,653,269,3543,640,-5.59,44.681049,10.016851,58.52,179.9,0,0.0,-1,0.0,0.0,0,0.46,2.4291
145764,1564237538106,2,2.4,0.99,0.38,1.32,0.99,0.09,-0.35,0.96,17,2,19,0.36,12400,100,85,41,83,811,643.0,681,463,60,127.0,402,1,440,545,251,0,0,676,19320,31988,643,-5.59,,,,,,,,,,,,
145784,1564237538126,1,2.39,0.99,0.39,1.32,0.99,0.23,-0.46,0.95,16,0,19,0.52,12433,100,85,41,83,798,648.0,679,460,60,127.0,399,1,440,545,257,0,0,674,3395,3543,648,-5.59,,,,,,,,,,,,
145804,1564237538146,-0,2.4,0.99,0.38,1.33,0.99,0.23,-0.59,1.02,16,0,19,0.63,12525,100,85,41,83,783,648.0,681,457,60,127.0,399,1,440,545,257,0,0,667,966,-2345,648,-5.59,,,,,,,,,,,,
145824,1564237538166,1,2.39,0.98,0.38,1.33,1.0,0.19,-0.59,1.06,16,-0,18,0.62,12311,100,86,41,83,774,654.0,674,458,60,130.0,399,1,440,536,257,0,0,665,-2836,-26892,654,-5.59,,,,,,,,,,,,
145844,1564237538202,-1,2.4,0.99,0.38,1.33,0.99,0.25,-0.72,1.12,15,-1,17,0.76,11762,100,86,41,84,772,654.0,668,456,60,129.0,399,1,440,555,257,0,0,655,16599,31988,654,-5.59,44.681019,10.016849,63.08,179.9,0,0.0,-1,0.0,0.0,0,0.46,2.4307
145864,1564237538222,0,2.39,0.99,0.38,1.32,0.99,0.37,-0.65,0.81,14,-7,17,0.75,11405,100,86,41,85,770,654.0,657,458,60,128.0,399,1,441,567,257,0,0,646,16599,-30207,654,-5.59,,,,,,,,,,,,
145884,1564237538242,-2,2.39,0.99,0.39,1.32,0.99,0.54,-0.75,0.92,14,-6,15,0.92,11268,100,86,41,85,767,654.0,630,458,60,129.0,373,1,443,567,244,0,0,646,24,-30207,654,-5.59,,,,,,,,,,,,
145904,1564237538262,2,2.38,0.98,0.39,1.32,1.0,0.51,-0.56,0.68,13,-6,17,0.76,11016,100,86,41,86,765,651.0,655,457,60,128.0,373,1,445,585,244,0,0,642,-3584,8958,651,-5.59,,,,,,,,,,,,
145924,1564237538282,3,2.37,1.0,0.38,1.33,0.99,0.42,-0.5,0.42,12,-8,22,0.65,10806,100,86,41,87,765,653.0,666,458,60,127.0,373,1,440,1049,244,0,0,646,-3584,-6006,653,-5.59,,,,,,,,,,,,
145944,1564237538298,2,2.37,0.98,0.39,1.32,0.99,0.35,-0.52,0.58,12,-2,19,0.63,10557,100,85,41,87,812,654.0,661,462,60,125.0,373,1,434,944,244,0,0,644,4909,6208,654,-5.59,44.681004,10.016845,64.57,179.9,0,0.0,-1,0.0,0.0,0,0.47,2.4324
145964,1564237538318,4,2.36,0.99,0.38,1.32,0.99,0.44,-0.47,0.72,11,1,20,0.64,10069,100,85,41,86,929,663.0,656,465,60,125.0,373,1,400,812,244,0,0,820,-6006,-31066,663,-5.59,,,,,,,,,,,,
145984,1564237538338,2,2.37,0.99,0.38,1.32,0.99,0.45,-0.41,0.8,12,2,20,0.61,10000,100,85,41,85,1045,673.0,654,463,60,126.0,442,1,395,711,295,0,0,745,-3488,-13068,670,-5.59,,,,,,,,,,,,
146004,1564237538358,1,2.36,0.98,0.38,1.32,1.0,0.47,-0.5,0.81,12,4,19,0.69,10059,100,86,41,85,1163,677.0,651,465,60,127.0,442,1,396,591,295,0,0,675,-26380,204,677,-5.59,,,,,,,,,,,,
146024,1564237538378,1,2.36,0.99,0.39,1.32,0.99,0.47,-0.48,0.92,13,5,17,0.67,9704,100,86,41,85,1274,678.0,643,459,60,128.0,442,1,409,563,295,0,0,714,3543,204,678,-5.59,,,,,,,,,,,,
146044,1564237538398,4,2.35,0.98,0.38,1.33,0.99,0.48,-0.46,0.91,12,3,16,0.67,9436,100,86,41,86,1366,683.0,640,455,60,128.0,442,1,418,561,295,0,0,729,1549,-12152,683,-5.59,44.681004,10.016845,64.57,179.9,0,0.0,-1,0.0,0.0,0,0.47,2.4341
146064,1564237538410,2,2.36,0.99,0.38,1.33,0.98,0.63,-0.47,0.62,11,-1,15,0.79,9422,100,86,41,85,1441,685.0,634,463,60,126.0,442,1,418,561,295,0,0,706,-2345,-13312,689,-5.59,,,,,,,,,,,,
146084,1564237538430,2,2.35,0.99,0.38,1.32,0.99,0.68,-0.5,0.54,10,-3,14,0.84,9541,100,86,41,86,1415,688.0,646,458,60,127.0,295,1,417,562,204,0,0,707,-2345,204,688,-5.59,,,,,,,,,,,,
146104,1564237538450,-0,2.35,0.99,0.38,1.32,0.99,0.62,-0.45,0.69,9,-2,14,0.76,9709,88,86,41,85,1374,690.0,647,463,60,127.0,295,1,409,677,204,0,0,722,16599,-3450,690,-5.59,,,,,,,,,,,,
146124,1564237538470,2,2.36,0.99,0.38,1.32,0.99,0.65,-0.38,0.78,8,-2,13,0.76,9863,100,85,40,85,1279,693.0,656,462,60,127.0,295,1,402,652,204,0,0,720,24,1524,694,-5.59,,,,,,,,,,,,
146144,1564237538490,1,2.35,0.99,0.38,1.32,0.98,0.47,-0.42,0.9,8,-0,11,0.63,10000,100,86,40,85,1184,701.0,657,462,60,127.0,295,1,398,640,204,0,0,718,-2830,-2314,701,-5.59,44.680984,10.016841,64.85,179.9,0,0.0,-1,0.0,0.0,0,0.47,2.4357
146164,1564237538505,0,2.34,0.98,0.38,1.33,0.98,0.43,-0.37,0.9,8,1,10,0.57,10113,100,86,40,85,1114,706.0,655,463,60,127.0,295,1,403,625,204,0,0,744,24,-2826,706,-5.59,,,,,,,,,,,,
146184,1564237538525,3,2.34,0.99,0.38,1.32,1.0,0.53,-0.3,0.98,7,0,11,0.61,10091,100,86,40,85,1044,710.0,651,462,60,127.0,337,1,402,605,238,0,0,735,19188,-22796,711,-5.59,,,,,,,,,,,,
146204,1564237538545,3,2.35,0.98,0.38,1.32,0.99,0.53,-0.3,1.01,8,1,10,0.61,10091,100,86,40,84,982,717.0,651,460,60,127.0,337,1,401,591,238,0,0,744,687,136,715,-5.59,,,,,,,,,,,,
146224,1564237538565,-0,2.34,0.99,0.38,1.32,1.0,0.51,-0.42,0.97,7,2,8,0.65,10064,100,86,40,85,918,720.0,651,463,60,128.0,337,1,396,576,238,0,0,744,-3888,-2314,720,-5.59,,,,,,,,,,,,
146244,1564237538600,4,2.34,0.99,0.38,1.32,0.98,0.59,-0.39,0.95,6,-0,9,0.7,10026,100,86,40,84,923,721.0,649,458,60,127.0,337,1,396,567,238,0,0,743,204,-30694,721,-5.59,44.680954,10.01683,69.47,179.9,0,0.0,-1,0.0,0.0,0,0.47,2.4374
146264,1564237538620,3,2.32,0.99,0.38,1.31,0.99,0.73,-0.38,0.96,6,-2,8,0.83,10096,100,86,40,84,930,724.0,651,463,60,127.0,337,1,401,567,238,0,0,743,-23490,-23308,724,-5.59,,,,,,,,,,,,
146284,1564237538640,2,2.32,0.98,0.37,1.32,0.99,0.67,-0.53,0.92,5,-2,6,0.86,10140,100,86,40,84,931,727.0,651,466,60,128.0,288,1,402,549,210,0,0,752,-25858,-31068,729,-5.59,,,,,,,,,,,,
146304,1564237538660,3,2.31,0.98,0.37,1.32,0.98,0.54,-0.46,0.9,4,-1,6,0.71,10184,100,86,40,85,932,731.0,656,462,60,127.0,288,1,408,567,210,0,0,751,-13580,-4096,731,-5.59,,,,,,,,,,,,
146324,1564237538680,2,2.32,0.99,0.38,1.32,0.99,0.5,-0.26,0.8,4,-2,6,0.56,10324,100,86,40,84,927,734.0,664,460,60,127.0,288,1,417,549,210,0,0,764,-22796,-30694,734,-5.59,,,,,,,,,,,,
146344,1564237538694,1,2.32,0.99,0.38,1.32,0.99,0.41,-0.06,0.68,4,-3,7,0.42,10399,100,86,40,84,921,738.0,661,458,60,128.0,288,1,423,549,210,0,0,759,-2830,-10218,739,-5.59,44.680939,10.016825,71.94,179.9,0,0.0,-1,0.0,0.0,0,0.47,2.4391
146364,1564237538714,1,2.33,0.99,0.38,1.32,0.99,0.39,0.1,0.63,4,-2,7,0.4,10504,100,86,40,84,924,741.0,665,461,60,128.0,288,1,430,549,210,0,0,771,-2314,-2344,745,-5.59,,,,,,,,,,,,
146384,1564237538734,1,2.33,0.99,0.37,1.32,0.98,0.44,0.27,0.54,5,-2,7,0.52,10486,100,86,40,84,927,746.0,663,460,60,128.0,292,1,429,549,218,0,0,771,-2826,5876,746,-5.59,,,,,,,,,,,,
146404,1564237538754,2,2.32,0.99,0.38,1.31,0.99,0.4,0.44,0.37,5,-3,8,0.6,10563,100,86,40,84,936,748.0,667,462,60,128.0,292,1,431,549,218,0,0,779,136,-2830,748,-5.59,,,,,,,,,,,,
146424,1564237538774,2,2.32,0.99,0.38,1.32,0.98,0.31,0.55,0.23,5,-3,9,0.63,10551,100,86,40,84,946,756.0,662,463,60,128.0,292,1,431,549,218,0,0,777,-3450,7413,754,-5.59,,,,,,,,,,,,
146444,1564237538794,2,2.32,0.99,0.38,1.32,0.98,0.28,0.56,0.23,5,-2,8,0.62,10635,100,86,40,84,957,756.0,658,463,60,128.0,292,1,433,549,218,0,0,777,-22795,-2574,760,-5.59,44.680939,10.016825,71.94,179.9,0,0.0,-1,0.0,0.0,0,0.48,2.4407
146464,1564237538808,2,2.31,0.99,0.38,1.32,0.99,0.21,0.52,0.16,5,-3,8,0.56,10599,100,86,40,84,967,763.0,660,463,60,128.0,292,1,432,549,218,0,0,788,-3038,-10216,762,-5.59,,,,,,,,,,,,
146484,1564237538828,3,2.31,0.98,0.38,1.32,0.99,0.22,0.31,0.34,4,-2,5,0.38,10708,100,86,40,84,970,763.0,662,464,60,128.0,290,1,435,549,221,0,0,790,6389,11277,762,-5.59,,,,,,,,,,,,
146504,1564237538848,2,2.32,0.99,0.38,1.31,0.99,0.31,0.08,0.5,3,0,3,0.32,10757,100,86,40,84,970,768.0,667,458,60,127.0,290,1,436,549,221,0,0,797,-2826,-1566,768,-5.59,,,,,,,,,,,,
146524,1564237538868,2,2.32,0.98,0.38,1.32,0.99,0.39,0.1,0.61,3,-0,3,0.4,10775,100,86,40,84,974,772.0,665,466,60,127.0,290,1,437,549,221,0,0,793,7413,-7436,772,-5.59,,,,,,,,,,,,
146544,1564237538888,1,2.31,0.99,0.38,1.32,0.98,0.37,0.24,0.57,3,-1,5,0.44,10875,81,86,40,83,980,774.0,671,463,60,127.0,290,1,438,531,221,0,0,800,-3368,-30694,774,-5.59,44.68092,10.016818,73.63,179.9,0,0.0,-1,0.0,0.0,0,0.48,2.4424
146564,1564237538901,3,2.3,0.98,0.37,1.32,0.99,0.31,0.34,0.35,2,-2,5,0.46,10888,57,86,40,77,985,781.0,674,465,60,127.0,290,1,441,485,221,0,0,806,-31066,-2830,781,-5.59,,,,,,,,,,,,
146584,1564237538921,9,2.3,0.99,0.38,1.32,0.98,0.35,0.11,0.52,2,-1,2,0.37,10907,38,86,40,67,991,782.0,671,458,60,128.0,249,1,449,440,195,0,0,803,-2826,-2560,782,-5.59,,,,,,,,,,,,
146604,1564237538941,14,2.29,0.99,0.38,1.32,0.99,0.46,-0.1,0.66,1,0,-0,0.47,10677,24,86,40,58,994,780.0,668,460,60,128.0,249,1,428,355,195,0,0,800,-22795,-2560,780,-5.59,,,,,,,,,,,,
146624,1564237538961,18,2.29,0.99,0.37,1.32,0.99,0.57,-0.21,0.65,0,-2,-1,0.6,10364,12,86,40,49,996,776.0,662,465,60,127.0,249,1,385,274,195,0,0,794,-23308,6905,776,-5.59,,,,,,,,,,,,
146644,1564237538997,19,2.29,0.99,0.37,1.31,0.99,0.56,-0.1,0.63,-0,-4,-1,0.57,10064,10,86,40,43,995,772.0,662,462,60,127.0,249,1,350,231,195,0,0,776,-10212,-22795,769,-5.59,44.680885,10.016805,76.92,179.9,0,0.0,-1,0.0,0.0,0,0.48,2.4441
146664,1564237539017,21,2.28,0.99,0.37,1.32,0.98,0.71,-0.13,0.64,-1,-6,-2,0.72,9884,9,86,40,40,991,770.0,660,461,60,127.0,249,1,327,216,195,0,0,766,-2570,13016,763,-5.59,,,,,,,,,,,,
146684,1564237539037,18,2.27,0.98,0.37,1.3,0.98,0.69,-0.05,0.54,-2,-6,-2,0.69,9699,9,86,40,38,971,766.0,655,465,60,127.0,103,1,317,209,79,0,0,759,-2826,136,762,-5.59,,,,,,,,,,,,
146704,1564237539057,20,2.28,0.98,0.36,1.31,0.97,0.62,-0.01,0.38,-2,-3,-2,0.62,9441,1,86,40,36,933,770.0,656,461,60,127.0,103,1,311,202,79,0,0,756,-2570,-13068,757,-5.59,,,,,,,,,,,,
146724,1564237539077,20,2.28,0.98,0.37,1.3,0.98,0.7,-0.0,0.36,-3,-5,-2,0.7,9282,2,86,40,35,898,769.0,653,465,60,128.0,103,1,308,199,79,0,0,746,-2344,-2314,756,-5.59,,,,,,,,,,,,
146744,1564237539091,20,2.28,0.98,0.37,1.3,0.98,0.83,-0.0,0.47,-4,-4,-2,0.83,9241,0,86,40,33,865,765.0,651,468,60,128.0,103,1,302,192,79,0,0,726,-2344,-23490,754,-5.59,44.680866,10.016799,77.46,180.0,0,0.0,-1,0.0,0.0,0,0.48,2.4457
146764,1564237539111,14,2.29,0.98,0.37,1.3,0.97,0.91,0.09,0.39,-4,-3,-3,0.92,9295,8,86,40,32,838,755.0,650,468,60,127.0,103,1,300,190,79,0,0,728,-31066,-388,746,-5.59,,,,,,,,,,,,
146784,1564237539131,5,2.28,0.98,0.37,1.3,0.98,0.86,0.13,0.27,-4,-3,-4,0.87,9365,10,86,40,31,819,753.0,648,463,60,126.0,89,1,295,191,67,0,0,721,-31068,204,742,-5.59,,,,,,,,,,,,
146804,1564237539151,0,2.28,0.98,0.37,1.31,0.97,0.88,0.06,0.29,-5,-2,-5,0.88,9379,8,86,40,30,807,755.0,651,462,60,128.0,89,1,291,191,67,0,0,708,-3344,-23490,740,-5.59,,,,,,,,,,,,
146824,1564237539171,4,2.28,0.98,0.37,1.3,0.97,0.96,0.1,0.33,-5,0,-5,0.97,9407,2,86,40,30,821,749.0,650,463,60,128.0,89,1,291,190,67,0,0,728,-3344,-25858,742,-5.59,,,,,,,,,,,,
146844,1564237539191,6,2.28,0.99,0.36,1.31,0.97,1.02,0.24,0.29,-5,1,-5,1.05,9417,0,86,40,29,832,743.0,651,465,60,127.0,89,1,287,189,67,0,0,728,-22796,-2830,736,-5.59,44.680866,10.016799,77.46,180.0,0,0.0,-1,0.0,0.0,0,0.48,2.4474
146864,1564237539207,5,2.29,0.98,0.37,1.31,0.97,1.0,0.2,0.25,-5,0,-6,1.02,9403,9,86,40,28,834,741.0,650,461,60,127.0,89,1,282,189,67,0,0,724,-2356,-13312,729,-5.59,,,,,,,,,,,,
146884,1564237539227,11,2.29,0.98,0.37,1.31,0.98,1.0,0.11,0.23,-5,0,-7,1.01,9436,7,86,40,28,834,735.0,653,466,60,127.0,91,1,282,188,67,0,0,721,3462,-25858,726,-5.59,,,,,,,,,,,,
146904,1564237539247,17,2.29,0.99,0.37,1.31,0.97,1.07,0.2,0.2,-4,-1,-7,1.09,9455,6,86,40,28,823,726.0,655,460,60,127.0,91,1,282,188,67,0,0,705,-13580,-2560,718,-5.59,,,,,,,,,,,,
146924,1564237539267,15,2.29,0.98,0.36,1.31,0.98,1.03,0.25,0.1,-3,-3,-6,1.06,9508,8,86,40,27,812,715.0,656,463,60,128.0,91,1,278,208,67,0,0,693,-31068,16599,711,-5.59,,,,,,,,,,,,
146944,1564237539304,15,2.3,0.99,0.36,1.31,0.97,1.02,0.14,0.11,-3,-3,-7,1.03,9469,9,86,40,27,800,714.0,657,463,60,127.0,91,1,278,205,67,0,0,673,204,6208,709,-5.59,44.680828,10.016786,72.52,180.0,0,0.0,-1,0.0,0.0,0,0.49,2.4491
146964,1564237539324,19,2.28,0.98,0.37,1.31,0.97,1.08,0.11,0.21,-3,-3,-7,1.09,9351,9,86,40,27,788,710.0,653,462,60,127.0,91,1,278,201,67,0,0,679,-3888,6208,705,-5.59,,,,,,,,,,,,
146984,1564237539344,19,2.29,0.99,0.37,1.32,0.98,1.18,0.14,0.25,-4,-3,-7,1.18,9227,9,86,40,27,786,707.0,650,465,60,127.0,99,1,278,197,70,0,0,681,-20693,6208,700,-5.59,,,,,,,,,,,,
147004,1564237539364,17,2.3,0.99,0.37,1.32,0.98,1.26,0.2,0.19,-4,-3,-7,1.28,9097,9,86,40,26,787,701.0,642,463,60,129.0,99,1,274,192,70,0,0,671,24,-2830,693,-5.59,,,,,,,,,,,,
147024,1564237539384,17,2.29,0.99,0.37,1.31,0.98,1.34,0.3,0.18,-4,-4,-7,1.37,9027,9,86,40,26,798,697.0,641,461,60,129.0,99,1,274,189,70,0,0,671,12333,-10348,688,-5.59,,,,,,,,,,,,
147044,1564237539399,11,2.29,0.99,0.37,1.31,0.98,1.41,0.36,0.17,-4,-4,-6,1.45,8954,7,86,40,25,809,693.0,638,463,60,129.0,99,1,270,186,70,0,0,669,11576,-2830,681,-5.59,44.680809,10.01678,70.49,180.0,0,0.0,-1,0.0,0.0,0,0.49,2.4507
147064,1564237539419,3,2.29,0.98,0.37,1.31,0.97,1.43,0.42,0.21,-4,-5,-6,1.49,8945,8,86,40,25,821,690.0,638,464,60,128.0,99,1,270,185,70,0,0,662,-2830,-26380,682,-5.59,,,,,,,,,,,,
147084,1564237539439,5,2.28,0.99,0.37,1.31,0.98,1.49,0.42,0.24,-5,-5,-7,1.55,8920,9,86,40,25,833,688.0,638,460,60,128.0,91,1,270,185,62,0,0,654,16599,-2345,679,-5.59,,,,,,,,,,,,
147104,1564237539459,2,2.29,0.99,0.37,1.3,0.98,1.55,0.42,0.33,-5,-4,-8,1.6,8937,10,86,40,26,856,682.0,644,459,60,127.0,91,1,274,280,62,0,0,664,-10344,31988,677,-5.59,,,,,,,,,,,,
147124,1564237539479,3,2.28,0.99,0.37,1.32,0.98,1.59,0.43,0.38,-6,-5,-7,1.65,9079,9,86,40,26,877,683.0,647,464,60,126.0,91,1,274,260,62,0,0,664,3543,-3578,671,-5.59,,,,,,,,,,,,
147144,1564237539491,3,2.29,0.99,0.37,1.31,0.99,1.64,0.45,0.43,-6,-5,-7,1.7,9057,9,86,40,25,887,678.0,651,466,60,126.0,91,1,270,238,62,0,0,667,-2345,-3578,669,-5.59,44.680794,10.016776,67.46,180.0,0,0.0,-1,0.0,0.0,0,0.49,2.4524
147164,1564237539511,1,2.3,0.98,0.37,1.31,0.98,1.67,0.43,0.43,-6,-6,-8,1.73,8984,9,86,40,24,896,676.0,647,465,60,127.0,91,1,270,208,62,0,0,660,-2826,-27404,671,-5.59,,,,,,,,,,,,
147184,1564237539531,3,2.3,0.99,0.36,1.32,0.98,1.71,0.41,0.45,-5,-7,-8,1.76,8997,9,86,40,25,900,669.0,645,467,60,126.0,103,1,270,196,69,0,0,668,31988,-26380,666,-5.59,,,,,,,,,,,,
147204,1564237539551,2,2.29,0.99,0.37,1.32,0.99,1.74,0.41,0.47,-5,-7,-8,1.79,8979,9,86,40,26,903,670.0,645,462,60,127.0,103,1,274,185,69,0,0,652,-388,24583,662,-5.59,,,,,,,,,,,,
147224,1564237539571,3,2.3,0.98,0.37,1.32,0.99,1.77,0.36,0.51,-5,-8,-9,1.8,8941,8,86,40,26,899,665.0,645,463,60,127.0,103,1,274,185,69,0,0,653,3543,24583,661,-5.59,,,,,,,,,,,,
147244,1564237539591,11,2.28,0.99,0.37,1.32,0.98,1.79,0.36,0.48,-5,-7,-8,1.83,8886,8,86,40,26,893,665.0,642,462,60,127.0,103,1,274,185,69,0,0,654,3543,-2826,661,-5.59,44.680794,10.016776,67.46,180.0,0,0.0,-1,0.0,0.0,0,0.49,2.4541
147264,1564237539607,22,2.28,0.99,0.37,1.32,0.98,1.74,0.3,0.49,-5,-6,-9,1.76,8840,8,86,40,27,873,657.0,642,467,60,127.0,103,1,278,185,69,0,0,653,8958,-2830,651,-5.59,,,,,,,,,,,,
147284,1564237539627,26,2.27,0.99,0.37,1.31,0.98,1.58,0.32,0.4,-4,-6,-9,1.62,8802,8,86,40,27,851,648.0,641,462,60,126.0,95,1,278,185,62,0,0,634,4909,-2836,638,-5.59,,,,,,,,,,,,
147304,1564237539647,29,2.27,0.99,0.37,1.32,0.98,1.52,0.39,0.34,-5,-7,-9,1.56,8688,0,86,40,27,833,641.0,640,463,60,126.0,95,1,278,181,62,0,0,620,-3584,17336,633,-5.59,,,,,,,,,,,,
147324,1564237539667,26,2.26,0.99,0.37,1.31,0.98,1.57,0.31,0.32,-6,-9,-9,1.6,8499,5,86,40,27,817,636.0,640,466,60,127.0,95,1,278,184,62,0,0,609,-2580,269,626,-5.59,,,,,,,,,,,,
147344,1564237539703,28,2.26,0.99,0.37,1.32,0.98,1.6,0.19,0.37,-6,-10,-10,1.61,8285,5,86,40,28,821,636.0,633,465,60,127.0,95,1,280,174,62,0,0,601,-2580,-3210,621,-5.59,44.680763,10.016768,65.01,180.0,0,0.0,-1,0.0,0.0,0,0.49,2.4557
147364,1564237539723,24,2.26,1.0,0.37,1.31,0.97,1.39,0.19,0.34,-6,-5,-11,1.41,8106,8,86,40,28,831,630.0,633,462,60,127.0,95,1,279,167,62,0,0,589,966,208,618,-5.59,,,,,,,,,,,,
147384,1564237539743,25,2.27,0.99,0.37,1.32,0.98,1.31,0.22,0.28,-6,-2,-14,1.33,7988,7,86,40,28,852,623.0,627,467,60,128.0,46,1,278,160,50,0,0,3520,3395,12552,609,-5.59,,,,,,,,,,,,
147404,1564237539763,26,2.27,0.99,0.37,1.31,0.98,1.29,0.21,0.21,-6,-2,-13,1.31,8095,6,86,40,28,880,623.0,631,460,60,128.0,46,1,279,164,50,0,0,3520,3395,3826,607,-5.59,,,,,,,,,,,,
147424,1564237539783,23,2.29,0.99,0.37,1.32,0.99,1.3,0.24,0.18,-7,-2,-13,1.32,7921,6,86,40,29,922,619.0,631,464,60,128.0,46,1,281,160,50,0,0,3520,30721,-21944,599,-5.59,,,,,,,,,,,,
147444,1564237539799,20,2.3,0.98,0.37,1.31,0.99,1.37,0.26,0.17,-8,-2,-13,1.39,7884,5,86,40,28,969,611.0,628,463,60,128.0,46,1,277,161,50,0,0,3520,1010,-3414,595,-5.59,44.680748,10.016764,62.5,180.1,0,0.0,-1,0.0,0.0,0,0.5,2.4574
147464,1564237539819,19,2.3,0.98,0.37,1.31,0.98,1.34,0.22,0.17,-8,-1,-14,1.36,7861,7,86,40,28,1003,603.0,628,463,60,128.0,46,1,277,160,50,0,0,3520,-7939,-9166,586,-5.59,,,,,,,,,,,,
147484,1564237539839,16,2.31,0.98,0.37,1.31,0.98,1.28,0.2,0.17,-9,0,-16,1.3,7891,7,86,40,28,1022,599.0,623,463,60,128.0,80,1,277,160,47,0,0,3520,30227,-26615,581,-5.59,,,,,,,,,,,,
147504,1564237539859,12,2.31,0.99,0.37,1.31,0.98,1.25,0.17,0.11,-10,0,-15,1.26,7783,8,86,40,28,1044,599.0,618,463,60,127.0,80,1,276,160,47,0,0,389,30227,21580,576,-5.59,,,,,,,,,,,,
147524,1564237539879,11,2.31,0.99,0.36,1.32,0.98,1.25,0.16,0.11,-11,-1,-16,1.26,7697,7,86,40,28,1069,594.0,616,466,60,127.0,80,1,276,160,47,0,0,432,3472,21432,570,-5.59,,,,,,,,,,,,
147544,1564237539892,8,2.32,0.99,0.37,1.32,0.97,1.32,0.24,0.16,-11,-2,-17,1.34,7786,8,86,40,27,1085,589.0,622,462,60,128.0,80,1,273,160,47,0,0,448,2048,-6524,566,-5.59,44.680729,10.016761,59.68,180.0,0,0.0,-1,0.0,0.0,0,0.5,2.4591
147564,1564237539912,7,2.31,0.99,0.37,1.31,0.98,1.33,0.28,0.2,-12,-1,-17,1.36,7812,7,86,40,27,1091,581.0,625,465,60,128.0,80,1,274,160,47,0,0,435,8488,770,561,-5.59,,,,,,,,,,,,
147584,1564237539932,10,2.3,0.98,0.37,1.31,0.98,1.3,0.3,0.13,-13,-2,-18,1.33,7809,7,86,40,27,1088,579.0,623,463,60,129.0,84,1,274,160,47,0,0,440,243,-8151,555,-5.59,,,,,,,,,,,,
147604,1564237539952,8,2.3,0.98,0.36,1.31,0.98,1.28,0.27,0.07,-15,-1,-18,1.31,7822,7,86,40,27,1075,574.0,624,463,60,128.0,84,1,274,158,47,0,0,444,259,3635,551,-5.59,,,,,,,,,,,,
147624,1564237539972,6,2.31,0.99,0.37,1.31,0.97,1.29,0.29,0.07,-16,-2,-18,1.32,7864,8,86,40,27,1061,570.0,626,464,60,128.0,84,1,274,158,47,0,0,439,-3190,-9166,545,-5.59,,,,,,,,,,,,
147644,1564237539992,6,2.34,0.99,0.37,1.31,0.99,1.23,0.41,0.08,-16,-1,-18,1.3,7968,4,86,40,27,1043,567.0,624,463,60,129.0,84,1,275,158,47,0,0,464,1780,230,540,-5.59,44.680729,10.016761,59.68,180.0,0,0.0,-1,0.0,0.0,0,0.5,2.4607
147664,1564237540006,7,2.37,0.99,0.37,1.31,0.98,1.17,0.48,0.13,-16,0,-20,1.26,7951,8,86,40,26,1018,563.0,625,462,60,129.0,84,1,272,158,47,0,0,508,2211,-14714,537,-5.59,,,,,,,,,,,,
147684,1564237540026,4,2.41,0.99,0.36,1.32,0.97,1.19,0.52,0.09,-15,-0,-19,1.3,7968,6,86,40,27,983,558.0,630,463,60,128.0,88,1,275,158,47,0,0,521,-32504,-10554,535,-5.59,,,,,,,,,,,,
147704,1564237540046,5,2.43,0.99,0.37,1.32,0.98,1.12,0.55,0.16,-14,-0,-19,1.25,8029,7,86,40,26,951,555.0,627,463,60,128.0,88,1,272,159,47,0,0,512,-22263,4838,533,-5.59,,,,,,,,,,,,
147724,1564237540066,5,2.46,0.99,0.37,1.31,0.99,1.13,0.52,0.15,-12,0,-17,1.24,8016,8,86,40,26,933,548.0,625,464,60,128.0,88,1,272,157,47,0,0,504,-506,8841,533,-5.59,,,,,,,,,,,,
147744,1564237540103,3,2.48,0.99,0.37,1.32,0.98,1.19,0.56,0.2,-10,-0,-16,1.32,8002,7,86,40,26,914,539.0,624,463,60,128.0,88,1,272,159,47,0,0,501,-30064,-3866,531,-5.59,44.680706,10.016756,54.28,180.0,0,0.0,-1,0.0,0.0,0,0.5,2.4624
147764,1564237540123,5,2.47,1.0,0.37,1.33,0.99,1.11,0.56,0.17,-7,-1,-14,1.24,8106,7,86,40,26,891,531.0,631,463,60,128.0,88,1,273,163,47,0,0,460,2524,243,531,-5.59,,,,,,,,,,,,
147784,1564237540143,3,2.43,0.99,0.37,1.32,0.99,1.16,0.49,0.12,-5,-1,-10,1.26,8202,7,86,40,26,872,530.0,627,463,60,127.0,92,1,273,168,49,0,0,436,-22519,-32768,529,-5.59,,,,,,,,,,,,
147804,1564237540163,6,2.39,0.99,0.37,1.33,0.98,1.05,0.55,0.12,-4,0,-7,1.19,8256,7,86,40,25,867,530.0,633,466,60,129.0,92,1,270,171,49,0,0,441,16383,-899,526,-5.59,,,,,,,,,,,,
147824,1564237540183,5,2.35,0.99,0.37,1.32,0.99,1.15,0.52,0.18,-3,-2,-5,1.26,8385,7,86,40,25,863,525.0,636,465,60,127.0,92,1,270,179,49,0,0,488,-4054,12552,525,-5.59,,,,,,,,,,,,
147844,1564237540198,3,2.3,0.99,0.37,1.31,0.99,1.13,0.51,0.18,-2,-2,-3,1.24,8488,5,86,40,25,860,525.0,642,465,60,128.0,92,1,270,184,49,0,0,471,-21872,2524,520,-5.59,44.680687,10.016755,52.55,180.0,0,0.0,-1,0.0,0.0,0,0.5,2.4641
147864,1564237540218,7,2.25,0.99,0.37,1.31,0.98,1.07,0.51,0.14,-2,-1,-2,1.18,8546,7,86,40,25,856,518.0,641,461,60,128.0,92,1,270,185,49,0,0,469,-32248,3576,516,-5.59,,,,,,,,,,,,
147884,1564237540238,7,2.21,0.99,0.36,1.31,0.97,1.13,0.58,0.09,-2,-1,-2,1.27,8608,8,86,40,25,857,508.0,643,461,60,128.0,114,1,270,185,59,0,0,473,11560,-16384,509,-5.59,,,,,,,,,,,,
147904,1564237540258,4,2.19,0.98,0.37,1.3,0.97,1.22,0.5,0.1,-3,-1,-2,1.32,8600,7,86,40,25,858,501.0,641,464,60,128.0,114,1,270,178,59,0,0,483,10408,12552,501,-5.59,,,,,,,,,,,,
147924,1564237540278,5,2.16,0.98,0.36,1.31,0.97,1.15,0.43,0.09,-4,0,-3,1.23,8632,7,86,40,25,863,501.0,642,462,60,128.0,114,1,270,185,59,0,0,476,11560,-899,492,-5.59,,,,,,,,,,,,
147944,1564237540298,8,2.13,0.99,0.36,1.31,0.97,1.08,0.58,0.02,-6,2,-4,1.22,8648,7,86,40,25,867,502.0,640,463,60,128.0,114,1,270,185,59,0,0,484,15661,-16384,486,-5.59,44.680687,10.016755,52.55,180.0,0,0.0,-1,0.0,0.0,0,0.5,2.4657
147964,1564237540310,6,2.12,0.98,0.36,1.3,0.97,1.12,0.66,0.02,-8,1,-6,1.3,8688,8,86,40,25,870,500.0,638,462,60,128.0,114,1,270,185,59,0,0,478,10408,-16384,475,-5.59,,,,,,,,,,,,
147984,1564237540330,3,2.12,0.98,0.36,1.3,0.97,1.21,0.7,0.04,-10,-0,-7,1.4,8700,7,86,40,26,873,499.0,641,463,60,128.0,128,1,274,185,61,0,0,483,-22519,3571,471,-5.59,,,,,,,,,,,,
148004,1564237540350,3,2.12,0.97,0.36,1.3,0.98,1.23,0.59,0.06,-12,-1,-10,1.36,8737,2,86,40,26,880,499.0,648,463,60,128.0,128,1,274,185,61,0,0,483,-9216,-18341,465,-5.59,,,,,,,,,,,,
148024,1564237540370,-2,2.13,0.98,0.36,1.31,0.97,1.15,0.62,0.03,-14,-1,-13,1.31,8724,6,86,40,27,887,495.0,642,466,60,128.0,128,1,278,185,61,0,0,487,998,19477,463,-5.59,,,,,,,,,,,,
148044,1564237540390,1,2.13,0.98,0.37,1.3,0.98,1.05,0.76,0.06,-14,0,-14,1.29,8672,0,86,40,27,892,494.0,644,465,60,128.0,128,1,278,185,61,0,0,484,998,13552,460,-5.59,44.680679,10.016754,50.36,180.0,0,0.0,-1,0.0,0.0,0,0.51,2.4674
148064,1564237540406,2,2.12,0.98,0.36,1.31,0.98,1.13,0.85,0.06,-16,-1,-15,1.41,8581,5,86,40,27,896,492.0,641,458,60,127.0,128,1,278,185,61,0,0,488,-32768,-3322,457,-5.59,,,,,,,,,,,,
148084,1564237540426,0,2.11,0.98,0.36,1.31,0.97,1.09,0.66,-0.05,-17,-1,-17,1.28,8476,5,86,40,27,915,490.0,641,465,60,129.0,129,1,278,183,59,0,0,481,-1818,5600,457,-5.59,,,,,,,,,,,,
148104,1564237540446,3,2.12,0.98,0.37,1.31,0.98,1.05,0.73,0.09,-18,1,-20,1.28,8434,1,86,40,28,935,487.0,641,462,60,128.0,129,1,282,181,59,0,0,482,1,13180,454,-5.59,,,,,,,,,,,,
148124,1564237540466,1,2.13,0.98,0.36,1.31,0.97,1.1,0.74,0.12,-18,0,-21,1.32,8393,0,86,41,28,952,487.0,638,464,60,128.0,129,1,281,180,59,0,0,476,505,13180,452,-5.59,,,,,,,,,,,,
148144,1564237540502,0,2.11,0.98,0.36,1.31,0.97,0.99,0.74,0.04,-19,0,-22,1.23,8426,3,86,41,28,968,481.0,637,463,60,128.0,129,1,282,180,59,0,0,471,32033,3635,449,-5.59,44.680653,10.016754,46.71,180.1,0,0.0,-1,0.0,0.0,0,0.51,2.4691
148164,1564237540522,2,2.11,0.98,0.37,1.31,0.97,1.03,0.82,0.11,-20,-0,-24,1.32,8419,3,86,41,28,995,478.0,638,461,60,128.0,129,1,282,180,59,0,0,465,16648,243,447,-5.59,,,,,,,,,,,,
148184,1564237540542,-1,2.12,0.98,0.37,1.3,0.98,1.06,0.66,0.11,-20,-1,-25,1.25,8370,5,86,41,28,1027,476.0,633,464,60,128.0,125,1,282,177,56,0,0,466,-23367,31796,445,-5.59,,,,,,,,,,,,
148204,1564237540562,2,2.12,0.98,0.36,1.31,0.98,1.03,0.74,0.21,-20,-1,-26,1.27,8355,0,86,41,27,1048,473.0,637,462,60,129.0,125,1,277,177,56,0,0,463,3576,3635,442,-5.59,,,,,,,,,,,,
148224,1564237540582,-0,2.13,0.98,0.37,1.31,0.97,1.07,0.77,0.17,-21,-1,-26,1.32,8381,7,86,41,27,1064,473.0,632,465,60,128.0,125,1,277,177,56,0,0,464,8488,13180,441,-5.59,,,,,,,,,,,,
148244,1564237540598,4,2.12,0.98,0.36,1.32,0.98,0.96,0.85,0.13,-21,-0,-26,1.29,8366,2,86,41,27,1078,470.0,632,462,60,128.0,125,1,277,176,56,0,0,465,8488,3826,438,-5.59,44.680645,10.016757,45.53,180.1,0,0.0,-1,0.0,0.0,0,0.51,2.4707
148264,1564237540618,2,2.12,0.98,0.37,1.31,0.97,1.03,0.87,0.18,-21,-1,-28,1.35,8337,3,86,41,26,1092,468.0,630,462,60,128.0,125,1,273,174,56,0,0,459,-16384,13180,435,-5.59,,,,,,,,,,,,
148284,1564237540638,2,2.11,0.99,0.37,1.32,0.98,0.95,0.77,0.07,-22,-0,-28,1.23,8278,7,86,41,26,1098,466.0,632,465,60,129.0,123,1,273,172,54,0,0,458,-3210,31796,435,-5.59,,,,,,,,,,,,
148304,1564237540658,0,2.13,0.98,0.36,1.31,0.98,1.03,0.77,0.24,-22,-2,-29,1.29,8270,3,86,41,26,1095,464.0,636,462,60,127.0,123,1,273,172,54,0,0,459,16408,13552,433,-5.59,,,,,,,,,,,,
148324,1564237540678,2,2.12,0.98,0.37,1.31,0.98,0.99,0.68,0.22,-22,-1,-30,1.2,8274,6,86,41,25,1078,463.0,640,465,60,128.0,123,1,270,172,54,0,0,461,12552,3826,432,-5.59,,,,,,,,,,,,
148344,1564237540692,-0,2.13,0.98,0.36,1.31,0.97,1.08,0.74,0.34,-22,-2,-30,1.31,8230,8,87,41,25,1051,463.0,635,462,60,128.0,123,1,270,169,54,0,0,454,6193,3826,430,-5.59,44.68063,10.016759,44.08,180.1,0,0.0,-1,0.0,0.0,0,0.51,2.4724
148364,1564237540712,2,2.14,0.98,0.37,1.31,0.98,1.0,0.73,0.32,-21,-1,-31,1.24,8173,6,87,41,25,1026,459.0,640,464,60,128.0,123,1,270,166,54,0,0,454,-18108,3826,426,-5.59,,,,,,,,,,,,
148384,1564237540732,1,2.15,0.98,0.37,1.31,0.98,1.06,0.72,0.38,-22,-1,-31,1.28,8130,4,87,41,26,1001,457.0,638,461,60,128.0,119,1,273,166,51,0,0,447,-9160,3826,425,-5.59,,,,,,,,,,,,
148404,1564237540752,3,2.17,0.98,0.37,1.32,0.98,0.99,0.78,0.37,-21,-1,-30,1.26,8152,9,87,41,25,973,454.0,631,462,60,128.0,119,1,270,166,51,0,0,451,2524,-21792,426,-5.59,,,,,,,,,,,,
148424,1564237540772,1,2.2,0.98,0.37,1.31,0.98,1.06,0.71,0.41,-20,-3,-31,1.28,8092,3,87,41,26,940,454.0,633,464,60,127.0,119,1,273,161,51,0,0,445,2524,-8165,423,-5.59,,,,,,,,,,,,
148444,1564237540792,3,2.23,0.99,0.36,1.31,0.98,1.11,0.74,0.44,-19,-3,-30,1.34,8061,8,87,41,26,915,450.0,630,466,60,128.0,119,1,273,160,51,0,0,445,-3267,-3414,423,-5.59,44.68063,10.016759,44.08,180.1,0,0.0,-1,0.0,0.0,0,0.51,2.4741
148464,1564237540808,4,2.26,0.99,0.37,1.31,0.99,1.01,0.67,0.36,-18,-2,-29,1.22,8064,9,87,41,26,906,445.0,627,461,60,128.0,119,1,273,160,51,0,0,441,2131,18584,425,-5.59,,,,,,,,,,,,
148484,1564237540828,1,2.29,0.99,0.37,1.31,0.99,1.11,0.59,0.41,-16,-3,-28,1.26,8040,5,86,41,26,897,442.0,625,465,60,127.0,113,1,272,157,48,0,0,433,20625,-8165,424,-5.59,,,,,,,,,,,,
148504,1564237540848,2,2.33,0.99,0.37,1.32,0.99,1.14,0.56,0.43,-14,-3,-27,1.27,7958,9,86,41,26,887,438.0,621,464,60,128.0,113,1,272,157,48,0,0,434,21580,-3414,423,-5.59,,,,,,,,,,,,
148524,1564237540868,3,2.36,0.99,0.37,1.32,0.99,1.03,0.46,0.43,-12,-3,-26,1.13,7955,9,87,41,26,880,431.0,624,463,60,128.0,113,1,272,157,48,0,0,429,1779,-3414,425,-5.59,,,,,,,,,,,,
148544,1564237540888,3,2.38,0.99,0.38,1.33,0.98,1.03,0.46,0.39,-10,-3,-23,1.13,7874,9,87,41,27,879,428.0,623,462,60,128.0,113,1,274,158,48,0,0,420,-3314,-21792,426,-5.59,44.680622,10.016764,43.36,180.1,0,0.0,-1,0.0,0.0,0,0.51,2.4757
148564,1564237540904,2,2.4,0.99,0.37,1.32,0.98,1.09,0.42,0.41,-8,-3,-21,1.17,7845,9,86,41,27,879,427.0,624,464,60,127.0,113,1,274,158,48,0,0,416,-4082,13552,427,-5.59,,,,,,,,,,,,
148584,1564237540924,2,2.43,0.99,0.38,1.33,0.99,1.08,0.29,0.46,-6,-3,-19,1.12,7828,10,87,41,27,879,428.0,625,461,60,128.0,110,1,274,158,47,0,0,417,3826,13552,428,-5.59,,,,,,,,,,,,
148604,1564237540944,2,2.45,0.99,0.37,1.32,0.99,1.04,0.16,0.44,-4,-1,-15,1.06,7789,10,87,41,27,879,428.0,623,463,60,129.0,110,1,273,158,47,0,0,413,-21944,-4082,428,-5.59,,,,,,,,,,,,
148624,1564237540964,3,2.48,0.98,0.37,1.32,1.0,1.04,0.1,0.4,-2,-1,-13,1.04,7799,10,87,41,27,879,428.0,622,465,60,129.0,110,1,273,158,47,0,0,407,13040,3826,428,-5.59,,,,,,,,,,,,
148644,1564237540999,3,2.5,0.99,0.37,1.33,0.99,1.01,0.0,0.34,0,-2,-10,1.01,7776,10,87,41,27,879,429.0,618,463,60,129.0,110,1,273,158,47,0,0,407,-4059,31796,427,-5.59,44.680603,10.016774,42.13,180.1,0,0.0,-1,0.0,0.0,0,0.51,2.4774
148664,1564237541019,-2,2.52,1.0,0.38,1.32,1.0,1.0,-0.07,0.31,3,-2,-6,1.0,7722,10,86,41,27,879,428.0,617,463,60,128.0,110,1,273,160,47,0,0,403,-9211,-4082,428,-5.59,,,,,,,,,,,,
148684,1564237541039,-0,2.54,0.99,0.38,1.32,0.99,1.07,-0.1,0.38,5,-3,-3,1.07,7728,11,87,41,28,879,429.0,617,465,60,128.0,106,1,276,160,46,0,0,400,-8151,31796,429,-5.59,,,,,,,,,,,,
148704,1564237541059,1,2.55,1.0,0.37,1.33,0.99,1.07,-0.22,0.39,7,-3,-1,1.09,7697,10,87,41,28,880,429.0,611,463,60,129.0,106,1,276,160,46,0,0,392,10541,13552,427,-5.59,,,,,,,,,,,,
148724,1564237541079,1,2.57,0.99,0.38,1.33,1.0,1.03,-0.26,0.44,9,-3,3,1.06,7681,10,87,41,28,881,431.0,610,465,60,129.0,106,1,276,160,46,0,0,391,6384,13180,431,-5.59,,,,,,,,,,,,
148744,1564237541093,0,2.58,1.0,0.37,1.33,0.99,1.0,-0.34,0.41,11,-1,7,1.06,7609,10,87,41,28,883,429.0,607,463,60,129.0,106,1,276,160,46,0,0,388,6384,3635,429,-5.59,44.680592,10.016779,41.36,180.1,0,0.0,-1,0.0,0.0,0,0.51,2.4791
148764,1564237541113,1,2.6,1.0,0.37,1.33,1.0,0.95,-0.4,0.42,12,-1,9,1.03,7578,10,87,41,28,886,429.0,610,463,60,130.0,106,1,275,160,46,0,0,383,17144,3826,429,-5.59,,,,,,,,,,,,
148784,1564237541133,0,2.61,0.99,0.38,1.32,1.0,0.93,-0.51,0.4,14,-1,11,1.07,7509,10,87,41,28,889,426.0,605,462,60,130.0,105,1,275,160,45,0,0,377,-6656,-8165,426,-5.59,,,,,,,,,,,,
148804,1564237541153,0,2.64,0.99,0.37,1.32,0.99,0.91,-0.59,0.4,16,-0,15,1.09,7497,10,87,41,29,892,426.0,607,463,60,128.0,105,1,278,161,45,0,0,381,505,3826,426,-5.59,,,,,,,,,,,,
148824,1564237541173,1,2.65,0.99,0.37,1.33,1.0,0.88,-0.68,0.43,18,0,19,1.11,7440,9,87,41,29,898,427.0,602,462,60,128.0,105,1,278,161,45,0,0,374,-31744,-4082,427,-5.59,,,,,,,,,,,,
148844,1564237541193,-0,2.66,1.0,0.38,1.33,1.0,0.89,-0.76,0.5,19,-1,19,1.17,7422,9,87,41,29,903,427.0,600,462,60,129.0,105,1,278,161,45,0,0,362,240,3635,424,-5.59,44.680592,10.016779,41.36,180.1,0,0.0,-1,0.0,0.0,0,0.52,2.4807
148864,1564237541209,-1,2.67,1.0,0.38,1.33,0.99,0.92,-0.88,0.55,21,-1,20,1.27,7381,9,87,41,29,906,424.0,597,461,60,128.0,105,1,278,161,45,0,0,357,-19126,-3414,424,-5.59,,,,,,,,,,,,
148884,1564237541229,0,2.66,1.0,0.38,1.32,1.0,0.94,-0.98,0.58,22,-1,25,1.36,7327,10,87,41,30,908,424.0,596,463,60,129.0,105,1,282,163,45,0,0,352,19125,3826,424,-5.59,,,,,,,,,,,,
148904,1564237541249,4,2.67,0.99,0.38,1.33,1.0,0.98,-0.93,0.56,24,-2,28,1.36,7225,9,87,41,30,909,427.0,592,461,60,127.0,105,1,282,163,45,0,0,353,-18948,-8165,427,-5.59,,,,,,,,,,,,
148924,1564237541269,1,2.66,1.0,0.38,1.33,0.99,0.99,-0.89,0.51,26,-3,27,1.33,7178,10,87,41,30,910,425.0,586,461,60,128.0,105,1,281,163,45,0,0,348,-992,3826,425,-5.59,,,,,,,,,,,,
148944,1564237541289,1,2.66,1.0,0.38,1.34,0.99,0.98,-0.94,0.45,28,-3,29,1.36,7110,10,87,41,31,909,425.0,555,464,60,128.0,105,1,285,164,45,0,0,345,-6656,3826,425,-5.59,44.680584,10.016783,40.63,180.1,0,0.0,-1,0.0,0.0,0,0.52,2.4824
148964,1564237541305,-0,2.66,1.0,0.38,1.32,1.0,1.0,-1.01,0.45,29,-2,32,1.42,7038,10,87,41,31,907,424.0,431,462,60,128.0,105,1,285,164,45,0,0,339,3,-3414,424,-5.59,,,,,,,,,,,,
148984,1564237541325,1,2.67,0.99,0.38,1.33,1.0,1.02,-1.01,0.42,30,-2,35,1.43,7011,11,87,41,31,904,423.0,399,460,60,129.0,101,1,285,166,43,0,0,328,-6656,-8165,421,-5.59,,,,,,,,,,,,
149004,1564237541345,-1,2.67,1.0,0.38,1.34,0.99,0.96,-1.02,0.36,31,-1,37,1.4,6985,14,87,41,32,900,422.0,352,463,60,128.0,101,1,290,166,43,0,0,320,1,7154,422,-5.59,,,,,,,,,,,,
149024,1564237541365,2,2.67,0.99,0.38,1.33,1.0,1.02,-1.06,0.41,31,-4,37,1.47,6895,21,87,41,34,898,420.0,316,460,60,128.0,101,1,295,176,43,0,0,316,257,13040,420,-5.59,,,,,,,,,,,,
149044,1564237541385,0,2.66,1.0,0.37,1.33,0.99,1.0,-1.02,0.34,32,-3,38,1.43,6893,32,87,41,38,896,420.0,304,465,60,128.0,101,1,307,199,43,0,0,313,257,-4059,420,-5.59,44.680569,10.016785,40.48,180.2,0,0.0,-1,0.0,0.0,0,0.52,2.4841
149064,1564237541401,-1,2.66,1.0,0.38,1.33,0.99,0.97,-1.08,0.35,33,-2,38,1.45,6903,45,87,41,45,894,419.0,315,460,60,129.0,101,1,354,214,43,0,0,313,486,-26615,417,-5.59,,,,,,,,,,,,
149084,1564237541421,2,2.67,1.0,0.38,1.33,0.99,1.02,-1.1,0.32,33,-4,39,1.5,6900,61,87,41,56,893,417.0,288,462,60,128.0,139,1,397,262,58,0,0,315,486,-9166,417,-5.59,,,,,,,,,,,,
149104,1564237541441,-1,2.65,0.99,0.38,1.33,1.0,0.97,-1.17,0.32,34,-3,40,1.52,6873,74,87,41,69,894,416.0,284,464,60,127.0,139,1,386,317,58,0,0,310,0,-4059,416,-5.59,,,,,,,,,,,,
