"Interval"|"ms"|0|0|1,"Utc"|"ms"|0|0|1,"FB_p"|"bar"|0|300|50,"Volant"|"F"|0.0|300.0|50,"xFR"|"mm"|0.0|5.0|50,"xRR"|"mm"|0.0|5.0|50,"xFL"|"mm"|0.0|5.0|50,"xRL"|"mm"|0.0|5.0|50,"AccelX"|"G"|-3.0|3.0|50,"AccelY"|"G"|-3.0|3.0|50,"AccelZ"|"G"|-3.0|3.0|50,"Yaw"|"Deg/Sec"|-120|120|50,"Pitch"|"Deg/Sec"|-120|120|50,"Roll"|"Deg/Sec"|-120|120|50,"Gsum"|"G"|0.0|3.0|50,"RPM"|""|0|14000|50,"TPS"|"%"|0|100|50,"WaterTemp"|"?C"|0|300|50,"AirTemp"|"?C"|-1000|1000|50,"MAP"|"KPa"|0|255|50,"Lambda"|""|0|1024|50,"WheelSpeed"|"MPH"|0.0|150.0|50,"OilPress"|"PSI"|0|150|50,"FuelPress"|"PSI"|0|150|50,"OilTemp"|"F"|0|300|50,"Battery"|"Volts"|0.0|20.0|50,"FuelCon"|"L/h"|-1000|1000|50,"Gear"|""|0|10|50,"Advance"|"Deg"|-360|360|50,"Injection"|"ms"|-1000|1000|50,"FuelCon"|"L/100km"|-1000|1000|50,"LC_But_Pres"|""|-1000|1000|50,"LC_Active"|""|-1000|1000|50,"RD_Speed"|""|-1000|1000|50,"RUD_Speed"|""|-1000|1000|50,"LD_Speed"|""|-1000|1000|50,"LUD_Speed"|""|-1000|1000|50,"Ana1"|"bar"|-1000.0|1000.0|50,"Latitude"|"Degrees"|-180.0|180.0|10,"Longitude"|"Degrees"|-180.0|180.0|10,"Speed"|"kph"|0.0|150.0|10,"Altitude"|"m"|0.0|4000.0|10,"LapCount"|""|0|0|10,"LapTime"|"Min"|0.0|0.0|10,"Sector"|""|0|0|10,"SectorTime"|"Min"|0.0|0.0|10,"ElapsedTime"|"Min"|0.0|0.0|10,"CurrentLap"|""|0|0|10,"Distance"|"km"|0.0|0.0|10,"SessionTime"|"Min"|0.0|0.0|10
171663,1564236389989,2,2.4,1.07,0.43,1.51,1.13,0.54,-0.81,1.11,28,3,31,0.98,11852,95,78,37,83,997,562.0,659,468,60,127.0,511,1,440,639,285,0,0,649,-28648,11776,560,-5.59,,,,,,,,,,,,
171683,1564236390001,2,2.37,1.07,0.44,1.51,1.13,0.58,-0.86,1.19,30,3,32,1.03,12167,98,78,37,83,998,564.0,657,465,60,128.0,511,1,440,626,285,0,0,614,-21872,11776,564,-5.59,,,,,,,,,,,,
171703,1564236390021,1,2.33,1.07,0.44,1.5,1.13,0.62,-0.81,1.26,31,2,34,1.02,12270,96,78,37,82,997,566.0,654,461,60,127.0,511,1,440,628,285,0,0,668,-3482,4909,566,-5.59,,,,,,,,,,,,
171723,1564236390041,2,2.3,1.07,0.43,1.5,1.13,0.6,-0.72,1.34,32,1,37,0.94,12368,97,78,37,82,996,570.0,574,462,60,127.0,511,1,440,610,285,0,0,692,26178,-2830,571,-5.59,,,,,,,,,,,,
171743,1564236390061,4,2.25,1.07,0.43,1.5,1.12,0.61,-0.67,1.22,32,-1,39,0.91,12541,95,78,37,83,994,572.0,597,461,60,127.0,511,1,440,597,285,0,0,664,26178,-10348,572,-5.59,44.680401,10.017554,52.46,180.6,0,0.0,-1,0.0,0.0,0,0.67,2.8624
171763,1564236390081,0,2.22,1.06,0.44,1.5,1.13,0.66,-0.8,1.16,32,-0,40,1.04,12609,97,78,37,83,990,572.0,544,466,60,126.0,496,1,440,583,284,0,0,643,-9212,-2345,575,-5.59,,,,,,,,,,,,
171783,1564236390109,4,2.18,1.06,0.43,1.5,1.13,0.65,-0.84,1.0,33,-1,42,1.06,12617,96,78,37,82,958,577.0,558,461,60,127.0,496,1,440,550,284,0,0,691,2524,-2345,577,-5.59,,,,,,,,,,,,
171803,1564236390129,1,2.13,1.06,0.43,1.51,1.12,0.55,-0.81,0.95,33,1,41,0.97,12583,96,78,37,83,924,578.0,611,466,60,127.0,496,1,440,555,284,0,0,690,-32248,-3578,578,-5.59,,,,,,,,,,,,
171823,1564236390149,3,2.1,1.06,0.43,1.5,1.12,0.56,-0.79,1.05,33,3,40,0.97,12703,97,78,37,83,891,577.0,530,467,60,127.0,496,1,440,555,284,0,0,662,-2336,-10399,577,-5.59,,,,,,,,,,,,
171843,1564236390169,0,2.07,1.06,0.43,1.49,1.12,0.57,-0.65,0.78,31,0,39,0.87,12746,93,78,37,83,868,577.0,498,467,60,127.0,496,1,440,546,284,0,0,684,-8962,-26892,577,-5.59,44.680408,10.017544,53.64,180.6,0,0.0,-1,0.0,0.0,0,0.67,2.864
171863,1564236390189,2,2.06,1.06,0.43,1.5,1.12,0.59,-0.74,0.9,29,1,37,0.95,12772,95,78,37,83,835,577.0,556,473,60,127.0,464,1,440,546,269,0,0,683,2104,-2830,577,-5.59,,,,,,,,,,,,
171883,1564236390209,-0,2.05,1.06,0.43,1.49,1.12,0.54,-0.66,0.98,27,1,36,0.85,12851,97,78,37,83,792,575.0,573,469,60,127.0,464,1,440,555,269,0,0,679,-23623,-26892,575,-5.59,,,,,,,,,,,,
171903,1564236390229,3,2.05,1.05,0.43,1.49,1.12,0.5,-0.57,1.08,25,2,33,0.75,12824,80,78,37,83,779,577.0,547,467,60,127.0,464,1,440,540,269,0,0,687,-3190,-26562,578,-5.59,,,,,,,,,,,,
171923,1564236390249,2,2.08,1.05,0.42,1.49,1.12,0.56,-0.64,1.02,22,0,30,0.85,12833,99,78,37,83,775,581.0,525,466,60,127.0,464,1,440,635,269,0,0,688,30208,11576,581,-5.59,,,,,,,,,,,,
171943,1564236390269,5,2.11,1.06,0.43,1.49,1.11,0.43,-0.65,0.96,19,-0,28,0.78,12781,96,78,37,83,770,581.0,506,462,60,127.0,464,1,440,621,269,0,0,699,-16384,-26562,580,-5.59,44.680424,10.017535,55.43,180.5,0,0.0,-1,0.0,0.0,0,0.67,2.8657
171963,1564236390291,3,2.16,1.05,0.42,1.49,1.12,0.36,-0.73,1.02,18,1,23,0.82,12877,99,78,37,83,768,585.0,520,463,60,127.0,512,1,440,602,299,0,0,670,-25872,3543,583,-5.59,,,,,,,,,,,,
171983,1564236390311,3,2.21,1.06,0.43,1.5,1.11,0.36,-0.66,0.97,16,1,21,0.75,12860,99,78,37,83,765,589.0,521,468,60,127.0,512,1,440,583,299,0,0,693,-12040,-2345,588,-5.59,,,,,,,,,,,,
172003,1564236390331,3,2.23,1.06,0.43,1.5,1.12,0.36,-0.74,1.07,15,2,19,0.82,12755,98,78,37,83,765,592.0,529,470,60,126.0,512,1,440,559,299,0,0,698,-32504,-26380,592,-5.59,,,,,,,,,,,,
172023,1564236390351,2,2.26,1.05,0.43,1.5,1.12,0.37,-0.79,1.03,14,3,18,0.88,12798,99,78,37,83,765,597.0,572,469,60,127.0,512,1,440,555,299,0,0,683,-13043,8958,599,-5.59,,,,,,,,,,,,
172043,1564236390371,4,2.28,1.06,0.43,1.5,1.13,0.37,-0.75,1.09,12,5,17,0.84,12833,96,78,37,82,762,603.0,546,468,60,127.0,512,1,440,546,299,0,0,663,-13043,14342,603,-5.59,44.680435,10.017527,56.68,180.5,0,0.0,-1,0.0,0.0,0,0.67,2.8674
172063,1564236390391,1,2.3,1.06,0.43,1.49,1.13,0.51,-0.87,1.11,11,4,15,1.01,12789,86,78,37,82,760,609.0,577,466,60,126.0,441,1,440,546,266,0,0,714,23619,-10348,609,-5.59,,,,,,,,,,,,
172083,1564236390411,2,2.32,1.05,0.43,1.49,1.13,0.4,-0.77,1.1,11,4,15,0.87,12694,90,78,37,82,757,611.0,526,455,60,126.0,441,1,440,629,266,0,0,684,243,-26380,611,-5.59,,,,,,,,,,,,
172103,1564236390431,-0,2.35,1.05,0.43,1.49,1.13,0.48,-0.89,1.19,10,3,14,1.01,12634,62,78,37,83,756,616.0,519,463,60,127.0,441,1,440,540,266,0,0,670,-3210,-2830,617,-5.59,,,,,,,,,,,,
172123,1564236390451,3,2.35,1.06,0.43,1.49,1.13,0.42,-0.79,1.07,9,4,13,0.89,12634,84,78,37,83,758,620.0,551,467,60,127.0,441,1,440,650,266,0,0,659,17740,-10344,620,-5.59,,,,,,,,,,,,
172143,1564236390471,3,2.36,1.06,0.43,1.49,1.13,0.46,-0.78,0.97,7,1,12,0.91,12567,75,78,37,82,761,624.0,565,466,60,127.0,441,1,440,532,266,0,0,672,28675,-10346,624,-5.59,44.680447,10.017519,58.12,180.5,0,0.0,-1,0.0,0.0,0,0.67,2.869
172163,1564236390491,0,2.35,1.06,0.43,1.49,1.12,0.49,-0.84,1.07,7,1,11,0.97,12516,100,78,37,82,765,631.0,618,465,60,126.0,487,1,440,620,304,0,0,684,19304,-10346,631,-5.59,,,,,,,,,,,,
172183,1564236390511,3,2.35,1.07,0.43,1.49,1.12,0.42,-0.78,1.05,5,-0,11,0.88,12475,100,78,37,82,769,637.0,647,468,60,126.0,487,1,440,601,304,0,0,674,19320,-3038,637,-5.59,,,,,,,,,,,,
172203,1564236390531,5,2.35,1.06,0.43,1.49,1.13,0.41,-0.76,0.9,4,-2,11,0.86,12483,100,78,37,82,770,637.0,654,469,60,127.0,487,1,440,583,304,0,0,660,506,16118,638,-5.59,,,,,,,,,,,,
172223,1564236390551,1,2.35,1.06,0.43,1.5,1.12,0.48,-0.73,1.0,4,-3,10,0.87,12384,100,78,37,83,771,641.0,663,470,60,126.0,487,1,440,574,304,0,0,663,-4876,8958,643,-5.59,,,,,,,,,,,,
172243,1564236390571,1,2.35,1.06,0.43,1.49,1.13,0.49,-0.61,1.08,4,-2,9,0.79,12450,100,78,37,83,767,645.0,667,467,60,127.0,487,1,440,555,304,0,0,672,-3584,-26380,645,-5.59,44.680466,10.017512,59.82,180.6,0,0.0,-1,0.0,0.0,0,0.68,2.8707
172263,1564236390591,3,2.36,1.06,0.43,1.5,1.12,0.57,-0.66,0.99,4,-3,8,0.87,12600,100,78,37,82,764,650.0,682,465,60,125.0,406,1,440,546,263,0,0,669,-2830,-3578,649,-5.59,,,,,,,,,,,,
172283,1564236390611,1,2.35,1.06,0.43,1.5,1.12,0.64,-0.76,1.03,3,-3,7,1.0,12651,100,78,37,83,757,653.0,687,462,60,127.0,406,1,440,555,263,0,0,679,11566,-2345,652,-5.59,,,,,,,,,,,,
172303,1564236390631,4,2.35,1.06,0.43,1.49,1.11,0.52,-0.63,0.92,3,-3,9,0.82,12737,100,78,37,83,753,657.0,691,462,60,127.0,406,1,440,546,263,0,0,679,-30207,-10346,655,-5.59,,,,,,,,,,,,
172323,1564236390651,1,2.35,1.06,0.43,1.49,1.12,0.53,-0.61,1.03,3,-2,7,0.81,12729,100,78,37,83,751,662.0,691,466,60,127.0,406,1,440,555,263,0,0,685,-2830,14342,659,-5.59,,,,,,,,,,,,
172343,1564236390671,3,2.32,1.07,0.43,1.5,1.13,0.54,-0.47,0.82,3,-1,8,0.72,12763,100,78,37,83,748,661.0,687,465,60,127.0,406,1,440,555,263,0,0,683,-2830,-10344,665,-5.59,44.680481,10.017507,62.73,180.6,0,0.0,-1,0.0,0.0,0,0.68,2.8724
172363,1564236390691,-2,2.31,1.06,0.43,1.49,1.12,0.6,-0.53,0.92,1,-4,9,0.8,12816,100,78,37,83,749,666.0,691,468,60,127.0,403,1,440,555,269,0,0,682,-26380,16599,666,-5.59,,,,,,,,,,,,
172383,1564236390711,0,2.28,1.06,0.43,1.48,1.12,0.64,-0.49,0.85,1,-4,9,0.8,12351,100,79,37,83,751,670.0,683,468,60,130.0,403,1,440,555,269,0,0,692,3543,24845,670,-5.59,,,,,,,,,,,,
172403,1564236390731,-0,2.27,1.05,0.42,1.47,1.11,0.69,-0.41,0.66,-0,-3,9,0.8,11927,100,79,37,84,755,670.0,677,465,60,131.0,403,1,440,569,269,0,0,669,-388,-10346,667,-5.59,,,,,,,,,,,,
172423,1564236390751,-1,2.27,1.03,0.41,1.45,1.11,0.7,-0.34,0.73,-2,-4,8,0.78,11689,100,79,37,84,760,667.0,675,465,60,130.0,403,1,440,582,269,0,0,677,3543,-388,668,-5.59,,,,,,,,,,,,
172443,1564236390771,-2,2.26,1.03,0.4,1.43,1.09,0.67,-0.46,0.82,-3,-6,7,0.81,11545,100,79,37,85,775,666.0,668,463,60,131.0,403,1,440,577,269,0,0,665,1549,-2826,661,-5.59,44.680492,10.017501,64.28,180.6,0,0.0,-1,0.0,0.0,0,0.68,2.8741
172463,1564236390791,3,2.26,1.01,0.39,1.41,1.07,0.68,-0.28,0.6,-4,-6,7,0.74,11301,100,79,37,85,792,668.0,671,461,60,130.0,376,1,441,1069,251,0,0,675,-2830,-2345,661,-5.59,,,,,,,,,,,,
172483,1564236390811,4,2.26,1.01,0.38,1.39,1.05,0.76,-0.35,0.64,-5,-6,6,0.84,11081,100,78,37,86,805,671.0,672,455,60,126.0,376,1,445,527,251,0,0,683,8958,-388,664,-5.59,,,,,,,,,,,,
172503,1564236390831,0,2.26,1.0,0.38,1.38,1.05,0.63,-0.17,0.6,-5,-2,6,0.65,10515,100,78,37,87,815,678.0,671,466,60,126.0,376,1,433,925,251,0,0,706,-10346,-12152,665,-5.59,,,,,,,,,,,,
172523,1564236390851,2,2.27,1.0,0.37,1.37,1.04,0.67,-0.06,0.68,-6,-2,4,0.67,10064,100,78,37,86,903,679.0,664,463,60,128.0,376,1,400,792,251,0,0,706,-2345,31988,669,-5.59,,,,,,,,,,,,
172543,1564236390871,3,2.27,0.98,0.37,1.36,1.04,0.68,0.05,0.68,-7,-1,4,0.68,10422,100,78,37,85,1048,690.0,664,463,60,128.0,376,1,425,666,251,0,0,698,-2830,12333,673,-5.59,44.680512,10.017496,65.78,180.7,0,0.0,-1,0.0,0.0,0,0.68,2.8757
172563,1564236390891,1,2.28,0.97,0.35,1.33,1.03,0.73,0.07,0.75,-7,0,3,0.73,10324,100,78,37,85,1128,689.0,663,466,60,129.0,377,1,418,577,254,0,0,736,14342,1524,673,-5.59,,,,,,,,,,,,
172583,1564236390910,1,2.28,0.97,0.35,1.34,1.03,0.59,0.16,0.86,-7,3,-0,0.62,10026,100,78,37,85,1259,695.0,665,456,60,129.0,377,1,397,559,254,0,0,751,-10448,-22795,676,-5.59,,,,,,,,,,,,
172603,1564236390930,3,2.28,0.98,0.36,1.35,1.03,0.59,0.13,0.87,-7,1,-2,0.6,9931,100,78,37,84,1272,697.0,658,462,60,127.0,377,1,399,559,254,0,0,733,6208,-22795,683,-5.59,,,,,,,,,,,,
172623,1564236390950,3,2.28,0.99,0.36,1.37,1.03,0.67,0.11,0.73,-7,4,-2,0.68,9978,98,78,37,84,1281,697.0,655,456,60,129.0,377,1,397,559,254,0,0,747,-3584,1524,685,-5.59,,,,,,,,,,,,
172643,1564236390970,1,2.28,0.98,0.36,1.36,1.03,0.55,0.09,0.83,-6,2,-2,0.56,10000,91,78,37,84,1218,706.0,662,459,60,128.0,377,1,395,559,254,0,0,741,687,-2356,694,-5.59,44.680527,10.017491,66.36,180.8,0,0.0,-1,0.0,0.0,0,0.68,2.8774
172663,1564236390990,2,2.28,0.98,0.36,1.35,1.03,0.56,0.1,0.88,-6,2,-3,0.57,10016,80,78,37,82,1147,705.0,661,461,60,128.0,306,1,397,532,212,0,0,744,-12152,-4096,694,-5.59,,,,,,,,,,,,
172683,1564236391002,1,2.28,0.97,0.36,1.35,1.03,0.68,0.09,0.8,-6,2,-4,0.68,10096,64,78,37,77,1033,710.0,660,467,60,128.0,306,1,406,493,212,0,0,742,-3888,-23308,701,-5.59,,,,,,,,,,,,
172703,1564236391022,1,2.28,0.97,0.35,1.34,1.03,0.61,0.09,0.92,-6,4,-4,0.62,10179,48,78,37,69,968,716.0,671,465,60,129.0,306,1,412,448,212,0,0,754,-2560,-31066,708,-5.59,,,,,,,,,,,,
172723,1564236391042,1,2.28,0.97,0.35,1.34,1.02,0.66,0.09,0.97,-6,4,-5,0.67,10075,30,78,37,60,924,717.0,660,463,60,126.0,306,1,412,374,212,0,0,733,-23490,-2314,709,-5.59,,,,,,,,,,,,
172743,1564236391062,6,2.28,0.97,0.35,1.34,1.03,0.8,0.01,0.86,-7,1,-5,0.8,9863,11,78,37,51,933,721.0,659,466,60,128.0,306,1,391,283,212,0,0,744,-23490,-3580,714,-5.59,44.680546,10.017487,68.03,180.8,0,0.0,-1,0.0,0.0,0,0.68,2.879
172763,1564236391082,6,2.27,0.97,0.35,1.35,1.02,0.75,0.15,0.95,-7,1,-5,0.76,9503,5,78,37,43,939,719.0,658,465,60,129.0,136,1,350,226,97,0,0,734,-3450,-13580,710,-5.59,,,,,,,,,,,,
172783,1564236391110,7,2.28,0.97,0.35,1.35,1.04,0.6,0.15,0.89,-5,-1,-4,0.62,9132,5,79,37,37,954,716.0,646,461,60,130.0,136,1,314,208,97,0,0,721,204,-3888,710,-5.59,,,,,,,,,,,,
172803,1564236391130,11,2.28,0.98,0.35,1.35,1.03,0.52,0.08,0.84,-4,-1,-4,0.53,8915,0,79,37,35,962,716.0,643,463,60,130.0,136,1,308,197,97,0,0,715,16118,-12152,709,-5.59,,,,,,,,,,,,
172823,1564236391150,13,2.28,0.99,0.37,1.39,1.04,0.34,0.2,0.81,-3,-2,-4,0.39,8692,0,79,37,33,966,715.0,638,458,60,129.0,136,1,302,190,97,0,0,703,-13312,6658,703,-5.59,,,,,,,,,,,,
172843,1564236391170,13,2.28,1.0,0.37,1.41,1.05,0.37,0.28,0.82,-4,-3,-6,0.47,8491,0,79,37,31,955,709.0,638,457,60,130.0,136,1,294,186,97,0,0,695,-12152,12333,703,-5.59,44.680561,10.01748,70.19,180.8,0,0.0,-1,0.0,0.0,0,0.69,2.8807
172863,1564236391190,12,2.29,1.01,0.37,1.42,1.07,0.38,0.19,0.76,-3,1,-4,0.43,8267,0,79,37,30,935,706.0,635,457,60,128.0,82,1,287,268,58,0,0,697,6658,-2830,697,-5.59,,,,,,,,,,,,
172883,1564236391210,15,2.29,1.02,0.37,1.42,1.05,0.44,0.28,0.79,-4,-6,-4,0.52,8120,0,78,37,31,918,2038.0,640,463,60,126.0,82,1,288,93,58,0,0,9117,-4876,-1894,2038,-5.59,,,,,,,,,,,,
172903,1564236391230,13,2.29,1.0,0.37,1.42,1.06,0.55,0.19,0.66,-4,-6,-10,0.58,8325,0,78,37,30,892,2038.0,638,466,60,127.0,82,1,288,230,58,0,0,9117,-4876,-30159,2038,-5.59,,,,,,,,,,,,
172923,1564236391250,15,2.28,1.02,0.37,1.43,1.05,0.6,0.23,0.54,-5,-12,-9,0.64,8303,0,78,37,29,869,2038.0,643,462,60,128.0,82,1,284,212,58,0,0,9117,-26562,-3082,2038,-5.59,,,,,,,,,,,,
172943,1564236391270,12,2.27,1.01,0.37,1.42,1.05,0.73,0.23,0.42,-6,-10,-9,0.76,8400,0,78,37,29,856,684.0,637,463,60,128.0,82,1,286,196,58,0,0,9117,24845,-9212,672,-5.59,44.680576,10.017474,71.44,180.9,0,0.0,-1,0.0,0.0,0,0.69,2.8824
172963,1564236391290,17,2.28,1.01,0.37,1.42,1.05,0.73,0.16,0.3,-7,-8,-8,0.75,8329,0,78,37,29,851,683.0,641,462,60,128.0,91,1,284,178,61,0,0,9117,24845,32033,668,-5.59,,,,,,,,,,,,
172983,1564236391310,14,2.29,1.02,0.37,1.43,1.06,0.86,0.18,0.31,-8,-11,-8,0.88,8453,0,78,37,28,861,683.0,640,468,60,127.0,91,1,282,184,61,0,0,9117,-10344,-16384,663,-5.59,,,,,,,,,,,,
173003,1564236391330,16,2.28,1.02,0.38,1.43,1.07,0.86,0.13,0.25,-9,-8,-9,0.87,8400,0,78,37,27,874,679.0,642,466,60,128.0,91,1,278,181,61,0,0,9117,-2345,8488,658,-5.59,,,,,,,,,,,,
173023,1564236391350,12,2.28,1.02,0.38,1.44,1.07,0.89,0.23,0.24,-10,-7,-11,0.92,8366,0,78,37,27,886,669.0,641,465,60,127.0,91,1,277,178,61,0,0,433,31988,31796,650,-5.59,,,,,,,,,,,,
173043,1564236391370,13,2.28,1.02,0.38,1.44,1.07,0.96,0.27,0.15,-11,-5,-11,1.0,8245,0,78,37,27,898,670.0,641,467,60,127.0,91,1,276,173,61,0,0,436,-388,243,645,-5.59,44.680595,10.017467,69.92,180.9,0,0.0,-1,0.0,0.0,0,0.69,2.884
173063,1564236391391,16,2.28,1.01,0.38,1.42,1.07,0.94,0.35,0.18,-13,-7,-12,1.0,8085,0,78,37,27,896,666.0,641,467,60,127.0,83,1,276,165,54,0,0,466,-27404,15649,636,-5.59,,,,,,,,,,,,
173083,1564236391411,18,2.27,1.01,0.37,1.41,1.06,0.89,0.37,0.08,-14,-5,-14,0.97,8088,0,78,37,27,894,661.0,635,466,60,127.0,83,1,276,87,54,0,0,447,-2345,5600,628,-5.59,,,,,,,,,,,,
173103,1564236391431,14,2.29,1.0,0.36,1.4,1.06,1.01,0.42,0.09,-16,-4,-15,1.09,8057,0,78,37,27,883,660.0,638,466,60,129.0,83,1,276,163,54,0,0,411,8958,6512,620,-5.59,,,,,,,,,,,,
173123,1564236391451,13,2.3,1.0,0.36,1.4,1.05,0.97,0.5,0.08,-17,-5,-17,1.09,7888,0,78,37,27,870,655.0,635,467,60,127.0,83,1,274,160,54,0,0,471,24583,240,613,-5.59,,,,,,,,,,,,
173143,1564236391471,16,2.34,1.0,0.37,1.4,1.05,0.95,0.52,0.06,-18,-3,-20,1.08,7780,0,78,37,27,863,653.0,630,468,60,127.0,83,1,273,162,54,0,0,504,2024,-6475,612,-5.59,44.680611,10.017459,67.01,180.9,0,0.0,-1,0.0,0.0,0,0.69,2.8857
173163,1564236391491,17,2.36,1.01,0.36,1.4,1.04,1.01,0.49,-0.05,-19,-2,-23,1.12,7744,0,78,37,27,854,647.0,632,467,60,128.0,76,1,273,160,47,0,0,471,244,0,605,-5.59,,,,,,,,,,,,
173183,1564236391510,15,2.4,1.01,0.36,1.41,1.05,1.03,0.49,-0.06,-19,-2,-24,1.14,7760,0,78,37,27,845,639.0,634,464,60,129.0,76,1,273,160,47,0,0,445,6208,3302,599,-5.59,,,,,,,,,,,,
173203,1564236391530,13,2.44,1.01,0.37,1.42,1.07,1.12,0.47,0.07,-20,-1,-25,1.22,7637,0,78,37,27,839,634.0,632,466,60,128.0,76,1,272,160,47,0,0,458,3,-1268,595,-5.59,,,,,,,,,,,,
173223,1564236391550,8,2.47,1.02,0.38,1.43,1.07,1.18,0.42,0.15,-20,-2,-26,1.25,7566,0,78,37,27,840,627.0,629,465,60,129.0,76,1,272,160,47,0,0,457,20993,0,594,-5.59,,,,,,,,,,,,
173243,1564236391570,5,2.5,1.02,0.38,1.44,1.06,1.26,0.43,0.22,-21,-3,-27,1.33,7506,0,78,37,27,843,624.0,630,467,60,128.0,76,1,272,159,47,0,0,422,-16883,2278,594,-5.59,44.680626,10.017453,64.74,181.0,0,0.0,-1,0.0,0.0,0,0.69,2.8874
173263,1564236391590,3,2.54,1.03,0.38,1.43,1.07,1.27,0.37,0.3,-21,-2,-27,1.33,7491,0,78,37,27,849,622.0,630,466,60,128.0,75,1,271,159,45,0,0,399,17336,-1818,593,-5.59,,,,,,,,,,,,
173283,1564236391610,3,2.57,1.03,0.39,1.45,1.08,1.35,0.29,0.4,-20,-1,-27,1.38,7393,0,78,37,26,853,614.0,625,465,60,129.0,75,1,266,159,45,0,0,400,26688,-8165,590,-5.59,,,,,,,,,,,,
173303,1564236391630,2,2.61,1.04,0.39,1.45,1.08,1.35,0.26,0.44,-20,-3,-27,1.37,7402,0,78,37,26,858,604.0,625,468,60,129.0,75,1,267,159,45,0,0,407,5344,2524,589,-5.59,,,,,,,,,,,,
173323,1564236391650,4,2.61,1.04,0.39,1.46,1.08,1.42,0.25,0.43,-18,-2,-26,1.44,7411,0,78,37,26,863,599.0,628,464,60,129.0,75,1,267,159,45,0,0,408,30227,11545,589,-5.59,,,,,,,,,,,,
173343,1564236391670,4,2.61,1.04,0.4,1.46,1.08,1.38,0.24,0.45,-16,-2,-22,1.4,7452,0,78,37,26,871,595.0,628,466,60,128.0,75,1,267,81,45,0,0,406,3472,18584,589,-5.59,44.680641,10.017446,61.89,181.0,0,0.0,-1,0.0,0.0,0,0.7,2.889
173363,1564236391690,4,2.59,1.04,0.39,1.46,1.08,1.41,0.21,0.51,-15,-1,-19,1.42,7464,0,78,37,26,882,588.0,627,465,60,129.0,75,1,267,159,44,0,0,397,208,11560,585,-5.59,,,,,,,,,,,,
173383,1564236391710,3,2.56,1.04,0.39,1.46,1.08,1.41,0.2,0.47,-14,-0,-17,1.43,7503,0,78,37,26,890,585.0,630,466,60,128.0,75,1,268,159,44,0,0,414,-4035,10541,585,-5.59,,,,,,,,,,,,
173403,1564236391730,3,2.54,1.03,0.39,1.45,1.09,1.46,0.27,0.42,-12,1,-15,1.48,7506,0,78,37,26,899,584.0,630,463,60,128.0,75,1,268,159,44,0,0,425,-3210,-32702,580,-5.59,,,,,,,,,,,,
173423,1564236391750,3,2.52,1.03,0.39,1.45,1.08,1.45,0.24,0.45,-10,1,-11,1.47,7566,0,78,37,25,911,580.0,630,465,60,129.0,75,1,265,159,44,0,0,416,774,2524,580,-5.59,,,,,,,,,,,,
173443,1564236391770,4,2.51,1.03,0.38,1.43,1.07,1.37,0.23,0.48,-9,2,-8,1.39,7578,0,78,37,25,927,577.0,631,465,60,128.0,75,1,265,158,44,0,0,420,-8188,13552,577,-5.59,44.680656,10.017439,59.61,181.1,0,0.0,-1,0.0,0.0,0,0.7,2.8907
173463,1564236391792,1,2.51,1.02,0.38,1.43,1.07,1.43,0.23,0.57,-7,1,-8,1.45,7640,0,78,37,26,943,570.0,633,466,60,128.0,78,1,269,158,45,0,0,444,-2934,-4082,570,-5.59,,,,,,,,,,,,
173483,1564236391812,7,2.48,1.02,0.38,1.42,1.07,1.49,0.25,0.62,-6,-2,-7,1.51,7649,0,78,37,25,950,566.0,633,465,60,128.0,78,1,266,158,45,0,0,430,6273,-28332,566,-5.59,,,,,,,,,,,,
173503,1564236391832,7,2.46,1.03,0.39,1.43,1.08,1.43,0.28,0.62,-5,-3,-3,1.46,7735,0,78,37,25,967,560.0,632,467,60,128.0,78,1,267,158,45,0,0,418,-28648,5600,560,-5.59,,,,,,,,,,,,
173523,1564236391852,8,2.42,1.02,0.39,1.44,1.08,1.31,0.37,0.51,-4,-2,-1,1.36,7783,0,78,37,25,993,553.0,630,468,60,127.0,78,1,267,158,45,0,0,427,-8962,1504,553,-5.59,,,,,,,,,,,,
173543,1564236391872,7,2.37,1.02,0.39,1.43,1.07,1.22,0.4,0.37,-3,-2,-1,1.28,7773,0,78,37,25,1005,549.0,636,467,60,128.0,78,1,267,80,45,0,0,424,-506,-19019,549,-5.59,44.680668,10.017431,58.57,181.1,0,0.0,-1,0.0,0.0,0,0.7,2.8924
173563,1564236391891,8,2.36,1.02,0.38,1.43,1.07,1.24,0.41,0.33,-3,-0,-1,1.31,7738,0,78,37,25,1019,545.0,633,466,60,129.0,84,1,267,158,46,0,0,448,-8962,-6656,544,-5.59,,,,,,,,,,,,
173583,1564236391911,10,2.36,1.02,0.38,1.43,1.06,1.31,0.43,0.39,-3,-0,-0,1.38,7674,0,78,37,24,1035,541.0,632,465,60,129.0,84,1,266,155,46,0,0,494,-2336,-6656,538,-5.59,,,,,,,,,,,,
173603,1564236391931,6,2.36,1.01,0.38,1.42,1.06,1.36,0.43,0.41,-3,-3,0,1.43,7741,0,78,37,25,1048,536.0,632,466,60,129.0,84,1,267,158,46,0,0,487,-28648,2811,533,-5.59,,,,,,,,,,,,
173623,1564236391951,10,2.35,1.02,0.38,1.43,1.06,1.34,0.44,0.41,-2,-3,-0,1.41,7754,0,78,37,24,1063,530.0,634,465,60,128.0,84,1,267,155,46,0,0,500,2524,140,528,-5.59,,,,,,,,,,,,
173643,1564236391971,12,2.33,1.02,0.38,1.44,1.07,1.28,0.48,0.35,-1,-2,-0,1.37,7681,0,78,37,25,1067,523.0,634,469,60,127.0,84,1,266,158,46,0,0,496,-22519,-23296,522,-5.59,44.680683,10.017424,56.36,181.2,0,0.0,-1,0.0,0.0,0,0.7,2.8941
173663,1564236391991,12,2.29,1.02,0.38,1.43,1.08,1.23,0.5,0.29,-1,-2,-1,1.32,7659,0,78,37,24,1072,521.0,633,468,60,127.0,86,1,266,155,45,0,0,487,-9212,-31222,519,-5.59,,,,,,,,,,,,
173683,1564236392005,13,2.24,1.03,0.38,1.44,1.07,1.1,0.56,0.15,-2,-1,-0,1.24,7612,0,78,37,24,1077,516.0,634,465,60,128.0,86,1,266,158,45,0,0,484,16383,4838,510,-5.59,,,,,,,,,,,,
173703,1564236392025,11,2.21,1.02,0.38,1.43,1.07,1.06,0.59,0.09,-2,-0,0,1.21,7628,0,78,37,24,1077,513.0,632,466,60,129.0,86,1,266,158,45,0,0,489,26178,145,504,-5.59,,,,,,,,,,,,
173723,1564236392045,13,2.21,1.02,0.37,1.43,1.06,1.05,0.62,0.04,-3,1,0,1.22,7563,0,78,37,24,1076,514.0,632,466,60,130.0,86,1,265,158,45,0,0,507,-3482,0,497,-5.59,,,,,,,,,,,,
173743,1564236392065,9,2.21,1.01,0.37,1.41,1.05,1.09,0.65,0.07,-3,1,-3,1.27,7467,0,78,37,24,1071,513.0,631,469,60,129.0,86,1,264,158,45,0,0,508,26178,-1,494,-5.59,44.680695,10.017415,54.43,181.2,0,0.0,-1,0.0,0.0,0,0.7,2.8957
173763,1564236392091,7,2.25,1.01,0.37,1.4,1.06,1.08,0.69,0.02,-3,2,-5,1.28,7321,0,78,37,24,1067,512.0,628,463,60,129.0,89,1,263,158,44,0,0,509,17136,-41,494,-5.59,,,,,,,,,,,,
173783,1564236392111,8,2.28,1.01,0.37,1.41,1.06,1.06,0.64,-0.08,-3,4,-6,1.23,7189,0,78,37,25,1061,509.0,625,467,60,127.0,89,1,261,158,44,0,0,507,10994,-23296,490,-5.59,,,,,,,,,,,,
173803,1564236392131,6,2.3,1.01,0.37,1.42,1.06,1.08,0.57,-0.08,-3,2,-7,1.22,7137,0,78,37,25,1057,504.0,622,464,60,127.0,89,1,261,158,44,0,0,477,15661,2790,485,-5.59,,,,,,,,,,,,
173823,1564236392151,10,2.3,1.02,0.38,1.43,1.08,1.09,0.43,0.04,-4,1,-8,1.17,7170,0,78,37,25,1050,492.0,623,467,60,128.0,89,1,261,80,44,0,0,435,-6528,-19126,482,-5.59,,,,,,,,,,,,
173843,1564236392171,7,2.29,1.03,0.39,1.44,1.09,1.19,0.41,0.07,-4,-1,-8,1.26,7312,0,79,37,25,1024,490.0,628,463,60,128.0,89,1,263,158,44,0,0,398,-1818,3635,479,-5.59,44.680706,10.017406,51.74,181.2,0,0.0,-1,0.0,0.0,0,0.7,2.8974
173863,1564236392193,5,2.26,1.04,0.39,1.45,1.09,1.24,0.43,0.06,-4,0,-8,1.31,7408,0,78,37,25,1010,484.0,628,463,60,127.0,89,1,264,158,43,0,0,379,-10483,13552,476,-5.59,,,,,,,,,,,,
173883,1564236392213,4,2.24,1.04,0.4,1.45,1.09,1.19,0.47,0.04,-5,1,-8,1.28,7476,0,78,37,25,993,481.0,631,465,60,127.0,89,1,264,158,43,0,0,413,32033,11545,475,-5.59,,,,,,,,,,,,
173903,1564236392233,2,2.22,1.03,0.4,1.46,1.09,1.17,0.48,-0.03,-6,2,-7,1.27,7515,0,78,37,25,960,483.0,630,466,60,128.0,89,1,265,158,43,0,0,431,3580,257,471,-5.59,,,,,,,,,,,,
173923,1564236392253,3,2.21,1.03,0.38,1.45,1.08,1.2,0.52,-0.1,-7,1,-7,1.31,7606,0,78,37,25,924,481.0,634,467,60,129.0,89,1,266,158,43,0,0,450,32033,2524,466,-5.59,,,,,,,,,,,,
173943,1564236392273,1,2.2,1.01,0.37,1.41,1.06,1.23,0.5,-0.12,-7,2,-7,1.33,7609,0,79,37,25,869,476.0,634,466,60,129.0,89,1,266,158,43,0,0,448,-23367,-18341,461,-5.59,44.680717,10.017398,49.63,181.2,0,0.0,-1,0.0,0.0,0,0.7,2.899
173963,1564236392291,-0,2.18,1.0,0.37,1.39,1.05,1.28,0.49,-0.04,-8,3,-8,1.37,7722,0,79,37,25,839,475.0,633,463,60,129.0,98,1,267,155,45,0,0,453,-9203,2524,456,-5.59,,,,,,,,,,,,
173983,1564236392311,-0,2.17,0.99,0.36,1.39,1.05,1.32,0.54,0.04,-10,3,-8,1.42,7751,0,79,37,24,816,471.0,633,463,60,130.0,98,1,267,158,45,0,0,455,32033,8488,453,-5.59,,,,,,,,,,,,
174003,1564236392331,-1,2.15,0.99,0.36,1.39,1.05,1.25,0.58,0.03,-11,1,-10,1.38,7825,0,79,37,25,807,469.0,635,464,60,128.0,98,1,268,158,45,0,0,450,10432,19477,448,-5.59,,,,,,,,,,,,
174023,1564236392351,1,2.14,0.99,0.36,1.39,1.05,1.16,0.61,-0.01,-12,1,-10,1.31,7921,0,78,37,24,796,468.0,636,468,60,128.0,98,1,269,155,45,0,0,449,-16384,-3322,444,-5.59,,,,,,,,,,,,
174043,1564236392371,0,2.13,1.0,0.36,1.4,1.05,1.19,0.54,-0.01,-13,2,-10,1.31,7971,0,79,37,24,820,466.0,637,464,60,129.0,98,1,269,155,45,0,0,454,-3210,13180,442,-5.59,44.680729,10.017389,47.61,181.2,0,0.0,-1,0.0,0.0,0,0.71,2.9007
174063,1564236392391,-0,2.13,0.99,0.37,1.4,1.05,1.17,0.56,0.05,-14,0,-11,1.3,8029,0,78,37,24,841,463.0,636,466,60,128.0,107,1,270,154,47,0,0,451,12552,-26615,436,-5.59,,,,,,,,,,,,
174083,1564236392411,2,2.13,0.99,0.37,1.39,1.05,1.09,0.54,0.0,-15,1,-15,1.21,8099,0,78,37,23,858,463.0,638,464,60,127.0,107,1,270,156,47,0,0,445,6193,10392,433,-5.59,,,,,,,,,,,,
174103,1564236392431,-2,2.13,1.0,0.37,1.39,1.06,1.16,0.47,0.08,-16,0,-16,1.25,8071,0,79,37,23,881,458.0,640,465,60,129.0,107,1,270,156,47,0,0,449,17628,-4059,430,-5.59,,,,,,,,,,,,
174123,1564236392451,2,2.13,1.0,0.36,1.4,1.05,1.07,0.56,0.07,-17,0,-16,1.21,8047,0,79,37,23,889,457.0,638,466,60,129.0,107,1,270,156,47,0,0,447,-9160,-26615,426,-5.59,,,,,,,,,,,,
174143,1564236392471,1,2.13,1.0,0.37,1.4,1.05,1.05,0.57,0.01,-18,0,-18,1.2,8061,0,79,37,23,893,456.0,641,465,60,129.0,107,1,270,155,47,0,0,446,2524,-9166,426,-5.59,44.68074,10.017381,45.86,181.2,0,0.0,-1,0.0,0.0,0,0.71,2.9024
174163,1564236392491,-1,2.13,1.0,0.37,1.4,1.05,1.06,0.59,0.09,-19,0,-19,1.21,8012,0,79,37,23,896,454.0,640,462,60,128.0,108,1,270,153,46,0,0,442,2524,13040,423,-5.59,,,,,,,,,,,,
174183,1564236392511,2,2.13,1.01,0.37,1.41,1.06,0.99,0.66,0.06,-19,0,-19,1.19,7968,0,79,37,23,898,450.0,640,467,60,127.0,108,1,269,153,46,0,0,442,3571,10392,421,-5.59,,,,,,,,,,,,
174203,1564236392531,1,2.14,1.0,0.37,1.41,1.05,0.99,0.65,0.09,-19,-1,-21,1.19,7958,0,79,37,23,899,447.0,639,466,60,129.0,108,1,269,153,46,0,0,443,10305,10392,418,-5.59,,,,,,,,,,,,
174223,1564236392551,-1,2.15,1.01,0.37,1.41,1.05,1.07,0.59,0.24,-20,-0,-23,1.22,7898,0,79,37,23,900,446.0,636,462,60,129.0,108,1,268,153,46,0,0,439,10305,13040,416,-5.59,,,,,,,,,,,,
174243,1564236392571,1,2.16,1.0,0.37,1.41,1.06,1.02,0.55,0.28,-20,-0,-24,1.16,7855,0,79,37,23,900,442.0,640,470,60,127.0,108,1,268,153,46,0,0,438,23400,18584,415,-5.59,44.680748,10.017371,44.05,181.2,0,0.0,-1,0.0,0.0,0,0.71,2.904
174263,1564236392591,1,2.18,1.0,0.37,1.41,1.06,0.95,0.54,0.23,-19,-1,-24,1.09,7835,0,79,37,23,901,442.0,638,466,60,128.0,108,1,268,153,45,0,0,429,23400,-4059,416,-5.59,,,,,,,,,,,,
174283,1564236392611,2,2.19,1.01,0.38,1.41,1.07,0.93,0.59,0.19,-19,-0,-24,1.1,7773,0,79,37,23,901,438.0,636,467,60,127.0,108,1,267,153,45,0,0,427,21580,-26615,413,-5.59,,,,,,,,,,,,
174303,1564236392631,2,2.19,1.02,0.37,1.42,1.07,1.04,0.56,0.23,-18,-1,-24,1.18,7767,0,79,37,23,902,434.0,636,466,60,128.0,108,1,267,153,45,0,0,421,-768,2524,412,-5.59,,,,,,,,,,,,
174323,1564236392651,-0,2.2,1.01,0.38,1.43,1.07,1.06,0.53,0.28,-18,-2,-24,1.18,7725,6,79,37,24,904,432.0,635,465,60,128.0,108,1,267,155,45,0,0,422,-3322,1504,411,-5.59,,,,,,,,,,,,
174343,1564236392671,-1,2.21,1.02,0.38,1.43,1.07,1.09,0.5,0.34,-18,0,-24,1.2,7703,7,79,37,24,908,430.0,633,466,60,128.0,108,1,267,155,45,0,0,418,-3314,11560,411,-5.59,44.680756,10.017362,42.92,181.2,0,0.0,-1,0.0,0.0,0,0.71,2.9057
174363,1564236392693,1,2.22,1.02,0.38,1.43,1.07,1.06,0.48,0.39,-17,-2,-23,1.17,7681,8,79,37,25,910,427.0,632,469,60,127.0,110,1,266,155,45,0,0,418,31796,-9211,409,-5.59,,,,,,,,,,,,
174383,1564236392713,-1,2.24,1.02,0.38,1.43,1.08,0.97,0.48,0.38,-16,-3,-24,1.08,7643,8,79,37,25,912,423.0,633,463,60,127.0,110,1,266,158,45,0,0,414,3826,-8151,407,-5.59,,,,,,,,,,,,
174403,1564236392733,1,2.26,1.03,0.39,1.44,1.09,0.94,0.41,0.31,-15,-2,-24,1.03,7637,8,79,37,25,916,421.0,632,467,60,128.0,110,1,266,158,45,0,0,408,-8165,-26615,407,-5.59,,,,,,,,,,,,
174423,1564236392753,1,2.29,1.03,0.39,1.46,1.09,0.87,0.46,0.21,-14,-0,-21,0.99,7600,8,79,37,25,921,418.0,631,466,60,128.0,110,1,266,158,45,0,0,407,-3414,2524,404,-5.59,,,,,,,,,,,,
174443,1564236392773,2,2.34,1.04,0.4,1.46,1.1,0.85,0.48,0.19,-12,-0,-19,0.97,7597,8,79,37,25,924,415.0,631,465,60,128.0,110,1,265,159,45,0,0,404,-26615,6512,405,-5.59,44.680763,10.017351,41.63,181.2,0,0.0,-1,0.0,0.0,0,0.71,2.9074
174463,1564236392793,2,2.37,1.05,0.41,1.47,1.11,0.8,0.44,0.18,-10,1,-19,0.91,7551,8,79,37,26,925,412.0,633,465,60,128.0,111,1,268,159,45,0,0,404,13040,1504,406,-5.59,,,,,,,,,,,,
174483,1564236392813,2,2.41,1.05,0.41,1.48,1.11,0.79,0.35,0.22,-8,1,-19,0.87,7545,8,79,37,26,926,407.0,630,465,60,128.0,111,1,268,159,45,0,0,401,-26615,2524,407,-5.59,,,,,,,,,,,,
174503,1564236392833,3,2.44,1.06,0.41,1.49,1.12,0.76,0.23,0.22,-5,2,-16,0.8,7479,13,79,37,27,925,409.0,632,465,60,127.0,111,1,271,160,45,0,0,394,-8151,-9211,409,-5.59,,,,,,,,,,,,
174523,1564236392853,2,2.47,1.07,0.42,1.49,1.13,0.82,0.19,0.23,-3,1,-13,0.85,7497,20,79,37,29,924,410.0,630,466,60,129.0,111,1,278,163,45,0,0,393,-32702,10541,410,-5.59,,,,,,,,,,,,
174543,1564236392873,3,2.51,1.08,0.42,1.5,1.14,0.83,0.16,0.23,0,1,-10,0.85,7476,29,79,37,32,922,410.0,631,464,60,127.0,111,1,290,168,45,0,0,393,-6656,10392,410,-5.59,44.680771,10.017341,40.99,181.2,0,0.0,-1,0.0,0.0,0,0.71,2.909
174563,1564236392893,4,2.54,1.07,0.42,1.51,1.13,0.86,0.09,0.25,2,1,-8,0.87,7554,41,79,37,38,916,410.0,632,463,60,127.0,119,1,307,202,49,0,0,390,-6524,2524,410,-5.59,,,,,,,,,,,,
174583,1564236392910,3,2.57,1.08,0.42,1.51,1.13,0.88,-0.02,0.26,5,2,-5,0.88,7584,53,79,37,47,906,411.0,630,464,60,128.0,119,1,370,222,49,0,0,388,240,-4059,411,-5.59,,,,,,,,,,,,
174603,1564236392930,3,2.59,1.07,0.43,1.51,1.13,0.98,-0.14,0.29,7,0,-1,0.99,7625,60,79,37,57,900,411.0,632,465,60,129.0,119,1,411,273,49,0,0,381,19125,13040,411,-5.59,,,,,,,,,,,,
174623,1564236392950,-0,2.61,1.07,0.43,1.5,1.15,1.01,-0.19,0.29,9,-0,3,1.02,7578,62,79,38,64,896,414.0,632,463,60,128.0,119,1,433,317,49,0,0,382,19125,-9166,414,-5.59,,,,,,,,,,,,
174643,1564236392970,1,2.62,1.07,0.43,1.51,1.14,0.95,-0.25,0.32,11,1,6,0.99,7539,62,79,38,70,889,413.0,632,466,60,128.0,119,1,420,366,49,0,0,379,8200,2524,413,-5.59,44.680778,10.01733,40.11,181.1,0,0.0,-1,0.0,0.0,0,0.71,2.9107
174663,1564236392990,0,2.62,1.07,0.43,1.51,1.13,0.9,-0.34,0.39,13,2,9,0.96,7419,63,79,38,74,883,414.0,629,466,60,129.0,257,1,407,413,107,0,0,377,-6656,-3414,414,-5.59,,,,,,,,,,,,
174683,1564236393005,1,2.62,1.07,0.43,1.5,1.13,0.91,-0.41,0.42,15,2,13,0.99,7361,63,79,38,77,879,414.0,627,465,60,128.0,257,1,401,438,107,0,0,377,770,-21944,414,-5.59,,,,,,,,,,,,
174703,1564236393025,3,2.61,1.08,0.42,1.5,1.14,0.9,-0.38,0.36,16,2,15,0.98,7318,62,79,38,78,879,414.0,623,465,60,129.0,257,1,399,453,107,0,0,373,-6656,2524,414,-5.59,,,,,,,,,,,,
174723,1564236393045,2,2.6,1.07,0.43,1.5,1.14,0.86,-0.4,0.38,17,1,18,0.95,7458,62,79,38,79,897,412.0,625,466,60,127.0,257,1,407,461,107,0,0,373,1,10392,412,-5.59,,,,,,,,,,,,
174743,1564236393065,1,2.59,1.07,0.43,1.51,1.13,0.81,-0.4,0.33,18,-0,20,0.9,7530,60,79,38,80,997,411.0,623,462,60,129.0,257,1,410,468,107,0,0,371,1,18584,411,-5.59,44.680786,10.01732,39.8,181.1,0,0.0,-1,0.0,0.0,0,0.71,2.9124
174763,1564236393092,-0,2.56,1.07,0.43,1.5,1.13,0.89,-0.46,0.27,19,-1,23,1.0,7845,61,79,38,80,1057,411.0,629,465,60,128.0,328,1,428,470,135,0,0,372,1,-9211,411,-5.59,,,,,,,,,,,,
174783,1564236393112,1,2.52,1.07,0.43,1.5,1.13,0.93,-0.51,0.34,19,-3,24,1.06,8180,61,79,38,78,1137,410.0,635,466,60,127.0,328,1,433,462,135,0,0,374,-6656,-26615,408,-5.59,,,,,,,,,,,,
174803,1564236393132,-0,2.49,1.07,0.42,1.51,1.13,0.94,-0.53,0.38,19,-1,25,1.08,8488,61,79,38,75,1243,406.0,638,462,60,128.0,328,1,428,437,135,0,0,377,770,2524,406,-5.59,,,,,,,,,,,,
174823,1564236393152,3,2.46,1.06,0.42,1.5,1.14,0.79,-0.61,0.36,19,1,28,1.0,8640,61,79,38,73,1317,406.0,643,463,60,127.0,328,1,425,420,135,0,0,414,-6656,-8165,406,-5.59,,,,,,,,,,,,
174843,1564236393172,3,2.44,1.06,0.42,1.5,1.13,0.74,-0.58,0.5,18,4,30,0.94,8530,61,79,38,71,1423,409.0,641,464,60,127.0,328,1,430,401,135,0,0,503,-19126,-3322,409,-5.59,44.68079,10.017311,39.08,181.1,0,0.0,-1,0.0,0.0,0,0.72,2.9141
174863,1564236393192,1,2.44,1.07,0.42,1.5,1.13,0.74,-0.52,0.64,17,5,30,0.91,8472,47,79,38,70,1437,412.0,638,463,60,128.0,320,1,433,321,132,0,0,442,-31744,23400,412,-5.59,,,,,,,,,,,,
174883,1564236393212,1,2.47,1.06,0.42,1.5,1.12,0.62,-0.54,0.63,17,4,29,0.82,8249,47,79,38,71,1456,421.0,522,465,60,128.0,320,1,439,458,132,0,0,414,-6656,21432,421,-5.59,,,,,,,,,,,,
174903,1564236393232,-0,2.49,1.06,0.42,1.49,1.12,0.67,-0.56,0.66,17,4,29,0.87,7965,61,79,38,72,1438,424.0,493,463,60,128.0,320,1,442,456,132,0,0,428,6512,-18341,424,-5.59,,,,,,,,,,,,
174923,1564236393252,1,2.54,1.07,0.42,1.49,1.12,0.7,-0.62,0.71,18,2,28,0.94,7858,61,79,38,75,1414,429.0,443,465,60,127.0,320,1,431,480,132,0,0,431,-8151,23400,429,-5.59,,,,,,,,,,,,
174943,1564236393272,1,2.61,1.07,0.42,1.5,1.12,0.67,-0.69,0.73,19,1,26,0.96,7881,61,79,38,77,1376,429.0,466,462,60,127.0,320,1,431,493,132,0,0,432,10541,-18341,429,-5.59,44.680801,10.017303,38.8,181.1,0,0.0,-1,0.0,0.0,0,0.72,2.9157
174963,1564236393292,3,2.66,1.06,0.41,1.49,1.12,0.62,-0.71,0.74,19,2,25,0.94,8005,62,79,38,77,1340,429.0,543,462,60,128.0,337,1,438,492,145,0,0,446,-8151,21432,429,-5.59,,,,,,,,,,,,
174983,1564236393310,1,2.72,1.06,0.42,1.49,1.14,0.66,-0.73,0.7,19,0,27,0.99,8259,62,79,38,77,1318,428.0,610,463,60,128.0,337,1,432,386,145,0,0,459,11545,21580,428,-5.59,,,,,,,,,,,,
175003,1564236393330,-0,2.76,1.07,0.42,1.49,1.13,0.61,-0.79,0.74,20,1,26,0.99,8553,63,79,38,75,1288,429.0,635,467,60,128.0,337,1,426,455,145,0,0,464,28696,21432,429,-5.59,,,,,,,,,,,,
175023,1564236393350,2,2.8,1.07,0.42,1.5,1.13,0.53,-0.84,0.66,21,1,28,1.0,8749,50,79,38,73,1289,431.0,640,464,60,128.0,337,1,422,409,145,0,0,444,28696,3571,434,-5.59,,,,,,,,,,,,
175043,1564236393370,2,2.81,1.07,0.42,1.5,1.12,0.54,-0.86,0.74,23,1,30,1.02,8782,64,79,38,72,1297,438.0,619,461,60,127.0,337,1,421,458,145,0,0,508,6384,17628,438,-5.59,44.680805,10.017295,39.96,181.1,0,0.0,-1,0.0,0.0,0,0.72,2.9174
175063,1564236393392,2,2.82,1.07,0.42,1.49,1.13,0.63,-0.85,0.74,23,1,31,1.05,8954,64,79,38,70,1280,443.0,583,467,60,128.0,345,1,415,322,151,0,0,512,6512,2211,443,-5.59,,,,,,,,,,,,
175083,1564236393412,2,2.82,1.06,0.43,1.49,1.13,0.65,-0.85,0.79,24,1,33,1.06,9141,65,79,38,69,1257,442.0,625,461,60,127.0,345,1,413,418,151,0,0,472,11545,243,442,-5.59,,,,,,,,,,,,
175103,1564236393432,3,2.8,1.06,0.42,1.49,1.13,0.69,-0.87,0.75,25,1,35,1.11,9191,57,79,38,70,1220,445.0,641,462,60,128.0,345,1,414,409,151,0,0,487,1504,8488,445,-5.59,,,,,,,,,,,,
175123,1564236393452,1,2.78,1.06,0.42,1.5,1.13,0.59,-0.89,0.88,27,1,37,1.07,9191,29,79,38,69,1195,450.0,637,461,60,128.0,345,1,414,439,151,0,0,500,-9211,505,450,-5.59,,,,,,,,,,,,
175143,1564236393472,0,2.77,1.06,0.42,1.49,1.13,0.5,-0.96,0.98,28,2,38,1.08,9168,0,79,38,69,1167,456.0,633,457,60,127.0,345,1,414,382,151,0,0,499,1504,-6441,456,-5.59,44.680817,10.017287,41.8,181.1,0,0.0,-1,0.0,0.0,0,0.72,2.919
175163,1564236393492,-0,2.73,1.07,0.42,1.5,1.13,0.45,-1.02,1.02,29,2,39,1.11,9128,0,79,38,69,1136,459.0,647,468,60,128.0,290,1,413,382,132,0,0,491,10392,771,460,-5.59,,,,,,,,,,,,
175183,1564236393512,1,2.68,1.06,0.42,1.5,1.13,0.33,-1.01,1.11,30,1,39,1.07,9079,0,79,38,69,1132,463.0,642,463,60,128.0,290,1,413,382,132,0,0,473,-4059,-32768,463,-5.59,,,,,,,,,,,,
175203,1564236393532,1,2.62,1.07,0.43,1.49,1.13,0.34,-1.06,1.08,32,1,39,1.11,9057,0,79,38,69,1138,469.0,641,463,60,128.0,290,1,413,382,132,0,0,491,-26615,-1818,469,-5.59,,,,,,,,,,,,
175223,1564236393552,1,2.56,1.06,0.42,1.49,1.14,0.31,-1.07,1.09,33,1,38,1.11,9071,0,79,38,69,1147,471.0,642,464,60,128.0,290,1,413,392,132,0,0,515,7154,-6528,474,-5.59,,,,,,,,,,,,
175243,1564236393572,1,2.49,1.07,0.42,1.5,1.13,0.37,-1.08,1.01,33,1,38,1.14,9141,0,79,38,69,1152,475.0,645,464,60,128.0,290,1,413,392,132,0,0,484,-3414,505,475,-5.59,44.680824,10.017281,42.57,181.1,0,0.0,-1,0.0,0.0,0,0.72,2.9207
175263,1564236393592,2,2.44,1.06,0.42,1.49,1.13,0.4,-1.04,0.96,32,1,39,1.11,9245,0,79,38,69,1157,476.0,616,463,60,127.0,280,1,414,382,133,0,0,484,3635,-32768,476,-5.59,,,,,,,,,,,,
175283,1564236393612,1,2.38,1.06,0.42,1.49,1.12,0.5,-0.96,0.85,31,1,40,1.09,9356,0,79,38,69,1158,476.0,641,466,60,128.0,280,1,415,382,133,0,0,514,5600,-6528,476,-5.59,,,,,,,,,,,,
175303,1564236393632,-0,2.37,1.06,0.42,1.5,1.13,0.5,-0.99,0.88,29,1,40,1.11,9498,0,79,38,69,1166,477.0,627,467,60,128.0,280,1,415,382,133,0,0,478,26704,6274,477,-5.59,,,,,,,,,,,,
175323,1564236393652,1,2.35,1.06,0.42,1.48,1.13,0.45,-0.98,0.98,28,2,38,1.08,9522,0,79,38,68,1187,476.0,576,463,60,128.0,280,1,414,375,133,0,0,499,-6387,771,476,-5.59,,,,,,,,,,,,
175343,1564236393672,2,2.36,1.06,0.42,1.49,1.13,0.45,-0.98,0.95,27,3,34,1.07,9479,60,79,38,67,1198,479.0,575,468,60,128.0,280,1,414,423,133,0,0,528,-18108,771,479,-5.59,44.680836,10.017275,43.94,181.1,0,0.0,-1,0.0,0.0,0,0.72,2.9224
175363,1564236393692,-1,2.37,1.06,0.42,1.49,1.13,0.46,-0.94,0.85,25,2,34,1.05,9488,60,79,38,65,1217,480.0,542,464,60,128.0,313,1,414,404,150,0,0,511,16408,11560,480,-5.59,,,,,,,,,,,,
175383,1564236393712,2,2.39,1.06,0.42,1.5,1.13,0.46,-1.0,0.96,22,2,31,1.1,9508,50,79,38,64,1223,482.0,579,463,60,127.0,313,1,414,346,150,0,0,490,8488,-32248,482,-5.59,,,,,,,,,,,,
175403,1564236393732,3,2.41,1.06,0.42,1.49,1.14,0.53,-0.93,0.95,21,2,28,1.07,9393,16,79,38,63,1225,484.0,590,461,60,127.0,313,1,411,351,150,0,0,497,3576,-4054,486,-5.59,,,,,,,,,,,,
175423,1564236393752,2,2.44,1.06,0.42,1.5,1.13,0.49,-0.84,0.91,20,0,28,0.97,9291,0,79,38,63,1220,488.0,541,458,60,128.0,313,1,408,351,150,0,0,505,-17956,6274,493,-5.59,,,,,,,,,,,,
175443,1564236393772,-1,2.46,1.06,0.42,1.49,1.14,0.48,-0.88,0.96,19,-2,27,1.0,9259,35,79,38,63,1210,496.0,475,458,60,127.0,313,1,407,396,150,0,0,505,8488,-28648,496,-5.59,44.680847,10.01727,45.08,181.0,0,0.0,-1,0.0,0.0,0,0.72,2.924
175463,1564236393793,1,2.46,1.06,0.43,1.5,1.13,0.4,-0.9,1.06,18,-3,25,0.99,9286,58,79,38,63,1193,499.0,443,461,60,127.0,242,1,408,399,120,0,0,511,3580,17136,499,-5.59,,,,,,,,,,,,
175483,1564236393813,2,2.45,1.06,0.42,1.5,1.13,0.4,-0.86,0.98,17,-4,24,0.95,9455,57,79,38,62,1159,503.0,437,461,60,127.0,242,1,412,385,120,0,0,502,-10483,26178,503,-5.59,,,,,,,,,,,,
175503,1564236393833,0,2.43,1.07,0.43,1.49,1.13,0.5,-0.78,0.83,17,-4,24,0.93,9571,58,79,38,62,1139,506.0,505,464,60,127.0,242,1,414,383,120,0,0,512,1,16383,506,-5.59,,,,,,,,,,,,
175523,1564236393853,-0,2.42,1.06,0.43,1.49,1.14,0.57,-0.79,0.85,16,-4,25,0.97,9720,58,79,38,61,1128,508.0,568,458,60,128.0,242,1,412,375,120,0,0,522,1,26178,508,-5.59,,,,,,,,,,,,
175543,1564236393873,-1,2.4,1.06,0.42,1.48,1.12,0.52,-0.75,0.86,16,-2,25,0.91,9827,56,79,38,61,1111,512.0,639,462,60,128.0,242,1,411,374,120,0,0,521,248,2088,512,-5.59,44.680859,10.017266,46.55,181.0,0,0.0,-1,0.0,0.0,0,0.72,2.9257
175563,1564236393891,2,2.4,1.05,0.42,1.48,1.14,0.6,-0.74,0.87,15,-1,24,0.96,9915,53,79,38,60,1100,516.0,643,465,60,128.0,273,1,408,363,140,0,0,523,3,-32248,512,-5.59,,,,,,,,,,,,
175583,1564236393911,1,2.4,1.05,0.42,1.48,1.13,0.49,-0.74,0.98,14,1,22,0.89,9989,41,79,38,57,1085,515.0,653,462,60,127.0,273,1,404,337,140,0,0,533,10408,-22519,516,-5.59,,,,,,,,,,,,
175603,1564236393931,2,2.43,1.05,0.42,1.48,1.13,0.5,-0.68,0.95,13,1,22,0.85,9915,28,79,38,52,1084,518.0,651,462,60,127.0,273,1,394,292,140,0,0,526,-28648,-22519,518,-5.59,,,,,,,,,,,,
175623,1564236393951,1,2.46,1.05,0.42,1.48,1.13,0.46,-0.63,1.05,13,1,20,0.78,9760,17,79,38,47,1080,522.0,653,462,60,128.0,273,1,380,240,140,0,0,536,10994,-32248,522,-5.59,,,,,,,,,,,,
175643,1564236393971,3,2.5,1.05,0.42,1.49,1.12,0.48,-0.63,0.96,13,-1,19,0.79,9551,11,79,38,43,1063,523.0,653,468,60,128.0,273,1,350,224,140,0,0,526,-21872,-28648,523,-5.59,44.68087,10.017264,48.62,181.0,0,0.0,-1,0.0,0.0,0,0.72,2.9274
175663,1564236393991,-0,2.55,1.06,0.42,1.49,1.12,0.51,-0.62,0.8,13,-3,20,0.8,9346,12,79,38,39,1041,526.0,651,462,60,128.0,151,1,320,212,79,0,0,518,-32248,6274,526,-5.59,,,,,,,,,,,,
175683,1564236394005,-1,2.59,1.04,0.42,1.49,1.13,0.47,-0.7,0.74,14,-5,19,0.84,9128,17,79,38,37,1028,525.0,653,457,60,128.0,151,1,314,204,79,0,0,506,2109,2524,526,-5.59,,,,,,,,,,,,
175703,1564236394025,-1,2.65,1.06,0.42,1.48,1.13,0.39,-0.8,0.74,16,-5,21,0.89,8928,16,79,38,36,1003,526.0,648,465,60,129.0,151,1,311,200,79,0,0,503,2524,14504,526,-5.59,,,,,,,,,,,,
175723,1564236394045,2,2.69,1.06,0.42,1.49,1.14,0.34,-0.86,0.69,17,-5,23,0.92,8704,16,79,38,36,965,525.0,646,463,60,128.0,151,1,311,200,79,0,0,499,-9216,6274,525,-5.59,,,,,,,,,,,,
175743,1564236394065,1,2.71,1.07,0.42,1.49,1.13,0.44,-0.83,0.69,19,-4,25,0.94,8499,17,79,38,35,936,529.0,638,463,60,127.0,151,1,307,195,79,0,0,496,-6528,-32248,529,-5.59,44.680885,10.017262,49.82,181.0,0,0.0,-1,0.0,0.0,0,0.73,2.929
175763,1564236394091,-0,2.73,1.07,0.42,1.49,1.13,0.51,-0.84,0.61,21,-5,26,0.99,8370,17,79,38,36,907,527.0,638,466,60,129.0,117,1,308,197,62,0,0,470,-1818,15679,527,-5.59,,,,,,,,,,,,
175783,1564236394111,2,2.73,1.06,0.42,1.49,1.13,0.55,-0.86,0.53,22,-6,27,1.02,8370,17,79,38,36,890,523.0,640,468,60,128.0,117,1,308,197,62,0,0,415,3580,1248,523,-5.59,,,,,,,,,,,,
175803,1564236394131,1,2.74,1.07,0.42,1.49,1.13,0.69,-0.9,0.53,23,-6,29,1.14,8411,17,79,38,36,866,520.0,637,466,60,128.0,117,1,308,198,62,0,0,382,3580,-8187,520,-5.59,,,,,,,,,,,,
175823,1564236394151,3,2.73,1.06,0.42,1.49,1.13,0.64,-0.98,0.5,25,-5,30,1.17,8337,3,79,38,37,851,520.0,637,462,60,126.0,117,1,310,201,62,0,0,349,16648,1248,520,-5.59,,,,,,,,,,,,
175843,1564236394171,0,2.71,1.06,0.42,1.49,1.13,0.72,-1.04,0.53,26,-4,32,1.26,8187,17,79,37,37,850,520.0,633,466,60,129.0,117,1,307,220,62,0,0,334,-23367,2088,520,-5.59,44.680897,10.017261,51.55,181.0,0,0.0,-1,0.0,0.0,0,0.73,2.9307
175863,1564236394191,3,2.7,1.06,0.43,1.49,1.13,0.64,-1.06,0.52,28,-2,33,1.24,7975,0,79,37,37,854,519.0,636,467,60,127.0,128,1,304,213,67,0,0,328,-9203,1248,519,-5.59,,,,,,,,,,,,
175883,1564236394211,3,2.68,1.07,0.42,1.49,1.13,0.69,-1.1,0.54,29,-1,35,1.29,7832,0,79,37,37,865,520.0,632,466,60,129.0,128,1,304,211,67,0,0,327,3576,-8187,520,-5.59,,,,,,,,,,,,
175903,1564236394231,2,2.66,1.06,0.42,1.49,1.13,0.71,-1.11,0.52,30,-0,36,1.32,7649,0,79,37,37,880,522.0,628,465,60,128.0,128,1,304,207,67,0,0,322,32033,16383,522,-5.59,,,,,,,,,,,,
175923,1564236394251,-1,2.64,1.06,0.42,1.49,1.13,0.78,-1.12,0.52,30,-1,38,1.36,7575,0,79,37,38,893,519.0,585,465,60,129.0,128,1,307,125,67,0,0,297,32033,-3482,519,-5.59,,,,,,,,,,,,
175943,1564236394271,-0,2.63,1.06,0.42,1.49,1.13,0.84,-1.08,0.49,30,-1,39,1.37,7470,4,79,37,38,905,513.0,477,465,60,130.0,128,1,307,207,67,0,0,279,10432,17136,513,-5.59,44.680904,10.01726,50.74,181.0,0,0.0,-1,0.0,0.0,0,0.73,2.9324
175963,1564236394291,3,2.62,1.07,0.42,1.5,1.13,0.83,-1.05,0.46,30,-1,41,1.34,7434,1,79,37,38,921,511.0,416,466,60,128.0,113,1,307,204,58,0,0,266,-16384,-14,511,-5.59,,,,,,,,,,,,
175983,1564236394311,3,2.6,1.07,0.42,1.49,1.13,0.81,-1.02,0.45,30,-1,42,1.31,7344,15,79,37,39,937,511.0,374,463,60,129.0,113,1,310,229,58,0,0,261,6193,26178,511,-5.59,,,,,,,,,,,,
176003,1564236394331,2,2.59,1.07,0.42,1.5,1.13,0.82,-0.98,0.37,31,-2,42,1.27,7315,20,79,37,40,947,513.0,349,466,60,130.0,113,1,317,228,58,0,0,262,-16384,-21872,513,-5.59,,,,,,,,,,,,
176023,1564236394351,1,2.57,1.06,0.43,1.49,1.13,0.82,-1.01,0.34,32,-1,41,1.3,7301,22,79,37,41,951,509.0,375,465,60,127.0,113,1,325,226,58,0,0,262,6193,-4054,509,-5.59,,,,,,,,,,,,
176043,1564236394371,1,2.54,1.07,0.42,1.49,1.13,0.81,-1.08,0.34,32,-1,41,1.35,7270,29,79,37,42,954,508.0,375,467,60,127.0,113,1,332,226,58,0,0,260,6193,-14,508,-5.59,44.68092,10.017261,49.67,181.0,0,0.0,-1,0.0,0.0,0,0.73,2.9341
176063,1564236394391,-2,2.52,1.07,0.42,1.48,1.13,0.83,-1.17,0.39,32,-0,41,1.43,7295,22,79,37,46,957,506.0,347,467,60,127.0,122,1,362,215,62,0,0,260,-23623,-28648,508,-5.59,,,,,,,,,,,,
176083,1564236394411,-2,2.5,1.06,0.42,1.49,1.12,0.83,-1.23,0.43,31,0,42,1.49,7350,27,79,37,51,955,507.0,329,467,60,127.0,122,1,381,232,62,0,0,258,6193,-32248,503,-5.59,,,,,,,,,,,,
176103,1564236394431,-1,2.48,1.06,0.42,1.49,1.13,0.84,-1.24,0.45,30,-0,41,1.5,7491,45,79,37,56,953,502.0,318,465,60,127.0,122,1,403,300,62,0,0,263,30272,10408,504,-5.59,,,,,,,,,,,,
176123,1564236394451,-1,2.48,1.06,0.42,1.49,1.13,0.84,-1.25,0.5,29,-1,41,1.51,7703,44,79,37,61,936,503.0,322,466,60,127.0,122,1,442,338,62,0,0,267,-16384,-22519,503,-5.59,,,,,,,,,,,,
176143,1564236394471,1,2.48,1.06,0.42,1.49,1.12,0.84,-1.26,0.53,28,-1,40,1.51,7864,48,79,37,66,913,497.0,333,462,60,127.0,122,1,444,391,62,0,0,273,30272,6274,497,-5.59,44.680931,10.017262,49.06,180.9,0,0.0,-1,0.0,0.0,0,0.73,2.9357
176163,1564236394491,3,2.47,1.07,0.42,1.48,1.13,0.85,-1.25,0.52,28,-0,39,1.51,8019,39,79,37,70,892,497.0,325,463,60,128.0,242,1,447,373,121,0,0,285,16408,2524,497,-5.59,,,,,,,,,,,,
176183,1564236394511,2,2.48,1.06,0.42,1.49,1.12,0.91,-1.22,0.48,26,-1,38,1.52,8245,57,79,37,73,876,495.0,319,462,60,129.0,242,1,437,344,121,0,0,338,243,2524,496,-5.59,,,,,,,,,,,,
176203,1564236394531,-0,2.49,1.06,0.42,1.49,1.13,0.91,-1.14,0.5,25,-1,37,1.46,8292,44,79,37,75,861,495.0,313,463,60,128.0,242,1,433,504,121,0,0,433,243,248,493,-5.59,,,,,,,,,,,,
176223,1564236394551,1,2.48,1.06,0.42,1.49,1.12,0.93,-1.13,0.5,24,-2,37,1.47,8569,66,79,37,76,850,490.0,311,468,60,128.0,242,1,425,518,121,0,0,469,-16384,248,490,-5.59,,,,,,,,,,,,
176243,1564236394571,2,2.49,1.06,0.42,1.49,1.12,0.97,-1.16,0.53,23,-2,35,1.51,8861,70,79,37,76,844,492.0,307,464,60,128.0,242,1,417,522,121,0,0,466,30272,-32768,492,-5.59,44.680946,10.017266,48.41,180.9,0,0.0,-1,0.0,0.0,0,0.73,2.9374
176263,1564236394592,3,2.49,1.05,0.42,1.49,1.12,1.04,-1.05,0.4,22,-3,35,1.48,9291,70,79,37,77,854,492.0,302,467,60,128.0,371,1,414,466,183,0,0,468,-16384,2524,492,-5.59,,,,,,,,,,,,
176283,1564236394612,1,2.49,1.06,0.42,1.48,1.12,0.98,-1.01,0.43,22,-2,35,1.4,9725,70,79,37,77,904,493.0,312,463,60,128.0,371,1,407,467,183,0,0,469,16408,998,493,-5.59,,,,,,,,,,,,
176303,1564236394632,0,2.5,1.06,0.42,1.48,1.12,0.93,-0.97,0.3,22,-3,35,1.34,9973,76,79,37,75,955,493.0,323,471,60,128.0,371,1,397,476,183,0,0,502,-3210,2109,496,-5.59,,,,,,,,,,,,
176323,1564236394652,2,2.51,1.06,0.42,1.49,1.13,0.9,-0.96,0.47,23,-0,34,1.32,10075,76,79,37,75,1020,497.0,345,460,60,127.0,371,1,402,479,183,0,0,553,10432,-3856,497,-5.59,,,,,,,,,,,,
176343,1564236394672,0,2.52,1.06,0.42,1.49,1.12,0.83,-0.94,0.45,23,2,34,1.26,10091,76,79,37,74,1093,501.0,348,465,60,127.0,371,1,403,472,183,0,0,569,-9203,1341,501,-5.59,44.680954,10.017272,48.22,180.9,0,0.0,-1,0.0,0.0,0,0.73,2.939
176363,1564236394691,1,2.52,1.06,0.42,1.48,1.13,0.78,-0.95,0.37,23,1,35,1.23,10151,73,79,37,74,1146,508.0,389,463,60,127.0,359,1,407,473,181,0,0,529,-9203,2088,508,-5.59,,,,,,,,,,,,
176383,1564236394711,1,2.53,1.06,0.42,1.48,1.13,0.76,-0.89,0.32,24,1,35,1.17,10075,66,79,37,75,1180,510.0,393,467,60,128.0,359,1,402,460,181,0,0,511,16648,-3082,510,-5.59,,,,,,,,,,,,
176403,1564236394731,1,2.53,1.06,0.42,1.48,1.13,0.7,-0.85,0.49,24,3,34,1.1,9852,44,79,38,75,1216,514.0,421,468,60,128.0,359,1,402,444,181,0,0,548,16648,1780,514,-5.59,,,,,,,,,,,,
176423,1564236394751,3,2.54,1.06,0.42,1.48,1.13,0.65,-0.87,0.4,24,2,34,1.08,9837,28,79,38,75,1208,515.0,437,467,60,127.0,359,1,402,451,181,0,0,537,8488,6274,515,-5.59,,,,,,,,,,,,
176443,1564236394771,2,2.55,1.06,0.42,1.49,1.12,0.66,-0.88,0.53,25,1,34,1.1,9899,38,79,38,75,1195,517.0,471,473,60,128.0,359,1,400,544,181,0,0,514,-10483,-32248,517,-5.59,44.680965,10.01728,47.73,180.8,0,0.0,-1,0.0,0.0,0,0.74,2.9407
176463,1564236394791,-0,2.57,1.06,0.42,1.48,1.13,0.59,-0.88,0.5,25,1,34,1.05,9904,61,79,38,75,1190,519.0,507,467,60,127.0,389,1,400,541,202,0,0,555,505,6274,519,-5.59,,,,,,,,,,,,
176483,1564236394809,3,2.57,1.06,0.42,1.48,1.12,0.65,-0.85,0.35,25,-2,34,1.06,10113,72,79,38,75,1183,521.0,543,465,60,127.0,389,1,404,542,202,0,0,552,248,1780,521,-5.59,,,,,,,,,,,,
176503,1564236394829,3,2.57,1.06,0.41,1.48,1.13,0.6,-0.91,0.51,25,-2,33,1.09,10313,70,79,38,74,1186,527.0,575,462,60,127.0,389,1,419,544,202,0,0,539,-6528,6274,527,-5.59,,,,,,,,,,,,
176523,1564236394849,1,2.57,1.06,0.42,1.48,1.13,0.58,-0.94,0.66,25,-2,31,1.1,10469,71,79,38,72,1189,530.0,624,465,60,128.0,389,1,437,462,202,0,0,562,998,-32504,530,-5.59,,,,,,,,,,,,
176543,1564236394869,3,2.55,1.06,0.42,1.49,1.13,0.56,-1.0,0.79,26,-0,31,1.14,10611,70,79,38,71,1185,535.0,644,467,60,128.0,389,1,440,458,202,0,0,567,771,-29984,535,-5.59,44.680977,10.017286,49.25,180.8,0,0.0,-1,0.0,0.0,0,0.74,2.9424
176563,1564236394889,2,2.56,1.06,0.42,1.48,1.13,0.56,-1.0,0.87,27,0,31,1.15,10647,68,79,38,70,1180,539.0,657,463,60,128.0,345,1,443,453,185,0,0,564,3,-8188,540,-5.59,,,,,,,,,,,,
176583,1564236394910,1,2.55,1.06,0.42,1.49,1.12,0.53,-1.03,0.88,28,0,31,1.16,10738,66,79,38,70,1175,544.0,655,468,60,127.0,345,1,443,453,185,0,0,567,10408,259,542,-5.59,,,,,,,,,,,,
176603,1564236394930,-0,2.56,1.06,0.42,1.48,1.13,0.63,-0.95,0.84,28,-1,32,1.14,10775,65,79,38,70,1162,549.0,656,463,60,126.0,345,1,444,448,185,0,0,583,-32248,-8188,549,-5.59,,,,,,,,,,,,
176623,1564236394950,-0,2.55,1.06,0.42,1.49,1.12,0.57,-0.94,0.71,29,-0,34,1.09,10775,26,79,38,70,1136,549.0,662,464,60,127.0,345,1,444,441,185,0,0,579,-21872,-4035,549,-5.59,,,,,,,,,,,,
176643,1564236394970,2,2.56,1.06,0.42,1.48,1.13,0.55,-0.98,0.74,30,-1,34,1.12,10850,23,79,38,70,1116,552.0,668,463,60,128.0,345,1,446,436,185,0,0,576,-21872,15649,552,-5.59,44.680988,10.017296,50.95,180.8,0,0.0,-1,0.0,0.0,0,0.74,2.9441
176663,1564236394990,1,2.56,1.06,0.42,1.48,1.13,0.59,-1.06,0.84,30,-1,35,1.21,10844,46,79,38,69,1090,553.0,666,461,60,127.0,393,1,447,453,217,0,0,599,-28648,-12040,553,-5.59,,,,,,,,,,,,
176683,1564236395004,0,2.55,1.06,0.42,1.48,1.13,0.58,-1.08,0.84,31,-0,35,1.22,10952,54,79,38,70,1076,559.0,663,467,60,126.0,393,1,448,453,217,0,0,584,-3414,8488,559,-5.59,,,,,,,,,,,,
176703,1564236395024,2,2.55,1.05,0.42,1.49,1.12,0.61,-0.97,0.73,31,-3,37,1.15,11101,45,79,38,69,1049,560.0,653,463,60,127.0,393,1,448,436,217,0,0,576,26178,-3210,560,-5.59,,,,,,,,,,,,
176723,1564236395044,2,2.54,1.06,0.42,1.48,1.13,0.61,-1.07,0.86,32,-2,37,1.23,11114,38,79,38,69,1028,563.0,636,468,60,127.0,393,1,447,436,217,0,0,616,15679,6273,566,-5.59,,,,,,,,,,,,
176743,1564236395064,0,2.54,1.06,0.42,1.48,1.12,0.55,-0.94,0.73,32,-1,39,1.09,11214,49,79,38,68,1026,567.0,634,464,60,126.0,393,1,446,443,217,0,0,609,-9212,-3446,567,-5.59,44.681,10.017306,52.49,180.8,0,0.0,-1,0.0,0.0,0,0.74,2.9457
176763,1564236395084,3,2.56,1.06,0.42,1.49,1.12,0.58,-1.04,0.86,33,1,38,1.19,11343,61,79,38,66,1024,567.0,569,459,60,127.0,333,1,444,493,189,0,0,601,-8187,-3820,567,-5.59,,,,,,,,,,,,
176783,1564236395110,1,2.55,1.06,0.42,1.47,1.12,0.52,-0.98,0.7,33,-0,40,1.12,11343,57,79,38,63,1010,571.0,562,463,60,127.0,333,1,444,455,189,0,0,604,-9212,17740,571,-5.59,,,,,,,,,,,,
176803,1564236395130,0,2.55,1.06,0.42,1.48,1.13,0.56,-1.05,0.76,34,0,39,1.19,11308,49,79,38,60,988,574.0,524,461,60,127.0,333,1,437,426,189,0,0,612,2524,243,574,-5.59,,,,,,,,,,,,
176823,1564236395150,0,2.55,1.06,0.41,1.48,1.12,0.55,-1.04,0.65,34,-1,40,1.17,11174,18,79,38,59,972,572.0,495,462,60,127.0,333,1,433,366,189,0,0,614,2088,5344,576,-5.59,,,,,,,,,,,,
176843,1564236395170,3,2.54,1.06,0.42,1.48,1.12,0.58,-1.13,0.78,35,-1,39,1.27,11227,42,79,38,58,960,574.0,522,462,60,127.0,333,1,426,421,189,0,0,595,2088,-7939,574,-5.59,44.681007,10.017319,54.04,180.7,0,0.0,-1,0.0,0.0,0,0.74,2.9474
176863,1564236395192,1,2.54,1.06,0.42,1.47,1.13,0.61,-1.03,0.62,35,-2,42,1.2,11214,35,79,38,58,929,574.0,491,468,60,126.0,266,1,426,367,153,0,0,602,6274,-768,574,-5.59,,,,,,,,,,,,
176883,1564236395212,3,2.52,1.05,0.41,1.48,1.13,0.61,-1.12,0.75,35,0,40,1.28,11167,49,79,38,58,893,575.0,460,466,60,127.0,266,1,426,415,153,0,0,603,6274,243,575,-5.59,,,,,,,,,,,,
176903,1564236395232,2,2.5,1.06,0.42,1.48,1.12,0.62,-1.04,0.64,35,1,42,1.21,11174,44,79,37,57,861,575.0,431,466,60,127.0,266,1,420,417,153,0,0,606,-28648,243,575,-5.59,,,,,,,,,,,,
176923,1564236395252,4,2.49,1.05,0.42,1.49,1.13,0.63,-1.13,0.76,34,-0,42,1.29,11220,55,79,37,57,841,578.0,416,465,60,128.0,266,1,420,417,153,0,0,609,-9072,30227,575,-5.59,,,,,,,,,,,,
176943,1564236395272,2,2.46,1.06,0.42,1.48,1.13,0.63,-1.06,0.68,34,-2,44,1.24,11295,49,79,37,57,824,575.0,408,463,60,127.0,266,1,419,361,153,0,0,601,-22519,243,575,-5.59,44.681019,10.017331,55.53,180.7,0,0.0,-1,0.0,0.0,0,0.74,2.949
176963,1564236395292,2,2.45,1.06,0.42,1.48,1.12,0.64,-1.15,0.81,34,-2,42,1.32,11281,54,79,37,57,800,576.0,406,466,60,127.0,270,1,419,361,155,0,0,604,2104,243,576,-5.59,,,,,,,,,,,,
176983,1564236395310,3,2.43,1.05,0.42,1.49,1.13,0.57,-1.1,0.66,35,-3,42,1.24,11247,54,79,37,58,784,578.0,422,466,60,127.0,270,1,426,428,155,0,0,600,2104,-3446,578,-5.59,,,,,,,,,,,,
177003,1564236395330,3,2.39,1.05,0.42,1.48,1.13,0.65,-1.19,0.78,35,-3,40,1.35,11315,58,79,37,59,779,579.0,425,474,60,127.0,270,1,432,431,155,0,0,614,14504,30227,578,-5.59,,,,,,,,,,,,
177023,1564236395350,1,2.35,1.06,0.42,1.48,1.12,0.72,-1.08,0.63,34,-4,42,1.3,11391,62,79,37,61,775,582.0,422,468,60,127.0,270,1,443,441,155,0,0,629,-32248,17344,582,-5.59,,,,,,,,,,,,
177043,1564236395370,1,2.31,1.05,0.42,1.47,1.13,0.7,-1.09,0.76,32,-1,42,1.3,11481,74,79,37,65,768,576.0,414,465,60,128.0,270,1,440,458,155,0,0,640,-2934,17344,576,-5.59,44.681026,10.017345,55.87,180.7,0,0.0,-1,0.0,0.0,0,0.74,2.9507
177063,1564236395393,3,2.27,1.05,0.42,1.48,1.12,0.73,-1.13,0.87,30,1,41,1.34,11704,83,79,37,70,763,575.0,431,466,60,127.0,351,1,440,475,203,0,0,643,-3082,-768,575,-5.59,,,,,,,,,,,,
177083,1564236395413,3,2.24,1.05,0.42,1.48,1.12,0.7,-1.16,0.91,28,2,40,1.36,11912,91,79,37,76,761,578.0,417,463,60,127.0,351,1,440,490,203,0,0,606,-22519,19320,578,-5.59,,,,,,,,,,,,
177103,1564236395433,2,2.26,1.05,0.42,1.48,1.12,0.68,-1.21,0.98,27,4,37,1.39,12011,76,79,37,79,762,577.0,410,467,60,127.0,351,1,440,502,203,0,0,638,-9072,506,579,-5.59,,,,,,,,,,,,
177123,1564236395453,3,2.25,1.05,0.42,1.47,1.13,0.69,-1.27,1.02,26,6,34,1.44,12026,93,79,37,81,764,580.0,411,464,60,127.0,351,1,440,616,203,0,0,662,-32504,-2580,580,-5.59,,,,,,,,,,,,
177143,1564236395473,1,2.25,1.05,0.42,1.48,1.12,0.69,-1.32,1.12,24,7,31,1.49,12073,92,79,37,81,766,581.0,401,466,60,127.0,351,1,440,598,203,0,0,638,2211,6208,580,-5.59,44.681038,10.017362,56.01,180.7,0,0.0,-1,0.0,0.0,0,0.75,2.9524
177163,1564236395492,-0,2.28,1.05,0.41,1.48,1.12,0.69,-1.35,1.2,22,9,27,1.52,12050,80,79,37,82,770,582.0,397,463,60,127.0,468,1,440,545,272,0,0,621,-8188,479,582,-5.59,,,,,,,,,,,,
177183,1564236395512,-0,2.28,1.05,0.42,1.47,1.13,0.76,-1.38,1.28,20,10,24,1.58,11980,84,79,37,81,778,585.0,420,465,60,127.0,468,1,440,611,272,0,0,650,243,4909,588,-5.59,,,,,,,,,,,,
177203,1564236395532,1,2.29,1.05,0.41,1.47,1.13,0.79,-1.44,1.35,18,11,21,1.65,11927,71,79,37,82,785,589.0,431,463,60,127.0,468,1,440,629,272,0,0,636,15649,-2836,589,-5.59,,,,,,,,,,,,
177223,1564236395552,3,2.29,1.05,0.42,1.48,1.12,0.81,-1.47,1.41,15,11,18,1.68,11867,77,79,37,82,794,591.0,472,472,60,128.0,468,1,440,628,272,0,0,630,208,244,595,-5.59,,,,,,,,,,,,
177243,1564236395572,3,2.31,1.05,0.41,1.47,1.13,0.79,-1.47,1.47,13,11,16,1.67,11814,70,79,37,82,801,596.0,512,463,60,127.0,468,1,440,525,272,0,0,632,-13043,11776,598,-5.59,44.681046,10.017379,56.22,180.7,0,0.0,-1,0.0,0.0,0,0.75,2.9541
177263,1564236395592,2,2.33,1.05,0.41,1.47,1.13,0.67,-1.41,1.34,10,10,15,1.56,11792,94,79,37,82,804,604.0,524,470,60,128.0,403,1,440,630,241,0,0,634,5344,-5120,602,-5.59,,,,,,,,,,,,
177283,1564236395612,2,2.34,1.05,0.41,1.47,1.12,0.51,-1.23,1.18,8,8,15,1.33,11792,94,79,37,82,803,607.0,550,459,60,126.0,403,1,440,612,241,0,0,633,19621,-30207,607,-5.59,,,,,,,,,,,,
177303,1564236395632,1,2.36,1.05,0.41,1.47,1.12,0.4,-1.04,1.11,8,6,14,1.11,11807,92,79,37,82,803,611.0,544,460,60,127.0,403,1,440,594,241,0,0,640,-30139,771,611,-5.59,,,,,,,,,,,,
177323,1564236395652,2,2.35,1.04,0.41,1.46,1.12,0.29,-0.84,1.04,7,4,15,0.88,11889,94,79,37,82,797,617.0,583,462,60,127.0,403,1,440,578,241,0,0,636,26688,244,617,-5.59,,,,,,,,,,,,
177343,1564236395672,2,2.37,1.05,0.42,1.47,1.12,0.18,-0.66,1.06,7,3,15,0.69,11980,94,79,37,82,789,622.0,633,461,60,127.0,403,1,440,562,241,0,0,644,30721,-3488,622,-5.59,44.681053,10.017396,57.63,180.6,0,0.0,-1,0.0,0.0,0,0.75,2.9557
177363,1564236395692,2,2.37,1.05,0.41,1.48,1.13,0.1,-0.56,1.02,8,3,14,0.57,12073,94,79,37,82,785,629.0,658,461,60,127.0,406,1,440,545,254,0,0,643,3395,-3488,631,-5.59,,,,,,,,,,,,
177383,1564236395712,3,2.37,1.05,0.41,1.47,1.12,0.04,-0.44,1.0,8,2,14,0.44,12191,93,79,37,82,779,635.0,670,463,60,127.0,406,1,440,545,254,0,0,662,20993,-2826,633,-5.59,,,,,,,,,,,,
177403,1564236395732,3,2.38,1.06,0.41,1.48,1.13,-0.04,-0.35,0.94,9,3,14,0.35,12319,93,79,37,82,780,639.0,677,462,60,128.0,406,1,440,545,254,0,0,653,-14655,-3488,641,-5.59,,,,,,,,,,,,
177423,1564236395752,-1,2.38,1.05,0.41,1.47,1.13,0.03,-0.46,1.04,9,4,12,0.46,12384,96,79,37,82,781,645.0,677,459,60,128.0,406,1,440,545,254,0,0,662,3,-3038,645,-5.59,,,,,,,,,,,,
177443,1564236395772,-2,2.39,1.05,0.42,1.48,1.12,0.11,-0.54,1.14,9,7,10,0.55,11897,95,80,37,83,781,648.0,667,461,60,130.0,406,1,440,552,254,0,0,651,6208,-2345,648,-5.59,44.681061,10.017415,60.23,180.7,0,0.0,-1,0.0,0.0,0,0.75,2.9574
177463,1564236395792,-1,2.38,1.05,0.41,1.48,1.12,0.16,-0.51,1.05,9,5,11,0.53,11384,85,79,37,85,782,651.0,666,456,60,130.0,376,1,441,577,245,0,0,650,6208,8958,647,-5.59,,,,,,,,,,,,
177483,1564236395812,-1,2.38,1.06,0.42,1.48,1.13,0.27,-0.47,1.09,9,3,10,0.54,11088,100,79,37,86,783,648.0,665,458,60,130.0,376,1,445,688,245,0,0,640,-10251,-3038,648,-5.59,,,,,,,,,,,,
177503,1564236395832,-1,2.38,1.05,0.42,1.47,1.13,0.27,-0.36,0.78,10,-0,11,0.45,10913,100,79,37,86,783,647.0,661,457,60,130.0,376,1,442,673,245,0,0,634,-2836,2024,647,-5.59,,,,,,,,,,,,
177523,1564236395852,1,2.39,1.05,0.42,1.47,1.13,0.34,-0.37,0.83,11,-2,11,0.5,10617,100,79,37,87,818,649.0,660,463,60,128.0,376,1,436,1248,245,0,0,637,-2836,244,649,-5.59,,,,,,,,,,,,
177543,1564236395872,1,2.37,1.05,0.42,1.47,1.13,0.34,-0.35,0.8,11,1,12,0.49,9978,100,79,37,87,852,650.0,660,457,60,126.0,376,1,398,1099,245,0,0,740,244,-3584,650,-5.59,44.681065,10.017435,62.13,180.7,0,0.0,-1,0.0,0.0,0,0.75,2.959
177563,1564236395891,4,2.37,1.05,0.41,1.48,1.13,0.37,-0.37,0.78,10,4,13,0.52,9684,100,79,37,86,885,660.0,657,465,60,127.0,591,1,410,916,388,0,0,811,244,-2826,662,-5.59,,,,,,,,,,,,
177583,1564236395911,1,2.37,1.05,0.41,1.48,1.13,0.41,-0.46,0.88,11,5,13,0.62,9973,100,79,37,85,919,666.0,650,463,60,127.0,591,1,397,765,388,0,0,701,-8429,16599,669,-5.59,,,,,,,,,,,,
177603,1564236395931,2,2.37,1.05,0.41,1.47,1.13,0.43,-0.45,0.85,11,6,13,0.62,9989,100,79,37,84,1041,666.0,652,464,60,127.0,591,1,396,635,388,0,0,690,-3488,-20693,669,-5.59,,,,,,,,,,,,
177623,1564236395951,2,2.37,1.05,0.42,1.47,1.13,0.45,-0.41,0.96,11,7,13,0.61,9679,100,79,37,85,1128,673.0,650,456,60,126.0,591,1,410,505,388,0,0,725,8958,-13072,673,-5.59,,,,,,,,,,,,
177643,1564236395971,2,2.37,1.05,0.41,1.47,1.12,0.52,-0.41,1.01,11,6,13,0.66,9412,100,79,37,85,1216,681.0,647,466,60,128.0,591,1,418,571,388,0,0,720,-2345,-13312,681,-5.59,44.681068,10.017456,64.0,180.7,0,0.0,-1,0.0,0.0,0,0.75,2.9607
177663,1564236395991,1,2.37,1.05,0.41,1.48,1.12,0.48,-0.35,0.85,11,4,14,0.6,9403,98,79,37,85,1316,679.0,648,455,60,128.0,301,1,418,669,204,0,0,695,-10348,-12152,678,-5.59,,,,,,,,,,,,
177683,1564236396005,2,2.37,1.05,0.41,1.47,1.13,0.47,-0.42,0.86,10,1,14,0.63,9441,95,79,37,86,1296,682.0,652,452,60,128.0,301,1,418,514,204,0,0,696,-3578,-13072,683,-5.59,,,,,,,,,,,,
177703,1564236396025,2,2.38,1.05,0.42,1.47,1.13,0.45,-0.48,0.97,9,0,11,0.66,9620,100,79,37,85,1261,685.0,649,462,60,127.0,301,1,413,655,204,0,0,713,-26380,204,685,-5.59,,,,,,,,,,,,
177723,1564236396045,0,2.37,1.05,0.42,1.47,1.13,0.42,-0.45,0.98,9,-0,11,0.62,9780,100,79,37,85,1200,689.0,655,458,60,127.0,301,1,406,644,204,0,0,721,-26562,-13312,689,-5.59,,,,,,,,,,,,
177743,1564236396065,3,2.36,1.06,0.41,1.48,1.13,0.34,-0.36,0.94,8,-1,11,0.5,9946,100,79,37,85,1091,694.0,656,462,60,128.0,301,1,398,631,204,0,0,738,3543,1524,696,-5.59,44.681076,10.017477,64.47,180.7,0,0.0,-1,0.0,0.0,0,0.76,2.9624
177763,1564236396091,2,2.36,1.06,0.42,1.47,1.13,0.3,-0.31,1.04,8,-1,11,0.43,10032,100,79,37,85,998,699.0,659,459,60,128.0,341,1,397,592,237,0,0,721,24,1524,699,-5.59,,,,,,,,,,,,
177783,1564236396111,1,2.35,1.05,0.42,1.47,1.13,0.15,-0.38,1.14,8,2,10,0.41,10048,100,79,37,84,913,705.0,656,461,60,127.0,341,1,398,489,237,0,0,729,12333,3462,705,-5.59,,,,,,,,,,,,
177803,1564236396131,2,2.35,1.05,0.42,1.47,1.13,0.16,-0.32,1.14,8,1,9,0.36,10005,100,79,37,84,881,711.0,655,462,60,128.0,341,1,397,563,237,0,0,733,-2830,3462,712,-5.59,,,,,,,,,,,,
