"Interval"|"ms"|0|0|1,"Utc"|"ms"|0|0|1,"FB_p"|"bar"|0|300|50,"Volant"|"F"|0.0|300.0|50,"xFR"|"mm"|0.0|5.0|50,"xRR"|"mm"|0.0|5.0|50,"xFL"|"mm"|0.0|5.0|50,"xRL"|"mm"|0.0|5.0|50,"AccelX"|"G"|-3.0|3.0|50,"AccelY"|"G"|-3.0|3.0|50,"AccelZ"|"G"|-3.0|3.0|50,"Yaw"|"Deg/Sec"|-120|120|50,"Pitch"|"Deg/Sec"|-120|120|50,"Roll"|"Deg/Sec"|-120|120|50,"Gsum"|"G"|0.0|3.0|50,"RPM"|""|0|14000|50,"TPS"|"%"|0|100|50,"WaterTemp"|"?C"|0|300|50,"AirTemp"|"?C"|-1000|1000|50,"MAP"|"KPa"|0|255|50,"Lambda"|""|0|1024|50,"WheelSpeed"|"MPH"|0.0|150.0|50,"OilPress"|"PSI"|0|150|50,"FuelPress"|"PSI"|0|150|50,"OilTemp"|"F"|0|300|50,"Battery"|"Volts"|0.0|20.0|50,"FuelCon"|"L/h"|-1000|1000|50,"Gear"|""|0|10|50,"Advance"|"Deg"|-360|360|50,"Injection"|"ms"|-1000|1000|50,"FuelCon"|"L/100km"|-1000|1000|50,"LC_But_Pres"|""|-1000|1000|50,"LC_Active"|""|-1000|1000|50,"RD_Speed"|""|-1000|1000|50,"RUD_Speed"|""|-1000|1000|50,"LD_Speed"|""|-1000|1000|50,"LUD_Speed"|""|-1000|1000|50,"Ana1"|"bar"|-1000.0|1000.0|50,"Latitude"|"Degrees"|-180.0|180.0|10,"Longitude"|"Degrees"|-180.0|180.0|10,"Speed"|"kph"|0.0|150.0|10,"Altitude"|"m"|0.0|4000.0|10,"LapCount"|""|0|0|10,"LapTime"|"Min"|0.0|0.0|10,"Sector"|""|0|0|10,"SectorTime"|"Min"|0.0|0.0|10,"ElapsedTime"|"Min"|0.0|0.0|10,"CurrentLap"|""|0|0|10,"Distance"|"km"|0.0|0.0|10,"SessionTime"|"Min"|0.0|0.0|10
330963,1564236549296,-1,1.46,0.9,0.27,1.31,0.98,0.88,0.89,0.33,-29,-1,-40,1.26,7924,24,87,39,41,915,399.0,633,466,60,127.0,170,1,325,208,63,0,0,433,28696,-8165,366,-5.59,,,,,,,,,,,,
330983,1564236549316,-0,1.44,0.9,0.27,1.31,0.98,0.83,1.0,0.25,-29,-2,-39,1.31,7914,23,87,39,41,919,397.0,632,464,60,127.0,170,1,325,209,63,0,0,428,-3968,-3856,362,-5.59,,,,,,,,,,,,
331003,1564236549336,1,1.46,0.9,0.26,1.31,0.97,0.7,1.09,0.25,-28,-1,-40,1.3,7934,22,87,39,41,920,398.0,632,462,60,127.0,171,1,325,209,62,0,0,430,6384,2524,361,-5.59,,,,,,,,,,,,
331023,1564236549356,-0,1.46,0.9,0.27,1.31,0.98,0.75,1.01,0.3,-29,0,-41,1.26,7891,24,87,39,41,919,396.0,638,462,60,128.0,171,1,325,209,62,0,0,428,-32702,10392,360,-5.59,,,,,,,,,,,,
331043,1564236549376,-0,1.44,0.9,0.27,1.32,0.97,0.88,1.0,0.32,-30,-1,-40,1.33,7901,24,87,39,42,917,395.0,637,466,60,128.0,171,1,332,211,62,0,0,426,17144,-9166,357,-5.59,44.681313,10.016888,40.92,180.0,0,0.0,-1,0.0,0.0,0,2.03,5.5174
331063,1564236549396,-1,1.45,0.9,0.27,1.32,0.97,0.79,1.04,0.36,-30,-2,-40,1.31,7851,24,87,39,42,914,393.0,631,465,60,127.0,171,1,332,211,62,0,0,425,-6656,-21792,354,-5.59,,,,,,,,,,,,
331083,1564236549416,1,1.46,0.91,0.27,1.32,0.98,0.67,1.07,0.31,-30,-1,-41,1.26,7799,24,87,39,42,911,389.0,632,464,60,126.0,171,1,332,211,62,0,0,423,-6524,18584,354,-5.59,,,,,,,,,,,,
331103,1564236549436,4,1.45,0.9,0.27,1.32,0.98,0.71,1.0,0.26,-30,-0,-40,1.23,7819,23,87,39,42,911,385.0,632,465,60,128.0,177,1,332,211,63,0,0,423,-6475,11560,353,-5.59,,,,,,,,,,,,
331123,1564236549456,-1,1.44,0.9,0.27,1.31,0.96,0.84,0.9,0.3,-30,-1,-40,1.23,7741,23,87,39,43,913,385.0,629,466,60,128.0,177,1,340,213,63,0,0,420,-6475,-4059,352,-5.59,,,,,,,,,,,,
331143,1564236549476,0,1.46,0.91,0.28,1.31,0.98,0.96,0.88,0.36,-31,-1,-39,1.3,7703,24,87,39,43,917,384.0,627,468,60,127.0,177,1,340,213,63,0,0,417,-19019,2524,349,-5.59,44.681301,10.016885,40.16,180.0,0,0.0,-1,0.0,0.0,0,2.04,5.5191
331163,1564236549496,-0,1.47,0.91,0.28,1.32,0.98,0.97,0.93,0.4,-31,-2,-40,1.34,7747,24,87,39,44,921,382.0,628,467,60,128.0,177,1,347,213,63,0,0,414,19125,-26615,347,-5.59,,,,,,,,,,,,
331183,1564236549516,0,1.48,0.9,0.27,1.31,0.98,0.84,0.96,0.4,-31,-2,-42,1.28,7700,24,87,39,43,933,385.0,631,467,60,128.0,177,1,340,214,63,0,0,415,-6475,9517,348,-5.59,,,,,,,,,,,,
331203,1564236549536,2,1.49,0.91,0.27,1.32,0.98,0.73,1.01,0.33,-31,-2,-42,1.25,7712,22,87,39,43,945,389.0,631,465,60,127.0,178,1,340,214,62,0,0,416,-6524,-32702,347,-5.59,,,,,,,,,,,,
331223,1564236549556,2,1.52,0.91,0.27,1.32,0.98,0.65,0.99,0.29,-31,-1,-42,1.18,7640,24,87,39,44,954,387.0,628,465,60,128.0,178,1,347,214,62,0,0,413,240,-9166,348,-5.59,,,,,,,,,,,,
331243,1564236549576,1,1.53,0.91,0.28,1.32,0.98,0.65,0.95,0.26,-32,1,-41,1.15,7618,24,87,39,44,959,390.0,629,463,60,128.0,178,1,347,214,62,0,0,416,-1562,18584,346,-5.59,44.681294,10.016883,39.26,180.0,0,0.0,-1,0.0,0.0,0,2.04,5.5207
331263,1564236549596,3,1.58,0.9,0.28,1.32,0.99,0.76,0.93,0.28,-32,0,-42,1.2,7609,23,87,39,44,968,390.0,628,465,60,128.0,178,1,347,214,62,0,0,409,-1562,-26615,346,-5.59,,,,,,,,,,,,
331283,1564236549616,3,1.63,0.91,0.28,1.32,0.98,0.87,0.83,0.28,-32,1,-44,1.21,7578,23,87,39,45,982,390.0,631,467,60,128.0,178,1,355,214,62,0,0,408,-1562,6512,347,-5.59,,,,,,,,,,,,
331303,1564236549636,3,1.7,0.91,0.28,1.33,0.98,0.94,0.81,0.29,-32,2,-43,1.24,7557,23,87,39,44,989,391.0,625,465,60,128.0,178,1,347,214,62,0,0,409,505,1504,349,-5.59,,,,,,,,,,,,
331323,1564236549656,-1,1.82,0.91,0.28,1.32,0.99,1.0,0.7,0.38,-33,1,-43,1.22,7588,23,87,39,45,995,399.0,628,463,60,128.0,178,1,355,214,62,0,0,405,28696,11560,354,-5.59,,,,,,,,,,,,
331343,1564236549676,-1,1.95,0.91,0.28,1.33,0.98,1.07,0.71,0.46,-34,-1,-44,1.28,7551,23,87,39,45,999,405.0,626,465,60,128.0,178,1,355,216,62,0,0,407,-9211,1504,359,-5.59,44.681282,10.016883,38.57,180.0,0,0.0,-1,0.0,0.0,0,2.04,5.5224
331363,1564236549696,-2,2.08,0.92,0.27,1.33,1.0,1.12,0.65,0.56,-35,-1,-46,1.29,7618,23,87,39,45,1007,411.0,626,467,60,127.0,178,1,355,214,62,0,0,408,-4059,-6656,361,-5.59,,,,,,,,,,,,
331383,1564236549716,-1,2.2,0.93,0.28,1.35,0.99,1.07,0.63,0.59,-34,-1,-45,1.25,7569,23,87,39,45,1011,409.0,625,463,60,128.0,178,1,355,216,62,0,0,408,9517,-19126,363,-5.59,,,,,,,,,,,,
331403,1564236549736,-2,2.29,0.94,0.29,1.37,1.01,1.03,0.56,0.65,-31,-1,-45,1.17,7515,23,87,39,45,1013,405.0,624,465,60,127.0,169,1,355,216,62,0,0,406,-8151,1,368,-5.59,,,,,,,,,,,,
331423,1564236549756,-1,2.35,0.95,0.3,1.38,1.02,1.09,0.41,0.78,-28,-2,-43,1.16,7402,23,87,39,45,1017,400.0,619,466,60,127.0,169,1,355,216,62,0,0,403,28696,-19126,377,-5.59,,,,,,,,,,,,
331443,1564236549776,1,2.44,0.97,0.31,1.39,1.04,1.12,0.25,0.83,-24,-0,-40,1.15,7338,23,87,39,45,1025,388.0,618,466,60,127.0,169,1,355,216,62,0,0,399,-31744,1,385,-5.59,44.681274,10.016884,38.13,180.0,0,0.0,-1,0.0,0.0,0,2.04,5.524
331463,1564236549797,4,2.53,0.97,0.32,1.41,1.05,1.12,0.17,0.79,-19,-0,-37,1.14,7217,22,87,39,46,1034,388.0,613,463,60,128.0,169,1,362,218,62,0,0,391,-31744,-6656,390,-5.59,,,,,,,,,,,,
331483,1564236549817,2,2.62,0.99,0.33,1.42,1.06,1.07,0.16,0.76,-14,-0,-33,1.08,7186,23,87,39,46,1039,391.0,608,463,60,127.0,169,1,362,218,62,0,0,389,-18948,28696,392,-5.59,,,,,,,,,,,,
331503,1564236549837,-0,2.7,0.99,0.33,1.43,1.06,1.03,0.05,0.68,-10,-1,-29,1.03,7159,23,87,39,47,1044,392.0,604,461,60,128.0,150,1,370,220,59,0,0,384,2278,28696,392,-5.59,,,,,,,,,,,,
331523,1564236549857,-2,2.8,0.99,0.33,1.43,1.06,1.06,-0.12,0.77,-7,-2,-24,1.07,7211,23,87,39,47,1054,392.0,606,465,60,125.0,150,1,370,220,59,0,0,383,742,28696,392,-5.59,,,,,,,,,,,,
331543,1564236549877,2,2.87,0.99,0.33,1.43,1.06,1.09,-0.18,0.85,-4,0,-16,1.11,7244,22,87,39,47,1060,390.0,609,465,60,127.0,150,1,370,220,59,0,0,384,0,10541,389,-5.59,44.681263,10.016887,37.88,180.0,0,0.0,-1,0.0,0.0,0,2.04,5.5257
331563,1564236549896,3,2.93,0.98,0.33,1.43,1.06,1.01,-0.17,0.85,-0,3,-10,1.03,7261,22,87,39,47,1061,388.0,611,460,60,129.0,150,1,370,220,59,0,0,393,2790,6384,387,-5.59,,,,,,,,,,,,
331583,1564236549916,3,0.33,0.96,0.31,1.41,1.04,0.92,-0.22,0.8,3,4,-5,0.95,7347,22,87,39,47,1063,388.0,612,463,60,127.0,150,1,370,220,59,0,0,397,-29302,-3968,387,-5.59,,,,,,,,,,,,
331603,1564236549936,1,0.35,0.95,0.31,1.4,1.03,0.89,-0.25,0.74,7,5,-0,0.93,7393,22,87,39,47,1067,386.0,613,465,60,128.0,160,1,370,220,62,0,0,398,28553,6512,387,-5.59,,,,,,,,,,,,
331623,1564236549956,2,0.35,0.94,0.32,1.39,1.03,0.86,-0.34,0.68,10,6,3,0.92,7500,22,87,39,47,1071,385.0,616,465,60,128.0,160,1,370,220,62,0,0,399,-30454,6512,386,-5.59,,,,,,,,,,,,
331643,1564236549976,2,0.36,0.94,0.31,1.39,1.03,0.87,-0.42,0.63,12,6,7,0.96,7566,23,87,39,47,1072,387.0,621,464,60,127.0,160,1,370,220,62,0,0,398,-30438,17144,387,-5.59,44.681255,10.016889,38.5,179.9,0,0.0,-1,0.0,0.0,0,2.04,5.5274
331663,1564236549996,1,0.38,0.94,0.31,1.4,1.02,0.85,-0.48,0.58,15,6,11,0.98,7668,22,87,39,46,1074,384.0,621,464,60,128.0,160,1,362,218,62,0,0,407,-10554,17144,384,-5.59,,,,,,,,,,,,
331683,1564236550010,0,0.39,0.94,0.31,1.4,1.03,0.86,-0.5,0.55,17,5,15,0.99,7693,23,87,39,46,1078,383.0,619,464,60,127.0,160,1,362,218,62,0,0,414,-14714,-6656,383,-5.59,,,,,,,,,,,,
331703,1564236550030,-1,0.42,0.94,0.31,1.4,1.02,0.91,-0.53,0.52,19,4,19,1.05,7783,23,87,39,46,1081,382.0,623,464,60,128.0,167,1,362,216,64,0,0,429,-122,6512,382,-5.59,,,,,,,,,,,,
331723,1564236550050,1,0.46,0.94,0.31,1.39,1.02,0.91,-0.61,0.57,21,4,21,1.09,7825,23,87,39,45,1082,378.0,624,462,60,127.0,167,1,355,218,64,0,0,435,13,-32702,378,-5.59,,,,,,,,,,,,
331743,1564236550070,0,0.5,0.94,0.31,1.39,1.03,0.91,-0.68,0.51,23,4,24,1.14,7815,23,87,39,45,1083,376.0,623,463,60,127.0,167,1,355,216,64,0,0,442,-6528,17144,376,-5.59,44.681244,10.016891,38.13,180.0,0,0.0,-1,0.0,0.0,0,2.04,5.529
331763,1564236550095,2,0.51,0.95,0.31,1.39,1.03,0.91,-0.7,0.43,25,3,26,1.15,7828,17,87,39,45,1080,373.0,628,463,60,128.0,167,1,355,216,64,0,0,452,-20736,-1818,373,-5.59,,,,,,,,,,,,
331783,1564236550115,-1,0.53,0.95,0.31,1.4,1.03,0.94,-0.72,0.38,27,2,29,1.19,7838,23,87,39,45,1077,369.0,625,463,60,127.0,167,1,355,216,64,0,0,457,160,-6656,369,-5.59,,,,,,,,,,,,
331803,1564236550135,-1,0.54,0.94,0.31,1.39,1.03,0.92,-0.79,0.39,28,1,31,1.21,7884,16,87,39,45,1074,365.0,496,465,60,128.0,173,1,355,216,64,0,0,451,150,-31744,365,-5.59,,,,,,,,,,,,
331823,1564236550155,2,0.53,0.95,0.31,1.39,1.03,0.86,-0.86,0.41,30,2,32,1.22,7965,17,87,39,44,1069,364.0,394,463,60,126.0,173,1,347,214,64,0,0,456,145,-31744,363,-5.59,,,,,,,,,,,,
331843,1564236550175,3,0.53,0.94,0.31,1.4,1.03,0.88,-0.9,0.41,31,1,34,1.26,7982,16,87,39,43,1060,364.0,341,461,60,128.0,173,1,340,213,64,0,0,462,145,-1562,364,-5.59,44.681236,10.016892,37.44,179.9,0,0.0,-1,0.0,0.0,0,2.04,5.5307
331863,1564236550195,-0,0.53,0.94,0.31,1.39,1.03,0.87,-0.93,0.47,32,1,35,1.28,8012,14,87,39,43,1053,362.0,323,463,60,128.0,173,1,340,213,64,0,0,471,140,-3866,362,-5.59,,,,,,,,,,,,
331883,1564236550215,2,0.53,0.94,0.31,1.39,1.03,0.85,-0.98,0.45,33,1,36,1.29,8033,16,87,39,43,1046,361.0,321,465,60,127.0,173,1,340,213,64,0,0,478,-29696,-18948,361,-5.59,,,,,,,,,,,,
331903,1564236550235,1,0.52,0.95,0.31,1.4,1.03,0.85,-0.99,0.44,34,1,37,1.3,8009,16,87,39,43,1041,361.0,296,462,60,128.0,180,1,340,213,65,0,0,483,-29696,-19126,361,-5.59,,,,,,,,,,,,
331923,1564236550255,-1,0.53,0.94,0.32,1.39,1.03,0.85,-1.03,0.42,35,1,39,1.34,8033,21,87,39,43,1030,360.0,302,463,60,127.0,180,1,340,211,65,0,0,485,130,-992,360,-5.59,,,,,,,,,,,,
331943,1564236550275,2,0.51,0.94,0.31,1.4,1.02,0.81,-1.09,0.35,36,-0,39,1.36,8092,19,87,39,42,1023,359.0,298,462,60,128.0,180,1,333,213,65,0,0,489,125,742,359,-5.59,44.681225,10.016892,36.55,179.9,0,0.0,-1,0.0,0.0,0,2.04,5.5324
331963,1564236550295,-0,0.52,0.94,0.32,1.4,1.02,0.89,-1.08,0.35,37,-0,40,1.4,8092,16,87,39,42,1013,358.0,296,466,60,128.0,180,1,333,211,65,0,0,490,120,-18948,358,-5.59,,,,,,,,,,,,
331983,1564236550315,2,0.52,0.94,0.31,1.4,1.03,0.87,-1.12,0.27,38,-0,42,1.42,8130,22,87,39,42,1010,356.0,297,467,60,128.0,180,1,333,212,65,0,0,494,30720,742,355,-5.59,,,,,,,,,,,,
332003,1564236550335,-0,0.53,0.94,0.32,1.39,1.03,0.91,-1.08,0.31,39,1,42,1.41,8184,20,87,39,41,1003,354.0,298,463,60,128.0,180,1,327,211,64,0,0,499,110,-6656,353,-5.59,,,,,,,,,,,,
332023,1564236550355,-1,0.54,0.94,0.31,1.4,1.02,0.9,-1.13,0.3,40,1,44,1.45,8212,21,87,39,41,998,352.0,307,463,60,128.0,180,1,328,211,64,0,0,501,28160,1,352,-5.59,,,,,,,,,,,,
332043,1564236550375,3,0.53,0.94,0.31,1.4,1.03,0.9,-1.09,0.3,40,1,46,1.41,8184,23,87,39,41,994,350.0,338,462,60,128.0,180,1,327,211,64,0,0,507,26880,-6656,350,-5.59,44.681221,10.01689,36.12,179.9,0,0.0,-1,0.0,0.0,0,2.05,5.534
332063,1564236550395,0,0.53,0.94,0.31,1.4,1.02,0.91,-1.09,0.33,40,-0,47,1.42,8191,23,87,39,41,994,349.0,327,466,60,127.0,180,1,327,211,64,0,0,513,25600,486,347,-5.59,,,,,,,,,,,,
332083,1564236550415,3,0.52,0.94,0.31,1.39,1.03,0.89,-1.07,0.35,41,0,48,1.4,8234,24,87,39,41,985,347.0,321,465,60,128.0,180,1,328,211,64,0,0,517,95,230,347,-5.59,,,,,,,,,,,,
332103,1564236550435,1,0.51,0.95,0.32,1.4,1.03,0.93,-1.09,0.31,41,-1,49,1.43,8220,24,87,39,41,976,346.0,312,465,60,127.0,187,1,328,211,65,0,0,522,25600,0,346,-5.59,,,,,,,,,,,,
332123,1564236550455,3,0.52,0.94,0.31,1.4,1.02,0.92,-1.1,0.3,42,-2,49,1.43,8249,24,87,39,40,961,346.0,306,465,60,127.0,187,1,321,209,65,0,0,519,23040,-6405,346,-5.59,,,,,,,,,,,,
332143,1564236550475,0,0.5,0.94,0.31,1.4,1.03,0.95,-1.16,0.32,42,-1,50,1.5,8292,20,87,39,40,953,343.0,306,466,60,126.0,187,1,321,209,65,0,0,527,23040,-6458,343,-5.59,44.68121,10.016887,35.08,179.8,0,0.0,-1,0.0,0.0,0,2.05,5.5357
332163,1564236550495,2,0.46,0.94,0.32,1.4,1.02,0.94,-1.18,0.33,42,-1,50,1.51,8311,23,87,39,40,939,343.0,312,463,60,127.0,187,1,322,209,65,0,0,524,80,-6458,343,-5.59,,,,,,,,,,,,
332183,1564236550515,-0,0.44,0.94,0.31,1.39,1.04,1.0,-1.2,0.32,42,-1,51,1.56,8348,24,87,39,40,928,342.0,310,464,60,126.0,187,1,322,210,65,0,0,531,80,3302,343,-5.59,,,,,,,,,,,,
332203,1564236550535,-1,0.39,0.94,0.31,1.4,1.03,1.01,-1.19,0.36,43,-1,52,1.56,8325,19,87,39,40,923,344.0,306,465,60,127.0,192,1,322,209,66,0,0,537,20480,3302,344,-5.59,,,,,,,,,,,,
332223,1564236550555,1,0.33,0.95,0.31,1.4,1.03,0.95,-1.23,0.35,43,-2,53,1.55,8322,21,87,39,40,924,347.0,302,466,60,126.0,192,1,322,232,66,0,0,543,85,-6644,347,-5.59,,,,,,,,,,,,
332243,1564236550575,-2,2.89,0.97,0.33,1.41,1.05,1.01,-1.23,0.42,43,-2,53,1.59,8370,24,87,39,40,925,349.0,303,466,60,128.0,192,1,323,229,66,0,0,550,85,-30454,350,-5.59,44.681202,10.016883,34.45,179.8,0,0.0,-1,0.0,0.0,0,2.05,5.5374
332263,1564236550597,2,2.78,0.97,0.33,1.41,1.05,0.86,-1.27,0.4,43,-2,54,1.53,8411,24,87,39,40,926,351.0,293,464,60,126.0,192,1,324,226,66,0,0,549,24320,3183,351,-5.59,,,,,,,,,,,,
332283,1564236550617,-0,2.66,0.97,0.32,1.41,1.05,0.98,-1.21,0.41,43,-2,55,1.56,8426,24,87,39,40,927,355.0,297,465,60,128.0,192,1,325,223,66,0,0,551,95,2811,355,-5.59,,,,,,,,,,,,
332303,1564236550637,-1,2.53,0.97,0.32,1.42,1.05,0.97,-1.13,0.47,42,0,56,1.48,8453,23,87,39,40,926,355.0,297,465,60,127.0,199,1,325,219,71,0,0,555,25600,-6644,355,-5.59,,,,,,,,,,,,
332323,1564236550657,3,2.44,0.96,0.32,1.4,1.04,0.88,-1.09,0.43,38,2,57,1.4,8488,24,87,39,40,927,351.0,307,465,60,127.0,199,1,325,215,71,0,0,552,100,2811,349,-5.59,,,,,,,,,,,,
332343,1564236550677,1,2.37,0.96,0.32,1.38,1.05,0.88,-0.97,0.42,34,4,55,1.32,8488,25,87,39,40,928,345.0,326,465,60,126.0,199,1,325,211,71,0,0,488,125,-30454,345,-5.59,44.681194,10.016877,33.26,179.8,0,0.0,-1,0.0,0.0,0,2.05,5.5391
332363,1564236550695,1,2.33,0.94,0.31,1.37,1.04,0.81,-0.8,0.46,30,6,54,1.14,8278,11,87,39,39,929,341.0,340,463,60,125.0,199,1,315,209,71,0,0,388,-27136,-6656,341,-5.59,,,,,,,,,,,,
332383,1564236550715,-0,2.25,0.92,0.3,1.33,1.0,0.78,-0.66,0.55,27,7,51,1.03,7668,25,87,39,41,930,345.0,357,463,60,126.0,199,1,325,231,71,0,0,362,-6528,15649,345,-5.59,,,,,,,,,,,,
332403,1564236550735,-2,2.19,0.91,0.28,1.3,0.99,0.64,-0.52,0.64,24,6,46,0.83,7557,25,87,39,42,931,347.0,367,462,60,127.0,187,1,332,231,65,0,0,383,6870,3826,347,-5.59,,,,,,,,,,,,
332423,1564236550755,1,2.11,0.89,0.27,1.27,0.96,0.55,-0.43,0.77,21,3,40,0.69,7557,26,87,39,45,929,352.0,367,460,60,128.0,187,1,355,141,65,0,0,364,3183,-29302,346,-5.59,,,,,,,,,,,,
332443,1564236550775,-2,2.04,0.87,0.26,1.25,0.96,0.51,-0.26,0.81,18,-0,34,0.57,5740,26,87,39,48,925,355.0,370,462,60,127.0,187,1,339,235,65,0,0,361,2060,-1246,346,-5.59,44.681187,10.01687,33.28,179.8,0,0.0,-1,0.0,0.0,0,2.05,5.5407
332463,1564236550795,-2,1.96,0.86,0.25,1.24,0.94,0.57,-0.15,0.61,13,-5,30,0.59,5598,25,87,39,52,918,355.0,362,460,60,128.0,187,1,342,252,65,0,0,352,28553,2811,342,-5.59,,,,,,,,,,,,
332483,1564236550815,3,1.88,0.86,0.25,1.24,0.95,0.72,-0.07,0.58,9,-7,25,0.72,5690,26,87,39,56,915,351.0,356,467,60,127.0,187,1,355,261,65,0,0,355,28553,6668,336,-5.59,,,,,,,,,,,,
332503,1564236550835,1,1.82,0.86,0.25,1.24,0.94,0.64,0.09,0.61,7,-9,20,0.64,5699,26,87,39,59,910,351.0,351,466,60,127.0,165,1,352,175,56,0,0,359,28553,4838,334,-5.59,,,,,,,,,,,,
332523,1564236550855,-1,1.76,0.87,0.24,1.25,0.95,0.65,0.18,0.49,4,-8,16,0.68,5755,29,87,39,62,905,355.0,348,467,60,128.0,165,1,352,264,56,0,0,360,2060,3346,331,-5.59,,,,,,,,,,,,
332543,1564236550875,0,1.72,0.87,0.25,1.26,0.94,0.57,0.27,0.37,1,-10,11,0.63,5912,10,87,39,64,903,354.0,335,468,60,128.0,165,1,362,256,56,0,0,357,2060,-28416,328,-5.59,44.681183,10.016862,33.15,179.7,0,0.0,-1,0.0,0.0,0,2.05,5.5424
332563,1564236550897,2,1.69,0.87,0.25,1.25,0.95,0.46,0.38,0.38,-1,-8,3,0.6,6169,31,87,39,64,904,354.0,332,467,60,128.0,165,1,378,308,56,0,0,355,3302,41,324,-5.59,,,,,,,,,,,,
332583,1564236550917,3,1.65,0.87,0.25,1.26,0.93,0.57,0.5,0.32,-4,-7,-3,0.76,6463,31,87,39,64,922,355.0,345,470,60,128.0,165,1,389,212,56,0,0,362,2060,28160,321,-5.59,,,,,,,,,,,,
332603,1564236550937,-0,1.6,0.87,0.24,1.26,0.94,0.63,0.62,0.25,-8,-8,-7,0.89,6569,31,87,39,64,948,358.0,363,461,60,129.0,244,1,393,318,78,0,0,362,-29978,24064,315,-5.59,,,,,,,,,,,,
332623,1564236550957,3,1.56,0.87,0.25,1.25,0.94,0.68,0.57,0.33,-13,-7,-11,0.89,6646,30,87,39,64,964,354.0,378,467,60,129.0,244,1,396,317,78,0,0,361,3302,-30976,312,-5.59,,,,,,,,,,,,
332643,1564236550977,-1,1.52,0.87,0.24,1.25,0.94,0.66,0.72,0.29,-15,-5,-16,0.98,6776,32,87,39,64,990,353.0,403,465,60,128.0,244,1,402,315,78,0,0,360,-6644,135,306,-5.59,44.681179,10.016853,34.28,179.7,0,0.0,-1,0.0,0.0,0,2.05,5.5441
332663,1564236550997,1,1.47,0.86,0.24,1.25,0.93,0.79,0.76,0.38,-19,-7,-20,1.1,6898,24,87,39,64,1008,348.0,430,467,60,128.0,244,1,406,297,78,0,0,359,-1246,120,303,-5.59,,,,,,,,,,,,
332683,1564236551009,3,1.43,0.86,0.24,1.26,0.94,0.87,0.78,0.36,-21,-6,-23,1.17,7113,32,87,39,64,1031,347.0,457,464,60,128.0,244,1,414,307,78,0,0,357,-14714,125,298,-5.59,,,,,,,,,,,,
332703,1564236551029,1,1.4,0.87,0.24,1.26,0.93,0.74,0.85,0.29,-22,-4,-25,1.13,7181,32,87,39,63,1045,342.0,493,463,60,129.0,282,1,421,304,84,0,0,361,-31206,-6475,294,-5.59,,,,,,,,,,,,
332723,1564236551049,1,1.38,0.87,0.24,1.27,0.93,0.73,0.89,0.27,-24,-4,-30,1.15,7167,31,87,39,63,1046,339.0,515,468,60,127.0,282,1,421,303,84,0,0,360,-122,3571,290,-5.59,,,,,,,,,,,,
332743,1564236551069,-1,1.37,0.87,0.24,1.27,0.93,0.8,0.87,0.33,-27,-5,-34,1.18,7219,32,87,39,63,1062,337.0,532,466,60,127.0,282,1,422,300,84,0,0,355,2560,15649,289,-5.59,44.681171,10.016847,33.48,179.7,0,0.0,-1,0.0,0.0,0,2.05,5.5457
332763,1564236551096,-2,1.37,0.87,0.24,1.26,0.94,0.92,0.79,0.35,-29,-6,-36,1.21,7355,32,87,39,62,1085,333.0,547,470,60,128.0,282,1,430,301,84,0,0,355,-6528,31796,286,-5.59,,,,,,,,,,,,
332783,1564236551116,-1,1.38,0.86,0.24,1.26,0.94,1.01,0.73,0.38,-30,-6,-39,1.24,7551,32,87,39,61,1104,331.0,564,457,60,129.0,282,1,438,298,84,0,0,351,175,3635,284,-5.59,,,,,,,,,,,,
332803,1564236551136,-0,1.39,0.87,0.25,1.26,0.94,1.07,0.77,0.45,-32,-6,-39,1.32,7612,32,87,39,60,1127,330.0,586,462,60,127.0,300,1,432,292,85,0,0,357,175,31796,283,-5.59,,,,,,,,,,,,
332823,1564236551156,-0,1.4,0.88,0.25,1.27,0.94,1.07,0.7,0.57,-33,-6,-43,1.28,7563,32,87,39,60,1134,332.0,593,467,60,128.0,300,1,431,293,85,0,0,362,-32559,5600,281,-5.59,,,,,,,,,,,,
332843,1564236551176,-1,1.42,0.87,0.25,1.27,0.94,1.11,0.78,0.6,-35,-7,-46,1.35,7551,33,87,39,59,1139,332.0,601,463,60,127.0,300,1,424,286,85,0,0,366,-32559,3635,281,-5.59,44.681164,10.016841,31.85,179.7,0,0.0,-1,0.0,0.0,0,2.05,5.5474
332863,1564236551196,-2,1.43,0.87,0.25,1.27,0.95,1.08,0.73,0.65,-37,-5,-48,1.3,7476,33,87,39,59,1133,337.0,609,448,60,126.0,300,1,422,285,85,0,0,371,2560,-8151,282,-5.59,,,,,,,,,,,,
332883,1564236551216,-1,1.44,0.88,0.26,1.26,0.94,1.1,0.78,0.73,-39,-6,-49,1.35,7284,33,87,39,59,1115,339.0,608,455,60,127.0,300,1,418,283,85,0,0,381,-122,-6656,282,-5.59,,,,,,,,,,,,
332903,1564236551236,2,1.45,0.87,0.25,1.28,0.94,1.0,0.8,0.75,-40,-5,-50,1.28,7264,32,88,39,60,1102,343.0,598,451,60,130.0,279,1,424,283,79,0,0,380,-14714,-992,284,181.28,,,,,,,,,,,,
332923,1564236551256,1,1.46,0.87,0.26,1.26,0.94,0.94,0.9,0.75,-41,-4,-52,1.31,6397,33,87,39,61,1090,343.0,586,466,60,128.0,279,1,398,263,79,0,0,372,-14714,-1246,285,-5.59,,,,,,,,,,,,
332943,1564236551276,2,1.47,0.87,0.25,1.27,0.94,0.96,0.99,0.65,-42,-3,-51,1.38,6097,31,87,39,63,1080,343.0,566,452,60,127.0,279,1,379,264,79,0,0,364,-14714,175,286,-5.59,44.681156,10.016836,31.21,179.6,0,0.0,-1,0.0,0.0,0,2.05,5.549
332963,1564236551296,3,1.45,0.88,0.25,1.27,0.94,0.93,1.02,0.55,-42,-3,-49,1.38,5961,15,87,39,64,1081,339.0,550,437,60,128.0,279,1,367,278,79,0,0,356,-122,-31222,288,-5.59,,,,,,,,,,,,
332983,1564236551316,3,1.46,0.87,0.25,1.28,0.94,0.91,1.08,0.43,-41,-2,-48,1.41,5992,33,87,39,66,1081,337.0,537,428,60,128.0,279,1,364,323,79,0,0,352,13,170,288,-5.59,,,,,,,,,,,,
333003,1564236551336,2,1.48,0.88,0.25,1.28,0.94,0.89,1.09,0.35,-41,-1,-48,1.41,6091,40,87,39,68,1079,334.0,528,420,60,127.0,261,1,361,357,75,0,0,347,4838,155,287,-5.59,,,,,,,,,,,,
333023,1564236551356,-1,1.5,0.87,0.26,1.27,0.95,0.95,1.06,0.3,-41,-1,-48,1.43,6235,0,87,39,71,1078,335.0,524,418,60,128.0,261,1,362,344,75,0,0,345,3346,165,288,-5.59,,,,,,,,,,,,
333043,1564236551376,1,1.52,0.87,0.26,1.27,0.94,1.01,1.03,0.23,-41,-3,-49,1.44,6373,46,87,39,74,1077,336.0,525,425,60,129.0,261,1,363,461,75,0,0,350,13,3346,288,-5.59,44.681148,10.016833,31.13,179.6,0,0.0,-1,0.0,0.0,0,2.05,5.5507
333063,1564236551397,2,1.56,0.88,0.26,1.28,0.94,1.02,1.08,0.24,-41,-3,-49,1.49,6508,48,87,39,76,1093,337.0,532,421,60,130.0,261,1,364,365,75,0,0,346,2560,-10554,288,-5.59,,,,,,,,,,,,
333083,1564236551417,-2,1.63,0.88,0.26,1.28,0.94,1.01,1.11,0.23,-41,-3,-50,1.5,6737,50,87,39,77,1176,342.0,539,421,60,129.0,261,1,372,495,75,0,0,347,-31206,2060,289,-5.59,,,,,,,,,,,,
333103,1564236551437,3,1.68,0.88,0.26,1.28,0.94,1.03,1.09,0.25,-42,-2,-52,1.5,6957,52,87,39,79,1243,344.0,551,432,60,128.0,447,1,378,503,129,0,0,348,-10554,230,290,-5.59,,,,,,,,,,,,
333123,1564236551457,3,1.74,0.88,0.26,1.28,0.94,1.04,1.02,0.37,-43,-2,-53,1.46,7217,58,87,39,79,1293,348.0,561,440,60,128.0,447,1,392,498,129,0,0,350,-1246,230,290,-5.59,,,,,,,,,,,,
333143,1564236551477,3,1.81,0.88,0.26,1.28,0.95,0.94,1.12,0.34,-43,-2,-53,1.46,7396,52,87,39,81,1354,351.0,571,435,60,128.0,447,1,402,407,129,0,0,353,3183,-19019,292,-5.59,44.681145,10.016831,32.06,179.5,0,0.0,-1,0.0,0.0,0,2.06,5.5524
333163,1564236551496,-0,1.88,0.88,0.27,1.27,0.95,0.83,1.04,0.39,-44,0,-55,1.33,7464,65,87,39,82,1388,356.0,582,452,60,129.0,447,1,406,416,129,0,0,367,4104,18584,294,-5.59,,,,,,,,,,,,
333183,1564236551516,1,1.94,0.89,0.28,1.29,0.95,0.84,1.11,0.43,-43,0,-56,1.39,7078,66,88,39,83,1423,361.0,590,452,60,128.0,447,1,382,556,129,0,0,376,-6458,-9166,297,-5.59,,,,,,,,,,,,
333203,1564236551536,3,2.0,0.89,0.28,1.29,0.96,0.83,1.09,0.55,-43,1,-56,1.37,6710,32,87,39,85,1381,366.0,585,451,60,127.0,493,1,364,480,147,0,0,374,230,2560,300,-5.59,,,,,,,,,,,,
333223,1564236551556,-1,2.04,0.89,0.28,1.3,0.96,0.79,1.16,0.56,-42,2,-55,1.4,6401,67,87,39,86,1352,364.0,564,460,60,127.0,493,1,350,420,147,0,0,367,-1268,-25856,304,-5.59,,,,,,,,,,,,
333243,1564236551576,-1,2.07,0.9,0.27,1.3,0.96,0.81,1.07,0.65,-41,-1,-54,1.34,6336,67,87,39,87,1280,360.0,546,456,60,128.0,493,1,344,557,147,0,0,363,-29302,6870,312,-5.59,44.681133,10.01683,30.92,179.5,0,0.0,-1,0.0,0.0,0,2.06,5.554
333263,1564236551596,3,2.11,0.9,0.27,1.31,0.96,0.7,0.95,0.68,-39,-2,-54,1.18,6438,67,87,39,89,1207,357.0,536,457,60,128.0,493,1,344,557,147,0,0,359,-6640,-31206,314,-5.59,,,,,,,,,,,,
333283,1564236551616,0,2.15,0.91,0.28,1.31,0.96,0.67,0.94,0.68,-36,-2,-52,1.16,6715,67,87,39,89,1167,353.0,539,460,60,127.0,493,1,358,564,147,0,0,357,-6644,3183,324,-5.59,,,,,,,,,,,,
333303,1564236551636,2,2.2,0.91,0.29,1.32,0.97,0.71,0.8,0.78,-33,-3,-50,1.07,6873,71,87,39,89,1128,353.0,543,456,60,128.0,437,1,367,561,143,0,0,359,-6644,230,329,-5.59,,,,,,,,,,,,
333323,1564236551656,1,2.25,0.93,0.3,1.35,0.98,0.64,0.8,0.79,-29,-1,-47,1.02,7046,75,87,39,90,1145,355.0,552,458,60,127.0,437,1,375,562,143,0,0,362,2060,0,336,-5.59,,,,,,,,,,,,
333343,1564236551676,1,2.3,0.95,0.31,1.38,1.01,0.51,0.71,0.85,-26,-0,-45,0.87,7164,78,87,39,91,1162,356.0,565,460,60,126.0,437,1,384,559,143,0,0,367,4104,0,341,-5.59,44.681126,10.016832,31.22,179.5,0,0.0,-1,0.0,0.0,0,2.06,5.5557
333363,1564236551696,-1,2.35,0.97,0.33,1.41,1.03,0.52,0.53,0.95,-23,0,-42,0.74,7181,83,87,39,92,1212,359.0,574,449,60,127.0,437,1,383,616,143,0,0,375,-29302,257,350,-5.59,,,,,,,,,,,,
333383,1564236551716,3,2.38,0.99,0.34,1.42,1.04,0.51,0.36,1.05,-20,1,-38,0.62,7142,90,87,39,92,1267,361.0,581,456,60,127.0,437,1,382,606,143,0,0,381,-6458,2278,360,-5.59,,,,,,,,,,,,
333403,1564236551736,1,2.42,0.99,0.34,1.44,1.05,0.49,0.36,1.02,-17,1,-33,0.6,7151,94,87,39,93,1263,365.0,577,458,60,127.0,450,1,381,597,163,0,0,382,2790,-3866,368,-5.59,,,,,,,,,,,,
333423,1564236551756,0,2.45,0.99,0.35,1.42,1.06,0.44,0.32,1.01,-14,1,-30,0.55,7118,100,87,39,94,1257,373.0,573,460,60,126.0,450,1,378,461,163,0,0,385,3082,-1562,373,-5.59,,,,,,,,,,,,
333443,1564236551776,-0,2.46,0.99,0.35,1.43,1.05,0.51,0.19,1.11,-13,-2,-26,0.54,7159,100,87,39,94,1210,379.0,576,457,60,127.0,450,1,381,573,163,0,0,389,0,-31744,379,-5.59,44.681118,10.016834,33.3,179.5,0,0.0,-1,0.0,0.0,0,2.06,5.5574
333463,1564236551796,3,2.48,0.99,0.35,1.44,1.06,0.61,0.11,1.15,-10,-3,-23,0.62,7244,89,87,39,94,1148,385.0,581,460,60,127.0,450,1,388,623,163,0,0,389,257,-32702,385,-5.59,,,,,,,,,,,,
333483,1564236551816,3,2.49,0.99,0.35,1.43,1.06,0.64,0.0,1.12,-7,-2,-20,0.64,7364,100,87,39,93,1049,390.0,575,461,60,127.0,450,1,398,621,163,0,0,402,770,11545,390,-5.59,,,,,,,,,,,,
333503,1564236551836,-1,2.49,0.99,0.35,1.44,1.06,0.65,-0.05,1.03,-5,-2,-15,0.65,7606,100,87,39,93,988,394.0,579,457,60,127.0,452,1,416,625,177,0,0,412,3,10392,394,-5.59,,,,,,,,,,,,
333523,1564236551856,-1,2.48,0.99,0.35,1.43,1.07,0.75,-0.17,1.05,-3,-3,-11,0.77,7815,100,87,39,92,950,397.0,593,459,60,127.0,452,1,433,621,177,0,0,414,-992,-26615,397,-5.59,,,,,,,,,,,,
333543,1564236551876,2,2.47,0.99,0.35,1.43,1.06,0.65,-0.21,1.12,-2,-2,-7,0.69,8113,100,87,39,91,930,403.0,610,463,60,126.0,452,1,446,515,177,0,0,429,-19126,-8165,406,-5.59,44.68111,10.016838,35.41,179.4,0,0.0,-1,0.0,0.0,0,2.06,5.5591
333563,1564236551892,0,2.45,0.97,0.35,1.43,1.05,0.74,-0.27,1.15,-0,-2,-5,0.79,8378,100,87,39,89,913,412.0,627,459,60,126.0,452,1,438,638,177,0,0,439,-31744,243,412,-5.59,,,,,,,,,,,,
333583,1564236551912,0,2.44,0.98,0.35,1.42,1.05,0.55,-0.35,1.15,2,0,-2,0.65,8596,100,87,39,88,901,418.0,631,461,60,127.0,452,1,431,637,177,0,0,433,-6656,-8985,418,-5.59,,,,,,,,,,,,
333603,1564236551932,3,2.45,0.97,0.34,1.42,1.05,0.4,-0.31,1.2,3,2,2,0.51,8712,100,87,39,88,904,423.0,635,460,60,126.0,478,1,427,599,201,0,0,457,6512,-18108,423,-5.59,,,,,,,,,,,,
333623,1564236551952,3,2.46,0.97,0.34,1.41,1.04,0.48,-0.33,1.27,5,1,4,0.59,8769,100,87,39,87,910,429.0,627,460,60,126.0,478,1,425,589,201,0,0,474,-26615,12552,433,-5.59,,,,,,,,,,,,
333643,1564236551972,2,2.48,0.97,0.34,1.42,1.05,0.55,-0.36,1.22,6,-1,6,0.66,8790,100,87,39,87,914,438.0,632,456,60,126.0,478,1,423,589,201,0,0,460,13040,8488,438,-5.59,44.681103,10.01684,37.59,179.4,0,0.0,-1,0.0,0.0,0,2.06,5.5607
333663,1564236551992,1,2.49,0.97,0.34,1.43,1.05,0.59,-0.4,1.17,8,-1,8,0.72,1733,99,87,39,87,915,444.0,627,464,60,126.0,478,1,130,266,201,0,0,468,-21944,10432,444,-5.59,,,,,,,,,,,,
333683,1564236552008,2,2.5,0.98,0.34,1.43,1.04,0.67,-0.45,1.12,9,-0,8,0.8,7999,100,87,39,89,913,447.0,615,457,60,125.0,478,1,447,554,201,0,0,468,-21792,6193,450,-5.59,,,,,,,,,,,,
333703,1564236552028,3,2.53,0.98,0.34,1.43,1.06,0.61,-0.49,1.07,10,-2,8,0.79,8145,100,87,39,90,906,451.0,620,461,60,127.0,374,1,446,581,168,0,0,444,3826,14488,451,-5.59,,,,,,,,,,,,
333723,1564236552048,2,2.55,0.98,0.35,1.43,1.06,0.68,-0.48,1.08,11,-5,10,0.83,8573,99,87,39,89,926,451.0,620,461,60,125.0,374,1,433,611,168,0,0,446,-4082,17628,451,-5.59,,,,,,,,,,,,
333743,1564236552068,3,2.54,0.98,0.35,1.43,1.06,0.76,-0.51,1.06,13,-7,11,0.91,8932,100,87,39,87,948,454.0,618,461,60,126.0,374,1,420,600,168,0,0,486,3635,30272,454,-5.59,44.681091,10.016843,39.83,179.4,0,0.0,-1,0.0,0.0,0,2.06,5.5624
333763,1564236552095,3,2.54,0.98,0.35,1.43,1.06,0.79,-0.46,1.03,14,-7,14,0.91,9441,100,87,39,86,980,460.0,637,466,60,126.0,374,1,418,578,168,0,0,522,243,-1923,460,-5.59,,,,,,,,,,,,
333783,1564236552115,2,2.53,0.99,0.35,1.43,1.06,0.76,-0.52,1.07,15,-6,17,0.92,9791,100,87,39,86,1024,468.0,649,462,60,126.0,374,1,406,586,168,0,0,538,243,-32768,468,-5.59,,,,,,,,,,,,
333803,1564236552135,0,2.5,0.98,0.35,1.43,1.07,0.6,-0.57,1.16,16,-3,19,0.83,10069,97,87,39,85,1055,475.0,650,457,60,126.0,456,1,400,572,214,0,0,539,19477,1248,475,-5.59,,,,,,,,,,,,
333823,1564236552155,1,2.48,0.98,0.35,1.43,1.07,0.54,-0.57,1.13,18,-0,23,0.79,10285,97,87,39,85,1076,485.0,651,461,60,127.0,456,1,415,572,214,0,0,532,23400,-28648,485,-5.59,,,,,,,,,,,,
333843,1564236552175,1,2.46,0.98,0.35,1.43,1.07,0.59,-0.5,1.13,19,1,25,0.77,10324,99,87,39,85,1096,491.0,660,460,60,126.0,456,1,418,554,214,0,0,517,2131,2104,491,-5.59,44.681084,10.016845,43.24,179.4,0,0.0,-1,0.0,0.0,0,2.06,5.5641
333863,1564236552197,3,2.44,0.99,0.35,1.43,1.06,0.64,-0.5,1.16,21,2,26,0.81,10262,100,87,39,85,1088,495.0,648,458,60,127.0,456,1,413,572,214,0,0,560,-6387,6274,495,-5.59,,,,,,,,,,,,
333883,1564236552217,3,2.43,0.99,0.35,1.43,1.07,0.61,-0.45,1.24,22,2,26,0.76,10234,88,87,39,85,1068,499.0,648,461,60,127.0,456,1,411,670,214,0,0,563,17628,-30064,499,-5.59,,,,,,,,,,,,
333903,1564236552237,2,2.42,0.99,0.35,1.43,1.06,0.56,-0.55,1.16,23,2,26,0.78,10157,68,87,39,85,1048,504.0,644,458,60,127.0,509,1,406,557,256,0,0,544,12552,-32248,504,-5.59,,,,,,,,,,,,
333923,1564236552257,1,2.43,0.99,0.35,1.44,1.06,0.54,-0.6,1.05,23,1,27,0.8,10179,0,87,39,84,1020,507.0,650,456,60,126.0,509,1,407,554,256,0,0,544,30272,2216,507,-5.59,,,,,,,,,,,,
333943,1564236552277,3,2.43,0.98,0.35,1.43,1.07,0.53,-0.61,1.0,22,-2,28,0.8,10201,52,87,39,85,1006,509.0,650,463,60,128.0,509,1,409,670,256,0,0,561,8488,-32248,512,-5.59,44.681068,10.016846,44.96,179.4,0,0.0,-1,0.0,0.0,0,2.06,5.5657
333963,1564236552295,3,2.43,0.98,0.35,1.43,1.07,0.5,-0.53,1.01,22,-3,29,0.72,10273,81,87,39,85,989,515.0,652,466,60,127.0,509,1,414,665,256,0,0,545,16648,-30159,515,-5.59,,,,,,,,,,,,
333983,1564236552315,3,2.43,0.98,0.35,1.44,1.06,0.51,-0.56,1.06,22,-3,28,0.76,10486,81,87,39,84,973,521.0,660,455,60,126.0,509,1,429,554,256,0,0,561,-1562,-22359,521,-5.59,,,,,,,,,,,,
334003,1564236552335,-3,2.42,0.98,0.35,1.44,1.06,0.49,-0.49,0.97,22,-3,28,0.69,10629,96,87,39,84,958,523.0,662,463,60,126.0,498,1,435,648,260,0,0,577,-32768,12552,523,-5.59,,,,,,,,,,,,
334023,1564236552355,2,2.43,0.99,0.35,1.43,1.07,0.43,-0.45,0.77,22,-4,30,0.62,10856,99,87,39,84,961,529.0,660,466,60,126.0,498,1,438,634,260,0,0,577,-22519,774,529,-5.59,,,,,,,,,,,,
334043,1564236552375,3,2.42,0.98,0.35,1.44,1.06,0.49,-0.53,0.82,23,-3,29,0.73,11068,100,87,39,84,961,537.0,660,469,60,127.0,498,1,443,615,260,0,0,589,15661,243,537,-5.59,44.681061,10.016846,47.36,179.3,0,0.0,-1,0.0,0.0,0,2.07,5.5674
334063,1564236552395,1,2.41,0.98,0.35,1.44,1.06,0.44,-0.6,0.9,24,-2,29,0.74,11127,100,87,39,84,948,539.0,656,465,60,127.0,498,1,442,596,260,0,0,580,10994,-3210,539,-5.59,,,,,,,,,,,,
334083,1564236552415,2,2.41,0.99,0.35,1.43,1.07,0.45,-0.59,0.81,23,-3,30,0.74,11207,77,87,39,84,938,547.0,668,462,60,126.0,498,1,442,539,260,0,0,608,-4054,2048,548,-5.59,,,,,,,,,,,,
334103,1564236552435,0,2.41,0.99,0.35,1.44,1.07,0.5,-0.62,0.93,24,-1,29,0.79,11281,51,87,39,84,928,551.0,672,457,60,127.0,498,1,441,539,273,0,0,601,26178,243,550,-5.59,,,,,,,,,,,,
334123,1564236552455,1,2.41,0.98,0.35,1.43,1.06,0.47,-0.67,0.93,24,-1,30,0.82,11308,12,87,39,84,910,556.0,668,465,60,127.0,498,1,441,539,273,0,0,589,1248,17740,556,-5.59,,,,,,,,,,,,
334143,1564236552475,1,2.4,0.98,0.35,1.43,1.07,0.47,-0.66,0.98,24,-1,29,0.81,11281,79,87,39,84,894,561.0,615,463,60,127.0,498,1,441,535,273,0,0,612,-32248,-7939,561,-5.59,44.681046,10.016845,50.28,179.3,0,0.0,-1,0.0,0.0,0,2.07,5.569
334163,1564236552495,-1,2.39,0.99,0.35,1.44,1.07,0.48,-0.79,1.06,24,-1,28,0.93,11315,80,87,39,84,872,565.0,588,463,60,127.0,498,1,441,539,273,0,0,613,-22519,-30139,567,-5.59,,,,,,,,,,,,
334183,1564236552515,-2,2.38,0.98,0.35,1.43,1.07,0.49,-0.76,1.0,23,-2,28,0.9,11160,77,88,39,83,861,569.0,619,462,60,129.0,498,1,442,521,273,0,0,620,-2934,-7939,569,-5.59,,,,,,,,,,,,
334203,1564236552535,-2,2.38,0.98,0.35,1.43,1.07,0.48,-0.69,0.92,22,-3,27,0.84,10498,81,88,39,86,854,575.0,589,461,60,128.0,397,1,431,575,228,0,0,577,1780,243,575,-5.59,,,,,,,,,,,,
334223,1564236552555,-1,2.36,0.99,0.35,1.44,1.06,0.61,-0.74,0.89,21,-6,24,0.96,10140,69,88,39,87,850,572.0,566,458,60,126.0,397,1,406,546,228,0,0,557,-22519,10432,572,-5.59,,,,,,,,,,,,
334243,1564236552575,-1,2.35,0.98,0.35,1.43,1.06,0.57,-0.78,0.94,20,-7,21,0.96,9842,100,88,39,87,846,569.0,615,461,60,127.0,397,1,404,695,228,0,0,557,-32248,-30159,569,-5.59,44.681034,10.016843,52.61,179.3,0,0.0,-1,0.0,0.0,0,2.07,5.5707
334263,1564236552595,1,2.34,0.98,0.34,1.43,1.06,0.6,-0.74,0.89,18,-8,21,0.95,9669,100,88,39,87,850,566.0,536,462,60,127.0,397,1,411,688,228,0,0,553,2524,774,566,-5.59,,,,,,,,,,,,
334283,1564236552615,1,2.32,0.98,0.34,1.43,1.07,0.6,-0.61,0.8,15,-6,21,0.86,9605,100,87,39,88,852,565.0,595,460,60,124.0,397,1,415,1157,228,0,0,551,-22263,-29984,565,-5.59,,,,,,,,,,,,
334303,1564236552635,3,2.32,0.98,0.35,1.43,1.06,0.74,-0.58,0.61,11,-9,25,0.94,9920,100,87,39,87,945,563.0,618,459,60,124.0,691,1,400,1004,390,0,0,559,-23623,12552,563,-5.59,,,,,,,,,,,,
334323,1564236552655,2,2.31,0.98,0.35,1.43,1.05,0.58,-0.46,0.64,9,-4,24,0.74,9832,100,87,39,85,1076,566.0,646,466,60,127.0,691,1,403,815,390,0,0,675,-2934,-30207,569,-5.59,,,,,,,,,,,,
334343,1564236552675,2,2.31,0.99,0.34,1.43,1.05,0.67,-0.43,0.61,8,-3,24,0.8,9522,100,87,39,85,1153,575.0,646,460,60,126.0,691,1,417,503,390,0,0,698,774,-3888,575,-5.59,44.681023,10.016839,55.63,179.3,0,0.0,-1,0.0,0.0,0,2.07,5.5724
334363,1564236552695,0,2.31,0.96,0.33,1.4,1.04,0.72,-0.47,0.52,7,-1,21,0.86,9605,100,87,39,85,1255,582.0,583,466,60,126.0,691,1,414,587,390,0,0,640,-4035,-30207,582,-5.59,,,,,,,,,,,,
334383,1564236552715,0,2.32,0.96,0.32,1.39,1.03,0.59,-0.39,0.66,6,-2,20,0.71,9375,100,87,39,86,1340,589.0,549,455,60,126.0,691,1,418,578,390,0,0,644,2048,20993,589,-5.59,,,,,,,,,,,,
334403,1564236552735,2,2.3,0.96,0.32,1.38,1.02,0.58,-0.36,0.79,5,-3,16,0.68,9137,100,87,39,86,1421,594.0,496,463,60,126.0,333,1,418,578,197,0,0,611,-13043,-16046,592,-5.59,,,,,,,,,,,,
334423,1564236552755,-0,2.31,0.95,0.31,1.38,1.01,0.43,-0.4,0.82,4,-1,15,0.59,8844,100,87,39,87,1440,597.0,516,461,60,126.0,333,1,423,578,197,0,0,646,-13043,479,597,-5.59,,,,,,,,,,,,
334443,1564236552775,2,2.3,0.95,0.31,1.37,1.02,0.35,-0.37,0.79,4,-2,12,0.51,8640,100,87,39,87,1419,606.0,552,461,60,125.0,333,1,428,589,197,0,0,631,-768,771,606,-5.59,44.681004,10.016834,55.85,179.3,0,0.0,-1,0.0,0.0,0,2.07,5.574
334463,1564236552795,2,2.29,0.95,0.32,1.37,1.02,0.28,-0.27,0.85,4,-3,12,0.39,8585,100,87,39,87,1343,607.0,593,461,60,126.0,333,1,430,589,197,0,0,649,-3446,4909,608,-5.59,,,,,,,,,,,,
334483,1564236552815,1,2.28,0.95,0.31,1.38,1.02,0.37,-0.29,0.84,3,-3,10,0.47,8581,100,87,39,87,1217,613.0,609,458,60,127.0,333,1,429,589,197,0,0,643,-28304,16599,611,-5.59,,,,,,,,,,,,
334503,1564236552835,0,2.26,0.95,0.31,1.37,1.02,0.44,-0.32,0.78,2,-3,9,0.54,8704,100,87,39,87,1133,619.0,631,461,60,127.0,315,1,426,589,193,0,0,642,30721,-8429,615,-5.59,,,,,,,,,,,,
334523,1564236552855,-0,2.28,0.95,0.32,1.37,1.02,0.21,-0.18,0.74,2,-2,8,0.27,8819,100,87,39,87,1073,623.0,633,461,60,126.0,315,1,423,589,193,0,0,652,3395,24583,619,-5.59,,,,,,,,,,,,
334543,1564236552875,1,2.28,0.95,0.31,1.38,1.02,0.06,-0.14,0.81,2,0,6,0.15,8962,99,87,39,86,988,628.0,642,461,60,127.0,315,1,419,589,193,0,0,654,771,24583,623,-5.59,44.680992,10.016829,57.92,179.3,0,0.0,-1,0.0,0.0,0,2.07,5.5757
334563,1564236552897,0,2.28,0.95,0.31,1.38,1.03,-0.14,0.03,0.78,2,2,6,0.15,9036,100,87,39,86,942,635.0,644,460,60,126.0,315,1,418,578,193,0,0,666,-4876,3543,627,-5.59,,,,,,,,,,,,
334583,1564236552917,0,2.28,0.96,0.32,1.39,1.02,-0.25,0.04,0.9,2,4,4,0.26,9062,99,87,39,87,917,638.0,647,457,60,127.0,315,1,418,578,193,0,0,668,16599,-388,635,-5.59,,,,,,,,,,,,
334603,1564236552937,1,2.28,0.96,0.32,1.4,1.03,-0.41,0.1,0.9,2,5,3,0.42,8984,100,87,39,86,941,644.0,640,465,60,127.0,320,1,419,589,203,0,0,664,11776,-26380,639,-5.59,,,,,,,,,,,,
334623,1564236552957,1,2.29,0.97,0.32,1.39,1.03,-0.5,0.09,1.01,2,7,2,0.5,9023,100,87,39,87,959,649.0,642,458,60,127.0,320,1,418,578,203,0,0,664,-30207,-26380,643,-5.59,,,,,,,,,,,,
334643,1564236552977,1,2.29,0.96,0.32,1.4,1.02,-0.59,0.05,1.06,3,9,2,0.6,9101,100,87,39,87,987,653.0,640,461,60,127.0,320,1,418,589,203,0,0,668,-3488,3543,646,-5.59,44.680977,10.016824,60.99,179.3,0,0.0,-1,0.0,0.0,0,2.07,5.5774
334663,1564236552997,2,2.29,0.96,0.32,1.39,1.03,-0.42,-0.03,1.15,2,8,-0,0.42,9200,100,87,39,86,1013,655.0,643,460,60,127.0,320,1,418,578,203,0,0,680,31988,-10346,651,-5.59,,,,,,,,,,,,
334683,1564236553009,2,2.28,0.96,0.32,1.39,1.03,-0.2,-0.09,1.19,1,7,-1,0.22,9309,100,87,39,86,1022,661.0,641,463,60,126.0,320,1,418,578,203,0,0,677,-2345,-10346,655,-5.59,,,,,,,,,,,,
334703,1564236553029,2,2.28,0.96,0.32,1.39,1.03,-0.06,-0.01,1.1,1,4,-2,0.06,9389,100,87,39,86,1027,665.0,646,462,60,127.0,310,1,418,578,204,0,0,694,-10348,11576,658,-5.59,,,,,,,,,,,,
334723,1564236553049,0,2.28,0.97,0.32,1.39,1.03,-0.03,0.03,1.07,0,2,-2,0.05,9460,100,87,39,86,1033,668.0,642,460,60,127.0,310,1,418,578,204,0,0,693,-2830,24,665,-5.59,,,,,,,,,,,,
334743,1564236553069,2,2.28,0.96,0.32,1.39,1.04,0.01,-0.1,1.11,-0,3,-2,0.1,9517,100,87,39,86,1034,675.0,655,458,60,126.0,310,1,418,578,204,0,0,702,-2345,15647,666,-5.59,44.680965,10.016818,62.36,179.3,0,0.0,-1,0.0,0.0,0,2.08,5.5791
334763,1564236553092,2,2.29,0.96,0.32,1.39,1.02,-0.03,-0.02,1.03,-0,4,-3,0.03,9551,100,87,39,85,1029,676.0,651,459,60,126.0,310,1,416,567,204,0,0,707,-2826,15647,675,-5.59,,,,,,,,,,,,
334783,1564236553112,-0,2.29,0.96,0.32,1.39,1.03,-0.05,0.13,0.94,-0,4,-2,0.14,9600,100,87,39,85,1023,683.0,651,459,60,126.0,310,1,414,567,204,0,0,712,-26562,-23490,680,-5.59,,,,,,,,,,,,
334803,1564236553132,3,2.29,0.96,0.32,1.4,1.02,0.03,0.05,0.9,-1,1,-4,0.06,9674,100,87,39,85,1010,685.0,652,461,60,127.0,307,1,410,568,208,0,0,713,16599,16118,680,-5.59,,,,,,,,,,,,
334823,1564236553152,1,2.27,0.96,0.32,1.39,1.02,0.12,0.12,0.96,-2,1,-4,0.17,9730,100,87,39,85,1002,692.0,648,462,60,126.0,307,1,408,505,208,0,0,713,14342,-3450,684,-5.59,,,,,,,,,,,,
334843,1564236553172,3,2.26,0.96,0.32,1.4,1.02,0.24,-0.03,0.96,-3,-0,-4,0.24,9775,99,87,39,85,995,695.0,655,466,60,127.0,307,1,407,569,208,0,0,725,-10448,-388,692,-5.59,44.680946,10.016812,64.47,179.3,0,0.0,-1,0.0,0.0,0,2.08,5.5807
334863,1564236553196,1,2.26,0.96,0.32,1.39,1.02,0.23,0.06,1.06,-3,3,-5,0.24,9827,100,87,38,85,986,699.0,654,457,60,127.0,307,1,403,555,208,0,0,720,-2830,-2830,696,-5.59,,,,,,,,,,,,
334883,1564236553216,3,2.26,0.96,0.31,1.38,1.02,0.3,0.02,0.96,-3,-0,-4,0.3,9920,100,87,38,85,977,701.0,651,463,60,126.0,307,1,397,571,208,0,0,727,19188,-2358,698,-5.59,,,,,,,,,,,,
334903,1564236553236,3,2.26,0.95,0.31,1.36,1.02,0.32,0.09,0.99,-3,2,-5,0.33,10026,100,87,38,85,965,709.0,658,457,60,126.0,309,1,397,572,216,0,0,731,-3888,-2830,699,-5.59,,,,,,,,,,,,
334923,1564236553256,0,2.27,0.95,0.3,1.36,1.01,0.23,0.06,1.09,-3,3,-6,0.24,10037,100,87,38,84,960,714.0,656,462,60,126.0,309,1,397,554,216,0,0,745,204,-2830,707,-5.59,,,,,,,,,,,,
334943,1564236553276,1,2.25,0.95,0.3,1.36,1.01,0.25,-0.01,1.08,-4,2,-7,0.25,10086,80,87,38,83,954,720.0,655,465,60,127.0,309,1,400,535,216,0,0,744,-3450,6790,712,-5.59,44.680931,10.016807,66.81,179.3,0,0.0,-1,0.0,0.0,0,2.08,5.5824
334963,1564236553294,2,2.26,0.94,0.3,1.34,1.0,0.42,-0.02,0.95,-4,2,-7,0.42,10091,56,87,38,76,947,722.0,663,465,60,127.0,309,1,400,489,216,0,0,744,-388,-22796,714,-5.59,,,,,,,,,,,,
334983,1564236553314,0,2.28,0.93,0.3,1.34,1.01,0.37,0.02,1.06,-4,2,-7,0.37,10032,36,87,38,66,943,728.0,660,462,60,127.0,309,1,402,411,216,0,0,747,-2830,-22796,717,-5.59,,,,,,,,,,,,
335003,1564236553334,0,2.27,0.93,0.29,1.35,1.0,0.44,0.0,1.08,-5,2,-8,0.44,9968,24,87,38,56,943,727.0,661,462,60,126.0,195,1,402,336,141,0,0,746,-2358,-2314,720,-5.59,,,,,,,,,,,,
335023,1564236553354,2,2.27,0.94,0.3,1.34,1.01,0.54,-0.06,1.0,-5,1,-8,0.54,9775,22,87,38,49,942,732.0,678,463,60,127.0,195,1,385,260,141,0,0,743,-2826,-2826,724,181.28,,,,,,,,,,,,
335043,1564236553374,4,2.28,0.94,0.3,1.35,1.0,0.56,0.02,0.91,-5,1,-8,0.56,9541,21,87,38,45,940,732.0,661,463,60,127.0,195,1,365,231,141,0,0,739,-2358,-4091,725,-5.59,44.680916,10.016801,69.07,179.3,0,0.0,-1,0.0,0.0,0,2.08,5.5841
335063,1564236553394,-0,2.28,0.94,0.3,1.36,1.0,0.46,0.16,0.92,-4,-1,-7,0.49,9375,22,87,38,43,937,731.0,656,462,60,128.0,195,1,348,222,141,0,0,731,-2314,-2826,725,-5.59,,,,,,,,,,,,
335083,1564236553414,1,2.27,0.95,0.3,1.37,1.01,0.37,0.09,0.93,-4,1,-9,0.38,9159,21,87,38,41,935,735.0,648,459,60,127.0,195,1,333,140,141,0,0,733,-2314,-13580,723,-5.59,,,,,,,,,,,,
335103,1564236553434,1,2.28,0.95,0.31,1.38,1.01,0.22,0.07,0.83,-4,2,-8,0.23,8949,21,87,38,41,927,735.0,646,468,60,128.0,102,1,332,214,74,0,0,722,-31066,-4091,727,-5.59,,,,,,,,,,,,
335123,1564236553454,5,2.27,0.95,0.31,1.38,1.01,0.13,0.01,0.73,-4,4,-9,0.13,8819,18,87,38,40,907,732.0,645,460,60,128.0,102,1,326,212,74,0,0,720,-2826,-13312,722,-5.59,,,,,,,,,,,,
335143,1564236553474,8,2.28,0.95,0.31,1.38,1.01,0.06,0.1,0.77,-4,5,-9,0.11,8815,11,87,38,37,873,726.0,645,462,60,128.0,102,1,314,203,74,0,0,712,-4091,204,715,-5.59,44.680897,10.016795,71.1,179.3,0,0.0,-1,0.0,0.0,0,2.08,5.5857
335163,1564236553494,9,2.28,0.94,0.31,1.37,1.02,0.04,0.19,0.8,-4,4,-9,0.2,8836,8,87,38,34,855,723.0,646,462,60,127.0,102,1,305,193,74,0,0,707,-25858,16599,712,-5.59,,,,,,,,,,,,
335183,1564236553514,8,2.28,0.95,0.3,1.37,1.01,0.04,0.32,0.81,-4,3,-8,0.32,8877,7,87,38,32,832,721.0,646,460,60,127.0,102,1,300,186,74,0,0,701,31988,11576,714,-5.59,,,,,,,,,,,,
335203,1564236553534,6,2.28,0.95,0.3,1.37,1.01,0.09,0.43,0.82,-4,3,-9,0.44,8903,6,87,38,30,818,716.0,647,459,60,126.0,87,1,291,186,62,0,0,698,16118,-10399,712,-5.59,,,,,,,,,,,,
335223,1564236553554,4,2.28,0.95,0.3,1.37,1.01,0.21,0.49,0.77,-4,-1,-9,0.54,8903,6,87,38,29,811,714.0,650,462,60,126.0,87,1,287,186,62,0,0,689,204,19188,705,-5.59,,,,,,,,,,,,
335243,1564236553574,2,2.28,0.94,0.3,1.37,1.01,0.36,0.54,0.68,-5,-0,-8,0.65,8928,5,88,38,27,827,710.0,646,457,60,128.0,87,1,278,186,62,0,0,693,204,11576,702,-5.59,44.680882,10.01679,72.17,179.3,0,0.0,-1,0.0,0.0,0,2.09,5.5874
335263,1564236553594,1,2.29,0.95,0.3,1.37,1.01,0.53,0.55,0.67,-5,-2,-8,0.77,8954,5,88,38,26,840,705.0,645,456,60,129.0,87,1,274,186,62,0,0,687,-20693,-2830,701,-5.59,,,,,,,,,,,,
335283,1564236553614,0,2.29,0.95,0.3,1.37,1.01,0.68,0.55,0.65,-5,-3,-8,0.87,8971,5,88,38,25,863,704.0,643,458,60,127.0,87,1,270,186,62,0,0,691,11069,-2830,700,-5.59,,,,,,,,,,,,
335303,1564236553634,1,2.28,0.95,0.3,1.38,1.01,0.81,0.54,0.62,-5,-7,-8,0.97,8979,5,88,38,25,881,700.0,642,458,60,126.0,90,1,270,186,63,0,0,688,-2830,-3584,695,-5.59,,,,,,,,,,,,
335323,1564236553654,4,2.28,0.95,0.3,1.38,1.01,0.93,0.57,0.53,-5,-7,-8,1.09,8992,5,88,38,24,887,698.0,642,456,60,127.0,90,1,270,179,63,0,0,678,24,16599,691,-5.59,,,,,,,,,,,,
335343,1564236553674,5,2.29,0.95,0.31,1.38,1.01,1.04,0.56,0.53,-5,-9,-7,1.18,9018,5,87,38,25,888,697.0,651,462,60,126.0,90,1,270,261,63,0,0,681,11576,-3584,690,-5.59,44.680866,10.016786,70.86,179.3,0,0.0,-1,0.0,0.0,0,2.09,5.589
335363,1564236553696,6,2.28,0.96,0.31,1.38,1.02,1.14,0.6,0.48,-6,-10,-7,1.29,9031,5,87,38,24,884,692.0,649,462,60,125.0,90,1,270,240,63,0,0,666,14342,-26380,684,-5.59,,,,,,,,,,,,
335383,1564236553716,5,2.29,0.96,0.3,1.38,1.02,1.23,0.62,0.46,-6,-12,-7,1.37,9027,0,87,38,24,880,686.0,651,462,60,125.0,90,1,270,221,63,0,0,669,16599,-3578,680,-5.59,,,,,,,,,,,,
335403,1564236553736,6,2.28,0.96,0.31,1.37,1.01,1.31,0.71,0.43,-6,-12,-7,1.49,9031,0,87,38,24,873,685.0,648,460,60,124.0,105,1,270,200,72,0,0,665,-10399,-10344,678,-5.59,,,,,,,,,,,,
335423,1564236553756,9,2.28,0.96,0.3,1.38,1.01,1.34,0.74,0.39,-6,-13,-5,1.53,9023,0,87,38,24,868,681.0,650,468,60,126.0,105,1,270,180,72,0,0,664,-26562,-2345,674,-5.59,,,,,,,,,,,,
335443,1564236553776,10,2.28,0.96,0.31,1.37,1.01,1.34,0.75,0.38,-6,-12,-6,1.54,8997,0,87,38,23,865,677.0,653,461,60,125.0,105,1,270,174,72,0,0,663,-26892,31988,668,-5.59,44.680847,10.016781,69.09,179.3,0,0.0,-1,0.0,0.0,0,2.09,5.5907
335463,1564236553796,12,2.28,0.96,0.31,1.38,1.01,1.34,0.8,0.41,-6,-14,-5,1.55,8924,0,87,38,23,865,671.0,651,465,60,126.0,105,1,270,174,72,0,0,658,8958,-3488,666,-5.59,,,,,,,,,,,,
335483,1564236553816,12,2.28,0.96,0.31,1.38,1.02,1.4,0.8,0.42,-6,-14,-6,1.61,8848,0,87,38,23,868,668.0,648,467,60,126.0,105,1,270,174,72,0,0,656,-2830,24583,659,-5.59,,,,,,,,,,,,
335503,1564236553836,11,2.28,0.95,0.31,1.38,1.02,1.46,0.76,0.39,-6,-15,-6,1.64,8790,0,87,38,23,875,664.0,646,466,60,126.0,88,1,270,174,58,0,0,650,1549,24583,654,-5.59,,,,,,,,,,,,
335523,1564236553856,11,2.28,0.96,0.3,1.38,1.01,1.52,0.71,0.3,-6,-14,-6,1.67,8773,0,87,38,23,883,661.0,645,466,60,126.0,88,1,270,174,58,0,0,645,-3038,-2830,652,-5.59,,,,,,,,,,,,
335543,1564236553876,11,2.28,0.96,0.3,1.38,1.02,1.52,0.59,0.22,-6,-11,-6,1.64,8724,0,87,38,24,901,658.0,642,467,60,126.0,88,1,270,179,58,0,0,632,31988,6208,649,-5.59,44.680828,10.016778,67.55,179.4,0,0.0,-1,0.0,0.0,0,2.09,5.5924
335563,1564236553896,16,2.28,0.95,0.3,1.37,1.02,1.37,0.51,0.2,-5,-9,-7,1.46,8648,0,87,38,24,910,650.0,641,463,60,125.0,88,1,270,103,58,0,0,636,2024,-2580,640,-5.59,,,,,,,,,,,,
335583,1564236553916,13,2.29,0.96,0.31,1.38,1.02,1.36,0.54,0.21,-5,-7,-8,1.46,8577,0,87,38,24,918,650.0,642,462,60,124.0,88,1,270,179,58,0,0,631,-8429,-4876,635,-5.59,,,,,,,,,,,,
335603,1564236553936,13,2.29,0.95,0.31,1.38,1.02,1.42,0.52,0.17,-5,-8,-7,1.52,8491,0,87,38,25,927,641.0,640,462,60,126.0,91,1,270,186,58,0,0,625,-2830,-18357,632,-5.59,,,,,,,,,,,,
335623,1564236553956,16,2.28,0.95,0.31,1.37,1.02,1.27,0.46,0.15,-5,-6,-7,1.36,8415,0,87,38,25,931,638.0,643,462,60,126.0,91,1,270,104,58,0,0,620,16599,30721,629,-5.59,,,,,,,,,,,,
335643,1564236553976,13,2.29,0.95,0.3,1.38,1.01,1.35,0.45,0.2,-5,-7,-7,1.42,8333,0,87,38,25,935,632.0,640,466,60,127.0,91,1,270,176,58,0,0,619,3,5344,625,-5.59,44.680813,10.016774,66.1,179.4,0,0.0,-1,0.0,0.0,0,2.09,5.594
335663,1564236553992,14,2.31,0.95,0.3,1.37,1.02,1.28,0.44,0.1,-4,-6,-8,1.36,8278,0,87,38,25,931,628.0,638,467,60,127.0,91,1,270,173,58,0,0,612,-16046,-28304,619,-5.59,,,,,,,,,,,,
335683,1564236554012,12,2.32,0.95,0.3,1.38,1.01,1.35,0.4,0.14,-4,-7,-8,1.41,8209,0,87,38,26,930,624.0,637,464,60,126.0,91,1,273,169,58,0,0,602,-16883,-28304,617,-5.59,,,,,,,,,,,,
335703,1564236554032,14,2.32,0.96,0.31,1.39,1.02,1.29,0.4,0.06,-4,-5,-7,1.35,8127,0,87,38,26,931,622.0,636,466,60,127.0,84,1,273,165,52,0,0,598,-18357,243,614,-5.59,,,,,,,,,,,,
335723,1564236554052,12,2.32,0.96,0.31,1.39,1.03,1.36,0.4,0.11,-3,-6,-6,1.42,8113,0,87,38,26,934,614.0,633,467,60,125.0,84,1,273,163,52,0,0,589,28675,-13043,610,-5.59,,,,,,,,,,,,
335743,1564236554072,13,2.32,0.97,0.31,1.39,1.03,1.26,0.34,0.08,-3,-5,-6,1.3,8064,0,87,38,26,937,610.0,634,465,60,126.0,84,1,273,161,52,0,0,585,17740,-12040,604,-5.59,44.680798,10.016771,64.25,179.4,0,0.0,-1,0.0,0.0,0,2.1,5.5957
335763,1564236554097,16,2.32,0.97,0.32,1.41,1.03,1.25,0.33,0.11,-3,-5,-6,1.29,7951,0,87,38,26,942,603.0,632,466,60,127.0,84,1,272,158,52,0,0,573,-7939,-3210,603,-5.59,,,,,,,,,,,,
335783,1564236554117,11,2.32,0.97,0.32,1.41,1.04,1.31,0.3,0.05,-3,-5,-4,1.34,7871,0,87,38,26,947,602.0,627,463,60,127.0,84,1,271,158,52,0,0,584,30227,-16179,600,-5.59,,,,,,,,,,,,
335803,1564236554137,12,2.33,0.97,0.32,1.41,1.04,1.35,0.26,0.09,-3,-5,-4,1.38,7815,0,87,38,26,952,597.0,628,466,60,126.0,77,1,271,158,46,0,0,587,23619,-25872,593,-5.59,,,,,,,,,,,,
335823,1564236554157,14,2.31,0.98,0.33,1.4,1.04,1.31,0.27,0.12,-2,-5,-4,1.34,7809,0,87,38,26,953,590.0,628,463,60,126.0,77,1,271,158,46,0,0,575,2048,1760,588,-5.59,,,,,,,,,,,,
335843,1564236554177,14,2.32,0.98,0.33,1.41,1.03,1.25,0.28,0.12,-1,-4,-5,1.28,7822,0,87,38,25,954,583.0,626,465,60,126.0,77,1,268,157,46,0,0,563,15649,-30159,580,-5.59,44.680782,10.016768,62.14,179.4,0,0.0,-1,0.0,0.0,0,2.1,5.5974
335863,1564236554197,16,2.32,0.98,0.33,1.41,1.04,1.2,0.24,0.05,-1,-3,-4,1.22,7712,0,87,38,25,953,578.0,631,462,60,127.0,77,1,267,157,46,0,0,563,-3210,1267,578,-5.59,,,,,,,,,,,,
335883,1564236554217,14,2.32,0.98,0.32,1.42,1.04,1.2,0.17,0.02,-1,-2,-3,1.21,7646,0,87,38,25,952,576.0,628,465,60,126.0,77,1,266,157,46,0,0,563,1,-28648,575,-5.59,,,,,,,,,,,,
335903,1564236554237,16,2.3,0.98,0.32,1.42,1.04,1.28,0.16,0.01,-2,-3,-2,1.29,7554,0,87,38,25,950,572.0,622,463,60,127.0,78,1,265,157,45,0,0,556,-8188,-32504,568,-5.59,,,,,,,,,,,,
335923,1564236554257,18,2.31,0.98,0.33,1.42,1.04,1.35,0.18,0.06,-2,-4,-2,1.36,7512,0,87,38,25,949,567.0,623,464,60,126.0,78,1,264,157,45,0,0,555,1780,-22359,564,-5.59,,,,,,,,,,,,
335943,1564236554277,17,2.32,0.98,0.33,1.42,1.05,1.33,0.19,0.07,-2,-3,-2,1.34,7464,0,87,38,25,953,558.0,621,463,60,127.0,78,1,264,157,45,0,0,544,-32504,-3082,563,-5.59,44.680767,10.016766,59.9,179.4,0,0.0,-1,0.0,0.0,0,2.1,5.5991
335963,1564236554297,16,2.33,0.98,0.33,1.42,1.04,1.33,0.13,0.08,-2,-2,-1,1.34,7437,0,87,38,25,958,555.0,620,466,60,126.0,78,1,264,157,45,0,0,539,2524,2524,555,-5.59,,,,,,,,,,,,
335983,1564236554317,14,2.33,0.98,0.33,1.41,1.04,1.35,0.15,0.06,-1,-3,-0,1.36,7338,0,87,38,25,966,552.0,613,462,60,127.0,78,1,263,157,45,0,0,544,-28648,2524,552,-5.59,,,,,,,,,,,,
336003,1564236554337,11,2.34,0.98,0.33,1.42,1.05,1.31,0.21,-0.02,-1,-2,-1,1.32,7315,0,87,38,25,973,549.0,612,463,60,127.0,78,1,263,157,43,0,0,541,2524,-9072,549,-5.59,,,,,,,,,,,,
336023,1564236554357,12,2.34,0.98,0.33,1.42,1.05,1.27,0.19,-0.05,-0,-1,-1,1.29,7273,0,87,38,25,985,546.0,612,463,60,126.0,78,1,262,157,43,0,0,535,-3082,-32248,546,-5.59,,,,,,,,,,,,
336043,1564236554377,10,2.33,0.98,0.33,1.43,1.04,1.27,0.16,-0.05,-0,-1,0,1.28,7287,0,87,38,25,1004,540.0,611,464,60,126.0,78,1,262,157,43,0,0,523,-2934,-9072,540,-5.59,44.680752,10.016764,57.56,179.4,0,0.0,-1,0.0,0.0,0,2.1,5.6007
336063,1564236554397,9,2.32,0.99,0.33,1.43,1.05,1.25,0.13,0.01,0,-0,1,1.26,7208,0,87,38,25,1011,539.0,607,464,60,125.0,78,1,262,157,43,0,0,524,-32248,2104,539,-5.59,,,,,,,,,,,,
336083,1564236554417,7,2.32,0.98,0.32,1.42,1.05,1.28,0.1,0.04,-0,-2,1,1.28,7181,0,87,38,26,1020,536.0,606,462,60,125.0,78,1,265,157,43,0,0,528,-32248,6274,536,-5.59,,,,,,,,,,,,
336103,1564236554437,3,2.32,0.98,0.33,1.42,1.05,1.24,0.15,0.05,-0,-1,1,1.25,7121,0,87,38,26,1022,536.0,606,465,60,126.0,78,1,265,158,42,0,0,529,-32248,2524,533,-5.59,,,,,,,,,,,,
336123,1564236554457,1,2.31,0.99,0.33,1.43,1.05,1.16,0.18,0.06,0,-0,1,1.18,7043,0,87,38,26,1021,533.0,601,463,60,125.0,78,1,264,158,42,0,0,526,-32248,2524,533,-5.59,,,,,,,,,,,,
336143,1564236554477,-1,2.31,0.98,0.33,1.42,1.05,1.14,0.15,0.08,-0,1,1,1.15,7075,0,87,38,26,1016,531.0,601,464,60,124.0,78,1,264,158,42,0,0,524,-22519,6274,529,-5.59,44.680737,10.016762,55.4,179.4,0,0.0,-1,0.0,0.0,0,2.1,5.6024
336163,1564236554497,2,2.32,0.98,0.33,1.43,1.05,1.16,0.09,0.14,-1,-0,1,1.16,7107,0,87,38,26,1007,529.0,602,462,60,126.0,78,1,265,158,42,0,0,526,2088,2524,528,-5.59,,,,,,,,,,,,
336183,1564236554517,1,2.31,0.98,0.33,1.42,1.04,1.16,0.12,0.12,-1,-1,1,1.17,7131,0,87,38,26,980,527.0,603,463,60,126.0,78,1,265,158,42,0,0,526,-32248,-3482,524,-5.59,,,,,,,,,,,,
336203,1564236554537,2,2.31,0.97,0.33,1.42,1.04,1.07,0.12,0.11,-0,1,0,1.07,7156,0,87,38,26,954,525.0,608,464,60,126.0,80,1,265,158,42,0,0,522,10408,16383,523,-5.59,,,,,,,,,,,,
336223,1564236554557,-2,2.31,0.98,0.33,1.42,1.04,1.1,0.07,0.17,-0,0,0,1.1,7088,0,87,38,27,940,525.0,607,465,60,124.0,80,1,268,159,42,0,0,524,2088,-22519,523,-5.59,,,,,,,,,,,,
336243,1564236554577,3,2.3,0.98,0.33,1.42,1.05,1.14,0.03,0.25,-0,-1,0,1.14,7046,0,87,38,27,920,524.0,602,463,60,124.0,80,1,268,158,42,0,0,519,2524,10408,522,-5.59,44.680725,10.016759,53.29,179.5,0,0.0,-1,0.0,0.0,0,2.1,5.6041
336263,1564236554598,2,2.3,0.97,0.33,1.42,1.05,1.11,0.11,0.24,0,-0,1,1.11,7033,0,87,38,27,901,522.0,598,463,60,126.0,80,1,268,159,42,0,0,521,2524,2524,521,-5.59,,,,,,,,,,,,
336283,1564236554618,-2,2.29,0.98,0.33,1.41,1.05,1.0,0.14,0.28,0,1,0,1.01,6983,0,87,38,27,886,521.0,597,466,60,124.0,80,1,269,159,42,0,0,516,-8187,15679,519,-5.59,,,,,,,,,,,,
336303,1564236554638,3,2.27,0.99,0.33,1.42,1.05,1.1,0.12,0.3,-1,-2,1,1.1,6954,0,87,38,27,874,518.0,595,466,60,124.0,81,1,269,159,42,0,0,516,1341,17136,516,-5.59,,,,,,,,,,,,
336323,1564236554658,1,2.25,0.98,0.32,1.42,1.05,1.05,0.17,0.22,-1,0,0,1.06,6978,0,87,38,27,870,520.0,595,462,60,126.0,81,1,269,159,42,0,0,512,1248,17136,514,-5.59,,,,,,,,,,,,
336343,1564236554678,-1,2.23,0.98,0.33,1.42,1.04,1.04,0.15,0.22,-3,0,0,1.06,6978,0,87,38,27,868,518.0,589,466,60,125.0,81,1,269,159,42,0,0,512,1341,16383,512,-5.59,44.68071,10.016757,52.14,179.5,0,0.0,-1,0.0,0.0,0,2.1,5.6057
336363,1564236554697,3,2.19,0.97,0.32,1.4,1.03,1.06,0.21,0.24,-5,0,-1,1.08,6970,0,87,38,27,869,516.0,592,463,60,126.0,81,1,269,159,42,0,0,516,16383,6274,507,-5.59,,,,,,,,,,,,
336383,1564236554717,-1,2.16,0.96,0.31,1.38,1.02,1.09,0.37,0.2,-7,0,-2,1.15,6970,0,87,38,27,870,521.0,588,464,60,125.0,81,1,269,159,42,0,0,515,-9212,2109,502,-5.59,,,,,,,,,,,,
336403,1564236554737,0,2.13,0.94,0.3,1.36,1.0,1.02,0.4,0.25,-9,-0,-4,1.09,6916,0,87,38,28,874,520.0,585,470,60,126.0,81,1,273,159,41,0,0,522,1248,-9216,497,-5.59,,,,,,,,,,,,
336423,1564236554757,0,2.12,0.93,0.3,1.34,0.99,1.09,0.45,0.26,-11,-2,-6,1.18,6873,0,87,38,27,877,524.0,587,460,60,127.0,81,1,270,159,41,0,0,521,10408,-6528,496,-5.59,,,,,,,,,,,,
336443,1564236554777,1,2.11,0.93,0.29,1.33,1.0,1.08,0.57,0.27,-13,-1,-7,1.22,6845,0,87,38,28,881,525.0,586,465,60,126.0,81,1,274,161,41,0,0,523,2088,1,494,-5.59,44.680698,10.016755,51.43,179.5,0,0.0,-1,0.0,0.0,0,2.11,5.6074
336463,1564236554795,3,2.1,0.92,0.29,1.32,0.99,1.08,0.59,0.27,-15,-1,-8,1.23,6835,0,88,38,28,885,524.0,583,461,60,128.0,81,1,274,161,41,0,0,520,10408,3580,488,-5.59,,,,,,,,,,,,
336483,1564236554815,4,2.1,0.92,0.28,1.33,0.98,1.12,0.73,0.31,-16,-1,-11,1.33,6835,0,88,38,28,887,521.0,578,460,60,128.0,81,1,274,161,41,0,0,517,-9212,-9203,480,-5.59,,,,,,,,,,,,
336503,1564236554835,3,2.07,0.91,0.28,1.33,0.98,1.08,0.75,0.37,-17,-1,-15,1.31,6656,0,87,38,28,889,517.0,575,464,60,128.0,8,1,275,161,4,0,0,510,15679,10432,476,-5.59,,,,,,,,,,,,
336523,1564236554855,2,2.09,0.92,0.29,1.33,0.99,1.09,0.79,0.35,-18,-1,-17,1.35,6691,0,87,38,29,889,516.0,574,465,60,126.0,8,1,278,162,4,0,0,517,16383,-8985,474,-5.59,,,,,,,,,,,,
336543,1564236554875,-0,2.1,0.92,0.29,1.33,0.99,1.06,0.78,0.35,-20,-1,-19,1.31,6592,0,87,38,29,890,516.0,570,463,60,127.0,8,1,279,162,4,0,0,513,16383,17628,477,-5.59,44.680687,10.016753,50.62,179.5,0,0.0,-1,0.0,0.0,0,2.11,5.609
336563,1564236554897,2,2.09,0.92,0.28,1.33,0.99,1.0,0.79,0.42,-21,-1,-21,1.27,6501,0,87,38,30,890,518.0,566,463,60,127.0,8,1,282,164,4,0,0,511,1341,12552,476,-5.59,,,,,,,,,,,,
336583,1564236554917,-1,2.09,0.93,0.29,1.34,0.99,0.99,0.92,0.4,-22,-0,-23,1.35,6494,0,87,38,30,889,517.0,563,465,60,126.0,8,1,283,87,4,0,0,509,15679,6193,474,-5.59,,,,,,,,,,,,
336603,1564236554937,1,2.09,0.93,0.28,1.34,0.98,1.04,0.92,0.42,-23,-1,-24,1.39,6521,0,87,38,30,890,512.0,561,464,60,127.0,84,1,282,87,40,0,0,510,17136,-3267,474,-5.59,,,,,,,,,,,,
336623,1564236554957,1,2.1,0.92,0.29,1.34,0.98,1.07,0.89,0.48,-24,-2,-26,1.39,6558,0,87,38,30,892,508.0,561,463,60,126.0,84,1,282,164,40,0,0,504,-3414,10305,471,-5.59,,,,,,,,,,,,
336643,1564236554977,-2,2.1,0.92,0.29,1.34,0.98,1.03,1.0,0.37,-24,-2,-27,1.43,6565,0,87,38,31,893,511.0,563,464,60,126.0,84,1,286,88,40,0,0,506,-3856,2131,471,-5.59,44.680672,10.016752,49.87,179.5,0,0.0,-1,0.0,0.0,0,2.11,5.6107
336663,1564236554991,1,2.09,0.92,0.28,1.34,0.98,1.01,0.98,0.36,-25,-2,-28,1.41,6519,0,87,39,31,896,510.0,563,462,60,128.0,84,1,286,165,40,0,0,507,-4054,-18341,467,-5.59,,,,,,,,,,,,
336683,1564236555011,1,2.08,0.93,0.29,1.33,0.98,1.02,0.98,0.38,-26,-1,-29,1.42,6427,0,87,39,31,900,511.0,557,464,60,127.0,84,1,286,88,40,0,0,506,-3856,15649,466,-5.59,,,,,,,,,,,,
336703,1564236555031,2,2.09,0.92,0.29,1.34,0.98,0.93,1.09,0.39,-27,0,-30,1.43,6306,0,87,39,31,905,509.0,553,462,60,126.0,83,1,286,165,39,0,0,509,10994,30272,465,-5.59,,,,,,,,,,,,
336723,1564236555051,-2,2.1,0.93,0.29,1.34,0.99,0.95,1.05,0.3,-27,-0,-32,1.42,6260,0,87,39,31,908,506.0,551,459,60,128.0,83,1,286,167,39,0,0,493,-28648,-28332,465,-5.59,,,,,,,,,,,,
336743,1564236555071,-2,2.1,0.93,0.28,1.33,0.98,1.06,1.11,0.41,-27,-8,-34,1.53,6229,3,87,39,32,912,496.0,550,462,60,129.0,83,1,290,167,39,0,0,497,771,-6656,462,-5.59,44.68066,10.016752,48.78,179.5,0,0.0,-1,0.0,0.0,0,2.11,5.6124
336763,1564236555094,1,2.1,0.92,0.29,1.34,0.98,0.9,1.04,0.31,-27,-10,-36,1.37,6555,5,87,39,32,919,496.0,549,465,60,127.0,83,1,290,167,39,0,0,478,-9216,1,458,-5.59,,,,,,,,,,,,
336783,1564236555114,0,2.09,0.93,0.29,1.34,0.99,0.91,1.14,0.18,-26,-5,-35,1.46,6658,5,87,39,32,926,496.0,555,464,60,128.0,83,1,290,167,39,0,0,465,3,3327,454,-5.59,,,,,,,,,,,,
336803,1564236555134,2,2.1,0.93,0.29,1.34,0.99,0.94,1.01,0.23,-28,-5,-36,1.38,6825,6,87,39,32,931,496.0,568,463,60,128.0,92,1,290,167,42,0,0,471,3,170,452,-5.59,,,,,,,,,,,,
336823,1564236555154,0,2.1,0.93,0.29,1.34,0.99,1.01,1.08,0.21,-29,-6,-38,1.48,6993,6,87,39,32,934,492.0,581,465,60,128.0,92,1,290,167,42,0,0,469,-32768,30720,447,-5.59,,,,,,,,,,,,
336843,1564236555174,0,2.11,0.94,0.29,1.34,0.99,0.96,1.02,0.31,-30,-6,-39,1.41,7137,6,87,39,31,934,493.0,594,465,60,128.0,92,1,285,165,42,0,0,468,-6528,28160,445,-5.59,44.680649,10.016754,47.47,179.5,0,0.0,-1,0.0,0.0,0,2.11,5.614
336863,1564236555196,-1,2.13,0.94,0.29,1.34,0.99,1.02,1.04,0.33,-31,-5,-40,1.46,7253,6,87,39,31,932,488.0,606,465,60,128.0,92,1,286,165,42,0,0,470,505,-1529,441,-5.59,,,,,,,,,,,,
336883,1564236555216,3,2.15,0.93,0.29,1.35,0.99,0.98,1.0,0.32,-31,-2,-40,1.4,7290,6,87,39,30,929,488.0,613,461,60,129.0,92,1,282,164,42,0,0,473,1,24064,439,-5.59,,,,,,,,,,,,
336903,1564236555236,0,2.2,0.93,0.29,1.35,0.98,0.99,0.95,0.29,-31,-3,-41,1.37,7315,6,87,39,29,924,485.0,617,463,60,129.0,102,1,278,162,45,0,0,478,-6441,125,438,-5.59,,,,,,,,,,,,
336923,1564236555256,1,2.22,0.93,0.3,1.35,0.99,0.95,1.0,0.24,-30,-4,-41,1.38,7315,5,87,39,29,916,480.0,620,462,60,127.0,102,1,278,162,45,0,0,461,10305,-29302,436,-5.59,,,,,,,,,,,,
336943,1564236555276,1,2.25,0.94,0.3,1.35,1.0,0.85,0.91,0.2,-28,-2,-41,1.25,7449,6,87,39,29,907,471.0,621,467,60,127.0,102,1,278,162,45,0,0,442,32033,770,436,-5.59,44.680637,10.016758,46.71,179.5,0,0.0,-1,0.0,0.0,0,2.11,5.6157
336963,1564236555294,2,2.28,0.94,0.3,1.36,1.0,0.74,0.87,0.15,-26,-2,-40,1.14,7554,8,87,39,28,901,463.0,625,461,60,128.0,102,1,275,161,45,0,0,436,6193,-8151,435,-5.59,,,,,,,,,,,,
336983,1564236555314,2,2.33,0.94,0.3,1.36,1.01,0.66,0.89,0.16,-23,-1,-38,1.11,7700,8,87,39,28,898,457.0,630,463,60,128.0,102,1,276,84,45,0,0,417,-9160,-9166,433,-5.59,,,,,,,,,,,,
337003,1564236555334,-1,2.37,0.95,0.31,1.38,1.01,0.69,0.82,0.13,-21,-1,-37,1.07,7802,12,87,39,29,888,451.0,628,465,60,128.0,108,1,280,162,47,0,0,406,3571,-3414,435,-5.59,,,,,,,,,,,,
337023,1564236555354,1,2.42,0.96,0.31,1.39,1.02,0.8,0.73,0.17,-19,-0,-33,1.09,7911,12,87,39,29,881,447.0,632,466,60,126.0,108,1,281,162,47,0,0,422,10305,-4082,434,-5.59,,,,,,,,,,,,
337043,1564236555374,2,2.46,0.97,0.32,1.4,1.04,0.75,0.59,0.25,-17,0,-29,0.96,8040,13,87,39,29,873,442.0,635,465,60,128.0,108,1,281,165,47,0,0,428,-28332,-3314,442,-5.59,44.680626,10.016762,44.97,179.5,0,0.0,-1,0.0,0.0,0,2.11,5.6174
337063,1564236555397,-1,2.5,0.98,0.32,1.41,1.04,0.8,0.5,0.29,-13,-1,-26,0.94,8092,11,87,39,29,870,442.0,636,465,60,128.0,108,1,282,166,47,0,0,422,1779,1779,442,-5.59,,,,,,,,,,,,
337083,1564236555417,1,2.53,0.99,0.34,1.42,1.06,0.78,0.43,0.26,-8,-1,-22,0.89,8187,13,87,39,29,865,444.0,634,463,60,127.0,108,1,283,171,47,0,0,418,-3856,19477,445,-5.59,,,,,,,,,,,,
337103,1564236555437,0,2.54,1.0,0.34,1.43,1.06,0.78,0.23,0.3,-3,-0,-18,0.81,8223,13,87,39,29,864,447.0,637,466,60,127.0,119,1,283,172,53,0,0,415,-3414,23400,447,-5.59,,,,,,,,,,,,
337123,1564236555457,1,2.55,1.0,0.34,1.43,1.06,0.85,0.1,0.37,1,-2,-14,0.85,8191,13,87,39,29,864,449.0,636,462,60,126.0,119,1,283,171,53,0,0,416,-9166,10305,451,-5.59,,,,,,,,,,,,
