"Interval"|"ms"|0|0|1,"Utc"|"ms"|0|0|1,"Brake_F"|"Bar"|0|2000|10,"Brake_R"|"Bar"|0|2000|10,"Height_RF"|"mm"|0|255|50,"Height_LF"|"mm"|0|255|50,"Height_LR"|"mm"|0|80|50,"Height_RR"|"mm"|0|255|50,"Steering"|"deg"|-100|100|10,"AccelX"|"G"|-3.0|3.0|50,"AccelY"|"G"|-3.0|3.0|50,"AccelZ"|"G"|-3.0|3.0|50,"Yaw"|"Deg/Sec"|-120|120|50,"Pitch"|"Deg/Sec"|-120|120|50,"Roll"|"Deg/Sec"|-120|120|50,"Gsum"|"G"|0.0|3.0|50,"Log_Button"|""|0.0|10.0|10,"WaterTemp"|"C"|0|150|50,"RPM"|"tr/min"|0|14000|50,"TPS"|"%"|0|100|50,"AirTemp"|"C"|0|150|50,"MAP"|"KPa"|0|100|50,"Lambda"|""|0.5|1.5|50,"SpeedDTA"|"kph"|0.0|250.0|50,"OilPress"|"KPa"|0|1500|50,"FuelPressur"|"Bar"|0.0|10.0|50,"Batterie"|"V"|0.0|20.0|50,"ConsoKm"|"L/100km"|0.0|200.0|50,"Gear"|""|0|6|50,"AdvIgnition"|"Deg"|-20.0|70.0|50,"Injection"|"ms"|0.0|10.0|50,"ConsoHr"|"L/Hr"|0.0|10000.0|50,"LC_But_Pres"|""|0|1|50,"LC_Active"|""|0|1|50,"TractionOn"|""|0|1|50,"TractionWet"|""|0|1|50,"FanOn"|""|0|1|50,"RD_Speed"|"km/h"|-30|250|10,"RUD_Speed"|"km/h"|-30|250|10,"LD_Speed"|"km/h"|-30|250|10,"LUD_Speed"|"km/h"|-30|250|10,"Latitude"|"Degrees"|-180.0|180.0|10,"Longitude"|"Degrees"|-180.0|180.0|10,"Speed"|"kph"|0.0|150.0|10,"Altitude"|"m"|0.0|4000.0|10,"GPSSats"|""|0|20|10,"GPSQual"|""|0|5|10,"GPSDOP"|""|0.0|20.0|10,"LapCount"|""|0|0|10,"LapTime"|"Min"|0.0|0.0|10,"Sector"|""|0|0|10,"SectorTime"|"Min"|0.0|0.0|10,"PredTime"|"Min"|0.0|0.0|5,"ElapsedTime"|"Min"|0.0|0.0|10,"CurrentLap"|""|0|0|10,"Distance"|"km"|0.0|0.0|10,"SessionTime"|"Min"|0.0|0.0|10
63,0,,,247,251,238,235,,-0.06,-0.03,1.01,0,0,-0,0.07,,0,0,0,0,0,0.0,0.0,0,0.0,0.0,0.0,0,0.0,0.0,0.0,0,0,0,0,0,,,,,,,,,,,,,,,,,,,,
83,0,,,247,251,238,234,,-0.06,-0.03,1.01,0,-0,-0,0.07,,0,0,0,0,0,0.0,0.0,0,0.0,0.0,0.0,0,0.0,0.0,0.0,0,0,0,0,0,,,,,,,,,,,,,,,,,,,,
103,0,,,247,251,238,235,,-0.06,-0.03,1.01,0,-0,-0,0.07,,0,0,0,0,0,0.0,0.0,0,0.0,0.0,0.0,0,0.0,0.0,0.0,0,0,0,0,0,,,,,,,,,,,,,,,,,,,,
123,0,,,247,251,238,235,,-0.06,-0.03,1.01,0,-0,-0,0.07,,0,0,0,0,0,0.0,0.0,0,0.0,0.0,0.0,0,0.0,0.0,0.0,0,0,0,0,0,,,,,,,,,,,,,,,,,,,,
143,0,-0,2,247,251,238,235,1,-0.06,-0.03,1.01,0,-0,-0,0.07,1,0,0,0,0,0,0.0,0.0,0,0.0,0.0,0.0,0,0.0,0.0,0.0,0,0,0,0,0,0,0,0,0,0.0,0.0,0.0,0.0,0,0,0.0,0,0.0,-1,0.0,,0.0,0,0.0,0.0024
163,0,,,247,251,238,235,,-0.06,-0.03,1.01,-0,-0,-0,0.07,,0,0,0,0,0,0.0,0.0,0,0.0,0.0,0.0,0,0.0,0.0,0.0,0,0,0,0,0,,,,,,,,,,,,,,,,,,,,
183,0,,,247,250,238,235,,-0.06,-0.03,1.01,-0,-0,-0,0.07,,0,0,0,0,0,0.0,0.0,0,0.0,0.0,0.0,0,0.0,0.0,0.0,0,0,0,0,0,,,,,,,,,,,,,,,,,,,,
203,0,,,247,251,238,235,,-0.06,-0.03,1.01,-0,-0,-0,0.06,,0,0,0,0,0,0.0,0.0,0,0.0,0.0,0.0,0,0.0,0.0,0.0,0,0,0,0,0,,,,,,,,,,,,,,,,,,,,
223,0,,,247,251,238,235,,-0.06,-0.03,1.01,-0,-0,-0,0.06,,0,0,0,0,0,0.0,0.0,0,0.0,0.0,0.0,0,0.0,0.0,0.0,0,0,0,0,0,,,,,,,,,,,,,,,,,,,,
243,0,-0,3,247,251,238,234,0,-0.06,-0.03,1.01,-0,-0,-0,0.06,1,0,0,0,0,0,0.0,0.0,0,0.0,0.0,0.0,0,0.0,0.0,0.0,0,0,0,0,0,0,0,0,0,0.0,0.0,0.0,0.0,0,0,0.0,0,0.0,-1,0.0,0.0,0.0,0,0.0,0.004
263,0,,,247,251,238,235,,-0.06,-0.03,1.01,-0,-0,-0,0.07,,0,0,0,0,0,0.0,0.0,0,0.0,0.0,0.0,0,0.0,0.0,0.0,0,0,0,0,0,,,,,,,,,,,,,,,,,,,,
283,0,,,247,251,238,235,,-0.06,-0.03,1.01,-0,-0,-0,0.07,,0,0,0,0,0,0.0,0.0,0,0.0,0.0,0.0,0,0.0,0.0,0.0,0,0,0,0,0,,,,,,,,,,,,,,,,,,,,
303,0,,,247,251,238,235,,-0.06,-0.03,1.01,-0,-0,-0,0.07,,0,0,0,0,0,0.0,0.0,0,0.0,0.0,0.0,0,0.0,0.0,0.0,0,0,0,0,0,,,,,,,,,,,,,,,,,,,,
323,0,,,247,251,238,235,,-0.06,-0.03,1.0,-0,-0,-0,0.07,,0,0,0,0,0,0.0,0.0,0,0.0,0.0,0.0,0,0.0,0.0,0.0,0,0,0,0,0,,,,,,,,,,,,,,,,,,,,
343,0,0,0,247,250,238,235,1,-0.06,-0.03,1.01,-0,-0,-0,0.07,1,0,0,0,0,0,0.0,0.0,0,0.0,0.0,0.0,0,0.0,0.0,0.0,0,0,0,0,0,0,0,0,0,0.0,0.0,0.0,0.0,0,0,0.0,0,0.0,-1,0.0,,0.0,0,0.0,0.0057
363,0,,,247,251,238,235,,-0.06,-0.03,1.01,-0,-0,-0,0.07,,0,0,0,0,0,0.0,0.0,0,0.0,0.0,0.0,0,0.0,0.0,0.0,0,0,0,0,0,,,,,,,,,,,,,,,,,,,,
383,0,,,247,251,238,234,,-0.06,-0.03,1.01,-0,-0,-0,0.07,,0,0,0,0,0,0.0,0.0,0,0.0,0.0,0.0,0,0.0,0.0,0.0,0,0,0,0,0,,,,,,,,,,,,,,,,,,,,
403,0,,,247,251,238,235,,-0.06,-0.03,1.01,-0,-0,-0,0.07,,0,0,0,0,0,0.0,0.0,0,0.0,0.0,0.0,0,0.0,0.0,0.0,0,0,0,0,0,,,,,,,,,,,,,,,,,,,,
423,0,,,247,251,238,235,,-0.06,-0.03,1.01,-0,-0,-0,0.07,,0,0,0,0,0,0.0,0.0,0,0.0,0.0,0.0,0,0.0,0.0,0.0,0,0,0,0,0,,,,,,,,,,,,,,,,,,,,
443,0,0,0,247,251,238,235,1,-0.06,-0.03,1.01,-0,-0,-0,0.07,1,0,0,0,0,0,0.0,0.0,0,0.0,0.0,0.0,0,0.0,0.0,0.0,0,0,0,0,0,0,0,0,0,0.0,0.0,0.0,0.0,0,0,0.0,0,0.0,-1,0.0,0.0,0.0,0,0.0,0.0074
463,0,,,247,251,238,235,,-0.06,-0.03,1.01,-0,-0,-0,0.07,,0,0,0,0,0,0.0,0.0,0,0.0,0.0,0.0,0,0.0,0.0,0.0,0,0,0,0,0,,,,,,,,,,,,,,,,,,,,
483,0,,,247,251,238,235,,-0.06,-0.03,1.01,0,-0,-0,0.07,,0,0,0,0,0,0.0,0.0,0,0.0,0.0,0.0,0,0.0,0.0,0.0,0,0,0,0,0,,,,,,,,,,,,,,,,,,,,
503,0,,,247,251,238,235,,-0.06,-0.03,1.01,0,-0,-0,0.07,,0,0,0,0,0,0.0,0.0,0,0.0,0.0,0.0,0,0.0,0.0,0.0,0,0,0,0,0,,,,,,,,,,,,,,,,,,,,
523,0,,,247,251,238,235,,-0.06,-0.03,1.01,0,-0,-0,0.07,,0,0,0,0,0,0.0,0.0,0,0.0,0.0,0.0,0,0.0,0.0,0.0,0,0,0,0,0,,,,,,,,,,,,,,,,,,,,
543,0,0,1,247,251,238,235,0,-0.06,-0.03,1.01,0,-0,-0,0.07,1,0,0,0,0,0,0.0,0.0,0,0.0,0.0,0.0,0,0.0,0.0,0.0,0,0,0,0,0,0,0,0,0,0.0,0.0,0.0,0.0,0,0,0.0,0,0.0,-1,0.0,,0.0,0,0.0,0.0091
563,0,,,247,251,238,234,,-0.06,-0.03,1.01,0,-0,-0,0.07,,0,0,0,0,0,0.0,0.0,0,0.0,0.0,0.0,0,0.0,0.0,0.0,0,0,0,0,0,,,,,,,,,,,,,,,,,,,,
583,0,,,247,251,238,235,,-0.06,-0.03,1.01,0,-0,-0,0.07,,0,0,0,0,0,0.0,0.0,0,0.0,0.0,0.0,0,0.0,0.0,0.0,0,0,0,0,0,,,,,,,,,,,,,,,,,,,,
603,0,,,247,251,238,235,,-0.06,-0.03,1.01,0,-0,-0,0.07,,0,0,0,0,0,0.0,0.0,0,0.0,0.0,0.0,0,0.0,0.0,0.0,0,0,0,0,0,,,,,,,,,,,,,,,,,,,,
623,0,,,247,251,238,235,,-0.06,-0.03,1.01,-0,-0,-0,0.07,,0,0,0,0,0,0.0,0.0,0,0.0,0.0,0.0,0,0.0,0.0,0.0,0,0,0,0,0,,,,,,,,,,,,,,,,,,,,
643,0,-0,2,247,251,238,235,1,-0.06,-0.03,1.01,-0,-0,-0,0.07,1,0,0,0,0,0,0.0,0.0,0,0.0,0.0,0.0,0,0.0,0.0,0.0,0,0,0,0,0,0,0,0,0,0.0,0.0,0.0,0.0,0,0,0.0,0,0.0,-1,0.0,0.0,0.0,0,0.0,0.0107
663,0,,,247,251,238,235,,-0.06,-0.03,1.01,0,-0,-0,0.07,,0,0,0,0,0,0.0,0.0,0,0.0,0.0,0.0,0,0.0,0.0,0.0,0,0,0,0,0,,,,,,,,,,,,,,,,,,,,
683,0,,,247,251,238,235,,-0.06,-0.03,1.01,0,-0,-0,0.07,,0,0,0,0,0,0.0,0.0,0,0.0,0.0,0.0,0,0.0,0.0,0.0,0,0,0,0,0,,,,,,,,,,,,,,,,,,,,
703,0,,,247,251,238,235,,-0.06,-0.03,1.01,0,-0,-0,0.07,,0,0,0,0,0,0.0,0.0,0,0.0,0.0,0.0,0,0.0,0.0,0.0,0,0,0,0,0,,,,,,,,,,,,,,,,,,,,
723,0,,,247,251,238,235,,-0.06,-0.03,1.01,0,-0,-0,0.07,,0,0,0,0,0,0.0,0.0,0,0.0,0.0,0.0,0,0.0,0.0,0.0,0,0,0,0,0,,,,,,,,,,,,,,,,,,,,
743,0,0,1,247,250,238,235,1,-0.06,-0.03,1.01,0,-0,-0,0.07,1,0,0,0,0,0,0.0,0.0,0,0.0,0.0,0.0,0,0.0,0.0,0.0,0,0,0,0,0,0,0,0,0,0.0,0.0,0.0,0.0,0,0,0.0,0,0.0,-1,0.0,,0.0,0,0.0,0.0124
763,0,,,247,251,238,235,,-0.06,-0.03,1.01,0,-0,-0,0.07,,0,0,0,0,0,0.0,0.0,0,0.0,0.0,0.0,0,0.0,0.0,0.0,0,0,0,0,0,,,,,,,,,,,,,,,,,,,,
783,0,,,247,251,238,235,,-0.06,-0.03,1.01,0,-0,-0,0.07,,0,0,0,0,0,0.0,0.0,0,0.0,0.0,0.0,0,0.0,0.0,0.0,0,0,0,0,0,,,,,,,,,,,,,,,,,,,,
803,0,,,247,251,238,235,,-0.06,-0.03,1.01,0,-0,-0,0.07,,0,0,0,0,0,0.0,0.0,0,0.0,0.0,0.0,0,0.0,0.0,0.0,0,0,0,0,0,,,,,,,,,,,,,,,,,,,,
823,0,,,247,251,238,235,,-0.06,-0.03,1.01,0,-0,-0,0.07,,0,0,0,0,0,0.0,0.0,0,0.0,0.0,0.0,0,0.0,0.0,0.0,0,0,0,0,0,,,,,,,,,,,,,,,,,,,,
843,0,-1,2,247,251,238,234,1,-0.06,-0.03,1.01,0,-0,-0,0.07,1,0,0,0,0,0,0.0,0.0,0,0.0,0.0,0.0,0,0.0,0.0,0.0,0,0,0,0,0,0,0,0,0,0.0,0.0,0.0,0.0,0,0,0.0,0,0.0,-1,0.0,0.0,0.0,0,0.0,0.014
863,0,,,247,251,238,235,,-0.06,-0.03,1.01,0,-0,-0,0.07,,0,0,0,0,0,0.0,0.0,0,0.0,0.0,0.0,0,0.0,0.0,0.0,0,0,0,0,0,,,,,,,,,,,,,,,,,,,,
883,0,,,247,251,238,235,,-0.06,-0.03,1.0,0,-0,-0,0.07,,0,0,0,0,0,0.0,0.0,0,0.0,0.0,0.0,0,0.0,0.0,0.0,0,0,0,0,0,,,,,,,,,,,,,,,,,,,,
903,0,,,247,251,238,235,,-0.06,-0.03,1.0,0,-0,-0,0.07,,0,0,0,0,0,0.0,0.0,0,0.0,0.0,0.0,0,0.0,0.0,0.0,0,0,0,0,0,,,,,,,,,,,,,,,,,,,,
923,0,,,247,251,238,235,,-0.06,-0.03,1.0,0,-0,-0,0.07,,0,0,0,0,0,0.0,0.0,0,0.0,0.0,0.0,0,0.0,0.0,0.0,0,0,0,0,0,,,,,,,,,,,,,,,,,,,,
943,0,-0,2,247,251,238,235,1,-0.06,-0.03,1.0,0,-0,-0,0.07,1,0,0,0,0,0,0.0,0.0,0,0.0,0.0,0.0,0,0.0,0.0,0.0,0,0,0,0,0,0,0,0,0,0.0,0.0,0.0,0.0,0,0,0.0,0,0.0,-1,0.0,,0.0,0,0.0,0.0157
963,0,,,247,251,238,235,,-0.06,-0.03,1.0,0,-0,-0,0.07,,0,0,0,0,0,0.0,0.0,0,0.0,0.0,0.0,0,0.0,0.0,0.0,0,0,0,0,0,,,,,,,,,,,,,,,,,,,,
983,0,,,247,251,238,235,,-0.06,-0.03,1.0,0,-0,-0,0.07,,0,0,0,0,0,0.0,0.0,0,0.0,0.0,0.0,0,0.0,0.0,0.0,0,0,0,0,0,,,,,,,,,,,,,,,,,,,,
1003,0,,,247,251,238,235,,-0.06,-0.03,1.0,0,-0,-0,0.07,,0,0,0,0,0,0.0,0.0,0,0.0,0.0,0.0,0,0.0,0.0,0.0,0,0,0,0,0,,,,,,,,,,,,,,,,,,,,
1023,0,,,247,250,238,235,,-0.06,-0.03,1.0,0,-0,-0,0.07,,0,0,0,0,0,0.0,0.0,0,0.0,0.0,0.0,0,0.0,0.0,0.0,0,0,0,0,0,,,,,,,,,,,,,,,,,,,,
1043,0,0,0,247,251,238,235,1,-0.06,-0.03,1.0,0,-0,-0,0.07,1,0,0,0,0,0,0.0,0.0,0,0.0,0.0,0.0,0,0.0,0.0,0.0,0,0,0,0,0,0,0,0,0,0.0,0.0,0.0,0.0,0,0,0.0,0,0.0,-1,0.0,0.0,0.0,0,0.0,0.0174
1063,0,,,247,251,238,235,,-0.06,-0.03,1.0,0,-0,-0,0.07,,0,0,0,0,0,0.0,0.0,0,0.0,0.0,0.0,0,0.0,0.0,0.0,0,0,0,0,0,,,,,,,,,,,,,,,,,,,,
1083,0,,,247,251,238,235,,-0.06,-0.03,1.01,0,-0,-0,0.07,,0,0,0,0,0,0.0,0.0,0,0.0,0.0,0.0,0,0.0,0.0,0.0,0,0,0,0,0,,,,,,,,,,,,,,,,,,,,
1103,0,,,247,251,238,235,,-0.06,-0.03,1.01,0,-0,-0,0.07,,0,0,0,0,0,0.0,0.0,0,0.0,0.0,0.0,0,0.0,0.0,0.0,0,0,0,0,0,,,,,,,,,,,,,,,,,,,,
1123,0,,,247,251,238,235,,-0.06,-0.03,1.01,0,-0,-0,0.07,,0,0,0,0,0,0.0,0.0,0,0.0,0.0,0.0,0,0.0,0.0,0.0,0,0,0,0,0,,,,,,,,,,,,,,,,,,,,
1143,0,0,0,247,251,238,235,1,-0.06,-0.03,1.01,0,-0,-0,0.07,1,0,0,0,0,0,0.0,0.0,0,0.0,0.0,0.0,0,0.0,0.0,0.0,0,0,0,0,0,0,0,0,0,0.0,0.0,0.0,0.0,0,0,0.0,0,0.0,-1,0.0,,0.0,0,0.0,0.019
1163,0,,,247,251,238,235,,-0.06,-0.03,1.01,0,-0,-0,0.07,,0,0,0,0,0,0.0,0.0,0,0.0,0.0,0.0,0,0.0,0.0,0.0,0,0,0,0,0,,,,,,,,,,,,,,,,,,,,
1183,0,,,247,251,238,235,,-0.06,-0.03,1.01,0,-0,-0,0.07,,0,0,0,0,0,0.0,0.0,0,0.0,0.0,0.0,0,0.0,0.0,0.0,0,0,0,0,0,,,,,,,,,,,,,,,,,,,,
1203,0,,,247,251,238,235,,-0.06,-0.03,1.01,0,-0,-0,0.07,,0,0,0,0,0,0.0,0.0,0,0.0,0.0,0.0,0,0.0,0.0,0.0,0,0,0,0,0,,,,,,,,,,,,,,,,,,,,
1223,0,,,247,251,238,235,,-0.06,-0.03,1.01,0,-0,-0,0.07,,0,0,0,0,0,0.0,0.0,0,0.0,0.0,0.0,0,0.0,0.0,0.0,0,0,0,0,0,,,,,,,,,,,,,,,,,,,,
1243,0,-0,2,247,251,238,234,1,-0.06,-0.03,1.01,0,-0,-0,0.07,1,0,0,0,0,0,0.0,0.0,0,0.0,0.0,0.0,0,0.0,0.0,0.0,0,0,0,0,0,0,0,0,0,0.0,0.0,0.0,0.0,0,0,0.0,0,0.0,-1,0.0,0.0,0.0,0,0.0,0.0207
1263,0,,,247,251,238,235,,-0.06,-0.03,1.01,0,-0,-0,0.07,,0,0,0,0,0,0.0,0.0,0,0.0,0.0,0.0,0,0.0,0.0,0.0,0,0,0,0,0,,,,,,,,,,,,,,,,,,,,
1283,0,,,247,251,238,235,,-0.06,-0.03,1.01,0,-0,-0,0.07,,0,0,0,0,0,0.0,0.0,0,0.0,0.0,0.0,0,0.0,0.0,0.0,0,0,0,0,0,,,,,,,,,,,,,,,,,,,,
1303,0,,,247,250,238,235,,-0.06,-0.03,1.01,0,-0,-0,0.07,,0,0,0,0,0,0.0,0.0,0,0.0,0.0,0.0,0,0.0,0.0,0.0,0,0,0,0,0,,,,,,,,,,,,,,,,,,,,
1323,0,,,247,251,238,234,,-0.06,-0.03,1.0,0,-0,-0,0.07,,0,0,0,0,0,0.0,0.0,0,0.0,0.0,0.0,0,0.0,0.0,0.0,0,0,0,0,0,,,,,,,,,,,,,,,,,,,,
1343,0,0,0,247,250,238,235,1,-0.06,-0.03,1.01,0,-0,-0,0.07,1,0,0,0,0,0,0.0,0.0,0,0.0,0.0,0.0,0,0.0,0.0,0.0,0,0,0,0,0,0,0,0,0,0.0,0.0,0.0,0.0,0,0,0.0,0,0.0,-1,0.0,,0.0,0,0.0,0.0224
1363,0,,,247,251,238,235,,-0.06,-0.03,1.01,0,-0,-0,0.07,,0,0,0,0,0,0.0,0.0,0,0.0,0.0,0.0,0,0.0,0.0,0.0,0,0,0,0,0,,,,,,,,,,,,,,,,,,,,
1383,0,,,247,251,238,235,,-0.06,-0.03,1.01,0,-0,-0,0.07,,0,0,0,0,0,0.0,0.0,0,0.0,0.0,0.0,0,0.0,0.0,0.0,0,0,0,0,0,,,,,,,,,,,,,,,,,,,,
1403,0,,,247,251,238,235,,-0.06,-0.03,1.01,0,-0,-0,0.07,,0,0,0,0,0,0.0,0.0,0,0.0,0.0,0.0,0,0.0,0.0,0.0,0,0,0,0,0,,,,,,,,,,,,,,,,,,,,
1423,0,,,247,251,238,235,,-0.06,-0.03,1.01,0,-0,-0,0.07,,0,0,0,0,0,0.0,0.0,0,0.0,0.0,0.0,0,0.0,0.0,0.0,0,0,0,0,0,,,,,,,,,,,,,,,,,,,,
1443,0,-0,2,247,251,238,234,1,-0.06,-0.03,1.01,0,-0,-0,0.07,1,0,0,0,0,0,0.0,0.0,0,0.0,0.0,0.0,0,0.0,0.0,0.0,0,0,0,0,0,0,0,0,0,0.0,0.0,0.0,0.0,0,0,0.0,0,0.0,-1,0.0,0.0,0.0,0,0.0,0.024
1463,0,,,247,251,238,235,,-0.06,-0.03,1.01,0,-0,-0,0.07,,0,0,0,0,0,0.0,0.0,0,0.0,0.0,0.0,0,0.0,0.0,0.0,0,0,0,0,0,,,,,,,,,,,,,,,,,,,,
1483,0,,,247,251,238,235,,-0.06,-0.03,1.01,0,-0,-0,0.07,,0,0,0,0,0,0.0,0.0,0,0.0,0.0,0.0,0,0.0,0.0,0.0,0,0,0,0,0,,,,,,,,,,,,,,,,,,,,
1503,0,,,247,251,238,235,,-0.06,-0.03,1.01,0,-0,-0,0.07,,0,0,0,0,0,0.0,0.0,0,0.0,0.0,0.0,0,0.0,0.0,0.0,0,0,0,0,0,,,,,,,,,,,,,,,,,,,,
1523,0,,,247,250,238,234,,-0.06,-0.03,1.01,0,-0,-0,0.07,,0,0,0,0,0,0.0,0.0,0,0.0,0.0,0.0,0,0.0,0.0,0.0,0,0,0,0,0,,,,,,,,,,,,,,,,,,,,
1543,0,-0,2,247,251,238,235,1,-0.06,-0.03,1.01,0,-0,-0,0.07,1,0,0,0,0,0,0.0,0.0,0,0.0,0.0,0.0,0,0.0,0.0,0.0,0,0,0,0,0,0,0,0,0,0.0,0.0,0.0,0.0,0,0,0.0,0,0.0,-1,0.0,,0.0,0,0.0,0.0257
1563,0,,,247,251,238,235,,-0.06,-0.03,1.01,0,-0,-0,0.07,,0,0,0,0,0,0.0,0.0,0,0.0,0.0,0.0,0,0.0,0.0,0.0,0,0,0,0,0,,,,,,,,,,,,,,,,,,,,
1583,0,,,247,251,238,235,,-0.06,-0.03,1.01,0,-0,-0,0.07,,0,0,0,0,0,0.0,0.0,0,0.0,0.0,0.0,0,0.0,0.0,0.0,0,0,0,0,0,,,,,,,,,,,,,,,,,,,,
1603,0,,,247,251,238,235,,-0.06,-0.03,1.01,0,-0,-0,0.07,,0,0,0,0,0,0.0,0.0,0,0.0,0.0,0.0,0,0.0,0.0,0.0,0,0,0,0,0,,,,,,,,,,,,,,,,,,,,
1623,0,,,247,251,238,235,,-0.06,-0.03,1.01,0,-0,-0,0.07,,0,0,0,0,0,0.0,0.0,0,0.0,0.0,0.0,0,0.0,0.0,0.0,0,0,0,0,0,,,,,,,,,,,,,,,,,,,,
1643,0,-0,2,247,251,238,235,1,-0.06,-0.03,1.01,-0,-0,-0,0.07,1,0,0,0,0,0,0.0,0.0,0,0.0,0.0,0.0,0,0.0,0.0,0.0,0,0,0,0,0,0,0,0,0,0.0,0.0,0.0,0.0,0,0,0.0,0,0.0,-1,0.0,0.0,0.0,0,0.0,0.0274
1663,0,,,247,251,238,235,,-0.06,-0.03,1.01,0,-0,-0,0.07,,0,0,0,0,0,0.0,0.0,0,0.0,0.0,0.0,0,0.0,0.0,0.0,0,0,0,0,0,,,,,,,,,,,,,,,,,,,,
1683,0,,,247,251,238,234,,-0.06,-0.03,1.01,0,-0,-0,0.07,,0,0,0,0,0,0.0,0.0,0,0.0,0.0,0.0,0,0.0,0.0,0.0,0,0,0,0,0,,,,,,,,,,,,,,,,,,,,
1703,0,,,247,251,238,234,,-0.06,-0.03,1.01,0,-0,-0,0.07,,0,0,0,0,0,0.0,0.0,0,0.0,0.0,0.0,0,0.0,0.0,0.0,0,0,0,0,0,,,,,,,,,,,,,,,,,,,,
1723,0,,,247,251,238,235,,-0.06,-0.03,1.01,0,-0,-0,0.07,,0,0,0,0,0,0.0,0.0,0,0.0,0.0,0.0,0,0.0,0.0,0.0,0,0,0,0,0,,,,,,,,,,,,,,,,,,,,
1743,0,0,1,247,251,238,235,1,-0.06,-0.03,1.01,0,-0,-0,0.07,1,0,0,0,0,0,0.0,0.0,0,0.0,0.0,0.0,0,0.0,0.0,0.0,0,0,0,0,0,0,0,0,0,0.0,0.0,0.0,0.0,0,0,0.0,0,0.0,-1,0.0,,0.0,0,0.0,0.029
1763,0,,,247,251,238,235,,-0.06,-0.03,1.01,0,-0,-0,0.07,,0,0,0,0,0,0.0,0.0,0,0.0,0.0,0.0,0,0.0,0.0,0.0,0,0,0,0,0,,,,,,,,,,,,,,,,,,,,
1783,0,,,247,251,238,235,,-0.06,-0.03,1.01,0,-0,-0,0.07,,0,0,0,0,0,0.0,0.0,0,0.0,0.0,0.0,0,0.0,0.0,0.0,0,0,0,0,0,,,,,,,,,,,,,,,,,,,,
1803,0,,,247,251,238,234,,-0.06,-0.03,1.01,0,-0,-0,0.07,,0,0,0,0,0,0.0,0.0,0,0.0,0.0,0.0,0,0.0,0.0,0.0,0,0,0,0,0,,,,,,,,,,,,,,,,,,,,
1823,0,,,247,251,238,235,,-0.06,-0.03,1.01,0,-0,-0,0.06,,0,0,0,0,0,0.0,0.0,0,0.0,0.0,0.0,0,0.0,0.0,0.0,0,0,0,0,0,,,,,,,,,,,,,,,,,,,,
1843,0,-1,2,247,251,238,235,1,-0.06,-0.03,1.01,0,-0,-0,0.06,1,0,0,0,0,0,0.0,0.0,0,0.0,0.0,0.0,0,0.0,0.0,0.0,0,0,0,0,0,0,0,0,0,0.0,0.0,0.0,0.0,0,0,0.0,0,0.0,-1,0.0,0.0,0.0,0,0.0,0.0307
1863,0,,,247,251,238,235,,-0.06,-0.03,1.01,0,-0,-0,0.06,,0,0,0,0,0,0.0,0.0,0,0.0,0.0,0.0,0,0.0,0.0,0.0,0,0,0,0,0,,,,,,,,,,,,,,,,,,,,
1883,0,,,247,251,238,235,,-0.06,-0.03,1.01,0,-0,-0,0.06,,0,0,0,0,0,0.0,0.0,0,0.0,0.0,0.0,0,0.0,0.0,0.0,0,0,0,0,0,,,,,,,,,,,,,,,,,,,,
1903,0,,,247,251,238,235,,-0.06,-0.03,1.01,0,-0,-0,0.06,,0,0,0,0,0,0.0,0.0,0,0.0,0.0,0.0,0,0.0,0.0,0.0,0,0,0,0,0,,,,,,,,,,,,,,,,,,,,
1923,0,,,247,251,238,235,,-0.06,-0.03,1.01,0,-0,-0,0.06,,0,0,0,0,0,0.0,0.0,0,0.0,0.0,0.0,0,0.0,0.0,0.0,0,0,0,0,0,,,,,,,,,,,,,,,,,,,,
1943,0,0,1,247,250,238,235,1,-0.06,-0.03,1.01,0,-0,-0,0.06,1,0,0,0,0,0,0.0,0.0,0,0.0,0.0,0.0,0,0.0,0.0,0.0,0,0,0,0,0,0,0,0,0,0.0,0.0,0.0,0.0,0,0,0.0,0,0.0,-1,0.0,,0.0,0,0.0,0.0324
1963,0,,,247,251,238,235,,-0.06,-0.03,1.01,0,-0,-0,0.06,,0,0,0,0,0,0.0,0.0,0,0.0,0.0,0.0,0,0.0,0.0,0.0,0,0,0,0,0,,,,,,,,,,,,,,,,,,,,
1983,0,,,247,251,238,235,,-0.06,-0.03,1.01,0,-0,-0,0.06,,0,0,0,0,0,0.0,0.0,0,0.0,0.0,0.0,0,0.0,0.0,0.0,0,0,0,0,0,,,,,,,,,,,,,,,,,,,,
2003,0,,,247,251,238,235,,-0.06,-0.03,1.01,0,-0,-0,0.06,,0,0,0,0,0,0.0,0.0,0,0.0,0.0,0.0,0,0.0,0.0,0.0,0,0,0,0,0,,,,,,,,,,,,,,,,,,,,
2023,0,,,247,250,238,235,,-0.06,-0.03,1.01,0,-0,-0,0.06,,0,0,0,0,0,0.0,0.0,0,0.0,0.0,0.0,0,0.0,0.0,0.0,0,0,0,0,0,,,,,,,,,,,,,,,,,,,,
2043,0,0,2,247,251,238,235,1,-0.06,-0.03,1.01,0,-0,-0,0.06,1,0,0,0,0,0,0.0,0.0,0,0.0,0.0,0.0,0,0.0,0.0,0.0,0,0,0,0,0,0,0,0,0,0.0,0.0,0.0,0.0,0,0,0.0,0,0.0,-1,0.0,0.0,0.0,0,0.0,0.034
2063,0,,,247,251,238,234,,-0.06,-0.03,1.01,0,-0,-0,0.06,,0,0,0,0,0,0.0,0.0,0,0.0,0.0,0.0,0,0.0,0.0,0.0,0,0,0,0,0,,,,,,,,,,,,,,,,,,,,
2083,0,,,247,250,238,235,,-0.06,-0.03,1.01,0,-0,-0,0.06,,0,0,0,0,0,0.0,0.0,0,0.0,0.0,0.0,0,0.0,0.0,0.0,0,0,0,0,0,,,,,,,,,,,,,,,,,,,,
2103,0,,,247,251,238,234,,-0.06,-0.03,1.01,0,-0,-0,0.06,,0,0,0,0,0,0.0,0.0,0,0.0,0.0,0.0,0,0.0,0.0,0.0,0,0,0,0,0,,,,,,,,,,,,,,,,,,,,
2123,0,,,247,251,238,234,,-0.06,-0.03,1.01,0,-0,-0,0.06,,0,0,0,0,0,0.0,0.0,0,0.0,0.0,0.0,0,0.0,0.0,0.0,0,0,0,0,0,,,,,,,,,,,,,,,,,,,,
2143,0,0,1,247,251,238,234,1,-0.06,-0.03,1.01,0,-0,-0,0.06,1,0,0,0,0,0,0.0,0.0,0,0.0,0.0,0.0,0,0.0,0.0,0.0,0,0,0,0,0,0,0,0,0,0.0,0.0,0.0,0.0,0,0,0.0,0,0.0,-1,0.0,,0.0,0,0.0,0.0357
2163,0,,,247,251,238,235,,-0.06,-0.03,1.01,0,-0,-0,0.06,,0,0,0,0,0,0.0,0.0,0,0.0,0.0,0.0,0,0.0,0.0,0.0,0,0,0,0,0,,,,,,,,,,,,,,,,,,,,
2183,0,,,247,251,238,235,,-0.06,-0.03,1.01,0,-0,-0,0.06,,0,0,0,0,0,0.0,0.0,0,0.0,0.0,0.0,0,0.0,0.0,0.0,0,0,0,0,0,,,,,,,,,,,,,,,,,,,,
2203,0,,,247,251,238,235,,-0.06,-0.03,1.01,0,-0,-0,0.06,,102,0,6,51,98,0.509,0.0,125,4.86,12.6,0.0,1,0.0,0.0,0.0,0,0,1,1,0,,,,,,,,,,,,,,,,,,,,
2223,0,,,247,251,238,235,,-0.06,-0.03,1.01,0,-0,-0,0.06,,102,0,6,51,98,0.511,0.0,124,4.85,12.6,0.0,1,0.0,0.0,0.0,0,0,1,1,0,,,,,,,,,,,,,,,,,,,,
2243,0,0,1,247,251,238,235,0,-0.06,-0.03,1.01,0,-0,-0,0.06,1,102,0,6,51,98,0.512,0.0,124,4.84,12.6,0.0,1,0.0,0.0,0.0,0,0,1,1,0,0,250,250,0,0.0,0.0,0.0,0.0,0,0,0.0,0,0.0,-1,0.0,0.0,0.0,0,0.0,0.0374
2263,0,,,247,251,238,235,,-0.06,-0.03,1.01,0,-0,-0,0.06,,102,0,6,51,98,0.514,0.0,124,4.84,12.6,0.0,1,0.0,0.0,0.0,0,0,1,1,0,,,,,,,,,,,,,,,,,,,,
2283,0,,,247,251,238,235,,-0.06,-0.03,1.01,0,-0,-0,0.06,,102,0,6,51,98,0.515,0.0,124,4.85,12.6,0.0,1,0.0,0.0,0.0,0,0,1,1,0,,,,,,,,,,,,,,,,,,,,
2303,0,,,247,251,238,234,,-0.06,-0.03,1.01,0,-0,-0,0.06,,102,0,6,51,98,0.517,0.0,124,4.85,12.6,0.0,1,0.0,0.0,0.0,0,0,1,1,0,,,,,,,,,,,,,,,,,,,,
2323,0,,,247,251,238,235,,-0.06,-0.03,1.01,0,-0,-0,0.06,,102,0,6,51,98,0.519,0.0,124,4.84,12.6,0.0,1,0.0,0.0,0.0,0,0,1,1,0,,,,,,,,,,,,,,,,,,,,
2343,0,1,1,247,251,238,235,1,-0.06,-0.03,1.01,0,-0,-0,0.06,1,102,0,6,51,98,0.52,0.0,124,4.85,12.6,0.0,1,0.0,0.0,0.0,0,0,1,1,0,0,250,250,0,0.0,0.0,0.0,0.0,0,0,0.0,0,0.0,-1,0.0,,0.0,0,0.0,0.0391
2363,0,,,247,251,238,235,,-0.06,-0.03,1.01,0,-0,-0,0.06,,102,0,6,51,98,0.526,0.0,124,4.85,12.6,0.0,1,0.0,0.0,0.0,0,0,1,1,0,,,,,,,,,,,,,,,,,,,,
2383,0,,,247,251,238,235,,-0.06,-0.03,1.01,0,-0,-0,0.06,,102,0,6,51,98,0.533,0.0,124,4.85,12.6,0.0,1,0.0,0.0,0.0,0,0,1,1,0,,,,,,,,,,,,,,,,,,,,
2403,0,,,247,251,238,235,,-0.06,-0.03,1.01,0,-0,-0,0.06,,102,0,6,51,98,0.538,0.0,124,4.85,12.6,0.0,1,0.0,0.0,0.0,0,0,1,1,0,,,,,,,,,,,,,,,,,,,,
2423,0,,,247,250,238,235,,-0.06,-0.03,1.01,0,-0,-0,0.06,,102,0,6,51,98,0.544,0.0,124,4.83,12.6,0.0,1,0.0,0.0,0.0,0,0,1,1,0,,,,,,,,,,,,,,,,,,,,
2443,0,-1,2,247,250,238,235,1,-0.06,-0.03,1.01,0,-0,-0,0.06,1,102,0,6,51,98,0.547,0.0,124,4.85,12.7,0.0,1,0.0,0.0,0.0,0,0,1,1,0,0,250,250,0,0.0,0.0,0.0,0.0,0,0,0.0,0,0.0,-1,0.0,0.0,0.0,0,0.0,0.0407
2463,0,,,247,251,238,235,,-0.06,-0.03,1.01,0,-0,-0,0.06,,102,0,6,51,98,0.55,0.0,124,4.86,12.7,0.0,1,0.0,0.0,0.0,0,0,1,1,0,,,,,,,,,,,,,,,,,,,,
2483,0,,,247,251,238,235,,-0.06,-0.03,1.01,0,-0,-0,0.06,,102,0,6,51,98,0.551,0.0,124,4.83,12.7,0.0,1,0.0,0.0,0.0,0,0,1,1,0,,,,,,,,,,,,,,,,,,,,
2503,0,,,247,251,238,235,,-0.06,-0.03,1.01,0,-0,-0,0.06,,102,0,6,51,98,0.555,0.0,124,4.85,12.7,0.0,1,0.0,0.0,0.0,0,0,1,1,0,,,,,,,,,,,,,,,,,,,,
2523,0,,,247,250,238,235,,-0.06,-0.03,1.01,0,-0,-0,0.06,,102,0,6,51,98,0.558,0.0,124,4.85,12.7,0.0,1,0.0,0.0,0.0,0,0,1,1,0,,,,,,,,,,,,,,,,,,,,
2543,0,-0,2,247,251,238,235,1,-0.06,-0.03,1.01,0,-0,-0,0.06,1,102,0,6,51,98,0.561,0.0,124,4.84,12.7,0.0,1,0.0,0.0,0.0,0,0,1,1,0,0,250,250,0,0.0,0.0,0.0,0.0,0,0,0.0,0,0.0,-1,0.0,,0.0,0,0.0,0.0424
2563,0,,,247,251,238,235,,-0.06,-0.03,1.01,0,-0,-0,0.06,,102,0,6,51,98,0.564,0.0,125,4.84,12.7,0.0,1,0.0,0.0,0.0,0,0,1,1,0,,,,,,,,,,,,,,,,,,,,
2583,0,,,247,251,238,234,,-0.06,-0.03,1.01,0,-0,-0,0.06,,102,0,6,51,98,0.567,0.0,125,4.84,12.7,0.0,1,0.0,0.0,0.0,0,0,1,1,0,,,,,,,,,,,,,,,,,,,,
2603,0,,,247,251,238,235,,-0.06,-0.03,1.01,0,-0,-0,0.06,,102,0,6,52,98,0.566,0.0,125,4.83,12.7,0.0,1,0.0,0.0,0.0,0,0,1,1,0,,,,,,,,,,,,,,,,,,,,
2623,0,,,247,251,238,235,,-0.06,-0.03,1.01,0,-0,-0,0.06,,102,0,6,52,98,0.565,0.0,125,4.85,12.7,0.0,1,0.0,0.0,0.0,0,0,1,1,0,,,,,,,,,,,,,,,,,,,,
2643,0,-1,2,247,251,238,234,1,-0.06,-0.03,1.01,0,-0,-0,0.06,1,102,0,6,52,98,0.563,0.0,125,4.84,12.7,0.0,1,0.0,0.0,0.0,0,0,1,1,0,0,250,250,0,0.0,0.0,0.0,0.0,0,0,0.0,0,0.0,-1,0.0,0.0,0.0,0,0.0,0.044
2663,0,,,247,251,238,235,,-0.06,-0.03,1.01,0,-0,-0,0.06,,102,0,6,52,98,0.56,0.0,125,4.85,12.7,0.0,1,0.0,0.0,0.0,0,0,1,1,0,,,,,,,,,,,,,,,,,,,,
2683,0,,,247,251,238,235,,-0.06,-0.03,1.01,0,-0,-0,0.06,,102,0,6,52,98,0.558,0.0,125,4.83,12.7,0.0,1,0.0,0.0,0.0,0,0,1,1,0,,,,,,,,,,,,,,,,,,,,
2703,0,,,247,251,238,235,,-0.06,-0.03,1.01,-0,-0,-0,0.06,,102,0,6,52,98,0.557,0.0,125,4.85,12.7,0.0,1,0.0,0.0,0.0,0,0,1,1,0,,,,,,,,,,,,,,,,,,,,
2723,0,,,247,251,238,235,,-0.06,-0.03,1.01,0,-0,-0,0.06,,102,0,6,52,98,0.557,0.0,125,4.84,12.7,0.0,1,0.0,0.0,0.0,0,0,1,1,0,,,,,,,,,,,,,,,,,,,,
2743,0,-1,3,247,250,238,235,1,-0.06,-0.03,1.01,0,-0,-0,0.06,1,102,0,6,52,98,0.556,0.0,125,4.84,12.7,0.0,1,0.0,0.0,0.0,0,0,1,1,0,0,250,250,0,0.0,0.0,0.0,0.0,0,0,0.0,0,0.0,-1,0.0,,0.0,0,0.0,0.0457
2763,0,,,247,251,238,235,,-0.06,-0.03,1.01,0,-0,-0,0.06,,102,0,6,52,98,0.556,0.0,125,4.84,12.7,0.0,1,0.0,0.0,0.0,0,0,1,1,0,,,,,,,,,,,,,,,,,,,,
2783,0,,,247,251,238,235,,-0.06,-0.03,1.0,0,-0,-0,0.06,,102,0,6,52,98,0.555,0.0,124,4.83,12.7,0.0,1,0.0,0.0,0.0,0,0,1,1,0,,,,,,,,,,,,,,,,,,,,
2803,0,,,247,251,238,235,,-0.06,-0.03,1.0,0,-0,-0,0.06,,102,0,6,52,98,0.556,0.0,124,4.85,12.7,0.0,1,0.0,0.0,0.0,0,0,1,1,0,,,,,,,,,,,,,,,,,,,,
2823,0,,,247,250,238,235,,-0.06,-0.03,1.0,0,-0,-0,0.06,,102,0,6,52,98,0.555,0.0,124,4.83,12.7,0.0,1,0.0,0.0,0.0,0,0,1,1,0,,,,,,,,,,,,,,,,,,,,
2843,0,0,2,247,251,238,234,1,-0.06,-0.03,1.0,0,-0,-0,0.06,1,102,0,6,52,98,0.555,0.0,124,4.85,12.7,0.0,1,0.0,0.0,0.0,0,0,1,1,0,0,250,250,0,0.0,0.0,0.0,0.0,0,0,0.0,0,0.0,-1,0.0,0.0,0.0,0,0.0,0.0474
2863,0,,,247,250,238,235,,-0.06,-0.03,1.0,0,-0,-0,0.06,,102,0,6,52,98,0.556,0.0,124,4.84,12.7,0.0,1,0.0,0.0,0.0,0,0,1,1,0,,,,,,,,,,,,,,,,,,,,
2883,0,,,247,251,238,235,,-0.06,-0.03,1.0,0,-0,-0,0.06,,102,0,6,52,98,0.557,0.0,124,4.86,12.7,0.0,1,0.0,0.0,0.0,0,0,1,1,0,,,,,,,,,,,,,,,,,,,,
2903,0,,,247,251,238,235,,-0.06,-0.03,1.0,0,-0,-0,0.06,,102,0,6,52,98,0.558,0.0,124,4.83,12.7,0.0,1,0.0,0.0,0.0,0,0,1,1,0,,,,,,,,,,,,,,,,,,,,
2923,0,,,247,250,238,235,,-0.06,-0.03,1.0,0,-0,-0,0.06,,102,0,6,52,98,0.56,0.0,124,4.83,12.7,0.0,1,0.0,0.0,0.0,0,0,1,1,0,,,,,,,,,,,,,,,,,,,,
2943,0,1,2,247,251,238,235,-0,-0.06,-0.03,1.01,0,-0,-0,0.06,1,102,0,6,52,98,0.562,0.0,124,4.85,12.7,0.0,1,0.0,0.0,0.0,0,0,1,1,0,0,250,250,0,0.0,0.0,0.0,0.0,0,0,0.0,0,0.0,-1,0.0,,0.0,0,0.0,0.049
2963,0,,,247,251,238,235,,-0.06,-0.03,1.01,0,-0,-0,0.06,,102,0,6,52,98,0.564,0.0,124,4.85,12.7,0.0,1,0.0,0.0,0.0,0,0,1,1,0,,,,,,,,,,,,,,,,,,,,
2983,0,,,247,251,238,235,,-0.06,-0.03,1.01,0,-0,-0,0.06,,102,0,6,52,98,0.566,0.0,124,4.82,12.7,0.0,1,0.0,0.0,0.0,0,0,1,1,0,,,,,,,,,,,,,,,,,,,,
3003,0,,,247,251,238,235,,-0.06,-0.03,1.0,0,-0,-0,0.06,,102,0,6,52,98,0.568,0.0,124,4.83,12.7,0.0,1,0.0,0.0,0.0,0,0,1,1,0,,,,,,,,,,,,,,,,,,,,
3023,0,,,247,251,238,235,,-0.06,-0.03,1.0,-0,-0,-0,0.06,,102,0,6,52,98,0.571,0.0,124,4.83,12.7,0.0,1,0.0,0.0,0.0,0,0,1,1,0,,,,,,,,,,,,,,,,,,,,
3043,0,4,4,247,251,238,235,1,-0.06,-0.03,1.01,0,-0,-0,0.06,1,102,0,6,52,98,0.575,0.0,124,4.84,12.7,0.0,1,0.0,0.0,0.0,0,0,1,1,0,0,250,250,0,0.0,0.0,0.0,0.0,0,0,0.0,0,0.0,-1,0.0,0.0,0.0,0,0.0,0.0507
3063,0,,,247,251,238,235,,-0.06,-0.03,1.01,0,-0,-0,0.06,,102,0,6,52,98,0.578,0.0,124,4.83,12.7,0.0,1,0.0,0.0,0.0,0,0,1,1,0,,,,,,,,,,,,,,,,,,,,
3083,0,,,247,250,238,235,,-0.06,-0.03,1.01,0,-0,-0,0.06,,102,0,6,52,98,0.581,0.0,124,4.85,12.6,0.0,1,0.0,0.0,0.0,0,0,1,1,0,,,,,,,,,,,,,,,,,,,,
3103,0,,,247,251,238,235,,-0.06,-0.03,1.0,0,-0,-0,0.07,,102,0,6,52,98,0.584,0.0,124,4.84,12.7,0.0,1,0.0,0.0,0.0,0,0,1,1,0,,,,,,,,,,,,,,,,,,,,
3123,0,,,247,251,238,235,,-0.06,-0.03,1.0,0,-0,-0,0.06,,102,0,6,52,98,0.586,0.0,124,4.85,12.7,0.0,1,0.0,0.0,0.0,0,0,1,1,0,,,,,,,,,,,,,,,,,,,,
3143,0,6,6,247,251,238,235,1,-0.06,-0.03,1.0,0,-0,-0,0.07,1,102,0,6,52,98,0.588,0.0,124,4.83,12.7,0.0,1,0.0,0.0,0.0,0,0,1,1,0,0,250,250,0,0.0,0.0,0.0,0.0,0,0,0.0,0,0.0,-1,0.0,,0.0,0,0.0,0.0524
3163,0,,,247,251,238,235,,-0.06,-0.03,1.0,0,-0,-0,0.07,,102,0,6,52,98,0.591,0.0,124,4.84,12.7,0.0,1,0.0,0.0,0.0,0,0,1,1,0,,,,,,,,,,,,,,,,,,,,
3183,0,,,247,251,238,234,,-0.06,-0.03,1.0,0,-0,-0,0.07,,102,0,6,52,98,0.594,0.0,124,4.84,12.7,0.0,1,0.0,0.0,0.0,0,0,1,1,0,,,,,,,,,,,,,,,,,,,,
3203,0,,,247,251,238,234,,-0.06,-0.03,1.0,0,-0,-0,0.06,,102,0,6,52,98,0.597,0.0,124,4.83,12.7,0.0,1,0.0,0.0,0.0,0,0,1,0,0,,,,,,,,,,,,,,,,,,,,
3223,0,,,247,251,238,235,,-0.06,-0.03,1.0,0,-0,-0,0.06,,102,0,6,52,98,0.599,0.0,124,4.79,12.8,0.0,1,0.0,0.0,0.0,0,0,1,0,0,,,,,,,,,,,,,,,,,,,,
3243,0,9,6,247,251,238,235,1,-0.06,-0.03,1.0,-0,-0,-0,0.06,1,102,0,6,52,98,0.602,0.0,124,4.32,12.8,0.0,1,0.0,0.0,0.0,0,0,1,0,0,0,250,250,0,0.0,0.0,0.0,0.0,0,0,0.0,0,0.0,-1,0.0,0.0,0.0,0,0.0,0.054
3263,0,,,247,251,238,234,,-0.06,-0.03,1.0,0,-0,-0,0.06,,102,0,6,52,98,0.605,0.0,124,3.65,12.8,0.0,1,0.0,0.0,0.0,0,0,1,0,0,,,,,,,,,,,,,,,,,,,,
3283,0,,,247,251,238,235,,-0.06,-0.03,1.0,0,-0,-0,0.06,,102,0,6,52,98,0.606,0.0,124,3.43,12.8,0.0,1,0.0,0.0,0.0,0,0,1,0,0,,,,,,,,,,,,,,,,,,,,
3303,0,,,247,251,238,235,,-0.06,-0.03,1.0,0,-0,-0,0.06,,102,0,6,52,98,0.608,0.0,124,3.26,12.8,0.0,1,0.0,0.0,0.0,0,0,1,0,0,,,,,,,,,,,,,,,,,,,,
3323,0,,,247,251,238,234,,-0.06,-0.03,1.0,0,-0,-0,0.06,,102,0,6,52,98,0.611,0.0,124,3.14,12.8,0.0,1,0.0,0.0,0.0,0,0,1,0,0,,,,,,,,,,,,,,,,,,,,
3343,0,8,6,247,250,238,235,1,-0.06,-0.03,1.0,0,-0,-0,0.06,1,102,0,6,52,98,0.614,0.0,124,3.02,12.8,0.0,1,0.0,0.0,0.0,0,0,1,0,0,0,250,250,0,0.0,0.0,0.0,0.0,0,0,0.0,0,0.0,-1,0.0,,0.0,0,0.0,0.0557
3363,0,,,247,251,238,235,,-0.06,-0.03,1.0,0,-0,-0,0.07,,102,0,6,52,98,0.616,0.0,124,2.92,12.8,0.0,1,0.0,0.0,0.0,0,0,1,0,0,,,,,,,,,,,,,,,,,,,,
3383,0,,,247,251,238,235,,-0.06,-0.03,1.0,0,-0,-0,0.07,,102,0,6,52,98,0.62,0.0,124,2.84,12.8,0.0,1,0.0,0.0,0.0,0,0,1,0,0,,,,,,,,,,,,,,,,,,,,
3403,0,,,247,251,238,235,,-0.06,-0.03,1.0,0,-0,-0,0.07,,102,0,6,52,98,0.622,0.0,124,2.76,12.8,0.0,1,0.0,0.0,0.0,0,0,1,0,0,,,,,,,,,,,,,,,,,,,,
3423,0,,,247,251,238,234,,-0.06,-0.03,1.01,0,-0,-0,0.06,,102,0,6,52,98,0.626,0.0,124,2.7,12.8,0.0,1,0.0,0.0,0.0,0,0,1,0,0,,,,,,,,,,,,,,,,,,,,
3443,0,8,4,247,251,238,235,0,-0.06,-0.03,1.01,0,-0,-0,0.06,1,102,0,6,52,98,0.627,0.0,124,2.63,12.8,0.0,1,0.0,0.0,0.0,0,0,1,0,0,0,250,250,0,0.0,0.0,0.0,0.0,0,0,0.0,0,0.0,-1,0.0,0.0,0.0,0,0.0,0.0574
3463,0,,,247,251,238,235,,-0.06,-0.03,1.01,0,-0,-0,0.06,,102,0,6,52,98,0.63,0.0,124,2.57,12.8,0.0,1,0.0,0.0,0.0,0,0,1,0,0,,,,,,,,,,,,,,,,,,,,
3483,0,,,247,251,238,235,,-0.06,-0.03,1.01,0,-0,-0,0.06,,102,0,6,52,98,0.633,0.0,124,2.52,12.8,0.0,1,0.0,0.0,0.0,0,0,1,0,0,,,,,,,,,,,,,,,,,,,,
3503,0,,,247,251,238,235,,-0.06,-0.03,1.01,0,-0,-0,0.06,,102,0,6,52,98,0.636,0.0,123,2.47,12.8,0.0,1,0.0,0.0,0.0,0,0,1,0,0,,,,,,,,,,,,,,,,,,,,
3523,0,,,247,251,238,235,,-0.06,-0.03,1.01,0,-0,-0,0.06,,102,0,6,52,98,0.638,0.0,124,2.43,12.8,0.0,1,0.0,0.0,0.0,0,0,1,0,0,,,,,,,,,,,,,,,,,,,,
3543,0,8,4,247,251,238,235,1,-0.06,-0.03,1.01,0,-0,-0,0.06,1,102,0,6,52,98,0.641,0.0,124,2.38,12.8,0.0,1,0.0,0.0,0.0,0,0,1,0,0,0,250,250,0,0.0,0.0,0.0,0.0,0,0,0.0,0,0.0,-1,0.0,,0.0,0,0.0,0.059
3563,0,,,247,250,238,235,,-0.06,-0.03,1.01,-0,-0,-0,0.06,,102,0,6,52,98,0.643,0.0,124,2.33,12.8,0.0,1,0.0,0.0,0.0,0,0,1,0,0,,,,,,,,,,,,,,,,,,,,
3583,0,,,247,251,238,235,,-0.06,-0.03,1.01,-0,-0,-0,0.06,,102,0,6,52,98,0.646,0.0,124,2.3,12.8,0.0,1,0.0,0.0,0.0,0,0,1,0,0,,,,,,,,,,,,,,,,,,,,
3603,0,,,247,251,238,235,,-0.06,-0.03,1.01,-0,-0,-0,0.07,,102,0,6,52,98,0.648,0.0,124,2.27,12.8,0.0,1,0.0,0.0,0.0,0,0,1,0,0,,,,,,,,,,,,,,,,,,,,
3623,0,,,247,251,238,234,,-0.06,-0.03,1.01,-0,-0,-0,0.07,,102,0,6,52,98,0.65,0.0,124,2.22,12.8,0.0,1,0.0,0.0,0.0,0,0,1,0,0,,,,,,,,,,,,,,,,,,,,
3643,0,8,5,247,251,238,235,1,-0.06,-0.03,1.01,-0,-0,-0,0.06,1,102,0,6,52,98,0.653,0.0,124,2.19,12.8,0.0,1,0.0,0.0,0.0,0,0,1,0,0,0,250,250,0,0.0,0.0,0.0,0.0,0,0,0.0,0,0.0,-1,0.0,0.0,0.0,0,0.0,0.0607
3663,0,,,247,251,238,235,,-0.06,-0.03,1.01,-0,-0,-0,0.06,,102,0,6,52,98,0.656,0.0,124,2.16,12.8,0.0,1,0.0,0.0,0.0,0,0,1,0,0,,,,,,,,,,,,,,,,,,,,
3683,0,,,247,251,238,235,,-0.06,-0.03,1.01,-0,-0,-0,0.07,,102,0,6,52,98,0.657,0.0,124,2.13,12.8,0.0,1,0.0,0.0,0.0,0,0,1,0,0,,,,,,,,,,,,,,,,,,,,
3703,0,,,247,251,238,235,,-0.06,-0.03,1.01,-0,-0,-0,0.06,,102,0,6,52,98,0.659,0.0,124,2.11,12.8,0.0,1,0.0,0.0,0.0,0,0,1,0,0,,,,,,,,,,,,,,,,,,,,
3723,0,,,247,251,238,235,,-0.06,-0.03,1.01,-0,-0,-0,0.06,,102,0,6,52,98,0.661,0.0,125,2.08,12.8,0.0,1,0.0,0.0,0.0,0,0,1,0,0,,,,,,,,,,,,,,,,,,,,
3743,0,8,4,247,251,238,235,1,-0.06,-0.03,1.01,-0,-0,-0,0.07,1,102,0,6,52,98,0.662,0.0,124,2.06,12.8,0.0,1,0.0,0.0,0.0,0,0,1,0,0,0,250,250,0,0.0,0.0,0.0,0.0,0,0,0.0,0,0.0,-1,0.0,,0.0,0,0.0,0.0624
3763,0,,,247,251,238,235,,-0.06,-0.03,1.01,-0,-0,-0,0.07,,102,0,6,52,98,0.663,0.0,124,2.05,12.8,0.0,1,0.0,0.0,0.0,0,0,1,0,0,,,,,,,,,,,,,,,,,,,,
3783,0,,,247,251,238,235,,-0.06,-0.03,1.01,-0,-0,-0,0.07,,102,0,6,52,98,0.664,0.0,124,2.02,12.8,0.0,1,0.0,0.0,0.0,0,0,1,0,0,,,,,,,,,,,,,,,,,,,,
3803,0,,,247,251,238,235,,-0.06,-0.03,1.01,-0,-0,-0,0.07,,102,0,6,52,98,0.665,0.0,124,2.0,12.8,0.0,1,0.0,0.0,0.0,0,0,1,0,0,,,,,,,,,,,,,,,,,,,,
3823,0,,,247,251,238,234,,-0.06,-0.03,1.01,-0,-0,-0,0.07,,102,0,6,52,98,0.666,0.0,124,1.98,12.8,0.0,1,0.0,0.0,0.0,0,0,1,0,0,,,,,,,,,,,,,,,,,,,,
3843,0,7,4,247,251,238,235,1,-0.06,-0.03,1.01,-0,-0,-0,0.06,1,102,0,6,52,98,0.665,0.0,125,1.97,12.8,0.0,1,0.0,0.0,0.0,0,0,1,0,0,0,250,250,0,0.0,0.0,0.0,0.0,0,0,0.0,0,0.0,-1,0.0,0.0,0.0,0,0.0,0.064
3863,0,,,247,251,238,235,,-0.06,-0.03,1.01,-0,-0,-0,0.07,,102,0,6,52,98,0.665,0.0,125,1.94,12.8,0.0,1,0.0,0.0,0.0,0,0,1,0,0,,,,,,,,,,,,,,,,,,,,
3883,0,,,247,251,238,235,,-0.06,-0.03,1.01,-0,-0,-0,0.07,,102,0,6,52,98,0.665,0.0,124,1.94,12.8,0.0,1,0.0,0.0,0.0,0,0,1,0,0,,,,,,,,,,,,,,,,,,,,
3903,0,,,247,251,238,234,,-0.06,-0.03,1.01,-0,-0,-0,0.07,,102,0,6,52,98,0.665,0.0,124,1.92,12.8,0.0,1,0.0,0.0,0.0,0,0,1,0,0,,,,,,,,,,,,,,,,,,,,
3923,0,,,247,251,238,235,,-0.06,-0.03,1.01,-0,-0,-0,0.07,,102,0,6,52,98,0.665,0.0,124,1.89,12.8,0.0,1,0.0,0.0,0.0,0,0,1,0,0,,,,,,,,,,,,,,,,,,,,
3943,0,6,5,247,251,238,235,1,-0.06,-0.03,1.01,-0,-0,-0,0.07,1,102,0,6,52,98,0.665,0.0,124,1.89,12.8,0.0,1,0.0,0.0,0.0,0,0,1,0,0,0,250,250,0,0.0,0.0,0.0,0.0,0,0,0.0,0,0.0,-1,0.0,,0.0,0,0.0,0.0657
3963,0,,,247,251,238,235,,-0.06,-0.03,1.01,-0,-0,-0,0.06,,102,0,6,52,98,0.665,0.0,124,1.87,12.8,0.0,1,0.0,0.0,0.0,0,0,1,0,0,,,,,,,,,,,,,,,,,,,,
3983,0,,,247,251,238,234,,-0.06,-0.03,1.01,0,-0,-0,0.07,,102,0,6,52,98,0.665,0.0,124,1.85,12.8,0.0,1,0.0,0.0,0.0,0,0,1,0,0,,,,,,,,,,,,,,,,,,,,
4003,0,,,247,251,238,235,,-0.06,-0.03,1.01,0,-0,-0,0.07,,102,0,6,52,98,0.665,0.0,124,1.83,12.8,0.0,1,0.0,0.0,0.0,0,0,1,0,0,,,,,,,,,,,,,,,,,,,,
4023,0,,,247,251,238,234,,-0.06,-0.03,1.01,0,-0,-0,0.07,,102,0,6,52,98,0.665,0.0,124,1.83,12.8,0.0,1,0.0,0.0,0.0,0,0,1,0,0,,,,,,,,,,,,,,,,,,,,
4043,0,7,5,247,251,238,235,0,-0.06,-0.03,1.01,0,-0,-0,0.07,1,102,0,6,52,98,0.666,0.0,124,1.8,12.8,0.0,1,0.0,0.0,0.0,0,0,1,0,0,0,250,250,0,0.0,0.0,0.0,0.0,0,0,0.0,0,0.0,-1,0.0,0.0,0.0,0,0.0,0.0674
4063,0,,,247,251,238,235,,-0.06,-0.03,1.01,0,-0,-0,0.07,,102,0,6,52,98,0.666,0.0,124,1.8,12.8,0.0,1,0.0,0.0,0.0,0,0,1,0,0,,,,,,,,,,,,,,,,,,,,
4083,0,,,247,251,238,235,,-0.06,-0.03,1.01,0,-0,-0,0.07,,102,0,6,52,98,0.666,0.0,124,1.78,12.8,0.0,1,0.0,0.0,0.0,0,0,1,0,0,,,,,,,,,,,,,,,,,,,,
4103,0,,,247,251,238,235,,-0.06,-0.03,1.01,0,-0,-0,0.07,,102,0,6,52,98,0.667,0.0,124,1.77,12.8,0.0,1,0.0,0.0,0.0,0,0,1,0,0,,,,,,,,,,,,,,,,,,,,
4123,0,,,247,251,238,235,,-0.06,-0.03,1.01,0,-0,-0,0.07,,102,0,6,52,98,0.667,0.0,124,1.75,12.8,0.0,1,0.0,0.0,0.0,0,0,1,0,0,,,,,,,,,,,,,,,,,,,,
4143,0,7,4,247,251,238,235,1,-0.06,-0.03,1.01,0,-0,-0,0.07,1,102,0,6,52,98,0.667,0.0,124,1.75,12.8,0.0,1,0.0,0.0,0.0,0,0,1,0,0,0,250,250,0,0.0,0.0,0.0,0.0,0,0,0.0,0,0.0,-1,0.0,,0.0,0,0.0,0.069
4163,0,,,247,250,238,235,,-0.06,-0.03,1.01,0,-0,-0,0.07,,102,0,6,52,98,0.667,0.0,124,1.74,12.8,0.0,1,0.0,0.0,0.0,0,0,1,0,0,,,,,,,,,,,,,,,,,,,,
4183,0,,,247,250,238,235,,-0.06,-0.03,1.01,0,-0,-0,0.07,,102,0,6,52,98,0.667,0.0,124,1.73,12.8,0.0,1,0.0,0.0,0.0,0,0,1,0,0,,,,,,,,,,,,,,,,,,,,
4203,0,,,247,251,238,235,,-0.06,-0.03,1.01,0,-0,-0,0.07,,102,0,6,52,98,0.667,0.0,124,1.72,12.8,0.0,1,0.0,0.0,0.0,0,0,1,0,0,,,,,,,,,,,,,,,,,,,,
4223,0,,,247,251,238,235,,-0.06,-0.03,1.01,0,-0,-0,0.07,,102,0,6,52,98,0.667,0.0,125,1.71,12.8,0.0,1,0.0,0.0,0.0,0,0,1,0,0,,,,,,,,,,,,,,,,,,,,
4243,0,7,3,247,251,238,234,1,-0.06,-0.03,1.01,0,-0,-0,0.07,1,102,0,6,52,98,0.667,0.0,124,1.7,12.8,0.0,1,0.0,0.0,0.0,0,0,1,0,0,0,250,250,0,0.0,0.0,0.0,0.0,0,0,0.0,0,0.0,-1,0.0,0.0,0.0,0,0.0,0.0707
4263,0,,,247,251,238,235,,-0.06,-0.03,1.01,0,-0,-0,0.07,,102,0,6,52,98,0.666,0.0,124,1.69,12.8,0.0,1,0.0,0.0,0.0,0,0,1,0,0,,,,,,,,,,,,,,,,,,,,
4283,0,,,247,250,238,235,,-0.06,-0.03,1.01,-0,-0,-0,0.07,,102,0,6,52,98,0.666,0.0,124,1.67,12.8,0.0,1,0.0,0.0,0.0,0,0,1,0,0,,,,,,,,,,,,,,,,,,,,
4303,0,,,247,251,238,235,,-0.06,-0.03,1.01,-0,-0,-0,0.07,,102,0,6,52,98,0.666,0.0,124,1.67,12.8,0.0,1,0.0,0.0,0.0,0,0,1,0,0,,,,,,,,,,,,,,,,,,,,
4323,0,,,247,251,238,235,,-0.06,-0.03,1.01,-0,-0,-0,0.07,,102,0,6,52,98,0.666,0.0,124,1.66,12.8,0.0,1,0.0,0.0,0.0,0,0,1,0,0,,,,,,,,,,,,,,,,,,,,
4343,0,7,3,247,251,238,235,1,-0.06,-0.03,1.01,-0,-0,-0,0.07,1,102,0,6,52,98,0.666,0.0,124,1.66,12.8,0.0,1,0.0,0.0,0.0,0,0,1,0,0,0,250,250,0,0.0,0.0,0.0,0.0,0,0,0.0,0,0.0,-1,0.0,,0.0,0,0.0,0.0724
4363,0,,,247,251,238,235,,-0.06,-0.03,1.01,-0,-0,-0,0.07,,102,0,6,52,98,0.666,0.0,124,1.64,12.8,0.0,1,0.0,0.0,0.0,0,0,1,0,0,,,,,,,,,,,,,,,,,,,,
4383,0,,,247,250,238,234,,-0.06,-0.03,1.01,-0,-0,-0,0.07,,102,0,6,52,98,0.666,0.0,124,1.64,12.8,0.0,1,0.0,0.0,0.0,0,0,1,0,0,,,,,,,,,,,,,,,,,,,,
4403,0,,,247,251,238,235,,-0.06,-0.03,1.01,-0,-0,-0,0.07,,102,0,6,52,98,0.667,0.0,124,1.64,12.8,0.0,1,0.0,0.0,0.0,0,0,1,0,0,,,,,,,,,,,,,,,,,,,,
4423,0,,,247,251,238,235,,-0.06,-0.03,1.01,-0,-0,-0,0.07,,102,0,6,52,98,0.668,0.0,124,1.61,12.8,0.0,1,0.0,0.0,0.0,0,0,1,0,0,,,,,,,,,,,,,,,,,,,,
4443,0,7,4,247,251,238,235,0,-0.06,-0.03,1.01,-0,-0,-0,0.07,1,102,0,6,52,98,0.669,0.0,124,1.61,12.8,0.0,1,0.0,0.0,0.0,0,0,1,0,0,0,250,250,0,0.0,0.0,0.0,0.0,0,0,0.0,0,0.0,-1,0.0,0.0,0.0,0,0.0,0.074
4463,0,,,247,251,238,234,,-0.06,-0.03,1.01,-0,-0,-0,0.07,,102,0,6,52,98,0.669,0.0,124,1.61,12.8,0.0,1,0.0,0.0,0.0,0,0,1,0,0,,,,,,,,,,,,,,,,,,,,
4483,0,,,247,251,238,235,,-0.06,-0.03,1.01,0,-0,-0,0.07,,102,0,6,52,98,0.67,0.0,124,1.61,12.8,0.0,1,0.0,0.0,0.0,0,0,1,0,0,,,,,,,,,,,,,,,,,,,,
4503,0,,,247,251,238,235,,-0.06,-0.03,1.01,0,-0,-0,0.07,,102,0,6,52,98,0.67,0.0,124,1.6,12.8,0.0,1,0.0,0.0,0.0,0,0,1,0,0,,,,,,,,,,,,,,,,,,,,
4523,0,,,247,251,238,235,,-0.06,-0.03,1.01,0,-0,-0,0.07,,102,0,6,52,98,0.671,0.0,124,1.58,12.8,0.0,1,0.0,0.0,0.0,0,0,1,0,0,,,,,,,,,,,,,,,,,,,,
4543,0,5,5,247,251,238,234,1,-0.06,-0.03,1.01,0,-0,-0,0.06,1,102,0,6,52,98,0.671,0.0,124,1.58,12.8,0.0,1,0.0,0.0,0.0,0,0,1,0,0,0,250,250,0,0.0,0.0,0.0,0.0,0,0,0.0,0,0.0,-1,0.0,,0.0,0,0.0,0.0757
4563,0,,,247,251,238,235,,-0.06,-0.03,1.01,0,-0,-0,0.06,,102,0,6,52,98,0.671,0.0,124,1.56,12.8,0.0,1,0.0,0.0,0.0,0,0,1,0,0,,,,,,,,,,,,,,,,,,,,
4583,0,,,247,251,238,235,,-0.06,-0.03,1.01,0,-0,-0,0.06,,102,0,6,52,98,0.672,0.0,124,1.56,12.8,0.0,1,0.0,0.0,0.0,0,0,1,0,0,,,,,,,,,,,,,,,,,,,,
4603,0,,,247,251,238,235,,-0.06,-0.03,1.01,0,-0,-0,0.07,,102,0,6,52,98,0.672,0.0,124,1.56,12.8,0.0,1,0.0,0.0,0.0,0,0,1,0,0,,,,,,,,,,,,,,,,,,,,
4623,0,,,247,251,238,235,,-0.06,-0.03,1.01,0,-0,-0,0.07,,102,0,6,52,98,0.673,0.0,124,1.56,12.8,0.0,1,0.0,0.0,0.0,0,0,1,0,0,,,,,,,,,,,,,,,,,,,,
4643,0,7,3,247,251,238,234,2,-0.06,-0.03,1.01,0,-0,-0,0.07,1,102,0,6,52,98,0.673,0.0,124,1.55,12.8,0.0,1,0.0,0.0,0.0,0,0,1,0,0,0,250,250,0,0.0,0.0,0.0,0.0,0,0,0.0,0,0.0,-1,0.0,0.0,0.0,0,0.0,0.0774
4663,0,,,247,251,238,235,,-0.06,-0.03,1.01,0,-0,-0,0.07,,102,0,6,52,98,0.673,0.0,125,1.55,12.8,0.0,1,0.0,0.0,0.0,0,0,1,0,0,,,,,,,,,,,,,,,,,,,,
4683,0,,,247,251,238,235,,-0.06,-0.03,1.01,0,-0,-0,0.07,,102,0,6,52,98,0.673,0.0,125,1.55,12.8,0.0,1,0.0,0.0,0.0,0,0,1,0,0,,,,,,,,,,,,,,,,,,,,
4703,0,,,247,251,238,235,,-0.06,-0.03,1.01,0,-0,-0,0.07,,102,0,6,52,98,0.673,0.0,125,1.53,12.8,0.0,1,0.0,0.0,0.0,0,0,1,0,0,,,,,,,,,,,,,,,,,,,,
4723,0,,,247,251,238,234,,-0.06,-0.03,1.01,0,-0,-0,0.06,,102,0,6,52,98,0.673,0.0,125,1.52,12.8,0.0,1,0.0,0.0,0.0,0,0,1,0,0,,,,,,,,,,,,,,,,,,,,
4743,0,6,5,247,251,238,235,1,-0.06,-0.03,1.01,0,-0,-0,0.06,1,102,0,6,52,98,0.673,0.0,124,1.52,12.8,0.0,1,0.0,0.0,0.0,0,0,1,0,0,0,250,250,0,0.0,0.0,0.0,0.0,0,0,0.0,0,0.0,-1,0.0,,0.0,0,0.0,0.079
4763,0,,,247,251,238,235,,-0.06,-0.03,1.01,0,-0,-0,0.06,,102,0,6,52,98,0.673,0.0,124,1.52,12.8,0.0,1,0.0,0.0,0.0,0,0,1,0,0,,,,,,,,,,,,,,,,,,,,
4783,0,,,247,251,238,235,,-0.06,-0.03,1.01,0,-0,-0,0.06,,102,0,6,52,98,0.674,0.0,124,1.51,12.8,0.0,1,0.0,0.0,0.0,0,0,1,0,0,,,,,,,,,,,,,,,,,,,,
4803,0,,,247,251,238,235,,-0.06,-0.03,1.01,-0,-0,-0,0.07,,102,0,6,52,98,0.674,0.0,124,1.51,12.8,0.0,1,0.0,0.0,0.0,0,0,1,0,0,,,,,,,,,,,,,,,,,,,,
4823,0,,,247,251,238,234,,-0.06,-0.03,1.01,-0,-0,-0,0.07,,102,0,6,52,98,0.674,0.0,124,1.51,12.8,0.0,1,0.0,0.0,0.0,0,0,1,0,0,,,,,,,,,,,,,,,,,,,,
4843,0,5,5,247,251,238,235,1,-0.06,-0.03,1.01,-0,-0,-0,0.07,1,102,0,6,52,98,0.675,0.0,123,1.51,12.8,0.0,1,0.0,0.0,0.0,0,0,1,0,0,0,250,250,0,0.0,0.0,0.0,0.0,0,0,0.0,0,0.0,-1,0.0,0.0,0.0,0,0.0,0.0807
4863,0,,,247,251,238,235,,-0.06,-0.03,1.01,-0,-0,-0,0.07,,102,0,6,52,98,0.675,0.0,124,1.51,12.8,0.0,1,0.0,0.0,0.0,0,0,1,0,0,,,,,,,,,,,,,,,,,,,,
4883,0,,,247,250,238,235,,-0.06,-0.03,1.01,0,-0,-0,0.07,,102,0,6,52,98,0.675,0.0,123,1.51,12.8,0.0,1,0.0,0.0,0.0,0,0,1,0,0,,,,,,,,,,,,,,,,,,,,
4903,0,,,247,251,238,235,,-0.06,-0.03,1.01,-0,-0,-0,0.07,,102,0,6,52,98,0.675,0.0,124,1.48,12.8,0.0,1,0.0,0.0,0.0,0,0,1,0,0,,,,,,,,,,,,,,,,,,,,
4923,0,,,247,251,238,235,,-0.06,-0.03,1.01,0,-0,-0,0.07,,102,0,6,52,98,0.675,0.0,124,1.48,12.8,0.0,1,0.0,0.0,0.0,0,0,1,0,0,,,,,,,,,,,,,,,,,,,,
4943,0,7,3,247,251,238,235,1,-0.06,-0.03,1.01,0,-0,-0,0.06,1,102,0,6,52,98,0.675,0.0,124,1.48,12.8,0.0,1,0.0,0.0,0.0,0,0,1,0,0,0,250,250,0,0.0,0.0,0.0,0.0,0,0,0.0,0,0.0,-1,0.0,,0.0,0,0.0,0.0824
4963,0,,,247,251,238,235,,-0.06,-0.03,1.01,0,-0,-0,0.07,,102,0,6,52,98,0.676,0.0,124,1.48,12.8,0.0,1,0.0,0.0,0.0,0,0,1,0,0,,,,,,,,,,,,,,,,,,,,
4983,0,,,247,251,238,235,,-0.06,-0.03,1.01,0,-0,-0,0.07,,102,0,6,52,98,0.676,0.0,124,1.47,12.8,0.0,1,0.0,0.0,0.0,0,0,1,0,0,,,,,,,,,,,,,,,,,,,,
5003,0,,,247,251,238,235,,-0.06,-0.03,1.01,0,-0,-0,0.07,,102,0,6,52,98,0.676,0.0,124,1.47,12.8,0.0,1,0.0,0.0,0.0,0,0,1,0,0,,,,,,,,,,,,,,,,,,,,
5023,0,,,247,251,238,235,,-0.06,-0.03,1.01,0,-0,-0,0.07,,102,0,6,52,98,0.676,0.0,124,1.45,12.8,0.0,1,0.0,0.0,0.0,0,0,1,0,0,,,,,,,,,,,,,,,,,,,,
5043,0,6,4,247,251,238,235,1,-0.06,-0.03,1.01,0,-0,-0,0.07,1,102,0,6,52,98,0.675,0.0,125,1.45,12.8,0.0,1,0.0,0.0,0.0,0,0,1,0,0,0,250,250,0,0.0,0.0,0.0,0.0,0,0,0.0,0,0.0,-1,0.0,0.0,0.0,0,0.0,0.084
5063,0,,,247,251,238,235,,-0.06,-0.03,1.01,0,-0,-0,0.07,,102,0,6,52,98,0.675,0.0,124,1.45,12.8,0.0,1,0.0,0.0,0.0,0,0,1,0,0,,,,,,,,,,,,,,,,,,,,
5083,0,,,247,251,238,235,,-0.06,-0.03,1.01,0,-0,-0,0.07,,102,0,10,52,98,0.675,0.0,124,1.45,12.8,0.0,1,0.0,0.0,0.0,0,0,1,0,0,,,,,,,,,,,,,,,,,,,,
5103,0,,,247,251,238,234,,-0.06,-0.03,1.01,0,-0,-0,0.07,,102,0,14,52,98,0.674,0.0,124,1.45,12.8,0.0,1,0.0,0.0,0.0,0,0,1,0,0,,,,,,,,,,,,,,,,,,,,
5123,0,,,247,251,238,235,,-0.06,-0.03,1.01,0,-0,-0,0.07,,102,0,15,52,98,0.674,0.0,124,1.44,12.8,0.0,1,0.0,0.0,0.0,0,0,1,0,0,,,,,,,,,,,,,,,,,,,,
5143,0,7,4,247,251,238,235,1,-0.06,-0.03,1.01,0,-0,-0,0.07,1,102,0,15,52,98,0.674,0.0,124,1.44,12.8,0.0,1,0.0,0.0,0.0,0,0,1,0,0,0,250,250,0,0.0,0.0,0.0,0.0,0,0,0.0,0,0.0,-1,0.0,,0.0,0,0.0,0.0857
5163,0,,,247,251,238,234,,-0.06,-0.03,1.01,0,-0,-0,0.07,,102,0,15,52,98,0.674,0.0,125,1.42,12.8,0.0,1,0.0,0.0,0.0,0,0,1,0,0,,,,,,,,,,,,,,,,,,,,
5183,0,,,247,251,238,235,,-0.06,-0.03,1.01,0,-0,-0,0.06,,102,0,15,52,98,0.674,0.0,124,1.42,12.8,0.0,1,0.0,0.0,0.0,0,0,1,0,0,,,,,,,,,,,,,,,,,,,,
5203,0,,,247,251,238,235,,-0.06,-0.03,1.01,0,-0,-0,0.06,,102,0,15,52,98,0.674,0.0,124,1.42,12.8,0.0,1,0.0,0.0,0.0,0,0,1,0,0,,,,,,,,,,,,,,,,,,,,
5223,0,,,247,251,238,234,,-0.06,-0.03,1.01,0,-0,-0,0.07,,102,0,14,52,98,0.673,0.0,124,1.42,12.8,0.0,1,0.0,0.0,0.0,0,0,1,0,0,,,,,,,,,,,,,,,,,,,,
5243,0,7,4,247,251,238,235,1,-0.06,-0.03,1.01,0,-0,-0,0.07,1,102,0,13,52,98,0.673,0.0,124,1.42,12.8,0.0,1,0.0,0.0,0.0,0,0,1,0,0,0,250,250,0,0.0,0.0,0.0,0.0,0,0,0.0,0,0.0,-1,0.0,0.0,0.0,0,0.0,0.0874
5263,0,,,247,251,238,234,,-0.06,-0.03,1.01,0,-0,-0,0.07,,102,0,11,52,98,0.674,0.0,124,1.41,12.8,0.0,1,0.0,0.0,0.0,0,0,1,0,0,,,,,,,,,,,,,,,,,,,,
5283,0,,,247,251,238,235,,-0.06,-0.03,1.01,0,-0,-0,0.07,,102,0,6,52,98,0.673,0.0,124,1.4,12.8,0.0,1,0.0,0.0,0.0,0,0,1,0,0,,,,,,,,,,,,,,,,,,,,
5303,0,,,247,251,238,235,,-0.06,-0.03,1.01,0,-0,-0,0.07,,102,0,6,52,98,0.674,0.0,124,1.4,12.8,0.0,1,0.0,0.0,0.0,0,0,1,0,0,,,,,,,,,,,,,,,,,,,,
5323,0,,,247,251,238,234,,-0.06,-0.03,1.01,0,-0,-0,0.07,,102,0,6,52,98,0.671,0.0,124,1.39,9.4,0.0,1,0.0,0.0,0.0,0,0,1,0,0,,,,,,,,,,,,,,,,,,,,
5343,0,6,4,247,250,238,235,0,-0.06,-0.03,1.0,0,-0,-0,0.07,1,102,0,6,52,98,0.668,0.0,124,1.39,10.2,0.0,1,0.0,0.0,0.0,0,0,1,0,0,0,250,250,0,0.0,0.0,0.0,0.0,0,0,0.0,0,0.0,-1,0.0,,0.0,0,0.0,0.089
5363,0,,,247,250,238,235,,-0.06,-0.04,1.01,0,-0,-0,0.07,,102,0,6,52,98,0.665,0.0,126,1.38,10.7,0.0,1,0.0,0.0,0.0,0,0,1,0,0,,,,,,,,,,,,,,,,,,,,
5383,0,,,247,250,238,235,,-0.06,-0.03,1.01,0,-0,-0,0.07,,102,0,6,52,98,0.664,0.0,126,1.38,11.0,0.0,1,0.0,0.0,0.0,0,0,1,0,0,,,,,,,,,,,,,,,,,,,,
5403,0,,,247,251,238,235,,-0.06,-0.03,1.01,0,-0,-0,0.07,,102,0,6,52,98,0.664,0.0,126,1.38,11.0,0.0,1,0.0,0.0,0.0,0,0,1,0,0,,,,,,,,,,,,,,,,,,,,
5423,0,,,247,251,238,235,,-0.06,-0.03,1.02,0,-0,-0,0.07,,102,0,6,52,98,0.663,0.0,126,1.37,11.1,0.0,1,0.0,0.0,0.0,0,0,1,0,0,,,,,,,,,,,,,,,,,,,,
5443,0,5,5,247,251,238,235,1,-0.06,-0.04,1.02,0,-0,-0,0.07,1,102,0,6,52,98,0.664,0.0,126,1.37,11.0,0.0,1,0.0,0.0,0.0,0,0,1,0,0,0,250,250,0,0.0,0.0,0.0,0.0,0,0,0.0,0,0.0,-1,0.0,0.0,0.0,0,0.0,0.0907
5463,0,,,247,251,238,235,,-0.06,-0.04,1.01,0,-0,-0,0.07,,102,0,6,52,98,0.663,0.0,126,1.37,11.0,0.0,1,0.0,0.0,0.0,0,0,1,0,0,,,,,,,,,,,,,,,,,,,,
5483,0,,,247,251,238,235,,-0.06,-0.04,1.01,0,-0,-0,0.07,,102,0,6,52,98,0.664,0.0,126,1.36,11.3,0.0,1,0.0,0.0,0.0,0,0,1,0,0,,,,,,,,,,,,,,,,,,,,
5503,0,,,247,250,238,235,,-0.06,-0.04,1.01,0,-0,-0,0.07,,102,0,6,52,98,0.665,0.0,126,1.34,11.5,0.0,1,0.0,0.0,0.0,0,0,1,0,0,,,,,,,,,,,,,,,,,,,,
5523,0,,,247,251,238,234,,-0.06,-0.04,1.02,0,-0,-0,0.07,,102,0,6,52,98,0.666,0.0,126,1.34,11.5,0.0,1,0.0,0.0,0.0,0,0,1,0,0,,,,,,,,,,,,,,,,,,,,
5543,0,6,4,247,250,238,235,1,-0.06,-0.04,1.03,-0,-0,-0,0.07,1,102,0,6,52,98,0.667,0.0,126,1.33,11.3,0.0,1,0.0,0.0,0.0,0,0,1,0,0,0,250,250,0,0.0,0.0,0.0,0.0,0,0,0.0,0,0.0,-1,0.0,,0.0,0,0.0,0.0924
5563,0,,,247,251,238,235,,-0.06,-0.04,1.02,-0,-0,-0,0.07,,102,0,6,52,98,0.667,0.0,126,1.31,11.5,0.0,1,0.0,0.0,0.0,0,0,1,0,0,,,,,,,,,,,,,,,,,,,,
5583,0,,,247,251,238,235,,-0.06,-0.04,1.02,0,-0,-0,0.07,,102,0,6,52,98,0.672,0.0,126,1.31,11.7,0.0,1,0.0,0.0,0.0,0,0,1,0,0,,,,,,,,,,,,,,,,,,,,
5603,0,,,247,251,238,235,,-0.06,-0.04,1.02,0,-0,-0,0.07,,102,0,6,52,98,0.675,0.0,126,1.29,11.6,0.0,1,0.0,0.0,0.0,0,0,1,0,0,,,,,,,,,,,,,,,,,,,,
5623,0,,,247,251,238,235,,-0.06,-0.04,1.03,0,-0,-0,0.07,,102,0,6,52,98,0.678,0.0,126,1.28,11.4,0.0,1,0.0,0.0,0.0,0,0,1,0,0,,,,,,,,,,,,,,,,,,,,
5643,0,6,5,247,251,238,235,1,-0.06,-0.04,1.02,0,-0,-0,0.07,1,102,0,6,52,98,0.68,0.0,126,1.28,11.6,0.0,1,0.0,0.0,0.0,0,0,1,0,0,0,250,250,0,0.0,0.0,0.0,0.0,0,0,0.0,0,0.0,-1,0.0,0.0,0.0,0,0.0,0.094
5663,0,,,247,251,238,235,,-0.06,-0.04,1.01,0,-0,-0,0.07,,102,0,6,52,98,0.68,0.0,126,1.27,11.7,0.0,1,0.0,0.0,0.0,0,0,1,0,0,,,,,,,,,,,,,,,,,,,,
5683,0,,,247,251,238,234,,-0.06,-0.03,1.02,0,-0,-0,0.07,,102,0,6,52,98,0.682,0.0,126,1.26,11.6,0.0,1,0.0,0.0,0.0,0,0,1,0,0,,,,,,,,,,,,,,,,,,,,
5703,0,,,247,251,238,235,,-0.06,-0.03,1.02,0,-0,-0,0.07,,102,0,6,52,98,0.681,0.0,126,1.26,11.5,0.0,1,0.0,0.0,0.0,0,0,1,0,0,,,,,,,,,,,,,,,,,,,,
5723,0,,,247,251,238,235,,-0.06,-0.04,1.01,-0,-0,-0,0.07,,102,0,6,52,98,0.683,0.0,126,1.23,11.7,0.0,1,0.0,0.0,0.0,0,0,1,0,0,,,,,,,,,,,,,,,,,,,,
5743,0,6,3,247,251,238,235,1,-0.06,-0.03,1.02,-0,-0,-0,0.07,1,102,0,6,52,98,0.682,0.0,126,1.23,11.7,0.0,1,0.0,0.0,0.0,0,0,1,0,0,0,250,250,0,0.0,0.0,0.0,0.0,0,0,0.0,0,0.0,-1,0.0,,0.0,0,0.0,0.0957
5763,0,,,247,251,238,235,,-0.06,-0.03,1.03,-0,-0,-0,0.07,,102,0,6,52,98,0.682,0.0,127,1.23,11.5,0.0,1,0.0,0.0,0.0,0,0,1,0,0,,,,,,,,,,,,,,,,,,,,
5783,0,,,247,251,238,234,,-0.06,-0.03,1.01,0,-0,-0,0.07,,102,0,6,52,98,0.682,0.0,127,1.21,11.5,0.0,1,0.0,0.0,0.0,0,0,1,0,0,,,,,,,,,,,,,,,,,,,,
5803,0,,,247,250,238,235,,-0.06,-0.03,1.03,-0,-0,-0,0.06,,102,0,6,52,98,0.683,0.0,128,1.21,11.7,0.0,1,0.0,0.0,0.0,0,0,1,0,0,,,,,,,,,,,,,,,,,,,,
5823,0,,,247,251,238,235,,-0.06,-0.03,1.03,0,-0,-0,0.07,,102,0,6,52,98,0.684,0.0,129,1.21,11.7,0.0,1,0.0,0.0,0.0,0,0,1,0,0,,,,,,,,,,,,,,,,,,,,
5843,0,4,4,247,251,238,235,1,-0.06,-0.03,1.04,0,-0,-0,0.07,1,102,0,6,52,98,0.684,0.0,128,1.18,11.5,0.0,1,0.0,0.0,0.0,0,0,1,0,0,0,250,250,0,0.0,0.0,0.0,0.0,0,0,0.0,0,0.0,-1,0.0,0.0,0.0,0,0.0,0.0974
5863,0,,,247,251,238,235,,-0.06,-0.03,1.03,0,-0,-0,0.07,,102,0,7,52,98,0.684,0.0,129,1.18,11.6,0.0,1,0.0,0.0,0.0,0,0,1,0,0,,,,,,,,,,,,,,,,,,,,
5883,0,,,247,251,238,235,,-0.06,-0.03,1.05,0,-1,-0,0.07,,102,0,14,52,98,0.684,0.0,129,1.18,11.7,0.0,1,0.0,0.0,0.0,0,0,1,0,0,,,,,,,,,,,,,,,,,,,,
5903,0,,,247,251,238,235,,-0.06,-0.03,1.03,0,-0,-0,0.06,,102,0,23,52,98,0.682,0.0,126,1.12,11.3,0.0,1,0.0,0.0,0.0,0,0,1,0,0,,,,,,,,,,,,,,,,,,,,
5923,0,,,247,251,238,234,,-0.06,-0.03,1.02,0,-0,-0,0.07,,102,0,35,52,98,0.681,0.0,129,1.16,11.5,0.0,1,0.0,0.0,0.0,0,0,1,0,0,,,,,,,,,,,,,,,,,,,,
5943,0,0,2,247,251,238,234,1,-0.06,-0.03,1.01,0,-0,-0,0.07,1,102,0,45,52,98,0.681,0.0,129,1.15,11.7,0.0,1,0.0,0.0,0.0,0,0,1,0,0,0,250,250,0,0.0,0.0,0.0,0.0,0,0,0.0,0,0.0,-1,0.0,,0.0,0,0.0,0.099
5963,0,,,247,251,238,235,,-0.06,-0.03,1.04,0,-0,-0,0.07,,102,0,51,52,98,0.682,0.0,131,1.15,11.7,0.0,1,0.0,0.0,0.0,0,0,1,0,0,,,,,,,,,,,,,,,,,,,,
5983,0,,,247,251,238,234,,-0.06,-0.03,1.03,0,-0,-0,0.07,,102,119,55,52,98,0.68,0.0,129,1.21,11.2,0.0,1,30.0,2.09,0.0,0,0,1,1,0,,,,,,,,,,,,,,,,,,,,
6003,0,,,247,250,238,235,,-0.06,-0.02,1.03,0,-0,-0,0.07,,102,119,58,52,98,0.679,0.0,129,1.79,11.4,0.0,1,30.0,2.09,0.0,0,0,1,1,0,,,,,,,,,,,,,,,,,,,,
6023,0,,,247,251,238,234,,-0.06,-0.03,1.03,0,-0,-0,0.07,,102,119,58,52,98,0.68,0.0,131,2.49,11.6,0.0,1,30.0,6.29,0.0,0,0,1,1,0,,,,,,,,,,,,,,,,,,,,
6043,0,1,2,247,251,238,235,1,-0.06,-0.03,1.02,0,-0,-0,0.07,1,102,427,58,52,98,0.679,0.0,128,3.77,11.2,0.0,1,30.0,2.09,0.0,0,0,1,1,0,0,250,250,0,0.0,0.0,0.0,0.0,0,0,0.0,0,0.0,-1,0.0,0.0,0.0,0,0.0,0.1007
6063,0,,,247,251,238,235,,-0.06,-0.03,1.02,0,-0,-0,0.07,,102,427,59,52,98,0.678,0.0,129,4.63,11.4,0.0,1,30.0,2.09,1.2,0,0,1,1,0,,,,,,,,,,,,,,,,,,,,
6083,0,,,247,251,238,235,,-0.06,-0.03,1.03,0,-0,-0,0.07,,102,427,59,52,98,0.678,0.0,131,4.8,11.5,0.0,1,30.0,2.09,1.2,0,0,1,1,0,,,,,,,,,,,,,,,,,,,,
6103,0,,,247,250,238,235,,-0.06,-0.03,1.02,0,-0,-0,0.07,,102,427,63,52,98,0.678,0.0,132,4.85,11.5,0.0,1,30.0,2.09,1.2,0,0,1,1,0,,,,,,,,,,,,,,,,,,,,
6123,0,,,247,251,238,235,,-0.06,-0.03,1.04,0,-0,-0,0.07,,102,419,66,52,98,0.676,0.0,129,4.83,11.3,0.0,1,30.0,2.09,1.2,0,0,1,1,0,,,,,,,,,,,,,,,,,,,,
6143,0,2,1,247,251,238,234,1,-0.06,-0.03,1.03,0,0,-0,0.06,1,102,419,68,52,98,0.677,0.0,129,4.83,11.5,0.0,1,30.0,2.09,1.2,0,0,1,1,0,0,250,250,0,0.0,0.0,0.0,0.0,0,0,0.0,0,0.0,-1,0.0,,0.0,0,0.0,0.1024
6163,0,,,247,251,238,235,,-0.06,-0.03,1.04,0,0,-0,0.07,,102,675,68,52,99,0.679,0.0,135,4.85,11.6,0.0,1,30.0,6.37,1.9,0,0,1,1,0,,,,,,,,,,,,,,,,,,,,
6183,0,,,247,251,238,234,,-0.06,-0.03,1.05,0,0,-0,0.06,,102,1003,68,52,98,0.679,0.0,137,4.85,11.6,0.0,1,30.0,6.37,1.9,0,0,1,1,0,,,,,,,,,,,,,,,,,,,,
6203,0,,,247,251,238,235,,-0.06,-0.03,1.04,0,0,-0,0.06,,102,1003,68,52,98,0.676,0.0,134,4.82,11.5,0.0,1,30.0,6.37,1.9,0,0,1,1,0,,,,,,,,,,,,,,,,,,,,
6223,0,,,247,251,238,235,,-0.06,-0.03,1.06,0,0,-0,0.06,,103,717,65,52,98,0.674,0.0,134,4.82,11.5,0.0,1,30.0,6.24,1.9,0,0,1,1,0,,,,,,,,,,,,,,,,,,,,
6243,0,0,2,247,251,238,235,1,-0.05,-0.03,1.07,0,0,-0,0.06,1,103,717,54,53,98,0.669,0.0,128,4.77,11.1,0.0,1,30.0,6.24,1.9,0,0,1,1,0,0,250,250,0,0.0,0.0,0.0,0.0,0,0,0.0,0,0.0,-1,0.0,0.0,0.0,0,0.0,0.104
6263,0,,,247,251,238,235,,-0.06,-0.03,1.07,0,1,-0,0.07,,103,717,46,53,97,0.663,0.0,126,4.78,11.1,0.0,1,28.6,6.24,2.0,0,0,1,1,0,,,,,,,,,,,,,,,,,,,,
6283,0,,,247,251,238,235,,-0.06,-0.03,1.07,0,1,-0,0.07,,103,536,44,53,97,0.656,0.0,125,4.77,10.9,0.0,1,28.6,6.24,2.0,0,0,1,1,0,,,,,,,,,,,,,,,,,,,,
6303,0,,,247,250,238,234,,-0.06,-0.04,1.06,0,1,-0,0.07,,103,536,44,53,97,0.65,0.0,121,4.76,10.7,0.0,1,28.6,1.92,2.0,0,0,1,1,0,,,,,,,,,,,,,,,,,,,,
6323,0,,,247,251,238,235,,-0.05,-0.04,1.06,0,1,-0,0.07,,103,536,45,53,97,0.642,0.0,121,4.76,10.8,0.0,1,28.6,2.09,2.0,0,0,1,1,0,,,,,,,,,,,,,,,,,,,,
6343,0,-1,2,247,251,238,234,1,-0.06,-0.04,1.04,0,1,-0,0.07,1,103,479,48,53,97,0.633,0.0,119,4.72,10.5,0.0,1,28.6,6.16,2.0,0,0,1,1,0,0,250,250,0,0.0,0.0,0.0,0.0,0,0,0.0,0,0.0,-1,0.0,,0.0,0,0.0,0.1057
6363,0,,,247,251,238,235,,-0.05,-0.04,1.05,0,0,-0,0.07,,103,479,55,53,97,0.624,0.0,118,4.71,10.3,0.0,1,28.6,6.32,1.3,0,0,1,1,0,,,,,,,,,,,,,,,,,,,,
6383,0,,,247,251,238,235,,-0.06,-0.04,1.03,-0,0,-0,0.07,,103,479,61,53,97,0.615,0.0,118,4.71,10.4,0.0,1,28.6,6.32,1.3,0,0,1,1,0,,,,,,,,,,,,,,,,,,,,
6403,0,,,247,251,238,235,,-0.06,-0.04,1.04,0,0,-0,0.07,,103,479,65,53,97,0.605,0.0,118,4.71,10.5,0.0,1,28.6,6.32,1.3,0,0,1,1,0,,,,,,,,,,,,,,,,,,,,
6423,0,,,247,251,238,235,,-0.06,-0.04,1.04,0,0,-0,0.07,,103,456,66,53,97,0.597,0.0,121,4.72,10.5,0.0,1,28.6,2.09,1.3,0,0,1,1,0,,,,,,,,,,,,,,,,,,,,
6443,0,0,1,247,251,238,234,2,-0.06,-0.04,1.03,0,0,-0,0.07,1,103,456,66,53,97,0.591,0.0,120,4.73,10.6,0.0,1,28.6,2.09,1.3,0,0,1,1,0,0,250,250,0,0.0,0.0,0.0,0.0,0,0,0.0,0,0.0,-1,0.0,0.0,0.0,0,0.0,0.1074
6463,0,,,247,251,238,234,,-0.05,-0.04,1.05,0,0,-0,0.07,,103,645,66,53,97,0.587,0.0,123,4.7,10.7,0.0,1,28.6,2.09,1.8,0,0,1,1,0,,,,,,,,,,,,,,,,,,,,
6483,0,,,247,251,238,235,,-0.05,-0.04,1.04,0,0,-0,0.07,,103,645,66,53,97,0.584,0.0,124,4.75,10.9,0.0,1,28.6,2.09,1.8,0,0,1,1,0,,,,,,,,,,,,,,,,,,,,
6503,0,,,247,251,238,235,,-0.05,-0.04,1.01,0,-0,-0,0.07,,103,959,66,53,97,0.584,0.0,126,4.73,11.0,0.0,1,28.6,2.09,1.8,0,0,1,1,0,,,,,,,,,,,,,,,,,,,,
6523,0,,,247,251,238,235,,-0.05,-0.04,1.01,0,-1,-0,0.06,,103,1229,66,53,97,0.583,0.0,130,4.72,11.0,0.0,1,30.4,5.89,1.8,0,0,1,1,0,,,,,,,,,,,,,,,,,,,,
6543,0,-0,2,247,251,238,234,1,-0.04,-0.04,0.99,0,-1,-0,0.06,1,103,1558,66,53,97,0.582,0.0,135,4.79,11.1,0.0,1,32.6,5.82,1.8,0,0,1,1,0,0,250,250,0,0.0,0.0,0.0,0.0,0,0,0.0,0,0.0,-1,0.0,,0.0,0,0.0,0.109
6563,0,,,247,251,238,234,,-0.04,-0.04,0.99,0,-1,-0,0.06,,103,1696,66,53,97,0.583,0.0,143,4.76,11.4,0.0,1,32.6,5.82,1.8,0,0,1,1,0,,,,,,,,,,,,,,,,,,,,
6583,0,,,247,251,238,234,,-0.04,-0.04,1.01,0,-1,-0,0.06,,103,1608,66,53,98,0.587,0.0,151,4.75,11.7,0.0,1,34.0,5.48,4.5,0,0,1,1,0,,,,,,,,,,,,,,,,,,,,
6603,0,,,247,251,238,234,,-0.05,-0.04,1.01,0,-1,-0,0.06,,102,1505,70,52,98,0.595,0.0,156,4.79,12.0,0.0,1,34.0,5.67,4.5,0,0,1,1,0,,,,,,,,,,,,,,,,,,,,
6623,0,,,247,251,238,235,,-0.04,-0.05,0.96,0,-1,0,0.06,,102,1399,72,52,98,0.605,0.0,158,4.83,12.1,0.0,1,33.1,5.67,4.5,0,0,1,1,0,,,,,,,,,,,,,,,,,,,,
6643,0,0,0,247,251,238,234,1,-0.04,-0.04,0.99,0,-0,0,0.05,1,102,1950,72,52,98,0.613,0.0,162,4.77,12.1,0.0,1,34.0,5.67,4.5,0,0,1,1,0,0,250,250,0,0.0,0.0,0.0,0.0,0,0,0.0,0,0.0,-1,0.0,0.0,0.0,0,0.0,0.1107
6663,0,,,247,251,238,235,,-0.02,-0.05,1.0,0,0,0,0.05,,102,2191,72,52,99,0.622,0.0,171,4.83,12.2,0.0,1,34.0,5.6,5.6,0,0,1,1,0,,,,,,,,,,,,,,,,,,,,
6683,0,,,247,251,238,235,,-0.03,-0.05,1.03,0,0,0,0.06,,102,2438,72,52,98,0.627,0.0,176,4.8,12.2,0.0,1,34.0,5.53,5.6,0,0,1,1,0,,,,,,,,,,,,,,,,,,,,
6703,0,,,247,251,238,234,,-0.04,-0.06,0.99,0,0,-0,0.07,,102,2719,70,52,98,0.634,0.0,187,4.77,12.0,0.0,1,32.7,5.99,5.6,0,0,1,1,0,,,,,,,,,,,,,,,,,,,,
6723,0,,,247,251,238,234,,-0.04,-0.06,1.11,0,1,-0,0.07,,102,3129,60,52,98,0.638,0.0,201,4.79,12.0,0.0,1,31.0,6.95,5.6,0,0,1,1,0,,,,,,,,,,,,,,,,,,,,
6743,0,0,1,247,251,238,235,1,-0.03,-0.07,1.03,0,2,0,0.07,1,102,3620,48,52,97,0.645,0.0,216,4.8,12.2,0.0,1,31.2,7.66,5.6,0,0,1,1,0,0,250,250,0,0.0,0.0,0.0,0.0,0,0,0.0,0,0.0,-1,0.0,,0.0,0,0.0,0.1124
6763,0,,,247,251,238,235,,-0.0,-0.07,1.03,0,2,-1,0.07,,102,4266,37,52,97,0.649,0.0,242,4.83,12.1,0.0,1,36.9,7.36,5.6,0,0,1,1,0,,,,,,,,,,,,,,,,,,,,
6783,0,,,247,251,238,234,,0.02,-0.08,0.95,-0,0,-3,0.08,,102,4736,31,52,96,0.657,0.0,271,4.83,12.1,0.0,1,40.4,6.74,14.5,0,0,1,1,0,,,,,,,,,,,,,,,,,,,,
6803,0,,,247,250,238,235,,-0.03,-0.1,0.88,0,5,1,0.1,,102,5037,30,52,95,0.663,0.0,307,4.86,12.3,0.0,1,42.7,6.46,14.5,0,0,1,1,0,,,,,,,,,,,,,,,,,,,,
6823,0,,,247,251,238,235,,0.09,-0.11,1.12,-0,-6,-7,0.14,,102,5649,30,52,94,0.668,0.0,348,4.77,12.1,0.0,1,40.8,7.54,14.5,0,0,1,1,0,,,,,,,,,,,,,,,,,,,,
6843,0,-1,2,247,251,238,235,1,0.12,-0.07,1.34,0,-2,-4,0.14,1,102,6131,30,52,93,0.669,0.0,393,4.75,12.4,0.0,1,41.0,7.69,14.5,0,0,1,1,0,0,250,250,0,0.0,0.0,0.0,0.0,0,0,0.0,0,0.0,-1,0.0,0.0,0.0,0,0.0,0.114
6863,0,,,247,251,238,235,,0.12,-0.02,1.26,0,-5,-6,0.12,,102,6399,30,52,92,0.667,0.0,436,4.74,12.6,0.0,1,43.8,6.85,20.3,0,0,1,1,0,,,,,,,,,,,,,,,,,,,,
6883,0,,,247,251,238,235,,0.09,-0.03,1.21,0,-2,-3,0.09,,102,6653,29,52,91,0.667,0.0,476,4.8,12.4,0.0,1,46.4,5.89,20.3,0,0,1,1,0,,,,,,,,,,,,,,,,,,,,
6903,0,,,247,251,238,234,,0.1,-0.05,1.26,0,-4,-5,0.11,,102,6722,29,52,89,0.665,0.0,495,4.8,12.6,0.0,1,46.5,5.43,20.3,0,0,1,1,0,,,,,,,,,,,,,,,,,,,,
6923,0,,,247,251,238,235,,0.1,-0.02,1.32,0,-2,-2,0.11,,102,6962,29,52,89,0.665,0.0,505,4.75,12.4,0.0,1,48.9,5.06,20.3,0,0,1,1,0,,,,,,,,,,,,,,,,,,,,
6943,0,0,0,247,251,238,235,1,0.06,-0.03,1.22,0,-3,-3,0.07,1,102,7043,29,52,88,0.664,0.0,526,4.77,12.6,0.0,1,48.2,4.81,20.3,0,0,1,1,0,0,250,250,0,0.0,0.0,0.0,0.0,0,0,0.0,0,0.0,-1,0.0,,0.0,0,0.0,0.1157
6963,0,,,247,251,238,235,,0.04,0.02,1.29,-0,-4,-5,0.05,,102,7256,29,52,88,0.664,0.0,535,4.74,12.5,0.0,1,45.5,4.81,16.1,0,0,1,1,0,,,,,,,,,,,,,,,,,,,,
6983,0,,,247,251,238,235,,0.01,0.06,1.19,-0,-4,-6,0.06,,102,7793,25,52,86,0.664,0.0,551,4.8,12.5,0.0,1,38.1,5.05,16.1,0,0,1,1,0,,,,,,,,,,,,,,,,,,,,
7003,0,,,247,251,238,235,,0.0,-0.0,1.4,-0,-3,-4,0.0,,102,8453,20,52,83,0.664,0.0,587,4.76,12.4,0.0,1,42.1,4.73,16.1,0,0,1,1,0,,,,,,,,,,,,,,,,,,,,
7023,0,,,247,251,238,235,,0.02,-0.09,1.48,0,-2,-1,0.1,,102,8840,17,52,76,0.663,0.0,636,4.81,12.6,0.0,1,41.8,4.19,16.1,0,0,1,1,0,,,,,,,,,,,,,,,,,,,,
7043,0,-1,2,247,251,238,235,1,0.05,-0.04,1.5,0,-1,3,0.07,1,102,9023,16,52,70,0.661,0.0,645,4.86,12.6,0.0,1,41.3,3.64,16.1,0,0,1,1,0,0,250,250,0,0.0,0.0,0.0,0.0,0,0,0.0,0,0.0,-1,0.0,0.0,0.0,0,0.0,0.1174
7063,0,,,247,251,238,234,,0.06,-0.03,1.68,1,-1,5,0.07,,102,9182,15,52,66,0.66,0.0,654,4.89,12.6,0.0,1,41.0,3.49,16.1,0,0,1,1,0,,,,,,,,,,,,,,,,,,,,
7083,0,,,247,251,238,234,,0.03,-0.04,1.86,1,-2,6,0.05,,102,9488,13,52,62,0.66,0.0,663,4.77,12.4,0.0,1,41.3,3.34,14.8,0,0,1,1,0,,,,,,,,,,,,,,,,,,,,
7103,0,,,247,251,238,234,,0.02,-0.02,1.72,1,-3,3,0.03,,102,9709,12,52,58,0.661,0.0,665,4.78,12.6,0.0,1,40.6,3.51,14.8,0,0,1,1,0,,,,,,,,,,,,,,,,,,,,
7123,0,,,247,251,238,235,,-0.01,-0.06,1.58,0,-2,2,0.06,,102,9904,10,52,54,0.661,0.0,667,4.77,12.4,0.0,1,40.0,3.45,14.8,0,0,1,1,0,,,,,,,,,,,,,,,,,,,,
7143,0,1,1,247,251,238,235,1,0.0,-0.0,1.63,0,-0,3,0.0,1,102,9847,10,52,50,0.662,0.0,669,4.76,12.5,0.0,1,38.8,3.05,14.8,0,0,1,1,0,0,250,250,0,0.0,0.0,0.0,0.0,0,0,0.0,0,0.0,-1,0.0,,0.0,0,0.0,0.119
7163,0,,,247,251,238,235,,-0.0,0.01,1.81,1,-2,2,0.01,,102,9694,9,52,48,0.663,0.0,663,4.79,12.5,0.0,1,38.2,2.93,14.8,0,0,1,1,0,,,,,,,,,,,,,,,,,,,,
7183,0,,,247,251,238,235,,-0.01,0.05,1.67,0,-3,1,0.06,,102,9484,9,52,45,0.664,0.0,665,4.76,12.6,0.0,1,36.4,2.9,13.2,0,0,1,1,0,,,,,,,,,,,,,,,,,,,,
7203,0,,,247,251,238,234,,0.02,0.04,1.61,0,-1,1,0.05,,102,9282,8,52,44,0.664,0.0,662,4.81,12.6,0.0,1,35.4,2.82,13.2,0,0,1,1,0,,,,,,,,,,,,,,,,,,,,
7223,0,,,247,251,238,235,,0.02,0.08,1.48,1,-1,4,0.09,,102,9075,7,52,43,0.665,0.0,662,4.77,12.5,0.0,1,34.5,2.78,13.2,0,0,1,1,0,,,,,,,,,,,,,,,,,,,,
7243,0,0,1,247,251,238,235,1,0.06,0.07,1.38,1,0,7,0.09,1,102,8865,7,52,43,0.666,0.0,659,4.79,12.5,0.0,1,34.5,2.77,13.2,0,0,1,1,0,0,250,250,0,0.0,0.0,0.0,0.0,0,0,0.0,0,0.0,-1,0.0,0.0,0.0,0,0.0,0.1207
7263,0,,,247,251,238,235,,0.05,0.17,1.27,1,0,6,0.18,,102,8652,6,52,42,0.667,0.0,653,4.82,12.6,0.0,1,33.8,2.73,10.9,0,0,1,1,0,,,,,,,,,,,,,,,,,,,,
7283,0,,,247,251,238,235,,0.03,0.21,1.28,0,-2,2,0.21,,102,8484,6,52,41,0.669,0.0,643,4.81,12.6,0.0,1,33.1,2.68,10.9,0,0,1,1,0,,,,,,,,,,,,,,,,,,,,
7303,0,,,247,251,238,234,,0.03,0.16,1.34,1,-0,4,0.16,,102,8303,6,52,40,0.671,0.0,635,4.79,12.6,0.0,1,32.2,2.5,10.9,0,0,1,1,0,,,,,,,,,,,,,,,,,,,,
7323,0,,,247,251,238,235,,0.01,0.21,1.38,0,-1,1,0.21,,102,8081,6,52,40,0.672,0.0,619,4.82,12.6,0.0,1,31.7,2.32,10.9,0,0,1,1,0,,,,,,,,,,,,,,,,,,,,
7343,0,0,1,247,251,238,235,1,-0.03,0.21,1.27,0,-1,1,0.22,1,102,7908,6,52,40,0.672,0.0,612,4.74,12.6,0.0,1,31.6,2.24,10.9,0,0,1,1,0,0,250,250,0,0.0,0.0,0.0,0.0,0,0,0.0,0,0.0,-1,0.0,,0.0,0,0.0,0.1224
7363,0,,,247,251,238,234,,-0.03,0.23,1.17,0,1,4,0.24,,102,7728,6,52,40,0.672,0.0,594,4.85,12.6,0.0,1,31.5,1.17,8.0,0,0,1,1,0,,,,,,,,,,,,,,,,,,,,
7383,0,,,247,251,238,234,,-0.02,0.19,1.08,0,3,7,0.19,,102,7557,6,52,40,0.673,0.0,583,4.91,12.5,0.0,1,31.5,2.24,8.0,0,0,1,1,0,,,,,,,,,,,,,,,,,,,,
7403,0,,,247,251,238,234,,-0.04,0.09,1.0,0,5,8,0.1,,102,7422,6,52,41,0.673,0.0,568,4.89,12.6,0.0,1,31.9,2.24,8.0,0,0,1,1,0,,,,,,,,,,,,,,,,,,,,
7423,0,,,247,251,238,235,,-0.07,0.06,0.92,0,5,8,0.09,,102,7378,6,52,41,0.673,0.0,569,4.88,12.7,0.0,1,31.9,2.24,8.0,0,0,1,1,0,,,,,,,,,,,,,,,,,,,,
7443,0,-1,2,247,251,238,235,1,-0.09,0.07,0.85,0,4,7,0.11,1,102,7273,6,52,41,0.671,0.0,570,4.77,12.7,0.0,1,31.8,2.23,8.0,0,0,1,1,0,0,250,250,0,0.0,0.0,0.0,0.0,0,0,0.0,0,0.0,-1,0.0,0.0,0.0,0,0.0,0.124
7463,0,,,247,251,238,235,,-0.08,0.09,0.89,0,2,4,0.12,,102,7278,6,52,41,0.669,0.0,565,4.77,12.7,0.0,1,31.8,2.23,7.5,0,0,1,1,0,,,,,,,,,,,,,,,,,,,,
7483,0,,,247,251,238,234,,-0.07,0.14,1.13,0,0,1,0.15,,102,7315,6,52,41,0.668,0.0,566,4.73,12.7,0.0,1,31.8,2.24,7.5,0,0,1,1,0,,,,,,,,,,,,,,,,,,,,
7503,0,,,247,251,238,235,,-0.02,0.14,1.35,0,-0,1,0.14,,102,7347,6,52,41,0.667,0.0,565,4.75,12.6,0.0,1,31.8,2.24,7.5,0,0,1,1,0,,,,,,,,,,,,,,,,,,,,
7523,0,,,247,251,238,234,,-0.01,0.07,1.51,0,0,2,0.07,,102,7350,6,52,40,0.667,0.0,575,4.74,12.5,0.0,1,31.4,2.24,7.5,0,0,1,1,0,,,,,,,,,,,,,,,,,,,,
7543,0,-0,2,247,251,238,235,1,0.01,0.03,1.63,0,1,2,0.04,1,102,7387,6,52,41,0.665,0.0,567,4.86,12.6,0.0,1,31.9,2.24,7.5,0,0,1,1,0,0,250,250,0,0.0,0.0,0.0,0.0,0,0,0.0,0,0.0,-1,0.0,,0.0,0,0.0,0.1257
7563,0,,,247,251,238,235,,0.01,0.01,1.62,0,2,4,0.02,,102,7396,6,52,40,0.664,0.0,562,4.8,12.5,0.0,1,31.4,2.24,7.5,0,0,1,1,0,,,,,,,,,,,,,,,,,,,,
7583,0,,,247,251,238,234,,0.01,-0.08,1.53,0,3,6,0.08,,102,7408,6,52,40,0.663,0.0,566,4.88,12.5,0.0,1,31.4,2.24,7.6,0,0,1,1,0,,,,,,,,,,,,,,,,,,,,
7603,0,,,247,251,238,235,,-0.0,-0.1,1.41,0,4,7,0.1,,102,7446,6,52,40,0.663,0.0,571,4.88,12.6,0.0,1,31.4,2.24,7.6,0,0,1,1,0,,,,,,,,,,,,,,,,,,,,
7623,0,,,247,251,238,234,,0.01,-0.08,1.3,0,5,8,0.08,,102,7455,6,52,40,0.662,0.0,575,4.9,12.6,0.0,1,31.4,2.24,7.6,0,0,1,1,0,,,,,,,,,,,,,,,,,,,,
7643,0,0,1,247,251,238,234,1,-0.01,-0.09,1.2,0,6,10,0.09,1,102,7482,6,51,40,0.662,0.0,573,4.88,12.6,0.0,1,31.4,2.24,7.6,0,0,1,1,0,0,250,250,0,0.0,0.0,0.0,0.0,0,0,0.0,0,0.0,-1,0.0,0.0,0.0,0,0.0,0.1274
7663,0,,,247,251,238,234,,-0.03,-0.17,1.11,0,7,11,0.17,,102,7485,6,51,40,0.661,0.0,573,4.82,12.6,0.0,1,31.4,1.17,7.7,0,0,1,1,0,,,,,,,,,,,,,,,,,,,,
7683,0,,,247,251,238,235,,-0.04,-0.17,1.02,0,8,11,0.18,,102,7521,6,51,40,0.662,0.0,582,4.83,12.6,0.0,1,31.5,2.24,7.7,0,0,1,1,0,,,,,,,,,,,,,,,,,,,,
7703,0,,,247,251,238,235,,-0.03,-0.18,0.98,0,8,12,0.18,,102,7515,6,51,40,0.663,0.0,582,4.89,12.6,0.0,1,31.5,2.24,7.7,0,0,1,1,0,,,,,,,,,,,,,,,,,,,,
7723,0,,,247,251,238,235,,-0.03,-0.16,0.9,0,9,14,0.17,,102,7542,6,51,39,0.663,0.0,581,4.88,12.6,0.0,1,31.0,2.24,7.7,0,0,1,1,0,,,,,,,,,,,,,,,,,,,,
7743,0,1,1,247,251,238,235,1,-0.02,-0.22,0.87,0,10,15,0.22,1,102,7554,6,51,39,0.664,0.0,590,4.8,12.7,0.0,1,31.0,2.24,7.7,0,0,1,1,0,0,250,250,0,0.0,0.0,0.0,0.0,0,0,0.0,0,0.0,-1,0.0,,0.0,0,0.0,0.129
7763,0,,,247,251,238,235,,-0.01,-0.25,0.95,0,10,14,0.25,,102,7581,6,51,39,0.664,0.0,592,4.84,12.7,0.0,1,31.0,2.24,7.7,0,0,1,1,0,,,,,,,,,,,,,,,,,,,,
