"Interval"|"ms"|0|0|1,"Utc"|"ms"|0|0|1,"Brake_F"|"Bar"|0|2000|10,"Brake_R"|"Bar"|0|2000|10,"Height_RF"|"mm"|0|255|50,"Height_LF"|"mm"|0|255|50,"Height_LR"|"mm"|0|80|50,"Height_RR"|"mm"|0|255|50,"Steering"|"deg"|-100|100|10,"AccelX"|"G"|-3.0|3.0|50,"AccelY"|"G"|-3.0|3.0|50,"AccelZ"|"G"|-3.0|3.0|50,"Yaw"|"Deg/Sec"|-120|120|50,"Pitch"|"Deg/Sec"|-120|120|50,"Roll"|"Deg/Sec"|-120|120|50,"Gsum"|"G"|0.0|3.0|50,"Log_Button"|""|0.0|10.0|10,"WaterTemp"|"C"|0|150|50,"RPM"|"tr/min"|0|14000|50,"TPS"|"%"|0|100|50,"AirTemp"|"C"|0|150|50,"MAP"|"KPa"|0|100|50,"Lambda"|""|0.5|1.5|50,"SpeedDTA"|"kph"|0.0|250.0|50,"OilPress"|"KPa"|0|1500|50,"FuelPressur"|"Bar"|0.0|10.0|50,"Batterie"|"V"|0.0|20.0|50,"ConsoKm"|"L/100km"|0.0|200.0|50,"Gear"|""|0|6|50,"AdvIgnition"|"Deg"|-20.0|70.0|50,"Injection"|"ms"|0.0|10.0|50,"ConsoHr"|"L/Hr"|0.0|10000.0|50,"LC_But_Pres"|""|0|1|50,"LC_Active"|""|0|1|50,"TractionOn"|""|0|1|50,"TractionWet"|""|0|1|50,"FanOn"|""|0|1|50,"RD_Speed"|"km/h"|-30|250|10,"RUD_Speed"|"km/h"|-30|250|10,"LD_Speed"|"km/h"|-30|250|10,"LUD_Speed"|"km/h"|-30|250|10,"Latitude"|"Degrees"|-180.0|180.0|10,"Longitude"|"Degrees"|-180.0|180.0|10,"Speed"|"kph"|0.0|150.0|10,"Altitude"|"m"|0.0|4000.0|10,"GPSSats"|""|0|20|10,"GPSQual"|""|0|5|10,"GPSDOP"|""|0.0|20.0|10,"LapCount"|""|0|0|10,"LapTime"|"Min"|0.0|0.0|10,"Sector"|""|0|0|10,"SectorTime"|"Min"|0.0|0.0|10,"PredTime"|"Min"|0.0|0.0|5,"ElapsedTime"|"Min"|0.0|0.0|10,"CurrentLap"|""|0|0|10,"Distance"|"km"|0.0|0.0|10,"SessionTime"|"Min"|0.0|0.0|10
4063,0,,,252,251,234,229,,-0.03,0.0,0.99,-0,-0,-0,0.03,,37,0,0,30,98,0.519,0.0,110,1.7,12.9,0.0,1,0.0,0.0,0.0,0,0,0,0,0,,,,,,,,,,,,,,,,,,,,
4083,0,,,252,251,234,230,,-0.03,0.0,0.99,0,-0,-0,0.03,,37,0,0,30,98,0.518,0.0,110,1.69,12.8,0.0,1,0.0,0.0,0.0,0,0,0,0,0,,,,,,,,,,,,,,,,,,,,
4103,0,,,252,251,234,230,,-0.03,0.0,0.99,-0,-0,-0,0.03,,37,0,0,30,98,0.518,0.0,110,1.67,12.8,0.0,1,0.0,0.0,0.0,0,0,0,0,0,,,,,,,,,,,,,,,,,,,,
4123,0,,,252,251,234,230,,-0.03,0.0,0.99,-0,0,-0,0.03,,37,0,0,30,98,0.519,0.0,109,1.67,12.8,0.0,1,0.0,0.0,0.0,0,0,0,0,0,,,,,,,,,,,,,,,,,,,,
4143,0,-1,2,252,251,234,229,-15,-0.03,0.0,0.99,-0,0,-0,0.03,1,37,0,0,30,98,0.519,0.0,109,1.67,12.8,0.0,1,0.0,0.0,0.0,0,0,0,0,0,0,250,250,0,0.0,0.0,0.0,0.0,0,0,0.0,0,0.0,-1,0.0,,0.0,0,0.0,0.069
4163,0,,,252,252,234,229,,-0.03,0.0,0.99,-0,0,-0,0.03,,37,0,0,30,98,0.519,0.0,110,1.64,12.8,0.0,1,0.0,0.0,0.0,0,0,0,0,0,,,,,,,,,,,,,,,,,,,,
4183,0,,,252,252,234,229,,-0.03,0.0,0.99,-0,0,-0,0.03,,37,0,0,30,98,0.518,0.0,110,1.64,12.8,0.0,1,0.0,0.0,0.0,0,0,0,0,0,,,,,,,,,,,,,,,,,,,,
4203,0,,,252,252,234,229,,-0.03,0.0,0.99,0,0,-0,0.03,,37,0,0,30,98,0.518,0.0,110,1.64,12.9,0.0,1,0.0,0.0,0.0,0,0,0,0,0,,,,,,,,,,,,,,,,,,,,
4223,0,,,252,251,234,230,,-0.03,0.0,0.99,0,0,-0,0.03,,37,0,0,30,98,0.518,0.0,110,1.62,12.9,0.0,1,0.0,0.0,0.0,0,0,0,0,0,,,,,,,,,,,,,,,,,,,,
4243,0,-1,2,252,252,234,229,-14,-0.03,0.0,0.99,0,0,-0,0.03,1,37,0,0,30,98,0.518,0.0,110,1.61,12.9,0.0,1,0.0,0.0,0.0,0,0,0,0,0,0,250,250,0,0.0,0.0,0.0,0.0,0,0,0.0,0,0.0,-1,0.0,0.0,0.0,0,0.0,0.0707
4263,0,,,252,252,234,229,,-0.03,0.0,0.99,0,0,-0,0.03,,37,0,0,30,98,0.518,0.0,109,1.61,12.8,0.0,1,0.0,0.0,0.0,0,0,0,0,0,,,,,,,,,,,,,,,,,,,,
4283,0,,,252,251,234,229,,-0.03,0.0,0.99,0,0,-0,0.03,,37,0,0,30,98,0.518,0.0,110,1.61,12.8,0.0,1,0.0,0.0,0.0,0,0,0,0,0,,,,,,,,,,,,,,,,,,,,
4303,0,,,252,252,234,230,,-0.03,0.0,0.99,0,0,-0,0.03,,37,0,0,30,98,0.518,0.0,110,1.58,12.8,0.0,1,0.0,0.0,0.0,0,0,0,0,0,,,,,,,,,,,,,,,,,,,,
4323,0,,,252,252,234,230,,-0.03,0.0,0.99,0,0,-0,0.03,,37,0,0,30,98,0.518,0.0,110,1.58,12.8,0.0,1,0.0,0.0,0.0,0,0,0,0,0,,,,,,,,,,,,,,,,,,,,
4343,0,0,0,252,252,234,229,-14,-0.03,0.0,0.99,0,0,-0,0.03,1,37,0,0,30,98,0.518,0.0,110,1.58,12.9,0.0,1,0.0,0.0,0.0,0,0,0,0,0,0,250,250,0,0.0,0.0,0.0,0.0,0,0,0.0,0,0.0,-1,0.0,,0.0,0,0.0,0.0724
4363,0,,,252,252,234,230,,-0.03,0.0,0.99,0,0,-0,0.03,,37,0,0,30,98,0.518,0.0,110,1.56,12.9,0.0,1,0.0,0.0,0.0,0,0,0,0,0,,,,,,,,,,,,,,,,,,,,
4383,0,,,252,251,234,229,,-0.03,0.0,0.99,0,0,-0,0.03,,37,0,0,30,98,0.518,0.0,110,1.56,12.9,0.0,1,0.0,0.0,0.0,0,0,0,0,0,,,,,,,,,,,,,,,,,,,,
4403,0,,,252,251,234,229,,-0.03,0.0,0.99,0,0,-0,0.03,,37,0,0,30,98,0.518,0.0,110,1.56,12.9,0.0,1,0.0,0.0,0.0,0,0,0,0,0,,,,,,,,,,,,,,,,,,,,
4423,0,,,252,252,234,230,,-0.03,0.0,0.99,0,0,-0,0.03,,37,0,0,30,98,0.518,0.0,110,1.55,12.8,0.0,1,0.0,0.0,0.0,0,0,0,0,0,,,,,,,,,,,,,,,,,,,,
4443,0,0,-0,252,252,234,230,-15,-0.03,0.0,0.99,0,0,-0,0.03,1,37,0,0,30,98,0.518,0.0,110,1.53,12.8,0.0,1,0.0,0.0,0.0,0,0,0,0,0,0,250,250,0,0.0,0.0,0.0,0.0,0,0,0.0,0,0.0,-1,0.0,0.0,0.0,0,0.0,0.074
4463,0,,,252,252,234,230,,-0.03,-0.0,0.99,0,0,-0,0.03,,37,0,0,30,98,0.518,0.0,110,1.53,12.8,0.0,1,0.0,0.0,0.0,0,0,0,0,0,,,,,,,,,,,,,,,,,,,,
4483,0,,,252,252,234,229,,-0.03,0.0,0.99,0,0,-0,0.03,,37,0,0,30,98,0.518,0.0,110,1.53,12.8,0.0,1,0.0,0.0,0.0,0,0,0,0,0,,,,,,,,,,,,,,,,,,,,
4503,0,,,252,252,234,229,,-0.03,0.0,0.99,0,0,-0,0.03,,37,0,0,30,98,0.518,0.0,110,1.53,12.8,0.0,1,0.0,0.0,0.0,0,0,0,0,0,,,,,,,,,,,,,,,,,,,,
4523,0,,,252,251,234,230,,-0.03,0.0,0.99,0,0,-0,0.03,,37,0,0,30,98,0.518,0.0,110,1.51,12.9,0.0,1,0.0,0.0,0.0,0,0,0,0,0,,,,,,,,,,,,,,,,,,,,
4543,0,-0,1,252,251,234,229,-14,-0.03,0.0,0.99,0,0,-0,0.03,1,37,0,0,30,98,0.518,0.0,110,1.51,12.9,0.0,1,0.0,0.0,0.0,0,0,0,0,0,0,250,250,0,0.0,0.0,0.0,0.0,0,0,0.0,0,0.0,-1,0.0,,0.0,0,0.0,0.0757
4563,0,,,252,251,234,230,,-0.03,0.0,0.99,0,0,-0,0.03,,37,0,0,30,98,0.518,0.0,110,1.51,12.9,0.0,1,0.0,0.0,0.0,0,0,0,0,0,,,,,,,,,,,,,,,,,,,,
4583,0,,,252,252,234,230,,-0.03,0.0,0.99,-0,0,-0,0.03,,37,0,0,30,98,0.518,0.0,110,1.51,12.9,0.0,1,0.0,0.0,0.0,0,0,0,0,0,,,,,,,,,,,,,,,,,,,,
4603,0,,,252,251,234,229,,-0.03,0.0,0.99,0,0,-0,0.03,,37,0,0,30,98,0.518,0.0,110,1.51,12.8,0.0,1,0.0,0.0,0.0,0,0,0,0,0,,,,,,,,,,,,,,,,,,,,
4623,0,,,252,252,234,229,,-0.03,0.0,0.99,0,0,-0,0.03,,37,0,0,30,98,0.518,0.0,110,1.5,12.8,0.0,1,0.0,0.0,0.0,0,0,0,0,0,,,,,,,,,,,,,,,,,,,,
4643,0,-0,2,252,252,234,229,-14,-0.03,0.0,0.99,0,0,-0,0.03,1,37,0,0,30,98,0.518,0.0,110,1.48,12.8,0.0,1,0.0,0.0,0.0,0,0,0,0,0,0,250,250,0,0.0,0.0,0.0,0.0,0,0,0.0,0,0.0,-1,0.0,0.0,0.0,0,0.0,0.0774
4663,0,,,252,252,234,230,,-0.03,0.0,0.99,0,0,-0,0.03,,37,0,0,30,98,0.518,0.0,110,1.48,12.8,0.0,1,0.0,0.0,0.0,0,0,0,0,0,,,,,,,,,,,,,,,,,,,,
4683,0,,,252,252,234,230,,-0.03,0.0,0.99,0,0,-0,0.03,,37,0,0,30,98,0.518,0.0,110,1.48,12.8,0.0,1,0.0,0.0,0.0,0,0,0,0,0,,,,,,,,,,,,,,,,,,,,
4703,0,,,252,252,234,230,,-0.03,0.0,0.99,0,0,-0,0.03,,37,0,0,30,98,0.518,0.0,110,1.48,12.9,0.0,1,0.0,0.0,0.0,0,0,0,0,0,,,,,,,,,,,,,,,,,,,,
4723,0,,,252,251,234,230,,-0.03,-0.0,0.99,0,0,-0,0.03,,37,0,0,30,98,0.518,0.0,110,1.48,12.9,0.0,1,0.0,0.0,0.0,0,0,0,0,0,,,,,,,,,,,,,,,,,,,,
4743,0,-0,2,252,251,234,230,-15,-0.03,-0.0,0.99,-0,0,-0,0.03,1,37,0,0,30,98,0.518,0.0,110,1.45,12.9,0.0,1,0.0,0.0,0.0,0,0,0,0,0,0,250,250,0,0.0,0.0,0.0,0.0,0,0,0.0,0,0.0,-1,0.0,,0.0,0,0.0,0.079
4763,0,,,252,251,234,230,,-0.03,0.0,0.99,-0,0,-0,0.03,,37,0,0,30,98,0.518,0.0,110,1.45,12.9,0.0,1,0.0,0.0,0.0,0,0,0,0,0,,,,,,,,,,,,,,,,,,,,
4783,0,,,252,252,234,230,,-0.04,0.0,0.99,-0,0,-0,0.04,,37,0,0,30,98,0.518,0.0,110,1.45,12.8,0.0,1,0.0,0.0,0.0,0,0,0,0,0,,,,,,,,,,,,,,,,,,,,
4803,0,,,252,252,234,230,,-0.04,0.0,0.99,-0,0,-0,0.04,,37,0,0,30,98,0.518,0.0,110,1.45,12.8,0.0,1,0.0,0.0,0.0,0,0,0,0,0,,,,,,,,,,,,,,,,,,,,
4823,0,,,252,251,234,229,,-0.03,0.0,0.99,-0,0,-0,0.03,,37,0,0,30,98,0.518,0.0,110,1.45,12.8,0.0,1,0.0,0.0,0.0,0,0,0,0,0,,,,,,,,,,,,,,,,,,,,
4843,0,-1,1,252,252,234,230,-14,-0.03,0.0,0.99,-0,0,-0,0.03,1,37,0,0,30,98,0.518,0.0,110,1.45,12.8,0.0,1,0.0,0.0,0.0,0,0,0,0,0,0,250,250,0,0.0,0.0,0.0,0.0,0,0,0.0,0,0.0,-1,0.0,0.0,0.0,0,0.0,0.0807
4863,0,,,252,251,234,230,,-0.03,0.0,0.99,-0,0,-0,0.03,,37,0,0,30,98,0.518,0.0,109,1.45,12.9,0.0,1,0.0,0.0,0.0,0,0,0,0,0,,,,,,,,,,,,,,,,,,,,
4883,0,,,252,252,234,229,,-0.03,0.0,0.99,0,0,-0,0.03,,37,0,0,30,98,0.518,0.0,110,1.45,12.9,0.0,1,0.0,0.0,0.0,0,0,0,0,0,,,,,,,,,,,,,,,,,,,,
4903,0,,,252,251,234,229,,-0.03,0.0,0.99,0,0,-0,0.03,,37,0,0,30,98,0.518,0.0,110,1.43,12.9,0.0,1,0.0,0.0,0.0,0,0,0,0,0,,,,,,,,,,,,,,,,,,,,
4923,0,,,252,252,234,230,,-0.04,0.0,0.99,0,0,-0,0.04,,37,0,0,30,98,0.518,0.0,110,1.42,12.9,0.0,1,0.0,0.0,0.0,0,0,0,0,0,,,,,,,,,,,,,,,,,,,,
4943,0,-1,2,252,252,234,230,-14,-0.04,0.0,0.99,0,0,-0,0.04,1,37,0,0,30,98,0.518,0.0,110,1.42,12.9,0.0,1,0.0,0.0,0.0,0,0,0,0,0,0,250,250,0,0.0,0.0,0.0,0.0,0,0,0.0,0,0.0,-1,0.0,,0.0,0,0.0,0.0824
4963,0,,,252,252,234,229,,-0.03,0.0,0.99,0,0,-0,0.03,,37,0,0,30,98,0.518,0.0,110,1.42,12.8,0.0,1,0.0,0.0,0.0,0,0,0,0,0,,,,,,,,,,,,,,,,,,,,
4983,0,,,252,251,234,230,,-0.03,0.0,0.99,0,0,-0,0.03,,37,0,0,30,98,0.518,0.0,110,1.42,12.8,0.0,1,0.0,0.0,0.0,0,0,0,0,0,,,,,,,,,,,,,,,,,,,,
5003,0,,,252,252,234,230,,-0.03,0.0,0.99,0,0,-0,0.03,,37,0,0,30,98,0.518,0.0,110,1.42,12.8,0.0,1,0.0,0.0,0.0,0,0,0,0,0,,,,,,,,,,,,,,,,,,,,
5023,0,,,252,251,234,229,,-0.03,0.0,0.99,0,0,-0,0.03,,37,0,0,30,98,0.518,0.0,110,1.42,12.9,0.0,1,0.0,0.0,0.0,0,0,0,0,0,,,,,,,,,,,,,,,,,,,,
5043,0,-1,-0,252,251,234,230,-15,-0.03,0.0,0.99,0,0,-0,0.03,1,37,0,0,30,98,0.518,0.0,110,1.42,12.9,0.0,1,0.0,0.0,0.0,0,0,0,0,0,0,250,250,0,0.0,0.0,0.0,0.0,0,0,0.0,0,0.0,-1,0.0,0.0,0.0,0,0.0,0.084
5063,0,,,252,251,234,229,,-0.03,0.0,0.99,-0,0,-0,0.03,,37,0,0,30,98,0.518,0.0,110,1.42,12.9,0.0,1,0.0,0.0,0.0,0,0,0,0,0,,,,,,,,,,,,,,,,,,,,
5083,0,,,252,251,234,229,,-0.03,0.0,0.99,-0,0,-0,0.03,,37,0,0,30,98,0.518,0.0,109,1.41,12.9,0.0,1,0.0,0.0,0.0,0,0,0,0,0,,,,,,,,,,,,,,,,,,,,
5103,0,,,252,251,234,230,,-0.03,0.0,0.99,-0,0,-0,0.03,,37,0,0,30,98,0.518,0.0,110,1.4,12.9,0.0,1,0.0,0.0,0.0,0,0,0,0,0,,,,,,,,,,,,,,,,,,,,
5123,0,,,252,251,234,229,,-0.03,0.0,0.99,-0,0,-0,0.03,,37,0,0,30,98,0.518,0.0,110,1.4,12.8,0.0,1,0.0,0.0,0.0,0,0,0,0,0,,,,,,,,,,,,,,,,,,,,
5143,0,0,1,252,251,234,230,-15,-0.03,0.0,0.99,-0,0,-0,0.03,1,37,0,0,30,98,0.518,0.0,110,1.4,12.8,0.0,1,0.0,0.0,0.0,0,0,0,0,0,0,250,250,0,0.0,0.0,0.0,0.0,0,0,0.0,0,0.0,-1,0.0,,0.0,0,0.0,0.0857
5163,0,,,252,251,234,230,,-0.03,0.0,0.99,-0,0,-0,0.03,,37,0,0,30,98,0.518,0.0,110,1.4,12.8,0.0,1,0.0,0.0,0.0,0,0,0,0,0,,,,,,,,,,,,,,,,,,,,
5183,0,,,252,251,234,230,,-0.03,0.0,0.99,-0,0,-0,0.03,,37,0,0,30,98,0.518,0.0,110,1.4,12.9,0.0,1,0.0,0.0,0.0,0,0,0,0,0,,,,,,,,,,,,,,,,,,,,
5203,0,,,252,251,234,230,,-0.03,0.0,0.99,-0,0,-0,0.03,,37,0,0,30,98,0.518,0.0,110,1.4,12.9,0.0,1,0.0,0.0,0.0,0,0,0,0,0,,,,,,,,,,,,,,,,,,,,
5223,0,,,252,251,234,230,,-0.03,0.0,0.99,-0,0,-0,0.03,,37,0,0,30,98,0.518,0.0,110,1.4,12.9,0.0,1,0.0,0.0,0.0,0,0,0,0,0,,,,,,,,,,,,,,,,,,,,
5243,0,-1,1,252,251,234,230,-14,-0.03,0.0,0.99,-0,0,-0,0.03,1,37,0,0,30,98,0.518,0.0,110,1.4,12.9,0.0,1,0.0,0.0,0.0,0,0,0,0,0,0,250,250,0,0.0,0.0,0.0,0.0,0,0,0.0,0,0.0,-1,0.0,0.0,0.0,0,0.0,0.0874
5263,0,,,252,251,234,229,,-0.03,0.0,0.99,-0,0,-0,0.03,,37,0,0,30,98,0.518,0.0,110,1.4,12.9,0.0,1,0.0,0.0,0.0,0,0,0,0,0,,,,,,,,,,,,,,,,,,,,
5283,0,,,252,251,234,230,,-0.03,0.0,0.99,-0,0,-0,0.03,,37,0,0,30,98,0.518,0.0,110,1.4,12.9,0.0,1,0.0,0.0,0.0,0,0,0,0,0,,,,,,,,,,,,,,,,,,,,
5303,0,,,252,251,234,229,,-0.03,0.0,0.99,-0,0,-0,0.03,,37,0,0,30,98,0.518,0.0,109,1.4,12.8,0.0,1,0.0,0.0,0.0,0,0,0,0,0,,,,,,,,,,,,,,,,,,,,
5323,0,,,252,251,234,230,,-0.03,0.0,0.99,-0,0,-0,0.03,,37,0,0,30,98,0.518,0.0,110,1.4,12.8,0.0,1,0.0,0.0,0.0,0,0,0,0,0,,,,,,,,,,,,,,,,,,,,
5343,0,-0,2,252,251,234,229,-15,-0.03,0.0,0.99,-0,0,-0,0.03,1,37,0,0,30,98,0.518,0.0,110,1.4,12.8,0.0,1,0.0,0.0,0.0,0,0,0,0,0,0,250,250,0,0.0,0.0,0.0,0.0,0,0,0.0,0,0.0,-1,0.0,,0.0,0,0.0,0.089
5363,0,,,252,251,234,230,,-0.03,0.0,0.99,-0,0,-0,0.03,,37,0,0,30,98,0.518,0.0,110,1.38,12.9,0.0,1,0.0,0.0,0.0,0,0,0,0,0,,,,,,,,,,,,,,,,,,,,
5383,0,,,252,251,234,230,,-0.03,0.0,0.99,-0,0,-0,0.03,,37,0,0,30,98,0.518,0.0,110,1.37,12.9,0.0,1,0.0,0.0,0.0,0,0,0,0,0,,,,,,,,,,,,,,,,,,,,
5403,0,,,252,251,234,229,,-0.03,0.0,0.99,0,0,-0,0.03,,37,0,0,30,98,0.518,0.0,110,1.37,12.9,0.0,1,0.0,0.0,0.0,0,0,0,0,0,,,,,,,,,,,,,,,,,,,,
5423,0,,,252,251,234,229,,-0.03,0.0,0.99,-0,0,-0,0.03,,37,0,0,30,98,0.518,0.0,110,1.37,12.9,0.0,1,0.0,0.0,0.0,0,0,0,0,0,,,,,,,,,,,,,,,,,,,,
5443,0,0,1,252,251,234,230,-15,-0.03,0.0,0.99,0,0,-0,0.03,1,37,0,0,30,98,0.518,0.0,109,1.37,12.9,0.0,1,0.0,0.0,0.0,0,0,0,0,0,0,250,250,0,0.0,0.0,0.0,0.0,0,0,0.0,0,0.0,-1,0.0,0.0,0.0,0,0.0,0.0907
5463,0,,,252,251,234,229,,-0.03,0.0,0.99,-0,0,-0,0.03,,37,0,0,30,98,0.518,0.0,110,1.37,12.8,0.0,1,0.0,0.0,0.0,0,0,0,0,0,,,,,,,,,,,,,,,,,,,,
5483,0,,,252,251,234,230,,-0.03,0.0,0.99,-0,0,-0,0.03,,37,0,0,30,98,0.518,0.0,110,1.37,12.8,0.0,1,0.0,0.0,0.0,0,0,0,0,0,,,,,,,,,,,,,,,,,,,,
5503,0,,,252,251,234,229,,-0.03,0.0,0.99,-0,0,-0,0.03,,37,0,0,30,98,0.518,0.0,110,1.36,12.8,0.0,1,0.0,0.0,0.0,0,0,0,0,0,,,,,,,,,,,,,,,,,,,,
5523,0,,,252,251,234,229,,-0.03,0.0,0.99,-0,0,-0,0.03,,37,0,0,30,98,0.518,0.0,110,1.35,11.1,0.0,1,0.0,0.0,0.0,0,0,0,0,0,,,,,,,,,,,,,,,,,,,,
5543,0,-1,2,252,251,234,229,-15,-0.03,0.0,0.99,0,-0,-0,0.03,1,37,0,0,30,98,0.517,0.0,110,1.35,10.0,0.0,1,0.0,0.0,0.0,0,0,0,0,0,0,250,250,0,0.0,0.0,0.0,0.0,0,0,0.0,0,0.0,-1,0.0,,0.0,0,0.0,0.0924
5563,0,,,252,251,234,230,,-0.03,0.0,0.99,-0,-0,-0,0.03,,37,0,0,30,98,0.516,0.0,111,1.35,10.7,0.0,1,0.0,0.0,0.0,0,0,0,0,0,,,,,,,,,,,,,,,,,,,,
5583,0,,,252,251,234,230,,-0.03,0.01,0.99,-0,-0,-0,0.03,,37,0,0,30,98,0.514,0.0,113,1.35,11.1,0.0,1,0.0,0.0,0.0,0,0,0,0,0,,,,,,,,,,,,,,,,,,,,
5603,0,,,252,251,234,229,,-0.03,0.01,1.0,-0,-0,-0,0.04,,37,0,0,30,98,0.513,0.0,116,1.35,11.3,0.0,1,0.0,0.0,0.0,0,0,0,0,0,,,,,,,,,,,,,,,,,,,,
5623,0,,,252,252,234,230,,-0.03,0.0,0.99,-0,-0,-0,0.03,,37,0,0,30,98,0.511,0.0,116,1.35,11.4,0.0,1,0.0,0.0,0.0,0,0,0,0,0,,,,,,,,,,,,,,,,,,,,
5643,0,-0,2,252,251,234,230,-15,-0.03,0.0,1.0,-0,-0,-0,0.03,1,37,0,0,30,97,0.51,0.0,116,1.35,11.3,0.0,1,0.0,0.0,0.0,0,0,0,0,0,0,250,250,0,0.0,0.0,0.0,0.0,0,0,0.0,0,0.0,-1,0.0,0.0,0.0,0,0.0,0.094
5663,0,,,252,251,234,229,,-0.03,0.0,0.99,-0,-0,-0,0.03,,37,0,0,30,98,0.509,0.0,116,1.35,11.3,0.0,1,0.0,0.0,0.0,0,0,0,0,0,,,,,,,,,,,,,,,,,,,,
5683,0,,,252,251,234,229,,-0.03,0.0,0.99,-0,-0,-0,0.03,,37,0,0,30,98,0.508,0.0,118,1.34,11.6,0.0,1,0.0,0.0,0.0,0,0,0,0,0,,,,,,,,,,,,,,,,,,,,
5703,0,,,252,251,234,230,,-0.03,0.0,0.99,-0,-0,-0,0.03,,37,0,0,30,97,0.507,0.0,121,1.34,11.8,0.0,1,0.0,0.0,0.0,0,0,0,0,0,,,,,,,,,,,,,,,,,,,,
5723,0,,,252,251,234,229,,-0.03,0.0,0.99,-0,0,-0,0.03,,37,0,0,30,97,0.506,0.0,122,1.34,11.7,0.0,1,0.0,0.0,0.0,0,0,0,0,0,,,,,,,,,,,,,,,,,,,,
5743,0,-0,1,252,252,234,230,-14,-0.05,-0.0,0.99,-0,0,-0,0.05,1,37,0,0,30,98,0.505,0.0,123,1.34,11.6,0.0,1,0.0,0.0,0.0,0,0,0,0,0,0,250,250,0,0.0,0.0,0.0,0.0,0,0,0.0,0,0.0,-1,0.0,,0.0,0,0.0,0.0957
5763,0,,,252,252,234,229,,-0.05,-0.0,1.0,-0,0,-0,0.05,,37,0,0,30,98,0.504,0.0,124,1.34,11.8,0.0,1,0.0,0.0,0.0,0,0,0,0,0,,,,,,,,,,,,,,,,,,,,
5783,0,,,252,251,234,229,,-0.05,-0.0,1.0,-0,0,-0,0.05,,37,0,0,30,97,0.503,0.0,126,1.34,11.9,0.0,1,0.0,0.0,0.0,0,0,0,0,0,,,,,,,,,,,,,,,,,,,,
5803,0,,,252,252,234,229,,-0.05,-0.0,0.99,-0,0,-0,0.05,,37,0,0,30,98,0.504,0.0,125,1.34,11.6,0.0,1,0.0,0.0,0.0,0,0,0,0,0,,,,,,,,,,,,,,,,,,,,
5823,0,,,252,252,234,229,,-0.05,-0.0,1.0,-0,0,-0,0.05,,37,0,0,30,98,0.504,0.0,126,1.34,11.8,0.0,1,0.0,0.0,0.0,0,0,0,0,0,,,,,,,,,,,,,,,,,,,,
5843,0,0,1,252,251,234,230,-15,-0.05,-0.0,0.99,-0,0,-0,0.05,1,37,0,0,30,97,0.504,0.0,129,1.34,11.9,0.0,1,0.0,0.0,0.0,0,0,0,0,0,0,250,250,0,0.0,0.0,0.0,0.0,0,0,0.0,0,0.0,-1,0.0,0.0,0.0,0,0.0,0.0974
5863,0,,,252,251,234,230,,-0.05,-0.0,0.99,-0,0,-0,0.05,,37,0,0,30,98,0.505,0.0,128,1.34,11.7,0.0,1,0.0,0.0,0.0,0,0,0,0,0,,,,,,,,,,,,,,,,,,,,
5883,0,,,252,252,234,230,,-0.05,0.0,0.99,-0,0,-0,0.05,,37,0,0,30,98,0.504,0.0,129,1.34,11.8,0.0,1,0.0,0.0,0.0,0,0,0,0,0,,,,,,,,,,,,,,,,,,,,
5903,0,,,252,252,234,229,,-0.05,-0.0,0.99,-0,0,-0,0.05,,37,0,0,30,97,0.505,0.0,132,1.33,11.9,0.0,1,0.0,0.0,0.0,0,0,0,0,0,,,,,,,,,,,,,,,,,,,,
5923,0,,,252,251,234,230,,-0.05,-0.0,0.99,-0,0,-0,0.05,,37,0,0,30,97,0.505,0.0,132,1.33,11.7,0.0,1,0.0,0.0,0.0,0,0,0,0,0,,,,,,,,,,,,,,,,,,,,
5943,0,-1,2,252,251,234,229,-15,-0.05,-0.0,0.99,-0,0,-0,0.05,1,37,0,0,30,98,0.505,0.0,132,1.33,11.8,0.0,1,0.0,0.0,0.0,0,0,0,0,0,0,250,250,0,0.0,0.0,0.0,0.0,0,0,0.0,0,0.0,-1,0.0,,0.0,0,0.0,0.099
5963,0,,,252,252,234,229,,-0.05,-0.0,0.99,-0,0,-0,0.05,,37,0,0,30,97,0.505,0.0,132,1.32,11.9,0.0,1,0.0,0.0,0.0,0,0,0,0,0,,,,,,,,,,,,,,,,,,,,
5983,0,,,252,251,234,229,,-0.05,-0.0,0.98,-0,0,-0,0.05,,37,0,0,30,97,0.505,0.0,131,1.32,11.7,0.0,1,0.0,0.0,0.0,0,0,0,0,0,,,,,,,,,,,,,,,,,,,,
6003,0,,,252,251,234,230,,-0.05,-0.0,0.98,-0,0,-0,0.05,,37,0,0,30,98,0.505,0.0,132,1.31,11.6,0.0,1,0.0,0.0,0.0,0,0,0,0,0,,,,,,,,,,,,,,,,,,,,
6023,0,,,252,251,234,229,,-0.05,-0.0,0.98,-0,0,-0,0.05,,37,0,0,30,98,0.505,0.0,135,1.31,11.7,0.0,1,0.0,0.0,0.0,0,0,0,0,0,,,,,,,,,,,,,,,,,,,,
6043,0,-1,1,252,251,234,229,-15,-0.05,-0.0,0.99,-0,0,-0,0.05,1,37,0,0,30,97,0.505,0.0,136,1.31,11.8,0.0,1,0.0,0.0,0.0,0,0,0,0,0,0,250,250,0,0.0,0.0,0.0,0.0,0,0,0.0,0,0.0,-1,0.0,0.0,0.0,0,0.0,0.1007
6063,0,,,252,251,234,229,,-0.05,0.0,0.99,-0,0,-0,0.05,,37,0,0,30,98,0.505,0.0,134,1.31,11.7,0.0,1,0.0,0.0,0.0,0,0,0,0,0,,,,,,,,,,,,,,,,,,,,
6083,0,,,252,251,234,229,,-0.05,0.0,0.99,-0,0,-0,0.05,,37,0,0,30,98,0.505,0.0,135,1.31,11.8,0.0,1,0.0,0.0,0.0,0,0,0,0,0,,,,,,,,,,,,,,,,,,,,
6103,0,,,252,251,234,229,,-0.05,0.01,0.99,-0,0,-0,0.05,,37,0,0,30,97,0.506,0.0,135,1.31,11.8,0.0,1,0.0,0.0,0.0,0,0,0,0,0,,,,,,,,,,,,,,,,,,,,
6123,0,,,252,252,234,229,,-0.04,0.01,0.99,-0,0,-0,0.05,,37,0,0,30,98,0.506,0.0,134,1.31,11.5,0.0,1,0.0,0.0,0.0,0,0,0,0,0,,,,,,,,,,,,,,,,,,,,
6143,0,-1,2,252,251,234,229,-15,-0.04,0.0,0.99,-0,0,-0,0.04,1,37,0,0,30,98,0.506,0.0,135,1.31,11.7,0.0,1,0.0,0.0,0.0,0,0,0,0,0,0,250,250,0,0.0,0.0,0.0,0.0,0,0,0.0,0,0.0,-1,0.0,,0.0,0,0.0,0.1024
6163,0,,,252,251,234,230,,-0.04,0.0,0.99,-0,0,-0,0.04,,37,135,0,30,97,0.507,0.0,137,1.31,11.8,0.0,1,20.0,2.09,0.0,0,0,0,0,0,,,,,,,,,,,,,,,,,,,,
6183,0,,,252,251,234,229,,-0.04,-0.0,0.99,-0,0,-0,0.04,,37,135,0,30,98,0.507,0.0,134,1.36,11.3,0.0,1,20.0,2.09,0.0,0,0,0,1,0,,,,,,,,,,,,,,,,,,,,
6203,0,,,252,251,234,230,,-0.04,-0.0,0.99,-0,0,-0,0.04,,37,135,0,30,98,0.507,0.0,134,2.82,11.5,0.0,1,20.0,9.31,0.0,0,0,0,1,0,,,,,,,,,,,,,,,,,,,,
6223,0,,,252,251,234,229,,-0.04,-0.0,0.99,-0,0,-0,0.04,,37,135,0,30,97,0.507,0.0,135,4.8,11.6,0.0,1,20.0,2.09,0.0,0,0,0,1,0,,,,,,,,,,,,,,,,,,,,
6243,0,0,-0,252,251,234,229,-14,-0.03,-0.0,0.99,-0,0,-0,0.03,1,37,449,0,30,97,0.507,0.0,134,4.82,11.5,0.0,1,20.0,9.31,0.0,0,0,0,1,0,0,250,250,0,0.0,0.0,0.0,0.0,0,0,0.0,0,0.0,-1,0.0,0.0,0.0,0,0.0,0.104
6263,0,,,252,251,234,230,,-0.04,-0.0,0.99,-0,0,-0,0.04,,37,449,0,30,98,0.508,0.0,134,4.83,11.5,0.0,1,20.0,2.09,1.9,0,0,0,1,0,,,,,,,,,,,,,,,,,,,,
6283,0,,,252,251,234,229,,-0.04,0.0,0.99,0,0,-0,0.04,,37,449,0,30,97,0.507,0.0,137,4.83,11.6,0.0,1,20.0,9.31,1.9,0,0,0,1,0,,,,,,,,,,,,,,,,,,,,
6303,0,,,252,251,234,229,,-0.04,0.0,1.0,-0,0,-0,0.04,,37,488,0,30,97,0.508,0.0,137,4.83,11.5,0.0,1,20.0,9.31,1.9,0,0,0,1,0,,,,,,,,,,,,,,,,,,,,
6323,0,,,252,252,234,230,,-0.04,0.01,1.0,-0,0,-0,0.04,,37,488,0,30,98,0.507,0.0,134,4.83,11.5,0.0,1,20.0,9.31,1.9,0,0,0,1,0,,,,,,,,,,,,,,,,,,,,
6343,0,-1,2,252,252,234,229,-14,-0.04,0.0,0.99,-0,0,-0,0.04,1,37,488,0,30,98,0.507,0.0,135,4.83,11.7,0.0,1,20.0,2.09,1.9,0,0,0,1,0,0,250,250,0,0.0,0.0,0.0,0.0,0,0,0.0,0,0.0,-1,0.0,,0.0,0,0.0,0.1057
6363,0,,,252,251,234,229,,-0.04,0.01,0.99,-0,0,-0,0.04,,37,445,0,30,97,0.507,0.0,134,4.83,11.6,0.0,1,20.0,9.31,1.8,0,0,0,1,0,,,,,,,,,,,,,,,,,,,,
6383,0,,,252,251,234,229,,-0.04,0.01,0.99,0,0,-0,0.04,,37,445,0,30,98,0.507,0.0,131,4.83,11.4,0.0,1,20.0,2.09,1.8,0,0,0,1,0,,,,,,,,,,,,,,,,,,,,
6403,0,,,252,251,234,230,,-0.04,0.0,0.99,0,0,-0,0.04,,37,445,0,30,98,0.507,0.0,137,4.83,11.7,0.0,1,20.0,9.31,1.8,0,0,0,1,0,,,,,,,,,,,,,,,,,,,,
6423,0,,,252,252,234,229,,-0.03,0.01,0.99,0,0,-0,0.03,,37,581,0,30,97,0.506,0.0,139,4.79,11.6,0.0,1,20.0,2.09,1.8,0,0,0,1,0,,,,,,,,,,,,,,,,,,,,
6443,0,0,-0,252,251,234,229,-14,-0.03,0.01,0.99,0,0,-0,0.03,1,37,581,0,30,97,0.506,0.0,143,4.83,11.8,0.0,1,20.0,9.31,1.8,0,0,0,1,0,0,250,250,0,0.0,0.0,0.0,0.0,0,0,0.0,0,0.0,-1,0.0,0.0,0.0,0,0.0,0.1074
6463,0,,,252,251,234,229,,-0.03,0.01,0.99,0,0,-0,0.03,,37,655,0,30,96,0.506,0.0,138,4.77,11.4,0.0,1,20.0,2.09,2.7,0,0,0,1,0,,,,,,,,,,,,,,,,,,,,
6483,0,,,252,252,234,230,,-0.03,0.01,1.02,0,1,-0,0.03,,37,655,0,30,98,0.506,0.0,140,4.83,11.7,0.0,1,20.0,9.31,2.7,0,0,0,1,0,,,,,,,,,,,,,,,,,,,,
6503,0,,,252,252,234,229,,-0.03,0.0,1.02,0,1,-0,0.03,,37,779,0,30,96,0.506,0.0,156,4.81,11.8,0.0,1,20.0,9.31,2.7,0,0,0,1,0,,,,,,,,,,,,,,,,,,,,
6523,0,,,252,252,234,229,,-0.04,0.01,1.05,0,1,-0,0.04,,37,1518,0,30,95,0.505,0.0,174,4.77,11.5,0.0,1,20.0,9.31,2.7,0,0,0,1,0,,,,,,,,,,,,,,,,,,,,
6543,0,-1,2,252,251,234,229,-14,-0.04,0.02,1.05,0,1,-0,0.05,1,37,1777,0,30,94,0.505,0.0,187,4.79,11.1,0.0,1,20.0,9.31,2.7,0,0,0,1,0,0,250,250,0,0.0,0.0,0.0,0.0,0,0,0.0,0,0.0,-1,0.0,,0.0,0,0.0,0.109
6563,0,,,252,252,234,230,,-0.05,0.02,1.06,-0,1,-0,0.05,,37,1655,0,30,92,0.505,0.0,194,4.72,10.8,0.0,1,20.0,9.31,7.1,0,0,0,1,0,,,,,,,,,,,,,,,,,,,,
6583,0,,,252,251,234,229,,-0.05,0.01,1.06,-0,1,-0,0.06,,37,1520,0,30,91,0.504,0.0,191,4.62,10.4,0.0,1,20.0,9.31,7.1,0,0,0,1,0,,,,,,,,,,,,,,,,,,,,
6603,0,,,252,251,234,229,,-0.06,0.02,1.09,-0,1,-0,0.06,,37,1375,7,30,92,0.503,0.0,190,4.69,10.8,0.0,1,24.7,9.31,7.1,0,0,0,1,0,,,,,,,,,,,,,,,,,,,,
6623,0,,,252,252,234,229,,-0.06,0.03,1.1,-0,1,-0,0.06,,37,1464,12,30,93,0.503,0.0,208,4.73,11.2,0.0,1,26.8,17.47,7.1,0,0,0,1,0,,,,,,,,,,,,,,,,,,,,
6643,0,0,-0,252,251,234,229,-14,-0.05,0.02,1.08,-0,1,-0,0.06,1,37,1762,15,30,95,0.502,0.0,229,4.79,11.6,0.0,1,29.8,15.43,7.1,0,0,0,1,0,0,250,250,0,0.0,0.0,0.0,0.0,0,0,0.0,0,0.0,-1,0.0,0.0,0.0,0,0.0,0.1107
6663,0,,,252,251,234,229,,-0.05,0.02,1.07,-0,1,-0,0.05,,37,1968,17,30,96,0.502,0.0,253,4.8,11.7,0.0,1,31.2,13.39,11.5,0,0,0,1,0,,,,,,,,,,,,,,,,,,,,
6683,0,,,252,251,234,229,,-0.05,0.02,1.08,-0,1,-0,0.05,,37,1993,19,30,97,0.502,0.0,267,4.81,12.2,0.0,1,32.6,13.39,11.5,0,0,0,1,0,,,,,,,,,,,,,,,,,,,,
6703,0,,,252,252,234,229,,-0.05,0.02,1.07,-0,1,-0,0.05,,37,1889,19,30,97,0.501,0.0,265,4.84,12.2,0.0,1,32.6,13.06,11.5,0,0,0,1,0,,,,,,,,,,,,,,,,,,,,
6723,0,,,252,252,234,229,,-0.05,0.0,1.06,-0,0,-1,0.05,,37,1873,19,30,97,0.502,0.0,263,4.83,12.1,0.0,1,32.6,12.53,11.5,0,0,0,1,0,,,,,,,,,,,,,,,,,,,,
6743,0,0,1,252,253,234,230,-15,-0.06,-0.0,1.07,-0,0,-0,0.06,1,37,2222,19,30,97,0.501,0.0,298,4.86,12.3,0.0,1,32.6,12.53,11.5,0,0,0,1,0,0,250,250,0,0.0,0.0,0.0,0.0,0,0,0.0,0,0.0,-1,0.0,,0.0,0,0.0,0.1124
6763,0,,,252,251,234,230,,-0.05,0.01,1.04,0,1,0,0.05,,37,2803,19,30,95,0.501,0.0,351,4.81,12.2,0.0,1,29.2,13.3,14.8,0,0,0,1,0,,,,,,,,,,,,,,,,,,,,
6783,0,,,252,252,234,230,,-0.04,0.02,1.08,0,1,0,0.04,,37,3141,14,30,95,0.502,0.0,393,4.77,12.2,0.0,1,28.7,14.5,14.8,0,0,0,1,0,,,,,,,,,,,,,,,,,,,,
6803,0,,,252,253,234,229,,-0.03,0.03,1.12,0,1,-0,0.04,,37,3563,9,30,93,0.502,0.0,461,4.78,12.2,0.0,1,27.6,14.6,14.8,0,0,0,1,0,,,,,,,,,,,,,,,,,,,,
6823,0,,,252,252,234,229,,-0.04,0.02,1.05,0,0,0,0.04,,37,3826,5,30,91,0.502,0.0,535,4.82,12.2,0.0,1,0.0,12.93,14.8,0,0,0,1,0,,,,,,,,,,,,,,,,,,,,
6843,0,0,2,252,252,234,230,-15,-0.04,0.04,1.07,0,0,-0,0.05,1,37,3758,1,30,89,0.502,0.0,542,4.78,12.6,0.0,1,0.0,11.56,14.8,0,0,0,1,0,0,250,250,0,0.0,0.0,0.0,0.0,0,0,0.0,0,0.0,-1,0.0,0.0,0.0,0,0.0,0.114
6863,0,,,252,252,234,229,,-0.05,0.02,1.06,0,1,0,0.06,,37,3866,0,30,86,0.502,0.0,553,4.83,12.6,0.0,1,0.0,9.88,17.8,0,0,0,1,0,,,,,,,,,,,,,,,,,,,,
6883,0,,,252,252,234,229,,-0.04,0.01,1.04,0,1,0,0.04,,37,3835,0,30,84,0.502,0.0,563,4.83,12.6,0.0,1,0.0,8.51,17.8,0,0,0,1,0,,,,,,,,,,,,,,,,,,,,
6903,0,,,252,252,234,230,,-0.05,0.03,1.13,0,2,0,0.06,,37,3732,0,30,81,0.502,0.0,555,4.81,12.8,0.0,1,0.0,7.69,17.8,0,0,0,1,0,,,,,,,,,,,,,,,,,,,,
6923,0,,,252,252,234,229,,-0.03,0.02,1.07,0,2,0,0.03,,37,3631,0,30,80,0.503,0.0,551,4.83,12.6,0.0,1,0.0,7.41,17.8,0,0,0,1,0,,,,,,,,,,,,,,,,,,,,
6943,0,0,2,252,252,234,230,-14,-0.02,0.03,1.07,0,1,0,0.03,1,37,3496,0,30,79,0.502,0.0,529,4.87,12.7,0.0,1,0.0,7.19,17.8,0,0,0,1,0,0,250,250,0,0.0,0.0,0.0,0.0,0,0,0.0,0,0.0,-1,0.0,,0.0,0,0.0,0.1157
6963,0,,,252,252,234,230,,-0.03,0.05,1.13,0,1,1,0.06,,37,3369,0,30,78,0.502,0.0,490,4.82,12.8,0.0,1,-0.3,6.85,10.9,0,0,0,1,0,,,,,,,,,,,,,,,,,,,,
6983,0,,,252,252,234,229,,-0.03,0.04,1.13,0,2,0,0.05,,37,3251,0,30,78,0.502,0.0,476,4.79,12.8,0.0,1,20.7,6.75,10.9,0,0,0,1,0,,,,,,,,,,,,,,,,,,,,
7003,0,,,252,252,234,230,,-0.04,0.02,1.09,0,3,0,0.04,,37,3134,0,30,78,0.502,0.0,442,4.82,12.8,0.0,1,-0.3,6.65,10.9,0,0,0,1,0,,,,,,,,,,,,,,,,,,,,
7023,0,,,252,252,234,230,,-0.04,0.01,1.06,0,3,0,0.05,,37,2999,0,30,78,0.502,0.0,435,4.82,12.8,0.0,1,-0.3,6.51,10.9,0,0,0,1,0,,,,,,,,,,,,,,,,,,,,
7043,0,-0,1,252,252,234,229,-14,-0.06,0.02,1.03,0,4,0,0.07,1,37,2857,0,30,77,0.502,0.0,403,4.82,12.8,0.0,1,-0.3,6.27,10.9,0,0,0,1,0,0,250,250,0,0.0,0.0,0.0,0.0,0,0,0.0,0,0.0,-1,0.0,0.0,0.0,0,0.0,0.1174
7063,0,,,252,252,234,230,,-0.09,0.01,1.02,0,6,0,0.09,,37,2758,0,30,77,0.502,0.0,395,4.85,12.8,0.0,1,17.1,6.17,7.8,0,0,0,1,0,,,,,,,,,,,,,,,,,,,,
7083,0,,,252,252,234,229,,-0.08,0.0,1.01,-0,7,0,0.08,,37,2634,0,30,78,0.503,0.0,381,4.86,12.7,0.0,1,15.6,6.05,7.8,0,0,0,1,0,,,,,,,,,,,,,,,,,,,,
7103,0,,,252,252,234,230,,-0.04,0.0,1.04,-0,6,0,0.04,,37,2566,0,30,78,0.503,0.0,362,4.81,12.7,0.0,1,-0.3,5.99,7.8,0,0,0,1,0,,,,,,,,,,,,,,,,,,,,
7123,0,,,252,252,234,230,,-0.05,0.01,1.05,-0,4,0,0.05,,37,2404,0,30,79,0.504,0.0,340,4.84,12.8,0.0,1,-0.3,5.93,7.8,0,0,0,1,0,,,,,,,,,,,,,,,,,,,,
7143,0,0,1,252,252,234,230,-14,-0.04,0.0,1.04,-0,4,0,0.04,1,37,2252,0,30,80,0.504,0.0,326,4.82,12.5,0.0,1,-0.3,5.91,7.8,0,0,0,1,0,0,250,250,0,0.0,0.0,0.0,0.0,0,0,0.0,0,0.0,-1,0.0,,0.0,0,0.0,0.119
7163,0,,,252,252,234,230,,-0.04,0.01,1.05,-0,3,0,0.04,,37,2169,2,30,81,0.504,0.0,313,4.86,12.8,0.0,1,-0.2,5.97,5.9,0,0,0,1,0,,,,,,,,,,,,,,,,,,,,
7183,0,,,252,251,234,229,,-0.04,0.0,1.04,-0,3,-0,0.04,,37,2084,8,30,83,0.505,0.0,300,4.81,12.8,0.0,1,13.0,5.97,5.9,0,0,0,1,0,,,,,,,,,,,,,,,,,,,,
7203,0,,,252,251,234,229,,-0.03,0.0,1.05,0,2,-0,0.03,,37,1888,12,30,85,0.504,0.0,277,4.86,12.3,0.0,1,15.8,5.97,5.9,0,0,0,1,0,,,,,,,,,,,,,,,,,,,,
7223,0,,,252,251,234,229,,-0.03,0.0,1.03,0,2,0,0.03,,37,1778,14,30,89,0.505,0.0,270,4.85,12.7,0.0,1,21.5,9.19,5.9,0,0,0,1,0,,,,,,,,,,,,,,,,,,,,
7243,0,0,2,252,251,234,230,-15,-0.03,0.0,1.03,0,2,0,0.03,1,37,1678,17,30,93,0.505,0.0,252,4.86,12.8,0.0,1,27.1,9.31,5.9,0,0,0,1,0,0,250,250,0,0.0,0.0,0.0,0.0,0,0,0.0,0,0.0,-1,0.0,0.0,0.0,0,0.0,0.1207
7263,0,,,252,252,234,229,,-0.03,0.0,1.02,0,2,0,0.03,,37,1601,19,30,96,0.506,0.0,242,4.86,12.8,0.0,1,31.2,9.31,6.8,0,0,0,1,0,,,,,,,,,,,,,,,,,,,,
7283,0,,,252,252,234,229,,-0.03,0.01,1.03,-0,1,0,0.04,,37,1706,20,30,97,0.506,0.0,253,4.86,12.8,0.0,1,32.6,9.31,6.8,0,0,0,1,0,,,,,,,,,,,,,,,,,,,,
7303,0,,,252,251,234,229,,-0.03,0.01,1.03,-0,1,0,0.03,,37,2167,20,30,97,0.506,0.0,286,4.82,12.4,0.0,1,32.6,9.31,6.8,0,0,0,1,0,,,,,,,,,,,,,,,,,,,,
7323,0,,,252,252,234,229,,-0.03,0.01,1.04,-0,1,-0,0.04,,37,2234,20,30,96,0.506,0.0,302,4.87,12.8,0.0,1,31.2,9.31,6.8,0,0,0,1,0,,,,,,,,,,,,,,,,,,,,
7343,0,0,2,252,252,234,229,-14,-0.03,0.01,1.01,-0,1,-0,0.03,1,37,2264,20,30,96,0.506,0.0,308,4.82,12.5,0.0,1,31.2,9.17,6.8,0,0,0,1,0,0,250,250,0,0.0,0.0,0.0,0.0,0,0,0.0,0,0.0,-1,0.0,,0.0,0,0.0,0.1224
7363,0,,,252,252,234,230,,-0.02,-0.0,0.99,-0,1,-0,0.02,,37,2580,19,30,96,0.506,0.0,345,4.83,12.7,0.0,1,31.0,9.33,11.1,0,0,0,1,0,,,,,,,,,,,,,,,,,,,,
7383,0,,,252,252,234,230,,-0.01,-0.02,0.91,-0,-0,-1,0.02,,37,3359,15,30,94,0.506,0.0,416,4.83,12.5,0.0,1,28.0,12.11,11.1,0,0,0,1,0,,,,,,,,,,,,,,,,,,,,
7403,0,,,252,251,234,229,,-0.03,0.0,0.94,-0,0,-0,0.03,,37,3730,11,30,93,0.506,0.0,503,4.8,12.7,0.0,1,28.7,12.01,11.1,0,0,0,1,0,,,,,,,,,,,,,,,,,,,,
7423,0,,,252,252,234,230,,-0.03,-0.01,0.87,-0,1,-0,0.03,,37,3864,11,30,91,0.506,0.0,551,4.78,12.5,0.0,1,27.6,11.29,11.1,0,0,0,1,0,,,,,,,,,,,,,,,,,,,,
7443,0,0,1,252,252,234,230,-15,-0.02,-0.0,0.97,-0,2,-0,0.02,1,37,4011,11,30,90,0.505,0.0,563,4.83,12.8,0.0,1,27.5,10.49,11.1,0,0,0,1,0,0,250,250,0,0.0,0.0,0.0,0.0,0,0,0.0,0,0.0,-1,0.0,0.0,0.0,0,0.0,0.124
7463,0,,,252,252,234,229,,-0.02,0.03,1.02,-0,3,-0,0.04,,37,4110,11,30,88,0.505,0.0,592,4.83,12.8,0.0,1,28.5,9.79,19.3,0,0,0,1,0,,,,,,,,,,,,,,,,,,,,
7483,0,,,252,252,234,230,,-0.05,0.0,0.95,-0,4,-0,0.05,,37,4278,11,30,86,0.504,0.0,605,4.82,12.8,0.0,1,30.6,9.13,19.3,0,0,0,1,0,,,,,,,,,,,,,,,,,,,,
7503,0,,,252,252,234,229,,-0.08,-0.02,0.88,-0,5,0,0.09,,37,4458,11,30,86,0.504,0.0,604,4.81,12.7,0.0,1,33.3,8.99,19.3,0,0,0,1,0,,,,,,,,,,,,,,,,,,,,
7523,0,,,252,252,234,229,,-0.12,-0.03,0.85,-0,5,0,0.13,,37,4569,11,30,84,0.504,0.0,601,4.83,12.8,0.0,1,34.4,8.52,19.3,0,0,0,1,0,,,,,,,,,,,,,,,,,,,,
7543,0,0,1,252,252,234,230,-14,-0.15,-0.0,0.92,-0,5,-0,0.15,1,37,4826,10,30,83,0.503,0.0,611,4.82,12.8,0.0,1,38.0,8.58,19.3,0,0,0,1,0,0,250,250,0,0.0,0.0,0.0,0.0,0,0,0.0,0,0.0,-1,0.0,,0.0,0,0.0,0.1257
7563,0,,,252,252,234,230,,-0.12,-0.02,0.88,-0,6,-1,0.12,,37,5024,9,30,82,0.503,0.0,613,4.8,12.6,0.0,1,40.2,8.29,19.1,0,0,0,1,0,,,,,,,,,,,,,,,,,,,,
7583,0,,,252,252,234,230,,-0.13,-0.03,0.89,-0,5,0,0.13,,37,5275,7,30,80,0.502,0.0,619,4.8,12.6,0.0,1,39.1,8.25,19.1,0,0,0,1,0,,,,,,,,,,,,,,,,,,,,
7603,0,,,252,252,234,230,,-0.1,-0.01,0.87,-0,5,-1,0.1,,37,5262,5,30,78,0.502,0.0,613,4.79,12.6,0.0,1,38.6,7.7,19.1,0,0,0,1,0,,,,,,,,,,,,,,,,,,,,
7623,0,,,252,252,234,229,,-0.1,-0.01,0.96,-0,4,0,0.1,,37,5185,4,30,76,0.501,0.0,620,4.83,12.8,0.0,1,38.2,7.06,19.1,0,0,0,1,0,,,,,,,,,,,,,,,,,,,,
7643,0,-1,2,252,252,234,229,-15,-0.11,0.04,1.02,-0,4,-1,0.11,1,37,5096,3,30,74,0.501,0.0,611,4.8,12.7,0.0,1,37.7,6.33,19.1,0,0,0,1,0,0,250,250,0,0.0,0.0,0.0,0.0,0,0,0.0,0,0.0,-1,0.0,0.0,0.0,0,0.0,0.1274
7663,0,,,252,252,234,229,,-0.08,-0.01,0.94,-0,4,-0,0.08,,37,5005,3,30,72,0.501,0.0,610,4.86,12.6,0.0,1,37.3,5.77,14.0,0,0,0,1,0,,,,,,,,,,,,,,,,,,,,
7683,0,,,252,253,234,230,,-0.09,0.0,0.98,-0,3,0,0.09,,37,4839,3,30,71,0.501,0.0,613,4.88,12.8,0.0,1,34.6,5.19,14.0,0,0,0,1,0,,,,,,,,,,,,,,,,,,,,
7703,0,,,252,252,234,230,,-0.13,0.01,0.96,-0,4,0,0.13,,37,4701,3,30,70,0.501,0.0,611,4.87,12.7,0.0,1,32.6,4.67,14.0,0,0,0,1,0,,,,,,,,,,,,,,,,,,,,
7723,0,,,252,252,234,229,,-0.15,0.03,0.98,-0,4,0,0.15,,37,4576,3,30,69,0.501,0.0,605,4.85,12.8,0.0,1,30.5,4.35,14.0,0,0,0,1,0,,,,,,,,,,,,,,,,,,,,
7743,0,-1,2,252,252,234,229,-14,-0.17,0.06,1.0,-0,4,0,0.18,1,37,4402,3,30,68,0.501,0.0,600,4.83,12.9,0.0,1,28.0,3.77,14.0,0,0,0,1,0,0,250,250,0,0.0,0.0,0.0,0.0,0,0,0.0,0,0.0,-1,0.0,,0.0,0,0.0,0.129
7763,0,,,252,252,234,229,,-0.19,0.05,0.95,-0,4,1,0.19,,37,4273,3,30,68,0.501,0.0,603,4.86,12.8,0.0,1,26.2,3.68,7.4,0,0,0,1,0,,,,,,,,,,,,,,,,,,,,
7783,0,,,252,252,234,229,,-0.18,0.04,0.88,0,4,1,0.18,,37,4109,3,30,68,0.501,0.0,598,4.85,12.4,0.0,1,23.9,3.58,7.4,0,0,0,1,0,,,,,,,,,,,,,,,,,,,,
7803,0,,,252,252,234,230,,-0.16,0.04,0.93,-0,4,0,0.16,,37,3985,3,30,68,0.502,0.0,590,4.84,12.9,0.0,1,0.0,3.52,7.4,0,0,0,1,0,,,,,,,,,,,,,,,,,,,,
7823,0,,,252,252,234,229,,-0.15,0.02,0.92,0,5,1,0.15,,37,3804,3,30,68,0.502,0.0,577,4.87,12.8,0.0,1,20.5,3.52,7.4,0,0,0,1,0,,,,,,,,,,,,,,,,,,,,
7843,0,0,1,252,252,234,230,-15,-0.13,0.03,0.98,-0,5,0,0.14,1,37,3693,3,30,69,0.502,0.0,555,4.85,12.9,0.0,1,19.6,3.52,7.4,0,0,0,1,0,0,250,250,0,0.0,0.0,0.0,0.0,0,0,0.0,0,0.0,-1,0.0,0.0,0.0,0,0.0,0.1307
7863,0,,,252,252,234,229,,-0.11,-0.01,0.91,0,5,0,0.11,,37,3500,3,30,70,0.503,0.0,529,4.83,12.3,0.0,1,18.1,3.53,5.8,0,0,0,1,0,,,,,,,,,,,,,,,,,,,,
7883,0,,,252,252,234,230,,-0.11,0.01,0.95,0,4,0,0.11,,37,3362,3,30,71,0.503,0.0,498,4.87,12.8,0.0,1,18.4,3.56,5.8,0,0,0,1,0,,,,,,,,,,,,,,,,,,,,
7903,0,,,252,252,234,229,,-0.11,0.03,1.04,0,4,0,0.11,,37,3222,3,30,73,0.504,0.0,456,4.85,12.9,0.0,1,-0.3,3.61,5.8,0,0,0,1,0,,,,,,,,,,,,,,,,,,,,
7923,0,,,252,251,234,230,,-0.11,0.03,1.05,0,5,0,0.12,,37,3073,3,30,74,0.504,0.0,437,4.84,12.9,0.0,1,19.3,3.65,5.8,0,0,0,1,0,,,,,,,,,,,,,,,,,,,,
7943,0,-1,2,252,252,234,229,-15,-0.12,0.04,1.06,0,6,1,0.13,1,37,2921,3,30,74,0.504,0.0,413,4.84,12.9,0.0,1,-0.3,3.67,5.8,0,0,0,1,0,0,250,250,0,0.0,0.0,0.0,0.0,0,0,0.0,0,0.0,-1,0.0,,0.0,0,0.0,0.1324
7963,0,,,252,251,234,230,,-0.11,0.04,1.08,0,7,1,0.12,,37,2763,3,30,75,0.505,0.0,394,4.83,12.9,0.0,1,17.0,3.7,4.8,0,0,0,1,0,,,,,,,,,,,,,,,,,,,,
7983,0,,,252,252,234,229,,-0.08,0.04,1.11,0,7,1,0.09,,37,2609,5,30,76,0.505,0.0,365,4.82,12.5,0.0,1,-0.3,3.74,4.8,0,0,0,1,0,,,,,,,,,,,,,,,,,,,,
8003,0,,,252,252,234,230,,-0.07,0.04,1.12,0,5,0,0.08,,37,2540,8,30,79,0.506,0.0,360,4.85,12.9,0.0,1,14.1,3.83,4.8,0,0,0,1,0,,,,,,,,,,,,,,,,,,,,
8023,0,,,252,252,234,229,,-0.08,0.04,1.1,0,4,0,0.09,,37,2431,9,30,81,0.506,0.0,352,4.87,12.9,0.0,1,13.3,6.67,4.8,0,0,0,1,0,,,,,,,,,,,,,,,,,,,,
8043,0,-0,2,252,252,234,230,-15,-0.07,0.03,1.08,0,4,0,0.08,1,37,2380,11,30,84,0.506,0.0,324,4.83,12.7,0.0,1,14.4,6.88,4.8,0,0,0,1,0,0,250,250,0,0.0,0.0,0.0,0.0,0,0,0.0,0,0.0,-1,0.0,0.0,0.0,0,0.0,0.134
8063,0,,,252,252,234,229,,-0.07,0.04,1.07,0,3,0,0.08,,37,2282,13,29,87,0.507,0.0,326,4.86,12.9,0.0,1,18.7,7.06,7.3,0,0,0,1,0,,,,,,,,,,,,,,,,,,,,
8083,0,,,252,252,234,230,,-0.07,0.04,1.05,0,3,1,0.08,,37,2486,15,30,89,0.506,0.0,326,4.82,12.4,0.0,1,21.5,7.07,7.3,0,0,0,1,0,,,,,,,,,,,,,,,,,,,,
8103,0,,,252,252,234,229,,-0.05,0.04,1.03,0,2,0,0.06,,37,2549,17,29,91,0.506,0.0,348,4.81,12.8,0.0,1,24.4,7.16,7.3,0,0,0,1,0,,,,,,,,,,,,,,,,,,,,
8123,0,,,252,252,234,230,,-0.07,0.04,1.03,0,2,0,0.08,,37,2756,17,29,92,0.506,0.0,378,4.85,12.9,0.0,1,26.1,7.48,7.3,0,0,0,1,0,,,,,,,,,,,,,,,,,,,,
8143,0,-1,2,252,252,234,229,-14,-0.07,0.02,1.05,-0,2,0,0.08,1,37,3103,17,29,93,0.506,0.0,415,4.82,12.9,0.0,1,27.2,8.14,7.3,0,0,0,1,0,0,250,250,0,0.0,0.0,0.0,0.0,0,0,0.0,0,0.0,-1,0.0,,0.0,0,0.0,0.1357
8163,0,,,252,252,234,229,,-0.06,-0.01,0.97,0,2,0,0.06,,37,3397,17,29,92,0.506,0.0,455,4.84,12.5,0.0,1,26.5,8.8,13.5,0,0,0,1,0,,,,,,,,,,,,,,,,,,,,
8183,0,,,252,252,234,229,,-0.06,0.0,0.95,-0,1,0,0.06,,37,3568,17,29,93,0.506,0.0,493,4.84,12.8,0.0,1,27.6,8.98,13.5,0,0,0,1,0,,,,,,,,,,,,,,,,,,,,
8203,0,,,252,252,234,229,,-0.05,-0.02,0.93,-0,1,-0,0.05,,37,3933,16,29,92,0.505,0.0,543,4.83,12.7,0.0,1,29.0,8.68,13.5,0,0,0,1,0,,,,,,,,,,,,,,,,,,,,
8223,0,,,252,252,234,229,,-0.05,-0.0,1.02,-0,1,-0,0.05,,37,4012,14,29,92,0.505,0.0,576,4.84,12.8,0.0,1,29.6,8.32,13.5,0,0,0,1,0,,,,,,,,,,,,,,,,,,,,
8243,0,0,0,252,252,234,229,-14,-0.07,-0.01,0.98,-0,1,-0,0.07,1,37,4168,10,29,90,0.505,0.0,587,4.81,12.8,0.0,1,29.9,7.79,13.5,0,0,0,1,0,0,250,250,0,0.0,0.0,0.0,0.0,0,0,0.0,0,0.0,-1,0.0,0.0,0.0,0,0.0,0.1374
8263,0,,,252,252,234,230,,-0.11,-0.02,0.96,0,2,-0,0.11,,37,4509,7,29,87,0.504,0.0,598,4.8,12.8,0.0,1,34.3,7.28,15.2,0,0,0,1,0,,,,,,,,,,,,,,,,,,,,
8283,0,,,252,252,234,229,,-0.15,-0.04,0.92,0,2,-0,0.15,,37,4451,5,29,84,0.503,0.0,603,4.85,12.8,0.0,1,32.6,6.74,15.2,0,0,0,1,0,,,,,,,,,,,,,,,,,,,,
8303,0,,,252,253,234,229,,-0.18,-0.04,0.95,-0,2,-1,0.19,,37,4752,4,29,81,0.503,0.0,607,4.82,12.8,0.0,1,0.0,6.68,15.2,0,0,0,1,0,,,,,,,,,,,,,,,,,,,,
8323,0,,,252,252,234,230,,-0.18,-0.01,0.89,-0,2,-1,0.18,,37,4842,3,29,79,0.502,0.0,608,4.8,12.8,0.0,1,0.0,6.46,15.2,0,0,0,1,0,,,,,,,,,,,,,,,,,,,,
8343,0,-1,2,252,252,234,230,-15,-0.14,-0.02,0.92,-0,2,-1,0.14,1,37,4719,4,29,77,0.502,0.0,606,4.86,12.7,0.0,1,0.0,5.89,15.2,0,0,0,1,0,0,250,250,0,0.0,0.0,0.0,0.0,0,0,0.0,0,0.0,-1,0.0,,0.0,0,0.0,0.1391
8363,0,,,252,252,234,229,,-0.09,-0.05,0.91,-0,0,-1,0.1,,37,4612,4,30,75,0.502,0.0,614,4.84,12.6,0.0,1,32.5,5.35,11.7,0,0,0,1,0,,,,,,,,,,,,,,,,,,,,
8383,0,,,252,252,234,230,,-0.06,-0.06,0.9,-0,-0,-1,0.08,,37,4474,4,30,74,0.501,0.0,600,4.81,12.5,0.0,1,30.3,4.9,11.7,0,0,0,1,0,,,,,,,,,,,,,,,,,,,,
8403,0,,,252,252,234,229,,-0.03,-0.08,0.98,-0,-1,-2,0.08,,37,4328,4,30,73,0.501,0.0,606,4.81,12.6,0.0,1,0.0,4.64,11.7,0,0,0,1,0,,,,,,,,,,,,,,,,,,,,
8423,0,,,252,252,234,230,,-0.0,-0.06,1.12,-0,-2,-2,0.06,,37,4235,3,29,72,0.502,0.0,593,4.81,12.8,0.0,1,0.0,4.39,11.7,0,0,0,1,0,,,,,,,,,,,,,,,,,,,,
8443,0,0,0,252,252,234,230,-14,-0.01,-0.03,1.17,-0,-2,-2,0.03,1,38,4084,3,29,72,0.501,0.0,589,4.85,12.9,0.0,1,24.4,4.04,11.7,0,0,0,1,0,0,250,250,0,0.0,0.0,0.0,0.0,0,0,0.0,0,0.0,-1,0.0,0.0,0.0,0,0.0,0.1407
8463,0,,,252,252,234,230,,-0.01,-0.04,1.1,-0,-2,-2,0.04,,38,3946,3,29,71,0.501,0.0,592,4.82,12.4,0.0,1,0.0,3.95,7.2,0,0,0,1,0,,,,,,,,,,,,,,,,,,,,
8483,0,,,252,253,234,230,,-0.0,-0.02,1.2,-0,-2,-2,0.02,,38,3892,3,29,72,0.502,0.0,573,4.85,12.9,0.0,1,0.0,3.88,7.2,0,0,0,1,0,,,,,,,,,,,,,,,,,,,,
8503,0,,,252,252,234,230,,0.01,-0.03,1.12,-0,-2,-1,0.03,,38,3794,3,29,72,0.502,0.0,568,4.84,12.7,0.0,1,21.4,3.79,7.2,0,0,0,1,0,,,,,,,,,,,,,,,,,,,,
8523,0,,,252,252,234,229,,-0.0,0.01,1.21,-0,-2,-1,0.01,,38,3690,4,29,73,0.503,0.0,554,4.84,12.9,0.0,1,0.0,3.53,7.2,0,0,0,1,0,,,,,,,,,,,,,,,,,,,,
8543,0,0,2,252,252,234,229,-14,-0.0,-0.01,1.12,-0,-2,-1,0.01,1,38,3493,3,30,73,0.503,0.0,532,4.81,12.4,0.0,1,19.0,3.58,7.2,0,0,0,1,0,0,250,250,0,0.0,0.0,0.0,0.0,0,0,0.0,0,0.0,-1,0.0,,0.0,0,0.0,0.1424
8563,0,,,252,252,234,230,,0.0,-0.01,1.08,-0,-3,-1,0.01,,38,3365,3,29,74,0.503,0.0,498,4.88,12.8,0.0,1,19.3,3.62,5.7,0,0,0,1,0,,,,,,,,,,,,,,,,,,,,
8583,0,,,252,252,234,229,,-0.01,0.02,1.16,-0,-3,-1,0.02,,38,3226,3,29,75,0.503,0.0,474,4.86,12.9,0.0,1,19.6,3.67,5.7,0,0,0,1,0,,,,,,,,,,,,,,,,,,,,
8603,0,,,252,252,234,229,,-0.02,0.03,1.21,-0,-2,-1,0.03,,38,3113,3,29,76,0.504,0.0,444,4.81,13.0,0.0,1,20.0,3.76,5.7,0,0,0,1,0,,,,,,,,,,,,,,,,,,,,
8623,0,,,252,252,234,229,,-0.03,0.02,1.23,-0,0,-1,0.03,,38,2965,3,29,76,0.504,0.0,424,4.85,12.9,0.0,1,19.5,3.77,5.7,0,0,0,1,0,,,,,,,,,,,,,,,,,,,,
8643,0,0,2,252,252,234,230,-15,-0.03,0.02,1.24,-0,2,-1,0.04,1,38,2812,3,29,77,0.505,0.0,401,4.86,12.9,0.0,1,17.8,3.77,5.7,0,0,0,1,0,0,250,250,0,0.0,0.0,0.0,0.0,0,0,0.0,0,0.0,-1,0.0,0.0,0.0,0,0.0,0.144
8663,0,,,252,252,234,229,,-0.0,0.03,1.26,-0,2,-1,0.03,,38,2726,3,29,77,0.505,0.0,383,4.89,12.4,0.0,1,-0.3,3.82,4.9,0,0,0,1,0,,,,,,,,,,,,,,,,,,,,
8683,0,,,252,252,234,229,,0.02,0.02,1.22,0,1,-1,0.03,,38,2631,4,29,79,0.505,0.0,379,4.84,12.7,0.0,1,-0.3,3.89,4.9,0,0,0,1,0,,,,,,,,,,,,,,,,,,,,
8703,0,,,252,252,234,230,,-0.0,0.02,1.18,0,-0,-1,0.02,,38,2606,4,29,80,0.505,0.0,364,4.88,12.9,0.0,1,-0.3,3.92,4.9,0,0,0,1,0,,,,,,,,,,,,,,,,,,,,
8723,0,,,252,252,234,230,,-0.02,0.01,1.14,0,-0,-0,0.02,,38,2438,3,29,80,0.505,0.0,345,4.86,12.8,0.0,1,13.5,3.91,4.9,0,0,0,1,0,,,,,,,,,,,,,,,,,,,,
8743,0,0,1,252,252,234,230,-15,-0.01,0.01,1.13,0,-0,-0,0.01,1,38,2367,4,29,82,0.506,0.0,333,4.83,12.8,0.0,1,-0.3,3.97,4.9,0,0,0,1,0,0,250,250,0,0.0,0.0,0.0,0.0,0,0,0.0,0,0.0,-1,0.0,,0.0,0,0.0,0.1457
8763,0,,,252,252,234,229,,-0.02,0.01,1.1,0,-0,-0,0.02,,38,2221,4,29,83,0.506,0.0,322,4.86,12.9,0.0,1,13.0,4.01,4.1,0,0,0,1,0,,,,,,,,,,,,,,,,,,,,
8783,0,,,252,251,234,229,,-0.02,0.02,1.1,0,-0,-0,0.03,,38,2150,6,29,85,0.506,0.0,306,4.85,12.9,0.0,1,15.8,4.04,4.1,0,0,0,1,0,,,,,,,,,,,,,,,,,,,,
8803,0,,,252,251,234,229,,-0.02,0.02,1.09,0,-0,-0,0.03,,38,1999,8,29,86,0.507,0.0,288,4.82,12.6,0.0,1,17.2,4.1,4.1,0,0,0,1,0,,,,,,,,,,,,,,,,,,,,
8823,0,,,252,252,234,229,,-0.03,0.01,1.07,0,-0,-0,0.03,,38,1931,9,29,88,0.507,0.0,280,4.86,12.9,0.0,1,20.1,4.16,4.1,0,0,0,1,0,,,,,,,,,,,,,,,,,,,,
8843,0,-1,1,252,251,234,230,-14,-0.03,0.02,1.08,0,-0,-0,0.03,1,38,1899,9,29,90,0.507,0.0,276,4.86,12.9,0.0,1,23.0,4.24,4.1,0,0,0,1,0,0,250,250,0,0.0,0.0,0.0,0.0,0,0,0.0,0,0.0,-1,0.0,0.0,0.0,0,0.0,0.1474
8863,0,,,252,252,234,229,,-0.03,0.02,1.07,0,-1,-0,0.03,,38,1874,9,29,92,0.507,0.0,273,4.87,12.9,0.0,1,25.7,4.24,3.6,0,0,0,1,0,,,,,,,,,,,,,,,,,,,,
8883,0,,,252,252,234,230,,-0.03,0.01,1.07,0,-1,-0,0.03,,38,1965,9,29,92,0.507,0.0,280,4.85,12.7,0.0,1,25.7,4.24,3.6,0,0,0,1,0,,,,,,,,,,,,,,,,,,,,
8903,0,,,252,252,234,230,,-0.03,0.01,1.06,0,-1,-0,0.03,,38,1869,9,29,93,0.508,0.0,274,4.86,12.9,0.0,1,27.1,4.24,3.6,0,0,0,1,0,,,,,,,,,,,,,,,,,,,,
8923,0,,,252,252,234,229,,-0.03,0.02,1.07,0,-0,-0,0.04,,38,1779,10,29,94,0.508,0.0,267,4.86,12.9,0.0,1,28.5,4.24,3.6,0,0,0,1,0,,,,,,,,,,,,,,,,,,,,
8943,0,-0,1,252,252,234,229,-15,-0.03,0.02,1.05,-0,-0,-0,0.04,1,38,1755,10,29,94,0.509,0.0,272,4.88,12.9,0.0,1,28.5,4.24,3.6,0,0,0,1,0,0,250,250,0,0.0,0.0,0.0,0.0,0,0,0.0,0,0.0,-1,0.0,,0.0,0,0.0,0.149
8963,0,,,252,252,234,229,,-0.03,0.02,1.03,0,-0,-0,0.03,,38,2210,9,29,94,0.509,0.0,295,4.86,12.9,0.0,1,28.5,4.24,3.7,0,0,0,1,0,,,,,,,,,,,,,,,,,,,,
8983,0,,,252,252,234,229,,-0.02,0.01,1.01,0,-0,-0,0.02,,38,2362,10,29,94,0.508,0.0,318,4.86,12.9,0.0,1,28.5,4.24,3.7,0,0,0,1,0,,,,,,,,,,,,,,,,,,,,
9003,0,,,252,252,234,229,,-0.03,0.02,1.03,0,-0,-0,0.04,,38,2483,10,29,93,0.508,0.0,337,4.86,12.9,0.0,1,27.1,4.24,3.7,0,0,0,1,0,,,,,,,,,,,,,,,,,,,,
9023,0,,,252,252,234,230,,-0.05,0.03,1.05,-0,0,0,0.06,,38,2916,11,29,92,0.509,0.0,374,4.87,12.9,0.0,1,26.3,4.54,3.7,0,0,0,1,0,,,,,,,,,,,,,,,,,,,,
9043,0,-0,1,252,253,234,229,-14,-0.05,0.01,1.01,-0,1,0,0.05,1,38,3425,11,29,91,0.508,0.0,449,4.86,12.9,0.0,1,25.7,5.23,3.7,0,0,0,1,0,0,250,250,0,0.0,0.0,0.0,0.0,0,0,0.0,0,0.0,-1,0.0,0.0,0.0,0,0.0,0.1507
9063,0,,,252,253,234,230,,-0.05,0.03,1.06,-0,1,0,0.06,,38,3771,11,29,90,0.508,0.0,517,4.88,12.9,0.0,1,26.3,5.2,9.1,0,0,0,1,0,,,,,,,,,,,,,,,,,,,,
9083,0,,,252,252,234,229,,-0.03,0.01,1.04,-0,1,-0,0.03,,38,3916,11,29,90,0.508,0.0,545,4.81,12.8,0.0,1,26.9,5.14,9.1,0,0,0,1,0,,,,,,,,,,,,,,,,,,,,
9103,0,,,252,252,234,230,,-0.02,0.04,1.15,0,0,0,0.04,,38,4051,11,29,89,0.508,0.0,575,4.86,13.0,0.0,1,27.8,4.99,9.1,0,0,0,1,0,,,,,,,,,,,,,,,,,,,,
9123,0,,,252,252,234,230,,-0.03,0.08,1.19,0,0,0,0.08,,38,4292,11,29,88,0.507,0.0,596,4.85,13.0,0.0,1,31.3,4.79,9.1,0,0,0,1,0,,,,,,,,,,,,,,,,,,,,
9143,0,-0,2,252,252,234,229,-15,-0.04,0.11,1.22,0,0,0,0.12,1,38,4565,11,29,86,0.506,0.0,611,4.86,12.9,0.0,1,34.9,4.78,9.1,0,0,0,1,0,0,250,250,0,0.0,0.0,0.0,0.0,0,0,0.0,0,0.0,-1,0.0,,0.0,0,0.0,0.1524
9163,0,,,252,252,234,229,,-0.05,0.15,1.18,0,1,1,0.16,,38,4682,11,29,85,0.506,0.0,611,4.82,12.9,0.0,1,36.4,4.79,10.0,0,0,0,1,0,,,,,,,,,,,,,,,,,,,,
9183,0,,,252,252,234,229,,-0.01,0.1,1.09,0,1,1,0.1,,38,5249,11,29,83,0.505,0.0,613,4.79,12.5,0.0,1,40.1,5.24,10.0,0,0,0,1,0,,,,,,,,,,,,,,,,,,,,
9203,0,,,252,252,234,229,,-0.01,0.15,1.31,0,-1,-1,0.15,,38,5635,10,29,82,0.504,0.0,625,4.82,12.7,0.0,1,38.9,5.6,10.0,0,0,0,1,0,,,,,,,,,,,,,,,,,,,,
9223,0,,,252,252,234,229,,-0.03,0.2,1.52,0,-0,1,0.21,,38,5937,10,29,80,0.504,0.0,635,4.83,12.8,0.0,1,37.8,5.81,10.0,0,0,0,1,0,,,,,,,,,,,,,,,,,,,,
9243,0,0,1,252,252,234,229,-15,-0.06,0.23,1.58,0,2,3,0.24,1,38,5986,10,29,78,0.503,0.0,628,4.83,12.7,0.0,1,37.4,5.72,10.0,0,0,0,1,0,0,250,250,0,0.0,0.0,0.0,0.0,0,0,0.0,0,0.0,-1,0.0,0.0,0.0,0,0.0,0.154
9263,0,,,252,252,234,230,,-0.1,0.26,1.56,0,3,4,0.28,,38,5992,10,29,76,0.503,0.0,638,4.81,12.7,0.0,1,37.0,5.6,15.5,0,0,0,1,0,,,,,,,,,,,,,,,,,,,,
9283,0,,,252,252,234,230,,-0.13,0.29,1.51,0,3,5,0.32,,38,5950,10,29,75,0.502,0.0,634,4.87,12.9,0.0,1,36.8,5.44,15.5,0,0,0,1,0,,,,,,,,,,,,,,,,,,,,
9303,0,,,252,252,234,230,,-0.16,0.3,1.39,0,5,7,0.33,,38,5965,10,29,74,0.502,0.0,634,4.85,12.8,0.0,1,36.6,5.3,15.5,0,0,0,1,0,,,,,,,,,,,,,,,,,,,,
9323,0,,,252,252,234,229,,-0.18,0.3,1.29,0,6,8,0.36,,38,5978,10,29,73,0.502,0.0,627,4.83,12.8,0.0,1,36.4,5.14,15.5,0,0,0,1,0,,,,,,,,,,,,,,,,,,,,
9343,0,-1,1,252,252,234,229,-15,-0.21,0.29,1.19,0,7,10,0.36,1,38,5788,10,29,73,0.502,0.0,628,4.85,12.9,0.0,1,36.7,4.97,15.5,0,0,0,1,0,0,250,250,0,0.0,0.0,0.0,0.0,0,0,0.0,0,0.0,-1,0.0,,0.0,0,0.0,0.1557
9363,0,,,252,252,234,229,,-0.2,0.21,1.1,0,7,10,0.29,,39,5622,10,29,72,0.501,0.0,627,4.78,12.4,0.0,1,36.6,4.72,12.4,0,0,0,1,0,,,,,,,,,,,,,,,,,,,,
9383,0,,,252,252,234,229,,-0.15,0.14,1.09,-0,4,5,0.21,,39,5652,9,29,72,0.501,0.0,626,4.67,12.6,0.0,1,36.5,4.7,12.4,0,0,0,1,0,,,,,,,,,,,,,,,,,,,,
9403,0,,,252,252,234,229,,-0.1,0.13,1.32,-0,1,1,0.16,,39,5905,9,29,71,0.501,0.0,629,4.76,12.5,0.0,1,36.1,4.82,12.4,0,0,0,1,0,,,,,,,,,,,,,,,,,,,,
9423,0,,,252,252,234,230,,-0.08,0.17,1.52,-0,1,0,0.19,,39,5769,9,29,71,0.501,0.0,620,4.77,12.6,0.0,1,36.3,4.57,12.4,0,0,0,1,0,,,,,,,,,,,,,,,,,,,,
9443,0,0,1,252,252,234,230,-15,-0.13,0.2,1.67,-0,4,3,0.24,1,39,5568,9,29,71,0.501,0.0,622,4.94,12.9,0.0,1,36.5,4.45,12.4,0,0,0,1,0,0,250,250,0,0.0,0.0,0.0,0.0,0,0,0.0,0,0.0,-1,0.0,0.0,0.0,0,0.0,0.1574
9463,0,,,252,252,234,229,,-0.15,0.15,1.54,0,7,6,0.21,,39,5781,9,29,70,0.501,0.0,627,4.83,12.8,0.0,1,36.1,4.39,11.5,0,0,0,1,0,,,,,,,,,,,,,,,,,,,,
9483,0,,,252,252,234,229,,-0.13,0.08,1.42,0,6,5,0.16,,39,5795,9,29,70,0.501,0.0,621,4.72,12.4,0.0,1,36.1,4.36,11.5,0,0,0,1,0,,,,,,,,,,,,,,,,,,,,
9503,0,,,252,252,234,230,,-0.07,0.03,1.43,-0,3,2,0.08,,39,5597,9,29,70,0.501,0.0,617,4.77,12.4,0.0,1,36.2,4.26,11.5,0,0,0,1,0,,,,,,,,,,,,,,,,,,,,
9523,0,,,252,252,234,229,,-0.06,0.11,1.63,-0,1,0,0.13,,39,5612,9,29,70,0.501,0.0,625,4.87,12.9,0.0,1,36.2,4.25,11.5,0,0,0,1,0,,,,,,,,,,,,,,,,,,,,
9543,0,-1,2,252,252,234,229,-14,-0.09,0.18,1.77,-0,3,3,0.2,1,39,5885,9,29,70,0.501,0.0,638,4.91,12.9,0.0,1,35.9,4.19,11.5,0,0,0,1,0,0,250,250,0,0.0,0.0,0.0,0.0,0,0,0.0,0,0.0,-1,0.0,,0.0,0,0.0,0.159
9563,0,,,252,252,234,229,,-0.12,0.18,1.64,0,5,6,0.22,,39,5735,9,29,70,0.501,0.0,636,4.92,12.9,0.0,1,36.1,4.22,11.4,0,0,0,1,0,,,,,,,,,,,,,,,,,,,,
9583,0,,,252,252,234,229,,-0.12,0.11,1.51,0,5,7,0.16,,39,5552,9,29,69,0.501,0.0,626,4.8,12.7,0.0,1,36.1,4.02,11.4,0,0,0,1,0,,,,,,,,,,,,,,,,,,,,
9603,0,,,252,252,234,230,,-0.07,0.04,1.49,0,1,3,0.08,,39,5879,9,29,69,0.501,0.0,625,4.77,12.5,0.0,1,35.7,4.09,11.4,0,0,0,1,0,,,,,,,,,,,,,,,,,,,,
9623,0,,,252,252,234,229,,-0.03,0.02,1.69,0,-1,-1,0.04,,39,5833,9,29,70,0.501,0.0,627,4.8,12.5,0.0,1,36.0,4.03,11.4,0,0,0,1,0,,,,,,,,,,,,,,,,,,,,
9643,0,-0,1,252,252,234,229,-15,-0.05,0.08,1.86,0,-1,-2,0.09,1,39,5683,9,29,69,0.501,0.0,627,4.94,12.9,0.0,1,36.0,3.97,11.4,0,0,0,1,0,0,250,250,0,0.0,0.0,0.0,0.0,0,0,0.0,0,0.0,-1,0.0,0.0,0.0,0,0.0,0.1607
9663,0,,,252,252,234,229,,-0.09,0.09,1.76,0,3,2,0.13,,39,5714,9,29,69,0.501,0.0,621,4.88,12.9,0.0,1,36.0,3.94,10.3,0,0,0,1,0,,,,,,,,,,,,,,,,,,,,
9683,0,,,252,252,234,230,,-0.12,0.07,1.63,0,6,5,0.14,,39,5835,9,29,69,0.502,0.0,632,4.89,12.9,0.0,1,35.8,3.94,10.3,0,0,0,1,0,,,,,,,,,,,,,,,,,,,,
9703,0,,,252,252,234,229,,-0.11,0.03,1.5,0,6,5,0.11,,39,5644,9,29,69,0.501,0.0,621,4.88,12.8,0.0,1,36.0,3.84,10.3,0,0,0,1,0,,,,,,,,,,,,,,,,,,,,
9723,0,,,252,252,234,230,,-0.04,0.01,1.63,0,3,1,0.04,,39,5605,9,29,69,0.501,0.0,623,4.71,12.7,0.0,1,36.0,3.81,10.3,0,0,0,1,0,,,,,,,,,,,,,,,,,,,,
9743,0,-1,2,252,252,234,229,-14,-0.01,0.05,1.81,-0,-1,-2,0.05,1,39,5888,9,29,69,0.501,0.0,622,4.78,12.6,0.0,1,35.8,3.89,10.3,0,0,0,1,0,0,250,250,0,0.0,0.0,0.0,0.0,0,0,0.0,0,0.0,-1,0.0,,0.0,0,0.0,0.1624
9763,0,,,252,252,234,230,,-0.03,0.11,1.98,-0,-1,-2,0.12,,39,5771,9,29,70,0.501,0.0,623,4.82,12.7,0.0,1,36.1,3.95,10.7,0,0,0,1,0,,,,,,,,,,,,,,,,,,,,
9783,0,,,252,252,234,229,,-0.08,0.11,1.83,0,1,1,0.14,,39,5647,9,29,69,0.502,0.0,629,4.88,12.9,0.0,1,36.0,3.82,10.7,0,0,0,1,0,,,,,,,,,,,,,,,,,,,,
9803,0,,,252,252,234,229,,-0.11,0.06,1.69,0,4,5,0.13,,39,5939,9,29,69,0.502,0.0,632,4.82,12.8,0.0,1,35.7,3.91,10.7,0,0,0,1,0,,,,,,,,,,,,,,,,,,,,
9823,0,,,252,252,234,229,,-0.13,0.03,1.56,0,5,6,0.13,,39,5861,9,29,69,0.501,0.0,632,4.85,12.9,0.0,1,35.8,3.88,10.7,0,0,0,1,0,,,,,,,,,,,,,,,,,,,,
9843,0,-1,2,252,252,234,230,-14,-0.1,-0.02,1.44,0,4,5,0.1,1,39,5688,9,29,69,0.501,0.0,628,4.82,12.8,0.0,1,36.0,3.83,10.7,0,0,0,1,0,0,250,250,0,0.0,0.0,0.0,0.0,0,0,0.0,0,0.0,-1,0.0,0.0,0.0,0,0.0,0.164
9863,0,,,252,252,234,229,,-0.05,-0.07,1.6,-0,1,1,0.08,,39,5909,9,29,69,0.501,0.0,630,4.76,12.5,0.0,1,35.7,3.91,10.4,0,0,0,1,0,,,,,,,,,,,,,,,,,,,,
9883,0,,,252,253,234,230,,0.0,-0.1,1.79,-0,-2,-2,0.1,,39,5948,9,29,69,0.501,0.0,634,4.79,12.5,0.0,1,35.7,3.92,10.4,0,0,0,1,0,,,,,,,,,,,,,,,,,,,,
9903,0,,,252,252,234,229,,0.04,-0.1,1.96,-0,-4,-4,0.11,,39,5848,9,29,69,0.501,0.0,616,4.78,12.5,0.0,1,35.8,3.88,10.4,0,0,0,1,0,,,,,,,,,,,,,,,,,,,,
9923,0,,,252,252,234,229,,0.05,-0.07,2.11,-0,-4,-6,0.08,,39,5901,9,29,69,0.501,0.0,625,4.84,12.8,0.0,1,35.7,3.91,10.4,0,0,0,1,0,,,,,,,,,,,,,,,,,,,,
9943,0,0,2,252,252,234,229,-15,0.04,-0.02,2.26,-0,-4,-7,0.05,1,39,5911,9,29,69,0.5,0.0,632,4.8,12.8,0.0,1,35.7,3.91,10.4,0,0,0,1,0,0,250,250,0,0.0,0.0,0.0,0.0,0,0,0.0,0,0.0,-1,0.0,,0.0,0,0.0,0.1657
9963,0,,,252,252,234,229,,0.01,0.06,2.39,-0,-2,-5,0.06,,39,5748,9,29,69,0.5,0.0,626,4.84,12.8,0.0,1,35.9,3.86,10.3,0,0,0,1,0,,,,,,,,,,,,,,,,,,,,
9983,0,,,252,252,234,229,,-0.04,0.08,2.21,-0,2,-1,0.09,,39,5804,9,29,69,0.501,0.0,622,4.91,12.9,0.0,1,35.8,3.87,10.3,0,0,0,1,0,,,,,,,,,,,,,,,,,,,,
10003,0,,,252,252,234,230,,-0.08,0.06,2.04,-0,5,2,0.1,,39,5801,9,29,69,0.501,0.0,627,4.91,13.0,0.0,1,35.8,3.87,10.3,0,0,0,1,0,,,,,,,,,,,,,,,,,,,,
10023,0,,,252,252,234,229,,-0.05,-0.02,1.88,-0,5,2,0.06,,39,5644,9,29,69,0.501,0.0,621,4.78,12.4,0.0,1,36.0,3.82,10.3,0,0,0,1,0,,,,,,,,,,,,,,,,,,,,
10043,0,-1,2,252,252,234,230,-14,0.01,-0.06,1.99,-0,2,-1,0.06,1,39,5853,9,29,69,0.5,0.0,622,4.71,12.7,0.0,1,35.8,3.86,10.3,0,0,0,1,0,0,250,250,0,0.0,0.0,0.0,0.0,0,0,0.0,0,0.0,-1,0.0,0.0,0.0,0,0.0,0.1674
10063,0,,,252,252,234,229,,0.05,-0.04,2.14,-0,-2,-5,0.06,,39,5746,9,29,70,0.5,0.0,618,4.77,12.6,0.0,1,36.1,3.97,10.7,0,0,0,1,0,,,,,,,,,,,,,,,,,,,,
10083,0,,,252,252,234,229,,0.04,0.04,2.28,-0,-3,-6,0.06,,39,5739,9,29,70,0.501,0.0,623,4.82,12.7,0.0,1,36.1,3.95,10.7,0,0,0,1,0,,,,,,,,,,,,,,,,,,,,
10103,0,,,252,252,234,230,,0.0,0.11,2.22,-0,-2,-3,0.11,,39,5835,9,29,70,0.501,0.0,626,4.9,12.8,0.0,1,36.0,3.98,10.7,0,0,0,1,0,,,,,,,,,,,,,,,,,,,,
10123,0,,,252,253,234,229,,-0.04,0.11,2.04,-0,0,0,0.12,,39,5772,9,29,70,0.501,0.0,632,4.85,12.8,0.0,1,36.1,3.95,10.7,0,0,0,1,0,,,,,,,,,,,,,,,,,,,,
10143,0,-1,1,252,252,234,230,-15,-0.07,0.08,1.89,-0,1,3,0.1,1,39,5914,9,29,70,0.501,0.0,637,4.87,12.7,0.0,1,35.9,4.01,10.7,0,0,0,1,0,0,250,250,0,0.0,0.0,0.0,0.0,0,0,0.0,0,0.0,-1,0.0,,0.0,0,0.0,0.169
10163,0,,,252,252,234,230,,-0.06,0.03,1.74,0,2,4,0.07,,39,5832,9,29,70,0.501,0.0,634,4.85,12.9,0.0,1,36.0,3.98,10.7,0,0,0,1,0,,,,,,,,,,,,,,,,,,,,
10183,0,,,252,252,234,229,,-0.03,-0.05,1.61,0,0,3,0.05,,39,5846,9,29,70,0.501,0.0,630,4.73,12.4,0.0,1,36.0,3.97,10.7,0,0,0,1,0,,,,,,,,,,,,,,,,,,,,
10203,0,,,252,252,234,230,,0.02,-0.09,1.78,0,-2,-0,0.1,,39,5767,9,29,70,0.501,0.0,628,4.75,12.5,0.0,1,36.1,3.93,10.7,0,0,0,1,0,,,,,,,,,,,,,,,,,,,,
10223,0,,,252,252,234,229,,0.04,-0.08,1.95,0,-4,-4,0.09,,39,5852,9,29,70,0.501,0.0,623,4.75,12.5,0.0,1,36.0,3.94,10.7,0,0,0,1,0,,,,,,,,,,,,,,,,,,,,
10243,0,0,2,252,253,234,229,-15,0.02,-0.01,2.1,0,-4,-4,0.03,1,39,5753,9,29,70,0.501,0.0,625,4.79,12.7,0.0,1,36.1,3.91,10.7,0,0,0,1,0,0,250,250,0,0.0,0.0,0.0,0.0,0,0,0.0,0,0.0,-1,0.0,0.0,0.0,0,0.0,0.1707
10263,0,,,252,252,234,230,,-0.02,0.04,2.01,0,-0,-2,0.04,,39,5853,9,29,70,0.501,0.0,627,4.92,12.9,0.0,1,36.0,3.92,10.5,0,0,0,1,0,,,,,,,,,,,,,,,,,,,,
10283,0,,,252,253,234,229,,-0.07,0.04,1.86,0,4,1,0.08,,39,5769,9,29,70,0.501,0.0,629,4.89,12.9,0.0,1,36.1,3.88,10.5,0,0,0,1,0,,,,,,,,,,,,,,,,,,,,
10303,0,,,252,252,234,230,,-0.1,0.01,1.71,0,6,4,0.1,,39,5903,9,29,70,0.502,0.0,628,4.9,12.9,0.0,1,35.9,3.92,10.5,0,0,0,1,0,,,,,,,,,,,,,,,,,,,,
10323,0,,,252,252,234,230,,-0.09,-0.01,1.58,0,7,5,0.09,,39,5853,9,29,70,0.502,0.0,626,4.9,12.9,0.0,1,36.0,3.89,10.5,0,0,0,1,0,,,,,,,,,,,,,,,,,,,,
10343,0,-0,0,252,252,234,230,-15,-0.07,-0.04,1.46,0,7,5,0.08,1,39,5977,9,29,70,0.501,0.0,621,4.84,12.9,0.0,1,35.9,3.91,10.5,0,0,0,1,0,0,250,250,0,0.0,0.0,0.0,0.0,0,0,0.0,0,0.0,-1,0.0,,0.0,0,0.0,0.1724
10363,0,,,252,252,234,229,,-0.04,-0.06,1.35,0,6,4,0.07,,39,5978,9,29,70,0.501,0.0,619,4.8,12.9,0.0,1,35.9,3.91,10.8,0,0,0,1,0,,,,,,,,,,,,,,,,,,,,
10383,0,,,252,252,234,229,,-0.02,-0.08,1.24,0,5,4,0.08,,39,6038,9,29,69,0.501,0.0,626,4.8,12.9,0.0,1,35.7,3.89,10.8,0,0,0,1,0,,,,,,,,,,,,,,,,,,,,
10403,0,,,252,252,234,229,,-0.0,-0.11,1.15,0,4,4,0.11,,39,5924,9,29,69,0.501,0.0,630,4.76,12.6,0.0,1,35.7,3.77,10.8,0,0,0,1,0,,,,,,,,,,,,,,,,,,,,
10423,0,,,252,252,234,229,,0.02,-0.14,1.09,0,4,4,0.14,,39,6058,9,29,69,0.501,0.0,632,4.81,12.8,0.0,1,35.9,3.77,10.8,0,0,0,1,0,,,,,,,,,,,,,,,,,,,,
10443,0,-0,1,252,253,234,230,-14,0.02,-0.15,1.01,0,4,5,0.15,1,39,6115,9,29,69,0.501,0.0,627,4.8,12.6,0.0,1,36.2,3.78,10.8,0,0,0,1,0,0,250,250,0,0.0,0.0,0.0,0.0,0,0,0.0,0,0.0,-1,0.0,0.0,0.0,0,0.0,0.174
10463,0,,,252,252,234,230,,-0.0,-0.15,0.93,0,4,6,0.15,,39,6091,9,29,69,0.501,0.0,636,4.87,12.9,0.0,1,36.0,3.74,10.6,0,0,0,1,0,,,,,,,,,,,,,,,,,,,,
10483,0,,,252,252,234,230,,-0.03,-0.13,0.86,0,6,8,0.13,,39,6123,9,29,68,0.501,0.0,637,4.85,12.9,0.0,1,36.1,3.65,10.6,0,0,0,1,0,,,,,,,,,,,,,,,,,,,,
10503,0,,,252,252,234,229,,-0.06,-0.07,0.79,0,8,9,0.09,,39,6157,9,29,68,0.501,0.0,637,4.85,13.0,0.0,1,36.3,3.63,10.6,0,0,0,1,0,,,,,,,,,,,,,,,,,,,,
10523,0,,,252,252,234,229,,-0.07,0.02,0.74,-0,9,9,0.07,,39,6250,9,29,67,0.501,0.0,628,4.86,12.8,0.0,1,36.5,3.45,10.6,0,0,0,1,0,,,,,,,,,,,,,,,,,,,,
10543,0,0,2,252,252,234,229,-14,-0.08,0.06,0.94,-0,8,6,0.1,1,39,6173,9,29,67,0.501,0.0,625,4.79,12.6,0.0,1,36.0,3.42,10.6,0,0,0,1,0,0,250,250,0,0.0,0.0,0.0,0.0,0,0,0.0,0,0.0,-1,0.0,,0.0,0,0.0,0.1757
10563,0,,,252,252,234,229,,-0.07,0.02,1.18,-0,6,4,0.07,,39,6358,9,29,65,0.501,0.0,632,4.8,12.5,0.0,1,36.5,3.28,9.5,0,0,0,1,0,,,,,,,,,,,,,,,,,,,,
10583,0,,,252,252,234,230,,-0.07,-0.05,1.13,0,6,4,0.09,,39,6419,9,29,65,0.501,0.0,641,4.81,12.9,0.0,1,36.8,3.13,9.5,0,0,0,1,0,,,,,,,,,,,,,,,,,,,,
10603,1651927861600,,,252,252,234,230,,-0.07,-0.01,1.05,0,6,5,0.07,,39,6481,9,29,64,0.501,0.0,636,4.83,12.8,0.0,1,36.9,2.97,9.5,0,0,0,1,0,,,,,,,,,,,,,,,,,,,,
10623,1651927861620,,,252,251,234,230,,-0.05,-0.02,1.16,0,4,4,0.06,,39,6689,9,29,63,0.501,0.0,636,4.78,12.7,0.0,1,37.5,2.86,9.5,0,0,0,1,0,,,,,,,,,,,,,,,,,,,,
10643,1651927861640,-0,1,252,252,234,230,-14,-0.07,-0.01,1.07,0,4,4,0.07,1,39,6791,9,29,63,0.501,0.0,635,4.85,12.9,0.0,1,38.0,2.88,9.5,0,0,0,1,0,0,250,250,0,45.700375,4.909413,0.0,208.9,4,2,4.2,0,0.0,-1,0.0,0.0,0.0,0,0.0,0.1774
10663,1651927861660,,,252,251,234,230,,-0.06,-0.03,1.05,0,4,4,0.07,,39,7006,9,29,62,0.501,0.0,640,4.8,12.7,0.0,1,38.6,2.81,9.0,0,0,0,1,0,,,,,,,,,,,,,,,,,,,,
10683,1651927861680,,,252,252,234,230,,-0.06,-0.01,1.15,0,3,3,0.06,,39,7156,9,29,61,0.501,0.0,645,4.8,12.6,0.0,1,38.3,2.66,9.0,0,0,0,1,0,,,,,,,,,,,,,,,,,,,,
10703,1651927861696,,,252,252,234,230,,-0.07,0.05,1.06,0,4,3,0.08,,39,7200,9,29,61,0.501,0.0,644,4.84,12.7,0.0,1,38.2,2.66,9.0,0,0,0,1,0,,,,,,,,,,,,,,,,,,,,
10723,1651927861716,,,252,252,234,230,,-0.07,0.1,1.03,0,4,3,0.12,,39,7292,9,29,60,0.501,0.0,638,4.85,12.8,0.0,1,37.9,2.62,9.0,0,0,0,1,0,,,,,,,,,,,,,,,,,,,,
10743,1651927861736,-0,2,252,252,234,229,-14,-0.07,0.11,0.98,0,4,5,0.13,1,39,7413,9,29,59,0.501,0.0,644,4.83,12.8,0.0,1,37.5,2.6,9.0,0,0,0,1,0,0,250,250,0,45.700371,4.909413,0.0,201.6,6,2,2.7,0,0.0,-1,0.0,,0.0,0,0.0,0.179
10763,1651927861756,,,252,251,234,229,,-0.09,0.08,0.91,0,5,6,0.11,,39,7500,9,29,58,0.501,0.0,656,4.83,12.8,0.0,1,37.3,2.58,9.0,0,0,0,1,0,,,,,,,,,,,,,,,,,,,,
10783,1651927861776,,,252,252,234,230,,-0.09,0.1,0.92,0,5,6,0.14,,39,7606,9,29,57,0.5,0.0,658,4.72,12.8,0.0,1,37.2,2.56,9.0,0,0,0,1,0,,,,,,,,,,,,,,,,,,,,
10803,1651927861796,,,252,252,234,230,,-0.09,0.15,1.0,0,4,5,0.18,,39,7716,9,29,57,0.5,0.0,648,4.88,12.8,0.0,1,37.2,2.59,9.0,0,0,0,1,0,,,,,,,,,,,,,,,,,,,,
10823,1651927861816,,,252,252,234,230,,-0.07,0.18,1.16,-0,3,2,0.19,,39,7825,9,29,56,0.5,0.0,649,4.87,12.7,0.0,1,37.1,2.58,9.0,0,0,0,1,0,,,,,,,,,,,,,,,,,,,,
10843,1651927861836,-1,2,252,252,234,229,-15,-0.06,0.13,1.19,-0,3,2,0.14,1,39,8016,9,29,54,0.5,0.0,644,4.8,12.6,0.0,1,37.1,2.63,9.0,0,0,0,1,0,0,250,250,0,45.700371,4.909413,0.0,200.5,6,2,2.7,0,0.0,-1,0.0,0.0,0.0,0,0.0,0.1807
10863,1651927861856,,,252,252,234,229,,-0.08,0.17,1.1,-0,4,4,0.18,,39,8223,9,28,52,0.5,0.0,660,4.87,12.8,0.0,1,37.5,2.86,10.7,0,0,0,1,0,,,,,,,,,,,,,,,,,,,,
10883,1651927861876,,,252,252,234,230,,-0.08,0.13,1.21,-0,3,3,0.15,,39,8511,9,28,50,0.5,0.0,659,4.81,13.0,0.0,1,37.8,3.19,10.7,0,0,0,1,0,,,,,,,,,,,,,,,,,,,,
10903,1651927861896,,,252,252,234,230,,-0.07,0.07,1.33,-0,2,-1,0.1,,39,8553,9,28,47,0.5,0.0,662,4.82,12.6,0.0,1,37.0,3.12,10.7,0,0,0,1,0,,,,,,,,,,,,,,,,,,,,
10923,1651927861916,,,252,252,234,229,,-0.07,0.17,1.23,-0,3,3,0.19,,39,8445,9,28,47,0.5,0.0,658,4.84,13.0,0.0,1,36.9,3.01,10.7,0,0,0,1,0,,,,,,,,,,,,,,,,,,,,
10943,1651927861936,-0,2,252,252,234,230,-15,-0.07,0.13,1.25,-0,3,2,0.15,1,39,8241,8,28,46,0.5,0.0,659,4.84,12.5,0.0,1,36.0,2.72,10.7,0,0,0,1,0,0,250,250,0,45.700371,4.909413,0.0,199.6,6,2,2.7,0,0.0,-1,0.0,,0.0,0,0.0,0.1824
10963,1651927861956,,,252,252,234,230,,-0.08,0.18,1.16,-0,3,4,0.19,,39,8180,8,28,46,0.5,0.0,654,4.86,12.8,0.0,1,36.0,2.66,10.0,0,0,0,1,0,,,,,,,,,,,,,,,,,,,,
10983,1651927861976,,,252,252,234,229,,-0.05,0.19,1.26,-0,2,1,0.19,,39,7999,8,28,46,0.5,0.0,655,4.8,12.6,0.0,1,35.7,2.43,10.0,0,0,0,1,0,,,,,,,,,,,,,,,,,,,,
11003,1651927861996,,,252,252,234,230,,-0.06,0.15,1.3,-0,2,1,0.16,,39,7845,8,28,46,0.5,0.0,652,4.76,12.7,0.0,1,35.4,2.4,10.0,0,0,0,1,0,,,,,,,,,,,,,,,,,,,,
11023,1651927862016,,,252,252,234,229,,-0.07,0.07,1.2,-0,3,3,0.1,,39,7674,8,28,46,0.5,0.0,659,4.8,12.8,0.0,1,34.9,2.39,10.0,0,0,0,1,0,,,,,,,,,,,,,,,,,,,,
11043,1651927862036,-1,2,252,252,234,229,-15,-0.08,0.02,1.1,0,4,5,0.08,1,39,7530,8,28,47,0.5,0.0,648,4.78,12.9,0.0,1,35.0,2.35,10.0,0,0,0,1,0,0,250,250,0,45.700371,4.909413,0.0,198.9,6,2,2.7,0,0.0,-1,0.0,0.0,0.0,0,0.0,0.184
11063,1651927862056,,,252,251,234,229,,-0.07,0.0,1.03,0,4,5,0.07,,39,7367,8,28,48,0.5,0.0,649,4.79,12.8,0.0,1,34.7,2.33,7.9,0,0,0,1,0,,,,,,,,,,,,,,,,,,,,
11083,1651927862076,,,252,252,234,230,,-0.05,0.0,1.24,0,2,4,0.05,,39,7284,8,28,48,0.5,0.0,646,4.81,12.7,0.0,1,34.5,2.31,7.9,0,0,0,1,0,,,,,,,,,,,,,,,,,,,,
11103,1651927862096,,,252,252,234,229,,-0.06,-0.04,1.26,0,2,3,0.07,,39,7301,8,28,49,0.5,0.0,643,4.8,12.5,0.0,1,34.8,2.32,7.9,0,0,0,1,0,,,,,,,,,,,,,,,,,,,,
11123,1651927862116,,,252,252,234,229,,-0.06,-0.1,1.2,-0,2,2,0.11,,39,7376,8,28,49,0.5,0.0,641,4.81,12.6,0.0,1,35.0,2.31,7.9,0,0,0,1,0,,,,,,,,,,,,,,,,,,,,
11143,1651927862136,-1,2,252,252,234,230,-15,-0.04,-0.09,1.21,-0,1,-1,0.1,1,39,7422,8,28,49,0.5,0.0,643,4.82,12.6,0.0,1,35.1,2.31,7.9,0,0,0,1,0,0,250,250,0,45.700371,4.909412,0.0,199.0,6,2,2.7,0,0.0,-1,0.0,,0.0,0,0.0,0.1857
11163,1651927862156,,,252,252,234,230,,-0.03,-0.09,1.35,-0,1,-1,0.1,,39,7488,8,28,49,0.5,0.0,639,4.87,12.7,0.0,1,35.3,2.33,8.0,0,0,0,1,0,,,,,,,,,,,,,,,,,,,,
11183,1651927862176,,,252,252,234,230,,-0.02,-0.17,1.34,-0,1,-2,0.17,,39,7536,8,28,49,0.5,0.0,644,4.86,12.6,0.0,1,35.5,2.33,8.0,0,0,0,1,0,,,,,,,,,,,,,,,,,,,,
11203,1651927862196,,,252,252,234,229,,-0.03,-0.2,1.24,-0,0,-3,0.2,,39,7600,8,28,49,0.5,0.0,647,4.81,12.6,0.0,1,35.6,2.34,8.0,0,0,0,1,0,,,,,,,,,,,,,,,,,,,,
11223,1651927862216,,,252,253,234,230,,-0.03,-0.2,1.19,-0,-1,-5,0.2,,39,7684,8,28,49,0.5,0.0,651,4.82,12.5,0.0,1,35.8,2.35,8.0,0,0,0,1,0,,,,,,,,,,,,,,,,,,,,
11243,1651927862236,-1,2,252,252,234,229,-14,-0.03,-0.17,1.33,-0,-2,-4,0.18,1,39,7751,8,28,48,0.5,0.0,646,4.86,12.6,0.0,1,35.9,2.35,8.0,0,0,0,1,0,0,250,250,0,45.700371,4.909412,0.0,199.0,6,2,2.7,0,0.0,-1,0.0,0.0,0.0,0,0.0,0.1874
11263,1651927862256,,,252,252,234,230,,-0.03,-0.1,1.35,-0,-1,-2,0.11,,39,7828,8,28,48,0.5,0.0,651,4.75,12.8,0.0,1,36.1,2.36,8.5,0,0,0,1,0,,,,,,,,,,,,,,,,,,,,
11283,1651927862276,,,252,253,234,229,,-0.01,-0.06,1.45,-0,1,-1,0.06,,39,7914,8,28,47,0.5,0.0,650,4.81,12.8,0.0,1,36.3,2.36,8.5,0,0,0,1,0,,,,,,,,,,,,,,,,,,,,
11303,1651927862288,,,252,252,234,230,,-0.03,-0.08,1.46,-0,1,-2,0.08,,39,8057,8,28,46,0.5,0.0,654,4.81,12.6,0.0,1,35.9,2.4,8.5,0,0,0,1,0,,,,,,,,,,,,,,,,,,,,
11323,1651927862308,,,252,253,234,230,,-0.04,-0.03,1.35,0,2,2,0.05,,39,8194,8,28,45,0.5,0.0,650,4.81,12.8,0.0,1,35.3,2.56,8.5,0,0,0,1,0,,,,,,,,,,,,,,,,,,,,
11343,1651927862328,-1,3,252,252,233,229,-15,-0.03,-0.04,1.43,-0,1,-2,0.05,1,39,8351,8,28,44,0.5,0.0,647,4.85,12.6,0.0,1,34.8,2.68,8.5,0,0,0,1,0,0,250,250,0,45.700371,4.909412,0.0,198.9,6,2,2.7,0,0.0,-1,0.0,,0.0,0,0.0,0.189
11363,1651927862348,,,252,252,234,229,,-0.02,-0.01,1.46,-0,2,0,0.02,,39,8404,8,28,44,0.5,0.0,655,4.73,12.9,0.0,1,34.9,2.77,10.5,0,0,0,1,0,,,,,,,,,,,,,,,,,,,,
11383,1651927862368,,,252,252,234,229,,-0.03,-0.0,1.35,-0,0,-2,0.03,,39,8340,8,28,43,0.5,0.0,653,4.81,12.6,0.0,1,34.2,2.68,10.5,0,0,0,1,0,,,,,,,,,,,,,,,,,,,,
11403,1651927862393,,,252,252,234,230,,-0.02,-0.04,1.25,-0,1,-1,0.04,,39,8270,8,28,42,0.5,0.0,659,4.73,12.8,0.0,1,33.4,2.59,10.5,0,0,0,1,0,,,,,,,,,,,,,,,,,,,,
11423,1651927862413,,,252,252,234,230,,-0.02,-0.02,1.15,-0,1,1,0.03,,39,8278,8,28,42,0.5,0.0,650,4.78,12.7,0.0,1,33.4,2.6,10.5,0,0,0,1,0,,,,,,,,,,,,,,,,,,,,
11443,1651927862433,-1,1,252,252,234,230,-14,-0.01,-0.01,1.25,-0,1,0,0.02,1,39,8259,8,28,41,0.5,0.0,647,4.79,12.8,0.0,1,32.8,2.57,10.5,0,0,0,1,0,0,250,250,0,45.700371,4.909412,0.0,198.8,6,2,2.7,0,0.0,-1,0.0,0.0,0.0,0,0.0,0.1907
11463,1651927862453,,,252,252,234,230,,-0.02,-0.01,1.27,-0,1,1,0.02,,39,8191,8,28,41,0.5,0.0,648,4.8,12.6,0.0,1,32.6,2.52,9.5,0,0,0,1,0,,,,,,,,,,,,,,,,,,,,
11483,1651927862473,,,252,252,234,230,,-0.01,0.0,1.36,-0,1,1,0.01,,39,8173,8,28,41,0.5,0.0,657,4.8,12.8,0.0,1,32.6,2.48,9.5,0,0,0,1,0,,,,,,,,,,,,,,,,,,,,
11503,1651927862493,,,252,253,234,230,,-0.02,-0.01,1.39,-0,0,-1,0.02,,39,8205,8,28,41,0.5,0.0,658,4.81,12.6,0.0,1,32.7,1.38,9.5,0,0,0,1,0,,,,,,,,,,,,,,,,,,,,
