"Interval"|"ms"|0|0|1,"Utc"|"ms"|0|0|1,"Brake_F"|"Bar"|0|2000|10,"Brake_R"|"Bar"|0|2000|10,"Height_RF"|"mm"|0|255|10,"Height_LF"|"mm"|0|255|10,"Height_LR"|"mm"|0|80|10,"Height_RR"|"mm"|0|255|10,"Steering"|"deg"|-100|100|10,"AccelX"|"G"|-3.0|3.0|50,"AccelY"|"G"|-3.0|3.0|50,"AccelZ"|"G"|-3.0|3.0|50,"Yaw"|"Deg/Sec"|-120|120|50,"Pitch"|"Deg/Sec"|-120|120|50,"Roll"|"Deg/Sec"|-120|120|50,"Gsum"|"G"|0.0|3.0|50,"Log_Button"|""|0.0|10.0|10,"WaterTemp"|"C"|0|150|50,"RPM"|"tr/min"|0|14000|50,"TPS"|"%"|0|100|50,"AirTemp"|"C"|0|150|50,"MAP"|"KPa"|0|100|50,"Lambda"|""|0.5|1.5|50,"SpeedDTA"|"kph"|0.0|250.0|50,"OilPress"|"KPa"|0|1500|50,"FuelPressur"|"Bar"|0.0|10.0|50,"Batterie"|"V"|0.0|20.0|50,"ConsoKm"|"L/100km"|0.0|200.0|50,"Gear"|""|0|6|50,"AdvIgnition"|"Deg"|-20.0|70.0|50,"Injection"|"ms"|0.0|10.0|50,"ConsoHr"|"L/Hr"|0.0|10000.0|50,"LC_But_Pres"|""|0|1|50,"LC_Active"|""|0|1|50,"TractionOn"|""|0|1|50,"TractionWet"|""|0|1|50,"FanOn"|""|0|1|50,"RD_Speed"|"km/h"|-30|250|50,"RUD_Speed"|"km/h"|-30|250|50,"LD_Speed"|"km/h"|-30|250|50,"LUD_Speed"|"km/h"|-30|250|50,"Latitude"|"Degrees"|-180.0|180.0|10,"Longitude"|"Degrees"|-180.0|180.0|10,"Speed"|"kph"|0.0|150.0|10,"Altitude"|"m"|0.0|4000.0|10,"GPSSats"|""|0|20|10,"GPSQual"|""|0|5|10,"GPSDOP"|""|0.0|20.0|10,"LapCount"|""|0|0|10,"LapTime"|"Min"|0.0|0.0|10,"Sector"|""|0|0|10,"SectorTime"|"Min"|0.0|0.0|10,"PredTime"|"Min"|0.0|0.0|5,"ElapsedTime"|"Min"|0.0|0.0|10,"CurrentLap"|""|0|0|10,"Distance"|"km"|0.0|0.0|10,"SessionTime"|"Min"|0.0|0.0|10
32063,1625652219947,,,,,,,,0.03,0.02,1.92,0,2,6,0.04,,70,5530,8,29,57,0.631,0.0,578,4.71,13.3,0.0,1,32.9,2.53,6.5,0,0,0,1,0,0,250,250,0,,,,,,,,,,,,,,,,
32083,1625652219967,,,,,,,,-0.06,-0.0,1.76,0,2,5,0.06,,70,5537,8,29,58,0.623,0.0,575,4.82,13.5,0.0,1,33.2,1.4,6.5,0,0,0,1,0,0,250,250,0,,,,,,,,,,,,,,,,
32103,1625652219987,,,,,,,,0.07,0.02,1.95,0,-7,-2,0.07,,70,5524,8,29,58,0.614,0.0,578,4.78,13.5,0.0,1,33.2,2.54,6.4,0,0,0,1,0,0,250,250,0,,,,,,,,,,,,,,,,
32123,1625652219997,,,,,,,,0.05,0.01,2.03,0,1,3,0.05,,70,5517,8,29,58,0.606,0.0,575,4.71,13.3,0.0,1,33.2,2.54,6.4,0,0,0,1,0,0,250,250,0,,,,,,,,,,,,,,,,
32143,1625652220017,0,0,48,49,33,32,1,-0.04,0.0,1.86,0,3,5,0.04,1,70,5535,8,29,58,0.598,0.0,571,4.77,13.3,0.0,1,33.2,2.53,6.4,0,0,0,1,0,0,250,250,0,52.961891,6.522978,0.0,35.2,10,3,2.5,0,0.0,-1,0.0,,0.0,0,0.0,0.5357
32163,1625652220037,,,,,,,,0.1,0.01,2.04,-0,-5,-3,0.1,,70,5513,8,29,58,0.592,0.0,571,4.81,13.5,0.0,1,33.2,2.55,6.4,0,0,0,1,0,0,250,250,0,,,,,,,,,,,,,,,,
32183,1625652220057,,,,,,,,0.11,-0.01,2.2,0,-0,0,0.11,,70,5555,8,29,58,0.582,0.0,576,4.73,13.4,0.0,1,33.2,2.52,6.4,0,0,0,1,0,0,250,250,0,,,,,,,,,,,,,,,,
32203,1625652220077,,,,,,,,-0.05,-0.03,2.02,0,5,4,0.05,,70,5503,8,29,58,0.578,0.0,566,4.82,13.4,0.0,1,33.2,1.42,6.4,0,0,0,1,0,0,250,250,0,,,,,,,,,,,,,,,,
32223,1625652220107,,,,,,,,0.05,-0.01,2.18,1,-6,-3,0.05,,70,5588,8,29,58,0.57,0.0,570,4.81,13.5,0.0,1,33.2,2.5,6.4,0,0,0,1,0,0,250,250,0,,,,,,,,,,,,,,,,
32243,1625652220127,1,0,48,49,32,32,1,0.15,0.0,2.33,1,-7,-4,0.15,1,70,5555,8,29,58,0.56,0.0,581,4.8,13.5,0.0,1,33.2,2.52,6.4,0,0,0,1,0,0,250,250,0,52.961891,6.522978,0.0,35.2,10,3,1.8,0,0.0,-1,0.0,0.0,0.0,0,0.0,0.5374
32263,1625652220147,,,,,,,,0.0,-0.02,2.14,1,2,4,0.02,,70,5565,8,29,58,0.553,0.0,578,4.78,13.3,0.0,1,33.2,1.38,6.4,0,0,0,1,0,0,250,250,0,,,,,,,,,,,,,,,,
32283,1625652220167,,,,,,,,-0.02,-0.04,1.96,1,-1,2,0.04,,70,5580,8,29,58,0.542,0.0,568,4.81,13.4,0.0,1,33.2,2.5,6.4,0,0,0,1,0,0,250,250,0,,,,,,,,,,,,,,,,
32303,1625652220187,,,,,,,,0.12,0.01,2.13,1,-9,-4,0.12,,70,5580,8,29,58,0.531,0.0,572,4.85,13.5,0.0,1,33.2,2.5,6.4,0,0,0,1,0,0,250,250,0,,,,,,,,,,,,,,,,
32323,1625652220208,,,,,,,,0.1,-0.01,2.15,1,-2,2,0.1,,70,5605,8,29,58,0.528,0.0,587,4.72,13.2,0.0,1,33.2,1.35,6.4,0,0,0,1,0,0,250,250,0,,,,,,,,,,,,,,,,
32343,1625652220228,0,-1,48,49,33,32,1,-0.02,-0.02,1.97,1,2,6,0.03,1,70,5570,8,29,58,0.525,0.0,580,4.78,13.3,0.0,1,33.2,1.38,6.4,0,0,0,1,0,0,250,250,0,52.961891,6.522978,0.0,35.2,10,3,1.8,0,0.0,-1,0.0,,0.0,0,0.0,0.539
32363,1625652220248,,,,,,,,0.05,-0.03,2.14,1,-6,-1,0.06,,70,5608,8,29,58,0.522,0.0,575,4.85,13.6,0.0,1,33.2,1.35,6.4,0,0,0,1,0,0,250,250,0,,,,,,,,,,,,,,,,
32383,1625652220268,,,,,,,,0.14,-0.02,2.29,1,-9,-4,0.14,,70,5583,8,29,58,0.519,0.0,585,4.81,13.5,0.0,1,33.2,2.5,6.4,0,0,0,1,0,0,250,250,0,,,,,,,,,,,,,,,,
32403,1625652220288,,,,,,,,0.05,-0.0,2.1,1,-1,2,0.05,,70,5607,8,29,58,0.517,0.0,578,4.73,13.2,0.0,1,33.2,2.48,6.4,0,0,0,1,0,0,250,250,0,,,,,,,,,,,,,,,,
32423,1625652220306,,,,,,,,-0.03,0.01,1.93,1,0,3,0.03,,70,5595,8,29,58,0.513,0.0,572,4.75,13.3,0.0,1,33.2,2.49,6.4,0,0,0,1,0,0,250,250,0,,,,,,,,,,,,,,,,
32443,1625652220326,0,1,48,49,33,32,0,0.09,0.01,2.1,1,-7,-4,0.09,1,70,5615,8,29,58,0.512,0.0,577,4.81,13.5,0.0,1,33.2,1.35,6.4,0,0,0,1,0,0,250,250,0,52.961891,6.522978,0.0,35.2,10,3,2.0,0,0.0,-1,0.0,0.0,0.0,0,0.0,0.5407
32463,1625652220346,,,,,,,,0.14,0.02,2.26,0,-6,-4,0.14,,70,5632,8,29,58,0.509,0.0,587,4.79,13.5,0.0,1,33.2,2.47,6.4,0,0,0,1,0,0,250,250,0,,,,,,,,,,,,,,,,
32483,1625652220366,,,,,,,,0.03,0.0,2.07,1,1,3,0.03,,70,5627,8,29,58,0.506,0.0,587,4.76,13.3,0.0,1,33.2,1.34,6.4,0,0,0,1,0,0,250,250,0,,,,,,,,,,,,,,,,
32503,1625652220386,,,,,,,,-0.07,-0.01,1.9,1,2,4,0.07,,70,5666,8,29,58,0.503,0.0,581,4.82,13.4,0.0,1,33.2,2.44,6.4,0,0,0,1,0,0,250,250,0,,,,,,,,,,,,,,,,
32523,1625652220406,,,,,,,,0.04,0.01,2.07,1,-7,-4,0.04,,70,5634,8,29,57,0.5,0.0,580,4.83,13.5,0.0,1,33.0,2.47,6.4,0,0,0,1,0,0,250,250,0,,,,,,,,,,,,,,,,
32543,1625652220426,0,2,48,49,33,32,1,0.13,0.0,2.23,1,-9,-6,0.13,0,70,5668,8,29,57,0.5,0.0,586,4.8,13.5,0.0,1,33.0,2.45,6.4,0,0,0,1,0,0,250,250,0,52.961891,6.522978,0.0,35.2,10,3,2.0,0,0.0,-1,0.0,,0.0,0,0.0,0.5424
32563,1625652220446,,,,,,,,0.05,0.0,2.04,1,-2,0,0.05,,70,5627,8,29,57,0.5,0.0,588,4.76,13.4,0.0,1,33.0,2.47,6.4,0,0,0,1,0,0,250,250,0,,,,,,,,,,,,,,,,
32583,1625652220466,,,,,,,,-0.05,-0.02,1.87,1,3,4,0.06,,70,5681,8,29,57,0.5,0.0,584,4.75,13.3,0.0,1,33.0,1.31,6.3,0,0,0,1,0,0,250,250,0,,,,,,,,,,,,,,,,
32603,1625652220486,,,,,,,,0.01,-0.0,2.05,1,-0,0,0.01,,70,5640,8,29,58,0.5,0.0,578,4.82,13.4,0.0,1,33.2,2.47,6.3,0,0,0,1,0,0,250,250,0,,,,,,,,,,,,,,,,
32623,1625652220506,,,,,,,,0.12,0.0,2.21,1,-7,-5,0.12,,70,5681,8,29,57,0.5,0.0,587,4.76,13.5,0.0,1,33.0,2.44,6.3,0,0,0,1,0,0,250,250,0,,,,,,,,,,,,,,,,
32643,1625652220526,1,1,48,49,32,32,1,0.1,0.02,2.33,1,-4,-3,0.1,0,70,5661,8,29,57,0.5,0.0,590,4.73,13.3,0.0,1,33.0,2.46,6.3,0,0,0,1,0,0,250,250,0,52.961891,6.522978,0.0,35.2,10,3,2.0,0,0.0,-1,0.0,0.0,0.0,0,0.0,0.544
32663,1625652220546,,,,,,,,-0.03,0.0,2.13,1,2,4,0.03,,70,5678,8,29,57,0.5,0.0,585,4.73,13.3,0.0,1,33.0,1.31,6.3,0,0,0,1,0,0,250,250,0,,,,,,,,,,,,,,,,
32683,1625652220566,,,,,,,,-0.07,-0.0,1.95,1,3,3,0.07,,70,5692,8,29,57,0.5,0.0,585,4.85,13.5,0.0,1,33.0,2.43,6.4,0,0,0,1,0,0,250,250,0,,,,,,,,,,,,,,,,
32703,1625652220586,,,,,,,,0.02,-0.01,2.12,0,-2,-4,0.03,,70,5721,8,29,57,0.5,0.0,588,4.82,13.5,0.0,1,33.0,2.41,6.4,0,0,0,1,0,0,250,250,0,,,,,,,,,,,,,,,,
32723,1625652220606,,,,,,,,0.1,-0.01,2.28,0,-6,-7,0.1,,70,5723,8,29,57,0.5,0.0,595,4.76,13.5,0.0,1,33.0,2.41,6.4,0,0,0,1,0,0,250,250,0,,,,,,,,,,,,,,,,
32743,1625652220626,1,2,48,49,33,32,0,0.1,0.0,2.41,0,-4,-5,0.1,0,70,5728,8,29,57,0.5,0.0,586,4.79,13.5,0.0,1,33.0,2.41,6.4,0,0,0,1,0,0,250,250,0,52.961891,6.522978,0.0,35.2,10,3,1.8,0,0.0,-1,0.0,,0.0,0,0.0,0.5457
32763,1625652220646,,,,,,,,-0.0,0.02,2.21,0,1,0,0.02,,70,5712,8,29,57,0.5,0.0,589,4.76,13.3,0.0,1,33.0,1.29,6.4,0,0,0,1,0,0,250,250,0,,,,,,,,,,,,,,,,
32783,1625652220666,,,,,,,,-0.06,0.03,2.02,0,5,3,0.07,,70,5711,8,29,57,0.5,0.0,595,4.76,13.3,0.0,1,33.0,2.42,6.4,0,0,0,1,0,0,250,250,0,,,,,,,,,,,,,,,,
32803,1625652220686,,,,,,,,0.02,0.03,2.19,-0,-0,-2,0.03,,70,5707,8,29,57,0.5,0.0,591,4.81,13.4,0.0,1,33.0,1.29,6.4,0,0,0,1,0,0,250,250,0,,,,,,,,,,,,,,,,
32823,1625652220706,,,,,,,,0.13,0.03,2.34,-0,-7,-6,0.13,,70,5699,8,29,57,0.5,0.0,587,4.79,13.5,0.0,1,33.0,2.43,6.4,0,0,0,1,0,0,250,250,0,,,,,,,,,,,,,,,,
32843,1625652220726,-1,2,48,49,33,32,2,0.12,0.01,2.48,0,-6,-6,0.12,0,70,5702,8,29,57,0.5,0.0,591,4.79,13.5,0.0,1,33.0,2.43,6.4,0,0,0,1,0,0,250,250,0,52.961891,6.522978,0.0,35.2,10,3,1.8,0,0.0,-1,0.0,0.0,0.0,0,0.0,0.5474
32863,1625652220746,,,,,,,,-0.01,-0.02,2.27,0,0,0,0.02,,70,5674,8,29,57,0.5,0.0,594,4.76,13.3,0.0,1,33.0,1.32,6.4,0,0,0,1,0,0,250,250,0,,,,,,,,,,,,,,,,
32883,1625652220766,,,,,,,,-0.09,-0.01,2.08,-0,4,3,0.09,,70,5656,8,29,57,0.5,0.0,588,4.81,13.4,0.0,1,33.0,2.46,6.4,0,0,0,1,0,0,250,250,0,,,,,,,,,,,,,,,,
32903,1625652220786,,,,,,,,0.02,-0.01,2.24,-0,-3,-4,0.03,,70,5685,8,29,57,0.5,0.0,586,4.83,13.5,0.0,1,33.0,1.31,6.4,0,0,0,1,0,0,250,250,0,,,,,,,,,,,,,,,,
32923,1625652220806,,,,,,,,0.12,-0.02,2.39,-0,-8,-7,0.12,,70,5669,8,29,57,0.5,0.0,583,4.8,13.5,0.0,1,33.0,2.45,6.4,0,0,0,1,0,0,250,250,0,,,,,,,,,,,,,,,,
32943,1625652220826,0,3,48,49,33,32,-0,0.08,-0.02,2.19,0,-4,-4,0.08,0,70,5674,8,29,57,0.5,0.0,591,4.74,13.2,0.0,1,33.0,1.32,6.4,0,0,0,1,0,0,250,250,0,52.961891,6.522978,0.0,35.2,10,3,1.8,0,0.0,-1,0.0,,0.0,0,0.0,0.549
32963,1625652220846,,,,,,,,-0.04,-0.04,2.0,0,2,2,0.05,,70,5671,8,29,57,0.5,0.0,586,4.75,13.2,0.0,1,33.0,2.45,6.4,0,0,0,1,0,0,250,250,0,,,,,,,,,,,,,,,,
32983,1625652220866,,,,,,,,-0.01,-0.03,1.84,0,1,-1,0.03,,70,5650,8,29,57,0.5,0.0,577,4.82,13.5,0.0,1,33.0,1.33,6.4,0,0,0,1,0,0,250,250,0,,,,,,,,,,,,,,,,
33003,1625652220886,,,,,,,,0.11,-0.01,2.02,0,-7,-6,0.11,,70,5640,8,29,57,0.5,0.0,585,4.79,13.5,0.0,1,33.0,2.47,6.4,0,0,0,1,0,0,250,250,0,,,,,,,,,,,,,,,,
33023,1625652220906,,,,,,,,0.1,0.01,2.18,0,-6,-5,0.1,,70,5618,8,29,57,0.5,0.0,590,4.79,13.5,0.0,1,32.9,2.48,6.4,0,0,0,1,0,0,250,250,0,,,,,,,,,,,,,,,,
33043,1625652220926,0,0,48,49,32,32,1,-0.03,0.0,2.0,0,1,2,0.03,0,70,5617,8,29,57,0.5,0.0,588,4.71,13.2,0.0,1,32.9,2.49,6.4,0,0,0,1,0,0,250,250,0,52.961891,6.522978,0.0,35.2,10,3,1.8,0,0.0,-1,0.0,0.0,0.0,0,0.0,0.5507
33063,1625652220946,,,,,,,,-0.0,-0.03,1.87,-0,3,1,0.03,,70,5613,8,29,57,0.5,0.0,574,4.83,13.5,0.0,1,32.9,2.49,6.4,0,0,0,1,0,0,250,250,0,,,,,,,,,,,,,,,,
33083,1625652220966,,,,,,,,0.11,-0.02,2.04,-0,-6,-5,0.11,,70,5573,8,29,57,0.5,0.0,579,4.82,13.6,0.0,1,32.9,2.52,6.5,0,0,0,1,0,0,250,250,0,,,,,,,,,,,,,,,,
33103,1625652220986,,,,,,,,0.05,-0.01,1.87,-0,-0,-2,0.05,,70,5602,8,29,57,0.5,0.0,589,4.72,13.2,0.0,1,32.9,1.37,6.5,0,0,0,1,0,0,250,250,0,,,,,,,,,,,,,,,,
33123,1625652220998,,,,,,,,-0.04,-0.0,1.72,-0,5,3,0.04,,70,5562,8,29,57,0.5,0.0,575,4.78,13.2,0.0,1,32.9,1.4,6.5,0,0,0,1,0,0,250,250,0,,,,,,,,,,,,,,,,
33143,1625652221018,0,1,48,49,33,32,1,0.09,-0.0,1.91,-0,-3,-3,0.09,0,70,5563,8,29,57,0.5,0.0,568,4.81,13.5,0.0,1,32.9,2.52,6.5,0,0,0,1,0,0,250,250,0,52.961891,6.522978,0.0,35.2,10,3,1.8,0,0.0,-1,0.0,,0.0,0,0.0,0.5524
33163,1625652221038,,,,,,,,0.12,0.01,2.08,-0,-6,-5,0.12,,70,5545,8,29,57,0.5,0.0,584,4.73,13.4,0.0,1,32.9,1.4,6.5,0,0,0,1,0,0,250,250,0,,,,,,,,,,,,,,,,
33183,1625652221058,,,,,,,,-0.04,-0.01,1.91,0,2,3,0.04,,70,5539,8,29,57,0.5,0.0,577,4.72,13.2,0.0,1,32.9,2.54,6.5,0,0,0,1,0,0,250,250,0,,,,,,,,,,,,,,,,
33203,1625652221078,,,,,,,,0.04,-0.02,2.04,0,0,1,0.05,,70,5534,8,29,58,0.5,0.0,571,4.78,13.4,0.0,1,33.2,2.53,6.5,0,0,0,1,0,0,250,250,0,,,,,,,,,,,,,,,,
33223,1625652221106,,,,,,,,0.12,0.01,2.2,0,-7,-4,0.12,,70,5488,8,29,57,0.5,0.0,572,4.74,13.4,0.0,1,32.9,1.44,6.5,0,0,0,1,0,0,250,250,0,,,,,,,,,,,,,,,,
33243,1625652221126,0,2,48,49,33,32,0,-0.04,-0.03,2.02,0,2,4,0.05,0,70,5544,8,29,58,0.5,0.0,577,4.75,13.3,0.0,1,33.2,1.4,6.5,0,0,0,1,0,0,250,250,0,52.961891,6.522978,0.0,35.2,10,3,1.8,0,0.0,-1,0.0,0.0,0.0,0,0.0,0.5541
33263,1625652221146,,,,,,,,0.03,-0.05,1.85,-0,2,2,0.05,,70,5480,8,29,58,0.5,0.0,566,4.81,13.4,0.0,1,33.1,2.57,6.5,0,0,0,1,0,0,250,250,0,,,,,,,,,,,,,,,,
33283,1625652221166,,,,,,,,0.11,0.0,2.03,-1,-6,-4,0.11,,70,5503,8,29,58,0.5,0.0,565,4.74,13.4,0.0,1,33.2,2.55,6.5,0,0,0,1,0,0,250,250,0,,,,,,,,,,,,,,,,
33303,1625652221186,,,,,,,,0.06,0.01,2.02,-0,4,5,0.06,,70,5456,8,29,58,0.5,0.0,574,4.74,13.3,0.0,1,33.1,2.58,6.5,0,0,0,1,0,0,250,250,0,,,,,,,,,,,,,,,,
33323,1625652221206,,,,,,,,-0.03,-0.02,1.85,-0,1,1,0.03,,70,5490,8,29,58,0.5,0.0,570,4.81,13.5,0.0,1,33.1,2.56,6.5,0,0,0,1,0,0,250,250,0,,,,,,,,,,,,,,,,
33343,1625652221226,0,3,48,49,32,32,0,0.12,0.01,2.03,-0,-5,-4,0.12,0,70,5480,8,29,58,0.5,0.0,572,4.72,13.4,0.0,1,33.1,1.44,6.5,0,0,0,1,0,0,250,250,0,52.961891,6.522978,0.0,35.2,10,3,1.8,0,0.0,-1,0.0,,0.0,0,0.0,0.5557
33363,1625652221246,,,,,,,,0.02,0.02,1.86,-0,4,6,0.03,,70,5469,8,29,58,0.5,0.0,567,4.75,13.2,0.0,1,33.1,2.57,6.5,0,0,0,1,0,0,250,250,0,,,,,,,,,,,,,,,,
33383,1625652221266,,,,,,,,-0.02,-0.0,1.71,-0,-2,1,0.02,,70,5490,8,29,58,0.5,0.0,562,4.85,13.5,0.0,1,33.1,2.56,6.5,0,0,0,1,0,0,250,250,0,,,,,,,,,,,,,,,,
33403,1625652221286,,,,,,,,0.12,0.03,1.9,-0,-5,-2,0.12,,70,5453,8,29,58,0.5,0.0,565,4.71,13.5,0.0,1,33.1,2.59,6.5,0,0,0,1,0,0,250,250,0,,,,,,,,,,,,,,,,
33423,1625652221305,,,,,,,,-0.02,-0.0,1.74,0,3,6,0.02,,70,5477,8,29,58,0.5,0.0,561,4.79,13.4,0.0,1,33.1,2.57,6.5,0,0,0,1,0,0,250,250,0,,,,,,,,,,,,,,,,
33443,1625652221325,1,1,48,49,32,32,1,0.01,-0.04,1.59,-0,-4,0,0.04,0,70,5431,8,29,58,0.5,0.0,561,4.84,13.5,0.0,1,33.1,2.6,6.5,0,0,0,1,0,0,250,250,0,52.961876,6.522994,0.0,31.5,10,3,1.5,0,0.0,-1,0.0,0.0,0.0,0,0.0,0.5574
33463,1625652221345,,,,,,,,0.1,0.02,1.79,0,-2,0,0.1,,70,5508,8,29,58,0.5,0.0,571,4.71,13.3,0.0,1,33.2,2.55,6.5,0,0,0,1,0,0,250,250,0,,,,,,,,,,,,,,,,
33483,1625652221365,,,,,,,,-0.07,-0.02,1.64,0,4,6,0.07,,70,5436,8,29,58,0.5,0.0,561,4.76,13.3,0.0,1,33.1,2.6,6.5,0,0,0,1,0,0,250,250,0,,,,,,,,,,,,,,,,
33503,1625652221385,,,,,,,,0.05,-0.02,1.84,-1,-5,-3,0.05,,70,5482,8,29,58,0.5,0.0,565,4.8,13.5,0.0,1,33.1,1.44,6.5,0,0,0,1,0,0,250,250,0,,,,,,,,,,,,,,,,
33523,1625652221405,,,,,,,,0.08,0.02,2.02,-0,1,2,0.08,,70,5431,8,29,58,0.5,0.0,575,4.77,13.4,0.0,1,33.1,1.47,6.5,0,0,0,1,0,0,250,250,0,,,,,,,,,,,,,,,,
33543,1625652221425,0,0,48,50,33,32,2,-0.05,-0.04,1.85,-0,4,5,0.07,0,70,5453,8,29,58,0.5,0.0,566,4.77,13.4,0.0,1,33.1,2.59,6.5,0,0,0,1,0,0,250,250,0,52.961876,6.522994,0.0,31.5,10,3,1.5,0,0.0,-1,0.0,,0.0,0,0.0,0.559
33563,1625652221445,,,,,,,,0.08,-0.03,2.03,-1,-6,-3,0.09,,70,5442,8,29,58,0.5,0.0,568,4.81,13.6,0.0,1,33.1,2.59,6.5,0,0,0,1,0,0,250,250,0,,,,,,,,,,,,,,,,
33583,1625652221465,,,,,,,,0.02,-0.0,1.93,-0,4,5,0.02,,70,5431,8,29,58,0.5,0.0,563,4.72,13.2,0.0,1,33.1,2.6,6.5,0,0,0,1,0,0,250,250,0,,,,,,,,,,,,,,,,
33603,1625652221485,,,,,,,,-0.02,-0.02,1.77,-0,0,2,0.03,,70,5458,8,29,58,0.5,0.0,561,4.84,13.5,0.0,1,33.1,2.58,6.5,0,0,0,1,0,0,250,250,0,,,,,,,,,,,,,,,,
33623,1625652221505,,,,,,,,0.11,0.02,1.96,-0,-3,-1,0.11,,70,5411,8,29,59,0.5,0.0,558,4.79,13.5,0.0,1,33.4,2.6,6.5,0,0,0,1,0,0,250,250,0,,,,,,,,,,,,,,,,
33643,1625652221525,-1,2,48,50,33,32,2,-0.05,-0.0,1.79,-0,5,7,0.05,0,70,5450,8,29,59,0.5,0.0,563,4.75,13.3,0.0,1,33.4,2.57,6.5,0,0,0,1,0,0,250,250,0,52.961876,6.522994,0.0,31.5,10,3,1.5,0,0.0,-1,0.0,0.0,0.0,0,0.0,0.5607
33663,1625652221545,,,,,,,,0.04,-0.03,1.91,-0,-5,-1,0.05,,70,5408,8,29,59,0.5,0.0,564,4.85,13.5,0.0,1,33.4,2.61,6.5,0,0,0,1,0,0,250,250,0,,,,,,,,,,,,,,,,
33683,1625652221565,,,,,,,,0.07,0.01,2.09,-0,1,3,0.07,,70,5453,8,29,59,0.5,0.0,567,4.75,13.2,0.0,1,33.4,2.58,6.5,0,0,0,1,0,0,250,250,0,,,,,,,,,,,,,,,,
33703,1625652221585,,,,,,,,-0.04,-0.05,1.91,-0,4,4,0.06,,70,5415,8,29,59,0.5,0.0,555,4.76,13.4,0.0,1,33.4,1.47,6.5,0,0,0,1,0,0,250,250,0,,,,,,,,,,,,,,,,
33723,1625652221605,,,,,,,,0.13,-0.01,2.09,-1,-7,-4,0.13,,70,5445,8,29,59,0.5,0.0,563,4.75,13.4,0.0,1,33.4,2.58,6.5,0,0,0,1,0,0,250,250,0,,,,,,,,,,,,,,,,
33743,1625652221625,-1,2,48,49,33,32,1,0.02,-0.0,1.91,-0,2,5,0.02,0,70,5409,8,29,59,0.5,0.0,573,4.71,13.2,0.0,1,33.4,2.6,6.5,0,0,0,1,0,0,250,250,0,52.961876,6.522994,0.0,31.5,10,3,1.5,0,0.0,-1,0.0,,0.0,0,0.0,0.5624
33763,1625652221645,,,,,,,,0.02,-0.06,1.75,0,-3,-1,0.06,,70,5420,8,29,59,0.5,0.0,553,4.85,13.6,0.0,1,33.4,2.6,6.5,0,0,0,1,0,0,250,250,0,,,,,,,,,,,,,,,,
33783,1625652221665,,,,,,,,0.1,0.0,1.94,0,-3,-2,0.1,,70,5401,8,29,59,0.5,0.0,562,4.76,13.5,0.0,1,33.4,2.61,6.5,0,0,0,1,0,0,250,250,0,,,,,,,,,,,,,,,,
33803,1625652221685,,,,,,,,-0.04,-0.04,1.78,1,3,4,0.06,,70,5403,8,29,59,0.5,0.0,555,4.82,13.5,0.0,1,33.4,2.61,6.5,0,0,0,1,0,0,250,250,0,,,,,,,,,,,,,,,,
33823,1625652221705,,,,,,,,0.11,-0.03,1.96,0,-9,-6,0.11,,70,5431,8,29,59,0.5,0.0,557,4.83,13.5,0.0,1,33.4,2.59,6.5,0,0,0,1,0,0,250,250,0,,,,,,,,,,,,,,,,
33843,1625652221725,0,2,48,50,33,32,1,0.04,-0.04,1.9,1,-0,1,0.06,0,70,5383,8,29,59,0.5,0.0,551,4.76,13.3,0.0,1,33.4,2.62,6.5,0,0,0,1,0,0,250,250,0,52.961876,6.522994,0.0,31.5,10,3,1.5,0,0.0,-1,0.0,0.0,0.0,0,0.0,0.564
33863,1625652221745,,,,,,,,-0.01,-0.06,1.74,-0,-0,-1,0.06,,70,5461,8,29,59,0.5,0.0,561,4.76,13.5,0.0,1,33.4,1.44,6.5,0,0,0,1,0,0,250,250,0,,,,,,,,,,,,,,,,
33883,1625652221765,,,,,,,,0.11,-0.01,1.93,-0,-5,-5,0.11,,70,5415,8,29,59,0.5,0.0,573,4.8,13.5,0.0,1,33.4,2.6,6.5,0,0,0,1,0,0,250,250,0,,,,,,,,,,,,,,,,
33903,1625652221785,,,,,,,,-0.06,-0.05,1.77,0,4,3,0.08,,70,5430,8,29,59,0.5,0.0,556,4.8,13.3,0.0,1,33.4,1.46,6.5,0,0,0,1,0,0,250,250,0,,,,,,,,,,,,,,,,
33923,1625652221807,,,,,,,,0.05,-0.04,1.96,-1,-1,-2,0.07,,70,5414,8,29,59,0.5,0.0,557,4.84,13.5,0.0,1,33.4,2.6,6.5,0,0,0,1,0,0,250,250,0,,,,,,,,,,,,,,,,
33943,1625652221827,-1,3,48,49,33,32,1,0.06,0.01,2.13,-1,5,1,0.06,0,70,5452,8,29,59,0.5,0.0,563,4.73,13.4,0.0,1,33.4,2.58,6.5,0,0,0,1,0,0,250,250,0,52.961876,6.522994,0.0,31.5,10,3,1.5,0,0.0,-1,0.0,,0.0,0,0.0,0.5657
33963,1625652221847,,,,,,,,-0.05,-0.05,1.95,-0,8,5,0.07,,70,5445,8,29,59,0.5,0.0,563,4.79,13.4,0.0,1,33.4,2.58,6.5,0,0,0,1,0,0,250,250,0,,,,,,,,,,,,,,,,
33983,1625652221867,,,,,,,,0.11,-0.01,2.12,-0,-3,-3,0.11,,70,5420,8,29,59,0.5,0.0,558,4.73,13.4,0.0,1,33.4,2.6,6.5,0,0,0,1,0,0,250,250,0,,,,,,,,,,,,,,,,
34003,1625652221887,,,,,,,,0.01,-0.01,1.94,-0,6,5,0.02,,70,5458,8,29,59,0.5,0.0,566,4.76,13.3,0.0,1,33.4,1.44,6.5,0,0,0,1,0,0,250,250,0,,,,,,,,,,,,,,,,
34023,1625652221907,,,,,,,,0.01,-0.04,1.78,-0,2,2,0.05,,70,5426,8,29,59,0.5,0.0,562,4.85,13.5,0.0,1,33.4,2.59,6.5,0,0,0,1,0,0,250,250,0,,,,,,,,,,,,,,,,
34043,1625652221927,1,2,48,49,33,32,1,0.11,0.01,1.96,-0,-3,-1,0.11,0,70,5476,8,29,59,0.5,0.0,557,4.78,13.5,0.0,1,33.4,2.56,6.5,0,0,0,1,0,0,250,250,0,52.961876,6.522994,0.0,31.5,10,3,1.5,0,0.0,-1,0.0,0.0,0.0,0,0.0,0.5674
34063,1625652221947,,,,,,,,-0.05,-0.01,1.8,0,5,7,0.06,,70,5408,8,29,59,0.5,0.0,562,4.71,13.2,0.0,1,33.4,2.6,6.5,0,0,0,1,0,0,250,250,0,,,,,,,,,,,,,,,,
34083,1625652221967,,,,,,,,0.06,-0.03,1.98,0,-4,-0,0.07,,70,5456,8,29,59,0.5,0.0,562,4.82,13.5,0.0,1,33.4,2.57,6.4,0,0,0,1,0,0,250,250,0,,,,,,,,,,,,,,,,
34103,1625652221987,,,,,,,,0.08,0.0,2.15,0,-1,1,0.08,,70,5426,8,29,59,0.502,0.0,568,4.75,13.4,0.0,1,33.4,2.59,6.4,0,0,0,1,0,0,250,250,0,,,,,,,,,,,,,,,,
34123,1625652221997,,,,,,,,-0.03,-0.05,1.97,0,3,3,0.06,,70,5441,8,29,59,0.503,0.0,551,4.83,13.5,0.0,1,33.4,2.58,6.4,0,0,0,1,0,0,250,250,0,,,,,,,,,,,,,,,,
34143,1625652222017,1,2,48,48,32,32,0,0.13,0.01,2.14,-0,-6,-5,0.13,0,70,5408,8,29,59,0.505,0.0,557,4.85,13.5,0.0,1,33.4,2.6,6.4,0,0,0,1,0,0,250,250,0,52.961876,6.522994,0.0,31.5,10,3,1.5,0,0.0,-1,0.0,,0.0,0,0.0,0.569
34163,1625652222037,,,,,,,,0.02,0.01,1.96,-0,4,3,0.02,,70,5437,8,29,59,0.506,0.0,566,4.71,13.2,0.0,1,33.4,2.59,6.4,0,0,0,1,0,0,250,250,0,,,,,,,,,,,,,,,,
34183,1625652222057,,,,,,,,0.03,-0.05,1.8,-0,-0,1,0.06,,70,5411,8,29,59,0.506,0.0,552,4.78,13.5,0.0,1,33.4,1.47,6.4,0,0,0,1,0,0,250,250,0,,,,,,,,,,,,,,,,
34203,1625652222077,,,,,,,,0.1,0.02,1.98,-0,-3,-2,0.1,,70,5417,8,29,59,0.508,0.0,561,4.77,13.5,0.0,1,33.4,2.6,6.5,0,0,0,1,0,0,250,250,0,,,,,,,,,,,,,,,,
34223,1625652222107,,,,,,,,-0.02,-0.04,1.81,-0,3,4,0.04,,70,5411,8,29,59,0.509,0.0,561,4.78,13.3,0.0,1,33.4,1.47,6.5,0,0,0,1,0,0,250,250,0,,,,,,,,,,,,,,,,
34243,1625652222127,1,0,48,49,32,32,1,0.13,0.0,2.0,-1,-7,-3,0.13,0,70,5397,8,29,59,0.511,0.0,560,4.83,13.5,0.0,1,33.4,2.61,6.5,0,0,0,1,0,0,250,250,0,52.961876,6.522994,0.0,31.5,10,3,1.5,0,0.0,-1,0.0,0.0,0.0,0,0.0,0.5707
34263,1625652222147,,,,,,,,0.04,-0.03,1.83,-1,3,3,0.06,,70,5414,8,29,60,0.512,0.0,560,4.71,13.3,0.0,1,33.7,2.59,6.5,0,0,0,1,0,0,250,250,0,,,,,,,,,,,,,,,,
34283,1625652222167,,,,,,,,0.03,-0.07,1.68,-1,2,2,0.07,,70,5384,8,29,60,0.513,0.0,561,4.82,13.5,0.0,1,33.7,1.48,6.5,0,0,0,1,0,0,250,250,0,,,,,,,,,,,,,,,,
34303,1625652222187,,,,,,,,0.1,0.01,1.87,-1,-2,-2,0.1,,70,5420,8,29,60,0.515,0.0,561,4.73,13.3,0.0,1,33.7,2.59,6.5,0,0,0,1,0,0,250,250,0,,,,,,,,,,,,,,,,
34323,1625652222207,,,,,,,,-0.03,-0.07,1.71,-0,5,5,0.08,,70,5360,8,29,60,0.516,0.0,552,4.8,13.5,0.0,1,33.7,1.49,6.5,0,0,0,1,0,0,250,250,0,,,,,,,,,,,,,,,,
34343,1625652222227,1,2,48,48,33,32,0,0.12,-0.03,1.9,-1,-9,-4,0.13,0,70,5391,8,29,60,0.516,0.0,557,4.78,13.5,0.0,1,33.7,2.6,6.5,0,0,0,1,0,0,250,250,0,52.961876,6.522994,0.0,31.5,10,3,1.5,0,0.0,-1,0.0,,0.0,0,0.0,0.5724
34363,1625652222247,,,,,,,,0.01,-0.03,1.74,-0,1,4,0.03,,70,5352,8,29,60,0.514,0.0,563,4.73,13.3,0.0,1,33.7,1.5,6.5,0,0,0,1,0,0,250,250,0,,,,,,,,,,,,,,,,
34383,1625652222267,,,,,,,,0.06,-0.08,1.6,-1,-1,2,0.1,,70,5398,8,29,60,0.513,0.0,553,4.83,13.5,0.0,1,33.7,2.6,6.5,0,0,0,1,0,0,250,250,0,,,,,,,,,,,,,,,,
34403,1625652222287,,,,,,,,0.09,-0.02,1.8,-1,-0,2,0.09,,71,5380,8,29,60,0.511,0.0,557,4.73,13.5,0.0,1,33.7,1.48,6.5,0,0,0,1,0,0,250,250,0,,,,,,,,,,,,,,,,
34423,1625652222306,,,,,,,,-0.0,-0.09,1.65,-1,4,4,0.09,,71,5361,8,29,60,0.51,0.0,556,4.77,13.4,0.0,1,33.7,1.49,6.5,0,0,0,1,0,0,250,250,0,,,,,,,,,,,,,,,,
34443,1625652222326,0,1,48,49,33,32,0,0.15,-0.01,1.84,-1,-8,-5,0.15,0,71,5381,8,29,60,0.508,0.0,562,4.76,13.5,0.0,1,33.7,1.48,6.5,0,0,0,1,0,0,250,250,0,52.961876,6.522994,0.0,31.5,10,3,1.5,0,0.0,-1,0.0,0.0,0.0,0,0.0,0.574
34463,1625652222346,,,,,,,,-0.01,-0.04,1.69,-1,2,4,0.04,,71,5337,8,29,60,0.507,0.0,550,4.78,13.4,0.0,1,33.7,1.5,6.5,0,0,0,1,0,0,250,250,0,,,,,,,,,,,,,,,,
34483,1625652222366,,,,,,,,0.12,-0.03,1.88,-1,-2,-2,0.12,,71,5378,8,29,60,0.506,0.0,554,4.81,13.5,0.0,1,33.7,2.61,6.5,0,0,0,1,0,0,250,250,0,,,,,,,,,,,,,,,,
34503,1625652222386,,,,,,,,0.05,-0.05,1.94,-1,5,3,0.07,,71,5347,8,29,60,0.504,0.0,558,4.73,13.3,0.0,1,33.7,2.63,6.5,0,0,0,1,0,0,250,250,0,,,,,,,,,,,,,,,,
34523,1625652222402,,,,,,,,0.04,-0.06,1.77,-1,5,2,0.07,,71,5384,8,29,60,0.504,0.0,539,4.88,13.6,0.0,1,33.7,2.61,6.5,0,0,0,1,0,0,250,250,0,,,,,,,,,,,,,,,,
34543,1625652222422,0,3,48,49,33,32,-0,0.08,0.0,1.96,-1,1,-1,0.08,0,71,5328,8,29,60,0.503,0.0,554,4.8,13.5,0.0,1,33.7,2.65,6.5,0,0,0,1,0,0,250,250,0,52.961876,6.522994,0.0,31.5,10,3,1.5,0,0.0,-1,0.0,,0.0,0,0.0,0.5757
34563,1625652222442,,,,,,,,-0.02,-0.07,1.8,-1,6,4,0.07,,71,5364,8,29,60,0.501,0.0,556,4.76,13.4,0.0,1,33.7,2.62,6.5,0,0,0,1,0,0,250,250,0,,,,,,,,,,,,,,,,
34583,1625652222462,,,,,,,,0.12,0.0,1.98,-1,-5,-4,0.12,,71,5329,8,29,60,0.5,0.0,562,4.75,13.4,0.0,1,33.7,2.64,6.5,0,0,0,1,0,0,250,250,0,,,,,,,,,,,,,,,,
34603,1625652222482,,,,,,,,-0.03,-0.02,1.81,-1,4,5,0.04,,71,5349,8,29,60,0.502,0.0,547,4.75,13.2,0.0,1,33.7,1.5,6.5,0,0,0,1,0,0,250,250,0,,,,,,,,,,,,,,,,
34623,1625652222506,,,,,,,,0.11,-0.0,2.0,-0,-6,-4,0.11,,71,5344,8,29,60,0.503,0.0,556,4.82,13.5,0.0,1,33.7,2.63,6.5,0,0,0,1,0,0,250,250,0,,,,,,,,,,,,,,,,
34643,1625652222526,1,2,48,50,33,32,1,0.01,-0.03,1.83,-0,2,2,0.03,0,71,5328,8,29,60,0.505,0.0,551,4.75,13.2,0.0,1,33.7,2.65,6.5,0,0,0,1,0,0,250,250,0,52.961876,6.522994,0.0,31.5,10,3,1.5,0,0.0,-1,0.0,0.0,0.0,0,0.0,0.5774
34663,1625652222546,,,,,,,,0.07,-0.06,1.68,0,-3,-1,0.09,,71,5381,8,29,60,0.507,0.0,548,4.82,13.5,0.0,1,33.7,2.61,6.5,0,0,0,1,0,0,250,250,0,,,,,,,,,,,,,,,,
34683,1625652222566,,,,,,,,0.06,-0.03,1.87,0,-4,-2,0.07,,71,5319,8,29,60,0.507,0.0,556,4.77,13.4,0.0,1,33.7,1.52,6.5,0,0,0,1,0,0,250,250,0,,,,,,,,,,,,,,,,
34703,1625652222586,,,,,,,,-0.0,-0.06,1.71,0,1,1,0.06,,71,5400,8,29,60,0.51,0.0,556,4.78,13.4,0.0,1,33.7,1.47,6.5,0,0,0,1,0,0,250,250,0,,,,,,,,,,,,,,,,
34723,1625652222607,,,,,,,,0.11,0.01,1.9,-0,-11,-7,0.11,,71,5392,8,29,60,0.511,0.0,560,4.76,13.4,0.0,1,33.7,1.47,6.5,0,0,0,1,0,0,250,250,0,,,,,,,,,,,,,,,,
34743,1625652222627,0,2,48,50,33,32,1,-0.06,-0.04,1.74,0,-0,3,0.07,0,71,5448,8,29,60,0.513,0.0,556,4.72,13.2,0.0,1,33.7,2.58,6.5,0,0,0,1,0,0,250,250,0,52.961876,6.522994,0.0,31.5,10,3,1.5,0,0.0,-1,0.0,,0.0,0,0.0,0.579
34763,1625652222647,,,,,,,,0.05,-0.03,1.93,0,-7,-2,0.06,,71,5452,8,29,60,0.514,0.0,566,4.85,13.6,0.0,1,33.7,2.57,6.5,0,0,0,1,0,0,250,250,0,,,,,,,,,,,,,,,,
34783,1625652222667,,,,,,,,0.07,-0.0,2.1,0,-7,-3,0.07,,71,5458,8,29,60,0.516,0.0,570,4.72,13.3,0.0,1,33.7,2.56,6.5,0,0,0,1,0,0,250,250,0,,,,,,,,,,,,,,,,
34803,1625652222687,,,,,,,,-0.03,-0.03,1.93,0,0,3,0.05,,71,5484,8,29,60,0.518,0.0,564,4.72,13.3,0.0,1,33.7,2.55,6.4,0,0,0,1,0,0,250,250,0,,,,,,,,,,,,,,,,
34823,1625652222706,,,,,,,,0.13,-0.0,2.1,-1,-5,-4,0.13,,71,5452,8,29,60,0.519,0.0,558,4.8,13.5,0.0,1,33.7,1.44,6.4,0,0,0,1,0,0,250,250,0,,,,,,,,,,,,,,,,
34843,1625652222726,-1,1,48,49,32,32,1,0.07,-0.03,1.97,-1,1,-1,0.08,0,71,5492,8,29,60,0.521,0.0,570,4.72,13.4,0.0,1,33.7,2.54,6.4,0,0,0,1,0,0,250,250,0,52.961876,6.522994,0.0,31.5,10,3,1.8,0,0.0,-1,0.0,0.0,0.0,0,0.0,0.5807
34863,1625652222746,,,,,,,,-0.02,-0.05,1.8,-1,4,2,0.05,,71,5458,8,29,60,0.522,0.0,557,4.81,13.5,0.0,1,33.7,2.56,6.4,0,0,0,1,0,0,250,250,0,,,,,,,,,,,,,,,,
34883,1625652222766,,,,,,,,0.13,-0.0,1.99,-0,-9,-7,0.13,,71,5529,8,29,60,0.522,0.0,560,4.83,13.5,0.0,1,33.7,2.53,6.4,0,0,0,1,0,0,250,250,0,,,,,,,,,,,,,,,,
34903,1625652222786,,,,,,,,0.05,-0.03,1.82,-0,-2,-3,0.06,,71,5501,8,29,59,0.524,0.0,576,4.72,13.2,0.0,1,33.4,2.54,6.4,0,0,0,1,0,0,250,250,0,,,,,,,,,,,,,,,,
34923,1625652222806,,,,,,,,-0.04,-0.04,1.67,-0,3,1,0.06,,71,5547,8,29,59,0.524,0.0,570,4.76,13.3,0.0,1,33.4,2.51,6.4,0,0,0,1,0,0,250,250,0,,,,,,,,,,,,,,,,
34943,1625652222826,-1,2,48,49,33,32,1,0.08,-0.01,1.86,-0,-3,-6,0.08,0,71,5570,8,29,59,0.525,0.0,570,4.8,13.6,0.0,1,33.4,2.5,6.4,0,0,0,1,0,0,250,250,0,52.961876,6.522994,0.0,31.5,10,3,1.8,0,0.0,-1,0.0,,0.0,0,0.0,0.5824
34963,1625652222846,,,,,,,,0.09,0.0,2.04,-0,-4,-6,0.09,,71,5563,8,29,59,0.526,0.0,577,4.73,13.3,0.0,1,33.4,2.5,6.4,0,0,0,1,0,0,250,250,0,,,,,,,,,,,,,,,,
34983,1625652222866,,,,,,,,-0.04,-0.01,1.87,-0,3,1,0.04,,71,5634,8,29,59,0.526,0.0,583,4.73,13.2,0.0,1,33.5,2.45,6.3,0,0,0,1,0,0,250,250,0,,,,,,,,,,,,,,,,
35003,1625652222886,,,,,,,,-0.02,-0.04,1.71,-1,6,0,0.05,,71,5593,8,29,59,0.527,0.0,580,4.78,13.4,0.0,1,33.4,2.48,6.3,0,0,0,1,0,0,250,250,0,,,,,,,,,,,,,,,,
35023,1625652222906,,,,,,,,0.09,-0.03,1.9,-1,-3,-5,0.1,,71,5644,8,29,59,0.528,0.0,577,4.85,13.6,0.0,1,33.5,2.46,6.3,0,0,0,1,0,0,250,250,0,,,,,,,,,,,,,,,,
35043,1625652222926,0,3,48,49,33,32,1,0.09,-0.03,2.07,-0,-3,-5,0.1,0,71,5635,8,29,58,0.529,0.0,584,4.72,13.4,0.0,1,33.2,2.46,6.3,0,0,0,1,0,0,250,250,0,52.961876,6.522994,0.0,31.5,10,3,1.8,0,0.0,-1,0.0,0.0,0.0,0,0.0,0.584
35063,1625652222946,,,,,,,,-0.02,-0.01,1.9,-0,3,1,0.03,,71,5693,8,29,58,0.531,0.0,588,4.73,13.3,0.0,1,33.2,2.42,6.3,0,0,0,1,0,0,250,250,0,,,,,,,,,,,,,,,,
35083,1625652222966,,,,,,,,-0.06,-0.02,1.74,-0,5,2,0.06,,71,5685,8,29,58,0.533,0.0,581,4.8,13.4,0.0,1,33.2,1.3,6.3,0,0,0,1,0,0,250,250,0,,,,,,,,,,,,,,,,
35103,1625652222986,,,,,,,,0.05,-0.03,1.93,-0,-0,-2,0.06,,71,5669,8,29,58,0.536,0.0,581,4.83,13.5,0.0,1,33.2,2.44,6.4,0,0,0,1,0,0,250,250,0,,,,,,,,,,,,,,,,
35123,1625652222998,,,,,,,,0.12,-0.04,2.1,-0,-5,-5,0.13,,71,5669,8,29,58,0.542,0.0,583,4.82,13.5,0.0,1,33.2,2.44,6.4,0,0,0,1,0,0,250,250,0,,,,,,,,,,,,,,,,
35143,1625652223018,0,3,48,49,33,32,-0,0.03,-0.05,1.92,0,1,-0,0.06,0,71,5656,8,29,58,0.545,0.0,589,4.75,13.4,0.0,1,33.2,2.45,6.4,0,0,0,1,0,0,250,250,0,52.961876,6.522994,0.0,31.5,10,3,1.8,0,0.0,-1,0.0,,0.0,0,0.0,0.5857
35163,1625652223038,,,,,,,,-0.07,-0.06,1.76,0,6,5,0.1,,71,5669,8,29,58,0.547,0.0,584,4.78,13.4,0.0,1,33.2,2.44,6.4,0,0,0,1,0,0,250,250,0,,,,,,,,,,,,,,,,
35183,1625652223058,,,,,,,,-0.16,-0.07,1.61,0,5,4,0.17,,71,5662,8,29,58,0.551,0.0,579,4.83,13.5,0.0,1,33.2,1.31,6.4,0,0,0,1,0,0,250,250,0,,,,,,,,,,,,,,,,
35203,1625652223078,,,,,,,,-0.05,-0.05,1.81,-0,-3,-3,0.07,,71,5668,8,29,57,0.555,0.0,584,4.79,13.5,0.0,1,33.0,1.32,6.4,0,0,0,1,0,0,250,250,0,,,,,,,,,,,,,,,,
35223,1625652223106,,,,,,,,0.06,-0.05,1.99,-0,-2,-2,0.08,,71,5647,8,29,57,0.559,0.0,597,4.71,13.3,0.0,1,33.0,2.47,6.4,0,0,0,1,0,0,250,250,0,,,,,,,,,,,,,,,,
35243,1625652223126,-1,0,48,49,32,32,1,0.02,-0.04,1.83,0,5,4,0.05,0,71,5666,8,29,57,0.564,0.0,595,4.7,13.3,0.0,1,33.0,2.44,6.4,0,0,0,1,0,0,250,250,0,52.961876,6.522994,0.0,31.5,10,3,1.8,0,0.0,-1,0.0,0.0,0.0,0,0.0,0.5874
35263,1625652223146,,,,,,,,-0.09,-0.07,1.68,0,7,5,0.12,,71,5607,8,29,58,0.567,0.0,573,4.81,13.5,0.0,1,33.2,2.48,6.4,0,0,0,1,0,0,250,250,0,,,,,,,,,,,,,,,,
35283,1625652223166,,,,,,,,-0.01,-0.05,1.87,-0,-2,-1,0.05,,71,5610,8,29,58,0.57,0.0,573,4.86,13.5,0.0,1,33.2,2.49,6.4,0,0,0,1,0,0,250,250,0,,,,,,,,,,,,,,,,
35303,1625652223186,,,,,,,,0.09,-0.03,2.05,-0,0,-0,0.1,,71,5607,8,29,57,0.573,0.0,588,4.72,13.3,0.0,1,32.9,2.49,6.4,0,0,0,1,0,0,250,250,0,,,,,,,,,,,,,,,,
35323,1625652223206,,,,,,,,0.0,-0.02,1.88,-0,7,6,0.02,,71,5568,8,29,57,0.576,0.0,575,4.78,13.4,0.0,1,32.9,2.52,6.4,0,0,0,1,0,0,250,250,0,,,,,,,,,,,,,,,,
35343,1625652223226,0,1,48,49,32,32,1,-0.08,-0.03,1.72,-1,6,3,0.09,0,71,5602,8,29,58,0.573,0.0,574,4.81,13.4,0.0,1,33.2,2.49,6.4,0,0,0,1,0,0,250,250,0,52.961876,6.522994,0.0,31.5,10,3,1.5,0,0.0,-1,0.0,,0.0,0,0.0,0.589
35363,1625652223246,,,,,,,,0.05,-0.01,1.91,-1,-2,-3,0.06,,71,5517,8,29,57,0.57,0.0,583,4.81,13.6,0.0,1,32.9,2.55,6.4,0,0,0,1,0,0,250,250,0,,,,,,,,,,,,,,,,
35383,1625652223266,,,,,,,,0.05,-0.03,2.08,-1,5,4,0.06,,71,5560,8,29,57,0.566,0.0,576,4.73,13.4,0.0,1,32.9,2.51,6.4,0,0,0,1,0,0,250,250,0,,,,,,,,,,,,,,,,
35403,1625652223286,,,,,,,,-0.05,-0.04,1.91,-0,6,5,0.07,,71,5527,8,29,58,0.574,0.0,566,4.8,13.5,0.0,1,33.2,1.41,6.4,0,0,0,1,0,0,250,250,0,,,,,,,,,,,,,,,,
35423,1625652223305,,,,,,,,0.08,-0.04,2.08,0,-7,-4,0.09,,71,5544,8,29,57,0.593,0.0,570,4.8,13.5,0.0,1,32.9,1.41,6.4,0,0,0,1,0,0,250,250,0,,,,,,,,,,,,,,,,
35443,1625652223325,1,1,48,49,33,32,0,0.11,-0.03,2.24,0,-0,0,0.12,0,71,5511,8,29,58,0.614,0.0,585,4.72,13.2,0.0,1,33.2,2.55,6.4,0,0,0,1,0,0,250,250,0,52.961876,6.522994,0.0,31.5,10,3,1.5,0,0.0,-1,0.0,0.0,0.0,0,0.0,0.5907
35463,1625652223345,,,,,,,,-0.05,-0.03,2.05,0,4,4,0.06,,71,5513,8,29,58,0.633,0.0,573,4.75,13.4,0.0,1,33.2,1.42,6.4,0,0,0,1,0,0,250,250,0,,,,,,,,,,,,,,,,
35483,1625652223365,,,,,,,,0.03,-0.03,2.22,-0,-4,-5,0.05,,71,5562,8,29,58,0.652,0.0,571,4.82,13.5,0.0,1,33.2,2.51,6.4,0,0,0,1,0,0,250,250,0,,,,,,,,,,,,,,,,
35503,1625652223385,,,,,,,,0.12,-0.0,2.36,-0,-1,-3,0.12,,71,5501,8,29,57,0.677,0.0,571,4.75,13.5,0.0,1,32.9,2.55,6.4,0,0,0,1,0,0,250,250,0,,,,,,,,,,,,,,,,
35523,1625652223407,,,,,,,,-0.03,-0.04,2.17,-0,6,3,0.06,,71,5545,8,29,58,0.692,0.0,571,4.74,13.4,0.0,1,33.2,1.39,6.4,0,0,0,1,0,0,250,250,0,,,,,,,,,,,,,,,,
35543,1625652223427,-0,2,48,49,33,32,1,0.03,-0.05,1.99,-2,2,-2,0.06,0,71,5480,8,29,58,0.709,0.0,568,4.78,13.5,0.0,1,33.1,1.44,6.4,0,0,0,1,0,0,250,250,0,52.961876,6.522994,0.0,31.5,10,3,1.5,0,0.0,-1,0.0,,0.0,0,0.0,0.5924
35563,1625652223447,,,,,,,,0.12,-0.0,2.15,-1,2,-3,0.12,,71,5560,8,29,58,0.728,0.0,570,4.74,13.3,0.0,1,33.2,2.51,6.4,0,0,0,1,0,0,250,250,0,,,,,,,,,,,,,,,,
35583,1625652223467,,,,,,,,-0.02,-0.01,1.97,-1,8,4,0.03,,71,5482,8,29,58,0.758,0.0,574,4.78,13.4,0.0,1,33.1,2.57,6.5,0,0,0,1,0,0,250,250,0,,,,,,,,,,,,,,,,
35603,1625652223487,,,,,,,,-0.0,-0.05,1.81,-1,2,-1,0.05,,71,5504,8,29,58,0.793,0.0,566,4.84,13.5,0.0,1,33.2,2.55,6.5,0,0,0,1,0,0,250,250,0,,,,,,,,,,,,,,,,
35623,1625652223505,,,,,,,,0.11,-0.01,1.99,-1,-1,-3,0.11,,71,5498,8,29,58,0.821,0.0,566,4.82,13.5,0.0,1,33.1,2.56,6.5,0,0,0,1,0,0,250,250,0,,,,,,,,,,,,,,,,
35643,1625652223525,-1,2,48,50,32,32,1,-0.04,-0.01,1.82,-1,7,5,0.04,0,71,5477,8,29,58,0.841,0.0,560,4.78,13.4,0.0,1,33.1,1.44,6.5,0,0,0,1,0,0,250,250,0,52.961876,6.522994,0.0,31.5,10,3,1.5,0,0.0,-1,0.0,0.0,0.0,0,0.0,0.594
35663,1625652223545,,,,,,,,0.02,-0.04,1.67,-1,-2,-1,0.05,,71,5464,8,29,58,0.852,0.0,565,4.83,13.5,0.0,1,33.1,2.58,6.5,0,0,0,1,0,0,250,250,0,,,,,,,,,,,,,,,,
35683,1625652223565,,,,,,,,0.08,-0.01,1.87,-1,-1,-1,0.08,,71,5434,8,29,58,0.858,0.0,569,4.76,13.3,0.0,1,33.1,1.47,6.5,0,0,0,1,0,0,250,250,0,,,,,,,,,,,,,,,,
35703,1625652223585,,,,,,,,-0.08,-0.03,1.71,-0,4,4,0.09,,71,5430,8,29,58,0.866,0.0,556,4.82,13.5,0.0,1,33.1,2.6,6.5,0,0,0,1,0,0,250,250,0,,,,,,,,,,,,,,,,
35723,1625652223605,,,,,,,,0.06,-0.02,1.9,-0,-7,-5,0.07,,71,5364,8,29,58,0.877,0.0,563,4.85,13.5,0.0,1,33.1,2.64,6.5,0,0,0,1,0,0,250,250,0,,,,,,,,,,,,,,,,
35743,1625652223625,0,3,48,49,33,32,-0,-0.02,-0.03,1.74,-0,3,3,0.03,0,71,5361,8,29,59,0.884,0.0,552,4.75,13.3,0.0,1,33.4,1.5,6.5,0,0,0,1,0,0,250,250,0,52.961876,6.522994,0.0,31.5,10,3,1.5,0,0.0,-1,0.0,,0.0,0,0.0,0.5957
35763,1625652223645,,,,,,,,0.03,-0.05,1.6,-0,-1,-2,0.06,,71,5307,8,29,59,0.892,0.0,547,4.83,13.5,0.0,1,33.4,2.67,6.5,0,0,0,1,0,0,250,250,0,,,,,,,,,,,,,,,,
35783,1625652223665,,,,,,,,0.03,-0.01,1.8,-0,4,1,0.03,,71,5284,8,29,59,0.898,0.0,554,4.74,13.3,0.0,1,33.4,2.68,6.5,0,0,0,1,0,0,250,250,0,,,,,,,,,,,,,,,,
35803,1625652223685,,,,,,,,0.01,-0.08,1.65,-0,1,-0,0.09,,71,5238,8,29,59,0.905,0.0,553,4.88,13.5,0.0,1,33.4,2.71,6.5,0,0,0,1,0,0,250,250,0,,,,,,,,,,,,,,,,
35823,1625652223705,,,,,,,,0.0,-0.03,1.84,0,4,1,0.03,,71,5230,8,29,59,0.909,0.0,542,4.73,13.3,0.0,1,33.4,2.72,6.5,0,0,0,1,0,0,250,250,0,,,,,,,,,,,,,,,,
35843,1625652223725,0,1,48,49,33,32,1,0.03,-0.1,1.69,-0,2,-1,0.1,0,71,5168,8,29,60,0.909,0.0,535,4.83,13.5,0.0,1,33.7,2.76,6.5,0,0,0,1,0,0,250,250,0,52.961876,6.522994,0.0,31.5,10,3,1.5,0,0.0,-1,0.0,0.0,0.0,0,0.0,0.5974
35863,1625652223745,,,,,,,,-0.03,-0.07,1.88,-0,7,3,0.07,,71,5170,8,29,60,0.91,0.0,542,4.73,13.2,0.0,1,33.7,2.75,6.5,0,0,0,1,0,0,250,250,0,,,,,,,,,,,,,,,,
35883,1625652223765,,,,,,,,0.06,-0.07,1.88,-1,3,-3,0.09,,71,5122,8,29,60,0.909,0.0,532,4.78,13.5,0.0,1,33.6,2.78,6.6,0,0,0,1,0,0,250,250,0,,,,,,,,,,,,,,,,
35903,1625652223785,,,,,,,,-0.01,-0.05,1.72,-0,9,4,0.05,,71,5097,8,29,60,0.907,0.0,523,4.74,13.4,0.0,1,33.6,2.79,6.6,0,0,0,1,0,0,250,250,0,,,,,,,,,,,,,,,,
35923,1625652223805,,,,,,,,0.04,-0.01,1.91,-1,3,-1,0.04,,71,5077,8,29,60,0.906,0.0,537,4.72,13.2,0.0,1,33.6,2.81,6.6,0,0,0,1,0,0,250,250,0,,,,,,,,,,,,,,,,
35943,1625652223825,-0,3,48,49,33,32,1,0.05,-0.07,1.75,-1,4,0,0.09,0,71,5059,8,29,61,0.902,0.0,516,4.8,13.5,0.0,1,34.0,2.82,6.6,0,0,0,1,0,0,250,250,0,52.961876,6.522994,0.0,31.5,10,3,1.5,0,0.0,-1,0.0,,0.0,0,0.0,0.599
35963,1625652223845,,,,,,,,-0.02,-0.04,1.94,-0,6,2,0.04,,71,5043,8,29,60,0.901,0.0,519,4.72,13.2,0.0,1,33.6,2.8,6.6,0,0,0,1,0,0,250,250,0,,,,,,,,,,,,,,,,
35983,1625652223865,,,,,,,,0.05,-0.03,2.11,-1,1,-2,0.06,,71,5068,8,29,60,0.899,0.0,525,4.76,13.4,0.0,1,33.6,2.79,6.6,0,0,0,1,0,0,250,250,0,,,,,,,,,,,,,,,,
36003,1625652223885,,,,,,,,0.03,-0.07,1.93,-0,4,1,0.08,,71,5006,8,29,61,0.898,0.0,513,4.8,13.5,0.0,1,34.0,1.7,6.5,0,0,0,1,0,0,250,250,0,,,,,,,,,,,,,,,,
36023,1625652223907,,,,,,,,-0.02,-0.05,2.11,-0,4,1,0.05,,71,5004,8,29,61,0.897,0.0,513,4.75,13.2,0.0,1,34.0,1.7,6.5,0,0,0,1,0,0,250,250,0,,,,,,,,,,,,,,,,
36043,1625652223927,0,1,48,49,33,32,1,0.06,-0.04,2.26,-0,1,-2,0.07,0,71,4992,8,29,61,0.896,0.0,515,4.85,13.5,0.0,1,33.8,2.82,6.5,0,0,0,1,0,0,250,250,0,52.961876,6.522994,0.0,31.5,10,3,1.5,0,0.0,-1,0.0,0.0,0.0,0,0.0,0.6007
36063,1625652223947,,,,,,,,0.04,-0.07,2.07,-0,4,2,0.08,,71,5025,8,29,61,0.895,0.0,508,4.8,13.5,0.0,1,34.0,1.69,6.5,0,0,0,1,0,0,250,250,0,,,,,,,,,,,,,,,,
36083,1625652223967,,,,,,,,-0.0,-0.03,2.23,-0,4,1,0.03,,71,5014,8,29,61,0.898,0.0,515,4.73,13.2,0.0,1,34.0,2.83,6.5,0,0,0,1,0,0,250,250,0,,,,,,,,,,,,,,,,
36103,1625652223987,,,,,,,,0.07,-0.02,2.21,-0,0,-2,0.07,,71,5037,8,29,61,0.898,0.0,520,4.78,13.4,0.0,1,34.0,1.68,6.5,0,0,0,1,0,0,250,250,0,,,,,,,,,,,,,,,,
36123,1625652223997,,,,,,,,0.02,-0.03,2.03,-0,5,3,0.03,,71,5075,8,29,61,0.899,0.0,513,4.81,13.4,0.0,1,34.0,1.66,6.5,0,0,0,1,0,0,250,250,0,,,,,,,,,,,,,,,,
36143,1625652224017,1,1,48,49,32,32,1,0.03,-0.0,2.19,-0,0,-1,0.03,0,71,5092,8,29,61,0.899,0.0,524,4.78,13.4,0.0,1,34.0,1.65,6.5,0,0,0,1,0,0,250,250,0,52.961876,6.522994,0.0,31.5,10,3,1.5,0,0.0,-1,0.0,,0.0,0,0.0,0.6024
36163,1625652224037,,,,,,,,0.05,-0.06,2.01,-0,1,-0,0.08,,71,5142,8,29,61,0.9,0.0,532,4.84,13.5,0.0,1,34.0,1.61,6.5,0,0,0,1,0,0,250,250,0,,,,,,,,,,,,,,,,
36183,1625652224057,,,,,,,,-0.03,-0.03,2.18,0,3,2,0.04,,71,5129,8,29,61,0.9,0.0,525,4.76,13.4,0.0,1,34.0,2.75,6.5,0,0,0,1,0,0,250,250,0,,,,,,,,,,,,,,,,
36203,1625652224077,,,,,,,,0.07,-0.03,2.31,-0,-2,-3,0.08,,71,5153,8,29,61,0.901,0.0,530,4.86,13.5,0.0,1,34.0,2.74,6.5,0,0,0,1,0,0,250,250,0,,,,,,,,,,,,,,,,
36223,1625652224105,,,,,,,,0.0,-0.03,2.12,0,4,4,0.03,,71,5169,8,29,61,0.901,0.0,535,4.75,13.3,0.0,1,34.0,2.73,6.5,0,0,0,1,0,0,250,250,0,,,,,,,,,,,,,,,,
36243,1625652224125,0,3,48,49,33,32,0,0.08,0.03,2.27,0,-4,-3,0.09,0,71,5159,8,29,61,0.901,0.0,529,4.73,13.4,0.0,1,34.0,2.73,6.5,0,0,0,1,0,0,250,250,0,52.961876,6.522994,0.0,31.5,10,3,1.5,0,0.0,-1,0.0,0.0,0.0,0,0.0,0.604
36263,1625652224145,,,,,,,,0.01,-0.03,2.08,0,2,3,0.04,,71,5155,8,29,61,0.901,0.0,532,4.76,13.5,0.0,1,34.0,2.74,6.5,0,0,0,1,0,0,250,250,0,,,,,,,,,,,,,,,,
36283,1625652224165,,,,,,,,0.03,-0.0,2.24,-0,-2,-1,0.03,,71,5051,8,29,61,0.903,0.0,541,4.8,13.5,0.0,1,34.0,2.8,6.5,0,0,0,1,0,0,250,250,0,,,,,,,,,,,,,,,,
36303,1625652224185,,,,,,,,0.06,-0.03,2.05,-0,-3,-2,0.07,,71,4922,8,29,61,0.904,0.0,514,4.83,13.5,0.0,1,32.9,1.67,6.5,0,0,0,1,0,0,250,250,0,,,,,,,,,,,,,,,,
36323,1625652224207,,,,,,,,0.22,-0.03,1.88,0,-1,-0,0.22,,71,4789,8,29,62,0.905,0.0,497,4.78,13.5,0.0,1,31.5,2.8,6.5,0,0,0,1,0,0,250,250,0,,,,,,,,,,,,,,,,
36343,1625652224227,0,1,49,51,32,31,1,0.18,-0.07,1.73,0,5,3,0.2,0,71,4650,8,29,62,0.906,0.0,480,4.8,13.6,0.0,1,29.6,2.74,6.5,0,0,0,1,0,0,250,250,0,52.961876,6.522994,0.0,31.5,10,3,1.5,0,0.0,-1,0.0,,0.0,0,0.0,0.6057
36363,1625652224247,,,,,,,,0.11,0.02,1.58,0,7,6,0.11,,71,4569,7,29,61,0.906,0.0,456,4.79,13.5,0.0,1,28.3,2.67,6.5,0,0,0,1,0,0,250,250,0,,,,,,,,,,,,,,,,
36383,1625652224267,,,,,,,,0.12,0.0,1.45,0,7,8,0.12,,71,4713,7,29,61,0.907,0.0,471,4.78,13.3,0.0,1,30.2,1.59,5.8,0,0,0,1,0,0,250,250,0,,,,,,,,,,,,,,,,
36403,1625652224287,,,,,,,,0.16,0.05,1.64,0,5,6,0.17,,71,4813,8,29,61,0.908,0.0,486,4.81,13.4,0.0,1,31.5,2.76,5.8,0,0,0,1,0,0,250,250,0,,,,,,,,,,,,,,,,
36423,1625652224306,,,,,,,,0.25,0.1,1.64,0,4,5,0.27,,71,4815,9,29,61,0.909,0.0,488,4.79,13.4,0.0,1,31.5,2.76,5.8,0,0,0,1,0,0,250,250,0,,,,,,,,,,,,,,,,
36443,1625652224326,0,2,48,50,33,32,1,0.3,0.09,1.61,0,0,2,0.31,0,71,4742,9,29,62,0.91,0.0,483,4.79,13.6,0.0,1,30.8,2.78,5.8,0,0,0,1,0,0,250,250,0,52.961876,6.522994,0.0,31.5,10,3,1.6,0,0.0,-1,0.0,0.0,0.0,0,0.0,0.6074
36463,1625652224346,,,,,,,,0.15,0.06,1.48,0,3,4,0.16,,71,4707,9,29,63,0.913,0.0,466,4.78,13.5,0.0,1,30.6,2.81,5.8,0,0,0,1,0,0,250,250,0,,,,,,,,,,,,,,,,
36483,1625652224366,,,,,,,,0.14,0.05,1.36,0,4,5,0.15,,71,4687,9,29,63,0.92,0.0,467,4.78,13.6,0.0,1,30.4,1.67,5.8,0,0,0,1,0,0,250,250,0,,,,,,,,,,,,,,,,
36503,1625652224386,,,,,,,,0.09,0.03,1.24,0,6,7,0.1,,71,4733,9,29,63,0.928,0.0,476,4.76,13.3,0.0,1,31.0,1.69,6.0,0,0,0,1,0,0,250,250,0,,,,,,,,,,,,,,,,
36523,1625652224406,,,,,,,,0.0,0.03,1.47,0,7,5,0.03,,72,4785,9,29,63,0.936,0.0,471,4.76,13.3,0.0,1,31.7,2.85,6.0,0,0,0,1,0,0,250,250,0,,,,,,,,,,,,,,,,
36543,1625652224426,1,3,47,50,32,31,1,0.02,0.08,1.68,-0,3,2,0.08,0,72,4831,9,29,63,0.943,0.0,487,4.82,13.5,0.0,1,32.3,2.86,6.0,0,0,0,1,0,0,250,250,0,52.961876,6.522994,0.0,31.5,10,3,1.6,0,0.0,-1,0.0,,0.0,0,0.0,0.609
36563,1625652224446,,,,,,,,0.07,0.03,1.54,-0,4,3,0.08,,72,4907,9,29,64,0.947,0.0,491,4.76,13.6,0.0,1,33.6,2.89,6.0,0,0,0,1,0,0,250,250,0,,,,,,,,,,,,,,,,
36583,1625652224466,,,,,,,,0.03,0.03,1.41,0,7,6,0.05,,72,4927,9,29,65,0.952,0.0,491,4.76,13.5,0.0,1,34.2,3.0,6.8,0,0,0,1,0,0,250,250,0,,,,,,,,,,,,,,,,
36603,1625652224486,,,,,,,,0.01,0.06,1.63,-0,4,3,0.06,,72,4935,9,29,64,0.96,0.0,511,4.79,13.4,0.0,1,34.0,2.95,6.8,0,0,0,1,0,0,250,250,0,,,,,,,,,,,,,,,,
36623,1625652224506,,,,,,,,0.07,0.03,1.69,-0,2,1,0.07,,72,4968,9,29,65,0.966,0.0,507,4.84,13.6,0.0,1,34.7,3.02,6.8,0,0,0,1,0,0,250,250,0,,,,,,,,,,,,,,,,
36643,1625652224526,-1,2,47,50,32,31,1,0.06,-0.02,1.54,0,5,4,0.06,0,72,4982,9,29,65,0.971,0.0,505,4.81,13.4,0.0,1,34.9,1.9,6.8,0,0,0,1,0,0,250,250,0,52.961876,6.522994,0.0,31.5,10,3,1.6,0,0.0,-1,0.0,0.0,0.0,0,0.0,0.6107
36663,1625652224546,,,,,,,,0.01,-0.01,1.75,-0,3,3,0.01,,72,5001,9,29,65,0.978,0.0,514,4.73,13.3,0.0,1,35.2,1.91,6.8,0,0,0,1,0,0,250,250,0,,,,,,,,,,,,,,,,
36683,1625652224566,,,,,,,,0.08,0.01,1.94,-0,-0,-1,0.08,,72,5081,9,29,65,0.984,0.0,510,4.78,13.6,0.0,1,35.2,3.02,6.8,0,0,0,1,0,0,250,250,0,,,,,,,,,,,,,,,,
36703,1625652224586,,,,,,,,-0.0,-0.02,1.77,0,5,5,0.02,,72,5142,9,29,65,0.991,0.0,517,4.75,13.5,0.0,1,35.2,3.01,7.1,0,0,0,1,0,0,250,250,0,,,,,,,,,,,,,,,,
36723,1625652224606,,,,,,,,0.1,0.04,1.96,-0,-3,-2,0.1,,72,5252,9,29,65,0.983,0.0,532,4.84,13.6,0.0,1,35.2,2.99,7.1,0,0,0,1,0,0,250,250,0,,,,,,,,,,,,,,,,
36743,1625652224604,0,1,48,50,32,31,-0,-0.02,-0.01,1.8,0,5,7,0.02,0,72,5325,9,29,65,0.976,0.0,541,4.78,13.5,0.0,1,35.1,1.86,7.1,0,0,0,1,0,0,250,250,0,52.961876,6.522994,0.0,31.5,10,3,1.6,0,0.0,-1,0.0,,0.0,0,0.0,0.6124
36763,1625652224624,,,,,,,,0.12,0.02,1.98,-0,-4,-2,0.13,,72,5441,9,29,65,0.966,0.0,545,4.86,13.6,0.0,1,35.0,2.96,7.1,0,0,0,1,0,0,250,250,0,,,,,,,,,,,,,,,,
36783,1625652224644,,,,,,,,0.08,0.01,1.85,-0,2,1,0.08,,72,5519,9,29,64,0.958,0.0,565,4.72,13.4,0.0,1,34.8,2.83,7.2,0,0,0,1,0,0,250,250,0,,,,,,,,,,,,,,,,
36803,1625652224664,,,,,,,,-0.01,-0.01,1.7,0,7,5,0.02,,72,5557,9,29,64,0.952,0.0,565,4.78,13.3,0.0,1,34.8,1.7,7.2,0,0,0,1,0,0,250,250,0,,,,,,,,,,,,,,,,
36823,1625652224706,,,,,,,,0.1,-0.01,1.89,-0,1,-2,0.1,,72,5639,9,29,64,0.942,0.0,562,4.81,13.5,0.0,1,34.7,2.81,7.2,0,0,0,1,0,0,250,250,0,,,,,,,,,,,,,,,,
36843,1625652224726,-1,2,48,50,31,31,1,0.16,-0.03,2.06,-0,-4,-5,0.16,0,72,5704,9,29,63,0.935,0.0,574,4.83,13.6,0.0,1,34.5,2.65,7.2,0,0,0,1,0,0,250,250,0,52.961876,6.522994,0.0,31.5,10,3,1.6,0,0.0,-1,0.0,0.0,0.0,0,0.0,0.614
36863,1625652224746,,,,,,,,0.14,-0.03,1.89,-0,-2,-4,0.14,,72,5799,9,29,63,0.928,0.0,590,4.78,13.5,0.0,1,34.4,2.61,7.2,0,0,0,1,0,0,250,250,0,,,,,,,,,,,,,,,,
36883,1625652224766,,,,,,,,0.09,-0.02,1.73,-0,1,-1,0.09,,72,5916,9,29,62,0.922,0.0,598,4.74,13.3,0.0,1,34.2,1.28,7.2,0,0,0,1,0,0,250,250,0,,,,,,,,,,,,,,,,
36903,1625652224786,,,,,,,,0.05,0.01,1.59,0,3,1,0.05,,72,6003,9,29,62,0.915,0.0,603,4.76,13.3,0.0,1,34.3,2.36,6.6,0,0,0,1,0,0,250,250,0,,,,,,,,,,,,,,,,
36923,1625652224806,,,,,,,,0.08,0.03,1.46,0,4,2,0.08,,72,6129,9,29,61,0.906,0.0,613,4.77,13.5,0.0,1,34.6,2.23,6.6,0,0,0,1,0,0,250,250,0,,,,,,,,,,,,,,,,
36943,1625652224826,-1,2,48,50,32,31,1,0.14,0.03,1.67,0,2,0,0.14,0,72,6229,9,29,60,0.9,0.0,628,4.75,13.4,0.0,1,34.7,2.26,6.6,0,0,0,1,0,0,250,250,0,52.961876,6.522994,0.0,31.5,10,3,1.6,0,0.0,-1,0.0,,0.0,0,0.0,0.6157
36963,1625652224846,,,,,,,,0.19,0.01,1.86,0,-2,-3,0.19,,72,6330,9,29,59,0.897,0.0,632,4.78,13.6,0.0,1,34.8,2.28,6.6,0,0,0,1,0,0,250,250,0,,,,,,,,,,,,,,,,
36983,1625652224866,,,,,,,,0.12,0.02,1.71,0,0,-1,0.12,,72,6421,9,29,58,0.896,0.0,638,4.8,13.5,0.0,1,34.9,2.29,6.8,0,0,0,1,0,0,250,250,0,,,,,,,,,,,,,,,,
37003,1625652224886,,,,,,,,0.18,0.03,1.9,0,1,0,0.18,,72,6560,9,29,56,0.897,0.0,645,4.77,13.4,0.0,1,34.9,2.28,6.8,0,0,0,1,0,0,250,250,0,,,,,,,,,,,,,,,,
37023,1625652224906,,,,,,,,0.15,0.01,1.74,0,-2,-3,0.15,,72,6602,9,29,55,0.896,0.0,647,4.76,13.6,0.0,1,34.8,1.14,6.8,0,0,0,1,0,0,250,250,0,,,,,,,,,,,,,,,,
37043,1625652224926,0,1,47,50,32,31,1,0.19,0.03,1.82,0,0,-0,0.19,0,72,6863,9,29,54,0.896,0.0,654,4.76,13.4,0.0,1,35.4,2.25,6.8,0,0,0,1,0,0,250,250,0,52.961876,6.522994,0.0,31.5,10,3,1.6,0,0.0,-1,0.0,0.0,0.0,0,0.0,0.6174
37063,1625652224946,,,,,,,,0.1,-0.01,1.67,0,1,-0,0.1,,72,6983,9,29,53,0.898,0.0,650,4.81,13.5,0.0,1,35.4,2.24,6.8,0,0,0,1,0,0,250,250,0,,,,,,,,,,,,,,,,
37083,1625652224966,,,,,,,,0.11,-0.01,1.86,-0,-2,-3,0.11,,72,7102,9,29,52,0.898,0.0,655,4.86,13.6,0.0,1,35.3,1.13,6.8,0,0,0,1,0,0,250,250,0,,,,,,,,,,,,,,,,
37103,1625652224986,,,,,,,,0.15,-0.04,2.04,-0,-2,-2,0.15,,72,7219,9,29,51,0.897,0.0,663,4.75,13.3,0.0,1,35.2,2.28,7.4,0,0,0,1,0,0,250,250,0,,,,,,,,,,,,,,,,
37123,1625652224998,,,,,,,,0.18,-0.03,2.15,-0,-1,-1,0.18,,72,7338,9,29,50,0.895,0.0,660,4.71,13.4,0.0,1,35.2,2.29,7.4,0,0,0,1,0,0,250,250,0,,,,,,,,,,,,,,,,
37143,1625652225018,0,1,47,50,32,31,1,0.2,0.01,2.26,-0,1,1,0.2,0,72,7440,9,29,49,0.893,0.0,656,4.84,13.3,0.0,1,35.2,1.17,7.4,0,0,0,1,0,0,250,250,0,52.961876,6.522994,0.0,31.5,10,3,1.6,0,0.0,-1,0.0,,0.0,0,0.0,0.6191
37163,1625652225038,,,,,,,,0.22,-0.03,2.3,-0,2,3,0.22,,72,7500,9,29,48,0.891,0.0,658,4.76,13.3,0.0,1,35.2,2.3,7.4,0,0,0,1,0,0,250,250,0,,,,,,,,,,,,,,,,
37183,1625652225058,,,,,,,,0.24,-0.07,2.32,-0,3,3,0.25,,72,7554,9,29,47,0.889,0.0,658,4.73,13.3,0.0,1,35.1,1.17,7.4,0,0,0,1,0,0,250,250,0,,,,,,,,,,,,,,,,
37203,1625652225078,,,,,,,,0.27,-0.09,2.46,-0,3,3,0.28,,72,7600,9,29,46,0.886,0.0,665,4.73,13.4,0.0,1,34.7,2.3,8.0,0,0,0,1,0,0,250,250,0,,,,,,,,,,,,,,,,
37223,1625652225102,,,,,,,,0.3,-0.08,2.59,-0,2,2,0.31,,72,7628,9,29,45,0.885,0.0,667,4.68,13.4,0.0,1,34.3,2.3,8.0,0,0,0,1,0,0,250,250,0,,,,,,,,,,,,,,,,
37243,1625652225122,0,0,48,50,32,30,1,0.31,-0.09,2.71,-0,0,-0,0.33,0,72,7625,9,29,44,0.885,0.0,664,4.72,13.5,0.0,1,33.7,2.3,8.0,0,0,0,1,0,0,250,250,0,52.961876,6.522994,0.0,31.5,10,3,1.6,0,0.0,-1,0.0,0.0,0.0,0,0.0,0.6207
37263,1625652225142,,,,,,,,0.28,-0.11,2.59,-0,-1,-2,0.3,,72,7656,9,29,43,0.884,0.0,663,4.75,13.5,0.0,1,33.2,2.31,8.0,0,0,0,1,0,0,250,250,0,,,,,,,,,,,,,,,,
37283,1625652225162,,,,,,,,0.23,-0.09,2.38,-0,-3,-4,0.24,,72,7646,9,29,42,0.883,0.0,663,4.75,13.5,0.0,1,32.6,2.3,8.1,0,0,0,1,0,0,250,250,0,,,,,,,,,,,,,,,,
37303,1625652225182,,,,,,,,0.15,-0.08,2.18,-0,-3,-5,0.17,,72,7693,9,29,42,0.882,0.0,667,4.91,13.5,0.0,1,32.7,1.17,8.1,0,0,0,1,0,0,250,250,0,,,,,,,,,,,,,,,,
37323,1625652225202,,,,,,,,0.1,-0.02,2.0,-0,-2,-4,0.1,,72,7678,9,29,41,0.88,0.0,665,4.84,13.5,0.0,1,32.1,2.3,8.1,0,0,0,1,0,0,250,250,0,,,,,,,,,,,,,,,,
37343,1625652225222,0,2,48,50,32,31,0,0.07,0.04,1.83,-0,-0,-1,0.08,0,72,7653,9,29,41,0.878,0.0,666,4.83,13.5,0.0,1,32.1,2.3,8.1,0,0,0,1,0,0,250,250,0,52.961876,6.522994,0.0,31.5,10,3,1.6,0,0.0,-1,0.0,,0.0,0,0.0,0.6224
37363,1625652225242,,,,,,,,0.07,0.05,1.68,0,2,3,0.08,,72,7612,9,29,40,0.875,0.0,664,4.82,13.3,0.0,1,31.5,2.3,8.1,0,0,0,1,0,0,250,250,0,,,,,,,,,,,,,,,,
37383,1625652225262,,,,,,,,0.08,-0.02,1.67,0,4,5,0.08,,72,7597,9,29,40,0.875,0.0,663,4.77,13.3,0.0,1,31.5,2.3,8.1,0,0,0,1,0,0,250,250,0,,,,,,,,,,,,,,,,
37403,1625652225203,,,,,,,,0.11,-0.06,1.62,0,5,6,0.12,,72,7542,9,29,40,0.873,0.0,660,4.82,13.5,0.0,1,31.5,1.17,8.1,0,0,0,1,0,0,250,250,0,,,,,,,,,,,,,,,,
37423,1625652225299,,,,,,,,0.14,-0.05,1.76,0,6,7,0.15,,72,7515,8,29,39,0.873,0.0,659,4.84,13.4,0.0,1,31.0,2.3,8.1,0,0,0,1,0,0,250,250,0,,,,,,,,,,,,,,,,
37443,1625652225319,0,1,48,50,32,30,2,0.16,-0.01,1.8,0,7,8,0.16,0,72,7440,7,29,38,0.871,0.0,666,4.73,13.3,0.0,1,30.7,2.3,8.1,0,0,0,1,0,0,250,250,0,52.961876,6.522994,0.0,31.5,10,3,1.6,0,0.0,-1,0.0,0.0,0.0,0,0.0,0.624
37463,1625652225339,,,,,,,,0.14,-0.04,1.65,0,8,10,0.15,,72,7393,7,28,38,0.871,0.0,656,4.79,13.5,0.0,1,30.7,2.24,8.1,0,0,0,1,0,0,250,250,0,,,,,,,,,,,,,,,,
37483,1625652225359,,,,,,,,0.1,-0.03,1.51,0,9,11,0.1,,72,7364,7,28,37,0.869,0.0,657,4.74,13.4,0.0,1,30.4,1.06,8.1,0,0,0,1,0,0,250,250,0,,,,,,,,,,,,,,,,
37503,1625652225379,,,,,,,,0.05,0.01,1.39,0,9,11,0.05,,72,7312,7,28,37,0.869,0.0,657,4.83,13.5,0.0,1,30.4,2.19,7.4,0,0,0,1,0,0,250,250,0,,,,,,,,,,,,,,,,
37523,1625652225405,,,,,,,,0.04,-0.01,1.27,0,7,8,0.04,,72,7217,7,28,37,0.868,0.0,657,4.82,13.5,0.0,1,30.4,1.06,7.4,0,0,0,1,0,0,250,250,0,,,,,,,,,,,,,,,,
37543,1625652225425,-0,2,48,48,32,31,1,0.08,-0.0,1.5,-0,4,5,0.08,0,72,7148,7,28,36,0.866,0.0,662,4.71,13.4,0.0,1,30.1,1.01,7.4,0,0,0,1,0,0,250,250,0,52.961876,6.522994,0.0,31.5,10,3,1.5,0,0.0,-1,0.0,,0.0,0,0.0,0.6257
37563,1625652225445,,,,,,,,0.1,-0.02,1.52,-0,6,7,0.1,,72,7062,7,28,36,0.865,0.0,656,4.71,13.3,0.0,1,30.1,2.14,7.4,0,0,0,1,0,0,250,250,0,,,,,,,,,,,,,,,,
37583,1625652225465,,,,,,,,0.03,-0.02,1.39,-0,6,7,0.04,,72,7022,7,28,36,0.864,0.0,660,4.8,13.5,0.0,1,30.1,2.14,6.9,0,0,0,1,0,0,250,250,0,,,,,,,,,,,,,,,,
37603,1625652225485,,,,,,,,0.08,-0.05,1.61,-0,3,4,0.1,,72,6941,7,28,36,0.864,0.0,661,4.73,13.6,0.0,1,30.0,2.14,6.9,0,0,0,1,0,0,250,250,0,,,,,,,,,,,,,,,,
37623,1625652225503,,,,,,,,0.04,0.01,1.47,-0,5,6,0.04,,72,6878,7,28,36,0.865,0.0,657,4.75,13.3,0.0,1,29.9,2.14,6.9,0,0,0,1,0,0,250,250,0,,,,,,,,,,,,,,,,
37643,1625652225523,0,0,47,50,32,30,2,0.06,-0.05,1.64,-0,2,3,0.08,0,72,6791,7,28,36,0.867,0.0,650,4.85,13.5,0.0,1,29.8,1.01,6.9,0,0,0,1,0,0,250,250,0,52.961876,6.522994,0.0,31.5,10,3,1.5,0,0.0,-1,0.0,0.0,0.0,0,0.0,0.6274
37663,1625652225543,,,,,,,,0.03,-0.0,1.5,-0,5,6,0.03,,72,6691,7,28,37,0.869,0.0,645,4.8,13.4,0.0,1,30.0,1.06,6.9,0,0,0,1,0,0,250,250,0,,,,,,,,,,,,,,,,
37683,1625652225563,,,,,,,,0.09,-0.02,1.71,-0,1,2,0.09,,72,6620,7,28,37,0.872,0.0,639,4.8,13.6,0.0,1,29.9,2.19,6.7,0,0,0,1,0,0,250,250,0,,,,,,,,,,,,,,,,
37703,1625652225583,,,,,,,,-0.03,-0.03,1.56,-0,3,4,0.04,,72,6544,7,28,37,0.873,0.0,636,4.76,13.4,0.0,1,29.9,1.06,6.7,0,0,0,1,0,0,250,250,0,,,,,,,,,,,,,,,,
37723,1625652225601,,,,,,,,0.02,-0.03,1.71,-0,5,5,0.04,,72,6399,7,28,37,0.876,0.0,645,4.73,13.4,0.0,1,29.7,2.19,6.7,0,0,0,1,0,0,250,250,0,,,,,,,,,,,,,,,,
37743,1625652225621,1,1,47,50,31,31,1,0.12,-0.03,1.9,0,0,3,0.12,0,72,6296,7,28,37,0.878,0.0,644,4.76,13.6,0.0,1,29.6,2.19,6.7,0,0,0,1,0,0,250,250,0,52.961876,6.522994,0.0,31.5,10,3,1.5,0,0.0,-1,0.0,,0.0,0,0.0,0.629
37763,1625652225641,,,,,,,,0.17,-0.02,2.08,0,-4,-1,0.18,,72,6153,7,28,37,0.882,0.0,632,4.81,13.6,0.0,1,29.4,2.19,6.7,0,0,0,1,0,0,250,250,0,,,,,,,,,,,,,,,,
37783,1625652225661,,,,,,,,0.23,-0.01,2.24,0,-8,-4,0.23,,72,5978,7,28,38,0.883,0.0,620,4.78,13.6,0.0,1,29.5,2.25,6.7,0,0,0,1,0,0,250,250,0,,,,,,,,,,,,,,,,
37803,1625652225681,,,,,,,,0.31,-0.0,2.38,0,-11,-7,0.31,,72,5803,7,28,39,0.887,0.0,607,4.81,13.6,0.0,1,29.3,2.37,6.2,0,0,0,1,0,0,250,250,0,,,,,,,,,,,,,,,,
37823,1625652225701,,,,,,,,0.29,0.01,2.52,0,-7,-4,0.29,,72,5622,7,28,40,0.89,0.0,603,4.77,13.2,0.0,1,29.0,1.31,6.2,0,0,0,1,0,0,250,250,0,,,,,,,,,,,,,,,,
37843,1625652225721,-1,2,48,50,32,31,2,0.15,-0.03,2.31,0,-2,0,0.15,0,72,5487,7,28,41,0.892,0.0,581,4.75,13.4,0.0,1,28.8,2.49,6.2,0,0,0,1,0,0,250,250,0,52.961876,6.522994,0.0,31.5,10,3,1.5,0,0.0,-1,0.0,0.0,0.0,0,0.0,0.6307
37863,1625652225741,,,,,,,,0.27,-0.01,2.45,0,-15,-8,0.27,,72,5314,7,28,42,0.895,0.0,561,4.86,13.6,0.0,1,28.8,2.57,6.2,0,0,0,1,0,0,250,250,0,,,,,,,,,,,,,,,,
37883,1625652225761,,,,,,,,0.15,-0.01,2.24,0,-5,1,0.15,,72,5193,7,28,44,0.897,0.0,553,4.78,13.5,0.0,1,29.1,1.53,6.2,0,0,0,1,0,0,250,250,0,,,,,,,,,,,,,,,,
37903,1625652225781,,,,,,,,0.23,0.03,2.39,0,-11,-5,0.23,,72,5045,7,28,44,0.901,0.0,538,4.82,13.5,0.0,1,28.8,2.72,6.4,0,0,0,1,0,0,250,250,0,,,,,,,,,,,,,,,,
37923,1625652225802,,,,,,,,0.23,-0.03,2.19,0,-8,-3,0.23,,72,4914,7,28,45,0.902,0.0,514,4.82,13.6,0.0,1,27.9,2.71,6.4,0,0,0,1,0,0,250,250,0,,,,,,,,,,,,,,,,
37943,1625652225822,1,0,48,50,32,31,1,0.18,0.01,2.01,0,-5,-0,0.18,0,72,4821,7,28,46,0.906,0.0,508,4.78,13.5,0.0,1,27.1,2.69,6.4,0,0,0,1,0,0,250,250,0,52.961876,6.522994,0.0,31.5,10,3,1.6,0,0.0,-1,0.0,,0.0,0,0.0,0.6324
37963,1625652225842,,,,,,,,0.12,-0.0,2.17,0,-4,-0,0.12,,72,4767,7,28,47,0.909,0.0,497,4.77,13.3,0.0,1,26.3,1.53,6.4,0,0,0,1,0,0,250,250,0,,,,,,,,,,,,,,,,
37983,1625652225862,,,,,,,,0.08,0.02,2.32,0,-5,-2,0.08,,72,4586,7,28,48,0.913,0.0,478,4.78,13.3,0.0,1,24.8,2.59,5.5,0,0,0,1,0,0,250,250,0,,,,,,,,,,,,,,,,
38003,1625652225882,,,,,,,,0.05,0.02,2.46,0,-5,-2,0.05,,72,4496,7,28,48,0.916,0.0,466,4.78,13.3,0.0,1,23.7,2.54,5.5,0,0,0,1,0,0,250,250,0,,,,,,,,,,,,,,,,
38023,1625652225905,,,,,,,,0.02,0.02,2.59,0,-5,-2,0.03,,72,4484,7,28,49,0.921,0.0,446,4.83,13.4,0.0,1,23.9,1.4,5.5,0,0,0,1,0,0,250,250,0,,,,,,,,,,,,,,,,
38043,1625652225925,1,0,48,50,32,31,2,0.0,0.03,2.69,0,-5,-2,0.03,0,72,4366,7,28,50,0.926,0.0,446,4.75,13.3,0.0,1,22.7,1.34,5.5,0,0,0,1,0,0,250,250,0,52.961876,6.522994,0.0,31.5,10,3,1.6,0,0.0,-1,0.0,0.0,0.0,0,0.0,0.634
38063,1625652225945,,,,,,,,-0.02,0.01,2.56,0,-5,-1,0.02,,72,4337,7,28,51,0.932,0.0,431,4.78,13.4,0.0,1,22.6,1.32,5.5,0,0,0,1,0,0,250,250,0,,,,,,,,,,,,,,,,
38083,1625652225965,,,,,,,,-0.01,-0.01,2.35,0,-4,-0,0.01,,72,4240,7,28,52,0.94,0.0,417,4.81,13.5,0.0,1,21.7,2.39,4.6,0,0,0,1,0,0,250,250,0,,,,,,,,,,,,,,,,
38103,1625652225985,,,,,,,,0.01,-0.04,2.15,0,-2,0,0.04,,72,4268,7,28,52,0.949,0.0,420,4.78,13.6,0.0,1,22.0,2.41,4.6,0,0,0,1,0,0,250,250,0,,,,,,,,,,,,,,,,
38123,1625652226005,,,,,,,,0.04,-0.03,2.02,0,-2,-0,0.05,,72,4193,7,28,53,0.965,0.0,411,4.8,13.6,0.0,1,21.4,2.35,4.6,0,0,0,1,0,0,250,250,0,,,,,,,,,,,,,,,,
38143,1625652226025,1,2,47,50,32,31,1,0.03,-0.01,2.18,0,-3,-1,0.03,0,72,4208,7,28,53,0.974,0.0,415,4.78,13.4,0.0,1,21.6,2.36,4.6,0,0,0,1,0,0,250,250,0,52.961876,6.522994,0.0,31.5,10,3,1.6,0,0.0,-1,0.0,,0.0,0,0.0,0.6357
38163,1625652225993,,,,,,,,0.01,0.02,2.25,0,-4,-1,0.02,,72,4174,7,28,54,0.989,0.0,410,4.76,13.3,0.0,1,21.4,2.33,4.6,0,0,0,1,0,0,250,250,0,,,,,,,,,,,,,,,,
38183,1625652226013,,,,,,,,0.02,0.02,2.06,0,-3,-0,0.03,,72,4082,7,28,55,0.999,0.0,405,4.8,13.6,0.0,1,20.5,1.16,4.6,0,0,0,1,0,0,250,250,0,,,,,,,,,,,,,,,,
38203,1625652226033,,,,,,,,0.04,0.02,1.89,-0,-2,-0,0.04,,72,4157,7,28,55,1.011,0.0,401,4.77,13.5,0.0,1,21.4,2.34,4.3,0,0,0,1,0,0,250,250,0,,,,,,,,,,,,,,,,
38223,1625652226053,,,,,,,,0.04,0.03,1.99,-0,-2,-1,0.05,,72,4166,7,28,55,1.024,0.0,416,4.76,13.3,0.0,1,21.5,2.34,4.3,0,0,0,1,0,0,250,250,0,,,,,,,,,,,,,,,,
38243,1625652226073,-0,2,47,50,32,31,1,0.02,0.04,2.1,-0,-3,-1,0.04,0,72,4099,7,28,56,1.038,0.0,403,4.75,13.3,0.0,1,20.9,2.34,4.3,0,0,0,1,0,0,250,250,0,52.961876,6.522994,0.0,31.5,10,3,1.6,0,0.0,-1,0.0,0.0,0.0,0,0.0,0.6374
38263,1625652226093,,,,,,,,0.01,0.02,1.92,-0,-2,-0,0.02,,72,4174,7,28,57,1.046,0.0,402,4.83,13.6,0.0,1,22.1,2.41,4.3,0,0,0,1,0,0,250,250,0,,,,,,,,,,,,,,,,
38283,1625652226113,,,,,,,,0.03,-0.02,1.76,-0,-1,0,0.03,,72,4223,7,28,57,1.048,0.0,408,4.82,13.6,0.0,1,22.7,2.44,4.7,0,0,0,1,0,0,250,250,0,,,,,,,,,,,,,,,,
38303,1625652226105,,,,,,,,0.06,-0.03,1.65,0,-1,-0,0.06,,72,4224,7,28,57,1.05,0.0,407,4.8,13.6,0.0,1,22.8,2.44,4.7,0,0,0,1,0,0,250,250,0,,,,,,,,,,,,,,,,
38323,1625652226201,,,,,,,,0.07,-0.03,1.84,-0,-2,-1,0.07,,72,4322,7,28,57,1.051,0.0,418,4.74,13.4,0.0,1,24.0,1.36,4.7,0,0,0,1,0,0,250,250,0,,,,,,,,,,,,,,,,
38343,1625652226221,-0,2,47,50,32,30,2,0.06,0.0,2.02,-0,-3,-2,0.06,0,72,4319,7,28,57,1.052,0.0,419,4.76,13.3,0.0,1,23.9,2.49,4.7,0,0,0,1,0,0,250,250,0,52.961876,6.522994,0.0,31.5,10,3,1.6,0,0.0,-1,0.0,,0.0,0,0.0,0.639
38363,1625652226241,,,,,,,,0.02,0.03,2.19,-0,-4,-3,0.04,,72,4368,7,28,58,1.041,0.0,430,4.8,13.4,0.0,1,24.9,1.4,4.7,0,0,0,1,0,0,250,250,0,,,,,,,,,,,,,,,,
38383,1625652226261,,,,,,,,-0.0,0.04,2.3,-0,-4,-3,0.04,,72,4398,7,28,58,1.03,0.0,423,4.75,13.3,0.0,1,25.2,1.42,4.7,0,0,0,1,0,0,250,250,0,,,,,,,,,,,,,,,,
38403,1625652226281,,,,,,,,-0.03,0.03,2.18,-0,-3,-2,0.04,,72,4385,7,28,58,1.016,0.0,432,4.81,13.4,0.0,1,25.3,2.54,5.2,0,0,0,1,0,0,250,250,0,,,,,,,,,,,,,,,,
38423,1625652226301,,,,,,,,-0.06,0.02,2.0,-0,-2,-0,0.06,,72,4448,7,28,58,1.004,0.0,431,4.81,13.4,0.0,1,26.0,2.59,5.2,0,0,0,1,0,0,250,250,0,,,,,,,,,,,,,,,,
38443,1625652226304,-0,2,48,50,32,31,1,-0.08,0.04,1.83,-0,-1,0,0.09,0,72,4481,7,28,59,0.994,0.0,432,4.8,13.5,0.0,1,26.6,1.47,5.2,0,0,0,1,0,0,250,250,0,52.961876,6.522994,0.0,31.5,10,3,1.5,0,0.0,-1,0.0,0.0,0.0,0,0.0,0.6407
38463,1625652226324,,,,,,,,-0.11,0.03,1.68,0,1,2,0.11,,72,4476,7,28,59,0.978,0.0,440,4.83,13.5,0.0,1,26.5,2.6,5.2,0,0,0,1,0,0,250,250,0,,,,,,,,,,,,,,,,
38483,1625652226344,,,,,,,,-0.12,0.03,1.54,0,2,3,0.13,,72,4514,7,28,59,0.965,0.0,440,4.81,13.4,0.0,1,27.0,2.63,5.5,0,0,0,1,0,0,250,250,0,,,,,,,,,,,,,,,,
38503,1625652226364,,,,,,,,-0.14,0.02,1.42,0,2,3,0.14,,72,4542,7,28,59,0.956,0.0,448,4.79,13.5,0.0,1,27.4,1.51,5.5,0,0,0,1,0,0,250,250,0,,,,,,,,,,,,,,,,
38523,1625652226406,,,,,,,,-0.17,0.03,1.4,0,3,3,0.17,,72,4593,7,28,59,0.944,0.0,457,4.83,13.4,0.0,1,28.0,2.65,5.5,0,0,0,1,0,0,250,250,0,,,,,,,,,,,,,,,,
38543,1625652226426,1,0,48,50,31,31,1,-0.19,0.03,1.58,0,2,2,0.19,0,72,4614,7,28,59,0.939,0.0,447,4.8,13.4,0.0,1,28.3,1.54,5.5,0,0,0,1,0,0,250,250,0,52.961876,6.522994,0.0,31.5,10,3,1.5,0,0.0,-1,0.0,,0.0,0,0.0,0.6424
38563,1625652226446,,,,,,,,-0.2,0.04,1.78,0,1,1,0.21,,72,4643,7,28,59,0.93,0.0,465,4.79,13.3,0.0,1,28.7,2.68,5.5,0,0,0,1,0,0,250,250,0,,,,,,,,,,,,,,,,
38583,1625652226466,,,,,,,,-0.18,0.05,1.96,-0,-1,-0,0.19,,72,4671,7,28,59,0.924,0.0,457,4.73,13.5,0.0,1,29.0,1.56,5.5,0,0,0,1,0,0,250,250,0,,,,,,,,,,,,,,,,
38603,1625652226486,,,,,,,,-0.13,0.06,2.13,-0,-3,-1,0.14,,72,4681,7,28,59,0.921,0.0,467,4.76,13.6,0.0,1,29.2,2.7,5.8,0,0,0,1,0,0,250,250,0,,,,,,,,,,,,,,,,
38623,1625652226502,,,,,,,,-0.06,0.03,1.95,-0,-3,-2,0.07,,72,4720,7,28,59,0.92,0.0,471,4.8,13.6,0.0,1,29.7,2.72,5.8,0,0,0,1,0,0,250,250,0,,,,,,,,,,,,,,,,
38643,1625652226522,-0,2,48,50,32,31,1,-0.04,0.01,1.79,-0,-1,0,0.04,0,72,4736,7,28,59,0.92,0.0,465,4.82,13.6,0.0,1,29.9,2.73,5.8,0,0,0,1,0,0,250,250,0,52.961876,6.522994,0.0,31.5,10,3,1.5,0,0.0,-1,0.0,0.0,0.0,0,0.0,0.644
38663,1625652226542,,,,,,,,-0.03,0.03,1.64,0,1,2,0.04,,72,4678,7,28,59,0.919,0.0,473,4.82,13.6,0.0,1,29.1,2.7,5.8,0,0,0,1,0,0,250,250,0,,,,,,,,,,,,,,,,
38683,1625652226562,,,,,,,,-0.06,0.04,1.5,0,2,3,0.07,,72,4682,7,28,59,0.921,0.0,461,4.76,13.4,0.0,1,28.9,2.7,5.8,0,0,0,1,0,0,250,250,0,,,,,,,,,,,,,,,,
38703,1625652226582,,,,,,,,-0.1,0.05,1.5,0,2,3,0.11,,72,4627,7,28,59,0.923,0.0,462,4.82,13.3,0.0,1,28.5,1.55,5.8,0,0,0,1,0,0,250,250,0,,,,,,,,,,,,,,,,
38723,1625652226602,,,,,,,,-0.13,0.06,1.71,-0,0,1,0.14,,72,4668,7,28,58,0.925,0.0,466,4.8,13.3,0.0,1,28.7,2.69,5.8,0,0,0,1,0,0,250,250,0,,,,,,,,,,,,,,,,
38743,1625652226622,-0,4,47,50,32,30,1,-0.13,0.07,1.9,-0,-1,-0,0.14,0,72,4671,7,28,58,0.927,0.0,466,4.79,13.5,0.0,1,28.7,2.69,5.8,0,0,0,1,0,0,250,250,0,52.961876,6.522994,0.0,31.5,10,3,1.5,0,0.0,-1,0.0,,0.0,0,0.0,0.6457
38763,1625652226642,,,,,,,,-0.09,0.08,2.07,-0,-4,-2,0.12,,72,4696,7,28,58,0.929,0.0,473,4.77,13.5,0.0,1,29.1,2.71,5.8,0,0,0,1,0,0,250,250,0,,,,,,,,,,,,,,,,
38783,1625652226662,,,,,,,,-0.04,0.07,1.98,-0,-4,-2,0.09,,72,4678,7,28,59,0.932,0.0,469,4.78,13.6,0.0,1,29.1,2.7,5.8,0,0,0,1,0,0,250,250,0,,,,,,,,,,,,,,,,
38803,1625652226682,,,,,,,,0.01,0.03,1.82,-0,-2,-1,0.03,,72,4718,7,29,59,0.936,0.0,465,4.82,13.6,0.0,1,29.7,2.72,5.8,0,0,0,1,0,0,250,250,0,,,,,,,,,,,,,,,,
38823,1625652226700,,,,,,,,-0.0,0.03,1.66,0,0,1,0.03,,72,4732,7,29,59,0.939,0.0,471,4.78,13.5,0.0,1,29.8,1.6,5.8,0,0,0,1,0,0,250,250,0,,,,,,,,,,,,,,,,
38843,1625652226720,1,0,48,50,32,30,1,-0.03,0.04,1.52,0,1,2,0.05,0,72,4693,7,29,59,0.94,0.0,470,4.76,13.4,0.0,1,29.3,2.7,5.8,0,0,0,1,0,0,250,250,0,52.961876,6.522994,0.0,31.5,10,3,1.6,0,0.0,-1,0.0,0.0,0.0,0,0.0,0.6474
38863,1625652226740,,,,,,,,-0.06,0.04,1.73,0,1,2,0.07,,72,4675,7,29,59,0.941,0.0,472,4.76,13.4,0.0,1,29.1,2.69,5.8,0,0,0,1,0,0,250,250,0,,,,,,,,,,,,,,,,
38883,1625652226760,,,,,,,,-0.09,0.04,1.92,0,1,1,0.1,,72,4629,7,29,59,0.941,0.0,474,4.78,13.4,0.0,1,28.5,1.55,5.8,0,0,0,1,0,0,250,250,0,,,,,,,,,,,,,,,,
38903,1625652226780,,,,,,,,-0.05,0.04,2.09,-0,-2,-1,0.06,,72,4663,7,29,59,0.941,0.0,463,4.82,13.3,0.0,1,28.9,2.69,5.7,0,0,0,1,0,0,250,250,0,,,,,,,,,,,,,,,,
38923,1625652226802,,,,,,,,0.01,0.01,1.97,-0,-4,-2,0.02,,72,4708,7,29,59,0.939,0.0,473,4.76,13.6,0.0,1,29.5,2.71,5.7,0,0,0,1,0,0,250,250,0,,,,,,,,,,,,,,,,
38943,1625652226822,1,2,47,50,32,31,1,0.04,-0.02,1.8,-0,-4,-2,0.04,0,72,4709,7,29,59,0.936,0.0,468,4.8,13.6,0.0,1,29.5,2.72,5.7,0,0,0,1,0,0,250,250,0,52.961876,6.522994,0.0,31.5,10,3,1.6,0,0.0,-1,0.0,,0.0,0,0.0,0.649
38963,1625652226842,,,,,,,,0.04,-0.03,1.65,-0,-2,-1,0.05,,72,4713,7,29,59,0.931,0.0,471,4.76,13.6,0.0,1,29.6,2.72,5.7,0,0,0,1,0,0,250,250,0,,,,,,,,,,,,,,,,
38983,1625652226862,,,,,,,,0.01,-0.0,1.52,0,-0,1,0.01,,72,4696,7,29,59,0.926,0.0,466,4.81,13.5,0.0,1,29.4,2.71,5.8,0,0,0,1,0,0,250,250,0,,,,,,,,,,,,,,,,
39003,1625652226882,,,,,,,,-0.03,0.02,1.47,0,1,2,0.04,,73,4652,7,29,59,0.923,0.0,460,4.76,13.5,0.0,1,28.8,1.56,5.8,0,0,0,1,0,0,250,250,0,,,,,,,,,,,,,,,,
39023,1625652226906,,,,,,,,-0.07,0.01,1.68,0,2,3,0.07,,72,4707,7,29,59,0.917,0.0,476,4.76,13.4,0.0,1,29.5,2.69,5.8,0,0,0,1,0,0,250,250,0,,,,,,,,,,,,,,,,
39043,1625652226926,1,0,48,50,32,30,2,-0.07,0.03,1.88,0,1,2,0.07,0,73,4679,7,29,59,0.915,0.0,470,4.76,13.4,0.0,1,29.1,1.57,5.8,0,0,0,1,0,0,250,250,0,52.961876,6.522994,0.0,31.5,10,3,1.6,0,0.0,-1,0.0,0.0,0.0,0,0.0,0.6507
39063,1625652226946,,,,,,,,-0.05,0.04,2.05,-0,-0,0,0.07,,73,4615,7,29,59,0.909,0.0,466,4.77,13.4,0.0,1,28.3,2.67,5.8,0,0,0,1,0,0,250,250,0,,,,,,,,,,,,,,,,
