"Interval"|"ms"|0|0|1,"Utc"|"ms"|0|0|1,"Brake_F"|"Bar"|0|2000|10,"Brake_R"|"Bar"|0|2000|10,"Height_RF"|"mm"|0|255|10,"Height_LF"|"mm"|0|255|10,"Height_LR"|"mm"|0|80|10,"Height_RR"|"mm"|0|255|10,"Steering"|"deg"|-100|100|10,"AccelX"|"G"|-3.0|3.0|50,"AccelY"|"G"|-3.0|3.0|50,"AccelZ"|"G"|-3.0|3.0|50,"Yaw"|"Deg/Sec"|-120|120|50,"Pitch"|"Deg/Sec"|-120|120|50,"Roll"|"Deg/Sec"|-120|120|50,"Gsum"|"G"|0.0|3.0|50,"Log_Button"|""|0.0|10.0|10,"WaterTemp"|"C"|0|150|50,"RPM"|"tr/min"|0|14000|50,"TPS"|"%"|0|100|50,"AirTemp"|"C"|0|150|50,"MAP"|"KPa"|0|100|50,"Lambda"|""|0.5|1.5|50,"SpeedDTA"|"kph"|0.0|250.0|50,"OilPress"|"KPa"|0|1500|50,"FuelPressur"|"Bar"|0.0|10.0|50,"Batterie"|"V"|0.0|20.0|50,"ConsoKm"|"L/100km"|0.0|200.0|50,"Gear"|""|0|6|50,"AdvIgnition"|"Deg"|-20.0|70.0|50,"Injection"|"ms"|0.0|10.0|50,"ConsoHr"|"L/Hr"|0.0|10000.0|50,"LC_But_Pres"|""|0|1|50,"LC_Active"|""|0|1|50,"TractionOn"|""|0|1|50,"TractionWet"|""|0|1|50,"FanOn"|""|0|1|50,"RD_Speed"|"km/h"|-30|250|50,"RUD_Speed"|"km/h"|-30|250|50,"LD_Speed"|"km/h"|-30|250|50,"LUD_Speed"|"km/h"|-30|250|50,"Latitude"|"Degrees"|-180.0|180.0|10,"Longitude"|"Degrees"|-180.0|180.0|10,"Speed"|"kph"|0.0|150.0|10,"Altitude"|"m"|0.0|4000.0|10,"GPSSats"|""|0|20|10,"GPSQual"|""|0|5|10,"GPSDOP"|""|0.0|20.0|10,"LapCount"|""|0|0|10,"LapTime"|"Min"|0.0|0.0|10,"Sector"|""|0|0|10,"SectorTime"|"Min"|0.0|0.0|10,"PredTime"|"Min"|0.0|0.0|5,"ElapsedTime"|"Min"|0.0|0.0|10,"CurrentLap"|""|0|0|10,"Distance"|"km"|0.0|0.0|10,"SessionTime"|"Min"|0.0|0.0|10
30064,1625676718438,,,,,,,,-0.03,0.04,1.95,-0,2,1,0.05,,55,4671,7,25,57,0.607,0.0,606,4.8,13.1,0.0,1,28.4,2.71,5.7,0,0,0,1,0,0,250,250,0,,,,,,,,,,,,,,,,
30084,1625676718458,,,,,,,,-0.08,0.05,2.12,-0,1,0,0.1,,55,4633,7,25,57,0.607,0.0,611,4.75,13.3,0.0,1,28.0,2.69,5.7,0,0,0,1,0,0,250,250,0,,,,,,,,,,,,,,,,
30104,1625676718478,,,,,,,,-0.04,0.06,2.23,-0,-1,-1,0.07,,55,4619,7,25,57,0.607,0.0,605,4.78,13.2,0.0,1,27.8,2.68,5.7,0,0,0,1,0,0,250,250,0,,,,,,,,,,,,,,,,
30124,1625676718498,,,,,,,,0.03,0.02,2.04,-0,-2,-3,0.03,,55,4643,7,25,57,0.607,0.0,600,4.73,13.4,0.0,1,28.1,2.69,5.7,0,0,0,1,0,0,250,250,0,,,,,,,,,,,,,,,,
30144,1625676718518,1,1,47,50,31,30,5,0.09,-0.02,1.87,-0,-3,-4,0.09,1,55,4636,7,25,57,0.607,0.0,607,4.73,13.4,0.0,1,28.0,1.54,5.7,0,0,0,1,0,0,250,250,0,52.957165,6.521602,0.0,22.8,11,2,1.6,0,0.0,-1,0.0,,0.0,0,0.0,0.5024
30164,1625676718538,,,,,,,,0.13,-0.02,1.72,-0,-1,-3,0.13,,55,4672,7,25,57,0.606,0.0,601,4.77,13.4,0.0,1,28.5,2.71,5.7,0,0,0,1,0,0,250,250,0,,,,,,,,,,,,,,,,
30184,1625676718558,,,,,,,,0.13,-0.02,1.57,-0,0,-1,0.13,,55,4691,7,25,57,0.607,0.0,604,4.78,13.4,0.0,1,28.7,2.72,5.7,0,0,0,1,0,0,250,250,0,,,,,,,,,,,,,,,,
30204,1625676718578,,,,,,,,0.09,-0.0,1.44,-0,2,2,0.09,,55,4652,7,25,57,0.606,0.0,607,4.8,13.4,0.0,1,28.2,1.55,5.7,0,0,0,1,0,0,250,250,0,,,,,,,,,,,,,,,,
30224,1625676718598,,,,,,,,0.03,-0.01,1.5,0,3,4,0.03,,55,4631,7,25,57,0.606,0.0,600,4.77,13.4,0.0,1,27.9,1.54,5.7,0,0,0,1,0,0,250,250,0,,,,,,,,,,,,,,,,
30244,1625676718618,1,3,46,50,31,31,5,-0.03,-0.02,1.71,0,3,4,0.04,1,55,4556,7,25,57,0.607,0.0,607,4.78,13.4,0.0,1,27.0,2.65,5.7,0,0,0,1,0,0,250,250,0,52.957165,6.521602,0.0,22.8,11,2,1.6,0,0.0,-1,0.0,0.0,0.0,0,0.0,0.5041
30264,1625676718638,,,,,,,,-0.1,-0.0,1.9,0,3,4,0.1,,55,4570,7,25,57,0.606,0.0,601,4.76,13.2,0.0,1,27.2,2.64,5.7,0,0,0,1,0,0,250,250,0,,,,,,,,,,,,,,,,
30284,1625676718658,,,,,,,,-0.17,0.03,2.08,-0,3,4,0.17,,55,4597,7,25,57,0.607,0.0,602,4.8,13.3,0.0,1,27.5,2.67,5.7,0,0,0,1,0,0,250,250,0,,,,,,,,,,,,,,,,
30304,1625676718678,,,,,,,,-0.21,0.05,2.24,-0,3,2,0.22,,55,4572,7,25,57,0.607,0.0,610,4.8,13.1,0.0,1,27.2,2.66,5.7,0,0,0,1,0,0,250,250,0,,,,,,,,,,,,,,,,
30324,1625676718698,,,,,,,,-0.23,0.08,2.38,-0,1,1,0.24,,55,4627,7,25,57,0.607,0.0,605,4.77,13.2,0.0,1,27.9,1.54,5.7,0,0,0,1,0,0,250,250,0,,,,,,,,,,,,,,,,
30344,1625676718718,-1,3,47,49,31,31,5,-0.22,0.1,2.52,-0,-0,-1,0.24,1,55,4585,7,25,57,0.607,0.0,614,4.79,13.1,0.0,1,27.4,2.66,5.7,0,0,0,1,0,0,250,250,0,52.957165,6.521602,0.0,22.8,11,2,1.6,0,0.0,-1,0.0,,0.0,0,0.0,0.5057
30364,1625676718738,,,,,,,,-0.18,0.11,2.64,-0,-2,-2,0.21,,55,4588,7,25,57,0.607,0.0,604,4.77,13.1,0.0,1,27.4,2.66,5.7,0,0,0,1,0,0,250,250,0,,,,,,,,,,,,,,,,
30384,1625676718758,,,,,,,,-0.12,0.09,2.53,-0,-3,-4,0.16,,55,4598,7,25,57,0.607,0.0,608,4.68,13.3,0.0,1,27.5,2.67,5.7,0,0,0,1,0,0,250,250,0,,,,,,,,,,,,,,,,
30404,1625676718778,,,,,,,,-0.06,0.06,2.32,-0,-4,-5,0.09,,55,4587,7,25,57,0.607,0.0,616,4.73,13.3,0.0,1,27.4,2.66,5.7,0,0,0,1,0,0,250,250,0,,,,,,,,,,,,,,,,
30424,1625676718797,,,,,,,,0.01,0.04,2.12,-0,-4,-6,0.04,,55,4623,7,25,57,0.607,0.0,598,4.82,13.4,0.0,1,27.8,2.68,5.7,0,0,0,1,0,0,250,250,0,,,,,,,,,,,,,,,,
30444,1625676718817,1,1,47,50,31,31,4,0.07,0.01,1.95,-0,-3,-5,0.07,1,55,4652,7,25,57,0.607,0.0,610,4.78,13.4,0.0,1,28.2,1.55,5.7,0,0,0,1,0,0,250,250,0,52.957165,6.521602,0.0,22.8,11,2,1.8,0,0.0,-1,0.0,0.0,0.0,0,0.0,0.5074
30464,1625676718837,,,,,,,,0.1,-0.03,1.78,-0,-1,-3,0.1,,55,4635,7,25,57,0.607,0.0,601,4.74,13.5,0.0,1,28.0,1.54,5.7,0,0,0,1,0,0,250,250,0,,,,,,,,,,,,,,,,
30484,1625676718857,,,,,,,,0.08,-0.02,1.63,-0,1,0,0.09,,55,4666,7,25,57,0.607,0.0,604,4.77,13.4,0.0,1,28.4,2.7,5.7,0,0,0,1,0,0,250,250,0,,,,,,,,,,,,,,,,
30504,1625676718877,,,,,,,,0.04,-0.02,1.5,0,2,2,0.05,,55,4625,7,25,57,0.607,0.0,611,4.77,13.3,0.0,1,27.9,1.54,5.7,0,0,0,1,0,0,250,250,0,,,,,,,,,,,,,,,,
30524,1625676718897,,,,,,,,-0.01,-0.02,1.67,0,2,3,0.03,,55,4620,7,25,57,0.607,0.0,600,4.76,13.4,0.0,1,27.8,2.68,5.7,0,0,0,1,0,0,250,250,0,,,,,,,,,,,,,,,,
30544,1625676718917,1,2,47,50,31,30,5,-0.09,0.01,1.86,0,3,3,0.09,0,55,4633,7,25,57,0.606,0.0,606,4.81,13.1,0.0,1,28.0,1.54,5.7,0,0,0,1,0,0,250,250,0,52.957165,6.521602,0.0,22.8,11,2,1.8,0,0.0,-1,0.0,,0.0,0,0.0,0.5091
30564,1625676718937,,,,,,,,-0.14,0.03,2.04,-0,2,1,0.15,,55,4601,7,25,57,0.607,0.0,603,4.81,13.2,0.0,1,27.6,1.52,5.7,0,0,0,1,0,0,250,250,0,,,,,,,,,,,,,,,,
30584,1625676718957,,,,,,,,-0.17,0.07,2.2,-0,0,-0,0.19,,55,4595,7,25,57,0.607,0.0,601,4.81,13.2,0.0,1,27.5,2.67,5.7,0,0,0,1,0,0,250,250,0,,,,,,,,,,,,,,,,
30604,1625676718977,,,,,,,,-0.17,0.1,2.35,-0,-1,-2,0.2,,55,4589,7,25,56,0.606,0.0,604,4.73,13.3,0.0,1,27.1,2.66,5.7,0,0,0,1,0,0,250,250,0,,,,,,,,,,,,,,,,
30624,1625676718991,,,,,,,,-0.14,0.1,2.49,-0,-3,-4,0.17,,55,4622,7,25,57,0.607,0.0,593,4.73,13.4,0.0,1,27.8,2.68,5.7,0,0,0,1,0,0,250,250,0,,,,,,,,,,,,,,,,
30644,1625676719011,0,2,47,50,31,31,4,-0.08,0.08,2.35,-0,-4,-5,0.11,0,55,4623,7,25,57,0.606,0.0,605,4.74,13.3,0.0,1,27.8,2.68,5.7,0,0,0,1,0,0,250,250,0,52.957165,6.521602,0.0,22.8,11,2,1.6,0,0.0,-1,0.0,0.0,0.0,0,0.0,0.5107
30664,1625676719031,,,,,,,,-0.01,0.05,2.15,-0,-4,-6,0.05,,55,4617,7,25,57,0.606,0.0,605,4.8,13.5,0.0,1,27.8,2.68,5.7,0,0,0,1,0,0,250,250,0,,,,,,,,,,,,,,,,
30684,1625676719051,,,,,,,,0.06,0.03,1.97,-0,-3,-5,0.06,,55,4621,7,25,57,0.606,0.0,593,4.82,13.5,0.0,1,27.8,2.68,5.7,0,0,0,1,0,0,250,250,0,,,,,,,,,,,,,,,,
30704,1625676719071,,,,,,,,0.12,-0.0,1.81,-0,-2,-4,0.12,,55,4619,7,25,57,0.605,0.0,601,4.74,13.5,0.0,1,27.8,1.53,5.7,0,0,0,1,0,0,250,250,0,,,,,,,,,,,,,,,,
30724,1625676719099,,,,,,,,0.14,-0.03,1.66,-0,-0,-1,0.14,,55,4633,7,25,57,0.605,0.0,599,4.77,13.4,0.0,1,28.0,2.69,5.7,0,0,0,1,0,0,250,250,0,,,,,,,,,,,,,,,,
30744,1625676719119,1,2,47,49,31,30,5,0.13,-0.03,1.52,-0,1,1,0.13,0,55,4595,7,25,57,0.605,0.0,603,4.81,13.4,0.0,1,27.5,2.67,5.7,0,0,0,1,0,0,250,250,0,52.957165,6.521602,0.0,22.8,11,2,1.6,0,0.0,-1,0.0,,0.0,0,0.0,0.5124
30764,1625676719139,,,,,,,,0.09,-0.04,1.39,0,2,4,0.1,,55,4591,7,25,57,0.605,0.0,598,4.79,13.3,0.0,1,27.4,1.51,5.7,0,0,0,1,0,0,250,250,0,,,,,,,,,,,,,,,,
30784,1625676719159,,,,,,,,0.06,-0.05,1.4,0,3,4,0.08,,55,4594,7,25,57,0.605,0.0,598,4.78,13.3,0.0,1,27.5,2.66,5.7,0,0,0,1,0,0,250,250,0,,,,,,,,,,,,,,,,
30804,1625676719179,,,,,,,,-0.01,-0.04,1.57,0,3,5,0.05,,55,4576,7,25,57,0.606,0.0,606,4.75,13.4,0.0,1,27.3,1.51,5.7,0,0,0,1,0,0,250,250,0,,,,,,,,,,,,,,,,
30824,1625676719199,,,,,,,,-0.08,-0.03,1.77,0,3,4,0.09,,55,4622,7,25,57,0.606,0.0,600,4.78,13.2,0.0,1,27.9,1.54,5.7,0,0,0,1,0,0,250,250,0,,,,,,,,,,,,,,,,
30844,1625676719219,-0,5,47,49,31,30,3,-0.13,0.0,1.96,0,2,2,0.13,0,55,4601,7,25,57,0.606,0.0,604,4.8,13.2,0.0,1,27.6,2.67,5.7,0,0,0,1,0,0,250,250,0,52.957165,6.521602,0.0,22.8,11,2,1.6,0,0.0,-1,0.0,0.0,0.0,0,0.0,0.5141
30864,1625676719239,,,,,,,,-0.17,0.04,2.13,-0,0,1,0.17,,55,4595,7,25,57,0.606,0.0,610,4.75,13.2,0.0,1,27.5,2.67,5.7,0,0,0,1,0,0,250,250,0,,,,,,,,,,,,,,,,
30884,1625676719259,,,,,,,,-0.15,0.06,2.28,-0,-2,-1,0.17,,55,4615,7,25,57,0.606,0.0,603,4.71,13.4,0.0,1,27.7,1.53,5.7,0,0,0,1,0,0,250,250,0,,,,,,,,,,,,,,,,
30904,1625676719279,,,,,,,,-0.1,0.06,2.43,-0,-3,-3,0.12,,55,4626,7,25,57,0.606,0.0,610,4.72,13.4,0.0,1,27.9,2.69,5.7,0,0,0,1,0,0,250,250,0,,,,,,,,,,,,,,,,
30924,1625676719299,,,,,,,,-0.04,0.04,2.22,-0,-4,-4,0.06,,55,4649,7,25,57,0.606,0.0,605,4.79,13.4,0.0,1,28.2,2.7,5.8,0,0,0,1,0,0,250,250,0,,,,,,,,,,,,,,,,
30944,1625676719319,1,1,47,50,31,30,5,0.02,0.01,2.04,-0,-3,-4,0.02,0,55,4639,7,25,57,0.606,0.0,606,4.76,13.4,0.0,1,28.0,2.69,5.8,0,0,0,1,0,0,250,250,0,52.957165,6.521602,0.0,22.8,11,2,1.6,0,0.0,-1,0.0,,0.0,0,0.0,0.5157
30964,1625676719339,,,,,,,,0.08,-0.03,1.87,-0,-1,-2,0.08,,55,4651,7,25,57,0.606,0.0,610,4.76,13.5,0.0,1,28.2,1.55,5.8,0,0,0,1,0,0,250,250,0,,,,,,,,,,,,,,,,
30984,1625676719359,,,,,,,,0.11,-0.06,1.71,-0,0,-0,0.12,,55,4606,7,25,57,0.605,0.0,601,4.77,13.4,0.0,1,27.6,2.67,5.8,0,0,0,1,0,0,250,250,0,,,,,,,,,,,,,,,,
31004,1625676719379,,,,,,,,0.11,-0.05,1.57,-0,2,2,0.12,,55,4597,7,25,57,0.605,0.0,605,4.8,13.4,0.0,1,27.5,1.52,5.8,0,0,0,1,0,0,250,250,0,,,,,,,,,,,,,,,,
31024,1625676719399,,,,,,,,0.08,-0.06,1.44,0,3,4,0.1,,55,4593,7,25,57,0.605,0.0,599,4.75,13.4,0.0,1,27.5,2.66,5.6,0,0,0,1,0,0,250,250,0,,,,,,,,,,,,,,,,
31044,1625676719419,1,3,47,50,31,30,5,0.06,-0.08,1.32,0,3,5,0.1,0,55,4563,7,25,57,0.606,0.0,599,4.78,13.3,0.0,1,27.1,1.5,5.6,0,0,0,1,0,0,250,250,0,52.957165,6.521602,0.0,22.8,11,2,1.6,0,0.0,-1,0.0,0.0,0.0,0,0.0,0.5174
31064,1625676719439,,,,,,,,-0.0,-0.06,1.38,0,4,6,0.06,,55,4603,7,25,57,0.606,0.0,608,4.83,13.2,0.0,1,27.7,2.67,5.6,0,0,0,1,0,0,250,250,0,,,,,,,,,,,,,,,,
31084,1625676719459,,,,,,,,-0.06,-0.05,1.6,0,3,5,0.08,,55,4612,7,25,57,0.607,0.0,598,4.78,13.2,0.0,1,27.2,1.51,5.6,0,0,0,1,0,0,250,250,0,,,,,,,,,,,,,,,,
31104,1625676719479,,,,,,,,-0.13,-0.03,1.8,0,2,3,0.13,,55,4591,7,25,57,0.607,0.0,607,4.76,13.3,0.0,1,27.4,2.66,5.6,0,0,0,1,0,0,250,250,0,,,,,,,,,,,,,,,,
31124,1625676719499,,,,,,,,-0.17,0.01,1.98,-0,1,2,0.17,,55,4610,7,25,57,0.607,0.0,602,4.76,13.2,0.0,1,27.7,1.52,5.7,0,0,0,1,0,0,250,250,0,,,,,,,,,,,,,,,,
31144,1625676719519,1,3,46,50,31,31,4,-0.19,0.04,2.15,-0,-1,0,0.2,0,55,4589,7,25,57,0.607,0.0,606,4.81,13.1,0.0,1,27.4,1.51,5.7,0,0,0,1,0,0,250,250,0,52.957165,6.521602,0.0,22.8,11,2,1.6,0,0.0,-1,0.0,,0.0,0,0.0,0.5191
31164,1625676719539,,,,,,,,-0.17,0.05,2.31,-0,-3,-2,0.18,,55,4629,7,25,57,0.607,0.0,607,4.77,13.2,0.0,1,27.9,2.69,5.7,0,0,0,1,0,0,250,250,0,,,,,,,,,,,,,,,,
31184,1625676719559,,,,,,,,-0.12,0.05,2.36,-0,-4,-3,0.13,,55,4641,7,25,57,0.606,0.0,606,4.72,13.3,0.0,1,28.1,1.54,5.7,0,0,0,1,0,0,250,250,0,,,,,,,,,,,,,,,,
31204,1625676719579,,,,,,,,-0.06,0.04,2.16,-0,-4,-4,0.07,,55,4635,7,25,57,0.606,0.0,611,4.77,13.4,0.0,1,28.0,2.69,5.7,0,0,0,1,0,0,250,250,0,,,,,,,,,,,,,,,,
31224,1625676719599,,,,,,,,0.01,-0.0,1.98,-0,-3,-4,0.01,,55,4631,7,25,57,0.606,0.0,603,4.81,13.5,0.0,1,27.9,2.69,5.7,0,0,0,1,0,0,250,250,0,,,,,,,,,,,,,,,,
31244,1625676719619,1,2,47,49,31,31,5,0.07,-0.04,1.81,-0,-2,-2,0.08,0,55,4598,7,25,57,0.606,0.0,599,4.8,13.4,0.0,1,27.5,1.52,5.7,0,0,0,1,0,0,250,250,0,52.957165,6.521602,0.0,22.8,11,2,1.6,0,0.0,-1,0.0,0.0,0.0,0,0.0,0.5207
31264,1625676719639,,,,,,,,0.1,-0.05,1.66,-0,-0,0,0.12,,55,4598,7,25,57,0.606,0.0,607,4.71,13.4,0.0,1,27.5,1.52,5.7,0,0,0,1,0,0,250,250,0,,,,,,,,,,,,,,,,
31284,1625676719659,,,,,,,,0.12,-0.05,1.52,0,1,2,0.13,,55,4598,7,25,57,0.606,0.0,595,4.8,13.5,0.0,1,27.5,2.67,5.7,0,0,0,1,0,0,250,250,0,,,,,,,,,,,,,,,,
31304,1625676719679,,,,,,,,0.12,-0.05,1.4,0,2,4,0.13,,55,4585,7,25,57,0.606,0.0,601,4.8,13.4,0.0,1,27.4,1.51,5.7,0,0,0,1,0,0,250,250,0,,,,,,,,,,,,,,,,
31324,1625676719699,,,,,,,,0.09,-0.04,1.28,0,2,5,0.1,,55,4600,7,25,57,0.606,0.0,604,4.8,13.3,0.0,1,27.6,1.52,5.6,0,0,0,1,0,0,250,250,0,,,,,,,,,,,,,,,,
31344,1625676719719,1,2,47,49,31,31,5,0.05,-0.04,1.28,0,3,5,0.06,0,55,4591,7,25,57,0.606,0.0,596,4.81,13.2,0.0,1,27.0,2.66,5.6,0,0,0,1,0,0,250,250,0,52.957165,6.521602,0.0,22.8,11,2,1.6,0,0.0,-1,0.0,,0.0,0,0.0,0.5224
31364,1625676719739,,,,,,,,-0.01,-0.04,1.44,0,3,4,0.04,,55,4583,7,25,57,0.606,0.0,602,4.83,13.3,0.0,1,27.3,1.5,5.6,0,0,0,1,0,0,250,250,0,,,,,,,,,,,,,,,,
31384,1625676719759,,,,,,,,-0.07,-0.04,1.65,0,2,4,0.08,,55,4542,7,25,57,0.605,0.0,594,4.78,13.2,0.0,1,26.8,2.64,5.6,0,0,0,1,0,0,250,250,0,,,,,,,,,,,,,,,,
31404,1625676719779,,,,,,,,-0.15,-0.0,1.85,0,2,3,0.15,,55,4577,7,25,57,0.605,0.0,601,4.77,13.1,0.0,1,27.3,2.66,5.6,0,0,0,1,0,0,250,250,0,,,,,,,,,,,,,,,,
31424,1625676719798,,,,,,,,-0.2,0.02,2.03,-0,1,1,0.2,,55,4577,7,25,57,0.605,0.0,594,4.81,13.2,0.0,1,27.3,1.51,5.6,0,0,0,1,0,0,250,250,0,,,,,,,,,,,,,,,,
31444,1625676719818,-0,2,47,50,31,31,5,-0.25,0.05,2.19,-0,-1,-0,0.26,0,55,4584,7,25,57,0.606,0.0,597,4.79,13.2,0.0,1,27.4,2.66,5.6,0,0,0,1,0,0,250,250,0,52.957165,6.521602,0.0,22.8,11,2,1.6,0,0.0,-1,0.0,0.0,0.0,0,0.0,0.5241
31464,1625676719838,,,,,,,,-0.28,0.07,2.34,-0,-2,-2,0.29,,55,4587,7,25,57,0.606,0.0,603,4.74,13.3,0.0,1,27.4,2.66,5.6,0,0,0,1,0,0,250,250,0,,,,,,,,,,,,,,,,
31484,1625676719858,,,,,,,,-0.29,0.09,2.48,-0,-3,-3,0.3,,55,4541,7,25,57,0.606,0.0,595,4.77,13.4,0.0,1,26.8,1.49,5.6,0,0,0,1,0,0,250,250,0,,,,,,,,,,,,,,,,
31504,1625676719878,,,,,,,,-0.27,0.1,2.6,-0,-4,-4,0.29,,55,4582,7,25,57,0.606,0.0,593,4.74,13.4,0.0,1,27.3,2.66,5.6,0,0,0,1,0,0,250,250,0,,,,,,,,,,,,,,,,
31524,1625676719898,,,,,,,,-0.23,0.11,2.72,-0,-5,-6,0.25,,55,4562,7,25,57,0.606,0.0,595,4.75,13.4,0.0,1,27.1,2.65,5.6,0,0,0,1,0,0,250,250,0,,,,,,,,,,,,,,,,
31544,1625676719918,0,2,47,49,31,31,5,-0.18,0.1,2.76,-0,-5,-7,0.2,0,55,4588,7,25,57,0.606,0.0,594,4.73,13.3,0.0,1,27.4,1.51,5.6,0,0,0,1,0,0,250,250,0,52.957165,6.521602,0.0,22.8,11,2,1.6,0,0.0,-1,0.0,,0.0,0,0.0,0.5257
31564,1625676719938,,,,,,,,-0.12,0.09,2.53,-0,-4,-7,0.15,,55,4619,7,25,57,0.606,0.0,602,4.82,13.4,0.0,1,27.8,2.68,5.6,0,0,0,1,0,0,250,250,0,,,,,,,,,,,,,,,,
31584,1625676719958,,,,,,,,-0.05,0.06,2.32,-0,-3,-6,0.08,,55,4613,7,25,57,0.605,0.0,592,4.8,13.5,0.0,1,27.7,2.68,5.6,0,0,0,1,0,0,250,250,0,,,,,,,,,,,,,,,,
31604,1625676719978,,,,,,,,0.02,0.04,2.13,-0,-2,-4,0.04,,55,4629,7,25,57,0.605,0.0,600,4.8,13.5,0.0,1,27.9,1.54,5.6,0,0,0,1,0,0,250,250,0,,,,,,,,,,,,,,,,
31624,1625676719998,,,,,,,,0.06,0.02,1.95,-0,0,-1,0.07,,55,4620,7,25,57,0.606,0.0,601,4.8,13.5,0.0,1,27.8,2.68,5.7,0,0,0,1,0,0,250,250,0,,,,,,,,,,,,,,,,
31644,1625676720010,1,2,47,50,31,31,4,0.08,0.01,1.79,-0,1,1,0.08,0,55,4643,7,25,57,0.606,0.0,601,4.8,13.4,0.0,1,28.1,2.69,5.7,0,0,0,1,0,0,250,250,0,52.957165,6.521602,0.0,22.8,11,2,1.6,0,0.0,-1,0.0,0.0,0.0,0,0.0,0.5274
31664,1625676720030,,,,,,,,0.05,0.01,1.64,0,2,2,0.05,,55,4658,7,25,57,0.606,0.0,612,4.75,13.3,0.0,1,28.3,1.55,5.7,0,0,0,1,0,0,250,250,0,,,,,,,,,,,,,,,,
31684,1625676720050,,,,,,,,-0.01,-0.0,1.7,-0,3,2,0.01,,55,4626,7,25,57,0.606,0.0,606,4.81,13.2,0.0,1,27.9,2.68,5.7,0,0,0,1,0,0,250,250,0,,,,,,,,,,,,,,,,
31704,1625676720070,,,,,,,,-0.07,0.01,1.89,-0,2,1,0.07,,55,4659,7,25,57,0.606,0.0,610,4.78,13.2,0.0,1,28.3,1.55,5.7,0,0,0,1,0,0,250,250,0,,,,,,,,,,,,,,,,
31724,1625676720098,,,,,,,,-0.12,0.03,2.07,-0,-0,-1,0.12,,55,4621,7,25,57,0.606,0.0,619,4.78,13.1,0.0,1,27.8,2.68,5.7,0,0,0,1,0,0,250,250,0,,,,,,,,,,,,,,,,
31744,1625676720118,1,3,47,50,31,31,4,-0.08,0.03,2.13,-0,-2,-2,0.08,0,55,4631,7,25,57,0.606,0.0,605,4.78,13.2,0.0,1,27.9,2.69,5.7,0,0,0,1,0,0,250,250,0,52.957165,6.521602,0.0,22.8,11,2,1.6,0,0.0,-1,0.0,,0.0,0,0.0,0.5291
31764,1625676720138,,,,,,,,-0.0,-0.02,1.95,-0,-3,-4,0.02,,55,4658,7,25,57,0.606,0.0,610,4.77,13.4,0.0,1,28.3,2.7,5.7,0,0,0,1,0,0,250,250,0,,,,,,,,,,,,,,,,
31784,1625676720158,,,,,,,,0.06,-0.04,1.79,-0,-3,-4,0.07,,55,4620,7,25,57,0.605,0.0,605,4.75,13.4,0.0,1,27.8,2.68,5.7,0,0,0,1,0,0,250,250,0,,,,,,,,,,,,,,,,
31804,1625676720178,,,,,,,,0.1,-0.05,1.64,-0,-2,-4,0.11,,55,4634,7,25,57,0.605,0.0,603,4.81,13.5,0.0,1,28.0,2.69,5.7,0,0,0,1,0,0,250,250,0,,,,,,,,,,,,,,,,
31824,1625676720198,,,,,,,,0.13,-0.06,1.5,-0,-1,-2,0.15,,55,4598,7,25,57,0.605,0.0,606,4.86,13.5,0.0,1,27.5,1.52,5.7,0,0,0,1,0,0,250,250,0,,,,,,,,,,,,,,,,
31844,1625676720218,-0,1,47,50,31,31,5,0.14,-0.07,1.38,-0,0,0,0.16,0,55,4585,7,25,57,0.605,0.0,593,4.75,13.4,0.0,1,27.4,1.51,5.6,0,0,0,1,0,0,250,250,0,52.957165,6.521602,0.0,22.8,11,2,1.6,0,0.0,-1,0.0,0.0,0.0,0,0.0,0.5307
31864,1625676720238,,,,,,,,0.11,-0.07,1.26,0,2,2,0.13,,55,4635,7,25,57,0.605,0.0,606,4.78,13.5,0.0,1,28.0,2.69,5.6,0,0,0,1,0,0,250,250,0,,,,,,,,,,,,,,,,
31884,1625676720258,,,,,,,,0.07,-0.07,1.16,0,2,4,0.1,,55,4544,7,25,57,0.605,0.0,600,4.77,13.5,0.0,1,26.9,1.49,5.6,0,0,0,1,0,0,250,250,0,,,,,,,,,,,,,,,,
31904,1625676720278,,,,,,,,0.02,-0.07,1.29,0,3,5,0.08,,55,4614,7,25,57,0.606,0.0,597,4.75,13.4,0.0,1,27.7,2.68,5.6,0,0,0,1,0,0,250,250,0,,,,,,,,,,,,,,,,
31924,1625676720298,,,,,,,,-0.06,-0.04,1.52,0,3,5,0.07,,55,4609,7,25,57,0.606,0.0,605,4.82,13.2,0.0,1,27.7,2.67,5.7,0,0,0,1,0,0,250,250,0,,,,,,,,,,,,,,,,
31944,1625676720318,-0,2,47,49,31,31,5,-0.12,-0.01,1.72,0,3,4,0.12,0,55,4578,7,25,57,0.606,0.0,595,4.83,13.3,0.0,1,27.8,1.53,5.7,0,0,0,1,0,0,250,250,0,52.957165,6.521602,0.0,22.8,11,2,1.6,0,0.0,-1,0.0,,0.0,0,0.0,0.5324
31964,1625676720338,,,,,,,,-0.14,0.04,1.91,0,1,2,0.15,,55,4681,7,25,57,0.606,0.0,609,4.76,13.2,0.0,1,28.6,1.57,5.7,0,0,0,1,0,0,250,250,0,,,,,,,,,,,,,,,,
31984,1625676720358,,,,,,,,-0.13,0.06,2.09,-0,-1,1,0.14,,55,4600,7,25,57,0.606,0.0,603,4.75,13.3,0.0,1,27.6,2.67,5.7,0,0,0,1,0,0,250,250,0,,,,,,,,,,,,,,,,
32004,1625676720378,,,,,,,,-0.1,0.06,2.24,-0,-2,-1,0.11,,55,4630,7,25,57,0.606,0.0,602,4.78,13.2,0.0,1,27.9,1.54,5.7,0,0,0,1,0,0,250,250,0,,,,,,,,,,,,,,,,
32024,1625676720398,,,,,,,,-0.04,0.03,2.06,-0,-3,-3,0.05,,55,4593,7,25,57,0.606,0.0,611,4.76,13.3,0.0,1,27.5,2.66,5.6,0,0,0,1,0,0,250,250,0,,,,,,,,,,,,,,,,
32044,1625676720418,1,3,47,50,31,30,5,0.02,-0.0,1.89,-0,-4,-4,0.02,0,56,4585,7,25,57,0.606,0.0,599,4.73,13.4,0.0,1,27.4,2.66,5.6,0,0,0,1,0,0,250,250,0,52.957165,6.521602,0.0,22.8,11,2,1.6,0,0.0,-1,0.0,0.0,0.0,0,0.0,0.5341
32064,1625676720438,,,,,,,,0.07,-0.02,1.73,-0,-3,-4,0.08,,56,4615,7,25,57,0.606,0.0,600,4.81,13.5,0.0,1,27.7,2.68,5.6,0,0,0,1,0,0,250,250,0,,,,,,,,,,,,,,,,
32084,1625676720458,,,,,,,,0.14,-0.04,1.58,-0,-2,-3,0.14,,55,4578,7,25,57,0.606,0.0,596,4.8,13.5,0.0,1,27.3,1.51,5.6,0,0,0,1,0,0,250,250,0,,,,,,,,,,,,,,,,
32104,1625676720478,,,,,,,,0.17,-0.07,1.45,-0,-1,-2,0.19,,56,4606,7,25,57,0.605,0.0,591,4.8,13.5,0.0,1,27.6,2.67,5.6,0,0,0,1,0,0,250,250,0,,,,,,,,,,,,,,,,
32124,1625676720500,,,,,,,,0.18,-0.08,1.33,-0,1,0,0.19,,56,4630,7,25,57,0.605,0.0,607,4.8,13.4,0.0,1,27.9,1.54,5.7,0,0,0,1,0,0,250,250,0,,,,,,,,,,,,,,,,
32144,1625676720520,1,1,47,50,31,31,5,0.15,-0.08,1.22,-0,2,3,0.17,0,56,4594,7,25,57,0.604,0.0,593,4.79,13.5,0.0,1,27.5,1.51,5.7,0,0,0,1,0,0,250,250,0,52.957165,6.521602,0.0,22.8,11,2,1.6,0,0.0,-1,0.0,,0.0,0,0.0,0.5357
32164,1625676720540,,,,,,,,0.11,-0.08,1.17,0,2,4,0.14,,56,4644,7,25,57,0.604,0.0,598,4.73,13.5,0.0,1,28.1,2.69,5.7,0,0,0,1,0,0,250,250,0,,,,,,,,,,,,,,,,
32184,1625676720560,,,,,,,,0.04,-0.06,1.41,0,3,4,0.07,,56,4614,7,25,57,0.604,0.0,607,4.78,13.2,0.0,1,27.7,2.68,5.7,0,0,0,1,0,0,250,250,0,,,,,,,,,,,,,,,,
32204,1625676720580,,,,,,,,-0.03,-0.04,1.62,0,2,3,0.04,,56,4622,7,25,57,0.604,0.0,599,4.78,13.3,0.0,1,28.3,1.55,5.7,0,0,0,1,0,0,250,250,0,,,,,,,,,,,,,,,,
32224,1625676720600,,,,,,,,-0.05,0.02,1.82,0,0,1,0.06,,56,4706,7,25,57,0.604,0.0,616,4.78,13.2,0.0,1,28.9,2.73,5.9,0,0,0,1,0,0,250,250,0,,,,,,,,,,,,,,,,
32244,1625676720620,1,1,47,50,31,30,5,-0.02,0.04,2.0,-0,-2,-1,0.04,0,56,4696,7,25,57,0.604,0.0,610,4.8,13.2,0.0,1,28.8,2.73,5.9,0,0,0,1,0,0,250,250,0,52.957165,6.521602,0.0,22.8,11,2,1.6,0,0.0,-1,0.0,0.0,0.0,0,0.0,0.5374
32264,1625676720640,,,,,,,,0.04,-0.0,1.84,-0,-3,-2,0.04,,56,4728,7,25,57,0.604,0.0,610,4.75,13.4,0.0,1,29.2,2.75,5.9,0,0,0,1,0,0,250,250,0,,,,,,,,,,,,,,,,
32284,1625676720660,,,,,,,,0.09,-0.06,1.68,-0,-2,-2,0.11,,56,4653,7,25,57,0.604,0.0,613,4.76,13.4,0.0,1,28.2,2.7,5.9,0,0,0,1,0,0,250,250,0,,,,,,,,,,,,,,,,
32304,1625676720680,,,,,,,,0.13,-0.08,1.54,-0,-1,-1,0.15,,56,4601,7,25,57,0.605,0.0,598,4.81,13.5,0.0,1,27.6,2.67,5.9,0,0,0,1,0,0,250,250,0,,,,,,,,,,,,,,,,
32324,1625676720698,,,,,,,,0.16,-0.08,1.41,-0,1,1,0.18,,56,4569,7,25,57,0.604,0.0,604,4.82,13.5,0.0,1,27.2,2.65,5.9,0,0,0,1,0,0,250,250,0,,,,,,,,,,,,,,,,
32344,1625676720718,1,1,47,50,31,31,5,0.19,-0.1,1.29,0,1,2,0.21,0,56,4514,7,25,57,0.604,0.0,588,4.75,13.5,0.0,1,26.5,1.48,5.6,0,0,0,1,0,0,250,250,0,52.957165,6.521602,0.0,22.8,11,2,1.6,0,0.0,-1,0.0,,0.0,0,0.0,0.5391
32364,1625676720738,,,,,,,,0.19,-0.1,1.19,0,2,5,0.21,,56,4602,7,25,57,0.605,0.0,596,4.75,13.4,0.0,1,27.6,2.67,5.6,0,0,0,1,0,0,250,250,0,,,,,,,,,,,,,,,,
32384,1625676720758,,,,,,,,0.17,-0.1,1.09,0,3,6,0.2,,56,4550,7,25,57,0.605,0.0,600,4.78,13.5,0.0,1,26.9,1.49,5.6,0,0,0,1,0,0,250,250,0,,,,,,,,,,,,,,,,
32404,1625676720778,,,,,,,,0.15,-0.1,1.0,0,3,7,0.18,,56,4530,7,25,57,0.605,0.0,585,4.79,13.4,0.0,1,26.7,2.63,5.6,0,0,0,1,0,0,250,250,0,,,,,,,,,,,,,,,,
32424,1625676720799,,,,,,,,0.11,-0.11,0.98,0,4,8,0.15,,56,4637,7,25,57,0.605,0.0,604,4.79,13.3,0.0,1,28.0,1.54,5.7,0,0,0,1,0,0,250,250,0,,,,,,,,,,,,,,,,
32444,1625676720819,1,1,47,49,31,30,5,0.04,-0.08,1.1,0,4,8,0.09,0,56,4553,7,25,57,0.605,0.0,598,4.81,13.3,0.0,1,27.0,2.64,5.7,0,0,0,1,0,0,250,250,0,52.957165,6.521602,0.0,22.8,11,2,1.6,0,0.0,-1,0.0,0.0,0.0,0,0.0,0.5407
32464,1625676720839,,,,,,,,-0.02,-0.07,1.34,0,4,7,0.07,,56,4636,7,25,58,0.606,0.0,602,4.8,13.4,0.0,1,28.3,1.55,5.7,0,0,0,1,0,0,250,250,0,,,,,,,,,,,,,,,,
32484,1625676720859,,,,,,,,-0.08,-0.04,1.56,0,2,6,0.09,,56,4623,7,25,57,0.605,0.0,614,4.77,13.1,0.0,1,27.8,2.68,5.7,0,0,0,1,0,0,250,250,0,,,,,,,,,,,,,,,,
32504,1625676720879,,,,,,,,-0.1,0.01,1.76,0,0,3,0.1,,56,4656,7,25,57,0.605,0.0,603,4.75,13.3,0.0,1,28.3,2.7,5.7,0,0,0,1,0,0,250,250,0,,,,,,,,,,,,,,,,
32524,1625676720899,,,,,,,,-0.08,0.03,1.95,0,-2,1,0.09,,56,4685,7,25,57,0.605,0.0,619,4.78,13.2,0.0,1,28.6,1.57,5.7,0,0,0,1,0,0,250,250,0,,,,,,,,,,,,,,,,
32544,1625676720919,-1,2,47,49,31,31,5,-0.02,0.01,1.84,-0,-3,-1,0.03,0,56,4646,7,25,57,0.604,0.0,613,4.77,13.4,0.0,1,28.1,2.69,5.9,0,0,0,1,0,0,250,250,0,52.957165,6.521602,0.0,22.8,11,2,1.6,0,0.0,-1,0.0,,0.0,0,0.0,0.5424
32564,1625676720939,,,,,,,,0.04,-0.02,1.68,-0,-3,-1,0.04,,56,4622,7,25,57,0.604,0.0,600,4.81,13.5,0.0,1,27.8,2.68,5.9,0,0,0,1,0,0,250,250,0,,,,,,,,,,,,,,,,
32584,1625676720959,,,,,,,,0.09,-0.06,1.54,-0,-2,-1,0.11,,56,4605,7,25,57,0.604,0.0,608,4.8,13.5,0.0,1,27.6,2.67,5.9,0,0,0,1,0,0,250,250,0,,,,,,,,,,,,,,,,
32604,1625676720979,,,,,,,,0.14,-0.06,1.41,0,-0,1,0.15,,56,4605,7,25,57,0.604,0.0,593,4.79,13.5,0.0,1,27.6,2.67,5.9,0,0,0,1,0,0,250,250,0,,,,,,,,,,,,,,,,
32624,1625676720999,,,,,,,,0.17,-0.06,1.29,0,1,3,0.18,,56,4578,7,25,57,0.603,0.0,599,4.77,13.5,0.0,1,27.3,2.66,5.6,0,0,0,1,0,0,250,250,0,,,,,,,,,,,,,,,,
32644,1625676721009,0,2,46,49,31,31,5,0.18,-0.07,1.19,0,2,5,0.2,0,56,4584,7,25,57,0.604,0.0,597,4.79,13.4,0.0,1,27.4,1.51,5.6,0,0,0,1,0,0,250,250,0,52.957165,6.521602,0.0,22.8,11,2,1.6,0,0.0,-1,0.0,0.0,0.0,0,0.0,0.5441
32664,1625676721029,,,,,,,,0.18,-0.07,1.09,0,3,6,0.19,,56,4563,7,25,57,0.604,0.0,593,4.8,13.4,0.0,1,27.1,1.5,5.6,0,0,0,1,0,0,250,250,0,,,,,,,,,,,,,,,,
32684,1625676721049,,,,,,,,0.15,-0.07,1.0,0,4,8,0.17,,56,4617,7,25,57,0.604,0.0,600,4.79,13.4,0.0,1,27.8,2.68,5.6,0,0,0,1,0,0,250,250,0,,,,,,,,,,,,,,,,
32704,1625676721069,,,,,,,,0.1,-0.05,0.98,0,4,8,0.11,,56,4574,7,25,57,0.605,0.0,596,4.77,13.3,0.0,1,27.2,1.51,5.6,0,0,0,1,0,0,250,250,0,,,,,,,,,,,,,,,,
32724,1625676721097,,,,,,,,0.04,-0.04,1.16,0,4,8,0.06,,56,4565,7,25,57,0.605,0.0,598,4.76,13.4,0.0,1,27.1,2.66,5.6,0,0,0,1,0,0,250,250,0,,,,,,,,,,,,,,,,
32744,1625676721117,-0,2,47,49,31,31,5,-0.03,-0.04,1.4,0,3,7,0.05,0,56,4611,7,25,57,0.605,0.0,600,4.79,13.2,0.0,1,27.7,2.67,5.6,0,0,0,1,0,0,250,250,0,52.957165,6.521602,0.0,22.8,11,2,1.6,0,0.0,-1,0.0,,0.0,0,0.0,0.5457
32764,1625676721137,,,,,,,,-0.1,-0.02,1.61,0,3,6,0.1,,56,4591,7,25,57,0.606,0.0,596,4.81,13.3,0.0,1,27.4,1.51,5.6,0,0,0,1,0,0,250,250,0,,,,,,,,,,,,,,,,
32784,1625676721157,,,,,,,,-0.16,0.01,1.81,0,1,4,0.16,,56,4589,7,25,57,0.606,0.0,607,4.76,13.2,0.0,1,27.4,2.66,5.6,0,0,0,1,0,0,250,250,0,,,,,,,,,,,,,,,,
32804,1625676721177,,,,,,,,-0.19,0.04,1.99,0,-0,2,0.19,,56,4577,7,25,57,0.606,0.0,597,4.82,13.2,0.0,1,27.3,1.51,5.6,0,0,0,1,0,0,250,250,0,,,,,,,,,,,,,,,,
32824,1625676721197,,,,,,,,-0.17,0.06,2.16,-0,-2,-0,0.18,,56,4614,7,25,57,0.605,0.0,601,4.77,13.1,0.0,1,27.7,1.53,5.6,0,0,0,1,0,0,250,250,0,,,,,,,,,,,,,,,,
32844,1625676721217,-1,3,47,50,31,31,5,-0.12,0.06,2.31,-0,-3,-2,0.14,0,56,4629,7,25,57,0.606,0.0,601,4.73,13.3,0.0,1,27.9,2.69,5.7,0,0,0,1,0,0,250,250,0,52.957165,6.521602,0.0,22.8,11,2,1.6,0,0.0,-1,0.0,0.0,0.0,0,0.0,0.5474
32864,1625676721237,,,,,,,,-0.07,0.04,2.12,-0,-3,-3,0.08,,56,4614,7,25,57,0.606,0.0,595,4.78,13.5,0.0,1,27.7,2.68,5.7,0,0,0,1,0,0,250,250,0,,,,,,,,,,,,,,,,
32884,1625676721257,,,,,,,,0.01,-0.02,1.94,-0,-2,-3,0.02,,56,4665,7,25,57,0.606,0.0,601,4.75,13.5,0.0,1,28.4,2.7,5.7,0,0,0,1,0,0,250,250,0,,,,,,,,,,,,,,,,
32904,1625676721277,,,,,,,,0.06,-0.04,1.78,-0,-1,-1,0.07,,56,4668,7,25,57,0.605,0.0,597,4.78,13.5,0.0,1,28.4,2.71,5.7,0,0,0,1,0,0,250,250,0,,,,,,,,,,,,,,,,
32924,1625676721299,,,,,,,,0.07,-0.04,1.63,-0,1,2,0.08,,56,4642,7,25,57,0.605,0.0,604,4.77,13.4,0.0,1,28.1,2.69,5.7,0,0,0,1,0,0,250,250,0,,,,,,,,,,,,,,,,
32944,1625676721319,1,2,47,50,31,31,5,0.06,-0.04,1.5,0,2,4,0.08,0,56,4665,7,25,57,0.605,0.0,606,4.77,13.4,0.0,1,28.4,1.55,5.7,0,0,0,1,0,0,250,250,0,52.957165,6.521602,0.0,22.8,11,2,1.6,0,0.0,-1,0.0,,0.0,0,0.0,0.5491
32964,1625676721339,,,,,,,,0.02,-0.03,1.37,0,3,5,0.04,,56,4585,7,25,57,0.605,0.0,597,4.76,13.4,0.0,1,27.4,2.66,5.7,0,0,0,1,0,0,250,250,0,,,,,,,,,,,,,,,,
32984,1625676721359,,,,,,,,-0.03,-0.03,1.41,0,3,5,0.04,,56,4567,7,25,57,0.605,0.0,600,4.77,13.4,0.0,1,27.1,1.5,5.7,0,0,0,1,0,0,250,250,0,,,,,,,,,,,,,,,,
33004,1625676721379,,,,,,,,-0.07,-0.03,1.54,0,3,5,0.08,,56,4530,7,25,57,0.604,0.0,591,4.77,13.4,0.0,1,26.7,2.63,5.7,0,0,0,1,0,0,250,250,0,,,,,,,,,,,,,,,,
33024,1625676721397,,,,,,,,-0.13,-0.01,1.75,0,3,4,0.13,,56,4568,7,25,57,0.604,0.0,600,4.8,13.2,0.0,1,27.2,2.66,5.6,0,0,0,1,0,0,250,250,0,,,,,,,,,,,,,,,,
33044,1625676721417,0,2,47,50,31,31,6,-0.19,0.01,1.93,0,2,3,0.19,0,56,4533,7,25,57,0.603,0.0,606,4.79,13.2,0.0,1,26.7,2.63,5.6,0,0,0,1,0,0,250,250,0,52.957165,6.521602,0.0,22.8,11,2,1.6,0,0.0,-1,0.0,0.0,0.0,0,0.0,0.5507
33064,1625676721437,,,,,,,,-0.25,0.02,2.11,0,1,2,0.25,,56,4531,7,25,57,0.604,0.0,591,4.83,13.3,0.0,1,26.7,1.48,5.6,0,0,0,1,0,0,250,250,0,,,,,,,,,,,,,,,,
33084,1625676721457,,,,,,,,-0.28,0.03,2.26,-0,0,0,0.28,,56,4557,7,25,57,0.604,0.0,603,4.75,13.2,0.0,1,27.0,2.65,5.6,0,0,0,1,0,0,250,250,0,,,,,,,,,,,,,,,,
33104,1625676721477,,,,,,,,-0.31,0.04,2.41,-0,-0,-1,0.32,,56,4552,8,25,57,0.604,0.0,595,4.76,13.2,0.0,1,27.0,2.65,5.6,0,0,0,1,0,0,250,250,0,,,,,,,,,,,,,,,,
33124,1625676721499,,,,,,,,-0.34,0.05,2.54,-0,-1,-2,0.34,,56,4565,9,25,58,0.604,0.0,599,4.8,13.2,0.0,1,27.4,2.65,5.6,0,0,0,1,0,0,250,250,0,,,,,,,,,,,,,,,,
33144,1625676721519,1,1,47,50,31,31,5,-0.34,0.05,2.66,-0,-2,-3,0.35,0,56,4549,10,25,59,0.604,0.0,596,4.72,13.3,0.0,1,27.4,2.66,5.6,0,0,0,1,0,0,250,250,0,52.957165,6.521602,0.0,22.8,11,2,1.6,0,0.0,-1,0.0,,0.0,0,0.0,0.5524
33164,1625676721539,,,,,,,,-0.33,0.06,2.77,-0,-3,-4,0.33,,56,4610,11,25,60,0.603,0.0,593,4.77,13.2,0.0,1,28.5,2.69,5.6,0,0,0,1,0,0,250,250,0,,,,,,,,,,,,,,,,
33184,1625676721559,,,,,,,,-0.28,0.06,2.87,-0,-3,-5,0.28,,56,4634,12,25,61,0.604,0.0,606,4.77,13.4,0.0,1,29.2,2.71,5.6,0,0,0,1,0,0,250,250,0,,,,,,,,,,,,,,,,
33204,1625676721579,,,,,,,,-0.21,0.04,2.63,-0,-3,-6,0.21,,56,4685,13,25,63,0.604,0.0,600,4.76,13.5,0.0,1,30.3,2.82,5.6,0,0,0,1,0,0,250,250,0,,,,,,,,,,,,,,,,
33224,1625676721599,,,,,,,,-0.13,-0.02,2.41,-0,-1,-3,0.14,,56,4773,14,25,65,0.604,0.0,606,4.78,13.5,0.0,1,32.1,2.96,6.5,0,0,0,1,0,0,250,250,0,,,,,,,,,,,,,,,,
33244,1625676721619,1,1,47,49,31,30,6,-0.17,-0.02,2.21,-0,2,0,0.17,0,56,4852,16,25,68,0.603,0.0,621,4.74,13.3,0.0,1,34.5,3.15,6.5,0,0,0,1,0,0,250,250,0,52.957165,6.521602,0.0,22.8,11,2,1.6,0,0.0,-1,0.0,0.0,0.0,0,0.0,0.5541
33264,1625676721639,,,,,,,,-0.19,0.03,2.36,-0,-1,-3,0.19,,56,4951,17,25,70,0.604,0.0,616,4.8,13.3,0.0,1,36.0,3.27,6.5,0,0,0,1,0,0,250,250,0,,,,,,,,,,,,,,,,
33284,1625676721659,,,,,,,,-0.06,-0.02,2.25,-0,-3,-4,0.06,,56,5038,17,25,73,0.603,0.0,615,4.81,13.5,0.0,1,37.5,3.45,6.5,0,0,0,1,0,0,250,250,0,,,,,,,,,,,,,,,,
33304,1625676721679,,,,,,,,-0.17,-0.02,2.07,-0,4,2,0.17,,56,5221,17,25,75,0.603,0.0,640,4.72,13.2,0.0,1,37.8,2.5,6.5,0,0,0,1,0,0,250,250,0,,,,,,,,,,,,,,,,
33324,1625676721699,,,,,,,,0.01,0.03,2.23,-0,-6,-6,0.03,,56,5325,17,25,76,0.604,0.0,631,4.81,13.4,0.0,1,38.0,3.77,6.5,0,0,0,1,0,0,250,250,0,,,,,,,,,,,,,,,,
33344,1625676721719,-0,3,47,49,31,30,6,-0.13,0.01,2.04,-0,4,1,0.14,0,56,5471,17,25,78,0.604,0.0,638,4.79,13.2,0.0,1,38.2,3.91,9.3,0,0,0,1,0,0,250,250,0,52.957165,6.521602,0.0,22.8,11,2,1.6,0,0.0,-1,0.0,,0.0,0,0.0,0.5557
33364,1625676721739,,,,,,,,-0.1,-0.0,1.87,-0,4,1,0.1,,56,5544,17,25,78,0.603,0.0,642,4.74,13.3,0.0,1,38.1,3.96,9.3,0,0,0,1,0,0,250,250,0,,,,,,,,,,,,,,,,
33384,1625676721759,,,,,,,,0.05,0.01,2.05,-0,-2,-5,0.05,,56,5678,16,25,79,0.603,0.0,645,4.77,13.4,0.0,1,38.1,2.93,9.3,0,0,0,1,0,0,250,250,0,,,,,,,,,,,,,,,,
33404,1625676721779,,,,,,,,0.16,0.0,2.21,-0,-5,-7,0.16,,56,5841,14,25,78,0.604,0.0,646,4.83,13.4,0.0,1,37.6,4.15,9.3,0,0,0,1,0,0,250,250,0,,,,,,,,,,,,,,,,
33424,1625676721798,,,,,,,,0.22,-0.02,2.36,-0,-8,-8,0.22,,56,6097,12,25,76,0.605,0.0,651,4.81,13.4,0.0,1,37.5,4.15,11.7,0,0,0,1,0,0,250,250,0,,,,,,,,,,,,,,,,
33444,1625676721818,0,1,47,49,31,31,6,0.16,-0.02,2.16,-0,-10,-10,0.16,0,56,6283,10,25,73,0.606,0.0,657,4.82,13.4,0.0,1,37.9,2.69,11.7,0,0,0,1,0,0,250,250,0,52.957165,6.521602,0.0,22.8,11,2,1.6,0,0.0,-1,0.0,0.0,0.0,0,0.0,0.5574
33464,1625676721838,,,,,,,,0.12,-0.02,2.01,-0,-7,-8,0.13,,56,6677,9,25,70,0.605,0.0,663,4.8,13.3,0.0,1,39.5,3.6,11.7,0,0,0,1,0,0,250,250,0,,,,,,,,,,,,,,,,
33484,1625676721858,,,,,,,,0.09,-0.01,1.84,-0,-8,-9,0.09,,56,6988,8,25,66,0.606,0.0,674,4.77,13.4,0.0,1,39.9,2.06,11.7,0,0,0,1,0,0,250,250,0,,,,,,,,,,,,,,,,
33504,1625676721878,,,,,,,,0.13,-0.07,1.88,-0,-9,-9,0.15,,56,7129,8,25,63,0.606,0.0,677,4.71,13.2,0.0,1,38.9,2.82,11.7,0,0,0,1,0,0,250,250,0,,,,,,,,,,,,,,,,
33524,1625676721898,,,,,,,,0.16,-0.04,2.06,-0,-8,-9,0.17,,56,7338,8,25,59,0.607,0.0,682,4.71,13.3,0.0,1,37.5,2.49,8.4,0,0,0,1,0,0,250,250,0,,,,,,,,,,,,,,,,
33544,1625676721918,0,3,47,50,31,31,7,0.2,-0.06,2.22,-0,-7,-8,0.21,0,56,7548,8,25,57,0.607,0.0,678,4.81,13.2,0.0,1,37.1,2.45,8.4,0,0,0,1,0,0,250,250,0,52.957165,6.521602,0.0,22.8,11,2,1.6,0,0.0,-1,0.0,,0.0,0,0.0,0.5591
33564,1625676721938,,,,,,,,0.23,-0.12,2.21,-0,-8,-9,0.26,,56,7700,8,25,53,0.608,0.0,690,4.7,13.3,0.0,1,36.5,2.43,8.4,0,0,0,1,0,0,250,250,0,,,,,,,,,,,,,,,,
33584,1625676721958,,,,,,,,0.2,-0.12,2.02,-0,-9,-11,0.23,,56,7776,8,25,51,0.607,0.0,688,4.73,13.4,0.0,1,36.3,2.4,8.4,0,0,0,1,0,0,250,250,0,,,,,,,,,,,,,,,,
33604,1625676721978,,,,,,,,0.12,-0.13,1.85,-0,-9,-11,0.17,,56,7799,8,25,48,0.607,0.0,685,4.71,13.4,0.0,1,36.0,2.37,8.4,0,0,0,1,0,0,250,250,0,,,,,,,,,,,,,,,,
33624,1625676721998,,,,,,,,0.11,-0.11,1.7,-0,-6,-7,0.16,,56,7918,8,25,46,0.608,0.0,688,4.85,13.2,0.0,1,35.6,2.36,8.6,0,0,0,1,0,0,250,250,0,,,,,,,,,,,,,,,,
33644,1625676722010,1,0,47,49,31,30,7,0.14,-0.15,1.89,-0,-7,-9,0.21,0,56,8019,8,25,43,0.607,0.0,693,4.71,13.3,0.0,1,33.8,2.38,8.6,0,0,0,1,0,0,250,250,0,52.957165,6.521602,0.0,22.8,11,2,1.6,0,0.0,-1,0.0,0.0,0.0,0,0.0,0.5607
33664,1625676722030,,,,,,,,0.09,-0.12,1.73,-0,-7,-10,0.15,,56,8061,8,25,41,0.606,0.0,690,4.83,13.4,0.0,1,32.4,1.24,8.6,0,0,0,1,0,0,250,250,0,,,,,,,,,,,,,,,,
33684,1625676722050,,,,,,,,0.09,-0.13,1.59,-0,-5,-7,0.16,,56,8050,8,25,40,0.605,0.0,691,4.81,13.2,0.0,1,31.7,1.21,8.6,0,0,0,1,0,0,250,250,0,,,,,,,,,,,,,,,,
33704,1625676722070,,,,,,,,0.12,-0.18,1.79,-0,-7,-10,0.22,,56,7938,8,25,38,0.604,0.0,688,4.68,13.3,0.0,1,30.7,2.26,8.6,0,0,0,1,0,0,250,250,0,,,,,,,,,,,,,,,,
33724,1625676722098,,,,,,,,0.09,-0.16,1.65,-0,-8,-12,0.18,,56,7770,8,25,37,0.605,0.0,686,4.68,13.3,0.0,1,30.4,2.21,7.9,0,0,0,1,0,0,250,250,0,,,,,,,,,,,,,,,,
33744,1625676722118,0,0,47,50,31,31,7,0.05,-0.1,1.51,-0,-8,-12,0.12,0,56,7545,8,25,37,0.604,0.0,686,4.69,13.4,0.0,1,30.4,1.06,7.9,0,0,0,1,0,0,250,250,0,52.957165,6.521602,0.0,22.8,11,2,1.6,0,0.0,-1,0.0,,0.0,0,0.0,0.5624
33764,1625676722138,,,,,,,,0.05,-0.12,1.49,-0,-8,-12,0.13,,56,7298,8,25,38,0.603,0.0,680,4.8,13.4,0.0,1,30.7,2.26,7.9,0,0,0,1,0,0,250,250,0,,,,,,,,,,,,,,,,
33784,1625676722158,,,,,,,,0.09,-0.12,1.67,-0,-8,-11,0.15,,56,7043,8,25,39,0.603,0.0,676,4.75,13.2,0.0,1,31.0,2.32,7.9,0,0,0,1,0,0,250,250,0,,,,,,,,,,,,,,,,
33804,1625676722178,,,,,,,,0.0,-0.13,1.53,-0,-6,-9,0.13,,56,6845,8,25,40,0.603,0.0,672,4.85,13.3,0.0,1,31.0,2.32,7.9,0,0,0,1,0,0,250,250,0,,,,,,,,,,,,,,,,
33824,1625676722198,,,,,,,,0.07,-0.09,1.74,-0,-6,-9,0.11,,56,6616,8,25,40,0.603,0.0,671,4.75,13.1,0.0,1,30.7,1.17,7.9,0,0,0,1,0,0,250,250,0,,,,,,,,,,,,,,,,
33844,1625676722218,0,2,47,49,31,31,7,0.08,-0.11,1.62,-0,-8,-11,0.13,0,56,6443,8,25,41,0.604,0.0,662,4.81,13.4,0.0,1,30.7,2.32,7.1,0,0,0,1,0,0,250,250,0,52.957165,6.521602,0.0,22.8,11,2,1.6,0,0.0,-1,0.0,0.0,0.0,0,0.0,0.5641
33864,1625676722238,,,,,,,,-0.02,-0.12,1.48,-0,-6,-8,0.12,,56,6351,8,25,41,0.604,0.0,656,4.82,13.4,0.0,1,30.6,2.32,7.1,0,0,0,1,0,0,250,250,0,,,,,,,,,,,,,,,,
33884,1625676722258,,,,,,,,-0.1,-0.13,1.36,-0,-3,-6,0.16,,56,6194,8,25,41,0.604,0.0,657,4.76,13.2,0.0,1,30.3,1.17,7.1,0,0,0,1,0,0,250,250,0,,,,,,,,,,,,,,,,
33904,1625676722278,,,,,,,,-0.16,-0.14,1.24,-0,1,-2,0.22,,56,5978,8,25,42,0.603,0.0,660,4.72,13.2,0.0,1,30.2,2.34,7.1,0,0,0,1,0,0,250,250,0,,,,,,,,,,,,,,,,
33924,1625676722300,,,,,,,,-0.25,-0.17,1.14,-0,4,1,0.3,,56,5832,8,25,43,0.602,0.0,650,4.78,13.4,0.0,1,30.1,2.41,6.5,0,0,0,1,0,0,250,250,0,,,,,,,,,,,,,,,,
33944,1625676722320,0,1,47,50,31,31,8,-0.21,-0.19,1.04,-0,0,-1,0.29,0,56,5620,8,25,44,0.602,0.0,641,4.79,13.5,0.0,1,29.8,1.35,6.5,0,0,0,1,0,0,250,250,0,52.957165,6.521602,0.0,22.8,11,2,1.6,0,0.0,-1,0.0,,0.0,0,0.0,0.5657
33964,1625676722340,,,,,,,,-0.09,-0.14,1.29,-0,-4,-4,0.16,,56,5411,8,25,45,0.603,0.0,642,4.81,13.4,0.0,1,29.7,2.61,6.5,0,0,0,1,0,0,250,250,0,,,,,,,,,,,,,,,,
33984,1625676722360,,,,,,,,-0.22,-0.14,1.18,-0,3,3,0.26,,56,5262,9,25,47,0.603,0.0,635,4.77,13.4,0.0,1,30.0,2.71,6.5,0,0,0,1,0,0,250,250,0,,,,,,,,,,,,,,,,
34004,1625676722380,,,,,,,,-0.09,-0.06,1.42,-0,-5,-4,0.11,,56,5113,8,25,48,0.604,0.0,638,4.83,13.4,0.0,1,30.0,2.78,6.5,0,0,0,1,0,0,250,250,0,,,,,,,,,,,,,,,,
34024,1625676722398,,,,,,,,-0.1,-0.11,1.3,-0,-2,-0,0.15,,56,5021,8,25,49,0.603,0.0,627,4.76,13.5,0.0,1,30.2,1.7,6.5,0,0,0,1,0,0,250,250,0,,,,,,,,,,,,,,,,
34044,1625676722418,-1,2,47,50,31,31,8,-0.16,-0.08,1.52,-0,1,2,0.18,0,56,4867,9,25,50,0.604,0.0,630,4.76,13.2,0.0,1,28.9,1.64,6.6,0,0,0,1,0,0,250,250,0,52.957165,6.521602,0.0,22.8,11,2,1.6,0,0.0,-1,0.0,0.0,0.0,0,0.0,0.5674
34064,1625676722438,,,,,,,,-0.17,-0.07,1.73,-0,-1,-0,0.19,,56,4713,9,25,51,0.605,0.0,623,4.79,13.1,0.0,1,27.3,2.71,6.6,0,0,0,1,0,0,250,250,0,,,,,,,,,,,,,,,,
34084,1625676722458,,,,,,,,-0.17,-0.04,1.92,-0,-2,-2,0.17,,56,4659,10,25,52,0.605,0.0,612,4.8,13.1,0.0,1,26.9,2.68,6.6,0,0,0,1,0,0,250,250,0,,,,,,,,,,,,,,,,
34104,1625676722478,,,,,,,,-0.14,-0.02,2.09,-0,-3,-3,0.14,,56,4578,11,25,53,0.605,0.0,608,4.75,13.4,0.0,1,26.2,2.63,6.6,0,0,0,1,0,0,250,250,0,,,,,,,,,,,,,,,,
34124,1625676722500,,,,,,,,-0.12,-0.02,2.15,-0,-3,-4,0.12,,56,4568,11,25,55,0.605,0.0,597,4.71,13.2,0.0,1,26.6,1.48,6.6,0,0,0,1,0,0,250,250,0,,,,,,,,,,,,,,,,
34144,1625676722520,0,1,47,50,31,31,8,-0.08,-0.03,2.07,-0,-3,-4,0.09,0,56,4514,12,25,57,0.607,0.0,601,4.74,13.3,0.0,1,26.5,2.63,5.5,0,0,0,1,0,0,250,250,0,52.957165,6.521602,0.0,22.8,11,2,1.6,0,0.0,-1,0.0,,0.0,0,0.0,0.5691
34164,1625676722540,,,,,,,,-0.05,-0.03,2.04,-0,-3,-5,0.06,,56,4493,12,25,59,0.608,0.0,585,4.76,13.4,0.0,1,26.7,2.63,5.5,0,0,0,1,0,0,250,250,0,,,,,,,,,,,,,,,,
34184,1625676722560,,,,,,,,-0.02,-0.02,1.98,-0,-3,-5,0.03,,56,4541,12,25,61,0.609,0.0,588,4.73,13.3,0.0,1,27.9,2.68,5.5,0,0,0,1,0,0,250,250,0,,,,,,,,,,,,,,,,
34204,1625676722580,,,,,,,,0.02,-0.04,1.82,-0,-3,-6,0.05,,56,4585,12,25,63,0.609,0.0,592,4.79,13.5,0.0,1,29.0,2.73,5.5,0,0,0,1,0,0,250,250,0,,,,,,,,,,,,,,,,
34224,1625676722600,,,,,,,,0.08,-0.08,1.67,-0,-3,-5,0.11,,56,4667,13,25,64,0.608,0.0,590,4.76,13.4,0.0,1,30.4,2.86,5.5,0,0,0,1,0,0,250,250,0,,,,,,,,,,,,,,,,
34244,1625676722620,-0,3,47,50,31,31,8,0.1,-0.09,1.53,-0,-1,-3,0.14,0,56,4730,14,25,66,0.609,0.0,602,4.75,13.5,0.0,1,31.9,2.99,6.1,0,0,0,1,0,0,250,250,0,52.957165,6.521602,0.0,22.8,11,2,1.6,0,0.0,-1,0.0,0.0,0.0,0,0.0,0.5707
34264,1625676722640,,,,,,,,0.05,-0.08,1.4,-0,1,0,0.09,,56,4788,16,25,68,0.608,0.0,604,4.79,13.5,0.0,1,33.2,3.12,6.1,0,0,0,1,0,0,250,250,0,,,,,,,,,,,,,,,,
34284,1625676722660,,,,,,,,0.0,-0.02,1.62,-0,1,-1,0.02,,56,4879,17,25,70,0.609,0.0,618,4.69,13.3,0.0,1,35.0,2.08,6.1,0,0,0,1,0,0,250,250,0,,,,,,,,,,,,,,,,
34304,1625676722680,,,,,,,,0.07,-0.03,1.81,-0,-4,-4,0.07,,56,4908,19,25,73,0.609,0.0,625,4.8,13.4,0.0,1,36.2,3.36,6.1,0,0,0,1,0,0,250,250,0,,,,,,,,,,,,,,,,
34324,1625676722698,,,,,,,,0.07,-0.07,1.66,-0,-1,-1,0.1,,56,5010,21,25,77,0.609,0.0,616,4.81,13.5,0.0,1,38.7,3.6,8.3,0,0,0,1,0,0,250,250,0,,,,,,,,,,,,,,,,
34344,1625676722718,1,1,47,50,31,31,9,-0.02,-0.04,1.86,-0,3,1,0.05,0,56,5012,21,25,80,0.609,0.0,627,4.72,13.1,0.0,1,39.6,2.51,8.3,0,0,0,1,0,0,250,250,0,52.957165,6.521602,0.0,22.8,11,2,1.6,0,0.0,-1,0.0,,0.0,0,0.0,0.5724
34364,1625676722738,,,,,,,,0.12,-0.02,2.03,-1,-3,-5,0.12,,56,5172,21,25,82,0.61,0.0,637,4.78,13.4,0.0,1,40.0,2.67,8.3,0,0,0,1,0,0,250,250,0,,,,,,,,,,,,,,,,
34384,1625676722758,,,,,,,,-0.03,-0.04,1.86,-0,5,3,0.05,,56,5158,21,25,83,0.61,0.0,623,4.78,13.4,0.0,1,40.3,3.84,8.3,0,0,0,1,0,0,250,250,0,,,,,,,,,,,,,,,,
34404,1625676722778,,,,,,,,0.12,0.05,2.04,-1,-5,-5,0.13,,56,5283,21,25,84,0.61,0.0,638,4.75,13.3,0.0,1,40.2,3.95,8.3,0,0,0,1,0,0,250,250,0,,,,,,,,,,,,,,,,
34424,1625676722797,,,,,,,,-0.01,0.01,1.87,-0,2,3,0.01,,57,5244,21,25,85,0.61,0.0,633,4.77,13.4,0.0,1,40.6,3.92,9.5,0,0,0,1,0,0,250,250,0,,,,,,,,,,,,,,,,
34444,1625676722817,0,1,47,50,31,31,9,0.1,0.09,2.05,-0,-8,-4,0.13,0,56,5192,20,25,85,0.609,0.0,640,4.83,13.4,0.0,1,40.8,3.87,9.5,0,0,0,1,0,0,250,250,0,52.957165,6.521602,0.0,22.8,11,2,1.6,0,0.0,-1,0.0,0.0,0.0,0,0.0,0.5741
34464,1625676722837,,,,,,,,0.01,0.02,1.88,-0,-0,2,0.02,,56,5173,18,25,85,0.609,0.0,628,4.7,13.3,0.0,1,40.8,3.85,9.5,0,0,0,1,0,0,250,250,0,,,,,,,,,,,,,,,,
34484,1625676722857,,,,,,,,0.04,0.07,2.05,-0,-6,-3,0.08,,57,5142,16,25,83,0.609,0.0,637,4.72,13.2,0.0,1,40.3,2.68,9.5,0,0,0,1,0,0,250,250,0,,,,,,,,,,,,,,,,
34504,1625676722877,,,,,,,,0.07,-0.03,1.88,-0,-5,-2,0.08,,56,5139,13,25,82,0.608,0.0,630,4.85,13.5,0.0,1,40.0,2.65,9.5,0,0,0,1,0,0,250,250,0,,,,,,,,,,,,,,,,
34524,1625676722899,,,,,,,,-0.03,-0.0,2.06,-0,-1,0,0.03,,56,5201,12,25,80,0.609,0.0,627,4.69,13.2,0.0,1,39.3,2.64,9.5,0,0,0,1,0,0,250,250,0,,,,,,,,,,,,,,,,
34544,1625676722919,0,3,47,49,31,30,9,0.11,-0.09,1.89,-0,-3,-2,0.14,0,56,5257,11,25,78,0.608,0.0,633,4.83,13.5,0.0,1,38.6,2.63,8.9,0,0,0,1,0,0,250,250,0,52.957165,6.521602,0.0,22.8,11,2,1.6,0,0.0,-1,0.0,,0.0,0,0.0,0.5757
34564,1625676722939,,,,,,,,0.05,-0.07,2.06,-0,1,1,0.09,,57,5453,11,25,77,0.607,0.0,643,4.71,13.2,0.0,1,38.0,3.78,8.9,0,0,0,1,0,0,250,250,0,,,,,,,,,,,,,,,,
34584,1625676722959,,,,,,,,-0.05,-0.07,1.89,-0,3,4,0.08,,56,5567,11,25,76,0.597,0.0,641,4.7,13.2,0.0,1,37.5,3.91,8.9,0,0,0,1,0,0,250,250,0,,,,,,,,,,,,,,,,
34604,1625676722979,,,,,,,,0.02,-0.09,2.07,-0,-1,-1,0.09,,57,5781,11,25,74,0.592,0.0,642,4.83,13.5,0.0,1,36.9,2.72,8.9,0,0,0,1,0,0,250,250,0,,,,,,,,,,,,,,,,
34624,1625676722991,,,,,,,,0.1,-0.13,2.23,-0,-4,-3,0.16,,57,5933,11,25,73,0.584,0.0,650,4.83,13.5,0.0,1,36.5,3.85,10.5,0,0,0,1,0,0,250,250,0,,,,,,,,,,,,,,,,
34644,1625676723011,1,3,47,50,31,31,8,0.12,-0.16,2.23,-0,-6,-5,0.2,0,57,6107,12,25,71,0.577,0.0,654,4.8,13.4,0.0,1,36.5,3.68,10.5,0,0,0,1,0,0,250,250,0,52.957165,6.521602,0.0,22.8,11,2,1.6,0,0.0,-1,0.0,0.0,0.0,0,0.0,0.5774
34664,1625676723031,,,,,,,,0.05,-0.14,2.04,-0,-4,-3,0.15,,57,6347,12,26,70,0.571,0.0,657,4.73,13.3,0.0,1,37.7,2.45,10.5,0,0,0,1,0,0,250,250,0,,,,,,,,,,,,,,,,
34684,1625676723051,,,,,,,,0.08,-0.12,2.12,-0,-4,-4,0.14,,57,6667,13,26,68,0.565,0.0,668,4.72,13.2,0.0,1,38.9,2.32,10.5,0,0,0,1,0,0,250,250,0,,,,,,,,,,,,,,,,
34704,1625676723071,,,,,,,,0.02,-0.16,1.94,-0,-2,-1,0.16,,57,6885,13,26,67,0.557,0.0,666,4.72,13.3,0.0,1,39.7,3.34,10.5,0,0,0,1,0,0,250,250,0,,,,,,,,,,,,,,,,
34724,1625676723093,,,,,,,,0.05,-0.15,2.07,-0,-3,-3,0.16,,57,7035,14,26,66,0.553,0.0,672,4.75,13.4,0.0,1,40.0,3.22,10.5,0,0,0,1,0,0,250,250,0,,,,,,,,,,,,,,,,
34744,1625676723113,0,2,47,49,31,31,10,0.09,-0.14,2.2,-0,-4,-3,0.17,0,57,7244,14,26,65,0.546,0.0,675,4.82,13.4,0.0,1,39.3,3.24,10.5,0,0,0,1,0,0,250,250,0,52.957165,6.521602,0.0,22.8,11,2,1.6,0,0.0,-1,0.0,,0.0,0,0.0,0.5791
34764,1625676723133,,,,,,,,0.11,-0.17,2.14,-0,-4,-3,0.2,,57,7455,14,26,65,0.539,0.0,675,4.75,13.2,0.0,1,39.0,3.12,10.5,0,0,0,1,0,0,250,250,0,,,,,,,,,,,,,,,,
34784,1625676723153,,,,,,,,0.15,-0.18,2.29,-0,-5,-6,0.23,,57,7662,14,26,63,0.532,0.0,680,4.68,13.2,0.0,1,38.3,2.84,10.5,0,0,0,1,0,0,250,250,0,,,,,,,,,,,,,,,,
34804,1625676723173,,,,,,,,0.14,-0.13,2.41,-0,-6,-7,0.19,,57,7868,14,26,62,0.521,0.0,685,4.77,13.4,0.0,1,37.9,2.69,10.5,0,0,0,1,0,0,250,250,0,,,,,,,,,,,,,,,,
34824,1625676723199,,,,,,,,0.11,-0.08,2.21,-0,-4,-4,0.14,,57,8127,15,26,59,0.518,0.0,686,4.84,13.4,0.0,1,38.8,1.56,10.5,0,0,0,1,0,0,250,250,0,,,,,,,,,,,,,,,,
34844,1625676723219,0,2,47,50,31,30,12,0.1,-0.09,2.36,-0,-5,-7,0.14,0,57,8472,16,26,57,0.517,0.0,695,4.72,13.4,0.0,1,41.1,2.04,10.2,0,0,0,1,0,0,250,250,0,52.957165,6.521602,0.0,22.8,11,2,1.6,0,0.0,-1,0.0,0.0,0.0,0,0.0,0.5807
34864,1625676723239,,,,,,,,0.11,-0.17,2.5,-0,-6,-8,0.2,,57,8831,17,26,55,0.515,0.0,698,4.81,13.4,0.0,1,39.8,3.29,10.2,0,0,0,1,0,0,250,250,0,,,,,,,,,,,,,,,,
34884,1625676723259,,,,,,,,0.09,-0.21,2.62,-1,-6,-11,0.23,,57,9110,20,26,54,0.513,0.0,710,4.68,13.4,0.0,1,40.0,2.24,10.2,0,0,0,1,0,0,250,250,0,,,,,,,,,,,,,,,,
34904,1625676723279,,,,,,,,0.03,-0.28,2.73,-1,-6,-13,0.28,,57,9346,24,26,56,0.511,0.0,710,4.75,13.4,0.0,1,40.2,3.48,10.2,0,0,0,1,0,0,250,250,0,,,,,,,,,,,,,,,,
34924,1625676723299,,,,,,,,0.03,-0.1,2.5,-1,-6,-10,0.1,,57,9571,27,26,59,0.51,0.0,715,4.78,13.4,0.0,1,41.0,4.0,17.8,0,0,0,1,0,0,250,250,0,,,,,,,,,,,,,,,,
34944,1625676723319,-0,3,47,50,31,30,14,0.04,-0.25,2.36,-1,-5,-10,0.26,0,57,9878,29,26,62,0.508,0.8,711,4.69,13.2,0.0,1,41.0,2.83,17.8,0,0,0,1,0,0,250,250,8,52.957165,6.521602,0.0,22.8,11,2,1.6,0,0.0,-1,0.0,,0.0,0,0.0,0.5824
34964,1625676723339,,,,,,,,0.06,-0.07,2.16,-0,-5,-7,0.09,,57,10251,30,26,65,0.505,0.8,721,4.76,13.2,0.0,1,41.8,4.83,17.8,0,0,0,1,0,0,250,250,8,,,,,,,,,,,,,,,,
34984,1625676723359,,,,,,,,0.09,0.11,2.12,-0,-5,-8,0.14,,57,10653,30,26,65,0.504,0.8,729,4.77,13.2,0.0,1,43.6,4.8,17.8,0,0,0,1,0,0,250,250,8,,,,,,,,,,,,,,,,
35004,1625676723379,,,,,,,,0.08,0.09,2.0,-0,-4,-7,0.12,,57,11048,30,26,66,0.502,0.8,743,4.76,13.2,0.0,1,43.6,4.76,17.8,0,0,0,1,0,0,250,250,8,,,,,,,,,,,,,,,,
35024,1625676723399,,,,,,,,0.11,0.04,1.84,0,-2,-4,0.12,,57,11384,30,26,66,0.5,0.8,734,4.73,13.3,0.0,1,43.4,3.22,17.8,0,0,0,1,0,0,250,-1,8,,,,,,,,,,,,,,,,
35044,1625676723419,0,3,47,50,31,31,18,0.19,0.04,1.88,0,-4,-5,0.19,0,57,11682,28,26,66,0.5,0.8,743,4.72,13.3,0.0,1,43.3,4.54,24.5,0,0,0,1,0,0,250,-1,8,52.957165,6.521602,0.0,22.8,11,2,1.6,0,0.0,-1,0.0,0.0,0.0,0,0.0,0.5841
35064,1625676723439,,,,,,,,0.17,0.1,1.95,0,-5,-5,0.2,,57,11904,24,26,65,0.5,0.8,749,4.75,13.3,0.0,1,43.5,4.29,24.5,0,0,0,1,0,0,1018,-1,8,,,,,,,,,,,,,,,,
35084,1625676723459,,,,,,,,0.16,0.16,2.05,0,-5,-5,0.23,,57,12081,20,26,61,0.5,0.8,748,4.8,13.2,0.0,1,44.0,3.26,24.5,0,0,0,1,0,0,1018,-1,8,,,,,,,,,,,,,,,,
35104,1625676723479,,,,,,,,0.21,0.22,1.96,0,-4,-4,0.31,,57,12159,17,26,57,0.5,0.8,747,4.74,13.2,0.0,1,41.6,3.99,24.5,0,0,0,1,0,0,1018,-1,8,,,,,,,,,,,,,,,,
35124,1625676723499,,,,,,,,0.17,0.12,1.8,0,-4,-3,0.21,,57,12042,15,26,54,0.5,0.8,748,4.76,13.3,0.0,1,40.0,3.84,21.4,0,0,0,1,0,0,1018,-1,8,,,,,,,,,,,,,,,,
35144,1625676723519,0,1,47,50,31,31,25,0.19,0.0,1.65,1,-4,-3,0.19,0,57,11799,14,26,51,0.5,1.1,738,4.75,13.3,0.0,1,39.1,3.46,21.4,0,0,0,1,0,0,1018,-1,11,52.957165,6.521602,0.0,22.8,11,2,1.7,0,0.0,-1,0.0,,0.0,0,0.0,0.5857
35164,1625676723539,,,,,,,,0.26,-0.0,1.61,1,-6,-4,0.26,,57,11446,14,26,49,0.5,1.1,747,4.74,13.2,0.0,1,38.5,3.1,21.4,0,0,0,1,0,0,1018,-1,11,,,,,,,,,,,,,,,,
35184,1625676723559,,,,,,,,0.25,0.01,1.8,1,-7,-5,0.25,,57,11114,14,26,48,0.5,1.1,738,4.77,13.3,0.0,1,38.2,2.97,21.4,0,0,0,1,0,0,1018,-1,11,,,,,,,,,,,,,,,,
35204,1625676723579,,,,,,,,0.22,0.09,1.69,1,-4,-2,0.24,,57,10782,14,26,47,0.5,1.1,737,4.75,13.2,0.0,1,38.0,2.85,21.4,0,0,0,1,0,15,1018,-1,11,,,,,,,,,,,,,,,,
35224,1625676723599,,,,,,,,0.22,0.18,1.77,1,-5,-2,0.28,,57,10353,13,26,46,0.5,1.6,722,4.73,13.2,0.0,1,37.2,2.81,13.5,0,0,0,1,0,15,1018,-1,11,,,,,,,,,,,,,,,,
35244,1625676723619,0,3,47,50,31,31,26,0.24,0.33,1.62,1,-3,1,0.41,0,57,10026,13,26,46,0.5,1.6,719,4.78,13.3,0.0,1,37.2,2.81,13.5,0,0,0,1,0,15,1018,-1,11,52.957165,6.521602,0.0,22.8,11,2,1.6,0,0.0,-1,0.0,0.0,0.0,0,0.0,0.5874
35264,1625676723639,,,,,,,,0.2,0.16,1.81,1,-4,-1,0.26,,57,9620,13,26,45,0.5,1.8,715,4.68,13.3,0.0,1,36.5,2.93,13.5,0,0,0,1,0,15,1018,-1,18,,,,,,,,,,,,,,,,
35284,1625676723659,,,,,,,,0.18,0.3,1.66,1,-4,-3,0.35,,57,9360,13,26,44,0.5,1.8,711,4.65,13.3,0.0,1,35.5,2.95,13.5,0,0,0,1,0,15,1018,-1,18,,,,,,,,,,,,,,,,
35304,1625676723679,,,,,,,,0.21,0.35,1.52,1,-4,-4,0.41,,57,9128,13,25,43,0.5,1.8,701,4.82,13.4,0.0,1,34.6,2.9,13.5,0,0,0,1,0,22,-1,-1,18,,,,,,,,,,,,,,,,
35324,1625676723699,,,,,,,,0.24,0.41,1.39,1,-4,-2,0.48,,57,8873,13,25,43,0.5,2.2,703,4.77,13.4,0.0,1,34.5,2.88,11.8,0,0,0,1,0,22,-1,-1,18,,,,,,,,,,,,,,,,
35344,1625676723719,-1,3,47,50,31,30,31,0.2,0.39,1.44,1,-4,-5,0.44,0,57,8620,13,25,43,0.5,2.2,694,4.75,13.3,0.0,1,34.5,2.86,11.8,0,0,0,1,0,22,-1,-1,18,52.957165,6.521602,0.0,22.8,11,2,1.6,0,0.0,-1,0.0,,0.0,0,0.0,0.5891
35364,1625676723739,,,,,,,,0.22,0.38,1.66,1,-4,-4,0.44,,57,8307,13,25,43,0.5,2.4,691,4.78,13.2,0.0,1,34.2,2.66,11.8,0,0,0,1,0,22,-1,-1,24,,,,,,,,,,,,,,,,
35384,1625676723759,,,,,,,,0.19,0.3,1.56,1,-5,-6,0.35,,57,8092,13,25,44,0.5,2.4,687,4.73,13.4,0.0,1,34.5,2.46,11.8,0,0,0,1,0,27,-1,16899,24,,,,,,,,,,,,,,,,
35404,1625676723779,,,,,,,,0.15,0.34,1.43,1,-3,-3,0.37,,57,7796,13,25,44,0.5,2.8,685,4.75,13.4,0.0,1,34.0,2.34,11.8,0,0,0,1,0,27,-1,16899,24,,,,,,,,,,,,,,,,
35424,1625676723800,,,,,,,,0.13,0.36,1.31,1,-2,-0,0.38,,57,7464,13,25,46,0.5,2.8,681,4.85,13.4,333.3,1,34.3,2.32,8.0,0,0,0,1,0,27,-1,16899,24,,,,,,,,,,,,,,,,
35444,1625676723820,-0,3,47,50,31,31,34,0.11,0.3,1.2,2,-2,-1,0.32,0,57,7170,13,25,47,0.5,2.8,673,4.76,13.4,333.3,1,33.9,2.27,8.0,0,0,0,1,0,27,-1,16899,28,52.957146,6.521547,1.94,22.2,11,2,1.6,0,0.0,-1,0.0,0.0,0.0,0,0.0,0.5907
35464,1625676723840,,,,,,,,0.14,0.29,1.42,2,-3,-2,0.32,,57,7088,13,25,48,0.5,3.1,675,4.72,13.5,333.3,1,33.9,2.26,8.0,0,0,0,1,0,31,-1,-1,28,,,,,,,,,,,,,,,,
35484,1625676723860,,,,,,,,0.14,0.25,1.32,2,-1,-0,0.29,,57,7040,13,25,49,0.5,3.1,672,4.72,13.2,333.3,1,34.1,2.25,8.0,0,0,0,1,0,31,-1,-1,28,,,,,,,,,,,,,,,,
35504,1625676723880,,,,,,,,0.11,0.25,1.21,2,-1,-1,0.27,,57,7062,13,25,50,0.5,3.1,671,4.82,13.5,333.3,1,34.5,2.26,8.0,0,0,0,1,0,31,-1,-1,31,,,,,,,,,,,,,,,,
35524,1625676723900,,,,,,,,0.13,0.2,1.42,2,-3,-2,0.23,,57,7062,14,25,51,0.5,3.1,673,4.83,13.5,238.7,1,34.8,2.26,7.4,0,0,0,1,0,34,-1,-1,31,,,,,,,,,,,,,,,,
35544,1625676723920,1,2,47,50,31,31,36,0.16,0.2,1.47,2,-2,-2,0.26,0,57,7072,14,25,52,0.5,3.4,670,4.77,13.3,238.7,1,35.2,2.27,7.4,0,0,0,1,0,34,-1,-1,31,52.957146,6.521546,2.51,22.1,11,2,1.6,0,0.0,-1,0.0,,0.0,0,0.01,0.5924
35564,1625676723940,,,,,,,,0.13,0.2,1.35,2,-1,0,0.24,,57,7080,14,25,53,0.5,3.4,668,4.83,13.4,238.7,1,35.5,2.27,7.4,0,0,0,1,0,34,-1,-1,31,,,,,,,,,,,,,,,,
35584,1625676723960,,,,,,,,0.12,0.16,1.24,2,-2,-1,0.19,,57,7078,14,25,54,0.5,3.4,666,4.75,13.5,238.7,1,35.9,2.28,7.4,0,0,0,1,0,36,-1,-1,33,,,,,,,,,,,,,,,,
35604,1625676723980,,,,,,,,0.16,0.14,1.47,2,-2,-2,0.21,,57,7056,15,25,55,0.5,3.7,667,4.73,13.4,238.7,1,36.2,2.31,7.4,0,0,0,1,0,36,-1,-1,33,,,,,,,,,,,,,,,,
35624,1625676723992,,,,,,,,0.14,0.12,1.34,2,-1,-0,0.18,,57,7048,15,25,56,0.5,3.7,667,4.74,13.2,230.3,1,36.5,2.35,7.6,0,0,0,1,0,36,-1,-1,33,,,,,,,,,,,,,,,,
35644,1625676724012,0,3,47,50,31,31,36,0.11,0.13,1.23,2,-1,-0,0.17,0,57,7048,15,25,57,0.5,3.7,668,4.8,13.5,230.3,1,36.9,2.39,7.6,0,0,0,1,0,38,-1281,-1,36,52.957146,6.521546,2.76,22.2,11,2,1.6,0,0.0,-1,0.0,0.0,0.0,0,0.01,0.5941
35664,1625676724032,,,,,,,,0.14,0.08,1.34,3,-2,-2,0.16,,57,7078,15,25,58,0.5,3.9,673,4.83,13.5,230.3,1,37.2,2.43,7.6,0,0,0,1,0,38,-1281,-1,36,,,,,,,,,,,,,,,,
35684,1625676724052,,,,,,,,0.16,0.12,1.41,3,-1,-1,0.2,,57,7070,15,25,58,0.5,3.9,672,4.77,13.3,230.3,1,37.2,2.43,7.6,0,0,0,1,0,38,-1281,-1,36,,,,,,,,,,,,,,,,
35704,1625676724072,,,,,,,,0.1,0.1,1.29,3,0,0,0.14,,57,7056,15,25,59,0.5,4.1,671,4.76,13.3,230.3,1,37.6,2.47,7.6,0,0,0,1,0,41,24067,-1,38,,,,,,,,,,,,,,,,
35724,1625676724096,,,,,,,,0.12,0.1,1.41,3,-2,-2,0.16,,57,7043,15,25,59,0.5,4.1,672,4.82,13.5,210.5,1,37.6,2.47,8.0,0,0,0,1,0,41,24067,-1281,38,,,,,,,,,,,,,,,,
35744,1625676724116,-0,2,47,50,31,30,38,0.15,0.09,1.45,3,-1,-1,0.18,0,57,7035,15,25,60,0.5,4.1,673,4.78,13.4,210.5,1,37.9,2.51,8.0,0,0,0,1,0,41,24067,-1281,38,52.957146,6.521545,2.95,22.2,11,2,1.6,0,0.0,-1,0.0,,0.0,0,0.01,0.5957
35764,1625676724136,,,,,,,,0.12,0.13,1.33,3,0,1,0.17,,57,7011,15,25,60,0.5,4.3,676,4.75,13.2,210.5,1,37.9,2.51,8.0,0,0,0,1,0,42,-235,24067,40,,,,,,,,,,,,,,,,
35784,1625676724156,,,,,,,,0.12,0.09,1.23,3,-1,-0,0.15,,57,7009,15,25,61,0.5,4.3,672,4.82,13.5,210.5,1,38.3,2.55,8.0,0,0,0,1,0,42,-235,24067,40,,,,,,,,,,,,,,,,
35804,1625676724176,,,,,,,,0.16,0.13,1.43,3,-1,-1,0.21,,57,6944,15,25,61,0.5,4.5,671,4.7,13.4,210.5,1,38.0,2.53,8.0,0,0,0,1,0,45,-1,24067,42,,,,,,,,,,,,,,,,
35824,1625676724198,,,,,,,,0.1,0.09,1.31,3,1,1,0.13,,57,6878,15,25,61,0.5,4.5,661,4.82,13.4,210.5,1,37.7,2.5,8.0,0,0,0,1,0,45,-1,-235,42,,,,,,,,,,,,,,,,
35844,1625676724218,1,0,47,50,31,30,39,0.16,0.08,1.53,3,-1,-1,0.18,0,57,6808,15,25,61,0.5,4.5,662,4.81,13.5,188.0,1,37.4,2.48,7.9,0,0,0,1,0,47,-1,-235,42,52.957146,6.521544,3.51,22.1,11,2,1.6,0,0.0,-1,0.0,0.0,0.0,0,0.01,0.5974
35864,1625676724238,,,,,,,,0.08,0.09,1.4,3,0,0,0.12,,57,6756,15,25,62,0.5,4.7,661,4.77,13.3,188.0,1,37.4,2.6,7.9,0,0,0,1,0,47,-1,-1,44,,,,,,,,,,,,,,,,
35884,1625676724258,,,,,,,,0.13,0.06,1.62,4,-1,-1,0.14,,57,6727,15,25,62,0.5,4.7,663,4.79,13.5,188.0,1,37.4,2.59,7.9,0,0,0,1,0,47,-1,-1,44,,,,,,,,,,,,,,,,
35904,1625676724278,,,,,,,,0.08,0.11,1.49,4,0,1,0.13,,57,6718,15,25,62,0.5,4.9,663,4.75,13.3,188.0,1,37.4,2.59,7.9,0,0,0,1,0,48,-1,-1,44,,,,,,,,,,,,,,,,
35924,1625676724298,,,,,,,,0.13,0.09,1.69,4,-1,-1,0.16,,57,6768,15,25,62,0.5,4.9,671,4.75,13.5,176.0,1,37.6,2.61,8.1,0,0,0,1,0,48,-1,-1,46,,,,,,,,,,,,,,,,
35944,1625676724318,-1,3,47,50,31,30,40,0.08,0.1,1.55,4,1,1,0.13,0,57,6781,15,25,63,0.5,5.1,667,4.78,13.4,176.0,1,37.9,2.75,8.1,0,0,0,1,0,51,-1,-1,46,52.957142,6.521544,3.53,22.1,11,2,1.6,0,0.0,-1,0.0,,0.0,0,0.01,0.5991
35964,1625676724338,,,,,,,,0.14,0.11,1.76,4,-1,-0,0.18,,57,6778,15,25,62,0.5,5.1,670,4.78,13.5,176.0,1,37.6,2.61,8.1,0,0,0,1,0,51,-1,-1,48,,,,,,,,,,,,,,,,
35984,1625676724358,,,,,,,,0.07,0.07,1.61,4,1,2,0.1,,57,6776,15,25,63,0.5,5.4,666,4.73,13.3,176.0,1,37.9,2.61,8.1,0,0,0,1,0,53,-1,-1,48,,,,,,,,,,,,,,,,
36004,1625676724378,,,,,,,,0.13,0.05,1.81,4,-1,-0,0.14,,57,6793,15,25,63,0.5,5.4,662,4.78,13.5,176.0,1,38.0,2.75,8.1,0,0,0,1,0,53,-1,-1,50,,,,,,,,,,,,,,,,
36024,1625676724402,,,,,,,,0.06,0.08,1.66,4,1,2,0.1,,57,6759,15,25,63,0.5,5.4,660,4.78,13.2,172.0,1,37.8,2.75,8.6,0,0,0,1,0,55,-1,-1,50,,,,,,,,,,,,,,,,
36044,1625676724422,-1,3,47,50,31,30,43,0.11,0.04,1.85,5,-1,-0,0.12,0,57,6759,15,25,63,0.5,5.5,665,4.72,13.5,172.0,1,37.8,2.74,8.6,0,0,0,1,0,55,-1,-1,51,52.957142,6.52154,4.23,22.1,11,2,1.6,0,0.0,-1,0.0,0.0,0.0,0,0.01,0.6007
36064,1625676724442,,,,,,,,0.07,0.08,1.7,5,1,2,0.1,,57,6764,15,25,63,0.5,5.5,665,4.8,13.4,172.0,1,37.9,2.74,8.6,0,0,0,1,0,56,-1,-1,51,,,,,,,,,,,,,,,,
36084,1625676724462,,,,,,,,0.12,0.03,1.89,5,-1,-1,0.12,,57,6773,15,25,63,0.5,5.7,670,4.74,13.5,172.0,1,37.9,2.75,8.6,0,0,0,1,0,56,-1,-1,51,,,,,,,,,,,,,,,,
36104,1625676724482,,,,,,,,0.06,0.06,1.73,5,1,2,0.09,,57,6739,15,25,63,0.5,5.9,668,4.77,13.4,172.0,1,37.8,2.74,8.6,0,0,0,1,0,58,-1,-1,53,,,,,,,,,,,,,,,,
36124,1625676724502,,,,,,,,0.11,0.07,1.92,5,-2,-1,0.13,,57,6788,15,25,63,0.5,5.9,669,4.78,13.5,162.2,1,38.0,2.75,8.6,0,0,0,1,0,58,-1,-1,53,,,,,,,,,,,,,,,,
36144,1625676724522,1,1,47,51,31,31,45,0.07,0.06,1.76,5,1,2,0.09,0,57,6813,15,25,63,0.5,6.1,663,4.76,13.4,162.2,1,38.0,2.76,8.6,0,0,0,1,0,60,-1,-1,55,52.957142,6.521538,4.75,22.1,11,2,1.6,0,0.0,-1,0.0,,0.0,0,0.01,0.6024
36164,1625676724542,,,,,,,,0.12,0.03,1.95,5,-2,-1,0.12,,57,6795,15,25,63,0.5,6.1,665,4.83,13.5,162.2,1,38.0,2.76,8.6,0,0,0,1,0,60,-1,-1,55,,,,,,,,,,,,,,,,
36184,1625676724562,,,,,,,,0.09,0.0,1.78,5,0,1,0.09,,57,6764,15,25,63,0.5,6.1,663,4.69,13.3,162.2,1,37.9,2.89,8.6,0,0,0,1,0,62,-1,-1,56,,,,,,,,,,,,,,,,
36204,1625676724582,,,,,,,,0.13,0.01,1.97,5,-2,-1,0.13,,57,6771,15,25,63,0.5,6.1,660,4.78,13.5,162.2,1,37.9,2.75,8.6,0,0,0,1,0,62,-1,-1,56,,,,,,,,,,,,,,,,
36224,1625676724602,,,,,,,,0.12,0.04,1.8,5,-0,1,0.12,,57,6734,15,25,63,0.5,6.4,660,4.75,13.3,146.5,1,37.7,2.74,8.5,0,0,0,1,0,63,250,-1,58,,,,,,,,,,,,,,,,
36244,1625676724622,0,2,48,51,31,30,47,0.15,0.03,1.96,6,-2,-0,0.15,0,57,6732,15,25,64,0.5,6.4,661,4.8,13.4,146.5,1,38.0,2.74,8.5,0,0,0,1,0,65,250,-1,60,52.957138,6.521534,5.71,22.0,11,2,1.6,0,0.0,-1,0.0,0.0,0.0,0,0.01,0.6041
36264,1625676724642,,,,,,,,0.11,0.05,1.8,6,0,2,0.12,,57,6694,15,25,64,0.5,6.5,667,4.77,13.3,146.5,1,37.9,2.88,8.5,0,0,0,1,0,65,-6656,-1,60,,,,,,,,,,,,,,,,
36284,1625676724662,,,,,,,,0.15,0.07,1.98,6,-2,-1,0.17,,57,6694,15,25,64,0.5,6.7,669,4.77,13.5,146.5,1,37.9,2.88,8.5,0,0,0,1,0,67,-1482,-1,60,,,,,,,,,,,,,,,,
36304,1625676724682,,,,,,,,0.1,0.04,1.81,6,-0,1,0.11,,57,6761,15,25,64,0.5,6.7,667,4.73,13.2,146.5,1,38.1,2.89,8.5,0,0,0,1,0,67,-1482,-1,60,,,,,,,,,,,,,,,,
36324,1625676724700,,,,,,,,0.15,0.02,2.0,7,-2,-1,0.16,,57,6828,15,25,63,0.5,7.0,670,4.76,13.5,146.5,1,38.1,1.62,8.5,0,0,0,1,0,69,14228,-1281,64,,,,,,,,,,,,,,,,
36344,1625676724720,1,2,47,51,31,30,46,0.13,-0.0,1.83,7,-0,1,0.13,0,57,6870,15,26,64,0.5,7.0,664,4.77,13.4,135.9,1,38.6,2.92,8.7,0,0,0,1,0,71,14228,-1281,64,52.957138,6.521531,6.23,22.0,11,2,1.6,0,0.0,-1,0.0,,0.0,0,0.01,0.6057
36364,1625676724740,,,,,,,,0.13,-0.0,1.78,7,-1,1,0.13,,57,6873,15,25,64,0.5,7.1,663,4.78,13.4,135.9,1,38.6,2.92,8.7,0,0,0,1,0,71,-1481,14054,64,,,,,,,,,,,,,,,,
36384,1625676724760,,,,,,,,0.17,0.0,1.89,7,-2,-1,0.17,,57,6923,15,26,64,0.5,7.2,669,4.71,13.3,135.9,1,38.8,2.93,8.7,0,0,0,1,0,72,250,14054,64,,,,,,,,,,,,,,,,
36404,1625676724780,,,,,,,,0.13,0.0,1.73,7,-0,1,0.13,,57,6903,15,26,64,0.5,7.2,666,4.82,13.4,135.9,1,38.7,2.93,8.7,0,0,0,1,0,72,250,-1482,67,,,,,,,,,,,,,,,,
36424,1625676724801,,,,,,,,0.16,-0.01,1.89,7,-2,-1,0.16,,57,6972,15,26,64,0.5,7.4,665,4.77,13.5,139.7,1,39.1,2.94,9.5,0,0,0,1,0,74,14242,-27648,68,,,,,,,,,,,,,,,,
36444,1625676724821,0,3,47,51,31,30,45,0.15,-0.01,1.74,7,-1,1,0.15,0,57,6936,15,25,64,0.5,7.5,672,4.7,13.4,139.7,1,38.9,2.93,9.5,0,0,0,1,0,75,-1481,-27648,68,52.957138,6.521527,6.72,21.9,11,2,1.6,0,0.0,-1,0.0,0.0,0.0,0,0.01,0.6074
36464,1625676724841,,,,,,,,0.13,0.01,1.59,7,-0,1,0.13,,57,6991,15,25,64,0.5,7.5,671,4.72,13.3,139.7,1,39.2,2.94,9.5,0,0,0,1,0,75,-1481,14228,70,,,,,,,,,,,,,,,,
36484,1625676724861,,,,,,,,0.16,-0.02,1.75,7,-2,-1,0.16,,57,6983,15,25,64,0.5,7.8,670,4.82,13.5,139.7,1,39.2,2.94,9.5,0,0,0,1,0,77,14256,14228,71,,,,,,,,,,,,,,,,
36504,1625676724881,,,,,,,,0.16,0.03,1.68,8,-1,-1,0.16,,57,7040,15,26,64,0.5,8.0,668,4.72,13.2,139.7,1,39.3,2.95,9.5,0,0,0,1,0,79,250,250,71,,,,,,,,,,,,,,,,
36524,1625676724899,,,,,,,,0.14,0.02,1.54,8,0,1,0.15,,57,7030,15,26,64,0.5,8.0,668,4.83,13.4,129.7,1,39.3,2.95,9.6,0,0,0,1,0,80,250,14242,74,,,,,,,,,,,,,,,,
36544,1625676724919,-0,1,47,51,31,30,46,0.18,0.0,1.61,8,-1,-0,0.18,0,57,7011,15,26,64,0.5,8.2,667,4.79,13.5,129.7,1,39.3,2.95,9.6,0,0,0,1,0,80,14270,14242,74,52.957134,6.521524,6.98,21.9,11,2,1.6,0,0.0,-1,0.0,,0.0,0,0.01,0.6091
36564,1625676724939,,,,,,,,0.18,-0.01,1.55,8,-0,0,0.18,,57,6993,15,26,64,0.5,8.2,672,4.72,13.4,129.7,1,39.2,2.94,9.6,0,0,0,1,0,82,14270,-20480,74,,,,,,,,,,,,,,,,
36584,1625676724959,,,,,,,,0.15,0.01,1.42,8,-0,1,0.15,,57,6978,15,26,64,0.5,8.4,667,4.78,13.3,129.7,1,39.1,2.94,9.6,0,0,0,1,0,83,250,14256,77,,,,,,,,,,,,,,,,
36604,1625676724979,,,,,,,,0.17,-0.02,1.54,8,-1,-0,0.18,,57,6998,15,26,64,0.502,8.4,667,4.81,13.5,129.7,1,39.2,2.94,9.6,0,0,0,1,0,83,250,250,79,,,,,,,,,,,,,,,,
36624,1625676724991,,,,,,,,0.19,0.03,1.55,8,-2,-1,0.19,,57,7030,15,26,64,0.503,8.6,670,4.68,13.2,129.7,1,39.3,2.95,9.6,0,0,0,1,0,86,14284,250,79,,,,,,,,,,,,,,,,
36644,1625676725011,0,1,48,51,31,30,47,0.16,0.02,1.42,8,-0,1,0.17,0,57,7025,15,25,64,0.505,8.8,669,4.72,13.2,121.5,1,39.3,2.95,9.6,0,0,0,1,0,88,250,14270,81,52.957134,6.521522,7.03,22.1,11,2,1.6,0,0.0,-1,0.0,0.0,0.0,0,0.01,0.6107
36664,1625676725031,,,,,,,,0.19,0.02,1.57,9,-1,-0,0.19,,57,6983,15,26,64,0.507,8.9,666,4.82,13.4,121.5,1,39.2,2.94,9.6,0,0,0,1,0,89,-9728,-13312,82,,,,,,,,,,,,,,,,
36684,1625676725051,,,,,,,,0.19,0.02,1.44,9,-1,0,0.19,,57,6978,15,26,64,0.507,9.1,668,4.72,13.4,121.5,1,39.1,2.94,9.6,0,0,0,1,0,92,-1481,-13312,82,,,,,,,,,,,,,,,,
36704,1625676725071,,,,,,,,0.2,0.04,1.42,9,-1,0,0.2,,57,6985,15,26,64,0.51,9.1,671,4.78,13.3,121.5,1,39.2,2.94,9.6,0,0,0,1,0,92,-1481,-13312,84,,,,,,,,,,,,,,,,
36724,1625676725099,,,,,,,,0.22,-0.03,1.43,9,-1,-0,0.22,,57,6991,15,26,64,0.511,9.4,672,4.73,13.5,121.5,1,39.2,2.94,9.6,0,0,0,1,0,93,14312,-1481,87,,,,,,,,,,,,,,,,
36744,1625676725119,1,2,48,51,31,30,47,0.21,0.02,1.36,9,-1,-0,0.21,0,57,6978,15,26,64,0.513,9.5,673,4.78,13.4,109.1,1,39.1,2.94,9.5,0,0,0,1,0,95,-1481,-1481,88,52.95713,6.521519,7.92,22.1,11,2,1.6,0,0.0,-1,0.0,,0.0,0,0.01,0.6124
36764,1625676725139,,,,,,,,0.2,-0.02,1.27,9,-1,1,0.21,,57,6939,15,26,64,0.515,9.7,667,4.79,13.3,109.1,1,38.9,2.93,9.5,0,0,0,1,0,97,-22528,-1481,88,,,,,,,,,,,,,,,,
36784,1625676725159,,,,,,,,0.22,-0.04,1.31,9,-2,-1,0.22,,57,6908,15,26,64,0.517,9.8,670,4.76,13.5,109.1,1,38.8,2.93,9.5,0,0,0,1,0,98,13736,-6144,91,,,,,,,,,,,,,,,,
36804,1625676725179,,,,,,,,0.17,-0.05,1.2,9,-0,1,0.18,,57,6885,15,26,64,0.519,10.1,665,4.71,13.2,109.1,1,38.7,2.93,9.5,0,0,0,1,0,101,2048,-6144,92,,,,,,,,,,,,,,,,
36824,1625676725199,,,,,,,,0.19,-0.03,1.23,10,-2,-1,0.19,,57,6828,15,26,64,0.521,10.2,662,4.83,13.4,97.8,1,38.4,2.91,9.2,0,0,0,1,0,103,13832,-1481,94,,,,,,,,,,,,,,,,
36844,1625676725219,0,1,48,50,31,30,47,0.21,-0.03,1.25,10,-1,0,0.22,0,57,6830,15,26,65,0.523,10.2,658,4.68,13.3,97.8,1,38.8,3.05,9.2,0,0,0,1,0,104,3584,-22528,96,52.957127,6.521515,8.39,22.3,11,2,1.6,0,0.0,-1,0.0,0.0,0.0,0,0.01,0.6141
36864,1625676725239,,,,,,,,0.18,0.0,1.15,10,-1,0,0.18,,57,6805,15,25,65,0.528,10.5,661,4.79,13.4,97.8,1,38.6,1.9,9.2,0,0,0,1,0,104,3584,-1483,99,,,,,,,,,,,,,,,,
36884,1625676725259,,,,,,,,0.23,0.02,1.22,10,-1,0,0.23,,57,6788,15,25,65,0.532,10.6,667,4.68,13.4,97.8,1,38.6,3.04,9.2,0,0,0,1,0,107,13838,2048,100,,,,,,,,,,,,,,,,
36904,1625676725279,,,,,,,,0.2,0.01,1.12,10,-1,1,0.2,,57,6793,15,26,65,0.538,10.7,668,4.75,13.4,97.8,1,38.6,3.04,9.2,0,0,0,1,0,109,-1482,250,100,,,,,,,,,,,,,,,,
36924,1625676725301,,,,,,,,0.25,0.04,1.27,10,-0,0,0.25,,58,6783,15,26,65,0.542,11.2,669,4.76,13.4,94.0,1,38.5,3.04,9.5,0,0,0,1,0,111,250,13838,101,,,,,,,,,,,,,,,,
36944,1625676725321,-1,1,48,51,31,29,47,0.2,0.02,1.17,10,-0,0,0.2,0,58,6798,15,26,65,0.545,11.3,665,4.82,13.5,94.0,1,38.6,3.05,9.5,0,0,0,1,0,113,6656,-1482,103,52.957123,6.521512,9.31,22.4,11,2,1.6,0,0.0,-1,0.0,,0.0,0,0.01,0.6157
36964,1625676725341,,,,,,,,0.26,0.02,1.4,10,-1,-0,0.26,,58,6778,15,26,65,0.548,11.5,666,4.71,13.3,94.0,1,38.5,3.04,9.5,0,0,0,1,0,115,-1482,250,107,,,,,,,,,,,,,,,,
