"Interval"|"ms"|0|0|1,"Utc"|"ms"|0|0|1,"Brake_F"|"Bar"|0|2000|10,"Brake_R"|"Bar"|0|2000|10,"Height_RF"|"mm"|0|255|10,"Height_LF"|"mm"|0|255|10,"Height_LR"|"mm"|0|80|10,"Height_RR"|"mm"|0|255|10,"Steering"|"deg"|-100|100|10,"AccelX"|"G"|-3.0|3.0|50,"AccelY"|"G"|-3.0|3.0|50,"AccelZ"|"G"|-3.0|3.0|50,"Yaw"|"Deg/Sec"|-120|120|50,"Pitch"|"Deg/Sec"|-120|120|50,"Roll"|"Deg/Sec"|-120|120|50,"Gsum"|"G"|0.0|3.0|50,"Log_Button"|""|0.0|10.0|10,"WaterTemp"|"C"|0|150|50,"RPM"|"tr/min"|0|14000|50,"TPS"|"%"|0|100|50,"AirTemp"|"C"|0|150|50,"MAP"|"KPa"|0|100|50,"Lambda"|""|0.5|1.5|50,"SpeedDTA"|"kph"|0.0|250.0|50,"OilPress"|"KPa"|0|1500|50,"FuelPressur"|"Bar"|0.0|10.0|50,"Batterie"|"V"|0.0|20.0|50,"ConsoKm"|"L/100km"|0.0|200.0|50,"Gear"|""|0|6|50,"AdvIgnition"|"Deg"|-20.0|70.0|50,"Injection"|"ms"|0.0|10.0|50,"ConsoHr"|"L/Hr"|0.0|10000.0|50,"LC_But_Pres"|""|0|1|50,"LC_Active"|""|0|1|50,"TractionOn"|""|0|1|50,"TractionWet"|""|0|1|50,"FanOn"|""|0|1|50,"RD_Speed"|"km/h"|-30|250|50,"RUD_Speed"|"km/h"|-30|250|50,"LD_Speed"|"km/h"|-30|250|50,"LUD_Speed"|"km/h"|-30|250|50,"Latitude"|"Degrees"|-180.0|180.0|10,"Longitude"|"Degrees"|-180.0|180.0|10,"Speed"|"kph"|0.0|150.0|10,"Altitude"|"m"|0.0|4000.0|10,"GPSSats"|""|0|20|10,"GPSQual"|""|0|5|10,"GPSDOP"|""|0.0|20.0|10,"LapCount"|""|0|0|10,"LapTime"|"Min"|0.0|0.0|10,"Sector"|""|0|0|10,"SectorTime"|"Min"|0.0|0.0|10,"PredTime"|"Min"|0.0|0.0|5,"ElapsedTime"|"Min"|0.0|0.0|10,"CurrentLap"|""|0|0|10,"Distance"|"km"|0.0|0.0|10,"SessionTime"|"Min"|0.0|0.0|10
35064,1625651317043,,,,,,,,0.21,0.04,2.15,-0,-5,-7,0.21,,79,6558,13,30,68,0.632,0.0,606,4.88,13.9,0.0,1,38.4,3.41,10.3,0,0,0,1,0,0,250,250,0,,,,,,,,,,,,,,,,
35084,1625651317063,,,,,,,,0.25,0.03,2.31,-0,-6,-7,0.26,,79,6918,13,30,66,0.63,0.0,637,4.75,13.8,0.0,1,39.5,3.16,10.3,0,0,0,1,0,0,250,250,0,,,,,,,,,,,,,,,,
35104,1625651317091,,,,,,,,0.21,0.06,2.11,-0,-4,-5,0.22,,80,7104,13,30,65,0.629,0.0,646,4.79,13.7,0.0,1,39.5,3.05,10.3,0,0,0,1,0,0,250,250,0,,,,,,,,,,,,,,,,
35124,1625651317111,,,,,,,,0.17,0.04,1.94,0,-2,-3,0.17,,80,7352,13,30,63,0.627,0.0,652,4.77,13.7,0.0,1,38.6,1.68,10.3,0,0,0,1,0,0,250,250,0,,,,,,,,,,,,,,,,
35144,1625651317131,0,2,46,48,32,31,7,0.12,0.03,1.78,0,0,0,0.12,1,80,7603,13,30,62,0.626,0.0,652,4.81,13.7,0.0,1,38.1,2.65,10.3,0,0,0,1,0,0,250,250,0,52.961891,6.523255,0.0,20.6,10,3,1.9,0,0.0,-1,0.0,,0.0,0,0.01,0.5857
35164,1625651317151,,,,,,,,0.11,0.03,1.63,0,1,1,0.12,,79,7819,13,30,60,0.625,0.0,654,4.74,13.8,0.0,1,37.7,2.5,10.3,0,0,0,1,0,0,250,250,0,,,,,,,,,,,,,,,,
35184,1625651317171,,,,,,,,0.15,-0.01,1.82,-0,-1,-3,0.15,,80,8016,13,30,58,0.623,0.0,667,4.8,13.9,0.0,1,37.5,1.39,9.0,0,0,0,1,0,0,250,250,0,,,,,,,,,,,,,,,,
35204,1625651317191,,,,,,,,0.11,-0.04,1.67,0,-1,-1,0.12,,79,8223,12,30,56,0.621,0.0,661,4.84,13.8,0.0,1,39.0,2.75,9.0,0,0,0,1,0,0,250,250,0,,,,,,,,,,,,,,,,
35224,1625651317211,,,,,,,,0.09,-0.05,1.69,-0,-1,-2,0.1,,79,8507,12,30,53,0.621,0.0,672,4.76,13.8,0.0,1,38.7,3.08,9.0,0,0,0,1,0,0,250,250,0,,,,,,,,,,,,,,,,
35244,1625651317231,-1,2,46,48,32,32,6,0.09,-0.05,1.67,-0,-1,-3,0.11,1,80,8794,12,30,50,0.619,0.0,682,4.83,13.8,0.0,1,38.0,3.06,9.0,0,0,0,1,0,0,250,250,0,52.961891,6.523255,0.0,20.6,10,3,1.9,0,0.0,-1,0.0,0.0,0.0,0,0.01,0.5874
35264,1625651317251,,,,,,,,0.1,-0.1,1.55,0,-1,-4,0.14,,80,9001,12,30,47,0.616,0.0,678,4.75,13.8,0.0,1,37.0,2.97,12.4,0,0,0,1,0,0,250,250,0,,,,,,,,,,,,,,,,
35284,1625651317271,,,,,,,,0.08,-0.11,1.45,-0,-0,-5,0.13,,80,9204,11,30,45,0.614,0.0,685,4.75,13.8,0.0,1,36.0,2.92,12.4,0,0,0,1,0,0,250,250,0,,,,,,,,,,,,,,,,
35304,1625651317291,,,,,,,,0.04,-0.2,1.41,-0,0,-6,0.2,,80,9351,10,30,43,0.616,0.0,686,4.86,13.8,0.0,1,34.8,2.88,12.4,0,0,0,1,0,0,250,250,0,,,,,,,,,,,,,,,,
35324,1625651317311,,,,,,,,0.01,-0.18,1.3,-0,1,-4,0.18,,80,9417,10,30,40,0.62,0.0,687,4.8,13.7,0.0,1,32.7,2.79,12.4,0,0,0,1,0,0,250,250,0,,,,,,,,,,,,,,,,
35344,1625651317331,-1,2,45,48,32,32,6,0.06,-0.06,1.19,0,1,-1,0.09,0,80,9407,10,30,38,0.622,0.0,691,4.66,13.6,0.0,1,31.7,1.61,12.4,0,0,0,1,0,0,250,250,0,52.961891,6.523255,0.0,20.6,10,3,1.9,0,0.0,-1,0.0,,0.0,0,0.01,0.5891
35364,1625651317351,,,,,,,,0.06,-0.1,1.33,0,0,-3,0.11,,80,9333,10,30,36,0.624,0.0,688,4.75,13.8,0.0,1,31.1,1.53,12.4,0,0,0,1,0,0,250,250,0,,,,,,,,,,,,,,,,
35384,1625651317371,,,,,,,,0.02,-0.15,1.55,-0,-1,-6,0.16,,80,9200,10,30,36,0.626,0.0,686,4.73,13.7,0.0,1,31.1,2.62,11.4,0,0,0,1,0,0,250,250,0,,,,,,,,,,,,,,,,
35404,1625651317391,,,,,,,,-0.01,-0.11,1.49,-0,-2,-9,0.11,,80,8945,10,30,35,0.627,0.0,678,4.82,13.8,0.0,1,30.8,1.44,11.4,0,0,0,1,0,0,250,250,0,,,,,,,,,,,,,,,,
35424,1625651317410,,,,,,,,0.01,-0.14,1.7,-1,-4,-12,0.14,,80,8684,10,30,36,0.629,0.0,678,4.75,13.6,0.0,1,31.1,1.49,11.4,0,0,0,1,0,0,250,250,0,,,,,,,,,,,,,,,,
35444,1625651317430,1,1,46,48,32,32,7,0.04,-0.19,1.8,-0,-2,-8,0.19,0,80,8415,10,30,36,0.632,0.0,674,4.81,13.6,0.0,1,30.9,2.56,11.4,0,0,0,1,0,0,250,250,0,52.961891,6.523255,0.0,20.6,10,3,1.9,0,0.0,-1,0.0,0.0,0.0,0,0.01,0.5907
35464,1625651317450,,,,,,,,0.01,-0.18,1.65,-0,-3,-8,0.18,,80,8194,10,30,36,0.633,0.0,669,4.79,13.9,0.0,1,30.4,1.2,11.4,0,0,0,1,0,0,250,250,0,,,,,,,,,,,,,,,,
35484,1625651317470,,,,,,,,0.0,-0.11,1.51,-0,0,-3,0.11,,80,7975,10,30,36,0.634,0.0,665,4.8,13.7,0.0,1,30.1,1.01,8.8,0,0,0,1,0,0,250,250,0,,,,,,,,,,,,,,,,
35504,1625651317490,,,,,,,,0.05,-0.13,1.72,0,2,-0,0.14,,80,7706,9,30,37,0.635,0.0,660,4.79,13.7,0.0,1,30.4,2.18,8.8,0,0,0,1,0,0,250,250,0,,,,,,,,,,,,,,,,
35524,1625651317510,,,,,,,,0.11,-0.18,1.89,0,3,0,0.21,,80,7473,9,30,38,0.636,0.0,660,4.77,13.8,0.0,1,30.7,2.23,8.8,0,0,0,1,0,0,250,250,0,,,,,,,,,,,,,,,,
35544,1625651317530,1,2,46,48,32,31,7,0.11,-0.15,1.86,0,4,1,0.19,0,80,7287,10,30,39,0.636,0.0,650,4.82,13.8,0.0,1,31.0,1.17,8.8,0,0,0,1,0,0,250,250,0,52.961891,6.523255,0.0,20.6,10,3,1.9,0,0.0,-1,0.0,,0.0,0,0.01,0.5924
35564,1625651317550,,,,,,,,0.06,-0.13,1.71,0,3,2,0.14,,80,7110,10,30,40,0.633,0.0,652,4.84,13.8,0.0,1,31.3,2.29,7.5,0,0,0,1,0,0,250,250,0,,,,,,,,,,,,,,,,
35584,1625651317570,,,,,,,,0.09,-0.12,1.82,0,1,-1,0.15,,80,7009,10,30,40,0.631,0.0,656,4.82,13.9,0.0,1,31.3,2.29,7.5,0,0,0,1,0,0,250,250,0,,,,,,,,,,,,,,,,
35604,1625651317590,,,,,,,,0.1,-0.14,1.89,0,3,1,0.18,,80,6985,9,30,40,0.629,0.0,647,4.78,13.8,0.0,1,31.2,2.29,7.5,0,0,0,1,0,0,250,250,0,,,,,,,,,,,,,,,,
35624,1625651317610,,,,,,,,0.05,-0.12,1.73,0,2,1,0.13,,80,6975,10,29,41,0.626,0.0,645,4.82,13.8,0.0,1,31.5,2.29,7.5,0,0,0,1,0,0,250,250,0,,,,,,,,,,,,,,,,
35644,1625651317630,1,2,45,48,32,32,6,0.09,-0.14,1.92,0,1,-1,0.17,0,80,6949,10,29,41,0.625,0.0,650,4.8,13.8,0.0,1,31.4,2.29,7.5,0,0,0,1,0,0,250,250,0,52.961891,6.523255,0.0,20.6,10,3,1.9,0,0.0,-1,0.0,0.0,0.0,0,0.01,0.5941
35664,1625651317650,,,,,,,,0.06,-0.09,1.76,0,3,2,0.11,,80,6900,10,29,41,0.624,0.0,632,4.76,13.8,0.0,1,31.3,1.16,7.5,0,0,0,1,0,0,250,250,0,,,,,,,,,,,,,,,,
35684,1625651317670,,,,,,,,0.05,-0.12,1.65,0,1,-0,0.13,,80,6906,9,29,42,0.623,0.0,638,4.81,13.9,0.0,1,31.6,1.15,7.3,0,0,0,1,0,0,250,250,0,,,,,,,,,,,,,,,,
35704,1625651317690,,,,,,,,0.09,-0.08,1.83,0,2,0,0.12,,80,6883,10,29,42,0.622,0.0,641,4.75,13.7,0.0,1,31.6,2.29,7.3,0,0,0,1,0,0,250,250,0,,,,,,,,,,,,,,,,
35724,1625651317708,,,,,,,,0.0,-0.1,1.68,0,2,0,0.1,,80,6878,9,29,42,0.623,0.0,636,4.86,13.9,0.0,1,31.6,1.16,7.3,0,0,0,1,0,0,250,250,0,,,,,,,,,,,,,,,,
35744,1625651317728,-1,2,46,48,32,32,6,0.07,-0.09,1.87,0,0,-1,0.11,0,80,6845,10,29,42,0.622,0.0,639,4.79,13.9,0.0,1,31.6,2.29,7.3,0,0,0,1,0,0,250,250,0,52.961891,6.523255,0.0,20.6,10,3,1.9,0,0.0,-1,0.0,,0.0,0,0.01,0.5957
35764,1625651317748,,,,,,,,-0.0,-0.06,1.72,0,2,1,0.06,,80,6828,9,29,43,0.621,0.0,638,4.79,13.8,0.0,1,31.9,1.15,7.3,0,0,0,1,0,0,250,250,0,,,,,,,,,,,,,,,,
35784,1625651317768,,,,,,,,0.04,-0.09,1.9,0,-0,-1,0.1,,80,6860,10,29,43,0.621,0.0,643,4.85,13.9,0.0,1,31.9,1.15,7.2,0,0,0,1,0,0,250,250,0,,,,,,,,,,,,,,,,
35804,1625651317788,,,,,,,,0.01,-0.05,1.75,0,2,1,0.05,,80,6820,9,29,43,0.621,0.0,640,4.78,13.8,0.0,1,31.8,1.15,7.2,0,0,0,1,0,0,250,250,0,,,,,,,,,,,,,,,,
35824,1625651317810,,,,,,,,0.04,-0.08,1.73,0,-1,-1,0.09,,80,6828,10,29,43,0.622,0.0,645,4.83,13.9,0.0,1,31.8,2.28,7.2,0,0,0,1,0,0,250,250,0,,,,,,,,,,,,,,,,
35844,1625651317830,1,3,46,48,32,31,6,0.05,-0.02,1.74,0,2,2,0.05,0,80,6778,10,29,43,0.621,0.0,649,4.77,13.7,0.0,1,31.8,2.28,7.2,0,0,0,1,0,0,250,250,0,52.961891,6.523255,0.0,20.6,10,3,1.9,0,0.0,-1,0.0,0.0,0.0,0,0.01,0.5974
35864,1625651317850,,,,,,,,0.03,-0.04,1.6,0,-0,-0,0.04,,80,6833,11,29,44,0.622,0.0,638,4.85,13.9,0.0,1,32.1,2.27,7.1,0,0,0,1,0,0,250,250,0,,,,,,,,,,,,,,,,
35884,1625651317870,,,,,,,,0.07,-0.01,1.8,0,1,0,0.07,,80,6875,12,29,45,0.623,0.0,640,4.75,13.9,0.0,1,32.5,2.27,7.1,0,0,0,1,0,0,250,250,0,,,,,,,,,,,,,,,,
35904,1625651317892,,,,,,,,0.0,-0.01,1.65,0,1,1,0.01,,80,6916,12,29,46,0.623,0.0,640,4.82,13.8,0.0,1,32.9,2.25,7.1,0,0,0,1,0,0,250,250,0,,,,,,,,,,,,,,,,
35924,1625651317912,,,,,,,,0.04,-0.02,1.83,0,-1,-1,0.04,,80,6962,12,29,47,0.623,0.0,644,4.8,13.9,0.0,1,33.3,1.11,7.1,0,0,0,1,0,0,250,250,0,,,,,,,,,,,,,,,,
35944,1625651317932,1,2,45,48,32,32,6,0.05,-0.0,1.87,0,0,0,0.05,0,80,7022,13,29,48,0.622,0.0,639,4.76,13.8,0.0,1,33.7,2.23,7.1,0,0,0,1,0,0,250,250,0,52.961891,6.523255,0.0,20.6,10,3,1.9,0,0.0,-1,0.0,,0.0,0,0.01,0.5991
35964,1625651317952,,,,,,,,0.0,-0.01,1.71,0,2,2,0.01,,80,7126,13,29,49,0.622,0.0,643,4.76,13.8,0.0,1,34.4,2.24,7.3,0,0,0,1,0,0,250,250,0,,,,,,,,,,,,,,,,
35984,1625651317972,,,,,,,,-0.03,-0.01,1.57,0,1,1,0.03,,80,7211,13,29,50,0.623,0.0,641,4.83,13.9,0.0,1,34.9,2.26,7.3,0,0,0,1,0,0,250,250,0,,,,,,,,,,,,,,,,
36004,1625651317992,,,,,,,,-0.02,0.02,1.63,0,-1,-1,0.03,,80,7307,11,29,50,0.622,0.0,647,4.73,13.9,0.0,1,35.1,1.16,7.3,0,0,0,1,0,0,250,250,0,,,,,,,,,,,,,,,,
36024,1625651318004,,,,,,,,-0.0,-0.01,1.7,0,-2,-2,0.01,,80,7402,8,29,49,0.622,0.0,650,4.82,13.9,0.0,1,35.0,2.29,7.3,0,0,0,1,0,0,250,250,0,,,,,,,,,,,,,,,,
36044,1625651318024,4,4,46,48,32,32,7,0.02,-0.02,1.78,0,-3,-4,0.03,0,80,7470,7,29,47,0.621,0.0,655,4.72,13.8,0.0,1,34.9,2.29,7.3,0,0,0,1,0,0,250,250,0,52.961891,6.523255,0.0,20.6,10,3,1.9,0,0.0,-1,0.0,0.0,0.0,0,0.01,0.6007
36064,1625651318044,,,,,,,,0.02,-0.0,1.91,0,-5,-7,0.02,,80,7545,7,29,45,0.621,0.0,653,4.78,13.9,0.0,1,34.0,2.3,8.0,0,0,0,1,0,0,250,250,0,,,,,,,,,,,,,,,,
36084,1625651318064,,,,,,,,0.01,0.0,2.03,0,-6,-8,0.01,,80,7584,7,29,43,0.62,0.0,653,4.8,13.9,0.0,1,33.1,2.3,8.0,0,0,0,1,0,0,250,250,0,,,,,,,,,,,,,,,,
36104,1625651318084,,,,,,,,-0.01,0.01,1.89,0,-7,-8,0.01,,80,7557,7,29,43,0.62,0.0,661,4.94,13.9,0.0,1,33.0,1.17,8.0,0,0,0,1,0,0,250,250,0,,,,,,,,,,,,,,,,
36124,1625651318110,,,,,,,,-0.02,0.03,1.74,0,-7,-8,0.03,,80,7551,7,29,41,0.619,0.0,656,4.8,13.9,0.0,1,32.0,2.3,8.0,0,0,0,1,0,0,250,250,0,,,,,,,,,,,,,,,,
36144,1625651318130,6,6,45,49,32,32,6,-0.04,0.04,1.59,0,-8,-9,0.05,0,80,7500,7,29,40,0.618,0.0,660,4.88,13.9,0.0,1,31.5,1.17,8.0,0,0,0,1,0,0,250,250,0,52.961891,6.523255,0.0,20.6,10,3,1.5,0,0.0,-1,0.0,,0.0,0,0.01,0.6024
36164,1625651318150,,,,,,,,-0.04,0.06,1.59,0,-8,-10,0.07,,80,7479,7,29,39,0.619,0.0,653,4.83,13.9,0.0,1,31.0,2.3,7.9,0,0,0,1,0,0,250,250,0,,,,,,,,,,,,,,,,
36184,1625651318170,,,,,,,,-0.03,0.04,1.58,0,-9,-10,0.05,,80,7390,7,29,39,0.618,0.0,662,4.86,13.9,0.0,1,31.0,1.17,7.9,0,0,0,1,0,0,250,250,0,,,,,,,,,,,,,,,,
36204,1625651318190,,,,,,,,0.01,0.01,1.72,0,-9,-11,0.01,,80,7298,7,29,38,0.618,0.0,658,4.7,13.8,0.0,1,30.7,1.11,7.9,0,0,0,1,0,0,250,250,0,,,,,,,,,,,,,,,,
36224,1625651318210,,,,,,,,0.05,0.02,1.91,0,-9,-11,0.05,,80,7275,7,29,37,0.617,0.0,660,4.76,13.7,0.0,1,30.4,2.19,7.9,0,0,0,1,0,0,250,250,0,,,,,,,,,,,,,,,,
36244,1625651318230,8,4,46,48,32,32,6,0.03,-0.02,1.77,0,-7,-8,0.03,0,80,7194,7,29,37,0.617,0.0,647,4.78,13.8,0.0,1,30.4,1.06,7.9,0,0,0,1,0,0,250,250,0,52.961891,6.523255,0.0,20.6,10,3,1.5,0,0.0,-1,0.0,0.0,0.0,0,0.01,0.6041
36264,1625651318250,,,,,,,,-0.01,0.02,1.63,0,-5,-7,0.02,,80,7161,7,29,37,0.612,0.0,645,4.83,13.8,0.0,1,30.4,2.19,7.2,0,0,0,1,0,0,250,250,0,,,,,,,,,,,,,,,,
36284,1625651318270,,,,,,,,0.02,0.01,1.77,0,-7,-8,0.02,,80,7064,7,29,37,0.609,0.0,648,4.78,13.9,0.0,1,30.4,1.06,7.2,0,0,0,1,0,0,250,250,0,,,,,,,,,,,,,,,,
36304,1625651318290,,,,,,,,0.05,0.0,1.85,0,-6,-7,0.05,,80,7006,7,29,37,0.603,0.0,645,4.75,13.7,0.0,1,30.4,2.19,7.2,0,0,0,1,0,0,250,250,0,,,,,,,,,,,,,,,,
36324,1625651318310,,,,,,,,-0.03,0.02,1.7,0,-4,-5,0.03,,80,6944,7,29,37,0.598,0.0,644,4.82,13.9,0.0,1,30.3,1.06,7.2,0,0,0,1,0,0,250,250,0,,,,,,,,,,,,,,,,
36344,1625651318330,8,4,46,48,32,31,7,0.04,0.01,1.89,0,-5,-6,0.04,0,80,6815,7,29,37,0.614,0.0,636,4.82,14.0,0.0,1,30.1,2.19,7.2,0,0,0,1,0,0,250,250,0,52.961891,6.523255,0.0,20.6,10,3,1.5,0,0.0,-1,0.0,,0.0,0,0.01,0.6057
36364,1625651318350,,,,,,,,-0.05,-0.02,1.73,0,-2,-4,0.06,,80,6747,7,29,37,0.634,0.0,635,4.76,13.8,0.0,1,30.0,2.19,6.8,0,0,0,1,0,0,250,250,0,,,,,,,,,,,,,,,,
36384,1625651318370,,,,,,,,0.04,0.0,1.92,0,-5,-5,0.04,,80,6674,7,29,37,0.647,0.0,636,4.77,13.9,0.0,1,30.0,2.19,6.8,0,0,0,1,0,0,250,250,0,,,,,,,,,,,,,,,,
36404,1625651318390,,,,,,,,-0.05,-0.0,1.76,0,-3,-4,0.05,,80,6581,7,29,37,0.666,0.0,634,4.81,13.9,0.0,1,29.9,1.06,6.8,0,0,0,1,0,0,250,250,0,,,,,,,,,,,,,,,,
36424,1625651318409,,,,,,,,-0.05,-0.01,1.62,0,0,-1,0.05,,80,6423,7,29,37,0.689,0.0,636,4.72,13.9,0.0,1,29.8,2.19,6.8,0,0,0,1,0,0,250,250,0,,,,,,,,,,,,,,,,
36444,1625651318429,7,6,46,48,32,32,6,0.05,-0.01,1.81,0,-3,-3,0.05,0,80,6351,7,29,37,0.704,0.0,624,4.73,13.8,0.0,1,29.7,2.19,6.8,0,0,0,1,0,0,250,250,0,52.961891,6.523255,0.0,20.6,10,3,1.5,0,0.0,-1,0.0,0.0,0.0,0,0.01,0.6074
36464,1625651318449,,,,,,,,0.1,-0.02,2.0,0,-6,-6,0.1,,80,6256,7,29,37,0.728,0.0,609,4.81,14.0,0.0,1,29.6,2.19,6.3,0,0,0,1,0,0,250,250,0,,,,,,,,,,,,,,,,
36484,1625651318469,,,,,,,,0.1,-0.03,1.95,0,-9,-9,0.11,,80,6089,7,29,38,0.746,0.0,599,4.85,14.0,0.0,1,29.6,2.24,6.3,0,0,0,1,0,0,250,250,0,,,,,,,,,,,,,,,,
36504,1625651318489,,,,,,,,0.12,-0.03,2.05,0,-12,-12,0.12,,80,5952,7,29,39,0.761,0.0,586,4.84,14.0,0.0,1,29.6,2.32,6.3,0,0,0,1,0,0,250,250,0,,,,,,,,,,,,,,,,
36524,1625651318509,,,,,,,,0.18,-0.05,2.21,-0,-17,-16,0.19,,80,5769,7,29,40,0.793,0.0,571,4.85,14.0,0.0,1,29.4,2.38,6.3,0,0,0,1,0,0,250,250,0,,,,,,,,,,,,,,,,
36544,1625651318529,6,6,45,48,32,32,6,0.19,-0.03,2.36,0,-15,-14,0.19,0,80,5583,7,29,41,0.814,0.0,566,4.78,13.8,0.0,1,29.1,2.46,6.3,0,0,0,1,0,0,250,250,0,52.961891,6.523255,0.0,20.6,10,3,1.5,0,0.0,-1,0.0,,0.0,0,0.01,0.6091
36564,1625651318549,,,,,,,,0.04,-0.06,2.16,0,-6,-7,0.07,,80,5403,7,29,42,0.849,0.0,544,4.75,13.8,0.0,1,29.0,2.53,6.3,0,0,0,1,0,0,250,250,0,,,,,,,,,,,,,,,,
36584,1625651318569,,,,,,,,0.16,-0.04,2.32,-0,-13,-15,0.16,,80,5266,7,29,43,0.865,0.0,530,4.85,14.0,0.0,1,29.0,2.62,6.3,0,0,0,1,0,0,250,250,0,,,,,,,,,,,,,,,,
36604,1625651318589,,,,,,,,0.08,-0.05,2.12,-0,-5,-6,0.09,,80,5138,7,29,44,0.869,0.0,510,4.8,13.9,0.0,1,29.0,1.56,6.3,0,0,0,1,0,0,250,250,0,,,,,,,,,,,,,,,,
36624,1625651318609,,,,,,,,0.12,0.0,2.28,-0,-11,-10,0.12,,80,4957,7,29,45,0.874,0.0,501,4.77,13.8,0.0,1,28.4,2.73,6.3,0,0,0,1,0,0,250,250,0,,,,,,,,,,,,,,,,
36644,1625651318629,6,6,46,48,32,31,6,0.14,-0.03,2.09,-0,-9,-9,0.14,0,80,4828,7,29,46,0.877,0.0,483,4.83,14.0,0.0,1,27.2,2.67,6.3,0,0,0,1,0,0,250,250,0,52.961891,6.523255,0.0,20.6,10,3,1.5,0,0.0,-1,0.0,0.0,0.0,0,0.01,0.6107
36664,1625651318649,,,,,,,,0.16,-0.09,1.91,-0,-8,-8,0.18,,80,4734,7,29,47,0.881,0.0,455,4.79,14.0,0.0,1,26.4,2.66,5.8,0,0,0,1,0,0,250,250,0,,,,,,,,,,,,,,,,
36684,1625651318669,,,,,,,,0.13,-0.1,1.75,-0,-5,-5,0.16,,80,4654,7,29,47,0.888,0.0,445,4.83,14.0,0.0,1,25.4,1.49,5.8,0,0,0,1,0,0,250,250,0,,,,,,,,,,,,,,,,
36704,1625651318689,,,,,,,,0.11,-0.11,1.61,0,-2,-2,0.15,,80,4516,8,29,48,0.894,0.0,440,4.77,14.0,0.0,1,23.9,2.55,5.8,0,0,0,1,0,0,250,250,0,,,,,,,,,,,,,,,,
36724,1625651318710,,,,,,,,0.1,-0.12,1.47,0,-1,-1,0.15,,80,4395,10,29,50,0.9,0.0,418,4.8,14.1,0.0,1,23.1,2.48,5.8,0,0,0,1,0,0,250,250,0,,,,,,,,,,,,,,,,
36744,1625651318730,7,4,46,48,32,32,6,0.12,-0.15,1.35,0,-0,-1,0.19,0,80,4297,16,29,53,0.908,0.0,408,4.83,14.0,0.0,1,22.7,2.43,5.8,0,0,0,1,0,0,250,250,0,52.961891,6.523255,0.0,20.6,10,3,1.5,0,0.0,-1,0.0,,0.0,0,0.01,0.6124
36764,1625651318750,,,,,,,,0.14,-0.17,1.24,0,0,-1,0.22,,80,4375,22,29,59,0.915,0.0,401,4.77,14.0,0.0,1,25.2,1.42,5.8,0,0,0,1,0,0,250,250,0,,,,,,,,,,,,,,,,
36784,1625651318770,,,,,,,,0.16,-0.17,1.13,0,0,-2,0.23,,80,4512,26,29,68,0.923,0.0,405,4.81,14.0,0.0,1,29.5,4.79,8.0,0,0,0,1,0,0,250,250,0,,,,,,,,,,,,,,,,
36804,1625651318790,,,,,,,,0.16,-0.17,1.04,0,1,-1,0.23,,80,4665,27,29,76,0.927,0.0,422,4.78,14.0,0.0,1,33.6,5.25,8.0,0,0,0,1,0,0,250,250,0,,,,,,,,,,,,,,,,
36824,1625651318809,,,,,,,,0.11,-0.17,0.95,0,4,2,0.2,,80,4851,28,29,83,0.933,0.0,428,4.76,13.9,0.0,1,38.3,2.51,8.0,0,0,0,1,0,0,250,250,0,,,,,,,,,,,,,,,,
36844,1625651318829,7,4,46,48,32,32,6,0.1,-0.1,1.21,0,2,0,0.14,0,80,5173,29,29,87,0.943,0.0,463,4.77,13.7,0.0,1,41.4,2.71,8.0,0,0,0,1,0,0,250,250,0,52.961891,6.523255,0.0,20.6,10,3,1.5,0,0.0,-1,0.0,0.0,0.0,0,0.01,0.6141
36864,1625651318849,,,,,,,,-0.01,-0.13,1.1,0,6,3,0.13,,80,5484,29,29,90,0.952,0.0,493,4.8,14.0,0.0,1,41.3,7.31,18.6,0,0,0,1,0,0,250,250,0,,,,,,,,,,,,,,,,
36884,1625651318869,,,,,,,,0.08,-0.1,1.35,-1,1,-4,0.13,,80,5933,29,29,90,0.96,0.0,526,4.77,14.0,0.0,1,40.0,3.75,18.6,0,0,0,1,0,0,250,250,0,,,,,,,,,,,,,,,,
36904,1625651318889,,,,,,,,-0.02,-0.12,1.23,-0,4,-2,0.12,,80,6427,25,29,89,0.968,0.0,565,4.79,13.9,0.0,1,43.6,3.39,18.6,0,0,0,1,0,0,250,250,0,,,,,,,,,,,,,,,,
36924,1625651318909,,,,,,,,0.01,-0.14,1.45,-0,2,-3,0.14,,80,7064,16,29,85,0.965,0.0,611,4.79,13.9,0.0,1,46.2,2.96,18.6,0,0,0,1,0,0,250,250,0,,,,,,,,,,,,,,,,
36944,1625651318929,6,5,46,48,32,32,6,0.03,-0.18,1.64,-0,1,-4,0.18,0,80,7512,8,29,79,0.963,0.0,649,4.68,13.8,0.0,1,40.8,6.93,18.6,0,0,0,1,0,0,250,250,0,52.961891,6.523255,0.0,20.6,10,3,1.5,0,0.0,-1,0.0,,0.0,0,0.01,0.6157
36964,1625651318949,,,,,,,,0.05,-0.16,1.84,-0,-1,-6,0.17,,80,7518,7,29,72,0.96,0.0,653,4.77,13.9,0.0,1,40.2,3.76,13.1,0,0,0,1,0,0,250,250,0,,,,,,,,,,,,,,,,
36984,1625651318969,,,,,,,,0.07,-0.14,2.02,-0,-2,-7,0.16,,80,7600,7,29,67,0.959,0.0,653,4.7,13.9,0.0,1,39.1,2.26,13.1,0,0,0,1,0,0,250,250,0,,,,,,,,,,,,,,,,
37004,1625651318989,,,,,,,,0.03,-0.1,1.85,-0,-2,-5,0.11,,80,7706,7,29,61,0.959,0.0,653,4.8,13.9,0.0,1,37.9,2.48,13.1,0,0,0,1,0,0,250,250,0,,,,,,,,,,,,,,,,
37024,1625651319001,,,,,,,,-0.02,-0.04,1.7,-0,1,-2,0.04,,80,7868,7,29,57,0.958,0.0,655,4.87,13.8,0.0,1,37.2,1.34,13.1,0,0,0,1,0,0,250,250,0,,,,,,,,,,,,,,,,
37044,1625651319021,7,5,46,48,32,32,6,-0.02,-0.05,1.55,-0,2,0,0.06,0,80,7835,7,30,54,0.958,0.0,656,4.88,13.8,0.0,1,36.9,2.43,13.1,0,0,0,1,0,0,250,250,0,52.961891,6.523255,0.0,20.6,10,3,1.5,0,0.0,-1,0.0,0.0,0.0,0,0.01,0.6174
37064,1625651319041,,,,,,,,0.04,-0.12,1.68,-0,1,-1,0.12,,80,7789,7,30,50,0.958,0.0,656,4.69,13.7,0.0,1,36.2,2.36,13.1,0,0,0,1,0,0,250,250,0,,,,,,,,,,,,,,,,
37084,1625651319061,,,,,,,,0.06,-0.14,1.88,-0,-1,-3,0.16,,80,7918,7,30,47,0.944,0.0,660,4.78,13.9,0.0,1,36.3,2.34,8.5,0,0,0,1,0,0,250,250,0,,,,,,,,,,,,,,,,
37104,1625651319081,,,,,,,,0.0,-0.12,1.72,-0,1,0,0.12,,80,8040,7,30,44,0.928,0.0,664,4.88,13.8,0.0,1,34.5,1.25,8.5,0,0,0,1,0,0,250,250,0,,,,,,,,,,,,,,,,
37124,1625651319101,,,,,,,,0.02,-0.13,1.65,0,1,-0,0.13,,80,7968,7,30,42,0.917,0.0,667,4.8,13.8,0.0,1,33.0,2.31,8.5,0,0,0,1,0,0,250,250,0,,,,,,,,,,,,,,,,
37144,1625651319103,6,5,46,48,32,32,6,0.06,-0.18,1.84,-0,-1,-3,0.19,0,80,7928,7,30,40,0.902,0.0,665,4.72,13.8,0.0,1,31.6,2.29,8.5,0,0,0,1,0,0,250,250,0,52.961891,6.523255,0.0,20.6,10,3,1.5,0,0.0,-1,0.0,,0.0,0,0.01,0.6191
37164,1625651319123,,,,,,,,0.02,-0.16,1.69,-0,1,-1,0.16,,80,7822,7,30,38,0.891,0.0,660,4.81,13.9,0.0,1,30.7,2.23,8.0,0,0,0,1,0,0,250,250,0,,,,,,,,,,,,,,,,
37184,1625651319143,,,,,,,,-0.03,-0.09,1.55,0,3,2,0.1,,80,7678,7,30,37,0.88,0.0,661,4.81,13.8,0.0,1,30.4,2.18,8.0,0,0,0,1,0,0,250,250,0,,,,,,,,,,,,,,,,
37204,1625651319163,,,,,,,,-0.08,-0.01,1.42,0,4,3,0.08,,80,7515,7,30,37,0.874,0.0,650,4.73,13.8,0.0,1,30.4,1.06,8.0,0,0,0,1,0,0,250,250,0,,,,,,,,,,,,,,,,
37224,1625651319209,,,,,,,,-0.1,-0.02,1.3,0,5,4,0.1,,80,7312,7,30,37,0.863,0.0,648,4.81,13.8,0.0,1,30.4,2.18,8.0,0,0,0,1,0,0,250,250,0,,,,,,,,,,,,,,,,
37244,1625651319229,6,5,46,48,32,31,7,-0.06,-0.03,1.46,0,3,3,0.06,0,80,7121,7,30,37,0.855,0.0,645,4.81,14.0,0.0,1,30.4,2.18,8.0,0,0,0,1,0,0,250,250,0,52.961891,6.523255,0.0,20.6,10,3,1.5,0,0.0,-1,0.0,0.0,0.0,0,0.01,0.6207
37264,1625651319249,,,,,,,,-0.03,-0.07,1.59,0,2,2,0.07,,80,6998,7,30,37,0.843,0.0,645,4.83,13.9,0.0,1,30.3,2.18,8.0,0,0,0,1,0,0,250,250,0,,,,,,,,,,,,,,,,
37284,1625651319269,,,,,,,,-0.08,-0.04,1.45,0,4,3,0.09,,80,6906,7,30,37,0.831,0.0,638,4.78,13.9,0.0,1,30.2,2.18,7.0,0,0,0,1,0,0,250,250,0,,,,,,,,,,,,,,,,
37304,1625651319289,,,,,,,,-0.0,-0.07,1.66,0,1,1,0.07,,80,6786,7,30,37,0.818,0.0,642,4.8,13.8,0.0,1,30.1,1.06,7.0,0,0,0,1,0,0,250,250,0,,,,,,,,,,,,,,,,
37324,1625651319309,,,,,,,,-0.08,-0.02,1.53,0,4,3,0.08,,80,6679,7,30,37,0.813,0.0,635,4.77,13.7,0.0,1,30.0,1.06,7.0,0,0,0,1,0,0,250,250,0,,,,,,,,,,,,,,,,
37344,1625651319329,6,5,46,49,32,32,6,-0.01,-0.03,1.73,0,1,2,0.03,0,80,6613,7,30,37,0.816,0.0,636,4.77,13.8,0.0,1,29.9,1.06,7.0,0,0,0,1,0,0,250,250,0,52.961891,6.523255,0.0,20.6,10,3,1.5,0,0.0,-1,0.0,,0.0,0,0.01,0.6224
37364,1625651319349,,,,,,,,0.04,-0.02,1.85,0,-0,0,0.04,,80,6521,7,30,37,0.822,0.0,638,4.83,13.9,0.0,1,29.9,2.18,6.5,0,0,0,1,0,0,250,250,0,,,,,,,,,,,,,,,,
37384,1625651319369,,,,,,,,-0.07,-0.01,1.7,0,4,3,0.08,,80,6405,8,30,37,0.826,0.0,631,4.79,13.7,0.0,1,29.7,2.18,6.5,0,0,0,1,0,0,250,250,0,,,,,,,,,,,,,,,,
37404,1625651319389,,,,,,,,0.03,0.03,1.89,0,4,4,0.04,,80,6285,9,30,38,0.833,0.0,621,4.76,13.7,0.0,1,29.8,2.23,6.5,0,0,0,1,0,0,250,250,0,,,,,,,,,,,,,,,,
37424,1625651319408,,,,,,,,0.11,0.03,2.06,0,2,2,0.12,,80,6121,11,29,39,0.848,0.0,600,4.82,14.0,0.0,1,29.9,2.3,6.5,0,0,0,1,0,0,250,250,0,,,,,,,,,,,,,,,,
37444,1625651319428,7,4,46,48,32,32,5,0.19,0.04,2.23,0,-1,0,0.2,0,80,5992,12,29,42,0.857,0.0,599,4.76,13.9,0.0,1,30.2,1.19,6.5,0,0,0,1,0,0,250,250,0,52.961891,6.523255,0.0,20.6,10,3,1.5,0,0.0,-1,0.0,0.0,0.0,0,0.01,0.6241
37464,1625651319448,,,,,,,,0.27,0.06,2.37,0,-0,0,0.28,,80,5822,14,29,46,0.872,0.0,580,4.8,14.0,0.0,1,30.7,2.4,6.4,0,0,0,1,0,0,250,250,0,,,,,,,,,,,,,,,,
37484,1625651319468,,,,,,,,0.25,0.09,2.35,1,5,6,0.27,,80,5683,15,29,49,0.881,0.0,571,4.78,13.8,0.0,1,31.0,2.49,6.4,0,0,0,1,0,0,250,250,0,,,,,,,,,,,,,,,,
37504,1625651319488,,,,,,,,0.12,0.07,2.15,1,9,8,0.14,,80,5661,17,29,54,0.89,0.0,548,4.76,13.8,0.0,1,32.3,1.34,6.4,0,0,0,1,0,0,250,250,0,,,,,,,,,,,,,,,,
37524,1625651319510,,,,,,,,0.08,0.04,1.97,-0,7,3,0.09,,80,5719,18,29,58,0.896,0.0,551,4.87,14.0,0.0,1,33.2,1.28,6.4,0,0,0,1,0,0,250,250,0,,,,,,,,,,,,,,,,
37544,1625651319530,7,6,45,48,32,32,5,0.16,0.06,2.14,-0,0,-2,0.17,0,80,5767,19,29,63,0.905,0.0,562,4.81,13.9,0.0,1,34.4,2.62,6.4,0,0,0,1,0,0,250,250,0,52.961891,6.523255,0.0,20.6,10,3,1.5,0,0.0,-1,0.0,,0.0,0,0.01,0.6257
37564,1625651319550,,,,,,,,0.23,0.05,2.29,-0,-2,-3,0.24,,80,5859,19,29,67,0.915,0.0,561,4.83,14.0,0.0,1,35.3,3.05,8.2,0,0,0,1,0,0,250,250,0,,,,,,,,,,,,,,,,
37584,1625651319570,,,,,,,,0.28,0.01,2.44,-0,-3,-4,0.28,,80,5914,19,29,69,0.917,0.0,561,4.75,13.8,0.0,1,35.7,3.45,8.2,0,0,0,1,0,0,250,250,0,,,,,,,,,,,,,,,,
37604,1625651319590,,,,,,,,0.32,-0.02,2.57,-0,-4,-4,0.32,,80,6017,19,29,72,0.921,0.0,566,4.83,14.0,0.0,1,36.2,3.76,8.2,0,0,0,1,0,0,250,250,0,,,,,,,,,,,,,,,,
37624,1625651319608,,,,,,,,0.35,-0.04,2.69,-0,-6,-6,0.35,,80,6151,19,29,73,0.923,0.0,579,4.78,13.9,0.0,1,37.2,3.83,8.2,0,0,0,1,0,0,250,250,0,,,,,,,,,,,,,,,,
37644,1625651319628,7,5,46,48,32,32,5,0.31,-0.03,2.53,-0,-8,-8,0.31,0,80,6304,19,29,74,0.927,0.0,594,4.85,14.0,0.0,1,38.2,3.89,8.2,0,0,0,1,0,0,250,250,0,52.961891,6.523255,0.0,20.6,10,3,1.5,0,0.0,-1,0.0,0.0,0.0,0,0.01,0.6274
37664,1625651319648,,,,,,,,0.22,-0.03,2.32,-0,-5,-6,0.22,,80,6569,18,29,74,0.923,0.0,610,4.74,13.8,0.0,1,39.9,3.85,11.6,0,0,0,1,0,0,250,250,0,,,,,,,,,,,,,,,,
37684,1625651319668,,,,,,,,0.25,-0.02,2.43,-0,-7,-7,0.25,,80,6855,17,29,73,0.921,0.0,621,4.8,14.0,0.0,1,41.3,3.73,11.6,0,0,0,1,0,0,250,250,0,,,,,,,,,,,,,,,,
37704,1625651319688,,,,,,,,0.27,-0.05,2.56,-0,-6,-6,0.28,,80,7287,16,29,71,0.918,0.0,636,4.78,13.7,0.0,1,40.7,3.73,11.6,0,0,0,1,0,0,250,250,0,,,,,,,,,,,,,,,,
37724,1625651319708,,,,,,,,0.28,-0.1,2.53,-0,-5,-5,0.3,,80,7594,15,29,69,0.917,0.0,655,4.72,13.8,0.0,1,39.4,3.67,11.6,0,0,0,1,0,0,250,250,0,,,,,,,,,,,,,,,,
37744,1625651319728,7,4,46,48,32,32,2,0.28,-0.11,2.6,-0,-7,-8,0.3,0,80,7918,15,29,67,0.926,0.0,664,4.68,13.9,0.0,1,38.4,2.3,11.6,0,0,0,1,0,0,250,250,0,52.961891,6.523255,0.0,20.6,10,3,1.5,0,0.0,-1,0.0,,0.0,0,0.01,0.6291
37764,1625651319748,,,,,,,,0.24,-0.1,2.38,-0,-5,-5,0.26,,80,8252,14,29,64,0.94,0.0,663,4.82,13.8,0.0,1,41.9,3.22,12.3,0,0,0,1,0,0,250,250,0,,,,,,,,,,,,,,,,
37784,1625651319768,,,,,,,,0.23,-0.07,2.18,-0,-5,-5,0.24,,80,8729,14,29,60,0.952,0.0,671,4.75,13.9,0.0,1,41.9,3.34,12.3,0,0,0,1,0,0,250,250,0,,,,,,,,,,,,,,,,
37804,1625651319788,,,,,,,,0.23,-0.02,2.0,-0,-4,-7,0.23,,80,9204,14,30,55,0.959,0.0,686,4.75,13.8,0.0,1,40.0,2.28,12.3,0,0,0,1,0,0,250,250,0,,,,,,,,,,,,,,,,
37824,1625651319808,,,,,,,,0.24,0.06,2.0,-0,-4,-4,0.25,,80,9595,14,30,52,0.966,0.0,681,4.78,13.7,0.0,1,39.4,3.36,12.3,0,0,0,1,0,0,250,250,0,,,,,,,,,,,,,,,,
37844,1625651319828,6,3,46,48,32,31,1,0.22,-0.05,2.04,-0,-3,-6,0.22,0,80,9904,14,30,49,0.97,0.0,688,4.77,13.8,0.0,1,38.5,3.04,12.3,0,0,0,1,0,0,250,250,0,52.961891,6.523255,0.0,20.6,10,3,1.5,0,0.0,-1,0.0,0.0,0.0,0,0.01,0.6307
37864,1625651319848,,,,,,,,0.18,-0.07,2.04,-0,-4,-6,0.2,,80,10190,16,30,48,0.975,0.0,701,4.73,13.7,0.0,1,38.2,2.91,12.3,0,0,0,1,0,0,250,250,0,,,,,,,,,,,,,,,,
37884,1625651319868,,,,,,,,0.13,0.05,2.21,0,-2,-4,0.14,,80,10370,20,30,47,0.98,0.0,691,4.79,13.8,0.0,1,38.0,2.81,13.7,0,0,0,1,0,0,250,250,0,,,,,,,,,,,,,,,,
37904,1625651319888,,,,,,,,0.15,0.14,2.15,0,-3,-5,0.2,,80,10492,23,30,49,0.98,0.0,701,4.77,13.7,0.0,1,38.5,3.03,13.7,0,0,0,1,0,0,250,250,0,,,,,,,,,,,,,,,,
37924,1625651319910,,,,,,,,0.11,0.26,2.03,0,-1,-2,0.28,,80,10751,27,30,53,0.979,0.0,709,4.77,13.8,0.0,1,39.7,2.43,13.7,0,0,0,1,0,0,250,250,0,,,,,,,,,,,,,,,,
37944,1625651319930,5,5,45,48,32,32,0,0.15,0.14,1.86,0,-2,-4,0.2,0,80,11114,29,30,56,0.976,0.0,720,4.77,13.7,0.0,1,41.3,4.4,13.7,0,0,0,1,0,0,250,250,0,52.961891,6.523255,0.0,20.6,10,3,1.5,0,0.0,-1,0.0,,0.0,0,0.01,0.6324
37964,1625651319950,,,,,,,,0.07,0.2,2.04,0,-1,-5,0.21,,80,11488,30,30,60,0.974,0.0,720,4.75,13.7,0.0,1,43.5,4.73,25.1,0,0,0,1,0,0,250,250,0,,,,,,,,,,,,,,,,
37984,1625651319970,,,,,,,,0.02,0.27,2.2,0,-0,-3,0.27,,80,11807,30,30,62,0.958,0.0,723,4.75,13.7,0.0,1,43.9,4.88,25.1,0,0,0,1,0,0,250,250,0,,,,,,,,,,,,,,,,
38004,1625651319990,,,,,,,,-0.02,0.34,2.28,0,-0,-1,0.34,,80,12159,30,30,64,0.944,0.0,721,4.78,13.7,0.0,1,43.6,3.22,25.1,0,0,0,1,0,0,250,250,0,,,,,,,,,,,,,,,,
38024,1625651320002,,,,,,,,-0.1,0.33,2.31,0,-1,-1,0.34,,80,12508,30,30,65,0.926,0.0,720,4.77,13.7,0.0,1,43.3,4.42,25.1,0,0,0,1,0,0,250,250,0,,,,,,,,,,,,,,,,
38044,1625651320022,5,3,46,48,32,32,2,0.02,0.26,2.11,0,-2,-3,0.26,0,80,12816,30,30,67,0.908,0.0,728,4.77,13.6,0.0,1,43.1,3.14,25.1,0,0,0,1,0,0,250,250,0,52.961891,6.523255,0.0,20.6,10,3,1.5,0,0.0,-1,0.0,0.0,0.0,0,0.01,0.6341
38064,1625651320042,,,,,,,,0.0,0.33,1.94,0,-1,-1,0.33,,80,13148,26,30,66,0.894,0.0,737,4.75,13.6,0.0,1,43.0,4.15,25.3,0,0,0,1,0,0,250,250,0,,,,,,,,,,,,,,,,
38084,1625651320062,,,,,,,,-0.07,0.32,1.94,0,-1,-3,0.33,,80,13412,21,30,63,0.886,0.0,734,4.77,13.9,0.0,1,43.0,4.0,25.3,0,0,0,1,0,0,250,250,0,,,,,,,,,,,,,,,,
38104,1625651320082,,,,,,,,-0.17,0.17,1.87,0,-1,-2,0.24,,80,13345,16,30,58,0.883,0.0,729,4.78,13.8,0.0,1,41.7,3.89,25.3,0,0,0,1,0,0,250,250,0,,,,,,,,,,,,,,,,
38124,1625651320104,,,,,,,,-0.18,0.25,2.01,0,-1,-2,0.31,,80,13345,13,30,52,0.875,0.0,733,4.77,13.7,0.0,1,39.4,3.62,25.3,0,0,0,1,0,0,250,250,0,,,,,,,,,,,,,,,,
38144,1625651320124,5,5,45,49,32,32,3,-0.15,0.21,1.85,-0,-1,-3,0.26,0,80,13057,10,30,48,0.868,0.0,737,4.76,13.6,0.0,1,38.2,2.25,25.3,0,0,0,1,0,0,250,250,0,52.961891,6.523255,0.0,20.6,10,3,1.5,0,0.0,-1,0.0,,0.0,0,0.01,0.6357
38164,1625651320144,,,,,,,,-0.16,0.23,1.69,0,1,-1,0.28,,80,12772,7,30,43,0.864,0.0,732,4.76,13.7,0.0,1,35.5,2.99,17.7,0,0,0,1,0,0,250,250,0,,,,,,,,,,,,,,,,
38184,1625651320164,,,,,,,,-0.09,0.08,1.77,-0,3,-2,0.12,,80,12508,7,30,40,0.861,0.0,725,4.71,13.6,0.0,1,33.6,1.69,17.7,0,0,0,1,0,0,250,250,0,,,,,,,,,,,,,,,,
38204,1625651320184,,,,,,,,-0.13,-0.05,1.96,-0,3,-3,0.14,,80,12222,7,30,37,0.858,0.0,719,4.77,13.7,0.0,1,32.4,2.66,17.7,0,0,0,1,0,0,250,250,0,,,,,,,,,,,,,,,,
38224,1625651320210,,,,,,,,-0.19,-0.07,2.13,-0,2,-4,0.2,,80,11957,7,30,35,0.866,0.0,719,4.77,13.7,0.0,1,31.7,2.58,17.7,0,0,0,1,0,0,250,250,0,,,,,,,,,,,,,,,,
38244,1625651320230,6,4,46,48,32,32,3,-0.18,-0.17,2.28,-0,1,-6,0.24,0,80,11733,7,30,34,0.88,0.0,721,4.77,13.7,0.0,1,30.9,2.56,17.7,0,0,0,1,0,0,250,250,0,52.961891,6.523255,0.0,20.6,10,3,1.5,0,0.0,-1,0.0,0.0,0.0,0,0.01,0.6374
38264,1625651320250,,,,,,,,-0.06,-0.23,2.24,-0,-1,-6,0.24,,80,11481,7,30,33,0.894,0.0,715,4.77,13.7,0.0,1,30.2,2.53,13.4,0,0,0,1,0,0,250,250,0,,,,,,,,,,,,,,,,
38284,1625651320270,,,,,,,,-0.18,-0.09,2.05,-0,1,-3,0.2,,80,11227,7,30,33,0.904,0.0,716,4.76,13.6,0.0,1,30.2,1.41,13.4,0,0,0,1,0,0,250,250,0,,,,,,,,,,,,,,,,
38304,1625651320290,,,,,,,,-0.15,-0.15,1.97,-0,-1,-6,0.21,,80,10997,7,30,32,0.924,0.0,712,4.81,13.6,0.0,1,30.0,1.4,13.4,0,0,0,1,0,0,250,250,0,,,,,,,,,,,,,,,,
38324,1625651320310,,,,,,,,-0.11,-0.12,2.14,-0,-0,-5,0.17,,80,10782,7,30,32,0.962,0.0,708,4.77,13.8,0.0,1,30.0,2.52,13.4,0,0,0,1,0,0,250,250,0,,,,,,,,,,,,,,,,
38344,1625651320330,6,3,46,48,32,31,4,-0.11,-0.19,1.96,-0,3,-2,0.21,0,80,10545,7,30,31,0.99,0.0,698,4.81,13.8,0.0,1,29.5,2.5,13.4,0,0,0,1,0,0,250,250,0,52.961891,6.523255,0.0,20.6,10,3,1.5,0,0.0,-1,0.0,,0.0,0,0.01,0.6391
38364,1625651320350,,,,,,,,-0.09,-0.25,2.13,-0,2,-5,0.26,,80,10324,7,30,31,1.011,0.0,694,4.77,13.8,0.0,1,29.5,2.46,11.7,0,0,0,1,0,0,250,250,0,,,,,,,,,,,,,,,,
38384,1625651320370,,,,,,,,-0.12,-0.39,1.95,-1,2,-7,0.41,,80,10080,7,29,30,1.044,0.0,695,4.75,13.8,0.0,1,29.1,2.38,11.7,0,0,0,1,0,0,250,250,0,,,,,,,,,,,,,,,,
38404,1625651320390,,,,,,,,-0.11,-0.25,2.12,-0,0,-5,0.28,,80,9847,7,29,30,1.071,0.0,693,4.79,13.7,0.0,1,29.1,2.42,11.7,0,0,0,1,0,0,250,250,0,,,,,,,,,,,,,,,,
38424,1625651320410,,,,,,,,-0.11,-0.31,2.08,-1,0,-8,0.33,,80,9640,7,29,29,1.091,0.0,687,4.82,13.8,0.0,1,28.7,1.34,11.7,0,0,0,1,0,0,250,250,0,,,,,,,,,,,,,,,,
38444,1625651320430,6,3,45,48,32,32,4,-0.03,-0.13,1.91,-0,-1,-4,0.14,0,80,9431,7,29,29,1.118,0.0,688,4.79,13.8,0.0,1,28.7,2.5,11.7,0,0,0,1,0,0,250,250,0,52.961891,6.523255,0.0,20.6,10,3,1.5,0,0.0,-1,0.0,0.0,0.0,0,0.01,0.6407
38464,1625651320450,,,,,,,,-0.0,-0.16,1.8,0,-0,-2,0.16,,80,9173,7,29,29,1.143,0.0,687,4.7,13.7,0.0,1,28.7,2.47,10.5,0,0,0,1,0,0,250,250,0,,,,,,,,,,,,,,,,
38484,1625651320470,,,,,,,,0.01,-0.11,1.65,0,0,-1,0.11,,80,8954,7,29,29,1.147,0.0,678,4.78,13.8,0.0,1,28.7,2.45,10.5,0,0,0,1,0,0,250,250,0,,,,,,,,,,,,,,,,
38504,1625651320407,,,,,,,,0.04,-0.08,1.51,0,1,2,0.09,,80,8737,7,29,29,1.154,0.0,675,4.75,13.7,0.0,1,28.7,2.45,10.5,0,0,0,1,0,0,250,250,0,,,,,,,,,,,,,,,,
38524,1625651320501,,,,,,,,0.02,-0.03,1.39,0,1,3,0.03,,80,8553,7,29,30,1.158,0.0,672,4.75,13.8,0.0,1,29.1,2.45,10.5,0,0,0,1,0,0,250,250,0,,,,,,,,,,,,,,,,
38544,1625651320521,6,4,45,49,32,32,4,0.03,-0.06,1.61,0,0,0,0.07,0,80,8318,7,29,29,1.163,0.0,667,4.75,13.8,0.0,1,28.4,2.28,10.5,0,0,0,1,0,0,250,250,0,52.961891,6.523255,0.0,20.6,10,3,1.5,0,0.0,-1,0.0,,0.0,0,0.01,0.6424
38564,1625651320541,,,,,,,,0.01,-0.0,1.47,0,0,2,0.01,,80,8113,7,29,30,1.149,0.0,665,4.74,13.8,0.0,1,28.5,0.96,10.5,0,0,0,1,0,0,250,250,0,,,,,,,,,,,,,,,,
38584,1625651320561,,,,,,,,0.01,-0.0,1.35,0,3,4,0.01,,80,7868,7,29,30,1.132,0.0,662,4.74,13.7,0.0,1,28.3,0.86,7.9,0,0,0,1,0,0,250,250,0,,,,,,,,,,,,,,,,
38604,1625651320581,,,,,,,,0.05,-0.06,1.57,0,2,4,0.08,,80,7662,7,29,30,1.115,0.0,656,4.82,13.7,0.0,1,28.3,2.0,7.9,0,0,0,1,0,0,250,250,0,,,,,,,,,,,,,,,,
38624,1625651320605,,,,,,,,0.09,-0.1,1.68,0,1,3,0.14,,80,7449,8,29,31,1.094,0.0,654,4.8,13.9,0.0,1,28.6,1.98,7.9,0,0,0,1,0,0,250,250,0,,,,,,,,,,,,,,,,
38644,1625651320625,6,3,46,48,32,32,4,0.09,-0.08,1.6,0,2,3,0.12,0,80,7236,8,29,33,1.088,0.0,647,4.75,13.8,0.0,1,29.2,1.95,7.9,0,0,0,1,0,0,250,250,0,52.961891,6.523255,0.0,20.6,10,3,1.5,0,0.0,-1,0.0,0.0,0.0,0,0.01,0.6441
38664,1625651320645,,,,,,,,0.05,-0.08,1.46,0,3,4,0.1,,80,7056,8,29,33,1.077,0.0,651,4.78,13.8,0.0,1,29.2,2.0,6.5,0,0,0,1,0,0,250,250,0,,,,,,,,,,,,,,,,
38684,1625651320665,,,,,,,,0.12,-0.05,1.67,0,1,2,0.13,,80,6848,8,29,34,1.069,0.0,640,4.83,13.9,0.0,1,29.4,2.05,6.5,0,0,0,1,0,0,250,250,0,,,,,,,,,,,,,,,,
38704,1625651320685,,,,,,,,0.02,-0.08,1.53,0,3,4,0.08,,80,6749,8,29,35,1.063,0.0,631,4.82,13.9,0.0,1,29.5,2.1,6.5,0,0,0,1,0,0,250,250,0,,,,,,,,,,,,,,,,
38724,1625651320705,,,,,,,,0.1,-0.06,1.74,0,0,2,0.12,,80,6660,8,29,35,1.065,0.0,631,4.76,13.9,0.0,1,29.4,2.1,6.5,0,0,0,1,0,0,250,250,0,,,,,,,,,,,,,,,,
38744,1625651320725,6,5,45,48,32,32,4,0.06,-0.04,1.59,0,0,1,0.08,0,80,6537,8,29,36,1.073,0.0,630,4.83,13.9,0.0,1,29.6,2.14,6.5,0,0,0,1,0,0,250,250,0,52.961891,6.523255,0.0,20.6,10,3,1.5,0,0.0,-1,0.0,,0.0,0,0.01,0.6457
38764,1625651320745,,,,,,,,-0.02,-0.05,1.46,0,4,4,0.06,,80,6463,9,29,36,1.076,0.0,626,4.78,13.7,0.0,1,29.5,2.14,6.5,0,0,0,1,0,0,250,250,0,,,,,,,,,,,,,,,,
38784,1625651320765,,,,,,,,0.07,-0.07,1.67,0,2,3,0.1,,80,6375,9,29,37,1.083,0.0,627,4.77,14.0,0.0,1,29.7,2.19,6.4,0,0,0,1,0,0,250,250,0,,,,,,,,,,,,,,,,
38804,1625651320785,,,,,,,,0.14,-0.07,1.87,0,-3,-1,0.15,,80,6237,10,29,38,1.094,0.0,596,4.81,14.0,0.0,1,29.7,2.24,6.4,0,0,0,1,0,0,250,250,0,,,,,,,,,,,,,,,,
38824,1625651320805,,,,,,,,0.17,-0.08,2.04,0,-6,-5,0.19,,80,6075,11,29,40,1.101,0.0,585,4.81,14.0,0.0,1,29.9,1.17,6.4,0,0,0,1,0,0,250,250,0,,,,,,,,,,,,,,,,
38844,1625651320825,5,5,46,48,32,31,5,0.23,-0.08,2.21,0,-10,-9,0.24,0,80,5912,13,29,43,1.114,0.0,570,4.85,14.0,0.0,1,30.2,2.34,6.4,0,0,0,1,0,0,250,250,0,52.961891,6.523255,0.0,20.6,10,3,1.5,0,0.0,-1,0.0,0.0,0.0,0,0.01,0.6474
38864,1625651320845,,,,,,,,0.27,-0.06,2.35,0,-13,-11,0.28,,80,5755,15,29,46,1.122,0.0,570,4.77,14.0,0.0,1,30.6,2.44,6.4,0,0,0,1,0,0,250,250,0,,,,,,,,,,,,,,,,
38884,1625651320865,,,,,,,,0.24,-0.05,2.33,0,-8,-8,0.25,,80,5718,16,29,50,1.127,0.0,560,4.79,13.9,0.0,1,31.3,2.47,6.5,0,0,0,1,0,0,250,250,0,,,,,,,,,,,,,,,,
38904,1625651320885,,,,,,,,0.12,-0.08,2.14,0,-2,-2,0.14,,80,5725,16,29,54,1.127,0.0,547,4.79,13.8,0.0,1,32.3,2.44,6.5,0,0,0,1,0,0,250,250,0,,,,,,,,,,,,,,,,
38924,1625651320909,,,,,,,,0.03,-0.07,1.96,0,2,0,0.08,,80,5756,16,29,58,1.126,0.0,542,4.78,13.8,0.0,1,33.3,1.25,6.5,0,0,0,1,0,0,250,250,0,,,,,,,,,,,,,,,,
38944,1625651320929,5,4,46,48,32,32,4,0.07,-0.04,1.95,0,-0,-2,0.08,0,80,5821,16,29,61,1.125,0.0,552,4.79,13.9,0.0,1,34.0,2.31,6.5,0,0,0,1,0,0,250,250,0,52.961891,6.523255,0.0,20.6,10,3,1.5,0,0.0,-1,0.0,,0.0,0,0.01,0.6491
38964,1625651320949,,,,,,,,0.12,-0.03,2.12,0,-4,-5,0.13,,80,5888,16,29,64,1.118,0.0,564,4.82,14.0,0.0,1,34.6,2.58,7.0,0,0,0,1,0,0,250,250,0,,,,,,,,,,,,,,,,
38984,1625651320969,,,,,,,,0.18,-0.04,2.27,-0,-7,-8,0.18,,80,5927,16,29,65,1.109,0.0,565,4.81,14.0,0.0,1,34.9,2.88,7.0,0,0,0,1,0,0,250,250,0,,,,,,,,,,,,,,,,
39004,1625651320989,,,,,,,,0.23,-0.07,2.42,-0,-10,-11,0.24,,80,5986,15,29,67,1.096,0.0,565,4.82,14.0,0.0,1,35.3,3.2,7.0,0,0,0,1,0,0,250,250,0,,,,,,,,,,,,,,,,
39024,1625651321001,,,,,,,,0.26,-0.08,2.55,-0,-13,-13,0.27,,80,6017,13,29,67,1.089,0.0,567,4.83,14.0,0.0,1,35.3,2.08,7.0,0,0,0,1,0,0,250,250,0,,,,,,,,,,,,,,,,
39044,1625651321021,6,3,46,48,32,32,4,0.25,-0.07,2.63,-0,-13,-15,0.26,0,80,6181,12,29,67,1.075,0.0,576,4.82,14.0,0.0,1,36.1,3.22,7.0,0,0,0,1,0,0,250,250,0,52.961891,6.523255,0.0,20.6,10,3,1.5,0,0.0,-1,0.0,0.0,0.0,0,0.01,0.6507
39064,1625651321041,,,,,,,,0.14,-0.08,2.41,-0,-10,-12,0.16,,80,6338,12,29,66,1.052,0.0,594,4.77,13.8,0.0,1,36.7,3.09,9.0,0,0,0,1,0,0,250,250,0,,,,,,,,,,,,,,,,
39084,1625651321061,,,,,,,,0.13,-0.12,2.21,-0,-7,-9,0.18,,80,6549,11,29,64,1.038,0.0,600,4.81,13.9,0.0,1,37.2,2.82,9.0,0,0,0,1,0,0,250,250,0,,,,,,,,,,,,,,,,
39104,1625651321081,,,,,,,,0.13,-0.11,2.29,-0,-8,-9,0.17,,80,6818,11,29,62,1.015,0.0,613,4.82,13.9,0.0,1,37.8,1.47,9.0,0,0,0,1,0,0,250,250,0,,,,,,,,,,,,,,,,
39124,1625651321110,,,,,,,,0.16,-0.11,2.32,-0,-8,-10,0.19,,80,7118,11,29,60,1.005,0.0,640,4.74,13.9,0.0,1,37.9,2.49,9.0,0,0,0,1,0,0,250,250,0,,,,,,,,,,,,,,,,
39144,1625651321130,6,3,46,48,32,31,5,0.17,-0.08,2.3,-0,-8,-9,0.19,0,80,7281,11,29,59,0.996,0.0,653,4.75,13.9,0.0,1,37.6,2.46,9.0,0,0,0,1,0,0,250,250,0,52.961891,6.523255,0.0,20.6,10,3,1.5,0,0.0,-1,0.0,,0.0,0,0.01,0.6524
39164,1625651321150,,,,,,,,0.16,-0.11,2.16,-0,-7,-8,0.19,,80,7419,11,29,57,0.992,0.0,650,4.77,13.8,0.0,1,37.1,1.29,9.0,0,0,0,1,0,0,250,250,0,,,,,,,,,,,,,,,,
39184,1625651321170,,,,,,,,0.16,-0.13,1.98,-0,-6,-7,0.2,,80,7569,11,30,56,0.987,0.0,647,4.83,13.8,0.0,1,36.9,2.41,8.2,0,0,0,1,0,0,250,250,0,,,,,,,,,,,,,,,,
39204,1625651321190,,,,,,,,0.18,-0.13,2.15,-0,-7,-9,0.23,,80,7738,11,30,54,0.983,0.0,656,4.72,13.9,0.0,1,36.7,2.4,8.2,0,0,0,1,0,0,250,250,0,,,,,,,,,,,,,,,,
39224,1625651321197,,,,,,,,0.18,-0.12,2.3,-0,-9,-12,0.22,,80,7934,11,30,52,0.985,0.0,663,4.7,13.9,0.0,1,36.8,1.3,8.2,0,0,0,1,0,0,250,250,0,,,,,,,,,,,,,,,,
39244,1625651321217,4,5,46,48,32,31,5,0.15,-0.07,2.11,-0,-6,-8,0.16,0,80,8138,11,30,50,0.988,0.0,658,4.87,13.8,0.0,1,37.0,2.52,8.2,0,0,0,1,0,0,250,250,0,52.961891,6.523255,0.0,20.6,10,3,1.5,0,0.0,-1,0.0,0.0,0.0,0,0.01,0.6541
39264,1625651321237,,,,,,,,0.14,-0.1,2.27,-0,-7,-10,0.17,,80,8366,11,30,48,0.99,0.0,669,4.79,13.8,0.0,1,37.0,2.77,10.7,0,0,0,1,0,0,250,250,0,,,,,,,,,,,,,,,,
39284,1625651321257,,,,,,,,0.12,-0.11,2.08,-0,-6,-8,0.16,,80,8604,11,30,46,0.993,0.0,672,4.85,13.8,0.0,1,36.3,2.89,10.7,0,0,0,1,0,0,250,250,0,,,,,,,,,,,,,,,,
39304,1625651321277,,,,,,,,0.14,-0.01,1.9,0,-5,-4,0.14,,80,8786,11,30,43,0.997,0.0,674,4.78,13.9,0.0,1,34.5,2.83,10.7,0,0,0,1,0,0,250,250,0,,,,,,,,,,,,,,,,
39324,1625651321309,,,,,,,,0.15,0.05,1.75,0,-3,0,0.16,,80,8954,11,30,42,1.003,0.0,679,4.73,13.8,0.0,1,33.8,1.7,10.7,0,0,0,1,0,0,250,250,0,,,,,,,,,,,,,,,,
39344,1625651321329,4,4,46,48,32,31,5,0.16,0.15,1.6,1,-3,4,0.22,0,80,9093,10,30,40,1.008,0.0,678,4.86,13.8,0.0,1,32.6,1.65,10.7,0,0,0,1,0,0,250,250,0,52.961891,6.523255,0.0,20.6,10,3,1.5,0,0.0,-1,0.0,,0.0,0,0.01,0.6557
39364,1625651321349,,,,,,,,0.21,0.24,1.47,1,-2,7,0.32,,80,9155,10,30,39,1.012,0.0,682,4.75,13.7,0.0,1,32.0,2.74,11.6,0,0,0,1,0,0,250,250,0,,,,,,,,,,,,,,,,
39384,1625651321369,,,,,,,,0.23,0.32,1.35,1,-2,7,0.4,,80,9191,10,30,38,1.006,0.0,687,4.73,13.7,0.0,1,31.7,2.7,11.6,0,0,0,1,0,0,250,250,0,,,,,,,,,,,,,,,,
39404,1625651321389,,,,,,,,0.17,0.2,1.57,1,-2,5,0.26,,80,9168,10,30,37,1.002,0.0,683,4.71,13.7,0.0,1,31.4,2.66,11.6,0,0,0,1,0,0,250,250,0,,,,,,,,,,,,,,,,
39424,1625651321408,,,,,,,,0.12,0.1,1.77,1,-3,2,0.16,,80,9079,10,30,36,0.997,0.0,680,4.68,13.8,0.0,1,31.1,2.61,11.6,0,0,0,1,0,0,250,250,0,,,,,,,,,,,,,,,,
39444,1625651321428,6,5,46,48,32,32,5,0.09,0.04,1.96,0,-4,-1,0.1,0,80,8958,10,30,36,0.992,0.0,683,4.65,13.7,0.0,1,31.1,2.61,11.6,0,0,0,1,0,0,250,250,0,52.961891,6.523255,0.0,20.6,10,3,1.5,0,0.0,-1,0.0,0.0,0.0,0,0.01,0.6574
39464,1625651321448,,,,,,,,0.07,-0.03,2.13,0,-4,-2,0.08,,80,8724,10,30,36,0.978,0.0,675,4.78,13.7,0.0,1,31.1,2.61,10.5,0,0,0,1,0,0,250,250,0,,,,,,,,,,,,,,,,
39484,1625651321468,,,,,,,,0.06,-0.07,1.95,1,-3,2,0.09,,80,8484,10,30,37,0.964,0.0,670,4.74,13.8,0.0,1,31.3,2.61,10.5,0,0,0,1,0,0,250,250,0,,,,,,,,,,,,,,,,
39504,1625651321488,,,,,,,,0.06,-0.07,1.81,1,-3,0,0.09,,80,8278,10,30,37,0.955,0.0,671,4.78,13.8,0.0,1,30.9,2.44,10.5,0,0,0,1,0,0,250,250,0,,,,,,,,,,,,,,,,
39524,1625651321506,,,,,,,,0.04,-0.01,1.66,1,-1,4,0.04,,80,8040,10,30,38,0.939,0.0,667,4.86,13.8,0.0,1,30.7,1.15,10.5,0,0,0,1,0,0,250,250,0,,,,,,,,,,,,,,,,
39544,1625651321526,6,4,45,49,32,32,4,0.09,-0.04,1.85,1,-1,4,0.1,0,80,7864,10,30,38,0.929,0.0,663,4.85,13.8,0.0,1,30.7,2.23,10.5,0,0,0,1,0,0,250,250,0,52.961891,6.523255,0.0,20.6,10,3,1.5,0,0.0,-1,0.0,,0.0,0,0.01,0.6591
39564,1625651321546,,,,,,,,0.11,-0.1,1.98,0,-3,1,0.15,,80,7709,10,30,39,0.915,0.0,655,4.8,13.9,0.0,1,31.0,1.17,10.5,0,0,0,1,0,0,250,250,0,,,,,,,,,,,,,,,,
39584,1625651321566,,,,,,,,0.11,-0.09,2.0,0,-4,-2,0.14,,80,7548,10,30,39,0.901,0.0,662,4.71,13.8,0.0,1,31.0,1.17,8.1,0,0,0,1,0,0,250,250,0,,,,,,,,,,,,,,,,
39604,1625651321586,,,,,,,,0.12,-0.06,2.09,0,-6,-4,0.14,,80,7434,10,30,40,0.887,0.0,661,4.72,13.8,0.0,1,31.4,2.29,8.1,0,0,0,1,0,0,250,250,0,,,,,,,,,,,,,,,,
39624,1625651321604,,,,,,,,0.12,-0.05,2.25,0,-7,-5,0.13,,80,7449,10,30,40,0.885,0.0,652,4.75,13.9,0.0,1,31.4,2.29,8.1,0,0,0,1,0,0,250,250,0,,,,,,,,,,,,,,,,
39644,1625651321624,5,4,46,48,32,32,5,0.13,-0.09,2.25,0,-7,-6,0.16,0,80,7467,10,30,40,0.887,0.0,658,4.77,14.0,0.0,1,31.4,2.29,8.1,0,0,0,1,0,0,250,250,0,52.961891,6.523255,0.0,20.6,10,3,1.5,0,0.0,-1,0.0,0.0,0.0,0,0.01,0.6607
39664,1625651321644,,,,,,,,0.14,-0.1,2.33,0,-8,-7,0.17,,80,7506,10,30,41,0.887,0.0,657,4.7,13.7,0.0,1,32.0,2.29,8.1,0,0,0,1,0,0,250,250,0,,,,,,,,,,,,,,,,
39684,1625651321664,,,,,,,,0.15,-0.06,2.47,0,-10,-9,0.16,,80,7533,10,30,41,0.888,0.0,659,4.76,13.9,0.0,1,32.0,2.29,7.9,0,0,0,1,0,0,250,250,0,,,,,,,,,,,,,,,,
39704,1625651321684,,,,,,,,0.16,-0.05,2.6,0,-11,-10,0.16,,80,7542,10,30,41,0.896,0.0,651,4.73,13.9,0.0,1,32.0,2.29,7.9,0,0,0,1,0,0,250,250,0,,,,,,,,,,,,,,,,
39724,1625651321704,,,,,,,,0.15,-0.08,2.49,0,-11,-11,0.17,,80,7554,10,30,41,0.912,0.0,650,4.78,13.9,0.0,1,32.0,2.29,7.9,0,0,0,1,0,0,250,250,0,,,,,,,,,,,,,,,,
39744,1625651321724,6,2,46,48,32,31,5,0.13,-0.06,2.37,0,-12,-13,0.15,0,80,7575,10,30,41,0.923,0.0,655,4.72,14.0,0.0,1,32.0,2.29,7.9,0,0,0,1,0,0,250,250,0,52.961891,6.523255,0.0,20.6,10,3,1.5,0,0.0,-1,0.0,,0.0,0,0.01,0.6624
39764,1625651321744,,,,,,,,0.09,-0.04,2.22,-0,-13,-14,0.1,,80,7566,10,29,41,0.939,0.0,655,4.81,14.0,0.0,1,32.0,2.3,8.0,0,0,0,1,0,0,250,250,0,,,,,,,,,,,,,,,,
39784,1625651321764,,,,,,,,0.06,-0.01,2.09,-0,-13,-15,0.06,,80,7578,10,29,41,0.941,0.0,653,4.76,13.9,0.0,1,32.0,2.3,8.0,0,0,0,1,0,0,250,250,0,,,,,,,,,,,,,,,,
39804,1625651321784,,,,,,,,0.01,0.04,1.92,0,-12,-13,0.04,,80,7609,10,30,41,0.944,0.0,654,4.75,14.0,0.0,1,32.0,1.17,8.0,0,0,0,1,0,0,250,250,0,,,,,,,,,,,,,,,,
39824,1625651321804,,,,,,,,-0.04,0.08,1.76,0,-11,-11,0.09,,80,7634,10,30,41,0.946,0.0,662,4.83,13.9,0.0,1,32.1,1.17,8.0,0,0,0,1,0,0,250,250,0,,,,,,,,,,,,,,,,
39844,1625651321824,4,5,46,48,32,31,5,-0.07,0.06,1.61,0,-8,-8,0.09,0,80,7659,11,29,42,0.95,0.0,660,4.88,13.9,0.0,1,32.6,2.3,8.0,0,0,0,1,0,0,250,250,0,52.961891,6.523255,0.0,20.6,10,3,1.5,0,0.0,-1,0.0,0.0,0.0,0,0.01,0.6641
39864,1625651321844,,,,,,,,-0.07,0.06,1.48,0,-6,-6,0.09,,80,7665,11,29,42,0.948,0.0,655,4.98,13.9,0.0,1,32.6,1.17,8.0,0,0,0,1,0,0,250,250,0,,,,,,,,,,,,,,,,
39884,1625651321864,,,,,,,,-0.03,0.04,1.65,0,-5,-4,0.05,,80,7693,12,29,42,0.942,0.0,655,4.88,13.8,0.0,1,32.7,1.17,8.1,0,0,0,1,0,0,250,250,0,,,,,,,,,,,,,,,,
39904,1625651321884,,,,,,,,0.03,0.03,1.85,0,-5,-5,0.05,,80,7757,13,29,43,0.936,0.0,662,4.82,13.8,0.0,1,33.4,2.31,8.1,0,0,0,1,0,0,250,250,0,,,,,,,,,,,,,,,,
39924,1625651321910,,,,,,,,0.04,-0.0,2.03,0,-7,-7,0.04,,80,7796,14,29,44,0.928,0.0,658,4.7,13.9,0.0,1,34.0,1.19,8.1,0,0,0,1,0,0,250,250,0,,,,,,,,,,,,,,,,
39944,1625651321930,6,4,46,48,32,31,5,0.0,0.05,1.86,0,-6,-6,0.05,0,80,7871,18,29,46,0.922,0.0,659,4.73,13.9,0.0,1,35.4,1.21,8.1,0,0,0,1,0,0,250,250,0,52.961891,6.523255,0.0,20.6,10,3,1.5,0,0.0,-1,0.0,,0.0,0,0.01,0.6657
39964,1625651321950,,,,,,,,0.01,0.07,1.7,0,-4,-2,0.07,,80,8029,27,29,52,0.904,0.0,663,4.86,13.8,0.0,1,37.0,2.68,9.9,0,0,0,1,0,0,250,250,0,,,,,,,,,,,,,,,,
39984,1625651321970,,,,,,,,0.03,0.03,1.89,0,-5,-4,0.04,,80,8120,36,29,61,0.89,0.0,663,4.75,13.9,0.0,1,39.3,3.02,9.9,0,0,0,1,0,0,250,250,0,,,,,,,,,,,,,,,,
40004,1625651321990,,,,,,,,-0.01,0.1,1.74,0,-4,-3,0.1,,80,8047,42,29,71,0.876,0.0,660,4.81,13.9,0.0,1,38.8,2.72,9.9,0,0,0,1,0,0,250,250,0,,,,,,,,,,,,,,,,
40024,1625651322000,,,,,,,,0.02,0.09,1.65,0,-2,-0,0.1,,80,7992,46,29,79,0.867,0.0,663,4.83,13.8,0.0,1,37.5,5.12,9.9,0,0,0,1,0,0,250,250,0,,,,,,,,,,,,,,,,
40044,1625651322020,5,4,45,48,32,32,5,0.05,0.07,1.85,0,-3,-3,0.09,0,80,8009,49,29,87,0.867,0.0,660,4.71,13.9,0.0,1,35.8,5.79,9.9,0,0,0,1,0,0,250,250,0,52.961891,6.523255,0.0,20.6,10,3,1.5,0,0.0,-1,0.0,0.0,0.0,0,0.01,0.6674
40064,1625651322040,,,,,,,,0.04,0.15,1.69,0,-2,0,0.16,,80,8177,52,29,91,0.867,0.0,657,4.82,13.8,0.0,1,39.7,6.56,24.8,0,0,0,1,0,0,250,250,0,,,,,,,,,,,,,,,,
40084,1625651322060,,,,,,,,0.02,0.11,1.69,0,-3,-2,0.12,,80,8561,56,30,92,0.868,0.0,667,4.81,13.7,0.0,1,42.9,7.25,24.8,0,0,0,1,0,0,250,250,0,,,,,,,,,,,,,,,,
40104,1625651322080,,,,,,,,0.02,0.04,1.59,0,-3,-4,0.04,,80,9137,59,30,91,0.883,0.0,669,4.81,13.8,0.0,1,38.8,5.24,24.8,0,0,0,1,0,0,250,250,0,,,,,,,,,,,,,,,,
40124,1625651322110,,,,,,,,0.03,0.17,1.46,0,-3,-2,0.17,,80,9832,63,30,90,0.91,0.0,690,4.73,13.9,0.0,1,39.5,7.39,24.8,0,0,0,1,0,0,250,250,0,,,,,,,,,,,,,,,,
40144,1625651322130,5,4,46,48,32,32,5,0.01,0.02,1.67,0,-4,-3,0.02,0,80,9600,66,30,91,0.954,0.0,688,4.72,13.9,0.0,1,39.1,7.28,24.8,0,0,0,1,0,0,250,250,0,52.961891,6.523255,0.0,20.6,10,3,1.5,0,0.0,-1,0.0,,0.0,0,0.01,0.6691
40164,1625651322150,,,,,,,,-0.0,0.04,1.58,-0,-3,-5,0.04,,80,9398,68,30,92,0.981,0.0,685,4.71,13.8,0.0,1,38.8,5.29,24.8,0,0,0,1,0,0,250,250,0,,,,,,,,,,,,,,,,
40184,1625651322170,,,,,,,,0.01,0.07,1.65,0,-4,-4,0.07,,80,9821,69,30,91,1.025,0.0,697,4.78,13.9,0.0,1,39.5,5.36,32.0,0,0,0,1,0,0,250,250,0,,,,,,,,,,,,,,,,
40204,1625651322190,,,,,,,,-0.03,0.04,1.52,-0,-2,-4,0.05,,80,9610,69,30,92,1.053,0.0,688,4.73,13.9,0.0,1,39.0,5.22,32.0,0,0,0,1,0,0,250,250,0,,,,,,,,,,,,,,,,
40224,1625651322210,,,,,,,,0.04,0.12,1.46,0,-2,-1,0.13,,80,9417,69,30,92,1.09,0.0,686,4.8,13.8,0.0,1,38.8,7.26,32.0,0,0,0,1,0,0,250,250,0,,,,,,,,,,,,,,,,
40244,1625651322230,4,3,46,47,32,31,5,-0.02,0.0,1.58,-0,-2,-3,0.02,0,80,9852,69,30,92,1.126,0.0,690,4.8,13.9,0.0,1,39.5,7.25,32.0,0,0,0,1,0,0,250,250,0,52.961891,6.523255,0.0,20.6,10,3,1.5,0,0.0,-1,0.0,0.0,0.0,0,0.01,0.6707
40264,1625651322250,,,,,,,,0.04,0.1,1.48,0,-3,-3,0.11,,80,9640,69,30,92,1.173,0.0,690,4.8,13.9,0.0,1,39.1,7.0,31.3,0,0,0,1,0,0,250,250,0,,,,,,,,,,,,,,,,
40284,1625651322270,,,,,,,,0.02,0.02,1.46,0,-2,-2,0.03,,80,9417,69,30,93,1.203,0.0,691,4.8,13.9,0.0,1,38.8,6.79,31.3,0,0,0,1,0,0,250,250,0,,,,,,,,,,,,,,,,
40304,1625651322290,,,,,,,,0.02,0.04,1.34,-0,-1,-2,0.05,,80,9889,69,30,92,1.252,0.0,688,4.76,13.9,0.0,1,39.6,6.73,31.3,0,0,0,1,0,0,250,250,0,,,,,,,,,,,,,,,,
40324,1625651322310,,,,,,,,0.02,0.07,1.56,0,-1,-0,0.07,,80,9645,69,30,92,1.281,0.0,686,4.81,14.0,0.0,1,39.1,6.48,31.3,0,0,0,1,0,0,250,250,0,,,,,,,,,,,,,,,,
40344,1625651322330,6,3,46,47,32,32,5,0.0,0.01,1.6,-0,-2,-2,0.01,0,80,9450,69,30,93,1.321,0.0,687,4.75,14.0,0.0,1,38.8,6.38,31.3,0,0,0,1,0,0,250,250,0,52.961891,6.523255,0.0,20.6,10,3,1.5,0,0.0,-1,0.0,,0.0,0,0.01,0.6724
40364,1625651322350,,,,,,,,0.04,0.04,1.53,0,-3,-1,0.06,,80,9837,69,30,93,1.326,0.0,682,4.77,14.0,0.0,1,39.4,5.46,31.3,0,0,0,1,0,0,250,250,0,,,,,,,,,,,,,,,,
40384,1625651322370,,,,,,,,0.01,-0.11,1.4,-0,-2,-3,0.11,,80,9684,69,30,92,1.321,0.0,691,4.78,13.9,0.0,1,39.2,5.35,29.6,0,0,0,1,0,0,250,250,0,,,,,,,,,,,,,,,,
40404,1625651322390,,,,,,,,0.01,-0.01,1.29,0,-1,-1,0.01,,80,9479,69,30,92,1.315,0.0,683,4.81,14.0,0.0,1,38.8,6.38,29.6,0,0,0,1,0,0,250,250,0,,,,,,,,,,,,,,,,
40424,1625651322391,,,,,,,,0.01,0.0,1.51,0,-1,-0,0.01,,80,9852,69,30,93,1.311,0.0,677,4.8,13.9,0.0,1,39.4,6.51,29.6,0,0,0,1,0,0,250,250,0,,,,,,,,,,,,,,,,
40444,1625651322411,6,4,46,46,32,32,5,0.01,0.01,1.4,-0,-1,-1,0.01,0,80,9730,69,30,92,1.311,0.0,691,4.73,14.0,0.0,1,39.3,5.37,29.6,0,0,0,1,0,0,250,250,0,52.961891,6.523255,0.0,20.6,10,3,1.5,0,0.0,-1,0.0,0.0,0.0,0,0.01,0.6741
40464,1625651322431,,,,,,,,0.05,0.01,1.35,0,-1,1,0.05,,80,9493,70,30,93,1.314,0.0,689,4.77,13.9,0.0,1,38.8,6.34,27.9,0,0,0,1,0,0,250,250,0,,,,,,,,,,,,,,,,
40484,1625651322451,,,,,,,,-0.0,-0.07,1.26,0,-1,-2,0.07,,80,9645,71,30,93,1.316,0.0,688,4.73,14.0,0.0,1,39.1,6.43,27.9,0,0,0,1,0,0,250,250,0,,,,,,,,,,,,,,,,
40504,1625651322471,,,,,,,,0.0,0.02,1.15,0,0,0,0.02,,80,9431,72,30,93,1.317,0.0,684,4.78,13.9,0.0,1,38.8,6.38,27.9,0,0,0,1,0,0,250,250,0,,,,,,,,,,,,,,,,
40524,1625651322501,,,,,,,,0.0,0.01,1.38,0,-0,0,0.01,,80,9715,73,30,93,1.321,0.0,688,4.76,13.9,0.0,1,39.2,6.46,27.9,0,0,0,1,0,0,250,250,0,,,,,,,,,,,,,,,,
40544,1625651322521,4,2,46,47,32,32,5,-0.03,-0.01,1.36,0,-0,-2,0.03,0,80,9512,74,30,93,1.328,0.0,686,4.8,14.0,0.0,1,38.9,5.34,27.9,0,0,0,1,0,0,250,250,0,52.961891,6.523255,0.0,20.6,10,3,1.5,0,0.0,-1,0.0,,0.0,0,0.01,0.6757
40564,1625651322541,,,,,,,,0.03,0.02,1.41,0,-1,-0,0.04,,80,9571,76,30,93,1.333,0.0,675,4.81,13.9,0.0,1,39.2,6.4,28.4,0,0,0,1,0,0,250,250,0,,,,,,,,,,,,,,,,
40584,1625651322561,,,,,,,,-0.01,-0.11,1.35,0,-1,-2,0.11,,80,9585,76,30,93,1.338,0.0,689,4.76,14.0,0.0,1,39.0,6.36,28.4,0,0,0,1,0,0,250,250,0,,,,,,,,,,,,,,,,
40604,1625651322581,,,,,,,,-0.0,-0.05,1.24,-0,-1,-2,0.05,,80,9379,77,30,93,1.348,0.0,681,4.73,13.8,0.0,1,38.8,6.38,28.4,0,0,0,1,0,0,250,250,0,,,,,,,,,,,,,,,,
40624,1625651322605,,,,,,,,-0.0,0.01,1.47,0,-1,-0,0.01,,80,9832,77,30,92,1.365,0.0,687,4.76,13.9,0.0,1,39.4,6.45,28.4,0,0,0,1,0,0,250,250,0,,,,,,,,,,,,,,,,
40644,1625651322625,3,1,46,47,32,32,5,-0.01,-0.01,1.35,-0,-1,-1,0.02,0,80,9625,78,30,92,1.382,0.0,687,4.73,14.0,0.0,1,39.1,5.33,28.4,0,0,0,1,0,0,250,250,0,52.961891,6.523255,0.0,20.6,10,3,1.5,0,0.0,-1,0.0,0.0,0.0,0,0.01,0.6774
40664,1625651322645,,,,,,,,0.03,0.01,1.32,0,-1,1,0.03,,80,9474,78,30,93,1.403,0.0,683,4.78,13.9,0.0,1,38.8,6.33,27.6,0,0,0,1,0,0,250,250,0,,,,,,,,,,,,,,,,
40684,1625651322665,,,,,,,,0.0,-0.09,1.33,0,-1,-1,0.09,,80,9532,78,30,93,1.41,0.0,688,4.76,14.0,0.0,1,38.9,6.34,27.6,0,0,0,1,0,0,250,250,0,,,,,,,,,,,,,,,,
40704,1625651322685,,,,,,,,-0.02,-0.06,1.22,0,-0,-0,0.06,,80,9576,78,30,93,1.412,0.0,678,4.71,13.9,0.0,1,39.0,6.4,27.6,0,0,0,1,0,0,250,250,0,,,,,,,,,,,,,,,,
40724,1625651322706,,,,,,,,0.05,0.01,1.18,0,-0,2,0.05,,80,9426,78,30,93,1.418,0.0,683,4.77,14.0,0.0,1,38.8,6.38,27.6,0,0,0,1,0,0,250,250,0,,,,,,,,,,,,,,,,
40744,1625651322726,1,1,46,47,32,32,5,0.01,-0.07,1.41,0,-1,-0,0.07,0,80,9750,78,30,93,1.42,0.0,689,4.8,13.9,0.0,1,39.3,6.47,27.6,0,0,0,1,0,0,250,250,0,52.961891,6.523255,0.0,20.6,10,3,1.5,0,0.0,-1,0.0,,0.0,0,0.01,0.6791
40764,1625651322746,,,,,,,,0.03,-0.01,1.35,0,-1,-0,0.03,,80,9541,78,30,93,1.427,0.0,686,4.81,14.0,0.0,1,38.9,6.39,28.2,0,0,0,1,0,0,250,250,0,,,,,,,,,,,,,,,,
40784,1625651322766,,,,,,,,0.04,0.05,1.31,0,-1,0,0.07,,80,9645,78,30,93,1.432,0.0,687,4.81,14.0,0.0,1,39.1,6.43,28.2,0,0,0,1,0,0,250,250,0,,,,,,,,,,,,,,,,
40804,1625651322786,,,,,,,,0.02,-0.05,1.2,0,-1,-1,0.05,,80,9441,78,30,93,1.437,0.0,687,4.74,13.9,0.0,1,38.8,6.38,28.2,0,0,0,1,0,0,250,250,0,,,,,,,,,,,,,,,,
40824,1625651322805,,,,,,,,0.03,0.06,1.1,0,-0,2,0.07,,80,9755,78,30,93,1.443,0.0,688,4.76,14.0,0.0,1,39.3,5.43,28.2,0,0,0,1,0,0,250,250,0,,,,,,,,,,,,,,,,
40844,1625651322825,0,1,46,48,32,32,4,0.01,-0.03,1.34,0,-1,-0,0.03,0,80,9522,79,30,93,1.447,0.0,683,4.72,14.0,0.0,1,38.9,6.38,28.2,0,0,0,1,0,0,250,250,0,52.961891,6.523255,0.0,20.6,10,3,1.5,0,0.0,-1,0.0,0.0,0.0,0,0.01,0.6807
40864,1625651322845,,,,,,,,-0.0,-0.01,1.32,0,-1,-1,0.01,,80,9740,78,30,93,1.448,0.0,680,4.72,13.8,0.0,1,39.2,6.47,29.2,0,0,0,1,0,0,250,250,0,,,,,,,,,,,,,,,,
40884,1625651322865,,,,,,,,0.01,-0.03,1.35,0,-1,-2,0.03,,80,9755,79,30,92,1.45,0.0,692,4.77,14.0,0.0,1,39.3,6.42,29.2,0,0,0,1,0,0,250,250,0,,,,,,,,,,,,,,,,
40904,1625651322885,,,,,,,,-0.03,-0.02,1.24,0,0,-0,0.04,,80,9551,78,30,92,1.451,0.0,688,4.73,13.9,0.0,1,38.9,6.34,29.2,0,0,0,1,0,0,250,250,0,,,,,,,,,,,,,,,,
40924,1625651322909,,,,,,,,0.04,0.04,1.27,0,0,2,0.06,,80,9590,78,30,93,1.45,0.0,676,4.76,13.6,0.0,1,39.0,6.38,29.2,0,0,0,1,0,0,250,250,0,,,,,,,,,,,,,,,,
40944,1625651322929,1,0,46,47,32,31,5,-0.01,-0.07,1.41,0,-0,-1,0.07,0,80,9635,79,30,92,1.449,0.0,686,4.73,14.0,0.0,1,39.1,6.43,29.2,0,0,0,1,0,0,250,250,0,52.961891,6.523255,0.0,20.6,10,3,1.5,0,0.0,-1,0.0,,0.0,0,0.01,0.6824
40964,1625651322949,,,,,,,,0.0,-0.0,1.35,0,-0,-0,0.0,,80,9431,79,30,93,1.448,0.0,685,4.81,14.0,0.0,1,38.8,6.38,27.8,0,0,0,1,0,0,250,250,0,,,,,,,,,,,,,,,,
40984,1625651322969,,,,,,,,0.02,0.03,1.38,0,-1,-1,0.03,,80,9878,79,30,93,1.446,0.0,688,4.78,13.9,0.0,1,39.5,6.52,27.8,0,0,0,1,0,0,250,250,0,,,,,,,,,,,,,,,,
41004,1625651322989,,,,,,,,0.01,0.01,1.26,0,1,0,0.01,,80,9669,79,30,92,1.447,0.0,688,4.74,14.0,0.0,1,39.2,6.39,27.8,0,0,0,1,0,0,250,250,0,,,,,,,,,,,,,,,,
41024,1625651323001,,,,,,,,0.06,0.08,1.32,0,0,2,0.1,,80,9441,79,30,93,1.443,0.0,683,4.75,14.0,0.0,1,38.8,6.38,27.8,0,0,0,1,0,0,250,250,0,,,,,,,,,,,,,,,,
41044,1625651323021,1,2,46,46,32,32,4,0.04,0.01,1.54,0,-1,-1,0.04,0,80,9755,79,30,93,1.441,0.0,685,4.77,13.9,0.0,1,39.3,6.47,27.8,0,0,0,1,0,0,250,250,0,52.961891,6.523255,0.0,20.6,10,3,1.5,0,0.0,-1,0.0,0.0,0.0,0,0.01,0.6841
41064,1625651323041,,,,,,,,0.04,0.05,1.46,0,-1,-0,0.06,,80,9546,79,30,93,1.438,0.0,687,4.81,14.0,0.0,1,38.9,5.35,27.8,0,0,0,1,0,0,250,250,0,,,,,,,,,,,,,,,,
41084,1625651323061,,,,,,,,0.06,0.09,1.51,0,-1,-1,0.11,,80,9745,79,30,92,1.434,0.0,683,4.78,13.9,0.0,1,39.3,5.38,28.2,0,0,0,1,0,0,250,250,0,,,,,,,,,,,,,,,,
41104,1625651323081,,,,,,,,0.03,0.01,1.39,0,-0,-0,0.03,,80,9620,79,30,92,1.425,0.0,688,4.71,14.0,0.0,1,39.1,6.37,28.2,0,0,0,1,0,0,250,250,0,,,,,,,,,,,,,,,,
41124,1625651323109,,,,,,,,0.09,0.07,1.43,0,-0,2,0.12,,80,9474,79,30,92,1.415,0.0,679,4.76,13.6,0.0,1,38.8,6.33,28.2,0,0,0,1,0,0,250,250,0,,,,,,,,,,,,,,,,
41144,1625651323129,1,2,45,46,32,32,4,0.05,-0.05,1.61,0,-1,-1,0.07,0,80,9709,79,30,92,1.408,0.0,696,4.78,13.9,0.0,1,39.2,6.4,28.2,0,0,0,1,0,0,250,250,0,52.961891,6.523255,0.0,20.6,10,3,1.5,0,0.0,-1,0.0,,0.0,0,0.01,0.6857
41164,1625651323149,,,,,,,,0.06,-0.01,1.55,0,-1,0,0.06,,80,9503,79,30,93,1.4,0.0,683,4.81,14.0,0.0,1,38.9,5.34,28.2,0,0,0,1,0,0,250,250,0,,,,,,,,,,,,,,,,
41184,1625651323169,,,,,,,,0.09,0.06,1.62,0,-3,-0,0.1,,80,9704,79,30,93,1.403,0.0,676,4.78,13.7,0.0,1,39.2,5.41,28.1,0,0,0,1,0,0,250,250,0,,,,,,,,,,,,,,,,
41204,1625651323189,,,,,,,,0.06,-0.0,1.48,0,-0,1,0.06,,80,9750,79,30,92,1.407,0.0,691,4.73,14.0,0.0,1,39.3,6.42,28.1,0,0,0,1,0,0,250,250,0,,,,,,,,,,,,,,,,
41224,1625651323209,,,,,,,,0.11,0.08,1.6,0,-1,2,0.14,,80,9517,79,30,92,1.414,0.0,686,4.76,14.0,0.0,1,38.9,5.29,28.1,0,0,0,1,0,0,250,250,0,,,,,,,,,,,,,,,,
41244,1625651323229,1,2,46,47,32,32,4,0.07,0.01,1.79,0,-2,-0,0.07,0,80,9674,79,30,93,1.417,0.0,685,4.76,13.6,0.0,1,39.1,6.44,28.1,0,0,0,1,0,0,250,250,0,52.961891,6.523255,0.0,20.6,10,3,1.5,0,0.0,-1,0.0,0.0,0.0,0,0.01,0.6874
41264,1625651323249,,,,,,,,0.1,0.07,1.67,0,-2,1,0.12,,80,9630,79,30,92,1.413,0.0,686,4.81,14.0,0.0,1,39.1,6.36,28.4,0,0,0,1,0,0,250,250,0,,,,,,,,,,,,,,,,
41284,1625651323269,,,,,,,,0.1,0.11,1.62,0,-2,0,0.14,,80,9398,79,30,92,1.407,0.0,687,4.8,14.0,0.0,1,38.8,6.33,28.4,0,0,0,1,0,0,250,250,0,,,,,,,,,,,,,,,,
41304,1625651323289,,,,,,,,0.07,0.06,1.48,0,-1,1,0.09,,80,9889,79,30,92,1.401,0.0,687,4.71,13.9,0.0,1,39.6,6.47,28.4,0,0,0,1,0,0,250,250,0,,,,,,,,,,,,,,,,
41324,1625651323309,,,,,,,,0.1,0.14,1.63,0,-1,2,0.17,,80,9640,79,30,92,1.395,0.0,686,4.78,13.9,0.0,1,39.1,5.34,28.4,0,0,0,1,0,0,250,250,0,,,,,,,,,,,,,,,,
41344,1625651323329,0,2,46,46,32,32,4,0.06,0.05,1.76,0,-2,-1,0.07,0,80,9450,79,30,93,1.399,0.0,690,4.73,14.0,0.0,1,38.8,6.38,28.4,0,0,0,1,0,0,250,250,0,52.961891,6.523255,0.0,20.6,10,3,1.5,0,0.0,-1,0.0,,0.0,0,0.01,0.6891
41364,1625651323349,,,,,,,,0.07,0.08,1.61,0,-2,0,0.11,,80,9842,79,30,93,1.403,0.0,685,4.75,13.9,0.0,1,39.4,6.5,28.4,0,0,0,1,0,0,250,250,0,,,,,,,,,,,,,,,,
41384,1625651323369,,,,,,,,0.05,0.02,1.48,-0,-1,-2,0.05,,80,9684,79,30,92,1.409,0.0,698,4.75,14.0,0.0,1,39.2,6.39,29.9,0,0,0,1,0,0,250,250,0,,,,,,,,,,,,,,,,
41404,1625651323389,,,,,,,,0.07,0.13,1.54,0,-0,1,0.15,,80,9484,79,29,92,1.415,0.0,683,4.77,14.0,0.0,1,38.8,6.38,29.9,0,0,0,1,0,0,250,250,0,,,,,,,,,,,,,,,,
41424,1625651323408,,,,,,,,0.03,0.04,1.65,0,-0,1,0.06,,80,9852,79,29,93,1.41,0.0,681,4.72,13.9,0.0,1,39.4,6.56,29.9,0,0,0,1,0,0,250,250,0,,,,,,,,,,,,,,,,
41444,1625651323428,-1,2,45,46,32,32,5,0.04,0.2,1.51,0,-0,0,0.21,0,80,9725,79,29,92,1.406,0.0,688,4.72,14.0,0.0,1,39.3,6.46,29.9,0,0,0,1,0,0,250,250,0,52.961891,6.523255,0.0,20.6,10,3,1.5,0,0.0,-1,0.0,0.0,0.0,0,0.01,0.6907
41464,1625651323448,,,,,,,,0.05,0.06,1.43,0,-0,2,0.08,,80,9488,79,29,92,1.399,0.0,682,4.81,14.0,0.0,1,38.8,5.23,29.9,0,0,0,1,0,0,250,250,0,,,,,,,,,,,,,,,,
41484,1625651323468,,,,,,,,0.02,0.02,1.31,0,0,-0,0.03,,80,9720,79,29,93,1.39,0.0,682,4.75,13.9,0.0,1,39.2,6.51,28.0,0,0,0,1,0,0,250,250,0,,,,,,,,,,,,,,,,
41504,1625651323488,,,,,,,,0.06,0.08,1.54,0,0,2,0.1,,80,9595,79,29,93,1.385,0.0,685,4.81,14.0,0.0,1,39.0,5.37,28.0,0,0,0,1,0,0,250,250,0,,,,,,,,,,,,,,,,
41524,1625651323507,,,,,,,,0.01,0.01,1.65,0,-1,2,0.01,,80,9370,79,29,92,1.381,0.0,681,4.77,13.7,0.0,1,38.8,6.38,28.0,0,0,0,1,0,0,250,250,0,,,,,,,,,,,,,,,,
41544,1625651323527,0,1,46,46,32,31,4,0.06,0.16,1.56,0,-0,2,0.17,0,80,9858,79,29,92,1.377,0.0,687,4.71,14.0,0.0,1,39.5,5.42,28.0,0,0,0,1,0,0,250,250,0,52.961891,6.523255,0.0,20.6,10,3,1.5,0,0.0,-1,0.0,,0.0,0,0.01,0.6924
41564,1625651323547,,,,,,,,0.03,0.02,1.43,0,-1,3,0.03,,80,9600,79,29,92,1.373,0.0,688,4.75,14.0,0.0,1,39.0,6.41,28.5,0,0,0,1,0,0,250,250,0,,,,,,,,,,,,,,,,
41584,1625651323567,,,,,,,,0.02,0.05,1.31,0,-1,-0,0.05,,80,9407,79,29,93,1.373,0.0,686,4.78,14.0,0.0,1,38.8,6.43,28.5,0,0,0,1,0,0,250,250,0,,,,,,,,,,,,,,,,
41604,1625651323587,,,,,,,,0.04,0.06,1.53,0,-1,2,0.08,,80,9863,79,29,92,1.373,0.0,686,4.77,13.9,0.0,1,39.5,6.57,28.5,0,0,0,1,0,0,250,250,0,,,,,,,,,,,,,,,,
41624,1625651323604,,,,,,,,0.03,0.01,1.53,0,-1,-1,0.03,,80,9645,79,29,92,1.374,0.0,688,4.76,14.0,0.0,1,39.1,6.43,28.5,0,0,0,1,0,0,250,250,0,,,,,,,,,,,,,,,,
41644,1625651323624,-0,2,46,46,32,32,4,0.07,0.13,1.4,0,-1,1,0.15,0,80,9455,79,29,92,1.374,0.0,685,4.8,14.0,0.0,1,38.8,5.29,28.5,0,0,0,1,0,0,250,250,0,52.961891,6.523255,0.0,20.6,10,3,1.5,0,0.0,-1,0.0,0.0,0.0,0,0.01,0.6941
41664,1625651323644,,,,,,,,0.05,0.02,1.36,0,-1,0,0.05,,80,9899,79,29,92,1.373,0.0,688,4.77,13.9,0.0,1,39.6,6.53,29.9,0,0,0,1,0,0,250,250,0,,,,,,,,,,,,,,,,
41684,1625651323664,,,,,,,,0.07,0.11,1.25,0,-0,1,0.13,,80,9694,79,29,92,1.375,0.0,690,4.77,14.0,0.0,1,39.2,6.45,29.9,0,0,0,1,0,0,250,250,0,,,,,,,,,,,,,,,,
41704,1625651323684,,,,,,,,0.05,0.06,1.48,0,-1,2,0.08,,80,9464,79,29,92,1.378,0.0,681,4.8,14.0,0.0,1,38.8,6.38,29.9,0,0,0,1,0,0,250,250,0,,,,,,,,,,,,,,,,
41724,1625651323704,,,,,,,,0.04,0.03,1.38,0,-1,-1,0.05,,80,9858,79,29,92,1.38,0.0,684,4.76,13.9,0.0,1,39.5,6.51,29.9,0,0,0,1,0,0,250,250,0,,,,,,,,,,,,,,,,
41744,1625651323724,-0,2,46,47,32,32,5,0.05,0.09,1.42,0,-1,1,0.1,0,80,9699,79,29,92,1.387,0.0,693,4.78,14.0,0.0,1,39.2,6.46,29.9,0,0,0,1,0,0,250,250,0,52.961891,6.523255,0.0,20.6,10,3,1.5,0,0.0,-1,0.0,,0.0,0,0.01,0.6957
41764,1625651323744,,,,,,,,0.03,-0.0,1.3,0,-1,-0,0.03,,80,9493,79,29,92,1.391,0.0,690,4.77,14.0,0.0,1,38.8,6.38,28.0,0,0,0,1,0,0,250,250,0,,,,,,,,,,,,,,,,
41784,1625651323764,,,,,,,,0.06,0.1,1.2,0,0,1,0.12,,80,9645,79,29,93,1.397,0.0,689,4.72,14.0,0.0,1,39.1,6.48,28.0,0,0,0,1,0,0,250,250,0,,,,,,,,,,,,,,,,
41804,1625651323784,,,,,,,,0.05,0.06,1.43,1,-0,2,0.08,,80,9412,79,29,92,1.402,0.0,681,4.8,13.8,0.0,1,38.8,6.38,28.0,0,0,0,1,0,0,250,250,0,,,,,,,,,,,,,,,,
41824,1625651323806,,,,,,,,0.02,0.04,1.37,0,-0,-1,0.04,,80,9720,79,29,93,1.407,0.0,688,4.75,14.0,0.0,1,39.2,5.42,28.0,0,0,0,1,0,0,250,250,0,,,,,,,,,,,,,,,,
41844,1625651323826,0,2,46,47,32,31,5,0.07,0.16,1.26,1,-0,2,0.17,0,80,9512,79,29,93,1.403,0.0,685,4.82,14.0,0.0,1,38.8,6.43,28.0,0,0,0,1,0,0,250,250,0,52.961891,6.523255,0.0,20.6,10,3,1.5,0,0.0,-1,0.0,0.0,0.0,0,0.01,0.6974
41864,1625651323846,,,,,,,,0.03,0.05,1.15,0,0,0,0.06,,80,9889,79,29,92,1.398,0.0,681,4.8,13.9,0.0,1,39.6,6.52,29.9,0,0,0,1,0,0,250,250,0,,,,,,,,,,,,,,,,
41884,1625651323866,,,,,,,,0.08,0.18,1.23,1,1,3,0.2,,80,9760,79,29,92,1.394,0.0,687,4.78,14.0,0.0,1,39.3,6.47,29.9,0,0,0,1,0,0,250,250,0,,,,,,,,,,,,,,,,
41904,1625651323886,,,,,,,,0.02,0.07,1.4,0,-0,0,0.07,,80,9532,79,29,92,1.389,0.0,683,4.78,14.0,0.0,1,38.9,5.3,29.9,0,0,0,1,0,0,250,250,0,,,,,,,,,,,,,,,,
41924,1625651323910,,,,,,,,0.02,0.08,1.32,0,0,-1,0.08,,80,9590,79,29,93,1.391,0.0,678,4.71,13.8,0.0,1,39.0,6.46,29.9,0,0,0,1,0,0,250,250,0,,,,,,,,,,,,,,,,
41944,1625651323930,1,0,46,47,32,32,5,0.03,0.08,1.37,0,-1,0,0.09,0,80,9605,80,29,92,1.393,0.0,692,4.8,14.0,0.0,1,39.0,6.41,29.9,0,0,0,1,0,0,250,250,0,52.961891,6.523255,0.0,20.6,10,3,1.5,0,0.0,-1,0.0,,0.0,0,0.01,0.6991
41964,1625651323950,,,,,,,,0.02,-0.01,1.26,0,-0,-1,0.02,,80,9407,81,29,93,1.397,0.0,686,4.76,14.0,0.0,1,38.8,6.43,28.0,0,0,0,1,0,0,250,250,0,,,,,,,,,,,,,,,,
41984,1625651323970,,,,,,,,0.06,0.09,1.15,0,1,1,0.11,,80,9720,81,29,92,1.4,0.0,685,4.77,14.0,0.0,1,39.2,6.46,28.0,0,0,0,1,0,0,250,250,0,,,,,,,,,,,,,,,,
