"Interval"|"ms"|0|0|1,"Utc"|"ms"|0|0|1,"Brake_F"|"Bar"|0|2000|10,"Brake_R"|"Bar"|0|2000|10,"Height_RF"|"mm"|0|255|10,"Height_LF"|"mm"|0|255|10,"Height_LR"|"mm"|0|80|10,"Height_RR"|"mm"|0|255|10,"Steering"|"deg"|-100|100|10,"AccelX"|"G"|-3.0|3.0|50,"AccelY"|"G"|-3.0|3.0|50,"AccelZ"|"G"|-3.0|3.0|50,"Yaw"|"Deg/Sec"|-120|120|50,"Pitch"|"Deg/Sec"|-120|120|50,"Roll"|"Deg/Sec"|-120|120|50,"Gsum"|"G"|0.0|3.0|50,"Log_Button"|""|0.0|10.0|10,"WaterTemp"|"C"|0|150|50,"RPM"|"tr/min"|0|14000|50,"TPS"|"%"|0|100|50,"AirTemp"|"C"|0|150|50,"MAP"|"KPa"|0|100|50,"Lambda"|""|0.5|1.5|50,"SpeedDTA"|"kph"|0.0|250.0|50,"OilPress"|"KPa"|0|1500|50,"FuelPressur"|"Bar"|0.0|10.0|50,"Batterie"|"V"|0.0|20.0|50,"ConsoKm"|"L/100km"|0.0|200.0|50,"Gear"|""|0|6|50,"AdvIgnition"|"Deg"|-20.0|70.0|50,"Injection"|"ms"|0.0|10.0|50,"ConsoHr"|"L/Hr"|0.0|10000.0|50,"LC_But_Pres"|""|0|1|50,"LC_Active"|""|0|1|50,"TractionOn"|""|0|1|50,"TractionWet"|""|0|1|50,"FanOn"|""|0|1|50,"RD_Speed"|"km/h"|-30|250|50,"RUD_Speed"|"km/h"|-30|250|50,"LD_Speed"|"km/h"|-30|250|50,"LUD_Speed"|"km/h"|-30|250|50,"Latitude"|"Degrees"|-180.0|180.0|10,"Longitude"|"Degrees"|-180.0|180.0|10,"Speed"|"kph"|0.0|150.0|10,"Altitude"|"m"|0.0|4000.0|10,"GPSSats"|""|0|20|10,"GPSQual"|""|0|5|10,"GPSDOP"|""|0.0|20.0|10,"LapCount"|""|0|0|10,"LapTime"|"Min"|0.0|0.0|10,"Sector"|""|0|0|10,"SectorTime"|"Min"|0.0|0.0|10,"PredTime"|"Min"|0.0|0.0|5,"ElapsedTime"|"Min"|0.0|0.0|10,"CurrentLap"|""|0|0|10,"Distance"|"km"|0.0|0.0|10,"SessionTime"|"Min"|0.0|0.0|10
16064,1625578024874,,,,,,,,0.05,-0.04,1.69,-0,-4,-4,0.07,,60,4641,7,26,54,0.619,0.0,581,4.84,13.4,0.0,1,27.3,1.54,5.7,0,0,0,1,0,0,250,250,0,,,,,,,,,,,,,,,,
16084,1625578024894,,,,,,,,0.11,-0.1,1.55,-0,-4,-5,0.15,,60,4663,7,26,54,0.62,0.0,579,4.83,13.4,0.0,1,27.5,2.7,5.7,0,0,0,1,0,0,250,250,0,,,,,,,,,,,,,,,,
16104,1625578024914,,,,,,,,0.13,-0.1,1.42,0,-3,-3,0.16,,60,4619,7,26,54,0.619,0.0,585,4.82,13.3,0.0,1,27.0,2.67,5.7,0,0,0,1,0,0,250,250,0,,,,,,,,,,,,,,,,
16124,1625578024934,,,,,,,,0.09,-0.08,1.3,0,-0,0,0.12,,60,4687,7,26,54,0.619,0.0,576,4.82,13.4,0.0,1,27.8,1.57,5.7,0,0,0,1,0,0,250,250,0,,,,,,,,,,,,,,,,
16144,1625578024954,4,4,43,45,35,33,0,0.02,-0.07,1.36,0,1,1,0.07,1,60,4643,7,26,54,0.619,0.0,583,4.79,13.3,0.0,1,27.3,1.54,5.7,0,0,0,1,0,0,250,250,0,52.957336,6.522213,0.0,36.8,8,2,1.9,0,0.0,-1,0.0,,0.0,0,0.0,0.2691
16164,1625578024974,,,,,,,,-0.06,-0.08,1.58,0,2,2,0.1,,60,4671,7,26,54,0.619,0.0,583,4.81,13.2,0.0,1,27.6,2.71,5.7,0,0,0,1,0,0,250,250,0,,,,,,,,,,,,,,,,
16184,1625578024994,,,,,,,,-0.09,-0.04,1.78,0,0,-1,0.1,,60,4659,7,26,54,0.619,0.0,579,4.79,13.2,0.0,1,27.5,2.7,5.7,0,0,0,1,0,0,250,250,0,,,,,,,,,,,,,,,,
16204,1625578025006,,,,,,,,-0.13,-0.01,1.97,-0,-1,-2,0.13,,60,4563,7,26,54,0.619,0.0,580,4.83,13.1,0.0,1,26.3,1.48,5.7,0,0,0,1,0,0,250,250,0,,,,,,,,,,,,,,,,
16224,1625578025026,,,,,,,,-0.11,0.01,2.14,-0,-4,-4,0.11,,60,4653,7,26,54,0.619,0.0,572,4.81,13.2,0.0,1,27.4,2.7,5.7,0,0,0,1,0,0,250,250,0,,,,,,,,,,,,,,,,
16244,1625578025046,3,3,43,45,35,33,1,-0.04,-0.0,2.17,-0,-5,-5,0.04,1,60,4604,7,26,54,0.619,0.0,576,4.81,13.4,0.0,1,26.8,2.66,5.7,0,0,0,1,0,0,250,250,0,52.957336,6.522213,0.0,36.8,8,2,1.9,0,0.0,-1,0.0,0.0,0.0,0,0.0,0.2707
16264,1625578025066,,,,,,,,0.03,-0.06,1.98,-0,-6,-6,0.06,,60,4651,7,26,54,0.619,0.0,582,4.82,13.4,0.0,1,27.4,2.69,5.7,0,0,0,1,0,0,250,250,0,,,,,,,,,,,,,,,,
16284,1625578025094,,,,,,,,0.1,-0.1,1.82,-0,-5,-5,0.14,,60,4637,7,26,54,0.618,0.0,573,4.81,13.4,0.0,1,27.2,2.68,5.7,0,0,0,1,0,0,250,250,0,,,,,,,,,,,,,,,,
16304,1625578025114,,,,,,,,0.14,-0.13,1.67,-0,-4,-4,0.2,,60,4623,7,26,54,0.619,0.0,577,4.82,13.4,0.0,1,27.0,2.67,5.7,0,0,0,1,0,0,250,250,0,,,,,,,,,,,,,,,,
16324,1625578025134,,,,,,,,0.16,-0.12,1.53,0,-2,-2,0.2,,60,4636,7,26,54,0.619,0.0,571,4.83,13.4,0.0,1,27.2,1.53,5.7,0,0,0,1,0,0,250,250,0,,,,,,,,,,,,,,,,
16344,1625578025154,4,4,43,45,35,33,-1,0.13,-0.09,1.4,0,-0,1,0.16,1,60,4595,7,26,54,0.62,0.0,574,4.82,13.4,0.0,1,26.7,1.5,5.7,0,0,0,1,0,0,250,250,0,52.957336,6.522213,0.0,36.8,8,2,1.9,0,0.0,-1,0.0,,0.0,0,0.0,0.2724
16364,1625578025174,,,,,,,,0.09,-0.09,1.28,0,1,3,0.13,,60,4614,7,26,54,0.621,0.0,575,4.86,13.2,0.0,1,26.9,1.52,5.7,0,0,0,1,0,0,250,250,0,,,,,,,,,,,,,,,,
16384,1625578025195,,,,,,,,0.01,-0.08,1.33,0,2,3,0.08,,60,4621,7,26,54,0.62,0.0,573,4.82,13.1,0.0,1,27.0,2.67,5.7,0,0,0,1,0,0,250,250,0,,,,,,,,,,,,,,,,
16404,1625578025215,,,,,,,,-0.06,-0.08,1.55,0,3,3,0.1,,60,4642,7,26,54,0.621,0.0,581,4.82,13.2,0.0,1,27.3,1.54,5.7,0,0,0,1,0,0,250,250,0,,,,,,,,,,,,,,,,
16424,1625578025235,,,,,,,,-0.13,-0.05,1.75,0,2,2,0.14,,60,4610,7,26,54,0.621,0.0,580,4.8,13.2,0.0,1,26.9,1.51,5.7,0,0,0,1,0,0,250,250,0,,,,,,,,,,,,,,,,
16444,1625578025255,4,4,43,45,35,33,-1,-0.16,-0.01,1.94,0,1,-0,0.16,1,60,4579,7,26,54,0.621,0.0,574,4.8,13.0,0.0,1,26.5,2.64,5.7,0,0,0,1,0,0,250,250,0,52.957336,6.522213,0.0,36.8,8,2,1.9,0,0.0,-1,0.0,0.0,0.0,0,0.0,0.2741
16464,1625578025275,,,,,,,,-0.18,0.03,2.11,0,-1,-2,0.18,,60,4592,7,26,54,0.621,0.0,574,4.76,13.3,0.0,1,26.7,2.65,5.7,0,0,0,1,0,0,250,250,0,,,,,,,,,,,,,,,,
16484,1625578025293,,,,,,,,-0.15,0.03,2.27,0,-3,-4,0.16,,60,4610,7,26,54,0.621,0.0,571,4.78,13.3,0.0,1,26.9,2.66,5.7,0,0,0,1,0,0,250,250,0,,,,,,,,,,,,,,,,
16504,1625578025313,,,,,,,,-0.09,0.03,2.36,-0,-4,-5,0.1,,60,4594,7,26,54,0.621,0.0,582,4.77,13.3,0.0,1,26.7,2.65,5.7,0,0,0,1,0,0,250,250,0,,,,,,,,,,,,,,,,
16524,1625578025333,,,,,,,,-0.02,0.0,2.24,-0,-5,-6,0.02,,60,4603,7,26,54,0.621,0.0,575,4.85,13.4,0.0,1,26.8,2.66,5.6,0,0,0,1,0,0,250,250,0,,,,,,,,,,,,,,,,
16544,1625578025353,3,4,43,45,34,33,-0,0.05,-0.04,2.05,-0,-5,-6,0.06,0,60,4611,7,26,54,0.621,0.0,573,4.82,13.4,0.0,1,26.9,2.66,5.6,0,0,0,1,0,0,250,250,0,52.957336,6.522213,0.0,36.8,8,2,1.9,0,0.0,-1,0.0,,0.0,0,0.0,0.2757
16564,1625578025373,,,,,,,,0.12,-0.08,1.88,-0,-4,-5,0.14,,60,4630,7,26,55,0.621,0.0,578,4.82,13.4,0.0,1,27.3,2.68,5.6,0,0,0,1,0,0,250,250,0,,,,,,,,,,,,,,,,
16584,1625578025393,,,,,,,,0.15,-0.08,1.72,-0,-3,-3,0.17,,60,4645,7,26,55,0.621,0.0,572,4.84,13.4,0.0,1,27.5,1.54,5.6,0,0,0,1,0,0,250,250,0,,,,,,,,,,,,,,,,
16604,1625578025413,,,,,,,,0.13,-0.05,1.58,0,-0,0,0.14,,60,4652,7,26,54,0.622,0.0,581,4.82,13.4,0.0,1,27.4,2.69,5.6,0,0,0,1,0,0,250,250,0,,,,,,,,,,,,,,,,
16624,1625578025433,,,,,,,,0.09,-0.04,1.45,0,1,2,0.1,,60,4626,7,26,54,0.621,0.0,576,4.8,13.2,0.0,1,27.4,2.68,5.7,0,0,0,1,0,0,250,250,0,,,,,,,,,,,,,,,,
16644,1625578025453,4,3,43,45,35,33,-1,0.0,-0.03,1.54,0,2,3,0.03,0,60,4647,7,26,54,0.621,0.0,575,4.82,13.1,0.0,1,27.3,1.54,5.7,0,0,0,1,0,0,250,250,0,52.957336,6.522213,0.0,36.8,8,2,1.9,0,0.0,-1,0.0,0.0,0.0,0,0.0,0.2774
16664,1625578025473,,,,,,,,-0.07,-0.03,1.75,0,2,1,0.08,,60,4618,7,26,54,0.621,0.0,585,4.83,13.1,0.0,1,27.0,2.67,5.7,0,0,0,1,0,0,250,250,0,,,,,,,,,,,,,,,,
16684,1625578025493,,,,,,,,-0.13,-0.01,1.94,0,1,-0,0.13,,60,4601,7,26,54,0.621,0.0,574,4.78,13.2,0.0,1,26.8,1.51,5.7,0,0,0,1,0,0,250,250,0,,,,,,,,,,,,,,,,
16704,1625578025513,,,,,,,,-0.17,0.01,2.11,0,-0,-2,0.17,,60,4536,7,26,54,0.622,0.0,572,4.83,13.1,0.0,1,26.0,2.61,5.7,0,0,0,1,0,0,250,250,0,,,,,,,,,,,,,,,,
16724,1625578025533,,,,,,,,-0.21,0.05,2.26,0,-2,-3,0.21,,60,4548,7,26,54,0.622,0.0,567,4.77,13.3,0.0,1,26.1,2.62,5.5,0,0,0,1,0,0,250,250,0,,,,,,,,,,,,,,,,
16744,1625578025553,3,3,43,45,34,33,-0,-0.21,0.07,2.41,-0,-3,-5,0.23,0,60,4569,7,26,54,0.622,0.0,564,4.78,13.3,0.0,1,26.4,2.63,5.5,0,0,0,1,0,0,250,250,0,52.957336,6.522213,0.0,36.8,8,2,1.9,0,0.0,-1,0.0,,0.0,0,0.0,0.2791
16764,1625578025573,,,,,,,,-0.2,0.09,2.54,-0,-5,-6,0.22,,60,4576,7,26,54,0.621,0.0,573,4.77,13.4,0.0,1,26.5,2.64,5.5,0,0,0,1,0,0,250,250,0,,,,,,,,,,,,,,,,
16784,1625578025593,,,,,,,,-0.16,0.09,2.66,-0,-5,-7,0.19,,60,4580,7,26,55,0.622,0.0,565,4.85,13.4,0.0,1,26.7,2.64,5.5,0,0,0,1,0,0,250,250,0,,,,,,,,,,,,,,,,
16804,1625578025613,,,,,,,,-0.11,0.07,2.75,-0,-7,-8,0.13,,60,4593,7,26,55,0.622,0.0,569,4.84,13.4,0.0,1,26.9,2.65,5.5,0,0,0,1,0,0,250,250,0,,,,,,,,,,,,,,,,
16824,1625578025633,,,,,,,,-0.03,0.03,2.52,-0,-7,-8,0.05,,60,4603,7,26,55,0.622,0.0,573,4.8,13.4,0.0,1,27.0,2.66,5.5,0,0,0,1,0,0,250,250,0,,,,,,,,,,,,,,,,
16844,1625578025653,3,2,43,45,35,33,-1,0.05,-0.01,2.31,-0,-6,-8,0.05,0,60,4610,7,26,55,0.622,0.0,568,4.81,13.4,0.0,1,27.1,2.66,5.5,0,0,0,1,0,0,250,250,0,52.957336,6.522213,0.0,36.8,8,2,1.9,0,0.0,-1,0.0,0.0,0.0,0,0.0,0.2807
16864,1625578025673,,,,,,,,0.1,-0.04,2.12,-0,-5,-6,0.11,,60,4622,7,26,55,0.623,0.0,577,4.8,13.4,0.0,1,27.2,1.52,5.5,0,0,0,1,0,0,250,250,0,,,,,,,,,,,,,,,,
16884,1625578025693,,,,,,,,0.15,-0.06,1.94,-0,-3,-3,0.16,,60,4611,7,26,55,0.623,0.0,570,4.78,13.3,0.0,1,27.1,2.66,5.5,0,0,0,1,0,0,250,250,0,,,,,,,,,,,,,,,,
16904,1625578025713,,,,,,,,0.14,-0.06,1.78,0,-1,-0,0.16,,60,4635,7,26,55,0.624,0.0,576,4.82,13.4,0.0,1,27.4,1.53,5.5,0,0,0,1,0,0,250,250,0,,,,,,,,,,,,,,,,
16924,1625578025733,,,,,,,,0.11,-0.05,1.63,0,1,1,0.12,,60,4641,7,26,55,0.625,0.0,581,4.79,13.3,0.0,1,27.5,2.69,5.7,0,0,0,1,0,0,250,250,0,,,,,,,,,,,,,,,,
16944,1625578025753,5,1,43,45,35,33,0,0.04,-0.05,1.55,0,2,2,0.07,0,60,4626,7,26,54,0.626,0.0,576,4.82,13.1,0.0,1,27.1,1.53,5.7,0,0,0,1,0,0,250,250,0,52.957336,6.522213,0.0,36.8,8,2,1.9,0,0.0,-1,0.0,,0.0,0,0.0,0.2824
16964,1625578025773,,,,,,,,-0.04,-0.04,1.75,0,2,1,0.05,,60,4647,7,26,54,0.627,0.0,583,4.84,13.1,0.0,1,27.3,2.69,5.7,0,0,0,1,0,0,250,250,0,,,,,,,,,,,,,,,,
16984,1625578025793,,,,,,,,-0.1,-0.01,1.94,0,-0,-1,0.1,,60,4633,7,26,54,0.628,0.0,577,4.85,13.1,0.0,1,27.2,2.68,5.7,0,0,0,1,0,0,250,250,0,,,,,,,,,,,,,,,,
17004,1625578025813,,,,,,,,-0.12,0.03,2.11,0,-2,-3,0.12,,60,4656,7,26,54,0.629,0.0,578,4.77,13.4,0.0,1,27.5,2.7,5.7,0,0,0,1,0,0,250,250,0,,,,,,,,,,,,,,,,
17024,1625578025833,,,,,,,,-0.09,0.04,2.27,-0,-4,-4,0.1,,60,4663,7,26,55,0.63,0.0,583,4.8,13.4,0.0,1,27.7,2.7,5.8,0,0,0,1,0,0,250,250,0,,,,,,,,,,,,,,,,
17044,1625578025853,4,1,43,45,34,33,-0,-0.03,0.03,2.21,-0,-4,-5,0.05,0,60,4589,7,26,55,0.63,0.0,571,4.82,13.4,0.0,1,26.8,2.65,5.8,0,0,0,1,0,0,250,250,0,52.957336,6.522213,0.0,36.8,8,2,1.9,0,0.0,-1,0.0,0.0,0.0,0,0.0,0.2841
17064,1625578025873,,,,,,,,0.04,-0.02,2.02,-0,-4,-5,0.04,,60,4635,7,26,55,0.629,0.0,580,4.8,13.4,0.0,1,27.4,2.68,5.8,0,0,0,1,0,0,250,250,0,,,,,,,,,,,,,,,,
17084,1625578025895,,,,,,,,0.1,-0.06,1.85,0,-3,-4,0.12,,60,4568,7,26,54,0.63,0.0,572,4.83,13.4,0.0,1,26.4,2.63,5.8,0,0,0,1,0,0,250,250,0,,,,,,,,,,,,,,,,
17104,1625578025915,,,,,,,,0.17,-0.08,1.7,0,-2,-2,0.19,,60,4578,7,26,55,0.63,0.0,566,4.82,13.4,0.0,1,26.7,1.49,5.8,0,0,0,1,0,0,250,250,0,,,,,,,,,,,,,,,,
17124,1625578025935,,,,,,,,0.2,-0.09,1.56,0,-1,-0,0.22,,60,4580,7,26,55,0.63,0.0,573,4.84,13.4,0.0,1,26.7,1.49,5.6,0,0,0,1,0,0,250,250,0,,,,,,,,,,,,,,,,
17144,1625578025955,3,3,43,45,34,33,-1,0.23,-0.11,1.43,0,0,1,0.26,0,60,4544,7,26,55,0.63,0.0,562,4.83,13.4,0.0,1,26.3,1.47,5.6,0,0,0,1,0,0,250,250,0,52.957336,6.522213,0.0,36.8,8,2,1.9,0,0.0,-1,0.0,,0.0,0,0.0,0.2857
17164,1625578025975,,,,,,,,0.16,-0.09,1.31,0,2,4,0.18,,60,4627,7,26,55,0.63,0.0,572,4.81,13.4,0.0,1,27.3,2.68,5.6,0,0,0,1,0,0,250,250,0,,,,,,,,,,,,,,,,
17184,1625578025995,,,,,,,,0.13,-0.08,1.2,0,3,5,0.16,,60,4603,7,26,55,0.63,0.0,572,4.81,13.2,0.0,1,26.6,2.66,5.6,0,0,0,1,0,0,250,250,0,,,,,,,,,,,,,,,,
17204,1625578026006,,,,,,,,0.04,-0.07,1.43,0,4,6,0.09,,60,4598,7,26,55,0.63,0.0,570,4.8,13.3,0.0,1,26.9,1.53,5.6,0,0,0,1,0,0,250,250,0,,,,,,,,,,,,,,,,
17224,1625578026026,,,,,,,,-0.02,-0.05,1.65,0,4,5,0.05,,60,4651,7,26,55,0.63,0.0,581,4.85,13.1,0.0,1,27.6,1.54,5.8,0,0,0,1,0,0,250,250,0,,,,,,,,,,,,,,,,
17244,1625578026046,4,3,43,45,35,33,-1,-0.06,0.0,1.84,0,2,3,0.06,0,60,4614,7,26,54,0.63,0.0,570,4.83,13.1,0.0,1,26.9,2.67,5.8,0,0,0,1,0,0,250,250,0,52.957336,6.522213,0.0,36.8,8,2,1.9,0,0.0,-1,0.0,0.0,0.0,0,0.0,0.2874
17264,1625578026066,,,,,,,,-0.02,0.02,2.02,0,-0,0,0.03,,60,4721,7,26,55,0.629,0.0,580,4.81,13.4,0.0,1,28.5,2.74,5.8,0,0,0,1,0,0,250,250,0,,,,,,,,,,,,,,,,
17284,1625578026093,,,,,,,,0.04,-0.03,1.85,0,-3,-2,0.05,,60,4665,7,26,54,0.628,0.0,583,4.81,13.4,0.0,1,27.6,1.55,5.8,0,0,0,1,0,0,250,250,0,,,,,,,,,,,,,,,,
17304,1625578026113,,,,,,,,0.11,-0.07,1.7,0,-3,-2,0.13,,60,4634,7,26,55,0.627,0.0,576,4.82,13.4,0.0,1,27.4,2.68,5.8,0,0,0,1,0,0,250,250,0,,,,,,,,,,,,,,,,
17324,1625578026133,,,,,,,,0.14,-0.09,1.56,0,-2,-1,0.17,,60,4698,7,26,55,0.628,0.0,586,4.84,13.4,0.0,1,28.2,1.58,5.9,0,0,0,1,0,0,250,250,0,,,,,,,,,,,,,,,,
17344,1625578026153,4,2,43,45,35,33,0,0.14,-0.09,1.43,0,-1,0,0.17,0,60,4602,7,26,55,0.628,0.0,576,4.82,13.4,0.0,1,27.0,2.66,5.9,0,0,0,1,0,0,250,250,0,52.957336,6.522213,0.0,36.8,8,2,1.9,0,0.0,-1,0.0,,0.0,0,0.0,0.2891
17364,1625578026173,,,,,,,,0.09,-0.07,1.31,0,2,3,0.11,,60,4688,7,26,55,0.627,0.0,577,4.81,13.4,0.0,1,28.1,1.57,5.9,0,0,0,1,0,0,250,250,0,,,,,,,,,,,,,,,,
17384,1625578026192,,,,,,,,0.01,-0.06,1.53,0,3,5,0.07,,60,4637,7,26,55,0.626,0.0,587,4.81,13.2,0.0,1,27.4,2.71,5.9,0,0,0,1,0,0,250,250,0,,,,,,,,,,,,,,,,
17404,1625578026212,,,,,,,,-0.06,-0.06,1.74,0,4,5,0.09,,60,4654,7,26,55,0.626,0.0,573,4.83,13.1,0.0,1,27.6,2.7,5.9,0,0,0,1,0,0,250,250,0,,,,,,,,,,,,,,,,
17424,1625578026232,,,,,,,,-0.1,-0.01,1.92,0,2,2,0.1,,60,4719,7,26,54,0.627,0.0,587,4.82,13.1,0.0,1,28.2,2.74,5.9,0,0,0,1,0,0,250,250,0,,,,,,,,,,,,,,,,
17444,1625578026252,4,4,43,45,35,33,0,-0.09,0.0,2.1,0,1,0,0.09,0,60,4609,7,26,54,0.627,0.0,582,4.82,13.2,0.0,1,26.9,1.51,5.9,0,0,0,1,0,0,250,250,0,52.957336,6.522213,0.0,36.8,8,2,1.9,0,0.0,-1,0.0,0.0,0.0,0,0.0,0.2907
17464,1625578026272,,,,,,,,-0.02,-0.0,2.25,0,-3,-2,0.02,,60,4702,7,26,55,0.627,0.0,581,4.81,13.3,0.0,1,28.2,2.73,5.9,0,0,0,1,0,0,250,250,0,,,,,,,,,,,,,,,,
17484,1625578026292,,,,,,,,0.04,-0.06,2.06,0,-3,-3,0.08,,60,4672,7,26,55,0.626,0.0,588,4.85,13.4,0.0,1,27.9,2.71,5.9,0,0,0,1,0,0,250,250,0,,,,,,,,,,,,,,,,
17504,1625578026312,,,,,,,,0.11,-0.11,1.89,0,-3,-3,0.15,,60,4603,7,26,55,0.626,0.0,575,4.81,13.4,0.0,1,27.0,1.51,5.9,0,0,0,1,0,0,250,250,0,,,,,,,,,,,,,,,,
17524,1625578026332,,,,,,,,0.12,-0.11,1.73,0,-1,-1,0.16,,60,4703,7,26,55,0.625,0.0,583,4.83,13.4,0.0,1,28.3,2.73,5.9,0,0,0,1,0,0,250,250,0,,,,,,,,,,,,,,,,
17544,1625578026352,3,3,43,45,34,33,0,0.09,-0.09,1.58,0,1,2,0.12,0,60,4646,7,26,55,0.626,0.0,575,4.82,13.4,0.0,1,27.5,2.69,5.9,0,0,0,1,0,0,250,250,0,52.957336,6.522213,0.0,36.8,8,2,1.9,0,0.0,-1,0.0,,0.0,0,0.0,0.2924
17564,1625578026372,,,,,,,,0.02,-0.1,1.45,0,3,4,0.1,,60,4637,7,26,55,0.625,0.0,574,4.81,13.2,0.0,1,27.9,2.68,5.9,0,0,0,1,0,0,250,250,0,,,,,,,,,,,,,,,,
17584,1625578026392,,,,,,,,-0.05,-0.09,1.66,0,4,4,0.1,,60,4652,7,26,55,0.626,0.0,588,4.84,13.1,0.0,1,27.6,1.54,5.9,0,0,0,1,0,0,250,250,0,,,,,,,,,,,,,,,,
17604,1625578026412,,,,,,,,-0.12,-0.05,1.86,0,3,3,0.13,,60,4562,7,26,55,0.626,0.0,571,4.82,13.2,0.0,1,26.5,2.63,5.9,0,0,0,1,0,0,250,250,0,,,,,,,,,,,,,,,,
17624,1625578026432,,,,,,,,-0.15,-0.01,2.04,0,2,1,0.15,,60,4703,7,26,54,0.625,0.0,576,4.8,13.2,0.0,1,28.0,1.58,5.6,0,0,0,1,0,0,250,250,0,,,,,,,,,,,,,,,,
17644,1625578026452,3,3,43,45,35,33,0,-0.12,0.01,2.2,0,-1,-1,0.12,0,60,4653,7,26,54,0.626,0.0,581,4.79,13.4,0.0,1,27.4,2.7,5.6,0,0,0,1,0,0,250,250,0,52.957336,6.522213,0.0,36.8,8,2,1.9,0,0.0,-1,0.0,0.0,0.0,0,0.0,0.2941
17664,1625578026472,,,,,,,,-0.05,0.0,2.27,-0,-3,-3,0.05,,60,4642,7,26,55,0.626,0.0,574,4.81,13.4,0.0,1,27.5,2.69,5.6,0,0,0,1,0,0,250,250,0,,,,,,,,,,,,,,,,
17684,1625578026492,,,,,,,,0.02,-0.06,2.08,-0,-4,-4,0.07,,60,4706,7,26,55,0.626,0.0,584,4.78,13.4,0.0,1,28.3,2.73,5.6,0,0,0,1,0,0,250,250,0,,,,,,,,,,,,,,,,
17704,1625578026512,,,,,,,,0.08,-0.1,1.91,0,-3,-3,0.13,,60,4639,7,26,55,0.627,0.0,574,4.81,13.4,0.0,1,27.4,1.54,5.6,0,0,0,1,0,0,250,250,0,,,,,,,,,,,,,,,,
17724,1625578026532,,,,,,,,0.1,-0.08,1.75,0,-1,-1,0.13,,60,4658,7,26,55,0.627,0.0,577,4.82,13.4,0.0,1,27.7,2.7,5.7,0,0,0,1,0,0,250,250,0,,,,,,,,,,,,,,,,
17744,1625578026552,3,3,43,45,34,33,-0,0.07,-0.06,1.6,0,1,2,0.09,0,60,4629,7,26,55,0.627,0.0,582,4.82,13.4,0.0,1,27.3,1.53,5.7,0,0,0,1,0,0,250,250,0,52.957336,6.522213,0.0,36.8,8,2,1.9,0,0.0,-1,0.0,,0.0,0,0.0,0.2957
17764,1625578026572,,,,,,,,0.03,-0.07,1.47,0,2,3,0.07,,60,4582,7,26,55,0.628,0.0,570,4.83,13.2,0.0,1,26.7,1.49,5.7,0,0,0,1,0,0,250,250,0,,,,,,,,,,,,,,,,
17784,1625578026592,,,,,,,,-0.05,-0.05,1.54,0,3,5,0.07,,60,4653,7,26,54,0.628,0.0,581,4.8,13.2,0.0,1,27.4,2.68,5.7,0,0,0,1,0,0,250,250,0,,,,,,,,,,,,,,,,
17804,1625578026612,,,,,,,,-0.12,-0.04,1.74,0,4,4,0.12,,60,4660,7,26,55,0.628,0.0,572,4.81,13.2,0.0,1,27.7,1.55,5.7,0,0,0,1,0,0,250,250,0,,,,,,,,,,,,,,,,
17824,1625578026632,,,,,,,,-0.16,-0.0,1.93,0,2,2,0.16,,60,4681,7,26,54,0.628,0.0,581,4.8,13.3,0.0,1,27.8,1.57,5.7,0,0,0,1,0,0,250,250,0,,,,,,,,,,,,,,,,
17844,1625578026652,2,3,43,45,35,33,-0,-0.14,0.04,2.1,0,-0,-0,0.14,0,60,4654,7,26,55,0.628,0.0,591,4.83,13.2,0.0,1,27.6,2.7,5.7,0,0,0,1,0,0,250,250,0,52.957336,6.522213,0.0,36.8,8,2,1.9,0,0.0,-1,0.0,0.0,0.0,0,0.0,0.2974
17864,1625578026672,,,,,,,,-0.09,0.02,2.08,0,-2,-2,0.09,,60,4629,7,26,55,0.628,0.0,576,4.8,13.4,0.0,1,27.3,2.68,5.7,0,0,0,1,0,0,250,250,0,,,,,,,,,,,,,,,,
17884,1625578026692,,,,,,,,-0.01,-0.03,1.9,0,-2,-3,0.03,,60,4657,7,26,55,0.628,0.0,582,4.85,13.4,0.0,1,27.7,2.7,5.7,0,0,0,1,0,0,250,250,0,,,,,,,,,,,,,,,,
17904,1625578026712,,,,,,,,0.06,-0.07,1.74,0,-2,-2,0.09,,60,4621,7,26,55,0.628,0.0,576,4.83,13.4,0.0,1,27.2,2.67,5.7,0,0,0,1,0,0,250,250,0,,,,,,,,,,,,,,,,
17924,1625578026732,,,,,,,,0.1,-0.07,1.6,0,-1,-1,0.12,,60,4650,7,26,55,0.627,0.0,576,4.83,13.4,0.0,1,27.6,1.54,5.7,0,0,0,1,0,0,250,250,0,,,,,,,,,,,,,,,,
17944,1625578026752,4,1,43,45,35,33,0,0.11,-0.06,1.46,0,1,2,0.12,0,60,4659,7,26,55,0.628,0.0,580,4.85,13.4,0.0,1,27.7,1.55,5.7,0,0,0,1,0,0,250,250,0,52.957336,6.522213,0.0,36.8,8,2,1.9,0,0.0,-1,0.0,,0.0,0,0.0,0.2991
17964,1625578026772,,,,,,,,0.07,-0.04,1.34,0,2,4,0.08,,60,4614,7,26,55,0.627,0.0,570,4.81,13.4,0.0,1,27.1,1.52,5.7,0,0,0,1,0,0,250,250,0,,,,,,,,,,,,,,,,
17984,1625578026793,,,,,,,,0.01,-0.03,1.23,0,4,5,0.03,,60,4626,7,26,55,0.627,0.0,576,4.83,13.2,0.0,1,27.2,2.68,5.7,0,0,0,1,0,0,250,250,0,,,,,,,,,,,,,,,,
18004,1625578026813,,,,,,,,-0.06,-0.03,1.44,0,4,5,0.07,,60,4620,7,26,55,0.627,0.0,575,4.81,13.3,0.0,1,27.2,1.52,5.7,0,0,0,1,0,0,250,250,0,,,,,,,,,,,,,,,,
18024,1625578026833,,,,,,,,-0.12,-0.03,1.65,0,4,4,0.13,,60,4636,7,26,55,0.627,0.0,570,4.83,13.1,0.0,1,27.4,1.53,5.7,0,0,0,1,0,0,250,250,0,,,,,,,,,,,,,,,,
18044,1625578026853,4,2,43,45,34,33,0,-0.17,0.01,1.84,0,2,2,0.17,0,60,4660,7,26,55,0.628,0.0,580,4.85,13.1,0.0,1,27.7,2.7,5.7,0,0,0,1,0,0,250,250,0,52.957336,6.522213,0.0,36.8,8,2,1.9,0,0.0,-1,0.0,0.0,0.0,0,0.0,0.3007
18064,1625578026873,,,,,,,,-0.17,0.04,2.02,0,-0,-0,0.17,,60,4611,7,26,54,0.629,0.0,571,4.82,13.2,0.0,1,26.9,2.66,5.7,0,0,0,1,0,0,250,250,0,,,,,,,,,,,,,,,,
18084,1625578026892,,,,,,,,-0.14,0.04,2.19,0,-2,-2,0.14,,60,4618,7,26,54,0.629,0.0,577,4.73,13.3,0.0,1,27.0,2.67,5.7,0,0,0,1,0,0,250,250,0,,,,,,,,,,,,,,,,
18104,1625578026912,,,,,,,,-0.08,0.03,2.21,0,-3,-3,0.08,,60,4593,7,26,55,0.629,0.0,576,4.8,13.4,0.0,1,26.9,1.5,5.7,0,0,0,1,0,0,250,250,0,,,,,,,,,,,,,,,,
18124,1625578026932,,,,,,,,-0.01,-0.01,2.03,0,-4,-4,0.02,,60,4577,7,26,55,0.629,0.0,568,4.78,13.4,0.0,1,26.7,2.64,5.6,0,0,0,1,0,0,250,250,0,,,,,,,,,,,,,,,,
18144,1625578026952,2,3,43,45,34,33,0,0.06,-0.07,1.86,0,-4,-4,0.09,0,60,4638,7,26,55,0.629,0.0,573,4.83,13.4,0.0,1,27.4,2.68,5.6,0,0,0,1,0,0,250,250,0,52.957336,6.522213,0.0,36.8,8,2,1.9,0,0.0,-1,0.0,,0.0,0,0.0,0.3024
18164,1625578026972,,,,,,,,0.12,-0.08,1.7,0,-3,-3,0.15,,60,4630,7,26,55,0.628,0.0,570,4.82,13.4,0.0,1,27.3,2.68,5.6,0,0,0,1,0,0,250,250,0,,,,,,,,,,,,,,,,
18184,1625578026992,,,,,,,,0.13,-0.08,1.56,0,-1,-1,0.16,,60,4668,7,26,55,0.628,0.0,577,4.8,13.4,0.0,1,27.8,1.56,5.6,0,0,0,1,0,0,250,250,0,,,,,,,,,,,,,,,,
18204,1625578027004,,,,,,,,0.12,-0.07,1.43,0,1,2,0.14,,60,4660,7,26,55,0.627,0.0,578,4.81,13.4,0.0,1,27.7,2.7,5.6,0,0,0,1,0,0,250,250,0,,,,,,,,,,,,,,,,
18224,1625578027024,,,,,,,,0.06,-0.04,1.31,0,2,4,0.07,,60,4626,7,26,55,0.627,0.0,571,4.85,13.2,0.0,1,27.1,2.68,5.7,0,0,0,1,0,0,250,250,0,,,,,,,,,,,,,,,,
18244,1625578027044,4,3,43,45,35,33,-0,-0.01,-0.03,1.49,0,3,3,0.03,0,60,4656,7,26,54,0.627,0.0,585,4.82,13.1,0.0,1,27.5,2.7,5.7,0,0,0,1,0,0,250,250,0,52.957336,6.522213,0.0,36.8,8,2,1.9,0,0.0,-1,0.0,0.0,0.0,0,0.0,0.3041
18264,1625578027064,,,,,,,,-0.09,-0.02,1.7,0,2,2,0.09,,60,4621,7,26,54,0.627,0.0,582,4.81,13.2,0.0,1,27.0,2.67,5.7,0,0,0,1,0,0,250,250,0,,,,,,,,,,,,,,,,
18284,1625578027092,,,,,,,,-0.13,0.02,1.89,0,1,0,0.13,,60,4656,7,26,54,0.627,0.0,575,4.83,13.1,0.0,1,27.5,2.7,5.7,0,0,0,1,0,0,250,250,0,,,,,,,,,,,,,,,,
18304,1625578027112,,,,,,,,-0.13,0.05,2.07,0,-2,-2,0.14,,60,4645,7,26,55,0.627,0.0,583,4.78,13.4,0.0,1,27.5,2.69,5.7,0,0,0,1,0,0,250,250,0,,,,,,,,,,,,,,,,
18324,1625578027132,,,,,,,,-0.09,0.04,2.23,0,-3,-3,0.1,,60,4622,7,26,55,0.627,0.0,572,4.8,13.4,0.0,1,27.2,2.67,5.7,0,0,0,1,0,0,250,250,0,,,,,,,,,,,,,,,,
18344,1625578027152,3,3,43,45,35,33,0,-0.02,0.01,2.11,0,-5,-4,0.03,0,60,4635,7,26,55,0.626,0.0,578,4.83,13.4,0.0,1,27.4,2.68,5.7,0,0,0,1,0,0,250,250,0,52.957336,6.522213,0.0,36.8,8,2,1.9,0,0.0,-1,0.0,,0.0,0,0.0,0.3057
18364,1625578027172,,,,,,,,0.04,-0.04,1.93,0,-4,-4,0.06,,60,4619,7,26,55,0.626,0.0,576,4.82,13.4,0.0,1,27.2,2.67,5.7,0,0,0,1,0,0,250,250,0,,,,,,,,,,,,,,,,
18384,1625578027191,,,,,,,,0.11,-0.08,1.77,0,-2,-3,0.14,,60,4608,7,26,55,0.626,0.0,571,4.8,13.4,0.0,1,27.1,2.66,5.7,0,0,0,1,0,0,250,250,0,,,,,,,,,,,,,,,,
18404,1625578027211,,,,,,,,0.14,-0.11,1.62,0,-1,-0,0.17,,60,4641,7,26,55,0.626,0.0,578,4.84,13.4,0.0,1,27.5,1.54,5.7,0,0,0,1,0,0,250,250,0,,,,,,,,,,,,,,,,
18424,1625578027231,,,,,,,,0.12,-0.1,1.49,0,1,2,0.16,,60,4614,7,26,55,0.626,0.0,570,4.82,13.3,0.0,1,27.1,1.52,5.6,0,0,0,1,0,0,250,250,0,,,,,,,,,,,,,,,,
18444,1625578027251,3,3,43,45,35,33,-0,0.08,-0.11,1.36,0,3,4,0.13,0,60,4629,7,26,55,0.627,0.0,576,4.82,13.2,0.0,1,27.3,2.68,5.6,0,0,0,1,0,0,250,250,0,52.957336,6.522213,0.0,36.8,8,2,1.9,0,0.0,-1,0.0,0.0,0.0,0,0.0,0.3074
18464,1625578027271,,,,,,,,0.02,-0.1,1.43,0,4,4,0.1,,60,4602,7,26,55,0.627,0.0,571,4.78,13.1,0.0,1,27.0,2.68,5.6,0,0,0,1,0,0,250,250,0,,,,,,,,,,,,,,,,
18484,1625578027291,,,,,,,,-0.06,-0.07,1.64,0,3,3,0.09,,60,4611,7,26,55,0.628,0.0,570,4.86,13.2,0.0,1,27.1,2.66,5.6,0,0,0,1,0,0,250,250,0,,,,,,,,,,,,,,,,
18504,1625578027311,,,,,,,,-0.12,-0.07,1.84,0,2,1,0.13,,60,4623,7,26,54,0.627,0.0,580,4.8,13.2,0.0,1,27.0,2.67,5.6,0,0,0,1,0,0,250,250,0,,,,,,,,,,,,,,,,
18524,1625578027331,,,,,,,,-0.15,-0.03,2.02,0,-0,-0,0.16,,60,4592,7,26,54,0.628,0.0,570,4.81,13.3,0.0,1,26.7,2.65,5.7,0,0,0,1,0,0,250,250,0,,,,,,,,,,,,,,,,
18544,1625578027351,4,3,43,45,35,33,-0,-0.15,0.02,2.18,0,-2,-2,0.15,0,60,4601,7,26,55,0.629,0.0,571,4.79,13.4,0.0,1,27.0,2.66,5.7,0,0,0,1,0,0,250,250,0,52.957336,6.522213,0.0,36.8,8,2,1.9,0,0.0,-1,0.0,,0.0,0,0.0,0.3091
18564,1625578027371,,,,,,,,-0.14,0.04,2.33,0,-3,-3,0.15,,60,4617,7,26,55,0.629,0.0,573,4.85,13.4,0.0,1,27.2,1.52,5.7,0,0,0,1,0,0,250,250,0,,,,,,,,,,,,,,,,
18584,1625578027391,,,,,,,,-0.1,0.04,2.4,0,-4,-4,0.11,,60,4588,7,26,55,0.629,0.0,565,4.83,13.4,0.0,1,26.8,2.65,5.7,0,0,0,1,0,0,250,250,0,,,,,,,,,,,,,,,,
18604,1625578027411,,,,,,,,-0.03,0.02,2.25,0,-4,-5,0.04,,60,4626,7,26,55,0.628,0.0,573,4.8,13.4,0.0,1,27.3,1.53,5.7,0,0,0,1,0,0,250,250,0,,,,,,,,,,,,,,,,
18624,1625578027431,,,,,,,,0.04,-0.01,2.06,0,-3,-4,0.04,,60,4585,7,26,55,0.628,0.0,568,4.81,13.4,0.0,1,26.8,2.65,5.7,0,0,0,1,0,0,250,250,0,,,,,,,,,,,,,,,,
18644,1625578027451,3,3,43,45,35,33,-1,0.11,-0.06,1.89,0,-3,-3,0.12,0,60,4589,7,26,55,0.628,0.0,571,4.78,13.4,0.0,1,26.8,2.65,5.7,0,0,0,1,0,0,250,250,0,52.957336,6.522213,0.0,36.8,8,2,1.9,0,0.0,-1,0.0,0.0,0.0,0,0.0,0.3107
18664,1625578027471,,,,,,,,0.15,-0.09,1.73,0,-1,-1,0.18,,60,4646,7,26,55,0.628,0.0,576,4.81,13.4,0.0,1,27.5,2.69,5.7,0,0,0,1,0,0,250,250,0,,,,,,,,,,,,,,,,
18684,1625578027491,,,,,,,,0.15,-0.08,1.58,0,1,1,0.18,,60,4623,7,26,55,0.628,0.0,570,4.78,13.3,0.0,1,27.2,2.67,5.7,0,0,0,1,0,0,250,250,0,,,,,,,,,,,,,,,,
18704,1625578027511,,,,,,,,0.13,-0.07,1.45,0,2,3,0.14,,60,4629,7,26,55,0.628,0.0,578,4.74,13.4,0.0,1,27.3,1.53,5.7,0,0,0,1,0,0,250,250,0,,,,,,,,,,,,,,,,
18724,1625578027531,,,,,,,,0.08,-0.05,1.38,0,3,3,0.09,,60,4634,7,26,55,0.628,0.0,570,4.8,13.3,0.0,1,27.1,1.51,5.7,0,0,0,1,0,0,250,250,0,,,,,,,,,,,,,,,,
18744,1625578027551,5,2,43,45,35,33,0,0.01,-0.02,1.55,0,2,3,0.02,0,60,4612,7,26,55,0.629,0.0,572,4.82,13.1,0.0,1,27.1,1.52,5.7,0,0,0,1,0,0,250,250,0,52.957336,6.522213,0.0,36.8,8,2,1.9,0,0.0,-1,0.0,,0.0,0,0.0,0.3124
18764,1625578027571,,,,,,,,-0.06,-0.02,1.75,0,1,1,0.06,,60,4638,7,26,55,0.629,0.0,581,4.82,13.1,0.0,1,27.4,2.68,5.7,0,0,0,1,0,0,250,250,0,,,,,,,,,,,,,,,,
18784,1625578027593,,,,,,,,-0.11,-0.0,1.94,0,-1,-1,0.11,,60,4609,7,26,54,0.629,0.0,573,4.81,13.1,0.0,1,26.9,1.51,5.7,0,0,0,1,0,0,250,250,0,,,,,,,,,,,,,,,,
18804,1625578027613,,,,,,,,-0.12,0.03,2.11,0,-2,-2,0.13,,60,4608,7,26,54,0.629,0.0,577,4.8,13.2,0.0,1,26.9,2.66,5.7,0,0,0,1,0,0,250,250,0,,,,,,,,,,,,,,,,
18824,1625578027633,,,,,,,,-0.12,0.05,2.27,0,-3,-3,0.13,,60,4619,7,26,55,0.63,0.0,570,4.81,13.4,0.0,1,27.2,2.67,5.7,0,0,0,1,0,0,250,250,0,,,,,,,,,,,,,,,,
18844,1625578027653,3,4,43,45,35,33,0,-0.08,0.03,2.37,0,-4,-4,0.08,0,60,4588,7,26,55,0.631,0.0,571,4.82,13.4,0.0,1,26.8,2.65,5.7,0,0,0,1,0,0,250,250,0,52.957336,6.522213,0.0,36.8,8,2,1.9,0,0.0,-1,0.0,0.0,0.0,0,0.0,0.3141
18864,1625578027673,,,,,,,,-0.02,0.02,2.2,-0,-4,-4,0.03,,60,4628,7,26,55,0.632,0.0,572,4.83,13.4,0.0,1,27.3,2.68,5.7,0,0,0,1,0,0,250,250,0,,,,,,,,,,,,,,,,
18884,1625578027693,,,,,,,,0.03,-0.0,2.01,0,-3,-4,0.03,,60,4595,7,26,55,0.632,0.0,568,4.83,13.5,0.0,1,26.9,2.65,5.7,0,0,0,1,0,0,250,250,0,,,,,,,,,,,,,,,,
18904,1625578027713,,,,,,,,0.06,-0.02,1.84,0,-2,-2,0.06,,60,4582,7,26,55,0.632,0.0,575,4.83,13.4,0.0,1,26.7,2.64,5.7,0,0,0,1,0,0,250,250,0,,,,,,,,,,,,,,,,
18924,1625578027733,,,,,,,,0.05,-0.01,1.69,0,-1,-0,0.05,,60,4635,7,26,55,0.633,0.0,572,4.79,13.4,0.0,1,27.4,1.53,5.7,0,0,0,1,0,0,250,250,0,,,,,,,,,,,,,,,,
18944,1625578027753,4,3,43,45,35,33,0,0.01,0.0,1.55,0,1,2,0.01,0,60,4606,7,26,55,0.633,0.0,570,4.83,13.4,0.0,1,27.0,2.66,5.7,0,0,0,1,0,0,250,250,0,52.957336,6.522213,0.0,36.8,8,2,1.9,0,0.0,-1,0.0,,0.0,0,0.0,0.3157
18964,1625578027773,,,,,,,,-0.04,-0.0,1.64,0,3,4,0.04,,60,4658,8,26,55,0.633,0.0,578,4.83,13.2,0.0,1,27.9,2.7,5.7,0,0,0,1,0,0,250,250,0,,,,,,,,,,,,,,,,
18984,1625578027793,,,,,,,,-0.1,0.02,1.84,0,4,4,0.1,,60,4665,13,26,56,0.633,0.0,571,4.77,13.3,0.0,1,27.6,1.53,5.7,0,0,0,1,0,0,250,250,0,,,,,,,,,,,,,,,,
19004,1625578027813,,,,,,,,-0.15,0.04,2.02,0,4,3,0.15,,60,4666,22,26,60,0.633,0.0,581,4.82,13.2,0.0,1,29.3,2.71,5.7,0,0,0,1,0,0,250,250,0,,,,,,,,,,,,,,,,
19024,1625578027833,,,,,,,,-0.1,0.04,2.18,0,-0,-1,0.1,,60,4837,27,26,68,0.633,0.0,585,4.82,13.2,0.0,1,33.9,5.13,10.1,0,0,0,1,0,0,250,250,0,,,,,,,,,,,,,,,,
19044,1625578027853,3,3,43,45,35,33,-1,-0.06,-0.03,2.0,0,-1,-1,0.06,0,60,4966,30,26,77,0.632,0.0,594,4.82,13.4,0.0,1,38.2,2.41,10.1,0,0,0,1,0,0,250,250,0,52.957336,6.522213,0.0,36.8,8,2,1.9,0,0.0,-1,0.0,0.0,0.0,0,0.0,0.3174
19064,1625578027873,,,,,,,,-0.14,-0.03,2.04,0,5,4,0.14,,60,5159,30,26,84,0.632,0.0,616,4.75,13.1,0.0,1,40.6,2.69,10.1,0,0,0,1,0,0,250,250,0,,,,,,,,,,,,,,,,
19084,1625578027893,,,,,,,,0.02,-0.04,2.2,-0,-3,-4,0.05,,60,5302,30,26,88,0.631,0.0,622,4.83,13.4,0.0,1,41.3,6.83,10.1,0,0,0,1,0,0,250,250,0,,,,,,,,,,,,,,,,
19104,1625578027913,,,,,,,,-0.03,-0.06,2.18,-0,7,4,0.07,,60,5639,28,26,90,0.631,0.0,629,4.8,13.1,0.0,1,40.9,7.71,10.1,0,0,0,1,0,0,250,250,0,,,,,,,,,,,,,,,,
19124,1625578027933,,,,,,,,-0.06,-0.04,2.0,-0,8,5,0.08,,60,6081,17,26,88,0.63,0.0,638,4.78,13.1,0.0,1,40.0,8.23,22.1,0,0,0,1,0,0,250,250,0,,,,,,,,,,,,,,,,
19144,1625578027953,3,3,43,45,34,33,-0,0.0,-0.04,2.17,-0,7,5,0.04,0,60,6524,7,26,82,0.63,0.0,651,4.77,13.3,0.0,1,41.8,6.98,22.1,0,0,0,1,0,0,250,250,0,52.957336,6.522213,0.0,36.8,8,2,1.9,0,0.0,-1,0.0,,0.0,0,0.0,0.3191
19164,1625578027973,,,,,,,,-0.06,-0.04,1.99,-0,8,6,0.07,,60,7048,7,26,75,0.63,0.0,662,4.78,13.1,0.0,1,42.6,3.81,22.1,0,0,0,1,0,0,250,250,0,,,,,,,,,,,,,,,,
19184,1625578027993,,,,,,,,-0.07,-0.03,1.82,-0,6,4,0.08,,60,7054,7,26,70,0.63,0.0,668,4.85,13.4,0.0,1,41.1,3.52,22.1,0,0,0,1,0,0,250,250,0,,,,,,,,,,,,,,,,
19204,1625578028005,,,,,,,,-0.02,-0.03,2.0,-0,4,2,0.03,,60,7318,7,26,65,0.629,0.0,666,4.84,13.4,0.0,1,39.2,3.05,22.1,0,0,0,1,0,0,250,250,0,,,,,,,,,,,,,,,,
19224,1625578028025,,,,,,,,-0.01,-0.05,1.88,-0,3,0,0.05,,60,7591,7,26,60,0.629,0.0,671,4.83,13.4,0.0,1,37.8,2.52,9.8,0,0,0,1,0,0,250,250,0,,,,,,,,,,,,,,,,
19244,1625578028045,2,3,43,45,35,33,0,-0.05,-0.01,1.72,-0,2,0,0.05,0,60,7861,7,26,57,0.629,0.0,677,4.82,13.4,0.0,1,37.2,2.49,9.8,0,0,0,1,0,0,250,250,0,52.957336,6.522213,0.0,36.8,8,2,1.9,0,0.0,-1,0.0,0.0,0.0,0,0.0,0.3207
19264,1625578028065,,,,,,,,-0.06,-0.02,1.58,0,4,3,0.06,,60,7988,7,26,52,0.629,0.0,676,4.85,13.1,0.0,1,36.8,2.45,9.8,0,0,0,1,0,0,250,250,0,,,,,,,,,,,,,,,,
19284,1625578028093,,,,,,,,-0.01,-0.08,1.78,0,2,1,0.08,,60,8085,7,26,48,0.63,0.0,679,4.76,13.3,0.0,1,36.7,2.49,9.8,0,0,0,1,0,0,250,250,0,,,,,,,,,,,,,,,,
19304,1625578028113,,,,,,,,-0.06,-0.01,1.63,0,4,3,0.06,,60,8145,7,26,45,0.631,0.0,681,4.84,13.2,0.0,1,35.3,1.37,9.8,0,0,0,1,0,0,250,250,0,,,,,,,,,,,,,,,,
19324,1625578028133,,,,,,,,-0.01,-0.05,1.83,0,4,4,0.05,,60,8023,7,26,43,0.633,0.0,677,4.8,13.2,0.0,1,33.8,2.38,9.1,0,0,0,1,0,0,250,250,0,,,,,,,,,,,,,,,,
19344,1625578028153,4,3,43,45,35,33,-0,0.03,-0.1,2.01,0,2,2,0.11,0,60,7789,7,26,41,0.634,0.0,673,4.77,13.3,0.0,1,32.2,2.33,9.1,0,0,0,1,0,0,250,250,0,52.957336,6.522213,0.0,36.8,8,2,1.9,0,0.0,-1,0.0,,0.0,0,0.0,0.3224
19364,1625578028173,,,,,,,,0.06,-0.11,1.99,0,0,-1,0.13,,60,7560,7,26,40,0.635,0.0,673,4.72,13.3,0.0,1,31.5,1.17,9.1,0,0,0,1,0,0,250,250,0,,,,,,,,,,,,,,,,
19384,1625578028192,,,,,,,,0.11,-0.11,2.08,-0,-1,-3,0.16,,60,7327,7,26,40,0.637,0.0,666,4.83,13.4,0.0,1,31.4,2.32,9.1,0,0,0,1,0,0,250,250,0,,,,,,,,,,,,,,,,
19404,1625578028212,,,,,,,,0.12,-0.12,2.24,-0,-1,-2,0.17,,60,7091,7,26,40,0.637,0.0,673,4.76,13.3,0.0,1,31.3,1.17,9.1,0,0,0,1,0,0,250,250,0,,,,,,,,,,,,,,,,
19424,1625578028232,,,,,,,,0.02,-0.08,2.05,-0,0,-2,0.08,,60,6903,7,26,40,0.639,0.0,661,4.8,13.2,0.0,1,31.0,2.32,7.5,0,0,0,1,0,0,250,250,0,,,,,,,,,,,,,,,,
19444,1625578028252,2,3,43,45,35,33,0,0.09,-0.1,2.21,0,0,-2,0.14,0,60,6660,7,26,41,0.641,0.0,659,4.77,13.2,0.0,1,31.0,2.32,7.5,0,0,0,1,0,0,250,250,0,52.957336,6.522213,0.0,36.8,8,2,1.9,0,0.0,-1,0.0,0.0,0.0,0,0.0,0.3241
19464,1625578028272,,,,,,,,0.1,-0.1,2.05,0,-2,-4,0.14,,60,6474,7,26,41,0.643,0.0,657,4.85,13.3,0.0,1,30.7,2.32,7.5,0,0,0,1,0,0,250,250,0,,,,,,,,,,,,,,,,
19484,1625578028292,,,,,,,,0.02,-0.07,1.88,0,-2,-3,0.07,,60,6270,7,26,41,0.643,0.0,648,4.86,13.3,0.0,1,30.5,2.32,7.5,0,0,0,1,0,0,250,250,0,,,,,,,,,,,,,,,,
19504,1625578028312,,,,,,,,-0.09,-0.04,1.72,0,1,0,0.09,,60,6153,7,26,41,0.643,0.0,640,4.83,13.3,0.0,1,30.2,1.17,7.5,0,0,0,1,0,0,250,250,0,,,,,,,,,,,,,,,,
19524,1625578028332,,,,,,,,-0.18,-0.02,1.58,0,5,4,0.19,,60,5984,7,26,41,0.645,0.0,646,4.72,13.1,0.0,1,30.0,2.33,6.5,0,0,0,1,0,0,250,250,0,,,,,,,,,,,,,,,,
19544,1625578028352,4,2,43,45,35,33,0,-0.27,-0.01,1.45,0,7,7,0.27,0,60,5828,7,26,42,0.645,0.0,640,4.84,13.3,0.0,1,29.9,1.25,6.5,0,0,0,1,0,0,250,250,0,52.957336,6.522213,0.0,36.8,8,2,1.9,0,0.0,-1,0.0,,0.0,0,0.0,0.3257
19564,1625578028372,,,,,,,,-0.19,-0.03,1.33,-0,2,3,0.19,,60,5628,7,26,43,0.645,0.0,633,4.81,13.3,0.0,1,29.7,2.49,6.5,0,0,0,1,0,0,250,250,0,,,,,,,,,,,,,,,,
19584,1625578028394,,,,,,,,-0.11,-0.0,1.55,0,0,1,0.11,,60,5431,7,26,44,0.646,0.0,631,4.74,13.3,0.0,1,29.5,2.58,6.5,0,0,0,1,0,0,250,250,0,,,,,,,,,,,,,,,,
19604,1625578028414,,,,,,,,-0.23,-0.03,1.42,0,6,7,0.24,,60,5295,7,26,45,0.647,0.0,623,4.8,13.3,0.0,1,29.5,1.5,6.5,0,0,0,1,0,0,250,250,0,,,,,,,,,,,,,,,,
19624,1625578028434,,,,,,,,-0.13,0.04,1.63,0,-2,0,0.14,,60,5108,7,26,46,0.648,0.0,621,4.78,13.4,0.0,1,29.4,1.61,6.5,0,0,0,1,0,0,250,250,0,,,,,,,,,,,,,,,,
19644,1625578028454,4,3,43,45,35,33,0,-0.12,-0.0,1.5,0,1,2,0.12,0,60,4965,7,26,47,0.649,0.0,607,4.8,13.4,0.0,1,29.1,1.66,6.5,0,0,0,1,0,0,250,250,0,52.957336,6.522213,0.0,36.8,8,2,1.9,0,0.0,-1,0.0,0.0,0.0,0,0.0,0.3274
19664,1625578028474,,,,,,,,-0.15,0.02,1.61,0,3,5,0.15,,60,4833,7,26,47,0.649,0.0,610,4.8,13.4,0.0,1,27.5,1.59,6.5,0,0,0,1,0,0,250,250,0,,,,,,,,,,,,,,,,
19684,1625578028492,,,,,,,,-0.21,0.03,1.81,0,3,4,0.21,,61,4750,7,26,48,0.651,0.0,597,4.8,13.2,0.0,1,26.8,2.7,6.5,0,0,0,1,0,0,250,250,0,,,,,,,,,,,,,,,,
19704,1625578028512,,,,,,,,-0.23,0.06,2.0,0,2,2,0.24,,61,4657,7,26,48,0.652,0.0,590,4.81,13.3,0.0,1,25.7,2.64,6.5,0,0,0,1,0,0,250,250,0,,,,,,,,,,,,,,,,
19724,1625578028532,,,,,,,,-0.23,0.07,2.16,0,1,1,0.24,,61,4533,7,26,49,0.654,0.0,582,4.78,13.4,0.0,1,24.4,2.58,5.6,0,0,0,1,0,0,250,250,0,,,,,,,,,,,,,,,,
19744,1625578028552,3,3,43,45,35,33,0,-0.21,0.08,2.31,0,-1,-1,0.23,0,61,4556,7,26,49,0.654,0.0,567,4.75,13.2,0.0,1,24.7,2.6,5.6,0,0,0,1,0,0,250,250,0,52.957336,6.522213,0.0,36.8,8,2,1.9,0,0.0,-1,0.0,,0.0,0,0.0,0.3291
19764,1625578028572,,,,,,,,-0.2,0.08,2.45,-0,-2,-2,0.21,,61,4478,7,26,49,0.655,0.0,570,4.81,13.2,0.0,1,23.8,2.55,5.6,0,0,0,1,0,0,250,250,0,,,,,,,,,,,,,,,,
19784,1625578028592,,,,,,,,-0.21,0.06,2.58,-0,-3,-3,0.22,,61,4346,7,26,50,0.655,0.0,550,4.73,13.3,0.0,1,22.5,1.33,5.6,0,0,0,1,0,0,250,250,0,,,,,,,,,,,,,,,,
19804,1625578028612,,,,,,,,-0.25,0.05,2.69,-0,-2,-3,0.26,,61,4341,7,26,51,0.655,0.0,543,4.78,13.1,0.0,1,22.6,2.48,5.6,0,0,0,1,0,0,250,250,0,,,,,,,,,,,,,,,,
19824,1625578028632,,,,,,,,-0.29,0.05,2.62,-0,-2,-2,0.29,,61,4294,7,26,51,0.655,0.0,542,4.88,13.4,0.0,1,22.1,1.28,4.9,0,0,0,1,0,0,250,250,0,,,,,,,,,,,,,,,,
19844,1625578028652,3,3,43,45,35,33,-0,-0.29,0.02,2.4,0,-1,-1,0.29,0,61,4243,7,26,52,0.653,0.0,516,4.88,13.5,0.0,1,21.7,2.41,4.9,0,0,0,1,0,0,250,250,0,52.957336,6.522213,0.0,36.8,8,2,1.9,0,0.0,-1,0.0,0.0,0.0,0,0.0,0.3307
19864,1625578028672,,,,,,,,-0.24,-0.01,2.2,0,-0,-1,0.24,,61,4263,7,26,52,0.653,0.0,528,4.83,13.5,0.0,1,21.9,2.42,4.9,0,0,0,1,0,0,250,250,0,,,,,,,,,,,,,,,,
19884,1625578028692,,,,,,,,-0.16,-0.02,2.02,0,-1,-1,0.16,,61,4190,7,26,53,0.653,0.0,506,4.83,13.4,0.0,1,21.3,2.37,4.9,0,0,0,1,0,0,250,250,0,,,,,,,,,,,,,,,,
19904,1625578028712,,,,,,,,-0.14,0.03,2.19,0,-1,-2,0.15,,61,4184,7,26,53,0.654,0.0,514,4.83,13.4,0.0,1,21.3,2.37,4.9,0,0,0,1,0,0,250,250,0,,,,,,,,,,,,,,,,
19924,1625578028732,,,,,,,,-0.18,0.04,2.34,0,-1,-2,0.19,,61,4218,7,26,53,0.654,0.0,492,4.83,13.3,0.0,1,21.7,2.39,4.6,0,0,0,1,0,0,250,250,0,,,,,,,,,,,,,,,,
19944,1625578028752,3,3,43,45,35,33,-0,-0.21,0.04,2.14,0,0,-1,0.22,0,61,4252,7,26,54,0.653,0.0,515,4.83,13.4,0.0,1,22.4,2.41,4.6,0,0,0,1,0,0,250,250,0,52.957336,6.522213,0.0,36.8,8,2,1.9,0,0.0,-1,0.0,,0.0,0,0.0,0.3324
19964,1625578028772,,,,,,,,-0.18,0.02,1.96,0,1,0,0.18,,61,4152,7,26,54,0.652,0.0,507,4.86,13.5,0.0,1,21.2,2.33,4.6,0,0,0,1,0,0,250,250,0,,,,,,,,,,,,,,,,
19984,1625578028792,,,,,,,,-0.13,0.03,1.83,0,0,-1,0.13,,61,4150,7,26,54,0.651,0.0,496,4.82,13.5,0.0,1,21.1,1.18,4.6,0,0,0,1,0,0,250,250,0,,,,,,,,,,,,,,,,
20004,1625578028812,,,,,,,,-0.12,0.04,2.01,0,-1,-2,0.13,,61,4220,7,26,54,0.651,0.0,507,4.79,13.1,0.0,1,22.0,2.38,4.6,0,0,0,1,0,0,250,250,0,,,,,,,,,,,,,,,,
20024,1625578028832,,,,,,,,-0.16,0.03,2.11,0,-1,-2,0.16,,61,4161,7,26,55,0.651,0.0,498,4.78,13.2,0.0,1,21.5,1.21,4.6,0,0,0,1,0,0,250,250,0,,,,,,,,,,,,,,,,
20044,1625578028852,2,3,43,45,35,33,1,-0.16,0.0,1.93,0,-1,-1,0.16,0,61,4182,7,26,55,0.651,0.0,504,4.85,13.4,0.0,1,21.7,1.23,4.6,0,0,0,1,0,0,250,250,0,52.957336,6.522213,0.0,36.8,8,2,1.9,0,0.0,-1,0.0,0.0,0.0,0,0.0,0.3341
20064,1625578028872,,,,,,,,-0.1,-0.03,1.77,0,-0,-0,0.1,,61,4269,7,26,55,0.652,0.0,498,4.82,13.4,0.0,1,22.8,1.29,4.6,0,0,0,1,0,0,250,250,0,,,,,,,,,,,,,,,,
20084,1625578028892,,,,,,,,-0.03,-0.02,1.66,0,-1,-1,0.04,,61,4230,7,26,55,0.652,0.0,520,4.81,13.4,0.0,1,22.3,2.41,4.6,0,0,0,1,0,0,250,250,0,,,,,,,,,,,,,,,,
20104,1625578028912,,,,,,,,-0.03,-0.01,1.86,0,-1,-2,0.03,,61,4239,7,26,56,0.652,0.0,506,4.78,13.2,0.0,1,22.7,2.44,4.6,0,0,0,1,0,0,250,250,0,,,,,,,,,,,,,,,,
20124,1625578028932,,,,,,,,-0.07,0.01,2.04,0,-2,-3,0.07,,61,4316,7,26,56,0.652,0.0,527,4.75,13.2,0.0,1,23.7,2.49,4.9,0,0,0,1,0,0,250,250,0,,,,,,,,,,,,,,,,
20144,1625578028952,4,1,43,45,34,33,1,-0.13,0.01,2.1,0,-1,-2,0.13,0,61,4294,7,26,56,0.651,0.0,530,4.8,13.1,0.0,1,23.4,1.33,4.9,0,0,0,1,0,0,250,250,0,52.957336,6.522213,0.0,36.8,8,2,1.9,0,0.0,-1,0.0,,0.0,0,0.0,0.3357
20164,1625578028972,,,,,,,,-0.16,-0.01,1.92,0,-0,-1,0.16,,61,4311,7,26,56,0.651,0.0,524,4.85,13.3,0.0,1,24.1,2.51,4.9,0,0,0,1,0,0,250,250,0,,,,,,,,,,,,,,,,
20184,1625578028992,,,,,,,,-0.16,-0.03,1.76,0,1,1,0.17,,61,4381,7,26,57,0.65,0.0,531,4.81,13.5,0.0,1,24.7,2.55,4.9,0,0,0,1,0,0,250,250,0,,,,,,,,,,,,,,,,
20204,1625578029004,,,,,,,,-0.12,-0.07,1.62,0,2,2,0.14,,61,4345,7,26,57,0.65,0.0,525,4.83,13.4,0.0,1,24.3,2.52,4.9,0,0,0,1,0,0,250,250,0,,,,,,,,,,,,,,,,
20224,1625578029024,,,,,,,,-0.04,-0.09,1.48,0,2,2,0.1,,61,4377,7,26,57,0.65,0.0,538,4.83,13.5,0.0,1,24.7,2.54,5.0,0,0,0,1,0,0,250,250,0,,,,,,,,,,,,,,,,
20244,1625578029044,2,3,43,45,35,33,0,0.04,-0.09,1.36,0,1,2,0.1,0,61,4447,7,26,57,0.651,0.0,535,4.85,13.5,0.0,1,25.6,1.43,5.0,0,0,0,1,0,0,250,250,0,52.957333,6.52228,0.0,4.1,9,2,1.8,0,0.0,-1,0.0,0.0,0.0,0,0.0,0.3374
20264,1625578029064,,,,,,,,0.1,-0.07,1.24,0,1,2,0.12,,61,4369,7,26,57,0.652,0.0,548,4.85,13.4,0.0,1,24.6,1.39,5.0,0,0,0,1,0,0,250,250,0,,,,,,,,,,,,,,,,
20284,1625578029094,,,,,,,,0.15,-0.06,1.31,0,-1,0,0.16,,61,4449,7,26,57,0.652,0.0,543,4.82,13.4,0.0,1,25.6,2.58,5.0,0,0,0,1,0,0,250,250,0,,,,,,,,,,,,,,,,
20304,1625578029114,,,,,,,,0.19,-0.06,1.34,0,-2,-1,0.2,,61,4480,7,26,57,0.652,0.0,547,4.86,13.5,0.0,1,26.0,2.6,5.0,0,0,0,1,0,0,250,250,0,,,,,,,,,,,,,,,,
20324,1625578029134,,,,,,,,0.21,-0.04,1.48,0,-2,-2,0.22,,61,4443,7,26,57,0.652,0.0,554,4.8,13.4,0.0,1,25.6,1.43,5.3,0,0,0,1,0,0,250,250,0,,,,,,,,,,,,,,,,
20344,1625578029154,4,2,43,45,34,33,0,0.24,-0.03,1.61,0,-4,-3,0.24,0,61,4558,7,26,57,0.652,0.0,548,4.81,13.5,0.0,1,27.0,2.65,5.3,0,0,0,1,0,0,250,250,0,52.957333,6.52228,0.0,4.1,9,2,1.8,0,0.0,-1,0.0,,0.0,0,0.0,0.3391
20364,1625578029174,,,,,,,,0.27,-0.05,1.58,0,-4,-4,0.28,,61,4511,7,26,57,0.651,0.0,562,4.8,13.4,0.0,1,26.4,2.62,5.3,0,0,0,1,0,0,250,250,0,,,,,,,,,,,,,,,,
20384,1625578029193,,,,,,,,0.32,-0.06,1.57,-0,-5,-5,0.33,,61,4582,7,26,57,0.651,0.0,558,4.82,13.4,0.0,1,27.3,2.66,5.3,0,0,0,1,0,0,250,250,0,,,,,,,,,,,,,,,,
20404,1625578029213,,,,,,,,0.36,-0.09,1.43,0,-4,-4,0.37,,61,4625,7,26,57,0.651,0.0,566,4.84,13.5,0.0,1,27.9,1.54,5.3,0,0,0,1,0,0,250,250,0,,,,,,,,,,,,,,,,
20424,1625578029233,,,,,,,,0.4,-0.12,1.31,0,-3,-3,0.42,,61,4613,7,26,57,0.65,0.0,571,4.77,13.5,0.0,1,27.7,1.53,5.7,0,0,0,1,0,0,250,250,0,,,,,,,,,,,,,,,,
20444,1625578029253,3,1,43,45,34,33,-0,0.39,-0.13,1.2,0,-0,1,0.41,0,61,4713,8,26,57,0.65,0.0,568,4.82,13.4,0.0,1,29.0,2.74,5.7,0,0,0,1,0,0,250,250,0,52.957333,6.52228,0.0,4.1,9,2,1.8,0,0.0,-1,0.0,0.0,0.0,0,0.0,0.3407
20464,1625578029273,,,,,,,,0.32,-0.11,1.1,0,2,3,0.34,,61,4698,8,26,57,0.65,0.0,579,4.8,13.2,0.0,1,28.7,2.73,5.7,0,0,0,1,0,0,250,250,0,,,,,,,,,,,,,,,,
20484,1625578029291,,,,,,,,0.23,-0.1,1.27,0,2,2,0.25,,61,4734,8,26,57,0.651,0.0,577,4.78,13.2,0.0,1,29.3,1.6,5.7,0,0,0,1,0,0,250,250,0,,,,,,,,,,,,,,,,
20504,1625578029311,,,,,,,,0.17,-0.07,1.5,0,-1,-1,0.18,,61,4733,8,26,57,0.651,0.0,582,4.82,13.2,0.0,1,29.3,2.75,5.7,0,0,0,1,0,0,250,250,0,,,,,,,,,,,,,,,,
20524,1625578029331,,,,,,,,0.14,-0.03,1.71,0,-3,-2,0.14,,61,4660,8,26,57,0.651,0.0,586,4.8,13.4,0.0,1,28.3,2.7,5.9,0,0,0,1,0,0,250,250,0,,,,,,,,,,,,,,,,
20544,1625578029351,2,3,43,45,35,33,-0,0.19,-0.05,1.89,0,-4,-4,0.19,0,61,4708,7,26,57,0.652,0.0,576,4.82,13.5,0.0,1,28.9,2.73,5.9,0,0,0,1,0,0,250,250,0,52.957333,6.52228,0.0,4.1,9,2,1.8,0,0.0,-1,0.0,,0.0,0,0.0,0.3424
20564,1625578029371,,,,,,,,0.22,-0.06,1.73,0,-3,-3,0.23,,61,4653,7,26,57,0.651,0.0,577,4.81,13.5,0.0,1,28.2,1.55,5.9,0,0,0,1,0,0,250,250,0,,,,,,,,,,,,,,,,
20584,1625578029391,,,,,,,,0.19,-0.04,1.59,0,-1,-1,0.2,,61,4657,8,26,57,0.653,0.0,575,4.78,13.4,0.0,1,28.3,2.7,5.9,0,0,0,1,0,0,250,250,0,,,,,,,,,,,,,,,,
20604,1625578029411,,,,,,,,0.14,-0.03,1.45,0,1,2,0.14,,61,4715,8,26,57,0.654,0.0,573,4.78,13.3,0.0,1,29.0,1.59,5.9,0,0,0,1,0,0,250,250,0,,,,,,,,,,,,,,,,
20624,1625578029431,,,,,,,,0.05,-0.02,1.67,0,2,4,0.06,,61,4666,8,26,57,0.655,0.0,581,4.78,13.4,0.0,1,28.4,1.55,5.8,0,0,0,1,0,0,250,250,0,,,,,,,,,,,,,,,,
20644,1625578029451,4,2,43,45,35,33,-1,-0.01,-0.0,1.86,0,3,3,0.01,0,61,4696,8,26,57,0.657,0.0,576,4.81,13.1,0.0,1,28.8,1.58,5.8,0,0,0,1,0,0,250,250,0,52.957333,6.52228,0.0,4.1,9,2,1.8,0,0.0,-1,0.0,0.0,0.0,0,0.0,0.3441
20664,1625578029471,,,,,,,,-0.02,0.06,2.04,0,0,1,0.06,,61,4709,7,26,57,0.658,0.0,581,4.83,13.3,0.0,1,28.9,2.74,5.8,0,0,0,1,0,0,250,250,0,,,,,,,,,,,,,,,,
20684,1625578029491,,,,,,,,0.04,0.05,2.01,0,-2,-2,0.06,,61,4737,7,26,56,0.658,0.0,589,4.82,13.4,0.0,1,29.0,1.61,5.8,0,0,0,1,0,0,250,250,0,,,,,,,,,,,,,,,,
20704,1625578029511,,,,,,,,0.1,-0.02,1.84,0,-3,-3,0.1,,61,4722,7,26,57,0.659,0.0,581,4.81,13.4,0.0,1,29.1,2.74,5.8,0,0,0,1,0,0,250,250,0,,,,,,,,,,,,,,,,
20724,1625578029531,,,,,,,,0.12,-0.05,1.69,0,-2,-1,0.13,,61,4709,8,26,57,0.659,0.0,582,4.83,13.4,0.0,1,28.9,2.74,5.9,0,0,0,1,0,0,250,250,0,,,,,,,,,,,,,,,,
20744,1625578029551,3,3,43,45,35,33,0,0.09,-0.04,1.55,0,0,1,0.1,0,61,4682,8,26,57,0.66,0.0,577,4.78,13.4,0.0,1,28.6,1.57,5.9,0,0,0,1,0,0,250,250,0,52.957333,6.52228,0.0,4.1,9,2,1.8,0,0.0,-1,0.0,,0.0,0,0.0,0.3457
20764,1625578029571,,,,,,,,0.03,-0.03,1.5,0,2,3,0.04,,61,4663,7,26,57,0.66,0.0,575,4.76,13.4,0.0,1,28.3,1.55,5.9,0,0,0,1,0,0,250,250,0,,,,,,,,,,,,,,,,
20784,1625578029591,,,,,,,,-0.05,-0.02,1.71,0,3,4,0.06,,61,4709,8,26,57,0.66,0.0,586,4.78,13.3,0.0,1,28.9,2.74,5.9,0,0,0,1,0,0,250,250,0,,,,,,,,,,,,,,,,
20804,1625578029611,,,,,,,,-0.09,0.01,1.9,0,1,1,0.09,,61,4731,7,26,57,0.66,0.0,582,4.85,13.3,0.0,1,29.2,2.75,5.9,0,0,0,1,0,0,250,250,0,,,,,,,,,,,,,,,,
20824,1625578029631,,,,,,,,-0.06,0.01,2.07,0,-0,-1,0.06,,61,4716,8,26,57,0.659,0.0,584,4.85,13.3,0.0,1,29.0,2.74,5.9,0,0,0,1,0,0,250,250,0,,,,,,,,,,,,,,,,
20844,1625578029651,3,4,43,45,35,33,0,0.01,-0.03,1.9,0,-2,-2,0.03,0,61,4721,8,26,57,0.659,0.0,583,4.8,13.4,0.0,1,29.1,2.74,5.9,0,0,0,1,0,0,250,250,0,52.957333,6.52228,0.0,4.1,9,2,1.8,0,0.0,-1,0.0,0.0,0.0,0,0.0,0.3474
20864,1625578029671,,,,,,,,0.07,-0.06,1.74,0,-1,-1,0.1,,61,4701,7,26,57,0.657,0.0,578,4.83,13.5,0.0,1,28.8,1.58,5.9,0,0,0,1,0,0,250,250,0,,,,,,,,,,,,,,,,
20884,1625578029691,,,,,,,,0.09,-0.08,1.6,0,-0,0,0.13,,61,4644,7,26,57,0.656,0.0,582,4.82,13.4,0.0,1,28.1,2.69,5.9,0,0,0,1,0,0,250,250,0,,,,,,,,,,,,,,,,
20904,1625578029711,,,,,,,,0.06,-0.07,1.46,0,1,3,0.09,,61,4705,8,26,57,0.655,0.0,575,4.82,13.4,0.0,1,28.9,1.58,5.9,0,0,0,1,0,0,250,250,0,,,,,,,,,,,,,,,,
20924,1625578029731,,,,,,,,-0.01,-0.06,1.67,0,2,4,0.06,,61,4686,8,26,57,0.655,0.0,578,4.79,13.4,0.0,1,28.2,2.7,5.9,0,0,0,1,0,0,250,250,0,,,,,,,,,,,,,,,,
20944,1625578029751,3,3,43,45,35,33,0,-0.08,-0.04,1.87,0,2,3,0.09,0,61,4694,8,26,57,0.654,0.0,581,4.79,13.1,0.0,1,28.7,1.57,5.9,0,0,0,1,0,0,250,250,0,52.957333,6.52228,0.0,4.1,9,2,1.8,0,0.0,-1,0.0,,0.0,0,0.0,0.3491
20964,1625578029771,,,,,,,,-0.09,-0.0,2.04,0,-0,0,0.09,,61,4725,7,26,57,0.654,0.0,579,4.82,13.1,0.0,1,29.1,1.6,5.9,0,0,0,1,0,0,250,250,0,,,,,,,,,,,,,,,,
20984,1625578029791,,,,,,,,-0.05,0.0,1.98,0,-2,-1,0.05,,61,4683,8,26,57,0.654,0.0,582,4.81,13.4,0.0,1,28.6,2.72,5.9,0,0,0,1,0,0,250,250,0,,,,,,,,,,,,,,,,
21004,1625578029811,,,,,,,,0.02,-0.06,1.82,0,-2,-2,0.07,,61,4742,7,26,57,0.654,0.0,578,4.82,13.5,0.0,1,29.4,2.76,5.9,0,0,0,1,0,0,250,250,0,,,,,,,,,,,,,,,,
21024,1625578029831,,,,,,,,0.07,-0.08,1.67,0,-0,0,0.1,,61,4712,7,26,57,0.655,0.0,578,4.81,13.5,0.0,1,29.0,1.59,5.9,0,0,0,1,0,0,250,250,0,,,,,,,,,,,,,,,,
21044,1625578029851,2,1,43,45,34,33,0,0.05,-0.06,1.53,0,1,2,0.08,0,61,4691,8,26,57,0.655,0.0,586,4.82,13.5,0.0,1,28.7,2.72,5.9,0,0,0,1,0,0,250,250,0,52.957333,6.52228,0.0,4.1,9,2,1.8,0,0.0,-1,0.0,0.0,0.0,0,0.0,0.3507
21064,1625578029871,,,,,,,,-0.0,-0.04,1.63,0,2,4,0.04,,61,4737,8,26,57,0.656,0.0,583,4.78,13.2,0.0,1,29.1,2.76,5.9,0,0,0,1,0,0,250,250,0,,,,,,,,,,,,,,,,
21084,1625578029891,,,,,,,,-0.07,-0.01,1.83,0,2,3,0.07,,61,4672,8,26,57,0.657,0.0,582,4.8,13.2,0.0,1,28.5,1.56,5.9,0,0,0,1,0,0,250,250,0,,,,,,,,,,,,,,,,
21104,1625578029911,,,,,,,,-0.1,0.02,2.01,0,0,1,0.1,,61,4713,8,26,57,0.657,0.0,582,4.82,13.3,0.0,1,29.0,1.59,5.9,0,0,0,1,0,0,250,250,0,,,,,,,,,,,,,,,,
21124,1625578029931,,,,,,,,-0.08,0.03,2.14,0,-1,-1,0.09,,61,4671,7,26,57,0.658,0.0,580,4.81,13.3,0.0,1,28.4,2.71,5.9,0,0,0,1,0,0,250,250,0,,,,,,,,,,,,,,,,
21144,1625578029951,2,2,43,45,34,33,0,-0.02,0.01,2.03,0,-2,-2,0.03,0,61,4668,7,26,57,0.659,0.0,582,4.82,13.5,0.0,1,28.4,2.71,5.9,0,0,0,1,0,0,250,250,0,52.957333,6.52228,0.0,4.1,9,2,1.8,0,0.0,-1,0.0,,0.0,0,0.0,0.3524
21164,1625578029971,,,,,,,,0.05,-0.06,1.86,0,-1,-2,0.08,,61,4770,7,26,57,0.66,0.0,583,4.8,13.4,0.0,1,29.7,2.78,5.9,0,0,0,1,0,0,250,250,0,,,,,,,,,,,,,,,,
21184,1625578029991,,,,,,,,0.08,-0.08,1.71,0,0,0,0.11,,61,4689,8,26,57,0.661,0.0,578,4.81,13.4,0.0,1,28.7,2.72,5.9,0,0,0,1,0,0,250,250,0,,,,,,,,,,,,,,,,
21204,1625578030004,,,,,,,,0.03,-0.06,1.56,0,2,3,0.07,,61,4756,8,26,57,0.661,0.0,586,4.79,13.3,0.0,1,29.8,2.77,5.9,0,0,0,1,0,0,250,250,0,,,,,,,,,,,,,,,,
21224,1625578030024,,,,,,,,-0.03,-0.06,1.77,0,1,2,0.07,,61,4721,8,26,57,0.663,0.0,583,4.8,13.3,0.0,1,29.1,1.59,6.1,0,0,0,1,0,0,250,250,0,,,,,,,,,,,,,,,,
21244,1625578030044,1,2,43,45,34,33,0,-0.08,-0.02,1.95,0,0,0,0.08,0,61,4692,8,26,57,0.662,0.0,585,4.81,13.1,0.0,1,28.7,2.72,6.1,0,0,0,1,0,0,250,250,0,52.957333,6.52228,0.0,4.1,9,2,1.9,0,0.0,-1,0.0,0.0,0.0,0,0.0,0.3541
21264,1625578030064,,,,,,,,-0.08,0.03,2.12,0,-2,-2,0.08,,61,4719,8,26,57,0.662,0.0,583,4.81,13.3,0.0,1,29.1,2.74,6.1,0,0,0,1,0,0,250,250,0,,,,,,,,,,,,,,,,
21284,1625578030093,,,,,,,,-0.02,-0.01,1.95,0,-2,-3,0.02,,61,4672,7,26,57,0.661,0.0,575,4.8,13.5,0.0,1,28.5,2.71,6.1,0,0,0,1,0,0,250,250,0,,,,,,,,,,,,,,,,
21304,1625578030113,,,,,,,,0.06,-0.05,1.78,0,-2,-2,0.08,,61,4689,7,26,57,0.661,0.0,585,4.81,13.4,0.0,1,28.7,1.57,6.1,0,0,0,1,0,0,250,250,0,,,,,,,,,,,,,,,,
21324,1625578030133,,,,,,,,0.1,-0.06,1.63,0,-1,-1,0.12,,61,4658,8,26,57,0.66,0.0,577,4.82,13.5,0.0,1,28.3,2.7,5.9,0,0,0,1,0,0,250,250,0,,,,,,,,,,,,,,,,
21344,1625578030153,1,3,43,45,35,33,0,0.11,-0.07,1.5,0,-0,1,0.13,0,61,4660,8,26,57,0.659,0.0,575,4.8,13.4,0.0,1,28.3,1.55,5.9,0,0,0,1,0,0,250,250,0,52.957333,6.52228,0.0,4.1,9,2,1.9,0,0.0,-1,0.0,,0.0,0,0.0,0.3557
21364,1625578030173,,,,,,,,0.06,-0.05,1.37,0,1,3,0.08,,61,4669,8,26,57,0.659,0.0,581,4.81,13.4,0.0,1,28.4,1.56,5.9,0,0,0,1,0,0,250,250,0,,,,,,,,,,,,,,,,
21384,1625578030192,,,,,,,,-0.02,-0.05,1.52,0,2,3,0.05,,61,4665,8,26,57,0.657,0.0,570,4.84,13.2,0.0,1,28.4,2.69,5.9,0,0,0,1,0,0,250,250,0,,,,,,,,,,,,,,,,
21404,1625578030212,,,,,,,,-0.08,-0.03,1.73,0,1,2,0.09,,61,4714,8,26,57,0.656,0.0,582,4.82,13.2,0.0,1,29.0,1.59,5.9,0,0,0,1,0,0,250,250,0,,,,,,,,,,,,,,,,
21424,1625578030232,,,,,,,,-0.1,0.01,1.92,0,-0,-1,0.1,,61,4689,8,26,56,0.656,0.0,582,4.81,13.4,0.0,1,28.4,2.72,5.9,0,0,0,1,0,0,250,250,0,,,,,,,,,,,,,,,,
21444,1625578030252,2,1,43,45,34,33,-1,-0.08,0.03,1.96,0,-1,-2,0.08,0,61,4669,8,26,57,0.655,0.0,577,4.82,13.4,0.0,1,28.4,1.56,5.9,0,0,0,1,0,0,250,250,0,52.957333,6.52228,0.0,4.1,9,2,1.9,0,0.0,-1,0.0,0.0,0.0,0,0.0,0.3574
21464,1625578030272,,,,,,,,0.0,-0.04,1.8,0,-1,-2,0.04,,61,4714,8,26,57,0.655,0.0,582,4.85,13.5,0.0,1,29.0,2.74,5.9,0,0,0,1,0,0,250,250,0,,,,,,,,,,,,,,,,
21484,1625578030292,,,,,,,,0.07,-0.06,1.65,0,-1,-1,0.09,,61,4693,8,26,57,0.654,0.0,575,4.85,13.5,0.0,1,28.7,2.72,5.9,0,0,0,1,0,0,250,250,0,,,,,,,,,,,,,,,,
21504,1625578030312,,,,,,,,0.07,-0.05,1.51,0,1,1,0.09,,61,4696,8,26,57,0.655,0.0,581,4.85,13.5,0.0,1,28.8,2.73,5.9,0,0,0,1,0,0,250,250,0,,,,,,,,,,,,,,,,
21524,1625578030332,,,,,,,,0.05,-0.03,1.38,0,1,3,0.06,,61,4669,8,26,57,0.655,0.0,578,4.82,13.3,0.0,1,28.4,1.56,5.8,0,0,0,1,0,0,250,250,0,,,,,,,,,,,,,,,,
21544,1625578030352,3,3,43,45,34,33,-0,-0.02,-0.02,1.5,0,2,3,0.02,0,61,4659,8,26,57,0.655,0.0,570,4.8,13.3,0.0,1,28.3,2.7,5.8,0,0,0,1,0,0,250,250,0,52.957333,6.52228,0.0,4.1,9,2,1.9,0,0.0,-1,0.0,,0.0,0,0.0,0.3591
21564,1625578030372,,,,,,,,-0.08,-0.0,1.71,0,1,2,0.08,,61,4702,8,26,57,0.656,0.0,587,4.81,13.2,0.0,1,28.8,2.73,5.8,0,0,0,1,0,0,250,250,0,,,,,,,,,,,,,,,,
21584,1625578030392,,,,,,,,-0.12,0.04,1.9,0,-0,-0,0.13,,61,4663,8,26,57,0.656,0.0,582,4.84,13.2,0.0,1,28.3,1.55,5.8,0,0,0,1,0,0,250,250,0,,,,,,,,,,,,,,,,
21604,1625578030412,,,,,,,,-0.09,0.06,2.06,0,-1,-2,0.11,,61,4671,8,26,57,0.658,0.0,576,4.79,13.4,0.0,1,28.4,2.71,5.8,0,0,0,1,0,0,250,250,0,,,,,,,,,,,,,,,,
21624,1625578030432,,,,,,,,-0.04,0.04,1.89,0,-1,-2,0.06,,61,4660,8,26,57,0.658,0.0,579,4.82,13.5,0.0,1,28.3,2.7,5.9,0,0,0,1,0,0,250,250,0,,,,,,,,,,,,,,,,
21644,1625578030452,1,3,43,45,34,33,-0,0.05,0.0,1.73,0,-1,-2,0.05,0,61,4663,8,26,57,0.659,0.0,569,4.84,13.5,0.0,1,28.3,2.7,5.9,0,0,0,1,0,0,250,250,0,52.957333,6.52228,0.0,4.1,9,2,1.9,0,0.0,-1,0.0,0.0,0.0,0,0.0,0.3607
21664,1625578030472,,,,,,,,0.1,-0.01,1.59,0,-0,-0,0.1,,61,4687,8,26,57,0.658,0.0,578,4.82,13.4,0.0,1,28.6,2.72,5.9,0,0,0,1,0,0,250,250,0,,,,,,,,,,,,,,,,
21684,1625578030492,,,,,,,,0.08,0.01,1.45,0,1,2,0.09,,61,4691,8,26,57,0.659,0.0,578,4.82,13.4,0.0,1,28.7,2.72,5.9,0,0,0,1,0,0,250,250,0,,,,,,,,,,,,,,,,
21704,1625578030512,,,,,,,,0.04,0.02,1.51,0,1,3,0.04,,61,4703,8,26,57,0.659,0.0,576,4.8,13.2,0.0,1,28.9,1.58,5.9,0,0,0,1,0,0,250,250,0,,,,,,,,,,,,,,,,
21724,1625578030532,,,,,,,,-0.03,0.03,1.72,0,1,2,0.05,,61,4657,8,26,57,0.658,0.0,585,4.82,13.2,0.0,1,28.3,1.55,5.9,0,0,0,1,0,0,250,250,0,,,,,,,,,,,,,,,,
21744,1625578030552,3,3,43,45,35,33,-1,-0.09,0.06,1.91,0,0,-0,0.11,0,61,4666,8,26,57,0.658,0.0,575,4.8,13.3,0.0,1,28.4,2.7,5.9,0,0,0,1,0,0,250,250,0,52.957333,6.52228,0.0,4.1,9,2,1.9,0,0.0,-1,0.0,,0.0,0,0.0,0.3624
21764,1625578030572,,,,,,,,-0.13,0.08,2.08,0,-1,-2,0.15,,61,4603,8,26,57,0.658,0.0,576,4.82,13.2,0.0,1,27.6,1.52,5.9,0,0,0,1,0,0,250,250,0,,,,,,,,,,,,,,,,
21784,1625578030594,,,,,,,,-0.11,0.11,2.24,0,-2,-3,0.15,,61,4649,8,26,57,0.658,0.0,571,4.81,13.5,0.0,1,28.2,2.7,5.9,0,0,0,1,0,0,250,250,0,,,,,,,,,,,,,,,,
21804,1625578030614,,,,,,,,-0.06,0.08,2.06,0,-2,-3,0.09,,61,4671,8,26,57,0.658,0.0,570,4.83,13.5,0.0,1,28.4,2.71,5.9,0,0,0,1,0,0,250,250,0,,,,,,,,,,,,,,,,
21824,1625578030634,,,,,,,,0.03,0.01,1.89,0,-2,-3,0.03,,61,4664,8,26,57,0.659,0.0,580,4.81,13.5,0.0,1,28.4,1.55,5.8,0,0,0,1,0,0,250,250,0,,,,,,,,,,,,,,,,
21844,1625578030654,3,1,43,45,35,33,-0,0.08,0.0,1.73,0,-1,-1,0.08,0,61,4679,8,26,57,0.658,0.0,572,4.8,13.4,0.0,1,28.5,1.56,5.8,0,0,0,1,0,0,250,250,0,52.957333,6.52228,0.0,4.1,9,2,1.9,0,0.0,-1,0.0,0.0,0.0,0,0.0,0.3641
21864,1625578030674,,,,,,,,0.09,0.0,1.58,0,0,1,0.09,,61,4659,8,26,57,0.659,0.0,573,4.83,13.5,0.0,1,28.3,2.7,5.8,0,0,0,1,0,0,250,250,0,,,,,,,,,,,,,,,,
21884,1625578030694,,,,,,,,0.07,0.02,1.45,0,1,2,0.07,,61,4647,8,26,57,0.659,0.0,574,4.8,13.4,0.0,1,28.1,1.54,5.8,0,0,0,1,0,0,250,250,0,,,,,,,,,,,,,,,,
21904,1625578030714,,,,,,,,0.0,0.03,1.55,0,1,3,0.03,,61,4674,8,26,57,0.66,0.0,570,4.83,13.2,0.0,1,28.5,1.56,5.8,0,0,0,1,0,0,250,250,0,,,,,,,,,,,,,,,,
21924,1625578030734,,,,,,,,-0.07,0.04,1.75,0,1,1,0.08,,61,4666,8,26,57,0.66,0.0,582,4.82,13.3,0.0,1,28.4,2.7,5.9,0,0,0,1,0,0,250,250,0,,,,,,,,,,,,,,,,
21944,1625578030754,2,3,43,45,35,33,-0,-0.12,0.08,1.94,0,-1,-1,0.14,0,61,4660,8,26,57,0.661,0.0,579,4.82,13.4,0.0,1,28.3,2.7,5.9,0,0,0,1,0,0,250,250,0,52.957333,6.52228,0.0,4.1,9,2,1.9,0,0.0,-1,0.0,,0.0,0,0.0,0.3657
21964,1625578030774,,,,,,,,-0.1,0.11,2.11,0,-2,-3,0.14,,61,4693,8,26,57,0.661,0.0,576,4.82,13.5,0.0,1,28.7,2.72,5.9,0,0,0,1,0,0,250,250,0,,,,,,,,,,,,,,,,
21984,1625578030794,,,,,,,,-0.04,0.08,1.94,0,-2,-3,0.09,,61,4705,8,26,57,0.661,0.0,583,4.81,13.4,0.0,1,28.9,2.73,5.9,0,0,0,1,0,0,250,250,0,,,,,,,,,,,,,,,,
22004,1625578030814,,,,,,,,0.05,0.01,1.77,0,-1,-2,0.05,,61,4726,8,26,57,0.662,0.0,575,4.84,13.5,0.0,1,29.2,2.75,5.9,0,0,0,1,0,0,250,250,0,,,,,,,,,,,,,,,,
22024,1625578030834,,,,,,,,0.07,0.02,1.63,0,1,1,0.07,,61,4725,8,26,57,0.662,0.0,584,4.82,13.5,0.0,1,29.1,1.6,6.0,0,0,0,1,0,0,250,250,0,,,,,,,,,,,,,,,,
22044,1625578030854,2,3,43,45,35,33,0,0.03,0.03,1.51,0,1,2,0.04,0,61,4695,8,26,57,0.662,0.0,582,4.81,13.4,0.0,1,28.8,1.58,6.0,0,0,0,1,0,0,250,250,0,52.957333,6.52228,0.0,4.1,9,2,1.9,0,0.0,-1,0.0,0.0,0.0,0,0.0,0.3674
22064,1625578030874,,,,,,,,-0.04,0.02,1.71,0,1,1,0.04,,61,4673,8,26,57,0.662,0.0,576,4.82,13.1,0.0,1,28.5,1.56,6.0,0,0,0,1,0,0,250,250,0,,,,,,,,,,,,,,,,
22084,1625578030894,,,,,,,,-0.11,0.05,1.9,0,0,-1,0.12,,61,4688,8,26,57,0.662,0.0,586,4.81,13.3,0.0,1,28.7,2.72,6.0,0,0,0,1,0,0,250,250,0,,,,,,,,,,,,,,,,
22104,1625578030914,,,,,,,,-0.14,0.06,2.08,0,-1,-3,0.15,,61,4673,8,26,57,0.661,0.0,581,4.81,13.3,0.0,1,28.5,2.71,6.0,0,0,0,1,0,0,250,250,0,,,,,,,,,,,,,,,,
22124,1625578030934,,,,,,,,-0.11,0.06,2.16,0,-2,-3,0.12,,61,4668,8,26,57,0.661,0.0,577,4.82,13.5,0.0,1,28.4,1.56,5.8,0,0,0,1,0,0,250,250,0,,,,,,,,,,,,,,,,
22144,1625578030954,2,1,43,45,34,33,-0,-0.04,0.02,1.98,0,-1,-3,0.04,0,61,4701,8,26,57,0.661,0.0,580,4.81,13.4,0.0,1,28.8,2.73,5.8,0,0,0,1,0,0,250,250,0,52.957333,6.52228,0.0,4.1,9,2,1.9,0,0.0,-1,0.0,,0.0,0,0.0,0.3691
22164,1625578030974,,,,,,,,0.04,-0.03,1.81,0,-1,-2,0.05,,61,4659,8,26,57,0.66,0.0,572,4.83,13.5,0.0,1,28.3,2.7,5.8,0,0,0,1,0,0,250,250,0,,,,,,,,,,,,,,,,
22184,1625578030994,,,,,,,,0.08,-0.04,1.66,0,0,1,0.09,,61,4679,8,26,57,0.66,0.0,579,4.78,13.4,0.0,1,28.5,1.56,5.8,0,0,0,1,0,0,250,250,0,,,,,,,,,,,,,,,,
22204,1625578031004,,,,,,,,0.06,-0.02,1.52,0,1,2,0.07,,61,4715,8,26,57,0.66,0.0,578,4.82,13.5,0.0,1,29.0,2.71,5.8,0,0,0,1,0,0,250,250,0,,,,,,,,,,,,,,,,
22224,1625578031024,,,,,,,,0.03,-0.03,1.52,0,1,2,0.04,,61,4585,8,26,57,0.661,0.0,576,4.86,13.5,0.0,1,26.8,1.48,5.7,0,0,0,1,0,0,250,250,0,,,,,,,,,,,,,,,,
22244,1625578031044,2,2,43,45,34,33,-0,-0.01,-0.04,1.4,0,1,3,0.04,0,61,4382,8,26,57,0.662,0.0,566,4.87,13.4,0.0,1,24.8,2.58,5.7,0,0,0,1,0,0,250,250,0,52.957333,6.52228,0.0,4.1,9,2,1.8,0,0.0,-1,0.0,0.0,0.0,0,0.0,0.3707
22264,1625578031064,,,,,,,,0.11,-0.14,1.28,0,2,3,0.18,,61,4279,8,26,58,0.663,0.0,533,4.85,13.4,0.0,1,23.7,2.51,5.7,0,0,0,1,0,0,250,250,0,,,,,,,,,,,,,,,,
22284,1625578031094,,,,,,,,0.03,-0.19,1.17,0,0,1,0.19,,61,4108,8,26,58,0.664,0.0,512,4.81,13.5,0.0,1,21.5,2.42,5.7,0,0,0,1,0,0,250,250,0,,,,,,,,,,,,,,,,
22304,1625578031114,,,,,,,,-0.14,-0.14,1.41,-0,4,-1,0.2,,61,3981,7,26,58,0.664,0.0,479,4.79,13.4,0.0,1,0.0,2.38,5.7,0,0,0,1,0,0,250,250,0,,,,,,,,,,,,,,,,
22324,1625578031134,,,,,,,,-0.13,-0.1,1.62,0,2,-1,0.16,,61,4128,7,26,59,0.662,0.0,493,4.85,13.4,0.0,1,22.0,1.34,4.5,0,0,0,1,0,0,250,250,0,,,,,,,,,,,,,,,,
22344,1625578031154,4,1,43,43,35,33,-0,-0.01,-0.09,1.49,0,2,1,0.09,0,61,4290,7,26,59,0.66,0.0,503,4.82,13.5,0.0,1,24.1,1.38,4.5,0,0,0,1,0,0,250,250,0,52.957333,6.52228,0.0,4.1,9,2,1.8,0,0.0,-1,0.0,,0.0,0,0.0,0.3724
22364,1625578031174,,,,,,,,0.1,-0.12,1.36,-0,1,0,0.16,,61,4244,7,26,59,0.658,0.0,513,4.81,13.5,0.0,1,23.5,2.52,4.5,0,0,0,1,0,0,250,250,0,,,,,,,,,,,,,,,,
22384,1625578031193,,,,,,,,0.16,-0.14,1.25,-0,0,-1,0.21,,61,4394,7,26,59,0.656,0.0,525,4.81,13.5,0.0,1,25.4,2.58,4.5,0,0,0,1,0,0,250,250,0,,,,,,,,,,,,,,,,
22404,1625578031213,,,,,,,,0.05,-0.14,1.18,-0,-1,-1,0.15,,61,4367,7,26,59,0.654,0.0,530,4.8,13.5,0.0,1,25.1,2.57,4.5,0,0,0,1,0,0,250,250,0,,,,,,,,,,,,,,,,
22424,1625578031233,,,,,,,,0.07,-0.12,1.28,-0,-3,-2,0.14,,61,4404,7,26,59,0.653,0.0,543,4.86,13.5,0.0,1,25.5,2.59,5.2,0,0,0,1,0,0,250,250,0,,,,,,,,,,,,,,,,
22444,1625578031253,2,1,43,44,34,33,-0,0.11,-0.13,1.17,-0,-4,-4,0.17,0,61,4454,7,26,59,0.651,0.0,541,4.77,13.4,0.0,1,26.2,1.46,5.2,0,0,0,1,0,0,250,250,0,52.957333,6.52228,0.0,4.1,9,2,1.8,0,0.0,-1,0.0,0.0,0.0,0,0.0,0.3741
22464,1625578031273,,,,,,,,0.1,-0.12,1.25,-0,-3,-5,0.16,,61,4451,7,26,59,0.65,0.0,552,4.76,13.3,0.0,1,26.2,2.61,5.2,0,0,0,1,0,0,250,250,0,,,,,,,,,,,,,,,,
22484,1625578031293,,,,,,,,0.1,-0.1,1.4,-0,-4,-6,0.14,,61,4542,8,26,59,0.647,0.0,552,4.74,13.3,0.0,1,27.4,2.66,5.2,0,0,0,1,0,0,250,250,0,,,,,,,,,,,,,,,,
22504,1625578031313,,,,,,,,0.14,-0.09,1.44,-0,-5,-7,0.16,,61,4556,8,26,59,0.644,0.0,559,4.82,13.5,0.0,1,27.5,2.66,5.2,0,0,0,1,0,0,250,250,0,,,,,,,,,,,,,,,,
22524,1625578031333,,,,,,,,0.19,-0.1,1.32,-0,-5,-8,0.21,,61,4613,8,26,59,0.642,0.0,567,4.85,13.5,0.0,1,28.3,2.69,5.6,0,0,0,1,0,0,250,250,0,,,,,,,,,,,,,,,,
22544,1625578031353,2,3,43,45,34,32,0,0.23,-0.14,1.21,-0,-4,-8,0.27,0,61,4672,8,26,59,0.64,0.0,563,4.83,13.5,0.0,1,29.1,2.71,5.6,0,0,0,1,0,0,250,250,0,52.957333,6.52228,0.0,4.1,9,2,1.8,0,0.0,-1,0.0,,0.0,0,0.0,0.3757
22564,1625578031373,,,,,,,,0.23,-0.18,1.11,-0,-1,-6,0.29,,61,4696,8,26,58,0.641,0.0,574,4.81,13.5,0.0,1,29.1,2.73,5.6,0,0,0,1,0,0,250,250,0,,,,,,,,,,,,,,,,
22584,1625578031393,,,,,,,,0.17,-0.14,1.01,-0,1,-2,0.22,,61,4774,8,26,58,0.642,0.0,575,4.81,13.4,0.0,1,30.1,1.62,5.6,0,0,0,1,0,0,250,250,0,,,,,,,,,,,,,,,,
22604,1625578031413,,,,,,,,0.09,-0.1,1.26,-0,2,-2,0.14,,61,4758,9,26,59,0.643,0.0,582,4.82,13.1,0.0,1,30.2,1.62,5.6,0,0,0,1,0,0,250,250,0,,,,,,,,,,,,,,,,
22624,1625578031433,,,,,,,,0.09,-0.06,1.49,-0,0,-4,0.1,,61,4783,10,26,59,0.644,0.0,595,4.84,13.4,0.0,1,30.5,2.77,6.1,0,0,0,1,0,0,250,250,0,,,,,,,,,,,,,,,,
22644,1625578031453,0,2,44,45,34,33,-0,0.13,-0.09,1.37,-0,-3,-5,0.16,0,61,4785,12,26,61,0.643,0.0,588,4.86,13.4,0.0,1,31.1,1.62,6.1,0,0,0,1,0,0,250,250,0,52.957333,6.52228,0.0,4.1,9,2,1.8,0,0.0,-1,0.0,0.0,0.0,0,0.0,0.3774
22664,1625578031473,,,,,,,,0.14,-0.13,1.25,-0,-1,-4,0.19,,61,4837,14,26,63,0.643,0.0,587,4.81,13.5,0.0,1,32.4,1.73,6.1,0,0,0,1,0,0,250,250,0,,,,,,,,,,,,,,,,
22684,1625578031493,,,,,,,,0.07,-0.14,1.16,-0,2,-0,0.16,,61,4900,17,26,66,0.643,0.0,598,4.75,13.3,0.0,1,34.5,3.06,6.1,0,0,0,1,0,0,250,250,0,,,,,,,,,,,,,,,,
22704,1625578031513,,,,,,,,0.08,-0.05,1.39,-0,-2,-4,0.09,,61,5049,18,26,69,0.643,0.0,601,4.85,13.4,0.0,1,36.4,3.26,6.1,0,0,0,1,0,0,250,250,0,,,,,,,,,,,,,,,,
22724,1625578031533,,,,,,,,0.08,-0.14,1.28,-0,-0,-4,0.16,,61,5176,19,26,73,0.642,0.0,614,4.81,13.5,0.0,1,37.4,2.36,7.9,0,0,0,1,0,0,250,250,0,,,,,,,,,,,,,,,,
22744,1625578031553,-1,3,44,45,34,33,0,0.06,-0.1,1.5,0,3,-2,0.11,0,61,5286,19,26,75,0.642,0.0,628,4.71,13.3,0.0,1,37.7,2.53,7.9,0,0,0,1,0,0,250,250,0,52.957333,6.52228,0.0,4.1,9,2,1.8,0,0.0,-1,0.0,,0.0,0,0.0,0.3791
22764,1625578031573,,,,,,,,0.0,-0.15,1.38,-1,3,-3,0.15,,61,5408,20,26,77,0.642,0.0,625,4.87,13.5,0.0,1,38.0,3.85,7.9,0,0,0,1,0,0,250,250,0,,,,,,,,,,,,,,,,
22784,1625578031594,,,,,,,,0.12,-0.09,1.6,-1,-1,-6,0.15,,61,5496,19,26,79,0.641,0.0,626,4.9,13.5,0.0,1,38.4,3.96,7.9,0,0,0,1,0,0,250,250,0,,,,,,,,,,,,,,,,
22804,1625578031614,,,,,,,,-0.01,-0.11,1.46,-0,7,2,0.11,,61,5582,15,26,79,0.641,0.0,632,4.75,13.2,0.0,1,38.3,4.02,7.9,0,0,0,1,0,0,250,250,0,,,,,,,,,,,,,,,,
22824,1625578031634,,,,,,,,-0.11,-0.1,1.34,-0,5,1,0.15,,61,5695,9,26,77,0.64,0.0,631,4.81,13.2,0.0,1,37.6,2.87,10.3,0,0,0,1,0,0,250,250,0,,,,,,,,,,,,,,,,
22844,1625578031654,0,1,43,45,34,33,0,-0.15,-0.09,1.23,-0,4,-1,0.17,0,61,5931,7,26,73,0.639,0.0,634,4.86,13.4,0.0,1,36.5,2.69,10.3,0,0,0,1,0,0,250,250,0,52.957333,6.52228,0.0,4.1,9,2,1.8,0,0.0,-1,0.0,0.0,0.0,0,0.0,0.3807
22864,1625578031674,,,,,,,,-0.22,-0.08,1.12,-0,4,-0,0.24,,61,6117,7,26,70,0.639,0.0,638,4.73,13.4,0.0,1,36.4,2.45,10.3,0,0,0,1,0,0,250,250,0,,,,,,,,,,,,,,,,
22884,1625578031693,,,,,,,,-0.25,-0.09,1.03,-0,7,3,0.27,,61,6434,7,26,67,0.637,0.0,646,4.75,13.2,0.0,1,37.4,3.28,10.3,0,0,0,1,0,0,250,250,0,,,,,,,,,,,,,,,,
22904,1625578031713,,,,,,,,-0.17,-0.14,1.24,-0,5,1,0.23,,61,6730,7,26,63,0.638,0.0,654,4.79,13.4,0.0,1,37.7,1.59,10.3,0,0,0,1,0,0,250,250,0,,,,,,,,,,,,,,,,
22924,1625578031733,,,,,,,,-0.19,-0.1,1.14,-0,6,3,0.21,,61,6978,7,26,60,0.638,0.0,660,4.8,13.2,0.0,1,37.8,2.5,8.2,0,0,0,1,0,0,250,250,0,,,,,,,,,,,,,,,,
22944,1625578031753,1,1,44,45,34,33,0,-0.24,-0.09,1.04,-0,7,5,0.25,0,61,7113,7,26,57,0.64,0.0,665,4.81,13.3,0.0,1,36.9,2.4,8.2,0,0,0,1,0,0,250,250,0,52.957333,6.52228,0.0,4.1,9,2,1.8,0,0.0,-1,0.0,,0.0,0,0.0,0.3824
22964,1625578031773,,,,,,,,-0.22,-0.1,0.96,-0,5,3,0.24,,61,7298,7,26,55,0.641,0.0,665,4.86,13.4,0.0,1,36.4,2.33,8.2,0,0,0,1,0,0,250,250,0,,,,,,,,,,,,,,,,
22984,1625578031793,,,,,,,,-0.19,-0.07,1.06,-0,3,1,0.2,,61,7470,7,26,52,0.641,0.0,666,4.87,13.4,0.0,1,35.9,2.35,8.2,0,0,0,1,0,0,250,250,0,,,,,,,,,,,,,,,,
23004,1625578031813,,,,,,,,-0.2,-0.05,0.97,0,3,1,0.21,,61,7606,7,26,50,0.641,0.0,670,4.8,13.4,0.0,1,35.8,2.36,8.2,0,0,0,1,0,0,250,250,0,,,,,,,,,,,,,,,,
23024,1625578031833,,,,,,,,-0.22,-0.02,0.89,0,4,3,0.22,,61,7693,7,26,47,0.642,0.0,678,4.87,13.3,0.0,1,35.6,2.34,8.3,0,0,0,1,0,0,250,250,0,,,,,,,,,,,,,,,,
23044,1625578031853,-0,3,44,45,34,33,-0,-0.25,-0.04,0.81,0,5,5,0.26,0,61,7674,7,26,45,0.642,0.0,671,4.71,13.2,0.0,1,34.3,1.18,8.3,0,0,0,1,0,0,250,250,0,52.957333,6.52228,0.0,4.1,9,2,1.8,0,0.0,-1,0.0,0.0,0.0,0,0.0,0.3841
23064,1625578031873,,,,,,,,-0.23,-0.03,0.74,0,6,7,0.23,,61,7703,7,26,43,0.641,0.0,682,4.79,13.2,0.0,1,33.3,2.33,8.3,0,0,0,1,0,0,250,250,0,,,,,,,,,,,,,,,,
