"Interval"|"ms"|0|0|1,"Utc"|"ms"|0|0|1,"Brake_F"|"Bar"|0|2000|10,"Brake_R"|"Bar"|0|2000|10,"Height_RF"|"mm"|0|255|10,"Height_LF"|"mm"|0|255|10,"Height_LR"|"mm"|0|80|10,"Height_RR"|"mm"|0|255|10,"Steering"|"deg"|-100|100|10,"AccelX"|"G"|-3.0|3.0|50,"AccelY"|"G"|-3.0|3.0|50,"AccelZ"|"G"|-3.0|3.0|50,"Yaw"|"Deg/Sec"|-120|120|50,"Pitch"|"Deg/Sec"|-120|120|50,"Roll"|"Deg/Sec"|-120|120|50,"Gsum"|"G"|0.0|3.0|50,"Log_Button"|""|0.0|10.0|10,"WaterTemp"|"C"|0|150|50,"RPM"|"tr/min"|0|14000|50,"TPS"|"%"|0|100|50,"AirTemp"|"C"|0|150|50,"MAP"|"KPa"|0|100|50,"Lambda"|""|0.5|1.5|50,"SpeedDTA"|"kph"|0.0|250.0|50,"OilPress"|"KPa"|0|1500|50,"FuelPressur"|"Bar"|0.0|10.0|50,"Batterie"|"V"|0.0|20.0|50,"ConsoKm"|"L/100km"|0.0|200.0|50,"Gear"|""|0|6|50,"AdvIgnition"|"Deg"|-20.0|70.0|50,"Injection"|"ms"|0.0|10.0|50,"ConsoHr"|"L/Hr"|0.0|10000.0|50,"LC_But_Pres"|""|0|1|50,"LC_Active"|""|0|1|50,"TractionOn"|""|0|1|50,"TractionWet"|""|0|1|50,"FanOn"|""|0|1|50,"RD_Speed"|"km/h"|-30|250|50,"RUD_Speed"|"km/h"|-30|250|50,"LD_Speed"|"km/h"|-30|250|50,"LUD_Speed"|"km/h"|-30|250|50,"Latitude"|"Degrees"|-180.0|180.0|10,"Longitude"|"Degrees"|-180.0|180.0|10,"Speed"|"kph"|0.0|150.0|10,"Altitude"|"m"|0.0|4000.0|10,"GPSSats"|""|0|20|10,"GPSQual"|""|0|5|10,"GPSDOP"|""|0.0|20.0|10,"LapCount"|""|0|0|10,"LapTime"|"Min"|0.0|0.0|10,"Sector"|""|0|0|10,"SectorTime"|"Min"|0.0|0.0|10,"PredTime"|"Min"|0.0|0.0|5,"ElapsedTime"|"Min"|0.0|0.0|10,"CurrentLap"|""|0|0|10,"Distance"|"km"|0.0|0.0|10,"SessionTime"|"Min"|0.0|0.0|10
12063,1625674130745,,,,,,,,0.03,-0.03,1.71,0,2,2,0.04,,65,4872,7,32,55,0.597,0.0,566,4.82,13.1,0.0,1,30.5,1.7,6.3,0,0,0,1,1,0,250,250,0,,,,,,,,,,,,,,,,
12083,1625674130765,,,,,,,,-0.01,0.0,1.9,0,2,2,0.01,,65,4858,7,32,55,0.597,0.0,565,4.8,13.0,0.0,1,30.3,1.69,6.3,0,0,0,1,1,0,250,250,0,,,,,,,,,,,,,,,,
12103,1625674130785,,,,,,,,0.02,0.02,2.07,-0,-2,-0,0.03,,65,4842,7,32,55,0.598,0.0,572,4.83,13.1,0.0,1,30.1,2.79,6.3,0,0,0,1,1,0,250,250,0,,,,,,,,,,,,,,,,
12123,1625674130805,,,,,,,,0.06,-0.01,1.9,-0,-2,-1,0.06,,65,4847,7,32,55,0.599,0.0,558,4.81,13.2,0.0,1,30.1,2.79,6.3,0,0,0,1,1,0,250,250,0,,,,,,,,,,,,,,,,
12143,1625674130825,1,2,47,49,31,31,-1,0.04,-0.03,1.74,-0,1,1,0.05,1,65,4876,7,32,55,0.599,0.0,567,4.82,13.1,0.0,1,30.5,1.71,6.3,0,0,0,1,1,0,250,250,0,52.956917,6.521355,0.0,9.2,8,2,2.2,0,0.0,-1,0.0,,0.0,0,0.0,0.2024
12163,1625674130845,,,,,,,,0.01,-0.01,1.86,0,1,2,0.01,,65,4801,7,32,55,0.599,0.0,562,4.81,12.9,0.0,1,29.5,2.76,6.3,0,0,0,1,1,0,250,250,0,,,,,,,,,,,,,,,,
12183,1625674130865,,,,,,,,-0.01,-0.01,2.04,-0,-0,0,0.01,,65,4848,7,32,55,0.6,0.0,557,4.82,12.9,0.0,1,30.2,2.8,6.3,0,0,0,1,1,0,250,250,0,,,,,,,,,,,,,,,,
12203,1625674130885,,,,,,,,0.04,0.0,2.0,-0,-2,-1,0.04,,65,4820,7,32,55,0.601,0.0,567,4.81,13.2,0.0,1,29.8,2.78,6.2,0,0,0,1,1,0,250,250,0,,,,,,,,,,,,,,,,
12223,1625674130905,,,,,,,,0.06,-0.04,1.84,-0,-1,-1,0.07,,65,4837,7,32,55,0.602,0.0,562,4.81,13.2,0.0,1,30.0,1.68,6.2,0,0,0,1,1,0,250,250,0,,,,,,,,,,,,,,,,
12243,1625674130925,-1,3,47,49,31,31,-0,0.02,-0.02,1.68,0,2,2,0.02,1,65,4891,7,32,55,0.602,0.0,562,4.78,13.0,0.0,1,30.7,1.71,6.2,0,0,0,1,1,0,250,250,0,52.956917,6.521355,0.0,9.2,8,2,2.2,0,0.0,-1,0.0,0.0,0.0,0,0.0,0.204
12263,1625674130945,,,,,,,,-0.01,-0.0,1.88,0,1,1,0.01,,65,4813,7,32,55,0.603,0.0,565,4.83,12.9,0.0,1,29.7,1.66,6.2,0,0,0,1,1,0,250,250,0,,,,,,,,,,,,,,,,
12283,1625674130965,,,,,,,,0.02,0.01,2.05,-0,-2,-1,0.02,,65,4887,7,32,55,0.603,0.0,557,4.82,13.1,0.0,1,30.6,2.82,6.2,0,0,0,1,1,0,250,250,0,,,,,,,,,,,,,,,,
12303,1625674130985,,,,,,,,0.05,-0.03,1.88,-0,-1,-1,0.06,,65,4825,7,32,55,0.603,0.0,565,4.81,13.2,0.0,1,29.9,2.78,6.3,0,0,0,1,1,0,250,250,0,,,,,,,,,,,,,,,,
12323,1625674130995,,,,,,,,0.04,-0.03,1.72,-0,1,1,0.05,,65,4815,7,32,55,0.604,0.0,570,4.8,13.1,0.0,1,29.7,1.66,6.3,0,0,0,1,1,0,250,250,0,,,,,,,,,,,,,,,,
12343,1625674131015,1,1,47,49,31,31,-0,0.0,-0.01,1.84,0,2,2,0.01,1,65,4825,7,32,55,0.604,0.0,560,4.81,13.0,0.0,1,29.6,2.78,6.3,0,0,0,1,1,0,250,250,0,52.956921,6.521355,0.0,8.8,9,2,1.4,0,0.0,-1,0.0,,0.0,0,0.0,0.2057
12363,1625674131035,,,,,,,,-0.02,0.01,2.02,-0,0,1,0.02,,65,4786,7,32,55,0.605,0.0,558,4.82,13.1,0.0,1,29.3,2.75,6.3,0,0,0,1,1,0,250,250,0,,,,,,,,,,,,,,,,
12383,1625674131055,,,,,,,,0.02,0.03,2.12,-0,-2,-1,0.04,,65,4846,7,32,55,0.606,0.0,558,4.82,13.1,0.0,1,30.1,2.79,6.3,0,0,0,1,1,0,250,250,0,,,,,,,,,,,,,,,,
12403,1625674131084,,,,,,,,0.06,-0.02,1.94,-0,-0,-1,0.06,,65,4785,7,32,55,0.606,0.0,554,4.83,13.2,0.0,1,29.3,2.75,6.1,0,0,0,1,1,0,250,250,0,,,,,,,,,,,,,,,,
12423,1625674131104,,,,,,,,0.04,-0.03,1.78,0,2,2,0.05,,65,4802,7,32,56,0.606,0.0,562,4.82,13.2,0.0,1,29.9,2.76,6.1,0,0,0,1,1,0,250,250,0,,,,,,,,,,,,,,,,
12443,1625674131124,1,2,47,49,31,31,-2,0.01,-0.01,1.89,0,2,2,0.01,0,65,4797,7,32,55,0.606,0.0,562,4.83,12.9,0.0,1,29.5,1.65,6.1,0,0,0,1,1,0,250,250,0,52.956921,6.521355,0.0,8.8,9,2,1.4,0,0.0,-1,0.0,0.0,0.0,0,0.0,0.2074
12463,1625674131144,,,,,,,,-0.01,0.01,2.07,-0,1,1,0.01,,65,4774,7,32,55,0.606,0.0,557,4.83,12.9,0.0,1,29.2,2.74,6.1,0,0,0,1,1,0,250,250,0,,,,,,,,,,,,,,,,
12483,1625674131164,,,,,,,,0.03,0.02,2.17,-0,-1,-1,0.04,,65,4848,7,32,55,0.607,0.0,566,4.83,13.1,0.0,1,30.2,2.8,6.1,0,0,0,1,1,0,250,250,0,,,,,,,,,,,,,,,,
12503,1625674131184,,,,,,,,0.06,-0.04,1.99,-0,0,-0,0.07,,65,4817,7,32,56,0.606,0.0,556,4.81,13.2,0.0,1,30.1,2.77,6.2,0,0,0,1,1,0,250,250,0,,,,,,,,,,,,,,,,
12523,1625674131204,,,,,,,,0.04,-0.04,1.82,0,2,2,0.06,,65,4817,7,32,55,0.607,0.0,558,4.82,13.1,0.0,1,29.8,1.66,6.2,0,0,0,1,1,0,250,250,0,,,,,,,,,,,,,,,,
12543,1625674131224,1,3,46,49,31,31,-2,0.0,-0.02,2.0,0,2,2,0.02,0,65,4818,7,32,56,0.607,0.0,562,4.82,12.9,0.0,1,30.1,1.66,6.2,0,0,0,1,1,0,250,250,0,52.956921,6.521355,0.0,8.8,9,2,1.4,0,0.0,-1,0.0,,0.0,0,0.0,0.209
12563,1625674131244,,,,,,,,0.0,0.0,2.17,-0,-0,0,0.0,,65,4792,7,32,55,0.608,0.0,556,4.83,13.1,0.0,1,29.4,2.76,6.2,0,0,0,1,1,0,250,250,0,,,,,,,,,,,,,,,,
12583,1625674131264,,,,,,,,0.03,0.02,2.13,-0,-1,-1,0.04,,65,4760,7,32,55,0.608,0.0,562,4.82,13.2,0.0,1,29.0,2.73,6.2,0,0,0,1,1,0,250,250,0,,,,,,,,,,,,,,,,
12603,1625674131284,,,,,,,,0.07,-0.02,1.96,-0,-0,-1,0.08,,65,4778,7,32,56,0.608,0.0,556,4.82,13.2,0.0,1,29.5,2.75,6.0,0,0,0,1,1,0,250,250,0,,,,,,,,,,,,,,,,
12623,1625674131304,,,,,,,,0.06,-0.03,1.79,0,2,2,0.06,,65,4806,7,32,56,0.608,0.0,551,4.81,13.2,0.0,1,29.9,2.76,6.0,0,0,0,1,1,0,250,250,0,,,,,,,,,,,,,,,,
12643,1625674131324,1,2,46,49,31,31,-1,0.01,-0.0,1.83,0,2,2,0.01,0,65,4810,7,32,55,0.608,0.0,559,4.83,13.0,0.0,1,29.7,1.66,6.0,0,0,0,1,1,0,250,250,0,52.956921,6.521355,0.0,8.8,9,2,1.4,0,0.0,-1,0.0,0.0,0.0,0,0.0,0.2107
12663,1625674131344,,,,,,,,0.01,0.02,2.01,-0,-1,-0,0.02,,65,4841,7,32,55,0.608,0.0,554,4.83,12.9,0.0,1,30.1,2.79,6.0,0,0,0,1,1,0,250,250,0,,,,,,,,,,,,,,,,
12683,1625674131364,,,,,,,,0.04,0.03,1.93,-0,-1,-1,0.05,,65,4800,7,32,55,0.608,0.0,559,4.83,13.1,0.0,1,29.5,2.76,6.0,0,0,0,1,1,0,250,250,0,,,,,,,,,,,,,,,,
12703,1625674131384,,,,,,,,0.08,-0.02,1.77,-0,0,-0,0.08,,65,4821,7,32,56,0.609,0.0,566,4.79,13.2,0.0,1,30.1,1.66,6.1,0,0,0,1,1,0,250,250,0,,,,,,,,,,,,,,,,
12723,1625674131404,,,,,,,,0.05,-0.01,1.62,0,2,2,0.05,,65,4817,7,32,56,0.609,0.0,555,4.82,13.0,0.0,1,30.1,1.66,6.1,0,0,0,1,1,0,250,250,0,,,,,,,,,,,,,,,,
12743,1625674131424,1,1,47,49,31,31,-0,0.01,0.01,1.82,0,2,2,0.02,0,65,4833,7,32,55,0.609,0.0,561,4.82,13.0,0.0,1,30.0,1.67,6.1,0,0,0,1,1,0,250,250,0,52.956921,6.521355,0.0,8.8,9,2,1.4,0,0.0,-1,0.0,,0.0,0,0.0,0.2124
12763,1625674131444,,,,,,,,0.03,0.03,2.0,-0,-1,-1,0.04,,65,4846,7,32,55,0.609,0.0,561,4.82,13.1,0.0,1,30.1,2.79,6.1,0,0,0,1,1,0,250,250,0,,,,,,,,,,,,,,,,
12783,1625674131464,,,,,,,,0.07,-0.01,1.83,-0,-1,-1,0.07,,65,4829,7,32,56,0.609,0.0,551,4.81,13.2,0.0,1,30.2,2.78,6.1,0,0,0,1,1,0,250,250,0,,,,,,,,,,,,,,,,
12803,1625674131484,,,,,,,,0.06,-0.03,1.68,0,2,2,0.07,,65,4863,7,32,56,0.608,0.0,565,4.81,13.1,0.0,1,30.6,2.8,6.2,0,0,0,1,1,0,250,250,0,,,,,,,,,,,,,,,,
12823,1625674131504,,,,,,,,0.02,-0.02,1.76,0,2,2,0.03,,65,4822,7,32,56,0.607,0.0,562,4.82,13.1,0.0,1,30.1,2.77,6.2,0,0,0,1,1,0,250,250,0,,,,,,,,,,,,,,,,
12843,1625674131524,1,3,46,49,31,31,-1,0.0,-0.0,1.95,-0,-1,-0,0.0,0,65,4858,7,32,56,0.606,0.0,559,4.82,13.1,0.0,1,30.6,2.79,6.2,0,0,0,1,1,0,250,250,0,52.956921,6.521355,0.0,8.8,9,2,1.4,0,0.0,-1,0.0,0.0,0.0,0,0.0,0.214
12863,1625674131544,,,,,,,,0.05,-0.01,1.83,-0,-1,-1,0.05,,65,4885,7,32,56,0.606,0.0,567,4.82,13.2,0.0,1,30.9,2.82,6.2,0,0,0,1,1,0,250,250,0,,,,,,,,,,,,,,,,
12883,1625674131564,,,,,,,,0.06,-0.06,1.67,-0,1,1,0.09,,65,4832,7,32,56,0.604,0.0,557,4.81,13.1,0.0,1,30.2,1.66,6.2,0,0,0,1,1,0,250,250,0,,,,,,,,,,,,,,,,
12903,1625674131584,,,,,,,,0.02,-0.04,1.53,0,2,2,0.04,,65,4854,7,32,56,0.604,0.0,562,4.81,13.0,0.0,1,30.5,1.68,6.2,0,0,0,1,1,0,250,250,0,,,,,,,,,,,,,,,,
12923,1625674131600,,,,,,,,-0.0,-0.03,1.74,0,-0,0,0.03,,65,4780,7,32,55,0.603,0.0,565,4.82,13.0,0.0,1,29.3,2.75,6.2,0,0,0,1,1,0,250,250,0,,,,,,,,,,,,,,,,
12943,1625674131620,-0,3,47,49,31,31,-0,0.01,-0.01,1.93,-0,-2,-1,0.01,0,65,4811,7,32,56,0.603,0.0,552,4.82,13.1,0.0,1,30.0,2.77,6.2,0,0,0,1,1,0,250,250,0,52.956921,6.521355,0.0,8.8,9,2,1.4,0,0.0,-1,0.0,,0.0,0,0.0,0.2157
12963,1625674131640,,,,,,,,0.04,-0.03,1.77,-0,-1,-1,0.05,,65,4817,7,32,56,0.602,0.0,563,4.82,13.2,0.0,1,30.1,2.77,6.2,0,0,0,1,1,0,250,250,0,,,,,,,,,,,,,,,,
12983,1625674131660,,,,,,,,0.05,-0.08,1.62,-0,1,1,0.1,,65,4760,7,32,56,0.6,0.0,559,4.83,13.2,0.0,1,29.3,1.62,6.2,0,0,0,1,1,0,250,250,0,,,,,,,,,,,,,,,,
13003,1625674131680,,,,,,,,0.01,-0.07,1.48,0,2,2,0.07,,65,4861,7,32,56,0.6,0.0,552,4.82,13.1,0.0,1,30.8,2.79,6.2,0,0,0,1,1,0,250,250,0,,,,,,,,,,,,,,,,
13023,1625674131698,,,,,,,,-0.01,-0.05,1.69,-0,-1,-0,0.05,,65,4789,7,32,55,0.6,0.0,563,4.81,13.1,0.0,1,29.4,2.75,6.2,0,0,0,1,1,0,250,250,0,,,,,,,,,,,,,,,,
13043,1625674131718,1,1,47,49,30,31,-1,0.02,-0.03,1.88,-0,-3,-2,0.04,0,65,4847,7,32,56,0.6,0.0,551,4.81,13.2,0.0,1,30.4,2.78,6.2,0,0,0,1,1,0,250,250,0,52.956921,6.521355,0.0,8.8,9,2,1.4,0,0.0,-1,0.0,0.0,0.0,0,0.0,0.2174
13063,1625674131738,,,,,,,,0.05,-0.07,1.73,-0,-1,-1,0.08,,65,4795,7,32,56,0.6,0.0,558,4.84,13.2,0.0,1,29.8,2.76,6.2,0,0,0,1,1,0,250,250,0,,,,,,,,,,,,,,,,
13083,1625674131758,,,,,,,,0.05,-0.1,1.58,0,1,1,0.11,,65,4777,7,32,56,0.6,0.0,561,4.82,13.2,0.0,1,29.5,2.74,6.2,0,0,0,1,1,0,250,250,0,,,,,,,,,,,,,,,,
13103,1625674131778,,,,,,,,0.01,-0.06,1.71,0,1,1,0.06,,65,4863,7,32,55,0.6,0.0,558,4.84,12.9,0.0,1,30.3,1.7,6.3,0,0,0,1,1,0,250,250,0,,,,,,,,,,,,,,,,
13123,1625674131798,,,,,,,,0.0,-0.03,1.9,-0,-2,-1,0.03,,65,4806,7,32,55,0.6,0.0,556,4.85,13.2,0.0,1,29.6,2.77,6.3,0,0,0,1,1,0,250,250,0,,,,,,,,,,,,,,,,
13143,1625674131818,1,1,47,49,31,30,-1,0.05,-0.03,1.9,-0,-3,-2,0.06,0,65,4861,7,32,56,0.6,0.0,559,4.82,13.2,0.0,1,30.6,2.79,6.3,0,0,0,1,1,0,250,250,0,52.956921,6.521355,0.0,8.8,9,2,1.4,0,0.0,-1,0.0,,0.0,0,0.0,0.219
13163,1625674131838,,,,,,,,0.06,-0.06,1.74,0,0,0,0.09,,65,4825,7,32,56,0.601,0.0,556,4.83,13.2,0.0,1,30.2,2.77,6.3,0,0,0,1,1,0,250,250,0,,,,,,,,,,,,,,,,
13183,1625674131858,,,,,,,,0.05,-0.05,1.6,0,1,2,0.07,,65,4806,7,32,56,0.601,0.0,562,4.79,13.1,0.0,1,29.9,1.65,6.3,0,0,0,1,1,0,250,250,0,,,,,,,,,,,,,,,,
13203,1625674131878,,,,,,,,0.01,-0.01,1.8,-0,-1,-0,0.02,,65,4834,7,32,56,0.601,0.0,563,4.83,12.9,0.0,1,30.3,2.78,6.3,0,0,0,1,1,0,250,250,0,,,,,,,,,,,,,,,,
13223,1625674131898,,,,,,,,0.02,0.0,1.98,-0,-3,-2,0.02,,65,4781,7,32,55,0.601,0.0,555,4.82,13.1,0.0,1,29.3,2.75,6.3,0,0,0,1,1,0,250,250,0,,,,,,,,,,,,,,,,
13243,1625674131918,-1,2,47,49,31,31,-1,0.06,-0.02,1.81,-0,-2,-2,0.06,0,65,4884,7,32,56,0.601,0.0,562,4.82,13.2,0.0,1,30.9,2.81,6.3,0,0,0,1,1,0,250,250,0,52.956921,6.521355,0.0,8.8,9,2,1.4,0,0.0,-1,0.0,0.0,0.0,0,0.0,0.2207
13263,1625674131938,,,,,,,,0.05,-0.05,1.66,0,1,1,0.07,,65,4817,7,32,56,0.601,0.0,560,4.81,13.2,0.0,1,30.1,2.77,6.3,0,0,0,1,1,0,250,250,0,,,,,,,,,,,,,,,,
13283,1625674131958,,,,,,,,0.02,-0.04,1.86,0,1,1,0.05,,64,4820,7,32,55,0.601,0.0,555,4.82,12.9,0.0,1,29.8,1.67,6.3,0,0,0,1,1,0,250,250,0,,,,,,,,,,,,,,,,
13303,1625674131978,,,,,,,,-0.0,-0.03,2.04,-0,-2,-1,0.03,,64,4834,7,32,55,0.601,0.0,565,4.82,13.1,0.0,1,30.0,2.79,6.3,0,0,0,1,1,0,250,250,0,,,,,,,,,,,,,,,,
13323,1625674131998,,,,,,,,0.04,-0.05,1.87,-0,-3,-2,0.06,,64,4764,7,32,55,0.601,0.0,553,4.82,13.2,0.0,1,29.1,2.74,6.3,0,0,0,1,1,0,250,250,0,,,,,,,,,,,,,,,,
13343,1625674132010,1,1,47,49,31,30,-1,0.02,-0.07,1.71,-0,-1,-1,0.07,0,64,4890,7,32,56,0.601,0.0,563,4.81,13.2,0.0,1,31.0,1.7,6.3,0,0,0,1,1,0,250,250,0,52.956921,6.521356,0.0,8.6,11,2,1.3,0,0.0,-1,0.0,,0.0,0,0.0,0.2224
13363,1625674132030,,,,,,,,-0.01,-0.04,1.9,-0,1,2,0.04,,64,4854,7,32,55,0.601,0.0,571,4.82,13.0,0.0,1,29.9,2.79,6.3,0,0,0,1,1,0,250,250,0,,,,,,,,,,,,,,,,
13383,1625674132050,,,,,,,,-0.02,-0.01,2.07,-0,-0,0,0.02,,64,4854,7,32,55,0.602,0.0,553,4.81,13.0,0.0,1,30.2,2.79,6.3,0,0,0,1,1,0,250,250,0,,,,,,,,,,,,,,,,
13403,1625674132070,,,,,,,,0.02,-0.02,1.9,-0,-3,-2,0.03,,64,4881,7,32,55,0.603,0.0,568,4.85,13.1,0.0,1,30.6,2.82,6.4,0,0,0,1,1,0,250,250,0,,,,,,,,,,,,,,,,
13423,1625674132097,,,,,,,,0.03,-0.06,1.74,-0,-1,-2,0.07,,64,4808,7,32,56,0.603,0.0,557,4.81,13.2,0.0,1,29.9,2.76,6.4,0,0,0,1,1,0,250,250,0,,,,,,,,,,,,,,,,
13443,1625674132117,0,3,47,49,31,30,-1,-0.01,-0.04,1.62,-0,2,2,0.04,0,64,4936,7,32,56,0.603,0.0,559,4.82,13.0,0.0,1,31.6,2.84,6.4,0,0,0,1,1,0,250,250,0,52.956921,6.521356,0.0,8.6,11,2,1.3,0,0.0,-1,0.0,0.0,0.0,0,0.0,0.224
13463,1625674132137,,,,,,,,-0.01,-0.0,1.82,-0,-0,0,0.01,,64,4843,7,32,56,0.603,0.0,575,4.82,13.0,0.0,1,30.4,2.78,6.4,0,0,0,1,1,0,250,250,0,,,,,,,,,,,,,,,,
13483,1625674132157,,,,,,,,0.04,-0.0,1.83,-0,-3,-2,0.04,,64,4862,7,32,55,0.604,0.0,562,4.82,13.2,0.0,1,30.3,2.81,6.4,0,0,0,1,1,0,250,250,0,,,,,,,,,,,,,,,,
13503,1625674132177,,,,,,,,0.05,-0.05,1.67,-0,-1,-1,0.07,,64,4907,7,32,56,0.604,0.0,559,4.82,13.2,0.0,1,31.2,1.71,6.4,0,0,0,1,1,0,250,250,0,,,,,,,,,,,,,,,,
13523,1625674132199,,,,,,,,0.01,-0.01,1.56,-0,1,2,0.02,,64,4827,7,32,56,0.604,0.0,562,4.81,13.2,0.0,1,30.2,2.77,6.4,0,0,0,1,1,0,250,250,0,,,,,,,,,,,,,,,,
13543,1625674132219,-1,3,47,49,30,31,-0,-0.01,-0.0,1.76,-0,0,1,0.01,0,64,4861,7,32,55,0.605,0.0,553,4.84,13.0,0.0,1,30.3,2.79,6.4,0,0,0,1,1,0,250,250,0,52.956921,6.521356,0.0,8.6,11,2,1.3,0,0.0,-1,0.0,,0.0,0,0.0,0.2257
13563,1625674132239,,,,,,,,0.03,0.01,1.95,-0,-3,-2,0.03,,64,4826,7,32,55,0.606,0.0,565,4.83,13.0,0.0,1,29.9,2.77,6.4,0,0,0,1,1,0,250,250,0,,,,,,,,,,,,,,,,
13583,1625674132259,,,,,,,,0.06,-0.04,1.78,-0,-3,-2,0.07,,64,4841,7,32,55,0.607,0.0,564,4.81,13.2,0.0,1,30.1,2.79,6.4,0,0,0,1,1,0,250,250,0,,,,,,,,,,,,,,,,
13603,1625674132279,,,,,,,,0.04,-0.04,1.63,-0,1,1,0.05,,64,4879,7,32,56,0.607,0.0,557,4.8,13.1,0.0,1,30.8,1.7,6.3,0,0,0,1,1,0,250,250,0,,,,,,,,,,,,,,,,
13623,1625674132299,,,,,,,,0.01,-0.0,1.83,0,1,1,0.01,,64,4781,7,32,56,0.607,0.0,560,4.81,13.0,0.0,1,29.6,1.64,6.3,0,0,0,1,1,0,250,250,0,,,,,,,,,,,,,,,,
13643,1625674132319,1,1,47,49,31,31,-1,0.01,0.02,2.01,-0,-2,-1,0.02,0,64,4825,7,32,56,0.607,0.0,555,4.82,13.1,0.0,1,30.2,2.77,6.3,0,0,0,1,1,0,250,250,0,52.956921,6.521356,0.0,8.6,11,2,1.3,0,0.0,-1,0.0,0.0,0.0,0,0.0,0.2274
13663,1625674132339,,,,,,,,0.04,0.03,1.93,-0,-3,-2,0.05,,64,4745,7,32,56,0.606,0.0,548,4.81,13.2,0.0,1,29.1,2.72,6.3,0,0,0,1,1,0,250,250,0,,,,,,,,,,,,,,,,
13683,1625674132359,,,,,,,,0.08,-0.01,1.76,-0,-3,-3,0.08,,64,4774,7,32,56,0.607,0.0,557,4.81,13.2,0.0,1,29.5,2.74,6.3,0,0,0,1,1,0,250,250,0,,,,,,,,,,,,,,,,
13703,1625674132379,,,,,,,,0.06,-0.02,1.62,-0,-0,-1,0.06,,64,4775,7,32,56,0.606,0.0,546,4.83,13.2,0.0,1,29.5,1.63,6.1,0,0,0,1,1,0,250,250,0,,,,,,,,,,,,,,,,
13723,1625674132399,,,,,,,,0.03,0.02,1.61,0,1,1,0.03,,64,4777,7,32,56,0.606,0.0,551,4.82,13.0,0.0,1,29.5,1.63,6.1,0,0,0,1,1,0,250,250,0,,,,,,,,,,,,,,,,
13743,1625674132419,-1,3,47,49,30,31,-0,0.0,0.02,1.81,0,0,0,0.02,0,64,4783,7,32,55,0.606,0.0,560,4.82,13.0,0.0,1,29.3,2.75,6.1,0,0,0,1,1,0,250,250,0,52.956921,6.521356,0.0,8.6,11,2,1.3,0,0.0,-1,0.0,,0.0,0,0.0,0.229
13763,1625674132439,,,,,,,,0.03,0.04,1.99,-0,-2,-2,0.05,,64,4775,7,32,55,0.605,0.0,547,4.81,13.1,0.0,1,29.2,2.74,6.1,0,0,0,1,1,0,250,250,0,,,,,,,,,,,,,,,,
13783,1625674132459,,,,,,,,0.05,0.02,1.83,-0,-3,-3,0.06,,64,4762,7,32,56,0.605,0.0,554,4.82,13.2,0.0,1,29.3,2.73,6.1,0,0,0,1,1,0,250,250,0,,,,,,,,,,,,,,,,
13803,1625674132479,,,,,,,,0.08,-0.05,1.67,-0,-1,-2,0.09,,64,4706,7,32,56,0.605,0.0,543,4.81,13.2,0.0,1,28.6,2.69,5.9,0,0,0,1,1,0,250,250,0,,,,,,,,,,,,,,,,
13823,1625674132499,,,,,,,,0.06,-0.03,1.53,0,1,1,0.07,,64,4769,7,32,56,0.604,0.0,543,4.81,13.1,0.0,1,29.4,1.63,5.9,0,0,0,1,1,0,250,250,0,,,,,,,,,,,,,,,,
13843,1625674132519,-0,3,47,49,31,31,-1,0.02,-0.02,1.73,0,2,2,0.02,0,64,4770,7,32,55,0.603,0.0,560,4.81,13.1,0.0,1,29.1,2.74,5.9,0,0,0,1,1,0,250,250,0,52.956921,6.521356,0.0,8.6,11,2,1.3,0,0.0,-1,0.0,0.0,0.0,0,0.0,0.2307
13863,1625674132539,,,,,,,,-0.0,-0.01,1.92,0,0,0,0.01,,64,4772,7,32,55,0.602,0.0,553,4.81,13.1,0.0,1,29.2,2.74,5.9,0,0,0,1,1,0,250,250,0,,,,,,,,,,,,,,,,
13883,1625674132559,,,,,,,,0.03,0.01,2.09,-0,-2,-2,0.03,,64,4746,7,32,55,0.603,0.0,547,4.82,13.1,0.0,1,28.8,2.72,5.9,0,0,0,1,1,0,250,250,0,,,,,,,,,,,,,,,,
13903,1625674132579,,,,,,,,0.06,-0.02,1.92,-0,-2,-3,0.07,,64,4760,7,32,55,0.604,0.0,548,4.82,13.2,0.0,1,29.0,2.73,5.9,0,0,0,1,1,0,250,250,0,,,,,,,,,,,,,,,,
13923,1625674132599,,,,,,,,0.06,-0.07,1.76,-0,0,-1,0.09,,64,4786,7,32,56,0.604,0.0,541,4.8,13.2,0.0,1,29.6,1.64,5.9,0,0,0,1,1,0,250,250,0,,,,,,,,,,,,,,,,
13943,1625674132619,1,2,46,49,31,31,-1,0.04,-0.06,1.61,0,2,2,0.07,0,64,4770,7,32,56,0.604,0.0,553,4.81,13.1,0.0,1,29.4,1.63,5.9,0,0,0,1,1,0,250,250,0,52.956921,6.521356,0.0,8.6,11,2,1.3,0,0.0,-1,0.0,,0.0,0,0.0,0.2324
13963,1625674132639,,,,,,,,0.0,-0.03,1.81,0,2,2,0.03,,64,4778,7,32,55,0.603,0.0,555,4.82,13.1,0.0,1,29.2,2.75,5.9,0,0,0,1,1,0,250,250,0,,,,,,,,,,,,,,,,
13983,1625674132659,,,,,,,,0.01,-0.01,1.99,-0,-1,-0,0.02,,64,4795,7,32,55,0.604,0.0,548,4.81,13.1,0.0,1,29.5,2.76,5.9,0,0,0,1,1,0,250,250,0,,,,,,,,,,,,,,,,
14003,1625674132679,,,,,,,,0.05,0.01,1.83,-0,-2,-2,0.05,,64,4758,7,32,56,0.604,0.0,555,4.8,13.2,0.0,1,29.3,2.73,6.0,0,0,0,1,1,0,250,250,0,,,,,,,,,,,,,,,,
14023,1625674132699,,,,,,,,0.08,-0.04,1.67,-0,-0,-1,0.09,,64,4801,7,32,56,0.605,0.0,544,4.81,13.2,0.0,1,29.8,1.65,6.0,0,0,0,1,1,0,250,250,0,,,,,,,,,,,,,,,,
14043,1625674132719,1,3,46,49,31,31,-0,0.06,-0.04,1.53,0,2,2,0.07,0,64,4788,7,32,56,0.605,0.0,549,4.82,13.1,0.0,1,29.7,2.75,6.0,0,0,0,1,1,0,250,250,0,52.956921,6.521356,0.0,8.6,11,2,1.3,0,0.0,-1,0.0,0.0,0.0,0,0.0,0.234
14063,1625674132739,,,,,,,,0.02,-0.02,1.71,0,3,2,0.03,,64,4789,7,32,55,0.606,0.0,557,4.83,13.0,0.0,1,29.4,1.64,6.0,0,0,0,1,1,0,250,250,0,,,,,,,,,,,,,,,,
14083,1625674132759,,,,,,,,0.01,-0.0,1.9,-0,0,0,0.01,,64,4785,7,32,56,0.606,0.0,548,4.82,12.9,0.0,1,29.6,2.75,6.0,0,0,0,1,1,0,250,250,0,,,,,,,,,,,,,,,,
14103,1625674132779,,,,,,,,0.04,0.02,2.06,-0,-2,-1,0.05,,64,4779,7,32,55,0.607,0.0,554,4.81,13.1,0.0,1,29.3,2.75,6.0,0,0,0,1,1,0,250,250,0,,,,,,,,,,,,,,,,
14123,1625674132799,,,,,,,,0.08,-0.02,1.89,-0,-1,-1,0.08,,64,4792,7,32,56,0.607,0.0,554,4.82,13.2,0.0,1,29.7,2.76,6.0,0,0,0,1,1,0,250,250,0,,,,,,,,,,,,,,,,
14143,1625674132819,1,1,47,49,31,31,-0,0.07,-0.03,1.73,-0,1,1,0.07,0,64,4780,7,32,56,0.607,0.0,545,4.82,13.1,0.0,1,29.6,1.64,6.0,0,0,0,1,1,0,250,250,0,52.956921,6.521356,0.0,8.6,11,2,1.3,0,0.0,-1,0.0,,0.0,0,0.0,0.2357
14163,1625674132839,,,,,,,,0.03,-0.01,1.65,0,3,3,0.03,,64,4770,7,32,56,0.607,0.0,555,4.82,13.0,0.0,1,29.3,2.74,6.0,0,0,0,1,1,0,250,250,0,,,,,,,,,,,,,,,,
14183,1625674132859,,,,,,,,0.0,0.0,1.85,-0,2,2,0.01,,64,4784,7,32,56,0.607,0.0,547,4.84,13.0,0.0,1,29.6,1.64,6.0,0,0,0,1,1,0,250,250,0,,,,,,,,,,,,,,,,
14203,1625674132879,,,,,,,,0.02,0.03,2.03,-0,-1,-1,0.03,,64,4770,7,32,56,0.608,0.0,550,4.82,13.0,0.0,1,29.4,2.74,6.0,0,0,0,1,1,0,250,250,0,,,,,,,,,,,,,,,,
14223,1625674132899,,,,,,,,0.06,0.01,1.86,-0,-2,-1,0.06,,64,4775,7,32,56,0.608,0.0,563,4.81,13.2,0.0,1,29.5,2.74,6.0,0,0,0,1,1,0,250,250,0,,,,,,,,,,,,,,,,
14243,1625674132919,-1,3,47,49,31,31,-0,0.07,-0.04,1.7,-0,-0,-0,0.08,0,64,4746,7,32,56,0.609,0.0,544,4.81,13.2,0.0,1,29.1,1.61,6.0,0,0,0,1,1,0,250,250,0,52.956921,6.521356,0.0,8.6,11,2,1.3,0,0.0,-1,0.0,0.0,0.0,0,0.0,0.2374
14263,1625674132939,,,,,,,,0.05,-0.02,1.56,0,2,3,0.05,,64,4803,7,32,56,0.609,0.0,549,4.8,13.1,0.0,1,29.9,1.65,6.0,0,0,0,1,1,0,250,250,0,,,,,,,,,,,,,,,,
14283,1625674132959,,,,,,,,0.02,-0.01,1.76,0,2,2,0.02,,64,4791,7,32,56,0.61,0.0,553,4.81,13.1,0.0,1,29.7,2.75,6.0,0,0,0,1,1,0,250,250,0,,,,,,,,,,,,,,,,
14303,1625674132979,,,,,,,,0.01,0.02,1.95,-0,-1,-0,0.02,,64,4805,7,32,55,0.61,0.0,545,4.82,13.1,0.0,1,29.6,2.76,6.1,0,0,0,1,1,0,250,250,0,,,,,,,,,,,,,,,,
14323,1625674132999,,,,,,,,0.06,0.0,1.79,-0,-2,-1,0.06,,64,4841,7,32,56,0.61,0.0,560,4.81,13.2,0.0,1,30.4,2.78,6.1,0,0,0,1,1,0,250,250,0,,,,,,,,,,,,,,,,
14343,1625674133009,1,3,46,49,31,31,-1,0.07,-0.03,1.64,-0,-0,-0,0.08,0,64,4768,7,32,56,0.61,0.0,552,4.81,13.2,0.0,1,29.4,1.63,6.1,0,0,0,1,1,0,250,250,0,52.956921,6.521356,0.0,8.6,11,2,1.3,0,0.0,-1,0.0,,0.0,0,0.0,0.239
14363,1625674133029,,,,,,,,0.04,-0.02,1.5,0,2,3,0.04,,64,4825,7,32,56,0.61,0.0,548,4.8,13.1,0.0,1,30.2,1.66,6.1,0,0,0,1,1,0,250,250,0,,,,,,,,,,,,,,,,
14383,1625674133049,,,,,,,,0.02,-0.0,1.71,-0,1,2,0.02,,64,4811,7,32,56,0.61,0.0,561,4.82,13.0,0.0,1,30.0,1.66,6.1,0,0,0,1,1,0,250,250,0,,,,,,,,,,,,,,,,
14403,1625674133069,,,,,,,,0.02,0.02,1.9,-0,-2,-0,0.03,,64,4797,7,32,56,0.611,0.0,546,4.83,13.2,0.0,1,29.8,2.76,6.0,0,0,0,1,1,0,250,250,0,,,,,,,,,,,,,,,,
14423,1625674133096,,,,,,,,0.07,0.0,1.74,-0,-2,-1,0.07,,64,4828,7,32,56,0.611,0.0,552,4.82,13.2,0.0,1,30.2,2.77,6.0,0,0,0,1,1,0,250,250,0,,,,,,,,,,,,,,,,
14443,1625674133116,-0,3,47,49,31,30,-0,0.07,-0.03,1.59,-0,0,0,0.07,0,64,4786,7,32,56,0.611,0.0,555,4.81,13.2,0.0,1,29.6,2.75,6.0,0,0,0,1,1,0,250,250,0,52.956921,6.521356,0.0,8.6,11,2,1.3,0,0.0,-1,0.0,0.0,0.0,0,0.0,0.2407
14463,1625674133136,,,,,,,,0.02,0.0,1.46,0,2,3,0.02,,64,4854,7,32,56,0.61,0.0,552,4.8,13.0,0.0,1,30.5,1.68,6.0,0,0,0,1,1,0,250,250,0,,,,,,,,,,,,,,,,
14483,1625674133156,,,,,,,,-0.0,0.01,1.67,-0,0,1,0.01,,64,4758,7,32,56,0.61,0.0,559,4.83,13.0,0.0,1,29.3,2.73,6.0,0,0,0,1,1,0,250,250,0,,,,,,,,,,,,,,,,
14503,1625674133176,,,,,,,,0.01,0.03,1.87,-0,-3,-1,0.04,,64,4816,7,32,56,0.61,0.0,554,4.82,13.2,0.0,1,30.0,2.77,6.1,0,0,0,1,1,0,250,250,0,,,,,,,,,,,,,,,,
14523,1625674133198,,,,,,,,0.05,0.0,1.71,-0,-2,-2,0.05,,64,4773,7,32,56,0.609,0.0,545,4.81,13.2,0.0,1,29.5,2.74,6.1,0,0,0,1,1,0,250,250,0,,,,,,,,,,,,,,,,
14543,1625674133218,1,1,47,49,30,31,-0,0.06,-0.03,1.57,-0,0,0,0.07,0,64,4786,7,32,56,0.61,0.0,552,4.81,13.2,0.0,1,29.6,1.64,6.1,0,0,0,1,1,0,250,250,0,52.956921,6.521356,0.0,8.6,11,2,1.3,0,0.0,-1,0.0,,0.0,0,0.0,0.2424
14563,1625674133238,,,,,,,,0.03,-0.01,1.44,-0,2,2,0.03,,64,4788,7,32,56,0.61,0.0,546,4.82,13.1,0.0,1,29.7,1.64,6.1,0,0,0,1,1,0,250,250,0,,,,,,,,,,,,,,,,
14583,1625674133258,,,,,,,,-0.0,0.0,1.65,-0,2,2,0.0,,64,4792,7,32,56,0.611,0.0,548,4.81,13.0,0.0,1,29.7,2.76,6.1,0,0,0,1,1,0,250,250,0,,,,,,,,,,,,,,,,
14603,1625674133278,,,,,,,,0.01,0.03,1.84,-0,-2,-1,0.03,,64,4839,7,32,56,0.611,0.0,563,4.81,13.2,0.0,1,30.3,2.78,6.2,0,0,0,1,1,0,250,250,0,,,,,,,,,,,,,,,,
14623,1625674133296,,,,,,,,0.05,0.0,1.69,-0,-2,-2,0.05,,64,4783,7,32,56,0.612,0.0,548,4.81,13.2,0.0,1,29.6,2.75,6.2,0,0,0,1,1,0,250,250,0,,,,,,,,,,,,,,,,
14643,1625674133316,0,3,47,49,31,31,-1,0.05,-0.04,1.55,-0,0,0,0.07,0,64,4823,7,32,56,0.612,0.0,553,4.83,13.2,0.0,1,30.1,1.66,6.2,0,0,0,1,1,0,250,250,0,52.956921,6.521356,0.0,8.6,11,2,1.3,0,0.0,-1,0.0,0.0,0.0,0,0.0,0.244
14663,1625674133336,,,,,,,,0.02,-0.02,1.42,-0,2,2,0.03,,64,4790,7,32,56,0.613,0.0,555,4.8,13.1,0.0,1,29.5,2.75,6.2,0,0,0,1,1,0,250,250,0,,,,,,,,,,,,,,,,
14683,1625674133356,,,,,,,,-0.01,-0.02,1.63,-0,1,1,0.02,,64,4770,7,32,56,0.612,0.0,544,4.82,13.0,0.0,1,29.4,1.63,6.2,0,0,0,1,1,0,250,250,0,,,,,,,,,,,,,,,,
14703,1625674133376,,,,,,,,-0.01,0.01,1.83,-0,-2,-1,0.01,,64,4794,7,32,56,0.612,0.0,558,4.84,13.2,0.0,1,29.8,2.76,6.1,0,0,0,1,1,0,250,250,0,,,,,,,,,,,,,,,,
14723,1625674133396,,,,,,,,0.04,0.01,1.79,-0,-2,-2,0.04,,64,4770,7,32,56,0.613,0.0,551,4.82,13.2,0.0,1,29.4,2.74,6.1,0,0,0,1,1,0,250,250,0,,,,,,,,,,,,,,,,
14743,1625674133416,1,1,47,49,30,31,-0,0.06,-0.04,1.64,-0,0,-0,0.07,0,64,4837,7,32,56,0.613,0.0,548,4.82,13.2,0.0,1,30.3,1.67,6.1,0,0,0,1,1,0,250,250,0,52.956921,6.521356,0.0,8.6,11,2,1.3,0,0.0,-1,0.0,,0.0,0,0.0,0.2457
14763,1625674133436,,,,,,,,0.02,-0.01,1.51,-0,2,2,0.02,,64,4849,7,32,56,0.614,0.0,562,4.82,13.0,0.0,1,30.5,1.68,6.1,0,0,0,1,1,0,250,250,0,,,,,,,,,,,,,,,,
14783,1625674133456,,,,,,,,-0.01,0.01,1.71,-0,1,1,0.01,,64,4800,7,32,56,0.613,0.0,547,4.84,13.0,0.0,1,29.8,2.76,6.1,0,0,0,1,1,0,250,250,0,,,,,,,,,,,,,,,,
14803,1625674133476,,,,,,,,0.0,0.03,1.9,-0,-2,-2,0.03,,64,4810,7,32,56,0.614,0.0,550,4.84,13.2,0.0,1,30.0,2.76,6.1,0,0,0,1,1,0,250,250,0,,,,,,,,,,,,,,,,
14823,1625674133498,,,,,,,,0.05,0.01,1.75,-0,-2,-2,0.05,,64,4800,7,32,56,0.613,0.0,553,4.81,13.2,0.0,1,29.8,2.76,6.1,0,0,0,1,1,0,250,250,0,,,,,,,,,,,,,,,,
14843,1625674133518,1,1,47,49,30,31,-0,0.05,-0.03,1.6,-0,1,0,0.06,0,64,4813,7,32,56,0.613,0.0,546,4.86,13.2,0.0,1,30.0,1.66,6.1,0,0,0,1,1,0,250,250,0,52.956921,6.521356,0.0,8.6,11,2,1.3,0,0.0,-1,0.0,0.0,0.0,0,0.0,0.2474
14863,1625674133538,,,,,,,,0.02,-0.0,1.47,-0,2,2,0.02,,64,4801,7,32,56,0.613,0.0,560,4.83,13.0,0.0,1,29.5,2.76,6.1,0,0,0,1,1,0,250,250,0,,,,,,,,,,,,,,,,
14883,1625674133558,,,,,,,,-0.01,-0.0,1.68,-0,1,1,0.01,,64,4736,7,32,56,0.613,0.0,553,4.82,13.0,0.0,1,29.0,1.6,6.1,0,0,0,1,1,0,250,250,0,,,,,,,,,,,,,,,,
14903,1625674133578,,,,,,,,-0.02,0.01,1.87,-0,-2,-1,0.03,,64,4779,7,32,56,0.612,0.0,542,4.85,13.0,0.0,1,29.6,2.75,6.1,0,0,0,1,1,0,250,250,0,,,,,,,,,,,,,,,,
14923,1625674133596,,,,,,,,0.02,0.02,2.01,-0,-2,-2,0.02,,64,4745,7,32,56,0.612,0.0,547,4.82,13.2,0.0,1,29.1,2.72,6.1,0,0,0,1,1,0,250,250,0,,,,,,,,,,,,,,,,
14943,1625674133616,1,1,47,49,31,30,-1,0.05,-0.03,1.84,-0,-1,-1,0.06,0,64,4818,7,32,56,0.613,0.0,541,4.82,13.2,0.0,1,30.1,1.66,6.1,0,0,0,1,1,0,250,250,0,52.956921,6.521356,0.0,8.6,11,2,1.3,0,0.0,-1,0.0,,0.0,0,0.0,0.249
14963,1625674133636,,,,,,,,0.03,-0.03,1.69,-0,2,1,0.05,,64,4789,7,32,56,0.613,0.0,555,4.85,13.2,0.0,1,29.7,2.75,6.1,0,0,0,1,1,0,250,250,0,,,,,,,,,,,,,,,,
14983,1625674133656,,,,,,,,0.0,-0.01,1.57,0,2,2,0.01,,64,4761,7,32,56,0.613,0.0,556,4.83,13.1,0.0,1,29.3,2.73,6.1,0,0,0,1,1,0,250,250,0,,,,,,,,,,,,,,,,
15003,1625674133676,,,,,,,,-0.02,-0.0,1.77,-0,-1,-0,0.02,,64,4792,7,32,56,0.613,0.0,545,4.83,13.1,0.0,1,29.7,2.76,6.1,0,0,0,1,1,0,250,250,0,,,,,,,,,,,,,,,,
15023,1625674133698,,,,,,,,0.01,0.0,1.96,-0,-3,-2,0.01,,64,4772,7,32,56,0.613,0.0,546,4.81,13.2,0.0,1,29.5,2.74,6.1,0,0,0,1,1,0,250,250,0,,,,,,,,,,,,,,,,
15043,1625674133718,1,3,47,49,31,31,-1,0.05,-0.03,1.8,-0,-2,-2,0.06,0,64,4813,7,32,56,0.613,0.0,549,4.81,13.2,0.0,1,30.0,2.77,6.1,0,0,0,1,1,0,250,250,0,52.956921,6.521356,0.0,8.6,11,2,1.3,0,0.0,-1,0.0,0.0,0.0,0,0.0,0.2507
15063,1625674133738,,,,,,,,0.05,-0.07,1.65,-0,1,1,0.08,,64,4775,7,32,56,0.613,0.0,543,4.83,13.2,0.0,1,29.5,1.63,6.1,0,0,0,1,1,0,250,250,0,,,,,,,,,,,,,,,,
15083,1625674133758,,,,,,,,0.04,-0.05,1.51,0,2,2,0.06,,64,4754,7,32,56,0.614,0.0,555,4.81,13.1,0.0,1,29.2,1.62,6.1,0,0,0,1,1,0,250,250,0,,,,,,,,,,,,,,,,
15103,1625674133778,,,,,,,,0.0,-0.02,1.71,-0,1,1,0.02,,64,4734,7,32,56,0.614,0.0,543,4.84,13.0,0.0,1,29.0,2.71,6.0,0,0,0,1,1,0,250,250,0,,,,,,,,,,,,,,,,
15123,1625674133796,,,,,,,,0.04,-0.01,1.9,-0,-2,-1,0.04,,64,4758,7,32,56,0.614,0.0,541,4.82,13.2,0.0,1,29.3,2.73,6.0,0,0,0,1,1,0,250,250,0,,,,,,,,,,,,,,,,
15143,1625674133816,-1,2,47,49,31,31,-1,0.07,-0.04,1.75,-0,-3,-2,0.08,0,64,4801,7,32,56,0.614,0.0,555,4.83,13.2,0.0,1,29.8,2.76,6.0,0,0,0,1,1,0,250,250,0,52.956921,6.521356,0.0,8.6,11,2,1.3,0,0.0,-1,0.0,,0.0,0,0.0,0.2524
15163,1625674133836,,,,,,,,0.06,-0.07,1.6,-0,-1,-1,0.1,,64,4758,7,32,56,0.614,0.0,541,4.81,13.2,0.0,1,29.3,2.73,6.0,0,0,0,1,1,0,250,250,0,,,,,,,,,,,,,,,,
15183,1625674133856,,,,,,,,0.04,-0.03,1.47,0,1,2,0.05,,64,4797,7,32,56,0.614,0.0,549,4.81,13.1,0.0,1,29.8,1.65,6.0,0,0,0,1,1,0,250,250,0,,,,,,,,,,,,,,,,
15203,1625674133876,,,,,,,,0.01,-0.02,1.68,0,1,2,0.02,,64,4730,7,32,56,0.613,0.0,542,4.81,13.1,0.0,1,28.7,2.71,5.9,0,0,0,1,1,0,250,250,0,,,,,,,,,,,,,,,,
15223,1625674133896,,,,,,,,-0.0,-0.01,1.88,-0,-0,1,0.01,,64,4761,7,32,56,0.613,0.0,537,4.81,13.1,0.0,1,29.3,2.73,5.9,0,0,0,1,1,0,250,250,0,,,,,,,,,,,,,,,,
15243,1625674133916,1,2,47,49,31,30,-1,0.04,0.0,1.92,-0,-3,-1,0.04,0,64,4777,7,32,56,0.614,0.0,555,4.81,13.2,0.0,1,29.5,2.74,5.9,0,0,0,1,1,0,250,250,0,52.956921,6.521356,0.0,8.6,11,2,1.3,0,0.0,-1,0.0,0.0,0.0,0,0.0,0.254
15263,1625674133936,,,,,,,,0.08,-0.04,1.76,-0,-3,-2,0.09,,64,4757,7,32,55,0.614,0.0,544,4.82,13.2,0.0,1,29.0,2.73,5.9,0,0,0,1,1,0,250,250,0,,,,,,,,,,,,,,,,
15283,1625674133956,,,,,,,,0.06,-0.05,1.61,-0,-1,-1,0.08,,64,4780,7,32,56,0.613,0.0,543,4.8,13.2,0.0,1,29.6,1.64,5.9,0,0,0,1,1,0,250,250,0,,,,,,,,,,,,,,,,
15303,1625674133976,,,,,,,,0.04,-0.01,1.51,0,1,2,0.04,,64,4722,7,32,56,0.613,0.0,547,4.82,13.1,0.0,1,28.8,1.59,5.9,0,0,0,1,1,0,250,250,0,,,,,,,,,,,,,,,,
15323,1625674133996,,,,,,,,-0.01,-0.01,1.72,0,2,2,0.01,,64,4742,7,32,56,0.612,0.0,534,4.81,13.1,0.0,1,29.4,2.72,5.9,0,0,0,1,1,0,250,250,0,,,,,,,,,,,,,,,,
15343,1625674134006,1,3,46,49,31,31,-1,-0.01,0.0,1.91,0,0,1,0.01,0,64,4734,7,32,55,0.612,0.0,552,4.81,13.1,0.0,1,28.7,2.71,5.9,0,0,0,1,1,0,250,250,0,52.956921,6.521356,0.0,8.6,11,2,1.3,0,0.0,-1,0.0,,0.0,0,0.0,0.2557
15363,1625674134026,,,,,,,,0.03,0.02,2.03,-0,-2,-1,0.04,,64,4778,7,32,55,0.612,0.0,550,4.82,13.2,0.0,1,29.2,2.75,5.9,0,0,0,1,1,0,250,250,0,,,,,,,,,,,,,,,,
15383,1625674134046,,,,,,,,0.06,-0.05,1.86,-0,-2,-1,0.08,,64,4774,7,32,56,0.611,0.0,542,4.81,13.3,0.0,1,29.5,2.74,5.9,0,0,0,1,1,0,250,250,0,,,,,,,,,,,,,,,,
15403,1625674134066,,,,,,,,0.05,-0.06,1.7,-0,1,1,0.08,,64,4750,7,32,56,0.61,0.0,551,4.81,13.2,0.0,1,29.2,1.62,6.0,0,0,0,1,1,0,250,250,0,,,,,,,,,,,,,,,,
15423,1625674134097,,,,,,,,0.02,-0.03,1.61,0,2,3,0.04,,64,4761,7,32,56,0.609,0.0,541,4.83,13.1,0.0,1,29.3,1.63,6.0,0,0,0,1,1,0,250,250,0,,,,,,,,,,,,,,,,
15443,1625674134117,-1,1,47,49,30,31,-0,-0.01,-0.02,1.81,0,2,3,0.02,0,64,4739,7,32,56,0.609,0.0,547,4.82,13.1,0.0,1,29.0,1.61,6.0,0,0,0,1,1,0,250,250,0,52.956921,6.521356,0.0,8.6,11,2,1.3,0,0.0,-1,0.0,0.0,0.0,0,0.0,0.2574
15463,1625674134137,,,,,,,,-0.01,0.02,1.99,-0,-0,1,0.02,,64,4763,7,32,55,0.608,0.0,551,4.82,13.1,0.0,1,29.0,2.73,6.0,0,0,0,1,1,0,250,250,0,,,,,,,,,,,,,,,,
15483,1625674134157,,,,,,,,0.02,0.03,1.89,-0,-2,-1,0.04,,64,4755,7,32,56,0.608,0.0,539,4.82,13.2,0.0,1,29.2,2.73,6.0,0,0,0,1,1,0,250,250,0,,,,,,,,,,,,,,,,
15503,1625674134177,,,,,,,,0.06,-0.01,1.73,-0,-1,-1,0.06,,64,4751,7,32,55,0.608,0.0,551,4.79,13.2,0.0,1,28.9,2.73,6.0,0,0,0,1,1,0,250,250,0,,,,,,,,,,,,,,,,
15523,1625674134197,,,,,,,,0.04,-0.02,1.59,-0,1,1,0.04,,64,4770,7,32,56,0.607,0.0,550,4.83,13.2,0.0,1,29.4,2.74,6.0,0,0,0,1,1,0,250,250,0,,,,,,,,,,,,,,,,
15543,1625674134217,1,2,46,49,30,31,-1,0.0,0.01,1.69,0,3,3,0.01,0,64,4803,7,32,56,0.605,0.0,547,4.83,13.1,0.0,1,30.0,2.76,6.0,0,0,0,1,1,0,250,250,0,52.956921,6.521356,0.0,8.6,11,2,1.3,0,0.0,-1,0.0,,0.0,0,0.0,0.259
15563,1625674134237,,,,,,,,-0.01,0.03,1.88,-0,1,1,0.03,,64,4788,7,32,56,0.604,0.0,552,4.81,13.0,0.0,1,29.7,2.75,6.0,0,0,0,1,1,0,250,250,0,,,,,,,,,,,,,,,,
15583,1625674134257,,,,,,,,0.02,0.05,2.03,-0,-2,-1,0.05,,64,4789,7,32,56,0.604,0.0,544,4.84,13.1,0.0,1,29.7,2.75,6.0,0,0,0,1,1,0,250,250,0,,,,,,,,,,,,,,,,
15603,1625674134277,,,,,,,,0.06,0.01,1.86,-0,-2,-2,0.06,,64,4742,7,32,56,0.604,0.0,542,4.81,13.2,0.0,1,29.1,2.72,6.0,0,0,0,1,1,0,250,250,0,,,,,,,,,,,,,,,,
15623,1625674134297,,,,,,,,0.06,-0.03,1.7,-0,-0,-0,0.06,,64,4738,7,32,56,0.604,0.0,553,4.81,13.2,0.0,1,29.0,2.72,6.0,0,0,0,1,1,0,250,250,0,,,,,,,,,,,,,,,,
15643,1625674134317,1,3,47,49,31,30,-0,0.03,-0.01,1.56,-0,2,2,0.03,0,64,4756,7,32,56,0.604,0.0,541,4.8,13.1,0.0,1,29.3,2.73,6.0,0,0,0,1,1,0,250,250,0,52.956921,6.521356,0.0,8.6,11,2,1.3,0,0.0,-1,0.0,0.0,0.0,0,0.0,0.2607
15663,1625674134337,,,,,,,,-0.0,-0.01,1.76,0,2,2,0.01,,64,4748,7,32,56,0.604,0.0,542,4.81,13.0,0.0,1,29.1,1.61,6.0,0,0,0,1,1,0,250,250,0,,,,,,,,,,,,,,,,
15683,1625674134357,,,,,,,,-0.02,0.01,1.95,-0,0,1,0.02,,64,4757,7,32,56,0.604,0.0,542,4.84,13.1,0.0,1,29.3,2.73,6.0,0,0,0,1,1,0,250,250,0,,,,,,,,,,,,,,,,
15703,1625674134377,,,,,,,,0.02,0.03,2.12,-0,-2,-1,0.03,,64,4737,7,32,56,0.604,0.0,538,4.81,13.1,0.0,1,29.0,2.72,6.0,0,0,0,1,1,0,250,250,0,,,,,,,,,,,,,,,,
15723,1625674134397,,,,,,,,0.05,-0.02,1.94,-0,-2,-2,0.06,,63,4770,7,32,56,0.605,0.0,550,4.83,13.3,0.0,1,29.4,2.74,6.0,0,0,0,1,1,0,250,250,0,,,,,,,,,,,,,,,,
15743,1625674134417,0,2,47,49,31,31,-0,0.06,-0.05,1.78,-0,-0,-1,0.08,0,63,4734,7,32,56,0.605,0.0,541,4.81,13.2,0.0,1,29.0,1.6,6.0,0,0,0,1,1,0,250,250,0,52.956921,6.521356,0.0,8.6,11,2,1.3,0,0.0,-1,0.0,,0.0,0,0.0,0.2624
15763,1625674134437,,,,,,,,0.04,-0.03,1.63,-0,2,2,0.05,,63,4755,7,32,56,0.605,0.0,539,4.82,13.1,0.0,1,29.2,1.62,6.0,0,0,0,1,1,0,250,250,0,,,,,,,,,,,,,,,,
15783,1625674134457,,,,,,,,-0.0,-0.02,1.83,-0,2,2,0.02,,63,4774,7,32,56,0.605,0.0,552,4.83,13.0,0.0,1,29.5,1.63,6.0,0,0,0,1,1,0,250,250,0,,,,,,,,,,,,,,,,
15803,1625674134477,,,,,,,,-0.01,-0.01,2.01,-0,-1,-0,0.01,,63,4758,7,32,56,0.606,0.0,542,4.85,13.2,0.0,1,29.3,2.73,6.0,0,0,0,1,1,0,250,250,0,,,,,,,,,,,,,,,,
15823,1625674134497,,,,,,,,0.04,-0.01,1.94,-0,-2,-2,0.04,,63,4745,7,32,56,0.607,0.0,547,4.85,13.2,0.0,1,29.1,2.72,6.0,0,0,0,1,1,0,250,250,0,,,,,,,,,,,,,,,,
15843,1625674134517,1,2,47,49,31,31,-0,0.07,-0.02,1.77,-0,-2,-2,0.07,0,63,4595,7,32,56,0.609,0.0,535,4.83,13.2,0.0,1,27.2,2.62,6.0,0,0,0,1,1,0,250,250,0,52.956921,6.521356,0.0,8.6,11,2,1.3,0,0.0,-1,0.0,0.0,0.0,0,0.0,0.264
15863,1625674134537,,,,,,,,0.1,-0.04,1.67,-0,-2,-3,0.11,,63,4443,7,32,56,0.612,0.0,509,4.83,13.1,0.0,1,25.3,2.53,6.0,0,0,0,1,1,0,250,250,0,,,,,,,,,,,,,,,,
15883,1625674134557,,,,,,,,0.11,-0.04,1.79,-0,-3,-4,0.12,,63,4283,7,32,56,0.614,0.0,510,4.84,13.2,0.0,1,23.3,2.44,6.0,0,0,0,1,1,0,250,250,0,,,,,,,,,,,,,,,,
15903,1625674134577,,,,,,,,0.08,-0.01,1.97,-0,-3,-4,0.08,,63,4147,7,32,56,0.615,0.0,463,4.83,13.0,0.0,1,21.5,2.35,4.5,0,0,0,1,1,0,250,250,0,,,,,,,,,,,,,,,,
15923,1625674134597,,,,,,,,0.03,0.0,1.96,-0,-3,-3,0.03,,63,4267,7,32,56,0.616,0.0,470,4.82,13.1,0.0,1,23.0,1.31,4.5,0,0,0,1,1,0,250,250,0,,,,,,,,,,,,,,,,
15943,1625674134617,1,2,46,49,31,31,-1,0.01,0.01,1.8,-0,-1,-1,0.01,0,63,4344,7,32,56,0.617,0.0,466,4.83,13.1,0.0,1,24.1,2.47,4.5,0,0,0,1,1,0,250,250,0,52.956921,6.521356,0.0,8.6,11,2,1.3,0,0.0,-1,0.0,,0.0,0,0.0,0.2657
15963,1625674134637,,,,,,,,0.03,-0.02,1.65,-0,-0,1,0.03,,63,4374,7,32,57,0.619,0.0,479,4.83,13.1,0.0,1,24.6,2.51,4.5,0,0,0,1,1,0,250,250,0,,,,,,,,,,,,,,,,
15983,1625674134657,,,,,,,,0.07,-0.06,1.51,0,1,2,0.09,,63,4386,7,32,57,0.62,0.0,479,4.82,13.1,0.0,1,24.8,2.52,4.5,0,0,0,1,1,0,250,250,0,,,,,,,,,,,,,,,,
16003,1625674134677,,,,,,,,0.11,-0.09,1.38,0,1,2,0.14,,63,4409,7,32,57,0.621,0.0,482,4.81,13.1,0.0,1,25.1,2.53,5.1,0,0,0,1,1,0,250,250,0,,,,,,,,,,,,,,,,
16023,1625674134697,,,,,,,,0.16,-0.1,1.27,0,1,1,0.19,,63,4406,7,32,57,0.623,0.0,498,4.8,13.1,0.0,1,25.1,2.53,5.1,0,0,0,1,1,0,250,250,0,,,,,,,,,,,,,,,,
16043,1625674134717,1,2,47,49,31,31,-1,0.2,-0.12,1.16,0,1,1,0.24,0,63,4446,7,32,57,0.624,0.0,485,4.82,13.1,0.0,1,25.6,2.55,5.1,0,0,0,1,1,0,250,250,0,52.956921,6.521356,0.0,8.6,11,2,1.3,0,0.0,-1,0.0,0.0,0.0,0,0.0,0.2674
16063,1625674134737,,,,,,,,0.23,-0.12,1.06,-0,1,-0,0.26,,63,4482,7,32,57,0.625,0.0,502,4.81,13.2,0.0,1,26.1,2.57,5.1,0,0,0,1,1,0,250,250,0,,,,,,,,,,,,,,,,
16083,1625674134757,,,,,,,,0.25,-0.13,0.97,-0,1,-1,0.28,,63,4533,7,32,57,0.625,0.0,495,4.82,13.1,0.0,1,26.7,2.6,5.1,0,0,0,1,1,0,250,250,0,,,,,,,,,,,,,,,,
16103,1625674134777,,,,,,,,0.28,-0.15,0.89,-0,1,-1,0.32,,63,4580,7,32,57,0.625,0.0,507,4.81,13.1,0.0,1,27.3,2.62,5.5,0,0,0,1,1,0,250,250,0,,,,,,,,,,,,,,,,
16123,1625674134797,,,,,,,,0.29,-0.16,0.82,-0,2,-0,0.33,,63,4595,7,32,57,0.623,0.0,521,4.8,13.1,0.0,1,27.5,2.63,5.5,0,0,0,1,1,0,250,250,0,,,,,,,,,,,,,,,,
16143,1625674134817,0,3,47,49,31,31,-0,0.28,-0.17,0.75,0,4,2,0.33,0,63,4656,7,32,57,0.622,0.0,521,4.81,13.1,0.0,1,28.3,1.55,5.5,0,0,0,1,1,0,250,250,0,52.956921,6.521356,0.0,8.6,11,2,1.3,0,0.0,-1,0.0,,0.0,0,0.0,0.269
16163,1625674134837,,,,,,,,0.25,-0.15,0.69,0,5,4,0.29,,63,4692,7,32,57,0.623,0.0,537,4.83,13.0,0.0,1,28.7,1.57,5.5,0,0,0,1,1,0,250,250,0,,,,,,,,,,,,,,,,
16183,1625674134857,,,,,,,,0.19,-0.13,0.93,0,5,4,0.23,,63,4805,7,32,56,0.623,0.0,545,4.85,12.8,0.0,1,29.9,1.65,5.5,0,0,0,1,1,0,250,250,0,,,,,,,,,,,,,,,,
16203,1625674134877,,,,,,,,0.17,-0.1,1.19,0,2,1,0.2,,63,4795,7,32,56,0.624,0.0,543,4.82,13.1,0.0,1,29.8,2.76,6.1,0,0,0,1,1,0,250,250,0,,,,,,,,,,,,,,,,
16223,1625674134897,,,,,,,,0.21,-0.07,1.33,-0,-0,-1,0.23,,63,4826,7,32,56,0.624,0.0,551,4.81,13.1,0.0,1,30.2,2.77,6.1,0,0,0,1,1,0,250,250,0,,,,,,,,,,,,,,,,
16243,1625674134917,1,2,47,49,31,31,-1,0.21,-0.12,1.22,0,2,1,0.24,0,63,4848,7,32,57,0.624,0.0,545,4.83,13.1,0.0,1,30.8,2.79,6.1,0,0,0,1,1,0,250,250,0,52.956921,6.521356,0.0,8.6,11,2,1.3,0,0.0,-1,0.0,0.0,0.0,0,0.0,0.2707
16263,1625674134937,,,,,,,,0.17,-0.08,1.12,0,4,3,0.19,,63,4817,7,32,56,0.624,0.0,549,4.81,13.0,0.0,1,30.4,2.77,6.1,0,0,0,1,1,0,250,250,0,,,,,,,,,,,,,,,,
16283,1625674134957,,,,,,,,0.13,-0.04,1.36,0,2,2,0.13,,63,4841,7,32,57,0.624,0.0,567,4.81,12.9,0.0,1,30.7,1.67,6.1,0,0,0,1,1,0,250,250,0,,,,,,,,,,,,,,,,
16303,1625674134977,,,,,,,,0.15,-0.03,1.58,-0,-1,-1,0.15,,63,4826,7,32,56,0.624,0.0,549,4.82,13.0,0.0,1,30.2,2.77,6.1,0,0,0,1,1,0,250,250,0,,,,,,,,,,,,,,,,
16323,1625674134997,,,,,,,,0.16,-0.06,1.45,-0,-0,-1,0.18,,63,4891,7,32,57,0.624,0.0,551,4.83,13.1,0.0,1,31.3,2.81,6.1,0,0,0,1,1,0,250,250,0,,,,,,,,,,,,,,,,
16343,1625674135007,0,2,47,49,31,31,-0,0.13,-0.05,1.33,0,3,3,0.14,0,63,4889,7,32,57,0.624,0.0,558,4.82,13.1,0.0,1,31.3,2.8,6.1,0,0,0,1,1,0,250,250,0,52.956921,6.521356,0.0,8.6,11,2,1.3,0,0.0,-1,0.0,,0.0,0,0.0,0.2724
16363,1625674135027,,,,,,,,0.09,-0.03,1.55,0,2,2,0.09,,63,4868,7,32,57,0.624,0.0,552,4.83,12.9,0.0,1,31.0,1.68,6.1,0,0,0,1,1,0,250,250,0,,,,,,,,,,,,,,,,
16383,1625674135047,,,,,,,,0.11,-0.02,1.75,-0,-1,-1,0.11,,63,4910,7,32,56,0.624,0.0,566,4.85,13.0,0.0,1,31.2,2.82,6.1,0,0,0,1,1,0,250,250,0,,,,,,,,,,,,,,,,
16403,1625674135067,,,,,,,,0.14,-0.07,1.61,0,0,-0,0.16,,63,4879,7,32,57,0.623,0.0,561,4.81,13.1,0.0,1,31.1,2.8,6.3,0,0,0,1,1,0,250,250,0,,,,,,,,,,,,,,,,
16423,1625674135096,,,,,,,,0.1,-0.04,1.47,0,3,3,0.1,,63,4942,7,32,57,0.623,0.0,557,4.8,13.1,0.0,1,31.9,1.72,6.3,0,0,0,1,1,0,250,250,0,,,,,,,,,,,,,,,,
16443,1625674135116,1,1,47,49,31,31,-1,0.08,-0.0,1.68,0,0,1,0.08,0,63,4900,7,32,57,0.623,0.0,567,4.8,13.0,0.0,1,31.4,2.81,6.3,0,0,0,1,1,0,250,250,0,52.956921,6.521356,0.0,8.6,11,2,1.3,0,0.0,-1,0.0,0.0,0.0,0,0.0,0.274
16463,1625674135136,,,,,,,,0.14,-0.01,1.85,-0,-2,-2,0.14,,63,4931,7,32,57,0.623,0.0,557,4.82,13.1,0.0,1,31.8,2.83,6.3,0,0,0,1,1,0,250,250,0,,,,,,,,,,,,,,,,
16483,1625674135156,,,,,,,,0.12,-0.05,1.7,0,1,1,0.13,,63,4916,7,32,57,0.623,0.0,557,4.8,13.1,0.0,1,31.6,1.7,6.3,0,0,0,1,1,0,250,250,0,,,,,,,,,,,,,,,,
16503,1625674135176,,,,,,,,0.06,-0.02,1.69,0,3,3,0.07,,63,4901,7,32,57,0.622,0.0,563,4.81,12.8,0.0,1,31.4,2.81,6.3,0,0,0,1,1,0,250,250,0,,,,,,,,,,,,,,,,
16523,1625674135196,,,,,,,,0.08,0.01,1.88,0,-2,-1,0.08,,63,4938,7,32,57,0.623,0.0,558,4.83,12.9,0.0,1,31.9,2.83,6.3,0,0,0,1,1,0,250,250,0,,,,,,,,,,,,,,,,
16543,1625674135216,-1,3,47,49,31,30,-1,0.12,-0.05,1.72,-0,-1,-1,0.13,0,63,4905,7,32,57,0.623,0.0,560,4.83,13.1,0.0,1,31.5,2.81,6.3,0,0,0,1,1,0,250,250,0,52.956921,6.521356,0.0,8.6,11,2,1.3,0,0.0,-1,0.0,,0.0,0,0.0,0.2757
16563,1625674135236,,,,,,,,0.08,-0.06,1.58,0,3,3,0.1,,63,4934,7,32,57,0.623,0.0,568,4.82,13.1,0.0,1,31.8,2.83,6.3,0,0,0,1,1,0,250,250,0,,,,,,,,,,,,,,,,
16583,1625674135256,,,,,,,,0.05,-0.02,1.78,0,1,1,0.06,,63,4908,7,32,57,0.622,0.0,557,4.82,13.0,0.0,1,31.5,2.81,6.3,0,0,0,1,1,0,250,250,0,,,,,,,,,,,,,,,,
16603,1625674135276,,,,,,,,0.1,-0.01,1.97,-0,-2,-2,0.1,,63,4913,7,32,57,0.623,0.0,557,4.82,13.1,0.0,1,31.6,2.81,6.4,0,0,0,1,1,0,250,250,0,,,,,,,,,,,,,,,,
16623,1625674135298,,,,,,,,0.11,-0.07,1.8,0,1,1,0.13,,63,4936,7,32,57,0.623,0.0,561,4.8,13.1,0.0,1,31.9,1.72,6.4,0,0,0,1,1,0,250,250,0,,,,,,,,,,,,,,,,
16643,1625674135318,1,1,47,49,31,30,-0,0.04,-0.05,1.65,0,3,3,0.07,0,63,4931,7,32,57,0.624,0.0,559,4.81,12.8,0.0,1,31.8,2.83,6.4,0,0,0,1,1,0,250,250,0,52.956921,6.521356,0.0,8.6,11,2,1.3,0,0.0,-1,0.0,0.0,0.0,0,0.0,0.2774
16663,1625674135338,,,,,,,,0.05,-0.0,1.85,-0,-2,-1,0.05,,63,4953,7,32,57,0.624,0.0,568,4.83,13.1,0.0,1,32.1,2.84,6.4,0,0,0,1,1,0,250,250,0,,,,,,,,,,,,,,,,
16683,1625674135358,,,,,,,,0.09,-0.06,1.69,-0,-1,-1,0.11,,63,4885,7,32,57,0.625,0.0,565,4.82,13.1,0.0,1,31.2,2.8,6.4,0,0,0,1,1,0,250,250,0,,,,,,,,,,,,,,,,
16703,1625674135378,,,,,,,,0.05,-0.07,1.55,0,3,3,0.09,,63,4931,7,32,57,0.626,0.0,555,4.8,13.0,0.0,1,31.8,1.72,6.4,0,0,0,1,1,0,250,250,0,,,,,,,,,,,,,,,,
16723,1625674135398,,,,,,,,0.02,-0.04,1.75,-0,-0,0,0.04,,63,4926,7,32,57,0.626,0.0,570,4.81,13.0,0.0,1,31.7,2.82,6.4,0,0,0,1,1,0,250,250,0,,,,,,,,,,,,,,,,
16743,1625674135418,-1,3,47,49,31,31,-0,0.07,-0.03,1.94,-0,-3,-2,0.08,0,63,4930,7,32,57,0.626,0.0,560,4.8,13.1,0.0,1,31.8,2.82,6.4,0,0,0,1,1,0,250,250,0,52.956921,6.521356,0.0,8.6,11,2,1.3,0,0.0,-1,0.0,,0.0,0,0.0,0.279
16763,1625674135438,,,,,,,,0.06,-0.09,1.78,-0,1,1,0.11,,63,4957,7,32,57,0.626,0.0,560,4.81,13.1,0.0,1,32.1,2.84,6.4,0,0,0,1,1,0,250,250,0,,,,,,,,,,,,,,,,
16783,1625674135458,,,,,,,,0.02,-0.04,1.73,0,2,2,0.05,,63,4881,7,32,57,0.626,0.0,570,4.8,13.0,0.0,1,31.2,2.8,6.4,0,0,0,1,1,0,250,250,0,,,,,,,,,,,,,,,,
16803,1625674135478,,,,,,,,0.03,0.0,1.92,-0,-3,-2,0.03,,63,4964,7,32,57,0.626,0.0,566,4.83,12.9,0.0,1,32.2,2.85,6.5,0,0,0,1,1,0,250,250,0,,,,,,,,,,,,,,,,
16823,1625674135498,,,,,,,,0.07,-0.05,1.76,-0,-2,-1,0.09,,63,4905,8,32,57,0.626,0.0,561,4.81,13.1,0.0,1,31.5,2.81,6.5,0,0,0,1,1,0,250,250,0,,,,,,,,,,,,,,,,
16843,1625674135518,-1,3,47,49,30,31,-0,0.03,-0.05,1.61,0,2,2,0.06,0,63,4923,8,32,57,0.626,0.0,563,4.82,13.0,0.0,1,31.7,1.71,6.5,0,0,0,1,1,0,250,250,0,52.956921,6.521356,0.0,8.6,11,2,1.3,0,0.0,-1,0.0,0.0,0.0,0,0.0,0.2807
16863,1625674135538,,,,,,,,0.01,-0.03,1.81,-0,0,1,0.03,,63,4882,9,32,58,0.625,0.0,555,4.8,12.9,0.0,1,31.5,2.79,6.5,0,0,0,1,1,0,250,250,0,,,,,,,,,,,,,,,,
16883,1625674135558,,,,,,,,0.04,0.0,1.99,-0,-3,-2,0.04,,63,4929,9,32,59,0.625,0.0,557,4.81,13.1,0.0,1,32.4,2.81,6.5,0,0,0,1,1,0,250,250,0,,,,,,,,,,,,,,,,
16903,1625674135578,,,,,,,,0.06,-0.08,1.83,-0,1,1,0.1,,63,4980,10,32,59,0.624,0.0,571,4.82,13.1,0.0,1,33.0,2.83,6.5,0,0,0,1,1,0,250,250,0,,,,,,,,,,,,,,,,
16923,1625674135598,,,,,,,,-0.0,-0.05,1.68,0,2,2,0.05,,63,4989,10,32,60,0.624,0.0,563,4.82,12.9,0.0,1,33.4,1.71,6.5,0,0,0,1,1,0,250,250,0,,,,,,,,,,,,,,,,
16943,1625674135618,0,1,47,49,30,31,-0,0.04,0.01,1.87,-0,-4,-3,0.04,0,63,5030,10,32,60,0.624,0.0,565,4.81,13.1,0.0,1,33.6,2.82,6.5,0,0,0,1,1,0,250,250,0,52.956921,6.521356,0.0,8.6,11,2,1.3,0,0.0,-1,0.0,,0.0,0,0.0,0.2824
16963,1625674135638,,,,,,,,-0.03,0.01,1.71,0,1,2,0.03,,63,5056,10,32,61,0.624,0.0,571,4.81,13.1,0.0,1,34.0,2.78,6.5,0,0,0,1,1,0,250,250,0,,,,,,,,,,,,,,,,
16983,1625674135658,,,,,,,,0.01,0.05,1.9,-0,1,1,0.05,,63,5138,10,32,61,0.624,0.0,570,4.82,13.0,0.0,1,34.0,2.73,6.5,0,0,0,1,1,0,250,250,0,,,,,,,,,,,,,,,,
17003,1625674135678,,,,,,,,0.0,-0.06,1.74,-0,-1,-2,0.06,,63,5201,10,32,62,0.625,0.0,585,4.82,13.1,0.0,1,34.3,1.65,6.6,0,0,0,1,1,0,250,250,0,,,,,,,,,,,,,,,,
17023,1625674135698,,,,,,,,-0.02,-0.02,1.93,-0,6,2,0.03,,63,5265,9,32,62,0.625,0.0,601,4.82,12.9,0.0,1,34.3,1.62,6.6,0,0,0,1,1,0,250,250,0,,,,,,,,,,,,,,,,
17043,1625674135718,1,1,47,49,31,31,-0,-0.03,-0.11,1.77,-0,2,-1,0.12,0,63,5328,9,32,62,0.626,0.0,595,4.83,13.1,0.0,1,34.2,2.7,6.6,0,0,0,1,1,0,250,250,0,52.956921,6.521356,0.0,8.6,11,2,1.3,0,0.0,-1,0.0,0.0,0.0,0,0.0,0.284
17063,1625674135738,,,,,,,,0.02,-0.06,1.96,-0,5,1,0.06,,63,5378,9,32,61,0.627,0.0,602,4.83,13.0,0.0,1,34.0,2.58,6.6,0,0,0,1,1,0,250,250,0,,,,,,,,,,,,,,,,
17083,1625674135758,,,,,,,,-0.08,-0.07,1.79,-0,6,2,0.1,,63,5428,9,32,61,0.626,0.0,611,4.82,13.1,0.0,1,34.0,2.55,6.6,0,0,0,1,1,0,250,250,0,,,,,,,,,,,,,,,,
17103,1625674135778,,,,,,,,0.06,-0.05,1.98,-0,-2,-4,0.07,,63,5458,9,32,61,0.628,0.0,610,4.82,13.1,0.0,1,34.0,2.53,6.4,0,0,0,1,1,0,250,250,0,,,,,,,,,,,,,,,,
17123,1625674135798,,,,,,,,0.01,-0.05,1.83,0,5,3,0.05,,63,5513,9,32,61,0.629,0.0,619,4.82,12.9,0.0,1,34.0,2.5,6.4,0,0,0,1,1,0,250,250,0,,,,,,,,,,,,,,,,
17143,1625674135818,-0,3,47,49,31,30,-0,-0.08,-0.06,1.68,0,4,2,0.1,0,63,5530,9,32,61,0.63,0.0,623,4.78,13.1,0.0,1,34.0,2.49,6.4,0,0,0,1,1,0,250,250,0,52.956921,6.521356,0.0,8.6,11,2,1.3,0,0.0,-1,0.0,,0.0,0,0.0,0.2857
17163,1625674135838,,,,,,,,0.04,-0.06,1.87,0,-3,-3,0.08,,63,5603,9,32,61,0.632,0.0,629,4.82,13.1,0.0,1,34.0,2.45,6.4,0,0,0,1,1,0,250,250,0,,,,,,,,,,,,,,,,
17183,1625674135858,,,,,,,,0.09,-0.05,2.05,0,-1,-2,0.11,,63,5656,9,32,60,0.633,0.0,629,4.82,13.1,0.0,1,33.7,2.42,6.4,0,0,0,1,1,0,250,250,0,,,,,,,,,,,,,,,,
17203,1625674135878,,,,,,,,0.04,-0.05,1.88,1,4,4,0.06,,63,5678,9,32,60,0.632,0.0,628,4.8,12.9,0.0,1,33.7,1.28,6.3,0,0,0,1,1,0,250,250,0,,,,,,,,,,,,,,,,
17223,1625674135898,,,,,,,,-0.06,-0.06,1.72,1,4,5,0.08,,63,5725,9,32,60,0.632,0.0,630,4.83,13.1,0.0,1,33.7,2.37,6.3,0,0,0,1,1,0,250,250,0,,,,,,,,,,,,,,,,
17243,1625674135918,0,3,47,49,31,31,-1,-0.06,-0.08,1.58,0,0,1,0.1,0,63,5758,9,32,60,0.633,0.0,638,4.84,13.0,0.0,1,33.7,2.35,6.3,0,0,0,1,1,0,250,250,0,52.956921,6.521356,0.0,8.6,11,2,1.3,0,0.0,-1,0.0,0.0,0.0,0,0.0,0.2874
17263,1625674135938,,,,,,,,0.01,-0.08,1.78,0,-6,-4,0.08,,63,5815,9,32,59,0.634,0.0,640,4.83,13.1,0.0,1,33.5,1.2,6.3,0,0,0,1,1,0,250,250,0,,,,,,,,,,,,,,,,
17283,1625674135958,,,,,,,,0.09,-0.06,1.96,-0,-9,-6,0.1,,63,5830,9,32,59,0.636,0.0,637,4.82,13.1,0.0,1,33.5,2.31,6.3,0,0,0,1,1,0,250,250,0,,,,,,,,,,,,,,,,
17303,1625674135978,,,,,,,,0.13,-0.05,2.13,-0,-10,-7,0.14,,63,5892,9,32,59,0.636,0.0,635,4.82,13.1,0.0,1,33.5,2.27,6.2,0,0,0,1,1,0,250,250,0,,,,,,,,,,,,,,,,
17323,1625674135998,,,,,,,,0.15,-0.04,2.29,0,-9,-6,0.16,,63,5924,9,32,58,0.637,0.0,647,4.8,13.0,0.0,1,33.3,2.26,6.2,0,0,0,1,1,0,250,250,0,,,,,,,,,,,,,,,,
17343,1625674136008,-1,3,47,49,31,31,0,0.15,-0.01,2.43,0,-7,-4,0.16,0,63,5956,9,32,58,0.637,0.0,646,4.82,13.1,0.0,1,33.3,2.24,6.2,0,0,0,1,1,0,250,250,0,52.956921,6.521356,0.0,8.6,11,2,1.3,0,0.0,-1,0.0,,0.0,0,0.0,0.2891
17363,1625674136028,,,,,,,,0.16,0.01,2.56,0,-5,-2,0.16,,63,6001,9,32,58,0.637,0.0,647,4.8,12.9,0.0,1,33.4,2.21,6.2,0,0,0,1,1,0,250,250,0,,,,,,,,,,,,,,,,
17383,1625674136048,,,,,,,,0.18,0.03,2.68,0,-3,-0,0.18,,63,6075,9,32,57,0.637,0.0,642,4.81,13.1,0.0,1,33.4,2.22,6.2,0,0,0,1,1,0,250,250,0,,,,,,,,,,,,,,,,
17403,1625674136068,,,,,,,,0.22,0.04,2.79,0,-4,-1,0.22,,63,6105,9,32,57,0.637,0.0,647,4.81,13.0,0.0,1,33.5,2.23,6.3,0,0,0,1,1,0,250,250,0,,,,,,,,,,,,,,,,
17423,1625674136099,,,,,,,,0.26,0.04,2.89,0,-6,-3,0.26,,63,6145,9,32,57,0.636,0.0,649,4.82,13.1,0.0,1,33.7,2.24,6.3,0,0,0,1,1,0,250,250,0,,,,,,,,,,,,,,,,
17443,1625674136119,-1,3,47,49,30,31,-0,0.26,0.03,2.98,0,-9,-6,0.26,0,63,6216,9,32,56,0.639,0.0,650,4.81,13.1,0.0,1,33.7,2.24,6.3,0,0,0,1,1,0,250,250,0,52.956921,6.521356,0.0,8.6,11,2,1.3,0,0.0,-1,0.0,0.0,0.0,0,0.0,0.2907
17463,1625674136139,,,,,,,,0.18,0.03,2.73,0,-9,-7,0.18,,63,6270,9,32,56,0.643,0.0,648,4.83,13.0,0.0,1,33.9,1.12,6.3,0,0,0,1,1,0,250,250,0,,,,,,,,,,,,,,,,
17483,1625674136159,,,,,,,,0.14,0.03,2.51,0,-6,-5,0.14,,63,6377,9,32,54,0.642,0.0,648,4.8,13.0,0.0,1,33.8,1.12,6.3,0,0,0,1,1,0,250,250,0,,,,,,,,,,,,,,,,
17503,1625674136179,,,,,,,,0.2,0.0,2.63,0,-6,-4,0.2,,63,6469,9,32,53,0.641,0.0,650,4.8,12.9,0.0,1,33.8,2.25,6.6,0,0,0,1,1,0,250,250,0,,,,,,,,,,,,,,,,
17523,1625674136197,,,,,,,,0.16,-0.01,2.41,0,-8,-6,0.16,,63,6588,9,32,52,0.641,0.0,655,4.82,13.0,0.0,1,33.9,2.25,6.6,0,0,0,1,1,0,250,250,0,,,,,,,,,,,,,,,,
17543,1625674136217,1,1,47,49,31,31,-1,0.14,-0.02,2.21,0,-4,-3,0.14,0,63,6694,9,32,51,0.641,0.0,653,4.81,12.9,0.0,1,33.9,2.25,6.6,0,0,0,1,1,0,250,250,0,52.956921,6.521356,0.0,8.6,11,2,1.3,0,0.0,-1,0.0,,0.0,0,0.0,0.2924
17563,1625674136237,,,,,,,,0.14,-0.03,2.33,0,-6,-5,0.15,,63,6818,9,32,50,0.64,0.0,658,4.82,13.0,0.0,1,33.8,2.24,6.6,0,0,0,1,1,0,250,250,0,,,,,,,,,,,,,,,,
17583,1625674136257,,,,,,,,0.17,-0.01,2.29,0,-5,-4,0.17,,63,6906,9,32,49,0.639,0.0,666,4.8,13.0,0.0,1,33.7,2.23,6.6,0,0,0,1,1,0,250,250,0,,,,,,,,,,,,,,,,
17603,1625674136277,,,,,,,,0.1,-0.01,2.1,0,-4,-2,0.1,,63,6993,9,32,48,0.639,0.0,663,4.8,12.9,0.0,1,33.6,1.11,7.2,0,0,0,1,1,0,250,250,0,,,,,,,,,,,,,,,,
17623,1625674136297,,,,,,,,0.11,-0.03,2.12,-0,-5,-4,0.12,,63,7043,9,32,47,0.639,0.0,661,4.81,13.1,0.0,1,33.5,2.22,7.2,0,0,0,1,1,0,250,250,0,,,,,,,,,,,,,,,,
17643,1625674136317,1,3,46,49,31,31,-1,0.15,-0.02,2.23,0,-4,-3,0.15,0,63,7075,9,32,47,0.638,0.0,661,4.85,13.1,0.0,1,33.6,2.23,7.2,0,0,0,1,1,0,250,250,0,52.956921,6.521356,0.0,8.6,11,2,1.3,0,0.0,-1,0.0,0.0,0.0,0,0.0,0.294
17663,1625674136337,,,,,,,,0.1,-0.02,2.04,0,-2,-1,0.1,,63,7148,9,32,46,0.638,0.0,664,4.82,12.8,0.0,1,33.4,2.25,7.2,0,0,0,1,1,0,250,250,0,,,,,,,,,,,,,,,,
17683,1625674136357,,,,,,,,0.06,0.01,1.87,0,-2,-1,0.06,,63,7175,9,32,45,0.637,0.0,660,4.81,13.0,0.0,1,33.1,1.14,7.2,0,0,0,1,1,0,250,250,0,,,,,,,,,,,,,,,,
17703,1625674136377,,,,,,,,0.06,-0.02,1.8,0,-3,-2,0.06,,63,7225,9,32,44,0.635,0.0,663,4.81,13.1,0.0,1,32.9,2.26,7.5,0,0,0,1,1,0,250,250,0,,,,,,,,,,,,,,,,
17723,1625674136397,,,,,,,,0.09,0.0,1.99,0,-4,-3,0.09,,63,7253,9,32,44,0.634,0.0,666,4.81,13.1,0.0,1,33.0,2.27,7.5,0,0,0,1,1,0,250,250,0,,,,,,,,,,,,,,,,
17743,1625674136417,1,3,46,49,31,31,-0,0.12,-0.01,2.1,0,-4,-3,0.12,0,63,7264,9,32,43,0.636,0.0,662,4.83,13.0,0.0,1,32.6,2.27,7.5,0,0,0,1,1,0,250,250,0,52.956921,6.521356,0.0,8.6,11,2,1.3,0,0.0,-1,0.0,,0.0,0,0.0,0.2957
17763,1625674136437,,,,,,,,0.11,-0.02,1.93,0,-2,-2,0.11,,63,7275,9,32,42,0.636,0.0,667,4.82,12.9,0.0,1,32.2,2.28,7.5,0,0,0,1,1,0,250,250,0,,,,,,,,,,,,,,,,
17783,1625674136457,,,,,,,,0.09,0.04,1.78,0,-2,-1,0.1,,63,7287,9,32,42,0.636,0.0,667,4.81,13.0,0.0,1,32.2,2.28,7.5,0,0,0,1,1,0,250,250,0,,,,,,,,,,,,,,,,
17803,1625674136477,,,,,,,,0.06,0.04,1.63,0,-1,1,0.07,,64,7290,9,32,42,0.636,0.0,664,4.79,13.1,0.0,1,32.2,1.16,7.7,0,0,0,1,1,0,250,250,0,,,,,,,,,,,,,,,,
17823,1625674136497,,,,,,,,0.01,-0.0,1.49,0,-0,-0,0.01,,64,7290,9,31,41,0.635,0.0,672,4.84,13.2,0.0,1,31.8,1.17,7.7,0,0,0,1,1,0,250,250,0,,,,,,,,,,,,,,,,
17843,1625674136517,0,3,47,49,31,31,-1,0.05,-0.0,1.66,0,-2,-2,0.05,0,64,7250,9,31,41,0.635,0.0,666,4.8,13.1,0.0,1,31.8,1.16,7.7,0,0,0,1,1,0,250,250,0,52.956921,6.521356,0.0,8.6,11,2,1.3,0,0.0,-1,0.0,0.0,0.0,0,0.0,0.2974
17863,1625674136537,,,,,,,,0.09,-0.05,1.76,0,-2,-2,0.1,,64,7200,9,31,40,0.634,0.0,668,4.79,13.2,0.0,1,31.3,1.17,7.7,0,0,0,1,1,0,250,250,0,,,,,,,,,,,,,,,,
17883,1625674136557,,,,,,,,0.09,-0.03,1.66,-0,-1,-1,0.09,,64,7175,9,31,40,0.633,0.0,670,4.8,13.0,0.0,1,31.3,2.29,7.7,0,0,0,1,1,0,250,250,0,,,,,,,,,,,,,,,,
17903,1625674136577,,,,,,,,0.03,-0.03,1.52,-0,1,1,0.04,,64,7104,9,31,40,0.633,0.0,667,4.8,13.0,0.0,1,31.3,1.17,7.5,0,0,0,1,1,0,250,250,0,,,,,,,,,,,,,,,,
17923,1625674136597,,,,,,,,0.07,-0.05,1.5,-0,-1,-1,0.09,,64,7070,9,31,40,0.632,0.0,665,4.8,13.2,0.0,1,31.3,1.17,7.5,0,0,0,1,1,0,250,250,0,,,,,,,,,,,,,,,,
17943,1625674136617,1,1,47,49,31,31,-1,0.13,-0.05,1.71,-0,-2,-1,0.13,0,64,6980,9,31,40,0.632,0.0,661,4.81,13.2,0.0,1,31.2,2.29,7.5,0,0,0,1,1,0,250,250,0,52.956921,6.521356,0.0,8.6,11,2,1.3,0,0.0,-1,0.0,,0.0,0,0.0,0.299
17963,1625674136637,,,,,,,,0.03,-0.05,1.57,-0,0,0,0.06,,64,6913,9,31,40,0.631,0.0,666,4.8,13.0,0.0,1,31.1,1.17,7.5,0,0,0,1,1,0,250,250,0,,,,,,,,,,,,,,,,
17983,1625674136657,,,,,,,,0.08,-0.08,1.77,-0,-2,-2,0.11,,64,6830,9,31,40,0.629,0.0,661,4.81,13.2,0.0,1,30.9,2.29,7.5,0,0,0,1,1,0,250,250,0,,,,,,,,,,,,,,,,
18003,1625674136677,,,,,,,,0.03,-0.02,1.62,-0,0,0,0.04,,64,6749,9,31,41,0.627,0.0,653,4.82,13.1,0.0,1,31.1,2.28,7.1,0,0,0,1,1,0,250,250,0,,,,,,,,,,,,,,,,
18023,1625674136697,,,,,,,,0.09,-0.05,1.82,-0,-2,-2,0.1,,64,6686,9,31,40,0.624,0.0,652,4.81,13.2,0.0,1,30.8,1.17,7.1,0,0,0,1,1,0,250,250,0,,,,,,,,,,,,,,,,
18043,1625674136717,0,2,47,49,31,31,-0,-0.0,-0.05,1.67,-0,-0,-0,0.05,0,64,6602,9,31,41,0.624,0.0,653,4.81,13.1,0.0,1,31.0,2.29,7.1,0,0,0,1,1,0,250,250,0,52.956921,6.521356,0.0,8.6,11,2,1.3,0,0.0,-1,0.0,0.0,0.0,0,0.0,0.3007
18063,1625674136737,,,,,,,,0.05,-0.01,1.73,-0,1,1,0.05,,64,6494,9,31,41,0.623,0.0,657,4.87,13.1,0.0,1,30.7,2.29,7.1,0,0,0,1,1,0,250,250,0,,,,,,,,,,,,,,,,
18083,1625674136757,,,,,,,,0.12,0.01,1.92,-0,-3,-2,0.12,,64,6355,9,31,41,0.623,0.0,649,4.82,13.2,0.0,1,30.6,1.17,7.1,0,0,0,1,1,0,250,250,0,,,,,,,,,,,,,,,,
18103,1625674136777,,,,,,,,0.12,-0.04,1.92,-0,-5,-4,0.13,,64,6231,9,31,41,0.624,0.0,646,4.83,13.2,0.0,1,30.4,2.29,6.6,0,0,0,1,1,0,250,250,0,,,,,,,,,,,,,,,,
18123,1625674136797,,,,,,,,0.11,-0.05,1.78,-0,-6,-6,0.12,,64,6060,9,31,42,0.625,0.0,638,4.82,13.2,0.0,1,30.3,1.18,6.6,0,0,0,1,1,0,250,250,0,,,,,,,,,,,,,,,,
18143,1625674136817,-1,3,47,49,31,30,-0,0.15,-0.06,1.97,-0,-10,-10,0.16,0,64,5839,9,31,43,0.627,0.0,633,4.82,13.1,0.0,1,30.1,2.37,6.6,0,0,0,1,1,0,250,250,0,52.956921,6.521356,0.0,8.6,11,2,1.3,0,0.0,-1,0.0,,0.0,0,0.0,0.3024
18163,1625674136837,,,,,,,,0.22,-0.03,2.14,-1,-15,-13,0.23,,64,5588,9,31,44,0.629,0.0,631,4.8,13.2,0.0,1,29.8,2.48,6.6,0,0,0,1,1,0,250,250,0,,,,,,,,,,,,,,,,
18183,1625674136857,,,,,,,,0.11,-0.01,1.96,-0,-6,-5,0.11,,64,5346,9,31,45,0.628,0.0,621,4.81,13.0,0.0,1,29.6,1.48,6.6,0,0,0,1,1,0,250,250,0,,,,,,,,,,,,,,,,
18203,1625674136877,,,,,,,,0.21,-0.02,2.13,-1,-9,-10,0.21,,64,5221,9,31,47,0.627,0.0,598,4.82,13.2,0.0,1,29.9,2.69,6.4,0,0,0,1,1,0,250,250,0,,,,,,,,,,,,,,,,
18223,1625674136897,,,,,,,,0.12,-0.01,1.95,-1,-2,-4,0.12,,64,5041,9,31,48,0.627,0.0,587,4.81,13.0,0.0,1,29.9,1.68,6.4,0,0,0,1,1,0,250,250,0,,,,,,,,,,,,,,,,
18243,1625674136917,-1,3,47,49,30,31,-0,0.14,0.03,2.12,-1,-7,-8,0.14,0,64,4896,9,31,49,0.627,0.0,571,4.83,13.2,0.0,1,28.9,2.75,6.4,0,0,0,1,1,0,250,250,0,52.956921,6.521356,0.0,8.6,11,2,1.3,0,0.0,-1,0.0,0.0,0.0,0,0.0,0.304
18263,1625674136937,,,,,,,,0.19,-0.0,1.94,-1,-7,-8,0.19,,64,4779,9,31,50,0.628,0.0,548,4.82,13.2,0.0,1,27.8,2.7,6.4,0,0,0,1,1,0,250,250,0,,,,,,,,,,,,,,,,
18283,1625674136957,,,,,,,,0.19,-0.03,1.78,-1,-5,-6,0.2,,64,4764,9,31,51,0.628,0.0,551,4.81,13.2,0.0,1,27.9,2.69,6.4,0,0,0,1,1,0,250,250,0,,,,,,,,,,,,,,,,
18303,1625674136977,,,,,,,,0.19,-0.05,1.63,-1,-4,-4,0.19,,64,4615,9,31,51,0.628,0.0,533,4.82,13.2,0.0,1,26.0,2.61,5.7,0,0,0,1,1,0,250,250,0,,,,,,,,,,,,,,,,
18323,1625674136997,,,,,,,,0.16,-0.05,1.5,-0,-2,-2,0.17,,64,4613,9,31,52,0.629,0.0,515,4.81,13.1,0.0,1,26.3,1.5,5.7,0,0,0,1,1,0,250,250,0,,,,,,,,,,,,,,,,
18343,1625674137007,0,2,47,49,31,31,-0,0.15,-0.06,1.37,-0,-1,-1,0.16,0,64,4549,9,31,53,0.628,0.0,516,4.8,13.2,0.0,1,25.8,2.58,5.7,0,0,0,1,1,0,250,250,0,52.956921,6.521356,0.0,8.6,11,2,1.3,0,0.0,-1,0.0,,0.0,0,0.0,0.3057
18363,1625674137027,,,,,,,,0.14,-0.08,1.26,-0,1,1,0.16,,64,4430,9,31,54,0.626,0.0,483,4.82,13.2,0.0,1,24.6,2.5,5.7,0,0,0,1,1,0,250,250,0,,,,,,,,,,,,,,,,
18383,1625674137047,,,,,,,,0.13,-0.09,1.15,-0,2,2,0.16,,64,4487,9,31,55,0.625,0.0,501,4.82,13.3,0.0,1,25.5,2.56,5.7,0,0,0,1,1,0,250,250,0,,,,,,,,,,,,,,,,
18403,1625674137067,,,,,,,,0.15,-0.11,1.05,-0,2,2,0.19,,64,4404,9,31,55,0.623,0.0,478,4.8,13.3,0.0,1,24.5,1.38,5.1,0,0,0,1,1,7,250,250,0,,,,,,,,,,,,,,,,
18423,1625674137096,,,,,,,,0.18,-0.13,0.97,-0,3,3,0.22,,64,4395,9,31,56,0.623,0.7,477,4.81,13.3,0.0,1,24.7,2.51,5.1,0,0,0,1,1,7,250,250,7,,,,,,,,,,,,,,,,
18443,1625674137116,-0,3,47,49,31,31,-1,0.2,-0.11,0.89,-0,3,3,0.23,0,64,4422,9,31,57,0.622,0.7,486,4.81,13.2,0.0,1,25.3,2.54,5.1,0,0,0,1,1,7,250,1018,7,52.956921,6.521356,0.0,8.6,11,2,1.3,0,0.0,-1,0.0,0.0,0.0,0,0.0,0.3074
18463,1625674137136,,,,,,,,0.22,-0.1,0.88,-0,3,2,0.25,,64,4358,9,31,57,0.623,0.7,472,4.81,13.3,0.0,1,24.4,2.5,5.1,0,0,0,1,1,7,250,1018,7,,,,,,,,,,,,,,,,
18483,1625674137156,,,,,,,,0.24,-0.1,0.99,-0,2,1,0.26,,64,4414,9,31,58,0.624,0.8,476,4.81,13.3,0.0,1,25.4,2.55,5.1,0,0,0,1,1,7,1018,1018,7,,,,,,,,,,,,,,,,
18503,1625674137176,,,,,,,,0.24,-0.1,1.23,-0,1,0,0.26,,64,4377,9,31,59,0.624,0.8,467,4.81,13.2,0.0,1,25.2,2.53,5.1,0,0,0,1,1,7,1018,1018,7,,,,,,,,,,,,,,,,
18523,1625674137198,,,,,,,,0.23,-0.08,1.46,-0,-1,-1,0.24,,64,4396,9,31,59,0.624,0.8,491,4.81,13.2,0.0,1,25.4,2.55,5.1,0,0,0,1,1,7,1018,1018,7,,,,,,,,,,,,,,,,
18543,1625674137218,-1,3,47,49,31,31,-2,0.2,-0.05,1.67,-0,-2,-2,0.21,0,64,4408,9,31,59,0.624,0.8,481,4.82,13.1,0.0,1,25.6,2.56,5.1,0,0,0,1,1,7,1018,1018,7,52.956921,6.521356,0.0,8.6,11,2,1.3,0,0.0,-1,0.0,,0.0,0,0.0,0.309
18563,1625674137238,,,,,,,,0.15,-0.03,1.87,-0,-2,-3,0.16,,64,4392,9,31,60,0.624,0.8,476,4.83,13.1,0.0,1,25.7,2.57,5.1,0,0,0,1,1,7,1018,1018,7,,,,,,,,,,,,,,,,
18583,1625674137258,,,,,,,,0.11,-0.02,1.97,-0,-3,-3,0.11,,64,4397,9,31,60,0.624,0.8,486,4.83,13.0,0.0,1,25.8,2.57,5.1,0,0,0,1,1,7,1018,1018,7,,,,,,,,,,,,,,,,
18603,1625674137278,,,,,,,,0.07,-0.03,1.87,-0,-2,-2,0.08,,64,4374,9,31,61,0.624,0.8,472,4.82,13.0,0.0,1,25.7,1.46,5.1,0,0,0,1,1,7,1018,1018,7,,,,,,,,,,,,,,,,
18623,1625674137298,,,,,,,,0.04,-0.04,1.71,-0,-1,-1,0.06,,64,4376,9,31,61,0.624,0.8,473,4.82,13.2,0.0,1,25.8,2.58,5.1,0,0,0,1,1,10,1018,1018,7,,,,,,,,,,,,,,,,
18643,1625674137318,-1,3,47,49,31,31,-5,0.04,-0.05,1.57,-0,-0,0,0.06,0,64,4413,9,31,62,0.625,1.0,466,4.82,13.1,0.0,1,26.5,2.63,5.1,0,0,0,1,1,10,1018,1018,10,52.956921,6.521356,0.0,8.6,11,2,1.3,0,0.0,-1,0.0,0.0,0.0,0,0.0,0.3107
18663,1625674137338,,,,,,,,0.04,-0.06,1.44,-0,1,2,0.07,,64,4364,9,31,62,0.626,1.0,477,4.83,13.2,0.0,1,25.8,2.62,5.1,0,0,0,1,1,10,1018,5408,10,,,,,,,,,,,,,,,,
18683,1625674137358,,,,,,,,0.06,-0.07,1.32,-0,2,2,0.09,,64,4390,9,31,62,0.627,1.0,476,4.82,13.2,0.0,1,26.2,2.62,5.1,0,0,0,1,1,10,5408,5408,10,,,,,,,,,,,,,,,,
18703,1625674137378,,,,,,,,0.1,-0.08,1.21,-0,2,2,0.12,,64,4422,9,31,62,0.628,1.0,475,4.81,13.2,0.0,1,26.6,2.63,5.3,0,0,0,1,1,10,5408,5408,10,,,,,,,,,,,,,,,,
18723,1625674137398,,,,,,,,0.13,-0.08,1.11,-0,2,2,0.15,,64,4358,9,31,63,0.628,1.0,477,4.81,13.2,0.0,1,26.0,2.65,5.3,0,0,0,1,1,10,5408,5408,10,,,,,,,,,,,,,,,,
18743,1625674137418,-0,3,47,49,31,31,-6,0.16,-0.07,1.11,-0,2,1,0.17,0,64,4441,9,31,63,0.629,1.0,468,4.8,13.2,0.0,1,27.1,2.69,5.3,0,0,0,1,1,10,5408,5408,10,52.956921,6.521356,0.0,8.6,11,2,1.3,0,0.0,-1,0.0,,0.0,0,0.0,0.3124
18763,1625674137438,,,,,,,,0.19,-0.06,1.13,-0,1,1,0.2,,64,4468,9,31,63,0.629,1.0,485,4.81,13.3,0.0,1,27.5,2.7,5.3,0,0,0,1,1,10,5408,5408,10,,,,,,,,,,,,,,,,
18783,1625674137458,,,,,,,,0.2,-0.06,1.24,-0,1,0,0.21,,64,4431,9,31,63,0.629,1.0,470,4.79,13.3,0.0,1,27.0,2.68,5.3,0,0,0,1,1,10,5408,5408,10,,,,,,,,,,,,,,,,
18803,1625674137478,,,,,,,,0.23,-0.07,1.14,-0,-0,-1,0.24,,64,4506,9,31,63,0.628,1.3,483,4.81,13.3,0.0,1,28.0,2.71,5.5,0,0,0,1,1,12,5408,5408,13,,,,,,,,,,,,,,,,
18823,1625674137498,,,,,,,,0.25,-0.06,1.04,-0,-1,-1,0.26,,64,4506,9,31,64,0.629,1.3,497,4.81,13.3,0.0,1,28.3,2.71,5.5,0,0,0,1,1,12,5408,-1,13,,,,,,,,,,,,,,,,
18843,1625674137518,-1,3,47,49,30,31,-6,0.27,-0.06,0.96,-1,-1,-2,0.28,0,64,4488,9,31,64,0.629,1.3,483,4.83,13.3,0.0,1,28.0,2.75,5.5,0,0,0,1,1,12,5408,-1,13,52.956921,6.521356,0.0,8.6,11,2,1.3,0,0.0,-1,0.0,0.0,0.0,0,0.0,0.314
18863,1625674137538,,,,,,,,0.29,-0.08,0.88,-1,-1,-2,0.3,,64,4555,9,31,64,0.63,1.3,502,4.82,13.2,0.0,1,28.9,2.78,5.5,0,0,0,1,1,12,-1,-1,13,,,,,,,,,,,,,,,,
18883,1625674137558,,,,,,,,0.31,-0.09,0.8,-0,-2,-2,0.32,,64,4494,9,31,64,0.63,1.3,485,4.81,13.3,0.0,1,28.1,2.75,5.5,0,0,0,1,1,12,-1,-1,13,,,,,,,,,,,,,,,,
18903,1625674137578,,,,,,,,0.32,-0.09,0.74,-1,-2,-2,0.33,,64,4569,9,31,64,0.63,1.3,497,4.81,13.2,0.0,1,29.1,2.79,5.8,0,0,0,1,1,12,-1,-1,13,,,,,,,,,,,,,,,,
18923,1625674137598,,,,,,,,0.32,-0.11,0.67,-0,-1,-2,0.34,,64,4564,9,31,64,0.63,1.3,502,4.82,13.2,0.0,1,29.0,2.78,5.8,0,0,0,1,1,12,-1,-1,13,,,,,,,,,,,,,,,,
18943,1625674137618,1,1,47,49,31,31,-6,0.32,-0.1,0.62,-0,-1,-1,0.34,0,64,4578,9,31,64,0.629,1.3,493,4.83,13.3,0.0,1,29.2,2.79,5.8,0,0,0,1,1,12,-1,-1,13,52.956921,6.521356,0.0,8.6,11,2,1.3,0,0.0,-1,0.0,,0.0,0,0.0,0.3157
18963,1625674137638,,,,,,,,0.29,-0.11,0.57,-0,1,0,0.31,,64,4646,9,31,64,0.629,1.4,524,4.82,13.2,0.0,1,30.1,2.81,5.8,0,0,0,1,1,14,-1,-1,14,,,,,,,,,,,,,,,,
18983,1625674137658,,,,,,,,0.24,-0.1,0.52,-0,2,2,0.26,,64,4625,9,31,64,0.628,1.4,511,4.81,13.2,0.0,1,29.8,2.81,5.8,0,0,0,1,1,14,-1,-1281,14,,,,,,,,,,,,,,,,
19003,1625674137678,,,,,,,,0.17,-0.08,0.75,-0,4,3,0.19,,64,4745,9,31,64,0.628,1.5,524,4.82,13.2,0.0,1,31.5,2.86,6.2,0,0,0,1,1,14,-1281,-1281,14,,,,,,,,,,,,,,,,
19023,1625674137698,,,,,,,,0.14,-0.03,1.02,-0,3,2,0.15,,64,4756,9,31,64,0.627,1.5,532,4.82,13.0,0.0,1,31.6,2.85,6.2,0,0,0,1,1,14,-1281,-1281,14,,,,,,,,,,,,,,,,
