"Interval"|"ms"|0|0|1,"Utc"|"ms"|0|0|1,"Brake_F"|"Bar"|0|2000|10,"Brake_R"|"Bar"|0|2000|10,"Height_RF"|"mm"|0|255|10,"Height_LF"|"mm"|0|255|10,"Height_LR"|"mm"|0|80|10,"Height_RR"|"mm"|0|255|10,"Steering"|"deg"|-100|100|10,"AccelX"|"G"|-3.0|3.0|50,"AccelY"|"G"|-3.0|3.0|50,"AccelZ"|"G"|-3.0|3.0|50,"Yaw"|"Deg/Sec"|-120|120|50,"Pitch"|"Deg/Sec"|-120|120|50,"Roll"|"Deg/Sec"|-120|120|50,"Gsum"|"G"|0.0|3.0|50,"Log_Button"|""|0.0|10.0|10,"WaterTemp"|"C"|0|150|50,"RPM"|"tr/min"|0|14000|50,"TPS"|"%"|0|100|50,"AirTemp"|"C"|0|150|50,"MAP"|"KPa"|0|100|50,"Lambda"|""|0.5|1.5|50,"SpeedDTA"|"kph"|0.0|250.0|50,"OilPress"|"KPa"|0|1500|50,"FuelPressur"|"Bar"|0.0|10.0|50,"Batterie"|"V"|0.0|20.0|50,"ConsoKm"|"L/100km"|0.0|200.0|50,"Gear"|""|0|6|50,"AdvIgnition"|"Deg"|-20.0|70.0|50,"Injection"|"ms"|0.0|10.0|50,"ConsoHr"|"L/Hr"|0.0|10000.0|50,"LC_But_Pres"|""|0|1|50,"LC_Active"|""|0|1|50,"TractionOn"|""|0|1|50,"TractionWet"|""|0|1|50,"FanOn"|""|0|1|50,"RD_Speed"|"km/h"|-30|250|50,"RUD_Speed"|"km/h"|-30|250|50,"LD_Speed"|"km/h"|-30|250|50,"LUD_Speed"|"km/h"|-30|250|50,"Latitude"|"Degrees"|-180.0|180.0|10,"Longitude"|"Degrees"|-180.0|180.0|10,"Speed"|"kph"|0.0|150.0|10,"Altitude"|"m"|0.0|4000.0|10,"GPSSats"|""|0|20|10,"GPSQual"|""|0|5|10,"GPSDOP"|""|0.0|20.0|10,"LapCount"|""|0|0|10,"LapTime"|"Min"|0.0|0.0|10,"Sector"|""|0|0|10,"SectorTime"|"Min"|0.0|0.0|10,"PredTime"|"Min"|0.0|0.0|5,"ElapsedTime"|"Min"|0.0|0.0|10,"CurrentLap"|""|0|0|10,"Distance"|"km"|0.0|0.0|10,"SessionTime"|"Min"|0.0|0.0|10
29063,1625672330684,,,,,,,,0.07,0.03,2.04,0,-3,-3,0.08,,69,4713,7,35,56,0.602,0.0,492,4.84,13.2,0.0,1,28.7,2.69,6.0,0,0,0,1,0,0,250,250,0,,,,,,,,,,,,,,,,
29083,1625672330704,,,,,,,,0.11,0.04,1.95,0,-6,-4,0.12,,69,4722,7,35,57,0.603,0.0,496,4.85,13.3,0.0,1,29.1,2.69,5.8,0,0,0,1,0,0,250,250,0,,,,,,,,,,,,,,,,
29103,1625672330724,,,,,,,,0.08,0.03,1.79,0,-2,-2,0.09,,69,4744,7,35,57,0.602,0.0,490,4.81,13.2,0.0,1,29.4,2.71,5.8,0,0,0,1,0,0,250,250,0,,,,,,,,,,,,,,,,
29123,1625672330744,,,,,,,,0.05,0.05,1.64,0,1,1,0.06,,69,4757,7,35,56,0.602,0.0,501,4.78,13.1,0.0,1,29.3,2.72,5.8,0,0,0,1,0,0,250,250,0,,,,,,,,,,,,,,,,
29143,1625672330764,5,5,45,48,31,31,7,0.02,0.07,1.84,0,1,1,0.07,1,69,4808,7,35,56,0.602,0.0,500,4.77,13.1,0.0,1,29.9,1.65,5.8,0,0,0,1,0,0,250,250,0,52.95639,6.524495,0.0,9.7,10,3,1.4,0,0.0,-1,0.0,,0.0,0,0.0,0.4857
29163,1625672330784,,,,,,,,0.06,0.08,2.02,0,-4,-2,0.1,,69,4767,7,35,56,0.602,0.0,497,4.86,13.3,0.0,1,29.4,2.73,5.8,0,0,0,1,0,0,250,250,0,,,,,,,,,,,,,,,,
29183,1625672330804,,,,,,,,0.1,0.05,1.85,0,-5,-4,0.11,,69,4758,7,35,57,0.603,0.0,498,4.82,13.3,0.0,1,29.6,2.72,5.9,0,0,0,1,0,0,250,250,0,,,,,,,,,,,,,,,,
29203,1625672330824,,,,,,,,0.09,-0.0,1.69,0,-2,-2,0.09,,69,4778,7,35,57,0.603,0.0,490,4.76,13.3,0.0,1,29.8,1.63,5.9,0,0,0,1,0,0,250,250,0,,,,,,,,,,,,,,,,
29223,1625672330844,,,,,,,,0.06,0.01,1.55,0,1,1,0.06,,69,4757,7,35,57,0.603,0.0,491,4.8,13.2,0.0,1,29.6,1.62,5.9,0,0,0,1,0,0,250,250,0,,,,,,,,,,,,,,,,
29243,1625672330864,7,3,45,48,31,31,7,0.02,0.05,1.76,0,2,2,0.05,0,69,4775,7,35,57,0.603,0.0,506,4.8,13.0,0.0,1,29.8,1.63,5.9,0,0,0,1,0,0,250,250,0,52.95639,6.524495,0.0,9.7,10,3,1.4,0,0.0,-1,0.0,0.0,0.0,0,0.0,0.4874
29263,1625672330884,,,,,,,,0.02,0.06,1.94,0,-1,-0,0.06,,69,4736,7,35,57,0.604,0.0,494,4.79,13.0,0.0,1,29.3,2.7,5.9,0,0,0,1,0,0,250,250,0,,,,,,,,,,,,,,,,
29283,1625672330906,,,,,,,,0.07,0.08,2.11,0,-4,-2,0.11,,69,4769,7,35,56,0.604,0.0,508,4.82,13.1,0.0,1,29.4,2.73,5.9,0,0,0,1,0,0,250,250,0,,,,,,,,,,,,,,,,
29303,1625672330926,,,,,,,,0.08,0.05,1.94,0,-4,-3,0.1,,69,4785,7,35,57,0.605,0.0,500,4.81,13.3,0.0,1,29.9,2.74,5.9,0,0,0,1,0,0,250,250,0,,,,,,,,,,,,,,,,
29323,1625672330946,,,,,,,,0.07,-0.01,1.77,0,-2,-1,0.07,,69,4745,7,35,57,0.605,0.0,489,4.83,13.3,0.0,1,29.4,2.71,5.9,0,0,0,1,0,0,250,250,0,,,,,,,,,,,,,,,,
29343,1625672330966,7,5,45,49,31,31,7,0.03,0.02,1.63,0,2,2,0.04,0,69,4780,7,35,57,0.605,0.0,505,4.79,13.1,0.0,1,29.9,1.63,5.9,0,0,0,1,0,0,250,250,0,52.95639,6.524495,0.0,9.7,10,3,1.4,0,0.0,-1,0.0,,0.0,0,0.0,0.489
29363,1625672330986,,,,,,,,0.01,0.04,1.82,0,2,2,0.05,,69,4701,7,35,56,0.605,0.0,498,4.78,13.0,0.0,1,28.5,1.58,5.9,0,0,0,1,0,0,250,250,0,,,,,,,,,,,,,,,,
29383,1625672330994,,,,,,,,-0.01,0.06,2.0,0,0,1,0.06,,69,4673,7,35,56,0.606,0.0,493,4.78,13.0,0.0,1,28.2,2.66,5.7,0,0,0,1,0,0,250,250,0,,,,,,,,,,,,,,,,
29403,1625672331014,,,,,,,,0.04,0.1,2.17,0,-4,-2,0.11,,69,4772,7,35,56,0.606,0.0,498,4.8,13.3,0.0,1,29.5,2.73,5.7,0,0,0,1,0,0,250,250,0,,,,,,,,,,,,,,,,
29423,1625672331034,,,,,,,,0.07,0.08,1.99,0,-4,-3,0.11,,69,4756,7,35,56,0.606,0.0,491,4.83,13.3,0.0,1,29.3,2.72,5.7,0,0,0,1,0,0,250,250,0,,,,,,,,,,,,,,,,
29443,1625672331054,5,5,45,49,31,31,6,0.07,0.02,1.82,0,-1,-2,0.08,0,69,4760,7,35,57,0.607,0.0,500,4.8,13.3,0.0,1,29.6,1.62,5.7,0,0,0,1,0,0,250,250,0,52.95639,6.524495,0.0,9.7,10,3,1.4,0,0.0,-1,0.0,0.0,0.0,0,0.0,0.4907
29463,1625672331074,,,,,,,,0.04,0.03,1.67,0,2,2,0.05,,69,4802,7,35,57,0.606,0.0,502,4.79,13.2,0.0,1,30.2,1.64,5.7,0,0,0,1,0,0,250,250,0,,,,,,,,,,,,,,,,
29483,1625672331105,,,,,,,,0.0,0.06,1.86,0,3,2,0.06,,69,4721,7,35,56,0.605,0.0,493,4.8,13.2,0.0,1,28.8,2.69,5.8,0,0,0,1,0,0,250,250,0,,,,,,,,,,,,,,,,
29503,1625672331125,,,,,,,,0.01,0.06,2.04,0,0,0,0.06,,69,4788,7,35,56,0.605,0.0,504,4.83,13.2,0.0,1,29.7,2.74,5.8,0,0,0,1,0,0,250,250,0,,,,,,,,,,,,,,,,
29523,1625672331145,,,,,,,,0.04,0.08,2.2,0,-3,-2,0.09,,69,4739,7,35,56,0.606,0.0,492,4.83,13.2,0.0,1,29.0,2.71,5.8,0,0,0,1,0,0,250,250,0,,,,,,,,,,,,,,,,
29543,1625672331165,6,5,45,48,31,31,6,0.09,0.04,2.02,0,-3,-3,0.09,0,69,4752,7,35,56,0.606,0.0,493,4.81,13.3,0.0,1,29.2,2.72,5.8,0,0,0,1,0,0,250,250,0,52.95639,6.524495,0.0,9.7,10,3,1.4,0,0.0,-1,0.0,,0.0,0,0.0,0.4924
29563,1625672331185,,,,,,,,0.07,-0.0,1.85,0,-0,-1,0.07,,69,4766,7,35,57,0.605,0.0,503,4.79,13.3,0.0,1,29.7,2.73,5.8,0,0,0,1,0,0,250,250,0,,,,,,,,,,,,,,,,
29583,1625672331203,,,,,,,,0.03,0.02,1.7,0,3,2,0.04,,69,4774,7,35,56,0.604,0.0,494,4.81,13.2,0.0,1,29.5,1.63,6.0,0,0,0,1,0,0,250,250,0,,,,,,,,,,,,,,,,
29603,1625672331223,,,,,,,,0.01,0.05,1.89,0,3,2,0.05,,69,4794,7,35,56,0.604,0.0,507,4.79,13.0,0.0,1,29.8,1.65,6.0,0,0,0,1,0,0,250,250,0,,,,,,,,,,,,,,,,
29623,1625672331243,,,,,,,,0.02,0.07,2.06,0,-1,-0,0.07,,69,4751,7,35,56,0.604,0.0,497,4.83,13.2,0.0,1,29.2,2.72,6.0,0,0,0,1,0,0,250,250,0,,,,,,,,,,,,,,,,
29643,1625672331263,5,5,45,48,31,31,6,0.06,0.07,2.08,0,-3,-2,0.09,0,69,4758,7,35,57,0.604,0.0,487,4.82,13.3,0.0,1,29.6,2.72,6.0,0,0,0,1,0,0,250,250,0,52.956406,6.524553,1.68,9.1,10,3,1.4,0,0.0,-1,0.0,0.0,0.0,0,0.0,0.494
29663,1625672331283,,,,,,,,0.08,0.04,1.91,0,-2,-2,0.09,,69,4711,7,35,57,0.605,0.0,493,4.82,13.3,0.0,1,29.0,2.69,6.0,0,0,0,1,0,0,250,250,0,,,,,,,,,,,,,,,,
29683,1625672331303,,,,,,,,0.07,-0.01,1.75,0,1,0,0.07,,69,4740,7,35,57,0.605,0.0,483,4.81,13.3,0.0,1,29.3,1.61,5.8,0,0,0,1,0,0,250,250,0,,,,,,,,,,,,,,,,
29703,1625672331323,,,,,,,,0.04,0.01,1.6,0,3,3,0.04,,69,4740,7,35,56,0.605,0.0,491,4.78,13.1,0.0,1,29.0,1.61,5.8,0,0,0,1,0,0,250,250,0,,,,,,,,,,,,,,,,
29723,1625672331343,,,,,,,,0.0,0.05,1.8,0,3,2,0.05,,69,4795,7,35,56,0.605,0.0,506,4.78,13.1,0.0,1,29.8,2.75,5.8,0,0,0,1,0,0,250,250,0,,,,,,,,,,,,,,,,
29743,1625672331363,6,3,45,48,31,31,5,0.03,0.05,1.98,0,-1,-1,0.06,0,69,4807,7,35,56,0.605,0.0,501,4.87,13.2,0.0,1,29.9,2.75,5.8,0,0,0,1,0,0,250,250,0,52.956406,6.524553,0.0,9.1,10,3,1.4,0,0.0,-1,0.0,,0.0,0,0.0,0.4957
29763,1625672331383,,,,,,,,0.08,0.05,1.86,0,-3,-2,0.09,,69,4790,7,35,56,0.606,0.0,509,4.88,13.3,0.0,1,29.7,2.74,5.8,0,0,0,1,0,0,250,250,0,,,,,,,,,,,,,,,,
29783,1625672331405,,,,,,,,0.09,-0.01,1.7,0,-1,-1,0.09,,69,4785,7,35,57,0.606,0.0,493,4.8,13.3,0.0,1,29.9,1.64,6.0,0,0,0,1,0,0,250,250,0,,,,,,,,,,,,,,,,
29803,1625672331425,,,,,,,,0.05,-0.01,1.56,0,2,2,0.05,,69,4801,7,35,57,0.606,0.0,497,4.77,13.2,0.0,1,30.1,1.64,6.0,0,0,0,1,0,0,250,250,0,,,,,,,,,,,,,,,,
29823,1625672331445,,,,,,,,0.01,0.03,1.73,0,3,2,0.03,,69,4749,7,35,57,0.606,0.0,511,4.81,13.1,0.0,1,29.3,1.61,6.0,0,0,0,1,0,0,250,250,0,,,,,,,,,,,,,,,,
29843,1625672331465,7,3,45,49,31,31,7,0.01,0.04,1.92,0,0,-0,0.04,0,69,4768,7,35,56,0.606,0.0,498,4.83,13.2,0.0,1,29.4,2.73,6.0,0,0,0,1,0,0,250,250,0,52.956406,6.524553,0.0,9.1,10,3,1.4,0,0.0,-1,0.0,0.0,0.0,0,0.0,0.4974
29863,1625672331485,,,,,,,,0.05,0.06,2.09,0,-3,-3,0.07,,69,4783,7,35,57,0.606,0.0,493,4.85,13.3,0.0,1,29.9,2.74,6.0,0,0,0,1,0,0,250,250,0,,,,,,,,,,,,,,,,
29883,1625672331503,,,,,,,,0.07,0.03,1.92,0,-3,-3,0.08,,69,4783,7,35,56,0.606,0.0,501,4.8,13.3,0.0,1,29.6,2.74,6.0,0,0,0,1,0,0,250,250,0,,,,,,,,,,,,,,,,
29903,1625672331523,,,,,,,,0.06,-0.03,1.76,0,0,-0,0.07,,69,4750,7,35,57,0.606,0.0,488,4.82,13.3,0.0,1,29.5,2.72,6.0,0,0,0,1,0,0,250,250,0,,,,,,,,,,,,,,,,
29923,1625672331543,,,,,,,,0.03,0.0,1.61,0,2,2,0.03,,69,4738,7,35,57,0.606,0.0,505,4.82,13.1,0.0,1,29.3,1.62,6.0,0,0,0,1,0,0,250,250,0,,,,,,,,,,,,,,,,
29943,1625672331563,7,3,45,49,31,31,5,-0.0,0.03,1.81,0,2,1,0.03,0,69,4732,7,35,56,0.606,0.0,504,4.81,13.0,0.0,1,28.9,1.6,6.0,0,0,0,1,0,0,250,250,0,52.956406,6.524553,0.0,9.1,10,3,1.4,0,0.0,-1,0.0,,0.0,0,0.0,0.499
29963,1625672331583,,,,,,,,-0.01,0.04,1.99,0,-1,-1,0.04,,69,4757,7,35,57,0.606,0.0,497,4.81,13.0,0.0,1,29.6,2.72,6.0,0,0,0,1,0,0,250,250,0,,,,,,,,,,,,,,,,
29983,1625672331603,,,,,,,,0.04,0.06,2.16,0,-4,-3,0.07,,69,4754,7,35,56,0.607,0.0,497,4.85,13.3,0.0,1,29.2,2.72,6.0,0,0,0,1,0,0,250,250,0,,,,,,,,,,,,,,,,
30003,1625672331623,,,,,,,,0.07,0.03,1.98,0,-3,-3,0.07,,69,4730,7,35,56,0.606,0.0,485,4.82,13.3,0.0,1,28.9,2.7,6.0,0,0,0,1,0,0,250,250,0,,,,,,,,,,,,,,,,
30023,1625672331643,,,,,,,,0.08,-0.02,1.81,0,-1,-1,0.08,,69,4736,7,35,57,0.606,0.0,485,4.81,13.3,0.0,1,29.3,1.6,6.0,0,0,0,1,0,0,250,250,0,,,,,,,,,,,,,,,,
30043,1625672331663,7,3,45,49,31,31,7,0.05,-0.01,1.66,0,2,2,0.05,0,69,4711,7,35,56,0.606,0.0,494,4.8,13.2,0.0,1,28.7,1.59,6.0,0,0,0,1,0,0,250,250,0,52.956406,6.524553,0.0,9.1,10,3,1.4,0,0.0,-1,0.0,0.0,0.0,0,0.0,0.5007
30063,1625672331683,,,,,,,,0.02,0.01,1.59,0,3,3,0.02,,69,4689,7,35,56,0.606,0.0,487,4.79,13.2,0.0,1,28.6,2.68,6.0,0,0,0,1,0,0,250,250,0,,,,,,,,,,,,,,,,
30083,1625672331705,,,,,,,,-0.01,0.02,1.79,0,2,2,0.02,,69,4733,7,35,56,0.606,0.0,504,4.82,13.1,0.0,1,29.0,2.7,5.9,0,0,0,1,0,0,250,250,0,,,,,,,,,,,,,,,,
30103,1625672331725,,,,,,,,-0.01,0.03,1.97,0,-2,-1,0.03,,69,4730,7,35,56,0.607,0.0,505,4.81,13.1,0.0,1,28.9,2.7,5.9,0,0,0,1,0,0,250,250,0,,,,,,,,,,,,,,,,
30123,1625672331745,,,,,,,,0.04,0.03,2.05,0,-4,-3,0.05,,69,4740,7,35,56,0.608,0.0,491,4.81,13.3,0.0,1,29.0,2.71,5.9,0,0,0,1,0,0,250,250,0,,,,,,,,,,,,,,,,
30143,1625672331765,7,3,45,49,30,31,7,0.06,-0.01,1.88,0,-2,-2,0.06,0,69,4754,7,35,57,0.608,0.0,492,4.82,13.3,0.0,1,29.5,1.62,5.9,0,0,0,1,0,0,250,250,0,52.956406,6.524553,0.0,9.1,10,3,1.4,0,0.0,-1,0.0,,0.0,0,0.0,0.5024
30163,1625672331785,,,,,,,,0.04,-0.03,1.73,0,1,1,0.05,,69,4728,7,35,56,0.607,0.0,485,4.83,13.3,0.0,1,28.9,1.6,5.9,0,0,0,1,0,0,250,250,0,,,,,,,,,,,,,,,,
30183,1625672331805,,,,,,,,0.01,-0.01,1.58,0,3,3,0.02,,69,4755,7,35,56,0.606,0.0,493,4.8,13.2,0.0,1,29.2,2.74,5.9,0,0,0,1,0,0,250,250,0,,,,,,,,,,,,,,,,
30203,1625672331825,,,,,,,,-0.02,0.03,1.78,0,1,1,0.04,,69,4746,7,35,56,0.607,0.0,510,4.79,13.1,0.0,1,29.1,2.71,5.9,0,0,0,1,0,0,250,250,0,,,,,,,,,,,,,,,,
30223,1625672331845,,,,,,,,-0.0,0.04,1.97,0,-3,-2,0.04,,69,4737,7,35,56,0.607,0.0,495,4.86,13.3,0.0,1,29.0,2.71,5.9,0,0,0,1,0,0,250,250,0,,,,,,,,,,,,,,,,
30243,1625672331865,5,5,45,49,31,31,6,0.05,0.06,2.02,0,-4,-3,0.08,0,69,4760,7,35,56,0.608,0.0,496,4.82,13.3,0.0,1,29.3,2.72,5.9,0,0,0,1,0,0,250,250,0,52.956406,6.524553,0.0,9.1,10,3,1.4,0,0.0,-1,0.0,0.0,0.0,0,0.0,0.504
30263,1625672331885,,,,,,,,0.06,0.02,1.85,0,-2,-1,0.07,,69,4751,7,35,56,0.608,0.0,493,4.82,13.3,0.0,1,29.2,2.72,5.9,0,0,0,1,0,0,250,250,0,,,,,,,,,,,,,,,,
30283,1625672331905,,,,,,,,0.04,-0.01,1.7,0,1,1,0.04,,69,4748,7,35,56,0.609,0.0,492,4.8,13.2,0.0,1,29.1,1.61,5.9,0,0,0,1,0,0,250,250,0,,,,,,,,,,,,,,,,
30303,1625672331925,,,,,,,,-0.0,0.02,1.64,0,3,3,0.02,,69,4816,7,35,56,0.609,0.0,507,4.82,13.2,0.0,1,30.1,2.76,5.9,0,0,0,1,0,0,250,250,0,,,,,,,,,,,,,,,,
30323,1625672331945,,,,,,,,-0.0,0.05,1.83,0,-1,-0,0.05,,69,4791,7,35,56,0.609,0.0,506,4.84,13.2,0.0,1,29.7,2.74,5.9,0,0,0,1,0,0,250,250,0,,,,,,,,,,,,,,,,
30343,1625672331965,6,3,45,49,31,31,7,0.04,0.06,2.01,0,-4,-3,0.08,0,69,4769,7,35,56,0.609,0.0,495,4.83,13.3,0.0,1,29.4,2.73,5.9,0,0,0,1,0,0,250,250,0,52.956406,6.524553,0.0,9.1,10,3,1.4,0,0.0,-1,0.0,,0.0,0,0.0,0.5057
30363,1625672331985,,,,,,,,0.07,0.04,1.85,0,-3,-2,0.08,,69,4777,7,35,56,0.609,0.0,501,4.79,13.3,0.0,1,29.5,2.73,5.9,0,0,0,1,0,0,250,250,0,,,,,,,,,,,,,,,,
30383,1625672331995,,,,,,,,0.06,-0.01,1.69,0,0,0,0.06,,69,4744,7,35,57,0.609,0.0,491,4.82,13.2,0.0,1,29.4,1.61,5.9,0,0,0,1,0,0,250,250,0,,,,,,,,,,,,,,,,
30403,1625672332015,,,,,,,,0.03,0.01,1.55,0,2,2,0.03,,69,4780,7,35,57,0.609,0.0,505,4.78,13.1,0.0,1,29.9,1.63,5.9,0,0,0,1,0,0,250,250,0,,,,,,,,,,,,,,,,
30423,1625672332035,,,,,,,,-0.0,0.04,1.75,0,0,1,0.04,,69,4763,7,35,56,0.609,0.0,501,4.81,13.1,0.0,1,29.3,2.72,5.9,0,0,0,1,0,0,250,250,0,,,,,,,,,,,,,,,,
30443,1625672332055,5,5,45,49,31,31,6,0.01,0.06,1.94,0,-4,-2,0.06,0,69,4754,7,35,57,0.609,0.0,500,4.8,13.1,0.0,1,29.5,2.72,5.9,0,0,0,1,0,0,250,250,0,52.956406,6.524553,0.0,9.1,10,3,1.4,0,0.0,-1,0.0,0.0,0.0,0,0.0,0.5074
30463,1625672332075,,,,,,,,0.07,0.07,2.02,0,-4,-3,0.1,,69,4779,7,35,57,0.609,0.0,501,4.81,13.3,0.0,1,29.9,2.74,5.9,0,0,0,1,0,0,250,250,0,,,,,,,,,,,,,,,,
30483,1625672332104,,,,,,,,0.09,0.01,1.85,0,-2,-1,0.09,,69,4746,7,35,57,0.609,0.0,489,4.82,13.3,0.0,1,29.4,2.71,6.0,0,0,0,1,0,0,250,250,0,,,,,,,,,,,,,,,,
30503,1625672332124,,,,,,,,0.06,-0.02,1.7,0,2,2,0.06,,69,4799,7,35,57,0.609,0.0,492,4.8,13.2,0.0,1,30.1,1.64,6.0,0,0,0,1,0,0,250,250,0,,,,,,,,,,,,,,,,
30523,1625672332144,,,,,,,,0.02,0.01,1.68,0,2,2,0.02,,69,4743,7,35,57,0.608,0.0,505,4.76,13.1,0.0,1,29.4,1.61,6.0,0,0,0,1,0,0,250,250,0,,,,,,,,,,,,,,,,
30543,1625672332164,6,4,45,50,30,31,7,0.0,0.02,1.87,0,-1,-1,0.02,0,69,4784,7,35,56,0.608,0.0,497,4.83,13.2,0.0,1,29.6,2.74,6.0,0,0,0,1,0,0,250,250,0,52.956406,6.524553,0.0,9.1,10,3,1.4,0,0.0,-1,0.0,,0.0,0,0.0,0.509
30563,1625672332184,,,,,,,,0.04,0.03,2.05,0,-4,-3,0.05,,69,4743,7,35,57,0.608,0.0,511,4.81,13.3,0.0,1,29.4,2.71,6.0,0,0,0,1,0,0,250,250,0,,,,,,,,,,,,,,,,
30583,1625672332202,,,,,,,,0.08,0.03,1.87,0,-3,-3,0.08,,69,4756,7,35,57,0.608,0.0,493,4.81,13.3,0.0,1,29.6,2.72,5.9,0,0,0,1,0,0,250,250,0,,,,,,,,,,,,,,,,
30603,1625672332222,,,,,,,,0.08,-0.03,1.72,0,0,-0,0.09,,69,4815,7,35,57,0.608,0.0,493,4.81,13.3,0.0,1,30.3,2.75,5.9,0,0,0,1,0,0,250,250,0,,,,,,,,,,,,,,,,
30623,1625672332242,,,,,,,,0.05,0.0,1.91,0,2,2,0.05,,69,4801,7,35,57,0.609,0.0,506,4.82,13.1,0.0,1,30.1,1.64,5.9,0,0,0,1,0,0,250,250,0,,,,,,,,,,,,,,,,
30643,1625672332262,6,3,45,50,31,31,6,0.05,0.01,2.08,0,0,0,0.05,0,69,4775,7,35,57,0.608,0.0,497,4.77,13.1,0.0,1,29.8,2.73,5.9,0,0,0,1,0,0,250,250,0,52.956406,6.524553,0.0,9.1,10,3,1.4,0,0.0,-1,0.0,0.0,0.0,0,0.0,0.5107
30663,1625672332282,,,,,,,,0.11,0.02,2.21,0,-3,-3,0.11,,69,4799,7,35,57,0.608,0.0,503,4.82,13.1,0.0,1,30.1,2.74,5.9,0,0,0,1,0,0,250,250,0,,,,,,,,,,,,,,,,
30683,1625672332304,,,,,,,,0.12,-0.03,2.03,0,-4,-3,0.12,,69,4783,7,35,57,0.608,0.0,505,4.84,13.3,0.0,1,29.9,2.73,6.0,0,0,0,1,0,0,250,250,0,,,,,,,,,,,,,,,,
30703,1625672332324,,,,,,,,0.08,-0.05,1.86,0,0,-0,0.09,,69,4829,7,35,57,0.609,0.0,495,4.81,13.3,0.0,1,30.5,2.76,6.0,0,0,0,1,0,0,250,250,0,,,,,,,,,,,,,,,,
30723,1625672332344,,,,,,,,0.04,-0.01,2.03,0,2,2,0.04,,69,4811,7,35,57,0.609,0.0,507,4.81,13.2,0.0,1,30.3,1.65,6.0,0,0,0,1,0,0,250,250,0,,,,,,,,,,,,,,,,
30743,1625672332364,6,4,45,50,31,31,6,0.04,0.0,2.2,0,1,0,0.04,0,69,4760,7,35,57,0.609,0.0,510,4.78,13.1,0.0,1,29.6,2.72,6.0,0,0,0,1,0,0,250,250,0,52.956406,6.524553,0.0,9.1,10,3,1.4,0,0.0,-1,0.0,,0.0,0,0.0,0.5124
30763,1625672332384,,,,,,,,0.09,0.02,2.35,0,-3,-2,0.09,,69,4770,7,35,57,0.609,0.0,495,4.83,13.3,0.0,1,29.7,2.73,6.0,0,0,0,1,0,0,250,250,0,,,,,,,,,,,,,,,,
30783,1625672332404,,,,,,,,0.11,-0.01,2.15,0,-4,-3,0.11,,69,4745,7,35,57,0.608,0.0,498,4.81,13.3,0.0,1,29.4,2.71,5.9,0,0,0,1,0,0,250,250,0,,,,,,,,,,,,,,,,
30803,1625672332424,,,,,,,,0.1,-0.05,1.97,0,-2,-2,0.11,,69,4803,7,35,57,0.609,0.0,489,4.81,13.3,0.0,1,30.2,2.74,5.9,0,0,0,1,0,0,250,250,0,,,,,,,,,,,,,,,,
30823,1625672332444,,,,,,,,0.05,-0.03,1.81,0,2,1,0.06,,69,4815,7,35,57,0.608,0.0,501,4.8,13.2,0.0,1,30.3,1.65,5.9,0,0,0,1,0,0,250,250,0,,,,,,,,,,,,,,,,
30843,1625672332464,7,5,45,50,31,31,6,0.03,-0.01,1.99,0,2,1,0.03,0,69,4803,7,35,57,0.608,0.0,519,4.78,13.1,0.0,1,30.2,1.64,5.9,0,0,0,1,0,0,250,250,0,52.956406,6.524553,0.0,9.1,10,3,1.4,0,0.0,-1,0.0,0.0,0.0,0,0.0,0.514
30863,1625672332484,,,,,,,,0.07,0.01,2.16,0,-2,-2,0.07,,69,4784,7,35,57,0.607,0.0,501,4.86,13.2,0.0,1,29.9,2.74,5.9,0,0,0,1,0,0,250,250,0,,,,,,,,,,,,,,,,
30883,1625672332504,,,,,,,,0.1,-0.0,1.98,0,-4,-3,0.1,,69,4783,7,35,57,0.608,0.0,496,4.85,13.2,0.0,1,29.9,2.73,6.0,0,0,0,1,0,0,250,250,0,,,,,,,,,,,,,,,,
30903,1625672332524,,,,,,,,0.09,-0.05,1.81,0,-1,-1,0.1,,69,4838,7,35,57,0.607,0.0,493,4.83,13.3,0.0,1,30.6,2.76,6.0,0,0,0,1,0,0,250,250,0,,,,,,,,,,,,,,,,
30923,1625672332544,,,,,,,,0.04,-0.03,1.66,0,2,2,0.05,,69,4805,7,35,57,0.607,0.0,490,4.8,13.3,0.0,1,30.2,2.74,6.0,0,0,0,1,0,0,250,250,0,,,,,,,,,,,,,,,,
30943,1625672332564,5,3,45,50,30,31,7,0.02,-0.0,1.85,0,2,2,0.02,0,69,4794,7,35,57,0.606,0.0,513,4.76,13.0,0.0,1,30.1,2.74,6.0,0,0,0,1,0,0,250,250,0,52.956406,6.524553,0.0,9.1,10,3,1.4,0,0.0,-1,0.0,,0.0,0,0.0,0.5157
30963,1625672332584,,,,,,,,0.06,0.01,2.03,0,-1,-1,0.06,,69,4777,7,35,57,0.605,0.0,510,4.77,13.0,0.0,1,29.8,2.73,6.0,0,0,0,1,0,0,250,250,0,,,,,,,,,,,,,,,,
30983,1625672332605,,,,,,,,0.09,0.0,1.86,0,-4,-3,0.09,,69,4766,7,35,57,0.605,0.0,498,4.84,13.2,0.0,1,29.7,2.73,6.0,0,0,0,1,0,0,250,250,0,,,,,,,,,,,,,,,,
31003,1625672332625,,,,,,,,0.1,-0.06,1.71,0,-1,-2,0.11,,69,4812,7,35,57,0.605,0.0,499,4.79,13.3,0.0,1,30.3,2.75,6.0,0,0,0,1,0,0,250,250,0,,,,,,,,,,,,,,,,
31023,1625672332645,,,,,,,,0.06,-0.03,1.56,0,2,1,0.07,,69,4794,7,35,57,0.605,0.0,494,4.8,13.2,0.0,1,30.1,1.64,6.0,0,0,0,1,0,0,250,250,0,,,,,,,,,,,,,,,,
31043,1625672332665,5,5,45,50,31,31,6,0.02,-0.01,1.77,0,3,2,0.02,0,69,4774,7,35,57,0.604,0.0,497,4.84,13.2,0.0,1,29.8,2.73,6.0,0,0,0,1,0,0,250,250,0,52.956406,6.524553,0.0,9.1,10,3,1.4,0,0.0,-1,0.0,0.0,0.0,0,0.0,0.5174
31063,1625672332685,,,,,,,,0.04,0.0,1.95,0,0,0,0.04,,69,4786,7,35,57,0.604,0.0,508,4.81,13.2,0.0,1,29.9,2.74,6.0,0,0,0,1,0,0,250,250,0,,,,,,,,,,,,,,,,
31083,1625672332704,,,,,,,,0.09,0.0,1.96,0,-3,-2,0.09,,69,4767,7,35,57,0.604,0.0,498,4.85,13.2,0.0,1,29.7,2.73,6.0,0,0,0,1,0,0,250,250,0,,,,,,,,,,,,,,,,
31103,1625672332724,,,,,,,,0.11,-0.05,1.8,0,-2,-2,0.12,,69,4812,7,35,57,0.604,0.0,505,4.82,13.3,0.0,1,30.3,2.75,6.0,0,0,0,1,0,0,250,250,0,,,,,,,,,,,,,,,,
31123,1625672332744,,,,,,,,0.08,-0.05,1.65,0,2,1,0.09,,69,4794,7,35,57,0.605,0.0,503,4.82,13.3,0.0,1,30.1,2.74,6.0,0,0,0,1,0,0,250,250,0,,,,,,,,,,,,,,,,
31143,1625672332764,7,5,45,50,31,31,7,0.03,-0.0,1.73,0,4,3,0.03,0,69,4751,7,35,57,0.605,0.0,496,4.77,13.1,0.0,1,29.5,2.72,6.0,0,0,0,1,0,0,250,250,0,52.956406,6.524553,0.0,9.1,10,3,1.4,0,0.0,-1,0.0,,0.0,0,0.0,0.519
31163,1625672332784,,,,,,,,0.02,0.02,1.92,0,2,2,0.03,,69,4779,7,35,57,0.606,0.0,502,4.76,13.1,0.0,1,29.9,2.73,6.0,0,0,0,1,0,0,250,250,0,,,,,,,,,,,,,,,,
31183,1625672332804,,,,,,,,0.06,0.04,2.09,0,-2,-1,0.07,,69,4748,7,35,57,0.607,0.0,490,4.85,13.3,0.0,1,29.4,2.71,6.0,0,0,0,1,0,0,250,250,0,,,,,,,,,,,,,,,,
31203,1625672332824,,,,,,,,0.09,0.01,1.91,0,-3,-2,0.09,,69,4801,7,35,57,0.608,0.0,491,4.82,13.3,0.0,1,30.1,2.74,6.0,0,0,0,1,0,0,250,250,0,,,,,,,,,,,,,,,,
31223,1625672332844,,,,,,,,0.07,-0.02,1.75,0,-0,-0,0.07,,69,4785,7,35,57,0.609,0.0,502,4.78,13.3,0.0,1,29.9,2.74,6.0,0,0,0,1,0,0,250,250,0,,,,,,,,,,,,,,,,
31243,1625672332864,6,4,45,48,31,31,6,0.04,0.01,1.61,0,3,3,0.04,0,69,4744,7,35,57,0.609,0.0,491,4.81,13.2,0.0,1,29.4,2.71,6.0,0,0,0,1,0,0,250,250,0,52.956406,6.524553,0.0,9.1,10,3,1.4,0,0.0,-1,0.0,0.0,0.0,0,0.0,0.5207
31263,1625672332884,,,,,,,,0.01,0.04,1.81,0,3,3,0.04,,69,4774,7,35,57,0.609,0.0,498,4.8,13.2,0.0,1,29.7,2.73,6.0,0,0,0,1,0,0,250,250,0,,,,,,,,,,,,,,,,
31283,1625672332904,,,,,,,,0.01,0.05,1.99,0,0,1,0.06,,69,4762,7,35,57,0.609,0.0,498,4.81,13.2,0.0,1,29.6,2.72,6.0,0,0,0,1,0,0,250,250,0,,,,,,,,,,,,,,,,
31303,1625672332924,,,,,,,,0.06,0.06,2.14,0,-3,-2,0.09,,69,4810,7,35,57,0.611,0.0,494,4.82,13.2,0.0,1,30.3,2.75,6.0,0,0,0,1,0,0,250,250,0,,,,,,,,,,,,,,,,
31323,1625672332944,,,,,,,,0.07,0.01,1.96,0,-2,-1,0.07,,69,4815,7,35,57,0.611,0.0,497,4.81,13.3,0.0,1,30.3,2.75,6.0,0,0,0,1,0,0,250,250,0,,,,,,,,,,,,,,,,
31343,1625672332964,7,3,45,48,31,31,5,0.04,0.01,1.79,0,2,1,0.04,0,69,4754,7,35,57,0.612,0.0,490,4.81,13.3,0.0,1,29.5,1.62,6.0,0,0,0,1,0,0,250,250,0,52.956406,6.524553,0.0,9.1,10,3,1.4,0,0.0,-1,0.0,,0.0,0,0.0,0.5224
31363,1625672332984,,,,,,,,0.0,0.04,1.79,0,3,3,0.04,,69,4761,7,35,57,0.612,0.0,497,4.79,13.1,0.0,1,29.6,2.72,6.0,0,0,0,1,0,0,250,250,0,,,,,,,,,,,,,,,,
31383,1625672332995,,,,,,,,-0.02,0.07,1.97,0,2,2,0.07,,69,4788,7,35,57,0.612,0.0,503,4.8,13.1,0.0,1,30.0,1.64,6.0,0,0,0,1,0,0,250,250,0,,,,,,,,,,,,,,,,
31403,1625672333015,,,,,,,,0.04,0.07,2.14,0,-3,-1,0.08,,69,4826,7,35,57,0.612,0.0,500,4.83,13.1,0.0,1,30.5,2.76,6.0,0,0,0,1,0,0,250,250,0,,,,,,,,,,,,,,,,
31423,1625672333035,,,,,,,,0.06,0.04,1.96,0,-3,-2,0.07,,69,4788,7,35,57,0.613,0.0,502,4.84,13.3,0.0,1,30.0,2.74,6.0,0,0,0,1,0,0,250,250,0,,,,,,,,,,,,,,,,
31443,1625672333055,6,5,45,48,31,31,6,0.05,-0.01,1.8,0,0,0,0.05,0,69,4751,7,35,57,0.613,0.0,490,4.8,13.3,0.0,1,29.5,1.62,6.0,0,0,0,1,0,0,250,250,0,52.956406,6.524553,0.0,9.1,10,3,1.4,0,0.0,-1,0.0,0.0,0.0,0,0.0,0.524
31463,1625672333075,,,,,,,,0.02,0.01,1.65,0,3,3,0.02,,69,4785,7,35,57,0.613,0.0,489,4.78,13.2,0.0,1,29.9,1.64,6.0,0,0,0,1,0,0,250,250,0,,,,,,,,,,,,,,,,
31483,1625672333103,,,,,,,,-0.01,0.04,1.84,0,2,2,0.04,,69,4767,7,35,57,0.613,0.0,507,4.8,13.1,0.0,1,29.7,2.73,6.0,0,0,0,1,0,0,250,250,0,,,,,,,,,,,,,,,,
31503,1625672333123,,,,,,,,0.02,0.04,2.02,0,-2,-1,0.05,,69,4801,7,35,57,0.613,0.0,504,4.83,13.2,0.0,1,30.1,2.74,6.0,0,0,0,1,0,0,250,250,0,,,,,,,,,,,,,,,,
31523,1625672333143,,,,,,,,0.07,0.04,1.85,0,-4,-2,0.08,,69,4786,7,35,57,0.614,0.0,502,4.87,13.2,0.0,1,29.9,2.74,6.0,0,0,0,1,0,0,250,250,0,,,,,,,,,,,,,,,,
31543,1625672333163,7,5,45,48,31,31,6,0.07,-0.02,1.7,0,-2,-1,0.08,0,69,4783,7,35,57,0.614,0.0,499,4.83,13.3,0.0,1,29.9,2.73,6.0,0,0,0,1,0,0,250,250,0,52.956406,6.524553,0.0,9.1,10,3,1.4,0,0.0,-1,0.0,,0.0,0,0.0,0.5257
31563,1625672333183,,,,,,,,0.04,-0.02,1.56,0,2,2,0.04,,69,4802,7,35,57,0.614,0.0,491,4.78,13.2,0.0,1,30.2,1.64,6.0,0,0,0,1,0,0,250,250,0,,,,,,,,,,,,,,,,
31583,1625672333203,,,,,,,,0.0,0.02,1.76,0,2,2,0.02,,69,4781,7,35,57,0.614,0.0,506,4.81,13.2,0.0,1,29.7,2.73,6.0,0,0,0,1,0,0,250,250,0,,,,,,,,,,,,,,,,
31603,1625672333223,,,,,,,,0.01,0.03,1.95,0,-2,-1,0.04,,69,4800,7,35,57,0.614,0.0,506,4.83,13.2,0.0,1,30.1,2.74,6.0,0,0,0,1,0,0,250,250,0,,,,,,,,,,,,,,,,
31623,1625672333243,,,,,,,,0.06,0.04,2.09,0,-4,-3,0.07,,69,4757,7,35,57,0.614,0.0,498,4.83,13.2,0.0,1,29.6,2.72,6.0,0,0,0,1,0,0,250,250,0,,,,,,,,,,,,,,,,
31643,1625672333263,6,3,45,48,31,31,7,0.08,0.02,1.91,0,-3,-3,0.08,0,69,4720,7,35,57,0.614,0.0,490,4.81,13.3,0.0,1,29.1,2.69,6.0,0,0,0,1,0,0,250,250,0,52.956406,6.524553,0.0,9.1,10,3,1.4,0,0.0,-1,0.0,0.0,0.0,0,0.0,0.5274
31663,1625672333283,,,,,,,,0.07,-0.03,1.75,0,-1,-1,0.08,,69,4785,7,35,57,0.615,0.0,486,4.81,13.3,0.0,1,29.9,2.74,6.0,0,0,0,1,0,0,250,250,0,,,,,,,,,,,,,,,,
31683,1625672333303,,,,,,,,0.03,0.01,1.61,0,2,2,0.03,,69,4795,7,35,57,0.615,0.0,493,4.82,13.2,0.0,1,30.1,1.64,6.0,0,0,0,1,0,0,250,250,0,,,,,,,,,,,,,,,,
31703,1625672333323,,,,,,,,0.01,0.03,1.81,0,1,0,0.03,,69,4817,7,35,57,0.615,0.0,510,4.81,13.1,0.0,1,30.4,1.65,6.0,0,0,0,1,0,0,250,250,0,,,,,,,,,,,,,,,,
31723,1625672333343,,,,,,,,0.04,0.04,1.99,0,-3,-3,0.06,,69,4813,7,35,57,0.615,0.0,506,4.8,13.1,0.0,1,30.3,2.75,6.0,0,0,0,1,0,0,250,250,0,,,,,,,,,,,,,,,,
31743,1625672333363,6,5,45,49,31,31,7,0.08,0.04,1.82,0,-4,-3,0.09,0,69,4755,7,35,57,0.615,0.0,498,4.84,13.3,0.0,1,29.5,2.72,6.0,0,0,0,1,0,0,250,250,0,52.956406,6.524553,0.0,9.1,10,3,1.4,0,0.0,-1,0.0,,0.0,0,0.0,0.529
31763,1625672333383,,,,,,,,0.08,-0.02,1.67,0,-1,-2,0.09,,69,4751,7,35,57,0.615,0.0,492,4.81,13.3,0.0,1,29.5,2.72,6.0,0,0,0,1,0,0,250,250,0,,,,,,,,,,,,,,,,
31783,1625672333405,,,,,,,,0.06,-0.0,1.53,0,1,1,0.06,,69,4733,7,35,57,0.615,0.0,482,4.82,13.3,0.0,1,29.3,2.7,5.9,0,0,0,1,0,0,250,250,0,,,,,,,,,,,,,,,,
31803,1625672333425,,,,,,,,0.02,0.03,1.71,0,3,2,0.04,,69,4796,7,35,57,0.615,0.0,502,4.78,13.1,0.0,1,30.1,1.64,5.9,0,0,0,1,0,0,250,250,0,,,,,,,,,,,,,,,,
31823,1625672333445,,,,,,,,0.01,0.05,1.9,0,-1,-1,0.05,,69,4783,7,35,57,0.616,0.0,500,4.83,13.2,0.0,1,29.9,2.73,5.9,0,0,0,1,0,0,250,250,0,,,,,,,,,,,,,,,,
31843,1625672333465,5,5,45,49,31,31,6,0.07,0.06,2.07,0,-4,-2,0.09,0,69,4791,7,35,57,0.616,0.0,500,4.85,13.2,0.0,1,30.0,2.74,5.9,0,0,0,1,0,0,250,250,0,52.956406,6.524553,0.0,9.1,10,3,1.4,0,0.0,-1,0.0,0.0,0.0,0,0.0,0.5307
31863,1625672333485,,,,,,,,0.08,0.01,1.9,0,-2,-2,0.09,,69,4851,7,35,57,0.616,0.0,509,4.82,13.3,0.0,1,30.8,2.76,5.9,0,0,0,1,0,0,250,250,0,,,,,,,,,,,,,,,,
31883,1625672333503,,,,,,,,0.04,0.01,1.74,0,2,2,0.04,,69,4829,7,35,57,0.617,0.0,500,4.81,13.3,0.0,1,30.5,2.76,6.1,0,0,0,1,0,0,250,250,0,,,,,,,,,,,,,,,,
31903,1625672333523,,,,,,,,0.01,0.03,1.93,0,2,2,0.03,,69,4823,7,35,57,0.617,0.0,497,4.8,13.0,0.0,1,30.4,1.66,6.1,0,0,0,1,0,0,250,250,0,,,,,,,,,,,,,,,,
31923,1625672333543,,,,,,,,0.01,0.06,2.1,0,-2,-1,0.06,,69,4785,7,35,57,0.616,0.0,511,4.81,13.0,0.0,1,29.9,2.74,6.1,0,0,0,1,0,0,250,250,0,,,,,,,,,,,,,,,,
31943,1625672333563,6,4,45,48,31,31,7,0.07,0.07,2.23,0,-4,-3,0.1,0,69,4785,7,35,57,0.616,0.0,491,4.86,13.3,0.0,1,29.9,2.74,6.1,0,0,0,1,0,0,250,250,0,52.956406,6.524553,0.0,9.1,10,3,1.4,0,0.0,-1,0.0,,0.0,0,0.0,0.5324
31963,1625672333583,,,,,,,,0.09,0.02,2.04,0,-2,-2,0.09,,69,4794,7,35,57,0.616,0.0,501,4.81,13.3,0.0,1,30.1,2.74,6.1,0,0,0,1,0,0,250,250,0,,,,,,,,,,,,,,,,
31983,1625672333603,,,,,,,,0.06,0.0,1.87,0,1,1,0.06,,69,4774,7,35,57,0.616,0.0,502,4.75,13.2,0.0,1,29.8,1.63,6.0,0,0,0,1,0,0,250,250,0,,,,,,,,,,,,,,,,
32003,1625672333623,,,,,,,,0.02,0.02,1.86,0,3,3,0.03,,69,4781,7,35,57,0.617,0.0,494,4.8,13.2,0.0,1,30.2,2.73,6.0,0,0,0,1,0,0,250,250,0,,,,,,,,,,,,,,,,
32023,1625672333643,,,,,,,,0.01,0.04,2.03,0,-0,0,0.04,,69,4792,7,35,57,0.617,0.0,511,4.81,13.2,0.0,1,30.0,2.74,6.0,0,0,0,1,0,0,250,250,0,,,,,,,,,,,,,,,,
32043,1625672333663,5,5,45,49,31,31,6,0.06,0.07,2.2,0,-3,-2,0.09,0,69,4768,7,35,57,0.617,0.0,491,4.85,13.3,0.0,1,29.7,2.73,6.0,0,0,0,1,0,0,250,250,0,52.956406,6.524553,0.0,9.1,10,3,1.4,0,0.0,-1,0.0,0.0,0.0,0,0.0,0.534
32063,1625672333683,,,,,,,,0.08,0.05,2.01,0,-3,-2,0.1,,69,4727,7,35,58,0.616,0.0,487,4.8,13.3,0.0,1,29.5,2.7,6.0,0,0,0,1,0,0,250,250,0,,,,,,,,,,,,,,,,
32083,1625672333705,,,,,,,,0.11,-0.01,1.85,0,-1,-1,0.11,,69,4687,7,35,58,0.616,0.0,487,4.8,13.3,0.0,1,28.9,2.67,5.8,0,0,0,1,0,0,250,250,0,,,,,,,,,,,,,,,,
32103,1625672333725,,,,,,,,0.07,-0.01,1.69,0,3,2,0.07,,69,4799,7,35,57,0.616,0.0,490,4.79,13.2,0.0,1,30.1,1.64,5.8,0,0,0,1,0,0,250,250,0,,,,,,,,,,,,,,,,
32123,1625672333745,,,,,,,,0.03,0.02,1.88,0,3,2,0.04,,69,4780,7,35,57,0.616,0.0,506,4.77,13.2,0.0,1,29.9,2.73,5.8,0,0,0,1,0,0,250,250,0,,,,,,,,,,,,,,,,
32143,1625672333765,6,3,45,49,31,30,7,0.03,0.05,2.06,0,-1,-1,0.06,0,69,4817,7,35,57,0.616,0.0,510,4.77,13.2,0.0,1,30.4,2.75,5.8,0,0,0,1,0,0,250,250,0,52.956406,6.524553,0.0,9.1,10,3,1.4,0,0.0,-1,0.0,,0.0,0,0.0,0.5357
32163,1625672333785,,,,,,,,0.08,0.08,2.18,0,-3,-3,0.11,,69,4801,7,35,57,0.617,0.0,490,4.86,13.3,0.0,1,30.1,2.74,5.8,0,0,0,1,0,0,250,250,0,,,,,,,,,,,,,,,,
32183,1625672333805,,,,,,,,0.11,0.03,2.0,0,-1,-1,0.11,,69,4749,7,35,57,0.617,0.0,493,4.83,13.3,0.0,1,29.5,2.71,6.0,0,0,0,1,0,0,250,250,0,,,,,,,,,,,,,,,,
32203,1625672333825,,,,,,,,0.08,0.01,1.83,0,2,2,0.08,,69,4746,7,35,57,0.617,0.0,485,4.8,13.2,0.0,1,29.4,2.71,6.0,0,0,0,1,0,0,250,250,0,,,,,,,,,,,,,,,,
32223,1625672333845,,,,,,,,0.05,0.04,1.68,0,4,3,0.06,,69,4711,7,35,57,0.617,0.0,498,4.77,13.1,0.0,1,29.1,2.69,6.0,0,0,0,1,0,0,250,250,0,,,,,,,,,,,,,,,,
32243,1625672333865,7,3,45,50,31,31,7,0.01,0.05,1.87,0,3,2,0.05,0,69,4756,7,35,57,0.616,0.0,512,4.81,13.1,0.0,1,29.6,1.62,6.0,0,0,0,1,0,0,250,250,0,52.956406,6.524553,0.0,9.1,10,3,1.4,0,0.0,-1,0.0,0.0,0.0,0,0.0,0.5374
32263,1625672333885,,,,,,,,0.01,0.07,2.05,0,-1,-1,0.07,,69,4731,7,35,57,0.616,0.0,496,4.82,13.1,0.0,1,29.2,2.7,6.0,0,0,0,1,0,0,250,250,0,,,,,,,,,,,,,,,,
32283,1625672333905,,,,,,,,0.06,0.07,2.21,0,-3,-2,0.09,,69,4775,7,35,57,0.616,0.0,493,4.81,13.3,0.0,1,29.8,2.73,6.0,0,0,0,1,0,0,250,250,0,,,,,,,,,,,,,,,,
32303,1625672333925,,,,,,,,0.07,0.02,2.03,0,-1,-1,0.07,,69,4754,7,35,57,0.616,0.0,488,4.82,13.3,0.0,1,29.5,2.72,6.0,0,0,0,1,0,0,250,250,0,,,,,,,,,,,,,,,,
32323,1625672333945,,,,,,,,0.05,-0.01,1.86,0,2,1,0.05,,69,4752,7,35,57,0.616,0.0,488,4.82,13.3,0.0,1,29.5,2.72,6.0,0,0,0,1,0,0,250,250,0,,,,,,,,,,,,,,,,
32343,1625672333965,4,2,45,49,31,31,7,0.02,0.01,1.7,0,3,3,0.02,0,69,4746,7,35,57,0.615,0.0,506,4.75,13.1,0.0,1,29.4,1.61,6.0,0,0,0,1,0,0,250,250,0,52.956406,6.524553,0.0,9.1,10,3,1.4,0,0.0,-1,0.0,,0.0,0,0.0,0.539
32363,1625672333985,,,,,,,,-0.01,0.05,1.89,0,2,1,0.05,,69,4709,7,35,57,0.615,0.0,493,4.83,13.1,0.0,1,28.9,2.69,6.0,0,0,0,1,0,0,250,250,0,,,,,,,,,,,,,,,,
32383,1625672333994,,,,,,,,-0.01,0.07,2.07,0,-2,-1,0.07,,69,4758,7,35,57,0.615,0.0,496,4.86,13.2,0.0,1,29.6,2.72,5.9,0,0,0,1,0,0,250,250,0,,,,,,,,,,,,,,,,
32403,1625672334014,,,,,,,,0.05,0.09,2.23,0,-4,-3,0.1,,69,4758,7,35,57,0.614,0.0,501,4.82,13.3,0.0,1,29.6,2.72,5.9,0,0,0,1,0,0,250,250,0,,,,,,,,,,,,,,,,
32423,1625672334034,,,,,,,,0.06,0.04,2.04,0,-1,-2,0.08,,69,4761,7,35,57,0.614,0.0,488,4.82,13.3,0.0,1,29.6,2.72,5.9,0,0,0,1,0,0,250,250,0,,,,,,,,,,,,,,,,
32443,1625672334054,3,2,45,50,31,31,5,0.05,-0.0,1.87,0,2,1,0.05,0,69,4748,7,35,57,0.613,0.0,495,4.81,13.2,0.0,1,29.4,2.71,5.9,0,0,0,1,0,0,250,250,0,52.956406,6.524553,0.0,9.1,10,3,1.4,0,0.0,-1,0.0,0.0,0.0,0,0.0,0.5407
32463,1625672334074,,,,,,,,0.03,0.01,1.71,0,3,3,0.03,,69,4669,7,35,57,0.613,0.0,490,4.81,13.1,0.0,1,28.4,1.56,5.9,0,0,0,1,0,0,250,250,0,,,,,,,,,,,,,,,,
32483,1625672334104,,,,,,,,-0.0,0.02,1.82,0,3,2,0.02,,69,4719,7,35,57,0.613,0.0,489,4.79,13.1,0.0,1,29.1,1.59,5.9,0,0,0,1,0,0,250,250,0,,,,,,,,,,,,,,,,
32503,1625672334124,,,,,,,,-0.03,0.03,2.0,0,-0,0,0.04,,69,4699,7,35,57,0.614,0.0,507,4.8,13.0,0.0,1,28.8,2.68,5.9,0,0,0,1,0,0,250,250,0,,,,,,,,,,,,,,,,
32523,1625672334144,,,,,,,,0.01,0.04,2.17,0,-4,-2,0.04,,69,4768,7,35,57,0.615,0.0,492,4.84,13.2,0.0,1,29.7,2.73,5.9,0,0,0,1,0,0,250,250,0,,,,,,,,,,,,,,,,
32543,1625672334164,3,1,45,48,31,31,7,0.05,0.04,1.99,0,-4,-3,0.06,0,69,4708,7,35,57,0.615,0.0,483,4.82,13.3,0.0,1,28.9,2.68,5.9,0,0,0,1,0,0,250,250,0,52.956406,6.524553,0.0,9.1,10,3,1.4,0,0.0,-1,0.0,,0.0,0,0.0,0.5424
32563,1625672334184,,,,,,,,0.08,0.01,1.82,0,-1,-2,0.08,,69,4688,7,35,57,0.615,0.0,478,4.82,13.3,0.0,1,28.7,2.67,5.9,0,0,0,1,0,0,250,250,0,,,,,,,,,,,,,,,,
32583,1625672334205,,,,,,,,0.06,0.02,1.67,0,2,1,0.06,,69,4745,7,35,57,0.615,0.0,482,4.78,13.2,0.0,1,29.4,1.61,5.9,0,0,0,1,0,0,250,250,0,,,,,,,,,,,,,,,,
32603,1625672334225,,,,,,,,0.03,0.03,1.78,0,3,3,0.04,,69,4672,7,35,57,0.615,0.0,492,4.82,13.3,0.0,1,28.5,1.56,5.9,0,0,0,1,0,0,250,250,0,,,,,,,,,,,,,,,,
32623,1625672334245,,,,,,,,0.01,0.04,1.97,0,3,2,0.04,,69,4742,7,35,57,0.615,0.0,492,4.78,13.1,0.0,1,29.4,2.71,5.9,0,0,0,1,0,0,250,250,0,,,,,,,,,,,,,,,,
32643,1625672334265,3,3,45,48,31,31,6,0.02,0.07,2.14,0,-1,-0,0.07,0,69,4696,7,35,56,0.616,0.0,491,4.83,13.2,0.0,1,28.5,2.68,5.9,0,0,0,1,0,0,250,250,0,52.956406,6.524553,0.0,9.1,10,3,1.4,0,0.0,-1,0.0,0.0,0.0,0,0.0,0.544
32663,1625672334285,,,,,,,,0.07,0.08,2.15,0,-4,-2,0.1,,69,4714,7,35,56,0.616,0.0,500,4.79,13.3,0.0,1,28.7,2.69,5.9,0,0,0,1,0,0,250,250,0,,,,,,,,,,,,,,,,
32683,1625672334304,,,,,,,,0.09,0.04,1.97,0,-4,-3,0.1,,69,4719,7,35,57,0.617,0.0,479,4.81,13.3,0.0,1,29.1,2.69,5.8,0,0,0,1,0,0,250,250,0,,,,,,,,,,,,,,,,
32703,1625672334324,,,,,,,,0.08,0.0,1.81,0,-2,-2,0.08,,69,4672,7,35,57,0.616,0.0,483,4.82,13.3,0.0,1,28.5,2.66,5.8,0,0,0,1,0,0,250,250,0,,,,,,,,,,,,,,,,
32723,1625672334344,,,,,,,,0.08,-0.01,1.66,0,0,-0,0.08,,69,4676,7,35,57,0.616,0.0,476,4.85,13.3,0.0,1,28.5,2.66,5.8,0,0,0,1,0,0,250,250,0,,,,,,,,,,,,,,,,
32743,1625672334364,3,3,45,50,31,31,5,0.04,0.02,1.52,0,3,2,0.05,0,69,4665,7,35,56,0.616,0.0,479,4.79,13.2,0.0,1,28.1,1.55,5.8,0,0,0,1,0,0,250,250,0,52.956406,6.524553,0.0,9.1,10,3,1.4,0,0.0,-1,0.0,,0.0,0,0.0,0.5457
32763,1625672334384,,,,,,,,0.01,0.03,1.73,0,4,3,0.03,,69,4680,7,35,56,0.617,0.0,491,4.83,13.1,0.0,1,28.7,2.66,5.8,0,0,0,1,0,0,250,250,0,,,,,,,,,,,,,,,,
32783,1625672334404,,,,,,,,0.01,0.06,1.91,0,2,2,0.06,,69,4750,7,35,56,0.617,0.0,502,4.83,13.1,0.0,1,29.2,2.72,5.9,0,0,0,1,0,0,250,250,0,,,,,,,,,,,,,,,,
32803,1625672334424,,,,,,,,0.05,0.09,2.09,0,-1,-0,0.1,,69,4701,7,35,56,0.617,0.0,491,4.82,13.1,0.0,1,28.5,2.68,5.9,0,0,0,1,0,0,250,250,0,,,,,,,,,,,,,,,,
32823,1625672334444,,,,,,,,0.08,0.07,1.91,0,-3,-2,0.11,,69,4757,7,35,56,0.617,0.0,493,4.81,13.3,0.0,1,29.3,2.72,5.9,0,0,0,1,0,0,250,250,0,,,,,,,,,,,,,,,,
32843,1625672334464,3,5,45,49,31,31,7,0.09,0.01,1.75,0,-2,-1,0.09,0,69,4706,7,35,56,0.617,0.0,477,4.83,13.3,0.0,1,28.6,2.68,5.9,0,0,0,1,0,0,250,250,0,52.956406,6.524553,0.0,9.1,10,3,1.4,0,0.0,-1,0.0,0.0,0.0,0,0.0,0.5474
32863,1625672334484,,,,,,,,0.06,0.01,1.61,0,2,1,0.06,,69,4778,7,35,56,0.616,0.0,493,4.81,13.3,0.0,1,29.5,1.64,5.9,0,0,0,1,0,0,250,250,0,,,,,,,,,,,,,,,,
32883,1625672334504,,,,,,,,0.03,0.04,1.76,0,4,3,0.04,,69,4746,7,35,56,0.616,0.0,507,4.76,13.1,0.0,1,28.8,1.59,5.9,0,0,0,1,0,0,250,250,0,,,,,,,,,,,,,,,,
32903,1625672334524,,,,,,,,0.0,0.05,1.95,0,3,3,0.05,,69,4646,7,35,57,0.618,0.0,490,4.78,13.3,0.0,1,28.1,2.67,5.9,0,0,0,1,0,0,250,250,0,,,,,,,,,,,,,,,,
32923,1625672334544,,,,,,,,-0.03,0.06,2.12,0,2,2,0.07,,69,4503,7,35,57,0.619,0.0,492,4.83,13.3,0.0,1,26.3,1.47,5.9,0,0,0,1,0,0,250,250,0,,,,,,,,,,,,,,,,
32943,1625672334564,4,3,45,50,31,31,6,-0.2,0.04,2.27,0,3,2,0.2,0,69,4356,7,35,57,0.621,0.0,463,4.87,13.2,0.0,1,24.4,1.38,5.9,0,0,0,1,0,0,250,250,0,52.956406,6.524553,0.0,9.1,10,3,1.4,0,0.0,-1,0.0,,0.0,0,0.0,0.549
32963,1625672334584,,,,,,,,-0.23,0.16,2.35,0,7,3,0.27,,69,4255,7,35,57,0.623,0.0,453,4.9,13.3,0.0,1,23.1,1.32,5.9,0,0,0,1,0,0,250,250,0,,,,,,,,,,,,,,,,
32983,1625672334604,,,,,,,,-0.2,0.16,2.15,0,12,4,0.25,,69,4093,7,35,58,0.623,0.0,413,4.82,13.4,0.0,1,21.3,1.26,4.6,0,0,0,1,0,0,250,250,0,,,,,,,,,,,,,,,,
33003,1625672334624,,,,,,,,-0.25,0.2,2.19,0,10,3,0.33,,69,4295,7,35,58,0.624,0.0,423,4.82,13.3,0.0,1,23.9,2.47,4.6,0,0,0,1,0,0,250,250,0,,,,,,,,,,,,,,,,
33023,1625672334644,,,,,,,,-0.22,0.17,2.06,0,8,2,0.28,,69,4431,7,35,57,0.625,0.0,441,4.81,13.3,0.0,1,25.4,2.52,4.6,0,0,0,1,0,0,250,250,0,,,,,,,,,,,,,,,,
33043,1625672334664,6,4,45,46,32,31,5,-0.13,0.17,2.22,0,2,0,0.21,0,69,4410,7,35,57,0.623,0.0,449,4.79,13.1,0.0,1,25.1,2.51,4.6,0,0,0,1,0,0,250,250,0,52.956406,6.524553,0.0,9.1,10,3,1.4,0,0.0,-1,0.0,0.0,0.0,0,0.0,0.5507
33063,1625672334684,,,,,,,,-0.14,0.22,2.37,0,1,0,0.26,,69,4484,7,35,58,0.623,0.0,457,4.77,13.3,0.0,1,26.3,2.55,4.6,0,0,0,1,0,0,250,250,0,,,,,,,,,,,,,,,,
33083,1625672334704,,,,,,,,-0.15,0.2,2.51,0,-1,-2,0.25,,69,4496,7,35,58,0.622,0.0,460,4.8,13.1,0.0,1,26.5,2.57,5.3,0,0,0,1,0,0,250,250,0,,,,,,,,,,,,,,,,
33103,1625672334724,,,,,,,,-0.13,0.22,2.63,0,-2,-3,0.25,,69,4508,7,35,58,0.622,0.0,470,4.78,13.3,0.0,1,26.6,2.58,5.3,0,0,0,1,0,0,250,250,0,,,,,,,,,,,,,,,,
33123,1625672334744,,,,,,,,-0.09,0.23,2.73,0,-3,-4,0.25,,69,4570,7,35,58,0.621,0.0,467,4.8,13.2,0.0,1,27.4,2.61,5.3,0,0,0,1,0,0,250,250,0,,,,,,,,,,,,,,,,
33143,1625672334764,4,4,45,47,31,31,6,-0.04,0.23,2.83,0,-6,-5,0.23,0,69,4544,7,35,58,0.621,0.0,461,4.81,13.3,0.0,1,27.1,2.6,5.3,0,0,0,1,0,0,250,250,0,52.956406,6.524553,0.0,9.1,10,3,1.4,0,0.0,-1,0.0,,0.0,0,0.0,0.5524
33163,1625672334784,,,,,,,,-0.02,0.19,2.66,0,-8,-6,0.19,,69,4627,7,35,58,0.619,0.0,482,4.8,13.3,0.0,1,28.2,2.64,5.3,0,0,0,1,0,0,250,250,0,,,,,,,,,,,,,,,,
33183,1625672334804,,,,,,,,0.0,0.12,2.44,-0,-6,-6,0.12,,69,4634,7,35,58,0.617,0.0,468,4.83,13.3,0.0,1,28.3,2.64,5.7,0,0,0,1,0,0,250,250,0,,,,,,,,,,,,,,,,
33203,1625672334824,,,,,,,,0.02,0.08,2.24,-0,-5,-5,0.08,,69,4645,7,35,58,0.614,0.0,475,4.83,13.3,0.0,1,28.4,2.65,5.7,0,0,0,1,0,0,250,250,0,,,,,,,,,,,,,,,,
33223,1625672334844,,,,,,,,-0.02,0.06,2.05,0,-2,-2,0.06,,69,4769,7,35,58,0.611,0.0,483,4.84,13.3,0.0,1,30.0,2.72,5.7,0,0,0,1,0,0,250,250,0,,,,,,,,,,,,,,,,
33243,1625672334864,4,4,45,49,31,31,7,-0.05,0.09,2.14,0,0,-1,0.11,0,69,4785,7,35,57,0.61,0.0,487,4.81,13.1,0.0,1,29.9,1.64,5.7,0,0,0,1,0,0,250,250,0,52.956406,6.524553,0.0,9.1,10,3,1.4,0,0.0,-1,0.0,0.0,0.0,0,0.0,0.5541
33263,1625672334884,,,,,,,,-0.04,0.11,2.3,0,-2,-2,0.12,,69,4852,7,35,57,0.607,0.0,505,4.8,13.0,0.0,1,30.8,2.76,5.7,0,0,0,1,0,0,250,250,0,,,,,,,,,,,,,,,,
33283,1625672334904,,,,,,,,0.05,0.1,2.38,-0,-6,-6,0.11,,69,4836,7,35,57,0.608,0.0,505,4.86,13.3,0.0,1,30.6,2.76,6.1,0,0,0,1,0,0,250,250,0,,,,,,,,,,,,,,,,
33303,1625672334924,,,,,,,,0.07,0.03,2.18,-0,-4,-4,0.07,,69,4849,7,35,58,0.609,0.0,500,4.8,13.3,0.0,1,31.1,1.67,6.1,0,0,0,1,0,0,250,250,0,,,,,,,,,,,,,,,,
33323,1625672334944,,,,,,,,0.02,0.05,2.0,0,-0,-0,0.05,,69,4800,7,35,58,0.609,0.0,511,4.76,13.2,0.0,1,30.4,1.64,6.1,0,0,0,1,0,0,250,250,0,,,,,,,,,,,,,,,,
33343,1625672334964,4,2,45,49,31,31,6,-0.02,0.06,2.16,0,-0,-0,0.06,0,69,4786,7,35,58,0.609,0.0,500,4.78,13.0,0.0,1,30.2,2.73,6.1,0,0,0,1,0,0,250,250,0,52.956406,6.524553,0.0,9.1,10,3,1.4,0,0.0,-1,0.0,,0.0,0,0.0,0.5557
33363,1625672334984,,,,,,,,0.01,0.09,2.32,0,-3,-3,0.09,,69,4785,7,35,58,0.609,0.0,502,4.79,13.0,0.0,1,30.2,2.73,6.1,0,0,0,1,0,0,250,250,0,,,,,,,,,,,,,,,,
33383,1625672334994,,,,,,,,0.08,0.09,2.39,0,-6,-5,0.11,,69,4784,7,35,58,0.608,0.0,489,4.84,13.3,0.0,1,30.2,2.73,6.0,0,0,0,1,0,0,250,250,0,,,,,,,,,,,,,,,,
33403,1625672335014,,,,,,,,0.08,0.0,2.19,-0,-4,-3,0.08,,69,4803,7,35,58,0.608,0.0,487,4.84,13.3,0.0,1,30.5,2.74,6.0,0,0,0,1,0,0,250,250,0,,,,,,,,,,,,,,,,
33423,1625672335034,,,,,,,,0.04,0.03,2.01,0,-0,0,0.05,,69,4834,8,35,58,0.608,0.0,504,4.82,13.3,0.0,1,30.9,2.76,6.0,0,0,0,1,0,0,250,250,0,,,,,,,,,,,,,,,,
33443,1625672335054,1,2,45,49,31,31,7,-0.0,0.05,2.18,0,-0,0,0.05,0,69,4811,10,35,58,0.608,0.0,512,4.79,13.0,0.0,1,30.6,1.65,6.0,0,0,0,1,0,0,250,250,0,52.956406,6.524558,0.0,9.0,10,3,1.3,0,0.0,-1,0.0,0.0,0.0,0,0.0,0.5574
33463,1625672335074,,,,,,,,0.03,0.09,2.33,0,-5,-3,0.09,,69,4818,16,35,60,0.608,0.0,500,4.81,13.3,0.0,1,31.3,2.74,6.0,0,0,0,1,0,0,250,250,0,,,,,,,,,,,,,,,,
33483,1625672335103,,,,,,,,0.07,0.04,2.13,-0,-6,-5,0.08,,69,4917,25,35,67,0.608,0.0,497,4.83,13.3,0.0,1,34.7,3.01,6.6,0,0,0,1,0,0,250,250,0,,,,,,,,,,,,,,,,
33503,1625672335123,,,,,,,,-0.01,0.04,1.95,0,1,2,0.05,,69,5052,32,35,77,0.608,0.0,514,4.75,13.1,0.0,1,38.6,2.51,6.6,0,0,0,1,0,0,250,250,0,,,,,,,,,,,,,,,,
33523,1625672335143,,,,,,,,0.08,0.11,2.12,0,-7,-4,0.14,,69,5257,35,35,86,0.609,0.0,538,4.76,13.2,0.0,1,40.9,4.39,6.6,0,0,0,1,0,0,250,250,0,,,,,,,,,,,,,,,,
33543,1625672335163,0,3,45,49,31,31,5,-0.01,0.07,1.95,0,-1,2,0.07,0,69,5257,36,35,92,0.609,0.0,548,4.73,13.1,0.0,1,42.1,4.58,6.6,0,0,0,1,0,0,250,250,0,52.956406,6.524558,0.0,9.0,10,3,1.3,0,0.0,-1,0.0,,0.0,0,0.0,0.559
33563,1625672335183,,,,,,,,0.07,0.14,2.12,0,-9,-4,0.15,,69,5259,36,35,94,0.61,0.0,549,4.82,13.2,0.0,1,42.0,4.72,6.6,0,0,0,1,0,0,250,250,0,,,,,,,,,,,,,,,,
33583,1625672335203,,,,,,,,-0.03,0.09,1.94,0,-2,2,0.09,,69,5259,34,35,95,0.61,0.0,536,4.79,13.2,0.0,1,42.0,4.79,11.6,0,0,0,1,0,0,250,250,0,,,,,,,,,,,,,,,,
33603,1625672335223,,,,,,,,0.08,0.13,2.11,0,-11,-5,0.16,,69,5283,25,35,94,0.611,0.0,544,4.85,13.3,0.0,1,42.0,4.73,11.6,0,0,0,1,0,0,250,250,0,,,,,,,,,,,,,,,,
33623,1625672335243,,,,,,,,-0.04,0.08,1.94,1,-3,3,0.09,,69,5417,11,35,90,0.611,0.0,546,4.75,13.1,0.0,1,41.6,4.6,11.6,0,0,0,1,0,0,250,250,0,,,,,,,,,,,,,,,,
33643,1625672335263,-1,2,45,49,31,31,7,0.03,0.09,2.11,0,-10,-2,0.1,0,69,5602,7,35,85,0.612,0.0,559,4.82,13.2,0.0,1,39.7,4.09,11.6,0,0,0,1,0,0,250,250,0,52.956406,6.524558,0.0,9.0,10,3,1.3,0,0.0,-1,0.0,0.0,0.0,0,0.0,0.5607
33663,1625672335283,,,,,,,,0.07,0.07,2.26,0,-12,-5,0.1,,69,6015,7,35,81,0.614,0.0,589,4.87,13.3,0.0,1,37.9,3.24,11.6,0,0,0,1,0,0,250,250,0,,,,,,,,,,,,,,,,
33683,1625672335303,,,,,,,,0.0,0.05,2.08,-0,-12,-6,0.05,,69,6347,7,35,77,0.615,0.0,626,4.86,13.3,0.0,1,39.2,3.93,11.5,0,0,0,1,0,0,250,250,0,,,,,,,,,,,,,,,,
33703,1625672335323,,,,,,,,0.04,0.04,2.09,-0,-10,-4,0.06,,69,6810,7,35,72,0.616,0.0,653,4.76,13.0,0.0,1,40.8,3.63,11.5,0,0,0,1,0,0,250,250,0,,,,,,,,,,,,,,,,
33723,1625672335343,,,,,,,,-0.01,0.05,1.92,-0,-8,-3,0.05,,69,7189,7,35,67,0.618,0.0,677,4.78,13.1,0.0,1,40.0,2.23,11.5,0,0,0,1,0,0,250,250,0,,,,,,,,,,,,,,,,
33743,1625672335363,0,1,45,49,31,30,7,-0.05,0.05,1.76,0,-7,-2,0.07,0,69,7315,7,35,64,0.618,0.0,665,4.97,13.2,0.0,1,38.9,2.91,11.5,0,0,0,1,0,0,250,250,0,52.956406,6.524558,0.0,9.0,10,3,1.3,0,0.0,-1,0.0,,0.0,0,0.0,0.5624
33763,1625672335383,,,,,,,,-0.07,0.04,1.61,0,-5,1,0.08,,69,7591,7,35,60,0.618,0.0,673,4.91,13.1,0.0,1,37.8,2.47,11.5,0,0,0,1,0,0,250,250,0,,,,,,,,,,,,,,,,
33783,1625672335403,,,,,,,,-0.08,0.02,1.47,0,-3,4,0.08,,69,7888,7,35,56,0.619,0.0,679,4.84,13.0,0.0,1,37.1,1.34,8.8,0,0,0,1,0,0,250,250,0,,,,,,,,,,,,,,,,
33803,1625672335423,,,,,,,,-0.06,-0.06,1.68,0,-4,1,0.09,,69,8127,7,35,52,0.619,0.0,687,4.85,13.1,0.0,1,37.2,2.57,8.8,0,0,0,1,0,0,250,250,0,,,,,,,,,,,,,,,,
33823,1625672335443,,,,,,,,-0.04,-0.02,1.54,0,-3,4,0.04,,69,8434,7,35,48,0.62,0.0,691,4.82,13.1,0.0,1,37.1,1.74,8.8,0,0,0,1,0,0,250,250,0,,,,,,,,,,,,,,,,
33843,1625672335463,-0,2,45,49,31,31,6,-0.06,0.03,1.57,0,-3,3,0.06,0,69,8648,7,35,44,0.62,0.0,688,4.79,13.2,0.0,1,35.1,2.82,8.8,0,0,0,1,0,0,250,250,0,52.956406,6.524558,0.0,9.0,10,3,1.3,0,0.0,-1,0.0,0.0,0.0,0,0.0,0.564
33863,1625672335483,,,,,,,,-0.07,-0.04,1.77,-0,-4,-2,0.08,,69,8761,7,35,41,0.62,0.0,691,4.73,13.1,0.0,1,33.2,2.76,8.8,0,0,0,1,0,0,250,250,0,,,,,,,,,,,,,,,,
33883,1625672335503,,,,,,,,-0.07,-0.14,1.96,-0,-5,-3,0.16,,69,8700,7,35,39,0.621,0.0,688,4.74,13.0,0.0,1,32.0,2.72,10.9,0,0,0,1,0,0,250,250,0,,,,,,,,,,,,,,,,
33903,1625672335523,,,,,,,,-0.04,-0.04,1.79,0,-3,0,0.06,,69,8530,7,35,38,0.62,0.0,689,4.8,13.0,0.0,1,31.7,2.67,10.9,0,0,0,1,0,0,250,250,0,,,,,,,,,,,,,,,,
33923,1625672335543,,,,,,,,-0.08,-0.02,1.73,0,-3,-1,0.08,,69,8318,7,35,37,0.62,0.0,689,4.85,13.2,0.0,1,31.0,2.45,10.9,0,0,0,1,0,0,250,250,0,,,,,,,,,,,,,,,,
33943,1625672335563,1,0,45,49,31,31,7,-0.06,-0.01,1.59,0,-1,1,0.06,0,69,8067,7,35,36,0.62,0.0,683,4.77,13.1,0.0,1,30.2,1.07,10.9,0,0,0,1,0,0,250,250,0,52.956406,6.524558,0.0,9.0,10,3,1.3,0,0.0,-1,0.0,,0.0,0,0.0,0.5657
33963,1625672335583,,,,,,,,-0.02,-0.02,1.79,0,-3,-1,0.03,,70,7858,7,35,36,0.621,0.0,683,4.86,13.0,0.0,1,30.1,2.12,10.9,0,0,0,1,0,0,250,250,0,,,,,,,,,,,,,,,,
33983,1625672335603,,,,,,,,0.02,-0.02,1.97,-0,-5,-5,0.03,,69,7640,7,35,36,0.621,0.0,681,4.74,13.2,0.0,1,30.1,2.12,7.5,0,0,0,1,0,0,250,250,0,,,,,,,,,,,,,,,,
34003,1625672335623,,,,,,,,0.07,0.0,2.14,-0,-7,-7,0.07,,69,7428,7,35,36,0.622,0.0,668,4.74,13.2,0.0,1,30.1,2.12,7.5,0,0,0,1,0,0,250,250,0,,,,,,,,,,,,,,,,
34023,1625672335643,,,,,,,,0.09,-0.01,2.06,-0,-6,-7,0.09,,70,7214,7,35,36,0.623,0.0,676,4.82,13.3,0.0,1,30.1,2.12,7.5,0,0,0,1,0,0,250,250,0,,,,,,,,,,,,,,,,
34043,1625672335663,-0,2,45,49,31,31,7,0.04,0.03,1.89,-0,-4,-4,0.05,0,70,7001,7,35,37,0.624,0.0,671,4.76,13.0,0.0,1,30.4,2.17,7.5,0,0,0,1,0,0,250,250,0,52.956406,6.524558,0.0,9.0,10,3,1.3,0,0.0,-1,0.0,0.0,0.0,0,0.0,0.5674
34063,1625672335683,,,,,,,,0.09,-0.02,2.02,-0,-6,-6,0.1,,69,6823,7,35,38,0.625,0.0,655,4.88,13.2,0.0,1,30.4,2.17,7.5,0,0,0,1,0,0,250,250,0,,,,,,,,,,,,,,,,
34083,1625672335703,,,,,,,,0.01,0.02,1.85,-0,-3,-3,0.03,,70,6592,7,35,38,0.626,0.0,652,4.82,13.1,0.0,1,30.2,2.22,6.8,0,0,0,1,0,0,250,250,0,,,,,,,,,,,,,,,,
34103,1625672335723,,,,,,,,0.08,0.03,2.03,0,-3,-3,0.09,,69,6401,7,35,39,0.627,0.0,646,4.81,13.3,0.0,1,30.2,2.28,6.8,0,0,0,1,0,0,250,250,0,,,,,,,,,,,,,,,,
34123,1625672335743,,,,,,,,0.15,0.02,2.19,-0,-7,-6,0.15,,69,6214,7,35,39,0.629,0.0,645,4.82,13.3,0.0,1,30.0,1.17,6.8,0,0,0,1,0,0,250,250,0,,,,,,,,,,,,,,,,
34143,1625672335763,0,3,45,49,31,31,6,0.2,0.01,2.34,-0,-11,-9,0.2,0,69,6032,7,35,40,0.631,0.0,636,4.86,13.3,0.0,1,29.9,1.17,6.8,0,0,0,1,0,0,250,250,0,52.956406,6.524558,0.0,9.0,10,3,1.3,0,0.0,-1,0.0,,0.0,0,0.0,0.569
34163,1625672335783,,,,,,,,0.25,0.02,2.48,-0,-15,-12,0.25,,69,5839,7,35,41,0.633,0.0,627,4.79,13.3,0.0,1,29.7,2.35,6.8,0,0,0,1,0,0,250,250,0,,,,,,,,,,,,,,,,
34183,1625672335803,,,,,,,,0.23,0.04,2.6,-0,-14,-11,0.23,,70,5642,7,35,42,0.635,0.0,611,4.77,13.1,0.0,1,29.5,2.43,6.3,0,0,0,1,0,0,250,250,0,,,,,,,,,,,,,,,,
34203,1625672335823,,,,,,,,0.11,0.04,2.39,0,-7,-5,0.12,,70,5450,8,35,43,0.635,0.0,592,4.77,13.0,0.0,1,29.3,1.41,6.3,0,0,0,1,0,0,250,250,0,,,,,,,,,,,,,,,,
34223,1625672335843,,,,,,,,0.23,0.05,2.52,-0,-11,-12,0.24,,69,5322,8,35,44,0.636,0.0,575,4.85,13.3,0.0,1,29.3,1.48,6.3,0,0,0,1,0,0,250,250,0,,,,,,,,,,,,,,,,
34243,1625672335863,1,0,45,49,30,31,6,0.13,0.03,2.31,0,-4,-3,0.13,0,70,5163,8,35,45,0.636,0.0,553,4.78,13.1,0.0,1,29.2,2.67,6.3,0,0,0,1,0,0,250,250,0,52.956406,6.524558,0.0,9.0,10,3,1.3,0,0.0,-1,0.0,0.0,0.0,0,0.0,0.5707
34263,1625672335883,,,,,,,,0.22,0.08,2.45,0,-12,-9,0.23,,69,5060,8,35,45,0.637,0.0,541,4.84,13.3,0.0,1,29.0,2.71,6.3,0,0,0,1,0,0,250,250,0,,,,,,,,,,,,,,,,
34283,1625672335903,,,,,,,,0.19,0.01,2.25,0,-5,-3,0.19,,69,4969,8,35,47,0.637,0.0,535,4.83,13.3,0.0,1,29.2,1.66,6.3,0,0,0,1,0,0,250,250,0,,,,,,,,,,,,,,,,
34303,1625672335923,,,,,,,,0.12,0.01,2.35,0,-4,-3,0.12,,69,4893,8,35,47,0.638,0.0,516,4.78,13.0,0.0,1,28.3,1.62,6.3,0,0,0,1,0,0,250,250,0,,,,,,,,,,,,,,,,
34323,1625672335943,,,,,,,,0.11,0.05,2.49,0,-8,-6,0.12,,69,4777,8,35,48,0.638,0.0,515,4.8,13.1,0.0,1,27.2,2.67,6.3,0,0,0,1,0,0,250,250,0,,,,,,,,,,,,,,,,
34343,1625672335963,0,0,45,49,31,31,7,0.14,0.06,2.59,0,-8,-6,0.15,0,69,4661,8,35,49,0.639,0.0,486,4.83,13.3,0.0,1,26.0,2.61,6.3,0,0,0,1,0,0,250,250,0,52.956406,6.524558,0.0,9.0,10,3,1.3,0,0.0,-1,0.0,,0.0,0,0.0,0.5724
34363,1625672335983,,,,,,,,0.16,0.07,2.62,0,-9,-7,0.18,,69,4651,9,35,49,0.638,0.0,474,4.81,13.3,0.0,1,25.9,2.6,6.3,0,0,0,1,0,0,250,250,0,,,,,,,,,,,,,,,,
34383,1625672335993,,,,,,,,0.18,0.04,2.4,0,-8,-7,0.19,,69,4554,10,35,51,0.637,0.0,473,4.83,13.4,0.0,1,25.3,2.55,5.5,0,0,0,1,0,0,250,250,0,,,,,,,,,,,,,,,,
34403,1625672336013,,,,,,,,0.2,0.04,2.26,0,-7,-6,0.2,,69,4465,11,35,52,0.635,0.0,460,4.79,13.3,0.0,1,24.5,2.5,5.5,0,0,0,1,0,0,250,250,0,,,,,,,,,,,,,,,,
34423,1625672336033,,,,,,,,0.2,0.05,2.24,0,-6,-6,0.21,,69,4446,13,35,55,0.634,0.0,448,4.83,13.4,0.0,1,25.0,2.51,5.5,0,0,0,1,0,0,250,250,0,,,,,,,,,,,,,,,,
34443,1625672336053,0,2,45,49,31,31,7,0.22,0.05,2.28,0,-6,-7,0.22,0,69,4496,15,35,58,0.634,0.0,447,4.83,13.4,0.0,1,26.5,2.57,5.5,0,0,0,1,0,0,250,250,0,52.956406,6.524558,0.0,9.0,10,3,1.3,0,0.0,-1,0.0,0.0,0.0,0,0.0,0.574
34463,1625672336073,,,,,,,,0.24,0.04,2.1,0,-6,-6,0.24,,69,4601,18,35,62,0.634,0.0,451,4.81,13.4,0.0,1,28.9,2.69,5.5,0,0,0,1,0,0,250,250,0,,,,,,,,,,,,,,,,
34483,1625672336102,,,,,,,,0.23,0.0,1.93,0,-4,-5,0.23,,69,4692,21,35,67,0.633,0.0,471,4.85,13.4,0.0,1,31.6,2.96,6.2,0,0,0,1,0,0,250,250,0,,,,,,,,,,,,,,,,
34503,1625672336122,,,,,,,,0.18,0.02,1.77,0,-0,-2,0.18,,69,4762,22,35,72,0.633,0.0,474,4.77,13.2,0.0,1,33.9,5.15,6.2,0,0,0,1,0,0,250,250,0,,,,,,,,,,,,,,,,
34523,1625672336142,,,,,,,,0.12,0.04,1.68,0,1,-1,0.13,,70,4786,22,35,77,0.632,0.0,485,4.74,13.1,0.0,1,35.7,5.49,6.2,0,0,0,1,0,0,250,250,0,,,,,,,,,,,,,,,,
34543,1625672336162,0,1,45,49,31,31,7,0.21,0.04,1.87,0,-5,-5,0.21,0,70,5081,22,35,80,0.632,0.0,509,4.86,13.3,0.0,1,39.5,6.11,6.2,0,0,0,1,0,0,250,250,0,52.956406,6.524558,0.0,9.0,10,3,1.3,0,0.0,-1,0.0,,0.0,0,0.0,0.5757
34563,1625672336182,,,,,,,,0.07,0.01,1.71,0,1,1,0.07,,70,5370,22,35,82,0.632,0.0,528,4.77,13.2,0.0,1,39.5,6.55,6.2,0,0,0,1,0,0,250,250,0,,,,,,,,,,,,,,,,
34583,1625672336202,,,,,,,,0.08,0.04,1.9,-0,-6,-8,0.09,,70,5776,22,35,83,0.632,0.0,565,4.8,13.2,0.0,1,38.9,3.16,18.3,0,0,0,1,0,0,250,250,0,,,,,,,,,,,,,,,,
34603,1625672336222,,,,,,,,0.01,0.04,1.74,-0,-6,-8,0.04,,70,6200,17,35,83,0.634,0.0,607,4.78,13.2,0.0,1,39.7,3.23,18.3,0,0,0,1,0,0,250,250,0,,,,,,,,,,,,,,,,
34623,1625672336242,,,,,,,,0.02,0.03,1.6,-0,-3,-5,0.03,,70,6694,11,35,80,0.634,0.0,646,4.78,13.1,0.0,1,42.4,2.92,18.3,0,0,0,1,0,0,250,250,0,,,,,,,,,,,,,,,,
34643,1625672336262,-1,2,45,48,31,31,7,-0.02,0.03,1.46,-0,-4,-5,0.03,0,70,7094,7,35,74,0.634,0.0,658,4.78,13.2,0.0,1,42.2,2.66,18.3,0,0,0,1,0,0,250,250,0,52.956406,6.524558,0.0,9.0,10,3,1.3,0,0.0,-1,0.0,0.0,0.0,0,0.0,0.5774
34663,1625672336282,,,,,,,,0.01,-0.02,1.55,-0,-5,-6,0.02,,70,7040,7,35,68,0.634,0.0,663,4.87,13.3,0.0,1,40.7,3.4,18.3,0,0,0,1,0,0,250,250,0,,,,,,,,,,,,,,,,
34683,1625672336302,,,,,,,,0.05,0.04,1.75,-0,-4,-5,0.06,,70,7172,7,35,64,0.634,0.0,667,4.74,13.2,0.0,1,39.1,2.84,9.7,0,0,0,1,0,0,250,250,0,,,,,,,,,,,,,,,,
34703,1625672336322,,,,,,,,0.08,0.01,1.88,-0,-2,-2,0.08,,70,7518,7,35,60,0.634,0.0,665,4.87,13.1,0.0,1,37.7,2.47,9.7,0,0,0,1,0,0,250,250,0,,,,,,,,,,,,,,,,
34723,1625672336342,,,,,,,,0.11,-0.03,1.98,-0,-2,-2,0.11,,70,7754,7,35,56,0.634,0.0,682,4.82,13.2,0.0,1,37.1,2.43,9.7,0,0,0,1,0,0,250,250,0,,,,,,,,,,,,,,,,
34743,1625672336362,-1,2,45,47,31,31,7,0.1,-0.03,1.95,-0,-3,-5,0.1,0,70,7975,7,35,52,0.634,0.0,676,4.75,13.3,0.0,1,36.8,2.41,9.7,0,0,0,1,0,0,250,250,0,52.956406,6.524558,0.0,9.0,10,3,1.3,0,0.0,-1,0.0,,0.0,0,0.0,0.579
34763,1625672336382,,,,,,,,0.06,-0.02,1.79,-0,-2,-3,0.07,,70,7971,7,35,49,0.634,0.0,675,4.9,13.1,0.0,1,36.6,2.37,9.7,0,0,0,1,0,0,250,250,0,,,,,,,,,,,,,,,,
34783,1625672336402,,,,,,,,0.08,-0.07,1.93,0,-1,-2,0.11,,70,8033,7,35,45,0.634,0.0,688,4.79,13.2,0.0,1,35.2,2.36,8.8,0,0,0,1,0,0,250,250,0,,,,,,,,,,,,,,,,
34803,1625672336422,,,,,,,,0.09,-0.09,1.99,-0,-3,-6,0.13,,70,7975,7,35,43,0.634,0.0,678,4.75,13.2,0.0,1,33.7,2.31,8.8,0,0,0,1,0,0,250,250,0,,,,,,,,,,,,,,,,
34823,1625672336442,,,,,,,,0.04,-0.09,1.82,-0,-3,-4,0.1,,70,7851,7,35,41,0.634,0.0,673,4.88,13.1,0.0,1,32.2,1.18,8.8,0,0,0,1,0,0,250,250,0,,,,,,,,,,,,,,,,
34843,1625672336462,0,1,45,47,31,31,6,0.01,-0.07,1.67,0,-0,-1,0.07,0,70,7668,7,35,40,0.632,0.0,675,4.85,13.1,0.0,1,31.5,2.28,8.8,0,0,0,1,0,0,250,250,0,52.956406,6.524558,0.0,9.0,10,3,1.3,0,0.0,-1,0.0,0.0,0.0,0,0.0,0.5807
34863,1625672336482,,,,,,,,-0.03,-0.03,1.53,0,1,1,0.04,,70,7431,7,35,40,0.631,0.0,670,4.93,13.1,0.0,1,31.4,1.17,8.8,0,0,0,1,0,0,250,250,0,,,,,,,,,,,,,,,,
34883,1625672336502,,,,,,,,-0.05,-0.06,1.4,0,0,1,0.08,,70,7183,7,35,40,0.631,0.0,670,4.88,13.2,0.0,1,31.3,1.17,7.6,0,0,0,1,0,0,250,250,0,,,,,,,,,,,,,,,,
34903,1625672336522,,,,,,,,0.02,-0.05,1.62,0,-1,-1,0.05,,70,6934,8,35,40,0.63,0.0,667,4.77,13.1,0.0,1,31.1,2.28,7.6,0,0,0,1,0,0,250,250,0,,,,,,,,,,,,,,,,
34923,1625672336542,,,,,,,,-0.07,-0.04,1.48,0,1,1,0.08,,70,6749,8,35,41,0.63,0.0,656,4.79,13.1,0.0,1,31.1,2.27,7.6,0,0,0,1,0,0,250,250,0,,,,,,,,,,,,,,,,
34943,1625672336562,-1,2,45,47,31,31,7,0.04,-0.02,1.69,0,1,1,0.05,0,70,6510,8,35,41,0.63,0.0,652,4.76,13.2,0.0,1,30.8,2.28,7.6,0,0,0,1,0,0,250,250,0,52.956406,6.524558,0.0,9.0,10,3,1.3,0,0.0,-1,0.0,,0.0,0,0.0,0.5824
34963,1625672336582,,,,,,,,0.08,0.0,1.87,0,-3,-1,0.08,,70,6447,8,35,41,0.63,0.0,643,4.81,13.3,0.0,1,30.7,1.17,7.6,0,0,0,1,0,0,250,250,0,,,,,,,,,,,,,,,,
34983,1625672336603,,,,,,,,-0.02,0.01,1.71,0,-2,-1,0.02,,70,6302,8,35,41,0.631,0.0,646,4.86,13.2,0.0,1,30.5,1.17,6.7,0,0,0,1,0,0,250,250,0,,,,,,,,,,,,,,,,
35003,1625672336623,,,,,,,,-0.1,0.0,1.57,0,-0,-0,0.1,,70,6105,8,35,42,0.632,0.0,640,4.8,13.1,0.0,1,30.4,1.17,6.7,0,0,0,1,0,0,250,250,0,,,,,,,,,,,,,,,,
35023,1625672336643,,,,,,,,-0.17,-0.01,1.44,-0,1,-0,0.17,,70,5892,8,35,43,0.632,0.0,625,4.82,13.3,0.0,1,30.2,2.33,6.7,0,0,0,1,0,0,250,250,0,,,,,,,,,,,,,,,,
35043,1625672336663,0,2,45,49,31,31,7,-0.11,-0.05,1.53,-0,-3,-5,0.12,0,70,5649,8,35,44,0.632,0.0,603,4.86,13.3,0.0,1,29.9,2.44,6.7,0,0,0,1,0,0,250,250,0,52.956406,6.524558,0.0,9.0,10,3,1.3,0,0.0,-1,0.0,0.0,0.0,0,0.0,0.584
35063,1625672336683,,,,,,,,-0.04,-0.02,1.73,0,-3,-5,0.05,,70,5389,8,35,45,0.633,0.0,590,4.78,13.3,0.0,1,29.7,2.57,6.7,0,0,0,1,0,0,250,250,0,,,,,,,,,,,,,,,,
35083,1625672336702,,,,,,,,-0.11,-0.08,1.59,0,-0,-3,0.14,,70,5215,8,35,46,0.634,0.0,560,4.82,13.2,0.0,1,29.6,1.56,6.4,0,0,0,1,0,0,250,250,0,,,,,,,,,,,,,,,,
35103,1625672336722,,,,,,,,-0.1,-0.02,1.79,0,-2,-5,0.1,,70,5022,8,35,47,0.635,0.0,547,4.8,13.2,0.0,1,29.6,2.76,6.4,0,0,0,1,0,0,250,250,0,,,,,,,,,,,,,,,,
35123,1625672336742,,,,,,,,-0.04,-0.06,1.64,-0,-4,-8,0.07,,70,4854,8,35,48,0.636,0.0,511,4.87,13.3,0.0,1,28.1,2.71,6.4,0,0,0,1,0,0,250,250,0,,,,,,,,,,,,,,,,
35143,1625672336762,-1,2,45,49,30,31,7,-0.02,-0.1,1.5,0,-2,-6,0.1,0,70,4703,9,35,49,0.636,0.0,494,4.82,13.4,0.0,1,26.5,2.63,6.4,0,0,0,1,0,0,250,250,0,52.956406,6.524558,0.0,9.0,10,3,1.3,0,0.0,-1,0.0,,0.0,0,0.0,0.5857
35163,1625672336782,,,,,,,,-0.01,-0.1,1.38,0,-1,-4,0.1,,70,4601,10,35,50,0.636,0.0,470,4.86,13.4,0.0,1,25.6,2.58,6.4,0,0,0,1,0,0,250,250,0,,,,,,,,,,,,,,,,
35183,1625672336804,,,,,,,,-0.01,-0.09,1.26,0,1,-2,0.09,,70,4544,12,35,52,0.636,0.0,465,4.81,13.4,0.0,1,25.5,1.45,5.4,0,0,0,1,0,0,250,250,0,,,,,,,,,,,,,,,,
35203,1625672336824,,,,,,,,0.02,-0.09,1.16,0,3,-1,0.09,,70,4497,14,35,55,0.636,0.0,463,4.82,13.3,0.0,1,25.7,1.44,5.4,0,0,0,1,0,0,250,250,0,,,,,,,,,,,,,,,,
35223,1625672336844,,,,,,,,0.04,-0.11,1.06,0,4,-0,0.12,,70,4422,17,35,60,0.635,0.0,440,4.82,13.4,0.0,1,26.1,2.55,5.4,0,0,0,1,0,0,250,250,0,,,,,,,,,,,,,,,,
35243,1625672336864,1,2,45,49,30,31,7,0.08,-0.15,0.97,0,5,0,0.17,0,70,4481,20,35,65,0.635,0.0,446,4.8,13.4,0.0,1,28.2,4.33,5.4,0,0,0,1,0,0,250,250,0,52.956406,6.524558,0.0,9.0,10,3,1.3,0,0.0,-1,0.0,0.0,0.0,0,0.0,0.5874
35263,1625672336884,,,,,,,,0.07,-0.16,0.89,0,6,2,0.18,,70,4600,23,35,70,0.635,0.0,446,4.83,13.3,0.0,1,31.1,1.91,5.4,0,0,0,1,0,0,250,-1,0,,,,,,,,,,,,,,,,
35283,1625672336904,,,,,,,,0.06,-0.15,0.81,0,8,4,0.16,,70,4619,26,35,77,0.634,0.0,470,4.77,13.3,0.0,1,33.1,5.16,10.8,0,0,0,1,0,0,250,-1,0,,,,,,,,,,,,,,,,
35303,1625672336924,,,,,,,,0.03,-0.12,0.75,0,10,6,0.12,,70,4722,28,35,83,0.633,0.0,480,4.78,13.1,0.0,1,37.7,2.49,10.8,0,0,0,1,0,0,250,-1,0,,,,,,,,,,,,,,,,
35323,1625672336944,,,,,,,,0.06,-0.08,1.02,0,5,2,0.1,,70,4989,28,35,87,0.634,0.0,495,4.82,13.1,0.0,1,41.6,6.05,10.8,0,0,0,1,0,0,250,-1,0,,,,,,,,,,,,,,,,
35343,1625672336964,-1,2,45,49,30,31,7,0.07,-0.12,0.93,0,5,1,0.13,0,70,5212,28,35,90,0.633,0.0,519,4.85,13.3,0.0,1,42.2,6.51,10.8,0,0,0,1,0,0,250,-1,0,52.956406,6.524558,0.0,9.0,10,3,1.3,0,0.0,-1,0.0,,0.0,0,0.0,0.589
35363,1625672336984,,,,,,,,0.13,-0.1,1.19,1,4,0,0.17,,70,5563,28,35,91,0.633,0.6,549,4.8,13.1,0.0,1,41.1,7.5,10.8,0,0,0,1,0,0,250,-1,6,,,,,,,,,,,,,,,,
35383,1625672336993,,,,,,,,0.12,-0.1,1.09,1,8,5,0.16,,70,5994,25,35,90,0.632,0.6,577,4.78,13.0,0.0,1,39.8,8.44,22.4,0,0,0,1,0,0,250,-1,6,,,,,,,,,,,,,,,,
35403,1625672337013,,,,,,,,0.21,-0.1,1.33,1,5,3,0.23,,70,6447,18,35,88,0.632,0.6,621,4.77,13.2,0.0,1,43.5,7.53,22.4,0,0,0,1,0,0,250,-1,6,,,,,,,,,,,,,,,,
35423,1625672337033,,,,,,,,0.15,-0.05,1.22,1,6,5,0.16,,70,6993,12,35,83,0.632,0.6,650,4.81,13.1,0.0,1,45.5,2.84,22.4,0,0,0,1,0,0,250,-1,6,,,,,,,,,,,,,,,,
35443,1625672337053,1,2,45,49,31,31,7,0.14,-0.03,1.13,1,5,4,0.14,0,70,7194,8,35,77,0.632,0.8,659,4.79,13.2,0.0,1,42.5,3.8,22.4,0,0,0,1,0,0,1018,-1,6,52.956406,6.524558,0.0,9.0,10,3,1.4,0,0.0,-1,0.0,0.0,0.0,0,0.0,0.5907
35463,1625672337073,,,,,,,,0.18,-0.03,1.35,1,3,2,0.18,,70,7170,7,35,72,0.634,0.8,668,4.78,13.2,0.0,1,41.3,3.57,22.4,0,0,0,1,0,0,1018,-1,6,,,,,,,,,,,,,,,,
35483,1625672337095,,,,,,,,0.2,0.02,1.58,1,2,-0,0.2,,70,7411,7,35,66,0.634,0.8,663,4.76,13.3,0.0,1,39.3,3.25,11.5,0,0,0,1,0,10,1018,5408,6,,,,,,,,,,,,,,,,
35503,1625672337115,,,,,,,,0.22,0.03,1.78,1,0,-2,0.23,,70,7628,7,35,62,0.635,0.8,666,4.7,13.3,0.0,1,38.1,2.64,11.5,0,0,0,1,0,10,1018,5408,6,,,,,,,,,,,,,,,,
35523,1625672337135,,,,,,,,0.21,-0.0,1.72,0,-1,-4,0.21,,70,7703,7,35,58,0.635,0.8,673,4.72,13.2,0.0,1,37.3,2.44,11.5,0,0,0,1,0,10,1018,5408,6,,,,,,,,,,,,,,,,
35543,1625672337155,1,2,45,49,31,31,5,0.16,-0.0,1.57,1,0,-2,0.16,0,70,7832,7,35,54,0.635,1.2,674,4.9,13.2,0.0,1,36.8,2.42,11.5,0,0,0,1,0,10,1018,5408,12,52.956406,6.524558,0.0,9.0,10,3,1.4,0,0.0,-1,0.0,,0.0,0,0.0,0.5924
35563,1625672337175,,,,,,,,0.14,-0.02,1.44,1,2,2,0.14,,70,7874,7,35,51,0.635,1.2,669,4.88,13.1,0.0,1,36.5,2.38,11.5,0,0,0,1,0,10,1018,5408,12,,,,,,,,,,,,,,,,
35583,1625672337203,,,,,,,,0.16,-0.06,1.55,1,2,2,0.18,,70,7891,7,35,48,0.636,1.2,678,4.87,13.1,0.0,1,36.3,2.34,8.5,0,0,0,1,0,10,1018,5408,12,,,,,,,,,,,,,,,,
35603,1625672337223,,,,,,,,0.19,-0.11,1.76,0,-0,-2,0.22,,70,7881,7,35,45,0.636,1.3,672,4.71,13.3,0.0,1,34.9,2.31,8.5,0,0,0,1,0,10,-1,5408,12,,,,,,,,,,,,,,,,
35623,1625672337243,,,,,,,,0.15,-0.09,1.61,0,-0,-3,0.17,,70,7822,7,35,42,0.637,1.3,672,4.77,13.3,0.0,1,32.8,2.29,8.5,0,0,0,1,0,15,-1,-1281,12,,,,,,,,,,,,,,,,
35643,1625672337263,-0,2,45,50,31,31,5,0.1,-0.06,1.47,1,1,0,0.12,0,70,7712,7,35,41,0.639,1.3,673,4.85,13.2,0.0,1,32.1,2.28,8.5,0,0,0,1,0,15,-1,-1281,12,52.956406,6.524558,0.0,9.0,10,3,1.4,0,0.0,-1,0.0,0.0,0.0,0,0.0,0.594
35663,1625672337283,,,,,,,,0.06,-0.01,1.35,1,3,3,0.06,,70,7509,7,35,40,0.639,1.3,668,4.81,13.1,0.0,1,31.5,2.28,8.5,0,0,0,1,0,15,-1,-1281,12,,,,,,,,,,,,,,,,
35683,1625672337305,,,,,,,,0.02,-0.03,1.24,1,4,5,0.04,,70,7327,7,35,39,0.639,1.7,670,4.82,13.1,0.0,1,31.0,2.28,7.7,0,0,0,1,0,15,-1,-1281,17,,,,,,,,,,,,,,,,
35703,1625672337325,,,,,,,,0.05,-0.05,1.38,1,2,2,0.07,,70,7051,7,35,39,0.639,1.7,652,4.81,13.3,0.0,1,31.0,2.28,7.7,0,0,0,1,0,15,-1,-1281,17,,,,,,,,,,,,,,,,
35723,1625672337345,,,,,,,,0.05,-0.06,1.35,1,3,4,0.08,,70,6838,8,35,39,0.638,1.9,662,4.78,13.1,0.0,1,30.8,2.28,7.7,0,0,0,1,0,15,-235,-1281,17,,,,,,,,,,,,,,,,
35743,1625672337365,0,0,45,50,30,31,6,0.11,-0.06,1.49,1,0,1,0.12,0,70,6677,11,35,40,0.638,1.9,658,4.8,13.2,0.0,1,30.8,2.28,7.7,0,0,0,1,0,19,-235,-1,17,52.956406,6.524558,0.0,9.0,10,3,1.4,0,0.0,-1,0.0,,0.0,0,0.0,0.5957
35763,1625672337385,,,,,,,,0.01,-0.04,1.37,1,4,4,0.04,,70,6517,14,35,42,0.639,1.9,657,4.81,13.1,0.0,1,31.1,2.28,7.7,0,0,0,1,0,19,-235,-1,17,,,,,,,,,,,,,,,,
35783,1625672337406,,,,,,,,0.08,-0.02,1.58,1,2,2,0.08,,70,6510,18,35,46,0.638,2.1,647,4.8,13.3,0.0,1,32.0,2.27,6.8,0,0,0,1,0,19,-235,-1,21,,,,,,,,,,,,,,,,
35803,1625672337426,,,,,,,,0.1,-0.03,1.59,1,0,1,0.11,,70,6519,21,35,52,0.639,2.1,638,4.85,13.2,0.0,1,33.7,2.47,6.8,0,0,0,1,0,19,-235,-1,21,,,,,,,,,,,,,,,,
35823,1625672337446,,,,,,,,0.05,0.01,1.46,1,3,3,0.05,,70,6583,22,35,58,0.639,2.2,651,4.78,13.1,0.0,1,35.6,2.53,6.8,0,0,0,1,0,19,-1,-1,21,,,,,,,,,,,,,,,,
35843,1625672337466,1,0,45,50,30,31,5,0.12,0.01,1.67,1,0,1,0.12,0,70,6677,23,35,63,0.64,2.2,649,4.8,13.3,0.0,1,37.5,2.8,6.8,0,0,0,1,0,23,-1,-1281,21,52.956406,6.524562,1.7,9.3,10,3,1.4,0,0.0,-1,0.0,0.0,0.0,0,0.0,0.5974
35863,1625672337486,,,,,,,,0.07,0.03,1.53,0,2,3,0.08,,70,6893,23,35,67,0.64,2.2,652,4.77,13.1,0.0,1,39.7,3.64,6.8,0,0,0,1,0,23,-1,-1281,21,,,,,,,,,,,,,,,,
35883,1625672337505,,,,,,,,0.08,0.01,1.4,0,1,2,0.08,,70,7004,23,35,70,0.641,2.4,653,4.86,13.2,512.5,1,41.3,3.86,12.3,0,0,0,1,0,23,-1,-1281,24,,,,,,,,,,,,,,,,
35903,1625672337525,,,,,,,,0.14,0.02,1.62,0,-1,-0,0.14,,70,7181,22,35,72,0.64,2.4,658,4.83,13.3,512.5,1,41.3,3.97,12.3,0,0,0,1,0,23,16899,-1281,24,,,,,,,,,,,,,,,,
35923,1625672337545,,,,,,,,0.15,-0.0,1.63,0,-1,-0,0.15,,70,7304,19,35,73,0.639,2.5,661,4.84,13.3,512.5,1,41.1,3.99,12.3,0,0,0,1,0,25,16899,5442,24,,,,,,,,,,,,,,,,
35943,1625672337565,-0,2,45,50,31,31,5,0.17,0.03,1.76,0,-2,-2,0.18,0,70,7443,13,35,71,0.64,2.5,668,4.73,13.2,512.5,1,40.3,3.57,12.3,0,0,0,1,0,25,16899,5442,24,52.956406,6.524562,1.9,9.4,10,3,1.4,0,0.0,-1,0.0,,0.0,0,0.0,0.599
35963,1625672337585,,,,,,,,0.21,0.06,1.91,0,-2,-2,0.21,,70,7572,10,35,67,0.64,2.7,677,4.77,13.0,512.5,1,39.2,3.41,12.3,0,0,0,1,0,25,16899,5442,27,,,,,,,,,,,,,,,,
35983,1625672337603,,,,,,,,0.24,0.05,2.08,0,-3,-4,0.24,,70,7741,8,35,63,0.641,2.7,675,4.7,13.1,377.7,1,38.2,2.73,10.2,0,0,0,1,0,25,16899,5442,27,,,,,,,,,,,,,,,,
36003,1625672337623,,,,,,,,0.21,0.02,1.96,0,-3,-4,0.21,,70,7911,7,35,58,0.639,2.8,669,4.86,13.2,377.7,1,37.4,2.42,10.2,0,0,0,1,0,29,-1,-1,27,,,,,,,,,,,,,,,,
36023,1625672337643,,,,,,,,0.2,0.03,1.8,0,-1,0,0.2,,70,8113,7,35,54,0.639,2.8,680,4.87,13.1,377.7,1,37.5,2.54,10.2,0,0,0,1,0,29,-1,-1,27,,,,,,,,,,,,,,,,
36043,1625672337663,-1,2,46,50,31,31,6,0.18,0.02,1.98,0,-2,-2,0.18,0,70,8281,7,35,49,0.639,2.9,675,4.82,13.2,377.7,1,37.1,2.66,10.2,0,0,0,1,0,29,-1,-1,29,52.956406,6.524562,0.0,9.4,10,3,1.4,0,0.0,-1,0.0,0.0,0.0,0,0.0,0.6007
36063,1625672337683,,,,,,,,0.22,0.07,1.83,0,-3,-1,0.23,,70,8426,7,35,45,0.638,3.1,681,4.84,13.1,377.7,1,35.6,2.76,10.2,0,0,0,1,0,29,-1,-1,29,,,,,,,,,,,,,,,,
