"Interval"|"ms"|0|0|1,"Utc"|"ms"|0|0|1,"Brake_F"|"Bar"|0|2000|10,"Brake_R"|"Bar"|0|2000|10,"Height_RF"|"mm"|0|255|10,"Height_LF"|"mm"|0|255|10,"Height_LR"|"mm"|0|80|10,"Height_RR"|"mm"|0|255|10,"Steering"|"deg"|-100|100|10,"AccelX"|"G"|-3.0|3.0|50,"AccelY"|"G"|-3.0|3.0|50,"AccelZ"|"G"|-3.0|3.0|50,"Yaw"|"Deg/Sec"|-120|120|50,"Pitch"|"Deg/Sec"|-120|120|50,"Roll"|"Deg/Sec"|-120|120|50,"Gsum"|"G"|0.0|3.0|50,"Log_Button"|""|0.0|10.0|10,"WaterTemp"|"C"|0|150|50,"RPM"|"tr/min"|0|14000|50,"TPS"|"%"|0|100|50,"AirTemp"|"C"|0|150|50,"MAP"|"KPa"|0|100|50,"Lambda"|""|0.5|1.5|50,"SpeedDTA"|"kph"|0.0|250.0|50,"OilPress"|"KPa"|0|1500|50,"FuelPressur"|"Bar"|0.0|10.0|50,"Batterie"|"V"|0.0|20.0|50,"ConsoKm"|"L/100km"|0.0|200.0|50,"Gear"|""|0|6|50,"AdvIgnition"|"Deg"|-20.0|70.0|50,"Injection"|"ms"|0.0|10.0|50,"ConsoHr"|"L/Hr"|0.0|10000.0|50,"LC_But_Pres"|""|0|1|50,"LC_Active"|""|0|1|50,"TractionOn"|""|0|1|50,"TractionWet"|""|0|1|50,"FanOn"|""|0|1|50,"RD_Speed"|"km/h"|-30|250|50,"RUD_Speed"|"km/h"|-30|250|50,"LD_Speed"|"km/h"|-30|250|50,"LUD_Speed"|"km/h"|-30|250|50,"Latitude"|"Degrees"|-180.0|180.0|10,"Longitude"|"Degrees"|-180.0|180.0|10,"Speed"|"kph"|0.0|150.0|10,"Altitude"|"m"|0.0|4000.0|10,"GPSSats"|""|0|20|10,"GPSQual"|""|0|5|10,"GPSDOP"|""|0.0|20.0|10,"LapCount"|""|0|0|10,"LapTime"|"Min"|0.0|0.0|10,"Sector"|""|0|0|10,"SectorTime"|"Min"|0.0|0.0|10,"PredTime"|"Min"|0.0|0.0|5,"ElapsedTime"|"Min"|0.0|0.0|10,"CurrentLap"|""|0|0|10,"Distance"|"km"|0.0|0.0|10,"SessionTime"|"Min"|0.0|0.0|10
33063,1625564642126,,,,,,,,0.12,-0.01,1.82,-0,-2,-5,0.12,,43,4584,7,32,56,0.982,0.0,620,4.91,13.4,0.0,1,27.1,2.62,5.7,0,0,0,1,0,0,250,250,0,,,,,,,,,,,,,,,,
33083,1625564642146,,,,,,,,0.13,-0.02,1.84,-0,-2,-6,0.13,,43,4484,7,32,55,0.984,0.0,624,4.88,13.4,0.0,1,25.5,2.55,5.7,0,0,0,1,0,0,250,250,0,,,,,,,,,,,,,,,,
33103,1625564642166,,,,,,,,0.17,-0.03,1.69,-0,-1,-5,0.18,,43,4547,7,32,56,0.986,0.0,619,4.88,13.4,0.0,1,26.6,2.59,5.7,0,0,0,1,0,0,250,250,0,,,,,,,,,,,,,,,,
33123,1625564642186,,,,,,,,0.2,-0.05,1.55,-0,0,-5,0.21,,43,4506,7,32,56,0.988,0.0,626,4.88,13.4,0.0,1,26.1,2.58,5.4,0,0,0,1,0,0,250,250,0,,,,,,,,,,,,,,,,
33143,1625564642206,-0,3,44,45,33,32,9,0.24,-0.06,1.42,-0,1,-4,0.25,0,43,4471,7,32,56,0.99,0.0,620,4.9,13.4,0.0,1,25.6,2.55,5.4,0,0,0,1,0,0,250,250,0,52.957214,6.521231,0.0,28.5,9,2,1.7,0,0.0,-1,0.0,,0.0,0,0.0,0.5524
33163,1625564642226,,,,,,,,0.27,-0.1,1.3,-0,2,-4,0.29,,43,4487,7,32,56,0.992,0.0,625,4.91,13.4,0.0,1,25.8,2.57,5.4,0,0,0,1,0,0,250,250,0,,,,,,,,,,,,,,,,
33183,1625564642246,,,,,,,,0.3,-0.11,1.19,-0,2,-4,0.32,,43,4455,7,32,56,0.994,0.0,623,4.85,13.4,0.0,1,25.4,1.42,5.4,0,0,0,1,0,0,250,250,0,,,,,,,,,,,,,,,,
33203,1625564642266,,,,,,,,0.32,-0.12,1.12,-0,3,-4,0.34,,43,4436,7,32,56,0.996,0.0,621,4.87,13.3,0.0,1,25.2,2.53,5.4,0,0,0,1,0,0,250,250,0,,,,,,,,,,,,,,,,
33223,1625564642286,,,,,,,,0.34,-0.1,1.07,-0,2,-5,0.36,,43,4435,7,32,57,0.998,0.0,625,4.91,13.4,0.0,1,25.4,2.55,5.2,0,0,0,1,0,0,250,250,0,,,,,,,,,,,,,,,,
33243,1625564642306,0,3,44,46,33,32,9,0.35,-0.09,1.25,-0,2,-6,0.36,0,43,4416,7,32,57,0.998,0.0,619,4.88,13.4,0.0,1,25.2,2.52,5.2,0,0,0,1,0,0,250,250,0,52.957214,6.521231,0.0,28.5,9,2,1.7,0,0.0,-1,0.0,0.0,0.0,0,0.0,0.5541
33263,1625564642326,,,,,,,,0.32,-0.06,1.48,-0,1,-6,0.33,,43,4424,7,32,57,0.999,0.0,623,4.83,13.2,0.0,1,25.3,2.54,5.2,0,0,0,1,0,0,250,250,0,,,,,,,,,,,,,,,,
33283,1625564642346,,,,,,,,0.27,-0.03,1.69,-0,0,-6,0.27,,43,4386,7,32,57,0.999,0.0,620,4.86,13.3,0.0,1,24.8,2.52,5.2,0,0,0,1,0,0,250,250,0,,,,,,,,,,,,,,,,
33303,1625564642366,,,,,,,,0.19,0.0,1.88,-0,-1,-7,0.19,,44,4408,7,32,57,0.998,0.0,620,4.83,13.2,0.0,1,25.1,2.53,5.2,0,0,0,1,0,0,250,250,0,,,,,,,,,,,,,,,,
33323,1625564642386,,,,,,,,0.13,0.0,2.06,-0,-1,-7,0.13,,44,4401,7,32,57,0.998,0.0,620,4.85,13.1,0.0,1,25.0,1.4,5.1,0,0,0,1,0,0,250,250,0,,,,,,,,,,,,,,,,
33343,1625564642406,2,3,44,47,33,32,9,0.06,-0.0,2.22,-0,-2,-7,0.06,0,44,4419,7,32,57,0.997,0.0,615,4.85,13.1,0.0,1,25.2,2.54,5.1,0,0,0,1,0,0,250,250,0,52.957214,6.521231,0.0,28.5,9,2,1.7,0,0.0,-1,0.0,,0.0,0,0.0,0.5557
33363,1625564642426,,,,,,,,0.0,-0.0,2.28,-0,-2,-6,0.0,,44,4414,7,32,58,0.999,0.0,622,4.91,13.3,0.0,1,25.4,2.55,5.1,0,0,0,1,0,0,250,250,0,,,,,,,,,,,,,,,,
33383,1625564642446,,,,,,,,-0.05,0.01,2.19,-0,-2,-5,0.05,,43,4396,7,32,57,0.999,0.0,620,4.9,13.2,0.0,1,25.2,1.41,5.1,0,0,0,1,0,0,250,250,0,,,,,,,,,,,,,,,,
33403,1625564642466,,,,,,,,-0.08,-0.0,2.01,-0,-1,-4,0.08,,43,4445,7,32,58,1.0,0.0,620,4.93,13.4,0.0,1,25.8,1.45,5.1,0,0,0,1,0,0,250,250,0,,,,,,,,,,,,,,,,
33423,1625564642486,,,,,,,,-0.08,-0.0,1.84,-0,-1,-2,0.08,,43,4447,7,32,58,1.001,0.0,621,4.89,13.4,0.0,1,25.8,2.57,5.2,0,0,0,1,0,0,250,250,0,,,,,,,,,,,,,,,,
33443,1625564642505,1,3,44,45,33,32,9,-0.06,-0.02,1.69,0,-1,-1,0.06,0,43,4427,7,32,58,1.001,0.0,620,4.91,13.3,0.0,1,25.6,2.55,5.2,0,0,0,1,0,0,250,250,0,52.957214,6.521231,0.0,28.5,9,2,1.7,0,0.0,-1,0.0,0.0,0.0,0,0.0,0.5574
33463,1625564642525,,,,,,,,-0.03,-0.03,1.55,0,0,2,0.04,,43,4467,7,32,58,1.001,0.0,621,4.86,13.4,0.0,1,26.1,1.46,5.2,0,0,0,1,0,0,250,250,0,,,,,,,,,,,,,,,,
33483,1625564642545,,,,,,,,0.0,-0.02,1.42,0,1,3,0.02,,43,4460,7,32,58,1.001,0.0,617,4.9,13.4,0.0,1,26.0,1.46,5.2,0,0,0,1,0,0,250,250,0,,,,,,,,,,,,,,,,
33503,1625564642565,,,,,,,,0.03,-0.03,1.3,0,2,4,0.04,,43,4476,7,32,58,1.002,0.0,621,4.89,13.4,0.0,1,26.2,2.58,5.2,0,0,0,1,0,0,250,250,0,,,,,,,,,,,,,,,,
33523,1625564642585,,,,,,,,0.07,-0.05,1.19,0,2,6,0.08,,43,4518,7,32,58,1.003,0.0,625,4.88,13.4,0.0,1,26.7,1.49,5.4,0,0,0,1,0,0,250,250,0,,,,,,,,,,,,,,,,
33543,1625564642605,0,3,44,46,33,32,9,0.08,-0.06,1.09,0,3,7,0.1,0,43,4544,7,32,58,1.004,0.0,622,4.91,13.4,0.0,1,27.1,1.5,5.4,0,0,0,1,0,0,250,250,0,52.957214,6.521231,0.0,28.5,9,2,1.7,0,0.0,-1,0.0,,0.0,0,0.0,0.559
33563,1625564642625,,,,,,,,0.08,-0.06,1.0,0,3,8,0.1,,43,4550,7,32,58,1.006,0.0,625,4.85,13.4,0.0,1,27.2,2.62,5.4,0,0,0,1,0,0,250,250,0,,,,,,,,,,,,,,,,
33583,1625564642645,,,,,,,,0.07,-0.08,0.92,0,4,9,0.1,,43,4563,7,32,57,1.008,0.0,622,4.89,13.3,0.0,1,27.1,1.5,5.4,0,0,0,1,0,0,250,250,0,,,,,,,,,,,,,,,,
33603,1625564642665,,,,,,,,0.06,-0.07,0.88,0,3,9,0.09,,43,4594,7,32,57,1.01,0.0,630,4.9,13.2,0.0,1,27.2,1.51,5.4,0,0,0,1,0,0,250,250,0,,,,,,,,,,,,,,,,
33623,1625564642685,,,,,,,,0.02,-0.05,0.98,0,2,8,0.05,,43,4608,7,32,57,1.012,0.0,624,4.91,13.2,0.0,1,27.6,2.63,5.5,0,0,0,1,0,0,250,250,0,,,,,,,,,,,,,,,,
33643,1625564642707,2,1,44,46,33,32,9,-0.02,-0.04,1.23,0,1,6,0.05,0,44,4622,7,32,57,1.014,0.0,623,4.9,13.2,0.0,1,27.8,2.64,5.5,0,0,0,1,0,0,250,250,0,52.957214,6.521231,0.0,28.5,9,2,1.7,0,0.0,-1,0.0,0.0,0.0,0,0.0,0.5607
33663,1625564642727,,,,,,,,-0.05,-0.02,1.46,0,-2,4,0.06,,44,4646,7,32,57,1.016,0.0,632,4.85,13.2,0.0,1,28.1,2.65,5.5,0,0,0,1,0,0,250,250,0,,,,,,,,,,,,,,,,
33683,1625564642747,,,,,,,,-0.05,0.04,1.67,0,-4,2,0.06,,44,4669,7,32,56,1.019,0.0,629,4.89,13.3,0.0,1,28.1,2.67,5.5,0,0,0,1,0,0,250,250,0,,,,,,,,,,,,,,,,
33703,1625564642767,,,,,,,,-0.02,0.06,1.86,0,-5,1,0.06,,43,4714,7,32,56,1.022,0.0,633,4.84,13.3,0.0,1,28.7,2.7,5.5,0,0,0,1,0,0,250,250,0,,,,,,,,,,,,,,,,
33723,1625564642787,,,,,,,,0.01,0.0,1.71,0,-2,1,0.01,,43,4691,7,32,56,1.024,0.0,626,4.88,13.4,0.0,1,28.4,2.68,5.7,0,0,0,1,0,0,250,250,0,,,,,,,,,,,,,,,,
33743,1625564642807,1,2,44,45,33,32,9,0.04,-0.04,1.57,0,-0,2,0.06,0,43,4694,7,32,56,1.027,0.0,622,4.9,13.4,0.0,1,28.4,1.57,5.7,0,0,0,1,0,0,250,250,0,52.957214,6.521231,0.0,28.5,9,2,1.7,0,0.0,-1,0.0,,0.0,0,0.0,0.5624
33763,1625564642827,,,,,,,,0.01,-0.02,1.43,0,2,5,0.02,,43,4663,7,32,56,1.029,0.0,626,4.84,13.4,0.0,1,28.0,1.55,5.7,0,0,0,1,0,0,250,250,0,,,,,,,,,,,,,,,,
33783,1625564642847,,,,,,,,-0.02,-0.03,1.65,0,3,6,0.03,,44,4658,7,32,56,1.032,0.0,623,4.86,13.3,0.0,1,28.0,1.55,5.7,0,0,0,1,0,0,250,250,0,,,,,,,,,,,,,,,,
33803,1625564642867,,,,,,,,-0.06,-0.01,1.84,0,1,5,0.06,,44,4681,7,32,56,1.034,0.0,626,4.88,13.2,0.0,1,28.3,1.57,5.7,0,0,0,1,0,0,250,250,0,,,,,,,,,,,,,,,,
33823,1625564642887,,,,,,,,-0.06,0.02,2.02,0,-0,3,0.06,,44,4673,7,32,56,1.037,0.0,626,4.86,13.2,0.0,1,28.2,1.56,5.8,0,0,0,1,0,0,250,250,0,,,,,,,,,,,,,,,,
33843,1625564642907,1,3,44,46,33,32,9,-0.04,0.05,2.19,0,-3,1,0.07,0,44,4637,7,32,56,1.038,0.0,626,4.83,13.3,0.0,1,27.7,2.64,5.8,0,0,0,1,0,0,250,250,0,52.957214,6.521231,0.0,28.5,9,2,1.7,0,0.0,-1,0.0,0.0,0.0,0,0.0,0.564
33863,1625564642927,,,,,,,,-0.01,0.04,2.06,0,-4,-0,0.04,,43,4639,7,32,56,1.038,0.0,627,4.83,13.4,0.0,1,27.7,2.65,5.8,0,0,0,1,0,0,250,250,0,,,,,,,,,,,,,,,,
33883,1625564642947,,,,,,,,0.03,-0.01,1.89,0,-4,-1,0.03,,43,4611,7,32,56,1.04,0.0,623,4.86,13.4,0.0,1,27.4,2.62,5.8,0,0,0,1,0,0,250,250,0,,,,,,,,,,,,,,,,
33903,1625564642967,,,,,,,,0.07,-0.07,1.73,-0,-3,-2,0.1,,43,4621,7,32,56,1.041,0.0,621,4.87,13.4,0.0,1,27.5,1.52,5.8,0,0,0,1,0,0,250,250,0,,,,,,,,,,,,,,,,
33923,1625564642987,,,,,,,,0.1,-0.08,1.59,-0,-2,-2,0.12,,43,4570,7,32,55,1.04,0.0,623,4.86,13.4,0.0,1,26.6,2.61,5.6,0,0,0,1,0,0,250,250,0,,,,,,,,,,,,,,,,
33943,1625564642999,1,2,44,46,33,32,9,0.12,-0.07,1.45,-0,-0,-2,0.14,0,43,4546,7,32,55,1.037,0.0,619,4.85,13.4,0.0,1,26.3,2.59,5.6,0,0,0,1,0,0,250,250,0,52.957214,6.521231,0.0,28.5,9,2,1.7,0,0.0,-1,0.0,,0.0,0,0.0,0.5657
33963,1625564643019,,,,,,,,0.14,-0.08,1.33,-0,1,-1,0.16,,43,4546,7,32,56,1.035,0.0,621,4.9,13.4,0.0,1,26.6,2.6,5.6,0,0,0,1,0,0,250,250,0,,,,,,,,,,,,,,,,
33983,1625564643039,,,,,,,,0.16,-0.1,1.22,0,2,0,0.19,,43,4532,7,32,56,1.034,0.0,618,4.92,13.4,0.0,1,26.4,2.59,5.6,0,0,0,1,0,0,250,250,0,,,,,,,,,,,,,,,,
34003,1625564643059,,,,,,,,0.18,-0.11,1.12,0,3,1,0.21,,43,4487,7,32,56,1.03,0.0,620,4.83,13.4,0.0,1,25.8,2.57,5.6,0,0,0,1,0,0,250,250,0,,,,,,,,,,,,,,,,
34023,1625564643079,,,,,,,,0.19,-0.12,1.02,0,4,1,0.23,,43,4473,7,32,56,1.026,0.0,622,4.88,13.4,0.0,1,25.7,2.56,5.3,0,0,0,1,0,0,250,250,0,,,,,,,,,,,,,,,,
34043,1625564643103,1,2,44,46,33,32,9,0.22,-0.12,0.94,0,4,2,0.25,0,43,4486,7,32,56,1.022,0.0,618,4.88,13.4,0.0,1,25.8,2.56,5.3,0,0,0,1,0,0,250,250,0,52.957214,6.521231,0.0,28.5,9,2,1.7,0,0.0,-1,0.0,0.0,0.0,0,0.0,0.5674
34063,1625564643123,,,,,,,,0.24,-0.15,0.86,0,5,2,0.28,,43,4435,7,32,56,1.018,0.0,624,4.83,13.4,0.0,1,25.2,2.53,5.3,0,0,0,1,0,0,250,250,0,,,,,,,,,,,,,,,,
34083,1625564643143,,,,,,,,0.27,-0.16,0.79,0,5,1,0.32,,43,4463,7,32,57,1.014,0.0,620,4.88,13.4,0.0,1,25.8,2.56,5.3,0,0,0,1,0,0,250,250,0,,,,,,,,,,,,,,,,
34103,1625564643163,,,,,,,,0.3,-0.16,0.72,-0,5,1,0.34,,43,4453,7,32,57,1.01,0.0,622,4.9,13.4,0.0,1,25.7,1.43,5.3,0,0,0,1,0,0,250,250,0,,,,,,,,,,,,,,,,
34123,1625564643183,,,,,,,,0.33,-0.16,0.66,-0,5,0,0.37,,43,4426,7,32,57,1.006,0.0,620,4.89,13.4,0.0,1,25.3,2.54,5.2,0,0,0,1,0,0,250,250,0,,,,,,,,,,,,,,,,
34143,1625564643207,-0,3,44,46,33,32,9,0.36,-0.17,0.61,0,4,-1,0.4,0,44,4458,7,32,57,1.002,0.0,621,4.84,13.3,0.0,1,25.7,2.55,5.2,0,0,0,1,0,0,250,250,0,52.957214,6.521231,0.0,28.5,9,2,1.7,0,0.0,-1,0.0,,0.0,0,0.0,0.569
34163,1625564643227,,,,,,,,0.38,-0.15,0.6,-0,3,-2,0.41,,44,4450,7,32,57,0.998,0.0,624,4.9,13.4,0.0,1,25.6,2.55,5.2,0,0,0,1,0,0,250,250,0,,,,,,,,,,,,,,,,
34183,1625564643247,,,,,,,,0.39,-0.13,0.58,-0,3,-3,0.41,,43,4443,7,32,57,0.996,0.0,618,4.88,13.4,0.0,1,25.6,2.55,5.2,0,0,0,1,0,0,250,250,0,,,,,,,,,,,,,,,,
34203,1625564643267,,,,,,,,0.4,-0.12,0.65,-0,3,-3,0.41,,44,4469,7,32,57,0.995,0.0,622,4.82,13.2,0.0,1,25.9,2.56,5.2,0,0,0,1,0,0,250,250,0,,,,,,,,,,,,,,,,
34223,1625564643287,,,,,,,,0.4,-0.12,0.79,-0,2,-4,0.42,,44,4476,7,32,57,0.993,0.0,621,4.82,13.2,0.0,1,26.0,2.57,5.3,0,0,0,1,0,0,250,250,0,,,,,,,,,,,,,,,,
34243,1625564643307,0,2,44,46,33,32,9,0.4,-0.1,0.99,-0,1,-5,0.41,0,44,4478,7,32,57,0.992,0.0,621,4.82,13.2,0.0,1,26.0,2.57,5.3,0,0,0,1,0,0,250,250,0,52.957214,6.521231,0.0,28.5,9,2,1.7,0,0.0,-1,0.0,0.0,0.0,0,0.0,0.5707
34263,1625564643327,,,,,,,,0.38,-0.08,1.13,-0,0,-6,0.39,,43,4488,7,32,57,0.991,0.0,621,4.89,13.4,0.0,1,26.1,2.58,5.3,0,0,0,1,0,0,250,250,0,,,,,,,,,,,,,,,,
34283,1625564643347,,,,,,,,0.37,-0.07,1.32,-0,-1,-7,0.37,,44,4508,7,32,57,0.991,0.0,621,4.82,13.2,0.0,1,26.4,2.59,5.3,0,0,0,1,0,0,250,250,0,,,,,,,,,,,,,,,,
34303,1625564643367,,,,,,,,0.36,-0.07,1.47,-0,-2,-8,0.36,,44,4526,7,32,57,0.99,0.0,625,4.82,13.2,0.0,1,26.6,2.6,5.3,0,0,0,1,0,0,250,250,0,,,,,,,,,,,,,,,,
34323,1625564643387,,,,,,,,0.35,-0.07,1.55,-0,-3,-8,0.36,,44,4520,7,32,57,0.99,0.0,622,4.85,13.2,0.0,1,26.6,2.6,5.4,0,0,0,1,0,0,250,250,0,,,,,,,,,,,,,,,,
34343,1625564643407,0,2,44,45,33,32,9,0.35,-0.06,1.48,-0,-3,-9,0.35,0,44,4534,7,32,57,0.992,0.0,619,4.87,13.4,0.0,1,26.7,2.6,5.4,0,0,0,1,0,0,250,250,0,52.957214,6.521231,0.0,28.5,9,2,1.7,0,0.0,-1,0.0,,0.0,0,0.0,0.5724
34363,1625564643427,,,,,,,,0.36,-0.09,1.36,-0,-3,-10,0.37,,44,4558,7,32,57,0.994,0.0,625,4.93,13.4,0.0,1,27.0,2.62,5.4,0,0,0,1,0,0,250,250,0,,,,,,,,,,,,,,,,
34383,1625564643447,,,,,,,,0.38,-0.12,1.24,-0,-3,-10,0.39,,43,4566,7,32,57,0.997,0.0,622,4.85,13.3,0.0,1,27.1,2.62,5.4,0,0,0,1,0,0,250,250,0,,,,,,,,,,,,,,,,
34403,1625564643467,,,,,,,,0.39,-0.14,1.14,-0,-2,-10,0.42,,43,4608,7,32,57,0.998,0.0,621,4.91,13.4,0.0,1,27.7,2.63,5.4,0,0,0,1,0,0,250,250,0,,,,,,,,,,,,,,,,
34423,1625564643487,,,,,,,,0.39,-0.14,1.05,-0,-0,-8,0.41,,43,4631,7,32,57,0.999,0.0,622,4.91,13.4,0.0,1,27.9,2.65,5.6,0,0,0,1,0,0,250,250,0,,,,,,,,,,,,,,,,
34443,1625564643507,1,2,44,45,33,32,9,0.37,-0.14,0.96,-0,2,-5,0.4,0,43,4659,7,32,57,1.001,0.0,622,4.92,13.4,0.0,1,28.3,1.55,5.6,0,0,0,1,0,0,250,250,0,52.957214,6.521231,0.0,28.5,9,2,1.7,0,0.0,-1,0.0,0.0,0.0,0,0.0,0.574
34463,1625564643527,,,,,,,,0.33,-0.12,0.88,-0,3,-2,0.35,,44,4664,7,32,57,1.002,0.0,626,4.91,13.5,0.0,1,28.4,2.66,5.6,0,0,0,1,0,0,250,250,0,,,,,,,,,,,,,,,,
34483,1625564643547,,,,,,,,0.27,-0.11,0.95,0,4,-0,0.29,,44,4668,7,32,57,1.003,0.0,623,4.88,13.3,0.0,1,28.4,1.56,5.6,0,0,0,1,0,0,250,250,0,,,,,,,,,,,,,,,,
34503,1625564643567,,,,,,,,0.21,-0.1,1.2,-0,3,-1,0.24,,44,4700,7,32,56,1.005,0.0,632,4.88,13.2,0.0,1,28.5,1.58,5.6,0,0,0,1,0,0,250,250,0,,,,,,,,,,,,,,,,
34523,1625564643587,,,,,,,,0.19,-0.05,1.44,-0,0,-3,0.19,,44,4686,7,32,56,1.007,0.0,632,4.87,13.2,0.0,1,28.3,1.57,5.8,0,0,0,1,0,0,250,250,0,,,,,,,,,,,,,,,,
34543,1625564643606,1,1,44,46,33,32,9,0.18,0.0,1.65,-0,-3,-4,0.18,0,44,4676,7,32,56,1.009,0.0,630,4.9,13.4,0.0,1,28.2,2.67,5.8,0,0,0,1,0,0,250,250,0,52.957214,6.521231,0.0,28.5,9,2,1.7,0,0.0,-1,0.0,,0.0,0,0.0,0.5757
34563,1625564643626,,,,,,,,0.2,-0.01,1.59,-0,-3,-5,0.2,,44,4675,7,32,56,1.012,0.0,631,4.84,13.4,0.0,1,28.2,2.67,5.8,0,0,0,1,0,0,250,250,0,,,,,,,,,,,,,,,,
34583,1625564643646,,,,,,,,0.23,-0.06,1.46,-0,-3,-6,0.23,,44,4673,7,32,56,1.012,0.0,625,4.88,13.4,0.0,1,28.2,1.56,5.8,0,0,0,1,0,0,250,250,0,,,,,,,,,,,,,,,,
34603,1625564643666,,,,,,,,0.22,-0.1,1.34,-0,-0,-4,0.24,,44,4679,7,32,56,1.012,0.0,627,4.9,13.4,0.0,1,28.2,1.56,5.8,0,0,0,1,0,0,250,250,0,,,,,,,,,,,,,,,,
34623,1625564643686,,,,,,,,0.22,-0.09,1.23,0,2,-2,0.23,,44,4627,7,32,56,1.011,0.0,625,4.91,13.4,0.0,1,27.6,2.64,5.7,0,0,0,1,0,0,250,250,0,,,,,,,,,,,,,,,,
34643,1625564643706,1,1,44,45,33,32,8,0.17,-0.06,1.12,0,4,2,0.18,0,44,4682,7,32,56,1.011,0.0,623,4.87,13.3,0.0,1,28.3,1.57,5.7,0,0,0,1,0,0,250,250,0,52.957214,6.521231,0.0,28.5,9,2,1.7,0,0.0,-1,0.0,0.0,0.0,0,0.0,0.5774
34663,1625564643726,,,,,,,,0.13,-0.05,1.32,0,4,2,0.14,,44,4661,7,32,56,1.01,0.0,625,4.9,13.2,0.0,1,28.0,1.55,5.7,0,0,0,1,0,0,250,250,0,,,,,,,,,,,,,,,,
34683,1625564643746,,,,,,,,0.08,-0.05,1.54,0,2,1,0.09,,44,4643,7,32,55,1.008,0.0,623,4.9,13.2,0.0,1,27.5,1.54,5.7,0,0,0,1,0,0,250,250,0,,,,,,,,,,,,,,,,
34703,1625564643766,,,,,,,,0.05,-0.01,1.75,0,-0,-1,0.05,,44,4642,7,32,55,1.006,0.0,625,4.88,13.2,0.0,1,27.5,1.54,5.7,0,0,0,1,0,0,250,250,0,,,,,,,,,,,,,,,,
34723,1625564643786,,,,,,,,0.02,0.05,1.93,-0,-3,-2,0.06,,44,4594,7,32,55,1.005,0.0,627,4.82,13.3,0.0,1,26.9,2.62,5.7,0,0,0,1,0,0,250,250,0,,,,,,,,,,,,,,,,
34743,1625564643806,1,3,44,46,33,32,8,0.04,0.07,2.1,0,-4,-3,0.08,0,44,4629,7,32,55,1.002,0.0,623,4.86,13.4,0.0,1,27.3,2.64,5.7,0,0,0,1,0,0,250,250,0,52.957214,6.521231,0.0,28.5,9,2,1.7,0,0.0,-1,0.0,,0.0,0,0.0,0.579
34763,1625564643826,,,,,,,,0.07,0.06,2.05,-0,-5,-4,0.09,,44,4597,7,32,55,0.999,0.0,623,4.88,13.4,0.0,1,26.9,2.62,5.7,0,0,0,1,0,0,250,250,0,,,,,,,,,,,,,,,,
34783,1625564643846,,,,,,,,0.1,0.04,1.95,-0,-4,-5,0.11,,44,4582,7,32,56,0.996,0.0,620,4.85,13.4,0.0,1,27.0,2.61,5.7,0,0,0,1,0,0,250,250,0,,,,,,,,,,,,,,,,
34803,1625564643866,,,,,,,,0.13,0.0,1.78,-0,-3,-5,0.13,,44,4675,7,32,56,0.992,0.0,623,4.9,13.4,0.0,1,28.2,2.67,5.7,0,0,0,1,0,0,250,250,0,,,,,,,,,,,,,,,,
34823,1625564643886,,,,,,,,0.16,-0.05,1.64,-0,-1,-4,0.16,,44,4580,7,32,56,0.988,0.0,623,4.88,13.4,0.0,1,27.0,2.61,5.6,0,0,0,1,0,0,250,250,0,,,,,,,,,,,,,,,,
34843,1625564643906,1,3,44,45,33,32,9,0.17,-0.05,1.5,-0,1,-3,0.18,0,44,4639,7,32,56,0.985,0.0,619,4.85,13.5,0.0,1,27.7,2.65,5.6,0,0,0,1,0,0,250,250,0,52.957214,6.521231,0.0,28.5,9,2,1.7,0,0.0,-1,0.0,0.0,0.0,0,0.0,0.5807
34863,1625564643926,,,,,,,,0.16,-0.03,1.37,0,3,0,0.16,,44,4641,7,32,56,0.981,0.0,623,4.87,13.4,0.0,1,27.8,2.65,5.6,0,0,0,1,0,0,250,250,0,,,,,,,,,,,,,,,,
34883,1625564643946,,,,,,,,0.15,-0.03,1.26,0,3,2,0.15,,44,4585,7,32,55,0.977,0.0,623,4.88,13.4,0.0,1,26.8,2.62,5.6,0,0,0,1,0,0,250,250,0,,,,,,,,,,,,,,,,
34903,1625564643966,,,,,,,,0.09,-0.02,1.28,0,4,3,0.09,,44,4688,7,32,56,0.974,0.0,627,4.85,13.3,0.0,1,28.4,1.57,5.6,0,0,0,1,0,0,250,250,0,,,,,,,,,,,,,,,,
34923,1625564643986,,,,,,,,0.05,-0.02,1.51,0,2,1,0.06,,44,4637,7,32,56,0.97,0.0,627,4.94,13.2,0.0,1,27.3,2.64,5.8,0,0,0,1,0,0,250,250,0,,,,,,,,,,,,,,,,
34943,1625564644000,-0,2,44,46,33,32,9,0.01,0.01,1.72,0,-0,-0,0.02,0,44,4661,7,32,55,0.967,0.0,627,4.88,13.1,0.0,1,27.7,2.66,5.8,0,0,0,1,0,0,250,250,0,52.957214,6.521231,0.0,28.5,9,2,1.7,0,0.0,-1,0.0,,0.0,0,0.0,0.5824
34963,1625564644020,,,,,,,,0.02,0.06,1.91,-0,-3,-2,0.06,,44,4668,7,32,55,0.965,0.0,633,4.86,13.3,0.0,1,27.8,2.67,5.8,0,0,0,1,0,0,250,250,0,,,,,,,,,,,,,,,,
34983,1625564644040,,,,,,,,0.02,0.08,2.08,-0,-4,-3,0.08,,44,4578,7,32,55,0.961,0.0,630,4.87,13.2,0.0,1,26.7,2.61,5.8,0,0,0,1,0,0,250,250,0,,,,,,,,,,,,,,,,
35003,1625564644060,,,,,,,,0.07,0.05,2.04,-0,-4,-4,0.09,,44,4700,7,32,55,0.959,0.0,628,4.82,13.4,0.0,1,28.2,2.69,5.8,0,0,0,1,0,0,250,250,0,,,,,,,,,,,,,,,,
35023,1625564644080,,,,,,,,0.1,0.0,1.87,-0,-3,-4,0.1,,44,4635,7,32,55,0.956,0.0,628,4.85,13.4,0.0,1,27.4,2.64,5.8,0,0,0,1,0,0,250,250,0,,,,,,,,,,,,,,,,
35043,1625564644104,-0,1,44,46,33,32,9,0.13,-0.04,1.71,-0,-1,-3,0.14,0,44,4604,7,32,55,0.954,0.0,622,4.9,13.5,0.0,1,27.0,2.63,5.8,0,0,0,1,0,0,250,250,0,52.957214,6.521231,0.0,28.5,9,2,1.7,0,0.0,-1,0.0,0.0,0.0,0,0.0,0.584
35063,1625564644124,,,,,,,,0.13,-0.03,1.57,-0,2,-0,0.14,,44,4701,7,32,56,0.952,0.0,628,4.83,13.4,0.0,1,28.5,1.58,5.8,0,0,0,1,0,0,250,250,0,,,,,,,,,,,,,,,,
35083,1625564644144,,,,,,,,0.12,-0.02,1.44,0,3,2,0.12,,44,4610,7,32,55,0.951,0.0,623,4.9,13.5,0.0,1,27.1,2.62,5.8,0,0,0,1,0,0,250,250,0,,,,,,,,,,,,,,,,
35103,1625564644164,,,,,,,,0.09,-0.02,1.32,0,4,3,0.09,,44,4665,7,32,55,0.95,0.0,620,4.86,13.3,0.0,1,27.8,1.55,5.8,0,0,0,1,0,0,250,250,0,,,,,,,,,,,,,,,,
35123,1625564644184,,,,,,,,0.04,-0.02,1.54,0,2,2,0.05,,44,4645,7,32,55,0.949,0.0,625,4.9,13.2,0.0,1,27.5,1.54,5.8,0,0,0,1,0,0,250,250,0,,,,,,,,,,,,,,,,
35143,1625564644206,0,2,44,45,33,32,9,0.0,-0.0,1.75,-0,0,0,0.01,0,44,4633,7,32,55,0.948,0.0,622,4.88,13.2,0.0,1,27.4,1.53,5.8,0,0,0,1,0,0,250,250,0,52.957214,6.521231,0.0,28.5,9,2,1.7,0,0.0,-1,0.0,,0.0,0,0.0,0.5857
35163,1625564644226,,,,,,,,-0.01,0.06,1.93,-0,-3,-2,0.06,,44,4687,7,32,55,0.948,0.0,628,4.9,13.2,0.0,1,28.0,2.68,5.8,0,0,0,1,0,0,250,250,0,,,,,,,,,,,,,,,,
35183,1625564644246,,,,,,,,-0.01,0.07,2.1,-0,-4,-3,0.07,,44,4606,7,32,55,0.948,0.0,624,4.85,13.4,0.0,1,27.0,1.51,5.8,0,0,0,1,0,0,250,250,0,,,,,,,,,,,,,,,,
35203,1625564644266,,,,,,,,0.02,0.08,2.26,-0,-5,-4,0.08,,44,4623,7,32,55,0.949,0.0,620,4.86,13.4,0.0,1,27.2,2.63,5.8,0,0,0,1,0,0,250,250,0,,,,,,,,,,,,,,,,
35223,1625564644286,,,,,,,,0.04,0.04,2.07,-0,-4,-4,0.06,,44,4628,7,32,55,0.949,0.0,623,4.87,13.5,0.0,1,27.3,2.64,5.7,0,0,0,1,0,0,250,250,0,,,,,,,,,,,,,,,,
35243,1625564644307,1,1,44,46,33,32,9,0.09,-0.01,1.9,-0,-2,-4,0.09,0,44,4562,7,32,55,0.95,0.0,622,4.85,13.5,0.0,1,26.5,2.6,5.7,0,0,0,1,0,0,250,250,0,52.957214,6.521231,0.0,28.5,9,2,1.7,0,0.0,-1,0.0,0.0,0.0,0,0.0,0.5874
35263,1625564644327,,,,,,,,0.12,-0.07,1.74,-0,-0,-3,0.14,,44,4658,7,32,55,0.951,0.0,621,4.9,13.5,0.0,1,27.7,2.66,5.7,0,0,0,1,0,0,250,250,0,,,,,,,,,,,,,,,,
35283,1625564644347,,,,,,,,0.13,-0.06,1.6,0,2,-1,0.15,,44,4604,7,32,55,0.952,0.0,623,4.88,13.4,0.0,1,27.0,1.51,5.7,0,0,0,1,0,0,250,250,0,,,,,,,,,,,,,,,,
35303,1625564644367,,,,,,,,0.12,-0.05,1.46,0,3,2,0.13,,44,4629,7,32,55,0.952,0.0,619,4.88,13.4,0.0,1,27.3,1.53,5.7,0,0,0,1,0,0,250,250,0,,,,,,,,,,,,,,,,
35323,1625564644387,,,,,,,,0.11,-0.05,1.34,0,4,4,0.12,,44,4674,7,32,56,0.952,0.0,627,4.87,13.3,0.0,1,28.2,2.67,5.7,0,0,0,1,0,0,250,250,0,,,,,,,,,,,,,,,,
35343,1625564644406,1,3,44,45,33,32,8,0.07,-0.03,1.29,0,3,3,0.08,0,44,4579,7,32,55,0.952,0.0,628,4.9,13.2,0.0,1,26.6,2.61,5.7,0,0,0,1,0,0,250,250,0,52.957214,6.521231,0.0,28.5,9,2,1.7,0,0.0,-1,0.0,,0.0,0,0.0,0.589
35363,1625564644426,,,,,,,,0.03,-0.03,1.51,0,3,2,0.04,,44,4643,7,32,55,0.951,0.0,622,4.85,13.4,0.0,1,27.8,2.65,5.7,0,0,0,1,0,0,250,250,0,,,,,,,,,,,,,,,,
35383,1625564644446,,,,,,,,-0.01,-0.01,1.72,0,-0,0,0.02,,44,4618,7,32,55,0.951,0.0,630,4.88,13.2,0.0,1,27.2,2.63,5.7,0,0,0,1,0,0,250,250,0,,,,,,,,,,,,,,,,
35403,1625564644466,,,,,,,,-0.04,0.03,1.91,0,-2,-1,0.05,,44,4589,7,32,55,0.95,0.0,625,4.86,13.2,0.0,1,26.8,2.62,5.7,0,0,0,1,0,0,250,250,0,,,,,,,,,,,,,,,,
35423,1625564644486,,,,,,,,-0.04,0.08,2.08,-0,-4,-2,0.09,,44,4669,7,32,55,0.95,0.0,632,4.84,13.4,0.0,1,27.8,2.67,5.5,0,0,0,1,0,0,250,250,0,,,,,,,,,,,,,,,,
35443,1625564644505,-0,1,44,46,32,32,9,-0.03,0.08,2.24,-0,-4,-3,0.08,0,44,4556,7,32,55,0.949,0.0,625,4.85,13.4,0.0,1,26.4,2.6,5.5,0,0,0,1,0,0,250,250,0,52.957214,6.521231,0.0,28.5,9,2,1.7,0,0.0,-1,0.0,0.0,0.0,0,0.0,0.5907
35463,1625564644525,,,,,,,,0.0,0.08,2.39,-0,-5,-5,0.08,,44,4617,7,32,55,0.948,0.0,625,4.92,13.4,0.0,1,27.2,2.63,5.5,0,0,0,1,0,0,250,250,0,,,,,,,,,,,,,,,,
35483,1625564644545,,,,,,,,0.02,0.05,2.19,-0,-3,-5,0.06,,44,4609,7,32,55,0.946,0.0,626,4.91,13.4,0.0,1,27.1,2.62,5.5,0,0,0,1,0,0,250,250,0,,,,,,,,,,,,,,,,
35503,1625564644565,,,,,,,,0.07,0.01,2.01,-0,-2,-5,0.07,,44,4549,7,32,56,0.944,0.0,621,4.92,13.5,0.0,1,26.6,2.59,5.5,0,0,0,1,0,0,250,250,0,,,,,,,,,,,,,,,,
35523,1625564644585,,,,,,,,0.08,-0.0,1.84,-0,0,-3,0.08,,44,4654,7,32,56,0.943,0.0,622,4.9,13.5,0.0,1,27.9,2.66,5.5,0,0,0,1,0,0,250,250,0,,,,,,,,,,,,,,,,
35543,1625564644605,1,0,44,45,33,32,9,0.1,-0.01,1.68,0,2,-1,0.1,0,44,4592,7,32,56,0.941,0.0,622,4.92,13.5,0.0,1,27.2,2.62,5.5,0,0,0,1,0,0,250,250,0,52.957214,6.521231,0.0,28.5,9,2,1.7,0,0.0,-1,0.0,,0.0,0,0.0,0.5924
35563,1625564644625,,,,,,,,0.07,-0.03,1.54,0,3,2,0.08,,44,4588,7,32,56,0.939,0.0,623,4.86,13.4,0.0,1,27.1,1.51,5.5,0,0,0,1,0,0,250,250,0,,,,,,,,,,,,,,,,
35583,1625564644645,,,,,,,,0.06,-0.03,1.65,0,4,3,0.06,,44,4673,7,32,56,0.938,0.0,626,4.86,13.4,0.0,1,28.2,1.56,5.5,0,0,0,1,0,0,250,250,0,,,,,,,,,,,,,,,,
35603,1625564644665,,,,,,,,0.01,-0.02,1.84,0,4,4,0.02,,44,4585,7,32,56,0.937,0.0,620,4.88,13.4,0.0,1,27.1,2.62,5.5,0,0,0,1,0,0,250,250,0,,,,,,,,,,,,,,,,
35623,1625564644685,,,,,,,,-0.04,-0.01,2.02,0,4,3,0.04,,44,4634,7,32,56,0.937,0.0,624,4.86,13.2,0.0,1,27.7,2.64,5.5,0,0,0,1,0,0,250,250,0,,,,,,,,,,,,,,,,
35643,1625564644707,1,3,44,46,33,32,9,-0.05,0.03,2.19,0,1,1,0.06,0,44,4625,7,32,56,0.936,0.0,629,4.88,13.3,0.0,1,27.6,2.64,5.5,0,0,0,1,0,0,250,250,0,52.957214,6.521231,0.0,28.5,9,2,1.7,0,0.0,-1,0.0,0.0,0.0,0,0.0,0.594
35663,1625564644727,,,,,,,,-0.05,0.08,2.34,0,-0,0,0.1,,44,4618,7,32,56,0.937,0.0,626,4.9,13.2,0.0,1,27.5,2.63,5.5,0,0,0,1,0,0,250,250,0,,,,,,,,,,,,,,,,
35683,1625564644747,,,,,,,,-0.02,0.09,2.47,0,-4,-2,0.09,,44,4676,7,32,56,0.938,0.0,632,4.83,13.4,0.0,1,28.2,2.67,5.5,0,0,0,1,0,0,250,250,0,,,,,,,,,,,,,,,,
35703,1625564644767,,,,,,,,0.02,0.05,2.27,0,-4,-3,0.05,,44,4593,7,32,55,0.939,0.0,626,4.87,13.3,0.0,1,26.9,2.62,5.5,0,0,0,1,0,0,250,250,0,,,,,,,,,,,,,,,,
35723,1625564644787,,,,,,,,0.05,-0.0,2.08,-0,-4,-4,0.05,,44,4643,7,32,56,0.939,0.0,622,4.87,13.4,0.0,1,27.8,2.65,5.5,0,0,0,1,0,0,250,250,0,,,,,,,,,,,,,,,,
35743,1625564644807,-0,2,44,45,33,32,9,0.07,-0.05,1.91,-0,-2,-4,0.09,0,44,4641,7,32,56,0.94,0.0,627,4.86,13.5,0.0,1,27.8,2.65,5.5,0,0,0,1,0,0,250,250,0,52.957214,6.521231,0.0,28.5,9,2,1.7,0,0.0,-1,0.0,,0.0,0,0.0,0.5957
35763,1625564644827,,,,,,,,0.1,-0.06,1.75,-0,-1,-3,0.11,,44,4576,7,32,56,0.94,0.0,620,4.92,13.5,0.0,1,27.0,2.62,5.5,0,0,0,1,0,0,250,250,0,,,,,,,,,,,,,,,,
35783,1625564644847,,,,,,,,0.09,-0.05,1.6,0,1,-0,0.1,,44,4673,7,32,56,0.941,0.0,626,4.89,13.5,0.0,1,28.2,1.56,5.5,0,0,0,1,0,0,250,250,0,,,,,,,,,,,,,,,,
35803,1625564644867,,,,,,,,0.07,-0.05,1.47,0,3,2,0.09,,44,4620,7,32,56,0.942,0.0,622,4.85,13.4,0.0,1,27.5,1.52,5.5,0,0,0,1,0,0,250,250,0,,,,,,,,,,,,,,,,
35823,1625564644887,,,,,,,,0.03,-0.08,1.46,0,4,4,0.08,,44,4610,7,32,56,0.942,0.0,623,4.88,13.4,0.0,1,27.4,2.63,5.5,0,0,0,1,0,0,250,250,0,,,,,,,,,,,,,,,,
35843,1625564644907,1,1,44,45,33,32,9,-0.0,-0.07,1.67,0,3,4,0.07,0,44,4674,7,32,56,0.942,0.0,628,4.92,13.2,0.0,1,27.7,2.67,5.5,0,0,0,1,0,0,250,250,0,52.957214,6.521231,0.0,28.5,9,2,1.7,0,0.0,-1,0.0,0.0,0.0,0,0.0,0.5974
35863,1625564644927,,,,,,,,-0.05,-0.03,1.86,0,2,3,0.06,,44,4582,7,32,56,0.943,0.0,618,4.86,13.2,0.0,1,26.8,2.62,5.5,0,0,0,1,0,0,250,250,0,,,,,,,,,,,,,,,,
35883,1625564644947,,,,,,,,-0.07,0.02,2.04,0,0,1,0.07,,44,4669,7,32,56,0.943,0.0,624,4.88,13.3,0.0,1,28.1,2.67,5.5,0,0,0,1,0,0,250,250,0,,,,,,,,,,,,,,,,
35903,1625564644967,,,,,,,,-0.06,0.06,2.2,-0,-3,-1,0.08,,44,4600,7,32,55,0.942,0.0,628,4.86,13.3,0.0,1,27.0,2.62,5.5,0,0,0,1,0,0,250,250,0,,,,,,,,,,,,,,,,
35923,1625564644987,,,,,,,,-0.04,0.08,2.35,-0,-4,-2,0.09,,44,4591,7,32,56,0.941,0.0,623,4.91,13.1,0.0,1,27.1,2.62,5.6,0,0,0,1,0,0,250,250,0,,,,,,,,,,,,,,,,
35943,1625564644999,1,2,44,46,33,32,9,-0.01,0.06,2.22,-0,-6,-3,0.06,0,44,4664,7,32,56,0.94,0.0,630,4.87,13.4,0.0,1,28.1,2.66,5.6,0,0,0,1,0,0,250,250,0,52.957214,6.521231,0.0,28.5,9,2,1.7,0,0.0,-1,0.0,,0.0,0,0.0,0.599
35963,1625564645019,,,,,,,,0.03,0.01,2.03,-0,-5,-4,0.04,,44,4572,7,32,56,0.94,0.0,620,4.84,13.5,0.0,1,26.9,2.61,5.6,0,0,0,1,0,0,250,250,0,,,,,,,,,,,,,,,,
35983,1625564645039,,,,,,,,0.07,-0.03,1.86,-0,-5,-5,0.08,,44,4658,7,32,56,0.939,0.0,626,4.93,13.5,0.0,1,28.0,2.66,5.6,0,0,0,1,0,0,250,250,0,,,,,,,,,,,,,,,,
36003,1625564645059,,,,,,,,0.08,-0.05,1.71,-0,-2,-3,0.09,,44,4634,7,32,56,0.939,0.0,623,4.9,13.5,0.0,1,27.7,2.64,5.6,0,0,0,1,0,0,250,250,0,,,,,,,,,,,,,,,,
36023,1625564645079,,,,,,,,0.09,-0.05,1.56,-0,-0,-2,0.11,,44,4584,7,32,56,0.938,0.0,621,4.9,13.5,0.0,1,27.1,1.51,5.5,0,0,0,1,0,0,250,250,0,,,,,,,,,,,,,,,,
36043,1625564645107,1,2,44,45,33,32,10,0.07,-0.04,1.43,0,2,2,0.08,0,44,4682,7,32,56,0.938,0.0,627,4.86,13.4,0.0,1,28.3,2.68,5.5,0,0,0,1,0,0,250,250,0,52.957214,6.521231,0.0,28.5,9,2,1.7,0,0.0,-1,0.0,0.0,0.0,0,0.0,0.6007
36063,1625564645127,,,,,,,,0.04,-0.04,1.4,0,3,3,0.05,,44,4605,7,32,56,0.937,0.0,622,4.86,13.5,0.0,1,27.3,2.63,5.5,0,0,0,1,0,0,250,250,0,,,,,,,,,,,,,,,,
36083,1625564645147,,,,,,,,-0.01,-0.06,1.57,0,3,4,0.06,,44,4630,7,32,56,0.936,0.0,628,4.88,13.3,0.0,1,28.3,1.57,5.5,0,0,0,1,0,0,250,250,0,,,,,,,,,,,,,,,,
36103,1625564645167,,,,,,,,-0.02,-0.02,1.77,0,1,2,0.03,,44,4687,7,32,56,0.935,0.0,629,4.91,13.2,0.0,1,28.3,1.57,5.5,0,0,0,1,0,0,250,250,0,,,,,,,,,,,,,,,,
36123,1625564645187,,,,,,,,-0.04,0.04,1.96,0,-1,0,0.06,,44,4611,7,32,55,0.934,0.0,626,4.89,13.2,0.0,1,27.1,2.63,5.8,0,0,0,1,0,0,250,250,0,,,,,,,,,,,,,,,,
36143,1625564645207,1,3,44,46,33,32,10,-0.01,0.07,2.13,0,-4,-2,0.07,0,44,4705,7,32,55,0.934,0.0,631,4.9,13.4,0.0,1,28.3,2.69,5.8,0,0,0,1,0,0,250,250,0,52.957214,6.521231,0.0,28.5,9,2,1.7,0,0.0,-1,0.0,,0.0,0,0.0,0.6024
36163,1625564645227,,,,,,,,0.03,0.04,1.95,0,-5,-3,0.05,,44,4664,7,32,55,0.934,0.0,624,4.86,13.4,0.0,1,27.8,2.66,5.8,0,0,0,1,0,0,250,250,0,,,,,,,,,,,,,,,,
36183,1625564645247,,,,,,,,0.07,-0.01,1.79,-0,-3,-3,0.07,,44,4638,7,32,56,0.933,0.0,621,4.88,13.5,0.0,1,27.7,1.53,5.8,0,0,0,1,0,0,250,250,0,,,,,,,,,,,,,,,,
36203,1625564645267,,,,,,,,0.08,-0.04,1.64,-0,-1,-2,0.09,,44,4711,7,32,55,0.933,0.0,630,4.87,13.5,0.0,1,28.4,2.7,5.8,0,0,0,1,0,0,250,250,0,,,,,,,,,,,,,,,,
36223,1625564645287,,,,,,,,0.07,-0.04,1.5,0,1,1,0.08,,44,4637,7,32,55,0.932,0.0,622,4.85,13.5,0.0,1,27.4,1.53,5.8,0,0,0,1,0,0,250,250,0,,,,,,,,,,,,,,,,
36243,1625564645307,1,3,44,45,33,32,8,0.05,-0.03,1.38,0,2,3,0.06,0,44,4609,7,32,55,0.932,0.0,625,4.9,13.5,0.0,1,27.1,2.62,5.8,0,0,0,1,0,0,250,250,0,52.957214,6.521231,0.0,28.5,9,2,1.7,0,0.0,-1,0.0,0.0,0.0,0,0.0,0.604
36263,1625564645327,,,,,,,,0.02,-0.05,1.48,0,2,4,0.05,,44,4631,7,32,55,0.932,0.0,622,4.88,13.4,0.0,1,27.3,2.64,5.8,0,0,0,1,0,0,250,250,0,,,,,,,,,,,,,,,,
36283,1625564645347,,,,,,,,-0.02,-0.05,1.69,0,2,4,0.05,,44,4598,7,32,55,0.932,0.0,621,4.86,13.4,0.0,1,26.9,1.51,5.8,0,0,0,1,0,0,250,250,0,,,,,,,,,,,,,,,,
36303,1625564645367,,,,,,,,-0.06,-0.01,1.88,0,0,2,0.06,,44,4676,7,32,55,0.932,0.0,627,4.9,13.3,0.0,1,27.9,2.67,5.8,0,0,0,1,0,0,250,250,0,,,,,,,,,,,,,,,,
36323,1625564645387,,,,,,,,-0.07,0.02,2.06,0,-2,0,0.07,,44,4629,7,32,55,0.932,0.0,624,4.86,13.2,0.0,1,27.3,2.64,5.7,0,0,0,1,0,0,250,250,0,,,,,,,,,,,,,,,,
36343,1625564645407,1,1,44,46,33,32,9,-0.04,0.06,2.22,0,-4,-1,0.07,0,44,4661,7,32,55,0.932,0.0,630,4.83,13.4,0.0,1,27.7,2.66,5.7,0,0,0,1,0,0,250,250,0,52.957214,6.521231,0.0,28.5,9,2,1.7,0,0.0,-1,0.0,,0.0,0,0.0,0.6057
36363,1625564645427,,,,,,,,-0.0,0.04,2.04,-0,-4,-2,0.04,,44,4676,7,32,55,0.933,0.0,627,4.82,13.3,0.0,1,27.9,1.56,5.7,0,0,0,1,0,0,250,250,0,,,,,,,,,,,,,,,,
36383,1625564645447,,,,,,,,0.04,-0.01,1.87,-0,-4,-3,0.04,,44,4623,7,32,55,0.933,0.0,623,4.85,13.4,0.0,1,27.2,2.63,5.7,0,0,0,1,0,0,250,250,0,,,,,,,,,,,,,,,,
36403,1625564645467,,,,,,,,0.06,-0.05,1.71,-0,-1,-2,0.07,,44,4721,7,32,56,0.934,0.0,627,4.92,13.5,0.0,1,28.8,2.7,5.7,0,0,0,1,0,0,250,250,0,,,,,,,,,,,,,,,,
36423,1625564645487,,,,,,,,0.05,-0.03,1.57,0,1,1,0.06,,44,4668,7,32,55,0.935,0.0,621,4.88,13.5,0.0,1,27.8,1.56,5.9,0,0,0,1,0,0,250,250,0,,,,,,,,,,,,,,,,
36443,1625564645506,1,2,44,45,33,32,9,0.03,-0.03,1.44,0,2,4,0.04,0,44,4647,7,32,55,0.936,0.0,624,4.85,13.4,0.0,1,27.5,1.54,5.9,0,0,0,1,0,0,250,250,0,52.957214,6.521231,0.0,28.5,9,2,1.7,0,0.0,-1,0.0,0.0,0.0,0,0.0,0.6074
36463,1625564645526,,,,,,,,-0.0,-0.03,1.65,0,2,3,0.03,,44,4721,7,32,55,0.937,0.0,626,4.85,13.4,0.0,1,28.5,2.67,5.9,0,0,0,1,0,0,250,250,0,,,,,,,,,,,,,,,,
36483,1625564645546,,,,,,,,-0.05,-0.01,1.84,0,0,2,0.05,,44,4560,7,32,55,0.938,0.0,622,4.91,13.2,0.0,1,26.5,1.48,5.9,0,0,0,1,0,0,250,250,0,,,,,,,,,,,,,,,,
36503,1625564645566,,,,,,,,-0.07,0.01,2.02,0,-1,0,0.07,,44,4661,7,32,55,0.939,0.0,626,4.87,13.2,0.0,1,27.7,1.55,5.9,0,0,0,1,0,0,250,250,0,,,,,,,,,,,,,,,,
36523,1625564645586,,,,,,,,-0.08,0.05,2.19,-0,-3,-1,0.09,,44,4583,7,32,55,0.941,0.0,622,4.85,13.3,0.0,1,26.7,2.61,5.7,0,0,0,1,0,0,250,250,0,,,,,,,,,,,,,,,,
36543,1625564645606,1,2,44,46,33,32,9,-0.07,0.09,2.34,-0,-4,-2,0.11,0,44,4605,7,32,55,0.942,0.0,626,4.88,13.4,0.0,1,27.0,2.62,5.7,0,0,0,1,0,0,250,250,0,52.957214,6.521231,0.0,28.5,9,2,1.7,0,0.0,-1,0.0,,0.0,0,0.0,0.609
36563,1625564645626,,,,,,,,-0.03,0.07,2.33,-0,-6,-3,0.08,,44,4661,7,32,55,0.942,0.0,626,4.83,13.4,0.0,1,27.7,2.66,5.7,0,0,0,1,0,0,250,250,0,,,,,,,,,,,,,,,,
36583,1625564645646,,,,,,,,0.0,0.04,2.14,-0,-5,-4,0.04,,44,4577,7,32,55,0.942,0.0,619,4.87,13.5,0.0,1,26.7,2.61,5.7,0,0,0,1,0,0,250,250,0,,,,,,,,,,,,,,,,
36603,1625564645666,,,,,,,,0.05,0.01,1.96,-0,-4,-5,0.05,,44,4641,7,32,56,0.943,0.0,626,4.92,13.5,0.0,1,27.8,2.65,5.7,0,0,0,1,0,0,250,250,0,,,,,,,,,,,,,,,,
36623,1625564645686,,,,,,,,0.06,-0.02,1.8,-0,-2,-3,0.07,,44,4628,7,32,56,0.943,0.0,621,4.91,13.5,0.0,1,27.6,2.64,5.7,0,0,0,1,0,0,250,250,0,,,,,,,,,,,,,,,,
36643,1625564645706,1,0,44,45,33,32,10,0.09,-0.03,1.65,0,-0,-2,0.09,0,44,4558,7,32,56,0.944,0.0,620,4.88,13.5,0.0,1,26.7,1.49,5.7,0,0,0,1,0,0,250,250,0,52.957214,6.521231,0.0,28.5,9,2,1.7,0,0.0,-1,0.0,0.0,0.0,0,0.0,0.6107
36663,1625564645726,,,,,,,,0.09,-0.04,1.51,0,1,1,0.1,,44,4636,7,32,56,0.944,0.0,630,4.83,13.4,0.0,1,27.7,1.53,5.7,0,0,0,1,0,0,250,250,0,,,,,,,,,,,,,,,,
36683,1625564645746,,,,,,,,0.09,-0.04,1.38,0,2,2,0.1,,44,4585,7,32,56,0.943,0.0,620,4.89,13.5,0.0,1,27.1,2.62,5.7,0,0,0,1,0,0,250,250,0,,,,,,,,,,,,,,,,
36703,1625564645766,,,,,,,,0.06,-0.06,1.27,0,3,4,0.08,,44,4582,7,32,56,0.943,0.0,623,4.87,13.4,0.0,1,27.0,1.5,5.7,0,0,0,1,0,0,250,250,0,,,,,,,,,,,,,,,,
36723,1625564645786,,,,,,,,0.04,-0.06,1.4,0,3,4,0.07,,44,4669,7,32,56,0.941,0.0,622,4.81,13.4,0.0,1,28.1,1.56,5.6,0,0,0,1,0,0,250,250,0,,,,,,,,,,,,,,,,
36743,1625564645806,2,1,44,46,33,32,9,-0.01,-0.04,1.61,0,2,3,0.04,0,44,4572,7,32,56,0.939,0.0,621,4.9,13.2,0.0,1,26.9,1.49,5.6,0,0,0,1,0,0,250,250,0,52.957214,6.521231,0.0,28.5,9,2,1.7,0,0.0,-1,0.0,,0.0,0,0.0,0.6124
36763,1625564645826,,,,,,,,-0.05,-0.03,1.81,0,0,1,0.05,,44,4680,7,32,56,0.938,0.0,627,4.9,13.2,0.0,1,28.3,1.56,5.6,0,0,0,1,0,0,250,250,0,,,,,,,,,,,,,,,,
36783,1625564645846,,,,,,,,-0.06,0.02,1.99,0,-2,-0,0.06,,44,4626,7,32,56,0.937,0.0,621,4.9,13.3,0.0,1,27.6,2.64,5.6,0,0,0,1,0,0,250,250,0,,,,,,,,,,,,,,,,
36803,1625564645866,,,,,,,,-0.04,0.07,2.16,0,-3,-1,0.08,,44,4619,7,32,56,0.936,0.0,626,4.81,13.4,0.0,1,27.5,2.63,5.6,0,0,0,1,0,0,250,250,0,,,,,,,,,,,,,,,,
36823,1625564645886,,,,,,,,-0.01,0.06,2.22,0,-5,-3,0.06,,44,4682,7,32,56,0.935,0.0,627,4.86,13.3,0.0,1,28.3,2.68,5.7,0,0,0,1,0,0,250,250,0,,,,,,,,,,,,,,,,
36843,1625564645907,1,2,44,45,33,32,9,0.03,0.02,2.04,-0,-4,-3,0.04,0,44,4583,7,32,56,0.934,0.0,621,4.9,13.5,0.0,1,27.0,2.62,5.7,0,0,0,1,0,0,250,250,0,52.957214,6.521231,0.0,28.5,9,2,1.7,0,0.0,-1,0.0,0.0,0.0,0,0.0,0.614
36863,1625564645927,,,,,,,,0.07,-0.01,1.87,-0,-2,-3,0.07,,44,4666,7,32,56,0.933,0.0,625,4.83,13.5,0.0,1,28.1,2.66,5.7,0,0,0,1,0,0,250,250,0,,,,,,,,,,,,,,,,
36883,1625564645947,,,,,,,,0.08,-0.03,1.71,-0,-0,-1,0.08,,44,4642,7,32,56,0.931,0.0,620,4.89,13.5,0.0,1,27.8,2.65,5.7,0,0,0,1,0,0,250,250,0,,,,,,,,,,,,,,,,
36903,1625564645967,,,,,,,,0.09,-0.03,1.57,0,1,1,0.1,,44,4582,7,32,56,0.93,0.0,624,4.89,13.5,0.0,1,27.0,1.5,5.7,0,0,0,1,0,0,250,250,0,,,,,,,,,,,,,,,,
36923,1625564645987,,,,,,,,0.06,-0.03,1.44,0,3,3,0.07,,44,4712,7,32,56,0.928,0.0,628,4.9,13.4,0.0,1,28.7,1.59,5.6,0,0,0,1,0,0,250,250,0,,,,,,,,,,,,,,,,
36943,1625564646000,0,2,44,46,33,32,9,0.04,-0.03,1.54,0,3,3,0.05,0,44,4639,7,32,56,0.927,0.0,622,4.86,13.3,0.0,1,27.4,2.65,5.6,0,0,0,1,0,0,250,250,0,52.957214,6.521231,0.0,28.5,9,2,1.7,0,0.0,-1,0.0,,0.0,0,0.0,0.6157
36963,1625564646020,,,,,,,,-0.01,-0.05,1.74,0,1,2,0.05,,44,4695,7,32,56,0.926,0.0,629,4.87,13.3,0.0,1,28.5,2.69,5.6,0,0,0,1,0,0,250,250,0,,,,,,,,,,,,,,,,
36983,1625564646040,,,,,,,,-0.02,-0.01,1.93,-0,-1,-1,0.03,,44,4674,7,32,56,0.926,0.0,628,4.88,13.3,0.0,1,28.2,2.67,5.6,0,0,0,1,0,0,250,250,0,,,,,,,,,,,,,,,,
37003,1625564646060,,,,,,,,-0.04,0.05,2.1,0,-3,-2,0.06,,44,4614,7,32,56,0.925,0.0,628,4.89,13.2,0.0,1,27.4,2.63,5.6,0,0,0,1,0,0,250,250,0,,,,,,,,,,,,,,,,
37023,1625564646080,,,,,,,,0.01,0.06,2.26,0,-4,-3,0.06,,44,4686,7,32,55,0.925,0.0,628,4.83,13.4,0.0,1,28.0,2.68,5.7,0,0,0,1,0,0,250,250,0,,,,,,,,,,,,,,,,
37043,1625564646106,-0,2,44,45,33,32,9,0.05,0.02,2.07,-0,-3,-3,0.05,0,44,4654,7,32,55,0.925,0.0,623,4.84,13.4,0.0,1,27.6,2.66,5.7,0,0,0,1,0,0,250,250,0,52.957214,6.521231,0.0,28.5,9,2,1.7,0,0.0,-1,0.0,0.0,0.0,0,0.0,0.6174
37063,1625564646126,,,,,,,,0.08,-0.01,1.9,-0,-1,-2,0.08,,44,4646,7,32,56,0.925,0.0,627,4.88,13.5,0.0,1,27.8,2.65,5.7,0,0,0,1,0,0,250,250,0,,,,,,,,,,,,,,,,
37083,1625564646146,,,,,,,,0.09,-0.02,1.74,0,1,-0,0.09,,44,4657,7,32,55,0.925,0.0,625,4.83,13.5,0.0,1,27.7,1.55,5.7,0,0,0,1,0,0,250,250,0,,,,,,,,,,,,,,,,
37103,1625564646166,,,,,,,,0.09,-0.03,1.59,0,2,2,0.1,,44,4639,7,32,56,0.925,0.0,621,4.91,13.5,0.0,1,27.7,2.65,5.7,0,0,0,1,0,0,250,250,0,,,,,,,,,,,,,,,,
37123,1625564646186,,,,,,,,0.08,-0.03,1.46,0,3,4,0.08,,44,4643,7,32,56,0.925,0.0,623,4.88,13.5,0.0,1,27.8,2.65,5.6,0,0,0,1,0,0,250,250,0,,,,,,,,,,,,,,,,
37143,1625564646206,2,2,44,45,33,32,9,0.04,-0.05,1.47,0,2,3,0.06,0,44,4601,7,32,56,0.925,0.0,623,4.88,13.3,0.0,1,27.3,2.63,5.6,0,0,0,1,0,0,250,250,0,52.957214,6.521231,0.0,28.5,9,2,1.7,0,0.0,-1,0.0,,0.0,0,0.0,0.6191
37163,1625564646226,,,,,,,,0.01,-0.06,1.63,0,1,2,0.06,,44,4595,7,32,56,0.925,0.0,625,4.83,13.2,0.0,1,27.5,2.62,5.6,0,0,0,1,0,0,250,250,0,,,,,,,,,,,,,,,,
37183,1625564646246,,,,,,,,-0.04,-0.03,1.83,0,-1,1,0.05,,44,4636,7,32,55,0.925,0.0,629,4.89,13.2,0.0,1,27.4,1.53,5.6,0,0,0,1,0,0,250,250,0,,,,,,,,,,,,,,,,
37203,1625564646266,,,,,,,,-0.07,-0.0,2.01,-0,-2,-1,0.07,,44,4618,7,32,55,0.926,0.0,624,4.85,13.2,0.0,1,27.2,1.52,5.6,0,0,0,1,0,0,250,250,0,,,,,,,,,,,,,,,,
37223,1625564646286,,,,,,,,-0.08,0.04,2.18,0,-4,-2,0.09,,44,4623,7,32,56,0.926,0.0,628,4.83,13.4,0.0,1,27.5,2.64,5.6,0,0,0,1,0,0,250,250,0,,,,,,,,,,,,,,,,
37243,1625564646306,1,1,44,45,33,32,9,-0.07,0.06,2.33,-0,-4,-3,0.1,0,44,4576,7,32,56,0.928,0.0,622,4.86,13.2,0.0,1,27.0,2.62,5.6,0,0,0,1,0,0,250,250,0,52.957214,6.521231,0.0,28.5,9,2,1.7,0,0.0,-1,0.0,0.0,0.0,0,0.0,0.6207
37263,1625564646302,,,,,,,,-0.05,0.08,2.44,-0,-5,-4,0.09,,44,4601,7,32,56,0.929,0.0,625,4.88,13.5,0.0,1,27.3,2.62,5.6,0,0,0,1,0,0,250,250,0,,,,,,,,,,,,,,,,
37283,1625564646322,,,,,,,,-0.0,0.05,2.25,-0,-4,-4,0.05,,44,4630,7,32,56,0.93,0.0,621,4.9,13.5,0.0,1,27.6,2.64,5.6,0,0,0,1,0,0,250,250,0,,,,,,,,,,,,,,,,
37303,1625564646342,,,,,,,,0.04,0.02,2.06,-0,-2,-4,0.05,,44,4622,7,32,56,0.931,0.0,620,4.91,13.5,0.0,1,27.5,2.64,5.6,0,0,0,1,0,0,250,250,0,,,,,,,,,,,,,,,,
37323,1625564646362,,,,,,,,0.07,-0.0,1.89,-0,-0,-2,0.07,,44,4621,7,32,56,0.932,0.0,625,4.9,13.5,0.0,1,27.5,2.63,5.6,0,0,0,1,0,0,250,250,0,,,,,,,,,,,,,,,,
37343,1625564646382,1,1,44,45,33,32,9,0.09,-0.01,1.73,0,1,-0,0.09,0,44,4651,7,32,56,0.933,0.0,622,4.88,13.5,0.0,1,27.9,1.54,5.6,0,0,0,1,0,0,250,250,0,52.957214,6.521231,0.0,28.5,9,2,1.7,0,0.0,-1,0.0,,0.0,0,0.0,0.6224
37363,1625564646398,,,,,,,,0.06,-0.0,1.64,0,2,2,0.06,,44,4605,7,32,56,0.934,0.0,622,4.85,13.5,0.0,1,27.3,1.52,5.6,0,0,0,1,0,0,250,250,0,,,,,,,,,,,,,,,,
37383,1625564646418,,,,,,,,0.01,-0.01,1.79,0,3,3,0.02,,44,4635,7,32,56,0.935,0.0,624,4.89,13.4,0.0,1,27.7,1.53,5.6,0,0,0,1,0,0,250,250,0,,,,,,,,,,,,,,,,
37403,1625564646438,,,,,,,,-0.03,0.0,1.98,0,1,2,0.03,,44,4639,7,32,56,0.936,0.0,627,4.88,13.3,0.0,1,27.5,1.52,5.6,0,0,0,1,0,0,250,250,0,,,,,,,,,,,,,,,,
37423,1625564646458,,,,,,,,-0.06,0.04,2.14,0,1,1,0.07,,44,4601,7,32,56,0.938,0.0,628,4.9,13.2,0.0,1,27.3,1.52,5.6,0,0,0,1,0,0,250,250,0,,,,,,,,,,,,,,,,
37443,1625564646478,-0,3,44,46,33,32,9,-0.05,0.09,2.3,-0,-2,-1,0.11,0,44,4691,7,32,56,0.939,0.0,627,4.91,13.3,0.0,1,28.4,1.57,5.6,0,0,0,1,0,0,250,250,0,52.957214,6.521231,0.0,28.5,9,2,1.7,0,0.0,-1,0.0,0.0,0.0,0,0.0,0.624
37463,1625564646493,,,,,,,,-0.03,0.08,2.43,-0,-3,-2,0.09,,44,4583,7,32,55,0.941,0.0,626,4.83,13.4,0.0,1,26.7,2.62,5.6,0,0,0,1,0,0,250,250,0,,,,,,,,,,,,,,,,
37483,1625564646513,,,,,,,,0.01,0.07,2.42,-0,-5,-3,0.07,,44,4658,7,32,56,0.943,0.0,629,4.82,13.4,0.0,1,28.0,2.66,5.6,0,0,0,1,0,0,250,250,0,,,,,,,,,,,,,,,,
37503,1625564646533,,,,,,,,0.03,0.03,2.22,-0,-4,-3,0.04,,44,4676,7,32,56,0.945,0.0,624,4.87,13.5,0.0,1,28.2,2.67,5.6,0,0,0,1,0,0,250,250,0,,,,,,,,,,,,,,,,
37523,1625564646553,,,,,,,,0.06,-0.01,2.03,-0,-3,-3,0.07,,44,4605,7,32,56,0.947,0.0,629,4.83,13.4,0.0,1,27.3,2.62,5.7,0,0,0,1,0,0,250,250,0,,,,,,,,,,,,,,,,
37543,1625564646573,0,2,44,44,33,32,9,0.07,-0.02,1.86,-0,-0,-2,0.07,0,44,4701,7,32,56,0.949,0.0,625,4.87,13.5,0.0,1,28.5,2.69,5.7,0,0,0,1,0,0,250,250,0,52.95718,6.521243,0.0,13.2,10,2,1.4,0,0.0,-1,0.0,,0.0,0,0.0,0.6257
37563,1625564646593,,,,,,,,0.06,-0.02,1.71,0,1,0,0.06,,44,4628,7,32,56,0.951,0.0,622,4.87,13.4,0.0,1,27.6,1.53,5.7,0,0,0,1,0,0,250,250,0,,,,,,,,,,,,,,,,
37583,1625564646605,,,,,,,,0.02,-0.05,1.58,0,3,3,0.05,,44,4649,7,32,56,0.953,0.0,626,4.85,13.4,0.0,1,27.9,1.54,5.7,0,0,0,1,0,0,250,250,0,,,,,,,,,,,,,,,,
37603,1625564646625,,,,,,,,-0.01,-0.03,1.78,0,2,2,0.03,,44,4749,7,32,56,0.955,0.0,622,4.87,13.3,0.0,1,29.2,1.61,5.7,0,0,0,1,0,0,250,250,0,,,,,,,,,,,,,,,,
37623,1625564646645,,,,,,,,-0.04,0.01,1.96,-0,-0,1,0.04,,44,4631,7,32,56,0.955,0.0,623,4.87,13.3,0.0,1,27.6,2.64,5.8,0,0,0,1,0,0,250,250,0,,,,,,,,,,,,,,,,
37643,1625564646665,1,1,44,46,33,32,9,-0.0,0.05,2.13,-0,-3,-2,0.05,0,44,4769,7,32,55,0.955,0.0,630,4.87,13.4,0.0,1,29.1,2.74,5.8,0,0,0,1,0,0,250,250,0,52.95718,6.521243,0.0,13.2,10,2,1.4,0,0.0,-1,0.0,0.0,0.0,0,0.0,0.6274
37663,1625564646685,,,,,,,,0.03,0.02,1.95,-0,-4,-2,0.04,,44,4695,7,32,55,0.956,0.0,627,4.85,13.5,0.0,1,28.2,2.69,5.8,0,0,0,1,0,0,250,250,0,,,,,,,,,,,,,,,,
37683,1625564646697,,,,,,,,0.07,-0.02,1.79,-0,-3,-3,0.07,,44,4676,7,32,56,0.957,0.0,626,4.88,13.5,0.0,1,28.2,2.67,5.8,0,0,0,1,0,0,250,250,0,,,,,,,,,,,,,,,,
37703,1625564646717,,,,,,,,0.05,-0.02,1.64,-0,0,-1,0.06,,44,4757,7,32,56,0.955,0.0,624,4.91,13.5,0.0,1,29.3,1.62,5.8,0,0,0,1,0,0,250,250,0,,,,,,,,,,,,,,,,
37723,1625564646737,,,,,,,,0.04,-0.0,1.5,0,1,1,0.04,,44,4618,7,32,56,0.954,0.0,621,4.88,13.4,0.0,1,27.5,2.63,5.8,0,0,0,1,0,0,250,250,0,,,,,,,,,,,,,,,,
37743,1625564646757,0,2,44,45,33,32,9,0.01,-0.02,1.51,0,3,4,0.02,0,44,4695,7,32,56,0.953,0.0,625,4.87,13.4,0.0,1,28.5,2.69,5.8,0,0,0,1,0,0,250,250,0,52.95718,6.521243,0.0,13.2,10,2,1.4,0,0.0,-1,0.0,,0.0,0,0.0,0.629
37763,1625564646777,,,,,,,,-0.03,-0.02,1.71,0,1,3,0.03,,44,4657,7,32,55,0.951,0.0,622,4.87,13.3,0.0,1,27.7,1.55,5.8,0,0,0,1,0,0,250,250,0,,,,,,,,,,,,,,,,
37783,1625564646797,,,,,,,,-0.05,0.02,1.9,0,1,1,0.06,,44,4626,7,32,55,0.95,0.0,625,4.87,13.2,0.0,1,27.3,1.53,5.8,0,0,0,1,0,0,250,250,0,,,,,,,,,,,,,,,,
37803,1625564646809,,,,,,,,-0.04,0.07,2.08,0,-3,-1,0.08,,44,4739,7,32,55,0.948,0.0,626,4.9,13.2,0.0,1,28.7,1.61,5.8,0,0,0,1,0,0,250,250,0,,,,,,,,,,,,,,,,
37823,1625564646829,,,,,,,,-0.01,0.06,1.95,0,-3,-2,0.06,,44,4623,7,32,55,0.946,0.0,625,4.87,13.3,0.0,1,27.2,2.63,5.9,0,0,0,1,0,0,250,250,0,,,,,,,,,,,,,,,,
37843,1625564646905,1,2,44,45,33,32,9,0.04,0.01,1.78,-0,-3,-3,0.04,0,44,4705,7,32,56,0.945,0.0,628,4.9,13.5,0.0,1,28.6,2.69,5.9,0,0,0,1,0,0,250,250,0,52.95718,6.521243,0.0,13.2,10,2,1.4,0,0.0,-1,0.0,0.0,0.0,0,0.0,0.6307
37863,1625564646925,,,,,,,,0.04,-0.01,1.64,-0,-1,-2,0.04,,44,4689,7,32,55,0.945,0.0,621,4.89,13.5,0.0,1,28.1,2.68,5.9,0,0,0,1,0,0,250,250,0,,,,,,,,,,,,,,,,
37883,1625564646945,,,,,,,,0.06,-0.01,1.5,0,1,-0,0.06,,44,4597,7,32,55,0.945,0.0,621,4.89,13.5,0.0,1,26.9,2.62,5.9,0,0,0,1,0,0,250,250,0,,,,,,,,,,,,,,,,
37903,1625564646965,,,,,,,,0.03,-0.0,1.37,0,3,3,0.03,,44,4724,7,32,55,0.945,0.0,626,4.85,13.4,0.0,1,28.5,1.6,5.9,0,0,0,1,0,0,250,250,0,,,,,,,,,,,,,,,,
37923,1625564646985,,,,,,,,0.0,-0.01,1.58,0,3,3,0.01,,44,4645,7,32,55,0.945,0.0,623,4.88,13.5,0.0,1,27.5,2.65,5.9,0,0,0,1,0,0,250,250,0,,,,,,,,,,,,,,,,
37943,1625564646999,2,1,44,46,33,32,9,-0.04,-0.03,1.78,0,2,3,0.05,0,44,4621,7,32,55,0.946,0.0,632,4.88,13.3,0.0,1,28.0,2.63,5.9,0,0,0,1,0,0,250,250,0,52.95718,6.521243,0.0,13.2,10,2,1.4,0,0.0,-1,0.0,,0.0,0,0.0,0.6324
37963,1625564647019,,,,,,,,-0.05,0.02,1.97,0,-0,1,0.05,,44,4668,7,32,55,0.947,0.0,627,4.87,13.2,0.0,1,27.8,1.56,5.9,0,0,0,1,0,0,250,250,0,,,,,,,,,,,,,,,,
37983,1625564647039,,,,,,,,-0.07,0.06,2.13,0,-2,-0,0.09,,44,4589,7,32,55,0.949,0.0,631,4.87,13.3,0.0,1,26.8,2.62,5.9,0,0,0,1,0,0,250,250,0,,,,,,,,,,,,,,,,
38003,1625564647059,,,,,,,,-0.03,0.07,2.29,0,-4,-2,0.08,,44,4711,7,32,55,0.95,0.0,633,4.85,13.4,0.0,1,28.4,2.7,5.9,0,0,0,1,0,0,250,250,0,,,,,,,,,,,,,,,,
38023,1625564647079,,,,,,,,0.01,0.04,2.1,-0,-4,-2,0.04,,44,4633,7,32,55,0.952,0.0,625,4.87,13.5,0.0,1,27.4,2.64,5.9,0,0,0,1,0,0,250,250,0,,,,,,,,,,,,,,,,
38043,1625564647105,-0,2,44,46,33,32,9,0.05,0.0,1.92,-0,-3,-3,0.05,0,44,4614,7,32,55,0.953,0.0,629,4.82,13.4,0.0,1,27.1,2.63,5.9,0,0,0,1,0,0,250,250,0,52.95718,6.521243,0.0,13.2,10,2,1.4,0,0.0,-1,0.0,0.0,0.0,0,0.0,0.634
38063,1625564647125,,,,,,,,0.07,-0.01,1.76,-0,-0,-2,0.07,,44,4678,7,32,56,0.955,0.0,623,4.93,13.5,0.0,1,28.2,2.67,5.9,0,0,0,1,0,0,250,250,0,,,,,,,,,,,,,,,,
38083,1625564647145,,,,,,,,0.08,-0.02,1.61,0,1,-0,0.09,,44,4564,7,32,55,0.956,0.0,623,4.91,13.5,0.0,1,26.5,2.6,5.9,0,0,0,1,0,0,250,250,0,,,,,,,,,,,,,,,,
38103,1625564647165,,,,,,,,0.09,-0.01,1.48,0,3,2,0.09,,44,4625,7,32,56,0.957,0.0,623,4.93,13.5,0.0,1,27.6,2.64,5.9,0,0,0,1,0,0,250,250,0,,,,,,,,,,,,,,,,
38123,1625564647185,,,,,,,,0.07,-0.03,1.36,0,3,4,0.08,,44,4610,7,32,55,0.957,0.0,618,4.84,13.4,0.0,1,27.1,2.63,5.7,0,0,0,1,0,0,250,250,0,,,,,,,,,,,,,,,,
38143,1625564647205,1,2,44,45,33,32,9,0.06,-0.05,1.24,0,3,4,0.08,0,44,4524,7,32,56,0.958,0.0,619,4.86,13.4,0.0,1,26.3,1.47,5.7,0,0,0,1,0,0,250,250,0,52.95718,6.521243,0.0,13.2,10,2,1.4,0,0.0,-1,0.0,,0.0,0,0.0,0.6357
38163,1625564647209,,,,,,,,0.02,-0.05,1.24,0,4,6,0.05,,44,4625,7,32,56,0.958,0.0,621,4.92,13.4,0.0,1,27.6,1.53,5.7,0,0,0,1,0,0,250,250,0,,,,,,,,,,,,,,,,
38183,1625564647229,,,,,,,,-0.02,-0.04,1.43,0,4,5,0.04,,44,4572,7,32,56,0.958,0.0,621,4.9,13.3,0.0,1,26.9,1.47,5.7,0,0,0,1,0,0,250,250,0,,,,,,,,,,,,,,,,
38203,1625564647249,,,,,,,,-0.06,-0.04,1.61,0,3,5,0.07,,44,4589,7,32,56,0.958,0.0,622,4.91,13.3,0.0,1,27.1,1.51,5.7,0,0,0,1,0,0,250,250,0,,,,,,,,,,,,,,,,
38223,1625564647269,,,,,,,,-0.09,-0.01,1.8,0,1,4,0.09,,44,4633,7,32,56,0.957,0.0,620,4.93,13.4,0.0,1,27.1,2.64,5.5,0,0,0,1,0,0,250,250,0,,,,,,,,,,,,,,,,
38243,1625564647307,1,5,44,46,32,32,8,-0.13,0.03,1.99,0,0,3,0.13,0,44,4512,7,32,56,0.957,0.0,625,4.92,13.4,0.0,1,26.2,2.58,5.5,0,0,0,1,0,0,250,250,0,52.95718,6.521243,0.0,13.2,10,2,1.4,0,0.0,-1,0.0,0.0,0.0,0,0.0,0.6374
38263,1625564647327,,,,,,,,-0.15,0.04,2.15,0,-1,2,0.16,,44,4606,7,32,56,0.957,0.0,622,4.91,13.3,0.0,1,27.3,1.52,5.5,0,0,0,1,0,0,250,250,0,,,,,,,,,,,,,,,,
38283,1625564647347,,,,,,,,-0.15,0.07,2.31,0,-3,1,0.17,,44,4568,7,32,56,0.956,0.0,626,4.82,13.3,0.0,1,26.9,2.61,5.5,0,0,0,1,0,0,250,250,0,,,,,,,,,,,,,,,,
38303,1625564647367,,,,,,,,-0.16,0.11,2.45,0,-3,-0,0.19,,44,4547,7,32,56,0.956,0.0,627,4.88,13.2,0.0,1,26.6,2.6,5.5,0,0,0,1,0,0,250,250,0,,,,,,,,,,,,,,,,
38323,1625564647387,,,,,,,,-0.15,0.12,2.58,-0,-5,-2,0.19,,44,4582,7,32,56,0.956,0.0,624,4.82,13.4,0.0,1,27.0,2.62,5.4,0,0,0,1,0,0,250,250,0,,,,,,,,,,,,,,,,
38343,1625564647407,1,1,44,46,33,32,9,-0.14,0.11,2.7,-0,-5,-3,0.17,0,44,4498,7,32,56,0.956,0.0,625,4.83,13.4,0.0,1,26.0,2.57,5.4,0,0,0,1,0,0,250,250,0,52.95718,6.521243,0.0,13.2,10,2,1.4,0,0.0,-1,0.0,,0.0,0,0.0,0.639
38363,1625564647427,,,,,,,,-0.12,0.11,2.8,-0,-6,-4,0.17,,44,4530,7,32,56,0.956,0.0,626,4.84,13.4,0.0,1,26.4,1.47,5.4,0,0,0,1,0,0,250,250,0,,,,,,,,,,,,,,,,
38383,1625564647447,,,,,,,,-0.11,0.12,2.82,-0,-6,-4,0.17,,44,4523,7,32,57,0.955,0.0,628,4.84,13.2,0.0,1,26.6,2.6,5.4,0,0,0,1,0,0,250,250,0,,,,,,,,,,,,,,,,
38403,1625564647467,,,,,,,,-0.1,0.13,2.89,-0,-6,-5,0.17,,44,4462,7,32,57,0.954,0.0,627,4.82,13.4,0.0,1,25.8,2.56,5.4,0,0,0,1,0,0,250,250,0,,,,,,,,,,,,,,,,
38423,1625564647487,,,,,,,,-0.08,0.13,2.98,-0,-7,-6,0.15,,44,4568,7,32,57,0.953,0.0,626,4.83,13.4,0.0,1,27.2,1.5,5.2,0,0,0,1,0,0,250,250,0,,,,,,,,,,,,,,,,
38443,1625564647504,1,1,44,46,33,32,9,-0.05,0.12,2.94,-0,-7,-6,0.13,0,44,4506,7,32,57,0.953,0.0,627,4.87,13.5,0.0,1,26.4,2.59,5.2,0,0,0,1,0,0,250,250,0,52.95718,6.521243,0.0,13.2,10,2,1.4,0,0.0,-1,0.0,0.0,0.0,0,0.0,0.6407
38463,1625564647524,,,,,,,,-0.03,0.14,2.97,-0,-7,-7,0.14,,44,4531,7,32,57,0.952,0.0,623,4.89,13.5,0.0,1,26.7,2.6,5.2,0,0,0,1,0,0,250,250,0,,,,,,,,,,,,,,,,
38483,1625564647544,,,,,,,,0.0,0.11,2.78,-0,-7,-8,0.11,,44,4572,7,32,57,0.952,0.0,628,4.9,13.5,0.0,1,27.2,2.62,5.2,0,0,0,1,0,0,250,250,0,,,,,,,,,,,,,,,,
38503,1625564647564,,,,,,,,0.04,0.09,2.64,-0,-6,-8,0.09,,44,4500,7,32,57,0.952,0.0,624,4.8,13.4,0.0,1,26.3,2.59,5.2,0,0,0,1,0,0,250,250,0,,,,,,,,,,,,,,,,
38523,1625564647584,,,,,,,,0.08,0.06,2.42,-0,-5,-8,0.11,,44,4594,7,32,57,0.952,0.0,622,4.85,13.5,0.0,1,27.5,2.62,5.4,0,0,0,1,0,0,250,250,0,,,,,,,,,,,,,,,,
38543,1625564647602,-0,2,44,45,33,32,9,0.12,0.04,2.22,-0,-4,-8,0.13,0,45,4528,7,32,57,0.951,0.0,623,4.9,13.5,0.0,1,26.7,2.6,5.4,0,0,0,1,0,0,250,250,0,52.95718,6.521243,0.0,13.2,10,2,1.4,0,0.0,-1,0.0,,0.0,0,0.0,0.6424
38563,1625564647622,,,,,,,,0.16,0.02,2.03,-0,-3,-7,0.17,,44,4578,7,32,57,0.95,0.0,621,4.91,13.5,0.0,1,27.3,2.62,5.4,0,0,0,1,0,0,250,250,0,,,,,,,,,,,,,,,,
38583,1625564647642,,,,,,,,0.18,-0.02,1.86,-0,-1,-6,0.18,,45,4597,7,32,57,0.949,0.0,622,4.96,13.5,0.0,1,27.5,2.63,5.4,0,0,0,1,0,0,250,250,0,,,,,,,,,,,,,,,,
38603,1625564647662,,,,,,,,0.21,-0.03,1.71,-0,0,-4,0.21,,45,4541,7,32,57,0.948,0.0,618,4.91,13.5,0.0,1,26.8,2.61,5.4,0,0,0,1,0,0,250,250,0,,,,,,,,,,,,,,,,
38623,1625564647682,,,,,,,,0.21,-0.04,1.56,-0,2,-2,0.21,,45,4606,7,32,57,0.947,0.0,619,4.87,13.5,0.0,1,27.6,1.52,5.5,0,0,0,1,0,0,250,250,0,,,,,,,,,,,,,,,,
38643,1625564647702,1,3,44,45,33,32,9,0.22,-0.05,1.43,0,2,-0,0.22,0,45,4562,7,32,57,0.946,0.0,624,4.86,13.5,0.0,1,27.1,1.5,5.5,0,0,0,1,0,0,250,250,0,52.95718,6.521243,0.0,13.2,10,2,1.5,0,0.0,-1,0.0,0.0,0.0,0,0.0,0.644
38663,1625564647722,,,,,,,,0.2,-0.06,1.31,0,3,2,0.21,,45,4589,7,32,57,0.946,0.0,620,4.88,13.5,0.0,1,27.4,2.62,5.5,0,0,0,1,0,0,250,250,0,,,,,,,,,,,,,,,,
38683,1625564647742,,,,,,,,0.18,-0.05,1.2,0,4,3,0.19,,45,4584,7,32,57,0.946,0.0,622,4.87,13.4,0.0,1,27.4,1.51,5.5,0,0,0,1,0,0,250,250,0,,,,,,,,,,,,,,,,
38703,1625564647762,,,,,,,,0.14,-0.06,1.1,0,4,4,0.15,,45,4576,7,32,57,0.947,0.0,622,4.85,13.5,0.0,1,27.3,1.51,5.5,0,0,0,1,0,0,250,250,0,,,,,,,,,,,,,,,,
38723,1625564647782,,,,,,,,0.11,-0.06,1.34,0,3,3,0.12,,45,4659,7,32,57,0.947,0.0,624,4.85,13.3,0.0,1,28.3,1.55,5.6,0,0,0,1,0,0,250,250,0,,,,,,,,,,,,,,,,
38743,1625564647802,2,1,44,46,33,32,8,0.05,-0.04,1.56,0,1,2,0.06,0,45,4573,7,32,57,0.947,0.0,626,4.89,13.2,0.0,1,26.9,2.62,5.6,0,0,0,1,0,0,250,250,0,52.95718,6.521243,0.0,13.2,10,2,1.4,0,0.0,-1,0.0,,0.0,0,0.0,0.6457
38763,1625564647822,,,,,,,,-0.0,-0.02,1.77,0,0,1,0.02,,45,4613,7,32,57,0.947,0.0,623,4.9,13.4,0.0,1,27.7,1.53,5.6,0,0,0,1,0,0,250,250,0,,,,,,,,,,,,,,,,
38783,1625564647842,,,,,,,,-0.03,0.01,1.95,0,-2,-0,0.04,,45,4568,7,32,57,0.948,0.0,628,4.91,13.3,0.0,1,27.2,2.62,5.6,0,0,0,1,0,0,250,250,0,,,,,,,,,,,,,,,,
38803,1625564647862,,,,,,,,-0.06,0.05,2.12,-0,-3,-1,0.08,,45,4589,7,32,57,0.95,0.0,631,4.91,13.2,0.0,1,27.4,2.62,5.6,0,0,0,1,0,0,250,250,0,,,,,,,,,,,,,,,,
38823,1625564647882,,,,,,,,-0.06,0.09,2.28,-0,-5,-3,0.11,,45,4629,7,32,57,0.952,0.0,628,4.82,13.4,0.0,1,27.9,2.65,5.5,0,0,0,1,0,0,250,250,0,,,,,,,,,,,,,,,,
38843,1625564647906,1,3,44,46,33,32,8,-0.04,0.08,2.42,-0,-5,-4,0.09,0,45,4585,7,32,57,0.954,0.0,630,4.83,13.5,0.0,1,27.4,2.62,5.5,0,0,0,1,0,0,250,250,0,52.95718,6.521243,0.0,13.2,10,2,1.4,0,0.0,-1,0.0,0.0,0.0,0,0.0,0.6474
38863,1625564647926,,,,,,,,-0.0,0.07,2.33,-0,-5,-5,0.07,,45,4638,7,32,57,0.956,0.0,627,4.83,13.4,0.0,1,28.0,2.65,5.5,0,0,0,1,0,0,250,250,0,,,,,,,,,,,,,,,,
38883,1625564647946,,,,,,,,0.03,0.04,2.14,-0,-3,-5,0.04,,45,4610,7,32,57,0.958,0.0,625,4.89,13.5,0.0,1,27.7,2.63,5.5,0,0,0,1,0,0,250,250,0,,,,,,,,,,,,,,,,
38903,1625564647966,,,,,,,,0.07,-0.01,1.96,-0,-2,-4,0.07,,45,4582,7,32,57,0.959,0.0,628,4.87,13.5,0.0,1,27.3,2.62,5.5,0,0,0,1,0,0,250,250,0,,,,,,,,,,,,,,,,
38923,1625564647986,,,,,,,,0.1,-0.05,1.8,-0,0,-2,0.11,,45,4650,7,32,57,0.96,0.0,621,4.85,13.5,0.0,1,28.2,1.55,5.6,0,0,0,1,0,0,250,250,0,,,,,,,,,,,,,,,,
38943,1625564648000,2,1,44,45,33,32,9,0.1,-0.03,1.65,0,2,1,0.11,0,45,4614,7,32,57,0.96,0.0,624,4.9,13.6,0.0,1,27.7,2.64,5.6,0,0,0,1,0,0,250,250,0,52.95718,6.521243,0.0,13.2,10,2,1.4,0,0.0,-1,0.0,,0.0,0,0.0,0.649
38963,1625564648020,,,,,,,,0.09,-0.02,1.51,0,3,3,0.09,,45,4601,7,32,57,0.96,0.0,619,4.85,13.4,0.0,1,27.6,1.52,5.6,0,0,0,1,0,0,250,250,0,,,,,,,,,,,,,,,,
38983,1625564648040,,,,,,,,0.08,-0.02,1.38,0,4,4,0.08,,45,4673,7,32,57,0.96,0.0,622,4.86,13.4,0.0,1,28.5,1.56,5.6,0,0,0,1,0,0,250,250,0,,,,,,,,,,,,,,,,
39003,1625564648060,,,,,,,,0.04,-0.01,1.4,0,3,4,0.04,,45,4575,7,32,57,0.96,0.0,620,4.92,13.3,0.0,1,27.2,1.51,5.6,0,0,0,1,0,0,250,250,0,,,,,,,,,,,,,,,,
39023,1625564648080,,,,,,,,-0.01,-0.02,1.62,0,2,2,0.02,,45,4674,7,32,57,0.959,0.0,617,4.88,13.4,0.0,1,28.5,2.67,5.5,0,0,0,1,0,0,250,250,0,,,,,,,,,,,,,,,,
39043,1625564648106,1,3,44,45,33,32,9,-0.04,-0.0,1.82,0,-1,1,0.04,0,45,4625,7,32,56,0.958,0.0,623,4.86,13.3,0.0,1,27.6,2.65,5.5,0,0,0,1,0,0,250,250,0,52.95718,6.521243,0.0,13.2,10,2,1.4,0,0.0,-1,0.0,0.0,0.0,0,0.0,0.6507
39063,1625564648126,,,,,,,,-0.06,0.05,2.0,0,-3,-1,0.08,,45,4615,7,32,56,0.957,0.0,622,4.81,13.4,0.0,1,27.4,2.64,5.5,0,0,0,1,0,0,250,250,0,,,,,,,,,,,,,,,,
39083,1625564648146,,,,,,,,-0.04,0.1,2.16,-0,-5,-2,0.1,,45,4703,7,32,56,0.956,0.0,622,4.84,13.4,0.0,1,28.6,2.69,5.5,0,0,0,1,0,0,250,250,0,,,,,,,,,,,,,,,,
39103,1625564648166,,,,,,,,-0.01,0.07,2.14,-0,-4,-3,0.07,,45,4598,7,32,56,0.954,0.0,622,4.87,13.5,0.0,1,27.2,2.63,5.5,0,0,0,1,0,0,250,250,0,,,,,,,,,,,,,,,,
39123,1625564648186,,,,,,,,0.03,0.02,1.96,-0,-3,-3,0.04,,45,4692,7,32,56,0.952,0.0,620,4.82,13.5,0.0,1,28.4,2.68,5.6,0,0,0,1,0,0,250,250,0,,,,,,,,,,,,,,,,
39143,1625564648206,1,2,44,44,33,32,9,0.04,-0.02,1.8,-0,0,-1,0.05,0,45,4698,7,32,57,0.95,0.0,624,4.87,13.5,0.0,1,28.8,2.69,5.6,0,0,0,1,0,0,250,250,0,52.95718,6.521243,0.0,13.2,10,2,1.4,0,0.0,-1,0.0,,0.0,0,0.0,0.6524
39163,1625564648226,,,,,,,,0.03,-0.02,1.65,0,2,2,0.04,,45,4631,7,32,56,0.948,0.0,626,4.91,13.5,0.0,1,27.6,2.64,5.6,0,0,0,1,0,0,250,250,0,,,,,,,,,,,,,,,,
39183,1625564648246,,,,,,,,-0.02,-0.02,1.84,0,3,4,0.03,,45,4732,7,32,56,0.947,0.0,625,4.89,13.4,0.0,1,28.9,1.6,5.6,0,0,0,1,0,0,250,250,0,,,,,,,,,,,,,,,,
39203,1625564648266,,,,,,,,-0.04,-0.0,2.02,0,1,2,0.04,,45,4650,7,32,56,0.946,0.0,629,4.85,13.4,0.0,1,27.9,2.65,5.6,0,0,0,1,0,0,250,250,0,,,,,,,,,,,,,,,,
39223,1625564648286,,,,,,,,-0.03,0.04,2.19,0,-2,-0,0.05,,45,4702,7,32,56,0.945,0.0,630,4.87,13.3,0.0,1,28.5,1.58,5.7,0,0,0,1,0,0,250,250,0,,,,,,,,,,,,,,,,
39243,1625564648307,1,2,44,46,33,32,9,0.0,0.04,2.04,-0,-4,-2,0.04,0,45,4694,7,32,56,0.944,0.0,630,4.86,13.4,0.0,1,28.4,2.68,5.7,0,0,0,1,0,0,250,250,0,52.95718,6.521243,0.0,13.2,10,2,1.4,0,0.0,-1,0.0,0.0,0.0,0,0.0,0.654
39263,1625564648327,,,,,,,,0.04,0.0,1.87,-0,-4,-3,0.04,,45,4589,7,32,56,0.945,0.0,631,4.86,13.4,0.0,1,27.1,2.62,5.7,0,0,0,1,0,0,250,250,0,,,,,,,,,,,,,,,,
39283,1625564648347,,,,,,,,0.07,-0.05,1.71,-0,-3,-4,0.09,,45,4713,7,32,56,0.945,0.0,625,4.91,13.5,0.0,1,28.7,2.7,5.7,0,0,0,1,0,0,250,250,0,,,,,,,,,,,,,,,,
39303,1625564648367,,,,,,,,0.08,-0.04,1.57,-0,-1,-2,0.09,,45,4644,7,32,56,0.945,0.0,625,4.9,13.5,0.0,1,27.8,2.65,5.7,0,0,0,1,0,0,250,250,0,,,,,,,,,,,,,,,,
39323,1625564648387,,,,,,,,0.07,-0.04,1.44,0,2,0,0.08,,45,4630,7,32,56,0.944,0.0,621,4.91,13.5,0.0,1,27.6,1.53,5.6,0,0,0,1,0,0,250,250,0,,,,,,,,,,,,,,,,
39343,1625564648406,1,2,44,44,33,32,9,0.05,-0.03,1.45,0,3,3,0.06,0,45,4702,7,32,56,0.944,0.0,621,4.85,13.5,0.0,1,28.5,1.58,5.6,0,0,0,1,0,0,250,250,0,52.95718,6.521243,0.0,13.2,10,2,1.4,0,0.0,-1,0.0,,0.0,0,0.0,0.6557
39363,1625564648426,,,,,,,,0.0,-0.02,1.66,0,3,4,0.02,,45,4594,7,32,56,0.945,0.0,619,4.87,13.5,0.0,1,27.2,2.62,5.6,0,0,0,1,0,0,250,250,0,,,,,,,,,,,,,,,,
39383,1625564648446,,,,,,,,-0.03,-0.0,1.85,0,3,3,0.03,,45,4695,7,32,56,0.945,0.0,621,4.89,13.3,0.0,1,28.5,1.58,5.6,0,0,0,1,0,0,250,250,0,,,,,,,,,,,,,,,,
39403,1625564648466,,,,,,,,-0.05,0.03,2.03,0,0,1,0.06,,45,4608,7,32,56,0.945,0.0,627,4.9,13.2,0.0,1,27.4,1.52,5.6,0,0,0,1,0,0,250,250,0,,,,,,,,,,,,,,,,
39423,1625564648486,,,,,,,,-0.04,0.08,2.19,0,-1,-0,0.09,,45,4618,7,32,56,0.946,0.0,619,4.92,13.3,0.0,1,27.5,1.52,5.6,0,0,0,1,0,0,250,250,0,,,,,,,,,,,,,,,,
39443,1625564648503,2,1,44,46,33,32,9,-0.02,0.09,2.26,0,-4,-2,0.09,0,45,4675,7,32,56,0.947,0.0,623,4.83,13.4,0.0,1,28.2,2.67,5.6,0,0,0,1,0,0,250,250,0,52.95718,6.521243,0.0,13.2,10,2,1.4,0,0.0,-1,0.0,0.0,0.0,0,0.0,0.6574
39463,1625564648523,,,,,,,,0.01,0.06,2.07,0,-4,-3,0.06,,45,4565,7,32,56,0.948,0.0,622,4.84,13.5,0.0,1,26.8,2.61,5.6,0,0,0,1,0,0,250,250,0,,,,,,,,,,,,,,,,
39483,1625564648543,,,,,,,,0.05,0.02,1.9,0,-4,-4,0.06,,45,4642,7,32,56,0.949,0.0,620,4.82,13.4,0.0,1,27.8,2.65,5.6,0,0,0,1,0,0,250,250,0,,,,,,,,,,,,,,,,
39503,1625564648563,,,,,,,,0.08,-0.01,1.74,-0,-2,-4,0.08,,45,4608,7,32,56,0.95,0.0,623,4.85,13.5,0.0,1,27.4,2.63,5.6,0,0,0,1,0,0,250,250,0,,,,,,,,,,,,,,,,
39523,1625564648583,,,,,,,,0.11,-0.03,1.6,-0,-1,-3,0.11,,45,4572,7,32,56,0.951,0.0,618,4.87,13.5,0.0,1,26.9,2.62,5.5,0,0,0,1,0,0,250,250,0,,,,,,,,,,,,,,,,
39543,1625564648603,1,2,44,44,33,32,9,0.12,-0.05,1.46,0,1,-1,0.13,0,45,4650,7,32,56,0.952,0.0,620,4.91,13.5,0.0,1,27.9,2.65,5.5,0,0,0,1,0,0,250,250,0,52.95718,6.521243,0.0,13.2,10,2,1.4,0,0.0,-1,0.0,,0.0,0,0.0,0.659
39563,1625564648623,,,,,,,,0.12,-0.05,1.34,0,3,0,0.14,,45,4555,7,32,56,0.953,0.0,622,4.94,13.5,0.0,1,26.7,2.6,5.5,0,0,0,1,0,0,250,250,0,,,,,,,,,,,,,,,,
39583,1625564648643,,,,,,,,0.09,-0.06,1.23,0,4,3,0.11,,45,4612,7,32,56,0.953,0.0,620,4.91,13.5,0.0,1,27.4,2.63,5.5,0,0,0,1,0,0,250,250,0,,,,,,,,,,,,,,,,
39603,1625564648663,,,,,,,,0.08,-0.06,1.25,0,4,4,0.1,,45,4591,7,32,56,0.953,0.0,623,4.88,13.5,0.0,1,27.1,2.62,5.5,0,0,0,1,0,0,250,250,0,,,,,,,,,,,,,,,,
39623,1625564648683,,,,,,,,0.02,-0.05,1.33,0,4,5,0.06,,45,4574,7,32,56,0.953,0.0,626,4.88,13.4,0.0,1,26.9,1.5,5.5,0,0,0,1,0,0,250,250,0,,,,,,,,,,,,,,,,
39643,1625564648703,2,1,44,47,33,32,9,-0.02,-0.06,1.55,0,4,5,0.06,0,45,4592,7,32,56,0.954,0.0,625,4.9,13.4,0.0,1,27.0,2.62,5.5,0,0,0,1,0,0,250,250,0,52.95718,6.521243,0.0,13.2,10,2,1.4,0,0.0,-1,0.0,0.0,0.0,0,0.0,0.6607
39663,1625564648723,,,,,,,,-0.06,-0.05,1.75,0,3,4,0.08,,45,4574,7,32,57,0.953,0.0,628,4.85,13.4,0.0,1,27.1,2.62,5.5,0,0,0,1,0,0,250,250,0,,,,,,,,,,,,,,,,
39683,1625564648743,,,,,,,,-0.09,-0.03,1.94,0,2,3,0.1,,45,4542,7,32,56,0.952,0.0,626,4.85,13.3,0.0,1,26.5,1.48,5.5,0,0,0,1,0,0,250,250,0,,,,,,,,,,,,,,,,
39703,1625564648763,,,,,,,,-0.13,0.0,2.11,0,-0,2,0.13,,45,4536,7,32,57,0.951,0.0,627,4.89,13.2,0.0,1,26.8,1.48,5.5,0,0,0,1,0,0,250,250,0,,,,,,,,,,,,,,,,
39723,1625564648783,,,,,,,,-0.15,0.01,2.27,0,-1,1,0.15,,45,4511,7,32,57,0.95,0.0,627,4.91,13.2,0.0,1,26.4,1.47,5.4,0,0,0,1,0,0,250,250,0,,,,,,,,,,,,,,,,
39743,1625564648803,1,3,44,46,33,32,9,-0.17,0.04,2.41,0,-2,0,0.17,0,45,4522,7,32,57,0.949,0.0,621,4.92,13.4,0.0,1,26.6,2.6,5.4,0,0,0,1,0,0,250,250,0,52.95718,6.521243,0.0,13.2,10,2,1.4,0,0.0,-1,0.0,,0.0,0,0.0,0.6624
39763,1625564648823,,,,,,,,-0.19,0.06,2.54,0,-3,-1,0.2,,45,4512,7,32,57,0.947,0.0,626,4.92,13.4,0.0,1,26.5,1.47,5.4,0,0,0,1,0,0,250,250,0,,,,,,,,,,,,,,,,
39783,1625564648843,,,,,,,,-0.22,0.09,2.66,-0,-4,-1,0.24,,45,4485,7,32,57,0.947,0.0,619,4.94,13.2,0.0,1,26.1,1.45,5.4,0,0,0,1,0,0,250,250,0,,,,,,,,,,,,,,,,
39803,1625564648863,,,,,,,,-0.24,0.1,2.77,-0,-5,-2,0.26,,45,4501,7,32,57,0.945,0.0,621,4.92,13.4,0.0,1,26.3,2.59,5.4,0,0,0,1,0,0,250,250,0,,,,,,,,,,,,,,,,
39823,1625564648883,,,,,,,,-0.27,0.12,2.88,-0,-5,-3,0.29,,45,4492,7,32,57,0.945,0.0,622,4.85,13.2,0.0,1,26.2,1.46,5.4,0,0,0,1,0,0,250,250,0,,,,,,,,,,,,,,,,
39843,1625564648907,1,3,44,46,33,32,9,-0.29,0.11,2.97,-0,-6,-3,0.31,0,45,4482,7,32,57,0.946,0.0,618,4.86,13.2,0.0,1,26.1,2.58,5.4,0,0,0,1,0,0,250,250,0,52.95718,6.521243,0.0,13.2,10,2,1.4,0,0.0,-1,0.0,0.0,0.0,0,0.0,0.664
39863,1625564648927,,,,,,,,-0.31,0.12,3.06,-0,-6,-4,0.34,,45,4481,7,32,58,0.947,0.0,618,4.92,13.4,0.0,1,26.3,2.58,5.4,0,0,0,1,0,0,250,250,0,,,,,,,,,,,,,,,,
39883,1625564648947,,,,,,,,-0.33,0.11,3.13,-0,-7,-4,0.35,,45,4493,7,32,58,0.948,0.0,615,4.87,13.2,0.0,1,26.4,1.47,5.4,0,0,0,1,0,0,250,250,0,,,,,,,,,,,,,,,,
39903,1625564648967,,,,,,,,-0.35,0.13,3.21,-0,-7,-5,0.37,,45,4509,7,32,58,0.95,0.0,620,4.86,13.2,0.0,1,26.6,1.48,5.4,0,0,0,1,0,0,250,250,0,,,,,,,,,,,,,,,,
39923,1625564648987,,,,,,,,-0.36,0.13,3.27,-0,-8,-5,0.38,,45,4505,7,32,58,0.953,0.0,617,4.88,13.2,0.0,1,26.6,1.48,5.4,0,0,0,1,0,0,250,250,0,,,,,,,,,,,,,,,,
39943,1625564649001,3,2,44,46,33,32,9,-0.38,0.15,3.33,-0,-8,-5,0.41,0,45,4524,7,32,58,0.956,0.0,620,4.87,13.2,0.0,1,26.8,2.61,5.4,0,0,0,1,0,0,250,250,0,52.95718,6.521243,0.0,13.2,10,2,1.5,0,0.0,-1,0.0,,0.0,0,0.0,0.6657
39963,1625564649021,,,,,,,,-0.39,0.16,3.39,-0,-8,-6,0.42,,45,4497,7,32,58,0.958,0.0,621,4.92,13.4,0.0,1,26.5,2.59,5.4,0,0,0,1,0,0,250,250,0,,,,,,,,,,,,,,,,
39983,1625564649041,,,,,,,,-0.41,0.16,3.44,-0,-9,-6,0.44,,45,4526,7,32,58,0.962,0.0,617,4.89,13.2,0.0,1,26.8,1.49,5.4,0,0,0,1,0,0,250,250,0,,,,,,,,,,,,,,,,
40003,1625564649061,,,,,,,,-0.4,0.17,3.48,-0,-10,-7,0.44,,45,4556,7,32,58,0.965,0.0,624,4.87,13.2,0.0,1,27.2,1.5,5.4,0,0,0,1,0,0,250,250,0,,,,,,,,,,,,,,,,
40023,1625564649081,,,,,,,,-0.4,0.2,3.53,-0,-11,-7,0.45,,45,4520,7,32,58,0.968,0.0,622,4.95,13.3,0.0,1,26.8,1.49,5.5,0,0,0,1,0,0,250,250,0,,,,,,,,,,,,,,,,
40043,1625564649108,2,1,44,46,33,32,9,-0.39,0.23,3.57,-0,-11,-8,0.45,0,45,4585,7,32,58,0.971,0.0,625,4.83,13.3,0.0,1,27.6,2.63,5.5,0,0,0,1,0,0,250,250,0,52.95718,6.521243,0.0,13.2,10,2,1.5,0,0.0,-1,0.0,0.0,0.0,0,0.0,0.6674
