"Interval"|"ms"|0|0|1,"Utc"|"ms"|0|0|1,"Brake_F"|"Bar"|0|2000|10,"Brake_R"|"Bar"|0|2000|10,"Height_RF"|"mm"|0|255|50,"Height_LF"|"mm"|0|255|50,"Height_LR"|"mm"|0|80|50,"Height_RR"|"mm"|0|255|50,"Steering"|"deg"|-100|100|10,"AccelX"|"G"|-3.0|3.0|50,"AccelY"|"G"|-3.0|3.0|50,"AccelZ"|"G"|-3.0|3.0|50,"Yaw"|"Deg/Sec"|-120|120|50,"Pitch"|"Deg/Sec"|-120|120|50,"Roll"|"Deg/Sec"|-120|120|50,"Gsum"|"G"|0.0|3.0|50,"Log_Button"|""|0.0|10.0|10,"WaterTemp"|"C"|0|150|50,"RPM"|"tr/min"|0|14000|50,"TPS"|"%"|0|100|50,"AirTemp"|"C"|0|150|50,"MAP"|"KPa"|0|100|50,"Lambda"|""|0.5|1.5|50,"SpeedDTA"|"kph"|0.0|250.0|50,"OilPress"|"KPa"|0|1500|50,"FuelPressur"|"Bar"|0.0|10.0|50,"Batterie"|"V"|0.0|20.0|50,"ConsoKm"|"L/100km"|0.0|200.0|50,"Gear"|""|0|6|50,"AdvIgnition"|"Deg"|-20.0|70.0|50,"Injection"|"ms"|0.0|10.0|50,"ConsoHr"|"L/Hr"|0.0|10000.0|50,"LC_But_Pres"|""|0|1|50,"LC_Active"|""|0|1|50,"TractionOn"|""|0|1|50,"TractionWet"|""|0|1|50,"FanOn"|""|0|1|50,"RD_Speed"|"km/h"|-30|250|10,"RUD_Speed"|"km/h"|-30|250|10,"LD_Speed"|"km/h"|-30|250|10,"LUD_Speed"|"km/h"|-30|250|10,"Latitude"|"Degrees"|-180.0|180.0|10,"Longitude"|"Degrees"|-180.0|180.0|10,"Speed"|"kph"|0.0|150.0|10,"Altitude"|"m"|0.0|4000.0|10,"GPSSats"|""|0|20|10,"GPSQual"|""|0|5|10,"GPSDOP"|""|0.0|20.0|10,"LapCount"|""|0|0|10,"LapTime"|"Min"|0.0|0.0|10,"Sector"|""|0|0|10,"SectorTime"|"Min"|0.0|0.0|10,"PredTime"|"Min"|0.0|0.0|5,"ElapsedTime"|"Min"|0.0|0.0|10,"CurrentLap"|""|0|0|10,"Distance"|"km"|0.0|0.0|10,"SessionTime"|"Min"|0.0|0.0|10
63,0,,,247,247,251,246,,-0.16,0.03,1.0,-0,-0,-0,0.16,,0,0,0,0,0,0.0,0.0,0,0.0,0.0,0.0,0,0.0,0.0,0.0,0,0,0,0,0,,,,,,,,,,,,,,,,,,,,
83,0,,,247,247,251,246,,-0.16,0.03,0.99,-0,-0,-0,0.16,,0,0,0,0,0,0.0,0.0,0,0.0,0.0,0.0,0,0.0,0.0,0.0,0,0,0,0,0,,,,,,,,,,,,,,,,,,,,
103,0,,,247,247,251,246,,-0.16,0.03,0.99,-0,-0,-0,0.16,,0,0,0,0,0,0.0,0.0,0,0.0,0.0,0.0,0,0.0,0.0,0.0,0,0,0,0,0,,,,,,,,,,,,,,,,,,,,
123,0,,,247,247,251,246,,-0.16,0.03,0.99,-0,-0,-0,0.16,,0,0,0,0,0,0.0,0.0,0,0.0,0.0,0.0,0,0.0,0.0,0.0,0,0,0,0,0,,,,,,,,,,,,,,,,,,,,
143,0,10,6,247,247,251,246,-5,-0.16,0.03,0.99,-0,-0,-0,0.16,1,0,0,0,0,0,0.0,0.0,0,0.0,0.0,0.0,0,0.0,0.0,0.0,0,0,0,0,0,0,0,0,0,0.0,0.0,0.0,0.0,0,0,0.0,0,0.0,-1,0.0,,0.0,0,0.0,0.0024
163,0,,,247,247,251,246,,-0.16,0.03,0.99,-0,-0,-0,0.16,,0,0,0,0,0,0.0,0.0,0,0.0,0.0,0.0,0,0.0,0.0,0.0,0,0,0,0,0,,,,,,,,,,,,,,,,,,,,
183,0,,,247,247,251,246,,-0.16,0.03,1.0,-0,-0,-0,0.16,,0,0,0,0,0,0.0,0.0,0,0.0,0.0,0.0,0,0.0,0.0,0.0,0,0,0,0,0,,,,,,,,,,,,,,,,,,,,
203,0,,,247,247,251,246,,-0.16,0.03,0.99,-0,-0,-0,0.16,,0,0,0,0,0,0.0,0.0,0,0.0,0.0,0.0,0,0.0,0.0,0.0,0,0,0,0,0,,,,,,,,,,,,,,,,,,,,
223,0,,,247,247,251,246,,-0.16,0.03,0.99,-0,-0,-0,0.16,,0,0,0,0,0,0.0,0.0,0,0.0,0.0,0.0,0,0.0,0.0,0.0,0,0,0,0,0,,,,,,,,,,,,,,,,,,,,
243,0,10,5,247,247,251,246,-5,-0.16,0.03,1.0,-0,-0,-0,0.16,1,0,0,0,0,0,0.0,0.0,0,0.0,0.0,0.0,0,0.0,0.0,0.0,0,0,0,0,0,0,0,0,0,0.0,0.0,0.0,0.0,0,0,0.0,0,0.0,-1,0.0,0.0,0.0,0,0.0,0.004
263,0,,,247,247,251,246,,-0.16,0.03,1.0,-0,-0,-0,0.16,,0,0,0,0,0,0.0,0.0,0,0.0,0.0,0.0,0,0.0,0.0,0.0,0,0,0,0,0,,,,,,,,,,,,,,,,,,,,
283,0,,,247,246,251,246,,-0.16,0.03,1.0,-0,-0,-0,0.16,,0,0,0,0,0,0.0,0.0,0,0.0,0.0,0.0,0,0.0,0.0,0.0,0,0,0,0,0,,,,,,,,,,,,,,,,,,,,
303,0,,,247,247,251,246,,-0.16,0.03,0.99,-0,-0,-0,0.16,,0,0,0,0,0,0.0,0.0,0,0.0,0.0,0.0,0,0.0,0.0,0.0,0,0,0,0,0,,,,,,,,,,,,,,,,,,,,
323,0,,,247,247,251,246,,-0.16,0.03,0.99,-0,-0,-0,0.16,,0,0,0,0,0,0.0,0.0,0,0.0,0.0,0.0,0,0.0,0.0,0.0,0,0,0,0,0,,,,,,,,,,,,,,,,,,,,
343,0,9,6,247,247,251,246,-6,-0.16,0.03,0.99,-0,-0,-0,0.16,1,0,0,0,0,0,0.0,0.0,0,0.0,0.0,0.0,0,0.0,0.0,0.0,0,0,0,0,0,0,0,0,0,0.0,0.0,0.0,0.0,0,0,0.0,0,0.0,-1,0.0,,0.0,0,0.0,0.0057
363,0,,,247,247,251,246,,-0.16,0.03,0.99,-0,-0,-0,0.16,,0,0,0,0,0,0.0,0.0,0,0.0,0.0,0.0,0,0.0,0.0,0.0,0,0,0,0,0,,,,,,,,,,,,,,,,,,,,
383,0,,,247,247,251,246,,-0.16,0.03,0.99,-0,-0,-0,0.16,,0,0,0,0,0,0.0,0.0,0,0.0,0.0,0.0,0,0.0,0.0,0.0,0,0,0,0,0,,,,,,,,,,,,,,,,,,,,
403,0,,,247,247,251,246,,-0.16,0.03,0.99,-0,-0,-0,0.16,,0,0,0,0,0,0.0,0.0,0,0.0,0.0,0.0,0,0.0,0.0,0.0,0,0,0,0,0,,,,,,,,,,,,,,,,,,,,
423,0,,,247,247,251,246,,-0.16,0.03,0.99,-0,-0,-0,0.16,,0,0,0,0,0,0.0,0.0,0,0.0,0.0,0.0,0,0.0,0.0,0.0,0,0,0,0,0,,,,,,,,,,,,,,,,,,,,
443,0,9,6,247,247,251,246,-5,-0.16,0.03,0.99,-0,-0,-0,0.16,1,0,0,0,0,0,0.0,0.0,0,0.0,0.0,0.0,0,0.0,0.0,0.0,0,0,0,0,0,0,0,0,0,0.0,0.0,0.0,0.0,0,0,0.0,0,0.0,-1,0.0,0.0,0.0,0,0.0,0.0074
463,0,,,247,247,251,246,,-0.16,0.03,0.99,-0,-0,-0,0.16,,0,0,0,0,0,0.0,0.0,0,0.0,0.0,0.0,0,0.0,0.0,0.0,0,0,0,0,0,,,,,,,,,,,,,,,,,,,,
483,0,,,247,246,251,246,,-0.16,0.03,0.99,-0,-0,-0,0.16,,0,0,0,0,0,0.0,0.0,0,0.0,0.0,0.0,0,0.0,0.0,0.0,0,0,0,0,0,,,,,,,,,,,,,,,,,,,,
503,0,,,247,247,251,246,,-0.16,0.03,0.99,-0,-0,-0,0.16,,0,0,0,0,0,0.0,0.0,0,0.0,0.0,0.0,0,0.0,0.0,0.0,0,0,0,0,0,,,,,,,,,,,,,,,,,,,,
523,0,,,247,247,251,246,,-0.16,0.03,0.99,-0,-0,-0,0.16,,0,0,0,0,0,0.0,0.0,0,0.0,0.0,0.0,0,0.0,0.0,0.0,0,0,0,0,0,,,,,,,,,,,,,,,,,,,,
543,0,8,6,247,247,251,246,-6,-0.16,0.03,0.99,-0,-0,-0,0.16,1,0,0,0,0,0,0.0,0.0,0,0.0,0.0,0.0,0,0.0,0.0,0.0,0,0,0,0,0,0,0,0,0,0.0,0.0,0.0,0.0,0,0,0.0,0,0.0,-1,0.0,,0.0,0,0.0,0.0091
563,0,,,247,247,251,246,,-0.16,0.03,0.99,-0,-0,-0,0.16,,0,0,0,0,0,0.0,0.0,0,0.0,0.0,0.0,0,0.0,0.0,0.0,0,0,0,0,0,,,,,,,,,,,,,,,,,,,,
583,0,,,247,247,251,246,,-0.16,0.03,0.99,-0,-0,-0,0.16,,0,0,0,0,0,0.0,0.0,0,0.0,0.0,0.0,0,0.0,0.0,0.0,0,0,0,0,0,,,,,,,,,,,,,,,,,,,,
603,0,,,247,247,251,246,,-0.16,0.03,0.99,-0,-0,-0,0.16,,0,0,0,0,0,0.0,0.0,0,0.0,0.0,0.0,0,0.0,0.0,0.0,0,0,0,0,0,,,,,,,,,,,,,,,,,,,,
623,0,,,247,247,251,246,,-0.16,0.03,0.99,-0,-0,-0,0.16,,0,0,0,0,0,0.0,0.0,0,0.0,0.0,0.0,0,0.0,0.0,0.0,0,0,0,0,0,,,,,,,,,,,,,,,,,,,,
643,0,9,6,247,247,251,246,-6,-0.16,0.03,0.99,-0,-0,-0,0.16,1,0,0,0,0,0,0.0,0.0,0,0.0,0.0,0.0,0,0.0,0.0,0.0,0,0,0,0,0,0,0,0,0,0.0,0.0,0.0,0.0,0,0,0.0,0,0.0,-1,0.0,0.0,0.0,0,0.0,0.0107
663,0,,,247,247,251,246,,-0.16,0.03,0.99,-0,-0,-0,0.16,,0,0,0,0,0,0.0,0.0,0,0.0,0.0,0.0,0,0.0,0.0,0.0,0,0,0,0,0,,,,,,,,,,,,,,,,,,,,
683,0,,,247,247,251,246,,-0.16,0.03,0.99,-0,-0,-0,0.16,,0,0,0,0,0,0.0,0.0,0,0.0,0.0,0.0,0,0.0,0.0,0.0,0,0,0,0,0,,,,,,,,,,,,,,,,,,,,
703,0,,,247,246,251,246,,-0.16,0.03,0.99,-0,-0,-0,0.16,,0,0,0,0,0,0.0,0.0,0,0.0,0.0,0.0,0,0.0,0.0,0.0,0,0,0,0,0,,,,,,,,,,,,,,,,,,,,
723,0,,,247,247,251,246,,-0.16,0.03,0.99,-0,-0,-0,0.16,,0,0,0,0,0,0.0,0.0,0,0.0,0.0,0.0,0,0.0,0.0,0.0,0,0,0,0,0,,,,,,,,,,,,,,,,,,,,
743,0,10,5,247,247,251,246,-6,-0.16,0.03,0.99,-0,-0,-0,0.16,1,0,0,0,0,0,0.0,0.0,0,0.0,0.0,0.0,0,0.0,0.0,0.0,0,0,0,0,0,0,0,0,0,0.0,0.0,0.0,0.0,0,0,0.0,0,0.0,-1,0.0,,0.0,0,0.0,0.0124
763,0,,,247,247,251,246,,-0.16,0.03,0.99,-0,-0,-0,0.16,,0,0,0,0,0,0.0,0.0,0,0.0,0.0,0.0,0,0.0,0.0,0.0,0,0,0,0,0,,,,,,,,,,,,,,,,,,,,
783,0,,,247,247,251,246,,-0.16,0.03,0.99,-0,-0,-0,0.16,,0,0,0,0,0,0.0,0.0,0,0.0,0.0,0.0,0,0.0,0.0,0.0,0,0,0,0,0,,,,,,,,,,,,,,,,,,,,
803,0,,,247,247,251,246,,-0.16,0.03,0.99,-0,-0,-0,0.16,,0,0,0,0,0,0.0,0.0,0,0.0,0.0,0.0,0,0.0,0.0,0.0,0,0,0,0,0,,,,,,,,,,,,,,,,,,,,
823,0,,,247,247,251,246,,-0.16,0.03,0.99,-0,-0,-0,0.16,,0,0,0,0,0,0.0,0.0,0,0.0,0.0,0.0,0,0.0,0.0,0.0,0,0,0,0,0,,,,,,,,,,,,,,,,,,,,
843,0,9,7,247,247,251,246,-6,-0.16,0.03,0.99,-0,-0,-0,0.16,1,0,0,0,0,0,0.0,0.0,0,0.0,0.0,0.0,0,0.0,0.0,0.0,0,0,0,0,0,0,0,0,0,0.0,0.0,0.0,0.0,0,0,0.0,0,0.0,-1,0.0,0.0,0.0,0,0.0,0.014
863,0,,,247,247,251,246,,-0.16,0.03,0.99,-0,-0,-0,0.16,,0,0,0,0,0,0.0,0.0,0,0.0,0.0,0.0,0,0.0,0.0,0.0,0,0,0,0,0,,,,,,,,,,,,,,,,,,,,
883,0,,,247,247,251,246,,-0.16,0.03,0.99,-0,-0,-0,0.16,,0,0,0,0,0,0.0,0.0,0,0.0,0.0,0.0,0,0.0,0.0,0.0,0,0,0,0,0,,,,,,,,,,,,,,,,,,,,
903,0,,,247,247,251,246,,-0.16,0.02,0.98,-0,-0,-0,0.16,,0,0,0,0,0,0.0,0.0,0,0.0,0.0,0.0,0,0.0,0.0,0.0,0,0,0,0,0,,,,,,,,,,,,,,,,,,,,
923,0,,,247,247,251,246,,-0.16,0.02,0.98,-0,-0,-0,0.16,,0,0,0,0,0,0.0,0.0,0,0.0,0.0,0.0,0,0.0,0.0,0.0,0,0,0,0,0,,,,,,,,,,,,,,,,,,,,
943,0,9,6,247,247,251,246,-5,-0.16,0.02,0.98,-0,-0,-0,0.16,1,0,0,0,0,0,0.0,0.0,0,0.0,0.0,0.0,0,0.0,0.0,0.0,0,0,0,0,0,0,0,0,0,0.0,0.0,0.0,0.0,0,0,0.0,0,0.0,-1,0.0,,0.0,0,0.0,0.0157
963,0,,,247,246,251,246,,-0.16,0.02,0.99,-0,-0,-0,0.16,,0,0,0,0,0,0.0,0.0,0,0.0,0.0,0.0,0,0.0,0.0,0.0,0,0,0,0,0,,,,,,,,,,,,,,,,,,,,
983,0,,,247,247,251,246,,-0.16,0.03,0.99,-0,-0,-0,0.16,,0,0,0,0,0,0.0,0.0,0,0.0,0.0,0.0,0,0.0,0.0,0.0,0,0,0,0,0,,,,,,,,,,,,,,,,,,,,
1003,0,,,247,247,251,246,,-0.16,0.03,0.99,-0,-0,-0,0.16,,0,0,0,0,0,0.0,0.0,0,0.0,0.0,0.0,0,0.0,0.0,0.0,0,0,0,0,0,,,,,,,,,,,,,,,,,,,,
1023,0,,,247,247,251,246,,-0.16,0.03,0.98,-0,-0,-0,0.16,,0,0,0,0,0,0.0,0.0,0,0.0,0.0,0.0,0,0.0,0.0,0.0,0,0,0,0,0,,,,,,,,,,,,,,,,,,,,
1043,0,8,6,247,247,251,246,-5,-0.16,0.03,0.98,-0,-0,-0,0.16,1,0,0,0,0,0,0.0,0.0,0,0.0,0.0,0.0,0,0.0,0.0,0.0,0,0,0,0,0,0,0,0,0,0.0,0.0,0.0,0.0,0,0,0.0,0,0.0,-1,0.0,0.0,0.0,0,0.0,0.0174
1063,0,,,247,247,251,246,,-0.16,0.03,0.98,-0,-0,-0,0.16,,0,0,0,0,0,0.0,0.0,0,0.0,0.0,0.0,0,0.0,0.0,0.0,0,0,0,0,0,,,,,,,,,,,,,,,,,,,,
1083,0,,,247,247,251,246,,-0.16,0.03,0.98,-0,-0,-0,0.16,,0,0,0,0,0,0.0,0.0,0,0.0,0.0,0.0,0,0.0,0.0,0.0,0,0,0,0,0,,,,,,,,,,,,,,,,,,,,
1103,0,,,247,247,251,246,,-0.16,0.03,0.99,-0,-0,-0,0.16,,0,0,0,0,0,0.0,0.0,0,0.0,0.0,0.0,0,0.0,0.0,0.0,0,0,0,0,0,,,,,,,,,,,,,,,,,,,,
1123,0,,,247,247,251,246,,-0.16,0.03,0.99,-0,-0,-0,0.16,,0,0,0,0,0,0.0,0.0,0,0.0,0.0,0.0,0,0.0,0.0,0.0,0,0,0,0,0,,,,,,,,,,,,,,,,,,,,
1143,0,9,4,247,247,251,246,-6,-0.16,0.03,0.99,-0,-0,-0,0.16,1,0,0,0,0,0,0.0,0.0,0,0.0,0.0,0.0,0,0.0,0.0,0.0,0,0,0,0,0,0,0,0,0,0.0,0.0,0.0,0.0,0,0,0.0,0,0.0,-1,0.0,,0.0,0,0.0,0.019
1163,0,,,247,247,251,246,,-0.16,0.03,0.99,-0,-0,-0,0.16,,0,0,0,0,0,0.0,0.0,0,0.0,0.0,0.0,0,0.0,0.0,0.0,0,0,0,0,0,,,,,,,,,,,,,,,,,,,,
1183,0,,,247,247,251,246,,-0.16,0.03,0.99,-0,-0,-0,0.16,,0,0,0,0,0,0.0,0.0,0,0.0,0.0,0.0,0,0.0,0.0,0.0,0,0,0,0,0,,,,,,,,,,,,,,,,,,,,
1203,0,,,247,247,251,246,,-0.16,0.02,0.99,-0,-0,-0,0.16,,0,0,0,0,0,0.0,0.0,0,0.0,0.0,0.0,0,0.0,0.0,0.0,0,0,0,0,0,,,,,,,,,,,,,,,,,,,,
1223,0,,,247,247,251,246,,-0.16,0.02,0.99,-0,-0,-0,0.16,,0,0,0,0,0,0.0,0.0,0,0.0,0.0,0.0,0,0.0,0.0,0.0,0,0,0,0,0,,,,,,,,,,,,,,,,,,,,
1243,0,9,6,247,247,251,246,-6,-0.16,0.02,0.99,-0,-0,-0,0.16,1,0,0,0,0,0,0.0,0.0,0,0.0,0.0,0.0,0,0.0,0.0,0.0,0,0,0,0,0,0,0,0,0,0.0,0.0,0.0,0.0,0,0,0.0,0,0.0,-1,0.0,0.0,0.0,0,0.0,0.0207
1263,0,,,247,247,251,246,,-0.16,0.03,0.99,-0,-0,-0,0.16,,0,0,0,0,0,0.0,0.0,0,0.0,0.0,0.0,0,0.0,0.0,0.0,0,0,0,0,0,,,,,,,,,,,,,,,,,,,,
1283,0,,,247,247,251,246,,-0.16,0.03,0.99,-0,-0,-0,0.16,,0,0,0,0,0,0.0,0.0,0,0.0,0.0,0.0,0,0.0,0.0,0.0,0,0,0,0,0,,,,,,,,,,,,,,,,,,,,
1303,0,,,247,247,251,246,,-0.16,0.03,0.99,-0,-0,-0,0.16,,0,0,0,0,0,0.0,0.0,0,0.0,0.0,0.0,0,0.0,0.0,0.0,0,0,0,0,0,,,,,,,,,,,,,,,,,,,,
1323,0,,,247,247,251,246,,-0.16,0.02,0.99,-0,-0,-0,0.16,,0,0,0,0,0,0.0,0.0,0,0.0,0.0,0.0,0,0.0,0.0,0.0,0,0,0,0,0,,,,,,,,,,,,,,,,,,,,
1343,0,9,5,247,247,251,246,-6,-0.16,0.03,0.99,-0,-0,-0,0.16,1,0,0,0,0,0,0.0,0.0,0,0.0,0.0,0.0,0,0.0,0.0,0.0,0,0,0,0,0,0,0,0,0,0.0,0.0,0.0,0.0,0,0,0.0,0,0.0,-1,0.0,,0.0,0,0.0,0.0224
1363,0,,,247,247,251,246,,-0.16,0.03,0.99,-0,-0,-0,0.16,,0,0,0,0,0,0.0,0.0,0,0.0,0.0,0.0,0,0.0,0.0,0.0,0,0,0,0,0,,,,,,,,,,,,,,,,,,,,
1383,0,,,247,247,251,246,,-0.16,0.03,0.99,-0,-0,-0,0.16,,0,0,0,0,0,0.0,0.0,0,0.0,0.0,0.0,0,0.0,0.0,0.0,0,0,0,0,0,,,,,,,,,,,,,,,,,,,,
1403,0,,,247,247,251,246,,-0.16,0.03,0.99,-0,-0,-0,0.16,,0,0,0,0,0,0.0,0.0,0,0.0,0.0,0.0,0,0.0,0.0,0.0,0,0,0,0,0,,,,,,,,,,,,,,,,,,,,
1423,0,,,247,247,251,246,,-0.16,0.02,0.99,-0,-0,-0,0.16,,0,0,0,0,0,0.0,0.0,0,0.0,0.0,0.0,0,0.0,0.0,0.0,0,0,0,0,0,,,,,,,,,,,,,,,,,,,,
1443,0,9,6,247,247,251,246,-7,-0.16,0.02,0.99,-0,-0,-0,0.16,1,0,0,0,0,0,0.0,0.0,0,0.0,0.0,0.0,0,0.0,0.0,0.0,0,0,0,0,0,0,0,0,0,0.0,0.0,0.0,0.0,0,0,0.0,0,0.0,-1,0.0,0.0,0.0,0,0.0,0.024
1463,0,,,247,247,251,246,,-0.16,0.02,0.99,-0,-0,-0,0.16,,0,0,0,0,0,0.0,0.0,0,0.0,0.0,0.0,0,0.0,0.0,0.0,0,0,0,0,0,,,,,,,,,,,,,,,,,,,,
1483,0,,,247,247,251,246,,-0.16,0.02,0.99,-0,-0,-0,0.16,,0,0,0,0,0,0.0,0.0,0,0.0,0.0,0.0,0,0.0,0.0,0.0,0,0,0,0,0,,,,,,,,,,,,,,,,,,,,
1503,0,,,247,247,251,246,,-0.16,0.03,0.99,-0,-0,-0,0.16,,0,0,0,0,0,0.0,0.0,0,0.0,0.0,0.0,0,0.0,0.0,0.0,0,0,0,0,0,,,,,,,,,,,,,,,,,,,,
1523,0,,,247,247,251,246,,-0.16,0.03,0.99,-0,-0,-0,0.16,,0,0,0,0,0,0.0,0.0,0,0.0,0.0,0.0,0,0.0,0.0,0.0,0,0,0,0,0,,,,,,,,,,,,,,,,,,,,
1543,0,9,4,247,247,251,246,-6,-0.16,0.03,0.99,-0,-0,-0,0.16,1,0,0,0,0,0,0.0,0.0,0,0.0,0.0,0.0,0,0.0,0.0,0.0,0,0,0,0,0,0,0,0,0,0.0,0.0,0.0,0.0,0,0,0.0,0,0.0,-1,0.0,,0.0,0,0.0,0.0257
1563,0,,,247,247,251,246,,-0.16,0.03,0.99,-0,-0,-0,0.16,,0,0,0,0,0,0.0,0.0,0,0.0,0.0,0.0,0,0.0,0.0,0.0,0,0,0,0,0,,,,,,,,,,,,,,,,,,,,
1583,0,,,247,247,251,246,,-0.16,0.03,0.99,-0,-0,-0,0.16,,0,0,0,0,0,0.0,0.0,0,0.0,0.0,0.0,0,0.0,0.0,0.0,0,0,0,0,0,,,,,,,,,,,,,,,,,,,,
1603,0,,,247,247,251,246,,-0.16,0.03,0.99,-0,-0,-0,0.16,,0,0,0,0,0,0.0,0.0,0,0.0,0.0,0.0,0,0.0,0.0,0.0,0,0,0,0,0,,,,,,,,,,,,,,,,,,,,
1623,0,,,247,247,251,246,,-0.16,0.03,0.99,-0,-0,-0,0.16,,0,0,0,0,0,0.0,0.0,0,0.0,0.0,0.0,0,0.0,0.0,0.0,0,0,0,0,0,,,,,,,,,,,,,,,,,,,,
1643,0,9,5,247,247,251,246,-6,-0.16,0.03,0.99,-0,-0,-0,0.16,1,0,0,0,0,0,0.0,0.0,0,0.0,0.0,0.0,0,0.0,0.0,0.0,0,0,0,0,0,0,0,0,0,0.0,0.0,0.0,0.0,0,0,0.0,0,0.0,-1,0.0,0.0,0.0,0,0.0,0.0274
1663,0,,,247,247,251,246,,-0.16,0.03,0.99,-0,-0,-0,0.16,,0,0,0,0,0,0.0,0.0,0,0.0,0.0,0.0,0,0.0,0.0,0.0,0,0,0,0,0,,,,,,,,,,,,,,,,,,,,
1683,0,,,247,247,251,246,,-0.16,0.03,0.99,-0,-0,-0,0.16,,0,0,0,0,0,0.0,0.0,0,0.0,0.0,0.0,0,0.0,0.0,0.0,0,0,0,0,0,,,,,,,,,,,,,,,,,,,,
1703,0,,,247,247,251,246,,-0.16,0.03,0.99,-0,-0,-0,0.16,,0,0,0,0,0,0.0,0.0,0,0.0,0.0,0.0,0,0.0,0.0,0.0,0,0,0,0,0,,,,,,,,,,,,,,,,,,,,
1723,0,,,247,247,251,246,,-0.16,0.03,0.99,-0,-0,-0,0.16,,0,0,0,0,0,0.0,0.0,0,0.0,0.0,0.0,0,0.0,0.0,0.0,0,0,0,0,0,,,,,,,,,,,,,,,,,,,,
1743,0,9,6,247,247,251,246,-6,-0.16,0.03,0.99,-0,-0,-0,0.16,1,0,0,0,0,0,0.0,0.0,0,0.0,0.0,0.0,0,0.0,0.0,0.0,0,0,0,0,0,0,0,0,0,0.0,0.0,0.0,0.0,0,0,0.0,0,0.0,-1,0.0,,0.0,0,0.0,0.029
1763,0,,,247,247,251,246,,-0.16,0.03,0.99,-0,-0,-0,0.16,,0,0,0,0,0,0.0,0.0,0,0.0,0.0,0.0,0,0.0,0.0,0.0,0,0,0,0,0,,,,,,,,,,,,,,,,,,,,
1783,0,,,247,247,251,246,,-0.16,0.03,0.99,-0,-0,-0,0.16,,0,0,0,0,0,0.0,0.0,0,0.0,0.0,0.0,0,0.0,0.0,0.0,0,0,0,0,0,,,,,,,,,,,,,,,,,,,,
1803,0,,,247,247,251,246,,-0.16,0.03,0.99,-0,-0,-0,0.16,,0,0,0,0,0,0.0,0.0,0,0.0,0.0,0.0,0,0.0,0.0,0.0,0,0,0,0,0,,,,,,,,,,,,,,,,,,,,
1823,0,,,247,247,251,246,,-0.16,0.03,0.99,-0,-0,-0,0.16,,0,0,0,0,0,0.0,0.0,0,0.0,0.0,0.0,0,0.0,0.0,0.0,0,0,0,0,0,,,,,,,,,,,,,,,,,,,,
1843,0,9,7,247,247,251,246,-6,-0.16,0.03,0.99,-0,-0,-0,0.16,1,0,0,0,0,0,0.0,0.0,0,0.0,0.0,0.0,0,0.0,0.0,0.0,0,0,0,0,0,0,0,0,0,0.0,0.0,0.0,0.0,0,0,0.0,0,0.0,-1,0.0,0.0,0.0,0,0.0,0.0307
1863,0,,,247,247,251,246,,-0.16,0.03,0.99,-0,-0,-0,0.16,,0,0,0,0,0,0.0,0.0,0,0.0,0.0,0.0,0,0.0,0.0,0.0,0,0,0,0,0,,,,,,,,,,,,,,,,,,,,
1883,0,,,247,247,251,246,,-0.16,0.03,0.99,-0,-0,-0,0.16,,0,0,0,0,0,0.0,0.0,0,0.0,0.0,0.0,0,0.0,0.0,0.0,0,0,0,0,0,,,,,,,,,,,,,,,,,,,,
1903,0,,,247,247,251,246,,-0.16,0.03,0.99,-0,-0,-0,0.16,,0,0,0,0,0,0.0,0.0,0,0.0,0.0,0.0,0,0.0,0.0,0.0,0,0,0,0,0,,,,,,,,,,,,,,,,,,,,
1923,0,,,247,247,251,246,,-0.16,0.03,0.99,-0,-0,-0,0.16,,0,0,0,0,0,0.0,0.0,0,0.0,0.0,0.0,0,0.0,0.0,0.0,0,0,0,0,0,,,,,,,,,,,,,,,,,,,,
1943,0,9,5,247,247,251,246,-6,-0.16,0.03,0.99,-0,-0,-0,0.16,1,0,0,0,0,0,0.0,0.0,0,0.0,0.0,0.0,0,0.0,0.0,0.0,0,0,0,0,0,0,0,0,0,0.0,0.0,0.0,0.0,0,0,0.0,0,0.0,-1,0.0,,0.0,0,0.0,0.0324
1963,0,,,247,247,251,246,,-0.16,0.03,0.99,-0,-0,-0,0.16,,0,0,0,0,0,0.0,0.0,0,0.0,0.0,0.0,0,0.0,0.0,0.0,0,0,0,0,0,,,,,,,,,,,,,,,,,,,,
1983,0,,,247,247,251,246,,-0.16,0.03,0.99,-0,-0,-0,0.16,,0,0,0,0,0,0.0,0.0,0,0.0,0.0,0.0,0,0.0,0.0,0.0,0,0,0,0,0,,,,,,,,,,,,,,,,,,,,
2003,0,,,247,247,251,246,,-0.16,0.03,0.99,-0,-0,-0,0.16,,0,0,0,0,0,0.0,0.0,0,0.0,0.0,0.0,0,0.0,0.0,0.0,0,0,0,0,0,,,,,,,,,,,,,,,,,,,,
2023,0,,,247,247,251,246,,-0.16,0.03,0.99,-0,-0,-0,0.16,,0,0,0,0,0,0.0,0.0,0,0.0,0.0,0.0,0,0.0,0.0,0.0,0,0,0,0,0,,,,,,,,,,,,,,,,,,,,
2043,0,9,7,247,247,251,246,-5,-0.16,0.03,0.99,-0,-0,-0,0.16,1,0,0,0,0,0,0.0,0.0,0,0.0,0.0,0.0,0,0.0,0.0,0.0,0,0,0,0,0,0,0,0,0,0.0,0.0,0.0,0.0,0,0,0.0,0,0.0,-1,0.0,0.0,0.0,0,0.0,0.034
2063,0,,,247,247,251,246,,-0.16,0.03,0.99,-0,0,-0,0.16,,0,0,0,0,0,0.0,0.0,0,0.0,0.0,0.0,0,0.0,0.0,0.0,0,0,0,0,0,,,,,,,,,,,,,,,,,,,,
2083,0,,,247,247,251,246,,-0.16,0.03,0.99,-0,-0,-0,0.16,,0,0,0,0,0,0.0,0.0,0,0.0,0.0,0.0,0,0.0,0.0,0.0,0,0,0,0,0,,,,,,,,,,,,,,,,,,,,
2103,0,,,247,247,251,246,,-0.16,0.03,0.99,-0,-0,-0,0.16,,0,0,0,0,0,0.0,0.0,0,0.0,0.0,0.0,0,0.0,0.0,0.0,0,0,0,0,0,,,,,,,,,,,,,,,,,,,,
2123,0,,,247,247,251,246,,-0.16,0.03,0.99,-0,-0,-0,0.16,,0,0,0,0,0,0.0,0.0,0,0.0,0.0,0.0,0,0.0,0.0,0.0,0,0,0,0,0,,,,,,,,,,,,,,,,,,,,
2143,0,8,6,247,247,251,246,-6,-0.16,0.03,0.99,-0,-0,-0,0.16,1,0,0,0,0,0,0.0,0.0,0,0.0,0.0,0.0,0,0.0,0.0,0.0,0,0,0,0,0,0,0,0,0,0.0,0.0,0.0,0.0,0,0,0.0,0,0.0,-1,0.0,,0.0,0,0.0,0.0357
2163,0,,,247,247,251,246,,-0.16,0.03,0.99,-0,-0,-0,0.16,,0,0,0,0,0,0.0,0.0,0,0.0,0.0,0.0,0,0.0,0.0,0.0,0,0,0,0,0,,,,,,,,,,,,,,,,,,,,
2183,0,,,247,247,251,246,,-0.16,0.03,0.99,-0,-0,-0,0.16,,83,0,4,30,99,0.501,0.0,116,4.87,12.7,0.0,1,0.0,0.0,0.0,0,0,1,1,0,,,,,,,,,,,,,,,,,,,,
2203,0,,,247,247,251,246,,-0.16,0.03,0.99,-0,-0,-0,0.16,,83,0,4,30,99,0.501,0.0,116,4.86,12.7,0.0,1,0.0,0.0,0.0,0,0,1,1,0,,,,,,,,,,,,,,,,,,,,
2223,0,,,247,247,251,246,,-0.16,0.03,0.99,-0,-0,-0,0.16,,83,0,4,30,99,0.501,0.0,116,4.86,12.7,0.0,1,0.0,0.0,0.0,0,0,1,1,0,,,,,,,,,,,,,,,,,,,,
2243,0,9,5,247,247,251,246,-7,-0.16,0.03,0.99,-0,-0,-0,0.16,1,83,0,4,30,99,0.501,0.0,116,4.86,12.7,0.0,1,0.0,0.0,0.0,0,0,1,1,0,0,250,250,0,0.0,0.0,0.0,0.0,0,0,0.0,0,0.0,-1,0.0,0.0,0.0,0,0.0,0.0374
2263,0,,,247,247,251,246,,-0.16,0.03,0.99,-0,-0,-0,0.16,,83,0,4,30,99,0.501,0.0,116,4.85,12.7,0.0,1,0.0,0.0,0.0,0,0,1,1,0,,,,,,,,,,,,,,,,,,,,
2283,0,,,247,247,251,246,,-0.16,0.03,0.99,-0,-0,-0,0.16,,83,0,4,30,99,0.501,0.0,116,4.86,12.7,0.0,1,0.0,0.0,0.0,0,0,1,1,0,,,,,,,,,,,,,,,,,,,,
2303,0,,,247,247,251,246,,-0.16,0.03,0.99,-0,-0,-0,0.16,,83,0,4,30,99,0.501,0.0,116,4.86,12.7,0.0,1,0.0,0.0,0.0,0,0,1,1,0,,,,,,,,,,,,,,,,,,,,
2323,0,,,247,247,251,246,,-0.16,0.03,0.99,-0,-0,-0,0.16,,83,0,4,30,99,0.501,0.0,116,4.86,12.7,0.0,1,0.0,0.0,0.0,0,0,1,1,0,,,,,,,,,,,,,,,,,,,,
2343,0,9,7,247,247,251,246,-6,-0.16,0.03,0.99,-0,-0,-0,0.16,1,83,0,4,30,99,0.501,0.0,116,4.87,12.7,0.0,1,0.0,0.0,0.0,0,0,1,1,0,0,250,250,0,0.0,0.0,0.0,0.0,0,0,0.0,0,0.0,-1,0.0,,0.0,0,0.0,0.0391
2363,0,,,247,247,251,246,,-0.16,0.03,0.99,-0,-0,-0,0.16,,83,0,4,30,99,0.502,0.0,116,4.85,12.7,0.0,1,0.0,0.0,0.0,0,0,1,1,0,,,,,,,,,,,,,,,,,,,,
2383,0,,,247,247,251,246,,-0.16,0.03,0.99,-0,-0,-0,0.16,,83,0,4,30,99,0.505,0.0,116,4.87,12.7,0.0,1,0.0,0.0,0.0,0,0,1,1,0,,,,,,,,,,,,,,,,,,,,
2403,0,,,247,247,251,246,,-0.16,0.03,0.99,-0,-0,-0,0.16,,83,0,4,30,99,0.509,0.0,116,4.86,12.7,0.0,1,0.0,0.0,0.0,0,0,1,1,0,,,,,,,,,,,,,,,,,,,,
2423,0,,,247,247,251,246,,-0.16,0.03,0.99,-0,-0,-0,0.16,,83,0,4,30,99,0.512,0.0,116,4.86,12.7,0.0,1,0.0,0.0,0.0,0,0,1,1,0,,,,,,,,,,,,,,,,,,,,
2443,0,8,6,247,247,251,246,-6,-0.16,0.03,0.99,-0,-0,-0,0.16,1,83,0,4,30,99,0.515,0.0,116,4.86,12.7,0.0,1,0.0,0.0,0.0,0,0,1,1,0,0,250,250,0,0.0,0.0,0.0,0.0,0,0,0.0,0,0.0,-1,0.0,0.0,0.0,0,0.0,0.0407
2463,0,,,247,247,251,246,,-0.16,0.03,0.99,-0,-0,-0,0.16,,83,0,4,30,99,0.517,0.0,116,4.86,12.7,0.0,1,0.0,0.0,0.0,0,0,1,1,0,,,,,,,,,,,,,,,,,,,,
2483,0,,,247,247,251,246,,-0.16,0.03,0.99,-0,-0,-0,0.16,,83,0,4,30,99,0.52,0.0,116,4.85,12.7,0.0,1,0.0,0.0,0.0,0,0,1,1,0,,,,,,,,,,,,,,,,,,,,
2503,0,,,247,247,251,246,,-0.16,0.03,0.99,-0,-0,-0,0.16,,83,0,4,30,99,0.522,0.0,116,4.86,12.7,0.0,1,0.0,0.0,0.0,0,0,1,1,0,,,,,,,,,,,,,,,,,,,,
2523,0,,,247,247,251,246,,-0.16,0.03,0.99,-0,-0,-0,0.16,,83,0,4,30,99,0.525,0.0,116,4.86,12.7,0.0,1,0.0,0.0,0.0,0,0,1,1,0,,,,,,,,,,,,,,,,,,,,
2543,0,8,6,247,247,251,246,-6,-0.16,0.03,0.99,-0,-0,-0,0.16,1,83,0,4,30,99,0.53,0.0,116,4.86,12.6,0.0,1,0.0,0.0,0.0,0,0,1,1,0,0,250,250,0,0.0,0.0,0.0,0.0,0,0,0.0,0,0.0,-1,0.0,,0.0,0,0.0,0.0424
2563,0,,,247,247,251,246,,-0.16,0.03,0.99,-0,-0,-0,0.16,,83,0,4,30,99,0.534,0.0,116,4.85,12.6,0.0,1,0.0,0.0,0.0,0,0,1,1,0,,,,,,,,,,,,,,,,,,,,
2583,0,,,247,247,251,246,,-0.16,0.03,0.99,-0,-0,-0,0.16,,83,0,4,30,99,0.539,0.0,116,4.85,12.6,0.0,1,0.0,0.0,0.0,0,0,1,1,0,,,,,,,,,,,,,,,,,,,,
2603,0,,,247,247,251,246,,-0.16,0.03,0.99,-0,-0,-0,0.16,,83,0,4,30,99,0.542,0.0,116,4.85,12.6,0.0,1,0.0,0.0,0.0,0,0,1,1,0,,,,,,,,,,,,,,,,,,,,
2623,0,,,247,247,251,246,,-0.16,0.03,0.99,-0,-0,-0,0.16,,83,0,4,30,99,0.544,0.0,116,4.87,12.6,0.0,1,0.0,0.0,0.0,0,0,1,1,0,,,,,,,,,,,,,,,,,,,,
2643,0,8,6,247,247,251,246,-6,-0.16,0.03,0.99,-0,-0,-0,0.16,1,83,0,4,30,99,0.545,0.0,116,4.83,12.6,0.0,1,0.0,0.0,0.0,0,0,1,1,0,0,250,250,0,0.0,0.0,0.0,0.0,0,0,0.0,0,0.0,-1,0.0,0.0,0.0,0,0.0,0.044
2663,0,,,247,247,251,246,,-0.16,0.03,0.99,-0,-0,-0,0.16,,83,0,4,30,99,0.546,0.0,116,4.84,12.6,0.0,1,0.0,0.0,0.0,0,0,1,1,0,,,,,,,,,,,,,,,,,,,,
2683,0,,,247,246,251,246,,-0.16,0.03,0.99,-0,-0,-0,0.16,,83,0,4,30,99,0.547,0.0,116,4.86,12.6,0.0,1,0.0,0.0,0.0,0,0,1,1,0,,,,,,,,,,,,,,,,,,,,
2703,0,,,247,247,251,246,,-0.16,0.03,0.99,-0,-0,-0,0.16,,83,0,4,30,99,0.548,0.0,116,4.86,12.6,0.0,1,0.0,0.0,0.0,0,0,1,1,0,,,,,,,,,,,,,,,,,,,,
2723,0,,,247,247,251,246,,-0.16,0.03,0.99,-0,-0,-0,0.16,,83,0,4,30,99,0.55,0.0,116,4.86,12.6,0.0,1,0.0,0.0,0.0,0,0,1,1,0,,,,,,,,,,,,,,,,,,,,
2743,0,8,6,247,247,251,246,-6,-0.16,0.03,0.99,-0,-0,-0,0.16,1,83,0,4,30,99,0.551,0.0,116,4.86,12.6,0.0,1,0.0,0.0,0.0,0,0,1,1,0,0,250,250,0,0.0,0.0,0.0,0.0,0,0,0.0,0,0.0,-1,0.0,,0.0,0,0.0,0.0457
2763,0,,,247,247,251,246,,-0.16,0.03,0.98,-0,-0,-0,0.16,,83,0,4,30,99,0.552,0.0,116,4.86,12.6,0.0,1,0.0,0.0,0.0,0,0,1,1,0,,,,,,,,,,,,,,,,,,,,
2783,0,,,247,247,251,246,,-0.16,0.03,0.99,-0,-0,-0,0.16,,83,0,4,30,99,0.551,0.0,116,4.85,12.6,0.0,1,0.0,0.0,0.0,0,0,1,1,0,,,,,,,,,,,,,,,,,,,,
2803,0,,,247,247,251,246,,-0.16,0.03,0.99,-0,-0,-0,0.16,,83,0,4,30,99,0.552,0.0,116,4.86,12.6,0.0,1,0.0,0.0,0.0,0,0,1,1,0,,,,,,,,,,,,,,,,,,,,
2823,0,,,247,247,251,246,,-0.16,0.03,0.99,-0,-0,-0,0.16,,83,0,4,30,99,0.552,0.0,116,4.86,12.6,0.0,1,0.0,0.0,0.0,0,0,1,1,0,,,,,,,,,,,,,,,,,,,,
2843,0,8,6,247,247,251,246,-6,-0.16,0.03,0.99,-0,-0,-0,0.16,1,83,0,4,30,99,0.552,0.0,116,4.84,12.6,0.0,1,0.0,0.0,0.0,0,0,1,1,0,0,250,250,0,0.0,0.0,0.0,0.0,0,0,0.0,0,0.0,-1,0.0,0.0,0.0,0,0.0,0.0474
2863,0,,,247,247,251,246,,-0.16,0.03,0.99,-0,-0,-0,0.16,,83,0,4,30,99,0.551,0.0,116,4.85,12.7,0.0,1,0.0,0.0,0.0,0,0,1,1,0,,,,,,,,,,,,,,,,,,,,
2883,0,,,247,247,251,246,,-0.16,0.03,0.99,-0,-0,-0,0.16,,83,0,4,30,99,0.55,0.0,116,4.85,12.7,0.0,1,0.0,0.0,0.0,0,0,1,1,0,,,,,,,,,,,,,,,,,,,,
2903,0,,,247,247,251,246,,-0.16,0.03,0.99,-0,-0,-0,0.16,,83,0,4,30,99,0.55,0.0,116,4.83,12.7,0.0,1,0.0,0.0,0.0,0,0,1,1,0,,,,,,,,,,,,,,,,,,,,
2923,0,,,247,247,251,246,,-0.16,0.03,0.99,-0,-0,-0,0.16,,83,0,4,30,99,0.549,0.0,116,4.85,12.7,0.0,1,0.0,0.0,0.0,0,0,1,1,0,,,,,,,,,,,,,,,,,,,,
2943,0,9,6,247,247,251,246,-6,-0.16,0.03,0.99,-0,-0,-0,0.16,1,83,0,4,30,99,0.55,0.0,116,4.85,12.7,0.0,1,0.0,0.0,0.0,0,0,1,1,0,0,250,250,0,0.0,0.0,0.0,0.0,0,0,0.0,0,0.0,-1,0.0,,0.0,0,0.0,0.049
2963,0,,,247,247,251,246,,-0.16,0.03,0.99,-0,-0,-0,0.16,,83,0,4,30,99,0.549,0.0,116,4.85,12.7,0.0,1,0.0,0.0,0.0,0,0,1,1,0,,,,,,,,,,,,,,,,,,,,
2983,0,,,247,247,251,246,,-0.16,0.03,0.99,-0,-0,-0,0.16,,83,0,4,30,99,0.55,0.0,116,4.85,12.7,0.0,1,0.0,0.0,0.0,0,0,1,1,0,,,,,,,,,,,,,,,,,,,,
3003,0,,,247,247,251,246,,-0.16,0.03,0.99,-0,-0,-0,0.16,,83,0,4,30,99,0.549,0.0,116,4.86,12.7,0.0,1,0.0,0.0,0.0,0,0,1,1,0,,,,,,,,,,,,,,,,,,,,
3023,0,,,247,247,251,246,,-0.16,0.03,0.99,-0,-0,-0,0.16,,83,0,4,30,99,0.549,0.0,116,4.84,12.7,0.0,1,0.0,0.0,0.0,0,0,1,1,0,,,,,,,,,,,,,,,,,,,,
3043,0,8,5,247,247,251,246,-6,-0.16,0.03,0.99,-0,-0,-0,0.16,1,83,0,4,30,99,0.55,0.0,116,4.87,12.7,0.0,1,0.0,0.0,0.0,0,0,1,1,0,0,250,250,0,0.0,0.0,0.0,0.0,0,0,0.0,0,0.0,-1,0.0,0.0,0.0,0,0.0,0.0507
3063,0,,,247,247,251,246,,-0.16,0.03,0.99,-0,-0,-0,0.16,,83,0,4,30,99,0.55,0.0,116,4.86,12.7,0.0,1,0.0,0.0,0.0,0,0,1,1,0,,,,,,,,,,,,,,,,,,,,
3083,0,,,247,247,251,246,,-0.16,0.03,0.99,-0,-0,-0,0.16,,83,0,4,30,99,0.551,0.0,116,4.85,12.7,0.0,1,0.0,0.0,0.0,0,0,1,1,0,,,,,,,,,,,,,,,,,,,,
3103,0,,,247,247,251,246,,-0.16,0.03,0.99,-0,-0,-0,0.16,,83,0,4,30,99,0.553,0.0,116,4.86,12.7,0.0,1,0.0,0.0,0.0,0,0,1,1,0,,,,,,,,,,,,,,,,,,,,
3123,0,,,247,247,251,246,,-0.16,0.03,0.99,-0,-0,-0,0.16,,83,0,4,30,99,0.554,0.0,116,4.82,12.7,0.0,1,0.0,0.0,0.0,0,0,1,1,0,,,,,,,,,,,,,,,,,,,,
3143,0,9,4,247,247,251,246,-5,-0.16,0.03,0.99,-0,-0,-0,0.16,1,83,0,4,30,99,0.556,0.0,116,4.86,12.7,0.0,1,0.0,0.0,0.0,0,0,1,1,0,0,250,250,0,0.0,0.0,0.0,0.0,0,0,0.0,0,0.0,-1,0.0,,0.0,0,0.0,0.0524
3163,0,,,247,247,251,246,,-0.16,0.03,0.99,-0,-0,-0,0.16,,83,0,4,30,99,0.557,0.0,116,4.86,12.7,0.0,1,0.0,0.0,0.0,0,0,1,1,0,,,,,,,,,,,,,,,,,,,,
3183,0,,,247,247,251,246,,-0.16,0.03,0.99,-0,-0,-0,0.16,,83,0,4,30,99,0.559,0.0,116,4.85,12.7,0.0,1,0.0,0.0,0.0,0,0,1,0,0,,,,,,,,,,,,,,,,,,,,
3203,0,,,247,247,251,246,,-0.16,0.03,0.99,-0,-0,-0,0.16,,83,0,4,30,99,0.561,0.0,116,4.8,12.9,0.0,1,0.0,0.0,0.0,0,0,1,0,0,,,,,,,,,,,,,,,,,,,,
3223,0,,,247,247,251,246,,-0.16,0.03,0.99,-0,-0,-0,0.16,,83,0,4,30,99,0.563,0.0,116,4.67,12.8,0.0,1,0.0,0.0,0.0,0,0,1,0,0,,,,,,,,,,,,,,,,,,,,
3243,0,9,6,247,247,251,246,-6,-0.16,0.03,0.99,-0,-0,-0,0.16,1,83,0,4,30,99,0.566,0.0,116,3.79,12.8,0.0,1,0.0,0.0,0.0,0,0,1,0,0,0,250,250,0,0.0,0.0,0.0,0.0,0,0,0.0,0,0.0,-1,0.0,0.0,0.0,0,0.0,0.054
3263,0,,,247,247,251,246,,-0.16,0.03,0.99,-0,-0,-0,0.16,,83,0,4,30,99,0.569,0.0,116,3.41,12.8,0.0,1,0.0,0.0,0.0,0,0,1,0,0,,,,,,,,,,,,,,,,,,,,
3283,0,,,247,247,251,246,,-0.16,0.03,0.99,-0,-0,-0,0.16,,83,0,4,30,99,0.57,0.0,116,3.19,12.8,0.0,1,0.0,0.0,0.0,0,0,1,0,0,,,,,,,,,,,,,,,,,,,,
3303,0,,,247,247,251,246,,-0.16,0.03,0.99,-0,-0,-0,0.16,,83,0,4,30,99,0.573,0.0,116,3.01,12.8,0.0,1,0.0,0.0,0.0,0,0,1,0,0,,,,,,,,,,,,,,,,,,,,
3323,0,,,247,247,251,246,,-0.16,0.03,0.99,-0,-0,-0,0.16,,83,0,4,30,99,0.574,0.0,116,2.86,12.8,0.0,1,0.0,0.0,0.0,0,0,1,0,0,,,,,,,,,,,,,,,,,,,,
3343,0,9,5,247,247,251,246,-6,-0.16,0.03,0.99,-0,-0,-0,0.16,1,83,0,4,30,99,0.576,0.0,116,2.73,12.8,0.0,1,0.0,0.0,0.0,0,0,1,0,0,0,250,250,0,0.0,0.0,0.0,0.0,0,0,0.0,0,0.0,-1,0.0,,0.0,0,0.0,0.0557
3363,0,,,247,247,251,246,,-0.16,0.03,0.99,-0,-0,-0,0.16,,83,0,4,30,99,0.578,0.0,116,2.63,12.9,0.0,1,0.0,0.0,0.0,0,0,1,0,0,,,,,,,,,,,,,,,,,,,,
3383,0,,,247,247,251,246,,-0.16,0.03,0.99,-0,-0,-0,0.16,,83,0,4,30,99,0.58,0.0,116,2.54,12.9,0.0,1,0.0,0.0,0.0,0,0,1,0,0,,,,,,,,,,,,,,,,,,,,
3403,0,,,247,247,251,246,,-0.16,0.03,0.99,-0,-0,-0,0.16,,83,0,4,30,99,0.582,0.0,116,2.45,12.8,0.0,1,0.0,0.0,0.0,0,0,1,0,0,,,,,,,,,,,,,,,,,,,,
3423,0,,,247,247,251,246,,-0.16,0.03,0.99,-0,-0,-0,0.16,,83,0,4,30,99,0.584,0.0,116,2.38,12.8,0.0,1,0.0,0.0,0.0,0,0,1,0,0,,,,,,,,,,,,,,,,,,,,
3443,0,9,7,247,247,251,246,-6,-0.16,0.03,0.99,-0,-0,-0,0.16,1,83,0,4,30,99,0.586,0.0,116,2.32,12.8,0.0,1,0.0,0.0,0.0,0,0,1,0,0,0,250,250,0,0.0,0.0,0.0,0.0,0,0,0.0,0,0.0,-1,0.0,0.0,0.0,0,0.0,0.0574
3463,0,,,247,247,251,246,,-0.16,0.03,0.99,-0,-0,-0,0.16,,83,0,4,30,99,0.588,0.0,116,2.26,12.8,0.0,1,0.0,0.0,0.0,0,0,1,0,0,,,,,,,,,,,,,,,,,,,,
3483,0,,,247,247,251,246,,-0.16,0.03,0.99,-0,-0,-0,0.16,,83,0,4,30,99,0.589,0.0,116,2.21,12.8,0.0,1,0.0,0.0,0.0,0,0,1,0,0,,,,,,,,,,,,,,,,,,,,
3503,0,,,247,247,251,246,,-0.16,0.03,0.99,-0,-0,-0,0.16,,83,0,4,30,99,0.59,0.0,116,2.16,12.8,0.0,1,0.0,0.0,0.0,0,0,1,0,0,,,,,,,,,,,,,,,,,,,,
3523,0,,,247,247,251,246,,-0.16,0.03,0.99,-0,-0,-0,0.16,,83,0,4,30,99,0.592,0.0,116,2.11,12.8,0.0,1,0.0,0.0,0.0,0,0,1,0,0,,,,,,,,,,,,,,,,,,,,
3543,0,9,7,247,247,251,246,-6,-0.16,0.03,0.99,-0,-0,-0,0.16,1,83,0,4,30,99,0.592,0.0,116,2.08,12.9,0.0,1,0.0,0.0,0.0,0,0,1,0,0,0,250,250,0,0.0,0.0,0.0,0.0,0,0,0.0,0,0.0,-1,0.0,,0.0,0,0.0,0.059
3563,0,,,247,247,251,246,,-0.16,0.03,0.99,-0,-0,-0,0.16,,83,0,4,30,99,0.594,0.0,116,2.03,12.8,0.0,1,0.0,0.0,0.0,0,0,1,0,0,,,,,,,,,,,,,,,,,,,,
3583,0,,,247,246,251,246,,-0.16,0.03,0.99,-0,-0,-0,0.16,,83,0,4,30,99,0.597,0.0,116,2.0,12.8,0.0,1,0.0,0.0,0.0,0,0,1,0,0,,,,,,,,,,,,,,,,,,,,
3603,0,,,247,247,251,246,,-0.16,0.03,0.99,-0,-0,-0,0.16,,83,0,4,30,99,0.599,0.0,116,1.97,12.8,0.0,1,0.0,0.0,0.0,0,0,1,0,0,,,,,,,,,,,,,,,,,,,,
3623,0,,,247,247,251,246,,-0.16,0.03,0.99,-0,-0,-0,0.16,,83,0,4,30,99,0.603,0.0,116,1.94,12.8,0.0,1,0.0,0.0,0.0,0,0,1,0,0,,,,,,,,,,,,,,,,,,,,
3643,0,8,6,247,247,251,246,-6,-0.16,0.03,0.99,-0,-0,-0,0.17,1,83,0,4,30,99,0.605,0.0,116,1.9,12.8,0.0,1,0.0,0.0,0.0,0,0,1,0,0,0,250,250,0,0.0,0.0,0.0,0.0,0,0,0.0,0,0.0,-1,0.0,0.0,0.0,0,0.0,0.0607
3663,0,,,247,247,251,246,,-0.16,0.03,0.99,-0,-0,-0,0.17,,83,0,4,30,99,0.606,0.0,116,1.88,12.8,0.0,1,0.0,0.0,0.0,0,0,1,0,0,,,,,,,,,,,,,,,,,,,,
3683,0,,,247,247,251,246,,-0.16,0.03,0.99,-0,-0,-0,0.16,,83,0,4,30,99,0.607,0.0,116,1.85,12.8,0.0,1,0.0,0.0,0.0,0,0,1,0,0,,,,,,,,,,,,,,,,,,,,
3703,0,,,247,247,251,246,,-0.16,0.03,0.99,-0,-0,-0,0.16,,83,0,4,30,99,0.607,0.0,116,1.83,12.8,0.0,1,0.0,0.0,0.0,0,0,1,0,0,,,,,,,,,,,,,,,,,,,,
3723,0,,,247,247,251,246,,-0.16,0.03,0.99,-0,-0,-0,0.16,,83,0,4,30,99,0.608,0.0,116,1.8,12.8,0.0,1,0.0,0.0,0.0,0,0,1,0,0,,,,,,,,,,,,,,,,,,,,
3743,0,8,6,247,247,251,246,-6,-0.16,0.03,0.99,-0,-0,-0,0.16,1,83,0,4,30,99,0.61,0.0,116,1.78,12.8,0.0,1,0.0,0.0,0.0,0,0,1,0,0,0,250,250,0,0.0,0.0,0.0,0.0,0,0,0.0,0,0.0,-1,0.0,,0.0,0,0.0,0.0624
3763,0,,,247,247,251,246,,-0.16,0.03,0.99,-0,-0,-0,0.16,,83,0,4,30,99,0.612,0.0,116,1.75,12.8,0.0,1,0.0,0.0,0.0,0,0,1,0,0,,,,,,,,,,,,,,,,,,,,
3783,0,,,247,247,251,246,,-0.16,0.03,0.99,-0,-0,-0,0.16,,83,0,4,30,99,0.613,0.0,116,1.74,12.8,0.0,1,0.0,0.0,0.0,0,0,1,0,0,,,,,,,,,,,,,,,,,,,,
3803,0,,,247,247,251,246,,-0.16,0.03,0.99,-0,-0,-0,0.17,,83,0,4,30,99,0.614,0.0,116,1.73,12.8,0.0,1,0.0,0.0,0.0,0,0,1,0,0,,,,,,,,,,,,,,,,,,,,
3823,0,,,247,247,251,246,,-0.16,0.03,0.99,-0,-0,-0,0.16,,83,0,4,30,99,0.615,0.0,116,1.7,12.8,0.0,1,0.0,0.0,0.0,0,0,1,0,0,,,,,,,,,,,,,,,,,,,,
3843,0,9,4,247,247,251,246,-6,-0.16,0.03,0.99,-0,-0,-0,0.16,1,83,0,4,30,99,0.615,0.0,116,1.69,12.8,0.0,1,0.0,0.0,0.0,0,0,1,0,0,0,250,250,0,0.0,0.0,0.0,0.0,0,0,0.0,0,0.0,-1,0.0,0.0,0.0,0,0.0,0.064
3863,0,,,247,247,251,246,,-0.16,0.03,0.98,-0,-0,-0,0.16,,83,0,4,30,99,0.615,0.0,116,1.67,12.8,0.0,1,0.0,0.0,0.0,0,0,1,0,0,,,,,,,,,,,,,,,,,,,,
3883,0,,,247,247,251,246,,-0.16,0.03,0.98,-0,-0,-0,0.16,,83,0,4,30,99,0.615,0.0,116,1.66,12.9,0.0,1,0.0,0.0,0.0,0,0,1,0,0,,,,,,,,,,,,,,,,,,,,
3903,0,,,247,247,251,246,,-0.16,0.03,0.99,-0,-0,-0,0.16,,83,0,4,30,99,0.615,0.0,116,1.64,12.8,0.0,1,0.0,0.0,0.0,0,0,1,0,0,,,,,,,,,,,,,,,,,,,,
3923,0,,,247,247,251,246,,-0.16,0.03,0.99,-0,-0,-0,0.16,,83,0,4,30,99,0.615,0.0,116,1.61,12.8,0.0,1,0.0,0.0,0.0,0,0,1,0,0,,,,,,,,,,,,,,,,,,,,
3943,0,9,6,247,247,251,246,-6,-0.16,0.03,0.99,-0,-0,-0,0.16,1,83,0,4,30,99,0.615,0.0,116,1.61,12.8,0.0,1,0.0,0.0,0.0,0,0,1,0,0,0,250,250,0,0.0,0.0,0.0,0.0,0,0,0.0,0,0.0,-1,0.0,,0.0,0,0.0,0.0657
3963,0,,,247,247,251,246,,-0.16,0.03,0.99,-0,-0,-0,0.16,,83,0,4,30,99,0.615,0.0,116,1.58,12.8,0.0,1,0.0,0.0,0.0,0,0,1,0,0,,,,,,,,,,,,,,,,,,,,
3983,0,,,247,247,251,246,,-0.16,0.03,0.99,-0,-0,-0,0.16,,83,0,4,30,99,0.615,0.0,116,1.58,12.8,0.0,1,0.0,0.0,0.0,0,0,1,0,0,,,,,,,,,,,,,,,,,,,,
4003,0,,,247,247,251,246,,-0.16,0.03,0.99,-0,-0,-0,0.16,,83,0,4,30,99,0.616,0.0,117,1.56,12.8,0.0,1,0.0,0.0,0.0,0,0,1,0,0,,,,,,,,,,,,,,,,,,,,
4023,0,,,247,247,251,246,,-0.16,0.03,0.99,-0,-0,-0,0.16,,83,0,4,30,99,0.616,0.0,117,1.56,12.8,0.0,1,0.0,0.0,0.0,0,0,1,0,0,,,,,,,,,,,,,,,,,,,,
4043,0,8,6,247,247,251,246,-6,-0.16,0.03,0.99,-0,-0,-0,0.16,1,83,0,4,30,99,0.616,0.0,117,1.55,12.8,0.0,1,0.0,0.0,0.0,0,0,1,0,0,0,250,250,0,0.0,0.0,0.0,0.0,0,0,0.0,0,0.0,-1,0.0,0.0,0.0,0,0.0,0.0674
4063,0,,,247,247,251,246,,-0.16,0.03,0.99,-0,-0,-0,0.16,,83,0,4,30,99,0.617,0.0,117,1.53,12.8,0.0,1,0.0,0.0,0.0,0,0,1,0,0,,,,,,,,,,,,,,,,,,,,
4083,0,,,247,247,251,246,,-0.16,0.03,0.99,-0,-0,-0,0.16,,83,0,4,30,99,0.617,0.0,117,1.52,12.8,0.0,1,0.0,0.0,0.0,0,0,1,0,0,,,,,,,,,,,,,,,,,,,,
4103,0,,,247,246,251,246,,-0.16,0.03,0.99,-0,-0,-0,0.16,,83,0,4,30,99,0.617,0.0,117,1.51,12.8,0.0,1,0.0,0.0,0.0,0,0,1,0,0,,,,,,,,,,,,,,,,,,,,
4123,0,,,247,247,251,246,,-0.16,0.03,0.99,-0,-0,-0,0.16,,83,0,4,30,99,0.617,0.0,117,1.51,12.8,0.0,1,0.0,0.0,0.0,0,0,1,0,0,,,,,,,,,,,,,,,,,,,,
4143,0,8,6,247,247,251,246,-6,-0.16,0.03,0.99,-0,-0,-0,0.16,1,83,0,4,30,99,0.618,0.0,117,1.51,12.8,0.0,1,0.0,0.0,0.0,0,0,1,0,0,0,250,250,0,0.0,0.0,0.0,0.0,0,0,0.0,0,0.0,-1,0.0,,0.0,0,0.0,0.069
4163,0,,,247,247,251,246,,-0.16,0.03,0.99,-0,-0,-0,0.16,,83,0,4,30,99,0.618,0.0,117,1.47,12.8,0.0,1,0.0,0.0,0.0,0,0,1,0,0,,,,,,,,,,,,,,,,,,,,
4183,0,,,247,246,251,246,,-0.16,0.03,0.99,-0,-0,-0,0.16,,83,0,4,30,99,0.618,0.0,117,1.48,12.9,0.0,1,0.0,0.0,0.0,0,0,1,0,0,,,,,,,,,,,,,,,,,,,,
4203,0,,,247,247,251,246,,-0.16,0.03,0.99,-0,-0,-0,0.16,,83,0,4,30,99,0.618,0.0,117,1.47,12.8,0.0,1,0.0,0.0,0.0,0,0,1,0,0,,,,,,,,,,,,,,,,,,,,
4223,0,,,247,247,251,246,,-0.16,0.03,0.99,-0,-0,-0,0.16,,83,0,4,30,99,0.618,0.0,117,1.45,12.9,0.0,1,0.0,0.0,0.0,0,0,1,0,0,,,,,,,,,,,,,,,,,,,,
4243,0,8,6,247,247,251,246,-6,-0.16,0.03,0.99,-0,-0,-0,0.16,1,83,0,4,30,99,0.618,0.0,117,1.45,12.9,0.0,1,0.0,0.0,0.0,0,0,1,0,0,0,250,250,0,0.0,0.0,0.0,0.0,0,0,0.0,0,0.0,-1,0.0,0.0,0.0,0,0.0,0.0707
4263,0,,,247,247,251,246,,-0.16,0.03,0.99,-0,-0,-0,0.16,,83,0,4,30,99,0.617,0.0,117,1.45,12.8,0.0,1,0.0,0.0,0.0,0,0,1,0,0,,,,,,,,,,,,,,,,,,,,
4283,0,,,247,247,251,246,,-0.16,0.03,0.99,-0,-0,-0,0.16,,83,0,4,30,99,0.617,0.0,117,1.42,12.8,0.0,1,0.0,0.0,0.0,0,0,1,0,0,,,,,,,,,,,,,,,,,,,,
4303,0,,,247,247,251,246,,-0.16,0.03,0.99,-0,-0,-0,0.16,,83,0,4,30,99,0.617,0.0,117,1.42,12.8,0.0,1,0.0,0.0,0.0,0,0,1,0,0,,,,,,,,,,,,,,,,,,,,
4323,0,,,247,247,251,246,,-0.16,0.03,0.99,-0,-0,-0,0.16,,83,0,4,30,99,0.617,0.0,117,1.42,12.8,0.0,1,0.0,0.0,0.0,0,0,1,0,0,,,,,,,,,,,,,,,,,,,,
4343,0,9,6,247,247,251,246,-6,-0.16,0.03,0.99,-0,-0,-0,0.16,1,83,0,4,30,99,0.617,0.0,117,1.41,12.8,0.0,1,0.0,0.0,0.0,0,0,1,0,0,0,250,250,0,0.0,0.0,0.0,0.0,0,0,0.0,0,0.0,-1,0.0,,0.0,0,0.0,0.0724
4363,0,,,247,247,251,246,,-0.16,0.03,0.99,-0,-0,-0,0.16,,83,0,4,30,99,0.617,0.0,117,1.4,12.9,0.0,1,0.0,0.0,0.0,0,0,1,0,0,,,,,,,,,,,,,,,,,,,,
4383,0,,,247,247,251,246,,-0.16,0.03,0.99,-0,-0,-0,0.16,,83,0,4,30,99,0.617,0.0,116,1.4,12.9,0.0,1,0.0,0.0,0.0,0,0,1,0,0,,,,,,,,,,,,,,,,,,,,
4403,0,,,247,247,251,246,,-0.16,0.03,0.99,-0,-0,-0,0.16,,83,0,4,30,99,0.617,0.0,116,1.4,12.8,0.0,1,0.0,0.0,0.0,0,0,1,0,0,,,,,,,,,,,,,,,,,,,,
4423,0,,,247,247,251,246,,-0.16,0.03,0.99,-0,-0,-0,0.16,,83,0,4,30,99,0.617,0.0,116,1.4,12.8,0.0,1,0.0,0.0,0.0,0,0,1,0,0,,,,,,,,,,,,,,,,,,,,
4443,0,9,6,247,247,251,246,-5,-0.16,0.03,0.99,-0,-0,-0,0.16,1,83,0,4,30,99,0.618,0.0,116,1.37,12.8,0.0,1,0.0,0.0,0.0,0,0,1,0,0,0,250,250,0,0.0,0.0,0.0,0.0,0,0,0.0,0,0.0,-1,0.0,0.0,0.0,0,0.0,0.074
4463,0,,,247,247,251,246,,-0.16,0.03,0.99,-0,-0,-0,0.16,,83,0,4,30,99,0.618,0.0,116,1.37,12.8,0.0,1,0.0,0.0,0.0,0,0,1,0,0,,,,,,,,,,,,,,,,,,,,
4483,0,,,247,247,251,246,,-0.16,0.03,0.99,-0,-0,-0,0.16,,83,0,4,30,99,0.618,0.0,116,1.37,12.8,0.0,1,0.0,0.0,0.0,0,0,1,0,0,,,,,,,,,,,,,,,,,,,,
4503,0,,,247,247,251,246,,-0.16,0.03,0.99,-0,-0,-0,0.16,,83,0,4,30,99,0.619,0.0,116,1.37,12.8,0.0,1,0.0,0.0,0.0,0,0,1,0,0,,,,,,,,,,,,,,,,,,,,
4523,0,,,247,247,251,246,,-0.16,0.03,0.99,-0,-0,-0,0.16,,83,0,4,30,99,0.619,0.0,116,1.37,12.8,0.0,1,0.0,0.0,0.0,0,0,1,0,0,,,,,,,,,,,,,,,,,,,,
4543,0,7,6,247,247,251,246,-5,-0.16,0.03,0.99,-0,-0,-0,0.16,1,83,0,4,30,99,0.619,0.0,116,1.34,12.9,0.0,1,0.0,0.0,0.0,0,0,1,0,0,0,250,250,0,0.0,0.0,0.0,0.0,0,0,0.0,0,0.0,-1,0.0,,0.0,0,0.0,0.0757
4563,0,,,247,247,251,246,,-0.16,0.03,0.99,-0,-0,-0,0.16,,83,0,4,30,99,0.619,0.0,116,1.34,12.9,0.0,1,0.0,0.0,0.0,0,0,1,0,0,,,,,,,,,,,,,,,,,,,,
4583,0,,,247,247,251,246,,-0.16,0.03,0.99,-0,-0,-0,0.16,,83,0,4,30,99,0.619,0.0,116,1.34,12.9,0.0,1,0.0,0.0,0.0,0,0,1,0,0,,,,,,,,,,,,,,,,,,,,
4603,0,,,247,247,251,246,,-0.16,0.03,0.99,-0,-0,-0,0.16,,83,0,4,30,99,0.619,0.0,116,1.34,12.8,0.0,1,0.0,0.0,0.0,0,0,1,0,0,,,,,,,,,,,,,,,,,,,,
4623,0,,,247,247,251,246,,-0.16,0.03,0.99,-0,-0,-0,0.16,,83,0,4,30,99,0.62,0.0,116,1.33,12.8,0.0,1,0.0,0.0,0.0,0,0,1,0,0,,,,,,,,,,,,,,,,,,,,
4643,0,9,6,247,247,251,246,-7,-0.16,0.03,0.99,-0,-0,-0,0.16,1,83,0,4,30,99,0.62,0.0,116,1.33,12.8,0.0,1,0.0,0.0,0.0,0,0,1,0,0,0,250,250,0,0.0,0.0,0.0,0.0,0,0,0.0,0,0.0,-1,0.0,0.0,0.0,0,0.0,0.0774
4663,0,,,247,247,251,246,,-0.16,0.03,0.99,-0,-0,-0,0.16,,83,0,4,30,99,0.62,0.0,116,1.31,12.8,0.0,1,0.0,0.0,0.0,0,0,1,0,0,,,,,,,,,,,,,,,,,,,,
4683,0,,,247,247,251,246,,-0.16,0.03,0.99,-0,-0,-0,0.16,,83,0,4,30,99,0.62,0.0,116,1.31,12.8,0.0,1,0.0,0.0,0.0,0,0,1,0,0,,,,,,,,,,,,,,,,,,,,
4703,0,,,247,247,251,246,,-0.16,0.03,0.99,-0,-0,-0,0.16,,83,0,4,30,99,0.62,0.0,116,1.31,12.8,0.0,1,0.0,0.0,0.0,0,0,1,0,0,,,,,,,,,,,,,,,,,,,,
4723,0,,,247,246,251,246,,-0.16,0.03,0.99,-0,-0,-0,0.16,,83,0,4,30,99,0.62,0.0,116,1.31,12.9,0.0,1,0.0,0.0,0.0,0,0,1,0,0,,,,,,,,,,,,,,,,,,,,
4743,0,9,6,247,247,251,246,-6,-0.16,0.03,0.99,-0,-0,-0,0.16,1,83,0,4,30,99,0.62,0.0,116,1.31,12.9,0.0,1,0.0,0.0,0.0,0,0,1,0,0,0,250,250,0,0.0,0.0,0.0,0.0,0,0,0.0,0,0.0,-1,0.0,,0.0,0,0.0,0.079
4763,0,,,247,247,251,246,,-0.16,0.03,0.99,-0,-0,-0,0.16,,83,0,4,30,99,0.62,0.0,116,1.31,12.8,0.0,1,0.0,0.0,0.0,0,0,1,0,0,,,,,,,,,,,,,,,,,,,,
4783,0,,,247,247,251,246,,-0.16,0.03,0.99,-0,-0,-0,0.16,,83,0,4,30,99,0.62,0.0,116,1.28,12.8,0.0,1,0.0,0.0,0.0,0,0,1,0,0,,,,,,,,,,,,,,,,,,,,
4803,0,,,247,247,251,246,,-0.16,0.03,0.99,-0,-0,-0,0.16,,83,0,4,30,99,0.62,0.0,116,1.28,12.8,0.0,1,0.0,0.0,0.0,0,0,1,0,0,,,,,,,,,,,,,,,,,,,,
4823,0,,,247,246,251,246,,-0.16,0.03,0.99,-0,-0,-0,0.16,,83,0,4,30,99,0.621,0.0,116,1.28,12.8,0.0,1,0.0,0.0,0.0,0,0,1,0,0,,,,,,,,,,,,,,,,,,,,
4843,0,9,4,247,247,251,246,-5,-0.16,0.03,0.99,-0,-0,-0,0.16,1,83,0,4,30,99,0.621,0.0,116,1.28,12.8,0.0,1,0.0,0.0,0.0,0,0,1,0,0,0,250,250,0,0.0,0.0,0.0,0.0,0,0,0.0,0,0.0,-1,0.0,0.0,0.0,0,0.0,0.0807
4863,0,,,247,247,251,246,,-0.16,0.03,0.99,-0,-0,-0,0.16,,83,0,4,30,99,0.621,0.0,116,1.28,12.8,0.0,1,0.0,0.0,0.0,0,0,1,0,0,,,,,,,,,,,,,,,,,,,,
4883,0,,,247,246,251,246,,-0.16,0.03,0.99,-0,-0,-0,0.16,,83,0,4,30,99,0.622,0.0,116,1.28,12.8,0.0,1,0.0,0.0,0.0,0,0,1,0,0,,,,,,,,,,,,,,,,,,,,
4903,0,,,247,246,251,246,,-0.16,0.03,0.99,-0,-0,-0,0.16,,83,0,4,30,99,0.622,0.0,116,1.28,12.9,0.0,1,0.0,0.0,0.0,0,0,1,0,0,,,,,,,,,,,,,,,,,,,,
4923,0,,,247,247,251,246,,-0.16,0.03,0.99,-0,-0,-0,0.16,,83,0,4,30,99,0.622,0.0,116,1.28,12.8,0.0,1,0.0,0.0,0.0,0,0,1,0,0,,,,,,,,,,,,,,,,,,,,
4943,0,9,6,247,247,251,246,-6,-0.16,0.03,0.99,-0,-0,-0,0.16,1,83,0,4,30,99,0.621,0.0,116,1.26,12.8,0.0,1,0.0,0.0,0.0,0,0,1,0,0,0,250,250,0,0.0,0.0,0.0,0.0,0,0,0.0,0,0.0,-1,0.0,,0.0,0,0.0,0.0824
4963,0,,,247,247,251,246,,-0.16,0.03,0.99,-0,-0,-0,0.16,,83,0,4,30,99,0.622,0.0,116,1.26,12.8,0.0,1,0.0,0.0,0.0,0,0,1,0,0,,,,,,,,,,,,,,,,,,,,
4983,0,,,247,247,251,246,,-0.16,0.03,0.99,-0,-0,-0,0.16,,83,0,4,30,99,0.622,0.0,116,1.26,12.8,0.0,1,0.0,0.0,0.0,0,0,1,0,0,,,,,,,,,,,,,,,,,,,,
5003,0,,,247,247,251,246,,-0.16,0.03,0.99,-0,-0,-0,0.16,,83,0,4,30,99,0.622,0.0,116,1.26,12.8,0.0,1,0.0,0.0,0.0,0,0,1,0,0,,,,,,,,,,,,,,,,,,,,
5023,0,,,247,247,251,246,,-0.16,0.03,0.99,-0,-0,-0,0.16,,83,0,4,30,99,0.622,0.0,116,1.26,12.8,0.0,1,0.0,0.0,0.0,0,0,1,0,0,,,,,,,,,,,,,,,,,,,,
5043,0,9,5,247,247,251,246,-6,-0.16,0.03,0.99,-0,-0,-0,0.16,1,83,0,4,30,99,0.622,0.0,116,1.26,12.8,0.0,1,0.0,0.0,0.0,0,0,1,0,0,0,250,250,0,0.0,0.0,0.0,0.0,0,0,0.0,0,0.0,-1,0.0,0.0,0.0,0,0.0,0.084
5063,0,,,247,247,251,246,,-0.16,0.03,0.99,-0,-0,-0,0.16,,83,0,4,30,99,0.622,0.0,116,1.26,12.9,0.0,1,0.0,0.0,0.0,0,0,1,0,0,,,,,,,,,,,,,,,,,,,,
5083,0,,,247,247,251,246,,-0.16,0.03,0.99,-0,-0,-0,0.16,,83,0,4,30,99,0.622,0.0,116,1.26,12.9,0.0,1,0.0,0.0,0.0,0,0,1,0,0,,,,,,,,,,,,,,,,,,,,
5103,0,,,247,246,251,246,,-0.16,0.03,0.99,-0,-0,-0,0.16,,83,0,4,30,99,0.622,0.0,116,1.23,12.9,0.0,1,0.0,0.0,0.0,0,0,1,0,0,,,,,,,,,,,,,,,,,,,,
5123,0,,,247,246,251,246,,-0.16,0.03,0.99,-0,-0,-0,0.16,,83,0,4,30,99,0.619,0.0,116,1.23,12.8,0.0,1,0.0,0.0,0.0,0,0,1,0,0,,,,,,,,,,,,,,,,,,,,
5143,0,9,5,247,247,251,246,-7,-0.16,0.03,0.99,-0,-0,-0,0.16,1,83,0,4,30,99,0.619,0.0,116,1.23,12.8,0.0,1,0.0,0.0,0.0,0,0,1,0,0,0,250,250,0,0.0,0.0,0.0,0.0,0,0,0.0,0,0.0,-1,0.0,,0.0,0,0.0,0.0857
5163,0,,,247,247,251,246,,-0.16,0.03,0.99,-0,-0,-0,0.16,,83,0,4,30,99,0.62,0.0,116,1.23,12.8,0.0,1,0.0,0.0,0.0,0,0,1,0,0,,,,,,,,,,,,,,,,,,,,
5183,0,,,247,247,251,246,,-0.16,0.03,0.99,-0,-0,-0,0.16,,83,0,4,30,99,0.621,0.0,116,1.23,12.8,0.0,1,0.0,0.0,0.0,0,0,1,0,0,,,,,,,,,,,,,,,,,,,,
5203,0,,,247,247,251,246,,-0.16,0.03,0.99,-0,-0,-0,0.16,,83,0,4,30,99,0.623,0.0,116,1.23,12.8,0.0,1,0.0,0.0,0.0,0,0,1,0,0,,,,,,,,,,,,,,,,,,,,
5223,0,,,247,247,251,246,,-0.16,0.03,0.99,-0,-0,-0,0.16,,83,0,4,30,99,0.622,0.0,116,1.23,12.8,0.0,1,0.0,0.0,0.0,0,0,1,0,0,,,,,,,,,,,,,,,,,,,,
5243,0,9,5,247,247,251,246,-6,-0.16,0.03,0.99,-0,-0,-0,0.16,1,83,0,4,30,99,0.622,0.0,116,1.23,12.9,0.0,1,0.0,0.0,0.0,0,0,1,0,0,0,250,250,0,0.0,0.0,0.0,0.0,0,0,0.0,0,0.0,-1,0.0,0.0,0.0,0,0.0,0.0874
5263,0,,,247,247,251,246,,-0.16,0.03,0.99,-0,-0,-0,0.16,,83,0,4,30,99,0.621,0.0,116,1.23,12.8,0.0,1,0.0,0.0,0.0,0,0,1,0,0,,,,,,,,,,,,,,,,,,,,
5283,0,,,247,247,251,246,,-0.16,0.03,0.99,-0,-0,-0,0.16,,83,0,4,30,99,0.62,0.0,116,1.23,12.8,0.0,1,0.0,0.0,0.0,0,0,1,0,0,,,,,,,,,,,,,,,,,,,,
5303,0,,,247,247,251,246,,-0.16,0.03,0.99,-0,-0,-0,0.16,,83,0,4,30,99,0.62,0.0,116,1.23,12.8,0.0,1,0.0,0.0,0.0,0,0,1,0,0,,,,,,,,,,,,,,,,,,,,
5323,0,,,247,247,251,246,,-0.16,0.03,0.99,-0,-0,-0,0.16,,83,0,4,30,99,0.62,0.0,116,1.22,12.8,0.0,1,0.0,0.0,0.0,0,0,1,0,0,,,,,,,,,,,,,,,,,,,,
5343,0,9,7,247,247,251,246,-6,-0.16,0.03,0.99,-0,-0,-0,0.16,1,83,0,4,30,99,0.622,0.0,116,1.22,12.8,0.0,1,0.0,0.0,0.0,0,0,1,0,0,0,250,250,0,0.0,0.0,0.0,0.0,0,0,0.0,0,0.0,-1,0.0,,0.0,0,0.0,0.089
5363,0,,,247,247,251,246,,-0.16,0.03,0.99,-0,-0,-0,0.16,,83,0,4,30,99,0.623,0.0,116,1.21,12.8,0.0,1,0.0,0.0,0.0,0,0,1,0,0,,,,,,,,,,,,,,,,,,,,
5383,0,,,247,247,251,246,,-0.16,0.03,0.99,-0,-0,-0,0.16,,83,0,4,30,99,0.624,0.0,116,1.21,12.8,0.0,1,0.0,0.0,0.0,0,0,1,0,0,,,,,,,,,,,,,,,,,,,,
5403,0,,,247,247,251,246,,-0.16,0.03,0.98,-0,-0,-0,0.16,,83,0,4,30,99,0.623,0.0,116,1.2,11.6,0.0,1,0.0,0.0,0.0,0,0,1,0,0,,,,,,,,,,,,,,,,,,,,
5423,0,,,247,247,251,246,,-0.16,0.02,0.99,-0,-0,-0,0.16,,83,0,4,30,99,0.62,0.0,116,1.21,9.8,0.0,1,0.0,0.0,0.0,0,0,1,0,0,,,,,,,,,,,,,,,,,,,,
5443,0,8,6,247,247,251,246,-6,-0.16,0.03,0.99,-0,-0,-0,0.16,1,83,0,4,30,99,0.618,0.0,116,1.21,10.6,0.0,1,0.0,0.0,0.0,0,0,1,0,0,0,250,250,0,0.0,0.0,0.0,0.0,0,0,0.0,0,0.0,-1,0.0,0.0,0.0,0,0.0,0.0907
5463,0,,,247,247,251,246,,-0.16,0.03,0.99,-0,-0,-0,0.17,,83,0,4,30,99,0.616,0.0,116,1.21,10.9,0.0,1,0.0,0.0,0.0,0,0,1,0,0,,,,,,,,,,,,,,,,,,,,
5483,0,,,247,247,251,246,,-0.16,0.03,1.0,-0,-0,-0,0.16,,83,0,4,30,99,0.615,0.0,118,1.21,11.1,0.0,1,0.0,0.0,0.0,0,0,1,0,0,,,,,,,,,,,,,,,,,,,,
5503,0,,,247,248,251,246,,-0.16,0.03,0.99,-0,-0,-0,0.16,,83,0,4,30,99,0.615,0.0,118,1.2,11.1,0.0,1,0.0,0.0,0.0,0,0,1,0,0,,,,,,,,,,,,,,,,,,,,
5523,0,,,247,247,251,246,,-0.16,0.03,1.0,-0,-0,-0,0.16,,83,0,4,30,99,0.615,0.0,118,1.2,11.2,0.0,1,0.0,0.0,0.0,0,0,1,0,0,,,,,,,,,,,,,,,,,,,,
5543,0,9,5,247,247,251,246,-7,-0.16,0.03,1.01,-0,-0,-0,0.16,1,83,0,4,30,99,0.615,0.0,120,1.2,10.9,0.0,1,0.0,0.0,0.0,0,0,1,0,0,0,250,250,0,0.0,0.0,0.0,0.0,0,0,0.0,0,0.0,-1,0.0,,0.0,0,0.0,0.0924
5563,0,,,247,247,251,246,,-0.16,0.03,1.01,-0,-0,-0,0.16,,83,0,4,30,99,0.615,0.0,121,1.2,11.3,0.0,1,0.0,0.0,0.0,0,0,1,0,0,,,,,,,,,,,,,,,,,,,,
5583,0,,,247,247,251,246,,-0.16,0.03,1.0,-0,-0,-0,0.16,,83,0,4,30,99,0.616,0.0,121,1.18,11.6,0.0,1,0.0,0.0,0.0,0,0,1,0,0,,,,,,,,,,,,,,,,,,,,
5603,0,,,247,247,251,246,,-0.16,0.03,0.98,-0,0,-0,0.16,,83,0,4,30,99,0.617,0.0,121,1.18,11.6,0.0,1,0.0,0.0,0.0,0,0,1,0,0,,,,,,,,,,,,,,,,,,,,
5623,0,,,247,247,251,246,,-0.16,0.03,0.99,-0,-0,-0,0.16,,83,0,4,30,99,0.619,0.0,121,1.18,11.3,0.0,1,0.0,0.0,0.0,0,0,1,0,0,,,,,,,,,,,,,,,,,,,,
5643,0,7,6,247,247,251,246,-6,-0.16,0.03,0.99,-0,-0,-0,0.16,1,83,0,4,30,99,0.621,0.0,121,1.18,11.4,0.0,1,0.0,0.0,0.0,0,0,1,0,0,0,250,250,0,0.0,0.0,0.0,0.0,0,0,0.0,0,0.0,-1,0.0,0.0,0.0,0,0.0,0.094
5663,0,,,247,247,251,246,,-0.16,0.03,0.97,-0,-0,-0,0.16,,83,0,4,30,99,0.625,0.0,121,1.18,11.7,0.0,1,0.0,0.0,0.0,0,0,1,0,0,,,,,,,,,,,,,,,,,,,,
5683,0,,,247,247,251,246,,-0.16,0.03,0.98,-0,-0,-0,0.16,,83,0,4,30,99,0.631,0.0,121,1.18,11.6,0.0,1,0.0,0.0,0.0,0,0,1,0,0,,,,,,,,,,,,,,,,,,,,
5703,0,,,247,247,251,246,,-0.16,0.03,0.99,-0,-0,-0,0.16,,83,0,4,30,99,0.636,0.0,121,1.18,11.4,0.0,1,0.0,0.0,0.0,0,0,1,0,0,,,,,,,,,,,,,,,,,,,,
5723,0,,,247,248,251,246,,-0.16,0.03,1.0,-0,-0,-0,0.16,,83,0,4,30,99,0.639,0.0,121,1.18,11.5,0.0,1,0.0,0.0,0.0,0,0,1,0,0,,,,,,,,,,,,,,,,,,,,
5743,0,8,6,247,247,251,246,-5,-0.16,0.03,0.99,-0,-0,-0,0.16,1,83,0,4,30,99,0.641,0.0,122,1.18,11.7,0.0,1,0.0,0.0,0.0,0,0,1,0,0,0,250,250,0,0.0,0.0,0.0,0.0,0,0,0.0,0,0.0,-1,0.0,,0.0,0,0.0,0.0957
5763,0,,,247,247,251,246,,-0.16,0.03,1.0,-0,-0,-0,0.16,,83,0,4,30,98,0.644,0.0,122,1.18,11.6,0.0,1,0.0,0.0,0.0,0,0,1,0,0,,,,,,,,,,,,,,,,,,,,
5783,0,,,247,247,251,246,,-0.16,0.03,1.0,-0,-0,-0,0.16,,83,0,4,30,99,0.646,0.0,122,1.18,11.4,0.0,1,0.0,0.0,0.0,0,0,1,0,0,,,,,,,,,,,,,,,,,,,,
5803,0,,,247,248,251,246,,-0.16,0.03,1.0,-0,-0,-0,0.16,,83,0,4,30,99,0.649,0.0,123,1.18,11.7,0.0,1,0.0,0.0,0.0,0,0,1,0,0,,,,,,,,,,,,,,,,,,,,
5823,0,,,247,247,251,246,,-0.16,0.03,1.0,-0,-0,-0,0.16,,83,0,4,30,99,0.65,0.0,124,1.18,11.7,0.0,1,0.0,0.0,0.0,0,0,1,0,0,,,,,,,,,,,,,,,,,,,,
5843,0,9,6,247,247,251,246,-6,-0.16,0.03,0.99,-0,-0,-0,0.16,1,83,0,4,30,98,0.651,0.0,123,1.18,11.4,0.0,1,0.0,0.0,0.0,0,0,1,0,0,0,250,250,0,0.0,0.0,0.0,0.0,0,0,0.0,0,0.0,-1,0.0,0.0,0.0,0,0.0,0.0974
5863,0,,,247,247,251,246,,-0.16,0.03,0.99,-0,-0,-0,0.16,,83,0,4,30,99,0.651,0.0,123,1.18,11.6,0.0,1,0.0,0.0,0.0,0,0,1,0,0,,,,,,,,,,,,,,,,,,,,
5883,0,,,247,247,251,246,,-0.16,0.03,0.98,-0,-0,-0,0.16,,83,0,4,30,99,0.651,0.0,124,1.17,11.8,0.0,1,0.0,0.0,0.0,0,0,1,0,0,,,,,,,,,,,,,,,,,,,,
5903,0,,,247,247,251,246,,-0.16,0.03,0.99,-0,-0,-0,0.16,,83,0,4,30,98,0.649,0.0,124,1.17,11.7,0.0,1,0.0,0.0,0.0,0,0,1,0,0,,,,,,,,,,,,,,,,,,,,
5923,0,,,247,247,251,246,,-0.16,0.03,0.99,-0,-0,-0,0.16,,83,0,4,30,99,0.646,0.0,124,1.15,11.5,0.0,1,0.0,0.0,0.0,0,0,1,0,0,,,,,,,,,,,,,,,,,,,,
5943,0,7,7,247,247,251,246,-5,-0.16,0.03,0.98,-0,-0,-0,0.16,1,83,0,4,30,99,0.644,0.0,123,1.16,11.7,0.0,1,0.0,0.0,0.0,0,0,1,0,0,0,250,250,0,0.0,0.0,0.0,0.0,0,0,0.0,0,0.0,-1,0.0,,0.0,0,0.0,0.099
5963,0,,,247,247,251,246,,-0.16,0.03,1.0,-0,-0,-0,0.16,,83,0,4,30,99,0.641,0.0,124,1.15,11.8,0.0,1,0.0,0.0,0.0,0,0,1,0,0,,,,,,,,,,,,,,,,,,,,
5983,0,,,247,247,251,246,,-0.16,0.03,1.01,-0,-0,-0,0.16,,83,118,4,30,98,0.639,0.0,124,1.14,11.6,0.0,1,19.3,4.45,0.0,0,0,1,1,0,,,,,,,,,,,,,,,,,,,,
6003,0,,,247,247,251,246,,-0.16,0.03,1.01,-0,-0,-0,0.16,,83,118,4,30,99,0.637,0.0,123,1.59,11.4,0.0,1,19.3,4.45,0.0,0,0,1,1,0,,,,,,,,,,,,,,,,,,,,
6023,0,,,247,247,251,246,,-0.16,0.03,1.01,-0,-0,-0,0.16,,83,118,4,30,99,0.634,0.0,124,4.12,11.6,0.0,1,19.3,2.09,0.0,0,0,1,1,0,,,,,,,,,,,,,,,,,,,,
6043,0,9,4,247,247,251,246,-6,-0.16,0.03,1.01,-0,-0,-0,0.16,1,83,118,4,30,98,0.632,0.0,124,4.83,11.6,0.0,1,19.3,4.45,0.0,0,0,1,1,0,0,250,250,0,0.0,0.0,0.0,0.0,0,0,0.0,0,0.0,-1,0.0,0.0,0.0,0,0.0,0.1007
6063,0,,,247,247,251,246,,-0.16,0.03,1.01,-0,-0,-0,0.16,,83,432,4,30,99,0.629,0.0,122,4.82,11.3,0.0,1,19.3,4.45,0.0,0,0,1,1,0,,,,,,,,,,,,,,,,,,,,
6083,0,,,247,247,251,246,,-0.16,0.03,1.02,-0,-0,-0,0.16,,83,432,4,30,99,0.628,0.0,124,4.85,11.6,0.0,1,19.3,4.45,0.8,0,0,1,1,0,,,,,,,,,,,,,,,,,,,,
6103,0,,,247,247,251,246,,-0.16,0.03,1.02,-0,-0,-0,0.16,,84,598,4,30,98,0.626,0.0,123,4.85,11.7,0.0,1,19.3,4.45,0.8,0,0,1,1,0,,,,,,,,,,,,,,,,,,,,
6123,0,,,247,246,251,246,,-0.16,0.04,1.03,-0,-0,-0,0.16,,83,598,4,30,98,0.625,0.0,129,4.86,11.8,0.0,1,19.3,2.09,0.8,0,0,1,1,0,,,,,,,,,,,,,,,,,,,,
6143,0,9,7,247,247,251,246,-6,-0.16,0.03,1.01,-0,-0,-0,0.16,1,84,795,4,30,97,0.623,0.0,125,4.84,11.8,0.0,1,19.3,4.45,0.8,0,0,1,1,0,0,250,250,0,0.0,0.0,0.0,0.0,0,0,0.0,0,0.0,-1,0.0,,0.0,0,0.0,0.1024
6163,0,,,247,247,251,246,,-0.16,0.03,1.0,-0,-0,-0,0.16,,83,795,4,30,99,0.622,0.0,127,4.85,11.9,0.0,1,19.3,2.09,0.8,0,0,1,1,0,,,,,,,,,,,,,,,,,,,,
6183,0,,,247,247,251,246,,-0.16,0.03,1.01,-0,-0,-0,0.16,,83,777,4,30,98,0.62,0.0,126,4.86,12.0,0.0,1,20.0,4.45,1.6,0,0,1,1,0,,,,,,,,,,,,,,,,,,,,
6203,0,,,247,247,251,246,,-0.16,0.03,1.01,-0,-0,-0,0.16,,83,1043,4,30,97,0.62,0.0,131,4.87,11.7,0.0,1,20.0,2.09,1.6,0,0,1,1,0,,,,,,,,,,,,,,,,,,,,
6223,0,,,247,247,251,246,,-0.16,0.03,1.01,-0,-0,-0,0.16,,84,1043,4,30,97,0.617,0.0,128,4.81,11.7,0.0,1,20.0,4.45,1.6,0,0,1,1,0,,,,,,,,,,,,,,,,,,,,
6243,0,9,5,247,247,251,246,-6,-0.16,0.03,1.0,-0,-0,-0,0.16,1,84,825,4,30,96,0.614,0.0,123,4.81,11.4,0.0,1,20.0,2.09,1.6,0,0,1,1,0,0,250,250,0,0.0,0.0,0.0,0.0,0,0,0.0,0,0.0,-1,0.0,0.0,0.0,0,0.0,0.104
6263,0,,,247,247,251,246,,-0.16,0.02,0.99,-0,-0,-0,0.16,,84,825,4,30,98,0.606,0.0,124,4.77,11.3,0.0,1,20.0,4.45,1.6,0,0,1,1,0,,,,,,,,,,,,,,,,,,,,
6283,0,,,247,247,251,246,,-0.16,0.02,0.98,-0,-0,-0,0.17,,84,825,4,30,97,0.6,0.0,123,4.74,11.2,0.0,1,20.0,4.45,1.6,0,0,1,1,0,,,,,,,,,,,,,,,,,,,,
6303,0,,,247,247,251,246,,-0.17,0.03,0.97,-0,-0,-0,0.17,,84,580,4,31,97,0.592,0.0,118,4.76,10.8,0.0,1,20.0,4.45,1.6,0,0,1,1,0,,,,,,,,,,,,,,,,,,,,
6323,0,,,247,247,251,246,,-0.17,0.03,0.97,-0,-0,-0,0.17,,84,580,4,31,98,0.586,0.0,115,4.75,10.8,0.0,1,20.0,4.45,1.6,0,0,1,1,0,,,,,,,,,,,,,,,,,,,,
6343,0,8,6,247,247,251,246,-5,-0.17,0.03,0.98,-0,-0,-0,0.17,1,85,580,3,31,97,0.577,0.0,113,4.7,10.7,0.0,1,20.0,4.45,1.6,0,0,1,1,0,0,250,250,0,0.0,0.0,0.0,0.0,0,0,0.0,0,0.0,-1,0.0,,0.0,0,0.0,0.1057
6363,0,,,247,247,251,246,,-0.16,0.03,0.99,-0,-0,-0,0.17,,85,477,3,31,97,0.568,0.0,110,4.72,10.5,0.0,1,20.0,4.45,1.6,0,0,1,1,0,,,,,,,,,,,,,,,,,,,,
6383,0,,,247,247,251,246,,-0.17,0.03,0.99,-0,-0,-0,0.17,,85,477,3,31,97,0.558,0.0,110,4.72,10.4,0.0,1,20.0,3.3,0.9,0,0,1,1,0,,,,,,,,,,,,,,,,,,,,
6403,0,,,247,247,251,246,,-0.17,0.03,1.01,-0,-0,-0,0.17,,85,477,3,31,97,0.549,0.0,110,4.71,10.5,0.0,1,20.0,2.09,0.9,0,0,1,1,0,,,,,,,,,,,,,,,,,,,,
6423,0,,,247,247,251,246,,-0.17,0.03,1.01,-0,-0,-0,0.17,,85,472,4,31,97,0.54,0.0,113,4.75,10.6,0.0,1,20.0,4.45,0.9,0,0,1,1,0,,,,,,,,,,,,,,,,,,,,
6443,0,9,7,247,247,251,246,-7,-0.17,0.03,1.02,-0,0,-0,0.17,1,84,472,4,31,98,0.533,0.0,113,4.73,9.8,0.0,1,20.0,4.45,0.9,0,0,1,1,0,0,250,250,0,0.0,0.0,0.0,0.0,0,0,0.0,0,0.0,-1,0.0,0.0,0.0,0,0.0,0.1074
6463,0,,,247,248,251,246,,-0.17,0.03,1.03,-0,-0,-0,0.17,,84,472,4,30,97,0.525,0.0,113,4.73,10.3,0.0,1,20.0,4.45,0.9,0,0,1,1,0,,,,,,,,,,,,,,,,,,,,
6483,0,,,247,247,251,246,,-0.17,0.03,1.04,-0,-0,-0,0.17,,84,591,4,30,97,0.519,0.0,118,4.76,10.8,0.0,1,20.0,4.45,1.2,0,0,1,1,0,,,,,,,,,,,,,,,,,,,,
6503,0,,,247,248,251,246,,-0.16,0.03,1.01,-0,-0,-0,0.17,,84,953,4,30,96,0.515,0.0,120,4.72,11.3,0.0,1,20.0,4.21,1.2,0,0,1,1,0,,,,,,,,,,,,,,,,,,,,
6523,0,,,247,247,251,246,,-0.16,0.03,1.05,-0,-1,-0,0.16,,84,1349,4,30,96,0.511,0.0,127,4.75,11.5,0.0,1,20.0,4.21,1.2,0,0,1,1,0,,,,,,,,,,,,,,,,,,,,
6543,0,8,6,247,248,251,246,-6,-0.16,0.03,1.03,-0,0,-0,0.16,1,83,1668,4,30,96,0.509,0.0,135,4.8,11.9,0.0,1,20.0,4.21,1.2,0,0,1,1,0,0,250,250,0,0.0,0.0,0.0,0.0,0,0,0.0,0,0.0,-1,0.0,,0.0,0,0.0,0.109
6563,0,,,247,249,251,246,,-0.17,0.02,1.01,-0,-0,-0,0.17,,83,1889,4,30,96,0.51,0.0,142,4.86,12.0,0.0,1,20.0,4.21,1.2,0,0,1,1,0,,,,,,,,,,,,,,,,,,,,
6583,0,,,247,248,251,246,,-0.16,0.02,0.99,-0,-0,-0,0.16,,83,1991,4,30,95,0.512,0.0,147,4.81,12.1,0.0,1,20.0,3.59,3.2,0,0,1,1,0,,,,,,,,,,,,,,,,,,,,
6603,0,,,247,247,251,246,,-0.16,0.03,0.99,-0,0,-0,0.16,,83,1984,4,30,94,0.514,0.0,152,4.86,12.2,0.0,1,20.0,3.59,3.2,0,0,1,1,0,,,,,,,,,,,,,,,,,,,,
6623,0,,,247,249,251,246,,-0.16,0.02,0.96,-0,-0,-0,0.16,,83,2451,4,30,94,0.517,0.0,156,4.86,12.2,0.0,1,20.0,3.59,3.2,0,0,1,1,0,,,,,,,,,,,,,,,,,,,,
6643,0,9,7,247,249,251,246,-7,-0.17,0.03,1.0,-0,-1,-1,0.17,1,83,2451,4,30,93,0.518,0.0,162,4.85,12.3,0.0,1,27.1,3.59,3.2,0,0,1,1,0,0,250,250,0,0.0,0.0,0.0,0.0,0,0,0.0,0,0.0,-1,0.0,0.0,0.0,0,0.0,0.1107
6663,0,,,247,248,251,246,,-0.18,0.04,0.99,-0,1,-0,0.19,,84,2637,4,30,92,0.519,0.0,172,4.83,12.2,0.0,1,25.9,3.67,3.2,0,0,1,1,0,,,,,,,,,,,,,,,,,,,,
6683,0,,,247,248,251,246,,-0.17,0.04,1.03,-0,1,-0,0.17,,84,2666,4,30,91,0.518,0.0,178,4.85,12.2,0.0,1,20.0,3.65,4.4,0,0,1,1,0,,,,,,,,,,,,,,,,,,,,
6703,0,,,247,249,251,246,,-0.16,0.03,1.09,-0,-0,-0,0.16,,83,2753,4,30,91,0.52,0.0,186,4.86,12.7,0.0,1,20.0,3.7,4.4,0,0,1,1,0,,,,,,,,,,,,,,,,,,,,
6723,0,,,247,248,251,246,,-0.17,0.03,1.11,-0,-1,-0,0.17,,83,2951,4,30,89,0.523,0.0,196,4.86,12.7,0.0,1,20.0,3.74,4.4,0,0,1,1,0,,,,,,,,,,,,,,,,,,,,
6743,0,9,5,247,248,251,246,-7,-0.18,0.03,1.08,-0,0,-0,0.19,1,83,3103,4,30,88,0.527,0.0,206,4.9,12.7,0.0,1,20.0,3.79,4.4,0,0,1,1,0,0,250,250,0,0.0,0.0,0.0,0.0,0,0,0.0,0,0.0,-1,0.0,,0.0,0,0.0,0.1124
6763,0,,,247,248,251,246,,-0.18,0.02,1.11,-0,1,-1,0.18,,83,3051,4,30,87,0.53,0.0,216,4.77,12.5,0.0,1,20.0,3.7,4.4,0,0,1,1,0,,,,,,,,,,,,,,,,,,,,
6783,0,,,247,249,251,246,,-0.18,0.04,1.1,-0,1,-1,0.19,,83,3174,4,30,86,0.533,0.0,221,4.8,12.6,0.0,1,0.0,3.77,5.3,0,0,1,1,0,,,,,,,,,,,,,,,,,,,,
6803,0,,,247,248,251,246,,-0.15,0.03,1.06,-0,0,-1,0.16,,83,3404,4,30,85,0.533,0.0,235,4.88,12.7,0.0,1,23.2,3.87,5.3,0,0,1,1,0,,,,,,,,,,,,,,,,,,,,
6823,0,,,247,249,251,246,,-0.16,0.05,1.12,-0,-1,-1,0.17,,83,3495,4,30,84,0.533,0.0,245,4.84,12.8,0.0,1,22.8,3.79,5.3,0,0,1,1,0,,,,,,,,,,,,,,,,,,,,
6843,0,8,9,247,247,251,246,-7,-0.18,0.07,1.16,-0,-0,-1,0.19,1,83,3412,4,30,83,0.533,0.0,252,4.81,12.7,0.0,1,0.0,3.6,5.3,0,0,1,1,0,0,250,250,0,0.0,0.0,0.0,0.0,0,0,0.0,0,0.0,-1,0.0,0.0,0.0,0,0.0,0.114
6863,0,,,247,249,251,246,,-0.15,0.04,1.14,-0,1,-0,0.16,,83,3439,4,30,83,0.533,0.0,257,4.81,12.5,0.0,1,22.5,3.55,5.3,0,0,1,1,0,,,,,,,,,,,,,,,,,,,,
6883,0,,,247,248,251,246,,-0.15,0.04,1.1,-0,-1,-0,0.15,,83,3413,4,30,82,0.532,0.0,256,4.85,12.8,0.0,1,22.1,3.42,5.5,0,0,1,1,0,,,,,,,,,,,,,,,,,,,,
6903,0,,,247,248,251,246,,-0.17,0.05,1.19,-0,-1,-0,0.18,,83,3417,4,30,82,0.532,0.0,258,4.81,12.8,0.0,1,0.0,3.39,5.5,0,0,1,1,0,,,,,,,,,,,,,,,,,,,,
6923,0,,,247,247,251,246,,-0.18,0.05,1.15,-0,1,-0,0.19,,83,3447,4,30,81,0.533,0.0,262,4.81,12.6,0.0,1,0.0,3.35,5.5,0,0,1,1,0,,,,,,,,,,,,,,,,,,,,
6943,0,9,5,247,247,251,246,-6,-0.14,0.02,1.13,-0,1,-0,0.15,1,83,3399,4,30,81,0.532,0.0,268,4.82,12.7,0.0,1,21.7,3.23,5.5,0,0,1,1,0,0,250,250,0,0.0,0.0,0.0,0.0,0,0,0.0,0,0.0,-1,0.0,,0.0,0,0.0,0.1157
6963,0,,,247,248,251,246,,-0.16,0.03,1.12,-0,-1,0,0.16,,83,3390,4,30,81,0.533,0.0,268,4.84,12.8,0.0,1,21.7,3.19,5.5,0,0,1,1,0,,,,,,,,,,,,,,,,,,,,
6983,0,,,247,249,251,246,,-0.19,0.04,1.14,-0,0,0,0.19,,83,3378,4,30,81,0.532,0.0,271,4.87,12.8,0.0,1,0.0,3.14,4.9,0,0,1,1,0,,,,,,,,,,,,,,,,,,,,
7003,0,,,247,248,251,246,,-0.19,0.04,1.08,-0,2,0,0.19,,83,3327,4,30,81,0.532,0.0,271,4.82,12.7,0.0,1,0.0,3.13,4.9,0,0,1,1,0,,,,,,,,,,,,,,,,,,,,
7023,0,,,247,248,251,246,,-0.16,0.03,1.03,-0,1,0,0.16,,83,3322,4,30,80,0.531,0.0,271,4.86,12.7,0.0,1,0.0,3.08,4.9,0,0,1,1,0,,,,,,,,,,,,,,,,,,,,
7043,0,9,7,247,247,251,246,-7,-0.16,0.02,0.96,-0,-0,0,0.16,1,83,3307,4,30,81,0.531,0.0,272,4.86,12.8,0.0,1,0.0,3.13,4.9,0,0,1,1,0,0,250,250,0,0.0,0.0,0.0,0.0,0,0,0.0,0,0.0,-1,0.0,0.0,0.0,0,0.0,0.1174
7063,0,,,247,248,251,246,,-0.16,0.03,1.02,-0,-0,0,0.16,,83,3282,4,30,81,0.531,0.0,269,4.85,12.8,0.0,1,0.0,3.13,4.9,0,0,1,1,0,,,,,,,,,,,,,,,,,,,,
7083,0,,,247,247,251,246,,-0.17,0.04,1.13,-0,-0,0,0.17,,83,3246,4,30,81,0.531,0.0,271,4.88,12.8,0.0,1,0.0,3.11,4.7,0,0,1,1,0,,,,,,,,,,,,,,,,,,,,
7103,0,,,247,247,251,246,,-0.18,0.04,1.1,-0,1,0,0.18,,83,3229,4,30,81,0.532,0.0,267,4.86,12.8,0.0,1,0.0,3.11,4.7,0,0,1,1,0,,,,,,,,,,,,,,,,,,,,
7123,0,,,247,249,251,246,,-0.18,0.04,1.03,-0,2,0,0.19,,84,3211,4,30,81,0.533,0.0,268,4.81,12.5,0.0,1,0.0,3.11,4.7,0,0,1,1,0,,,,,,,,,,,,,,,,,,,,
7143,0,8,6,247,248,251,246,-6,-0.18,0.04,1.05,-0,1,0,0.18,1,83,3145,4,30,80,0.534,0.0,268,4.85,12.6,0.0,1,0.0,3.06,4.7,0,0,1,1,0,0,250,250,0,0.0,0.0,0.0,0.0,0,0,0.0,0,0.0,-1,0.0,,0.0,0,0.0,0.119
7163,0,,,247,248,251,246,,-0.17,0.03,1.05,-0,2,0,0.17,,83,3105,4,30,81,0.534,0.0,263,4.86,12.7,0.0,1,0.0,3.1,4.7,0,0,1,1,0,,,,,,,,,,,,,,,,,,,,
7183,0,,,247,247,251,246,,-0.15,0.03,1.05,-0,0,-0,0.15,,83,3126,4,30,81,0.534,0.0,266,4.87,12.8,0.0,1,0.0,3.1,4.5,0,0,1,1,0,,,,,,,,,,,,,,,,,,,,
7203,0,,,247,247,251,246,,-0.14,0.02,1.06,-0,-1,-0,0.14,,83,3106,4,30,81,0.535,0.0,261,4.86,12.8,0.0,1,0.0,3.1,4.5,0,0,1,1,0,,,,,,,,,,,,,,,,,,,,
7223,0,,,247,249,251,246,,-0.13,0.02,1.06,-0,-2,-1,0.13,,83,3037,4,30,81,0.537,0.0,261,4.87,12.8,0.0,1,0.0,3.09,4.5,0,0,1,1,0,,,,,,,,,,,,,,,,,,,,
7243,0,8,6,247,248,251,246,-6,-0.13,0.02,1.03,-0,-2,-1,0.13,1,83,3048,4,30,81,0.539,0.0,257,4.85,12.8,0.0,1,0.0,3.09,4.5,0,0,1,1,0,0,250,250,0,0.0,0.0,0.0,0.0,0,0,0.0,0,0.0,-1,0.0,0.0,0.0,0,0.0,0.1207
7263,0,,,247,249,251,246,,-0.13,0.01,0.97,-0,-3,-1,0.13,,83,3084,4,30,81,0.541,0.0,257,4.87,12.8,0.0,1,0.0,3.1,4.5,0,0,1,1,0,,,,,,,,,,,,,,,,,,,,
7283,0,,,247,247,251,246,,-0.13,0.01,0.89,-0,-3,-1,0.13,,83,3071,4,30,81,0.542,0.0,260,4.85,12.8,0.0,1,0.0,3.09,4.4,0,0,1,1,0,,,,,,,,,,,,,,,,,,,,
7303,0,,,247,247,251,246,,-0.14,0.0,0.83,-0,-3,-1,0.14,,83,3004,4,30,81,0.543,0.0,257,4.83,12.8,0.0,1,0.0,3.08,4.4,0,0,1,1,0,,,,,,,,,,,,,,,,,,,,
7323,0,,,247,248,251,246,,-0.14,-0.0,0.77,-0,-3,-1,0.14,,83,2985,4,30,81,0.545,0.0,256,4.82,12.8,0.0,1,0.0,3.07,4.4,0,0,1,1,0,,,,,,,,,,,,,,,,,,,,
7343,0,8,7,247,247,251,246,-6,-0.15,-0.0,0.74,-0,-3,-0,0.15,1,83,3069,4,30,81,0.547,0.0,255,4.84,12.8,0.0,1,0.0,3.09,4.4,0,0,1,1,0,0,250,250,0,0.0,0.0,0.0,0.0,0,0,0.0,0,0.0,-1,0.0,,0.0,0,0.0,0.1224
7363,0,,,247,247,251,246,,-0.16,-0.01,0.68,-0,-2,0,0.16,,83,3071,4,30,81,0.549,0.0,257,4.86,12.8,0.0,1,0.0,3.09,4.4,0,0,1,1,0,,,,,,,,,,,,,,,,,,,,
7383,0,,,247,247,251,246,,-0.16,-0.01,0.69,-0,-2,0,0.16,,83,3018,4,30,81,0.549,0.0,259,4.86,12.8,0.0,1,21.7,3.08,4.3,0,0,1,1,0,,,,,,,,,,,,,,,,,,,,
7403,0,,,247,247,251,246,,-0.18,-0.01,0.68,-0,-2,1,0.18,,83,3040,4,30,81,0.55,0.0,256,4.88,12.8,0.0,1,0.0,3.09,4.3,0,0,1,1,0,,,,,,,,,,,,,,,,,,,,
7423,0,,,247,247,251,246,,-0.18,0.0,0.74,-0,-1,1,0.18,,83,3081,4,30,81,0.551,0.0,258,4.88,12.8,0.0,1,0.0,3.09,4.3,0,0,1,1,0,,,,,,,,,,,,,,,,,,,,
7443,0,8,6,247,247,251,246,-6,-0.17,0.0,0.8,-0,-1,1,0.17,1,83,3061,4,30,81,0.554,0.0,260,4.88,12.8,0.0,1,0.0,3.09,4.3,0,0,1,1,0,0,250,250,0,0.0,0.0,0.0,0.0,0,0,0.0,0,0.0,-1,0.0,0.0,0.0,0,0.0,0.124
7463,0,,,247,248,251,246,,-0.17,0.01,0.87,-0,-1,1,0.17,,83,3015,4,30,81,0.556,0.0,256,4.81,12.8,0.0,1,0.0,3.08,4.3,0,0,1,1,0,,,,,,,,,,,,,,,,,,,,
7483,0,,,247,248,251,246,,-0.17,0.01,0.91,-0,-1,1,0.17,,83,3031,4,30,81,0.558,0.0,261,4.85,12.8,0.0,1,21.7,3.12,4.3,0,0,1,1,0,,,,,,,,,,,,,,,,,,,,
7503,0,,,247,247,251,246,,-0.16,0.01,0.97,-0,-1,0,0.16,,83,3015,4,30,81,0.562,0.0,256,4.87,12.8,0.0,1,0.0,3.08,4.3,0,0,1,1,0,,,,,,,,,,,,,,,,,,,,
7523,0,,,247,247,251,246,,-0.15,0.01,1.01,-0,-2,0,0.15,,83,2968,4,30,81,0.563,0.0,256,4.85,12.8,0.0,1,0.0,3.07,4.3,0,0,1,1,0,,,,,,,,,,,,,,,,,,,,
7543,0,8,6,247,247,251,246,-5,-0.15,0.02,1.06,-0,-2,0,0.15,1,83,3000,4,30,81,0.565,0.0,256,4.81,12.8,0.0,1,0.0,3.11,4.3,0,0,1,1,0,0,250,250,0,0.0,0.0,0.0,0.0,0,0,0.0,0,0.0,-1,0.0,,0.0,0,0.0,0.1257
7563,0,,,247,248,251,246,,-0.15,0.02,1.1,-0,-2,-0,0.15,,83,3059,4,30,81,0.566,0.0,256,4.82,12.8,0.0,1,0.0,1.98,4.3,0,0,1,1,0,,,,,,,,,,,,,,,,,,,,
7583,0,,,247,247,251,246,,-0.14,0.02,1.16,-0,-2,-0,0.14,,83,3019,4,30,81,0.567,0.0,258,4.8,12.8,0.0,1,0.0,3.08,4.3,0,0,1,1,0,,,,,,,,,,,,,,,,,,,,
7603,0,,,247,247,251,246,,-0.13,0.02,1.22,-0,-2,-0,0.13,,83,2980,4,30,81,0.57,0.0,257,4.82,12.8,0.0,1,0.0,3.07,4.3,0,0,1,1,0,,,,,,,,,,,,,,,,,,,,
7623,0,,,247,247,251,246,,-0.13,0.02,1.25,-0,-2,-1,0.13,,84,3060,4,30,81,0.571,0.0,256,4.81,12.8,0.0,1,0.0,3.08,4.3,0,0,1,1,0,,,,,,,,,,,,,,,,,,,,
7643,0,9,6,247,247,251,246,-5,-0.13,0.02,1.28,-0,-2,-1,0.13,1,84,3045,4,30,81,0.574,0.0,258,4.85,12.8,0.0,1,0.0,3.09,4.3,0,0,1,1,0,0,250,250,0,0.0,0.0,0.0,0.0,0,0,0.0,0,0.0,-1,0.0,0.0,0.0,0,0.0,0.1274
7663,0,,,247,248,251,246,,-0.13,0.02,1.32,-0,-2,-1,0.13,,84,3010,4,30,81,0.576,0.0,256,4.78,12.8,0.0,1,0.0,1.97,4.3,0,0,1,1,0,,,,,,,,,,,,,,,,,,,,
7683,0,,,247,248,251,246,,-0.14,0.03,1.36,-0,-2,-1,0.14,,84,3053,4,30,81,0.577,0.0,258,4.8,12.7,0.0,1,0.0,3.09,4.3,0,0,1,1,0,,,,,,,,,,,,,,,,,,,,
7703,0,,,247,248,251,246,,-0.14,0.03,1.33,-0,-1,-1,0.15,,84,3099,4,30,81,0.58,0.0,257,4.8,12.7,0.0,1,0.0,1.99,4.3,0,0,1,1,0,,,,,,,,,,,,,,,,,,,,
7723,0,,,247,247,251,246,,-0.15,0.05,1.33,-0,-1,-1,0.16,,84,3059,4,30,81,0.58,0.0,260,4.79,12.7,0.0,1,0.0,3.09,4.3,0,0,1,1,0,,,,,,,,,,,,,,,,,,,,
7743,0,9,7,247,247,251,246,-5,-0.16,0.06,1.3,-0,0,-1,0.17,1,84,3027,4,30,81,0.58,0.0,260,4.8,12.6,0.0,1,0.0,3.08,4.3,0,0,1,1,0,0,250,250,0,0.0,0.0,0.0,0.0,0,0,0.0,0,0.0,-1,0.0,,0.0,0,0.0,0.129
7763,0,,,247,247,251,246,,-0.16,0.07,1.28,-0,0,-1,0.18,,84,3040,4,30,81,0.581,0.0,257,4.81,12.5,0.0,1,0.0,1.98,4.3,0,0,1,1,0,,,,,,,,,,,,,,,,,,,,
7783,0,,,247,248,251,246,,-0.17,0.07,1.25,-0,1,-1,0.18,,84,3070,4,30,81,0.582,0.0,260,4.85,12.6,0.0,1,0.0,3.09,4.3,0,0,1,1,0,,,,,,,,,,,,,,,,,,,,
7803,0,,,247,247,251,246,,-0.17,0.06,1.23,-0,1,-1,0.18,,84,3027,4,30,81,0.583,0.0,258,4.86,12.7,0.0,1,21.7,3.08,4.3,0,0,1,1,0,,,,,,,,,,,,,,,,,,,,
7823,0,,,247,248,251,246,,-0.18,0.05,1.18,-0,2,-0,0.19,,84,3043,4,30,81,0.585,0.0,257,4.86,12.7,0.0,1,0.0,3.09,4.3,0,0,1,1,0,,,,,,,,,,,,,,,,,,,,
