"Interval"|"ms"|0|0|1,"Utc"|"ms"|0|0|1,"Brake_F"|"Bar"|0|2000|10,"Brake_R"|"Bar"|0|2000|10,"Height_RF"|"mm"|0|255|50,"Height_LF"|"mm"|0|255|50,"Height_LR"|"mm"|0|80|50,"Height_RR"|"mm"|0|255|50,"Steering"|"deg"|-100|100|10,"AccelX"|"G"|-3.0|3.0|50,"AccelY"|"G"|-3.0|3.0|50,"AccelZ"|"G"|-3.0|3.0|50,"Yaw"|"Deg/Sec"|-120|120|50,"Pitch"|"Deg/Sec"|-120|120|50,"Roll"|"Deg/Sec"|-120|120|50,"Gsum"|"G"|0.0|3.0|50,"Log_Button"|""|0.0|10.0|10,"WaterTemp"|"C"|0|150|50,"RPM"|"tr/min"|0|14000|50,"TPS"|"%"|0|100|50,"AirTemp"|"C"|0|150|50,"MAP"|"KPa"|0|100|50,"Lambda"|""|0.5|1.5|50,"SpeedDTA"|"kph"|0.0|250.0|50,"OilPress"|"KPa"|0|1500|50,"FuelPressur"|"Bar"|0.0|10.0|50,"Batterie"|"V"|0.0|20.0|50,"ConsoKm"|"L/100km"|0.0|200.0|50,"Gear"|""|0|6|50,"AdvIgnition"|"Deg"|-20.0|70.0|50,"Injection"|"ms"|0.0|10.0|50,"ConsoHr"|"L/Hr"|0.0|10000.0|50,"LC_But_Pres"|""|0|1|50,"LC_Active"|""|0|1|50,"TractionOn"|""|0|1|50,"TractionWet"|""|0|1|50,"FanOn"|""|0|1|50,"RD_Speed"|"km/h"|-30|250|10,"RUD_Speed"|"km/h"|-30|250|10,"LD_Speed"|"km/h"|-30|250|10,"LUD_Speed"|"km/h"|-30|250|10,"Latitude"|"Degrees"|-180.0|180.0|10,"Longitude"|"Degrees"|-180.0|180.0|10,"Speed"|"kph"|0.0|150.0|10,"Altitude"|"m"|0.0|4000.0|10,"GPSSats"|""|0|20|10,"GPSQual"|""|0|5|10,"GPSDOP"|""|0.0|20.0|10,"LapCount"|""|0|0|10,"LapTime"|"Min"|0.0|0.0|10,"Sector"|""|0|0|10,"SectorTime"|"Min"|0.0|0.0|10,"PredTime"|"Min"|0.0|0.0|5,"ElapsedTime"|"Min"|0.0|0.0|10,"CurrentLap"|""|0|0|10,"Distance"|"km"|0.0|0.0|10,"SessionTime"|"Min"|0.0|0.0|10
63,0,,,247,247,251,246,,-0.17,0.03,1.0,0,-0,-0,0.17,,0,0,0,0,0,0.0,0.0,0,0.0,0.0,0.0,0,0.0,0.0,0.0,0,0,0,0,0,,,,,,,,,,,,,,,,,,,,
83,0,,,247,247,251,246,,-0.16,0.03,0.99,-0,-0,-0,0.17,,0,0,0,0,0,0.0,0.0,0,0.0,0.0,0.0,0,0.0,0.0,0.0,0,0,0,0,0,,,,,,,,,,,,,,,,,,,,
103,0,,,247,247,251,246,,-0.16,0.03,0.99,0,-0,-0,0.17,,0,0,0,0,0,0.0,0.0,0,0.0,0.0,0.0,0,0.0,0.0,0.0,0,0,0,0,0,,,,,,,,,,,,,,,,,,,,
123,0,,,247,246,251,246,,-0.16,0.03,0.99,0,-0,-0,0.16,,0,0,0,0,0,0.0,0.0,0,0.0,0.0,0.0,0,0.0,0.0,0.0,0,0,0,0,0,,,,,,,,,,,,,,,,,,,,
143,0,3,2,247,247,251,246,-5,-0.16,0.03,0.99,0,-0,-0,0.16,1,0,0,0,0,0,0.0,0.0,0,0.0,0.0,0.0,0,0.0,0.0,0.0,0,0,0,0,0,0,0,0,0,0.0,0.0,0.0,0.0,0,0,0.0,0,0.0,-1,0.0,,0.0,0,0.0,0.0024
163,0,,,247,247,251,246,,-0.16,0.03,0.99,0,-0,-0,0.16,,0,0,0,0,0,0.0,0.0,0,0.0,0.0,0.0,0,0.0,0.0,0.0,0,0,0,0,0,,,,,,,,,,,,,,,,,,,,
183,0,,,247,248,251,246,,-0.16,0.03,1.0,-0,-0,-0,0.16,,0,0,0,0,0,0.0,0.0,0,0.0,0.0,0.0,0,0.0,0.0,0.0,0,0,0,0,0,,,,,,,,,,,,,,,,,,,,
203,0,,,247,247,251,246,,-0.16,0.03,1.0,-0,-0,-0,0.16,,0,0,0,0,0,0.0,0.0,0,0.0,0.0,0.0,0,0.0,0.0,0.0,0,0,0,0,0,,,,,,,,,,,,,,,,,,,,
223,0,,,247,247,251,246,,-0.16,0.03,0.99,-0,-0,-0,0.16,,0,0,0,0,0,0.0,0.0,0,0.0,0.0,0.0,0,0.0,0.0,0.0,0,0,0,0,0,,,,,,,,,,,,,,,,,,,,
243,0,1,4,247,247,251,246,-6,-0.16,0.03,1.0,-0,-0,-0,0.16,1,0,0,0,0,0,0.0,0.0,0,0.0,0.0,0.0,0,0.0,0.0,0.0,0,0,0,0,0,0,0,0,0,0.0,0.0,0.0,0.0,0,0,0.0,0,0.0,-1,0.0,0.0,0.0,0,0.0,0.004
263,0,,,247,247,251,246,,-0.16,0.02,1.0,-0,-0,-0,0.16,,0,0,0,0,0,0.0,0.0,0,0.0,0.0,0.0,0,0.0,0.0,0.0,0,0,0,0,0,,,,,,,,,,,,,,,,,,,,
283,0,,,247,247,251,246,,-0.16,0.03,0.99,-0,-0,-0,0.16,,0,0,0,0,0,0.0,0.0,0,0.0,0.0,0.0,0,0.0,0.0,0.0,0,0,0,0,0,,,,,,,,,,,,,,,,,,,,
303,0,,,247,247,251,246,,-0.16,0.03,1.0,-0,-0,-0,0.16,,0,0,0,0,0,0.0,0.0,0,0.0,0.0,0.0,0,0.0,0.0,0.0,0,0,0,0,0,,,,,,,,,,,,,,,,,,,,
323,0,,,247,246,251,246,,-0.16,0.03,0.99,-0,-0,-0,0.16,,0,0,0,0,0,0.0,0.0,0,0.0,0.0,0.0,0,0.0,0.0,0.0,0,0,0,0,0,,,,,,,,,,,,,,,,,,,,
343,0,3,2,247,246,251,246,-6,-0.16,0.03,0.99,-0,-0,-0,0.16,1,0,0,0,0,0,0.0,0.0,0,0.0,0.0,0.0,0,0.0,0.0,0.0,0,0,0,0,0,0,0,0,0,0.0,0.0,0.0,0.0,0,0,0.0,0,0.0,-1,0.0,,0.0,0,0.0,0.0057
363,0,,,247,247,251,246,,-0.16,0.03,1.0,-0,-0,-0,0.16,,0,0,0,0,0,0.0,0.0,0,0.0,0.0,0.0,0,0.0,0.0,0.0,0,0,0,0,0,,,,,,,,,,,,,,,,,,,,
383,0,,,247,246,251,246,,-0.16,0.03,0.99,0,-0,-0,0.16,,0,0,0,0,0,0.0,0.0,0,0.0,0.0,0.0,0,0.0,0.0,0.0,0,0,0,0,0,,,,,,,,,,,,,,,,,,,,
403,0,,,247,246,251,246,,-0.16,0.03,0.99,0,-0,-0,0.16,,0,0,0,0,0,0.0,0.0,0,0.0,0.0,0.0,0,0.0,0.0,0.0,0,0,0,0,0,,,,,,,,,,,,,,,,,,,,
423,0,,,247,246,251,246,,-0.16,0.03,0.99,0,-0,-0,0.16,,0,0,0,0,0,0.0,0.0,0,0.0,0.0,0.0,0,0.0,0.0,0.0,0,0,0,0,0,,,,,,,,,,,,,,,,,,,,
443,0,3,1,247,247,251,246,-6,-0.16,0.03,0.99,0,-0,-0,0.16,1,0,0,0,0,0,0.0,0.0,0,0.0,0.0,0.0,0,0.0,0.0,0.0,0,0,0,0,0,0,0,0,0,0.0,0.0,0.0,0.0,0,0,0.0,0,0.0,-1,0.0,0.0,0.0,0,0.0,0.0074
463,0,,,247,247,251,246,,-0.16,0.03,0.99,-0,-0,-0,0.16,,0,0,0,0,0,0.0,0.0,0,0.0,0.0,0.0,0,0.0,0.0,0.0,0,0,0,0,0,,,,,,,,,,,,,,,,,,,,
483,0,,,247,247,251,246,,-0.16,0.03,0.99,-0,-0,-0,0.16,,0,0,0,0,0,0.0,0.0,0,0.0,0.0,0.0,0,0.0,0.0,0.0,0,0,0,0,0,,,,,,,,,,,,,,,,,,,,
503,0,,,247,247,251,246,,-0.16,0.03,0.99,0,-0,-0,0.16,,0,0,0,0,0,0.0,0.0,0,0.0,0.0,0.0,0,0.0,0.0,0.0,0,0,0,0,0,,,,,,,,,,,,,,,,,,,,
523,0,,,247,247,251,246,,-0.16,0.03,0.99,-0,-0,-0,0.16,,0,0,0,0,0,0.0,0.0,0,0.0,0.0,0.0,0,0.0,0.0,0.0,0,0,0,0,0,,,,,,,,,,,,,,,,,,,,
543,0,2,2,247,247,251,246,-6,-0.16,0.03,0.99,-0,-0,-0,0.16,1,0,0,0,0,0,0.0,0.0,0,0.0,0.0,0.0,0,0.0,0.0,0.0,0,0,0,0,0,0,0,0,0,0.0,0.0,0.0,0.0,0,0,0.0,0,0.0,-1,0.0,,0.0,0,0.0,0.0091
563,0,,,247,247,251,246,,-0.16,0.03,0.99,-0,-0,-0,0.16,,0,0,0,0,0,0.0,0.0,0,0.0,0.0,0.0,0,0.0,0.0,0.0,0,0,0,0,0,,,,,,,,,,,,,,,,,,,,
583,0,,,247,246,251,246,,-0.16,0.03,0.99,-0,-0,-0,0.16,,0,0,0,0,0,0.0,0.0,0,0.0,0.0,0.0,0,0.0,0.0,0.0,0,0,0,0,0,,,,,,,,,,,,,,,,,,,,
603,0,,,247,247,251,246,,-0.16,0.03,0.99,-0,-0,-0,0.16,,0,0,0,0,0,0.0,0.0,0,0.0,0.0,0.0,0,0.0,0.0,0.0,0,0,0,0,0,,,,,,,,,,,,,,,,,,,,
623,0,,,247,246,251,246,,-0.16,0.03,0.99,-0,-0,-0,0.16,,0,0,0,0,0,0.0,0.0,0,0.0,0.0,0.0,0,0.0,0.0,0.0,0,0,0,0,0,,,,,,,,,,,,,,,,,,,,
643,0,3,1,247,247,251,246,-5,-0.16,0.03,0.99,-0,-0,-0,0.16,1,0,0,0,0,0,0.0,0.0,0,0.0,0.0,0.0,0,0.0,0.0,0.0,0,0,0,0,0,0,0,0,0,0.0,0.0,0.0,0.0,0,0,0.0,0,0.0,-1,0.0,0.0,0.0,0,0.0,0.0107
663,0,,,247,247,251,246,,-0.16,0.03,0.99,-0,-0,-0,0.16,,0,0,0,0,0,0.0,0.0,0,0.0,0.0,0.0,0,0.0,0.0,0.0,0,0,0,0,0,,,,,,,,,,,,,,,,,,,,
683,0,,,247,246,251,246,,-0.16,0.03,0.99,-0,-0,-0,0.16,,0,0,0,0,0,0.0,0.0,0,0.0,0.0,0.0,0,0.0,0.0,0.0,0,0,0,0,0,,,,,,,,,,,,,,,,,,,,
703,0,,,247,247,251,246,,-0.16,0.03,0.99,-0,-0,-0,0.16,,0,0,0,0,0,0.0,0.0,0,0.0,0.0,0.0,0,0.0,0.0,0.0,0,0,0,0,0,,,,,,,,,,,,,,,,,,,,
723,0,,,247,247,251,246,,-0.16,0.03,0.99,-0,-0,-0,0.16,,0,0,0,0,0,0.0,0.0,0,0.0,0.0,0.0,0,0.0,0.0,0.0,0,0,0,0,0,,,,,,,,,,,,,,,,,,,,
743,0,3,2,247,246,251,246,-6,-0.16,0.03,0.99,-0,-0,-0,0.16,1,0,0,0,0,0,0.0,0.0,0,0.0,0.0,0.0,0,0.0,0.0,0.0,0,0,0,0,0,0,0,0,0,0.0,0.0,0.0,0.0,0,0,0.0,0,0.0,-1,0.0,,0.0,0,0.0,0.0124
763,0,,,247,247,251,246,,-0.16,0.03,0.99,0,-0,-0,0.16,,0,0,0,0,0,0.0,0.0,0,0.0,0.0,0.0,0,0.0,0.0,0.0,0,0,0,0,0,,,,,,,,,,,,,,,,,,,,
783,0,,,247,247,251,246,,-0.16,0.03,0.99,0,-0,-0,0.16,,0,0,0,0,0,0.0,0.0,0,0.0,0.0,0.0,0,0.0,0.0,0.0,0,0,0,0,0,,,,,,,,,,,,,,,,,,,,
803,0,,,247,247,251,246,,-0.16,0.03,0.99,0,-0,-0,0.16,,0,0,0,0,0,0.0,0.0,0,0.0,0.0,0.0,0,0.0,0.0,0.0,0,0,0,0,0,,,,,,,,,,,,,,,,,,,,
823,0,,,247,247,251,246,,-0.16,0.03,0.99,-0,-0,-0,0.16,,0,0,0,0,0,0.0,0.0,0,0.0,0.0,0.0,0,0.0,0.0,0.0,0,0,0,0,0,,,,,,,,,,,,,,,,,,,,
843,0,3,3,247,247,251,246,-6,-0.16,0.03,0.99,0,-0,-0,0.16,1,0,0,0,0,0,0.0,0.0,0,0.0,0.0,0.0,0,0.0,0.0,0.0,0,0,0,0,0,0,0,0,0,0.0,0.0,0.0,0.0,0,0,0.0,0,0.0,-1,0.0,0.0,0.0,0,0.0,0.014
863,0,,,247,247,251,246,,-0.16,0.03,0.99,0,-0,-0,0.16,,0,0,0,0,0,0.0,0.0,0,0.0,0.0,0.0,0,0.0,0.0,0.0,0,0,0,0,0,,,,,,,,,,,,,,,,,,,,
883,0,,,247,246,251,246,,-0.16,0.03,0.99,0,-0,-0,0.16,,0,0,0,0,0,0.0,0.0,0,0.0,0.0,0.0,0,0.0,0.0,0.0,0,0,0,0,0,,,,,,,,,,,,,,,,,,,,
903,0,,,247,247,251,246,,-0.16,0.03,0.99,0,-0,-0,0.16,,0,0,0,0,0,0.0,0.0,0,0.0,0.0,0.0,0,0.0,0.0,0.0,0,0,0,0,0,,,,,,,,,,,,,,,,,,,,
923,0,,,247,246,251,246,,-0.16,0.03,0.99,0,-0,-0,0.16,,0,0,0,0,0,0.0,0.0,0,0.0,0.0,0.0,0,0.0,0.0,0.0,0,0,0,0,0,,,,,,,,,,,,,,,,,,,,
943,0,4,1,247,246,251,246,-6,-0.16,0.03,0.99,0,0,-0,0.16,1,0,0,0,0,0,0.0,0.0,0,0.0,0.0,0.0,0,0.0,0.0,0.0,0,0,0,0,0,0,0,0,0,0.0,0.0,0.0,0.0,0,0,0.0,0,0.0,-1,0.0,,0.0,0,0.0,0.0157
963,0,,,247,247,251,246,,-0.16,0.03,0.99,0,0,-0,0.16,,0,0,0,0,0,0.0,0.0,0,0.0,0.0,0.0,0,0.0,0.0,0.0,0,0,0,0,0,,,,,,,,,,,,,,,,,,,,
983,0,,,247,246,251,246,,-0.16,0.03,0.99,0,0,-0,0.17,,0,0,0,0,0,0.0,0.0,0,0.0,0.0,0.0,0,0.0,0.0,0.0,0,0,0,0,0,,,,,,,,,,,,,,,,,,,,
1003,0,,,247,247,251,246,,-0.16,0.03,0.99,-0,0,-0,0.17,,0,0,0,0,0,0.0,0.0,0,0.0,0.0,0.0,0,0.0,0.0,0.0,0,0,0,0,0,,,,,,,,,,,,,,,,,,,,
1023,0,,,247,247,251,246,,-0.16,0.03,0.99,-0,0,-0,0.16,,0,0,0,0,0,0.0,0.0,0,0.0,0.0,0.0,0,0.0,0.0,0.0,0,0,0,0,0,,,,,,,,,,,,,,,,,,,,
1043,0,4,1,247,247,251,246,-6,-0.16,0.03,0.99,0,0,-0,0.16,1,0,0,0,0,0,0.0,0.0,0,0.0,0.0,0.0,0,0.0,0.0,0.0,0,0,0,0,0,0,0,0,0,0.0,0.0,0.0,0.0,0,0,0.0,0,0.0,-1,0.0,0.0,0.0,0,0.0,0.0174
1063,0,,,247,247,251,246,,-0.16,0.03,0.99,0,0,-0,0.16,,0,0,0,0,0,0.0,0.0,0,0.0,0.0,0.0,0,0.0,0.0,0.0,0,0,0,0,0,,,,,,,,,,,,,,,,,,,,
1083,0,,,247,247,251,246,,-0.16,0.03,0.99,-0,0,-0,0.16,,0,0,0,0,0,0.0,0.0,0,0.0,0.0,0.0,0,0.0,0.0,0.0,0,0,0,0,0,,,,,,,,,,,,,,,,,,,,
1103,0,,,247,246,251,246,,-0.16,0.03,0.99,-0,-0,-0,0.16,,0,0,0,0,0,0.0,0.0,0,0.0,0.0,0.0,0,0.0,0.0,0.0,0,0,0,0,0,,,,,,,,,,,,,,,,,,,,
1123,0,,,247,246,251,246,,-0.16,0.03,0.99,-0,-0,-0,0.16,,0,0,0,0,0,0.0,0.0,0,0.0,0.0,0.0,0,0.0,0.0,0.0,0,0,0,0,0,,,,,,,,,,,,,,,,,,,,
1143,0,2,2,247,247,251,246,-6,-0.16,0.03,0.99,0,-0,-0,0.16,1,0,0,0,0,0,0.0,0.0,0,0.0,0.0,0.0,0,0.0,0.0,0.0,0,0,0,0,0,0,0,0,0,0.0,0.0,0.0,0.0,0,0,0.0,0,0.0,-1,0.0,,0.0,0,0.0,0.019
1163,0,,,247,247,251,246,,-0.16,0.03,0.99,0,-0,-0,0.16,,0,0,0,0,0,0.0,0.0,0,0.0,0.0,0.0,0,0.0,0.0,0.0,0,0,0,0,0,,,,,,,,,,,,,,,,,,,,
1183,0,,,247,247,251,246,,-0.16,0.03,0.99,0,-0,-0,0.16,,0,0,0,0,0,0.0,0.0,0,0.0,0.0,0.0,0,0.0,0.0,0.0,0,0,0,0,0,,,,,,,,,,,,,,,,,,,,
1203,0,,,247,247,251,246,,-0.16,0.03,0.99,0,-0,-0,0.16,,0,0,0,0,0,0.0,0.0,0,0.0,0.0,0.0,0,0.0,0.0,0.0,0,0,0,0,0,,,,,,,,,,,,,,,,,,,,
1223,0,,,247,247,251,246,,-0.16,0.03,0.99,0,-0,-0,0.16,,0,0,0,0,0,0.0,0.0,0,0.0,0.0,0.0,0,0.0,0.0,0.0,0,0,0,0,0,,,,,,,,,,,,,,,,,,,,
1243,0,4,1,247,247,251,246,-6,-0.16,0.03,0.99,0,-0,-0,0.16,1,0,0,0,0,0,0.0,0.0,0,0.0,0.0,0.0,0,0.0,0.0,0.0,0,0,0,0,0,0,0,0,0,0.0,0.0,0.0,0.0,0,0,0.0,0,0.0,-1,0.0,0.0,0.0,0,0.0,0.0207
1263,0,,,247,247,251,246,,-0.16,0.03,0.99,0,-0,-0,0.16,,0,0,0,0,0,0.0,0.0,0,0.0,0.0,0.0,0,0.0,0.0,0.0,0,0,0,0,0,,,,,,,,,,,,,,,,,,,,
1283,0,,,247,247,251,246,,-0.16,0.03,0.99,0,-0,-0,0.16,,0,0,0,0,0,0.0,0.0,0,0.0,0.0,0.0,0,0.0,0.0,0.0,0,0,0,0,0,,,,,,,,,,,,,,,,,,,,
1303,0,,,247,246,251,246,,-0.16,0.03,0.99,0,-0,-0,0.17,,0,0,0,0,0,0.0,0.0,0,0.0,0.0,0.0,0,0.0,0.0,0.0,0,0,0,0,0,,,,,,,,,,,,,,,,,,,,
1323,0,,,247,247,251,246,,-0.16,0.03,0.99,0,-0,-0,0.16,,0,0,0,0,0,0.0,0.0,0,0.0,0.0,0.0,0,0.0,0.0,0.0,0,0,0,0,0,,,,,,,,,,,,,,,,,,,,
1343,0,3,4,247,247,251,246,-6,-0.16,0.03,0.99,0,-0,-0,0.16,1,0,0,0,0,0,0.0,0.0,0,0.0,0.0,0.0,0,0.0,0.0,0.0,0,0,0,0,0,0,0,0,0,0.0,0.0,0.0,0.0,0,0,0.0,0,0.0,-1,0.0,,0.0,0,0.0,0.0224
1363,0,,,247,247,251,246,,-0.16,0.03,0.99,0,-0,-0,0.16,,0,0,0,0,0,0.0,0.0,0,0.0,0.0,0.0,0,0.0,0.0,0.0,0,0,0,0,0,,,,,,,,,,,,,,,,,,,,
1383,0,,,247,246,251,246,,-0.16,0.03,0.99,0,-0,-0,0.16,,0,0,0,0,0,0.0,0.0,0,0.0,0.0,0.0,0,0.0,0.0,0.0,0,0,0,0,0,,,,,,,,,,,,,,,,,,,,
1403,0,,,247,247,251,246,,-0.16,0.03,0.99,0,-0,-0,0.16,,0,0,0,0,0,0.0,0.0,0,0.0,0.0,0.0,0,0.0,0.0,0.0,0,0,0,0,0,,,,,,,,,,,,,,,,,,,,
1423,0,,,247,247,251,246,,-0.16,0.03,0.99,0,-0,-0,0.16,,0,0,0,0,0,0.0,0.0,0,0.0,0.0,0.0,0,0.0,0.0,0.0,0,0,0,0,0,,,,,,,,,,,,,,,,,,,,
1443,0,2,2,247,246,251,246,-5,-0.16,0.03,0.99,-0,-0,-0,0.16,1,0,0,0,0,0,0.0,0.0,0,0.0,0.0,0.0,0,0.0,0.0,0.0,0,0,0,0,0,0,0,0,0,0.0,0.0,0.0,0.0,0,0,0.0,0,0.0,-1,0.0,0.0,0.0,0,0.0,0.024
1463,0,,,247,246,251,246,,-0.16,0.03,0.99,-0,-0,-0,0.16,,0,0,0,0,0,0.0,0.0,0,0.0,0.0,0.0,0,0.0,0.0,0.0,0,0,0,0,0,,,,,,,,,,,,,,,,,,,,
1483,0,,,247,246,251,246,,-0.16,0.03,0.99,-0,-0,-0,0.16,,0,0,0,0,0,0.0,0.0,0,0.0,0.0,0.0,0,0.0,0.0,0.0,0,0,0,0,0,,,,,,,,,,,,,,,,,,,,
1503,0,,,247,247,251,246,,-0.16,0.03,0.99,-0,-0,-0,0.16,,0,0,0,0,0,0.0,0.0,0,0.0,0.0,0.0,0,0.0,0.0,0.0,0,0,0,0,0,,,,,,,,,,,,,,,,,,,,
1523,0,,,247,246,251,246,,-0.16,0.03,0.99,-0,-0,-0,0.16,,0,0,0,0,0,0.0,0.0,0,0.0,0.0,0.0,0,0.0,0.0,0.0,0,0,0,0,0,,,,,,,,,,,,,,,,,,,,
1543,0,4,1,247,247,251,246,-6,-0.16,0.03,0.99,-0,-0,-0,0.16,1,0,0,0,0,0,0.0,0.0,0,0.0,0.0,0.0,0,0.0,0.0,0.0,0,0,0,0,0,0,0,0,0,0.0,0.0,0.0,0.0,0,0,0.0,0,0.0,-1,0.0,,0.0,0,0.0,0.0257
1563,0,,,247,246,251,246,,-0.16,0.03,0.99,-0,-0,-0,0.16,,0,0,0,0,0,0.0,0.0,0,0.0,0.0,0.0,0,0.0,0.0,0.0,0,0,0,0,0,,,,,,,,,,,,,,,,,,,,
1583,0,,,247,247,251,246,,-0.16,0.03,0.99,-0,-0,-0,0.16,,0,0,0,0,0,0.0,0.0,0,0.0,0.0,0.0,0,0.0,0.0,0.0,0,0,0,0,0,,,,,,,,,,,,,,,,,,,,
1603,0,,,247,247,251,246,,-0.16,0.03,0.99,-0,-0,-0,0.16,,0,0,0,0,0,0.0,0.0,0,0.0,0.0,0.0,0,0.0,0.0,0.0,0,0,0,0,0,,,,,,,,,,,,,,,,,,,,
1623,0,,,247,246,251,246,,-0.16,0.03,0.99,0,-0,-0,0.16,,0,0,0,0,0,0.0,0.0,0,0.0,0.0,0.0,0,0.0,0.0,0.0,0,0,0,0,0,,,,,,,,,,,,,,,,,,,,
1643,0,3,2,247,247,251,246,-7,-0.16,0.03,0.99,0,-0,-0,0.16,1,0,0,0,0,0,0.0,0.0,0,0.0,0.0,0.0,0,0.0,0.0,0.0,0,0,0,0,0,0,0,0,0,0.0,0.0,0.0,0.0,0,0,0.0,0,0.0,-1,0.0,0.0,0.0,0,0.0,0.0274
1663,0,,,247,247,251,246,,-0.16,0.03,0.99,0,-0,-0,0.16,,0,0,0,0,0,0.0,0.0,0,0.0,0.0,0.0,0,0.0,0.0,0.0,0,0,0,0,0,,,,,,,,,,,,,,,,,,,,
1683,0,,,247,247,251,246,,-0.16,0.03,0.99,0,-0,-0,0.16,,0,0,0,0,0,0.0,0.0,0,0.0,0.0,0.0,0,0.0,0.0,0.0,0,0,0,0,0,,,,,,,,,,,,,,,,,,,,
1703,0,,,247,247,251,246,,-0.16,0.03,0.99,0,-0,-0,0.16,,0,0,0,0,0,0.0,0.0,0,0.0,0.0,0.0,0,0.0,0.0,0.0,0,0,0,0,0,,,,,,,,,,,,,,,,,,,,
1723,0,,,247,246,251,246,,-0.16,0.03,0.99,0,0,-0,0.16,,0,0,0,0,0,0.0,0.0,0,0.0,0.0,0.0,0,0.0,0.0,0.0,0,0,0,0,0,,,,,,,,,,,,,,,,,,,,
1743,0,4,2,247,246,251,246,-6,-0.16,0.03,0.99,0,-0,-0,0.16,1,0,0,0,0,0,0.0,0.0,0,0.0,0.0,0.0,0,0.0,0.0,0.0,0,0,0,0,0,0,0,0,0,0.0,0.0,0.0,0.0,0,0,0.0,0,0.0,-1,0.0,,0.0,0,0.0,0.029
1763,0,,,247,247,251,246,,-0.16,0.03,0.99,0,0,-0,0.16,,0,0,0,0,0,0.0,0.0,0,0.0,0.0,0.0,0,0.0,0.0,0.0,0,0,0,0,0,,,,,,,,,,,,,,,,,,,,
1783,0,,,247,247,251,246,,-0.16,0.03,0.99,0,-0,-0,0.16,,0,0,0,0,0,0.0,0.0,0,0.0,0.0,0.0,0,0.0,0.0,0.0,0,0,0,0,0,,,,,,,,,,,,,,,,,,,,
1803,0,,,247,247,251,246,,-0.16,0.03,0.99,0,0,-0,0.16,,0,0,0,0,0,0.0,0.0,0,0.0,0.0,0.0,0,0.0,0.0,0.0,0,0,0,0,0,,,,,,,,,,,,,,,,,,,,
1823,0,,,247,247,251,246,,-0.16,0.03,0.99,0,-0,-0,0.16,,0,0,0,0,0,0.0,0.0,0,0.0,0.0,0.0,0,0.0,0.0,0.0,0,0,0,0,0,,,,,,,,,,,,,,,,,,,,
1843,0,4,1,247,247,251,246,-6,-0.16,0.03,0.99,0,-0,-0,0.16,1,0,0,0,0,0,0.0,0.0,0,0.0,0.0,0.0,0,0.0,0.0,0.0,0,0,0,0,0,0,0,0,0,0.0,0.0,0.0,0.0,0,0,0.0,0,0.0,-1,0.0,0.0,0.0,0,0.0,0.0307
1863,0,,,247,247,251,246,,-0.16,0.03,0.99,0,-0,-0,0.16,,0,0,0,0,0,0.0,0.0,0,0.0,0.0,0.0,0,0.0,0.0,0.0,0,0,0,0,0,,,,,,,,,,,,,,,,,,,,
1883,0,,,247,246,251,246,,-0.16,0.03,0.99,0,-0,-0,0.16,,0,0,0,0,0,0.0,0.0,0,0.0,0.0,0.0,0,0.0,0.0,0.0,0,0,0,0,0,,,,,,,,,,,,,,,,,,,,
1903,0,,,247,247,251,246,,-0.16,0.02,0.99,0,-0,-0,0.16,,0,0,0,0,0,0.0,0.0,0,0.0,0.0,0.0,0,0.0,0.0,0.0,0,0,0,0,0,,,,,,,,,,,,,,,,,,,,
1923,0,,,247,247,251,246,,-0.16,0.02,0.99,0,-0,-0,0.16,,0,0,0,0,0,0.0,0.0,0,0.0,0.0,0.0,0,0.0,0.0,0.0,0,0,0,0,0,,,,,,,,,,,,,,,,,,,,
1943,0,3,2,247,247,251,246,-5,-0.16,0.02,0.99,0,-0,-0,0.16,1,0,0,0,0,0,0.0,0.0,0,0.0,0.0,0.0,0,0.0,0.0,0.0,0,0,0,0,0,0,0,0,0,0.0,0.0,0.0,0.0,0,0,0.0,0,0.0,-1,0.0,,0.0,0,0.0,0.0324
1963,0,,,247,247,251,246,,-0.16,0.02,0.99,0,-0,-0,0.16,,0,0,0,0,0,0.0,0.0,0,0.0,0.0,0.0,0,0.0,0.0,0.0,0,0,0,0,0,,,,,,,,,,,,,,,,,,,,
1983,0,,,247,247,251,246,,-0.16,0.02,0.99,0,-0,-0,0.16,,0,0,0,0,0,0.0,0.0,0,0.0,0.0,0.0,0,0.0,0.0,0.0,0,0,0,0,0,,,,,,,,,,,,,,,,,,,,
2003,0,,,247,247,251,246,,-0.16,0.02,0.99,0,-0,-0,0.16,,0,0,0,0,0,0.0,0.0,0,0.0,0.0,0.0,0,0.0,0.0,0.0,0,0,0,0,0,,,,,,,,,,,,,,,,,,,,
2023,0,,,247,247,251,246,,-0.16,0.02,0.99,-0,-0,-0,0.16,,0,0,0,0,0,0.0,0.0,0,0.0,0.0,0.0,0,0.0,0.0,0.0,0,0,0,0,0,,,,,,,,,,,,,,,,,,,,
2043,0,4,1,247,247,251,246,-6,-0.16,0.02,0.99,0,-0,-0,0.16,1,0,0,0,0,0,0.0,0.0,0,0.0,0.0,0.0,0,0.0,0.0,0.0,0,0,0,0,0,0,0,0,0,0.0,0.0,0.0,0.0,0,0,0.0,0,0.0,-1,0.0,0.0,0.0,0,0.0,0.034
2063,0,,,247,247,251,246,,-0.16,0.02,0.99,0,-0,-0,0.16,,0,0,0,0,0,0.0,0.0,0,0.0,0.0,0.0,0,0.0,0.0,0.0,0,0,0,0,0,,,,,,,,,,,,,,,,,,,,
2083,0,,,247,247,251,246,,-0.16,0.02,0.99,0,-0,-0,0.16,,0,0,0,0,0,0.0,0.0,0,0.0,0.0,0.0,0,0.0,0.0,0.0,0,0,0,0,0,,,,,,,,,,,,,,,,,,,,
2103,0,,,247,247,251,246,,-0.16,0.02,0.99,0,-0,-0,0.16,,0,0,0,0,0,0.0,0.0,0,0.0,0.0,0.0,0,0.0,0.0,0.0,0,0,0,0,0,,,,,,,,,,,,,,,,,,,,
2123,0,,,247,246,251,246,,-0.16,0.02,0.99,0,0,-0,0.16,,0,0,0,0,0,0.0,0.0,0,0.0,0.0,0.0,0,0.0,0.0,0.0,0,0,0,0,0,,,,,,,,,,,,,,,,,,,,
2143,0,2,3,247,247,251,246,-6,-0.16,0.02,0.99,0,-0,-0,0.16,1,0,0,0,0,0,0.0,0.0,0,0.0,0.0,0.0,0,0.0,0.0,0.0,0,0,0,0,0,0,0,0,0,0.0,0.0,0.0,0.0,0,0,0.0,0,0.0,-1,0.0,,0.0,0,0.0,0.0357
2163,0,,,247,247,251,246,,-0.16,0.02,0.99,0,-0,-0,0.16,,78,0,4,25,99,0.512,0.0,116,4.86,12.8,0.0,1,0.0,0.0,0.0,0,0,0,0,0,,,,,,,,,,,,,,,,,,,,
2183,0,,,247,246,251,246,,-0.16,0.02,0.99,0,-0,-0,0.16,,78,0,4,25,99,0.513,0.0,116,4.86,12.8,0.0,1,0.0,0.0,0.0,0,0,0,1,0,,,,,,,,,,,,,,,,,,,,
2203,0,,,247,246,251,246,,-0.16,0.02,0.99,0,-0,-0,0.16,,78,0,4,25,99,0.514,0.0,115,4.85,12.8,0.0,1,0.0,0.0,0.0,0,0,0,1,0,,,,,,,,,,,,,,,,,,,,
2223,0,,,247,246,251,246,,-0.16,0.03,0.99,0,-0,-0,0.16,,78,0,4,25,99,0.515,0.0,116,4.86,12.8,0.0,1,0.0,0.0,0.0,0,0,0,1,0,,,,,,,,,,,,,,,,,,,,
2243,0,2,3,247,247,251,246,-5,-0.16,0.03,0.99,0,-0,-0,0.16,1,78,0,4,25,99,0.517,0.0,116,4.86,12.8,0.0,1,0.0,0.0,0.0,0,0,0,1,0,0,250,250,0,0.0,0.0,0.0,0.0,0,0,0.0,0,0.0,-1,0.0,0.0,0.0,0,0.0,0.0374
2263,0,,,247,247,251,246,,-0.16,0.03,0.99,0,-0,-0,0.16,,78,0,4,25,99,0.518,0.0,116,4.88,12.8,0.0,1,0.0,0.0,0.0,0,0,0,1,0,,,,,,,,,,,,,,,,,,,,
2283,0,,,247,247,251,246,,-0.16,0.03,0.99,0,-0,-0,0.16,,78,0,4,25,99,0.519,0.0,116,4.86,12.8,0.0,1,0.0,0.0,0.0,0,0,0,1,0,,,,,,,,,,,,,,,,,,,,
2303,0,,,247,246,251,246,,-0.16,0.03,0.99,0,-0,-0,0.16,,78,0,4,25,99,0.52,0.0,116,4.86,12.8,0.0,1,0.0,0.0,0.0,0,0,0,1,0,,,,,,,,,,,,,,,,,,,,
2323,0,,,247,247,251,246,,-0.16,0.03,0.99,0,-0,-0,0.16,,78,0,4,25,99,0.522,0.0,116,4.87,12.8,0.0,1,0.0,0.0,0.0,0,0,0,1,0,,,,,,,,,,,,,,,,,,,,
2343,0,4,1,247,247,251,246,-6,-0.16,0.03,0.99,0,-0,-0,0.16,1,78,0,4,25,99,0.524,0.0,116,4.83,12.8,0.0,1,0.0,0.0,0.0,0,0,0,1,0,0,250,250,0,0.0,0.0,0.0,0.0,0,0,0.0,0,0.0,-1,0.0,,0.0,0,0.0,0.0391
2363,0,,,247,247,251,246,,-0.16,0.03,0.99,0,0,-0,0.16,,78,0,4,25,99,0.528,0.0,116,4.87,12.8,0.0,1,0.0,0.0,0.0,0,0,0,1,0,,,,,,,,,,,,,,,,,,,,
2383,0,,,247,247,251,246,,-0.16,0.03,0.99,0,-0,-0,0.16,,78,0,4,25,99,0.531,0.0,116,4.86,12.8,0.0,1,0.0,0.0,0.0,0,0,0,1,0,,,,,,,,,,,,,,,,,,,,
2403,0,,,247,247,251,246,,-0.16,0.03,0.99,0,-0,-0,0.16,,78,0,4,25,99,0.534,0.0,116,4.86,12.8,0.0,1,0.0,0.0,0.0,0,0,0,1,0,,,,,,,,,,,,,,,,,,,,
2423,0,,,247,247,251,246,,-0.16,0.03,0.99,0,0,-0,0.16,,78,0,4,25,99,0.536,0.0,116,4.87,12.8,0.0,1,0.0,0.0,0.0,0,0,0,1,0,,,,,,,,,,,,,,,,,,,,
2443,0,4,1,247,247,251,246,-6,-0.16,0.03,0.99,0,-0,-0,0.16,1,78,0,4,25,99,0.536,0.0,116,4.87,12.9,0.0,1,0.0,0.0,0.0,0,0,0,1,0,0,250,250,0,0.0,0.0,0.0,0.0,0,0,0.0,0,0.0,-1,0.0,0.0,0.0,0,0.0,0.0407
2463,0,,,247,247,251,246,,-0.16,0.03,0.99,0,-0,-0,0.16,,78,0,4,25,99,0.536,0.0,116,4.86,12.9,0.0,1,0.0,0.0,0.0,0,0,0,1,0,,,,,,,,,,,,,,,,,,,,
2483,0,,,247,247,251,246,,-0.16,0.03,0.99,0,-0,-0,0.16,,78,0,4,25,99,0.537,0.0,116,4.87,12.9,0.0,1,0.0,0.0,0.0,0,0,0,1,0,,,,,,,,,,,,,,,,,,,,
2503,0,,,247,247,251,246,,-0.16,0.03,0.99,0,-0,-0,0.16,,78,0,4,25,99,0.538,0.0,116,4.86,12.9,0.0,1,0.0,0.0,0.0,0,0,0,1,0,,,,,,,,,,,,,,,,,,,,
2523,0,,,247,247,251,246,,-0.16,0.03,0.99,0,-0,-0,0.16,,78,0,4,25,99,0.539,0.0,116,4.87,12.9,0.0,1,0.0,0.0,0.0,0,0,0,1,0,,,,,,,,,,,,,,,,,,,,
2543,0,4,1,247,247,251,246,-5,-0.16,0.03,0.99,0,-0,-0,0.16,1,78,0,4,25,99,0.54,0.0,116,4.86,12.9,0.0,1,0.0,0.0,0.0,0,0,0,1,0,0,250,250,0,0.0,0.0,0.0,0.0,0,0,0.0,0,0.0,-1,0.0,,0.0,0,0.0,0.0424
2563,0,,,247,247,251,246,,-0.16,0.03,0.99,0,-0,-0,0.16,,78,0,4,25,99,0.54,0.0,116,4.85,12.9,0.0,1,0.0,0.0,0.0,0,0,0,1,0,,,,,,,,,,,,,,,,,,,,
2583,0,,,247,247,251,246,,-0.16,0.03,0.99,0,-0,-0,0.16,,78,0,4,25,99,0.54,0.0,116,4.87,12.9,0.0,1,0.0,0.0,0.0,0,0,0,1,0,,,,,,,,,,,,,,,,,,,,
2603,0,,,247,247,251,246,,-0.16,0.03,0.99,0,-0,-0,0.16,,78,0,4,25,99,0.539,0.0,116,4.86,12.9,0.0,1,0.0,0.0,0.0,0,0,0,1,0,,,,,,,,,,,,,,,,,,,,
2623,0,,,247,247,251,246,,-0.16,0.03,0.99,0,-0,-0,0.16,,78,0,4,25,99,0.538,0.0,115,4.86,12.9,0.0,1,0.0,0.0,0.0,0,0,0,1,0,,,,,,,,,,,,,,,,,,,,
2643,0,4,1,247,247,251,246,-6,-0.16,0.03,0.99,0,-0,-0,0.16,1,78,0,4,25,99,0.536,0.0,116,4.87,12.9,0.0,1,0.0,0.0,0.0,0,0,0,1,0,0,250,250,0,0.0,0.0,0.0,0.0,0,0,0.0,0,0.0,-1,0.0,0.0,0.0,0,0.0,0.044
2663,0,,,247,247,251,246,,-0.16,0.03,0.99,0,-0,-0,0.16,,78,0,4,25,99,0.534,0.0,116,4.86,12.9,0.0,1,0.0,0.0,0.0,0,0,0,1,0,,,,,,,,,,,,,,,,,,,,
2683,0,,,247,246,251,246,,-0.16,0.03,0.99,0,-0,-0,0.16,,78,0,4,25,99,0.534,0.0,116,4.86,12.9,0.0,1,0.0,0.0,0.0,0,0,0,1,0,,,,,,,,,,,,,,,,,,,,
2703,0,,,247,247,251,246,,-0.16,0.03,0.99,0,-0,-0,0.16,,78,0,4,25,99,0.534,0.0,116,4.86,12.9,0.0,1,0.0,0.0,0.0,0,0,0,1,0,,,,,,,,,,,,,,,,,,,,
2723,0,,,247,246,251,246,,-0.16,0.03,0.99,0,-0,-0,0.16,,78,0,4,25,99,0.534,0.0,116,4.86,12.9,0.0,1,0.0,0.0,0.0,0,0,0,1,0,,,,,,,,,,,,,,,,,,,,
2743,0,4,3,247,247,251,246,-6,-0.16,0.03,0.99,0,-0,-0,0.16,1,78,0,4,25,99,0.534,0.0,116,4.86,12.9,0.0,1,0.0,0.0,0.0,0,0,0,1,0,0,250,250,0,0.0,0.0,0.0,0.0,0,0,0.0,0,0.0,-1,0.0,,0.0,0,0.0,0.0457
2763,0,,,247,247,251,246,,-0.16,0.03,0.99,0,-0,-0,0.16,,78,0,4,25,99,0.535,0.0,116,4.86,12.9,0.0,1,0.0,0.0,0.0,0,0,0,1,0,,,,,,,,,,,,,,,,,,,,
2783,0,,,247,247,251,246,,-0.16,0.03,0.99,0,-0,-0,0.16,,78,0,4,25,99,0.535,0.0,116,4.87,12.9,0.0,1,0.0,0.0,0.0,0,0,0,1,0,,,,,,,,,,,,,,,,,,,,
2803,0,,,247,247,251,246,,-0.16,0.03,0.99,0,-0,-0,0.16,,78,0,4,25,99,0.535,0.0,116,4.86,12.9,0.0,1,0.0,0.0,0.0,0,0,0,1,0,,,,,,,,,,,,,,,,,,,,
2823,0,,,247,246,251,246,,-0.16,0.03,0.99,-0,-0,-0,0.16,,78,0,4,25,99,0.535,0.0,116,4.86,12.9,0.0,1,0.0,0.0,0.0,0,0,0,1,0,,,,,,,,,,,,,,,,,,,,
2843,0,4,3,247,247,251,246,-6,-0.16,0.03,0.99,-0,-0,-0,0.16,1,78,0,4,25,99,0.535,0.0,116,4.86,12.9,0.0,1,0.0,0.0,0.0,0,0,0,1,0,0,250,250,0,0.0,0.0,0.0,0.0,0,0,0.0,0,0.0,-1,0.0,0.0,0.0,0,0.0,0.0474
2863,0,,,247,246,251,246,,-0.16,0.03,0.99,-0,-0,-0,0.16,,78,0,4,25,99,0.536,0.0,116,4.85,12.9,0.0,1,0.0,0.0,0.0,0,0,0,1,0,,,,,,,,,,,,,,,,,,,,
2883,0,,,247,247,251,246,,-0.16,0.03,0.99,-0,-0,-0,0.16,,78,0,4,25,99,0.537,0.0,116,4.86,12.9,0.0,1,0.0,0.0,0.0,0,0,0,1,0,,,,,,,,,,,,,,,,,,,,
2903,0,,,247,247,251,246,,-0.16,0.03,0.99,0,-0,-0,0.16,,78,0,4,25,99,0.537,0.0,116,4.86,12.9,0.0,1,0.0,0.0,0.0,0,0,0,1,0,,,,,,,,,,,,,,,,,,,,
2923,0,,,247,246,251,246,,-0.16,0.03,0.99,0,-0,-0,0.16,,78,0,4,25,99,0.538,0.0,116,4.84,12.9,0.0,1,0.0,0.0,0.0,0,0,0,1,0,,,,,,,,,,,,,,,,,,,,
2943,0,4,1,247,247,251,246,-5,-0.16,0.03,0.99,0,-0,-0,0.16,1,78,0,4,25,99,0.539,0.0,116,4.86,12.9,0.0,1,0.0,0.0,0.0,0,0,0,1,0,0,250,250,0,0.0,0.0,0.0,0.0,0,0,0.0,0,0.0,-1,0.0,,0.0,0,0.0,0.049
2963,0,,,247,247,251,246,,-0.16,0.03,0.99,0,-0,-0,0.16,,78,0,4,25,99,0.54,0.0,116,4.86,12.9,0.0,1,0.0,0.0,0.0,0,0,0,1,0,,,,,,,,,,,,,,,,,,,,
2983,0,,,247,246,251,246,,-0.16,0.03,0.99,0,-0,-0,0.16,,78,0,4,25,99,0.541,0.0,116,4.85,12.9,0.0,1,0.0,0.0,0.0,0,0,0,1,0,,,,,,,,,,,,,,,,,,,,
3003,0,,,247,247,251,246,,-0.16,0.03,0.99,0,-0,-0,0.16,,78,0,4,25,99,0.542,0.0,116,4.86,12.9,0.0,1,0.0,0.0,0.0,0,0,0,1,0,,,,,,,,,,,,,,,,,,,,
3023,0,,,247,247,251,246,,-0.16,0.03,0.99,0,-0,-0,0.16,,78,0,4,25,99,0.545,0.0,116,4.85,12.9,0.0,1,0.0,0.0,0.0,0,0,0,1,0,,,,,,,,,,,,,,,,,,,,
3043,0,2,3,247,247,251,246,-6,-0.16,0.03,0.99,0,-0,-0,0.16,1,78,0,4,25,99,0.547,0.0,116,4.85,12.9,0.0,1,0.0,0.0,0.0,0,0,0,1,0,0,250,250,0,0.0,0.0,0.0,0.0,0,0,0.0,0,0.0,-1,0.0,0.0,0.0,0,0.0,0.0507
3063,0,,,247,247,251,246,,-0.16,0.03,0.99,0,-0,-0,0.16,,78,0,4,25,99,0.549,0.0,116,4.85,12.9,0.0,1,0.0,0.0,0.0,0,0,0,1,0,,,,,,,,,,,,,,,,,,,,
3083,0,,,247,247,251,246,,-0.16,0.03,0.99,0,-0,-0,0.16,,78,0,4,25,99,0.551,0.0,116,4.86,12.9,0.0,1,0.0,0.0,0.0,0,0,0,1,0,,,,,,,,,,,,,,,,,,,,
3103,0,,,247,247,251,246,,-0.16,0.03,0.99,0,-0,-0,0.16,,78,0,4,25,99,0.553,0.0,116,4.85,12.9,0.0,1,0.0,0.0,0.0,0,0,0,1,0,,,,,,,,,,,,,,,,,,,,
3123,0,,,247,247,251,246,,-0.16,0.03,0.99,-0,-0,-0,0.16,,78,0,4,25,99,0.555,0.0,116,4.86,12.9,0.0,1,0.0,0.0,0.0,0,0,0,1,0,,,,,,,,,,,,,,,,,,,,
3143,0,3,2,247,247,251,246,-6,-0.16,0.03,0.99,0,0,-0,0.16,1,78,0,4,25,99,0.557,0.0,116,4.85,12.9,0.0,1,0.0,0.0,0.0,0,0,0,1,0,0,250,250,0,0.0,0.0,0.0,0.0,0,0,0.0,0,0.0,-1,0.0,,0.0,0,0.0,0.0524
3163,0,,,247,247,251,246,,-0.16,0.03,0.99,0,-0,-0,0.16,,78,0,4,25,99,0.559,0.0,116,4.86,12.9,0.0,1,0.0,0.0,0.0,0,0,0,1,0,,,,,,,,,,,,,,,,,,,,
3183,0,,,247,247,251,246,,-0.16,0.03,0.99,0,-0,-0,0.16,,78,0,4,25,99,0.562,0.0,116,4.8,13.0,0.0,1,0.0,0.0,0.0,0,0,0,0,0,,,,,,,,,,,,,,,,,,,,
3203,0,,,247,247,251,246,,-0.16,0.03,0.99,0,-0,-0,0.16,,78,0,4,25,99,0.565,0.0,116,4.67,13.0,0.0,1,0.0,0.0,0.0,0,0,0,0,0,,,,,,,,,,,,,,,,,,,,
3223,0,,,247,247,251,246,,-0.16,0.03,0.99,0,-0,-0,0.16,,78,0,4,25,99,0.568,0.0,116,3.79,13.0,0.0,1,0.0,0.0,0.0,0,0,0,0,0,,,,,,,,,,,,,,,,,,,,
3243,0,4,2,247,247,251,246,-6,-0.16,0.03,0.99,0,-0,-0,0.16,1,78,0,4,25,99,0.57,0.0,116,3.44,13.0,0.0,1,0.0,0.0,0.0,0,0,0,0,0,0,250,250,0,0.0,0.0,0.0,0.0,0,0,0.0,0,0.0,-1,0.0,0.0,0.0,0,0.0,0.054
3263,0,,,247,247,251,246,,-0.16,0.03,0.99,0,-0,-0,0.16,,78,0,4,25,99,0.571,0.0,116,3.23,13.0,0.0,1,0.0,0.0,0.0,0,0,0,0,0,,,,,,,,,,,,,,,,,,,,
3283,0,,,247,246,251,246,,-0.16,0.03,0.99,0,-0,-0,0.16,,78,0,4,25,99,0.573,0.0,116,3.06,13.0,0.0,1,0.0,0.0,0.0,0,0,0,0,0,,,,,,,,,,,,,,,,,,,,
3303,0,,,247,246,251,246,,-0.16,0.03,0.99,0,-0,-0,0.16,,78,0,4,25,99,0.575,0.0,116,2.91,13.0,0.0,1,0.0,0.0,0.0,0,0,0,0,0,,,,,,,,,,,,,,,,,,,,
3323,0,,,247,247,251,246,,-0.16,0.03,0.99,0,-0,-0,0.16,,78,0,4,25,99,0.576,0.0,116,2.79,13.0,0.0,1,0.0,0.0,0.0,0,0,0,0,0,,,,,,,,,,,,,,,,,,,,
3343,0,3,3,247,246,251,246,-6,-0.16,0.03,0.99,0,-0,-0,0.16,1,78,0,4,25,99,0.579,0.0,116,2.68,13.0,0.0,1,0.0,0.0,0.0,0,0,0,0,0,0,250,250,0,0.0,0.0,0.0,0.0,0,0,0.0,0,0.0,-1,0.0,,0.0,0,0.0,0.0557
3363,0,,,247,247,251,246,,-0.16,0.03,0.99,0,-0,-0,0.16,,78,0,4,25,99,0.58,0.0,116,2.6,13.0,0.0,1,0.0,0.0,0.0,0,0,0,0,0,,,,,,,,,,,,,,,,,,,,
3383,0,,,247,246,251,246,,-0.16,0.03,0.99,0,-0,-0,0.16,,78,0,4,25,99,0.583,0.0,116,2.51,13.0,0.0,1,0.0,0.0,0.0,0,0,0,0,0,,,,,,,,,,,,,,,,,,,,
3403,0,,,247,247,251,246,,-0.16,0.03,0.99,0,-0,-0,0.16,,78,0,4,25,99,0.585,0.0,116,2.43,13.0,0.0,1,0.0,0.0,0.0,0,0,0,0,0,,,,,,,,,,,,,,,,,,,,
3423,0,,,247,247,251,246,,-0.16,0.03,0.99,0,-0,-0,0.16,,78,0,4,25,99,0.587,0.0,116,2.38,13.0,0.0,1,0.0,0.0,0.0,0,0,0,0,0,,,,,,,,,,,,,,,,,,,,
3443,0,3,3,247,247,251,246,-6,-0.16,0.03,0.99,0,-0,-0,0.16,1,78,0,4,25,99,0.588,0.0,116,2.32,13.0,0.0,1,0.0,0.0,0.0,0,0,0,0,0,0,250,250,0,0.0,0.0,0.0,0.0,0,0,0.0,0,0.0,-1,0.0,0.0,0.0,0,0.0,0.0574
3463,0,,,247,247,251,246,,-0.16,0.03,0.99,0,-0,-0,0.16,,78,0,4,25,99,0.59,0.0,116,2.27,13.0,0.0,1,0.0,0.0,0.0,0,0,0,0,0,,,,,,,,,,,,,,,,,,,,
3483,0,,,247,246,251,246,,-0.16,0.03,0.99,0,-0,-0,0.16,,78,0,4,25,99,0.592,0.0,116,2.21,13.0,0.0,1,0.0,0.0,0.0,0,0,0,0,0,,,,,,,,,,,,,,,,,,,,
3503,0,,,247,246,251,246,,-0.16,0.03,0.99,0,-0,-0,0.16,,78,0,4,25,99,0.594,0.0,116,2.17,13.1,0.0,1,0.0,0.0,0.0,0,0,0,0,0,,,,,,,,,,,,,,,,,,,,
3523,0,,,247,247,251,246,,-0.16,0.03,0.99,0,-0,-0,0.16,,78,0,4,25,99,0.597,0.0,116,2.13,13.0,0.0,1,0.0,0.0,0.0,0,0,0,0,0,,,,,,,,,,,,,,,,,,,,
3543,0,4,2,247,247,251,246,-6,-0.16,0.03,0.99,0,-0,-0,0.16,1,78,0,4,25,99,0.6,0.0,116,2.08,13.0,0.0,1,0.0,0.0,0.0,0,0,0,0,0,0,250,250,0,0.0,0.0,0.0,0.0,0,0,0.0,0,0.0,-1,0.0,,0.0,0,0.0,0.059
3563,0,,,247,247,251,246,,-0.16,0.03,0.99,-0,-0,-0,0.16,,78,0,4,25,99,0.602,0.0,116,2.05,13.0,0.0,1,0.0,0.0,0.0,0,0,0,0,0,,,,,,,,,,,,,,,,,,,,
3583,0,,,247,247,251,246,,-0.16,0.03,0.99,-0,-0,-0,0.16,,78,0,4,25,99,0.604,0.0,116,2.02,13.0,0.0,1,0.0,0.0,0.0,0,0,0,0,0,,,,,,,,,,,,,,,,,,,,
3603,0,,,247,247,251,246,,-0.16,0.03,0.99,0,-0,-0,0.16,,78,0,4,25,99,0.607,0.0,116,1.99,13.0,0.0,1,0.0,0.0,0.0,0,0,0,0,0,,,,,,,,,,,,,,,,,,,,
3623,0,,,247,246,251,246,,-0.16,0.03,0.99,0,-0,-0,0.16,,78,0,4,25,99,0.609,0.0,116,1.94,13.0,0.0,1,0.0,0.0,0.0,0,0,0,0,0,,,,,,,,,,,,,,,,,,,,
3643,0,4,1,247,247,251,246,-6,-0.16,0.03,0.99,0,-0,-0,0.16,1,78,0,4,25,99,0.611,0.0,116,1.92,13.1,0.0,1,0.0,0.0,0.0,0,0,0,0,0,0,250,250,0,0.0,0.0,0.0,0.0,0,0,0.0,0,0.0,-1,0.0,0.0,0.0,0,0.0,0.0607
3663,0,,,247,246,251,246,,-0.16,0.03,0.99,0,-0,-0,0.16,,78,0,4,25,99,0.613,0.0,116,1.89,13.1,0.0,1,0.0,0.0,0.0,0,0,0,0,0,,,,,,,,,,,,,,,,,,,,
3683,0,,,247,247,251,246,,-0.16,0.03,0.99,0,-0,-0,0.16,,78,0,4,25,99,0.614,0.0,116,1.86,13.0,0.0,1,0.0,0.0,0.0,0,0,0,0,0,,,,,,,,,,,,,,,,,,,,
3703,0,,,247,247,251,246,,-0.16,0.03,0.99,-0,-0,-0,0.16,,78,0,4,25,99,0.617,0.0,116,1.84,13.0,0.0,1,0.0,0.0,0.0,0,0,0,0,0,,,,,,,,,,,,,,,,,,,,
3723,0,,,247,247,251,246,,-0.16,0.03,0.99,0,-0,-0,0.16,,78,0,4,25,99,0.618,0.0,116,1.83,13.0,0.0,1,0.0,0.0,0.0,0,0,0,0,0,,,,,,,,,,,,,,,,,,,,
3743,0,4,3,247,247,251,246,-6,-0.16,0.03,0.99,-0,-0,-0,0.16,1,78,0,4,25,99,0.619,0.0,116,1.8,13.0,0.0,1,0.0,0.0,0.0,0,0,0,0,0,0,250,250,0,0.0,0.0,0.0,0.0,0,0,0.0,0,0.0,-1,0.0,,0.0,0,0.0,0.0624
3763,0,,,247,247,251,246,,-0.16,0.03,0.99,0,-0,-0,0.16,,78,0,4,25,99,0.62,0.0,116,1.78,13.0,0.0,1,0.0,0.0,0.0,0,0,0,0,0,,,,,,,,,,,,,,,,,,,,
3783,0,,,247,247,251,246,,-0.16,0.03,0.99,-0,-0,-0,0.16,,78,0,4,25,99,0.621,0.0,116,1.78,13.0,0.0,1,0.0,0.0,0.0,0,0,0,0,0,,,,,,,,,,,,,,,,,,,,
3803,0,,,247,246,251,246,,-0.16,0.03,0.99,-0,-0,-0,0.16,,78,0,4,25,99,0.622,0.0,116,1.75,13.0,0.0,1,0.0,0.0,0.0,0,0,0,0,0,,,,,,,,,,,,,,,,,,,,
3823,0,,,247,247,251,246,,-0.16,0.03,0.99,-0,-0,-0,0.16,,78,0,4,25,99,0.623,0.0,116,1.73,13.0,0.0,1,0.0,0.0,0.0,0,0,0,0,0,,,,,,,,,,,,,,,,,,,,
3843,0,3,3,247,247,251,246,-5,-0.16,0.03,0.99,0,-0,-0,0.16,1,78,0,4,25,99,0.623,0.0,116,1.72,13.1,0.0,1,0.0,0.0,0.0,0,0,0,0,0,0,250,250,0,0.0,0.0,0.0,0.0,0,0,0.0,0,0.0,-1,0.0,0.0,0.0,0,0.0,0.064
3863,0,,,247,247,251,246,,-0.16,0.03,0.99,0,-0,-0,0.16,,78,0,4,25,99,0.623,0.0,116,1.7,13.0,0.0,1,0.0,0.0,0.0,0,0,0,0,0,,,,,,,,,,,,,,,,,,,,
3883,0,,,247,247,251,246,,-0.16,0.03,0.99,0,-0,-0,0.16,,78,0,4,25,99,0.623,0.0,116,1.67,13.0,0.0,1,0.0,0.0,0.0,0,0,0,0,0,,,,,,,,,,,,,,,,,,,,
3903,0,,,247,247,251,246,,-0.16,0.03,0.99,0,0,-0,0.16,,78,0,4,25,99,0.623,0.0,116,1.67,13.0,0.0,1,0.0,0.0,0.0,0,0,0,0,0,,,,,,,,,,,,,,,,,,,,
3923,0,,,247,247,251,246,,-0.16,0.03,0.99,0,0,-0,0.16,,78,0,4,25,99,0.624,0.0,115,1.65,13.0,0.0,1,0.0,0.0,0.0,0,0,0,0,0,,,,,,,,,,,,,,,,,,,,
3943,0,3,2,247,247,251,246,-6,-0.16,0.03,0.99,0,-0,-0,0.16,1,78,0,4,25,99,0.624,0.0,116,1.64,13.0,0.0,1,0.0,0.0,0.0,0,0,0,0,0,0,250,250,0,0.0,0.0,0.0,0.0,0,0,0.0,0,0.0,-1,0.0,,0.0,0,0.0,0.0657
3963,0,,,247,247,251,246,,-0.16,0.03,0.99,0,-0,-0,0.16,,78,0,4,25,99,0.624,0.0,116,1.61,13.0,0.0,1,0.0,0.0,0.0,0,0,0,0,0,,,,,,,,,,,,,,,,,,,,
3983,0,,,247,247,251,246,,-0.16,0.03,0.99,0,-0,-0,0.16,,78,0,4,25,99,0.625,0.0,116,1.61,13.0,0.0,1,0.0,0.0,0.0,0,0,0,0,0,,,,,,,,,,,,,,,,,,,,
4003,0,,,247,246,251,246,,-0.16,0.03,0.99,0,-0,-0,0.16,,78,0,4,25,99,0.625,0.0,116,1.61,13.0,0.0,1,0.0,0.0,0.0,0,0,0,0,0,,,,,,,,,,,,,,,,,,,,
4023,0,,,247,247,251,246,,-0.16,0.03,0.99,-0,-0,-0,0.16,,78,0,4,25,99,0.625,0.0,116,1.58,13.1,0.0,1,0.0,0.0,0.0,0,0,0,0,0,,,,,,,,,,,,,,,,,,,,
4043,0,2,1,247,247,251,246,-6,-0.16,0.03,0.99,0,0,-0,0.16,1,78,0,4,25,99,0.625,0.0,116,1.58,13.0,0.0,1,0.0,0.0,0.0,0,0,0,0,0,0,250,250,0,0.0,0.0,0.0,0.0,0,0,0.0,0,0.0,-1,0.0,0.0,0.0,0,0.0,0.0674
4063,0,,,247,247,251,246,,-0.16,0.03,0.99,-0,0,-0,0.16,,78,0,4,25,99,0.625,0.0,116,1.56,13.0,0.0,1,0.0,0.0,0.0,0,0,0,0,0,,,,,,,,,,,,,,,,,,,,
4083,0,,,247,247,251,246,,-0.16,0.03,0.99,-0,0,-0,0.16,,78,0,4,25,99,0.626,0.0,116,1.56,13.0,0.0,1,0.0,0.0,0.0,0,0,0,0,0,,,,,,,,,,,,,,,,,,,,
4103,0,,,247,247,251,246,,-0.16,0.03,0.99,-0,0,-0,0.16,,78,0,4,25,99,0.626,0.0,116,1.56,13.0,0.0,1,0.0,0.0,0.0,0,0,0,0,0,,,,,,,,,,,,,,,,,,,,
4123,0,,,247,247,251,246,,-0.16,0.03,0.99,0,0,-0,0.16,,78,0,4,25,99,0.626,0.0,116,1.53,13.0,0.0,1,0.0,0.0,0.0,0,0,0,0,0,,,,,,,,,,,,,,,,,,,,
4143,0,4,2,247,247,251,246,-6,-0.16,0.03,0.99,0,0,-0,0.16,1,78,0,4,25,99,0.626,0.0,116,1.52,13.0,0.0,1,0.0,0.0,0.0,0,0,0,0,0,0,250,250,0,0.0,0.0,0.0,0.0,0,0,0.0,0,0.0,-1,0.0,,0.0,0,0.0,0.069
4163,0,,,247,247,251,246,,-0.16,0.03,0.99,-0,0,-0,0.16,,78,0,4,25,99,0.626,0.0,116,1.51,13.1,0.0,1,0.0,0.0,0.0,0,0,0,0,0,,,,,,,,,,,,,,,,,,,,
4183,0,,,247,247,251,246,,-0.16,0.03,0.99,-0,0,-0,0.16,,78,0,4,25,99,0.626,0.0,116,1.51,13.0,0.0,1,0.0,0.0,0.0,0,0,0,0,0,,,,,,,,,,,,,,,,,,,,
4203,0,,,247,247,251,246,,-0.16,0.03,0.99,-0,0,-0,0.16,,78,0,4,25,99,0.626,0.0,116,1.51,13.0,0.0,1,0.0,0.0,0.0,0,0,0,0,0,,,,,,,,,,,,,,,,,,,,
4223,0,,,247,246,251,246,,-0.16,0.03,0.99,-0,0,-0,0.16,,78,0,4,25,99,0.627,0.0,116,1.5,13.0,0.0,1,0.0,0.0,0.0,0,0,0,0,0,,,,,,,,,,,,,,,,,,,,
4243,0,2,3,247,247,251,246,-5,-0.16,0.03,0.99,0,0,-0,0.16,1,78,0,4,25,99,0.627,0.0,116,1.48,13.0,0.0,1,0.0,0.0,0.0,0,0,0,0,0,0,250,250,0,0.0,0.0,0.0,0.0,0,0,0.0,0,0.0,-1,0.0,0.0,0.0,0,0.0,0.0707
4263,0,,,247,247,251,246,,-0.16,0.03,0.99,-0,0,-0,0.16,,78,0,4,25,99,0.627,0.0,116,1.48,13.0,0.0,1,0.0,0.0,0.0,0,0,0,0,0,,,,,,,,,,,,,,,,,,,,
4283,0,,,247,247,251,246,,-0.16,0.03,0.99,-0,0,-0,0.16,,78,0,4,25,99,0.627,0.0,116,1.48,13.0,0.0,1,0.0,0.0,0.0,0,0,0,0,0,,,,,,,,,,,,,,,,,,,,
4303,0,,,247,247,251,246,,-0.16,0.03,0.99,-0,0,-0,0.16,,78,0,4,25,99,0.627,0.0,116,1.45,13.0,0.0,1,0.0,0.0,0.0,0,0,0,0,0,,,,,,,,,,,,,,,,,,,,
4323,0,,,247,247,251,246,,-0.16,0.03,0.99,-0,0,-0,0.16,,78,0,4,25,99,0.627,0.0,116,1.45,13.0,0.0,1,0.0,0.0,0.0,0,0,0,0,0,,,,,,,,,,,,,,,,,,,,
4343,0,3,2,247,246,251,246,-6,-0.16,0.03,0.99,0,0,-0,0.16,1,78,0,4,25,99,0.627,0.0,116,1.45,13.1,0.0,1,0.0,0.0,0.0,0,0,0,0,0,0,250,250,0,0.0,0.0,0.0,0.0,0,0,0.0,0,0.0,-1,0.0,,0.0,0,0.0,0.0724
4363,0,,,247,246,251,246,,-0.16,0.03,0.99,-0,0,-0,0.16,,78,0,4,25,99,0.628,0.0,116,1.44,13.0,0.0,1,0.0,0.0,0.0,0,0,0,0,0,,,,,,,,,,,,,,,,,,,,
4383,0,,,247,247,251,246,,-0.16,0.03,0.99,-0,0,-0,0.16,,78,0,4,25,99,0.628,0.0,116,1.43,13.0,0.0,1,0.0,0.0,0.0,0,0,0,0,0,,,,,,,,,,,,,,,,,,,,
4403,0,,,247,247,251,246,,-0.16,0.03,0.99,-0,0,-0,0.16,,78,0,4,25,99,0.628,0.0,116,1.42,13.0,0.0,1,0.0,0.0,0.0,0,0,0,0,0,,,,,,,,,,,,,,,,,,,,
4423,0,,,247,247,251,246,,-0.16,0.03,0.99,-0,0,-0,0.16,,78,0,4,25,99,0.628,0.0,116,1.42,13.0,0.0,1,0.0,0.0,0.0,0,0,0,0,0,,,,,,,,,,,,,,,,,,,,
4443,0,3,2,247,247,251,246,-6,-0.16,0.03,0.99,-0,0,-0,0.16,1,78,0,4,25,99,0.628,0.0,116,1.42,13.0,0.0,1,0.0,0.0,0.0,0,0,0,0,0,0,250,250,0,0.0,0.0,0.0,0.0,0,0,0.0,0,0.0,-1,0.0,0.0,0.0,0,0.0,0.074
4463,0,,,247,246,251,246,,-0.16,0.03,0.99,-0,0,-0,0.16,,78,0,4,25,99,0.628,0.0,116,1.4,13.0,0.0,1,0.0,0.0,0.0,0,0,0,0,0,,,,,,,,,,,,,,,,,,,,
4483,0,,,247,247,251,246,,-0.16,0.03,0.99,0,0,-0,0.16,,78,0,4,26,99,0.628,0.0,116,1.4,13.0,0.0,1,0.0,0.0,0.0,0,0,0,0,0,,,,,,,,,,,,,,,,,,,,
4503,0,,,247,247,251,246,,-0.16,0.03,0.99,0,0,-0,0.16,,78,0,4,26,99,0.628,0.0,116,1.4,13.0,0.0,1,0.0,0.0,0.0,0,0,0,0,0,,,,,,,,,,,,,,,,,,,,
4523,0,,,247,247,251,246,,-0.16,0.03,0.99,0,0,-0,0.16,,78,0,4,25,99,0.628,0.0,116,1.4,13.1,0.0,1,0.0,0.0,0.0,0,0,0,0,0,,,,,,,,,,,,,,,,,,,,
4543,0,2,3,247,246,251,246,-6,-0.16,0.03,0.99,0,0,-0,0.16,1,78,0,4,25,99,0.628,0.0,116,1.4,13.0,0.0,1,0.0,0.0,0.0,0,0,0,0,0,0,250,250,0,0.0,0.0,0.0,0.0,0,0,0.0,0,0.0,-1,0.0,,0.0,0,0.0,0.0757
4563,0,,,247,247,251,246,,-0.16,0.03,0.99,0,0,-0,0.16,,78,0,4,25,99,0.628,0.0,116,1.37,13.0,0.0,1,0.0,0.0,0.0,0,0,0,0,0,,,,,,,,,,,,,,,,,,,,
4583,0,,,247,247,251,246,,-0.16,0.03,0.99,0,0,-0,0.16,,78,0,4,25,99,0.628,0.0,116,1.37,13.0,0.0,1,0.0,0.0,0.0,0,0,0,0,0,,,,,,,,,,,,,,,,,,,,
4603,0,,,247,246,251,246,,-0.16,0.03,0.99,0,0,-0,0.16,,78,0,4,25,99,0.629,0.0,116,1.37,13.0,0.0,1,0.0,0.0,0.0,0,0,0,0,0,,,,,,,,,,,,,,,,,,,,
4623,0,,,247,247,251,246,,-0.16,0.03,0.99,0,0,-0,0.16,,78,0,4,26,99,0.629,0.0,116,1.37,13.0,0.0,1,0.0,0.0,0.0,0,0,0,0,0,,,,,,,,,,,,,,,,,,,,
4643,0,4,3,247,247,251,246,-5,-0.16,0.03,0.99,0,0,-0,0.16,1,78,0,4,26,99,0.629,0.0,116,1.37,13.0,0.0,1,0.0,0.0,0.0,0,0,0,0,0,0,250,250,0,0.0,0.0,0.0,0.0,0,0,0.0,0,0.0,-1,0.0,0.0,0.0,0,0.0,0.0774
4663,0,,,247,247,251,246,,-0.16,0.03,0.99,0,0,-0,0.16,,78,0,4,26,99,0.63,0.0,116,1.36,13.0,0.0,1,0.0,0.0,0.0,0,0,0,0,0,,,,,,,,,,,,,,,,,,,,
4683,0,,,247,247,251,246,,-0.16,0.03,0.99,0,0,-0,0.16,,78,0,4,26,99,0.63,0.0,116,1.34,13.1,0.0,1,0.0,0.0,0.0,0,0,0,0,0,,,,,,,,,,,,,,,,,,,,
4703,0,,,247,246,251,246,,-0.16,0.03,0.99,0,0,-0,0.16,,78,0,4,26,99,0.63,0.0,115,1.34,13.0,0.0,1,0.0,0.0,0.0,0,0,0,0,0,,,,,,,,,,,,,,,,,,,,
4723,0,,,247,247,251,246,,-0.16,0.03,0.99,0,0,-0,0.16,,78,0,4,26,99,0.63,0.0,116,1.34,13.0,0.0,1,0.0,0.0,0.0,0,0,0,0,0,,,,,,,,,,,,,,,,,,,,
4743,0,2,3,247,247,251,246,-6,-0.16,0.03,0.99,0,0,-0,0.16,1,78,0,4,26,99,0.632,0.0,116,1.34,13.0,0.0,1,0.0,0.0,0.0,0,0,0,0,0,0,250,250,0,0.0,0.0,0.0,0.0,0,0,0.0,0,0.0,-1,0.0,,0.0,0,0.0,0.079
4763,0,,,247,247,251,246,,-0.16,0.03,0.99,0,0,-0,0.16,,78,0,4,26,99,0.632,0.0,116,1.33,13.0,0.0,1,0.0,0.0,0.0,0,0,0,0,0,,,,,,,,,,,,,,,,,,,,
4783,0,,,247,247,251,246,,-0.16,0.03,0.99,0,0,-0,0.16,,78,0,4,26,99,0.633,0.0,116,1.33,13.0,0.0,1,0.0,0.0,0.0,0,0,0,0,0,,,,,,,,,,,,,,,,,,,,
4803,0,,,247,247,251,246,,-0.16,0.03,0.99,0,0,-0,0.16,,78,0,4,26,99,0.633,0.0,116,1.32,13.0,0.0,1,0.0,0.0,0.0,0,0,0,0,0,,,,,,,,,,,,,,,,,,,,
4823,0,,,247,247,251,246,,-0.16,0.03,0.99,0,0,-0,0.16,,78,0,4,26,99,0.634,0.0,116,1.31,13.0,0.0,1,0.0,0.0,0.0,0,0,0,0,0,,,,,,,,,,,,,,,,,,,,
4843,0,4,3,247,246,251,246,-6,-0.16,0.03,0.99,0,0,-0,0.16,1,78,0,4,26,99,0.634,0.0,116,1.31,13.0,0.0,1,0.0,0.0,0.0,0,0,0,0,0,0,250,250,0,0.0,0.0,0.0,0.0,0,0,0.0,0,0.0,-1,0.0,0.0,0.0,0,0.0,0.0807
4863,0,,,247,247,251,246,,-0.16,0.03,0.99,0,0,-0,0.16,,78,0,4,26,99,0.635,0.0,116,1.31,13.1,0.0,1,0.0,0.0,0.0,0,0,0,0,0,,,,,,,,,,,,,,,,,,,,
4883,0,,,247,247,251,246,,-0.16,0.03,0.99,0,-0,-0,0.16,,78,0,4,26,99,0.635,0.0,116,1.31,13.0,0.0,1,0.0,0.0,0.0,0,0,0,0,0,,,,,,,,,,,,,,,,,,,,
4903,0,,,247,246,251,246,,-0.16,0.03,0.99,0,0,-0,0.16,,78,0,4,26,99,0.635,0.0,116,1.31,13.0,0.0,1,0.0,0.0,0.0,0,0,0,0,0,,,,,,,,,,,,,,,,,,,,
4923,0,,,247,247,251,246,,-0.16,0.03,0.99,0,0,-0,0.16,,78,0,4,26,99,0.636,0.0,116,1.3,13.0,0.0,1,0.0,0.0,0.0,0,0,0,0,0,,,,,,,,,,,,,,,,,,,,
4943,0,4,3,247,247,251,246,-6,-0.16,0.03,0.99,0,0,-0,0.16,1,78,0,4,26,99,0.638,0.0,116,1.28,13.0,0.0,1,0.0,0.0,0.0,0,0,0,0,0,0,250,250,0,0.0,0.0,0.0,0.0,0,0,0.0,0,0.0,-1,0.0,,0.0,0,0.0,0.0824
4963,0,,,247,247,251,246,,-0.16,0.03,0.99,0,0,-0,0.16,,78,0,4,26,99,0.638,0.0,116,1.28,13.0,0.0,1,0.0,0.0,0.0,0,0,0,0,0,,,,,,,,,,,,,,,,,,,,
4983,0,,,247,247,251,246,,-0.16,0.03,0.99,0,0,-0,0.16,,78,0,4,26,99,0.638,0.0,116,1.28,13.0,0.0,1,0.0,0.0,0.0,0,0,0,0,0,,,,,,,,,,,,,,,,,,,,
5003,0,,,247,247,251,246,,-0.16,0.03,0.99,0,-0,-0,0.16,,78,0,4,26,99,0.637,0.0,116,1.28,13.0,0.0,1,0.0,0.0,0.0,0,0,0,0,0,,,,,,,,,,,,,,,,,,,,
5023,0,,,247,247,251,246,,-0.16,0.03,0.99,0,-0,-0,0.16,,78,0,4,26,99,0.636,0.0,116,1.28,13.1,0.0,1,0.0,0.0,0.0,0,0,0,0,0,,,,,,,,,,,,,,,,,,,,
5043,0,2,1,247,247,251,246,-6,-0.16,0.03,0.99,0,-0,-0,0.16,1,78,0,4,26,99,0.634,0.0,116,1.28,13.0,0.0,1,0.0,0.0,0.0,0,0,0,0,0,0,250,250,0,0.0,0.0,0.0,0.0,0,0,0.0,0,0.0,-1,0.0,0.0,0.0,0,0.0,0.084
5063,0,,,247,246,251,246,,-0.16,0.03,0.99,0,-0,-0,0.16,,78,0,4,26,99,0.633,0.0,116,1.28,13.0,0.0,1,0.0,0.0,0.0,0,0,0,0,0,,,,,,,,,,,,,,,,,,,,
5083,0,,,247,247,251,246,,-0.16,0.03,0.99,0,-0,-0,0.16,,78,0,4,26,99,0.634,0.0,116,1.27,13.0,0.0,1,0.0,0.0,0.0,0,0,0,0,0,,,,,,,,,,,,,,,,,,,,
5103,0,,,247,246,251,246,,-0.16,0.03,0.99,0,-0,-0,0.16,,78,0,4,26,99,0.634,0.0,116,1.27,13.0,0.0,1,0.0,0.0,0.0,0,0,0,0,0,,,,,,,,,,,,,,,,,,,,
5123,0,,,247,247,251,246,,-0.16,0.03,0.99,0,-0,-0,0.16,,78,0,4,26,99,0.634,0.0,116,1.26,13.0,0.0,1,0.0,0.0,0.0,0,0,0,0,0,,,,,,,,,,,,,,,,,,,,
5143,0,3,3,247,247,251,246,-6,-0.16,0.03,0.99,0,-0,-0,0.16,1,78,0,4,26,99,0.631,0.0,116,1.26,13.0,0.0,1,0.0,0.0,0.0,0,0,0,0,0,0,250,250,0,0.0,0.0,0.0,0.0,0,0,0.0,0,0.0,-1,0.0,,0.0,0,0.0,0.0857
5163,0,,,247,247,251,246,,-0.16,0.03,0.99,0,-0,-0,0.16,,78,0,4,26,99,0.63,0.0,116,1.26,13.0,0.0,1,0.0,0.0,0.0,0,0,0,0,0,,,,,,,,,,,,,,,,,,,,
5183,0,,,247,247,251,246,,-0.16,0.03,0.99,0,-0,-0,0.16,,78,0,4,26,99,0.629,0.0,116,1.26,13.1,0.0,1,0.0,0.0,0.0,0,0,0,0,0,,,,,,,,,,,,,,,,,,,,
5203,0,,,247,247,251,246,,-0.16,0.03,0.99,0,-0,-0,0.16,,78,0,4,26,99,0.629,0.0,116,1.26,13.0,0.0,1,0.0,0.0,0.0,0,0,0,0,0,,,,,,,,,,,,,,,,,,,,
5223,0,,,247,247,251,246,,-0.16,0.03,0.99,0,-0,-0,0.16,,78,0,4,26,99,0.627,0.0,116,1.26,13.1,0.0,1,0.0,0.0,0.0,0,0,0,0,0,,,,,,,,,,,,,,,,,,,,
5243,0,5,3,247,247,251,246,-5,-0.16,0.03,0.99,0,-0,-0,0.16,1,78,0,4,26,99,0.626,0.0,116,1.26,13.0,0.0,1,0.0,0.0,0.0,0,0,0,0,0,0,250,250,0,0.0,0.0,0.0,0.0,0,0,0.0,0,0.0,-1,0.0,0.0,0.0,0,0.0,0.0874
5263,0,,,247,247,251,246,,-0.16,0.03,0.99,0,-0,-0,0.16,,78,0,4,26,99,0.626,0.0,116,1.25,13.0,0.0,1,0.0,0.0,0.0,0,0,0,0,0,,,,,,,,,,,,,,,,,,,,
5283,0,,,247,247,251,246,,-0.16,0.03,0.99,0,-0,-0,0.16,,78,0,4,26,99,0.627,0.0,116,1.24,13.0,0.0,1,0.0,0.0,0.0,0,0,0,0,0,,,,,,,,,,,,,,,,,,,,
5303,0,,,247,247,251,246,,-0.16,0.03,0.99,0,-0,-0,0.16,,78,0,4,26,99,0.627,0.0,116,1.24,13.0,0.0,1,0.0,0.0,0.0,0,0,0,0,0,,,,,,,,,,,,,,,,,,,,
5323,0,,,247,247,251,246,,-0.16,0.03,0.99,0,-0,-0,0.16,,78,0,4,26,99,0.628,0.0,116,1.23,13.0,0.0,1,0.0,0.0,0.0,0,0,0,0,0,,,,,,,,,,,,,,,,,,,,
5343,0,5,2,247,247,251,246,-5,-0.16,0.03,0.99,0,-0,-0,0.16,1,78,0,4,26,99,0.629,0.0,116,1.23,13.0,0.0,1,0.0,0.0,0.0,0,0,0,0,0,0,250,250,0,0.0,0.0,0.0,0.0,0,0,0.0,0,0.0,-1,0.0,,0.0,0,0.0,0.089
5363,0,,,247,247,251,246,,-0.16,0.03,0.99,0,-0,-0,0.16,,78,0,4,26,99,0.629,0.0,116,1.23,13.1,0.0,1,0.0,0.0,0.0,0,0,0,0,0,,,,,,,,,,,,,,,,,,,,
5383,0,,,247,247,251,246,,-0.16,0.03,0.99,0,-0,-0,0.16,,78,0,4,26,99,0.63,0.0,116,1.23,13.1,0.0,1,0.0,0.0,0.0,0,0,0,0,0,,,,,,,,,,,,,,,,,,,,
5403,0,,,247,247,251,246,,-0.16,0.03,0.99,0,-0,-0,0.16,,78,0,4,26,99,0.629,0.0,116,1.23,13.0,0.0,1,0.0,0.0,0.0,0,0,0,0,0,,,,,,,,,,,,,,,,,,,,
5423,0,,,247,247,251,246,,-0.16,0.03,0.99,0,-0,-0,0.16,,78,0,4,26,99,0.63,0.0,116,1.23,13.0,0.0,1,0.0,0.0,0.0,0,0,0,0,0,,,,,,,,,,,,,,,,,,,,
5443,0,6,4,247,247,251,246,-6,-0.16,0.03,0.99,0,-0,-0,0.16,1,78,0,4,26,99,0.63,0.0,116,1.23,13.0,0.0,1,0.0,0.0,0.0,0,0,0,0,0,0,250,250,0,0.0,0.0,0.0,0.0,0,0,0.0,0,0.0,-1,0.0,0.0,0.0,0,0.0,0.0907
5463,0,,,247,247,251,246,,-0.16,0.03,0.99,0,-0,-0,0.16,,78,0,4,26,99,0.631,0.0,116,1.23,13.0,0.0,1,0.0,0.0,0.0,0,0,0,0,0,,,,,,,,,,,,,,,,,,,,
5483,0,,,247,247,251,246,,-0.16,0.03,0.99,0,-0,-0,0.16,,78,0,4,26,99,0.632,0.0,116,1.23,13.0,0.0,1,0.0,0.0,0.0,0,0,0,0,0,,,,,,,,,,,,,,,,,,,,
5503,0,,,247,247,251,246,,-0.16,0.03,0.99,0,-0,-0,0.16,,78,0,4,26,99,0.632,0.0,116,1.23,13.0,0.0,1,0.0,0.0,0.0,0,0,0,0,0,,,,,,,,,,,,,,,,,,,,
5523,0,,,247,247,251,246,,-0.16,0.03,0.99,0,-0,-0,0.16,,78,0,4,26,99,0.632,0.0,116,1.23,13.1,0.0,1,0.0,0.0,0.0,0,0,0,0,0,,,,,,,,,,,,,,,,,,,,
5543,0,8,5,247,247,251,246,-6,-0.16,0.03,0.99,0,0,-0,0.16,1,78,0,4,26,99,0.632,0.0,116,1.22,13.1,0.0,1,0.0,0.0,0.0,0,0,0,0,0,0,250,250,0,0.0,0.0,0.0,0.0,0,0,0.0,0,0.0,-1,0.0,,0.0,0,0.0,0.0924
5563,0,,,247,247,251,246,,-0.16,0.03,0.99,0,0,-0,0.16,,78,0,4,26,99,0.632,0.0,116,1.22,13.1,0.0,1,0.0,0.0,0.0,0,0,0,0,0,,,,,,,,,,,,,,,,,,,,
5583,0,,,247,247,251,246,,-0.16,0.03,0.99,0,-0,-0,0.16,,78,0,4,26,99,0.632,0.0,116,1.21,13.1,0.0,1,0.0,0.0,0.0,0,0,0,0,0,,,,,,,,,,,,,,,,,,,,
5603,0,,,247,247,251,246,,-0.16,0.03,0.99,0,-0,-0,0.16,,78,0,4,26,99,0.632,0.0,116,1.21,13.0,0.0,1,0.0,0.0,0.0,0,0,0,0,0,,,,,,,,,,,,,,,,,,,,
5623,0,,,247,247,251,246,,-0.16,0.03,0.99,0,-0,-0,0.16,,78,0,4,26,99,0.633,0.0,116,1.21,13.0,0.0,1,0.0,0.0,0.0,0,0,0,0,0,,,,,,,,,,,,,,,,,,,,
5643,0,11,7,247,247,251,246,-6,-0.16,0.03,0.99,0,-0,-0,0.16,1,78,0,4,26,99,0.634,0.0,116,1.21,13.0,0.0,1,0.0,0.0,0.0,0,0,0,0,0,0,250,250,0,0.0,0.0,0.0,0.0,0,0,0.0,0,0.0,-1,0.0,0.0,0.0,0,0.0,0.094
5663,0,,,247,247,251,246,,-0.16,0.03,0.99,0,-0,-0,0.16,,78,0,4,26,99,0.635,0.0,116,1.2,13.0,0.0,1,0.0,0.0,0.0,0,0,0,0,0,,,,,,,,,,,,,,,,,,,,
5683,0,,,247,247,251,246,,-0.16,0.03,0.99,0,-0,-0,0.16,,78,0,4,26,99,0.636,0.0,116,1.2,13.0,0.0,1,0.0,0.0,0.0,0,0,0,0,0,,,,,,,,,,,,,,,,,,,,
5703,0,,,247,247,251,246,,-0.16,0.03,0.99,0,0,-0,0.16,,78,0,4,26,99,0.637,0.0,116,1.19,13.1,0.0,1,0.0,0.0,0.0,0,0,0,0,0,,,,,,,,,,,,,,,,,,,,
5723,0,,,247,247,251,246,,-0.16,0.03,0.99,0,0,-0,0.16,,78,0,4,26,99,0.637,0.0,116,1.19,13.1,0.0,1,0.0,0.0,0.0,0,0,0,0,0,,,,,,,,,,,,,,,,,,,,
5743,0,12,6,247,247,251,246,-5,-0.16,0.03,0.99,0,0,-0,0.16,1,78,0,4,26,99,0.637,0.0,116,1.2,13.0,0.0,1,0.0,0.0,0.0,0,0,0,0,0,0,250,250,0,0.0,0.0,0.0,0.0,0,0,0.0,0,0.0,-1,0.0,,0.0,0,0.0,0.0957
5763,0,,,247,247,251,246,,-0.16,0.03,0.99,0,-0,-0,0.16,,78,0,4,26,99,0.637,0.0,116,1.2,13.0,0.0,1,0.0,0.0,0.0,0,0,0,0,0,,,,,,,,,,,,,,,,,,,,
5783,0,,,247,247,251,246,,-0.16,0.03,0.99,0,-0,-0,0.16,,78,0,4,26,99,0.637,0.0,116,1.2,13.0,0.0,1,0.0,0.0,0.0,0,0,0,0,0,,,,,,,,,,,,,,,,,,,,
5803,0,,,247,247,251,246,,-0.16,0.03,0.99,0,-0,-0,0.16,,78,0,4,26,99,0.637,0.0,116,1.18,13.0,0.0,1,0.0,0.0,0.0,0,0,0,0,0,,,,,,,,,,,,,,,,,,,,
5823,0,,,247,247,251,246,,-0.16,0.03,0.99,0,-0,-0,0.16,,78,0,4,26,99,0.637,0.0,116,1.18,13.0,0.0,1,0.0,0.0,0.0,0,0,0,0,0,,,,,,,,,,,,,,,,,,,,
5843,0,12,7,247,247,251,246,-6,-0.16,0.03,0.99,0,-0,-0,0.16,1,78,0,4,26,99,0.636,0.0,116,1.18,13.0,0.0,1,0.0,0.0,0.0,0,0,0,0,0,0,250,250,0,0.0,0.0,0.0,0.0,0,0,0.0,0,0.0,-1,0.0,0.0,0.0,0,0.0,0.0974
5863,0,,,247,247,251,246,,-0.16,0.03,0.98,0,0,-0,0.16,,78,0,4,26,99,0.635,0.0,116,1.17,10.8,0.0,1,0.0,0.0,0.0,0,0,0,0,0,,,,,,,,,,,,,,,,,,,,
5883,0,,,247,247,251,246,,-0.16,0.03,0.99,0,0,-0,0.16,,78,0,4,26,99,0.632,0.0,116,1.17,10.1,0.0,1,0.0,0.0,0.0,0,0,0,0,0,,,,,,,,,,,,,,,,,,,,
5903,0,,,247,247,251,246,,-0.16,0.02,0.99,0,0,-0,0.16,,78,0,4,26,99,0.629,0.0,116,1.18,10.7,0.0,1,0.0,0.0,0.0,0,0,0,0,0,,,,,,,,,,,,,,,,,,,,
5923,0,,,247,247,251,246,,-0.16,0.02,0.99,0,0,-0,0.16,,78,0,4,26,99,0.627,0.0,116,1.18,11.1,0.0,1,0.0,0.0,0.0,0,0,0,0,0,,,,,,,,,,,,,,,,,,,,
5943,0,12,6,247,247,251,246,-6,-0.16,0.03,0.99,0,0,-0,0.16,1,78,0,4,26,99,0.625,0.0,116,1.18,11.3,0.0,1,0.0,0.0,0.0,0,0,0,0,0,0,250,250,0,0.0,0.0,0.0,0.0,0,0,0.0,0,0.0,-1,0.0,,0.0,0,0.0,0.099
5963,0,,,247,247,251,246,,-0.16,0.03,0.99,0,0,-0,0.16,,78,0,4,26,99,0.625,0.0,118,1.18,11.4,0.0,1,0.0,0.0,0.0,0,0,0,0,0,,,,,,,,,,,,,,,,,,,,
5983,0,,,247,247,251,246,,-0.16,0.03,0.99,0,0,-0,0.16,,78,0,4,26,99,0.626,0.0,118,1.18,11.4,0.0,1,0.0,0.0,0.0,0,0,0,0,0,,,,,,,,,,,,,,,,,,,,
6003,0,,,247,247,251,246,,-0.16,0.03,0.99,0,-0,-0,0.16,,78,0,4,26,99,0.627,0.0,118,1.18,11.2,0.0,1,0.0,0.0,0.0,0,0,0,0,0,,,,,,,,,,,,,,,,,,,,
6023,0,,,247,247,251,246,,-0.16,0.03,0.99,0,-0,-0,0.16,,78,0,4,26,99,0.628,0.0,118,1.18,11.5,0.0,1,0.0,0.0,0.0,0,0,0,0,0,,,,,,,,,,,,,,,,,,,,
6043,0,12,5,247,247,251,246,-5,-0.16,0.03,0.99,0,0,-0,0.16,1,78,0,4,26,99,0.629,0.0,118,1.18,11.8,0.0,1,0.0,0.0,0.0,0,0,0,0,0,0,250,250,0,0.0,0.0,0.0,0.0,0,0,0.0,0,0.0,-1,0.0,0.0,0.0,0,0.0,0.1007
6063,0,,,247,247,251,246,,-0.16,0.02,0.98,0,0,-0,0.16,,78,0,4,26,98,0.63,0.0,118,1.17,11.8,0.0,1,0.0,0.0,0.0,0,0,0,0,0,,,,,,,,,,,,,,,,,,,,
6083,0,,,247,247,251,246,,-0.16,0.02,1.01,0,0,-0,0.16,,78,0,4,26,99,0.632,0.0,118,1.17,11.4,0.0,1,0.0,0.0,0.0,0,0,0,0,0,,,,,,,,,,,,,,,,,,,,
6103,0,,,247,247,251,246,,-0.16,0.02,1.0,0,-0,-0,0.16,,78,0,4,26,99,0.633,0.0,118,1.17,11.7,0.0,1,0.0,0.0,0.0,0,0,0,0,0,,,,,,,,,,,,,,,,,,,,
6123,0,,,247,247,251,246,,-0.16,0.03,1.0,0,-0,-0,0.16,,78,0,4,26,99,0.638,0.0,121,1.16,11.8,0.0,1,0.0,0.0,0.0,0,0,0,0,0,,,,,,,,,,,,,,,,,,,,
6143,0,12,5,247,247,251,246,-6,-0.16,0.02,1.01,0,-0,-0,0.16,1,78,0,4,26,98,0.642,0.0,121,1.16,11.8,0.0,1,0.0,0.0,0.0,0,0,0,0,0,0,250,250,0,0.0,0.0,0.0,0.0,0,0,0.0,0,0.0,-1,0.0,,0.0,0,0.0,0.1024
6163,0,,,247,247,251,246,,-0.16,0.02,1.01,0,-0,-0,0.16,,78,0,4,26,99,0.646,0.0,121,1.16,11.6,0.0,1,0.0,0.0,0.0,0,0,0,0,0,,,,,,,,,,,,,,,,,,,,
6183,0,,,247,247,251,246,,-0.16,0.03,1.02,0,-0,-0,0.17,,78,0,4,26,99,0.649,0.0,121,1.15,11.8,0.0,1,0.0,0.0,0.0,0,0,0,0,0,,,,,,,,,,,,,,,,,,,,
6203,0,,,247,246,251,246,,-0.16,0.03,1.01,0,-0,-0,0.16,,78,0,4,26,98,0.651,0.0,121,1.15,11.9,0.0,1,0.0,0.0,0.0,0,0,0,0,0,,,,,,,,,,,,,,,,,,,,
6223,0,,,247,247,251,246,,-0.16,0.03,1.01,0,-0,-0,0.16,,78,0,4,26,99,0.653,0.0,121,1.15,11.6,0.0,1,0.0,0.0,0.0,0,0,0,0,0,,,,,,,,,,,,,,,,,,,,
6243,0,12,8,247,247,251,246,-7,-0.16,0.03,1.0,0,-0,-0,0.16,1,78,0,4,26,99,0.655,0.0,121,1.15,11.8,0.0,1,0.0,0.0,0.0,0,0,0,0,0,0,250,250,0,0.0,0.0,0.0,0.0,0,0,0.0,0,0.0,-1,0.0,0.0,0.0,0,0.0,0.104
6263,0,,,247,247,251,246,,-0.16,0.03,1.0,0,-0,-0,0.17,,78,0,4,26,99,0.657,0.0,122,1.15,11.9,0.0,1,0.0,0.0,0.0,0,0,0,0,0,,,,,,,,,,,,,,,,,,,,
6283,0,,,247,247,251,246,,-0.16,0.03,0.99,0,-0,-0,0.17,,78,0,4,26,98,0.658,0.0,123,1.15,11.8,0.0,1,0.0,0.0,0.0,0,0,0,0,0,,,,,,,,,,,,,,,,,,,,
6303,0,,,247,247,251,246,,-0.16,0.03,0.98,0,0,-0,0.16,,78,0,4,26,99,0.66,0.0,123,1.15,11.6,0.0,1,0.0,0.0,0.0,0,0,0,0,0,,,,,,,,,,,,,,,,,,,,
6323,0,,,247,247,251,246,,-0.16,0.03,0.98,0,-0,-0,0.16,,78,0,4,26,99,0.661,0.0,123,1.15,11.8,0.0,1,0.0,0.0,0.0,0,0,0,0,0,,,,,,,,,,,,,,,,,,,,
6343,0,10,7,247,247,251,246,-5,-0.16,0.03,0.97,0,0,-0,0.16,1,78,0,4,26,98,0.661,0.0,123,1.15,11.9,0.0,1,0.0,0.0,0.0,0,0,0,0,0,0,250,250,0,0.0,0.0,0.0,0.0,0,0,0.0,0,0.0,-1,0.0,,0.0,0,0.0,0.1057
6363,0,,,247,247,251,246,,-0.16,0.03,0.98,0,0,-0,0.16,,78,0,4,26,98,0.662,0.0,123,1.15,11.6,0.0,1,0.0,0.0,0.0,0,0,0,0,0,,,,,,,,,,,,,,,,,,,,
6383,0,,,247,247,251,246,,-0.16,0.02,0.97,0,0,-0,0.16,,78,0,4,26,99,0.661,0.0,123,1.15,11.7,0.0,1,0.0,0.0,0.0,0,0,0,0,0,,,,,,,,,,,,,,,,,,,,
6403,0,,,247,247,251,246,,-0.16,0.03,0.98,0,0,-0,0.16,,78,0,4,26,99,0.661,0.0,124,1.15,11.9,0.0,1,0.0,0.0,0.0,0,0,0,0,0,,,,,,,,,,,,,,,,,,,,
6423,0,,,247,247,251,246,,-0.16,0.03,0.96,0,0,-0,0.17,,78,122,4,26,98,0.661,0.0,124,1.14,11.8,0.0,1,0.0,0.0,0.0,0,0,0,0,0,,,,,,,,,,,,,,,,,,,,
6443,0,12,7,247,247,251,246,-6,-0.16,0.03,0.95,0,0,-0,0.16,1,78,122,4,26,99,0.66,0.0,123,1.33,11.5,0.0,1,18.6,4.57,0.0,0,0,0,1,0,0,250,250,0,0.0,0.0,0.0,0.0,0,0,0.0,0,0.0,-1,0.0,0.0,0.0,0,0.0,0.1074
6463,0,,,247,247,251,246,,-0.16,0.03,0.96,0,0,-0,0.16,,78,122,4,26,99,0.658,0.0,124,1.33,11.5,0.0,1,18.6,4.57,0.0,0,0,0,1,0,,,,,,,,,,,,,,,,,,,,
6483,0,,,247,247,251,246,,-0.16,0.03,0.96,0,0,-0,0.16,,78,122,4,26,98,0.656,0.0,124,4.76,11.8,0.0,1,18.6,4.57,0.0,0,0,0,1,0,,,,,,,,,,,,,,,,,,,,
6503,0,,,247,246,251,246,,-0.16,0.03,0.96,0,-0,-0,0.16,,78,432,4,26,98,0.654,0.0,121,4.76,11.8,0.0,1,18.6,4.57,0.0,0,0,0,1,0,,,,,,,,,,,,,,,,,,,,
6523,0,,,247,247,251,246,,-0.16,0.03,0.95,0,0,-0,0.17,,78,432,4,26,99,0.652,0.0,123,4.87,11.8,0.0,1,18.6,4.57,0.9,0,0,0,1,0,,,,,,,,,,,,,,,,,,,,
6543,0,10,7,247,247,251,246,-6,-0.16,0.03,0.93,0,0,-0,0.16,1,78,689,4,26,98,0.65,0.0,124,4.81,11.9,0.0,1,18.6,4.57,0.9,0,0,0,1,0,0,250,250,0,0.0,0.0,0.0,0.0,0,0,0.0,0,0.0,-1,0.0,,0.0,0,0.0,0.109
6563,0,,,247,247,251,246,,-0.16,0.02,0.91,0,0,-0,0.16,,78,1319,4,26,97,0.648,0.0,126,4.81,11.9,0.0,1,18.6,4.57,0.9,0,0,0,1,0,,,,,,,,,,,,,,,,,,,,
6583,0,,,247,247,251,246,,-0.16,0.02,0.92,0,0,-0,0.16,,78,1565,4,26,95,0.642,0.0,123,4.8,11.5,0.0,1,18.6,4.57,0.9,0,0,0,1,0,,,,,,,,,,,,,,,,,,,,
6603,0,,,247,246,251,246,,-0.16,0.03,0.93,0,0,-0,0.16,,79,1437,7,26,94,0.633,0.0,123,4.8,11.5,0.0,1,18.6,4.57,0.9,0,0,0,1,0,,,,,,,,,,,,,,,,,,,,
6623,0,,,247,247,251,246,,-0.16,0.03,0.93,0,0,-0,0.16,,79,1291,15,26,94,0.622,0.0,120,4.75,11.0,0.0,1,18.6,2.09,0.9,0,0,0,1,0,,,,,,,,,,,,,,,,,,,,
6643,0,9,7,247,247,251,246,-6,-0.16,0.03,0.93,0,-0,-0,0.16,1,79,1291,24,26,96,0.61,0.0,120,4.66,11.0,0.0,1,29.5,2.09,4.7,0,0,0,1,0,0,250,250,0,0.0,0.0,0.0,0.0,0,0,0.0,0,0.0,-1,0.0,0.0,0.0,0,0.0,0.1107
6663,0,,,247,247,251,246,,-0.16,0.04,0.95,0,0,-0,0.17,,79,1119,31,26,98,0.6,0.0,123,4.75,11.3,0.0,1,29.5,2.09,4.7,0,0,0,1,0,,,,,,,,,,,,,,,,,,,,
6683,0,,,247,248,251,246,,-0.16,0.03,0.91,0,-0,-0,0.16,,79,1135,35,26,98,0.591,0.0,127,4.78,11.7,0.0,1,31.0,2.09,4.7,0,0,0,1,0,,,,,,,,,,,,,,,,,,,,
6703,0,,,247,247,251,246,,-0.17,0.03,0.96,0,-0,-1,0.18,,78,1610,38,26,99,0.586,0.0,138,4.83,12.0,0.0,1,34.0,8.0,4.7,0,0,0,1,0,,,,,,,,,,,,,,,,,,,,
6723,0,,,247,248,251,246,,-0.16,0.03,0.95,0,-1,-1,0.17,,78,2090,38,26,98,0.583,0.0,149,4.82,12.4,0.0,1,34.0,8.0,4.7,0,0,0,1,0,,,,,,,,,,,,,,,,,,,,
6743,0,10,5,247,247,251,246,-7,-0.16,0.03,0.93,0,-0,-0,0.16,1,78,2057,38,26,99,0.583,0.0,154,4.86,12.5,0.0,1,34.0,7.33,6.6,0,0,0,1,0,0,250,250,0,0.0,0.0,0.0,0.0,0,0,0.0,0,0.0,-1,0.0,,0.0,0,0.0,0.1124
6763,0,,,247,249,251,246,,-0.16,0.01,0.86,0,-0,-0,0.16,,78,2437,38,26,99,0.583,0.0,154,4.86,12.5,0.0,1,34.0,7.33,6.6,0,0,0,1,0,,,,,,,,,,,,,,,,,,,,
6783,0,,,247,250,251,246,,-0.16,0.02,0.97,0,0,-1,0.16,,78,2993,35,26,98,0.583,0.0,173,4.85,12.4,0.0,1,31.1,7.45,6.6,0,0,0,1,0,,,,,,,,,,,,,,,,,,,,
6803,0,,,247,248,251,246,,-0.14,0.01,0.92,0,0,-1,0.14,,78,3445,21,26,97,0.581,0.0,188,4.83,12.4,0.0,1,30.2,8.51,6.6,0,0,0,1,0,,,,,,,,,,,,,,,,,,,,
6823,0,,,247,249,251,246,,-0.16,0.02,1.1,-0,0,-1,0.16,,78,4140,4,26,94,0.583,0.0,207,4.83,12.4,0.0,1,30.2,8.51,6.6,0,0,0,1,0,,,,,,,,,,,,,,,,,,,,
6843,0,10,5,247,249,251,246,-6,-0.2,0.05,1.33,-0,-1,-2,0.21,1,78,4621,4,26,90,0.587,0.0,232,4.85,12.4,0.0,1,36.9,2.56,14.8,0,0,0,1,0,0,250,250,0,0.0,0.0,0.0,0.0,0,0,0.0,0,0.0,-1,0.0,0.0,0.0,0,0.0,0.114
6863,0,,,247,250,251,246,,-0.21,0.09,1.53,-0,-3,-3,0.23,,78,4702,4,26,86,0.593,0.0,271,4.85,12.4,0.0,1,36.9,2.56,14.8,0,0,0,1,0,,,,,,,,,,,,,,,,,,,,
6883,0,,,247,249,251,246,,-0.17,0.07,1.55,-0,-6,-7,0.19,,78,5128,4,26,84,0.602,0.0,309,4.81,12.5,0.0,1,37.0,6.46,14.8,0,0,0,1,0,,,,,,,,,,,,,,,,,,,,
6903,0,,,247,250,251,246,,-0.22,0.07,1.43,-0,2,0,0.23,,78,5565,4,26,81,0.609,0.0,355,4.81,12.5,0.0,1,38.8,7.12,14.8,0,0,0,1,0,,,,,,,,,,,,,,,,,,,,
6923,0,,,247,247,251,246,,-0.31,0.03,1.32,-0,2,-2,0.31,,78,5841,4,26,77,0.62,0.0,402,4.81,12.3,0.0,1,37.4,6.95,18.4,0,0,0,1,0,,,,,,,,,,,,,,,,,,,,
6943,0,10,5,247,248,251,246,-6,-0.29,-0.01,1.5,0,-6,-7,0.29,1,78,6056,4,26,74,0.625,0.0,464,4.81,12.3,0.0,1,37.4,6.95,18.4,0,0,0,1,0,0,250,250,0,0.0,0.0,0.0,0.0,0,0,0.0,0,0.0,-1,0.0,,0.0,0,0.0,0.1157
6963,0,,,247,249,251,246,,-0.31,-0.01,1.38,-1,-7,-10,0.31,,78,6157,4,26,71,0.627,0.0,464,4.78,12.8,0.0,1,36.8,6.22,18.4,0,0,0,1,0,,,,,,,,,,,,,,,,,,,,
6983,0,,,247,250,251,246,,-0.4,0.0,1.28,-1,-8,-10,0.4,,78,6184,4,26,68,0.624,0.0,544,4.79,12.8,0.0,1,36.4,4.65,18.4,0,0,0,1,0,,,,,,,,,,,,,,,,,,,,
7003,0,,,247,250,251,246,,-0.5,0.01,1.18,-0,-4,-7,0.5,,78,6081,4,26,65,0.622,0.0,550,4.85,12.9,0.0,1,35.2,3.64,18.4,0,0,0,1,0,,,,,,,,,,,,,,,,,,,,
7023,0,,,247,250,251,246,,-0.6,0.0,1.09,-0,-1,-3,0.6,,78,6044,4,26,63,0.621,0.0,551,4.85,12.9,0.0,1,35.2,3.64,18.4,0,0,0,1,0,,,,,,,,,,,,,,,,,,,,
7043,0,8,6,247,248,251,246,-6,-0.68,-0.02,1.0,-0,4,-0,0.68,1,78,5994,4,26,61,0.621,0.0,556,4.83,13.0,0.0,1,34.0,2.51,8.4,0,0,0,1,0,0,250,250,0,0.0,0.0,0.0,0.0,0,0,0.0,0,0.0,-1,0.0,0.0,0.0,0,0.0,0.1174
7063,0,,,247,247,251,246,,-0.76,-0.02,0.93,0,7,3,0.76,,78,5918,4,26,60,0.621,0.0,557,4.85,13.0,0.0,1,34.0,2.51,8.4,0,0,0,1,0,,,,,,,,,,,,,,,,,,,,
7083,0,,,247,248,251,246,,-0.84,-0.03,0.86,0,8,3,0.84,,78,5916,4,26,59,0.622,0.0,552,4.74,13.0,0.0,1,33.5,1.14,8.4,0,0,0,1,0,,,,,,,,,,,,,,,,,,,,
7103,0,,,247,248,251,246,,-0.89,-0.05,0.79,-0,9,3,0.89,,78,5877,4,26,58,0.622,0.0,550,4.74,13.0,0.0,1,33.5,1.14,8.4,0,0,0,1,0,,,,,,,,,,,,,,,,,,,,
7123,0,,,247,248,251,246,,-0.88,-0.1,0.73,-1,9,-1,0.89,,78,5839,4,26,57,0.623,0.0,547,4.76,12.7,0.0,1,33.0,1.21,6.3,0,0,0,1,0,,,,,,,,,,,,,,,,,,,,
7143,0,9,7,247,247,251,246,-5,-0.77,-0.13,0.98,-2,3,-5,0.78,1,78,5781,4,26,57,0.623,0.0,547,4.76,12.7,0.0,1,33.0,1.21,6.3,0,0,0,1,0,0,250,250,0,0.0,0.0,0.0,0.0,0,0,0.0,0,0.0,-1,0.0,,0.0,0,0.0,0.119
7163,0,,,247,248,251,246,,-0.61,-0.1,1.21,-2,-6,-11,0.62,,78,5686,4,26,57,0.627,0.0,544,4.76,12.7,0.0,1,33.0,2.4,6.3,0,0,0,1,0,,,,,,,,,,,,,,,,,,,,
7183,0,,,247,248,251,246,,-0.5,-0.03,1.43,-1,-5,-10,0.5,,78,5605,4,26,57,0.628,0.0,535,4.77,12.7,0.0,1,33.0,1.31,6.3,0,0,0,1,0,,,,,,,,,,,,,,,,,,,,
7203,0,,,247,248,251,246,,-0.58,-0.03,1.32,-1,2,-1,0.59,,78,5514,4,26,56,0.627,0.0,529,4.85,13.0,0.0,1,32.9,2.51,6.3,0,0,0,1,0,,,,,,,,,,,,,,,,,,,,
7223,0,,,247,248,251,246,,-0.57,-0.09,1.21,-1,0,-3,0.58,,78,5588,4,26,57,0.629,0.0,531,4.8,12.8,0.0,1,32.9,2.53,6.5,0,0,0,1,0,,,,,,,,,,,,,,,,,,,,
7243,0,9,6,247,247,251,246,-6,-0.44,-0.05,1.43,-1,-8,-9,0.44,1,78,5535,4,25,57,0.633,0.0,524,4.87,12.9,0.0,1,32.9,2.56,6.5,0,0,0,1,0,0,250,250,0,0.0,0.0,0.0,0.0,0,0,0.0,0,0.0,-1,0.0,0.0,0.0,0,0.0,0.1207
7263,0,,,247,249,251,246,,-0.47,0.02,1.32,-1,1,-1,0.47,,78,5472,4,25,57,0.634,0.0,518,4.87,12.9,0.0,1,32.9,2.56,6.5,0,0,0,1,0,,,,,,,,,,,,,,,,,,,,
7283,0,,,247,247,251,246,,-0.49,-0.05,1.22,-1,2,-3,0.49,,78,5476,4,25,57,0.637,0.0,521,4.78,12.8,0.0,1,32.9,2.6,6.5,0,0,0,1,0,,,,,,,,,,,,,,,,,,,,
7303,0,,,247,249,251,246,,-0.35,-0.01,1.43,-1,-6,-9,0.35,,78,5509,4,25,57,0.641,0.0,515,4.88,13.0,0.0,1,32.9,1.43,6.5,0,0,0,1,0,,,,,,,,,,,,,,,,,,,,
7323,0,,,247,249,251,246,,-0.41,0.05,1.32,-1,4,0,0.41,,78,5542,4,25,57,0.641,0.0,515,4.88,13.0,0.0,1,32.9,1.43,6.5,0,0,0,1,0,,,,,,,,,,,,,,,,,,,,
7343,0,9,7,247,247,251,246,-6,-0.44,-0.01,1.22,-0,1,-3,0.44,1,78,5572,4,25,58,0.642,0.0,522,4.79,12.7,0.0,1,33.2,1.38,6.5,0,0,0,1,0,0,250,250,0,0.0,0.0,0.0,0.0,0,0,0.0,0,0.0,-1,0.0,,0.0,0,0.0,0.1224
7363,0,,,247,248,251,246,,-0.29,-0.03,1.43,-1,-9,-9,0.29,,78,5608,4,25,58,0.641,0.0,530,4.79,12.7,0.0,1,33.2,1.38,6.5,0,0,0,1,0,,,,,,,,,,,,,,,,,,,,
7383,0,,,247,247,251,246,,-0.25,0.03,1.63,-1,-2,-5,0.25,,78,5659,4,25,58,0.641,0.0,532,4.8,12.8,0.0,1,33.2,2.5,6.5,0,0,0,1,0,,,,,,,,,,,,,,,,,,,,
7403,0,,,247,248,251,246,,-0.37,0.03,1.5,-0,5,2,0.37,,78,5669,4,25,57,0.64,0.0,531,4.85,13.0,0.0,1,33.2,2.47,6.5,0,0,0,1,0,,,,,,,,,,,,,,,,,,,,
7423,0,,,247,248,251,246,,-0.44,-0.01,1.39,-0,2,0,0.45,,78,5700,4,25,57,0.638,0.0,532,4.73,12.7,0.0,1,33.0,2.47,6.5,0,0,0,1,0,,,,,,,,,,,,,,,,,,,,
7443,0,10,6,247,247,251,246,-6,-0.32,-0.04,1.59,-1,-7,-7,0.32,1,78,5725,4,25,57,0.639,0.0,532,4.81,12.8,0.0,1,33.0,1.28,6.4,0,0,0,1,0,0,250,250,0,0.0,0.0,0.0,0.0,0,0,0.0,0,0.0,-1,0.0,0.0,0.0,0,0.0,0.124
7463,0,,,247,247,251,246,,-0.21,0.04,1.77,-1,-10,-10,0.21,,78,5740,4,25,57,0.639,0.0,532,4.81,12.8,0.0,1,33.0,1.28,6.4,0,0,0,1,0,,,,,,,,,,,,,,,,,,,,
7483,0,,,247,248,251,246,,-0.15,0.06,1.94,-1,-4,-6,0.16,,78,5779,4,25,57,0.643,0.0,537,4.81,12.8,0.0,1,33.0,2.42,6.4,0,0,0,1,0,,,,,,,,,,,,,,,,,,,,
7503,0,,,247,247,251,246,,-0.21,0.07,1.79,-0,2,2,0.22,,78,5815,4,25,57,0.645,0.0,553,4.86,13.0,0.0,1,33.0,1.22,6.4,0,0,0,1,0,,,,,,,,,,,,,,,,,,,,
7523,0,,,247,247,251,246,,-0.33,0.04,1.66,-0,8,7,0.33,,78,5850,4,25,57,0.646,0.0,557,4.86,13.0,0.0,1,33.0,1.22,6.4,0,0,0,1,0,,,,,,,,,,,,,,,,,,,,
7543,0,8,6,247,247,251,246,-5,-0.46,-0.0,1.53,-0,10,8,0.46,1,78,5852,4,25,56,0.643,0.0,552,4.79,12.9,0.0,1,32.8,2.36,6.3,0,0,0,1,0,0,250,250,0,0.0,0.0,0.0,0.0,0,0,0.0,0,0.0,-1,0.0,,0.0,0,0.0,0.1257
7563,0,,,247,248,251,246,,-0.52,-0.06,1.41,-0,8,5,0.52,,78,5907,4,25,56,0.641,0.0,554,4.84,13.0,0.0,1,32.8,2.36,6.3,0,0,0,1,0,,,,,,,,,,,,,,,,,,,,
7583,0,,,247,248,251,246,,-0.51,-0.13,1.3,-0,3,2,0.52,,78,5903,4,25,56,0.64,0.0,553,4.85,12.9,0.0,1,32.9,2.33,6.3,0,0,0,1,0,,,,,,,,,,,,,,,,,,,,
7603,0,,,247,248,251,246,,-0.44,-0.16,1.44,-0,-3,-3,0.47,,78,5939,4,25,56,0.64,0.0,558,4.85,12.9,0.0,1,32.9,2.3,6.3,0,0,0,1,0,,,,,,,,,,,,,,,,,,,,
7623,0,,,247,249,251,246,,-0.34,-0.16,1.64,-1,-7,-8,0.38,,78,5927,4,25,55,0.637,0.0,560,4.81,12.8,0.0,1,32.7,2.31,6.3,0,0,0,1,0,,,,,,,,,,,,,,,,,,,,
7643,0,8,6,247,249,251,246,-6,-0.24,-0.14,1.82,-1,-15,-13,0.28,1,78,5933,4,25,55,0.636,0.0,557,4.81,12.8,0.0,1,32.7,2.31,6.3,0,0,0,1,0,0,250,250,0,0.0,0.0,0.0,0.0,0,0,0.0,0,0.0,-1,0.0,0.0,0.0,0,0.0,0.1274
7663,0,,,247,249,251,246,,-0.14,-0.1,1.99,-1,-20,-18,0.17,,78,5963,4,25,55,0.638,0.0,556,4.81,12.7,0.0,1,32.7,2.3,6.3,0,0,0,1,0,,,,,,,,,,,,,,,,,,,,
7683,0,,,247,250,251,246,,-0.04,-0.07,2.14,-1,-26,-21,0.08,,78,5996,4,25,55,0.637,0.0,560,4.83,12.8,0.0,1,32.7,2.3,6.3,0,0,0,1,0,,,,,,,,,,,,,,,,,,,,
7703,0,,,247,250,251,246,,0.03,-0.05,2.29,-1,-31,-25,0.06,,78,6067,4,25,54,0.636,0.0,568,4.83,12.8,0.0,1,32.8,2.27,6.3,0,0,0,1,0,,,,,,,,,,,,,,,,,,,,
7723,0,,,247,249,251,246,,0.09,-0.03,2.42,-1,-34,-28,0.09,,78,6085,4,25,54,0.633,0.0,572,4.8,12.8,0.0,1,32.8,2.27,6.4,0,0,0,1,0,,,,,,,,,,,,,,,,,,,,
7743,0,9,6,247,250,251,246,-6,0.11,-0.03,2.54,-0,-38,-30,0.12,1,78,6119,4,25,54,0.63,0.0,572,4.8,12.7,0.0,1,32.9,2.27,6.4,0,0,0,1,0,0,250,250,0,0.0,0.0,0.0,0.0,0,0,0.0,0,0.0,-1,0.0,,0.0,0,0.0,0.129
7763,0,,,247,250,251,246,,0.06,-0.04,2.34,-0,-38,-30,0.07,,79,6194,4,25,53,0.628,0.0,575,4.77,12.8,0.0,1,32.9,2.28,6.4,0,0,0,1,0,,,,,,,,,,,,,,,,,,,,
7783,0,,,247,249,251,246,,-0.08,-0.04,2.16,-0,-33,-26,0.09,,78,6239,4,25,52,0.627,0.0,582,4.83,13.0,0.0,1,32.8,2.29,6.4,0,0,0,1,0,,,,,,,,,,,,,,,,,,,,
7803,0,,,247,248,251,246,,-0.17,-0.03,2.0,-0,-26,-20,0.17,,78,6313,4,25,51,0.628,0.0,582,4.83,13.0,0.0,1,32.8,2.29,6.4,0,0,0,1,0,,,,,,,,,,,,,,,,,,,,
7823,0,,,247,247,251,246,,-0.11,-0.01,2.15,-0,-23,-18,0.11,,78,6358,4,25,50,0.627,0.0,587,4.88,13.0,0.0,1,32.8,2.3,6.4,0,0,0,1,0,,,,,,,,,,,,,,,,,,,,
7843,0,8,7,247,247,251,246,-6,-0.02,-0.05,2.29,-0,-26,-20,0.06,1,79,6410,4,25,49,0.628,0.0,598,4.78,12.8,0.0,1,32.6,2.3,6.7,0,0,0,1,0,0,250,250,0,0.0,0.0,0.0,0.0,0,0,0.0,0,0.0,-1,0.0,0.0,0.0,0,0.0,0.1307
