"Interval"|"ms"|0|0|1,"Utc"|"ms"|0|0|1,"FB_p"|"bar"|0|300|50,"Volant"|"F"|0.0|300.0|50,"xFR"|"mm"|0.0|5.0|50,"xRR"|"mm"|0.0|5.0|50,"xFL"|"mm"|0.0|5.0|50,"xRL"|"mm"|0.0|5.0|50,"AccelX"|"G"|-3.0|3.0|50,"AccelY"|"G"|-3.0|3.0|50,"AccelZ"|"G"|-3.0|3.0|50,"Yaw"|"Deg/Sec"|-120|120|50,"Pitch"|"Deg/Sec"|-120|120|50,"Roll"|"Deg/Sec"|-120|120|50,"Gsum"|"G"|0.0|3.0|50,"RPM"|""|0|14000|50,"TPS"|"%"|0|100|50,"WaterTemp"|"?C"|0|300|50,"AirTemp"|"?C"|-1000|1000|50,"MAP"|"KPa"|0|255|50,"Lambda"|""|0|1024|50,"WheelSpeed"|"MPH"|0.0|150.0|50,"OilPress"|"PSI"|0|150|50,"FuelPress"|"PSI"|0|150|50,"OilTemp"|"F"|0|300|50,"Battery"|"Volts"|0.0|20.0|50,"FuelCon"|"L/h"|-1000|1000|50,"Gear"|""|0|10|50,"Advance"|"Deg"|-360|360|50,"Injection"|"ms"|-1000|1000|50,"FuelCon"|"L/100km"|-1000|1000|50,"LC_But_Pres"|""|-1000|1000|50,"LC_Active"|""|-1000|1000|50,"RD_Speed"|""|-1000|1000|50,"RUD_Speed"|""|-1000|1000|50,"LD_Speed"|""|-1000|1000|50,"LUD_Speed"|""|-1000|1000|50,"Ana1"|"bar"|-1000.0|1000.0|50,"Latitude"|"Degrees"|-180.0|180.0|10,"Longitude"|"Degrees"|-180.0|180.0|10,"Speed"|"kph"|0.0|150.0|10,"Altitude"|"m"|0.0|4000.0|10,"LapCount"|""|0|0|10,"LapTime"|"Min"|0.0|0.0|10,"Sector"|""|0|0|10,"SectorTime"|"Min"|0.0|0.0|10,"ElapsedTime"|"Min"|0.0|0.0|10,"CurrentLap"|""|0|0|10,"Distance"|"km"|0.0|0.0|10,"SessionTime"|"Min"|0.0|0.0|10
11764,1564322837476,2,2.28,1.44,0.82,2.37,2.0,0.09,0.57,1.33,1,6,-5,0.58,12222,100,69,31,82,503,881.0,683,460,60,129.0,290,1,440,550,254,0,0,890,-779,2028,878,-5.59,,,,,,,,,,,,
11784,1564322837494,-2,2.28,1.44,0.82,2.37,1.99,0.04,0.58,1.2,1,7,-6,0.58,12278,100,69,31,82,503,885.0,683,464,60,130.0,290,1,440,550,254,0,0,899,-1277,-5120,878,181.28,,,,,,,,,,,,
11804,1564322837514,-0,2.27,1.44,0.82,2.37,2.0,0.01,0.66,1.0,1,7,-6,0.66,11822,100,69,31,82,503,884.0,673,457,60,132.0,290,1,440,544,254,0,0,898,1020,-14848,884,-5.59,,,,,,,,,,,,
11824,1564322837534,-2,2.29,1.45,0.82,2.38,2.0,0.08,0.64,0.96,2,6,-5,0.65,11370,100,69,31,84,503,887.0,670,456,60,131.0,290,1,441,564,254,0,0,882,-14712,-1277,887,-5.59,,,,,,,,,,,,
11844,1564322837554,-2,2.29,1.44,0.82,2.38,2.01,0.13,0.45,0.92,2,5,-4,0.47,11140,100,69,31,85,504,884.0,667,458,60,132.0,290,1,443,582,254,0,0,884,-30469,-780,882,-5.59,44.681122,10.016904,85.75,177.3,0,0.0,-1,0.0,0.0,0,0.08,0.1974
11864,1564322837574,0,2.29,1.44,0.82,2.36,2.0,0.29,0.26,1.0,1,3,-3,0.39,10907,100,69,31,85,505,884.0,660,459,60,132.0,275,1,441,582,243,0,0,880,1020,-2574,882,-5.59,,,,,,,,,,,,
11884,1564322837592,1,2.29,1.43,0.83,2.38,2.0,0.31,0.36,0.92,2,2,-4,0.47,10720,100,69,31,86,505,887.0,657,461,60,132.0,275,1,437,601,243,0,0,884,-14712,-1578,887,-5.59,,,,,,,,,,,,
11904,1564322837612,4,2.28,1.44,0.83,2.38,2.01,0.41,0.26,0.88,2,3,-2,0.49,10245,100,69,31,87,506,888.0,663,463,60,130.0,275,1,414,1052,243,0,0,902,966,966,883,-5.59,,,,,,,,,,,,
11924,1564322837632,2,2.28,1.44,0.83,2.37,2.01,0.51,0.25,0.94,1,2,-2,0.57,10140,100,69,31,86,506,889.0,666,459,60,129.0,275,1,405,913,243,0,0,894,771,2028,889,-5.59,,,,,,,,,,,,
11944,1564322837652,2,2.29,1.44,0.84,2.38,2.0,0.59,0.16,1.01,0,1,-1,0.61,10359,100,69,31,85,505,894.0,666,467,60,129.0,275,1,421,782,243,0,0,897,-5120,-3348,889,-5.59,44.681099,10.016898,87.05,177.2,0,0.0,-1,0.0,0.0,0,0.09,0.1991
11964,1564322837672,3,2.29,1.44,0.83,2.38,2.01,0.54,0.18,1.03,-0,2,-0,0.57,10445,100,69,31,84,504,895.0,651,463,60,130.0,315,1,428,665,281,0,0,911,-30778,-4877,893,-5.59,,,,,,,,,,,,
11984,1564322837692,1,2.28,1.45,0.83,2.37,2.01,0.46,0.2,0.98,-1,3,-0,0.5,10399,100,69,31,84,504,896.0,661,466,60,129.0,315,1,423,564,281,0,0,921,-5114,-4870,890,-5.59,,,,,,,,,,,,
12004,1564322837712,3,2.27,1.44,0.82,2.38,2.0,0.33,0.11,0.94,-1,5,-0,0.35,10376,100,69,31,84,503,902.0,663,461,60,130.0,315,1,421,564,281,0,0,918,1772,218,899,-5.59,,,,,,,,,,,,
12024,1564322837732,2,2.28,1.44,0.83,2.37,2.0,0.32,0.04,0.82,-1,4,-0,0.32,10382,100,69,31,84,502,902.0,661,461,60,130.0,315,1,421,564,281,0,0,915,-3348,-1044,902,-5.59,,,,,,,,,,,,
12044,1564322837752,2,2.29,1.45,0.82,2.38,2.0,0.32,0.05,0.91,-1,4,0,0.32,10382,100,69,30,84,502,904.0,660,466,60,130.0,315,1,421,564,281,0,0,925,-4878,-1028,900,-5.59,44.681076,10.016893,87.28,177.2,0,0.0,-1,0.0,0.0,0,0.09,0.2007
12064,1564322837772,0,2.3,1.45,0.82,2.38,2.0,0.31,0.03,0.95,0,5,-0,0.31,10463,100,69,31,84,502,905.0,663,466,60,130.0,247,1,427,564,222,0,0,918,-4878,-4870,906,181.28,,,,,,,,,,,,
12084,1564322837792,2,2.29,1.44,0.82,2.37,2.0,0.25,0.07,0.94,0,5,-2,0.26,10480,100,69,31,84,502,910.0,663,465,60,130.0,247,1,428,564,222,0,0,931,-3092,-4869,909,-5.59,,,,,,,,,,,,
12104,1564322837812,2,2.28,1.44,0.82,2.38,2.0,0.24,0.08,1.02,0,5,-2,0.26,10557,100,69,31,84,502,914.0,662,465,60,130.0,247,1,431,564,222,0,0,932,-4876,-908,911,-5.59,,,,,,,,,,,,
12124,1564322837832,2,2.31,1.45,0.82,2.39,2.0,0.29,0.12,1.08,0,5,-3,0.31,10575,100,69,30,84,502,915.0,663,468,60,130.0,247,1,431,564,222,0,0,944,-2068,-773,912,-5.59,,,,,,,,,,,,
12144,1564322837852,0,2.3,1.44,0.83,2.38,2.0,0.2,0.11,1.07,1,4,-3,0.23,10653,97,69,30,84,502,918.0,665,462,60,130.0,247,1,433,564,222,0,0,942,-4871,-1796,917,-5.59,44.681057,10.016888,88.41,177.2,0,0.0,-1,0.0,0.0,0,0.09,0.2024
12164,1564322837872,1,2.31,1.45,0.82,2.37,2.01,0.09,0.05,1.11,1,4,-5,0.1,10635,76,69,31,81,502,926.0,668,463,60,129.0,239,1,434,529,220,0,0,936,-4869,-2564,926,-5.59,,,,,,,,,,,,
12184,1564322837896,5,2.31,1.45,0.83,2.38,2.0,0.14,-0.03,1.07,1,4,-4,0.14,10623,56,69,30,74,502,925.0,664,470,60,129.0,239,1,436,480,220,0,0,946,-788,-2052,919,-5.59,,,,,,,,,,,,
12204,1564322837916,4,2.32,1.44,0.83,2.38,2.0,0.16,-0.13,1.04,1,3,-4,0.21,10539,33,69,30,64,502,927.0,661,468,60,130.0,239,1,447,413,220,0,0,944,9216,-908,924,-5.59,,,,,,,,,,,,
12224,1564322837936,10,2.31,1.45,0.82,2.38,2.0,0.16,-0.18,1.01,1,2,-4,0.24,10257,12,69,31,54,502,926.0,663,468,60,129.0,239,1,400,323,220,0,0,929,218,-1284,928,-5.59,,,,,,,,,,,,
12244,1564322837956,9,2.3,1.45,0.83,2.38,2.0,0.22,-0.11,0.96,2,2,-4,0.24,9946,0,69,30,46,502,924.0,658,465,60,130.0,239,1,372,242,220,0,0,913,-788,-1284,918,-5.59,44.681034,10.016882,90.02,177.2,0,0.0,-1,0.0,0.0,0,0.09,0.2041
12264,1564322837976,10,2.3,1.44,0.83,2.38,2.0,0.28,-0.14,0.91,2,-0,-4,0.31,9735,0,69,30,41,502,925.0,656,464,60,130.0,93,1,335,222,86,0,0,907,-4870,-4872,923,-5.59,,,,,,,,,,,,
12284,1564322837996,10,2.28,1.44,0.82,2.38,2.0,0.41,-0.12,0.85,2,0,-3,0.43,9532,0,69,30,37,502,922.0,658,462,60,129.0,93,1,314,213,86,0,0,912,-1300,-4874,923,-5.59,,,,,,,,,,,,
12304,1564322838008,9,2.28,1.44,0.82,2.38,2.0,0.53,-0.11,0.83,1,-0,-1,0.54,9389,0,69,30,35,502,920.0,652,464,60,130.0,93,1,308,203,86,0,0,899,-4873,-4877,915,-5.59,,,,,,,,,,,,
12324,1564322838028,8,2.28,1.45,0.82,2.38,2.0,0.62,-0.1,0.77,1,0,0,0.63,9384,0,69,30,34,502,914.0,650,467,60,129.0,93,1,305,197,86,0,0,901,-4873,1772,915,-5.59,,,,,,,,,,,,
12344,1564322838048,11,2.28,1.45,0.82,2.38,2.0,0.73,-0.05,0.75,0,-1,-1,0.73,9398,0,69,30,32,502,912.0,651,461,60,130.0,93,1,300,195,86,0,0,885,-2580,-14848,908,-5.59,44.681011,10.016876,91.34,177.1,0,0.0,-1,0.0,0.0,0,0.1,0.2057
12364,1564322838068,10,2.28,1.45,0.83,2.38,2.0,0.67,-0.06,0.73,-1,-3,0,0.68,9469,0,69,30,31,502,909.0,653,464,60,130.0,77,1,295,195,70,0,0,879,-4877,-2820,902,-5.59,,,,,,,,,,,,
12384,1564322838095,12,2.29,1.45,0.82,2.38,2.0,0.71,-0.08,0.6,-0,-2,1,0.71,9551,0,69,30,30,502,904.0,655,468,60,130.0,77,1,291,195,70,0,0,873,-4878,8838,904,-5.59,,,,,,,,,,,,
12404,1564322838115,10,2.31,1.45,0.83,2.39,2.0,0.83,0.01,0.55,-0,-3,1,0.83,9585,0,69,30,29,502,905.0,654,465,60,130.0,77,1,287,194,70,0,0,848,-5113,-11019,894,-5.59,,,,,,,,,,,,
12424,1564322838135,11,2.31,1.45,0.83,2.38,2.01,0.81,-0.02,0.52,0,-1,-0,0.81,9600,0,69,30,28,502,895.0,657,470,60,130.0,77,1,282,193,70,0,0,837,4231,-2826,895,181.28,,,,,,,,,,,,
12444,1564322838155,8,2.32,1.45,0.83,2.38,2.01,0.84,-0.01,0.34,0,-1,1,0.84,9605,0,69,30,28,502,890.0,656,462,60,129.0,77,1,282,193,70,0,0,854,-14712,-11532,889,-5.59,44.680988,10.01687,91.0,177.1,0,0.0,-1,0.0,0.0,0,0.1,0.2074
12464,1564322838175,13,2.32,1.44,0.83,2.39,2.01,0.85,-0.01,0.4,1,-1,1,0.85,9630,0,69,30,28,502,885.0,660,470,60,130.0,78,1,282,193,70,0,0,855,-780,-11019,885,-5.59,,,,,,,,,,,,
12484,1564322838195,10,2.32,1.45,0.83,2.38,2.02,0.92,-0.07,0.28,1,-0,1,0.92,9645,0,69,30,27,502,882.0,661,466,60,130.0,78,1,278,191,70,0,0,848,-779,-4096,882,181.28,,,,,,,,,,,,
12504,1564322838215,10,2.32,1.45,0.83,2.39,2.01,0.94,-0.04,0.3,2,-0,1,0.94,9635,0,69,30,27,502,877.0,659,465,60,130.0,78,1,278,191,70,0,0,852,-1578,-3335,879,-5.59,,,,,,,,,,,,
12524,1564322838235,4,2.32,1.45,0.83,2.39,2.02,0.96,-0.12,0.36,2,1,2,0.97,9580,0,69,30,27,502,878.0,658,467,60,130.0,78,1,278,189,70,0,0,844,-2826,-1580,879,-5.59,,,,,,,,,,,,
12544,1564322838255,7,2.32,1.46,0.83,2.39,2.01,0.95,-0.03,0.31,3,0,2,0.95,9595,0,69,30,26,502,879.0,658,467,60,130.0,78,1,274,189,70,0,0,847,-31066,-3450,879,-5.59,44.680965,10.016865,89.2,177.1,0,0.0,-1,0.0,0.0,0,0.1,0.2091
12564,1564322838275,4,2.31,1.46,0.83,2.38,2.01,0.98,-0.1,0.41,3,-2,2,0.99,9590,0,69,30,26,502,873.0,657,466,60,130.0,78,1,274,189,69,0,0,839,-2574,-9995,873,-5.59,,,,,,,,,,,,
12584,1564322838295,7,2.32,1.45,0.84,2.39,2.02,0.95,-0.14,0.37,3,0,2,0.96,9605,0,69,30,26,502,866.0,656,466,60,130.0,78,1,274,189,69,0,0,845,-2830,-3335,866,-5.59,,,,,,,,,,,,
12604,1564322838315,7,2.32,1.45,0.83,2.4,2.01,1.02,-0.11,0.33,3,-1,1,1.03,9595,0,69,30,25,502,863.0,656,465,60,129.0,78,1,270,189,69,0,0,840,-11532,-10508,869,-5.59,,,,,,,,,,,,
12624,1564322838335,4,2.32,1.45,0.84,2.4,2.01,0.97,-0.19,0.34,3,0,3,0.99,9537,0,69,30,25,502,858.0,656,466,60,130.0,78,1,270,188,69,0,0,837,-2311,-2830,858,-5.59,,,,,,,,,,,,
12644,1564322838355,8,2.32,1.45,0.84,2.39,2.02,1.03,-0.14,0.24,3,-1,3,1.04,9488,0,69,30,25,502,856.0,654,465,60,130.0,78,1,270,188,69,0,0,830,-9995,-31066,854,-5.59,44.680946,10.016859,87.04,177.0,0,0.0,-1,0.0,0.0,0,0.1,0.2107
12664,1564322838375,10,2.31,1.46,0.84,2.4,2.02,1.02,-0.1,0.22,3,-2,3,1.03,9422,0,69,30,25,502,855.0,654,463,60,131.0,78,1,270,188,67,0,0,824,8838,-3344,855,-5.59,,,,,,,,,,,,
12684,1564322838395,5,2.32,1.45,0.84,2.4,2.01,1.02,-0.2,0.21,3,-0,4,1.04,9346,0,69,30,25,502,851.0,657,469,60,129.0,78,1,270,188,67,0,0,819,-31066,-31066,846,-5.59,,,,,,,,,,,,
12704,1564322838415,10,2.32,1.46,0.83,2.41,2.01,0.95,-0.21,0.29,2,0,4,0.97,9282,0,69,30,24,502,847.0,658,466,60,129.0,78,1,270,181,67,0,0,821,-3450,-31066,846,-5.59,,,,,,,,,,,,
12724,1564322838435,10,2.32,1.46,0.83,2.4,2.01,1.06,-0.2,0.27,3,-0,4,1.08,9245,0,69,30,24,502,842.0,657,462,60,128.0,78,1,270,181,67,0,0,825,-30694,-13068,840,-5.59,,,,,,,,,,,,
12744,1564322838455,11,2.32,1.46,0.84,2.4,2.02,1.15,-0.16,0.21,3,-2,4,1.16,9254,0,69,30,24,502,836.0,656,465,60,129.0,78,1,270,181,67,0,0,807,-2826,-3344,836,-5.59,44.680923,10.016853,85.27,177.0,0,0.0,-1,0.0,0.0,0,0.11,0.2124
12764,1564322838475,13,2.32,1.46,0.83,2.39,2.01,1.15,-0.08,0.16,3,-4,3,1.15,9209,0,69,30,24,502,834.0,652,464,60,128.0,74,1,270,181,63,0,0,803,-2356,-3344,836,-5.59,,,,,,,,,,,,
12784,1564322838491,11,2.32,1.46,0.84,2.39,2.02,1.11,-0.08,0.15,3,-5,3,1.12,9119,0,69,30,24,502,827.0,650,463,60,129.0,74,1,270,181,63,0,0,799,3462,-3344,827,-5.59,,,,,,,,,,,,
12804,1564322838511,10,2.32,1.46,0.83,2.41,2.01,0.98,-0.05,0.09,3,-4,4,0.98,9036,0,69,30,23,502,825.0,650,467,60,130.0,74,1,270,176,63,0,0,796,-2314,-2560,826,-5.59,,,,,,,,,,,,
12824,1564322838531,12,2.31,1.45,0.83,2.4,2.02,0.97,-0.02,0.15,4,-5,4,0.97,8979,0,69,30,23,502,822.0,646,466,60,128.0,74,1,270,176,63,0,0,792,-2358,-13312,824,-5.59,,,,,,,,,,,,
12844,1564322838551,12,2.3,1.46,0.84,2.4,2.02,0.87,0.01,0.14,4,-4,3,0.87,8958,0,69,30,23,502,816.0,645,466,60,129.0,74,1,270,176,63,0,0,777,-2918,5344,816,-5.59,44.680904,10.016848,83.87,177.0,0,0.0,-1,0.0,0.0,0,0.11,0.2141
12864,1564322838571,12,2.31,1.45,0.84,2.4,2.02,0.91,0.0,0.1,4,-5,4,0.91,8932,0,69,30,23,502,815.0,645,465,60,130.0,72,1,270,176,59,0,0,787,-2830,5344,808,-5.59,,,,,,,,,,,,
12884,1564322838591,9,2.31,1.46,0.83,2.41,2.01,0.89,0.07,0.1,4,-5,4,0.89,8915,0,69,30,23,502,811.0,650,463,60,129.0,72,1,270,176,59,0,0,790,-23490,-10216,807,-5.59,,,,,,,,,,,,
12904,1564322838611,13,2.3,1.46,0.83,2.41,2.02,1.0,0.08,0.09,3,-7,3,1.0,8898,0,69,30,23,502,803.0,647,465,60,129.0,72,1,270,176,59,0,0,779,-13072,-22795,803,-5.59,,,,,,,,,,,,
12924,1564322838631,11,2.3,1.46,0.83,2.4,2.02,1.1,0.11,0.03,3,-7,3,1.1,8840,0,69,30,23,502,800.0,652,465,60,129.0,72,1,270,170,59,0,0,775,-3888,-2830,795,-5.59,,,,,,,,,,,,
12944,1564322838651,11,2.3,1.46,0.83,2.39,2.02,1.19,0.12,0.01,2,-8,2,1.19,8765,0,69,30,23,502,795.0,647,464,60,128.0,72,1,270,176,59,0,0,779,6905,-23308,793,-5.59,44.680885,10.016841,81.94,176.9,0,0.0,-1,0.0,0.0,0,0.11,0.2157
12964,1564322838671,9,2.31,1.46,0.83,2.41,2.02,1.23,0.05,-0.01,2,-6,3,1.23,8696,0,69,30,23,502,793.0,646,466,60,129.0,73,1,270,176,58,0,0,767,-8148,-10214,793,-5.59,,,,,,,,,,,,
12984,1564322838691,14,2.31,1.46,0.83,2.4,2.02,1.1,0.06,0.09,2,-5,3,1.1,8656,0,69,30,23,502,787.0,644,465,60,130.0,73,1,270,176,58,0,0,759,3544,-2344,787,-5.59,,,,,,,,,,,,
13004,1564322838711,13,2.3,1.45,0.84,2.41,2.02,1.11,0.04,0.12,2,-6,2,1.11,8624,0,69,30,23,502,781.0,646,465,60,130.0,73,1,270,176,58,0,0,765,-10218,-2570,780,-5.59,,,,,,,,,,,,
13024,1564322838731,12,2.3,1.46,0.84,2.4,2.02,1.2,0.06,0.12,2,-6,4,1.21,8585,0,69,30,23,502,779.0,641,466,60,128.0,73,1,270,176,58,0,0,768,-2574,6900,778,-5.59,,,,,,,,,,,,
13044,1564322838751,10,2.31,1.45,0.84,2.41,2.02,1.19,-0.01,0.01,2,-5,2,1.19,8596,0,69,30,24,502,776.0,640,467,60,129.0,73,1,270,181,58,0,0,751,7413,8838,774,-5.59,44.680866,10.016834,79.41,176.9,0,0.0,-1,0.0,0.0,0,0.11,0.2174
13064,1564322838771,13,2.32,1.46,0.84,2.4,2.02,1.1,0.0,0.04,2,-3,3,1.1,8569,0,69,30,24,502,772.0,643,466,60,129.0,75,1,270,181,58,0,0,743,-2570,-3038,770,-5.59,,,,,,,,,,,,
13084,1564322838791,11,2.31,1.47,0.84,2.4,2.01,1.16,0.03,0.09,2,-4,2,1.16,8476,0,69,31,24,502,766.0,640,464,60,129.0,75,1,270,180,58,0,0,751,-2826,-23308,765,-5.59,,,,,,,,,,,,
13104,1564322838811,14,2.32,1.46,0.85,2.41,2.02,1.12,-0.03,-0.01,3,-3,3,1.12,8378,0,69,31,25,502,764.0,642,465,60,130.0,75,1,270,181,58,0,0,742,13016,-23308,764,-5.59,,,,,,,,,,,,
13124,1564322838831,13,2.31,1.46,0.84,2.41,2.02,1.13,-0.05,0.1,3,-4,2,1.13,8318,0,69,31,25,502,758.0,642,466,60,128.0,75,1,270,178,58,0,0,728,-31066,1037,758,-5.59,,,,,,,,,,,,
13144,1564322838851,12,2.31,1.45,0.84,2.4,2.02,1.19,-0.07,0.02,2,-3,2,1.2,8274,0,69,31,25,502,753.0,638,463,60,129.0,75,1,270,175,58,0,0,727,-3450,-2314,753,-5.59,44.680847,10.016829,77.75,176.9,0,0.0,-1,0.0,0.0,0,0.11,0.2191
13164,1564322838871,13,2.32,1.46,0.85,2.4,2.02,1.15,-0.05,0.05,2,-2,2,1.15,8249,0,69,31,25,502,749.0,637,466,60,128.0,72,1,270,173,54,0,0,720,136,3462,747,-5.59,,,,,,,,,,,,
13184,1564322838895,15,2.31,1.46,0.84,2.41,2.02,1.19,-0.06,0.01,2,-2,3,1.19,8202,0,69,31,26,502,745.0,637,463,60,129.0,72,1,273,171,54,0,0,726,-2826,-2826,745,-5.59,,,,,,,,,,,,
13204,1564322838915,13,2.3,1.46,0.85,2.4,2.03,1.22,-0.06,0.0,3,-2,3,1.22,8159,0,69,31,26,502,744.0,636,463,60,130.0,72,1,273,169,54,0,0,711,-3580,1524,744,-5.59,,,,,,,,,,,,
13224,1564322838935,14,2.29,1.46,0.84,2.41,2.03,1.1,-0.08,-0.06,2,0,3,1.1,8130,0,69,31,26,502,738.0,636,465,60,129.0,72,1,273,167,54,0,0,697,-3580,31988,738,414.87,,,,,,,,,,,,
13244,1564322838955,12,2.31,1.45,0.84,2.41,2.02,1.19,-0.05,-0.08,2,-0,4,1.19,7992,0,69,31,26,502,733.0,633,466,60,128.0,72,1,272,160,54,0,0,705,-13580,-23490,731,-5.59,44.680824,10.016822,75.58,176.9,0,0.0,-1,0.0,0.0,0,0.12,0.2207
13264,1564322838975,10,2.31,1.46,0.85,2.4,2.03,1.18,-0.05,-0.05,2,-2,5,1.18,7832,0,69,31,26,502,730.0,634,465,60,130.0,65,1,271,160,48,0,0,718,1524,-2918,730,-5.59,,,,,,,,,,,,
13284,1564322838995,10,2.31,1.46,0.83,2.4,2.01,1.11,-0.03,-0.03,3,-2,4,1.11,7640,0,69,31,26,502,728.0,627,462,60,130.0,65,1,269,160,48,0,0,718,-388,31988,727,-5.59,,,,,,,,,,,,
13304,1564322839007,14,2.3,1.46,0.84,2.41,2.02,1.1,-0.06,-0.06,3,-3,4,1.1,7458,0,69,31,26,502,722.0,631,460,60,131.0,65,1,267,81,48,0,0,678,-2830,24,722,-5.59,,,,,,,,,,,,
13324,1564322839027,13,2.31,1.46,0.84,2.4,2.03,1.09,-0.08,0.0,4,-6,3,1.1,7509,0,69,31,26,502,713.0,629,461,60,130.0,65,1,268,160,48,0,0,675,-13312,-20693,712,-5.59,,,,,,,,,,,,
13344,1564322839047,16,2.3,1.46,0.84,2.42,2.02,1.08,-0.11,0.02,3,-9,1,1.08,7461,0,69,31,26,502,709.0,627,462,60,131.0,65,1,267,160,48,0,0,633,-20693,-27404,709,-5.59,44.680805,10.016816,73.17,177.0,0,0.0,-1,0.0,0.0,0,0.12,0.2224
13364,1564322839067,16,2.28,1.46,0.84,2.41,2.02,0.98,-0.12,-0.05,4,-7,3,0.99,7618,0,69,31,26,502,706.0,630,466,60,131.0,65,1,269,159,46,0,0,619,15647,-30207,706,-5.59,,,,,,,,,,,,
13384,1564322839094,18,2.29,1.46,0.85,2.41,2.02,0.96,-0.08,-0.09,4,-6,3,0.96,7687,0,69,31,26,502,700.0,631,461,60,130.0,65,1,269,160,46,0,0,602,16599,24,700,-5.59,,,,,,,,,,,,
13404,1564322839114,17,2.3,1.46,0.85,2.41,2.02,0.94,-0.04,-0.13,3,-4,1,0.94,7690,0,69,31,26,503,695.0,632,467,60,130.0,65,1,269,160,46,0,0,561,12333,10432,690,-5.59,,,,,,,,,,,,
13424,1564322839134,20,2.29,1.47,0.85,2.4,2.03,0.92,-0.06,-0.17,2,-1,2,0.92,7674,0,69,31,26,503,692.0,631,465,60,130.0,65,1,269,159,46,0,0,555,1780,1,687,-5.59,,,,,,,,,,,,
13444,1564322839154,19,2.29,1.47,0.85,2.41,2.02,0.99,-0.03,-0.13,2,-0,1,0.99,7646,0,69,31,26,503,686.0,631,465,60,131.0,65,1,269,160,46,0,0,571,6208,259,682,-5.59,44.68079,10.016809,71.6,177.0,0,0.0,-1,0.0,0.0,0,0.12,0.2241
13464,1564322839174,16,2.29,1.47,0.85,2.41,2.02,1.1,-0.05,-0.17,2,-2,1,1.1,7674,0,69,31,25,503,679.0,631,463,60,129.0,67,1,266,159,46,0,0,574,-2345,-2934,677,-5.59,,,,,,,,,,,,
13484,1564322839194,17,2.29,1.47,0.84,2.41,2.02,1.17,-0.04,-0.15,2,-3,0,1.18,7693,0,69,31,26,503,674.0,632,466,60,130.0,67,1,269,160,46,0,0,561,-10344,774,669,-5.59,,,,,,,,,,,,
13504,1564322839214,18,2.29,1.46,0.84,2.42,2.02,1.17,-0.06,-0.05,2,-4,-1,1.17,7716,0,69,31,25,503,667.0,630,463,60,131.0,67,1,267,159,46,0,0,560,1549,2524,663,-5.59,,,,,,,,,,,,
13524,1564322839234,18,2.31,1.47,0.85,2.41,2.03,1.11,-0.06,-0.1,2,-3,-1,1.11,7646,0,69,31,25,503,662.0,634,466,60,131.0,67,1,266,159,46,0,0,579,-2826,2524,658,-5.59,,,,,,,,,,,,
13544,1564322839254,19,2.29,1.47,0.85,2.42,2.03,1.05,-0.05,-0.13,2,-2,-1,1.05,7628,0,69,31,25,502,656.0,633,463,60,131.0,67,1,266,159,46,0,0,560,-388,1,652,-5.59,44.680775,10.016804,69.2,177.0,0,0.0,-1,0.0,0.0,0,0.12,0.2257
13564,1564322839274,18,2.3,1.46,0.85,2.41,2.02,1.03,-0.09,-0.16,2,-1,-1,1.04,7637,0,69,31,25,503,650.0,629,464,60,130.0,69,1,266,159,45,0,0,552,24583,-3210,647,-5.59,,,,,,,,,,,,
13584,1564322839296,20,2.29,1.47,0.85,2.41,2.02,1.01,-0.07,-0.17,1,-0,-0,1.01,7684,0,69,31,25,503,645.0,631,465,60,131.0,69,1,266,159,45,0,0,557,-2830,-9072,637,-5.59,,,,,,,,,,,,
13604,1564322839316,22,2.29,1.46,0.85,2.41,2.03,1.06,-0.05,-0.18,1,0,0,1.06,7631,0,69,31,25,503,639.0,631,465,60,131.0,69,1,266,80,45,0,0,570,-2580,-18032,634,-5.59,,,,,,,,,,,,
13624,1564322839336,21,2.29,1.47,0.85,2.41,2.03,1.13,-0.05,-0.18,1,0,-1,1.13,7625,0,69,31,25,503,633.0,632,466,60,130.0,69,1,266,159,45,0,0,564,3,6273,631,-5.59,,,,,,,,,,,,
13644,1564322839356,19,2.29,1.46,0.85,2.41,2.03,1.2,0.0,-0.13,1,0,-0,1.2,7649,0,69,31,25,503,628.0,629,465,60,129.0,69,1,266,159,45,0,0,545,20993,-3190,628,-5.59,44.680759,10.016797,66.3,177.1,0,0.0,-1,0.0,0.0,0,0.12,0.2274
13664,1564322839376,17,2.3,1.46,0.85,2.42,2.02,1.27,0.02,-0.07,0,0,0,1.27,7615,0,69,31,24,503,622.0,632,462,60,130.0,72,1,266,156,45,0,0,560,17336,1780,619,-5.59,,,,,,,,,,,,
13684,1564322839396,15,2.3,1.47,0.85,2.41,2.02,1.35,0.03,-0.02,0,-2,-0,1.35,7643,0,69,32,25,503,616.0,631,468,60,130.0,72,1,266,159,45,0,0,565,19304,2216,614,-5.59,,,,,,,,,,,,
13704,1564322839416,12,2.29,1.47,0.85,2.42,2.03,1.38,0.07,0.04,0,-3,-1,1.38,7618,0,69,32,24,503,611.0,631,460,60,131.0,72,1,266,156,45,0,0,561,-3446,-22359,611,-5.59,,,,,,,,,,,,
13724,1564322839436,15,2.27,1.47,0.85,2.41,2.02,1.38,0.03,0.04,-0,-2,-0,1.38,7609,0,69,32,24,503,608.0,628,465,60,131.0,72,1,266,159,45,0,0,558,17740,-29984,604,-5.59,,,,,,,,,,,,
13744,1564322839456,15,2.27,1.46,0.85,2.42,2.03,1.31,0.04,0.0,0,-2,0,1.31,7606,0,69,32,24,503,601.0,628,462,60,131.0,72,1,266,156,45,0,0,573,243,-30159,597,-5.59,44.680744,10.01679,63.39,177.1,0,0.0,-1,0.0,0.0,0,0.13,0.2291
13764,1564322839476,16,2.27,1.47,0.85,2.41,2.03,1.25,0.06,-0.04,-0,-2,-0,1.25,7671,0,70,32,24,503,596.0,631,465,60,130.0,77,1,266,156,46,0,0,552,3472,-23623,592,-5.59,,,,,,,,,,,,
13784,1564322839492,14,2.27,1.47,0.85,2.41,2.03,1.2,0.02,-0.05,-0,-1,-1,1.2,7665,0,70,32,24,503,589.0,631,465,60,131.0,77,1,266,156,46,0,0,563,2048,1760,584,-5.59,,,,,,,,,,,,
13804,1564322839512,16,2.27,1.46,0.85,2.42,2.02,1.14,0.04,-0.08,-1,-0,-1,1.15,7684,0,70,32,24,503,582.0,630,464,60,130.0,77,1,266,156,46,0,0,563,15649,6273,580,-5.59,,,,,,,,,,,,
13824,1564322839532,16,2.27,1.46,0.86,2.41,2.03,1.16,0.05,-0.12,-1,-1,-0,1.17,7643,0,69,32,24,503,578.0,631,467,60,130.0,77,1,266,156,46,0,0,549,-3210,2524,575,-5.59,,,,,,,,,,,,
13844,1564322839552,16,2.26,1.47,0.85,2.41,2.03,1.2,0.08,-0.14,-1,-1,-1,1.2,7572,0,69,32,24,503,576.0,631,467,60,131.0,77,1,265,156,46,0,0,557,1,14504,574,-5.59,44.680725,10.016786,60.64,177.1,0,0.0,-1,0.0,0.0,0,0.13,0.2307
13864,1564322839572,16,2.25,1.46,0.86,2.41,2.03,1.19,0.1,-0.14,-2,0,-2,1.2,7443,0,70,32,24,503,573.0,629,466,60,130.0,76,1,264,156,44,0,0,555,1760,2216,567,-5.59,,,,,,,,,,,,
13884,1564322839592,16,2.23,1.47,0.86,2.41,2.03,1.2,0.16,-0.09,-3,1,-1,1.21,7413,0,69,32,24,503,567.0,627,465,60,131.0,76,1,263,156,44,0,0,555,1780,-32248,559,-5.59,,,,,,,,,,,,
13904,1564322839608,16,2.21,1.47,0.85,2.42,2.03,1.22,0.22,-0.12,-4,0,-2,1.24,7376,0,70,32,24,503,565.0,626,465,60,130.0,76,1,263,156,44,0,0,542,12552,-2934,555,-5.59,,,,,,,,,,,,
13924,1564322839628,15,2.19,1.46,0.85,2.42,2.02,1.18,0.26,-0.14,-5,2,-3,1.21,7373,0,70,32,25,503,560.0,630,467,60,131.0,76,1,263,159,44,0,0,547,-28648,-9072,549,-5.59,,,,,,,,,,,,
13944,1564322839648,12,2.19,1.46,0.86,2.41,2.02,1.1,0.36,-0.19,-7,3,-3,1.16,7287,0,70,32,25,503,561.0,627,463,60,131.0,76,1,262,159,44,0,0,551,-18032,-32248,539,-5.59,44.680714,10.01678,58.07,177.1,0,0.0,-1,0.0,0.0,0,0.13,0.2324
13964,1564322839668,12,2.18,1.46,0.86,2.41,2.02,1.08,0.39,-0.18,-7,3,-4,1.15,7242,0,70,32,25,503,556.0,624,464,60,131.0,79,1,262,159,43,0,0,543,2216,2524,534,-5.59,,,,,,,,,,,,
13984,1564322839692,12,2.17,1.46,0.86,2.4,2.02,1.06,0.41,-0.15,-8,3,-6,1.14,7189,0,70,32,25,503,553.0,625,467,60,130.0,79,1,261,159,43,0,0,544,-9072,-3414,529,-5.59,,,,,,,,,,,,
14004,1564322839712,16,2.17,1.46,0.84,2.4,2.01,1.11,0.4,-0.09,-9,1,-8,1.18,7107,0,70,32,25,503,549.0,623,466,60,130.0,79,1,261,159,43,0,0,540,2104,2524,521,-5.59,,,,,,,,,,,,
14024,1564322839732,13,2.14,1.45,0.85,2.38,2.01,1.14,0.51,-0.1,-11,2,-9,1.25,7030,0,70,32,25,503,546.0,622,463,60,130.0,79,1,260,159,43,0,0,534,-8962,-9216,520,-5.59,,,,,,,,,,,,
14044,1564322839752,12,2.12,1.45,0.84,2.39,2.0,1.12,0.58,-0.1,-12,2,-10,1.27,6939,0,70,32,26,503,544.0,624,463,60,129.0,79,1,265,160,43,0,0,532,-506,-6441,515,-5.59,44.680698,10.016775,55.47,177.1,0,0.0,-1,0.0,0.0,0,0.13,0.2341
14064,1564322839772,13,2.1,1.45,0.84,2.37,2.0,1.14,0.57,-0.06,-14,1,-11,1.28,6888,0,70,32,26,503,544.0,622,465,60,129.0,81,1,266,160,42,0,0,538,-3082,-17956,506,-5.59,,,,,,,,,,,,
14084,1564322839792,9,2.09,1.44,0.83,2.36,2.0,1.11,0.71,-0.07,-16,2,-13,1.32,6818,0,70,32,26,503,540.0,622,465,60,130.0,81,1,266,160,42,0,0,540,-8186,2131,501,-5.59,,,,,,,,,,,,
14104,1564322839812,10,2.09,1.45,0.83,2.35,1.99,1.09,0.66,-0.01,-17,2,-15,1.27,6632,0,70,32,27,503,541.0,620,467,60,129.0,81,1,271,161,42,0,0,535,-2336,10392,495,-5.59,,,,,,,,,,,,
14124,1564322839832,7,2.12,1.45,0.83,2.35,1.99,1.03,0.77,0.01,-18,3,-18,1.29,6512,0,70,32,27,503,540.0,619,465,60,131.0,81,1,272,161,42,0,0,529,-8186,-992,494,-5.59,,,,,,,,,,,,
14144,1564322839852,4,2.16,1.45,0.83,2.36,1.98,1.0,0.79,0.03,-19,3,-21,1.28,6377,0,70,32,28,503,539.0,613,463,60,131.0,81,1,276,163,42,0,0,530,1780,-14707,498,-5.59,44.680687,10.016771,52.89,177.1,0,0.0,-1,0.0,0.0,0,0.13,0.2357
14164,1564322839872,5,2.19,1.45,0.83,2.35,1.99,1.05,0.71,0.02,-19,2,-23,1.27,6233,0,70,32,28,503,536.0,606,460,60,132.0,76,1,277,163,38,0,0,531,-30064,0,497,-5.59,,,,,,,,,,,,
14184,1564322839896,5,2.21,1.45,0.83,2.35,1.99,1.07,0.64,0.0,-19,1,-24,1.25,6091,0,70,32,29,502,531.0,603,467,60,130.0,76,1,281,164,38,0,0,525,-22519,-26615,498,-5.59,,,,,,,,,,,,
14204,1564322839916,3,2.21,1.45,0.83,2.36,1.99,1.05,0.59,0.04,-18,0,-25,1.2,5963,0,70,32,30,502,526.0,603,464,60,130.0,76,1,281,165,38,0,0,518,10408,1,497,-5.59,,,,,,,,,,,,
14224,1564322839936,2,2.2,1.45,0.83,2.35,2.0,1.12,0.53,-0.05,-18,-3,-24,1.24,5892,0,70,32,30,501,520.0,602,463,60,131.0,76,1,278,164,38,0,0,502,1341,10305,497,-5.59,,,,,,,,,,,,
14244,1564322839956,1,2.2,1.45,0.83,2.35,1.99,1.13,0.5,-0.04,-17,-6,-24,1.24,5950,0,70,32,31,501,513.0,604,463,60,131.0,76,1,284,166,38,0,0,497,-3482,2212,494,-5.59,44.680672,10.016768,51.2,177.1,0,0.0,-1,0.0,0.0,0,0.13,0.2374
14264,1564322839976,-0,2.2,1.45,0.83,2.36,1.99,1.18,0.42,-0.06,-16,-7,-24,1.25,6069,0,70,32,31,501,511.0,605,465,60,130.0,77,1,287,167,38,0,0,484,-3414,10305,494,-5.59,,,,,,,,,,,,
14284,1564322839996,0,2.21,1.45,0.83,2.36,1.98,1.14,0.37,-0.02,-15,-7,-24,1.2,6229,0,70,32,32,500,510.0,608,462,60,131.0,77,1,290,169,38,0,0,483,-3414,16648,490,-5.59,,,,,,,,,,,,
14304,1564322840008,1,2.21,1.45,0.83,2.36,2.0,1.02,0.41,0.03,-14,-6,-23,1.1,6371,0,70,32,32,501,507.0,612,467,60,130.0,77,1,290,90,38,0,0,484,-21872,-17956,490,-5.59,,,,,,,,,,,,
14324,1564322840028,-1,2.2,1.45,0.83,2.35,1.99,0.96,0.46,0.04,-14,-3,-22,1.07,6456,0,70,32,32,502,503.0,613,465,60,132.0,77,1,290,90,38,0,0,479,2109,2212,487,-5.59,,,,,,,,,,,,
14344,1564322840048,-0,2.18,1.45,0.82,2.36,1.99,1.07,0.42,-0.02,-14,-4,-20,1.15,6592,0,70,32,32,502,499.0,617,462,60,132.0,77,1,290,169,38,0,0,484,-22519,32033,484,-5.59,44.680664,10.016767,50.15,177.1,0,0.0,-1,0.0,0.0,0,0.14,0.2391
14364,1564322840068,3,2.14,1.45,0.83,2.36,1.99,1.04,0.51,0.07,-15,-3,-19,1.16,6632,0,70,32,31,503,498.0,620,465,60,129.0,87,1,286,167,42,0,0,484,2524,8488,481,-5.59,,,,,,,,,,,,
14384,1564322840095,-1,2.12,1.45,0.82,2.35,1.99,1.04,0.58,0.04,-16,-2,-19,1.19,6653,0,70,32,31,503,499.0,616,463,60,131.0,87,1,286,167,42,0,0,488,-22519,-23367,479,-5.59,,,,,,,,,,,,
14404,1564322840115,3,2.08,1.44,0.8,2.34,1.97,1.03,0.61,0.09,-17,-1,-19,1.2,6623,0,70,32,31,504,499.0,620,464,60,129.0,87,1,286,167,42,0,0,492,11560,-1923,477,-5.59,,,,,,,,,,,,
14424,1564322840135,-0,2.05,1.43,0.8,2.31,1.97,1.0,0.72,0.12,-18,0,-20,1.23,6528,0,70,32,31,504,502.0,614,462,60,130.0,87,1,286,167,42,0,0,497,11560,3576,469,-5.59,,,,,,,,,,,,
14444,1564322840155,-1,2.03,1.43,0.79,2.29,1.95,1.03,0.7,0.09,-21,-2,-21,1.25,6485,0,70,32,31,503,501.0,612,463,60,131.0,87,1,286,167,42,0,0,494,11560,6193,466,-5.59,44.680649,10.016767,48.94,177.1,0,0.0,-1,0.0,0.0,0,0.14,0.2407
14464,1564322840175,2,2.02,1.43,0.79,2.29,1.94,1.01,0.72,0.16,-21,-2,-22,1.24,6394,0,70,32,31,503,500.0,617,463,60,130.0,88,1,286,167,41,0,0,494,10408,-9160,462,-5.59,,,,,,,,,,,,
14484,1564322840195,2,2.03,1.43,0.77,2.3,1.93,0.93,0.85,0.2,-22,-1,-23,1.26,6364,0,70,32,31,504,499.0,615,463,60,131.0,88,1,286,167,41,0,0,492,-22519,-26615,457,-5.59,,,,,,,,,,,,
14504,1564322840215,-0,2.02,1.42,0.77,2.29,1.93,0.95,0.92,0.26,-23,-1,-26,1.33,6373,0,70,32,31,503,498.0,612,462,60,131.0,88,1,286,167,41,0,0,488,2524,19477,456,-5.59,,,,,,,,,,,,
14524,1564322840235,-1,2.03,1.43,0.77,2.3,1.93,0.98,0.84,0.23,-24,-3,-28,1.29,6321,0,70,32,32,503,496.0,610,467,60,131.0,88,1,290,90,41,0,0,490,3,-3314,456,-5.59,,,,,,,,,,,,
14544,1564322840255,1,2.03,1.42,0.77,2.29,1.93,1.01,0.81,0.26,-24,-4,-30,1.29,6256,0,70,32,32,503,498.0,608,467,60,130.0,88,1,290,90,41,0,0,491,3,-3856,455,-5.59,44.680637,10.016766,47.39,177.0,0,0.0,-1,0.0,0.0,0,0.14,0.2424
14564,1564322840275,1,2.03,1.43,0.77,2.3,1.93,0.93,0.88,0.27,-24,-4,-31,1.28,6177,0,70,32,32,503,495.0,608,467,60,129.0,86,1,290,169,39,0,0,490,771,-4082,452,-5.59,,,,,,,,,,,,
14584,1564322840295,2,2.03,1.42,0.77,2.29,1.92,0.83,0.98,0.29,-25,-3,-32,1.29,6087,0,70,32,32,504,495.0,610,462,60,130.0,86,1,290,169,39,0,0,492,771,-21792,453,-5.59,,,,,,,,,,,,
14604,1564322840315,2,2.04,1.43,0.77,2.29,1.92,0.78,1.09,0.3,-26,-1,-32,1.34,6042,0,70,32,32,504,494.0,610,461,60,131.0,86,1,290,174,39,0,0,486,998,-3322,449,-5.59,,,,,,,,,,,,
14624,1564322840335,3,2.06,1.42,0.76,2.28,1.93,0.73,1.18,0.28,-27,-0,-32,1.39,6119,0,70,32,33,504,488.0,607,462,60,131.0,86,1,292,174,39,0,0,478,1,-7939,447,-5.59,,,,,,,,,,,,
14644,1564322840355,3,2.06,1.42,0.77,2.29,1.92,0.67,1.26,0.29,-28,-0,-32,1.43,6204,0,70,32,33,505,489.0,608,463,60,132.0,86,1,292,174,39,0,0,476,1,-26615,443,-5.59,44.680626,10.016767,46.88,176.9,0,0.0,-1,0.0,0.0,0,0.14,0.2441
14664,1564322840375,-0,2.09,1.43,0.76,2.29,1.92,0.65,1.27,0.25,-28,-0,-34,1.42,6262,0,70,32,33,505,488.0,610,465,60,130.0,92,1,292,174,41,0,0,480,1,-26615,445,-5.59,,,,,,,,,,,,
14684,1564322840395,-3,2.13,1.43,0.76,2.29,1.92,0.74,1.2,0.22,-28,-1,-35,1.41,6198,0,70,32,33,505,487.0,611,463,60,131.0,92,1,292,174,41,0,0,481,505,-4059,446,-5.59,,,,,,,,,,,,
14704,1564322840415,-1,2.14,1.43,0.76,2.29,1.92,0.84,1.12,0.21,-28,-2,-36,1.4,6095,0,70,32,33,505,485.0,612,463,60,131.0,92,1,292,174,41,0,0,479,-6441,243,443,-5.59,,,,,,,,,,,,
14724,1564322840435,-0,2.16,1.42,0.76,2.27,1.9,0.89,1.0,0.14,-27,-2,-37,1.34,6036,0,70,32,34,504,482.0,603,464,60,131.0,92,1,295,174,41,0,0,473,32033,21580,445,-5.59,,,,,,,,,,,,
14744,1564322840455,-1,2.18,1.42,0.75,2.27,1.9,0.96,0.87,0.11,-26,-3,-36,1.3,6046,0,70,32,34,503,478.0,609,463,60,130.0,92,1,295,174,41,0,0,467,16648,-3322,444,-5.59,44.680614,10.016768,46.3,176.9,0,0.0,-1,0.0,0.0,0,0.14,0.2457
14764,1564322840475,-1,2.21,1.42,0.74,2.26,1.89,1.02,0.74,0.08,-24,-4,-36,1.26,6069,0,70,32,34,502,471.0,605,462,60,131.0,92,1,295,179,41,0,0,462,32033,-18341,446,-5.59,,,,,,,,,,,,
14784,1564322840491,-1,2.24,1.42,0.75,2.24,1.89,1.03,0.64,0.1,-22,-5,-35,1.21,6173,0,70,32,34,501,464.0,609,465,60,131.0,92,1,295,179,41,0,0,459,-3210,20625,447,-5.59,,,,,,,,,,,,
14804,1564322840511,1,2.27,1.41,0.74,2.24,1.89,0.96,0.62,0.14,-19,-3,-33,1.14,6206,0,70,32,34,501,463.0,616,463,60,130.0,92,1,295,179,41,0,0,452,6193,21432,447,-5.59,,,,,,,,,,,,
14824,1564322840531,2,2.31,1.42,0.73,2.25,1.89,0.88,0.58,0.18,-16,-2,-32,1.06,6157,0,70,32,34,502,460.0,613,467,60,129.0,92,1,295,101,41,0,0,454,17628,-18341,447,-5.59,,,,,,,,,,,,
14844,1564322840551,3,2.34,1.42,0.75,2.27,1.89,0.8,0.54,0.24,-14,-1,-30,0.97,6117,0,70,32,33,502,455.0,612,458,60,130.0,92,1,292,174,41,0,0,451,-26615,10305,450,-5.59,44.680603,10.016773,45.28,176.9,0,0.0,-1,0.0,0.0,0,0.14,0.2474
14864,1564322840571,3,2.38,1.43,0.75,2.3,1.9,0.73,0.5,0.29,-11,-0,-28,0.89,6040,0,70,32,34,503,453.0,610,464,60,131.0,90,1,295,179,41,0,0,448,-8985,-6387,452,-5.59,,,,,,,,,,,,
14884,1564322840591,2,2.41,1.44,0.75,2.32,1.91,0.69,0.47,0.34,-8,0,-25,0.84,5988,0,70,32,34,504,454.0,610,466,60,131.0,90,1,294,179,41,0,0,440,8488,-6387,454,-5.59,,,,,,,,,,,,
14904,1564322840611,2,2.42,1.45,0.77,2.35,1.92,0.65,0.4,0.39,-6,1,-22,0.77,5965,0,70,32,34,505,456.0,604,465,60,131.0,90,1,293,179,41,0,0,434,21432,3571,456,-5.59,,,,,,,,,,,,
14924,1564322840631,3,2.42,1.45,0.78,2.36,1.94,0.62,0.33,0.45,-4,2,-19,0.7,5986,0,70,32,34,506,456.0,606,463,60,131.0,90,1,294,179,41,0,0,437,20625,-8985,456,-5.59,,,,,,,,,,,,
14944,1564322840651,1,2.45,1.45,0.79,2.37,1.95,0.57,0.27,0.51,-3,3,-15,0.63,6009,0,70,32,34,506,457.0,605,463,60,131.0,90,1,295,179,41,0,0,429,21580,3571,458,-5.59,44.680592,10.016778,44.72,176.8,0,0.0,-1,0.0,0.0,0,0.14,0.2491
14964,1564322840671,3,2.46,1.46,0.79,2.38,1.95,0.5,0.22,0.57,-1,4,-12,0.55,6007,0,70,32,34,506,456.0,607,463,60,131.0,87,1,295,101,40,0,0,428,5600,3571,456,-5.59,,,,,,,,,,,,
14984,1564322840691,4,2.49,1.46,0.8,2.38,1.95,0.41,0.17,0.67,1,4,-10,0.45,5986,0,70,32,35,505,456.0,608,463,60,130.0,87,1,297,106,40,0,0,427,-7939,-6387,457,-5.59,,,,,,,,,,,,
15004,1564322840711,3,2.54,1.46,0.79,2.38,1.95,0.35,0.11,0.7,3,5,-7,0.37,5948,0,70,32,35,505,456.0,606,460,60,130.0,87,1,295,184,40,0,0,422,1779,10305,456,-5.59,,,,,,,,,,,,
15024,1564322840731,3,2.56,1.45,0.8,2.38,1.96,0.29,0.07,0.74,5,6,-4,0.3,5885,0,70,32,35,505,456.0,604,465,60,128.0,87,1,292,183,40,0,0,417,31796,-3267,456,-5.59,,,,,,,,,,,,
15044,1564322840751,2,2.57,1.46,0.8,2.39,1.96,0.21,0.0,0.81,8,7,-1,0.21,5859,0,70,32,35,505,457.0,603,461,60,130.0,87,1,290,183,40,0,0,410,-4082,-8985,457,-5.59,44.680584,10.016783,44.35,176.8,0,0.0,-1,0.0,0.0,0,0.14,0.2507
15064,1564322840771,-0,2.58,1.46,0.81,2.38,1.97,0.17,-0.15,0.91,10,7,2,0.22,5801,0,70,32,36,505,459.0,605,465,60,128.0,89,1,290,189,41,0,0,403,-21792,-26615,457,-5.59,,,,,,,,,,,,
15084,1564322840791,0,2.54,1.46,0.8,2.39,1.97,0.22,-0.32,0.92,12,7,5,0.38,5744,0,70,32,36,505,456.0,606,466,60,128.0,89,1,286,188,41,0,0,391,-8165,-6387,456,-5.59,,,,,,,,,,,,
15104,1564322840811,-0,2.54,1.45,0.8,2.38,1.97,0.38,-0.4,0.77,14,3,9,0.55,5711,0,70,32,37,504,456.0,600,464,60,129.0,89,1,287,188,41,0,0,385,18584,2524,457,-5.59,,,,,,,,,,,,
15124,1564322840831,3,2.53,1.46,0.8,2.39,1.97,0.54,-0.46,0.68,16,1,13,0.71,5637,0,70,32,37,504,457.0,596,461,60,130.0,89,1,283,116,41,0,0,381,7154,10305,457,-5.59,,,,,,,,,,,,
15144,1564322840851,1,2.54,1.47,0.81,2.38,1.97,0.48,-0.49,0.66,17,2,14,0.69,5563,0,70,32,38,504,453.0,600,463,60,127.0,89,1,280,199,41,0,0,370,18584,2131,454,-5.59,44.680572,10.016788,43.77,176.8,0,0.0,-1,0.0,0.0,0,0.15,0.2524
15164,1564322840871,-0,2.55,1.46,0.8,2.4,1.97,0.46,-0.59,0.61,19,2,16,0.75,5485,0,70,32,39,504,453.0,591,463,60,131.0,90,1,279,127,41,0,0,359,-3414,21432,453,-5.59,,,,,,,,,,,,
15184,1564322840895,4,2.56,1.46,0.81,2.4,1.97,0.56,-0.68,0.5,20,1,19,0.88,5411,0,70,32,39,503,452.0,591,463,60,130.0,90,1,274,127,41,0,0,353,-26615,16648,454,-5.59,,,,,,,,,,,,
15204,1564322840915,-1,2.59,1.47,0.8,2.4,1.97,0.52,-0.76,0.53,21,3,20,0.92,5352,0,70,32,40,503,452.0,593,463,60,128.0,90,1,274,205,41,0,0,340,-26615,16648,452,-5.59,,,,,,,,,,,,
15224,1564322840935,2,2.61,1.46,0.81,2.4,1.98,0.48,-0.86,0.55,22,2,23,0.98,5308,0,70,32,41,504,452.0,590,460,60,130.0,90,1,275,205,41,0,0,333,-4059,21432,452,-5.59,,,,,,,,,,,,
15244,1564322840955,-2,2.62,1.47,0.81,2.4,1.99,0.5,-0.84,0.57,25,2,26,0.98,5255,0,70,32,41,504,450.0,557,467,60,129.0,90,1,271,207,41,0,0,322,11560,-3267,450,-5.59,44.680561,10.01679,43.47,176.7,0,0.0,-1,0.0,0.0,0,0.15,0.2541
15264,1564322840975,4,2.62,1.47,0.81,2.4,1.98,0.51,-0.91,0.57,25,2,27,1.05,5178,0,70,32,42,504,451.0,409,463,60,131.0,90,1,269,208,41,0,0,319,-26615,21432,451,-5.59,,,,,,,,,,,,
15284,1564322840995,-0,2.63,1.46,0.81,2.39,1.99,0.55,-0.95,0.54,27,3,29,1.1,5062,0,70,32,43,504,449.0,382,462,60,127.0,90,1,264,210,41,0,0,308,1504,23400,449,-5.59,,,,,,,,,,,,
15304,1564322841007,0,2.63,1.47,0.81,2.4,1.98,0.65,-0.95,0.55,29,1,31,1.15,5005,0,70,32,44,504,449.0,410,460,60,131.0,90,1,262,212,41,0,0,300,-8151,26704,448,-5.59,,,,,,,,,,,,
15324,1564322841027,4,2.62,1.47,0.81,2.41,1.99,0.61,-1.01,0.56,30,1,32,1.18,4957,0,70,32,45,504,449.0,380,463,60,131.0,90,1,260,135,41,0,0,287,1504,-18341,449,-5.59,,,,,,,,,,,,
15344,1564322841047,-1,2.64,1.47,0.81,2.4,1.98,0.64,-1.08,0.53,31,2,33,1.26,4942,8,70,32,46,504,449.0,330,466,60,129.0,90,1,258,214,41,0,0,275,11545,21432,449,-5.59,44.68055,10.016793,43.13,176.6,0,0.0,-1,0.0,0.0,0,0.15,0.2557
15364,1564322841067,-1,2.63,1.47,0.82,2.4,2.0,0.73,-1.06,0.5,33,0,36,1.29,4870,18,70,32,48,504,448.0,293,461,60,128.0,89,1,259,140,40,0,0,269,6384,23400,448,-5.59,,,,,,,,,,,,
15384,1564322841096,2,2.62,1.47,0.81,2.4,1.99,0.73,-1.08,0.51,34,0,37,1.3,4790,23,70,32,51,504,446.0,265,458,60,130.0,89,1,261,225,40,0,0,265,-3968,21580,446,-5.59,,,,,,,,,,,,
15404,1564322841116,2,2.63,1.47,0.81,2.41,1.99,0.72,-1.08,0.51,34,1,38,1.3,4739,29,70,32,56,504,444.0,248,463,60,131.0,89,1,261,239,40,0,0,263,-3968,20625,444,-5.59,,,,,,,,,,,,
15424,1564322841136,2,2.64,1.47,0.81,2.4,1.99,0.7,-1.1,0.52,34,2,38,1.3,4749,33,70,32,61,504,445.0,241,463,60,130.0,89,1,247,261,40,0,0,260,17144,19477,445,-5.59,,,,,,,,,,,,
15444,1564322841156,-1,2.63,1.47,0.82,2.4,1.99,0.72,-1.14,0.49,35,1,39,1.35,4788,38,70,32,66,504,445.0,235,467,60,130.0,89,1,254,298,40,0,0,255,1,20625,443,-5.59,44.680542,10.016793,42.55,176.6,0,0.0,-1,0.0,0.0,0,0.15,0.2574
15464,1564322841176,-2,2.64,1.47,0.82,2.4,2.0,0.75,-1.13,0.47,37,-1,42,1.36,4810,41,70,32,71,504,443.0,230,461,60,130.0,128,1,258,326,57,0,0,251,-1562,5600,443,-5.59,,,,,,,,,,,,
15484,1564322841196,-0,2.64,1.46,0.82,2.4,2.0,0.75,-1.11,0.49,38,-1,43,1.34,4778,43,70,32,75,504,442.0,233,455,60,130.0,128,1,256,343,57,0,0,251,-1562,-28332,442,-5.59,,,,,,,,,,,,
15504,1564322841216,2,2.63,1.46,0.81,2.4,2.0,0.76,-1.11,0.48,38,-0,43,1.35,4766,43,70,32,79,504,440.0,237,463,60,131.0,128,1,256,374,57,0,0,251,-6524,21580,440,-5.59,,,,,,,,,,,,
15524,1564322841236,1,2.63,1.47,0.82,2.4,2.0,0.74,-1.15,0.49,37,1,43,1.37,4694,43,70,32,80,504,438.0,235,462,60,131.0,128,1,251,396,57,0,0,252,-6524,1779,438,-5.59,,,,,,,,,,,,
15544,1564322841256,3,2.61,1.46,0.82,2.4,2.0,0.75,-1.22,0.46,36,2,43,1.43,4642,43,70,32,82,503,438.0,231,463,60,130.0,128,1,247,420,57,0,0,254,-3866,243,437,-5.59,44.680527,10.016793,41.87,176.5,0,0.0,-1,0.0,0.0,0,0.15,0.2591
15564,1564322841276,2,2.6,1.47,0.82,2.4,2.0,0.75,-1.27,0.4,36,2,43,1.48,4587,43,70,32,83,504,437.0,227,470,60,130.0,167,1,244,431,73,0,0,257,-6475,243,437,-5.59,,,,,,,,,,,,
15584,1564322841298,4,2.56,1.47,0.82,2.4,2.0,0.75,-1.31,0.4,36,2,44,1.51,4541,43,70,32,84,504,437.0,220,470,60,131.0,167,1,242,432,73,0,0,257,-19019,31796,437,-5.59,,,,,,,,,,,,
15604,1564322841318,2,2.54,1.47,0.82,2.4,2.01,0.76,-1.35,0.39,36,1,44,1.55,4466,43,70,32,84,504,436.0,213,470,60,131.0,167,1,236,351,73,0,0,254,-19126,-768,436,-5.59,,,,,,,,,,,,
15624,1564322841338,2,2.51,1.47,0.81,2.41,2.0,0.75,-1.38,0.4,35,1,45,1.57,4451,43,70,32,85,504,436.0,207,471,60,131.0,167,1,237,431,73,0,0,247,-19126,3826,436,-5.59,,,,,,,,,,,,
15644,1564322841358,2,2.46,1.47,0.81,2.41,2.0,0.77,-1.37,0.41,34,1,45,1.57,4494,43,70,32,85,504,431.0,202,471,60,131.0,167,1,242,433,73,0,0,229,-19126,3826,431,-5.59,44.680519,10.01679,41.47,176.5,0,0.0,-1,0.0,0.0,0,0.15,0.2607
15664,1564322841378,4,2.42,1.47,0.81,2.41,1.99,0.75,-1.32,0.43,31,1,44,1.52,4488,43,70,32,85,504,428.0,197,470,60,130.0,170,1,241,433,73,0,0,218,-6475,7154,427,-5.59,,,,,,,,,,,,
15684,1564322841398,3,2.38,1.47,0.81,2.41,2.0,0.77,-1.26,0.41,28,1,43,1.48,4428,43,70,32,85,505,422.0,192,470,60,130.0,170,1,235,429,73,0,0,218,240,-8165,422,-5.59,,,,,,,,,,,,
15704,1564322841418,2,2.36,1.47,0.8,2.41,1.99,0.78,-1.21,0.4,26,2,42,1.44,4398,52,70,32,86,504,420.0,188,470,60,132.0,170,1,235,431,73,0,0,216,-1562,-21944,420,-5.59,,,,,,,,,,,,
15724,1564322841438,-1,2.35,1.46,0.8,2.39,2.0,0.79,-1.18,0.3,25,3,41,1.42,4408,62,70,32,88,504,415.0,183,469,60,131.0,170,1,241,441,73,0,0,290,505,-4059,415,-5.59,,,,,,,,,,,,
15744,1564322841458,0,2.33,1.47,0.8,2.4,1.99,0.85,-1.11,0.3,24,3,38,1.4,4446,77,70,32,92,504,409.0,182,467,60,132.0,170,1,261,507,73,0,0,383,-6524,6512,405,-5.59,44.680508,10.016788,40.7,176.5,0,0.0,-1,0.0,0.0,0,0.15,0.2624
15764,1564322841478,0,2.34,1.46,0.8,2.39,1.99,0.95,-1.01,0.23,21,2,36,1.38,4609,90,70,32,95,503,400.0,180,458,60,132.0,239,1,288,568,96,0,0,386,-6524,-1562,400,-5.59,,,,,,,,,,,,
15784,1564322841494,4,2.33,1.47,0.8,2.39,1.99,0.89,-0.94,0.32,19,2,34,1.3,4719,100,70,32,95,503,393.0,180,465,60,131.0,239,1,293,596,96,0,0,380,-6524,-31744,393,-5.59,,,,,,,,,,,,
15804,1564322841514,-1,2.32,1.46,0.8,2.4,1.98,0.85,-0.85,0.35,16,2,31,1.2,4942,100,70,32,95,502,391.0,179,461,60,130.0,239,1,304,601,96,0,0,380,-6524,19125,391,181.28,,,,,,,,,,,,
15824,1564322841534,1,2.32,1.46,0.8,2.39,1.99,0.9,-0.72,0.31,14,2,29,1.15,5084,100,70,32,95,502,389.0,178,465,60,132.0,239,1,308,597,96,0,0,378,240,3,389,-5.59,,,,,,,,,,,,
15844,1564322841554,-3,2.31,1.46,0.8,2.39,1.98,0.82,-0.67,0.37,13,3,26,1.06,5249,100,70,32,95,501,388.0,182,463,60,130.0,239,1,310,588,96,0,0,382,-31744,3,387,-5.59,44.6805,10.016783,39.91,176.5,0,0.0,-1,0.0,0.0,0,0.15,0.2641
15864,1564322841574,1,2.31,1.46,0.8,2.39,1.99,0.92,-0.6,0.33,12,3,24,1.1,5351,100,70,32,94,501,389.0,178,463,60,131.0,291,1,311,489,113,0,0,382,-19019,19125,389,-5.59,,,,,,,,,,,,
15884,1564322841594,-0,2.3,1.46,0.79,2.39,1.98,0.84,-0.52,0.41,12,3,22,0.99,5370,100,70,32,95,501,389.0,182,463,60,131.0,291,1,311,580,113,0,0,381,-19019,19125,389,181.28,,,,,,,,,,,,
15904,1564322841614,3,2.26,1.46,0.79,2.38,1.98,0.92,-0.48,0.33,11,4,20,1.04,5355,100,70,32,95,501,389.0,181,466,60,132.0,291,1,311,564,113,0,0,381,-6475,-3866,389,-5.59,,,,,,,,,,,,
15924,1564322841634,2,2.23,1.45,0.78,2.37,1.97,0.9,-0.38,0.43,10,5,17,0.98,5397,100,70,33,95,501,387.0,183,462,60,130.0,291,1,311,579,113,0,0,381,-19126,-19019,385,-5.59,,,,,,,,,,,,
15944,1564322841654,0,2.2,1.45,0.77,2.37,1.96,0.87,-0.3,0.42,8,5,17,0.92,5593,82,70,33,95,501,386.0,188,460,60,132.0,291,1,313,568,113,0,0,384,-3866,-19126,381,-5.59,44.680489,10.016776,38.97,176.5,0,0.0,-1,0.0,0.0,0,0.16,0.2657
15964,1564322841674,-1,2.17,1.44,0.76,2.35,1.95,0.96,-0.26,0.38,5,2,15,0.99,5922,61,70,33,91,501,388.0,198,465,60,131.0,305,1,316,505,116,0,0,385,-6524,8200,376,-5.59,,,,,,,,,,,,
15984,1564322841694,-1,2.14,1.44,0.76,2.34,1.95,0.89,-0.21,0.48,3,0,13,0.91,6291,57,70,33,88,501,389.0,210,462,60,131.0,305,1,342,501,116,0,0,392,-31744,742,374,-5.59,,,,,,,,,,,,
16004,1564322841714,3,2.12,1.43,0.75,2.33,1.94,0.73,-0.09,0.59,0,3,10,0.73,6360,56,70,33,86,501,393.0,221,462,60,128.0,305,1,347,493,116,0,0,410,17144,17144,372,-5.59,,,,,,,,,,,,
16024,1564322841734,3,2.11,1.44,0.74,2.31,1.93,0.62,0.03,0.72,-2,5,5,0.63,5950,56,70,33,86,501,404.0,241,462,60,130.0,305,1,330,482,116,0,0,434,1504,10994,376,-5.59,,,,,,,,,,,,
16044,1564322841754,2,2.11,1.43,0.73,2.28,1.91,0.48,0.1,0.85,-4,8,2,0.49,5801,56,70,33,86,501,411.0,264,461,60,129.0,305,1,323,480,116,0,0,425,-4059,8488,379,-5.59,44.680485,10.01677,37.6,176.6,0,0.0,-1,0.0,0.0,0,0.16,0.2674
16064,1564322841774,1,2.11,1.42,0.72,2.26,1.89,0.41,0.17,0.96,-6,8,0,0.45,5746,56,70,33,85,501,412.0,287,456,60,129.0,277,1,322,476,105,0,0,424,13040,-6656,382,-5.59,,,,,,,,,,,,
16084,1564322841794,-0,2.1,1.41,0.7,2.23,1.87,0.42,0.23,0.81,-8,6,-2,0.48,5605,56,70,33,85,502,413.0,308,465,60,132.0,277,1,316,474,105,0,0,418,-9166,-4059,384,-5.59,,,,,,,,,,,,
16104,1564322841814,2,2.09,1.41,0.69,2.23,1.86,0.49,0.24,0.78,-9,5,-4,0.54,5409,56,70,33,85,502,415.0,331,463,60,132.0,277,1,305,475,105,0,0,421,-26615,-4082,387,-5.59,,,,,,,,,,,,
16124,1564322841834,-0,2.1,1.41,0.69,2.23,1.87,0.43,0.33,0.83,-10,5,-6,0.54,5482,56,70,33,86,502,417.0,350,464,60,130.0,277,1,309,475,105,0,0,419,-21944,11545,387,-5.59,,,,,,,,,,,,
16144,1564322841854,-2,2.09,1.4,0.69,2.24,1.87,0.44,0.33,0.71,-10,4,-9,0.54,5565,56,70,33,86,502,418.0,370,465,60,131.0,277,1,313,476,105,0,0,419,-3414,11560,388,-5.59,44.680473,10.016765,36.94,176.6,0,0.0,-1,0.0,0.0,0,0.16,0.2691
16164,1564322841874,4,2.1,1.41,0.7,2.25,1.87,0.48,0.42,0.84,-10,1,-12,0.64,5657,56,70,33,85,502,418.0,391,463,60,131.0,258,1,318,475,101,0,0,419,-3414,18584,392,-5.59,,,,,,,,,,,,
16184,1564322841894,4,2.09,1.41,0.69,2.24,1.87,0.5,0.45,0.87,-11,1,-12,0.67,5803,56,70,33,85,502,421.0,422,465,60,131.0,258,1,325,477,101,0,0,420,-21792,7154,397,-5.59,,,,,,,,,,,,
16204,1564322841914,3,2.09,1.42,0.7,2.26,1.88,0.44,0.46,0.83,-13,1,-13,0.64,5941,56,70,33,84,502,426.0,439,462,60,131.0,258,1,336,479,101,0,0,427,13552,19477,399,-5.59,,,,,,,,,,,,
16224,1564322841934,2,2.08,1.41,0.71,2.25,1.88,0.42,0.54,0.85,-14,1,-14,0.68,6009,56,70,33,84,502,431.0,447,460,60,129.0,258,1,340,480,101,0,0,433,1779,-768,401,-5.59,,,,,,,,,,,,
16244,1564322841954,3,2.07,1.42,0.7,2.23,1.87,0.37,0.62,0.91,-16,1,-15,0.72,5948,52,70,33,84,502,434.0,461,460,60,131.0,258,1,336,476,101,0,0,442,-768,19477,404,-5.59,44.680466,10.01676,38.93,176.6,0,0.0,-1,0.0,0.0,0,0.16,0.2707
16264,1564322841974,3,2.07,1.41,0.7,2.23,1.86,0.36,0.69,1.01,-17,1,-16,0.78,5872,50,70,32,83,502,438.0,489,460,60,130.0,261,1,334,476,106,0,0,442,20625,1779,406,-5.59,,,,,,,,,,,,
16284,1564322841994,1,2.07,1.41,0.68,2.21,1.86,0.34,0.76,1.07,-18,1,-17,0.84,5835,49,70,32,83,502,442.0,530,463,60,129.0,261,1,331,472,106,0,0,443,23400,-3314,407,-5.59,,,,,,,,,,,,
16304,1564322842008,1,2.06,1.4,0.69,2.2,1.86,0.34,0.79,0.99,-18,0,-17,0.86,5892,49,70,32,82,502,442.0,563,463,60,130.0,261,1,337,466,106,0,0,439,23400,-3322,408,-5.59,,,,,,,,,,,,
16324,1564322842028,1,2.06,1.41,0.68,2.2,1.86,0.34,0.78,0.89,-19,-1,-18,0.85,5969,49,70,32,82,501,444.0,582,462,60,130.0,261,1,341,469,106,0,0,444,21432,21580,411,-5.59,,,,,,,,,,,,
16344,1564322842048,0,2.06,1.41,0.68,2.19,1.86,0.34,0.79,0.84,-19,-2,-19,0.87,6064,49,70,32,82,501,445.0,603,466,60,130.0,261,1,346,471,106,0,0,441,2131,-9160,413,-5.59,44.680454,10.016756,40.47,176.5,0,0.0,-1,0.0,0.0,0,0.16,0.2724
16364,1564322842068,1,2.06,1.41,0.68,2.21,1.85,0.31,0.79,0.77,-20,-2,-20,0.85,6171,49,70,32,82,501,447.0,607,465,60,129.0,263,1,349,473,109,0,0,447,10305,6193,415,-5.59,,,,,,,,,,,,
16384,1564322842095,2,2.06,1.4,0.69,2.2,1.86,0.23,0.85,0.75,-20,-1,-21,0.88,6229,48,70,32,82,501,451.0,610,461,60,129.0,263,1,352,474,109,0,0,450,3571,14488,415,-5.59,,,,,,,,,,,,
16404,1564322842115,0,2.07,1.4,0.68,2.19,1.86,0.21,0.88,0.72,-21,1,-23,0.9,6260,48,70,32,81,501,454.0,607,466,60,131.0,263,1,354,468,109,0,0,456,2524,12552,417,-5.59,,,,,,,,,,,,
16424,1564322842135,-2,2.07,1.4,0.68,2.19,1.85,0.29,0.85,0.74,-23,1,-24,0.9,6229,48,70,32,81,501,456.0,605,463,60,131.0,263,1,353,468,109,0,0,457,14488,8488,418,-5.59,,,,,,,,,,,,
16444,1564322842155,-2,2.08,1.4,0.69,2.19,1.85,0.43,0.78,0.75,-23,-1,-25,0.89,6258,48,70,32,81,501,458.0,605,466,60,131.0,263,1,354,468,109,0,0,463,17628,-6387,420,-5.59,44.680447,10.016752,41.01,176.6,0,0.0,-1,0.0,0.0,0,0.16,0.2741
16464,1564322842175,1,2.08,1.4,0.68,2.18,1.85,0.48,0.74,0.81,-23,-3,-27,0.88,6254,48,70,32,81,502,460.0,606,465,60,130.0,263,1,353,468,111,0,0,463,-23623,-6387,421,-5.59,,,,,,,,,,,,
16484,1564322842195,2,2.08,1.4,0.69,2.18,1.85,0.42,0.78,0.87,-23,-3,-28,0.89,6204,48,70,32,81,502,461.0,608,461,60,130.0,263,1,352,468,111,0,0,465,2211,8488,426,-5.59,,,,,,,,,,,,
16504,1564322842215,3,2.07,1.4,0.68,2.18,1.85,0.28,0.87,0.88,-23,-1,-28,0.91,6212,48,70,32,81,502,461.0,607,459,60,130.0,263,1,352,468,111,0,0,462,2211,10432,429,-5.59,,,,,,,,,,,,
16524,1564322842235,2,2.09,1.4,0.68,2.17,1.85,0.24,0.91,0.88,-23,1,-29,0.94,6252,48,70,32,81,502,464.0,608,459,60,130.0,263,1,353,468,111,0,0,463,16408,8488,430,-5.59,,,,,,,,,,,,
16544,1564322842255,-2,2.09,1.39,0.69,2.17,1.85,0.3,0.93,0.84,-23,2,-29,0.98,6277,44,70,32,80,502,463.0,607,461,60,131.0,263,1,355,386,111,0,0,464,30272,10432,432,-5.59,44.680435,10.016749,42.03,176.6,0,0.0,-1,0.0,0.0,0,0.16,0.2757
16564,1564322842275,-1,2.1,1.4,0.69,2.17,1.86,0.43,0.86,0.85,-24,-0,-29,0.96,6381,40,70,32,79,502,466.0,607,466,60,131.0,256,1,359,457,111,0,0,465,-3210,2212,434,-5.59,,,,,,,,,,,,
16584,1564322842295,3,2.11,1.4,0.7,2.17,1.86,0.45,0.83,0.92,-23,-2,-29,0.94,6449,38,70,32,77,502,467.0,611,462,60,130.0,256,1,362,446,111,0,0,470,10432,-3210,434,-5.59,,,,,,,,,,,,
16604,1564322842315,-2,2.13,1.4,0.69,2.17,1.86,0.33,0.89,0.97,-22,0,-30,0.95,6430,37,70,32,75,502,470.0,612,461,60,130.0,256,1,364,440,111,0,0,472,8488,32033,440,-5.59,,,,,,,,,,,,
16624,1564322842335,-2,2.14,1.4,0.69,2.17,1.85,0.4,0.88,0.9,-22,1,-30,0.96,6377,36,70,32,74,502,472.0,610,463,60,131.0,256,1,363,407,111,0,0,473,-1923,10432,444,-5.59,,,,,,,,,,,,
16644,1564322842355,1,2.15,1.39,0.7,2.17,1.86,0.52,0.8,0.89,-22,-0,-30,0.96,6300,33,70,32,73,502,474.0,607,461,60,131.0,256,1,362,391,111,0,0,472,3576,10432,445,-5.59,44.680428,10.016748,43.27,176.6,0,0.0,-1,0.0,0.0,0,0.16,0.2774
16664,1564322842375,0,2.15,1.4,0.7,2.17,1.86,0.53,0.72,0.87,-21,-2,-29,0.9,6294,30,70,32,72,502,473.0,608,462,60,130.0,207,1,362,375,93,0,0,472,3576,14488,448,-5.59,,,,,,,,,,,,
16684,1564322842395,4,2.15,1.4,0.7,2.19,1.86,0.46,0.74,0.9,-20,-2,-28,0.87,6296,30,70,32,71,501,473.0,609,461,60,129.0,207,1,364,359,93,0,0,471,3576,-16384,451,-5.59,,,,,,,,,,,,
16704,1564322842415,0,2.15,1.4,0.7,2.19,1.86,0.44,0.76,0.88,-19,-1,-27,0.88,6300,29,70,32,69,502,474.0,609,461,60,131.0,207,1,367,328,93,0,0,472,-9203,30272,451,-5.59,,,,,,,,,,,,
16724,1564322842435,-3,2.16,1.4,0.7,2.19,1.87,0.5,0.74,0.81,-19,-1,-26,0.89,6377,29,70,32,68,502,475.0,610,465,60,131.0,207,1,370,314,93,0,0,475,-17956,17628,452,-5.59,,,,,,,,,,,,
16744,1564322842455,0,2.17,1.4,0.71,2.19,1.87,0.61,0.65,0.77,-18,-3,-26,0.89,6416,29,70,32,68,502,476.0,614,464,60,130.0,207,1,372,315,93,0,0,476,-23367,2211,455,-5.59,44.680412,10.016747,44.02,176.5,0,0.0,-1,0.0,0.0,0,0.16,0.2791
16764,1564322842475,1,2.17,1.41,0.71,2.2,1.87,0.58,0.67,0.82,-18,-3,-25,0.89,6408,29,70,32,67,501,475.0,613,458,60,131.0,164,1,375,308,75,0,0,475,8488,10432,458,-5.59,,,,,,,,,,,,
16784,1564322842491,-2,2.18,1.41,0.7,2.2,1.87,0.53,0.73,0.82,-17,-1,-25,0.9,6410,29,70,32,66,502,481.0,610,462,60,132.0,164,1,379,301,75,0,0,478,32033,-1923,460,-5.59,,,,,,,,,,,,
16804,1564322842511,-1,2.18,1.41,0.71,2.19,1.88,0.61,0.67,0.71,-18,-1,-25,0.9,6375,29,70,32,66,502,482.0,610,467,60,131.0,164,1,378,300,75,0,0,482,-899,30272,460,-5.59,,,,,,,,,,,,
16824,1564322842531,2,2.17,1.41,0.71,2.19,1.88,0.64,0.61,0.72,-17,-2,-24,0.88,6430,29,70,32,65,502,481.0,611,462,60,130.0,164,1,384,294,75,0,0,485,32033,-3210,462,-5.59,,,,,,,,,,,,
16844,1564322842551,3,2.17,1.41,0.72,2.19,1.88,0.58,0.67,0.74,-16,-2,-24,0.88,6463,29,70,32,65,502,482.0,613,461,60,131.0,164,1,385,296,75,0,0,483,-899,-9203,459,-5.59,44.680405,10.016747,45.33,176.6,0,0.0,-1,0.0,0.0,0,0.17,0.2807
16864,1564322842571,-1,2.17,1.41,0.72,2.2,1.88,0.57,0.69,0.72,-16,-0,-24,0.9,6496,29,70,32,65,502,482.0,612,460,60,131.0,156,1,386,296,72,0,0,480,-899,32033,460,-5.59,,,,,,,,,,,,
16884,1564322842591,2,2.18,1.4,0.72,2.2,1.88,0.62,0.59,0.72,-17,-1,-23,0.85,6492,29,70,32,65,502,482.0,614,462,60,130.0,156,1,385,296,72,0,0,480,-899,-17956,464,-5.59,,,,,,,,,,,,
16904,1564322842611,3,2.17,1.4,0.72,2.21,1.88,0.57,0.6,0.76,-16,-2,-23,0.83,6449,29,70,32,65,502,485.0,610,462,60,129.0,156,1,385,295,72,0,0,483,-1562,-17956,466,-5.59,,,,,,,,,,,,
16924,1564322842631,-1,2.18,1.4,0.72,2.2,1.88,0.56,0.67,0.79,-16,-1,-23,0.88,6425,29,70,32,64,502,485.0,608,463,60,132.0,156,1,388,288,72,0,0,486,-6441,-9203,466,-5.59,,,,,,,,,,,,
16944,1564322842651,2,2.17,1.41,0.72,2.2,1.88,0.63,0.59,0.71,-16,-2,-22,0.86,6483,30,70,32,65,502,486.0,611,467,60,130.0,156,1,387,296,72,0,0,485,-1562,32033,465,-5.59,44.680389,10.016749,45.46,176.6,0,0.0,-1,0.0,0.0,0,0.17,0.2824
16964,1564322842671,3,2.18,1.41,0.72,2.21,1.88,0.6,0.57,0.76,-15,-2,-22,0.83,6565,30,70,32,64,502,486.0,612,460,60,131.0,158,1,393,293,74,0,0,487,-1562,-23367,465,-5.59,,,,,,,,,,,,
16984,1564322842691,-1,2.19,1.41,0.73,2.2,1.89,0.59,0.62,0.73,-15,-1,-21,0.86,6551,30,70,32,64,502,487.0,615,465,60,131.0,158,1,392,292,74,0,0,484,-1562,8488,467,-5.59,,,,,,,,,,,,
17004,1564322842711,1,2.19,1.4,0.73,2.22,1.89,0.64,0.56,0.69,-14,-1,-20,0.85,6546,30,70,32,64,502,487.0,616,462,60,130.0,158,1,392,293,74,0,0,486,505,10305,470,-5.59,,,,,,,,,,,,
17024,1564322842731,-2,2.21,1.41,0.74,2.22,1.89,0.65,0.53,0.8,-14,-1,-20,0.83,6546,30,70,32,64,502,489.0,613,461,60,131.0,158,1,392,292,74,0,0,485,-6656,32033,473,-5.59,,,,,,,,,,,,
17044,1564322842751,-1,2.23,1.41,0.74,2.23,1.89,0.61,0.52,0.7,-13,0,-20,0.8,6533,30,70,32,64,502,488.0,610,465,60,131.0,158,1,392,291,74,0,0,488,1,3576,474,-5.59,44.680382,10.01675,46.19,176.6,0,0.0,-1,0.0,0.0,0,0.17,0.2841
17064,1564322842771,4,2.23,1.41,0.75,2.24,1.9,0.6,0.47,0.66,-12,-0,-19,0.76,6585,30,70,32,64,502,487.0,612,460,60,130.0,151,1,394,293,72,0,0,485,1,-899,476,-5.59,,,,,,,,,,,,
17084,1564322842791,0,2.24,1.41,0.74,2.24,1.9,0.62,0.47,0.75,-11,-1,-19,0.78,6602,29,70,32,64,502,488.0,613,465,60,132.0,151,1,394,295,72,0,0,486,1,-899,476,-5.59,,,,,,,,,,,,
17104,1564322842811,3,2.24,1.42,0.75,2.24,1.91,0.61,0.37,0.67,-11,-1,-18,0.71,6613,19,70,32,62,502,487.0,617,462,60,130.0,151,1,403,283,72,0,0,485,505,505,477,-5.59,,,,,,,,,,,,
17124,1564322842831,3,2.25,1.42,0.76,2.24,1.91,0.59,0.4,0.72,-10,1,-17,0.71,6476,10,70,32,59,502,486.0,616,460,60,131.0,151,1,396,267,72,0,0,484,-1562,1,480,-5.59,,,,,,,,,,,,
17144,1564322842851,-0,2.25,1.41,0.76,2.25,1.91,0.63,0.43,0.75,-9,2,-17,0.76,6423,6,70,32,54,502,488.0,611,460,60,131.0,151,1,386,258,72,0,0,484,-1562,-10483,481,-5.59,44.68037,10.016752,46.84,176.7,0,0.0,-1,0.0,0.0,0,0.17,0.2857
17164,1564322842871,-1,2.25,1.42,0.76,2.25,1.91,0.76,0.37,0.67,-9,-1,-16,0.84,6328,0,70,32,51,502,486.0,609,463,60,131.0,126,1,375,163,61,0,0,488,-1562,3580,481,-5.59,,,,,,,,,,,,
17184,1564322842895,2,2.25,1.42,0.76,2.26,1.91,0.83,0.28,0.69,-9,-4,-15,0.87,6275,0,70,32,49,502,486.0,607,465,60,131.0,126,1,368,224,61,0,0,481,-1562,16648,479,-5.59,,,,,,,,,,,,
17204,1564322842915,2,2.26,1.42,0.77,2.27,1.92,0.74,0.26,0.65,-8,-4,-14,0.79,6241,0,70,32,46,502,486.0,611,464,60,130.0,126,1,355,219,61,0,0,483,-1562,3580,480,-5.59,,,,,,,,,,,,
17224,1564322842935,4,2.24,1.42,0.76,2.28,1.92,0.62,0.27,0.64,-7,-2,-13,0.68,6131,0,70,32,45,502,486.0,608,461,60,131.0,126,1,348,215,61,0,0,481,1,32033,478,-5.59,,,,,,,,,,,,
17244,1564322842955,4,2.25,1.43,0.77,2.28,1.92,0.49,0.27,0.61,-7,1,-12,0.56,6025,0,70,32,43,502,488.0,606,464,60,129.0,126,1,335,213,61,0,0,483,1,-9203,479,-5.59,44.680355,10.016755,47.41,176.7,0,0.0,-1,0.0,0.0,0,0.17,0.2874
17264,1564322842975,2,2.26,1.42,0.77,2.28,1.93,0.4,0.31,0.59,-6,3,-12,0.51,5959,0,70,31,42,502,489.0,605,460,60,131.0,100,1,325,211,48,0,0,482,-6656,-10483,481,-5.59,,,,,,,,,,,,
17284,1564322842995,0,2.26,1.42,0.77,2.29,1.94,0.33,0.36,0.5,-6,5,-10,0.48,5864,0,70,31,42,503,486.0,603,462,60,131.0,100,1,318,211,48,0,0,478,-1562,32033,479,-5.59,,,,,,,,,,,,
17304,1564322843007,2,2.26,1.43,0.78,2.3,1.94,0.24,0.32,0.48,-5,6,-10,0.4,5911,0,70,31,41,503,484.0,600,464,60,130.0,100,1,315,209,48,0,0,466,-10483,243,476,-5.59,,,,,,,,,,,,
17324,1564322843027,1,2.27,1.43,0.78,2.32,1.95,0.22,0.32,0.43,-4,6,-9,0.39,6032,0,70,31,40,503,481.0,602,463,60,130.0,100,1,316,131,48,0,0,466,32033,243,475,-5.59,,,,,,,,,,,,
17344,1564322843047,3,2.26,1.43,0.79,2.32,1.95,0.17,0.28,0.41,-3,7,-8,0.32,6115,0,70,31,39,504,478.0,605,462,60,130.0,100,1,310,208,48,0,0,467,16648,30272,471,-5.59,44.680347,10.016758,47.37,176.7,0,0.0,-1,0.0,0.0,0,0.17,0.2891
17364,1564322843067,3,2.27,1.44,0.79,2.34,1.96,0.14,0.34,0.35,-3,8,-8,0.37,6188,0,70,31,38,504,477.0,605,461,60,130.0,101,1,307,202,48,0,0,463,2212,6193,470,-5.59,,,,,,,,,,,,
17384,1564322843087,0,2.28,1.44,0.8,2.34,1.96,0.15,0.36,0.3,-2,10,-8,0.38,6264,0,70,31,37,504,474.0,608,464,60,130.0,101,1,304,202,48,0,0,458,-9203,6193,469,-5.59,,,,,,,,,,,,
17404,1564322843106,-1,2.29,1.43,0.8,2.34,1.96,0.26,0.34,0.24,-2,11,-7,0.43,6313,0,70,31,36,503,471.0,610,462,60,132.0,101,1,301,196,48,0,0,461,32033,14488,470,-5.59,,,,,,,,,,,,
17424,1564322843126,-1,2.29,1.44,0.8,2.33,1.97,0.43,0.3,0.22,-2,8,-7,0.52,6330,0,70,31,36,503,469.0,615,465,60,131.0,101,1,301,190,48,0,0,462,10432,17628,465,-5.59,,,,,,,,,,,,
17444,1564322843146,2,2.31,1.43,0.8,2.34,1.97,0.52,0.19,0.26,-2,7,-6,0.55,6289,4,70,31,35,502,468.0,614,466,60,129.0,101,1,298,185,48,0,0,461,-16384,6193,465,-5.59,44.680332,10.016761,47.15,176.7,0,0.0,-1,0.0,0.0,0,0.17,0.2907
17464,1564322843166,4,2.3,1.44,0.8,2.35,1.96,0.48,0.2,0.26,-1,7,-6,0.52,6241,6,70,31,35,502,466.0,613,465,60,131.0,94,1,298,185,44,0,0,461,-3210,6193,463,-5.59,,,,,,,,,,,,
17484,1564322843194,1,2.31,1.44,0.8,2.34,1.98,0.43,0.21,0.31,-0,7,-5,0.48,6184,6,70,31,35,502,464.0,612,462,60,130.0,94,1,298,185,44,0,0,457,16408,-9160,461,-5.59,,,,,,,,,,,,
17504,1564322843214,-0,2.31,1.43,0.8,2.35,1.98,0.46,0.19,0.34,-1,7,-6,0.5,6143,6,70,31,35,502,461.0,609,463,60,131.0,94,1,298,185,44,0,0,454,2211,14488,460,-5.59,,,,,,,,,,,,
17524,1564322843234,-2,2.32,1.44,0.8,2.37,1.98,0.52,0.23,0.37,-1,6,-5,0.57,6115,6,70,31,34,503,462.0,605,465,60,132.0,94,1,295,179,44,0,0,448,2211,14488,458,-5.59,,,,,,,,,,,,
17544,1564322843254,-2,2.31,1.45,0.81,2.36,1.98,0.61,0.22,0.41,-1,4,-6,0.65,6103,6,70,31,34,503,459.0,608,462,60,131.0,94,1,295,179,44,0,0,448,-18108,-3267,458,-5.59,44.680321,10.016765,46.17,176.7,0,0.0,-1,0.0,0.0,0,0.17,0.2924
17564,1564322843274,-2,2.32,1.44,0.8,2.37,1.97,0.74,0.14,0.42,-2,2,-6,0.76,6097,6,70,31,34,503,458.0,606,463,60,131.0,89,1,295,179,41,0,0,445,14488,15649,456,-5.59,,,,,,,,,,,,
17584,1564322843294,-2,2.32,1.44,0.81,2.37,1.97,0.87,0.05,0.44,-2,0,-5,0.87,6083,6,70,31,34,504,456.0,606,464,60,132.0,89,1,295,179,41,0,0,441,14488,-3267,453,-5.59,,,,,,,,,,,,
17604,1564322843314,-1,2.33,1.44,0.81,2.37,1.98,0.95,-0.01,0.48,-1,-2,-6,0.95,6067,6,70,31,34,503,454.0,605,465,60,131.0,89,1,295,179,41,0,0,445,-26615,-8985,452,-5.59,,,,,,,,,,,,
17624,1564322843334,-1,2.34,1.45,0.81,2.37,1.99,1.04,-0.03,0.49,-1,-4,-6,1.04,6046,6,70,31,34,503,453.0,604,463,60,131.0,89,1,295,179,41,0,0,445,-6387,10305,451,-5.59,,,,,,,,,,,,
17644,1564322843354,-1,2.36,1.45,0.81,2.37,1.98,1.1,-0.08,0.49,0,-5,-5,1.11,6030,6,70,31,34,502,452.0,604,464,60,131.0,89,1,295,179,41,0,0,440,15649,10305,452,-5.59,44.680309,10.016768,45.5,176.7,0,0.0,-1,0.0,0.0,0,0.18,0.2941
17664,1564322843374,-0,2.39,1.45,0.8,2.38,1.99,1.16,-0.17,0.53,2,-6,-5,1.17,6017,6,70,31,34,502,453.0,603,465,60,131.0,88,1,295,179,40,0,0,438,2131,16648,452,-5.59,,,,,,,,,,,,
17684,1564322843394,-0,2.39,1.45,0.82,2.38,1.98,1.2,-0.27,0.54,3,-8,-5,1.23,6001,6,70,31,34,501,452.0,603,465,60,130.0,88,1,295,179,40,0,0,438,-28332,-18341,452,-5.59,,,,,,,,,,,,
17704,1564322843414,-1,2.4,1.44,0.8,2.38,1.99,1.25,-0.38,0.54,5,-10,-4,1.31,5978,6,70,31,35,500,451.0,603,465,60,131.0,88,1,296,184,40,0,0,430,21580,-3267,451,-5.59,,,,,,,,,,,,
17724,1564322843434,-1,2.43,1.44,0.82,2.39,1.99,1.31,-0.47,0.51,6,-12,-3,1.39,5944,6,70,31,35,500,451.0,603,462,60,131.0,88,1,295,184,40,0,0,429,5600,-6387,451,-5.59,,,,,,,,,,,,
17744,1564322843454,-1,2.45,1.45,0.81,2.39,1.99,1.38,-0.55,0.46,7,-14,-1,1.48,5905,6,70,31,35,500,450.0,605,465,60,131.0,88,1,293,184,40,0,0,427,243,8488,450,-5.59,44.680302,10.016772,44.68,176.6,0,0.0,-1,0.0,0.0,0,0.18,0.2957
17764,1564322843474,-1,2.48,1.45,0.81,2.4,1.99,1.44,-0.6,0.44,8,-16,1,1.56,5874,6,70,31,35,500,451.0,603,462,60,131.0,86,1,291,178,39,0,0,420,3635,16648,451,-5.59,,,,,,,,,,,,
17784,1564322843492,-1,2.49,1.45,0.81,2.4,2.0,1.49,-0.64,0.41,10,-17,3,1.62,5833,15,70,31,36,501,450.0,601,462,60,131.0,86,1,291,183,39,0,0,414,13180,16648,450,-5.59,,,,,,,,,,,,
17804,1564322843512,4,2.52,1.46,0.82,2.41,2.0,1.49,-0.65,0.43,11,-17,5,1.62,5790,21,70,31,38,501,450.0,600,463,60,132.0,86,1,294,200,39,0,0,401,-3856,-18341,450,-5.59,,,,,,,,,,,,
17824,1564322843532,2,2.53,1.46,0.82,2.41,2.0,1.37,-0.64,0.48,12,-14,7,1.51,5755,22,70,31,41,502,451.0,605,462,60,130.0,86,1,305,209,39,0,0,394,-3414,21432,451,-5.59,,,,,,,,,,,,
17844,1564322843552,1,2.54,1.45,0.82,2.4,2.0,1.23,-0.66,0.6,14,-12,8,1.39,5695,23,70,31,45,502,450.0,603,467,60,128.0,86,1,321,215,39,0,0,384,-21792,2131,450,-5.59,44.68029,10.016775,43.97,176.6,0,0.0,-1,0.0,0.0,0,0.18,0.2974
17864,1564322843572,0,2.53,1.46,0.82,2.4,2.0,1.15,-0.74,0.61,16,-9,11,1.37,5630,23,70,31,47,503,450.0,600,468,60,130.0,101,1,324,218,46,0,0,377,18584,16648,450,-5.59,,,,,,,,,,,,
17884,1564322843592,-1,2.52,1.46,0.81,2.41,2.0,1.22,-0.74,0.52,17,-10,14,1.43,5598,23,70,31,50,503,451.0,595,460,60,131.0,101,1,334,231,46,0,0,376,-3414,8488,451,-5.59,,,,,,,,,,,,
17904,1564322843612,1,2.49,1.46,0.81,2.41,2.0,1.23,-0.77,0.46,18,-10,17,1.45,5570,23,70,31,52,503,450.0,598,462,60,130.0,101,1,340,240,46,0,0,374,18584,16648,450,-5.59,,,,,,,,,,,,
17924,1564322843632,-1,2.47,1.45,0.82,2.42,2.0,1.11,-0.79,0.52,18,-8,17,1.36,5534,23,70,31,54,503,447.0,596,464,60,128.0,101,1,345,248,46,0,0,370,18584,26704,447,-5.59,,,,,,,,,,,,
17944,1564322843652,-1,2.46,1.46,0.82,2.41,2.01,1.17,-0.78,0.39,18,-9,19,1.41,5580,23,70,31,56,503,448.0,590,466,60,131.0,101,1,345,251,46,0,0,386,-26615,20625,448,-5.59,44.680279,10.016779,43.15,176.6,0,0.0,-1,0.0,0.0,0,0.18,0.2991
17964,1564322843672,2,2.46,1.46,0.82,2.41,2.0,1.26,-0.79,0.3,18,-9,22,1.48,5650,23,70,31,57,502,442.0,593,463,60,131.0,119,1,349,252,53,0,0,406,-26615,243,443,-5.59,,,,,,,,,,,,
17984,1564322843692,4,2.46,1.46,0.81,2.41,2.0,1.18,-0.71,0.36,18,-8,22,1.38,5824,23,70,31,58,502,438.0,601,463,60,131.0,119,1,365,253,53,0,0,411,2524,-7939,438,-5.59,,,,,,,,,,,,
18004,1564322843710,5,2.46,1.46,0.82,2.42,2.0,1.07,-0.67,0.46,19,-5,21,1.26,5959,24,70,31,58,503,438.0,606,463,60,130.0,119,1,378,253,53,0,0,410,18584,-768,438,-5.59,,,,,,,,,,,,
