"Interval"|"ms"|0|0|1,"Utc"|"ms"|0|0|1,"FB_p"|"bar"|0|300|50,"Volant"|"F"|0.0|300.0|50,"xFR"|"mm"|0.0|5.0|50,"xRR"|"mm"|0.0|5.0|50,"xFL"|"mm"|0.0|5.0|50,"xRL"|"mm"|0.0|5.0|50,"AccelX"|"G"|-3.0|3.0|50,"AccelY"|"G"|-3.0|3.0|50,"AccelZ"|"G"|-3.0|3.0|50,"Yaw"|"Deg/Sec"|-120|120|50,"Pitch"|"Deg/Sec"|-120|120|50,"Roll"|"Deg/Sec"|-120|120|50,"Gsum"|"G"|0.0|3.0|50,"RPM"|""|0|14000|50,"TPS"|"%"|0|100|50,"WaterTemp"|"?C"|0|300|50,"AirTemp"|"?C"|-1000|1000|50,"MAP"|"KPa"|0|255|50,"Lambda"|""|0|1024|50,"WheelSpeed"|"MPH"|0.0|150.0|50,"OilPress"|"PSI"|0|150|50,"FuelPress"|"PSI"|0|150|50,"OilTemp"|"F"|0|300|50,"Battery"|"Volts"|0.0|20.0|50,"FuelCon"|"L/h"|-1000|1000|50,"Gear"|""|0|10|50,"Advance"|"Deg"|-360|360|50,"Injection"|"ms"|-1000|1000|50,"FuelCon"|"L/100km"|-1000|1000|50,"LC_But_Pres"|""|-1000|1000|50,"LC_Active"|""|-1000|1000|50,"RD_Speed"|""|-1000|1000|50,"RUD_Speed"|""|-1000|1000|50,"LD_Speed"|""|-1000|1000|50,"LUD_Speed"|""|-1000|1000|50,"Ana1"|"bar"|-1000.0|1000.0|50,"Latitude"|"Degrees"|-180.0|180.0|10,"Longitude"|"Degrees"|-180.0|180.0|10,"Speed"|"kph"|0.0|150.0|10,"Altitude"|"m"|0.0|4000.0|10,"LapCount"|""|0|0|10,"LapTime"|"Min"|0.0|0.0|10,"Sector"|""|0|0|10,"SectorTime"|"Min"|0.0|0.0|10,"ElapsedTime"|"Min"|0.0|0.0|10,"CurrentLap"|""|0|0|10,"Distance"|"km"|0.0|0.0|10,"SessionTime"|"Min"|0.0|0.0|10
16164,1564322901594,20,2.31,1.45,0.78,2.36,2.03,0.65,-0.1,0.54,0,-4,-0,0.66,9873,0,78,31,35,916,940.0,660,463,60,129.0,89,1,308,210,85,0,0,920,-774,-1284,940,-5.59,,,,,,,,,,,,
16184,1564322901614,16,2.29,1.45,0.79,2.36,2.03,0.65,-0.09,0.54,1,-4,-0,0.66,9725,0,78,31,34,906,945.0,655,469,60,128.0,89,1,305,206,85,0,0,905,-772,-1044,945,181.28,,,,,,,,,,,,
16204,1564322901634,20,2.29,1.45,0.78,2.37,2.03,0.76,-0.17,0.66,0,-5,0,0.78,9755,0,78,31,32,887,937.0,653,464,60,128.0,89,1,300,203,85,0,0,850,-1284,-14712,937,-5.59,,,,,,,,,,,,
16224,1564322901654,16,2.3,1.46,0.79,2.37,2.03,0.81,-0.19,0.56,-0,-5,1,0.83,9689,0,78,31,32,864,938.0,643,470,60,130.0,89,1,300,200,85,0,0,788,-1284,-775,937,648.46,,,,,,,,,,,,
16244,1564322901674,15,2.29,1.45,0.79,2.36,2.04,0.87,-0.26,0.53,0,-3,-0,0.91,9527,0,78,31,30,850,935.0,652,464,60,129.0,76,1,291,195,72,0,0,790,-1284,-908,937,648.46,44.680996,10.016863,94.34,177.2,0,0.0,-1,0.0,0.0,0,0.16,0.2707
16264,1564322901694,14,2.3,1.45,0.79,2.37,2.04,0.96,-0.21,0.43,1,-5,-1,0.99,9417,0,78,31,29,838,931.0,648,464,60,129.0,76,1,287,192,72,0,0,833,-772,-4873,929,-5.59,,,,,,,,,,,,
16284,1564322901714,11,2.3,1.46,0.79,2.37,2.04,1.0,-0.24,0.41,1,-3,-1,1.03,9469,0,78,31,29,838,923.0,655,464,60,129.0,76,1,287,192,72,0,0,873,-1556,-2068,923,-5.59,,,,,,,,,,,,
16304,1564322901734,10,2.3,1.45,0.79,2.36,2.04,1.01,-0.28,0.39,1,-4,0,1.05,9508,0,78,31,28,844,921.0,655,461,60,130.0,76,1,282,192,72,0,0,891,-1812,-3348,921,-5.59,,,,,,,,,,,,
16324,1564322901754,11,2.31,1.45,0.79,2.37,2.03,1.07,-0.18,0.32,1,-4,-0,1.08,9571,0,78,31,27,854,913.0,655,460,60,130.0,76,1,278,191,72,0,0,896,-2324,-30778,913,-5.59,,,,,,,,,,,,
16344,1564322901774,8,2.31,1.45,0.79,2.37,2.03,1.05,-0.28,0.26,0,-2,-1,1.09,9580,0,78,31,27,872,912.0,655,462,60,129.0,74,1,278,191,68,0,0,879,-4876,4231,909,414.87,44.680973,10.016858,94.29,177.2,0,0.0,-1,0.0,0.0,0,0.16,0.2724
16364,1564322901795,9,2.33,1.45,0.79,2.37,2.03,1.05,-0.25,0.12,1,-2,1,1.08,9610,0,78,31,26,873,906.0,654,465,60,130.0,74,1,274,189,68,0,0,882,-3604,-5120,906,414.87,,,,,,,,,,,,
16384,1564322901815,7,2.32,1.46,0.79,2.37,2.03,1.03,-0.19,0.08,1,-2,2,1.05,9694,0,78,31,26,865,906.0,655,465,60,128.0,74,1,274,189,68,0,0,871,-5114,-22795,906,648.46,,,,,,,,,,,,
16404,1564322901835,6,2.32,1.46,0.79,2.36,2.04,1.08,-0.21,0.09,2,-2,3,1.1,9735,0,78,31,25,848,897.0,655,460,60,129.0,74,1,270,190,68,0,0,865,4231,-10508,897,181.28,,,,,,,,,,,,
16424,1564322901855,6,2.33,1.45,0.78,2.36,2.03,1.06,-0.15,0.1,2,-1,3,1.07,9735,0,78,31,25,823,895.0,657,466,60,129.0,74,1,270,188,68,0,0,847,966,-1580,895,181.28,,,,,,,,,,,,
16444,1564322901875,8,2.32,1.45,0.79,2.36,2.04,1.09,-0.26,0.13,3,0,3,1.12,9694,0,78,31,25,796,894.0,656,462,60,128.0,76,1,270,188,69,0,0,843,1020,-775,894,-5.59,44.680946,10.016852,91.56,177.2,0,0.0,-1,0.0,0.0,0,0.17,0.2741
16464,1564322901897,6,2.31,1.46,0.79,2.36,2.03,1.09,-0.21,0.1,3,0,4,1.11,9645,0,78,31,25,767,889.0,655,468,60,129.0,76,1,270,188,69,0,0,837,1020,-2826,888,-5.59,,,,,,,,,,,,
16484,1564322901917,7,2.32,1.45,0.79,2.36,2.04,1.06,-0.28,0.14,3,1,3,1.1,9625,0,78,31,25,749,884.0,656,461,60,128.0,76,1,270,188,69,0,0,847,-2311,-2311,886,-5.59,,,,,,,,,,,,
16504,1564322901937,10,2.32,1.46,0.78,2.37,2.03,1.09,-0.23,0.06,3,-0,3,1.11,9635,0,78,31,25,746,882.0,654,461,60,128.0,76,1,270,188,69,0,0,842,-10508,-2570,880,-5.59,,,,,,,,,,,,
16524,1564322901957,10,2.31,1.45,0.79,2.36,2.03,1.08,-0.27,0.15,3,-1,4,1.11,9610,0,78,31,25,745,879.0,662,466,60,128.0,76,1,270,188,69,0,0,830,-2574,-3450,879,181.28,,,,,,,,,,,,
16544,1564322901977,12,2.32,1.46,0.79,2.37,2.03,1.1,-0.3,0.12,3,-1,3,1.14,9576,0,78,31,24,747,868.0,658,463,60,129.0,77,1,270,182,68,0,0,826,-31068,-3038,868,181.28,44.680923,10.016847,89.56,177.2,0,0.0,-1,0.0,0.0,0,0.17,0.2757
16564,1564322901997,11,2.32,1.46,0.79,2.36,2.04,1.09,-0.26,0.01,3,-2,3,1.12,9493,0,78,31,24,749,871.0,655,467,60,129.0,77,1,270,181,68,0,0,811,-1580,8838,867,648.46,,,,,,,,,,,,
16584,1564322902009,6,2.32,1.46,0.79,2.37,2.03,1.04,-0.23,-0.0,3,-0,4,1.06,9403,0,78,31,24,754,863.0,651,468,60,129.0,77,1,270,181,68,0,0,826,-11019,-10508,863,648.46,,,,,,,,,,,,
16604,1564322902029,10,2.32,1.46,0.78,2.37,2.03,1.06,-0.3,0.0,3,0,3,1.1,9360,0,78,31,24,759,858.0,649,463,60,129.0,77,1,270,181,68,0,0,822,-9995,8838,858,181.28,,,,,,,,,,,,
16624,1564322902049,11,2.32,1.45,0.78,2.36,2.04,1.12,-0.24,-0.04,3,-1,4,1.14,9370,0,78,31,23,767,855.0,648,466,60,130.0,77,1,270,176,68,0,0,823,13049,-3344,855,-5.59,,,,,,,,,,,,
16644,1564322902069,13,2.31,1.46,0.79,2.36,2.04,1.18,-0.17,-0.09,3,-1,4,1.19,9379,0,78,31,23,774,848.0,646,465,60,129.0,72,1,270,176,62,0,0,818,-31066,-2826,848,414.87,44.680904,10.016841,87.34,177.2,0,0.0,-1,0.0,0.0,0,0.17,0.2774
16664,1564322902089,11,2.31,1.46,0.79,2.37,2.03,1.14,-0.19,0.02,3,-0,5,1.16,9337,0,78,31,23,777,845.0,648,463,60,128.0,72,1,270,176,62,0,0,816,-2574,-2830,846,648.46,,,,,,,,,,,,
16684,1564322902109,12,2.31,1.46,0.78,2.38,2.03,1.19,-0.18,0.08,3,1,5,1.2,9286,0,78,31,23,782,839.0,647,466,60,129.0,72,1,270,176,62,0,0,817,-2830,-2314,838,-5.59,,,,,,,,,,,,
16704,1564322902129,11,2.31,1.46,0.78,2.37,2.03,1.27,-0.13,0.02,2,-1,5,1.28,9200,0,78,31,23,793,839.0,651,463,60,128.0,72,1,270,176,62,0,0,811,-2314,-25858,837,-5.59,,,,,,,,,,,,
16724,1564322902149,11,2.32,1.45,0.78,2.36,2.04,1.32,-0.11,-0.04,2,-2,4,1.32,9119,0,78,31,22,803,833.0,649,463,60,128.0,72,1,270,170,62,0,0,811,-22796,1524,833,-5.59,,,,,,,,,,,,
16744,1564322902169,13,2.3,1.45,0.78,2.37,2.03,1.33,-0.08,-0.06,2,-4,4,1.33,9088,0,78,31,22,810,830.0,650,466,60,129.0,69,1,270,170,58,0,0,801,1037,-2918,825,-5.59,44.680885,10.016835,85.55,177.2,0,0.0,-1,0.0,0.0,0,0.17,0.2791
16764,1564322902197,12,2.31,1.45,0.79,2.37,2.03,1.26,-0.02,-0.08,2,-3,3,1.26,9079,0,78,31,22,819,822.0,646,460,60,129.0,69,1,270,170,58,0,0,801,-13580,-30694,824,-5.59,,,,,,,,,,,,
16784,1564322902217,13,2.32,1.46,0.77,2.36,2.03,1.2,-0.01,-0.05,3,-4,3,1.2,9062,0,78,31,22,836,823.0,646,465,60,129.0,69,1,270,170,58,0,0,795,1524,-12152,823,-5.59,,,,,,,,,,,,
16804,1564322902237,14,2.31,1.46,0.78,2.37,2.03,1.06,0.05,-0.01,3,-3,4,1.06,9031,0,78,31,22,853,815.0,645,464,60,130.0,69,1,270,170,58,0,0,793,31988,-7436,815,-5.59,,,,,,,,,,,,
16824,1564322902257,13,2.32,1.46,0.78,2.37,2.03,0.97,0.03,0.09,4,-4,3,0.97,8962,0,78,31,22,863,808.0,645,463,60,129.0,69,1,270,170,58,0,0,779,-23490,-12152,807,-5.59,,,,,,,,,,,,
16844,1564322902277,13,2.32,1.45,0.79,2.36,2.04,0.87,0.07,0.15,4,-4,3,0.87,8852,0,78,31,22,873,807.0,641,462,60,129.0,70,1,270,91,57,0,0,781,204,-1566,806,-5.59,44.680866,10.016829,83.48,177.2,0,0.0,-1,0.0,0.0,0,0.18,0.2807
16864,1564322902299,11,2.31,1.45,0.79,2.37,2.04,0.93,0.07,0.17,4,-5,3,0.93,8757,0,78,31,22,896,807.0,642,465,60,129.0,70,1,270,170,57,0,0,768,6905,-2540,807,-5.59,,,,,,,,,,,,
16884,1564322902319,13,2.32,1.46,0.78,2.37,2.03,1.04,0.08,0.06,4,-4,3,1.04,8692,0,78,31,23,919,798.0,642,463,60,128.0,70,1,270,176,57,0,0,754,-2540,-10218,798,-5.59,,,,,,,,,,,,
16904,1564322902339,11,2.33,1.46,0.78,2.36,2.03,1.08,0.05,-0.03,4,-3,5,1.08,8648,0,78,31,23,932,793.0,641,462,60,128.0,70,1,270,176,57,0,0,757,-10216,-31068,792,-5.59,,,,,,,,,,,,
16924,1564322902359,15,2.31,1.45,0.78,2.37,2.03,1.01,-0.02,-0.05,4,-3,4,1.01,8648,0,78,31,23,945,792.0,642,462,60,130.0,70,1,270,97,57,0,0,760,-2826,-10212,792,-5.59,,,,,,,,,,,,
16944,1564322902379,14,2.32,1.46,0.78,2.37,2.03,1.01,-0.02,0.1,4,-5,4,1.01,8628,0,78,31,24,971,784.0,642,465,60,129.0,74,1,270,181,59,0,0,740,-2574,-10212,786,-5.59,44.680843,10.016823,81.27,177.3,0,0.0,-1,0.0,0.0,0,0.18,0.2824
16964,1564322902397,14,2.32,1.46,0.79,2.36,2.04,1.11,-0.06,0.11,4,-4,4,1.11,8557,0,78,31,24,997,780.0,643,466,60,129.0,74,1,270,181,59,0,0,710,-23308,6900,779,-5.59,,,,,,,,,,,,
16984,1564322902417,17,2.32,1.46,0.79,2.36,2.04,1.05,-0.12,0.01,4,-3,4,1.06,8381,0,78,32,24,1014,774.0,641,462,60,128.0,74,1,270,175,59,0,0,711,-2570,-2826,775,-5.59,,,,,,,,,,,,
17004,1564322902437,13,2.32,1.45,0.78,2.37,2.03,1.14,-0.12,0.08,4,-4,5,1.15,8166,0,78,32,24,1028,772.0,635,461,60,130.0,74,1,270,168,59,0,0,749,6900,-23308,772,-5.59,,,,,,,,,,,,
17024,1564322902457,14,2.31,1.46,0.78,2.37,2.04,1.08,-0.21,-0.09,4,-5,4,1.1,8016,0,78,32,24,1049,766.0,632,460,60,128.0,74,1,270,156,59,0,0,738,-10218,5876,766,181.28,,,,,,,,,,,,
17044,1564322902477,18,2.32,1.46,0.79,2.36,2.04,0.98,-0.28,-0.12,4,-8,8,1.02,7941,0,78,32,24,1071,756.0,630,461,60,128.0,60,1,269,159,46,0,0,697,-31068,-23308,756,-5.59,44.680824,10.016817,79.06,177.3,0,0.0,-1,0.0,0.0,0,0.18,0.2841
17064,1564322902495,14,2.31,1.45,0.79,2.36,2.04,1.01,-0.26,-0.07,4,-6,7,1.04,8012,0,78,32,25,1084,753.0,626,465,60,131.0,60,1,270,159,46,0,0,675,-30694,-23490,753,-5.59,,,,,,,,,,,,
17084,1564322902515,16,2.3,1.45,0.78,2.36,2.03,0.96,-0.32,-0.07,4,-5,6,1.01,8130,0,78,32,25,1092,749.0,633,466,60,129.0,60,1,270,163,46,0,0,658,-2826,-2918,749,414.87,,,,,,,,,,,,
17104,1564322902535,16,2.31,1.45,0.78,2.36,2.04,1.06,-0.34,0.03,3,-5,7,1.12,8148,0,78,32,25,1100,744.0,634,466,60,130.0,60,1,270,167,46,0,0,608,-2356,3543,742,-5.59,,,,,,,,,,,,
17124,1564322902555,16,2.31,1.46,0.78,2.37,2.04,1.04,-0.33,0.05,3,-7,6,1.09,8162,0,78,32,25,1107,737.0,633,461,60,131.0,60,1,270,164,46,0,0,557,-22796,-26562,737,414.87,,,,,,,,,,,,
17144,1564322902575,17,2.3,1.45,0.78,2.36,2.04,1.08,-0.29,-0.0,3,-5,6,1.12,8184,0,78,32,25,1109,733.0,637,466,60,130.0,71,1,270,170,53,0,0,525,-22796,-10346,731,-5.59,44.680805,10.01681,76.94,177.3,0,0.0,-1,0.0,0.0,0,0.18,0.2857
17164,1564322902595,17,2.28,1.46,0.78,2.36,2.04,1.07,-0.24,0.06,3,-5,6,1.1,8187,0,78,32,24,1108,726.0,637,463,60,131.0,71,1,270,166,53,0,0,515,-4091,-10344,726,414.87,,,,,,,,,,,,
17184,1564322902615,17,2.28,1.45,0.78,2.37,2.03,1.11,-0.22,-0.0,3,-3,5,1.13,8177,0,78,32,25,1106,718.0,635,463,60,129.0,71,1,270,169,53,0,0,528,-31068,12333,718,-5.59,,,,,,,,,,,,
17204,1564322902635,17,2.28,1.45,0.78,2.36,2.03,1.19,-0.17,0.08,2,-4,4,1.2,8187,0,78,32,24,1104,715.0,637,463,60,131.0,71,1,270,166,53,0,0,536,-2560,-2826,709,181.28,,,,,,,,,,,,
17224,1564322902655,20,2.28,1.45,0.78,2.36,2.04,1.15,-0.18,0.04,1,-3,2,1.16,8238,0,78,32,24,1102,711.0,637,466,60,130.0,71,1,270,168,53,0,0,536,-13072,3543,701,648.46,,,,,,,,,,,,
17244,1564322902675,18,2.29,1.45,0.77,2.36,2.03,1.24,-0.12,0.03,0,-4,1,1.24,8223,0,78,32,24,1100,705.0,636,464,60,131.0,74,1,270,167,52,0,0,560,19188,11776,696,414.87,44.680786,10.016804,74.67,177.3,0,0.0,-1,0.0,0.0,0,0.18,0.2874
17264,1564322902695,20,2.31,1.45,0.78,2.37,2.03,1.19,-0.1,-0.03,0,-3,2,1.2,8155,0,78,32,24,1101,700.0,637,466,60,130.0,74,1,270,164,52,0,0,586,6208,11566,690,882.05,,,,,,,,,,,,
17284,1564322902715,15,2.32,1.45,0.78,2.35,2.04,1.28,-0.06,0.03,-1,-3,-0,1.28,8166,0,78,32,24,1103,693.0,636,464,60,130.0,74,1,270,164,52,0,0,589,11576,-10251,686,-5.59,,,,,,,,,,,,
17304,1564322902735,19,2.33,1.45,0.78,2.35,2.04,1.22,-0.09,-0.08,-1,-3,0,1.22,8202,0,78,32,24,1106,688.0,635,464,60,130.0,74,1,270,167,52,0,0,596,-10399,26688,677,648.46,,,,,,,,,,,,
17324,1564322902755,14,2.34,1.46,0.77,2.36,2.03,1.29,-0.09,0.02,-1,-2,-0,1.3,8267,0,78,32,24,1109,677.0,637,465,60,131.0,74,1,270,170,52,0,0,606,-26892,-3820,671,414.87,,,,,,,,,,,,
17344,1564322902775,16,2.33,1.45,0.78,2.36,2.03,1.23,-0.09,-0.08,0,-2,-1,1.23,8259,0,78,32,24,1113,672.0,635,462,60,130.0,77,1,270,169,52,0,0,611,-388,208,670,414.87,44.680767,10.016798,71.83,177.3,0,0.0,-1,0.0,0.0,0,0.19,0.2891
17364,1564322902795,13,2.33,1.45,0.78,2.35,2.03,1.3,-0.06,-0.04,0,-2,1,1.3,8230,0,78,32,24,1119,666.0,637,466,60,129.0,77,1,270,167,52,0,0,605,-27404,-16883,665,414.87,,,,,,,,,,,,
17384,1564322902815,16,2.32,1.46,0.78,2.35,2.04,1.18,-0.08,-0.09,1,-2,-0,1.19,8259,0,78,32,24,1123,661.0,636,463,60,130.0,77,1,270,169,52,0,0,598,-388,-1346,659,882.05,,,,,,,,,,,,
17404,1564322902835,13,2.31,1.45,0.78,2.35,2.03,1.27,-0.05,-0.04,1,-1,1,1.27,8292,0,78,32,24,1125,655.0,636,464,60,130.0,77,1,270,171,52,0,0,597,-3488,5344,655,414.87,,,,,,,,,,,,
17424,1564322902855,17,2.31,1.45,0.78,2.35,2.03,1.18,-0.05,-0.09,2,-0,2,1.18,8267,0,78,32,24,1127,652.0,642,465,60,130.0,77,1,270,168,52,0,0,597,244,19621,652,882.05,,,,,,,,,,,,
17444,1564322902875,14,2.28,1.46,0.78,2.34,2.04,1.26,-0.01,-0.06,1,-0,2,1.26,8187,0,78,32,24,1129,646.0,636,464,60,130.0,80,1,270,166,52,0,0,616,6208,28675,646,414.87,44.680752,10.016791,68.63,177.3,0,0.0,-1,0.0,0.0,0,0.19,0.2907
17464,1564322902898,16,2.28,1.45,0.78,2.35,2.04,1.22,-0.02,-0.12,2,-1,3,1.22,8202,0,78,32,24,1130,636.0,638,465,60,130.0,80,1,270,167,52,0,0,601,-2836,-30139,636,648.46,,,,,,,,,,,,
17484,1564322902918,15,2.27,1.45,0.78,2.35,2.03,1.29,-0.0,-0.01,1,-1,3,1.29,8256,0,78,32,23,1130,631.0,641,466,60,130.0,80,1,270,169,52,0,0,607,966,1010,627,181.28,,,,,,,,,,,,
17504,1564322902938,17,2.27,1.46,0.78,2.35,2.03,1.2,0.0,-0.05,1,-2,2,1.2,8238,0,78,32,24,1129,623.0,636,465,60,130.0,80,1,270,168,52,0,0,608,19320,243,622,648.46,,,,,,,,,,,,
17524,1564322902958,13,2.28,1.45,0.78,2.35,2.03,1.25,0.03,-0.05,1,-2,3,1.25,8209,0,78,32,24,1128,617.0,638,466,60,129.0,80,1,270,167,52,0,0,592,26688,-32504,617,882.05,,,,,,,,,,,,
17544,1564322902978,14,2.27,1.46,0.78,2.35,2.03,1.15,0.05,-0.07,1,-2,1,1.15,8138,0,78,33,24,1126,615.0,638,466,60,130.0,83,1,270,163,51,0,0,592,26688,-25872,614,414.87,44.680737,10.016786,65.77,177.3,0,0.0,-1,0.0,0.0,0,0.19,0.2924
17564,1564322902992,15,2.28,1.45,0.79,2.35,2.04,1.11,0.01,-0.1,1,0,1,1.11,7978,0,78,33,24,1125,612.0,631,465,60,130.0,83,1,269,156,51,0,0,590,1010,6273,610,-5.59,,,,,,,,,,,,
17584,1564322903012,13,2.26,1.45,0.78,2.36,2.03,1.2,0.08,-0.05,1,-1,1,1.2,7868,0,78,33,23,1124,607.0,632,465,60,130.0,83,1,268,156,51,0,0,590,19621,-32504,603,-5.59,,,,,,,,,,,,
17604,1564322903032,14,2.24,1.45,0.78,2.36,2.03,1.2,0.1,-0.06,0,-1,0,1.2,7891,0,78,33,23,1124,599.0,632,461,60,131.0,83,1,268,154,51,0,0,578,30227,243,599,414.87,,,,,,,,,,,,
17624,1564322903052,14,2.21,1.46,0.79,2.36,2.04,1.12,0.09,-0.09,-1,-1,1,1.12,7851,0,78,33,23,1124,598.0,631,466,60,130.0,83,1,268,154,51,0,0,570,23619,-30159,594,648.46,,,,,,,,,,,,
17644,1564322903072,14,2.2,1.45,0.79,2.35,2.03,1.09,0.13,-0.1,-3,1,1,1.1,7776,0,78,33,23,1125,596.0,631,466,60,130.0,76,1,267,154,45,0,0,586,17344,774,585,181.28,44.680721,10.01678,62.67,177.3,0,0.0,-1,0.0,0.0,0,0.19,0.2941
17664,1564322903100,14,2.19,1.45,0.78,2.35,2.03,1.12,0.2,-0.07,-4,1,-1,1.14,7763,0,78,33,23,1125,593.0,630,465,60,130.0,76,1,267,154,45,0,0,581,3472,2216,575,648.46,,,,,,,,,,,,
17684,1564322903120,14,2.15,1.44,0.78,2.34,2.02,1.19,0.25,-0.04,-6,0,-2,1.22,7703,0,78,33,23,1092,592.0,630,462,60,131.0,76,1,267,154,45,0,0,577,2048,6274,566,181.28,,,,,,,,,,,,
17704,1564322903140,12,2.15,1.44,0.77,2.34,2.02,1.27,0.28,-0.03,-9,-2,-3,1.3,7662,0,78,33,23,1060,584.0,626,466,60,130.0,76,1,266,154,45,0,0,573,-4035,1779,560,414.87,,,,,,,,,,,,
17724,1564322903160,10,2.12,1.41,0.77,2.33,2.01,1.29,0.33,0.04,-11,-2,-4,1.33,7554,0,78,33,23,1027,586.0,627,458,60,131.0,76,1,265,154,45,0,0,575,-4035,14504,556,181.28,,,,,,,,,,,,
17744,1564322903180,9,2.11,1.44,0.78,2.33,2.01,1.27,0.41,0.09,-13,-2,-6,1.34,7476,0,78,33,23,994,585.0,625,463,60,130.0,79,1,264,154,44,0,0,576,-25872,16383,547,-5.59,44.680706,10.016774,60.11,177.2,0,0.0,-1,0.0,0.0,0,0.19,0.2957
17764,1564322903200,9,2.09,1.44,0.78,2.33,2.01,1.28,0.44,0.17,-15,-4,-9,1.36,7321,0,78,33,24,950,582.0,623,461,60,130.0,79,1,263,156,44,0,0,577,15649,-6441,542,-5.59,,,,,,,,,,,,
17784,1564322903220,6,2.07,1.44,0.78,2.33,2.02,1.33,0.46,0.2,-17,-4,-11,1.41,7189,0,78,33,24,905,583.0,622,463,60,131.0,79,1,261,156,44,0,0,576,15649,6193,535,-5.59,,,,,,,,,,,,
17804,1564322903240,1,2.06,1.44,0.77,2.31,2.02,1.29,0.56,0.22,-19,-3,-13,1.41,7027,0,78,33,24,886,583.0,621,463,60,129.0,79,1,260,77,44,0,0,580,243,5600,537,-5.59,,,,,,,,,,,,
17824,1564322903260,2,2.05,1.43,0.78,2.32,2.01,1.23,0.7,0.27,-20,-2,-16,1.41,6906,0,78,33,25,875,582.0,619,463,60,130.0,79,1,261,80,44,0,0,574,8488,-3414,540,-5.59,,,,,,,,,,,,
17844,1564322903280,0,2.05,1.44,0.78,2.32,2.02,1.21,0.67,0.3,-22,-3,-19,1.38,6756,0,78,33,25,874,584.0,616,465,60,130.0,75,1,263,159,41,0,0,579,15649,2524,537,-5.59,44.680691,10.016769,57.7,177.3,0,0.0,-1,0.0,0.0,0,0.2,0.2974
17864,1564322903300,1,2.07,1.44,0.78,2.32,2.02,1.18,0.8,0.32,-22,-3,-22,1.42,6623,0,78,33,26,875,581.0,616,463,60,131.0,75,1,267,160,41,0,0,577,10432,-4059,537,-5.59,,,,,,,,,,,,
17884,1564322903320,-2,2.08,1.43,0.78,2.31,2.02,1.13,0.89,0.32,-23,-2,-25,1.43,6441,0,78,33,27,883,578.0,610,465,60,129.0,75,1,272,161,41,0,0,577,-16384,-3414,536,-5.59,,,,,,,,,,,,
17904,1564322903340,-1,2.08,1.44,0.78,2.31,2.02,1.15,0.82,0.27,-24,-2,-26,1.41,6325,0,78,33,27,896,577.0,605,462,60,129.0,75,1,273,161,41,0,0,570,30208,-7939,531,-5.59,,,,,,,,,,,,
17924,1564322903360,1,2.09,1.44,0.78,2.31,2.02,1.16,0.84,0.29,-24,-4,-27,1.43,6368,0,78,33,28,910,572.0,606,460,60,130.0,75,1,276,163,41,0,0,553,-8188,3635,530,-5.59,,,,,,,,,,,,
17944,1564322903380,2,2.09,1.44,0.79,2.31,2.01,1.16,0.96,0.27,-24,-4,-28,1.5,6496,0,78,33,28,925,570.0,608,460,60,131.0,73,1,276,163,39,0,0,553,-3190,-21944,529,-5.59,44.680679,10.016766,55.05,177.3,0,0.0,-1,0.0,0.0,0,0.2,0.2991
17964,1564322903400,-2,2.1,1.44,0.78,2.32,2.02,1.18,0.92,0.24,-26,-6,-29,1.49,6574,0,78,33,28,931,567.0,608,462,60,130.0,73,1,275,163,39,0,0,555,1780,1,529,-5.59,,,,,,,,,,,,
17984,1564322903420,2,2.11,1.43,0.79,2.32,2.02,1.17,0.96,0.24,-26,-6,-30,1.51,6572,0,78,33,28,934,568.0,616,460,60,131.0,73,1,275,163,39,0,0,557,-2934,257,524,-5.59,,,,,,,,,,,,
18004,1564322903440,-0,2.1,1.44,0.79,2.33,2.02,1.17,1.06,0.28,-27,-6,-31,1.58,6494,0,78,33,29,915,569.0,611,465,60,130.0,73,1,279,164,39,0,0,561,-29984,0,524,-5.59,,,,,,,,,,,,
18024,1564322903460,-0,2.12,1.44,0.79,2.32,2.01,1.15,1.03,0.25,-28,-7,-32,1.54,6338,0,78,33,29,888,568.0,607,461,60,130.0,73,1,280,164,39,0,0,561,-8186,-6656,522,-5.59,,,,,,,,,,,,
18044,1564322903480,-0,2.11,1.44,0.8,2.31,2.03,1.18,0.94,0.28,-28,-7,-33,1.51,6225,0,78,33,30,860,567.0,605,459,60,129.0,74,1,283,166,39,0,0,561,1780,-6405,524,-5.59,44.680664,10.016764,54.23,177.3,0,0.0,-1,0.0,0.0,0,0.2,0.3007
18064,1564322903496,-1,2.12,1.44,0.79,2.32,2.03,1.11,0.93,0.34,-28,-6,-35,1.45,6121,0,78,33,30,832,565.0,600,461,60,131.0,74,1,284,166,39,0,0,563,-30159,-19126,523,-5.59,,,,,,,,,,,,
18084,1564322903516,-0,2.12,1.43,0.8,2.32,2.03,1.05,0.94,0.38,-27,-6,-36,1.41,6077,0,78,33,30,815,561.0,598,460,60,130.0,74,1,284,166,39,0,0,550,-28648,11560,518,-5.59,,,,,,,,,,,,
18104,1564322903536,2,2.11,1.44,0.8,2.32,2.03,0.99,1.04,0.4,-27,-6,-36,1.44,6127,0,78,33,31,804,558.0,601,463,60,131.0,74,1,287,167,39,0,0,540,-22263,11560,517,-5.59,,,,,,,,,,,,
18124,1564322903556,2,2.12,1.43,0.79,2.32,2.02,0.97,1.14,0.35,-27,-6,-37,1.5,6281,0,78,33,31,807,553.0,603,461,60,131.0,74,1,286,167,39,0,0,536,-9072,2524,513,-5.59,,,,,,,,,,,,
18144,1564322903576,-1,2.11,1.44,0.8,2.32,2.02,0.97,1.15,0.38,-28,-6,-37,1.51,6438,0,78,33,31,825,550.0,608,465,60,129.0,78,1,286,167,40,0,0,535,-32248,-3866,512,-5.59,44.680649,10.016763,53.34,177.3,0,0.0,-1,0.0,0.0,0,0.2,0.3024
18164,1564322903592,-1,2.12,1.43,0.8,2.33,2.02,0.97,1.05,0.33,-28,-6,-37,1.43,6414,0,78,33,31,844,550.0,607,461,60,130.0,78,1,286,167,40,0,0,544,2104,230,512,-5.59,,,,,,,,,,,,
18184,1564322903612,0,2.13,1.44,0.8,2.33,2.02,0.93,1.01,0.43,-27,-6,-38,1.38,6338,0,78,33,31,862,550.0,602,460,60,131.0,78,1,286,167,40,0,0,542,6274,-6458,512,-5.59,,,,,,,,,,,,
18204,1564322903632,1,2.13,1.44,0.8,2.33,2.02,0.82,1.11,0.41,-27,-2,-39,1.38,6258,0,78,33,31,874,552.0,601,462,60,131.0,78,1,286,167,40,0,0,546,-28648,-14707,510,-5.59,,,,,,,,,,,,
18224,1564322903652,2,2.13,1.43,0.8,2.34,2.02,0.81,1.2,0.41,-27,-1,-39,1.45,6157,0,78,33,32,875,549.0,599,465,60,131.0,78,1,290,169,40,0,0,545,2104,486,508,-5.59,,,,,,,,,,,,
18244,1564322903672,2,2.12,1.44,0.8,2.32,2.02,0.85,1.26,0.4,-28,0,-38,1.52,6048,0,78,33,32,877,546.0,596,460,60,130.0,77,1,290,90,39,0,0,544,2524,9517,504,-5.59,44.680637,10.016764,52.7,177.3,0,0.0,-1,0.0,0.0,0,0.2,0.3041
18264,1564322903694,0,2.14,1.44,0.8,2.33,2.03,0.9,1.32,0.29,-28,2,-36,1.6,6060,0,78,33,33,881,542.0,593,462,60,130.0,77,1,292,169,39,0,0,519,-3082,-8985,503,-5.59,,,,,,,,,,,,
18284,1564322903714,-1,2.14,1.44,0.8,2.33,2.03,0.96,1.34,0.29,-28,2,-36,1.65,6184,0,78,33,33,884,536.0,595,465,60,130.0,77,1,292,174,39,0,0,529,-2934,10432,500,-5.59,,,,,,,,,,,,
18304,1564322903734,-1,2.14,1.44,0.8,2.33,2.02,0.93,1.29,0.25,-28,1,-36,1.59,6340,0,78,33,33,886,533.0,603,461,60,130.0,77,1,292,174,39,0,0,515,2104,8488,498,-5.59,,,,,,,,,,,,
18324,1564322903754,1,2.17,1.43,0.8,2.34,2.02,0.93,1.18,0.28,-26,1,-36,1.5,6447,0,78,33,32,889,535.0,608,462,60,131.0,77,1,290,169,39,0,0,517,6274,-3314,498,-5.59,,,,,,,,,,,,
18344,1564322903774,-0,2.21,1.43,0.8,2.34,2.03,0.92,1.21,0.33,-25,0,-37,1.52,6533,0,78,33,32,889,532.0,611,466,60,130.0,82,1,290,169,41,0,0,516,14504,2524,495,-5.59,44.680626,10.016765,52.08,177.3,0,0.0,-1,0.0,0.0,0,0.2,0.3057
18364,1564322903794,-0,2.25,1.44,0.8,2.34,2.02,1.0,1.15,0.27,-25,-0,-36,1.53,6499,0,78,33,32,888,530.0,608,463,60,130.0,82,1,290,169,41,0,0,521,2524,-18341,496,-5.59,,,,,,,,,,,,
18384,1564322903814,-1,2.29,1.44,0.81,2.34,2.02,0.97,1.04,0.32,-23,0,-35,1.42,6505,0,78,33,32,886,527.0,609,461,60,132.0,82,1,290,169,41,0,0,510,6274,-6528,496,-5.59,,,,,,,,,,,,
18404,1564322903834,-1,2.29,1.44,0.8,2.34,2.02,0.93,1.02,0.34,-21,1,-33,1.38,6620,0,78,33,32,883,515.0,612,465,60,130.0,82,1,290,169,41,0,0,506,-14,1,501,-5.59,,,,,,,,,,,,
18424,1564322903854,1,2.33,1.44,0.8,2.34,2.03,0.93,0.87,0.34,-18,0,-29,1.28,6751,0,78,33,31,881,507.0,613,460,60,129.0,82,1,286,167,41,0,0,496,-21872,998,501,-5.59,,,,,,,,,,,,
18444,1564322903874,-1,2.35,1.44,0.81,2.34,2.03,0.9,0.82,0.42,-14,1,-27,1.22,6853,0,78,33,31,878,504.0,612,463,60,131.0,85,1,286,167,43,0,0,495,2109,771,502,-5.59,44.680611,10.016768,51.13,177.3,0,0.0,-1,0.0,0.0,0,0.2,0.3074
18464,1564322903897,1,2.36,1.44,0.81,2.34,2.03,0.88,0.64,0.42,-11,-0,-24,1.09,6858,0,78,33,30,880,505.0,618,462,60,131.0,85,1,282,166,43,0,0,490,-22519,10408,505,-5.59,,,,,,,,,,,,
18484,1564322903917,-0,2.38,1.45,0.81,2.35,2.03,0.89,0.59,0.47,-7,1,-22,1.07,6778,0,78,33,30,880,507.0,615,465,60,129.0,85,1,282,166,43,0,0,492,3,-21872,507,-5.59,,,,,,,,,,,,
18504,1564322903937,2,2.4,1.45,0.81,2.35,2.03,0.89,0.45,0.47,-4,0,-19,1.0,6744,0,78,33,30,880,508.0,614,462,60,132.0,85,1,282,166,43,0,0,492,3,-3856,508,-5.59,,,,,,,,,,,,
18524,1564322903957,0,2.42,1.44,0.81,2.35,2.04,0.87,0.37,0.44,-2,2,-16,0.95,6674,0,78,33,30,880,509.0,607,464,60,131.0,85,1,282,166,43,0,0,491,771,-21872,509,-5.59,,,,,,,,,,,,
18544,1564322903977,1,2.43,1.45,0.81,2.36,2.03,0.94,0.21,0.47,0,-0,-14,0.96,6689,0,78,33,30,880,507.0,612,463,60,131.0,82,1,282,166,42,0,0,483,-1818,-28648,507,-5.59,44.680599,10.016774,49.85,177.3,0,0.0,-1,0.0,0.0,0,0.21,0.3091
18564,1564322903997,0,2.45,1.45,0.8,2.37,2.03,0.9,0.1,0.48,2,1,-11,0.9,6656,0,78,33,30,879,508.0,609,461,60,130.0,82,1,282,166,42,0,0,479,1,2109,508,-5.59,,,,,,,,,,,,
18584,1564322904009,0,2.47,1.45,0.8,2.36,2.03,1.0,-0.09,0.44,3,-1,-7,1.0,6630,0,78,33,30,877,508.0,613,461,60,130.0,82,1,282,166,42,0,0,472,-6441,2524,508,-5.59,,,,,,,,,,,,
18604,1564322904029,1,2.51,1.45,0.81,2.35,2.03,0.88,-0.15,0.49,6,0,-4,0.89,6632,0,78,33,30,876,507.0,613,462,60,131.0,82,1,282,166,42,0,0,465,-899,10408,507,-5.59,,,,,,,,,,,,
18624,1564322904049,-1,2.52,1.45,0.81,2.36,2.03,0.98,-0.23,0.41,7,-1,-1,1.0,6602,3,78,33,30,874,508.0,608,464,60,129.0,82,1,282,166,42,0,0,463,10305,-21872,507,-5.59,,,,,,,,,,,,
18644,1564322904069,2,2.53,1.45,0.8,2.37,2.03,0.89,-0.35,0.54,10,-1,3,0.95,6569,5,78,33,30,873,509.0,611,460,60,131.0,80,1,282,166,41,0,0,457,-23367,10408,509,-5.59,44.680588,10.016779,49.42,177.3,0,0.0,-1,0.0,0.0,0,0.21,0.3107
18664,1564322904097,-2,2.54,1.45,0.8,2.37,2.04,0.82,-0.38,0.49,12,2,6,0.91,6496,5,78,33,30,874,508.0,610,465,60,131.0,80,1,283,166,41,0,0,449,-17956,6274,510,-5.59,,,,,,,,,,,,
18684,1564322904117,-2,2.54,1.45,0.81,2.37,2.04,0.94,-0.44,0.44,13,-1,9,1.04,6377,5,78,33,30,876,507.0,605,460,60,129.0,80,1,283,166,41,0,0,438,-1923,-28648,509,-5.59,,,,,,,,,,,,
18704,1564322904137,1,2.54,1.44,0.8,2.36,2.04,1.0,-0.57,0.47,15,-4,11,1.15,6338,6,78,33,30,879,505.0,602,458,60,130.0,80,1,283,167,41,0,0,435,32033,3,507,-5.59,,,,,,,,,,,,
18724,1564322904157,1,2.54,1.45,0.81,2.36,2.04,0.86,-0.68,0.47,17,-3,14,1.09,6260,6,78,33,31,881,507.0,598,458,60,132.0,80,1,286,88,41,0,0,422,10432,-3414,507,-5.59,,,,,,,,,,,,
18744,1564322904177,3,2.54,1.45,0.81,2.37,2.03,0.69,-0.72,0.49,19,0,16,1.0,6212,6,78,33,31,886,507.0,597,462,60,131.0,77,1,286,167,39,0,0,414,243,11560,507,-5.59,44.680576,10.016784,48.98,177.3,0,0.0,-1,0.0,0.0,0,0.21,0.3124
18764,1564322904199,1,2.55,1.45,0.81,2.36,2.04,0.67,-0.73,0.48,21,1,18,0.99,6177,6,78,33,32,890,505.0,596,462,60,130.0,77,1,290,169,39,0,0,403,-3210,-22519,505,-5.59,,,,,,,,,,,,
18784,1564322904219,2,2.58,1.45,0.81,2.36,2.04,0.68,-0.71,0.45,23,3,20,0.98,6117,6,78,33,32,893,506.0,596,465,60,129.0,77,1,290,169,39,0,0,395,16408,2524,506,-5.59,,,,,,,,,,,,
18804,1564322904239,-2,2.59,1.45,0.8,2.36,2.04,0.74,-0.72,0.42,24,2,21,1.03,6034,6,78,33,32,896,505.0,592,462,60,129.0,77,1,290,169,39,0,0,392,6193,-22519,505,-5.59,,,,,,,,,,,,
18824,1564322904259,2,2.61,1.46,0.81,2.37,2.04,0.81,-0.75,0.37,25,4,24,1.1,5984,6,78,33,33,899,503.0,586,463,60,130.0,77,1,291,173,39,0,0,386,2211,11560,504,-5.59,,,,,,,,,,,,
18844,1564322904279,1,2.63,1.45,0.81,2.36,2.04,0.79,-0.77,0.38,27,5,25,1.1,5912,6,78,33,33,902,501.0,587,461,60,131.0,77,1,287,173,39,0,0,377,17628,11560,502,-5.59,44.680565,10.016788,48.72,177.3,0,0.0,-1,0.0,0.0,0,0.21,0.3141
18864,1564322904297,1,2.65,1.45,0.81,2.37,2.03,0.77,-0.79,0.37,28,6,26,1.11,5832,6,78,33,34,904,500.0,560,462,60,131.0,77,1,286,178,39,0,0,370,-9160,2524,500,-5.59,,,,,,,,,,,,
18884,1564322904317,1,2.67,1.45,0.81,2.38,2.04,0.71,-0.83,0.33,30,7,28,1.09,5804,6,78,33,34,905,496.0,417,460,60,131.0,77,1,285,178,39,0,0,354,-8985,-6528,496,-5.59,,,,,,,,,,,,
18904,1564322904337,0,2.69,1.45,0.81,2.37,2.04,0.64,-0.94,0.35,31,7,30,1.14,5733,6,78,33,35,906,495.0,336,460,60,131.0,77,1,283,182,39,0,0,347,3571,-6528,495,-5.59,,,,,,,,,,,,
18924,1564322904357,-2,2.71,1.45,0.81,2.37,2.04,0.65,-1.01,0.36,32,5,31,1.2,5625,6,79,33,36,908,494.0,317,460,60,130.0,77,1,280,188,39,0,0,341,8488,248,494,-5.59,,,,,,,,,,,,
18944,1564322904377,3,2.7,1.46,0.81,2.37,2.04,0.79,-0.97,0.35,33,3,33,1.25,5537,6,79,33,37,909,491.0,290,460,60,131.0,79,1,277,193,39,0,0,336,10305,-1562,491,-5.59,44.68055,10.016791,48.36,177.4,0,0.0,-1,0.0,0.0,0,0.21,0.3157
18964,1564322904397,-1,2.71,1.46,0.81,2.36,2.04,0.75,-1.03,0.33,35,3,34,1.27,5498,6,79,33,38,909,490.0,270,457,60,131.0,79,1,276,198,39,0,0,322,2131,-6656,488,-5.59,,,,,,,,,,,,
18984,1564322904417,0,2.71,1.46,0.81,2.37,2.05,0.73,-1.09,0.34,35,3,35,1.31,5445,6,78,33,38,910,490.0,250,461,60,131.0,79,1,274,205,39,0,0,311,23400,1,490,-5.59,,,,,,,,,,,,
19004,1564322904437,2,2.7,1.46,0.81,2.38,2.04,0.85,-1.04,0.33,36,0,37,1.34,5403,6,78,33,40,913,487.0,227,467,60,129.0,79,1,278,205,39,0,0,300,23400,1,487,-5.59,,,,,,,,,,,,
19024,1564322904457,0,2.71,1.46,0.81,2.37,2.04,0.77,-1.1,0.31,36,1,38,1.34,5328,6,79,33,40,914,486.0,230,458,60,131.0,79,1,272,205,39,0,0,296,-28332,-10483,486,-5.59,,,,,,,,,,,,
19044,1564322904477,2,2.71,1.46,0.81,2.38,2.05,0.84,-1.1,0.32,36,-1,40,1.38,5215,6,79,33,41,916,483.0,226,463,60,129.0,84,1,268,207,41,0,0,293,21580,10305,482,-5.59,44.680542,10.016793,47.81,177.4,0,0.0,-1,0.0,0.0,0,0.21,0.3174
19064,1564322904495,-0,2.71,1.46,0.81,2.37,2.04,0.77,-1.14,0.33,36,-0,40,1.38,5153,6,79,33,42,917,481.0,233,460,60,131.0,84,1,268,208,41,0,0,289,19477,3576,481,-5.59,,,,,,,,,,,,
19084,1564322904515,-0,2.71,1.46,0.82,2.38,2.04,0.81,-1.14,0.29,37,-2,41,1.4,5088,6,79,33,43,921,477.0,240,464,60,130.0,84,1,266,210,41,0,0,280,-768,16648,477,-5.59,,,,,,,,,,,,
19104,1564322904535,2,2.72,1.47,0.81,2.38,2.04,0.83,-1.16,0.26,37,-2,42,1.43,5036,6,79,34,44,925,477.0,245,462,60,130.0,84,1,265,134,41,0,0,265,1779,-17956,477,-5.59,,,,,,,,,,,,
19124,1564322904555,-2,2.72,1.46,0.81,2.38,2.04,0.79,-1.22,0.28,37,-1,42,1.46,5020,6,79,33,45,927,477.0,239,455,60,131.0,84,1,266,214,41,0,0,253,-3314,-17956,477,-5.59,,,,,,,,,,,,
19144,1564322904575,0,2.71,1.47,0.82,2.38,2.04,0.83,-1.2,0.26,38,-2,43,1.46,4953,6,79,33,46,926,473.0,235,463,60,131.0,84,1,262,215,40,0,0,247,31796,-23367,473,-5.59,44.680527,10.016792,46.72,177.4,0,0.0,-1,0.0,0.0,0,0.21,0.3191
19164,1564322904595,1,2.71,1.46,0.82,2.38,2.04,0.85,-1.21,0.28,38,-1,44,1.48,4827,6,79,33,46,918,472.0,231,463,60,130.0,84,1,248,211,40,0,0,245,-4082,32033,471,-5.59,,,,,,,,,,,,
19184,1564322904615,2,2.7,1.46,0.82,2.38,2.05,0.85,-1.22,0.32,37,0,43,1.49,4755,6,79,33,47,910,469.0,223,461,60,130.0,84,1,244,213,40,0,0,242,-3856,6193,469,-5.59,,,,,,,,,,,,
19204,1564322904635,-0,2.69,1.47,0.82,2.37,2.05,0.84,-1.26,0.35,36,1,43,1.52,4698,6,79,33,47,900,466.0,215,457,60,131.0,84,1,238,211,40,0,0,230,3826,243,466,-5.59,,,,,,,,,,,,
19224,1564322904655,-1,2.69,1.46,0.81,2.38,2.05,0.81,-1.32,0.36,35,1,43,1.55,4693,6,79,33,47,891,464.0,207,457,60,131.0,84,1,237,211,40,0,0,225,-21792,6193,464,-5.59,,,,,,,,,,,,
19244,1564322904675,-1,2.68,1.46,0.81,2.38,2.04,0.82,-1.35,0.31,36,0,43,1.58,4668,6,79,34,48,881,461.0,198,460,60,131.0,82,1,238,136,38,0,0,214,7154,30272,461,-5.59,44.680519,10.01679,46.12,177.4,0,0.0,-1,0.0,0.0,0,0.22,0.3207
19264,1564322904695,-1,2.66,1.46,0.81,2.38,2.05,0.84,-1.37,0.26,35,-1,43,1.61,4573,6,79,34,49,874,460.0,194,462,60,131.0,82,1,230,212,38,0,0,212,18584,-18108,460,-5.59,,,,,,,,,,,,
19284,1564322904715,-2,2.63,1.46,0.81,2.38,2.05,0.83,-1.4,0.29,35,-2,43,1.63,4494,6,79,34,49,874,459.0,189,465,60,131.0,82,1,221,214,38,0,0,211,18584,12552,459,-5.59,,,,,,,,,,,,
19304,1564322904735,-0,2.58,1.47,0.81,2.38,2.05,0.81,-1.4,0.31,35,-2,43,1.62,4435,6,79,34,49,874,460.0,183,466,60,132.0,82,1,214,213,38,0,0,206,-9166,14488,460,-5.59,,,,,,,,,,,,
19324,1564322904755,-2,2.54,1.46,0.81,2.38,2.04,0.8,-1.41,0.32,36,-1,42,1.62,4429,6,79,34,49,874,461.0,177,465,60,130.0,82,1,214,213,38,0,0,202,-26615,3571,461,-5.59,,,,,,,,,,,,
19344,1564322904775,-2,2.48,1.46,0.8,2.37,2.05,0.8,-1.42,0.35,35,2,43,1.63,4396,6,79,34,49,874,461.0,175,460,60,131.0,75,1,210,212,35,0,0,188,13040,14488,461,-5.59,44.680508,10.016788,45.13,177.4,0,0.0,-1,0.0,0.0,0,0.22,0.3224
19364,1564322904794,2,2.42,1.46,0.8,2.37,2.05,0.82,-1.37,0.39,34,3,43,1.6,4344,6,79,34,49,874,461.0,170,457,60,132.0,75,1,205,133,35,0,0,184,-9166,14488,461,-5.59,,,,,,,,,,,,
19384,1564322904814,0,2.37,1.46,0.8,2.38,2.03,0.83,-1.32,0.41,31,4,43,1.56,4328,6,79,34,49,874,459.0,168,455,60,131.0,75,1,202,211,35,0,0,179,-9166,3571,457,-5.59,,,,,,,,,,,,
19404,1564322904834,1,2.32,1.46,0.8,2.37,2.04,0.87,-1.24,0.4,27,5,45,1.51,4239,6,79,34,49,878,452.0,165,453,60,129.0,75,1,193,210,35,0,0,176,-21944,-3267,452,-5.59,,,,,,,,,,,,
19424,1564322904854,-1,2.29,1.45,0.8,2.37,2.04,0.9,-1.19,0.39,23,6,45,1.49,4208,6,79,34,49,882,446.0,165,467,60,130.0,75,1,189,214,35,0,0,176,-21792,-28332,446,-5.59,,,,,,,,,,,,
19444,1564322904874,-0,2.24,1.45,0.8,2.36,2.04,0.98,-1.07,0.31,22,3,42,1.45,4200,6,79,34,50,886,441.0,160,465,60,130.0,73,1,190,214,33,0,0,225,3826,19477,441,-5.59,44.680496,10.016782,44.4,177.4,0,0.0,-1,0.0,0.0,0,0.22,0.3241
19464,1564322904898,-2,2.22,1.45,0.8,2.37,2.02,1.01,-0.99,0.43,19,1,37,1.42,4232,23,79,34,52,891,428.0,157,461,60,131.0,73,1,196,247,33,0,0,413,-8165,2524,428,-5.59,,,,,,,,,,,,
19484,1564322904918,-0,2.18,1.45,0.78,2.36,2.02,1.03,-0.83,0.34,15,1,34,1.32,4513,45,79,34,59,892,426.0,157,460,60,131.0,73,1,228,281,33,0,0,412,3826,-26615,417,-5.59,,,,,,,,,,,,
19504,1564322904938,-1,2.16,1.43,0.77,2.34,2.0,1.03,-0.64,0.39,11,-1,29,1.21,4686,61,79,34,70,894,428.0,156,465,60,131.0,73,1,247,241,33,0,0,422,13180,9517,409,-5.59,,,,,,,,,,,,
19524,1564322904958,1,2.13,1.41,0.76,2.31,1.99,1.08,-0.57,0.39,7,-3,25,1.23,5008,76,79,34,83,893,427.0,159,463,60,127.0,73,1,276,477,33,0,0,415,31796,-32702,406,-5.59,,,,,,,,,,,,
19544,1564322904978,-0,2.11,1.39,0.75,2.3,1.98,0.97,-0.35,0.32,4,-2,21,1.03,5212,90,79,34,92,890,425.0,158,461,60,130.0,244,1,309,563,99,0,0,415,13180,-32702,401,-5.59,44.680489,10.016775,43.13,177.5,0,0.0,-1,0.0,0.0,0,0.22,0.3257
19564,1564322904992,0,2.09,1.39,0.74,2.29,1.97,1.08,-0.27,0.34,0,-2,16,1.11,5361,100,79,34,94,889,426.0,160,461,60,130.0,244,1,311,582,99,0,0,417,13552,-31744,401,-5.59,,,,,,,,,,,,
19584,1564322905012,-1,2.08,1.39,0.73,2.29,1.95,0.99,-0.09,0.36,-2,-0,12,0.99,5452,100,79,34,94,888,427.0,160,466,60,130.0,244,1,312,559,99,0,0,414,31796,-18948,396,-5.59,,,,,,,,,,,,
19604,1564322905032,-0,2.07,1.39,0.72,2.27,1.95,1.0,0.0,0.33,-4,-1,7,1.0,5567,100,79,34,94,889,425.0,164,460,60,129.0,244,1,313,554,99,0,0,416,-3856,-992,394,-5.59,,,,,,,,,,,,
19624,1564322905052,1,2.05,1.39,0.72,2.26,1.94,1.07,0.09,0.37,-7,-2,2,1.08,5587,100,79,34,94,891,424.0,167,461,60,129.0,244,1,313,478,99,0,0,420,-3856,2278,391,-5.59,,,,,,,,,,,,
19644,1564322905072,0,2.07,1.39,0.72,2.26,1.94,0.98,0.26,0.49,-9,-2,-3,1.01,5573,100,79,34,94,909,426.0,170,462,60,130.0,300,1,313,554,117,0,0,421,13552,-19019,389,181.28,44.680477,10.016768,41.83,177.5,0,0.0,-1,0.0,0.0,0,0.22,0.3274
19664,1564322905100,0,2.05,1.4,0.72,2.25,1.94,0.93,0.33,0.39,-10,1,-6,0.99,5555,100,79,34,94,932,425.0,175,461,60,132.0,300,1,312,555,117,0,0,417,-3856,240,387,-5.59,,,,,,,,,,,,
19684,1564322905120,0,2.06,1.39,0.72,2.25,1.93,1.01,0.32,0.24,-12,0,-8,1.06,5623,100,79,34,95,953,422.0,184,461,60,129.0,300,1,313,567,117,0,0,419,-4082,8200,386,-5.59,,,,,,,,,,,,
19704,1564322905140,-0,2.05,1.4,0.71,2.24,1.93,1.01,0.41,0.34,-13,-0,-12,1.09,5788,100,79,34,94,974,421.0,193,458,60,129.0,300,1,315,544,117,0,0,416,-21792,19125,387,-5.59,,,,,,,,,,,,
19724,1564322905160,-1,2.06,1.4,0.71,2.23,1.92,0.93,0.48,0.42,-15,0,-16,1.05,5892,100,79,34,94,1051,420.0,203,463,60,131.0,300,1,316,539,117,0,0,418,-8165,19125,385,414.87,,,,,,,,,,,,
19744,1564322905180,0,2.06,1.4,0.71,2.22,1.93,0.89,0.51,0.39,-16,1,-18,1.03,6351,100,79,34,94,1147,420.0,218,461,60,130.0,322,1,335,533,124,0,0,418,-8165,-18948,383,648.46,44.68047,10.016761,40.15,177.5,0,0.0,-1,0.0,0.0,0,0.22,0.3291
19764,1564322905198,3,2.06,1.4,0.71,2.24,1.93,0.92,0.49,0.42,-16,-0,-20,1.04,6644,100,79,34,94,1233,418.0,233,460,60,130.0,322,1,350,531,124,0,0,421,7154,1504,382,-5.59,,,,,,,,,,,,
19784,1564322905218,3,2.07,1.4,0.71,2.24,1.93,0.8,0.51,0.5,-17,1,-21,0.96,6465,100,79,34,94,1309,424.0,256,465,60,131.0,322,1,341,532,124,0,0,436,-4082,505,386,-5.59,,,,,,,,,,,,
19804,1564322905238,-2,2.07,1.4,0.71,2.23,1.93,0.71,0.6,0.54,-19,2,-23,0.93,6167,100,79,34,94,1380,430.0,271,462,60,129.0,322,1,323,534,124,0,0,448,-3314,10994,390,-5.59,,,,,,,,,,,,
19824,1564322905258,-1,2.06,1.4,0.71,2.23,1.93,0.78,0.55,0.6,-21,0,-25,0.95,6105,100,79,34,94,1447,433.0,279,462,60,129.0,322,1,318,534,124,0,0,446,243,-26615,395,-5.59,,,,,,,,,,,,
19844,1564322905278,2,2.06,1.4,0.71,2.23,1.93,0.81,0.62,0.73,-22,-0,-26,1.02,5779,91,79,34,94,1478,438.0,290,457,60,130.0,303,1,314,545,120,0,0,444,21580,-26615,397,-5.59,44.680458,10.016755,38.81,177.6,0,0.0,-1,0.0,0.0,0,0.22,0.3307
19864,1564322905300,0,2.06,1.39,0.7,2.22,1.92,0.76,0.7,0.8,-23,0,-26,1.03,5547,82,79,34,93,1468,438.0,296,459,60,131.0,303,1,312,539,120,0,0,437,21580,2524,398,-5.59,,,,,,,,,,,,
19884,1564322905320,-2,2.07,1.39,0.7,2.22,1.92,0.78,0.67,0.64,-23,-0,-26,1.03,5539,76,79,34,93,1437,436.0,298,459,60,130.0,303,1,312,539,120,0,0,436,19477,-4059,401,-5.59,,,,,,,,,,,,
19904,1564322905340,-0,2.06,1.39,0.7,2.23,1.91,0.82,0.71,0.61,-23,-3,-28,1.09,5795,75,79,34,92,1385,434.0,306,456,60,129.0,303,1,315,518,120,0,0,434,-768,-3414,402,-5.59,,,,,,,,,,,,
19924,1564322905360,-2,2.07,1.38,0.7,2.22,1.91,0.86,0.73,0.65,-23,-2,-28,1.13,6077,74,79,34,91,1335,435.0,326,459,60,131.0,303,1,321,507,120,0,0,434,-7939,3635,401,-5.59,,,,,,,,,,,,
19944,1564322905380,-1,2.08,1.38,0.7,2.22,1.92,0.95,0.7,0.64,-23,-1,-29,1.18,6262,74,79,34,91,1291,439.0,334,461,60,130.0,295,1,331,512,119,0,0,441,-28332,-1923,406,-5.59,44.680447,10.01675,39.05,177.6,0,0.0,-1,0.0,0.0,0,0.22,0.3324
19964,1564322905398,-1,2.08,1.39,0.7,2.21,1.92,0.93,0.7,0.61,-23,-2,-30,1.16,6317,74,79,34,91,1253,444.0,351,459,60,130.0,295,1,334,513,119,0,0,446,21432,-3210,408,-5.59,,,,,,,,,,,,
19984,1564322905418,2,2.06,1.39,0.7,2.22,1.92,0.82,0.73,0.65,-23,-2,-31,1.1,6216,65,79,34,90,1221,447.0,392,460,60,131.0,295,1,328,503,119,0,0,451,15649,8488,411,-5.59,,,,,,,,,,,,
20004,1564322905438,1,2.08,1.39,0.7,2.23,1.92,0.74,0.77,0.72,-23,-0,-31,1.06,6125,51,79,34,87,1199,451.0,432,460,60,130.0,295,1,334,490,119,0,0,456,3571,243,414,-5.59,,,,,,,,,,,,
20024,1564322905458,2,2.08,1.39,0.7,2.24,1.92,0.66,0.81,0.8,-24,1,-31,1.05,6007,34,79,34,84,1209,453.0,469,462,60,131.0,295,1,340,476,119,0,0,454,2524,-3314,416,-5.59,,,,,,,,,,,,
20044,1564322905478,2,2.07,1.4,0.7,2.24,1.93,0.6,0.86,0.81,-24,2,-30,1.05,5984,26,79,34,79,1216,454.0,496,461,60,131.0,251,1,344,445,105,0,0,452,2524,3571,419,-5.59,44.680439,10.016747,40.72,177.6,0,0.0,-1,0.0,0.0,0,0.22,0.3341
20064,1564322905496,2,2.07,1.4,0.7,2.24,1.93,0.53,0.89,0.73,-24,2,-30,1.03,6015,26,79,34,74,1210,453.0,521,462,60,131.0,251,1,351,403,105,0,0,451,2524,10305,419,-5.59,,,,,,,,,,,,
20084,1564322905516,2,2.09,1.39,0.71,2.23,1.92,0.49,0.92,0.67,-24,1,-29,1.04,6103,26,79,34,72,1201,452.0,538,461,60,131.0,251,1,356,373,105,0,0,451,-6387,8488,420,-5.59,,,,,,,,,,,,
20104,1564322905536,3,2.11,1.39,0.7,2.23,1.92,0.47,0.93,0.68,-24,1,-28,1.04,6143,26,79,34,70,1183,454.0,553,464,60,130.0,251,1,360,325,105,0,0,453,-26615,-18108,423,-5.59,,,,,,,,,,,,
20124,1564322905556,0,2.1,1.39,0.7,2.23,1.92,0.49,0.89,0.69,-24,1,-28,1.02,6196,26,79,34,68,1166,456.0,564,461,60,131.0,251,1,364,233,105,0,0,457,14488,17628,427,-5.59,,,,,,,,,,,,
20144,1564322905576,-2,2.08,1.38,0.71,2.23,1.92,0.55,0.86,0.7,-23,1,-28,1.02,6241,26,79,34,67,1146,459.0,574,464,60,130.0,165,1,369,303,71,0,0,457,-18108,15649,430,-5.59,44.680428,10.016744,41.22,177.7,0,0.0,-1,0.0,0.0,0,0.23,0.3357
20164,1564322905596,-0,2.11,1.4,0.71,2.25,1.92,0.63,0.77,0.7,-23,-1,-29,1.0,6200,26,79,34,66,1126,461.0,585,458,60,130.0,165,1,372,295,71,0,0,460,2211,17628,431,-5.59,,,,,,,,,,,,
20184,1564322905616,-1,2.11,1.4,0.71,2.25,1.93,0.69,0.72,0.69,-23,-2,-28,1.0,6163,26,79,34,65,1123,462.0,586,458,60,130.0,165,1,374,286,71,0,0,461,6193,2524,435,-5.59,,,,,,,,,,,,
20204,1564322905636,1,2.11,1.4,0.71,2.25,1.93,0.66,0.74,0.75,-22,-4,-28,0.99,6135,27,79,34,65,1115,461.0,587,461,60,132.0,165,1,373,285,71,0,0,456,2211,3571,434,-5.59,,,,,,,,,,,,
20224,1564322905656,0,2.11,1.39,0.7,2.26,1.93,0.59,0.77,0.8,-21,-4,-29,0.97,6125,27,79,34,64,1080,461.0,581,463,60,132.0,165,1,376,278,71,0,0,460,16408,2131,436,-5.59,,,,,,,,,,,,
20244,1564322905676,-0,2.13,1.39,0.71,2.26,1.92,0.52,0.81,0.82,-21,-3,-29,0.96,6135,32,79,34,64,1044,464.0,587,461,60,132.0,146,1,376,278,64,0,0,461,16408,15649,437,-5.59,44.68042,10.016743,42.61,177.7,0,0.0,-1,0.0,0.0,0,0.23,0.3374
20264,1564322905696,3,2.12,1.4,0.71,2.25,1.93,0.48,0.85,0.82,-21,-1,-29,0.97,6188,38,79,34,66,1013,465.0,585,458,60,132.0,146,1,372,294,64,0,0,463,30272,21432,440,-5.59,,,,,,,,,,,,
20284,1564322905716,2,2.13,1.4,0.71,2.25,1.94,0.52,0.85,0.82,-21,1,-28,1.0,6196,41,79,34,69,981,467.0,587,461,60,131.0,146,1,363,326,64,0,0,467,243,15649,440,-5.59,,,,,,,,,,,,
20304,1564322905736,-1,2.14,1.39,0.71,2.25,1.94,0.61,0.82,0.8,-22,1,-28,1.02,6184,42,79,34,71,954,469.0,589,463,60,129.0,146,1,361,358,64,0,0,465,10432,3571,441,-5.59,,,,,,,,,,,,
20324,1564322905756,-1,2.13,1.4,0.71,2.26,1.93,0.66,0.77,0.78,-22,-1,-28,1.01,6218,46,79,34,73,928,469.0,590,460,60,130.0,146,1,359,390,64,0,0,468,10432,-9160,442,-5.59,,,,,,,,,,,,
20344,1564322905776,-0,2.13,1.4,0.71,2.26,1.93,0.72,0.69,0.77,-22,-2,-28,0.99,6270,50,79,34,75,930,468.0,592,458,60,130.0,218,1,358,422,96,0,0,467,-16384,-8985,443,-5.59,44.680408,10.016742,43.48,177.7,0,0.0,-1,0.0,0.0,0,0.23,0.3391
20364,1564322905796,1,2.14,1.4,0.71,2.26,1.93,0.68,0.69,0.84,-21,-4,-27,0.97,6332,52,79,34,77,934,469.0,594,461,60,131.0,218,1,358,445,96,0,0,466,10432,-8985,443,-5.59,,,,,,,,,,,,
20384,1564322905816,3,2.14,1.39,0.72,2.26,1.94,0.56,0.74,0.87,-20,-2,-27,0.93,6330,54,79,34,79,950,469.0,596,462,60,131.0,218,1,357,457,96,0,0,469,32033,-9160,445,-5.59,,,,,,,,,,,,
20404,1564322905836,-1,2.15,1.4,0.71,2.27,1.94,0.56,0.75,0.84,-20,1,-27,0.94,6343,56,79,34,81,966,470.0,596,465,60,131.0,218,1,357,463,96,0,0,473,8488,17628,449,-5.59,,,,,,,,,,,,
20424,1564322905856,-0,2.14,1.4,0.71,2.27,1.94,0.66,0.7,0.78,-20,2,-26,0.96,6332,56,79,34,82,980,471.0,600,460,60,130.0,218,1,355,475,96,0,0,475,32033,6193,449,-5.59,,,,,,,,,,,,
20444,1564322905876,1,2.15,1.4,0.71,2.27,1.94,0.72,0.65,0.81,-19,-0,-26,0.98,6386,56,79,34,82,992,474.0,598,457,60,130.0,255,1,357,476,115,0,0,476,-17956,243,450,-5.59,44.680397,10.016742,43.59,177.8,0,0.0,-1,0.0,0.0,0,0.23,0.3407
20464,1564322905893,2,2.15,1.4,0.71,2.27,1.94,0.64,0.65,0.86,-19,-1,-25,0.92,6419,57,79,34,82,1015,476.0,597,461,60,132.0,255,1,358,476,115,0,0,476,-23367,-1923,451,-5.59,,,,,,,,,,,,
20484,1564322905913,-2,2.16,1.4,0.71,2.27,1.95,0.63,0.63,0.78,-18,1,-25,0.89,6503,57,79,34,83,1043,478.0,603,459,60,129.0,255,1,360,485,115,0,0,478,16648,-9203,453,-5.59,,,,,,,,,,,,
20504,1564322905933,1,2.17,1.4,0.72,2.27,1.95,0.71,0.62,0.74,-18,-0,-23,0.95,6503,57,79,34,83,1064,479.0,605,457,60,131.0,255,1,360,485,115,0,0,481,10305,8488,456,-5.59,,,,,,,,,,,,
20524,1564322905953,3,2.16,1.4,0.72,2.28,1.95,0.67,0.63,0.81,-17,-0,-24,0.92,6555,57,79,34,83,1081,481.0,605,460,60,131.0,255,1,362,486,115,0,0,482,32033,16648,459,-5.59,,,,,,,,,,,,
20544,1564322905973,-0,2.17,1.41,0.72,2.28,1.94,0.68,0.59,0.72,-17,0,-23,0.9,6574,57,79,34,83,1094,482.0,607,459,60,129.0,263,1,363,486,121,0,0,483,-899,32033,461,-5.59,44.680389,10.016743,44.6,177.8,0,0.0,-1,0.0,0.0,0,0.23,0.3424
20564,1564322905991,1,2.18,1.4,0.72,2.28,1.95,0.69,0.59,0.8,-17,-2,-23,0.91,6620,57,79,33,83,1107,484.0,605,461,60,132.0,263,1,364,487,121,0,0,487,-10483,-6528,463,-5.59,,,,,,,,,,,,
20584,1564322906011,-0,2.18,1.4,0.72,2.28,1.95,0.63,0.65,0.76,-16,1,-23,0.9,6684,58,79,34,83,1110,484.0,605,463,60,130.0,263,1,366,488,121,0,0,487,-1562,-32768,467,648.46,,,,,,,,,,,,
20604,1564322906031,2,2.18,1.41,0.72,2.29,1.95,0.68,0.53,0.79,-16,-1,-22,0.86,6691,58,79,33,82,1107,488.0,606,455,60,131.0,263,1,368,488,121,0,0,489,1,-1562,468,-5.59,,,,,,,,,,,,
20624,1564322906051,-1,2.19,1.41,0.72,2.29,1.95,0.6,0.59,0.78,-15,-0,-22,0.84,6703,58,79,33,83,1091,490.0,606,462,60,131.0,263,1,367,489,121,0,0,488,-1818,-6528,473,-5.59,,,,,,,,,,,,
20644,1564322906071,1,2.19,1.41,0.72,2.3,1.95,0.69,0.49,0.77,-15,-2,-21,0.85,6684,58,79,33,83,1071,491.0,607,461,60,129.0,261,1,366,488,123,0,0,496,-32768,-1818,474,-5.59,44.680374,10.016744,45.34,177.9,0,0.0,-1,0.0,0.0,0,0.23,0.3441
20664,1564322906099,-1,2.19,1.41,0.72,2.29,1.95,0.59,0.51,0.82,-14,-2,-21,0.78,6691,52,79,33,83,1052,494.0,607,463,60,131.0,261,1,367,488,123,0,0,494,-6528,-1818,479,-5.59,,,,,,,,,,,,
20684,1564322906119,-0,2.2,1.41,0.72,2.3,1.95,0.65,0.43,0.75,-14,-2,-20,0.78,6698,42,79,33,81,1035,497.0,609,460,60,129.0,261,1,369,399,123,0,0,500,-9216,-28648,479,-5.59,,,,,,,,,,,,
20704,1564322906139,-0,2.2,1.41,0.72,2.3,1.96,0.64,0.41,0.83,-14,-3,-20,0.76,6725,32,79,33,78,1007,495.0,613,460,60,130.0,261,1,371,456,123,0,0,497,771,-6528,482,181.28,,,,,,,,,,,,
20724,1564322906159,1,2.2,1.41,0.71,2.3,1.95,0.64,0.37,0.75,-13,-3,-20,0.74,6706,25,79,33,73,967,500.0,611,458,60,130.0,261,1,376,396,123,0,0,498,10408,998,482,-5.59,,,,,,,,,,,,
20744,1564322906179,3,2.2,1.41,0.72,2.3,1.95,0.58,0.41,0.79,-13,-3,-19,0.71,6620,22,79,33,69,932,502.0,608,461,60,131.0,189,1,378,334,92,0,0,495,15661,998,487,-5.59,44.680366,10.016747,46.1,178.0,0,0.0,-1,0.0,0.0,0,0.23,0.3457
20764,1564322906199,-0,2.21,1.42,0.72,2.31,1.95,0.66,0.42,0.76,-13,-2,-19,0.78,6544,21,79,33,66,907,502.0,602,464,60,129.0,189,1,385,304,92,0,0,502,2109,248,488,-5.59,,,,,,,,,,,,
20784,1564322906219,2,2.21,1.42,0.73,2.3,1.97,0.68,0.33,0.77,-12,-3,-19,0.75,6672,20,79,33,63,875,503.0,605,460,60,130.0,189,1,401,291,92,0,0,495,2109,-1818,489,-5.59,,,,,,,,,,,,
20804,1564322906239,-0,2.22,1.42,0.73,2.3,1.96,0.63,0.4,0.83,-12,-2,-19,0.75,6644,20,79,33,60,836,503.0,609,462,60,130.0,189,1,405,276,92,0,0,502,2109,248,488,414.87,,,,,,,,,,,,
20824,1564322906259,3,2.22,1.42,0.73,2.31,1.96,0.73,0.32,0.75,-12,-4,-19,0.8,6747,20,79,33,59,802,504.0,613,461,60,130.0,189,1,405,277,92,0,0,496,-32248,-6656,488,-5.59,,,,,,,,,,,,
20844,1564322906279,-1,2.23,1.42,0.74,2.31,1.96,0.67,0.35,0.78,-11,-2,-18,0.75,6754,20,79,33,57,786,504.0,612,467,60,131.0,141,1,398,269,69,0,0,502,-32248,248,487,-5.59,44.680351,10.016749,48.04,178.0,0,0.0,-1,0.0,0.0,0,0.23,0.3474
20864,1564322906299,2,2.26,1.42,0.74,2.32,1.96,0.76,0.3,0.72,-11,-2,-17,0.82,6744,21,79,33,56,770,504.0,611,458,60,130.0,141,1,394,265,69,0,0,499,-32248,-1818,492,-5.59,,,,,,,,,,,,
20884,1564322906319,-0,2.26,1.42,0.74,2.32,1.96,0.74,0.3,0.75,-10,-1,-17,0.79,6737,21,79,33,55,753,502.0,610,462,60,130.0,141,1,391,261,69,0,0,503,15661,505,493,-5.59,,,,,,,,,,,,
20904,1564322906339,1,2.29,1.42,0.74,2.31,1.97,0.81,0.22,0.67,-9,-1,-16,0.84,6660,21,79,33,54,739,500.0,615,458,60,130.0,141,1,387,258,69,0,0,494,10408,-1818,493,-5.59,,,,,,,,,,,,
20924,1564322906359,1,2.3,1.42,0.73,2.32,1.97,0.75,0.26,0.73,-8,-1,-16,0.79,6679,21,79,33,53,737,499.0,612,461,60,131.0,141,1,384,252,69,0,0,495,-22519,3,494,-5.59,,,,,,,,,,,,
20944,1564322906379,-1,2.31,1.42,0.74,2.33,1.96,0.79,0.19,0.62,-7,-1,-15,0.81,6682,22,79,33,53,735,497.0,609,463,60,130.0,132,1,384,252,65,0,0,494,-9216,-1818,494,-5.59,44.68034,10.016754,48.61,178.0,0,0.0,-1,0.0,0.0,0,0.24,0.3491
20964,1564322906397,2,2.3,1.42,0.74,2.32,1.97,0.75,0.16,0.67,-6,-1,-14,0.77,6674,18,79,33,52,734,497.0,610,462,60,131.0,132,1,381,247,65,0,0,492,-9216,998,492,-5.59,,,,,,,,,,,,
20984,1564322906417,-0,2.31,1.43,0.74,2.33,1.98,0.79,0.18,0.63,-5,-0,-13,0.81,6604,8,79,33,50,733,496.0,610,463,60,129.0,132,1,375,242,65,0,0,486,3,1,492,-5.59,,,,,,,,,,,,
21004,1564322906437,2,2.32,1.42,0.74,2.33,1.98,0.85,0.09,0.66,-5,-2,-12,0.85,6526,0,79,33,47,735,494.0,608,457,60,130.0,132,1,365,220,65,0,0,491,998,248,493,-5.59,,,,,,,,,,,,
21024,1564322906457,3,2.32,1.43,0.74,2.33,1.99,0.7,0.1,0.66,-3,0,-12,0.71,6441,0,79,33,44,736,494.0,607,463,60,131.0,132,1,343,215,65,0,0,484,998,248,491,-5.59,,,,,,,,,,,,
21044,1564322906477,1,2.32,1.43,0.74,2.34,1.99,0.76,0.13,0.57,-3,2,-11,0.77,6375,0,79,33,43,742,494.0,603,464,60,130.0,106,1,336,213,52,0,0,490,998,-32768,491,-5.59,44.680328,10.016758,48.7,178.0,0,0.0,-1,0.0,0.0,0,0.24,0.3507
21064,1564322906495,-0,2.34,1.43,0.74,2.35,1.98,0.89,0.06,0.52,-3,1,-10,0.89,6266,0,79,33,41,748,491.0,599,463,60,130.0,106,1,323,210,52,0,0,489,248,-6441,492,-5.59,,,,,,,,,,,,
21084,1564322906515,-1,2.36,1.43,0.74,2.35,1.99,0.97,-0.04,0.51,-2,-1,-9,0.97,6143,0,79,33,39,753,491.0,597,460,60,130.0,106,1,310,209,52,0,0,487,-1818,-1818,491,-5.59,,,,,,,,,,,,
21104,1564322906535,0,2.36,1.43,0.74,2.35,1.98,0.99,-0.19,0.47,-1,-4,-9,1.01,6005,0,79,33,39,760,491.0,597,458,60,131.0,106,1,310,208,52,0,0,479,1,505,491,-5.59,,,,,,,,,,,,
21124,1564322906555,-1,2.39,1.43,0.74,2.36,1.99,1.05,-0.3,0.46,0,-7,-9,1.09,5929,0,79,33,38,770,492.0,593,460,60,130.0,106,1,302,201,52,0,0,473,1,-6441,492,-5.59,,,,,,,,,,,,
21144,1564322906575,-1,2.4,1.43,0.75,2.36,1.99,1.14,-0.37,0.43,2,-10,-8,1.2,6000,0,79,33,37,780,490.0,590,460,60,130.0,91,1,304,202,45,0,0,454,10305,3580,491,-5.59,44.680317,10.016763,48.24,178.0,0,0.0,-1,0.0,0.0,0,0.24,0.3524
21164,1564322906595,-1,2.42,1.44,0.75,2.36,2.0,1.2,-0.44,0.44,4,-12,-6,1.27,6119,0,79,33,37,787,491.0,595,460,60,131.0,91,1,304,196,45,0,0,448,-23367,-23367,489,-5.59,,,,,,,,,,,,
21184,1564322906615,2,2.44,1.44,0.76,2.36,2.0,1.19,-0.51,0.52,5,-13,-6,1.29,6218,0,79,33,36,792,487.0,601,460,60,130.0,91,1,301,196,45,0,0,435,8488,-17956,487,-5.59,,,,,,,,,,,,
21204,1564322906635,3,2.45,1.44,0.75,2.37,2.0,1.02,-0.5,0.53,7,-12,-4,1.13,6287,0,79,33,36,803,484.0,604,463,60,131.0,91,1,301,190,45,0,0,422,-16384,8488,484,-5.59,,,,,,,,,,,,
21224,1564322906655,4,2.46,1.45,0.76,2.37,2.0,0.91,-0.52,0.5,9,-9,-1,1.04,6247,0,79,33,35,814,486.0,600,461,60,130.0,91,1,298,185,45,0,0,410,30272,-899,487,-5.59,,,,,,,,,,,,
21244,1564322906675,3,2.48,1.44,0.76,2.37,2.01,0.88,-0.54,0.53,10,-7,0,1.03,6131,0,79,33,35,821,488.0,596,464,60,130.0,88,1,298,185,43,0,0,394,2211,1,488,-5.59,44.680306,10.016767,48.46,178.0,0,0.0,-1,0.0,0.0,0,0.24,0.3541
21264,1564322906695,4,2.49,1.45,0.76,2.37,2.02,0.92,-0.59,0.5,12,-4,3,1.1,5967,0,79,33,35,827,487.0,592,463,60,130.0,88,1,296,185,43,0,0,392,-23623,-10483,487,-5.59,,,,,,,,,,,,
21284,1564322906715,2,2.5,1.45,0.76,2.38,2.01,0.92,-0.61,0.52,13,-2,5,1.1,5888,0,79,33,35,843,489.0,584,465,60,131.0,88,1,289,183,43,0,0,399,17628,32033,489,-5.59,,,,,,,,,,,,
21304,1564322906735,2,2.5,1.44,0.76,2.38,2.01,0.8,-0.6,0.58,15,1,7,1.0,5762,0,79,33,35,859,489.0,580,463,60,131.0,88,1,285,182,43,0,0,400,-26615,-6441,488,-5.59,,,,,,,,,,,,
21324,1564322906755,0,2.51,1.44,0.76,2.37,2.01,0.67,-0.65,0.64,17,1,8,0.93,5692,0,79,33,35,871,486.0,573,460,60,131.0,88,1,281,182,43,0,0,377,-6387,8488,485,-5.59,,,,,,,,,,,,
21344,1564322906775,-2,2.51,1.44,0.76,2.38,2.0,0.72,-0.74,0.55,18,-1,11,1.03,5709,0,79,33,35,883,482.0,566,462,60,129.0,80,1,282,182,39,0,0,353,-3267,-9203,482,-5.59,44.680294,10.016771,47.68,178.0,0,0.0,-1,0.0,0.0,0,0.24,0.3557
21364,1564322906795,-0,2.5,1.45,0.76,2.37,2.02,0.85,-0.76,0.44,19,-4,13,1.14,5645,0,79,33,36,903,482.0,565,465,60,130.0,80,1,281,188,39,0,0,326,15649,-899,482,-5.59,,,,,,,,,,,,
21384,1564322906815,-0,2.5,1.44,0.76,2.38,2.01,0.86,-0.76,0.47,20,-3,13,1.14,5526,0,79,33,36,924,482.0,560,463,60,130.0,80,1,274,187,39,0,0,323,15649,-17956,482,-5.59,,,,,,,,,,,,
21404,1564322906835,-1,2.5,1.44,0.76,2.38,2.01,0.76,-0.82,0.5,20,-2,15,1.12,5383,0,79,33,36,937,481.0,552,461,60,131.0,80,1,266,185,39,0,0,318,10305,32033,483,-5.59,,,,,,,,,,,,
21424,1564322906855,-0,2.51,1.44,0.76,2.37,2.02,0.88,-0.79,0.45,21,-4,18,1.18,5286,0,79,33,38,948,480.0,543,461,60,130.0,80,1,265,119,39,0,0,319,10305,-1923,480,-5.59,,,,,,,,,,,,
21444,1564322906875,-1,2.51,1.44,0.77,2.37,2.01,0.83,-0.82,0.45,21,-3,19,1.16,5166,0,79,32,38,960,479.0,534,457,60,131.0,81,1,257,196,39,0,0,308,2131,-23367,479,-5.59,44.680283,10.016774,46.62,178.0,0,0.0,-1,0.0,0.0,0,0.24,0.3574
21464,1564322906898,-1,2.51,1.45,0.77,2.37,2.02,0.85,-0.79,0.41,21,-2,21,1.16,5122,0,79,32,40,972,475.0,521,463,60,131.0,81,1,259,203,39,0,0,288,-18341,32033,475,-5.59,,,,,,,,,,,,
21484,1564322906918,4,2.5,1.45,0.76,2.38,2.01,0.85,-0.79,0.43,22,-3,22,1.16,5099,0,79,32,40,979,474.0,442,461,60,129.0,81,1,257,204,39,0,0,269,16648,-17956,474,-5.59,,,,,,,,,,,,
21504,1564322906938,0,2.5,1.45,0.76,2.38,2.01,0.87,-0.79,0.52,23,-0,23,1.18,5051,0,79,32,41,982,477.0,357,459,60,131.0,81,1,258,206,39,0,0,265,21432,-1923,476,-5.59,,,,,,,,,,,,
21524,1564322906958,-2,2.49,1.45,0.76,2.37,2.01,0.97,-0.8,0.56,23,-1,25,1.26,4961,0,79,32,42,988,478.0,306,461,60,132.0,81,1,253,129,39,0,0,269,26704,10432,478,-5.59,,,,,,,,,,,,
21544,1564322906978,3,2.49,1.44,0.77,2.37,2.02,1.06,-0.8,0.55,24,-2,26,1.33,4909,0,79,32,43,993,475.0,305,467,60,127.0,79,1,250,207,38,0,0,275,-28332,-16384,475,-5.59,44.680271,10.016777,46.74,178.0,0,0.0,-1,0.0,0.0,0,0.24,0.3591
21564,1564322906998,-1,2.47,1.45,0.77,2.38,2.01,1.06,-0.85,0.65,24,-1,26,1.36,4965,0,79,32,43,999,474.0,291,457,60,131.0,79,1,256,211,38,0,0,290,-28332,12552,472,-5.59,,,,,,,,,,,,
21584,1564322907010,-2,2.46,1.44,0.77,2.37,2.02,1.11,-0.81,0.59,24,2,26,1.38,5049,0,79,32,44,1002,467.0,273,461,60,131.0,79,1,265,212,38,0,0,272,5600,16408,467,181.28,,,,,,,,,,,,
21604,1564322907030,3,2.46,1.45,0.77,2.37,2.01,1.19,-0.84,0.55,23,2,28,1.45,5071,0,79,32,44,1009,466.0,266,458,60,130.0,79,1,267,214,38,0,0,280,5600,12552,466,-5.59,,,,,,,,,,,,
21624,1564322907050,-2,2.46,1.45,0.76,2.37,2.02,1.2,-0.82,0.55,23,1,28,1.45,5096,0,79,32,45,1018,464.0,255,457,60,131.0,79,1,272,214,38,0,0,340,243,16648,462,-5.59,,,,,,,,,,,,
21644,1564322907070,2,2.45,1.44,0.77,2.37,2.0,1.28,-0.79,0.56,23,-2,27,1.51,5185,0,79,32,45,1027,454.0,247,460,60,129.0,89,1,279,214,41,0,0,402,13180,2131,454,648.46,44.68026,10.016779,45.32,178.1,0,0.0,-1,0.0,0.0,0,0.24,0.3607
21664,1564322907098,-1,2.46,1.45,0.76,2.38,2.01,1.15,-0.85,0.55,22,-1,26,1.43,5292,0,79,32,45,1033,452.0,237,458,60,131.0,89,1,288,214,41,0,0,415,-4082,5600,449,-5.59,,,,,,,,,,,,
21684,1564322907118,-2,2.47,1.45,0.77,2.38,2.02,1.24,-0.85,0.46,21,-4,27,1.5,5442,0,79,32,45,1033,446.0,232,460,60,130.0,89,1,300,214,41,0,0,405,3826,-7939,446,-5.59,,,,,,,,,,,,
21704,1564322907138,1,2.47,1.45,0.77,2.37,2.02,1.2,-0.74,0.42,21,-2,26,1.41,5553,1,79,32,45,1026,445.0,239,459,60,131.0,89,1,310,214,41,0,0,397,-21792,-7939,445,-5.59,,,,,,,,,,,,
21724,1564322907158,-0,2.47,1.45,0.76,2.37,2.01,1.04,-0.75,0.41,21,0,27,1.28,5678,6,79,32,44,1016,444.0,252,458,60,131.0,89,1,315,213,41,0,0,387,-3414,-3322,444,-5.59,,,,,,,,,,,,
21744,1564322907178,-1,2.46,1.45,0.77,2.37,2.01,0.95,-0.79,0.44,21,1,27,1.24,5707,6,79,32,43,1002,444.0,261,460,60,131.0,104,1,312,212,46,0,0,382,-21944,5600,444,-5.59,44.680248,10.016779,43.89,178.1,0,0.0,-1,0.0,0.0,0,0.25,0.3624
21764,1564322907200,-0,2.47,1.45,0.76,2.37,2.02,1.01,-0.77,0.36,21,0,28,1.27,5668,9,79,32,43,985,444.0,287,464,60,130.0,104,1,310,212,46,0,0,384,2524,23400,444,-5.59,,,,,,,,,,,,
21784,1564322907220,1,2.47,1.45,0.77,2.37,2.02,1.08,-0.75,0.36,21,0,29,1.31,5617,9,79,32,43,954,445.0,290,462,60,130.0,104,1,306,212,46,0,0,406,-9166,1779,445,-5.59,,,,,,,,,,,,
21804,1564322907240,0,2.48,1.45,0.77,2.37,2.02,0.99,-0.74,0.36,22,2,29,1.24,5602,9,79,32,43,924,441.0,312,458,60,132.0,104,1,305,212,46,0,0,402,13040,-3314,439,-5.59,,,,,,,,,,,,
21824,1564322907260,-1,2.47,1.45,0.77,2.38,2.02,0.95,-0.78,0.38,22,2,28,1.23,5617,9,79,32,43,905,436.0,315,460,60,131.0,104,1,306,212,46,0,0,402,11560,-3314,436,-5.59,,,,,,,,,,,,
21844,1564322907280,-0,2.46,1.45,0.77,2.38,2.01,1.01,-0.79,0.37,22,-2,28,1.28,5673,9,79,32,43,889,432.0,341,459,60,129.0,103,1,310,213,45,0,0,399,-26615,13180,432,-5.59,44.680237,10.016778,43.75,178.2,0,0.0,-1,0.0,0.0,0,0.25,0.3641
21864,1564322907298,3,2.46,1.45,0.77,2.37,2.02,1.1,-0.81,0.38,21,-3,29,1.36,5678,13,79,32,44,875,431.0,371,465,60,130.0,103,1,315,213,45,0,0,398,-9211,31796,428,-5.59,,,,,,,,,,,,
21884,1564322907318,2,2.45,1.45,0.77,2.37,2.02,1.03,-0.76,0.36,21,-1,29,1.28,5647,19,79,32,45,860,430.0,398,461,60,131.0,103,1,318,215,45,0,0,396,10541,-3414,430,-5.59,,,,,,,,,,,,
21904,1564322907338,1,2.42,1.46,0.77,2.38,2.01,0.91,-0.76,0.42,20,-0,29,1.18,5635,21,79,32,47,862,431.0,425,460,60,131.0,103,1,327,218,45,0,0,398,-8151,-3856,431,-5.59,,,,,,,,,,,,
21924,1564322907358,-0,2.39,1.45,0.77,2.38,2.02,0.92,-0.78,0.36,19,-1,29,1.21,5637,23,79,32,50,867,431.0,450,461,60,131.0,103,1,338,231,45,0,0,397,1504,-8165,430,-5.59,,,,,,,,,,,,
21944,1564322907378,3,2.38,1.45,0.77,2.38,2.02,1.01,-0.74,0.38,18,-2,28,1.25,5578,23,79,32,53,875,427.0,466,466,60,131.0,114,1,347,240,49,0,0,401,1504,-8165,426,-5.59,44.680229,10.016775,41.73,178.3,0,0.0,-1,0.0,0.0,0,0.25,0.3657
21964,1564322907399,0,2.33,1.44,0.76,2.38,2.02,0.96,-0.66,0.41,17,-1,27,1.17,5640,23,79,32,54,881,425.0,485,460,60,131.0,114,1,354,250,49,0,0,403,-9211,3826,425,-5.59,,,,,,,,,,,,
21984,1564322907419,-0,2.3,1.45,0.77,2.36,2.02,0.88,-0.61,0.43,16,0,26,1.08,5686,23,79,32,56,883,421.0,501,460,60,131.0,114,1,354,252,49,0,0,402,-26615,-21792,421,-5.59,,,,,,,,,,,,
22004,1564322907439,0,2.26,1.44,0.76,2.36,2.01,0.85,-0.53,0.35,14,-0,25,1.0,5787,24,79,32,57,887,417.0,511,462,60,131.0,114,1,363,253,49,0,0,405,10392,2524,416,-5.59,,,,,,,,,,,,
22024,1564322907459,-1,2.21,1.44,0.77,2.35,2.0,0.95,-0.52,0.24,11,-2,24,1.08,5848,24,79,32,57,891,414.0,521,458,60,129.0,114,1,368,254,49,0,0,407,10392,-26615,414,-5.59,,,,,,,,,,,,
22044,1564322907479,-1,2.19,1.43,0.76,2.35,2.0,1.06,-0.5,0.21,9,-6,22,1.17,5982,24,79,32,57,894,411.0,523,461,60,131.0,136,1,381,253,56,0,0,411,13040,1504,410,-5.59,44.680218,10.016773,41.46,178.3,0,0.0,-1,0.0,0.0,0,0.25,0.3674
22064,1564322907496,1,2.16,1.42,0.75,2.33,2.0,1.15,-0.49,0.2,6,-8,19,1.25,6119,24,79,32,57,893,413.0,521,462,60,131.0,136,1,384,256,56,0,0,411,-26615,2524,405,-5.59,,,,,,,,,,,,
22084,1564322907516,1,2.14,1.41,0.74,2.32,1.99,1.04,-0.41,0.2,3,-7,16,1.12,6239,24,79,32,57,891,415.0,537,462,60,131.0,136,1,387,258,56,0,0,415,-26615,6384,401,-5.59,,,,,,,,,,,,
22104,1564322907536,1,2.13,1.41,0.74,2.32,1.98,0.91,-0.33,0.34,1,-3,14,0.96,6223,25,79,32,57,877,421.0,554,462,60,131.0,136,1,387,258,56,0,0,423,-21792,2524,400,-5.59,,,,,,,,,,,,
22124,1564322907556,2,2.11,1.41,0.74,2.31,1.98,0.79,-0.25,0.5,-2,-0,11,0.83,5924,25,79,32,57,860,423.0,563,462,60,131.0,136,1,375,254,56,0,0,432,31796,21580,401,-5.59,,,,,,,,,,,,
22144,1564322907576,0,2.1,1.41,0.73,2.3,1.97,0.77,-0.11,0.54,-3,0,7,0.78,5565,25,79,32,58,845,429.0,557,458,60,132.0,134,1,339,253,54,0,0,434,3635,-7939,403,-5.59,44.68021,10.016768,41.17,178.3,0,0.0,-1,0.0,0.0,0,0.25,0.3691
22164,1564322907596,2,2.08,1.41,0.72,2.3,1.95,0.89,-0.08,0.51,-5,-1,4,0.9,5391,25,79,32,61,831,429.0,548,461,60,129.0,134,1,314,261,54,0,0,428,3635,-26615,403,-5.59,,,,,,,,,,,,
22184,1564322907616,0,2.04,1.4,0.71,2.29,1.94,0.82,0.09,0.55,-6,0,1,0.82,5377,25,79,32,62,819,426.0,536,458,60,131.0,134,1,312,268,54,0,0,423,13552,2524,401,-5.59,,,,,,,,,,,,
22204,1564322907636,-1,2.02,1.39,0.71,2.26,1.92,0.85,0.13,0.41,-8,-1,-1,0.86,5405,25,79,32,64,809,426.0,528,462,60,129.0,134,1,313,282,54,0,0,422,13552,-3968,398,-5.59,,,,,,,,,,,,
22224,1564322907656,1,1.98,1.39,0.7,2.26,1.92,0.91,0.24,0.44,-11,-3,-4,0.95,5420,25,79,32,65,810,427.0,522,462,60,130.0,134,1,313,289,54,0,0,422,31796,-1818,398,-5.59,,,,,,,,,,,,
22244,1564322907676,-0,1.96,1.39,0.7,2.26,1.92,0.77,0.34,0.56,-14,-1,-8,0.84,5493,25,79,32,65,815,429.0,528,458,60,130.0,149,1,320,289,59,0,0,424,3635,-1818,393,-5.59,44.680199,10.016765,40.52,178.4,0,0.0,-1,0.0,0.0,0,0.25,0.3707
22264,1564322907696,-2,1.94,1.39,0.7,2.24,1.91,0.82,0.38,0.53,-16,-2,-12,0.91,5580,25,79,32,66,833,428.0,535,461,60,130.0,149,1,326,296,59,0,0,428,243,17144,390,-5.59,,,,,,,,,,,,
22284,1564322907716,2,1.91,1.39,0.7,2.24,1.91,0.92,0.43,0.54,-18,-2,-15,1.01,5692,25,79,32,66,854,434.0,541,465,60,129.0,149,1,337,294,59,0,0,428,-768,505,386,-5.59,,,,,,,,,,,,
22304,1564322907736,2,1.89,1.38,0.7,2.23,1.91,0.89,0.51,0.5,-21,-2,-18,1.02,5797,26,79,32,65,873,433.0,549,464,60,130.0,149,1,348,285,59,0,0,429,243,1,386,-5.59,,,,,,,,,,,,
22324,1564322907756,1,1.88,1.38,0.69,2.23,1.91,0.83,0.61,0.49,-24,-2,-20,1.03,5926,26,79,32,64,890,433.0,561,462,60,130.0,149,1,363,275,59,0,0,431,-3322,505,384,-5.59,,,,,,,,,,,,
22344,1564322907776,3,1.87,1.39,0.7,2.24,1.93,0.75,0.7,0.49,-26,-1,-22,1.03,5950,26,79,32,63,904,434.0,568,462,60,130.0,161,1,369,266,62,0,0,429,-768,3635,383,-5.59,44.680191,10.016762,40.15,178.5,0,0.0,-1,0.0,0.0,0,0.25,0.3724
22364,1564322907795,2,1.88,1.39,0.7,2.24,1.92,0.71,0.82,0.58,-28,-0,-25,1.09,5935,26,79,33,63,918,432.0,570,459,60,131.0,161,1,367,258,62,0,0,432,-3322,6193,382,-5.59,,,,,,,,,,,,
