"Interval"|"ms"|0|0|1,"Utc"|"ms"|0|0|1,"FB_p"|"bar"|0|300|50,"Volant"|"F"|0.0|300.0|50,"xFR"|"mm"|0.0|5.0|50,"xRR"|"mm"|0.0|5.0|50,"xFL"|"mm"|0.0|5.0|50,"xRL"|"mm"|0.0|5.0|50,"AccelX"|"G"|-3.0|3.0|50,"AccelY"|"G"|-3.0|3.0|50,"AccelZ"|"G"|-3.0|3.0|50,"Yaw"|"Deg/Sec"|-120|120|50,"Pitch"|"Deg/Sec"|-120|120|50,"Roll"|"Deg/Sec"|-120|120|50,"Gsum"|"G"|0.0|3.0|50,"RPM"|""|0|14000|50,"TPS"|"%"|0|100|50,"WaterTemp"|"?C"|0|300|50,"AirTemp"|"?C"|-1000|1000|50,"MAP"|"KPa"|0|255|50,"Lambda"|""|0|1024|50,"WheelSpeed"|"MPH"|0.0|150.0|50,"OilPress"|"PSI"|0|150|50,"FuelPress"|"PSI"|0|150|50,"OilTemp"|"F"|0|300|50,"Battery"|"Volts"|0.0|20.0|50,"FuelCon"|"L/h"|-1000|1000|50,"Gear"|""|0|10|50,"Advance"|"Deg"|-360|360|50,"Injection"|"ms"|-1000|1000|50,"FuelCon"|"L/100km"|-1000|1000|50,"LC_But_Pres"|""|-1000|1000|50,"LC_Active"|""|-1000|1000|50,"RD_Speed"|""|-1000|1000|50,"RUD_Speed"|""|-1000|1000|50,"LD_Speed"|""|-1000|1000|50,"LUD_Speed"|""|-1000|1000|50,"Ana1"|"bar"|-1000.0|1000.0|50,"Latitude"|"Degrees"|-180.0|180.0|10,"Longitude"|"Degrees"|-180.0|180.0|10,"Speed"|"kph"|0.0|150.0|10,"Altitude"|"m"|0.0|4000.0|10,"LapCount"|""|0|0|10,"LapTime"|"Min"|0.0|0.0|10,"Sector"|""|0|0|10,"SectorTime"|"Min"|0.0|0.0|10,"ElapsedTime"|"Min"|0.0|0.0|10,"CurrentLap"|""|0|0|10,"Distance"|"km"|0.0|0.0|10,"SessionTime"|"Min"|0.0|0.0|10
64464,1564323230319,1,2.24,1.39,0.67,2.05,1.82,0.83,0.38,0.7,-8,-7,-14,0.91,7178,100,87,31,92,1421,570.0,508,459,60,120.0,385,1,384,541,218,0,0,554,-3190,-28648,560,-5.59,,,,,,,,,,,,
64484,1564323230339,0,2.24,1.38,0.67,2.04,1.83,0.83,0.44,0.64,-9,-6,-13,0.94,7640,100,87,31,92,1397,571.0,525,462,60,120.0,271,1,420,486,152,0,0,534,1267,-22519,559,-5.59,,,,,,,,,,,,
64504,1564323230359,2,2.24,1.39,0.67,2.05,1.83,0.88,0.47,0.63,-9,-5,-13,1.0,8259,100,87,31,90,1397,572.0,549,461,60,121.0,271,1,443,608,152,0,0,564,-8188,-18032,560,181.28,,,,,,,,,,,,
64524,1564323230379,1,2.24,1.39,0.67,2.05,1.83,0.99,0.45,0.68,-10,-6,-12,1.09,9031,100,87,31,87,1397,572.0,586,463,60,121.0,271,1,418,611,152,0,0,574,-8188,-22359,559,-5.59,,,,,,,,,,,,
64544,1564323230399,2,2.23,1.39,0.67,2.05,1.83,0.73,0.48,0.74,-10,-1,-11,0.88,9659,100,87,31,86,1418,572.0,623,460,60,120.0,271,1,412,593,152,0,0,583,-8188,15649,558,-5.59,44.681362,10.016965,55.87,177.9,0,0.0,-1,0.0,0.0,0,0.37,1.0757
64564,1564323230419,2,2.23,1.4,0.67,2.05,1.83,0.57,0.46,0.75,-9,4,-10,0.73,9699,100,87,31,85,1443,578.0,631,462,60,120.0,271,1,409,579,152,0,0,624,-16384,12333,566,-5.59,,,,,,,,,,,,
64584,1564323230439,2,2.24,1.39,0.67,2.05,1.84,0.7,0.49,0.87,-10,1,-11,0.85,9699,100,87,31,88,1424,585.0,605,460,60,120.0,383,1,411,622,218,0,0,653,-25872,-2345,572,-5.59,,,,,,,,,,,,
64604,1564323230459,-2,2.24,1.39,0.67,2.05,1.83,0.83,0.45,0.89,-10,1,-10,0.95,7393,100,87,31,91,1405,589.0,566,456,60,120.0,383,1,402,550,218,0,0,590,2048,-16384,572,-5.59,,,,,,,,,,,,
64624,1564323230479,1,2.24,1.39,0.67,2.05,1.84,0.88,0.34,0.92,-11,-4,-11,0.94,7200,100,87,31,92,1368,581.0,547,458,60,121.0,383,1,386,542,218,0,0,582,10432,1780,569,-5.59,,,,,,,,,,,,
64644,1564323230499,2,2.24,1.39,0.66,2.05,1.83,0.92,0.42,0.87,-11,-5,-9,1.01,7142,100,87,31,92,1324,579.0,537,457,60,120.0,383,1,382,539,218,0,0,578,243,1267,568,-5.59,44.681347,10.016958,55.55,177.9,0,0.0,-1,0.0,0.0,0,0.37,1.0774
64664,1564323230519,2,2.24,1.39,0.66,2.04,1.83,0.8,0.53,0.77,-9,-3,-9,0.96,7381,100,87,31,92,1308,579.0,533,463,60,120.0,383,1,400,550,218,0,0,577,243,1780,571,-5.59,,,,,,,,,,,,
64684,1564323230539,2,2.24,1.39,0.67,2.04,1.83,0.71,0.5,0.7,-8,-3,-10,0.87,7789,100,87,31,92,1300,577.0,543,460,60,120.0,278,1,431,567,159,0,0,578,-3210,-30159,571,-5.59,,,,,,,,,,,,
64704,1564323230559,2,2.24,1.39,0.67,2.06,1.83,0.75,0.54,0.81,-7,-4,-11,0.93,8393,100,87,31,90,1324,583.0,563,461,60,120.0,278,1,439,609,159,0,0,579,15649,-8186,574,-5.59,,,,,,,,,,,,
64724,1564323230579,2,2.24,1.4,0.67,2.06,1.84,0.74,0.57,0.73,-7,-6,-10,0.93,9115,100,87,31,87,1360,584.0,604,464,60,121.0,278,1,418,599,159,0,0,582,15649,1760,576,-5.59,,,,,,,,,,,,
64744,1564323230599,0,2.24,1.4,0.68,2.06,1.84,0.61,0.7,0.76,-7,-0,-8,0.92,9484,100,87,31,86,1402,588.0,627,463,60,120.0,278,1,418,588,159,0,0,605,208,5344,577,-5.59,44.681335,10.016953,56.85,177.9,0,0.0,-1,0.0,0.0,0,0.37,1.0791
64764,1564323230619,1,2.25,1.4,0.69,2.06,1.84,0.45,0.62,0.87,-7,3,-9,0.77,9370,100,87,31,86,1445,596.0,634,466,60,120.0,278,1,418,588,159,0,0,653,4956,11069,588,-5.59,,,,,,,,,,,,
64784,1564323230639,2,2.25,1.39,0.67,2.06,1.84,0.59,0.7,0.95,-7,3,-7,0.92,9370,100,87,31,88,1470,601.0,602,461,60,120.0,354,1,418,599,209,0,0,657,243,-2580,593,-5.59,,,,,,,,,,,,
64804,1564323230659,1,2.26,1.4,0.68,2.06,1.84,0.64,0.63,1.01,-7,1,-11,0.9,9370,100,87,31,91,1478,606.0,572,461,60,120.0,354,1,419,639,209,0,0,604,-23055,-23055,592,-5.59,,,,,,,,,,,,
64824,1564323230679,-1,2.26,1.39,0.68,2.05,1.84,0.78,0.47,1.0,-8,-2,-11,0.91,7247,100,87,31,92,1441,598.0,547,455,60,120.0,354,1,390,543,209,0,0,600,17344,3472,591,-5.59,,,,,,,,,,,,
64844,1564323230699,1,2.26,1.39,0.67,2.05,1.84,0.82,0.47,1.01,-7,-3,-9,0.94,7080,100,87,31,92,1383,594.0,532,456,60,122.0,354,1,377,536,209,0,0,595,-13043,208,587,-5.59,44.681324,10.016946,56.89,177.9,0,0.0,-1,0.0,0.0,0,0.37,1.0807
64864,1564323230719,1,2.26,1.39,0.67,2.05,1.84,0.81,0.52,0.9,-6,-5,-10,0.96,7129,100,87,31,92,1321,593.0,521,460,60,120.0,354,1,381,538,209,0,0,589,-16179,-4035,589,-5.59,,,,,,,,,,,,
64884,1564323230739,2,2.26,1.39,0.67,2.04,1.84,0.71,0.49,0.85,-5,-7,-10,0.87,7603,100,87,31,92,1255,591.0,532,461,60,120.0,255,1,417,559,151,0,0,575,6273,774,591,-5.59,,,,,,,,,,,,
64904,1564323230759,1,2.26,1.4,0.67,2.05,1.84,0.8,0.42,0.83,-5,-7,-10,0.9,8278,100,87,31,90,1222,593.0,560,462,60,121.0,255,1,443,610,151,0,0,571,3472,243,589,-5.59,,,,,,,,,,,,
64924,1564323230779,2,2.27,1.4,0.67,2.05,1.84,0.87,0.26,0.83,-6,-4,-10,0.9,9057,100,87,31,87,1222,594.0,603,459,60,120.0,255,1,418,599,151,0,0,588,-13043,-12040,591,-5.59,,,,,,,,,,,,
64944,1564323230799,1,2.25,1.4,0.67,2.06,1.85,0.69,0.37,0.72,-5,0,-8,0.78,9755,100,87,31,86,1251,595.0,633,458,60,120.0,255,1,407,594,151,0,0,596,-16179,2048,589,-5.59,44.681309,10.01694,58.15,177.9,0,0.0,-1,0.0,0.0,0,0.37,1.0824
64964,1564323230819,1,2.26,1.4,0.67,2.06,1.85,0.63,0.44,0.78,-6,5,-7,0.77,10059,100,87,31,85,1317,598.0,642,459,60,120.0,255,1,399,582,151,0,0,636,243,-14655,593,-5.59,,,,,,,,,,,,
64984,1564323230839,1,2.25,1.4,0.68,2.06,1.84,0.64,0.36,0.9,-6,5,-9,0.74,10059,100,87,31,86,1361,607.0,636,460,60,120.0,370,1,400,582,222,0,0,713,19621,-2356,603,-5.59,,,,,,,,,,,,
65004,1564323230859,2,2.26,1.39,0.67,2.06,1.85,0.62,0.39,0.75,-6,7,-8,0.73,688,100,87,31,89,1379,614.0,604,462,60,120.0,370,1,90,194,222,0,0,626,16529,3403,608,-5.59,,,,,,,,,,,,
65024,1564323230879,1,2.25,1.4,0.67,2.05,1.84,0.71,0.41,0.74,-6,6,-8,0.82,7861,100,87,31,90,1382,610.0,575,455,60,119.0,370,1,439,569,222,0,0,611,-3446,5344,603,-5.59,,,,,,,,,,,,
65044,1564323230899,0,2.25,1.39,0.66,2.04,1.83,0.8,0.43,0.75,-6,2,-7,0.91,7731,100,87,31,90,1335,608.0,562,459,60,121.0,370,1,429,564,222,0,0,602,19621,3472,599,-5.59,44.681294,10.016934,58.15,177.9,0,0.0,-1,0.0,0.0,0,0.38,1.0841
65064,1564323230919,3,2.26,1.39,0.66,2.04,1.84,0.69,0.45,0.69,-5,1,-7,0.82,8252,100,87,31,90,1304,607.0,563,459,60,120.0,370,1,443,596,222,0,0,599,19621,-768,600,181.28,,,,,,,,,,,,
65084,1564323230939,3,2.26,1.39,0.66,2.04,1.84,0.77,0.48,0.69,-5,-1,-7,0.91,8827,100,87,31,88,1304,603.0,596,463,60,121.0,322,1,424,611,194,0,0,601,-7939,5344,601,-5.59,,,,,,,,,,,,
65104,1564323230959,1,2.27,1.4,0.66,2.04,1.84,0.77,0.59,0.69,-4,-1,-6,0.97,9300,100,87,31,86,1313,609.0,625,463,60,120.0,322,1,418,588,194,0,0,622,-3446,-16046,603,-5.59,,,,,,,,,,,,
65124,1564323230979,0,2.26,1.4,0.66,2.05,1.84,0.66,0.67,0.79,-4,3,-7,0.94,9337,100,87,31,85,1361,615.0,635,469,60,120.0,322,1,418,576,194,0,0,687,26688,11576,612,-5.59,,,,,,,,,,,,
65144,1564323230991,2,2.26,1.4,0.66,2.05,1.84,0.7,0.66,0.9,-4,3,-6,0.97,9337,100,87,31,87,1405,624.0,620,465,60,120.0,322,1,418,599,194,0,0,651,-16883,-26380,616,-5.59,44.681282,10.01693,59.34,177.9,0,0.0,-1,0.0,0.0,0,0.38,1.0857
65164,1564323231011,1,2.25,1.4,0.66,2.06,1.84,0.6,0.7,0.8,-3,4,-6,0.92,9337,100,86,31,90,1440,627.0,601,463,60,120.0,322,1,419,560,194,0,0,630,-1346,20993,620,-5.59,,,,,,,,,,,,
65184,1564323231031,0,2.24,1.4,0.66,2.06,1.84,0.6,0.68,0.73,-3,4,-7,0.91,7716,100,86,31,91,1470,621.0,579,457,60,120.0,362,1,426,488,224,0,0,623,3395,20993,615,-5.59,,,,,,,,,,,,
65204,1564323231051,-2,2.25,1.4,0.66,2.05,1.84,0.65,0.59,0.69,-4,3,-7,0.88,7665,100,87,31,91,1459,621.0,556,457,60,121.0,362,1,422,561,224,0,0,618,-18357,3403,613,-5.59,,,,,,,,,,,,
65224,1564323231071,1,2.23,1.4,0.66,2.04,1.84,0.71,0.5,0.75,-5,0,-7,0.86,7809,100,87,31,91,1450,619.0,556,456,60,121.0,362,1,434,568,224,0,0,616,30721,-3446,610,-5.59,,,,,,,,,,,,
65244,1564323231099,2,2.24,1.4,0.65,2.06,1.83,0.66,0.44,0.71,-5,0,-7,0.79,8348,100,86,31,90,1450,621.0,571,463,60,120.0,362,1,441,615,224,0,0,616,-18357,3403,611,-5.59,44.681263,10.016924,60.09,177.9,0,0.0,-1,0.0,0.0,0,0.38,1.0874
65264,1564323231119,1,2.24,1.39,0.66,2.05,1.84,0.55,0.6,0.72,-4,-1,-7,0.81,9049,100,86,31,87,1450,621.0,593,459,60,120.0,362,1,418,599,224,0,0,616,3395,-30139,614,-5.59,,,,,,,,,,,,
65284,1564323231139,1,2.25,1.4,0.66,2.06,1.83,0.53,0.41,0.78,-5,-1,-8,0.66,9704,100,86,31,86,1463,626.0,627,462,60,120.0,343,1,410,593,210,0,0,615,3395,1010,610,-5.59,,,,,,,,,,,,
65304,1564323231159,1,2.24,1.4,0.65,2.05,1.84,0.62,0.38,0.85,-6,3,-8,0.73,10129,100,86,31,85,1475,626.0,638,462,60,120.0,343,1,404,582,210,0,0,643,506,11566,614,-5.59,,,,,,,,,,,,
65324,1564323231179,3,2.25,1.41,0.66,2.07,1.85,0.48,0.27,0.96,-7,5,-10,0.55,10129,100,86,31,86,1487,634.0,632,461,60,120.0,343,1,405,582,210,0,0,697,-2836,6790,621,-5.59,,,,,,,,,,,,
65344,1564323231199,3,2.25,1.41,0.66,2.07,1.85,0.59,0.38,0.99,-6,7,-10,0.7,10129,100,86,31,89,1498,640.0,613,462,60,120.0,343,1,407,639,210,0,0,651,24,966,625,-5.59,44.681252,10.016919,60.64,177.9,0,0.0,-1,0.0,0.0,0,0.38,1.0891
65364,1564323231219,3,2.25,1.4,0.65,2.05,1.84,0.47,0.48,0.96,-5,5,-11,0.67,10129,100,86,31,91,1498,639.0,590,463,60,119.0,343,1,408,609,210,0,0,635,6208,3395,626,-5.59,,,,,,,,,,,,
65384,1564323231239,3,2.25,1.4,0.65,2.06,1.83,0.5,0.47,0.9,-5,4,-11,0.68,7662,100,86,31,92,1498,631.0,571,470,60,120.0,6,1,421,562,4,0,0,630,771,-16046,627,-5.59,,,,,,,,,,,,
65404,1564323231259,-0,2.25,1.4,0.65,2.04,1.83,0.6,0.55,0.8,-5,2,-10,0.81,7470,100,87,31,91,1481,629.0,555,456,60,122.0,6,1,408,553,4,0,0,628,-14655,19320,620,-5.59,,,,,,,,,,,,
65424,1564323231279,2,2.25,1.4,0.65,2.05,1.84,0.65,0.54,0.75,-5,-0,-10,0.85,7703,100,86,31,91,1462,626.0,550,461,60,120.0,6,1,425,564,4,0,0,613,20993,-768,618,-5.59,,,,,,,,,,,,
65444,1564323231298,4,2.25,1.4,0.66,2.06,1.84,0.55,0.51,0.64,-4,1,-10,0.75,8612,100,86,31,89,1444,625.0,567,460,60,119.0,6,1,431,613,4,0,0,604,-16883,-32504,617,181.28,44.681236,10.016914,61.18,177.8,0,0.0,-1,0.0,0.0,0,0.38,1.0907
65464,1564323231318,1,2.25,1.41,0.66,2.06,1.85,0.5,0.57,0.62,-4,2,-10,0.76,9204,100,86,31,86,1425,625.0,600,465,60,121.0,6,1,418,599,4,0,0,621,-1346,-30139,617,-5.59,,,,,,,,,,,,
65484,1564323231338,2,2.25,1.41,0.66,2.07,1.85,0.63,0.49,0.61,-4,3,-9,0.8,9978,100,86,31,85,1424,630.0,635,463,60,120.0,348,1,397,582,216,0,0,622,966,19304,620,-5.59,,,,,,,,,,,,
65504,1564323231358,2,2.25,1.41,0.66,2.08,1.84,0.62,0.42,0.74,-5,1,-8,0.75,10341,100,86,31,84,1424,630.0,642,458,60,120.0,348,1,418,564,216,0,0,654,966,2024,622,-5.59,,,,,,,,,,,,
65524,1564323231378,0,2.26,1.41,0.66,2.07,1.85,0.59,0.42,0.84,-6,5,-7,0.73,10336,100,86,31,85,1437,642.0,642,464,60,120.0,348,1,419,582,216,0,0,725,-2830,-2826,630,-5.59,,,,,,,,,,,,
65544,1564323231398,2,2.27,1.41,0.66,2.07,1.85,0.7,0.58,0.82,-5,5,-7,0.91,10336,100,86,31,87,1455,645.0,627,462,60,120.0,348,1,421,620,216,0,0,675,11566,3543,634,-5.59,44.681221,10.016911,61.09,177.8,0,0.0,-1,0.0,0.0,0,0.38,1.0924
65564,1564323231418,-1,2.26,1.4,0.65,2.08,1.85,0.7,0.55,0.85,-5,4,-7,0.89,8263,100,86,31,88,1425,648.0,612,451,60,121.0,348,1,440,594,216,0,0,642,479,244,635,-5.59,,,,,,,,,,,,
65584,1564323231438,1,2.26,1.4,0.65,2.07,1.84,0.83,0.46,0.86,-5,-0,-8,0.95,7978,100,86,31,89,1379,640.0,590,450,60,120.0,292,1,446,564,186,0,0,642,6208,966,633,181.28,,,,,,,,,,,,
65604,1564323231458,2,2.28,1.4,0.66,2.06,1.85,0.82,0.44,0.83,-5,-2,-7,0.93,7898,100,86,31,90,1319,637.0,584,462,60,120.0,292,1,442,495,186,0,0,631,-2580,-5120,632,-5.59,,,,,,,,,,,,
65624,1564323231478,-1,2.27,1.41,0.65,2.06,1.84,0.81,0.38,0.83,-4,-4,-8,0.89,8071,100,86,31,90,1253,635.0,578,460,60,119.0,292,1,449,582,186,0,0,637,-4876,-16046,631,-5.59,,,,,,,,,,,,
65644,1564323231500,-2,2.28,1.41,0.65,2.06,1.85,0.68,0.39,0.84,-3,-3,-7,0.78,8769,100,86,31,88,1235,636.0,590,459,60,121.0,292,1,425,611,186,0,0,632,16599,-16046,634,-5.59,44.681206,10.016906,61.94,177.8,0,0.0,-1,0.0,0.0,0,0.39,1.0941
65664,1564323231520,2,2.28,1.41,0.65,2.06,1.85,0.6,0.31,0.76,-3,-3,-6,0.68,9441,100,86,31,86,1235,638.0,618,463,60,120.0,292,1,418,588,186,0,0,632,16599,966,633,-5.59,,,,,,,,,,,,
65684,1564323231540,-1,2.29,1.41,0.65,2.07,1.84,0.61,0.37,0.82,-2,-1,-7,0.71,9968,100,86,31,85,1267,641.0,643,458,60,120.0,337,1,403,581,214,0,0,640,6208,-16046,636,-5.59,,,,,,,,,,,,
65704,1564323231560,1,2.28,1.41,0.65,2.06,1.84,0.49,0.41,0.79,-2,1,-6,0.64,10290,100,86,31,84,1332,642.0,650,457,60,120.0,337,1,414,564,214,0,0,666,-2830,-3578,636,-5.59,,,,,,,,,,,,
65724,1564323231580,0,2.29,1.42,0.66,2.07,1.86,0.46,0.54,0.85,-1,6,-4,0.71,10290,100,86,31,86,1383,649.0,630,466,60,120.0,337,1,416,601,214,0,0,729,-30207,-2918,647,-5.59,,,,,,,,,,,,
65744,1564323231598,2,2.29,1.4,0.65,2.06,1.85,0.61,0.5,0.8,-2,3,-5,0.79,10290,100,86,31,88,1417,654.0,612,465,60,120.0,337,1,418,639,214,0,0,657,-2830,-388,654,-5.59,44.68119,10.016902,61.86,177.8,0,0.0,-1,0.0,0.0,0,0.39,1.0957
65764,1564323231618,2,2.29,1.41,0.65,2.07,1.85,0.65,0.46,0.75,-1,3,-2,0.8,8009,100,86,31,90,1420,653.0,600,462,60,119.0,337,1,450,575,214,0,0,649,-3488,-6006,652,-5.59,,,,,,,,,,,,
65784,1564323231638,0,2.28,1.41,0.64,2.07,1.84,0.67,0.47,0.79,-1,2,-2,0.81,7822,100,86,31,91,1389,649.0,587,465,60,120.0,265,1,435,568,172,0,0,648,4909,11566,649,-5.59,,,,,,,,,,,,
65804,1564323231658,2,2.28,1.41,0.65,2.07,1.85,0.76,0.42,0.78,-1,-1,-1,0.87,8191,100,86,31,90,1374,646.0,572,460,60,121.0,265,1,445,596,172,0,0,645,4909,4909,645,-5.59,,,,,,,,,,,,
65824,1564323231678,1,2.28,1.41,0.65,2.07,1.84,0.8,0.24,0.76,-1,-3,-4,0.84,8877,100,86,31,88,1374,646.0,603,461,60,120.0,265,1,422,611,172,0,0,641,244,-3584,644,-5.59,,,,,,,,,,,,
65844,1564323231700,2,2.29,1.4,0.65,2.07,1.85,0.85,0.27,0.67,-1,-3,-3,0.89,9561,100,86,31,86,1382,650.0,630,457,60,121.0,265,1,416,589,172,0,0,638,-6006,244,647,-5.59,44.681175,10.016898,63.18,177.8,0,0.0,-1,0.0,0.0,0,0.39,1.0974
65864,1564323231720,2,2.28,1.41,0.65,2.08,1.86,0.83,0.13,0.77,-1,-6,-0,0.84,10140,100,86,31,85,1413,648.0,642,460,60,120.0,265,1,405,582,172,0,0,646,479,-30207,647,-5.59,,,,,,,,,,,,
65884,1564323231740,2,2.28,1.42,0.65,2.08,1.85,0.82,0.04,0.73,-1,0,-1,0.82,10422,100,86,31,84,1444,652.0,647,453,60,120.0,343,1,424,564,222,0,0,677,-6006,-388,648,-5.59,,,,,,,,,,,,
65904,1564323231760,1,2.29,1.42,0.65,2.07,1.85,0.73,-0.08,0.76,-1,1,-3,0.73,10422,100,86,31,85,1475,659.0,642,466,60,120.0,343,1,425,582,222,0,0,762,-26380,-2574,658,-5.59,,,,,,,,,,,,
65924,1564323231780,3,2.27,1.41,0.65,2.08,1.85,0.78,0.1,0.7,-1,2,-1,0.78,10422,100,86,31,87,1498,668.0,621,466,60,120.0,343,1,427,620,222,0,0,683,1549,-26892,668,-5.59,,,,,,,,,,,,
65944,1564323231800,0,2.27,1.41,0.65,2.07,1.85,0.88,0.11,0.72,-1,-0,-2,0.89,8423,100,86,31,88,1498,666.0,603,465,60,119.0,343,1,436,612,222,0,0,665,-10348,-27404,666,-5.59,44.68116,10.016894,63.63,177.7,0,0.0,-1,0.0,0.0,0,0.39,1.0991
65964,1564323231820,2,2.27,1.41,0.64,2.07,1.85,0.78,0.11,0.73,-1,-1,-2,0.79,8374,100,86,31,89,1492,662.0,597,456,60,120.0,343,1,438,607,222,0,0,664,-3038,8958,659,-5.59,,,,,,,,,,,,
65984,1564323231840,0,2.27,1.41,0.65,2.06,1.85,0.84,0.14,0.65,-1,-4,-1,0.86,8514,100,86,31,88,1466,659.0,588,460,60,120.0,281,1,433,611,185,0,0,657,-26380,-6006,654,-5.59,,,,,,,,,,,,
66004,1564323231860,3,2.27,1.41,0.65,2.06,1.86,0.94,0.1,0.66,-1,-5,-3,0.95,9010,100,86,31,86,1439,658.0,612,461,60,121.0,281,1,418,599,185,0,0,656,-3038,-30207,654,-5.59,,,,,,,,,,,,
66024,1564323231880,1,2.27,1.41,0.65,2.06,1.85,0.93,0.14,0.59,-1,-6,-4,0.94,9650,100,86,31,85,1413,662.0,632,465,60,120.0,281,1,412,591,185,0,0,655,-2826,-3038,655,-5.59,,,,,,,,,,,,
66044,1564323231900,0,2.27,1.41,0.65,2.07,1.85,0.89,0.18,0.55,-2,-8,-1,0.91,10251,100,86,31,84,1393,662.0,637,461,60,120.0,281,1,412,564,185,0,0,670,-2826,1549,656,-5.59,44.681145,10.016891,64.94,177.7,0,0.0,-1,0.0,0.0,0,0.39,1.1007
66064,1564323231920,1,2.26,1.41,0.65,2.07,1.85,0.91,0.34,0.69,-2,-5,-1,0.97,10341,100,86,31,84,1393,666.0,650,467,60,119.0,281,1,418,564,185,0,0,732,1549,-4091,664,-5.59,,,,,,,,,,,,
66084,1564323231940,2,2.27,1.42,0.65,2.06,1.86,0.94,0.29,0.82,-2,-5,-3,0.98,10341,100,86,31,86,1393,675.0,638,465,60,120.0,343,1,420,601,228,0,0,722,-26380,-2314,668,-5.59,,,,,,,,,,,,
66104,1564323231960,1,2.27,1.41,0.64,2.07,1.84,1.04,0.27,0.66,-2,-6,-2,1.07,8708,100,86,31,88,1419,679.0,625,458,60,121.0,343,1,427,611,228,0,0,679,-2345,-26380,672,-5.59,,,,,,,,,,,,
66124,1564323231980,-0,2.27,1.4,0.64,2.06,1.85,1.06,0.25,0.61,-2,-6,-1,1.09,8457,100,86,31,89,1439,674.0,616,461,60,120.0,343,1,436,616,228,0,0,682,-10344,-3038,670,-5.59,,,,,,,,,,,,
66144,1564323231992,2,2.28,1.41,0.64,2.07,1.84,0.97,0.26,0.64,-2,-7,-3,1.0,8434,100,86,31,88,1413,667.0,603,457,60,119.0,343,1,435,529,228,0,0,668,1549,-2345,667,-5.59,44.681126,10.016887,64.94,177.7,0,0.0,-1,0.0,0.0,0,0.39,1.1024
66164,1564323232012,-1,2.28,1.41,0.64,2.07,1.84,0.91,0.36,0.61,-0,-8,-2,0.98,8962,100,86,31,87,1387,668.0,601,461,60,120.0,343,1,419,599,228,0,0,665,-2830,-3038,662,-5.59,,,,,,,,,,,,
66184,1564323232032,1,2.26,1.41,0.64,2.07,1.84,0.87,0.27,0.57,-0,-9,-2,0.91,9684,100,86,31,86,1335,668.0,636,456,60,120.0,315,1,410,593,210,0,0,664,-2830,-2830,665,-5.59,,,,,,,,,,,,
66204,1564323232052,1,2.27,1.4,0.64,2.08,1.85,0.82,0.17,0.68,-1,-7,-4,0.84,10257,100,86,31,85,1282,672.0,642,462,60,120.0,315,1,423,564,210,0,0,670,-3038,1549,668,-5.59,,,,,,,,,,,,
66224,1564323232072,-1,2.28,1.41,0.64,2.07,1.84,0.69,0.13,0.81,-2,-5,-4,0.71,10480,100,86,31,84,1282,675.0,652,469,60,120.0,315,1,428,564,210,0,0,714,-2826,-13072,670,-5.59,,,,,,,,,,,,
66244,1564323232100,2,2.27,1.42,0.64,2.07,1.84,0.66,0.15,0.87,-2,-2,-4,0.67,10480,100,86,31,87,1282,681.0,642,460,60,120.0,315,1,431,601,210,0,0,724,-26562,-2826,678,-5.59,44.68111,10.016883,66.18,177.7,0,0.0,-1,0.0,0.0,0,0.4,1.1041
66264,1564323232120,0,2.27,1.41,0.64,2.07,1.84,0.56,0.1,0.82,-2,-1,-4,0.57,562,100,86,31,88,1327,683.0,623,461,60,119.0,315,1,90,271,210,0,0,685,-10344,16118,683,-5.59,,,,,,,,,,,,
66284,1564323232140,2,2.27,1.41,0.64,2.06,1.85,0.65,0.1,0.79,-2,-2,-3,0.66,8484,100,86,31,88,1380,681.0,619,462,60,120.0,289,1,434,535,198,0,0,679,16118,16599,681,-5.59,,,,,,,,,,,,
66304,1564323232160,1,2.28,1.41,0.64,2.07,1.85,0.76,0.06,0.83,-2,-4,-3,0.76,8457,100,86,31,88,1395,679.0,606,458,60,120.0,289,1,435,616,198,0,0,677,-2345,-2345,677,-5.59,,,,,,,,,,,,
66324,1564323232180,1,2.28,1.42,0.64,2.08,1.85,0.66,0.02,0.76,-2,-4,-3,0.66,8696,100,86,31,88,1407,677.0,610,460,60,121.0,289,1,427,611,198,0,0,674,-26892,-26380,676,-5.59,,,,,,,,,,,,
66344,1564323232200,2,2.27,1.42,0.64,2.07,1.84,0.57,-0.04,0.67,-2,-3,-4,0.58,9365,100,86,31,86,1381,677.0,626,458,60,121.0,289,1,418,588,198,0,0,675,-26892,-3038,672,-5.59,44.681095,10.016879,66.48,177.7,0,0.0,-1,0.0,0.0,0,0.4,1.1057
66364,1564323232220,1,2.27,1.41,0.64,2.06,1.85,0.53,0.1,0.6,-2,-2,-4,0.54,9904,100,86,31,85,1341,678.0,636,467,60,120.0,289,1,397,580,198,0,0,673,-10346,3543,677,-5.59,,,,,,,,,,,,
66384,1564323232240,1,2.28,1.41,0.64,2.07,1.85,0.45,0.26,0.6,-2,-4,-2,0.52,10439,100,86,31,84,1331,681.0,648,464,60,120.0,324,1,425,564,220,0,0,676,-26562,-388,679,-5.59,,,,,,,,,,,,
66404,1564323232260,2,2.28,1.41,0.64,2.07,1.85,0.48,0.41,0.7,-1,2,-3,0.63,10769,100,86,31,84,1331,683.0,658,455,60,120.0,324,1,436,564,220,0,0,710,3543,15647,680,-5.59,,,,,,,,,,,,
66424,1564323232280,2,2.28,1.41,0.64,2.07,1.85,0.57,0.39,0.82,-2,2,-3,0.69,10769,100,86,31,85,1359,687.0,648,462,60,120.0,324,1,437,582,220,0,0,785,6208,-31066,684,-5.59,,,,,,,,,,,,
66444,1564323232299,-1,2.29,1.41,0.64,2.07,1.85,0.64,0.36,0.73,-2,1,-2,0.74,765,100,86,31,87,1399,695.0,631,467,60,120.0,324,1,90,270,220,0,0,702,-10448,15647,691,-5.59,44.68108,10.016876,66.88,177.7,0,0.0,-1,0.0,0.0,0,0.4,1.1074
66464,1564323232319,3,2.29,1.42,0.63,2.08,1.84,0.76,0.32,0.74,-1,1,-2,0.83,8815,100,86,31,88,1396,690.0,628,464,60,120.0,324,1,424,611,220,0,0,693,14342,-2830,690,-5.59,,,,,,,,,,,,
66484,1564323232339,3,2.28,1.41,0.64,2.07,1.85,0.88,0.3,0.75,-1,-1,-2,0.94,8749,100,86,31,88,1377,687.0,627,462,60,121.0,296,1,426,611,204,0,0,686,6208,-10399,687,-5.59,,,,,,,,,,,,
66504,1564323232359,2,2.29,1.41,0.64,2.07,1.85,0.99,0.23,0.72,-1,-3,-2,1.02,9088,100,86,31,87,1338,685.0,627,460,60,121.0,296,1,418,599,204,0,0,685,24845,-10346,685,-5.59,,,,,,,,,,,,
66524,1564323232379,2,2.28,1.41,0.63,2.08,1.85,0.94,0.22,0.69,-0,-3,-3,0.96,9821,100,86,31,85,1279,686.0,636,461,60,119.0,296,1,404,579,204,0,0,681,6208,6208,685,-5.59,,,,,,,,,,,,
66544,1564323232399,2,2.29,1.41,0.64,2.07,1.85,0.93,0.32,0.68,-0,-4,-1,0.99,10330,100,86,31,84,1260,687.0,645,464,60,120.0,296,1,421,564,204,0,0,681,6208,6208,688,-5.59,44.681065,10.016873,67.67,177.6,0,0.0,-1,0.0,0.0,0,0.4,1.1091
66564,1564323232419,2,2.28,1.42,0.64,2.08,1.85,0.82,0.44,0.81,0,-3,-2,0.93,10527,100,86,31,84,1260,694.0,652,472,60,120.0,296,1,430,564,204,0,0,726,12333,16118,691,-5.59,,,,,,,,,,,,
66584,1564323232439,2,2.28,1.42,0.63,2.07,1.85,0.82,0.5,0.88,0,-1,-2,0.95,10527,100,86,31,86,1288,697.0,642,461,60,120.0,335,1,432,601,232,0,0,766,24,-3344,696,-5.59,,,,,,,,,,,,
66604,1564323232459,-0,2.29,1.42,0.63,2.08,1.85,0.78,0.34,0.79,-1,-1,-2,0.86,9053,100,86,31,87,1347,702.0,631,461,60,120.0,335,1,418,599,232,0,0,694,8010,24,700,-5.59,,,,,,,,,,,,
66624,1564323232479,1,2.29,1.41,0.64,2.07,1.85,0.77,0.27,0.78,-1,-1,-2,0.82,8915,100,86,31,88,1380,699.0,617,450,60,120.0,335,1,421,611,232,0,0,696,-3584,8010,697,-5.59,,,,,,,,,,,,
66644,1564323232499,1,2.29,1.41,0.64,2.08,1.86,0.9,0.16,0.76,-1,0,-2,0.91,8937,100,86,31,88,1388,699.0,621,456,60,119.0,335,1,420,599,232,0,0,694,16599,11576,699,-5.59,44.681046,10.016869,68.15,177.6,0,0.0,-1,0.0,0.0,0,0.4,1.1107
66664,1564323232519,3,2.29,1.42,0.63,2.08,1.85,0.94,0.06,0.74,-1,-2,-1,0.94,9455,100,86,31,86,1371,692.0,627,456,60,120.0,335,1,418,588,232,0,0,693,14342,-10448,694,-5.59,,,,,,,,,,,,
66684,1564323232539,2,2.29,1.42,0.64,2.07,1.86,0.93,0.07,0.79,-1,-3,-2,0.94,10086,100,86,31,85,1319,692.0,638,464,60,121.0,317,1,406,582,220,0,0,688,14342,11576,690,-5.59,,,,,,,,,,,,
66704,1564323232559,1,2.3,1.42,0.63,2.09,1.86,0.93,-0.12,0.73,-1,-1,-3,0.93,10659,100,86,31,84,1292,695.0,651,462,60,120.0,317,1,436,564,220,0,0,699,-10448,-3584,690,-5.59,,,,,,,,,,,,
66724,1564323232579,1,2.29,1.42,0.64,2.08,1.85,0.96,-0.11,0.73,-1,-1,-2,0.96,10732,100,86,31,85,1292,701.0,646,466,60,120.0,317,1,437,508,220,0,0,767,19188,1037,701,-5.59,,,,,,,,,,,,
66744,1564323232599,1,2.3,1.42,0.64,2.08,1.85,0.93,-0.12,0.82,-1,2,-3,0.94,10732,100,86,31,87,1305,706.0,643,460,60,120.0,317,1,439,601,220,0,0,741,-30694,3462,704,-5.59,44.681026,10.016866,68.69,177.6,0,0.0,-1,0.0,0.0,0,0.41,1.1124
66764,1564323232619,-0,2.3,1.42,0.64,2.08,1.85,0.96,-0.01,0.71,-1,1,-4,0.96,9040,100,86,31,88,1356,709.0,633,457,60,121.0,317,1,418,611,220,0,0,706,-12152,6658,709,-5.59,,,,,,,,,,,,
66784,1564323232639,1,2.3,1.42,0.64,2.08,1.86,1.07,0.02,0.68,-1,-1,-3,1.07,8928,100,86,31,88,1395,704.0,623,461,60,120.0,295,1,420,611,208,0,0,701,11069,6658,704,-5.59,,,,,,,,,,,,
66804,1564323232659,-0,2.3,1.42,0.63,2.08,1.86,1.13,0.04,0.7,-1,-2,-5,1.13,8782,100,86,31,88,1405,706.0,617,451,60,120.0,295,1,425,611,208,0,0,699,6208,24,706,-5.59,,,,,,,,,,,,
66824,1564323232679,1,2.29,1.42,0.64,2.08,1.86,1.18,-0.04,0.69,-1,-2,-3,1.18,8765,100,86,31,88,1404,705.0,613,462,60,120.0,295,1,425,611,208,0,0,700,-2830,687,705,-5.59,,,,,,,,,,,,
66844,1564323232699,1,2.31,1.41,0.64,2.08,1.86,1.21,-0.13,0.63,-0,-3,-3,1.22,8903,100,86,31,87,1364,701.0,618,455,60,120.0,295,1,421,599,208,0,0,689,16599,24845,701,-5.59,44.681011,10.016863,68.99,177.6,0,0.0,-1,0.0,0.0,0,0.41,1.1141
66864,1564323232719,2,2.3,1.41,0.63,2.07,1.86,1.12,-0.03,0.61,0,-3,-3,1.12,9674,100,86,31,86,1333,697.0,631,456,60,120.0,295,1,411,592,208,0,0,680,16599,-10448,697,-5.59,,,,,,,,,,,,
66884,1564323232739,3,2.3,1.41,0.63,2.08,1.87,1.15,-0.02,0.57,0,-1,-3,1.15,10353,100,86,31,85,1333,698.0,643,465,60,120.0,327,1,420,582,229,0,0,686,24,-2830,698,-5.59,,,,,,,,,,,,
66904,1564323232759,2,2.31,1.41,0.64,2.08,1.86,1.15,0.18,0.52,-0,-0,-2,1.17,10863,100,86,31,84,1335,701.0,649,461,60,119.0,327,1,439,564,229,0,0,687,-2830,-10448,701,-5.59,,,,,,,,,,,,
66924,1564323232779,0,2.32,1.42,0.64,2.08,1.87,1.07,-0.03,0.67,0,-3,-0,1.07,11194,100,86,31,83,1376,701.0,657,465,60,120.0,327,1,442,545,229,0,0,726,24,-3344,703,-5.59,,,,,,,,,,,,
66944,1564323232799,1,2.31,1.42,0.64,2.08,1.86,1.01,-0.17,0.74,0,1,-0,1.02,11194,100,86,31,85,1409,707.0,650,463,60,120.0,327,1,443,582,229,0,0,803,687,-2830,706,-5.59,44.680992,10.016858,69.15,177.6,0,0.0,-1,0.0,0.0,0,0.41,1.1157
66964,1564323232819,0,2.31,1.42,0.63,2.08,1.86,1.07,-0.3,0.78,0,3,-1,1.11,11194,100,86,31,87,1407,716.0,640,459,60,120.0,327,1,444,620,229,0,0,735,-3888,-2314,717,-5.59,,,,,,,,,,,,
66984,1564323232839,-0,2.3,1.42,0.63,2.08,1.86,1.06,-0.37,0.85,1,2,2,1.12,8975,100,86,31,88,1405,716.0,630,458,60,119.0,367,1,419,611,263,0,0,708,-30694,-23490,716,-5.59,,,,,,,,,,,,
67004,1564323232859,-0,2.31,1.42,0.63,2.08,1.87,1.02,-0.43,0.87,1,3,2,1.1,8794,100,86,31,88,1364,709.0,615,452,60,122.0,367,1,425,611,263,0,0,705,6658,-2830,709,-5.59,,,,,,,,,,,,
67024,1564323232879,2,2.31,1.42,0.64,2.07,1.86,0.9,-0.41,0.8,2,2,2,0.99,8604,100,86,31,88,1322,706.0,616,459,60,121.0,367,1,431,611,263,0,0,702,-2830,-3584,706,-5.59,,,,,,,,,,,,
67044,1564323232899,3,2.31,1.42,0.63,2.08,1.86,0.74,-0.28,0.72,3,1,3,0.79,8988,100,86,31,87,1322,703.0,614,460,60,121.0,367,1,419,611,263,0,0,691,8010,19188,706,-5.59,44.680977,10.016854,69.19,177.6,0,0.0,-1,0.0,0.0,0,0.41,1.1174
67064,1564323232919,3,2.3,1.42,0.64,2.08,1.86,0.8,-0.26,0.62,2,-1,3,0.84,9863,100,86,31,85,1322,704.0,629,458,60,120.0,367,1,402,506,263,0,0,696,15647,-2830,704,-5.59,,,,,,,,,,,,
67084,1564323232939,1,2.31,1.42,0.64,2.08,1.86,0.8,-0.44,0.75,2,-4,3,0.91,10474,100,86,31,84,1362,705.0,642,462,60,120.0,315,1,428,564,223,0,0,691,8010,-3584,707,-5.59,,,,,,,,,,,,
67104,1564323232959,3,2.31,1.42,0.64,2.08,1.87,0.74,-0.5,0.69,1,1,2,0.9,11003,100,86,31,83,1405,706.0,651,457,60,120.0,315,1,442,564,223,0,0,698,15647,-20693,706,-5.59,,,,,,,,,,,,
67124,1564323232979,3,2.3,1.43,0.64,2.08,1.86,0.68,-0.45,0.67,2,6,3,0.82,11241,100,86,31,83,1446,709.0,665,470,60,120.0,315,1,442,545,223,0,0,729,-12152,-2314,711,-5.59,,,,,,,,,,,,
67144,1564323232991,2,2.3,1.43,0.64,2.07,1.87,0.54,-0.55,0.8,2,5,3,0.77,11241,96,86,31,85,1488,720.0,650,463,60,120.0,315,1,443,582,223,0,0,807,-3888,-10216,720,-5.59,44.680962,10.01685,69.88,177.6,0,0.0,-1,0.0,0.0,0,0.41,1.1191
67164,1564323233011,3,2.31,1.41,0.63,2.08,1.87,0.54,-0.5,0.67,3,8,5,0.73,11241,57,86,31,82,1498,725.0,636,462,60,120.0,315,1,443,523,223,0,0,719,-3450,1524,724,-5.59,,,,,,,,,,,,
67184,1564323233031,1,2.3,1.42,0.63,2.07,1.86,0.52,-0.53,0.63,3,7,5,0.74,8945,26,86,31,70,1498,722.0,626,459,60,120.0,284,1,418,407,206,0,0,717,-2560,-4091,722,-5.59,,,,,,,,,,,,
67204,1564323233051,10,2.3,1.42,0.63,2.08,1.86,0.46,-0.37,0.61,4,2,5,0.59,8794,8,86,31,59,1460,713.0,616,453,60,122.0,284,1,410,335,206,0,0,705,-30694,-388,710,-5.59,,,,,,,,,,,,
67224,1564323233071,10,2.31,1.42,0.63,2.08,1.86,0.44,-0.31,0.51,4,1,5,0.54,9106,0,86,31,49,1418,709.0,623,461,60,120.0,284,1,379,253,206,0,0,703,8010,-3888,709,-5.59,,,,,,,,,,,,
67244,1564323233099,9,2.31,1.42,0.63,2.07,1.86,0.33,-0.24,0.51,4,-2,6,0.41,1821,0,86,31,42,1374,705.0,627,468,60,120.0,284,1,339,220,206,0,0,685,-3584,-3584,705,-5.59,44.680943,10.016847,70.07,177.6,0,0.0,-1,0.0,0.0,0,0.42,1.1207
67264,1564323233119,11,2.31,1.41,0.63,2.08,1.86,0.29,-0.22,0.51,4,-2,5,0.37,8971,0,86,31,37,1330,703.0,624,461,60,120.0,284,1,314,205,206,0,0,669,-3584,6208,703,-5.59,,,,,,,,,,,,
67284,1564323233139,12,2.31,1.42,0.63,2.08,1.87,0.17,-0.15,0.5,5,-4,6,0.23,8997,0,86,31,34,1319,704.0,628,467,60,119.0,95,1,305,117,67,0,0,637,6208,-10344,704,-5.59,,,,,,,,,,,,
67304,1564323233159,9,2.32,1.42,0.63,2.08,1.86,0.18,-0.1,0.51,4,-4,6,0.2,8856,0,86,31,32,1319,703.0,627,460,60,122.0,95,1,300,188,67,0,0,591,-2830,1549,701,-5.59,,,,,,,,,,,,
67324,1564323233179,8,2.31,1.42,0.63,2.08,1.87,0.32,-0.15,0.54,4,-3,6,0.35,8577,0,86,31,31,1346,703.0,643,459,60,118.0,95,1,295,188,67,0,0,571,-2830,-30694,703,-5.59,,,,,,,,,,,,
67344,1564323233201,7,2.31,1.42,0.63,2.09,1.87,0.42,-0.23,0.36,5,2,6,0.48,8363,0,86,31,29,1389,701.0,620,457,60,120.0,95,1,285,180,67,0,0,648,24,-10448,703,-5.59,44.680923,10.016842,70.15,177.6,0,0.0,-1,0.0,0.0,0,0.42,1.1224
67364,1564323233221,6,2.32,1.42,0.63,2.09,1.87,0.57,-0.1,0.39,5,2,7,0.57,8205,0,86,31,29,1368,690.0,615,458,60,119.0,95,1,283,174,67,0,0,1144,16599,26688,690,-5.59,,,,,,,,,,,,
67384,1564323233241,9,2.3,1.43,0.63,2.09,1.87,0.71,-0.07,0.48,5,1,9,0.71,1651,0,86,31,28,1321,686.0,609,457,60,122.0,77,1,150,148,53,0,0,1144,-26562,-10448,686,-5.59,,,,,,,,,,,,
67404,1564323233261,8,2.31,1.42,0.63,2.09,1.87,0.79,-0.13,0.52,4,1,7,0.8,8491,0,86,31,27,1253,683.0,610,461,60,120.0,77,1,278,187,53,0,0,583,-2345,-7939,683,-5.59,,,,,,,,,,,,
67424,1564323233281,9,2.31,1.42,0.63,2.09,1.87,0.92,-0.01,0.42,4,-6,9,0.92,8491,0,86,31,27,1163,675.0,608,457,60,122.0,77,1,278,187,53,0,0,605,-3038,-26380,675,181.28,,,,,,,,,,,,
67444,1564323233300,7,2.31,1.42,0.62,2.09,1.87,0.95,-0.07,0.46,4,-7,6,0.95,8538,0,86,31,27,1073,669.0,612,460,60,121.0,77,1,278,188,53,0,0,557,-2830,1,668,-5.59,44.680908,10.016837,68.46,177.6,0,0.0,-1,0.0,0.0,0,0.42,1.1241
67464,1564323233320,5,2.32,1.42,0.62,2.08,1.87,0.87,-0.08,0.51,5,-7,7,0.87,8716,0,86,31,26,984,668.0,621,461,60,118.0,77,1,274,188,53,0,0,584,-10348,1,668,181.28,,,,,,,,,,,,
67484,1564323233340,4,2.32,1.42,0.63,2.08,1.87,0.89,0.02,0.43,5,-4,5,0.89,8737,0,86,31,25,936,664.0,613,459,60,122.0,92,1,270,188,62,0,0,503,-2826,-9072,664,-5.59,,,,,,,,,,,,
67504,1564323233360,7,2.32,1.41,0.63,2.07,1.87,1.01,0.02,0.39,4,-3,3,1.01,8737,0,86,31,25,938,662.0,626,458,60,121.0,92,1,270,188,62,0,0,495,8958,-2934,662,-5.59,,,,,,,,,,,,
67524,1564323233380,7,2.31,1.42,0.62,2.08,1.87,1.11,0.03,0.21,4,-4,4,1.11,1751,0,86,31,25,941,655.0,621,462,60,122.0,92,1,150,140,62,0,0,479,2024,14504,655,-5.59,,,,,,,,,,,,
67544,1564323233398,6,2.31,1.41,0.63,2.07,1.87,1.12,-0.07,0.26,4,-2,4,1.12,8869,0,86,31,25,947,647.0,627,458,60,122.0,92,1,270,188,62,0,0,490,4909,10408,645,-5.59,44.680889,10.016832,66.36,177.6,0,0.0,-1,0.0,0.0,0,0.42,1.1257
67564,1564323233418,4,2.3,1.42,0.63,2.07,1.86,1.1,-0.08,0.32,4,-3,4,1.11,981,0,86,31,24,953,644.0,623,457,60,122.0,92,1,128,181,62,0,0,549,24,-32248,644,-5.59,,,,,,,,,,,,
67584,1564323233438,6,2.29,1.42,0.63,2.06,1.86,1.03,-0.1,0.28,5,-2,4,1.04,8869,0,86,31,24,958,639.0,628,460,60,122.0,97,1,270,181,63,0,0,536,-4876,-30064,639,-5.59,,,,,,,,,,,,
67604,1564323233458,3,2.29,1.42,0.62,2.06,1.86,0.93,-0.12,0.21,5,-1,4,0.94,8967,0,86,31,24,963,636.0,631,462,60,121.0,97,1,270,181,63,0,0,534,-14655,-3210,636,-5.59,,,,,,,,,,,,
67624,1564323233478,6,2.29,1.41,0.62,2.07,1.86,0.87,-0.18,0.21,4,-0,4,0.89,8967,0,86,31,24,976,629.0,622,456,60,122.0,97,1,270,181,63,0,0,541,506,-28648,629,-5.59,,,,,,,,,,,,
67644,1564323233500,3,2.3,1.41,0.63,2.06,1.87,0.82,-0.17,0.2,4,-1,5,0.84,8979,0,86,31,24,990,623.0,626,460,60,120.0,97,1,270,181,63,0,0,563,17336,-32248,623,-5.59,44.680878,10.016828,63.7,177.6,0,0.0,-1,0.0,0.0,0,0.42,1.1274
67664,1564323233520,2,2.3,1.41,0.62,2.06,1.87,0.8,-0.21,0.17,4,-0,5,0.83,9057,0,86,31,23,998,621.0,623,457,60,120.0,97,1,270,176,63,0,0,586,3403,-8186,620,-5.59,,,,,,,,,,,,
67684,1564323233540,3,2.3,1.42,0.63,2.05,1.87,0.69,-0.19,0.13,5,0,5,0.72,9079,0,86,31,23,1004,618.0,620,461,60,122.0,97,1,270,176,60,0,0,573,-28304,15649,618,-5.59,,,,,,,,,,,,
67704,1564323233560,2,2.31,1.41,0.63,2.05,1.88,0.69,-0.25,0.1,4,1,4,0.74,9075,0,86,31,23,1019,612.0,623,458,60,121.0,97,1,270,176,60,0,0,577,17740,6273,612,-5.59,,,,,,,,,,,,
67724,1564323233580,-0,2.32,1.41,0.63,2.05,1.87,0.63,-0.27,0.12,4,2,5,0.69,9101,0,86,31,23,1030,605.0,626,459,60,122.0,97,1,270,176,60,0,0,578,5344,208,605,-5.59,,,,,,,,,,,,
67744,1564323233596,-1,2.32,1.42,0.62,2.06,1.87,0.63,-0.31,0.18,4,2,4,0.7,9101,0,86,31,22,1033,602.0,622,457,60,123.0,97,1,270,170,60,0,0,588,243,8488,602,-5.59,44.680862,10.016824,61.37,177.6,0,0.0,-1,0.0,0.0,0,0.43,1.1291
67764,1564323233616,-0,2.31,1.41,0.63,2.05,1.87,0.6,-0.28,0.18,4,2,5,0.66,9101,0,86,31,22,1038,598.0,623,456,60,123.0,97,1,270,170,60,0,0,581,4956,-3210,598,181.28,,,,,,,,,,,,
67784,1564323233636,-0,2.3,1.41,0.63,2.06,1.87,0.64,-0.23,0.26,4,4,3,0.68,9101,0,86,31,22,1047,597.0,631,457,60,123.0,96,1,270,170,58,0,0,574,-13043,10432,596,-5.59,,,,,,,,,,,,
67804,1564323233656,-0,2.3,1.41,0.63,2.06,1.88,0.76,-0.18,0.24,3,3,3,0.78,9101,0,86,31,21,1054,593.0,636,455,60,122.0,96,1,270,164,58,0,0,568,-28648,774,593,-5.59,,,,,,,,,,,,
67824,1564323233676,-1,2.29,1.41,0.63,2.05,1.87,0.79,-0.16,0.21,3,4,2,0.8,9101,0,86,31,21,1057,591.0,636,455,60,123.0,96,1,270,164,58,0,0,568,208,12552,588,181.28,,,,,,,,,,,,
67844,1564323233700,-0,2.31,1.4,0.63,2.05,1.87,0.85,-0.17,0.21,3,4,2,0.86,9101,0,86,31,21,1062,586.0,632,457,60,122.0,96,1,270,164,58,0,0,570,-25872,1780,586,181.28,44.680847,10.016818,59.13,177.6,0,0.0,-1,0.0,0.0,0,0.43,1.1307
67864,1564323233720,-1,2.3,1.41,0.63,2.05,1.88,0.81,-0.19,0.19,3,4,2,0.84,9101,0,86,31,21,1065,584.0,632,455,60,123.0,96,1,270,164,58,0,0,572,8488,-28648,584,181.28,,,,,,,,,,,,
67884,1564323233740,-0,2.3,1.41,0.63,2.05,1.88,0.8,-0.17,0.25,3,3,3,0.82,9101,0,86,31,21,1067,582.0,631,462,60,123.0,96,1,270,164,56,0,0,565,243,-2934,582,-5.59,,,,,,,,,,,,
67904,1564323233760,-0,2.29,1.41,0.63,2.05,1.87,0.92,-0.13,0.26,2,4,2,0.93,9101,0,86,31,21,1067,576.0,630,458,60,123.0,96,1,270,164,56,0,0,557,774,2211,576,-5.59,,,,,,,,,,,,
67924,1564323233780,-0,2.29,1.41,0.63,2.06,1.87,0.96,-0.11,0.2,2,2,2,0.97,9101,0,86,31,20,1067,574.0,631,457,60,123.0,96,1,270,157,56,0,0,557,-8188,-22359,574,-5.59,,,,,,,,,,,,
67944,1564323233800,-1,2.3,1.41,0.63,2.06,1.86,0.89,-0.13,0.19,2,2,2,0.9,9101,0,86,31,20,1109,569.0,625,458,60,123.0,96,1,270,157,56,0,0,555,-3190,-28648,568,-5.59,44.680832,10.016813,57.59,177.6,0,0.0,-1,0.0,0.0,0,0.43,1.1324
67964,1564323233820,-1,2.29,1.41,0.63,2.06,1.87,0.96,-0.13,0.27,2,3,2,0.97,9101,0,86,31,20,1159,568.0,626,457,60,123.0,96,1,270,157,56,0,0,545,-30159,-22519,568,-5.59,,,,,,,,,,,,
67984,1564323233840,-2,2.3,1.41,0.62,2.06,1.87,1.01,-0.07,0.3,2,1,2,1.01,9101,19,86,31,21,1209,564.0,635,456,60,123.0,95,1,270,179,54,0,0,551,-23623,-2336,564,181.28,,,,,,,,,,,,
68004,1564323233860,-1,2.3,1.41,0.63,2.06,1.87,0.96,-0.1,0.23,2,3,1,0.96,9101,35,86,31,25,1260,563.0,638,457,60,123.0,95,1,270,205,54,0,0,542,-28648,-506,559,-5.59,,,,,,,,,,,,
68024,1564323233880,-2,2.31,1.41,0.63,2.07,1.87,1.06,-0.11,0.22,2,2,2,1.06,9101,54,86,31,34,1341,557.0,636,457,60,122.0,95,1,305,207,54,0,0,542,2216,-30064,557,-5.59,,,,,,,,,,,,
68044,1564323233900,-2,2.31,1.41,0.63,2.06,1.88,1.08,-0.05,0.31,1,1,1,1.08,9101,71,86,31,45,1411,553.0,633,458,60,123.0,95,1,359,242,54,0,0,544,-9072,6274,552,181.28,44.68082,10.016809,55.56,177.6,0,0.0,-1,0.0,0.0,0,0.43,1.1341
68064,1564323233920,-2,2.31,1.41,0.63,2.05,1.88,1.07,-0.16,0.17,1,3,1,1.08,9101,81,86,31,58,1437,551.0,637,460,60,123.0,95,1,400,341,54,0,0,535,6274,-28648,550,-5.59,,,,,,,,,,,,
68084,1564323233940,-2,2.31,1.41,0.63,2.06,1.86,0.98,-0.12,0.22,2,1,1,0.99,9101,85,86,31,70,1451,550.0,633,459,60,123.0,234,1,413,407,129,0,0,535,2524,-30064,548,-5.59,,,,,,,,,,,,
68104,1564323233960,-2,2.29,1.41,0.63,2.06,1.87,0.96,-0.04,0.25,2,3,0,0.96,9101,85,86,31,78,1470,545.0,638,455,60,123.0,234,1,414,483,129,0,0,529,-506,2088,545,-5.59,,,,,,,,,,,,
68124,1564323233980,-3,2.31,1.41,0.63,2.06,1.88,1.03,-0.09,0.2,2,0,1,1.03,9101,86,86,31,82,1489,543.0,630,455,60,123.0,234,1,417,540,129,0,0,522,-3082,2088,543,-5.59,,,,,,,,,,,,
68144,1564323233992,-1,2.29,1.41,0.63,2.07,1.87,1.05,-0.01,0.26,2,0,0,1.05,9101,86,86,31,83,1498,539.0,635,453,60,123.0,234,1,418,555,129,0,0,524,-2934,10408,539,-5.59,44.680805,10.016804,54.3,177.7,0,0.0,-1,0.0,0.0,0,0.43,1.1357
68164,1564323234012,-2,2.3,1.41,0.62,2.07,1.87,1.13,-0.11,0.22,1,0,1,1.13,9101,86,86,31,83,1498,536.0,636,457,60,123.0,234,1,418,555,129,0,0,521,6274,1248,535,-5.59,,,,,,,,,,,,
68184,1564323234032,-2,2.28,1.4,0.63,2.06,1.86,1.07,-0.03,0.2,1,-1,0,1.07,9101,86,86,31,84,1498,534.0,633,455,60,123.0,364,1,418,566,195,0,0,520,2104,15679,534,181.28,,,,,,,,,,,,
68204,1564323234052,-0,2.28,1.4,0.63,2.07,1.87,1.05,-0.15,0.2,1,1,0,1.06,9101,86,86,31,84,1498,531.0,636,458,60,123.0,364,1,418,566,195,0,0,520,-22519,1341,533,-5.59,,,,,,,,,,,,
68224,1564323234072,-2,2.29,1.41,0.63,2.07,1.86,1.02,-0.02,0.2,1,2,-1,1.02,9101,86,86,31,84,1498,528.0,636,457,60,123.0,364,1,418,566,195,0,0,518,-28648,-9212,527,181.28,,,,,,,,,,,,
68244,1564323234100,-1,2.28,1.4,0.63,2.07,1.87,0.98,-0.12,0.16,1,1,0,0.99,9101,86,86,31,84,1498,527.0,639,456,60,123.0,364,1,418,566,195,0,0,515,6274,10408,525,-5.59,44.68079,10.0168,52.93,177.7,0,0.0,-1,0.0,0.0,0,0.43,1.1374
68264,1564323234120,-2,2.28,1.4,0.63,2.06,1.87,1.02,-0.04,0.32,1,1,-1,1.02,9101,87,86,31,85,1498,525.0,641,455,60,123.0,364,1,418,566,195,0,0,515,2088,-14,522,181.28,,,,,,,,,,,,
68284,1564323234140,-0,2.28,1.41,0.63,2.06,1.87,1.08,-0.14,0.32,1,-0,-1,1.09,9101,87,86,32,85,1498,524.0,636,453,60,123.0,381,1,418,566,199,0,0,515,10408,-3482,521,-5.59,,,,,,,,,,,,
68304,1564323234160,-1,2.28,1.41,0.63,2.07,1.87,1.05,-0.21,0.41,0,1,-1,1.07,9101,87,86,32,84,1498,522.0,632,453,60,123.0,381,1,418,566,199,0,0,511,2524,-4054,521,-5.59,,,,,,,,,,,,
68324,1564323234180,-1,2.3,1.4,0.63,2.07,1.87,1.09,-0.11,0.41,0,0,-1,1.09,9101,80,86,32,84,1498,519.0,632,455,60,123.0,381,1,418,566,199,0,0,507,-8187,-4054,518,-5.59,,,,,,,,,,,,
68344,1564323234200,-1,2.29,1.41,0.63,2.06,1.87,1.01,-0.12,0.34,1,-1,-1,1.02,9101,71,86,32,81,1498,515.0,623,459,60,123.0,381,1,416,526,199,0,0,503,-14,-21872,515,-5.59,44.680782,10.016795,51.57,177.8,0,0.0,-1,0.0,0.0,0,0.43,1.1391
68364,1564323234220,-1,2.3,1.4,0.63,2.07,1.87,1.01,-0.18,0.37,1,0,-1,1.02,9101,64,86,32,77,1498,514.0,632,453,60,123.0,381,1,413,470,199,0,0,504,-3482,2109,514,-5.59,,,,,,,,,,,,
68384,1564323234240,-2,2.3,1.41,0.63,2.07,1.87,1.03,-0.14,0.42,1,-0,-1,1.04,9101,60,86,32,73,1498,512.0,634,459,60,122.0,301,1,413,427,154,0,0,503,17136,15661,510,-5.59,,,,,,,,,,,,
68404,1564323234260,-1,2.3,1.41,0.63,2.07,1.87,1.06,-0.07,0.43,1,0,-1,1.06,9101,58,86,32,71,1498,509.0,634,457,60,123.0,301,1,413,398,154,0,0,500,-4054,15661,509,181.28,,,,,,,,,,,,
68424,1564323234280,2,2.29,1.41,0.63,2.06,1.88,1.03,-0.09,0.38,1,0,-1,1.04,354,57,86,32,68,1498,510.0,631,461,60,122.0,301,1,414,268,154,0,0,496,-21872,998,507,-5.59,,,,,,,,,,,,
68444,1564323234299,0,2.3,1.4,0.63,2.07,1.88,0.91,-0.13,0.32,1,2,-0,0.92,9236,57,86,32,67,1498,506.0,634,452,60,123.0,301,1,412,375,154,0,0,497,6274,-32768,505,-5.59,44.680767,10.016791,50.81,177.8,0,0.0,-1,0.0,0.0,0,0.44,1.1407
68464,1564323234319,-0,2.29,1.41,0.63,2.07,1.87,0.89,-0.16,0.33,1,3,-1,0.9,9263,57,86,32,67,1498,504.0,635,458,60,123.0,301,1,412,370,154,0,0,491,-32248,-6528,503,-5.59,,,,,,,,,,,,
68484,1564323234339,-0,2.28,1.41,0.63,2.07,1.87,0.92,-0.23,0.42,1,3,-0,0.95,9263,57,86,32,66,1498,501.0,633,455,60,123.0,257,1,411,370,130,0,0,490,11560,1,501,-5.59,,,,,,,,,,,,
68504,1564323234359,1,2.27,1.41,0.63,2.07,1.88,0.98,-0.19,0.49,1,3,-2,1.0,9155,57,86,32,66,1498,499.0,630,457,60,122.0,257,1,409,370,130,0,0,487,-22519,-1818,499,-5.59,,,,,,,,,,,,
68524,1564323234379,2,2.25,1.41,0.63,2.08,1.86,1.08,-0.14,0.5,0,1,-1,1.09,9115,67,86,32,68,1498,497.0,628,466,60,121.0,257,1,413,379,130,0,0,490,-9216,505,497,-5.59,,,,,,,,,,,,
68544,1564323234399,2,2.25,1.41,0.63,2.08,1.87,1.15,-0.02,0.48,-1,1,-2,1.15,9115,77,86,32,73,1498,495.0,631,466,60,120.0,257,1,413,427,130,0,0,485,771,505,491,-5.59,44.680756,10.016788,49.72,177.8,0,0.0,-1,0.0,0.0,0,0.44,1.1424
68564,1564323234419,0,2.25,1.4,0.63,2.07,1.87,1.24,0.02,0.5,-2,-1,-2,1.24,9115,85,86,32,80,1498,495.0,630,464,60,120.0,257,1,415,497,130,0,0,489,998,16648,488,-5.59,,,,,,,,,,,,
68584,1564323234439,2,2.25,1.4,0.63,2.06,1.87,1.31,0.06,0.49,-2,-1,-3,1.32,9115,94,86,32,85,1498,493.0,630,464,60,120.0,381,1,418,576,186,0,0,482,-6528,2212,485,-5.59,,,,,,,,,,,,
68604,1564323234459,1,2.25,1.4,0.63,2.06,1.87,1.38,0.05,0.51,-3,-2,-4,1.39,9115,100,86,32,88,1498,492.0,628,465,60,120.0,381,1,418,599,186,0,0,481,-32768,32033,485,-5.59,,,,,,,,,,,,
68624,1564323234479,1,2.25,1.4,0.63,2.06,1.86,1.44,0.13,0.46,-4,-2,-4,1.45,9115,100,86,32,88,1498,491.0,627,465,60,120.0,381,1,418,611,186,0,0,480,248,32033,481,-5.59,,,,,,,,,,,,
68644,1564323234499,2,2.25,1.4,0.63,2.06,1.86,1.5,0.01,0.49,-4,-3,-4,1.5,9115,100,86,32,89,1498,486.0,626,461,60,120.0,381,1,418,622,186,0,0,475,-1562,3576,481,-5.59,44.680744,10.016784,48.19,177.8,0,0.0,-1,0.0,0.0,0,0.44,1.1441
68664,1564323234519,-0,2.26,1.4,0.63,2.06,1.87,1.42,0.01,0.51,-4,-2,-5,1.42,9115,100,86,32,88,1498,485.0,629,461,60,120.0,381,1,418,611,186,0,0,471,-6441,-16384,480,-5.59,,,,,,,,,,,,
68684,1564323234539,-0,2.26,1.4,0.63,2.06,1.86,1.32,-0.03,0.52,-3,-0,-5,1.32,9115,100,86,32,88,1498,481.0,627,461,60,119.0,450,1,418,611,215,0,0,471,32033,243,475,414.87,,,,,,,,,,,,
68704,1564323234559,1,2.27,1.4,0.63,2.07,1.87,1.18,-0.06,0.54,-3,0,-5,1.18,8769,100,86,32,89,1498,477.0,626,464,60,120.0,450,1,426,611,215,0,0,470,2212,10432,474,181.28,,,,,,,,,,,,
68724,1564323234579,1,2.25,1.4,0.63,2.07,1.87,1.16,0.01,0.51,-2,0,-4,1.16,8704,100,86,32,88,1498,475.0,620,455,60,120.0,450,1,427,611,215,0,0,464,-17956,-16384,473,414.87,,,,,,,,,,,,
68744,1564323234599,0,2.25,1.39,0.63,2.07,1.87,1.24,0.05,0.49,-3,-1,-5,1.25,8644,100,86,32,88,1498,475.0,617,461,60,121.0,450,1,429,622,215,0,0,463,-17956,16408,468,181.28,44.680733,10.016779,47.38,177.8,0,0.0,-1,0.0,0.0,0,0.44,1.1457
68764,1564323234619,1,2.25,1.4,0.63,2.07,1.87,1.28,0.02,0.53,-3,-2,-5,1.28,8773,100,86,32,88,1498,472.0,623,460,60,121.0,450,1,425,622,215,0,0,464,-1923,12552,468,-5.59,,,,,,,,,,,,
68784,1564323234639,2,2.25,1.4,0.63,2.07,1.87,1.28,-0.03,0.62,-3,-2,-5,1.28,9036,100,86,32,88,1498,472.0,630,460,60,120.0,441,1,418,611,207,0,0,470,3576,2211,468,-5.59,,,,,,,,,,,,
68804,1564323234659,1,2.24,1.4,0.63,2.07,1.87,1.34,-0.05,0.67,-4,-1,-7,1.34,9272,98,86,32,87,1498,475.0,633,457,60,120.0,441,1,418,599,207,0,0,469,-17956,6193,468,-5.59,,,,,,,,,,,,
68824,1564323234679,-0,2.25,1.4,0.63,2.07,1.87,1.38,0.04,0.57,-4,-3,-5,1.38,9455,79,86,32,85,1498,473.0,636,460,60,120.0,441,1,418,576,207,0,0,472,-1923,8488,467,181.28,,,,,,,,,,,,
68844,1564323234699,1,2.24,1.4,0.63,2.08,1.87,1.3,-0.0,0.48,-4,-1,-6,1.3,9904,60,86,32,76,1498,472.0,637,453,60,120.0,441,1,400,483,207,0,0,467,-1923,-9203,467,-5.59,44.680721,10.016776,46.5,177.9,0,0.0,-1,0.0,0.0,0,0.44,1.1474
68864,1564323234719,1,2.22,1.4,0.63,2.07,1.87,1.21,-0.11,0.52,-5,-1,-5,1.21,10135,55,86,32,68,1498,472.0,646,466,60,120.0,441,1,407,445,207,0,0,472,-1923,8488,464,-5.59,,,,,,,,,,,,
68884,1564323234739,0,2.22,1.4,0.63,2.08,1.86,1.15,-0.13,0.6,-6,3,-6,1.15,10135,55,86,32,65,1498,473.0,643,463,60,120.0,349,1,413,412,162,0,0,488,-17956,-6656,467,-5.59,,,,,,,,,,,,
68904,1564323234759,1,2.19,1.4,0.63,2.08,1.87,1.12,0.01,0.57,-6,4,-5,1.12,10135,54,86,32,65,1498,480.0,639,465,60,120.0,349,1,413,412,162,0,0,495,8488,-32248,472,-5.59,,,,,,,,,,,,
68924,1564323234779,2,2.19,1.4,0.63,2.08,1.87,1.16,-0.02,0.59,-8,1,-6,1.16,10135,54,86,32,65,1485,485.0,625,463,60,120.0,349,1,413,336,162,0,0,486,-6441,8488,478,-5.59,,,,,,,,,,,,
68944,1564323234799,-2,2.18,1.39,0.62,2.06,1.87,1.12,0.04,0.57,-8,-1,-7,1.12,8095,54,86,32,66,1467,487.0,606,457,60,119.0,349,1,450,352,162,0,0,485,505,32033,473,-5.59,44.68071,10.016773,45.98,177.9,0,0.0,-1,0.0,0.0,0,0.44,1.1491
68964,1564323234819,1,2.17,1.39,0.62,2.06,1.85,1.06,0.11,0.55,-8,-2,-8,1.07,7861,54,86,32,68,1450,487.0,588,456,60,122.0,349,1,441,361,162,0,0,485,-1562,-23367,469,-5.59,,,,,,,,,,,,
68984,1564323234839,-0,2.16,1.39,0.61,2.05,1.85,1.11,0.18,0.51,-10,-3,-10,1.13,7741,55,86,32,70,1433,485.0,579,458,60,121.0,233,1,432,377,109,0,0,483,-6441,243,466,-5.59,,,,,,,,,,,,
69004,1564323234859,-0,2.16,1.39,0.61,2.04,1.84,1.2,0.22,0.48,-11,-4,-9,1.22,7941,55,86,32,70,1428,487.0,574,458,60,120.0,233,1,443,374,109,0,0,481,505,6193,464,181.28,,,,,,,,,,,,
69024,1564323234879,2,2.16,1.38,0.61,2.04,1.85,1.12,0.32,0.51,-12,-7,-10,1.17,8194,55,86,32,69,1428,486.0,590,460,60,120.0,233,1,443,380,109,0,0,473,-1562,15649,463,-5.59,,,,,,,,,,,,
69044,1564323234899,1,2.15,1.38,0.61,2.05,1.84,1.16,0.39,0.48,-12,-8,-12,1.22,8468,55,86,32,66,1437,483.0,601,462,60,121.0,233,1,438,372,109,0,0,462,-899,-768,462,-5.59,44.680698,10.016769,46.94,177.9,0,0.0,-1,0.0,0.0,0,0.44,1.1507
69064,1564323234919,2,2.14,1.38,0.61,2.05,1.85,1.18,0.38,0.43,-13,-7,-12,1.24,8869,55,86,32,65,1455,482.0,630,461,60,121.0,233,1,414,365,109,0,0,468,-899,243,460,-5.59,,,,,,,,,,,,
69084,1564323234939,1,2.12,1.39,0.61,2.04,1.85,1.27,0.34,0.47,-15,-6,-15,1.31,9018,55,86,32,64,1472,481.0,635,460,60,120.0,267,1,403,361,123,0,0,477,32033,21432,456,-5.59,,,,,,,,,,,,
69104,1564323234959,2,2.11,1.39,0.61,2.05,1.85,1.31,0.38,0.42,-16,-6,-16,1.36,9254,56,86,32,63,1489,486.0,644,458,60,121.0,267,1,407,357,123,0,0,480,-1562,-8985,457,-5.59,,,,,,,,,,,,
69124,1564323234979,1,2.11,1.39,0.62,2.06,1.85,1.27,0.54,0.33,-17,-4,-17,1.38,9488,56,86,32,61,1498,489.0,637,457,60,120.0,267,1,413,352,123,0,0,483,505,-18108,456,-5.59,,,,,,,,,,,,
69144,1564323234999,1,2.12,1.39,0.62,2.05,1.85,1.18,0.56,0.38,-18,-3,-18,1.31,9580,56,86,32,61,1498,488.0,648,452,60,120.0,267,1,414,352,123,0,0,483,1,3571,455,-5.59,44.680698,10.016769,46.94,177.9,0,0.0,-1,0.0,0.0,0,0.45,1.1524
69164,1564323235009,-0,2.12,1.39,0.62,2.06,1.85,1.15,0.7,0.38,-18,-1,-18,1.34,9755,56,86,32,61,1498,486.0,645,464,60,121.0,267,1,412,362,123,0,0,482,-1562,-8985,454,-5.59,,,,,,,,,,,,
69184,1564323235029,1,2.11,1.39,0.62,2.05,1.85,1.11,0.8,0.49,-18,-1,-20,1.37,9821,56,86,32,60,1498,487.0,643,465,60,120.0,295,1,409,359,134,0,0,483,505,32033,452,-5.59,,,,,,,,,,,,
69204,1564323235049,0,2.13,1.39,0.62,2.05,1.86,1.12,0.66,0.6,-19,-3,-21,1.3,9821,56,86,32,59,1498,488.0,645,456,60,120.0,295,1,407,352,134,0,0,493,1,6274,458,-5.59,,,,,,,,,,,,
69224,1564323235069,0,2.12,1.39,0.61,2.06,1.84,1.21,0.53,0.64,-20,-4,-24,1.32,9821,55,86,32,61,1498,491.0,634,464,60,120.0,295,1,411,366,134,0,0,491,248,-3856,459,-5.59,,,,,,,,,,,,
69244,1564323235089,0,2.11,1.39,0.61,2.05,1.85,1.12,0.47,0.65,-20,-3,-25,1.22,8449,55,86,32,63,1491,490.0,627,453,60,120.0,295,1,444,345,134,0,0,491,-1818,2211,461,-5.59,44.680687,10.016767,46.07,177.9,0,0.0,-1,0.0,0.0,0,0.45,1.1541
69264,1564323235109,-0,2.12,1.39,0.61,2.05,1.85,1.11,0.58,0.67,-19,-5,-25,1.25,8256,54,85,32,65,1474,489.0,610,460,60,121.0,295,1,444,350,134,0,0,483,-6656,-8985,457,-5.59,,,,,,,,,,,,
69284,1564323235129,1,2.11,1.39,0.62,2.05,1.85,1.14,0.5,0.59,-20,-5,-26,1.25,8438,54,85,32,66,1457,488.0,610,461,60,121.0,248,1,439,365,114,0,0,483,1,-9160,457,-5.59,,,,,,,,,,,,
69304,1564323235149,0,2.11,1.39,0.61,2.05,1.85,0.97,0.62,0.6,-20,-4,-26,1.15,8632,54,85,32,65,1439,488.0,625,460,60,120.0,248,1,430,356,114,0,0,482,1,17628,459,-5.59,,,,,,,,,,,,
69324,1564323235169,2,2.11,1.39,0.62,2.05,1.85,0.91,0.76,0.56,-20,-4,-25,1.19,8790,54,86,32,63,1426,487.0,622,460,60,119.0,248,1,418,352,114,0,0,485,505,2524,459,414.87,,,,,,,,,,,,
69344,1564323235199,2,2.11,1.39,0.62,2.06,1.85,0.82,0.88,0.52,-20,-4,-26,1.2,8890,54,86,32,62,1426,490.0,631,458,60,119.0,248,1,408,350,114,0,0,484,-1818,-8985,457,-5.59,44.680664,10.016764,46.05,177.9,0,0.0,-1,0.0,0.0,0,0.45,1.1557
69364,1564323235219,0,2.11,1.39,0.62,2.06,1.85,0.92,0.92,0.43,-20,-4,-26,1.3,8886,54,85,32,62,1429,490.0,631,464,60,120.0,248,1,403,350,114,0,0,487,-32768,-9160,457,-5.59,,,,,,,,,,,,
69384,1564323235239,2,2.11,1.39,0.62,2.06,1.86,0.9,1.03,0.35,-20,-3,-26,1.36,9023,54,85,32,62,1446,490.0,635,461,60,121.0,259,1,398,352,119,0,0,485,-32768,-8985,454,-5.59,,,,,,,,,,,,
69404,1564323235259,-3,2.11,1.39,0.61,2.06,1.85,0.88,1.13,0.25,-20,-3,-26,1.43,9150,54,85,32,61,1464,490.0,636,468,60,120.0,259,1,401,348,119,0,0,487,-1818,-3267,455,414.87,,,,,,,,,,,,
69424,1564323235279,-0,2.1,1.39,0.62,2.06,1.85,0.63,1.21,0.14,-20,-0,-25,1.37,9365,54,85,32,61,1481,489.0,638,455,60,120.0,259,1,409,348,119,0,0,488,-6656,17628,455,-5.59,,,,,,,,,,,,
69444,1564323235298,0,2.09,1.39,0.62,2.07,1.86,0.6,1.18,0.22,-20,1,-26,1.32,9389,54,85,32,60,1498,489.0,635,464,60,121.0,259,1,408,342,119,0,0,488,-1562,2212,457,-5.59,44.680653,10.016764,46.08,177.9,0,0.0,-1,0.0,0.0,0,0.45,1.1574
69464,1564323235318,2,2.11,1.39,0.63,2.07,1.85,0.75,0.91,0.37,-21,-0,-27,1.18,9231,54,85,32,60,1498,487.0,632,464,60,121.0,259,1,403,342,119,0,0,491,-1818,-22519,461,-5.59,,,,,,,,,,,,
69484,1564323235338,1,2.1,1.4,0.63,2.07,1.86,0.87,0.74,0.45,-22,-3,-28,1.14,9005,49,85,32,60,1498,491.0,633,454,60,121.0,259,1,397,340,119,0,0,493,248,6274,462,-5.59,,,,,,,,,,,,
69504,1564323235358,-1,2.11,1.4,0.63,2.07,1.85,0.95,0.51,0.53,-23,-3,-29,1.08,8712,36,85,32,57,1498,492.0,632,464,60,121.0,259,1,407,309,119,0,0,490,-32768,-9203,463,-5.59,,,,,,,,,,,,
69524,1564323235378,-1,2.11,1.4,0.62,2.07,1.86,0.87,0.56,0.52,-22,-1,-30,1.03,8676,29,85,32,53,1498,492.0,622,462,60,121.0,259,1,389,277,119,0,0,493,-32768,-26615,462,-5.59,,,,,,,,,,,,
69544,1564323235398,-0,2.11,1.4,0.62,2.07,1.86,0.71,0.71,0.49,-21,-0,-28,1.0,8911,27,85,32,49,1498,492.0,633,457,60,118.0,259,1,378,249,119,0,0,489,-32768,12552,461,-5.59,44.680641,10.016765,46.88,177.9,0,0.0,-1,0.0,0.0,0,0.45,1.1591
69564,1564323235418,-2,2.12,1.39,0.62,2.07,1.85,0.6,0.82,0.5,-21,-1,-29,1.01,9110,27,85,32,46,1498,491.0,629,460,60,120.0,259,1,365,230,119,0,0,487,248,243,462,-5.59,,,,,,,,,,,,
69584,1564323235438,-1,2.12,1.39,0.63,2.08,1.85,0.47,0.87,0.49,-22,2,-29,0.99,9191,26,85,32,43,1498,491.0,635,460,60,119.0,169,1,346,224,78,0,0,488,248,8488,462,-5.59,,,,,,,,,,,,
69604,1564323235458,1,2.11,1.4,0.64,2.07,1.86,0.45,0.82,0.6,-22,1,-29,0.94,9227,26,85,32,41,1498,495.0,637,461,60,120.0,169,1,333,219,78,0,0,494,771,32033,462,181.28,,,,,,,,,,,,
69624,1564323235478,-0,2.12,1.4,0.63,2.08,1.86,0.58,0.61,0.72,-24,1,-30,0.85,9204,26,85,32,39,1498,497.0,638,459,60,119.0,169,1,320,214,78,0,0,497,-9216,-1562,464,-5.59,,,,,,,,,,,,
69644,1564323235498,1,2.12,1.39,0.64,2.07,1.87,0.73,0.5,0.73,-24,-0,-31,0.88,9159,26,85,32,38,1498,497.0,635,458,60,121.0,169,1,317,209,78,0,0,497,-9216,3580,465,-5.59,44.68063,10.016768,46.65,177.8,0,0.0,-1,0.0,0.0,0,0.45,1.1607
69664,1564323235518,-0,2.12,1.39,0.64,2.07,1.87,0.86,0.36,0.72,-24,-1,-30,0.93,9101,26,85,32,37,1447,497.0,631,462,60,121.0,169,1,314,206,78,0,0,500,2524,3580,465,-5.59,,,,,,,,,,,,
69684,1564323235538,2,2.11,1.4,0.64,2.08,1.86,0.97,0.31,0.72,-24,-3,-31,1.01,9044,26,85,32,37,1393,498.0,632,460,60,121.0,150,1,314,205,70,0,0,496,2524,-899,467,-5.59,,,,,,,,,,,,
69704,1564323235558,-0,2.13,1.4,0.64,2.08,1.86,1.07,0.17,0.72,-24,-5,-30,1.09,8992,26,85,32,37,1339,496.0,630,468,60,121.0,150,1,314,205,70,0,0,495,3,8488,470,181.28,,,,,,,,,,,,
69724,1564323235578,1,2.15,1.39,0.64,2.07,1.87,1.16,0.09,0.69,-24,-6,-31,1.16,8958,26,85,32,37,1285,496.0,629,462,60,121.0,150,1,314,205,70,0,0,494,3,32033,470,181.28,,,,,,,,,,,,
69744,1564323235596,1,2.17,1.4,0.64,2.08,1.86,1.25,-0.06,0.73,-24,-7,-31,1.25,8962,26,85,32,36,1214,497.0,628,463,60,121.0,150,1,311,205,70,0,0,497,-9216,-1923,471,-5.59,44.680618,10.016771,46.77,177.8,0,0.0,-1,0.0,0.0,0,0.45,1.1624
69764,1564323235616,1,2.2,1.39,0.64,2.07,1.87,1.32,-0.15,0.76,-24,-8,-31,1.33,8979,26,85,32,36,1138,497.0,631,464,60,121.0,150,1,311,202,70,0,0,500,-9216,-16384,470,-5.59,,,,,,,,,,,,
69784,1564323235636,1,2.23,1.4,0.64,2.07,1.87,1.39,-0.26,0.77,-23,-9,-30,1.42,8992,26,85,32,36,1099,498.0,629,465,60,121.0,144,1,311,202,68,0,0,494,3,8488,472,-5.59,,,,,,,,,,,,
69804,1564323235656,1,2.26,1.4,0.64,2.08,1.87,1.43,-0.31,0.8,-22,-10,-31,1.46,9018,26,85,32,36,1077,493.0,638,465,60,122.0,144,1,311,202,68,0,0,494,-6528,-16384,475,-5.59,,,,,,,,,,,,
69824,1564323235676,0,2.29,1.4,0.63,2.08,1.86,1.47,-0.39,0.81,-20,-10,-29,1.52,9031,26,85,32,36,1058,490.0,641,460,60,121.0,144,1,311,202,68,0,0,488,-1818,32033,479,-5.59,,,,,,,,,,,,
69844,1564323235698,0,2.33,1.4,0.64,2.08,1.87,1.5,-0.41,0.83,-18,-10,-28,1.56,9040,26,85,32,36,1040,489.0,633,461,60,122.0,144,1,311,202,68,0,0,486,-6656,16648,478,-5.59,44.680607,10.016776,47.44,177.7,0,0.0,-1,0.0,0.0,0,0.45,1.1641
69864,1564323235718,2,2.35,1.4,0.64,2.08,1.87,1.52,-0.48,0.85,-16,-10,-27,1.59,9057,26,85,32,36,1033,485.0,629,462,60,122.0,144,1,311,202,68,0,0,483,-10483,32033,484,181.28,,,,,,,,,,,,
69884,1564323235738,2,2.39,1.4,0.64,2.09,1.86,1.54,-0.49,0.85,-13,-10,-23,1.62,9057,26,85,32,36,1037,484.0,628,463,60,121.0,142,1,311,202,69,0,0,484,-899,-899,486,-5.59,,,,,,,,,,,,
69904,1564323235758,2,2.42,1.4,0.63,2.08,1.87,1.59,-0.53,0.85,-10,-11,-21,1.68,9066,26,85,32,36,1046,489.0,629,463,60,121.0,142,1,311,202,69,0,0,480,8488,3580,489,-5.59,,,,,,,,,,,,
69924,1564323235778,1,2.47,1.41,0.64,2.09,1.87,1.6,-0.54,0.78,-6,-11,-18,1.69,9079,26,85,32,36,1059,489.0,628,461,60,121.0,142,1,311,202,69,0,0,482,-23367,1,489,-5.59,,,,,,,,,,,,
69944,1564323235798,2,2.5,1.41,0.64,2.08,1.87,1.65,-0.56,0.72,-2,-11,-15,1.74,9097,26,85,32,36,1070,495.0,629,461,60,121.0,142,1,311,202,69,0,0,479,-1923,-1562,495,-5.59,44.680595,10.016781,47.38,177.6,0,0.0,-1,0.0,0.0,0,0.46,1.1657
69964,1564323235818,1,2.54,1.4,0.65,2.09,1.87,1.64,-0.53,0.65,1,-9,-11,1.72,9075,26,85,32,35,1079,497.0,623,462,60,121.0,142,1,308,199,69,0,0,481,8488,-6528,495,-5.59,,,,,,,,,,,,
69984,1564323235838,1,2.59,1.41,0.64,2.1,1.88,1.67,-0.51,0.6,4,-10,-5,1.74,9093,26,85,32,35,1084,496.0,623,463,60,121.0,136,1,308,199,68,0,0,491,-3210,771,496,-5.59,,,,,,,,,,,,
70004,1564323235858,1,2.62,1.41,0.64,2.08,1.87,1.64,-0.51,0.59,6,-8,-1,1.72,9115,26,85,32,36,1086,496.0,631,458,60,121.0,136,1,311,203,68,0,0,499,16408,-22519,496,-5.59,,,,,,,,,,,,
70024,1564323235878,-0,2.65,1.4,0.64,2.09,1.87,1.59,-0.51,0.53,10,-8,4,1.67,9141,26,85,32,35,1085,495.0,634,458,60,120.0,136,1,308,200,68,0,0,494,-23623,2524,495,-5.59,,,,,,,,,,,,
70044,1564323235898,0,2.67,1.4,0.64,2.08,1.88,1.4,-0.54,0.5,12,-6,7,1.5,9186,26,85,32,35,1078,494.0,639,458,60,120.0,136,1,308,201,68,0,0,489,-23623,771,494,-5.59,44.680584,10.016787,47.62,177.6,0,0.0,-1,0.0,0.0,0,0.46,1.1674
70064,1564323235918,-1,2.7,1.41,0.65,2.08,1.88,1.22,-0.68,0.49,15,-6,10,1.4,9236,26,85,32,35,1068,494.0,634,458,60,121.0,136,1,308,201,68,0,0,491,-9160,-9216,494,-5.59,,,,,,,,,,,,
70084,1564323235938,-0,2.7,1.41,0.65,2.08,1.88,1.22,-0.78,0.58,17,-6,12,1.45,9295,27,85,32,35,1055,493.0,632,465,60,121.0,143,1,308,202,71,0,0,492,2524,771,491,-5.59,,,,,,,,,,,,
70104,1564323235958,1,2.7,1.41,0.65,2.09,1.88,1.26,-0.85,0.56,19,-8,15,1.52,9314,27,85,32,35,1043,491.0,636,460,60,121.0,143,1,308,202,71,0,0,494,-8985,-6528,491,-5.59,,,,,,,,,,,,
70124,1564323235978,0,2.7,1.41,0.65,2.08,1.87,1.23,-0.87,0.56,21,-7,18,1.51,9356,27,85,32,35,1036,491.0,632,463,60,121.0,143,1,308,203,71,0,0,506,8488,998,491,-5.59,,,,,,,,,,,,
70144,1564323235992,0,2.7,1.41,0.65,2.09,1.88,1.13,-0.95,0.57,24,-6,21,1.48,9403,27,85,32,35,1028,492.0,632,460,60,120.0,143,1,308,204,71,0,0,510,8488,-1818,492,-5.59,44.680572,10.01679,47.68,177.6,0,0.0,-1,0.0,0.0,0,0.46,1.1691
70164,1564323236012,2,2.69,1.41,0.65,2.1,1.87,1.06,-1.05,0.6,26,-5,23,1.49,9441,27,85,32,35,1015,493.0,635,464,60,121.0,143,1,308,204,71,0,0,511,10305,2524,493,-5.59,,,,,,,,,,,,
70184,1564323236032,2,2.69,1.4,0.65,2.1,1.87,1.1,-1.07,0.57,28,-7,24,1.53,9431,27,85,32,35,1004,493.0,632,463,60,121.0,145,1,308,204,72,0,0,515,2131,998,495,-5.59,,,,,,,,,,,,
70204,1564323236052,-0,2.69,1.42,0.65,2.09,1.87,1.15,-1.06,0.51,30,-7,28,1.57,9393,27,85,32,35,998,494.0,572,457,60,120.0,145,1,308,204,72,0,0,518,-18341,-6528,494,-5.59,,,,,,,,,,,,
70224,1564323236072,1,2.7,1.42,0.64,2.1,1.87,1.05,-1.13,0.51,32,-6,31,1.54,9398,27,85,32,35,992,493.0,415,462,60,120.0,145,1,308,203,72,0,0,514,-18341,998,493,-5.59,,,,,,,,,,,,
70244,1564323236100,2,2.69,1.42,0.65,2.1,1.88,1.03,-1.21,0.48,33,-6,32,1.59,9422,27,85,32,35,985,491.0,342,456,60,121.0,145,1,308,204,72,0,0,519,23400,771,491,-5.59,44.680561,10.016793,46.81,177.5,0,0.0,-1,0.0,0.0,0,0.46,1.1707
70264,1564323236120,-0,2.71,1.41,0.65,2.09,1.88,1.06,-1.18,0.4,34,-5,36,1.59,9431,27,85,32,35,977,487.0,318,464,60,121.0,145,1,308,204,72,0,0,511,26704,-6656,488,-5.59,,,,,,,,,,,,
70284,1564323236140,1,2.71,1.41,0.64,2.09,1.88,0.99,-1.21,0.38,35,-4,39,1.57,9474,27,85,32,35,977,486.0,306,465,60,120.0,150,1,308,204,73,0,0,516,20625,-6656,485,-5.59,,,,,,,,,,,,
70304,1564323236160,2,2.72,1.41,0.65,2.09,1.88,0.9,-1.28,0.48,35,-3,39,1.57,9469,27,85,32,35,975,484.0,302,466,60,121.0,150,1,308,204,73,0,0,523,26704,-6441,484,-5.59,,,,,,,,,,,,
70324,1564323236180,1,2.72,1.42,0.64,2.1,1.88,0.89,-1.23,0.4,36,-4,42,1.52,9445,27,85,32,35,968,485.0,323,463,60,121.0,150,1,308,204,73,0,0,525,-28332,-1562,485,-5.59,,,,,,,,,,,,
70344,1564323236200,-1,2.72,1.41,0.65,2.09,1.88,0.92,-1.18,0.43,37,-4,43,1.49,9393,28,85,32,35,962,482.0,317,467,60,121.0,150,1,308,203,73,0,0,525,-28332,-1818,482,-5.59,44.68055,10.016794,46.78,177.5,0,0.0,-1,0.0,0.0,0,0.46,1.1724
70364,1564323236220,1,2.72,1.41,0.65,2.09,1.88,0.85,-1.26,0.43,37,-4,45,1.52,9398,28,85,32,35,957,479.0,309,463,60,120.0,150,1,308,203,73,0,0,530,26704,-10483,479,-5.59,,,,,,,,,,,,
70384,1564323236240,1,2.72,1.42,0.64,2.1,1.88,0.84,-1.27,0.35,38,-4,45,1.52,9384,28,85,32,35,951,478.0,310,456,60,121.0,150,1,308,203,72,0,0,526,21580,2212,478,-5.59,,,,,,,,,,,,
70404,1564323236260,2,2.72,1.41,0.65,2.1,1.88,0.83,-1.33,0.29,38,-3,47,1.57,9375,28,85,32,35,947,476.0,303,462,60,121.0,150,1,308,203,72,0,0,527,21580,10305,476,-5.59,,,,,,,,,,,,
70424,1564323236280,-1,2.72,1.41,0.65,2.09,1.88,0.8,-1.36,0.45,38,-3,48,1.58,9422,28,85,32,35,943,476.0,297,457,60,120.0,150,1,308,203,72,0,0,525,21580,-23367,476,-5.59,,,,,,,,,,,,
70444,1564323236299,0,2.73,1.42,0.65,2.1,1.88,0.82,-1.37,0.5,37,-2,47,1.6,9422,28,85,32,35,944,474.0,295,458,60,121.0,150,1,308,204,72,0,0,524,-28332,-23367,474,-5.59,44.680538,10.016793,45.82,177.4,0,0.0,-1,0.0,0.0,0,0.46,1.1741
70464,1564323236319,2,2.72,1.41,0.65,2.09,1.88,0.87,-1.34,0.33,37,-3,47,1.6,9426,28,85,32,35,945,472.0,286,462,60,121.0,150,1,308,204,72,0,0,525,21580,-1923,469,-5.59,,,,,,,,,,,,
70484,1564323236339,0,2.72,1.42,0.65,2.1,1.88,0.88,-1.38,0.29,37,-3,49,1.63,9393,28,85,32,36,953,471.0,285,463,60,121.0,153,1,311,206,72,0,0,534,21580,2212,471,-5.59,,,,,,,,,,,,
70504,1564323236359,0,2.72,1.42,0.65,2.1,1.88,0.8,-1.39,0.46,36,-2,48,1.61,9360,29,85,32,35,961,468.0,289,463,60,121.0,153,1,308,206,72,0,0,529,19477,2212,468,-5.59,,,,,,,,,,,,
70524,1564323236379,1,2.7,1.42,0.65,2.1,1.88,0.8,-1.38,0.46,36,-2,48,1.6,9365,29,85,32,36,968,466.0,290,464,60,121.0,153,1,311,206,72,0,0,534,5600,32033,467,-5.59,,,,,,,,,,,,
70544,1564323236399,3,2.71,1.42,0.65,2.1,1.88,0.87,-1.36,0.34,36,-2,48,1.61,9356,29,85,32,36,975,465.0,287,463,60,121.0,153,1,311,206,72,0,0,536,243,-9203,465,-5.59,44.680527,10.016791,45.38,177.4,0,0.0,-1,0.0,0.0,0,0.46,1.1757
70564,1564323236419,0,2.7,1.41,0.65,2.09,1.89,0.88,-1.42,0.31,36,-3,50,1.67,9379,29,85,32,36,981,466.0,286,464,60,121.0,153,1,311,206,72,0,0,530,13552,243,465,-5.59,,,,,,,,,,,,
70584,1564323236439,0,2.69,1.41,0.65,2.09,1.89,0.84,-1.48,0.4,36,-1,49,1.7,9379,29,85,32,36,986,462.0,286,458,60,120.0,156,1,311,206,73,0,0,532,-3856,2211,462,-5.59,,,,,,,,,,,,
70604,1564323236459,2,2.67,1.42,0.65,2.1,1.89,0.92,-1.47,0.41,36,-2,48,1.73,9360,30,85,32,36,987,464.0,285,457,60,121.0,156,1,311,206,73,0,0,537,-4082,16408,464,-5.59,,,,,,,,,,,,
70624,1564323236479,2,2.64,1.42,0.65,2.1,1.88,1.01,-1.47,0.28,36,-2,48,1.78,9360,30,85,32,36,986,463.0,290,458,60,121.0,156,1,311,206,73,0,0,538,-8165,-16384,463,-5.59,,,,,,,,,,,,
