"Interval"|"ms"|0|0|1,"Utc"|"ms"|0|0|1,"FB_p"|"bar"|0|300|50,"Volant"|"F"|0.0|300.0|50,"xFR"|"mm"|0.0|5.0|50,"xRR"|"mm"|0.0|5.0|50,"xFL"|"mm"|0.0|5.0|50,"xRL"|"mm"|0.0|5.0|50,"AccelX"|"G"|-3.0|3.0|50,"AccelY"|"G"|-3.0|3.0|50,"AccelZ"|"G"|-3.0|3.0|50,"Yaw"|"Deg/Sec"|-120|120|50,"Pitch"|"Deg/Sec"|-120|120|50,"Roll"|"Deg/Sec"|-120|120|50,"Gsum"|"G"|0.0|3.0|50,"RPM"|""|0|14000|50,"TPS"|"%"|0|100|50,"WaterTemp"|"?C"|0|300|50,"AirTemp"|"?C"|-1000|1000|50,"MAP"|"KPa"|0|255|50,"Lambda"|""|0|1024|50,"WheelSpeed"|"MPH"|0.0|150.0|50,"OilPress"|"PSI"|0|150|50,"FuelPress"|"PSI"|0|150|50,"OilTemp"|"F"|0|300|50,"Battery"|"Volts"|0.0|20.0|50,"FuelCon"|"L/h"|-1000|1000|50,"Gear"|""|0|10|50,"Advance"|"Deg"|-360|360|50,"Injection"|"ms"|-1000|1000|50,"FuelCon"|"L/100km"|-1000|1000|50,"LC_But_Pres"|""|-1000|1000|50,"LC_Active"|""|-1000|1000|50,"RD_Speed"|""|-1000|1000|50,"RUD_Speed"|""|-1000|1000|50,"LD_Speed"|""|-1000|1000|50,"LUD_Speed"|""|-1000|1000|50,"Ana1"|"bar"|-1000.0|1000.0|50,"Latitude"|"Degrees"|-180.0|180.0|10,"Longitude"|"Degrees"|-180.0|180.0|10,"Speed"|"kph"|0.0|150.0|10,"Altitude"|"m"|0.0|4000.0|10,"LapCount"|""|0|0|10,"LapTime"|"Min"|0.0|0.0|10,"Sector"|""|0|0|10,"SectorTime"|"Min"|0.0|0.0|10,"ElapsedTime"|"Min"|0.0|0.0|10,"CurrentLap"|""|0|0|10,"Distance"|"km"|0.0|0.0|10,"SessionTime"|"Min"|0.0|0.0|10
16684,1564322952343,1,2.29,1.42,0.77,2.22,1.96,0.67,-0.57,1.01,9,2,16,0.88,8648,100,78,32,86,1397,605.0,636,459,60,129.0,536,1,428,588,315,0,0,632,243,-3038,606,-5.59,,,,,,,,,,,,
16704,1564322952363,1,2.31,1.41,0.77,2.21,1.95,0.71,-0.47,1.11,9,1,14,0.86,8442,100,78,32,87,1463,612.0,633,463,60,130.0,536,1,434,519,315,0,0,644,19621,966,612,-5.59,,,,,,,,,,,,
16724,1564322952383,2,2.29,1.41,0.77,2.21,1.95,0.78,-0.47,1.04,8,-2,12,0.91,8314,100,78,32,88,1498,613.0,621,458,60,130.0,303,1,439,589,186,0,0,636,1010,-14655,613,-5.59,,,,,,,,,,,,
16744,1564322952403,1,2.29,1.41,0.76,2.21,1.95,0.59,-0.39,1.01,7,-1,12,0.71,8344,100,78,32,88,1498,615.0,629,461,60,130.0,303,1,438,593,186,0,0,629,-28304,-16883,615,-5.59,44.681423,10.018041,58.41,177.6,0,0.0,-1,0.0,0.0,0,0.14,0.2791
16764,1564322952423,3,2.28,1.41,0.77,2.2,1.96,0.63,-0.29,1.02,6,-3,11,0.69,8561,100,78,32,88,1456,620.0,633,463,60,131.0,303,1,432,611,186,0,0,636,19320,-5120,615,-5.59,,,,,,,,,,,,
16784,1564322952443,3,2.28,1.4,0.76,2.2,1.96,0.72,-0.34,1.04,5,-6,11,0.79,8794,100,78,32,87,1369,621.0,635,458,60,129.0,303,1,424,588,186,0,0,636,3395,11776,620,-5.59,,,,,,,,,,,,
16804,1564322952463,1,2.29,1.41,0.76,2.19,1.95,0.74,-0.3,0.94,4,-6,9,0.79,8937,100,78,32,86,1283,628.0,643,459,60,128.0,303,1,420,588,186,0,0,657,20993,-2345,625,-5.59,,,,,,,,,,,,
16824,1564322952483,2,2.28,1.4,0.76,2.2,1.95,0.86,-0.35,0.93,4,-6,8,0.92,9062,100,78,32,86,1196,633.0,647,462,60,130.0,320,1,418,588,201,0,0,661,-5120,1549,631,-5.59,,,,,,,,,,,,
16844,1564322952499,2,2.29,1.41,0.76,2.21,1.95,0.84,-0.25,0.94,4,-5,7,0.87,9159,100,78,32,86,1120,640.0,645,462,60,129.0,320,1,418,588,201,0,0,667,24,-10344,635,-5.59,44.681431,10.018021,61.6,177.7,0,0.0,-1,0.0,0.0,0,0.14,0.2807
16864,1564322952519,0,2.29,1.4,0.76,2.21,1.95,0.75,-0.03,0.91,4,-4,7,0.75,9177,100,78,32,86,1053,643.0,647,459,60,130.0,320,1,418,588,201,0,0,676,244,1549,640,-5.59,,,,,,,,,,,,
16884,1564322952539,1,2.28,1.41,0.76,2.21,1.95,0.62,0.05,0.88,5,-2,6,0.62,9141,100,78,32,86,1008,648.0,641,465,60,130.0,320,1,418,588,201,0,0,665,479,-26892,647,-5.59,,,,,,,,,,,,
16904,1564322952559,-0,2.28,1.41,0.76,2.2,1.95,0.47,0.18,0.87,5,-2,7,0.5,9066,100,78,32,86,1028,654.0,644,457,60,130.0,320,1,418,588,201,0,0,677,-2830,8958,653,-5.59,,,,,,,,,,,,
16924,1564322952579,1,2.26,1.41,0.76,2.2,1.95,0.37,0.25,0.95,5,-2,5,0.45,9023,100,78,32,86,1045,657.0,641,458,60,130.0,308,1,418,588,202,0,0,673,8958,-26380,656,-5.59,,,,,,,,,,,,
16944,1564322952599,1,2.25,1.41,0.76,2.2,1.94,0.17,0.29,0.97,4,0,6,0.34,9066,100,78,32,86,1056,662.0,642,460,60,130.0,308,1,418,588,202,0,0,675,-2826,24,661,181.28,44.681438,10.018,63.24,177.7,0,0.0,-1,0.0,0.0,0,0.14,0.2824
16964,1564322952619,0,2.25,1.41,0.76,2.2,1.94,0.15,0.27,1.07,3,-0,4,0.31,9186,100,78,32,86,1062,667.0,642,462,60,130.0,308,1,418,588,202,0,0,679,-3578,24845,661,414.87,,,,,,,,,,,,
16984,1564322952639,3,2.25,1.41,0.75,2.21,1.96,0.18,0.12,1.07,2,-1,4,0.21,9351,89,78,32,85,1052,671.0,647,455,60,130.0,308,1,418,576,202,0,0,688,-3038,-10399,666,648.46,,,,,,,,,,,,
17004,1564322952659,0,2.26,1.41,0.76,2.2,1.95,0.22,0.19,1.05,1,-1,4,0.29,9517,72,78,32,81,1043,678.0,650,461,60,129.0,308,1,417,526,202,0,0,698,-10346,1780,669,-5.59,,,,,,,,,,,,
17024,1564322952679,0,2.27,1.41,0.75,2.2,1.95,0.22,0.18,1.08,0,-1,3,0.29,9522,54,78,32,74,1038,685.0,650,458,60,131.0,260,1,416,438,175,0,0,701,-10399,687,675,-5.59,,,,,,,,,,,,
17044,1564322952699,5,2.27,1.4,0.75,2.2,1.96,0.29,-0.01,1.16,-1,0,2,0.29,9474,35,78,32,65,1033,685.0,651,466,60,130.0,260,1,414,366,175,0,0,702,-10399,-3888,677,414.87,44.681442,10.01798,65.65,177.7,0,0.0,-1,0.0,0.0,0,0.15,0.2841
17064,1564322952719,6,2.27,1.41,0.75,2.21,1.95,0.42,-0.04,1.05,-1,-1,0,0.42,9300,19,78,32,54,1038,687.0,649,465,60,130.0,260,1,400,316,175,0,0,701,-2830,-2830,680,-5.59,,,,,,,,,,,,
17084,1564322952739,6,2.27,1.4,0.75,2.2,1.96,0.58,-0.05,0.88,0,-4,-0,0.58,9031,8,78,32,46,1040,687.0,646,461,60,130.0,260,1,363,233,175,0,0,698,6208,-3584,683,-5.59,,,,,,,,,,,,
17104,1564322952759,11,2.26,1.41,0.75,2.2,1.96,0.72,-0.06,0.74,-0,-7,-1,0.73,8700,0,78,32,40,1020,688.0,641,463,60,130.0,260,1,326,137,175,0,0,677,24,16118,683,-5.59,,,,,,,,,,,,
17124,1564322952779,9,2.27,1.41,0.75,2.2,1.95,0.68,-0.09,0.61,-1,-7,-1,0.69,8538,0,78,32,36,1001,684.0,638,465,60,130.0,100,1,310,202,68,0,0,681,-10344,3543,677,648.46,,,,,,,,,,,,
17144,1564322952799,14,2.26,1.41,0.75,2.2,1.95,0.78,-0.03,0.63,-0,-8,-2,0.78,8307,0,78,32,33,978,678.0,636,463,60,130.0,100,1,298,184,68,0,0,669,-10346,-3578,672,181.28,44.681446,10.017957,67.47,177.8,0,0.0,-1,0.0,0.0,0,0.15,0.2857
17164,1564322952819,13,2.27,1.41,0.75,2.21,1.95,0.68,-0.06,0.52,-0,-6,-2,0.68,8081,0,78,32,32,953,678.0,633,462,60,130.0,100,1,291,170,68,0,0,663,-10346,1549,674,648.46,,,,,,,,,,,,
17184,1564322952839,11,2.27,1.41,0.74,2.2,1.96,0.72,0.03,0.39,-1,-3,-2,0.72,7845,0,78,32,30,906,679.0,632,462,60,128.0,100,1,283,166,68,0,0,664,-2345,-388,674,181.28,,,,,,,,,,,,
17204,1564322952859,9,2.26,1.41,0.75,2.21,1.95,0.85,0.04,0.44,-1,-6,-4,0.85,7735,0,78,32,29,859,679.0,627,460,60,129.0,100,1,280,166,68,0,0,577,-26380,2211,670,-5.59,,,,,,,,,,,,
17224,1564322952879,10,2.28,1.42,0.75,2.22,1.96,0.87,0.11,0.41,-1,-6,-4,0.88,7874,0,78,32,29,834,676.0,630,465,60,129.0,70,1,280,164,47,0,0,543,-10344,-23623,663,-5.59,,,,,,,,,,,,
17244,1564322952904,12,2.29,1.42,0.75,2.22,1.96,0.82,0.09,0.42,-1,-5,-3,0.83,7904,0,78,32,28,811,667.0,628,462,60,129.0,70,1,278,164,47,0,0,536,-27404,2216,658,-5.59,44.681454,10.017935,67.36,177.8,0,0.0,-1,0.0,0.0,0,0.15,0.2874
17264,1564322952924,11,2.28,1.42,0.75,2.22,1.97,0.85,0.21,0.42,-2,-2,-6,0.87,8061,0,78,32,29,810,666.0,635,465,60,129.0,70,1,282,167,47,0,0,517,1549,-22519,659,181.28,,,,,,,,,,,,
17284,1564322952944,11,2.29,1.43,0.75,2.22,1.97,0.97,0.18,0.45,-3,-2,-7,0.98,7931,0,78,32,28,809,654.0,632,465,60,129.0,70,1,278,163,47,0,0,497,-2830,-32248,648,-5.59,,,,,,,,,,,,
17304,1564322952964,14,2.27,1.43,0.76,2.23,1.98,0.93,0.18,0.34,-3,-1,-7,0.94,8134,0,78,32,28,826,654.0,632,462,60,130.0,70,1,279,170,47,0,0,526,-2830,10994,644,181.28,,,,,,,,,,,,
17324,1564322952984,9,2.28,1.43,0.75,2.23,1.98,1.04,0.19,0.22,-4,-1,-7,1.05,8054,0,78,32,28,849,647.0,632,464,60,129.0,78,1,279,165,50,0,0,486,-8429,1,632,-5.59,,,,,,,,,,,,
17344,1564322952995,13,2.27,1.42,0.76,2.22,1.97,1.05,0.2,0.22,-4,-2,-8,1.07,8169,0,78,32,28,868,642.0,633,466,60,130.0,78,1,279,171,50,0,0,489,-2830,10994,631,-5.59,44.681461,10.017913,65.1,177.8,0,0.0,-1,0.0,0.0,0,0.15,0.2891
17364,1564322953015,9,2.29,1.42,0.76,2.22,1.97,1.1,0.17,0.19,-5,-2,-7,1.11,8173,0,78,32,28,886,636.0,635,465,60,130.0,78,1,279,171,50,0,0,519,-2580,8488,623,648.46,,,,,,,,,,,,
17384,1564322953035,12,2.28,1.43,0.75,2.22,1.98,1.15,0.17,0.28,-5,-4,-9,1.17,8205,0,78,32,27,889,629.0,636,465,60,131.0,78,1,276,172,50,0,0,501,-14655,-10483,616,181.28,,,,,,,,,,,,
17404,1564322953055,8,2.3,1.42,0.75,2.2,1.98,1.22,0.18,0.29,-5,-7,-8,1.24,8307,0,78,32,27,885,624.0,638,465,60,130.0,78,1,277,175,50,0,0,469,-1346,11560,609,414.87,,,,,,,,,,,,
17424,1564322953075,11,2.29,1.42,0.75,2.21,1.97,1.13,0.19,0.21,-5,-5,-9,1.15,8267,0,78,32,27,873,621.0,638,464,60,131.0,92,1,277,176,56,0,0,439,19320,-8985,605,414.87,,,,,,,,,,,,
17444,1564322953094,8,2.31,1.42,0.75,2.2,1.97,1.21,0.22,0.21,-6,-5,-11,1.23,8285,0,78,32,27,857,617.0,637,463,60,130.0,92,1,277,177,56,0,0,451,3403,26704,605,414.87,44.681461,10.017891,62.1,177.8,0,0.0,-1,0.0,0.0,0,0.15,0.2907
17464,1564322953114,11,2.31,1.42,0.76,2.2,1.97,1.16,0.22,0.09,-6,-4,-9,1.18,8285,0,78,32,26,843,613.0,637,465,60,130.0,92,1,273,177,56,0,0,470,-28304,5600,599,414.87,,,,,,,,,,,,
17484,1564322953134,8,2.32,1.42,0.76,2.19,1.98,1.21,0.27,0.1,-7,-5,-11,1.24,8300,0,78,32,26,831,608.0,641,463,60,129.0,92,1,273,177,56,0,0,445,17740,8488,591,882.05,,,,,,,,,,,,
17504,1564322953154,10,2.31,1.42,0.75,2.19,1.97,1.16,0.18,0.09,-7,-5,-11,1.17,8274,0,78,32,26,818,603.0,637,463,60,131.0,92,1,273,176,56,0,0,426,-3210,14488,584,414.87,,,,,,,,,,,,
17524,1564322953174,6,2.33,1.42,0.75,2.2,1.98,1.18,0.2,0.14,-8,-5,-11,1.19,8263,0,78,32,26,803,597.0,636,462,60,130.0,94,1,273,176,55,0,0,459,23619,13180,580,-5.59,,,,,,,,,,,,
17544,1564322953202,10,2.32,1.41,0.76,2.2,1.97,1.15,0.15,0.08,-7,-2,-13,1.16,8300,0,78,32,26,795,592.0,638,467,60,131.0,94,1,273,177,55,0,0,460,6273,-4082,580,414.87,44.681469,10.017871,59.57,177.9,0,0.0,-1,0.0,0.0,0,0.15,0.2924
17564,1564322953222,8,2.33,1.41,0.75,2.21,1.97,1.19,0.21,0.14,-8,-2,-12,1.21,8307,0,78,32,26,792,589.0,633,463,60,130.0,94,1,273,177,55,0,0,432,2048,6193,572,181.28,,,,,,,,,,,,
17584,1564322953242,11,2.33,1.42,0.76,2.2,1.98,1.19,0.24,0.07,-8,-1,-13,1.22,8285,0,78,32,26,792,584.0,637,463,60,130.0,94,1,273,176,55,0,0,427,15649,6193,569,648.46,,,,,,,,,,,,
17604,1564322953262,7,2.33,1.42,0.76,2.2,1.97,1.22,0.28,0.08,-8,-2,-12,1.25,8296,0,78,32,26,796,576.0,638,465,60,130.0,94,1,273,176,55,0,0,458,1,26704,560,181.28,,,,,,,,,,,,
17624,1564322953282,7,2.33,1.42,0.76,2.2,1.98,1.27,0.23,0.06,-8,-2,-11,1.29,8337,0,78,32,26,800,571.0,637,465,60,131.0,98,1,273,179,55,0,0,470,1267,-768,556,414.87,,,,,,,,,,,,
17644,1564322953302,9,2.34,1.41,0.76,2.2,1.98,1.19,0.27,0.12,-8,-4,-12,1.22,8366,0,78,32,26,806,564.0,639,466,60,131.0,98,1,273,179,55,0,0,460,-30159,16648,553,414.87,44.681473,10.017852,57.29,177.9,0,0.0,-1,0.0,0.0,0,0.16,0.2941
17664,1564322953322,8,2.34,1.42,0.76,2.21,1.97,1.25,0.31,0.1,-7,-3,-11,1.29,8385,0,78,32,26,816,560.0,637,465,60,130.0,98,1,273,179,55,0,0,436,-28648,21432,550,648.46,,,,,,,,,,,,
17684,1564322953342,10,2.34,1.42,0.76,2.21,1.98,1.13,0.33,0.07,-7,-3,-11,1.18,8325,0,78,32,26,830,557.0,639,463,60,130.0,98,1,273,178,55,0,0,433,2216,-9160,544,414.87,,,,,,,,,,,,
17704,1564322953362,6,2.35,1.42,0.76,2.21,1.97,1.22,0.36,0.09,-7,-2,-11,1.27,8281,0,78,32,26,842,551.0,640,465,60,130.0,98,1,273,177,55,0,0,460,2104,15649,541,648.46,,,,,,,,,,,,
17724,1564322953382,10,2.35,1.43,0.76,2.22,1.98,1.18,0.33,0.06,-7,-1,-9,1.22,8311,0,78,32,25,850,544.0,637,462,60,130.0,102,1,270,177,55,0,0,468,-506,-768,535,414.87,,,,,,,,,,,,
17744,1564322953402,7,2.35,1.42,0.76,2.21,1.98,1.26,0.33,0.09,-6,-3,-10,1.3,8329,0,78,32,26,859,540.0,640,463,60,130.0,102,1,273,176,55,0,0,447,-8186,21580,530,648.46,44.681477,10.017833,54.66,177.9,0,0.0,-1,0.0,0.0,0,0.16,0.2957
17764,1564322953422,8,2.34,1.42,0.76,2.22,1.98,1.22,0.25,0.0,-6,-3,-9,1.25,8296,0,78,32,26,874,534.0,638,464,60,131.0,102,1,273,176,55,0,0,430,-32248,14488,528,414.87,,,,,,,,,,,,
17784,1564322953442,7,2.34,1.42,0.76,2.22,1.98,1.23,0.33,0.11,-6,-3,-8,1.27,8281,0,78,32,26,886,528.0,639,466,60,129.0,102,1,273,175,55,0,0,449,-28648,14488,524,414.87,,,,,,,,,,,,
17804,1564322953462,11,2.33,1.43,0.77,2.22,1.98,1.2,0.3,0.09,-5,-2,-8,1.23,8329,0,78,32,25,892,524.0,641,465,60,131.0,102,1,270,178,55,0,0,455,10408,-4082,519,648.46,,,,,,,,,,,,
17824,1564322953482,8,2.32,1.43,0.77,2.22,1.98,1.2,0.32,0.13,-5,-1,-7,1.24,8322,0,78,32,25,900,519.0,637,465,60,130.0,106,1,270,178,55,0,0,456,-8187,-3314,514,-5.59,,,,,,,,,,,,
17844,1564322953500,10,2.33,1.43,0.77,2.23,1.98,1.23,0.29,0.07,-4,-1,-7,1.26,8281,0,78,32,25,912,513.0,639,464,60,131.0,106,1,270,175,55,0,0,441,26178,243,509,414.87,44.68148,10.017816,52.47,178.0,0,0.0,-1,0.0,0.0,0,0.16,0.2974
17864,1564322953520,8,2.32,1.43,0.77,2.22,1.98,1.25,0.28,0.11,-3,-2,-7,1.28,8292,0,78,32,25,924,507.0,636,467,60,130.0,106,1,270,176,55,0,0,444,-21872,17628,507,181.28,,,,,,,,,,,,
17884,1564322953540,7,2.3,1.43,0.76,2.22,1.98,1.3,0.32,0.14,-3,-1,-5,1.34,8348,0,78,32,26,930,502.0,638,463,60,130.0,106,1,273,179,55,0,0,452,11560,8488,502,882.05,,,,,,,,,,,,
17904,1564322953560,9,2.28,1.43,0.77,2.22,1.98,1.18,0.37,0.1,-2,-2,-5,1.24,8363,0,78,32,25,936,498.0,638,464,60,130.0,106,1,270,179,55,0,0,460,998,3571,498,181.28,,,,,,,,,,,,
17924,1564322953580,7,2.27,1.43,0.77,2.23,1.98,1.23,0.36,0.08,-2,-1,-4,1.29,8385,0,78,32,26,945,493.0,641,465,60,130.0,113,1,273,179,56,0,0,452,-32768,8488,490,648.46,,,,,,,,,,,,
17944,1564322953600,9,2.25,1.43,0.77,2.23,1.98,1.16,0.28,0.01,-2,0,-4,1.2,8359,0,78,32,25,955,487.0,640,465,60,130.0,113,1,270,179,56,0,0,452,1,-18108,484,414.87,44.681484,10.017797,50.05,178.0,0,0.0,-1,0.0,0.0,0,0.16,0.2991
17964,1564322953620,4,2.23,1.43,0.77,2.23,1.98,1.21,0.38,0.06,-2,-1,-4,1.26,8381,0,78,32,25,959,485.0,642,466,60,130.0,113,1,270,180,56,0,0,437,-6441,16648,481,181.28,,,,,,,,,,,,
17984,1564322953640,5,2.22,1.42,0.78,2.23,1.99,1.18,0.36,0.04,-3,1,-5,1.24,8378,0,78,32,25,963,484.0,638,463,60,131.0,113,1,270,180,56,0,0,460,-10483,-9160,477,181.28,,,,,,,,,,,,
18004,1564322953660,2,2.19,1.42,0.77,2.23,1.98,1.13,0.36,0.09,-4,-0,-6,1.19,8366,0,78,32,25,974,484.0,640,466,60,130.0,113,1,270,179,56,0,0,462,32033,17628,470,-5.59,,,,,,,,,,,,
18024,1564322953680,-1,2.17,1.42,0.77,2.22,1.99,1.19,0.4,0.05,-5,1,-5,1.25,8348,0,78,32,25,985,480.0,636,462,60,131.0,118,1,270,181,56,0,0,456,8488,2524,468,414.87,,,,,,,,,,,,
18044,1564322953699,3,2.16,1.42,0.77,2.23,1.99,1.05,0.5,0.07,-5,2,-7,1.16,8385,0,78,32,25,992,477.0,641,464,60,131.0,118,1,270,181,56,0,0,462,2212,15649,461,414.87,44.681484,10.017781,47.49,178.1,0,0.0,-1,0.0,0.0,0,0.16,0.3007
18064,1564322953719,-1,2.15,1.42,0.77,2.24,1.98,1.13,0.5,0.06,-7,1,-8,1.24,8404,0,78,32,25,999,475.0,638,462,60,129.0,118,1,270,182,56,0,0,456,-23367,2131,456,-5.59,,,,,,,,,,,,
18084,1564322953739,-2,2.14,1.42,0.77,2.22,1.98,1.14,0.44,0.02,-9,1,-8,1.22,8445,0,78,32,25,1013,473.0,640,462,60,130.0,118,1,270,184,56,0,0,455,3576,-28332,450,181.28,,,,,,,,,,,,
18104,1564322953759,3,2.12,1.42,0.77,2.23,1.97,1.02,0.58,0.06,-9,-1,-11,1.18,8442,0,78,32,25,1026,472.0,641,460,60,129.0,118,1,270,184,56,0,0,459,-1923,26704,446,181.28,,,,,,,,,,,,
18124,1564322953779,-2,2.13,1.41,0.77,2.24,1.97,1.09,0.57,0.03,-11,-1,-11,1.23,8400,0,78,32,25,1035,470.0,640,466,60,130.0,127,1,270,180,57,0,0,454,8488,-7939,444,-5.59,,,,,,,,,,,,
18144,1564322953800,2,2.12,1.42,0.77,2.23,1.98,0.95,0.63,0.04,-11,0,-13,1.14,8318,0,78,32,25,1042,471.0,640,464,60,131.0,127,1,270,99,57,0,0,460,32033,1779,442,-5.59,44.681488,10.017765,45.6,178.1,0,0.0,-1,0.0,0.0,0,0.16,0.3024
18164,1564322953820,-1,2.12,1.41,0.77,2.23,1.97,1.04,0.59,0.06,-12,-1,-16,1.2,8245,0,78,32,25,1053,467.0,637,463,60,130.0,127,1,270,173,57,0,0,456,243,13180,442,181.28,,,,,,,,,,,,
18184,1564322953840,3,2.11,1.42,0.76,2.23,1.98,0.94,0.64,0.0,-13,1,-16,1.14,8216,0,78,32,25,1064,464.0,638,464,60,131.0,127,1,270,171,57,0,0,452,6193,31796,435,-5.59,,,,,,,,,,,,
18204,1564322953860,-2,2.13,1.41,0.76,2.22,1.98,1.01,0.6,0.02,-14,-0,-18,1.18,8130,6,78,32,25,1070,460.0,641,465,60,130.0,127,1,270,166,57,0,0,448,-23623,-3414,434,648.46,,,,,,,,,,,,
18224,1564322953880,2,2.12,1.41,0.76,2.24,1.98,0.98,0.6,0.05,-15,-2,-19,1.15,8078,18,78,32,26,1075,461.0,637,467,60,129.0,118,1,273,164,51,0,0,448,-23623,-8165,430,-5.59,,,,,,,,,,,,
18244,1564322953904,2,2.12,1.42,0.76,2.24,1.98,0.93,0.59,0.07,-15,-1,-21,1.1,8099,23,78,33,29,1080,458.0,636,464,60,131.0,118,1,282,168,51,0,0,441,17628,18584,428,648.46,44.681492,10.01775,44.11,178.1,0,0.0,-1,0.0,0.0,0,0.17,0.3041
18264,1564322953924,0,2.13,1.41,0.77,2.23,1.98,0.97,0.62,0.1,-16,-3,-23,1.15,8113,28,78,33,32,1086,454.0,637,463,60,130.0,118,1,292,173,51,0,0,445,14488,7154,429,181.28,,,,,,,,,,,,
18284,1564322953944,2,2.14,1.41,0.77,2.23,1.98,0.86,0.58,0.15,-16,-2,-22,1.04,8141,31,78,33,35,1088,452.0,635,464,60,130.0,118,1,300,188,51,0,0,434,-6387,-8165,426,414.87,,,,,,,,,,,,
18304,1564322953964,-1,2.13,1.42,0.77,2.24,1.98,0.94,0.57,0.18,-17,-3,-24,1.1,8234,31,78,33,37,1089,453.0,635,462,60,130.0,118,1,308,201,51,0,0,448,-6387,-21792,424,414.87,,,,,,,,,,,,
18324,1564322953984,1,2.14,1.42,0.77,2.23,1.97,0.77,0.63,0.16,-16,-1,-24,0.99,8337,31,78,33,39,1089,452.0,637,465,60,131.0,150,1,316,134,64,0,0,448,-6387,-21944,422,-5.59,,,,,,,,,,,,
18344,1564322953996,1,2.14,1.41,0.76,2.24,1.98,0.89,0.71,0.15,-17,-3,-23,1.14,8385,31,78,33,41,1088,452.0,635,459,60,130.0,150,1,330,215,64,0,0,445,-3267,18584,422,-5.59,44.681492,10.017735,43.2,178.1,0,0.0,-1,0.0,0.0,0,0.17,0.3057
18364,1564322954016,-0,2.15,1.42,0.77,2.24,1.97,0.86,0.64,0.23,-17,-1,-24,1.07,8415,31,78,33,41,1087,450.0,640,460,60,130.0,150,1,331,215,64,0,0,447,-3267,7154,420,-5.59,,,,,,,,,,,,
18384,1564322954036,2,2.15,1.41,0.77,2.24,1.98,0.74,0.76,0.24,-16,-2,-24,1.06,8495,32,78,33,42,1085,449.0,638,461,60,131.0,150,1,338,217,64,0,0,447,15649,-8165,421,-5.59,,,,,,,,,,,,
18404,1564322954056,-1,2.16,1.41,0.77,2.22,1.98,0.86,0.76,0.26,-17,-3,-24,1.14,8561,32,78,33,42,1067,448.0,642,461,60,129.0,150,1,338,218,64,0,0,441,8488,3826,423,-5.59,,,,,,,,,,,,
18424,1564322954076,-1,2.19,1.42,0.78,2.22,1.98,0.97,0.61,0.3,-17,-2,-26,1.15,8632,32,78,33,43,1035,446.0,643,461,60,130.0,167,1,345,219,71,0,0,441,16648,-3414,424,-5.59,,,,,,,,,,,,
18444,1564322954103,-0,2.2,1.41,0.77,2.23,1.98,0.93,0.48,0.34,-16,-1,-24,1.04,8716,32,78,33,43,1003,445.0,645,461,60,131.0,167,1,345,221,71,0,0,440,21432,13552,422,-5.59,44.681492,10.017719,42.36,178.1,0,0.0,-1,0.0,0.0,0,0.17,0.3074
18464,1564322954123,1,2.22,1.42,0.78,2.23,1.99,0.75,0.48,0.46,-15,0,-24,0.9,8769,32,78,33,42,973,444.0,647,462,60,131.0,167,1,338,221,71,0,0,441,21432,31796,423,-5.59,,,,,,,,,,,,
18484,1564322954143,1,2.24,1.42,0.79,2.23,1.99,0.74,0.54,0.53,-14,1,-23,0.92,8636,32,78,33,42,952,444.0,641,461,60,130.0,167,1,338,219,71,0,0,448,2131,2131,428,-5.59,,,,,,,,,,,,
18504,1564322954163,-1,2.26,1.42,0.78,2.24,1.98,0.77,0.52,0.6,-13,2,-21,0.93,8396,33,78,33,43,942,446.0,638,462,60,131.0,167,1,343,219,71,0,0,451,16648,16648,430,-5.59,,,,,,,,,,,,
18524,1564322954183,1,2.28,1.42,0.78,2.23,1.98,0.77,0.54,0.64,-12,-1,-21,0.94,8127,33,78,33,44,940,447.0,633,462,60,130.0,157,1,348,218,68,0,0,452,10305,23400,436,-5.59,,,,,,,,,,,,
18544,1564322954203,3,2.29,1.42,0.78,2.24,1.98,0.68,0.5,0.58,-10,0,-19,0.84,8026,33,78,33,45,961,447.0,631,461,60,130.0,157,1,355,219,68,0,0,447,10305,16648,440,181.28,44.681492,10.017705,42.26,178.2,0,0.0,-1,0.0,0.0,0,0.17,0.3091
18564,1564322954223,0,2.3,1.42,0.77,2.24,1.98,0.8,0.45,0.65,-9,-2,-18,0.92,8002,33,78,33,46,990,445.0,631,461,60,129.0,157,1,362,221,68,0,0,446,2131,20625,441,-5.59,,,,,,,,,,,,
18584,1564322954243,1,2.32,1.42,0.78,2.23,1.98,0.83,0.41,0.65,-7,-5,-18,0.92,7995,33,78,33,47,1028,443.0,632,461,60,130.0,157,1,370,223,68,0,0,440,23400,20625,438,181.28,,,,,,,,,,,,
18604,1564322954263,3,2.33,1.42,0.77,2.24,1.97,0.77,0.33,0.62,-6,-5,-16,0.84,8026,33,78,33,48,1062,441.0,633,459,60,131.0,157,1,372,229,68,0,0,441,26704,21580,439,648.46,,,,,,,,,,,,
18624,1564322954283,-0,2.35,1.42,0.77,2.23,1.98,0.86,0.3,0.6,-5,-6,-14,0.91,8092,33,78,33,48,1079,441.0,633,463,60,129.0,156,1,372,229,69,0,0,437,20625,19477,440,-5.59,,,,,,,,,,,,
18644,1564322954303,0,2.36,1.42,0.77,2.24,1.98,0.73,0.2,0.56,-4,-6,-14,0.76,8113,33,78,33,48,1097,441.0,632,459,60,131.0,156,1,372,230,69,0,0,435,20625,-28332,441,414.87,44.681492,10.01769,43.53,178.2,0,0.0,-1,0.0,0.0,0,0.17,0.3107
18664,1564322954323,1,2.38,1.42,0.77,2.23,1.98,0.81,0.11,0.61,-3,-5,-11,0.82,8134,33,78,33,48,1113,444.0,635,461,60,130.0,156,1,372,230,69,0,0,436,-28332,23400,444,181.28,,,,,,,,,,,,
18684,1564322954343,3,2.4,1.42,0.77,2.25,1.98,0.76,0.08,0.57,-1,-4,-9,0.77,8205,34,79,33,47,1127,448.0,636,462,60,131.0,156,1,370,231,69,0,0,435,21580,-18341,448,181.28,,,,,,,,,,,,
18704,1564322954363,-1,2.43,1.42,0.77,2.25,1.98,0.79,0.03,0.59,0,-3,-8,0.79,8191,34,78,33,47,1126,450.0,634,461,60,130.0,156,1,370,224,69,0,0,437,21580,3571,450,-5.59,,,,,,,,,,,,
18724,1564322954383,2,2.46,1.43,0.77,2.25,1.98,0.72,-0.02,0.62,3,-3,-5,0.72,8289,34,78,33,47,1127,449.0,633,461,60,130.0,155,1,370,225,70,0,0,432,-768,21432,449,-5.59,,,,,,,,,,,,
18744,1564322954405,1,2.48,1.43,0.78,2.25,1.98,0.8,-0.1,0.6,5,-2,-3,0.81,8355,33,79,33,47,1137,450.0,636,460,60,130.0,155,1,370,224,70,0,0,431,1779,3571,450,181.28,44.681488,10.017674,43.56,178.2,0,0.0,-1,0.0,0.0,0,0.17,0.3124
18764,1564322954425,3,2.51,1.43,0.77,2.26,1.98,0.7,-0.18,0.6,8,-1,-1,0.72,8370,29,78,33,46,1148,450.0,634,462,60,131.0,155,1,363,224,70,0,0,428,3635,10305,452,181.28,,,,,,,,,,,,
18784,1564322954445,1,2.52,1.43,0.77,2.26,1.99,0.76,-0.24,0.61,10,-3,2,0.8,8400,22,78,33,44,1158,454.0,637,463,60,130.0,155,1,350,221,70,0,0,425,-3856,3571,454,-5.59,,,,,,,,,,,,
18804,1564322954465,0,2.54,1.42,0.77,2.25,1.99,0.78,-0.38,0.53,12,-2,5,0.87,8423,16,78,33,40,1171,453.0,632,461,60,131.0,155,1,324,215,70,0,0,429,-4082,14488,457,181.28,,,,,,,,,,,,
18824,1564322954485,2,2.55,1.43,0.78,2.26,1.99,0.72,-0.44,0.55,14,-1,8,0.85,8461,15,79,33,38,1194,458.0,635,461,60,129.0,148,1,316,208,68,0,0,452,-8165,-9160,458,-5.59,,,,,,,,,,,,
18844,1564322954503,1,2.57,1.43,0.78,2.27,1.99,0.85,-0.49,0.59,16,-3,11,0.98,8465,15,78,33,36,1218,459.0,635,463,60,129.0,148,1,310,200,68,0,0,482,-21792,-9160,460,-5.59,44.681488,10.017659,43.57,178.2,0,0.0,-1,0.0,0.0,0,0.17,0.3141
18864,1564322954523,-1,2.59,1.43,0.78,2.26,1.99,0.79,-0.64,0.41,18,0,15,1.02,8522,15,78,33,34,1231,459.0,636,461,60,131.0,148,1,305,195,68,0,0,479,7154,14488,459,-5.59,,,,,,,,,,,,
18884,1564322954543,1,2.61,1.43,0.78,2.26,2.0,0.74,-0.66,0.43,20,2,18,0.99,8499,15,78,33,33,1245,459.0,637,461,60,130.0,148,1,301,190,68,0,0,477,-21944,-6387,459,-5.59,,,,,,,,,,,,
18904,1564322954563,1,2.6,1.44,0.78,2.26,2.0,0.8,-0.69,0.42,21,2,21,1.05,8499,16,79,33,32,1258,458.0,635,458,60,129.0,148,1,299,187,68,0,0,472,2524,2211,458,-5.59,,,,,,,,,,,,
18924,1564322954583,3,2.62,1.43,0.78,2.26,2.0,0.77,-0.79,0.46,23,1,23,1.11,8434,16,79,33,32,1271,457.0,636,465,60,130.0,131,1,298,185,60,0,0,471,2524,2524,457,-5.59,,,,,,,,,,,,
18944,1564322954599,-0,2.63,1.43,0.79,2.26,2.0,0.84,-0.86,0.43,25,1,26,1.2,8400,16,79,33,31,1273,457.0,635,462,60,130.0,131,1,294,183,60,0,0,461,13040,-9160,457,-5.59,44.681488,10.017644,43.4,178.2,0,0.0,-1,0.0,0.0,0,0.17,0.3157
18964,1564322954619,-1,2.64,1.43,0.78,2.26,2.0,0.85,-0.92,0.49,26,1,28,1.25,8351,16,79,33,31,1273,460.0,637,466,60,130.0,131,1,293,182,60,0,0,454,9517,14488,460,-5.59,,,,,,,,,,,,
18984,1564322954639,2,2.63,1.44,0.78,2.26,2.0,0.79,-0.97,0.44,28,1,30,1.26,8329,16,79,33,31,1218,459.0,635,462,60,131.0,131,1,292,180,60,0,0,451,11560,2524,457,-5.59,,,,,,,,,,,,
19004,1564322954659,-1,2.63,1.43,0.78,2.27,1.99,0.82,-1.0,0.47,29,1,32,1.3,8245,16,79,33,31,1160,457.0,630,462,60,130.0,131,1,291,177,60,0,0,445,2524,-9160,457,181.28,,,,,,,,,,,,
19024,1564322954679,2,2.63,1.44,0.78,2.27,2.0,0.8,-1.04,0.42,31,-0,35,1.32,8194,17,79,33,31,1102,457.0,517,462,60,130.0,120,1,289,175,55,0,0,441,2524,-23623,456,181.28,,,,,,,,,,,,
19044,1564322954699,2,2.64,1.44,0.78,2.27,2.0,0.85,-1.07,0.45,33,-1,36,1.37,8162,17,79,33,31,1043,456.0,408,460,60,130.0,120,1,288,174,55,0,0,443,-9211,2524,456,648.46,44.681488,10.017629,43.36,178.2,0,0.0,-1,0.0,0.0,0,0.17,0.3174
19064,1564322954719,1,2.63,1.43,0.79,2.26,2.0,0.9,-1.08,0.41,34,-2,37,1.41,8078,17,79,33,31,977,456.0,382,464,60,130.0,120,1,288,170,55,0,0,439,-8151,10305,455,181.28,,,,,,,,,,,,
19084,1564322954739,0,2.63,1.44,0.79,2.26,2.0,0.91,-1.15,0.38,35,-3,39,1.46,8002,17,79,33,31,906,456.0,342,460,60,131.0,120,1,287,169,55,0,0,436,10541,-8985,456,414.87,,,,,,,,,,,,
19104,1564322954759,3,2.63,1.44,0.79,2.26,2.01,0.97,-1.18,0.43,36,-2,40,1.53,7928,17,79,33,32,877,454.0,345,461,60,131.0,120,1,290,169,55,0,0,436,10541,21432,456,414.87,,,,,,,,,,,,
19124,1564322954779,-1,2.62,1.44,0.78,2.27,2.0,1.01,-1.2,0.36,37,-3,41,1.57,7898,17,79,33,33,865,454.0,347,463,60,130.0,110,1,292,174,50,0,0,432,10541,2131,454,414.87,,,,,,,,,,,,
19144,1564322954801,-0,2.63,1.44,0.78,2.26,2.01,0.96,-1.21,0.36,38,-3,43,1.54,7884,17,79,33,33,854,452.0,316,460,60,130.0,110,1,292,174,50,0,0,412,28696,-18341,452,-5.59,44.681492,10.017614,42.87,178.2,0,0.0,-1,0.0,0.0,0,0.18,0.3191
19164,1564322954821,1,2.61,1.44,0.79,2.26,2.0,0.87,-1.25,0.36,38,-4,43,1.52,7928,18,79,33,33,844,450.0,298,461,60,130.0,110,1,292,174,50,0,0,391,-32702,21580,450,-5.59,,,,,,,,,,,,
19184,1564322954841,2,2.58,1.44,0.79,2.26,1.99,0.86,-1.24,0.41,39,-3,43,1.51,7908,18,79,33,34,840,449.0,293,462,60,130.0,110,1,295,179,50,0,0,380,-1818,10305,451,-5.59,,,,,,,,,,,,
19204,1564322954861,-2,2.54,1.44,0.78,2.26,2.01,0.86,-1.21,0.37,39,-2,45,1.49,7848,18,79,33,34,842,449.0,296,464,60,130.0,110,1,295,179,50,0,0,380,-1818,20625,449,-5.59,,,,,,,,,,,,
19224,1564322954881,-0,2.49,1.44,0.79,2.26,2.0,0.78,-1.15,0.33,39,-3,46,1.39,7838,21,79,33,34,846,451.0,289,460,60,131.0,118,1,295,179,53,0,0,379,505,21432,451,-5.59,,,,,,,,,,,,
19244,1564322954905,1,2.45,1.44,0.78,2.27,2.0,0.75,-1.14,0.34,38,-3,47,1.36,7789,21,79,33,35,851,446.0,290,461,60,130.0,118,1,298,185,53,0,0,381,-6656,20625,446,-5.59,44.681496,10.0176,42.14,178.2,0,0.0,-1,0.0,0.0,0,0.18,0.3207
19264,1564322954925,1,2.41,1.43,0.79,2.26,1.99,0.74,-1.11,0.37,36,-2,49,1.33,7799,21,79,33,36,855,443.0,286,462,60,130.0,118,1,301,191,53,0,0,381,-6656,21580,443,-5.59,,,,,,,,,,,,
19284,1564322954945,3,2.37,1.44,0.78,2.27,2.0,0.84,-1.07,0.36,33,-2,49,1.36,7760,21,79,33,37,857,440.0,282,463,60,129.0,118,1,304,197,53,0,0,384,-3968,243,438,-5.59,,,,,,,,,,,,
19304,1564322954965,0,2.36,1.44,0.78,2.27,1.99,0.93,-1.03,0.3,30,-2,49,1.39,7712,21,79,33,37,859,437.0,280,460,60,130.0,118,1,304,197,53,0,0,390,6512,-3314,437,-5.59,,,,,,,,,,,,
19324,1564322954985,-1,2.33,1.43,0.78,2.26,1.99,0.95,-1.01,0.25,29,-2,45,1.39,7728,21,79,33,38,859,433.0,277,464,60,130.0,131,1,307,203,57,0,0,394,-8151,31796,433,-5.59,,,,,,,,,,,,
19344,1564322954997,1,2.3,1.43,0.79,2.26,1.99,0.96,-0.93,0.29,28,-2,41,1.34,7700,21,79,33,38,858,429.0,278,461,60,130.0,131,1,307,203,57,0,0,411,11560,-3856,427,-5.59,44.6815,10.017588,41.42,178.2,0,0.0,-1,0.0,0.0,0,0.18,0.3224
19364,1564322955017,1,2.28,1.43,0.78,2.26,1.99,0.91,-0.82,0.34,25,-0,38,1.22,7725,22,79,33,38,855,421.0,277,462,60,130.0,131,1,307,203,57,0,0,407,9517,-8165,421,-5.59,,,,,,,,,,,,
19384,1564322955037,1,2.24,1.43,0.78,2.26,1.99,0.79,-0.78,0.32,20,0,35,1.11,7693,22,79,33,39,853,415.0,275,458,60,131.0,131,1,310,209,57,0,0,411,-9166,-21944,415,-5.59,,,,,,,,,,,,
19404,1564322955057,3,2.2,1.43,0.78,2.25,1.99,0.76,-0.65,0.33,16,0,33,1.0,7678,22,79,33,39,852,415.0,277,463,60,130.0,131,1,310,209,57,0,0,414,2524,13040,411,181.28,,,,,,,,,,,,
19424,1564322955077,3,2.17,1.42,0.77,2.24,1.97,0.82,-0.51,0.36,12,-0,31,0.97,7712,22,79,34,40,852,418.0,279,463,60,129.0,149,1,317,210,61,0,0,412,-3414,10392,409,414.87,,,,,,,,,,,,
19444,1564322955104,-0,2.16,1.41,0.75,2.22,1.96,0.9,-0.35,0.41,7,-1,27,0.97,7697,22,79,34,40,854,420.0,286,465,60,129.0,149,1,317,210,61,0,0,413,-8165,11560,406,181.28,44.681503,10.017574,40.94,178.2,0,0.0,-1,0.0,0.0,0,0.18,0.3241
19464,1564322955124,-1,2.15,1.39,0.74,2.19,1.94,0.98,-0.2,0.46,4,-2,23,1.0,7700,22,79,34,40,856,422.0,295,462,60,130.0,149,1,317,210,61,0,0,419,-3414,-8151,403,-5.59,,,,,,,,,,,,
19484,1564322955144,1,2.15,1.37,0.73,2.18,1.93,0.97,-0.08,0.46,3,-2,19,0.97,7709,22,79,34,40,861,424.0,311,463,60,130.0,149,1,317,210,61,0,0,419,3826,10541,404,-5.59,,,,,,,,,,,,
19504,1564322955164,1,2.15,1.38,0.73,2.18,1.92,0.88,0.0,0.45,2,-2,14,0.88,7738,22,79,33,41,865,424.0,334,462,60,131.0,149,1,325,210,61,0,0,421,-4082,-8151,404,-5.59,,,,,,,,,,,,
19524,1564322955184,2,2.12,1.38,0.73,2.17,1.92,0.78,0.08,0.4,1,-1,10,0.79,7747,22,79,34,40,868,424.0,355,459,60,131.0,153,1,317,212,62,0,0,422,-4082,6384,402,-5.59,,,,,,,,,,,,
19544,1564322955204,2,2.09,1.38,0.73,2.17,1.91,0.76,0.16,0.34,-1,0,7,0.77,7809,22,79,34,41,870,424.0,377,461,60,131.0,153,1,325,212,62,0,0,419,-4082,-3968,400,-5.59,44.681511,10.017563,40.51,178.2,0,0.0,-1,0.0,0.0,0,0.18,0.3257
19564,1564322955224,-0,2.07,1.39,0.72,2.18,1.91,0.88,0.18,0.37,-4,-2,4,0.9,7845,23,79,34,41,873,423.0,404,464,60,130.0,153,1,325,212,62,0,0,418,-4082,-32702,398,-5.59,,,,,,,,,,,,
19584,1564322955244,1,2.05,1.38,0.73,2.18,1.93,0.99,0.27,0.43,-6,-3,1,1.03,7841,23,79,33,40,875,424.0,423,460,60,130.0,153,1,317,212,62,0,0,419,-4082,-32702,392,-5.59,,,,,,,,,,,,
19604,1564322955264,2,2.04,1.38,0.74,2.18,1.93,0.84,0.42,0.39,-8,-2,-2,0.94,7901,23,79,34,41,875,424.0,438,461,60,130.0,153,1,325,212,62,0,0,419,-4082,-31744,393,-5.59,,,,,,,,,,,,
19624,1564322955284,3,2.02,1.39,0.73,2.18,1.92,0.77,0.5,0.38,-10,-1,-6,0.91,7904,23,79,34,41,875,426.0,450,460,60,131.0,161,1,325,212,63,0,0,420,13552,-1818,391,-5.59,,,,,,,,,,,,
19644,1564322955305,-1,2.03,1.39,0.73,2.18,1.92,0.89,0.51,0.45,-13,-4,-9,1.03,7934,23,79,34,41,875,428.0,475,463,60,130.0,161,1,325,212,63,0,0,423,13180,-6656,389,-5.59,44.681515,10.01755,40.08,178.2,0,0.0,-1,0.0,0.0,0,0.18,0.3274
19664,1564322955325,-0,2.02,1.39,0.74,2.18,1.92,0.86,0.63,0.48,-14,-3,-12,1.07,7958,23,79,34,40,876,429.0,514,460,60,130.0,161,1,317,210,63,0,0,426,3635,-31744,388,-5.59,,,,,,,,,,,,
19684,1564322955345,3,2.02,1.39,0.73,2.18,1.92,0.73,0.74,0.42,-16,-1,-16,1.04,7918,23,79,34,40,877,429.0,555,458,60,130.0,161,1,317,210,63,0,0,429,3635,-6524,386,181.28,,,,,,,,,,,,
19704,1564322955365,0,2.02,1.39,0.74,2.18,1.93,0.81,0.7,0.43,-18,-2,-17,1.08,7838,23,79,34,41,878,430.0,589,462,60,129.0,161,1,325,212,63,0,0,425,1779,-8151,387,181.28,,,,,,,,,,,,
19724,1564322955385,-1,2.02,1.39,0.74,2.19,1.92,0.94,0.74,0.52,-20,-2,-20,1.19,7751,24,79,34,41,889,431.0,610,463,60,130.0,160,1,325,212,62,0,0,423,1779,-3414,387,-5.59,,,,,,,,,,,,
19744,1564322955404,-2,2.03,1.39,0.74,2.19,1.93,1.0,0.77,0.58,-21,-4,-23,1.26,7678,24,79,34,41,901,429.0,623,462,60,130.0,160,1,325,212,62,0,0,424,3635,11545,387,-5.59,44.681522,10.017538,39.54,178.2,0,0.0,-1,0.0,0.0,0,0.18,0.3291
19764,1564322955424,-1,2.02,1.4,0.75,2.18,1.93,0.96,0.8,0.6,-21,-6,-25,1.25,7681,24,79,34,42,911,431.0,620,461,60,130.0,160,1,332,214,62,0,0,425,-3314,505,388,-5.59,,,,,,,,,,,,
19784,1564322955444,1,2.02,1.39,0.74,2.18,1.93,0.89,0.9,0.58,-21,-5,-26,1.26,7631,24,79,34,42,922,431.0,620,458,60,131.0,160,1,332,214,62,0,0,425,1779,505,388,181.28,,,,,,,,,,,,
19804,1564322955464,1,2.02,1.39,0.74,2.19,1.93,0.78,0.99,0.55,-21,-4,-27,1.26,7631,24,79,34,42,934,429.0,622,463,60,131.0,160,1,332,214,62,0,0,428,3635,-1818,388,-5.59,,,,,,,,,,,,
19824,1564322955484,1,2.02,1.4,0.74,2.19,1.93,0.68,1.08,0.52,-22,-3,-29,1.27,7575,24,79,34,43,946,432.0,622,464,60,131.0,159,1,340,216,62,0,0,430,1779,-31744,388,-5.59,,,,,,,,,,,,
19844,1564322955502,2,2.02,1.39,0.75,2.2,1.94,0.59,1.11,0.48,-22,-1,-30,1.25,7606,25,79,34,43,950,432.0,620,461,60,130.0,159,1,340,216,62,0,0,426,-3322,240,388,-5.59,44.681522,10.017525,39.78,178.2,0,0.0,-1,0.0,0.0,0,0.18,0.3307
19864,1564322955522,3,2.02,1.39,0.75,2.2,1.94,0.52,1.12,0.41,-23,1,-30,1.24,7591,25,79,34,44,952,431.0,621,465,60,130.0,159,1,347,216,62,0,0,424,1779,-1562,386,-5.59,,,,,,,,,,,,
19884,1564322955542,3,2.01,1.4,0.74,2.2,1.93,0.51,1.18,0.34,-25,1,-32,1.28,7591,25,79,34,44,952,429.0,620,463,60,130.0,159,1,347,217,62,0,0,423,3635,-31744,387,181.28,,,,,,,,,,,,
19904,1564322955562,3,2.02,1.39,0.74,2.21,1.93,0.55,1.16,0.35,-27,0,-33,1.28,7625,25,79,34,44,953,431.0,622,466,60,130.0,159,1,347,217,62,0,0,426,1779,240,386,181.28,,,,,,,,,,,,
19924,1564322955582,3,2.02,1.39,0.75,2.2,1.94,0.63,1.12,0.33,-28,-0,-34,1.28,7584,25,79,34,44,953,432.0,621,461,60,129.0,160,1,347,219,62,0,0,426,-3322,-6656,386,181.28,,,,,,,,,,,,
19944,1564322955596,-2,2.03,1.39,0.75,2.21,1.94,0.74,1.06,0.4,-28,-1,-35,1.29,7634,25,79,34,45,952,430.0,621,468,60,130.0,160,1,355,219,62,0,0,428,-3314,1,386,-5.59,44.681526,10.017511,39.65,178.2,0,0.0,-1,0.0,0.0,0,0.18,0.3324
19964,1564322955616,-0,2.01,1.39,0.75,2.2,1.93,0.87,0.96,0.48,-29,-4,-37,1.29,7628,25,79,34,45,956,430.0,625,461,60,131.0,160,1,355,219,62,0,0,426,-3314,505,388,-5.59,,,,,,,,,,,,
19984,1564322955636,0,2.02,1.39,0.75,2.19,1.94,0.97,0.87,0.54,-30,-6,-38,1.3,7674,25,79,34,45,960,430.0,625,464,60,129.0,160,1,355,219,62,0,0,424,-3314,1,387,-5.59,,,,,,,,,,,,
20004,1564322955656,1,2.02,1.39,0.74,2.19,1.94,1.02,0.9,0.56,-30,-6,-37,1.36,7646,26,79,34,45,966,430.0,621,462,60,130.0,160,1,355,221,62,0,0,424,-3314,17144,388,-5.59,,,,,,,,,,,,
20024,1564322955676,1,2.02,1.39,0.73,2.2,1.93,0.98,0.98,0.58,-29,-5,-37,1.39,7678,26,79,34,45,971,429.0,626,461,60,131.0,162,1,355,219,63,0,0,426,3635,-6656,387,181.28,,,,,,,,,,,,
20044,1564322955700,0,2.03,1.39,0.74,2.2,1.93,0.86,1.05,0.59,-29,-4,-38,1.36,7671,26,79,34,45,980,430.0,624,460,60,131.0,162,1,355,219,63,0,0,424,-3314,-1562,386,414.87,44.681526,10.017498,39.44,178.2,0,0.0,-1,0.0,0.0,0,0.19,0.3341
20064,1564322955720,2,2.03,1.39,0.74,2.19,1.93,0.71,1.13,0.52,-28,-2,-38,1.33,7700,26,79,34,45,991,429.0,621,460,60,130.0,162,1,355,219,63,0,0,426,3635,-1818,387,414.87,,,,,,,,,,,,
20084,1564322955740,2,2.03,1.39,0.74,2.19,1.93,0.67,1.08,0.48,-29,-1,-37,1.27,7662,26,79,34,46,1000,429.0,623,463,60,130.0,162,1,362,221,63,0,0,427,3635,28696,388,-5.59,,,,,,,,,,,,
20104,1564322955760,2,2.03,1.38,0.73,2.19,1.93,0.69,1.04,0.46,-30,-2,-37,1.25,7656,26,79,34,46,1005,429.0,625,463,60,129.0,162,1,362,221,63,0,0,428,3635,-32702,391,-5.59,,,,,,,,,,,,
20124,1564322955780,0,2.02,1.39,0.74,2.19,1.93,0.79,1.0,0.49,-30,-3,-38,1.27,7684,26,79,34,46,1014,430.0,626,462,60,130.0,164,1,362,221,64,0,0,424,-3314,-32702,390,-5.59,,,,,,,,,,,,
20144,1564322955800,0,2.04,1.39,0.72,2.18,1.92,0.92,0.93,0.56,-31,-5,-39,1.3,7646,26,79,34,46,1027,429.0,625,458,60,130.0,164,1,362,221,64,0,0,425,3635,-32702,390,181.28,44.681526,10.017484,39.63,178.2,0,0.0,-1,0.0,0.0,0,0.19,0.3357
20164,1564322955820,-1,2.05,1.38,0.74,2.19,1.93,1.02,0.93,0.64,-31,-6,-39,1.38,7665,26,79,34,46,1037,430.0,626,465,60,130.0,164,1,362,221,64,0,0,426,-3314,-3968,390,-5.59,,,,,,,,,,,,
20184,1564322955840,0,2.05,1.39,0.74,2.2,1.93,0.99,0.9,0.68,-30,-6,-40,1.34,7659,27,79,34,47,1043,431.0,627,461,60,131.0,164,1,370,223,64,0,0,429,1779,1,391,181.28,,,,,,,,,,,,
20204,1564322955860,1,2.06,1.39,0.74,2.2,1.93,0.92,0.94,0.7,-29,-6,-40,1.31,7687,39,79,34,48,1049,431.0,624,461,60,131.0,164,1,372,228,64,0,0,426,-3314,-6656,389,181.28,,,,,,,,,,,,
20224,1564322955880,2,2.09,1.4,0.74,2.2,1.93,0.81,0.99,0.63,-28,-4,-39,1.28,7684,46,79,34,53,1055,428.0,626,460,60,131.0,177,1,387,252,69,0,0,427,13180,1,391,181.28,,,,,,,,,,,,
20244,1564322955904,3,2.11,1.4,0.74,2.19,1.94,0.7,1.02,0.58,-27,-2,-38,1.24,7700,56,79,34,59,1059,429.0,628,462,60,131.0,177,1,426,292,69,0,0,427,3635,-32702,393,181.28,44.681526,10.017469,39.81,178.2,0,0.0,-1,0.0,0.0,0,0.19,0.3374
20264,1564322955924,3,2.14,1.4,0.74,2.2,1.92,0.64,1.1,0.58,-26,-2,-38,1.27,7621,64,79,34,65,1057,428.0,628,461,60,130.0,177,1,434,330,69,0,0,423,13180,-3968,393,-5.59,,,,,,,,,,,,
20284,1564322955944,1,2.18,1.39,0.74,2.2,1.93,0.63,1.05,0.52,-25,-1,-37,1.23,7545,71,79,34,73,1058,426.0,623,461,60,130.0,177,1,417,396,69,0,0,420,-3856,-32702,395,414.87,,,,,,,,,,,,
20304,1564322955964,2,2.2,1.4,0.74,2.2,1.93,0.53,0.99,0.46,-23,1,-36,1.13,7381,76,79,34,79,1061,422.0,623,462,60,130.0,177,1,402,468,69,0,0,421,-3414,-6656,398,-5.59,,,,,,,,,,,,
20324,1564322955984,-0,2.24,1.4,0.75,2.21,1.93,0.54,0.94,0.51,-21,1,-34,1.09,7273,77,79,34,84,1064,422.0,621,463,60,131.0,341,1,394,503,136,0,0,419,-3414,-3968,399,-5.59,,,,,,,,,,,,
20344,1564322955996,-1,2.29,1.41,0.75,2.22,1.95,0.57,0.84,0.54,-19,0,-34,1.01,7205,77,79,34,86,1068,419.0,617,457,60,131.0,341,1,389,516,136,0,0,418,-8165,-32702,399,-5.59,44.681526,10.017456,39.85,178.3,0,0.0,-1,0.0,0.0,0,0.19,0.3391
20364,1564322956016,-0,2.32,1.41,0.76,2.22,1.95,0.72,0.65,0.55,-17,-2,-32,0.97,7256,77,79,34,87,1086,415.0,613,462,60,130.0,341,1,392,524,136,0,0,415,-26615,-3968,401,-5.59,,,,,,,,,,,,
20384,1564322956036,-0,2.36,1.41,0.76,2.24,1.95,0.83,0.5,0.55,-14,-4,-30,0.97,7393,77,79,34,88,1146,412.0,613,461,60,131.0,341,1,401,535,136,0,0,408,13040,-8151,407,-5.59,,,,,,,,,,,,
20404,1564322956056,-0,2.41,1.42,0.76,2.24,1.96,0.9,0.39,0.58,-12,-4,-28,0.98,7693,77,79,34,88,1204,409.0,619,463,60,129.0,341,1,423,544,136,0,0,405,11560,1504,409,-5.59,,,,,,,,,,,,
20424,1564322956076,0,2.45,1.42,0.77,2.24,1.97,0.8,0.27,0.58,-8,-3,-23,0.84,8145,77,79,34,86,1259,412.0,629,462,60,130.0,391,1,439,550,161,0,0,402,2524,10392,412,-5.59,,,,,,,,,,,,
20444,1564322956105,-1,2.48,1.42,0.78,2.25,1.98,0.68,0.19,0.68,-5,-1,-20,0.71,8786,78,79,34,83,1317,415.0,635,460,60,129.0,391,1,423,555,161,0,0,398,11545,2524,415,-5.59,44.681522,10.017442,40.07,178.3,0,0.0,-1,0.0,0.0,0,0.19,0.3407
20464,1564322956125,1,2.51,1.42,0.78,2.26,1.98,0.56,0.09,0.81,-2,1,-15,0.56,9250,78,79,34,80,1384,418.0,647,462,60,130.0,391,1,416,512,161,0,0,415,6512,1779,418,-5.59,,,,,,,,,,,,
20484,1564322956145,1,2.52,1.43,0.78,2.26,1.97,0.55,-0.01,0.92,1,2,-11,0.55,9200,78,79,34,78,1450,428.0,647,466,60,130.0,391,1,415,497,161,0,0,514,10541,-8985,429,-5.59,,,,,,,,,,,,
20504,1564322956165,1,2.53,1.42,0.78,2.26,1.98,0.49,-0.15,1.03,4,5,-6,0.52,8962,78,79,34,78,1463,438.0,645,462,60,130.0,391,1,415,483,161,0,0,551,1504,12552,438,181.28,,,,,,,,,,,,
20524,1564322956185,-1,2.54,1.42,0.78,2.27,1.98,0.43,-0.27,1.12,8,5,-3,0.51,8848,78,79,34,79,1469,445.0,641,461,60,131.0,380,1,419,497,168,0,0,470,-9211,16408,448,414.87,,,,,,,,,,,,
20544,1564322956205,1,2.56,1.42,0.78,2.27,1.99,0.4,-0.33,1.14,10,4,1,0.52,8724,79,79,34,79,1426,452.0,642,460,60,130.0,380,1,422,497,168,0,0,425,10392,30272,452,-5.59,44.681522,10.017428,40.32,178.3,0,0.0,-1,0.0,0.0,0,0.19,0.3424
20564,1564322956225,2,2.56,1.43,0.78,2.27,1.99,0.49,-0.43,1.14,12,3,5,0.65,8503,79,79,34,79,1382,453.0,631,457,60,129.0,380,1,426,497,168,0,0,502,2524,8488,453,-5.59,,,,,,,,,,,,
20584,1564322956245,1,2.55,1.43,0.78,2.27,1.99,0.51,-0.53,1.1,13,1,8,0.73,8553,79,79,34,80,1326,455.0,631,459,60,130.0,380,1,426,512,168,0,0,495,-9211,32033,455,-5.59,,,,,,,,,,,,
20604,1564322956265,-1,2.55,1.42,0.78,2.27,1.98,0.38,-0.57,1.07,15,0,9,0.68,8636,79,79,34,80,1271,455.0,635,460,60,131.0,380,1,424,512,168,0,0,441,-8151,10432,455,-5.59,,,,,,,,,,,,
20624,1564322956285,0,2.53,1.43,0.78,2.27,1.98,0.27,-0.55,1.09,16,1,12,0.61,8823,79,79,34,80,1241,455.0,631,462,60,130.0,370,1,420,512,169,0,0,465,-8151,-16384,455,-5.59,,,,,,,,,,,,
20644,1564322956305,0,2.52,1.43,0.78,2.27,1.99,0.28,-0.55,1.16,17,0,15,0.61,8988,79,79,34,79,1210,458.0,637,458,60,130.0,370,1,416,497,169,0,0,517,-8151,-9203,458,-5.59,44.681522,10.017414,42.85,178.3,0,0.0,-1,0.0,0.0,0,0.19,0.3441
20664,1564322956325,1,2.5,1.42,0.78,2.26,1.99,0.13,-0.54,1.17,18,1,18,0.56,9173,79,79,34,79,1226,464.0,640,465,60,130.0,370,1,415,497,169,0,0,507,7154,3576,464,-5.59,,,,,,,,,,,,
20684,1564322956345,2,2.47,1.43,0.78,2.27,1.98,0.2,-0.57,1.25,20,1,19,0.6,9422,79,79,34,78,1251,467.0,644,463,60,130.0,370,1,415,497,169,0,0,491,1779,32033,469,181.28,,,,,,,,,,,,
20704,1564322956365,1,2.44,1.43,0.78,2.28,1.99,0.23,-0.57,1.25,21,0,21,0.61,9635,79,79,34,78,1275,476.0,646,461,60,130.0,370,1,411,489,169,0,0,513,-3322,8488,476,648.46,,,,,,,,,,,,
20724,1564322956385,0,2.42,1.43,0.78,2.27,1.98,0.36,-0.62,1.2,21,1,24,0.72,9715,80,79,34,77,1300,479.0,550,453,60,130.0,382,1,408,481,182,0,0,532,26704,3,479,181.28,,,,,,,,,,,,
20744,1564322956405,0,2.4,1.43,0.78,2.26,1.99,0.39,-0.7,1.27,22,3,25,0.8,9735,80,79,34,77,1307,483.0,606,460,60,129.0,382,1,407,482,182,0,0,494,-18341,-3482,483,181.28,44.681522,10.017398,44.77,178.3,0,0.0,-1,0.0,0.0,0,0.19,0.3457
20764,1564322956425,2,2.39,1.42,0.78,2.27,1.98,0.39,-0.7,1.34,22,4,24,0.81,9654,79,79,34,77,1307,486.0,541,460,60,129.0,382,1,410,477,182,0,0,494,3571,-3856,486,-5.59,,,,,,,,,,,,
20784,1564322956445,3,2.39,1.42,0.78,2.27,1.99,0.36,-0.75,1.25,22,2,23,0.83,9488,80,79,34,77,1287,491.0,463,461,60,130.0,382,1,415,470,182,0,0,518,-18108,-3482,491,-5.59,,,,,,,,,,,,
20804,1564322956465,3,2.39,1.43,0.78,2.26,2.0,0.44,-0.72,1.14,21,1,23,0.84,9295,79,79,34,77,1262,493.0,417,458,60,129.0,382,1,414,470,182,0,0,511,8488,-32248,493,-5.59,,,,,,,,,,,,
20824,1564322956485,-1,2.4,1.43,0.77,2.27,1.99,0.37,-0.72,1.2,20,1,23,0.81,9291,79,79,34,78,1236,500.0,369,462,60,130.0,333,1,415,483,166,0,0,499,3576,17136,500,-5.59,,,,,,,,,,,,
20844,1564322956501,2,2.4,1.43,0.77,2.28,1.98,0.34,-0.8,1.23,19,1,23,0.87,9314,80,79,34,78,1210,499.0,389,457,60,130.0,333,1,415,483,166,0,0,500,-23367,-3414,499,-5.59,44.681522,10.017382,46.43,178.3,0,0.0,-1,0.0,0.0,0,0.2,0.3474
20864,1564322956521,1,2.39,1.43,0.77,2.28,1.99,0.4,-0.8,1.2,18,0,21,0.9,9291,78,79,34,78,1189,501.0,405,463,60,130.0,333,1,415,497,166,0,0,512,3580,-3414,501,414.87,,,,,,,,,,,,
20884,1564322956541,3,2.38,1.43,0.77,2.27,1.98,0.47,-0.77,1.09,17,-1,21,0.91,9493,74,79,34,76,1171,504.0,455,464,60,130.0,333,1,415,456,166,0,0,517,505,-8187,504,-5.59,,,,,,,,,,,,
20904,1564322956561,1,2.38,1.42,0.77,2.27,1.98,0.46,-0.78,1.07,17,0,21,0.9,9699,71,79,34,74,1166,508.0,413,460,60,129.0,333,1,408,452,166,0,0,514,-1818,1248,508,-5.59,,,,,,,,,,,,
20924,1564322956581,-1,2.39,1.42,0.77,2.27,1.98,0.41,-0.83,1.02,16,1,21,0.92,9889,71,79,34,72,1174,512.0,408,462,60,130.0,326,1,400,452,167,0,0,520,771,-14,512,414.87,,,,,,,,,,,,
20944,1564322956601,3,2.39,1.43,0.78,2.26,1.99,0.33,-0.71,0.95,16,0,21,0.78,9984,71,79,34,71,1183,517.0,486,453,60,130.0,326,1,396,454,167,0,0,534,-22519,10408,517,414.87,44.681522,10.017365,49.09,178.3,0,0.0,-1,0.0,0.0,0,0.2,0.3491
20964,1564322956621,0,2.38,1.43,0.77,2.27,1.98,0.42,-0.68,1.01,16,3,21,0.8,10129,71,79,34,70,1192,520.0,493,465,60,130.0,326,1,407,452,167,0,0,531,-32248,14504,520,-5.59,,,,,,,,,,,,
20984,1564322956641,1,2.39,1.43,0.77,2.27,1.99,0.4,-0.75,1.06,15,3,19,0.85,10113,71,79,34,70,1197,525.0,563,468,60,129.0,326,1,402,451,167,0,0,534,-21872,2104,525,-5.59,,,,,,,,,,,,
21004,1564322956661,3,2.39,1.42,0.77,2.27,2.0,0.33,-0.76,1.0,15,3,20,0.83,10016,71,79,34,70,1198,529.0,616,458,60,130.0,326,1,396,449,167,0,0,534,17136,-2336,529,-5.59,,,,,,,,,,,,
21024,1564322956681,2,2.38,1.43,0.77,2.28,1.98,0.45,-0.74,1.05,15,4,19,0.86,10010,71,79,34,69,1189,534.0,630,461,60,130.0,314,1,395,442,167,0,0,537,16383,-3082,535,-5.59,,,,,,,,,,,,
21044,1564322956701,1,2.39,1.43,0.77,2.28,1.98,0.43,-0.77,1.04,15,4,19,0.88,9984,71,79,34,69,1168,538.0,646,462,60,129.0,314,1,397,440,167,0,0,543,2524,-2336,540,-5.59,44.681526,10.017348,50.48,178.3,0,0.0,-1,0.0,0.0,0,0.2,0.3507
21064,1564322956721,3,2.37,1.43,0.77,2.28,1.99,0.42,-0.7,0.98,14,3,18,0.82,9978,71,79,34,69,1148,538.0,642,457,60,130.0,314,1,396,439,167,0,0,542,-32248,-22519,540,-5.59,,,,,,,,,,,,
21084,1564322956741,1,2.37,1.43,0.77,2.27,1.99,0.53,-0.69,0.95,13,3,18,0.87,10135,71,79,34,69,1126,541.0,648,465,60,130.0,314,1,407,445,167,0,0,540,-32248,-32248,541,-5.59,,,,,,,,,,,,
21104,1564322956761,2,2.35,1.43,0.77,2.28,1.99,0.64,-0.69,1.04,12,3,18,0.94,10262,71,79,34,69,1110,540.0,650,461,60,130.0,314,1,420,449,167,0,0,550,-22519,-32504,540,-5.59,,,,,,,,,,,,
21124,1564322956781,1,2.33,1.43,0.77,2.27,1.99,0.76,-0.76,1.11,11,1,16,1.07,10469,71,79,34,69,1099,545.0,657,462,60,129.0,327,1,439,453,178,0,0,562,-32248,-32504,545,-5.59,,,,,,,,,,,,
21144,1564322956799,2,2.31,1.43,0.77,2.27,1.98,0.71,-0.8,1.2,10,2,16,1.07,10563,71,79,34,69,1093,550.0,653,465,60,130.0,327,1,442,456,178,0,0,568,-2934,-32248,549,-5.59,44.68153,10.01733,52.7,178.3,0,0.0,-1,0.0,0.0,0,0.2,0.3524
21164,1564322956819,2,2.28,1.43,0.77,2.27,1.99,0.8,-0.74,1.15,8,3,16,1.09,10708,71,79,34,69,1103,553.0,658,457,60,130.0,327,1,444,456,178,0,0,571,-3082,1780,553,-5.59,,,,,,,,,,,,
21184,1564322956839,4,2.23,1.42,0.76,2.26,1.99,0.82,-0.53,1.12,6,2,14,0.98,10708,71,79,34,70,1112,552.0,662,458,60,129.0,327,1,443,461,178,0,0,569,-32248,-2934,552,-5.59,,,,,,,,,,,,
21204,1564322956859,0,2.2,1.41,0.75,2.24,1.96,0.7,-0.32,1.08,5,1,14,0.77,10757,70,79,34,70,1115,556.0,667,461,60,129.0,327,1,444,461,178,0,0,569,-32504,-8186,554,-5.59,,,,,,,,,,,,
21224,1564322956879,2,2.14,1.4,0.75,2.23,1.95,0.59,-0.24,1.04,3,2,13,0.64,10708,59,79,34,68,1115,562.0,666,460,60,130.0,336,1,445,451,186,0,0,573,-23623,-12040,554,-5.59,,,,,,,,,,,,
21244,1564322956904,1,2.09,1.38,0.73,2.19,1.93,0.61,-0.18,1.0,0,2,12,0.63,10720,37,79,34,62,1108,568.0,664,462,60,130.0,336,1,450,398,186,0,0,581,-8186,243,557,-5.59,44.681534,10.017312,53.84,178.3,0,0.0,-1,0.0,0.0,0,0.2,0.3541
21264,1564322956924,-1,2.04,1.37,0.72,2.18,1.91,0.54,-0.16,0.93,-1,1,11,0.56,10605,22,79,34,53,1095,570.0,661,465,60,129.0,336,1,397,316,186,0,0,582,774,1,557,-5.59,,,,,,,,,,,,
21284,1564322956944,1,1.98,1.36,0.7,2.16,1.9,0.43,-0.07,0.84,-3,0,8,0.43,10347,21,79,34,46,1065,574.0,665,468,60,130.0,336,1,372,248,186,0,0,581,774,774,556,-5.59,,,,,,,,,,,,
21304,1564322956964,2,1.94,1.35,0.69,2.16,1.9,0.41,0.02,0.75,-5,-1,5,0.41,10162,21,79,33,43,1035,570.0,659,464,60,130.0,336,1,350,233,186,0,0,572,1267,1780,553,-5.59,,,,,,,,,,,,
21324,1564322956984,2,1.89,1.35,0.68,2.16,1.89,0.56,-0.03,0.7,-7,-2,4,0.56,10010,21,79,33,41,1013,571.0,656,460,60,129.0,158,1,335,225,87,0,0,575,1267,2524,551,414.87,,,,,,,,,,,,
21344,1564322956995,2,1.86,1.35,0.69,2.16,1.88,0.51,0.13,0.59,-8,-3,1,0.53,9730,21,79,33,40,988,569.0,658,465,60,130.0,158,1,327,219,87,0,0,574,-29984,-28648,549,-5.59,44.681538,10.017293,55.54,178.4,0,0.0,-1,0.0,0.0,0,0.2,0.3557
21364,1564322957015,-1,1.83,1.36,0.7,2.16,1.89,0.5,0.27,0.62,-9,-4,-1,0.57,9512,21,79,33,39,948,562.0,655,465,60,130.0,158,1,320,216,87,0,0,573,-30159,2104,544,-5.59,,,,,,,,,,,,
21384,1564322957035,2,1.83,1.36,0.7,2.17,1.9,0.59,0.2,0.65,-11,-5,-5,0.62,9323,21,79,33,38,907,566.0,657,466,60,129.0,158,1,317,211,87,0,0,578,-2934,-32248,540,-5.59,,,,,,,,,,,,
21404,1564322957055,2,1.82,1.36,0.71,2.19,1.9,0.73,0.21,0.44,-14,-6,-8,0.76,9259,21,79,33,37,889,566.0,651,463,60,130.0,158,1,314,207,87,0,0,557,-30159,16383,537,414.87,,,,,,,,,,,,
21424,1564322957075,3,1.84,1.37,0.71,2.19,1.91,0.74,0.39,0.27,-15,-8,-10,0.83,9272,21,79,33,37,871,562.0,648,466,60,130.0,134,1,314,207,72,0,0,558,-23623,12552,531,414.87,,,,,,,,,,,,
21444,1564322957102,3,1.86,1.38,0.72,2.19,1.91,0.7,0.56,0.26,-16,-9,-13,0.89,9286,21,79,33,36,862,566.0,648,462,60,129.0,134,1,311,205,72,0,0,550,-2934,-21792,528,-5.59,44.681541,10.017274,55.88,178.4,0,0.0,-1,0.0,0.0,0,0.2,0.3574
21464,1564322957122,4,1.86,1.37,0.71,2.19,1.92,0.53,0.68,0.35,-18,-7,-17,0.86,9186,21,79,33,36,853,564.0,647,467,60,129.0,134,1,311,204,72,0,0,556,-23623,6384,528,-5.59,,,,,,,,,,,,
21484,1564322957142,3,1.87,1.38,0.72,2.2,1.91,0.46,0.81,0.32,-19,-4,-19,0.93,9023,21,79,33,35,861,564.0,651,465,60,130.0,134,1,308,198,72,0,0,569,2211,-6475,526,-5.59,,,,,,,,,,,,
21504,1564322957162,1,1.88,1.38,0.73,2.19,1.93,0.34,0.93,0.27,-21,-3,-22,0.99,8823,20,79,33,35,870,571.0,643,461,60,130.0,134,1,308,198,72,0,0,566,1267,-6656,522,-5.59,,,,,,,,,,,,
21524,1564322957182,1,1.88,1.38,0.73,2.2,1.92,0.47,1.04,0.29,-22,-3,-25,1.14,8652,20,79,33,34,896,570.0,643,460,60,130.0,125,1,305,195,65,0,0,568,-30159,1,519,414.87,,,,,,,,,,,,
21544,1564322957204,-1,1.87,1.38,0.73,2.21,1.92,0.54,0.98,0.29,-24,-2,-27,1.13,8514,20,79,33,35,923,562.0,641,463,60,130.0,125,1,308,198,65,0,0,565,-23623,2060,517,-5.59,44.681541,10.017255,54.31,178.4,0,0.0,-1,0.0,0.0,0,0.21,0.3591
21564,1564322957224,3,1.88,1.38,0.73,2.21,1.92,0.47,1.09,0.27,-23,1,-31,1.18,8351,20,79,33,36,943,559.0,636,461,60,130.0,125,1,308,199,65,0,0,559,6273,13,513,-5.59,,,,,,,,,,,,
21584,1564322957244,1,1.9,1.38,0.73,2.21,1.92,0.62,1.02,0.27,-24,-0,-34,1.19,8184,20,79,33,37,961,557.0,635,462,60,130.0,125,1,307,196,65,0,0,557,6274,-25856,511,-5.59,,,,,,,,,,,,
21604,1564322957264,1,1.91,1.39,0.74,2.21,1.93,0.63,1.09,0.27,-25,-1,-33,1.26,8102,20,79,33,37,977,550.0,631,462,60,129.0,125,1,306,199,65,0,0,549,-32248,6668,508,-5.59,,,,,,,,,,,,
21624,1564322957284,1,1.97,1.39,0.73,2.21,1.93,0.7,1.09,0.3,-26,-3,-37,1.3,8009,20,79,33,37,992,549.0,632,460,60,131.0,119,1,304,198,60,0,0,522,2104,2278,503,414.87,,,,,,,,,,,,
21644,1564322957304,-1,2.02,1.38,0.73,2.21,1.93,0.83,0.99,0.3,-28,-5,-38,1.3,8026,20,79,33,37,995,543.0,632,464,60,129.0,119,1,304,198,60,0,0,504,1779,257,497,648.46,44.681541,10.017236,52.56,178.4,0,0.0,-1,0.0,0.0,0,0.21,0.3607
21664,1564322957324,1,2.09,1.39,0.73,2.21,1.92,0.72,1.02,0.23,-29,-4,-38,1.25,8116,20,79,33,38,993,542.0,631,462,60,130.0,119,1,309,204,60,0,0,507,-3082,-1246,493,-5.59,,,,,,,,,,,,
21684,1564322957344,4,2.14,1.39,0.73,2.2,1.91,0.83,0.95,0.3,-31,-4,-41,1.26,8078,21,79,33,38,988,546.0,632,463,60,129.0,119,1,309,198,60,0,0,516,14504,155,493,414.87,,,,,,,,,,,,
21704,1564322957364,-1,2.2,1.39,0.72,2.19,1.92,0.91,0.99,0.34,-33,-6,-44,1.35,8002,21,79,33,38,983,548.0,634,464,60,130.0,119,1,307,204,60,0,0,534,14504,-32256,491,-5.59,,,,,,,,,,,,
21724,1564322957384,0,2.23,1.39,0.72,2.19,1.9,0.78,1.09,0.27,-33,-2,-43,1.33,7904,21,79,33,37,980,550.0,632,462,60,131.0,124,1,304,197,61,0,0,534,-32248,25600,490,181.28,,,,,,,,,,,,
21744,1564322957402,1,2.24,1.39,0.71,2.19,1.9,0.7,1.13,0.26,-33,-1,-46,1.33,7757,21,79,33,38,977,549.0,628,460,60,131.0,124,1,307,197,61,0,0,539,2104,24320,489,181.28,44.681541,10.017218,51.49,178.4,0,0.0,-1,0.0,0.0,0,0.21,0.3624
21764,1564322957422,-0,2.23,1.39,0.72,2.18,1.9,0.75,1.12,0.31,-34,-0,-46,1.35,7700,24,79,33,38,972,547.0,628,464,60,130.0,124,1,307,203,61,0,0,532,-22519,80,488,414.87,,,,,,,,,,,,
21784,1564322957442,2,2.21,1.39,0.72,2.18,1.9,0.88,1.13,0.37,-35,2,-45,1.43,7712,32,79,33,40,967,544.0,626,463,60,129.0,124,1,317,210,61,0,0,527,-8186,-6528,485,181.28,,,,,,,,,,,,
21804,1564322957462,-1,2.19,1.39,0.71,2.18,1.89,0.94,1.22,0.46,-37,1,-46,1.54,7901,43,79,33,44,964,536.0,628,462,60,130.0,124,1,347,217,61,0,0,501,2104,1,481,-5.59,,,,,,,,,,,,
21824,1564322957482,4,2.17,1.39,0.71,2.17,1.88,0.87,1.22,0.38,-37,-0,-45,1.5,8241,58,79,33,51,962,531.0,635,460,60,131.0,139,1,381,251,67,0,0,502,-22519,-30454,480,-5.59,,,,,,,,,,,,
21844,1564322957500,3,2.17,1.38,0.71,2.16,1.87,0.79,1.3,0.37,-36,-2,-44,1.52,8577,68,79,33,59,954,527.0,637,461,60,130.0,139,1,425,321,67,0,0,516,6274,-31222,477,-5.59,44.681541,10.0172,50.03,178.4,0,0.0,-1,0.0,0.0,0,0.21,0.3641
21864,1564322957520,2,2.19,1.38,0.7,2.16,1.88,0.86,1.31,0.38,-36,-2,-46,1.57,8765,71,79,33,66,940,524.0,641,463,60,129.0,139,1,421,363,67,0,0,520,10408,3346,475,-5.59,,,,,,,,,,,,
21884,1564322957540,3,2.22,1.38,0.7,2.14,1.88,0.93,1.2,0.32,-36,-2,-49,1.52,8882,71,79,33,69,927,524.0,642,461,60,130.0,139,1,416,379,67,0,0,516,10408,-31206,471,-5.59,,,,,,,,,,,,
21904,1564322957560,1,2.27,1.38,0.7,2.14,1.88,0.98,1.07,0.36,-37,-1,-51,1.45,9053,72,79,33,70,916,522.0,645,458,60,130.0,139,1,413,398,67,0,0,517,2524,-30438,469,-5.59,,,,,,,,,,,,
21924,1564322957580,3,2.29,1.38,0.69,2.14,1.87,1.0,1.11,0.32,-37,-0,-52,1.49,9110,72,79,33,71,915,521.0,647,465,60,130.0,293,1,414,407,137,0,0,521,-9212,-18948,466,-5.59,,,,,,,,,,,,
21944,1564322957598,3,2.31,1.39,0.69,2.14,1.86,0.96,1.2,0.39,-37,-1,-51,1.54,9195,72,79,33,72,925,522.0,647,460,60,130.0,293,1,414,417,137,0,0,523,2524,-899,468,-5.59,44.681538,10.017183,49.11,178.4,0,0.0,-1,0.0,0.0,0,0.21,0.3657
21964,1564322957618,1,2.3,1.38,0.68,2.14,1.86,0.77,1.28,0.34,-36,2,-47,1.5,9384,72,79,33,72,938,516.0,647,458,60,129.0,293,1,415,417,137,0,0,511,16383,26178,467,414.87,,,,,,,,,,,,
21984,1564322957638,2,2.31,1.38,0.68,2.14,1.85,0.81,1.19,0.39,-35,-0,-46,1.44,9610,72,79,33,72,960,510.0,656,468,60,130.0,293,1,412,427,137,0,0,511,-4054,11560,468,414.87,,,,,,,,,,,,
22004,1564322957658,-1,2.29,1.38,0.68,2.14,1.85,0.69,1.27,0.26,-33,-1,-44,1.45,9770,73,79,33,71,1006,508.0,655,469,60,130.0,293,1,405,433,137,0,0,507,-3414,2524,467,-5.59,,,,,,,,,,,,
22024,1564322957678,2,2.25,1.38,0.68,2.14,1.85,0.74,1.21,0.28,-31,-2,-43,1.42,9889,73,79,33,70,1101,506.0,659,460,60,130.0,356,1,400,437,167,0,0,515,6274,2104,469,414.87,,,,,,,,,,,,
22044,1564322957700,2,2.23,1.38,0.67,2.14,1.85,0.84,1.2,0.4,-30,-3,-42,1.47,10059,73,79,33,70,1190,504.0,662,459,60,130.0,356,1,400,449,167,0,0,521,-21872,-506,470,181.28,44.681534,10.017166,48.26,178.4,0,0.0,-1,0.0,0.0,0,0.21,0.3674
22064,1564322957720,1,2.22,1.38,0.67,2.14,1.86,0.74,1.28,0.35,-29,-2,-41,1.48,10201,73,79,33,70,1263,508.0,665,462,60,129.0,356,1,413,453,167,0,0,526,-3414,-9072,472,-5.59,,,,,,,,,,,,
22084,1564322957740,2,2.2,1.38,0.67,2.14,1.86,0.59,1.34,0.31,-28,-2,-40,1.46,10279,73,79,33,70,1330,509.0,667,470,60,130.0,356,1,425,455,167,0,0,536,-3414,-9072,472,181.28,,,,,,,,,,,,
22104,1564322957760,1,2.19,1.38,0.67,2.14,1.85,0.4,1.31,0.24,-27,1,-39,1.37,10463,73,79,33,70,1379,507.0,670,457,60,130.0,356,1,437,459,167,0,0,547,-21872,-22359,471,-5.59,,,,,,,,,,,,
22124,1564322957780,0,2.19,1.38,0.68,2.14,1.86,0.36,1.2,0.27,-27,1,-39,1.26,10533,73,79,33,70,1421,510.0,670,459,60,130.0,390,1,440,460,184,0,0,551,-4054,-32504,472,-5.59,,,,,,,,,,,,
22144,1564322957800,2,2.19,1.39,0.67,2.15,1.86,0.27,1.25,0.25,-26,2,-38,1.28,10469,73,79,33,70,1397,512.0,665,465,60,130.0,390,1,437,460,184,0,0,558,17136,-23623,474,-5.59,44.68153,10.017151,48.3,178.5,0,0.0,-1,0.0,0.0,0,0.21,0.3691
22164,1564322957820,-0,2.2,1.38,0.68,2.14,1.86,0.17,1.28,0.2,-26,3,-37,1.29,10480,73,79,33,70,1368,516.0,664,462,60,130.0,390,1,440,460,184,0,0,561,16383,1780,473,-5.59,,,,,,,,,,,,
22184,1564322957840,0,2.19,1.38,0.67,2.15,1.86,0.1,1.21,0.14,-26,3,-36,1.21,10557,73,79,33,70,1321,518.0,666,462,60,130.0,390,1,440,461,184,0,0,563,1341,-18032,475,-5.59,,,,,,,,,,,,
22204,1564322957860,3,2.2,1.38,0.68,2.15,1.86,0.02,1.07,0.23,-26,3,-37,1.07,10521,73,79,33,70,1275,521.0,667,461,60,130.0,390,1,441,461,184,0,0,562,-9212,6273,483,-5.59,,,,,,,,,,,,
22224,1564322957880,2,2.2,1.38,0.68,2.15,1.86,0.04,1.05,0.19,-25,4,-36,1.05,10486,73,79,33,70,1252,525.0,669,463,60,130.0,385,1,439,461,185,0,0,561,2524,259,481,-5.59,,,,,,,,,,,,
22244,1564322957904,0,2.2,1.38,0.68,2.15,1.86,0.01,1.06,0.23,-24,3,-36,1.06,10587,73,79,33,70,1229,527.0,666,466,60,130.0,385,1,442,461,185,0,0,573,-28648,6273,483,-5.59,44.681522,10.017136,48.86,178.5,0,0.0,-1,0.0,0.0,0,0.22,0.3707
22264,1564322957924,2,2.21,1.39,0.67,2.16,1.86,-0.02,0.96,0.36,-24,4,-36,0.96,10593,73,79,33,70,1202,531.0,668,462,60,130.0,385,1,442,461,185,0,0,571,14504,-2934,487,-5.59,,,,,,,,,,,,
22284,1564322957944,3,2.2,1.38,0.68,2.15,1.86,0.1,0.93,0.52,-25,5,-36,0.94,10708,73,79,33,70,1175,535.0,668,462,60,130.0,385,1,443,461,185,0,0,568,6274,1760,495,-5.59,,,,,,,,,,,,
22304,1564322957964,3,2.19,1.38,0.67,2.16,1.86,0.2,0.93,0.63,-25,5,-34,0.95,10708,73,79,33,70,1169,535.0,664,459,60,130.0,385,1,443,466,185,0,0,570,-2934,-22359,498,-5.59,,,,,,,,,,,,
22324,1564322957984,3,2.21,1.38,0.68,2.15,1.87,0.31,0.98,0.68,-25,3,-33,1.03,10738,73,79,33,70,1165,538.0,665,462,60,129.0,378,1,444,466,190,0,0,570,-2934,23619,504,-5.59,,,,,,,,,,,,
22344,1564322957995,2,2.21,1.38,0.68,2.16,1.87,0.3,1.09,0.66,-24,2,-32,1.13,10744,73,79,33,71,1153,542.0,666,462,60,130.0,378,1,443,466,190,0,0,577,-3082,-28648,508,-5.59,44.681519,10.017121,50.06,178.5,0,0.0,-1,0.0,0.0,0,0.22,0.3724
22364,1564322958015,2,2.21,1.38,0.68,2.17,1.86,0.19,1.04,0.57,-23,3,-32,1.06,10882,73,79,33,70,1141,542.0,666,457,60,130.0,378,1,446,461,190,0,0,580,-3082,1780,511,-5.59,,,,,,,,,,,,
22384,1564322958035,2,2.21,1.39,0.68,2.17,1.87,0.32,0.93,0.71,-23,3,-31,0.99,10952,73,79,33,71,1132,545.0,666,462,60,129.0,378,1,447,466,190,0,0,592,2104,1760,515,-5.59,,,,,,,,,,,,
22404,1564322958055,1,2.21,1.38,0.69,2.16,1.87,0.28,1.04,0.74,-23,4,-30,1.08,10932,73,79,33,71,1125,552.0,668,461,60,130.0,378,1,447,466,190,0,0,583,-28648,243,518,-5.59,,,,,,,,,,,,
22424,1564322958075,0,2.22,1.38,0.69,2.17,1.87,0.27,1.09,0.74,-22,3,-28,1.12,11048,74,79,33,71,1110,552.0,666,462,60,130.0,373,1,448,466,194,0,0,591,-28648,15649,520,-5.59,,,,,,,,,,,,
22444,1564322958103,1,2.22,1.38,0.69,2.17,1.87,0.37,0.96,0.83,-22,2,-27,1.03,11081,73,79,33,71,1095,555.0,666,461,60,129.0,373,1,448,461,194,0,0,591,-22263,1,527,-5.59,44.681511,10.017106,51.41,178.4,0,0.0,-1,0.0,0.0,0,0.22,0.3741
22464,1564322958123,-0,2.21,1.38,0.69,2.18,1.86,0.34,1.06,0.84,-22,0,-26,1.12,11003,74,79,33,71,1086,558.0,671,461,60,130.0,373,1,448,466,194,0,0,590,-28648,-32504,528,-5.59,,,,,,,,,,,,
22484,1564322958143,2,2.21,1.38,0.69,2.17,1.87,0.23,0.99,0.75,-21,1,-26,1.01,11029,74,79,33,70,1079,563.0,666,465,60,130.0,373,1,449,466,194,0,0,594,2211,5344,534,-5.59,,,,,,,,,,,,
22504,1564322958163,3,2.21,1.39,0.68,2.18,1.87,0.38,0.85,0.86,-20,1,-26,0.93,11075,74,79,33,71,1063,566.0,667,461,60,129.0,373,1,448,466,194,0,0,594,-2934,-1894,536,-5.59,,,,,,,,,,,,
22524,1564322958183,-0,2.22,1.38,0.69,2.19,1.87,0.33,0.96,0.73,-19,1,-24,1.02,11055,74,79,33,71,1045,567.0,663,464,60,130.0,363,1,448,466,195,0,0,597,-8186,3472,543,-5.59,,,,,,,,,,,,
22544,1564322958203,3,2.21,1.39,0.69,2.18,1.88,0.33,0.86,0.79,-19,-2,-24,0.92,11120,87,79,33,74,1032,572.0,663,464,60,129.0,363,1,445,480,195,0,0,602,-8188,3472,549,-5.59,44.6815,10.017092,53.12,178.4,0,0.0,-1,0.0,0.0,0,0.22,0.3757
22564,1564322958223,2,2.2,1.38,0.69,2.19,1.87,0.35,0.98,0.78,-18,-2,-23,1.04,11261,100,79,33,80,1021,576.0,667,465,60,129.0,363,1,442,513,195,0,0,599,1,-3820,553,-5.59,,,,,,,,,,,,
22584,1564322958243,1,2.21,1.39,0.69,2.18,1.88,0.44,0.8,0.83,-18,-2,-23,0.92,11391,100,79,33,82,1006,579.0,656,463,60,129.0,363,1,441,537,195,0,0,601,243,243,554,-5.59,,,,,,,,,,,,
22604,1564322958263,1,2.19,1.38,0.7,2.19,1.87,0.37,0.92,0.66,-17,-1,-22,1.0,11474,100,79,33,82,989,584.0,663,462,60,130.0,363,1,441,537,195,0,0,610,-4035,30227,560,-5.59,,,,,,,,,,,,
22624,1564322958283,1,2.18,1.39,0.69,2.19,1.87,0.33,1.0,0.8,-16,1,-20,1.05,11581,100,79,33,82,977,588.0,660,462,60,129.0,418,1,440,538,235,0,0,616,208,3395,561,-5.59,,,,,,,,,,,,
22644,1564322958303,1,2.18,1.39,0.7,2.19,1.88,0.37,0.74,0.91,-16,1,-22,0.83,11602,100,79,33,82,971,592.0,662,458,60,129.0,418,1,440,539,235,0,0,616,-13043,-18357,567,-5.59,44.681492,10.017078,55.67,178.5,0,0.0,-1,0.0,0.0,0,0.22,0.3774
22664,1564322958323,2,2.19,1.38,0.7,2.19,1.88,0.37,0.59,0.8,-16,1,-22,0.7,11674,100,79,33,83,968,599.0,663,464,60,129.0,418,1,440,541,235,0,0,628,30227,-30207,571,-5.59,,,,,,,,,,,,
22684,1564322958343,2,2.19,1.38,0.7,2.19,1.89,0.35,0.59,0.62,-16,1,-23,0.69,11777,100,79,33,82,967,605.0,658,458,60,129.0,418,1,440,544,235,0,0,629,-3820,-16046,576,414.87,,,,,,,,,,,,
22704,1564322958363,1,2.19,1.39,0.7,2.18,1.89,0.34,0.63,0.43,-15,1,-21,0.72,11889,100,79,33,82,969,609.0,657,462,60,130.0,418,1,440,546,235,0,0,639,-30139,-7939,578,-5.59,,,,,,,,,,,,
22724,1564322958383,2,2.18,1.39,0.7,2.18,1.89,0.32,0.77,0.4,-15,1,-20,0.83,11904,100,79,33,82,974,607.0,661,459,60,129.0,423,1,440,547,246,0,0,636,19621,11566,582,181.28,,,,,,,,,,,,
22744,1564322958403,3,2.18,1.39,0.7,2.19,1.88,0.25,0.89,0.37,-15,1,-20,0.93,11988,100,79,33,82,975,617.0,660,460,60,128.0,423,1,440,549,246,0,0,646,3403,31988,588,882.05,44.68148,10.017065,57.48,178.5,0,0.0,-1,0.0,0.0,0,0.22,0.3791
22764,1564322958423,3,2.17,1.38,0.7,2.2,1.89,0.19,0.97,0.24,-14,2,-19,0.99,12104,100,79,33,82,973,620.0,667,461,60,128.0,423,1,440,550,246,0,0,652,30721,24,596,181.28,,,,,,,,,,,,
22784,1564322958443,2,2.18,1.39,0.7,2.18,1.89,0.22,0.89,0.09,-15,2,-19,0.92,12222,100,79,33,82,969,626.0,666,457,60,130.0,423,1,440,550,246,0,0,655,506,-30207,599,648.46,,,,,,,,,,,,
22804,1564322958463,1,2.19,1.38,0.7,2.19,1.89,0.31,0.69,0.04,-16,-1,-20,0.76,12270,100,79,33,82,961,629.0,665,460,60,129.0,423,1,440,550,246,0,0,667,-14655,-8429,602,648.46,,,,,,,,,,,,
22824,1564322958483,1,2.19,1.39,0.69,2.2,1.89,0.39,0.5,0.17,-16,-0,-21,0.64,12343,100,79,33,82,947,635.0,670,462,60,129.0,421,1,440,550,256,0,0,654,-4876,-10348,606,882.05,,,,,,,,,,,,
