"Interval"|"ms"|0|0|1,"Utc"|"ms"|0|0|1,"AccelAvantX"|"G"|0.0|10.0|50,"AccelAvantZ"|"G"|0.0|10.0|50,"AccelAvantY"|"G"|0.0|10.0|50,"AccelX"|"G"|-3.0|3.0|50,"AccelY"|"G"|-3.0|3.0|50,"AccelZ"|"G"|-3.0|3.0|50,"Yaw"|"Deg/Sec"|-120|120|50,"Pitch"|"Deg/Sec"|-120|120|50,"Roll"|"Deg/Sec"|-120|120|50,"RPM"|""|0|14000|50,"TPS"|"%"|0|100|50,"WaterTemp"|"?C"|0|300|50,"AirTemp"|"?C"|-1000|1000|50,"MAP"|"KPa"|0|255|50,"Lambda"|""|0|1024|50,"WheelSpeed"|"MPH"|0.0|150.0|50,"OilPress"|"PSI"|0|150|50,"FuelPress"|"PSI"|0|150|50,"OilTemp"|"F"|0|300|50,"Battery"|"Volts"|0.0|20.0|50,"FuelCon"|"L/h"|-1000|1000|50,"Gear"|""|0|10|50,"Advance"|"Deg"|-360|360|50,"Injection"|"ms"|-1000|1000|50,"FuelCon"|"L/100km"|-1000|1000|50,"LC_But_Pres"|""|-1000|1000|50,"LC_Active"|""|-1000|1000|50,"RD_Speed"|""|-1000|1000|50,"RUD_Speed"|""|-1000|1000|50,"LD_Speed"|""|-1000|1000|50,"LUD_Speed"|""|-1000|1000|50,"Latitude"|"Degrees"|-180.0|180.0|10,"Longitude"|"Degrees"|-180.0|180.0|10,"Speed"|"MPH"|0.0|150.0|10,"Altitude"|"ft"|0.0|4000.0|10,"Distance"|"mi"|0.0|0.0|10
141763,1551439409511,1.229,2.447,1.7597,0.28,0.6,0.09,-30,-3,-2,12003,41,85,19,53,788,795.0,300,300,60,115.0,251,0,440,437,199,0,0,0,0,0,0,,,,,
141623,1551439409372,1.053,2.354,1.629,-0.35,0.36,-1.16,-31,-11,2,12042,41,85,19,53,802,799.0,300,300,60,115.0,260,0,440,437,199,0,0,0,0,0,0,,,,,
141643,1551439409392,1.161,2.35,1.6026,-0.32,0.32,-0.85,-30,-11,1,12042,41,85,19,53,802,799.0,300,300,60,115.0,260,0,440,437,199,0,0,0,0,0,0,45.846146,5.179993,49.02,725.3,1.41
141663,1551439409405,1.109,2.36,1.5812,-0.2,0.38,-0.97,-30,-9,2,12042,41,85,19,53,810,784.0,300,300,60,115.0,253,0,440,437,199,0,0,0,0,0,0,,,,,
141683,1551439409425,1.18,2.374,1.5636,-0.15,0.53,-0.67,-31,-8,1,12042,41,85,19,53,810,784.0,300,300,60,115.0,253,0,440,437,199,0,0,0,0,0,0,,,,,
141703,1551439409445,1.254,2.394,1.5636,-0.05,0.64,-0.41,-31,-6,-0,12042,41,85,19,53,810,784.0,300,300,60,115.0,253,0,440,437,199,0,0,0,0,0,0,,,,,
141723,1551439409465,1.109,2.398,1.6767,0.07,0.61,-0.18,-30,-5,-2,12042,41,85,19,53,810,784.0,300,300,60,115.0,253,0,440,437,199,0,0,0,0,0,0,,,,,
141743,1551439409491,1.18,2.451,1.7182,0.18,0.62,-0.12,-30,-4,-1,12042,41,85,19,53,810,784.0,300,300,60,115.0,253,0,440,437,199,0,0,0,0,0,0,45.846184,5.179981,49.53,725.2,1.413
141763,1551439409511,1.229,2.447,1.7597,0.28,0.6,0.09,-30,-3,-2,12003,41,85,19,53,788,795.0,300,300,60,115.0,251,0,440,437,199,0,0,0,0,0,0,,,,,
141803,1551439409551,1.158,2.36,1.8037,0.48,0.6,0.16,-30,-1,-3,12003,41,85,19,53,788,795.0,300,300,60,115.0,251,0,440,437,199,0,0,0,0,0,0,,,,,
141823,1551439409571,1.3,2.412,1.82,0.62,0.72,-0.06,-30,1,-2,12003,41,85,19,53,788,795.0,300,300,60,115.0,251,0,440,437,199,0,0,0,0,0,0,,,,,
141843,1551439409591,1.37,2.445,1.732,0.74,0.78,-0.06,-30,3,-1,12003,41,85,19,53,788,795.0,300,300,60,115.0,251,0,440,437,199,0,0,0,0,0,0,45.846203,5.179973,49.6,725.1,1.414
141863,1551439409611,1.317,2.432,1.7044,0.85,0.85,0.1,-30,6,-1,12081,41,85,19,53,788,785.0,300,300,60,115.0,252,0,440,436,200,0,0,0,0,0,0,,,,,
141883,1551439409631,1.197,2.456,1.7157,0.96,0.88,0.29,-30,8,-0,12081,41,85,19,53,788,785.0,300,300,60,115.0,252,0,440,436,200,0,0,0,0,0,0,,,,,
141903,1551439409651,1.088,2.521,1.6943,1.07,0.99,0.46,-30,10,0,12081,41,85,19,53,788,785.0,300,300,60,115.0,252,0,440,436,200,0,0,0,0,0,0,,,,,
141923,1551439409671,1.193,2.441,1.683,1.16,1.09,0.54,-29,13,0,12081,41,85,19,53,788,785.0,300,300,60,115.0,252,0,440,436,200,0,0,0,0,0,0,,,,,
141943,1551439409691,1.125,2.418,1.7484,1.14,1.18,0.46,-28,13,0,12081,41,85,19,53,788,785.0,300,300,60,115.0,252,0,440,436,200,0,0,0,0,0,0,45.846222,5.179964,49.61,725.1,1.416
141963,1551439409711,1.06,2.418,1.6591,1.09,1.23,0.61,-28,12,-1,12143,41,85,19,53,793,800.0,300,300,60,114.0,251,0,440,434,200,0,0,0,0,0,0,,,,,
141983,1551439409731,1.199,2.423,1.5498,0.95,1.21,0.75,-27,13,-2,12143,41,85,19,53,793,800.0,300,300,60,114.0,251,0,440,434,200,0,0,0,0,0,0,,,,,
142003,1551439409751,1.204,2.383,1.5711,0.77,1.05,0.87,-27,12,-3,12143,41,85,19,53,793,800.0,300,300,60,114.0,251,0,440,434,200,0,0,0,0,0,0,,,,,
142023,1551439409771,1.121,2.412,1.6252,0.65,0.83,0.98,-26,13,-4,12143,41,85,19,53,793,800.0,300,300,60,114.0,251,0,440,434,200,0,0,0,0,0,0,,,,,
142043,1551439409791,1.179,2.383,1.6264,0.55,0.77,1.08,-26,11,-5,12143,41,85,19,53,793,800.0,300,300,60,114.0,251,0,440,434,200,0,0,0,0,0,0,45.846237,5.179953,49.73,725.2,1.417
142063,1551439409811,1.398,2.345,1.8024,0.35,0.79,1.06,-27,9,-5,12246,41,85,19,54,793,800.0,300,300,60,116.0,249,0,440,432,200,0,0,0,0,0,0,,,,,
142083,1551439409831,1.038,2.441,1.639,0.17,0.82,0.76,-27,5,-4,12246,41,85,19,54,793,800.0,300,300,60,116.0,249,0,440,432,200,0,0,0,0,0,0,,,,,
142103,1551439409851,1.246,2.457,1.595,0.01,0.82,0.56,-27,3,-4,12246,41,85,19,54,793,800.0,300,300,60,116.0,249,0,440,432,200,0,0,0,0,0,0,,,,,
142123,1551439409871,1.135,2.433,1.5988,-0.07,0.85,0.38,-27,1,-4,12246,41,85,19,54,793,800.0,300,300,60,116.0,249,0,440,432,200,0,0,0,0,0,0,,,,,
142143,1551439409891,1.237,2.33,1.5661,-0.17,0.85,0.54,-27,-0,-6,12246,41,85,19,54,793,800.0,300,300,60,116.0,249,0,440,432,200,0,0,0,0,0,0,45.846256,5.179941,49.78,725.2,1.419
142163,1551439409911,1.3,2.29,1.59,-0.16,0.85,0.68,-26,-0,-7,12135,41,85,19,53,798,790.0,300,300,60,116.0,248,0,440,352,200,0,0,0,0,0,0,,,,,
142183,1551439409931,1.148,2.547,1.6302,-0.11,0.79,0.81,-26,0,-8,12135,41,85,19,53,798,790.0,300,300,60,116.0,248,0,440,352,200,0,0,0,0,0,0,,,,,
142203,1551439409951,1.259,2.552,1.6126,-0.09,0.78,0.92,-25,-0,-9,12135,41,85,19,53,798,790.0,300,300,60,116.0,248,0,440,352,200,0,0,0,0,0,0,,,,,
142223,1551439409971,1.158,2.291,1.6742,-0.03,0.69,0.92,-25,-1,-9,12135,41,85,19,53,798,790.0,300,300,60,116.0,248,0,440,352,200,0,0,0,0,0,0,,,,,
142243,1551439409991,1.315,2.402,1.7785,0.05,0.67,1.02,-25,0,-8,12135,41,85,19,53,798,790.0,300,300,60,116.0,248,0,440,352,200,0,0,0,0,0,0,45.846256,5.179941,49.78,725.2,1.419
142263,1551439410005,1.222,2.327,1.7446,0.21,0.77,0.9,-26,1,-7,12175,41,85,19,53,780,811.0,300,300,60,115.0,247,0,440,350,200,0,0,0,0,0,0,,,,,
142283,1551439410025,1.433,2.44,1.8301,0.39,0.85,0.61,-25,3,-7,12175,41,85,19,53,780,811.0,300,300,60,115.0,247,0,440,350,200,0,0,0,0,0,0,,,,,
142303,1551439410045,0.94,2.543,1.9042,0.52,0.97,0.34,-25,3,-7,12175,41,85,19,53,780,811.0,300,300,60,115.0,247,0,440,350,200,0,0,0,0,0,0,,,,,
142323,1551439410065,1.222,2.436,1.727,0.62,1.07,0.2,-25,5,-5,12175,41,85,19,53,780,811.0,300,300,60,115.0,247,0,440,350,200,0,0,0,0,0,0,,,,,
142343,1551439410092,1.228,2.397,1.6956,0.76,1.16,-0.03,-26,5,-5,12175,41,85,19,53,780,811.0,300,300,60,115.0,247,0,440,350,200,0,0,0,0,0,0,45.846291,5.179914,49.92,725.2,1.421
142363,1551439410112,1.065,2.332,1.634,0.84,1.25,-0.2,-27,5,-5,12135,41,85,19,54,813,789.0,300,300,60,115.0,244,0,440,352,200,0,0,0,0,0,0,,,,,
142383,1551439410132,1.168,2.311,1.5749,0.78,1.32,-0.14,-27,5,-6,12135,41,85,19,54,813,789.0,300,300,60,115.0,244,0,440,352,200,0,0,0,0,0,0,,,,,
142403,1551439410152,1.136,2.442,1.6415,0.72,1.39,0.07,-28,4,-5,12135,41,85,19,54,813,789.0,300,300,60,115.0,244,0,440,352,200,0,0,0,0,0,0,,,,,
142423,1551439410172,1.316,2.475,1.6968,0.51,1.4,0.1,-28,1,-4,12135,41,85,19,54,813,789.0,300,300,60,115.0,244,0,440,352,200,0,0,0,0,0,0,,,,,
142443,1551439410191,1.077,2.447,1.7672,0.26,1.34,0.29,-29,-1,-4,12135,41,85,19,54,813,789.0,300,300,60,115.0,244,0,440,352,200,0,0,0,0,0,0,45.846306,5.179898,49.98,725.3,1.423
142463,1551439410211,1.058,2.482,1.6378,0.03,1.33,0.45,-29,-4,-3,12183,35,85,19,50,782,802.0,300,300,60,114.0,259,0,446,367,208,0,0,0,0,0,0,,,,,
142483,1551439410231,1.038,2.412,1.6088,-0.13,1.28,0.38,-30,-6,-2,12183,35,85,19,50,782,802.0,300,300,60,114.0,259,0,446,367,208,0,0,0,0,0,0,,,,,
142503,1551439410251,1.307,2.391,1.6817,-0.14,1.28,0.14,-31,-8,-2,12183,35,85,19,50,782,802.0,300,300,60,114.0,259,0,446,367,208,0,0,0,0,0,0,,,,,
142523,1551439410271,1.068,2.363,1.5359,-0.18,1.17,0.05,-31,-9,-2,12183,35,85,19,50,782,802.0,300,300,60,114.0,259,0,446,367,208,0,0,0,0,0,0,,,,,
142543,1551439410291,1.164,2.499,1.6403,-0.24,1.18,-0.01,-31,-10,-3,12183,35,85,19,50,782,802.0,300,300,60,114.0,259,0,446,367,208,0,0,0,0,0,0,45.846306,5.179898,49.98,725.3,1.423
142563,1551439410310,1.135,2.355,1.6352,-0.35,1.24,-0.21,-32,-12,-2,11799,26,85,19,46,755,793.0,300,300,60,115.0,276,0,457,401,219,0,0,0,0,0,0,,,,,
142583,1551439410330,1.149,2.459,1.629,-0.42,1.3,0.01,-32,-12,-2,11799,26,85,19,46,755,793.0,300,300,60,115.0,276,0,457,401,219,0,0,0,0,0,0,,,,,
142603,1551439410350,1.258,2.42,1.541,-0.22,1.37,-0.07,-32,-9,-2,11799,26,85,19,46,755,793.0,300,300,60,115.0,276,0,457,401,219,0,0,0,0,0,0,,,,,
142623,1551439410370,1.224,2.394,1.6792,-0.19,1.09,0.14,-33,-8,-3,11799,26,85,19,46,755,793.0,300,300,60,115.0,276,0,457,401,219,0,0,0,0,0,0,,,,,
142643,1551439410390,1.297,2.411,1.6352,-0.22,1.14,0.28,-33,-10,-1,11799,26,85,19,46,755,793.0,300,300,60,115.0,276,0,457,401,219,0,0,0,0,0,0,45.846325,5.179881,49.86,725.3,1.424
142663,1551439410410,1.214,2.372,1.4857,-0.08,1.23,0.05,-33,-11,0,10819,25,85,19,48,764,777.0,300,300,60,115.0,254,0,483,405,199,0,0,0,0,0,0,,,,,
142683,1551439410430,1.112,2.408,1.5774,-0.1,1.2,-0.16,-33,-10,-0,10819,25,85,19,48,764,777.0,300,300,60,115.0,254,0,483,405,199,0,0,0,0,0,0,,,,,
142703,1551439410450,1.321,2.387,1.5284,0.03,1.28,0.06,-33,-6,-2,10819,25,85,19,48,764,777.0,300,300,60,115.0,254,0,483,405,199,0,0,0,0,0,0,,,,,
142723,1551439410470,0.946,2.437,1.5724,-0.01,1.1,0.25,-33,-6,-4,10819,25,85,19,48,764,777.0,300,300,60,115.0,254,0,483,405,199,0,0,0,0,0,0,,,,,
142743,1551439410490,1.081,2.451,1.6327,-0.04,1.19,0.02,-34,-9,-2,10819,25,85,19,48,764,777.0,300,300,60,115.0,254,0,483,405,199,0,0,0,0,0,0,45.84634,5.179863,49.83,725.3,1.425
142763,1551439410510,0.832,2.452,1.5359,-0.02,1.22,0.22,-35,-6,-2,10838,33,85,19,52,1005,773.0,300,300,60,116.0,256,0,476,397,198,0,0,0,0,0,0,,,,,
142783,1551439410530,1.262,2.464,1.5623,0.08,1.2,0.39,-35,-4,-4,10838,33,85,19,52,1005,773.0,300,300,60,116.0,256,0,476,397,198,0,0,0,0,0,0,,,,,
142803,1551439410550,1.109,2.416,1.6101,0.03,1.28,0.15,-36,-6,-3,10838,33,85,19,52,1005,773.0,300,300,60,116.0,256,0,476,397,198,0,0,0,0,0,0,,,,,
142823,1551439410570,1.082,2.48,1.6189,-0.07,1.33,0.33,-36,-5,-4,10838,33,85,19,52,1005,773.0,300,300,60,116.0,256,0,476,397,198,0,0,0,0,0,0,,,,,
142843,1551439410592,1.192,2.311,1.5435,-0.07,1.4,0.5,-35,-4,-5,10838,33,85,19,52,1005,773.0,300,300,60,116.0,256,0,476,397,198,0,0,0,0,0,0,45.846367,5.179824,48.85,725.4,1.428
142863,1551439410612,1.267,2.421,1.5674,-0.05,1.46,0.64,-35,-3,-5,11867,40,85,19,53,1015,769.0,300,300,60,114.0,245,0,440,427,188,0,0,0,0,0,0,,,,,
142883,1551439410632,1.212,2.318,1.6642,-0.04,1.51,0.69,-34,-2,-5,11867,40,85,19,53,1015,769.0,300,300,60,114.0,245,0,440,427,188,0,0,0,0,0,0,,,,,
142903,1551439410652,1.039,2.415,1.6742,-0.08,1.55,0.82,-34,-2,-5,11867,40,85,19,53,1015,769.0,300,300,60,114.0,245,0,440,427,188,0,0,0,0,0,0,,,,,
142923,1551439410672,1.085,2.392,1.722,-0.04,1.6,0.93,-34,-1,-5,11867,40,85,19,53,1015,769.0,300,300,60,114.0,245,0,440,427,188,0,0,0,0,0,0,,,,,
142943,1551439410692,1.183,2.36,1.5636,-0.04,1.64,1.03,-34,-1,-4,11867,40,85,19,53,1015,769.0,300,300,60,114.0,245,0,440,427,188,0,0,0,0,0,0,45.846382,5.179803,47.96,725.3,1.43
142963,1551439410712,1.259,2.372,1.5963,-0.15,1.68,1.13,-33,-0,-6,12104,46,85,19,56,837,763.0,300,300,60,116.0,267,0,440,367,204,0,0,0,0,0,0,,,,,
142983,1551439410732,1.119,2.406,1.5422,-0.27,1.71,1.21,-32,1,-7,12104,46,85,19,56,837,763.0,300,300,60,116.0,267,0,440,367,204,0,0,0,0,0,0,,,,,
143003,1551439410752,1.281,2.407,1.7873,-0.44,1.71,1.15,-32,-0,-7,12104,46,85,19,56,837,763.0,300,300,60,116.0,267,0,440,367,204,0,0,0,0,0,0,,,,,
143023,1551439410772,1.292,2.412,1.7798,-0.59,1.64,1.23,-32,-3,-6,12104,46,85,19,56,837,763.0,300,300,60,116.0,267,0,440,367,204,0,0,0,0,0,0,,,,,
143043,1551439410792,1.204,2.389,1.81,-0.73,1.68,1.15,-32,-6,-5,12104,46,85,19,56,837,763.0,300,300,60,116.0,267,0,440,367,204,0,0,0,0,0,0,45.846394,5.179781,47.69,725.3,1.431
143063,1551439410812,1.227,2.31,1.7433,-0.85,1.6,1.07,-32,-7,-4,11957,53,85,19,63,865,755.0,300,300,60,115.0,294,0,440,408,222,0,0,0,0,0,0,,,,,
143083,1551439410832,1.163,2.41,1.815,-0.92,1.5,1.03,-32,-7,-4,11957,53,85,19,63,865,755.0,300,300,60,115.0,294,0,440,408,222,0,0,0,0,0,0,,,,,
143103,1551439410852,1.075,2.339,1.7245,-0.96,1.52,1.13,-31,-6,-6,11957,53,85,19,63,865,755.0,300,300,60,115.0,294,0,440,408,222,0,0,0,0,0,0,,,,,
143123,1551439410872,1.034,2.412,1.6968,-0.96,1.56,1.21,-31,-6,-6,11957,53,85,19,63,865,755.0,300,300,60,115.0,294,0,440,408,222,0,0,0,0,0,0,,,,,
143143,1551439410892,1.148,2.406,1.6981,-0.85,1.61,0.96,-31,-5,-6,11957,53,85,19,63,865,755.0,300,300,60,115.0,294,0,440,408,222,0,0,0,0,0,0,45.846405,5.179759,47.78,725.3,1.432
143163,1551439410912,1.15,2.423,1.6654,-0.74,1.65,0.79,-31,-4,-4,11904,55,85,19,65,931,767.0,300,300,60,116.0,288,0,440,413,224,0,0,0,0,0,0,,,,,
143183,1551439410932,1.248,2.418,1.7195,-0.6,1.68,0.51,-32,-3,-3,11904,55,85,19,65,931,767.0,300,300,60,116.0,288,0,440,413,224,0,0,0,0,0,0,,,,,
143203,1551439410952,1.231,2.396,1.6905,-0.43,1.72,0.62,-32,-2,-2,11904,55,85,19,65,931,767.0,300,300,60,116.0,288,0,440,413,224,0,0,0,0,0,0,,,,,
143223,1551439410972,1.15,2.442,1.7333,-0.33,1.75,0.36,-33,-1,-2,11904,55,85,19,65,931,767.0,300,300,60,116.0,288,0,440,413,224,0,0,0,0,0,0,,,,,
143243,1551439410992,1.198,2.406,1.7496,-0.29,1.77,0.52,-33,1,-2,11904,55,85,19,65,931,767.0,300,300,60,116.0,288,0,440,413,224,0,0,0,0,0,0,45.846405,5.179759,47.78,725.3,1.432
143263,1551439411006,1.212,2.386,1.7345,-0.23,1.8,0.49,-33,1,-2,12135,55,85,19,66,1031,791.0,300,300,60,115.0,292,0,440,500,230,0,0,0,0,0,0,,,,,
143283,1551439411026,1.237,2.382,1.7572,-0.27,1.82,0.64,-33,1,-3,12135,55,85,19,66,1031,791.0,300,300,60,115.0,292,0,440,500,230,0,0,0,0,0,0,,,,,
143303,1551439411046,0.923,2.35,1.722,-0.32,1.77,0.77,-32,1,-5,12135,55,85,19,66,1031,791.0,300,300,60,115.0,292,0,440,500,230,0,0,0,0,0,0,,,,,
143323,1551439411066,1.014,2.373,1.6466,-0.37,1.71,0.89,-32,-1,-6,12135,55,85,19,66,1031,791.0,300,300,60,115.0,292,0,440,500,230,0,0,0,0,0,0,,,,,
143343,1551439411092,1.056,2.446,1.6642,-0.39,1.72,0.96,-33,-0,-6,12135,55,85,19,66,1031,791.0,300,300,60,115.0,292,0,440,500,230,0,0,0,0,0,0,45.846424,5.179709,48.65,725.3,1.435
143363,1551439411112,1.061,2.421,1.6629,-0.48,1.75,1.06,-33,-0,-7,12081,55,85,19,66,978,768.0,300,300,60,116.0,294,0,440,500,229,0,0,0,0,0,0,,,,,
143383,1551439411132,1.208,2.378,1.7685,-0.58,1.7,1.15,-34,0,-8,12081,55,85,19,66,978,768.0,300,300,60,116.0,294,0,440,500,229,0,0,0,0,0,0,,,,,
143403,1551439411152,1.217,2.457,1.8766,-0.72,1.73,1.24,-34,-1,-8,12081,55,85,19,66,978,768.0,300,300,60,116.0,294,0,440,500,229,0,0,0,0,0,0,,,,,
143423,1551439411172,1.379,2.392,1.903,-0.85,1.76,1.03,-34,-2,-7,12081,55,85,19,66,978,768.0,300,300,60,116.0,294,0,440,500,229,0,0,0,0,0,0,,,,,
143443,1551439411192,1.378,2.544,1.7886,-0.87,1.67,0.84,-34,-5,-5,12081,55,85,19,66,978,768.0,300,300,60,116.0,294,0,440,500,229,0,0,0,0,0,0,45.846428,5.179684,48.98,725.3,1.436
143463,1551439411212,1.359,2.442,1.6654,-0.95,1.49,0.75,-33,-7,-4,12143,56,85,19,66,989,786.0,300,300,60,115.0,297,0,440,422,233,0,0,0,0,0,0,,,,,
143483,1551439411232,1.028,2.422,1.7019,-0.97,1.4,0.48,-33,-9,-3,12143,56,85,19,66,989,786.0,300,300,60,115.0,297,0,440,422,233,0,0,0,0,0,0,,,,,
143503,1551439411252,0.977,2.272,1.722,-1.03,1.28,0.35,-33,-11,-3,12143,56,85,19,66,989,786.0,300,300,60,115.0,297,0,440,422,233,0,0,0,0,0,0,,,,,
143523,1551439411272,1.062,2.225,1.6139,-0.87,1.17,0.51,-34,-8,-3,12143,56,85,19,66,989,786.0,300,300,60,115.0,297,0,440,422,233,0,0,0,0,0,0,,,,,
143543,1551439411291,1.344,2.393,1.6792,-0.65,1.08,0.46,-34,-6,-4,12143,56,85,19,66,989,786.0,300,300,60,115.0,297,0,440,422,233,0,0,0,0,0,0,45.846439,5.179657,49.46,725.4,1.438
143563,1551439411311,1.144,2.308,1.8489,-0.4,1.17,0.33,-34,-3,-3,12254,56,85,19,66,962,782.0,300,300,60,115.0,299,0,440,422,235,0,0,0,0,0,0,,,,,
143583,1551439411331,1.155,2.427,1.6013,-0.2,1.15,0.09,-33,-1,-2,12254,56,85,19,66,962,782.0,300,300,60,115.0,299,0,440,422,235,0,0,0,0,0,0,,,,,
143603,1551439411351,1.028,2.453,1.6126,-0.19,1.08,0.25,-34,-0,-2,12254,56,85,19,66,962,782.0,300,300,60,115.0,299,0,440,422,235,0,0,0,0,0,0,,,,,
143623,1551439411371,1.127,2.372,1.7999,-0.32,1.04,0.08,-34,-3,-3,12254,56,85,19,66,962,782.0,300,300,60,115.0,299,0,440,422,235,0,0,0,0,0,0,,,,,
143643,1551439411391,1.06,2.469,1.6931,-0.4,1.01,-0.01,-35,-6,-3,12254,56,85,19,66,962,782.0,300,300,60,115.0,299,0,440,422,235,0,0,0,0,0,0,45.846443,5.17963,49.66,725.5,1.439
143663,1551439411411,1.195,2.36,1.5875,-0.26,0.95,0.19,-35,-3,-5,12575,56,85,19,67,911,774.0,300,300,60,114.0,312,0,440,506,244,0,0,0,0,0,0,,,,,
143683,1551439411431,1.347,2.459,1.7898,-0.11,1.06,0.37,-35,-2,-6,12575,56,85,19,67,911,774.0,300,300,60,114.0,312,0,440,506,244,0,0,0,0,0,0,,,,,
143703,1551439411451,1.052,2.416,1.7534,-0.06,1.15,0.27,-34,-1,-6,12575,56,85,19,67,911,774.0,300,300,60,114.0,312,0,440,506,244,0,0,0,0,0,0,,,,,
143723,1551439411471,1.251,2.368,1.5623,-0.12,1.24,0.44,-34,-1,-7,12575,56,85,19,67,911,774.0,300,300,60,114.0,312,0,440,506,244,0,0,0,0,0,0,,,,,
143743,1551439411491,0.975,2.398,1.678,-0.3,1.21,0.59,-34,-4,-5,12575,56,85,19,67,911,774.0,300,300,60,114.0,312,0,440,506,244,0,0,0,0,0,0,45.846447,5.179602,49.91,725.6,1.44
143763,1551439411511,1.261,2.485,1.6905,-0.45,1.25,0.54,-35,-6,-5,12400,48,85,19,63,882,799.0,300,300,60,115.0,276,0,440,375,219,0,0,0,0,0,0,,,,,
143783,1551439411531,1.271,2.398,1.5586,-0.49,1.23,0.52,-35,-6,-5,12400,48,85,19,63,882,799.0,300,300,60,115.0,276,0,440,375,219,0,0,0,0,0,0,,,,,
143803,1551439411551,1.219,2.426,1.8188,-0.29,1.23,0.66,-34,-2,-6,12400,48,85,19,63,882,799.0,300,300,60,115.0,276,0,440,375,219,0,0,0,0,0,0,,,,,
143823,1551439411571,1.263,2.426,1.8401,-0.06,1.31,0.62,-34,2,-4,12400,48,85,19,63,882,799.0,300,300,60,115.0,276,0,440,375,219,0,0,0,0,0,0,,,,,
143843,1551439411591,1.013,2.521,1.7031,0.06,1.38,0.65,-34,3,-3,12400,48,85,19,63,882,799.0,300,300,60,115.0,276,0,440,375,219,0,0,0,0,0,0,45.846451,5.179573,50.18,725.6,1.442
143863,1551439411611,1.183,2.461,1.5787,-0.01,1.33,0.78,-34,4,-4,12376,41,85,19,56,860,806.0,300,300,60,114.0,247,0,440,429,201,0,0,0,0,0,0,,,,,
143883,1551439411631,1.313,2.327,1.7044,-0.16,1.24,0.9,-34,2,-5,12376,41,85,19,56,860,806.0,300,300,60,114.0,247,0,440,429,201,0,0,0,0,0,0,,,,,
143903,1551439411651,1.136,2.51,1.7295,-0.32,1.3,1.01,-34,-2,-5,12376,41,85,19,56,860,806.0,300,300,60,114.0,247,0,440,429,201,0,0,0,0,0,0,,,,,
143923,1551439411671,1.171,2.3,1.6943,-0.44,1.25,1.09,-33,-3,-6,12376,41,85,19,56,860,806.0,300,300,60,114.0,247,0,440,429,201,0,0,0,0,0,0,,,,,
143943,1551439411692,1.073,2.396,1.6604,-0.48,1.08,1.18,-33,-5,-6,12376,41,85,19,56,860,806.0,300,300,60,114.0,247,0,440,429,201,0,0,0,0,0,0,45.846455,5.179544,50.31,725.7,1.443
143963,1551439411712,0.916,2.621,1.6466,-0.43,0.92,1.26,-32,-4,-7,12295,40,85,19,53,811,784.0,300,300,60,116.0,255,0,440,427,199,0,0,0,0,0,0,,,,,
143983,1551439411732,1.425,2.359,1.7936,-0.27,0.93,1.13,-32,-2,-8,12295,40,85,19,53,811,784.0,300,300,60,116.0,255,0,440,427,199,0,0,0,0,0,0,,,,,
144003,1551439411752,1.272,2.482,1.8012,-0.06,1.04,0.98,-32,0,-7,12295,40,85,19,53,811,784.0,300,300,60,116.0,255,0,440,427,199,0,0,0,0,0,0,,,,,
144023,1551439411772,1.229,2.433,1.7345,0.15,1.14,0.68,-32,1,-5,12295,40,85,19,53,811,784.0,300,300,60,116.0,255,0,440,427,199,0,0,0,0,0,0,,,,,
144043,1551439411791,1.116,2.266,1.6415,0.16,1.23,0.47,-31,1,-5,12295,40,85,19,53,811,784.0,300,300,60,116.0,255,0,440,427,199,0,0,0,0,0,0,45.846455,5.179515,50.29,725.8,1.445
144063,1551439411811,1.016,2.345,1.7408,0.08,1.31,0.62,-31,-0,-6,12319,39,85,19,52,808,800.0,300,300,60,115.0,246,0,440,339,197,0,0,0,0,0,0,,,,,
144083,1551439411831,1.19,2.403,1.7886,-0.05,1.29,0.76,-32,-3,-6,12319,39,85,19,52,808,800.0,300,300,60,115.0,246,0,440,339,197,0,0,0,0,0,0,,,,,
144103,1551439411851,1.088,2.42,1.7257,-0.17,1.27,0.57,-32,-6,-4,12319,39,85,19,52,808,800.0,300,300,60,115.0,246,0,440,339,197,0,0,0,0,0,0,,,,,
144123,1551439411871,0.875,2.418,1.6001,-0.25,1.17,0.31,-32,-6,-3,12319,39,85,19,52,808,800.0,300,300,60,115.0,246,0,440,339,197,0,0,0,0,0,0,,,,,
144143,1551439411891,0.965,2.265,1.5473,-0.33,1.16,0.22,-31,-7,-3,12319,39,85,19,52,808,800.0,300,300,60,115.0,246,0,440,339,197,0,0,0,0,0,0,45.846455,5.179486,50.11,725.9,1.446
144163,1551439411911,1.023,2.299,1.5498,-0.28,1.15,0.27,-31,-5,-4,12207,34,85,19,50,780,811.0,300,300,60,115.0,261,0,448,458,208,0,0,0,0,0,0,,,,,
144183,1551439411931,1.199,2.362,1.6466,-0.14,1.24,0.43,-31,-3,-5,12207,34,85,19,50,780,811.0,300,300,60,115.0,261,0,448,458,208,0,0,0,0,0,0,,,,,
144203,1551439411951,1.17,2.372,1.7408,0.04,1.19,0.59,-31,-0,-5,12207,34,85,19,50,780,811.0,300,300,60,115.0,261,0,448,458,208,0,0,0,0,0,0,,,,,
144223,1551439411971,1.219,2.465,1.732,0.11,1.19,0.73,-31,1,-4,12207,34,85,19,50,780,811.0,300,300,60,115.0,261,0,448,458,208,0,0,0,0,0,0,,,,,
144243,1551439411991,1.355,2.393,1.7056,0.28,1.22,0.6,-30,3,-4,12207,34,85,19,50,780,811.0,300,300,60,115.0,261,0,448,458,208,0,0,0,0,0,0,45.846455,5.179486,50.11,725.9,1.446
144263,1551439412005,0.99,2.322,1.6604,0.4,1.14,0.56,-29,3,-4,11957,33,85,19,47,753,798.0,300,300,60,115.0,273,0,449,469,213,0,0,0,0,0,0,,,,,
144283,1551439412025,0.975,2.338,1.6905,0.54,0.97,0.3,-29,4,-3,11957,33,85,19,47,753,798.0,300,300,60,115.0,273,0,449,469,213,0,0,0,0,0,0,,,,,
144303,1551439412045,1.141,2.427,1.7081,0.58,0.9,0.3,-29,5,-2,11957,33,85,19,47,753,798.0,300,300,60,115.0,273,0,449,469,213,0,0,0,0,0,0,,,,,
144323,1551439412065,1.404,2.371,1.546,0.55,0.84,0.47,-29,4,-2,11957,33,85,19,47,753,798.0,300,300,60,115.0,273,0,449,469,213,0,0,0,0,0,0,,,,,
144343,1551439412091,1.154,2.431,1.5322,0.45,0.9,0.22,-30,2,-1,11957,33,85,19,47,753,798.0,300,300,60,115.0,273,0,449,469,213,0,0,0,0,0,0,45.846451,5.179429,49.78,725.9,1.449
144363,1551439412111,1.127,2.461,1.678,0.32,1.01,0.33,-31,0,-0,11377,30,85,19,48,731,791.0,300,300,60,115.0,258,0,464,473,205,0,0,0,0,0,0,,,,,
144383,1551439412131,1.34,2.448,1.5925,0.43,1.11,0.09,-31,1,-1,11377,30,85,19,48,731,791.0,300,300,60,115.0,258,0,464,473,205,0,0,0,0,0,0,,,,,
144403,1551439412151,1.143,2.388,1.541,0.35,1.04,0.28,-31,3,-5,11377,30,85,19,48,731,791.0,300,300,60,115.0,258,0,464,473,205,0,0,0,0,0,0,,,,,
144423,1551439412171,0.92,2.44,1.5397,0.29,0.96,0.45,-31,2,-6,11377,30,85,19,48,731,791.0,300,300,60,115.0,258,0,464,473,205,0,0,0,0,0,0,,,,,
144443,1551439412191,1.247,2.396,1.5523,0.47,0.93,0.2,-31,2,-2,11377,30,85,19,48,731,791.0,300,300,60,115.0,258,0,464,473,205,0,0,0,0,0,0,45.846451,5.179401,49.43,726.0,1.45
144463,1551439412211,1.319,2.398,1.5485,0.37,0.98,-0.02,-32,-2,-2,10856,30,85,19,52,843,782.0,300,300,60,116.0,258,0,484,416,204,0,0,0,0,0,0,,,,,
144483,1551439412231,0.939,2.43,1.5209,0.34,1.05,0.18,-32,0,-4,10856,30,85,19,52,843,782.0,300,300,60,116.0,258,0,484,416,204,0,0,0,0,0,0,,,,,
144503,1551439412251,1.068,2.392,1.6591,0.47,1.01,0.0,-33,-1,-2,10856,30,85,19,52,843,782.0,300,300,60,116.0,258,0,484,416,204,0,0,0,0,0,0,,,,,
144523,1551439412271,1.07,2.408,1.5535,0.41,1.05,-0.2,-34,-3,-2,10856,30,85,19,52,843,782.0,300,300,60,116.0,258,0,484,416,204,0,0,0,0,0,0,,,,,
144543,1551439412292,0.987,2.376,1.5711,0.28,1.01,0.02,-34,-1,-4,10856,30,85,19,52,843,782.0,300,300,60,116.0,258,0,484,416,204,0,0,0,0,0,0,45.846447,5.179373,48.79,726.0,1.451
144563,1551439412312,0.955,2.381,1.5913,0.46,1.02,0.21,-35,-1,-3,11029,32,85,19,53,1074,779.0,300,300,60,115.0,260,0,483,389,197,0,0,0,0,0,0,,,,,
144583,1551439412332,1.222,2.452,1.5573,0.39,1.07,-0.01,-36,-1,-4,11029,32,85,19,53,1074,779.0,300,300,60,115.0,260,0,483,389,197,0,0,0,0,0,0,,,,,
144603,1551439412352,1.132,2.333,1.5825,0.25,1.09,0.19,-36,-3,-5,11029,32,85,19,53,1074,779.0,300,300,60,115.0,260,0,483,389,197,0,0,0,0,0,0,,,,,
144623,1551439412372,1.156,2.357,1.5611,0.39,1.18,-0.03,-36,-2,-5,11029,32,85,19,53,1074,779.0,300,300,60,115.0,260,0,483,389,197,0,0,0,0,0,0,,,,,
144643,1551439412392,1.217,2.402,1.5058,0.52,1.26,-0.03,-37,-0,-5,11029,32,85,19,53,1074,779.0,300,300,60,115.0,260,0,483,389,197,0,0,0,0,0,0,45.846443,5.179346,47.64,726.0,1.453
144663,1551439412412,1.115,2.499,1.6516,0.64,1.34,-0.08,-37,2,-4,11852,38,85,19,51,936,750.0,300,300,60,115.0,254,0,440,336,190,0,0,0,0,0,0,,,,,
144683,1551439412432,1.1,2.515,1.6051,0.74,1.41,-0.14,-38,4,-3,11852,38,85,19,51,936,750.0,300,300,60,115.0,254,0,440,336,190,0,0,0,0,0,0,,,,,
144703,1551439412452,1.261,2.568,1.7547,0.82,1.47,0.02,-38,7,-3,11852,38,85,19,51,936,750.0,300,300,60,115.0,254,0,440,336,190,0,0,0,0,0,0,,,,,
144723,1551439412472,1.229,2.491,1.6943,0.82,1.52,-0.15,-37,7,-3,11852,38,85,19,51,936,750.0,300,300,60,115.0,254,0,440,336,190,0,0,0,0,0,0,,,,,
144743,1551439412492,1.408,2.469,1.7081,0.82,1.57,-0.03,-37,6,-5,11852,38,85,19,51,936,750.0,300,300,60,115.0,254,0,440,336,190,0,0,0,0,0,0,45.846436,5.17932,46.98,726.0,1.454
144763,1551439412512,1.305,2.366,1.7094,0.86,1.61,-0.23,-36,6,-5,11996,46,85,19,56,829,763.0,300,300,60,115.0,273,0,440,451,204,0,0,0,0,0,0,,,,,
144783,1551439412532,1.242,2.323,1.6943,0.93,1.65,-0.41,-36,5,-6,11996,46,85,19,56,829,763.0,300,300,60,115.0,273,0,440,451,204,0,0,0,0,0,0,,,,,
144803,1551439412552,1.153,2.247,1.6264,1.01,1.69,-0.55,-35,6,-4,11996,46,85,19,56,829,763.0,300,300,60,115.0,273,0,440,451,204,0,0,0,0,0,0,,,,,
144823,1551439412572,1.232,2.369,1.7421,0.85,1.72,-0.5,-35,6,-3,11996,46,85,19,56,829,763.0,300,300,60,115.0,273,0,440,451,204,0,0,0,0,0,0,,,,,
144843,1551439412592,1.297,2.437,1.722,0.84,1.75,-0.65,-34,7,-3,11996,46,85,19,56,829,763.0,300,300,60,115.0,273,0,440,451,204,0,0,0,0,0,0,45.846428,5.179295,46.95,726.0,1.455
144863,1551439412612,1.366,2.492,1.859,0.82,1.78,-0.39,-34,6,-2,11829,47,85,19,59,881,750.0,300,300,60,115.0,270,0,440,456,204,0,0,0,0,0,0,,,,,
144883,1551439412632,1.111,2.372,1.7949,0.89,1.8,-0.46,-33,6,-3,11829,47,85,19,59,881,750.0,300,300,60,115.0,270,0,440,456,204,0,0,0,0,0,0,,,,,
144903,1551439412652,1.422,2.358,1.7647,0.88,1.77,-0.21,-32,6,-4,11829,47,85,19,59,881,750.0,300,300,60,115.0,270,0,440,456,204,0,0,0,0,0,0,,,,,
144923,1551439412672,0.745,2.416,1.6679,0.83,1.62,0.01,-32,5,-4,11829,47,85,19,59,881,750.0,300,300,60,115.0,270,0,440,456,204,0,0,0,0,0,0,,,,,
144943,1551439412692,1.009,2.569,1.6679,0.77,1.47,0.16,-32,4,-4,11829,47,85,19,59,881,750.0,300,300,60,115.0,270,0,440,456,204,0,0,0,0,0,0,45.84642,5.17927,47.17,725.9,1.457
144963,1551439412712,0.968,2.407,1.5737,0.62,1.35,0.19,-32,0,-3,11799,48,85,19,60,986,771.0,300,300,60,115.0,277,0,440,462,207,0,0,0,0,0,0,,,,,
144983,1551439412732,1.218,2.384,1.6528,0.52,1.36,0.14,-32,-2,-2,11799,48,85,19,60,986,771.0,300,300,60,115.0,277,0,440,462,207,0,0,0,0,0,0,,,,,
145003,1551439412752,1.249,2.408,1.7232,0.29,1.43,0.27,-32,-4,-4,11799,48,85,19,60,986,771.0,300,300,60,115.0,277,0,440,462,207,0,0,0,0,0,0,,,,,
145023,1551439412772,1.159,2.523,1.7094,0.14,1.4,0.04,-31,-5,-5,11799,48,85,19,60,986,771.0,300,300,60,115.0,277,0,440,462,207,0,0,0,0,0,0,,,,,
145043,1551439412792,0.96,2.518,1.7459,-0.04,1.26,-0.02,-31,-6,-6,11799,48,85,19,60,986,771.0,300,300,60,115.0,277,0,440,462,207,0,0,0,0,0,0,45.846409,5.179246,47.1,725.9,1.458
145063,1551439412812,1.192,2.354,1.7232,-0.16,1.23,-0.04,-31,-5,-6,11897,49,85,19,61,991,771.0,300,300,60,115.0,274,0,440,384,211,0,0,0,0,0,0,,,,,
145083,1551439412832,1.218,2.305,1.6918,-0.24,1.17,0.11,-31,-4,-7,11897,49,85,19,61,991,771.0,300,300,60,115.0,274,0,440,384,211,0,0,0,0,0,0,,,,,
145103,1551439412852,0.891,2.373,1.727,-0.3,1.01,0.29,-31,-3,-8,11897,49,85,19,61,991,771.0,300,300,60,115.0,274,0,440,384,211,0,0,0,0,0,0,,,,,
145123,1551439412872,0.997,2.378,1.6767,-0.29,0.97,0.46,-32,-0,-9,11897,49,85,19,61,991,771.0,300,300,60,115.0,274,0,440,384,211,0,0,0,0,0,0,,,,,
145143,1551439412892,0.95,2.411,1.6528,-0.39,0.95,0.61,-32,1,-10,11897,49,85,19,61,991,771.0,300,300,60,115.0,274,0,440,384,211,0,0,0,0,0,0,45.846401,5.179223,47.57,725.9,1.459
145163,1551439412912,1.135,2.445,1.7132,-0.45,0.93,0.75,-32,3,-10,11919,49,85,19,61,994,755.0,300,300,60,116.0,266,0,440,466,209,0,0,0,0,0,0,,,,,
145183,1551439412932,1.241,2.446,1.6616,-0.47,0.95,0.87,-32,5,-9,11919,49,85,19,61,994,755.0,300,300,60,116.0,266,0,440,466,209,0,0,0,0,0,0,,,,,
145203,1551439412952,1.227,2.415,1.7433,-0.43,1.0,0.98,-31,6,-9,11919,49,85,19,61,994,755.0,300,300,60,116.0,266,0,440,466,209,0,0,0,0,0,0,,,,,
145223,1551439412972,1.014,2.44,1.7157,-0.24,1.06,0.99,-31,6,-8,11919,49,85,19,61,994,755.0,300,300,60,116.0,266,0,440,466,209,0,0,0,0,0,0,,,,,
145243,1551439412992,1.052,2.461,1.7509,-0.07,1.04,0.95,-31,6,-8,11919,49,85,19,61,994,755.0,300,300,60,116.0,266,0,440,466,209,0,0,0,0,0,0,45.846401,5.179223,47.57,725.9,1.459
145263,1551439413006,1.026,2.403,1.6742,0.09,1.01,0.99,-32,7,-8,11755,49,85,20,61,1028,758.0,300,300,60,115.0,274,0,440,465,208,0,0,0,0,0,0,,,,,
145283,1551439413026,1.115,2.396,1.7421,0.24,1.06,1.08,-33,9,-8,11755,49,85,20,61,1028,758.0,300,300,60,115.0,274,0,440,465,208,0,0,0,0,0,0,,,,,
145303,1551439413046,0.93,2.366,1.6679,0.36,1.1,1.17,-33,10,-8,11755,49,85,20,61,1028,758.0,300,300,60,115.0,274,0,440,465,208,0,0,0,0,0,0,,,,,
145323,1551439413066,1.215,2.406,1.7396,0.5,1.15,1.12,-34,11,-8,11755,49,85,20,61,1028,758.0,300,300,60,115.0,274,0,440,465,208,0,0,0,0,0,0,,,,,
145343,1551439413092,1.203,2.426,1.7521,0.6,1.23,1.21,-34,11,-8,11755,49,85,20,61,1028,758.0,300,300,60,115.0,274,0,440,465,208,0,0,0,0,0,0,45.846378,5.179178,48.03,725.8,1.462
145363,1551439413112,1.237,2.504,1.7257,0.69,1.22,1.28,-34,11,-8,12011,43,85,20,59,1025,766.0,300,300,60,116.0,262,0,440,439,201,0,0,0,0,0,0,,,,,
145383,1551439413132,1.222,2.499,1.8074,0.83,1.3,1.14,-33,11,-8,12011,43,85,20,59,1025,766.0,300,300,60,116.0,262,0,440,439,201,0,0,0,0,0,0,,,,,
145403,1551439413152,1.237,2.402,1.8552,0.95,1.34,1.03,-34,12,-6,12011,43,85,20,59,1025,766.0,300,300,60,116.0,262,0,440,439,201,0,0,0,0,0,0,,,,,
145423,1551439413172,1.316,2.31,1.6792,1.01,1.4,1.13,-35,13,-4,12011,43,85,20,59,1025,766.0,300,300,60,116.0,262,0,440,439,201,0,0,0,0,0,0,,,,,
145443,1551439413192,1.295,2.284,1.7056,1.1,1.44,1.21,-34,14,-4,12011,43,85,20,59,1025,766.0,300,300,60,116.0,262,0,440,439,201,0,0,0,0,0,0,45.846367,5.179158,48.2,725.8,1.463
145463,1551439413212,1.132,2.482,1.7634,1.18,1.5,0.93,-34,15,-3,12019,40,85,19,54,932,779.0,300,300,60,115.0,251,0,440,433,196,0,0,0,0,0,0,,,,,
145483,1551439413232,1.199,2.452,1.7521,1.27,1.55,1.03,-34,16,-3,12019,40,85,19,54,932,779.0,300,300,60,115.0,251,0,440,433,196,0,0,0,0,0,0,,,,,
145503,1551439413252,1.036,2.42,1.766,1.34,1.49,0.83,-33,17,-1,12019,40,85,19,54,932,779.0,300,300,60,115.0,251,0,440,433,196,0,0,0,0,0,0,,,,,
145523,1551439413272,1.141,2.408,1.7898,1.41,1.51,0.89,-33,19,-1,12019,40,85,19,54,932,779.0,300,300,60,115.0,251,0,440,433,196,0,0,0,0,0,0,,,,,
145543,1551439413293,0.941,2.514,1.6868,1.47,1.56,1.0,-33,20,-1,12019,40,85,19,54,932,779.0,300,300,60,115.0,251,0,440,433,196,0,0,0,0,0,0,45.846348,5.179138,48.28,725.7,1.465
145563,1551439413313,1.22,2.568,1.7232,1.42,1.6,0.98,-33,20,0,12230,40,85,19,53,845,775.0,300,300,60,115.0,257,0,440,428,197,0,0,0,0,0,0,,,,,
145583,1551439413333,1.041,2.401,1.7383,1.36,1.57,1.07,-32,21,0,12230,40,85,19,53,845,775.0,300,300,60,115.0,257,0,440,428,197,0,0,0,0,0,0,,,,,
145603,1551439413353,1.141,2.433,1.7383,1.25,1.56,1.02,-32,21,-0,12230,40,85,19,53,845,775.0,300,300,60,115.0,257,0,440,428,197,0,0,0,0,0,0,,,,,
145623,1551439413373,1.154,2.422,1.6893,1.17,1.57,1.12,-32,21,-1,12230,40,85,19,53,845,775.0,300,300,60,115.0,257,0,440,428,197,0,0,0,0,0,0,,,,,
145643,1551439413391,1.144,2.318,1.6528,1.05,1.4,1.2,-32,21,-2,12230,40,85,19,53,845,775.0,300,300,60,115.0,257,0,440,428,197,0,0,0,0,0,0,45.846336,5.17912,48.16,725.7,1.466
145663,1551439413411,1.266,2.401,1.6918,0.97,1.31,1.28,-31,21,-3,11965,40,85,19,53,791,780.0,300,300,60,115.0,252,0,440,433,197,0,0,0,0,0,0,,,,,
145683,1551439413431,1.2,2.407,1.6554,0.94,1.27,1.35,-30,21,-3,11965,40,85,19,53,791,780.0,300,300,60,115.0,252,0,440,433,197,0,0,0,0,0,0,,,,,
145703,1551439413451,1.176,2.422,1.6654,0.95,1.31,1.1,-30,21,-3,11965,40,85,19,53,791,780.0,300,300,60,115.0,252,0,440,433,197,0,0,0,0,0,0,,,,,
145723,1551439413471,1.251,2.379,1.7232,0.99,1.37,0.89,-30,20,-3,11965,40,85,19,53,791,780.0,300,300,60,115.0,252,0,440,433,197,0,0,0,0,0,0,,,,,
145743,1551439413491,1.077,2.406,1.7081,1.08,1.4,0.99,-30,19,-2,11965,40,85,19,53,791,780.0,300,300,60,115.0,252,0,440,433,197,0,0,0,0,0,0,45.846321,5.179102,48.38,725.6,1.467
145763,1551439413511,1.073,2.44,1.8087,1.17,1.46,1.02,-30,19,-0,11957,40,86,19,53,814,791.0,300,300,60,115.0,247,0,440,349,196,0,0,0,0,0,0,,,,,
145783,1551439413531,1.153,2.5,1.7861,1.26,1.51,1.11,-30,20,1,11957,40,86,19,53,814,791.0,300,300,60,115.0,247,0,440,349,196,0,0,0,0,0,0,,,,,
145803,1551439413551,1.016,2.415,1.7019,1.33,1.56,1.17,-30,20,1,11957,40,86,19,53,814,791.0,300,300,60,115.0,247,0,440,349,196,0,0,0,0,0,0,,,,,
145823,1551439413571,1.242,2.492,1.7496,1.36,1.61,1.25,-31,19,2,11957,40,86,19,53,814,791.0,300,300,60,115.0,247,0,440,349,196,0,0,0,0,0,0,,,,,
145843,1551439413591,1.101,2.533,1.8263,1.42,1.59,1.25,-31,19,2,11957,40,86,19,53,814,791.0,300,300,60,115.0,247,0,440,349,196,0,0,0,0,0,0,45.846306,5.179087,48.6,725.5,1.469
145863,1551439413611,1.168,2.448,1.8238,1.46,1.64,1.29,-31,19,2,11996,40,86,19,54,823,776.0,300,300,60,116.0,251,0,440,434,196,0,0,0,0,0,0,,,,,
145883,1551439413631,1.317,2.383,1.8238,1.51,1.67,1.36,-31,18,2,11996,40,86,19,54,823,776.0,300,300,60,116.0,251,0,440,434,196,0,0,0,0,0,0,,,,,
145903,1551439413651,1.219,2.367,1.7408,1.52,1.7,1.36,-31,16,2,11996,40,86,19,54,823,776.0,300,300,60,116.0,251,0,440,434,196,0,0,0,0,0,0,,,,,
145923,1551439413671,1.525,2.438,1.722,1.56,1.73,1.22,-31,17,1,11996,40,86,19,54,823,776.0,300,300,60,116.0,251,0,440,434,196,0,0,0,0,0,0,,,,,
145943,1551439413691,1.222,2.259,1.6893,1.58,1.67,1.09,-30,16,1,11996,40,86,19,54,823,776.0,300,300,60,116.0,251,0,440,434,196,0,0,0,0,0,0,45.846287,5.179072,48.67,725.4,1.47
145963,1551439413711,1.254,2.421,1.9319,1.56,1.62,0.9,-31,18,-1,11965,37,86,19,51,797,780.0,300,300,60,115.0,256,0,442,438,199,0,0,0,0,0,0,,,,,
145983,1551439413731,1.002,2.436,1.7257,1.58,1.62,0.81,-31,18,-0,11965,37,86,19,51,797,780.0,300,300,60,115.0,256,0,442,438,199,0,0,0,0,0,0,,,,,
146003,1551439413751,1.202,2.448,1.678,1.54,1.44,0.93,-31,16,-1,11965,37,86,19,51,797,780.0,300,300,60,115.0,256,0,442,438,199,0,0,0,0,0,0,,,,,
146023,1551439413771,0.941,2.222,1.6227,1.42,1.31,1.03,-31,14,-2,11965,37,86,19,51,797,780.0,300,300,60,115.0,256,0,442,438,199,0,0,0,0,0,0,,,,,
146043,1551439413791,1.151,2.432,1.6227,1.28,1.21,1.04,-31,12,-2,11965,37,86,19,51,797,780.0,300,300,60,115.0,256,0,442,438,199,0,0,0,0,0,0,45.846268,5.179059,48.68,725.4,1.471
146063,1551439413811,1.205,2.472,1.6001,1.19,1.23,0.78,-32,9,-1,11904,36,86,19,50,759,795.0,300,300,60,116.0,254,0,444,357,198,0,0,0,0,0,0,,,,,
146083,1551439413831,1.132,2.515,1.4907,1.01,1.22,0.53,-32,7,-2,11904,36,86,19,50,759,795.0,300,300,60,116.0,254,0,444,357,198,0,0,0,0,0,0,,,,,
146103,1551439413851,1.068,2.472,1.5297,0.86,1.19,0.43,-32,5,-3,11904,36,86,19,50,759,795.0,300,300,60,116.0,254,0,444,357,198,0,0,0,0,0,0,,,,,
146123,1551439413871,1.088,2.3,1.5825,0.71,1.09,0.39,-32,4,-3,11904,36,86,19,50,759,795.0,300,300,60,116.0,254,0,444,357,198,0,0,0,0,0,0,,,,,
146143,1551439413891,1.36,2.396,1.5963,0.57,1.06,0.15,-32,2,-3,11904,36,86,19,50,759,795.0,300,300,60,116.0,254,0,444,357,198,0,0,0,0,0,0,45.846252,5.179048,48.7,725.3,1.473
146163,1551439413911,1.15,2.407,1.5699,0.5,1.04,-0.07,-32,-0,-3,11889,37,86,19,50,742,775.0,300,300,60,115.0,254,0,442,430,194,0,0,0,0,0,0,,,,,
146183,1551439413931,1.111,2.533,1.5963,0.41,0.96,-0.26,-32,-3,-1,11889,37,86,19,50,742,775.0,300,300,60,115.0,254,0,442,430,194,0,0,0,0,0,0,,,,,
146203,1551439413951,1.15,2.44,1.5246,0.33,0.93,-0.44,-33,-4,1,11889,37,86,19,50,742,775.0,300,300,60,115.0,254,0,442,430,194,0,0,0,0,0,0,,,,,
146223,1551439413971,1.085,2.508,1.5209,0.24,0.95,-0.6,-33,-5,2,11889,37,86,19,50,742,775.0,300,300,60,115.0,254,0,442,430,194,0,0,0,0,0,0,,,,,
146243,1551439413991,0.938,2.497,1.6403,0.08,0.96,-0.73,-34,-6,2,11889,37,86,19,50,742,775.0,300,300,60,115.0,254,0,442,430,194,0,0,0,0,0,0,45.846252,5.179048,48.7,725.3,1.473
146263,1551439414005,0.876,2.453,1.6063,-0.03,1.01,-0.86,-34,-8,2,12073,61,86,19,62,731,764.0,300,300,60,114.0,313,0,440,533,239,0,0,0,0,0,0,,,,,
146283,1551439414025,1.134,2.342,1.6704,-0.1,1.08,-0.82,-35,-7,1,12073,61,86,19,62,731,764.0,300,300,60,114.0,313,0,440,533,239,0,0,0,0,0,0,,,,,
146303,1551439414045,1.291,2.301,1.6943,-0.01,1.14,-0.54,-34,-5,-1,12073,61,86,19,62,731,764.0,300,300,60,114.0,313,0,440,533,239,0,0,0,0,0,0,,,,,
146323,1551439414065,0.926,2.431,1.7873,0.2,1.11,-0.68,-34,-2,-1,12073,61,86,19,62,731,764.0,300,300,60,114.0,313,0,440,533,239,0,0,0,0,0,0,,,,,
146343,1551439414092,1.102,2.425,1.8338,0.37,1.2,-0.56,-33,1,-0,12073,61,86,19,62,731,764.0,300,300,60,114.0,313,0,440,533,239,0,0,0,0,0,0,45.846214,5.179029,48.71,725.2,1.475
146363,1551439414112,1.126,2.479,1.825,0.46,1.22,-0.52,-32,3,-1,12368,100,86,19,83,803,781.0,300,300,60,113.0,609,0,442,1000,472,0,0,0,0,0,0,,,,,
146383,1551439414132,1.185,2.417,1.7232,0.39,1.16,-0.27,-33,3,-2,12368,100,86,19,83,803,781.0,300,300,60,113.0,609,0,442,1000,472,0,0,0,0,0,0,,,,,
146403,1551439414152,1.1,2.452,1.8024,0.2,1.12,-0.32,-33,1,-1,12368,100,86,19,83,803,781.0,300,300,60,113.0,609,0,442,1000,472,0,0,0,0,0,0,,,,,
146423,1551439414172,1.107,2.363,1.825,0.07,1.07,-0.48,-34,-1,-1,12368,100,86,19,83,803,781.0,300,300,60,113.0,609,0,442,1000,472,0,0,0,0,0,0,,,,,
146443,1551439414191,1.682,2.32,1.7094,-0.11,1.14,-0.39,-33,-4,-0,12368,100,86,19,83,803,781.0,300,300,60,113.0,609,0,442,1000,472,0,0,0,0,0,0,45.846195,5.179022,49.06,725.2,1.477
146463,1551439414211,1.021,2.354,1.727,-0.23,1.07,-0.16,-33,-6,-1,12311,100,86,19,86,883,776.0,300,300,60,112.0,533,0,442,885,414,0,0,0,0,0,0,,,,,
146483,1551439414231,1.483,2.319,1.8087,-0.12,1.02,0.06,-33,-5,-3,12311,100,86,19,86,883,776.0,300,300,60,112.0,533,0,442,885,414,0,0,0,0,0,0,,,,,
146503,1551439414251,1.261,2.322,1.7798,0.09,1.12,-0.0,-32,-3,-2,12311,100,86,19,86,883,776.0,300,300,60,112.0,533,0,442,885,414,0,0,0,0,0,0,,,,,
146523,1551439414271,0.935,2.441,1.7521,0.05,1.21,0.0,-33,-2,-4,12311,100,86,19,86,883,776.0,300,300,60,112.0,533,0,442,885,414,0,0,0,0,0,0,,,,,
146543,1551439414291,0.874,2.364,1.6843,-0.15,1.17,0.2,-33,-6,-4,12311,100,86,19,86,883,776.0,300,300,60,112.0,533,0,442,885,414,0,0,0,0,0,0,45.846195,5.179022,49.06,725.2,1.477
146563,1551439414310,0.974,2.589,1.673,-0.17,1.0,0.08,-34,-4,-3,12816,100,86,20,85,716,782.0,300,300,60,113.0,477,0,442,764,374,0,0,0,0,0,0,,,,,
146583,1551439414330,1.112,2.381,1.8653,0.0,1.09,0.27,-34,-1,-4,12816,100,86,20,85,716,782.0,300,300,60,113.0,477,0,442,764,374,0,0,0,0,0,0,,,,,
146603,1551439414350,1.066,2.691,1.6918,0.0,1.08,0.35,-35,-1,-4,12816,100,86,20,85,716,782.0,300,300,60,113.0,477,0,442,764,374,0,0,0,0,0,0,,,,,
146623,1551439414370,1.031,2.196,1.7798,-0.19,1.03,0.43,-35,-4,-5,12816,100,86,20,85,716,782.0,300,300,60,113.0,477,0,442,764,374,0,0,0,0,0,0,,,,,
146643,1551439414390,1.066,2.421,1.825,-0.1,1.04,0.51,-35,-3,-5,12816,100,86,20,85,716,782.0,300,300,60,113.0,477,0,442,764,374,0,0,0,0,0,0,45.846176,5.179017,49.51,725.1,1.478
146663,1551439414410,1.014,2.354,1.7333,-0.14,1.14,0.53,-36,-2,-5,13011,100,86,20,85,731,792.0,300,300,60,113.0,410,0,442,651,325,0,0,0,0,0,0,,,,,
146683,1551439414430,1.171,2.594,1.7358,-0.3,1.08,0.47,-37,-5,-4,13011,100,86,20,85,731,792.0,300,300,60,113.0,410,0,442,651,325,0,0,0,0,0,0,,,,,
146703,1551439414450,1.204,2.476,1.776,-0.15,1.17,0.62,-36,-2,-3,13011,100,86,20,85,731,792.0,300,300,60,113.0,410,0,442,651,325,0,0,0,0,0,0,,,,,
146723,1551439414470,0.993,2.552,1.8049,-0.16,1.17,0.5,-37,-3,-3,13011,100,86,20,85,731,792.0,300,300,60,113.0,410,0,442,651,325,0,0,0,0,0,0,,,,,
146743,1551439414490,0.959,2.416,1.7358,-0.3,1.1,0.65,-37,-2,-5,13011,100,86,20,85,731,792.0,300,300,60,113.0,410,0,442,651,325,0,0,0,0,0,0,45.846157,5.179013,50.16,725.1,1.48
146763,1551439414510,1.092,2.462,1.688,-0.21,1.19,0.75,-37,-1,-5,13167,100,86,20,85,792,796.0,300,300,60,114.0,396,0,442,643,315,0,0,0,0,0,0,,,,,
146783,1551439414530,1.417,2.418,1.7634,-0.36,1.23,0.87,-37,-3,-4,13167,100,86,20,85,792,796.0,300,300,60,114.0,396,0,442,643,315,0,0,0,0,0,0,,,,,
146803,1551439414550,1.292,2.383,1.8653,-0.24,1.27,0.83,-37,-0,-4,13167,100,86,20,85,792,796.0,300,300,60,114.0,396,0,442,643,315,0,0,0,0,0,0,,,,,
146823,1551439414570,1.085,2.433,1.7144,-0.33,1.31,0.91,-37,-2,-4,13167,100,86,20,85,792,796.0,300,300,60,114.0,396,0,442,643,315,0,0,0,0,0,0,,,,,
146843,1551439414590,1.327,2.526,1.7798,-0.27,1.21,0.8,-37,-0,-5,13167,100,86,20,85,792,796.0,300,300,60,114.0,396,0,442,643,315,0,0,0,0,0,0,45.846134,5.179011,50.6,725.1,1.481
146863,1551439414610,1.019,2.437,1.7446,-0.24,1.29,0.78,-37,-1,-5,13364,97,86,20,85,852,798.0,300,300,60,114.0,421,0,442,667,338,0,0,0,0,0,0,,,,,
146883,1551439414630,1.087,2.438,1.8992,-0.36,1.18,0.78,-37,-2,-5,13364,97,86,20,85,852,798.0,300,300,60,114.0,421,0,442,667,338,0,0,0,0,0,0,,,,,
146903,1551439414650,0.988,2.452,1.7836,-0.51,1.1,0.9,-37,-4,-6,13364,97,86,20,85,852,798.0,300,300,60,114.0,421,0,442,667,338,0,0,0,0,0,0,,,,,
146923,1551439414670,1.024,2.401,1.7823,-0.36,1.15,1.01,-37,-3,-6,13364,97,86,20,85,852,798.0,300,300,60,114.0,421,0,442,667,338,0,0,0,0,0,0,,,,,
146943,1551439414690,1.33,2.403,1.7609,-0.44,1.17,1.11,-37,-2,-6,13364,97,86,20,85,852,798.0,300,300,60,114.0,421,0,442,667,338,0,0,0,0,0,0,45.846115,5.17901,51.36,725.0,1.482
146963,1551439414710,1.144,2.364,1.869,-0.25,1.17,0.97,-38,-1,-5,13412,53,86,20,73,849,818.0,300,300,60,114.0,305,0,440,484,249,0,0,0,0,0,0,,,,,
146983,1551439414730,1.052,2.342,1.629,-0.31,1.26,1.06,-38,-1,-5,13412,53,86,20,73,849,818.0,300,300,60,114.0,305,0,440,484,249,0,0,0,0,0,0,,,,,
147003,1551439414750,0.907,2.338,1.6189,-0.23,1.17,1.1,-37,-5,-5,13412,53,86,20,73,849,818.0,300,300,60,114.0,305,0,440,484,249,0,0,0,0,0,0,,,,,
147023,1551439414770,1.266,2.511,1.9532,-0.12,1.26,0.79,-37,-4,-4,13412,53,86,20,73,849,818.0,300,300,60,114.0,305,0,440,484,249,0,0,0,0,0,0,,,,,
147043,1551439414790,1.014,2.426,1.6491,-0.26,1.33,0.66,-37,-4,-4,13412,53,86,20,73,849,818.0,300,300,60,114.0,305,0,440,484,249,0,0,0,0,0,0,45.846096,5.179011,51.93,725.0,1.484
147063,1551439414810,1.227,2.374,1.6654,-0.31,1.24,0.74,-37,-7,-2,12686,17,86,20,51,763,803.0,300,300,60,115.0,265,0,476,434,214,0,0,0,0,0,0,,,,,
147083,1551439414830,0.906,2.441,1.6315,-0.3,1.17,0.87,-37,-9,-2,12686,17,86,20,51,763,803.0,300,300,60,115.0,265,0,476,434,214,0,0,0,0,0,0,,,,,
147103,1551439414850,1.146,2.597,1.5799,-0.28,1.18,0.98,-37,-11,-3,12686,17,86,20,51,763,803.0,300,300,60,115.0,265,0,476,434,214,0,0,0,0,0,0,,,,,
147123,1551439414870,1.145,2.431,1.5774,-0.18,1.11,1.08,-37,-13,-2,12686,17,86,20,51,763,803.0,300,300,60,115.0,265,0,476,434,214,0,0,0,0,0,0,,,,,
147143,1551439414892,1.115,2.539,1.6315,-0.21,1.12,0.77,-37,-14,-0,12686,17,86,20,51,763,803.0,300,300,60,115.0,265,0,476,434,214,0,0,0,0,0,0,45.84605,5.179017,52.28,725.1,1.487
147163,1551439414912,1.033,2.378,1.6214,-0.3,1.15,0.86,-37,-13,-2,11552,14,86,20,40,834,817.0,300,300,60,115.0,223,0,527,417,182,0,0,0,0,0,0,,,,,
147183,1551439414932,1.276,2.407,1.5573,-0.24,1.24,0.97,-37,-12,-2,11552,14,86,20,40,834,817.0,300,300,60,115.0,223,0,527,417,182,0,0,0,0,0,0,,,,,
147203,1551439414952,1.081,2.354,1.629,-0.05,1.31,0.67,-36,-10,-1,11552,14,86,20,40,834,817.0,300,300,60,115.0,223,0,527,417,182,0,0,0,0,0,0,,,,,
147223,1551439414972,1.083,2.416,1.4907,0.02,1.31,0.8,-36,-10,-5,11552,14,86,20,40,834,817.0,300,300,60,115.0,223,0,527,417,182,0,0,0,0,0,0,,,,,
147243,1551439414992,1.036,2.411,1.5246,0.0,1.33,0.64,-35,-11,-2,11552,14,86,20,40,834,817.0,300,300,60,115.0,223,0,527,417,182,0,0,0,0,0,0,45.84605,5.179017,52.28,725.1,1.487
147263,1551439415006,1.043,2.477,1.5397,-0.07,1.25,0.77,-35,-10,-5,11194,16,86,20,40,1074,810.0,300,300,60,115.0,223,0,485,353,181,0,0,0,0,0,0,,,,,
147283,1551439415026,1.287,2.47,1.5774,0.1,1.33,0.49,-35,-10,-2,11194,16,86,20,40,1074,810.0,300,300,60,115.0,223,0,485,353,181,0,0,0,0,0,0,,,,,
147303,1551439415046,0.983,2.392,1.644,0.14,1.16,0.64,-35,-9,-1,11194,16,86,20,40,1074,810.0,300,300,60,115.0,223,0,485,353,181,0,0,0,0,0,0,,,,,
147323,1551439415066,1.038,2.318,1.5887,0.1,1.16,0.77,-35,-6,-2,11194,16,86,20,40,1074,810.0,300,300,60,115.0,223,0,485,353,181,0,0,0,0,0,0,,,,,
147343,1551439415086,1.053,2.353,1.6365,0.23,1.24,0.49,-35,-7,-3,11194,16,86,20,40,1074,810.0,300,300,60,115.0,223,0,485,353,181,0,0,0,0,0,0,45.846031,5.179023,51.84,725.0,1.488
147363,1551439415104,1.321,2.416,1.595,0.27,1.32,0.24,-35,-9,-1,10769,30,86,20,48,1067,793.0,300,300,60,115.0,265,0,481,428,207,0,0,0,0,0,0,,,,,
147383,1551439415124,1.016,2.411,1.5686,0.32,1.29,0.15,-35,-8,-0,10769,30,86,20,48,1067,793.0,300,300,60,115.0,265,0,481,428,207,0,0,0,0,0,0,,,,,
147403,1551439415144,1.234,2.46,1.6088,0.34,1.13,0.33,-34,-7,-1,10769,30,86,20,48,1067,793.0,300,300,60,115.0,265,0,481,428,207,0,0,0,0,0,0,,,,,
147423,1551439415164,1.153,2.327,1.5749,0.26,1.17,0.1,-35,-9,0,10769,30,86,20,48,1067,793.0,300,300,60,115.0,265,0,481,428,207,0,0,0,0,0,0,,,,,
147443,1551439415192,1.267,2.377,1.5636,0.17,1.17,0.28,-35,-7,-1,10769,30,86,20,48,1067,793.0,300,300,60,115.0,265,0,481,428,207,0,0,0,0,0,0,45.845993,5.17904,50.11,725.1,1.491
147463,1551439415212,1.282,2.322,1.4882,0.21,1.25,0.35,-34,-5,-2,11609,38,86,20,52,913,780.0,300,300,60,116.0,221,0,440,318,173,0,0,0,0,0,0,,,,,
147483,1551439415232,1.412,2.45,1.5108,0.39,1.33,0.11,-34,-2,-2,11609,38,86,20,52,913,780.0,300,300,60,116.0,221,0,440,318,173,0,0,0,0,0,0,,,,,
147503,1551439415252,1.259,2.523,1.6855,0.43,1.4,0.18,-33,0,-1,11609,38,86,20,52,913,780.0,300,300,60,116.0,221,0,440,318,173,0,0,0,0,0,0,,,,,
147523,1551439415272,0.906,2.418,1.5837,0.35,1.46,0.36,-32,-1,-2,11609,38,86,20,52,913,780.0,300,300,60,116.0,221,0,440,318,173,0,0,0,0,0,0,,,,,
147543,1551439415291,1.136,2.338,1.6742,0.35,1.51,0.28,-32,-0,-2,11609,38,86,20,52,913,780.0,300,300,60,116.0,221,0,440,318,173,0,0,0,0,0,0,45.845974,5.179051,49.3,725.1,1.492
147563,1551439415311,1.174,2.28,1.6227,0.33,1.56,0.45,-31,-0,-4,12104,40,86,20,53,805,780.0,300,300,60,115.0,251,0,440,349,197,0,0,0,0,0,0,,,,,
147583,1551439415331,1.052,2.36,1.6176,0.27,1.61,0.6,-29,0,-5,12104,40,86,20,53,805,780.0,300,300,60,115.0,251,0,440,349,197,0,0,0,0,0,0,,,,,
147603,1551439415351,1.19,2.474,1.6755,0.13,1.54,0.74,-28,-1,-6,12104,40,86,20,53,805,780.0,300,300,60,115.0,251,0,440,349,197,0,0,0,0,0,0,,,,,
147623,1551439415371,1.124,2.208,1.908,-0.08,1.54,0.86,-28,-3,-6,12104,40,86,20,53,805,780.0,300,300,60,115.0,251,0,440,349,197,0,0,0,0,0,0,,,,,
147643,1551439415391,1.229,2.262,1.7509,-0.27,1.54,0.98,-27,-4,-5,12104,40,86,20,53,805,780.0,300,300,60,115.0,251,0,440,349,197,0,0,0,0,0,0,45.845955,5.179063,48.84,725.2,1.494
147663,1551439415411,0.832,2.393,1.59,-0.38,1.51,0.8,-26,-7,-3,12262,41,86,20,53,866,775.0,300,300,60,115.0,261,0,440,428,199,0,0,0,0,0,0,,,,,
147683,1551439415431,1.139,2.477,1.6755,-0.37,1.43,0.52,-26,-7,-3,12262,41,86,20,53,866,775.0,300,300,60,115.0,261,0,440,428,199,0,0,0,0,0,0,,,,,
147703,1551439415451,1.09,2.588,1.639,-0.32,1.37,0.52,-26,-8,-3,12262,41,86,20,53,866,775.0,300,300,60,115.0,261,0,440,428,199,0,0,0,0,0,0,,,,,
147723,1551439415471,1.075,2.386,1.6968,-0.21,1.31,0.66,-25,-6,-3,12262,41,86,20,53,866,775.0,300,300,60,115.0,261,0,440,428,199,0,0,0,0,0,0,,,,,
147743,1551439415491,1.104,2.372,1.6277,-0.09,1.27,0.4,-25,-5,-3,12262,41,86,20,53,866,775.0,300,300,60,115.0,261,0,440,428,199,0,0,0,0,0,0,45.84594,5.179077,48.75,725.3,1.495
147763,1551439415511,1.134,2.366,1.6378,-0.08,1.21,0.55,-25,-4,-4,11973,41,86,20,54,835,788.0,300,300,60,115.0,255,0,440,433,197,0,0,0,0,0,0,,,,,
147783,1551439415531,1.217,2.333,1.6239,-0.07,1.06,0.44,-25,-5,-3,11973,41,86,20,54,835,788.0,300,300,60,115.0,255,0,440,433,197,0,0,0,0,0,0,,,,,
147803,1551439415551,1.334,2.344,1.6528,-0.13,0.94,0.19,-25,-5,-3,11973,41,86,20,54,835,788.0,300,300,60,115.0,255,0,440,433,197,0,0,0,0,0,0,,,,,
147823,1551439415571,1.156,2.443,1.644,-0.2,0.87,0.14,-26,-7,-3,11973,41,86,20,54,835,788.0,300,300,60,115.0,255,0,440,433,197,0,0,0,0,0,0,,,,,
147843,1551439415591,1.269,2.541,1.6239,-0.23,0.79,-0.07,-26,-9,-2,11973,41,86,20,54,835,788.0,300,300,60,115.0,255,0,440,433,197,0,0,0,0,0,0,45.845924,5.179092,48.91,725.5,1.496
147863,1551439415611,1.07,2.497,1.5812,-0.29,0.8,-0.19,-27,-12,-0,11904,38,86,20,54,891,775.0,300,300,60,115.0,245,0,440,419,190,0,0,0,0,0,0,,,,,
147883,1551439415631,1.11,2.421,1.7584,-0.43,0.8,-0.2,-28,-13,1,11904,38,86,20,54,891,775.0,300,300,60,115.0,245,0,440,419,190,0,0,0,0,0,0,,,,,
147903,1551439415651,0.979,2.422,1.7132,-0.48,0.83,-0.29,-29,-16,2,11904,38,86,20,54,891,775.0,300,300,60,115.0,245,0,440,419,190,0,0,0,0,0,0,,,,,
147923,1551439415671,1.178,2.433,1.629,-0.51,0.82,-0.44,-30,-16,3,11904,38,86,20,54,891,775.0,300,300,60,115.0,245,0,440,419,190,0,0,0,0,0,0,,,,,
147943,1551439415692,1.068,2.425,1.585,-0.54,0.76,-0.6,-31,-16,3,11904,38,86,20,54,891,775.0,300,300,60,115.0,245,0,440,419,190,0,0,0,0,0,0,45.845909,5.179109,48.93,725.6,1.498
147963,1551439415712,0.992,2.401,1.5548,-0.55,0.72,-0.74,-32,-17,4,12011,33,86,20,49,905,755.0,300,300,60,115.0,280,0,449,389,214,0,0,0,0,0,0,,,,,
147983,1551439415732,0.94,2.41,1.5598,-0.52,0.65,-0.77,-33,-18,4,12011,33,86,20,49,905,755.0,300,300,60,115.0,280,0,449,389,214,0,0,0,0,0,0,,,,,
148003,1551439415752,0.963,2.403,1.5862,-0.56,0.69,-0.62,-34,-18,4,12011,33,86,20,49,905,755.0,300,300,60,115.0,280,0,449,389,214,0,0,0,0,0,0,,,,,
148023,1551439415772,1.136,2.459,1.639,-0.53,0.8,-0.76,-34,-18,4,12011,33,86,20,49,905,755.0,300,300,60,115.0,280,0,449,389,214,0,0,0,0,0,0,,,,,
148043,1551439415791,0.885,2.411,1.6026,-0.54,0.69,-0.88,-35,-21,5,12011,33,86,20,49,905,755.0,300,300,60,115.0,280,0,449,389,214,0,0,0,0,0,0,45.84589,5.179126,48.81,725.7,1.499
148063,1551439415811,1.075,2.41,1.6277,-0.57,0.73,-0.85,-36,-21,5,11785,31,86,20,46,797,766.0,300,300,60,115.0,275,0,453,394,213,0,0,0,0,0,0,,,,,
148083,1551439415831,1.433,2.496,1.7019,-0.68,0.82,-0.57,-37,-22,4,11785,31,86,20,46,797,766.0,300,300,60,115.0,275,0,453,394,213,0,0,0,0,0,0,,,,,
148103,1551439415851,1.19,2.339,1.6931,-0.75,0.86,-0.31,-37,-19,3,11785,31,86,20,46,797,766.0,300,300,60,115.0,275,0,453,394,213,0,0,0,0,0,0,,,,,
148123,1551439415871,0.96,2.335,1.5925,-0.69,0.97,-0.09,-36,-16,-0,11785,31,86,20,46,797,766.0,300,300,60,115.0,275,0,453,394,213,0,0,0,0,0,0,,,,,
148143,1551439415891,1.325,2.472,1.5372,-0.46,1.08,0.12,-36,-13,-1,11785,31,86,20,46,797,766.0,300,300,60,115.0,275,0,453,394,213,0,0,0,0,0,0,45.845875,5.179145,48.72,725.8,1.501
148163,1551439415911,1.311,2.476,1.688,-0.27,1.13,0.12,-36,-12,-1,11517,30,86,20,47,750,765.0,300,300,60,116.0,269,0,455,469,206,0,0,0,0,0,0,,,,,
148183,1551439415931,1.194,2.386,1.5762,-0.23,1.06,0.3,-35,-13,-3,11517,30,86,20,47,750,765.0,300,300,60,116.0,269,0,455,469,206,0,0,0,0,0,0,,,,,
148203,1551439415951,1.078,2.337,1.5812,-0.3,1.11,0.42,-35,-14,-2,11517,30,86,20,47,750,765.0,300,300,60,116.0,269,0,455,469,206,0,0,0,0,0,0,,,,,
148223,1551439415971,1.33,2.342,1.6189,-0.07,1.2,0.18,-35,-12,-1,11517,30,86,20,47,750,765.0,300,300,60,116.0,269,0,455,469,206,0,0,0,0,0,0,,,,,
148243,1551439415991,1.189,2.427,1.5774,-0.16,1.18,-0.04,-35,-12,-2,11517,30,86,20,47,750,765.0,300,300,60,116.0,269,0,455,469,206,0,0,0,0,0,0,45.845875,5.179145,48.72,725.8,1.501
148263,1551439416005,1.222,2.379,1.6667,-0.21,1.21,0.16,-35,-9,-2,10939,30,86,20,51,747,751.0,300,300,60,116.0,268,0,486,483,203,0,0,0,0,0,0,,,,,
148283,1551439416025,1.166,2.422,1.6315,0.0,1.29,-0.06,-35,-7,-2,10939,30,86,20,51,747,751.0,300,300,60,116.0,268,0,486,483,203,0,0,0,0,0,0,,,,,
148303,1551439416045,1.249,2.397,1.7094,0.08,1.18,0.06,-35,-6,-3,10939,30,86,20,51,747,751.0,300,300,60,116.0,268,0,486,483,203,0,0,0,0,0,0,,,,,
148323,1551439416065,1.112,2.335,1.5737,0.05,1.01,0.25,-35,-6,-4,10939,30,86,20,51,747,751.0,300,300,60,116.0,268,0,486,483,203,0,0,0,0,0,0,,,,,
148343,1551439416091,1.008,2.301,1.5636,0.0,1.04,0.22,-35,-8,-3,10939,30,86,20,51,747,751.0,300,300,60,116.0,268,0,486,483,203,0,0,0,0,0,0,45.845852,5.179186,48.03,725.9,1.503
148363,1551439416111,1.096,2.448,1.5221,-0.02,1.13,-0.0,-36,-9,-2,11755,31,86,20,46,778,742.0,300,300,60,115.0,285,0,453,392,213,0,0,0,0,0,0,,,,,
148383,1551439416131,1.532,2.362,1.5737,-0.13,1.22,0.17,-37,-11,-2,11755,31,86,20,46,778,742.0,300,300,60,115.0,285,0,453,392,213,0,0,0,0,0,0,,,,,
148403,1551439416151,0.998,2.477,1.7044,-0.2,1.21,0.24,-37,-12,-1,11755,31,86,20,46,778,742.0,300,300,60,115.0,285,0,453,392,213,0,0,0,0,0,0,,,,,
148423,1551439416171,1.179,2.406,1.7484,-0.29,1.23,0.42,-36,-11,-4,11755,31,86,20,46,778,742.0,300,300,60,115.0,285,0,453,392,213,0,0,0,0,0,0,,,,,
148443,1551439416191,1.488,2.496,1.6843,-0.09,1.31,0.23,-35,-8,-4,11755,31,86,20,46,778,742.0,300,300,60,115.0,285,0,453,392,213,0,0,0,0,0,0,45.845837,5.179207,47.51,725.8,1.505
148463,1551439416211,1.173,2.425,1.6642,-0.05,1.25,0.4,-35,-6,-4,11301,32,86,20,48,723,746.0,300,300,60,115.0,263,0,465,458,196,0,0,0,0,0,0,,,,,
148483,1551439416231,1.244,2.457,1.683,-0.13,1.29,0.16,-35,-9,-3,11301,32,86,20,48,723,746.0,300,300,60,115.0,263,0,465,458,196,0,0,0,0,0,0,,,,,
148503,1551439416251,1.218,2.402,1.6654,0.01,1.36,0.02,-34,-5,-4,11301,32,86,20,48,723,746.0,300,300,60,115.0,263,0,465,458,196,0,0,0,0,0,0,,,,,
148523,1551439416271,1.12,2.435,1.5259,-0.04,1.36,0.22,-34,-5,-6,11301,32,86,20,48,723,746.0,300,300,60,115.0,263,0,465,458,196,0,0,0,0,0,0,,,,,
148543,1551439416291,1.36,2.313,1.6352,-0.08,1.18,0.39,-33,-5,-6,11301,32,86,20,48,723,746.0,300,300,60,115.0,263,0,465,458,196,0,0,0,0,0,0,45.845837,5.179207,47.51,725.8,1.505
148563,1551439416310,0.975,2.432,1.5887,0.13,1.26,0.15,-33,-2,-5,11140,39,86,20,55,795,746.0,300,300,60,116.0,252,0,463,442,189,0,0,0,0,0,0,,,,,
148583,1551439416330,1.296,2.389,1.6579,0.21,1.11,0.33,-33,1,-6,11140,39,86,20,55,795,746.0,300,300,60,116.0,252,0,463,442,189,0,0,0,0,0,0,,,,,
148603,1551439416350,1.163,2.404,1.6264,0.2,0.97,0.5,-33,1,-7,11140,39,86,20,55,795,746.0,300,300,60,116.0,252,0,463,442,189,0,0,0,0,0,0,,,,,
148623,1551439416370,1.305,2.291,1.6667,0.18,0.82,0.49,-32,3,-7,11140,39,86,20,55,795,746.0,300,300,60,116.0,252,0,463,442,189,0,0,0,0,0,0,,,,,
148643,1551439416392,1.131,2.394,1.6855,0.09,0.81,0.39,-33,3,-7,11140,39,86,20,55,795,746.0,300,300,60,116.0,252,0,463,442,189,0,0,0,0,0,0,45.845818,5.179252,46.7,725.8,1.507
148663,1551439416412,1.281,2.392,1.6642,0.03,0.79,0.15,-32,1,-7,11822,45,86,20,57,897,726.0,300,300,60,115.0,272,0,440,444,200,0,0,0,0,0,0,,,,,
148683,1551439416432,0.957,2.431,1.5737,0.01,0.87,-0.01,-32,-1,-6,11822,45,86,20,57,897,726.0,300,300,60,115.0,272,0,440,444,200,0,0,0,0,0,0,,,,,
148703,1551439416452,1.132,2.402,1.7345,-0.15,0.91,0.1,-32,-1,-6,11822,45,86,20,57,897,726.0,300,300,60,115.0,272,0,440,444,200,0,0,0,0,0,0,,,,,
148723,1551439416472,0.982,2.461,1.7207,-0.28,1.02,0.07,-33,-4,-4,11822,45,86,20,57,897,726.0,300,300,60,115.0,272,0,440,444,200,0,0,0,0,0,0,,,,,
148743,1551439416492,1.194,2.377,1.7748,-0.42,1.02,0.26,-33,-6,-3,11822,45,86,20,57,897,726.0,300,300,60,115.0,272,0,440,444,200,0,0,0,0,0,0,45.84581,5.179276,46.64,725.8,1.508
148763,1551439416512,1.173,2.369,1.7748,-0.49,1.12,0.43,-34,-7,-3,11718,46,86,20,59,897,732.0,300,300,60,116.0,272,0,440,448,200,0,0,0,0,0,0,,,,,
148783,1551439416532,1.241,2.305,1.781,-0.42,1.21,0.27,-33,-7,-4,11718,46,86,20,59,897,732.0,300,300,60,116.0,272,0,440,448,200,0,0,0,0,0,0,,,,,
148803,1551439416552,0.97,2.461,1.6365,-0.26,1.29,0.31,-33,-5,-4,11718,46,86,20,59,897,732.0,300,300,60,116.0,272,0,440,448,200,0,0,0,0,0,0,,,,,
148823,1551439416572,1.32,2.457,1.7534,-0.14,1.18,0.47,-33,-2,-5,11718,46,86,20,59,897,732.0,300,300,60,116.0,272,0,440,448,200,0,0,0,0,0,0,,,,,
148843,1551439416592,1.114,2.382,1.6139,-0.16,1.2,0.34,-33,-3,-7,11718,46,86,20,59,897,732.0,300,300,60,116.0,272,0,440,448,200,0,0,0,0,0,0,45.845798,5.1793,46.91,725.8,1.51
148863,1551439416612,1.19,2.347,1.6692,-0.26,1.19,0.11,-33,-5,-5,11467,48,86,20,61,982,751.0,300,300,60,115.0,268,0,442,385,202,0,0,0,0,0,0,,,,,
148883,1551439416632,1.171,2.485,1.7584,-0.29,1.09,0.29,-33,-5,-5,11467,48,86,20,61,982,751.0,300,300,60,115.0,268,0,442,385,202,0,0,0,0,0,0,,,,,
148903,1551439416652,1.253,2.345,1.7471,-0.28,1.08,0.46,-33,-4,-7,11467,48,86,20,61,982,751.0,300,300,60,115.0,268,0,442,385,202,0,0,0,0,0,0,,,,,
148923,1551439416672,1.06,2.35,1.7006,-0.06,1.17,0.21,-33,-1,-7,11467,48,86,20,61,982,751.0,300,300,60,115.0,268,0,442,385,202,0,0,0,0,0,0,,,,,
148943,1551439416692,1.056,2.329,1.6868,0.12,1.15,0.29,-33,1,-5,11467,48,86,20,61,982,751.0,300,300,60,115.0,268,0,442,385,202,0,0,0,0,0,0,45.845798,5.1793,46.91,725.8,1.51
148963,1551439416710,1.127,2.398,1.7283,0.23,1.18,0.46,-33,4,-5,11762,48,86,20,61,988,748.0,300,300,60,116.0,272,0,440,460,204,0,0,0,0,0,0,,,,,
148983,1551439416730,1.273,2.357,1.7861,0.36,1.27,0.49,-33,6,-5,11762,48,86,20,61,988,748.0,300,300,60,116.0,272,0,440,460,204,0,0,0,0,0,0,,,,,
149003,1551439416750,1.16,2.327,1.6893,0.39,1.26,0.64,-33,6,-7,11762,48,86,20,61,988,748.0,300,300,60,116.0,272,0,440,460,204,0,0,0,0,0,0,,,,,
149023,1551439416770,1.199,2.412,1.6264,0.4,1.15,0.77,-33,5,-6,11762,48,86,20,61,988,748.0,300,300,60,116.0,272,0,440,460,204,0,0,0,0,0,0,,,,,
149043,1551439416792,0.904,2.467,1.644,0.35,1.03,0.54,-33,1,-4,11762,48,86,20,61,988,748.0,300,300,60,116.0,272,0,440,460,204,0,0,0,0,0,0,45.845787,5.179352,47.36,725.8,1.512
149063,1551439416812,1.022,2.404,1.7144,0.28,0.97,0.29,-34,-1,-2,11638,37,86,20,56,1010,742.0,300,300,60,116.0,236,0,442,410,177,0,0,0,0,0,0,,,,,
149083,1551439416832,1.202,2.393,1.7069,0.08,1.01,0.46,-34,-1,-3,11638,37,86,20,56,1010,742.0,300,300,60,116.0,236,0,442,410,177,0,0,0,0,0,0,,,,,
149103,1551439416852,0.98,2.218,1.6202,-0.03,1.08,0.61,-34,-1,-4,11638,37,86,20,56,1010,742.0,300,300,60,116.0,236,0,442,410,177,0,0,0,0,0,0,,,,,
149123,1551439416872,1.231,2.442,1.722,-0.12,1.18,0.74,-34,-0,-4,11638,37,86,20,56,1010,742.0,300,300,60,116.0,236,0,442,410,177,0,0,0,0,0,0,,,,,
149143,1551439416892,1.159,2.296,1.6604,-0.13,1.26,0.87,-34,1,-5,11638,37,86,20,56,1010,742.0,300,300,60,116.0,236,0,442,410,177,0,0,0,0,0,0,45.845783,5.179378,47.62,725.8,1.514
149163,1551439416912,1.134,2.427,1.7886,0.03,1.34,0.58,-34,2,-5,11733,37,86,20,51,1005,752.0,300,300,60,115.0,246,0,442,417,185,0,0,0,0,0,0,,,,,
149183,1551439416932,1.241,2.352,1.7924,0.19,1.4,0.43,-34,3,-6,11733,37,86,20,51,1005,752.0,300,300,60,115.0,246,0,442,417,185,0,0,0,0,0,0,,,,,
149203,1551439416952,1.247,2.431,1.6968,0.3,1.44,0.58,-33,3,-7,11733,37,86,20,51,1005,752.0,300,300,60,115.0,246,0,442,417,185,0,0,0,0,0,0,,,,,
149223,1551439416972,1.046,2.452,1.5385,0.36,1.29,0.72,-32,1,-7,11733,37,86,20,51,1005,752.0,300,300,60,115.0,246,0,442,417,185,0,0,0,0,0,0,,,,,
149243,1551439416992,0.945,2.459,1.6013,0.3,1.24,0.66,-32,-2,-7,11733,37,86,20,51,1005,752.0,300,300,60,115.0,246,0,442,417,185,0,0,0,0,0,0,45.845783,5.179378,47.62,725.8,1.514
149263,1551439417006,1.205,2.477,1.7132,0.2,1.26,0.39,-32,-4,-5,11645,37,86,20,51,814,761.0,300,300,60,116.0,242,0,442,330,184,0,0,0,0,0,0,,,,,
149283,1551439417026,0.945,2.447,1.8137,0.08,1.19,0.34,-33,-4,-5,11645,37,86,20,51,814,761.0,300,300,60,116.0,242,0,442,330,184,0,0,0,0,0,0,,,,,
149303,1551439417046,1.589,2.357,1.7634,0.0,1.21,0.5,-33,-3,-7,11645,37,86,20,51,814,761.0,300,300,60,116.0,242,0,442,330,184,0,0,0,0,0,0,,,,,
149323,1551439417066,1.159,2.521,1.7295,-0.05,1.15,0.65,-33,-1,-7,11645,37,86,20,51,814,761.0,300,300,60,116.0,242,0,442,330,184,0,0,0,0,0,0,,,,,
149343,1551439417092,1.139,2.073,1.5196,-0.05,1.16,0.73,-33,2,-5,11645,37,86,20,51,814,761.0,300,300,60,116.0,242,0,442,330,184,0,0,0,0,0,0,45.845776,5.179432,47.55,725.6,1.516
149363,1551439417112,1.083,2.397,1.6227,0.1,1.25,0.51,-33,5,-4,11711,37,86,20,50,791,754.0,300,300,60,116.0,243,0,442,335,185,0,0,0,0,0,0,,,,,
149383,1551439417132,0.982,2.426,1.7119,0.24,1.27,0.66,-33,6,-4,11711,37,86,20,50,791,754.0,300,300,60,116.0,243,0,442,335,185,0,0,0,0,0,0,,,,,
