"Interval"|"ms"|0|0|1,"Utc"|"ms"|0|0|1,"AccelAvantX"|"G"|0.0|10.0|50,"AccelAvantZ"|"G"|0.0|10.0|50,"AccelAvantY"|"G"|0.0|10.0|50,"AccelX"|"G"|-3.0|3.0|50,"AccelY"|"G"|-3.0|3.0|50,"AccelZ"|"G"|-3.0|3.0|50,"Yaw"|"Deg/Sec"|-120|120|50,"Pitch"|"Deg/Sec"|-120|120|50,"Roll"|"Deg/Sec"|-120|120|50,"RPM"|""|0|14000|50,"TPS"|"%"|0|100|50,"WaterTemp"|"?C"|0|300|50,"AirTemp"|"?C"|-1000|1000|50,"MAP"|"KPa"|0|255|50,"Lambda"|""|0|1024|50,"WheelSpeed"|"MPH"|0.0|150.0|50,"OilPress"|"PSI"|0|150|50,"FuelPress"|"PSI"|0|150|50,"OilTemp"|"F"|0|300|50,"Battery"|"Volts"|0.0|20.0|50,"FuelCon"|"L/h"|-1000|1000|50,"Gear"|""|0|10|50,"Advance"|"Deg"|-360|360|50,"Injection"|"ms"|-1000|1000|50,"FuelCon"|"L/100km"|-1000|1000|50,"LC_But_Pres"|""|-1000|1000|50,"LC_Active"|""|-1000|1000|50,"RD_Speed"|""|-1000|1000|50,"RUD_Speed"|""|-1000|1000|50,"LD_Speed"|""|-1000|1000|50,"LUD_Speed"|""|-1000|1000|50,"Latitude"|"Degrees"|-180.0|180.0|10,"Longitude"|"Degrees"|-180.0|180.0|10,"Speed"|"MPH"|0.0|150.0|10,"Altitude"|"ft"|0.0|4000.0|10,"Distance"|"mi"|0.0|0.0|10
117663,1551438814661,1.949,2.451,1.6993,0.05,-0.85,0.27,23,-0,2,11042,38,85,18,53,822,763.0,300,300,60,119.0,249,0,469,456,187,0,0,0,0,0,0,,,,,
117683,1551438814681,1.811,2.392,1.776,0.08,-0.72,0.26,24,-0,2,11029,38,85,18,53,799,757.0,300,300,60,119.0,253,0,470,375,192,0,0,0,0,0,0,,,,,
117703,1551438814701,2.021,2.472,1.8037,0.06,-0.79,0.43,24,0,3,11029,38,85,18,53,799,757.0,300,300,60,119.0,253,0,470,375,192,0,0,0,0,0,0,,,,,
117723,1551438814721,1.858,2.406,1.5862,0.04,-0.73,0.18,25,0,2,11029,38,85,18,53,799,757.0,300,300,60,119.0,253,0,470,375,192,0,0,0,0,0,0,,,,,
117743,1551438814741,1.777,2.45,1.81,-0.03,-0.7,-0.04,25,-2,2,11029,38,85,18,53,799,757.0,300,300,60,119.0,253,0,470,375,192,0,0,0,0,0,0,45.84658,5.179379,45.38,725.0,0.461
117763,1551438814761,1.66,2.378,1.7949,-0.07,-0.83,0.16,26,1,3,11029,38,85,18,53,799,757.0,300,300,60,119.0,253,0,470,375,192,0,0,0,0,0,0,,,,,
117783,1551438814781,1.737,2.338,1.7107,0.08,-0.87,0.24,26,0,3,11094,38,84,18,52,767,752.0,300,300,60,120.0,254,0,466,449,190,0,0,0,0,0,0,,,,,
117803,1551438814801,1.844,2.437,1.727,0.0,-0.87,0.15,25,-2,4,11094,38,84,18,52,767,752.0,300,300,60,120.0,254,0,466,449,190,0,0,0,0,0,0,,,,,
117823,1551438814821,1.785,2.407,1.673,-0.06,-0.83,0.33,25,-1,3,11094,38,84,18,52,767,752.0,300,300,60,120.0,254,0,466,449,190,0,0,0,0,0,0,,,,,
117843,1551438814841,1.591,2.382,1.7798,0.06,-0.76,0.1,26,-3,3,11094,38,84,18,52,767,752.0,300,300,60,120.0,254,0,466,449,190,0,0,0,0,0,0,45.84658,5.179405,45.45,725.1,0.462
117863,1551438814861,1.674,2.386,1.678,0.03,-0.81,0.2,26,-2,3,11094,38,84,18,52,767,752.0,300,300,60,120.0,254,0,466,449,190,0,0,0,0,0,0,,,,,
117883,1551438814881,1.567,2.272,1.7697,-0.02,-0.82,0.02,26,-2,3,11167,38,84,18,52,762,754.0,300,300,60,118.0,251,0,461,359,189,0,0,0,0,0,0,,,,,
117903,1551438814903,1.638,2.441,1.7936,-0.02,-0.85,0.22,26,0,3,11167,38,84,18,52,762,754.0,300,300,60,118.0,251,0,461,359,189,0,0,0,0,0,0,,,,,
117923,1551438814923,1.659,2.36,1.7044,0.08,-0.95,0.19,25,1,3,11167,38,84,18,52,762,754.0,300,300,60,118.0,251,0,461,359,189,0,0,0,0,0,0,,,,,
117943,1551438814943,1.765,2.399,1.7722,0.06,-0.91,-0.03,24,-3,5,11167,38,84,18,52,762,754.0,300,300,60,118.0,251,0,461,359,189,0,0,0,0,0,0,45.846584,5.179431,45.93,725.1,0.463
117963,1551438814963,1.694,2.403,1.6541,-0.05,-0.89,0.17,24,-3,4,11167,38,84,18,52,762,754.0,300,300,60,118.0,251,0,461,359,189,0,0,0,0,0,0,,,,,
117983,1551438814983,1.75,2.423,1.7496,0.04,-0.72,-0.05,23,-3,4,11180,38,84,18,52,744,769.0,300,300,60,119.0,237,0,460,437,184,0,0,0,0,0,0,,,,,
118003,1551438814997,1.848,2.443,1.5812,-0.03,-0.84,0.15,23,-5,3,11180,38,84,18,52,744,769.0,300,300,60,119.0,237,0,460,437,184,0,0,0,0,0,0,,,,,
118023,1551438815017,1.785,2.384,1.7672,-0.14,-0.8,0.18,22,-8,3,11180,38,84,18,52,744,769.0,300,300,60,119.0,237,0,460,437,184,0,0,0,0,0,0,,,,,
118043,1551438815037,1.916,2.476,1.7446,-0.12,-0.76,0.36,22,-5,3,11180,38,84,18,52,744,769.0,300,300,60,119.0,237,0,460,437,184,0,0,0,0,0,0,45.846584,5.179458,45.9,725.1,0.465
118063,1551438815057,1.718,2.421,1.722,0.04,-0.83,0.13,23,-4,3,11180,38,84,18,52,744,769.0,300,300,60,119.0,237,0,460,437,184,0,0,0,0,0,0,,,,,
118083,1551438815077,1.735,2.416,1.7044,0.02,-0.89,0.09,22,-4,3,11214,38,84,18,52,759,783.0,300,300,60,119.0,247,0,458,432,190,0,0,0,0,0,0,,,,,
118103,1551438815103,1.668,2.363,1.7446,-0.11,-0.92,0.27,23,-4,4,11214,38,84,18,52,759,783.0,300,300,60,119.0,247,0,458,432,190,0,0,0,0,0,0,,,,,
118123,1551438815123,1.843,2.378,1.6956,-0.02,-0.69,0.2,22,-2,3,11214,38,84,18,52,759,783.0,300,300,60,119.0,247,0,458,432,190,0,0,0,0,0,0,,,,,
118143,1551438815143,1.757,2.376,1.6541,0.04,-0.82,0.38,23,-2,2,11214,38,84,18,52,759,783.0,300,300,60,119.0,247,0,458,432,190,0,0,0,0,0,0,45.846584,5.179484,46.26,725.1,0.466
118163,1551438815163,1.785,2.475,1.6805,0.07,-0.67,0.13,22,-3,3,11214,38,84,18,52,759,783.0,300,300,60,119.0,247,0,458,432,190,0,0,0,0,0,0,,,,,
118183,1551438815183,1.86,2.425,1.7345,-0.04,-0.73,0.26,23,-2,2,11227,37,84,18,52,761,754.0,300,300,60,119.0,229,0,461,356,181,0,0,0,0,0,0,,,,,
118203,1551438815203,2.011,2.382,1.7509,0.05,-0.74,0.43,23,-0,3,11227,37,84,18,52,761,754.0,300,300,60,119.0,229,0,461,356,181,0,0,0,0,0,0,,,,,
118223,1551438815223,1.879,2.397,1.7283,0.19,-0.8,0.32,24,1,3,11227,37,84,18,52,761,754.0,300,300,60,119.0,229,0,461,356,181,0,0,0,0,0,0,,,,,
118243,1551438815243,1.849,2.472,1.7521,0.15,-0.83,0.22,24,1,3,11227,37,84,18,52,761,754.0,300,300,60,119.0,229,0,461,356,181,0,0,0,0,0,0,45.846584,5.179511,46.44,725.1,0.467
118263,1551438815263,1.649,2.396,1.722,-0.05,-0.82,0.39,24,-1,4,11227,37,84,18,52,761,754.0,300,300,60,119.0,229,0,461,356,181,0,0,0,0,0,0,,,,,
118283,1551438815283,1.914,2.392,1.7961,0.03,-0.63,0.29,24,2,3,11281,35,84,18,50,766,770.0,300,300,60,119.0,238,0,460,442,185,0,0,0,0,0,0,,,,,
118303,1551438815303,1.74,2.36,1.7257,0.07,-0.76,0.45,24,1,2,11281,35,84,18,50,766,770.0,300,300,60,119.0,238,0,460,442,185,0,0,0,0,0,0,,,,,
118323,1551438815323,1.843,2.407,1.7496,0.12,-0.7,0.24,24,1,2,11281,35,84,18,50,766,770.0,300,300,60,119.0,238,0,460,442,185,0,0,0,0,0,0,,,,,
118343,1551438815343,1.799,2.34,1.6993,0.0,-0.8,0.41,25,-0,1,11281,35,84,18,50,766,770.0,300,300,60,119.0,238,0,460,442,185,0,0,0,0,0,0,45.84658,5.179538,46.49,725.1,0.469
118363,1551438815363,2.039,2.528,1.7848,0.11,-0.82,0.44,25,0,2,11281,35,84,18,50,766,770.0,300,300,60,119.0,238,0,460,442,185,0,0,0,0,0,0,,,,,
118383,1551438815383,1.961,2.501,1.6315,0.13,-0.88,0.6,25,0,2,10977,32,84,18,48,762,779.0,300,300,60,119.0,247,0,484,476,195,0,0,0,0,0,0,,,,,
118403,1551438815403,1.686,2.383,1.6642,0.07,-0.79,0.73,26,1,1,10977,32,84,18,48,762,779.0,300,300,60,119.0,247,0,484,476,195,0,0,0,0,0,0,,,,,
118423,1551438815423,1.595,2.359,1.6063,0.05,-0.91,0.86,26,-0,0,10977,32,84,18,48,762,779.0,300,300,60,119.0,247,0,484,476,195,0,0,0,0,0,0,,,,,
118443,1551438815443,1.662,2.338,1.6315,0.01,-0.95,0.97,26,1,-1,10977,32,84,18,48,762,779.0,300,300,60,119.0,247,0,484,476,195,0,0,0,0,0,0,45.84658,5.179564,46.58,725.1,0.47
118463,1551438815463,1.714,2.283,1.5749,0.03,-0.95,1.07,26,2,-1,10977,32,84,18,48,762,779.0,300,300,60,119.0,247,0,484,476,195,0,0,0,0,0,0,,,,,
118483,1551438815483,1.748,2.316,1.4945,0.14,-0.77,0.76,26,2,-0,10162,32,84,18,54,726,756.0,300,300,60,120.0,262,0,453,494,202,0,0,0,0,0,0,,,,,
118503,1551438815502,1.748,2.446,1.6591,0.13,-0.75,0.48,25,2,0,10162,32,84,18,54,726,756.0,300,300,60,120.0,262,0,453,494,202,0,0,0,0,0,0,,,,,
118523,1551438815522,1.84,2.584,1.644,0.29,-0.87,0.26,25,2,2,10162,32,84,18,54,726,756.0,300,300,60,120.0,262,0,453,494,202,0,0,0,0,0,0,,,,,
118543,1551438815542,1.879,2.577,1.7094,0.18,-0.86,0.03,24,-3,5,10162,32,84,18,54,726,756.0,300,300,60,120.0,262,0,453,494,202,0,0,0,0,0,0,45.846577,5.179591,46.28,725.0,0.471
118563,1551438815562,1.73,2.456,1.6968,0.34,-0.73,-0.17,24,-1,5,10162,32,84,18,54,726,756.0,300,300,60,120.0,262,0,453,494,202,0,0,0,0,0,0,,,,,
118583,1551438815582,1.649,2.392,1.5825,0.38,-0.73,-0.16,24,-1,5,10800,32,84,18,53,959,761.0,300,300,60,119.0,253,0,477,408,194,0,0,0,0,0,0,,,,,
118603,1551438815602,1.775,2.442,1.7597,0.28,-0.76,-0.34,24,-2,5,10800,32,84,18,53,959,761.0,300,300,60,119.0,253,0,477,408,194,0,0,0,0,0,0,,,,,
118623,1551438815622,1.859,2.446,1.678,0.36,-0.74,-0.11,24,0,5,10800,32,84,18,53,959,761.0,300,300,60,119.0,253,0,477,408,194,0,0,0,0,0,0,,,,,
118643,1551438815642,1.732,2.386,1.6428,0.47,-0.73,-0.3,23,0,5,10800,32,84,18,53,959,761.0,300,300,60,119.0,253,0,477,408,194,0,0,0,0,0,0,45.846569,5.179617,45.95,725.0,0.472
118663,1551438815662,1.712,2.423,1.6579,0.42,-0.74,-0.09,23,0,5,10800,32,84,18,53,959,761.0,300,300,60,119.0,253,0,477,408,194,0,0,0,0,0,0,,,,,
118683,1551438815682,1.697,2.337,1.7207,0.32,-0.7,0.12,22,0,4,11180,33,84,18,49,788,754.0,300,300,60,119.0,258,0,471,464,197,0,0,0,0,0,0,,,,,
118703,1551438815702,1.662,2.383,1.7371,0.34,-0.81,0.3,22,-0,4,11180,33,84,18,49,788,754.0,300,300,60,119.0,258,0,471,464,197,0,0,0,0,0,0,,,,,
118723,1551438815722,1.701,2.391,1.7056,0.31,-0.75,0.07,21,-4,4,11180,33,84,18,49,788,754.0,300,300,60,119.0,258,0,471,464,197,0,0,0,0,0,0,,,,,
118743,1551438815742,1.702,2.506,1.727,0.47,-0.77,-0.13,20,-5,5,11180,33,84,18,49,788,754.0,300,300,60,119.0,258,0,471,464,197,0,0,0,0,0,0,45.846565,5.179643,45.12,725.0,0.474
118763,1551438815762,1.621,2.583,1.8012,0.41,-0.85,-0.32,20,-8,8,11180,33,84,18,49,788,754.0,300,300,60,119.0,258,0,471,464,197,0,0,0,0,0,0,,,,,
118783,1551438815782,1.988,2.501,1.7672,0.52,-0.69,-0.49,19,-5,7,10757,33,84,18,53,773,751.0,300,300,60,119.0,264,0,473,485,198,0,0,0,0,0,0,,,,,
118803,1551438815803,1.727,2.384,1.6164,0.49,-0.69,-0.24,19,-5,5,10757,33,84,18,53,773,751.0,300,300,60,119.0,264,0,473,485,198,0,0,0,0,0,0,,,,,
118823,1551438815823,1.648,2.413,1.7408,0.38,-0.7,-0.42,19,-8,5,10757,33,84,18,53,773,751.0,300,300,60,119.0,264,0,473,485,198,0,0,0,0,0,0,,,,,
118843,1551438815843,1.713,2.366,1.6893,0.32,-0.83,-0.18,19,-5,6,10757,33,84,18,53,773,751.0,300,300,60,119.0,264,0,473,485,198,0,0,0,0,0,0,45.846561,5.179667,44.92,724.9,0.475
118863,1551438815863,1.611,2.411,1.8125,0.43,-0.84,-0.17,19,-3,6,10757,33,84,18,53,773,751.0,300,300,60,119.0,264,0,473,485,198,0,0,0,0,0,0,,,,,
118883,1551438815883,1.716,2.404,1.6755,0.38,-0.76,-0.36,19,-2,5,11147,34,84,18,49,875,749.0,300,300,60,119.0,263,0,471,459,196,0,0,0,0,0,0,,,,,
118903,1551438815902,1.334,2.345,1.6968,0.25,-0.76,-0.13,19,-2,4,11147,34,84,18,49,875,749.0,300,300,60,119.0,263,0,471,459,196,0,0,0,0,0,0,,,,,
118923,1551438815922,1.647,2.382,1.7132,0.23,-0.83,0.08,19,-2,3,11147,34,84,18,49,875,749.0,300,300,60,119.0,263,0,471,459,196,0,0,0,0,0,0,,,,,
118943,1551438815942,1.817,2.453,1.7697,0.23,-0.78,-0.13,18,-4,3,11147,34,84,18,49,875,749.0,300,300,60,119.0,263,0,471,459,196,0,0,0,0,0,0,45.846558,5.179692,44.87,724.9,0.476
118963,1551438815962,1.785,2.437,1.7559,0.28,-0.73,-0.27,19,-2,3,11147,34,84,18,49,875,749.0,300,300,60,119.0,263,0,471,459,196,0,0,0,0,0,0,,,,,
118983,1551438815982,1.785,2.412,1.6792,0.29,-0.85,-0.31,19,-1,3,10888,34,83,18,50,744,750.0,300,300,60,120.0,259,0,476,472,195,0,0,0,0,0,0,,,,,
119003,1551438815996,1.668,2.448,1.7308,0.15,-0.76,-0.08,19,-3,4,10888,34,83,18,50,744,750.0,300,300,60,120.0,259,0,476,472,195,0,0,0,0,0,0,,,,,
119023,1551438816016,1.909,2.475,1.8087,0.23,-0.67,-0.12,19,-1,5,10888,34,83,18,50,744,750.0,300,300,60,120.0,259,0,476,472,195,0,0,0,0,0,0,,,,,
119043,1551438816036,1.719,2.437,1.6264,0.21,-0.55,-0.31,18,-2,4,10888,34,83,18,50,744,750.0,300,300,60,120.0,259,0,476,472,195,0,0,0,0,0,0,45.84655,5.179717,45.06,724.9,0.477
119063,1551438816056,1.648,2.392,1.678,0.15,-0.69,-0.08,19,-2,3,10888,34,83,18,50,744,750.0,300,300,60,120.0,259,0,476,472,195,0,0,0,0,0,0,,,,,
119083,1551438816076,1.755,2.366,1.6968,0.26,-0.73,0.09,18,-1,4,10958,34,83,18,50,743,756.0,300,300,60,118.0,255,0,478,470,195,0,0,0,0,0,0,,,,,
119103,1551438816100,1.855,2.445,1.7031,0.08,-0.67,0.12,18,-2,4,10958,34,83,18,50,743,756.0,300,300,60,118.0,255,0,478,470,195,0,0,0,0,0,0,,,,,
119123,1551438816120,1.712,2.398,1.6968,0.15,-0.61,0.08,19,-2,3,10958,34,83,18,50,743,756.0,300,300,60,118.0,255,0,478,470,195,0,0,0,0,0,0,,,,,
119143,1551438816140,1.605,2.45,1.7446,0.17,-0.72,0.27,19,-2,3,10958,34,83,18,50,743,756.0,300,300,60,118.0,255,0,478,470,195,0,0,0,0,0,0,45.846542,5.17974,45.06,724.8,0.479
119163,1551438816160,1.802,2.416,1.6792,0.1,-0.62,0.04,19,-3,4,10958,34,83,18,50,743,756.0,300,300,60,118.0,255,0,478,470,195,0,0,0,0,0,0,,,,,
119183,1551438816180,1.699,2.352,1.6943,0.15,-0.75,0.13,19,-1,3,10971,36,83,18,50,739,754.0,300,300,60,119.0,263,0,473,380,195,0,0,0,0,0,0,,,,,
119203,1551438816202,1.64,2.338,1.8049,0.3,-0.79,0.32,19,-1,3,10971,36,83,18,50,739,754.0,300,300,60,119.0,263,0,473,380,195,0,0,0,0,0,0,,,,,
119223,1551438816222,1.738,2.407,1.6993,0.13,-0.73,0.3,19,-2,3,10971,36,83,18,50,739,754.0,300,300,60,119.0,263,0,473,380,195,0,0,0,0,0,0,,,,,
119243,1551438816242,1.765,2.347,1.7961,0.16,-0.61,0.27,20,-2,2,10971,36,83,18,50,739,754.0,300,300,60,119.0,263,0,473,380,195,0,0,0,0,0,0,45.846535,5.179764,45.14,724.7,0.48
119263,1551438816262,1.811,2.389,1.7207,0.16,-0.74,0.44,20,-2,2,10971,36,83,18,50,739,754.0,300,300,60,119.0,263,0,473,380,195,0,0,0,0,0,0,,,,,
119283,1551438816282,1.748,2.425,1.6742,0.12,-0.68,0.19,21,-4,2,11016,36,83,18,51,755,754.0,300,300,60,119.0,257,0,476,464,194,0,0,0,0,0,0,,,,,
119303,1551438816302,1.804,2.461,1.7094,0.08,-0.73,0.37,21,-4,1,11016,36,83,18,51,755,754.0,300,300,60,119.0,257,0,476,464,194,0,0,0,0,0,0,,,,,
119323,1551438816322,1.814,2.482,1.727,0.14,-0.78,0.53,21,-3,3,11016,36,83,18,51,755,754.0,300,300,60,119.0,257,0,476,464,194,0,0,0,0,0,0,,,,,
119343,1551438816342,1.87,2.372,1.6252,0.21,-0.88,0.67,22,-3,3,11016,36,83,18,51,755,754.0,300,300,60,119.0,257,0,476,464,194,0,0,0,0,0,0,45.846527,5.179788,45.39,724.7,0.481
119363,1551438816362,1.66,2.422,1.7245,0.08,-0.85,0.48,23,-5,4,11016,36,83,18,51,755,754.0,300,300,60,119.0,257,0,476,464,194,0,0,0,0,0,0,,,,,
119383,1551438816382,1.812,2.396,1.7207,0.16,-0.84,0.33,23,-3,3,11114,36,83,18,51,758,763.0,300,300,60,119.0,250,0,469,371,191,0,0,0,0,0,0,,,,,
119403,1551438816402,1.595,2.371,1.7471,0.18,-0.86,0.5,23,-4,3,11114,36,83,18,51,758,763.0,300,300,60,119.0,250,0,469,371,191,0,0,0,0,0,0,,,,,
119423,1551438816422,1.867,2.387,1.7597,0.19,-0.85,0.25,23,-5,4,11114,36,83,18,51,758,763.0,300,300,60,119.0,250,0,469,371,191,0,0,0,0,0,0,,,,,
119443,1551438816442,1.777,2.355,1.7094,0.12,-0.88,0.42,24,-5,3,11114,36,83,18,51,758,763.0,300,300,60,119.0,250,0,469,371,191,0,0,0,0,0,0,45.84652,5.179811,45.54,724.6,0.483
119463,1551438816462,1.711,2.418,1.6905,0.26,-0.85,0.17,24,-3,3,11114,36,83,18,51,758,763.0,300,300,60,119.0,250,0,469,371,191,0,0,0,0,0,0,,,,,
119483,1551438816482,1.944,2.411,1.6554,0.28,-0.91,0.12,24,-3,4,11081,37,83,18,51,768,768.0,300,300,60,119.0,247,0,469,371,189,0,0,0,0,0,0,,,,,
119503,1551438816501,1.723,2.461,1.8112,0.09,-0.91,0.3,24,-5,4,11081,37,83,18,51,768,768.0,300,300,60,119.0,247,0,469,371,189,0,0,0,0,0,0,,,,,
119523,1551438816521,1.741,2.416,1.7019,0.1,-0.85,0.33,24,-1,3,11081,37,83,18,51,768,768.0,300,300,60,119.0,247,0,469,371,189,0,0,0,0,0,0,,,,,
119543,1551438816541,1.711,2.415,1.7396,0.11,-0.84,0.49,25,-3,2,11081,37,83,18,51,768,768.0,300,300,60,119.0,247,0,469,371,189,0,0,0,0,0,0,45.846508,5.179834,45.6,724.6,0.484
119563,1551438816561,1.784,2.376,1.7081,0.11,-0.81,0.43,25,-3,2,11081,37,83,18,51,768,768.0,300,300,60,119.0,247,0,469,371,189,0,0,0,0,0,0,,,,,
119583,1551438816581,1.704,2.386,1.727,0.02,-0.85,0.59,25,-3,2,11174,37,83,18,51,770,762.0,300,300,60,120.0,247,0,463,360,187,0,0,0,0,0,0,,,,,
119603,1551438816602,1.701,2.379,1.6679,0.08,-0.84,0.56,24,-1,2,11174,37,83,18,51,770,762.0,300,300,60,120.0,247,0,463,360,187,0,0,0,0,0,0,,,,,
119623,1551438816622,1.765,2.357,1.6491,0.18,-0.91,0.7,24,-2,2,11174,37,83,18,51,770,762.0,300,300,60,120.0,247,0,463,360,187,0,0,0,0,0,0,,,,,
119643,1551438816642,1.794,2.418,1.7081,0.08,-0.82,0.58,23,-4,4,11174,37,83,18,51,770,762.0,300,300,60,120.0,247,0,463,360,187,0,0,0,0,0,0,45.8465,5.179856,45.77,724.5,0.485
119663,1551438816662,1.951,2.345,1.6918,0.05,-0.69,0.72,23,-2,3,11174,37,83,18,51,770,762.0,300,300,60,120.0,247,0,463,360,187,0,0,0,0,0,0,,,,,
119683,1551438816682,1.701,2.461,1.8087,0.15,-0.69,0.44,24,-2,2,11214,37,83,18,51,738,767.0,300,300,60,119.0,241,0,461,355,187,0,0,0,0,0,0,,,,,
119703,1551438816701,1.814,2.34,1.678,0.09,-0.82,0.6,24,-3,3,11214,37,83,18,51,738,767.0,300,300,60,119.0,241,0,461,355,187,0,0,0,0,0,0,,,,,
119723,1551438816721,1.642,2.494,1.7547,0.1,-0.78,0.33,24,-4,3,11214,37,83,18,51,738,767.0,300,300,60,119.0,241,0,461,355,187,0,0,0,0,0,0,,,,,
119743,1551438816741,1.963,2.376,1.7622,0.03,-0.8,0.5,24,-2,3,11214,37,83,18,51,738,767.0,300,300,60,119.0,241,0,461,355,187,0,0,0,0,0,0,45.846485,5.179877,46.05,724.5,0.486
119763,1551438816761,1.606,2.416,1.7345,0.14,-0.87,0.47,25,-1,3,11214,37,83,18,51,738,767.0,300,300,60,119.0,241,0,461,355,187,0,0,0,0,0,0,,,,,
119783,1551438816781,1.858,2.396,1.6805,0.17,-0.98,0.5,25,-1,4,11227,37,83,18,51,747,776.0,300,300,60,119.0,239,0,460,354,186,0,0,0,0,0,0,,,,,
119803,1551438816801,1.869,2.397,1.7484,0.01,-0.98,0.63,25,-3,6,11227,37,83,18,51,747,776.0,300,300,60,119.0,239,0,460,354,186,0,0,0,0,0,0,,,,,
119823,1551438816821,1.879,2.35,1.7345,0.04,-0.81,0.52,25,-1,4,11227,37,83,18,51,747,776.0,300,300,60,119.0,239,0,460,354,186,0,0,0,0,0,0,,,,,
119843,1551438816841,1.663,2.45,1.81,0.12,-0.82,0.58,25,-1,3,11227,37,83,18,51,747,776.0,300,300,60,119.0,239,0,460,354,186,0,0,0,0,0,0,45.846478,5.179898,46.08,724.4,0.488
119863,1551438816861,1.789,2.416,1.6352,0.09,-0.92,0.72,25,-2,3,11227,37,83,18,51,747,776.0,300,300,60,119.0,239,0,460,354,186,0,0,0,0,0,0,,,,,
119883,1551438816881,1.921,2.496,1.771,0.05,-0.79,0.44,26,-4,3,11308,38,83,18,52,748,763.0,300,300,60,119.0,241,0,452,337,185,0,0,0,0,0,0,,,,,
119903,1551438816901,1.757,2.442,1.7245,-0.02,-0.86,0.56,26,-4,2,11308,38,83,18,52,748,763.0,300,300,60,119.0,241,0,452,337,185,0,0,0,0,0,0,,,,,
119923,1551438816921,1.649,2.447,1.7245,0.03,-0.79,0.7,27,-1,3,11308,38,83,18,52,748,763.0,300,300,60,119.0,241,0,452,337,185,0,0,0,0,0,0,,,,,
119943,1551438816941,1.726,2.353,1.6981,0.12,-0.91,0.83,27,-1,3,11308,38,83,18,52,748,763.0,300,300,60,119.0,241,0,452,337,185,0,0,0,0,0,0,45.846466,5.179918,46.33,724.3,0.489
119963,1551438816961,2.029,2.471,1.7396,0.08,-0.86,0.54,26,-1,3,11308,38,83,18,52,748,763.0,300,300,60,119.0,241,0,452,337,185,0,0,0,0,0,0,,,,,
119983,1551438816981,1.706,2.368,1.7119,-0.05,-0.91,0.68,26,-4,3,11308,38,83,18,52,771,776.0,300,300,60,118.0,227,0,452,340,176,0,0,0,0,0,0,,,,,
120003,1551438816995,1.799,2.41,1.7572,0.11,-0.73,0.49,26,-1,3,11308,38,83,18,52,771,776.0,300,300,60,118.0,227,0,452,340,176,0,0,0,0,0,0,,,,,
120023,1551438817015,1.664,2.413,1.8389,0.13,-0.73,0.64,26,-1,3,11308,38,83,18,52,771,776.0,300,300,60,118.0,227,0,452,340,176,0,0,0,0,0,0,,,,,
120043,1551438817035,1.766,2.36,1.7019,0.08,-0.85,0.77,26,-3,2,11308,38,83,18,52,771,776.0,300,300,60,118.0,227,0,452,340,176,0,0,0,0,0,0,45.846451,5.179938,46.03,724.3,0.49
120063,1551438817055,1.812,2.499,1.7572,0.03,-0.83,0.49,25,-5,2,11308,38,83,18,52,771,776.0,300,300,60,118.0,227,0,452,340,176,0,0,0,0,0,0,,,,,
120083,1551438817075,1.755,2.389,1.6365,-0.09,-0.87,0.64,25,-6,1,11405,38,83,18,52,799,783.0,300,300,60,119.0,228,0,446,413,180,0,0,0,0,0,0,,,,,
120103,1551438817095,1.78,2.471,1.6629,0.06,-0.78,0.51,25,-4,3,11405,38,83,18,52,799,783.0,300,300,60,119.0,228,0,446,413,180,0,0,0,0,0,0,,,,,
120123,1551438817115,1.733,2.421,1.7986,0.19,-0.82,0.39,25,-2,3,11405,38,83,18,52,799,783.0,300,300,60,119.0,228,0,446,413,180,0,0,0,0,0,0,,,,,
120143,1551438817135,1.779,2.491,1.6302,0.2,-0.93,0.18,25,-1,3,11405,38,83,18,52,799,783.0,300,300,60,119.0,228,0,446,413,180,0,0,0,0,0,0,45.846439,5.179957,46.61,724.2,0.491
120163,1551438817155,1.654,2.445,1.7685,-0.01,-0.94,0.36,24,-3,4,11405,38,83,18,52,799,783.0,300,300,60,119.0,228,0,446,413,180,0,0,0,0,0,0,,,,,
120183,1551438817175,1.736,2.352,1.6805,-0.06,-0.9,0.52,24,-2,3,11412,38,83,18,52,807,780.0,300,300,60,120.0,229,0,446,405,177,0,0,0,0,0,0,,,,,
120203,1551438817203,1.767,2.387,1.7609,0.08,-0.64,0.26,24,0,3,11412,38,83,18,52,807,780.0,300,300,60,120.0,229,0,446,405,177,0,0,0,0,0,0,,,,,
120223,1551438817223,1.61,2.362,1.7609,0.08,-0.72,0.43,23,-0,2,11412,38,83,18,52,807,780.0,300,300,60,120.0,229,0,446,405,177,0,0,0,0,0,0,,,,,
120243,1551438817243,1.758,2.406,1.629,0.08,-0.75,0.4,23,-1,3,11412,38,83,18,52,807,780.0,300,300,60,120.0,229,0,446,405,177,0,0,0,0,0,0,45.846424,5.179975,46.9,724.1,0.493
120263,1551438817263,1.816,2.433,1.7345,-0.03,-0.74,0.3,22,-4,3,11412,38,83,18,52,807,780.0,300,300,60,120.0,229,0,446,405,177,0,0,0,0,0,0,,,,,
120283,1551438817283,1.836,2.456,1.6943,-0.15,-0.85,0.47,22,-4,1,11439,39,83,18,53,823,776.0,300,300,60,119.0,225,0,444,408,175,0,0,0,0,0,0,,,,,
120303,1551438817303,1.717,2.426,1.683,-0.02,-0.73,0.62,22,-2,1,11439,39,83,18,53,823,776.0,300,300,60,119.0,225,0,444,408,175,0,0,0,0,0,0,,,,,
120323,1551438817323,1.659,2.372,1.7785,0.13,-0.75,0.52,22,0,2,11439,39,83,18,53,823,776.0,300,300,60,119.0,225,0,444,408,175,0,0,0,0,0,0,,,,,
120343,1551438817343,1.805,2.43,1.7722,0.13,-0.83,0.58,22,0,3,11439,39,83,18,53,823,776.0,300,300,60,119.0,225,0,444,408,175,0,0,0,0,0,0,45.846409,5.179993,47.04,724.0,0.494
120363,1551438817363,1.679,2.441,1.7496,0.03,-0.79,0.64,22,1,2,11439,39,83,18,53,823,776.0,300,300,60,119.0,225,0,444,408,175,0,0,0,0,0,0,,,,,
120383,1551438817383,1.616,2.325,1.8087,-0.12,-0.78,0.77,22,-3,3,11510,40,82,18,53,833,790.0,300,300,60,120.0,223,0,440,407,176,0,0,0,0,0,0,,,,,
120403,1551438817403,1.68,2.343,1.6491,-0.12,-0.71,0.78,22,-4,3,11510,40,82,18,53,833,790.0,300,300,60,120.0,223,0,440,407,176,0,0,0,0,0,0,,,,,
120423,1551438817423,1.908,2.422,1.7283,-0.05,-0.52,0.67,21,0,3,11510,40,82,18,53,833,790.0,300,300,60,120.0,223,0,440,407,176,0,0,0,0,0,0,,,,,
120443,1551438817443,1.867,2.521,1.7911,0.02,-0.5,0.78,21,1,2,11510,40,82,18,53,833,790.0,300,300,60,120.0,223,0,440,407,176,0,0,0,0,0,0,45.846394,5.180009,47.34,724.0,0.495
120463,1551438817463,1.711,2.431,1.8012,0.06,-0.63,0.76,21,0,2,11510,40,82,18,53,833,790.0,300,300,60,120.0,223,0,440,407,176,0,0,0,0,0,0,,,,,
120483,1551438817483,1.824,2.35,1.7031,0.09,-0.62,0.65,21,-0,1,11496,40,82,18,54,864,788.0,300,300,60,119.0,231,0,441,325,180,0,0,0,0,0,0,,,,,
120503,1551438817502,1.968,2.402,1.7119,0.05,-0.55,0.5,22,-2,0,11496,40,82,18,54,864,788.0,300,300,60,119.0,231,0,441,325,180,0,0,0,0,0,0,,,,,
120523,1551438817522,1.889,2.436,1.7496,-0.02,-0.6,0.32,22,-4,-0,11496,40,82,18,54,864,788.0,300,300,60,119.0,231,0,441,325,180,0,0,0,0,0,0,,,,,
120543,1551438817542,1.753,2.43,1.678,-0.13,-0.66,0.49,22,-3,-0,11496,40,82,18,54,864,788.0,300,300,60,119.0,231,0,441,325,180,0,0,0,0,0,0,45.846378,5.180025,47.64,723.9,0.497
120563,1551438817562,1.745,2.402,1.6742,-0.14,-0.65,0.64,22,-1,-0,11496,40,82,18,54,864,788.0,300,300,60,119.0,231,0,441,325,180,0,0,0,0,0,0,,,,,
120583,1551438817582,1.885,2.398,1.7584,0.01,-0.68,0.77,23,2,0,11682,41,82,18,54,872,793.0,300,300,60,119.0,226,0,440,423,180,0,0,0,0,0,0,,,,,
120603,1551438817600,1.721,2.369,1.7999,0.15,-0.81,0.49,23,1,1,11682,41,82,18,54,872,793.0,300,300,60,119.0,226,0,440,423,180,0,0,0,0,0,0,,,,,
120623,1551438817620,1.84,2.427,1.7056,0.26,-0.92,0.24,23,1,2,11682,41,82,18,54,872,793.0,300,300,60,119.0,226,0,440,423,180,0,0,0,0,0,0,,,,,
120643,1551438817640,1.868,2.415,1.6541,0.16,-0.9,0.41,23,2,2,11682,41,82,18,54,872,793.0,300,300,60,119.0,226,0,440,423,180,0,0,0,0,0,0,45.846363,5.18004,47.65,723.8,0.498
120663,1551438817660,1.899,2.469,1.6629,0.03,-0.83,0.57,23,0,2,11682,41,82,18,54,872,793.0,300,300,60,119.0,226,0,440,423,180,0,0,0,0,0,0,,,,,
120683,1551438817680,1.556,2.436,1.8062,-0.12,-0.88,0.54,23,-4,4,11689,41,82,18,55,865,800.0,300,300,60,118.0,230,0,440,343,185,0,0,0,0,0,0,,,,,
120703,1551438817702,1.54,2.403,1.8238,-0.21,-0.94,0.39,24,-7,6,11689,41,82,18,55,865,800.0,300,300,60,118.0,230,0,440,343,185,0,0,0,0,0,0,,,,,
120723,1551438817722,1.628,2.315,1.732,-0.23,-0.93,0.54,24,-8,6,11689,41,82,18,55,865,800.0,300,300,60,118.0,230,0,440,343,185,0,0,0,0,0,0,,,,,
120743,1551438817742,1.799,2.315,1.6767,-0.16,-0.84,0.68,24,-7,5,11689,41,82,18,55,865,800.0,300,300,60,118.0,230,0,440,343,185,0,0,0,0,0,0,45.846348,5.180054,47.97,723.7,0.499
120763,1551438817762,1.893,2.376,1.7182,-0.06,-0.68,0.64,24,-5,4,11689,41,82,18,55,865,800.0,300,300,60,118.0,230,0,440,343,185,0,0,0,0,0,0,,,,,
120783,1551438817782,1.929,2.451,1.7974,0.04,-0.55,0.54,24,-3,4,11726,40,82,18,54,860,795.0,300,300,60,119.0,242,0,440,419,189,0,0,0,0,0,0,,,,,
120803,1551438817802,1.835,2.476,1.8074,0.12,-0.61,0.49,23,-2,4,11726,40,82,18,54,860,795.0,300,300,60,119.0,242,0,440,419,189,0,0,0,0,0,0,,,,,
120823,1551438817822,1.763,2.503,1.7572,0.13,-0.75,0.64,23,-2,4,11726,40,82,18,54,860,795.0,300,300,60,119.0,242,0,440,419,189,0,0,0,0,0,0,,,,,
120843,1551438817842,1.772,2.477,1.7069,0.11,-0.84,0.77,23,-2,4,11726,40,82,18,54,860,795.0,300,300,60,119.0,242,0,440,419,189,0,0,0,0,0,0,45.846329,5.180067,48.11,723.6,0.501
120863,1551438817862,1.733,2.378,1.6302,0.11,-0.88,0.89,23,-3,2,11726,40,82,18,54,860,795.0,300,300,60,119.0,242,0,440,419,189,0,0,0,0,0,0,,,,,
120883,1551438817882,1.782,2.437,1.6001,0.09,-0.83,0.65,23,-4,1,11792,40,82,18,54,840,809.0,300,300,60,119.0,230,0,440,340,186,0,0,0,0,0,0,,,,,
120903,1551438817902,1.838,2.378,1.6604,0.11,-0.92,0.78,22,-4,2,11792,40,82,18,54,840,809.0,300,300,60,119.0,230,0,440,340,186,0,0,0,0,0,0,,,,,
120923,1551438817922,1.718,2.428,1.7685,0.14,-0.91,0.81,22,-6,2,11792,40,82,18,54,840,809.0,300,300,60,119.0,230,0,440,340,186,0,0,0,0,0,0,,,,,
120943,1551438817942,1.571,2.453,1.7949,0.08,-0.86,0.64,22,-7,2,11792,40,82,18,54,840,809.0,300,300,60,119.0,230,0,440,340,186,0,0,0,0,0,0,45.84631,5.180079,48.44,723.5,0.502
120963,1551438817962,1.604,2.398,1.8062,-0.01,-0.81,0.38,22,-7,2,11792,40,82,18,54,840,809.0,300,300,60,119.0,230,0,440,340,186,0,0,0,0,0,0,,,,,
120983,1551438817982,1.765,2.427,1.7459,-0.11,-0.83,0.13,22,-7,2,11837,40,82,18,53,846,807.0,300,300,60,119.0,230,0,440,425,186,0,0,0,0,0,0,,,,,
121003,1551438817996,1.731,2.332,1.6642,-0.17,-0.94,-0.08,22,-4,1,11837,40,82,18,53,846,807.0,300,300,60,119.0,230,0,440,425,186,0,0,0,0,0,0,,,,,
121023,1551438818016,1.833,2.315,1.6315,-0.26,-1.04,0.08,22,-3,-0,11837,40,82,18,53,846,807.0,300,300,60,119.0,230,0,440,425,186,0,0,0,0,0,0,,,,,
121043,1551438818036,1.807,2.358,1.6616,-0.38,-1.14,0.27,22,-1,-0,11837,40,82,18,53,846,807.0,300,300,60,119.0,230,0,440,425,186,0,0,0,0,0,0,45.846291,5.180091,48.69,723.5,0.503
121063,1551438818056,1.806,2.443,1.634,-0.37,-1.2,0.44,22,2,0,11837,40,82,18,53,846,807.0,300,300,60,119.0,230,0,440,425,186,0,0,0,0,0,0,,,,,
121083,1551438818076,1.743,2.443,1.688,-0.28,-1.19,0.59,23,5,1,11859,40,82,18,53,821,814.0,300,300,60,119.0,234,0,440,347,192,0,0,0,0,0,0,,,,,
121103,1551438818102,1.794,2.461,1.776,-0.1,-1.12,0.73,22,5,2,11859,40,82,18,53,821,814.0,300,300,60,119.0,234,0,440,347,192,0,0,0,0,0,0,,,,,
121123,1551438818122,1.735,2.432,1.8338,0.08,-0.99,0.77,23,6,3,11859,40,82,18,53,821,814.0,300,300,60,119.0,234,0,440,347,192,0,0,0,0,0,0,,,,,
121143,1551438818142,1.753,2.389,1.8552,0.22,-0.94,0.79,23,6,4,11859,40,82,18,53,821,814.0,300,300,60,119.0,234,0,440,347,192,0,0,0,0,0,0,45.846272,5.180101,48.83,723.5,0.505
121163,1551438818162,1.747,2.431,1.8263,0.35,-0.96,0.52,24,7,5,11859,40,82,18,53,821,814.0,300,300,60,119.0,234,0,440,347,192,0,0,0,0,0,0,,,,,
121183,1551438818182,1.765,2.402,1.8351,0.52,-0.94,0.26,24,9,6,11897,39,82,18,53,821,826.0,300,300,60,119.0,230,0,440,425,189,0,0,0,0,0,0,,,,,
121203,1551438818203,1.776,2.371,1.7446,0.65,-0.86,0.03,24,9,7,11897,39,82,18,53,821,826.0,300,300,60,119.0,230,0,440,425,189,0,0,0,0,0,0,,,,,
121223,1551438818223,1.698,2.31,1.6817,0.78,-0.85,-0.17,24,10,7,11897,39,82,18,53,821,826.0,300,300,60,119.0,230,0,440,425,189,0,0,0,0,0,0,,,,,
121243,1551438818243,1.67,2.355,1.7019,0.86,-0.85,-0.36,24,11,6,11897,39,82,18,53,821,826.0,300,300,60,119.0,230,0,440,425,189,0,0,0,0,0,0,45.846256,5.180111,48.93,723.5,0.506
121263,1551438818263,1.687,2.324,1.6516,0.96,-0.87,-0.53,24,12,7,11897,39,82,18,53,821,826.0,300,300,60,119.0,230,0,440,425,189,0,0,0,0,0,0,,,,,
121283,1551438818283,1.642,2.289,1.6315,1.05,-0.91,-0.68,24,12,6,11859,39,82,18,53,806,817.0,300,300,60,118.0,235,0,440,423,193,0,0,0,0,0,0,,,,,
121303,1551438818302,1.706,2.339,1.6478,1.01,-0.97,-0.41,24,12,5,11859,39,82,18,53,806,817.0,300,300,60,118.0,235,0,440,423,193,0,0,0,0,0,0,,,,,
121323,1551438818322,1.713,2.31,1.5636,0.98,-1.07,-0.32,23,10,5,11859,39,82,18,53,806,817.0,300,300,60,118.0,235,0,440,423,193,0,0,0,0,0,0,,,,,
121343,1551438818342,1.89,2.349,1.6516,0.89,-1.15,-0.09,24,10,5,11859,39,82,18,53,806,817.0,300,300,60,118.0,235,0,440,423,193,0,0,0,0,0,0,45.846237,5.180119,49.04,723.5,0.507
121363,1551438818362,1.889,2.32,1.5825,0.79,-1.21,0.12,24,9,4,11859,39,82,18,53,806,817.0,300,300,60,118.0,235,0,440,423,193,0,0,0,0,0,0,,,,,
121383,1551438818382,1.824,2.412,1.6214,0.74,-1.29,0.3,24,10,4,11950,39,82,18,53,800,808.0,300,300,60,119.0,238,0,440,429,193,0,0,0,0,0,0,,,,,
121403,1551438818402,1.785,2.387,1.6139,0.69,-1.36,0.47,24,10,4,11950,39,82,18,53,800,808.0,300,300,60,119.0,238,0,440,429,193,0,0,0,0,0,0,,,,,
121423,1551438818422,1.895,2.427,1.5686,0.64,-1.42,0.52,24,10,4,11950,39,82,18,53,800,808.0,300,300,60,119.0,238,0,440,429,193,0,0,0,0,0,0,,,,,
121443,1551438818442,1.79,2.446,1.6214,0.59,-1.45,0.63,24,10,4,11950,39,82,18,53,800,808.0,300,300,60,119.0,238,0,440,429,193,0,0,0,0,0,0,45.846218,5.180127,49.09,723.4,0.509
121463,1551438818462,1.766,2.393,1.546,0.51,-1.5,0.76,23,9,3,11950,39,82,18,53,800,808.0,300,300,60,119.0,238,0,440,429,193,0,0,0,0,0,0,,,,,
121483,1551438818482,1.716,2.403,1.6063,0.44,-1.49,0.72,23,8,4,11965,39,82,18,53,794,825.0,300,300,60,119.0,236,0,440,347,194,0,0,0,0,0,0,,,,,
121503,1551438818501,1.801,2.369,1.6642,0.35,-1.46,0.85,23,7,4,11965,39,82,18,53,794,825.0,300,300,60,119.0,236,0,440,347,194,0,0,0,0,0,0,,,,,
121523,1551438818521,1.78,2.335,1.6365,0.28,-1.47,0.83,23,6,3,11965,39,82,18,53,794,825.0,300,300,60,119.0,236,0,440,347,194,0,0,0,0,0,0,,,,,
121543,1551438818541,1.698,2.44,1.6667,0.18,-1.52,0.94,22,5,3,11965,39,82,18,53,794,825.0,300,300,60,119.0,236,0,440,347,194,0,0,0,0,0,0,45.846199,5.180133,49.28,723.4,0.51
121563,1551438818561,1.86,2.386,1.5938,0.08,-1.51,1.05,23,4,3,11965,39,82,18,53,794,825.0,300,300,60,119.0,236,0,440,347,194,0,0,0,0,0,0,,,,,
121583,1551438818581,1.895,2.374,1.6591,0.05,-1.53,1.14,23,4,3,12019,39,82,18,53,793,808.0,300,300,60,119.0,240,0,440,432,194,0,0,0,0,0,0,,,,,
121603,1551438818601,1.611,2.345,1.5385,0.04,-1.57,1.22,23,5,3,12019,39,82,18,53,793,808.0,300,300,60,119.0,240,0,440,432,194,0,0,0,0,0,0,,,,,
121623,1551438818621,1.724,2.381,1.5749,0.01,-1.61,1.3,23,5,3,12019,39,82,18,53,793,808.0,300,300,60,119.0,240,0,440,432,194,0,0,0,0,0,0,,,,,
121643,1551438818641,1.853,2.343,1.5674,-0.01,-1.63,1.36,23,4,4,12019,39,82,18,53,793,808.0,300,300,60,119.0,240,0,440,432,194,0,0,0,0,0,0,45.846176,5.180138,49.42,723.4,0.512
121663,1551438818661,1.745,2.34,1.5573,-0.02,-1.67,1.42,23,4,3,12019,39,82,18,53,793,808.0,300,300,60,119.0,240,0,440,432,194,0,0,0,0,0,0,,,,,
121683,1551438818681,1.758,2.373,1.5925,-0.03,-1.7,1.48,23,4,3,11980,34,82,18,50,783,824.0,300,300,60,118.0,238,0,448,462,197,0,0,0,0,0,0,,,,,
121703,1551438818701,1.829,2.325,1.5473,-0.09,-1.66,1.53,23,3,3,11980,34,82,18,50,783,824.0,300,300,60,118.0,238,0,448,462,197,0,0,0,0,0,0,,,,,
121723,1551438818721,1.904,2.325,1.6817,-0.14,-1.53,1.57,23,1,2,11980,34,82,18,50,783,824.0,300,300,60,118.0,238,0,448,462,197,0,0,0,0,0,0,,,,,
121743,1551438818741,1.801,2.327,1.7547,-0.2,-1.5,1.21,23,-4,3,11980,34,82,18,50,783,824.0,300,300,60,118.0,238,0,448,462,197,0,0,0,0,0,0,45.846157,5.180141,49.46,723.5,0.513
121763,1551438818761,1.621,2.393,1.7421,-0.3,-1.46,1.07,23,-7,4,11980,34,82,18,50,783,824.0,300,300,60,118.0,238,0,448,462,197,0,0,0,0,0,0,,,,,
121783,1551438818781,1.917,2.348,1.7283,-0.15,-1.17,1.16,23,-3,4,11439,30,82,18,48,747,834.0,300,300,60,118.0,258,0,460,389,211,0,0,0,0,0,0,,,,,
121803,1551438818801,1.674,2.374,1.6905,-0.16,-1.24,1.24,24,-3,3,11439,30,82,18,48,747,834.0,300,300,60,118.0,258,0,460,389,211,0,0,0,0,0,0,,,,,
121823,1551438818821,1.684,2.397,1.7044,-0.09,-1.31,0.92,24,-5,4,11439,30,82,18,48,747,834.0,300,300,60,118.0,258,0,460,389,211,0,0,0,0,0,0,,,,,
121843,1551438818841,1.902,2.394,1.5334,-0.0,-1.21,0.62,24,-4,6,11439,30,82,18,48,747,834.0,300,300,60,118.0,258,0,460,389,211,0,0,0,0,0,0,45.846138,5.180144,49.9,723.5,0.514
121863,1551438818861,1.976,2.325,1.5523,0.02,-1.16,0.36,25,-4,6,11439,30,82,18,48,747,834.0,300,300,60,118.0,258,0,460,389,211,0,0,0,0,0,0,,,,,
121883,1551438818881,1.893,2.338,1.5359,0.05,-1.02,0.52,25,-3,4,10813,30,82,18,53,833,812.0,300,300,60,119.0,243,0,482,508,200,0,0,0,0,0,0,,,,,
121903,1551438818903,1.698,2.381,1.5548,0.07,-1.12,0.66,25,-4,3,10813,30,82,18,53,833,812.0,300,300,60,119.0,243,0,482,508,200,0,0,0,0,0,0,,,,,
121923,1551438818923,1.951,2.477,1.6239,0.13,-1.05,0.39,25,-4,3,10813,30,82,18,53,833,812.0,300,300,60,119.0,243,0,482,508,200,0,0,0,0,0,0,,,,,
121943,1551438818943,1.972,2.408,1.5837,-0.01,-1.13,0.55,26,-3,2,10813,30,82,18,53,833,812.0,300,300,60,119.0,243,0,482,508,200,0,0,0,0,0,0,45.846119,5.180146,49.3,723.5,0.516
121963,1551438818963,1.591,2.482,1.6051,0.2,-1.2,0.29,26,-2,2,10813,30,82,18,53,833,812.0,300,300,60,119.0,243,0,482,508,200,0,0,0,0,0,0,,,,,
121983,1551438818983,1.81,2.402,1.5988,0.18,-1.23,0.3,27,-0,2,11101,31,82,18,52,1072,803.0,300,300,60,119.0,248,0,480,473,202,0,0,0,0,0,0,,,,,
122003,1551438818997,1.851,2.408,1.6692,0.1,-1.14,0.47,27,-2,3,11101,31,82,18,52,1072,803.0,300,300,60,119.0,248,0,480,473,202,0,0,0,0,0,0,,,,,
122023,1551438819017,1.88,2.379,1.6026,0.28,-0.98,0.22,27,0,3,11101,31,82,18,52,1072,803.0,300,300,60,119.0,248,0,480,473,202,0,0,0,0,0,0,,,,,
122043,1551438819037,1.712,2.406,1.5196,0.25,-1.08,0.39,27,-1,3,11101,31,82,18,52,1072,803.0,300,300,60,119.0,248,0,480,473,202,0,0,0,0,0,0,45.846096,5.180146,49.12,723.6,0.517
122063,1551438819057,1.672,2.455,1.6227,0.26,-1.05,0.15,27,-3,4,11101,31,82,18,52,1072,803.0,300,300,60,119.0,248,0,480,473,202,0,0,0,0,0,0,,,,,
122083,1551438819077,1.839,2.404,1.722,0.16,-1.08,0.02,27,-3,3,11453,33,82,18,52,945,785.0,300,300,60,119.0,249,0,456,367,197,0,0,0,0,0,0,,,,,
122103,1551438819101,1.838,2.393,1.6202,0.15,-1.09,0.22,27,-1,2,11453,33,82,18,52,945,785.0,300,300,60,119.0,249,0,456,367,197,0,0,0,0,0,0,,,,,
122123,1551438819121,1.713,2.396,1.6151,0.23,-1.12,0.39,27,1,1,11453,33,82,18,52,945,785.0,300,300,60,119.0,249,0,456,367,197,0,0,0,0,0,0,,,,,
122143,1551438819141,1.867,2.438,1.6076,0.38,-1.06,0.55,27,4,1,11453,33,82,18,52,945,785.0,300,300,60,119.0,249,0,456,367,197,0,0,0,0,0,0,45.846077,5.180145,48.0,723.7,0.518
122163,1551438819161,1.87,2.418,1.6805,0.52,-1.04,0.57,27,6,2,11453,33,82,18,52,945,785.0,300,300,60,119.0,249,0,456,367,197,0,0,0,0,0,0,,,,,
122183,1551438819181,1.779,2.476,1.8175,0.62,-1.05,0.68,27,8,2,12019,34,82,18,48,765,780.0,300,300,60,119.0,256,0,448,464,200,0,0,0,0,0,0,,,,,
122203,1551438819201,1.807,2.442,1.7722,0.72,-1.06,0.41,27,8,3,12019,34,82,18,48,765,780.0,300,300,60,119.0,256,0,448,464,200,0,0,0,0,0,0,,,,,
122223,1551438819221,1.684,2.477,1.8024,0.77,-1.12,0.17,26,8,5,12019,34,82,18,48,765,780.0,300,300,60,119.0,256,0,448,464,200,0,0,0,0,0,0,,,,,
122243,1551438819241,1.79,2.413,1.5649,0.67,-1.05,0.25,25,8,5,12019,34,82,18,48,765,780.0,300,300,60,119.0,256,0,448,464,200,0,0,0,0,0,0,45.846058,5.180142,47.36,723.7,0.52
122263,1551438819261,1.596,2.413,1.6993,0.48,-1.05,0.42,24,5,6,12019,34,82,18,48,765,780.0,300,300,60,119.0,256,0,448,464,200,0,0,0,0,0,0,,,,,
122283,1551438819281,1.62,2.394,1.7195,0.45,-0.96,0.43,23,4,5,11377,34,82,18,49,740,788.0,300,300,60,119.0,249,0,456,442,198,0,0,0,0,0,0,,,,,
122303,1551438819303,1.815,2.371,1.7547,0.5,-0.93,0.29,23,4,5,11377,34,82,18,49,740,788.0,300,300,60,119.0,249,0,456,442,198,0,0,0,0,0,0,,,,,
122323,1551438819323,1.68,2.398,1.6566,0.44,-1.03,0.46,22,4,4,11377,34,82,18,49,740,788.0,300,300,60,119.0,249,0,456,442,198,0,0,0,0,0,0,,,,,
122343,1551438819343,1.765,2.491,1.6164,0.39,-0.91,0.31,22,4,3,11377,34,82,18,49,740,788.0,300,300,60,119.0,249,0,456,442,198,0,0,0,0,0,0,45.846039,5.180139,47.12,723.7,0.521
122363,1551438819363,1.664,2.467,1.7572,0.24,-0.95,0.36,22,3,3,11377,34,82,18,49,740,788.0,300,300,60,119.0,249,0,456,442,198,0,0,0,0,0,0,,,,,
122383,1551438819383,1.678,2.352,1.7144,0.23,-1.03,0.52,22,4,3,11439,34,82,18,49,750,782.0,300,300,60,119.0,248,0,450,345,192,0,0,0,0,0,0,,,,,
122403,1551438819403,1.802,2.435,1.7572,0.38,-0.98,0.49,22,5,3,11439,34,82,18,49,750,782.0,300,300,60,119.0,248,0,450,345,192,0,0,0,0,0,0,,,,,
122423,1551438819423,1.611,2.371,1.678,0.44,-1.08,0.45,21,5,3,11439,34,82,18,49,750,782.0,300,300,60,119.0,248,0,450,345,192,0,0,0,0,0,0,,,,,
122443,1551438819443,1.864,2.407,1.6126,0.36,-0.93,0.21,21,4,4,11439,34,82,18,49,750,782.0,300,300,60,119.0,248,0,450,345,192,0,0,0,0,0,0,45.846024,5.180134,47.21,723.8,0.522
122463,1551438819463,1.704,2.416,1.8024,0.21,-0.91,0.38,21,1,5,11439,34,82,18,49,750,782.0,300,300,60,119.0,248,0,450,345,192,0,0,0,0,0,0,,,,,
122483,1551438819483,1.706,2.406,1.7094,0.2,-0.83,0.48,22,1,4,11446,35,83,18,49,748,781.0,300,300,60,119.0,238,0,450,428,186,0,0,0,0,0,0,,,,,
122503,1551438819502,1.684,2.388,1.7182,0.26,-0.73,0.3,22,3,4,11446,35,83,18,49,748,781.0,300,300,60,119.0,238,0,450,428,186,0,0,0,0,0,0,,,,,
122523,1551438819522,1.853,2.42,1.7924,0.29,-0.54,0.28,22,1,4,11446,35,83,18,49,748,781.0,300,300,60,119.0,238,0,450,428,186,0,0,0,0,0,0,,,,,
122543,1551438819542,1.731,2.348,1.6516,0.3,-0.63,0.45,23,1,2,11446,35,83,18,49,748,781.0,300,300,60,119.0,238,0,450,428,186,0,0,0,0,0,0,45.846004,5.180128,47.2,723.8,0.524
122563,1551438819562,1.868,2.471,1.6478,0.28,-0.76,0.6,23,1,1,11446,35,83,18,49,748,781.0,300,300,60,119.0,238,0,450,428,186,0,0,0,0,0,0,,,,,
122583,1551438819582,1.845,2.491,1.722,0.25,-0.73,0.43,23,-0,1,11531,35,83,18,50,751,792.0,300,300,60,120.0,232,0,448,425,185,0,0,0,0,0,0,,,,,
122603,1551438819602,1.683,2.371,1.6993,0.18,-0.76,0.19,23,1,1,11531,35,83,18,50,751,792.0,300,300,60,120.0,232,0,448,425,185,0,0,0,0,0,0,,,,,
122623,1551438819622,1.96,2.41,1.6717,0.1,-0.89,0.37,24,3,1,11531,35,83,18,50,751,792.0,300,300,60,120.0,232,0,448,425,185,0,0,0,0,0,0,,,,,
122643,1551438819642,1.874,2.466,1.6943,0.26,-0.93,0.53,24,5,1,11531,35,83,18,50,751,792.0,300,300,60,120.0,232,0,448,425,185,0,0,0,0,0,0,45.845985,5.180122,47.42,723.9,0.525
122663,1551438819662,1.706,2.31,1.7044,0.43,-0.97,0.27,24,5,2,11531,35,83,18,50,751,792.0,300,300,60,120.0,232,0,448,425,185,0,0,0,0,0,0,,,,,
122683,1551438819682,1.839,2.394,1.6063,0.46,-1.01,0.29,23,6,3,11488,35,83,18,50,771,783.0,300,300,60,118.0,236,0,447,424,185,0,0,0,0,0,0,,,,,
122703,1551438819702,1.796,2.438,1.7169,0.3,-0.96,0.46,23,4,3,11488,35,83,18,50,771,783.0,300,300,60,118.0,236,0,447,424,185,0,0,0,0,0,0,,,,,
122723,1551438819722,1.633,2.406,1.7584,0.2,-0.97,0.61,23,2,3,11488,35,83,18,50,771,783.0,300,300,60,118.0,236,0,447,424,185,0,0,0,0,0,0,,,,,
122743,1551438819742,1.718,2.379,1.8074,0.21,-0.93,0.46,23,4,3,11488,35,83,18,50,771,783.0,300,300,60,118.0,236,0,447,424,185,0,0,0,0,0,0,45.845966,5.180114,47.38,724.0,0.526
122763,1551438819762,1.659,2.416,1.7748,0.31,-0.77,0.27,22,4,3,11488,35,83,18,50,771,783.0,300,300,60,118.0,236,0,447,424,185,0,0,0,0,0,0,,,,,
122783,1551438819782,1.625,2.421,1.6704,0.35,-0.88,0.41,22,4,3,11467,36,83,18,50,762,783.0,300,300,60,119.0,236,0,447,337,185,0,0,0,0,0,0,,,,,
122803,1551438819803,1.605,2.426,1.634,0.32,-0.96,0.54,22,3,3,11467,36,83,18,50,762,783.0,300,300,60,119.0,236,0,447,337,185,0,0,0,0,0,0,,,,,
122823,1551438819823,1.723,2.497,1.7534,0.23,-0.91,0.31,21,0,4,11467,36,83,18,50,762,783.0,300,300,60,119.0,236,0,447,337,185,0,0,0,0,0,0,,,,,
122843,1551438819843,1.647,2.352,1.7119,0.1,-0.98,0.31,20,-0,3,11467,36,83,18,50,762,783.0,300,300,60,119.0,236,0,447,337,185,0,0,0,0,0,0,45.845947,5.180105,47.56,724.0,0.528
122863,1551438819863,1.737,2.469,1.7283,0.06,-1.07,0.48,20,2,3,11467,36,83,18,50,762,783.0,300,300,60,119.0,236,0,447,337,185,0,0,0,0,0,0,,,,,
122883,1551438819883,1.775,2.389,1.7521,0.06,-0.88,0.63,20,3,4,11474,36,83,18,50,773,802.0,300,300,60,119.0,226,0,444,331,181,0,0,0,0,0,0,,,,,
122903,1551438819902,1.747,2.391,1.6742,0.17,-0.84,0.52,20,3,3,11474,36,83,18,50,773,802.0,300,300,60,119.0,226,0,444,331,181,0,0,0,0,0,0,,,,,
122923,1551438819922,1.736,2.408,1.6755,0.13,-0.86,0.58,20,3,3,11474,36,83,18,50,773,802.0,300,300,60,119.0,226,0,444,331,181,0,0,0,0,0,0,,,,,
122943,1551438819942,1.655,2.457,1.7421,0.03,-0.83,0.58,19,-0,4,11474,36,83,18,50,773,802.0,300,300,60,119.0,226,0,444,331,181,0,0,0,0,0,0,45.845932,5.180095,47.75,724.1,0.529
122963,1551438819962,1.591,2.406,1.7283,-0.06,-0.82,0.55,19,-1,4,11474,36,83,18,50,773,802.0,300,300,60,119.0,226,0,444,331,181,0,0,0,0,0,0,,,,,
122983,1551438819982,1.905,2.415,1.7345,-0.06,-0.68,0.7,19,2,3,11559,37,83,18,51,782,789.0,300,300,60,118.0,231,0,442,407,181,0,0,0,0,0,0,,,,,
123003,1551438819996,1.667,2.41,1.7873,0.04,-0.51,0.81,19,3,3,11559,37,83,18,51,782,789.0,300,300,60,118.0,231,0,442,407,181,0,0,0,0,0,0,,,,,
123023,1551438820016,1.642,2.446,1.7936,0.15,-0.51,0.75,19,2,2,11559,37,83,18,51,782,789.0,300,300,60,118.0,231,0,442,407,181,0,0,0,0,0,0,,,,,
123043,1551438820036,1.684,2.469,1.678,0.12,-0.66,0.88,19,1,2,11559,37,83,18,51,782,789.0,300,300,60,118.0,231,0,442,407,181,0,0,0,0,0,0,45.845909,5.180084,47.73,724.2,0.53
123063,1551438820056,1.858,2.504,1.7119,0.14,-0.6,0.6,19,-1,1,11559,37,83,18,51,782,789.0,300,300,60,118.0,231,0,442,407,181,0,0,0,0,0,0,,,,,
123083,1551438820076,1.785,2.457,1.7484,0.04,-0.58,0.4,19,-3,1,11595,37,83,18,51,797,796.0,300,300,60,120.0,225,0,442,407,178,0,0,0,0,0,0,,,,,
123103,1551438820102,1.872,2.422,1.7949,-0.07,-0.64,0.28,20,-2,1,11595,37,83,18,51,797,796.0,300,300,60,120.0,225,0,442,407,178,0,0,0,0,0,0,,,,,
123123,1551438820122,1.872,2.403,1.7031,-0.12,-0.74,0.45,21,1,0,11595,37,83,18,51,797,796.0,300,300,60,120.0,225,0,442,407,178,0,0,0,0,0,0,,,,,
123143,1551438820142,1.756,2.393,1.688,0.03,-0.73,0.6,21,3,2,11595,37,83,18,51,797,796.0,300,300,60,120.0,225,0,442,407,178,0,0,0,0,0,0,45.845894,5.180073,47.94,724.2,0.532
123163,1551438820162,1.742,2.411,1.8012,0.23,-0.86,0.34,21,4,3,11595,37,83,18,51,797,796.0,300,300,60,120.0,225,0,442,407,178,0,0,0,0,0,0,,,,,
123183,1551438820182,1.758,2.383,1.6956,0.34,-0.96,0.1,21,4,3,11624,37,83,18,51,819,800.0,300,300,60,119.0,229,0,442,412,182,0,0,0,0,0,0,,,,,
123203,1551438820202,1.801,2.383,1.644,0.32,-1.02,0.29,21,4,2,11624,37,83,18,51,819,800.0,300,300,60,119.0,229,0,442,412,182,0,0,0,0,0,0,,,,,
123223,1551438820222,1.751,2.391,1.7144,0.17,-0.96,0.46,21,2,2,11624,37,83,18,51,819,800.0,300,300,60,119.0,229,0,442,412,182,0,0,0,0,0,0,,,,,
123243,1551438820242,1.574,2.366,1.8552,0.0,-0.94,0.53,21,-3,4,11624,37,83,18,51,819,800.0,300,300,60,119.0,229,0,442,412,182,0,0,0,0,0,0,45.845875,5.180061,47.87,724.3,0.533
123263,1551438820262,1.755,2.41,1.7031,-0.09,-0.9,0.31,22,-4,4,11624,37,83,18,51,819,800.0,300,300,60,119.0,229,0,442,412,182,0,0,0,0,0,0,,,,,
123283,1551438820282,1.732,2.363,1.722,-0.15,-0.79,0.48,22,-2,2,11696,37,83,18,51,786,798.0,300,300,60,118.0,228,0,442,334,179,0,0,0,0,0,0,,,,,
123303,1551438820302,1.719,2.441,1.7031,-0.06,-0.59,0.63,23,0,1,11696,37,83,18,51,786,798.0,300,300,60,118.0,228,0,442,334,179,0,0,0,0,0,0,,,,,
123323,1551438820322,1.748,2.464,1.8024,0.01,-0.57,0.71,22,-1,1,11696,37,83,18,51,786,798.0,300,300,60,118.0,228,0,442,334,179,0,0,0,0,0,0,,,,,
123343,1551438820342,1.826,2.476,1.7257,0.07,-0.68,0.54,22,-2,2,11696,37,83,18,51,786,798.0,300,300,60,118.0,228,0,442,334,179,0,0,0,0,0,0,45.84586,5.180047,48.03,724.3,0.534
123363,1551438820362,1.971,2.404,1.5925,0.04,-0.66,0.69,23,-1,1,11696,37,83,18,51,786,798.0,300,300,60,118.0,228,0,442,334,179,0,0,0,0,0,0,,,,,
123383,1551438820382,1.924,2.592,1.6315,0.06,-0.68,0.68,23,-1,0,11624,37,83,18,51,794,800.0,300,300,60,119.0,230,0,442,412,184,0,0,0,0,0,0,,,,,
123403,1551438820402,1.986,2.411,1.7697,-0.01,-0.64,0.4,23,-3,1,11624,37,83,18,51,794,800.0,300,300,60,119.0,230,0,442,412,184,0,0,0,0,0,0,,,,,
123423,1551438820422,1.78,2.48,1.771,-0.13,-0.72,0.16,24,-5,1,11624,37,83,18,51,794,800.0,300,300,60,119.0,230,0,442,412,184,0,0,0,0,0,0,,,,,
123443,1551438820442,1.836,2.314,1.6516,-0.27,-0.84,0.34,24,-4,0,11624,37,83,18,51,794,800.0,300,300,60,119.0,230,0,442,412,184,0,0,0,0,0,0,45.845844,5.180033,48.23,724.3,0.536
123463,1551438820462,1.723,2.448,1.6491,-0.34,-0.96,0.51,25,-2,-0,11624,37,83,18,51,794,800.0,300,300,60,119.0,230,0,442,412,184,0,0,0,0,0,0,,,,,
123483,1551438820482,1.875,2.372,1.6302,-0.2,-0.87,0.65,25,1,0,11733,35,83,18,50,780,811.0,300,300,60,119.0,232,0,446,355,187,0,0,0,0,0,0,,,,,
123503,1551438820501,1.757,2.462,1.7421,-0.03,-0.88,0.67,26,2,1,11733,35,83,18,50,780,811.0,300,300,60,119.0,232,0,446,355,187,0,0,0,0,0,0,,,,,
123523,1551438820521,1.743,2.422,1.7572,0.14,-0.94,0.4,26,2,2,11733,35,83,18,50,780,811.0,300,300,60,119.0,232,0,446,355,187,0,0,0,0,0,0,,,,,
123543,1551438820541,1.834,2.406,1.6616,0.15,-0.99,0.32,26,0,3,11733,35,83,18,50,780,811.0,300,300,60,119.0,232,0,446,355,187,0,0,0,0,0,0,45.845829,5.180017,48.25,724.3,0.537
123563,1551438820561,1.829,2.471,1.6956,0.0,-1.04,0.46,26,-2,4,11733,35,83,18,50,780,811.0,300,300,60,119.0,232,0,446,355,187,0,0,0,0,0,0,,,,,
123583,1551438820581,1.89,2.372,1.634,0.13,-0.85,0.62,27,0,2,11247,30,83,18,48,766,789.0,300,300,60,119.0,242,0,472,474,195,0,0,0,0,0,0,,,,,
123603,1551438820603,1.637,2.347,1.6189,0.06,-0.96,0.75,27,-0,2,11247,30,83,18,48,766,789.0,300,300,60,119.0,242,0,472,474,195,0,0,0,0,0,0,,,,,
123623,1551438820623,1.877,2.421,1.727,-0.0,-1.0,0.5,27,-3,3,11247,30,83,18,48,766,789.0,300,300,60,119.0,242,0,472,474,195,0,0,0,0,0,0,,,,,
123643,1551438820643,1.763,2.426,1.6252,0.13,-1.01,0.37,27,-2,5,11247,30,83,18,48,766,789.0,300,300,60,119.0,242,0,472,474,195,0,0,0,0,0,0,45.84581,5.180001,48.18,724.2,0.538
123663,1551438820663,1.648,2.49,1.6893,0.12,-1.11,0.53,27,-4,5,11247,30,83,18,48,766,789.0,300,300,60,119.0,242,0,472,474,195,0,0,0,0,0,0,,,,,
123683,1551438820683,1.736,2.382,1.6453,0.15,-1.19,0.67,27,-5,3,10434,30,83,18,54,811,802.0,300,300,60,118.0,255,0,469,542,204,0,0,0,0,0,0,,,,,
123703,1551438820701,2.081,2.515,1.7069,0.18,-1.13,0.8,26,-6,3,10434,30,83,18,54,811,802.0,300,300,60,118.0,255,0,469,542,204,0,0,0,0,0,0,,,,,
123723,1551438820721,1.775,2.455,1.6943,0.31,-1.11,0.92,26,-7,4,10434,30,83,18,54,811,802.0,300,300,60,118.0,255,0,469,542,204,0,0,0,0,0,0,,,,,
123743,1551438820741,1.738,2.47,1.6239,0.24,-1.12,1.03,25,-11,6,10434,30,83,18,54,811,802.0,300,300,60,118.0,255,0,469,542,204,0,0,0,0,0,0,45.845795,5.179984,47.94,724.2,0.54
123763,1551438820761,1.724,2.431,1.6654,0.32,-1.17,1.12,25,-9,7,10434,30,83,18,54,811,802.0,300,300,60,118.0,255,0,469,542,204,0,0,0,0,0,0,,,,,
123783,1551438820781,1.787,2.503,1.7006,0.32,-1.08,0.81,25,-11,8,10659,30,83,18,54,1074,784.0,300,300,60,119.0,277,0,477,529,219,0,0,0,0,0,0,,,,,
123803,1551438820803,1.805,2.427,1.6189,0.42,-1.11,0.52,25,-8,9,10659,30,83,18,54,1074,784.0,300,300,60,119.0,277,0,477,529,219,0,0,0,0,0,0,,,,,
123823,1551438820823,1.748,2.389,1.5171,0.44,-1.09,0.27,25,-6,8,10659,30,83,18,54,1074,784.0,300,300,60,119.0,277,0,477,529,219,0,0,0,0,0,0,,,,,
123843,1551438820843,1.721,2.378,1.6227,0.42,-0.94,0.44,25,-6,7,10659,30,83,18,54,1074,784.0,300,300,60,119.0,277,0,477,529,219,0,0,0,0,0,0,45.845783,5.179966,47.55,724.2,0.541
123863,1551438820863,1.782,2.418,1.6415,0.39,-1.04,0.59,25,-6,7,10659,30,83,18,54,1074,784.0,300,300,60,119.0,277,0,477,529,219,0,0,0,0,0,0,,,,,
123883,1551438820883,1.838,2.436,1.5749,0.41,-0.99,0.33,25,-6,6,10869,30,83,18,52,1177,768.0,300,300,60,119.0,268,0,484,498,210,0,0,0,0,0,0,,,,,
123903,1551438820903,1.809,2.418,1.5825,0.48,-0.97,0.09,25,-4,6,10869,30,83,18,52,1177,768.0,300,300,60,119.0,268,0,484,498,210,0,0,0,0,0,0,,,,,
123923,1551438820923,1.721,2.345,1.5711,0.45,-1.01,0.28,25,-2,4,10869,30,83,18,52,1177,768.0,300,300,60,119.0,268,0,484,498,210,0,0,0,0,0,0,,,,,
123943,1551438820943,1.73,2.342,1.6528,0.38,-0.86,0.45,24,-3,4,10869,30,83,18,52,1177,768.0,300,300,60,119.0,268,0,484,498,210,0,0,0,0,0,0,45.845768,5.179947,46.55,724.2,0.542
123963,1551438820963,1.614,2.397,1.6541,0.38,-0.95,0.6,24,-3,4,10869,30,83,18,52,1177,768.0,300,300,60,119.0,268,0,484,498,210,0,0,0,0,0,0,,,,,
123983,1551438820983,1.845,2.466,1.7044,0.38,-0.91,0.34,23,-4,5,10769,31,83,18,52,911,758.0,300,300,60,120.0,272,0,479,423,208,0,0,0,0,0,0,,,,,
124003,1551438820997,1.823,2.359,1.678,0.41,-0.86,0.33,23,-2,4,10769,31,83,18,52,911,758.0,300,300,60,120.0,272,0,479,423,208,0,0,0,0,0,0,,,,,
124023,1551438821017,1.79,2.354,1.6642,0.42,-0.91,0.49,23,-1,5,10769,31,83,18,52,911,758.0,300,300,60,120.0,272,0,479,423,208,0,0,0,0,0,0,,,,,
124043,1551438821037,1.679,2.377,1.7207,0.23,-0.97,0.45,23,-3,6,10769,31,83,18,52,911,758.0,300,300,60,120.0,272,0,479,423,208,0,0,0,0,0,0,45.845756,5.179928,45.92,724.2,0.543
124063,1551438821057,1.682,2.411,1.6742,0.28,-0.85,0.6,23,-2,4,10769,31,83,18,52,911,758.0,300,300,60,120.0,272,0,479,423,208,0,0,0,0,0,0,,,,,
124083,1551438821077,1.836,2.427,1.6755,0.34,-0.87,0.43,23,0,4,11308,32,83,18,48,851,752.0,300,300,60,118.0,267,0,464,380,202,0,0,0,0,0,0,,,,,
124103,1551438821103,1.678,2.378,1.7232,0.35,-0.86,0.3,23,-1,4,11308,32,83,18,48,851,752.0,300,300,60,118.0,267,0,464,380,202,0,0,0,0,0,0,,,,,
124123,1551438821123,1.779,2.471,1.6365,0.35,-0.98,0.47,22,1,3,11308,32,83,18,48,851,752.0,300,300,60,118.0,267,0,464,380,202,0,0,0,0,0,0,,,,,
124143,1551438821143,1.722,2.504,1.8188,0.25,-0.93,0.46,22,-0,2,11308,32,83,18,48,851,752.0,300,300,60,118.0,267,0,464,380,202,0,0,0,0,0,0,45.845745,5.179908,45.23,724.2,0.545
124163,1551438821163,1.692,2.432,1.8175,0.28,-0.91,0.21,22,0,4,11308,32,83,18,48,851,752.0,300,300,60,118.0,267,0,464,380,202,0,0,0,0,0,0,,,,,
124183,1551438821183,1.858,2.406,1.7182,0.27,-0.92,-0.01,21,-0,5,10782,33,83,18,48,725,745.0,300,300,60,119.0,266,0,474,400,197,0,0,0,0,0,0,,,,,
124203,1551438821203,1.823,2.349,1.7094,0.22,-0.8,0.18,21,2,4,10782,33,83,18,48,725,745.0,300,300,60,119.0,266,0,474,400,197,0,0,0,0,0,0,,,,,
124223,1551438821223,1.461,2.387,1.5686,0.25,-0.92,0.36,21,2,3,10782,33,83,18,48,725,745.0,300,300,60,119.0,266,0,474,400,197,0,0,0,0,0,0,,,,,
124243,1551438821243,1.755,2.428,1.732,0.17,-0.76,0.12,21,-0,2,10782,33,83,18,48,725,745.0,300,300,60,119.0,266,0,474,400,197,0,0,0,0,0,0,45.845734,5.179887,45.28,724.3,0.546
124263,1551438821263,1.762,2.436,1.7144,0.21,-0.74,0.09,20,1,3,10782,33,83,18,48,725,745.0,300,300,60,119.0,266,0,474,400,197,0,0,0,0,0,0,,,,,
124283,1551438821283,1.719,2.392,1.6491,0.21,-0.79,0.21,20,1,3,10882,35,83,18,50,727,741.0,300,300,60,120.0,265,0,473,466,198,0,0,0,0,0,0,,,,,
124303,1551438821303,1.569,2.335,1.6968,0.09,-0.77,0.39,20,-0,3,10882,35,83,18,50,727,741.0,300,300,60,120.0,265,0,473,466,198,0,0,0,0,0,0,,,,,
124323,1551438821323,1.678,2.43,1.8225,0.2,-0.63,0.15,19,-1,3,10882,35,83,18,50,727,741.0,300,300,60,120.0,265,0,473,466,198,0,0,0,0,0,0,,,,,
124343,1551438821343,1.752,2.436,1.7308,0.23,-0.65,0.02,19,0,3,10882,35,83,18,50,727,741.0,300,300,60,120.0,265,0,473,466,198,0,0,0,0,0,0,45.845722,5.179866,45.23,724.4,0.547
124363,1551438821363,1.807,2.402,1.6642,0.15,-0.67,0.22,19,2,2,10977,35,83,18,50,727,741.0,300,300,60,120.0,265,0,473,466,198,0,0,0,0,0,0,,,,,
124383,1551438821383,1.493,2.453,1.7672,0.27,-0.71,0.18,19,3,2,10977,35,83,18,51,722,753.0,300,300,60,119.0,257,0,477,384,193,0,0,0,0,0,0,,,,,
124403,1551438821403,1.777,2.462,1.7383,0.22,-0.71,-0.04,18,1,4,10977,35,83,18,51,722,753.0,300,300,60,119.0,257,0,477,384,193,0,0,0,0,0,0,,,,,
124423,1551438821423,1.8,2.398,1.7358,0.18,-0.6,0.16,18,3,3,10977,35,83,18,51,722,753.0,300,300,60,119.0,257,0,477,384,193,0,0,0,0,0,0,,,,,
124443,1551438821443,1.555,2.34,1.7031,0.19,-0.72,0.34,18,2,1,10977,35,83,18,51,722,753.0,300,300,60,119.0,257,0,477,384,193,0,0,0,0,0,0,45.845711,5.179845,45.2,724.4,0.549
124463,1551438821463,1.629,2.491,1.7484,0.16,-0.65,0.11,17,0,1,10977,35,83,18,51,722,753.0,300,300,60,119.0,257,0,477,384,193,0,0,0,0,0,0,,,,,
124483,1551438821483,1.727,2.426,1.7961,0.12,-0.71,0.29,17,3,3,10990,36,83,18,51,750,757.0,300,300,60,119.0,255,0,475,465,193,0,0,0,0,0,0,,,,,
124503,1551438821502,1.726,2.353,1.7107,0.23,-0.72,0.46,17,3,2,10990,36,83,18,51,750,757.0,300,300,60,119.0,255,0,475,465,193,0,0,0,0,0,0,,,,,
124523,1551438821522,1.731,2.422,1.7069,0.1,-0.68,0.29,17,-2,3,10990,36,83,18,51,750,757.0,300,300,60,119.0,255,0,475,465,193,0,0,0,0,0,0,,,,,
124543,1551438821542,1.745,2.369,1.7421,0.19,-0.55,0.11,17,1,2,10990,36,83,18,51,750,757.0,300,300,60,119.0,255,0,475,465,193,0,0,0,0,0,0,45.845703,5.179823,45.26,724.4,0.55
124563,1551438821562,1.714,2.35,1.6528,0.19,-0.69,0.3,18,0,1,10990,36,83,18,51,750,757.0,300,300,60,119.0,255,0,475,465,193,0,0,0,0,0,0,,,,,
124583,1551438821582,1.738,2.436,1.7371,0.13,-0.57,0.07,18,-1,1,10990,36,83,18,52,772,748.0,300,300,60,119.0,256,0,475,465,192,0,0,0,0,0,0,,,,,
124603,1551438821602,1.789,2.509,1.7195,0.11,-0.62,0.26,19,3,0,10990,36,83,18,52,772,748.0,300,300,60,119.0,256,0,475,465,192,0,0,0,0,0,0,,,,,
124623,1551438821622,1.728,2.446,1.7547,0.23,-0.68,0.4,19,3,1,10990,36,83,18,52,772,748.0,300,300,60,119.0,256,0,475,465,192,0,0,0,0,0,0,,,,,
124643,1551438821642,1.738,2.441,1.7421,0.1,-0.68,0.17,19,1,2,10990,36,83,18,52,772,748.0,300,300,60,119.0,256,0,475,465,192,0,0,0,0,0,0,45.845692,5.179801,45.6,724.4,0.551
124663,1551438821662,1.814,2.299,1.7132,0.07,-0.61,0.35,19,3,1,10990,36,83,18,52,772,748.0,300,300,60,119.0,256,0,475,465,192,0,0,0,0,0,0,,,,,
124683,1551438821682,1.688,2.342,1.7006,0.12,-0.69,0.51,19,1,-0,11042,37,83,18,52,760,753.0,300,300,60,119.0,251,0,472,459,190,0,0,0,0,0,0,,,,,
124703,1551438821702,1.753,2.459,1.678,0.11,-0.64,0.26,19,-0,0,11042,37,83,18,52,760,753.0,300,300,60,119.0,251,0,472,459,190,0,0,0,0,0,0,,,,,
124723,1551438821722,1.771,2.437,1.7169,0.02,-0.71,0.43,20,0,-0,11042,37,83,18,52,760,753.0,300,300,60,119.0,251,0,472,459,190,0,0,0,0,0,0,,,,,
124743,1551438821742,1.853,2.459,1.7672,0.12,-0.69,0.24,20,1,2,11042,37,83,18,52,760,753.0,300,300,60,119.0,251,0,472,459,190,0,0,0,0,0,0,45.845684,5.179778,45.62,724.5,0.552
124763,1551438821762,1.817,2.399,1.6126,0.16,-0.8,0.21,21,2,1,11042,37,83,18,52,760,753.0,300,300,60,119.0,251,0,472,459,190,0,0,0,0,0,0,,,,,
124783,1551438821782,1.53,2.446,1.7697,0.05,-0.84,0.12,22,0,3,11167,38,83,18,52,765,771.0,300,300,60,119.0,249,0,461,439,190,0,0,0,0,0,0,,,,,
124803,1551438821802,1.806,2.354,1.7471,0.11,-0.74,0.07,22,3,3,11167,38,83,18,52,765,771.0,300,300,60,119.0,249,0,461,439,190,0,0,0,0,0,0,,,,,
124823,1551438821822,1.746,2.391,1.766,0.11,-0.84,0.26,22,2,2,11167,38,83,18,52,765,771.0,300,300,60,119.0,249,0,461,439,190,0,0,0,0,0,0,,,,,
124843,1551438821842,1.731,2.373,1.5975,0.09,-0.83,0.03,22,1,1,11167,38,83,18,52,765,771.0,300,300,60,119.0,249,0,461,439,190,0,0,0,0,0,0,45.845673,5.179755,45.78,724.5,0.554
124863,1551438821862,1.732,2.433,1.7823,0.01,-0.88,0.22,22,-1,1,11167,38,83,18,52,765,771.0,300,300,60,119.0,249,0,461,439,190,0,0,0,0,0,0,,,,,
124883,1551438821882,1.893,2.466,1.7584,0.11,-0.85,0.3,23,2,2,11187,39,83,18,53,778,757.0,300,300,60,118.0,244,0,460,439,186,0,0,0,0,0,0,,,,,
124903,1551438821902,1.784,2.396,1.6667,0.23,-0.87,0.26,23,2,3,11187,39,83,18,53,778,757.0,300,300,60,118.0,244,0,460,439,186,0,0,0,0,0,0,,,,,
124923,1551438821922,1.815,2.452,1.6968,0.16,-0.87,0.06,23,0,3,11187,39,83,18,53,778,757.0,300,300,60,118.0,244,0,460,439,186,0,0,0,0,0,0,,,,,
124943,1551438821942,1.643,2.369,1.7069,0.1,-0.83,0.25,24,1,3,11187,39,83,18,53,778,757.0,300,300,60,118.0,244,0,460,439,186,0,0,0,0,0,0,45.845669,5.179731,45.93,724.4,0.555
124963,1551438821962,1.893,2.345,1.8414,0.21,-0.65,0.11,24,4,3,11187,39,83,18,53,778,757.0,300,300,60,118.0,244,0,460,439,186,0,0,0,0,0,0,,,,,
124983,1551438821982,1.718,2.371,1.7371,0.2,-0.78,0.3,24,3,2,11405,42,83,18,55,800,762.0,300,300,60,119.0,244,0,446,351,185,0,0,0,0,0,0,,,,,
125003,1551438821996,1.51,2.391,1.59,0.2,-0.9,0.47,25,3,1,11405,42,83,18,55,800,762.0,300,300,60,119.0,244,0,446,351,185,0,0,0,0,0,0,,,,,
125023,1551438822016,1.742,2.528,1.7823,0.08,-0.89,0.4,24,1,2,11405,42,83,18,55,800,762.0,300,300,60,119.0,244,0,446,351,185,0,0,0,0,0,0,,,,,
125043,1551438822036,1.696,2.396,1.727,0.08,-0.94,0.5,24,3,2,11405,42,83,18,55,800,762.0,300,300,60,119.0,244,0,446,351,185,0,0,0,0,0,0,45.845657,5.179707,46.21,724.4,0.556
125063,1551438822056,1.986,2.359,1.7898,0.24,-0.91,0.27,24,3,3,11405,42,83,18,55,800,762.0,300,300,60,119.0,244,0,446,351,185,0,0,0,0,0,0,,,,,
125083,1551438822076,1.86,2.358,1.6742,0.23,-1.01,0.24,24,4,3,11281,44,84,18,57,823,775.0,300,300,60,119.0,244,0,454,451,190,0,0,0,0,0,0,,,,,
125103,1551438822102,1.718,2.453,1.7371,0.16,-0.98,0.32,24,1,4,11281,44,84,18,57,823,775.0,300,300,60,119.0,244,0,454,451,190,0,0,0,0,0,0,,,,,
125123,1551438822122,1.763,2.443,1.7823,0.07,-0.89,0.48,24,-0,4,11281,44,84,18,57,823,775.0,300,300,60,119.0,244,0,454,451,190,0,0,0,0,0,0,,,,,
125143,1551438822142,1.912,2.389,1.6792,0.17,-0.68,0.37,24,3,3,11281,44,84,18,57,823,775.0,300,300,60,119.0,244,0,454,451,190,0,0,0,0,0,0,45.845654,5.179682,46.41,724.3,0.557
125163,1551438822162,1.667,2.44,1.7873,0.19,-0.72,0.53,24,3,2,11281,44,84,18,57,823,775.0,300,300,60,119.0,244,0,454,451,190,0,0,0,0,0,0,,,,,
125183,1551438822182,1.603,2.386,1.7672,0.2,-0.85,0.59,24,2,2,11453,46,84,18,59,873,777.0,300,300,60,119.0,250,0,443,455,194,0,0,0,0,0,0,,,,,
125203,1551438822203,1.802,2.402,1.7283,0.18,-0.74,0.33,24,3,2,11453,46,84,18,59,873,777.0,300,300,60,119.0,250,0,443,455,194,0,0,0,0,0,0,,,,,
125223,1551438822223,1.743,2.45,1.8062,0.08,-0.75,0.31,24,1,2,11453,46,84,18,59,873,777.0,300,300,60,119.0,250,0,443,455,194,0,0,0,0,0,0,,,,,
125243,1551438822243,1.521,2.416,1.7471,-0.0,-0.84,0.47,24,2,1,11453,46,84,18,59,873,777.0,300,300,60,119.0,250,0,443,455,194,0,0,0,0,0,0,45.845646,5.179656,46.92,724.2,0.559
125263,1551438822263,1.869,2.428,1.7446,0.1,-0.84,0.62,24,4,3,11453,46,84,18,59,873,777.0,300,300,60,119.0,250,0,443,455,194,0,0,0,0,0,0,,,,,
125283,1551438822283,1.812,2.384,1.776,0.29,-0.85,0.44,24,5,3,11531,47,84,18,60,906,780.0,300,300,60,119.0,255,0,440,459,196,0,0,0,0,0,0,,,,,
125303,1551438822304,1.838,2.451,1.7157,0.33,-0.96,0.43,24,5,2,11531,47,84,18,60,906,780.0,300,300,60,119.0,255,0,440,459,196,0,0,0,0,0,0,,,,,
125323,1551438822324,1.713,2.347,1.6616,0.23,-0.91,0.49,24,6,2,11531,47,84,18,60,906,780.0,300,300,60,119.0,255,0,440,459,196,0,0,0,0,0,0,,,,,
125343,1551438822344,1.745,2.362,1.7722,0.06,-0.88,0.64,24,3,4,11531,47,84,18,60,906,780.0,300,300,60,119.0,255,0,440,459,196,0,0,0,0,0,0,45.845642,5.17963,46.94,724.2,0.56
125363,1551438822364,1.699,2.373,1.7773,0.02,-0.83,0.58,25,1,4,11531,47,84,18,60,906,780.0,300,300,60,119.0,255,0,440,459,196,0,0,0,0,0,0,,,,,
125383,1551438822384,1.738,2.379,1.7006,0.07,-0.77,0.46,25,2,3,11638,47,84,18,60,882,792.0,300,300,60,118.0,254,0,440,376,201,0,0,0,0,0,0,,,,,
125403,1551438822402,1.825,2.393,1.7433,0.14,-0.62,0.45,25,5,3,11638,47,84,18,60,882,792.0,300,300,60,118.0,254,0,440,376,201,0,0,0,0,0,0,,,,,
125423,1551438822422,1.732,2.426,1.8552,0.16,-0.67,0.52,25,5,3,11638,47,84,18,60,882,792.0,300,300,60,118.0,254,0,440,376,201,0,0,0,0,0,0,,,,,
125443,1551438822442,1.732,2.386,1.7873,0.22,-0.8,0.62,26,3,3,11638,47,84,18,60,882,792.0,300,300,60,118.0,254,0,440,376,201,0,0,0,0,0,0,45.845638,5.179604,47.35,724.1,0.561
125463,1551438822462,1.652,2.42,1.6905,0.21,-0.92,0.75,26,2,2,11638,47,84,18,60,882,792.0,300,300,60,118.0,254,0,440,376,201,0,0,0,0,0,0,,,,,
125483,1551438822482,1.849,2.441,1.6428,0.22,-0.87,0.62,27,4,1,11638,45,84,18,59,870,801.0,300,300,60,118.0,249,0,440,363,199,0,0,0,0,0,0,,,,,
125503,1551438822501,1.873,2.426,1.7283,0.15,-0.87,0.36,26,2,2,11638,45,84,18,59,870,801.0,300,300,60,118.0,249,0,440,363,199,0,0,0,0,0,0,,,,,
125523,1551438822521,2.014,2.453,1.8301,0.05,-0.92,0.12,26,-1,3,11638,45,84,18,59,870,801.0,300,300,60,118.0,249,0,440,363,199,0,0,0,0,0,0,,,,,
