"Interval"|"ms"|0|0|1,"Utc"|"ms"|0|0|1,"AccelAvantX"|"G"|0.0|10.0|50,"AccelAvantZ"|"G"|0.0|10.0|50,"AccelAvantY"|"G"|0.0|10.0|50,"AccelX"|"G"|-3.0|3.0|50,"AccelY"|"G"|-3.0|3.0|50,"AccelZ"|"G"|-3.0|3.0|50,"Yaw"|"Deg/Sec"|-120|120|50,"Pitch"|"Deg/Sec"|-120|120|50,"Roll"|"Deg/Sec"|-120|120|50,"RPM"|""|0|14000|50,"TPS"|"%"|0|100|50,"WaterTemp"|"?C"|0|300|50,"AirTemp"|"?C"|-1000|1000|50,"MAP"|"KPa"|0|255|50,"Lambda"|""|0|1024|50,"WheelSpeed"|"MPH"|0.0|150.0|50,"OilPress"|"PSI"|0|150|50,"FuelPress"|"PSI"|0|150|50,"OilTemp"|"F"|0|300|50,"Battery"|"Volts"|0.0|20.0|50,"FuelCon"|"L/h"|-1000|1000|50,"Gear"|""|0|10|50,"Advance"|"Deg"|-360|360|50,"Injection"|"ms"|-1000|1000|50,"FuelCon"|"L/100km"|-1000|1000|50,"LC_But_Pres"|""|-1000|1000|50,"LC_Active"|""|-1000|1000|50,"RD_Speed"|""|-1000|1000|50,"RUD_Speed"|""|-1000|1000|50,"LD_Speed"|""|-1000|1000|50,"LUD_Speed"|""|-1000|1000|50,"Latitude"|"Degrees"|-180.0|180.0|10,"Longitude"|"Degrees"|-180.0|180.0|10,"Speed"|"MPH"|0.0|150.0|10,"Altitude"|"ft"|0.0|4000.0|10,"Distance"|"mi"|0.0|0.0|10
13603,0,1.51,2.407,1.7056,0.13,0.05,0.97,0,-0,-0,1626,0,81,24,91,515,0.0,300,300,60,112.0,0,0,28,410,25,0,0,0,0,0,0,,,,,
13623,0,1.513,2.415,1.6993,0.14,0.04,0.98,0,-0,-0,1626,0,81,24,91,515,0.0,300,300,60,112.0,0,0,28,410,25,0,0,0,0,0,0,,,,,
13643,0,1.498,2.398,1.6993,0.13,0.04,1.03,-0,-0,-0,1626,0,81,24,91,515,0.0,300,300,60,112.0,0,0,28,410,25,0,0,0,0,0,0,0.0,0.0,0.0,0.0,0.0
13663,0,1.525,2.396,1.7031,0.13,0.05,1.0,0,-0,-0,1722,0,81,24,91,515,0.0,300,300,60,112.0,0,0,28,402,26,0,0,0,0,0,0,,,,,
13683,0,1.513,2.412,1.7132,0.14,0.04,0.99,-0,-0,-0,1722,0,81,24,91,515,0.0,300,300,60,112.0,0,0,28,402,26,0,0,0,0,0,0,,,,,
13703,0,1.502,2.408,1.6943,0.15,0.04,1.03,-0,0,-0,1722,0,81,24,91,515,0.0,300,300,60,112.0,0,0,28,402,26,0,0,0,0,0,0,,,,,
13723,0,1.518,2.423,1.678,0.15,0.03,1.02,-0,0,-0,1722,0,81,24,91,515,0.0,300,300,60,112.0,0,0,28,402,26,0,0,0,0,0,0,,,,,
13743,0,1.516,2.412,1.683,0.15,0.04,0.99,0,0,-0,1722,0,81,24,91,515,0.0,300,300,60,112.0,0,0,28,402,26,0,0,0,0,0,0,0.0,0.0,0.0,0.0,0.0
13763,0,1.513,2.416,1.7107,0.16,0.04,0.95,-0,-0,-0,1741,0,81,24,90,511,0.0,300,300,60,110.0,0,0,28,400,26,0,0,0,0,0,0,,,,,
13783,0,1.512,2.408,1.7081,0.15,0.04,0.96,-0,-0,-0,1741,0,81,24,90,511,0.0,300,300,60,110.0,0,0,28,400,26,0,0,0,0,0,0,,,,,
13803,0,1.51,2.412,1.7031,0.16,0.04,0.96,-0,-0,-0,1741,0,81,24,90,511,0.0,300,300,60,110.0,0,0,28,400,26,0,0,0,0,0,0,,,,,
13823,0,1.512,2.406,1.7006,0.15,0.04,0.98,-0,-0,-0,1741,0,81,24,90,511,0.0,300,300,60,110.0,0,0,28,400,26,0,0,0,0,0,0,,,,,
13843,0,1.525,2.401,1.7182,0.15,0.03,0.97,-0,-1,-0,1741,0,81,24,90,511,0.0,300,300,60,110.0,0,0,28,400,26,0,0,0,0,0,0,0.0,0.0,0.0,0.0,0.0
13863,0,1.512,2.404,1.688,0.14,0.03,0.98,-0,-0,-0,1812,0,81,24,91,512,0.0,300,300,60,112.0,0,0,28,393,27,0,0,0,0,0,0,,,,,
13883,0,1.507,2.42,1.683,0.14,0.03,0.96,-0,-0,-0,1812,0,81,24,91,512,0.0,300,300,60,112.0,0,0,28,393,27,0,0,0,0,0,0,,,,,
13903,0,1.506,2.407,1.6893,0.15,0.02,0.94,-0,-0,-0,1812,0,81,24,91,512,0.0,300,300,60,112.0,0,0,28,393,27,0,0,0,0,0,0,,,,,
13923,0,1.512,2.418,1.7069,0.15,0.01,0.95,-0,-0,-0,1812,0,81,24,91,512,0.0,300,300,60,112.0,0,0,28,393,27,0,0,0,0,0,0,,,,,
13943,0,1.528,2.412,1.7019,0.14,0.01,0.95,-0,-1,-0,1812,0,81,24,91,512,0.0,300,300,60,112.0,0,0,28,393,27,0,0,0,0,0,0,0.0,0.0,0.0,0.0,0.0
13963,0,1.521,2.411,1.6981,0.16,0.01,0.94,0,-0,-0,1764,0,81,24,91,517,0.0,300,300,60,112.0,0,0,28,398,26,0,0,0,0,0,0,,,,,
13983,0,1.515,2.412,1.673,0.15,0.02,0.94,0,-0,-0,1764,0,81,24,91,517,0.0,300,300,60,112.0,0,0,28,398,26,0,0,0,0,0,0,,,,,
14003,0,1.515,2.412,1.6981,0.15,0.02,0.92,0,-0,-0,1764,0,81,24,91,517,0.0,300,300,60,112.0,0,0,28,398,26,0,0,0,0,0,0,,,,,
14023,0,1.513,2.408,1.7056,0.14,0.02,0.94,0,-0,-0,1764,0,81,24,91,517,0.0,300,300,60,112.0,0,0,28,398,26,0,0,0,0,0,0,,,,,
14043,0,1.489,2.418,1.7157,0.15,0.04,0.91,0,-1,-0,1764,0,81,24,91,517,0.0,300,300,60,112.0,0,0,28,398,26,0,0,0,0,0,0,0.0,0.0,0.0,0.0,0.0
14063,0,1.522,2.398,1.6767,0.15,0.05,0.93,0,-0,-0,1886,0,80,24,90,512,0.0,300,300,60,112.0,0,0,27,387,27,0,0,0,0,0,0,,,,,
14083,0,1.498,2.418,1.7119,0.14,0.04,0.93,0,-0,-0,1886,0,80,24,90,512,0.0,300,300,60,112.0,0,0,27,387,27,0,0,0,0,0,0,,,,,
14103,0,1.515,2.396,1.7207,0.15,0.04,0.97,0,-0,-0,1886,0,80,24,90,512,0.0,300,300,60,112.0,0,0,27,387,27,0,0,0,0,0,0,,,,,
14123,0,1.517,2.402,1.6767,0.15,0.05,0.99,0,0,-0,1886,0,80,24,90,512,0.0,300,300,60,112.0,0,0,27,387,27,0,0,0,0,0,0,,,,,
14143,0,1.503,2.397,1.7119,0.14,0.04,1.04,0,-0,-0,1886,0,80,24,90,512,0.0,300,300,60,112.0,0,0,27,387,27,0,0,0,0,0,0,0.0,0.0,0.0,0.0,0.0
14163,0,1.518,2.397,1.6805,0.13,0.06,1.08,0,0,-0,2196,0,80,24,87,516,0.0,300,300,60,113.0,0,0,23,366,30,0,0,0,0,0,0,,,,,
14183,0,1.505,2.402,1.7157,0.11,0.05,1.09,0,-0,-1,2196,0,80,24,87,516,0.0,300,300,60,113.0,0,0,23,366,30,0,0,0,0,0,0,,,,,
14203,0,1.54,2.399,1.7069,0.12,0.07,1.1,0,0,-1,2196,0,80,24,87,516,0.0,300,300,60,113.0,0,0,23,366,30,0,0,0,0,0,0,,,,,
14223,0,1.505,2.415,1.7132,0.11,0.07,1.08,0,0,-0,2196,0,80,24,87,516,0.0,300,300,60,113.0,0,0,23,366,30,0,0,0,0,0,0,,,,,
14243,0,1.526,2.396,1.6905,0.12,0.07,1.04,0,1,-0,2196,0,80,24,87,516,0.0,300,300,60,113.0,0,0,23,366,30,0,0,0,0,0,0,0.0,0.0,0.0,0.0,0.0
14263,0,1.502,2.413,1.7044,0.08,0.09,1.1,0,-0,-0,2393,0,80,24,85,514,0.0,300,300,60,113.0,0,0,17,354,31,0,0,0,0,0,0,,,,,
14283,0,1.526,2.397,1.6767,0.08,0.09,1.07,0,-0,-0,2393,0,80,24,85,514,0.0,300,300,60,113.0,0,0,17,354,31,0,0,0,0,0,0,,,,,
14303,0,1.494,2.435,1.6905,0.06,0.1,1.02,-0,-2,-0,2393,0,80,24,85,514,0.0,300,300,60,113.0,0,0,17,354,31,0,0,0,0,0,0,,,,,
14323,0,1.516,2.381,1.6855,0.08,0.12,1.04,-0,-1,-0,2393,0,80,24,85,514,0.0,300,300,60,113.0,0,0,17,354,31,0,0,0,0,0,0,,,,,
14343,0,1.508,2.451,1.6805,0.1,0.11,0.98,-0,-1,-0,2393,0,80,24,85,514,0.0,300,300,60,113.0,0,0,17,354,31,0,0,0,0,0,0,0.0,0.0,0.0,0.0,0.0
14363,0,1.502,2.372,1.7019,0.07,0.1,1.06,-0,-1,-0,2527,0,80,24,82,512,0.0,300,300,60,113.0,0,0,10,347,32,0,0,0,0,0,0,,,,,
14383,0,1.515,2.432,1.683,0.08,0.1,1.04,-0,-0,-0,2527,0,80,24,82,512,0.0,300,300,60,113.0,0,0,10,347,32,0,0,0,0,0,0,,,,,
14403,0,1.496,2.42,1.6943,0.11,0.07,0.98,-0,-2,0,2527,0,80,24,82,512,0.0,300,300,60,113.0,0,0,10,347,32,0,0,0,0,0,0,,,,,
14423,0,1.513,2.404,1.7094,0.13,0.07,0.96,0,-0,0,2527,0,80,24,82,512,0.0,300,300,60,113.0,0,0,10,347,32,0,0,0,0,0,0,,,,,
14443,0,1.503,2.43,1.6805,0.14,0.06,0.9,0,-0,0,2527,0,80,24,82,512,0.0,300,300,60,113.0,0,0,10,347,32,0,0,0,0,0,0,0.0,0.0,0.0,0.0,0.0
14463,0,1.51,2.421,1.6968,0.13,0.02,0.9,-0,-1,0,2532,0,80,24,81,508,0.0,300,300,60,111.0,0,0,3,347,32,0,0,0,0,0,0,,,,,
14483,0,1.516,2.404,1.7094,0.14,0.02,0.94,0,-1,0,2532,0,80,24,81,508,0.0,300,300,60,111.0,0,0,3,347,32,0,0,0,0,0,0,,,,,
14503,0,1.511,2.426,1.7019,0.15,0.04,0.99,0,-0,-0,2532,0,80,24,81,508,0.0,300,300,60,111.0,0,0,3,347,32,0,0,0,0,0,0,,,,,
14523,0,1.512,2.392,1.7195,0.13,0.02,1.03,0,0,-0,2532,0,80,24,81,508,0.0,300,300,60,111.0,0,0,3,347,32,0,0,0,0,0,0,,,,,
14543,0,1.501,2.407,1.6817,0.13,0.01,1.0,0,1,-0,2532,0,80,24,81,508,0.0,300,300,60,111.0,0,0,3,347,32,0,0,0,0,0,0,0.0,0.0,0.0,0.0,0.0
14563,0,1.491,2.412,1.7069,0.13,-0.0,0.95,0,-1,0,2437,0,80,24,81,500,0.0,300,300,60,110.0,0,0,-4,351,32,0,0,0,0,0,0,,,,,
14583,0,1.507,2.394,1.7069,0.13,0.01,0.96,0,-0,0,2437,0,80,24,81,500,0.0,300,300,60,110.0,0,0,-4,351,32,0,0,0,0,0,0,,,,,
14603,0,1.507,2.435,1.6968,0.14,0.02,1.02,0,0,-0,2437,0,80,24,81,500,0.0,300,300,60,110.0,0,0,-4,351,32,0,0,0,0,0,0,,,,,
14623,0,1.51,2.388,1.7119,0.13,0.0,1.03,0,1,-0,2437,0,80,24,81,500,0.0,300,300,60,110.0,0,0,-4,351,32,0,0,0,0,0,0,,,,,
14643,0,1.503,2.408,1.6792,0.13,-0.0,0.99,0,1,-0,2437,0,80,24,81,500,0.0,300,300,60,110.0,0,0,-4,351,32,0,0,0,0,0,0,0.0,0.0,0.0,0.0,0.0
14663,0,1.497,2.412,1.7031,0.11,0.01,0.96,-0,-0,-0,2428,0,80,24,80,507,0.0,300,300,60,111.0,0,0,-11,352,32,0,0,0,0,0,0,,,,,
14683,0,1.515,2.399,1.6968,0.12,0.01,0.97,0,0,-0,2428,0,80,24,80,507,0.0,300,300,60,111.0,0,0,-11,352,32,0,0,0,0,0,0,,,,,
14703,0,1.52,2.437,1.7069,0.14,0.02,1.02,0,-0,-0,2428,0,80,24,80,507,0.0,300,300,60,111.0,0,0,-11,352,32,0,0,0,0,0,0,,,,,
14723,0,1.522,2.399,1.7107,0.15,0.01,1.01,0,1,-0,2428,0,80,24,80,507,0.0,300,300,60,111.0,0,0,-11,352,32,0,0,0,0,0,0,,,,,
14743,0,1.51,2.43,1.688,0.15,0.01,1.0,0,1,-0,2428,0,80,24,80,507,0.0,300,300,60,111.0,0,0,-11,352,32,0,0,0,0,0,0,0.0,0.0,0.0,0.0,0.0
14763,0,1.517,2.402,1.6993,0.1,0.03,1.04,0,1,-0,2398,0,80,24,81,512,0.0,300,300,60,112.0,0,0,-18,354,31,0,0,0,0,0,0,,,,,
14783,0,1.515,2.416,1.6855,0.11,0.05,1.0,0,1,-0,2398,0,80,24,81,512,0.0,300,300,60,112.0,0,0,-18,354,31,0,0,0,0,0,0,,,,,
14803,0,1.502,2.417,1.6993,0.14,0.03,0.95,0,-0,0,2398,0,80,24,81,512,0.0,300,300,60,112.0,0,0,-18,354,31,0,0,0,0,0,0,,,,,
14823,0,1.515,2.392,1.7031,0.16,0.04,0.95,0,1,0,2398,0,80,24,81,512,0.0,300,300,60,112.0,0,0,-18,354,31,0,0,0,0,0,0,,,,,
14843,0,1.491,2.43,1.6855,0.17,0.03,0.92,0,1,-0,2398,0,80,24,81,512,0.0,300,300,60,112.0,0,0,-18,354,31,0,0,0,0,0,0,0.0,0.0,0.0,0.0,0.0
14863,0,1.522,2.392,1.7044,0.12,0.05,1.01,0,1,-0,2419,0,79,24,81,514,0.0,300,300,60,117.0,0,0,-25,352,32,0,0,0,0,0,0,,,,,
14883,0,1.511,2.411,1.6792,0.13,0.06,0.97,0,1,-0,2419,0,79,24,81,514,0.0,300,300,60,117.0,0,0,-25,352,32,0,0,0,0,0,0,,,,,
14903,0,1.499,2.427,1.6993,0.15,0.04,0.91,0,-0,0,2419,0,79,24,81,514,0.0,300,300,60,117.0,0,0,-25,352,32,0,0,0,0,0,0,,,,,
14923,0,1.522,2.388,1.6968,0.17,0.04,0.89,0,1,0,2419,0,79,24,81,514,0.0,300,300,60,117.0,0,0,-25,352,32,0,0,0,0,0,0,,,,,
14943,0,1.503,2.435,1.6918,0.19,0.05,0.9,0,1,-0,2419,0,79,24,81,514,0.0,300,300,60,117.0,0,0,-25,352,32,0,0,0,0,0,0,0.0,0.0,0.0,0.0,0.0
14963,0,1.502,2.392,1.6931,0.16,0.04,0.99,0,1,-0,2417,0,79,24,81,518,0.0,300,300,60,117.0,0,0,-32,352,32,0,0,0,0,0,0,,,,,
14983,0,1.51,2.42,1.6868,0.16,0.05,0.95,0,1,-0,2417,0,79,24,81,518,0.0,300,300,60,117.0,0,0,-32,352,32,0,0,0,0,0,0,,,,,
15003,0,1.503,2.427,1.7069,0.15,0.04,0.88,0,-0,0,2417,0,79,24,81,518,0.0,300,300,60,117.0,0,0,-32,352,32,0,0,0,0,0,0,,,,,
15023,0,1.52,2.393,1.6855,0.17,0.06,0.9,0,0,0,2417,0,79,24,81,518,0.0,300,300,60,117.0,0,0,-32,352,32,0,0,0,0,0,0,,,,,
15043,0,1.515,2.44,1.6981,0.2,0.05,0.91,0,0,-0,2417,0,79,24,81,518,0.0,300,300,60,117.0,0,0,-32,352,32,0,0,0,0,0,0,0.0,0.0,0.0,0.0,0.0
15063,0,1.505,2.393,1.7056,0.2,0.04,0.9,0,1,-0,2345,0,79,24,81,512,0.0,300,300,60,117.0,0,0,-38,357,31,0,0,0,0,0,0,,,,,
15083,0,1.493,2.441,1.6918,0.19,0.04,0.95,0,1,-0,2345,0,79,24,81,512,0.0,300,300,60,117.0,0,0,-38,357,31,0,0,0,0,0,0,,,,,
15103,0,1.517,2.401,1.7107,0.16,0.03,1.01,0,1,-0,2345,0,79,24,81,512,0.0,300,300,60,117.0,0,0,-38,357,31,0,0,0,0,0,0,,,,,
15123,0,1.522,2.423,1.6855,0.16,0.04,0.97,0,1,-0,2345,0,79,24,81,512,0.0,300,300,60,117.0,0,0,-38,357,31,0,0,0,0,0,0,,,,,
15143,0,1.516,2.411,1.7056,0.13,0.05,0.97,0,0,-0,2345,0,79,24,81,512,0.0,300,300,60,117.0,0,0,-38,357,31,0,0,0,0,0,0,0.0,0.0,0.0,0.0,0.0
15163,0,1.54,2.412,1.678,0.13,0.06,0.93,0,0,-0,2299,0,79,24,82,518,0.0,300,300,60,117.0,0,0,-45,360,31,0,0,0,0,0,0,,,,,
15183,0,1.492,2.418,1.7081,0.11,0.05,0.94,0,-1,-0,2299,0,79,24,82,518,0.0,300,300,60,117.0,0,0,-45,360,31,0,0,0,0,0,0,,,,,
15203,0,1.53,2.387,1.6667,0.11,0.03,0.95,0,-0,-0,2299,0,79,24,82,518,0.0,300,300,60,117.0,0,0,-45,360,31,0,0,0,0,0,0,,,,,
15223,0,1.496,2.437,1.7081,0.09,0.04,0.96,0,-2,0,2299,0,79,24,82,518,0.0,300,300,60,117.0,0,0,-45,360,31,0,0,0,0,0,0,,,,,
15243,0,1.516,2.378,1.6805,0.08,0.04,1.0,0,-1,-0,2299,0,79,24,82,518,0.0,300,300,60,117.0,0,0,-45,360,31,0,0,0,0,0,0,0.0,0.0,0.0,0.0,0.0
15263,0,1.502,2.428,1.7144,0.08,0.04,0.98,0,-1,-0,2125,0,79,24,83,512,0.0,300,300,60,117.0,0,0,-50,370,29,0,0,0,0,0,0,,,,,
15283,0,1.507,2.382,1.7283,0.1,0.0,1.02,0,-1,-0,2125,0,79,24,83,512,0.0,300,300,60,117.0,0,0,-50,370,29,0,0,0,0,0,0,,,,,
15303,0,1.516,2.433,1.6792,0.12,0.01,0.99,0,-0,-0,2125,0,79,24,83,512,0.0,300,300,60,117.0,0,0,-50,370,29,0,0,0,0,0,0,,,,,
15323,0,1.503,2.404,1.7019,0.12,0.02,1.01,0,-1,-0,2125,0,79,24,83,512,0.0,300,300,60,117.0,0,0,-50,370,29,0,0,0,0,0,0,,,,,
15343,0,1.51,2.43,1.6767,0.12,0.02,1.05,0,-0,-0,2125,0,79,24,83,512,0.0,300,300,60,117.0,0,0,-50,370,29,0,0,0,0,0,0,0.0,0.0,0.0,0.0,0.0
15363,0,1.494,2.399,1.6956,0.13,0.02,1.01,0,-0,-0,1978,0,79,24,85,517,0.0,300,300,60,117.0,0,0,-54,378,28,0,0,0,0,0,0,,,,,
15383,0,1.528,2.411,1.7107,0.12,0.01,1.03,0,-1,-0,1978,0,79,24,85,517,0.0,300,300,60,117.0,0,0,-54,378,28,0,0,0,0,0,0,,,,,
15403,0,1.505,2.392,1.7094,0.12,-0.01,1.03,0,-1,-0,1978,0,79,24,85,517,0.0,300,300,60,117.0,0,0,-54,378,28,0,0,0,0,0,0,,,,,
15423,0,1.505,2.408,1.683,0.11,0.0,1.03,0,-1,-0,1978,0,79,24,85,517,0.0,300,300,60,117.0,0,0,-54,378,28,0,0,0,0,0,0,,,,,
15443,0,1.517,2.402,1.6956,0.13,-0.0,0.99,0,-1,-0,1978,0,79,24,85,517,0.0,300,300,60,117.0,0,0,-54,378,28,0,0,0,0,0,0,0.0,0.0,0.0,0.0,0.0
15463,0,1.501,2.407,1.6956,0.12,0.0,1.01,0,-1,-0,1823,0,79,24,86,502,0.0,300,300,60,111.0,0,0,-57,392,27,0,0,0,0,0,0,,,,,
15483,0,1.499,2.404,1.7006,0.12,0.01,1.02,0,-1,-0,1823,0,79,24,86,502,0.0,300,300,60,111.0,0,0,-57,392,27,0,0,0,0,0,0,,,,,
15503,0,1.51,2.402,1.6968,0.12,0.02,1.03,0,-1,-0,1823,0,79,24,86,502,0.0,300,300,60,111.0,0,0,-57,392,27,0,0,0,0,0,0,,,,,
15523,0,1.505,2.408,1.6843,0.12,0.01,1.0,0,-0,-0,1823,0,79,24,86,502,0.0,300,300,60,111.0,0,0,-57,392,27,0,0,0,0,0,0,,,,,
15543,0,1.498,2.412,1.6843,0.13,0.03,0.98,0,-0,-0,1823,0,79,24,86,502,0.0,300,300,60,111.0,0,0,-57,392,27,0,0,0,0,0,0,0.0,0.0,0.0,0.0,0.0
15563,0,1.507,2.41,1.6981,0.15,0.03,0.94,0,-0,-0,1683,0,78,23,89,514,0.0,300,300,60,116.0,0,0,-58,405,26,0,0,0,0,0,0,,,,,
15583,0,1.51,2.412,1.7031,0.16,0.03,0.91,0,-0,-0,1683,0,78,23,89,514,0.0,300,300,60,116.0,0,0,-58,405,26,0,0,0,0,0,0,,,,,
15603,0,1.517,2.407,1.6918,0.17,0.03,0.91,0,-0,-0,1683,0,78,23,89,514,0.0,300,300,60,116.0,0,0,-58,405,26,0,0,0,0,0,0,,,,,
15623,0,1.515,2.407,1.6855,0.18,0.02,0.89,0,0,-0,1683,0,78,23,89,514,0.0,300,300,60,116.0,0,0,-58,405,26,0,0,0,0,0,0,,,,,
15643,0,1.521,2.406,1.6956,0.18,0.01,0.86,0,0,-0,1683,0,78,23,89,514,0.0,300,300,60,116.0,0,0,-58,405,26,0,0,0,0,0,0,0.0,0.0,0.0,0.0,0.0
15663,0,1.512,2.407,1.6943,0.18,0.02,0.86,0,0,-0,1410,0,78,23,90,519,0.0,300,300,60,116.0,0,0,-55,421,23,0,0,0,0,0,0,,,,,
15683,0,1.51,2.42,1.6918,0.17,0.01,0.85,0,0,-0,1410,0,78,23,90,519,0.0,300,300,60,116.0,0,0,-55,421,23,0,0,0,0,0,0,,,,,
15703,0,1.505,2.412,1.7031,0.17,0.0,0.84,0,-0,-0,1410,0,78,23,90,519,0.0,300,300,60,116.0,0,0,-55,421,23,0,0,0,0,0,0,,,,,
15723,0,1.507,2.425,1.678,0.17,0.01,0.85,0,-0,-0,1410,0,78,23,90,519,0.0,300,300,60,116.0,0,0,-55,421,23,0,0,0,0,0,0,,,,,
15743,0,1.503,2.425,1.6993,0.16,0.01,0.86,0,-0,-0,1410,0,78,23,90,519,0.0,300,300,60,116.0,0,0,-55,421,23,0,0,0,0,0,0,0.0,0.0,0.0,0.0,0.0
15763,0,1.507,2.408,1.683,0.17,0.01,0.83,0,-0,-0,1215,0,78,23,92,501,0.0,300,300,60,111.0,0,0,-47,421,19,0,0,0,0,0,0,,,,,
15783,0,1.507,2.402,1.6931,0.18,0.0,0.83,0,0,-0,1215,0,78,23,92,501,0.0,300,300,60,111.0,0,0,-47,421,19,0,0,0,0,0,0,,,,,
15803,0,1.515,2.41,1.6981,0.17,-0.0,0.86,0,0,-0,1215,0,78,23,92,501,0.0,300,300,60,111.0,0,0,-47,421,19,0,0,0,0,0,0,,,,,
15823,0,1.516,2.412,1.7056,0.17,0.0,0.84,0,-0,-0,1215,0,78,23,92,501,0.0,300,300,60,111.0,0,0,-47,421,19,0,0,0,0,0,0,,,,,
15843,0,1.517,2.401,1.6956,0.17,0.0,0.86,0,-0,-0,1215,0,78,23,92,501,0.0,300,300,60,111.0,0,0,-47,421,19,0,0,0,0,0,0,0.0,0.0,0.0,0.0,0.0
15863,0,1.51,2.412,1.6981,0.17,0.01,0.86,0,-0,0,1236,0,78,23,93,517,0.0,300,300,60,114.0,0,0,-38,421,19,0,0,0,0,0,0,,,,,
15883,0,1.508,2.412,1.6893,0.18,0.01,0.83,0,-0,0,1236,0,78,23,93,517,0.0,300,300,60,114.0,0,0,-38,421,19,0,0,0,0,0,0,,,,,
15903,0,1.502,2.407,1.7006,0.18,0.02,0.82,0,0,-0,1236,0,78,23,93,517,0.0,300,300,60,114.0,0,0,-38,421,19,0,0,0,0,0,0,,,,,
15923,0,1.517,2.407,1.6905,0.19,0.01,0.85,0,0,-0,1236,0,78,23,93,517,0.0,300,300,60,114.0,0,0,-38,421,19,0,0,0,0,0,0,,,,,
15943,0,1.508,2.417,1.7107,0.19,0.01,0.83,0,0,-0,1236,0,78,23,93,517,0.0,300,300,60,114.0,0,0,-38,421,19,0,0,0,0,0,0,0.0,0.0,0.0,0.0,0.0
15963,0,1.506,2.412,1.6918,0.19,0.0,0.87,0,0,-0,1227,0,78,23,93,518,0.0,300,300,60,114.0,0,0,-32,421,19,0,0,0,0,0,0,,,,,
15983,0,1.508,2.415,1.7031,0.18,0.01,0.89,0,0,-0,1227,0,78,23,93,518,0.0,300,300,60,114.0,0,0,-32,421,19,0,0,0,0,0,0,,,,,
16003,0,1.517,2.407,1.6893,0.18,0.01,0.9,0,0,-0,1227,0,78,23,93,518,0.0,300,300,60,114.0,0,0,-32,421,19,0,0,0,0,0,0,,,,,
16023,0,1.499,2.423,1.6931,0.17,0.02,0.9,0,0,-0,1227,0,78,23,93,518,0.0,300,300,60,114.0,0,0,-32,421,19,0,0,0,0,0,0,,,,,
16043,0,1.502,2.42,1.683,0.16,0.02,0.89,0,0,0,1227,0,78,23,93,518,0.0,300,300,60,114.0,0,0,-32,421,19,0,0,0,0,0,0,0.0,0.0,0.0,0.0,0.0
16063,0,1.503,2.431,1.7019,0.16,0.03,0.89,0,0,-0,1362,0,78,23,93,516,0.0,300,300,60,116.0,0,0,-21,421,21,0,0,0,0,0,0,,,,,
16083,0,1.507,2.421,1.6981,0.16,0.04,0.9,0,0,-0,1362,0,78,23,93,516,0.0,300,300,60,116.0,0,0,-21,421,21,0,0,0,0,0,0,,,,,
16103,0,1.52,2.428,1.6905,0.17,0.02,0.89,0,0,-0,1362,0,78,23,93,516,0.0,300,300,60,116.0,0,0,-21,421,21,0,0,0,0,0,0,,,,,
16123,0,1.516,2.417,1.6843,0.17,0.03,0.92,0,0,-0,1362,0,78,23,93,516,0.0,300,300,60,116.0,0,0,-21,421,21,0,0,0,0,0,0,,,,,
16143,0,1.518,2.412,1.7044,0.17,0.03,0.96,0,0,-0,1362,0,78,23,93,516,0.0,300,300,60,116.0,0,0,-21,421,21,0,0,0,0,0,0,0.0,0.0,0.0,0.0,0.0
16163,0,1.52,2.389,1.7094,0.16,0.04,0.96,0,-0,-0,1357,0,78,23,92,507,0.0,300,300,60,111.0,0,0,-13,421,21,0,0,0,0,0,0,,,,,
16183,0,1.515,2.389,1.6981,0.16,0.04,0.94,0,-0,-0,1357,0,78,23,92,507,0.0,300,300,60,111.0,0,0,-13,421,21,0,0,0,0,0,0,,,,,
16203,0,1.515,2.403,1.7019,0.16,0.04,0.95,0,-0,-0,1357,0,78,23,92,507,0.0,300,300,60,111.0,0,0,-13,421,21,0,0,0,0,0,0,,,,,
16223,0,1.518,2.397,1.7006,0.16,0.03,0.96,0,-0,-0,1357,0,78,23,92,507,0.0,300,300,60,111.0,0,0,-13,421,21,0,0,0,0,0,0,,,,,
16243,0,1.52,2.418,1.6792,0.16,0.03,0.97,0,0,-0,1357,0,78,23,92,507,0.0,300,300,60,111.0,0,0,-13,421,21,0,0,0,0,0,0,0.0,0.0,0.0,0.0,0.0
16263,0,1.522,2.402,1.6918,0.17,0.03,0.93,0,0,-0,1414,0,77,23,92,513,0.0,300,300,60,116.0,0,0,-10,421,22,0,0,0,0,0,0,,,,,
16283,0,1.52,2.425,1.6931,0.18,0.03,0.93,0,1,-0,1414,0,77,23,92,513,0.0,300,300,60,116.0,0,0,-10,421,22,0,0,0,0,0,0,,,,,
16303,0,1.517,2.416,1.6956,0.17,0.02,0.93,0,0,-0,1414,0,77,23,92,513,0.0,300,300,60,116.0,0,0,-10,421,22,0,0,0,0,0,0,,,,,
16323,0,1.526,2.432,1.6981,0.17,0.03,0.94,0,0,-0,1414,0,77,23,92,513,0.0,300,300,60,116.0,0,0,-10,421,22,0,0,0,0,0,0,,,,,
16343,0,1.516,2.422,1.6981,0.16,0.01,0.97,0,0,-0,1414,0,77,23,92,513,0.0,300,300,60,116.0,0,0,-10,421,22,0,0,0,0,0,0,0.0,0.0,0.0,0.0,0.0
16363,0,1.513,2.416,1.7031,0.16,0.02,1.0,0,0,-0,1556,0,77,23,91,515,0.0,300,300,60,115.0,0,0,-9,416,24,0,0,0,0,0,0,,,,,
16383,0,1.515,2.413,1.7094,0.15,0.04,0.99,0,-0,-0,1556,0,77,23,91,515,0.0,300,300,60,115.0,0,0,-9,416,24,0,0,0,0,0,0,,,,,
16403,0,1.515,2.407,1.7195,0.16,0.03,0.99,0,-0,-0,1556,0,77,23,91,515,0.0,300,300,60,115.0,0,0,-9,416,24,0,0,0,0,0,0,,,,,
16423,0,1.503,2.398,1.7132,0.15,0.04,1.04,0,0,-0,1556,0,77,23,91,515,0.0,300,300,60,115.0,0,0,-9,416,24,0,0,0,0,0,0,,,,,
16443,0,1.515,2.423,1.6868,0.14,0.02,1.01,0,0,-0,1556,0,77,23,91,515,0.0,300,300,60,115.0,0,0,-9,416,24,0,0,0,0,0,0,0.0,0.0,0.0,0.0,0.0
16463,0,1.505,2.416,1.678,0.15,0.03,1.0,0,0,-0,1684,0,77,23,91,514,0.0,300,300,60,117.0,0,0,-9,405,25,0,0,0,0,0,0,,,,,
16483,0,1.51,2.418,1.683,0.14,0.03,0.96,0,0,-0,1684,0,77,23,91,514,0.0,300,300,60,117.0,0,0,-9,405,25,0,0,0,0,0,0,,,,,
16503,0,1.528,2.41,1.7069,0.15,0.03,0.94,0,0,-0,1684,0,77,23,91,514,0.0,300,300,60,117.0,0,0,-9,405,25,0,0,0,0,0,0,,,,,
16523,0,1.516,2.403,1.7081,0.14,0.03,0.95,0,0,-0,1684,0,77,23,91,514,0.0,300,300,60,117.0,0,0,-9,405,25,0,0,0,0,0,0,,,,,
16543,0,1.513,2.407,1.6918,0.14,0.02,0.96,0,0,-0,1684,0,77,23,91,514,0.0,300,300,60,117.0,0,0,-9,405,25,0,0,0,0,0,0,0.0,0.0,0.0,0.0,0.0
16563,0,1.512,2.415,1.7019,0.14,0.02,0.99,0,-0,-0,1693,0,77,23,91,516,0.0,300,300,60,117.0,0,0,-9,404,25,0,0,0,0,0,0,,,,,
16583,0,1.52,2.413,1.7031,0.14,0.03,0.99,0,-0,-0,1693,0,77,23,91,516,0.0,300,300,60,117.0,0,0,-9,404,25,0,0,0,0,0,0,,,,,
16603,0,1.505,2.42,1.7207,0.14,0.01,0.97,0,-0,-0,1693,0,77,23,91,516,0.0,300,300,60,117.0,0,0,-9,404,25,0,0,0,0,0,0,,,,,
16623,0,1.512,2.418,1.7107,0.14,0.01,0.97,0,-0,-0,1693,0,77,23,91,516,0.0,300,300,60,117.0,0,0,-9,404,25,0,0,0,0,0,0,,,,,
16643,0,1.507,2.417,1.6868,0.15,-0.01,1.02,0,-0,-0,1693,0,77,23,91,516,0.0,300,300,60,117.0,0,0,-9,404,25,0,0,0,0,0,0,0.0,0.0,0.0,0.0,0.0
16663,0,1.516,2.42,1.6843,0.14,-0.0,1.04,0,0,-0,1560,0,77,23,92,518,0.0,300,300,60,117.0,0,0,-7,416,24,0,0,0,0,0,0,,,,,
16683,0,1.512,2.417,1.6767,0.14,-0.01,1.01,0,0,-0,1560,0,77,23,92,518,0.0,300,300,60,117.0,0,0,-7,416,24,0,0,0,0,0,0,,,,,
16703,0,1.507,2.417,1.6755,0.15,0.0,1.01,-0,0,-0,1560,0,77,23,92,518,0.0,300,300,60,117.0,0,0,-7,416,24,0,0,0,0,0,0,,,,,
16723,0,1.518,2.416,1.6843,0.16,0.01,1.0,0,0,-0,1560,0,77,23,92,518,0.0,300,300,60,117.0,0,0,-7,416,24,0,0,0,0,0,0,,,,,
16743,0,1.508,2.412,1.6931,0.15,0.02,0.99,0,0,-0,1560,0,77,23,92,518,0.0,300,300,60,117.0,0,0,-7,416,24,0,0,0,0,0,0,0.0,0.0,0.0,0.0,0.0
16763,0,1.506,2.412,1.6855,0.15,0.03,0.96,0,-0,-0,1510,0,77,23,91,515,0.0,300,300,60,117.0,0,0,-5,421,24,0,0,0,0,0,0,,,,,
16783,0,1.512,2.416,1.688,0.15,0.04,0.92,0,-0,-0,1510,0,77,23,91,515,0.0,300,300,60,117.0,0,0,-5,421,24,0,0,0,0,0,0,,,,,
16803,0,1.507,2.404,1.6981,0.15,0.03,0.9,0,-0,0,1510,0,77,23,91,515,0.0,300,300,60,117.0,0,0,-5,421,24,0,0,0,0,0,0,,,,,
16823,0,1.526,2.404,1.7006,0.15,0.03,0.92,0,-0,-0,1510,0,77,23,91,515,0.0,300,300,60,117.0,0,0,-5,421,24,0,0,0,0,0,0,,,,,
16843,0,1.502,2.406,1.683,0.15,0.02,0.92,0,-0,-0,1510,0,77,23,91,515,0.0,300,300,60,117.0,0,0,-5,421,24,0,0,0,0,0,0,0.0,0.0,0.0,0.0,0.0
16863,0,1.496,2.411,1.6956,0.15,0.02,0.9,0,-0,-0,1554,0,77,23,91,507,0.0,300,300,60,112.0,0,0,-5,417,24,0,0,0,0,0,0,,,,,
16883,0,1.512,2.417,1.6981,0.15,0.01,0.91,0,-0,-0,1554,0,77,23,91,507,0.0,300,300,60,112.0,0,0,-5,417,24,0,0,0,0,0,0,,,,,
16903,0,1.512,2.412,1.7056,0.15,0.01,0.92,0,-0,-0,1554,0,77,23,91,507,0.0,300,300,60,112.0,0,0,-5,417,24,0,0,0,0,0,0,,,,,
16923,0,1.499,2.41,1.6956,0.15,0.03,0.94,0,-0,-0,1554,0,77,23,91,507,0.0,300,300,60,112.0,0,0,-5,417,24,0,0,0,0,0,0,,,,,
16943,0,1.51,2.417,1.7107,0.16,0.05,0.92,0,-1,-0,1554,0,77,23,91,507,0.0,300,300,60,112.0,0,0,-5,417,24,0,0,0,0,0,0,0.0,0.0,0.0,0.0,0.0
16963,0,1.517,2.403,1.7182,0.16,0.04,0.93,0,-1,-0,1673,0,77,23,92,511,0.0,300,300,60,117.0,0,0,-5,406,25,0,0,0,0,0,0,,,,,
16983,0,1.515,2.407,1.7094,0.16,0.05,0.92,0,-1,-0,1673,0,77,23,92,511,0.0,300,300,60,117.0,0,0,-5,406,25,0,0,0,0,0,0,,,,,
17003,0,1.512,2.41,1.6993,0.16,0.02,0.9,0,-1,-0,1673,0,77,23,92,511,0.0,300,300,60,117.0,0,0,-5,406,25,0,0,0,0,0,0,,,,,
17023,0,1.506,2.413,1.7044,0.16,0.02,0.89,0,-1,-0,1673,0,77,23,92,511,0.0,300,300,60,117.0,0,0,-5,406,25,0,0,0,0,0,0,,,,,
17043,0,1.515,2.408,1.6905,0.16,0.01,0.95,0,-0,-0,1673,0,77,23,92,511,0.0,300,300,60,117.0,0,0,-5,406,25,0,0,0,0,0,0,0.0,0.0,0.0,0.0,0.0
17063,0,1.499,2.408,1.6843,0.15,0.0,0.95,0,-0,-0,1656,0,77,23,92,517,0.0,300,300,60,117.0,0,0,-3,407,25,0,0,0,0,0,0,,,,,
17083,0,1.499,2.412,1.6843,0.15,-0.0,0.94,0,-0,-0,1656,0,77,23,92,517,0.0,300,300,60,117.0,0,0,-3,407,25,0,0,0,0,0,0,,,,,
17103,0,1.515,2.42,1.6905,0.14,0.0,0.92,0,-0,-0,1656,0,77,23,92,517,0.0,300,300,60,117.0,0,0,-3,407,25,0,0,0,0,0,0,,,,,
17123,0,1.493,2.425,1.6918,0.14,0.0,0.9,0,-1,0,1656,0,77,23,92,517,0.0,300,300,60,117.0,0,0,-3,407,25,0,0,0,0,0,0,,,,,
17143,0,1.496,2.43,1.6843,0.15,0.01,0.9,0,-0,0,1656,0,77,23,92,517,0.0,300,300,60,117.0,0,0,-3,407,25,0,0,0,0,0,0,0.0,0.0,0.0,0.0,0.0
17163,0,1.513,2.423,1.688,0.15,0.02,0.88,0,-1,0,1569,0,76,23,91,518,0.0,300,300,60,117.0,0,0,1,415,24,0,0,0,0,0,0,,,,,
17183,0,1.51,2.412,1.7019,0.15,0.03,0.86,0,-1,0,1569,0,76,23,91,518,0.0,300,300,60,117.0,0,0,1,415,24,0,0,0,0,0,0,,,,,
17203,0,1.517,2.417,1.7031,0.16,0.03,0.84,0,-0,-0,1569,0,76,23,91,518,0.0,300,300,60,117.0,0,0,1,415,24,0,0,0,0,0,0,,,,,
17223,0,1.52,2.411,1.6905,0.17,0.03,0.84,0,-0,-0,1569,0,76,23,91,518,0.0,300,300,60,117.0,0,0,1,415,24,0,0,0,0,0,0,,,,,
17243,0,1.53,2.412,1.6843,0.17,0.03,0.82,0,-0,-0,1569,0,76,23,91,518,0.0,300,300,60,117.0,0,0,1,415,24,0,0,0,0,0,0,0.0,0.0,0.0,0.0,0.0
17263,0,1.526,2.413,1.6943,0.17,0.03,0.81,0,-0,-0,1499,0,76,23,91,513,0.0,300,300,60,116.0,0,0,4,421,22,0,0,0,0,0,0,,,,,
17283,0,1.517,2.404,1.7031,0.16,0.01,0.83,0,-0,-0,1499,0,76,23,91,513,0.0,300,300,60,116.0,0,0,4,421,22,0,0,0,0,0,0,,,,,
17303,0,1.508,2.408,1.6968,0.17,0.0,0.86,0,-0,-0,1499,0,76,23,91,513,0.0,300,300,60,116.0,0,0,4,421,22,0,0,0,0,0,0,,,,,
17323,0,1.503,2.407,1.6943,0.16,0.01,0.9,0,-0,-0,1499,0,76,23,91,513,0.0,300,300,60,116.0,0,0,4,421,22,0,0,0,0,0,0,,,,,
17343,0,1.503,2.399,1.7094,0.16,0.01,0.92,0,-0,-0,1499,0,76,23,91,513,0.0,300,300,60,116.0,0,0,4,421,22,0,0,0,0,0,0,0.0,0.0,0.0,0.0,0.0
17363,0,1.502,2.396,1.7107,0.17,0.01,0.91,0,-0,-0,1435,0,76,23,91,517,0.0,300,300,60,115.0,0,0,6,421,22,0,0,0,0,0,0,,,,,
17383,0,1.508,2.392,1.7107,0.16,0.02,0.95,0,-0,-0,1435,0,76,23,91,517,0.0,300,300,60,115.0,0,0,6,421,22,0,0,0,0,0,0,,,,,
17403,0,1.52,2.402,1.7169,0.17,0.03,0.91,0,-1,-0,1435,0,76,23,91,517,0.0,300,300,60,115.0,0,0,6,421,22,0,0,0,0,0,0,,,,,
17423,0,1.513,2.408,1.6968,0.16,0.04,0.97,0,-0,-0,1435,0,76,23,91,517,0.0,300,300,60,115.0,0,0,6,421,22,0,0,0,0,0,0,,,,,
17443,0,1.515,2.418,1.6755,0.15,0.03,0.96,0,-0,-0,1435,0,76,23,91,517,0.0,300,300,60,115.0,0,0,6,421,22,0,0,0,0,0,0,0.0,0.0,0.0,0.0,0.0
17463,0,1.516,2.42,1.6767,0.16,0.04,0.96,0,-0,-0,1695,0,76,23,91,514,0.0,300,300,60,117.0,0,0,6,404,26,0,0,0,0,0,0,,,,,
17483,0,1.507,2.432,1.683,0.16,0.05,0.99,0,-0,-0,1695,0,76,23,91,514,0.0,300,300,60,117.0,0,0,6,404,26,0,0,0,0,0,0,,,,,
17503,0,1.51,2.423,1.6931,0.16,0.05,0.95,0,-0,-0,1695,0,76,23,91,514,0.0,300,300,60,117.0,0,0,6,404,26,0,0,0,0,0,0,,,,,
17523,0,1.499,2.42,1.7056,0.17,0.05,0.93,0,-0,-0,1695,0,76,23,91,514,0.0,300,300,60,117.0,0,0,6,404,26,0,0,0,0,0,0,,,,,
17543,0,1.516,2.42,1.6956,0.17,0.04,0.93,0,-0,-0,1695,0,76,23,91,514,0.0,300,300,60,117.0,0,0,6,404,26,0,0,0,0,0,0,0.0,0.0,0.0,0.0,0.0
17563,0,1.513,2.407,1.6968,0.16,0.03,0.97,0,-0,-0,1742,0,76,23,91,516,0.0,300,300,60,117.0,0,0,6,400,26,0,0,0,0,0,0,,,,,
17583,0,1.516,2.415,1.6843,0.16,0.03,0.97,0,-0,-0,1742,0,76,23,91,516,0.0,300,300,60,117.0,0,0,6,400,26,0,0,0,0,0,0,,,,,
17603,0,1.502,2.403,1.7144,0.15,0.05,0.99,0,-0,-0,1742,0,76,23,91,516,0.0,300,300,60,117.0,0,0,6,400,26,0,0,0,0,0,0,,,,,
17623,0,1.503,2.401,1.7132,0.15,0.05,0.98,0,-0,-0,1742,0,76,23,91,516,0.0,300,300,60,117.0,0,0,6,400,26,0,0,0,0,0,0,,,,,
17643,0,1.503,2.408,1.6918,0.15,0.05,1.03,0,0,-0,1742,0,76,23,91,516,0.0,300,300,60,117.0,0,0,6,400,26,0,0,0,0,0,0,0.0,0.0,0.0,0.0,0.0
17663,0,1.499,2.417,1.683,0.15,0.04,1.04,0,0,-0,1731,0,76,23,91,515,0.0,300,300,60,117.0,0,0,7,401,26,0,0,0,0,0,0,,,,,
17683,0,1.51,2.412,1.6868,0.15,0.03,1.02,0,-0,-0,1731,0,76,23,91,515,0.0,300,300,60,117.0,0,0,7,401,26,0,0,0,0,0,0,,,,,
17703,0,1.499,2.406,1.6993,0.15,0.04,1.0,0,-0,-0,1731,0,76,23,91,515,0.0,300,300,60,117.0,0,0,7,401,26,0,0,0,0,0,0,,,,,
17723,0,1.518,2.401,1.6956,0.15,0.04,0.96,0,-0,-0,1731,0,76,23,91,515,0.0,300,300,60,117.0,0,0,7,401,26,0,0,0,0,0,0,,,,,
17743,0,1.508,2.41,1.7006,0.16,0.03,0.94,0,-0,-0,1731,0,76,23,91,515,0.0,300,300,60,117.0,0,0,7,401,26,0,0,0,0,0,0,0.0,0.0,0.0,0.0,0.0
17763,0,1.518,2.416,1.7056,0.16,0.02,0.94,0,-0,-0,1710,0,76,23,90,504,0.0,300,300,60,113.0,0,0,10,403,25,0,0,0,0,0,0,,,,,
17783,0,1.518,2.404,1.6956,0.16,0.01,0.97,0,-0,-0,1710,0,76,23,90,504,0.0,300,300,60,113.0,0,0,10,403,25,0,0,0,0,0,0,,,,,
17803,0,1.521,2.417,1.6968,0.16,0.02,0.97,0,-0,-0,1710,0,76,23,90,504,0.0,300,300,60,113.0,0,0,10,403,25,0,0,0,0,0,0,,,,,
17823,0,1.512,2.416,1.7132,0.15,-0.0,0.96,0,-1,-0,1710,0,76,23,90,504,0.0,300,300,60,113.0,0,0,10,403,25,0,0,0,0,0,0,,,,,
17843,0,1.499,2.406,1.7044,0.15,-0.01,1.01,0,-0,-0,1710,0,76,23,90,504,0.0,300,300,60,113.0,0,0,10,403,25,0,0,0,0,0,0,0.0,0.0,0.0,0.0,0.0
17863,0,1.511,2.417,1.6755,0.15,-0.03,0.99,0,-0,-0,1617,0,76,23,92,518,0.0,300,300,60,117.0,0,0,12,411,25,0,0,0,0,0,0,,,,,
17883,0,1.486,2.42,1.688,0.15,-0.02,0.95,0,-0,-0,1617,0,76,23,92,518,0.0,300,300,60,117.0,0,0,12,411,25,0,0,0,0,0,0,,,,,
17903,0,1.52,2.408,1.6868,0.16,-0.01,0.92,0,-0,-0,1617,0,76,23,92,518,0.0,300,300,60,117.0,0,0,12,411,25,0,0,0,0,0,0,,,,,
17923,0,1.516,2.408,1.7006,0.17,-0.01,0.92,0,-0,-0,1617,0,76,23,92,518,0.0,300,300,60,117.0,0,0,12,411,25,0,0,0,0,0,0,,,,,
17943,0,1.515,2.406,1.7031,0.16,-0.01,0.93,0,-0,-0,1617,0,76,23,92,518,0.0,300,300,60,117.0,0,0,12,411,25,0,0,0,0,0,0,0.0,0.0,0.0,0.0,0.0
17963,0,1.506,2.412,1.6931,0.17,-0.03,0.93,0,0,-0,1651,0,76,23,90,500,0.0,300,300,60,112.0,0,0,13,408,24,0,0,0,0,0,0,,,,,
17983,0,1.502,2.415,1.7006,0.16,-0.02,0.98,0,-0,-0,1651,0,76,23,90,500,0.0,300,300,60,112.0,0,0,13,408,24,0,0,0,0,0,0,,,,,
18003,0,1.518,2.417,1.7069,0.15,-0.01,0.98,0,-0,-0,1651,0,76,23,90,500,0.0,300,300,60,112.0,0,0,13,408,24,0,0,0,0,0,0,,,,,
18023,1551439285777,1.51,2.407,1.7107,0.16,-0.01,0.95,0,-0,-0,1651,0,76,23,90,500,0.0,300,300,60,112.0,0,0,13,408,24,0,0,0,0,0,0,,,,,
18043,1551439285797,1.513,2.415,1.6956,0.16,-0.01,0.94,0,-1,-0,1651,0,76,23,90,500,0.0,300,300,60,112.0,0,0,13,408,24,0,0,0,0,0,0,45.845486,5.179013,0.0,780.7,0.0
18063,1551439285817,1.515,2.41,1.6855,0.16,-0.01,1.01,0,-0,-0,1515,0,76,23,92,518,0.0,300,300,60,117.0,0,0,15,420,24,0,0,0,0,0,0,,,,,
18083,1551439285837,1.513,2.427,1.673,0.16,-0.01,1.01,0,-0,-0,1515,0,76,23,92,518,0.0,300,300,60,117.0,0,0,15,420,24,0,0,0,0,0,0,,,,,
18103,1551439285857,1.501,2.423,1.6717,0.16,0.0,1.01,0,-0,-0,1515,0,76,23,92,518,0.0,300,300,60,117.0,0,0,15,420,24,0,0,0,0,0,0,,,,,
18123,1551439285871,1.513,2.415,1.6893,0.16,0.01,0.96,0,-0,-0,1515,0,76,23,92,518,0.0,300,300,60,117.0,0,0,15,420,24,0,0,0,0,0,0,,,,,
18143,1551439285891,1.522,2.415,1.6943,0.16,0.02,0.93,0,-0,-0,1515,0,76,23,92,518,0.0,300,300,60,117.0,0,0,15,420,24,0,0,0,0,0,0,45.84552,5.179007,0.0,769.8,0.0
18163,1551439285911,1.494,2.394,1.6981,0.17,0.02,0.91,0,-0,-0,1542,0,76,23,91,513,0.0,300,300,60,117.0,0,0,16,418,24,0,0,0,0,0,0,,,,,
18183,1551439285931,1.513,2.412,1.7069,0.17,0.0,0.91,0,-0,-0,1542,0,76,23,91,513,0.0,300,300,60,117.0,0,0,16,418,24,0,0,0,0,0,0,,,,,
18203,1551439285951,1.512,2.407,1.7044,0.18,-0.01,0.91,0,-0,-0,1542,0,76,23,91,513,0.0,300,300,60,117.0,0,0,16,418,24,0,0,0,0,0,0,,,,,
18223,1551439285975,1.505,2.404,1.7056,0.17,-0.01,0.95,0,-0,-0,1542,0,76,23,91,513,0.0,300,300,60,117.0,0,0,16,418,24,0,0,0,0,0,0,,,,,
18243,1551439285995,1.518,2.415,1.7044,0.17,-0.01,0.99,0,-0,-0,1542,0,76,23,91,513,0.0,300,300,60,117.0,0,0,16,418,24,0,0,0,0,0,0,45.845531,5.179005,0.0,765.8,0.0
18263,1551439286015,1.507,2.404,1.7019,0.17,0.0,0.99,0,-0,-0,1531,0,76,23,91,517,0.0,300,300,60,117.0,0,0,17,419,24,0,0,0,0,0,0,,,,,
18283,1551439286035,1.505,2.399,1.7081,0.16,0.03,1.0,0,-1,-0,1531,0,76,23,91,517,0.0,300,300,60,117.0,0,0,17,419,24,0,0,0,0,0,0,,,,,
18303,1551439286055,1.51,2.403,1.7132,0.16,0.05,0.99,0,-1,-0,1531,0,76,23,91,517,0.0,300,300,60,117.0,0,0,17,419,24,0,0,0,0,0,0,,,,,
18323,1551439286071,1.51,2.404,1.7207,0.16,0.06,0.99,0,-1,-0,1531,0,76,23,91,517,0.0,300,300,60,117.0,0,0,17,419,24,0,0,0,0,0,0,,,,,
18343,1551439286091,1.515,2.402,1.7132,0.15,0.05,0.98,0,-1,-0,1531,0,76,23,91,517,0.0,300,300,60,117.0,0,0,17,419,24,0,0,0,0,0,0,45.845592,5.179,0.0,753.9,0.0
18363,1551439286111,1.501,2.404,1.7031,0.15,0.05,1.01,0,-1,-0,1488,0,76,23,92,518,0.0,300,300,60,116.0,0,0,18,421,23,0,0,0,0,0,0,,,,,
18383,1551439286131,1.513,2.401,1.7144,0.14,0.05,1.0,0,-1,-0,1488,0,76,23,92,518,0.0,300,300,60,116.0,0,0,18,421,23,0,0,0,0,0,0,,,,,
18403,1551439286151,1.518,2.389,1.7144,0.14,0.06,0.98,0,-1,0,1488,0,76,23,92,518,0.0,300,300,60,116.0,0,0,18,421,23,0,0,0,0,0,0,,,,,
18423,1551439286174,1.515,2.391,1.7195,0.13,0.07,0.98,0,-1,0,1488,0,76,23,92,518,0.0,300,300,60,116.0,0,0,18,421,23,0,0,0,0,0,0,,,,,
18443,1551439286194,1.502,2.387,1.7157,0.13,0.06,0.98,0,-1,0,1488,0,76,23,92,518,0.0,300,300,60,116.0,0,0,18,421,23,0,0,0,0,0,0,45.845592,5.179,0.0,747.1,0.0
18463,1551439286214,1.511,2.404,1.7107,0.13,0.06,0.97,0,-1,0,1643,0,76,23,92,516,0.0,300,300,60,117.0,0,0,18,409,25,0,0,0,0,0,0,,,,,
18483,1551439286234,1.507,2.403,1.6993,0.13,0.04,0.95,0,-1,0,1643,0,76,23,92,516,0.0,300,300,60,117.0,0,0,18,409,25,0,0,0,0,0,0,,,,,
18503,1551439286254,1.507,2.413,1.7031,0.13,0.02,0.95,0,-1,0,1643,0,76,23,92,516,0.0,300,300,60,117.0,0,0,18,409,25,0,0,0,0,0,0,,,,,
18523,1551439286272,1.51,2.407,1.7006,0.13,0.01,0.93,-0,-1,0,1643,0,76,23,92,516,0.0,300,300,60,117.0,0,0,18,409,25,0,0,0,0,0,0,,,,,
18543,1551439286292,1.52,2.412,1.6893,0.14,0.01,0.98,-0,-1,-0,1643,0,76,23,92,516,0.0,300,300,60,117.0,0,0,18,409,25,0,0,0,0,0,0,45.845592,5.179,0.0,742.9,0.0
18563,1551439286312,1.517,2.413,1.6704,0.13,0.0,0.97,-0,-1,-0,1639,0,76,23,92,518,0.0,300,300,60,117.0,0,0,20,409,25,0,0,0,0,0,0,,,,,
18583,1551439286332,1.507,2.41,1.6792,0.14,0.0,0.99,0,-1,-0,1639,0,76,23,92,518,0.0,300,300,60,117.0,0,0,20,409,25,0,0,0,0,0,0,,,,,
18603,1551439286352,1.506,2.403,1.6843,0.14,0.02,1.02,0,-1,0,1639,0,76,23,92,518,0.0,300,300,60,117.0,0,0,20,409,25,0,0,0,0,0,0,,,,,
18623,1551439286372,1.502,2.416,1.6981,0.14,0.01,1.0,0,-1,-0,1639,0,76,23,92,518,0.0,300,300,60,117.0,0,0,20,409,25,0,0,0,0,0,0,,,,,
18643,1551439286392,1.503,2.428,1.6805,0.15,0.02,1.02,0,-0,-0,1639,0,76,23,92,518,0.0,300,300,60,117.0,0,0,20,409,25,0,0,0,0,0,0,45.845596,5.178999,0.0,740.0,0.0
18663,1551439286412,1.502,2.431,1.6855,0.15,0.04,1.0,0,-0,-0,1480,0,76,23,92,515,0.0,300,300,60,117.0,0,0,24,421,23,0,0,0,0,0,0,,,,,
18683,1551439286432,1.501,2.416,1.7031,0.16,0.04,0.97,0,-0,-0,1480,0,76,23,92,515,0.0,300,300,60,117.0,0,0,24,421,23,0,0,0,0,0,0,,,,,
18703,1551439286452,1.512,2.415,1.6981,0.16,0.04,0.98,0,-0,-0,1480,0,76,23,92,515,0.0,300,300,60,117.0,0,0,24,421,23,0,0,0,0,0,0,,,,,
18723,1551439286474,1.505,2.416,1.6968,0.16,0.03,0.97,0,-0,-0,1480,0,76,23,92,515,0.0,300,300,60,117.0,0,0,24,421,23,0,0,0,0,0,0,,,,,
18743,1551439286494,1.512,2.412,1.6956,0.16,0.03,0.98,0,-0,-0,1480,0,76,23,92,515,0.0,300,300,60,117.0,0,0,24,421,23,0,0,0,0,0,0,45.845596,5.178999,0.0,737.9,0.0
18763,1551439286514,1.512,2.416,1.7031,0.16,0.03,0.98,0,-0,-0,1521,0,76,23,91,503,0.0,300,300,60,112.0,0,0,26,420,23,0,0,0,0,0,0,,,,,
18783,1551439286534,1.513,2.403,1.7044,0.16,0.02,1.01,0,-0,-0,1521,0,76,23,91,503,0.0,300,300,60,112.0,0,0,26,420,23,0,0,0,0,0,0,,,,,
18803,1551439286554,1.513,2.415,1.7081,0.16,0.03,1.01,0,-0,-0,1521,0,76,23,91,503,0.0,300,300,60,112.0,0,0,26,420,23,0,0,0,0,0,0,,,,,
18823,1551439286570,1.516,2.404,1.6905,0.15,0.02,1.02,0,0,-0,1521,0,76,23,91,503,0.0,300,300,60,112.0,0,0,26,420,23,0,0,0,0,0,0,,,,,
18843,1551439286590,1.506,2.42,1.6717,0.15,0.02,1.03,0,-0,-0,1521,0,76,23,91,503,0.0,300,300,60,112.0,0,0,26,420,23,0,0,0,0,0,0,45.845596,5.178999,0.0,736.4,0.0
18863,1551439286610,1.516,2.426,1.6755,0.14,0.03,1.01,0,-0,-0,1645,0,76,23,91,517,0.0,300,300,60,117.0,0,0,26,408,25,0,0,0,0,0,0,,,,,
18883,1551439286630,1.506,2.417,1.7056,0.16,0.04,0.97,0,-0,-0,1645,0,76,23,91,517,0.0,300,300,60,117.0,0,0,26,408,25,0,0,0,0,0,0,,,,,
18903,1551439286650,1.502,2.42,1.7094,0.15,0.03,0.97,0,-0,-0,1645,0,76,23,91,517,0.0,300,300,60,117.0,0,0,26,408,25,0,0,0,0,0,0,,,,,
18923,1551439286670,1.497,2.407,1.6918,0.15,0.03,0.99,0,-0,-0,1645,0,76,23,91,517,0.0,300,300,60,117.0,0,0,26,408,25,0,0,0,0,0,0,,,,,
18943,1551439286690,1.518,2.415,1.7132,0.15,0.03,1.0,0,-0,-0,1645,0,76,23,91,517,0.0,300,300,60,117.0,0,0,26,408,25,0,0,0,0,0,0,45.8456,5.178999,0.0,735.3,0.0
18963,1551439286710,1.508,2.411,1.7182,0.15,0.01,0.99,0,-0,-0,1643,0,76,23,91,518,0.0,300,300,60,117.0,0,0,26,409,25,0,0,0,0,0,0,,,,,
18983,1551439286730,1.507,2.41,1.7019,0.15,-0.01,1.01,0,-0,-0,1643,0,76,23,91,518,0.0,300,300,60,117.0,0,0,26,409,25,0,0,0,0,0,0,,,,,
19003,1551439286750,1.516,2.411,1.6717,0.15,-0.01,0.98,0,-0,-0,1643,0,76,23,91,518,0.0,300,300,60,117.0,0,0,26,409,25,0,0,0,0,0,0,,,,,
19023,1551439286770,1.501,2.411,1.6855,0.16,-0.0,0.94,0,-0,-0,1643,0,76,23,91,518,0.0,300,300,60,117.0,0,0,26,409,25,0,0,0,0,0,0,,,,,
19043,1551439286790,1.512,2.417,1.7081,0.16,0.01,0.94,0,-0,-0,1643,0,76,23,91,518,0.0,300,300,60,117.0,0,0,26,409,25,0,0,0,0,0,0,45.8456,5.178999,0.0,735.3,0.0
19063,1551439286810,1.515,2.407,1.7069,0.16,0.02,0.94,0,-0,-0,1701,0,76,23,90,504,0.0,300,300,60,113.0,0,0,25,403,26,0,0,0,0,0,0,,,,,
19083,1551439286830,1.503,2.393,1.7019,0.15,0.02,0.94,0,-1,-0,1701,0,76,23,90,504,0.0,300,300,60,113.0,0,0,25,403,26,0,0,0,0,0,0,,,,,
19103,1551439286850,1.511,2.41,1.7132,0.16,0.03,0.92,0,-0,-0,1701,0,76,23,90,504,0.0,300,300,60,113.0,0,0,25,403,26,0,0,0,0,0,0,,,,,
19123,1551439286870,1.51,2.404,1.6943,0.15,0.03,0.93,0,-0,-0,1701,0,76,23,90,504,0.0,300,300,60,113.0,0,0,25,403,26,0,0,0,0,0,0,,,,,
19143,1551439286890,1.513,2.417,1.6868,0.15,0.03,0.94,0,-0,-0,1701,0,76,23,90,504,0.0,300,300,60,113.0,0,0,25,403,26,0,0,0,0,0,0,45.8456,5.178999,0.0,735.3,0.0
19163,1551439286910,1.503,2.412,1.6905,0.16,0.03,0.92,0,-0,-0,1738,0,76,23,90,513,0.0,300,300,60,117.0,0,0,24,400,26,0,0,0,0,0,0,,,,,
19183,1551439286930,1.499,2.412,1.7144,0.16,0.03,0.91,0,-0,-0,1738,0,76,23,90,513,0.0,300,300,60,117.0,0,0,24,400,26,0,0,0,0,0,0,,,,,
19203,1551439286950,1.525,2.418,1.7056,0.15,0.04,0.91,0,-1,-0,1738,0,76,23,90,513,0.0,300,300,60,117.0,0,0,24,400,26,0,0,0,0,0,0,,,,,
19223,1551439286972,1.515,2.411,1.7056,0.15,0.04,0.91,0,-0,-0,1738,0,76,23,90,513,0.0,300,300,60,117.0,0,0,24,400,26,0,0,0,0,0,0,,,,,
19243,1551439286992,1.521,2.421,1.6817,0.15,0.05,0.89,0,-0,-0,1738,0,76,23,90,513,0.0,300,300,60,117.0,0,0,24,400,26,0,0,0,0,0,0,45.8456,5.178999,0.0,735.3,0.0
19263,1551439287012,1.513,2.422,1.7019,0.15,0.04,0.89,0,-1,-0,1960,0,76,23,89,512,0.0,300,300,60,117.0,0,0,22,380,28,0,0,0,0,0,0,,,,,
19283,1551439287032,1.515,2.402,1.7006,0.15,0.06,0.91,0,-1,-0,1960,0,76,23,89,512,0.0,300,300,60,117.0,0,0,22,380,28,0,0,0,0,0,0,,,,,
19303,1551439287052,1.502,2.422,1.7119,0.15,0.06,0.89,0,-0,-0,1960,0,76,23,89,512,0.0,300,300,60,117.0,0,0,22,380,28,0,0,0,0,0,0,,,,,
19323,1551439287066,1.515,2.411,1.6755,0.15,0.05,0.9,0,-0,-0,1960,0,76,23,89,512,0.0,300,300,60,117.0,0,0,22,380,28,0,0,0,0,0,0,,,,,
19343,1551439287086,1.508,2.412,1.7069,0.15,0.05,0.93,0,-0,-0,1960,0,76,23,89,512,0.0,300,300,60,117.0,0,0,22,380,28,0,0,0,0,0,0,45.8456,5.178999,0.0,735.3,0.0
19363,1551439287106,1.494,2.396,1.7081,0.15,0.05,0.97,0,-0,-0,2023,0,76,23,89,513,0.0,300,300,60,118.0,0,0,20,376,28,0,0,0,0,0,0,,,,,
19383,1551439287126,1.507,2.423,1.6755,0.15,0.04,0.98,0,0,-0,2023,0,76,23,89,513,0.0,300,300,60,118.0,0,0,20,376,28,0,0,0,0,0,0,,,,,
19403,1551439287146,1.522,2.416,1.6931,0.14,0.03,1.0,0,-1,-0,2023,0,76,23,89,513,0.0,300,300,60,118.0,0,0,20,376,28,0,0,0,0,0,0,,,,,
19423,1551439287171,1.522,2.376,1.683,0.14,0.03,1.09,0,0,-0,2023,0,76,23,89,513,0.0,300,300,60,118.0,0,0,20,376,28,0,0,0,0,0,0,,,,,
19443,1551439287191,1.505,2.412,1.7107,0.14,0.03,1.05,0,0,-0,2023,0,76,23,89,513,0.0,300,300,60,118.0,0,0,20,376,28,0,0,0,0,0,0,45.8456,5.178999,0.0,735.3,0.0
19463,1551439287211,1.516,2.392,1.7132,0.17,-0.01,1.02,0,0,-0,2182,0,76,23,87,514,0.0,300,300,60,117.0,0,0,16,367,30,0,0,0,0,0,0,,,,,
19483,1551439287231,1.501,2.412,1.673,0.17,-0.01,1.02,0,1,-0,2182,0,76,23,87,514,0.0,300,300,60,117.0,0,0,16,367,30,0,0,0,0,0,0,,,,,
19503,1551439287251,1.492,2.433,1.7006,0.16,0.0,1.01,0,-1,0,2182,0,76,23,87,514,0.0,300,300,60,117.0,0,0,16,367,30,0,0,0,0,0,0,,,,,
19523,1551439287271,1.511,2.407,1.6591,0.15,-0.01,0.96,0,-0,0,2182,0,76,23,87,514,0.0,300,300,60,117.0,0,0,16,367,30,0,0,0,0,0,0,,,,,
19543,1551439287291,1.493,2.448,1.7245,0.13,-0.0,0.92,0,-2,0,2182,0,76,23,87,514,0.0,300,300,60,117.0,0,0,16,367,30,0,0,0,0,0,0,45.8456,5.178999,0.0,735.3,0.0
19563,1551439287311,1.526,2.369,1.6654,0.14,0.01,0.9,0,-1,0,2220,0,76,23,86,518,0.0,300,300,60,119.0,0,0,11,364,30,0,0,0,0,0,0,,,,,
19583,1551439287331,1.502,2.441,1.7195,0.11,0.01,0.89,0,-3,0,2220,0,76,23,86,518,0.0,300,300,60,119.0,0,0,11,364,30,0,0,0,0,0,0,,,,,
19603,1551439287351,1.535,2.357,1.6566,0.11,0.01,0.92,0,-2,0,2220,0,76,23,86,518,0.0,300,300,60,119.0,0,0,11,364,30,0,0,0,0,0,0,,,,,
19623,1551439287371,1.488,2.425,1.7132,0.1,0.03,0.9,0,-3,0,2220,0,76,23,86,518,0.0,300,300,60,119.0,0,0,11,364,30,0,0,0,0,0,0,,,,,
19643,1551439287391,1.532,2.348,1.673,0.1,0.03,0.92,0,-2,0,2220,0,76,23,86,518,0.0,300,300,60,119.0,0,0,11,364,30,0,0,0,0,0,0,45.8456,5.178999,0.0,735.3,0.0
19663,1551439287411,1.51,2.423,1.7119,0.09,0.03,0.94,0,-3,0,2201,0,76,23,84,511,0.0,300,300,60,118.0,0,0,6,365,30,0,0,0,0,0,0,,,,,
19683,1551439287431,1.533,2.352,1.6956,0.09,0.01,0.98,0,-2,-0,2201,0,76,23,84,511,0.0,300,300,60,118.0,0,0,6,365,30,0,0,0,0,0,0,,,,,
19703,1551439287451,1.508,2.415,1.7182,0.08,0.01,0.99,0,-2,-0,2201,0,76,23,84,511,0.0,300,300,60,118.0,0,0,6,365,30,0,0,0,0,0,0,,,,,
19723,1551439287471,1.545,2.381,1.7019,0.08,-0.0,1.04,0,-1,-0,2201,0,76,23,84,511,0.0,300,300,60,118.0,0,0,6,365,30,0,0,0,0,0,0,,,,,
19743,1551439287491,1.501,2.416,1.7094,0.08,-0.01,1.01,0,-1,-0,2201,0,76,23,84,511,0.0,300,300,60,118.0,0,0,6,365,30,0,0,0,0,0,0,45.8456,5.178999,0.0,735.3,0.0
19763,1551439287511,1.515,2.398,1.722,0.09,0.0,1.06,0,-1,-0,2160,0,76,23,85,517,0.0,300,300,60,119.0,0,0,1,368,30,0,0,0,0,0,0,,,,,
19783,1551439287531,1.506,2.407,1.6968,0.1,-0.0,0.99,0,-0,-0,2160,0,76,23,85,517,0.0,300,300,60,119.0,0,0,1,368,30,0,0,0,0,0,0,,,,,
19803,1551439287551,1.496,2.435,1.7144,0.14,-0.02,0.98,0,-1,-0,2160,0,76,23,85,517,0.0,300,300,60,119.0,0,0,1,368,30,0,0,0,0,0,0,,,,,
19823,1551439287569,1.521,2.404,1.6604,0.15,-0.01,0.94,0,1,-0,2160,0,76,23,85,517,0.0,300,300,60,119.0,0,0,1,368,30,0,0,0,0,0,0,,,,,
19843,1551439287589,1.492,2.474,1.7031,0.15,0.02,0.96,0,-1,-0,2160,0,76,23,85,517,0.0,300,300,60,119.0,0,0,1,368,30,0,0,0,0,0,0,45.8456,5.178999,0.0,735.3,0.0
19863,1551439287609,1.515,2.394,1.673,0.14,0.01,0.95,0,0,-0,2099,1,76,23,86,515,0.0,300,300,60,119.0,0,0,-4,369,29,0,0,0,0,0,0,,,,,
19883,1551439287629,1.489,2.435,1.7195,0.13,0.01,0.93,0,-0,-0,2099,1,76,23,86,515,0.0,300,300,60,119.0,0,0,-4,369,29,0,0,0,0,0,0,,,,,
19903,1551439287649,1.518,2.391,1.7169,0.15,0.0,0.96,0,-0,-0,2099,1,76,23,86,515,0.0,300,300,60,119.0,0,0,-4,369,29,0,0,0,0,0,0,,,,,
19923,1551439287669,1.499,2.407,1.6843,0.17,-0.0,0.9,0,0,-0,2099,1,76,23,86,515,0.0,300,300,60,119.0,0,0,-4,369,29,0,0,0,0,0,0,,,,,
19943,1551439287689,1.53,2.443,1.7132,0.16,0.01,0.94,0,-1,-0,2099,1,76,23,86,515,0.0,300,300,60,119.0,0,0,-4,369,29,0,0,0,0,0,0,45.8456,5.178999,0.0,735.3,0.0
19963,1551439287707,1.498,2.389,1.6893,0.16,0.01,0.98,0,0,-0,2042,5,76,23,88,517,0.0,300,300,60,119.0,0,0,266,375,28,0,0,0,0,0,0,,,,,
19983,1551439287727,1.517,2.437,1.7283,0.15,0.0,0.99,0,0,-0,2042,5,76,23,88,517,0.0,300,300,60,119.0,0,0,266,375,28,0,0,0,0,0,0,,,,,
20003,1551439287747,1.542,2.373,1.6805,0.16,-0.0,0.98,0,1,-0,2042,5,76,23,88,517,0.0,300,300,60,119.0,0,0,266,375,28,0,0,0,0,0,0,,,,,
20023,1551439287767,1.501,2.425,1.683,0.17,0.02,1.04,0,1,-0,2042,5,76,23,88,517,0.0,300,300,60,119.0,0,0,266,375,28,0,0,0,0,0,0,,,,,
20043,1551439287787,1.516,2.407,1.6993,0.18,-0.0,0.97,0,-0,-0,2042,5,76,23,88,517,0.0,300,300,60,119.0,0,0,266,375,28,0,0,0,0,0,0,45.8456,5.178999,0.0,735.3,0.0
20063,1551439287807,1.507,2.41,1.6981,0.14,-0.0,0.92,-0,-2,-0,2715,7,76,23,86,516,0.0,300,300,60,119.0,0,0,300,392,40,0,0,0,0,0,0,,,,,
20083,1551439287827,1.482,2.404,1.7107,0.13,0.04,0.88,-0,-4,0,2715,7,76,23,86,516,0.0,300,300,60,119.0,0,0,300,392,40,0,0,0,0,0,0,,,,,
20103,1551439287847,1.482,2.388,1.6679,0.16,0.03,0.95,-0,-3,0,2715,7,76,23,86,516,0.0,300,300,60,119.0,0,0,300,392,40,0,0,0,0,0,0,,,,,
20123,1551439287867,1.474,2.367,1.6516,0.19,0.04,0.77,-0,-1,0,2715,7,76,23,86,516,0.0,300,300,60,119.0,0,0,300,392,40,0,0,0,0,0,0,,,,,
20143,1551439287887,1.523,2.428,1.6905,0.06,0.04,0.83,-0,-3,0,2715,7,76,23,86,516,0.0,300,300,60,119.0,0,0,300,392,40,0,0,0,0,0,0,45.8456,5.178999,0.0,735.3,0.0
20163,1551439287909,1.459,2.379,1.7773,0.11,0.06,0.91,0,-1,0,3916,8,76,23,79,502,0.0,300,300,60,116.0,0,0,300,618,84,0,0,0,0,0,0,,,,,
20183,1551439287929,1.536,2.389,1.7597,0.3,0.07,0.84,0,3,-0,3916,8,76,23,79,502,0.0,300,300,60,116.0,0,0,300,618,84,0,0,0,0,0,0,,,,,
20203,1551439287949,1.526,2.349,1.7257,0.47,0.12,0.74,0,6,-0,3916,8,76,23,79,502,0.0,300,300,60,116.0,0,0,300,618,84,0,0,0,0,0,0,,,,,
20223,1551439287969,1.521,2.392,1.7836,0.45,0.1,0.87,1,9,-0,3916,8,76,23,79,502,0.0,300,300,60,116.0,0,0,300,618,84,0,0,0,0,0,0,,,,,
20243,1551439287989,1.57,2.413,1.7069,0.25,0.14,0.83,0,5,1,3916,8,76,23,79,502,0.0,300,300,60,116.0,0,0,300,618,84,0,0,0,0,0,0,45.8456,5.178999,0.0,735.3,0.0
20263,1551439288005,1.552,2.401,1.7056,0.42,0.11,0.8,0,7,0,5131,10,76,23,73,516,0.0,300,300,60,120.0,0,0,408,402,77,0,0,0,0,0,0,,,,,
20283,1551439288025,1.521,2.383,1.6579,0.24,0.13,0.83,0,4,0,5131,10,76,23,73,516,0.0,300,300,60,120.0,0,0,408,402,77,0,0,0,0,0,0,,,,,
20303,1551439288045,1.562,2.45,1.7634,0.24,0.1,0.95,1,7,0,5131,10,76,23,73,516,0.0,300,300,60,120.0,0,0,408,402,77,0,0,0,0,0,0,,,,,
20323,1551439288065,1.555,2.389,1.6956,0.42,0.1,0.77,1,7,-0,5131,10,76,23,73,516,0.0,300,300,60,120.0,0,0,408,402,77,0,0,0,0,0,0,,,,,
20343,1551439288085,1.511,2.417,1.6428,0.46,0.11,0.66,0,5,-0,5131,10,76,23,73,516,0.0,300,300,60,120.0,0,0,408,402,77,0,0,0,0,0,0,45.8456,5.178999,0.0,735.3,0.0
20363,1551439288108,1.488,2.394,1.6503,0.42,0.12,0.42,0,1,-0,5912,10,76,23,65,500,0.0,300,300,60,116.0,0,0,549,455,98,0,0,0,0,0,0,,,,,
20383,1551439288128,1.461,2.403,1.6541,0.38,0.11,0.17,0,-2,0,5912,10,76,23,65,500,0.0,300,300,60,116.0,0,0,549,455,98,0,0,0,0,0,0,,,,,
20403,1551439288148,1.469,2.399,1.6528,0.38,0.09,-0.05,0,-6,0,5912,10,76,23,65,500,0.0,300,300,60,116.0,0,0,549,455,98,0,0,0,0,0,0,,,,,
20423,1551439288168,1.472,2.379,1.7056,0.47,0.05,-0.25,0,-7,0,5912,10,76,23,65,500,0.0,300,300,60,116.0,0,0,549,455,98,0,0,0,0,0,0,,,,,
20443,1551439288188,1.526,2.416,1.7383,0.62,0.11,-0.42,0,-5,1,5912,10,76,23,65,500,0.0,300,300,60,116.0,0,0,549,455,98,0,0,0,0,0,0,45.8456,5.178999,0.0,735.3,0.0
20463,1551439288208,1.55,2.407,1.7509,0.76,0.16,-0.47,0,0,0,6151,10,76,23,58,500,365.0,300,300,60,118.0,290,0,565,450,105,0,0,0,0,0,0,,,,,
20483,1551439288228,1.572,2.447,1.7471,0.89,0.14,-0.22,0,6,0,6151,10,76,23,58,500,365.0,300,300,60,118.0,290,0,565,450,105,0,0,0,0,0,0,,,,,
20503,1551439288248,1.497,2.432,1.7157,0.79,0.06,-0.0,0,9,-0,6151,10,76,23,58,500,365.0,300,300,60,118.0,290,0,565,450,105,0,0,0,0,0,0,,,,,
20523,1551439288268,1.543,2.415,1.6227,0.52,0.02,0.19,1,7,-0,6151,10,76,23,58,500,365.0,300,300,60,118.0,290,0,565,450,105,0,0,0,0,0,0,,,,,
20543,1551439288288,1.466,2.408,1.629,0.27,0.05,0.24,0,1,0,6151,10,76,23,58,500,365.0,300,300,60,118.0,290,0,565,450,105,0,0,0,0,0,0,45.8456,5.178999,0.0,735.3,0.0
20563,1551439288308,1.456,2.407,1.6528,0.24,0.09,0.01,0,-3,-0,6268,10,76,23,55,502,175.0,300,300,60,117.0,600,0,564,440,105,0,0,0,0,0,0,,,,,
20583,1551439288328,1.503,2.41,1.7358,0.42,0.12,-0.19,0,-1,-0,6268,10,76,23,55,502,175.0,300,300,60,117.0,600,0,564,440,105,0,0,0,0,0,0,,,,,
20603,1551439288348,1.565,2.404,1.7484,0.58,0.14,0.02,0,5,-1,6268,10,76,23,55,502,175.0,300,300,60,117.0,600,0,564,440,105,0,0,0,0,0,0,,,,,
20623,1551439288368,1.53,2.408,1.7182,0.51,0.09,0.22,0,8,-1,6268,10,76,23,55,502,175.0,300,300,60,117.0,600,0,564,440,105,0,0,0,0,0,0,,,,,
20643,1551439288388,1.51,2.396,1.678,0.26,0.05,0.39,0,4,-1,6268,10,76,23,55,502,175.0,300,300,60,117.0,600,0,564,440,105,0,0,0,0,0,0,45.8456,5.178999,0.0,735.3,0.0
20663,1551439288408,1.508,2.389,1.6604,0.04,0.04,0.42,0,-2,1,6250,11,76,22,55,502,175.0,300,300,60,118.0,640,0,565,473,112,0,0,0,0,0,0,,,,,
20683,1551439288428,1.468,2.417,1.6855,-0.07,0.02,0.18,0,-7,1,6250,11,76,22,55,502,175.0,300,300,60,118.0,640,0,565,473,112,0,0,0,0,0,0,,,,,
20703,1551439288448,1.437,2.412,1.7182,0.07,0.01,-0.04,0,-7,2,6250,11,76,22,55,502,175.0,300,300,60,118.0,640,0,565,473,112,0,0,0,0,0,0,,,,,
20723,1551439288468,1.513,2.41,1.7609,0.26,0.03,-0.24,-0,-4,2,6250,11,76,22,55,502,175.0,300,300,60,118.0,640,0,565,473,112,0,0,0,0,0,0,,,,,
20743,1551439288488,1.496,2.406,1.7559,0.44,0.01,-0.14,-0,2,1,6250,11,76,22,55,502,175.0,300,300,60,118.0,640,0,565,473,112,0,0,0,0,0,0,45.8456,5.178999,0.0,735.3,0.0
20763,1551439288509,1.511,2.396,1.7459,0.6,-0.01,0.08,0,7,-1,6139,12,76,22,55,513,50.0,300,300,60,119.0,2200,0,537,475,110,0,0,0,0,0,0,,,,,
20783,1551439288529,1.515,2.403,1.7232,0.64,-0.04,0.26,0,11,-2,6139,12,76,22,55,513,50.0,300,300,60,119.0,2200,0,537,475,110,0,0,0,0,0,0,,,,,
20803,1551439288549,1.525,2.41,1.7107,0.6,-0.08,0.44,0,13,-3,6139,12,76,22,55,513,50.0,300,300,60,119.0,2200,0,537,475,110,0,0,0,0,0,0,,,,,
20823,1551439288569,1.528,2.407,1.6956,0.49,-0.13,0.59,1,13,-3,6139,12,76,22,55,513,50.0,300,300,60,119.0,2200,0,537,475,110,0,0,0,0,0,0,,,,,
20843,1551439288589,1.515,2.41,1.688,0.38,-0.17,0.73,1,13,-4,6139,12,76,22,55,513,50.0,300,300,60,119.0,2200,0,537,475,110,0,0,0,0,0,0,45.8456,5.178999,0.0,735.3,0.0
20863,1551439288606,1.522,2.392,1.7006,0.33,-0.17,0.85,1,13,-4,6013,14,76,22,58,509,356.0,300,300,60,119.0,291,0,470,477,108,0,0,0,0,0,0,,,,,
20883,1551439288626,1.512,2.404,1.6981,0.27,-0.2,0.96,1,13,-4,6013,14,76,22,58,509,356.0,300,300,60,119.0,291,0,470,477,108,0,0,0,0,0,0,,,,,
20903,1551439288646,1.517,2.393,1.6968,0.2,-0.21,1.06,1,13,-5,6013,14,76,22,58,509,356.0,300,300,60,119.0,291,0,470,477,108,0,0,0,0,0,0,,,,,
20923,1551439288666,1.52,2.415,1.6993,0.1,-0.24,1.16,1,13,-5,6013,14,76,22,58,509,356.0,300,300,60,119.0,291,0,470,477,108,0,0,0,0,0,0,,,,,
20943,1551439288686,1.494,2.391,1.6629,-0.11,-0.24,1.24,1,10,-4,6013,14,76,22,58,509,356.0,300,300,60,119.0,291,0,470,477,108,0,0,0,0,0,0,45.8456,5.178999,0.0,735.3,0.0
20963,1551439288706,1.478,2.394,1.6579,-0.3,-0.21,1.31,1,4,-4,6133,16,76,22,60,505,344.0,300,300,60,118.0,303,0,419,462,107,0,0,0,0,0,0,,,,,
20983,1551439288726,1.432,2.387,1.6202,-0.46,-0.18,1.04,1,-3,-3,6133,16,76,22,60,505,344.0,300,300,60,118.0,303,0,419,462,107,0,0,0,0,0,0,,,,,
21003,1551439288746,1.505,2.421,1.7308,-0.32,-0.14,0.73,1,-4,-1,6133,16,76,22,60,505,344.0,300,300,60,118.0,303,0,419,462,107,0,0,0,0,0,0,,,,,
21023,1551439288766,1.555,2.443,1.7408,-0.09,-0.05,0.66,1,3,-1,6133,16,76,22,60,505,344.0,300,300,60,118.0,303,0,419,462,107,0,0,0,0,0,0,,,,,
21043,1551439288786,1.557,2.428,1.6817,-0.09,-0.06,0.79,1,5,-2,6133,16,76,22,60,505,344.0,300,300,60,118.0,303,0,419,462,107,0,0,0,0,0,0,45.8456,5.178999,0.0,735.3,0.0
21063,1551439288806,1.456,2.389,1.6755,-0.28,-0.06,0.69,0,-3,-2,6399,17,76,22,61,504,345.0,300,300,60,117.0,308,0,450,374,110,0,0,0,0,0,0,,,,,
21083,1551439288826,1.536,2.425,1.7986,-0.1,-0.08,0.42,0,-1,-1,6399,17,76,22,61,504,345.0,300,300,60,117.0,308,0,450,374,110,0,0,0,0,0,0,,,,,
21103,1551439288846,1.545,2.45,1.6767,0.1,-0.08,0.57,1,2,-1,6399,17,76,22,61,504,345.0,300,300,60,117.0,308,0,450,374,110,0,0,0,0,0,0,,,,,
21123,1551439288866,1.473,2.377,1.6264,-0.11,-0.11,0.51,1,-2,-0,6399,17,76,22,61,504,345.0,300,300,60,117.0,308,0,450,374,110,0,0,0,0,0,0,,,,,
21143,1551439288886,1.6,2.417,1.781,0.1,-0.05,0.42,0,3,-1,6399,17,76,22,61,504,345.0,300,300,60,117.0,308,0,450,374,110,0,0,0,0,0,0,45.8456,5.178999,0.0,735.3,0.0
21163,1551439288908,1.482,2.415,1.6667,-0.06,-0.08,0.58,1,1,-1,6618,18,76,22,61,511,366.0,300,300,60,120.0,0,0,472,456,114,0,0,0,0,0,0,,,,,
21183,1551439288928,1.482,2.394,1.7647,-0.09,-0.08,0.32,0,-2,0,6618,18,76,22,61,511,366.0,300,300,60,120.0,0,0,472,456,114,0,0,0,0,0,0,,,,,
21203,1551439288948,1.552,2.453,1.7081,0.11,-0.06,0.48,0,3,-1,6618,18,76,22,61,511,366.0,300,300,60,120.0,0,0,472,456,114,0,0,0,0,0,0,,,,,
21223,1551439288968,1.41,2.35,1.6654,-0.1,-0.03,0.23,0,-2,-0,6618,18,76,22,61,511,366.0,300,300,60,120.0,0,0,472,456,114,0,0,0,0,0,0,,,,,
21243,1551439288988,1.579,2.467,1.7207,0.11,0.01,0.36,1,3,-1,6618,18,76,22,61,511,366.0,300,300,60,120.0,0,0,472,456,114,0,0,0,0,0,0,45.8456,5.178999,0.0,735.3,0.0
21263,1551439289004,1.428,2.354,1.6993,-0.1,-0.05,0.42,0,-3,-1,6734,19,76,22,61,505,368.0,300,300,60,120.0,304,0,484,466,118,0,0,0,0,0,0,,,,,
21283,1551439289024,1.613,2.492,1.7584,0.12,-0.01,0.56,0,2,-1,6734,19,76,22,61,505,368.0,300,300,60,120.0,304,0,484,466,118,0,0,0,0,0,0,,,,,
21303,1551439289044,1.41,2.334,1.6755,0.18,0.04,0.3,0,-2,-0,6734,19,76,22,61,505,368.0,300,300,60,120.0,304,0,484,466,118,0,0,0,0,0,0,,,,,
21323,1551439289064,1.665,2.465,1.727,0.03,0.03,0.47,0,2,-1,6734,19,76,22,61,505,368.0,300,300,60,120.0,304,0,484,466,118,0,0,0,0,0,0,,,,,
21343,1551439289084,1.347,2.34,1.7383,0.23,0.03,0.22,-0,-1,-0,6734,19,76,22,61,505,368.0,300,300,60,120.0,304,0,484,466,118,0,0,0,0,0,0,45.8456,5.178999,0.0,735.3,0.0
21363,1551439289108,1.647,2.511,1.6956,0.01,0.03,0.39,0,-2,-1,6875,20,76,22,60,511,326.0,300,300,60,118.0,380,0,502,475,124,0,0,0,0,0,0,,,,,
21383,1551439289128,1.263,2.364,1.7559,0.21,0.04,0.53,0,3,-1,6875,20,76,22,60,511,326.0,300,300,60,118.0,380,0,502,475,124,0,0,0,0,0,0,,,,,
21403,1551439289148,1.653,2.442,1.7408,0.07,0.06,0.41,0,-2,-1,6875,20,76,22,60,511,326.0,300,300,60,118.0,380,0,502,475,124,0,0,0,0,0,0,,,,,
21423,1551439289168,1.527,2.441,1.6642,-0.13,-0.04,0.57,1,-1,-1,6875,20,76,22,60,511,326.0,300,300,60,118.0,380,0,502,475,124,0,0,0,0,0,0,,,,,
21443,1551439289188,1.412,2.372,1.7459,0.08,-0.02,0.71,0,5,-1,6875,20,76,22,60,511,326.0,300,300,60,118.0,380,0,502,475,124,0,0,0,0,0,0,45.8456,5.178999,0.0,735.3,0.0
21463,1551439289207,1.538,2.381,1.7735,0.17,0.05,0.52,-0,1,-1,7104,20,76,22,60,504,326.0,300,300,60,119.0,371,0,524,453,121,0,0,0,0,0,0,,,,,
21483,1551439289227,1.581,2.399,1.6629,-0.05,0.04,0.57,0,-4,-0,7104,20,76,22,60,504,326.0,300,300,60,119.0,371,0,524,453,121,0,0,0,0,0,0,,,,,
21503,1551439289247,1.472,2.443,1.6692,-0.11,-0.07,0.38,0,-0,0,7104,20,76,22,60,504,326.0,300,300,60,119.0,371,0,524,453,121,0,0,0,0,0,0,,,,,
21523,1551439289267,1.408,2.417,1.7019,0.1,-0.17,0.14,0,4,-0,7104,20,76,22,60,504,326.0,300,300,60,119.0,371,0,524,453,121,0,0,0,0,0,0,,,,,
21543,1551439289287,1.545,2.392,1.776,0.29,-0.05,0.33,-0,7,-1,7104,20,76,22,60,504,326.0,300,300,60,119.0,371,0,524,453,121,0,0,0,0,0,0,45.8456,5.178999,0.0,735.3,0.0
21563,1551439289309,1.546,2.406,1.8074,0.25,0.01,0.48,-0,3,-1,7178,20,76,22,58,504,9.0,300,300,60,118.0,0,0,528,364,120,0,0,0,0,0,0,,,,,
21583,1551439289329,1.582,2.422,1.732,0.03,0.02,0.58,0,-2,-0,7178,20,76,22,58,504,9.0,300,300,60,118.0,0,0,528,364,120,0,0,0,0,0,0,,,,,
21603,1551439289349,1.482,2.437,1.6905,-0.12,-0.09,0.68,0,-2,1,7178,20,76,22,58,504,9.0,300,300,60,118.0,0,0,528,364,120,0,0,0,0,0,0,,,,,
21623,1551439289369,1.389,2.392,1.7735,0.09,-0.13,0.41,0,4,0,7178,20,76,22,58,504,9.0,300,300,60,118.0,0,0,528,364,120,0,0,0,0,0,0,,,,,
21643,1551439289389,1.523,2.378,1.7999,0.18,0.04,0.34,-0,4,-1,7178,20,76,22,58,504,9.0,300,300,60,118.0,0,0,528,364,120,0,0,0,0,0,0,45.8456,5.178999,0.0,735.3,0.0
21663,1551439289407,1.599,2.452,1.732,-0.03,0.01,0.5,0,-3,-0,7040,21,76,22,58,509,12.0,300,300,60,118.0,0,0,520,402,128,0,0,0,0,0,0,,,,,
21683,1551439289427,1.502,2.428,1.7559,0.17,-0.08,0.65,0,2,0,7040,21,76,22,58,509,12.0,300,300,60,118.0,0,0,520,402,128,0,0,0,0,0,0,,,,,
21703,1551439289447,1.415,2.352,1.7986,0.36,0.09,0.38,-0,2,0,7040,21,76,22,58,509,12.0,300,300,60,118.0,0,0,520,402,128,0,0,0,0,0,0,,,,,
21723,1551439289467,1.662,2.49,1.7157,0.12,0.02,0.54,1,-2,-1,7040,21,76,22,58,509,12.0,300,300,60,118.0,0,0,520,402,128,0,0,0,0,0,0,,,,,
21743,1551439289487,1.368,2.362,1.8665,0.31,0.08,0.28,0,1,-0,7040,21,76,22,58,509,12.0,300,300,60,118.0,0,0,520,402,128,0,0,0,0,0,0,45.8456,5.178999,0.0,735.3,0.0
21763,1551439289505,1.631,2.432,1.6629,0.09,0.02,0.45,1,-1,-1,6783,21,76,22,61,508,19.0,300,300,60,118.0,0,0,485,500,128,0,0,0,0,0,0,,,,,
21783,1551439289525,1.439,2.366,1.8263,0.28,0.14,0.42,1,1,-1,6783,21,76,22,61,508,19.0,300,300,60,118.0,0,0,485,500,128,0,0,0,0,0,0,,,,,
21803,1551439289545,1.575,2.436,1.7509,0.1,0.1,0.58,1,3,-1,6783,21,76,22,61,508,19.0,300,300,60,118.0,0,0,485,500,128,0,0,0,0,0,0,,,,,
21823,1551439289565,1.505,2.404,1.7257,-0.11,0.06,0.37,1,-3,0,6783,21,76,22,61,508,19.0,300,300,60,118.0,0,0,485,500,128,0,0,0,0,0,0,,,,,
21843,1551439289585,1.488,2.371,1.8137,0.1,0.06,0.17,1,-2,0,6783,21,76,22,61,508,19.0,300,300,60,118.0,0,0,485,500,128,0,0,0,0,0,0,45.845612,5.178997,1.18,732.8,0.0
21863,1551439289605,1.564,2.427,1.8338,0.29,0.07,0.35,1,3,-0,6343,21,76,22,64,511,32.0,300,300,60,118.0,3937,0,419,526,126,0,0,0,0,0,0,,,,,
21883,1551439289625,1.507,2.397,1.7735,0.19,0.02,0.51,2,5,-2,6343,21,76,22,64,511,32.0,300,300,60,118.0,3937,0,419,526,126,0,0,0,0,0,0,,,,,
21903,1551439289645,1.53,2.422,1.7257,-0.02,-0.0,0.63,2,3,-2,6343,21,76,22,64,511,32.0,300,300,60,118.0,3937,0,419,526,126,0,0,0,0,0,0,,,,,
21923,1551439289665,1.458,2.382,1.7207,-0.22,-0.01,0.46,2,-1,-1,6343,21,76,22,64,511,32.0,300,300,60,118.0,3937,0,419,526,126,0,0,0,0,0,0,,,,,
21943,1551439289685,1.53,2.389,1.7697,-0.21,0.03,0.21,3,-4,-0,6343,21,76,22,64,511,32.0,300,300,60,118.0,3937,0,419,526,126,0,0,0,0,0,0,45.845612,5.178997,1.71,732.8,0.0
21963,1551439289705,1.536,2.377,1.8162,0.02,0.11,0.03,3,-2,0,6220,21,77,22,67,505,47.0,300,300,60,115.0,2680,0,400,534,126,0,0,0,0,0,0,,,,,
21983,1551439289725,1.542,2.398,1.8313,0.22,0.1,0.21,3,3,1,6220,21,77,22,67,505,47.0,300,300,60,115.0,2680,0,400,534,126,0,0,0,0,0,0,,,,,
22003,1551439289745,1.523,2.437,1.7836,0.25,0.04,0.39,3,7,-0,6220,21,77,22,67,505,47.0,300,300,60,115.0,2680,0,400,534,126,0,0,0,0,0,0,,,,,
22023,1551439289765,1.517,2.412,1.7283,0.03,0.0,0.54,4,5,-0,6220,21,77,22,67,505,47.0,300,300,60,115.0,2680,0,400,534,126,0,0,0,0,0,0,,,,,
22043,1551439289785,1.492,2.412,1.7207,-0.17,-0.04,0.37,4,-1,-0,6220,21,77,22,67,505,47.0,300,300,60,115.0,2680,0,400,534,126,0,0,0,0,0,0,45.845615,5.178995,2.27,732.8,0.0
22063,1551439289807,1.512,2.412,1.81,-0.19,-0.06,0.16,4,-5,-1,6294,21,77,22,68,500,58.0,300,300,60,115.0,2155,0,411,449,125,0,0,0,0,0,0,,,,,
22083,1551439289827,1.503,2.401,1.8539,0.03,0.03,0.05,4,-2,-1,6294,21,77,22,68,500,58.0,300,300,60,115.0,2155,0,411,449,125,0,0,0,0,0,0,,,,,
22103,1551439289847,1.605,2.416,1.8389,0.21,0.05,0.25,5,2,-0,6294,21,77,22,68,500,58.0,300,300,60,115.0,2155,0,411,449,125,0,0,0,0,0,0,,,,,
22123,1551439289867,1.565,2.417,1.7848,0.06,-0.03,0.42,5,3,-1,6294,21,77,22,68,500,58.0,300,300,60,115.0,2155,0,411,449,125,0,0,0,0,0,0,,,,,
22143,1551439289887,1.478,2.433,1.7283,-0.14,-0.11,0.35,6,-1,0,6294,21,77,22,68,500,58.0,300,300,60,115.0,2155,0,411,449,125,0,0,0,0,0,0,45.845619,5.178994,2.96,732.8,0.0
22163,1551439289909,1.463,2.404,1.7773,-0.14,-0.06,0.12,6,-4,0,6311,21,77,22,68,500,70.0,300,300,60,115.0,1800,0,414,528,126,0,0,0,0,0,0,,,,,
22183,1551439289929,1.63,2.427,1.8464,0.07,0.05,0.25,6,1,-1,6311,21,77,22,68,500,70.0,300,300,60,115.0,1800,0,414,528,126,0,0,0,0,0,0,,,,,
22203,1551439289949,1.586,2.428,1.7911,0.12,0.03,0.43,6,4,-1,6311,21,77,22,68,500,70.0,300,300,60,115.0,1800,0,414,528,126,0,0,0,0,0,0,,,,,
22223,1551439289969,1.489,2.402,1.722,-0.09,-0.0,0.46,7,-0,0,6311,21,77,22,68,500,70.0,300,300,60,115.0,1800,0,414,528,126,0,0,0,0,0,0,,,,,
22243,1551439289989,1.487,2.412,1.7924,-0.13,-0.03,0.21,6,-4,1,6311,21,77,22,68,500,70.0,300,300,60,115.0,1800,0,414,528,126,0,0,0,0,0,0,45.845623,5.178992,3.54,732.8,0.0
22263,1551439290005,1.54,2.41,1.864,0.09,-0.02,0.34,6,0,1,6394,22,77,22,68,508,82.0,1000,300,60,116.0,1617,0,421,540,131,0,0,0,0,0,0,,,,,
22283,1551439290025,1.593,2.423,1.7697,0.1,-0.05,0.5,7,4,-0,6394,22,77,22,68,508,82.0,1000,300,60,116.0,1617,0,421,540,131,0,0,0,0,0,0,,,,,
22303,1551439290045,1.499,2.41,1.7371,-0.11,-0.08,0.56,7,-0,-0,6394,22,77,22,68,508,82.0,1000,300,60,116.0,1617,0,421,540,131,0,0,0,0,0,0,,,,,
22323,1551439290065,1.468,2.372,1.7622,-0.19,-0.02,0.3,8,-4,1,6394,22,77,22,68,508,82.0,1000,300,60,116.0,1617,0,421,540,131,0,0,0,0,0,0,,,,,
22343,1551439290085,1.562,2.407,1.8389,0.04,0.04,0.09,8,-0,1,6394,22,77,22,68,508,82.0,1000,300,60,116.0,1617,0,421,540,131,0,0,0,0,0,0,45.845627,5.17899,4.25,732.8,0.0
22363,1551439290109,1.572,2.43,1.8263,0.23,-0.04,0.28,8,5,1,6304,22,77,22,68,512,95.0,1000,300,60,118.0,1368,0,407,545,130,0,0,0,0,0,0,,,,,
22383,1551439290129,1.532,2.425,1.7697,0.03,-0.09,0.45,8,4,0,6304,22,77,22,68,512,95.0,1000,300,60,118.0,1368,0,407,545,130,0,0,0,0,0,0,,,,,
22403,1551439290149,1.512,2.396,1.7509,-0.17,-0.1,0.35,8,-2,0,6304,22,77,22,68,512,95.0,1000,300,60,118.0,1368,0,407,545,130,0,0,0,0,0,0,,,,,
22423,1551439290169,1.515,2.432,1.8364,-0.19,-0.09,0.11,8,-4,1,6304,22,77,22,68,512,95.0,1000,300,60,118.0,1368,0,407,545,130,0,0,0,0,0,0,,,,,
