"Interval"|"ms"|0|0|1,"Utc"|"ms"|0|0|1,"AccelAvantX"|"G"|0.0|10.0|50,"AccelAvantZ"|"G"|0.0|10.0|50,"AccelAvantY"|"G"|0.0|10.0|50,"AccelX"|"G"|-3.0|3.0|50,"AccelY"|"G"|-3.0|3.0|50,"AccelZ"|"G"|-3.0|3.0|50,"Yaw"|"Deg/Sec"|-120|120|50,"Pitch"|"Deg/Sec"|-120|120|50,"Roll"|"Deg/Sec"|-120|120|50,"RPM"|""|0|14000|50,"TPS"|"%"|0|100|50,"WaterTemp"|"?C"|0|300|50,"AirTemp"|"?C"|-1000|1000|50,"MAP"|"KPa"|0|255|50,"Lambda"|""|0|1024|50,"WheelSpeed"|"MPH"|0.0|150.0|50,"OilPress"|"PSI"|0|150|50,"FuelPress"|"PSI"|0|150|50,"OilTemp"|"F"|0|300|50,"Battery"|"Volts"|0.0|20.0|50,"FuelCon"|"L/h"|-1000|1000|50,"Gear"|""|0|10|50,"Advance"|"Deg"|-360|360|50,"Injection"|"ms"|-1000|1000|50,"FuelCon"|"L/100km"|-1000|1000|50,"LC_But_Pres"|""|-1000|1000|50,"LC_Active"|""|-1000|1000|50,"RD_Speed"|""|-1000|1000|50,"RUD_Speed"|""|-1000|1000|50,"LD_Speed"|""|-1000|1000|50,"LUD_Speed"|""|-1000|1000|50,"Latitude"|"Degrees"|-180.0|180.0|10,"Longitude"|"Degrees"|-180.0|180.0|10,"Speed"|"MPH"|0.0|150.0|10,"Altitude"|"ft"|0.0|4000.0|10,"Distance"|"mi"|0.0|0.0|10
23643,1551439783271,1.531,2.423,1.7056,0.16,-0.02,0.96,0,0,-1,1789,1,90,20,92,516,0.0,300,300,60,115.0,0,0,-20,393,25,0,0,0,0,0,0,45.845741,5.178934,0.0,739.3,0.0
23663,1551439783291,1.508,2.41,1.683,0.17,-0.03,0.95,0,0,-1,1789,1,90,20,92,516,0.0,300,300,60,115.0,0,0,-20,393,25,0,0,0,0,0,0,,,,,
23683,1551439783311,1.528,2.407,1.7132,0.17,-0.02,0.95,0,-0,-0,1795,1,90,20,92,516,0.0,300,300,60,114.0,0,0,-20,393,24,0,0,0,0,0,0,,,,,
23703,1551439783331,1.53,2.402,1.6918,0.16,-0.03,0.98,0,0,-1,1795,1,90,20,92,516,0.0,300,300,60,114.0,0,0,-20,393,24,0,0,0,0,0,0,,,,,
23723,1551439783351,1.533,2.422,1.6805,0.15,-0.02,0.99,0,0,-0,1795,1,90,20,92,516,0.0,300,300,60,114.0,0,0,-20,393,24,0,0,0,0,0,0,,,,,
23743,1551439783371,1.521,2.408,1.6792,0.16,-0.0,0.94,-0,0,-0,1795,1,90,20,92,516,0.0,300,300,60,114.0,0,0,-20,393,24,0,0,0,0,0,0,45.845741,5.178934,0.0,739.3,0.0
23763,1551439783391,1.521,2.396,1.7157,0.15,0.01,0.95,-0,-0,-0,1795,1,90,20,92,516,0.0,300,300,60,114.0,0,0,-20,393,24,0,0,0,0,0,0,,,,,
23783,1551439783405,1.543,2.415,1.7119,0.15,-0.01,0.95,-0,-0,-0,1778,1,90,20,91,502,0.0,300,300,60,111.0,0,0,-20,393,25,0,0,0,0,0,0,,,,,
23803,1551439783425,1.513,2.407,1.6931,0.16,-0.01,0.94,-0,-0,-0,1778,1,90,20,91,502,0.0,300,300,60,111.0,0,0,-20,393,25,0,0,0,0,0,0,,,,,
23823,1551439783445,1.521,2.402,1.7006,0.15,-0.02,0.96,-0,-0,-0,1778,1,90,20,91,502,0.0,300,300,60,111.0,0,0,-20,393,25,0,0,0,0,0,0,,,,,
23843,1551439783465,1.51,2.399,1.7144,0.15,-0.02,0.97,-0,-0,-0,1778,1,90,20,91,502,0.0,300,300,60,111.0,0,0,-20,393,25,0,0,0,0,0,0,45.845741,5.178934,0.0,739.3,0.0
23863,1551439783485,1.521,2.403,1.6956,0.15,-0.03,0.98,-0,-0,-0,1778,1,90,20,91,502,0.0,300,300,60,111.0,0,0,-20,393,25,0,0,0,0,0,0,,,,,
23883,1551439783509,1.517,2.41,1.678,0.15,-0.03,0.98,-0,-0,-0,1626,1,90,20,93,516,0.0,300,300,60,114.0,0,0,-21,405,25,0,0,0,0,0,0,,,,,
23903,1551439783529,1.505,2.407,1.6817,0.16,-0.03,0.99,0,-0,-0,1626,1,90,20,93,516,0.0,300,300,60,114.0,0,0,-21,405,25,0,0,0,0,0,0,,,,,
23923,1551439783549,1.527,2.426,1.7019,0.16,-0.02,0.95,0,-0,-0,1626,1,90,20,93,516,0.0,300,300,60,114.0,0,0,-21,405,25,0,0,0,0,0,0,,,,,
23943,1551439783569,1.525,2.408,1.7044,0.17,-0.02,0.94,0,-0,-0,1626,1,90,20,93,516,0.0,300,300,60,114.0,0,0,-21,405,25,0,0,0,0,0,0,45.845741,5.178934,0.0,739.3,0.0
23963,1551439783589,1.525,2.42,1.6931,0.18,-0.03,0.93,0,0,-0,1626,1,90,20,93,516,0.0,300,300,60,114.0,0,0,-21,405,25,0,0,0,0,0,0,,,,,
23983,1551439783609,1.513,2.415,1.6918,0.18,-0.03,0.95,0,0,-0,1520,1,90,20,92,516,0.0,300,300,60,114.0,0,0,-21,413,25,0,0,0,0,0,0,,,,,
24003,1551439783629,1.52,2.421,1.7056,0.17,-0.05,0.98,0,0,-1,1520,1,90,20,92,516,0.0,300,300,60,114.0,0,0,-21,413,25,0,0,0,0,0,0,,,,,
24023,1551439783649,1.533,2.418,1.6943,0.17,-0.04,1.0,0,0,-1,1520,1,90,20,92,516,0.0,300,300,60,114.0,0,0,-21,413,25,0,0,0,0,0,0,,,,,
24043,1551439783669,1.513,2.406,1.6993,0.17,-0.03,1.0,0,0,-0,1520,1,90,20,92,516,0.0,300,300,60,114.0,0,0,-21,413,25,0,0,0,0,0,0,45.845741,5.178934,0.0,739.3,0.0
24063,1551439783689,1.513,2.411,1.7094,0.16,-0.03,1.03,0,-0,-0,1520,1,90,20,92,516,0.0,300,300,60,114.0,0,0,-21,413,25,0,0,0,0,0,0,,,,,
24083,1551439783709,1.51,2.396,1.7195,0.15,-0.03,1.04,0,-0,-0,1480,1,91,20,91,512,0.0,300,300,60,112.0,0,0,-21,414,24,0,0,0,0,0,0,,,,,
24103,1551439783729,1.525,2.402,1.7182,0.14,-0.02,1.04,0,-0,-0,1480,1,91,20,91,512,0.0,300,300,60,112.0,0,0,-21,414,24,0,0,0,0,0,0,,,,,
24123,1551439783749,1.527,2.394,1.7207,0.14,0.01,1.0,0,-0,-0,1480,1,91,20,91,512,0.0,300,300,60,112.0,0,0,-21,414,24,0,0,0,0,0,0,,,,,
24143,1551439783769,1.516,2.398,1.722,0.14,0.01,1.0,0,-0,-0,1480,1,91,20,91,512,0.0,300,300,60,112.0,0,0,-21,414,24,0,0,0,0,0,0,45.845741,5.178934,0.0,739.3,0.0
24163,1551439783789,1.515,2.412,1.6943,0.14,0.03,1.01,0,0,-0,1480,1,91,20,91,512,0.0,300,300,60,112.0,0,0,-21,414,24,0,0,0,0,0,0,,,,,
24183,1551439783809,1.518,2.416,1.6717,0.13,0.04,1.02,0,-0,-0,1711,1,91,20,93,515,0.0,300,300,60,114.0,0,0,-18,399,24,0,0,0,0,0,0,,,,,
24203,1551439783829,1.501,2.421,1.678,0.13,0.04,1.0,0,-0,-0,1711,1,91,20,93,515,0.0,300,300,60,114.0,0,0,-18,399,24,0,0,0,0,0,0,,,,,
24223,1551439783849,1.511,2.422,1.7006,0.12,0.04,0.97,0,-0,-0,1711,1,91,20,93,515,0.0,300,300,60,114.0,0,0,-18,399,24,0,0,0,0,0,0,,,,,
24243,1551439783869,1.531,2.435,1.6918,0.12,0.05,0.94,0,-0,0,1711,1,91,20,93,515,0.0,300,300,60,114.0,0,0,-18,399,24,0,0,0,0,0,0,45.845741,5.178934,0.0,739.3,0.0
24263,1551439783893,1.506,2.431,1.6893,0.13,0.05,0.93,0,-0,0,1711,1,91,20,93,515,0.0,300,300,60,114.0,0,0,-18,399,24,0,0,0,0,0,0,,,,,
24283,1551439783913,1.516,2.407,1.7119,0.14,0.05,0.91,0,-0,0,1629,1,91,20,92,516,0.0,300,300,60,115.0,0,0,-18,405,24,0,0,0,0,0,0,,,,,
24303,1551439783933,1.521,2.408,1.7119,0.13,0.05,0.9,0,-0,0,1629,1,91,20,92,516,0.0,300,300,60,115.0,0,0,-18,405,24,0,0,0,0,0,0,,,,,
24323,1551439783953,1.51,2.402,1.7094,0.13,0.04,0.9,0,-0,0,1629,1,91,20,92,516,0.0,300,300,60,115.0,0,0,-18,405,24,0,0,0,0,0,0,,,,,
24343,1551439783973,1.52,2.398,1.6981,0.14,0.04,0.89,0,-0,0,1629,1,91,20,92,516,0.0,300,300,60,115.0,0,0,-18,405,24,0,0,0,0,0,0,45.845741,5.178934,0.0,739.3,0.0
24363,1551439783993,1.499,2.407,1.6918,0.13,0.03,0.9,0,-0,-0,1629,1,91,20,92,516,0.0,300,300,60,115.0,0,0,-18,405,24,0,0,0,0,0,0,,,,,
24383,1551439784005,1.513,2.415,1.7094,0.14,0.02,0.91,0,-0,-0,1603,1,91,20,91,502,0.0,300,300,60,110.0,0,0,-18,407,25,0,0,0,0,0,0,,,,,
24403,1551439784025,1.512,2.413,1.6981,0.14,0.01,0.92,0,-0,-0,1603,1,91,20,91,502,0.0,300,300,60,110.0,0,0,-18,407,25,0,0,0,0,0,0,,,,,
24423,1551439784045,1.522,2.412,1.7169,0.13,-0.0,0.96,0,-0,-0,1603,1,91,20,91,502,0.0,300,300,60,110.0,0,0,-18,407,25,0,0,0,0,0,0,,,,,
24443,1551439784065,1.526,2.406,1.7056,0.13,-0.0,0.96,0,-0,-0,1603,1,91,20,91,502,0.0,300,300,60,110.0,0,0,-18,407,25,0,0,0,0,0,0,45.845741,5.178934,0.0,739.3,0.0
24463,1551439784092,1.522,2.408,1.7019,0.13,-0.01,0.94,0,-1,-0,1603,1,91,20,91,502,0.0,300,300,60,110.0,0,0,-18,407,25,0,0,0,0,0,0,,,,,
24483,1551439784112,1.521,2.418,1.7006,0.13,-0.02,0.91,0,-1,-0,1479,1,91,20,92,516,0.0,300,300,60,114.0,0,0,-18,414,25,0,0,0,0,0,0,,,,,
24503,1551439784132,1.511,2.415,1.6843,0.14,-0.02,0.95,0,-0,-0,1479,1,91,20,92,516,0.0,300,300,60,114.0,0,0,-18,414,25,0,0,0,0,0,0,,,,,
24523,1551439784152,1.523,2.416,1.6742,0.15,-0.03,0.98,0,-0,-0,1479,1,91,20,92,516,0.0,300,300,60,114.0,0,0,-18,414,25,0,0,0,0,0,0,,,,,
24543,1551439784172,1.517,2.418,1.6968,0.15,-0.02,0.93,0,-0,-0,1479,1,91,20,92,516,0.0,300,300,60,114.0,0,0,-18,414,25,0,0,0,0,0,0,45.845741,5.178934,0.0,739.3,0.0
24563,1551439784192,1.511,2.389,1.7081,0.16,-0.01,0.91,0,-0,-0,1479,1,91,20,92,516,0.0,300,300,60,114.0,0,0,-18,414,25,0,0,0,0,0,0,,,,,
24583,1551439784212,1.523,2.407,1.6931,0.16,-0.01,0.89,0,-0,-0,1551,1,91,20,91,514,0.0,300,300,60,114.0,0,0,-16,411,25,0,0,0,0,0,0,,,,,
24603,1551439784232,1.515,2.411,1.6855,0.17,-0.01,0.91,0,0,-0,1551,1,91,20,91,514,0.0,300,300,60,114.0,0,0,-16,411,25,0,0,0,0,0,0,,,,,
24623,1551439784252,1.517,2.423,1.7094,0.16,-0.01,0.92,0,0,-0,1551,1,91,20,91,514,0.0,300,300,60,114.0,0,0,-16,411,25,0,0,0,0,0,0,,,,,
24643,1551439784272,1.518,2.404,1.7069,0.16,-0.0,0.96,0,0,-0,1551,1,91,20,91,514,0.0,300,300,60,114.0,0,0,-16,411,25,0,0,0,0,0,0,45.845741,5.178934,0.0,739.3,0.0
24663,1551439784292,1.528,2.412,1.7094,0.16,-0.0,0.96,0,0,-0,1551,1,91,20,91,514,0.0,300,300,60,114.0,0,0,-16,411,25,0,0,0,0,0,0,,,,,
24683,1551439784312,1.521,2.421,1.6943,0.16,0.0,0.97,0,0,-0,1743,1,91,20,92,515,0.0,300,300,60,114.0,0,0,-14,397,23,0,0,0,0,0,0,,,,,
24703,1551439784332,1.518,2.421,1.6943,0.16,0.01,1.01,0,0,-0,1743,1,91,20,92,515,0.0,300,300,60,114.0,0,0,-14,397,23,0,0,0,0,0,0,,,,,
24723,1551439784352,1.518,2.423,1.6692,0.15,0.02,0.98,0,0,-0,1743,1,91,20,92,515,0.0,300,300,60,114.0,0,0,-14,397,23,0,0,0,0,0,0,,,,,
24743,1551439784372,1.53,2.418,1.6981,0.16,0.03,0.94,0,0,-0,1743,1,91,20,92,515,0.0,300,300,60,114.0,0,0,-14,397,23,0,0,0,0,0,0,45.845741,5.178934,0.0,739.3,0.0
24763,1551439784392,1.522,2.416,1.7157,0.16,0.03,0.93,0,-0,-0,1743,1,91,20,92,515,0.0,300,300,60,114.0,0,0,-14,397,23,0,0,0,0,0,0,,,,,
24783,1551439784412,1.512,2.411,1.7056,0.16,0.03,0.95,0,-0,-0,1723,1,91,20,91,502,0.0,300,300,60,111.0,0,0,-14,398,24,0,0,0,0,0,0,,,,,
24803,1551439784432,1.51,2.402,1.7069,0.15,0.03,1.02,0,-0,-0,1723,1,91,20,91,502,0.0,300,300,60,111.0,0,0,-14,398,24,0,0,0,0,0,0,,,,,
24823,1551439784452,1.511,2.407,1.7094,0.14,0.03,1.05,0,-0,-0,1723,1,91,20,91,502,0.0,300,300,60,111.0,0,0,-14,398,24,0,0,0,0,0,0,,,,,
24843,1551439784472,1.521,2.402,1.7195,0.14,0.03,1.02,0,-1,-0,1723,1,91,20,91,502,0.0,300,300,60,111.0,0,0,-14,398,24,0,0,0,0,0,0,45.845741,5.178934,0.0,739.3,0.0
24863,1551439784492,1.528,2.401,1.7182,0.14,0.01,1.02,0,-1,-0,1723,1,91,20,91,502,0.0,300,300,60,111.0,0,0,-14,398,24,0,0,0,0,0,0,,,,,
24883,1551439784510,1.506,2.404,1.6767,0.13,0.03,1.04,0,-0,-0,1705,1,91,20,92,515,0.0,300,300,60,115.0,0,0,-14,399,24,0,0,0,0,0,0,,,,,
24903,1551439784530,1.506,2.412,1.6893,0.14,0.01,1.03,0,-0,-0,1705,1,91,20,92,515,0.0,300,300,60,115.0,0,0,-14,399,24,0,0,0,0,0,0,,,,,
24923,1551439784550,1.527,2.412,1.7081,0.15,0.0,0.99,0,-0,-0,1705,1,91,20,92,515,0.0,300,300,60,115.0,0,0,-14,399,24,0,0,0,0,0,0,,,,,
24943,1551439784570,1.541,2.421,1.7031,0.15,0.01,0.99,0,-0,-0,1705,1,91,20,92,515,0.0,300,300,60,115.0,0,0,-14,399,24,0,0,0,0,0,0,45.845741,5.178934,0.0,739.3,0.0
24963,1551439784590,1.525,2.416,1.6968,0.15,0.01,0.98,0,-0,-0,1705,1,91,20,92,515,0.0,300,300,60,115.0,0,0,-14,399,24,0,0,0,0,0,0,,,,,
24983,1551439784609,1.531,2.423,1.6956,0.15,-0.0,0.99,0,-0,-0,1569,1,91,20,91,504,0.0,300,300,60,111.0,0,0,-16,409,26,0,0,0,0,0,0,,,,,
25003,1551439784629,1.523,2.412,1.7144,0.15,-0.0,0.97,0,-0,-0,1569,1,91,20,91,504,0.0,300,300,60,111.0,0,0,-16,409,26,0,0,0,0,0,0,,,,,
25023,1551439784649,1.543,2.418,1.7006,0.15,0.01,1.02,0,0,-0,1569,1,91,20,91,504,0.0,300,300,60,111.0,0,0,-16,409,26,0,0,0,0,0,0,,,,,
25043,1551439784669,1.538,2.423,1.6968,0.14,0.01,1.0,0,0,-0,1569,1,91,20,91,504,0.0,300,300,60,111.0,0,0,-16,409,26,0,0,0,0,0,0,45.845741,5.178934,0.0,739.3,0.0
25063,1551439784689,1.511,2.427,1.6717,0.15,0.01,1.0,0,0,-0,1569,1,91,20,91,504,0.0,300,300,60,111.0,0,0,-16,409,26,0,0,0,0,0,0,,,,,
25083,1551439784708,1.508,2.43,1.6767,0.14,0.0,0.98,0,0,-0,1629,1,92,20,92,515,0.0,300,300,60,114.0,0,0,-16,405,26,0,0,0,0,0,0,,,,,
25103,1551439784728,1.528,2.406,1.7144,0.15,0.0,0.94,0,0,-0,1629,1,92,20,92,515,0.0,300,300,60,114.0,0,0,-16,405,26,0,0,0,0,0,0,,,,,
25123,1551439784748,1.531,2.422,1.7094,0.14,0.0,0.97,0,-0,-0,1629,1,92,20,92,515,0.0,300,300,60,114.0,0,0,-16,405,26,0,0,0,0,0,0,,,,,
25143,1551439784768,1.497,2.411,1.688,0.15,0.02,0.97,0,0,-0,1629,1,92,20,92,515,0.0,300,300,60,114.0,0,0,-16,405,26,0,0,0,0,0,0,45.845741,5.178934,0.0,739.3,0.0
25163,1551439784788,1.507,2.403,1.6993,0.15,0.02,0.97,0,-0,-0,1629,1,92,20,92,515,0.0,300,300,60,114.0,0,0,-16,405,26,0,0,0,0,0,0,,,,,
25183,1551439784808,1.523,2.398,1.7056,0.15,0.01,0.95,0,-0,-0,1655,1,92,20,92,515,0.0,300,300,60,114.0,0,0,-15,403,25,0,0,0,0,0,0,,,,,
25203,1551439784828,1.517,2.397,1.7044,0.15,-0.0,0.99,0,-0,-0,1655,1,92,20,92,515,0.0,300,300,60,114.0,0,0,-15,403,25,0,0,0,0,0,0,,,,,
25223,1551439784848,1.512,2.41,1.6843,0.15,0.0,0.97,0,0,-0,1655,1,92,20,92,515,0.0,300,300,60,114.0,0,0,-15,403,25,0,0,0,0,0,0,,,,,
25243,1551439784868,1.508,2.41,1.6817,0.16,0.01,0.91,0,0,-0,1655,1,92,20,92,515,0.0,300,300,60,114.0,0,0,-15,403,25,0,0,0,0,0,0,45.845741,5.178934,0.0,739.3,0.0
25263,1551439784892,1.525,2.421,1.7069,0.16,0.02,0.91,0,-0,-0,1655,1,92,20,92,515,0.0,300,300,60,114.0,0,0,-15,403,25,0,0,0,0,0,0,,,,,
25283,1551439784912,1.533,2.397,1.7081,0.16,0.02,0.91,0,0,-0,1627,1,92,20,91,516,0.0,300,300,60,114.0,0,0,-14,405,24,0,0,0,0,0,0,,,,,
25303,1551439784932,1.523,2.415,1.6918,0.16,0.01,0.92,0,0,-0,1627,1,92,20,91,516,0.0,300,300,60,114.0,0,0,-14,405,24,0,0,0,0,0,0,,,,,
25323,1551439784952,1.512,2.41,1.6918,0.15,0.01,0.93,0,0,-0,1627,1,92,20,91,516,0.0,300,300,60,114.0,0,0,-14,405,24,0,0,0,0,0,0,,,,,
25343,1551439784972,1.513,2.416,1.7056,0.15,0.01,0.95,0,0,-0,1627,1,92,20,91,516,0.0,300,300,60,114.0,0,0,-14,405,24,0,0,0,0,0,0,45.845741,5.178934,0.0,739.3,0.0
25363,1551439784992,1.546,2.422,1.6981,0.14,0.01,0.97,0,0,-0,1627,1,92,20,91,516,0.0,300,300,60,114.0,0,0,-14,405,24,0,0,0,0,0,0,,,,,
25383,1551439785005,1.513,2.41,1.6981,0.14,0.01,1.0,0,0,-0,1676,1,92,20,92,503,0.0,300,300,60,110.0,0,0,-13,402,24,0,0,0,0,0,0,,,,,
25403,1551439785025,1.523,2.413,1.7044,0.13,0.01,1.03,0,0,-0,1676,1,92,20,92,503,0.0,300,300,60,110.0,0,0,-13,402,24,0,0,0,0,0,0,,,,,
25423,1551439785045,1.516,2.412,1.7195,0.13,0.01,1.05,0,-0,-0,1676,1,92,20,92,503,0.0,300,300,60,110.0,0,0,-13,402,24,0,0,0,0,0,0,,,,,
25443,1551439785065,1.535,2.402,1.7119,0.13,0.01,1.02,0,-0,-0,1676,1,92,20,92,503,0.0,300,300,60,110.0,0,0,-13,402,24,0,0,0,0,0,0,45.845741,5.178934,0.0,739.3,0.0
25463,1551439785091,1.521,2.398,1.7144,0.13,0.03,1.03,0,-1,-0,1676,1,92,20,92,503,0.0,300,300,60,110.0,0,0,-13,402,24,0,0,0,0,0,0,,,,,
25483,1551439785111,1.52,2.401,1.7169,0.12,0.03,1.02,0,-1,-0,1642,1,92,20,92,514,0.0,300,300,60,114.0,0,0,-13,404,23,0,0,0,0,0,0,,,,,
25503,1551439785131,1.513,2.402,1.7157,0.13,0.03,1.03,0,-0,-0,1642,1,92,20,92,514,0.0,300,300,60,114.0,0,0,-13,404,23,0,0,0,0,0,0,,,,,
25523,1551439785151,1.513,2.399,1.6893,0.14,0.03,1.07,0,-0,-0,1642,1,92,20,92,514,0.0,300,300,60,114.0,0,0,-13,404,23,0,0,0,0,0,0,,,,,
25543,1551439785171,1.508,2.421,1.6943,0.14,0.02,1.08,0,-0,-0,1642,1,92,20,92,514,0.0,300,300,60,114.0,0,0,-13,404,23,0,0,0,0,0,0,45.845741,5.178934,0.0,739.3,0.0
25563,1551439785193,1.505,2.41,1.7019,0.14,0.0,1.09,0,-0,-0,1642,1,92,20,92,514,0.0,300,300,60,114.0,0,0,-13,404,23,0,0,0,0,0,0,,,,,
25583,1551439785213,1.512,2.408,1.7019,0.15,-0.0,1.14,0,0,-0,1448,1,92,20,93,515,0.0,300,300,60,114.0,0,0,-13,414,25,0,0,0,0,0,0,,,,,
25603,1551439785233,1.521,2.412,1.683,0.14,0.0,1.14,0,0,-0,1448,1,92,20,93,515,0.0,300,300,60,114.0,0,0,-13,414,25,0,0,0,0,0,0,,,,,
25623,1551439785253,1.513,2.427,1.6855,0.15,0.01,1.11,0,0,-0,1448,1,92,20,93,515,0.0,300,300,60,114.0,0,0,-13,414,25,0,0,0,0,0,0,,,,,
25643,1551439785273,1.533,2.416,1.7069,0.16,0.01,1.08,0,0,-0,1448,1,92,20,93,515,0.0,300,300,60,114.0,0,0,-13,414,25,0,0,0,0,0,0,45.845741,5.178934,0.0,739.3,0.0
25663,1551439785293,1.518,2.411,1.7119,0.16,0.01,1.04,0,0,-0,1448,1,92,20,93,515,0.0,300,300,60,114.0,0,0,-13,414,25,0,0,0,0,0,0,,,,,
25683,1551439785313,1.537,2.412,1.6843,0.17,0.01,1.03,0,0,-0,1514,1,92,20,91,515,0.0,300,300,60,114.0,0,0,-12,413,25,0,0,0,0,0,0,,,,,
25703,1551439785333,1.526,2.415,1.6931,0.17,0.0,1.04,0,1,-0,1514,1,92,20,91,515,0.0,300,300,60,114.0,0,0,-12,413,25,0,0,0,0,0,0,,,,,
25723,1551439785353,1.515,2.41,1.7044,0.16,-0.01,1.04,0,1,-0,1514,1,92,20,91,515,0.0,300,300,60,114.0,0,0,-12,413,25,0,0,0,0,0,0,,,,,
25743,1551439785373,1.531,2.418,1.6968,0.16,-0.01,1.04,0,0,-0,1514,1,92,20,91,515,0.0,300,300,60,114.0,0,0,-12,413,25,0,0,0,0,0,0,45.845741,5.178934,0.0,739.3,0.0
25763,1551439785394,1.518,2.402,1.6893,0.16,-0.0,1.06,0,0,-0,1514,1,92,20,91,515,0.0,300,300,60,114.0,0,0,-12,413,25,0,0,0,0,0,0,,,,,
25783,1551439785414,1.513,2.407,1.7132,0.15,-0.0,1.07,0,0,-0,1688,1,92,20,92,515,0.0,300,300,60,114.0,0,0,-9,401,23,0,0,0,0,0,0,,,,,
25803,1551439785434,1.511,2.407,1.7056,0.14,-0.0,1.08,0,0,-0,1688,1,92,20,92,515,0.0,300,300,60,114.0,0,0,-9,401,23,0,0,0,0,0,0,,,,,
25823,1551439785454,1.523,2.398,1.7056,0.14,0.02,1.09,0,0,-0,1688,1,92,20,92,515,0.0,300,300,60,114.0,0,0,-9,401,23,0,0,0,0,0,0,,,,,
25843,1551439785474,1.54,2.399,1.7056,0.15,0.02,1.07,0,0,-0,1688,1,92,20,92,515,0.0,300,300,60,114.0,0,0,-9,401,23,0,0,0,0,0,0,45.845741,5.178934,0.0,739.3,0.0
25863,1551439785491,1.516,2.403,1.6931,0.15,0.03,1.09,0,1,-0,1688,1,92,20,92,515,0.0,300,300,60,114.0,0,0,-9,401,23,0,0,0,0,0,0,,,,,
25883,1551439785511,1.518,2.411,1.6843,0.14,0.02,1.09,0,0,-0,1749,1,92,20,92,515,0.0,300,300,60,114.0,0,0,-8,396,23,0,0,0,0,0,0,,,,,
25903,1551439785531,1.517,2.413,1.6931,0.14,0.01,1.09,0,1,-0,1749,1,92,20,92,515,0.0,300,300,60,114.0,0,0,-8,396,23,0,0,0,0,0,0,,,,,
25923,1551439785551,1.513,2.415,1.6968,0.14,0.01,1.11,0,0,-0,1749,1,92,20,92,515,0.0,300,300,60,114.0,0,0,-8,396,23,0,0,0,0,0,0,,,,,
25943,1551439785571,1.52,2.426,1.6993,0.14,0.02,1.14,0,0,-0,1749,1,92,20,92,515,0.0,300,300,60,114.0,0,0,-8,396,23,0,0,0,0,0,0,45.845741,5.178934,0.0,739.3,0.0
25963,1551439785591,1.506,2.421,1.6918,0.14,0.02,1.09,0,0,-0,1749,1,92,20,92,515,0.0,300,300,60,114.0,0,0,-8,396,23,0,0,0,0,0,0,,,,,
25983,1551439785611,1.527,2.416,1.6905,0.14,0.03,1.03,0,0,-0,1517,1,92,20,92,515,0.0,300,300,60,114.0,0,0,-8,413,24,0,0,0,0,0,0,,,,,
26003,1551439785631,1.525,2.417,1.6956,0.14,0.03,1.02,0,0,-0,1517,1,92,20,92,515,0.0,300,300,60,114.0,0,0,-8,413,24,0,0,0,0,0,0,,,,,
26023,1551439785651,1.53,2.423,1.6893,0.14,0.03,1.02,0,0,-0,1517,1,92,20,92,515,0.0,300,300,60,114.0,0,0,-8,413,24,0,0,0,0,0,0,,,,,
26043,1551439785671,1.521,2.407,1.6918,0.15,0.03,1.0,0,-0,-0,1517,1,92,20,92,515,0.0,300,300,60,114.0,0,0,-8,413,24,0,0,0,0,0,0,45.845741,5.178934,0.0,739.3,0.0
26063,1551439785691,1.506,2.404,1.7019,0.16,0.03,0.97,0,-0,-0,1517,1,92,20,92,515,0.0,300,300,60,114.0,0,0,-8,413,24,0,0,0,0,0,0,,,,,
26083,1551439785709,1.52,2.401,1.7094,0.16,0.02,0.96,0,-0,-0,1499,1,92,20,91,500,0.0,300,300,60,109.0,0,0,-8,414,25,0,0,0,0,0,0,,,,,
26103,1551439785729,1.516,2.406,1.7107,0.15,0.04,0.98,0,-0,-0,1499,1,92,20,91,500,0.0,300,300,60,109.0,0,0,-8,414,25,0,0,0,0,0,0,,,,,
26123,1551439785749,1.527,2.406,1.727,0.15,0.02,0.97,0,-1,-0,1499,1,92,20,91,500,0.0,300,300,60,109.0,0,0,-8,414,25,0,0,0,0,0,0,,,,,
26143,1551439785769,1.525,2.408,1.7094,0.15,0.03,0.97,-0,-0,-0,1499,1,92,20,91,500,0.0,300,300,60,109.0,0,0,-8,414,25,0,0,0,0,0,0,45.845741,5.178934,0.0,739.3,0.0
26163,1551439785791,1.527,2.41,1.6931,0.15,0.03,1.02,0,-0,-0,1499,1,92,20,91,500,0.0,300,300,60,109.0,0,0,-8,414,25,0,0,0,0,0,0,,,,,
26183,1551439785811,1.523,2.418,1.678,0.16,0.03,1.02,0,0,-0,1565,1,93,20,92,515,0.0,300,300,60,114.0,0,0,-7,410,25,0,0,0,0,0,0,,,,,
26203,1551439785831,1.516,2.423,1.683,0.16,0.02,1.09,0,0,-0,1565,1,93,20,92,515,0.0,300,300,60,114.0,0,0,-7,410,25,0,0,0,0,0,0,,,,,
26223,1551439785851,1.515,2.43,1.6792,0.15,0.01,1.1,0,0,-0,1565,1,93,20,92,515,0.0,300,300,60,114.0,0,0,-7,410,25,0,0,0,0,0,0,,,,,
26243,1551439785871,1.526,2.418,1.6993,0.16,0.02,1.04,0,0,-0,1565,1,93,20,92,515,0.0,300,300,60,114.0,0,0,-7,410,25,0,0,0,0,0,0,45.845741,5.178934,0.0,739.3,0.0
26263,1551439785893,1.506,2.398,1.7107,0.16,0.02,1.03,0,0,-0,1565,1,93,20,92,515,0.0,300,300,60,114.0,0,0,-7,410,25,0,0,0,0,0,0,,,,,
26283,1551439785913,1.526,2.402,1.7019,0.16,0.02,1.02,0,-0,-0,1627,1,93,20,91,504,0.0,300,300,60,110.0,0,0,-4,405,23,0,0,0,0,0,0,,,,,
26303,1551439785933,1.526,2.402,1.7019,0.16,0.01,1.03,0,0,-0,1627,1,93,20,91,504,0.0,300,300,60,110.0,0,0,-4,405,23,0,0,0,0,0,0,,,,,
26323,1551439785953,1.53,2.397,1.6968,0.15,0.02,1.05,0,-0,-0,1627,1,93,20,91,504,0.0,300,300,60,110.0,0,0,-4,405,23,0,0,0,0,0,0,,,,,
26343,1551439785973,1.526,2.401,1.7257,0.15,0.02,1.02,0,-1,-0,1627,1,93,20,91,504,0.0,300,300,60,110.0,0,0,-4,405,23,0,0,0,0,0,0,45.845741,5.178934,0.0,739.3,0.0
26363,1551439785993,1.511,2.399,1.7069,0.15,0.03,1.04,0,-0,-0,1627,1,93,20,91,504,0.0,300,300,60,110.0,0,0,-4,405,23,0,0,0,0,0,0,,,,,
26383,1551439786006,1.513,2.426,1.6931,0.14,0.03,1.07,0,-0,-0,1729,1,93,20,92,515,0.0,300,300,60,114.0,0,0,-3,398,24,0,0,0,0,0,0,,,,,
26403,1551439786026,1.498,2.417,1.6855,0.14,0.03,1.08,0,-0,-0,1729,1,93,20,92,515,0.0,300,300,60,114.0,0,0,-3,398,24,0,0,0,0,0,0,,,,,
26423,1551439786046,1.511,2.433,1.6893,0.13,0.05,1.04,0,-0,-0,1729,1,93,20,92,515,0.0,300,300,60,114.0,0,0,-3,398,24,0,0,0,0,0,0,,,,,
26443,1551439786066,1.518,2.421,1.688,0.14,0.06,0.98,0,-0,-0,1729,1,93,20,92,515,0.0,300,300,60,114.0,0,0,-3,398,24,0,0,0,0,0,0,45.845741,5.178934,0.0,739.3,0.0
26463,1551439786092,1.506,2.43,1.7107,0.15,0.06,0.94,0,-0,-0,1729,1,93,20,92,515,0.0,300,300,60,114.0,0,0,-3,398,24,0,0,0,0,0,0,,,,,
26483,1551439786112,1.505,2.411,1.7094,0.15,0.05,0.94,0,-0,-0,1720,1,93,20,91,506,0.0,300,300,60,113.0,0,0,-3,398,23,0,0,0,0,0,0,,,,,
26503,1551439786132,1.507,2.402,1.7069,0.15,0.03,0.99,0,-0,-0,1720,1,93,20,91,506,0.0,300,300,60,113.0,0,0,-3,398,23,0,0,0,0,0,0,,,,,
26523,1551439786152,1.53,2.406,1.7094,0.14,0.04,0.98,0,-0,-0,1720,1,93,20,91,506,0.0,300,300,60,113.0,0,0,-3,398,23,0,0,0,0,0,0,,,,,
26543,1551439786172,1.523,2.396,1.7157,0.15,0.05,0.97,0,-1,-0,1720,1,93,20,91,506,0.0,300,300,60,113.0,0,0,-3,398,23,0,0,0,0,0,0,45.845741,5.178934,0.0,739.3,0.0
26563,1551439786194,1.507,2.398,1.6968,0.14,0.05,1.01,0,-0,-0,1720,1,93,20,91,506,0.0,300,300,60,113.0,0,0,-3,398,23,0,0,0,0,0,0,,,,,
26583,1551439786214,1.508,2.404,1.673,0.14,0.02,0.99,0,-0,-0,1692,1,93,20,92,515,0.0,300,300,60,115.0,0,0,-3,400,25,0,0,0,0,0,0,,,,,
26603,1551439786234,1.51,2.416,1.683,0.14,0.02,0.98,0,-0,-0,1692,1,93,20,92,515,0.0,300,300,60,115.0,0,0,-3,400,25,0,0,0,0,0,0,,,,,
26623,1551439786254,1.527,2.399,1.6918,0.14,0.01,0.95,0,-0,-0,1692,1,93,20,92,515,0.0,300,300,60,115.0,0,0,-3,400,25,0,0,0,0,0,0,,,,,
26643,1551439786274,1.531,2.413,1.6918,0.16,0.01,0.95,0,0,-0,1692,1,93,20,92,515,0.0,300,300,60,115.0,0,0,-3,400,25,0,0,0,0,0,0,45.845741,5.178934,0.0,739.3,0.0
26663,1551439786292,1.515,2.412,1.7006,0.15,-0.0,0.95,0,-0,-0,1692,1,93,20,92,515,0.0,300,300,60,115.0,0,0,-3,400,25,0,0,0,0,0,0,,,,,
26683,1551439786312,1.535,2.411,1.6968,0.15,-0.01,0.96,0,-0,-0,1678,1,93,20,91,503,0.0,300,300,60,111.0,0,0,-4,401,25,0,0,0,0,0,0,,,,,
26703,1551439786332,1.545,2.416,1.7006,0.15,-0.01,0.97,0,-0,-0,1678,1,93,20,91,503,0.0,300,300,60,111.0,0,0,-4,401,25,0,0,0,0,0,0,,,,,
26723,1551439786352,1.541,2.402,1.7094,0.15,0.01,1.02,0,-0,-0,1678,1,93,20,91,503,0.0,300,300,60,111.0,0,0,-4,401,25,0,0,0,0,0,0,,,,,
26743,1551439786372,1.528,2.408,1.7132,0.14,0.02,1.03,0,-0,-0,1678,1,93,20,91,503,0.0,300,300,60,111.0,0,0,-4,401,25,0,0,0,0,0,0,45.845741,5.178934,0.0,739.3,0.0
26763,1551439786392,1.515,2.407,1.7132,0.14,0.03,1.02,0,-1,-0,1678,1,93,20,91,503,0.0,300,300,60,111.0,0,0,-4,401,25,0,0,0,0,0,0,,,,,
26783,1551439786412,1.513,2.402,1.7094,0.13,0.05,1.0,0,-1,-0,1595,1,93,20,92,515,0.0,300,300,60,114.0,0,0,-4,408,24,0,0,0,0,0,0,,,,,
26803,1551439786432,1.525,2.397,1.7081,0.14,0.05,0.98,0,-1,-0,1595,1,93,20,92,515,0.0,300,300,60,114.0,0,0,-4,408,24,0,0,0,0,0,0,,,,,
26823,1551439786452,1.505,2.416,1.6943,0.14,0.04,0.95,0,-0,-0,1595,1,93,20,92,515,0.0,300,300,60,114.0,0,0,-4,408,24,0,0,0,0,0,0,,,,,
26843,1551439786472,1.508,2.411,1.6943,0.15,0.02,0.96,0,-0,-0,1595,1,93,20,92,515,0.0,300,300,60,114.0,0,0,-4,408,24,0,0,0,0,0,0,45.845741,5.178934,0.0,739.3,0.0
26863,1551439786492,1.51,2.403,1.6905,0.15,0.01,1.01,0,0,-0,1595,1,93,20,92,515,0.0,300,300,60,114.0,0,0,-4,408,24,0,0,0,0,0,0,,,,,
26883,1551439786510,1.517,2.411,1.688,0.15,0.0,1.05,0,0,-0,1594,1,93,20,93,515,0.0,300,300,60,114.0,0,0,-3,408,24,0,0,0,0,0,0,,,,,
26903,1551439786530,1.527,2.43,1.6918,0.14,0.01,1.02,0,0,-0,1594,1,93,20,93,515,0.0,300,300,60,114.0,0,0,-3,408,24,0,0,0,0,0,0,,,,,
26923,1551439786550,1.532,2.412,1.6956,0.14,0.02,1.01,0,-0,-0,1594,1,93,20,93,515,0.0,300,300,60,114.0,0,0,-3,408,24,0,0,0,0,0,0,,,,,
26943,1551439786570,1.52,2.423,1.683,0.13,0.03,1.03,0,-0,-0,1594,1,93,20,93,515,0.0,300,300,60,114.0,0,0,-3,408,24,0,0,0,0,0,0,45.845741,5.178934,0.0,739.3,0.0
26963,1551439786590,1.522,2.417,1.6843,0.14,0.04,1.03,0,-0,-0,1594,1,93,20,93,515,0.0,300,300,60,114.0,0,0,-3,408,24,0,0,0,0,0,0,,,,,
26983,1551439786610,1.522,2.422,1.6893,0.14,0.04,1.05,0,0,-0,1602,1,93,20,92,516,0.0,300,300,60,114.0,0,0,-1,407,23,0,0,0,0,0,0,,,,,
27003,1551439786630,1.515,2.417,1.6918,0.14,0.03,1.07,0,0,-0,1602,1,93,20,92,516,0.0,300,300,60,114.0,0,0,-1,407,23,0,0,0,0,0,0,,,,,
27023,1551439786650,1.499,2.42,1.6981,0.15,0.04,1.08,0,0,-0,1602,1,93,20,92,516,0.0,300,300,60,114.0,0,0,-1,407,23,0,0,0,0,0,0,,,,,
27043,1551439786670,1.503,2.42,1.688,0.15,0.04,1.1,0,0,0,1602,1,93,20,92,516,0.0,300,300,60,114.0,0,0,-1,407,23,0,0,0,0,0,0,45.845741,5.178934,0.0,739.3,0.0
27063,1551439786690,1.498,2.417,1.6943,0.14,0.04,1.05,0,0,0,1602,1,93,20,92,516,0.0,300,300,60,114.0,0,0,-1,407,23,0,0,0,0,0,0,,,,,
27083,1551439786710,1.508,2.415,1.6855,0.15,0.03,1.03,0,0,0,1628,1,93,20,92,515,0.0,300,300,60,115.0,0,0,1,405,23,0,0,0,0,0,0,,,,,
27103,1551439786730,1.507,2.412,1.6968,0.15,0.01,1.01,0,0,0,1628,1,93,20,92,515,0.0,300,300,60,115.0,0,0,1,405,23,0,0,0,0,0,0,,,,,
27123,1551439786750,1.515,2.407,1.6905,0.15,0.0,1.01,0,0,-0,1628,1,93,20,92,515,0.0,300,300,60,115.0,0,0,1,405,23,0,0,0,0,0,0,,,,,
27143,1551439786770,1.512,2.406,1.6918,0.15,0.0,1.01,0,1,-0,1628,1,93,20,92,515,0.0,300,300,60,115.0,0,0,1,405,23,0,0,0,0,0,0,45.845741,5.178934,0.0,739.3,0.0
27163,1551439786790,1.531,2.407,1.7019,0.14,-0.01,1.01,0,1,-0,1628,1,93,20,92,515,0.0,300,300,60,115.0,0,0,1,405,23,0,0,0,0,0,0,,,,,
27183,1551439786810,1.527,2.408,1.688,0.14,-0.01,0.99,0,1,-0,1524,1,93,20,92,515,0.0,300,300,60,114.0,0,0,2,413,24,0,0,0,0,0,0,,,,,
27203,1551439786830,1.521,2.417,1.6943,0.14,-0.02,1.0,0,0,-0,1524,1,93,20,92,515,0.0,300,300,60,114.0,0,0,2,413,24,0,0,0,0,0,0,,,,,
27223,1551439786850,1.523,2.412,1.6993,0.14,-0.02,0.99,0,0,-1,1524,1,93,20,92,515,0.0,300,300,60,114.0,0,0,2,413,24,0,0,0,0,0,0,,,,,
27243,1551439786870,1.533,2.412,1.6968,0.14,-0.02,0.97,0,0,-1,1524,1,93,20,92,515,0.0,300,300,60,114.0,0,0,2,413,24,0,0,0,0,0,0,45.845741,5.178934,0.0,739.3,0.0
27263,1551439786892,1.55,2.416,1.7031,0.15,-0.02,0.96,0,0,-1,1524,1,93,20,92,515,0.0,300,300,60,114.0,0,0,2,413,24,0,0,0,0,0,0,,,,,
27283,1551439786912,1.533,2.415,1.6993,0.16,-0.01,0.95,0,0,-1,1519,1,93,20,92,504,0.0,300,300,60,111.0,0,0,4,413,23,0,0,0,0,0,0,,,,,
27303,1551439786932,1.53,2.426,1.6981,0.15,-0.0,0.92,0,0,-1,1519,1,93,20,92,504,0.0,300,300,60,111.0,0,0,4,413,23,0,0,0,0,0,0,,,,,
27323,1551439786952,1.516,2.421,1.6993,0.15,-0.01,0.91,0,0,-1,1519,1,93,20,92,504,0.0,300,300,60,111.0,0,0,4,413,23,0,0,0,0,0,0,,,,,
27343,1551439786972,1.53,2.423,1.6993,0.15,-0.01,0.9,0,-0,-1,1519,1,93,20,92,504,0.0,300,300,60,111.0,0,0,4,413,23,0,0,0,0,0,0,45.845741,5.178934,0.0,739.3,0.0
27363,1551439786992,1.526,2.423,1.6993,0.15,-0.01,0.89,0,-0,-1,1519,1,93,20,92,504,0.0,300,300,60,111.0,0,0,4,413,23,0,0,0,0,0,0,,,,,
27383,1551439787008,1.515,2.41,1.6981,0.15,-0.01,0.89,0,-0,-1,1510,1,93,20,92,507,0.0,300,300,60,112.0,0,0,7,414,22,0,0,0,0,0,0,,,,,
27403,1551439787028,1.503,2.418,1.6981,0.15,-0.01,0.88,0,0,-1,1510,1,93,20,92,507,0.0,300,300,60,112.0,0,0,7,414,22,0,0,0,0,0,0,,,,,
27423,1551439787048,1.512,2.418,1.7019,0.14,-0.02,0.88,0,-0,-1,1510,1,93,20,92,507,0.0,300,300,60,112.0,0,0,7,414,22,0,0,0,0,0,0,,,,,
27443,1551439787068,1.511,2.421,1.7019,0.14,-0.03,0.9,0,-0,-1,1510,1,93,20,92,507,0.0,300,300,60,112.0,0,0,7,414,22,0,0,0,0,0,0,45.845741,5.178934,0.0,739.3,0.0
27463,1551439787093,1.513,2.425,1.7031,0.14,-0.03,0.9,0,-0,-1,1510,1,93,20,92,507,0.0,300,300,60,112.0,0,0,7,414,22,0,0,0,0,0,0,,,,,
27483,1551439787113,1.521,2.412,1.7044,0.14,-0.03,0.89,0,-0,-1,1541,1,93,20,92,504,0.0,300,300,60,111.0,0,0,10,412,22,0,0,0,0,0,0,,,,,
27503,1551439787133,1.521,2.421,1.7019,0.14,-0.02,0.89,0,-0,-1,1541,1,93,20,92,504,0.0,300,300,60,111.0,0,0,10,412,22,0,0,0,0,0,0,,,,,
27523,1551439787153,1.518,2.421,1.7019,0.14,-0.01,0.9,0,-0,-1,1541,1,93,20,92,504,0.0,300,300,60,111.0,0,0,10,412,22,0,0,0,0,0,0,,,,,
27543,1551439787173,1.536,2.426,1.6943,0.15,-0.02,0.92,0,0,-1,1541,1,93,20,92,504,0.0,300,300,60,111.0,0,0,10,412,22,0,0,0,0,0,0,45.845741,5.178934,0.0,739.3,0.0
27563,1551439787193,1.528,2.421,1.6843,0.16,-0.02,0.91,0,0,-1,1541,1,93,20,92,504,0.0,300,300,60,111.0,0,0,10,412,22,0,0,0,0,0,0,,,,,
27583,1551439787213,1.521,2.421,1.6981,0.16,-0.02,0.92,0,0,-1,1599,1,93,20,92,515,0.0,300,300,60,115.0,0,0,13,408,23,0,0,0,0,0,0,,,,,
27603,1551439787233,1.53,2.415,1.7031,0.15,-0.03,0.94,0,0,-1,1599,1,93,20,92,515,0.0,300,300,60,115.0,0,0,13,408,23,0,0,0,0,0,0,,,,,
27623,1551439787253,1.516,2.418,1.6918,0.16,-0.02,0.91,0,0,-1,1599,1,93,20,92,515,0.0,300,300,60,115.0,0,0,13,408,23,0,0,0,0,0,0,,,,,
27643,1551439787273,1.513,2.41,1.6993,0.16,-0.02,0.88,0,-0,-1,1599,1,93,20,92,515,0.0,300,300,60,115.0,0,0,13,408,23,0,0,0,0,0,0,45.845741,5.178934,0.0,739.3,0.0
27663,1551439787293,1.507,2.42,1.6931,0.17,-0.02,0.88,0,0,-1,1599,1,93,20,92,515,0.0,300,300,60,115.0,0,0,13,408,23,0,0,0,0,0,0,,,,,
27683,1551439787313,1.522,2.412,1.7044,0.16,-0.02,0.92,0,0,-1,1504,1,94,20,92,512,0.0,300,300,60,114.0,0,0,13,414,25,0,0,0,0,0,0,,,,,
27703,1551439787333,1.531,2.412,1.7019,0.16,-0.02,0.95,0,0,-1,1504,1,94,20,92,512,0.0,300,300,60,114.0,0,0,13,414,25,0,0,0,0,0,0,,,,,
27723,1551439787353,1.518,2.408,1.7094,0.16,-0.02,0.99,0,0,-1,1504,1,94,20,92,512,0.0,300,300,60,114.0,0,0,13,414,25,0,0,0,0,0,0,,,,,
27743,1551439787373,1.528,2.413,1.7069,0.15,-0.01,0.98,0,-0,-1,1504,1,94,20,92,512,0.0,300,300,60,114.0,0,0,13,414,25,0,0,0,0,0,0,45.845741,5.178934,0.0,739.3,0.0
27763,1551439787393,1.527,2.415,1.7132,0.15,-0.0,1.0,0,-0,-1,1504,1,94,20,92,512,0.0,300,300,60,114.0,0,0,13,414,25,0,0,0,0,0,0,,,,,
27783,1551439787413,1.518,2.411,1.6981,0.14,0.0,1.03,0,-0,-0,1503,1,94,20,92,515,0.0,300,300,60,114.0,0,0,13,414,25,0,0,0,0,0,0,,,,,
27803,1551439787433,1.516,2.402,1.7069,0.14,0.01,1.01,0,-0,-0,1503,1,94,20,92,515,0.0,300,300,60,114.0,0,0,13,414,25,0,0,0,0,0,0,,,,,
27823,1551439787453,1.521,2.394,1.7119,0.15,0.02,1.0,0,-0,-0,1503,1,94,20,92,515,0.0,300,300,60,114.0,0,0,13,414,25,0,0,0,0,0,0,,,,,
27843,1551439787473,1.511,2.406,1.7019,0.15,0.0,1.02,0,-0,-0,1503,1,94,20,92,515,0.0,300,300,60,114.0,0,0,13,414,25,0,0,0,0,0,0,45.845741,5.178934,0.0,739.3,0.0
27863,1551439787491,1.508,2.398,1.6855,0.15,-0.0,1.04,0,0,-1,1503,1,94,20,92,515,0.0,300,300,60,114.0,0,0,13,414,25,0,0,0,0,0,0,,,,,
27883,1551439787511,1.51,2.407,1.6868,0.14,-0.0,1.07,0,0,-1,1607,1,94,20,93,515,0.0,300,300,60,114.0,0,0,16,407,23,0,0,0,0,0,0,,,,,
27903,1551439787531,1.526,2.416,1.6968,0.13,0.02,1.06,0,0,-1,1607,1,94,20,93,515,0.0,300,300,60,114.0,0,0,16,407,23,0,0,0,0,0,0,,,,,
27923,1551439787551,1.53,2.427,1.6943,0.13,0.02,1.02,0,0,-0,1607,1,94,20,93,515,0.0,300,300,60,114.0,0,0,16,407,23,0,0,0,0,0,0,,,,,
27943,1551439787571,1.528,2.428,1.6918,0.13,0.03,1.05,0,0,-0,1607,1,94,20,93,515,0.0,300,300,60,114.0,0,0,16,407,23,0,0,0,0,0,0,45.845741,5.178934,0.0,739.3,0.0
27963,1551439787591,1.521,2.418,1.6918,0.13,0.05,1.03,0,0,-0,1607,1,94,20,93,515,0.0,300,300,60,114.0,0,0,16,407,23,0,0,0,0,0,0,,,,,
27983,1551439787611,1.507,2.417,1.7157,0.14,0.06,0.99,0,0,-0,1649,1,94,20,92,515,0.0,300,300,60,115.0,0,0,17,403,23,0,0,0,0,0,0,,,,,
28003,1551439787631,1.525,2.413,1.7094,0.15,0.05,0.97,0,0,-0,1649,1,94,20,92,515,0.0,300,300,60,115.0,0,0,17,403,23,0,0,0,0,0,0,,,,,
28023,1551439787651,1.521,2.408,1.6968,0.14,0.04,0.96,0,0,-0,1649,1,94,20,92,515,0.0,300,300,60,115.0,0,0,17,403,23,0,0,0,0,0,0,,,,,
28043,1551439787671,1.511,2.404,1.6968,0.14,0.03,0.95,0,0,-0,1649,1,94,20,92,515,0.0,300,300,60,115.0,0,0,17,403,23,0,0,0,0,0,0,45.845741,5.178934,0.0,739.3,0.0
28063,1551439787691,1.516,2.408,1.7044,0.14,0.04,0.96,0,-0,-0,1649,1,94,20,92,515,0.0,300,300,60,115.0,0,0,17,403,23,0,0,0,0,0,0,,,,,
28083,1551439787711,1.52,2.418,1.7081,0.15,0.04,0.95,0,-0,-0,1712,1,94,20,92,512,0.0,300,300,60,114.0,0,0,17,398,24,0,0,0,0,0,0,,,,,
28103,1551439787731,1.52,2.412,1.722,0.14,0.05,0.94,0,-0,-0,1712,1,94,20,92,512,0.0,300,300,60,114.0,0,0,17,398,24,0,0,0,0,0,0,,,,,
28123,1551439787751,1.522,2.426,1.7069,0.14,0.04,0.95,0,-0,-0,1712,1,94,20,92,512,0.0,300,300,60,114.0,0,0,17,398,24,0,0,0,0,0,0,,,,,
28143,1551439787771,1.51,2.418,1.6918,0.15,0.03,0.99,0,0,-0,1712,1,94,20,92,512,0.0,300,300,60,114.0,0,0,17,398,24,0,0,0,0,0,0,45.845741,5.178934,0.0,739.3,0.0
28163,1551439787791,1.526,2.415,1.6956,0.15,0.03,1.01,0,0,-0,1712,1,94,20,92,512,0.0,300,300,60,114.0,0,0,17,398,24,0,0,0,0,0,0,,,,,
28183,1551439787811,1.526,2.421,1.6767,0.15,0.03,1.0,0,0,-0,1522,1,94,20,93,515,0.0,300,300,60,115.0,0,0,17,413,25,0,0,0,0,0,0,,,,,
28203,1551439787831,1.513,2.416,1.6981,0.16,0.03,0.96,0,0,-0,1522,1,94,20,93,515,0.0,300,300,60,115.0,0,0,17,413,25,0,0,0,0,0,0,,,,,
28223,1551439787851,1.508,2.41,1.7119,0.16,0.03,0.96,0,0,-0,1522,1,94,20,93,515,0.0,300,300,60,115.0,0,0,17,413,25,0,0,0,0,0,0,,,,,
28243,1551439787871,1.513,2.408,1.7069,0.16,0.03,0.95,0,-0,-0,1522,1,94,20,93,515,0.0,300,300,60,115.0,0,0,17,413,25,0,0,0,0,0,0,45.845741,5.178934,0.0,739.3,0.0
28263,1551439787893,1.527,2.403,1.6956,0.16,0.03,0.94,0,0,-0,1522,1,94,20,93,515,0.0,300,300,60,115.0,0,0,17,413,25,0,0,0,0,0,0,,,,,
28283,1551439787913,1.521,2.402,1.7031,0.15,0.03,0.98,0,-0,-0,1567,1,94,20,91,505,0.0,300,300,60,111.0,0,0,17,409,26,0,0,0,0,0,0,,,,,
28303,1551439787933,1.518,2.402,1.7182,0.16,0.04,0.95,0,-0,-0,1567,1,94,20,91,505,0.0,300,300,60,111.0,0,0,17,409,26,0,0,0,0,0,0,,,,,
28323,1551439787953,1.503,2.401,1.7044,0.16,0.06,0.99,0,0,-0,1567,1,94,20,91,505,0.0,300,300,60,111.0,0,0,17,409,26,0,0,0,0,0,0,,,,,
28343,1551439787973,1.512,2.403,1.6717,0.16,0.04,0.99,0,0,-0,1567,1,94,20,91,505,0.0,300,300,60,111.0,0,0,17,409,26,0,0,0,0,0,0,45.845741,5.178934,0.0,739.3,0.0
28363,1551439787993,1.507,2.41,1.683,0.16,0.03,0.95,0,0,-0,1567,1,94,20,91,505,0.0,300,300,60,111.0,0,0,17,409,26,0,0,0,0,0,0,,,,,
28383,1551439788007,1.521,2.412,1.6968,0.16,0.02,0.93,0,0,-0,1689,1,94,20,92,515,0.0,300,300,60,115.0,0,0,17,400,25,0,0,0,0,0,0,,,,,
28403,1551439788027,1.508,2.407,1.7081,0.17,0.02,0.9,0,0,-0,1689,1,94,20,92,515,0.0,300,300,60,115.0,0,0,17,400,25,0,0,0,0,0,0,,,,,
28423,1551439788047,1.507,2.418,1.6943,0.17,0.01,0.91,0,0,-0,1689,1,94,20,92,515,0.0,300,300,60,115.0,0,0,17,400,25,0,0,0,0,0,0,,,,,
28443,1551439788067,1.518,2.411,1.6905,0.17,0.01,0.91,0,0,-0,1689,1,94,20,92,515,0.0,300,300,60,115.0,0,0,17,400,25,0,0,0,0,0,0,45.845741,5.178934,0.0,739.3,0.0
28463,1551439788092,1.525,2.402,1.7132,0.16,-0.0,0.91,0,-0,-0,1689,1,94,20,92,515,0.0,300,300,60,115.0,0,0,17,400,25,0,0,0,0,0,0,,,,,
28483,1551439788112,1.517,2.407,1.7169,0.16,-0.01,0.93,0,-0,-0,1670,1,94,20,92,515,0.0,300,300,60,114.0,0,0,17,402,24,0,0,0,0,0,0,,,,,
28503,1551439788132,1.513,2.401,1.7044,0.16,-0.03,0.92,0,-0,-0,1670,1,94,20,92,515,0.0,300,300,60,114.0,0,0,17,402,24,0,0,0,0,0,0,,,,,
28523,1551439788152,1.516,2.403,1.6893,0.17,-0.05,0.95,0,-0,-0,1670,1,94,20,92,515,0.0,300,300,60,114.0,0,0,17,402,24,0,0,0,0,0,0,,,,,
28543,1551439788172,1.51,2.406,1.6792,0.16,-0.05,0.98,0,0,-0,1670,1,94,20,92,515,0.0,300,300,60,114.0,0,0,17,402,24,0,0,0,0,0,0,45.845741,5.178934,0.0,739.3,0.0
28563,1551439788192,1.533,2.412,1.6956,0.17,-0.04,0.94,0,-0,-0,1670,1,94,20,92,515,0.0,300,300,60,114.0,0,0,17,402,24,0,0,0,0,0,0,,,,,
28583,1551439788208,1.537,2.411,1.7006,0.18,-0.03,0.92,0,-0,-0,1787,1,94,20,92,516,0.0,300,300,60,115.0,0,0,18,398,23,0,0,0,0,0,0,,,,,
28603,1551439788228,1.501,2.415,1.7144,0.18,-0.04,0.91,0,-0,-0,1787,1,94,20,92,516,0.0,300,300,60,115.0,0,0,18,398,23,0,0,0,0,0,0,,,,,
28623,1551439788248,1.52,2.402,1.6968,0.17,-0.03,0.92,0,0,-0,1787,1,94,20,92,516,0.0,300,300,60,115.0,0,0,18,398,23,0,0,0,0,0,0,,,,,
28643,1551439788268,1.538,2.428,1.6981,0.17,-0.02,0.93,0,-0,-0,1787,1,94,20,92,516,0.0,300,300,60,115.0,0,0,18,398,23,0,0,0,0,0,0,45.845741,5.178934,0.0,739.3,0.0
28663,1551439788292,1.53,2.41,1.7094,0.17,-0.02,0.93,0,-0,-0,1787,1,94,20,92,516,0.0,300,300,60,115.0,0,0,18,398,23,0,0,0,0,0,0,,,,,
28683,1551439788312,1.522,2.415,1.6968,0.17,-0.01,0.95,0,0,-0,1765,1,94,20,92,515,0.0,300,300,60,115.0,0,0,18,395,24,0,0,0,0,0,0,,,,,
28703,1551439788332,1.528,2.427,1.6792,0.16,-0.01,0.98,0,0,-0,1765,1,94,20,92,515,0.0,300,300,60,115.0,0,0,18,395,24,0,0,0,0,0,0,,,,,
28723,1551439788352,1.525,2.416,1.6893,0.17,-0.01,0.94,0,0,-0,1765,1,94,20,92,515,0.0,300,300,60,115.0,0,0,18,395,24,0,0,0,0,0,0,,,,,
28743,1551439788372,1.516,2.408,1.6956,0.16,-0.02,0.93,0,-0,-0,1765,1,94,20,92,515,0.0,300,300,60,115.0,0,0,18,395,24,0,0,0,0,0,0,45.845741,5.178934,0.0,739.3,0.0
28763,1551439788392,1.536,2.402,1.7056,0.16,-0.03,0.96,0,-0,-0,1765,1,94,20,92,515,0.0,300,300,60,115.0,0,0,18,395,24,0,0,0,0,0,0,,,,,
28783,1551439788412,1.525,2.401,1.7006,0.16,-0.02,0.97,0,-0,-0,1698,1,94,20,91,512,0.0,300,300,60,114.0,0,0,17,400,26,0,0,0,0,0,0,,,,,
28803,1551439788432,1.516,2.403,1.7157,0.16,-0.02,0.98,0,-0,-0,1698,1,94,20,91,512,0.0,300,300,60,114.0,0,0,17,400,26,0,0,0,0,0,0,,,,,
28823,1551439788452,1.517,2.412,1.6993,0.15,-0.01,0.98,0,0,-0,1698,1,94,20,91,512,0.0,300,300,60,114.0,0,0,17,400,26,0,0,0,0,0,0,,,,,
28843,1551439788472,1.531,2.421,1.683,0.15,-0.02,0.99,0,0,-0,1698,1,94,20,91,512,0.0,300,300,60,114.0,0,0,17,400,26,0,0,0,0,0,0,45.845741,5.178934,0.0,739.3,0.0
28863,1551439788492,1.537,2.408,1.6981,0.17,-0.01,0.98,0,-0,-0,1698,1,94,20,91,512,0.0,300,300,60,114.0,0,0,17,400,26,0,0,0,0,0,0,,,,,
28883,1551439788510,1.511,2.413,1.7119,0.16,-0.01,0.99,0,-0,-0,1675,2,94,20,91,514,0.0,300,300,60,115.0,0,0,16,393,25,0,0,0,0,0,0,,,,,
28903,1551439788530,1.528,2.407,1.7081,0.16,-0.02,0.99,0,-0,-0,1675,2,94,20,91,514,0.0,300,300,60,115.0,0,0,16,393,25,0,0,0,0,0,0,,,,,
28923,1551439788550,1.52,2.403,1.6893,0.15,-0.01,1.0,0,-0,-0,1675,2,94,20,91,514,0.0,300,300,60,115.0,0,0,16,393,25,0,0,0,0,0,0,,,,,
28943,1551439788570,1.523,2.406,1.6981,0.16,-0.01,0.98,0,-0,-0,1675,2,94,20,91,514,0.0,300,300,60,115.0,0,0,16,393,25,0,0,0,0,0,0,45.845741,5.178934,0.0,739.3,0.0
28963,1551439788591,1.515,2.403,1.7169,0.15,0.01,0.98,0,-0,-0,1675,2,94,20,91,514,0.0,300,300,60,115.0,0,0,16,393,25,0,0,0,0,0,0,,,,,
28983,1551439788611,1.522,2.416,1.6918,0.15,0.01,0.98,0,-0,-0,1760,2,94,20,93,511,0.0,300,300,60,115.0,0,0,17,388,24,0,0,0,0,0,0,,,,,
29003,1551439788631,1.516,2.418,1.6855,0.15,0.01,0.96,0,-0,-0,1760,2,94,20,93,511,0.0,300,300,60,115.0,0,0,17,388,24,0,0,0,0,0,0,,,,,
29023,1551439788651,1.52,2.422,1.6918,0.15,0.02,0.92,0,-0,-0,1760,2,94,20,93,511,0.0,300,300,60,115.0,0,0,17,388,24,0,0,0,0,0,0,,,,,
29043,1551439788671,1.521,2.418,1.6843,0.16,0.02,0.93,0,-0,-0,1760,2,94,20,93,511,0.0,300,300,60,115.0,0,0,17,388,24,0,0,0,0,0,0,45.845741,5.178934,0.0,739.3,0.0
29063,1551439788691,1.515,2.42,1.7094,0.16,0.03,0.93,0,-0,-0,1760,2,94,20,93,511,0.0,300,300,60,115.0,0,0,17,388,24,0,0,0,0,0,0,,,,,
29083,1551439788710,1.508,2.401,1.7056,0.16,0.03,0.93,0,-0,-0,1781,2,94,20,92,513,0.0,300,300,60,113.0,0,0,17,386,24,0,0,0,0,0,0,,,,,
29103,1551439788730,1.511,2.407,1.7044,0.16,0.02,0.96,0,-0,-0,1781,2,94,20,92,513,0.0,300,300,60,113.0,0,0,17,386,24,0,0,0,0,0,0,,,,,
29123,1551439788750,1.522,2.396,1.6993,0.15,0.02,0.98,0,-0,-0,1781,2,94,20,92,513,0.0,300,300,60,113.0,0,0,17,386,24,0,0,0,0,0,0,,,,,
29143,1551439788770,1.521,2.401,1.7119,0.15,0.04,0.97,0,-0,-0,1781,2,94,20,92,513,0.0,300,300,60,113.0,0,0,17,386,24,0,0,0,0,0,0,45.845741,5.178934,0.0,739.3,0.0
29163,1551439788790,1.526,2.397,1.7257,0.14,0.02,0.97,0,-0,0,1781,2,94,20,92,513,0.0,300,300,60,113.0,0,0,17,386,24,0,0,0,0,0,0,,,,,
29183,1551439788810,1.505,2.397,1.6805,0.14,0.01,0.96,0,0,-0,1675,2,94,20,93,515,0.0,300,300,60,115.0,0,0,17,393,24,0,0,0,0,0,0,,,,,
29203,1551439788830,1.511,2.401,1.6692,0.15,0.01,0.91,0,-0,-0,1675,2,94,20,93,515,0.0,300,300,60,115.0,0,0,17,393,24,0,0,0,0,0,0,,,,,
29223,1551439788850,1.516,2.415,1.6943,0.16,0.01,0.9,0,-0,-0,1675,2,94,20,93,515,0.0,300,300,60,115.0,0,0,17,393,24,0,0,0,0,0,0,,,,,
29243,1551439788870,1.523,2.412,1.7157,0.16,0.01,0.9,0,-0,-0,1675,2,94,20,93,515,0.0,300,300,60,115.0,0,0,17,393,24,0,0,0,0,0,0,45.845741,5.178934,0.0,739.3,0.0
29263,1551439788892,1.528,2.418,1.7144,0.15,0.01,0.93,0,-0,-0,1675,2,94,20,93,515,0.0,300,300,60,115.0,0,0,17,393,24,0,0,0,0,0,0,,,,,
29283,1551439788912,1.506,2.404,1.6981,0.17,0.01,0.96,0,0,-0,1804,5,94,20,92,513,0.0,300,300,60,115.0,0,0,253,385,25,0,0,0,0,0,0,,,,,
29303,1551439788932,1.537,2.426,1.7169,0.16,-0.0,0.93,0,0,-0,1804,5,94,20,92,513,0.0,300,300,60,115.0,0,0,253,385,25,0,0,0,0,0,0,,,,,
29323,1551439788952,1.517,2.436,1.7069,0.2,-0.01,0.97,0,0,-0,1804,5,94,20,92,513,0.0,300,300,60,115.0,0,0,253,385,25,0,0,0,0,0,0,,,,,
29343,1551439788972,1.546,2.438,1.7157,0.18,-0.02,1.03,0,1,-0,1804,5,94,20,92,513,0.0,300,300,60,115.0,0,0,253,385,25,0,0,0,0,0,0,45.845741,5.178934,0.0,739.3,0.0
29363,1551439788992,1.528,2.416,1.7044,0.18,0.0,1.08,0,1,-0,1804,5,94,20,92,513,0.0,300,300,60,115.0,0,0,253,385,25,0,0,0,0,0,0,,,,,
29383,1551439789006,1.517,2.438,1.6981,0.22,0.0,1.03,0,2,-0,2813,5,94,20,87,511,0.0,300,300,60,115.0,0,0,266,364,30,0,0,0,0,0,0,,,,,
29403,1551439789026,1.518,2.396,1.7094,0.25,0.02,1.05,0,3,-1,2813,5,94,20,87,511,0.0,300,300,60,115.0,0,0,266,364,30,0,0,0,0,0,0,,,,,
29423,1551439789046,1.525,2.447,1.7547,0.14,0.01,1.07,0,1,-0,2813,5,94,20,87,511,0.0,300,300,60,115.0,0,0,266,364,30,0,0,0,0,0,0,,,,,
29443,1551439789066,1.541,2.382,1.6805,0.19,-0.02,1.01,0,1,-1,2813,5,94,20,87,511,0.0,300,300,60,115.0,0,0,266,364,30,0,0,0,0,0,0,45.845741,5.178934,0.0,739.3,0.0
29463,1551439789093,1.527,2.457,1.6365,0.08,-0.07,0.98,0,-3,-0,2813,5,94,20,87,511,0.0,300,300,60,115.0,0,0,266,364,30,0,0,0,0,0,0,,,,,
29483,1551439789113,1.564,2.42,1.7609,-0.13,-0.09,1.08,0,-4,-0,4263,6,94,20,78,501,0.0,300,300,60,113.0,0,0,300,514,46,0,0,0,0,0,0,,,,,
29503,1551439789133,1.631,2.358,1.781,-0.24,-0.11,1.17,0,-2,-0,4263,6,94,20,78,501,0.0,300,300,60,113.0,0,0,300,514,46,0,0,0,0,0,0,,,,,
29523,1551439789153,1.595,2.367,1.815,-0.19,-0.07,1.25,0,1,-0,4263,6,94,20,78,501,0.0,300,300,60,113.0,0,0,300,514,46,0,0,0,0,0,0,,,,,
29543,1551439789173,1.516,2.421,1.7672,-0.03,-0.06,1.16,0,4,-0,4263,6,94,20,78,501,0.0,300,300,60,113.0,0,0,300,514,46,0,0,0,0,0,0,45.845741,5.178934,0.0,739.3,0.0
29563,1551439789193,1.425,2.457,1.6176,0.12,-0.04,0.94,0,4,-1,4263,6,94,20,78,501,0.0,300,300,60,113.0,0,0,300,514,46,0,0,0,0,0,0,,,,,
29583,1551439789213,1.518,2.464,1.7056,-0.04,-0.04,1.05,0,-1,-0,4074,7,94,20,73,512,0.0,300,300,60,116.0,0,0,303,644,95,0,0,0,0,0,0,,,,,
29603,1551439789233,1.511,2.327,1.7509,0.01,-0.06,1.01,0,2,0,4074,7,94,20,73,512,0.0,300,300,60,116.0,0,0,303,644,95,0,0,0,0,0,0,,,,,
29623,1551439789253,1.547,2.417,1.639,0.07,-0.05,0.92,0,1,0,4074,7,94,20,73,512,0.0,300,300,60,116.0,0,0,303,644,95,0,0,0,0,0,0,,,,,
29643,1551439789273,1.482,2.428,1.6956,0.15,-0.04,0.9,0,2,0,4074,7,94,20,73,512,0.0,300,300,60,116.0,0,0,303,644,95,0,0,0,0,0,0,45.845741,5.178934,0.0,739.3,0.0
29663,1551439789293,1.527,2.415,1.7433,0.07,-0.03,0.92,0,-0,0,4074,7,94,20,73,512,0.0,300,300,60,116.0,0,0,303,644,95,0,0,0,0,0,0,,,,,
29683,1551439789313,1.503,2.383,1.6516,0.1,-0.02,0.97,0,-1,-0,3498,7,94,20,73,500,0.0,300,300,60,118.0,0,0,300,527,92,0,0,0,0,0,0,,,,,
29703,1551439789333,1.521,2.423,1.6855,0.16,-0.04,0.79,0,1,0,3498,7,94,20,73,500,0.0,300,300,60,118.0,0,0,300,527,92,0,0,0,0,0,0,,,,,
29723,1551439789353,1.464,2.418,1.7509,0.17,-0.0,0.84,0,2,0,3498,7,94,20,73,500,0.0,300,300,60,118.0,0,0,300,527,92,0,0,0,0,0,0,,,,,
29743,1551439789373,1.538,2.413,1.7748,0.13,0.03,0.86,0,1,0,3498,7,94,20,73,500,0.0,300,300,60,118.0,0,0,300,527,92,0,0,0,0,0,0,45.845741,5.178934,0.0,739.3,0.0
29763,1551439789393,1.54,2.411,1.7722,0.1,0.02,0.91,0,0,0,3498,7,94,20,73,500,0.0,300,300,60,118.0,0,0,300,527,92,0,0,0,0,0,0,,,,,
29783,1551439789413,1.552,2.418,1.771,0.09,0.02,0.96,0,0,0,2986,7,94,19,77,879,0.0,300,300,60,119.0,0,0,300,399,64,0,0,0,0,0,0,,,,,
29803,1551439789433,1.523,2.423,1.7685,0.08,0.04,0.97,0,0,-0,2986,7,94,19,77,879,0.0,300,300,60,119.0,0,0,300,399,64,0,0,0,0,0,0,,,,,
29823,1551439789453,1.546,2.407,1.727,0.1,0.06,1.0,0,1,0,2986,7,94,19,77,879,0.0,300,300,60,119.0,0,0,300,399,64,0,0,0,0,0,0,,,,,
29843,1551439789473,1.518,2.411,1.732,0.14,0.04,0.97,0,2,-0,2986,7,94,19,77,879,0.0,300,300,60,119.0,0,0,300,399,64,0,0,0,0,0,0,45.845741,5.178934,0.0,739.3,0.0
29863,1551439789491,1.528,2.406,1.7056,0.17,0.04,0.98,0,2,-0,2986,7,94,19,77,879,0.0,300,300,60,119.0,0,0,300,399,64,0,0,0,0,0,0,,,,,
29883,1551439789511,1.521,2.426,1.7622,0.13,0.04,1.05,0,2,-0,3079,7,94,19,80,1014,0.0,300,300,60,117.0,0,0,300,419,44,0,0,0,0,0,0,,,,,
29903,1551439789531,1.546,2.43,1.7471,0.06,-0.01,1.11,0,-1,0,3079,7,94,19,80,1014,0.0,300,300,60,117.0,0,0,300,419,44,0,0,0,0,0,0,,,,,
29923,1551439789551,1.546,2.386,1.6491,0.11,-0.01,1.05,0,0,0,3079,7,94,19,80,1014,0.0,300,300,60,117.0,0,0,300,419,44,0,0,0,0,0,0,,,,,
29943,1551439789571,1.543,2.423,1.7459,0.09,0.05,1.14,0,1,-0,3079,7,94,19,80,1014,0.0,300,300,60,117.0,0,0,300,419,44,0,0,0,0,0,0,45.845741,5.178934,0.0,739.3,0.0
29963,1551439789591,1.57,2.389,1.629,0.17,0.08,1.1,0,2,-1,3079,7,94,19,80,1014,0.0,300,300,60,117.0,0,0,300,419,44,0,0,0,0,0,0,,,,,
29983,1551439789607,1.51,2.45,1.7383,0.04,0.09,1.17,-0,-0,-1,3920,7,95,19,76,912,0.0,300,300,60,118.0,0,0,300,644,67,0,0,0,0,0,0,,,,,
30003,1551439789627,1.506,2.374,1.6792,0.1,0.06,0.97,0,1,-1,3920,7,95,19,76,912,0.0,300,300,60,118.0,0,0,300,644,67,0,0,0,0,0,0,,,,,
30023,1551439789647,1.482,2.43,1.6541,0.06,0.05,0.85,-0,-2,-1,3920,7,95,19,76,912,0.0,300,300,60,118.0,0,0,300,644,67,0,0,0,0,0,0,,,,,
30043,1551439789667,1.493,2.406,1.7421,0.09,0.03,0.82,0,-1,-0,3920,7,95,19,76,912,0.0,300,300,60,118.0,0,0,300,644,67,0,0,0,0,0,0,45.845741,5.178934,0.0,739.3,0.0
30063,1551439789687,1.537,2.431,1.6742,0.07,-0.02,0.82,0,-2,-0,3920,7,95,19,76,912,0.0,300,300,60,118.0,0,0,300,644,67,0,0,0,0,0,0,,,,,
30083,1551439789709,1.52,2.404,1.7245,0.1,-0.01,0.74,-0,-1,-0,3754,8,95,19,73,768,0.0,300,300,60,115.0,0,0,300,593,89,0,0,0,0,0,0,,,,,
30103,1551439789729,1.527,2.437,1.7107,0.01,-0.03,0.78,-0,-3,0,3754,8,95,19,73,768,0.0,300,300,60,115.0,0,0,300,593,89,0,0,0,0,0,0,,,,,
30123,1551439789749,1.503,2.406,1.6792,0.05,0.0,0.7,-0,-2,-0,3754,8,95,19,73,768,0.0,300,300,60,115.0,0,0,300,593,89,0,0,0,0,0,0,,,,,
30143,1551439789769,1.538,2.426,1.7509,0.06,0.02,0.83,-0,-1,-0,3754,8,95,19,73,768,0.0,300,300,60,115.0,0,0,300,593,89,0,0,0,0,0,0,45.845741,5.178934,0.0,739.3,0.0
30163,1551439789789,1.523,2.415,1.722,0.02,-0.03,0.84,0,-3,0,3754,8,95,19,73,768,0.0,300,300,60,115.0,0,0,300,593,89,0,0,0,0,0,0,,,,,
30183,1551439789809,1.525,2.412,1.6604,0.06,-0.03,0.93,-0,-2,-0,3414,9,95,19,75,723,0.0,300,300,60,116.0,0,0,300,522,77,0,0,0,0,0,0,,,,,
30203,1551439789829,1.503,2.399,1.6327,0.08,-0.03,0.8,0,-1,-0,3414,9,95,19,75,723,0.0,300,300,60,116.0,0,0,300,522,77,0,0,0,0,0,0,,,,,
30223,1551439789849,1.515,2.42,1.7094,0.13,-0.0,0.88,0,1,-0,3414,9,95,19,75,723,0.0,300,300,60,116.0,0,0,300,522,77,0,0,0,0,0,0,,,,,
30243,1551439789869,1.482,2.411,1.7496,0.16,0.04,0.93,0,2,-0,3414,9,95,19,75,723,0.0,300,300,60,116.0,0,0,300,522,77,0,0,0,0,0,0,45.845741,5.178934,0.0,739.3,0.0
30263,1551439789891,1.536,2.425,1.7722,0.13,0.02,0.95,0,1,-0,3414,9,95,19,75,723,0.0,300,300,60,116.0,0,0,300,522,77,0,0,0,0,0,0,,,,,
30283,1551439789911,1.549,2.416,1.7459,0.06,-0.01,1.01,0,-2,0,3223,9,95,19,79,846,0.0,300,300,60,120.0,0,0,300,487,62,0,0,0,0,0,0,,,,,
30303,1551439789931,1.523,2.399,1.6905,0.08,0.0,1.06,0,-2,-0,3223,9,95,19,79,846,0.0,300,300,60,120.0,0,0,300,487,62,0,0,0,0,0,0,,,,,
30323,1551439789951,1.527,2.413,1.6415,0.13,0.0,0.96,0,-0,-0,3223,9,95,19,79,846,0.0,300,300,60,120.0,0,0,300,487,62,0,0,0,0,0,0,,,,,
30343,1551439789971,1.533,2.412,1.7345,0.12,0.02,1.06,0,1,-0,3223,9,95,19,79,846,0.0,300,300,60,120.0,0,0,300,487,62,0,0,0,0,0,0,45.845741,5.178934,0.0,739.3,0.0
30363,1551439789991,1.492,2.397,1.6315,0.14,0.01,1.08,0,1,-0,3223,9,95,19,79,846,0.0,300,300,60,120.0,0,0,300,487,62,0,0,0,0,0,0,,,,,
30383,1551439790006,1.517,2.416,1.776,0.18,0.05,1.16,0,2,-0,3748,9,95,19,78,879,0.0,300,300,60,115.0,0,0,300,583,61,0,0,0,0,0,0,,,,,
30403,1551439790026,1.511,2.368,1.6692,0.28,0.08,0.97,0,3,-0,3748,9,95,19,78,879,0.0,300,300,60,115.0,0,0,300,583,61,0,0,0,0,0,0,,,,,
30423,1551439790046,1.461,2.459,1.6088,0.16,0.12,0.91,-0,-0,-0,3748,9,95,19,78,879,0.0,300,300,60,115.0,0,0,300,583,61,0,0,0,0,0,0,,,,,
30443,1551439790066,1.52,2.401,1.8112,0.16,0.15,1.02,-0,1,-0,3748,9,95,19,78,879,0.0,300,300,60,115.0,0,0,300,583,61,0,0,0,0,0,0,45.845741,5.178934,0.0,739.3,0.0
30463,1551439790086,1.565,2.334,1.7308,0.3,0.14,0.84,0,4,-0,3748,9,95,19,78,879,0.0,300,300,60,115.0,0,0,300,583,61,0,0,0,0,0,0,,,,,
30483,1551439790104,1.453,2.457,1.5975,0.33,0.16,0.83,-0,3,-0,4122,10,95,19,75,783,0.0,300,300,60,118.0,0,0,309,588,95,0,0,0,0,0,0,,,,,
30503,1551439790124,1.51,2.486,1.7547,0.14,0.15,0.94,-0,-1,-0,4122,10,95,19,75,783,0.0,300,300,60,118.0,0,0,309,588,95,0,0,0,0,0,0,,,,,
30523,1551439790144,1.601,2.338,1.7936,0.21,0.12,0.96,0,2,0,4122,10,95,19,75,783,0.0,300,300,60,118.0,0,0,309,588,95,0,0,0,0,0,0,,,,,
30543,1551439790164,1.506,2.401,1.6252,0.34,0.11,0.8,0,4,0,4122,10,95,19,75,783,0.0,300,300,60,118.0,0,0,309,588,95,0,0,0,0,0,0,45.845741,5.178934,0.0,739.3,0.0
30563,1551439790193,1.491,2.504,1.7295,0.14,0.1,0.92,0,-1,0,4122,10,95,19,75,783,0.0,300,300,60,118.0,0,0,309,588,95,0,0,0,0,0,0,,,,,
30583,1551439790213,1.554,2.36,1.7697,0.18,0.05,0.86,0,2,0,4005,10,95,19,74,700,0.0,300,300,60,115.0,0,0,300,612,92,0,0,0,0,0,0,,,,,
30603,1551439790233,1.499,2.363,1.6214,0.21,0.05,0.81,0,1,0,4005,10,95,19,74,700,0.0,300,300,60,115.0,0,0,300,612,92,0,0,0,0,0,0,,,,,
30623,1551439790253,1.546,2.459,1.7949,0.23,0.11,0.93,0,2,0,4005,10,95,19,74,700,0.0,300,300,60,115.0,0,0,300,612,92,0,0,0,0,0,0,,,,,
30643,1551439790273,1.511,2.389,1.6541,0.31,0.12,0.92,0,3,-0,4005,10,95,19,74,700,0.0,300,300,60,115.0,0,0,300,612,92,0,0,0,0,0,0,45.845741,5.178934,0.0,739.3,0.0
30663,1551439790292,1.503,2.43,1.722,0.18,0.15,1.01,0,0,-0,4005,10,95,19,74,700,0.0,300,300,60,115.0,0,0,300,612,92,0,0,0,0,0,0,,,,,
30683,1551439790312,1.541,2.384,1.6893,0.21,0.13,0.87,0,1,-0,3784,10,95,19,74,743,0.0,300,300,60,116.0,0,0,300,581,85,0,0,0,0,0,0,,,,,
30703,1551439790332,1.543,2.442,1.7069,0.1,0.1,0.89,0,-2,-0,3784,10,95,19,74,743,0.0,300,300,60,116.0,0,0,300,581,85,0,0,0,0,0,0,,,,,
30723,1551439790352,1.526,2.393,1.678,0.14,0.07,0.8,0,-1,0,3784,10,95,19,74,743,0.0,300,300,60,116.0,0,0,300,581,85,0,0,0,0,0,0,,,,,
30743,1551439790372,1.531,2.428,1.6968,0.02,0.04,0.88,0,-3,0,3784,10,95,19,74,743,0.0,300,300,60,116.0,0,0,300,581,85,0,0,0,0,0,0,45.845741,5.178934,0.0,739.3,0.0
30763,1551439790392,1.508,2.403,1.7056,0.09,0.02,0.63,0,-1,1,3784,10,95,19,74,743,0.0,300,300,60,116.0,0,0,300,581,85,0,0,0,0,0,0,,,,,
30783,1551439790412,1.502,2.438,1.7182,0.03,-0.0,0.73,0,-3,1,3738,10,95,19,74,799,0.0,300,300,60,118.0,0,0,300,574,83,0,0,0,0,0,0,,,,,
30803,1551439790432,1.516,2.382,1.6868,0.07,0.0,0.63,0,-2,1,3738,10,95,19,74,799,0.0,300,300,60,118.0,0,0,300,574,83,0,0,0,0,0,0,,,,,
30823,1551439790452,1.536,2.426,1.7333,-0.02,0.02,0.77,0,-2,0,3738,10,95,19,74,799,0.0,300,300,60,118.0,0,0,300,574,83,0,0,0,0,0,0,,,,,
30843,1551439790472,1.541,2.406,1.6792,0.04,0.03,0.78,0,-3,0,3738,10,95,19,74,799,0.0,300,300,60,118.0,0,0,300,574,83,0,0,0,0,0,0,45.845741,5.178934,0.0,739.3,0.0
30863,1551439790492,1.513,2.422,1.7484,0.05,-0.0,0.85,0,-0,0,3738,10,95,19,74,799,0.0,300,300,60,118.0,0,0,300,574,83,0,0,0,0,0,0,,,,,
30883,1551439790508,1.496,2.402,1.6541,0.11,-0.02,0.89,0,-1,0,3750,11,95,19,76,810,0.0,300,300,60,118.0,0,0,300,569,78,0,0,0,0,0,0,,,,,
30903,1551439790528,1.533,2.406,1.6817,0.16,-0.04,0.81,0,0,0,3750,11,95,19,76,810,0.0,300,300,60,118.0,0,0,300,569,78,0,0,0,0,0,0,,,,,
30923,1551439790548,1.483,2.443,1.7031,0.07,-0.02,0.87,-0,-2,-0,3750,11,95,19,76,810,0.0,300,300,60,118.0,0,0,300,569,78,0,0,0,0,0,0,,,,,
30943,1551439790568,1.526,2.386,1.7044,0.11,-0.03,0.86,0,-1,0,3750,11,95,19,76,810,0.0,300,300,60,118.0,0,0,300,569,78,0,0,0,0,0,0,45.845741,5.178934,0.0,739.3,0.0
30963,1551439790588,1.507,2.425,1.7245,0.03,-0.03,0.92,0,-2,-0,3750,11,95,19,76,810,0.0,300,300,60,118.0,0,0,300,569,78,0,0,0,0,0,0,,,,,
30983,1551439790608,1.537,2.398,1.678,0.1,-0.04,0.79,0,-2,-0,3588,13,95,19,77,781,0.0,300,300,60,118.0,0,0,300,523,71,0,0,0,0,0,0,,,,,
31003,1551439790628,1.515,2.455,1.6302,0.08,-0.09,0.82,0,-5,0,3588,13,95,19,77,781,0.0,300,300,60,118.0,0,0,300,523,71,0,0,0,0,0,0,,,,,
31023,1551439790648,1.54,2.407,1.7836,0.07,-0.09,0.93,0,-2,0,3588,13,95,19,77,781,0.0,300,300,60,118.0,0,0,300,523,71,0,0,0,0,0,0,,,,,
31043,1551439790668,1.491,2.378,1.6717,0.18,-0.1,0.8,-0,-1,0,3588,13,95,19,77,781,0.0,300,300,60,118.0,0,0,300,523,71,0,0,0,0,0,0,45.845741,5.178934,0.0,739.3,0.0
31063,1551439790688,1.497,2.467,1.5963,0.16,-0.11,0.78,-0,-5,-0,3588,13,95,19,77,781,0.0,300,300,60,118.0,0,0,300,523,71,0,0,0,0,0,0,,,,,
31083,1551439790706,1.507,2.418,1.7911,-0.03,-0.15,0.9,0,-5,-0,4171,14,95,19,77,769,0.0,300,300,60,114.0,0,0,314,474,78,0,0,0,0,0,0,,,,,
31103,1551439790726,1.552,2.322,1.8489,-0.01,-0.18,1.01,0,0,-0,4171,14,95,19,77,769,0.0,300,300,60,114.0,0,0,314,474,78,0,0,0,0,0,0,,,,,
31123,1551439790746,1.576,2.411,1.8577,0.14,-0.13,1.05,0,4,-0,4171,14,95,19,77,769,0.0,300,300,60,114.0,0,0,314,474,78,0,0,0,0,0,0,,,,,
31143,1551439790766,1.513,2.465,1.7647,0.32,-0.06,1.08,1,7,-1,4171,14,95,19,77,769,0.0,300,300,60,114.0,0,0,314,474,78,0,0,0,0,0,0,45.845741,5.178934,0.0,739.3,0.0
31163,1551439790786,1.522,2.44,1.7471,0.49,-0.02,1.15,1,10,-1,4171,14,95,19,77,769,0.0,300,300,60,114.0,0,0,314,474,78,0,0,0,0,0,0,,,,,
31183,1551439790808,1.507,2.401,1.7622,0.64,-0.01,1.13,1,13,-1,4539,14,95,19,77,743,0.0,300,300,60,118.0,0,0,344,494,80,0,0,0,0,0,0,,,,,
31203,1551439790828,1.54,2.452,1.7898,0.75,0.05,1.2,1,15,-0,4539,14,95,19,77,743,0.0,300,300,60,118.0,0,0,344,494,80,0,0,0,0,0,0,,,,,
31223,1551439790848,1.512,2.455,1.8049,0.84,0.09,1.17,1,17,-0,4539,14,95,19,77,743,0.0,300,300,60,118.0,0,0,344,494,80,0,0,0,0,0,0,,,,,
31243,1551439790868,1.521,2.446,1.8188,0.9,0.07,1.25,1,20,0,4539,14,95,19,77,743,0.0,300,300,60,118.0,0,0,344,494,80,0,0,0,0,0,0,45.845741,5.178934,0.0,739.3,0.0
31263,1551439790892,1.543,2.443,1.8439,0.81,0.07,1.32,1,21,0,4539,14,95,19,77,743,0.0,300,300,60,118.0,0,0,344,494,80,0,0,0,0,0,0,,,,,
31283,1551439790912,1.542,2.47,1.7974,0.55,0.02,1.24,1,17,1,4720,15,95,19,77,726,0.0,300,300,60,115.0,0,0,355,521,84,0,0,0,0,0,0,,,,,
31303,1551439790932,1.536,2.445,1.6264,0.4,-0.01,1.27,1,13,1,4720,15,95,19,77,726,0.0,300,300,60,115.0,0,0,355,521,84,0,0,0,0,0,0,,,,,
31323,1551439790952,1.535,2.376,1.6001,0.5,-0.06,0.94,1,10,0,4720,15,95,19,77,726,0.0,300,300,60,115.0,0,0,355,521,84,0,0,0,0,0,0,,,,,
31343,1551439790972,1.41,2.306,1.7283,0.63,-0.01,0.98,1,12,0,4720,15,95,19,77,726,0.0,300,300,60,115.0,0,0,355,521,84,0,0,0,0,0,0,45.845741,5.178934,0.0,739.3,0.0
31363,1551439790992,1.561,2.402,1.8627,0.54,-0.03,1.08,1,13,0,4720,15,95,19,77,726,0.0,300,300,60,115.0,0,0,355,521,84,0,0,0,0,0,0,,,,,
31383,1551439791007,1.531,2.486,1.7622,0.3,-0.01,1.09,1,9,1,4871,15,95,19,76,740,0.0,300,300,60,114.0,0,0,367,542,95,0,0,0,0,0,0,,,,,
31403,1551439791027,1.532,2.408,1.5825,0.34,0.02,0.95,0,6,0,4871,15,95,19,76,740,0.0,300,300,60,114.0,0,0,367,542,95,0,0,0,0,0,0,,,,,
31423,1551439791047,1.471,2.328,1.7371,0.48,0.08,0.8,0,9,-0,4871,15,95,19,76,740,0.0,300,300,60,114.0,0,0,367,542,95,0,0,0,0,0,0,,,,,
31443,1551439791067,1.533,2.381,1.8539,0.31,0.05,0.92,1,8,0,4871,15,95,19,76,740,0.0,300,300,60,114.0,0,0,367,542,95,0,0,0,0,0,0,45.845741,5.178934,0.0,739.3,0.0
31463,1551439791091,1.559,2.53,1.6629,0.18,0.05,0.98,0,4,0,4871,15,95,19,76,740,0.0,300,300,60,114.0,0,0,367,542,95,0,0,0,0,0,0,,,,,
31483,1551439791111,1.492,2.381,1.6654,0.34,0.07,0.68,0,5,-0,4923,15,95,19,74,733,0.0,300,300,60,117.0,0,0,371,549,101,0,0,0,0,0,0,,,,,
31503,1551439791131,1.491,2.342,1.7936,0.28,0.06,0.81,0,7,-0,4923,15,95,19,74,733,0.0,300,300,60,117.0,0,0,371,549,101,0,0,0,0,0,0,,,,,
31523,1551439791151,1.551,2.47,1.732,0.09,0.03,0.83,0,2,0,4923,15,95,19,74,733,0.0,300,300,60,117.0,0,0,371,549,101,0,0,0,0,0,0,,,,,
31543,1551439791171,1.546,2.44,1.6114,0.24,0.01,0.59,-0,3,-0,4923,15,95,19,74,733,0.0,300,300,60,117.0,0,0,371,549,101,0,0,0,0,0,0,45.845741,5.178934,0.0,739.3,0.0
31563,1551439791191,1.458,2.339,1.7823,0.33,0.02,0.73,-0,6,-1,4923,15,95,19,74,733,0.0,300,300,60,117.0,0,0,371,549,101,0,0,0,0,0,0,,,,,
31583,1551439791211,1.536,2.406,1.8477,0.12,0.03,0.76,-0,4,-0,4934,15,95,19,74,750,6.0,300,300,60,115.0,0,0,372,551,105,0,0,0,0,0,0,,,,,
31603,1551439791231,1.601,2.496,1.6302,0.04,0.03,0.77,-0,1,-0,4934,15,95,19,74,750,6.0,300,300,60,115.0,0,0,372,551,105,0,0,0,0,0,0,,,,,
31623,1551439791251,1.511,2.374,1.6013,0.23,-0.01,0.49,-0,2,-1,4934,15,95,19,74,750,6.0,300,300,60,115.0,0,0,372,551,105,0,0,0,0,0,0,,,,,
31643,1551439791271,1.527,2.343,1.82,0.3,0.1,0.64,-0,6,-1,4934,15,95,19,74,750,6.0,300,300,60,115.0,0,0,372,551,105,0,0,0,0,0,0,45.845741,5.178934,0.0,739.3,0.0
31663,1551439791291,1.55,2.445,1.8665,0.18,0.04,0.77,-0,6,-1,4934,15,95,19,74,750,6.0,300,300,60,115.0,0,0,372,551,105,0,0,0,0,0,0,,,,,
31683,1551439791311,1.522,2.461,1.7748,-0.04,0.04,0.89,-0,3,-0,4748,15,95,19,75,739,11.0,300,300,60,113.0,0,0,357,526,101,0,0,0,0,0,0,,,,,
31703,1551439791331,1.545,2.399,1.6755,-0.2,-0.01,0.88,-0,-2,0,4748,15,95,19,75,739,11.0,300,300,60,113.0,0,0,357,526,101,0,0,0,0,0,0,,,,,
31723,1551439791351,1.432,2.343,1.6013,-0.21,-0.03,0.95,-1,-4,-1,4748,15,95,19,75,739,11.0,300,300,60,113.0,0,0,357,526,101,0,0,0,0,0,0,,,,,
31743,1551439791371,1.513,2.367,1.5812,-0.14,-0.03,0.75,-1,-5,-1,4748,15,95,19,75,739,11.0,300,300,60,113.0,0,0,357,526,101,0,0,0,0,0,0,45.845741,5.178934,0.0,739.3,0.0
31763,1551439791393,1.523,2.377,1.6051,0.03,-0.02,0.5,-1,-5,-1,4748,15,95,19,75,739,11.0,300,300,60,113.0,0,0,357,526,101,0,0,0,0,0,0,,,,,
31783,1551439791413,1.497,2.41,1.7195,0.2,-0.04,0.25,-1,-3,-1,4645,15,95,19,76,758,16.0,300,300,60,119.0,0,0,350,512,90,0,0,0,0,0,0,,,,,
31803,1551439791433,1.536,2.446,1.7898,0.35,0.0,0.22,-1,1,-1,4645,15,95,19,76,758,16.0,300,300,60,119.0,0,0,350,512,90,0,0,0,0,0,0,,,,,
31823,1551439791453,1.473,2.456,1.8477,0.44,0.08,0.35,-1,5,-0,4645,15,95,19,76,758,16.0,300,300,60,119.0,0,0,350,512,90,0,0,0,0,0,0,,,,,
31843,1551439791473,1.488,2.476,1.8753,0.42,0.04,0.52,-1,7,-0,4645,15,95,19,76,758,16.0,300,300,60,119.0,0,0,350,512,90,0,0,0,0,0,0,45.845737,5.17894,0.96,721.9,0.0
31863,1551439791491,1.536,2.447,1.8527,0.24,0.05,0.66,-1,6,-0,4645,15,95,19,76,758,16.0,300,300,60,119.0,0,0,350,512,90,0,0,0,0,0,0,,,,,
31883,1551439791511,1.535,2.416,1.7471,0.02,0.01,0.77,-1,2,1,4641,15,95,19,76,751,20.0,300,300,60,114.0,0,0,350,511,90,0,0,0,0,0,0,,,,,
31903,1551439791531,1.505,2.394,1.639,-0.14,-0.05,0.84,-2,-1,0,4641,15,95,19,76,751,20.0,300,300,60,114.0,0,0,350,511,90,0,0,0,0,0,0,,,,,
31923,1551439791551,1.469,2.366,1.6013,-0.13,-0.07,0.7,-2,-4,-0,4641,15,95,19,76,751,20.0,300,300,60,114.0,0,0,350,511,90,0,0,0,0,0,0,,,,,
31943,1551439791571,1.481,2.34,1.6453,0.07,-0.03,0.44,-3,-3,0,4641,15,95,19,76,751,20.0,300,300,60,114.0,0,0,350,511,90,0,0,0,0,0,0,45.845737,5.17894,1.36,721.9,0.0
31963,1551439791591,1.503,2.386,1.7647,0.26,-0.02,0.35,-3,1,-0,4641,15,95,19,76,751,20.0,300,300,60,114.0,0,0,350,511,90,0,0,0,0,0,0,,,,,
31983,1551439791611,1.498,2.438,1.8665,0.33,0.02,0.51,-3,5,-0,4672,15,94,19,76,760,26.0,300,300,60,116.0,3956,0,352,515,91,0,0,0,0,0,0,,,,,
32003,1551439791631,1.428,2.462,1.8678,0.2,0.06,0.66,-3,4,0,4672,15,94,19,76,760,26.0,300,300,60,116.0,3956,0,352,515,91,0,0,0,0,0,0,,,,,
32023,1551439791651,1.503,2.459,1.781,-0.02,0.04,0.75,-4,0,1,4672,15,94,19,76,760,26.0,300,300,60,116.0,3956,0,352,515,91,0,0,0,0,0,0,,,,,
32043,1551439791671,1.531,2.418,1.629,-0.18,0.02,0.87,-4,-3,0,4672,15,94,19,76,760,26.0,300,300,60,116.0,3956,0,352,515,91,0,0,0,0,0,0,45.845737,5.17894,1.62,721.9,0.0
