"Interval"|"ms"|0|0|1,"Utc"|"ms"|0|0|1,"AccelAvantX"|"G"|0.0|10.0|50,"AccelAvantZ"|"G"|0.0|10.0|50,"AccelAvantY"|"G"|0.0|10.0|50,"AccelX"|"G"|-3.0|3.0|50,"AccelY"|"G"|-3.0|3.0|50,"AccelZ"|"G"|-3.0|3.0|50,"Yaw"|"Deg/Sec"|-120|120|50,"Pitch"|"Deg/Sec"|-120|120|50,"Roll"|"Deg/Sec"|-120|120|50,"RPM"|""|0|14000|50,"TPS"|"%"|0|100|50,"WaterTemp"|"?C"|0|300|50,"AirTemp"|"?C"|-1000|1000|50,"MAP"|"KPa"|0|255|50,"Lambda"|""|0|1024|50,"WheelSpeed"|"MPH"|0.0|150.0|50,"OilPress"|"PSI"|0|150|50,"FuelPress"|"PSI"|0|150|50,"OilTemp"|"F"|0|300|50,"Battery"|"Volts"|0.0|20.0|50,"FuelCon"|"L/h"|-1000|1000|50,"Gear"|""|0|10|50,"Advance"|"Deg"|-360|360|50,"Injection"|"ms"|-1000|1000|50,"FuelCon"|"L/100km"|-1000|1000|50,"LC_But_Pres"|""|-1000|1000|50,"LC_Active"|""|-1000|1000|50,"RD_Speed"|""|-1000|1000|50,"RUD_Speed"|""|-1000|1000|50,"LD_Speed"|""|-1000|1000|50,"LUD_Speed"|""|-1000|1000|50,"Latitude"|"Degrees"|-180.0|180.0|10,"Longitude"|"Degrees"|-180.0|180.0|10,"Speed"|"MPH"|0.0|150.0|10,"Altitude"|"ft"|0.0|4000.0|10,"Distance"|"mi"|0.0|0.0|10,"LapCount"|""|0|0|10,"LapTime"|"Min"|0.0|0.0|10,"Sector"|""|0|0|10,"SectorTime"|"Min"|0.0|0.0|10,"ElapsedTime"|"Min"|0.0|0.0|10,"CurrentLap"|""|0|0|10
28983,1551445884928,1.491,2.401,1.7169,0.13,0.04,0.92,-0,-1,0,1318,0,74,23,92,500,0.0,300,300,60,109.0,0,0,-18,421,22,0,0,0,0,0,0,,,,,,,,,,,
29003,1551445884948,1.487,2.397,1.7056,0.13,0.04,0.94,-0,-1,0,1318,0,74,23,92,500,0.0,300,300,60,109.0,0,0,-18,421,22,0,0,0,0,0,0,,,,,,,,,,,
29023,1551445884968,1.491,2.392,1.7081,0.12,0.04,0.95,-0,-1,-0,1318,0,74,23,92,500,0.0,300,300,60,109.0,0,0,-18,421,22,0,0,0,0,0,0,,,,,,,,,,,
29043,1551445884988,1.499,2.404,1.7232,0.12,0.04,0.94,-0,-1,0,1318,0,74,23,92,500,0.0,300,300,60,109.0,0,0,-18,421,22,0,0,0,0,0,0,45.845886,5.178982,0.0,718.9,0.0,0,0.0,-1,0.0,0.0,0
29063,1551445885002,1.494,2.392,1.7056,0.12,0.04,0.93,-0,-1,0,1318,0,74,23,92,500,0.0,300,300,60,109.0,0,0,-18,421,22,0,0,0,0,0,0,,,,,,,,,,,
29083,1551445885022,1.507,2.392,1.6905,0.12,0.04,0.92,-0,-1,-0,1288,0,74,23,92,510,0.0,300,300,60,114.0,0,0,-13,421,24,0,0,0,0,0,0,,,,,,,,,,,
29103,1551445885042,1.515,2.404,1.7006,0.12,0.03,0.93,-0,-1,-0,1288,0,74,23,92,510,0.0,300,300,60,114.0,0,0,-13,421,24,0,0,0,0,0,0,,,,,,,,,,,
29123,1551445885062,1.517,2.41,1.683,0.12,0.04,0.92,-0,-0,0,1288,0,74,23,92,510,0.0,300,300,60,114.0,0,0,-13,421,24,0,0,0,0,0,0,,,,,,,,,,,
29143,1551445885082,1.494,2.418,1.7019,0.13,0.05,0.91,-0,-0,0,1288,0,74,23,92,510,0.0,300,300,60,114.0,0,0,-13,421,24,0,0,0,0,0,0,45.845886,5.178982,0.0,718.9,0.0,0,0.0,-1,0.0,0.0,0
29163,1551445885110,1.517,2.42,1.7019,0.13,0.06,0.88,-0,-0,0,1288,0,74,23,92,510,0.0,300,300,60,114.0,0,0,-13,421,24,0,0,0,0,0,0,,,,,,,,,,,
29183,1551445885130,1.526,2.408,1.6981,0.13,0.06,0.84,-0,-1,0,1596,0,74,23,92,515,0.0,300,300,60,115.0,0,0,-11,413,22,0,0,0,0,0,0,,,,,,,,,,,
29203,1551445885150,1.543,2.425,1.6956,0.14,0.05,0.83,-0,-0,0,1596,0,74,23,92,515,0.0,300,300,60,115.0,0,0,-11,413,22,0,0,0,0,0,0,,,,,,,,,,,
29223,1551445885170,1.545,2.447,1.6943,0.13,0.05,0.83,-0,-1,0,1596,0,74,23,92,515,0.0,300,300,60,115.0,0,0,-11,413,22,0,0,0,0,0,0,,,,,,,,,,,
29243,1551445885190,1.52,2.438,1.6956,0.14,0.06,0.87,-0,-0,0,1596,0,74,23,92,515,0.0,300,300,60,115.0,0,0,-11,413,22,0,0,0,0,0,0,45.845886,5.178982,0.0,718.9,0.0,0,0.0,-1,0.0,0.0,0
29263,1551445885210,1.498,2.441,1.6817,0.14,0.05,0.88,-0,-0,-0,1596,0,74,23,92,515,0.0,300,300,60,115.0,0,0,-11,413,22,0,0,0,0,0,0,,,,,,,,,,,
29283,1551445885230,1.506,2.457,1.6817,0.14,0.05,0.87,-0,-0,-0,1532,0,74,23,93,506,0.0,300,300,60,116.0,0,0,-4,419,21,0,0,0,0,0,0,,,,,,,,,,,
29303,1551445885250,1.484,2.428,1.6918,0.15,0.06,0.85,0,-0,-0,1532,0,74,23,93,506,0.0,300,300,60,116.0,0,0,-4,419,21,0,0,0,0,0,0,,,,,,,,,,,
29323,1551445885270,1.506,2.412,1.6943,0.14,0.06,0.83,0,-0,-0,1532,0,74,23,93,506,0.0,300,300,60,116.0,0,0,-4,419,21,0,0,0,0,0,0,,,,,,,,,,,
29343,1551445885290,1.496,2.41,1.7006,0.15,0.06,0.88,0,-0,-0,1532,0,74,23,93,506,0.0,300,300,60,116.0,0,0,-4,419,21,0,0,0,0,0,0,45.845886,5.178982,0.0,718.9,0.0,0,0.0,-1,0.0,0.0,0
29363,1551445885310,1.499,2.408,1.6956,0.15,0.06,0.86,0,-0,0,1532,0,74,23,93,506,0.0,300,300,60,116.0,0,0,-4,419,21,0,0,0,0,0,0,,,,,,,,,,,
29383,1551445885330,1.498,2.425,1.6943,0.15,0.07,0.89,0,-0,0,1390,0,74,23,93,515,0.0,300,300,60,115.0,0,0,2,421,24,0,0,0,0,0,0,,,,,,,,,,,
29403,1551445885350,1.53,2.421,1.6931,0.16,0.08,0.84,0,-0,0,1390,0,74,23,93,515,0.0,300,300,60,115.0,0,0,2,421,24,0,0,0,0,0,0,,,,,,,,,,,
29423,1551445885370,1.522,2.377,1.6981,0.17,0.07,0.83,0,-0,0,1390,0,74,23,93,515,0.0,300,300,60,115.0,0,0,2,421,24,0,0,0,0,0,0,,,,,,,,,,,
29443,1551445885390,1.52,2.374,1.6968,0.16,0.07,0.83,0,-0,0,1390,0,74,23,93,515,0.0,300,300,60,115.0,0,0,2,421,24,0,0,0,0,0,0,45.845886,5.178982,0.0,718.9,0.0,0,0.0,-1,0.0,0.0,0
29463,1551445885410,1.518,2.397,1.6918,0.16,0.07,0.87,0,0,0,1390,0,74,23,93,515,0.0,300,300,60,115.0,0,0,2,421,24,0,0,0,0,0,0,,,,,,,,,,,
29483,1551445885430,1.518,2.408,1.6855,0.17,0.07,0.89,0,1,0,1480,0,74,23,91,507,0.0,300,300,60,115.0,0,0,6,421,25,0,0,0,0,0,0,,,,,,,,,,,
29503,1551445885450,1.513,2.398,1.6993,0.15,0.06,0.89,0,1,-0,1480,0,74,23,91,507,0.0,300,300,60,115.0,0,0,6,421,25,0,0,0,0,0,0,,,,,,,,,,,
29523,1551445885470,1.511,2.391,1.7019,0.15,0.05,0.9,0,1,-0,1480,0,74,23,91,507,0.0,300,300,60,115.0,0,0,6,421,25,0,0,0,0,0,0,,,,,,,,,,,
29543,1551445885490,1.515,2.41,1.6993,0.15,0.04,0.91,0,1,-0,1480,0,74,23,91,507,0.0,300,300,60,115.0,0,0,6,421,25,0,0,0,0,0,0,45.845886,5.178982,0.0,718.9,0.0,0,0.0,-1,0.0,0.0,0
29563,1551445885509,1.511,2.43,1.6981,0.16,0.02,0.89,0,0,-0,1480,0,74,23,91,507,0.0,300,300,60,115.0,0,0,6,421,25,0,0,0,0,0,0,,,,,,,,,,,
29583,1551445885529,1.506,2.448,1.7069,0.16,0.03,0.88,0,0,-0,1646,0,74,23,91,511,0.0,300,300,60,116.0,0,0,6,408,26,0,0,0,0,0,0,,,,,,,,,,,
29603,1551445885549,1.516,2.435,1.6843,0.16,0.03,0.89,-0,0,-0,1646,0,74,23,91,511,0.0,300,300,60,116.0,0,0,6,408,26,0,0,0,0,0,0,,,,,,,,,,,
29623,1551445885569,1.523,2.416,1.6956,0.17,0.03,0.84,-0,0,0,1646,0,74,23,91,511,0.0,300,300,60,116.0,0,0,6,408,26,0,0,0,0,0,0,,,,,,,,,,,
29643,1551445885589,1.506,2.379,1.7006,0.16,0.03,0.86,-0,-0,0,1646,0,74,23,91,511,0.0,300,300,60,116.0,0,0,6,408,26,0,0,0,0,0,0,45.845886,5.178982,0.0,718.9,0.0,0,0.0,-1,0.0,0.0,0
29663,1551445885609,1.488,2.391,1.7069,0.17,0.03,0.86,-0,-0,0,1646,0,74,23,91,511,0.0,300,300,60,116.0,0,0,6,408,26,0,0,0,0,0,0,,,,,,,,,,,
29683,1551445885629,1.511,2.413,1.6931,0.16,0.04,0.9,-0,0,-0,1849,0,74,23,90,516,0.0,300,300,60,115.0,0,0,5,390,27,0,0,0,0,0,0,,,,,,,,,,,
29703,1551445885649,1.498,2.456,1.6855,0.17,0.04,0.91,0,0,-0,1849,0,74,23,90,516,0.0,300,300,60,115.0,0,0,5,390,27,0,0,0,0,0,0,,,,,,,,,,,
29723,1551445885669,1.535,2.412,1.7069,0.17,0.04,0.9,0,1,-0,1849,0,74,23,90,516,0.0,300,300,60,115.0,0,0,5,390,27,0,0,0,0,0,0,,,,,,,,,,,
29743,1551445885689,1.511,2.366,1.7031,0.16,0.04,0.9,0,0,-0,1849,0,74,23,90,516,0.0,300,300,60,115.0,0,0,5,390,27,0,0,0,0,0,0,45.845886,5.178982,0.0,718.9,0.0,0,0.0,-1,0.0,0.0,0
29763,1551445885709,1.508,2.399,1.6981,0.16,0.03,0.94,0,0,-0,1849,0,74,23,90,516,0.0,300,300,60,115.0,0,0,5,390,27,0,0,0,0,0,0,,,,,,,,,,,
29783,1551445885729,1.52,2.442,1.6817,0.15,0.04,0.94,0,0,-0,1883,0,74,23,90,506,0.0,300,300,60,117.0,0,0,4,387,27,0,0,0,0,0,0,,,,,,,,,,,
29803,1551445885749,1.533,2.436,1.7031,0.16,0.04,0.89,0,0,-0,1883,0,74,23,90,506,0.0,300,300,60,117.0,0,0,4,387,27,0,0,0,0,0,0,,,,,,,,,,,
29823,1551445885769,1.507,2.381,1.7031,0.15,0.04,0.92,-0,0,-0,1883,0,74,23,90,506,0.0,300,300,60,117.0,0,0,4,387,27,0,0,0,0,0,0,,,,,,,,,,,
29843,1551445885789,1.489,2.388,1.7019,0.16,0.04,0.93,-0,-0,0,1883,0,74,23,90,506,0.0,300,300,60,117.0,0,0,4,387,27,0,0,0,0,0,0,45.845886,5.178982,0.0,718.9,0.0,0,0.0,-1,0.0,0.0,0
29863,1551445885809,1.507,2.412,1.6931,0.15,0.05,0.99,-0,0,-0,1883,0,74,23,90,506,0.0,300,300,60,117.0,0,0,4,387,27,0,0,0,0,0,0,,,,,,,,,,,
29883,1551445885829,1.503,2.442,1.6767,0.16,0.05,1.0,-0,0,-0,1842,0,74,23,90,515,0.0,300,300,60,116.0,0,0,3,391,26,0,0,0,0,0,0,,,,,,,,,,,
29903,1551445885849,1.53,2.428,1.7031,0.15,0.05,0.96,-0,0,-0,1842,0,74,23,90,515,0.0,300,300,60,116.0,0,0,3,391,26,0,0,0,0,0,0,,,,,,,,,,,
29923,1551445885869,1.502,2.382,1.6993,0.15,0.06,0.96,-0,0,-0,1842,0,74,23,90,515,0.0,300,300,60,116.0,0,0,3,391,26,0,0,0,0,0,0,,,,,,,,,,,
29943,1551445885889,1.528,2.388,1.7056,0.15,0.05,0.96,-0,0,-0,1842,0,74,23,90,515,0.0,300,300,60,116.0,0,0,3,391,26,0,0,0,0,0,0,45.845886,5.178982,0.0,718.9,0.0,0,0.0,-1,0.0,0.0,0
29963,1551445885909,1.525,2.402,1.6981,0.15,0.04,0.95,-0,0,-0,1842,0,74,23,90,515,0.0,300,300,60,116.0,0,0,3,391,26,0,0,0,0,0,0,,,,,,,,,,,
29983,1551445885929,1.505,2.437,1.7019,0.15,0.05,0.96,-0,0,-0,1791,0,74,23,90,505,0.0,300,300,60,116.0,0,0,2,395,26,0,0,0,0,0,0,,,,,,,,,,,
30003,1551445885949,1.525,2.467,1.6943,0.14,0.06,0.98,-0,0,-0,1791,0,74,23,90,505,0.0,300,300,60,116.0,0,0,2,395,26,0,0,0,0,0,0,,,,,,,,,,,
30023,1551445885969,1.516,2.442,1.6918,0.14,0.06,0.94,-0,0,-0,1791,0,74,23,90,505,0.0,300,300,60,116.0,0,0,2,395,26,0,0,0,0,0,0,,,,,,,,,,,
30043,1551445885989,1.51,2.389,1.6868,0.14,0.07,0.92,-0,0,-0,1791,0,74,23,90,505,0.0,300,300,60,116.0,0,0,2,395,26,0,0,0,0,0,0,45.845886,5.178982,0.0,718.9,0.0,0,0.0,-1,0.0,0.0,0
30063,1551445886003,1.518,2.357,1.7232,0.13,0.07,0.93,-0,-0,-0,1791,0,74,23,90,505,0.0,300,300,60,116.0,0,0,2,395,26,0,0,0,0,0,0,,,,,,,,,,,
30083,1551445886023,1.507,2.377,1.7056,0.13,0.06,0.97,-0,-0,-0,1843,0,73,23,90,500,0.0,300,300,60,112.0,0,0,2,391,25,0,0,0,0,0,0,,,,,,,,,,,
30103,1551445886043,1.51,2.421,1.6981,0.13,0.06,0.97,-0,-0,-0,1843,0,73,23,90,500,0.0,300,300,60,112.0,0,0,2,391,25,0,0,0,0,0,0,,,,,,,,,,,
30123,1551445886063,1.508,2.443,1.7094,0.13,0.04,0.94,0,-0,0,1843,0,73,23,90,500,0.0,300,300,60,112.0,0,0,2,391,25,0,0,0,0,0,0,,,,,,,,,,,
30143,1551445886083,1.522,2.448,1.6993,0.12,0.03,1.02,0,-0,-0,1843,0,73,23,90,500,0.0,300,300,60,112.0,0,0,2,391,25,0,0,0,0,0,0,45.845886,5.178982,0.0,718.9,0.0,0,0.0,-1,0.0,0.0,0
30163,1551445886109,1.487,2.412,1.673,0.14,0.02,1.03,0,0,-0,1843,0,73,23,90,500,0.0,300,300,60,112.0,0,0,2,391,25,0,0,0,0,0,0,,,,,,,,,,,
30183,1551445886129,1.511,2.384,1.7019,0.15,0.03,1.0,0,0,-0,1753,0,73,23,91,514,0.0,300,300,60,116.0,0,0,2,399,26,0,0,0,0,0,0,,,,,,,,,,,
30203,1551445886149,1.531,2.391,1.7094,0.14,0.02,1.04,-0,0,-0,1753,0,73,23,91,514,0.0,300,300,60,116.0,0,0,2,399,26,0,0,0,0,0,0,,,,,,,,,,,
30223,1551445886169,1.51,2.407,1.6993,0.15,0.01,1.07,-0,0,-0,1753,0,73,23,91,514,0.0,300,300,60,116.0,0,0,2,399,26,0,0,0,0,0,0,,,,,,,,,,,
30243,1551445886189,1.494,2.42,1.7019,0.14,0.02,1.08,-0,-0,-0,1753,0,73,23,91,514,0.0,300,300,60,116.0,0,0,2,399,26,0,0,0,0,0,0,45.845886,5.178982,0.0,718.9,0.0,0,0.0,-1,0.0,0.0,0
30263,1551445886210,1.505,2.432,1.7031,0.15,0.02,1.1,-0,0,-0,1753,0,73,23,91,514,0.0,300,300,60,116.0,0,0,2,399,26,0,0,0,0,0,0,,,,,,,,,,,
30283,1551445886230,1.515,2.457,1.6855,0.15,0.02,1.06,-0,0,-0,1686,0,73,23,91,509,0.0,300,300,60,117.0,0,0,3,405,26,0,0,0,0,0,0,,,,,,,,,,,
30303,1551445886250,1.52,2.397,1.6868,0.16,0.03,1.0,-0,0,-0,1686,0,73,23,91,509,0.0,300,300,60,117.0,0,0,3,405,26,0,0,0,0,0,0,,,,,,,,,,,
30323,1551445886270,1.508,2.358,1.7081,0.16,0.03,0.97,-0,0,-0,1686,0,73,23,91,509,0.0,300,300,60,117.0,0,0,3,405,26,0,0,0,0,0,0,,,,,,,,,,,
30343,1551445886290,1.52,2.384,1.7107,0.16,0.03,0.98,-0,-0,-0,1686,0,73,23,91,509,0.0,300,300,60,117.0,0,0,3,405,26,0,0,0,0,0,0,45.845886,5.178982,0.0,718.9,0.0,0,0.0,-1,0.0,0.0,0
30363,1551445886309,1.515,2.399,1.7044,0.16,0.03,0.97,-0,0,-0,1686,0,73,23,91,509,0.0,300,300,60,117.0,0,0,3,405,26,0,0,0,0,0,0,,,,,,,,,,,
30383,1551445886329,1.498,2.393,1.6868,0.14,0.03,0.97,-0,-0,-0,1568,0,73,23,90,505,0.0,300,300,60,112.0,0,0,5,415,26,0,0,0,0,0,0,,,,,,,,,,,
30403,1551445886349,1.521,2.446,1.7295,0.15,0.02,0.96,-0,-0,-0,1568,0,73,23,90,505,0.0,300,300,60,112.0,0,0,5,415,26,0,0,0,0,0,0,,,,,,,,,,,
30423,1551445886369,1.521,2.442,1.6918,0.14,0.04,1.01,-0,0,-0,1568,0,73,23,90,505,0.0,300,300,60,112.0,0,0,5,415,26,0,0,0,0,0,0,,,,,,,,,,,
30443,1551445886389,1.515,2.42,1.6855,0.14,0.04,0.99,-0,0,-0,1568,0,73,23,90,505,0.0,300,300,60,112.0,0,0,5,415,26,0,0,0,0,0,0,45.845886,5.178982,0.0,718.9,0.0,0,0.0,-1,0.0,0.0,0
30463,1551445886408,1.507,2.392,1.6792,0.15,0.04,1.02,-0,0,-0,1568,0,73,23,90,505,0.0,300,300,60,112.0,0,0,5,415,26,0,0,0,0,0,0,,,,,,,,,,,
30483,1551445886428,1.52,2.408,1.6956,0.15,0.04,1.07,0,0,-0,1612,0,73,23,91,505,0.0,300,300,60,116.0,0,0,7,411,26,0,0,0,0,0,0,,,,,,,,,,,
30503,1551445886448,1.525,2.412,1.6943,0.15,0.03,0.99,0,0,-0,1612,0,73,23,91,505,0.0,300,300,60,116.0,0,0,7,411,26,0,0,0,0,0,0,,,,,,,,,,,
30523,1551445886468,1.51,2.397,1.7081,0.14,0.03,1.01,0,0,-0,1612,0,73,23,91,505,0.0,300,300,60,116.0,0,0,7,411,26,0,0,0,0,0,0,,,,,,,,,,,
30543,1551445886488,1.503,2.416,1.7006,0.15,0.05,1.04,0,0,-0,1612,0,73,23,91,505,0.0,300,300,60,116.0,0,0,7,411,26,0,0,0,0,0,0,45.845886,5.178982,0.0,718.9,0.0,0,0.0,-1,0.0,0.0,0
30563,1551445886508,1.51,2.438,1.7107,0.14,0.04,1.04,0,0,-0,1612,0,73,23,91,505,0.0,300,300,60,116.0,0,0,7,411,26,0,0,0,0,0,0,,,,,,,,,,,
30583,1551445886528,1.508,2.442,1.6993,0.15,0.03,1.05,0,0,-0,1713,0,73,23,91,514,0.0,300,300,60,116.0,0,0,7,402,26,0,0,0,0,0,0,,,,,,,,,,,
30603,1551445886548,1.507,2.43,1.6931,0.14,0.03,1.02,-0,0,-0,1713,0,73,23,91,514,0.0,300,300,60,116.0,0,0,7,402,26,0,0,0,0,0,0,,,,,,,,,,,
30623,1551445886568,1.498,2.408,1.6767,0.16,0.02,1.0,-0,1,-0,1713,0,73,23,91,514,0.0,300,300,60,116.0,0,0,7,402,26,0,0,0,0,0,0,,,,,,,,,,,
30643,1551445886588,1.531,2.394,1.7144,0.16,0.03,0.97,0,0,-0,1713,0,73,23,91,514,0.0,300,300,60,116.0,0,0,7,402,26,0,0,0,0,0,0,45.845886,5.178982,0.0,718.9,0.0,0,0.0,-1,0.0,0.0,0
30663,1551445886608,1.525,2.373,1.7094,0.15,0.03,1.0,0,0,-0,1713,0,73,23,91,514,0.0,300,300,60,116.0,0,0,7,402,26,0,0,0,0,0,0,,,,,,,,,,,
30683,1551445886628,1.499,2.392,1.6956,0.15,0.02,1.02,0,0,-0,1700,0,73,23,90,500,0.0,300,300,60,111.0,0,0,7,403,25,0,0,0,0,0,0,,,,,,,,,,,
30703,1551445886648,1.487,2.422,1.7031,0.14,0.02,1.05,0,-0,-0,1700,0,73,23,90,500,0.0,300,300,60,111.0,0,0,7,403,25,0,0,0,0,0,0,,,,,,,,,,,
30723,1551445886668,1.506,2.46,1.7144,0.14,0.03,1.05,0,-0,-0,1700,0,73,23,90,500,0.0,300,300,60,111.0,0,0,7,403,25,0,0,0,0,0,0,,,,,,,,,,,
30743,1551445886688,1.525,2.443,1.7144,0.13,0.04,1.04,-0,-1,-0,1700,0,73,23,90,500,0.0,300,300,60,111.0,0,0,7,403,25,0,0,0,0,0,0,45.845886,5.178982,0.0,718.9,0.0,0,0.0,-1,0.0,0.0,0
30763,1551445886708,1.483,2.399,1.6956,0.14,0.06,1.08,-0,0,-0,1700,0,73,23,90,500,0.0,300,300,60,111.0,0,0,7,403,25,0,0,0,0,0,0,,,,,,,,,,,
30783,1551445886728,1.507,2.402,1.688,0.14,0.05,1.08,-0,0,-0,1658,0,73,23,92,511,0.0,300,300,60,117.0,0,0,8,407,24,0,0,0,0,0,0,,,,,,,,,,,
30803,1551445886748,1.515,2.422,1.6843,0.14,0.05,1.07,-0,0,-0,1658,0,73,23,92,511,0.0,300,300,60,117.0,0,0,8,407,24,0,0,0,0,0,0,,,,,,,,,,,
30823,1551445886768,1.518,2.404,1.6855,0.15,0.05,1.09,-0,0,-0,1658,0,73,23,92,511,0.0,300,300,60,117.0,0,0,8,407,24,0,0,0,0,0,0,,,,,,,,,,,
30843,1551445886788,1.516,2.404,1.6943,0.16,0.04,1.11,0,0,-0,1658,0,73,23,92,511,0.0,300,300,60,117.0,0,0,8,407,24,0,0,0,0,0,0,45.845886,5.178982,0.0,718.9,0.0,0,0.0,-1,0.0,0.0,0
30863,1551445886808,1.525,2.415,1.7019,0.16,0.05,1.04,0,0,-0,1658,0,73,23,92,511,0.0,300,300,60,117.0,0,0,8,407,24,0,0,0,0,0,0,,,,,,,,,,,
30883,1551445886828,1.526,2.407,1.7056,0.17,0.05,1.01,0,0,-0,1542,0,74,23,91,511,0.0,300,300,60,116.0,0,0,11,418,24,0,0,0,0,0,0,,,,,,,,,,,
30903,1551445886848,1.505,2.398,1.7006,0.17,0.05,1.01,0,1,-0,1542,0,74,23,91,511,0.0,300,300,60,116.0,0,0,11,418,24,0,0,0,0,0,0,,,,,,,,,,,
30923,1551445886868,1.512,2.394,1.6943,0.16,0.05,0.99,0,0,-0,1542,0,74,23,91,511,0.0,300,300,60,116.0,0,0,11,418,24,0,0,0,0,0,0,,,,,,,,,,,
30943,1551445886888,1.511,2.407,1.6943,0.17,0.04,0.98,0,1,-0,1542,0,74,23,91,511,0.0,300,300,60,116.0,0,0,11,418,24,0,0,0,0,0,0,45.845886,5.178982,0.0,718.9,0.0,0,0.0,-1,0.0,0.0,0
30963,1551445886906,1.51,2.401,1.6993,0.17,0.04,1.0,-0,1,-0,1542,0,74,23,91,511,0.0,300,300,60,116.0,0,0,11,418,24,0,0,0,0,0,0,,,,,,,,,,,
30983,1551445886926,1.502,2.412,1.7044,0.16,0.02,1.01,-0,0,-0,1586,0,73,23,91,500,0.0,300,300,60,111.0,0,0,14,414,24,0,0,0,0,0,0,,,,,,,,,,,
31003,1551445886946,1.512,2.432,1.7157,0.15,0.03,1.04,-0,-0,-0,1586,0,73,23,91,500,0.0,300,300,60,111.0,0,0,14,414,24,0,0,0,0,0,0,,,,,,,,,,,
31023,1551445886966,1.513,2.431,1.7081,0.15,0.04,1.05,-0,-0,-0,1586,0,73,23,91,500,0.0,300,300,60,111.0,0,0,14,414,24,0,0,0,0,0,0,,,,,,,,,,,
31043,1551445886986,1.517,2.416,1.7119,0.14,0.04,1.06,-0,-0,-0,1586,0,73,23,91,500,0.0,300,300,60,111.0,0,0,14,414,24,0,0,0,0,0,0,45.845886,5.178982,0.0,718.9,0.0,0,0.0,-1,0.0,0.0,0
31063,1551445887004,1.498,2.402,1.7094,0.14,0.06,1.05,-0,-0,-0,1586,0,73,23,91,500,0.0,300,300,60,111.0,0,0,14,414,24,0,0,0,0,0,0,,,,,,,,,,,
31083,1551445887024,1.488,2.407,1.7044,0.14,0.06,1.03,-0,-0,-0,1510,0,73,23,92,515,0.0,300,300,60,115.0,0,0,17,421,24,0,0,0,0,0,0,,,,,,,,,,,
31103,1551445887044,1.503,2.412,1.7056,0.14,0.06,1.03,-0,-0,0,1510,0,73,23,92,515,0.0,300,300,60,115.0,0,0,17,421,24,0,0,0,0,0,0,,,,,,,,,,,
31123,1551445887064,1.516,2.412,1.7056,0.13,0.06,1.01,-0,-0,0,1510,0,73,23,92,515,0.0,300,300,60,115.0,0,0,17,421,24,0,0,0,0,0,0,,,,,,,,,,,
31143,1551445887084,1.51,2.407,1.7056,0.14,0.04,1.01,-0,-1,0,1510,0,73,23,92,515,0.0,300,300,60,115.0,0,0,17,421,24,0,0,0,0,0,0,45.845886,5.178982,0.0,718.9,0.0,0,0.0,-1,0.0,0.0,0
31163,1551445887100,1.511,2.412,1.7019,0.14,0.04,0.98,-0,-0,0,1510,0,73,23,92,515,0.0,300,300,60,115.0,0,0,17,421,24,0,0,0,0,0,0,,,,,,,,,,,
31183,1551445887120,1.511,2.42,1.6943,0.15,0.03,0.98,-0,-0,0,1538,0,73,23,92,512,0.0,300,300,60,116.0,0,0,20,418,24,0,0,0,0,0,0,,,,,,,,,,,
31203,1551445887140,1.506,2.411,1.6968,0.15,0.02,0.96,-0,0,0,1538,0,73,23,92,512,0.0,300,300,60,116.0,0,0,20,418,24,0,0,0,0,0,0,,,,,,,,,,,
31223,1551445887160,1.51,2.411,1.6817,0.16,0.01,1.02,-0,0,-0,1538,0,73,23,92,512,0.0,300,300,60,116.0,0,0,20,418,24,0,0,0,0,0,0,,,,,,,,,,,
31243,1551445887180,1.513,2.428,1.688,0.16,0.01,1.05,-0,1,-0,1538,0,73,23,92,512,0.0,300,300,60,116.0,0,0,20,418,24,0,0,0,0,0,0,45.845886,5.178982,0.0,718.9,0.0,0,0.0,-1,0.0,0.0,0
31263,1551445887210,1.506,2.42,1.6893,0.14,0.01,1.03,-0,0,-0,1538,0,73,23,92,512,0.0,300,300,60,116.0,0,0,20,418,24,0,0,0,0,0,0,,,,,,,,,,,
31283,1551445887230,1.515,2.417,1.688,0.14,0.0,0.99,0,0,-0,1547,0,74,23,92,513,0.0,300,300,60,116.0,0,0,22,417,24,0,0,0,0,0,0,,,,,,,,,,,
31303,1551445887250,1.491,2.399,1.6905,0.13,0.01,0.95,-0,-0,-0,1547,0,74,23,92,513,0.0,300,300,60,116.0,0,0,22,417,24,0,0,0,0,0,0,,,,,,,,,,,
31323,1551445887270,1.516,2.417,1.6956,0.13,0.01,0.9,-0,-0,0,1547,0,74,23,92,513,0.0,300,300,60,116.0,0,0,22,417,24,0,0,0,0,0,0,,,,,,,,,,,
31343,1551445887290,1.518,2.421,1.6943,0.14,0.02,0.86,0,-0,0,1547,0,74,23,92,513,0.0,300,300,60,116.0,0,0,22,417,24,0,0,0,0,0,0,45.845886,5.178982,0.0,718.9,0.0,0,0.0,-1,0.0,0.0,0
31363,1551445887310,1.52,2.417,1.6943,0.15,0.03,0.89,-0,-0,0,1547,0,74,23,92,513,0.0,300,300,60,116.0,0,0,22,417,24,0,0,0,0,0,0,,,,,,,,,,,
31383,1551445887330,1.523,2.399,1.6993,0.15,0.05,0.84,-0,0,0,1552,0,74,23,92,516,0.0,300,300,60,116.0,0,0,24,417,23,0,0,0,0,0,0,,,,,,,,,,,
31403,1551445887350,1.521,2.392,1.7081,0.17,0.06,0.82,-0,0,0,1552,0,74,23,92,516,0.0,300,300,60,116.0,0,0,24,417,23,0,0,0,0,0,0,,,,,,,,,,,
31423,1551445887370,1.498,2.399,1.6981,0.16,0.06,0.82,-0,0,0,1552,0,74,23,92,516,0.0,300,300,60,116.0,0,0,24,417,23,0,0,0,0,0,0,,,,,,,,,,,
31443,1551445887390,1.51,2.407,1.7006,0.17,0.05,0.83,-0,0,0,1552,0,74,23,92,516,0.0,300,300,60,116.0,0,0,24,417,23,0,0,0,0,0,0,45.845886,5.178982,0.0,718.9,0.0,0,0.0,-1,0.0,0.0,0
31463,1551445887409,1.508,2.402,1.6931,0.18,0.04,0.85,-0,0,-0,1552,0,74,23,92,516,0.0,300,300,60,116.0,0,0,24,417,23,0,0,0,0,0,0,,,,,,,,,,,
31483,1551445887429,1.503,2.412,1.7044,0.16,0.04,0.9,-0,0,-0,1581,0,74,23,91,500,0.0,300,300,60,111.0,0,0,26,414,25,0,0,0,0,0,0,,,,,,,,,,,
31503,1551445887449,1.505,2.425,1.7031,0.16,0.04,0.92,0,0,-0,1581,0,74,23,91,500,0.0,300,300,60,111.0,0,0,26,414,25,0,0,0,0,0,0,,,,,,,,,,,
31523,1551445887469,1.512,2.432,1.7132,0.16,0.07,0.93,-0,-0,-0,1581,0,74,23,91,500,0.0,300,300,60,111.0,0,0,26,414,25,0,0,0,0,0,0,,,,,,,,,,,
31543,1551445887489,1.505,2.421,1.7031,0.15,0.07,0.93,-0,-0,-0,1581,0,74,23,91,500,0.0,300,300,60,111.0,0,0,26,414,25,0,0,0,0,0,0,45.845886,5.178982,0.0,718.9,0.0,0,0.0,-1,0.0,0.0,0
31563,1551445887509,1.508,2.417,1.7069,0.16,0.07,0.91,-0,-0,-0,1581,0,74,23,91,500,0.0,300,300,60,111.0,0,0,26,414,25,0,0,0,0,0,0,,,,,,,,,,,
31583,1551445887529,1.499,2.412,1.6843,0.16,0.07,0.94,-0,0,-0,1570,0,74,23,92,515,0.0,300,300,60,116.0,0,0,27,415,24,0,0,0,0,0,0,,,,,,,,,,,
31603,1551445887549,1.506,2.42,1.6855,0.15,0.05,0.94,-0,0,-0,1570,0,74,23,92,515,0.0,300,300,60,116.0,0,0,27,415,24,0,0,0,0,0,0,,,,,,,,,,,
31623,1551445887569,1.517,2.41,1.6704,0.15,0.05,0.92,-0,0,-0,1570,0,74,23,92,515,0.0,300,300,60,116.0,0,0,27,415,24,0,0,0,0,0,0,,,,,,,,,,,
31643,1551445887589,1.508,2.408,1.6918,0.15,0.05,0.92,-0,0,-0,1570,0,74,23,92,515,0.0,300,300,60,116.0,0,0,27,415,24,0,0,0,0,0,0,45.845886,5.178982,0.0,718.9,0.0,0,0.0,-1,0.0,0.0,0
31663,1551445887609,1.528,2.408,1.7107,0.15,0.06,0.87,-0,0,-0,1570,0,74,23,92,515,0.0,300,300,60,116.0,0,0,27,415,24,0,0,0,0,0,0,,,,,,,,,,,
31683,1551445887629,1.522,2.398,1.7107,0.16,0.05,0.85,-0,0,-0,1601,0,74,23,91,505,0.0,300,300,60,117.0,0,0,29,412,24,0,0,0,0,0,0,,,,,,,,,,,
31703,1551445887649,1.51,2.396,1.7081,0.16,0.05,0.86,-0,-0,-0,1601,0,74,23,91,505,0.0,300,300,60,117.0,0,0,29,412,24,0,0,0,0,0,0,,,,,,,,,,,
31723,1551445887669,1.506,2.397,1.7006,0.15,0.04,0.9,-0,0,-0,1601,0,74,23,91,505,0.0,300,300,60,117.0,0,0,29,412,24,0,0,0,0,0,0,,,,,,,,,,,
31743,1551445887689,1.503,2.417,1.6981,0.15,0.06,0.94,-0,0,-0,1601,0,74,23,91,505,0.0,300,300,60,117.0,0,0,29,412,24,0,0,0,0,0,0,45.845886,5.178982,0.0,718.9,0.0,0,0.0,-1,0.0,0.0,0
31763,1551445887709,1.494,2.427,1.7132,0.15,0.05,0.91,0,-0,-0,1601,0,74,23,91,505,0.0,300,300,60,117.0,0,0,29,412,24,0,0,0,0,0,0,,,,,,,,,,,
31783,1551445887729,1.505,2.43,1.7132,0.15,0.05,0.96,0,0,-0,1664,0,74,23,91,514,0.0,300,300,60,116.0,0,0,30,407,25,0,0,0,0,0,0,,,,,,,,,,,
31803,1551445887749,1.512,2.432,1.683,0.14,0.06,0.94,-0,0,-0,1664,0,74,23,91,514,0.0,300,300,60,116.0,0,0,30,407,25,0,0,0,0,0,0,,,,,,,,,,,
31823,1551445887769,1.512,2.412,1.6792,0.16,0.06,0.91,0,0,-0,1664,0,74,23,91,514,0.0,300,300,60,116.0,0,0,30,407,25,0,0,0,0,0,0,,,,,,,,,,,
31843,1551445887789,1.515,2.384,1.7056,0.17,0.06,0.89,0,0,-0,1664,0,74,23,91,514,0.0,300,300,60,116.0,0,0,30,407,25,0,0,0,0,0,0,45.845886,5.178982,0.0,718.9,0.0,0,0.0,-1,0.0,0.0,0
31863,1551445887810,1.512,2.377,1.7094,0.16,0.06,0.91,0,-0,-0,1664,0,74,23,91,514,0.0,300,300,60,116.0,0,0,30,407,25,0,0,0,0,0,0,,,,,,,,,,,
31883,1551445887830,1.502,2.399,1.6981,0.16,0.05,0.94,0,-0,-0,1751,0,74,23,90,500,0.0,300,300,60,112.0,0,0,30,399,26,0,0,0,0,0,0,,,,,,,,,,,
31903,1551445887850,1.494,2.42,1.7019,0.16,0.05,0.95,0,-0,-0,1751,0,74,23,90,500,0.0,300,300,60,112.0,0,0,30,399,26,0,0,0,0,0,0,,,,,,,,,,,
31923,1551445887870,1.517,2.447,1.7132,0.16,0.05,0.99,0,0,-0,1751,0,74,23,90,500,0.0,300,300,60,112.0,0,0,30,399,26,0,0,0,0,0,0,,,,,,,,,,,
31943,1551445887890,1.516,2.442,1.6956,0.16,0.06,0.94,0,0,-0,1751,0,74,23,90,500,0.0,300,300,60,112.0,0,0,30,399,26,0,0,0,0,0,0,45.845886,5.178982,0.0,718.9,0.0,0,0.0,-1,0.0,0.0,0
31963,1551445887909,1.511,2.407,1.6868,0.17,0.07,0.89,0,0,0,1751,0,74,23,90,500,0.0,300,300,60,112.0,0,0,30,399,26,0,0,0,0,0,0,,,,,,,,,,,
31983,1551445887929,1.516,2.374,1.7207,0.15,0.07,0.9,0,-0,0,1823,0,74,23,91,511,0.0,300,300,60,117.0,0,0,30,392,26,0,0,0,0,0,0,,,,,,,,,,,
32003,1551445887949,1.511,2.406,1.7182,0.16,0.07,0.91,0,-0,0,1823,0,74,23,91,511,0.0,300,300,60,117.0,0,0,30,392,26,0,0,0,0,0,0,,,,,,,,,,,
32023,1551445887969,1.508,2.412,1.6843,0.15,0.08,0.94,0,0,-0,1823,0,74,23,91,511,0.0,300,300,60,117.0,0,0,30,392,26,0,0,0,0,0,0,,,,,,,,,,,
32043,1551445887989,1.496,2.442,1.6931,0.16,0.07,0.9,0,0,-0,1823,0,74,23,91,511,0.0,300,300,60,117.0,0,0,30,392,26,0,0,0,0,0,0,45.845886,5.178982,0.0,718.9,0.0,0,0.0,-1,0.0,0.0,0
32063,1551445888003,1.517,2.415,1.7207,0.14,0.06,0.93,0,0,-0,1823,0,74,23,91,511,0.0,300,300,60,117.0,0,0,30,392,26,0,0,0,0,0,0,,,,,,,,,,,
32083,1551445888023,1.508,2.393,1.7157,0.13,0.07,0.98,0,0,-0,1949,0,74,23,89,500,0.0,300,300,60,115.0,0,0,28,381,28,0,0,0,0,0,0,,,,,,,,,,,
32103,1551445888043,1.51,2.392,1.6817,0.14,0.06,0.94,0,0,-0,1949,0,74,23,89,500,0.0,300,300,60,115.0,0,0,28,381,28,0,0,0,0,0,0,,,,,,,,,,,
32123,1551445888063,1.503,2.394,1.7031,0.13,0.07,0.92,0,-0,-0,1949,0,74,23,89,500,0.0,300,300,60,115.0,0,0,28,381,28,0,0,0,0,0,0,,,,,,,,,,,
32143,1551445888083,1.501,2.415,1.6855,0.12,0.08,1.0,0,0,-0,1949,0,74,23,89,500,0.0,300,300,60,115.0,0,0,28,381,28,0,0,0,0,0,0,45.845886,5.178982,0.0,718.9,0.0,0,0.0,-1,0.0,0.0,0
32163,1551445888109,1.515,2.442,1.7157,0.12,0.07,0.99,0,0,-0,1949,0,74,23,89,500,0.0,300,300,60,115.0,0,0,28,381,28,0,0,0,0,0,0,,,,,,,,,,,
32183,1551445888129,1.499,2.42,1.7044,0.15,0.06,1.0,0,0,-0,2135,0,74,23,87,500,0.0,300,300,60,114.0,0,0,24,369,28,0,0,0,0,0,0,,,,,,,,,,,
32203,1551445888149,1.513,2.406,1.6591,0.16,0.06,0.99,0,1,-0,2135,0,74,23,87,500,0.0,300,300,60,114.0,0,0,24,369,28,0,0,0,0,0,0,,,,,,,,,,,
32223,1551445888169,1.51,2.408,1.7144,0.14,0.06,1.0,0,-0,-0,2135,0,74,23,87,500,0.0,300,300,60,114.0,0,0,24,369,28,0,0,0,0,0,0,,,,,,,,,,,
32243,1551445888189,1.511,2.418,1.6843,0.12,0.04,1.01,0,0,-0,2135,0,74,23,87,500,0.0,300,300,60,114.0,0,0,24,369,28,0,0,0,0,0,0,45.845886,5.178982,0.0,718.9,0.0,0,0.0,-1,0.0,0.0,0
32263,1551445888209,1.521,2.403,1.7358,0.11,0.02,1.06,-0,-0,-0,2135,0,74,23,87,500,0.0,300,300,60,114.0,0,0,24,369,28,0,0,0,0,0,0,,,,,,,,,,,
32283,1551445888229,1.507,2.416,1.6817,0.1,0.03,1.1,-0,0,-0,2239,0,74,23,86,963,0.0,300,300,60,116.0,0,0,19,363,29,0,0,0,0,0,0,,,,,,,,,,,
32303,1551445888249,1.527,2.404,1.7132,0.1,0.03,1.07,-0,0,-0,2239,0,74,23,86,963,0.0,300,300,60,116.0,0,0,19,363,29,0,0,0,0,0,0,,,,,,,,,,,
32323,1551445888269,1.511,2.412,1.6905,0.1,0.04,1.14,-0,1,-0,2239,0,74,23,86,963,0.0,300,300,60,116.0,0,0,19,363,29,0,0,0,0,0,0,,,,,,,,,,,
32343,1551445888289,1.505,2.421,1.6931,0.1,0.05,1.1,0,1,-0,2239,0,74,23,86,963,0.0,300,300,60,116.0,0,0,19,363,29,0,0,0,0,0,0,45.845886,5.178982,0.0,718.9,0.0,0,0.0,-1,0.0,0.0,0
32363,1551445888309,1.471,2.432,1.673,0.1,0.07,1.16,0,1,-0,2239,0,74,23,86,963,0.0,300,300,60,116.0,0,0,19,363,29,0,0,0,0,0,0,,,,,,,,,,,
32383,1551445888329,1.521,2.43,1.7069,0.1,0.06,1.13,0,1,-0,2279,0,74,23,85,954,0.0,300,300,60,117.0,0,0,14,361,30,0,0,0,0,0,0,,,,,,,,,,,
32403,1551445888349,1.498,2.445,1.6918,0.1,0.09,1.17,0,1,-0,2279,0,74,23,85,954,0.0,300,300,60,117.0,0,0,14,361,30,0,0,0,0,0,0,,,,,,,,,,,
32423,1551445888369,1.525,2.425,1.7132,0.09,0.09,1.12,0,1,-0,2279,0,74,23,85,954,0.0,300,300,60,117.0,0,0,14,361,30,0,0,0,0,0,0,,,,,,,,,,,
32443,1551445888389,1.498,2.432,1.6905,0.09,0.1,1.12,-0,1,-0,2279,0,74,23,85,954,0.0,300,300,60,117.0,0,0,14,361,30,0,0,0,0,0,0,45.845886,5.178982,0.0,718.9,0.0,0,0.0,-1,0.0,0.0,0
32463,1551445888408,1.532,2.421,1.7207,0.07,0.09,1.13,-0,1,-0,2279,0,74,23,85,954,0.0,300,300,60,117.0,0,0,14,361,30,0,0,0,0,0,0,,,,,,,,,,,
32483,1551445888428,1.502,2.432,1.6805,0.06,0.1,1.15,-0,1,-0,2311,0,74,23,84,966,0.0,300,300,60,117.0,0,0,8,359,30,0,0,0,0,0,0,,,,,,,,,,,
32503,1551445888448,1.513,2.418,1.7157,0.04,0.09,1.16,-0,0,-0,2311,0,74,23,84,966,0.0,300,300,60,117.0,0,0,8,359,30,0,0,0,0,0,0,,,,,,,,,,,
32523,1551445888468,1.499,2.432,1.6692,0.04,0.06,1.18,-0,0,-1,2311,0,74,23,84,966,0.0,300,300,60,117.0,0,0,8,359,30,0,0,0,0,0,0,,,,,,,,,,,
32543,1551445888488,1.499,2.425,1.7119,0.03,0.05,1.15,-0,-1,-1,2311,0,74,23,84,966,0.0,300,300,60,117.0,0,0,8,359,30,0,0,0,0,0,0,45.845886,5.178982,0.0,718.9,0.0,0,0.0,-1,0.0,0.0,0
32563,1551445888508,1.52,2.428,1.6554,0.05,0.03,1.14,-0,-0,-1,2311,0,74,23,84,966,0.0,300,300,60,117.0,0,0,8,359,30,0,0,0,0,0,0,,,,,,,,,,,
32583,1551445888528,1.503,2.423,1.7169,0.03,0.04,1.12,-0,-2,-0,2297,0,74,23,83,991,0.0,300,300,60,118.0,0,0,2,362,31,0,0,0,0,0,0,,,,,,,,,,,
32603,1551445888548,1.523,2.416,1.6453,0.05,0.03,1.15,-0,-1,-0,2297,0,74,23,83,991,0.0,300,300,60,118.0,0,0,2,362,31,0,0,0,0,0,0,,,,,,,,,,,
32623,1551445888568,1.528,2.398,1.7094,0.04,0.03,1.11,0,-2,-0,2297,0,74,23,83,991,0.0,300,300,60,118.0,0,0,2,362,31,0,0,0,0,0,0,,,,,,,,,,,
32643,1551445888588,1.518,2.393,1.6579,0.06,0.02,1.09,0,-1,-0,2297,0,74,23,83,991,0.0,300,300,60,118.0,0,0,2,362,31,0,0,0,0,0,0,45.845886,5.178982,0.0,718.9,0.0,0,0.0,-1,0.0,0.0,0
32663,1551445888610,1.525,2.391,1.7107,0.06,0.01,1.06,0,-2,-0,2297,0,74,23,83,991,0.0,300,300,60,118.0,0,0,2,362,31,0,0,0,0,0,0,,,,,,,,,,,
32683,1551445888630,1.523,2.408,1.6554,0.07,-0.0,1.05,0,-1,-0,2247,0,74,23,83,1013,0.0,300,300,60,117.0,0,0,-3,363,30,0,0,0,0,0,0,,,,,,,,,,,
32703,1551445888650,1.543,2.408,1.7182,0.07,-0.01,1.02,0,-2,-0,2247,0,74,23,83,1013,0.0,300,300,60,117.0,0,0,-3,363,30,0,0,0,0,0,0,,,,,,,,,,,
32723,1551445888670,1.525,2.401,1.6905,0.08,-0.0,1.07,-0,-1,-0,2247,0,74,23,83,1013,0.0,300,300,60,117.0,0,0,-3,363,30,0,0,0,0,0,0,,,,,,,,,,,
32743,1551445888690,1.518,2.401,1.6918,0.08,-0.01,1.0,0,-0,-0,2247,0,74,23,83,1013,0.0,300,300,60,117.0,0,0,-3,363,30,0,0,0,0,0,0,45.845886,5.178982,0.0,718.9,0.0,0,0.0,-1,0.0,0.0,0
32763,1551445888708,1.489,2.428,1.7019,0.1,-0.02,1.05,0,-0,-0,2247,0,74,23,83,1013,0.0,300,300,60,117.0,0,0,-3,363,30,0,0,0,0,0,0,,,,,,,,,,,
32783,1551445888728,1.502,2.43,1.6717,0.12,-0.02,0.99,0,0,-0,2162,0,74,23,85,1033,0.0,300,300,60,117.0,0,0,-8,368,29,0,0,0,0,0,0,,,,,,,,,,,
32803,1551445888748,1.491,2.435,1.6968,0.14,-0.02,0.99,-0,-1,-0,2162,0,74,23,85,1033,0.0,300,300,60,117.0,0,0,-8,368,29,0,0,0,0,0,0,,,,,,,,,,,
32823,1551445888768,1.522,2.427,1.6642,0.15,-0.01,0.98,-0,0,-0,2162,0,74,23,85,1033,0.0,300,300,60,117.0,0,0,-8,368,29,0,0,0,0,0,0,,,,,,,,,,,
32843,1551445888788,1.512,2.41,1.7383,0.12,-0.0,0.99,0,-1,-0,2162,0,74,23,85,1033,0.0,300,300,60,117.0,0,0,-8,368,29,0,0,0,0,0,0,45.845886,5.178982,0.0,718.9,0.0,0,0.0,-1,0.0,0.0,0
32863,1551445888808,1.482,2.397,1.6956,0.11,-0.01,1.03,-0,0,-0,2162,0,74,23,85,1033,0.0,300,300,60,117.0,0,0,-8,368,29,0,0,0,0,0,0,,,,,,,,,,,
32883,1551445888828,1.515,2.418,1.7396,0.1,-0.01,1.05,0,-1,-0,2137,0,74,22,85,1040,0.0,300,300,60,118.0,0,0,-12,372,30,0,0,0,0,0,0,,,,,,,,,,,
32903,1551445888848,1.512,2.412,1.6755,0.11,0.0,1.1,-0,0,-0,2137,0,74,22,85,1040,0.0,300,300,60,118.0,0,0,-12,372,30,0,0,0,0,0,0,,,,,,,,,,,
32923,1551445888868,1.533,2.41,1.7019,0.12,-0.0,1.02,-0,0,-0,2137,0,74,22,85,1040,0.0,300,300,60,118.0,0,0,-12,372,30,0,0,0,0,0,0,,,,,,,,,,,
32943,1551445888888,1.493,2.412,1.6931,0.14,-0.01,1.03,-0,0,-0,2137,0,74,22,85,1040,0.0,300,300,60,118.0,0,0,-12,372,30,0,0,0,0,0,0,45.845886,5.178982,0.0,718.9,0.0,0,0.0,-1,0.0,0.0,0
32963,1551445888908,1.506,2.428,1.6403,0.16,0.0,0.97,-0,1,-0,2137,0,74,22,85,1040,0.0,300,300,60,118.0,0,0,-12,372,30,0,0,0,0,0,0,,,,,,,,,,,
32983,1551445888928,1.528,2.425,1.7144,0.13,0.02,0.99,-0,-1,-0,2141,0,74,22,85,1061,0.0,300,300,60,117.0,0,0,-16,372,30,0,0,0,0,0,0,,,,,,,,,,,
33003,1551445888948,1.525,2.411,1.6717,0.12,0.01,0.97,-0,-0,-0,2141,0,74,22,85,1061,0.0,300,300,60,117.0,0,0,-16,372,30,0,0,0,0,0,0,,,,,,,,,,,
33023,1551445888968,1.527,2.412,1.7433,0.11,0.01,1.0,-0,-1,-0,2141,0,74,22,85,1061,0.0,300,300,60,117.0,0,0,-16,372,30,0,0,0,0,0,0,,,,,,,,,,,
33043,1551445888988,1.508,2.408,1.7081,0.12,0.02,1.03,-0,-0,-0,2141,0,74,22,85,1061,0.0,300,300,60,117.0,0,0,-16,372,30,0,0,0,0,0,0,45.845886,5.178982,0.0,718.9,0.0,0,0.0,-1,0.0,0.0,0
33063,1551445889004,1.513,2.394,1.7006,0.14,0.02,0.95,-0,0,-0,2141,0,74,22,85,1061,0.0,300,300,60,117.0,0,0,-16,372,30,0,0,0,0,0,0,,,,,,,,,,,
33083,1551445889024,1.512,2.402,1.7019,0.15,0.02,0.96,-0,-1,-0,2147,0,74,22,85,1017,0.0,300,300,60,116.0,0,0,-20,372,30,0,0,0,0,0,0,,,,,,,,,,,
33103,1551445889044,1.521,2.41,1.6541,0.16,0.01,0.92,-0,0,-0,2147,0,74,22,85,1017,0.0,300,300,60,116.0,0,0,-20,372,30,0,0,0,0,0,0,,,,,,,,,,,
33123,1551445889064,1.515,2.422,1.7245,0.13,-0.0,0.95,-0,-1,-0,2147,0,74,22,85,1017,0.0,300,300,60,116.0,0,0,-20,372,30,0,0,0,0,0,0,,,,,,,,,,,
33143,1551445889084,1.518,2.42,1.6993,0.13,0.01,0.99,-0,0,-0,2147,0,74,22,85,1017,0.0,300,300,60,116.0,0,0,-20,372,30,0,0,0,0,0,0,45.845886,5.178982,0.0,718.9,0.0,0,0.0,-1,0.0,0.0,0
33163,1551445889110,1.499,2.408,1.7182,0.14,0.01,0.92,-0,-0,-0,2147,0,74,22,85,1017,0.0,300,300,60,116.0,0,0,-20,372,30,0,0,0,0,0,0,,,,,,,,,,,
33183,1551445889130,1.511,2.387,1.6943,0.14,0.03,0.92,-0,-1,-0,2028,0,74,22,85,1020,0.0,300,300,60,117.0,0,0,-24,379,30,0,0,0,0,0,0,,,,,,,,,,,
33203,1551445889150,1.528,2.412,1.6792,0.13,0.03,0.96,-0,0,-0,2028,0,74,22,85,1020,0.0,300,300,60,117.0,0,0,-24,379,30,0,0,0,0,0,0,,,,,,,,,,,
33223,1551445889170,1.525,2.428,1.7069,0.14,0.04,0.93,-0,-0,0,2028,0,74,22,85,1020,0.0,300,300,60,117.0,0,0,-24,379,30,0,0,0,0,0,0,,,,,,,,,,,
33243,1551445889190,1.505,2.401,1.7006,0.14,0.06,0.91,-0,-1,0,2028,0,74,22,85,1020,0.0,300,300,60,117.0,0,0,-24,379,30,0,0,0,0,0,0,45.845886,5.178982,0.0,718.9,0.0,0,0.0,-1,0.0,0.0,0
33263,1551445889210,1.508,2.401,1.6742,0.13,0.06,0.98,-0,0,-0,2028,0,74,22,85,1020,0.0,300,300,60,117.0,0,0,-24,379,30,0,0,0,0,0,0,,,,,,,,,,,
33283,1551445889230,1.507,2.43,1.6993,0.13,0.07,0.95,-0,-0,-0,1994,0,74,22,87,1011,0.0,300,300,60,118.0,0,0,-27,381,28,0,0,0,0,0,0,,,,,,,,,,,
33303,1551445889250,1.511,2.402,1.7081,0.13,0.07,0.95,-0,-0,0,1994,0,74,22,87,1011,0.0,300,300,60,118.0,0,0,-27,381,28,0,0,0,0,0,0,,,,,,,,,,,
33323,1551445889270,1.508,2.402,1.7006,0.13,0.06,0.99,0,0,-0,1994,0,74,22,87,1011,0.0,300,300,60,118.0,0,0,-27,381,28,0,0,0,0,0,0,,,,,,,,,,,
33343,1551445889290,1.503,2.421,1.688,0.14,0.06,0.97,0,0,0,1994,0,74,22,87,1011,0.0,300,300,60,118.0,0,0,-27,381,28,0,0,0,0,0,0,45.845886,5.178982,0.0,718.9,0.0,0,0.0,-1,0.0,0.0,0
33363,1551445889309,1.525,2.404,1.7107,0.14,0.06,0.97,0,-0,-0,1994,0,74,22,87,1011,0.0,300,300,60,118.0,0,0,-27,381,28,0,0,0,0,0,0,,,,,,,,,,,
33383,1551445889329,1.508,2.399,1.7044,0.13,0.06,0.98,0,-0,0,1893,0,74,22,86,985,0.0,300,300,60,113.0,0,0,-29,390,28,0,0,0,0,0,0,,,,,,,,,,,
33403,1551445889349,1.505,2.426,1.6893,0.13,0.05,1.03,0,0,0,1893,0,74,22,86,985,0.0,300,300,60,113.0,0,0,-29,390,28,0,0,0,0,0,0,,,,,,,,,,,
33423,1551445889369,1.51,2.43,1.6843,0.14,0.05,1.04,0,0,-0,1893,0,74,22,86,985,0.0,300,300,60,113.0,0,0,-29,390,28,0,0,0,0,0,0,,,,,,,,,,,
33443,1551445889389,1.527,2.404,1.7019,0.15,0.04,1.01,0,0,-0,1893,0,74,22,86,985,0.0,300,300,60,113.0,0,0,-29,390,28,0,0,0,0,0,0,45.845886,5.178982,0.0,718.9,0.0,0,0.0,-1,0.0,0.0,0
33463,1551445889410,1.503,2.377,1.7094,0.15,0.05,1.01,0,0,-0,1893,0,74,22,86,985,0.0,300,300,60,113.0,0,0,-29,390,28,0,0,0,0,0,0,,,,,,,,,,,
33483,1551445889430,1.506,2.406,1.7044,0.15,0.05,1.03,0,0,-0,1696,0,74,22,88,972,0.0,300,300,60,112.0,0,0,-29,408,27,0,0,0,0,0,0,,,,,,,,,,,
33503,1551445889450,1.482,2.416,1.7006,0.14,0.05,1.05,0,0,-0,1696,0,74,22,88,972,0.0,300,300,60,112.0,0,0,-29,408,27,0,0,0,0,0,0,,,,,,,,,,,
33523,1551445889470,1.496,2.437,1.7044,0.15,0.05,1.05,0,-0,-0,1696,0,74,22,88,972,0.0,300,300,60,112.0,0,0,-29,408,27,0,0,0,0,0,0,,,,,,,,,,,
33543,1551445889490,1.52,2.442,1.7069,0.14,0.06,1.06,0,-0,-0,1696,0,74,22,88,972,0.0,300,300,60,112.0,0,0,-29,408,27,0,0,0,0,0,0,45.845886,5.178982,0.0,718.9,0.0,0,0.0,-1,0.0,0.0,0
33563,1551445889509,1.513,2.428,1.6956,0.15,0.05,1.05,0,-0,-0,1696,0,74,22,88,972,0.0,300,300,60,112.0,0,0,-29,408,27,0,0,0,0,0,0,,,,,,,,,,,
33583,1551445889529,1.498,2.399,1.6993,0.15,0.05,1.07,0,0,-0,1660,0,74,22,91,968,0.0,300,300,60,117.0,0,0,-28,411,25,0,0,0,0,0,0,,,,,,,,,,,
33603,1551445889549,1.503,2.392,1.6968,0.15,0.03,1.04,0,0,-0,1660,0,74,22,91,968,0.0,300,300,60,117.0,0,0,-28,411,25,0,0,0,0,0,0,,,,,,,,,,,
33623,1551445889569,1.513,2.418,1.688,0.15,0.04,1.03,-0,0,-0,1660,0,74,22,91,968,0.0,300,300,60,117.0,0,0,-28,411,25,0,0,0,0,0,0,,,,,,,,,,,
33643,1551445889589,1.497,2.422,1.7019,0.14,0.04,1.04,0,0,-0,1660,0,74,22,91,968,0.0,300,300,60,117.0,0,0,-28,411,25,0,0,0,0,0,0,45.845886,5.178982,0.0,718.9,0.0,0,0.0,-1,0.0,0.0,0
33663,1551445889609,1.499,2.416,1.6993,0.14,0.05,1.05,0,0,0,1660,0,74,22,91,968,0.0,300,300,60,117.0,0,0,-28,411,25,0,0,0,0,0,0,,,,,,,,,,,
33683,1551445889629,1.497,2.422,1.7019,0.14,0.05,1.02,0,-0,0,1520,0,74,22,92,963,0.0,300,300,60,116.0,0,0,-22,424,23,0,0,0,0,0,0,,,,,,,,,,,
33703,1551445889649,1.498,2.415,1.7094,0.13,0.06,1.05,0,-0,0,1520,0,74,22,92,963,0.0,300,300,60,116.0,0,0,-22,424,23,0,0,0,0,0,0,,,,,,,,,,,
33723,1551445889669,1.502,2.411,1.7044,0.12,0.06,1.06,0,-0,0,1520,0,74,22,92,963,0.0,300,300,60,116.0,0,0,-22,424,23,0,0,0,0,0,0,,,,,,,,,,,
33743,1551445889689,1.503,2.406,1.7019,0.12,0.07,1.05,-0,-0,0,1520,0,74,22,92,963,0.0,300,300,60,116.0,0,0,-22,424,23,0,0,0,0,0,0,45.845886,5.178982,0.0,718.9,0.0,0,0.0,-1,0.0,0.0,0
33763,1551445889709,1.506,2.393,1.6981,0.13,0.06,1.03,0,-0,0,1520,0,74,22,92,963,0.0,300,300,60,116.0,0,0,-22,424,23,0,0,0,0,0,0,,,,,,,,,,,
33783,1551445889729,1.511,2.384,1.7006,0.15,0.05,1.02,0,0,-0,1291,0,74,22,92,948,0.0,300,300,60,116.0,0,0,-14,425,23,0,0,0,0,0,0,,,,,,,,,,,
33803,1551445889749,1.511,2.398,1.6931,0.16,0.04,1.01,-0,0,-0,1291,0,74,22,92,948,0.0,300,300,60,116.0,0,0,-14,425,23,0,0,0,0,0,0,,,,,,,,,,,
33823,1551445889769,1.525,2.397,1.6956,0.16,0.03,1.01,0,1,-0,1291,0,74,22,92,948,0.0,300,300,60,116.0,0,0,-14,425,23,0,0,0,0,0,0,,,,,,,,,,,
33843,1551445889789,1.522,2.398,1.6868,0.18,0.02,0.99,-0,1,-0,1291,0,74,22,92,948,0.0,300,300,60,116.0,0,0,-14,425,23,0,0,0,0,0,0,45.845886,5.178982,0.0,718.9,0.0,0,0.0,-1,0.0,0.0,0
33863,1551445889809,1.516,2.397,1.6742,0.19,0.01,0.97,-0,1,-0,1291,0,74,22,92,948,0.0,300,300,60,116.0,0,0,-14,425,23,0,0,0,0,0,0,,,,,,,,,,,
33883,1551445889829,1.505,2.428,1.6905,0.19,-0.0,1.02,0,1,-0,1467,0,74,22,92,946,0.0,300,300,60,116.0,0,0,-10,425,24,0,0,0,0,0,0,,,,,,,,,,,
33903,1551445889849,1.511,2.44,1.7019,0.18,-0.0,1.03,0,1,-0,1467,0,74,22,92,946,0.0,300,300,60,116.0,0,0,-10,425,24,0,0,0,0,0,0,,,,,,,,,,,
33923,1551445889869,1.511,2.442,1.6905,0.18,0.0,1.06,0,1,-0,1467,0,74,22,92,946,0.0,300,300,60,116.0,0,0,-10,425,24,0,0,0,0,0,0,,,,,,,,,,,
33943,1551445889889,1.51,2.446,1.688,0.18,-0.0,1.1,0,1,-0,1467,0,74,22,92,946,0.0,300,300,60,116.0,0,0,-10,425,24,0,0,0,0,0,0,45.845886,5.178982,0.0,718.9,0.0,0,0.0,-1,0.0,0.0,0
33963,1551445889909,1.513,2.448,1.6805,0.17,-0.0,1.06,0,1,-0,1467,0,74,22,92,946,0.0,300,300,60,116.0,0,0,-10,425,24,0,0,0,0,0,0,,,,,,,,,,,
33983,1551445889929,1.521,2.436,1.6792,0.17,-0.0,1.06,0,1,-0,1592,0,74,22,93,955,0.0,300,300,60,117.0,0,0,-7,417,20,0,0,0,0,0,0,,,,,,,,,,,
34003,1551445889949,1.51,2.423,1.7107,0.17,0.0,1.03,0,1,-0,1592,0,74,22,93,955,0.0,300,300,60,117.0,0,0,-7,417,20,0,0,0,0,0,0,,,,,,,,,,,
34023,1551445889969,1.513,2.421,1.727,0.17,0.02,1.04,0,1,-0,1592,0,74,22,93,955,0.0,300,300,60,117.0,0,0,-7,417,20,0,0,0,0,0,0,,,,,,,,,,,
34043,1551445889989,1.523,2.423,1.7169,0.18,0.02,1.02,0,1,-0,1592,0,74,22,93,955,0.0,300,300,60,117.0,0,0,-7,417,20,0,0,0,0,0,0,45.845886,5.178982,0.0,718.9,0.0,0,0.0,-1,0.0,0.0,0
34063,1551445890003,1.492,2.423,1.6843,0.18,0.02,1.07,0,1,-0,1592,0,74,22,93,955,0.0,300,300,60,117.0,0,0,-7,417,20,0,0,0,0,0,0,,,,,,,,,,,
34083,1551445890023,1.507,2.43,1.683,0.17,0.02,1.05,0,1,-0,1504,0,74,22,93,947,0.0,300,300,60,117.0,0,0,0,425,24,0,0,0,0,0,0,,,,,,,,,,,
34103,1551445890043,1.489,2.416,1.6868,0.17,0.02,1.01,0,1,-0,1504,0,74,22,93,947,0.0,300,300,60,117.0,0,0,0,425,24,0,0,0,0,0,0,,,,,,,,,,,
34123,1551445890063,1.494,2.383,1.6993,0.17,0.03,0.97,0,1,-0,1504,0,74,22,93,947,0.0,300,300,60,117.0,0,0,0,425,24,0,0,0,0,0,0,,,,,,,,,,,
34143,1551445890083,1.513,2.382,1.7031,0.17,0.02,1.0,0,0,-0,1504,0,74,22,93,947,0.0,300,300,60,117.0,0,0,0,425,24,0,0,0,0,0,0,45.845886,5.178982,0.0,718.9,0.0,0,0.0,-1,0.0,0.0,0
34163,1551445890109,1.511,2.398,1.7006,0.17,0.04,1.02,0,0,-0,1504,0,74,22,93,947,0.0,300,300,60,117.0,0,0,0,425,24,0,0,0,0,0,0,,,,,,,,,,,
34183,1551445890129,1.489,2.415,1.6993,0.16,0.04,1.0,0,1,-0,1404,0,74,22,92,949,0.0,300,300,60,117.0,0,0,5,425,24,0,0,0,0,0,0,,,,,,,,,,,
34203,1551445890149,1.513,2.406,1.7081,0.16,0.05,0.97,-0,0,-0,1404,0,74,22,92,949,0.0,300,300,60,117.0,0,0,5,425,24,0,0,0,0,0,0,,,,,,,,,,,
34223,1551445890169,1.523,2.378,1.7019,0.15,0.04,1.0,-0,0,-0,1404,0,74,22,92,949,0.0,300,300,60,117.0,0,0,5,425,24,0,0,0,0,0,0,,,,,,,,,,,
34243,1551445890189,1.512,2.389,1.6956,0.15,0.04,1.04,-0,0,-0,1404,0,74,22,92,949,0.0,300,300,60,117.0,0,0,5,425,24,0,0,0,0,0,0,45.845886,5.178982,0.0,718.9,0.0,0,0.0,-1,0.0,0.0,0
34263,1551445890210,1.51,2.427,1.6956,0.14,0.03,1.06,-0,0,-0,1404,0,74,22,92,949,0.0,300,300,60,117.0,0,0,5,425,24,0,0,0,0,0,0,,,,,,,,,,,
34283,1551445890230,1.501,2.451,1.7169,0.15,0.02,1.05,0,-0,-0,1541,0,74,22,90,933,0.0,300,300,60,116.0,0,0,6,422,27,0,0,0,0,0,0,,,,,,,,,,,
34303,1551445890250,1.507,2.438,1.6893,0.15,0.02,1.09,-0,0,-0,1541,0,74,22,90,933,0.0,300,300,60,116.0,0,0,6,422,27,0,0,0,0,0,0,,,,,,,,,,,
34323,1551445890270,1.488,2.412,1.688,0.16,0.02,1.05,-0,1,-0,1541,0,74,22,90,933,0.0,300,300,60,116.0,0,0,6,422,27,0,0,0,0,0,0,,,,,,,,,,,
34343,1551445890290,1.521,2.382,1.7031,0.17,0.02,1.02,-0,1,-0,1541,0,74,22,90,933,0.0,300,300,60,116.0,0,0,6,422,27,0,0,0,0,0,0,45.845886,5.178982,0.0,718.9,0.0,0,0.0,-1,0.0,0.0,0
34363,1551445890309,1.515,2.384,1.6993,0.15,0.02,1.05,-0,0,-0,1541,0,74,22,90,933,0.0,300,300,60,116.0,0,0,6,422,27,0,0,0,0,0,0,,,,,,,,,,,
34383,1551445890329,1.501,2.403,1.7019,0.15,0.03,1.06,0,0,-0,1652,0,74,22,90,922,0.0,300,300,60,113.0,0,0,6,412,27,0,0,0,0,0,0,,,,,,,,,,,
34403,1551445890349,1.506,2.416,1.7119,0.16,0.02,1.02,0,0,-0,1652,0,74,22,90,922,0.0,300,300,60,113.0,0,0,6,412,27,0,0,0,0,0,0,,,,,,,,,,,
34423,1551445890369,1.526,2.443,1.6868,0.15,0.03,1.03,-0,0,-0,1652,0,74,22,90,922,0.0,300,300,60,113.0,0,0,6,412,27,0,0,0,0,0,0,,,,,,,,,,,
34443,1551445890389,1.525,2.438,1.6905,0.15,0.03,0.98,0,0,-0,1652,0,74,22,90,922,0.0,300,300,60,113.0,0,0,6,412,27,0,0,0,0,0,0,45.845886,5.178982,0.0,718.9,0.0,0,0.0,-1,0.0,0.0,0
34463,1551445890408,1.512,2.374,1.6981,0.16,0.03,0.94,0,0,-0,1652,0,74,22,90,922,0.0,300,300,60,113.0,0,0,6,412,27,0,0,0,0,0,0,,,,,,,,,,,
34483,1551445890428,1.51,2.367,1.7056,0.15,0.03,0.93,0,0,-0,1649,0,74,22,90,945,0.0,300,300,60,117.0,0,0,6,412,27,0,0,0,0,0,0,,,,,,,,,,,
34503,1551445890448,1.525,2.406,1.7056,0.15,0.04,0.91,0,0,-0,1649,0,74,22,90,945,0.0,300,300,60,117.0,0,0,6,412,27,0,0,0,0,0,0,,,,,,,,,,,
34523,1551445890468,1.505,2.416,1.688,0.14,0.04,0.98,0,1,-0,1649,0,74,22,90,945,0.0,300,300,60,117.0,0,0,6,412,27,0,0,0,0,0,0,,,,,,,,,,,
34543,1551445890488,1.508,2.437,1.6905,0.15,0.05,0.96,0,1,-0,1649,0,74,22,90,945,0.0,300,300,60,117.0,0,0,6,412,27,0,0,0,0,0,0,45.845886,5.178982,0.0,718.9,0.0,0,0.0,-1,0.0,0.0,0
34563,1551445890508,1.535,2.435,1.7169,0.15,0.04,0.93,0,0,-0,1649,0,74,22,90,945,0.0,300,300,60,117.0,0,0,6,412,27,0,0,0,0,0,0,,,,,,,,,,,
34583,1551445890528,1.522,2.389,1.7006,0.14,0.04,0.97,0,0,-0,1783,0,74,22,89,928,0.0,300,300,60,116.0,0,0,5,400,27,0,0,0,0,0,0,,,,,,,,,,,
34603,1551445890548,1.516,2.403,1.6993,0.14,0.04,0.98,0,0,-0,1783,0,74,22,89,928,0.0,300,300,60,116.0,0,0,5,400,27,0,0,0,0,0,0,,,,,,,,,,,
34623,1551445890568,1.51,2.42,1.6805,0.15,0.04,0.94,0,1,-0,1783,0,74,22,89,928,0.0,300,300,60,116.0,0,0,5,400,27,0,0,0,0,0,0,,,,,,,,,,,
34643,1551445890588,1.516,2.427,1.7182,0.14,0.04,0.95,0,-0,-0,1783,0,74,22,89,928,0.0,300,300,60,116.0,0,0,5,400,27,0,0,0,0,0,0,45.845886,5.178982,0.0,718.9,0.0,0,0.0,-1,0.0,0.0,0
34663,1551445890608,1.522,2.427,1.7081,0.14,0.04,0.98,-0,0,-0,1783,0,74,22,89,928,0.0,300,300,60,116.0,0,0,5,400,27,0,0,0,0,0,0,,,,,,,,,,,
34683,1551445890628,1.505,2.416,1.6629,0.15,0.04,0.97,-0,0,-0,1920,0,74,22,89,949,0.0,300,300,60,117.0,0,0,3,388,29,0,0,0,0,0,0,,,,,,,,,,,
34703,1551445890648,1.528,2.387,1.7119,0.14,0.03,1.01,-0,0,-0,1920,0,74,22,89,949,0.0,300,300,60,117.0,0,0,3,388,29,0,0,0,0,0,0,,,,,,,,,,,
34723,1551445890668,1.502,2.406,1.6956,0.14,0.03,1.05,-0,0,-0,1920,0,74,22,89,949,0.0,300,300,60,117.0,0,0,3,388,29,0,0,0,0,0,0,,,,,,,,,,,
34743,1551445890688,1.515,2.436,1.6893,0.14,0.03,1.01,-0,1,-0,1920,0,74,22,89,949,0.0,300,300,60,117.0,0,0,3,388,29,0,0,0,0,0,0,45.845886,5.178982,0.0,718.9,0.0,0,0.0,-1,0.0,0.0,0
34763,1551445890708,1.516,2.418,1.7019,0.13,0.03,1.04,0,-0,-0,1920,0,74,22,89,949,0.0,300,300,60,117.0,0,0,3,388,29,0,0,0,0,0,0,,,,,,,,,,,
34783,1551445890728,1.512,2.403,1.6767,0.11,0.04,1.08,-0,0,-0,2002,0,74,22,87,935,0.0,300,300,60,118.0,0,0,0,380,29,0,0,0,0,0,0,,,,,,,,,,,
34803,1551445890748,1.526,2.402,1.7195,0.11,0.04,1.05,-0,0,-0,2002,0,74,22,87,935,0.0,300,300,60,118.0,0,0,0,380,29,0,0,0,0,0,0,,,,,,,,,,,
34823,1551445890768,1.488,2.423,1.7144,0.14,0.04,1.01,-0,0,-0,2002,0,74,22,87,935,0.0,300,300,60,118.0,0,0,0,380,29,0,0,0,0,0,0,,,,,,,,,,,
34843,1551445890788,1.521,2.43,1.6654,0.16,0.04,0.99,-0,1,-0,2002,0,74,22,87,935,0.0,300,300,60,118.0,0,0,0,380,29,0,0,0,0,0,0,45.845886,5.178982,0.0,718.9,0.0,0,0.0,-1,0.0,0.0,0
34863,1551445890808,1.505,2.417,1.6993,0.14,0.03,1.03,-0,-0,-0,2002,0,74,22,87,935,0.0,300,300,60,118.0,0,0,0,380,29,0,0,0,0,0,0,,,,,,,,,,,
34883,1551445890828,1.499,2.396,1.6843,0.12,0.04,1.05,-0,1,-0,2072,0,74,22,86,941,0.0,300,300,60,118.0,0,0,-3,376,30,0,0,0,0,0,0,,,,,,,,,,,
34903,1551445890848,1.527,2.396,1.7232,0.11,0.05,1.06,-0,0,-0,2072,0,74,22,86,941,0.0,300,300,60,118.0,0,0,-3,376,30,0,0,0,0,0,0,,,,,,,,,,,
34923,1551445890868,1.498,2.423,1.7119,0.11,0.04,1.07,-0,0,-0,2072,0,74,22,86,941,0.0,300,300,60,118.0,0,0,-3,376,30,0,0,0,0,0,0,,,,,,,,,,,
34943,1551445890888,1.503,2.428,1.6692,0.13,0.05,1.05,-0,1,-0,2072,0,74,22,86,941,0.0,300,300,60,118.0,0,0,-3,376,30,0,0,0,0,0,0,45.845886,5.178982,0.0,718.9,0.0,0,0.0,-1,0.0,0.0,0
34963,1551445890908,1.497,2.418,1.7056,0.11,0.05,1.06,-0,-1,-0,2072,0,74,22,86,941,0.0,300,300,60,118.0,0,0,-3,376,30,0,0,0,0,0,0,,,,,,,,,,,
34983,1551445890928,1.506,2.415,1.6629,0.1,0.04,1.06,0,0,-0,2117,0,74,22,86,939,0.0,300,300,60,118.0,0,0,-6,373,30,0,0,0,0,0,0,,,,,,,,,,,
35003,1551445890948,1.528,2.421,1.7371,0.09,0.03,1.07,0,-0,-0,2117,0,74,22,86,939,0.0,300,300,60,118.0,0,0,-6,373,30,0,0,0,0,0,0,,,,,,,,,,,
35023,1551445890968,1.506,2.412,1.7006,0.11,0.03,1.07,0,0,-0,2117,0,74,22,86,939,0.0,300,300,60,118.0,0,0,-6,373,30,0,0,0,0,0,0,,,,,,,,,,,
35043,1551445890988,1.505,2.408,1.6755,0.13,0.03,1.02,0,1,-0,2117,0,74,22,86,939,0.0,300,300,60,118.0,0,0,-6,373,30,0,0,0,0,0,0,45.845886,5.178982,0.0,718.9,0.0,0,0.0,-1,0.0,0.0,0
35063,1551445891004,1.515,2.41,1.7107,0.13,0.03,0.98,0,-1,-0,2117,0,74,22,86,939,0.0,300,300,60,118.0,0,0,-6,373,30,0,0,0,0,0,0,,,,,,,,,,,
35083,1551445891024,1.528,2.415,1.6541,0.14,0.04,0.94,0,0,-0,2162,0,74,22,86,936,0.0,300,300,60,119.0,0,0,-10,371,30,0,0,0,0,0,0,,,,,,,,,,,
35103,1551445891044,1.512,2.416,1.727,0.11,0.06,0.97,0,-1,-0,2162,0,74,22,86,936,0.0,300,300,60,119.0,0,0,-10,371,30,0,0,0,0,0,0,,,,,,,,,,,
35123,1551445891064,1.518,2.398,1.6792,0.1,0.06,1.02,-0,-0,-0,2162,0,74,22,86,936,0.0,300,300,60,119.0,0,0,-10,371,30,0,0,0,0,0,0,,,,,,,,,,,
35143,1551445891084,1.53,2.41,1.7433,0.1,0.06,0.98,-0,-1,0,2162,0,74,22,86,936,0.0,300,300,60,119.0,0,0,-10,371,30,0,0,0,0,0,0,45.845886,5.178982,0.0,718.9,0.0,0,0.0,-1,0.0,0.0,0
35163,1551445891110,1.493,2.418,1.7006,0.13,0.06,1.0,-0,-0,0,2162,0,74,22,86,936,0.0,300,300,60,119.0,0,0,-10,371,30,0,0,0,0,0,0,,,,,,,,,,,
35183,1551445891130,1.523,2.402,1.688,0.15,0.05,0.94,0,1,0,2182,0,74,22,86,940,0.0,300,300,60,118.0,0,0,-14,370,29,0,0,0,0,0,0,,,,,,,,,,,
35203,1551445891150,1.496,2.408,1.7107,0.16,0.04,0.93,-0,-0,0,2182,0,74,22,86,940,0.0,300,300,60,118.0,0,0,-14,370,29,0,0,0,0,0,0,,,,,,,,,,,
35223,1551445891170,1.513,2.421,1.6415,0.16,0.05,0.92,-0,1,-0,2182,0,74,22,86,940,0.0,300,300,60,118.0,0,0,-14,370,29,0,0,0,0,0,0,,,,,,,,,,,
35243,1551445891190,1.526,2.417,1.7421,0.14,0.04,0.96,-0,-0,0,2182,0,74,22,86,940,0.0,300,300,60,118.0,0,0,-14,370,29,0,0,0,0,0,0,45.845886,5.178982,0.0,718.9,0.0,0,0.0,-1,0.0,0.0,0
35263,1551445891210,1.51,2.408,1.6843,0.14,0.05,1.01,-0,1,-0,2182,0,74,22,86,940,0.0,300,300,60,118.0,0,0,-14,370,29,0,0,0,0,0,0,,,,,,,,,,,
35283,1551445891230,1.506,2.418,1.7396,0.15,0.04,0.96,-0,1,-0,2157,0,74,22,86,948,0.0,300,300,60,118.0,0,0,-18,371,30,0,0,0,0,0,0,,,,,,,,,,,
35303,1551445891250,1.507,2.407,1.7094,0.16,0.03,0.99,0,1,-0,2157,0,74,22,86,948,0.0,300,300,60,118.0,0,0,-18,371,30,0,0,0,0,0,0,,,,,,,,,,,
35323,1551445891270,1.525,2.404,1.6541,0.16,0.03,0.95,-0,1,-0,2157,0,74,22,86,948,0.0,300,300,60,118.0,0,0,-18,371,30,0,0,0,0,0,0,,,,,,,,,,,
35343,1551445891290,1.51,2.412,1.7132,0.14,0.03,1.0,-0,-0,-0,2157,0,74,22,86,948,0.0,300,300,60,118.0,0,0,-18,371,30,0,0,0,0,0,0,45.845886,5.178982,0.0,718.9,0.0,0,0.0,-1,0.0,0.0,0
35363,1551445891310,1.512,2.427,1.683,0.13,0.05,1.04,-0,1,-0,2157,0,74,22,86,948,0.0,300,300,60,118.0,0,0,-18,371,30,0,0,0,0,0,0,,,,,,,,,,,
35383,1551445891330,1.511,2.42,1.7044,0.13,0.04,1.02,-0,1,-0,2119,0,74,22,86,965,0.0,300,300,60,118.0,0,0,-22,373,29,0,0,0,0,0,0,,,,,,,,,,,
35403,1551445891350,1.507,2.394,1.6981,0.13,0.04,1.05,-0,0,-0,2119,0,74,22,86,965,0.0,300,300,60,118.0,0,0,-22,373,29,0,0,0,0,0,0,,,,,,,,,,,
35423,1551445891370,1.508,2.402,1.6855,0.12,0.07,1.08,-0,1,-0,2119,0,74,22,86,965,0.0,300,300,60,118.0,0,0,-22,373,29,0,0,0,0,0,0,,,,,,,,,,,
35443,1551445891390,1.507,2.428,1.6981,0.13,0.07,1.05,-0,1,-0,2119,0,74,22,86,965,0.0,300,300,60,118.0,0,0,-22,373,29,0,0,0,0,0,0,45.845886,5.178982,0.0,718.9,0.0,0,0.0,-1,0.0,0.0,0
35463,1551445891409,1.522,2.418,1.7006,0.13,0.08,1.04,-0,-0,-0,2119,0,74,22,86,965,0.0,300,300,60,118.0,0,0,-22,373,29,0,0,0,0,0,0,,,,,,,,,,,
35483,1551445891429,1.523,2.411,1.6868,0.12,0.09,1.1,-0,0,-0,2013,0,74,22,86,968,0.0,300,300,60,118.0,0,0,-25,380,28,0,0,0,0,0,0,,,,,,,,,,,
35503,1551445891449,1.51,2.403,1.7019,0.14,0.09,1.02,-0,0,-0,2013,0,74,22,86,968,0.0,300,300,60,118.0,0,0,-25,380,28,0,0,0,0,0,0,,,,,,,,,,,
35523,1551445891469,1.508,2.386,1.7019,0.14,0.09,1.02,-0,0,-0,2013,0,74,22,86,968,0.0,300,300,60,118.0,0,0,-25,380,28,0,0,0,0,0,0,,,,,,,,,,,
35543,1551445891489,1.511,2.408,1.688,0.14,0.09,1.05,-0,1,-0,2013,0,74,22,86,968,0.0,300,300,60,118.0,0,0,-25,380,28,0,0,0,0,0,0,45.845886,5.178982,0.0,718.9,0.0,0,0.0,-1,0.0,0.0,0
35563,1551445891509,1.51,2.435,1.6855,0.15,0.07,1.02,-0,1,-0,2013,0,74,22,86,968,0.0,300,300,60,118.0,0,0,-25,380,28,0,0,0,0,0,0,,,,,,,,,,,
35583,1551445891529,1.503,2.399,1.7182,0.14,0.06,1.03,0,0,-1,1994,0,75,22,87,984,0.0,300,300,60,118.0,0,0,-28,381,28,0,0,0,0,0,0,,,,,,,,,,,
35603,1551445891549,1.52,2.411,1.7019,0.13,0.06,1.08,-0,0,-1,1994,0,75,22,87,984,0.0,300,300,60,118.0,0,0,-28,381,28,0,0,0,0,0,0,,,,,,,,,,,
35623,1551445891569,1.512,2.428,1.6792,0.13,0.05,1.08,0,0,-1,1994,0,75,22,87,984,0.0,300,300,60,118.0,0,0,-28,381,28,0,0,0,0,0,0,,,,,,,,,,,
35643,1551445891589,1.513,2.402,1.7069,0.13,0.05,1.07,0,-0,-1,1994,0,75,22,87,984,0.0,300,300,60,118.0,0,0,-28,381,28,0,0,0,0,0,0,45.845886,5.178982,0.0,718.9,0.0,0,0.0,-1,0.0,0.0,0
35663,1551445891609,1.497,2.402,1.7019,0.14,0.04,1.08,0,0,-0,1994,0,75,22,87,984,0.0,300,300,60,118.0,0,0,-28,381,28,0,0,0,0,0,0,,,,,,,,,,,
35683,1551445891629,1.518,2.438,1.6755,0.13,0.04,1.03,0,0,-0,1941,0,75,22,87,971,0.0,300,300,60,117.0,0,0,-31,386,28,0,0,0,0,0,0,,,,,,,,,,,
35703,1551445891649,1.527,2.42,1.7144,0.14,0.04,0.98,0,-0,-0,1941,0,75,22,87,971,0.0,300,300,60,117.0,0,0,-31,386,28,0,0,0,0,0,0,,,,,,,,,,,
35723,1551445891669,1.506,2.386,1.6993,0.14,0.04,1.02,-0,-0,-0,1941,0,75,22,87,971,0.0,300,300,60,117.0,0,0,-31,386,28,0,0,0,0,0,0,,,,,,,,,,,
35743,1551445891689,1.511,2.418,1.7006,0.13,0.02,1.05,-0,-0,-0,1941,0,75,22,87,971,0.0,300,300,60,117.0,0,0,-31,386,28,0,0,0,0,0,0,45.845886,5.178982,0.0,718.9,0.0,0,0.0,-1,0.0,0.0,0
35763,1551445891705,1.518,2.451,1.6868,0.13,0.03,1.0,-0,-0,-0,1941,0,75,22,87,971,0.0,300,300,60,117.0,0,0,-31,386,28,0,0,0,0,0,0,,,,,,,,,,,
35783,1551445891725,1.518,2.418,1.6943,0.14,0.03,0.96,-0,-0,-0,1779,0,75,22,89,947,0.0,300,300,60,118.0,0,0,-32,400,28,0,0,0,0,0,0,,,,,,,,,,,
35803,1551445891745,1.513,2.378,1.7132,0.14,0.03,0.94,-0,-0,-0,1779,0,75,22,89,947,0.0,300,300,60,118.0,0,0,-32,400,28,0,0,0,0,0,0,,,,,,,,,,,
35823,1551445891765,1.515,2.382,1.7081,0.14,0.03,0.96,-0,-0,-0,1779,0,75,22,89,947,0.0,300,300,60,118.0,0,0,-32,400,28,0,0,0,0,0,0,,,,,,,,,,,
35843,1551445891785,1.516,2.415,1.7019,0.14,0.02,0.99,-0,-0,-0,1779,0,75,22,89,947,0.0,300,300,60,118.0,0,0,-32,400,28,0,0,0,0,0,0,45.845886,5.178982,0.0,718.9,0.0,0,0.0,-1,0.0,0.0,0
35863,1551445891810,1.503,2.425,1.6993,0.13,0.03,1.0,-0,-0,-0,1779,0,75,22,89,947,0.0,300,300,60,118.0,0,0,-32,400,28,0,0,0,0,0,0,,,,,,,,,,,
35883,1551445891830,1.518,2.448,1.7169,0.14,0.03,0.98,-0,-0,-0,1585,0,75,22,90,933,0.0,300,300,60,117.0,0,0,-32,418,26,0,0,0,0,0,0,,,,,,,,,,,
35903,1551445891850,1.523,2.436,1.7006,0.14,0.03,0.97,-0,-1,0,1585,0,75,22,90,933,0.0,300,300,60,117.0,0,0,-32,418,26,0,0,0,0,0,0,,,,,,,,,,,
35923,1551445891870,1.517,2.403,1.6956,0.15,0.01,0.97,0,-0,-0,1585,0,75,22,90,933,0.0,300,300,60,117.0,0,0,-32,418,26,0,0,0,0,0,0,,,,,,,,,,,
35943,1551445891890,1.511,2.392,1.6843,0.15,0.02,1.04,-0,0,-0,1585,0,75,22,90,933,0.0,300,300,60,117.0,0,0,-32,418,26,0,0,0,0,0,0,45.845886,5.178982,0.0,718.9,0.0,0,0.0,-1,0.0,0.0,0
35963,1551445891909,1.513,2.408,1.6893,0.14,0.03,1.08,-0,0,-0,1585,0,75,22,90,933,0.0,300,300,60,117.0,0,0,-32,418,26,0,0,0,0,0,0,,,,,,,,,,,
35983,1551445891929,1.508,2.42,1.7019,0.14,0.02,1.09,-0,0,-0,1550,0,75,22,91,912,0.0,300,300,60,117.0,0,0,-31,421,24,0,0,0,0,0,0,,,,,,,,,,,
36003,1551445891949,1.501,2.415,1.6981,0.14,0.01,1.06,-0,0,-0,1550,0,75,22,91,912,0.0,300,300,60,117.0,0,0,-31,421,24,0,0,0,0,0,0,,,,,,,,,,,
36023,1551445891969,1.512,2.399,1.6931,0.15,0.02,1.05,-0,0,-0,1550,0,75,22,91,912,0.0,300,300,60,117.0,0,0,-31,421,24,0,0,0,0,0,0,,,,,,,,,,,
36043,1551445891989,1.518,2.412,1.6931,0.15,0.02,1.03,-0,0,-0,1550,0,75,22,91,912,0.0,300,300,60,117.0,0,0,-31,421,24,0,0,0,0,0,0,45.845886,5.178982,0.0,718.9,0.0,0,0.0,-1,0.0,0.0,0
36063,1551445892003,1.502,2.422,1.6893,0.16,0.02,1.09,-0,0,-0,1550,0,75,22,91,912,0.0,300,300,60,117.0,0,0,-31,421,24,0,0,0,0,0,0,,,,,,,,,,,
36083,1551445892023,1.508,2.427,1.6855,0.15,0.02,1.09,-0,1,-0,1642,0,75,22,92,919,0.0,300,300,60,117.0,0,0,-29,413,21,0,0,0,0,0,0,,,,,,,,,,,
36103,1551445892043,1.516,2.403,1.6981,0.15,0.03,1.12,-0,0,-0,1642,0,75,22,92,919,0.0,300,300,60,117.0,0,0,-29,413,21,0,0,0,0,0,0,,,,,,,,,,,
36123,1551445892063,1.508,2.397,1.7081,0.14,0.02,1.08,-0,0,-0,1642,0,75,22,92,919,0.0,300,300,60,117.0,0,0,-29,413,21,0,0,0,0,0,0,,,,,,,,,,,
36143,1551445892083,1.515,2.407,1.7019,0.14,0.03,1.05,-0,-0,-0,1642,0,75,22,92,919,0.0,300,300,60,117.0,0,0,-29,413,21,0,0,0,0,0,0,45.845886,5.178982,0.0,718.9,0.0,0,0.0,-1,0.0,0.0,0
36163,1551445892109,1.513,2.425,1.6956,0.15,0.04,1.05,-0,-0,-0,1642,0,75,22,92,919,0.0,300,300,60,117.0,0,0,-29,413,21,0,0,0,0,0,0,,,,,,,,,,,
36183,1551445892129,1.517,2.43,1.6956,0.16,0.03,1.05,-0,-0,-0,1456,0,75,22,92,926,0.0,300,300,60,117.0,0,0,-22,425,24,0,0,0,0,0,0,,,,,,,,,,,
36203,1551445892149,1.511,2.384,1.6918,0.15,0.02,1.04,-0,-0,-0,1456,0,75,22,92,926,0.0,300,300,60,117.0,0,0,-22,425,24,0,0,0,0,0,0,,,,,,,,,,,
36223,1551445892169,1.505,2.397,1.6893,0.16,0.01,1.02,-0,0,-0,1456,0,75,22,92,926,0.0,300,300,60,117.0,0,0,-22,425,24,0,0,0,0,0,0,,,,,,,,,,,
36243,1551445892189,1.497,2.399,1.6956,0.16,0.0,1.0,-0,0,-0,1456,0,75,22,92,926,0.0,300,300,60,117.0,0,0,-22,425,24,0,0,0,0,0,0,45.845886,5.178982,0.0,718.9,0.0,0,0.0,-1,0.0,0.0,0
36263,1551445892209,1.499,2.412,1.6968,0.16,0.01,1.01,-0,0,-0,1456,0,75,22,92,926,0.0,300,300,60,117.0,0,0,-22,425,24,0,0,0,0,0,0,,,,,,,,,,,
36283,1551445892229,1.499,2.418,1.7019,0.16,0.02,1.02,-0,-0,-0,1353,0,75,22,92,930,0.0,300,300,60,117.0,0,0,-17,425,24,0,0,0,0,0,0,,,,,,,,,,,
36303,1551445892249,1.493,2.407,1.7006,0.16,0.04,1.02,-0,-0,-0,1353,0,75,22,92,930,0.0,300,300,60,117.0,0,0,-17,425,24,0,0,0,0,0,0,,,,,,,,,,,
36323,1551445892269,1.498,2.412,1.7081,0.16,0.04,1.02,-0,-0,-0,1353,0,75,22,92,930,0.0,300,300,60,117.0,0,0,-17,425,24,0,0,0,0,0,0,,,,,,,,,,,
36343,1551445892289,1.505,2.412,1.7094,0.15,0.04,1.01,-0,-0,-0,1353,0,75,22,92,930,0.0,300,300,60,117.0,0,0,-17,425,24,0,0,0,0,0,0,45.845886,5.178982,0.0,718.9,0.0,0,0.0,-1,0.0,0.0,0
36363,1551445892309,1.493,2.404,1.7081,0.16,0.03,1.0,-0,-0,-0,1353,0,75,22,92,930,0.0,300,300,60,117.0,0,0,-17,425,24,0,0,0,0,0,0,,,,,,,,,,,
36383,1551445892329,1.51,2.398,1.6855,0.15,0.02,1.02,-0,-0,-0,1501,0,75,22,92,938,0.0,300,300,60,116.0,0,0,-16,425,24,0,0,0,0,0,0,,,,,,,,,,,
36403,1551445892349,1.52,2.407,1.7031,0.14,0.03,1.03,-0,-0,-0,1501,0,75,22,92,938,0.0,300,300,60,116.0,0,0,-16,425,24,0,0,0,0,0,0,,,,,,,,,,,
36423,1551445892369,1.522,2.404,1.7132,0.14,0.04,1.01,-0,-0,0,1501,0,75,22,92,938,0.0,300,300,60,116.0,0,0,-16,425,24,0,0,0,0,0,0,,,,,,,,,,,
36443,1551445892389,1.506,2.417,1.7157,0.14,0.05,1.0,-0,-1,0,1501,0,75,22,92,938,0.0,300,300,60,116.0,0,0,-16,425,24,0,0,0,0,0,0,45.845886,5.178982,0.0,718.9,0.0,0,0.0,-1,0.0,0.0,0
36463,1551445892408,1.516,2.42,1.7056,0.14,0.05,0.98,-0,-1,0,1501,0,75,22,92,938,0.0,300,300,60,116.0,0,0,-16,425,24,0,0,0,0,0,0,,,,,,,,,,,
36483,1551445892428,1.526,2.428,1.7069,0.15,0.07,1.01,-0,-0,0,1720,0,75,22,92,922,0.0,300,300,60,118.0,0,0,-15,406,21,0,0,0,0,0,0,,,,,,,,,,,
36503,1551445892448,1.513,2.423,1.6918,0.14,0.07,1.06,-0,0,0,1720,0,75,22,92,922,0.0,300,300,60,118.0,0,0,-15,406,21,0,0,0,0,0,0,,,,,,,,,,,
36523,1551445892468,1.51,2.404,1.6956,0.15,0.07,1.08,-0,0,-0,1720,0,75,22,92,922,0.0,300,300,60,118.0,0,0,-15,406,21,0,0,0,0,0,0,,,,,,,,,,,
36543,1551445892488,1.506,2.412,1.7019,0.15,0.05,1.12,-0,0,-0,1720,0,75,22,92,922,0.0,300,300,60,118.0,0,0,-15,406,21,0,0,0,0,0,0,45.845886,5.178982,0.0,718.9,0.0,0,0.0,-1,0.0,0.0,0
36563,1551445892508,1.516,2.422,1.6893,0.13,0.04,1.09,-0,0,-0,1720,0,75,22,92,922,0.0,300,300,60,118.0,0,0,-15,406,21,0,0,0,0,0,0,,,,,,,,,,,
36583,1551445892528,1.513,2.435,1.6868,0.14,0.04,1.06,-0,0,-0,1588,0,75,22,92,929,0.0,300,300,60,118.0,0,0,-11,418,25,0,0,0,0,0,0,,,,,,,,,,,
36603,1551445892548,1.523,2.413,1.6956,0.15,0.06,0.99,-0,0,0,1588,0,75,22,92,929,0.0,300,300,60,118.0,0,0,-11,418,25,0,0,0,0,0,0,,,,,,,,,,,
36623,1551445892568,1.518,2.392,1.6993,0.16,0.05,0.98,-0,0,-0,1588,0,75,22,92,929,0.0,300,300,60,118.0,0,0,-11,418,25,0,0,0,0,0,0,,,,,,,,,,,
36643,1551445892588,1.505,2.396,1.7006,0.17,0.04,0.98,-0,0,-0,1588,0,75,22,92,929,0.0,300,300,60,118.0,0,0,-11,418,25,0,0,0,0,0,0,45.845886,5.178982,0.0,718.9,0.0,0,0.0,-1,0.0,0.0,0
36663,1551445892610,1.511,2.402,1.6905,0.18,0.04,1.0,-0,1,-0,1588,0,75,22,92,929,0.0,300,300,60,118.0,0,0,-11,418,25,0,0,0,0,0,0,,,,,,,,,,,
36683,1551445892630,1.513,2.412,1.6943,0.17,0.03,0.99,-0,1,-0,1474,0,75,22,91,912,0.0,300,300,60,118.0,0,0,-7,415,25,0,0,0,0,0,0,,,,,,,,,,,
36703,1551445892650,1.513,2.403,1.6943,0.17,0.02,1.03,-0,1,-0,1474,0,75,22,91,912,0.0,300,300,60,118.0,0,0,-7,415,25,0,0,0,0,0,0,,,,,,,,,,,
36723,1551445892670,1.499,2.403,1.6893,0.16,0.02,1.04,-0,1,-0,1474,0,75,22,91,912,0.0,300,300,60,118.0,0,0,-7,415,25,0,0,0,0,0,0,,,,,,,,,,,
36743,1551445892690,1.508,2.427,1.6993,0.16,0.02,1.01,-0,0,-0,1474,0,75,22,91,912,0.0,300,300,60,118.0,0,0,-7,415,25,0,0,0,0,0,0,45.845886,5.178982,0.0,718.9,0.0,0,0.0,-1,0.0,0.0,0
36763,1551445892708,1.517,2.44,1.7056,0.16,0.02,1.01,-0,0,-0,1474,0,75,22,91,912,0.0,300,300,60,118.0,0,0,-7,415,25,0,0,0,0,0,0,,,,,,,,,,,
36783,1551445892728,1.515,2.432,1.7044,0.16,0.03,1.01,-0,0,-0,1513,0,75,22,91,916,0.0,300,300,60,117.0,0,0,-5,424,26,0,0,0,0,0,0,,,,,,,,,,,
36803,1551445892748,1.499,2.41,1.7044,0.16,0.02,1.0,-0,-0,-0,1513,0,75,22,91,916,0.0,300,300,60,117.0,0,0,-5,424,26,0,0,0,0,0,0,,,,,,,,,,,
36823,1551445892768,1.494,2.398,1.6918,0.16,0.02,1.04,-0,1,-0,1513,0,75,22,91,916,0.0,300,300,60,117.0,0,0,-5,424,26,0,0,0,0,0,0,,,,,,,,,,,
36843,1551445892788,1.503,2.404,1.6742,0.15,0.01,1.02,-0,1,-0,1513,0,75,22,91,916,0.0,300,300,60,117.0,0,0,-5,424,26,0,0,0,0,0,0,45.845886,5.178982,0.0,718.9,0.0,0,0.0,-1,0.0,0.0,0
36863,1551445892808,1.498,2.407,1.678,0.15,0.01,1.01,-0,0,-0,1513,0,75,22,91,916,0.0,300,300,60,117.0,0,0,-5,424,26,0,0,0,0,0,0,,,,,,,,,,,
36883,1551445892828,1.513,2.412,1.6956,0.14,0.02,0.98,-0,0,-0,1565,0,75,22,92,927,0.0,300,300,60,117.0,0,0,-5,420,25,0,0,0,0,0,0,,,,,,,,,,,
36903,1551445892848,1.521,2.423,1.6956,0.14,0.03,0.94,-0,-0,-0,1565,0,75,22,92,927,0.0,300,300,60,117.0,0,0,-5,420,25,0,0,0,0,0,0,,,,,,,,,,,
36923,1551445892868,1.515,2.425,1.6893,0.14,0.04,0.93,-0,-0,0,1565,0,75,22,92,927,0.0,300,300,60,117.0,0,0,-5,420,25,0,0,0,0,0,0,,,,,,,,,,,
