"Interval"|"ms"|0|0|1,"Utc"|"ms"|0|0|1,"Brake_F"|"Bar"|0|2000|10,"Brake_R"|"Bar"|0|2000|10,"Height_RF"|"mm"|0|255|50,"Height_LF"|"mm"|0|255|50,"Height_LR"|"mm"|0|80|50,"Height_RR"|"mm"|0|255|50,"Steering"|"deg"|-100|100|10,"AccelX"|"G"|-3.0|3.0|50,"AccelY"|"G"|-3.0|3.0|50,"AccelZ"|"G"|-3.0|3.0|50,"Yaw"|"Deg/Sec"|-120|120|50,"Pitch"|"Deg/Sec"|-120|120|50,"Roll"|"Deg/Sec"|-120|120|50,"Gsum"|"G"|0.0|3.0|50,"Log_Button"|""|0.0|10.0|10,"WaterTemp"|"C"|0|150|50,"RPM"|"tr/min"|0|14000|50,"TPS"|"%"|0|100|50,"AirTemp"|"C"|0|150|50,"MAP"|"KPa"|0|100|50,"Lambda"|""|0.5|1.5|50,"SpeedDTA"|"kph"|0.0|250.0|50,"OilPress"|"KPa"|0|1500|50,"FuelPressur"|"Bar"|0.0|10.0|50,"Batterie"|"V"|0.0|20.0|50,"ConsoKm"|"L/100km"|0.0|200.0|50,"Gear"|""|0|6|50,"AdvIgnition"|"Deg"|-20.0|70.0|50,"Injection"|"ms"|0.0|10.0|50,"ConsoHr"|"L/Hr"|0.0|10000.0|50,"LC_But_Pres"|""|0|1|50,"LC_Active"|""|0|1|50,"TractionOn"|""|0|1|50,"TractionWet"|""|0|1|50,"FanOn"|""|0|1|50,"RD_Speed"|"km/h"|-30|250|10,"RUD_Speed"|"km/h"|-30|250|10,"LD_Speed"|"km/h"|-30|250|10,"LUD_Speed"|"km/h"|-30|250|10,"Latitude"|"Degrees"|-180.0|180.0|10,"Longitude"|"Degrees"|-180.0|180.0|10,"Speed"|"kph"|0.0|150.0|10,"Altitude"|"m"|0.0|4000.0|10,"GPSSats"|""|0|20|10,"GPSQual"|""|0|5|10,"GPSDOP"|""|0.0|20.0|10,"LapCount"|""|0|0|10,"LapTime"|"Min"|0.0|0.0|10,"Sector"|""|0|0|10,"SectorTime"|"Min"|0.0|0.0|10,"PredTime"|"Min"|0.0|0.0|5,"ElapsedTime"|"Min"|0.0|0.0|10,"CurrentLap"|""|0|0|10,"Distance"|"km"|0.0|0.0|10,"SessionTime"|"Min"|0.0|0.0|10
17063,0,,,249,253,238,234,,-0.07,0.18,3.02,-0,-10,-9,0.2,,67,4630,6,36,54,0.639,0.0,562,4.85,13.2,0.0,1,27.1,1.53,5.5,0,0,0,1,0,,,,,,,,,,,,,,,,,,,,
17083,0,,,249,253,238,234,,-0.03,0.14,2.79,-0,-8,-8,0.15,,67,4718,6,36,54,0.64,0.0,567,4.85,13.1,0.0,1,27.9,2.69,5.5,0,0,0,1,0,,,,,,,,,,,,,,,,,,,,
17103,0,,,249,253,239,234,,-0.02,0.11,2.57,-0,-7,-6,0.11,,67,4636,6,36,54,0.639,0.0,571,4.85,13.0,0.0,1,27.2,1.53,5.5,0,0,0,1,0,,,,,,,,,,,,,,,,,,,,
17123,0,,,249,253,239,234,,-0.05,0.12,2.5,-0,-6,-5,0.13,,67,4742,6,36,54,0.64,0.0,563,4.87,13.0,0.0,1,28.5,2.71,5.5,0,0,0,1,0,,,,,,,,,,,,,,,,,,,,
17143,0,-1,2,249,253,239,234,-1,-0.09,0.13,2.61,-0,-6,-5,0.16,1,67,4653,6,36,53,0.64,0.0,576,4.91,13.1,0.0,1,27.1,2.64,5.5,0,0,0,1,0,0,250,250,0,0.0,0.0,0.0,0.0,0,0,0.0,0,0.0,-1,0.0,,0.0,0,0.0,0.2857
17163,0,,,249,253,238,234,,-0.11,0.15,2.72,-0,-6,-6,0.18,,67,4604,6,36,53,0.641,0.0,573,4.9,13.2,0.0,1,26.5,2.6,5.5,0,0,0,1,0,,,,,,,,,,,,,,,,,,,,
17183,0,,,249,253,238,234,,-0.13,0.15,2.82,-0,-6,-6,0.2,,67,4594,6,36,53,0.641,0.0,562,4.88,13.2,0.0,1,26.4,2.59,5.5,0,0,0,1,0,,,,,,,,,,,,,,,,,,,,
17203,0,,,249,253,238,234,,-0.12,0.15,2.91,-0,-7,-7,0.2,,67,4554,6,36,53,0.641,0.0,567,4.86,13.2,0.0,1,25.9,2.56,5.5,0,0,0,1,0,,,,,,,,,,,,,,,,,,,,
17223,0,,,249,253,238,234,,-0.1,0.15,2.99,-0,-8,-7,0.18,,67,4563,6,36,54,0.642,0.0,555,4.9,13.3,0.0,1,26.3,2.57,5.5,0,0,0,1,0,,,,,,,,,,,,,,,,,,,,
17243,0,0,2,249,253,238,234,-2,-0.07,0.17,3.02,-0,-9,-7,0.18,1,67,4558,6,36,54,0.642,0.0,564,4.9,13.2,0.0,1,26.2,2.57,5.5,0,0,0,1,0,0,250,250,0,0.0,0.0,0.0,0.0,0,0,0.0,0,0.0,-1,0.0,0.0,0.0,0,0.0,0.2874
17263,0,,,249,252,238,234,,-0.05,0.19,3.0,-0,-9,-7,0.19,,67,4527,6,36,54,0.642,0.0,562,4.91,13.2,0.0,1,25.8,2.55,5.3,0,0,0,1,0,,,,,,,,,,,,,,,,,,,,
17283,0,,,249,252,238,234,,-0.03,0.2,2.9,-0,-9,-7,0.21,,67,4550,6,36,53,0.642,0.0,555,4.91,13.2,0.0,1,25.8,2.56,5.3,0,0,0,1,0,,,,,,,,,,,,,,,,,,,,
17303,0,,,249,253,238,234,,0.0,0.21,2.8,-0,-9,-8,0.21,,67,4524,6,36,54,0.642,0.0,558,4.88,13.3,0.0,1,25.8,2.55,5.3,0,0,0,1,0,,,,,,,,,,,,,,,,,,,,
17323,0,,,249,253,238,234,,0.03,0.2,2.7,-0,-9,-8,0.2,,67,4554,6,36,54,0.643,0.0,555,4.92,13.3,0.0,1,26.2,2.57,5.3,0,0,0,1,0,,,,,,,,,,,,,,,,,,,,
17343,0,0,0,249,252,238,234,-2,0.04,0.17,2.56,-0,-9,-7,0.18,1,67,4497,6,36,54,0.643,0.0,559,4.85,13.2,0.0,1,25.5,2.53,5.3,0,0,0,1,0,0,250,250,0,0.0,0.0,0.0,0.0,0,0,0.0,0,0.0,-1,0.0,,0.0,0,0.0,0.2891
17363,0,,,249,251,238,234,,0.06,0.18,2.39,-0,-8,-7,0.19,,67,4499,6,36,54,0.643,0.0,551,4.84,13.3,0.0,1,25.5,2.53,5.3,0,0,0,1,0,,,,,,,,,,,,,,,,,,,,
17383,0,,,249,253,238,234,,0.08,0.19,2.23,-0,-8,-7,0.21,,67,4507,6,36,54,0.643,0.0,547,4.84,13.3,0.0,1,25.6,2.54,5.3,0,0,0,1,0,,,,,,,,,,,,,,,,,,,,
17403,0,,,249,253,238,234,,0.11,0.18,2.16,-0,-8,-7,0.21,,67,4494,6,36,54,0.643,0.0,557,4.86,13.3,0.0,1,25.4,2.53,5.3,0,0,0,1,0,,,,,,,,,,,,,,,,,,,,
17423,0,,,249,252,239,234,,0.12,0.16,2.08,-0,-8,-7,0.2,,67,4487,6,36,54,0.643,0.0,547,4.86,13.2,0.0,1,25.3,2.53,5.3,0,0,0,1,0,,,,,,,,,,,,,,,,,,,,
17443,0,0,1,249,253,239,234,-2,0.12,0.17,1.98,-0,-7,-7,0.21,1,67,4484,6,36,54,0.644,0.0,552,4.91,13.3,0.0,1,25.3,2.52,5.3,0,0,0,1,0,0,250,250,0,0.0,0.0,0.0,0.0,0,0,0.0,0,0.0,-1,0.0,0.0,0.0,0,0.0,0.2907
17463,0,,,249,253,238,234,,0.13,0.17,1.91,-0,-7,-7,0.21,,67,4497,6,36,54,0.644,0.0,549,4.89,13.3,0.0,1,25.5,2.53,5.2,0,0,0,1,0,,,,,,,,,,,,,,,,,,,,
17483,0,,,249,253,238,234,,0.13,0.17,1.95,-0,-7,-7,0.22,,67,4450,6,36,54,0.644,0.0,551,4.93,13.3,0.0,1,24.9,2.5,5.2,0,0,0,1,0,,,,,,,,,,,,,,,,,,,,
17503,0,,,249,253,238,234,,0.14,0.18,2.01,-0,-7,-7,0.23,,67,4481,6,36,54,0.644,0.0,552,4.9,13.2,0.0,1,25.3,2.52,5.2,0,0,0,1,0,,,,,,,,,,,,,,,,,,,,
17523,0,,,249,253,238,234,,0.15,0.19,1.95,-0,-7,-7,0.24,,67,4521,6,36,55,0.644,0.0,548,4.91,13.3,0.0,1,26.0,2.56,5.2,0,0,0,1,0,,,,,,,,,,,,,,,,,,,,
17543,0,-1,2,249,253,238,234,-2,0.16,0.2,1.94,-0,-8,-7,0.26,1,67,4501,6,36,55,0.644,0.0,556,4.93,13.3,0.0,1,25.7,2.54,5.2,0,0,0,1,0,0,250,250,0,0.0,0.0,0.0,0.0,0,0,0.0,0,0.0,-1,0.0,,0.0,0,0.0,0.2924
17563,0,,,249,253,239,234,,0.18,0.2,2.01,-0,-9,-8,0.27,,67,4546,6,36,54,0.644,0.0,554,4.85,13.3,0.0,1,26.1,2.57,5.3,0,0,0,1,0,,,,,,,,,,,,,,,,,,,,
17583,0,,,249,253,239,234,,0.19,0.2,1.93,-0,-8,-8,0.27,,67,4553,6,36,55,0.643,0.0,553,4.88,13.2,0.0,1,26.4,2.57,5.3,0,0,0,1,0,,,,,,,,,,,,,,,,,,,,
17603,0,,,249,253,238,234,,0.19,0.19,1.78,-0,-7,-7,0.27,,67,4544,6,36,55,0.643,0.0,558,4.92,13.3,0.0,1,26.3,2.57,5.3,0,0,0,1,0,,,,,,,,,,,,,,,,,,,,
17623,0,,,249,253,238,234,,0.2,0.18,1.64,-0,-7,-7,0.27,,67,4552,6,36,55,0.643,0.0,549,4.9,13.3,0.0,1,26.4,2.57,5.3,0,0,0,1,0,,,,,,,,,,,,,,,,,,,,
17643,0,0,0,249,253,239,234,-1,0.23,0.16,1.52,-0,-6,-7,0.28,1,67,4553,6,36,55,0.644,0.0,558,4.86,13.2,0.0,1,26.4,2.57,5.3,0,0,0,1,0,0,250,250,0,0.0,0.0,0.0,0.0,0,0,0.0,0,0.0,-1,0.0,0.0,0.0,0,0.0,0.294
17663,0,,,249,253,238,234,,0.24,0.12,1.4,-0,-5,-6,0.27,,67,4541,6,36,55,0.644,0.0,555,4.87,13.2,0.0,1,26.2,1.47,5.4,0,0,0,1,0,,,,,,,,,,,,,,,,,,,,
17683,0,,,249,253,238,234,,0.25,0.08,1.29,-0,-3,-5,0.27,,67,4545,6,36,54,0.644,0.0,552,4.85,13.2,0.0,1,26.1,1.47,5.4,0,0,0,1,0,,,,,,,,,,,,,,,,,,,,
17703,0,,,249,253,239,234,,0.28,0.03,1.19,-0,-2,-4,0.28,,67,4548,6,36,55,0.644,0.0,555,4.91,13.2,0.0,1,26.3,1.47,5.4,0,0,0,1,0,,,,,,,,,,,,,,,,,,,,
17723,0,,,249,253,238,234,,0.29,0.0,1.1,-0,-1,-3,0.29,,67,4564,6,36,54,0.644,0.0,551,4.8,13.2,0.0,1,26.3,2.58,5.4,0,0,0,1,0,,,,,,,,,,,,,,,,,,,,
17743,0,0,2,249,253,238,234,-1,0.3,-0.03,1.02,-0,1,-1,0.3,1,67,4570,6,36,55,0.644,0.0,560,4.93,13.1,0.0,1,26.6,1.49,5.4,0,0,0,1,0,0,250,250,0,0.0,0.0,0.0,0.0,0,0,0.0,0,0.0,-1,0.0,,0.0,0,0.0,0.2957
17763,0,,,249,253,239,234,,0.3,-0.06,0.94,0,1,0,0.31,,67,4564,6,36,54,0.645,0.0,550,4.89,13.0,0.0,1,26.4,2.58,5.5,0,0,0,1,0,,,,,,,,,,,,,,,,,,,,
17783,0,,,249,253,239,234,,0.28,-0.07,0.87,0,3,2,0.29,,67,4592,6,36,54,0.645,0.0,557,4.86,13.0,0.0,1,27.0,2.6,5.5,0,0,0,1,0,,,,,,,,,,,,,,,,,,,,
17803,0,,,249,253,238,234,,0.24,-0.07,0.8,0,4,3,0.25,,67,4608,6,36,54,0.645,0.0,565,4.9,13.0,0.0,1,26.9,2.61,5.5,0,0,0,1,0,,,,,,,,,,,,,,,,,,,,
17823,0,,,249,253,238,234,,0.19,-0.06,0.81,0,4,4,0.2,,67,4610,6,36,54,0.645,0.0,561,4.9,13.0,0.0,1,26.9,2.61,5.5,0,0,0,1,0,,,,,,,,,,,,,,,,,,,,
17843,0,-0,2,249,253,238,234,-1,0.15,-0.02,1.05,0,3,3,0.15,1,67,4653,6,36,54,0.645,0.0,566,4.93,12.9,0.0,1,27.4,2.65,5.5,0,0,0,1,0,0,250,250,0,0.0,0.0,0.0,0.0,0,0,0.0,0,0.0,-1,0.0,0.0,0.0,0,0.0,0.2974
17863,0,,,249,253,238,234,,0.1,-0.01,1.28,-0,2,1,0.1,,67,4583,6,36,54,0.646,0.0,565,4.88,13.0,0.0,1,26.5,2.59,5.6,0,0,0,1,0,,,,,,,,,,,,,,,,,,,,
17883,0,,,249,253,238,234,,0.07,0.01,1.49,-0,1,-0,0.07,,67,4620,6,36,54,0.645,0.0,564,4.85,13.1,0.0,1,27.0,2.62,5.6,0,0,0,1,0,,,,,,,,,,,,,,,,,,,,
17903,0,,,249,253,238,234,,0.07,0.05,1.68,-0,-1,-2,0.08,,67,4641,6,36,54,0.645,0.0,572,4.87,13.2,0.0,1,27.3,2.64,5.6,0,0,0,1,0,,,,,,,,,,,,,,,,,,,,
17923,0,,,249,253,239,234,,0.08,0.07,1.72,-0,-1,-2,0.11,,67,4575,6,36,54,0.645,0.0,559,4.9,13.3,0.0,1,26.4,2.59,5.6,0,0,0,1,0,,,,,,,,,,,,,,,,,,,,
17943,0,0,1,249,253,238,234,-2,0.11,0.09,1.69,-0,-2,-2,0.14,1,67,4621,6,36,54,0.645,0.0,567,4.91,13.3,0.0,1,27.0,2.62,5.6,0,0,0,1,0,0,250,250,0,0.0,0.0,0.0,0.0,0,0,0.0,0,0.0,-1,0.0,,0.0,0,0.0,0.299
17963,0,,,249,253,239,234,,0.13,0.1,1.56,0,-2,-2,0.17,,67,4608,6,36,54,0.645,0.0,565,4.85,13.3,0.0,1,26.9,1.51,5.6,0,0,0,1,0,,,,,,,,,,,,,,,,,,,,
17983,0,,,249,253,238,234,,0.16,0.11,1.44,-0,-2,-2,0.2,,67,4558,6,36,54,0.644,0.0,555,4.84,13.2,0.0,1,26.2,2.58,5.6,0,0,0,1,0,,,,,,,,,,,,,,,,,,,,
18003,0,,,249,253,238,234,,0.19,0.06,1.33,-0,-1,-2,0.2,,67,4586,6,36,54,0.644,0.0,562,4.87,13.2,0.0,1,26.6,2.6,5.6,0,0,0,1,0,,,,,,,,,,,,,,,,,,,,
18023,0,,,249,253,238,234,,0.21,0.01,1.23,0,-0,-1,0.21,,67,4549,6,36,54,0.644,0.0,550,4.87,13.1,0.0,1,26.1,1.47,5.6,0,0,0,1,0,,,,,,,,,,,,,,,,,,,,
18043,0,0,2,249,253,238,234,-2,0.23,-0.04,1.13,0,1,-0,0.24,1,67,4531,6,36,54,0.644,0.0,557,4.89,13.1,0.0,1,25.9,1.46,5.6,0,0,0,1,0,0,250,250,0,0.0,0.0,0.0,0.0,0,0,0.0,0,0.0,-1,0.0,0.0,0.0,0,0.0,0.3007
18063,0,,,249,253,238,234,,0.24,-0.07,1.05,0,2,1,0.25,,67,4589,6,36,54,0.644,0.0,554,4.83,13.1,0.0,1,26.6,1.5,5.4,0,0,0,1,0,,,,,,,,,,,,,,,,,,,,
18083,0,,,249,253,238,234,,0.24,-0.07,0.97,0,3,3,0.25,,67,4559,6,36,54,0.644,0.0,553,4.91,13.0,0.0,1,26.2,1.48,5.4,0,0,0,1,0,,,,,,,,,,,,,,,,,,,,
18103,0,,,249,253,238,234,,0.24,-0.09,0.89,0,5,4,0.25,,67,4587,6,36,54,0.645,0.0,558,4.85,13.1,0.0,1,26.7,2.6,5.4,0,0,0,1,0,,,,,,,,,,,,,,,,,,,,
18123,0,,,249,253,238,234,,0.21,-0.08,0.82,0,5,5,0.23,,67,4555,6,36,54,0.645,0.0,554,4.92,13.1,0.0,1,26.2,2.57,5.4,0,0,0,1,0,,,,,,,,,,,,,,,,,,,,
18143,0,0,1,249,253,239,234,-2,0.18,-0.08,0.76,0,6,6,0.2,1,67,4532,6,36,54,0.646,0.0,554,4.91,12.9,0.0,1,25.9,1.46,5.4,0,0,0,1,0,0,250,250,0,0.0,0.0,0.0,0.0,0,0,0.0,0,0.0,-1,0.0,,0.0,0,0.0,0.3024
18163,0,,,249,253,239,234,,0.15,-0.07,0.7,0,6,6,0.16,,67,4570,6,36,54,0.646,0.0,552,4.92,13.0,0.0,1,26.4,2.59,5.4,0,0,0,1,0,,,,,,,,,,,,,,,,,,,,
18183,0,,,249,253,238,234,,0.12,-0.04,0.75,0,6,6,0.13,,67,4527,6,36,54,0.645,0.0,554,4.87,13.0,0.0,1,25.8,2.55,5.4,0,0,0,1,0,,,,,,,,,,,,,,,,,,,,
18203,0,,,249,253,238,234,,0.08,0.0,0.73,0,6,5,0.08,,67,4549,6,36,54,0.646,0.0,559,4.97,12.9,0.0,1,26.1,2.57,5.4,0,0,0,1,0,,,,,,,,,,,,,,,,,,,,
18223,0,,,249,253,238,234,,0.04,0.02,0.86,0,6,5,0.05,,67,4567,6,36,54,0.645,0.0,552,4.84,13.1,0.0,1,26.3,2.58,5.4,0,0,0,1,0,,,,,,,,,,,,,,,,,,,,
18243,0,1,1,249,253,239,234,-2,0.01,0.03,0.95,0,5,4,0.03,1,67,4522,6,36,54,0.645,0.0,558,4.85,13.1,0.0,1,25.8,2.55,5.4,0,0,0,1,0,0,250,250,0,0.0,0.0,0.0,0.0,0,0,0.0,0,0.0,-1,0.0,0.0,0.0,0,0.0,0.304
18263,0,,,249,253,238,234,,-0.02,0.04,1.13,0,4,3,0.04,,67,4558,6,36,54,0.646,0.0,555,4.87,13.1,0.0,1,26.2,2.58,5.3,0,0,0,1,0,,,,,,,,,,,,,,,,,,,,
18283,0,,,249,253,238,234,,-0.03,0.04,1.35,-0,3,2,0.05,,67,4527,6,36,54,0.646,0.0,558,4.86,13.2,0.0,1,25.8,2.55,5.3,0,0,0,1,0,,,,,,,,,,,,,,,,,,,,
18303,0,,,249,253,238,234,,-0.06,0.05,1.56,-0,2,0,0.08,,67,4535,6,36,54,0.646,0.0,557,4.86,13.2,0.0,1,25.9,2.56,5.3,0,0,0,1,0,,,,,,,,,,,,,,,,,,,,
18323,0,,,249,253,239,234,,-0.06,0.07,1.74,-0,1,-1,0.09,,67,4576,6,36,54,0.646,0.0,554,4.86,13.2,0.0,1,26.5,2.59,5.3,0,0,0,1,0,,,,,,,,,,,,,,,,,,,,
18343,0,-1,2,249,253,238,234,-1,-0.05,0.1,1.86,-0,-0,-1,0.11,1,67,4502,6,36,54,0.646,0.0,561,4.86,13.1,0.0,1,25.5,2.54,5.3,0,0,0,1,0,0,250,250,0,0.0,0.0,0.0,0.0,0,0,0.0,0,0.0,-1,0.0,,0.0,0,0.0,0.3057
18363,0,,,249,253,239,234,,-0.02,0.14,1.99,-0,-2,-3,0.14,,67,4627,6,36,55,0.645,0.0,560,4.89,13.3,0.0,1,27.3,2.63,5.3,0,0,0,1,0,,,,,,,,,,,,,,,,,,,,
18383,0,,,249,253,239,234,,0.01,0.15,1.89,-0,-3,-3,0.15,,67,4586,6,36,54,0.645,0.0,561,4.86,13.2,0.0,1,26.6,2.6,5.3,0,0,0,1,0,,,,,,,,,,,,,,,,,,,,
18403,0,,,249,253,238,234,,0.05,0.15,1.84,-0,-5,-4,0.16,,67,4585,6,36,55,0.645,0.0,563,4.9,13.3,0.0,1,26.8,2.6,5.3,0,0,0,1,0,,,,,,,,,,,,,,,,,,,,
18423,0,,,249,253,238,234,,0.08,0.11,1.7,-0,-5,-4,0.14,,67,4649,6,36,55,0.645,0.0,560,4.92,13.3,0.0,1,27.6,2.64,5.3,0,0,0,1,0,,,,,,,,,,,,,,,,,,,,
18443,0,-0,2,249,253,238,234,-1,0.11,0.06,1.57,-0,-4,-4,0.13,1,67,4565,6,36,54,0.646,0.0,568,4.91,13.3,0.0,1,26.3,2.58,5.3,0,0,0,1,0,0,250,250,0,0.0,0.0,0.0,0.0,0,0,0.0,0,0.0,-1,0.0,0.0,0.0,0,0.0,0.3074
18463,0,,,249,253,238,234,,0.13,-0.01,1.45,-0,-3,-3,0.13,,67,4664,7,36,54,0.646,0.0,560,4.85,13.2,0.0,1,27.6,1.55,5.6,0,0,0,1,0,,,,,,,,,,,,,,,,,,,,
18483,0,,,249,253,238,234,,0.11,-0.02,1.33,0,-2,-1,0.11,,67,4666,7,36,54,0.646,0.0,563,4.85,13.2,0.0,1,27.6,2.65,5.6,0,0,0,1,0,,,,,,,,,,,,,,,,,,,,
18503,0,,,249,253,238,234,,0.07,-0.01,1.23,0,-1,-0,0.08,,67,4644,7,36,54,0.645,0.0,568,4.89,12.9,0.0,1,27.3,1.54,5.6,0,0,0,1,0,,,,,,,,,,,,,,,,,,,,
18523,0,,,249,253,239,234,,0.04,0.02,1.43,0,-0,1,0.05,,67,4695,6,36,54,0.645,0.0,562,4.92,13.0,0.0,1,27.9,2.68,5.6,0,0,0,1,0,,,,,,,,,,,,,,,,,,,,
18543,0,-1,2,249,253,239,234,-1,-0.01,0.04,1.62,0,-0,0,0.04,1,67,4604,6,36,54,0.646,0.0,568,4.91,13.1,0.0,1,26.8,2.61,5.6,0,0,0,1,0,0,250,250,0,0.0,0.0,0.0,0.0,0,0,0.0,0,0.0,-1,0.0,,0.0,0,0.0,0.309
18563,0,,,249,253,238,234,,-0.02,0.06,1.81,0,-0,-1,0.07,,67,4683,6,36,54,0.646,0.0,561,4.9,13.0,0.0,1,27.8,2.67,5.5,0,0,0,1,0,,,,,,,,,,,,,,,,,,,,
18583,0,,,249,253,238,234,,0.0,0.08,1.92,0,-2,-2,0.08,,67,4661,6,36,54,0.647,0.0,569,4.88,13.2,0.0,1,27.5,2.65,5.5,0,0,0,1,0,,,,,,,,,,,,,,,,,,,,
18603,0,,,249,253,238,234,,0.03,0.09,1.9,-0,-2,-3,0.09,,67,4597,6,36,54,0.647,0.0,571,4.87,13.2,0.0,1,26.7,2.6,5.5,0,0,0,1,0,,,,,,,,,,,,,,,,,,,,
18623,0,,,249,252,238,234,,0.06,0.09,1.75,0,-3,-3,0.11,,67,4646,6,36,54,0.647,0.0,563,4.9,13.3,0.0,1,27.3,2.64,5.5,0,0,0,1,0,,,,,,,,,,,,,,,,,,,,
18643,0,0,0,249,253,238,234,-1,0.09,0.08,1.62,0,-3,-3,0.12,1,67,4617,6,36,54,0.646,0.0,563,4.91,13.3,0.0,1,27.0,2.62,5.5,0,0,0,1,0,0,250,250,0,0.0,0.0,0.0,0.0,0,0,0.0,0,0.0,-1,0.0,0.0,0.0,0,0.0,0.3107
18663,0,,,249,253,238,234,,0.12,0.06,1.49,0,-3,-3,0.13,,67,4570,6,36,54,0.646,0.0,561,4.87,13.3,0.0,1,26.4,1.49,5.4,0,0,0,1,0,,,,,,,,,,,,,,,,,,,,
18683,0,,,249,253,238,234,,0.13,0.03,1.38,0,-2,-2,0.14,,67,4595,7,36,54,0.646,0.0,556,4.85,13.2,0.0,1,26.7,1.5,5.4,0,0,0,1,0,,,,,,,,,,,,,,,,,,,,
18703,0,,,249,253,238,234,,0.15,-0.01,1.27,0,-1,-2,0.15,,67,4543,6,36,54,0.646,0.0,562,4.88,13.2,0.0,1,26.0,2.57,5.4,0,0,0,1,0,,,,,,,,,,,,,,,,,,,,
18723,0,,,249,253,238,234,,0.16,-0.07,1.17,0,0,-1,0.17,,67,4536,7,36,54,0.645,0.0,551,4.88,13.1,0.0,1,26.0,1.46,5.4,0,0,0,1,0,,,,,,,,,,,,,,,,,,,,
18743,0,-1,2,249,253,238,234,-1,0.15,-0.08,1.08,0,1,0,0.17,1,67,4544,7,36,54,0.646,0.0,553,4.91,13.1,0.0,1,26.1,1.47,5.4,0,0,0,1,0,0,250,250,0,0.0,0.0,0.0,0.0,0,0,0.0,0,0.0,-1,0.0,,0.0,0,0.0,0.3124
18763,0,,,249,253,238,234,,0.16,-0.07,1.0,0,2,1,0.17,,67,4509,7,36,54,0.646,0.0,556,4.84,13.1,0.0,1,25.6,1.44,5.3,0,0,0,1,0,,,,,,,,,,,,,,,,,,,,
18783,0,,,249,253,238,234,,0.15,-0.08,0.92,0,3,2,0.17,,67,4535,7,36,54,0.646,0.0,547,4.92,13.1,0.0,1,25.9,2.56,5.3,0,0,0,1,0,,,,,,,,,,,,,,,,,,,,
18803,0,,,249,253,238,234,,0.15,-0.09,0.85,0,4,3,0.17,,67,4514,7,36,55,0.646,0.0,552,4.86,13.2,0.0,1,25.9,1.46,5.3,0,0,0,1,0,,,,,,,,,,,,,,,,,,,,
18823,0,,,249,253,239,234,,0.14,-0.1,0.78,0,5,4,0.17,,67,4515,7,36,55,0.646,0.0,543,4.92,13.1,0.0,1,25.9,1.46,5.3,0,0,0,1,0,,,,,,,,,,,,,,,,,,,,
18843,0,-1,2,249,253,238,234,-1,0.13,-0.09,0.72,0,6,5,0.16,1,67,4500,7,36,54,0.645,0.0,550,4.93,13.1,0.0,1,25.5,1.44,5.3,0,0,0,1,0,0,250,250,0,0.0,0.0,0.0,0.0,0,0,0.0,0,0.0,-1,0.0,0.0,0.0,0,0.0,0.314
18863,0,,,249,253,239,234,,0.12,-0.1,0.67,0,7,5,0.15,,67,4528,7,36,55,0.645,0.0,546,4.92,13.1,0.0,1,26.1,1.46,5.3,0,0,0,1,0,,,,,,,,,,,,,,,,,,,,
18883,0,,,249,253,239,234,,0.1,-0.09,0.62,0,8,6,0.13,,67,4557,7,36,55,0.646,0.0,545,4.93,13.0,0.0,1,26.4,1.48,5.3,0,0,0,1,0,,,,,,,,,,,,,,,,,,,,
18903,0,,,249,253,238,234,,0.08,-0.09,0.57,0,9,8,0.12,,67,4530,7,36,55,0.645,0.0,552,4.87,13.2,0.0,1,26.1,2.56,5.3,0,0,0,1,0,,,,,,,,,,,,,,,,,,,,
18923,0,,,249,253,239,234,,0.06,-0.09,0.52,0,9,8,0.11,,67,4552,7,36,55,0.646,0.0,548,4.9,12.9,0.0,1,26.4,2.57,5.3,0,0,0,1,0,,,,,,,,,,,,,,,,,,,,
18943,0,0,2,249,253,238,234,-1,0.05,-0.08,0.57,0,9,9,0.09,1,67,4526,7,36,55,0.646,0.0,553,4.86,13.1,0.0,1,26.0,2.56,5.3,0,0,0,1,0,0,250,250,0,0.0,0.0,0.0,0.0,0,0,0.0,0,0.0,-1,0.0,,0.0,0,0.0,0.3157
18963,0,,,249,253,238,234,,0.02,-0.04,0.63,0,9,9,0.05,,67,4548,7,36,55,0.646,0.0,547,4.91,12.8,0.0,1,26.3,2.57,5.3,0,0,0,1,0,,,,,,,,,,,,,,,,,,,,
18983,0,,,249,253,239,234,,-0.01,-0.02,0.74,0,10,9,0.02,,67,4566,6,36,55,0.646,0.0,547,4.92,13.0,0.0,1,26.5,2.58,5.3,0,0,0,1,0,,,,,,,,,,,,,,,,,,,,
19003,0,,,249,253,238,234,,-0.05,-0.01,0.88,0,10,9,0.05,,67,4531,6,36,54,0.646,0.0,559,4.9,13.0,0.0,1,25.9,2.56,5.3,0,0,0,1,0,,,,,,,,,,,,,,,,,,,,
19023,0,,,249,253,238,234,,-0.06,-0.0,1.05,0,9,9,0.06,,67,4546,7,36,55,0.645,0.0,544,4.94,12.9,0.0,1,26.3,2.57,5.3,0,0,0,1,0,,,,,,,,,,,,,,,,,,,,
19043,0,-1,2,249,253,238,234,-2,-0.09,0.02,1.27,0,8,7,0.1,1,67,4578,7,36,55,0.646,0.0,555,4.85,13.1,0.0,1,26.7,2.59,5.3,0,0,0,1,0,0,250,250,0,0.0,0.0,0.0,0.0,0,0,0.0,0,0.0,-1,0.0,0.0,0.0,0,0.0,0.3174
19063,0,,,249,253,238,234,,-0.12,0.05,1.48,0,8,6,0.13,,67,4534,6,36,55,0.646,0.0,552,4.84,13.1,0.0,1,26.1,2.56,5.3,0,0,0,1,0,,,,,,,,,,,,,,,,,,,,
19083,0,,,249,253,239,234,,-0.13,0.07,1.68,0,7,5,0.15,,67,4575,7,36,55,0.647,0.0,554,4.88,13.2,0.0,1,26.6,2.59,5.3,0,0,0,1,0,,,,,,,,,,,,,,,,,,,,
19103,0,,,249,253,238,234,,-0.14,0.08,1.86,0,6,4,0.16,,67,4554,6,36,55,0.647,0.0,558,4.87,13.2,0.0,1,26.4,1.47,5.3,0,0,0,1,0,,,,,,,,,,,,,,,,,,,,
19123,0,,,249,253,239,234,,-0.14,0.07,2.02,0,4,2,0.16,,67,4558,7,36,55,0.648,0.0,552,4.9,13.2,0.0,1,26.4,2.58,5.3,0,0,0,1,0,,,,,,,,,,,,,,,,,,,,
19143,0,-0,2,249,253,238,234,-1,-0.11,0.08,2.17,0,1,1,0.14,1,67,4602,7,36,55,0.649,0.0,560,4.92,13.2,0.0,1,27.0,2.61,5.3,0,0,0,1,0,0,250,250,0,0.0,0.0,0.0,0.0,0,0,0.0,0,0.0,-1,0.0,,0.0,0,0.0,0.3191
19163,0,,,249,253,238,234,,-0.08,0.1,2.29,-0,-1,-0,0.12,,67,4597,7,36,55,0.649,0.0,560,4.91,13.3,0.0,1,26.9,2.6,5.6,0,0,0,1,0,,,,,,,,,,,,,,,,,,,,
19183,0,,,249,253,238,234,,-0.03,0.09,2.18,-0,-2,-1,0.1,,67,4646,7,36,55,0.648,0.0,557,4.88,13.3,0.0,1,27.5,2.64,5.6,0,0,0,1,0,,,,,,,,,,,,,,,,,,,,
19203,0,,,249,253,238,234,,-0.01,0.07,2.01,0,-2,-1,0.07,,67,4657,7,36,55,0.648,0.0,567,4.89,13.3,0.0,1,27.7,2.65,5.6,0,0,0,1,0,,,,,,,,,,,,,,,,,,,,
19223,0,,,249,253,238,234,,0.02,0.03,1.85,0,-1,-1,0.04,,67,4645,7,36,55,0.648,0.0,556,4.86,13.2,0.0,1,27.5,1.54,5.6,0,0,0,1,0,,,,,,,,,,,,,,,,,,,,
19243,0,0,2,249,253,238,234,-2,0.04,0.01,1.71,-0,-0,-0,0.04,1,67,4633,7,36,55,0.648,0.0,563,4.88,13.1,0.0,1,27.4,2.63,5.6,0,0,0,1,0,0,250,250,0,0.0,0.0,0.0,0.0,0,0,0.0,0,0.0,-1,0.0,0.0,0.0,0,0.0,0.3207
19263,0,,,249,253,238,234,,0.03,0.0,1.58,0,1,1,0.03,,67,4626,7,36,54,0.648,0.0,566,4.88,13.0,0.0,1,27.0,2.63,5.7,0,0,0,1,0,,,,,,,,,,,,,,,,,,,,
19283,0,,,249,253,238,234,,0.01,0.02,1.49,0,2,2,0.02,,67,4656,7,36,55,0.647,0.0,556,4.85,12.9,0.0,1,27.7,1.55,5.7,0,0,0,1,0,,,,,,,,,,,,,,,,,,,,
19303,0,,,249,253,238,234,,-0.03,0.06,1.56,0,3,3,0.07,,67,4634,7,36,54,0.648,0.0,566,4.9,13.0,0.0,1,27.2,2.63,5.7,0,0,0,1,0,,,,,,,,,,,,,,,,,,,,
19323,0,,,249,253,238,234,,-0.06,0.08,1.74,0,3,2,0.1,,67,4628,7,36,54,0.647,0.0,561,4.88,13.1,0.0,1,27.1,2.63,5.7,0,0,0,1,0,,,,,,,,,,,,,,,,,,,,
19343,0,0,1,249,253,238,234,-1,-0.08,0.1,1.92,0,2,1,0.13,1,67,4584,7,36,54,0.647,0.0,564,4.92,13.0,0.0,1,26.6,2.6,5.7,0,0,0,1,0,0,250,250,0,0.0,0.0,0.0,0.0,0,0,0.0,0,0.0,-1,0.0,,0.0,0,0.0,0.3224
19363,0,,,249,253,239,234,,-0.09,0.11,2.08,-0,2,0,0.15,,67,4572,7,36,54,0.646,0.0,556,4.87,13.2,0.0,1,26.4,2.59,5.4,0,0,0,1,0,,,,,,,,,,,,,,,,,,,,
19383,0,,,249,253,238,234,,-0.09,0.11,2.22,-0,-0,-1,0.14,,67,4595,7,36,55,0.646,0.0,555,4.88,13.2,0.0,1,26.9,2.6,5.4,0,0,0,1,0,,,,,,,,,,,,,,,,,,,,
19403,0,,,249,253,238,234,,-0.06,0.11,2.36,-0,-2,-2,0.13,,67,4567,7,36,55,0.646,0.0,562,4.91,13.3,0.0,1,26.5,2.58,5.4,0,0,0,1,0,,,,,,,,,,,,,,,,,,,,
19423,0,,,249,253,238,234,,-0.03,0.12,2.49,-0,-4,-3,0.12,,67,4604,7,36,55,0.646,0.0,557,4.91,13.3,0.0,1,27.0,2.61,5.4,0,0,0,1,0,,,,,,,,,,,,,,,,,,,,
19443,0,-0,1,249,253,238,234,-1,0.01,0.12,2.39,-0,-5,-3,0.12,1,67,4597,7,36,55,0.646,0.0,556,4.91,13.3,0.0,1,26.9,2.6,5.4,0,0,0,1,0,0,250,250,0,0.0,0.0,0.0,0.0,0,0,0.0,0,0.0,-1,0.0,0.0,0.0,0,0.0,0.324
19463,0,,,249,253,238,234,,0.03,0.13,2.21,-0,-5,-3,0.13,,67,4588,7,36,55,0.645,0.0,560,4.91,13.3,0.0,1,26.8,2.6,5.4,0,0,0,1,0,,,,,,,,,,,,,,,,,,,,
19483,0,,,249,253,238,234,,0.07,0.12,2.04,-0,-5,-3,0.14,,67,4629,7,36,55,0.645,0.0,552,4.85,13.3,0.0,1,27.3,1.53,5.4,0,0,0,1,0,,,,,,,,,,,,,,,,,,,,
19503,0,,,249,253,239,234,,0.1,0.09,1.88,-0,-4,-3,0.13,,67,4628,7,36,55,0.644,0.0,563,4.89,13.3,0.0,1,27.3,2.63,5.4,0,0,0,1,0,,,,,,,,,,,,,,,,,,,,
19523,0,,,249,253,238,234,,0.11,0.06,1.73,-0,-2,-2,0.12,,67,4644,7,36,55,0.644,0.0,561,4.88,13.1,0.0,1,27.5,1.54,5.4,0,0,0,1,0,,,,,,,,,,,,,,,,,,,,
19543,0,1,1,249,253,238,234,-1,0.09,0.05,1.6,0,-1,0,0.1,1,67,4687,7,36,55,0.644,0.0,563,4.86,13.1,0.0,1,28.0,2.67,5.4,0,0,0,1,0,0,250,250,0,0.0,0.0,0.0,0.0,0,0,0.0,0,0.0,-1,0.0,,0.0,0,0.0,0.3257
19563,0,,,249,253,239,234,,0.04,0.08,1.67,0,0,1,0.09,,67,4716,7,36,55,0.645,0.0,572,4.91,13.0,0.0,1,28.4,2.69,5.7,0,0,0,1,0,,,,,,,,,,,,,,,,,,,,
19583,0,,,249,253,238,234,,0.01,0.1,1.85,0,-0,-0,0.1,,67,4709,7,36,55,0.645,0.0,569,4.9,13.0,0.0,1,28.3,2.69,5.7,0,0,0,1,0,,,,,,,,,,,,,,,,,,,,
19603,0,,,249,253,238,234,,0.01,0.14,2.02,-0,-2,-2,0.14,,67,4698,7,36,55,0.646,0.0,574,4.89,13.3,0.0,1,28.2,2.68,5.7,0,0,0,1,0,,,,,,,,,,,,,,,,,,,,
19623,0,,,249,253,238,234,,0.05,0.13,1.91,-0,-2,-2,0.14,,67,4746,7,36,55,0.646,0.0,572,4.88,13.2,0.0,1,28.8,2.71,5.7,0,0,0,1,0,,,,,,,,,,,,,,,,,,,,
19643,0,0,0,249,253,238,234,-1,0.09,0.08,1.76,0,-2,-1,0.12,1,67,4722,7,36,55,0.646,0.0,572,4.88,13.3,0.0,1,28.5,2.69,5.7,0,0,0,1,0,0,250,250,0,0.0,0.0,0.0,0.0,0,0,0.0,0,0.0,-1,0.0,0.0,0.0,0,0.0,0.3274
19663,0,,,249,253,238,234,,0.09,0.06,1.62,0,-0,0,0.11,,67,4770,7,36,55,0.646,0.0,578,4.85,13.0,0.0,1,29.4,2.73,5.9,0,0,0,1,0,,,,,,,,,,,,,,,,,,,,
19683,0,,,249,253,238,234,,0.05,0.06,1.66,0,1,1,0.07,,67,4733,7,36,55,0.646,0.0,573,4.83,13.0,0.0,1,28.7,2.7,5.9,0,0,0,1,0,,,,,,,,,,,,,,,,,,,,
19703,0,,,249,253,238,234,,-0.0,0.07,1.84,0,0,-0,0.07,,67,4725,7,36,55,0.646,0.0,575,4.93,13.2,0.0,1,28.5,2.7,5.9,0,0,0,1,0,,,,,,,,,,,,,,,,,,,,
19723,0,,,249,253,238,234,,-0.01,0.11,1.94,-0,-0,-1,0.11,,67,4713,7,36,55,0.646,0.0,578,4.9,13.2,0.0,1,28.4,2.69,5.9,0,0,0,1,0,,,,,,,,,,,,,,,,,,,,
19743,0,-1,2,249,253,238,234,-1,0.02,0.15,1.92,0,-1,-1,0.15,1,67,4693,7,36,55,0.646,0.0,567,4.89,13.3,0.0,1,28.1,2.67,5.9,0,0,0,1,0,0,250,250,0,0.0,0.0,0.0,0.0,0,0,0.0,0,0.0,-1,0.0,,0.0,0,0.0,0.329
19763,0,,,249,253,238,234,,0.07,0.1,1.77,0,-2,-2,0.12,,67,4750,7,36,55,0.646,0.0,573,4.88,13.3,0.0,1,28.9,1.62,5.9,0,0,0,1,0,,,,,,,,,,,,,,,,,,,,
19783,0,,,249,253,238,234,,0.1,0.05,1.64,0,-1,-1,0.11,,67,4727,7,36,56,0.646,0.0,572,4.9,13.3,0.0,1,28.9,2.7,5.9,0,0,0,1,0,,,,,,,,,,,,,,,,,,,,
19803,0,,,249,253,238,234,,0.09,0.04,1.51,0,0,1,0.1,,67,4711,7,36,55,0.646,0.0,567,4.86,12.9,0.0,1,28.4,1.59,5.9,0,0,0,1,0,,,,,,,,,,,,,,,,,,,,
19823,0,,,249,253,238,234,,0.06,0.03,1.52,0,0,1,0.06,,67,4694,7,36,55,0.646,0.0,571,4.9,12.9,0.0,1,28.1,2.67,5.9,0,0,0,1,0,,,,,,,,,,,,,,,,,,,,
19843,0,-1,2,249,252,239,234,-1,0.01,0.02,1.68,-0,0,1,0.02,1,67,4718,7,36,55,0.647,0.0,564,4.91,12.9,0.0,1,28.5,2.69,5.9,0,0,0,1,0,0,250,250,0,0.0,0.0,0.0,0.0,0,0,0.0,0,0.0,-1,0.0,0.0,0.0,0,0.0,0.3307
19863,0,,,249,253,238,234,,-0.01,0.06,1.86,-0,-1,-0,0.06,,67,4673,7,36,55,0.647,0.0,572,4.91,13.1,0.0,1,27.9,2.66,5.8,0,0,0,1,0,,,,,,,,,,,,,,,,,,,,
19883,0,,,249,253,238,234,,-0.0,0.08,2.03,-0,-2,-1,0.08,,67,4644,7,36,55,0.647,0.0,567,4.88,13.2,0.0,1,27.5,2.64,5.8,0,0,0,1,0,,,,,,,,,,,,,,,,,,,,
19903,0,,,249,252,238,234,,0.03,0.1,2.02,-0,-2,-2,0.11,,67,4676,7,36,55,0.647,0.0,561,4.91,13.3,0.0,1,27.9,2.66,5.8,0,0,0,1,0,,,,,,,,,,,,,,,,,,,,
19923,0,,,249,252,238,234,,0.06,0.11,1.86,-0,-2,-2,0.13,,67,4636,7,36,56,0.647,0.0,572,4.91,13.3,0.0,1,27.7,2.63,5.8,0,0,0,1,0,,,,,,,,,,,,,,,,,,,,
19943,0,-1,3,249,253,238,234,-2,0.1,0.08,1.72,-0,-1,-1,0.12,1,67,4649,7,36,56,0.647,0.0,562,4.85,13.2,0.0,1,27.9,1.54,5.8,0,0,0,1,0,0,250,250,0,0.0,0.0,0.0,0.0,0,0,0.0,0,0.0,-1,0.0,,0.0,0,0.0,0.3324
19963,0,,,249,253,238,234,,0.11,0.05,1.59,0,-0,0,0.12,,67,4675,7,36,56,0.647,0.0,562,4.88,13.1,0.0,1,28.2,1.56,5.7,0,0,0,1,0,,,,,,,,,,,,,,,,,,,,
19983,0,,,249,253,238,234,,0.09,0.03,1.46,0,1,1,0.1,,67,4678,7,36,55,0.648,0.0,569,4.88,12.9,0.0,1,27.9,1.56,5.7,0,0,0,1,0,,,,,,,,,,,,,,,,,,,,
20003,0,,,249,253,238,234,,0.06,0.03,1.53,0,1,2,0.07,,67,4734,7,36,56,0.647,0.0,563,4.91,13.0,0.0,1,29.0,2.7,5.7,0,0,0,1,0,,,,,,,,,,,,,,,,,,,,
20023,0,,,249,253,238,234,,0.01,0.05,1.72,-0,0,0,0.05,,67,4693,7,36,56,0.648,0.0,575,4.91,13.0,0.0,1,28.4,2.67,5.7,0,0,0,1,0,,,,,,,,,,,,,,,,,,,,
20043,0,-0,1,249,253,239,234,-1,0.0,0.09,1.89,-0,-1,-1,0.09,1,67,4707,7,36,56,0.647,0.0,571,4.91,13.2,0.0,1,28.6,2.68,5.7,0,0,0,1,0,0,250,250,0,0.0,0.0,0.0,0.0,0,0,0.0,0,0.0,-1,0.0,0.0,0.0,0,0.0,0.334
20063,0,,,249,253,238,234,,0.05,0.08,1.89,-0,-2,-2,0.1,,67,4745,7,36,56,0.648,0.0,567,4.88,13.3,0.0,1,29.1,2.71,5.9,0,0,0,1,0,,,,,,,,,,,,,,,,,,,,
20083,0,,,249,253,238,234,,0.09,0.04,1.75,-0,-1,-1,0.1,,67,4724,7,36,56,0.648,0.0,578,4.88,13.2,0.0,1,28.8,1.6,5.9,0,0,0,1,0,,,,,,,,,,,,,,,,,,,,
20103,0,,,249,253,238,234,,0.1,0.02,1.61,0,-0,0,0.11,,67,4755,7,36,56,0.648,0.0,569,4.84,13.0,0.0,1,29.4,1.63,5.9,0,0,0,1,0,,,,,,,,,,,,,,,,,,,,
20123,0,,,249,253,238,234,,0.08,0.07,1.61,0,0,1,0.11,,67,4738,7,36,56,0.648,0.0,575,4.84,13.0,0.0,1,29.0,1.61,5.9,0,0,0,1,0,,,,,,,,,,,,,,,,,,,,
20143,0,-0,2,249,253,238,234,-2,0.02,0.07,1.77,0,0,1,0.07,1,67,4736,7,36,56,0.647,0.0,575,4.9,12.9,0.0,1,29.0,2.7,5.9,0,0,0,1,0,0,250,250,0,0.0,0.0,0.0,0.0,0,0,0.0,0,0.0,-1,0.0,,0.0,0,0.0,0.3357
20163,0,,,249,253,239,234,,0.01,0.08,1.94,-0,-1,-1,0.08,,67,4761,7,36,56,0.647,0.0,571,4.9,13.3,0.0,1,29.3,2.72,5.9,0,0,0,1,0,,,,,,,,,,,,,,,,,,,,
20183,0,,,249,252,238,234,,0.05,0.12,1.84,0,-1,-1,0.13,,67,4743,7,36,56,0.647,0.0,580,4.9,13.3,0.0,1,29.1,2.71,5.9,0,0,0,1,0,,,,,,,,,,,,,,,,,,,,
20203,0,,,249,253,238,234,,0.08,0.06,1.7,0,-1,-0,0.1,,67,4736,7,36,56,0.646,0.0,575,4.9,13.3,0.0,1,29.0,2.7,5.9,0,0,0,1,0,,,,,,,,,,,,,,,,,,,,
20223,0,,,249,253,238,234,,0.1,0.0,1.57,0,0,1,0.1,,67,4744,8,36,56,0.645,0.0,568,4.86,13.1,0.0,1,28.8,2.71,5.9,0,0,0,1,0,,,,,,,,,,,,,,,,,,,,
20243,0,-1,2,249,253,238,234,-2,0.07,0.03,1.46,0,1,2,0.08,1,67,4705,8,36,56,0.646,0.0,577,4.96,13.3,0.0,1,28.6,2.72,5.9,0,0,0,1,0,0,250,250,0,0.0,0.0,0.0,0.0,0,0,0.0,0,0.0,-1,0.0,0.0,0.0,0,0.0,0.3374
20263,0,,,249,253,238,234,,0.04,0.02,1.46,0,1,2,0.04,,67,4554,8,36,56,0.648,0.0,567,4.98,13.2,0.0,1,26.7,1.48,5.7,0,0,0,1,0,,,,,,,,,,,,,,,,,,,,
20283,0,,,249,253,239,234,,0.03,0.01,1.35,0,1,2,0.04,,67,4396,8,36,56,0.65,0.0,555,4.92,13.1,0.0,1,24.7,2.49,5.7,0,0,0,1,0,,,,,,,,,,,,,,,,,,,,
20303,0,,,249,253,238,234,,0.02,0.02,1.25,0,2,4,0.02,,67,4557,7,36,56,0.649,0.0,539,4.88,12.9,0.0,1,26.7,1.49,5.7,0,0,0,1,0,,,,,,,,,,,,,,,,,,,,
20323,0,,,249,253,239,234,,-0.02,0.03,1.33,0,3,3,0.04,,67,4602,8,36,56,0.649,0.0,550,4.92,13.0,0.0,1,27.3,2.62,5.7,0,0,0,1,0,,,,,,,,,,,,,,,,,,,,
20343,0,0,2,249,253,239,234,-2,-0.05,0.03,1.4,0,3,3,0.06,1,67,4549,7,36,56,0.648,0.0,557,4.91,12.9,0.0,1,26.6,2.58,5.7,0,0,0,1,0,0,250,250,0,0.0,0.0,0.0,0.0,0,0,0.0,0,0.0,-1,0.0,,0.0,0,0.0,0.339
20363,0,,,249,253,239,234,,-0.08,0.04,1.6,0,2,2,0.1,,67,4661,7,36,57,0.649,0.0,550,4.87,13.2,0.0,1,28.3,2.65,5.5,0,0,0,1,0,,,,,,,,,,,,,,,,,,,,
20383,0,,,249,253,239,234,,-0.11,0.06,1.79,0,0,0,0.12,,67,4665,7,36,56,0.649,0.0,566,4.89,13.2,0.0,1,28.1,2.65,5.5,0,0,0,1,0,,,,,,,,,,,,,,,,,,,,
20403,0,,,249,253,238,234,,-0.08,0.07,1.96,-0,-1,-1,0.11,,67,4656,7,36,57,0.65,0.0,560,4.88,13.2,0.0,1,28.3,2.65,5.5,0,0,0,1,0,,,,,,,,,,,,,,,,,,,,
20423,0,,,249,253,239,234,,-0.02,0.06,1.89,-0,-2,-2,0.07,,67,4751,7,36,57,0.651,0.0,562,4.88,13.3,0.0,1,29.5,2.72,5.5,0,0,0,1,0,,,,,,,,,,,,,,,,,,,,
20443,0,-0,2,249,253,238,234,-2,0.02,0.02,1.74,-0,-1,-1,0.03,1,67,4725,8,36,56,0.651,0.0,576,4.83,13.1,0.0,1,28.8,1.6,5.5,0,0,0,1,0,0,250,250,0,0.0,0.0,0.0,0.0,0,0,0.0,0,0.0,-1,0.0,0.0,0.0,0,0.0,0.3407
20463,0,,,249,253,239,234,,0.03,0.02,1.61,0,-0,1,0.04,,67,4780,8,36,56,0.651,0.0,570,4.86,12.9,0.0,1,29.6,2.73,5.9,0,0,0,1,0,,,,,,,,,,,,,,,,,,,,
20483,0,,,249,253,238,234,,-0.01,0.05,1.79,0,-0,0,0.05,,67,4766,7,36,56,0.65,0.0,576,4.91,13.1,0.0,1,29.4,2.73,5.9,0,0,0,1,0,,,,,,,,,,,,,,,,,,,,
20503,0,,,249,253,238,234,,-0.05,0.02,1.96,-0,-1,-1,0.05,,67,4769,7,36,56,0.65,0.0,577,4.92,13.2,0.0,1,29.4,2.73,5.9,0,0,0,1,0,,,,,,,,,,,,,,,,,,,,
20523,0,,,249,253,238,234,,-0.01,0.05,2.02,-0,-2,-2,0.05,,67,4796,7,36,56,0.648,0.0,576,4.96,13.3,0.0,1,29.8,2.75,5.9,0,0,0,1,0,,,,,,,,,,,,,,,,,,,,
20543,0,0,1,249,251,238,234,-2,0.04,0.03,1.87,0,-1,-1,0.05,1,67,4783,7,36,57,0.647,0.0,580,4.87,13.2,0.0,1,29.9,2.73,5.9,0,0,0,1,0,0,250,250,0,0.0,0.0,0.0,0.0,0,0,0.0,0,0.0,-1,0.0,,0.0,0,0.0,0.3424
20563,0,,,249,253,238,234,,0.07,-0.03,1.72,0,-1,0,0.08,,67,4801,7,36,57,0.646,0.0,579,4.88,13.0,0.0,1,30.1,1.64,6.1,0,0,0,1,0,,,,,,,,,,,,,,,,,,,,
20583,0,,,249,253,238,234,,0.03,0.02,1.7,0,-0,1,0.04,,67,4781,7,36,57,0.647,0.0,573,4.87,13.0,0.0,1,29.9,2.73,6.1,0,0,0,1,0,,,,,,,,,,,,,,,,,,,,
20603,0,,,249,253,238,234,,-0.02,-0.01,1.88,0,-1,-1,0.02,,67,4796,7,36,57,0.647,0.0,581,4.86,13.0,0.0,1,30.1,2.74,6.1,0,0,0,1,0,,,,,,,,,,,,,,,,,,,,
20623,0,,,249,253,239,234,,-0.01,0.02,2.01,-0,-2,-1,0.02,,67,4812,7,36,57,0.648,0.0,579,4.87,13.3,0.0,1,30.3,2.76,6.1,0,0,0,1,0,,,,,,,,,,,,,,,,,,,,
20643,0,-1,2,249,253,239,234,-2,0.04,0.02,1.85,-0,-1,-1,0.05,1,67,4780,7,36,57,0.648,0.0,577,4.86,13.2,0.0,1,29.9,1.63,6.1,0,0,0,1,0,0,250,250,0,0.0,0.0,0.0,0.0,0,0,0.0,0,0.0,-1,0.0,0.0,0.0,0,0.0,0.344
20663,0,,,249,253,239,234,,0.08,-0.06,1.71,-0,-0,0,0.1,,67,4795,8,36,57,0.647,0.0,578,4.83,13.1,0.0,1,29.9,1.64,6.0,0,0,0,1,0,,,,,,,,,,,,,,,,,,,,
20683,0,,,249,253,239,234,,0.05,-0.02,1.62,0,0,2,0.06,,67,4763,7,36,57,0.647,0.0,570,4.88,12.9,0.0,1,29.6,2.72,6.0,0,0,0,1,0,,,,,,,,,,,,,,,,,,,,
20703,0,,,249,253,238,234,,-0.0,-0.02,1.81,-0,-0,0,0.02,,67,4795,7,36,57,0.648,0.0,578,4.94,13.2,0.0,1,30.1,2.74,6.0,0,0,0,1,0,,,,,,,,,,,,,,,,,,,,
20723,0,,,249,253,238,234,,-0.02,0.01,1.97,-0,-1,-1,0.03,,67,4781,7,36,57,0.648,0.0,583,4.93,13.3,0.0,1,29.9,2.73,6.0,0,0,0,1,0,,,,,,,,,,,,,,,,,,,,
20743,0,0,2,249,252,238,234,-2,0.02,0.05,1.87,-0,-1,-1,0.05,1,67,4755,7,36,57,0.649,0.0,574,4.92,13.3,0.0,1,29.5,2.72,6.0,0,0,0,1,0,0,250,250,0,0.0,0.0,0.0,0.0,0,0,0.0,0,0.0,-1,0.0,,0.0,0,0.0,0.3457
20763,0,,,249,253,238,234,,0.05,-0.01,1.73,-0,-1,-0,0.05,,67,4794,7,36,57,0.649,0.0,580,4.9,13.2,0.0,1,30.1,2.74,6.0,0,0,0,1,0,,,,,,,,,,,,,,,,,,,,
20783,0,,,249,253,238,234,,0.06,-0.05,1.59,0,0,1,0.08,,67,4751,7,36,57,0.649,0.0,570,4.85,13.1,0.0,1,29.6,1.62,6.0,0,0,0,1,0,,,,,,,,,,,,,,,,,,,,
20803,0,,,249,253,238,234,,0.0,-0.02,1.69,-0,1,1,0.02,,67,4838,8,36,57,0.649,0.0,574,4.91,13.1,0.0,1,30.6,2.76,6.0,0,0,0,1,0,,,,,,,,,,,,,,,,,,,,
20823,0,,,249,253,238,234,,-0.03,0.01,1.87,-0,-1,-1,0.03,,67,4838,7,36,57,0.649,0.0,590,4.94,13.3,0.0,1,30.6,2.76,6.0,0,0,0,1,0,,,,,,,,,,,,,,,,,,,,
20843,0,-0,1,249,252,238,234,-2,0.01,0.05,1.72,-0,-1,-1,0.05,1,67,4821,7,36,57,0.649,0.0,578,4.88,13.3,0.0,1,30.4,2.76,6.0,0,0,0,1,0,0,250,250,0,0.0,0.0,0.0,0.0,0,0,0.0,0,0.0,-1,0.0,0.0,0.0,0,0.0,0.3474
20863,0,,,249,253,238,234,,0.05,-0.02,1.59,-0,1,0,0.06,,67,4852,8,36,57,0.649,0.0,581,4.87,13.1,0.0,1,30.8,1.67,6.1,0,0,0,1,0,,,,,,,,,,,,,,,,,,,,
20883,0,,,249,253,239,234,,0.0,0.01,1.78,0,1,2,0.01,,67,4817,8,36,57,0.649,0.0,582,4.86,13.1,0.0,1,30.4,1.65,6.1,0,0,0,1,0,,,,,,,,,,,,,,,,,,,,
20903,0,,,249,253,239,234,,-0.01,0.01,1.95,-0,-0,-0,0.01,,67,4847,7,36,57,0.649,0.0,580,4.89,13.0,0.0,1,30.7,2.76,6.1,0,0,0,1,0,,,,,,,,,,,,,,,,,,,,
20923,0,,,249,253,238,234,,0.03,0.01,1.8,-0,-1,-1,0.04,,67,4818,7,36,57,0.649,0.0,591,4.97,13.2,0.0,1,30.4,2.75,6.1,0,0,0,1,0,,,,,,,,,,,,,,,,,,,,
20943,0,0,2,249,251,238,234,-2,0.08,-0.05,1.66,-0,-0,-1,0.09,1,67,4812,7,36,57,0.649,0.0,581,4.87,13.2,0.0,1,30.3,1.65,6.1,0,0,0,1,0,0,250,250,0,0.0,0.0,0.0,0.0,0,0,0.0,0,0.0,-1,0.0,,0.0,0,0.0,0.349
20963,0,,,249,253,238,234,,0.07,-0.03,1.59,-0,1,0,0.08,,67,4790,8,36,57,0.649,0.0,573,4.82,13.0,0.0,1,29.9,2.74,6.1,0,0,0,1,0,,,,,,,,,,,,,,,,,,,,
20983,0,,,249,253,238,234,,0.02,-0.0,1.77,-0,1,1,0.02,,67,4791,8,36,57,0.649,0.0,577,4.85,13.0,0.0,1,30.0,2.74,6.1,0,0,0,1,0,,,,,,,,,,,,,,,,,,,,
21003,0,,,249,253,238,234,,0.01,0.01,1.94,-0,0,-0,0.01,,67,4812,7,36,57,0.65,0.0,578,4.93,13.2,0.0,1,30.3,2.75,6.1,0,0,0,1,0,,,,,,,,,,,,,,,,,,,,
21023,0,,,249,253,239,234,,0.05,0.03,1.83,-0,-1,-1,0.06,,67,4801,7,36,58,0.65,0.0,580,4.89,13.3,0.0,1,30.4,2.74,6.1,0,0,0,1,0,,,,,,,,,,,,,,,,,,,,
21043,0,-0,2,249,252,238,234,-2,0.09,-0.03,1.68,-0,-0,-1,0.1,1,67,4820,7,36,57,0.65,0.0,582,4.88,13.3,0.0,1,30.4,1.66,6.1,0,0,0,1,0,0,250,250,0,0.0,0.0,0.0,0.0,0,0,0.0,0,0.0,-1,0.0,0.0,0.0,0,0.0,0.3507
21063,0,,,249,253,238,234,,0.09,-0.02,1.58,-0,1,0,0.1,,67,4774,8,36,57,0.65,0.0,574,4.87,13.2,0.0,1,29.8,2.73,6.1,0,0,0,1,0,,,,,,,,,,,,,,,,,,,,
21083,0,,,249,253,238,234,,0.04,0.01,1.76,-0,1,2,0.04,,67,4757,8,36,57,0.651,0.0,576,4.84,13.0,0.0,1,29.6,1.62,6.1,0,0,0,1,0,,,,,,,,,,,,,,,,,,,,
21103,0,,,249,253,238,234,,0.01,-0.0,1.94,-0,1,0,0.01,,67,4779,8,36,57,0.651,0.0,572,4.89,13.2,0.0,1,29.9,2.73,6.1,0,0,0,1,0,,,,,,,,,,,,,,,,,,,,
21123,0,,,249,253,238,234,,0.04,0.02,1.96,-0,-0,-1,0.04,,67,4778,8,36,57,0.651,0.0,575,4.91,13.3,0.0,1,29.8,2.73,6.1,0,0,0,1,0,,,,,,,,,,,,,,,,,,,,
21143,0,-1,1,249,251,238,234,-2,0.08,-0.01,1.81,-0,-0,-1,0.08,1,67,4786,7,36,57,0.652,0.0,577,4.88,13.3,0.0,1,29.9,2.74,6.1,0,0,0,1,0,0,250,250,0,0.0,0.0,0.0,0.0,0,0,0.0,0,0.0,-1,0.0,,0.0,0,0.0,0.3524
21163,0,,,249,253,239,234,,0.11,-0.06,1.67,-0,0,-0,0.12,,67,4795,8,36,57,0.653,0.0,572,4.89,13.2,0.0,1,30.1,2.74,6.0,0,0,0,1,0,,,,,,,,,,,,,,,,,,,,
21183,0,,,249,253,238,234,,0.07,-0.01,1.69,-0,2,2,0.07,,67,4789,8,36,57,0.653,0.0,572,4.83,12.9,0.0,1,30.0,1.64,6.0,0,0,0,1,0,,,,,,,,,,,,,,,,,,,,
21203,0,,,249,253,239,234,,0.02,-0.02,1.87,-0,1,1,0.03,,67,4849,8,36,57,0.653,0.0,580,4.83,12.9,0.0,1,30.8,2.76,6.0,0,0,0,1,0,,,,,,,,,,,,,,,,,,,,
21223,0,,,249,253,238,234,,0.05,0.01,1.93,-0,-1,-1,0.05,,67,4871,7,36,57,0.654,0.0,582,4.95,13.2,0.0,1,31.0,2.77,6.0,0,0,0,1,0,,,,,,,,,,,,,,,,,,,,
21243,0,0,2,249,252,238,234,-2,0.1,-0.04,1.78,-0,0,-1,0.1,1,67,4854,7,36,58,0.654,0.0,582,4.87,13.2,0.0,1,31.1,1.67,6.0,0,0,0,1,0,0,250,250,0,0.0,0.0,0.0,0.0,0,0,0.0,0,0.0,-1,0.0,0.0,0.0,0,0.0,0.354
21263,0,,,249,253,238,234,,0.1,-0.05,1.65,-0,1,1,0.11,,67,4823,8,36,57,0.654,0.0,581,4.83,13.0,0.0,1,30.2,2.76,6.1,0,0,0,1,0,,,,,,,,,,,,,,,,,,,,
21283,0,,,249,253,238,234,,0.05,0.01,1.83,0,2,2,0.05,,67,4779,7,36,57,0.654,0.0,575,4.88,12.9,0.0,1,29.9,2.73,6.1,0,0,0,1,0,,,,,,,,,,,,,,,,,,,,
21303,0,,,249,253,238,234,,0.03,-0.01,1.99,-0,1,-0,0.03,,67,4841,8,36,57,0.654,0.0,583,4.95,13.2,0.0,1,30.7,2.76,6.1,0,0,0,1,0,,,,,,,,,,,,,,,,,,,,
21323,0,,,249,253,238,234,,0.08,-0.0,1.84,-0,-1,-1,0.08,,67,4846,7,36,58,0.654,0.0,584,4.92,13.3,0.0,1,31.0,2.76,6.1,0,0,0,1,0,,,,,,,,,,,,,,,,,,,,
21343,0,-1,0,249,252,238,234,-2,0.12,-0.07,1.7,-0,0,-0,0.13,1,67,4834,7,36,57,0.653,0.0,578,4.9,13.2,0.0,1,30.6,1.66,6.1,0,0,0,1,0,0,250,250,0,0.0,0.0,0.0,0.0,0,0,0.0,0,0.0,-1,0.0,,0.0,0,0.0,0.3557
21363,0,,,249,253,239,234,,0.09,-0.03,1.71,0,1,1,0.1,,67,4817,8,36,58,0.652,0.0,583,4.79,13.0,0.0,1,30.7,1.65,6.2,0,0,0,1,0,,,,,,,,,,,,,,,,,,,,
21383,0,,,249,253,238,234,,0.04,-0.01,1.88,0,1,1,0.04,,67,4796,8,36,57,0.652,0.0,574,4.84,12.9,0.0,1,30.1,2.74,6.2,0,0,0,1,0,,,,,,,,,,,,,,,,,,,,
21403,0,,,249,253,239,234,,0.05,0.01,2.05,-0,-1,-1,0.05,,67,4828,8,36,57,0.652,0.0,581,4.92,13.1,0.0,1,30.5,2.76,6.2,0,0,0,1,0,,,,,,,,,,,,,,,,,,,,
21423,0,,,249,253,238,234,,0.1,0.01,1.89,-0,-1,-1,0.1,,67,4816,7,36,58,0.651,0.0,583,4.87,13.3,0.0,1,30.6,2.75,6.2,0,0,0,1,0,,,,,,,,,,,,,,,,,,,,
21443,0,1,1,249,253,238,234,-2,0.13,-0.05,1.74,-0,0,-0,0.13,1,67,4808,8,36,58,0.65,0.0,572,4.85,13.2,0.0,1,30.5,1.64,6.2,0,0,0,1,0,0,250,250,0,0.0,0.0,0.0,0.0,0,0,0.0,0,0.0,-1,0.0,0.0,0.0,0,0.0,0.3574
21463,0,,,249,253,238,234,,0.09,0.01,1.81,-0,1,1,0.09,,67,4785,8,36,58,0.65,0.0,577,4.84,13.1,0.0,1,30.2,2.73,6.1,0,0,0,1,0,,,,,,,,,,,,,,,,,,,,
21483,0,,,249,253,238,234,,0.03,0.02,1.98,-0,0,1,0.04,,67,4766,8,36,57,0.65,0.0,578,4.91,13.1,0.0,1,29.7,2.72,6.1,0,0,0,1,0,,,,,,,,,,,,,,,,,,,,
21503,0,,,249,253,239,234,,0.04,0.03,2.13,-0,-1,-1,0.05,,67,4801,8,36,57,0.649,0.0,573,4.91,13.1,0.0,1,30.1,2.74,6.1,0,0,0,1,0,,,,,,,,,,,,,,,,,,,,
21523,0,,,249,253,239,234,,0.08,0.03,1.97,-0,-1,-1,0.09,,67,4779,7,36,58,0.649,0.0,578,4.88,13.3,0.0,1,30.2,2.73,6.1,0,0,0,1,0,,,,,,,,,,,,,,,,,,,,
21543,0,-1,2,249,253,238,234,-2,0.12,-0.03,1.82,-0,-1,-1,0.12,1,67,4768,8,36,58,0.648,0.0,571,4.85,13.2,0.0,1,30.0,2.72,6.1,0,0,0,1,0,0,250,250,0,0.0,0.0,0.0,0.0,0,0,0.0,0,0.0,-1,0.0,,0.0,0,0.0,0.359
21563,0,,,249,253,238,234,,0.11,-0.01,1.68,-0,0,0,0.11,,67,4790,8,36,57,0.648,0.0,571,4.83,13.0,0.0,1,30.0,1.64,6.1,0,0,0,1,0,,,,,,,,,,,,,,,,,,,,
21583,0,,,249,253,238,234,,0.06,0.02,1.85,-0,1,1,0.06,,67,4756,8,36,57,0.648,0.0,579,4.83,13.0,0.0,1,29.6,2.72,6.1,0,0,0,1,0,,,,,,,,,,,,,,,,,,,,
21603,0,,,249,253,239,234,,0.02,0.0,2.02,-0,0,-1,0.02,,67,4790,8,36,57,0.648,0.0,571,4.94,13.2,0.0,1,30.0,2.74,6.1,0,0,0,1,0,,,,,,,,,,,,,,,,,,,,
21623,0,,,249,253,238,234,,0.05,0.01,2.0,-0,-1,-2,0.05,,67,4761,8,36,57,0.649,0.0,576,4.91,13.3,0.0,1,29.6,2.72,6.1,0,0,0,1,0,,,,,,,,,,,,,,,,,,,,
21643,0,-1,2,249,253,238,234,-2,0.1,-0.02,1.85,-0,-1,-2,0.1,1,67,4744,8,36,57,0.649,0.0,573,4.91,13.3,0.0,1,29.4,2.71,6.1,0,0,0,1,0,0,250,250,0,0.0,0.0,0.0,0.0,0,0,0.0,0,0.0,-1,0.0,0.0,0.0,0,0.0,0.3607
21663,0,,,249,253,238,234,,0.13,-0.07,1.7,-0,0,-1,0.14,,67,4772,8,36,57,0.649,0.0,571,4.89,13.3,0.0,1,29.8,2.73,6.0,0,0,0,1,0,,,,,,,,,,,,,,,,,,,,
21683,0,,,249,253,238,234,,0.1,-0.03,1.68,-0,1,1,0.1,,67,4778,8,36,57,0.649,0.0,575,4.84,13.1,0.0,1,30.0,2.73,6.0,0,0,0,1,0,,,,,,,,,,,,,,,,,,,,
21703,0,,,249,253,239,234,,0.04,-0.03,1.86,-0,1,0,0.05,,67,4826,8,36,57,0.649,0.0,575,4.85,12.9,0.0,1,30.5,2.76,6.0,0,0,0,1,0,,,,,,,,,,,,,,,,,,,,
21723,0,,,249,253,238,234,,0.04,-0.01,1.97,-0,-1,-2,0.04,,67,4789,8,36,57,0.649,0.0,578,4.95,13.3,0.0,1,30.0,2.74,6.0,0,0,0,1,0,,,,,,,,,,,,,,,,,,,,
21743,0,-1,2,249,253,238,234,-1,0.09,-0.01,1.81,-0,-0,-2,0.09,1,67,4768,8,36,57,0.65,0.0,580,4.86,13.3,0.0,1,29.7,2.73,6.0,0,0,0,1,0,0,250,250,0,0.0,0.0,0.0,0.0,0,0,0.0,0,0.0,-1,0.0,,0.0,0,0.0,0.3624
21763,0,,,249,253,238,234,,0.12,-0.08,1.67,-0,0,-1,0.14,,67,4757,8,36,58,0.65,0.0,572,4.87,13.3,0.0,1,29.9,2.72,6.0,0,0,0,1,0,,,,,,,,,,,,,,,,,,,,
21783,0,,,249,253,239,234,,0.1,-0.06,1.54,-0,1,1,0.12,,67,4757,8,36,57,0.65,0.0,573,4.85,13.2,0.0,1,29.6,1.62,6.0,0,0,0,1,0,,,,,,,,,,,,,,,,,,,,
21803,0,,,249,253,238,234,,0.04,-0.03,1.73,0,2,1,0.05,,67,4788,8,36,57,0.65,0.0,572,4.82,13.0,0.0,1,30.0,2.73,6.0,0,0,0,1,0,,,,,,,,,,,,,,,,,,,,
21823,0,,,249,253,238,234,,0.01,0.0,1.91,-0,0,-1,0.01,,67,4769,7,36,57,0.65,0.0,573,4.94,13.2,0.0,1,29.7,2.73,6.0,0,0,0,1,0,,,,,,,,,,,,,,,,,,,,
21843,0,-0,0,249,253,238,234,-3,0.04,0.05,1.82,-0,0,-1,0.06,1,67,4736,8,36,57,0.651,0.0,578,4.9,13.3,0.0,1,29.3,2.7,6.0,0,0,0,1,0,0,250,250,0,0.0,0.0,0.0,0.0,0,0,0.0,0,0.0,-1,0.0,0.0,0.0,0,0.0,0.364
21863,0,,,249,253,238,234,,0.07,-0.0,1.68,0,0,-1,0.07,,67,4748,8,36,57,0.651,0.0,575,4.88,13.3,0.0,1,29.4,2.71,5.9,0,0,0,1,0,,,,,,,,,,,,,,,,,,,,
21883,0,,,249,253,239,234,,0.1,-0.06,1.55,-0,1,0,0.12,,67,4757,8,36,57,0.651,0.0,565,4.83,13.1,0.0,1,29.6,1.62,5.9,0,0,0,1,0,,,,,,,,,,,,,,,,,,,,
21903,0,,,249,253,238,234,,0.06,-0.02,1.5,0,2,2,0.06,,67,4802,8,36,57,0.651,0.0,572,4.82,13.1,0.0,1,29.9,2.74,5.9,0,0,0,1,0,,,,,,,,,,,,,,,,,,,,
21923,0,,,249,253,239,234,,0.0,0.01,1.7,0,1,1,0.01,,67,4754,8,36,57,0.65,0.0,571,4.9,13.1,0.0,1,29.5,2.72,5.9,0,0,0,1,0,,,,,,,,,,,,,,,,,,,,
21943,0,-1,2,249,253,238,234,-2,-0.0,0.05,1.8,-0,1,-0,0.05,1,67,4748,8,36,57,0.651,0.0,573,4.93,13.1,0.0,1,29.4,2.71,5.9,0,0,0,1,0,0,250,250,0,0.0,0.0,0.0,0.0,0,0,0.0,0,0.0,-1,0.0,,0.0,0,0.0,0.3657
21963,0,,,249,253,238,234,,0.04,0.07,1.66,-0,0,-1,0.08,,67,4750,8,36,57,0.651,0.0,576,4.88,13.3,0.0,1,29.5,2.72,5.9,0,0,0,1,0,,,,,,,,,,,,,,,,,,,,
21983,0,,,249,253,238,234,,0.09,0.01,1.53,-0,0,-0,0.09,,67,4762,8,36,57,0.651,0.0,567,4.9,13.3,0.0,1,29.6,2.72,5.9,0,0,0,1,0,,,,,,,,,,,,,,,,,,,,
22003,0,,,249,253,239,234,,0.1,-0.01,1.42,-0,1,1,0.1,,67,4766,8,36,57,0.651,0.0,570,4.82,13.0,0.0,1,29.4,1.61,5.9,0,0,0,1,0,,,,,,,,,,,,,,,,,,,,
22023,0,,,249,253,238,234,,0.05,-0.0,1.47,0,2,2,0.05,,67,4733,8,36,57,0.651,0.0,568,4.82,13.1,0.0,1,29.3,1.6,5.9,0,0,0,1,0,,,,,,,,,,,,,,,,,,,,
22043,0,-0,2,249,253,238,234,-2,0.01,-0.02,1.67,-0,1,2,0.02,1,67,4755,8,36,57,0.651,0.0,567,4.87,13.1,0.0,1,29.5,2.72,5.9,0,0,0,1,0,0,250,250,0,0.0,0.0,0.0,0.0,0,0,0.0,0,0.0,-1,0.0,0.0,0.0,0,0.0,0.3674
22063,0,,,249,253,238,234,,-0.0,0.01,1.81,-0,-0,-0,0.01,,67,4728,8,36,57,0.652,0.0,576,4.9,13.2,0.0,1,29.2,2.7,6.0,0,0,0,1,0,,,,,,,,,,,,,,,,,,,,
22083,0,,,249,253,238,234,,0.05,0.04,1.77,-0,-1,-1,0.06,,67,4790,9,36,58,0.652,0.0,566,4.86,13.3,0.0,1,30.3,2.73,6.0,0,0,0,1,0,,,,,,,,,,,,,,,,,,,,
22103,0,,,249,251,238,234,,0.09,-0.01,1.63,-0,-1,0,0.1,,67,4831,9,36,58,0.651,0.0,576,4.88,13.3,0.0,1,30.8,2.75,6.0,0,0,0,1,0,,,,,,,,,,,,,,,,,,,,
22123,0,,,249,253,238,234,,0.08,-0.0,1.51,-0,1,2,0.08,,67,4802,9,36,58,0.65,0.0,578,4.82,13.0,0.0,1,30.5,1.64,6.0,0,0,0,1,0,,,,,,,,,,,,,,,,,,,,
22143,0,1,1,249,253,238,234,-2,0.02,0.03,1.7,-0,-0,1,0.03,1,67,4866,9,36,59,0.649,0.0,573,4.92,13.1,0.0,1,31.6,2.76,6.0,0,0,0,1,0,0,250,250,0,0.0,0.0,0.0,0.0,0,0,0.0,0,0.0,-1,0.0,,0.0,0,0.0,0.369
22163,0,,,249,253,238,234,,0.03,0.05,1.88,-0,-3,-2,0.06,,67,4872,9,36,59,0.65,0.0,587,4.93,13.3,0.0,1,31.7,2.76,6.2,0,0,0,1,0,,,,,,,,,,,,,,,,,,,,
22183,0,,,249,253,239,234,,0.1,-0.01,1.73,-0,-1,-1,0.1,,67,4940,9,36,60,0.65,0.0,581,4.86,13.2,0.0,1,32.8,2.78,6.2,0,0,0,1,0,,,,,,,,,,,,,,,,,,,,
22203,0,,,249,251,239,234,,0.06,0.03,1.6,0,2,2,0.06,,67,4948,9,36,60,0.649,0.0,585,4.84,12.9,0.0,1,32.9,1.7,6.2,0,0,0,1,0,,,,,,,,,,,,,,,,,,,,
22223,0,,,249,253,238,234,,0.03,0.08,1.78,-0,-2,-1,0.08,,67,4989,9,36,61,0.65,0.0,599,4.96,13.3,0.0,1,33.8,2.78,6.2,0,0,0,1,0,,,,,,,,,,,,,,,,,,,,
22243,0,-1,2,249,253,238,234,-1,0.09,0.02,1.64,-0,-2,-2,0.09,1,67,5051,9,36,61,0.649,0.0,600,4.86,13.2,0.0,1,34.0,2.76,6.2,0,0,0,1,0,0,250,250,0,0.0,0.0,0.0,0.0,0,0,0.0,0,0.0,-1,0.0,0.0,0.0,0,0.0,0.3707
22263,0,,,249,253,239,234,,0.03,0.08,1.52,0,2,2,0.08,,67,5104,9,36,61,0.648,0.0,599,4.85,13.0,0.0,1,34.0,2.74,6.4,0,0,0,1,0,,,,,,,,,,,,,,,,,,,,
22283,0,,,249,253,238,234,,0.08,0.13,1.71,-0,-4,-4,0.15,,67,5182,9,36,61,0.648,0.0,613,4.93,13.3,0.0,1,34.0,2.69,6.4,0,0,0,1,0,,,,,,,,,,,,,,,,,,,,
22303,0,,,249,253,238,234,,0.01,0.08,1.58,0,2,2,0.08,,67,5259,9,36,61,0.647,0.0,611,4.85,13.1,0.0,1,34.0,1.54,6.4,0,0,0,1,0,,,,,,,,,,,,,,,,,,,,
22323,0,,,249,253,238,234,,0.09,0.14,1.76,0,-5,-3,0.16,,67,5299,9,36,61,0.647,0.0,616,4.95,13.3,0.0,1,34.0,2.61,6.4,0,0,0,1,0,,,,,,,,,,,,,,,,,,,,
22343,0,-0,1,249,252,238,234,-2,-0.01,0.13,1.63,0,1,4,0.13,1,67,5352,9,36,61,0.647,0.0,619,4.81,13.0,0.0,1,34.0,2.58,6.4,0,0,0,1,0,0,250,250,0,0.0,0.0,0.0,0.0,0,0,0.0,0,0.0,-1,0.0,,0.0,0,0.0,0.3724
22363,0,,,249,253,238,234,,0.1,0.17,1.81,0,-7,-2,0.2,,67,5397,9,36,61,0.646,0.0,626,4.93,13.3,0.0,1,34.0,1.45,6.3,0,0,0,1,0,,,,,,,,,,,,,,,,,,,,
22383,0,,,249,253,238,234,,0.04,0.2,1.85,0,0,2,0.2,,67,5430,9,36,61,0.647,0.0,623,4.9,13.2,0.0,1,34.0,2.53,6.3,0,0,0,1,0,,,,,,,,,,,,,,,,,,,,
22403,0,,,249,253,238,234,,0.03,0.11,1.71,0,2,2,0.11,,67,5482,9,36,61,0.646,0.0,622,4.86,13.1,0.0,1,34.0,2.5,6.3,0,0,0,1,0,,,,,,,,,,,,,,,,,,,,
22423,0,,,249,253,238,234,,0.11,0.14,1.88,0,-4,-3,0.18,,67,5514,9,36,61,0.646,0.0,630,4.93,13.3,0.0,1,34.0,2.48,6.3,0,0,0,1,0,,,,,,,,,,,,,,,,,,,,
22443,0,0,0,249,253,238,234,-2,0.05,0.17,1.76,0,0,1,0.18,1,67,5542,9,36,61,0.645,0.0,630,4.9,13.2,0.0,1,34.0,2.46,6.3,0,0,0,1,0,0,250,250,0,0.0,0.0,0.0,0.0,0,0,0.0,0,0.0,-1,0.0,0.0,0.0,0,0.0,0.374
22463,0,,,249,252,239,234,,-0.0,0.12,1.63,0,3,3,0.12,,67,5590,9,36,61,0.644,0.0,626,4.83,13.0,0.0,1,34.0,2.44,6.3,0,0,0,1,0,,,,,,,,,,,,,,,,,,,,
22483,0,,,249,253,238,234,,0.1,0.09,1.81,0,-3,-1,0.13,,67,5622,9,36,61,0.644,0.0,627,4.86,13.1,0.0,1,34.0,2.42,6.3,0,0,0,1,0,,,,,,,,,,,,,,,,,,,,
22503,0,,,249,253,238,234,,0.12,0.1,1.98,0,-5,-4,0.15,,67,5697,9,36,60,0.643,0.0,635,4.91,13.3,0.0,1,33.7,2.38,6.3,0,0,0,1,0,,,,,,,,,,,,,,,,,,,,
22523,0,,,249,253,239,234,,0.07,0.12,1.89,0,0,-1,0.14,,67,5709,9,36,60,0.645,0.0,633,4.93,13.3,0.0,1,33.7,2.37,6.3,0,0,0,1,0,,,,,,,,,,,,,,,,,,,,
22543,0,0,1,249,253,238,234,-2,-0.02,0.12,1.74,0,5,3,0.12,1,67,5774,9,36,60,0.643,0.0,629,4.82,12.9,0.0,1,33.7,2.33,6.3,0,0,0,1,0,0,250,250,0,0.0,0.0,0.0,0.0,0,0,0.0,0,0.0,-1,0.0,,0.0,0,0.0,0.3757
22563,0,,,249,253,239,234,,-0.07,0.08,1.61,0,7,5,0.11,,67,5810,9,36,60,0.642,0.0,630,4.86,13.0,0.0,1,33.7,2.31,6.2,0,0,0,1,0,,,,,,,,,,,,,,,,,,,,
22583,0,,,249,253,238,234,,-0.06,0.04,1.49,-0,5,4,0.07,,67,5861,9,36,59,0.64,0.0,631,4.85,13.1,0.0,1,33.5,1.16,6.2,0,0,0,1,0,,,,,,,,,,,,,,,,,,,,
22603,0,,,249,253,238,234,,0.0,0.02,1.57,-0,2,1,0.02,,67,5888,9,36,59,0.64,0.0,635,4.87,13.0,0.0,1,33.5,1.16,6.2,0,0,0,1,0,,,,,,,,,,,,,,,,,,,,
22623,0,,,249,253,238,234,,0.08,0.02,1.76,-0,-3,-3,0.09,,67,5912,9,36,59,0.639,0.0,630,4.88,13.0,0.0,1,33.5,1.14,6.2,0,0,0,1,0,,,,,,,,,,,,,,,,,,,,
22643,0,-0,2,249,253,238,234,-2,0.15,0.05,1.93,-0,-8,-6,0.16,1,67,5971,9,36,59,0.64,0.0,629,4.88,13.0,0.0,1,33.5,2.21,6.2,0,0,0,1,0,0,250,250,0,0.0,0.0,0.0,0.0,0,0,0.0,0,0.0,-1,0.0,0.0,0.0,0,0.0,0.3774
22663,0,,,249,253,239,234,,0.2,0.08,2.09,-0,-11,-8,0.21,,67,6028,9,36,58,0.64,0.0,635,4.86,13.1,0.0,1,33.5,1.09,6.0,0,0,0,1,0,,,,,,,,,,,,,,,,,,,,
22683,0,,,249,253,238,234,,0.22,0.08,2.23,-0,-14,-10,0.24,,67,6087,9,36,58,0.64,0.0,637,4.84,13.2,0.0,1,33.7,2.21,6.0,0,0,0,1,0,,,,,,,,,,,,,,,,,,,,
22703,0,,,249,253,239,234,,0.2,0.07,2.09,-0,-14,-10,0.21,,67,6181,9,36,58,0.639,0.0,633,4.91,13.1,0.0,1,34.0,2.23,6.0,0,0,0,1,0,,,,,,,,,,,,,,,,,,,,
22723,0,,,249,253,238,234,,0.11,0.03,1.93,-0,-11,-7,0.12,,67,6275,9,36,57,0.639,0.0,640,4.82,13.1,0.0,1,34.2,2.24,6.0,0,0,0,1,0,,,,,,,,,,,,,,,,,,,,
22743,0,-1,2,249,253,238,234,-2,0.07,0.06,1.78,-0,-8,-4,0.1,1,67,6345,9,36,56,0.638,0.0,641,4.83,13.2,0.0,1,34.2,2.24,6.0,0,0,0,1,0,0,250,250,0,0.0,0.0,0.0,0.0,0,0,0.0,0,0.0,-1,0.0,,0.0,0,0.0,0.379
22763,0,,,249,253,238,234,,0.1,0.06,1.95,-0,-9,-6,0.12,,67,6463,10,36,55,0.638,0.0,642,4.88,13.2,0.0,1,34.3,2.24,6.6,0,0,0,1,0,,,,,,,,,,,,,,,,,,,,
22783,0,,,249,253,239,234,,0.1,0.04,1.8,-0,-8,-5,0.11,,67,6583,10,36,54,0.637,0.0,647,4.88,13.0,0.0,1,34.5,2.23,6.6,0,0,0,1,0,,,,,,,,,,,,,,,,,,,,
22803,0,,,249,253,238,234,,0.1,0.05,1.66,-0,-7,-4,0.11,,67,6599,10,36,53,0.637,0.0,646,4.87,13.2,0.0,1,34.2,2.24,6.6,0,0,0,1,0,,,,,,,,,,,,,,,,,,,,
22823,0,,,249,251,238,234,,0.11,0.04,1.7,-0,-7,-5,0.12,,67,6800,10,36,52,0.64,0.0,651,4.87,13.0,0.0,1,34.5,1.12,6.6,0,0,0,1,0,,,,,,,,,,,,,,,,,,,,
22843,0,-0,1,249,253,238,234,-2,0.13,0.06,1.7,-0,-7,-5,0.14,1,67,6926,10,36,52,0.64,0.0,656,4.87,13.2,0.0,1,34.9,1.11,6.6,0,0,0,1,0,0,250,250,0,0.0,0.0,0.0,0.0,0,0,0.0,0,0.0,-1,0.0,0.0,0.0,0,0.0,0.3807
22863,0,,,249,253,238,234,,0.08,0.06,1.57,-0,-5,-3,0.1,,67,7025,10,36,51,0.64,0.0,657,4.83,13.1,0.0,1,34.8,2.22,7.1,0,0,0,1,0,,,,,,,,,,,,,,,,,,,,
22883,0,,,249,251,238,234,,0.09,0.07,1.54,-0,-6,-4,0.11,,67,7126,10,36,51,0.64,0.0,652,4.87,13.0,0.0,1,35.0,2.23,7.1,0,0,0,1,0,,,,,,,,,,,,,,,,,,,,
22903,0,,,249,251,239,234,,0.12,0.05,1.65,-0,-6,-5,0.13,,67,7172,10,36,50,0.64,0.0,653,4.91,13.1,0.0,1,34.8,1.13,7.1,0,0,0,1,0,,,,,,,,,,,,,,,,,,,,
22923,0,,,249,251,238,234,,0.13,0.07,1.73,-0,-6,-6,0.15,,67,7239,10,36,50,0.639,0.0,659,4.84,13.2,0.0,1,34.9,1.14,7.1,0,0,0,1,0,,,,,,,,,,,,,,,,,,,,
22943,0,1,0,249,251,238,234,-2,0.1,0.07,1.6,-0,-4,-4,0.13,1,67,7324,10,36,49,0.639,0.0,661,4.86,13.2,0.0,1,34.9,2.26,7.1,0,0,0,1,0,0,250,250,0,0.0,0.0,0.0,0.0,0,0,0.0,0,0.0,-1,0.0,,0.0,0,0.0,0.3824
22963,0,,,249,252,238,234,,0.08,0.06,1.47,-0,-3,-3,0.1,,67,7376,10,36,49,0.64,0.0,656,4.84,12.9,0.0,1,35.0,2.27,7.7,0,0,0,1,0,,,,,,,,,,,,,,,,,,,,
22983,0,,,249,253,238,234,,0.06,0.09,1.47,-0,-3,-3,0.1,,67,7449,10,36,48,0.641,0.0,662,4.81,13.1,0.0,1,35.0,2.27,7.7,0,0,0,1,0,,,,,,,,,,,,,,,,,,,,
23003,0,,,249,253,238,234,,0.03,0.11,1.35,-0,-1,-1,0.11,,67,7515,10,36,47,0.64,0.0,658,4.81,12.9,0.0,1,35.0,2.28,7.7,0,0,0,1,0,,,,,,,,,,,,,,,,,,,,
23023,0,,,249,253,238,234,,0.01,0.11,1.25,-0,0,0,0.11,,67,7597,10,36,47,0.639,0.0,665,4.9,13.2,0.0,1,35.3,2.29,7.7,0,0,0,1,0,,,,,,,,,,,,,,,,,,,,
23043,0,0,1,249,253,238,234,-2,-0.0,0.07,1.19,-0,1,0,0.07,1,67,7649,10,36,46,0.64,0.0,662,4.81,13.2,0.0,1,34.8,2.29,7.7,0,0,0,1,0,0,250,250,0,0.0,0.0,0.0,0.0,0,0,0.0,0,0.0,-1,0.0,0.0,0.0,0,0.0,0.384
23063,0,,,249,253,238,234,,0.02,0.06,1.28,-0,1,-2,0.06,,67,7738,10,36,45,0.639,0.0,665,4.89,13.2,0.0,1,34.5,2.3,8.1,0,0,0,1,0,,,,,,,,,,,,,,,,,,,,
23083,0,,,249,252,239,234,,0.04,0.04,1.49,-0,-1,-3,0.05,,67,7799,10,36,45,0.638,0.0,661,4.91,13.1,0.0,1,34.6,1.2,8.1,0,0,0,1,0,,,,,,,,,,,,,,,,,,,,
23103,0,,,249,251,238,234,,0.03,0.05,1.4,-0,-1,-3,0.06,,67,7858,10,36,44,0.637,0.0,665,4.92,13.0,0.0,1,34.1,1.2,8.1,0,0,0,1,0,,,,,,,,,,,,,,,,,,,,
23123,0,,,249,253,238,234,,0.01,0.12,1.29,-0,-0,-1,0.12,,67,7924,10,36,44,0.636,0.0,662,4.83,13.1,0.0,1,34.3,2.31,8.1,0,0,0,1,0,,,,,,,,,,,,,,,,,,,,
23143,0,-1,2,249,252,238,234,-2,0.04,0.1,1.44,-0,-1,-3,0.1,1,67,7985,10,36,43,0.636,0.0,668,4.78,13.1,0.0,1,33.7,2.31,8.1,0,0,0,1,0,0,250,250,0,0.0,0.0,0.0,0.0,0,0,0.0,0,0.0,-1,0.0,,0.0,0,0.0,0.3857
23163,0,,,249,251,238,234,,0.04,0.08,1.46,-0,-1,-3,0.09,,67,8026,10,36,42,0.635,0.0,665,4.9,13.0,0.0,1,33.1,1.22,8.6,0,0,0,1,0,,,,,,,,,,,,,,,,,,,,
23183,1627476919772,,,249,251,238,234,,0.02,0.16,1.35,-0,-0,-1,0.16,,67,8026,10,36,41,0.634,0.0,663,4.92,13.0,0.0,1,32.4,2.32,8.6,0,0,0,1,0,,,,,,,,,,,,,,,,,,,,
23203,1627476919792,,,249,253,239,234,,0.05,0.11,1.51,-0,-2,-4,0.12,,67,8023,10,35,40,0.633,0.0,671,4.87,13.2,0.0,1,31.7,1.2,8.6,0,0,0,1,0,,,,,,,,,,,,,,,,,,,,
23223,1627476919812,,,249,253,238,234,,0.05,0.09,1.51,-0,-2,-3,0.1,,67,8002,10,35,40,0.632,0.0,668,4.86,13.0,0.0,1,31.7,2.29,8.6,0,0,0,1,0,,,,,,,,,,,,,,,,,,,,
23243,1627476919832,1,1,249,253,238,234,-2,0.04,0.16,1.42,-0,-1,-2,0.16,1,67,7938,10,35,39,0.632,0.0,668,4.81,13.1,0.0,1,31.0,2.28,8.6,0,0,0,1,0,0,250,250,0,47.220871,14.764202,0.0,711.3,4,2,3.4,0,0.0,-1,0.0,0.0,0.0,0,0.0,0.3874
23263,1627476919852,,,249,253,238,234,,0.06,0.16,1.46,-0,-1,-4,0.17,,67,7878,10,35,39,0.631,0.0,670,4.76,13.2,0.0,1,31.0,1.17,8.3,0,0,0,1,0,,,,,,,,,,,,,,,,,,,,
23283,1627476919872,,,249,253,238,234,,0.08,0.11,1.58,-0,-2,-5,0.14,,67,7832,10,35,39,0.632,0.0,670,4.8,13.2,0.0,1,31.0,1.17,8.3,0,0,0,1,0,,,,,,,,,,,,,,,,,,,,
23303,1627476919878,,,249,253,239,234,,0.06,0.12,1.58,-0,-2,-4,0.14,,67,7805,10,35,39,0.631,0.0,665,4.85,13.0,0.0,1,31.0,1.17,8.3,0,0,0,1,0,,,,,,,,,,,,,,,,,,,,
23323,1627476919898,,,249,253,238,234,,0.03,0.14,1.46,-0,-1,-1,0.15,,67,7741,10,35,39,0.631,0.0,670,4.86,12.9,0.0,1,31.0,2.28,8.3,0,0,0,1,0,,,,,,,,,,,,,,,,,,,,
23343,1627476919918,0,0,249,252,238,234,-2,0.0,0.18,1.35,-0,1,0,0.18,1,67,7700,10,35,40,0.631,0.0,665,4.87,12.9,0.0,1,31.5,2.28,8.3,0,0,0,1,0,0,250,250,0,47.220875,14.764207,0.0,684.7,6,2,2.0,0,0.0,-1,0.0,,0.0,0,0.0,0.389
23363,1627476919938,,,249,253,238,234,,-0.0,0.16,1.25,-0,1,0,0.16,,67,7637,10,35,40,0.631,0.0,667,4.8,13.2,0.0,1,31.5,2.28,8.1,0,0,0,1,0,,,,,,,,,,,,,,,,,,,,
23383,1627476919958,,,249,253,238,234,,0.01,0.13,1.28,-0,1,-1,0.13,,67,7612,10,35,40,0.631,0.0,666,4.86,13.2,0.0,1,31.5,2.28,8.1,0,0,0,1,0,,,,,,,,,,,,,,,,,,,,
23403,1627476919987,,,249,253,239,234,,0.04,0.14,1.33,-0,0,-2,0.14,,67,7591,10,35,40,0.632,0.0,666,4.77,13.1,0.0,1,31.5,2.28,8.1,0,0,0,1,0,,,,,,,,,,,,,,,,,,,,
23423,1627476920007,,,249,253,238,234,,0.06,0.13,1.38,-0,-0,-3,0.14,,67,7572,10,35,41,0.632,0.0,667,4.9,13.2,0.0,1,32.0,1.17,8.1,0,0,0,1,0,,,,,,,,,,,,,,,,,,,,
23443,1627476920027,-0,2,249,253,238,234,-1,0.09,0.08,1.39,-0,-1,-4,0.12,1,67,7539,10,35,41,0.632,0.0,666,4.81,13.2,0.0,1,32.0,2.28,8.1,0,0,0,1,0,0,250,250,0,47.220875,14.76421,0.0,682.1,6,2,2.0,0,0.0,-1,0.0,0.0,0.0,0,0.0,0.3907
23463,1627476920047,,,249,253,238,234,,0.11,0.05,1.49,-0,-1,-5,0.12,,67,7521,10,35,41,0.633,0.0,667,4.94,13.2,0.0,1,32.0,2.28,7.9,0,0,0,1,0,,,,,,,,,,,,,,,,,,,,
23483,1627476920067,,,249,253,238,234,,0.11,0.04,1.65,-0,-3,-6,0.11,,67,7482,10,35,41,0.633,0.0,665,4.86,13.2,0.0,1,31.9,2.28,7.9,0,0,0,1,0,,,,,,,,,,,,,,,,,,,,
23503,1627476920087,,,249,253,238,234,,0.11,0.04,1.69,-0,-3,-7,0.12,,67,7494,10,35,42,0.633,0.0,666,4.93,13.2,0.0,1,32.4,1.17,7.9,0,0,0,1,0,,,,,,,,,,,,,,,,,,,,
23523,1627476920107,,,249,253,238,234,,0.11,0.04,1.61,-0,-3,-7,0.12,,67,7470,10,35,41,0.634,0.0,662,4.82,13.2,0.0,1,31.9,1.17,7.9,0,0,0,1,0,,,,,,,,,,,,,,,,,,,,
23543,1627476920127,-1,2,249,253,238,234,-2,0.12,0.01,1.49,-0,-3,-7,0.12,1,67,7470,10,35,42,0.634,0.0,663,4.92,13.2,0.0,1,32.4,1.17,7.9,0,0,0,1,0,0,250,250,0,47.220875,14.764212,0.0,681.8,6,2,2.0,0,0.0,-1,0.0,,0.0,0,0.0,0.3924
23563,1627476920147,,,249,253,238,234,,0.13,0.0,1.64,-0,-4,-8,0.13,,67,7443,10,35,42,0.634,0.0,665,4.93,13.2,0.0,1,32.4,1.17,7.8,0,0,0,1,0,,,,,,,,,,,,,,,,,,,,
23583,1627476920167,,,249,253,239,234,,0.14,0.02,1.7,-0,-4,-8,0.14,,67,7416,10,35,42,0.635,0.0,663,4.89,13.2,0.0,1,32.3,2.28,7.8,0,0,0,1,0,,,,,,,,,,,,,,,,,,,,
23603,1627476920187,,,249,253,238,234,,0.15,0.01,1.63,-0,-3,-8,0.15,,67,7390,10,35,42,0.635,0.0,658,4.81,13.0,0.0,1,32.3,2.28,7.8,0,0,0,1,0,,,,,,,,,,,,,,,,,,,,
23623,1627476920207,,,249,251,238,234,,0.16,0.03,1.58,-0,-3,-7,0.16,,67,7370,10,35,43,0.635,0.0,663,4.85,13.2,0.0,1,32.7,2.27,7.8,0,0,0,1,0,,,,,,,,,,,,,,,,,,,,
23643,1627476920227,-0,2,249,253,238,234,-2,0.16,0.06,1.64,-0,-2,-6,0.17,1,67,7344,10,35,43,0.635,0.0,657,4.87,12.9,0.0,1,32.7,2.27,7.8,0,0,0,1,0,0,250,250,0,47.220879,14.764213,0.0,682.2,6,2,2.0,0,0.0,-1,0.0,0.0,0.0,0,0.0,0.394
23663,1627476920247,,,249,251,238,234,,0.14,0.07,1.51,-0,-1,-4,0.16,,67,7327,10,35,43,0.636,0.0,656,4.82,13.0,0.0,1,32.7,2.27,7.7,0,0,0,1,0,,,,,,,,,,,,,,,,,,,,
23683,1627476920267,,,249,253,238,234,,0.12,0.05,1.39,-0,-1,-3,0.13,,67,7295,10,35,43,0.636,0.0,653,4.92,13.1,0.0,1,32.6,2.27,7.7,0,0,0,1,0,,,,,,,,,,,,,,,,,,,,
23703,1627476920287,,,249,252,238,234,,0.11,0.05,1.44,-0,-2,-3,0.12,,67,7270,10,35,44,0.636,0.0,655,4.93,13.2,0.0,1,33.0,2.26,7.7,0,0,0,1,0,,,,,,,,,,,,,,,,,,,,
23723,1627476920307,,,249,252,238,234,,0.09,-0.01,1.36,-0,-1,-4,0.09,,67,7233,10,35,44,0.636,0.0,652,4.92,13.2,0.0,1,32.9,1.15,7.7,0,0,0,1,0,,,,,,,,,,,,,,,,,,,,
23743,1627476920327,0,1,249,253,238,234,-2,0.1,-0.01,1.48,-0,-2,-4,0.1,1,67,7203,10,35,44,0.636,0.0,657,4.83,13.1,0.0,1,32.8,2.25,7.7,0,0,0,1,0,0,250,250,0,47.220879,14.764214,0.0,681.9,6,2,2.0,0,0.0,-1,0.0,,0.0,0,0.0,0.3957
23763,1627476920347,,,249,253,238,234,,0.11,0.03,1.42,-0,-1,-3,0.11,,67,7151,10,35,44,0.636,0.0,657,4.8,13.1,0.0,1,32.7,2.25,7.4,0,0,0,1,0,,,,,,,,,,,,,,,,,,,,
23783,1627476920367,,,249,253,238,234,,0.11,0.01,1.31,-0,-1,-2,0.11,,67,7110,10,35,45,0.636,0.0,651,4.87,12.9,0.0,1,33.0,2.24,7.4,0,0,0,1,0,,,,,,,,,,,,,,,,,,,,
23803,1627476920387,,,249,253,238,234,,0.12,0.0,1.47,-0,-1,-2,0.12,,67,7080,10,35,45,0.636,0.0,652,4.88,13.1,0.0,1,32.9,2.24,7.4,0,0,0,1,0,,,,,,,,,,,,,,,,,,,,
23823,1627476920407,,,249,253,238,234,,0.11,0.01,1.35,-0,-1,-2,0.11,,67,7054,10,35,45,0.635,0.0,652,4.85,13.2,0.0,1,32.8,2.23,7.4,0,0,0,1,0,,,,,,,,,,,,,,,,,,,,
23843,1627476920427,0,0,249,253,238,234,-1,0.09,0.05,1.35,-0,-0,-1,0.1,1,67,7022,10,35,45,0.635,0.0,653,4.82,13.0,0.0,1,32.8,2.22,7.4,0,0,0,1,0,0,250,250,0,47.220879,14.764216,0.0,681.7,6,2,2.0,0,0.0,-1,0.0,0.0,0.0,0,0.0,0.3974
23863,1627476920447,,,249,253,238,234,,0.1,0.0,1.24,-0,-1,-2,0.1,,67,6983,10,35,46,0.635,0.0,654,4.9,13.1,0.0,1,33.0,1.12,7.2,0,0,0,1,0,,,,,,,,,,,,,,,,,,,,
23883,1627476920467,,,249,253,238,234,,0.11,0.04,1.34,-0,-1,-2,0.12,,67,6959,10,35,46,0.634,0.0,655,4.88,13.2,0.0,1,33.0,2.23,7.2,0,0,0,1,0,,,,,,,,,,,,,,,,,,,,
23903,1627476920487,,,249,253,238,234,,0.1,0.04,1.24,-0,-0,-1,0.11,,67,6923,10,35,46,0.634,0.0,652,4.9,13.1,0.0,1,32.9,2.23,7.2,0,0,0,1,0,,,,,,,,,,,,,,,,,,,,
23923,1627476920507,,,249,253,238,234,,0.13,0.02,1.39,-0,-1,-2,0.13,,67,6898,10,35,46,0.634,0.0,653,4.91,13.2,0.0,1,32.8,2.24,7.2,0,0,0,1,0,,,,,,,,,,,,,,,,,,,,
23943,1627476920527,-0,1,249,253,238,234,-1,0.11,0.05,1.29,-0,-0,-1,0.12,1,67,6813,11,35,46,0.634,0.0,649,4.88,13.0,0.0,1,32.6,2.24,7.2,0,0,0,1,0,0,250,250,0,47.220879,14.764216,0.0,681.4,6,2,2.0,0,0.0,-1,0.0,,0.0,0,0.0,0.399
23963,1627476920547,,,249,253,238,234,,0.12,0.01,1.32,-0,-0,-2,0.12,,67,6776,12,35,47,0.634,0.0,642,4.92,13.1,0.0,1,32.9,1.13,7.0,0,0,0,1,0,,,,,,,,,,,,,,,,,,,,
23983,1627476920567,,,249,253,238,234,,0.11,0.04,1.25,-0,0,-0,0.11,,67,6684,14,35,48,0.633,0.0,643,4.87,12.9,0.0,1,33.0,2.25,7.0,0,0,0,1,0,,,,,,,,,,,,,,,,,,,,
24003,1627476920587,,,249,253,238,234,,0.15,0.03,1.36,-0,-1,-1,0.15,,67,6641,16,35,50,0.633,0.0,642,4.9,13.2,0.0,1,33.5,2.25,7.0,0,0,0,1,0,,,,,,,,,,,,,,,,,,,,
24023,1627476920607,,,249,253,238,234,,0.13,0.02,1.25,-0,-1,-1,0.13,,67,6590,19,35,53,0.633,0.0,641,4.93,13.1,0.0,1,34.2,2.45,7.0,0,0,0,1,0,,,,,,,,,,,,,,,,,,,,
24043,1627476920627,0,0,249,253,238,234,-2,0.15,0.06,1.27,-0,0,-0,0.17,1,67,6567,22,35,57,0.633,0.0,648,4.86,13.3,0.0,1,35.2,2.5,7.0,0,0,0,1,0,0,250,-1,0,47.220879,14.764217,0.0,681.1,6,2,2.0,0,0.0,-1,0.0,0.0,0.0,0,0.0,0.4007
24063,1627476920647,,,249,253,238,234,,0.17,0.02,1.33,-0,-1,-1,0.17,,67,6567,24,35,62,0.634,0.0,644,4.87,13.1,0.0,1,36.6,1.4,7.7,0,0,0,1,0,,,,,,,,,,,,,,,,,,,,
24083,1627476920667,,,249,253,238,234,,0.14,0.04,1.23,-0,0,-0,0.15,,67,6562,25,35,66,0.632,0.0,643,4.77,12.9,0.0,1,37.8,3.47,7.7,0,0,0,1,0,,,,,,,,,,,,,,,,,,,,
24103,1627476920687,,,249,253,238,234,,0.18,0.04,1.31,-0,1,-0,0.18,,67,6551,27,35,70,0.633,0.0,648,4.86,13.2,0.0,1,38.8,3.98,7.7,0,0,0,1,0,,,,,,,,,,,,,,,,,,,,
24123,1627476920707,,,250,253,238,234,,0.19,0.01,1.43,-0,-1,-1,0.19,,67,6499,28,35,74,0.634,0.0,639,4.82,13.0,0.0,1,39.3,2.74,7.7,0,0,0,1,0,,,,,,,,,,,,,,,,,,,,
24143,1627476920727,0,0,250,253,238,234,-1,0.17,0.04,1.32,-0,-0,-0,0.18,1,67,6590,30,35,78,0.632,0.0,641,4.83,13.2,0.0,1,41.1,2.91,7.7,0,0,0,1,0,0,250,-1,0,47.220879,14.764219,0.0,680.9,6,2,2.0,0,0.0,-1,0.0,,0.0,0,0.0,0.4024
24163,1627476920747,,,250,254,238,234,,0.2,-0.01,1.38,-0,-0,-1,0.2,,67,6739,32,35,80,0.633,1.4,646,4.91,13.2,0.0,1,42.6,4.35,13.5,0,0,0,1,0,,,,,,,,,,,,,,,,,,,,
24183,1627476920767,,,250,254,238,234,,0.22,0.03,1.34,-0,0,-0,0.22,,67,6929,33,35,82,0.632,1.4,650,4.86,13.2,0.0,1,44.6,4.24,13.5,0,0,0,1,0,,,,,,,,,,,,,,,,,,,,
24203,1627476920787,,,250,254,238,234,,0.23,0.01,1.25,-0,-0,0,0.23,,67,7072,34,35,83,0.633,1.4,654,4.82,12.9,0.0,1,44.9,4.18,13.5,0,0,0,1,0,,,,,,,,,,,,,,,,,,,,
24223,1627476920807,,,250,254,238,233,,0.26,0.02,1.35,-0,-1,-1,0.27,,67,7043,34,35,85,0.633,1.4,653,4.87,13.2,0.0,1,46.4,4.19,13.5,0,0,0,1,0,,,,,,,,,,,,,,,,,,,,
24243,1627476920827,-1,2,251,255,238,233,-2,0.27,0.03,1.24,-0,-0,1,0.27,1,67,6900,34,35,85,0.632,1.4,649,4.88,13.2,0.0,1,45.9,4.16,13.5,0,0,0,1,0,17,-1,-1,14,47.220879,14.764219,0.0,680.9,6,2,2.0,0,0.0,-1,0.0,0.0,0.0,0,0.0,0.404
24263,1627476920847,,,252,255,237,232,,0.32,0.02,1.37,-0,-2,-1,0.32,,67,6771,35,35,86,0.632,2.6,647,4.92,13.1,507.6,1,45.4,4.19,13.2,0,0,0,1,0,,,,,,,,,,,,,,,,,,,,
24283,1627476920867,,,252,256,237,232,,0.3,0.04,1.26,-0,-1,1,0.31,,67,6505,35,35,86,0.632,2.6,644,4.85,13.2,507.6,1,43.1,4.3,13.2,0,0,0,1,0,,,,,,,,,,,,,,,,,,,,
24303,1627476920877,,,253,256,236,232,,0.36,0.06,1.33,-0,0,1,0.36,,67,6463,37,35,86,0.632,2.6,640,4.86,13.2,507.6,1,42.8,4.32,13.2,0,0,0,1,0,,,,,,,,,,,,,,,,,,,,
24323,1627476920897,,,254,257,236,232,,0.41,-0.01,1.54,-0,-2,-1,0.41,,67,6349,39,35,87,0.632,3.9,636,4.9,13.0,507.6,1,42.1,4.45,13.2,0,0,0,1,0,,,,,,,,,,,,,,,,,,,,
24343,1627476920917,0,2,254,257,236,232,-1,0.42,-0.01,1.42,-0,-3,-1,0.42,1,67,6311,41,36,88,0.632,3.9,635,4.86,13.0,507.6,1,42.2,4.53,13.2,0,0,0,1,0,61,-1281,-1,39,47.220879,14.764221,1.59,680.7,6,2,2.0,0,0.0,-1,0.0,,0.0,0,0.0,0.4057
24363,1627476920937,,,255,257,235,231,,0.38,0.03,1.31,-0,-2,0,0.38,,67,6157,42,36,88,0.629,5.0,635,4.84,12.8,264.0,1,40.7,4.64,13.2,0,0,0,1,0,,,,,,,,,,,,,,,,,,,,
24383,1627476920957,,,255,258,234,231,,0.34,0.05,1.21,-0,-0,2,0.35,,67,5885,43,36,89,0.628,5.0,631,4.82,13.1,264.0,1,39.8,4.66,13.2,0,0,0,1,0,,,,,,,,,,,,,,,,,,,,
