"Interval"|"ms"|0|0|1,"Utc"|"ms"|0|0|1,"Brake_F"|"Bar"|0|2000|10,"Brake_R"|"Bar"|0|2000|10,"Height_RF"|"mm"|0|255|50,"Height_LF"|"mm"|0|255|50,"Height_LR"|"mm"|0|80|50,"Height_RR"|"mm"|0|255|50,"Steering"|"deg"|-100|100|10,"AccelX"|"G"|-3.0|3.0|50,"AccelY"|"G"|-3.0|3.0|50,"AccelZ"|"G"|-3.0|3.0|50,"Yaw"|"Deg/Sec"|-120|120|50,"Pitch"|"Deg/Sec"|-120|120|50,"Roll"|"Deg/Sec"|-120|120|50,"Gsum"|"G"|0.0|3.0|50,"Log_Button"|""|0.0|10.0|10,"WaterTemp"|"C"|0|150|50,"RPM"|"tr/min"|0|14000|50,"TPS"|"%"|0|100|50,"AirTemp"|"C"|0|150|50,"MAP"|"KPa"|0|100|50,"Lambda"|""|0.5|1.5|50,"SpeedDTA"|"kph"|0.0|250.0|50,"OilPress"|"KPa"|0|1500|50,"FuelPressur"|"Bar"|0.0|10.0|50,"Batterie"|"V"|0.0|20.0|50,"ConsoKm"|"L/100km"|0.0|200.0|50,"Gear"|""|0|6|50,"AdvIgnition"|"Deg"|-20.0|70.0|50,"Injection"|"ms"|0.0|10.0|50,"ConsoHr"|"L/Hr"|0.0|10000.0|50,"LC_But_Pres"|""|0|1|50,"LC_Active"|""|0|1|50,"TractionOn"|""|0|1|50,"TractionWet"|""|0|1|50,"FanOn"|""|0|1|50,"RD_Speed"|"km/h"|-30|250|10,"RUD_Speed"|"km/h"|-30|250|10,"LD_Speed"|"km/h"|-30|250|10,"LUD_Speed"|"km/h"|-30|250|10,"Latitude"|"Degrees"|-180.0|180.0|10,"Longitude"|"Degrees"|-180.0|180.0|10,"Speed"|"kph"|0.0|150.0|10,"Altitude"|"m"|0.0|4000.0|10,"GPSSats"|""|0|20|10,"GPSQual"|""|0|5|10,"GPSDOP"|""|0.0|20.0|10,"LapCount"|""|0|0|10,"LapTime"|"Min"|0.0|0.0|10,"Sector"|""|0|0|10,"SectorTime"|"Min"|0.0|0.0|10,"PredTime"|"Min"|0.0|0.0|5,"ElapsedTime"|"Min"|0.0|0.0|10,"CurrentLap"|""|0|0|10,"Distance"|"km"|0.0|0.0|10,"SessionTime"|"Min"|0.0|0.0|10
2063,0,,,248,248,238,233,,0.06,0.0,1.0,0,-0,0,0.06,,73,0,7,41,92,0.501,0.0,110,4.92,12.8,0.0,1,0.0,0.0,0.0,0,0,0,1,0,,,,,,,,,,,,,,,,,,,,
2083,0,,,248,248,238,233,,0.06,0.01,1.0,0,-0,0,0.06,,73,0,7,41,92,0.501,0.0,110,4.9,12.8,0.0,1,0.0,0.0,0.0,0,0,0,1,0,,,,,,,,,,,,,,,,,,,,
2103,0,,,248,248,238,233,,0.06,0.0,1.0,0,-0,-0,0.06,,73,0,7,41,92,0.501,0.0,110,4.91,12.8,0.0,1,0.0,0.0,0.0,0,0,0,1,0,,,,,,,,,,,,,,,,,,,,
2123,0,,,248,248,238,233,,0.06,0.0,1.0,0,-0,0,0.06,,73,0,7,41,92,0.501,0.0,110,4.92,12.8,0.0,1,0.0,0.0,0.0,0,0,0,1,0,,,,,,,,,,,,,,,,,,,,
2143,0,5,2,248,248,238,233,-6,0.06,0.0,1.0,0,0,0,0.06,1,73,0,7,41,92,0.501,0.0,110,4.91,12.8,0.0,1,0.0,0.0,0.0,0,0,0,1,0,0,250,250,0,0.0,0.0,0.0,0.0,0,0,0.0,0,0.0,-1,0.0,,0.0,0,0.0,0.0357
2163,0,,,248,249,238,233,,0.06,0.01,1.0,0,0,0,0.06,,73,0,7,41,92,0.501,0.0,110,4.93,12.8,0.0,1,0.0,0.0,0.0,0,0,0,1,0,,,,,,,,,,,,,,,,,,,,
2183,0,,,248,249,238,233,,0.06,0.01,1.0,0,-0,0,0.06,,73,0,7,41,92,0.501,0.0,110,4.92,12.8,0.0,1,0.0,0.0,0.0,0,0,0,1,0,,,,,,,,,,,,,,,,,,,,
2203,0,,,248,248,238,233,,0.06,0.01,1.0,0,0,0,0.06,,73,0,7,41,92,0.501,0.0,110,4.92,12.8,0.0,1,0.0,0.0,0.0,0,0,0,1,0,,,,,,,,,,,,,,,,,,,,
2223,0,,,248,248,238,233,,0.06,0.01,1.0,0,0,0,0.06,,73,0,7,41,92,0.504,0.0,110,4.9,12.8,0.0,1,0.0,0.0,0.0,0,0,0,1,0,,,,,,,,,,,,,,,,,,,,
2243,0,4,3,248,248,238,233,-5,0.06,0.01,1.0,0,0,0,0.06,1,73,0,7,41,92,0.507,0.0,111,4.91,12.8,0.0,1,0.0,0.0,0.0,0,0,0,1,0,0,250,250,0,0.0,0.0,0.0,0.0,0,0,0.0,0,0.0,-1,0.0,0.0,0.0,0,0.0,0.0374
2263,0,,,248,248,238,233,,0.06,0.01,1.0,0,0,0,0.06,,73,0,7,41,92,0.511,0.0,111,4.91,12.8,0.0,1,0.0,0.0,0.0,0,0,0,1,0,,,,,,,,,,,,,,,,,,,,
2283,0,,,248,249,238,233,,0.06,0.01,1.0,0,0,0,0.06,,73,0,7,41,92,0.514,0.0,110,4.9,12.8,0.0,1,0.0,0.0,0.0,0,0,0,1,0,,,,,,,,,,,,,,,,,,,,
2303,0,,,248,249,238,233,,0.06,0.01,1.0,0,0,0,0.06,,73,0,7,41,92,0.518,0.0,110,4.91,12.8,0.0,1,0.0,0.0,0.0,0,0,0,1,0,,,,,,,,,,,,,,,,,,,,
2323,0,,,248,249,238,233,,0.06,0.01,1.0,0,0,0,0.06,,73,0,7,41,92,0.522,0.0,111,4.92,12.8,0.0,1,0.0,0.0,0.0,0,0,0,1,0,,,,,,,,,,,,,,,,,,,,
2343,0,5,1,248,248,238,233,-5,0.06,0.01,1.0,0,0,-0,0.06,1,73,0,7,41,92,0.526,0.0,111,4.92,12.8,0.0,1,0.0,0.0,0.0,0,0,0,1,0,0,250,250,0,0.0,0.0,0.0,0.0,0,0,0.0,0,0.0,-1,0.0,,0.0,0,0.0,0.0391
2363,0,,,248,249,238,233,,0.06,0.01,1.0,0,0,0,0.06,,73,0,7,41,92,0.53,0.0,111,4.92,12.8,0.0,1,0.0,0.0,0.0,0,0,0,1,0,,,,,,,,,,,,,,,,,,,,
2383,0,,,248,249,238,233,,0.06,0.01,1.0,0,0,0,0.06,,73,0,7,41,92,0.534,0.0,111,4.91,12.8,0.0,1,0.0,0.0,0.0,0,0,0,1,0,,,,,,,,,,,,,,,,,,,,
2403,0,,,248,249,238,233,,0.06,0.01,1.0,0,0,-0,0.06,,73,0,7,41,92,0.537,0.0,111,4.88,12.8,0.0,1,0.0,0.0,0.0,0,0,0,1,0,,,,,,,,,,,,,,,,,,,,
2423,0,,,248,249,238,233,,0.06,0.01,1.0,0,0,-0,0.06,,73,0,7,41,92,0.541,0.0,111,4.9,12.8,0.0,1,0.0,0.0,0.0,0,0,0,1,0,,,,,,,,,,,,,,,,,,,,
2443,0,5,1,248,249,238,233,-6,0.06,0.01,1.0,0,0,-0,0.06,1,73,0,7,41,92,0.543,0.0,111,4.91,12.8,0.0,1,0.0,0.0,0.0,0,0,0,1,0,0,250,250,0,0.0,0.0,0.0,0.0,0,0,0.0,0,0.0,-1,0.0,0.0,0.0,0,0.0,0.0407
2463,0,,,248,248,238,233,,0.06,0.0,1.0,0,0,-0,0.06,,73,0,7,41,92,0.546,0.0,111,4.91,12.8,0.0,1,0.0,0.0,0.0,0,0,0,1,0,,,,,,,,,,,,,,,,,,,,
2483,0,,,248,249,238,233,,0.06,0.01,1.0,0,0,-0,0.06,,73,0,7,41,92,0.547,0.0,111,4.91,12.8,0.0,1,0.0,0.0,0.0,0,0,0,1,0,,,,,,,,,,,,,,,,,,,,
2503,0,,,248,248,238,233,,0.06,0.01,1.0,0,0,-0,0.06,,73,0,7,41,92,0.547,0.0,111,4.91,12.8,0.0,1,0.0,0.0,0.0,0,0,0,1,0,,,,,,,,,,,,,,,,,,,,
2523,0,,,248,248,238,233,,0.06,0.01,1.0,0,0,-0,0.06,,73,0,7,41,92,0.547,0.0,111,4.91,12.8,0.0,1,0.0,0.0,0.0,0,0,0,1,0,,,,,,,,,,,,,,,,,,,,
2543,0,4,3,248,248,238,233,-5,0.06,0.01,1.0,0,0,-0,0.06,1,73,0,7,41,92,0.546,0.0,111,4.91,12.8,0.0,1,0.0,0.0,0.0,0,0,0,1,0,0,250,250,0,0.0,0.0,0.0,0.0,0,0,0.0,0,0.0,-1,0.0,,0.0,0,0.0,0.0424
2563,0,,,248,249,238,233,,0.06,0.01,1.0,0,0,-0,0.06,,73,0,7,41,92,0.547,0.0,110,4.91,12.7,0.0,1,0.0,0.0,0.0,0,0,0,1,0,,,,,,,,,,,,,,,,,,,,
2583,0,,,248,248,238,233,,0.06,0.0,1.0,0,0,-0,0.06,,73,0,7,41,92,0.547,0.0,110,4.9,12.7,0.0,1,0.0,0.0,0.0,0,0,0,1,0,,,,,,,,,,,,,,,,,,,,
2603,0,,,248,248,238,233,,0.06,0.0,1.0,0,0,-0,0.06,,73,0,7,41,92,0.549,0.0,110,4.9,12.7,0.0,1,0.0,0.0,0.0,0,0,0,1,0,,,,,,,,,,,,,,,,,,,,
2623,0,,,248,248,238,233,,0.06,0.01,1.0,0,0,-0,0.06,,73,0,7,41,92,0.55,0.0,110,4.91,12.7,0.0,1,0.0,0.0,0.0,0,0,0,1,0,,,,,,,,,,,,,,,,,,,,
2643,0,5,1,248,248,238,233,-5,0.06,0.01,1.0,0,0,-0,0.06,1,73,0,7,41,92,0.55,0.0,110,4.91,12.7,0.0,1,0.0,0.0,0.0,0,0,0,1,0,0,250,250,0,0.0,0.0,0.0,0.0,0,0,0.0,0,0.0,-1,0.0,0.0,0.0,0,0.0,0.044
2663,0,,,248,248,238,233,,0.06,0.0,1.0,0,0,-0,0.06,,73,0,7,41,92,0.552,0.0,110,4.9,12.7,0.0,1,0.0,0.0,0.0,0,0,0,1,0,,,,,,,,,,,,,,,,,,,,
2683,0,,,248,248,238,233,,0.06,0.0,1.0,0,0,-0,0.06,,73,0,7,41,92,0.553,0.0,110,4.91,12.7,0.0,1,0.0,0.0,0.0,0,0,0,1,0,,,,,,,,,,,,,,,,,,,,
2703,0,,,248,248,238,233,,0.06,0.0,1.0,0,0,-0,0.06,,73,0,7,41,92,0.555,0.0,110,4.92,12.7,0.0,1,0.0,0.0,0.0,0,0,0,1,0,,,,,,,,,,,,,,,,,,,,
2723,0,,,248,249,238,233,,0.06,0.0,1.0,0,0,-0,0.06,,73,0,7,41,92,0.557,0.0,110,4.91,12.7,0.0,1,0.0,0.0,0.0,0,0,0,1,0,,,,,,,,,,,,,,,,,,,,
2743,0,4,3,248,249,238,233,-5,0.06,0.0,1.0,0,0,-0,0.06,1,73,0,7,41,92,0.559,0.0,110,4.9,12.7,0.0,1,0.0,0.0,0.0,0,0,0,1,0,0,250,250,0,0.0,0.0,0.0,0.0,0,0,0.0,0,0.0,-1,0.0,,0.0,0,0.0,0.0457
2763,0,,,248,249,238,233,,0.06,0.0,1.0,0,0,-0,0.06,,73,0,7,41,92,0.561,0.0,110,4.89,12.7,0.0,1,0.0,0.0,0.0,0,0,0,1,0,,,,,,,,,,,,,,,,,,,,
2783,0,,,248,249,238,233,,0.06,0.0,1.0,0,0,-0,0.06,,73,0,7,41,92,0.564,0.0,110,4.9,12.7,0.0,1,0.0,0.0,0.0,0,0,0,1,0,,,,,,,,,,,,,,,,,,,,
2803,0,,,248,249,238,233,,0.06,0.0,1.0,0,0,-0,0.06,,73,0,7,41,92,0.566,0.0,110,4.91,12.7,0.0,1,0.0,0.0,0.0,0,0,0,1,0,,,,,,,,,,,,,,,,,,,,
2823,0,,,248,249,238,233,,0.06,0.0,1.0,0,0,-0,0.06,,73,0,7,41,92,0.568,0.0,110,4.9,12.7,0.0,1,0.0,0.0,0.0,0,0,0,1,0,,,,,,,,,,,,,,,,,,,,
2843,0,5,1,248,248,238,233,-6,0.06,0.0,1.0,0,0,-0,0.06,1,73,0,7,41,92,0.57,0.0,110,4.88,12.7,0.0,1,0.0,0.0,0.0,0,0,0,1,0,0,250,250,0,0.0,0.0,0.0,0.0,0,0,0.0,0,0.0,-1,0.0,0.0,0.0,0,0.0,0.0474
2863,0,,,248,248,238,233,,0.06,0.0,1.0,0,0,-0,0.06,,73,0,7,41,92,0.572,0.0,110,4.9,12.7,0.0,1,0.0,0.0,0.0,0,0,0,1,0,,,,,,,,,,,,,,,,,,,,
2883,0,,,248,248,238,233,,0.06,0.0,1.0,0,0,-0,0.06,,73,0,7,41,92,0.575,0.0,110,4.91,12.6,0.0,1,0.0,0.0,0.0,0,0,0,1,0,,,,,,,,,,,,,,,,,,,,
2903,0,,,248,248,238,233,,0.06,0.01,1.0,0,0,-0,0.06,,73,0,7,41,92,0.577,0.0,110,4.91,12.6,0.0,1,0.0,0.0,0.0,0,0,0,1,0,,,,,,,,,,,,,,,,,,,,
2923,0,,,248,248,238,233,,0.06,0.01,1.0,0,0,-0,0.06,,73,0,7,41,92,0.578,0.0,110,4.91,12.8,0.0,1,0.0,0.0,0.0,0,0,0,1,0,,,,,,,,,,,,,,,,,,,,
2943,0,5,2,248,248,238,233,-6,0.06,0.01,1.0,0,0,-0,0.06,1,73,0,7,41,92,0.579,0.0,110,4.92,12.8,0.0,1,0.0,0.0,0.0,0,0,0,1,0,0,250,250,0,0.0,0.0,0.0,0.0,0,0,0.0,0,0.0,-1,0.0,,0.0,0,0.0,0.049
2963,0,,,248,248,238,233,,0.06,0.01,1.0,0,0,-0,0.06,,73,0,7,41,92,0.58,0.0,110,4.92,12.8,0.0,1,0.0,0.0,0.0,0,0,0,1,0,,,,,,,,,,,,,,,,,,,,
2983,0,,,248,248,238,233,,0.06,0.01,1.0,0,0,-0,0.06,,73,0,7,41,92,0.58,0.0,110,4.91,12.8,0.0,1,0.0,0.0,0.0,0,0,0,1,0,,,,,,,,,,,,,,,,,,,,
3003,0,,,248,248,238,233,,0.06,0.01,1.0,0,0,-0,0.06,,73,0,7,41,92,0.582,0.0,110,4.91,12.8,0.0,1,0.0,0.0,0.0,0,0,0,1,0,,,,,,,,,,,,,,,,,,,,
3023,0,,,248,248,238,233,,0.06,0.01,1.0,0,0,-0,0.06,,73,0,7,41,92,0.582,0.0,110,4.92,12.8,0.0,1,0.0,0.0,0.0,0,0,0,1,0,,,,,,,,,,,,,,,,,,,,
3043,0,5,3,248,248,238,233,-5,0.06,0.01,1.0,0,0,-0,0.06,1,73,0,7,41,92,0.584,0.0,110,4.89,12.8,0.0,1,0.0,0.0,0.0,0,0,0,0,0,0,250,250,0,0.0,0.0,0.0,0.0,0,0,0.0,0,0.0,-1,0.0,0.0,0.0,0,0.0,0.0507
3063,0,,,248,248,238,233,,0.06,0.01,1.0,0,0,-0,0.06,,73,0,7,41,92,0.585,0.0,110,4.84,13.0,0.0,1,0.0,0.0,0.0,0,0,0,0,0,,,,,,,,,,,,,,,,,,,,
3083,0,,,248,248,238,233,,0.06,0.01,1.0,0,0,-0,0.06,,73,0,7,41,92,0.586,0.0,110,4.0,13.0,0.0,1,0.0,0.0,0.0,0,0,0,0,0,,,,,,,,,,,,,,,,,,,,
3103,0,,,248,248,238,233,,0.06,0.01,1.0,0,0,-0,0.06,,73,0,7,41,92,0.586,0.0,110,3.42,13.1,0.0,1,0.0,0.0,0.0,0,0,0,0,0,,,,,,,,,,,,,,,,,,,,
3123,0,,,248,248,238,233,,0.06,0.01,1.0,0,0,-0,0.06,,73,0,7,41,92,0.587,0.0,110,3.16,13.1,0.0,1,0.0,0.0,0.0,0,0,0,0,0,,,,,,,,,,,,,,,,,,,,
3143,0,5,1,248,248,238,233,-5,0.06,0.0,1.0,0,0,-0,0.06,1,73,0,7,41,92,0.588,0.0,110,2.97,13.1,0.0,1,0.0,0.0,0.0,0,0,0,0,0,0,250,250,0,0.0,0.0,0.0,0.0,0,0,0.0,0,0.0,-1,0.0,,0.0,0,0.0,0.0524
3163,0,,,248,248,238,233,,0.06,0.0,1.0,0,0,-0,0.06,,73,0,7,41,92,0.589,0.0,110,2.81,13.1,0.0,1,0.0,0.0,0.0,0,0,0,0,0,,,,,,,,,,,,,,,,,,,,
3183,0,,,248,248,238,233,,0.06,0.01,1.0,0,0,0,0.06,,73,0,7,41,92,0.592,0.0,110,2.68,13.1,0.0,1,0.0,0.0,0.0,0,0,0,0,0,,,,,,,,,,,,,,,,,,,,
3203,0,,,248,248,238,233,,0.06,0.0,1.0,0,0,0,0.06,,73,0,7,41,92,0.594,0.0,110,2.58,13.0,0.0,1,0.0,0.0,0.0,0,0,0,0,0,,,,,,,,,,,,,,,,,,,,
3223,0,,,248,248,238,233,,0.06,0.01,1.0,0,0,0,0.06,,73,0,7,41,92,0.597,0.0,110,2.48,13.0,0.0,1,0.0,0.0,0.0,0,0,0,0,0,,,,,,,,,,,,,,,,,,,,
3243,0,4,3,248,248,238,233,-5,0.06,0.01,1.0,0,-0,0,0.06,1,73,0,7,41,92,0.6,0.0,110,2.4,13.0,0.0,1,0.0,0.0,0.0,0,0,0,0,0,0,250,250,0,0.0,0.0,0.0,0.0,0,0,0.0,0,0.0,-1,0.0,0.0,0.0,0,0.0,0.054
3263,0,,,248,248,238,233,,0.06,0.0,1.0,0,0,0,0.06,,73,0,7,41,92,0.602,0.0,110,2.33,13.0,0.0,1,0.0,0.0,0.0,0,0,0,0,0,,,,,,,,,,,,,,,,,,,,
3283,0,,,248,248,238,233,,0.06,0.0,1.0,0,0,0,0.06,,73,0,7,41,92,0.604,0.0,110,2.27,13.1,0.0,1,0.0,0.0,0.0,0,0,0,0,0,,,,,,,,,,,,,,,,,,,,
3303,0,,,248,248,238,233,,0.06,0.0,1.0,0,0,0,0.06,,73,0,7,41,92,0.606,0.0,110,2.21,13.1,0.0,1,0.0,0.0,0.0,0,0,0,0,0,,,,,,,,,,,,,,,,,,,,
3323,0,,,248,248,238,233,,0.06,0.0,1.0,0,0,0,0.06,,73,0,7,41,92,0.608,0.0,110,2.16,13.1,0.0,1,0.0,0.0,0.0,0,0,0,0,0,,,,,,,,,,,,,,,,,,,,
3343,0,4,3,248,248,238,233,-5,0.06,0.0,1.0,0,0,0,0.06,1,73,0,7,41,92,0.61,0.0,110,2.11,13.1,0.0,1,0.0,0.0,0.0,0,0,0,0,0,0,250,250,0,0.0,0.0,0.0,0.0,0,0,0.0,0,0.0,-1,0.0,,0.0,0,0.0,0.0557
3363,0,,,248,248,238,233,,0.06,0.0,1.0,0,0,0,0.06,,73,0,7,41,92,0.612,0.0,110,2.05,13.0,0.0,1,0.0,0.0,0.0,0,0,0,0,0,,,,,,,,,,,,,,,,,,,,
3383,0,,,248,248,238,233,,0.06,0.0,1.0,0,0,-0,0.06,,73,0,7,41,92,0.614,0.0,110,2.0,13.0,0.0,1,0.0,0.0,0.0,0,0,0,0,0,,,,,,,,,,,,,,,,,,,,
3403,0,,,248,248,238,233,,0.06,0.0,1.0,0,0,0,0.06,,73,0,7,41,92,0.616,0.0,110,1.97,13.0,0.0,1,0.0,0.0,0.0,0,0,0,0,0,,,,,,,,,,,,,,,,,,,,
3423,0,,,248,248,238,233,,0.06,0.0,1.0,0,0,0,0.06,,73,0,7,41,92,0.618,0.0,110,1.94,13.0,0.0,1,0.0,0.0,0.0,0,0,0,0,0,,,,,,,,,,,,,,,,,,,,
3443,0,5,1,248,248,238,233,-5,0.06,0.0,1.0,0,0,-0,0.06,1,73,0,7,41,92,0.62,0.0,110,1.89,13.1,0.0,1,0.0,0.0,0.0,0,0,0,0,0,0,250,250,0,0.0,0.0,0.0,0.0,0,0,0.0,0,0.0,-1,0.0,0.0,0.0,0,0.0,0.0574
3463,0,,,248,248,238,233,,0.06,0.0,1.0,0,0,0,0.06,,73,0,7,41,92,0.622,0.0,110,1.86,13.1,0.0,1,0.0,0.0,0.0,0,0,0,0,0,,,,,,,,,,,,,,,,,,,,
3483,0,,,248,248,238,233,,0.06,0.0,1.0,0,0,0,0.06,,73,0,7,41,92,0.624,0.0,110,1.83,13.1,0.0,1,0.0,0.0,0.0,0,0,0,0,0,,,,,,,,,,,,,,,,,,,,
3503,0,,,248,248,238,233,,0.06,0.0,1.0,0,0,0,0.06,,73,0,7,41,92,0.625,0.0,110,1.8,13.1,0.0,1,0.0,0.0,0.0,0,0,0,0,0,,,,,,,,,,,,,,,,,,,,
3523,0,,,248,248,238,233,,0.06,0.0,1.0,0,0,0,0.06,,73,0,7,41,92,0.628,0.0,110,1.78,13.0,0.0,1,0.0,0.0,0.0,0,0,0,0,0,,,,,,,,,,,,,,,,,,,,
3543,0,5,2,248,248,238,233,-5,0.06,0.0,1.0,0,0,0,0.06,1,73,0,7,41,92,0.63,0.0,110,1.75,13.0,0.0,1,0.0,0.0,0.0,0,0,0,0,0,0,250,250,0,0.0,0.0,0.0,0.0,0,0,0.0,0,0.0,-1,0.0,,0.0,0,0.0,0.059
3563,0,,,248,248,238,233,,0.06,0.0,1.0,0,0,0,0.06,,73,0,7,41,92,0.632,0.0,110,1.75,13.0,0.0,1,0.0,0.0,0.0,0,0,0,0,0,,,,,,,,,,,,,,,,,,,,
3583,0,,,248,248,238,233,,0.06,0.0,1.0,0,0,-0,0.06,,73,0,7,41,92,0.633,0.0,110,1.73,13.0,0.0,1,0.0,0.0,0.0,0,0,0,0,0,,,,,,,,,,,,,,,,,,,,
3603,0,,,248,248,238,233,,0.06,0.0,1.0,0,0,-0,0.06,,73,0,7,41,92,0.635,0.0,110,1.7,13.0,0.0,1,0.0,0.0,0.0,0,0,0,0,0,,,,,,,,,,,,,,,,,,,,
3623,0,,,248,248,238,233,,0.06,0.0,1.0,0,0,-0,0.06,,73,0,7,41,92,0.636,0.0,110,1.69,13.1,0.0,1,0.0,0.0,0.0,0,0,0,0,0,,,,,,,,,,,,,,,,,,,,
3643,0,5,2,248,248,238,233,-6,0.06,0.0,1.0,0,0,0,0.06,1,73,0,7,41,92,0.636,0.0,110,1.67,13.1,0.0,1,0.0,0.0,0.0,0,0,0,0,0,0,250,250,0,0.0,0.0,0.0,0.0,0,0,0.0,0,0.0,-1,0.0,0.0,0.0,0,0.0,0.0607
3663,0,,,248,248,238,233,,0.06,0.0,1.0,0,0,0,0.06,,73,0,7,41,92,0.637,0.0,110,1.66,13.1,0.0,1,0.0,0.0,0.0,0,0,0,0,0,,,,,,,,,,,,,,,,,,,,
3683,0,,,248,248,238,233,,0.06,0.0,1.0,0,0,0,0.06,,73,0,7,41,92,0.638,0.0,110,1.64,13.0,0.0,1,0.0,0.0,0.0,0,0,0,0,0,,,,,,,,,,,,,,,,,,,,
3703,0,,,248,248,238,233,,0.06,0.0,1.0,0,0,-0,0.06,,73,0,7,41,92,0.639,0.0,110,1.61,13.0,0.0,1,0.0,0.0,0.0,0,0,0,0,0,,,,,,,,,,,,,,,,,,,,
3723,0,,,248,248,238,233,,0.06,0.0,1.0,0,0,-0,0.06,,73,0,7,41,92,0.639,0.0,110,1.61,13.0,0.0,1,0.0,0.0,0.0,0,0,0,0,0,,,,,,,,,,,,,,,,,,,,
3743,0,5,3,248,248,238,233,-6,0.06,0.0,1.0,0,0,0,0.06,1,73,0,7,41,92,0.639,0.0,110,1.58,13.0,0.0,1,0.0,0.0,0.0,0,0,0,0,0,0,250,250,0,0.0,0.0,0.0,0.0,0,0,0.0,0,0.0,-1,0.0,,0.0,0,0.0,0.0624
3763,0,,,248,248,238,233,,0.06,0.0,1.0,0,0,0,0.06,,73,0,7,41,92,0.639,0.0,110,1.57,13.0,0.0,1,0.0,0.0,0.0,0,0,0,0,0,,,,,,,,,,,,,,,,,,,,
3783,0,,,248,248,238,233,,0.06,0.0,1.0,0,0,-0,0.06,,73,0,7,41,92,0.639,0.0,110,1.56,13.1,0.0,1,0.0,0.0,0.0,0,0,0,0,0,,,,,,,,,,,,,,,,,,,,
3803,0,,,248,248,238,233,,0.06,0.0,1.0,0,0,-0,0.06,,73,0,7,41,92,0.639,0.0,110,1.54,13.1,0.0,1,0.0,0.0,0.0,0,0,0,0,0,,,,,,,,,,,,,,,,,,,,
3823,0,,,248,248,238,233,,0.06,0.0,1.0,0,0,0,0.06,,73,0,7,41,92,0.639,0.0,110,1.53,13.1,0.0,1,0.0,0.0,0.0,0,0,0,0,0,,,,,,,,,,,,,,,,,,,,
3843,0,5,2,248,248,238,233,-6,0.06,0.0,1.0,0,0,0,0.06,1,73,0,7,41,92,0.639,0.0,110,1.51,13.0,0.0,1,0.0,0.0,0.0,0,0,0,0,0,0,250,250,0,0.0,0.0,0.0,0.0,0,0,0.0,0,0.0,-1,0.0,0.0,0.0,0,0.0,0.064
3863,0,,,248,248,238,233,,0.06,0.0,1.0,0,0,-0,0.06,,73,0,7,41,92,0.64,0.0,111,1.51,13.0,0.0,1,0.0,0.0,0.0,0,0,0,0,0,,,,,,,,,,,,,,,,,,,,
3883,0,,,248,250,238,233,,0.06,0.0,1.0,0,0,0,0.06,,73,0,7,41,92,0.641,0.0,111,1.51,13.0,0.0,1,0.0,0.0,0.0,0,0,0,0,0,,,,,,,,,,,,,,,,,,,,
3903,0,,,248,249,238,233,,0.05,0.0,1.0,0,0,-0,0.05,,73,0,7,41,92,0.642,0.0,111,1.48,13.0,0.0,1,0.0,0.0,0.0,0,0,0,0,0,,,,,,,,,,,,,,,,,,,,
3923,0,,,248,250,238,233,,0.05,0.0,1.0,0,1,-0,0.05,,73,0,7,41,92,0.642,0.0,111,1.48,13.0,0.0,1,0.0,0.0,0.0,0,0,0,0,0,,,,,,,,,,,,,,,,,,,,
3943,0,5,1,248,249,238,233,-5,0.06,0.0,1.0,0,1,-0,0.06,1,73,0,7,41,92,0.643,0.0,111,1.45,13.0,0.0,1,0.0,0.0,0.0,0,0,0,0,0,0,250,250,0,0.0,0.0,0.0,0.0,0,0,0.0,0,0.0,-1,0.0,,0.0,0,0.0,0.0657
3963,0,,,248,249,238,233,,0.06,0.0,1.0,0,1,0,0.06,,73,0,7,41,92,0.643,0.0,111,1.45,13.1,0.0,1,0.0,0.0,0.0,0,0,0,0,0,,,,,,,,,,,,,,,,,,,,
3983,0,,,248,249,238,233,,0.06,0.0,1.0,0,1,0,0.06,,73,0,7,41,92,0.643,0.0,110,1.45,13.1,0.0,1,0.0,0.0,0.0,0,0,0,0,0,,,,,,,,,,,,,,,,,,,,
4003,0,,,248,248,238,233,,0.06,0.0,1.0,0,1,0,0.06,,73,0,7,41,92,0.643,0.0,110,1.42,13.1,0.0,1,0.0,0.0,0.0,0,0,0,0,0,,,,,,,,,,,,,,,,,,,,
4023,0,,,248,248,238,233,,0.06,0.0,1.0,0,1,0,0.06,,73,0,7,41,92,0.643,0.0,110,1.42,13.0,0.0,1,0.0,0.0,0.0,0,0,0,0,0,,,,,,,,,,,,,,,,,,,,
4043,0,5,1,248,248,238,233,-6,0.06,0.0,1.0,0,1,0,0.06,1,73,0,7,41,92,0.644,0.0,110,1.42,13.0,0.0,1,0.0,0.0,0.0,0,0,0,0,0,0,250,250,0,0.0,0.0,0.0,0.0,0,0,0.0,0,0.0,-1,0.0,0.0,0.0,0,0.0,0.0674
4063,0,,,248,248,238,233,,0.06,0.0,1.0,0,1,0,0.06,,73,0,7,41,92,0.644,0.0,110,1.4,13.0,0.0,1,0.0,0.0,0.0,0,0,0,0,0,,,,,,,,,,,,,,,,,,,,
4083,0,,,248,248,238,233,,0.06,0.0,1.0,0,1,0,0.06,,73,0,7,41,92,0.644,0.0,110,1.4,13.0,0.0,1,0.0,0.0,0.0,0,0,0,0,0,,,,,,,,,,,,,,,,,,,,
4103,0,,,248,248,238,233,,0.06,0.0,1.0,0,0,0,0.06,,73,0,7,41,92,0.644,0.0,110,1.4,13.0,0.0,1,0.0,0.0,0.0,0,0,0,0,0,,,,,,,,,,,,,,,,,,,,
4123,0,,,248,248,238,233,,0.06,0.0,1.0,0,0,0,0.06,,73,0,7,41,92,0.643,0.0,110,1.39,13.1,0.0,1,0.0,0.0,0.0,0,0,0,0,0,,,,,,,,,,,,,,,,,,,,
4143,0,3,3,248,248,238,233,-5,0.06,0.0,1.0,0,0,0,0.06,1,73,0,7,41,92,0.642,0.0,110,1.37,13.1,0.0,1,0.0,0.0,0.0,0,0,0,0,0,0,250,250,0,0.0,0.0,0.0,0.0,0,0,0.0,0,0.0,-1,0.0,,0.0,0,0.0,0.069
4163,0,,,248,248,238,233,,0.06,0.0,1.0,0,0,0,0.06,,73,0,7,41,92,0.642,0.0,110,1.37,13.1,0.0,1,0.0,0.0,0.0,0,0,0,0,0,,,,,,,,,,,,,,,,,,,,
4183,0,,,248,248,238,233,,0.06,0.0,1.0,0,0,0,0.06,,73,0,7,41,92,0.641,0.0,110,1.37,13.1,0.0,1,0.0,0.0,0.0,0,0,0,0,0,,,,,,,,,,,,,,,,,,,,
4203,0,,,248,248,238,233,,0.06,0.0,1.0,0,0,0,0.06,,73,0,7,41,92,0.642,0.0,110,1.37,13.0,0.0,1,0.0,0.0,0.0,0,0,0,0,0,,,,,,,,,,,,,,,,,,,,
4223,0,,,248,248,238,233,,0.06,0.0,1.0,0,0,0,0.06,,73,0,7,41,92,0.641,0.0,110,1.34,13.0,0.0,1,0.0,0.0,0.0,0,0,0,0,0,,,,,,,,,,,,,,,,,,,,
4243,0,5,1,248,248,238,233,-5,0.06,0.0,1.0,0,0,0,0.06,1,73,0,7,41,92,0.642,0.0,110,1.34,13.0,0.0,1,0.0,0.0,0.0,0,0,0,0,0,0,250,250,0,0.0,0.0,0.0,0.0,0,0,0.0,0,0.0,-1,0.0,0.0,0.0,0,0.0,0.0707
4263,0,,,248,248,238,233,,0.06,0.0,1.0,0,0,0,0.06,,73,0,7,41,92,0.642,0.0,110,1.33,13.0,0.0,1,0.0,0.0,0.0,0,0,0,0,0,,,,,,,,,,,,,,,,,,,,
4283,0,,,248,248,238,233,,0.06,0.0,1.0,0,0,0,0.06,,73,0,7,41,92,0.642,0.0,110,1.33,13.0,0.0,1,0.0,0.0,0.0,0,0,0,0,0,,,,,,,,,,,,,,,,,,,,
4303,0,,,248,248,238,233,,0.06,0.0,1.0,0,0,0,0.06,,73,0,7,41,92,0.642,0.0,110,1.33,13.1,0.0,1,0.0,0.0,0.0,0,0,0,0,0,,,,,,,,,,,,,,,,,,,,
4323,0,,,248,248,238,233,,0.06,0.0,1.0,0,0,0,0.06,,73,0,7,41,92,0.642,0.0,110,1.32,13.1,0.0,1,0.0,0.0,0.0,0,0,0,0,0,,,,,,,,,,,,,,,,,,,,
4343,0,5,2,248,248,238,233,-6,0.06,0.0,1.0,0,0,-0,0.06,1,73,0,7,41,92,0.642,0.0,110,1.31,13.1,0.0,1,0.0,0.0,0.0,0,0,0,0,0,0,250,250,0,0.0,0.0,0.0,0.0,0,0,0.0,0,0.0,-1,0.0,,0.0,0,0.0,0.0724
4363,0,,,248,248,238,233,,0.06,0.0,1.0,0,0,-0,0.06,,73,0,7,41,92,0.642,0.0,110,1.31,13.1,0.0,1,0.0,0.0,0.0,0,0,0,0,0,,,,,,,,,,,,,,,,,,,,
4383,0,,,248,248,238,233,,0.06,0.0,1.0,0,0,-0,0.06,,73,0,7,41,92,0.643,0.0,110,1.31,13.0,0.0,1,0.0,0.0,0.0,0,0,0,0,0,,,,,,,,,,,,,,,,,,,,
4403,0,,,248,248,238,233,,0.06,0.0,1.0,0,0,-0,0.06,,73,0,7,41,92,0.643,0.0,110,1.31,13.0,0.0,1,0.0,0.0,0.0,0,0,0,0,0,,,,,,,,,,,,,,,,,,,,
4423,0,,,248,248,238,233,,0.06,0.0,1.0,0,0,-0,0.06,,73,0,7,41,92,0.644,0.0,110,1.3,13.0,0.0,1,0.0,0.0,0.0,0,0,0,0,0,,,,,,,,,,,,,,,,,,,,
4443,0,5,1,248,248,238,233,-6,0.06,0.0,1.0,0,0,-0,0.06,1,73,0,7,41,92,0.644,0.0,110,1.28,13.0,0.0,1,0.0,0.0,0.0,0,0,0,0,0,0,250,250,0,0.0,0.0,0.0,0.0,0,0,0.0,0,0.0,-1,0.0,0.0,0.0,0,0.0,0.074
4463,0,,,248,248,238,233,,0.06,0.0,1.0,0,0,-0,0.06,,73,0,7,41,92,0.643,0.0,110,1.28,13.0,0.0,1,0.0,0.0,0.0,0,0,0,0,0,,,,,,,,,,,,,,,,,,,,
4483,0,,,248,248,238,233,,0.06,0.0,1.0,0,0,-0,0.06,,73,0,7,41,92,0.643,0.0,110,1.28,13.1,0.0,1,0.0,0.0,0.0,0,0,0,0,0,,,,,,,,,,,,,,,,,,,,
4503,0,,,248,248,238,233,,0.06,0.0,1.0,0,0,-0,0.06,,73,0,7,41,92,0.642,0.0,110,1.28,13.1,0.0,1,0.0,0.0,0.0,0,0,0,0,0,,,,,,,,,,,,,,,,,,,,
4523,0,,,248,248,238,233,,0.06,0.0,1.0,0,0,-0,0.06,,73,0,7,41,92,0.641,0.0,110,1.28,13.1,0.0,1,0.0,0.0,0.0,0,0,0,0,0,,,,,,,,,,,,,,,,,,,,
4543,0,5,1,248,248,238,233,-5,0.06,0.0,1.0,0,0,0,0.06,1,73,0,7,41,92,0.641,0.0,110,1.28,13.0,0.0,1,0.0,0.0,0.0,0,0,0,0,0,0,250,250,0,0.0,0.0,0.0,0.0,0,0,0.0,0,0.0,-1,0.0,,0.0,0,0.0,0.0757
4563,0,,,248,248,238,233,,0.06,0.0,1.0,0,0,-0,0.06,,73,0,7,41,92,0.641,0.0,110,1.28,13.0,0.0,1,0.0,0.0,0.0,0,0,0,0,0,,,,,,,,,,,,,,,,,,,,
4583,0,,,248,248,238,233,,0.06,0.0,1.0,0,0,-0,0.06,,73,0,7,41,92,0.641,0.0,110,1.28,13.0,0.0,1,0.0,0.0,0.0,0,0,0,0,0,,,,,,,,,,,,,,,,,,,,
4603,0,,,248,248,238,233,,0.06,0.0,1.0,0,0,-0,0.06,,73,0,7,41,92,0.641,0.0,110,1.26,13.0,0.0,1,0.0,0.0,0.0,0,0,0,0,0,,,,,,,,,,,,,,,,,,,,
4623,0,,,248,248,238,233,,0.06,0.0,1.0,0,0,-0,0.06,,73,0,7,41,92,0.64,0.0,110,1.26,13.0,0.0,1,0.0,0.0,0.0,0,0,0,0,0,,,,,,,,,,,,,,,,,,,,
4643,0,5,2,248,248,238,233,-6,0.06,0.0,1.0,0,0,0,0.06,1,73,0,7,41,92,0.64,0.0,110,1.26,13.1,0.0,1,0.0,0.0,0.0,0,0,0,0,0,0,250,250,0,0.0,0.0,0.0,0.0,0,0,0.0,0,0.0,-1,0.0,0.0,0.0,0,0.0,0.0774
4663,0,,,248,248,238,233,,0.06,0.0,1.0,0,0,0,0.06,,73,0,7,41,92,0.639,0.0,110,1.26,13.1,0.0,1,0.0,0.0,0.0,0,0,0,0,0,,,,,,,,,,,,,,,,,,,,
4683,0,,,248,248,238,233,,0.06,0.0,1.0,0,0,-0,0.06,,73,0,7,41,92,0.639,0.0,110,1.26,13.1,0.0,1,0.0,0.0,0.0,0,0,0,0,0,,,,,,,,,,,,,,,,,,,,
4703,0,,,248,248,238,233,,0.06,0.0,1.0,0,0,-0,0.06,,73,0,7,41,92,0.638,0.0,110,1.26,13.1,0.0,1,0.0,0.0,0.0,0,0,0,0,0,,,,,,,,,,,,,,,,,,,,
4723,0,,,248,248,238,233,,0.06,0.0,1.0,0,0,-0,0.06,,73,0,7,41,92,0.639,0.0,110,1.26,13.0,0.0,1,0.0,0.0,0.0,0,0,0,0,0,,,,,,,,,,,,,,,,,,,,
4743,0,5,1,248,248,238,233,-5,0.06,0.0,1.0,0,0,-0,0.06,1,73,0,7,41,92,0.639,0.0,110,1.26,13.0,0.0,1,0.0,0.0,0.0,0,0,0,0,0,0,250,250,0,0.0,0.0,0.0,0.0,0,0,0.0,0,0.0,-1,0.0,,0.0,0,0.0,0.079
4763,0,,,248,248,238,233,,0.06,0.0,1.0,0,0,-0,0.06,,73,0,7,41,92,0.64,0.0,110,1.24,13.0,0.0,1,0.0,0.0,0.0,0,0,0,0,0,,,,,,,,,,,,,,,,,,,,
4783,0,,,248,248,238,233,,0.06,0.0,1.0,0,0,-0,0.06,,73,0,7,41,92,0.64,0.0,110,1.24,13.0,0.0,1,0.0,0.0,0.0,0,0,0,0,0,,,,,,,,,,,,,,,,,,,,
4803,0,,,248,248,238,233,,0.06,0.0,1.0,0,-0,-0,0.06,,73,0,7,41,92,0.639,0.0,110,1.23,13.1,0.0,1,0.0,0.0,0.0,0,0,0,0,0,,,,,,,,,,,,,,,,,,,,
4823,0,,,248,248,238,233,,0.06,0.0,1.0,0,0,-0,0.06,,73,0,7,41,92,0.639,0.0,110,1.23,13.1,0.0,1,0.0,0.0,0.0,0,0,0,0,0,,,,,,,,,,,,,,,,,,,,
4843,0,5,3,248,248,238,233,-5,0.06,0.0,1.0,0,-0,-0,0.06,1,73,0,7,41,92,0.639,0.0,110,1.23,13.1,0.0,1,0.0,0.0,0.0,0,0,0,0,0,0,250,250,0,0.0,0.0,0.0,0.0,0,0,0.0,0,0.0,-1,0.0,0.0,0.0,0,0.0,0.0807
4863,0,,,248,248,238,233,,0.06,0.0,1.0,0,-0,-0,0.06,,73,0,7,41,92,0.639,0.0,110,1.23,13.1,0.0,1,0.0,0.0,0.0,0,0,0,0,0,,,,,,,,,,,,,,,,,,,,
4883,0,,,248,248,238,233,,0.06,0.0,1.0,0,-0,-0,0.06,,73,0,7,41,92,0.639,0.0,110,1.23,13.0,0.0,1,0.0,0.0,0.0,0,0,0,0,0,,,,,,,,,,,,,,,,,,,,
4903,0,,,248,248,238,233,,0.06,0.0,1.0,0,-0,-0,0.06,,73,0,7,41,92,0.639,0.0,110,1.22,13.0,0.0,1,0.0,0.0,0.0,0,0,0,0,0,,,,,,,,,,,,,,,,,,,,
4923,0,,,248,248,238,233,,0.06,0.0,1.0,0,-0,-0,0.06,,73,0,7,41,92,0.639,0.0,110,1.21,13.0,0.0,1,0.0,0.0,0.0,0,0,0,0,0,,,,,,,,,,,,,,,,,,,,
4943,0,5,1,248,248,238,233,-5,0.06,0.0,1.0,0,-0,-0,0.06,1,73,0,7,41,92,0.639,0.0,110,1.21,13.0,0.0,1,0.0,0.0,0.0,0,0,0,0,0,0,250,250,0,0.0,0.0,0.0,0.0,0,0,0.0,0,0.0,-1,0.0,,0.0,0,0.0,0.0824
4963,0,,,248,248,238,233,,0.06,0.0,1.0,0,-0,-0,0.06,,73,0,7,41,92,0.639,0.0,110,1.21,13.0,0.0,1,0.0,0.0,0.0,0,0,0,0,0,,,,,,,,,,,,,,,,,,,,
4983,0,,,248,248,238,233,,0.06,0.0,1.0,0,-0,-0,0.06,,73,0,7,41,92,0.638,0.0,110,1.21,13.1,0.0,1,0.0,0.0,0.0,0,0,0,0,0,,,,,,,,,,,,,,,,,,,,
5003,0,,,248,248,238,233,,0.06,0.0,1.0,0,-0,-0,0.06,,73,0,7,41,92,0.638,0.0,110,1.21,13.1,0.0,1,0.0,0.0,0.0,0,0,0,0,0,,,,,,,,,,,,,,,,,,,,
5023,0,,,248,248,238,233,,0.06,0.0,1.0,0,-0,-0,0.06,,73,0,7,41,92,0.638,0.0,110,1.21,13.1,0.0,1,0.0,0.0,0.0,0,0,0,0,0,,,,,,,,,,,,,,,,,,,,
5043,0,5,3,248,248,238,233,-5,0.06,0.0,1.0,0,-0,-0,0.06,1,73,0,7,41,92,0.637,0.0,110,1.21,13.1,0.0,1,0.0,0.0,0.0,0,0,0,0,0,0,250,250,0,0.0,0.0,0.0,0.0,0,0,0.0,0,0.0,-1,0.0,0.0,0.0,0,0.0,0.084
5063,0,,,248,248,238,233,,0.06,0.0,1.0,0,-0,-0,0.06,,73,0,7,41,92,0.638,0.0,110,1.19,13.0,0.0,1,0.0,0.0,0.0,0,0,0,0,0,,,,,,,,,,,,,,,,,,,,
5083,0,,,248,248,238,233,,0.06,0.0,1.0,0,-0,-0,0.06,,73,0,7,41,92,0.638,0.0,110,1.18,13.0,0.0,1,0.0,0.0,0.0,0,0,0,0,0,,,,,,,,,,,,,,,,,,,,
5103,0,,,248,248,238,233,,0.06,0.0,1.0,0,-0,-0,0.06,,73,0,7,41,92,0.638,0.0,110,1.18,13.0,0.0,1,0.0,0.0,0.0,0,0,0,0,0,,,,,,,,,,,,,,,,,,,,
5123,0,,,248,248,238,233,,0.06,0.0,1.0,0,-0,-0,0.06,,73,0,7,41,92,0.638,0.0,110,1.18,13.0,0.0,1,0.0,0.0,0.0,0,0,0,0,0,,,,,,,,,,,,,,,,,,,,
5143,0,4,3,248,248,238,233,-6,0.06,0.0,1.0,0,-0,-0,0.06,1,73,0,7,41,92,0.638,0.0,110,1.18,13.1,0.0,1,0.0,0.0,0.0,0,0,0,0,0,0,250,250,0,0.0,0.0,0.0,0.0,0,0,0.0,0,0.0,-1,0.0,,0.0,0,0.0,0.0857
5163,0,,,248,248,238,233,,0.06,0.0,1.0,0,-0,-0,0.06,,73,0,7,41,92,0.638,0.0,110,1.18,13.1,0.0,1,0.0,0.0,0.0,0,0,0,0,0,,,,,,,,,,,,,,,,,,,,
5183,0,,,248,248,238,233,,0.06,0.0,1.0,0,-0,-0,0.06,,73,0,7,41,92,0.638,0.0,110,1.18,13.1,0.0,1,0.0,0.0,0.0,0,0,0,0,0,,,,,,,,,,,,,,,,,,,,
5203,0,,,248,248,238,233,,0.06,0.01,1.0,0,-0,-0,0.06,,73,0,7,41,92,0.638,0.0,110,1.18,13.1,0.0,1,0.0,0.0,0.0,0,0,0,0,0,,,,,,,,,,,,,,,,,,,,
5223,0,,,248,249,238,233,,0.06,0.01,1.0,0,-0,-0,0.06,,73,0,7,41,92,0.638,0.0,110,1.18,13.0,0.0,1,0.0,0.0,0.0,0,0,0,0,0,,,,,,,,,,,,,,,,,,,,
5243,0,4,2,248,249,238,233,-5,0.06,0.01,1.0,0,-0,-0,0.06,1,73,0,7,41,92,0.638,0.0,110,1.18,13.0,0.0,1,0.0,0.0,0.0,0,0,0,0,0,0,250,250,0,0.0,0.0,0.0,0.0,0,0,0.0,0,0.0,-1,0.0,0.0,0.0,0,0.0,0.0874
5263,0,,,248,250,238,233,,0.06,0.01,1.0,0,-0,-0,0.06,,73,0,7,41,92,0.638,0.0,110,1.18,13.0,0.0,1,0.0,0.0,0.0,0,0,0,0,0,,,,,,,,,,,,,,,,,,,,
5283,0,,,248,250,238,233,,0.06,0.0,1.0,0,-0,-0,0.06,,73,0,7,41,92,0.638,0.0,110,1.17,13.0,0.0,1,0.0,0.0,0.0,0,0,0,0,0,,,,,,,,,,,,,,,,,,,,
5303,0,,,248,249,238,233,,0.06,0.0,1.0,0,-0,-0,0.06,,73,0,7,41,92,0.638,0.0,110,1.15,13.0,0.0,1,0.0,0.0,0.0,0,0,0,0,0,,,,,,,,,,,,,,,,,,,,
5323,0,,,248,249,238,233,,0.06,0.0,1.0,0,-0,0,0.06,,73,0,7,41,92,0.638,0.0,110,1.15,13.1,0.0,1,0.0,0.0,0.0,0,0,0,0,0,,,,,,,,,,,,,,,,,,,,
5343,0,5,1,248,249,238,233,-5,0.06,0.0,1.0,0,-0,0,0.06,1,73,0,7,41,92,0.638,0.0,110,1.15,13.1,0.0,1,0.0,0.0,0.0,0,0,0,0,0,0,250,250,0,0.0,0.0,0.0,0.0,0,0,0.0,0,0.0,-1,0.0,,0.0,0,0.0,0.089
5363,0,,,248,249,238,233,,0.06,0.0,1.0,0,-0,-0,0.06,,73,0,7,41,92,0.638,0.0,110,1.15,13.1,0.0,1,0.0,0.0,0.0,0,0,0,0,0,,,,,,,,,,,,,,,,,,,,
5383,0,,,248,249,238,233,,0.06,0.0,1.0,0,-0,-0,0.06,,73,0,7,41,92,0.638,0.0,110,1.15,13.1,0.0,1,0.0,0.0,0.0,0,0,0,0,0,,,,,,,,,,,,,,,,,,,,
5403,0,,,248,249,238,233,,0.06,0.0,1.0,0,-0,-0,0.06,,73,0,7,41,92,0.639,0.0,110,1.15,13.0,0.0,1,0.0,0.0,0.0,0,0,0,0,0,,,,,,,,,,,,,,,,,,,,
5423,0,,,248,249,238,233,,0.06,0.0,1.0,0,-0,-0,0.06,,73,0,7,41,92,0.639,0.0,110,1.15,13.0,0.0,1,0.0,0.0,0.0,0,0,0,0,0,,,,,,,,,,,,,,,,,,,,
5443,0,5,2,248,249,238,233,-6,0.06,0.0,1.0,0,-0,-0,0.06,1,73,0,7,41,92,0.64,0.0,110,1.15,13.0,0.0,1,0.0,0.0,0.0,0,0,0,0,0,0,250,250,0,0.0,0.0,0.0,0.0,0,0,0.0,0,0.0,-1,0.0,0.0,0.0,0,0.0,0.0907
5463,0,,,248,249,238,233,,0.06,0.0,1.0,0,-0,-0,0.06,,73,0,7,41,92,0.64,0.0,110,1.15,13.0,0.0,1,0.0,0.0,0.0,0,0,0,0,0,,,,,,,,,,,,,,,,,,,,
5483,0,,,248,249,238,233,,0.06,0.0,1.0,0,0,-0,0.06,,73,0,7,41,92,0.64,0.0,110,1.15,13.1,0.0,1,0.0,0.0,0.0,0,0,0,0,0,,,,,,,,,,,,,,,,,,,,
5503,0,,,248,249,238,233,,0.06,0.0,1.0,0,0,-0,0.06,,73,0,7,41,92,0.64,0.0,110,1.15,13.1,0.0,1,0.0,0.0,0.0,0,0,0,0,0,,,,,,,,,,,,,,,,,,,,
5523,0,,,248,249,238,233,,0.06,0.0,1.0,0,-0,-0,0.06,,73,0,7,41,92,0.641,0.0,110,1.15,13.1,0.0,1,0.0,0.0,0.0,0,0,0,0,0,,,,,,,,,,,,,,,,,,,,
5543,0,5,1,248,249,238,233,-5,0.06,0.0,1.0,0,0,-0,0.06,1,73,0,7,41,92,0.641,0.0,110,1.13,13.1,0.0,1,0.0,0.0,0.0,0,0,0,0,0,0,250,250,0,0.0,0.0,0.0,0.0,0,0,0.0,0,0.0,-1,0.0,,0.0,0,0.0,0.0924
5563,0,,,248,249,238,233,,0.06,0.0,1.0,0,-0,-0,0.06,,73,0,7,41,92,0.641,0.0,110,1.12,13.0,0.0,1,0.0,0.0,0.0,0,0,0,0,0,,,,,,,,,,,,,,,,,,,,
5583,0,,,248,249,238,233,,0.06,0.0,1.0,0,-0,-0,0.06,,73,0,7,41,92,0.642,0.0,110,1.12,13.0,0.0,1,0.0,0.0,0.0,0,0,0,0,0,,,,,,,,,,,,,,,,,,,,
5603,0,,,248,249,238,233,,0.06,0.0,1.0,0,-0,-0,0.06,,73,0,7,41,92,0.642,0.0,110,1.12,13.0,0.0,1,0.0,0.0,0.0,0,0,0,0,0,,,,,,,,,,,,,,,,,,,,
5623,0,,,248,249,238,233,,0.06,0.0,1.0,0,-0,-0,0.06,,73,0,7,41,92,0.642,0.0,110,1.12,13.0,0.0,1,0.0,0.0,0.0,0,0,0,0,0,,,,,,,,,,,,,,,,,,,,
5643,0,5,3,248,249,238,233,-6,0.06,0.0,1.0,0,-0,-0,0.06,1,73,0,7,41,92,0.642,0.0,110,1.12,13.0,0.0,1,0.0,0.0,0.0,0,0,0,0,0,0,250,250,0,0.0,0.0,0.0,0.0,0,0,0.0,0,0.0,-1,0.0,0.0,0.0,0,0.0,0.094
5663,0,,,248,249,238,233,,0.06,0.0,1.0,0,-0,-0,0.06,,73,0,7,41,92,0.642,0.0,110,1.1,13.1,0.0,1,0.0,0.0,0.0,0,0,0,0,0,,,,,,,,,,,,,,,,,,,,
5683,0,,,248,249,238,233,,0.06,0.0,1.0,0,-0,-0,0.06,,73,0,7,41,92,0.642,0.0,110,1.1,13.1,0.0,1,0.0,0.0,0.0,0,0,0,0,0,,,,,,,,,,,,,,,,,,,,
5703,0,,,248,249,238,233,,0.06,0.0,1.0,0,-0,-0,0.06,,73,0,7,41,92,0.641,0.0,110,1.1,13.1,0.0,1,0.0,0.0,0.0,0,0,0,0,0,,,,,,,,,,,,,,,,,,,,
5723,0,,,248,249,238,233,,0.06,0.0,1.0,0,-0,-0,0.06,,73,0,7,41,92,0.641,0.0,110,1.1,13.1,0.0,1,0.0,0.0,0.0,0,0,0,0,0,,,,,,,,,,,,,,,,,,,,
5743,0,5,3,248,249,238,233,-6,0.06,0.0,1.0,0,-0,-0,0.06,1,73,0,7,41,92,0.641,0.0,110,1.07,13.0,0.0,1,0.0,0.0,0.0,0,0,0,0,0,0,250,250,0,0.0,0.0,0.0,0.0,0,0,0.0,0,0.0,-1,0.0,,0.0,0,0.0,0.0957
5763,0,,,248,249,238,233,,0.06,0.0,1.0,0,-0,-0,0.06,,73,0,7,41,92,0.64,0.0,110,1.07,13.0,0.0,1,0.0,0.0,0.0,0,0,0,0,0,,,,,,,,,,,,,,,,,,,,
5783,0,,,248,249,238,233,,0.06,0.0,1.0,0,-0,-0,0.06,,73,0,7,41,92,0.64,0.0,110,1.07,13.0,0.0,1,0.0,0.0,0.0,0,0,0,0,0,,,,,,,,,,,,,,,,,,,,
5803,0,,,248,249,238,233,,0.06,0.0,1.0,0,-0,-0,0.06,,73,0,6,41,92,0.64,0.0,110,1.07,13.0,0.0,1,0.0,0.0,0.0,0,0,0,0,0,,,,,,,,,,,,,,,,,,,,
5823,0,,,248,249,238,233,,0.06,0.0,1.0,0,-0,-0,0.06,,73,0,6,41,92,0.639,0.0,110,1.07,13.0,0.0,1,0.0,0.0,0.0,0,0,0,0,0,,,,,,,,,,,,,,,,,,,,
5843,0,5,1,248,249,238,233,-5,0.06,0.0,1.0,0,-0,-0,0.06,1,73,0,6,41,92,0.639,0.0,110,1.06,13.1,0.0,1,0.0,0.0,0.0,0,0,0,0,0,0,250,250,0,0.0,0.0,0.0,0.0,0,0,0.0,0,0.0,-1,0.0,0.0,0.0,0,0.0,0.0974
5863,0,,,248,250,238,233,,0.06,0.0,1.0,0,-0,-0,0.06,,73,0,6,41,92,0.639,0.0,110,1.05,13.1,0.0,1,0.0,0.0,0.0,0,0,0,0,0,,,,,,,,,,,,,,,,,,,,
5883,0,,,248,249,238,233,,0.06,0.0,1.0,0,-0,-0,0.06,,73,0,6,41,92,0.638,0.0,110,1.05,13.1,0.0,1,0.0,0.0,0.0,0,0,0,0,0,,,,,,,,,,,,,,,,,,,,
5903,0,,,248,249,238,233,,0.06,0.0,1.0,0,-0,-0,0.06,,73,0,6,41,92,0.638,0.0,110,1.05,13.1,0.0,1,0.0,0.0,0.0,0,0,0,0,0,,,,,,,,,,,,,,,,,,,,
5923,0,,,248,249,238,233,,0.06,0.0,1.0,0,-0,-0,0.06,,73,0,6,41,92,0.638,0.0,110,1.05,13.0,0.0,1,0.0,0.0,0.0,0,0,0,0,0,,,,,,,,,,,,,,,,,,,,
5943,0,3,3,248,249,238,233,-6,0.06,0.0,1.0,0,-0,-0,0.06,1,73,0,6,41,92,0.638,0.0,110,1.04,13.0,0.0,1,0.0,0.0,0.0,0,0,0,0,0,0,250,250,0,0.0,0.0,0.0,0.0,0,0,0.0,0,0.0,-1,0.0,,0.0,0,0.0,0.099
5963,0,,,248,249,238,233,,0.06,0.0,1.0,0,-0,-0,0.06,,73,0,6,41,92,0.639,0.0,110,1.02,13.0,0.0,1,0.0,0.0,0.0,0,0,0,0,0,,,,,,,,,,,,,,,,,,,,
5983,0,,,248,250,238,233,,0.06,0.0,1.0,0,-0,-0,0.06,,73,0,6,41,92,0.638,0.0,110,1.02,13.0,0.0,1,0.0,0.0,0.0,0,0,0,0,0,,,,,,,,,,,,,,,,,,,,
6003,0,,,248,250,238,233,,0.06,0.0,1.0,0,-0,-0,0.06,,73,0,6,41,92,0.639,0.0,110,1.02,13.1,0.0,1,0.0,0.0,0.0,0,0,0,0,0,,,,,,,,,,,,,,,,,,,,
6023,0,,,248,249,238,233,,0.06,0.0,1.0,0,-0,-0,0.06,,73,0,6,41,92,0.638,0.0,110,1.02,13.1,0.0,1,0.0,0.0,0.0,0,0,0,0,0,,,,,,,,,,,,,,,,,,,,
6043,0,4,3,248,249,238,233,-5,0.06,0.0,1.0,0,-0,-0,0.06,1,73,0,6,41,92,0.638,0.0,110,1.02,13.1,0.0,1,0.0,0.0,0.0,0,0,0,0,0,0,250,250,0,0.0,0.0,0.0,0.0,0,0,0.0,0,0.0,-1,0.0,0.0,0.0,0,0.0,0.1007
6063,0,,,248,249,238,233,,0.06,0.0,1.0,0,-0,-0,0.06,,73,0,6,41,92,0.638,0.0,110,1.02,13.1,0.0,1,0.0,0.0,0.0,0,0,0,0,0,,,,,,,,,,,,,,,,,,,,
6083,0,,,248,249,238,233,,0.06,0.0,1.0,0,-0,-0,0.06,,73,0,6,41,92,0.638,0.0,110,1.02,13.0,0.0,1,0.0,0.0,0.0,0,0,0,0,0,,,,,,,,,,,,,,,,,,,,
6103,0,,,248,250,238,233,,0.06,0.0,1.0,0,-0,-0,0.06,,73,0,6,41,92,0.638,0.0,110,1.02,13.0,0.0,1,0.0,0.0,0.0,0,0,0,0,0,,,,,,,,,,,,,,,,,,,,
6123,0,,,248,250,238,233,,0.06,0.0,1.0,0,-0,-0,0.06,,73,0,6,41,92,0.638,0.0,110,1.01,13.0,0.0,1,0.0,0.0,0.0,0,0,0,0,0,,,,,,,,,,,,,,,,,,,,
6143,0,4,3,248,250,238,233,-5,0.06,0.0,1.0,0,-0,-0,0.06,1,73,0,6,41,92,0.638,0.0,110,1.01,13.0,0.0,1,0.0,0.0,0.0,0,0,0,0,0,0,250,250,0,0.0,0.0,0.0,0.0,0,0,0.0,0,0.0,-1,0.0,,0.0,0,0.0,0.1024
6163,0,,,248,250,238,233,,0.06,0.0,1.0,0,-0,-0,0.06,,73,0,6,41,92,0.638,0.0,110,1.01,13.1,0.0,1,0.0,0.0,0.0,0,0,0,0,0,,,,,,,,,,,,,,,,,,,,
6183,0,,,248,249,238,233,,0.06,0.0,1.0,0,-0,-0,0.06,,73,0,6,41,92,0.638,0.0,110,1.0,13.1,0.0,1,0.0,0.0,0.0,0,0,0,0,0,,,,,,,,,,,,,,,,,,,,
6203,0,,,248,249,238,233,,0.06,0.0,1.0,0,-0,-0,0.06,,73,0,6,41,92,0.638,0.0,110,1.0,13.1,0.0,1,0.0,0.0,0.0,0,0,0,0,0,,,,,,,,,,,,,,,,,,,,
6223,0,,,248,249,238,233,,0.06,0.0,1.0,0,0,-0,0.06,,73,0,6,41,92,0.638,0.0,110,1.0,13.1,0.0,1,0.0,0.0,0.0,0,0,0,0,0,,,,,,,,,,,,,,,,,,,,
6243,0,5,1,248,249,238,233,-5,0.06,0.0,1.0,0,0,-0,0.06,1,73,0,6,41,92,0.637,0.0,110,0.99,13.1,0.0,1,0.0,0.0,0.0,0,0,0,0,0,0,250,250,0,0.0,0.0,0.0,0.0,0,0,0.0,0,0.0,-1,0.0,0.0,0.0,0,0.0,0.104
6263,0,,,248,249,238,233,,0.06,0.0,1.0,0,0,-0,0.06,,73,0,6,41,92,0.638,0.0,110,0.99,13.0,0.0,1,0.0,0.0,0.0,0,0,0,0,0,,,,,,,,,,,,,,,,,,,,
6283,0,,,248,249,238,233,,0.06,0.0,1.0,0,0,-0,0.06,,73,0,6,41,92,0.638,0.0,110,0.99,13.0,0.0,1,0.0,0.0,0.0,0,0,0,0,0,,,,,,,,,,,,,,,,,,,,
6303,0,,,248,249,238,233,,0.06,0.0,1.0,0,0,0,0.06,,73,0,6,41,92,0.638,0.0,110,0.99,13.0,0.0,1,0.0,0.0,0.0,0,0,0,0,0,,,,,,,,,,,,,,,,,,,,
6323,0,,,248,249,238,233,,0.06,0.0,1.0,0,0,-0,0.06,,73,0,6,41,92,0.638,0.0,110,0.99,13.1,0.0,1,0.0,0.0,0.0,0,0,0,0,0,,,,,,,,,,,,,,,,,,,,
6343,0,5,3,248,249,238,233,-5,0.06,0.0,1.0,0,0,-0,0.06,1,73,0,6,41,92,0.639,0.0,110,0.99,13.1,0.0,1,0.0,0.0,0.0,0,0,0,0,0,0,250,250,0,0.0,0.0,0.0,0.0,0,0,0.0,0,0.0,-1,0.0,,0.0,0,0.0,0.1057
6363,0,,,248,249,238,233,,0.06,0.0,1.0,0,0,0,0.06,,73,0,6,41,92,0.639,0.0,110,0.99,13.1,0.0,1,0.0,0.0,0.0,0,0,0,0,0,,,,,,,,,,,,,,,,,,,,
6383,0,,,248,249,238,233,,0.06,0.0,1.0,0,0,0,0.06,,73,0,6,41,92,0.64,0.0,110,0.99,13.1,0.0,1,0.0,0.0,0.0,0,0,0,0,0,,,,,,,,,,,,,,,,,,,,
6403,0,,,248,249,238,233,,0.06,0.0,1.0,0,0,0,0.06,,73,0,6,41,92,0.64,0.0,110,0.98,13.1,0.0,1,0.0,0.0,0.0,0,0,0,0,0,,,,,,,,,,,,,,,,,,,,
6423,0,,,248,249,238,233,,0.06,0.0,1.0,0,0,0,0.06,,73,0,6,41,92,0.64,0.0,110,0.98,13.1,0.0,1,0.0,0.0,0.0,0,0,0,0,0,,,,,,,,,,,,,,,,,,,,
6443,0,4,3,248,249,238,233,-5,0.06,0.0,1.0,0,0,-0,0.06,1,73,0,6,41,92,0.64,0.0,110,0.98,13.0,0.0,1,0.0,0.0,0.0,0,0,0,0,0,0,250,250,0,0.0,0.0,0.0,0.0,0,0,0.0,0,0.0,-1,0.0,0.0,0.0,0,0.0,0.1074
6463,0,,,248,249,238,233,,0.06,0.0,1.0,0,-0,-0,0.06,,73,0,6,41,92,0.641,0.0,110,0.98,13.0,0.0,1,0.0,0.0,0.0,0,0,0,0,0,,,,,,,,,,,,,,,,,,,,
6483,0,,,248,249,238,233,,0.06,0.0,1.0,0,-0,-0,0.06,,73,0,6,41,92,0.641,0.0,110,0.98,13.0,0.0,1,0.0,0.0,0.0,0,0,0,0,0,,,,,,,,,,,,,,,,,,,,
6503,0,,,248,249,238,233,,0.06,0.0,1.0,0,-0,-0,0.06,,73,0,6,41,92,0.641,0.0,110,0.97,13.1,0.0,1,0.0,0.0,0.0,0,0,0,0,0,,,,,,,,,,,,,,,,,,,,
6523,0,,,248,249,238,233,,0.06,0.0,1.0,0,-0,-0,0.06,,73,0,6,41,92,0.641,0.0,110,0.97,13.1,0.0,1,0.0,0.0,0.0,0,0,0,0,0,,,,,,,,,,,,,,,,,,,,
6543,0,5,1,248,249,238,233,-5,0.06,0.0,1.0,0,-0,0,0.06,1,73,0,6,41,92,0.641,0.0,110,0.97,13.1,0.0,1,0.0,0.0,0.0,0,0,0,0,0,0,250,250,0,0.0,0.0,0.0,0.0,0,0,0.0,0,0.0,-1,0.0,,0.0,0,0.0,0.109
6563,0,,,248,248,238,233,,0.06,0.0,1.0,0,-0,0,0.06,,73,0,6,41,92,0.641,0.0,110,0.97,13.1,0.0,1,0.0,0.0,0.0,0,0,0,0,0,,,,,,,,,,,,,,,,,,,,
6583,0,,,248,249,238,233,,0.06,0.0,1.0,0,-0,0,0.06,,73,0,6,41,92,0.641,0.0,110,0.97,13.1,0.0,1,0.0,0.0,0.0,0,0,0,0,0,,,,,,,,,,,,,,,,,,,,
6603,0,,,248,249,238,233,,0.06,0.0,1.0,0,-0,0,0.06,,73,0,6,41,92,0.641,0.0,110,0.97,13.0,0.0,1,0.0,0.0,0.0,0,0,0,0,0,,,,,,,,,,,,,,,,,,,,
6623,0,,,248,249,238,233,,0.06,0.0,1.0,0,-0,-0,0.06,,73,0,6,41,92,0.64,0.0,110,0.97,13.0,0.0,1,0.0,0.0,0.0,0,0,0,0,0,,,,,,,,,,,,,,,,,,,,
6643,0,5,1,248,249,238,233,-5,0.06,0.0,1.0,0,-0,0,0.06,1,73,0,6,41,92,0.641,0.0,110,0.97,13.0,0.0,1,0.0,0.0,0.0,0,0,0,0,0,0,250,250,0,0.0,0.0,0.0,0.0,0,0,0.0,0,0.0,-1,0.0,0.0,0.0,0,0.0,0.1107
6663,0,,,248,249,238,233,,0.06,0.0,1.0,0,-0,-0,0.06,,73,0,6,41,92,0.64,0.0,110,0.96,13.0,0.0,1,0.0,0.0,0.0,0,0,0,0,0,,,,,,,,,,,,,,,,,,,,
6683,0,,,248,249,238,233,,0.06,0.0,1.0,0,0,-0,0.06,,73,0,6,41,92,0.641,0.0,110,0.97,13.1,0.0,1,0.0,0.0,0.0,0,0,0,0,0,,,,,,,,,,,,,,,,,,,,
6703,0,,,248,249,238,233,,0.06,0.0,1.0,0,-0,-0,0.06,,73,0,6,41,92,0.641,0.0,110,0.97,13.1,0.0,1,0.0,0.0,0.0,0,0,0,0,0,,,,,,,,,,,,,,,,,,,,
6723,0,,,248,249,238,233,,0.06,0.01,1.0,0,0,-0,0.06,,73,0,6,41,92,0.641,0.0,110,0.97,13.1,0.0,1,0.0,0.0,0.0,0,0,0,0,0,,,,,,,,,,,,,,,,,,,,
6743,0,5,1,248,249,238,233,-6,0.06,0.01,1.0,0,0,-0,0.06,1,73,0,6,41,92,0.641,0.0,110,0.97,13.1,0.0,1,0.0,0.0,0.0,0,0,0,0,0,0,250,250,0,0.0,0.0,0.0,0.0,0,0,0.0,0,0.0,-1,0.0,,0.0,0,0.0,0.1124
6763,0,,,248,249,238,233,,0.06,0.0,1.0,0,0,-0,0.06,,73,0,6,41,92,0.641,0.0,110,0.97,13.1,0.0,1,0.0,0.0,0.0,0,0,0,0,0,,,,,,,,,,,,,,,,,,,,
6783,0,,,248,248,238,233,,0.06,0.0,1.0,0,0,-0,0.06,,73,0,6,41,92,0.641,0.0,110,0.97,13.0,0.0,1,0.0,0.0,0.0,0,0,0,0,0,,,,,,,,,,,,,,,,,,,,
6803,0,,,248,249,238,233,,0.06,0.0,1.0,0,0,-0,0.06,,73,0,6,41,92,0.641,0.0,110,0.97,13.0,0.0,1,0.0,0.0,0.0,0,0,0,0,0,,,,,,,,,,,,,,,,,,,,
6823,0,,,248,248,238,233,,0.06,0.0,1.0,0,0,-0,0.06,,73,0,6,41,92,0.641,0.0,110,0.97,13.0,0.0,1,0.0,0.0,0.0,0,0,0,0,0,,,,,,,,,,,,,,,,,,,,
6843,0,5,2,248,249,238,233,-5,0.06,0.0,1.0,0,0,-0,0.06,1,73,0,6,41,92,0.641,0.0,110,0.97,13.0,0.0,1,0.0,0.0,0.0,0,0,0,0,0,0,250,250,0,0.0,0.0,0.0,0.0,0,0,0.0,0,0.0,-1,0.0,0.0,0.0,0,0.0,0.114
6863,0,,,248,248,238,233,,0.06,0.01,1.0,0,0,-0,0.06,,73,0,6,41,92,0.641,0.0,110,0.97,13.1,0.0,1,0.0,0.0,0.0,0,0,0,0,0,,,,,,,,,,,,,,,,,,,,
6883,0,,,248,248,238,233,,0.06,0.01,1.0,0,0,-0,0.06,,73,0,6,41,92,0.641,0.0,110,0.97,13.1,0.0,1,0.0,0.0,0.0,0,0,0,0,0,,,,,,,,,,,,,,,,,,,,
6903,0,,,248,248,238,233,,0.06,0.01,1.0,0,0,-0,0.06,,73,0,6,41,92,0.641,0.0,110,0.96,13.1,0.0,1,0.0,0.0,0.0,0,0,0,0,0,,,,,,,,,,,,,,,,,,,,
6923,0,,,248,248,238,233,,0.06,0.01,1.0,0,0,-0,0.06,,73,0,6,41,92,0.64,0.0,110,0.96,13.1,0.0,1,0.0,0.0,0.0,0,0,0,0,0,,,,,,,,,,,,,,,,,,,,
6943,0,5,3,248,248,238,233,-5,0.06,0.01,1.0,0,0,-0,0.06,1,73,0,6,41,92,0.64,0.0,110,0.97,13.0,0.0,1,0.0,0.0,0.0,0,0,0,0,0,0,250,250,0,0.0,0.0,0.0,0.0,0,0,0.0,0,0.0,-1,0.0,,0.0,0,0.0,0.1157
6963,0,,,248,248,238,233,,0.06,0.01,1.0,0,0,-0,0.06,,73,0,6,41,92,0.64,0.0,110,0.97,13.0,0.0,1,0.0,0.0,0.0,0,0,0,0,0,,,,,,,,,,,,,,,,,,,,
6983,0,,,248,248,238,233,,0.06,0.0,1.0,0,0,-0,0.06,,73,0,6,41,92,0.641,0.0,110,0.96,13.0,0.0,1,0.0,0.0,0.0,0,0,0,0,0,,,,,,,,,,,,,,,,,,,,
7003,0,,,248,248,238,233,,0.06,0.01,1.0,0,0,-0,0.06,,73,0,6,41,92,0.641,0.0,110,0.97,12.9,0.0,1,0.0,0.0,0.0,0,0,0,0,0,,,,,,,,,,,,,,,,,,,,
7023,0,,,248,249,238,233,,0.06,0.01,1.0,0,-0,0,0.06,,73,0,6,41,92,0.637,0.0,110,0.97,9.5,0.0,1,0.0,0.0,0.0,0,0,0,0,0,,,,,,,,,,,,,,,,,,,,
7043,0,5,1,248,249,238,233,-6,0.06,0.0,1.0,0,-0,-0,0.06,1,73,0,6,41,92,0.635,0.0,110,0.96,10.4,0.0,1,0.0,0.0,0.0,0,0,0,0,0,0,250,250,0,0.0,0.0,0.0,0.0,0,0,0.0,0,0.0,-1,0.0,0.0,0.0,0,0.0,0.1174
7063,0,,,248,249,238,233,,0.06,0.0,1.01,0,0,-0,0.06,,73,0,6,41,92,0.635,0.0,110,0.96,10.9,0.0,1,0.0,0.0,0.0,0,0,0,0,0,,,,,,,,,,,,,,,,,,,,
7083,0,,,248,249,238,233,,0.06,0.01,1.0,0,0,0,0.06,,73,0,6,41,92,0.635,0.0,110,0.96,11.0,0.0,1,0.0,0.0,0.0,0,0,0,0,0,,,,,,,,,,,,,,,,,,,,
7103,0,,,248,249,238,233,,0.06,0.0,0.99,0,0,0,0.06,,73,0,6,41,92,0.636,0.0,110,0.96,11.0,0.0,1,0.0,0.0,0.0,0,0,0,0,0,,,,,,,,,,,,,,,,,,,,
7123,0,,,248,249,238,233,,0.06,0.0,1.0,0,0,0,0.06,,73,0,6,41,92,0.636,0.0,110,0.96,11.2,0.0,1,0.0,0.0,0.0,0,0,0,0,0,,,,,,,,,,,,,,,,,,,,
7143,0,4,3,248,249,238,233,-5,0.06,0.0,1.0,0,0,0,0.06,1,73,0,6,41,92,0.637,0.0,110,0.96,11.6,0.0,1,0.0,0.0,0.0,0,0,0,0,0,0,250,250,0,0.0,0.0,0.0,0.0,0,0,0.0,0,0.0,-1,0.0,,0.0,0,0.0,0.119
7163,0,,,248,249,238,233,,0.06,0.01,0.99,0,0,0,0.06,,73,0,6,41,92,0.638,0.0,111,0.96,11.7,0.0,1,0.0,0.0,0.0,0,0,0,0,0,,,,,,,,,,,,,,,,,,,,
7183,0,,,248,249,238,233,,0.06,0.01,0.98,0,0,0,0.06,,73,0,6,41,92,0.639,0.0,111,0.96,11.7,0.0,1,0.0,0.0,0.0,0,0,0,0,0,,,,,,,,,,,,,,,,,,,,
7203,0,,,248,249,238,233,,0.06,0.01,0.98,0,0,0,0.06,,73,0,6,41,92,0.639,0.0,111,0.96,11.5,0.0,1,0.0,0.0,0.0,0,0,0,0,0,,,,,,,,,,,,,,,,,,,,
7223,0,,,248,250,238,233,,0.06,0.01,0.99,0,0,0,0.06,,73,0,6,41,92,0.64,0.0,111,0.96,11.8,0.0,1,0.0,0.0,0.0,0,0,0,0,0,,,,,,,,,,,,,,,,,,,,
7243,0,3,4,248,249,238,233,-6,0.06,0.01,1.0,0,0,0,0.06,1,73,0,6,41,92,0.64,0.0,111,0.96,11.9,0.0,1,0.0,0.0,0.0,0,0,0,0,0,0,250,250,0,0.0,0.0,0.0,0.0,0,0,0.0,0,0.0,-1,0.0,0.0,0.0,0,0.0,0.1207
7263,0,,,248,249,238,233,,0.06,0.02,0.97,0,0,0,0.06,,73,0,6,41,91,0.642,0.0,111,0.96,11.8,0.0,1,0.0,0.0,0.0,0,0,0,0,0,,,,,,,,,,,,,,,,,,,,
7283,0,,,248,249,238,233,,0.06,0.02,0.98,0,0,0,0.06,,73,0,6,41,92,0.646,0.0,112,0.96,11.7,0.0,1,0.0,0.0,0.0,0,0,0,0,0,,,,,,,,,,,,,,,,,,,,
7303,0,,,248,250,238,233,,0.06,0.01,0.98,0,0,0,0.06,,73,0,6,41,92,0.648,0.0,112,0.96,11.9,0.0,1,0.0,0.0,0.0,0,0,0,0,0,,,,,,,,,,,,,,,,,,,,
7323,0,,,248,250,238,233,,0.06,0.02,1.0,0,0,0,0.06,,73,0,6,41,91,0.648,0.0,113,0.97,12.0,0.0,1,0.0,0.0,0.0,0,0,0,0,0,,,,,,,,,,,,,,,,,,,,
7343,0,4,3,248,250,238,233,-6,0.06,0.01,1.0,0,0,0,0.06,1,73,0,6,41,91,0.647,0.0,112,0.96,11.8,0.0,1,0.0,0.0,0.0,0,0,0,0,0,0,250,250,0,0.0,0.0,0.0,0.0,0,0,0.0,0,0.0,-1,0.0,,0.0,0,0.0,0.1224
7363,0,,,248,250,238,233,,0.06,0.01,0.99,0,0,0,0.06,,73,0,6,41,92,0.647,0.0,113,0.96,11.9,0.0,1,0.0,0.0,0.0,0,0,0,0,0,,,,,,,,,,,,,,,,,,,,
7383,0,,,248,250,238,233,,0.06,0.01,0.99,0,0,0,0.06,,73,0,6,41,92,0.646,0.0,113,0.97,12.0,0.0,1,0.0,0.0,0.0,0,0,0,0,0,,,,,,,,,,,,,,,,,,,,
7403,0,,,248,250,238,233,,0.06,0.01,1.0,0,0,-0,0.06,,73,0,6,41,91,0.646,0.0,113,0.96,12.0,0.0,1,0.0,0.0,0.0,0,0,0,0,0,,,,,,,,,,,,,,,,,,,,
7423,0,,,248,250,238,233,,0.06,0.01,1.01,0,-0,-0,0.06,,73,0,6,41,92,0.645,0.0,113,0.96,11.8,0.0,1,0.0,0.0,0.0,0,0,0,0,0,,,,,,,,,,,,,,,,,,,,
7443,0,5,1,248,250,238,233,-5,0.06,0.01,1.02,0,-0,-0,0.06,1,73,0,6,41,92,0.645,0.0,113,0.96,11.9,0.0,1,0.0,0.0,0.0,0,0,0,0,0,0,250,250,0,0.0,0.0,0.0,0.0,0,0,0.0,0,0.0,-1,0.0,0.0,0.0,0,0.0,0.124
7463,0,,,248,250,238,233,,0.06,0.01,1.0,0,0,-0,0.06,,73,0,6,41,92,0.645,0.0,112,0.96,12.0,0.0,1,0.0,0.0,0.0,0,0,0,0,0,,,,,,,,,,,,,,,,,,,,
7483,0,,,248,250,238,233,,0.06,0.0,1.01,0,-0,-0,0.06,,73,0,6,41,91,0.645,0.0,113,0.96,11.8,0.0,1,0.0,0.0,0.0,0,0,0,0,0,,,,,,,,,,,,,,,,,,,,
7503,0,,,248,250,238,233,,0.06,0.0,1.01,0,-0,-0,0.06,,73,0,6,41,92,0.645,0.0,113,0.96,11.9,0.0,1,0.0,0.0,0.0,0,0,0,0,0,,,,,,,,,,,,,,,,,,,,
7523,0,,,248,250,238,233,,0.06,0.0,1.0,0,-0,-0,0.06,,73,0,6,41,92,0.645,0.0,112,0.96,12.0,0.0,1,0.0,0.0,0.0,0,0,0,0,0,,,,,,,,,,,,,,,,,,,,
7543,0,5,2,248,250,238,233,-6,0.06,0.01,1.02,0,-0,-0,0.06,1,73,0,6,41,91,0.645,0.0,113,0.96,12.0,0.0,1,0.0,0.0,0.0,0,0,0,0,0,0,250,250,0,0.0,0.0,0.0,0.0,0,0,0.0,0,0.0,-1,0.0,,0.0,0,0.0,0.1257
7563,0,,,248,250,238,233,,0.06,0.0,1.02,0,-0,-0,0.06,,73,0,6,41,92,0.645,0.0,112,0.96,11.8,0.0,1,0.0,0.0,0.0,0,0,0,0,0,,,,,,,,,,,,,,,,,,,,
7583,0,,,248,250,238,233,,0.06,0.0,1.02,0,-0,-0,0.06,,73,0,6,41,92,0.645,0.0,113,0.97,11.9,0.0,1,0.0,0.0,0.0,0,0,0,0,0,,,,,,,,,,,,,,,,,,,,
7603,0,,,248,250,238,233,,0.06,0.0,1.0,0,-0,-0,0.06,,73,0,6,41,91,0.645,0.0,112,0.96,12.0,0.0,1,0.0,0.0,0.0,0,0,0,0,0,,,,,,,,,,,,,,,,,,,,
7623,0,,,248,250,238,233,,0.06,0.01,1.03,0,-0,-0,0.06,,73,0,6,41,91,0.645,0.0,113,0.97,11.8,0.0,1,0.0,0.0,0.0,0,0,0,0,0,,,,,,,,,,,,,,,,,,,,
7643,0,5,3,248,250,238,233,-6,0.06,0.01,1.01,0,-0,-0,0.06,1,73,0,6,41,92,0.645,0.0,113,0.96,11.9,0.0,1,0.0,0.0,0.0,0,0,0,0,0,0,250,250,0,0.0,0.0,0.0,0.0,0,0,0.0,0,0.0,-1,0.0,0.0,0.0,0,0.0,0.1274
7663,0,,,248,250,238,233,,0.06,0.0,1.01,0,-0,-0,0.06,,73,0,8,41,92,0.645,0.0,113,0.96,12.0,0.0,1,0.0,0.0,0.0,0,0,0,0,0,,,,,,,,,,,,,,,,,,,,
7683,0,,,248,250,238,233,,0.06,0.0,1.02,0,-0,-0,0.06,,73,123,12,42,91,0.645,0.0,111,0.93,11.6,0.0,1,18.4,2.09,0.0,0,0,0,1,0,,,,,,,,,,,,,,,,,,,,
7703,0,,,248,250,238,233,,0.06,0.0,1.02,0,0,-0,0.06,,73,123,17,41,92,0.643,0.0,113,1.28,11.5,0.0,1,21.7,7.8,0.0,0,0,0,1,0,,,,,,,,,,,,,,,,,,,,
7723,0,,,248,249,238,233,,0.06,0.01,1.03,0,-0,-0,0.06,,73,123,23,41,92,0.643,0.0,113,2.09,11.9,0.0,1,21.7,7.8,0.0,0,0,0,1,0,,,,,,,,,,,,,,,,,,,,
7743,0,5,1,248,250,238,233,-5,0.06,0.01,1.02,0,-1,-0,0.06,1,73,675,30,41,92,0.642,0.0,116,4.07,12.1,0.0,1,21.7,2.09,0.0,0,0,0,1,0,0,250,250,0,0.0,0.0,0.0,0.0,0,0,0.0,0,0.0,-1,0.0,,0.0,0,0.0,0.129
7763,0,,,248,250,238,233,,0.06,0.01,1.01,0,-1,-0,0.06,,74,1219,36,42,92,0.639,0.0,112,4.65,11.8,0.0,1,23.4,7.76,0.0,0,0,0,1,0,,,,,,,,,,,,,,,,,,,,
7783,0,,,248,250,238,233,,0.06,0.01,1.01,0,-1,-0,0.07,,74,1463,41,42,91,0.634,0.0,110,4.82,11.6,0.0,1,24.0,2.09,5.2,0,0,0,1,0,,,,,,,,,,,,,,,,,,,,
7803,0,,,248,250,238,233,,0.06,0.01,1.0,0,-0,-0,0.06,,74,1318,45,42,91,0.625,0.0,107,4.8,11.3,0.0,1,22.8,7.76,5.2,0,0,0,1,0,,,,,,,,,,,,,,,,,,,,
7823,0,,,248,250,238,233,,0.06,0.01,0.99,0,-0,0,0.06,,74,1153,47,42,90,0.616,0.0,106,4.76,11.0,0.0,1,20.2,2.09,5.2,0,0,0,1,0,,,,,,,,,,,,,,,,,,,,
7843,0,3,3,248,250,238,233,-5,0.06,0.01,0.98,0,-0,0,0.06,1,75,1153,49,42,90,0.606,0.0,105,4.7,11.0,0.0,1,20.2,7.72,5.2,0,0,0,1,0,0,250,250,0,0.0,0.0,0.0,0.0,0,0,0.0,0,0.0,-1,0.0,0.0,0.0,0,0.0,0.1307
7863,0,,,248,250,238,233,,0.06,0.01,1.0,0,-0,0,0.06,,74,957,53,42,91,0.596,0.0,110,4.77,11.3,0.0,1,20.3,2.09,5.2,0,0,0,1,0,,,,,,,,,,,,,,,,,,,,
7883,0,,,248,250,238,233,,0.06,0.0,0.97,0,-0,0,0.06,,74,982,54,42,90,0.587,0.0,110,4.78,11.4,0.0,1,19.0,7.76,3.4,0,0,0,1,0,,,,,,,,,,,,,,,,,,,,
7903,0,,,248,250,238,233,,0.07,0.01,0.98,0,-0,0,0.07,,74,1382,54,42,90,0.58,0.0,118,4.82,11.7,0.0,1,22.0,2.09,3.4,0,0,0,1,0,,,,,,,,,,,,,,,,,,,,
7923,0,,,248,250,238,233,,0.07,0.01,0.98,0,0,0,0.07,,74,1603,54,42,91,0.576,0.0,128,4.85,12.1,0.0,1,24.3,7.76,3.4,0,0,0,1,0,,,,,,,,,,,,,,,,,,,,
7943,0,5,3,248,250,238,233,-5,0.07,0.01,0.96,0,0,0,0.07,1,74,1560,54,42,91,0.577,0.0,133,4.82,12.1,0.0,1,24.3,7.76,3.4,0,0,0,1,0,0,250,250,0,0.0,0.0,0.0,0.0,0,0,0.0,0,0.0,-1,0.0,,0.0,0,0.0,0.1324
7963,0,,,248,250,238,233,,0.06,0.01,0.96,0,0,0,0.06,,74,1438,43,42,91,0.576,0.0,136,4.87,12.1,0.0,1,23.8,6.76,3.4,0,0,0,1,0,,,,,,,,,,,,,,,,,,,,
7983,0,,,248,250,238,233,,0.06,0.01,0.99,0,0,-0,0.06,,73,1438,29,42,92,0.577,0.0,140,4.86,12.1,0.0,1,24.0,6.72,4.4,0,0,0,1,0,,,,,,,,,,,,,,,,,,,,
8003,0,,,248,250,238,233,,0.06,0.0,0.98,0,-0,-0,0.06,,73,1296,13,42,91,0.578,0.0,142,4.91,12.5,0.0,1,22.6,6.64,4.4,0,0,0,1,0,,,,,,,,,,,,,,,,,,,,
8023,0,,,248,250,238,233,,0.07,0.0,0.98,0,-0,-0,0.07,,73,1332,6,42,91,0.581,0.0,143,4.9,12.4,0.0,1,18.9,6.64,4.4,0,0,0,1,0,,,,,,,,,,,,,,,,,,,,
8043,0,5,2,248,250,238,233,-5,0.07,0.01,0.97,0,0,0,0.07,1,73,1587,6,42,90,0.587,0.0,147,4.84,12.2,0.0,1,18.9,5.68,4.4,0,0,0,1,0,0,250,250,0,0.0,0.0,0.0,0.0,0,0,0.0,0,0.0,-1,0.0,0.0,0.0,0,0.0,0.134
8063,0,,,248,250,238,233,,0.07,0.02,0.98,0,0,0,0.07,,73,1502,12,42,89,0.595,0.0,149,4.85,12.2,0.0,1,21.5,5.61,4.4,0,0,0,1,0,,,,,,,,,,,,,,,,,,,,
8083,0,,,248,250,238,233,,0.07,0.02,0.97,0,0,0,0.07,,73,1502,22,42,90,0.604,0.0,153,4.87,12.5,0.0,1,23.0,5.61,3.9,0,0,0,1,0,,,,,,,,,,,,,,,,,,,,
8103,0,,,248,249,238,233,,0.07,0.02,0.99,0,-0,-0,0.07,,73,1373,33,42,92,0.615,0.0,151,4.9,12.5,0.0,1,24.6,5.9,3.9,0,0,0,1,0,,,,,,,,,,,,,,,,,,,,
8123,0,,,248,250,238,233,,0.07,0.01,0.99,0,-0,-0,0.07,,73,1233,44,42,92,0.624,0.0,151,4.9,12.5,0.0,1,23.5,5.9,3.9,0,0,0,1,0,,,,,,,,,,,,,,,,,,,,
8143,0,3,3,248,249,238,233,-5,0.07,0.01,1.01,0,-0,-0,0.07,1,73,1196,52,41,92,0.631,0.0,151,4.89,12.5,0.0,1,23.2,5.9,3.9,0,0,0,1,0,0,250,250,0,0.0,0.0,0.0,0.0,0,0,0.0,0,0.0,-1,0.0,,0.0,0,0.0,0.1357
8163,0,,,248,250,238,233,,0.07,0.01,1.0,0,-0,-0,0.07,,73,1310,55,42,92,0.636,0.0,151,4.92,12.5,0.0,1,24.1,5.9,3.9,0,0,0,1,0,,,,,,,,,,,,,,,,,,,,
8183,0,,,248,250,238,233,,0.06,0.01,0.98,0,-0,-0,0.06,,73,1423,56,42,91,0.637,0.0,151,4.86,12.4,0.0,1,23.6,5.9,3.5,0,0,0,1,0,,,,,,,,,,,,,,,,,,,,
8203,0,,,248,250,238,233,,0.06,0.01,0.97,0,-0,-0,0.06,,74,1570,56,42,91,0.637,0.0,154,4.89,12.5,0.0,1,24.3,5.9,3.5,0,0,0,1,0,,,,,,,,,,,,,,,,,,,,
8223,0,,,248,250,238,233,,0.05,0.01,0.97,0,-0,-0,0.05,,73,1452,56,42,92,0.638,0.0,154,4.89,12.5,0.0,1,25.3,5.9,3.5,0,0,0,1,0,,,,,,,,,,,,,,,,,,,,
8243,0,5,3,248,250,238,233,-6,0.05,0.01,0.96,0,-0,-0,0.05,1,74,1319,56,42,91,0.637,0.0,154,4.85,12.2,0.0,1,22.8,5.9,3.5,0,0,0,1,0,0,250,250,0,0.0,0.0,0.0,0.0,0,0,0.0,0,0.0,-1,0.0,0.0,0.0,0,0.0,0.1374
8263,0,,,248,250,238,233,,0.06,0.02,0.96,0,-0,0,0.06,,73,1352,54,42,92,0.637,0.0,153,4.83,12.4,0.0,1,24.5,5.83,3.5,0,0,0,1,0,,,,,,,,,,,,,,,,,,,,
8283,0,,,248,249,238,233,,0.06,0.02,0.96,0,0,0,0.06,,73,1613,44,42,91,0.636,0.0,157,4.83,12.2,0.0,1,24.3,5.83,3.6,0,0,0,1,0,,,,,,,,,,,,,,,,,,,,
8303,0,,,248,250,238,233,,0.06,0.02,0.98,0,0,0,0.06,,73,1788,33,42,91,0.636,0.0,158,4.86,12.5,0.0,1,24.3,5.75,3.6,0,0,0,1,0,,,,,,,,,,,,,,,,,,,,
8323,0,,,248,250,238,233,,0.05,0.02,0.95,0,1,0,0.05,,73,1901,23,41,92,0.636,0.0,164,4.91,12.6,0.0,1,25.7,5.75,3.6,0,0,0,1,0,,,,,,,,,,,,,,,,,,,,
8343,0,5,1,248,250,238,233,-6,0.05,0.02,0.99,0,0,-0,0.05,1,73,1813,15,41,91,0.636,0.0,168,4.9,12.6,0.0,1,24.3,5.68,3.6,0,0,0,1,0,0,250,250,0,0.0,0.0,0.0,0.0,0,0,0.0,0,0.0,-1,0.0,,0.0,0,0.0,0.1391
8363,0,,,248,250,238,233,,0.06,0.01,0.97,0,0,0,0.06,,73,1710,8,41,90,0.636,0.0,168,4.9,12.6,0.0,1,19.0,5.61,3.6,0,0,0,1,0,,,,,,,,,,,,,,,,,,,,
8383,0,,,248,250,238,233,,0.06,0.01,0.96,0,-0,0,0.06,,73,1934,6,42,89,0.635,0.0,170,4.82,12.3,0.0,1,19.0,5.54,4.3,0,0,0,1,0,,,,,,,,,,,,,,,,,,,,
8403,0,,,248,250,238,233,,0.05,0.01,1.0,0,-0,-0,0.05,,73,2111,6,41,88,0.634,0.0,174,4.92,12.6,0.0,1,19.0,5.43,4.3,0,0,0,1,0,,,,,,,,,,,,,,,,,,,,
8423,0,,,248,250,238,233,,0.06,0.01,0.99,0,-0,-0,0.06,,73,2102,6,41,87,0.634,0.0,179,4.86,12.5,0.0,1,19.0,5.31,4.3,0,0,0,1,0,,,,,,,,,,,,,,,,,,,,
8443,0,3,3,248,250,238,233,-5,0.06,0.01,1.0,0,-0,-0,0.06,1,73,1936,6,42,86,0.634,0.0,181,4.9,12.5,0.0,1,17.2,5.26,4.3,0,0,0,1,0,0,250,250,0,0.0,0.0,0.0,0.0,0,0,0.0,0,0.0,-1,0.0,0.0,0.0,0,0.0,0.1407
8463,0,,,248,250,238,233,,0.05,0.01,1.02,0,-0,-0,0.05,,73,1939,6,41,85,0.634,0.0,183,4.86,12.6,0.0,1,15.8,5.09,4.3,0,0,0,1,0,,,,,,,,,,,,,,,,,,,,
8483,0,,,248,250,238,233,,0.06,0.01,1.05,0,-0,-0,0.06,,73,2000,6,41,85,0.634,0.0,184,4.9,12.6,0.0,1,19.0,5.09,4.7,0,0,0,1,0,,,,,,,,,,,,,,,,,,,,
8503,0,,,248,250,238,233,,0.06,0.01,1.03,0,-0,-0,0.06,,73,1875,6,42,85,0.633,0.0,184,4.86,12.2,0.0,1,19.0,4.96,4.7,0,0,0,1,0,,,,,,,,,,,,,,,,,,,,
8523,0,,,248,250,238,233,,0.06,0.0,1.0,0,-0,-0,0.06,,73,1824,6,41,85,0.633,0.0,186,4.91,12.6,0.0,1,19.0,4.83,4.7,0,0,0,1,0,,,,,,,,,,,,,,,,,,,,
8543,0,5,2,248,250,238,233,-6,0.05,0.01,1.01,0,0,-0,0.05,1,73,1743,6,41,85,0.633,0.0,184,4.9,12.6,0.0,1,15.8,4.83,4.7,0,0,0,1,0,0,250,250,0,0.0,0.0,0.0,0.0,0,0,0.0,0,0.0,-1,0.0,,0.0,0,0.0,0.1424
8563,0,,,248,250,238,233,,0.05,0.01,1.01,0,0,-0,0.05,,73,1701,11,41,85,0.633,0.0,180,4.92,12.6,0.0,1,19.1,4.7,4.7,0,0,0,1,0,,,,,,,,,,,,,,,,,,,,
8583,0,,,248,250,238,233,,0.05,0.01,1.01,0,-0,-0,0.05,,73,1696,24,41,88,0.634,0.0,178,4.9,12.6,0.0,1,20.1,4.82,3.7,0,0,0,1,0,,,,,,,,,,,,,,,,,,,,
8603,0,,,248,250,238,233,,0.05,0.0,1.0,0,0,-0,0.05,,73,1691,40,41,91,0.634,0.0,178,4.91,12.6,0.0,1,24.3,5.5,3.7,0,0,0,1,0,,,,,,,,,,,,,,,,,,,,
8623,0,,,248,249,238,233,,0.06,-0.0,1.0,0,-0,-0,0.06,,73,1599,52,41,92,0.634,0.0,178,4.9,12.6,0.0,1,25.7,5.5,3.7,0,0,0,1,0,,,,,,,,,,,,,,,,,,,,
8643,0,4,2,248,250,238,233,-5,0.06,0.0,0.98,0,-1,-0,0.06,1,73,1505,57,41,92,0.634,0.0,173,4.9,12.6,0.0,1,25.7,5.42,3.7,0,0,0,1,0,0,250,250,0,0.0,0.0,0.0,0.0,0,0,0.0,0,0.0,-1,0.0,0.0,0.0,0,0.0,0.144
8663,0,,,248,250,238,233,,0.07,0.01,1.0,0,-1,-0,0.07,,73,1898,59,42,92,0.634,0.0,170,4.87,12.3,0.0,1,25.7,5.34,3.7,0,0,0,1,0,,,,,,,,,,,,,,,,,,,,
8683,0,,,248,250,238,233,,0.06,0.0,1.01,0,-1,-0,0.06,,73,2092,60,41,92,0.634,0.0,174,4.93,12.6,0.0,1,25.7,5.34,5.1,0,0,0,1,0,,,,,,,,,,,,,,,,,,,,
8703,0,,,248,250,238,233,,0.06,-0.0,1.0,0,-1,-0,0.06,,73,2177,60,41,92,0.634,0.0,180,4.9,12.5,0.0,1,25.7,5.26,5.1,0,0,0,1,0,,,,,,,,,,,,,,,,,,,,
8723,0,,,248,250,238,233,,0.05,0.0,1.02,0,-0,-0,0.05,,73,2165,60,41,92,0.634,0.0,182,4.93,12.6,0.0,1,25.7,5.12,5.1,0,0,0,1,0,,,,,,,,,,,,,,,,,,,,
8743,0,5,1,248,250,238,233,-6,0.06,-0.01,1.06,0,-1,-0,0.06,1,73,2519,51,41,92,0.634,0.0,189,4.9,12.5,0.0,1,25.7,4.99,5.1,0,0,0,1,0,0,250,250,0,0.0,0.0,0.0,0.0,0,0,0.0,0,0.0,-1,0.0,,0.0,0,0.0,0.1457
8763,0,,,248,250,238,233,,0.08,-0.01,1.02,0,-1,0,0.08,,73,2724,36,41,92,0.635,0.0,199,4.92,12.6,0.0,1,26.0,5.2,5.1,0,0,0,1,0,,,,,,,,,,,,,,,,,,,,
8783,0,,,248,250,238,233,,0.07,-0.02,0.96,0,-2,0,0.08,,73,2975,18,41,91,0.635,0.0,211,4.88,12.6,0.0,1,25.6,5.19,7.2,0,0,0,1,0,,,,,,,,,,,,,,,,,,,,
8803,0,,,248,250,238,233,,0.06,-0.0,1.04,0,-2,-0,0.06,,73,3468,6,41,88,0.636,0.0,230,4.87,12.4,0.0,1,0.0,3.52,7.2,0,0,0,1,0,,,,,,,,,,,,,,,,,,,,
8823,0,,,248,250,238,233,,0.06,0.01,0.96,0,-2,0,0.06,,73,3607,6,41,85,0.637,0.0,250,4.9,12.6,0.0,1,0.0,3.32,7.2,0,0,0,1,0,,,,,,,,,,,,,,,,,,,,
8843,0,5,1,248,250,238,233,-6,0.05,0.02,1.0,0,-1,0,0.05,1,73,3738,6,41,83,0.637,0.0,272,4.86,12.4,0.0,1,0.0,2.18,7.2,0,0,0,1,0,0,250,250,0,0.0,0.0,0.0,0.0,0,0,0.0,0,0.0,-1,0.0,0.0,0.0,0,0.0,0.1474
8863,0,,,248,250,238,233,,0.07,-0.0,0.94,0,-1,0,0.07,,73,3690,6,41,81,0.637,0.0,286,4.88,12.6,0.0,1,0.0,3.05,7.2,0,0,0,1,0,,,,,,,,,,,,,,,,,,,,
8883,0,,,248,250,238,233,,0.06,-0.01,1.08,0,-1,-0,0.06,,73,3747,6,41,80,0.637,0.0,304,4.92,12.6,0.0,1,0.0,1.91,5.1,0,0,0,1,0,,,,,,,,,,,,,,,,,,,,
8903,0,,,248,250,238,233,,0.09,-0.03,1.02,0,-2,-0,0.09,,74,3751,17,41,80,0.637,0.0,314,4.91,12.6,0.0,1,23.2,4.59,5.1,0,0,0,1,0,,,,,,,,,,,,,,,,,,,,
8923,0,,,248,250,238,233,,0.06,-0.04,1.09,0,-2,-0,0.07,,74,3760,30,41,83,0.637,0.0,320,4.88,12.4,0.0,1,24.2,2.18,5.1,0,0,0,1,0,,,,,,,,,,,,,,,,,,,,
8943,0,4,3,248,250,238,233,-5,0.08,-0.02,1.01,0,-3,-0,0.08,1,74,3851,42,41,89,0.638,0.0,326,4.93,12.6,0.0,1,26.3,6.13,5.1,0,0,0,1,0,0,250,250,0,0.0,0.0,0.0,0.0,0,0,0.0,0,0.0,-1,0.0,,0.0,0,0.0,0.149
8963,0,,,248,250,238,233,,0.08,-0.01,1.04,0,-2,-1,0.08,,74,4168,44,41,91,0.636,0.0,337,4.9,12.8,0.0,1,30.7,6.29,5.1,0,0,0,1,0,,,,,,,,,,,,,,,,,,,,
8983,0,,,248,250,238,233,,0.1,0.02,1.25,0,-3,-2,0.1,,74,4545,45,41,90,0.637,0.0,357,4.91,12.7,0.0,1,35.7,2.58,12.6,0,0,0,1,0,,,,,,,,,,,,,,,,,,,,
9003,0,,,248,250,238,233,,0.15,-0.02,1.15,0,-5,-3,0.15,,74,4917,45,41,90,0.637,0.0,396,4.97,13.0,0.0,1,41.5,5.88,12.6,0,0,0,1,0,,,,,,,,,,,,,,,,,,,,
9023,0,,,248,250,238,233,,0.09,0.0,1.37,0,5,4,0.09,,74,5506,37,41,90,0.635,0.0,435,4.85,12.8,0.0,1,41.3,3.17,12.6,0,0,0,1,0,,,,,,,,,,,,,,,,,,,,
9043,0,4,3,248,250,238,233,-5,-0.02,-0.06,1.27,0,7,5,0.06,1,74,6105,24,41,87,0.634,0.0,503,4.87,12.7,0.0,1,39.9,3.56,12.6,0,0,0,1,0,0,250,250,0,0.0,0.0,0.0,0.0,0,0,0.0,0,0.0,-1,0.0,0.0,0.0,0,0.0,0.1507
9063,0,,,248,250,238,233,,0.02,-0.03,1.48,0,10,7,0.04,,74,6544,22,41,84,0.632,0.0,559,4.84,12.9,0.0,1,42.6,4.06,12.6,0,0,0,1,0,,,,,,,,,,,,,,,,,,,,
9083,0,,,248,250,238,233,,-0.01,-0.07,1.36,0,9,6,0.07,,74,6944,24,41,82,0.632,0.0,606,4.9,13.0,0.0,1,44.7,3.75,12.0,0,0,0,1,0,,,,,,,,,,,,,,,,,,,,
9103,0,,,248,250,238,233,,-0.02,-0.02,1.28,0,7,5,0.03,,74,7250,28,41,81,0.63,0.0,634,4.9,12.9,0.0,1,42.8,3.97,12.0,0,0,0,1,0,,,,,,,,,,,,,,,,,,,,
9123,0,,,248,250,238,233,,-0.03,-0.01,1.19,0,7,5,0.03,,74,7747,28,41,80,0.629,0.0,648,4.87,13.0,0.0,1,38.9,4.25,12.0,0,0,0,1,0,,,,,,,,,,,,,,,,,,,,
9143,0,3,3,248,250,238,233,-5,-0.0,-0.05,1.28,0,7,5,0.05,1,74,8396,29,41,79,0.627,0.0,663,4.85,12.8,0.0,1,41.6,4.46,12.0,0,0,0,1,0,0,250,250,0,0.0,0.0,0.0,0.0,0,0,0.0,0,0.0,-1,0.0,,0.0,0,0.0,0.1524
9163,0,,,248,250,238,233,,0.02,-0.17,1.28,0,7,7,0.17,,74,8945,29,41,75,0.626,0.0,662,4.86,12.8,0.0,1,41.3,4.21,12.0,0,0,0,1,0,,,,,,,,,,,,,,,,,,,,
9183,0,,,248,250,238,233,,0.01,-0.24,1.18,0,6,6,0.24,,74,9684,24,41,72,0.625,0.0,683,4.82,12.8,0.0,1,40.9,4.15,18.0,0,0,0,1,0,,,,,,,,,,,,,,,,,,,,
9203,0,,,248,250,238,233,,-0.01,-0.27,1.39,0,7,7,0.27,,74,10257,13,41,66,0.623,0.0,688,4.83,12.8,0.0,1,41.5,4.0,18.0,0,0,0,1,0,,,,,,,,,,,,,,,,,,,,
9223,0,,,248,250,238,233,,-0.01,-0.09,1.56,1,3,4,0.09,,74,10671,6,41,56,0.621,0.0,694,4.86,12.8,0.0,1,41.4,2.71,18.0,0,0,0,1,0,,,,,,,,,,,,,,,,,,,,
9243,0,5,2,248,250,238,233,-6,-0.05,-0.08,1.59,1,5,4,0.09,1,74,10800,6,41,49,0.62,0.0,702,4.82,12.7,0.0,1,38.5,2.93,18.0,0,0,0,1,0,0,250,250,0,0.0,0.0,0.0,0.0,0,0,0.0,0,0.0,-1,0.0,0.0,0.0,0,0.0,0.154
9263,0,,,248,250,238,233,,-0.05,-0.22,1.47,1,2,-0,0.23,,74,10581,6,41,45,0.618,0.0,702,4.86,12.8,0.0,1,36.5,2.63,18.0,0,0,0,1,0,,,,,,,,,,,,,,,,,,,,
9283,0,,,248,250,238,233,,-0.04,-0.36,1.66,1,2,1,0.36,,74,10359,6,41,41,0.618,0.0,692,4.87,12.8,0.0,1,33.5,2.53,12.2,0,0,0,1,0,,,,,,,,,,,,,,,,,,,,
9303,0,,,248,250,238,233,,-0.05,-0.43,1.61,1,-0,-1,0.44,,74,10107,6,41,39,0.618,0.0,702,4.85,12.7,0.0,1,32.0,2.5,12.2,0,0,0,1,0,,,,,,,,,,,,,,,,,,,,
9323,0,,,248,250,238,233,,-0.02,-0.24,1.48,1,3,1,0.24,,74,9925,6,41,37,0.618,0.0,696,4.87,12.8,0.0,1,31.4,2.48,12.2,0,0,0,1,0,,,,,,,,,,,,,,,,,,,,
9343,0,4,3,248,250,238,233,-5,-0.05,-0.3,1.68,1,1,1,0.3,1,74,9740,6,41,35,0.619,0.0,690,4.83,12.8,0.0,1,30.8,2.51,12.2,0,0,0,1,0,0,250,250,0,0.0,0.0,0.0,0.0,0,0,0.0,0,0.0,-1,0.0,,0.0,0,0.0,0.1557
9363,0,,,248,250,238,233,,-0.03,-0.18,1.56,1,0,-1,0.18,,74,9580,6,41,33,0.619,0.0,691,4.85,12.8,0.0,1,30.2,2.51,12.2,0,0,0,1,0,,,,,,,,,,,,,,,,,,,,
9383,0,,,248,250,238,233,,-0.01,-0.19,1.44,1,0,1,0.19,,74,9384,6,41,32,0.62,0.0,685,4.9,12.8,0.0,1,30.0,2.48,10.8,0,0,0,1,0,,,,,,,,,,,,,,,,,,,,
9403,0,,,248,250,238,233,,0.02,-0.25,1.44,1,1,2,0.25,,74,9124,6,41,31,0.621,0.0,676,4.87,12.7,0.0,1,29.5,2.41,10.8,0,0,0,1,0,,,,,,,,,,,,,,,,,,,,
9423,0,,,248,250,238,233,,0.03,-0.29,1.4,1,1,4,0.3,,74,8924,6,41,31,0.623,0.0,669,4.84,12.8,0.0,1,29.5,2.4,10.8,0,0,0,1,0,,,,,,,,,,,,,,,,,,,,
9443,0,4,1,248,250,238,233,-5,0.06,-0.33,1.31,1,2,8,0.34,1,74,8708,6,41,30,0.624,0.0,667,4.84,12.7,0.0,1,29.1,2.4,10.8,0,0,0,1,0,0,250,250,0,0.0,0.0,0.0,0.0,0,0,0.0,0,0.0,-1,0.0,0.0,0.0,0,0.0,0.1574
9463,0,,,248,250,238,233,,0.05,-0.22,1.21,1,2,9,0.22,,74,8534,6,41,30,0.626,0.0,663,4.89,12.8,0.0,1,29.1,2.4,10.8,0,0,0,1,0,,,,,,,,,,,,,,,,,,,,
9483,0,,,248,250,238,233,,0.06,-0.18,1.42,1,-0,5,0.19,,74,8318,6,41,30,0.628,0.0,670,4.91,12.9,0.0,1,28.8,2.24,8.9,0,0,0,1,0,,,,,,,,,,,,,,,,,,,,
9503,0,,,248,250,238,233,,0.04,-0.15,1.32,1,1,8,0.16,,74,8127,6,41,30,0.63,0.0,657,4.93,12.9,0.0,1,28.5,2.07,8.9,0,0,0,1,0,,,,,,,,,,,,,,,,,,,,
9523,0,,,248,250,238,233,,0.07,-0.16,1.36,1,2,7,0.17,,74,7898,6,41,30,0.633,0.0,658,4.98,12.8,0.0,1,28.3,1.96,8.9,0,0,0,1,0,,,,,,,,,,,,,,,,,,,,
9543,0,4,3,248,250,238,233,-5,0.09,-0.17,1.53,1,1,6,0.19,1,74,7712,6,41,31,0.634,0.0,660,4.82,12.9,0.0,1,28.6,1.94,8.9,0,0,0,1,0,0,250,250,0,0.0,0.0,0.0,0.0,0,0,0.0,0,0.0,-1,0.0,,0.0,0,0.0,0.159
9563,0,,,248,250,238,233,,0.12,-0.16,1.62,1,-0,4,0.2,,74,7512,6,41,31,0.636,0.0,657,4.83,12.7,0.0,1,28.6,1.94,8.9,0,0,0,1,0,,,,,,,,,,,,,,,,,,,,
9583,0,,,248,250,238,233,,0.14,-0.15,1.81,1,-1,4,0.21,,74,7318,6,41,31,0.637,0.0,648,4.86,12.7,0.0,1,28.6,1.94,6.6,0,0,0,1,0,,,,,,,,,,,,,,,,,,,,
9603,0,,,248,250,238,233,,0.12,-0.15,1.67,1,1,5,0.19,,74,7118,6,41,32,0.639,0.0,643,4.87,12.7,0.0,1,29.0,0.81,6.6,0,0,0,1,0,,,,,,,,,,,,,,,,,,,,
9623,0,,,248,250,238,233,,0.11,-0.14,1.57,1,-0,3,0.18,,74,6970,6,41,32,0.641,0.0,640,4.91,13.0,0.0,1,28.9,1.91,6.6,0,0,0,1,0,,,,,,,,,,,,,,,,,,,,
9643,0,5,1,248,250,238,233,-5,0.14,-0.12,1.66,1,1,4,0.19,1,74,6786,8,41,32,0.641,0.0,637,4.83,13.0,0.0,1,28.8,1.91,6.6,0,0,0,1,0,0,250,250,0,0.0,0.0,0.0,0.0,0,0,0.0,0,0.0,-1,0.0,0.0,0.0,0,0.0,0.1607
9663,0,,,248,250,238,233,,0.14,-0.11,1.59,1,-1,2,0.18,,74,6632,17,40,36,0.643,0.0,625,4.92,12.9,0.0,1,29.7,1.01,6.6,0,0,0,1,0,,,,,,,,,,,,,,,,,,,,
9683,0,,,248,250,238,233,,0.09,-0.12,1.47,1,2,4,0.15,,74,6535,29,40,44,0.644,0.0,619,4.84,12.8,0.0,1,31.5,2.25,6.8,0,0,0,1,0,,,,,,,,,,,,,,,,,,,,
9703,0,,,248,250,238,233,,0.13,-0.11,1.66,1,0,2,0.18,,74,6583,39,40,55,0.644,0.0,625,4.84,13.0,0.0,1,34.7,2.43,6.8,0,0,0,1,0,,,,,,,,,,,,,,,,,,,,
9723,0,,,248,250,238,233,,0.07,-0.11,1.53,1,2,3,0.13,,74,6737,45,40,67,0.646,0.0,628,4.91,12.9,0.0,1,39.2,3.63,6.8,0,0,0,1,0,,,,,,,,,,,,,,,,,,,,
9743,0,4,1,248,250,238,233,-6,0.11,-0.09,1.72,1,-0,1,0.14,1,74,6850,47,40,75,0.645,0.0,634,4.91,13.0,0.0,1,41.8,4.25,6.8,0,0,0,1,0,0,250,250,0,0.0,0.0,0.0,0.0,0,0,0.0,0,0.0,-1,0.0,,0.0,0,0.0,0.1624
9763,0,,,248,250,238,233,,0.09,-0.11,1.59,1,1,3,0.14,,74,6965,47,40,81,0.646,0.0,635,4.88,12.8,0.0,1,44.5,4.34,6.8,0,0,0,1,0,,,,,,,,,,,,,,,,,,,,
9783,0,,,248,250,238,233,,0.06,-0.12,1.48,1,1,2,0.14,,74,7110,47,40,84,0.646,0.0,635,4.9,13.0,0.0,1,45.0,4.52,14.3,0,0,0,1,0,,,,,,,,,,,,,,,,,,,,
9803,0,,,248,250,238,233,,0.03,-0.07,1.36,1,1,2,0.07,,74,7396,47,40,85,0.646,0.0,645,4.86,12.8,0.0,1,42.4,3.26,14.3,0,0,0,1,0,,,,,,,,,,,,,,,,,,,,
9823,0,,,248,250,238,232,,0.02,-0.05,1.26,1,1,3,0.05,,74,7615,39,40,85,0.646,0.0,655,4.83,12.9,0.0,1,39.9,4.96,14.3,0,0,0,1,0,,,,,,,,,,,,,,,,,,,,
9843,0,4,3,248,250,238,233,-5,0.02,-0.06,1.16,1,3,4,0.07,1,74,7961,26,40,83,0.645,0.0,653,4.93,12.7,0.0,1,35.8,3.62,14.3,0,0,0,1,0,0,250,250,0,0.0,0.0,0.0,0.0,0,0,0.0,0,0.0,-1,0.0,0.0,0.0,0,0.0,0.164
