"Interval"|"ms"|0|0|1,"Utc"|"ms"|0|0|1,"Brake_F"|"Bar"|0|2000|10,"Brake_R"|"Bar"|0|2000|10,"Height_RF"|"mm"|0|255|50,"Height_LF"|"mm"|0|255|50,"Height_LR"|"mm"|0|80|50,"Height_RR"|"mm"|0|255|50,"Steering"|"deg"|-100|100|10,"AccelX"|"G"|-3.0|3.0|50,"AccelY"|"G"|-3.0|3.0|50,"AccelZ"|"G"|-3.0|3.0|50,"Yaw"|"Deg/Sec"|-120|120|50,"Pitch"|"Deg/Sec"|-120|120|50,"Roll"|"Deg/Sec"|-120|120|50,"Gsum"|"G"|0.0|3.0|50,"Log_Button"|""|0.0|10.0|10,"WaterTemp"|"C"|0|150|50,"RPM"|"tr/min"|0|14000|50,"TPS"|"%"|0|100|50,"AirTemp"|"C"|0|150|50,"MAP"|"KPa"|0|100|50,"Lambda"|""|0.5|1.5|50,"SpeedDTA"|"kph"|0.0|250.0|50,"OilPress"|"KPa"|0|1500|50,"FuelPressur"|"Bar"|0.0|10.0|50,"Batterie"|"V"|0.0|20.0|50,"ConsoKm"|"L/100km"|0.0|200.0|50,"Gear"|""|0|6|50,"AdvIgnition"|"Deg"|-20.0|70.0|50,"Injection"|"ms"|0.0|10.0|50,"ConsoHr"|"L/Hr"|0.0|10000.0|50,"LC_But_Pres"|""|0|1|50,"LC_Active"|""|0|1|50,"TractionOn"|""|0|1|50,"TractionWet"|""|0|1|50,"FanOn"|""|0|1|50,"RD_Speed"|"km/h"|-30|250|10,"RUD_Speed"|"km/h"|-30|250|10,"LD_Speed"|"km/h"|-30|250|10,"LUD_Speed"|"km/h"|-30|250|10,"Latitude"|"Degrees"|-180.0|180.0|10,"Longitude"|"Degrees"|-180.0|180.0|10,"Speed"|"kph"|0.0|150.0|10,"Altitude"|"m"|0.0|4000.0|10,"GPSSats"|""|0|20|10,"GPSQual"|""|0|5|10,"GPSDOP"|""|0.0|20.0|10,"LapCount"|""|0|0|10,"LapTime"|"Min"|0.0|0.0|10,"Sector"|""|0|0|10,"SectorTime"|"Min"|0.0|0.0|10,"PredTime"|"Min"|0.0|0.0|5,"ElapsedTime"|"Min"|0.0|0.0|10,"CurrentLap"|""|0|0|10,"Distance"|"km"|0.0|0.0|10,"SessionTime"|"Min"|0.0|0.0|10
64,0,,,250,248,251,246,,-0.05,-0.02,0.99,0,-0,0,0.05,,0,0,0,0,0,0.0,0.0,0,0.0,0.0,0.0,0,0.0,0.0,0.0,0,0,0,0,0,,,,,,,,,,,,,,,,,,,,
84,0,,,250,248,251,246,,-0.05,-0.02,0.99,0,-0,-0,0.05,,0,0,0,0,0,0.0,0.0,0,0.0,0.0,0.0,0,0.0,0.0,0.0,0,0,0,0,0,,,,,,,,,,,,,,,,,,,,
104,0,,,250,248,251,246,,-0.05,-0.02,0.99,0,-0,-0,0.05,,0,0,0,0,0,0.0,0.0,0,0.0,0.0,0.0,0,0.0,0.0,0.0,0,0,0,0,0,,,,,,,,,,,,,,,,,,,,
124,0,,,250,248,251,246,,-0.04,-0.02,0.99,0,-0,0,0.05,,0,0,0,0,0,0.0,0.0,0,0.0,0.0,0.0,0,0.0,0.0,0.0,0,0,0,0,0,,,,,,,,,,,,,,,,,,,,
144,0,-1,2,250,248,251,245,-1,-0.05,-0.02,0.99,0,-0,0,0.05,1,0,0,0,0,0,0.0,0.0,0,0.0,0.0,0.0,0,0.0,0.0,0.0,0,0,0,0,0,0,0,0,0,0.0,0.0,0.0,0.0,0,0,0.0,0,0.0,-1,0.0,,0.0,0,0.0,0.0024
164,0,,,250,248,251,246,,-0.05,-0.02,0.99,0,-0,0,0.05,,0,0,0,0,0,0.0,0.0,0,0.0,0.0,0.0,0,0.0,0.0,0.0,0,0,0,0,0,,,,,,,,,,,,,,,,,,,,
184,0,,,250,248,251,246,,-0.05,-0.02,0.99,0,-0,0,0.05,,0,0,0,0,0,0.0,0.0,0,0.0,0.0,0.0,0,0.0,0.0,0.0,0,0,0,0,0,,,,,,,,,,,,,,,,,,,,
204,0,,,250,248,251,246,,-0.05,-0.02,0.99,0,-0,0,0.05,,0,0,0,0,0,0.0,0.0,0,0.0,0.0,0.0,0,0.0,0.0,0.0,0,0,0,0,0,,,,,,,,,,,,,,,,,,,,
224,0,,,250,248,251,246,,-0.05,-0.02,0.99,0,0,0,0.05,,0,0,0,0,0,0.0,0.0,0,0.0,0.0,0.0,0,0.0,0.0,0.0,0,0,0,0,0,,,,,,,,,,,,,,,,,,,,
244,0,0,3,250,248,251,246,-1,-0.05,-0.02,0.99,0,0,-0,0.05,1,0,0,0,0,0,0.0,0.0,0,0.0,0.0,0.0,0,0.0,0.0,0.0,0,0,0,0,0,0,0,0,0,0.0,0.0,0.0,0.0,0,0,0.0,0,0.0,-1,0.0,0.0,0.0,0,0.0,0.0041
264,0,,,250,248,251,245,,-0.04,-0.02,0.99,0,0,-0,0.05,,0,0,0,0,0,0.0,0.0,0,0.0,0.0,0.0,0,0.0,0.0,0.0,0,0,0,0,0,,,,,,,,,,,,,,,,,,,,
284,0,,,250,248,251,246,,-0.04,-0.02,0.99,0,0,-0,0.05,,0,0,0,0,0,0.0,0.0,0,0.0,0.0,0.0,0,0.0,0.0,0.0,0,0,0,0,0,,,,,,,,,,,,,,,,,,,,
304,0,,,250,248,251,246,,-0.04,-0.02,0.99,0,0,-0,0.05,,0,0,0,0,0,0.0,0.0,0,0.0,0.0,0.0,0,0.0,0.0,0.0,0,0,0,0,0,,,,,,,,,,,,,,,,,,,,
324,0,,,250,248,251,246,,-0.04,-0.02,0.99,0,0,-0,0.05,,0,0,0,0,0,0.0,0.0,0,0.0,0.0,0.0,0,0.0,0.0,0.0,0,0,0,0,0,,,,,,,,,,,,,,,,,,,,
344,0,1,2,250,248,251,246,-2,-0.04,-0.02,0.99,0,0,-0,0.05,1,0,0,0,0,0,0.0,0.0,0,0.0,0.0,0.0,0,0.0,0.0,0.0,0,0,0,0,0,0,0,0,0,0.0,0.0,0.0,0.0,0,0,0.0,0,0.0,-1,0.0,,0.0,0,0.0,0.0057
364,0,,,250,248,251,246,,-0.04,-0.02,0.99,0,0,-0,0.05,,0,0,0,0,0,0.0,0.0,0,0.0,0.0,0.0,0,0.0,0.0,0.0,0,0,0,0,0,,,,,,,,,,,,,,,,,,,,
384,0,,,250,248,251,245,,-0.04,-0.02,0.99,0,0,-0,0.05,,0,0,0,0,0,0.0,0.0,0,0.0,0.0,0.0,0,0.0,0.0,0.0,0,0,0,0,0,,,,,,,,,,,,,,,,,,,,
404,0,,,250,248,251,246,,-0.04,-0.02,0.99,0,0,-0,0.05,,0,0,0,0,0,0.0,0.0,0,0.0,0.0,0.0,0,0.0,0.0,0.0,0,0,0,0,0,,,,,,,,,,,,,,,,,,,,
424,0,,,250,248,251,246,,-0.04,-0.02,0.99,0,0,-0,0.05,,0,0,0,0,0,0.0,0.0,0,0.0,0.0,0.0,0,0.0,0.0,0.0,0,0,0,0,0,,,,,,,,,,,,,,,,,,,,
444,0,-1,2,250,248,251,246,-1,-0.04,-0.02,0.99,0,0,-0,0.05,1,0,0,0,0,0,0.0,0.0,0,0.0,0.0,0.0,0,0.0,0.0,0.0,0,0,0,0,0,0,0,0,0,0.0,0.0,0.0,0.0,0,0,0.0,0,0.0,-1,0.0,0.0,0.0,0,0.0,0.0074
464,0,,,250,248,251,246,,-0.04,-0.02,0.99,0,0,-0,0.05,,0,0,0,0,0,0.0,0.0,0,0.0,0.0,0.0,0,0.0,0.0,0.0,0,0,0,0,0,,,,,,,,,,,,,,,,,,,,
484,0,,,250,248,251,246,,-0.04,-0.02,0.99,0,0,-0,0.05,,0,0,0,0,0,0.0,0.0,0,0.0,0.0,0.0,0,0.0,0.0,0.0,0,0,0,0,0,,,,,,,,,,,,,,,,,,,,
504,0,,,250,248,251,246,,-0.04,-0.02,0.99,0,0,-0,0.05,,0,0,0,0,0,0.0,0.0,0,0.0,0.0,0.0,0,0.0,0.0,0.0,0,0,0,0,0,,,,,,,,,,,,,,,,,,,,
524,0,,,250,248,251,246,,-0.04,-0.02,0.99,0,0,-0,0.05,,0,0,0,0,0,0.0,0.0,0,0.0,0.0,0.0,0,0.0,0.0,0.0,0,0,0,0,0,,,,,,,,,,,,,,,,,,,,
544,0,0,0,250,248,251,246,-1,-0.04,-0.02,0.99,0,0,-0,0.05,1,0,0,0,0,0,0.0,0.0,0,0.0,0.0,0.0,0,0.0,0.0,0.0,0,0,0,0,0,0,0,0,0,0.0,0.0,0.0,0.0,0,0,0.0,0,0.0,-1,0.0,,0.0,0,0.0,0.0091
564,0,,,250,248,251,246,,-0.04,-0.02,1.0,0,0,0,0.05,,0,0,0,0,0,0.0,0.0,0,0.0,0.0,0.0,0,0.0,0.0,0.0,0,0,0,0,0,,,,,,,,,,,,,,,,,,,,
584,0,,,250,248,251,246,,-0.04,-0.02,1.0,0,0,0,0.05,,0,0,0,0,0,0.0,0.0,0,0.0,0.0,0.0,0,0.0,0.0,0.0,0,0,0,0,0,,,,,,,,,,,,,,,,,,,,
604,0,,,250,248,251,246,,-0.04,-0.02,0.99,0,0,0,0.05,,0,0,0,0,0,0.0,0.0,0,0.0,0.0,0.0,0,0.0,0.0,0.0,0,0,0,0,0,,,,,,,,,,,,,,,,,,,,
624,0,,,250,248,251,246,,-0.04,-0.02,0.99,0,0,0,0.05,,0,0,0,0,0,0.0,0.0,0,0.0,0.0,0.0,0,0.0,0.0,0.0,0,0,0,0,0,,,,,,,,,,,,,,,,,,,,
644,0,-1,2,250,248,251,246,-1,-0.04,-0.02,0.99,0,0,-0,0.05,1,0,0,0,0,0,0.0,0.0,0,0.0,0.0,0.0,0,0.0,0.0,0.0,0,0,0,0,0,0,0,0,0,0.0,0.0,0.0,0.0,0,0,0.0,0,0.0,-1,0.0,0.0,0.0,0,0.0,0.0107
664,0,,,250,248,251,246,,-0.04,-0.02,0.99,0,0,-0,0.05,,0,0,0,0,0,0.0,0.0,0,0.0,0.0,0.0,0,0.0,0.0,0.0,0,0,0,0,0,,,,,,,,,,,,,,,,,,,,
684,0,,,250,248,251,246,,-0.04,-0.02,0.99,0,0,-0,0.05,,0,0,0,0,0,0.0,0.0,0,0.0,0.0,0.0,0,0.0,0.0,0.0,0,0,0,0,0,,,,,,,,,,,,,,,,,,,,
704,0,,,250,248,251,246,,-0.04,-0.02,1.0,0,0,-0,0.05,,0,0,0,0,0,0.0,0.0,0,0.0,0.0,0.0,0,0.0,0.0,0.0,0,0,0,0,0,,,,,,,,,,,,,,,,,,,,
724,0,,,250,248,251,246,,-0.04,-0.02,1.0,0,0,-0,0.05,,0,0,0,0,0,0.0,0.0,0,0.0,0.0,0.0,0,0.0,0.0,0.0,0,0,0,0,0,,,,,,,,,,,,,,,,,,,,
744,0,0,2,250,248,251,246,-2,-0.04,-0.02,1.0,0,0,-0,0.05,1,0,0,0,0,0,0.0,0.0,0,0.0,0.0,0.0,0,0.0,0.0,0.0,0,0,0,0,0,0,0,0,0,0.0,0.0,0.0,0.0,0,0,0.0,0,0.0,-1,0.0,,0.0,0,0.0,0.0124
764,0,,,250,248,251,245,,-0.04,-0.02,1.0,0,0,-0,0.04,,0,0,0,0,0,0.0,0.0,0,0.0,0.0,0.0,0,0.0,0.0,0.0,0,0,0,0,0,,,,,,,,,,,,,,,,,,,,
784,0,,,250,248,251,246,,-0.04,-0.02,1.0,0,0,-0,0.04,,0,0,0,0,0,0.0,0.0,0,0.0,0.0,0.0,0,0.0,0.0,0.0,0,0,0,0,0,,,,,,,,,,,,,,,,,,,,
804,0,,,250,248,251,246,,-0.04,-0.02,0.99,0,0,-0,0.04,,0,0,0,0,0,0.0,0.0,0,0.0,0.0,0.0,0,0.0,0.0,0.0,0,0,0,0,0,,,,,,,,,,,,,,,,,,,,
824,0,,,250,248,251,245,,-0.04,-0.02,1.0,0,0,-0,0.04,,0,0,0,0,0,0.0,0.0,0,0.0,0.0,0.0,0,0.0,0.0,0.0,0,0,0,0,0,,,,,,,,,,,,,,,,,,,,
844,0,-0,2,250,248,251,246,-1,-0.04,-0.02,0.99,0,0,-0,0.05,1,0,0,0,0,0,0.0,0.0,0,0.0,0.0,0.0,0,0.0,0.0,0.0,0,0,0,0,0,0,0,0,0,0.0,0.0,0.0,0.0,0,0,0.0,0,0.0,-1,0.0,0.0,0.0,0,0.0,0.0141
864,0,,,250,248,251,246,,-0.04,-0.02,0.99,0,0,-0,0.05,,0,0,0,0,0,0.0,0.0,0,0.0,0.0,0.0,0,0.0,0.0,0.0,0,0,0,0,0,,,,,,,,,,,,,,,,,,,,
884,0,,,250,248,251,245,,-0.04,-0.02,0.99,0,0,-0,0.05,,0,0,0,0,0,0.0,0.0,0,0.0,0.0,0.0,0,0.0,0.0,0.0,0,0,0,0,0,,,,,,,,,,,,,,,,,,,,
904,0,,,250,248,251,246,,-0.04,-0.02,0.99,0,0,-0,0.05,,0,0,0,0,0,0.0,0.0,0,0.0,0.0,0.0,0,0.0,0.0,0.0,0,0,0,0,0,,,,,,,,,,,,,,,,,,,,
924,0,,,250,248,251,245,,-0.04,-0.02,0.99,0,0,-0,0.05,,0,0,0,0,0,0.0,0.0,0,0.0,0.0,0.0,0,0.0,0.0,0.0,0,0,0,0,0,,,,,,,,,,,,,,,,,,,,
944,0,1,2,250,248,251,246,-1,-0.04,-0.02,0.99,0,0,-0,0.05,1,0,0,0,0,0,0.0,0.0,0,0.0,0.0,0.0,0,0.0,0.0,0.0,0,0,0,0,0,0,0,0,0,0.0,0.0,0.0,0.0,0,0,0.0,0,0.0,-1,0.0,,0.0,0,0.0,0.0157
964,0,,,250,248,251,246,,-0.04,-0.02,0.99,0,0,-0,0.05,,0,0,0,0,0,0.0,0.0,0,0.0,0.0,0.0,0,0.0,0.0,0.0,0,0,0,0,0,,,,,,,,,,,,,,,,,,,,
984,0,,,250,248,251,246,,-0.04,-0.02,0.99,0,0,0,0.05,,0,0,0,0,0,0.0,0.0,0,0.0,0.0,0.0,0,0.0,0.0,0.0,0,0,0,0,0,,,,,,,,,,,,,,,,,,,,
1004,0,,,250,248,251,245,,-0.04,-0.02,0.99,0,0,0,0.05,,0,0,0,0,0,0.0,0.0,0,0.0,0.0,0.0,0,0.0,0.0,0.0,0,0,0,0,0,,,,,,,,,,,,,,,,,,,,
1024,0,,,250,248,251,246,,-0.04,-0.02,1.0,0,0,0,0.05,,0,0,0,0,0,0.0,0.0,0,0.0,0.0,0.0,0,0.0,0.0,0.0,0,0,0,0,0,,,,,,,,,,,,,,,,,,,,
1044,0,-1,4,250,248,251,246,-1,-0.04,-0.02,1.0,0,0,0,0.05,1,0,0,0,0,0,0.0,0.0,0,0.0,0.0,0.0,0,0.0,0.0,0.0,0,0,0,0,0,0,0,0,0,0.0,0.0,0.0,0.0,0,0,0.0,0,0.0,-1,0.0,0.0,0.0,0,0.0,0.0174
1064,0,,,250,248,251,246,,-0.04,-0.02,1.0,0,0,0,0.05,,0,0,0,0,0,0.0,0.0,0,0.0,0.0,0.0,0,0.0,0.0,0.0,0,0,0,0,0,,,,,,,,,,,,,,,,,,,,
1084,0,,,250,248,251,246,,-0.04,-0.02,1.0,0,0,-0,0.05,,0,0,0,0,0,0.0,0.0,0,0.0,0.0,0.0,0,0.0,0.0,0.0,0,0,0,0,0,,,,,,,,,,,,,,,,,,,,
1104,0,,,250,248,251,246,,-0.04,-0.02,1.0,0,0,-0,0.05,,0,0,0,0,0,0.0,0.0,0,0.0,0.0,0.0,0,0.0,0.0,0.0,0,0,0,0,0,,,,,,,,,,,,,,,,,,,,
1124,0,,,250,248,251,246,,-0.04,-0.02,1.0,0,0,-0,0.05,,0,0,0,0,0,0.0,0.0,0,0.0,0.0,0.0,0,0.0,0.0,0.0,0,0,0,0,0,,,,,,,,,,,,,,,,,,,,
1144,0,0,1,250,248,251,246,-2,-0.04,-0.02,0.99,0,0,-0,0.05,1,0,0,0,0,0,0.0,0.0,0,0.0,0.0,0.0,0,0.0,0.0,0.0,0,0,0,0,0,0,0,0,0,0.0,0.0,0.0,0.0,0,0,0.0,0,0.0,-1,0.0,,0.0,0,0.0,0.0191
1164,0,,,250,248,251,246,,-0.04,-0.02,0.99,0,0,-0,0.05,,0,0,0,0,0,0.0,0.0,0,0.0,0.0,0.0,0,0.0,0.0,0.0,0,0,0,0,0,,,,,,,,,,,,,,,,,,,,
1184,0,,,250,248,251,246,,-0.04,-0.02,0.99,0,0,-0,0.05,,0,0,0,0,0,0.0,0.0,0,0.0,0.0,0.0,0,0.0,0.0,0.0,0,0,0,0,0,,,,,,,,,,,,,,,,,,,,
1204,0,,,250,248,251,246,,-0.04,-0.02,1.0,0,0,-0,0.05,,0,0,0,0,0,0.0,0.0,0,0.0,0.0,0.0,0,0.0,0.0,0.0,0,0,0,0,0,,,,,,,,,,,,,,,,,,,,
1224,0,,,250,248,251,245,,-0.04,-0.02,0.99,0,0,-0,0.05,,0,0,0,0,0,0.0,0.0,0,0.0,0.0,0.0,0,0.0,0.0,0.0,0,0,0,0,0,,,,,,,,,,,,,,,,,,,,
1244,0,-0,2,250,248,251,246,-1,-0.04,-0.02,1.0,0,0,-0,0.05,1,0,0,0,0,0,0.0,0.0,0,0.0,0.0,0.0,0,0.0,0.0,0.0,0,0,0,0,0,0,0,0,0,0.0,0.0,0.0,0.0,0,0,0.0,0,0.0,-1,0.0,0.0,0.0,0,0.0,0.0207
1264,0,,,250,248,251,246,,-0.04,-0.02,0.99,0,0,-0,0.05,,0,0,0,0,0,0.0,0.0,0,0.0,0.0,0.0,0,0.0,0.0,0.0,0,0,0,0,0,,,,,,,,,,,,,,,,,,,,
1284,0,,,250,248,251,246,,-0.04,-0.02,0.99,0,0,-0,0.05,,0,0,0,0,0,0.0,0.0,0,0.0,0.0,0.0,0,0.0,0.0,0.0,0,0,0,0,0,,,,,,,,,,,,,,,,,,,,
1304,0,,,250,248,251,245,,-0.04,-0.02,0.99,0,0,-0,0.05,,0,0,0,0,0,0.0,0.0,0,0.0,0.0,0.0,0,0.0,0.0,0.0,0,0,0,0,0,,,,,,,,,,,,,,,,,,,,
1324,0,,,250,248,251,246,,-0.04,-0.02,0.99,0,0,-0,0.05,,0,0,0,0,0,0.0,0.0,0,0.0,0.0,0.0,0,0.0,0.0,0.0,0,0,0,0,0,,,,,,,,,,,,,,,,,,,,
1344,0,-0,2,250,248,251,246,-1,-0.04,-0.02,0.99,0,0,-0,0.05,1,0,0,0,0,0,0.0,0.0,0,0.0,0.0,0.0,0,0.0,0.0,0.0,0,0,0,0,0,0,0,0,0,0.0,0.0,0.0,0.0,0,0,0.0,0,0.0,-1,0.0,,0.0,0,0.0,0.0224
1364,0,,,250,248,251,246,,-0.04,-0.02,1.0,0,0,-0,0.05,,0,0,0,0,0,0.0,0.0,0,0.0,0.0,0.0,0,0.0,0.0,0.0,0,0,0,0,0,,,,,,,,,,,,,,,,,,,,
1384,0,,,250,248,251,246,,-0.04,-0.02,1.0,0,0,-0,0.05,,0,0,0,0,0,0.0,0.0,0,0.0,0.0,0.0,0,0.0,0.0,0.0,0,0,0,0,0,,,,,,,,,,,,,,,,,,,,
1404,0,,,250,248,251,246,,-0.04,-0.02,1.0,0,0,-0,0.05,,0,0,0,0,0,0.0,0.0,0,0.0,0.0,0.0,0,0.0,0.0,0.0,0,0,0,0,0,,,,,,,,,,,,,,,,,,,,
1424,0,,,250,248,251,246,,-0.04,-0.02,1.0,0,0,-0,0.05,,0,0,0,0,0,0.0,0.0,0,0.0,0.0,0.0,0,0.0,0.0,0.0,0,0,0,0,0,,,,,,,,,,,,,,,,,,,,
1444,0,0,3,250,248,251,246,-2,-0.04,-0.02,1.0,0,0,-0,0.05,1,0,0,0,0,0,0.0,0.0,0,0.0,0.0,0.0,0,0.0,0.0,0.0,0,0,0,0,0,0,0,0,0,0.0,0.0,0.0,0.0,0,0,0.0,0,0.0,-1,0.0,0.0,0.0,0,0.0,0.0241
1464,0,,,250,248,251,246,,-0.04,-0.02,1.0,0,0,-0,0.05,,0,0,0,0,0,0.0,0.0,0,0.0,0.0,0.0,0,0.0,0.0,0.0,0,0,0,0,0,,,,,,,,,,,,,,,,,,,,
1484,0,,,250,248,251,246,,-0.04,-0.02,0.99,0,0,-0,0.05,,0,0,0,0,0,0.0,0.0,0,0.0,0.0,0.0,0,0.0,0.0,0.0,0,0,0,0,0,,,,,,,,,,,,,,,,,,,,
1504,0,,,250,248,251,246,,-0.04,-0.02,0.99,0,0,-0,0.05,,0,0,0,0,0,0.0,0.0,0,0.0,0.0,0.0,0,0.0,0.0,0.0,0,0,0,0,0,,,,,,,,,,,,,,,,,,,,
1524,0,,,250,248,251,246,,-0.04,-0.02,0.99,0,0,-0,0.05,,0,0,0,0,0,0.0,0.0,0,0.0,0.0,0.0,0,0.0,0.0,0.0,0,0,0,0,0,,,,,,,,,,,,,,,,,,,,
1544,0,0,1,250,248,251,246,-1,-0.04,-0.02,1.0,0,0,0,0.05,1,0,0,0,0,0,0.0,0.0,0,0.0,0.0,0.0,0,0.0,0.0,0.0,0,0,0,0,0,0,0,0,0,0.0,0.0,0.0,0.0,0,0,0.0,0,0.0,-1,0.0,,0.0,0,0.0,0.0257
1564,0,,,250,248,251,246,,-0.04,-0.02,1.0,0,0,0,0.05,,0,0,0,0,0,0.0,0.0,0,0.0,0.0,0.0,0,0.0,0.0,0.0,0,0,0,0,0,,,,,,,,,,,,,,,,,,,,
1584,0,,,250,248,251,246,,-0.04,-0.02,1.0,0,0,0,0.05,,0,0,0,0,0,0.0,0.0,0,0.0,0.0,0.0,0,0.0,0.0,0.0,0,0,0,0,0,,,,,,,,,,,,,,,,,,,,
1604,0,,,250,248,251,246,,-0.04,-0.02,1.0,0,0,0,0.05,,0,0,0,0,0,0.0,0.0,0,0.0,0.0,0.0,0,0.0,0.0,0.0,0,0,0,0,0,,,,,,,,,,,,,,,,,,,,
1624,0,,,250,248,251,246,,-0.04,-0.02,1.0,0,0,-0,0.05,,0,0,0,0,0,0.0,0.0,0,0.0,0.0,0.0,0,0.0,0.0,0.0,0,0,0,0,0,,,,,,,,,,,,,,,,,,,,
1644,0,-0,2,250,248,251,246,-1,-0.05,-0.02,1.0,0,0,-0,0.05,1,0,0,0,0,0,0.0,0.0,0,0.0,0.0,0.0,0,0.0,0.0,0.0,0,0,0,0,0,0,0,0,0,0.0,0.0,0.0,0.0,0,0,0.0,0,0.0,-1,0.0,0.0,0.0,0,0.0,0.0274
1664,0,,,250,248,251,246,,-0.05,-0.02,1.0,0,0,-0,0.05,,0,0,0,0,0,0.0,0.0,0,0.0,0.0,0.0,0,0.0,0.0,0.0,0,0,0,0,0,,,,,,,,,,,,,,,,,,,,
1684,0,,,250,248,251,246,,-0.05,-0.02,1.0,0,0,-0,0.05,,0,0,0,0,0,0.0,0.0,0,0.0,0.0,0.0,0,0.0,0.0,0.0,0,0,0,0,0,,,,,,,,,,,,,,,,,,,,
1704,0,,,250,248,251,246,,-0.04,-0.02,1.0,0,0,-0,0.05,,0,0,0,0,0,0.0,0.0,0,0.0,0.0,0.0,0,0.0,0.0,0.0,0,0,0,0,0,,,,,,,,,,,,,,,,,,,,
1724,0,,,250,248,251,246,,-0.04,-0.02,1.0,0,0,-0,0.05,,0,0,0,0,0,0.0,0.0,0,0.0,0.0,0.0,0,0.0,0.0,0.0,0,0,0,0,0,,,,,,,,,,,,,,,,,,,,
1744,0,-1,2,250,248,251,246,-2,-0.04,-0.02,1.0,0,0,-0,0.05,1,0,0,0,0,0,0.0,0.0,0,0.0,0.0,0.0,0,0.0,0.0,0.0,0,0,0,0,0,0,0,0,0,0.0,0.0,0.0,0.0,0,0,0.0,0,0.0,-1,0.0,,0.0,0,0.0,0.0291
1764,0,,,250,248,251,246,,-0.04,-0.02,1.0,0,0,-0,0.05,,0,0,0,0,0,0.0,0.0,0,0.0,0.0,0.0,0,0.0,0.0,0.0,0,0,0,0,0,,,,,,,,,,,,,,,,,,,,
1784,0,,,250,248,251,246,,-0.04,-0.02,1.0,0,0,-0,0.05,,0,0,0,0,0,0.0,0.0,0,0.0,0.0,0.0,0,0.0,0.0,0.0,0,0,0,0,0,,,,,,,,,,,,,,,,,,,,
1804,0,,,250,248,251,246,,-0.04,-0.02,1.0,0,-0,-0,0.05,,0,0,0,0,0,0.0,0.0,0,0.0,0.0,0.0,0,0.0,0.0,0.0,0,0,0,0,0,,,,,,,,,,,,,,,,,,,,
1824,0,,,250,248,251,246,,-0.04,-0.02,1.0,0,-0,-0,0.05,,0,0,0,0,0,0.0,0.0,0,0.0,0.0,0.0,0,0.0,0.0,0.0,0,0,0,0,0,,,,,,,,,,,,,,,,,,,,
1844,0,0,1,250,248,251,245,-1,-0.04,-0.02,1.0,0,-0,-0,0.05,1,0,0,0,0,0,0.0,0.0,0,0.0,0.0,0.0,0,0.0,0.0,0.0,0,0,0,0,0,0,0,0,0,0.0,0.0,0.0,0.0,0,0,0.0,0,0.0,-1,0.0,0.0,0.0,0,0.0,0.0307
1864,0,,,250,248,251,245,,-0.04,-0.02,1.0,0,0,-0,0.05,,0,0,0,0,0,0.0,0.0,0,0.0,0.0,0.0,0,0.0,0.0,0.0,0,0,0,0,0,,,,,,,,,,,,,,,,,,,,
1884,0,,,250,248,251,246,,-0.04,-0.02,1.0,0,0,-0,0.05,,0,0,0,0,0,0.0,0.0,0,0.0,0.0,0.0,0,0.0,0.0,0.0,0,0,0,0,0,,,,,,,,,,,,,,,,,,,,
1904,0,,,250,248,251,246,,-0.04,-0.02,1.0,0,0,-0,0.05,,0,0,0,0,0,0.0,0.0,0,0.0,0.0,0.0,0,0.0,0.0,0.0,0,0,0,0,0,,,,,,,,,,,,,,,,,,,,
1924,0,,,250,248,251,246,,-0.05,-0.02,0.99,0,0,-0,0.05,,0,0,0,0,0,0.0,0.0,0,0.0,0.0,0.0,0,0.0,0.0,0.0,0,0,0,0,0,,,,,,,,,,,,,,,,,,,,
1944,0,1,0,250,248,251,246,-1,-0.05,-0.02,0.99,0,0,-0,0.05,1,0,0,0,0,0,0.0,0.0,0,0.0,0.0,0.0,0,0.0,0.0,0.0,0,0,0,0,0,0,0,0,0,0.0,0.0,0.0,0.0,0,0,0.0,0,0.0,-1,0.0,,0.0,0,0.0,0.0324
1964,0,,,250,248,251,246,,-0.04,-0.02,0.99,0,0,-0,0.05,,0,0,0,0,0,0.0,0.0,0,0.0,0.0,0.0,0,0.0,0.0,0.0,0,0,0,0,0,,,,,,,,,,,,,,,,,,,,
1984,0,,,250,248,251,246,,-0.04,-0.02,0.99,0,-0,-0,0.05,,0,0,0,0,0,0.0,0.0,0,0.0,0.0,0.0,0,0.0,0.0,0.0,0,0,0,0,0,,,,,,,,,,,,,,,,,,,,
2004,0,,,250,248,251,246,,-0.04,-0.02,0.99,0,0,-0,0.05,,0,0,0,0,0,0.0,0.0,0,0.0,0.0,0.0,0,0.0,0.0,0.0,0,0,0,0,0,,,,,,,,,,,,,,,,,,,,
2024,0,,,250,248,251,246,,-0.04,-0.02,0.99,0,0,-0,0.05,,0,0,0,0,0,0.0,0.0,0,0.0,0.0,0.0,0,0.0,0.0,0.0,0,0,0,0,0,,,,,,,,,,,,,,,,,,,,
2044,0,0,1,250,248,251,245,-1,-0.04,-0.02,0.99,0,0,-0,0.05,1,0,0,0,0,0,0.0,0.0,0,0.0,0.0,0.0,0,0.0,0.0,0.0,0,0,0,0,0,0,0,0,0,0.0,0.0,0.0,0.0,0,0,0.0,0,0.0,-1,0.0,0.0,0.0,0,0.0,0.0341
2064,0,,,250,248,251,245,,-0.04,-0.02,1.0,0,0,-0,0.05,,0,0,0,0,0,0.0,0.0,0,0.0,0.0,0.0,0,0.0,0.0,0.0,0,0,0,0,0,,,,,,,,,,,,,,,,,,,,
2084,0,,,250,248,251,246,,-0.04,-0.02,0.99,0,0,-0,0.05,,0,0,0,0,0,0.0,0.0,0,0.0,0.0,0.0,0,0.0,0.0,0.0,0,0,0,0,0,,,,,,,,,,,,,,,,,,,,
2104,0,,,250,248,251,246,,-0.04,-0.02,0.99,0,0,-0,0.05,,0,0,0,0,0,0.0,0.0,0,0.0,0.0,0.0,0,0.0,0.0,0.0,0,0,0,0,0,,,,,,,,,,,,,,,,,,,,
2124,0,,,250,248,251,246,,-0.04,-0.02,0.99,0,0,-0,0.05,,0,0,0,0,0,0.0,0.0,0,0.0,0.0,0.0,0,0.0,0.0,0.0,0,0,0,0,0,,,,,,,,,,,,,,,,,,,,
2144,0,-1,2,250,248,251,246,-1,-0.04,-0.02,0.99,0,0,-0,0.05,1,0,0,0,0,0,0.0,0.0,0,0.0,0.0,0.0,0,0.0,0.0,0.0,0,0,0,0,0,0,0,0,0,0.0,0.0,0.0,0.0,0,0,0.0,0,0.0,-1,0.0,,0.0,0,0.0,0.0357
2164,0,,,250,248,251,246,,-0.04,-0.02,0.99,0,0,-0,0.05,,0,0,0,0,0,0.0,0.0,0,0.0,0.0,0.0,0,0.0,0.0,0.0,0,0,0,0,0,,,,,,,,,,,,,,,,,,,,
2184,0,,,250,248,251,246,,-0.04,-0.02,0.99,0,0,-0,0.05,,81,0,6,34,93,0.5,0.0,105,4.76,12.7,0.0,1,0.0,0.0,0.0,0,0,0,1,0,,,,,,,,,,,,,,,,,,,,
2204,0,,,250,248,251,245,,-0.04,-0.02,0.99,0,0,-0,0.05,,81,0,6,34,93,0.5,0.0,105,4.77,12.7,0.0,1,0.0,0.0,0.0,0,0,0,1,0,,,,,,,,,,,,,,,,,,,,
2224,0,,,250,248,251,246,,-0.04,-0.02,0.99,0,0,-0,0.05,,81,0,6,34,93,0.5,0.0,105,4.77,12.7,0.0,1,0.0,0.0,0.0,0,0,0,1,0,,,,,,,,,,,,,,,,,,,,
2244,0,-1,2,250,248,251,246,-1,-0.04,-0.02,1.0,0,0,-0,0.05,1,81,0,6,34,93,0.5,0.0,105,4.78,12.7,0.0,1,0.0,0.0,0.0,0,0,0,1,0,0,250,250,0,0.0,0.0,0.0,0.0,0,0,0.0,0,0.0,-1,0.0,0.0,0.0,0,0.0,0.0374
2264,0,,,250,248,251,246,,-0.05,-0.02,1.0,0,0,-0,0.05,,81,0,6,34,93,0.5,0.0,105,4.78,12.7,0.0,1,0.0,0.0,0.0,0,0,0,1,0,,,,,,,,,,,,,,,,,,,,
2284,0,,,250,248,251,246,,-0.05,-0.02,0.99,0,0,-0,0.05,,81,0,6,34,93,0.5,0.0,105,4.77,12.7,0.0,1,0.0,0.0,0.0,0,0,0,1,0,,,,,,,,,,,,,,,,,,,,
2304,0,,,250,248,251,246,,-0.04,-0.02,0.99,0,0,-0,0.05,,81,0,6,34,93,0.5,0.0,105,4.76,12.7,0.0,1,0.0,0.0,0.0,0,0,0,1,0,,,,,,,,,,,,,,,,,,,,
2324,0,,,250,248,251,246,,-0.04,-0.02,0.99,0,0,-0,0.05,,81,0,6,34,93,0.5,0.0,105,4.77,12.7,0.0,1,0.0,0.0,0.0,0,0,0,1,0,,,,,,,,,,,,,,,,,,,,
2344,0,-1,2,250,248,251,246,-1,-0.04,-0.02,0.99,0,0,-0,0.05,1,81,0,6,34,93,0.5,0.0,105,4.77,12.7,0.0,1,0.0,0.0,0.0,0,0,0,1,0,0,250,250,0,0.0,0.0,0.0,0.0,0,0,0.0,0,0.0,-1,0.0,,0.0,0,0.0,0.0391
2364,0,,,250,248,251,246,,-0.04,-0.02,0.99,0,0,-0,0.05,,81,0,6,34,93,0.502,0.0,105,4.76,12.7,0.0,1,0.0,0.0,0.0,0,0,0,1,0,,,,,,,,,,,,,,,,,,,,
2384,0,,,250,248,251,246,,-0.04,-0.02,0.99,0,0,-0,0.05,,81,0,6,34,93,0.503,0.0,105,4.78,12.7,0.0,1,0.0,0.0,0.0,0,0,0,1,0,,,,,,,,,,,,,,,,,,,,
2404,0,,,250,248,251,246,,-0.04,-0.02,0.99,0,0,-0,0.05,,81,0,6,34,93,0.504,0.0,105,4.77,12.7,0.0,1,0.0,0.0,0.0,0,0,0,1,0,,,,,,,,,,,,,,,,,,,,
2424,0,,,250,248,251,245,,-0.04,-0.02,0.99,0,0,-0,0.05,,81,0,6,34,93,0.506,0.0,105,4.77,12.7,0.0,1,0.0,0.0,0.0,0,0,0,1,0,,,,,,,,,,,,,,,,,,,,
2444,0,-1,2,250,248,251,246,-1,-0.04,-0.02,0.99,0,0,-0,0.05,1,81,0,6,34,93,0.508,0.0,105,4.76,12.7,0.0,1,0.0,0.0,0.0,0,0,0,1,0,0,250,250,0,0.0,0.0,0.0,0.0,0,0,0.0,0,0.0,-1,0.0,0.0,0.0,0,0.0,0.0407
2464,0,,,250,248,251,246,,-0.04,-0.02,1.0,0,0,-0,0.05,,81,0,6,34,93,0.51,0.0,105,4.77,12.7,0.0,1,0.0,0.0,0.0,0,0,0,1,0,,,,,,,,,,,,,,,,,,,,
2484,0,,,250,248,251,246,,-0.04,-0.02,0.99,0,0,-0,0.05,,81,0,6,34,93,0.511,0.0,105,4.78,12.7,0.0,1,0.0,0.0,0.0,0,0,0,1,0,,,,,,,,,,,,,,,,,,,,
2504,0,,,250,248,251,245,,-0.04,-0.02,0.99,0,0,-0,0.05,,81,0,6,34,93,0.513,0.0,105,4.76,12.7,0.0,1,0.0,0.0,0.0,0,0,0,1,0,,,,,,,,,,,,,,,,,,,,
2524,0,,,250,248,251,246,,-0.04,-0.02,0.99,0,0,-0,0.05,,81,0,6,34,93,0.516,0.0,105,4.77,12.6,0.0,1,0.0,0.0,0.0,0,0,0,1,0,,,,,,,,,,,,,,,,,,,,
2544,0,-0,2,250,248,251,246,-1,-0.04,-0.02,0.99,0,0,-0,0.05,1,81,0,6,34,93,0.519,0.0,105,4.77,12.6,0.0,1,0.0,0.0,0.0,0,0,0,1,0,0,250,250,0,0.0,0.0,0.0,0.0,0,0,0.0,0,0.0,-1,0.0,,0.0,0,0.0,0.0424
2564,0,,,250,248,251,246,,-0.04,-0.02,0.99,0,0,-0,0.05,,81,0,6,34,93,0.522,0.0,105,4.77,12.6,0.0,1,0.0,0.0,0.0,0,0,0,1,0,,,,,,,,,,,,,,,,,,,,
2584,0,,,250,248,251,246,,-0.04,-0.02,0.99,0,0,-0,0.05,,81,0,6,34,93,0.526,0.0,105,4.77,12.6,0.0,1,0.0,0.0,0.0,0,0,0,1,0,,,,,,,,,,,,,,,,,,,,
2604,0,,,250,248,251,246,,-0.04,-0.02,0.99,0,0,-0,0.05,,81,0,6,34,93,0.529,0.0,105,4.76,12.6,0.0,1,0.0,0.0,0.0,0,0,0,1,0,,,,,,,,,,,,,,,,,,,,
2624,0,,,250,248,251,246,,-0.04,-0.02,0.99,0,0,-0,0.05,,81,0,6,34,93,0.531,0.0,105,4.77,12.6,0.0,1,0.0,0.0,0.0,0,0,0,1,0,,,,,,,,,,,,,,,,,,,,
2644,0,-1,2,250,248,251,246,-1,-0.04,-0.02,0.99,0,0,-0,0.05,1,81,0,6,34,93,0.532,0.0,105,4.77,12.6,0.0,1,0.0,0.0,0.0,0,0,0,1,0,0,250,250,0,0.0,0.0,0.0,0.0,0,0,0.0,0,0.0,-1,0.0,0.0,0.0,0,0.0,0.0441
2664,0,,,250,248,251,246,,-0.04,-0.02,0.99,0,0,-0,0.05,,81,0,6,34,93,0.534,0.0,105,4.74,12.6,0.0,1,0.0,0.0,0.0,0,0,0,1,0,,,,,,,,,,,,,,,,,,,,
2684,0,,,250,248,251,246,,-0.04,-0.02,0.99,0,0,-0,0.05,,81,0,6,34,93,0.536,0.0,105,4.76,12.6,0.0,1,0.0,0.0,0.0,0,0,0,1,0,,,,,,,,,,,,,,,,,,,,
2704,0,,,250,248,251,246,,-0.04,-0.02,0.99,0,0,-0,0.05,,81,0,6,34,93,0.538,0.0,105,4.77,12.6,0.0,1,0.0,0.0,0.0,0,0,0,1,0,,,,,,,,,,,,,,,,,,,,
2724,0,,,250,248,251,246,,-0.04,-0.02,0.99,0,0,-0,0.05,,81,0,6,34,93,0.54,0.0,105,4.77,12.6,0.0,1,0.0,0.0,0.0,0,0,0,1,0,,,,,,,,,,,,,,,,,,,,
2744,0,-0,3,250,248,251,245,-1,-0.04,-0.02,0.99,0,0,-0,0.05,1,81,0,6,34,93,0.541,0.0,105,4.78,12.6,0.0,1,0.0,0.0,0.0,0,0,0,1,0,0,250,250,0,0.0,0.0,0.0,0.0,0,0,0.0,0,0.0,-1,0.0,,0.0,0,0.0,0.0457
2764,0,,,250,248,251,245,,-0.04,-0.02,1.0,0,0,-0,0.05,,81,0,6,34,93,0.542,0.0,105,4.78,12.6,0.0,1,0.0,0.0,0.0,0,0,0,1,0,,,,,,,,,,,,,,,,,,,,
2784,0,,,250,248,251,246,,-0.04,-0.02,0.99,0,0,-0,0.05,,81,0,6,34,93,0.542,0.0,105,4.77,12.6,0.0,1,0.0,0.0,0.0,0,0,0,1,0,,,,,,,,,,,,,,,,,,,,
2804,0,,,250,248,251,246,,-0.04,-0.02,0.99,0,0,-0,0.05,,81,0,6,34,93,0.542,0.0,105,4.77,12.6,0.0,1,0.0,0.0,0.0,0,0,0,1,0,,,,,,,,,,,,,,,,,,,,
2824,0,,,250,248,251,246,,-0.04,-0.02,0.99,0,0,-0,0.05,,81,0,6,34,93,0.542,0.0,105,4.77,12.6,0.0,1,0.0,0.0,0.0,0,0,0,1,0,,,,,,,,,,,,,,,,,,,,
2844,0,1,0,250,248,251,245,-1,-0.04,-0.02,1.0,0,0,-0,0.05,1,81,0,6,34,93,0.542,0.0,105,4.76,12.7,0.0,1,0.0,0.0,0.0,0,0,0,1,0,0,250,250,0,0.0,0.0,0.0,0.0,0,0,0.0,0,0.0,-1,0.0,0.0,0.0,0,0.0,0.0474
2864,0,,,250,248,251,246,,-0.04,-0.02,1.0,0,0,-0,0.05,,81,0,6,34,93,0.541,0.0,105,4.76,12.7,0.0,1,0.0,0.0,0.0,0,0,0,1,0,,,,,,,,,,,,,,,,,,,,
2884,0,,,250,248,251,246,,-0.04,-0.02,1.0,0,0,-0,0.05,,81,0,6,34,93,0.54,0.0,105,4.78,12.7,0.0,1,0.0,0.0,0.0,0,0,0,1,0,,,,,,,,,,,,,,,,,,,,
2904,0,,,250,248,251,246,,-0.04,-0.02,1.0,0,0,-0,0.05,,81,0,6,34,93,0.538,0.0,105,4.78,12.7,0.0,1,0.0,0.0,0.0,0,0,0,1,0,,,,,,,,,,,,,,,,,,,,
2924,0,,,250,248,251,246,,-0.04,-0.02,1.0,0,0,-0,0.05,,81,0,6,34,93,0.537,0.0,105,4.77,12.7,0.0,1,0.0,0.0,0.0,0,0,0,1,0,,,,,,,,,,,,,,,,,,,,
2944,0,0,3,250,248,251,246,-1,-0.04,-0.02,1.0,0,0,-0,0.05,1,81,0,6,34,93,0.536,0.0,105,4.77,12.7,0.0,1,0.0,0.0,0.0,0,0,0,1,0,0,250,250,0,0.0,0.0,0.0,0.0,0,0,0.0,0,0.0,-1,0.0,,0.0,0,0.0,0.0491
2964,0,,,250,248,251,246,,-0.04,-0.02,1.0,0,0,-0,0.05,,81,0,6,34,93,0.535,0.0,105,4.75,12.7,0.0,1,0.0,0.0,0.0,0,0,0,1,0,,,,,,,,,,,,,,,,,,,,
2984,0,,,250,248,251,246,,-0.04,-0.02,1.0,0,0,-0,0.05,,81,0,6,34,93,0.534,0.0,105,4.75,12.7,0.0,1,0.0,0.0,0.0,0,0,0,1,0,,,,,,,,,,,,,,,,,,,,
3004,0,,,250,248,251,246,,-0.04,-0.02,0.99,0,0,-0,0.05,,81,0,6,34,93,0.533,0.0,105,4.76,12.7,0.0,1,0.0,0.0,0.0,0,0,0,1,0,,,,,,,,,,,,,,,,,,,,
3024,0,,,250,248,251,246,,-0.04,-0.02,0.99,0,0,-0,0.05,,81,0,6,34,93,0.532,0.0,105,4.76,12.7,0.0,1,0.0,0.0,0.0,0,0,0,1,0,,,,,,,,,,,,,,,,,,,,
3044,0,-0,2,250,248,251,246,-1,-0.04,-0.02,0.99,0,0,-0,0.05,1,81,0,6,34,93,0.531,0.0,105,4.77,12.7,0.0,1,0.0,0.0,0.0,0,0,0,1,0,0,250,250,0,0.0,0.0,0.0,0.0,0,0,0.0,0,0.0,-1,0.0,0.0,0.0,0,0.0,0.0507
3064,0,,,250,248,251,246,,-0.04,-0.02,0.99,0,0,-0,0.05,,81,0,6,34,93,0.53,0.0,105,4.77,12.7,0.0,1,0.0,0.0,0.0,0,0,0,1,0,,,,,,,,,,,,,,,,,,,,
3084,0,,,250,248,251,246,,-0.04,-0.02,1.0,0,0,-0,0.05,,81,0,6,34,93,0.53,0.0,105,4.77,12.7,0.0,1,0.0,0.0,0.0,0,0,0,1,0,,,,,,,,,,,,,,,,,,,,
3104,0,,,250,248,251,246,,-0.04,-0.02,0.99,0,0,-0,0.05,,81,0,6,34,93,0.531,0.0,105,4.77,12.7,0.0,1,0.0,0.0,0.0,0,0,0,1,0,,,,,,,,,,,,,,,,,,,,
3124,0,,,250,248,251,246,,-0.04,-0.02,0.99,0,0,-0,0.05,,81,0,6,34,93,0.531,0.0,105,4.78,12.7,0.0,1,0.0,0.0,0.0,0,0,0,1,0,,,,,,,,,,,,,,,,,,,,
3144,0,1,2,250,248,251,246,-1,-0.04,-0.02,0.99,0,0,-0,0.05,1,81,0,6,34,93,0.533,0.0,105,4.77,12.7,0.0,1,0.0,0.0,0.0,0,0,0,1,0,0,250,250,0,0.0,0.0,0.0,0.0,0,0,0.0,0,0.0,-1,0.0,,0.0,0,0.0,0.0524
3164,0,,,250,248,251,246,,-0.04,-0.02,0.99,0,0,-0,0.05,,81,0,6,34,93,0.534,0.0,105,4.77,12.7,0.0,1,0.0,0.0,0.0,0,0,0,1,0,,,,,,,,,,,,,,,,,,,,
3184,0,,,250,248,251,246,,-0.04,-0.02,0.99,0,0,-0,0.05,,81,0,6,34,93,0.535,0.0,105,4.76,12.7,0.0,1,0.0,0.0,0.0,0,0,0,0,0,,,,,,,,,,,,,,,,,,,,
3204,0,,,250,248,251,246,,-0.04,-0.02,0.99,0,0,-0,0.05,,81,0,6,34,93,0.536,0.0,105,4.69,13.0,0.0,1,0.0,0.0,0.0,0,0,0,0,0,,,,,,,,,,,,,,,,,,,,
3224,0,,,250,248,251,246,,-0.04,-0.02,0.99,0,0,-0,0.05,,81,0,6,34,93,0.537,0.0,105,4.26,13.0,0.0,1,0.0,0.0,0.0,0,0,0,0,0,,,,,,,,,,,,,,,,,,,,
3244,0,0,1,250,248,251,245,-1,-0.04,-0.02,0.99,0,0,-0,0.05,1,81,0,6,34,93,0.539,0.0,105,3.51,13.0,0.0,1,0.0,0.0,0.0,0,0,0,0,0,0,250,250,0,0.0,0.0,0.0,0.0,0,0,0.0,0,0.0,-1,0.0,0.0,0.0,0,0.0,0.0541
3264,0,,,250,248,251,246,,-0.04,-0.02,0.99,0,0,-0,0.05,,81,0,6,34,93,0.54,0.0,105,3.16,13.0,0.0,1,0.0,0.0,0.0,0,0,0,0,0,,,,,,,,,,,,,,,,,,,,
3284,0,,,250,248,251,246,,-0.04,-0.02,0.99,0,0,-0,0.05,,81,0,6,34,93,0.541,0.0,105,2.92,13.0,0.0,1,0.0,0.0,0.0,0,0,0,0,0,,,,,,,,,,,,,,,,,,,,
3304,0,,,250,248,251,246,,-0.04,-0.02,0.99,0,0,-0,0.05,,81,0,6,34,93,0.543,0.0,105,2.75,13.0,0.0,1,0.0,0.0,0.0,0,0,0,0,0,,,,,,,,,,,,,,,,,,,,
3324,0,,,250,248,251,246,,-0.04,-0.02,0.99,0,0,-0,0.05,,81,0,6,34,93,0.544,0.0,105,2.6,12.9,0.0,1,0.0,0.0,0.0,0,0,0,0,0,,,,,,,,,,,,,,,,,,,,
3344,0,1,1,250,248,251,246,-1,-0.04,-0.02,0.99,0,0,-0,0.05,1,81,0,6,34,93,0.545,0.0,105,2.48,13.0,0.0,1,0.0,0.0,0.0,0,0,0,0,0,0,250,250,0,0.0,0.0,0.0,0.0,0,0,0.0,0,0.0,-1,0.0,,0.0,0,0.0,0.0557
3364,0,,,250,248,251,246,,-0.04,-0.02,0.99,0,0,-0,0.05,,81,0,6,34,93,0.546,0.0,105,2.39,13.0,0.0,1,0.0,0.0,0.0,0,0,0,0,0,,,,,,,,,,,,,,,,,,,,
3384,0,,,250,248,251,246,,-0.04,-0.02,0.99,0,0,-0,0.05,,81,0,6,34,93,0.547,0.0,105,2.31,13.0,0.0,1,0.0,0.0,0.0,0,0,0,0,0,,,,,,,,,,,,,,,,,,,,
3404,0,,,250,248,251,246,,-0.04,-0.02,0.99,0,0,-0,0.05,,81,0,6,34,93,0.548,0.0,105,2.24,13.0,0.0,1,0.0,0.0,0.0,0,0,0,0,0,,,,,,,,,,,,,,,,,,,,
3424,0,,,250,248,251,246,,-0.04,-0.02,0.99,0,0,-0,0.05,,81,0,6,34,93,0.55,0.0,105,2.19,13.0,0.0,1,0.0,0.0,0.0,0,0,0,0,0,,,,,,,,,,,,,,,,,,,,
3444,0,1,2,250,248,251,246,-2,-0.04,-0.02,0.99,0,0,-0,0.05,1,81,0,6,34,93,0.55,0.0,105,2.13,13.0,0.0,1,0.0,0.0,0.0,0,0,0,0,0,0,250,250,0,0.0,0.0,0.0,0.0,0,0,0.0,0,0.0,-1,0.0,0.0,0.0,0,0.0,0.0574
3464,0,,,250,248,251,246,,-0.04,-0.02,0.99,0,0,-0,0.05,,81,0,6,34,93,0.552,0.0,105,2.08,13.0,0.0,1,0.0,0.0,0.0,0,0,0,0,0,,,,,,,,,,,,,,,,,,,,
3484,0,,,250,248,251,246,,-0.04,-0.02,0.99,0,0,-0,0.05,,81,0,6,34,93,0.553,0.0,105,2.02,12.9,0.0,1,0.0,0.0,0.0,0,0,0,0,0,,,,,,,,,,,,,,,,,,,,
3504,0,,,250,248,251,246,,-0.04,-0.02,0.99,0,0,-0,0.05,,81,0,6,34,93,0.553,0.0,105,1.98,12.9,0.0,1,0.0,0.0,0.0,0,0,0,0,0,,,,,,,,,,,,,,,,,,,,
3524,0,,,250,248,251,245,,-0.04,-0.02,0.99,0,0,-0,0.05,,81,0,6,34,93,0.554,0.0,105,1.94,12.9,0.0,1,0.0,0.0,0.0,0,0,0,0,0,,,,,,,,,,,,,,,,,,,,
3544,0,1,0,250,248,251,246,-1,-0.04,-0.02,0.99,0,0,-0,0.05,1,81,0,6,34,93,0.555,0.0,105,1.91,13.0,0.0,1,0.0,0.0,0.0,0,0,0,0,0,0,250,250,0,0.0,0.0,0.0,0.0,0,0,0.0,0,0.0,-1,0.0,,0.0,0,0.0,0.0591
3564,0,,,250,248,251,246,,-0.04,-0.02,0.99,0,0,-0,0.05,,81,0,6,34,93,0.556,0.0,105,1.87,13.0,0.0,1,0.0,0.0,0.0,0,0,0,0,0,,,,,,,,,,,,,,,,,,,,
3584,0,,,250,248,251,246,,-0.04,-0.02,0.99,0,0,-0,0.05,,81,0,6,34,93,0.557,0.0,105,1.83,13.0,0.0,1,0.0,0.0,0.0,0,0,0,0,0,,,,,,,,,,,,,,,,,,,,
3604,0,,,250,248,251,246,,-0.04,-0.02,0.99,0,0,-0,0.05,,81,0,6,34,93,0.558,0.0,105,1.8,13.0,0.0,1,0.0,0.0,0.0,0,0,0,0,0,,,,,,,,,,,,,,,,,,,,
3624,0,,,250,248,251,246,,-0.04,-0.02,0.99,0,0,-0,0.05,,81,0,6,34,93,0.56,0.0,105,1.78,13.0,0.0,1,0.0,0.0,0.0,0,0,0,0,0,,,,,,,,,,,,,,,,,,,,
3644,0,-0,2,250,248,251,246,-1,-0.04,-0.02,0.99,0,0,-0,0.05,1,81,0,6,34,93,0.56,0.0,105,1.75,12.9,0.0,1,0.0,0.0,0.0,0,0,0,0,0,0,250,250,0,0.0,0.0,0.0,0.0,0,0,0.0,0,0.0,-1,0.0,0.0,0.0,0,0.0,0.0607
3664,0,,,250,248,251,246,,-0.04,-0.02,0.99,0,0,-0,0.05,,81,0,6,34,93,0.562,0.0,105,1.73,12.9,0.0,1,0.0,0.0,0.0,0,0,0,0,0,,,,,,,,,,,,,,,,,,,,
3684,0,,,250,248,251,246,,-0.04,-0.02,0.99,0,0,-0,0.05,,81,0,6,34,93,0.562,0.0,105,1.7,12.9,0.0,1,0.0,0.0,0.0,0,0,0,0,0,,,,,,,,,,,,,,,,,,,,
3704,0,,,250,248,251,246,,-0.04,-0.02,0.99,0,0,-0,0.05,,81,0,6,34,93,0.563,0.0,105,1.69,13.0,0.0,1,0.0,0.0,0.0,0,0,0,0,0,,,,,,,,,,,,,,,,,,,,
3724,0,,,250,248,251,246,,-0.04,-0.02,0.99,0,0,-0,0.05,,81,0,6,34,93,0.564,0.0,105,1.67,13.0,0.0,1,0.0,0.0,0.0,0,0,0,0,0,,,,,,,,,,,,,,,,,,,,
3744,0,0,2,250,248,251,246,-2,-0.04,-0.02,0.99,0,0,-0,0.05,1,81,0,6,34,93,0.565,0.0,105,1.64,13.0,0.0,1,0.0,0.0,0.0,0,0,0,0,0,0,250,250,0,0.0,0.0,0.0,0.0,0,0,0.0,0,0.0,-1,0.0,,0.0,0,0.0,0.0624
3764,0,,,250,248,251,246,,-0.04,-0.02,0.99,0,0,-0,0.05,,81,0,6,34,93,0.565,0.0,105,1.63,13.0,0.0,1,0.0,0.0,0.0,0,0,0,0,0,,,,,,,,,,,,,,,,,,,,
3784,0,,,250,248,251,246,,-0.04,-0.02,0.99,0,0,-0,0.05,,81,0,6,34,93,0.565,0.0,105,1.61,13.0,0.0,1,0.0,0.0,0.0,0,0,0,0,0,,,,,,,,,,,,,,,,,,,,
3804,0,,,250,248,251,245,,-0.04,-0.02,0.99,0,0,-0,0.05,,81,0,6,34,93,0.566,0.0,105,1.58,12.9,0.0,1,0.0,0.0,0.0,0,0,0,0,0,,,,,,,,,,,,,,,,,,,,
3824,0,,,250,248,251,246,,-0.04,-0.02,0.99,0,0,-0,0.05,,81,0,6,34,93,0.566,0.0,105,1.58,12.9,0.0,1,0.0,0.0,0.0,0,0,0,0,0,,,,,,,,,,,,,,,,,,,,
3844,0,0,0,250,248,251,246,-1,-0.04,-0.02,0.99,0,0,-0,0.05,1,81,0,6,34,93,0.567,0.0,105,1.56,12.9,0.0,1,0.0,0.0,0.0,0,0,0,0,0,0,250,250,0,0.0,0.0,0.0,0.0,0,0,0.0,0,0.0,-1,0.0,0.0,0.0,0,0.0,0.0641
3864,0,,,250,248,251,246,,-0.04,-0.02,0.99,0,0,-0,0.05,,81,0,6,34,93,0.567,0.0,105,1.56,13.0,0.0,1,0.0,0.0,0.0,0,0,0,0,0,,,,,,,,,,,,,,,,,,,,
3884,0,,,250,248,251,246,,-0.04,-0.02,0.99,0,0,-0,0.05,,81,0,6,34,93,0.566,0.0,105,1.53,13.0,0.0,1,0.0,0.0,0.0,0,0,0,0,0,,,,,,,,,,,,,,,,,,,,
3904,0,,,250,248,251,246,,-0.04,-0.02,0.99,0,0,-0,0.05,,81,0,6,34,93,0.567,0.0,105,1.53,13.0,0.0,1,0.0,0.0,0.0,0,0,0,0,0,,,,,,,,,,,,,,,,,,,,
3924,0,,,250,248,251,246,,-0.04,-0.02,0.99,0,0,-0,0.05,,81,0,6,34,93,0.566,0.0,105,1.51,13.0,0.0,1,0.0,0.0,0.0,0,0,0,0,0,,,,,,,,,,,,,,,,,,,,
3944,0,1,0,250,248,251,246,-1,-0.04,-0.02,0.99,0,0,-0,0.05,1,81,0,6,34,93,0.566,0.0,105,1.51,13.0,0.0,1,0.0,0.0,0.0,0,0,0,0,0,0,250,250,0,0.0,0.0,0.0,0.0,0,0,0.0,0,0.0,-1,0.0,,0.0,0,0.0,0.0657
3964,0,,,250,248,251,246,,-0.04,-0.02,0.99,0,0,-0,0.05,,81,0,6,34,93,0.567,0.0,105,1.5,13.0,0.0,1,0.0,0.0,0.0,0,0,0,0,0,,,,,,,,,,,,,,,,,,,,
3984,0,,,250,248,251,246,,-0.04,-0.02,0.99,0,0,-0,0.05,,81,0,6,34,93,0.567,0.0,105,1.48,12.9,0.0,1,0.0,0.0,0.0,0,0,0,0,0,,,,,,,,,,,,,,,,,,,,
4004,0,,,250,248,251,246,,-0.04,-0.02,0.99,0,0,-0,0.05,,81,0,6,34,93,0.567,0.0,105,1.48,12.9,0.0,1,0.0,0.0,0.0,0,0,0,0,0,,,,,,,,,,,,,,,,,,,,
4024,0,,,250,248,251,245,,-0.04,-0.02,0.99,0,0,-0,0.05,,81,0,6,34,93,0.567,0.0,105,1.45,12.9,0.0,1,0.0,0.0,0.0,0,0,0,0,0,,,,,,,,,,,,,,,,,,,,
4044,0,0,3,250,248,251,246,-2,-0.04,-0.02,0.99,0,0,-0,0.05,1,81,0,6,34,93,0.568,0.0,105,1.45,13.0,0.0,1,0.0,0.0,0.0,0,0,0,0,0,0,250,250,0,0.0,0.0,0.0,0.0,0,0,0.0,0,0.0,-1,0.0,0.0,0.0,0,0.0,0.0674
4064,0,,,250,248,251,246,,-0.04,-0.02,0.99,0,0,-0,0.05,,81,0,6,34,93,0.568,0.0,105,1.45,13.0,0.0,1,0.0,0.0,0.0,0,0,0,0,0,,,,,,,,,,,,,,,,,,,,
4084,0,,,250,248,251,246,,-0.04,-0.02,0.99,0,0,-0,0.05,,81,0,6,34,93,0.568,0.0,105,1.42,13.0,0.0,1,0.0,0.0,0.0,0,0,0,0,0,,,,,,,,,,,,,,,,,,,,
4104,0,,,250,248,251,246,,-0.04,-0.02,0.99,0,0,-0,0.05,,81,0,6,34,93,0.568,0.0,105,1.42,13.0,0.0,1,0.0,0.0,0.0,0,0,0,0,0,,,,,,,,,,,,,,,,,,,,
4124,0,,,250,248,251,246,,-0.04,-0.02,0.99,0,0,-0,0.05,,81,0,6,34,93,0.568,0.0,105,1.42,13.0,0.0,1,0.0,0.0,0.0,0,0,0,0,0,,,,,,,,,,,,,,,,,,,,
4144,0,-1,2,250,248,251,246,-1,-0.04,-0.02,0.99,0,0,-0,0.05,1,81,0,6,34,93,0.568,0.0,105,1.4,13.0,0.0,1,0.0,0.0,0.0,0,0,0,0,0,0,250,250,0,0.0,0.0,0.0,0.0,0,0,0.0,0,0.0,-1,0.0,,0.0,0,0.0,0.0691
4164,0,,,250,248,251,246,,-0.04,-0.02,0.99,0,0,-0,0.05,,81,0,6,34,93,0.568,0.0,105,1.4,12.9,0.0,1,0.0,0.0,0.0,0,0,0,0,0,,,,,,,,,,,,,,,,,,,,
4184,0,,,250,248,251,246,,-0.04,-0.02,0.99,0,0,-0,0.05,,81,0,6,34,93,0.568,0.0,105,1.4,12.9,0.0,1,0.0,0.0,0.0,0,0,0,0,0,,,,,,,,,,,,,,,,,,,,
4204,0,,,250,248,251,246,,-0.04,-0.02,0.99,0,0,-0,0.05,,81,0,6,34,93,0.568,0.0,105,1.37,13.0,0.0,1,0.0,0.0,0.0,0,0,0,0,0,,,,,,,,,,,,,,,,,,,,
4224,0,,,250,248,251,246,,-0.04,-0.02,0.99,0,0,-0,0.05,,81,0,6,34,93,0.568,0.0,105,1.36,13.0,0.0,1,0.0,0.0,0.0,0,0,0,0,0,,,,,,,,,,,,,,,,,,,,
4244,0,0,2,250,248,251,246,-0,-0.04,-0.02,0.99,0,0,-0,0.05,1,81,0,6,34,93,0.568,0.0,105,1.36,13.0,0.0,1,0.0,0.0,0.0,0,0,0,0,0,0,250,250,0,0.0,0.0,0.0,0.0,0,0,0.0,0,0.0,-1,0.0,0.0,0.0,0,0.0,0.0707
4264,0,,,250,248,251,246,,-0.04,-0.02,0.99,0,0,-0,0.05,,81,0,6,34,93,0.567,0.0,105,1.34,13.0,0.0,1,0.0,0.0,0.0,0,0,0,0,0,,,,,,,,,,,,,,,,,,,,
4284,0,,,250,248,251,246,,-0.04,-0.02,1.0,0,0,-0,0.05,,81,0,6,34,93,0.567,0.0,105,1.34,13.0,0.0,1,0.0,0.0,0.0,0,0,0,0,0,,,,,,,,,,,,,,,,,,,,
4304,0,,,250,248,251,246,,-0.04,-0.02,1.0,0,0,-0,0.05,,81,0,6,34,93,0.567,0.0,105,1.34,13.0,0.0,1,0.0,0.0,0.0,0,0,0,0,0,,,,,,,,,,,,,,,,,,,,
4324,0,,,250,248,251,246,,-0.05,-0.02,1.0,0,0,-0,0.05,,81,0,6,34,93,0.567,0.0,105,1.34,12.9,0.0,1,0.0,0.0,0.0,0,0,0,0,0,,,,,,,,,,,,,,,,,,,,
4344,0,-1,2,250,248,251,245,-1,-0.05,-0.02,1.0,0,0,-0,0.05,1,81,0,6,34,93,0.568,0.0,105,1.31,12.9,0.0,1,0.0,0.0,0.0,0,0,0,0,0,0,250,250,0,0.0,0.0,0.0,0.0,0,0,0.0,0,0.0,-1,0.0,,0.0,0,0.0,0.0724
4364,0,,,250,248,251,246,,-0.04,-0.02,1.0,0,0,-0,0.05,,81,0,6,34,93,0.568,0.0,105,1.31,13.0,0.0,1,0.0,0.0,0.0,0,0,0,0,0,,,,,,,,,,,,,,,,,,,,
4384,0,,,250,248,251,246,,-0.04,-0.02,1.0,0,0,-0,0.05,,81,0,6,34,93,0.568,0.0,105,1.31,13.0,0.0,1,0.0,0.0,0.0,0,0,0,0,0,,,,,,,,,,,,,,,,,,,,
4404,0,,,250,248,251,246,,-0.04,-0.02,0.99,0,0,-0,0.05,,81,0,6,34,93,0.568,0.0,105,1.31,13.0,0.0,1,0.0,0.0,0.0,0,0,0,0,0,,,,,,,,,,,,,,,,,,,,
4424,0,,,250,248,251,246,,-0.04,-0.02,0.99,0,0,-0,0.05,,81,0,6,34,93,0.568,0.0,105,1.28,13.0,0.0,1,0.0,0.0,0.0,0,0,0,0,0,,,,,,,,,,,,,,,,,,,,
4444,0,0,2,250,248,251,246,-2,-0.04,-0.02,0.99,0,0,-0,0.05,1,81,0,6,34,93,0.568,0.0,105,1.28,13.0,0.0,1,0.0,0.0,0.0,0,0,0,0,0,0,250,250,0,0.0,0.0,0.0,0.0,0,0,0.0,0,0.0,-1,0.0,0.0,0.0,0,0.0,0.0741
4464,0,,,250,248,251,246,,-0.04,-0.02,0.99,0,0,-0,0.05,,81,0,6,34,93,0.568,0.0,105,1.28,13.0,0.0,1,0.0,0.0,0.0,0,0,0,0,0,,,,,,,,,,,,,,,,,,,,
4484,0,,,250,248,251,245,,-0.04,-0.02,0.99,0,0,-0,0.05,,81,0,6,34,93,0.568,0.0,105,1.28,12.9,0.0,1,0.0,0.0,0.0,0,0,0,0,0,,,,,,,,,,,,,,,,,,,,
4504,0,,,250,248,251,246,,-0.04,-0.02,0.99,0,0,-0,0.05,,81,0,6,34,93,0.568,0.0,105,1.28,12.9,0.0,1,0.0,0.0,0.0,0,0,0,0,0,,,,,,,,,,,,,,,,,,,,
4524,0,,,250,248,251,246,,-0.04,-0.02,0.99,0,0,-0,0.05,,81,0,6,34,93,0.569,0.0,105,1.28,12.9,0.0,1,0.0,0.0,0.0,0,0,0,0,0,,,,,,,,,,,,,,,,,,,,
4544,0,0,1,250,248,251,246,-1,-0.04,-0.02,0.99,0,0,-0,0.05,1,81,0,6,34,93,0.569,0.0,105,1.26,13.0,0.0,1,0.0,0.0,0.0,0,0,0,0,0,0,250,250,0,0.0,0.0,0.0,0.0,0,0,0.0,0,0.0,-1,0.0,,0.0,0,0.0,0.0757
4564,0,,,250,248,251,246,,-0.04,-0.02,0.99,0,0,-0,0.05,,81,0,6,34,93,0.569,0.0,105,1.26,13.0,0.0,1,0.0,0.0,0.0,0,0,0,0,0,,,,,,,,,,,,,,,,,,,,
4584,0,,,250,248,251,246,,-0.04,-0.02,0.99,0,0,-0,0.05,,81,0,6,34,93,0.569,0.0,105,1.26,13.0,0.0,1,0.0,0.0,0.0,0,0,0,0,0,,,,,,,,,,,,,,,,,,,,
4604,0,,,250,248,251,246,,-0.04,-0.02,0.99,0,0,-0,0.05,,81,0,6,34,93,0.569,0.0,105,1.26,13.0,0.0,1,0.0,0.0,0.0,0,0,0,0,0,,,,,,,,,,,,,,,,,,,,
4624,0,,,250,248,251,246,,-0.04,-0.02,1.0,0,0,-0,0.05,,81,0,6,34,93,0.569,0.0,105,1.26,13.0,0.0,1,0.0,0.0,0.0,0,0,0,0,0,,,,,,,,,,,,,,,,,,,,
4644,0,0,2,250,248,251,246,-1,-0.04,-0.02,1.0,0,0,-0,0.05,1,81,0,6,34,93,0.569,0.0,105,1.25,12.9,0.0,1,0.0,0.0,0.0,0,0,0,0,0,0,250,250,0,0.0,0.0,0.0,0.0,0,0,0.0,0,0.0,-1,0.0,0.0,0.0,0,0.0,0.0774
4664,0,,,250,248,251,246,,-0.04,-0.02,0.99,0,0,-0,0.05,,81,0,6,34,93,0.57,0.0,105,1.23,12.9,0.0,1,0.0,0.0,0.0,0,0,0,0,0,,,,,,,,,,,,,,,,,,,,
4684,0,,,250,248,251,246,,-0.04,-0.02,0.99,0,0,-0,0.05,,81,0,6,34,93,0.57,0.0,105,1.24,12.9,0.0,1,0.0,0.0,0.0,0,0,0,0,0,,,,,,,,,,,,,,,,,,,,
4704,0,,,250,248,251,246,,-0.04,-0.02,0.99,0,-0,-0,0.05,,81,0,6,34,93,0.57,0.0,105,1.23,13.0,0.0,1,0.0,0.0,0.0,0,0,0,0,0,,,,,,,,,,,,,,,,,,,,
4724,0,,,250,248,251,245,,-0.04,-0.02,0.99,0,0,-0,0.05,,81,0,6,34,93,0.57,0.0,105,1.23,13.0,0.0,1,0.0,0.0,0.0,0,0,0,0,0,,,,,,,,,,,,,,,,,,,,
4744,0,-0,0,250,248,251,246,-1,-0.04,-0.02,0.99,0,0,-0,0.05,1,81,0,6,34,93,0.57,0.0,105,1.23,13.0,0.0,1,0.0,0.0,0.0,0,0,0,0,0,0,250,250,0,0.0,0.0,0.0,0.0,0,0,0.0,0,0.0,-1,0.0,,0.0,0,0.0,0.0791
4764,0,,,250,248,251,246,,-0.04,-0.02,0.99,0,0,-0,0.05,,81,0,6,34,93,0.57,0.0,105,1.23,13.0,0.0,1,0.0,0.0,0.0,0,0,0,0,0,,,,,,,,,,,,,,,,,,,,
4784,0,,,250,248,251,246,,-0.04,-0.02,0.99,0,0,-0,0.05,,81,0,6,34,93,0.57,0.0,105,1.23,13.0,0.0,1,0.0,0.0,0.0,0,0,0,0,0,,,,,,,,,,,,,,,,,,,,
4804,0,,,250,248,251,246,,-0.04,-0.02,0.99,0,0,-0,0.05,,81,0,6,34,93,0.57,0.0,106,1.23,13.0,0.0,1,0.0,0.0,0.0,0,0,0,0,0,,,,,,,,,,,,,,,,,,,,
4824,0,,,250,248,251,245,,-0.04,-0.02,0.99,0,0,-0,0.05,,81,0,6,34,93,0.571,0.0,105,1.21,13.0,0.0,1,0.0,0.0,0.0,0,0,0,0,0,,,,,,,,,,,,,,,,,,,,
4844,0,0,1,250,248,251,246,-1,-0.04,-0.02,0.99,0,-0,-0,0.05,1,81,0,6,34,93,0.571,0.0,105,1.21,12.9,0.0,1,0.0,0.0,0.0,0,0,0,0,0,0,250,250,0,0.0,0.0,0.0,0.0,0,0,0.0,0,0.0,-1,0.0,0.0,0.0,0,0.0,0.0807
4864,0,,,250,248,251,246,,-0.04,-0.02,0.99,0,-0,-0,0.05,,81,0,6,34,93,0.571,0.0,105,1.21,13.0,0.0,1,0.0,0.0,0.0,0,0,0,0,0,,,,,,,,,,,,,,,,,,,,
4884,0,,,250,248,251,246,,-0.04,-0.02,0.99,0,0,-0,0.05,,81,0,6,34,93,0.571,0.0,106,1.21,13.0,0.0,1,0.0,0.0,0.0,0,0,0,0,0,,,,,,,,,,,,,,,,,,,,
4904,0,,,250,248,251,246,,-0.04,-0.02,0.99,0,-0,-0,0.05,,81,0,6,34,93,0.571,0.0,106,1.21,13.0,0.0,1,0.0,0.0,0.0,0,0,0,0,0,,,,,,,,,,,,,,,,,,,,
4924,0,,,250,248,251,246,,-0.04,-0.02,0.99,0,0,-0,0.05,,81,0,6,34,93,0.57,0.0,106,1.2,13.0,0.0,1,0.0,0.0,0.0,0,0,0,0,0,,,,,,,,,,,,,,,,,,,,
4944,0,-1,0,250,248,251,246,-1,-0.04,-0.02,0.99,0,0,-0,0.05,1,81,0,6,34,93,0.57,0.0,106,1.18,13.0,0.0,1,0.0,0.0,0.0,0,0,0,0,0,0,250,250,0,0.0,0.0,0.0,0.0,0,0,0.0,0,0.0,-1,0.0,,0.0,0,0.0,0.0824
4964,0,,,250,248,251,245,,-0.04,-0.02,0.99,0,0,-0,0.05,,81,0,6,34,93,0.57,0.0,106,1.18,13.0,0.0,1,0.0,0.0,0.0,0,0,0,0,0,,,,,,,,,,,,,,,,,,,,
4984,0,,,250,248,251,246,,-0.04,-0.02,0.99,0,0,-0,0.05,,81,0,6,34,93,0.57,0.0,106,1.18,13.0,0.0,1,0.0,0.0,0.0,0,0,0,0,0,,,,,,,,,,,,,,,,,,,,
5004,0,,,250,248,251,246,,-0.04,-0.02,1.0,0,0,-0,0.05,,81,0,6,34,93,0.57,0.0,106,1.18,12.9,0.0,1,0.0,0.0,0.0,0,0,0,0,0,,,,,,,,,,,,,,,,,,,,
5024,0,,,250,248,251,246,,-0.04,-0.02,1.0,0,0,-0,0.05,,81,0,6,34,93,0.57,0.0,106,1.18,12.9,0.0,1,0.0,0.0,0.0,0,0,0,0,0,,,,,,,,,,,,,,,,,,,,
5044,0,0,1,250,248,251,246,-0,-0.04,-0.02,1.0,0,0,-0,0.05,1,81,0,6,34,93,0.57,0.0,106,1.18,12.9,0.0,1,0.0,0.0,0.0,0,0,0,0,0,0,250,250,0,0.0,0.0,0.0,0.0,0,0,0.0,0,0.0,-1,0.0,0.0,0.0,0,0.0,0.0841
5064,0,,,250,248,251,246,,-0.04,-0.02,1.0,0,0,-0,0.05,,81,0,6,34,93,0.57,0.0,106,1.18,13.0,0.0,1,0.0,0.0,0.0,0,0,0,0,0,,,,,,,,,,,,,,,,,,,,
5084,0,,,250,248,251,245,,-0.04,-0.02,1.0,0,0,-0,0.05,,81,0,6,34,93,0.57,0.0,106,1.18,13.0,0.0,1,0.0,0.0,0.0,0,0,0,0,0,,,,,,,,,,,,,,,,,,,,
5104,0,,,250,248,251,246,,-0.04,-0.02,1.0,0,0,-0,0.05,,81,0,6,34,93,0.57,0.0,106,1.17,13.0,0.0,1,0.0,0.0,0.0,0,0,0,0,0,,,,,,,,,,,,,,,,,,,,
5124,0,,,250,248,251,246,,-0.04,-0.02,1.0,0,0,-0,0.05,,81,0,6,34,93,0.57,0.0,106,1.17,13.0,0.0,1,0.0,0.0,0.0,0,0,0,0,0,,,,,,,,,,,,,,,,,,,,
5144,0,-0,0,250,248,251,246,-1,-0.04,-0.02,1.0,0,0,-0,0.05,1,81,0,6,34,93,0.569,0.0,106,1.15,13.0,0.0,1,0.0,0.0,0.0,0,0,0,0,0,0,250,250,0,0.0,0.0,0.0,0.0,0,0,0.0,0,0.0,-1,0.0,,0.0,0,0.0,0.0857
5164,0,,,250,248,251,246,,-0.04,-0.02,0.99,0,0,-0,0.05,,81,0,6,34,93,0.57,0.0,106,1.15,13.0,0.0,1,0.0,0.0,0.0,0,0,0,0,0,,,,,,,,,,,,,,,,,,,,
5184,0,,,250,248,251,246,,-0.04,-0.02,0.99,0,0,-0,0.05,,81,0,6,34,93,0.57,0.0,106,1.15,12.9,0.0,1,0.0,0.0,0.0,0,0,0,0,0,,,,,,,,,,,,,,,,,,,,
5204,0,,,250,248,251,246,,-0.04,-0.02,0.99,0,0,-0,0.05,,81,0,6,34,93,0.57,0.0,106,1.15,13.0,0.0,1,0.0,0.0,0.0,0,0,0,0,0,,,,,,,,,,,,,,,,,,,,
5224,0,,,250,248,251,246,,-0.04,-0.02,0.99,0,0,-0,0.05,,81,0,6,34,93,0.57,0.0,106,1.15,12.9,0.0,1,0.0,0.0,0.0,0,0,0,0,0,,,,,,,,,,,,,,,,,,,,
5244,0,-1,2,250,248,251,246,-1,-0.04,-0.02,0.99,0,0,-0,0.05,1,81,0,6,34,93,0.57,0.0,106,1.15,13.0,0.0,1,0.0,0.0,0.0,0,0,0,0,0,0,250,250,0,0.0,0.0,0.0,0.0,0,0,0.0,0,0.0,-1,0.0,0.0,0.0,0,0.0,0.0874
5264,0,,,250,248,251,245,,-0.04,-0.02,0.99,0,0,-0,0.05,,81,0,6,34,93,0.57,0.0,106,1.15,13.0,0.0,1,0.0,0.0,0.0,0,0,0,0,0,,,,,,,,,,,,,,,,,,,,
5284,0,,,250,248,251,246,,-0.04,-0.02,0.99,0,0,-0,0.05,,81,0,6,34,93,0.57,0.0,106,1.15,13.0,0.0,1,0.0,0.0,0.0,0,0,0,0,0,,,,,,,,,,,,,,,,,,,,
5304,0,,,250,248,251,246,,-0.04,-0.02,0.99,0,0,-0,0.05,,81,0,6,34,93,0.57,0.0,106,1.13,13.0,0.0,1,0.0,0.0,0.0,0,0,0,0,0,,,,,,,,,,,,,,,,,,,,
5324,0,,,250,248,251,246,,-0.04,-0.02,0.99,0,0,-0,0.05,,81,0,6,34,93,0.569,0.0,106,1.13,13.0,0.0,1,0.0,0.0,0.0,0,0,0,0,0,,,,,,,,,,,,,,,,,,,,
5344,0,0,2,250,248,251,246,-1,-0.04,-0.02,0.99,0,0,-0,0.05,1,81,0,6,34,93,0.57,0.0,106,1.12,13.0,0.0,1,0.0,0.0,0.0,0,0,0,0,0,0,250,250,0,0.0,0.0,0.0,0.0,0,0,0.0,0,0.0,-1,0.0,,0.0,0,0.0,0.0891
5364,0,,,250,248,251,246,,-0.04,-0.02,0.99,0,0,-0,0.05,,81,0,6,34,93,0.57,0.0,106,1.12,12.9,0.0,1,0.0,0.0,0.0,0,0,0,0,0,,,,,,,,,,,,,,,,,,,,
5384,0,,,250,248,251,246,,-0.04,-0.02,0.99,0,0,-0,0.05,,81,0,6,34,93,0.57,0.0,106,1.12,12.9,0.0,1,0.0,0.0,0.0,0,0,0,0,0,,,,,,,,,,,,,,,,,,,,
5404,0,,,250,248,251,245,,-0.04,-0.02,0.99,0,0,-0,0.05,,81,0,6,34,93,0.57,0.0,106,1.12,13.0,0.0,1,0.0,0.0,0.0,0,0,0,0,0,,,,,,,,,,,,,,,,,,,,
5424,0,,,250,248,251,246,,-0.04,-0.02,0.99,0,0,-0,0.05,,82,0,6,34,93,0.57,0.0,106,1.12,13.0,0.0,1,0.0,0.0,0.0,0,0,0,0,0,,,,,,,,,,,,,,,,,,,,
5444,0,0,1,250,248,251,246,-1,-0.04,-0.02,0.99,0,0,-0,0.05,1,82,0,6,34,93,0.57,0.0,106,1.12,13.0,0.0,1,0.0,0.0,0.0,0,0,0,0,0,0,250,250,0,0.0,0.0,0.0,0.0,0,0,0.0,0,0.0,-1,0.0,0.0,0.0,0,0.0,0.0907
5464,0,,,250,248,251,246,,-0.04,-0.02,0.99,0,0,-0,0.05,,82,0,6,34,93,0.57,0.0,106,1.12,13.0,0.0,1,0.0,0.0,0.0,0,0,0,0,0,,,,,,,,,,,,,,,,,,,,
5484,0,,,250,248,251,246,,-0.04,-0.02,0.99,0,0,-0,0.05,,82,0,6,34,93,0.57,0.0,106,1.12,13.0,0.0,1,0.0,0.0,0.0,0,0,0,0,0,,,,,,,,,,,,,,,,,,,,
5504,0,,,250,248,251,246,,-0.04,-0.02,0.99,0,0,-0,0.05,,82,0,6,34,93,0.57,0.0,106,1.12,13.0,0.0,1,0.0,0.0,0.0,0,0,0,0,0,,,,,,,,,,,,,,,,,,,,
5524,0,,,250,248,251,246,,-0.04,-0.02,0.99,0,0,-0,0.05,,82,0,6,34,93,0.57,0.0,106,1.12,12.9,0.0,1,0.0,0.0,0.0,0,0,0,0,0,,,,,,,,,,,,,,,,,,,,
5544,0,-1,1,250,248,251,246,-1,-0.04,-0.02,0.99,0,0,-0,0.05,1,81,0,6,34,93,0.57,0.0,106,1.12,12.9,0.0,1,0.0,0.0,0.0,0,0,0,0,0,0,250,250,0,0.0,0.0,0.0,0.0,0,0,0.0,0,0.0,-1,0.0,,0.0,0,0.0,0.0924
5564,0,,,250,248,251,246,,-0.04,-0.02,0.99,0,0,-0,0.05,,81,0,6,34,93,0.57,0.0,106,1.11,13.0,0.0,1,0.0,0.0,0.0,0,0,0,0,0,,,,,,,,,,,,,,,,,,,,
5584,0,,,250,248,251,245,,-0.04,-0.02,1.0,0,0,-0,0.05,,81,0,6,34,93,0.57,0.0,106,1.11,13.0,0.0,1,0.0,0.0,0.0,0,0,0,0,0,,,,,,,,,,,,,,,,,,,,
5604,0,,,250,248,251,246,,-0.04,-0.02,1.0,0,0,-0,0.05,,81,0,6,34,93,0.57,0.0,106,1.1,13.0,0.0,1,0.0,0.0,0.0,0,0,0,0,0,,,,,,,,,,,,,,,,,,,,
5624,0,,,250,248,251,246,,-0.04,-0.02,0.99,0,0,-0,0.05,,81,0,6,34,93,0.57,0.0,106,1.1,13.0,0.0,1,0.0,0.0,0.0,0,0,0,0,0,,,,,,,,,,,,,,,,,,,,
5644,0,-0,2,250,248,251,245,-1,-0.04,-0.02,0.99,0,0,-0,0.05,1,82,0,6,34,93,0.57,0.0,106,1.1,13.0,0.0,1,0.0,0.0,0.0,0,0,0,0,0,0,250,250,0,0.0,0.0,0.0,0.0,0,0,0.0,0,0.0,-1,0.0,0.0,0.0,0,0.0,0.0941
5664,0,,,250,248,251,246,,-0.04,-0.02,0.99,0,0,-0,0.05,,82,0,6,34,93,0.57,0.0,106,1.1,13.0,0.0,1,0.0,0.0,0.0,0,0,0,0,0,,,,,,,,,,,,,,,,,,,,
5684,0,,,250,248,251,245,,-0.04,-0.02,1.0,0,0,-0,0.05,,82,0,6,34,93,0.571,0.0,106,1.1,12.9,0.0,1,0.0,0.0,0.0,0,0,0,0,0,,,,,,,,,,,,,,,,,,,,
5704,0,,,250,248,251,246,,-0.04,-0.02,1.0,0,0,-0,0.05,,82,0,6,34,93,0.571,0.0,107,1.1,12.9,0.0,1,0.0,0.0,0.0,0,0,0,0,0,,,,,,,,,,,,,,,,,,,,
5724,0,,,250,248,251,246,,-0.04,-0.02,1.0,0,0,-0,0.05,,82,0,6,34,93,0.571,0.0,107,1.1,12.9,0.0,1,0.0,0.0,0.0,0,0,0,0,0,,,,,,,,,,,,,,,,,,,,
5744,0,1,2,250,248,251,246,-1,-0.04,-0.02,1.0,0,0,-0,0.05,1,82,0,6,34,93,0.571,0.0,107,1.1,13.0,0.0,1,0.0,0.0,0.0,0,0,0,0,0,0,250,250,0,0.0,0.0,0.0,0.0,0,0,0.0,0,0.0,-1,0.0,,0.0,0,0.0,0.0957
5764,0,,,250,248,251,246,,-0.04,-0.02,1.0,0,0,-0,0.05,,82,0,6,34,93,0.571,0.0,107,1.09,13.0,0.0,1,0.0,0.0,0.0,0,0,0,0,0,,,,,,,,,,,,,,,,,,,,
5784,0,,,250,248,251,246,,-0.04,-0.02,1.0,0,0,-0,0.05,,82,0,6,34,93,0.571,0.0,107,1.09,13.0,0.0,1,0.0,0.0,0.0,0,0,0,0,0,,,,,,,,,,,,,,,,,,,,
5804,0,,,250,248,251,246,,-0.04,-0.02,1.0,0,0,-0,0.05,,82,0,6,34,93,0.571,0.0,107,1.07,13.0,0.0,1,0.0,0.0,0.0,0,0,0,0,0,,,,,,,,,,,,,,,,,,,,
5824,0,,,250,248,251,246,,-0.04,-0.02,0.99,0,0,-0,0.05,,82,0,6,34,93,0.571,0.0,107,1.07,13.0,0.0,1,0.0,0.0,0.0,0,0,0,0,0,,,,,,,,,,,,,,,,,,,,
5844,0,1,1,250,248,251,246,-1,-0.04,-0.02,0.99,0,0,-0,0.05,1,82,0,6,34,93,0.571,0.0,107,1.07,12.9,0.0,1,0.0,0.0,0.0,0,0,0,0,0,0,250,250,0,0.0,0.0,0.0,0.0,0,0,0.0,0,0.0,-1,0.0,0.0,0.0,0,0.0,0.0974
5864,0,,,250,248,251,246,,-0.04,-0.02,0.99,0,0,-0,0.05,,82,0,6,34,93,0.571,0.0,107,1.07,12.9,0.0,1,0.0,0.0,0.0,0,0,0,0,0,,,,,,,,,,,,,,,,,,,,
5884,0,,,250,248,251,246,,-0.04,-0.02,0.99,0,0,-0,0.05,,82,0,6,34,93,0.572,0.0,107,1.07,12.9,0.0,1,0.0,0.0,0.0,0,0,0,0,0,,,,,,,,,,,,,,,,,,,,
5904,0,,,250,248,251,246,,-0.04,-0.02,1.0,0,0,-0,0.05,,82,0,6,34,93,0.571,0.0,107,1.07,12.9,0.0,1,0.0,0.0,0.0,0,0,0,0,0,,,,,,,,,,,,,,,,,,,,
5924,0,,,250,248,251,246,,-0.04,-0.02,0.99,0,0,-0,0.05,,82,0,6,34,93,0.571,0.0,107,1.07,13.0,0.0,1,0.0,0.0,0.0,0,0,0,0,0,,,,,,,,,,,,,,,,,,,,
5944,0,-1,2,250,248,251,246,-1,-0.04,-0.02,0.99,0,0,-0,0.05,1,82,0,6,34,93,0.571,0.0,107,1.07,13.0,0.0,1,0.0,0.0,0.0,0,0,0,0,0,0,250,250,0,0.0,0.0,0.0,0.0,0,0,0.0,0,0.0,-1,0.0,,0.0,0,0.0,0.0991
5964,0,,,250,248,251,246,,-0.04,-0.02,0.99,0,0,-0,0.05,,82,0,6,34,93,0.571,0.0,107,1.07,13.0,0.0,1,0.0,0.0,0.0,0,0,0,0,0,,,,,,,,,,,,,,,,,,,,
5984,0,,,250,248,251,246,,-0.04,-0.02,0.99,0,0,-0,0.05,,82,0,6,34,93,0.571,0.0,107,1.05,13.0,0.0,1,0.0,0.0,0.0,0,0,0,0,0,,,,,,,,,,,,,,,,,,,,
6004,0,,,250,248,251,246,,-0.04,-0.02,0.99,0,0,-0,0.05,,82,0,6,34,93,0.57,0.0,107,1.05,13.0,0.0,1,0.0,0.0,0.0,0,0,0,0,0,,,,,,,,,,,,,,,,,,,,
6024,0,,,250,248,251,246,,-0.04,-0.02,0.99,0,0,-0,0.05,,82,0,6,34,93,0.571,0.0,107,1.05,12.9,0.0,1,0.0,0.0,0.0,0,0,0,0,0,,,,,,,,,,,,,,,,,,,,
6044,0,0,0,250,248,251,246,-1,-0.04,-0.02,0.99,0,0,-0,0.05,1,82,0,6,34,93,0.571,0.0,107,1.05,12.9,0.0,1,0.0,0.0,0.0,0,0,0,0,0,0,250,250,0,0.0,0.0,0.0,0.0,0,0,0.0,0,0.0,-1,0.0,0.0,0.0,0,0.0,0.1007
6064,0,,,250,248,251,246,,-0.04,-0.02,0.99,0,0,-0,0.05,,82,0,6,34,93,0.571,0.0,107,1.05,13.0,0.0,1,0.0,0.0,0.0,0,0,0,0,0,,,,,,,,,,,,,,,,,,,,
6084,0,,,250,248,251,245,,-0.04,-0.02,1.0,0,0,-0,0.05,,82,0,6,34,93,0.571,0.0,107,1.05,13.0,0.0,1,0.0,0.0,0.0,0,0,0,0,0,,,,,,,,,,,,,,,,,,,,
6104,0,,,250,248,251,246,,-0.04,-0.02,0.99,0,0,-0,0.05,,82,0,6,34,93,0.571,0.0,107,1.05,13.0,0.0,1,0.0,0.0,0.0,0,0,0,0,0,,,,,,,,,,,,,,,,,,,,
6124,0,,,250,248,251,246,,-0.04,-0.02,0.99,0,0,-0,0.05,,82,0,6,34,93,0.571,0.0,107,1.05,13.0,0.0,1,0.0,0.0,0.0,0,0,0,0,0,,,,,,,,,,,,,,,,,,,,
6144,0,1,0,250,248,251,246,-1,-0.04,-0.02,0.99,0,0,-0,0.05,1,82,0,6,34,93,0.571,0.0,107,1.02,13.0,0.0,1,0.0,0.0,0.0,0,0,0,0,0,0,250,250,0,0.0,0.0,0.0,0.0,0,0,0.0,0,0.0,-1,0.0,,0.0,0,0.0,0.1024
6164,0,,,250,248,251,246,,-0.04,-0.02,1.0,0,0,-0,0.05,,82,0,6,34,93,0.571,0.0,107,1.02,13.0,0.0,1,0.0,0.0,0.0,0,0,0,0,0,,,,,,,,,,,,,,,,,,,,
6184,0,,,250,248,251,246,,-0.04,-0.02,1.0,0,0,-0,0.05,,82,0,6,34,93,0.571,0.0,107,1.02,13.0,0.0,1,0.0,0.0,0.0,0,0,0,0,0,,,,,,,,,,,,,,,,,,,,
6204,0,,,250,248,251,246,,-0.04,-0.02,1.0,0,0,-0,0.05,,82,0,6,34,93,0.571,0.0,107,1.02,12.9,0.0,1,0.0,0.0,0.0,0,0,0,0,0,,,,,,,,,,,,,,,,,,,,
6224,0,,,250,248,251,246,,-0.04,-0.02,1.0,0,0,-0,0.05,,82,0,6,34,93,0.571,0.0,107,1.02,12.9,0.0,1,0.0,0.0,0.0,0,0,0,0,0,,,,,,,,,,,,,,,,,,,,
6244,0,0,3,250,248,251,246,-0,-0.04,-0.02,1.0,0,0,-0,0.05,1,82,0,6,34,93,0.571,0.0,107,1.02,12.9,0.0,1,0.0,0.0,0.0,0,0,0,0,0,0,250,250,0,0.0,0.0,0.0,0.0,0,0,0.0,0,0.0,-1,0.0,0.0,0.0,0,0.0,0.1041
6264,0,,,250,248,251,245,,-0.04,-0.02,1.0,0,0,-0,0.05,,82,0,6,34,93,0.571,0.0,107,1.02,13.0,0.0,1,0.0,0.0,0.0,0,0,0,0,0,,,,,,,,,,,,,,,,,,,,
6284,0,,,250,248,251,246,,-0.04,-0.02,1.0,0,0,-0,0.05,,82,0,6,34,93,0.571,0.0,107,1.02,13.0,0.0,1,0.0,0.0,0.0,0,0,0,0,0,,,,,,,,,,,,,,,,,,,,
6304,0,,,250,248,251,246,,-0.04,-0.02,0.99,0,0,-0,0.05,,82,0,6,34,93,0.571,0.0,107,1.02,13.0,0.0,1,0.0,0.0,0.0,0,0,0,0,0,,,,,,,,,,,,,,,,,,,,
6324,0,,,250,248,251,246,,-0.04,-0.02,0.99,0,0,-0,0.05,,82,0,6,34,93,0.571,0.0,106,1.02,13.0,0.0,1,0.0,0.0,0.0,0,0,0,0,0,,,,,,,,,,,,,,,,,,,,
6344,0,1,2,250,248,251,246,-1,-0.04,-0.02,0.99,0,0,-0,0.05,1,82,0,6,34,93,0.57,0.0,106,1.02,13.0,0.0,1,0.0,0.0,0.0,0,0,0,0,0,0,250,250,0,0.0,0.0,0.0,0.0,0,0,0.0,0,0.0,-1,0.0,,0.0,0,0.0,0.1057
6364,0,,,250,248,251,246,,-0.04,-0.02,0.99,0,0,-0,0.05,,82,0,6,34,93,0.571,0.0,106,1.02,13.0,0.0,1,0.0,0.0,0.0,0,0,0,0,0,,,,,,,,,,,,,,,,,,,,
6384,0,,,250,248,251,246,,-0.04,-0.02,0.99,0,0,-0,0.05,,82,0,6,34,93,0.57,0.0,106,1.01,13.0,0.0,1,0.0,0.0,0.0,0,0,0,0,0,,,,,,,,,,,,,,,,,,,,
6404,0,,,250,248,251,246,,-0.04,-0.02,0.99,0,0,-0,0.05,,82,0,6,34,93,0.571,0.0,106,0.99,13.0,0.0,1,0.0,0.0,0.0,0,0,0,0,0,,,,,,,,,,,,,,,,,,,,
6424,0,,,250,248,251,246,,-0.04,-0.02,0.99,0,0,-0,0.05,,82,0,6,34,93,0.571,0.0,106,0.99,13.0,0.0,1,0.0,0.0,0.0,0,0,0,0,0,,,,,,,,,,,,,,,,,,,,
6444,0,0,3,250,248,251,246,-1,-0.04,-0.02,0.99,0,0,-0,0.05,1,82,0,6,34,93,0.571,0.0,106,1.0,13.0,0.0,1,0.0,0.0,0.0,0,0,0,0,0,0,250,250,0,0.0,0.0,0.0,0.0,0,0,0.0,0,0.0,-1,0.0,0.0,0.0,0,0.0,0.1074
6464,0,,,250,248,251,246,,-0.04,-0.02,0.99,0,0,-0,0.05,,82,0,6,34,93,0.571,0.0,106,0.99,13.0,0.0,1,0.0,0.0,0.0,0,0,0,0,0,,,,,,,,,,,,,,,,,,,,
6484,0,,,250,248,251,246,,-0.04,-0.02,0.99,0,0,-0,0.05,,82,0,6,34,93,0.571,0.0,106,0.99,13.0,0.0,1,0.0,0.0,0.0,0,0,0,0,0,,,,,,,,,,,,,,,,,,,,
6504,0,,,250,248,251,246,,-0.04,-0.02,0.99,0,0,-0,0.05,,82,0,6,34,93,0.571,0.0,106,0.99,13.0,0.0,1,0.0,0.0,0.0,0,0,0,0,0,,,,,,,,,,,,,,,,,,,,
6524,0,,,250,248,251,245,,-0.04,-0.02,0.99,0,0,-0,0.05,,82,0,6,34,93,0.571,0.0,106,0.99,13.0,0.0,1,0.0,0.0,0.0,0,0,0,0,0,,,,,,,,,,,,,,,,,,,,
6544,0,-1,2,250,248,251,246,-1,-0.04,-0.02,0.99,0,0,-0,0.05,1,82,0,6,34,93,0.571,0.0,106,0.99,13.0,0.0,1,0.0,0.0,0.0,0,0,0,0,0,0,250,250,0,0.0,0.0,0.0,0.0,0,0,0.0,0,0.0,-1,0.0,,0.0,0,0.0,0.1091
6564,0,,,250,248,251,245,,-0.04,-0.02,0.99,0,0,-0,0.05,,82,0,6,34,93,0.572,0.0,106,0.99,13.0,0.0,1,0.0,0.0,0.0,0,0,0,0,0,,,,,,,,,,,,,,,,,,,,
6584,0,,,250,248,251,246,,-0.04,-0.02,0.99,0,0,-0,0.05,,82,0,6,34,93,0.572,0.0,106,0.99,13.0,0.0,1,0.0,0.0,0.0,0,0,0,0,0,,,,,,,,,,,,,,,,,,,,
6604,0,,,250,248,251,246,,-0.04,-0.02,0.99,0,0,-0,0.05,,82,0,6,35,93,0.572,0.0,106,0.99,13.0,0.0,1,0.0,0.0,0.0,0,0,0,0,0,,,,,,,,,,,,,,,,,,,,
6624,0,,,250,248,251,246,,-0.04,-0.02,0.99,0,0,-0,0.05,,82,0,6,35,93,0.572,0.0,106,0.99,13.0,0.0,1,0.0,0.0,0.0,0,0,0,0,0,,,,,,,,,,,,,,,,,,,,
6644,0,-0,2,250,248,251,245,-1,-0.04,-0.02,0.99,0,0,-0,0.05,1,82,0,6,35,93,0.572,0.0,106,0.99,13.0,0.0,1,0.0,0.0,0.0,0,0,0,0,0,0,250,250,0,0.0,0.0,0.0,0.0,0,0,0.0,0,0.0,-1,0.0,0.0,0.0,0,0.0,0.1107
6664,0,,,250,248,251,246,,-0.04,-0.02,0.99,0,0,-0,0.05,,82,0,6,35,93,0.572,0.0,106,0.99,13.0,0.0,1,0.0,0.0,0.0,0,0,0,0,0,,,,,,,,,,,,,,,,,,,,
6684,0,,,250,248,251,246,,-0.04,-0.02,0.99,0,0,-0,0.05,,82,0,6,35,93,0.572,0.0,105,0.99,13.0,0.0,1,0.0,0.0,0.0,0,0,0,0,0,,,,,,,,,,,,,,,,,,,,
6704,0,,,250,248,251,246,,-0.04,-0.02,0.99,0,0,-0,0.05,,82,0,6,35,93,0.572,0.0,105,0.99,13.0,0.0,1,0.0,0.0,0.0,0,0,0,0,0,,,,,,,,,,,,,,,,,,,,
6724,0,,,250,248,251,246,,-0.04,-0.02,0.99,0,0,-0,0.05,,82,0,6,35,93,0.571,0.0,105,0.99,13.0,0.0,1,0.0,0.0,0.0,0,0,0,0,0,,,,,,,,,,,,,,,,,,,,
6744,0,0,1,250,248,251,246,-1,-0.04,-0.02,0.99,0,0,-0,0.05,1,82,0,6,35,93,0.572,0.0,105,0.99,13.0,0.0,1,0.0,0.0,0.0,0,0,0,0,0,0,250,250,0,0.0,0.0,0.0,0.0,0,0,0.0,0,0.0,-1,0.0,,0.0,0,0.0,0.1124
6764,0,,,250,248,251,246,,-0.04,-0.02,0.99,0,0,-0,0.05,,82,0,6,35,93,0.571,0.0,105,0.98,13.0,0.0,1,0.0,0.0,0.0,0,0,0,0,0,,,,,,,,,,,,,,,,,,,,
6784,0,,,250,248,251,246,,-0.04,-0.02,0.99,0,0,-0,0.05,,82,0,6,35,93,0.571,0.0,105,0.98,13.0,0.0,1,0.0,0.0,0.0,0,0,0,0,0,,,,,,,,,,,,,,,,,,,,
6804,0,,,250,248,251,246,,-0.04,-0.02,0.99,0,0,-0,0.05,,82,0,6,35,93,0.571,0.0,105,0.98,13.0,0.0,1,0.0,0.0,0.0,0,0,0,0,0,,,,,,,,,,,,,,,,,,,,
6824,0,,,250,248,251,246,,-0.04,-0.02,0.99,0,0,-0,0.05,,82,0,6,35,93,0.572,0.0,105,0.97,13.0,0.0,1,0.0,0.0,0.0,0,0,0,0,0,,,,,,,,,,,,,,,,,,,,
6844,0,1,0,250,248,251,246,-1,-0.04,-0.02,0.99,0,0,-0,0.05,1,82,0,6,35,93,0.571,0.0,105,0.97,13.0,0.0,1,0.0,0.0,0.0,0,0,0,0,0,0,250,250,0,0.0,0.0,0.0,0.0,0,0,0.0,0,0.0,-1,0.0,0.0,0.0,0,0.0,0.1141
6864,0,,,250,248,251,246,,-0.04,-0.02,0.99,0,0,-0,0.05,,82,0,6,35,93,0.571,0.0,105,0.97,13.0,0.0,1,0.0,0.0,0.0,0,0,0,0,0,,,,,,,,,,,,,,,,,,,,
6884,0,,,250,248,251,246,,-0.04,-0.02,0.99,0,0,-0,0.05,,82,0,6,35,93,0.572,0.0,105,0.97,13.0,0.0,1,0.0,0.0,0.0,0,0,0,0,0,,,,,,,,,,,,,,,,,,,,
6904,0,,,250,248,251,246,,-0.04,-0.02,0.99,0,0,-0,0.05,,82,0,6,35,93,0.572,0.0,105,0.97,13.0,0.0,1,0.0,0.0,0.0,0,0,0,0,0,,,,,,,,,,,,,,,,,,,,
6924,0,,,250,248,251,246,,-0.04,-0.02,0.99,0,0,-0,0.05,,82,0,6,35,93,0.572,0.0,105,0.96,12.9,0.0,1,0.0,0.0,0.0,0,0,0,0,0,,,,,,,,,,,,,,,,,,,,
6944,0,0,1,250,248,251,245,-1,-0.04,-0.02,0.99,0,0,-0,0.05,1,82,0,6,35,93,0.572,0.0,105,0.96,13.0,0.0,1,0.0,0.0,0.0,0,0,0,0,0,0,250,250,0,0.0,0.0,0.0,0.0,0,0,0.0,0,0.0,-1,0.0,,0.0,0,0.0,0.1157
6964,0,,,250,248,251,246,,-0.04,-0.02,0.99,0,0,-0,0.05,,82,0,6,35,93,0.572,0.0,105,0.96,13.0,0.0,1,0.0,0.0,0.0,0,0,0,0,0,,,,,,,,,,,,,,,,,,,,
6984,0,,,250,248,251,246,,-0.04,-0.02,0.99,0,0,-0,0.05,,82,0,6,35,93,0.572,0.0,105,0.97,13.0,0.0,1,0.0,0.0,0.0,0,0,0,0,0,,,,,,,,,,,,,,,,,,,,
7004,0,,,250,248,251,246,,-0.04,-0.02,0.99,0,0,-0,0.05,,82,0,6,35,93,0.572,0.0,105,0.96,13.0,0.0,1,0.0,0.0,0.0,0,0,0,0,0,,,,,,,,,,,,,,,,,,,,
7024,0,,,250,248,251,246,,-0.04,-0.02,0.99,0,0,-0,0.05,,82,0,6,35,93,0.572,0.0,105,0.96,13.0,0.0,1,0.0,0.0,0.0,0,0,0,0,0,,,,,,,,,,,,,,,,,,,,
7044,0,-1,3,250,248,251,245,-1,-0.04,-0.02,0.99,0,0,-0,0.05,1,82,0,6,35,93,0.572,0.0,105,0.96,13.0,0.0,1,0.0,0.0,0.0,0,0,0,0,0,0,250,250,0,0.0,0.0,0.0,0.0,0,0,0.0,0,0.0,-1,0.0,0.0,0.0,0,0.0,0.1174
7064,0,,,250,248,251,246,,-0.04,-0.02,1.0,0,0,-0,0.05,,82,0,6,35,93,0.571,0.0,105,0.96,13.0,0.0,1,0.0,0.0,0.0,0,0,0,0,0,,,,,,,,,,,,,,,,,,,,
7084,0,,,250,248,251,246,,-0.04,-0.02,1.0,0,0,-0,0.05,,82,0,6,35,93,0.572,0.0,105,0.96,13.0,0.0,1,0.0,0.0,0.0,0,0,0,0,0,,,,,,,,,,,,,,,,,,,,
7104,0,,,250,248,251,246,,-0.04,-0.02,1.0,0,0,-0,0.05,,82,0,6,35,93,0.572,0.0,105,0.96,13.0,0.0,1,0.0,0.0,0.0,0,0,0,0,0,,,,,,,,,,,,,,,,,,,,
7124,0,,,250,248,251,246,,-0.05,-0.02,1.0,0,0,-0,0.05,,82,0,6,35,93,0.572,0.0,105,0.96,13.0,0.0,1,0.0,0.0,0.0,0,0,0,0,0,,,,,,,,,,,,,,,,,,,,
7144,0,0,1,250,248,251,245,-1,-0.05,-0.02,1.0,0,0,-0,0.05,1,82,0,6,35,93,0.572,0.0,105,0.96,13.0,0.0,1,0.0,0.0,0.0,0,0,0,0,0,0,250,250,0,0.0,0.0,0.0,0.0,0,0,0.0,0,0.0,-1,0.0,,0.0,0,0.0,0.1191
7164,0,,,250,248,251,246,,-0.05,-0.02,1.0,0,0,-0,0.05,,82,0,6,35,93,0.572,0.0,105,0.96,13.0,0.0,1,0.0,0.0,0.0,0,0,0,0,0,,,,,,,,,,,,,,,,,,,,
7184,0,,,250,248,251,246,,-0.05,-0.02,1.0,0,0,-0,0.05,,82,0,6,35,93,0.571,0.0,105,0.96,13.0,0.0,1,0.0,0.0,0.0,0,0,0,0,0,,,,,,,,,,,,,,,,,,,,
7204,0,,,250,248,251,246,,-0.04,-0.02,1.0,0,0,-0,0.05,,82,0,6,35,93,0.571,0.0,105,0.96,13.0,0.0,1,0.0,0.0,0.0,0,0,0,0,0,,,,,,,,,,,,,,,,,,,,
7224,0,,,250,248,251,246,,-0.04,-0.02,1.0,0,0,-0,0.05,,82,0,6,35,93,0.572,0.0,105,0.96,13.0,0.0,1,0.0,0.0,0.0,0,0,0,0,0,,,,,,,,,,,,,,,,,,,,
7244,0,0,2,250,248,251,246,-1,-0.04,-0.02,1.0,0,0,-0,0.05,1,82,0,6,35,93,0.572,0.0,105,0.96,13.0,0.0,1,0.0,0.0,0.0,0,0,0,0,0,0,250,250,0,0.0,0.0,0.0,0.0,0,0,0.0,0,0.0,-1,0.0,0.0,0.0,0,0.0,0.1207
7264,0,,,250,248,251,246,,-0.04,-0.02,1.0,0,0,-0,0.05,,82,0,6,35,93,0.572,0.0,105,0.96,13.0,0.0,1,0.0,0.0,0.0,0,0,0,0,0,,,,,,,,,,,,,,,,,,,,
7284,0,,,250,248,251,246,,-0.04,-0.02,1.0,0,0,-0,0.05,,82,0,6,35,93,0.572,0.0,105,0.96,13.0,0.0,1,0.0,0.0,0.0,0,0,0,0,0,,,,,,,,,,,,,,,,,,,,
7304,0,,,250,248,251,246,,-0.04,-0.02,1.0,0,0,-0,0.05,,82,0,6,35,93,0.573,0.0,105,0.96,13.0,0.0,1,0.0,0.0,0.0,0,0,0,0,0,,,,,,,,,,,,,,,,,,,,
7324,0,,,250,248,251,246,,-0.04,-0.02,1.0,0,0,-0,0.05,,82,0,6,35,93,0.573,0.0,105,0.96,13.0,0.0,1,0.0,0.0,0.0,0,0,0,0,0,,,,,,,,,,,,,,,,,,,,
7344,0,-0,2,250,248,251,246,-1,-0.04,-0.02,0.99,0,0,-0,0.05,1,82,0,6,35,93,0.573,0.0,105,0.96,13.0,0.0,1,0.0,0.0,0.0,0,0,0,0,0,0,250,250,0,0.0,0.0,0.0,0.0,0,0,0.0,0,0.0,-1,0.0,,0.0,0,0.0,0.1224
7364,0,,,250,248,251,246,,-0.04,-0.02,0.99,0,0,-0,0.05,,82,0,6,35,93,0.572,0.0,105,0.96,13.0,0.0,1,0.0,0.0,0.0,0,0,0,0,0,,,,,,,,,,,,,,,,,,,,
7384,0,,,250,248,251,246,,-0.04,-0.02,0.99,0,0,-0,0.05,,82,0,6,35,93,0.572,0.0,105,0.96,13.0,0.0,1,0.0,0.0,0.0,0,0,0,0,0,,,,,,,,,,,,,,,,,,,,
7404,0,,,250,248,251,246,,-0.04,-0.02,0.99,0,0,-0,0.05,,82,0,6,35,93,0.572,0.0,105,0.96,13.0,0.0,1,0.0,0.0,0.0,0,0,0,0,0,,,,,,,,,,,,,,,,,,,,
7424,0,,,250,248,251,246,,-0.04,-0.02,0.99,0,0,-0,0.05,,82,0,6,35,93,0.573,0.0,105,0.96,13.0,0.0,1,0.0,0.0,0.0,0,0,0,0,0,,,,,,,,,,,,,,,,,,,,
7444,0,0,2,250,248,251,246,-1,-0.04,-0.02,0.99,0,0,-0,0.05,1,82,0,6,35,93,0.573,0.0,105,0.96,13.0,0.0,1,0.0,0.0,0.0,0,0,0,0,0,0,250,250,0,0.0,0.0,0.0,0.0,0,0,0.0,0,0.0,-1,0.0,0.0,0.0,0,0.0,0.1241
7464,0,,,250,248,251,246,,-0.04,-0.02,0.99,0,0,-0,0.05,,82,0,6,35,93,0.572,0.0,105,0.96,13.0,0.0,1,0.0,0.0,0.0,0,0,0,0,0,,,,,,,,,,,,,,,,,,,,
7484,0,,,250,248,251,246,,-0.04,-0.02,0.99,0,0,-0,0.05,,82,0,6,35,93,0.572,0.0,105,0.96,13.0,0.0,1,0.0,0.0,0.0,0,0,0,0,0,,,,,,,,,,,,,,,,,,,,
7504,0,,,250,248,251,246,,-0.04,-0.02,0.99,0,0,-0,0.05,,82,0,6,35,93,0.572,0.0,105,0.96,13.0,0.0,1,0.0,0.0,0.0,0,0,0,0,0,,,,,,,,,,,,,,,,,,,,
7524,0,,,250,248,251,246,,-0.04,-0.02,0.99,0,-0,-0,0.05,,82,0,6,35,93,0.572,0.0,105,0.96,13.0,0.0,1,0.0,0.0,0.0,0,0,0,0,0,,,,,,,,,,,,,,,,,,,,
7544,0,-1,2,250,248,251,246,-1,-0.04,-0.02,0.99,0,-0,-0,0.05,1,82,0,6,35,93,0.572,0.0,105,0.96,13.0,0.0,1,0.0,0.0,0.0,0,0,0,0,0,0,250,250,0,0.0,0.0,0.0,0.0,0,0,0.0,0,0.0,-1,0.0,,0.0,0,0.0,0.1257
7564,0,,,250,248,251,246,,-0.04,-0.02,0.99,0,-0,-0,0.05,,82,0,6,35,93,0.572,0.0,105,0.96,13.0,0.0,1,0.0,0.0,0.0,0,0,0,0,0,,,,,,,,,,,,,,,,,,,,
7584,0,,,250,248,251,245,,-0.04,-0.02,0.99,0,-0,-0,0.05,,81,0,6,35,93,0.572,0.0,105,0.96,13.0,0.0,1,0.0,0.0,0.0,0,0,0,0,0,,,,,,,,,,,,,,,,,,,,
7604,0,,,250,248,251,245,,-0.04,-0.02,0.99,0,-0,-0,0.05,,81,0,6,35,93,0.572,0.0,106,0.96,13.0,0.0,1,0.0,0.0,0.0,0,0,0,0,0,,,,,,,,,,,,,,,,,,,,
7624,0,,,250,248,251,246,,-0.04,-0.02,0.99,0,-0,-0,0.05,,82,0,6,35,93,0.572,0.0,106,0.96,13.0,0.0,1,0.0,0.0,0.0,0,0,0,0,0,,,,,,,,,,,,,,,,,,,,
7644,0,1,0,250,248,251,246,-1,-0.04,-0.02,0.99,0,-0,-0,0.05,1,82,0,6,35,93,0.573,0.0,105,0.96,13.0,0.0,1,0.0,0.0,0.0,0,0,0,0,0,0,250,250,0,0.0,0.0,0.0,0.0,0,0,0.0,0,0.0,-1,0.0,0.0,0.0,0,0.0,0.1274
7664,0,,,250,248,251,246,,-0.04,-0.02,0.99,0,-0,-0,0.05,,82,0,6,35,93,0.572,0.0,105,0.96,13.0,0.0,1,0.0,0.0,0.0,0,0,0,0,0,,,,,,,,,,,,,,,,,,,,
7684,0,,,250,248,251,246,,-0.04,-0.02,0.99,0,-0,-0,0.05,,82,0,6,35,93,0.572,0.0,105,0.96,13.0,0.0,1,0.0,0.0,0.0,0,0,0,0,0,,,,,,,,,,,,,,,,,,,,
7704,0,,,250,248,251,246,,-0.04,-0.02,0.99,0,-0,-0,0.05,,82,0,6,35,93,0.572,0.0,105,0.96,13.0,0.0,1,0.0,0.0,0.0,0,0,0,0,0,,,,,,,,,,,,,,,,,,,,
7724,0,,,250,248,251,246,,-0.04,-0.02,0.99,0,-0,-0,0.05,,82,0,6,35,93,0.572,0.0,105,0.96,13.0,0.0,1,0.0,0.0,0.0,0,0,0,0,0,,,,,,,,,,,,,,,,,,,,
7744,0,1,2,250,248,251,246,-1,-0.04,-0.02,0.99,0,-0,-0,0.05,1,82,0,6,35,93,0.572,0.0,105,0.96,13.0,0.0,1,0.0,0.0,0.0,0,0,0,0,0,0,250,250,0,0.0,0.0,0.0,0.0,0,0,0.0,0,0.0,-1,0.0,,0.0,0,0.0,0.1291
7764,0,,,250,248,251,246,,-0.04,-0.02,0.99,0,-0,-0,0.05,,82,0,6,35,93,0.573,0.0,105,0.96,13.0,0.0,1,0.0,0.0,0.0,0,0,0,0,0,,,,,,,,,,,,,,,,,,,,
7784,0,,,250,248,251,246,,-0.04,-0.02,0.99,0,-0,-0,0.05,,82,0,6,35,93,0.572,0.0,105,0.96,13.0,0.0,1,0.0,0.0,0.0,0,0,0,0,0,,,,,,,,,,,,,,,,,,,,
7804,0,,,250,248,251,246,,-0.04,-0.02,0.99,0,-0,-0,0.05,,82,0,6,35,93,0.572,0.0,105,0.96,13.0,0.0,1,0.0,0.0,0.0,0,0,0,0,0,,,,,,,,,,,,,,,,,,,,
7824,0,,,250,248,251,246,,-0.04,-0.02,0.99,0,-0,-0,0.05,,82,0,6,35,93,0.572,0.0,105,0.96,13.0,0.0,1,0.0,0.0,0.0,0,0,0,0,0,,,,,,,,,,,,,,,,,,,,
7844,0,0,1,250,248,251,246,-1,-0.04,-0.02,0.99,0,-0,-0,0.05,1,82,0,6,35,93,0.572,0.0,105,0.96,13.0,0.0,1,0.0,0.0,0.0,0,0,0,0,0,0,250,250,0,0.0,0.0,0.0,0.0,0,0,0.0,0,0.0,-1,0.0,0.0,0.0,0,0.0,0.1307
7864,0,,,250,248,251,246,,-0.04,-0.02,0.99,0,-0,-0,0.05,,82,0,6,35,93,0.572,0.0,105,0.96,13.0,0.0,1,0.0,0.0,0.0,0,0,0,0,0,,,,,,,,,,,,,,,,,,,,
7884,0,,,250,248,251,246,,-0.04,-0.02,0.99,0,-0,-0,0.05,,82,0,6,35,93,0.572,0.0,105,0.96,13.0,0.0,1,0.0,0.0,0.0,0,0,0,0,0,,,,,,,,,,,,,,,,,,,,
7904,0,,,250,248,251,246,,-0.04,-0.02,0.99,0,-0,-0,0.05,,82,0,6,35,93,0.572,0.0,105,0.96,13.0,0.0,1,0.0,0.0,0.0,0,0,0,0,0,,,,,,,,,,,,,,,,,,,,
7924,0,,,250,248,251,246,,-0.04,-0.02,0.99,0,-0,-0,0.05,,82,0,6,35,93,0.572,0.0,105,0.96,13.0,0.0,1,0.0,0.0,0.0,0,0,0,0,0,,,,,,,,,,,,,,,,,,,,
