"Interval"|"ms"|0|0|1,"Utc"|"ms"|0|0|1,"Brake_F"|"Bar"|0|2000|10,"Brake_R"|"Bar"|0|2000|10,"Height_RF"|"mm"|0|255|50,"Height_LF"|"mm"|0|255|50,"Height_LR"|"mm"|0|80|50,"Height_RR"|"mm"|0|255|50,"Steering"|"deg"|-100|100|10,"AccelX"|"G"|-3.0|3.0|50,"AccelY"|"G"|-3.0|3.0|50,"AccelZ"|"G"|-3.0|3.0|50,"Yaw"|"Deg/Sec"|-120|120|50,"Pitch"|"Deg/Sec"|-120|120|50,"Roll"|"Deg/Sec"|-120|120|50,"Gsum"|"G"|0.0|3.0|50,"Log_Button"|""|0.0|10.0|10,"WaterTemp"|"C"|0|150|50,"RPM"|"tr/min"|0|14000|50,"TPS"|"%"|0|100|50,"AirTemp"|"C"|0|150|50,"MAP"|"KPa"|0|100|50,"Lambda"|""|0.5|1.5|50,"SpeedDTA"|"kph"|0.0|250.0|50,"OilPress"|"KPa"|0|1500|50,"FuelPressur"|"Bar"|0.0|10.0|50,"Batterie"|"V"|0.0|20.0|50,"ConsoKm"|"L/100km"|0.0|200.0|50,"Gear"|""|0|6|50,"AdvIgnition"|"Deg"|-20.0|70.0|50,"Injection"|"ms"|0.0|10.0|50,"ConsoHr"|"L/Hr"|0.0|10000.0|50,"LC_But_Pres"|""|0|1|50,"LC_Active"|""|0|1|50,"TractionOn"|""|0|1|50,"TractionWet"|""|0|1|50,"FanOn"|""|0|1|50,"RD_Speed"|"km/h"|-30|250|10,"RUD_Speed"|"km/h"|-30|250|10,"LD_Speed"|"km/h"|-30|250|10,"LUD_Speed"|"km/h"|-30|250|10,"Latitude"|"Degrees"|-180.0|180.0|10,"Longitude"|"Degrees"|-180.0|180.0|10,"Speed"|"kph"|0.0|150.0|10,"Altitude"|"m"|0.0|4000.0|10,"GPSSats"|""|0|20|10,"GPSQual"|""|0|5|10,"GPSDOP"|""|0.0|20.0|10,"LapCount"|""|0|0|10,"LapTime"|"Min"|0.0|0.0|10,"Sector"|""|0|0|10,"SectorTime"|"Min"|0.0|0.0|10,"PredTime"|"Min"|0.0|0.0|5,"ElapsedTime"|"Min"|0.0|0.0|10,"CurrentLap"|""|0|0|10,"Distance"|"km"|0.0|0.0|10,"SessionTime"|"Min"|0.0|0.0|10
91063,1627392969150,,,248,246,251,246,,-0.03,-0.01,1.06,0,-0,-0,0.03,,65,1789,6,31,86,0.871,0.0,227,4.75,12.8,0.0,1,7.3,1.99,2.7,0,0,0,1,0,,,,,,,,,,,,,,,,,,,,
91083,1627392969170,,,248,247,251,246,,-0.04,-0.02,1.04,0,0,0,0.04,,65,1903,6,31,86,0.868,0.0,231,4.77,13.1,0.0,1,7.3,3.1,2.7,0,0,0,1,0,,,,,,,,,,,,,,,,,,,,
91103,1627392969190,,,248,248,251,245,,-0.04,-0.02,0.99,0,0,-0,0.04,,65,1941,6,31,87,0.867,0.0,236,4.73,13.1,0.0,1,7.3,3.12,2.7,0,0,0,1,0,,,,,,,,,,,,,,,,,,,,
91123,1627392969210,,,248,247,251,246,,-0.03,-0.02,0.99,0,0,-0,0.04,,65,1921,6,31,87,0.867,0.0,236,4.76,13.1,0.0,1,7.3,3.12,2.7,0,0,0,1,0,,,,,,,,,,,,,,,,,,,,
91143,1627392969230,-1,2,248,247,251,246,-4,-0.03,-0.01,1.02,0,0,-0,0.03,1,65,1802,6,31,86,0.866,0.0,232,4.66,12.7,0.0,1,7.3,1.99,2.7,0,0,0,1,0,0,250,250,0,47.220268,14.763095,0.0,691.4,7,2,1.7,0,0.0,-1,0.0,,0.0,0,0.01,1.519
91163,1627392969250,,,248,247,251,246,,-0.03,-0.01,0.99,0,0,0,0.04,,65,1787,6,31,86,0.865,0.0,232,4.74,12.9,0.0,1,7.3,3.1,2.7,0,0,0,1,0,,,,,,,,,,,,,,,,,,,,
91183,1627392969270,,,248,247,251,246,,-0.04,-0.01,0.96,0,0,-0,0.04,,65,1866,6,31,87,0.864,0.0,232,4.69,13.2,0.0,1,7.3,3.1,2.7,0,0,0,1,0,,,,,,,,,,,,,,,,,,,,
91203,1627392969290,,,248,247,251,246,,-0.03,-0.01,0.99,0,0,-0,0.03,,65,1903,6,31,87,0.865,0.0,233,4.75,13.2,0.0,1,7.3,3.12,2.7,0,0,0,1,0,,,,,,,,,,,,,,,,,,,,
91223,1627392969310,,,248,248,251,246,,-0.03,-0.01,1.0,0,0,-0,0.03,,65,1868,6,31,86,0.865,0.0,235,4.73,12.9,0.0,1,7.3,1.99,2.7,0,0,0,1,0,,,,,,,,,,,,,,,,,,,,
91243,1627392969330,-0,2,248,247,251,246,-5,-0.03,-0.01,0.96,0,0,0,0.03,1,65,1801,6,31,86,0.864,0.0,232,4.77,13.1,0.0,1,7.4,3.1,2.7,0,0,0,1,0,0,250,250,0,47.220268,14.763095,0.0,691.4,7,2,1.7,0,0.0,-1,0.0,0.0,0.0,0,0.01,1.5207
91263,1627392969350,,,248,247,251,246,,-0.04,-0.0,1.01,0,0,-0,0.04,,65,1767,6,31,86,0.863,0.0,230,4.74,13.1,0.0,1,7.4,3.1,2.7,0,0,0,1,0,,,,,,,,,,,,,,,,,,,,
91283,1627392969370,,,248,247,251,246,,-0.04,-0.0,0.99,0,0,0,0.04,,65,1791,6,31,87,0.863,0.0,230,4.75,13.1,0.0,1,7.4,3.12,2.7,0,0,0,1,0,,,,,,,,,,,,,,,,,,,,
91303,1627392969390,,,248,247,251,246,,-0.04,-0.0,0.95,0,0,0,0.04,,65,1839,6,31,87,0.862,0.0,229,4.75,13.1,0.0,1,7.4,3.12,2.6,0,0,0,1,0,,,,,,,,,,,,,,,,,,,,
91323,1627392969410,,,248,247,251,246,,-0.03,-0.0,0.98,0,0,-0,0.03,,65,1829,6,31,86,0.862,0.0,230,4.72,12.8,0.0,1,7.4,1.99,2.6,0,0,0,1,0,,,,,,,,,,,,,,,,,,,,
91343,1627392969430,0,2,248,246,251,246,-5,-0.04,-0.01,0.94,0,1,0,0.04,1,65,1768,6,31,86,0.863,0.0,228,4.77,13.1,0.0,1,7.4,3.1,2.6,0,0,0,1,0,0,250,250,0,47.220268,14.763095,0.0,691.4,7,2,1.7,0,0.0,-1,0.0,,0.0,0,0.01,1.5224
91363,1627392969450,,,248,246,251,246,,-0.04,-0.01,0.97,0,0,-0,0.04,,65,1728,6,31,86,0.866,0.0,227,4.76,13.2,0.0,1,7.4,3.1,2.6,0,0,0,1,0,,,,,,,,,,,,,,,,,,,,
91383,1627392969470,,,248,247,251,246,,-0.04,0.0,0.97,0,0,0,0.04,,65,1772,6,31,87,0.868,0.0,224,4.73,13.2,0.0,1,7.4,3.12,2.6,0,0,0,1,0,,,,,,,,,,,,,,,,,,,,
91403,1627392969490,,,248,247,251,246,,-0.04,-0.0,0.93,0,0,0,0.04,,65,1854,6,31,87,0.868,0.0,228,4.75,13.2,0.0,1,7.4,2.02,2.6,0,0,0,1,0,,,,,,,,,,,,,,,,,,,,
91423,1627392969508,,,248,247,251,246,,-0.03,0.0,0.94,0,0,0,0.03,,65,1896,6,31,86,0.869,0.0,232,4.67,12.7,0.0,1,7.4,1.99,2.6,0,0,0,1,0,,,,,,,,,,,,,,,,,,,,
91443,1627392969528,0,1,248,247,251,246,-5,-0.04,0.0,0.99,0,0,-0,0.04,1,65,1813,6,31,86,0.871,0.0,232,4.75,13.1,0.0,1,7.5,3.1,2.6,0,0,0,1,0,0,250,250,0,47.220268,14.763095,0.0,691.4,7,2,1.7,0,0.0,-1,0.0,0.0,0.0,0,0.01,1.524
91463,1627392969548,,,248,246,251,246,,-0.04,-0.0,0.95,0,0,0,0.04,,65,1725,6,31,86,0.871,0.0,227,4.72,13.1,0.0,1,7.5,3.1,2.6,0,0,0,1,0,,,,,,,,,,,,,,,,,,,,
91483,1627392969568,,,248,247,251,246,,-0.04,0.0,1.01,0,0,-0,0.04,,65,1732,6,31,87,0.871,0.0,225,4.76,13.1,0.0,1,7.5,3.12,2.6,0,0,0,1,0,,,,,,,,,,,,,,,,,,,,
91503,1627392969588,,,248,247,251,246,,-0.04,-0.0,0.94,0,1,0,0.04,,65,1869,6,31,87,0.871,0.0,230,4.73,13.1,0.0,1,7.5,3.12,2.6,0,0,0,1,0,,,,,,,,,,,,,,,,,,,,
91523,1627392969607,,,248,248,251,246,,-0.04,-0.0,0.96,0,1,0,0.04,,65,2001,6,31,86,0.871,0.0,236,4.74,13.0,0.0,1,7.5,3.1,2.6,0,0,0,1,0,,,,,,,,,,,,,,,,,,,,
91543,1627392969627,-0,2,248,248,251,246,-5,-0.05,-0.01,0.93,0,1,0,0.05,1,65,1964,6,31,86,0.873,0.0,238,4.74,13.2,0.0,1,7.5,3.1,2.6,0,0,0,1,0,0,250,250,0,47.220268,14.763095,0.0,691.4,7,2,1.7,0,0.0,-1,0.0,,0.0,0,0.01,1.5257
91563,1627392969647,,,248,247,251,246,,-0.04,-0.01,0.91,0,1,0,0.04,,65,1881,6,31,86,0.874,0.0,235,4.75,13.2,0.0,1,7.5,3.1,2.6,0,0,0,1,0,,,,,,,,,,,,,,,,,,,,
91583,1627392969667,,,248,246,251,246,,-0.03,-0.0,0.96,0,1,0,0.03,,65,1820,6,31,86,0.873,0.0,232,4.75,12.7,0.0,1,7.5,1.99,2.6,0,0,0,1,0,,,,,,,,,,,,,,,,,,,,
91603,1627392969687,,,248,247,251,246,,-0.04,-0.01,0.95,0,1,0,0.04,,65,1923,6,31,86,0.872,0.0,235,4.77,13.1,0.0,1,7.5,3.1,2.7,0,0,0,1,0,,,,,,,,,,,,,,,,,,,,
91623,1627392969707,,,248,248,251,246,,-0.04,-0.01,0.91,0,1,0,0.04,,65,1985,6,31,87,0.873,0.0,238,4.76,13.2,0.0,1,7.5,3.12,2.7,0,0,0,1,0,,,,,,,,,,,,,,,,,,,,
91643,1627392969727,0,2,248,247,251,246,-6,-0.04,-0.01,0.91,0,1,0,0.04,1,65,1994,6,31,86,0.874,0.0,240,4.74,12.9,0.0,1,7.5,3.1,2.7,0,0,0,1,0,0,250,250,0,47.220268,14.763095,0.0,691.4,7,2,1.7,0,0.0,-1,0.0,0.0,0.0,0,0.01,1.5274
91663,1627392969747,,,248,247,251,245,,-0.04,-0.01,0.88,0,1,0,0.04,,65,1860,6,31,85,0.876,0.0,238,4.75,13.0,0.0,1,7.5,3.08,2.7,0,0,0,1,0,,,,,,,,,,,,,,,,,,,,
91683,1627392969767,,,248,247,251,246,,-0.05,-0.01,0.95,0,1,0,0.05,,65,1828,6,31,86,0.876,0.0,237,4.71,13.2,0.0,1,7.5,3.1,2.7,0,0,0,1,0,,,,,,,,,,,,,,,,,,,,
91703,1627392969787,,,248,247,251,246,,-0.04,-0.01,0.98,0,0,0,0.04,,65,1905,6,31,86,0.874,0.0,237,4.77,13.2,0.0,1,7.5,3.1,2.7,0,0,0,1,0,,,,,,,,,,,,,,,,,,,,
91723,1627392969805,,,248,247,251,246,,-0.03,-0.01,0.97,0,0,0,0.03,,65,2018,6,31,86,0.875,0.0,238,4.71,12.8,0.0,1,7.5,1.99,2.7,0,0,0,1,0,,,,,,,,,,,,,,,,,,,,
91743,1627392969825,0,1,248,247,251,246,-6,-0.04,-0.0,1.02,0,0,0,0.04,1,65,2009,6,31,86,0.876,0.0,245,4.77,13.1,0.0,1,7.5,3.1,2.7,0,0,0,1,0,0,250,250,0,47.220268,14.763095,0.0,691.4,7,2,1.7,0,0.0,-1,0.0,,0.0,0,0.01,1.529
91763,1627392969845,,,248,247,251,246,,-0.04,-0.01,1.0,0,0,0,0.04,,65,1942,6,31,86,0.877,0.0,243,4.75,13.2,0.0,1,7.5,3.1,2.7,0,0,0,1,0,,,,,,,,,,,,,,,,,,,,
91783,1627392969865,,,248,247,251,246,,-0.04,-0.0,0.98,0,1,0,0.04,,65,1898,6,31,86,0.877,0.0,241,4.75,12.9,0.0,1,7.5,1.99,2.7,0,0,0,1,0,,,,,,,,,,,,,,,,,,,,
91803,1627392969885,,,248,247,251,246,,-0.04,-0.0,0.97,0,1,1,0.04,,65,1983,6,31,86,0.878,0.0,241,4.72,13.0,0.0,1,7.5,3.1,2.7,0,0,0,1,0,,,,,,,,,,,,,,,,,,,,
91823,1627392969909,,,248,248,251,246,,-0.04,-0.0,0.94,0,1,1,0.04,,65,2068,6,31,86,0.879,0.0,246,4.75,13.2,0.0,1,7.5,3.1,2.7,0,0,0,1,0,,,,,,,,,,,,,,,,,,,,
91843,1627392969929,0,1,248,247,251,246,-5,-0.04,0.01,0.93,0,1,1,0.04,1,65,1955,6,31,85,0.878,0.0,245,4.73,12.9,0.0,1,7.4,3.1,2.7,0,0,0,1,0,0,250,250,0,47.220268,14.763095,0.0,691.4,7,2,1.7,0,0.0,-1,0.0,0.0,0.0,0,0.01,1.5307
91863,1627392969949,,,248,247,251,246,,-0.04,0.01,0.9,0,1,1,0.04,,65,1906,6,31,85,0.878,0.0,243,4.77,13.1,0.0,1,7.4,3.08,2.7,0,0,0,1,0,,,,,,,,,,,,,,,,,,,,
91883,1627392969969,,,248,248,251,246,,-0.04,0.01,0.85,0,1,1,0.04,,65,1972,6,31,86,0.877,0.0,244,4.73,13.2,0.0,1,17.2,3.1,2.7,0,0,0,1,0,,,,,,,,,,,,,,,,,,,,
91903,1627392969989,,,248,247,251,246,,-0.04,0.01,0.87,0,1,1,0.04,,65,2109,6,31,85,0.876,0.0,249,4.72,12.9,0.0,1,7.4,3.1,2.9,0,0,0,1,0,,,,,,,,,,,,,,,,,,,,
91923,1627392969997,,,248,247,251,246,,-0.05,0.01,0.91,0,1,0,0.05,,65,2131,6,31,85,0.875,0.0,253,4.76,13.2,0.0,1,7.4,3.08,2.9,0,0,0,1,0,,,,,,,,,,,,,,,,,,,,
91943,1627392970017,-1,2,248,246,251,246,-4,-0.04,0.01,0.91,0,1,0,0.04,1,65,2105,6,31,85,0.875,0.0,255,4.76,13.2,0.0,1,7.4,3.08,2.9,0,0,0,1,0,0,250,250,0,47.220268,14.763095,0.0,691.4,7,2,1.9,0,0.0,-1,0.0,,0.0,0,0.01,1.5324
91963,1627392970037,,,248,248,251,246,,-0.04,0.01,0.9,0,1,0,0.04,,65,2079,6,31,84,0.875,0.0,254,4.7,12.8,0.0,1,7.4,3.06,2.9,0,0,0,1,0,,,,,,,,,,,,,,,,,,,,
91983,1627392970057,,,248,247,251,246,,-0.04,-0.0,0.89,0,1,0,0.04,,65,2150,6,31,85,0.876,0.0,260,4.77,13.2,0.0,1,7.4,3.08,2.9,0,0,0,1,0,,,,,,,,,,,,,,,,,,,,
92003,1627392970091,,,248,247,251,246,,-0.04,-0.0,0.88,0,1,0,0.04,,65,2232,6,31,84,0.875,0.0,262,4.7,12.7,0.0,1,7.4,1.95,3.1,0,0,0,1,0,,,,,,,,,,,,,,,,,,,,
92023,1627392970111,,,248,248,251,246,,-0.04,-0.0,0.89,0,1,0,0.04,,65,2216,6,31,84,0.876,0.0,265,4.75,13.2,0.0,1,7.4,3.06,3.1,0,0,0,1,0,,,,,,,,,,,,,,,,,,,,
92043,1627392970131,0,1,248,247,251,246,-5,-0.04,-0.01,0.91,0,1,0,0.04,1,65,2202,6,31,84,0.873,0.0,267,4.7,12.8,0.0,1,7.2,1.95,3.1,0,0,0,1,0,0,250,250,0,47.220268,14.763095,0.0,691.4,7,2,1.9,0,0.0,-1,0.0,0.0,0.0,0,0.01,1.534
92063,1627392970151,,,248,247,251,246,,-0.04,-0.0,0.9,0,1,0,0.04,,65,2251,6,31,84,0.874,0.0,268,4.73,13.2,0.0,1,7.2,3.06,3.1,0,0,0,1,0,,,,,,,,,,,,,,,,,,,,
92083,1627392970171,,,248,247,251,246,,-0.04,-0.0,0.89,0,1,0,0.04,,65,2338,6,31,83,0.876,0.0,273,4.69,12.7,0.0,1,7.2,1.93,3.1,0,0,0,1,0,,,,,,,,,,,,,,,,,,,,
92103,1627392970191,,,248,246,251,246,,-0.03,-0.0,0.89,0,1,0,0.03,,65,2375,6,31,84,0.877,0.0,281,4.75,13.2,0.0,1,7.2,3.06,3.3,0,0,0,1,0,,,,,,,,,,,,,,,,,,,,
92123,1627392970211,,,248,247,251,246,,-0.04,0.0,0.89,0,1,-0,0.04,,65,2312,6,31,83,0.878,0.0,282,4.73,13.0,0.0,1,7.2,3.04,3.3,0,0,0,1,0,,,,,,,,,,,,,,,,,,,,
92143,1627392970231,0,2,248,247,251,246,-4,-0.03,-0.0,0.89,0,1,-0,0.03,1,65,2288,6,31,84,0.879,0.0,281,4.77,13.2,0.0,1,7.2,3.06,3.3,0,0,0,1,0,0,250,250,0,47.220268,14.763095,0.0,691.4,7,2,1.9,0,0.0,-1,0.0,,0.0,0,0.01,1.5357
92163,1627392970251,,,248,247,251,246,,-0.04,0.0,0.94,0,1,-0,0.04,,65,2380,6,31,83,0.881,0.0,284,4.75,13.1,0.0,1,7.2,3.04,3.3,0,0,0,1,0,,,,,,,,,,,,,,,,,,,,
92183,1627392970271,,,248,247,251,246,,-0.03,0.0,0.98,0,0,-0,0.03,,65,2442,6,31,83,0.883,0.0,291,4.73,12.9,0.0,1,7.2,3.04,3.3,0,0,0,1,0,,,,,,,,,,,,,,,,,,,,
92203,1627392970291,,,248,247,251,246,,-0.03,-0.0,0.94,0,0,0,0.03,,65,2442,6,31,83,0.884,0.0,291,4.75,13.2,0.0,1,7.2,3.04,3.4,0,0,0,1,0,,,,,,,,,,,,,,,,,,,,
92223,1627392970311,,,248,247,251,246,,-0.04,0.0,0.94,0,1,-0,0.04,,65,2364,6,31,83,0.883,0.0,291,4.72,12.9,0.0,1,7.2,3.04,3.4,0,0,0,1,0,,,,,,,,,,,,,,,,,,,,
92243,1627392970331,-0,2,248,247,251,246,-5,-0.03,-0.0,0.93,0,0,0,0.03,1,65,2345,6,31,83,0.884,0.0,292,4.76,13.2,0.0,1,6.9,3.04,3.4,0,0,0,1,0,0,250,250,0,47.220268,14.763095,0.0,691.4,7,2,1.9,0,0.0,-1,0.0,0.0,0.0,0,0.01,1.5374
92263,1627392970351,,,248,248,251,246,,-0.04,0.0,0.99,0,0,-0,0.04,,65,2465,6,31,83,0.884,0.0,293,4.73,13.2,0.0,1,6.9,3.01,3.4,0,0,0,1,0,,,,,,,,,,,,,,,,,,,,
92283,1627392970371,,,248,247,251,246,,-0.03,0.0,1.01,0,0,-0,0.03,,65,2501,6,31,83,0.885,0.0,298,4.7,12.8,0.0,1,6.9,3.04,3.4,0,0,0,1,0,,,,,,,,,,,,,,,,,,,,
92303,1627392970391,,,248,247,251,246,,-0.03,-0.0,0.98,0,-0,-0,0.03,,65,2490,6,31,83,0.883,0.0,302,4.72,13.2,0.0,1,6.9,3.04,3.4,0,0,0,1,0,,,,,,,,,,,,,,,,,,,,
92323,1627392970411,,,248,248,251,246,,-0.04,-0.0,0.98,0,0,-0,0.04,,65,2424,6,31,82,0.882,0.0,299,4.76,13.1,0.0,1,6.9,3.01,3.4,0,0,0,1,0,,,,,,,,,,,,,,,,,,,,
92343,1627392970431,1,2,248,246,251,246,-5,-0.03,0.0,1.03,0,-0,-0,0.03,1,65,2450,6,31,83,0.881,0.0,298,4.76,13.1,0.0,1,6.9,3.04,3.4,0,0,0,1,0,0,250,250,0,47.220268,14.763095,0.0,691.4,7,2,1.9,0,0.0,-1,0.0,,0.0,0,0.01,1.539
92363,1627392970451,,,248,247,251,246,,-0.03,0.0,0.99,0,-0,-0,0.03,,65,2472,6,31,83,0.881,0.0,301,4.73,13.2,0.0,1,6.9,3.04,3.4,0,0,0,1,0,,,,,,,,,,,,,,,,,,,,
92383,1627392970471,,,248,247,251,246,,-0.04,0.0,0.96,0,0,0,0.04,,65,2489,6,31,82,0.88,0.0,304,4.72,13.1,0.0,1,6.9,3.01,3.4,0,0,0,1,0,,,,,,,,,,,,,,,,,,,,
92403,1627392970491,,,248,247,251,246,,-0.03,-0.01,0.98,0,0,0,0.03,,65,2456,6,31,82,0.881,0.0,301,4.75,13.1,0.0,1,6.9,3.04,3.4,0,0,0,1,0,,,,,,,,,,,,,,,,,,,,
92423,1627392970509,,,248,247,251,246,,-0.04,-0.01,1.04,0,-0,-0,0.04,,65,2383,6,31,82,0.881,0.0,300,4.75,13.2,0.0,1,6.9,3.01,3.4,0,0,0,1,0,,,,,,,,,,,,,,,,,,,,
92443,1627392970529,0,2,248,247,251,246,-5,-0.04,-0.01,1.0,0,0,-0,0.04,1,65,2462,6,31,82,0.88,0.0,299,4.66,12.8,0.0,1,6.6,1.9,3.4,0,0,0,1,0,0,250,250,0,47.220268,14.763095,0.0,691.4,7,2,1.9,0,0.0,-1,0.0,0.0,0.0,0,0.01,1.5407
92463,1627392970549,,,248,247,251,246,,-0.03,-0.01,0.97,0,0,0,0.03,,65,2525,6,31,82,0.881,0.0,301,4.76,13.2,0.0,1,6.6,3.04,3.4,0,0,0,1,0,,,,,,,,,,,,,,,,,,,,
92483,1627392970569,,,248,247,251,246,,-0.03,-0.01,1.05,0,-0,-0,0.04,,65,2496,6,31,82,0.88,0.0,307,4.75,13.2,0.0,1,6.6,3.01,3.4,0,0,0,1,0,,,,,,,,,,,,,,,,,,,,
92503,1627392970589,,,248,247,251,246,,-0.03,-0.01,1.02,0,0,-0,0.04,,65,2407,6,31,82,0.88,0.0,302,4.7,12.9,0.0,1,6.6,1.9,3.4,0,0,0,1,0,,,,,,,,,,,,,,,,,,,,
92523,1627392970606,,,248,247,251,246,,-0.03,-0.01,0.94,0,0,-0,0.03,,65,2421,6,31,82,0.881,0.0,297,4.76,13.2,0.0,1,6.6,3.01,3.4,0,0,0,1,0,,,,,,,,,,,,,,,,,,,,
92543,1627392970626,-1,3,248,247,251,245,-5,-0.04,-0.01,1.03,0,-0,-0,0.04,1,65,2534,6,31,82,0.881,0.0,306,4.76,13.2,0.0,1,6.6,3.01,3.4,0,0,0,1,0,0,250,250,0,47.220268,14.763095,0.0,691.4,7,2,1.9,0,0.0,-1,0.0,,0.0,0,0.01,1.5424
92563,1627392970646,,,248,247,251,246,,-0.04,-0.0,1.03,0,0,-0,0.04,,65,2516,6,31,82,0.882,0.0,306,4.69,12.9,0.0,1,6.6,1.9,3.4,0,0,0,1,0,,,,,,,,,,,,,,,,,,,,
92583,1627392970666,,,248,247,251,246,,-0.03,-0.01,0.96,0,0,-0,0.03,,65,2459,6,31,82,0.883,0.0,305,4.76,13.2,0.0,1,6.6,3.01,3.4,0,0,0,1,0,,,,,,,,,,,,,,,,,,,,
92603,1627392970686,,,248,248,251,246,,-0.04,-0.01,1.0,0,0,-0,0.04,,65,2435,6,31,82,0.882,0.0,305,4.78,13.2,0.0,1,6.6,3.01,3.3,0,0,0,1,0,,,,,,,,,,,,,,,,,,,,
92623,1627392970706,,,248,247,251,246,,-0.03,0.0,1.08,0,-0,-0,0.03,,65,2553,6,31,82,0.882,0.0,303,4.75,13.0,0.0,1,6.6,3.02,3.3,0,0,0,1,0,,,,,,,,,,,,,,,,,,,,
92643,1627392970726,0,1,248,247,251,246,-5,-0.02,-0.01,1.0,0,-0,0,0.03,1,65,2570,6,31,82,0.883,0.0,308,4.73,13.2,0.0,1,6.4,3.02,3.3,0,0,0,1,0,0,250,250,0,47.220268,14.763095,0.0,691.4,7,2,1.9,0,0.0,-1,0.0,0.0,0.0,0,0.01,1.544
92663,1627392970746,,,248,248,251,246,,-0.04,-0.01,1.03,0,-0,-0,0.04,,65,2472,6,31,81,0.882,0.0,309,4.74,13.2,0.0,1,6.4,2.99,3.3,0,0,0,1,0,,,,,,,,,,,,,,,,,,,,
92683,1627392970766,,,248,247,251,246,,-0.03,-0.01,1.06,0,-0,-0,0.03,,65,2452,6,31,82,0.881,0.0,306,4.74,13.1,0.0,1,6.4,3.01,3.3,0,0,0,1,0,,,,,,,,,,,,,,,,,,,,
92703,1627392970786,,,248,247,251,246,,-0.02,-0.01,0.98,0,-0,0,0.02,,65,2521,6,31,82,0.879,0.0,305,4.73,13.2,0.0,1,6.4,3.01,3.4,0,0,0,1,0,,,,,,,,,,,,,,,,,,,,
92723,1627392970808,,,248,247,251,246,,-0.03,-0.0,1.05,0,-0,-0,0.03,,65,2587,6,31,82,0.878,0.0,312,4.77,13.2,0.0,1,6.4,3.0,3.4,0,0,0,1,0,,,,,,,,,,,,,,,,,,,,
92743,1627392970828,-1,2,248,247,251,246,-5,-0.03,-0.01,1.04,0,0,-0,0.03,1,65,2484,6,31,81,0.877,0.0,311,4.71,12.9,0.0,1,6.4,1.88,3.4,0,0,0,1,0,0,250,250,0,47.220268,14.763095,0.0,691.4,7,2,1.9,0,0.0,-1,0.0,,0.0,0,0.01,1.5457
92763,1627392970848,,,248,246,251,246,,-0.02,-0.02,0.97,0,-0,-0,0.03,,65,2456,6,31,82,0.877,0.0,303,4.75,13.2,0.0,1,6.4,3.01,3.4,0,0,0,1,0,,,,,,,,,,,,,,,,,,,,
92783,1627392970868,,,248,248,251,246,,-0.04,-0.01,1.07,0,-0,-0,0.04,,65,2563,6,31,81,0.878,0.0,310,4.73,13.2,0.0,1,6.4,3.0,3.4,0,0,0,1,0,,,,,,,,,,,,,,,,,,,,
92803,1627392970888,,,248,247,251,246,,-0.04,-0.01,1.07,0,0,-1,0.04,,65,2600,6,31,81,0.878,0.0,314,4.72,12.8,0.0,1,6.4,3.0,3.6,0,0,0,1,0,,,,,,,,,,,,,,,,,,,,
92823,1627392970910,,,248,247,251,246,,-0.03,-0.01,1.05,0,0,-0,0.03,,65,2546,6,31,81,0.876,0.0,312,4.75,13.1,0.0,1,6.4,1.89,3.6,0,0,0,1,0,,,,,,,,,,,,,,,,,,,,
92843,1627392970930,-1,2,248,247,251,246,-5,-0.04,-0.01,1.07,0,-0,-0,0.04,1,65,2490,6,31,81,0.874,0.0,311,4.75,13.2,0.0,1,6.2,2.99,3.6,0,0,0,1,0,0,250,250,0,47.220268,14.763095,0.0,691.4,7,2,1.9,0,0.0,-1,0.0,0.0,0.0,0,0.01,1.5474
92863,1627392970950,,,248,247,251,246,,-0.05,-0.01,1.02,0,1,-0,0.05,,65,2616,6,31,81,0.874,0.0,314,4.68,12.8,0.0,1,6.2,3.0,3.6,0,0,0,1,0,,,,,,,,,,,,,,,,,,,,
92883,1627392970970,,,248,247,251,246,,-0.03,-0.01,1.1,0,0,-0,0.03,,65,2590,6,31,81,0.874,0.0,316,4.71,12.9,0.0,1,6.2,3.0,3.6,0,0,0,1,0,,,,,,,,,,,,,,,,,,,,
92903,1627392970990,,,248,246,251,246,,-0.03,-0.02,1.03,0,-0,-0,0.04,,65,2554,6,31,81,0.873,0.0,316,4.72,13.2,0.0,1,6.2,3.0,3.5,0,0,0,1,0,,,,,,,,,,,,,,,,,,,,
92923,1627392970996,,,248,248,251,246,,-0.05,-0.01,1.08,0,0,-0,0.05,,65,2559,6,31,81,0.872,0.0,315,4.75,13.2,0.0,1,6.2,3.0,3.5,0,0,0,1,0,,,,,,,,,,,,,,,,,,,,
92943,1627392971016,-1,2,248,247,251,246,-4,-0.04,-0.01,1.12,0,1,-1,0.04,1,65,2594,6,31,80,0.873,0.0,315,4.68,12.8,0.0,1,6.2,1.87,3.5,0,0,0,1,0,0,250,250,0,47.220268,14.763095,0.0,691.4,7,2,1.7,0,0.0,-1,0.0,,0.0,0,0.01,1.549
92963,1627392971036,,,248,247,251,246,,-0.03,-0.02,1.09,0,0,-0,0.03,,65,2579,6,31,81,0.873,0.0,317,4.77,13.2,0.0,1,6.2,3.0,3.5,0,0,0,1,0,,,,,,,,,,,,,,,,,,,,
92983,1627392971056,,,248,247,251,246,,-0.04,-0.01,1.1,0,-0,-1,0.04,,65,2530,6,31,81,0.873,0.0,313,4.73,13.2,0.0,1,6.2,2.99,3.5,0,0,0,1,0,,,,,,,,,,,,,,,,,,,,
93003,1627392971076,,,248,247,251,246,,-0.05,-0.01,1.05,0,1,-0,0.05,,65,2544,6,31,81,0.874,0.0,313,4.75,13.0,0.0,1,6.2,3.0,3.5,0,0,0,1,0,,,,,,,,,,,,,,,,,,,,
93023,1627392971108,,,248,247,251,246,,-0.03,-0.01,1.1,0,0,-0,0.03,,65,2565,6,31,81,0.873,0.0,315,4.75,13.0,0.0,1,6.2,3.0,3.5,0,0,0,1,0,,,,,,,,,,,,,,,,,,,,
93043,1627392971128,-1,2,248,247,251,246,-5,-0.04,-0.01,1.09,0,-0,-0,0.04,1,65,2505,6,31,81,0.873,0.0,311,4.71,13.2,0.0,1,6.0,2.99,3.5,0,0,0,1,0,0,250,250,0,47.220268,14.763095,0.0,691.4,7,2,1.7,0,0.0,-1,0.0,0.0,0.0,0,0.01,1.5507
93063,1627392971148,,,248,247,251,246,,-0.04,-0.01,1.04,0,0,-0,0.04,,65,2448,6,31,81,0.871,0.0,307,4.73,13.1,0.0,1,6.0,2.99,3.5,0,0,0,1,0,,,,,,,,,,,,,,,,,,,,
93083,1627392971168,,,248,246,251,246,,-0.03,-0.01,1.03,0,0,-0,0.03,,65,2459,6,31,81,0.871,0.0,305,4.76,13.1,0.0,1,6.0,2.99,3.5,0,0,0,1,0,,,,,,,,,,,,,,,,,,,,
93103,1627392971188,,,248,247,251,246,,-0.04,-0.01,1.07,0,-0,-0,0.04,,65,2486,6,31,81,0.871,0.0,307,4.75,13.2,0.0,1,6.0,2.99,3.4,0,0,0,1,0,,,,,,,,,,,,,,,,,,,,
93123,1627392971210,,,248,247,251,246,,-0.04,-0.01,1.05,0,0,-0,0.04,,65,2410,6,31,81,0.87,0.0,302,4.71,12.8,0.0,1,6.0,2.99,3.4,0,0,0,1,0,,,,,,,,,,,,,,,,,,,,
93143,1627392971230,1,2,248,247,251,246,-5,-0.03,-0.02,1.0,0,0,-0,0.04,1,65,2365,6,31,82,0.871,0.0,297,4.77,13.2,0.0,1,6.0,3.01,3.4,0,0,0,1,0,0,250,250,0,47.220268,14.763095,0.0,691.4,7,2,1.7,0,0.0,-1,0.0,,0.0,0,0.01,1.5524
93163,1627392971250,,,248,248,251,246,,-0.04,-0.01,1.05,0,0,-0,0.04,,65,2416,6,31,81,0.871,0.0,298,4.73,13.1,0.0,1,6.0,2.99,3.4,0,0,0,1,0,,,,,,,,,,,,,,,,,,,,
93183,1627392971270,,,248,247,251,246,,-0.03,-0.01,1.02,0,0,-0,0.04,,65,2420,6,31,82,0.871,0.0,294,4.75,13.2,0.0,1,6.0,3.01,3.4,0,0,0,1,0,,,,,,,,,,,,,,,,,,,,
93203,1627392971290,,,248,247,251,246,,-0.04,-0.01,1.07,0,-0,-0,0.04,,65,2344,6,31,82,0.869,0.0,294,4.75,13.2,0.0,1,6.0,3.01,3.2,0,0,0,1,0,,,,,,,,,,,,,,,,,,,,
93223,1627392971310,,,248,247,251,246,,-0.04,-0.01,1.06,0,0,-0,0.04,,65,2291,6,31,82,0.869,0.0,290,4.72,13.0,0.0,1,6.0,3.01,3.2,0,0,0,1,0,,,,,,,,,,,,,,,,,,,,
93243,1627392971330,0,1,248,247,251,246,-5,-0.04,-0.0,1.08,0,-0,-0,0.04,1,65,2337,6,31,82,0.869,0.0,287,4.73,13.2,0.0,1,5.8,3.01,3.2,0,0,0,1,0,0,250,250,0,47.220268,14.763095,0.0,691.4,7,2,1.7,0,0.0,-1,0.0,0.0,0.0,0,0.01,1.554
93263,1627392971350,,,248,247,251,246,,-0.04,-0.0,1.05,0,0,-0,0.04,,65,2357,6,31,82,0.867,0.0,289,4.71,12.8,0.0,1,5.8,3.01,3.2,0,0,0,1,0,,,,,,,,,,,,,,,,,,,,
93283,1627392971370,,,248,247,251,246,,-0.03,-0.01,1.01,0,0,-0,0.03,,65,2331,6,31,82,0.867,0.0,288,4.75,13.2,0.0,1,5.8,3.01,3.2,0,0,0,1,0,,,,,,,,,,,,,,,,,,,,
93303,1627392971390,,,248,247,251,246,,-0.04,-0.01,1.0,0,1,-0,0.04,,65,2269,6,31,82,0.866,0.0,285,4.72,13.1,0.0,1,5.8,3.01,3.1,0,0,0,1,0,,,,,,,,,,,,,,,,,,,,
93323,1627392971410,,,248,247,251,246,,-0.03,-0.01,0.99,0,0,-0,0.03,,65,2287,6,31,83,0.865,0.0,281,4.77,13.2,0.0,1,5.8,3.04,3.1,0,0,0,1,0,,,,,,,,,,,,,,,,,,,,
93343,1627392971430,0,0,248,248,251,246,-5,-0.04,0.0,0.98,0,0,-0,0.04,1,65,2325,6,31,82,0.864,0.0,285,4.74,13.1,0.0,1,5.8,3.01,3.1,0,0,0,1,0,0,250,250,0,47.220268,14.763095,0.0,691.4,7,2,1.7,0,0.0,-1,0.0,,0.0,0,0.01,1.5557
93363,1627392971450,,,248,247,251,245,,-0.03,-0.0,0.99,0,0,-0,0.03,,65,2316,6,31,83,0.865,0.0,283,4.76,13.2,0.0,1,5.8,3.04,3.1,0,0,0,1,0,,,,,,,,,,,,,,,,,,,,
93383,1627392971470,,,248,247,251,246,,-0.03,-0.0,1.0,0,0,-0,0.03,,65,2227,6,31,82,0.863,0.0,279,4.76,13.1,0.0,1,5.8,3.01,3.1,0,0,0,1,0,,,,,,,,,,,,,,,,,,,,
93403,1627392971490,,,248,247,251,246,,-0.03,-0.01,0.97,0,-0,-0,0.03,,65,2205,6,31,83,0.863,0.0,277,4.77,13.2,0.0,1,5.8,3.04,3.1,0,0,0,1,0,,,,,,,,,,,,,,,,,,,,
93423,1627392971509,,,248,248,251,246,,-0.04,-0.01,1.01,0,-0,-0,0.04,,65,2276,6,31,82,0.861,0.0,280,4.76,13.1,0.0,1,5.8,3.01,3.1,0,0,0,1,0,,,,,,,,,,,,,,,,,,,,
93443,1627392971529,-1,2,248,247,251,246,-5,-0.03,-0.01,0.99,0,-0,-0,0.03,1,65,2276,6,31,83,0.862,0.0,278,4.76,13.2,0.0,1,5.6,3.04,3.1,0,0,0,1,0,0,250,250,0,47.220268,14.763095,0.0,691.4,7,2,1.7,0,0.0,-1,0.0,0.0,0.0,0,0.01,1.5574
93463,1627392971549,,,248,248,251,246,,-0.03,-0.01,0.99,0,0,-0,0.04,,65,2232,6,31,82,0.86,0.0,277,4.76,13.0,0.0,1,5.6,3.01,3.1,0,0,0,1,0,,,,,,,,,,,,,,,,,,,,
93483,1627392971569,,,248,247,251,246,,-0.03,-0.02,0.96,0,0,-0,0.03,,65,2190,6,31,83,0.861,0.0,276,4.78,13.2,0.0,1,5.6,3.04,3.1,0,0,0,1,0,,,,,,,,,,,,,,,,,,,,
93503,1627392971589,,,248,248,251,246,,-0.03,-0.02,0.95,0,0,-0,0.04,,65,2216,6,31,83,0.861,0.0,272,4.76,13.1,0.0,1,5.6,3.04,3.0,0,0,0,1,0,,,,,,,,,,,,,,,,,,,,
93523,1627392971609,,,248,247,251,246,,-0.03,-0.02,0.93,0,0,-0,0.03,,65,2242,6,31,83,0.861,0.0,273,4.76,13.2,0.0,1,5.6,3.04,3.0,0,0,0,1,0,,,,,,,,,,,,,,,,,,,,
93543,1627392971629,0,1,248,247,251,246,-5,-0.03,-0.01,0.92,0,0,-0,0.03,1,65,2213,6,31,83,0.862,0.0,273,4.74,12.8,0.0,1,5.6,3.04,3.0,0,0,0,1,0,0,250,250,0,47.220268,14.763095,0.0,691.4,7,2,1.7,0,0.0,-1,0.0,,0.0,0,0.01,1.5591
93563,1627392971649,,,248,248,251,246,,-0.03,-0.01,0.9,0,0,0,0.03,,65,2171,6,31,83,0.862,0.0,272,4.72,13.2,0.0,1,5.6,3.04,3.0,0,0,0,1,0,,,,,,,,,,,,,,,,,,,,
93583,1627392971669,,,248,247,251,246,,-0.03,-0.01,0.89,0,1,0,0.03,,65,2215,6,31,83,0.862,0.0,269,4.7,12.8,0.0,1,5.6,1.93,3.0,0,0,0,1,0,,,,,,,,,,,,,,,,,,,,
93603,1627392971689,,,248,247,251,246,,-0.03,-0.01,0.9,0,0,0,0.03,,65,2265,6,31,83,0.862,0.0,273,4.76,13.2,0.0,1,5.6,3.04,3.1,0,0,0,1,0,,,,,,,,,,,,,,,,,,,,
93623,1627392971709,,,248,247,251,246,,-0.03,-0.01,0.88,0,1,0,0.03,,65,2269,6,31,83,0.861,0.0,276,4.69,12.8,0.0,1,5.6,1.93,3.1,0,0,0,1,0,,,,,,,,,,,,,,,,,,,,
93643,1627392971729,-1,2,248,247,251,246,-5,-0.03,-0.02,0.89,0,0,0,0.03,1,65,2243,6,31,83,0.859,0.0,275,4.75,13.2,0.0,1,5.4,3.04,3.1,0,0,0,1,0,0,250,250,0,47.220268,14.763095,0.0,691.4,7,2,1.7,0,0.0,-1,0.0,0.0,0.0,0,0.01,1.5607
93663,1627392971749,,,248,247,251,246,,-0.03,-0.01,0.9,0,1,0,0.03,,65,2206,6,31,83,0.86,0.0,271,4.68,12.7,0.0,1,5.4,3.04,3.1,0,0,0,1,0,,,,,,,,,,,,,,,,,,,,
93683,1627392971769,,,248,247,251,246,,-0.03,-0.01,0.9,0,0,-0,0.03,,65,2217,6,31,83,0.858,0.0,273,4.73,13.2,0.0,1,5.4,3.04,3.1,0,0,0,1,0,,,,,,,,,,,,,,,,,,,,
93703,1627392971789,,,248,247,251,246,,-0.03,-0.01,0.89,0,1,-0,0.03,,65,2289,6,31,83,0.856,0.0,276,4.68,12.7,0.0,1,5.4,1.93,3.1,0,0,0,1,0,,,,,,,,,,,,,,,,,,,,
93723,1627392971809,,,248,247,251,246,,-0.03,-0.01,0.89,0,1,-0,0.03,,65,2256,6,31,83,0.855,0.0,275,4.75,13.2,0.0,1,5.4,3.04,3.1,0,0,0,1,0,,,,,,,,,,,,,,,,,,,,
93743,1627392971829,-1,2,248,247,251,246,-4,-0.03,-0.02,0.88,0,1,0,0.03,1,65,2225,6,31,83,0.853,0.0,276,4.69,12.8,0.0,1,5.4,3.04,3.1,0,0,0,1,0,0,250,250,0,47.220268,14.763095,0.0,691.4,7,2,1.7,0,0.0,-1,0.0,,0.0,0,0.01,1.5624
93763,1627392971849,,,248,247,251,246,,-0.03,-0.02,0.89,0,1,-0,0.03,,65,2255,6,31,83,0.852,0.0,277,4.73,13.2,0.0,1,5.4,3.04,3.1,0,0,0,1,0,,,,,,,,,,,,,,,,,,,,
93783,1627392971869,,,248,247,251,246,,-0.03,-0.01,0.86,0,1,0,0.03,,65,2298,6,31,83,0.851,0.0,279,4.72,12.8,0.0,1,5.4,3.04,3.1,0,0,0,1,0,,,,,,,,,,,,,,,,,,,,
93803,1627392971889,,,248,247,251,246,,-0.02,-0.02,0.88,0,1,-0,0.03,,65,2288,6,31,83,0.851,0.0,279,4.77,13.2,0.0,1,5.4,3.04,3.2,0,0,0,1,0,,,,,,,,,,,,,,,,,,,,
93823,1627392971909,,,248,247,251,246,,-0.03,-0.01,0.89,0,1,-0,0.03,,65,2221,6,31,83,0.849,0.0,278,4.73,12.9,0.0,1,5.4,3.04,3.2,0,0,0,1,0,,,,,,,,,,,,,,,,,,,,
93843,1627392971929,-0,2,248,246,251,246,-5,-0.02,-0.02,0.87,0,1,0,0.03,1,65,2237,6,31,83,0.848,0.0,275,4.78,13.2,0.0,1,5.2,3.04,3.2,0,0,0,1,0,0,250,250,0,47.220268,14.763095,0.0,691.4,7,2,1.7,0,0.0,-1,0.0,0.0,0.0,0,0.01,1.564
93863,1627392971949,,,248,247,251,246,,-0.03,-0.01,0.86,0,1,0,0.03,,65,2294,6,31,83,0.846,0.0,277,4.73,12.9,0.0,1,5.2,3.04,3.2,0,0,0,1,0,,,,,,,,,,,,,,,,,,,,
93883,1627392971969,,,248,247,251,246,,-0.02,-0.01,0.84,0,1,0,0.03,,65,2269,6,31,83,0.845,0.0,279,4.75,13.2,0.0,1,5.2,3.04,3.2,0,0,0,1,0,,,,,,,,,,,,,,,,,,,,
93903,1627392971989,,,248,247,251,246,,-0.03,-0.01,0.84,0,1,0,0.03,,65,2239,6,31,83,0.843,0.0,279,4.73,12.9,0.0,1,5.2,3.04,3.1,0,0,0,1,0,,,,,,,,,,,,,,,,,,,,
93923,1627392971995,,,248,247,251,246,,-0.02,-0.02,0.83,0,1,0,0.03,,65,2235,6,31,83,0.841,0.0,273,4.75,13.2,0.0,1,5.2,3.04,3.1,0,0,0,1,0,,,,,,,,,,,,,,,,,,,,
93943,1627392972015,-1,2,248,247,251,246,-4,-0.03,-0.01,0.82,0,1,0,0.03,1,65,2318,6,31,83,0.841,0.0,280,4.71,12.8,0.0,1,5.2,3.04,3.1,0,0,0,1,0,0,250,250,0,47.220268,14.763095,0.0,691.4,7,2,1.7,0,0.0,-1,0.0,,0.0,0,0.01,1.5657
93963,1627392972035,,,248,247,251,246,,-0.02,-0.01,0.82,0,1,0,0.02,,65,2300,6,31,83,0.84,0.0,280,4.76,13.2,0.0,1,5.2,3.04,3.1,0,0,0,1,0,,,,,,,,,,,,,,,,,,,,
93983,1627392972055,,,248,248,251,246,,-0.02,-0.01,0.82,0,1,0,0.02,,65,2253,6,31,82,0.841,0.0,281,4.73,13.0,0.0,1,5.2,3.01,3.1,0,0,0,1,0,,,,,,,,,,,,,,,,,,,,
94003,1627392972075,,,248,247,251,246,,-0.02,-0.01,0.8,0,1,0,0.02,,65,2250,6,31,83,0.841,0.0,277,4.76,13.2,0.0,1,5.2,3.04,3.1,0,0,0,1,0,,,,,,,,,,,,,,,,,,,,
94023,1627392972107,,,248,247,251,246,,-0.02,-0.01,0.83,0,1,0,0.02,,65,2295,6,31,83,0.841,0.0,282,4.75,13.1,0.0,1,5.2,3.04,3.1,0,0,0,1,0,,,,,,,,,,,,,,,,,,,,
94043,1627392972127,-0,2,248,247,251,246,-5,-0.01,-0.01,0.83,0,0,0,0.02,1,65,2303,6,31,83,0.84,0.0,280,4.77,13.2,0.0,1,5.0,3.04,3.1,0,0,0,1,0,0,250,250,0,47.220268,14.763095,0.0,691.4,7,2,1.7,0,0.0,-1,0.0,0.0,0.0,0,0.01,1.5674
94063,1627392972147,,,248,248,251,246,,-0.02,-0.01,0.84,0,1,0,0.03,,65,2236,6,31,83,0.841,0.0,277,4.75,13.2,0.0,1,5.0,3.04,3.1,0,0,0,1,0,,,,,,,,,,,,,,,,,,,,
94083,1627392972167,,,248,247,251,246,,-0.02,-0.01,0.84,0,0,0,0.02,,65,2223,6,31,83,0.841,0.0,275,4.75,13.2,0.0,1,5.0,3.04,3.1,0,0,0,1,0,,,,,,,,,,,,,,,,,,,,
94103,1627392972187,,,248,248,251,246,,-0.02,-0.0,0.88,0,0,0,0.02,,65,2237,6,31,83,0.841,0.0,277,4.76,13.1,0.0,1,5.0,3.04,3.1,0,0,0,1,0,,,,,,,,,,,,,,,,,,,,
94123,1627392972209,,,248,247,251,246,,-0.02,-0.01,0.86,0,0,0,0.02,,65,2249,6,31,83,0.842,0.0,272,4.76,13.2,0.0,1,5.0,3.04,3.1,0,0,0,1,0,,,,,,,,,,,,,,,,,,,,
94143,1627392972229,1,0,248,248,251,246,-5,-0.02,-0.01,0.89,0,0,0,0.03,1,65,2247,6,31,83,0.846,0.0,276,4.75,13.1,0.0,1,5.0,3.04,3.1,0,0,0,1,0,0,250,250,0,47.220268,14.763095,0.0,691.4,7,2,1.7,0,0.0,-1,0.0,,0.0,0,0.01,1.5691
94163,1627392972249,,,248,248,251,246,,-0.01,-0.01,0.89,0,-0,-0,0.02,,65,2221,6,31,83,0.846,0.0,275,4.76,13.2,0.0,1,5.0,3.04,3.1,0,0,0,1,0,,,,,,,,,,,,,,,,,,,,
94183,1627392972269,,,248,248,251,246,,-0.02,-0.01,0.91,0,0,0,0.02,,65,2212,6,31,83,0.848,0.0,273,4.76,13.1,0.0,1,13.0,3.04,3.1,0,0,0,1,0,,,,,,,,,,,,,,,,,,,,
94203,1627392972289,,,248,247,251,246,,-0.02,-0.01,0.88,0,0,0,0.02,,65,2215,6,31,83,0.849,0.0,273,4.75,13.2,0.0,1,5.0,3.04,3.1,0,0,0,1,0,,,,,,,,,,,,,,,,,,,,
94223,1627392972309,,,248,248,251,246,,-0.02,-0.01,0.93,0,0,0,0.03,,65,2250,6,31,83,0.851,0.0,276,4.71,12.8,0.0,1,5.0,3.04,3.1,0,0,0,1,0,,,,,,,,,,,,,,,,,,,,
94243,1627392972329,1,2,248,248,251,246,-5,-0.02,-0.01,0.92,0,-0,0,0.02,1,65,2226,6,31,83,0.851,0.0,275,4.76,13.2,0.0,1,4.8,3.04,3.1,0,0,0,1,0,0,250,250,0,47.220268,14.763095,0.0,691.4,7,2,1.7,0,0.0,-1,0.0,0.0,0.0,0,0.01,1.5707
94263,1627392972349,,,248,247,251,246,,-0.02,-0.01,0.91,0,0,0,0.02,,65,2193,6,31,83,0.852,0.0,271,4.73,12.9,0.0,1,4.8,1.93,3.1,0,0,0,1,0,,,,,,,,,,,,,,,,,,,,
94283,1627392972369,,,248,247,251,246,,-0.02,-0.02,0.9,0,0,0,0.03,,65,2204,6,31,83,0.852,0.0,273,4.74,13.2,0.0,1,4.8,3.04,3.1,0,0,0,1,0,,,,,,,,,,,,,,,,,,,,
94303,1627392972389,,,248,247,251,246,,-0.02,-0.0,0.89,0,0,0,0.03,,65,2260,6,31,83,0.852,0.0,275,4.72,12.8,0.0,1,4.8,1.93,3.1,0,0,0,1,0,,,,,,,,,,,,,,,,,,,,
94323,1627392972409,,,248,247,251,246,,-0.02,-0.01,0.88,0,0,0,0.02,,65,2253,6,31,83,0.853,0.0,275,4.76,13.2,0.0,1,4.8,1.93,3.1,0,0,0,1,0,,,,,,,,,,,,,,,,,,,,
94343,1627392972429,1,1,248,247,251,246,-6,-0.03,-0.01,0.86,0,1,0,0.03,1,65,2224,6,31,83,0.854,0.0,273,4.71,12.8,0.0,1,4.8,1.93,3.1,0,0,0,1,0,0,250,250,0,47.220268,14.763095,0.0,691.4,7,2,1.7,0,0.0,-1,0.0,,0.0,0,0.01,1.5724
94363,1627392972449,,,248,247,251,246,,-0.02,-0.02,0.86,0,0,0,0.03,,65,2205,6,31,83,0.855,0.0,275,4.71,13.2,0.0,1,4.8,3.04,3.1,0,0,0,1,0,,,,,,,,,,,,,,,,,,,,
94383,1627392972469,,,248,247,251,246,,-0.03,-0.01,0.86,0,1,0,0.03,,65,2230,6,31,83,0.856,0.0,273,4.7,12.9,0.0,1,4.8,3.04,3.1,0,0,0,1,0,,,,,,,,,,,,,,,,,,,,
94403,1627392972489,,,248,248,251,246,,-0.02,-0.02,0.86,0,0,0,0.03,,65,2237,6,31,83,0.855,0.0,273,4.76,13.2,0.0,1,4.8,3.04,3.1,0,0,0,1,0,,,,,,,,,,,,,,,,,,,,
94423,1627392972509,,,248,247,251,246,,-0.03,-0.01,0.86,0,1,0,0.03,,65,2234,6,31,83,0.856,0.0,275,4.68,12.9,0.0,1,4.8,1.93,3.1,0,0,0,1,0,,,,,,,,,,,,,,,,,,,,
94443,1627392972529,0,2,248,247,251,246,-5,-0.03,-0.01,0.86,0,0,-0,0.03,1,65,2227,6,31,83,0.855,0.0,276,4.73,13.2,0.0,1,4.6,3.04,3.1,0,0,0,1,0,0,250,250,0,47.220268,14.763095,0.0,691.4,7,2,1.7,0,0.0,-1,0.0,0.0,0.0,0,0.01,1.574
94463,1627392972549,,,248,247,251,246,,-0.03,-0.01,0.89,0,0,-0,0.03,,65,2238,6,31,83,0.856,0.0,273,4.72,13.1,0.0,1,4.6,3.04,3.1,0,0,0,1,0,,,,,,,,,,,,,,,,,,,,
94483,1627392972569,,,248,247,251,246,,-0.03,-0.01,0.88,0,0,-0,0.03,,65,2230,6,31,83,0.855,0.0,274,4.72,13.2,0.0,1,4.6,3.04,3.1,0,0,0,1,0,,,,,,,,,,,,,,,,,,,,
94503,1627392972589,,,248,247,251,246,,-0.03,-0.01,0.89,0,0,-0,0.03,,65,2191,6,31,83,0.855,0.0,273,4.75,13.1,0.0,1,4.6,3.04,3.1,0,0,0,1,0,,,,,,,,,,,,,,,,,,,,
94523,1627392972610,,,248,248,251,246,,-0.03,-0.0,0.94,0,0,-0,0.03,,65,2199,6,31,83,0.855,0.0,273,4.76,13.2,0.0,1,4.6,3.04,3.1,0,0,0,1,0,,,,,,,,,,,,,,,,,,,,
94543,1627392972630,0,2,248,247,251,246,-5,-0.03,-0.0,0.93,0,0,-0,0.03,1,65,2232,6,31,83,0.855,0.0,272,4.72,13.1,0.0,1,4.6,1.93,3.1,0,0,0,1,0,0,250,250,0,47.220268,14.763095,0.0,691.4,7,2,1.7,0,0.0,-1,0.0,,0.0,0,0.01,1.5757
94563,1627392972650,,,248,247,251,246,,-0.04,0.0,0.95,0,0,-0,0.04,,65,2212,6,31,83,0.855,0.0,273,4.74,13.2,0.0,1,4.6,3.04,3.1,0,0,0,1,0,,,,,,,,,,,,,,,,,,,,
94583,1627392972670,,,248,247,251,246,,-0.03,0.0,0.95,0,0,-0,0.03,,65,2189,6,31,83,0.856,0.0,273,4.72,13.2,0.0,1,4.6,1.93,3.1,0,0,0,1,0,,,,,,,,,,,,,,,,,,,,
94603,1627392972690,,,248,248,251,246,,-0.04,0.01,0.98,0,0,-0,0.04,,65,2169,6,31,83,0.856,0.0,268,4.73,13.2,0.0,1,4.6,3.04,3.0,0,0,0,1,0,,,,,,,,,,,,,,,,,,,,
94623,1627392972708,,,248,247,251,246,,-0.03,-0.01,0.98,0,-0,-0,0.03,,65,2228,6,31,83,0.856,0.0,272,4.75,13.2,0.0,1,4.6,3.04,3.0,0,0,0,1,0,,,,,,,,,,,,,,,,,,,,
94643,1627392972728,0,2,248,248,251,246,-5,-0.04,0.0,1.02,0,-0,-0,0.04,1,65,2273,6,31,83,0.856,0.0,276,4.76,13.1,0.0,1,4.4,1.93,3.0,0,0,0,1,0,0,250,250,0,47.220268,14.763095,0.0,691.4,7,2,1.7,0,0.0,-1,0.0,0.0,0.0,0,0.01,1.5774
94663,1627392972748,,,248,247,251,246,,-0.04,-0.01,1.01,0,-0,-0,0.04,,65,2273,6,31,83,0.856,0.0,276,4.76,13.2,0.0,1,4.4,1.93,3.0,0,0,0,1,0,,,,,,,,,,,,,,,,,,,,
94683,1627392972768,,,248,248,251,246,,-0.04,-0.0,1.02,0,0,-0,0.04,,65,2211,6,31,83,0.855,0.0,274,4.77,13.1,0.0,1,4.4,3.04,3.0,0,0,0,1,0,,,,,,,,,,,,,,,,,,,,
94703,1627392972788,,,248,247,251,246,,-0.03,-0.01,1.03,0,-0,-0,0.04,,65,2211,6,31,83,0.856,0.0,275,4.76,13.2,0.0,1,4.4,3.04,3.1,0,0,0,1,0,,,,,,,,,,,,,,,,,,,,
94723,1627392972810,,,248,247,251,246,,-0.04,-0.01,1.05,0,-0,-0,0.04,,65,2273,6,31,83,0.853,0.0,276,4.77,13.1,0.0,1,4.4,3.04,3.1,0,0,0,1,0,,,,,,,,,,,,,,,,,,,,
94743,1627392972830,0,2,248,247,251,245,-5,-0.03,-0.01,1.03,0,-0,-0,0.04,1,65,2258,6,31,83,0.853,0.0,276,4.76,13.2,0.0,1,4.4,3.04,3.1,0,0,0,1,0,0,250,250,0,47.220268,14.763095,0.0,691.4,7,2,1.7,0,0.0,-1,0.0,,0.0,0,0.01,1.5791
94763,1627392972850,,,248,247,251,246,,-0.04,-0.01,1.04,0,-0,-0,0.04,,65,2194,6,31,83,0.853,0.0,275,4.77,13.1,0.0,1,4.4,3.04,3.1,0,0,0,1,0,,,,,,,,,,,,,,,,,,,,
94783,1627392972870,,,248,248,251,246,,-0.03,-0.02,1.03,0,-0,-0,0.04,,65,2210,6,31,83,0.853,0.0,274,4.76,13.2,0.0,1,13.0,3.04,3.1,0,0,0,1,0,,,,,,,,,,,,,,,,,,,,
94803,1627392972890,,,248,248,251,246,,-0.04,-0.01,1.06,0,-0,-0,0.05,,65,2286,6,31,83,0.853,0.0,278,4.75,13.0,0.0,1,4.4,3.04,3.1,0,0,0,1,0,,,,,,,,,,,,,,,,,,,,
94823,1627392972910,,,248,247,251,246,,-0.03,-0.02,1.05,0,-0,-0,0.04,,65,2311,6,31,83,0.854,0.0,278,4.76,13.2,0.0,1,4.4,3.04,3.1,0,0,0,1,0,,,,,,,,,,,,,,,,,,,,
94843,1627392972930,-1,2,248,248,251,246,-5,-0.04,-0.02,1.04,0,0,-0,0.05,1,65,2233,6,31,83,0.855,0.0,279,4.75,13.1,0.0,1,4.2,3.04,3.1,0,0,0,1,0,0,250,250,0,47.220268,14.763095,0.0,691.4,7,2,1.7,0,0.0,-1,0.0,0.0,0.0,0,0.01,1.5807
94863,1627392972950,,,248,247,251,246,,-0.03,-0.03,1.02,0,-0,-0,0.04,,65,2190,6,31,83,0.855,0.0,273,4.76,13.2,0.0,1,4.2,3.04,3.1,0,0,0,1,0,,,,,,,,,,,,,,,,,,,,
94883,1627392972970,,,248,248,251,246,,-0.04,-0.02,1.05,0,0,-0,0.04,,65,2268,6,31,83,0.855,0.0,274,4.73,13.0,0.0,1,4.2,3.04,3.1,0,0,0,1,0,,,,,,,,,,,,,,,,,,,,
94903,1627392972990,,,248,247,251,246,,-0.03,-0.03,1.02,0,-0,0,0.04,,65,2298,6,31,83,0.856,0.0,277,4.77,13.2,0.0,1,4.2,3.04,3.2,0,0,0,1,0,,,,,,,,,,,,,,,,,,,,
94923,1627392972996,,,248,247,251,246,,-0.04,-0.02,1.04,0,-0,-0,0.05,,65,2283,6,31,83,0.855,0.0,281,4.78,13.2,0.0,1,4.2,3.04,3.2,0,0,0,1,0,,,,,,,,,,,,,,,,,,,,
94943,1627392973016,-0,0,248,247,251,246,-5,-0.03,-0.03,1.03,0,-0,-0,0.04,1,65,2238,6,31,83,0.854,0.0,273,4.75,13.2,0.0,1,4.2,3.04,3.2,0,0,0,1,0,0,250,250,0,47.220268,14.763095,0.0,691.4,7,2,1.7,0,0.0,-1,0.0,,0.0,0,0.01,1.5824
94963,1627392973036,,,248,248,251,246,,-0.04,-0.02,1.04,0,-0,-0,0.04,,65,2196,6,31,83,0.855,0.0,276,4.74,13.0,0.0,1,4.2,3.04,3.2,0,0,0,1,0,,,,,,,,,,,,,,,,,,,,
94983,1627392973056,,,248,247,251,246,,-0.03,-0.03,1.01,0,-0,-0,0.04,,65,2216,6,31,83,0.856,0.0,273,4.77,13.2,0.0,1,4.2,3.04,3.2,0,0,0,1,0,,,,,,,,,,,,,,,,,,,,
95003,1627392973076,,,248,247,251,246,,-0.03,-0.03,1.01,0,0,-0,0.04,,65,2238,6,31,83,0.857,0.0,274,4.7,12.9,0.0,1,4.2,3.04,3.1,0,0,0,1,0,,,,,,,,,,,,,,,,,,,,
95023,1627392973108,,,248,248,251,246,,-0.02,-0.03,1.0,0,-0,-0,0.04,,65,2203,6,31,83,0.858,0.0,271,4.76,13.2,0.0,1,4.2,3.04,3.1,0,0,0,1,0,,,,,,,,,,,,,,,,,,,,
95043,1627392973128,0,0,248,247,251,246,-4,-0.03,-0.03,0.99,0,0,-0,0.04,1,65,2174,6,31,83,0.858,0.0,272,4.73,12.9,0.0,1,4.0,3.04,3.1,0,0,0,1,0,0,250,250,0,47.220268,14.763095,0.0,691.4,7,2,1.7,0,0.0,-1,0.0,0.0,0.0,0,0.01,1.584
95063,1627392973148,,,248,247,251,246,,-0.02,-0.04,0.95,0,-0,0,0.05,,65,2224,6,31,83,0.859,0.0,273,4.73,13.2,0.0,1,4.0,3.04,3.1,0,0,0,1,0,,,,,,,,,,,,,,,,,,,,
95083,1627392973168,,,248,247,251,246,,-0.03,-0.03,0.95,0,0,0,0.04,,65,2289,6,31,83,0.859,0.0,274,4.72,12.9,0.0,1,4.0,3.04,3.1,0,0,0,1,0,,,,,,,,,,,,,,,,,,,,
95103,1627392973188,,,248,248,251,246,,-0.02,-0.03,0.94,0,0,0,0.03,,65,2295,6,31,83,0.858,0.0,276,4.77,13.2,0.0,1,4.0,3.04,3.2,0,0,0,1,0,,,,,,,,,,,,,,,,,,,,
95123,1627392973210,,,248,247,251,246,,-0.02,-0.02,0.93,0,0,0,0.03,,65,2228,6,31,83,0.858,0.0,279,4.72,12.8,0.0,1,4.0,3.04,3.2,0,0,0,1,0,,,,,,,,,,,,,,,,,,,,
95143,1627392973230,0,1,248,247,251,246,-6,-0.02,-0.02,0.91,0,0,0,0.03,1,65,2216,6,31,83,0.857,0.0,275,4.76,13.2,0.0,1,4.0,3.04,3.2,0,0,0,1,0,0,250,250,0,47.220268,14.763095,0.0,691.4,7,2,1.7,0,0.0,-1,0.0,,0.0,0,0.01,1.5857
95163,1627392973250,,,248,247,251,246,,-0.02,-0.01,0.9,0,1,0,0.03,,65,2277,6,31,83,0.857,0.0,274,4.69,12.8,0.0,1,4.0,3.04,3.2,0,0,0,1,0,,,,,,,,,,,,,,,,,,,,
95183,1627392973270,,,248,247,251,246,,-0.01,-0.02,0.9,0,0,0,0.02,,65,2287,6,31,83,0.857,0.0,278,4.76,13.2,0.0,1,4.0,3.04,3.2,0,0,0,1,0,,,,,,,,,,,,,,,,,,,,
95203,1627392973290,,,248,248,251,246,,-0.02,-0.01,0.9,0,0,0,0.02,,65,2262,6,31,83,0.858,0.0,277,4.75,13.0,0.0,1,4.0,3.04,3.1,0,0,0,1,0,,,,,,,,,,,,,,,,,,,,
95223,1627392973308,,,248,247,251,246,,-0.01,-0.02,0.86,0,0,0,0.02,,65,2230,6,31,83,0.858,0.0,276,4.76,13.2,0.0,1,4.0,3.04,3.1,0,0,0,1,0,,,,,,,,,,,,,,,,,,,,
95243,1627392973328,-1,2,248,247,251,246,-5,-0.02,-0.01,0.88,0,1,0,0.02,1,65,2268,6,31,83,0.86,0.0,278,4.71,12.8,0.0,1,3.8,3.04,3.1,0,0,0,1,0,0,250,250,0,47.220268,14.763095,0.0,691.4,7,2,1.7,0,0.0,-1,0.0,0.0,0.0,0,0.01,1.5874
95263,1627392973348,,,248,248,251,246,,-0.01,-0.01,0.86,0,0,0,0.02,,65,2257,6,31,83,0.857,0.0,278,4.77,13.2,0.0,1,3.8,3.04,3.1,0,0,0,1,0,,,,,,,,,,,,,,,,,,,,
95283,1627392973368,,,248,247,251,246,,-0.02,-0.01,0.86,0,1,0,0.02,,65,2239,6,31,83,0.858,0.0,277,4.76,13.0,0.0,1,3.8,3.04,3.1,0,0,0,1,0,,,,,,,,,,,,,,,,,,,,
95303,1627392973388,,,248,247,251,246,,-0.01,-0.01,0.85,0,0,0,0.02,,65,2239,6,31,83,0.858,0.0,276,4.77,13.2,0.0,1,3.8,3.04,3.1,0,0,0,1,0,,,,,,,,,,,,,,,,,,,,
95323,1627392973410,,,248,248,251,246,,-0.02,-0.0,0.84,0,1,0,0.02,,65,2242,6,31,83,0.859,0.0,277,4.76,13.1,0.0,1,3.8,3.04,3.1,0,0,0,1,0,,,,,,,,,,,,,,,,,,,,
95343,1627392973430,-1,2,248,247,251,246,-5,-0.01,-0.01,0.84,0,0,0,0.01,1,65,2251,6,31,83,0.857,0.0,278,4.77,13.2,0.0,1,3.8,3.04,3.1,0,0,0,1,0,0,250,250,0,47.220268,14.763095,0.0,691.4,7,2,1.7,0,0.0,-1,0.0,,0.0,0,0.01,1.5891
95363,1627392973450,,,248,247,251,246,,-0.02,-0.0,0.84,0,0,0,0.02,,65,2231,6,31,83,0.856,0.0,276,4.75,13.0,0.0,1,3.8,3.04,3.1,0,0,0,1,0,,,,,,,,,,,,,,,,,,,,
95383,1627392973470,,,248,247,251,246,,-0.01,-0.0,0.82,0,0,1,0.01,,65,2228,6,31,83,0.855,0.0,276,4.77,13.2,0.0,1,3.8,3.04,3.1,0,0,0,1,0,,,,,,,,,,,,,,,,,,,,
95403,1627392973490,,,248,247,251,246,,-0.02,0.0,0.82,0,1,1,0.02,,65,2205,6,31,83,0.856,0.0,274,4.71,12.8,0.0,1,3.8,1.93,3.1,0,0,0,1,0,,,,,,,,,,,,,,,,,,,,
95423,1627392973510,,,248,247,251,246,,-0.01,0.0,0.82,0,0,1,0.01,,65,2260,6,31,83,0.856,0.0,273,4.76,13.2,0.0,1,3.8,3.04,3.1,0,0,0,1,0,,,,,,,,,,,,,,,,,,,,
95443,1627392973530,0,0,248,247,251,246,-5,-0.02,0.0,0.81,0,1,1,0.02,1,65,2287,6,31,83,0.857,0.0,277,4.7,12.9,0.0,1,3.6,3.04,3.1,0,0,0,1,0,0,250,250,0,47.220268,14.763095,0.0,691.4,7,2,1.7,0,0.0,-1,0.0,0.0,0.0,0,0.01,1.5907
95463,1627392973550,,,248,247,251,246,,-0.01,-0.0,0.82,0,0,0,0.01,,65,2315,6,31,83,0.856,0.0,280,4.75,13.2,0.0,1,3.6,3.04,3.1,0,0,0,1,0,,,,,,,,,,,,,,,,,,,,
95483,1627392973570,,,248,248,251,246,,-0.02,-0.0,0.81,0,1,0,0.02,,65,2256,6,31,83,0.857,0.0,276,4.76,13.1,0.0,1,3.6,3.04,3.1,0,0,0,1,0,,,,,,,,,,,,,,,,,,,,
95503,1627392973590,,,248,247,251,246,,-0.01,-0.0,0.82,0,0,0,0.01,,65,2263,6,31,83,0.855,0.0,278,4.75,13.2,0.0,1,3.6,3.04,3.1,0,0,0,1,0,,,,,,,,,,,,,,,,,,,,
95523,1627392973609,,,248,248,251,246,,-0.02,-0.0,0.86,0,0,0,0.02,,65,2321,6,31,83,0.855,0.0,281,4.78,13.1,0.0,1,3.6,3.04,3.1,0,0,0,1,0,,,,,,,,,,,,,,,,,,,,
95543,1627392973629,-1,2,248,248,251,246,-5,-0.01,-0.01,0.86,0,0,0,0.01,1,65,2288,6,31,83,0.854,0.0,279,4.76,13.2,0.0,1,3.6,3.04,3.1,0,0,0,1,0,0,250,250,0,47.220268,14.763095,0.0,691.4,7,2,1.7,0,0.0,-1,0.0,,0.0,0,0.01,1.5924
95563,1627392973649,,,248,248,251,246,,-0.02,-0.0,0.87,0,0,0,0.02,,65,2243,6,31,83,0.855,0.0,278,4.78,13.1,0.0,1,3.6,3.04,3.1,0,0,0,1,0,,,,,,,,,,,,,,,,,,,,
95583,1627392973669,,,248,247,251,246,,-0.01,-0.01,0.87,0,0,0,0.02,,65,2236,6,31,83,0.855,0.0,276,4.76,13.2,0.0,1,3.6,3.04,3.1,0,0,0,1,0,,,,,,,,,,,,,,,,,,,,
95603,1627392973689,,,248,248,251,246,,-0.02,-0.01,0.9,0,0,0,0.02,,65,2250,6,31,83,0.855,0.0,279,4.77,13.1,0.0,1,3.6,3.04,3.1,0,0,0,1,0,,,,,,,,,,,,,,,,,,,,
95623,1627392973709,,,248,247,251,245,,-0.01,-0.02,0.91,0,0,0,0.02,,65,2278,6,31,83,0.856,0.0,278,4.77,13.2,0.0,1,3.6,3.04,3.1,0,0,0,1,0,,,,,,,,,,,,,,,,,,,,
95643,1627392973729,-0,2,248,247,251,246,-5,-0.03,-0.02,0.93,0,0,0,0.03,1,65,2304,6,31,83,0.856,0.0,281,4.78,13.1,0.0,1,3.4,3.04,3.1,0,0,0,1,0,0,250,250,0,47.220268,14.763095,0.0,691.4,7,2,1.7,0,0.0,-1,0.0,0.0,0.0,0,0.01,1.594
95663,1627392973749,,,248,247,251,246,,-0.02,-0.02,0.94,0,-0,-0,0.03,,65,2297,6,31,83,0.856,0.0,282,4.73,13.2,0.0,1,3.4,3.04,3.1,0,0,0,1,0,,,,,,,,,,,,,,,,,,,,
95683,1627392973769,,,248,247,251,246,,-0.03,-0.02,0.98,0,-0,0,0.03,,65,2245,6,31,83,0.856,0.0,277,4.74,13.2,0.0,1,3.4,3.04,3.1,0,0,0,1,0,,,,,,,,,,,,,,,,,,,,
95703,1627392973789,,,248,247,251,246,,-0.02,-0.02,0.98,0,-0,0,0.03,,65,2259,6,31,83,0.857,0.0,277,4.76,13.2,0.0,1,3.4,1.93,3.1,0,0,0,1,0,,,,,,,,,,,,,,,,,,,,
95723,1627392973809,,,248,247,251,246,,-0.03,-0.01,1.0,0,-0,-0,0.03,,65,2274,6,31,83,0.857,0.0,281,4.76,13.2,0.0,1,3.4,3.04,3.1,0,0,0,1,0,,,,,,,,,,,,,,,,,,,,
95743,1627392973829,1,2,248,247,251,246,-5,-0.03,-0.02,1.0,0,-0,0,0.03,1,65,2277,6,31,83,0.857,0.0,277,4.75,13.2,0.0,1,3.4,1.93,3.1,0,0,0,1,0,0,250,250,0,47.220268,14.763095,0.0,691.4,7,2,1.7,0,0.0,-1,0.0,,0.0,0,0.01,1.5957
95763,1627392973849,,,248,247,251,246,,-0.04,-0.01,1.03,0,-0,0,0.04,,65,2223,6,31,83,0.858,0.0,276,4.76,13.2,0.0,1,3.4,3.04,3.1,0,0,0,1,0,,,,,,,,,,,,,,,,,,,,
95783,1627392973869,,,248,247,251,246,,-0.03,-0.01,1.03,0,-0,0,0.03,,65,2212,6,31,83,0.858,0.0,275,4.74,13.2,0.0,1,3.4,1.93,3.1,0,0,0,1,0,,,,,,,,,,,,,,,,,,,,
95803,1627392973889,,,248,248,251,246,,-0.04,-0.01,1.05,0,-0,0,0.04,,65,2263,6,31,83,0.859,0.0,277,4.74,13.2,0.0,1,3.4,3.04,3.1,0,0,0,1,0,,,,,,,,,,,,,,,,,,,,
95823,1627392973909,,,248,247,251,246,,-0.03,-0.01,1.05,0,-0,0,0.03,,65,2249,6,31,83,0.86,0.0,274,4.73,13.2,0.0,1,3.4,1.93,3.1,0,0,0,1,0,,,,,,,,,,,,,,,,,,,,
95843,1627392973929,-1,2,248,247,251,246,-4,-0.04,-0.0,1.07,0,-0,0,0.04,1,65,2250,6,31,83,0.86,0.0,276,4.76,13.2,0.0,1,3.2,3.04,3.1,0,0,0,1,0,0,250,250,0,47.220268,14.763095,0.0,691.4,7,2,1.7,0,0.0,-1,0.0,0.0,0.0,0,0.01,1.5974
95863,1627392973949,,,248,247,251,246,,-0.03,-0.01,1.07,0,-1,0,0.03,,65,2221,6,31,83,0.861,0.0,274,4.76,13.2,0.0,1,3.2,3.04,3.1,0,0,0,1,0,,,,,,,,,,,,,,,,,,,,
95883,1627392973969,,,248,247,251,246,,-0.04,-0.0,1.08,0,-1,0,0.04,,65,2228,6,31,83,0.861,0.0,276,4.76,13.1,0.0,1,3.2,3.04,3.1,0,0,0,1,0,,,,,,,,,,,,,,,,,,,,
95903,1627392973989,,,248,247,251,246,,-0.03,-0.01,1.08,0,-1,0,0.04,,65,2252,6,31,83,0.862,0.0,273,4.75,13.2,0.0,1,3.2,3.04,3.1,0,0,0,1,0,,,,,,,,,,,,,,,,,,,,
95923,1627392973997,,,248,247,251,246,,-0.04,-0.01,1.12,0,-1,-0,0.04,,65,2266,6,31,83,0.862,0.0,280,4.77,13.1,0.0,1,3.2,3.04,3.1,0,0,0,1,0,,,,,,,,,,,,,,,,,,,,
95943,1627392974017,0,1,248,247,251,246,-5,-0.04,-0.01,1.11,0,-1,-0,0.04,1,65,2251,6,31,83,0.863,0.0,276,4.75,13.1,0.0,1,3.2,1.93,3.1,0,0,0,1,0,0,250,250,0,47.220268,14.763095,0.0,691.4,7,2,1.7,0,0.0,-1,0.0,,0.0,0,0.01,1.5991
95963,1627392974037,,,248,247,251,246,,-0.04,-0.01,1.11,0,-1,-0,0.04,,65,2176,6,31,83,0.862,0.0,271,4.76,13.2,0.0,1,3.2,3.04,3.1,0,0,0,1,0,,,,,,,,,,,,,,,,,,,,
95983,1627392974057,,,248,247,251,246,,-0.03,-0.02,1.09,0,-1,-0,0.04,,65,2174,6,31,83,0.863,0.0,270,4.74,13.2,0.0,1,3.2,3.04,3.1,0,0,0,1,0,,,,,,,,,,,,,,,,,,,,
96003,1627392974077,,,248,248,251,246,,-0.04,-0.01,1.1,0,-0,0,0.04,,65,2213,6,31,83,0.863,0.0,272,4.72,12.9,0.0,1,3.2,1.93,3.0,0,0,0,1,0,,,,,,,,,,,,,,,,,,,,
96023,1627392974109,,,248,247,251,246,,-0.04,-0.02,1.04,0,-0,0,0.04,,65,2242,6,31,83,0.864,0.0,270,4.76,13.2,0.0,1,3.2,3.04,3.0,0,0,0,1,0,,,,,,,,,,,,,,,,,,,,
96043,1627392974129,0,0,248,247,251,246,-5,-0.04,-0.01,1.05,0,-0,0,0.04,1,65,2160,6,31,83,0.864,0.0,271,4.73,12.9,0.0,1,3.0,3.04,3.0,0,0,0,1,0,0,250,250,0,47.220268,14.763095,0.0,691.4,7,2,1.7,0,0.0,-1,0.0,0.0,0.0,0,0.01,1.6007
96063,1627392974149,,,248,247,251,246,,-0.04,-0.02,1.03,0,-0,0,0.04,,65,2145,6,31,83,0.862,0.0,270,4.75,13.2,0.0,1,3.0,3.04,3.0,0,0,0,1,0,,,,,,,,,,,,,,,,,,,,
96083,1627392974169,,,248,247,251,246,,-0.04,-0.02,1.01,0,0,0,0.04,,65,2236,6,31,83,0.862,0.0,271,4.72,13.0,0.0,1,3.0,1.93,3.0,0,0,0,1,0,,,,,,,,,,,,,,,,,,,,
96103,1627392974191,,,248,247,251,246,,-0.04,-0.02,1.02,0,-0,0,0.04,,65,2238,6,31,83,0.861,0.0,271,4.71,13.2,0.0,1,3.0,1.93,3.1,0,0,0,1,0,,,,,,,,,,,,,,,,,,,,
96123,1627392974211,,,248,247,251,246,,-0.04,-0.02,1.03,0,0,0,0.04,,65,2160,6,31,83,0.86,0.0,271,4.73,13.1,0.0,1,3.0,3.04,3.1,0,0,0,1,0,,,,,,,,,,,,,,,,,,,,
96143,1627392974231,1,0,248,247,251,246,-4,-0.04,-0.01,1.05,0,0,-0,0.04,1,65,2121,6,31,83,0.86,0.0,270,4.72,13.2,0.0,1,3.0,3.04,3.1,0,0,0,1,0,0,250,250,0,47.220268,14.763095,0.0,691.4,7,2,1.7,0,0.0,-1,0.0,,0.0,0,0.01,1.6024
96163,1627392974251,,,248,247,251,246,,-0.03,-0.01,1.06,0,-0,-0,0.04,,65,2130,6,31,83,0.86,0.0,267,4.76,13.2,0.0,1,3.0,1.93,3.1,0,0,0,1,0,,,,,,,,,,,,,,,,,,,,
96183,1627392974271,,,248,247,251,246,,-0.04,-0.0,1.06,0,-0,-0,0.04,,65,2205,6,31,83,0.861,0.0,267,4.77,13.2,0.0,1,3.0,3.04,3.1,0,0,0,1,0,,,,,,,,,,,,,,,,,,,,
96203,1627392974291,,,248,247,251,246,,-0.03,-0.02,1.07,0,-0,-0,0.04,,65,2199,6,31,84,0.861,0.0,270,4.77,13.2,0.0,1,3.0,3.06,3.1,0,0,0,1,0,,,,,,,,,,,,,,,,,,,,
96223,1627392974311,,,248,248,251,246,,-0.03,-0.01,1.06,0,-0,-0,0.04,,65,2134,6,31,83,0.861,0.0,267,4.73,12.8,0.0,1,3.0,3.04,3.1,0,0,0,1,0,,,,,,,,,,,,,,,,,,,,
96243,1627392974331,-0,2,248,247,251,246,-5,-0.04,-0.01,1.02,0,-0,-0,0.04,1,65,2107,6,31,84,0.861,0.0,263,4.77,13.2,0.0,1,2.8,3.06,3.1,0,0,0,1,0,0,250,250,0,47.220268,14.763095,0.0,691.4,7,2,1.7,0,0.0,-1,0.0,0.0,0.0,0,0.01,1.604
96263,1627392974351,,,248,247,251,246,,-0.04,-0.01,1.0,0,0,0,0.04,,65,2178,6,31,83,0.86,0.0,265,4.7,12.9,0.0,1,2.8,3.04,3.1,0,0,0,1,0,,,,,,,,,,,,,,,,,,,,
96283,1627392974371,,,248,247,251,246,,-0.04,-0.0,1.01,0,0,0,0.04,,65,2181,6,31,84,0.858,0.0,267,4.73,13.2,0.0,1,2.8,3.06,3.1,0,0,0,1,0,,,,,,,,,,,,,,,,,,,,
96303,1627392974391,,,248,247,251,246,,-0.04,-0.01,1.01,0,0,0,0.04,,65,2127,6,31,83,0.858,0.0,265,4.72,13.1,0.0,1,2.8,3.04,3.0,0,0,0,1,0,,,,,,,,,,,,,,,,,,,,
96323,1627392974411,,,248,247,251,246,,-0.04,-0.01,1.02,0,0,-0,0.04,,65,2088,6,31,83,0.858,0.0,263,4.77,13.2,0.0,1,2.8,3.04,3.0,0,0,0,1,0,,,,,,,,,,,,,,,,,,,,
96343,1627392974431,-1,2,248,247,251,246,-5,-0.04,-0.01,1.0,0,0,-0,0.04,1,65,2088,6,31,84,0.858,0.0,262,4.75,13.2,0.0,1,2.8,3.06,3.0,0,0,0,1,0,0,250,250,0,47.220268,14.763095,0.0,691.4,7,2,1.7,0,0.0,-1,0.0,,0.0,0,0.01,1.6057
96363,1627392974451,,,248,247,251,246,,-0.03,-0.01,1.01,0,0,0,0.04,,65,2158,6,31,83,0.858,0.0,262,4.75,13.0,0.0,1,2.8,3.04,3.0,0,0,0,1,0,,,,,,,,,,,,,,,,,,,,
96383,1627392974471,,,248,247,251,246,,-0.04,-0.02,1.01,0,0,-0,0.04,,65,2144,6,31,84,0.86,0.0,262,4.76,13.2,0.0,1,2.8,3.06,3.0,0,0,0,1,0,,,,,,,,,,,,,,,,,,,,
96403,1627392974491,,,248,247,251,246,,-0.04,-0.02,1.02,0,0,0,0.04,,65,2056,6,31,84,0.86,0.0,260,4.75,13.1,0.0,1,2.8,3.06,2.9,0,0,0,1,0,,,,,,,,,,,,,,,,,,,,
96423,1627392974511,,,248,247,251,246,,-0.04,-0.01,1.03,0,0,0,0.04,,65,2049,6,31,84,0.861,0.0,260,4.75,13.1,0.0,1,2.8,3.06,2.9,0,0,0,1,0,,,,,,,,,,,,,,,,,,,,
96443,1627392974531,0,0,248,247,251,246,-5,-0.03,-0.02,1.0,0,0,0,0.04,1,65,2087,6,31,84,0.86,0.0,258,4.76,13.1,0.0,1,2.7,3.06,2.9,0,0,0,1,0,0,250,250,0,47.220268,14.763095,0.0,691.4,7,2,1.7,0,0.0,-1,0.0,0.0,0.0,0,0.01,1.6074
96463,1627392974551,,,248,247,251,246,,-0.03,-0.02,1.01,0,0,0,0.04,,65,2067,6,31,84,0.86,0.0,257,4.68,12.8,0.0,1,2.7,1.95,2.9,0,0,0,1,0,,,,,,,,,,,,,,,,,,,,
96483,1627392974571,,,248,247,251,246,,-0.04,-0.02,1.06,0,-0,-0,0.04,,65,2026,6,31,84,0.859,0.0,255,4.72,13.2,0.0,1,2.7,3.06,2.9,0,0,0,1,0,,,,,,,,,,,,,,,,,,,,
96503,1627392974591,,,248,247,251,246,,-0.03,-0.02,1.06,0,-0,-0,0.04,,65,1965,6,31,85,0.858,0.0,251,4.74,13.2,0.0,1,2.7,3.08,2.7,0,0,0,1,0,,,,,,,,,,,,,,,,,,,,
96523,1627392974610,,,248,247,251,246,,-0.03,-0.02,1.06,0,-0,-0,0.03,,65,1917,6,31,84,0.859,0.0,246,4.7,13.0,0.0,1,2.7,1.95,2.7,0,0,0,1,0,,,,,,,,,,,,,,,,,,,,
96543,1627392974630,-0,2,248,247,251,246,-5,-0.03,-0.02,1.06,0,-0,-0,0.04,1,65,1913,6,31,85,0.858,0.0,243,4.73,13.2,0.0,1,2.7,3.08,2.7,0,0,0,1,0,0,250,250,0,47.220268,14.763095,0.0,691.4,7,2,1.7,0,0.0,-1,0.0,,0.0,0,0.01,1.6091
96563,1627392974650,,,248,248,251,246,,-0.04,-0.02,1.03,0,-0,0,0.04,,65,1911,6,31,86,0.858,0.0,243,4.78,13.2,0.0,1,2.7,3.1,2.7,0,0,0,1,0,,,,,,,,,,,,,,,,,,,,
96583,1627392974670,,,248,247,251,246,,-0.03,-0.02,1.02,0,-0,0,0.03,,65,1870,6,31,86,0.858,0.0,238,4.73,13.2,0.0,1,2.7,1.99,2.7,0,0,0,1,0,,,,,,,,,,,,,,,,,,,,
96603,1627392974690,,,248,247,251,246,,-0.03,-0.01,1.04,0,-0,-0,0.03,,65,1781,6,31,85,0.858,0.0,233,4.76,13.1,0.0,1,2.7,1.97,2.5,0,0,0,1,0,,,,,,,,,,,,,,,,,,,,
96623,1627392974710,,,248,247,251,246,,-0.03,-0.01,1.0,0,0,0,0.03,,65,1701,6,31,86,0.858,0.0,227,4.69,13.0,0.0,1,2.7,3.1,2.5,0,0,0,1,0,,,,,,,,,,,,,,,,,,,,
96643,1627392974730,0,2,248,246,251,246,-5,-0.03,-0.01,0.98,0,0,0,0.03,1,65,1729,6,31,86,0.858,0.0,225,4.74,12.9,0.0,1,2.8,3.1,2.5,0,0,0,1,0,0,250,250,0,47.220268,14.763095,0.0,691.4,7,2,1.7,0,0.0,-1,0.0,0.0,0.0,0,0.01,1.6107
96663,1627392974750,,,248,247,251,246,,-0.03,-0.0,1.03,0,-0,-0,0.03,,65,1780,6,31,86,0.858,0.0,225,4.73,13.2,0.0,1,2.8,3.1,2.5,0,0,0,1,0,,,,,,,,,,,,,,,,,,,,
96683,1627392974770,,,248,247,251,246,,-0.04,-0.0,1.01,0,0,-0,0.04,,65,1724,6,31,86,0.858,0.0,222,4.76,13.2,0.0,1,2.8,3.1,2.5,0,0,0,1,0,,,,,,,,,,,,,,,,,,,,
96703,1627392974790,,,248,247,251,246,,-0.04,-0.0,1.03,0,0,-0,0.04,,65,1648,6,31,87,0.858,0.0,217,4.75,13.1,0.0,1,2.8,3.12,2.3,0,0,0,1,0,,,,,,,,,,,,,,,,,,,,
96723,1627392974810,,,248,247,251,246,,-0.04,-0.0,1.03,0,-0,-0,0.04,,65,1568,6,31,87,0.858,0.0,211,4.74,13.1,0.0,1,2.8,2.02,2.3,0,0,0,1,0,,,,,,,,,,,,,,,,,,,,
96743,1627392974830,-1,2,248,248,251,246,-5,-0.04,-0.01,1.04,0,-0,-0,0.04,1,65,1540,6,31,87,0.859,0.0,211,4.73,13.1,0.0,1,2.8,3.12,2.3,0,0,0,1,0,0,250,250,0,47.220268,14.763095,0.0,691.4,7,2,1.7,0,0.0,-1,0.0,,0.0,0,0.01,1.6124
96763,1627392974850,,,248,247,251,246,,-0.03,-0.01,1.01,0,-0,-0,0.03,,65,1630,6,31,87,0.86,0.0,211,4.76,13.1,0.0,1,2.8,3.12,2.3,0,0,0,1,0,,,,,,,,,,,,,,,,,,,,
96783,1627392974870,,,248,247,251,245,,-0.03,-0.01,1.03,0,-0,-0,0.03,,65,1685,6,31,87,0.861,0.0,214,4.75,13.1,0.0,1,2.8,3.12,2.3,0,0,0,1,0,,,,,,,,,,,,,,,,,,,,
96803,1627392974890,,,248,247,251,246,,-0.03,-0.01,1.01,0,-0,-0,0.03,,65,1630,6,31,87,0.863,0.0,214,4.73,13.1,0.0,1,2.8,3.12,2.4,0,0,0,1,0,,,,,,,,,,,,,,,,,,,,
96823,1627392974910,,,248,247,251,246,,-0.03,-0.01,0.99,0,-0,-0,0.03,,65,1520,6,31,87,0.866,0.0,211,4.69,13.0,0.0,1,2.8,2.02,2.4,0,0,0,1,0,,,,,,,,,,,,,,,,,,,,
96843,1627392974930,1,0,248,247,251,246,-6,-0.02,-0.01,0.99,0,-0,-0,0.03,1,65,1427,6,31,87,0.868,0.0,206,4.75,13.1,0.0,1,3.2,3.12,2.4,0,0,0,1,0,0,250,250,0,47.220268,14.763095,0.0,691.4,7,2,1.7,0,0.0,-1,0.0,0.0,0.0,0,0.01,1.614
96863,1627392974950,,,248,247,251,246,,-0.02,-0.01,0.96,0,0,-0,0.03,,65,1461,6,31,87,0.87,0.0,201,4.75,13.1,0.0,1,3.2,2.02,2.4,0,0,0,1,0,,,,,,,,,,,,,,,,,,,,
96883,1627392974970,,,248,247,251,246,,-0.02,-0.0,0.98,0,0,-0,0.02,,65,1609,6,31,87,0.871,0.0,203,4.75,13.1,0.0,1,3.2,3.12,2.4,0,0,0,1,0,,,,,,,,,,,,,,,,,,,,
96903,1627392974990,,,248,246,251,246,,-0.02,-0.0,0.96,0,0,-0,0.02,,65,1607,6,31,87,0.873,0.0,202,4.69,12.8,0.0,1,3.2,2.02,2.3,0,0,0,1,0,,,,,,,,,,,,,,,,,,,,
96923,1627392974998,,,248,247,251,246,,-0.02,-0.0,0.95,0,0,-0,0.02,,65,1610,6,31,87,0.875,0.0,204,4.71,12.8,0.0,1,3.2,3.12,2.3,0,0,0,1,0,,,,,,,,,,,,,,,,,,,,
96943,1627392975018,0,1,248,247,251,246,-5,-0.02,0.0,0.97,0,-0,-0,0.02,1,65,1585,6,31,87,0.876,0.0,206,4.77,13.0,0.0,1,3.2,2.02,2.3,0,0,0,1,0,0,250,250,0,47.220268,14.763095,0.0,691.4,7,2,1.7,0,0.0,-1,0.0,,0.0,0,0.01,1.6157
96963,1627392975038,,,248,247,251,246,,-0.02,0.0,0.95,0,-0,-0,0.02,,65,1488,6,31,87,0.877,0.0,202,4.77,12.9,0.0,1,3.2,3.12,2.3,0,0,0,1,0,,,,,,,,,,,,,,,,,,,,
96983,1627392975058,,,248,247,251,246,,-0.02,0.0,0.95,0,-0,-0,0.02,,65,1419,6,31,87,0.877,0.0,198,4.73,12.8,0.0,1,3.2,2.02,2.3,0,0,0,1,0,,,,,,,,,,,,,,,,,,,,
97003,1627392975092,,,248,247,251,246,,-0.02,-0.0,0.95,0,-0,-0,0.02,,65,1421,6,31,87,0.879,0.0,194,4.7,12.8,0.0,1,3.2,2.02,2.0,0,0,0,1,0,,,,,,,,,,,,,,,,,,,,
97023,1627392975112,,,248,246,251,246,,-0.03,0.0,0.95,0,-0,-0,0.03,,65,1488,6,31,87,0.88,0.0,197,4.7,13.0,0.0,1,3.2,3.12,2.0,0,0,0,1,0,,,,,,,,,,,,,,,,,,,,
97043,1627392975132,0,1,248,247,251,246,-5,-0.03,0.0,0.93,0,-0,-0,0.03,1,65,1486,6,31,87,0.882,0.0,196,4.68,12.9,0.0,1,3.6,2.02,2.0,0,0,0,1,0,0,250,250,0,47.220268,14.763095,0.0,691.4,7,2,1.7,0,0.0,-1,0.0,0.0,0.0,0,0.01,1.6174
97063,1627392975152,,,248,246,251,246,,-0.03,0.01,0.92,0,-0,0,0.03,,65,1521,6,31,87,0.883,0.0,197,4.68,12.8,0.0,1,3.6,3.14,2.0,0,0,0,1,0,,,,,,,,,,,,,,,,,,,,
97083,1627392975172,,,248,246,251,246,,-0.03,0.01,0.91,0,-0,0,0.03,,65,1471,6,31,88,0.884,0.0,197,4.72,12.9,0.0,1,3.6,2.04,2.0,0,0,0,1,0,,,,,,,,,,,,,,,,,,,,
97103,1627392975192,,,248,247,251,246,,-0.03,0.01,0.9,0,-0,0,0.03,,65,1419,6,31,88,0.885,0.0,194,4.71,13.0,0.0,1,3.6,2.04,2.1,0,0,0,1,0,,,,,,,,,,,,,,,,,,,,
97123,1627392975212,,,248,246,251,246,,-0.03,0.01,0.89,0,-0,0,0.04,,65,1439,6,31,88,0.885,0.0,194,4.75,13.1,0.0,1,3.6,2.04,2.1,0,0,0,1,0,,,,,,,,,,,,,,,,,,,,
97143,1627392975232,1,1,248,246,251,246,-5,-0.03,0.02,0.89,0,-0,0,0.04,1,65,1439,6,31,88,0.884,0.0,192,4.75,13.1,0.0,1,3.6,3.14,2.1,0,0,0,1,0,0,250,250,0,47.220268,14.763095,0.0,691.4,7,2,1.7,0,0.0,-1,0.0,,0.0,0,0.01,1.6191
97163,1627392975252,,,248,247,251,246,,-0.03,0.02,0.93,0,-0,-0,0.04,,65,1548,6,31,88,0.882,0.0,195,4.74,13.2,0.0,1,3.6,3.14,2.1,0,0,0,1,0,,,,,,,,,,,,,,,,,,,,
97183,1627392975272,,,248,247,251,246,,-0.03,0.02,0.91,0,-0,0,0.04,,65,1517,6,31,88,0.882,0.0,195,4.75,13.1,0.0,1,3.6,3.14,2.1,0,0,0,1,0,,,,,,,,,,,,,,,,,,,,
97203,1627392975292,,,248,247,251,246,,-0.03,0.02,0.91,0,0,0,0.04,,65,1538,6,31,88,0.882,0.0,195,4.73,13.1,0.0,1,3.6,2.04,2.1,0,0,0,1,0,,,,,,,,,,,,,,,,,,,,
97223,1627392975310,,,248,247,251,246,,-0.03,0.02,0.91,0,0,0,0.04,,65,1534,6,31,88,0.882,0.0,197,4.7,13.0,0.0,1,3.6,2.04,2.1,0,0,0,1,0,,,,,,,,,,,,,,,,,,,,
97243,1627392975330,-0,2,248,246,251,246,-5,-0.04,0.02,0.91,0,0,0,0.04,1,65,1500,6,31,87,0.882,0.0,197,4.71,13.0,0.0,1,4.0,2.02,2.1,0,0,0,1,0,0,250,250,0,47.220268,14.763095,0.0,691.4,7,2,1.7,0,0.0,-1,0.0,0.0,0.0,0,0.01,1.6207
97263,1627392975350,,,248,247,251,246,,-0.03,0.02,0.9,0,0,0,0.04,,65,1537,6,31,88,0.883,0.0,197,4.72,12.9,0.0,1,4.0,2.04,2.1,0,0,0,1,0,,,,,,,,,,,,,,,,,,,,
97283,1627392975370,,,248,247,251,246,,-0.04,0.02,0.89,0,0,-0,0.04,,65,1542,6,31,88,0.883,0.0,197,4.72,13.0,0.0,1,4.0,3.14,2.1,0,0,0,1,0,,,,,,,,,,,,,,,,,,,,
97303,1627392975390,,,248,247,251,246,,-0.04,0.02,0.87,0,0,0,0.04,,65,1620,6,31,87,0.882,0.0,198,4.72,12.7,0.0,1,4.0,3.12,2.2,0,0,0,1,0,,,,,,,,,,,,,,,,,,,,
97323,1627392975410,,,248,247,251,246,,-0.04,0.02,0.91,0,-0,0,0.04,,65,1630,6,31,87,0.883,0.0,202,4.78,13.1,0.0,1,4.0,3.12,2.2,0,0,0,1,0,,,,,,,,,,,,,,,,,,,,
97343,1627392975430,0,2,248,247,251,246,-5,-0.04,0.02,0.95,0,-0,-0,0.05,1,65,1561,6,31,87,0.883,0.0,203,4.73,13.1,0.0,1,4.0,3.12,2.2,0,0,0,1,0,0,250,250,0,47.220268,14.763095,0.0,691.4,7,2,1.7,0,0.0,-1,0.0,,0.0,0,0.01,1.6224
97363,1627392975450,,,248,247,251,246,,-0.05,0.02,0.97,0,-0,-0,0.05,,65,1527,6,31,87,0.883,0.0,202,4.77,13.1,0.0,1,4.0,3.12,2.2,0,0,0,1,0,,,,,,,,,,,,,,,,,,,,
97383,1627392975470,,,248,247,251,246,,-0.05,0.02,1.01,0,-0,-0,0.06,,65,1493,6,31,87,0.881,0.0,200,4.75,13.1,0.0,1,4.0,3.12,2.2,0,0,0,1,0,,,,,,,,,,,,,,,,,,,,
97403,1627392975492,,,248,247,251,246,,-0.06,0.02,1.02,0,-0,-0,0.06,,65,1574,6,31,88,0.881,0.0,200,4.73,13.2,0.0,1,4.0,3.14,2.2,0,0,0,1,0,,,,,,,,,,,,,,,,,,,,
97423,1627392975512,,,248,247,251,246,,-0.07,0.02,1.0,0,0,0,0.07,,65,1618,6,31,88,0.883,0.0,203,4.72,13.1,0.0,1,4.0,3.14,2.2,0,0,0,1,0,,,,,,,,,,,,,,,,,,,,
97443,1627392975532,-1,2,248,247,251,246,-5,-0.07,0.02,1.02,0,1,0,0.07,1,65,1642,6,31,88,0.884,0.0,205,4.76,13.1,0.0,1,4.3,3.14,2.2,0,0,0,1,0,0,250,250,0,47.220268,14.763095,0.0,691.4,7,2,1.7,0,0.0,-1,0.0,0.0,0.0,0,0.01,1.624
97463,1627392975552,,,248,247,251,246,,-0.07,0.01,1.01,0,1,0,0.07,,65,1571,6,31,88,0.883,0.0,205,4.77,13.1,0.0,1,4.3,3.14,2.2,0,0,0,1,0,,,,,,,,,,,,,,,,,,,,
97483,1627392975572,,,248,247,251,246,,-0.07,0.01,1.03,0,1,0,0.07,,65,1475,6,31,88,0.882,0.0,200,4.75,13.1,0.0,1,4.3,3.14,2.2,0,0,0,1,0,,,,,,,,,,,,,,,,,,,,
97503,1627392975591,,,248,247,251,246,,-0.07,0.0,1.04,0,1,0,0.07,,65,1404,6,31,88,0.879,0.0,197,4.76,13.1,0.0,1,4.3,3.14,2.0,0,0,0,1,0,,,,,,,,,,,,,,,,,,,,
97523,1627392975611,,,248,247,251,246,,-0.08,-0.0,1.03,0,0,-0,0.08,,65,1492,6,31,88,0.879,0.0,197,4.73,13.2,0.0,1,4.3,3.14,2.0,0,0,0,1,0,,,,,,,,,,,,,,,,,,,,
97543,1627392975631,1,0,248,247,251,246,-4,-0.07,-0.0,1.09,0,0,-0,0.07,1,65,1660,6,31,88,0.877,0.0,203,4.77,13.2,0.0,1,4.3,3.14,2.0,0,0,0,1,0,0,250,250,0,47.220268,14.763095,0.0,691.4,7,2,1.7,0,0.0,-1,0.0,,0.0,0,0.01,1.6257
97563,1627392975651,,,248,247,251,246,,-0.06,-0.01,1.05,0,0,-0,0.06,,65,1680,6,31,88,0.878,0.0,206,4.75,13.2,0.0,1,4.3,3.14,2.0,0,0,0,1,0,,,,,,,,,,,,,,,,,,,,
97583,1627392975671,,,248,248,251,246,,-0.06,-0.01,1.05,0,0,0,0.06,,65,1668,6,31,88,0.878,0.0,206,4.76,13.1,0.0,1,4.3,2.04,2.0,0,0,0,1,0,,,,,,,,,,,,,,,,,,,,
97603,1627392975691,,,248,247,251,246,,-0.05,-0.01,1.06,0,-0,-0,0.05,,65,1619,6,31,88,0.878,0.0,206,4.76,13.1,0.0,1,4.3,3.14,2.3,0,0,0,1,0,,,,,,,,,,,,,,,,,,,,
97623,1627392975711,,,248,247,251,246,,-0.04,-0.01,1.05,0,0,-0,0.05,,65,1543,6,31,88,0.878,0.0,203,4.74,13.1,0.0,1,4.3,3.14,2.3,0,0,0,1,0,,,,,,,,,,,,,,,,,,,,
97643,1627392975731,1,2,248,247,251,246,-5,-0.04,-0.01,1.05,0,-0,-0,0.04,1,65,1521,6,31,88,0.879,0.0,203,4.75,13.1,0.0,1,4.7,3.14,2.3,0,0,0,1,0,0,250,250,0,47.220268,14.763095,0.0,691.4,7,2,1.7,0,0.0,-1,0.0,0.0,0.0,0,0.01,1.6274
97663,1627392975751,,,248,248,251,246,,-0.03,-0.01,1.05,0,0,-0,0.03,,65,1683,6,31,88,0.88,0.0,206,4.73,13.2,0.0,1,4.7,3.14,2.3,0,0,0,1,0,,,,,,,,,,,,,,,,,,,,
97683,1627392975771,,,248,247,251,246,,-0.03,-0.01,1.02,0,0,-0,0.03,,65,1705,6,31,87,0.88,0.0,207,4.67,12.9,0.0,1,4.7,2.02,2.3,0,0,0,1,0,,,,,,,,,,,,,,,,,,,,
97703,1627392975791,,,248,246,251,246,,-0.04,-0.01,1.03,0,0,-0,0.04,,65,1651,6,31,87,0.88,0.0,208,4.75,13.1,0.0,1,4.7,3.12,2.3,0,0,0,1,0,,,,,,,,,,,,,,,,,,,,
97723,1627392975811,,,248,247,251,246,,-0.04,-0.01,1.04,0,0,-0,0.04,,65,1569,6,31,87,0.88,0.0,207,4.75,13.1,0.0,1,4.7,3.12,2.3,0,0,0,1,0,,,,,,,,,,,,,,,,,,,,
97743,1627392975831,0,2,248,247,251,246,-5,-0.04,-0.01,1.06,0,0,-0,0.04,1,65,1502,6,31,87,0.88,0.0,204,4.76,13.1,0.0,1,4.7,3.12,2.3,0,0,0,1,0,0,250,250,0,47.220268,14.763095,0.0,691.4,7,2,1.7,0,0.0,-1,0.0,,0.0,0,0.01,1.629
97763,1627392975851,,,248,247,251,246,,-0.04,-0.0,1.09,0,0,-0,0.04,,65,1540,6,31,88,0.881,0.0,203,4.75,13.1,0.0,1,4.7,3.12,2.3,0,0,0,1,0,,,,,,,,,,,,,,,,,,,,
97783,1627392975871,,,248,247,251,246,,-0.05,-0.01,1.04,0,1,0,0.05,,65,1699,6,31,88,0.883,0.0,206,4.75,13.1,0.0,1,4.7,3.14,2.3,0,0,0,1,0,,,,,,,,,,,,,,,,,,,,
97803,1627392975891,,,248,247,251,246,,-0.04,-0.01,1.05,0,0,-0,0.04,,65,1806,6,31,88,0.885,0.0,212,4.76,13.1,0.0,1,4.7,2.04,2.6,0,0,0,1,0,,,,,,,,,,,,,,,,,,,,
97823,1627392975911,,,248,247,251,246,,-0.04,-0.0,1.04,0,1,0,0.04,,65,1787,6,31,88,0.886,0.0,215,4.77,13.2,0.0,1,4.7,2.04,2.6,0,0,0,1,0,,,,,,,,,,,,,,,,,,,,
97843,1627392975931,-0,2,248,247,251,246,-5,-0.04,-0.0,1.04,0,0,0,0.04,1,65,1710,6,31,87,0.888,0.0,217,4.75,13.1,0.0,1,4.9,3.12,2.6,0,0,0,1,0,0,250,250,0,47.220268,14.763095,0.0,691.4,7,2,1.7,0,0.0,-1,0.0,0.0,0.0,0,0.01,1.6307
97863,1627392975951,,,248,247,251,246,,-0.04,-0.0,1.02,0,1,0,0.04,,65,1598,6,31,87,0.889,0.0,212,4.71,13.1,0.0,1,4.9,3.12,2.6,0,0,0,1,0,,,,,,,,,,,,,,,,,,,,
97883,1627392975971,,,248,246,251,246,,-0.04,-0.0,0.98,0,1,0,0.04,,65,1733,6,31,87,0.89,0.0,212,4.72,13.0,0.0,1,4.9,3.12,2.6,0,0,0,1,0,,,,,,,,,,,,,,,,,,,,
