"Interval"|"ms"|0|0|1,"Utc"|"ms"|0|0|1,"Brake_F"|"Bar"|0|2000|10,"Brake_R"|"Bar"|0|2000|10,"Height_RF"|"mm"|0|255|50,"Height_LF"|"mm"|0|255|50,"Height_LR"|"mm"|0|80|50,"Height_RR"|"mm"|0|255|50,"Steering"|"deg"|-100|100|10,"AccelX"|"G"|-3.0|3.0|50,"AccelY"|"G"|-3.0|3.0|50,"AccelZ"|"G"|-3.0|3.0|50,"Yaw"|"Deg/Sec"|-120|120|50,"Pitch"|"Deg/Sec"|-120|120|50,"Roll"|"Deg/Sec"|-120|120|50,"Gsum"|"G"|0.0|3.0|50,"Log_Button"|""|0.0|10.0|10,"WaterTemp"|"C"|0|150|50,"RPM"|"tr/min"|0|14000|50,"TPS"|"%"|0|100|50,"AirTemp"|"C"|0|150|50,"MAP"|"KPa"|0|100|50,"Lambda"|""|0.5|1.5|50,"SpeedDTA"|"kph"|0.0|250.0|50,"OilPress"|"KPa"|0|1500|50,"FuelPressur"|"Bar"|0.0|10.0|50,"Batterie"|"V"|0.0|20.0|50,"ConsoKm"|"L/100km"|0.0|200.0|50,"Gear"|""|0|6|50,"AdvIgnition"|"Deg"|-20.0|70.0|50,"Injection"|"ms"|0.0|10.0|50,"ConsoHr"|"L/Hr"|0.0|10000.0|50,"LC_But_Pres"|""|0|1|50,"LC_Active"|""|0|1|50,"TractionOn"|""|0|1|50,"TractionWet"|""|0|1|50,"FanOn"|""|0|1|50,"RD_Speed"|"km/h"|-30|250|10,"RUD_Speed"|"km/h"|-30|250|10,"LD_Speed"|"km/h"|-30|250|10,"LUD_Speed"|"km/h"|-30|250|10,"Latitude"|"Degrees"|-180.0|180.0|10,"Longitude"|"Degrees"|-180.0|180.0|10,"Speed"|"kph"|0.0|150.0|10,"Altitude"|"m"|0.0|4000.0|10,"GPSSats"|""|0|20|10,"GPSQual"|""|0|5|10,"GPSDOP"|""|0.0|20.0|10,"LapCount"|""|0|0|10,"LapTime"|"Min"|0.0|0.0|10,"Sector"|""|0|0|10,"SectorTime"|"Min"|0.0|0.0|10,"PredTime"|"Min"|0.0|0.0|5,"ElapsedTime"|"Min"|0.0|0.0|10,"CurrentLap"|""|0|0|10,"Distance"|"km"|0.0|0.0|10,"SessionTime"|"Min"|0.0|0.0|10
23064,0,,,251,253,238,234,,0.19,0.11,2.2,-0,-10,-9,0.22,,69,5927,8,37,54,0.65,0.0,607,4.87,13.2,0.0,1,32.5,1.17,6.2,0,0,0,1,0,,,,,,,,,,,,,,,,,,,,
23084,0,,,252,253,238,233,,0.24,0.14,2.34,0,-15,-12,0.28,,69,5937,8,37,54,0.65,0.0,608,4.89,13.2,0.0,1,32.5,2.28,6.2,0,0,0,1,0,,,,,,,,,,,,,,,,,,,,
23104,0,,,251,253,238,234,,0.28,0.14,2.47,0,-17,-13,0.32,,69,5948,8,37,54,0.65,0.0,615,4.88,13.2,0.0,1,32.5,2.27,6.2,0,0,0,1,0,,,,,,,,,,,,,,,,,,,,
23124,0,,,252,253,238,234,,0.31,0.13,2.58,0,-19,-14,0.34,,69,5948,8,37,54,0.65,0.0,608,4.88,13.2,0.0,1,32.5,2.27,6.2,0,0,0,1,0,,,,,,,,,,,,,,,,,,,,
23144,0,-0,2,252,253,238,234,2,0.34,0.1,2.69,0,-21,-15,0.35,1,69,5954,8,37,54,0.65,0.0,610,4.88,13.2,0.0,1,32.5,2.28,6.2,0,0,0,1,0,0,250,250,0,0.0,0.0,0.0,0.0,0,0,0.0,0,0.0,-1,0.0,,0.0,0,0.0,0.3857
23164,0,,,252,253,238,234,,0.36,0.06,2.79,0,-21,-15,0.36,,69,5977,8,37,54,0.652,0.0,611,4.88,13.2,0.0,1,32.5,2.27,6.2,0,0,0,1,0,,,,,,,,,,,,,,,,,,,,
23184,0,,,251,253,237,234,,0.37,0.04,2.89,0,-21,-15,0.37,,69,5971,8,37,54,0.654,0.0,616,4.88,13.2,0.0,1,32.5,2.27,6.2,0,0,0,1,0,,,,,,,,,,,,,,,,,,,,
23204,0,,,251,254,238,234,,0.38,0.01,2.97,0,-20,-15,0.38,,69,6000,8,37,53,0.657,0.0,616,4.87,13.2,0.0,1,32.4,2.25,6.2,0,0,0,1,0,,,,,,,,,,,,,,,,,,,,
23224,0,,,251,253,237,234,,0.39,-0.02,3.05,0,-20,-15,0.39,,69,6009,8,37,53,0.659,0.0,607,4.89,13.2,0.0,1,32.4,2.25,6.2,0,0,0,1,0,,,,,,,,,,,,,,,,,,,,
23244,0,0,2,251,254,238,234,1,0.41,-0.04,3.12,0,-20,-15,0.41,1,69,6046,8,37,53,0.66,0.0,612,4.87,13.2,0.0,1,32.5,2.25,6.2,0,0,0,1,0,0,250,250,0,0.0,0.0,0.0,0.0,0,0,0.0,0,0.0,-1,0.0,0.0,0.0,0,0.0,0.3874
23264,0,,,251,253,237,234,,0.43,-0.05,3.19,0,-21,-16,0.44,,69,6052,8,37,53,0.661,0.0,616,4.88,13.2,0.0,1,32.5,2.25,6.2,0,0,0,1,0,,,,,,,,,,,,,,,,,,,,
23284,0,,,252,253,238,234,,0.47,-0.06,3.25,1,-23,-17,0.47,,69,6062,8,37,53,0.661,0.0,618,4.86,13.2,0.0,1,32.5,2.25,6.2,0,0,0,1,0,,,,,,,,,,,,,,,,,,,,
23304,0,,,251,253,238,233,,0.51,-0.04,3.31,1,-26,-19,0.51,,69,6117,8,37,53,0.661,0.0,619,4.87,13.2,0.0,1,32.6,2.24,6.2,0,0,0,1,0,,,,,,,,,,,,,,,,,,,,
23324,0,,,251,253,238,233,,0.56,-0.01,3.36,0,-28,-21,0.56,,69,6121,8,37,53,0.66,0.0,618,4.88,13.1,0.0,1,32.6,1.13,6.3,0,0,0,1,0,,,,,,,,,,,,,,,,,,,,
23344,0,-1,2,252,253,238,234,3,0.59,0.02,3.41,0,-30,-22,0.59,1,69,6159,8,37,53,0.66,0.0,616,4.86,13.0,0.0,1,32.8,2.24,6.3,0,0,0,1,0,0,250,250,0,0.0,0.0,0.0,0.0,0,0,0.0,0,0.0,-1,0.0,,0.0,0,0.0,0.3891
23364,0,,,251,254,237,233,,0.56,0.03,3.17,0,-28,-20,0.56,,69,6184,8,37,52,0.658,0.0,621,4.87,13.1,0.0,1,32.7,2.25,6.3,0,0,0,1,0,,,,,,,,,,,,,,,,,,,,
23384,0,,,252,254,237,234,,0.45,0.03,2.92,0,-24,-16,0.45,,69,6190,8,37,52,0.655,0.0,627,4.88,12.9,0.0,1,32.7,2.25,6.3,0,0,0,1,0,,,,,,,,,,,,,,,,,,,,
23404,0,,,252,254,237,234,,0.34,0.04,2.7,0,-18,-12,0.34,,69,6231,8,37,52,0.653,0.0,628,4.88,12.9,0.0,1,32.8,2.25,6.3,0,0,0,1,0,,,,,,,,,,,,,,,,,,,,
23424,0,,,251,254,237,234,,0.31,0.07,2.49,0,-15,-10,0.31,,69,6243,8,37,51,0.651,0.0,631,4.87,13.2,0.0,1,32.6,2.26,6.5,0,0,0,1,0,,,,,,,,,,,,,,,,,,,,
23444,0,-1,2,251,253,238,234,3,0.32,0.05,2.6,0,-16,-12,0.33,1,69,6304,8,37,51,0.651,0.0,627,4.86,13.2,0.0,1,32.8,1.15,6.5,0,0,0,1,0,0,250,250,0,0.0,0.0,0.0,0.0,0,0,0.0,0,0.0,-1,0.0,0.0,0.0,0,0.0,0.3907
23464,0,,,252,253,237,234,,0.36,0.01,2.71,0,-17,-12,0.36,,69,6355,8,37,50,0.651,0.0,626,4.87,13.2,0.0,1,32.6,2.26,6.5,0,0,0,1,0,,,,,,,,,,,,,,,,,,,,
23484,0,,,251,254,238,234,,0.29,0.03,2.5,0,-13,-9,0.29,,69,6425,8,37,50,0.649,0.0,625,4.87,13.0,0.0,1,32.9,2.26,6.5,0,0,0,1,0,,,,,,,,,,,,,,,,,,,,
23504,0,,,252,254,237,234,,0.27,0.05,2.31,0,-11,-8,0.27,,69,6478,8,37,49,0.647,0.0,633,4.87,13.0,0.0,1,32.7,2.26,6.5,0,0,0,1,0,,,,,,,,,,,,,,,,,,,,
23524,0,,,251,253,237,234,,0.29,0.04,2.44,0,-13,-9,0.29,,69,6508,8,37,48,0.647,0.0,637,4.86,13.1,0.0,1,32.5,2.26,6.8,0,0,0,1,0,,,,,,,,,,,,,,,,,,,,
23544,0,-0,2,252,254,238,234,3,0.22,0.05,2.25,0,-10,-7,0.22,1,69,6588,8,37,47,0.646,0.0,637,4.87,13.0,0.0,1,32.4,2.26,6.8,0,0,0,1,0,0,250,250,0,0.0,0.0,0.0,0.0,0,0,0.0,0,0.0,-1,0.0,,0.0,0,0.0,0.3924
23564,0,,,251,254,238,234,,0.26,0.06,2.37,0,-10,-7,0.26,,69,6641,8,37,47,0.644,0.0,636,4.88,13.2,0.0,1,32.6,2.26,6.8,0,0,0,1,0,,,,,,,,,,,,,,,,,,,,
23584,0,,,252,253,238,233,,0.21,0.05,2.19,0,-9,-6,0.22,,69,6691,8,37,46,0.643,0.0,632,4.87,12.9,0.0,1,32.4,2.26,6.8,0,0,0,1,0,,,,,,,,,,,,,,,,,,,,
23604,0,,,251,253,238,234,,0.22,0.05,2.25,0,-9,-6,0.22,,69,6754,8,37,45,0.642,0.0,633,4.86,13.2,0.0,1,32.2,2.25,6.8,0,0,0,1,0,,,,,,,,,,,,,,,,,,,,
23624,0,,,252,253,238,234,,0.15,0.05,2.08,0,-7,-4,0.16,,69,6823,8,37,45,0.642,0.0,634,4.86,13.1,0.0,1,32.4,2.25,7.0,0,0,0,1,0,,,,,,,,,,,,,,,,,,,,
23644,0,0,2,251,253,238,234,2,0.16,0.05,2.23,0,-8,-6,0.17,1,69,6865,8,37,45,0.643,0.0,641,4.86,13.2,0.0,1,32.5,2.25,7.0,0,0,0,1,0,0,250,250,0,0.0,0.0,0.0,0.0,0,0,0.0,0,0.0,-1,0.0,0.0,0.0,0,0.0,0.3941
23664,0,,,251,253,238,234,,0.1,0.07,2.06,0,-5,-3,0.12,,69,6903,8,37,44,0.644,0.0,641,4.86,13.0,0.0,1,32.2,2.25,7.0,0,0,0,1,0,,,,,,,,,,,,,,,,,,,,
23684,0,,,252,253,237,234,,0.1,0.06,1.9,0,-7,-4,0.11,,69,6929,8,37,44,0.645,0.0,641,4.84,13.1,0.0,1,32.3,2.25,7.0,0,0,0,1,0,,,,,,,,,,,,,,,,,,,,
23704,0,,,251,253,238,234,,0.12,0.08,2.06,0,-6,-4,0.14,,69,6954,8,37,43,0.643,0.0,645,4.86,13.2,0.0,1,32.0,2.25,7.0,0,0,0,1,0,,,,,,,,,,,,,,,,,,,,
23724,0,,,251,253,238,234,,0.08,0.09,1.9,0,-4,-2,0.12,,69,6985,8,37,43,0.644,0.0,639,4.87,13.1,0.0,1,32.1,2.25,7.2,0,0,0,1,0,,,,,,,,,,,,,,,,,,,,
23744,0,0,0,252,253,237,234,2,0.08,0.07,1.85,0,-6,-4,0.11,1,69,7004,8,37,43,0.645,0.0,645,4.85,13.2,0.0,1,32.2,1.14,7.2,0,0,0,1,0,0,250,250,0,0.0,0.0,0.0,0.0,0,0,0.0,0,0.0,-1,0.0,,0.0,0,0.0,0.3957
23764,0,,,252,253,238,234,,0.11,0.05,2.0,0,-5,-3,0.12,,69,7009,8,37,42,0.644,0.0,645,4.86,13.2,0.0,1,31.9,2.26,7.2,0,0,0,1,0,,,,,,,,,,,,,,,,,,,,
23784,0,,,252,253,238,233,,0.08,0.08,1.85,0,-3,-1,0.11,,69,7035,8,37,42,0.644,0.0,642,4.86,12.9,0.0,1,31.9,2.26,7.2,0,0,0,1,0,,,,,,,,,,,,,,,,,,,,
23804,0,,,251,253,237,234,,0.07,0.07,1.71,0,-4,-2,0.09,,69,7064,8,37,42,0.645,0.0,642,4.87,13.1,0.0,1,31.9,1.15,7.2,0,0,0,1,0,,,,,,,,,,,,,,,,,,,,
23824,0,,,252,254,238,233,,0.09,0.09,1.83,0,-4,-3,0.13,,69,7078,8,37,41,0.644,0.0,646,4.86,13.1,0.0,1,31.6,2.27,7.4,0,0,0,1,0,,,,,,,,,,,,,,,,,,,,
23844,0,0,0,252,253,237,234,3,0.1,0.1,1.89,0,-2,-1,0.14,1,69,7104,8,37,41,0.645,0.0,644,4.87,13.1,0.0,1,31.6,2.27,7.4,0,0,0,1,0,0,250,250,0,0.0,0.0,0.0,0.0,0,0,0.0,0,0.0,-1,0.0,0.0,0.0,0,0.0,0.3974
23864,0,,,251,253,237,234,,0.05,0.1,1.74,0,-2,-1,0.11,,69,7088,8,37,41,0.645,0.0,642,4.86,12.9,0.0,1,31.6,2.27,7.4,0,0,0,1,0,,,,,,,,,,,,,,,,,,,,
23884,0,,,252,253,238,234,,0.06,0.08,1.79,0,-4,-3,0.1,,69,7096,8,36,41,0.646,0.0,646,4.86,13.2,0.0,1,31.6,2.27,7.4,0,0,0,1,0,,,,,,,,,,,,,,,,,,,,
23904,0,,,252,253,238,234,,0.09,0.06,1.95,0,-3,-3,0.11,,69,7121,8,36,40,0.644,0.0,643,4.84,13.2,0.0,1,31.3,2.28,7.4,0,0,0,1,0,,,,,,,,,,,,,,,,,,,,
23924,0,,,252,254,238,234,,0.1,0.06,1.85,0,-2,-1,0.12,,69,7118,8,37,40,0.644,0.0,645,4.84,12.9,0.0,1,31.3,2.28,7.5,0,0,0,1,0,,,,,,,,,,,,,,,,,,,,
23944,0,0,0,252,253,237,234,2,0.06,0.04,1.71,0,-1,-1,0.07,1,69,7115,8,36,40,0.644,0.0,642,4.9,13.0,0.0,1,31.3,1.17,7.5,0,0,0,1,0,0,250,250,0,0.0,0.0,0.0,0.0,0,0,0.0,0,0.0,-1,0.0,,0.0,0,0.0,0.3991
23964,0,,,252,253,238,234,,0.06,0.03,1.74,0,-3,-3,0.07,,69,7121,8,36,40,0.643,0.0,645,4.88,13.1,0.0,1,31.3,1.17,7.5,0,0,0,1,0,,,,,,,,,,,,,,,,,,,,
23984,0,,,251,253,238,234,,0.09,-0.01,1.87,0,-2,-2,0.09,,69,7113,8,36,40,0.643,0.0,646,4.86,13.0,0.0,1,31.3,2.28,7.5,0,0,0,1,0,,,,,,,,,,,,,,,,,,,,
24004,0,,,251,254,238,234,,0.07,0.01,1.77,0,-0,-0,0.07,,69,7115,8,36,40,0.643,0.0,644,4.88,13.0,0.0,1,31.3,2.28,7.5,0,0,0,1,0,,,,,,,,,,,,,,,,,,,,
24024,0,,,252,253,237,234,,0.04,0.02,1.63,0,-1,-0,0.05,,69,7091,8,36,40,0.643,0.0,642,4.88,13.1,0.0,1,31.3,1.17,7.4,0,0,0,1,0,,,,,,,,,,,,,,,,,,,,
24044,0,0,0,252,253,237,234,3,0.06,0.03,1.73,0,-2,-2,0.07,1,69,7072,8,36,40,0.643,0.0,642,4.87,13.2,0.0,1,31.3,1.17,7.4,0,0,0,1,0,0,250,250,0,0.0,0.0,0.0,0.0,0,0,0.0,0,0.0,-1,0.0,0.0,0.0,0,0.0,0.4007
24064,0,,,251,254,237,234,,0.09,0.03,1.84,0,-1,-1,0.1,,69,7070,8,36,39,0.643,0.0,643,4.86,13.1,0.0,1,31.0,2.28,7.4,0,0,0,1,0,,,,,,,,,,,,,,,,,,,,
24084,0,,,251,254,237,234,,0.06,0.03,1.7,0,-0,0,0.06,,69,7048,8,36,39,0.643,0.0,641,4.88,12.9,0.0,1,31.0,1.17,7.4,0,0,0,1,0,,,,,,,,,,,,,,,,,,,,
24104,0,,,251,253,238,234,,0.07,0.03,1.67,0,-2,-1,0.07,,69,7027,8,36,39,0.643,0.0,643,4.88,13.1,0.0,1,31.0,1.17,7.4,0,0,0,1,0,,,,,,,,,,,,,,,,,,,,
24124,0,,,251,255,237,234,,0.11,0.01,1.85,0,-1,-1,0.11,,69,7017,8,36,39,0.643,0.0,641,4.86,13.0,0.0,1,31.0,2.28,7.4,0,0,0,1,0,,,,,,,,,,,,,,,,,,,,
24144,0,0,1,252,254,238,234,2,0.07,-0.01,1.71,0,0,0,0.07,1,69,7004,8,36,39,0.643,0.0,641,4.85,12.9,0.0,1,31.0,1.17,7.4,0,0,0,1,0,0,250,250,0,0.0,0.0,0.0,0.0,0,0,0.0,0,0.0,-1,0.0,,0.0,0,0.0,0.4024
24164,0,,,252,253,237,234,,0.05,-0.01,1.58,0,-1,-1,0.05,,69,6988,8,36,39,0.643,0.0,640,4.88,13.1,0.0,1,30.9,1.17,7.4,0,0,0,1,0,,,,,,,,,,,,,,,,,,,,
24184,0,,,251,253,237,234,,0.09,-0.0,1.76,0,-0,-1,0.09,,69,6967,8,36,39,0.643,0.0,639,4.86,13.2,0.0,1,30.9,2.28,7.4,0,0,0,1,0,,,,,,,,,,,,,,,,,,,,
24204,0,,,252,254,238,234,,0.04,-0.01,1.63,0,1,1,0.04,,69,6970,8,36,39,0.644,0.0,639,4.86,13.1,0.0,1,30.9,2.28,7.4,0,0,0,1,0,,,,,,,,,,,,,,,,,,,,
24224,0,,,252,253,237,234,,0.06,-0.02,1.69,0,-1,-1,0.07,,69,6965,8,36,39,0.644,0.0,641,4.89,13.1,0.0,1,30.9,2.28,7.3,0,0,0,1,0,,,,,,,,,,,,,,,,,,,,
24244,0,-1,2,251,253,238,234,2,0.09,-0.02,1.83,0,0,-0,0.09,1,69,6954,8,36,39,0.643,0.0,643,4.86,13.2,0.0,1,30.9,2.28,7.3,0,0,0,1,0,0,250,250,0,0.0,0.0,0.0,0.0,0,0,0.0,0,0.0,-1,0.0,0.0,0.0,0,0.0,0.4041
24264,0,,,251,254,238,234,,0.05,-0.03,1.69,0,0,1,0.06,,69,6929,8,36,39,0.644,0.0,641,4.85,12.9,0.0,1,30.9,1.17,7.3,0,0,0,1,0,,,,,,,,,,,,,,,,,,,,
24284,0,,,252,253,238,234,,0.08,0.0,1.87,0,-1,-1,0.08,,69,6916,8,36,39,0.643,0.0,642,4.86,13.2,0.0,1,30.8,2.28,7.3,0,0,0,1,0,,,,,,,,,,,,,,,,,,,,
24304,0,,,251,253,237,234,,0.06,-0.02,1.72,0,1,1,0.07,,69,6890,8,36,39,0.642,0.0,633,4.86,12.9,0.0,1,30.8,2.28,7.3,0,0,0,1,0,,,,,,,,,,,,,,,,,,,,
24324,0,,,251,253,237,234,,0.06,-0.0,1.69,0,-1,-1,0.06,,69,6885,8,36,39,0.643,0.0,635,4.85,13.1,0.0,1,30.8,1.17,7.2,0,0,0,1,0,,,,,,,,,,,,,,,,,,,,
24344,0,0,1,252,253,238,234,1,0.08,0.01,1.78,0,1,-0,0.08,1,69,6868,8,36,39,0.642,0.0,637,4.85,12.9,0.0,1,30.8,2.28,7.2,0,0,0,1,0,0,250,250,0,0.0,0.0,0.0,0.0,0,0,0.0,0,0.0,-1,0.0,,0.0,0,0.0,0.4057
24364,0,,,251,254,238,233,,0.03,0.01,1.64,0,1,1,0.03,,69,6833,8,36,39,0.642,0.0,633,4.85,13.0,0.0,1,30.7,2.28,7.2,0,0,0,1,0,,,,,,,,,,,,,,,,,,,,
24384,0,,,251,253,238,234,,0.08,0.02,1.82,0,-0,-1,0.08,,69,6843,8,36,39,0.641,0.0,641,4.86,13.2,0.0,1,30.8,2.28,7.2,0,0,0,1,0,,,,,,,,,,,,,,,,,,,,
24404,0,,,251,254,238,234,,0.02,0.01,1.68,0,1,1,0.02,,69,6793,8,36,39,0.642,0.0,641,4.86,12.9,0.0,1,30.7,1.17,7.2,0,0,0,1,0,,,,,,,,,,,,,,,,,,,,
24424,0,,,252,254,237,234,,0.07,0.01,1.86,0,-1,-1,0.07,,69,6749,8,36,39,0.641,0.0,645,4.85,13.2,0.0,1,30.6,2.28,7.1,0,0,0,1,0,,,,,,,,,,,,,,,,,,,,
24444,0,0,0,252,254,237,234,3,0.02,0.0,1.72,0,0,0,0.02,1,69,6737,8,36,39,0.641,0.0,637,4.87,13.1,0.0,1,30.6,2.28,7.1,0,0,0,1,0,0,250,250,0,0.0,0.0,0.0,0.0,0,0,0.0,0,0.0,-1,0.0,0.0,0.0,0,0.0,0.4074
24464,0,,,251,255,238,233,,0.08,-0.0,1.89,0,-0,-1,0.08,,69,6667,8,36,39,0.641,0.0,636,4.86,13.1,0.0,1,30.6,2.28,7.1,0,0,0,1,0,,,,,,,,,,,,,,,,,,,,
24484,0,,,252,253,238,233,,0.03,0.01,1.75,0,-1,-1,0.03,,69,6665,8,36,39,0.642,0.0,633,4.86,13.0,0.0,1,30.5,1.17,7.1,0,0,0,1,0,,,,,,,,,,,,,,,,,,,,
24504,0,,,251,253,237,234,,0.05,0.02,1.92,0,1,0,0.06,,69,6588,8,36,39,0.641,0.0,630,4.87,13.2,0.0,1,30.5,2.28,7.1,0,0,0,1,0,,,,,,,,,,,,,,,,,,,,
24524,0,,,251,254,238,233,,0.08,-0.02,1.83,0,-1,-1,0.08,,69,6597,8,36,39,0.643,0.0,631,4.86,13.1,0.0,1,30.5,1.17,6.9,0,0,0,1,0,,,,,,,,,,,,,,,,,,,,
24544,0,-0,2,251,254,238,233,2,0.03,0.02,1.69,0,1,1,0.04,1,69,6572,8,36,40,0.642,0.0,626,4.86,12.9,0.0,1,30.6,2.28,6.9,0,0,0,1,0,0,250,250,0,0.0,0.0,0.0,0.0,0,0,0.0,0,0.0,-1,0.0,,0.0,0,0.0,0.4091
24564,0,,,251,255,238,234,,0.09,0.01,1.87,0,0,-0,0.09,,69,6537,8,36,40,0.643,0.0,633,4.83,13.2,0.0,1,30.6,2.28,6.9,0,0,0,1,0,,,,,,,,,,,,,,,,,,,,
24584,0,,,252,253,237,233,,0.09,0.01,1.73,0,-2,-2,0.09,,69,6483,8,36,40,0.643,0.0,633,4.87,13.1,0.0,1,30.5,1.17,6.9,0,0,0,1,0,,,,,,,,,,,,,,,,,,,,
24604,0,,,252,253,238,234,,0.02,0.02,1.59,0,1,1,0.03,,69,6399,8,36,40,0.643,0.0,636,4.87,13.0,0.0,1,30.4,2.28,6.9,0,0,0,1,0,,,,,,,,,,,,,,,,,,,,
24624,0,,,251,254,238,233,,0.05,0.05,1.69,0,3,2,0.07,,69,6281,8,36,40,0.642,0.0,634,4.87,13.2,0.0,1,30.3,2.28,6.6,0,0,0,1,0,,,,,,,,,,,,,,,,,,,,
24644,0,0,0,252,254,237,234,3,0.08,0.07,1.86,0,4,2,0.11,1,69,6212,8,36,40,0.642,0.0,627,4.85,13.1,0.0,1,30.2,2.28,6.6,0,0,0,1,0,0,250,250,0,0.0,0.0,0.0,0.0,0,0,0.0,0,0.0,-1,0.0,0.0,0.0,0,0.0,0.4107
24664,0,,,252,255,238,234,,0.14,0.08,2.03,0,2,0,0.16,,69,6071,8,36,41,0.644,0.0,620,4.87,13.2,0.0,1,30.1,2.28,6.6,0,0,0,1,0,,,,,,,,,,,,,,,,,,,,
24684,0,,,251,255,238,234,,0.21,0.11,2.18,0,0,-2,0.24,,69,5907,8,36,42,0.644,0.0,615,4.87,13.2,0.0,1,30.0,2.33,6.6,0,0,0,1,0,,,,,,,,,,,,,,,,,,,,
24704,0,,,252,255,237,234,,0.23,0.16,2.32,0,3,-1,0.28,,69,5732,8,36,43,0.646,0.0,602,4.86,13.0,0.0,1,29.9,2.4,6.6,0,0,0,1,0,,,,,,,,,,,,,,,,,,,,
24724,0,,,252,253,238,234,,0.1,0.17,2.14,0,9,6,0.2,,69,5580,8,36,44,0.644,0.0,580,4.88,12.9,0.0,1,29.8,2.45,6.3,0,0,0,1,0,,,,,,,,,,,,,,,,,,,,
24744,0,-1,1,251,254,237,234,2,0.09,0.09,1.98,0,7,3,0.13,1,69,5519,8,36,45,0.644,0.0,570,4.9,13.1,0.0,1,29.9,1.41,6.3,0,0,0,1,0,0,250,250,0,0.0,0.0,0.0,0.0,0,0,0.0,0,0.0,-1,0.0,,0.0,0,0.0,0.4124
24764,0,,,252,255,238,234,,0.19,0.11,2.13,0,1,-1,0.22,,69,5445,8,36,46,0.645,0.0,567,4.87,13.2,0.0,1,30.0,2.55,6.3,0,0,0,1,0,,,,,,,,,,,,,,,,,,,,
24784,0,,,252,255,238,233,,0.08,0.12,1.97,0,7,5,0.14,,69,5325,8,36,47,0.644,0.0,550,4.89,13.0,0.0,1,30.0,2.63,6.3,0,0,0,1,0,,,,,,,,,,,,,,,,,,,,
24804,0,,,251,254,238,234,,0.18,0.11,2.12,0,-1,-3,0.21,,69,5199,8,36,48,0.646,0.0,542,4.87,13.2,0.0,1,30.1,2.7,6.3,0,0,0,1,0,,,,,,,,,,,,,,,,,,,,
24824,0,,,252,254,238,234,,0.1,0.11,1.96,0,5,4,0.15,,69,5122,8,36,49,0.645,0.0,537,4.9,13.0,0.0,1,30.3,1.66,6.5,0,0,0,1,0,,,,,,,,,,,,,,,,,,,,
24844,0,-1,2,252,255,238,233,2,0.11,0.14,2.12,0,-1,-1,0.18,1,69,5060,8,36,49,0.646,0.0,527,4.88,12.9,0.0,1,30.2,2.79,6.5,0,0,0,1,0,0,250,250,0,0.0,0.0,0.0,0.0,0,0,0.0,0,0.0,-1,0.0,0.0,0.0,0,0.0,0.4141
24864,0,,,252,254,238,233,,0.12,0.05,1.95,0,1,-1,0.13,,69,5020,8,36,51,0.647,0.0,519,4.88,13.2,0.0,1,30.8,2.83,6.5,0,0,0,1,0,,,,,,,,,,,,,,,,,,,,
24884,0,,,252,255,238,234,,0.09,0.09,1.9,0,5,3,0.13,,69,4939,8,36,51,0.648,0.0,517,4.9,13.0,0.0,1,30.0,1.7,6.5,0,0,0,1,0,,,,,,,,,,,,,,,,,,,,
24904,0,,,251,255,238,234,,0.08,0.11,2.06,0,0,-1,0.14,,69,4993,8,36,52,0.648,0.0,508,4.88,12.9,0.0,1,31.0,2.84,6.5,0,0,0,1,0,,,,,,,,,,,,,,,,,,,,
24924,0,,,252,254,237,234,,0.11,0.09,1.9,0,-0,-1,0.14,,69,4882,8,36,52,0.648,0.0,512,4.87,13.2,0.0,1,29.6,2.77,6.3,0,0,0,1,0,,,,,,,,,,,,,,,,,,,,
24944,0,0,2,251,254,238,234,3,0.1,0.04,1.76,0,3,2,0.11,1,69,4918,8,36,53,0.647,0.0,513,4.88,13.1,0.0,1,30.4,1.72,6.3,0,0,0,1,0,0,250,250,0,0.0,0.0,0.0,0.0,0,0,0.0,0,0.0,-1,0.0,,0.0,0,0.0,0.4157
24964,0,,,252,255,237,234,,0.06,0.06,1.93,0,2,1,0.08,,69,4884,8,36,53,0.647,0.0,507,4.89,12.9,0.0,1,30.0,1.69,6.3,0,0,0,1,0,,,,,,,,,,,,,,,,,,,,
24984,0,,,252,255,238,234,,0.06,0.09,2.09,0,-1,-2,0.11,,69,4889,8,36,54,0.649,0.0,503,4.91,13.3,0.0,1,30.4,2.81,6.3,0,0,0,1,0,,,,,,,,,,,,,,,,,,,,
25004,0,,,251,255,237,234,,0.09,0.09,1.93,0,0,-1,0.13,,69,4811,8,36,54,0.65,0.0,506,4.91,13.2,0.0,1,29.4,2.76,6.3,0,0,0,1,0,,,,,,,,,,,,,,,,,,,,
25024,0,,,252,255,238,234,,0.12,0.01,1.78,0,1,-1,0.12,,69,4673,8,36,55,0.651,0.0,481,4.92,13.2,0.0,1,27.9,2.66,5.8,0,0,0,1,0,,,,,,,,,,,,,,,,,,,,
25044,0,0,1,252,253,238,234,3,0.15,-0.06,1.64,0,-2,-1,0.16,1,69,4532,8,36,55,0.655,0.0,478,4.9,13.0,0.0,1,26.1,1.46,5.8,0,0,0,1,0,0,250,250,0,0.0,0.0,0.0,0.0,0,0,0.0,0,0.0,-1,0.0,0.0,0.0,0,0.0,0.4174
25064,0,,,252,256,237,233,,0.28,-0.12,1.51,0,-4,-0,0.3,,69,4506,8,36,56,0.655,0.0,454,4.89,13.2,0.0,1,26.1,1.46,5.8,0,0,0,1,0,,,,,,,,,,,,,,,,,,,,
25084,0,,,252,256,236,232,,0.22,-0.15,1.4,0,-2,-0,0.27,,69,4469,8,36,56,0.655,0.0,449,4.87,13.2,0.0,1,25.6,2.53,5.8,0,0,0,1,0,,,,,,,,,,,,,,,,,,,,
25104,0,,,252,256,236,232,,0.2,-0.17,1.29,0,-2,-1,0.26,,69,4530,8,36,57,0.655,0.0,448,4.87,13.2,0.0,1,26.7,2.58,5.8,0,0,0,1,0,,,,,,,,,,,,,,,,,,,,
25124,0,,,252,254,237,232,,0.2,-0.11,1.19,0,-0,-0,0.23,,69,4505,9,36,57,0.655,0.0,442,4.89,13.2,0.0,1,26.4,2.57,5.3,0,0,0,1,0,,,,,,,,,,,,,,,,,,,,
25144,0,-0,2,251,252,237,233,2,0.34,-0.14,1.1,0,1,2,0.37,1,69,4596,10,36,58,0.654,0.0,448,4.9,13.2,0.0,1,27.8,1.52,5.3,0,0,0,1,0,0,250,250,0,0.0,0.0,0.0,0.0,0,0,0.0,0,0.0,-1,0.0,,0.0,0,0.0,0.4191
25164,0,,,251,253,238,233,,0.31,-0.16,1.01,0,3,3,0.35,,69,4643,11,36,59,0.655,0.0,451,4.89,13.1,0.0,1,28.7,1.55,5.3,0,0,0,1,0,,,,,,,,,,,,,,,,,,,,
25184,0,,,251,255,237,233,,0.3,-0.15,1.07,0,5,4,0.33,,69,4674,11,36,60,0.654,0.0,450,4.87,13.0,0.0,1,29.4,1.56,5.3,0,0,0,1,0,,,,,,,,,,,,,,,,,,,,
25204,0,,,251,255,236,232,,0.16,-0.12,1.3,0,3,3,0.2,,69,4773,11,36,61,0.654,0.0,472,4.88,13.0,0.0,1,31.0,2.71,5.3,0,0,0,1,0,,,,,,,,,,,,,,,,,,,,
25224,0,,,251,255,236,232,,0.15,-0.06,1.5,0,0,1,0.17,,69,4789,11,36,61,0.655,0.0,468,4.87,13.2,0.0,1,31.2,2.72,6.0,0,0,0,1,0,,,,,,,,,,,,,,,,,,,,
25244,0,0,1,251,255,237,232,3,0.19,-0.08,1.39,0,-1,-0,0.2,1,69,4877,11,36,62,0.653,0.0,479,4.86,13.2,0.0,1,32.6,2.79,6.0,0,0,0,1,0,0,250,250,0,0.0,0.0,0.0,0.0,0,0,0.0,0,0.0,-1,0.0,0.0,0.0,0,0.0,0.4207
25264,0,,,250,252,237,232,,0.16,-0.12,1.28,0,4,4,0.2,,69,4951,11,36,62,0.651,0.0,497,4.93,13.1,0.0,1,33.6,2.87,6.0,0,0,0,1,0,,,,,,,,,,,,,,,,,,,,
25284,0,,,250,254,237,233,,0.18,-0.1,1.49,0,0,1,0.21,,69,5051,11,36,63,0.649,0.0,494,4.88,12.8,0.0,1,34.6,2.87,6.0,0,0,0,1,0,,,,,,,,,,,,,,,,,,,,
25304,0,,,250,255,237,232,,0.19,-0.11,1.38,0,-1,-0,0.22,,69,5104,11,36,64,0.648,0.0,517,4.87,13.2,0.0,1,34.9,2.85,6.0,0,0,0,1,0,,,,,,,,,,,,,,,,,,,,
25324,0,,,251,255,236,232,,0.1,-0.06,1.27,0,5,6,0.12,,69,5170,11,36,64,0.647,0.0,525,4.86,12.9,0.0,1,34.9,1.81,6.9,0,0,0,1,0,,,,,,,,,,,,,,,,,,,,
25344,0,-0,2,251,255,236,232,1,0.19,-0.04,1.48,1,-3,-1,0.19,1,69,5293,11,36,64,0.648,0.0,529,4.85,13.3,0.0,1,34.8,2.86,6.9,0,0,0,1,0,0,250,250,0,0.0,0.0,0.0,0.0,0,0,0.0,0,0.0,-1,0.0,,0.0,0,0.0,0.4224
25364,0,,,251,255,237,232,,0.12,-0.02,1.37,1,5,7,0.12,,69,5326,11,37,65,0.647,0.0,535,4.89,13.0,0.0,1,35.1,2.95,6.9,0,0,0,1,0,,,,,,,,,,,,,,,,,,,,
25384,0,,,250,254,237,233,,0.16,-0.07,1.26,1,-1,3,0.17,,69,5430,11,37,65,0.647,0.0,547,4.86,13.2,0.0,1,35.0,2.93,6.9,0,0,0,1,0,,,,,,,,,,,,,,,,,,,,
25404,0,,,250,252,237,232,,0.17,-0.01,1.47,1,1,3,0.17,,69,5504,11,37,64,0.647,0.0,554,4.87,13.2,0.0,1,34.8,2.8,6.9,0,0,0,1,0,,,,,,,,,,,,,,,,,,,,
25424,0,,,250,253,237,233,,0.06,-0.06,1.36,1,6,8,0.08,,69,5580,11,37,64,0.646,0.0,560,4.87,12.9,0.0,1,34.7,1.69,7.1,0,0,0,1,0,,,,,,,,,,,,,,,,,,,,
25444,0,0,1,250,254,237,232,1,0.1,-0.11,1.25,-0,6,5,0.14,1,69,5639,11,37,64,0.646,0.0,573,4.87,13.2,0.0,1,34.7,1.68,7.1,0,0,0,1,0,0,250,250,0,0.0,0.0,0.0,0.0,0,0,0.0,0,0.0,-1,0.0,0.0,0.0,0,0.0,0.4241
25464,0,,,251,254,237,232,,0.17,-0.07,1.46,-0,-1,-0,0.18,,69,5739,11,37,64,0.647,0.0,581,4.87,13.2,0.0,1,34.7,2.75,7.1,0,0,0,1,0,,,,,,,,,,,,,,,,,,,,
25484,0,,,250,254,236,232,,0.2,-0.03,1.66,-0,-2,-1,0.2,,69,5799,11,37,64,0.648,0.0,582,4.83,13.1,0.0,1,34.7,2.73,7.1,0,0,0,1,0,,,,,,,,,,,,,,,,,,,,
25504,0,,,250,254,237,233,,0.19,-0.02,1.84,-0,1,1,0.19,,69,5877,11,37,63,0.648,0.0,587,4.86,13.0,0.0,1,34.4,2.55,7.1,0,0,0,1,0,,,,,,,,,,,,,,,,,,,,
25524,0,,,250,254,237,232,,0.19,0.01,1.7,-0,4,3,0.19,,69,5986,11,37,63,0.648,0.0,600,4.83,13.2,0.0,1,34.4,2.5,6.9,0,0,0,1,0,,,,,,,,,,,,,,,,,,,,
25544,0,0,1,251,254,237,232,2,0.2,0.03,1.87,-0,5,3,0.21,1,69,6025,11,37,63,0.648,0.0,612,4.87,13.0,0.0,1,34.6,2.5,6.9,0,0,0,1,0,0,250,250,0,0.0,0.0,0.0,0.0,0,0,0.0,0,0.0,-1,0.0,,0.0,0,0.0,0.4257
25564,0,,,250,254,237,232,,0.23,0.04,2.04,-0,6,4,0.23,,69,6129,11,37,62,0.648,0.0,616,4.85,13.2,0.0,1,34.8,2.37,6.9,0,0,0,1,0,,,,,,,,,,,,,,,,,,,,
25584,0,,,250,254,237,232,,0.26,0.03,2.19,-0,4,2,0.26,,69,6171,11,37,62,0.649,0.0,618,4.86,13.2,0.0,1,35.0,2.38,6.9,0,0,0,1,0,,,,,,,,,,,,,,,,,,,,
25604,0,,,250,254,237,232,,0.29,0.04,2.33,-0,-0,-1,0.29,,69,6304,11,37,61,0.649,0.0,622,4.87,13.1,0.0,1,35.3,1.16,6.9,0,0,0,1,0,,,,,,,,,,,,,,,,,,,,
25624,0,,,250,254,237,232,,0.22,0.04,2.15,-0,0,0,0.22,,69,6514,11,37,60,0.65,0.0,631,4.88,12.9,0.0,1,35.9,2.31,6.8,0,0,0,1,0,,,,,,,,,,,,,,,,,,,,
25644,0,-0,1,250,254,237,232,2,0.24,0.06,2.29,-0,1,-0,0.25,1,69,6734,11,37,59,0.648,0.0,636,4.87,13.3,0.0,1,36.5,2.35,6.8,0,0,0,1,0,0,250,250,0,0.0,0.0,0.0,0.0,0,0,0.0,0,0.0,-1,0.0,0.0,0.0,0,0.0,0.4274
25664,0,,,251,254,237,232,,0.19,0.04,2.11,-0,2,1,0.19,,69,6996,11,37,57,0.648,0.0,635,4.88,12.9,0.0,1,36.8,2.38,6.8,0,0,0,1,0,,,,,,,,,,,,,,,,,,,,
25684,0,,,250,252,237,232,,0.18,0.05,2.05,-0,0,-0,0.18,,69,7159,11,37,56,0.649,0.0,638,4.87,13.1,0.0,1,36.6,1.22,6.8,0,0,0,1,0,,,,,,,,,,,,,,,,,,,,
25704,0,,,250,253,237,232,,0.16,0.02,2.12,-0,-1,-1,0.17,,69,7261,11,37,55,0.647,0.0,650,4.87,13.2,0.0,1,36.4,2.32,6.8,0,0,0,1,0,,,,,,,,,,,,,,,,,,,,
25724,0,,,251,254,237,232,,0.16,0.01,2.2,-0,-1,-3,0.16,,69,7402,11,37,54,0.646,0.0,650,4.83,13.2,0.0,1,36.3,2.32,7.9,0,0,0,1,0,,,,,,,,,,,,,,,,,,,,
25744,0,0,1,250,254,237,232,1,0.17,0.04,2.25,-0,-2,-4,0.17,1,69,7473,11,37,53,0.645,0.0,654,4.87,13.1,0.0,1,36.1,2.32,7.9,0,0,0,1,0,0,250,250,0,0.0,0.0,0.0,0.0,0,0,0.0,0,0.0,-1,0.0,,0.0,0,0.0,0.4291
25764,0,,,250,254,237,232,,0.14,0.04,2.3,-0,-3,-5,0.15,,69,7618,11,37,52,0.644,0.0,652,4.86,13.2,0.0,1,36.2,2.34,7.9,0,0,0,1,0,,,,,,,,,,,,,,,,,,,,
25784,0,,,250,254,237,232,,0.1,0.03,2.14,-0,-4,-5,0.11,,69,7735,11,37,51,0.643,0.0,658,4.85,13.2,0.0,1,36.2,1.24,7.9,0,0,0,1,0,,,,,,,,,,,,,,,,,,,,
25804,0,,,251,253,237,232,,0.07,0.05,1.97,-0,-3,-3,0.08,,69,7874,11,37,50,0.643,0.0,660,4.85,13.0,0.0,1,36.4,1.26,7.9,0,0,0,1,0,,,,,,,,,,,,,,,,,,,,
25824,0,,,250,254,236,232,,0.09,0.0,1.91,0,-2,-1,0.09,,69,8047,11,37,49,0.641,0.0,659,4.87,12.9,0.0,1,36.7,2.43,8.7,0,0,0,1,0,,,,,,,,,,,,,,,,,,,,
25844,0,-1,2,250,254,237,232,2,0.08,-0.03,1.85,-0,-2,-3,0.08,1,69,8223,11,37,47,0.639,0.0,667,4.87,13.1,0.0,1,36.7,2.58,8.7,0,0,0,1,0,0,250,250,0,0.0,0.0,0.0,0.0,0,0,0.0,0,0.0,-1,0.0,0.0,0.0,0,0.0,0.4307
25864,0,,,250,254,236,232,,0.1,-0.04,1.71,-0,-1,-1,0.1,,69,8430,11,37,45,0.637,0.0,666,4.85,12.9,0.0,1,35.6,2.76,8.7,0,0,0,1,0,,,,,,,,,,,,,,,,,,,,
25884,0,,,250,254,237,233,,0.1,0.0,1.57,0,-0,1,0.1,,69,8593,11,37,43,0.637,0.0,666,4.83,12.9,0.0,1,34.5,2.8,8.7,0,0,0,1,0,,,,,,,,,,,,,,,,,,,,
25904,0,,,250,254,236,232,,0.07,0.05,1.6,0,-1,-0,0.08,,69,8765,11,37,41,0.636,0.0,671,4.85,13.0,0.0,1,33.2,2.78,8.7,0,0,0,1,0,,,,,,,,,,,,,,,,,,,,
25924,0,,,251,254,237,232,,0.03,0.07,1.74,-0,-3,-4,0.08,,69,8852,11,37,41,0.635,0.0,674,4.86,13.1,0.0,1,33.2,2.74,11.2,0,0,0,1,0,,,,,,,,,,,,,,,,,,,,
25944,0,-0,1,250,254,237,232,3,-0.0,0.03,1.91,-1,-4,-9,0.03,1,69,8907,11,37,39,0.635,0.0,675,4.86,13.1,0.0,1,32.0,2.74,11.2,0,0,0,1,0,0,250,250,0,0.0,0.0,0.0,0.0,0,0,0.0,0,0.0,-1,0.0,,0.0,0,0.0,0.4324
25964,0,,,250,254,236,233,,-0.02,-0.03,2.06,-1,-5,-12,0.03,,69,8898,11,37,39,0.634,0.0,675,4.87,13.1,0.0,1,32.0,2.72,11.2,0,0,0,1,0,,,,,,,,,,,,,,,,,,,,
25984,0,,,250,254,237,232,,-0.01,-0.09,2.2,-1,-5,-13,0.09,,69,8890,11,37,38,0.633,0.0,676,4.87,13.1,0.0,1,31.7,2.67,11.2,0,0,0,1,0,,,,,,,,,,,,,,,,,,,,
26004,0,,,250,254,237,232,,0.02,-0.18,2.24,-1,-5,-12,0.18,,69,8811,11,37,38,0.633,0.0,671,4.86,13.1,0.0,1,31.7,2.67,11.2,0,0,0,1,0,,,,,,,,,,,,,,,,,,,,
26024,0,,,250,254,236,232,,0.06,-0.18,2.1,-0,-4,-8,0.19,,69,8741,11,37,38,0.632,0.0,670,4.85,13.0,0.0,1,31.7,2.63,10.6,0,0,0,1,0,,,,,,,,,,,,,,,,,,,,
26044,0,-0,2,250,254,237,232,3,0.06,-0.11,1.94,-0,-3,-4,0.13,1,69,8608,11,37,38,0.632,0.0,665,4.83,12.9,0.0,1,31.7,2.67,10.6,0,0,0,1,0,0,250,250,0,0.0,0.0,0.0,0.0,0,0,0.0,0,0.0,-1,0.0,0.0,0.0,0,0.0,0.4341
26064,0,,,251,254,237,232,,0.04,-0.11,1.85,-0,-3,-5,0.12,,69,8491,11,37,38,0.632,0.0,664,4.85,13.1,0.0,1,31.6,2.66,10.6,0,0,0,1,0,,,,,,,,,,,,,,,,,,,,
26084,0,,,250,254,237,232,,0.07,-0.1,1.71,-0,-1,-4,0.12,,69,8311,11,37,38,0.632,0.0,663,4.85,13.0,0.0,1,31.3,2.5,10.6,0,0,0,1,0,,,,,,,,,,,,,,,,,,,,
26104,0,,,250,254,236,232,,0.06,-0.08,1.82,-0,-2,-5,0.1,,69,8116,11,37,39,0.633,0.0,665,4.86,13.1,0.0,1,31.2,2.39,10.6,0,0,0,1,0,,,,,,,,,,,,,,,,,,,,
26124,0,,,250,254,237,232,,0.0,-0.03,1.68,-0,-0,-2,0.03,,69,7878,11,37,39,0.634,0.0,659,4.89,12.9,0.0,1,31.0,2.28,8.4,0,0,0,1,0,,,,,,,,,,,,,,,,,,,,
26144,0,0,2,250,254,237,233,2,0.02,-0.04,1.55,-0,1,-0,0.05,1,69,7770,11,36,40,0.634,0.0,660,4.86,13.0,0.0,1,31.6,2.28,8.4,0,0,0,1,0,0,250,250,0,0.0,0.0,0.0,0.0,0,0,0.0,0,0.0,-1,0.0,,0.0,0,0.0,0.4357
26164,0,,,250,254,237,232,,0.07,-0.06,1.63,-0,1,-1,0.09,,69,7618,11,36,41,0.634,0.0,655,4.88,12.9,0.0,1,32.0,2.28,8.4,0,0,0,1,0,,,,,,,,,,,,,,,,,,,,
26184,0,,,250,254,237,232,,0.1,-0.06,1.63,-0,1,-1,0.12,,69,7440,11,36,42,0.635,0.0,650,4.88,12.9,0.0,1,32.4,2.28,8.4,0,0,0,1,0,,,,,,,,,,,,,,,,,,,,
26204,0,,,250,254,237,232,,0.12,-0.02,1.67,-0,2,-0,0.12,,69,7437,11,36,43,0.635,0.0,650,4.84,13.1,0.0,1,32.8,2.28,8.4,0,0,0,1,0,,,,,,,,,,,,,,,,,,,,
26224,0,,,250,254,237,232,,0.13,-0.02,1.54,-0,3,1,0.13,,69,7437,11,36,43,0.635,0.0,645,4.9,12.9,0.0,1,32.8,2.28,7.8,0,0,0,1,0,,,,,,,,,,,,,,,,,,,,
26244,0,-1,2,250,254,237,232,3,0.14,-0.04,1.44,-0,3,1,0.15,1,69,7503,11,36,43,0.635,0.0,646,4.86,13.0,0.0,1,33.0,2.28,7.8,0,0,0,1,0,0,250,250,0,0.0,0.0,0.0,0.0,0,0,0.0,0,0.0,-1,0.0,0.0,0.0,0,0.0,0.4374
26264,0,,,250,254,237,232,,0.16,-0.04,1.4,-0,3,1,0.17,,69,7563,11,36,44,0.635,0.0,647,4.88,13.0,0.0,1,33.6,2.28,7.8,0,0,0,1,0,,,,,,,,,,,,,,,,,,,,
26284,0,,,250,254,237,232,,0.2,-0.0,1.55,-0,3,0,0.2,,69,7625,11,36,44,0.636,0.0,650,4.91,13.1,0.0,1,33.7,2.28,7.8,0,0,0,1,0,,,,,,,,,,,,,,,,,,,,
26304,0,,,250,254,237,232,,0.24,-0.01,1.7,-0,2,-1,0.24,,69,7671,11,36,43,0.636,0.0,653,4.88,13.0,0.0,1,33.2,2.29,7.8,0,0,0,1,0,,,,,,,,,,,,,,,,,,,,
26324,0,,,250,254,237,232,,0.23,-0.01,1.87,-0,1,-3,0.23,,69,7738,11,36,43,0.636,0.0,658,4.85,13.2,0.0,1,33.3,2.29,8.1,0,0,0,1,0,,,,,,,,,,,,,,,,,,,,
26344,0,-0,1,250,254,237,232,3,0.19,-0.02,1.74,-0,-0,-3,0.19,1,69,7796,11,36,43,0.637,0.0,660,4.85,13.2,0.0,1,33.4,2.3,8.1,0,0,0,1,0,0,250,250,0,0.0,0.0,0.0,0.0,0,0,0.0,0,0.0,-1,0.0,,0.0,0,0.0,0.4391
26364,0,,,250,254,236,232,,0.14,0.03,1.61,0,1,-0,0.14,,69,7858,11,36,43,0.637,0.0,657,4.88,13.0,0.0,1,33.5,2.3,8.1,0,0,0,1,0,,,,,,,,,,,,,,,,,,,,
26384,0,,,250,254,237,232,,0.16,-0.01,1.54,0,2,0,0.16,,69,7921,11,36,43,0.636,0.0,660,4.86,13.0,0.0,1,33.6,2.3,8.1,0,0,0,1,0,,,,,,,,,,,,,,,,,,,,
26404,0,,,250,254,237,232,,0.18,-0.08,1.65,0,0,-2,0.19,,69,7985,11,36,43,0.635,0.0,661,4.87,13.1,0.0,1,33.7,2.31,8.1,0,0,0,1,0,,,,,,,,,,,,,,,,,,,,
26424,0,,,250,254,237,232,,0.12,-0.02,1.52,0,1,0,0.12,,69,8057,11,36,42,0.635,0.0,661,4.82,13.0,0.0,1,33.1,1.25,8.7,0,0,0,1,0,,,,,,,,,,,,,,,,,,,,
26444,0,0,0,251,254,236,232,2,0.17,-0.06,1.6,0,1,0,0.18,1,69,8152,11,36,42,0.635,0.0,660,4.87,12.9,0.0,1,33.3,2.44,8.7,0,0,0,1,0,0,250,250,0,0.0,0.0,0.0,0.0,0,0,0.0,0,0.0,-1,0.0,0.0,0.0,0,0.0,0.4407
26464,0,,,250,254,237,232,,0.14,-0.06,1.47,0,1,1,0.15,,69,8209,11,36,41,0.635,0.0,658,4.86,13.1,0.0,1,32.7,2.48,8.7,0,0,0,1,0,,,,,,,,,,,,,,,,,,,,
26484,0,,,251,254,237,232,,0.15,-0.06,1.37,0,2,1,0.16,,69,8274,11,36,40,0.635,0.0,658,4.86,12.9,0.0,1,32.1,2.53,8.7,0,0,0,1,0,,,,,,,,,,,,,,,,,,,,
26504,0,,,250,254,237,232,,0.12,-0.05,1.36,0,1,1,0.13,,69,8344,11,36,40,0.636,0.0,657,4.85,13.0,0.0,1,32.2,1.49,8.7,0,0,0,1,0,,,,,,,,,,,,,,,,,,,,
26524,0,,,250,254,237,232,,0.15,-0.07,1.57,0,-0,-1,0.17,,69,8389,11,36,39,0.636,0.0,662,4.85,13.1,0.0,1,31.7,2.62,10.0,0,0,0,1,0,,,,,,,,,,,,,,,,,,,,
26544,0,0,1,250,254,237,232,2,0.12,-0.04,1.45,0,1,2,0.13,1,69,8404,11,36,38,0.636,0.0,663,4.85,13.1,0.0,1,31.5,2.58,10.0,0,0,0,1,0,0,250,250,0,0.0,0.0,0.0,0.0,0,0,0.0,0,0.0,-1,0.0,,0.0,0,0.0,0.4424
26564,0,,,250,254,236,232,,0.12,-0.08,1.45,0,1,-0,0.14,,69,8438,11,36,38,0.636,0.0,666,4.85,13.1,0.0,1,31.5,2.61,10.0,0,0,0,1,0,,,,,,,,,,,,,,,,,,,,
26584,0,,,250,254,237,232,,0.14,-0.05,1.34,0,2,0,0.15,,69,8453,11,36,38,0.636,0.0,665,4.85,12.9,0.0,1,31.6,1.52,10.0,0,0,0,1,0,,,,,,,,,,,,,,,,,,,,
26604,0,,,250,253,237,232,,0.1,-0.02,1.26,0,2,2,0.11,,69,8465,11,36,37,0.636,0.0,664,4.83,13.0,0.0,1,31.3,1.49,10.0,0,0,0,1,0,,,,,,,,,,,,,,,,,,,,
26624,0,,,250,254,237,232,,0.11,-0.04,1.47,0,-1,-2,0.12,,69,8465,11,36,36,0.636,0.0,668,4.85,13.1,0.0,1,31.0,2.59,10.1,0,0,0,1,0,,,,,,,,,,,,,,,,,,,,
26644,0,0,1,250,254,237,232,3,0.13,-0.05,1.35,0,0,0,0.13,1,69,8423,11,36,36,0.636,0.0,667,4.86,12.9,0.0,1,30.9,2.51,10.1,0,0,0,1,0,0,250,250,0,0.0,0.0,0.0,0.0,0,0,0.0,0,0.0,-1,0.0,0.0,0.0,0,0.0,0.4441
26664,0,,,250,254,236,232,,0.1,-0.06,1.25,0,0,1,0.12,,69,8400,11,36,36,0.637,0.0,662,4.87,13.1,0.0,1,30.9,2.49,10.1,0,0,0,1,0,,,,,,,,,,,,,,,,,,,,
26684,0,,,250,253,237,232,,0.12,-0.07,1.24,0,0,-1,0.14,,69,8359,11,36,36,0.637,0.0,666,4.86,13.1,0.0,1,30.8,2.45,10.1,0,0,0,1,0,,,,,,,,,,,,,,,,,,,,
26704,0,,,250,253,237,232,,0.09,-0.03,1.14,0,2,2,0.09,,69,8337,11,36,36,0.637,0.0,655,4.85,13.0,0.0,1,30.7,2.44,10.1,0,0,0,1,0,,,,,,,,,,,,,,,,,,,,
26724,0,,,250,254,237,232,,0.11,-0.07,1.36,0,-0,-2,0.13,,69,8296,11,36,36,0.637,0.0,661,4.87,13.0,0.0,1,30.6,2.4,9.2,0,0,0,1,0,,,,,,,,,,,,,,,,,,,,
26744,0,0,1,250,254,237,232,2,0.09,-0.03,1.26,0,0,1,0.09,1,69,8249,11,36,36,0.637,0.0,660,4.86,12.9,0.0,1,30.5,2.35,9.2,0,0,0,1,0,0,250,250,0,0.0,0.0,0.0,0.0,0,0,0.0,0,0.0,-1,0.0,,0.0,0,0.0,0.4457
26764,0,,,250,254,237,232,,0.12,-0.07,1.38,0,-0,-1,0.14,,69,8238,11,36,36,0.637,0.0,658,4.86,13.0,0.0,1,30.5,2.34,9.2,0,0,0,1,0,,,,,,,,,,,,,,,,,,,,
26784,0,,,250,254,236,232,,0.07,-0.0,1.27,0,1,2,0.07,,69,8202,11,36,36,0.637,0.0,662,4.87,13.0,0.0,1,30.5,2.31,9.2,0,0,0,1,0,,,,,,,,,,,,,,,,,,,,
26804,0,,,250,254,236,232,,0.11,-0.07,1.48,0,-0,-0,0.13,,69,8184,11,36,36,0.637,0.0,660,4.84,13.1,0.0,1,30.4,2.3,9.2,0,0,0,1,0,,,,,,,,,,,,,,,,,,,,
26824,0,,,250,254,237,232,,0.08,-0.07,1.37,0,0,2,0.11,,69,8123,11,36,37,0.638,0.0,662,4.86,13.2,0.0,1,30.6,2.24,8.5,0,0,0,1,0,,,,,,,,,,,,,,,,,,,,
26844,0,-0,1,250,254,237,232,2,0.1,-0.05,1.26,0,2,2,0.11,1,69,8134,11,36,36,0.638,0.0,660,4.87,13.1,0.0,1,30.3,2.3,8.5,0,0,0,1,0,0,250,250,0,0.0,0.0,0.0,0.0,0,0,0.0,0,0.0,-1,0.0,0.0,0.0,0,0.0,0.4474
26864,0,,,250,254,237,232,,0.09,-0.04,1.44,0,1,0,0.1,,69,8120,11,36,37,0.638,0.0,661,4.86,13.1,0.0,1,30.6,2.29,8.5,0,0,0,1,0,,,,,,,,,,,,,,,,,,,,
26884,0,,,250,254,237,233,,0.06,0.02,1.33,0,2,3,0.06,,69,8123,11,36,37,0.638,0.0,662,4.87,12.9,0.0,1,30.6,1.18,8.5,0,0,0,1,0,,,,,,,,,,,,,,,,,,,,
26904,0,,,250,254,236,232,,0.11,-0.04,1.53,0,1,0,0.11,,69,8102,11,36,37,0.638,0.0,661,4.85,13.2,0.0,1,30.6,2.27,8.5,0,0,0,1,0,,,,,,,,,,,,,,,,,,,,
26924,0,,,250,254,236,232,,0.05,-0.0,1.41,0,2,2,0.05,,69,8099,11,36,37,0.637,0.0,652,4.86,13.0,0.0,1,30.5,2.27,8.4,0,0,0,1,0,,,,,,,,,,,,,,,,,,,,
26944,0,-1,2,250,254,236,233,2,0.08,0.01,1.47,0,1,1,0.08,1,69,8106,11,36,37,0.637,0.0,656,4.88,12.9,0.0,1,30.6,2.27,8.4,0,0,0,1,0,0,250,250,0,0.0,0.0,0.0,0.0,0,0,0.0,0,0.0,-1,0.0,,0.0,0,0.0,0.4491
26964,0,,,250,254,237,232,,0.08,0.0,1.56,0,0,-1,0.08,,69,8081,11,36,37,0.637,0.0,662,4.85,13.1,0.0,1,30.5,2.25,8.4,0,0,0,1,0,,,,,,,,,,,,,,,,,,,,
26984,0,,,250,254,237,232,,0.05,0.07,1.44,0,2,2,0.08,,69,8092,11,36,38,0.637,0.0,651,4.85,13.1,0.0,1,30.8,2.31,8.4,0,0,0,1,0,,,,,,,,,,,,,,,,,,,,
27004,0,,,251,254,237,233,,0.1,0.02,1.64,0,-0,-1,0.1,,69,8099,11,36,37,0.637,0.0,659,4.84,13.1,0.0,1,30.5,2.27,8.4,0,0,0,1,0,,,,,,,,,,,,,,,,,,,,
27024,0,,,250,254,237,232,,0.06,0.05,1.51,0,0,0,0.08,,69,8078,11,36,38,0.637,0.0,658,4.84,13.1,0.0,1,30.8,2.24,8.4,0,0,0,1,0,,,,,,,,,,,,,,,,,,,,
27044,0,1,1,250,254,237,232,2,0.09,0.06,1.42,0,1,0,0.1,1,69,8092,11,36,38,0.637,0.0,655,4.9,13.1,0.0,1,30.8,2.31,8.4,0,0,0,1,0,0,250,250,0,0.0,0.0,0.0,0.0,0,0,0.0,0,0.0,-1,0.0,0.0,0.0,0,0.0,0.4507
27064,0,,,251,254,237,232,,0.09,0.03,1.62,0,-1,-2,0.1,,69,8092,11,36,38,0.637,0.0,661,4.83,13.1,0.0,1,30.8,2.31,8.4,0,0,0,1,0,,,,,,,,,,,,,,,,,,,,
27084,0,,,250,254,236,232,,0.05,0.05,1.5,0,0,1,0.07,,69,8113,11,36,38,0.637,0.0,661,4.86,12.9,0.0,1,30.9,2.33,8.4,0,0,0,1,0,,,,,,,,,,,,,,,,,,,,
27104,0,,,251,254,237,232,,0.09,0.01,1.6,0,-0,-1,0.09,,69,8123,11,36,38,0.637,0.0,663,4.86,13.2,0.0,1,30.9,2.34,8.4,0,0,0,1,0,,,,,,,,,,,,,,,,,,,,
27124,0,,,250,254,237,232,,0.05,0.05,1.47,0,1,1,0.07,,69,8123,11,36,38,0.637,0.0,660,4.85,13.0,0.0,1,30.9,2.34,8.8,0,0,0,1,0,,,,,,,,,,,,,,,,,,,,
27144,0,-1,2,250,254,236,232,2,0.07,-0.0,1.48,0,0,1,0.07,1,69,8138,11,36,38,0.637,0.0,663,4.87,12.9,0.0,1,30.9,2.36,8.8,0,0,0,1,0,0,250,250,0,0.0,0.0,0.0,0.0,0,0,0.0,0,0.0,-1,0.0,,0.0,0,0.0,0.4524
27164,0,,,250,254,236,232,,0.07,-0.05,1.43,0,-0,1,0.08,,69,8138,11,36,38,0.637,0.0,663,4.87,13.1,0.0,1,30.9,1.25,8.8,0,0,0,1,0,,,,,,,,,,,,,,,,,,,,
27184,0,,,250,254,237,232,,0.07,0.01,1.32,1,2,3,0.07,,69,8173,11,36,38,0.637,0.0,659,4.87,13.0,0.0,1,31.0,2.39,8.8,0,0,0,1,0,,,,,,,,,,,,,,,,,,,,
27204,0,,,250,254,237,232,,0.08,-0.02,1.53,0,0,0,0.08,,69,8184,11,36,38,0.637,0.0,657,4.85,13.1,0.0,1,31.0,2.4,8.8,0,0,0,1,0,,,,,,,,,,,,,,,,,,,,
27224,0,,,250,254,236,233,,0.04,0.04,1.41,0,2,3,0.05,,69,8216,11,36,38,0.637,0.0,657,4.86,12.9,0.0,1,31.1,1.32,9.2,0,0,0,1,0,,,,,,,,,,,,,,,,,,,,
27244,0,0,0,250,254,236,232,2,0.07,0.0,1.6,0,1,-0,0.07,1,69,8216,11,36,37,0.637,0.0,660,4.88,13.1,0.0,1,30.8,2.38,9.2,0,0,0,1,0,0,250,250,0,0.0,0.0,0.0,0.0,0,0,0.0,0,0.0,-1,0.0,0.0,0.0,0,0.0,0.4541
27264,0,,,250,254,237,232,,0.03,0.07,1.47,0,2,2,0.08,,69,8238,11,36,37,0.637,0.0,656,4.87,12.9,0.0,1,30.8,1.28,9.2,0,0,0,1,0,,,,,,,,,,,,,,,,,,,,
27284,0,,,251,254,237,232,,0.05,0.02,1.67,0,-0,-1,0.06,,69,8267,11,36,37,0.637,0.0,661,4.86,13.1,0.0,1,30.9,2.42,9.2,0,0,0,1,0,,,,,,,,,,,,,,,,,,,,
27304,0,,,250,254,237,232,,0.04,0.05,1.54,0,1,2,0.06,,69,8256,11,36,37,0.637,0.0,659,4.85,13.1,0.0,1,30.9,2.41,9.2,0,0,0,1,0,,,,,,,,,,,,,,,,,,,,
27324,0,,,250,254,237,232,,0.07,-0.03,1.61,0,0,-1,0.07,,69,8249,11,36,37,0.638,0.0,661,4.85,13.1,0.0,1,30.8,2.4,9.2,0,0,0,1,0,,,,,,,,,,,,,,,,,,,,
27344,0,-0,2,250,254,237,232,3,0.03,0.06,1.49,0,2,3,0.06,1,69,8245,11,36,37,0.637,0.0,662,4.88,12.9,0.0,1,30.8,1.29,9.2,0,0,0,1,0,0,250,250,0,0.0,0.0,0.0,0.0,0,0,0.0,0,0.0,-1,0.0,,0.0,0,0.0,0.4557
27364,0,,,250,254,237,232,,0.06,0.0,1.68,0,0,0,0.06,,69,8238,11,36,36,0.637,0.0,663,4.83,13.2,0.0,1,30.5,2.34,9.2,0,0,0,1,0,,,,,,,,,,,,,,,,,,,,
27384,0,,,250,254,237,232,,0.03,0.07,1.55,0,2,3,0.08,,69,8249,11,36,36,0.637,0.0,665,4.88,12.9,0.0,1,30.5,2.35,9.2,0,0,0,1,0,,,,,,,,,,,,,,,,,,,,
27404,0,,,250,254,237,232,,0.06,0.02,1.74,0,0,-0,0.07,,69,8209,11,36,36,0.638,0.0,664,4.86,13.2,0.0,1,30.5,2.32,9.2,0,0,0,1,0,,,,,,,,,,,,,,,,,,,,
27424,0,,,250,254,237,233,,0.01,0.07,1.61,0,2,2,0.07,,69,8209,11,36,36,0.637,0.0,660,4.88,12.9,0.0,1,30.5,2.33,8.8,0,0,0,1,0,,,,,,,,,,,,,,,,,,,,
27444,0,0,2,250,254,237,232,3,0.06,0.03,1.79,0,-1,-1,0.07,1,69,8202,11,36,36,0.637,0.0,663,4.86,13.0,0.0,1,30.5,2.31,8.8,0,0,0,1,0,0,250,250,0,0.0,0.0,0.0,0.0,0,0,0.0,0,0.0,-1,0.0,0.0,0.0,0,0.0,0.4574
27464,0,,,250,254,237,232,,0.02,0.07,1.65,0,0,1,0.08,,69,8138,11,36,36,0.637,0.0,658,4.85,13.0,0.0,1,30.3,2.21,8.8,0,0,0,1,0,,,,,,,,,,,,,,,,,,,,
27484,0,,,250,254,237,232,,0.05,0.05,1.66,0,0,-0,0.07,,69,8130,11,36,36,0.637,0.0,657,4.88,12.9,0.0,1,30.3,2.25,8.8,0,0,0,1,0,,,,,,,,,,,,,,,,,,,,
27504,0,,,250,254,236,232,,0.03,0.04,1.77,0,-1,-1,0.05,,69,8109,11,36,36,0.638,0.0,658,4.87,13.1,0.0,1,30.3,2.23,8.8,0,0,0,1,0,,,,,,,,,,,,,,,,,,,,
27524,0,,,250,254,237,232,,0.04,0.05,1.63,0,-0,1,0.06,,69,8074,11,36,36,0.638,0.0,652,4.85,13.0,0.0,1,30.2,2.2,8.3,0,0,0,1,0,,,,,,,,,,,,,,,,,,,,
27544,0,-1,2,250,254,237,232,2,0.08,-0.03,1.74,0,-1,-1,0.08,1,69,8029,11,36,36,0.638,0.0,657,4.87,13.2,0.0,1,30.1,2.15,8.3,0,0,0,1,0,0,250,250,0,0.0,0.0,0.0,0.0,0,0,0.0,0,0.0,-1,0.0,,0.0,0,0.0,0.4591
27564,0,,,251,254,237,232,,0.03,0.01,1.61,0,-0,1,0.03,,69,8019,11,36,36,0.638,0.0,654,4.87,13.0,0.0,1,30.1,2.14,8.3,0,0,0,1,0,,,,,,,,,,,,,,,,,,,,
27584,0,,,250,254,237,232,,0.04,0.01,1.48,0,-0,1,0.04,,70,7978,11,36,36,0.639,0.0,656,4.85,13.0,0.0,1,30.1,2.12,8.3,0,0,0,1,0,,,,,,,,,,,,,,,,,,,,
27604,0,,,250,254,237,232,,0.08,-0.04,1.56,0,-1,-1,0.09,,69,7944,11,36,37,0.639,0.0,659,4.83,13.2,0.0,1,30.4,2.12,8.3,0,0,0,1,0,,,,,,,,,,,,,,,,,,,,
27624,0,,,250,254,237,232,,0.05,-0.03,1.57,0,-1,0,0.06,,69,7931,11,36,37,0.639,0.0,656,4.86,13.1,0.0,1,30.4,1.06,7.9,0,0,0,1,0,,,,,,,,,,,,,,,,,,,,
27644,0,0,0,250,254,236,232,2,0.01,-0.0,1.45,1,1,2,0.01,1,69,7884,11,36,37,0.639,0.0,653,4.87,12.9,0.0,1,30.4,1.06,7.9,0,0,0,1,0,0,250,250,0,0.0,0.0,0.0,0.0,0,0,0.0,0,0.0,-1,0.0,0.0,0.0,0,0.0,0.4607
27664,0,,,250,254,237,232,,0.04,-0.03,1.44,1,0,1,0.05,,69,7861,11,36,37,0.639,0.0,659,4.83,13.1,0.0,1,30.4,2.17,7.9,0,0,0,1,0,,,,,,,,,,,,,,,,,,,,
27684,0,,,250,254,237,232,,0.09,-0.05,1.64,0,-2,-2,0.1,,69,7835,11,36,37,0.639,0.0,658,4.81,13.2,0.0,1,30.4,2.17,7.9,0,0,0,1,0,,,,,,,,,,,,,,,,,,,,
27704,0,,,250,254,236,232,,0.08,-0.02,1.68,0,-2,-2,0.08,,69,7793,11,36,38,0.64,0.0,656,4.83,13.2,0.0,1,30.7,1.11,7.9,0,0,0,1,0,,,,,,,,,,,,,,,,,,,,
27724,0,,,250,254,236,232,,0.02,0.03,1.55,1,-1,-0,0.03,,70,7776,11,36,38,0.64,0.0,646,4.88,13.0,0.0,1,30.7,1.11,8.0,0,0,0,1,0,,,,,,,,,,,,,,,,,,,,
27744,0,0,1,250,254,237,232,1,-0.01,0.04,1.43,1,-0,1,0.04,1,70,7738,11,36,39,0.64,0.0,651,4.88,12.9,0.0,1,31.0,2.28,8.0,0,0,0,1,0,0,250,250,0,0.0,0.0,0.0,0.0,0,0,0.0,0,0.0,-1,0.0,,0.0,0,0.0,0.4624
27764,0,,,251,254,236,232,,0.01,0.05,1.32,0,1,1,0.05,,70,7716,11,36,39,0.64,0.0,650,4.89,12.9,0.0,1,31.0,2.28,8.0,0,0,0,1,0,,,,,,,,,,,,,,,,,,,,
27784,0,,,250,254,237,232,,0.06,0.01,1.42,0,0,-0,0.06,,70,7703,11,36,39,0.64,0.0,650,4.86,12.9,0.0,1,31.0,2.28,8.0,0,0,0,1,0,,,,,,,,,,,,,,,,,,,,
27804,0,,,250,254,237,232,,0.1,-0.02,1.55,0,-1,-2,0.1,,69,7693,11,36,39,0.64,0.0,655,4.84,13.2,0.0,1,31.0,2.28,8.0,0,0,0,1,0,,,,,,,,,,,,,,,,,,,,
27824,0,,,250,254,237,232,,0.11,-0.04,1.74,0,-3,-4,0.11,,70,7671,11,36,40,0.641,0.0,655,4.86,13.1,0.0,1,31.5,2.28,8.1,0,0,0,1,0,,,,,,,,,,,,,,,,,,,,
27844,0,-0,2,250,254,237,232,2,0.11,-0.01,1.76,0,-3,-4,0.11,1,70,7649,11,36,40,0.641,0.0,655,4.85,13.1,0.0,1,31.5,1.17,8.1,0,0,0,1,0,0,250,250,0,0.0,0.0,0.0,0.0,0,0,0.0,0,0.0,-1,0.0,0.0,0.0,0,0.0,0.4641
27864,0,,,250,254,237,232,,0.07,0.02,1.68,0,-2,-2,0.07,,70,7653,11,36,40,0.642,0.0,653,4.89,13.0,0.0,1,31.5,1.17,8.1,0,0,0,1,0,,,,,,,,,,,,,,,,,,,,
27884,0,,,250,254,237,232,,0.01,0.04,1.55,0,-1,0,0.04,,70,7640,11,36,40,0.642,0.0,655,4.87,13.0,0.0,1,31.5,2.28,8.1,0,0,0,1,0,,,,,,,,,,,,,,,,,,,,
27904,0,,,250,253,237,232,,-0.04,0.05,1.43,1,1,3,0.07,,70,7640,11,36,41,0.642,0.0,656,4.91,12.9,0.0,1,32.1,2.28,8.1,0,0,0,1,0,,,,,,,,,,,,,,,,,,,,
27924,0,,,251,254,237,232,,-0.06,0.04,1.32,1,2,4,0.07,,70,7646,11,36,41,0.642,0.0,654,4.86,12.9,0.0,1,32.1,2.28,8.0,0,0,0,1,0,,,,,,,,,,,,,,,,,,,,
27944,0,-1,2,250,254,236,232,2,-0.05,0.04,1.26,0,3,3,0.06,1,70,7634,11,36,41,0.643,0.0,647,4.87,13.0,0.0,1,32.1,2.28,8.0,0,0,0,1,0,0,250,250,0,0.0,0.0,0.0,0.0,0,0,0.0,0,0.0,-1,0.0,,0.0,0,0.0,0.4657
27964,0,,,251,254,237,232,,0.0,0.06,1.35,0,2,2,0.06,,70,7640,11,36,41,0.644,0.0,651,4.83,13.1,0.0,1,32.1,2.28,8.0,0,0,0,1,0,,,,,,,,,,,,,,,,,,,,
27984,0,,,250,254,237,232,,0.06,0.05,1.43,0,1,0,0.08,,70,7615,11,36,41,0.644,0.0,652,4.86,13.2,0.0,1,32.0,2.28,8.0,0,0,0,1,0,,,,,,,,,,,,,,,,,,,,
28004,0,,,250,254,237,232,,0.1,0.02,1.58,0,-0,-2,0.1,,70,7594,11,36,41,0.644,0.0,650,4.85,13.2,0.0,1,32.0,2.28,8.0,0,0,0,1,0,,,,,,,,,,,,,,,,,,,,
28024,0,,,250,254,236,232,,0.13,0.01,1.64,0,-1,-3,0.13,,70,7606,11,36,41,0.644,0.0,651,4.87,13.1,0.0,1,32.0,2.28,8.0,0,0,0,1,0,,,,,,,,,,,,,,,,,,,,
28044,0,-1,2,250,253,237,232,3,0.15,0.01,1.82,0,-3,-5,0.15,1,70,7591,11,36,41,0.644,0.0,653,4.83,13.2,0.0,1,32.0,1.17,8.0,0,0,0,1,0,0,250,250,0,0.0,0.0,0.0,0.0,0,0,0.0,0,0.0,-1,0.0,0.0,0.0,0,0.0,0.4674
28064,0,,,251,254,237,232,,0.17,0.02,1.91,0,-4,-5,0.17,,70,7575,11,36,42,0.644,0.0,656,4.86,13.2,0.0,1,32.5,2.28,8.0,0,0,0,1,0,,,,,,,,,,,,,,,,,,,,
28084,0,,,250,253,237,232,,0.16,0.04,1.94,0,-4,-5,0.16,,70,7591,11,36,42,0.644,0.0,652,4.86,13.1,0.0,1,32.5,2.28,8.0,0,0,0,1,0,,,,,,,,,,,,,,,,,,,,
28104,0,,,251,254,237,233,,0.1,0.03,1.79,0,-3,-4,0.11,,70,7581,11,36,42,0.644,0.0,654,4.86,13.2,0.0,1,32.5,2.28,8.0,0,0,0,1,0,,,,,,,,,,,,,,,,,,,,
28124,0,,,250,253,237,232,,0.07,0.03,1.76,0,-3,-3,0.08,,70,7581,11,36,42,0.644,0.0,653,4.86,13.2,0.0,1,32.5,2.28,8.0,0,0,0,1,0,,,,,,,,,,,,,,,,,,,,
28144,0,0,0,250,254,237,232,3,0.05,0.02,1.63,0,-3,-2,0.06,1,70,7578,11,36,42,0.643,0.0,652,4.86,13.0,0.0,1,32.5,1.17,8.0,0,0,0,1,0,0,250,250,0,0.0,0.0,0.0,0.0,0,0,0.0,0,0.0,-1,0.0,,0.0,0,0.0,0.4691
28164,0,,,250,252,237,232,,0.05,0.03,1.62,1,-2,-0,0.06,,70,7588,11,36,42,0.643,0.0,647,4.87,13.0,0.0,1,32.5,1.17,8.0,0,0,0,1,0,,,,,,,,,,,,,,,,,,,,
28184,0,,,250,254,237,232,,0.06,0.04,1.55,1,0,2,0.07,,70,7572,11,36,42,0.642,0.0,649,4.89,12.9,0.0,1,32.5,2.28,8.0,0,0,0,1,0,,,,,,,,,,,,,,,,,,,,
28204,0,,,250,253,236,232,,0.08,0.03,1.43,1,2,4,0.08,,70,7551,11,36,42,0.642,0.0,653,4.86,12.9,0.0,1,32.5,2.28,8.0,0,0,0,1,0,,,,,,,,,,,,,,,,,,,,
28224,0,,,250,252,237,232,,0.1,0.01,1.37,1,2,5,0.1,,70,7533,11,36,42,0.641,0.0,648,4.87,13.1,0.0,1,32.5,2.28,7.9,0,0,0,1,0,,,,,,,,,,,,,,,,,,,,
28244,0,0,1,250,252,237,232,2,0.12,0.02,1.46,1,2,5,0.12,1,70,7503,11,36,42,0.641,0.0,651,4.87,12.9,0.0,1,32.5,1.17,7.9,0,0,0,1,0,0,250,250,0,0.0,0.0,0.0,0.0,0,0,0.0,0,0.0,-1,0.0,0.0,0.0,0,0.0,0.4707
28264,0,,,251,253,237,232,,0.14,0.05,1.51,1,3,6,0.15,,70,7485,11,36,43,0.642,0.0,646,4.87,12.9,0.0,1,32.9,1.17,7.9,0,0,0,1,0,,,,,,,,,,,,,,,,,,,,
28284,0,,,250,253,237,232,,0.15,0.06,1.4,1,4,8,0.16,,70,7440,11,36,43,0.642,0.0,645,4.89,13.1,0.0,1,32.8,2.28,7.9,0,0,0,1,0,,,,,,,,,,,,,,,,,,,,
28304,0,,,250,253,237,232,,0.13,0.03,1.29,1,4,8,0.13,,70,7390,11,36,43,0.642,0.0,643,4.88,13.0,0.0,1,32.8,1.16,7.9,0,0,0,1,0,,,,,,,,,,,,,,,,,,,,
28324,0,,,250,253,236,232,,0.11,0.04,1.3,1,4,7,0.12,,70,7361,11,36,43,0.642,0.0,645,4.88,13.0,0.0,1,32.7,2.27,7.7,0,0,0,1,0,,,,,,,,,,,,,,,,,,,,
28344,0,-1,2,250,253,237,232,2,0.09,-0.01,1.2,1,4,7,0.09,1,70,7321,11,36,44,0.642,0.0,650,4.86,13.2,0.0,1,33.1,2.27,7.7,0,0,0,1,0,0,250,250,0,0.0,0.0,0.0,0.0,0,0,0.0,0,0.0,-1,0.0,,0.0,0,0.0,0.4724
28364,0,,,250,254,236,232,,0.07,-0.05,1.12,1,2,5,0.09,,70,7287,11,36,44,0.642,0.0,646,4.84,13.2,0.0,1,33.0,2.27,7.7,0,0,0,1,0,,,,,,,,,,,,,,,,,,,,
28384,0,,,250,252,237,232,,0.1,-0.03,1.33,0,2,3,0.11,,70,7208,11,36,44,0.642,0.0,646,4.85,13.2,0.0,1,32.8,2.25,7.7,0,0,0,1,0,,,,,,,,,,,,,,,,,,,,
28404,0,,,250,252,236,232,,0.12,-0.03,1.23,0,3,3,0.12,,70,7175,11,36,44,0.642,0.0,642,4.86,12.9,0.0,1,32.8,2.25,7.7,0,0,0,1,0,,,,,,,,,,,,,,,,,,,,
28424,0,,,250,252,236,232,,0.11,-0.0,1.26,0,2,3,0.11,,70,7118,11,36,45,0.643,0.0,640,4.89,12.9,0.0,1,33.0,1.13,7.4,0,0,0,1,0,,,,,,,,,,,,,,,,,,,,
28444,0,-0,1,251,253,237,232,2,0.09,-0.04,1.17,0,3,3,0.1,1,70,7078,11,36,45,0.643,0.0,640,4.88,13.1,0.0,1,32.9,2.24,7.4,0,0,0,1,0,0,250,250,0,0.0,0.0,0.0,0.0,0,0,0.0,0,0.0,-1,0.0,0.0,0.0,0,0.0,0.4741
28464,0,,,250,253,237,233,,0.09,-0.04,1.28,0,1,1,0.1,,70,7083,11,36,45,0.642,0.0,637,4.87,13.2,0.0,1,32.9,2.24,7.4,0,0,0,1,0,,,,,,,,,,,,,,,,,,,,
28484,0,,,250,252,237,232,,0.11,0.04,1.3,0,2,2,0.11,,70,7054,11,36,46,0.642,0.0,633,4.89,13.0,0.0,1,33.1,2.22,7.4,0,0,0,1,0,,,,,,,,,,,,,,,,,,,,
28504,0,,,250,253,236,232,,0.09,0.02,1.2,0,1,2,0.09,,70,7022,11,36,46,0.643,0.0,637,4.88,13.2,0.0,1,33.1,2.22,7.4,0,0,0,1,0,,,,,,,,,,,,,,,,,,,,
28524,0,,,250,254,237,232,,0.11,0.0,1.4,0,1,1,0.11,,70,7017,11,36,46,0.642,0.0,638,4.84,13.2,0.0,1,33.1,2.22,7.2,0,0,0,1,0,,,,,,,,,,,,,,,,,,,,
28544,0,0,0,251,252,237,232,2,0.11,0.03,1.29,0,1,2,0.11,1,70,6993,11,36,46,0.642,0.0,639,4.87,13.0,0.0,1,33.0,2.22,7.2,0,0,0,1,0,0,250,250,0,0.0,0.0,0.0,0.0,0,0,0.0,0,0.0,-1,0.0,,0.0,0,0.0,0.4757
28564,0,,,251,252,237,232,,0.1,0.02,1.28,0,1,2,0.1,,70,6970,11,36,47,0.642,0.0,642,4.92,13.2,0.0,1,33.3,2.22,7.2,0,0,0,1,0,,,,,,,,,,,,,,,,,,,,
28584,0,,,250,253,237,232,,0.1,0.01,1.32,0,1,1,0.1,,70,6931,11,36,47,0.642,0.6,638,4.87,13.2,0.0,1,33.2,2.22,7.2,0,0,0,1,0,,,,,,,,,,,,,,,,,,,,
28604,0,,,251,252,237,232,,0.1,0.07,1.26,0,1,2,0.12,,70,6934,11,36,47,0.643,0.6,635,4.88,13.1,0.0,1,33.2,2.22,7.2,0,0,0,1,0,,,,,,,,,,,,,,,,,,,,
28624,0,,,250,252,237,232,,0.1,0.03,1.17,0,0,1,0.11,,70,6913,11,36,47,0.643,0.6,641,4.89,13.2,0.0,1,33.2,2.22,7.1,0,0,0,1,0,,,,,,,,,,,,,,,,,,,,
28644,0,-1,2,251,254,237,232,2,0.11,0.03,1.31,0,1,2,0.11,1,70,6931,11,36,47,0.643,0.8,638,4.86,13.1,0.0,1,33.2,2.22,7.1,0,0,0,1,0,6,1018,250,6,0.0,0.0,0.0,0.0,0,0,0.0,0,0.0,-1,0.0,0.0,0.0,0,0.0,0.4774
28664,0,,,250,253,237,233,,0.09,0.03,1.21,0,1,2,0.09,,70,6911,11,36,48,0.644,0.8,631,4.88,13.0,0.0,1,33.4,2.22,7.1,0,0,0,1,0,,,,,,,,,,,,,,,,,,,,
28684,0,,,250,252,237,232,,0.1,-0.03,1.28,0,0,0,0.1,,70,6895,11,36,47,0.644,0.8,637,4.87,13.1,0.0,1,33.1,2.23,7.1,0,0,0,1,0,,,,,,,,,,,,,,,,,,,,
28704,0,,,250,253,237,232,,0.09,0.02,1.18,0,1,1,0.09,,70,6875,11,36,48,0.644,0.8,633,4.9,13.0,0.0,1,33.4,2.23,7.1,0,0,0,1,0,,,,,,,,,,,,,,,,,,,,
28724,0,,,250,252,237,232,,0.11,-0.01,1.14,0,0,1,0.11,,70,6900,11,36,48,0.645,0.8,634,4.87,13.2,0.0,1,33.4,2.22,7.1,0,0,0,1,0,,,,,,,,,,,,,,,,,,,,
28744,0,-0,2,251,252,237,232,2,0.13,0.03,1.26,0,1,1,0.13,1,70,6903,11,36,48,0.645,0.8,637,4.87,13.2,0.0,1,33.4,2.22,7.1,0,0,0,1,0,6,1018,5408,6,0.0,0.0,0.0,0.0,0,0,0.0,0,0.0,-1,0.0,,0.0,0,0.0,0.4791
28764,0,,,251,252,237,232,,0.09,0.03,1.16,0,1,1,0.1,,70,6883,11,36,48,0.646,0.8,631,4.87,13.0,0.0,1,33.4,2.23,7.1,0,0,0,1,0,,,,,,,,,,,,,,,,,,,,
28784,0,,,251,252,237,232,,0.12,0.03,1.36,0,0,0,0.12,,70,6890,11,36,48,0.645,1.1,634,4.86,13.2,0.0,1,33.4,2.23,7.1,0,0,0,1,0,,,,,,,,,,,,,,,,,,,,
28804,0,,,251,252,237,232,,0.1,0.05,1.26,0,1,1,0.11,,70,6883,11,36,48,0.646,1.1,636,4.88,12.9,0.0,1,33.4,2.23,7.1,0,0,0,1,0,,,,,,,,,,,,,,,,,,,,
28824,0,,,251,252,237,232,,0.12,0.01,1.24,0,0,0,0.12,,70,6855,11,36,48,0.645,1.2,638,4.86,13.2,0.0,1,33.3,2.23,7.1,0,0,0,1,0,,,,,,,,,,,,,,,,,,,,
28844,0,-1,2,251,252,237,232,2,0.13,0.04,1.32,0,1,0,0.13,1,70,6883,11,36,48,0.644,1.2,638,4.83,13.1,0.0,1,33.4,2.23,7.1,0,0,0,1,0,11,-1,5408,11,0.0,0.0,0.0,0.0,0,0,0.0,0,0.0,-1,0.0,0.0,0.0,0,0.0,0.4807
28864,0,,,251,252,237,232,,0.11,0.03,1.21,0,0,1,0.12,,70,6870,11,36,48,0.645,1.2,633,4.9,13.1,0.0,1,33.4,2.23,7.1,0,0,0,1,0,,,,,,,,,,,,,,,,,,,,
28884,0,,,251,253,237,232,,0.13,0.05,1.37,0,0,0,0.14,,70,6870,11,36,48,0.643,1.2,637,4.86,13.2,0.0,1,33.4,2.23,7.1,0,0,0,1,0,,,,,,,,,,,,,,,,,,,,
28904,0,,,251,253,237,232,,0.09,0.04,1.27,0,1,1,0.1,,70,6885,11,36,48,0.644,1.2,633,4.88,13.1,0.0,1,33.4,2.23,7.1,0,0,0,1,0,,,,,,,,,,,,,,,,,,,,
28924,0,,,251,252,237,233,,0.12,0.03,1.45,0,0,0,0.12,,70,6845,11,36,48,0.644,1.2,633,4.86,13.2,0.0,1,33.3,2.23,7.0,0,0,0,1,0,,,,,,,,,,,,,,,,,,,,
28944,0,-1,2,251,252,237,232,2,0.1,0.06,1.34,0,1,1,0.12,1,70,6893,11,36,48,0.643,1.4,634,4.89,13.0,0.0,1,33.4,2.23,7.0,0,0,0,1,0,14,-1,-1,14,0.0,0.0,0.0,0.0,0,0,0.0,0,0.0,-1,0.0,,0.0,0,0.0,0.4824
28964,0,,,251,252,237,232,,0.12,0.03,1.34,1,0,1,0.12,,70,6883,11,36,49,0.644,1.4,642,4.86,13.1,0.0,1,33.7,2.23,7.0,0,0,0,1,0,,,,,,,,,,,,,,,,,,,,
28984,0,,,251,252,237,232,,0.13,0.03,1.38,0,0,0,0.13,,70,6898,11,36,48,0.643,1.5,638,4.86,13.2,0.0,1,33.4,2.23,7.0,0,0,0,1,0,,,,,,,,,,,,,,,,,,,,
29004,0,,,251,253,237,232,,0.11,0.01,1.27,1,0,1,0.11,,70,6878,11,36,49,0.643,1.5,639,4.86,13.0,0.0,1,33.7,2.23,7.0,0,0,0,1,0,,,,,,,,,,,,,,,,,,,,
29024,0,,,251,252,238,232,,0.13,0.02,1.41,0,-0,-0,0.13,,70,6890,11,36,49,0.643,1.5,637,4.85,13.2,0.0,1,33.7,2.23,7.1,0,0,0,1,0,,,,,,,,,,,,,,,,,,,,
29044,0,-1,2,251,252,238,232,2,0.11,0.01,1.3,0,1,1,0.11,1,70,6880,11,36,49,0.643,1.5,630,4.89,12.9,0.0,1,33.7,2.23,7.1,0,0,0,1,0,14,-1281,-1281,14,0.0,0.0,0.0,0.0,0,0,0.0,0,0.0,-1,0.0,0.0,0.0,0,0.0,0.4841
29064,0,,,251,252,238,232,,0.13,0.02,1.39,0,-1,-0,0.13,,70,6878,11,36,49,0.644,1.5,631,4.88,13.2,0.0,1,33.7,2.23,7.1,0,0,0,1,0,,,,,,,,,,,,,,,,,,,,
29084,0,,,251,253,238,232,,0.12,0.05,1.33,0,0,0,0.13,,70,6850,11,36,49,0.643,1.6,632,4.89,12.9,0.0,1,33.6,2.23,7.1,0,0,0,1,0,,,,,,,,,,,,,,,,,,,,
29104,0,,,251,252,238,232,,0.1,0.03,1.26,0,0,1,0.1,,70,6858,11,36,49,0.644,1.7,627,4.9,13.1,0.0,1,33.6,2.23,7.1,0,0,0,1,0,,,,,,,,,,,,,,,,,,,,
29124,0,,,251,252,238,232,,0.1,0.04,1.37,0,-0,-0,0.11,,70,6853,11,36,49,0.644,1.7,633,4.85,13.2,0.0,1,33.6,2.23,7.0,0,0,0,1,0,,,,,,,,,,,,,,,,,,,,
29144,0,-1,2,251,252,238,232,2,0.07,0.02,1.26,0,1,1,0.07,1,70,6873,11,36,49,0.645,1.7,633,4.88,13.1,0.0,1,33.7,2.23,7.0,0,0,0,1,0,16,9731,5414,16,0.0,0.0,0.0,0.0,0,0,0.0,0,0.0,-1,0.0,,0.0,0,0.0,0.4857
29164,0,,,251,252,238,233,,0.1,0.02,1.39,0,-1,-1,0.1,,70,6903,11,36,49,0.646,1.7,639,4.86,13.2,0.0,1,33.7,2.22,7.0,0,0,0,1,0,,,,,,,,,,,,,,,,,,,,
29184,0,,,251,252,238,232,,0.08,0.01,1.29,0,1,1,0.08,,70,6845,11,36,49,0.645,1.7,633,4.85,13.0,0.0,1,33.6,2.23,7.0,0,0,0,1,0,,,,,,,,,,,,,,,,,,,,
29204,0,,,251,252,238,232,,0.1,0.03,1.39,0,-1,-0,0.1,,70,6878,11,36,49,0.646,1.8,637,4.86,13.1,0.0,1,33.7,2.23,7.0,0,0,0,1,0,,,,,,,,,,,,,,,,,,,,
29224,0,,,251,252,238,232,,0.1,0.04,1.3,0,0,0,0.11,,70,6853,11,36,49,0.645,1.9,637,4.88,12.9,0.0,1,33.6,2.23,7.1,0,0,0,1,0,,,,,,,,,,,,,,,,,,,,
29244,0,-1,1,251,253,238,232,2,0.07,0.02,1.22,0,-0,1,0.08,1,70,6885,11,36,49,0.645,1.9,635,4.89,13.0,0.0,1,33.7,2.23,7.1,0,0,0,1,0,19,-235,5414,18,0.0,0.0,0.0,0.0,0,0,0.0,0,0.0,-1,0.0,0.0,0.0,0,0.0,0.4874
29264,0,,,251,252,238,232,,0.09,0.01,1.34,0,-1,-1,0.09,,70,6903,11,36,49,0.645,1.9,634,4.86,13.1,0.0,1,33.7,2.22,7.1,0,0,0,1,0,,,,,,,,,,,,,,,,,,,,
29284,0,,,251,251,238,232,,0.07,0.03,1.23,0,1,1,0.08,,70,6921,11,36,49,0.645,1.9,638,4.87,12.9,0.0,1,33.8,2.22,7.1,0,0,0,1,0,,,,,,,,,,,,,,,,,,,,
29304,0,,,251,253,238,232,,0.09,0.03,1.16,0,-0,-0,0.09,,70,6944,11,36,49,0.645,2.1,636,4.9,13.1,0.0,1,33.9,2.22,7.1,0,0,0,1,0,,,,,,,,,,,,,,,,,,,,
29324,0,,,251,252,238,232,,0.1,0.02,1.28,0,0,-0,0.1,,70,6939,11,36,49,0.644,2.1,635,4.86,13.2,338.0,1,33.8,2.22,7.1,0,0,0,1,0,,,,,,,,,,,,,,,,,,,,
29344,0,-1,2,251,252,238,232,2,0.07,0.01,1.18,0,0,1,0.07,1,70,6926,11,36,49,0.644,2.1,631,4.89,13.1,338.0,1,33.8,2.22,7.1,0,0,0,1,0,21,-1,-1,21,0.0,0.0,0.0,0.0,0,0,0.0,0,0.0,-1,0.0,,0.0,0,0.0,0.4891
29364,0,,,251,253,238,232,,0.09,-0.03,1.23,0,-0,-1,0.09,,70,6906,11,36,49,0.644,2.1,634,4.89,13.2,338.0,1,33.7,2.22,7.1,0,0,0,1,0,,,,,,,,,,,,,,,,,,,,
29384,0,,,251,252,238,232,,0.09,0.0,1.22,0,0,0,0.09,,70,6885,11,36,49,0.643,2.1,633,4.88,13.0,338.0,1,33.7,2.23,7.1,0,0,0,1,0,,,,,,,,,,,,,,,,,,,,
29404,0,,,251,253,238,232,,0.11,-0.02,1.13,0,-1,0,0.11,,70,6890,11,36,49,0.645,2.2,635,4.89,13.1,338.0,1,33.7,2.23,7.1,0,0,0,1,0,,,,,,,,,,,,,,,,,,,,
29424,0,,,251,252,238,232,,0.13,0.02,1.28,0,-0,-0,0.13,,70,6888,11,36,49,0.644,2.3,637,4.86,13.2,322.7,1,33.7,2.23,7.1,0,0,0,1,0,,,,,,,,,,,,,,,,,,,,
29444,0,-1,1,251,252,238,232,2,0.1,0.01,1.18,0,0,1,0.1,1,70,6911,11,36,49,0.645,2.3,633,4.88,13.0,322.7,1,33.8,2.22,7.1,0,0,0,1,0,23,-1281,-1,22,0.0,0.0,0.0,0.0,0,0,0.0,0,0.0,-1,0.0,0.0,0.0,0,0.0,0.4907
29464,0,,,251,253,238,232,,0.12,0.02,1.36,0,-1,-0,0.12,,70,6906,11,36,49,0.645,2.3,637,4.85,13.2,322.7,1,33.7,2.22,7.1,0,0,0,1,0,,,,,,,,,,,,,,,,,,,,
29484,0,,,251,252,238,232,,0.12,0.02,1.26,0,0,1,0.12,,70,6911,11,36,49,0.645,2.3,633,4.88,13.0,322.7,1,33.8,2.22,7.1,0,0,0,1,0,,,,,,,,,,,,,,,,,,,,
29504,0,,,251,254,238,232,,0.11,0.01,1.2,0,0,1,0.11,,70,6929,11,36,49,0.646,2.4,638,4.88,13.1,322.7,1,33.8,2.22,7.1,0,0,0,1,0,,,,,,,,,,,,,,,,,,,,
29524,0,,,251,252,238,232,,0.12,0.01,1.32,0,-1,-1,0.12,,70,6949,11,36,49,0.645,2.5,636,4.84,13.2,295.8,1,33.9,2.22,7.1,0,0,0,1,0,,,,,,,,,,,,,,,,,,,,
29544,0,-1,2,251,252,238,232,1,0.09,0.0,1.21,0,1,1,0.09,1,70,6936,11,36,49,0.646,2.5,636,4.9,13.1,295.8,1,33.8,2.22,7.1,0,0,0,1,0,25,16899,5442,24,0.0,0.0,0.0,0.0,0,0,0.0,0,0.0,-1,0.0,,0.0,0,0.0,0.4924
29564,0,,,251,253,238,232,,0.11,-0.01,1.22,0,-1,-1,0.11,,70,6926,11,36,49,0.646,2.5,637,4.86,13.2,295.8,1,33.8,2.22,7.1,0,0,0,1,0,,,,,,,,,,,,,,,,,,,,
29584,0,,,251,251,238,232,,0.12,-0.0,1.25,0,-0,0,0.12,,70,6929,11,36,49,0.646,2.6,637,4.86,13.1,295.8,1,33.8,2.22,7.1,0,0,0,1,0,,,,,,,,,,,,,,,,,,,,
29604,0,,,251,253,238,232,,0.1,-0.01,1.18,0,-1,0,0.1,,70,6934,11,36,49,0.647,2.7,633,4.85,13.0,295.8,1,33.8,2.22,7.1,0,0,0,1,0,,,,,,,,,,,,,,,,,,,,
29624,0,,,251,252,238,232,,0.1,-0.03,1.26,0,-1,-1,0.11,,70,6906,11,36,49,0.646,2.7,642,4.87,13.2,273.0,1,33.7,2.22,7.1,0,0,0,1,0,,,,,,,,,,,,,,,,,,,,
29644,0,0,0,251,252,238,232,-1,0.09,0.01,1.17,0,0,0,0.09,1,70,6885,11,36,49,0.646,2.7,637,4.85,12.9,273.0,1,33.7,2.23,7.1,0,0,0,1,0,28,-235,-235,26,0.0,0.0,0.0,0.0,0,0,0.0,0,0.0,-1,0.0,0.0,0.0,0,0.0,0.4941
29664,0,,,251,252,238,232,,0.11,-0.0,1.17,0,-1,-1,0.11,,70,6875,11,36,49,0.645,2.8,634,4.84,13.2,273.0,1,33.7,2.23,7.1,0,0,0,1,0,,,,,,,,,,,,,,,,,,,,
29684,0,,,251,252,238,232,,0.13,0.03,1.15,0,0,-0,0.14,,70,6868,11,36,49,0.644,2.8,637,4.86,13.1,273.0,1,33.7,2.23,7.1,0,0,0,1,0,,,,,,,,,,,,,,,,,,,,
29704,0,,,251,252,238,232,,0.12,0.02,1.07,0,-0,0,0.12,,70,6893,11,36,50,0.645,2.8,632,4.85,13.2,273.0,1,34.1,2.23,7.1,0,0,0,1,0,,,,,,,,,,,,,,,,,,,,
29724,0,,,251,252,238,232,,0.14,0.03,1.24,0,-0,-1,0.14,,70,6893,11,36,49,0.643,2.8,635,4.87,13.2,253.5,1,33.7,2.23,7.1,0,0,0,1,0,,,,,,,,,,,,,,,,,,,,
29744,0,-1,2,251,251,238,232,-2,0.11,0.03,1.15,0,0,0,0.12,1,70,6875,11,36,49,0.644,3.0,627,4.89,13.1,253.5,1,33.7,2.23,7.1,0,0,0,1,0,29,-1,-1,30,0.0,0.0,0.0,0.0,0,0,0.0,0,0.0,-1,0.0,,0.0,0,0.0,0.4957
29764,0,,,251,252,238,232,,0.13,-0.0,1.14,0,-1,-1,0.13,,70,6898,11,36,49,0.643,3.0,636,4.87,13.2,253.5,1,33.7,2.23,7.1,0,0,0,1,0,,,,,,,,,,,,,,,,,,,,
29784,0,,,251,251,238,232,,0.14,0.03,1.16,0,-0,-0,0.14,,70,6926,11,36,49,0.642,3.0,633,4.87,12.9,253.5,1,33.8,2.22,7.1,0,0,0,1,0,,,,,,,,,,,,,,,,,,,,
29804,0,,,251,252,238,232,,0.13,0.0,1.07,0,-0,1,0.13,,70,6918,11,36,50,0.643,3.1,635,4.9,13.1,253.5,1,34.2,2.22,7.1,0,0,0,1,0,,,,,,,,,,,,,,,,,,,,
29824,0,,,251,251,238,232,,0.14,0.02,1.3,0,-1,-1,0.14,,70,6929,11,36,49,0.641,3.1,641,4.86,13.2,229.0,1,33.8,2.22,7.1,0,0,0,1,0,,,,,,,,,,,,,,,,,,,,
29844,0,-1,1,251,251,238,232,-4,0.11,0.03,1.2,0,0,1,0.11,1,70,6929,11,36,50,0.642,3.1,636,4.88,12.9,229.0,1,34.2,2.22,7.1,0,0,0,1,0,31,-1,-1,31,0.0,0.0,0.0,0.0,0,0,0.0,0,0.0,-1,0.0,0.0,0.0,0,0.0,0.4974
29864,0,,,251,252,238,232,,0.13,0.04,1.32,0,-1,-0,0.14,,70,6934,11,36,50,0.642,3.1,640,4.9,13.1,229.0,1,34.2,2.22,7.1,0,0,0,1,0,,,,,,,,,,,,,,,,,,,,
29884,0,,,251,251,238,232,,0.13,0.03,1.24,0,-0,-0,0.13,,70,6918,11,36,49,0.641,3.3,641,4.88,13.2,229.0,1,33.8,2.22,7.1,0,0,0,1,0,,,,,,,,,,,,,,,,,,,,
29904,0,,,251,251,238,232,,0.11,0.04,1.19,0,-0,1,0.11,,70,6913,11,36,49,0.642,3.3,636,4.89,13.2,229.0,1,33.8,2.22,7.1,0,0,0,1,0,,,,,,,,,,,,,,,,,,,,
29924,0,,,251,253,238,232,,0.12,0.03,1.24,0,-1,-1,0.13,,70,6903,11,36,49,0.641,3.3,636,4.85,13.1,215.1,1,33.7,2.22,7.1,0,0,0,1,0,,,,,,,,,,,,,,,,,,,,
29944,0,0,1,251,251,238,232,-7,0.1,0.05,1.17,-0,1,0,0.11,1,70,6898,11,36,49,0.641,3.4,632,4.88,13.0,215.1,1,33.7,2.23,7.1,0,0,0,1,0,34,-1,-1,34,0.0,0.0,0.0,0.0,0,0,0.0,0,0.0,-1,0.0,,0.0,0,0.0,0.4991
29964,0,,,251,252,238,232,,0.12,0.05,1.11,-0,-0,-0,0.13,,70,6913,11,36,50,0.642,3.4,629,4.9,13.1,215.1,1,34.2,2.22,7.1,0,0,0,1,0,,,,,,,,,,,,,,,,,,,,
29984,0,,,251,251,239,232,,0.14,0.03,1.21,-0,0,-0,0.14,,70,6898,11,36,49,0.641,3.4,635,4.86,13.2,215.1,1,33.7,2.23,7.1,0,0,0,1,0,,,,,,,,,,,,,,,,,,,,
30004,0,,,251,252,239,232,,0.1,0.02,1.12,-0,0,0,0.1,,70,6913,11,36,50,0.643,3.5,628,4.89,13.1,215.1,1,34.2,2.22,7.1,0,0,0,1,0,,,,,,,,,,,,,,,,,,,,
30024,0,,,251,251,239,232,,0.11,-0.02,1.22,-0,-0,-1,0.11,,70,6908,11,36,50,0.642,3.5,640,4.87,13.2,202.8,1,34.1,2.22,7.1,0,0,0,1,0,,,,,,,,,,,,,,,,,,,,
30044,0,-0,2,251,251,239,232,-9,0.1,-0.01,1.18,-0,0,-0,0.1,1,70,6918,11,36,49,0.643,3.5,635,4.88,13.0,202.8,1,33.8,2.22,7.1,0,0,0,1,0,34,-1,-1,35,0.0,0.0,0.0,0.0,0,0,0.0,0,0.0,-1,0.0,0.0,0.0,0,0.0,0.5007
30064,0,,,251,251,239,232,,0.12,-0.03,1.09,-0,-0,0,0.12,,70,6921,11,36,50,0.643,3.6,641,4.89,13.1,202.8,1,34.2,2.22,7.1,0,0,0,1,0,,,,,,,,,,,,,,,,,,,,
30084,0,,,251,251,239,232,,0.14,-0.0,1.22,-0,-0,-1,0.14,,70,6898,11,36,49,0.643,3.6,640,4.85,13.0,202.8,1,33.7,2.23,7.1,0,0,0,1,0,,,,,,,,,,,,,,,,,,,,
30104,0,,,251,251,238,232,,0.11,-0.01,1.13,-0,1,1,0.11,,70,6903,11,36,50,0.644,3.6,635,4.89,13.0,202.8,1,34.1,2.22,7.1,0,0,0,1,0,,,,,,,,,,,,,,,,,,,,
30124,0,,,251,251,238,232,,0.14,-0.01,1.33,-1,-0,-1,0.14,,70,6903,11,36,50,0.644,3.6,633,4.87,13.2,197.2,1,34.1,2.22,7.1,0,0,0,1,0,,,,,,,,,,,,,,,,,,,,
30144,0,0,0,251,251,239,232,-11,0.13,0.01,1.23,-1,0,0,0.13,1,70,6885,11,36,50,0.644,3.8,632,4.88,13.0,197.2,1,34.1,2.23,7.1,0,0,0,1,0,37,-1,-1,38,0.0,0.0,0.0,0.0,0,0,0.0,0,0.0,-1,0.0,,0.0,0,0.0,0.5024
30164,0,,,251,252,239,232,,0.13,-0.0,1.21,-1,0,0,0.13,,70,6893,11,36,50,0.645,3.8,635,4.88,13.2,197.2,1,34.1,2.23,7.1,0,0,0,1,0,,,,,,,,,,,,,,,,,,,,
30184,0,,,251,252,239,232,,0.15,0.01,1.28,-1,-0,-1,0.15,,70,6888,11,36,49,0.644,3.9,633,4.86,13.2,197.2,1,33.7,2.23,7.1,0,0,0,1,0,,,,,,,,,,,,,,,,,,,,
30204,0,,,251,253,238,232,,0.12,0.0,1.18,-1,0,1,0.12,,70,6898,11,36,50,0.645,3.9,634,4.88,13.1,197.2,1,34.1,2.23,7.1,0,0,0,1,0,,,,,,,,,,,,,,,,,,,,
30224,0,,,251,253,238,232,,0.13,-0.0,1.27,-1,-1,-1,0.13,,70,6908,11,36,50,0.644,3.9,633,4.85,13.2,182.0,1,34.1,2.22,7.1,0,0,0,1,0,,,,,,,,,,,,,,,,,,,,
30244,0,-0,2,251,254,239,232,-12,0.11,0.01,1.18,-1,0,0,0.11,1,70,6893,11,36,50,0.644,4.0,633,4.88,13.0,182.0,1,34.1,2.23,7.1,0,0,0,1,0,39,-1,1018,40,0.0,0.0,0.0,0.0,0,0,0.0,0,0.0,-1,0.0,0.0,0.0,0,0.0,0.5041
30264,0,,,251,254,239,232,,0.12,0.01,1.25,-1,-1,-0,0.12,,70,6880,11,36,50,0.646,4.0,632,4.86,13.1,182.0,1,34.1,2.23,7.1,0,0,0,1,0,,,,,,,,,,,,,,,,,,,,
30284,0,,,251,254,239,232,,0.12,0.03,1.2,-1,-0,-0,0.13,,70,6848,11,36,50,0.644,4.0,638,4.86,13.2,182.0,1,33.9,2.23,7.1,0,0,0,1,0,,,,,,,,,,,,,,,,,,,,
30304,0,,,251,253,238,232,,0.1,0.04,1.12,-1,-0,0,0.11,,70,6870,11,36,50,0.645,4.2,631,4.9,13.2,182.0,1,34.0,2.23,7.1,0,0,0,1,0,,,,,,,,,,,,,,,,,,,,
30324,0,,,251,253,238,232,,0.12,0.02,1.22,-1,-1,-1,0.12,,70,6863,11,36,50,0.644,4.2,638,4.85,13.2,166.6,1,34.0,2.23,7.0,0,0,0,1,0,,,,,,,,,,,,,,,,,,,,
30344,0,0,0,251,254,238,233,-13,0.08,0.04,1.12,-1,0,0,0.09,1,70,6858,11,36,50,0.644,4.2,629,4.88,12.9,166.6,1,34.0,2.23,7.0,0,0,0,1,0,40,24067,5470,42,0.0,0.0,0.0,0.0,0,0,0.0,0,0.0,-1,0.0,,0.0,0,0.0,0.5057
30364,0,,,251,254,238,232,,0.11,0.03,1.22,-1,-1,-1,0.12,,70,6883,11,36,50,0.644,4.2,635,4.83,13.2,166.6,1,34.1,2.23,7.0,0,0,0,1,0,,,,,,,,,,,,,,,,,,,,
30384,0,,,251,254,238,232,,0.1,0.03,1.12,-1,0,0,0.11,,70,6873,11,36,50,0.643,4.2,630,4.86,13.1,166.6,1,34.0,2.23,7.0,0,0,0,1,0,,,,,,,,,,,,,,,,,,,,
30404,0,,,251,254,238,233,,0.11,0.03,1.2,-1,-1,-1,0.12,,70,6863,11,36,50,0.644,4.4,633,4.84,13.2,166.6,1,34.0,2.23,7.0,0,0,0,1,0,,,,,,,,,,,,,,,,,,,,
30424,0,,,251,254,238,233,,0.12,0.03,1.16,-1,-1,-1,0.12,,70,6903,11,36,50,0.643,4.4,636,4.86,13.2,161.3,1,34.1,2.22,7.1,0,0,0,1,0,,,,,,,,,,,,,,,,,,,,
30444,0,0,1,251,254,238,233,-16,0.09,0.05,1.11,-1,-0,0,0.1,1,70,6903,11,36,50,0.644,4.4,633,4.87,12.9,161.3,1,34.1,2.22,7.1,0,0,0,1,0,43,-235,-1,44,0.0,0.0,0.0,0.0,0,0,0.0,0,0.0,-1,0.0,0.0,0.0,0,0.0,0.5074
30464,0,,,251,254,238,233,,0.1,0.01,1.13,-1,-1,-1,0.1,,70,6923,11,36,49,0.644,4.6,638,4.84,13.2,161.3,1,33.8,2.22,7.1,0,0,0,1,0,,,,,,,,,,,,,,,,,,,,
30484,0,,,251,254,238,233,,0.09,0.05,1.11,-2,-0,-0,0.11,,70,6913,11,36,50,0.643,4.6,638,4.86,13.0,161.3,1,34.2,2.22,7.1,0,0,0,1,0,,,,,,,,,,,,,,,,,,,,
