"Interval"|"ms"|0|0|1,"Utc"|"ms"|0|0|1,"Brake_F"|"Bar"|0|2000|10,"Brake_R"|"Bar"|0|2000|10,"Height_RF"|"mm"|0|255|50,"Height_LF"|"mm"|0|255|50,"Height_LR"|"mm"|0|80|50,"Height_RR"|"mm"|0|255|50,"Steering"|"deg"|-100|100|10,"AccelX"|"G"|-3.0|3.0|50,"AccelY"|"G"|-3.0|3.0|50,"AccelZ"|"G"|-3.0|3.0|50,"Yaw"|"Deg/Sec"|-120|120|50,"Pitch"|"Deg/Sec"|-120|120|50,"Roll"|"Deg/Sec"|-120|120|50,"Gsum"|"G"|0.0|3.0|50,"Log_Button"|""|0.0|10.0|10,"WaterTemp"|"C"|0|150|50,"RPM"|"tr/min"|0|14000|50,"TPS"|"%"|0|100|50,"AirTemp"|"C"|0|150|50,"MAP"|"KPa"|0|100|50,"Lambda"|""|0.5|1.5|50,"SpeedDTA"|"kph"|0.0|250.0|50,"OilPress"|"KPa"|0|1500|50,"FuelPressur"|"Bar"|0.0|10.0|50,"Batterie"|"V"|0.0|20.0|50,"ConsoKm"|"L/100km"|0.0|200.0|50,"Gear"|""|0|6|50,"AdvIgnition"|"Deg"|-20.0|70.0|50,"Injection"|"ms"|0.0|10.0|50,"ConsoHr"|"L/Hr"|0.0|10000.0|50,"LC_But_Pres"|""|0|1|50,"LC_Active"|""|0|1|50,"TractionOn"|""|0|1|50,"TractionWet"|""|0|1|50,"FanOn"|""|0|1|50,"RD_Speed"|"km/h"|-30|250|10,"RUD_Speed"|"km/h"|-30|250|10,"LD_Speed"|"km/h"|-30|250|10,"LUD_Speed"|"km/h"|-30|250|10,"Latitude"|"Degrees"|-180.0|180.0|10,"Longitude"|"Degrees"|-180.0|180.0|10,"Speed"|"kph"|0.0|150.0|10,"Altitude"|"m"|0.0|4000.0|10,"GPSSats"|""|0|20|10,"GPSQual"|""|0|5|10,"GPSDOP"|""|0.0|20.0|10,"LapCount"|""|0|0|10,"LapTime"|"Min"|0.0|0.0|10,"Sector"|""|0|0|10,"SectorTime"|"Min"|0.0|0.0|10,"PredTime"|"Min"|0.0|0.0|5,"ElapsedTime"|"Min"|0.0|0.0|10,"CurrentLap"|""|0|0|10,"Distance"|"km"|0.0|0.0|10,"SessionTime"|"Min"|0.0|0.0|10
63,0,,,251,256,236,233,,0.05,-0.01,1.01,0,0,-0,0.05,,0,0,0,0,0,0.0,0.0,0,0.0,0.0,0.0,0,0.0,0.0,0.0,0,0,0,0,0,,,,,,,,,,,,,,,,,,,,
83,0,,,251,255,236,233,,0.05,-0.01,1.01,0,-0,-0,0.06,,0,0,0,0,0,0.0,0.0,0,0.0,0.0,0.0,0,0.0,0.0,0.0,0,0,0,0,0,,,,,,,,,,,,,,,,,,,,
103,0,,,251,255,236,233,,0.06,-0.01,1.01,0,-0,-0,0.06,,0,0,0,0,0,0.0,0.0,0,0.0,0.0,0.0,0,0.0,0.0,0.0,0,0,0,0,0,,,,,,,,,,,,,,,,,,,,
123,0,,,252,255,236,233,,0.06,-0.01,1.01,0,-0,-0,0.06,,0,0,0,0,0,0.0,0.0,0,0.0,0.0,0.0,0,0.0,0.0,0.0,0,0,0,0,0,,,,,,,,,,,,,,,,,,,,
143,0,-1,2,251,256,236,233,-2,0.06,-0.01,1.01,0,-0,-0,0.06,1,0,0,0,0,0,0.0,0.0,0,0.0,0.0,0.0,0,0.0,0.0,0.0,0,0,0,0,0,0,0,0,0,0.0,0.0,0.0,0.0,0,0,0.0,0,0.0,-1,0.0,,0.0,0,0.0,0.0024
163,0,,,251,255,236,233,,0.06,-0.01,1.01,0,-0,-0,0.06,,0,0,0,0,0,0.0,0.0,0,0.0,0.0,0.0,0,0.0,0.0,0.0,0,0,0,0,0,,,,,,,,,,,,,,,,,,,,
183,0,,,252,255,236,233,,0.06,-0.01,1.01,0,-0,-0,0.06,,0,0,0,0,0,0.0,0.0,0,0.0,0.0,0.0,0,0.0,0.0,0.0,0,0,0,0,0,,,,,,,,,,,,,,,,,,,,
203,0,,,251,255,236,233,,0.06,-0.01,1.01,0,-0,-0,0.06,,0,0,0,0,0,0.0,0.0,0,0.0,0.0,0.0,0,0.0,0.0,0.0,0,0,0,0,0,,,,,,,,,,,,,,,,,,,,
223,0,,,252,255,236,233,,0.06,-0.01,1.01,0,-0,-0,0.06,,0,0,0,0,0,0.0,0.0,0,0.0,0.0,0.0,0,0.0,0.0,0.0,0,0,0,0,0,,,,,,,,,,,,,,,,,,,,
243,0,0,0,251,255,236,233,-1,0.06,-0.01,1.01,0,-0,-0,0.06,1,0,0,0,0,0,0.0,0.0,0,0.0,0.0,0.0,0,0.0,0.0,0.0,0,0,0,0,0,0,0,0,0,0.0,0.0,0.0,0.0,0,0,0.0,0,0.0,-1,0.0,0.0,0.0,0,0.0,0.004
263,0,,,251,255,236,233,,0.06,-0.01,1.01,0,-0,-0,0.06,,0,0,0,0,0,0.0,0.0,0,0.0,0.0,0.0,0,0.0,0.0,0.0,0,0,0,0,0,,,,,,,,,,,,,,,,,,,,
283,0,,,251,255,236,233,,0.06,-0.0,1.01,0,-0,-0,0.06,,0,0,0,0,0,0.0,0.0,0,0.0,0.0,0.0,0,0.0,0.0,0.0,0,0,0,0,0,,,,,,,,,,,,,,,,,,,,
303,0,,,251,256,236,233,,0.06,-0.0,1.01,0,-0,-0,0.06,,0,0,0,0,0,0.0,0.0,0,0.0,0.0,0.0,0,0.0,0.0,0.0,0,0,0,0,0,,,,,,,,,,,,,,,,,,,,
323,0,,,251,255,236,233,,0.06,-0.0,1.01,0,-0,-0,0.06,,0,0,0,0,0,0.0,0.0,0,0.0,0.0,0.0,0,0.0,0.0,0.0,0,0,0,0,0,,,,,,,,,,,,,,,,,,,,
343,0,-1,2,251,255,236,233,-2,0.06,-0.0,1.01,0,-0,-0,0.06,1,0,0,0,0,0,0.0,0.0,0,0.0,0.0,0.0,0,0.0,0.0,0.0,0,0,0,0,0,0,0,0,0,0.0,0.0,0.0,0.0,0,0,0.0,0,0.0,-1,0.0,,0.0,0,0.0,0.0057
363,0,,,252,255,236,233,,0.06,-0.0,1.01,0,-0,-0,0.06,,0,0,0,0,0,0.0,0.0,0,0.0,0.0,0.0,0,0.0,0.0,0.0,0,0,0,0,0,,,,,,,,,,,,,,,,,,,,
383,0,,,251,256,236,233,,0.06,-0.0,1.01,0,-0,-0,0.06,,0,0,0,0,0,0.0,0.0,0,0.0,0.0,0.0,0,0.0,0.0,0.0,0,0,0,0,0,,,,,,,,,,,,,,,,,,,,
403,0,,,252,256,236,233,,0.06,-0.01,1.01,0,-0,-0,0.06,,0,0,0,0,0,0.0,0.0,0,0.0,0.0,0.0,0,0.0,0.0,0.0,0,0,0,0,0,,,,,,,,,,,,,,,,,,,,
423,0,,,251,255,236,233,,0.06,-0.01,1.01,0,-0,-0,0.06,,0,0,0,0,0,0.0,0.0,0,0.0,0.0,0.0,0,0.0,0.0,0.0,0,0,0,0,0,,,,,,,,,,,,,,,,,,,,
443,0,-0,2,252,255,236,233,-1,0.06,-0.01,1.01,0,-0,-0,0.06,1,0,0,0,0,0,0.0,0.0,0,0.0,0.0,0.0,0,0.0,0.0,0.0,0,0,0,0,0,0,0,0,0,0.0,0.0,0.0,0.0,0,0,0.0,0,0.0,-1,0.0,0.0,0.0,0,0.0,0.0074
463,0,,,251,255,236,233,,0.06,-0.01,1.01,0,-0,-0,0.06,,0,0,0,0,0,0.0,0.0,0,0.0,0.0,0.0,0,0.0,0.0,0.0,0,0,0,0,0,,,,,,,,,,,,,,,,,,,,
483,0,,,251,255,236,233,,0.06,-0.01,1.0,0,-0,-0,0.06,,0,0,0,0,0,0.0,0.0,0,0.0,0.0,0.0,0,0.0,0.0,0.0,0,0,0,0,0,,,,,,,,,,,,,,,,,,,,
503,0,,,251,255,236,233,,0.06,-0.01,1.0,0,-0,-0,0.06,,0,0,0,0,0,0.0,0.0,0,0.0,0.0,0.0,0,0.0,0.0,0.0,0,0,0,0,0,,,,,,,,,,,,,,,,,,,,
523,0,,,251,255,236,233,,0.06,-0.01,1.0,0,-0,-0,0.06,,0,0,0,0,0,0.0,0.0,0,0.0,0.0,0.0,0,0.0,0.0,0.0,0,0,0,0,0,,,,,,,,,,,,,,,,,,,,
543,0,0,1,251,255,236,233,-2,0.06,-0.01,1.0,0,-0,-0,0.06,1,0,0,0,0,0,0.0,0.0,0,0.0,0.0,0.0,0,0.0,0.0,0.0,0,0,0,0,0,0,0,0,0,0.0,0.0,0.0,0.0,0,0,0.0,0,0.0,-1,0.0,,0.0,0,0.0,0.0091
563,0,,,251,255,236,233,,0.06,-0.01,1.0,0,-0,-0,0.06,,0,0,0,0,0,0.0,0.0,0,0.0,0.0,0.0,0,0.0,0.0,0.0,0,0,0,0,0,,,,,,,,,,,,,,,,,,,,
583,0,,,251,255,236,233,,0.06,-0.01,1.0,0,-0,-0,0.06,,0,0,0,0,0,0.0,0.0,0,0.0,0.0,0.0,0,0.0,0.0,0.0,0,0,0,0,0,,,,,,,,,,,,,,,,,,,,
603,0,,,251,256,236,233,,0.06,-0.01,1.0,0,-0,-0,0.06,,0,0,0,0,0,0.0,0.0,0,0.0,0.0,0.0,0,0.0,0.0,0.0,0,0,0,0,0,,,,,,,,,,,,,,,,,,,,
623,0,,,252,255,236,233,,0.06,-0.01,1.0,0,-0,-0,0.06,,0,0,0,0,0,0.0,0.0,0,0.0,0.0,0.0,0,0.0,0.0,0.0,0,0,0,0,0,,,,,,,,,,,,,,,,,,,,
643,0,-0,2,251,255,236,233,-2,0.06,-0.01,1.0,0,-0,-0,0.06,1,0,0,0,0,0,0.0,0.0,0,0.0,0.0,0.0,0,0.0,0.0,0.0,0,0,0,0,0,0,0,0,0,0.0,0.0,0.0,0.0,0,0,0.0,0,0.0,-1,0.0,0.0,0.0,0,0.0,0.0107
663,0,,,251,255,236,233,,0.06,-0.01,1.0,0,-0,-0,0.06,,0,0,0,0,0,0.0,0.0,0,0.0,0.0,0.0,0,0.0,0.0,0.0,0,0,0,0,0,,,,,,,,,,,,,,,,,,,,
683,0,,,251,255,236,233,,0.06,-0.01,1.0,0,-0,-0,0.06,,0,0,0,0,0,0.0,0.0,0,0.0,0.0,0.0,0,0.0,0.0,0.0,0,0,0,0,0,,,,,,,,,,,,,,,,,,,,
703,0,,,251,255,236,233,,0.06,-0.01,1.0,0,-0,-0,0.06,,0,0,0,0,0,0.0,0.0,0,0.0,0.0,0.0,0,0.0,0.0,0.0,0,0,0,0,0,,,,,,,,,,,,,,,,,,,,
723,0,,,251,255,236,233,,0.06,-0.01,1.0,0,-0,-0,0.06,,0,0,0,0,0,0.0,0.0,0,0.0,0.0,0.0,0,0.0,0.0,0.0,0,0,0,0,0,,,,,,,,,,,,,,,,,,,,
743,0,0,1,251,255,236,233,-1,0.06,-0.01,1.0,0,-0,-0,0.06,1,0,0,0,0,0,0.0,0.0,0,0.0,0.0,0.0,0,0.0,0.0,0.0,0,0,0,0,0,0,0,0,0,0.0,0.0,0.0,0.0,0,0,0.0,0,0.0,-1,0.0,,0.0,0,0.0,0.0124
763,0,,,252,256,236,233,,0.06,-0.01,1.0,0,-0,-0,0.06,,0,0,0,0,0,0.0,0.0,0,0.0,0.0,0.0,0,0.0,0.0,0.0,0,0,0,0,0,,,,,,,,,,,,,,,,,,,,
783,0,,,251,255,236,233,,0.06,-0.01,1.0,0,-0,-0,0.06,,0,0,0,0,0,0.0,0.0,0,0.0,0.0,0.0,0,0.0,0.0,0.0,0,0,0,0,0,,,,,,,,,,,,,,,,,,,,
803,0,,,251,255,236,233,,0.06,-0.01,1.0,0,0,-0,0.06,,0,0,0,0,0,0.0,0.0,0,0.0,0.0,0.0,0,0.0,0.0,0.0,0,0,0,0,0,,,,,,,,,,,,,,,,,,,,
823,0,,,251,256,236,233,,0.06,-0.01,1.0,0,0,-0,0.06,,0,0,0,0,0,0.0,0.0,0,0.0,0.0,0.0,0,0.0,0.0,0.0,0,0,0,0,0,,,,,,,,,,,,,,,,,,,,
843,0,0,0,251,256,236,233,-2,0.06,-0.01,1.0,0,0,-0,0.06,1,0,0,0,0,0,0.0,0.0,0,0.0,0.0,0.0,0,0.0,0.0,0.0,0,0,0,0,0,0,0,0,0,0.0,0.0,0.0,0.0,0,0,0.0,0,0.0,-1,0.0,0.0,0.0,0,0.0,0.014
863,0,,,252,255,236,233,,0.06,-0.01,1.0,0,0,-0,0.06,,0,0,0,0,0,0.0,0.0,0,0.0,0.0,0.0,0,0.0,0.0,0.0,0,0,0,0,0,,,,,,,,,,,,,,,,,,,,
883,0,,,251,255,236,233,,0.06,-0.01,1.0,0,0,-0,0.06,,0,0,0,0,0,0.0,0.0,0,0.0,0.0,0.0,0,0.0,0.0,0.0,0,0,0,0,0,,,,,,,,,,,,,,,,,,,,
903,0,,,251,256,236,233,,0.06,-0.01,1.0,0,0,-0,0.06,,0,0,0,0,0,0.0,0.0,0,0.0,0.0,0.0,0,0.0,0.0,0.0,0,0,0,0,0,,,,,,,,,,,,,,,,,,,,
923,0,,,251,255,236,233,,0.06,-0.01,1.0,0,0,-0,0.06,,0,0,0,0,0,0.0,0.0,0,0.0,0.0,0.0,0,0.0,0.0,0.0,0,0,0,0,0,,,,,,,,,,,,,,,,,,,,
943,0,0,1,251,255,236,233,-2,0.06,-0.01,1.0,0,0,-0,0.06,1,0,0,0,0,0,0.0,0.0,0,0.0,0.0,0.0,0,0.0,0.0,0.0,0,0,0,0,0,0,0,0,0,0.0,0.0,0.0,0.0,0,0,0.0,0,0.0,-1,0.0,,0.0,0,0.0,0.0157
963,0,,,252,255,236,233,,0.06,-0.01,1.0,0,0,-0,0.06,,0,0,0,0,0,0.0,0.0,0,0.0,0.0,0.0,0,0.0,0.0,0.0,0,0,0,0,0,,,,,,,,,,,,,,,,,,,,
983,0,,,252,255,236,233,,0.06,-0.01,1.0,0,0,-0,0.06,,0,0,0,0,0,0.0,0.0,0,0.0,0.0,0.0,0,0.0,0.0,0.0,0,0,0,0,0,,,,,,,,,,,,,,,,,,,,
1003,0,,,251,255,236,233,,0.06,-0.01,1.0,0,0,-0,0.06,,0,0,0,0,0,0.0,0.0,0,0.0,0.0,0.0,0,0.0,0.0,0.0,0,0,0,0,0,,,,,,,,,,,,,,,,,,,,
1023,0,,,251,255,236,233,,0.06,-0.01,1.0,0,0,-0,0.06,,0,0,0,0,0,0.0,0.0,0,0.0,0.0,0.0,0,0.0,0.0,0.0,0,0,0,0,0,,,,,,,,,,,,,,,,,,,,
1043,0,0,1,252,255,236,233,-3,0.06,-0.01,1.0,0,0,-0,0.06,1,0,0,0,0,0,0.0,0.0,0,0.0,0.0,0.0,0,0.0,0.0,0.0,0,0,0,0,0,0,0,0,0,0.0,0.0,0.0,0.0,0,0,0.0,0,0.0,-1,0.0,0.0,0.0,0,0.0,0.0174
1063,0,,,251,255,236,233,,0.06,-0.01,1.0,0,0,-0,0.06,,0,0,0,0,0,0.0,0.0,0,0.0,0.0,0.0,0,0.0,0.0,0.0,0,0,0,0,0,,,,,,,,,,,,,,,,,,,,
1083,0,,,251,255,236,233,,0.06,-0.01,1.0,0,0,-0,0.06,,0,0,0,0,0,0.0,0.0,0,0.0,0.0,0.0,0,0.0,0.0,0.0,0,0,0,0,0,,,,,,,,,,,,,,,,,,,,
1103,0,,,251,255,236,233,,0.06,-0.01,1.0,0,0,-0,0.06,,0,0,0,0,0,0.0,0.0,0,0.0,0.0,0.0,0,0.0,0.0,0.0,0,0,0,0,0,,,,,,,,,,,,,,,,,,,,
1123,0,,,251,256,236,233,,0.06,-0.01,1.0,0,0,-0,0.06,,0,0,0,0,0,0.0,0.0,0,0.0,0.0,0.0,0,0.0,0.0,0.0,0,0,0,0,0,,,,,,,,,,,,,,,,,,,,
1143,0,-0,2,251,255,236,233,-2,0.06,-0.01,1.0,0,0,-0,0.06,1,0,0,0,0,0,0.0,0.0,0,0.0,0.0,0.0,0,0.0,0.0,0.0,0,0,0,0,0,0,0,0,0,0.0,0.0,0.0,0.0,0,0,0.0,0,0.0,-1,0.0,,0.0,0,0.0,0.019
1163,0,,,251,256,236,233,,0.06,-0.01,1.0,0,0,-0,0.06,,0,0,0,0,0,0.0,0.0,0,0.0,0.0,0.0,0,0.0,0.0,0.0,0,0,0,0,0,,,,,,,,,,,,,,,,,,,,
1183,0,,,251,255,236,233,,0.06,-0.01,1.0,0,0,-0,0.06,,0,0,0,0,0,0.0,0.0,0,0.0,0.0,0.0,0,0.0,0.0,0.0,0,0,0,0,0,,,,,,,,,,,,,,,,,,,,
1203,0,,,251,256,236,233,,0.05,-0.01,1.0,0,0,-0,0.06,,0,0,0,0,0,0.0,0.0,0,0.0,0.0,0.0,0,0.0,0.0,0.0,0,0,0,0,0,,,,,,,,,,,,,,,,,,,,
1223,0,,,251,255,236,233,,0.06,-0.01,1.0,0,0,-0,0.06,,0,0,0,0,0,0.0,0.0,0,0.0,0.0,0.0,0,0.0,0.0,0.0,0,0,0,0,0,,,,,,,,,,,,,,,,,,,,
1243,0,0,0,252,255,236,233,-2,0.06,-0.01,1.0,0,0,-0,0.06,1,0,0,0,0,0,0.0,0.0,0,0.0,0.0,0.0,0,0.0,0.0,0.0,0,0,0,0,0,0,0,0,0,0.0,0.0,0.0,0.0,0,0,0.0,0,0.0,-1,0.0,0.0,0.0,0,0.0,0.0207
1263,0,,,251,255,236,233,,0.06,-0.01,1.0,0,0,-0,0.06,,0,0,0,0,0,0.0,0.0,0,0.0,0.0,0.0,0,0.0,0.0,0.0,0,0,0,0,0,,,,,,,,,,,,,,,,,,,,
1283,0,,,251,255,236,233,,0.06,-0.01,1.0,0,0,-0,0.06,,0,0,0,0,0,0.0,0.0,0,0.0,0.0,0.0,0,0.0,0.0,0.0,0,0,0,0,0,,,,,,,,,,,,,,,,,,,,
1303,0,,,251,255,236,233,,0.06,-0.01,1.0,0,0,-0,0.06,,0,0,0,0,0,0.0,0.0,0,0.0,0.0,0.0,0,0.0,0.0,0.0,0,0,0,0,0,,,,,,,,,,,,,,,,,,,,
1323,0,,,251,255,236,233,,0.05,-0.01,1.0,0,0,-0,0.06,,0,0,0,0,0,0.0,0.0,0,0.0,0.0,0.0,0,0.0,0.0,0.0,0,0,0,0,0,,,,,,,,,,,,,,,,,,,,
1343,0,-1,2,251,256,236,233,-1,0.05,-0.01,1.0,0,0,-0,0.05,1,0,0,0,0,0,0.0,0.0,0,0.0,0.0,0.0,0,0.0,0.0,0.0,0,0,0,0,0,0,0,0,0,0.0,0.0,0.0,0.0,0,0,0.0,0,0.0,-1,0.0,,0.0,0,0.0,0.0224
1363,0,,,251,256,236,233,,0.05,-0.01,1.0,0,0,-0,0.05,,0,0,0,0,0,0.0,0.0,0,0.0,0.0,0.0,0,0.0,0.0,0.0,0,0,0,0,0,,,,,,,,,,,,,,,,,,,,
1383,0,,,251,255,236,233,,0.05,-0.01,1.0,0,0,-0,0.05,,0,0,0,0,0,0.0,0.0,0,0.0,0.0,0.0,0,0.0,0.0,0.0,0,0,0,0,0,,,,,,,,,,,,,,,,,,,,
1403,0,,,251,256,236,233,,0.05,-0.01,1.0,0,0,-0,0.05,,0,0,0,0,0,0.0,0.0,0,0.0,0.0,0.0,0,0.0,0.0,0.0,0,0,0,0,0,,,,,,,,,,,,,,,,,,,,
1423,0,,,251,255,236,233,,0.05,-0.01,1.0,0,0,-0,0.06,,0,0,0,0,0,0.0,0.0,0,0.0,0.0,0.0,0,0.0,0.0,0.0,0,0,0,0,0,,,,,,,,,,,,,,,,,,,,
1443,0,-0,2,251,255,236,233,-2,0.05,-0.01,1.0,0,0,-0,0.05,1,0,0,0,0,0,0.0,0.0,0,0.0,0.0,0.0,0,0.0,0.0,0.0,0,0,0,0,0,0,0,0,0,0.0,0.0,0.0,0.0,0,0,0.0,0,0.0,-1,0.0,0.0,0.0,0,0.0,0.024
1463,0,,,251,255,236,233,,0.05,-0.01,1.0,0,0,-0,0.06,,0,0,0,0,0,0.0,0.0,0,0.0,0.0,0.0,0,0.0,0.0,0.0,0,0,0,0,0,,,,,,,,,,,,,,,,,,,,
1483,0,,,251,255,236,233,,0.05,-0.01,1.0,0,0,-0,0.06,,0,0,0,0,0,0.0,0.0,0,0.0,0.0,0.0,0,0.0,0.0,0.0,0,0,0,0,0,,,,,,,,,,,,,,,,,,,,
1503,0,,,251,255,236,233,,0.06,-0.01,1.0,0,0,-0,0.06,,0,0,0,0,0,0.0,0.0,0,0.0,0.0,0.0,0,0.0,0.0,0.0,0,0,0,0,0,,,,,,,,,,,,,,,,,,,,
1523,0,,,251,255,236,233,,0.06,-0.01,1.0,0,0,-0,0.06,,0,0,0,0,0,0.0,0.0,0,0.0,0.0,0.0,0,0.0,0.0,0.0,0,0,0,0,0,,,,,,,,,,,,,,,,,,,,
1543,0,0,0,251,255,236,233,-1,0.06,-0.01,1.0,0,0,-0,0.06,1,0,0,0,0,0,0.0,0.0,0,0.0,0.0,0.0,0,0.0,0.0,0.0,0,0,0,0,0,0,0,0,0,0.0,0.0,0.0,0.0,0,0,0.0,0,0.0,-1,0.0,,0.0,0,0.0,0.0257
1563,0,,,252,255,236,233,,0.06,-0.01,1.0,0,0,-0,0.06,,0,0,0,0,0,0.0,0.0,0,0.0,0.0,0.0,0,0.0,0.0,0.0,0,0,0,0,0,,,,,,,,,,,,,,,,,,,,
1583,0,,,251,255,236,233,,0.06,-0.01,1.0,0,0,-0,0.06,,0,0,0,0,0,0.0,0.0,0,0.0,0.0,0.0,0,0.0,0.0,0.0,0,0,0,0,0,,,,,,,,,,,,,,,,,,,,
1603,0,,,251,256,236,233,,0.06,-0.01,1.0,0,0,-0,0.06,,0,0,0,0,0,0.0,0.0,0,0.0,0.0,0.0,0,0.0,0.0,0.0,0,0,0,0,0,,,,,,,,,,,,,,,,,,,,
1623,0,,,251,256,236,233,,0.05,-0.01,1.01,0,0,-0,0.06,,0,0,0,0,0,0.0,0.0,0,0.0,0.0,0.0,0,0.0,0.0,0.0,0,0,0,0,0,,,,,,,,,,,,,,,,,,,,
1643,0,-0,2,251,255,236,233,-2,0.05,-0.01,1.0,0,0,-0,0.06,1,0,0,0,0,0,0.0,0.0,0,0.0,0.0,0.0,0,0.0,0.0,0.0,0,0,0,0,0,0,0,0,0,0.0,0.0,0.0,0.0,0,0,0.0,0,0.0,-1,0.0,0.0,0.0,0,0.0,0.0274
1663,0,,,251,255,236,233,,0.06,-0.01,1.0,0,0,-0,0.06,,0,0,0,0,0,0.0,0.0,0,0.0,0.0,0.0,0,0.0,0.0,0.0,0,0,0,0,0,,,,,,,,,,,,,,,,,,,,
1683,0,,,251,255,236,233,,0.06,-0.01,1.0,0,0,-0,0.06,,0,0,0,0,0,0.0,0.0,0,0.0,0.0,0.0,0,0.0,0.0,0.0,0,0,0,0,0,,,,,,,,,,,,,,,,,,,,
1703,0,,,251,255,236,233,,0.06,-0.01,1.0,0,0,-0,0.06,,0,0,0,0,0,0.0,0.0,0,0.0,0.0,0.0,0,0.0,0.0,0.0,0,0,0,0,0,,,,,,,,,,,,,,,,,,,,
1723,0,,,252,255,236,233,,0.05,-0.01,1.0,0,0,-0,0.06,,0,0,0,0,0,0.0,0.0,0,0.0,0.0,0.0,0,0.0,0.0,0.0,0,0,0,0,0,,,,,,,,,,,,,,,,,,,,
1743,0,0,2,251,255,236,233,-2,0.05,-0.01,1.0,0,0,-0,0.06,1,0,0,0,0,0,0.0,0.0,0,0.0,0.0,0.0,0,0.0,0.0,0.0,0,0,0,0,0,0,0,0,0,0.0,0.0,0.0,0.0,0,0,0.0,0,0.0,-1,0.0,,0.0,0,0.0,0.029
1763,0,,,251,256,236,233,,0.05,-0.01,1.0,0,0,-0,0.06,,0,0,0,0,0,0.0,0.0,0,0.0,0.0,0.0,0,0.0,0.0,0.0,0,0,0,0,0,,,,,,,,,,,,,,,,,,,,
1783,0,,,251,255,236,233,,0.06,-0.01,1.0,0,0,-0,0.06,,0,0,0,0,0,0.0,0.0,0,0.0,0.0,0.0,0,0.0,0.0,0.0,0,0,0,0,0,,,,,,,,,,,,,,,,,,,,
1803,0,,,251,255,236,233,,0.06,-0.01,1.0,0,0,-0,0.06,,0,0,0,0,0,0.0,0.0,0,0.0,0.0,0.0,0,0.0,0.0,0.0,0,0,0,0,0,,,,,,,,,,,,,,,,,,,,
1823,0,,,251,256,236,233,,0.06,-0.01,1.0,0,0,-0,0.06,,0,0,0,0,0,0.0,0.0,0,0.0,0.0,0.0,0,0.0,0.0,0.0,0,0,0,0,0,,,,,,,,,,,,,,,,,,,,
1843,0,-1,2,251,255,236,233,-2,0.06,-0.01,1.0,0,0,-0,0.06,1,0,0,0,0,0,0.0,0.0,0,0.0,0.0,0.0,0,0.0,0.0,0.0,0,0,0,0,0,0,0,0,0,0.0,0.0,0.0,0.0,0,0,0.0,0,0.0,-1,0.0,0.0,0.0,0,0.0,0.0307
1863,0,,,251,255,236,233,,0.05,-0.01,1.0,0,0,-0,0.06,,0,0,0,0,0,0.0,0.0,0,0.0,0.0,0.0,0,0.0,0.0,0.0,0,0,0,0,0,,,,,,,,,,,,,,,,,,,,
1883,0,,,252,255,236,233,,0.05,-0.01,1.0,0,0,-0,0.06,,0,0,0,0,0,0.0,0.0,0,0.0,0.0,0.0,0,0.0,0.0,0.0,0,0,0,0,0,,,,,,,,,,,,,,,,,,,,
1903,0,,,251,255,236,233,,0.05,-0.01,1.0,0,-0,-0,0.05,,0,0,0,0,0,0.0,0.0,0,0.0,0.0,0.0,0,0.0,0.0,0.0,0,0,0,0,0,,,,,,,,,,,,,,,,,,,,
1923,0,,,252,255,236,233,,0.05,-0.01,1.0,0,0,0,0.06,,0,0,0,0,0,0.0,0.0,0,0.0,0.0,0.0,0,0.0,0.0,0.0,0,0,0,0,0,,,,,,,,,,,,,,,,,,,,
1943,0,-1,1,251,255,236,233,-2,0.06,-0.0,1.0,0,0,0,0.06,1,0,0,0,0,0,0.0,0.0,0,0.0,0.0,0.0,0,0.0,0.0,0.0,0,0,0,0,0,0,0,0,0,0.0,0.0,0.0,0.0,0,0,0.0,0,0.0,-1,0.0,,0.0,0,0.0,0.0324
1963,0,,,251,255,236,233,,0.06,-0.0,1.0,0,0,0,0.06,,0,0,0,0,0,0.0,0.0,0,0.0,0.0,0.0,0,0.0,0.0,0.0,0,0,0,0,0,,,,,,,,,,,,,,,,,,,,
1983,0,,,251,256,236,233,,0.06,-0.0,1.0,0,-0,0,0.06,,0,0,0,0,0,0.0,0.0,0,0.0,0.0,0.0,0,0.0,0.0,0.0,0,0,0,0,0,,,,,,,,,,,,,,,,,,,,
2003,0,,,252,255,236,233,,0.06,-0.0,1.0,0,-0,0,0.06,,0,0,0,0,0,0.0,0.0,0,0.0,0.0,0.0,0,0.0,0.0,0.0,0,0,0,0,0,,,,,,,,,,,,,,,,,,,,
2023,0,,,251,256,236,233,,0.06,-0.0,1.0,0,-1,0,0.06,,0,0,0,0,0,0.0,0.0,0,0.0,0.0,0.0,0,0.0,0.0,0.0,0,0,0,0,0,,,,,,,,,,,,,,,,,,,,
2043,0,0,0,252,256,236,233,-2,0.05,-0.0,1.0,0,-1,0,0.05,1,0,0,0,0,0,0.0,0.0,0,0.0,0.0,0.0,0,0.0,0.0,0.0,0,0,0,0,0,0,0,0,0,0.0,0.0,0.0,0.0,0,0,0.0,0,0.0,-1,0.0,0.0,0.0,0,0.0,0.034
2063,0,,,251,255,236,233,,0.05,-0.0,1.0,0,-1,0,0.05,,0,0,0,0,0,0.0,0.0,0,0.0,0.0,0.0,0,0.0,0.0,0.0,0,0,0,0,0,,,,,,,,,,,,,,,,,,,,
2083,0,,,251,256,236,233,,0.05,-0.0,1.0,0,-1,0,0.05,,0,0,0,0,0,0.0,0.0,0,0.0,0.0,0.0,0,0.0,0.0,0.0,0,0,0,0,0,,,,,,,,,,,,,,,,,,,,
2103,0,,,252,255,237,233,,0.05,-0.0,1.0,0,-1,0,0.05,,0,0,0,0,0,0.0,0.0,0,0.0,0.0,0.0,0,0.0,0.0,0.0,0,0,0,0,0,,,,,,,,,,,,,,,,,,,,
2123,0,,,251,256,236,233,,0.05,-0.0,1.0,0,-1,0,0.05,,0,0,0,0,0,0.0,0.0,0,0.0,0.0,0.0,0,0.0,0.0,0.0,0,0,0,0,0,,,,,,,,,,,,,,,,,,,,
2143,0,0,2,251,256,236,233,-2,0.05,-0.01,1.0,0,-0,0,0.05,1,0,0,0,0,0,0.0,0.0,0,0.0,0.0,0.0,0,0.0,0.0,0.0,0,0,0,0,0,0,0,0,0,0.0,0.0,0.0,0.0,0,0,0.0,0,0.0,-1,0.0,,0.0,0,0.0,0.0357
2163,0,,,251,256,236,233,,0.05,-0.01,1.0,0,-0,0,0.05,,79,0,26,48,92,0.51,0.0,110,4.93,12.8,0.0,1,0.0,0.0,0.0,0,0,0,1,0,,,,,,,,,,,,,,,,,,,,
2183,0,,,251,255,236,233,,0.05,-0.01,0.99,0,-0,0,0.05,,79,0,11,48,92,0.511,0.0,110,4.92,12.8,0.0,1,0.0,0.0,0.0,0,0,0,1,0,,,,,,,,,,,,,,,,,,,,
2203,0,,,251,255,236,233,,0.06,-0.01,1.0,0,-0,0,0.06,,79,0,6,48,92,0.512,0.0,110,4.92,12.8,0.0,1,0.0,0.0,0.0,0,0,0,1,0,,,,,,,,,,,,,,,,,,,,
2223,0,,,251,256,236,233,,0.05,-0.01,1.0,0,-0,0,0.05,,79,0,6,48,92,0.513,0.0,110,4.92,12.8,0.0,1,0.0,0.0,0.0,0,0,0,1,0,,,,,,,,,,,,,,,,,,,,
2243,0,-1,2,251,255,236,233,-2,0.05,-0.01,1.0,0,-0,0,0.05,1,79,0,6,48,92,0.514,0.0,110,4.92,12.8,0.0,1,0.0,0.0,0.0,0,0,0,1,0,0,250,250,0,0.0,0.0,0.0,0.0,0,0,0.0,0,0.0,-1,0.0,0.0,0.0,0,0.0,0.0374
2263,0,,,252,255,237,233,,0.05,-0.01,0.99,0,-0,0,0.05,,79,0,6,48,92,0.515,0.0,110,4.91,12.8,0.0,1,0.0,0.0,0.0,0,0,0,1,0,,,,,,,,,,,,,,,,,,,,
2283,0,,,252,255,236,233,,0.05,-0.01,1.0,0,-0,0,0.05,,79,0,6,48,92,0.516,0.0,110,4.95,12.8,0.0,1,0.0,0.0,0.0,0,0,0,1,0,,,,,,,,,,,,,,,,,,,,
2303,0,,,251,255,236,233,,0.05,-0.01,1.0,0,-0,0,0.05,,79,0,6,48,92,0.517,0.0,110,4.92,12.8,0.0,1,0.0,0.0,0.0,0,0,0,1,0,,,,,,,,,,,,,,,,,,,,
2323,0,,,251,255,236,233,,0.05,-0.01,0.99,0,-0,0,0.06,,79,0,6,48,92,0.518,0.0,110,4.94,12.8,0.0,1,0.0,0.0,0.0,0,0,0,1,0,,,,,,,,,,,,,,,,,,,,
2343,0,0,2,251,255,236,233,-2,0.06,-0.01,1.0,0,-0,0,0.06,1,79,0,6,48,92,0.52,0.0,110,4.92,12.8,0.0,1,0.0,0.0,0.0,0,0,0,1,0,0,250,250,0,0.0,0.0,0.0,0.0,0,0,0.0,0,0.0,-1,0.0,,0.0,0,0.0,0.0391
2363,0,,,251,256,236,233,,0.06,-0.01,1.0,0,-0,0,0.06,,79,0,6,48,92,0.524,0.0,110,4.91,12.8,0.0,1,0.0,0.0,0.0,0,0,0,1,0,,,,,,,,,,,,,,,,,,,,
2383,0,,,251,255,236,233,,0.06,-0.01,1.0,0,-0,-0,0.06,,79,0,6,48,92,0.528,0.0,110,4.91,12.8,0.0,1,0.0,0.0,0.0,0,0,0,1,0,,,,,,,,,,,,,,,,,,,,
2403,0,,,252,255,236,233,,0.06,-0.01,1.0,0,-0,-0,0.06,,79,0,6,48,92,0.531,0.0,110,4.92,12.7,0.0,1,0.0,0.0,0.0,0,0,0,1,0,,,,,,,,,,,,,,,,,,,,
2423,0,,,252,255,236,233,,0.06,-0.01,1.0,0,-0,-0,0.06,,79,0,6,48,92,0.534,0.0,110,4.92,12.7,0.0,1,0.0,0.0,0.0,0,0,0,1,0,,,,,,,,,,,,,,,,,,,,
2443,0,-1,2,251,255,236,233,-2,0.05,-0.01,1.0,0,-0,-0,0.06,1,79,0,6,48,92,0.536,0.0,110,4.91,12.9,0.0,1,0.0,0.0,0.0,0,0,0,1,0,0,250,250,0,0.0,0.0,0.0,0.0,0,0,0.0,0,0.0,-1,0.0,0.0,0.0,0,0.0,0.0407
2463,0,,,251,255,236,233,,0.05,-0.0,1.0,0,-0,-0,0.05,,79,0,7,48,92,0.538,0.0,110,4.93,12.9,0.0,1,0.0,0.0,0.0,0,0,0,1,0,,,,,,,,,,,,,,,,,,,,
2483,0,,,251,255,236,233,,0.06,-0.01,1.0,0,-0,-0,0.06,,79,0,9,48,92,0.538,0.0,110,4.92,12.9,0.0,1,0.0,0.0,0.0,0,0,0,1,0,,,,,,,,,,,,,,,,,,,,
2503,0,,,251,256,236,233,,0.06,-0.0,1.0,0,0,-0,0.06,,79,0,13,48,92,0.54,0.0,110,4.9,12.9,0.0,1,0.0,0.0,0.0,0,0,0,1,0,,,,,,,,,,,,,,,,,,,,
2523,0,,,251,255,236,233,,0.06,-0.01,1.0,0,0,-0,0.06,,79,0,15,48,92,0.542,0.0,110,4.91,12.9,0.0,1,0.0,0.0,0.0,0,0,0,1,0,,,,,,,,,,,,,,,,,,,,
2543,0,0,1,251,256,236,233,-2,0.06,-0.01,1.0,0,0,-0,0.06,1,79,0,15,48,92,0.545,0.0,110,4.9,12.9,0.0,1,0.0,0.0,0.0,0,0,0,1,0,0,250,250,0,0.0,0.0,0.0,0.0,0,0,0.0,0,0.0,-1,0.0,,0.0,0,0.0,0.0424
2563,0,,,251,256,236,233,,0.06,-0.01,1.0,0,0,-0,0.06,,79,0,15,48,92,0.547,0.0,110,4.91,12.9,0.0,1,0.0,0.0,0.0,0,0,0,1,0,,,,,,,,,,,,,,,,,,,,
2583,0,,,251,256,236,233,,0.06,-0.01,1.0,0,0,-0,0.06,,79,0,15,48,92,0.548,0.0,110,4.91,12.9,0.0,1,0.0,0.0,0.0,0,0,0,1,0,,,,,,,,,,,,,,,,,,,,
2603,0,,,252,255,236,233,,0.06,-0.01,1.0,0,0,-0,0.06,,79,0,17,48,92,0.548,0.0,110,4.9,12.9,0.0,1,0.0,0.0,0.0,0,0,0,1,0,,,,,,,,,,,,,,,,,,,,
2623,0,,,251,256,236,233,,0.06,-0.01,1.0,0,0,-0,0.06,,79,0,18,48,92,0.546,0.0,110,4.92,12.9,0.0,1,0.0,0.0,0.0,0,0,0,1,0,,,,,,,,,,,,,,,,,,,,
2643,0,0,1,251,256,236,233,-2,0.06,-0.01,1.0,0,-0,-0,0.06,1,79,0,20,48,92,0.546,0.0,110,4.93,12.9,0.0,1,0.0,0.0,0.0,0,0,0,1,0,0,250,250,0,0.0,0.0,0.0,0.0,0,0,0.0,0,0.0,-1,0.0,0.0,0.0,0,0.0,0.044
2663,0,,,251,255,237,233,,0.06,-0.01,1.0,0,-0,-0,0.06,,79,0,20,48,92,0.544,0.0,110,4.93,12.9,0.0,1,0.0,0.0,0.0,0,0,0,1,0,,,,,,,,,,,,,,,,,,,,
2683,0,,,251,255,236,233,,0.06,-0.01,1.0,0,-0,-0,0.06,,79,0,20,48,92,0.543,0.0,110,4.92,12.9,0.0,1,0.0,0.0,0.0,0,0,0,1,0,,,,,,,,,,,,,,,,,,,,
2703,0,,,251,256,236,233,,0.06,-0.01,1.0,0,-0,-0,0.06,,79,0,20,48,92,0.542,0.0,110,4.94,12.9,0.0,1,0.0,0.0,0.0,0,0,0,1,0,,,,,,,,,,,,,,,,,,,,
2723,0,,,251,255,236,233,,0.06,-0.01,1.0,0,-0,-0,0.06,,79,0,20,48,92,0.542,0.0,110,4.91,12.9,0.0,1,0.0,0.0,0.0,0,0,0,1,0,,,,,,,,,,,,,,,,,,,,
2743,0,0,1,251,256,236,233,-2,0.06,-0.01,1.0,0,-0,-0,0.06,1,79,0,20,48,92,0.542,0.0,110,4.91,12.9,0.0,1,0.0,0.0,0.0,0,0,0,1,0,0,250,250,0,0.0,0.0,0.0,0.0,0,0,0.0,0,0.0,-1,0.0,,0.0,0,0.0,0.0457
2763,0,,,251,255,236,233,,0.06,-0.01,1.0,0,-0,-0,0.06,,79,0,20,48,92,0.542,0.0,110,4.92,12.9,0.0,1,0.0,0.0,0.0,0,0,0,1,0,,,,,,,,,,,,,,,,,,,,
2783,0,,,251,256,236,233,,0.06,-0.01,1.0,0,-0,-0,0.06,,79,0,20,48,92,0.541,0.0,110,4.92,12.9,0.0,1,0.0,0.0,0.0,0,0,0,1,0,,,,,,,,,,,,,,,,,,,,
2803,0,,,251,256,236,233,,0.05,-0.01,1.0,0,0,-0,0.05,,79,0,23,48,92,0.542,0.0,110,4.91,12.9,0.0,1,0.0,0.0,0.0,0,0,0,1,0,,,,,,,,,,,,,,,,,,,,
2823,0,,,252,255,236,233,,0.05,-0.01,0.99,0,1,-0,0.05,,79,0,26,48,92,0.541,0.0,110,4.93,12.9,0.0,1,0.0,0.0,0.0,0,0,0,1,0,,,,,,,,,,,,,,,,,,,,
2843,0,-0,2,251,256,236,233,-2,0.05,-0.01,1.0,0,1,-0,0.05,1,79,0,29,48,92,0.541,0.0,110,4.92,12.9,0.0,1,0.0,0.0,0.0,0,0,0,1,0,0,250,250,0,0.0,0.0,0.0,0.0,0,0,0.0,0,0.0,-1,0.0,0.0,0.0,0,0.0,0.0474
2863,0,,,251,255,236,233,,0.05,-0.01,1.0,0,0,-0,0.05,,79,0,32,48,92,0.542,0.0,110,4.92,12.9,0.0,1,0.0,0.0,0.0,0,0,0,1,0,,,,,,,,,,,,,,,,,,,,
2883,0,,,251,256,236,233,,0.06,-0.01,1.0,0,0,-0,0.06,,79,0,34,48,92,0.542,0.0,110,4.93,12.9,0.0,1,0.0,0.0,0.0,0,0,0,1,0,,,,,,,,,,,,,,,,,,,,
2903,0,,,251,255,236,233,,0.06,-0.01,1.0,0,0,-0,0.06,,79,0,35,48,92,0.543,0.0,110,4.92,12.9,0.0,1,0.0,0.0,0.0,0,0,0,1,0,,,,,,,,,,,,,,,,,,,,
2923,0,,,252,255,236,233,,0.06,-0.01,1.0,0,0,-0,0.06,,79,0,35,48,92,0.544,0.0,110,4.91,12.9,0.0,1,0.0,0.0,0.0,0,0,0,1,0,,,,,,,,,,,,,,,,,,,,
2943,0,-0,2,252,255,237,233,-2,0.06,-0.01,1.0,0,0,-0,0.06,1,79,0,35,48,92,0.546,0.0,110,4.92,12.9,0.0,1,0.0,0.0,0.0,0,0,0,1,0,0,250,250,0,0.0,0.0,0.0,0.0,0,0,0.0,0,0.0,-1,0.0,,0.0,0,0.0,0.049
2963,0,,,251,255,236,233,,0.06,-0.01,1.0,0,0,-0,0.06,,79,0,35,48,92,0.547,0.0,110,4.93,12.9,0.0,1,0.0,0.0,0.0,0,0,0,1,0,,,,,,,,,,,,,,,,,,,,
2983,0,,,252,255,236,233,,0.06,-0.01,1.0,0,0,-0,0.06,,79,0,35,48,92,0.548,0.0,110,4.92,12.9,0.0,1,0.0,0.0,0.0,0,0,0,1,0,,,,,,,,,,,,,,,,,,,,
3003,0,,,252,255,237,233,,0.06,-0.01,1.0,0,0,-0,0.06,,79,0,35,48,92,0.55,0.0,110,4.92,12.9,0.0,1,0.0,0.0,0.0,0,0,0,1,0,,,,,,,,,,,,,,,,,,,,
3023,0,,,252,256,236,233,,0.06,-0.01,1.0,0,0,-0,0.06,,79,0,35,48,92,0.552,0.0,110,4.92,12.9,0.0,1,0.0,0.0,0.0,0,0,0,1,0,,,,,,,,,,,,,,,,,,,,
3043,0,0,0,252,256,236,233,-2,0.06,-0.01,1.0,0,0,-0,0.06,1,79,0,35,48,92,0.555,0.0,110,4.91,12.9,0.0,1,0.0,0.0,0.0,0,0,0,1,0,0,250,250,0,0.0,0.0,0.0,0.0,0,0,0.0,0,0.0,-1,0.0,0.0,0.0,0,0.0,0.0507
3063,0,,,251,255,236,233,,0.06,-0.01,1.0,0,0,-0,0.06,,79,0,35,48,92,0.556,0.0,110,4.91,12.9,0.0,1,0.0,0.0,0.0,0,0,0,1,0,,,,,,,,,,,,,,,,,,,,
3083,0,,,251,256,236,233,,0.06,-0.01,1.0,0,0,-0,0.06,,79,0,35,48,92,0.559,0.0,110,4.92,12.9,0.0,1,0.0,0.0,0.0,0,0,0,1,0,,,,,,,,,,,,,,,,,,,,
3103,0,,,252,256,236,233,,0.06,-0.01,1.0,0,0,-0,0.06,,79,0,35,48,92,0.561,0.0,110,4.91,12.9,0.0,1,0.0,0.0,0.0,0,0,0,1,0,,,,,,,,,,,,,,,,,,,,
3123,0,,,252,256,236,233,,0.06,-0.01,1.0,0,0,-0,0.06,,79,0,35,48,92,0.563,0.0,110,4.94,12.9,0.0,1,0.0,0.0,0.0,0,0,0,1,0,,,,,,,,,,,,,,,,,,,,
3143,0,-1,2,251,256,236,233,-2,0.06,-0.01,1.0,0,0,-0,0.06,1,79,0,35,48,92,0.565,0.0,110,4.91,12.9,0.0,1,0.0,0.0,0.0,0,0,0,1,0,0,250,250,0,0.0,0.0,0.0,0.0,0,0,0.0,0,0.0,-1,0.0,,0.0,0,0.0,0.0524
3163,0,,,251,255,236,233,,0.06,-0.01,1.0,0,0,-0,0.06,,79,0,35,48,92,0.567,0.0,110,4.92,12.9,0.0,1,0.0,0.0,0.0,0,0,0,0,0,,,,,,,,,,,,,,,,,,,,
3183,0,,,251,255,236,233,,0.05,-0.01,1.0,0,0,-0,0.06,,79,0,35,48,92,0.569,0.0,110,4.76,13.1,0.0,1,0.0,0.0,0.0,0,0,0,0,0,,,,,,,,,,,,,,,,,,,,
3203,0,,,251,256,236,233,,0.05,-0.01,1.0,0,0,-0,0.06,,79,0,35,48,92,0.572,0.0,110,4.27,13.1,0.0,1,0.0,0.0,0.0,0,0,0,0,0,,,,,,,,,,,,,,,,,,,,
3223,0,,,251,255,236,233,,0.05,-0.01,1.0,0,0,-0,0.06,,79,0,35,48,92,0.575,0.0,110,3.52,13.1,0.0,1,0.0,0.0,0.0,0,0,0,0,0,,,,,,,,,,,,,,,,,,,,
3243,0,-0,0,252,255,236,233,-2,0.05,-0.01,1.0,0,0,-0,0.06,1,79,0,35,48,92,0.578,0.0,110,3.16,13.1,0.0,1,0.0,0.0,0.0,0,0,0,0,0,0,250,250,0,0.0,0.0,0.0,0.0,0,0,0.0,0,0.0,-1,0.0,0.0,0.0,0,0.0,0.054
3263,0,,,251,256,236,233,,0.05,-0.01,1.0,0,0,-0,0.06,,79,0,35,48,92,0.58,0.0,110,2.92,13.1,0.0,1,0.0,0.0,0.0,0,0,0,0,0,,,,,,,,,,,,,,,,,,,,
3283,0,,,251,256,236,233,,0.05,-0.01,1.0,0,0,-0,0.06,,79,0,35,48,92,0.582,0.0,110,2.73,13.1,0.0,1,0.0,0.0,0.0,0,0,0,0,0,,,,,,,,,,,,,,,,,,,,
3303,0,,,251,256,236,233,,0.06,-0.01,1.0,0,0,-0,0.06,,79,0,35,48,93,0.584,0.0,110,2.6,13.1,0.0,1,0.0,0.0,0.0,0,0,0,0,0,,,,,,,,,,,,,,,,,,,,
3323,0,,,251,255,236,233,,0.06,-0.01,1.0,0,0,-0,0.06,,79,0,35,48,92,0.587,0.0,110,2.48,13.1,0.0,1,0.0,0.0,0.0,0,0,0,0,0,,,,,,,,,,,,,,,,,,,,
3343,0,0,1,252,255,236,233,-1,0.06,-0.01,1.0,0,0,-0,0.06,1,79,0,35,48,92,0.589,0.0,110,2.39,13.1,0.0,1,0.0,0.0,0.0,0,0,0,0,0,0,250,250,0,0.0,0.0,0.0,0.0,0,0,0.0,0,0.0,-1,0.0,,0.0,0,0.0,0.0557
3363,0,,,252,256,236,233,,0.06,-0.01,1.0,0,0,-0,0.06,,79,0,35,48,92,0.591,0.0,109,2.31,13.1,0.0,1,0.0,0.0,0.0,0,0,0,0,0,,,,,,,,,,,,,,,,,,,,
3383,0,,,251,255,236,233,,0.05,-0.01,1.0,0,0,-0,0.06,,79,0,35,48,92,0.593,0.0,110,2.24,13.1,0.0,1,0.0,0.0,0.0,0,0,0,0,0,,,,,,,,,,,,,,,,,,,,
3403,0,,,251,256,236,233,,0.05,-0.01,1.0,0,0,-0,0.06,,79,0,35,48,92,0.595,0.0,110,2.18,13.1,0.0,1,0.0,0.0,0.0,0,0,0,0,0,,,,,,,,,,,,,,,,,,,,
3423,0,,,252,255,236,233,,0.05,-0.01,1.0,0,0,-0,0.06,,79,0,35,48,92,0.597,0.0,110,2.13,13.1,0.0,1,0.0,0.0,0.0,0,0,0,0,0,,,,,,,,,,,,,,,,,,,,
3443,0,0,1,252,255,237,233,-2,0.05,-0.01,1.0,0,0,-0,0.06,1,79,0,35,48,92,0.599,0.0,110,2.07,13.1,0.0,1,0.0,0.0,0.0,0,0,0,0,0,0,250,250,0,0.0,0.0,0.0,0.0,0,0,0.0,0,0.0,-1,0.0,0.0,0.0,0,0.0,0.0574
3463,0,,,251,255,236,233,,0.05,-0.01,1.0,0,0,-0,0.06,,79,0,35,48,92,0.601,0.0,110,2.02,13.1,0.0,1,0.0,0.0,0.0,0,0,0,0,0,,,,,,,,,,,,,,,,,,,,
3483,0,,,252,256,236,233,,0.05,-0.01,1.0,0,0,-0,0.06,,79,0,35,48,92,0.603,0.0,110,1.98,13.1,0.0,1,0.0,0.0,0.0,0,0,0,0,0,,,,,,,,,,,,,,,,,,,,
3503,0,,,252,255,236,233,,0.05,-0.01,1.0,0,0,-0,0.06,,79,0,35,48,92,0.605,0.0,110,1.94,13.1,0.0,1,0.0,0.0,0.0,0,0,0,0,0,,,,,,,,,,,,,,,,,,,,
3523,0,,,252,255,237,233,,0.05,-0.01,1.0,0,0,-0,0.06,,79,0,35,48,92,0.607,0.0,110,1.91,13.1,0.0,1,0.0,0.0,0.0,0,0,0,0,0,,,,,,,,,,,,,,,,,,,,
3543,0,0,0,252,256,236,233,-1,0.05,-0.01,1.0,0,0,-0,0.06,1,79,0,35,48,92,0.609,0.0,110,1.87,13.1,0.0,1,0.0,0.0,0.0,0,0,0,0,0,0,250,250,0,0.0,0.0,0.0,0.0,0,0,0.0,0,0.0,-1,0.0,,0.0,0,0.0,0.059
3563,0,,,251,255,236,233,,0.05,-0.01,1.0,0,0,-0,0.06,,79,0,35,48,92,0.611,0.0,110,1.83,13.1,0.0,1,0.0,0.0,0.0,0,0,0,0,0,,,,,,,,,,,,,,,,,,,,
3583,0,,,252,256,236,233,,0.05,-0.01,1.0,0,0,-0,0.06,,79,0,35,48,92,0.614,0.0,110,1.8,13.1,0.0,1,0.0,0.0,0.0,0,0,0,0,0,,,,,,,,,,,,,,,,,,,,
3603,0,,,252,256,236,233,,0.05,-0.01,1.0,0,0,-0,0.06,,79,0,35,48,92,0.615,0.0,110,1.78,13.1,0.0,1,0.0,0.0,0.0,0,0,0,0,0,,,,,,,,,,,,,,,,,,,,
3623,0,,,251,255,236,233,,0.05,-0.01,1.0,0,0,-0,0.05,,79,0,35,48,92,0.618,0.0,110,1.75,13.1,0.0,1,0.0,0.0,0.0,0,0,0,0,0,,,,,,,,,,,,,,,,,,,,
3643,0,-0,2,251,255,236,233,-1,0.05,-0.01,1.0,0,0,-0,0.06,1,79,0,35,48,92,0.62,0.0,110,1.73,13.1,0.0,1,0.0,0.0,0.0,0,0,0,0,0,0,250,250,0,0.0,0.0,0.0,0.0,0,0,0.0,0,0.0,-1,0.0,0.0,0.0,0,0.0,0.0607
3663,0,,,252,255,236,233,,0.05,-0.01,1.0,0,0,-0,0.06,,79,0,35,48,92,0.622,0.0,110,1.73,13.1,0.0,1,0.0,0.0,0.0,0,0,0,0,0,,,,,,,,,,,,,,,,,,,,
3683,0,,,251,256,236,233,,0.05,-0.01,1.0,0,0,-0,0.06,,79,0,35,48,92,0.623,0.0,110,1.7,13.1,0.0,1,0.0,0.0,0.0,0,0,0,0,0,,,,,,,,,,,,,,,,,,,,
3703,0,,,252,255,236,233,,0.05,-0.01,1.0,0,0,-0,0.06,,79,0,35,48,92,0.625,0.0,110,1.67,13.1,0.0,1,0.0,0.0,0.0,0,0,0,0,0,,,,,,,,,,,,,,,,,,,,
3723,0,,,252,255,236,233,,0.05,-0.01,1.0,0,0,-0,0.06,,79,0,35,48,92,0.626,0.0,110,1.65,13.1,0.0,1,0.0,0.0,0.0,0,0,0,0,0,,,,,,,,,,,,,,,,,,,,
3743,0,0,0,251,255,236,233,-1,0.05,-0.01,1.0,0,0,-0,0.06,1,79,0,35,48,92,0.627,0.0,110,1.64,13.1,0.0,1,0.0,0.0,0.0,0,0,0,0,0,0,250,250,0,0.0,0.0,0.0,0.0,0,0,0.0,0,0.0,-1,0.0,,0.0,0,0.0,0.0624
3763,0,,,251,256,236,233,,0.06,-0.01,1.0,0,0,-0,0.06,,79,0,35,48,92,0.628,0.0,110,1.61,13.1,0.0,1,0.0,0.0,0.0,0,0,0,0,0,,,,,,,,,,,,,,,,,,,,
3783,0,,,251,255,236,233,,0.06,-0.01,1.0,0,0,-0,0.06,,79,0,35,48,92,0.629,0.0,110,1.61,13.1,0.0,1,0.0,0.0,0.0,0,0,0,0,0,,,,,,,,,,,,,,,,,,,,
3803,0,,,251,255,236,233,,0.06,-0.01,1.0,0,0,-0,0.06,,79,0,35,48,92,0.63,0.0,110,1.58,13.1,0.0,1,0.0,0.0,0.0,0,0,0,0,0,,,,,,,,,,,,,,,,,,,,
3823,0,,,251,255,236,233,,0.05,-0.01,1.0,0,0,-0,0.06,,79,0,35,48,92,0.63,0.0,110,1.58,13.1,0.0,1,0.0,0.0,0.0,0,0,0,0,0,,,,,,,,,,,,,,,,,,,,
3843,0,0,2,251,255,236,233,-1,0.05,-0.01,1.0,0,0,-0,0.06,1,79,0,35,48,92,0.63,0.0,110,1.56,13.1,0.0,1,0.0,0.0,0.0,0,0,0,0,0,0,250,250,0,0.0,0.0,0.0,0.0,0,0,0.0,0,0.0,-1,0.0,0.0,0.0,0,0.0,0.064
3863,0,,,251,256,236,233,,0.05,-0.01,1.0,0,0,-0,0.06,,79,0,35,48,93,0.63,0.0,110,1.56,13.1,0.0,1,0.0,0.0,0.0,0,0,0,0,0,,,,,,,,,,,,,,,,,,,,
3883,0,,,251,255,236,233,,0.05,-0.01,1.0,0,0,-0,0.06,,79,0,35,48,92,0.63,0.0,110,1.53,13.1,0.0,1,0.0,0.0,0.0,0,0,0,0,0,,,,,,,,,,,,,,,,,,,,
3903,0,,,251,256,236,233,,0.05,-0.01,1.0,0,0,-0,0.06,,79,0,35,48,92,0.631,0.0,110,1.53,13.1,0.0,1,0.0,0.0,0.0,0,0,0,0,0,,,,,,,,,,,,,,,,,,,,
3923,0,,,251,256,236,233,,0.05,-0.01,1.0,0,0,-0,0.06,,79,0,35,48,92,0.63,0.0,110,1.51,13.1,0.0,1,0.0,0.0,0.0,0,0,0,0,0,,,,,,,,,,,,,,,,,,,,
3943,0,-1,2,251,255,236,233,-2,0.05,-0.01,1.0,0,0,-0,0.06,1,79,0,35,48,92,0.63,0.0,110,1.5,13.1,0.0,1,0.0,0.0,0.0,0,0,0,0,0,0,250,250,0,0.0,0.0,0.0,0.0,0,0,0.0,0,0.0,-1,0.0,,0.0,0,0.0,0.0657
3963,0,,,252,256,236,233,,0.05,-0.01,1.0,0,0,-0,0.06,,79,0,35,48,92,0.63,0.0,110,1.48,13.1,0.0,1,0.0,0.0,0.0,0,0,0,0,0,,,,,,,,,,,,,,,,,,,,
3983,0,,,251,255,236,233,,0.05,-0.01,1.0,0,0,-0,0.05,,79,0,35,48,92,0.629,0.0,110,1.48,13.1,0.0,1,0.0,0.0,0.0,0,0,0,0,0,,,,,,,,,,,,,,,,,,,,
4003,0,,,252,255,236,233,,0.05,-0.01,1.0,0,0,-0,0.05,,79,0,35,48,92,0.629,0.0,110,1.47,13.1,0.0,1,0.0,0.0,0.0,0,0,0,0,0,,,,,,,,,,,,,,,,,,,,
4023,0,,,251,256,236,233,,0.05,-0.01,1.0,0,0,-0,0.05,,79,0,35,48,92,0.629,0.0,110,1.45,13.1,0.0,1,0.0,0.0,0.0,0,0,0,0,0,,,,,,,,,,,,,,,,,,,,
4043,0,0,2,252,256,236,233,-2,0.05,-0.01,1.0,0,0,-0,0.05,1,79,0,35,48,92,0.629,0.0,110,1.45,13.1,0.0,1,0.0,0.0,0.0,0,0,0,0,0,0,250,250,0,0.0,0.0,0.0,0.0,0,0,0.0,0,0.0,-1,0.0,0.0,0.0,0,0.0,0.0674
4063,0,,,252,255,236,233,,0.05,-0.01,1.0,0,0,-0,0.05,,79,0,35,48,92,0.629,0.0,110,1.45,13.1,0.0,1,0.0,0.0,0.0,0,0,0,0,0,,,,,,,,,,,,,,,,,,,,
4083,0,,,251,256,236,233,,0.05,-0.01,1.0,0,0,-0,0.05,,79,0,35,48,92,0.629,0.0,110,1.42,13.1,0.0,1,0.0,0.0,0.0,0,0,0,0,0,,,,,,,,,,,,,,,,,,,,
4103,0,,,251,256,236,233,,0.05,-0.01,1.0,0,0,-0,0.05,,79,0,35,48,92,0.629,0.0,110,1.42,13.1,0.0,1,0.0,0.0,0.0,0,0,0,0,0,,,,,,,,,,,,,,,,,,,,
4123,0,,,251,255,236,233,,0.05,-0.01,1.0,0,0,-0,0.05,,79,0,35,48,92,0.628,0.0,110,1.41,13.1,0.0,1,0.0,0.0,0.0,0,0,0,0,0,,,,,,,,,,,,,,,,,,,,
4143,0,0,2,251,256,236,233,-2,0.05,-0.01,1.0,0,0,-0,0.05,1,79,0,35,48,92,0.628,0.0,110,1.4,13.1,0.0,1,0.0,0.0,0.0,0,0,0,0,0,0,250,250,0,0.0,0.0,0.0,0.0,0,0,0.0,0,0.0,-1,0.0,,0.0,0,0.0,0.069
4163,0,,,251,255,236,233,,0.05,-0.01,1.0,0,0,-0,0.05,,79,0,35,48,92,0.628,0.0,110,1.4,13.1,0.0,1,0.0,0.0,0.0,0,0,0,0,0,,,,,,,,,,,,,,,,,,,,
4183,0,,,251,256,236,233,,0.05,-0.01,1.0,0,0,-0,0.05,,79,0,35,48,92,0.629,0.0,110,1.4,13.1,0.0,1,0.0,0.0,0.0,0,0,0,0,0,,,,,,,,,,,,,,,,,,,,
4203,0,,,251,255,236,233,,0.05,-0.01,1.0,0,0,-0,0.05,,79,0,35,48,92,0.628,0.0,110,1.39,13.1,0.0,1,0.0,0.0,0.0,0,0,0,0,0,,,,,,,,,,,,,,,,,,,,
4223,0,,,252,255,236,233,,0.05,-0.01,1.0,0,0,-0,0.05,,79,0,35,48,92,0.628,0.0,110,1.37,13.1,0.0,1,0.0,0.0,0.0,0,0,0,0,0,,,,,,,,,,,,,,,,,,,,
4243,0,-0,2,251,255,236,233,-3,0.06,-0.01,1.0,0,-0,-0,0.06,1,79,0,35,48,92,0.629,0.0,110,1.36,12.8,0.0,1,0.0,0.0,0.0,0,0,0,0,0,0,250,250,0,0.0,0.0,0.0,0.0,0,0,0.0,0,0.0,-1,0.0,0.0,0.0,0,0.0,0.0707
4263,0,,,251,255,236,233,,0.06,-0.01,0.99,0,-0,-0,0.06,,79,0,35,48,92,0.626,0.0,110,1.36,9.6,0.0,1,0.0,0.0,0.0,0,0,0,0,0,,,,,,,,,,,,,,,,,,,,
4283,0,,,251,255,236,233,,0.06,-0.01,0.99,0,-0,-0,0.06,,79,0,35,48,92,0.624,0.0,110,1.35,10.5,0.0,1,0.0,0.0,0.0,0,0,0,0,0,,,,,,,,,,,,,,,,,,,,
4303,0,,,251,255,236,233,,0.06,-0.01,1.0,0,0,-0,0.06,,79,0,35,48,92,0.623,0.0,110,1.34,10.8,0.0,1,0.0,0.0,0.0,0,0,0,0,0,,,,,,,,,,,,,,,,,,,,
4323,0,,,251,255,236,233,,0.05,-0.01,1.0,0,0,-0,0.06,,79,0,35,48,92,0.623,0.0,113,1.35,11.0,0.0,1,0.0,0.0,0.0,0,0,0,0,0,,,,,,,,,,,,,,,,,,,,
4343,0,0,2,251,255,236,233,-2,0.05,-0.01,0.98,0,0,0,0.06,1,79,0,35,48,92,0.625,0.0,113,1.34,11.1,0.0,1,0.0,0.0,0.0,0,0,0,0,0,0,250,250,0,0.0,0.0,0.0,0.0,0,0,0.0,0,0.0,-1,0.0,,0.0,0,0.0,0.0724
4363,0,,,252,255,236,233,,0.05,-0.01,0.98,0,0,0,0.06,,79,0,35,48,92,0.625,0.0,113,1.34,11.2,0.0,1,0.0,0.0,0.0,0,0,0,0,0,,,,,,,,,,,,,,,,,,,,
4383,0,,,251,255,236,233,,0.06,-0.01,0.99,0,-0,-0,0.06,,79,0,35,48,92,0.626,0.0,113,1.34,11.1,0.0,1,0.0,0.0,0.0,0,0,0,0,0,,,,,,,,,,,,,,,,,,,,
4403,0,,,251,255,236,233,,0.06,-0.01,0.99,0,-0,-0,0.06,,79,0,35,48,92,0.627,0.0,113,1.34,11.5,0.0,1,0.0,0.0,0.0,0,0,0,0,0,,,,,,,,,,,,,,,,,,,,
4423,0,,,251,255,236,233,,0.06,-0.01,0.98,0,-0,-0,0.06,,79,0,35,48,92,0.628,0.0,113,1.33,11.7,0.0,1,0.0,0.0,0.0,0,0,0,0,0,,,,,,,,,,,,,,,,,,,,
4443,0,0,2,252,256,236,233,-2,0.06,-0.01,1.0,0,-0,-0,0.06,1,79,0,35,48,92,0.63,0.0,113,1.32,11.7,0.0,1,0.0,0.0,0.0,0,0,0,0,0,0,250,250,0,0.0,0.0,0.0,0.0,0,0,0.0,0,0.0,-1,0.0,0.0,0.0,0,0.0,0.074
4463,0,,,251,255,236,233,,0.05,-0.01,0.99,0,-0,-0,0.06,,79,0,35,48,92,0.632,0.0,113,1.31,11.5,0.0,1,0.0,0.0,0.0,0,0,0,0,0,,,,,,,,,,,,,,,,,,,,
4483,0,,,251,255,237,233,,0.06,-0.01,1.0,0,-0,-0,0.06,,79,0,35,48,92,0.633,0.0,113,1.31,11.8,0.0,1,0.0,0.0,0.0,0,0,0,0,0,,,,,,,,,,,,,,,,,,,,
4503,0,,,251,256,236,233,,0.06,-0.01,0.99,0,-0,-0,0.06,,79,0,35,48,92,0.635,0.0,116,1.31,11.9,0.0,1,0.0,0.0,0.0,0,0,0,0,0,,,,,,,,,,,,,,,,,,,,
4523,0,,,251,256,236,233,,0.06,-0.01,0.99,0,0,-0,0.06,,79,0,35,48,92,0.637,0.0,116,1.29,11.9,0.0,1,0.0,0.0,0.0,0,0,0,0,0,,,,,,,,,,,,,,,,,,,,
4543,0,-0,1,252,255,237,233,-2,0.05,-0.01,1.0,0,-0,-0,0.05,1,79,0,35,48,92,0.639,0.0,116,1.28,11.7,0.0,1,0.0,0.0,0.0,0,0,0,0,0,0,250,250,0,0.0,0.0,0.0,0.0,0,0,0.0,0,0.0,-1,0.0,,0.0,0,0.0,0.0757
4563,0,,,251,256,237,233,,0.05,-0.01,1.0,0,-0,-0,0.06,,79,0,35,48,92,0.639,0.0,116,1.28,11.9,0.0,1,0.0,0.0,0.0,0,0,0,0,0,,,,,,,,,,,,,,,,,,,,
4583,0,,,251,256,236,233,,0.06,-0.01,1.0,0,-0,-0,0.06,,79,0,35,48,92,0.639,0.0,116,1.28,11.9,0.0,1,0.0,0.0,0.0,0,0,0,0,0,,,,,,,,,,,,,,,,,,,,
4603,0,,,252,255,236,233,,0.06,-0.01,1.02,0,-0,-0,0.06,,79,0,35,48,92,0.639,0.0,116,1.28,11.8,0.0,1,0.0,0.0,0.0,0,0,0,0,0,,,,,,,,,,,,,,,,,,,,
4623,0,,,251,255,236,233,,0.06,-0.01,1.02,0,-0,-0,0.06,,79,0,35,48,92,0.639,0.0,116,1.28,11.9,0.0,1,0.0,0.0,0.0,0,0,0,0,0,,,,,,,,,,,,,,,,,,,,
4643,0,0,2,251,255,236,233,-3,0.06,-0.01,1.02,0,-0,-0,0.06,1,79,0,35,48,92,0.638,0.0,116,1.26,12.0,0.0,1,0.0,0.0,0.0,0,0,0,0,0,0,250,250,0,0.0,0.0,0.0,0.0,0,0,0.0,0,0.0,-1,0.0,0.0,0.0,0,0.0,0.0774
4663,0,,,252,255,236,233,,0.06,-0.01,0.99,0,0,0,0.06,,79,0,35,48,92,0.637,0.0,118,1.26,11.9,0.0,1,0.0,0.0,0.0,0,0,0,0,0,,,,,,,,,,,,,,,,,,,,
4683,0,,,251,255,236,233,,0.06,-0.01,0.98,0,0,0,0.06,,79,0,35,48,92,0.636,0.0,118,1.26,11.8,0.0,1,0.0,0.0,0.0,0,0,0,0,0,,,,,,,,,,,,,,,,,,,,
4703,0,,,251,256,236,233,,0.06,-0.01,0.97,0,0,0,0.06,,79,0,35,48,92,0.633,0.0,118,1.26,11.9,0.0,1,0.0,0.0,0.0,0,0,0,0,0,,,,,,,,,,,,,,,,,,,,
4723,0,,,252,256,236,233,,0.06,-0.01,0.99,0,0,0,0.06,,79,0,35,48,92,0.632,0.0,118,1.26,12.0,0.0,1,0.0,0.0,0.0,0,0,0,0,0,,,,,,,,,,,,,,,,,,,,
4743,0,0,2,251,255,236,233,-2,0.05,-0.02,0.97,0,0,0,0.06,1,79,0,35,48,92,0.632,0.0,118,1.26,11.8,0.0,1,0.0,0.0,0.0,0,0,0,0,0,0,250,250,0,0.0,0.0,0.0,0.0,0,0,0.0,0,0.0,-1,0.0,,0.0,0,0.0,0.079
4763,0,,,251,255,236,233,,0.06,-0.01,0.98,0,0,0,0.06,,79,0,35,48,92,0.631,0.0,118,1.26,11.9,0.0,1,0.0,0.0,0.0,0,0,0,0,0,,,,,,,,,,,,,,,,,,,,
4783,0,,,251,256,236,233,,0.06,-0.01,0.99,0,0,0,0.06,,79,0,35,48,92,0.63,0.0,118,1.23,12.0,0.0,1,0.0,0.0,0.0,0,0,0,0,0,,,,,,,,,,,,,,,,,,,,
4803,0,,,251,256,236,233,,0.06,-0.01,0.96,0,0,0,0.06,,79,0,35,48,92,0.63,0.0,118,1.23,11.9,0.0,1,0.0,0.0,0.0,0,0,0,0,0,,,,,,,,,,,,,,,,,,,,
4823,0,,,251,255,236,233,,0.06,-0.01,0.96,0,0,0,0.06,,79,0,35,48,92,0.63,0.0,118,1.23,11.8,0.0,1,0.0,0.0,0.0,0,0,0,0,0,,,,,,,,,,,,,,,,,,,,
4843,0,-0,1,251,256,236,233,-1,0.06,-0.01,0.97,0,0,0,0.06,1,79,0,35,48,92,0.629,0.0,118,1.23,12.0,0.0,1,0.0,0.0,0.0,0,0,0,0,0,0,250,250,0,0.0,0.0,0.0,0.0,0,0,0.0,0,0.0,-1,0.0,0.0,0.0,0,0.0,0.0807
4863,0,,,252,255,236,233,,0.05,-0.01,0.97,0,0,0,0.05,,79,0,35,48,92,0.629,0.0,118,1.23,12.0,0.0,1,0.0,0.0,0.0,0,0,0,0,0,,,,,,,,,,,,,,,,,,,,
4883,0,,,251,255,236,233,,0.05,-0.01,0.98,0,-0,0,0.05,,79,123,35,48,92,0.628,0.0,119,1.28,11.5,0.0,1,21.7,2.09,0.0,0,0,0,1,0,,,,,,,,,,,,,,,,,,,,
4903,0,,,251,255,236,233,,0.06,-0.01,0.98,0,0,0,0.06,,79,123,35,48,92,0.628,0.0,119,1.92,11.7,0.0,1,21.7,4.31,0.0,0,0,0,1,0,,,,,,,,,,,,,,,,,,,,
4923,0,,,251,255,236,233,,0.05,-0.01,0.98,0,0,0,0.06,,79,123,35,48,92,0.628,0.0,119,3.96,11.9,0.0,1,21.7,4.31,0.0,0,0,0,1,0,,,,,,,,,,,,,,,,,,,,
4943,0,0,0,252,255,236,233,-2,0.06,-0.01,0.97,0,0,0,0.06,1,79,440,35,48,92,0.627,0.0,120,4.88,11.7,0.0,1,21.7,2.09,0.0,0,0,0,1,0,0,250,250,0,0.0,0.0,0.0,0.0,0,0,0.0,0,0.0,-1,0.0,,0.0,0,0.0,0.0824
4963,0,,,251,255,236,233,,0.05,-0.01,0.98,0,0,0,0.06,,79,440,35,48,92,0.627,0.0,120,4.92,11.7,0.0,1,21.7,2.09,0.8,0,0,0,1,0,,,,,,,,,,,,,,,,,,,,
4983,0,,,251,255,236,233,,0.05,-0.01,0.99,0,0,0,0.05,,79,440,35,48,92,0.627,0.0,120,4.93,11.8,0.0,1,21.7,2.09,0.8,0,0,0,1,0,,,,,,,,,,,,,,,,,,,,
5003,0,,,252,256,236,233,,0.05,-0.01,0.98,0,0,0,0.05,,79,440,35,48,92,0.627,0.0,120,4.92,11.8,0.0,1,21.7,4.31,0.8,0,0,0,1,0,,,,,,,,,,,,,,,,,,,,
5023,0,,,251,256,236,233,,0.05,-0.01,0.99,0,0,0,0.05,,79,431,35,48,92,0.628,0.0,119,4.93,11.6,0.0,1,21.7,2.09,0.8,0,0,0,1,0,,,,,,,,,,,,,,,,,,,,
5043,0,1,0,251,255,236,233,-2,0.05,-0.01,0.99,0,0,0,0.06,1,79,431,35,48,92,0.628,0.0,118,4.93,11.7,0.0,1,21.7,4.31,0.8,0,0,0,1,0,0,250,250,0,0.0,0.0,0.0,0.0,0,0,0.0,0,0.0,-1,0.0,0.0,0.0,0,0.0,0.084
5063,0,,,251,256,236,233,,0.05,-0.01,1.0,0,0,-0,0.05,,79,431,35,48,92,0.628,0.0,118,4.93,11.8,0.0,1,21.7,4.31,0.8,0,0,0,1,0,,,,,,,,,,,,,,,,,,,,
5083,0,,,251,256,236,233,,0.06,-0.01,1.0,0,0,-0,0.06,,79,436,35,48,92,0.628,0.0,118,4.93,11.7,0.0,1,21.7,4.31,0.8,0,0,0,1,0,,,,,,,,,,,,,,,,,,,,
5103,0,,,251,256,236,233,,0.05,-0.0,0.99,0,0,0,0.05,,79,436,35,48,92,0.628,0.0,118,4.92,11.6,0.0,1,21.7,2.09,0.8,0,0,0,1,0,,,,,,,,,,,,,,,,,,,,
5123,0,,,251,256,236,233,,0.05,-0.0,0.99,0,0,0,0.05,,79,436,35,48,92,0.628,0.0,118,4.92,11.8,0.0,1,21.7,4.31,0.8,0,0,0,1,0,,,,,,,,,,,,,,,,,,,,
5143,0,0,2,251,256,236,233,-2,0.05,-0.01,0.98,0,0,0,0.05,1,79,436,35,48,92,0.629,0.0,118,4.91,11.7,0.0,1,21.7,4.31,0.8,0,0,0,1,0,0,250,250,0,0.0,0.0,0.0,0.0,0,0,0.0,0,0.0,-1,0.0,,0.0,0,0.0,0.0857
5163,0,,,252,255,236,233,,0.05,-0.01,0.96,0,0,0,0.05,,79,420,35,48,92,0.629,0.0,118,4.92,11.5,0.0,1,21.7,2.09,0.8,0,0,0,1,0,,,,,,,,,,,,,,,,,,,,
5183,0,,,251,255,236,233,,0.05,-0.01,0.97,0,0,0,0.05,,79,420,35,48,92,0.629,0.0,118,4.91,11.7,0.0,1,21.7,2.09,0.8,0,0,0,1,0,,,,,,,,,,,,,,,,,,,,
5203,0,,,251,255,237,233,,0.05,-0.01,0.98,0,0,0,0.05,,79,420,35,48,92,0.63,0.0,118,4.91,11.8,0.0,1,21.7,1.94,0.8,0,0,0,1,0,,,,,,,,,,,,,,,,,,,,
5223,0,,,252,256,236,233,,0.05,-0.01,0.97,0,0,0,0.05,,79,436,35,48,92,0.63,0.0,118,4.91,11.7,0.0,1,21.7,4.31,0.8,0,0,0,1,0,,,,,,,,,,,,,,,,,,,,
5243,0,0,2,251,255,236,233,-3,0.05,0.0,0.98,0,0,0,0.05,1,79,436,35,48,92,0.629,0.0,118,4.9,11.6,0.0,1,21.7,2.09,0.8,0,0,0,1,0,0,250,250,0,0.0,0.0,0.0,0.0,0,0,0.0,0,0.0,-1,0.0,0.0,0.0,0,0.0,0.0874
5263,0,,,251,255,236,233,,0.05,-0.0,0.97,0,0,0,0.05,,79,436,35,48,92,0.629,0.0,118,4.92,11.8,0.0,1,21.7,4.31,0.8,0,0,0,1,0,,,,,,,,,,,,,,,,,,,,
5283,0,,,251,255,236,233,,0.05,-0.01,0.96,0,0,0,0.05,,79,436,35,48,92,0.63,0.0,118,4.92,11.7,0.0,1,21.7,4.31,0.8,0,0,0,1,0,,,,,,,,,,,,,,,,,,,,
5303,0,,,251,255,236,233,,0.05,-0.01,0.95,0,0,0,0.05,,79,427,35,48,92,0.63,0.0,118,4.92,11.5,0.0,1,21.7,4.31,0.8,0,0,0,1,0,,,,,,,,,,,,,,,,,,,,
5323,0,,,251,255,236,233,,0.05,-0.01,0.96,0,0,0,0.05,,79,427,35,48,92,0.63,0.0,118,4.9,11.7,0.0,1,21.7,2.09,0.8,0,0,0,1,0,,,,,,,,,,,,,,,,,,,,
5343,0,0,1,251,255,236,233,-2,0.05,-0.01,0.96,0,0,0,0.05,1,79,427,35,48,92,0.63,0.0,118,4.9,11.8,0.0,1,21.7,4.31,0.8,0,0,0,1,0,0,250,250,0,0.0,0.0,0.0,0.0,0,0,0.0,0,0.0,-1,0.0,,0.0,0,0.0,0.089
5363,0,,,251,255,236,233,,0.05,-0.0,0.97,0,0,-0,0.05,,79,435,35,48,92,0.63,0.0,118,4.9,11.6,0.0,1,21.7,4.31,0.8,0,0,0,1,0,,,,,,,,,,,,,,,,,,,,
5383,0,,,251,255,236,233,,0.05,-0.01,0.99,0,0,-0,0.05,,79,435,35,48,92,0.631,0.0,118,4.92,11.6,0.0,1,21.7,4.31,0.8,0,0,0,1,0,,,,,,,,,,,,,,,,,,,,
5403,0,,,251,255,236,233,,0.05,-0.01,0.98,0,0,-0,0.05,,79,435,35,48,92,0.631,0.0,118,4.9,11.8,0.0,1,21.7,2.09,0.8,0,0,0,1,0,,,,,,,,,,,,,,,,,,,,
5423,0,,,252,255,236,233,,0.05,-0.01,0.99,0,-0,-0,0.05,,79,435,35,48,92,0.631,0.0,118,4.91,11.7,0.0,1,21.7,4.31,0.8,0,0,0,1,0,,,,,,,,,,,,,,,,,,,,
5443,0,-1,2,251,255,236,233,-2,0.06,-0.01,0.99,0,-0,0,0.06,1,79,418,35,48,92,0.629,0.0,118,4.88,11.5,0.0,1,21.7,4.31,0.8,0,0,0,1,0,0,250,250,0,0.0,0.0,0.0,0.0,0,0,0.0,0,0.0,-1,0.0,0.0,0.0,0,0.0,0.0907
5463,0,,,251,255,236,233,,0.05,-0.01,0.99,0,0,-0,0.05,,79,418,35,48,92,0.629,0.0,119,4.92,11.6,0.0,1,21.7,2.09,0.8,0,0,0,1,0,,,,,,,,,,,,,,,,,,,,
5483,0,,,251,255,236,233,,0.05,-0.01,0.99,0,0,-0,0.05,,79,418,35,48,92,0.629,0.0,119,4.9,11.8,0.0,1,21.7,4.31,0.8,0,0,0,1,0,,,,,,,,,,,,,,,,,,,,
5503,0,,,251,255,236,233,,0.06,-0.0,1.01,0,-0,-0,0.06,,79,433,35,49,92,0.627,0.0,115,4.86,11.4,0.0,1,21.7,2.09,0.8,0,0,0,1,0,,,,,,,,,,,,,,,,,,,,
5523,0,,,251,255,236,233,,0.05,-0.01,1.01,0,0,-0,0.05,,79,433,35,48,92,0.627,0.0,118,4.91,11.6,0.0,1,21.7,2.09,0.8,0,0,0,1,0,,,,,,,,,,,,,,,,,,,,
5543,0,0,1,251,256,236,233,-2,0.05,-0.01,1.01,0,0,-0,0.05,1,79,433,35,48,92,0.627,0.0,118,4.9,11.8,0.0,1,21.7,4.31,0.8,0,0,0,1,0,0,250,250,0,0.0,0.0,0.0,0.0,0,0,0.0,0,0.0,-1,0.0,,0.0,0,0.0,0.0924
5563,0,,,251,256,236,233,,0.05,-0.01,1.0,0,0,0,0.05,,79,433,35,48,92,0.627,0.0,118,4.92,11.7,0.0,1,21.7,4.31,0.8,0,0,0,1,0,,,,,,,,,,,,,,,,,,,,
5583,0,,,251,255,236,233,,0.06,-0.01,0.98,0,-0,0,0.06,,79,416,35,48,92,0.624,0.0,118,4.91,11.5,0.0,1,21.7,4.31,0.8,0,0,0,1,0,,,,,,,,,,,,,,,,,,,,
5603,0,,,251,256,236,233,,0.05,-0.01,0.98,0,0,-0,0.05,,79,416,35,48,92,0.624,0.0,118,4.91,11.6,0.0,1,21.7,4.31,0.8,0,0,0,1,0,,,,,,,,,,,,,,,,,,,,
5623,0,,,251,256,236,233,,0.05,-0.01,0.99,0,0,-0,0.05,,79,416,35,48,92,0.624,0.0,118,4.92,11.7,0.0,1,21.7,4.04,0.8,0,0,0,1,0,,,,,,,,,,,,,,,,,,,,
5643,0,-1,2,251,256,236,233,-2,0.06,-0.01,0.97,0,0,0,0.06,1,79,440,35,49,92,0.623,0.0,115,4.87,11.3,0.0,1,21.7,2.09,0.8,0,0,0,1,0,0,250,250,0,0.0,0.0,0.0,0.0,0,0,0.0,0,0.0,-1,0.0,0.0,0.0,0,0.0,0.094
5663,0,,,251,255,236,233,,0.05,-0.0,0.99,0,0,-0,0.05,,79,440,35,48,92,0.622,0.0,118,4.9,11.5,0.0,1,21.7,4.04,0.8,0,0,0,1,0,,,,,,,,,,,,,,,,,,,,
5683,0,,,251,255,237,233,,0.05,-0.0,0.98,0,0,-0,0.05,,79,440,35,48,92,0.623,0.0,119,4.91,11.7,0.0,1,21.7,4.04,0.8,0,0,0,1,0,,,,,,,,,,,,,,,,,,,,
5703,0,,,251,256,236,233,,0.05,0.0,0.98,0,0,-0,0.05,,79,440,35,48,92,0.624,0.0,121,4.92,11.7,0.0,1,21.7,4.04,0.8,0,0,0,1,0,,,,,,,,,,,,,,,,,,,,
5723,0,,,251,255,236,233,,0.05,-0.0,0.98,0,-0,-0,0.05,,79,429,35,49,92,0.622,0.0,118,4.9,11.5,0.0,1,21.7,4.04,0.8,0,0,0,1,0,,,,,,,,,,,,,,,,,,,,
5743,0,-1,2,252,255,236,233,-2,0.06,0.0,0.99,0,-0,-0,0.06,1,79,429,35,49,92,0.622,0.0,118,4.9,11.7,0.0,1,21.7,4.04,0.8,0,0,0,1,0,0,250,250,0,0.0,0.0,0.0,0.0,0,0,0.0,0,0.0,-1,0.0,,0.0,0,0.0,0.0957
5763,0,,,251,255,237,233,,0.06,0.0,0.99,0,-0,-0,0.06,,79,652,35,49,92,0.624,0.0,122,4.93,11.9,0.0,1,21.7,4.04,0.8,0,0,0,1,0,,,,,,,,,,,,,,,,,,,,
5783,0,,,252,255,236,233,,0.06,0.0,0.98,0,0,-0,0.06,,79,1150,35,49,92,0.622,0.0,123,4.87,11.7,0.0,1,22.9,4.04,1.2,0,0,0,1,0,,,,,,,,,,,,,,,,,,,,
5803,0,,,251,255,236,233,,0.05,0.0,0.95,0,0,0,0.05,,79,1337,35,49,91,0.618,0.0,125,4.83,11.5,0.0,1,22.9,3.47,1.2,0,0,0,1,0,,,,,,,,,,,,,,,,,,,,
5823,0,,,251,256,236,233,,0.05,0.0,0.96,0,0,0,0.05,,80,1337,35,49,91,0.613,0.0,126,4.85,11.5,0.0,1,22.9,3.47,1.2,0,0,0,1,0,,,,,,,,,,,,,,,,,,,,
5843,0,0,0,252,255,236,233,-1,0.05,0.0,0.97,0,0,-0,0.05,1,80,1164,34,49,91,0.606,0.0,121,4.82,11.2,0.0,1,21.6,3.47,1.2,0,0,0,1,0,0,250,250,0,0.0,0.0,0.0,0.0,0,0,0.0,0,0.0,-1,0.0,0.0,0.0,0,0.0,0.0974
5863,0,,,251,255,236,233,,0.05,0.0,0.98,0,0,-0,0.05,,80,966,34,49,91,0.598,0.0,118,4.79,10.9,0.0,1,20.3,3.47,1.5,0,0,0,1,0,,,,,,,,,,,,,,,,,,,,
5883,0,,,251,255,236,233,,0.05,0.0,0.99,0,0,-0,0.05,,80,966,34,49,91,0.588,0.0,116,4.77,10.9,0.0,1,20.3,2.09,1.5,0,0,0,1,0,,,,,,,,,,,,,,,,,,,,
5903,0,,,251,255,236,233,,0.05,0.0,0.99,0,0,-0,0.05,,80,699,36,49,91,0.581,0.0,118,4.81,11.2,0.0,1,20.3,2.09,1.5,0,0,0,1,0,,,,,,,,,,,,,,,,,,,,
5923,0,,,251,255,236,233,,0.05,0.01,0.98,0,-0,-0,0.05,,80,699,40,49,91,0.572,0.0,117,4.81,10.7,0.0,1,20.3,2.09,1.5,0,0,0,1,0,,,,,,,,,,,,,,,,,,,,
5943,0,0,0,251,255,236,233,-2,0.05,0.0,0.98,0,-0,-0,0.05,1,80,775,40,49,91,0.563,0.0,121,4.77,11.1,0.0,1,20.3,5.8,1.5,0,0,0,1,0,0,250,250,0,0.0,0.0,0.0,0.0,0,0,0.0,0,0.0,-1,0.0,,0.0,0,0.0,0.099
5963,0,,,251,255,236,233,,0.05,0.01,0.97,0,-0,-0,0.05,,80,775,40,49,91,0.559,0.0,126,4.85,11.3,0.0,1,20.3,5.8,2.0,0,0,0,1,0,,,,,,,,,,,,,,,,,,,,
5983,0,,,251,256,236,233,,0.04,0.0,0.99,0,0,-0,0.04,,79,1102,40,49,92,0.556,0.0,132,4.88,11.7,0.0,1,22.5,5.8,2.0,0,0,0,1,0,,,,,,,,,,,,,,,,,,,,
6003,0,,,251,255,236,233,,0.04,-0.0,0.96,0,-0,0,0.04,,79,1284,28,49,92,0.555,0.0,141,4.91,12.2,0.0,1,23.9,5.73,2.0,0,0,0,1,0,,,,,,,,,,,,,,,,,,,,
6023,0,,,252,255,237,233,,0.05,-0.0,0.97,0,-0,-0,0.05,,79,1540,12,49,92,0.554,0.0,146,4.92,12.8,0.0,1,0.2,5.66,2.0,0,0,0,1,0,,,,,,,,,,,,,,,,,,,,
6043,0,0,2,251,256,236,233,-2,0.05,-0.01,0.96,0,-0,0,0.05,1,79,1588,6,49,91,0.556,0.0,150,4.93,12.8,0.0,1,0.2,5.66,2.0,0,0,0,1,0,0,250,250,0,0.0,0.0,0.0,0.0,0,0,0.0,0,0.0,-1,0.0,0.0,0.0,0,0.0,0.1007
6063,0,,,251,255,236,233,,0.06,-0.0,1.0,0,-0,-0,0.06,,79,1826,6,49,89,0.559,0.0,153,4.88,12.5,0.0,1,0.2,5.51,4.6,0,0,0,1,0,,,,,,,,,,,,,,,,,,,,
6083,0,,,252,255,236,233,,0.06,-0.01,0.98,0,-0,0,0.06,,79,1844,6,49,88,0.561,0.0,155,4.92,12.6,0.0,1,0.2,5.47,4.6,0,0,0,1,0,,,,,,,,,,,,,,,,,,,,
6103,0,,,251,256,236,233,,0.06,-0.01,0.96,0,-0,0,0.07,,79,2110,6,49,87,0.565,0.0,163,4.87,12.6,0.0,1,0.2,5.36,4.6,0,0,0,1,0,,,,,,,,,,,,,,,,,,,,
6123,0,,,251,255,236,233,,0.05,-0.01,0.91,0,-0,-0,0.05,,79,2313,6,49,87,0.571,0.0,175,4.93,12.9,0.0,1,0.2,5.29,4.6,0,0,0,1,0,,,,,,,,,,,,,,,,,,,,
6143,0,-1,2,251,255,236,233,-1,0.06,-0.03,0.94,0,-0,-0,0.07,1,79,2230,7,49,86,0.58,0.0,187,4.89,12.9,0.0,1,0.2,5.18,4.6,0,0,0,1,0,0,250,250,0,0.0,0.0,0.0,0.0,0,0,0.0,0,0.0,-1,0.0,,0.0,0,0.0,0.1024
6163,0,,,252,255,236,233,,0.05,-0.03,0.92,0,-0,0,0.06,,79,2200,15,49,87,0.587,0.0,192,4.93,12.9,0.0,1,18.7,5.18,4.6,0,0,0,1,0,,,,,,,,,,,,,,,,,,,,
6183,0,,,251,256,236,233,,0.06,-0.04,0.91,0,0,0,0.07,,79,2228,19,49,88,0.593,0.0,195,4.88,12.9,0.0,1,20.1,5.68,5.7,0,0,0,1,0,,,,,,,,,,,,,,,,,,,,
6203,0,,,251,256,236,233,,0.05,-0.04,0.91,0,0,0,0.06,,79,2305,20,49,89,0.6,0.0,202,4.92,13.0,0.0,1,21.5,5.73,5.7,0,0,0,1,0,,,,,,,,,,,,,,,,,,,,
6223,0,,,251,255,236,233,,0.06,-0.04,0.9,0,0,0,0.07,,79,2412,20,49,90,0.604,0.0,205,4.89,12.6,0.0,1,23.0,5.72,5.7,0,0,0,1,0,,,,,,,,,,,,,,,,,,,,
6243,0,-0,1,252,255,236,233,-2,0.06,-0.03,0.98,0,-0,0,0.07,1,79,2512,20,49,90,0.606,0.0,212,4.92,13.0,0.0,1,23.0,5.72,5.7,0,0,0,1,0,0,250,250,0,0.0,0.0,0.0,0.0,0,0,0.0,0,0.0,-1,0.0,0.0,0.0,0,0.0,0.104
6263,0,,,252,255,237,233,,0.04,-0.04,0.93,0,1,0,0.05,,79,2748,20,49,90,0.605,0.0,223,4.94,13.0,0.0,1,23.9,5.76,5.7,0,0,0,1,0,,,,,,,,,,,,,,,,,,,,
6283,0,,,251,256,236,233,,0.02,-0.02,0.96,0,2,-0,0.03,,79,2984,14,49,89,0.605,0.0,233,4.92,13.0,0.0,1,24.5,5.69,7.3,0,0,0,1,0,,,,,,,,,,,,,,,,,,,,
6303,0,,,252,255,236,233,,0.03,-0.02,0.99,0,3,-0,0.04,,79,3338,6,49,87,0.605,0.0,249,4.87,13.0,0.0,1,0.0,5.84,7.3,0,0,0,1,0,,,,,,,,,,,,,,,,,,,,
6323,0,,,252,255,236,233,,0.01,-0.02,1.14,0,3,-0,0.03,,79,3787,6,49,84,0.607,0.0,274,4.93,13.0,0.0,1,24.5,5.37,7.3,0,0,0,1,0,,,,,,,,,,,,,,,,,,,,
6343,0,-1,2,252,255,237,233,-1,0.05,-0.03,1.05,1,3,-0,0.05,1,79,3929,6,49,82,0.611,0.0,302,4.92,12.8,0.0,1,0.0,4.82,7.3,0,0,0,1,0,0,250,250,0,0.0,0.0,0.0,0.0,0,0,0.0,0,0.0,-1,0.0,,0.0,0,0.0,0.1057
6363,0,,,252,256,236,233,,0.02,-0.03,1.15,0,4,-0,0.04,,79,3881,6,49,80,0.615,0.0,308,4.94,13.0,0.0,1,24.1,4.4,7.3,0,0,0,1,0,,,,,,,,,,,,,,,,,,,,
6383,0,,,251,254,236,233,,0.03,-0.04,1.14,0,2,0,0.05,,79,3974,6,49,78,0.615,0.0,321,4.91,12.8,0.0,1,0.0,3.96,7.9,0,0,0,1,0,,,,,,,,,,,,,,,,,,,,
6403,0,,,251,255,236,233,,0.05,-0.08,1.05,0,3,-0,0.09,,79,3970,8,49,77,0.614,0.0,326,4.88,12.9,0.0,1,0.0,3.6,7.9,0,0,0,1,0,,,,,,,,,,,,,,,,,,,,
6423,0,,,251,256,237,233,,0.02,-0.07,1.21,0,3,-1,0.08,,79,3953,8,49,76,0.615,0.0,332,4.89,13.0,0.0,1,0.0,3.41,7.9,0,0,0,1,0,,,,,,,,,,,,,,,,,,,,
6443,0,-1,2,251,255,236,233,-2,0.04,-0.07,1.12,0,2,0,0.08,1,79,3992,8,49,76,0.614,0.0,342,4.88,12.7,0.0,1,0.0,1.42,7.9,0,0,0,1,0,0,250,250,0,0.0,0.0,0.0,0.0,0,0,0.0,0,0.0,-1,0.0,0.0,0.0,0,0.0,0.1074
6463,0,,,252,256,236,233,,0.05,-0.08,1.03,0,3,-0,0.1,,79,3981,8,49,75,0.614,0.0,349,4.88,13.0,0.0,1,0.0,3.32,6.1,0,0,0,1,0,,,,,,,,,,,,,,,,,,,,
6483,0,,,252,254,237,233,,0.03,-0.07,1.22,0,2,-1,0.08,,79,4021,7,49,75,0.614,0.0,349,4.88,13.0,0.0,1,24.1,3.28,6.1,0,0,0,1,0,,,,,,,,,,,,,,,,,,,,
6503,0,,,251,256,236,233,,0.04,-0.06,1.13,0,2,-0,0.08,,79,4045,6,49,74,0.614,0.0,360,4.91,12.8,0.0,1,24.3,1.5,6.1,0,0,0,1,0,,,,,,,,,,,,,,,,,,,,
6523,0,,,252,255,236,233,,0.06,-0.09,1.04,0,2,-0,0.11,,79,4185,6,49,72,0.615,0.0,353,4.86,12.8,0.0,1,25.8,1.64,6.1,0,0,0,1,0,,,,,,,,,,,,,,,,,,,,
6543,0,0,2,251,256,236,233,-2,0.08,-0.07,1.02,0,1,-1,0.11,1,79,4382,6,49,71,0.616,0.0,367,4.87,13.0,0.0,1,28.3,1.78,6.1,0,0,0,1,0,0,250,250,0,0.0,0.0,0.0,0.0,0,0,0.0,0,0.0,-1,0.0,,0.0,0,0.0,0.109
6563,0,,,251,256,236,233,,0.11,-0.07,0.94,0,-0,-2,0.13,,79,4520,6,49,70,0.617,0.0,388,4.85,12.8,0.0,1,29.8,3.55,7.4,0,0,0,1,0,,,,,,,,,,,,,,,,,,,,
6583,0,,,251,254,236,233,,0.14,-0.09,0.91,0,-2,-3,0.17,,79,4532,6,49,69,0.617,0.0,399,4.88,12.8,0.0,1,29.9,1.86,7.4,0,0,0,1,0,,,,,,,,,,,,,,,,,,,,
6603,0,,,251,256,236,233,,0.16,-0.14,0.84,0,-1,-3,0.21,,79,4803,6,49,67,0.617,0.0,420,4.81,12.8,0.0,1,33.2,3.48,7.4,0,0,0,1,0,,,,,,,,,,,,,,,,,,,,
6623,0,,,251,256,236,233,,0.15,-0.14,0.78,0,1,-0,0.21,,79,4807,6,49,66,0.616,0.0,432,4.88,12.8,0.0,1,32.9,3.31,7.4,0,0,0,1,0,,,,,,,,,,,,,,,,,,,,
6643,0,1,2,251,256,237,233,-2,0.09,-0.13,1.02,0,1,-1,0.16,1,79,4998,6,49,66,0.615,0.0,446,4.93,13.0,0.0,1,35.4,1.95,7.4,0,0,0,1,0,0,250,250,0,0.0,0.0,0.0,0.0,0,0,0.0,0,0.0,-1,0.0,0.0,0.0,0,0.0,0.1107
6663,0,,,252,256,236,233,,0.12,-0.11,0.94,0,-2,-4,0.16,,79,5124,6,49,65,0.614,0.0,465,4.81,12.7,0.0,1,35.2,1.89,7.5,0,0,0,1,0,,,,,,,,,,,,,,,,,,,,
6683,0,,,252,255,236,233,,0.08,-0.1,0.87,0,5,3,0.13,,79,5114,6,49,64,0.613,0.0,477,4.88,13.0,0.0,1,34.9,2.84,7.5,0,0,0,1,0,,,,,,,,,,,,,,,,,,,,
6703,0,,,251,256,236,233,,0.15,-0.05,1.11,0,-3,-3,0.16,,79,5209,6,48,63,0.611,0.0,476,4.85,12.8,0.0,1,34.6,1.71,7.5,0,0,0,1,0,,,,,,,,,,,,,,,,,,,,
6723,0,,,251,256,237,233,,0.06,-0.1,1.03,1,2,2,0.12,,79,5326,6,48,62,0.612,0.0,501,4.85,13.0,0.0,1,34.2,2.62,7.5,0,0,0,1,0,,,,,,,,,,,,,,,,,,,,
6743,0,0,0,251,255,236,233,-3,0.17,-0.07,1.25,1,-10,-6,0.18,1,79,5434,6,48,62,0.609,0.0,493,4.86,12.9,0.0,1,34.2,2.57,7.5,0,0,0,1,0,0,250,250,0,0.0,0.0,0.0,0.0,0,0,0.0,0,0.0,-1,0.0,,0.0,0,0.0,0.1124
6763,0,,,251,256,236,233,,0.08,-0.04,1.16,1,0,2,0.09,,79,5501,6,48,61,0.608,0.0,510,4.91,13.0,0.0,1,34.0,2.43,6.2,0,0,0,1,0,,,,,,,,,,,,,,,,,,,,
6783,0,,,252,255,237,233,,0.02,-0.13,1.07,1,-1,2,0.13,,79,5577,6,48,60,0.607,0.0,528,4.9,13.1,0.0,1,33.7,2.4,6.2,0,0,0,1,0,,,,,,,,,,,,,,,,,,,,
6803,0,,,251,255,237,233,,0.15,-0.06,1.29,0,-9,-5,0.16,,79,5597,6,48,59,0.605,0.0,520,4.87,12.8,0.0,1,33.4,2.39,6.2,0,0,0,1,0,,,,,,,,,,,,,,,,,,,,
6823,0,,,252,255,236,233,,0.16,-0.02,1.5,0,-3,-2,0.16,,79,5620,6,48,59,0.603,0.0,521,4.85,12.9,0.0,1,33.5,2.38,6.2,0,0,0,1,0,,,,,,,,,,,,,,,,,,,,
6843,0,-1,2,251,255,236,233,-2,0.04,-0.09,1.39,1,3,3,0.1,1,79,5700,6,48,58,0.603,0.0,538,4.93,13.0,0.0,1,33.2,2.34,6.2,0,0,0,1,0,0,250,250,0,0.0,0.0,0.0,0.0,0,0,0.0,0,0.0,-1,0.0,0.0,0.0,0,0.0,0.114
6863,0,,,252,256,236,233,,-0.0,-0.15,1.28,1,0,3,0.15,,79,5723,6,48,57,0.604,0.0,544,4.94,13.0,0.0,1,33.0,2.34,6.2,0,0,0,1,0,,,,,,,,,,,,,,,,,,,,
6883,0,,,251,255,236,233,,0.09,-0.12,1.49,0,-4,-2,0.15,,79,5785,6,48,57,0.605,0.0,548,4.86,13.0,0.0,1,33.0,2.3,6.2,0,0,0,1,0,,,,,,,,,,,,,,,,,,,,
6903,0,,,251,255,236,233,,0.16,-0.06,1.68,0,-10,-7,0.17,,79,5785,6,48,56,0.603,0.0,540,4.86,12.8,0.0,1,32.8,2.31,6.2,0,0,0,1,0,,,,,,,,,,,,,,,,,,,,
6923,0,,,251,255,237,233,,0.2,-0.02,1.86,0,-9,-8,0.2,,79,5822,6,48,56,0.604,0.0,547,4.77,12.7,0.0,1,32.8,1.23,6.2,0,0,0,1,0,,,,,,,,,,,,,,,,,,,,
6943,0,-1,2,251,256,236,233,-2,0.18,0.02,2.02,0,-4,-5,0.18,1,79,5874,6,48,55,0.604,0.0,553,4.88,12.8,0.0,1,32.6,1.21,6.2,0,0,0,1,0,0,250,250,0,0.0,0.0,0.0,0.0,0,0,0.0,0,0.0,-1,0.0,,0.0,0,0.0,0.1157
6963,0,,,251,256,236,233,,0.14,0.02,1.87,0,2,0,0.15,,79,5863,6,48,55,0.605,0.0,555,4.91,12.9,0.0,1,32.6,2.27,6.1,0,0,0,1,0,,,,,,,,,,,,,,,,,,,,
6983,0,,,251,255,236,233,,0.09,0.0,1.72,0,7,5,0.09,,79,5918,6,48,55,0.606,0.0,550,4.92,12.9,0.0,1,32.7,1.18,6.1,0,0,0,1,0,,,,,,,,,,,,,,,,,,,,
7003,0,,,251,255,236,233,,0.03,-0.02,1.59,0,12,10,0.04,,79,5924,6,48,54,0.609,0.0,556,4.92,13.0,0.0,1,32.5,1.18,6.1,0,0,0,1,0,,,,,,,,,,,,,,,,,,,,
7023,0,,,252,255,236,233,,-0.01,-0.06,1.47,0,15,13,0.06,,79,5963,6,48,54,0.609,0.0,561,4.96,13.0,0.0,1,32.5,1.15,6.1,0,0,0,1,0,,,,,,,,,,,,,,,,,,,,
7043,0,-0,2,251,255,236,233,-2,-0.06,-0.09,1.36,0,18,16,0.11,1,79,5990,6,48,53,0.611,0.0,574,4.86,13.0,0.0,1,32.3,1.15,6.1,0,0,0,1,0,0,250,250,0,0.0,0.0,0.0,0.0,0,0,0.0,0,0.0,-1,0.0,0.0,0.0,0,0.0,0.1174
7063,0,,,251,256,236,233,,-0.11,-0.13,1.25,0,21,18,0.17,,79,5944,6,48,53,0.613,0.0,565,4.95,13.0,0.0,1,32.3,1.17,6.1,0,0,0,1,0,,,,,,,,,,,,,,,,,,,,
7083,0,,,251,255,236,233,,-0.16,-0.15,1.15,0,23,19,0.22,,79,5918,6,48,53,0.614,0.0,560,4.97,13.0,0.0,1,32.2,2.26,6.1,0,0,0,1,0,,,,,,,,,,,,,,,,,,,,
7103,0,,,251,256,237,233,,-0.2,-0.19,1.07,1,23,19,0.28,,79,5901,6,48,52,0.614,0.0,558,4.96,13.1,0.0,1,32.0,2.27,6.1,0,0,0,1,0,,,,,,,,,,,,,,,,,,,,
7123,0,,,251,255,237,233,,-0.2,-0.22,0.98,0,22,16,0.3,,79,5848,6,48,52,0.615,0.0,566,4.86,13.0,0.0,1,31.9,2.31,6.1,0,0,0,1,0,,,,,,,,,,,,,,,,,,,,
7143,0,-1,2,252,255,236,233,-1,-0.14,-0.22,1.06,0,16,11,0.26,1,79,5839,6,48,52,0.616,0.0,566,4.88,13.0,0.0,1,31.9,2.31,6.1,0,0,0,1,0,0,250,250,0,0.0,0.0,0.0,0.0,0,0,0.0,0,0.0,-1,0.0,,0.0,0,0.0,0.119
7163,0,,,252,255,236,233,,-0.06,-0.19,1.29,0,9,5,0.2,,79,5772,6,48,52,0.617,0.0,553,4.84,13.0,0.0,1,31.9,2.34,6.2,0,0,0,1,0,,,,,,,,,,,,,,,,,,,,
7183,0,,,251,255,236,233,,0.01,-0.15,1.49,0,4,2,0.15,,79,5735,6,48,52,0.617,0.0,541,4.84,12.7,0.0,1,31.8,2.37,6.2,0,0,0,1,0,,,,,,,,,,,,,,,,,,,,
7203,0,,,251,255,237,233,,-0.01,-0.09,1.69,0,9,5,0.09,,79,5737,6,48,52,0.616,0.0,545,4.9,12.8,0.0,1,31.8,1.31,6.2,0,0,0,1,0,,,,,,,,,,,,,,,,,,,,
7223,0,,,252,255,236,233,,-0.11,-0.12,1.56,0,14,11,0.16,,79,5661,6,48,52,0.617,0.0,538,4.96,13.0,0.0,1,31.8,2.42,6.2,0,0,0,1,0,,,,,,,,,,,,,,,,,,,,
7243,0,1,1,251,256,237,233,-2,-0.11,-0.17,1.44,0,10,10,0.2,1,79,5613,6,48,52,0.617,0.0,535,4.86,12.9,0.0,1,31.7,2.44,6.2,0,0,0,1,0,0,250,250,0,0.0,0.0,0.0,0.0,0,0,0.0,0,0.0,-1,0.0,0.0,0.0,0,0.0,0.1207
7263,0,,,251,256,236,233,,0.02,-0.13,1.63,-0,2,2,0.13,,79,5542,6,48,52,0.615,0.0,525,4.82,12.8,0.0,1,31.6,2.47,6.2,0,0,0,1,0,,,,,,,,,,,,,,,,,,,,
7283,0,,,251,255,237,233,,-0.0,-0.05,1.82,-0,9,5,0.05,,79,5498,6,48,52,0.614,0.0,528,4.87,12.9,0.0,1,31.5,2.5,6.3,0,0,0,1,0,,,,,,,,,,,,,,,,,,,,
7303,0,,,251,255,237,233,,-0.09,-0.15,1.68,-0,12,7,0.18,,79,5464,6,48,52,0.614,0.0,521,4.96,13.1,0.0,1,31.5,2.52,6.3,0,0,0,1,0,,,,,,,,,,,,,,,,,,,,
7323,0,,,252,255,237,233,,0.05,-0.09,1.85,-1,3,-1,0.1,,79,5400,6,48,52,0.613,0.0,504,4.88,12.8,0.0,1,31.5,2.55,6.3,0,0,0,1,0,,,,,,,,,,,,,,,,,,,,
7343,0,0,1,252,254,237,233,-2,-0.04,-0.07,1.71,-1,12,7,0.08,1,79,5329,6,48,52,0.612,0.0,517,4.98,13.1,0.0,1,31.4,2.6,6.3,0,0,0,1,0,0,250,250,0,0.0,0.0,0.0,0.0,0,0,0.0,0,0.0,-1,0.0,,0.0,0,0.0,0.1224
7363,0,,,251,255,236,233,,0.05,-0.12,1.58,-0,5,3,0.13,,79,5296,6,48,53,0.612,0.0,521,4.86,12.8,0.0,1,31.7,2.62,6.4,0,0,0,1,0,,,,,,,,,,,,,,,,,,,,
7383,0,,,252,255,236,233,,-0.01,-0.08,1.77,-0,12,7,0.08,,79,5199,6,48,53,0.612,0.0,490,4.93,13.0,0.0,1,31.6,2.68,6.4,0,0,0,1,0,,,,,,,,,,,,,,,,,,,,
7403,0,,,251,256,236,233,,0.07,-0.13,1.63,0,6,4,0.15,,79,5142,6,48,53,0.613,0.0,480,4.88,12.8,0.0,1,31.6,2.71,6.4,0,0,0,1,0,,,,,,,,,,,,,,,,,,,,
7423,0,,,251,256,237,233,,0.02,-0.1,1.5,0,12,10,0.1,,79,5093,6,48,53,0.615,0.0,493,4.97,13.1,0.0,1,31.5,2.74,6.4,0,0,0,1,0,,,,,,,,,,,,,,,,,,,,
7443,0,0,0,252,256,236,233,-1,0.06,-0.05,1.7,0,4,3,0.08,1,79,5029,6,48,53,0.615,0.0,468,4.92,13.1,0.0,1,31.4,2.79,6.4,0,0,0,1,0,0,250,250,0,0.0,0.0,0.0,0.0,0,0,0.0,0,0.0,-1,0.0,0.0,0.0,0,0.0,0.124
7463,0,,,251,256,236,233,,0.07,-0.13,1.57,0,7,4,0.14,,79,5051,6,48,53,0.616,0.0,477,4.88,13.0,0.0,1,31.4,2.77,6.4,0,0,0,1,0,,,,,,,,,,,,,,,,,,,,
7483,0,,,251,256,237,233,,0.03,-0.07,1.75,0,9,5,0.08,,79,4970,6,48,54,0.616,0.0,484,4.97,13.1,0.0,1,31.4,2.77,6.4,0,0,0,1,0,,,,,,,,,,,,,,,,,,,,
7503,0,,,251,256,236,233,,0.06,-0.04,1.92,0,3,1,0.07,,79,4952,6,48,54,0.616,0.0,462,4.86,13.0,0.0,1,31.2,2.78,6.4,0,0,0,1,0,,,,,,,,,,,,,,,,,,,,
7523,0,,,251,255,236,233,,0.07,-0.07,1.78,0,5,2,0.1,,80,4891,6,48,54,0.618,0.0,456,4.84,12.8,0.0,1,30.4,2.74,6.4,0,0,0,1,0,,,,,,,,,,,,,,,,,,,,
7543,0,1,2,251,256,236,233,-2,0.07,-0.09,1.64,0,8,5,0.12,1,79,4865,6,48,54,0.619,0.0,462,4.99,13.0,0.0,1,30.1,2.73,6.4,0,0,0,1,0,0,250,250,0,0.0,0.0,0.0,0.0,0,0,0.0,0,0.0,-1,0.0,,0.0,0,0.0,0.1257
7563,0,,,251,255,236,233,,0.04,-0.03,1.82,0,6,4,0.05,,79,4797,6,48,54,0.619,0.0,442,4.94,13.1,0.0,1,29.2,2.68,5.9,0,0,0,1,0,,,,,,,,,,,,,,,,,,,,
7583,0,,,251,256,237,233,,0.02,-0.04,1.99,0,3,2,0.04,,79,4781,6,48,54,0.62,0.0,444,4.89,13.0,0.0,1,29.0,2.67,5.9,0,0,0,1,0,,,,,,,,,,,,,,,,,,,,
7603,0,,,251,256,237,233,,0.05,-0.01,1.84,0,3,1,0.05,,79,4750,6,48,54,0.62,0.0,437,4.88,12.8,0.0,1,28.6,1.62,5.9,0,0,0,1,0,,,,,,,,,,,,,,,,,,,,
7623,0,,,251,256,236,233,,0.09,-0.03,1.69,0,3,1,0.09,,80,4724,6,48,54,0.621,0.0,430,4.86,12.9,0.0,1,28.3,2.63,5.9,0,0,0,1,0,,,,,,,,,,,,,,,,,,,,
7643,0,-0,2,251,255,237,233,-1,0.12,-0.1,1.56,0,3,2,0.16,1,80,4691,6,48,54,0.621,0.0,441,4.92,13.0,0.0,1,27.9,2.61,5.9,0,0,0,1,0,0,250,250,0,0.0,0.0,0.0,0.0,0,0,0.0,0,0.0,-1,0.0,0.0,0.0,0,0.0,0.1274
7663,0,,,252,256,236,233,,0.12,-0.1,1.44,0,4,3,0.16,,80,4672,6,48,54,0.623,0.0,427,4.92,12.9,0.0,1,27.7,2.6,5.9,0,0,0,1,0,,,,,,,,,,,,,,,,,,,,
7683,0,,,251,256,236,233,,0.08,-0.09,1.38,0,5,4,0.11,,80,4680,6,48,54,0.624,0.0,432,4.93,13.1,0.0,1,27.8,2.6,5.6,0,0,0,1,0,,,,,,,,,,,,,,,,,,,,
7703,0,,,252,255,237,233,,0.02,-0.07,1.55,0,5,4,0.07,,80,4642,6,48,54,0.623,0.0,433,4.95,13.1,0.0,1,27.3,2.58,5.6,0,0,0,1,0,,,,,,,,,,,,,,,,,,,,
7723,0,,,252,256,236,233,,-0.02,-0.06,1.74,0,5,3,0.07,,80,4631,6,48,54,0.624,0.0,422,4.91,13.1,0.0,1,27.1,2.57,5.6,0,0,0,1,0,,,,,,,,,,,,,,,,,,,,
7743,0,0,1,251,255,236,233,-2,-0.04,-0.02,1.91,0,4,2,0.05,1,80,4619,6,48,54,0.623,0.0,431,4.89,13.1,0.0,1,27.0,2.56,5.6,0,0,0,1,0,0,250,250,0,0.0,0.0,0.0,0.0,0,0,0.0,0,0.0,-1,0.0,,0.0,0,0.0,0.129
7763,0,,,251,255,236,233,,-0.03,0.03,2.07,0,2,0,0.04,,80,4628,6,48,54,0.623,0.0,422,4.88,13.0,0.0,1,27.1,2.57,5.6,0,0,0,1,0,,,,,,,,,,,,,,,,,,,,
7783,0,,,252,256,236,233,,0.0,0.04,2.22,0,-1,-2,0.04,,80,4617,6,48,54,0.624,0.0,417,4.87,13.1,0.0,1,27.0,2.56,5.5,0,0,0,1,0,,,,,,,,,,,,,,,,,,,,
7803,0,,,252,255,236,233,,0.04,0.03,2.21,0,-3,-3,0.05,,80,4588,6,48,54,0.624,0.0,417,4.86,13.0,0.0,1,26.6,2.54,5.5,0,0,0,1,0,,,,,,,,,,,,,,,,,,,,
7823,0,,,252,255,236,233,,0.08,0.03,2.06,0,-4,-3,0.08,,80,4587,6,48,54,0.624,0.0,407,4.88,12.8,0.0,1,26.6,1.5,5.5,0,0,0,1,0,,,,,,,,,,,,,,,,,,,,
7843,0,-0,2,252,255,237,233,-1,0.12,-0.01,1.9,0,-4,-3,0.12,1,80,4576,6,48,54,0.624,0.0,423,4.93,12.8,0.0,1,26.5,1.49,5.5,0,0,0,1,0,0,250,250,0,0.0,0.0,0.0,0.0,0,0,0.0,0,0.0,-1,0.0,0.0,0.0,0,0.0,0.1307
7863,0,,,252,255,237,233,,0.16,-0.04,1.75,0,-3,-3,0.16,,80,4603,6,48,55,0.625,0.0,411,4.9,12.8,0.0,1,27.0,2.53,5.5,0,0,0,1,0,,,,,,,,,,,,,,,,,,,,
