"Interval"|"ms"|0|0|1,"Utc"|"ms"|0|0|1,"Brake_F"|"Bar"|0|2000|10,"Brake_R"|"Bar"|0|2000|10,"Height_RF"|"mm"|0|255|50,"Height_LF"|"mm"|0|255|50,"Height_LR"|"mm"|0|80|50,"Height_RR"|"mm"|0|255|50,"Steering"|"deg"|-100|100|10,"AccelX"|"G"|-3.0|3.0|50,"AccelY"|"G"|-3.0|3.0|50,"AccelZ"|"G"|-3.0|3.0|50,"Yaw"|"Deg/Sec"|-120|120|50,"Pitch"|"Deg/Sec"|-120|120|50,"Roll"|"Deg/Sec"|-120|120|50,"Gsum"|"G"|0.0|3.0|50,"Log_Button"|""|0.0|10.0|10,"WaterTemp"|"C"|0|150|50,"RPM"|"tr/min"|0|14000|50,"TPS"|"%"|0|100|50,"AirTemp"|"C"|0|150|50,"MAP"|"KPa"|0|100|50,"Lambda"|""|0.5|1.5|50,"SpeedDTA"|"kph"|0.0|250.0|50,"OilPress"|"KPa"|0|1500|50,"FuelPressur"|"Bar"|0.0|10.0|50,"Batterie"|"V"|0.0|20.0|50,"ConsoKm"|"L/100km"|0.0|200.0|50,"Gear"|""|0|6|50,"AdvIgnition"|"Deg"|-20.0|70.0|50,"Injection"|"ms"|0.0|10.0|50,"ConsoHr"|"L/Hr"|0.0|10000.0|50,"LC_But_Pres"|""|0|1|50,"LC_Active"|""|0|1|50,"TractionOn"|""|0|1|50,"TractionWet"|""|0|1|50,"FanOn"|""|0|1|50,"RD_Speed"|"km/h"|-30|250|10,"RUD_Speed"|"km/h"|-30|250|10,"LD_Speed"|"km/h"|-30|250|10,"LUD_Speed"|"km/h"|-30|250|10,"Latitude"|"Degrees"|-180.0|180.0|10,"Longitude"|"Degrees"|-180.0|180.0|10,"Speed"|"kph"|0.0|150.0|10,"Altitude"|"m"|0.0|4000.0|10,"GPSSats"|""|0|20|10,"GPSQual"|""|0|5|10,"GPSDOP"|""|0.0|20.0|10,"LapCount"|""|0|0|10,"LapTime"|"Min"|0.0|0.0|10,"Sector"|""|0|0|10,"SectorTime"|"Min"|0.0|0.0|10,"PredTime"|"Min"|0.0|0.0|5,"ElapsedTime"|"Min"|0.0|0.0|10,"CurrentLap"|""|0|0|10,"Distance"|"km"|0.0|0.0|10,"SessionTime"|"Min"|0.0|0.0|10
2063,0,,,248,249,237,232,,0.04,0.04,0.99,0,0,-0,0.05,,0,0,0,0,0,0.0,0.0,0,0.0,0.0,0.0,0,0.0,0.0,0.0,0,0,0,0,0,,,,,,,,,,,,,,,,,,,,
2083,0,,,248,249,237,232,,0.04,0.04,0.99,0,0,-0,0.05,,0,0,0,0,0,0.0,0.0,0,0.0,0.0,0.0,0,0.0,0.0,0.0,0,0,0,0,0,,,,,,,,,,,,,,,,,,,,
2103,0,,,248,249,237,232,,0.04,0.04,0.99,0,0,-0,0.06,,0,0,0,0,0,0.0,0.0,0,0.0,0.0,0.0,0,0.0,0.0,0.0,0,0,0,0,0,,,,,,,,,,,,,,,,,,,,
2123,0,,,248,249,237,232,,0.04,0.04,0.99,0,0,-0,0.05,,0,0,0,0,0,0.0,0.0,0,0.0,0.0,0.0,0,0.0,0.0,0.0,0,0,0,0,0,,,,,,,,,,,,,,,,,,,,
2143,0,8,5,248,249,237,232,-0,0.04,0.04,0.99,0,0,0,0.05,1,0,0,0,0,0,0.0,0.0,0,0.0,0.0,0.0,0,0.0,0.0,0.0,0,0,0,0,0,0,0,0,0,0.0,0.0,0.0,0.0,0,0,0.0,0,0.0,-1,0.0,,0.0,0,0.0,0.0357
2163,0,,,248,249,237,232,,0.04,0.04,0.99,0,0,0,0.05,,73,0,6,43,93,0.5,0.0,107,4.78,12.8,0.0,1,0.0,0.0,0.0,0,0,0,1,0,,,,,,,,,,,,,,,,,,,,
2183,0,,,248,249,237,232,,0.04,0.04,0.99,0,0,0,0.05,,73,0,6,43,93,0.5,0.0,107,4.77,12.8,0.0,1,0.0,0.0,0.0,0,0,0,1,0,,,,,,,,,,,,,,,,,,,,
2203,0,,,248,249,237,232,,0.04,0.04,0.99,0,-0,0,0.05,,73,0,6,43,93,0.5,0.0,107,4.77,12.8,0.0,1,0.0,0.0,0.0,0,0,0,1,0,,,,,,,,,,,,,,,,,,,,
2223,0,,,248,249,237,232,,0.04,0.04,0.99,0,-0,0,0.05,,73,0,6,43,93,0.5,0.0,107,4.78,12.8,0.0,1,0.0,0.0,0.0,0,0,0,1,0,,,,,,,,,,,,,,,,,,,,
2243,0,8,3,248,249,237,232,1,0.04,0.04,0.99,0,-0,0,0.05,1,73,0,6,43,93,0.5,0.0,107,4.78,12.8,0.0,1,0.0,0.0,0.0,0,0,0,1,0,0,250,250,0,0.0,0.0,0.0,0.0,0,0,0.0,0,0.0,-1,0.0,0.0,0.0,0,0.0,0.0374
2263,0,,,248,249,237,232,,0.04,0.04,1.0,0,-0,0,0.05,,73,0,6,43,93,0.5,0.0,107,4.78,12.8,0.0,1,0.0,0.0,0.0,0,0,0,1,0,,,,,,,,,,,,,,,,,,,,
2283,0,,,248,249,237,232,,0.04,0.04,0.99,0,-0,0,0.05,,73,0,6,43,93,0.5,0.0,107,4.77,12.8,0.0,1,0.0,0.0,0.0,0,0,0,1,0,,,,,,,,,,,,,,,,,,,,
2303,0,,,248,250,237,232,,0.04,0.04,1.0,0,-0,0,0.05,,73,0,6,43,93,0.501,0.0,107,4.78,12.8,0.0,1,0.0,0.0,0.0,0,0,0,1,0,,,,,,,,,,,,,,,,,,,,
2323,0,,,248,250,237,232,,0.04,0.04,1.0,0,-0,0,0.05,,73,0,6,43,93,0.501,0.0,107,4.78,12.8,0.0,1,0.0,0.0,0.0,0,0,0,1,0,,,,,,,,,,,,,,,,,,,,
2343,0,8,4,248,250,237,232,1,0.04,0.04,1.0,0,-0,0,0.05,1,73,0,6,43,93,0.502,0.0,107,4.77,12.8,0.0,1,0.0,0.0,0.0,0,0,0,1,0,0,250,250,0,0.0,0.0,0.0,0.0,0,0,0.0,0,0.0,-1,0.0,,0.0,0,0.0,0.0391
2363,0,,,248,250,237,232,,0.04,0.04,1.0,0,-0,0,0.05,,73,0,6,43,93,0.505,0.0,107,4.78,12.8,0.0,1,0.0,0.0,0.0,0,0,0,1,0,,,,,,,,,,,,,,,,,,,,
2383,0,,,248,249,237,232,,0.04,0.04,1.0,0,-0,-0,0.05,,73,0,6,43,93,0.508,0.0,107,4.78,12.8,0.0,1,0.0,0.0,0.0,0,0,0,1,0,,,,,,,,,,,,,,,,,,,,
2403,0,,,248,249,237,232,,0.04,0.04,1.0,0,-0,-0,0.05,,73,0,6,43,93,0.51,0.0,107,4.77,12.8,0.0,1,0.0,0.0,0.0,0,0,0,1,0,,,,,,,,,,,,,,,,,,,,
2423,0,,,248,249,237,232,,0.04,0.04,1.0,0,-0,-0,0.05,,73,0,6,43,93,0.512,0.0,107,4.77,12.8,0.0,1,0.0,0.0,0.0,0,0,0,1,0,,,,,,,,,,,,,,,,,,,,
2443,0,7,4,248,249,237,232,1,0.04,0.04,1.0,0,-0,-0,0.05,1,73,0,6,43,93,0.515,0.0,107,4.77,12.8,0.0,1,0.0,0.0,0.0,0,0,0,1,0,0,250,250,0,0.0,0.0,0.0,0.0,0,0,0.0,0,0.0,-1,0.0,0.0,0.0,0,0.0,0.0407
2463,0,,,248,250,237,232,,0.04,0.04,0.99,0,-0,-0,0.05,,73,0,6,43,93,0.518,0.0,107,4.77,12.8,0.0,1,0.0,0.0,0.0,0,0,0,1,0,,,,,,,,,,,,,,,,,,,,
2483,0,,,248,250,237,232,,0.04,0.04,0.99,0,-0,0,0.05,,73,0,6,43,93,0.522,0.0,107,4.77,12.8,0.0,1,0.0,0.0,0.0,0,0,0,1,0,,,,,,,,,,,,,,,,,,,,
2503,0,,,248,251,237,232,,0.04,0.04,0.99,0,-0,0,0.05,,73,0,6,43,93,0.525,0.0,107,4.76,12.7,0.0,1,0.0,0.0,0.0,0,0,0,1,0,,,,,,,,,,,,,,,,,,,,
2523,0,,,248,250,237,232,,0.04,0.04,1.0,0,-0,0,0.05,,73,0,6,43,93,0.53,0.0,107,4.76,12.7,0.0,1,0.0,0.0,0.0,0,0,0,1,0,,,,,,,,,,,,,,,,,,,,
2543,0,8,4,248,250,237,232,-0,0.04,0.04,1.0,0,-0,0,0.05,1,73,0,6,43,93,0.535,0.0,107,4.77,12.7,0.0,1,0.0,0.0,0.0,0,0,0,1,0,0,250,250,0,0.0,0.0,0.0,0.0,0,0,0.0,0,0.0,-1,0.0,,0.0,0,0.0,0.0424
2563,0,,,248,250,237,232,,0.04,0.04,1.0,0,-0,0,0.05,,73,0,6,43,93,0.54,0.0,107,4.77,12.7,0.0,1,0.0,0.0,0.0,0,0,0,1,0,,,,,,,,,,,,,,,,,,,,
2583,0,,,248,250,237,232,,0.04,0.04,1.0,0,-0,0,0.05,,73,0,6,43,93,0.543,0.0,107,4.76,12.7,0.0,1,0.0,0.0,0.0,0,0,0,1,0,,,,,,,,,,,,,,,,,,,,
2603,0,,,248,250,237,232,,0.04,0.04,1.0,0,-0,-0,0.05,,73,0,6,43,93,0.546,0.0,107,4.77,12.7,0.0,1,0.0,0.0,0.0,0,0,0,1,0,,,,,,,,,,,,,,,,,,,,
2623,0,,,248,250,237,232,,0.04,0.04,1.0,0,-0,-0,0.05,,73,0,6,43,93,0.549,0.0,107,4.77,12.7,0.0,1,0.0,0.0,0.0,0,0,0,1,0,,,,,,,,,,,,,,,,,,,,
2643,0,8,5,248,250,237,232,1,0.04,0.04,1.0,0,-0,-0,0.05,1,73,0,6,43,93,0.551,0.0,107,4.77,12.7,0.0,1,0.0,0.0,0.0,0,0,0,1,0,0,250,250,0,0.0,0.0,0.0,0.0,0,0,0.0,0,0.0,-1,0.0,0.0,0.0,0,0.0,0.044
2663,0,,,248,250,237,232,,0.04,0.04,1.0,0,-0,-0,0.05,,73,0,6,43,93,0.553,0.0,107,4.77,12.7,0.0,1,0.0,0.0,0.0,0,0,0,1,0,,,,,,,,,,,,,,,,,,,,
2683,0,,,248,250,237,232,,0.04,0.04,1.0,0,0,-0,0.05,,73,0,6,43,93,0.555,0.0,107,4.77,12.7,0.0,1,0.0,0.0,0.0,0,0,0,1,0,,,,,,,,,,,,,,,,,,,,
2703,0,,,248,249,237,232,,0.04,0.04,1.0,0,0,-0,0.05,,73,0,6,43,93,0.558,0.0,107,4.76,12.6,0.0,1,0.0,0.0,0.0,0,0,0,1,0,,,,,,,,,,,,,,,,,,,,
2723,0,,,248,249,237,232,,0.04,0.04,1.0,0,0,-0,0.05,,73,0,6,43,93,0.56,0.0,107,4.76,12.7,0.0,1,0.0,0.0,0.0,0,0,0,1,0,,,,,,,,,,,,,,,,,,,,
2743,0,8,5,248,250,237,232,0,0.04,0.04,1.0,0,0,0,0.05,1,73,0,6,43,93,0.56,0.0,107,4.77,12.8,0.0,1,0.0,0.0,0.0,0,0,0,1,0,0,250,250,0,0.0,0.0,0.0,0.0,0,0,0.0,0,0.0,-1,0.0,,0.0,0,0.0,0.0457
2763,0,,,248,250,237,232,,0.04,0.04,0.99,0,0,0,0.05,,73,0,6,43,93,0.559,0.0,107,4.78,12.8,0.0,1,0.0,0.0,0.0,0,0,0,1,0,,,,,,,,,,,,,,,,,,,,
2783,0,,,248,250,237,232,,0.04,0.04,0.99,0,0,0,0.05,,73,0,6,43,93,0.557,0.0,107,4.76,12.8,0.0,1,0.0,0.0,0.0,0,0,0,1,0,,,,,,,,,,,,,,,,,,,,
2803,0,,,248,250,237,232,,0.04,0.04,0.99,0,0,0,0.06,,73,0,6,43,93,0.555,0.0,107,4.75,12.8,0.0,1,0.0,0.0,0.0,0,0,0,1,0,,,,,,,,,,,,,,,,,,,,
2823,0,,,248,250,237,232,,0.04,0.04,0.99,0,0,0,0.06,,73,0,6,43,93,0.553,0.0,107,4.77,12.8,0.0,1,0.0,0.0,0.0,0,0,0,1,0,,,,,,,,,,,,,,,,,,,,
2843,0,8,5,248,250,237,232,-0,0.04,0.04,0.99,0,0,0,0.06,1,73,0,6,43,93,0.553,0.0,107,4.77,12.8,0.0,1,0.0,0.0,0.0,0,0,0,1,0,0,250,250,0,0.0,0.0,0.0,0.0,0,0,0.0,0,0.0,-1,0.0,0.0,0.0,0,0.0,0.0474
2863,0,,,248,250,237,232,,0.04,0.04,0.99,0,0,0,0.06,,73,0,6,43,93,0.552,0.0,107,4.75,12.8,0.0,1,0.0,0.0,0.0,0,0,0,1,0,,,,,,,,,,,,,,,,,,,,
2883,0,,,248,250,237,232,,0.04,0.04,0.99,0,0,0,0.05,,73,0,6,43,93,0.551,0.0,107,4.76,12.7,0.0,1,0.0,0.0,0.0,0,0,0,1,0,,,,,,,,,,,,,,,,,,,,
2903,0,,,248,250,237,232,,0.04,0.04,0.99,0,0,0,0.05,,73,0,6,43,93,0.551,0.0,107,4.77,12.8,0.0,1,0.0,0.0,0.0,0,0,0,1,0,,,,,,,,,,,,,,,,,,,,
2923,0,,,248,250,237,232,,0.04,0.04,0.99,0,0,0,0.05,,73,0,6,43,93,0.55,0.0,107,4.76,12.8,0.0,1,0.0,0.0,0.0,0,0,0,1,0,,,,,,,,,,,,,,,,,,,,
2943,0,8,3,248,250,237,232,1,0.04,0.04,0.99,0,0,0,0.05,1,73,0,6,43,93,0.55,0.0,107,4.76,12.8,0.0,1,0.0,0.0,0.0,0,0,0,1,0,0,250,250,0,0.0,0.0,0.0,0.0,0,0,0.0,0,0.0,-1,0.0,,0.0,0,0.0,0.049
2963,0,,,248,250,237,232,,0.04,0.04,0.99,0,0,0,0.05,,73,0,6,43,93,0.55,0.0,107,4.77,12.8,0.0,1,0.0,0.0,0.0,0,0,0,1,0,,,,,,,,,,,,,,,,,,,,
2983,0,,,248,250,237,232,,0.04,0.04,0.99,0,0,0,0.05,,73,0,6,43,93,0.551,0.0,107,4.75,12.8,0.0,1,0.0,0.0,0.0,0,0,0,1,0,,,,,,,,,,,,,,,,,,,,
3003,0,,,248,250,237,232,,0.04,0.04,0.99,0,0,0,0.05,,73,0,6,43,93,0.554,0.0,107,4.76,12.8,0.0,1,0.0,0.0,0.0,0,0,0,1,0,,,,,,,,,,,,,,,,,,,,
3023,0,,,248,250,237,232,,0.04,0.04,0.99,0,0,0,0.05,,73,0,6,43,93,0.557,0.0,107,4.77,12.7,0.0,1,0.0,0.0,0.0,0,0,0,1,0,,,,,,,,,,,,,,,,,,,,
3043,0,8,5,248,250,237,232,1,0.04,0.04,1.0,0,0,0,0.06,1,73,0,6,43,93,0.56,0.0,107,4.78,12.7,0.0,1,0.0,0.0,0.0,0,0,0,1,0,0,250,250,0,0.0,0.0,0.0,0.0,0,0,0.0,0,0.0,-1,0.0,0.0,0.0,0,0.0,0.0507
3063,0,,,248,250,237,232,,0.04,0.04,1.0,0,0,0,0.06,,73,0,6,43,93,0.562,0.0,107,4.77,12.8,0.0,1,0.0,0.0,0.0,0,0,0,1,0,,,,,,,,,,,,,,,,,,,,
3083,0,,,248,250,237,232,,0.04,0.04,1.0,0,0,0,0.06,,73,0,6,43,93,0.565,0.0,107,4.76,12.8,0.0,1,0.0,0.0,0.0,0,0,0,1,0,,,,,,,,,,,,,,,,,,,,
3103,0,,,248,250,237,232,,0.04,0.04,1.0,0,0,0,0.06,,73,0,6,43,93,0.567,0.0,107,4.76,12.8,0.0,1,0.0,0.0,0.0,0,0,0,1,0,,,,,,,,,,,,,,,,,,,,
3123,0,,,248,249,237,232,,0.04,0.04,1.0,0,0,0,0.05,,73,0,6,43,93,0.57,0.0,107,4.77,12.8,0.0,1,0.0,0.0,0.0,0,0,0,1,0,,,,,,,,,,,,,,,,,,,,
3143,0,8,4,248,250,237,232,1,0.04,0.04,1.0,0,0,0,0.05,1,73,0,6,43,93,0.574,0.0,107,4.77,12.8,0.0,1,0.0,0.0,0.0,0,0,0,1,0,0,250,250,0,0.0,0.0,0.0,0.0,0,0,0.0,0,0.0,-1,0.0,,0.0,0,0.0,0.0524
3163,0,,,248,250,237,232,,0.04,0.04,1.0,0,0,0,0.05,,73,0,6,43,93,0.576,0.0,107,4.76,12.8,0.0,1,0.0,0.0,0.0,0,0,0,0,0,,,,,,,,,,,,,,,,,,,,
3183,0,,,248,249,237,232,,0.04,0.04,1.0,0,0,0,0.05,,73,0,6,43,93,0.58,0.0,107,4.71,12.9,0.0,1,0.0,0.0,0.0,0,0,0,0,0,,,,,,,,,,,,,,,,,,,,
3203,0,,,248,249,237,232,,0.04,0.04,1.0,0,0,0,0.05,,73,0,6,43,93,0.582,0.0,107,4.35,12.9,0.0,1,0.0,0.0,0.0,0,0,0,0,0,,,,,,,,,,,,,,,,,,,,
3223,0,,,248,249,237,232,,0.04,0.04,0.99,0,0,0,0.05,,73,0,6,43,93,0.585,0.0,107,3.53,12.9,0.0,1,0.0,0.0,0.0,0,0,0,0,0,,,,,,,,,,,,,,,,,,,,
3243,0,8,4,248,250,237,232,0,0.04,0.04,0.99,0,0,-0,0.05,1,73,0,6,43,93,0.587,0.0,107,3.16,13.0,0.0,1,0.0,0.0,0.0,0,0,0,0,0,0,250,250,0,0.0,0.0,0.0,0.0,0,0,0.0,0,0.0,-1,0.0,0.0,0.0,0,0.0,0.054
3263,0,,,248,249,237,232,,0.04,0.04,0.99,0,0,-0,0.05,,73,0,6,43,93,0.591,0.0,107,2.93,13.0,0.0,1,0.0,0.0,0.0,0,0,0,0,0,,,,,,,,,,,,,,,,,,,,
3283,0,,,248,250,237,232,,0.04,0.04,0.99,0,0,-0,0.05,,73,0,6,43,93,0.593,0.0,107,2.76,13.0,0.0,1,0.0,0.0,0.0,0,0,0,0,0,,,,,,,,,,,,,,,,,,,,
3303,0,,,248,249,237,232,,0.04,0.04,0.99,0,0,-0,0.05,,73,0,6,43,93,0.597,0.0,107,2.62,13.0,0.0,1,0.0,0.0,0.0,0,0,0,0,0,,,,,,,,,,,,,,,,,,,,
3323,0,,,248,249,237,232,,0.04,0.04,0.99,0,0,-0,0.05,,73,0,6,43,93,0.6,0.0,107,2.51,13.0,0.0,1,0.0,0.0,0.0,0,0,0,0,0,,,,,,,,,,,,,,,,,,,,
3343,0,7,4,248,249,237,232,0,0.04,0.04,0.99,0,0,-0,0.05,1,73,0,6,43,93,0.603,0.0,107,2.42,12.9,0.0,1,0.0,0.0,0.0,0,0,0,0,0,0,250,250,0,0.0,0.0,0.0,0.0,0,0,0.0,0,0.0,-1,0.0,,0.0,0,0.0,0.0557
3363,0,,,248,249,237,232,,0.04,0.04,0.99,0,0,0,0.05,,73,0,6,43,93,0.606,0.0,107,2.34,12.9,0.0,1,0.0,0.0,0.0,0,0,0,0,0,,,,,,,,,,,,,,,,,,,,
3383,0,,,248,249,237,232,,0.04,0.04,0.99,0,0,0,0.05,,73,0,6,43,93,0.609,0.0,107,2.27,12.9,0.0,1,0.0,0.0,0.0,0,0,0,0,0,,,,,,,,,,,,,,,,,,,,
3403,0,,,248,249,237,232,,0.04,0.04,0.99,0,0,0,0.05,,73,0,6,43,93,0.611,0.0,107,2.21,13.0,0.0,1,0.0,0.0,0.0,0,0,0,0,0,,,,,,,,,,,,,,,,,,,,
3423,0,,,248,249,237,232,,0.04,0.04,0.99,0,0,-0,0.05,,73,0,6,43,93,0.615,0.0,107,2.16,13.0,0.0,1,0.0,0.0,0.0,0,0,0,0,0,,,,,,,,,,,,,,,,,,,,
3443,0,7,4,248,249,237,232,1,0.04,0.04,0.99,0,0,0,0.05,1,73,0,6,43,93,0.617,0.0,107,2.11,13.0,0.0,1,0.0,0.0,0.0,0,0,0,0,0,0,250,250,0,0.0,0.0,0.0,0.0,0,0,0.0,0,0.0,-1,0.0,0.0,0.0,0,0.0,0.0574
3463,0,,,248,249,237,232,,0.04,0.04,0.99,0,0,0,0.05,,73,0,6,43,93,0.62,0.0,107,2.05,13.0,0.0,1,0.0,0.0,0.0,0,0,0,0,0,,,,,,,,,,,,,,,,,,,,
3483,0,,,248,249,237,232,,0.04,0.04,0.99,0,-0,0,0.05,,73,0,6,43,93,0.622,0.0,107,2.0,13.0,0.0,1,0.0,0.0,0.0,0,0,0,0,0,,,,,,,,,,,,,,,,,,,,
3503,0,,,248,249,237,232,,0.04,0.04,0.99,0,-0,0,0.05,,73,0,6,43,93,0.625,0.0,107,1.97,12.9,0.0,1,0.0,0.0,0.0,0,0,0,0,0,,,,,,,,,,,,,,,,,,,,
3523,0,,,248,249,237,232,,0.04,0.04,0.99,0,-0,0,0.05,,73,0,6,43,93,0.627,0.0,107,1.92,12.9,0.0,1,0.0,0.0,0.0,0,0,0,0,0,,,,,,,,,,,,,,,,,,,,
3543,0,8,4,248,249,237,232,1,0.04,0.04,0.99,0,-0,0,0.05,1,73,0,6,43,93,0.628,0.0,107,1.89,12.9,0.0,1,0.0,0.0,0.0,0,0,0,0,0,0,250,250,0,0.0,0.0,0.0,0.0,0,0,0.0,0,0.0,-1,0.0,,0.0,0,0.0,0.059
3563,0,,,248,249,237,232,,0.04,0.04,0.99,0,-0,0,0.05,,73,0,6,43,93,0.63,0.0,107,1.86,12.9,0.0,1,0.0,0.0,0.0,0,0,0,0,0,,,,,,,,,,,,,,,,,,,,
3583,0,,,248,249,237,232,,0.04,0.04,0.99,0,0,0,0.05,,73,0,6,43,93,0.633,0.0,107,1.83,13.0,0.0,1,0.0,0.0,0.0,0,0,0,0,0,,,,,,,,,,,,,,,,,,,,
3603,0,,,248,249,237,232,,0.04,0.04,0.99,0,-0,0,0.05,,73,0,6,43,93,0.635,0.0,107,1.81,13.0,0.0,1,0.0,0.0,0.0,0,0,0,0,0,,,,,,,,,,,,,,,,,,,,
3623,0,,,248,249,237,232,,0.04,0.04,0.99,0,-0,0,0.05,,73,0,6,43,93,0.638,0.0,107,1.78,13.0,0.0,1,0.0,0.0,0.0,0,0,0,0,0,,,,,,,,,,,,,,,,,,,,
3643,0,8,4,248,249,237,232,0,0.04,0.04,0.99,0,-0,0,0.05,1,73,0,6,43,93,0.639,0.0,107,1.75,13.0,0.0,1,0.0,0.0,0.0,0,0,0,0,0,0,250,250,0,0.0,0.0,0.0,0.0,0,0,0.0,0,0.0,-1,0.0,0.0,0.0,0,0.0,0.0607
3663,0,,,248,249,237,232,,0.04,0.04,0.99,0,-0,0,0.05,,73,0,6,43,93,0.64,0.0,107,1.73,12.9,0.0,1,0.0,0.0,0.0,0,0,0,0,0,,,,,,,,,,,,,,,,,,,,
3683,0,,,248,249,237,232,,0.04,0.04,0.99,0,-0,0,0.05,,73,0,6,43,93,0.641,0.0,107,1.71,12.9,0.0,1,0.0,0.0,0.0,0,0,0,0,0,,,,,,,,,,,,,,,,,,,,
3703,0,,,248,249,237,232,,0.04,0.04,0.99,0,-0,0,0.05,,73,0,6,43,93,0.641,0.0,107,1.7,12.9,0.0,1,0.0,0.0,0.0,0,0,0,0,0,,,,,,,,,,,,,,,,,,,,
3723,0,,,248,249,237,232,,0.04,0.04,0.99,0,-0,0,0.05,,73,0,6,43,93,0.642,0.0,107,1.67,12.9,0.0,1,0.0,0.0,0.0,0,0,0,0,0,,,,,,,,,,,,,,,,,,,,
3743,0,8,5,248,249,237,232,0,0.04,0.04,0.99,0,-0,0,0.05,1,73,0,6,43,93,0.643,0.0,107,1.65,13.0,0.0,1,0.0,0.0,0.0,0,0,0,0,0,0,250,250,0,0.0,0.0,0.0,0.0,0,0,0.0,0,0.0,-1,0.0,,0.0,0,0.0,0.0624
3763,0,,,248,249,237,232,,0.04,0.04,0.99,0,-0,-0,0.05,,73,0,6,43,93,0.643,0.0,107,1.64,13.0,0.0,1,0.0,0.0,0.0,0,0,0,0,0,,,,,,,,,,,,,,,,,,,,
3783,0,,,248,249,237,232,,0.04,0.04,0.99,0,-0,0,0.05,,73,0,6,43,93,0.643,0.0,107,1.61,13.0,0.0,1,0.0,0.0,0.0,0,0,0,0,0,,,,,,,,,,,,,,,,,,,,
3803,0,,,248,249,237,232,,0.04,0.04,0.99,0,0,0,0.05,,73,0,6,43,93,0.643,0.0,107,1.61,13.0,0.0,1,0.0,0.0,0.0,0,0,0,0,0,,,,,,,,,,,,,,,,,,,,
3823,0,,,248,249,237,232,,0.04,0.04,0.99,0,0,0,0.05,,73,0,6,43,93,0.643,0.0,107,1.58,13.0,0.0,1,0.0,0.0,0.0,0,0,0,0,0,,,,,,,,,,,,,,,,,,,,
3843,0,7,4,248,249,237,232,1,0.04,0.04,0.99,0,0,0,0.05,1,73,0,6,43,93,0.642,0.0,107,1.58,12.9,0.0,1,0.0,0.0,0.0,0,0,0,0,0,0,250,250,0,0.0,0.0,0.0,0.0,0,0,0.0,0,0.0,-1,0.0,0.0,0.0,0,0.0,0.064
3863,0,,,248,249,237,232,,0.04,0.04,0.99,0,0,0,0.05,,73,0,6,43,93,0.641,0.0,107,1.56,12.9,0.0,1,0.0,0.0,0.0,0,0,0,0,0,,,,,,,,,,,,,,,,,,,,
3883,0,,,248,249,237,232,,0.04,0.04,0.99,0,0,-0,0.05,,73,0,6,43,93,0.641,0.0,107,1.56,12.9,0.0,1,0.0,0.0,0.0,0,0,0,0,0,,,,,,,,,,,,,,,,,,,,
3903,0,,,248,249,237,232,,0.04,0.04,0.99,0,0,0,0.05,,73,0,6,43,93,0.641,0.0,107,1.53,13.0,0.0,1,0.0,0.0,0.0,0,0,0,0,0,,,,,,,,,,,,,,,,,,,,
3923,0,,,248,249,237,232,,0.04,0.04,0.99,0,0,0,0.05,,73,0,6,43,93,0.64,0.0,107,1.53,13.0,0.0,1,0.0,0.0,0.0,0,0,0,0,0,,,,,,,,,,,,,,,,,,,,
3943,0,8,2,248,249,237,232,1,0.04,0.04,0.99,0,0,0,0.05,1,73,0,6,43,93,0.64,0.0,107,1.51,13.0,0.0,1,0.0,0.0,0.0,0,0,0,0,0,0,250,250,0,0.0,0.0,0.0,0.0,0,0,0.0,0,0.0,-1,0.0,,0.0,0,0.0,0.0657
3963,0,,,248,249,237,232,,0.04,0.04,0.99,0,0,0,0.05,,73,0,6,43,93,0.639,0.0,107,1.51,13.0,0.0,1,0.0,0.0,0.0,0,0,0,0,0,,,,,,,,,,,,,,,,,,,,
3983,0,,,248,249,237,232,,0.04,0.04,0.99,0,0,0,0.05,,73,0,6,43,93,0.638,0.0,107,1.51,13.0,0.0,1,0.0,0.0,0.0,0,0,0,0,0,,,,,,,,,,,,,,,,,,,,
4003,0,,,248,249,237,232,,0.04,0.04,0.99,0,0,0,0.05,,73,0,6,43,93,0.639,0.0,107,1.48,12.9,0.0,1,0.0,0.0,0.0,0,0,0,0,0,,,,,,,,,,,,,,,,,,,,
4023,0,,,248,249,237,232,,0.04,0.04,0.99,0,0,0,0.05,,73,0,6,43,93,0.639,0.0,107,1.48,12.9,0.0,1,0.0,0.0,0.0,0,0,0,0,0,,,,,,,,,,,,,,,,,,,,
4043,0,8,3,248,249,237,232,0,0.04,0.04,0.99,0,-0,0,0.05,1,73,0,6,43,93,0.64,0.0,107,1.48,12.9,0.0,1,0.0,0.0,0.0,0,0,0,0,0,0,250,250,0,0.0,0.0,0.0,0.0,0,0,0.0,0,0.0,-1,0.0,0.0,0.0,0,0.0,0.0674
4063,0,,,248,249,237,232,,0.04,0.04,0.99,0,-0,0,0.05,,73,0,6,43,93,0.64,0.0,107,1.45,12.9,0.0,1,0.0,0.0,0.0,0,0,0,0,0,,,,,,,,,,,,,,,,,,,,
4083,0,,,248,249,237,232,,0.04,0.04,0.99,0,-0,-0,0.05,,73,0,6,43,93,0.641,0.0,107,1.45,13.0,0.0,1,0.0,0.0,0.0,0,0,0,0,0,,,,,,,,,,,,,,,,,,,,
4103,0,,,248,249,237,232,,0.04,0.04,0.99,0,-0,-0,0.05,,73,0,6,43,93,0.641,0.0,107,1.45,13.0,0.0,1,0.0,0.0,0.0,0,0,0,0,0,,,,,,,,,,,,,,,,,,,,
4123,0,,,248,249,237,232,,0.04,0.04,0.99,0,-0,-0,0.05,,73,0,6,43,93,0.641,0.0,107,1.42,13.0,0.0,1,0.0,0.0,0.0,0,0,0,0,0,,,,,,,,,,,,,,,,,,,,
4143,0,7,5,248,249,237,232,1,0.04,0.04,0.99,0,-0,-0,0.05,1,73,0,6,43,93,0.64,0.0,107,1.42,13.0,0.0,1,0.0,0.0,0.0,0,0,0,0,0,0,250,250,0,0.0,0.0,0.0,0.0,0,0,0.0,0,0.0,-1,0.0,,0.0,0,0.0,0.069
4163,0,,,248,249,237,232,,0.04,0.04,0.99,0,-0,-0,0.05,,73,0,6,43,93,0.64,0.0,107,1.41,12.9,0.0,1,0.0,0.0,0.0,0,0,0,0,0,,,,,,,,,,,,,,,,,,,,
4183,0,,,248,249,237,232,,0.04,0.04,0.99,0,-0,-0,0.05,,73,0,6,44,93,0.64,0.0,107,1.4,12.9,0.0,1,0.0,0.0,0.0,0,0,0,0,0,,,,,,,,,,,,,,,,,,,,
4203,0,,,248,249,237,232,,0.04,0.04,0.99,0,-0,-0,0.05,,73,0,6,43,93,0.641,0.0,107,1.4,12.9,0.0,1,0.0,0.0,0.0,0,0,0,0,0,,,,,,,,,,,,,,,,,,,,
4223,0,,,248,250,237,232,,0.04,0.04,0.99,0,-0,-0,0.06,,73,0,6,43,93,0.642,0.0,107,1.4,12.9,0.0,1,0.0,0.0,0.0,0,0,0,0,0,,,,,,,,,,,,,,,,,,,,
4243,0,8,3,248,250,237,232,1,0.04,0.04,0.99,0,-0,-0,0.05,1,73,0,6,43,93,0.642,0.0,107,1.37,12.9,0.0,1,0.0,0.0,0.0,0,0,0,0,0,0,250,250,0,0.0,0.0,0.0,0.0,0,0,0.0,0,0.0,-1,0.0,0.0,0.0,0,0.0,0.0707
4263,0,,,248,250,237,232,,0.04,0.03,0.99,0,-0,-0,0.05,,73,0,6,44,93,0.643,0.0,107,1.37,12.9,0.0,1,0.0,0.0,0.0,0,0,0,0,0,,,,,,,,,,,,,,,,,,,,
4283,0,,,248,250,237,232,,0.04,0.04,1.0,0,-0,-0,0.05,,73,0,6,44,93,0.643,0.0,107,1.37,13.0,0.0,1,0.0,0.0,0.0,0,0,0,0,0,,,,,,,,,,,,,,,,,,,,
4303,0,,,248,251,237,232,,0.04,0.04,0.99,0,-0,-0,0.05,,73,0,6,44,93,0.644,0.0,107,1.36,13.0,0.0,1,0.0,0.0,0.0,0,0,0,0,0,,,,,,,,,,,,,,,,,,,,
4323,0,,,248,251,237,232,,0.04,0.03,1.0,0,-0,-0,0.05,,73,0,6,44,93,0.644,0.0,107,1.34,13.0,0.0,1,0.0,0.0,0.0,0,0,0,0,0,,,,,,,,,,,,,,,,,,,,
4343,0,9,4,248,251,237,232,0,0.04,0.03,1.0,0,-0,-0,0.05,1,73,0,6,44,93,0.644,0.0,107,1.34,12.9,0.0,1,0.0,0.0,0.0,0,0,0,0,0,0,250,250,0,0.0,0.0,0.0,0.0,0,0,0.0,0,0.0,-1,0.0,,0.0,0,0.0,0.0724
4363,0,,,248,251,237,232,,0.04,0.04,1.0,0,-0,-0,0.05,,73,0,6,44,93,0.643,0.0,107,1.34,12.9,0.0,1,0.0,0.0,0.0,0,0,0,0,0,,,,,,,,,,,,,,,,,,,,
4383,0,,,248,251,237,232,,0.04,0.04,1.0,0,-0,-0,0.05,,73,0,6,44,93,0.644,0.0,107,1.34,12.9,0.0,1,0.0,0.0,0.0,0,0,0,0,0,,,,,,,,,,,,,,,,,,,,
4403,0,,,248,251,237,232,,0.04,0.04,1.0,0,-0,-0,0.05,,73,0,6,44,93,0.644,0.0,107,1.33,12.9,0.0,1,0.0,0.0,0.0,0,0,0,0,0,,,,,,,,,,,,,,,,,,,,
4423,0,,,248,251,237,232,,0.04,0.04,1.0,0,-0,-0,0.05,,73,0,6,44,93,0.644,0.0,107,1.31,13.0,0.0,1,0.0,0.0,0.0,0,0,0,0,0,,,,,,,,,,,,,,,,,,,,
4443,0,8,5,248,251,237,232,1,0.04,0.04,1.0,0,-0,-0,0.05,1,73,0,6,44,93,0.644,0.0,107,1.31,13.0,0.0,1,0.0,0.0,0.0,0,0,0,0,0,0,250,250,0,0.0,0.0,0.0,0.0,0,0,0.0,0,0.0,-1,0.0,0.0,0.0,0,0.0,0.074
4463,0,,,248,251,237,232,,0.04,0.04,1.0,0,-0,-0,0.05,,73,0,6,44,93,0.643,0.0,107,1.31,13.0,0.0,1,0.0,0.0,0.0,0,0,0,0,0,,,,,,,,,,,,,,,,,,,,
4483,0,,,248,251,237,232,,0.04,0.04,1.0,0,-0,-0,0.05,,73,0,6,44,93,0.642,0.0,107,1.31,13.0,0.0,1,0.0,0.0,0.0,0,0,0,0,0,,,,,,,,,,,,,,,,,,,,
4503,0,,,248,251,237,232,,0.04,0.04,1.0,0,-0,-0,0.05,,73,0,6,44,93,0.64,0.0,107,1.3,13.0,0.0,1,0.0,0.0,0.0,0,0,0,0,0,,,,,,,,,,,,,,,,,,,,
4523,0,,,248,251,237,232,,0.04,0.04,1.0,0,-0,-0,0.05,,73,0,6,44,93,0.639,0.0,107,1.28,12.9,0.0,1,0.0,0.0,0.0,0,0,0,0,0,,,,,,,,,,,,,,,,,,,,
4543,0,8,4,248,251,237,232,1,0.04,0.04,1.0,0,-0,-0,0.05,1,73,0,6,44,93,0.638,0.0,107,1.28,12.9,0.0,1,0.0,0.0,0.0,0,0,0,0,0,0,250,250,0,0.0,0.0,0.0,0.0,0,0,0.0,0,0.0,-1,0.0,,0.0,0,0.0,0.0757
4563,0,,,248,251,237,232,,0.04,0.04,1.0,0,-0,-0,0.05,,73,0,6,44,93,0.637,0.0,107,1.28,12.9,0.0,1,0.0,0.0,0.0,0,0,0,0,0,,,,,,,,,,,,,,,,,,,,
4583,0,,,248,251,237,232,,0.04,0.04,1.0,0,-0,-0,0.05,,73,0,6,44,93,0.637,0.0,107,1.28,12.9,0.0,1,0.0,0.0,0.0,0,0,0,0,0,,,,,,,,,,,,,,,,,,,,
4603,0,,,248,251,237,232,,0.04,0.04,1.0,0,-0,-0,0.05,,73,0,6,44,93,0.636,0.0,107,1.28,13.0,0.0,1,0.0,0.0,0.0,0,0,0,0,0,,,,,,,,,,,,,,,,,,,,
4623,0,,,248,251,237,232,,0.04,0.04,1.0,0,-0,-0,0.05,,73,0,6,44,93,0.636,0.0,107,1.28,13.0,0.0,1,0.0,0.0,0.0,0,0,0,0,0,,,,,,,,,,,,,,,,,,,,
4643,0,7,3,248,251,237,232,1,0.04,0.04,1.0,0,-0,-0,0.05,1,73,0,6,44,93,0.635,0.0,107,1.28,13.0,0.0,1,0.0,0.0,0.0,0,0,0,0,0,0,250,250,0,0.0,0.0,0.0,0.0,0,0,0.0,0,0.0,-1,0.0,0.0,0.0,0,0.0,0.0774
4663,0,,,248,251,237,232,,0.04,0.04,0.99,0,-0,-0,0.05,,73,0,6,44,93,0.635,0.0,107,1.28,13.0,0.0,1,0.0,0.0,0.0,0,0,0,0,0,,,,,,,,,,,,,,,,,,,,
4683,0,,,248,251,237,232,,0.04,0.04,0.99,0,-0,-0,0.05,,73,0,6,44,93,0.635,0.0,107,1.26,12.9,0.0,1,0.0,0.0,0.0,0,0,0,0,0,,,,,,,,,,,,,,,,,,,,
4703,0,,,248,251,237,232,,0.04,0.04,1.0,0,-0,-0,0.05,,73,0,6,44,93,0.635,0.0,107,1.26,12.9,0.0,1,0.0,0.0,0.0,0,0,0,0,0,,,,,,,,,,,,,,,,,,,,
4723,0,,,248,251,237,232,,0.04,0.04,0.99,0,-0,0,0.05,,73,0,6,44,93,0.636,0.0,107,1.26,12.9,0.0,1,0.0,0.0,0.0,0,0,0,0,0,,,,,,,,,,,,,,,,,,,,
4743,0,8,3,248,251,237,232,1,0.04,0.04,1.0,0,-0,0,0.05,1,73,0,6,44,93,0.637,0.0,107,1.26,12.9,0.0,1,0.0,0.0,0.0,0,0,0,0,0,0,250,250,0,0.0,0.0,0.0,0.0,0,0,0.0,0,0.0,-1,0.0,,0.0,0,0.0,0.079
4763,0,,,248,251,237,232,,0.04,0.04,0.99,0,-0,0,0.05,,73,0,6,44,93,0.637,0.0,107,1.26,13.0,0.0,1,0.0,0.0,0.0,0,0,0,0,0,,,,,,,,,,,,,,,,,,,,
4783,0,,,248,251,237,232,,0.04,0.04,0.99,0,-0,-0,0.05,,73,0,6,44,93,0.638,0.0,107,1.26,13.0,0.0,1,0.0,0.0,0.0,0,0,0,0,0,,,,,,,,,,,,,,,,,,,,
4803,0,,,248,251,237,232,,0.04,0.04,0.99,0,-0,-0,0.05,,73,0,6,44,93,0.638,0.0,107,1.23,13.0,0.0,1,0.0,0.0,0.0,0,0,0,0,0,,,,,,,,,,,,,,,,,,,,
4823,0,,,248,251,237,232,,0.04,0.04,0.99,0,-0,-0,0.05,,73,0,6,44,93,0.639,0.0,107,1.23,13.0,0.0,1,0.0,0.0,0.0,0,0,0,0,0,,,,,,,,,,,,,,,,,,,,
4843,0,8,3,248,251,237,232,-0,0.04,0.04,0.99,0,-0,-0,0.05,1,73,0,6,44,93,0.64,0.0,107,1.23,13.0,0.0,1,0.0,0.0,0.0,0,0,0,0,0,0,250,250,0,0.0,0.0,0.0,0.0,0,0,0.0,0,0.0,-1,0.0,0.0,0.0,0,0.0,0.0807
4863,0,,,248,251,237,232,,0.04,0.04,0.99,0,-0,-0,0.05,,73,0,6,44,93,0.641,0.0,107,1.23,12.9,0.0,1,0.0,0.0,0.0,0,0,0,0,0,,,,,,,,,,,,,,,,,,,,
4883,0,,,248,251,237,232,,0.04,0.04,0.99,0,-0,-0,0.05,,73,0,6,44,93,0.642,0.0,107,1.23,12.9,0.0,1,0.0,0.0,0.0,0,0,0,0,0,,,,,,,,,,,,,,,,,,,,
4903,0,,,248,251,237,232,,0.04,0.04,0.99,0,-0,-0,0.05,,73,0,6,44,93,0.643,0.0,107,1.23,12.9,0.0,1,0.0,0.0,0.0,0,0,0,0,0,,,,,,,,,,,,,,,,,,,,
4923,0,,,248,251,237,232,,0.04,0.04,0.99,0,-0,-0,0.05,,73,0,6,44,93,0.644,0.0,107,1.22,12.9,0.0,1,0.0,0.0,0.0,0,0,0,0,0,,,,,,,,,,,,,,,,,,,,
4943,0,8,3,248,251,237,232,1,0.04,0.04,0.99,0,-0,-0,0.05,1,73,0,6,44,93,0.644,0.0,107,1.22,13.0,0.0,1,0.0,0.0,0.0,0,0,0,0,0,0,250,250,0,0.0,0.0,0.0,0.0,0,0,0.0,0,0.0,-1,0.0,,0.0,0,0.0,0.0824
4963,0,,,248,250,237,232,,0.04,0.04,0.99,0,-0,-0,0.05,,73,0,6,44,93,0.645,0.0,107,1.21,13.0,0.0,1,0.0,0.0,0.0,0,0,0,0,0,,,,,,,,,,,,,,,,,,,,
4983,0,,,248,250,237,232,,0.04,0.04,0.99,0,-0,-0,0.05,,73,0,6,44,93,0.646,0.0,107,1.21,13.0,0.0,1,0.0,0.0,0.0,0,0,0,0,0,,,,,,,,,,,,,,,,,,,,
5003,0,,,248,251,237,232,,0.04,0.04,0.99,0,-0,-0,0.05,,73,0,6,44,93,0.646,0.0,107,1.21,13.0,0.0,1,0.0,0.0,0.0,0,0,0,0,0,,,,,,,,,,,,,,,,,,,,
5023,0,,,248,251,237,232,,0.04,0.04,0.99,0,-0,-0,0.05,,73,0,6,44,93,0.648,0.0,107,1.21,13.0,0.0,1,0.0,0.0,0.0,0,0,0,0,0,,,,,,,,,,,,,,,,,,,,
5043,0,7,3,248,251,237,232,1,0.04,0.04,0.99,0,-0,-0,0.05,1,73,0,6,44,93,0.648,0.0,107,1.21,12.9,0.0,1,0.0,0.0,0.0,0,0,0,0,0,0,250,250,0,0.0,0.0,0.0,0.0,0,0,0.0,0,0.0,-1,0.0,0.0,0.0,0,0.0,0.084
5063,0,,,248,250,237,232,,0.04,0.04,0.99,0,-0,-0,0.05,,73,0,6,44,93,0.648,0.0,107,1.21,12.9,0.0,1,0.0,0.0,0.0,0,0,0,0,0,,,,,,,,,,,,,,,,,,,,
5083,0,,,248,251,237,232,,0.04,0.04,0.99,0,-0,-0,0.05,,73,0,6,44,93,0.648,0.0,107,1.21,12.9,0.0,1,0.0,0.0,0.0,0,0,0,0,0,,,,,,,,,,,,,,,,,,,,
5103,0,,,248,251,237,232,,0.04,0.04,0.99,0,-0,-0,0.05,,73,0,6,44,93,0.647,0.0,107,1.19,12.9,0.0,1,0.0,0.0,0.0,0,0,0,0,0,,,,,,,,,,,,,,,,,,,,
5123,0,,,248,250,237,232,,0.04,0.04,0.99,0,-0,-0,0.05,,73,0,6,44,93,0.646,0.0,107,1.18,13.0,0.0,1,0.0,0.0,0.0,0,0,0,0,0,,,,,,,,,,,,,,,,,,,,
5143,0,7,4,248,251,237,232,1,0.04,0.04,0.99,0,-0,-0,0.05,1,73,0,6,44,93,0.645,0.0,107,1.18,13.0,0.0,1,0.0,0.0,0.0,0,0,0,0,0,0,250,250,0,0.0,0.0,0.0,0.0,0,0,0.0,0,0.0,-1,0.0,,0.0,0,0.0,0.0857
5163,0,,,248,250,237,232,,0.04,0.04,0.99,0,-0,-0,0.05,,73,0,6,44,93,0.644,0.0,107,1.18,13.0,0.0,1,0.0,0.0,0.0,0,0,0,0,0,,,,,,,,,,,,,,,,,,,,
5183,0,,,248,251,237,232,,0.04,0.04,0.99,0,-0,-0,0.05,,73,0,6,44,93,0.642,0.0,107,1.18,13.0,0.0,1,0.0,0.0,0.0,0,0,0,0,0,,,,,,,,,,,,,,,,,,,,
5203,0,,,248,251,237,232,,0.04,0.04,0.99,0,-0,0,0.05,,73,0,6,44,93,0.642,0.0,107,1.18,12.9,0.0,1,0.0,0.0,0.0,0,0,0,0,0,,,,,,,,,,,,,,,,,,,,
5223,0,,,248,250,237,232,,0.04,0.04,0.99,0,-0,0,0.05,,73,0,6,44,93,0.641,0.0,107,1.18,12.9,0.0,1,0.0,0.0,0.0,0,0,0,0,0,,,,,,,,,,,,,,,,,,,,
5243,0,7,3,248,251,237,232,0,0.04,0.04,0.99,0,-0,0,0.05,1,73,0,6,44,93,0.64,0.0,107,1.18,12.9,0.0,1,0.0,0.0,0.0,0,0,0,0,0,0,250,250,0,0.0,0.0,0.0,0.0,0,0,0.0,0,0.0,-1,0.0,0.0,0.0,0,0.0,0.0874
5263,0,,,248,251,237,232,,0.04,0.04,0.99,0,-0,0,0.05,,73,0,6,44,93,0.64,0.0,107,1.18,12.9,0.0,1,0.0,0.0,0.0,0,0,0,0,0,,,,,,,,,,,,,,,,,,,,
5283,0,,,248,250,237,232,,0.04,0.04,0.99,0,-0,0,0.05,,73,0,6,44,93,0.639,0.0,107,1.18,13.0,0.0,1,0.0,0.0,0.0,0,0,0,0,0,,,,,,,,,,,,,,,,,,,,
5303,0,,,248,251,237,232,,0.04,0.04,0.99,0,-0,0,0.05,,73,0,6,44,93,0.639,0.0,107,1.18,13.0,0.0,1,0.0,0.0,0.0,0,0,0,0,0,,,,,,,,,,,,,,,,,,,,
5323,0,,,248,251,237,232,,0.04,0.04,0.99,0,-0,0,0.05,,73,0,6,44,93,0.639,0.0,107,1.17,13.0,0.0,1,0.0,0.0,0.0,0,0,0,0,0,,,,,,,,,,,,,,,,,,,,
5343,0,8,4,248,250,237,232,1,0.04,0.04,0.99,0,-0,-0,0.05,1,73,0,6,44,93,0.639,0.0,107,1.16,13.0,0.0,1,0.0,0.0,0.0,0,0,0,0,0,0,250,250,0,0.0,0.0,0.0,0.0,0,0,0.0,0,0.0,-1,0.0,,0.0,0,0.0,0.089
5363,0,,,248,250,237,232,,0.04,0.04,0.99,0,-0,-0,0.05,,73,0,6,44,93,0.639,0.0,107,1.16,13.0,0.0,1,0.0,0.0,0.0,0,0,0,0,0,,,,,,,,,,,,,,,,,,,,
5383,0,,,248,251,237,232,,0.04,0.04,0.99,0,-0,0,0.05,,73,0,6,44,93,0.64,0.0,107,1.15,12.9,0.0,1,0.0,0.0,0.0,0,0,0,0,0,,,,,,,,,,,,,,,,,,,,
5403,0,,,248,250,237,232,,0.04,0.04,0.99,0,-0,0,0.05,,73,0,6,44,93,0.64,0.0,107,1.15,12.9,0.0,1,0.0,0.0,0.0,0,0,0,0,0,,,,,,,,,,,,,,,,,,,,
5423,0,,,248,250,237,232,,0.04,0.04,0.99,0,-0,0,0.05,,73,0,6,44,93,0.641,0.0,107,1.15,12.9,0.0,1,0.0,0.0,0.0,0,0,0,0,0,,,,,,,,,,,,,,,,,,,,
5443,0,7,4,248,251,237,232,1,0.04,0.04,0.99,0,-0,0,0.05,1,73,0,6,44,93,0.641,0.0,107,1.15,13.0,0.0,1,0.0,0.0,0.0,0,0,0,0,0,0,250,250,0,0.0,0.0,0.0,0.0,0,0,0.0,0,0.0,-1,0.0,0.0,0.0,0,0.0,0.0907
5463,0,,,248,251,237,232,,0.04,0.04,0.99,0,-0,0,0.05,,73,0,6,44,93,0.641,0.0,107,1.15,13.0,0.0,1,0.0,0.0,0.0,0,0,0,0,0,,,,,,,,,,,,,,,,,,,,
5483,0,,,248,251,237,232,,0.04,0.04,0.99,0,-0,0,0.05,,73,0,6,44,93,0.641,0.0,107,1.15,13.0,0.0,1,0.0,0.0,0.0,0,0,0,0,0,,,,,,,,,,,,,,,,,,,,
5503,0,,,248,250,237,232,,0.04,0.04,0.99,0,-0,0,0.05,,73,0,6,44,93,0.641,0.0,107,1.15,13.0,0.0,1,0.0,0.0,0.0,0,0,0,0,0,,,,,,,,,,,,,,,,,,,,
5523,0,,,248,251,237,232,,0.04,0.04,0.99,0,-0,0,0.05,,73,0,6,44,93,0.641,0.0,107,1.15,13.0,0.0,1,0.0,0.0,0.0,0,0,0,0,0,,,,,,,,,,,,,,,,,,,,
5543,0,9,4,248,250,237,232,0,0.04,0.04,0.99,0,-0,0,0.05,1,73,0,6,44,93,0.641,0.0,107,1.15,12.9,0.0,1,0.0,0.0,0.0,0,0,0,0,0,0,250,250,0,0.0,0.0,0.0,0.0,0,0,0.0,0,0.0,-1,0.0,,0.0,0,0.0,0.0924
5563,0,,,248,250,237,232,,0.04,0.04,0.99,0,-0,0,0.05,,73,0,6,44,93,0.64,0.0,107,1.14,12.9,0.0,1,0.0,0.0,0.0,0,0,0,0,0,,,,,,,,,,,,,,,,,,,,
5583,0,,,248,251,237,232,,0.04,0.04,1.0,0,-0,0,0.05,,73,0,6,44,93,0.641,0.0,107,1.13,12.9,0.0,1,0.0,0.0,0.0,0,0,0,0,0,,,,,,,,,,,,,,,,,,,,
5603,0,,,248,251,237,232,,0.04,0.04,0.99,0,-0,0,0.05,,73,0,6,44,93,0.642,0.0,107,1.12,13.0,0.0,1,0.0,0.0,0.0,0,0,0,0,0,,,,,,,,,,,,,,,,,,,,
5623,0,,,248,251,237,232,,0.04,0.04,0.99,0,-0,0,0.05,,73,0,6,44,93,0.642,0.0,107,1.12,13.0,0.0,1,0.0,0.0,0.0,0,0,0,0,0,,,,,,,,,,,,,,,,,,,,
5643,0,8,3,248,251,237,232,1,0.04,0.04,0.99,0,-0,0,0.05,1,73,0,6,44,93,0.643,0.0,107,1.12,13.0,0.0,1,0.0,0.0,0.0,0,0,0,0,0,0,250,250,0,0.0,0.0,0.0,0.0,0,0,0.0,0,0.0,-1,0.0,0.0,0.0,0,0.0,0.094
5663,0,,,248,251,237,232,,0.04,0.04,0.99,0,-0,0,0.05,,73,0,6,44,93,0.644,0.0,107,1.12,13.0,0.0,1,0.0,0.0,0.0,0,0,0,0,0,,,,,,,,,,,,,,,,,,,,
5683,0,,,248,251,237,232,,0.04,0.04,0.99,0,-0,0,0.05,,73,0,6,44,93,0.645,0.0,107,1.12,13.0,0.0,1,0.0,0.0,0.0,0,0,0,0,0,,,,,,,,,,,,,,,,,,,,
5703,0,,,248,250,237,232,,0.04,0.04,0.99,0,0,0,0.05,,73,0,6,44,93,0.646,0.0,106,1.12,13.0,0.0,1,0.0,0.0,0.0,0,0,0,0,0,,,,,,,,,,,,,,,,,,,,
5723,0,,,248,250,237,232,,0.04,0.04,0.99,0,-0,0,0.05,,73,0,6,44,93,0.647,0.0,107,1.12,12.9,0.0,1,0.0,0.0,0.0,0,0,0,0,0,,,,,,,,,,,,,,,,,,,,
5743,0,8,4,248,250,237,232,1,0.04,0.04,0.99,0,-0,-0,0.05,1,73,0,6,44,93,0.648,0.0,107,1.11,12.9,0.0,1,0.0,0.0,0.0,0,0,0,0,0,0,250,250,0,0.0,0.0,0.0,0.0,0,0,0.0,0,0.0,-1,0.0,,0.0,0,0.0,0.0957
5763,0,,,248,250,237,232,,0.04,0.04,0.99,0,-0,0,0.05,,73,0,6,44,93,0.649,0.0,107,1.1,12.9,0.0,1,0.0,0.0,0.0,0,0,0,0,0,,,,,,,,,,,,,,,,,,,,
5783,0,,,248,251,237,232,,0.04,0.04,0.99,0,0,0,0.05,,73,0,6,44,93,0.649,0.0,107,1.1,13.0,0.0,1,0.0,0.0,0.0,0,0,0,0,0,,,,,,,,,,,,,,,,,,,,
5803,0,,,248,251,237,232,,0.04,0.04,0.99,0,0,-0,0.05,,73,0,6,44,93,0.65,0.0,107,1.1,13.0,0.0,1,0.0,0.0,0.0,0,0,0,0,0,,,,,,,,,,,,,,,,,,,,
5823,0,,,248,251,237,232,,0.04,0.04,0.99,0,-0,0,0.05,,73,0,6,44,93,0.651,0.0,107,1.1,13.0,0.0,1,0.0,0.0,0.0,0,0,0,0,0,,,,,,,,,,,,,,,,,,,,
5843,0,8,4,248,251,237,232,0,0.04,0.04,0.99,0,-0,0,0.05,1,73,0,6,44,93,0.652,0.0,107,1.1,13.0,0.0,1,0.0,0.0,0.0,0,0,0,0,0,0,250,250,0,0.0,0.0,0.0,0.0,0,0,0.0,0,0.0,-1,0.0,0.0,0.0,0,0.0,0.0974
5863,0,,,248,251,237,232,,0.04,0.04,0.99,0,-0,-0,0.05,,73,0,6,44,93,0.652,0.0,107,1.07,13.0,0.0,1,0.0,0.0,0.0,0,0,0,0,0,,,,,,,,,,,,,,,,,,,,
5883,0,,,248,250,237,232,,0.04,0.04,0.99,0,0,-0,0.05,,73,0,6,44,93,0.653,0.0,107,1.07,13.0,0.0,1,0.0,0.0,0.0,0,0,0,0,0,,,,,,,,,,,,,,,,,,,,
5903,0,,,248,251,237,232,,0.04,0.04,0.99,0,-0,-0,0.05,,73,0,6,44,93,0.653,0.0,107,1.07,12.9,0.0,1,0.0,0.0,0.0,0,0,0,0,0,,,,,,,,,,,,,,,,,,,,
5923,0,,,248,251,237,232,,0.04,0.04,0.99,0,-0,-0,0.05,,73,0,6,44,93,0.653,0.0,107,1.07,12.9,0.0,1,0.0,0.0,0.0,0,0,0,0,0,,,,,,,,,,,,,,,,,,,,
5943,0,7,5,248,250,237,232,1,0.04,0.04,0.99,0,-0,-0,0.05,1,73,0,6,44,93,0.654,0.0,107,1.07,13.0,0.0,1,0.0,0.0,0.0,0,0,0,0,0,0,250,250,0,0.0,0.0,0.0,0.0,0,0,0.0,0,0.0,-1,0.0,,0.0,0,0.0,0.099
5963,0,,,248,250,237,232,,0.04,0.04,0.99,0,-0,-0,0.05,,73,0,6,44,93,0.654,0.0,107,1.07,13.0,0.0,1,0.0,0.0,0.0,0,0,0,0,0,,,,,,,,,,,,,,,,,,,,
5983,0,,,248,251,237,232,,0.04,0.04,0.99,0,-0,-0,0.05,,73,0,6,44,93,0.654,0.0,107,1.07,13.0,0.0,1,0.0,0.0,0.0,0,0,0,0,0,,,,,,,,,,,,,,,,,,,,
6003,0,,,248,251,237,232,,0.04,0.04,0.99,0,-0,-0,0.05,,73,0,6,44,93,0.654,0.0,107,1.05,13.0,0.0,1,0.0,0.0,0.0,0,0,0,0,0,,,,,,,,,,,,,,,,,,,,
6023,0,,,248,251,237,232,,0.04,0.04,0.99,0,0,-0,0.05,,73,0,6,44,93,0.655,0.0,107,1.05,13.0,0.0,1,0.0,0.0,0.0,0,0,0,0,0,,,,,,,,,,,,,,,,,,,,
6043,0,7,4,248,251,237,232,1,0.04,0.04,0.99,0,0,-0,0.05,1,73,0,6,44,93,0.655,0.0,107,1.05,13.0,0.0,1,0.0,0.0,0.0,0,0,0,0,0,0,250,250,0,0.0,0.0,0.0,0.0,0,0,0.0,0,0.0,-1,0.0,0.0,0.0,0,0.0,0.1007
6063,0,,,248,250,237,232,,0.04,0.04,0.99,0,-0,-0,0.05,,73,0,6,44,93,0.656,0.0,107,1.05,12.9,0.0,1,0.0,0.0,0.0,0,0,0,0,0,,,,,,,,,,,,,,,,,,,,
6083,0,,,248,251,237,232,,0.04,0.04,0.99,0,-0,-0,0.05,,73,0,6,44,93,0.657,0.0,107,1.05,12.9,0.0,1,0.0,0.0,0.0,0,0,0,0,0,,,,,,,,,,,,,,,,,,,,
6103,0,,,248,251,237,232,,0.04,0.04,0.99,0,-0,-0,0.05,,73,0,6,44,93,0.657,0.0,107,1.05,13.0,0.0,1,0.0,0.0,0.0,0,0,0,0,0,,,,,,,,,,,,,,,,,,,,
6123,0,,,248,250,237,232,,0.04,0.04,0.99,0,-0,-0,0.05,,73,0,6,44,93,0.657,0.0,107,1.03,13.0,0.0,1,0.0,0.0,0.0,0,0,0,0,0,,,,,,,,,,,,,,,,,,,,
6143,0,8,5,248,251,237,232,1,0.04,0.04,0.99,0,-0,-0,0.05,1,73,0,6,44,93,0.658,0.0,107,1.02,13.0,0.0,1,0.0,0.0,0.0,0,0,0,0,0,0,250,250,0,0.0,0.0,0.0,0.0,0,0,0.0,0,0.0,-1,0.0,,0.0,0,0.0,0.1024
6163,0,,,248,251,237,232,,0.04,0.04,0.99,0,-0,-0,0.05,,73,0,6,44,93,0.658,0.0,107,1.02,13.0,0.0,1,0.0,0.0,0.0,0,0,0,0,0,,,,,,,,,,,,,,,,,,,,
6183,0,,,248,251,237,232,,0.04,0.04,0.99,0,-0,-0,0.05,,73,0,6,44,93,0.658,0.0,107,1.02,13.0,0.0,1,0.0,0.0,0.0,0,0,0,0,0,,,,,,,,,,,,,,,,,,,,
6203,0,,,248,251,237,232,,0.04,0.04,0.99,0,-0,-0,0.05,,73,0,6,44,93,0.657,0.0,107,1.02,13.0,0.0,1,0.0,0.0,0.0,0,0,0,0,0,,,,,,,,,,,,,,,,,,,,
6223,0,,,248,251,237,232,,0.04,0.04,0.99,0,-0,-0,0.05,,73,0,6,44,93,0.658,0.0,107,1.02,13.0,0.0,1,0.0,0.0,0.0,0,0,0,0,0,,,,,,,,,,,,,,,,,,,,
6243,0,8,3,248,251,237,232,1,0.04,0.04,0.99,0,-0,-0,0.05,1,73,0,6,44,93,0.657,0.0,107,1.02,12.9,0.0,1,0.0,0.0,0.0,0,0,0,0,0,0,250,250,0,0.0,0.0,0.0,0.0,0,0,0.0,0,0.0,-1,0.0,0.0,0.0,0,0.0,0.104
6263,0,,,248,251,237,232,,0.04,0.04,0.99,0,-0,-0,0.05,,73,0,6,44,93,0.658,0.0,107,1.02,12.9,0.0,1,0.0,0.0,0.0,0,0,0,0,0,,,,,,,,,,,,,,,,,,,,
6283,0,,,248,251,237,232,,0.04,0.04,0.99,0,-0,-0,0.05,,73,0,6,44,93,0.658,0.0,107,1.01,12.9,0.0,1,0.0,0.0,0.0,0,0,0,0,0,,,,,,,,,,,,,,,,,,,,
6303,0,,,248,251,237,232,,0.04,0.04,1.0,0,0,0,0.06,,73,0,6,44,93,0.655,0.0,107,1.0,10.3,0.0,1,0.0,0.0,0.0,0,0,0,0,0,,,,,,,,,,,,,,,,,,,,
6323,0,,,248,251,237,232,,0.04,0.04,1.0,0,0,0,0.06,,73,0,6,44,93,0.651,0.0,107,1.0,10.0,0.0,1,0.0,0.0,0.0,0,0,0,0,0,,,,,,,,,,,,,,,,,,,,
6343,0,7,4,248,251,237,232,0,0.04,0.04,0.99,0,0,0,0.06,1,73,0,6,44,92,0.648,0.0,107,1.0,10.6,0.0,1,0.0,0.0,0.0,0,0,0,0,0,0,250,250,0,0.0,0.0,0.0,0.0,0,0,0.0,0,0.0,-1,0.0,,0.0,0,0.0,0.1057
6363,0,,,248,251,237,232,,0.04,0.04,1.0,0,-0,0,0.06,,73,0,6,44,92,0.648,0.0,107,1.0,10.8,0.0,1,0.0,0.0,0.0,0,0,0,0,0,,,,,,,,,,,,,,,,,,,,
6383,0,,,248,251,237,232,,0.04,0.04,0.99,0,0,0,0.06,,73,0,6,44,93,0.648,0.0,107,1.0,11.1,0.0,1,0.0,0.0,0.0,0,0,0,0,0,,,,,,,,,,,,,,,,,,,,
6403,0,,,248,251,237,232,,0.04,0.04,0.99,0,-0,-0,0.06,,73,0,6,44,93,0.65,0.0,107,0.99,11.4,0.0,1,0.0,0.0,0.0,0,0,0,0,0,,,,,,,,,,,,,,,,,,,,
6423,0,,,248,251,237,232,,0.04,0.04,0.99,0,0,0,0.05,,73,0,6,44,92,0.651,0.0,107,0.99,11.5,0.0,1,0.0,0.0,0.0,0,0,0,0,0,,,,,,,,,,,,,,,,,,,,
6443,0,8,2,248,251,237,232,1,0.04,0.04,0.98,0,-0,0,0.05,1,73,0,6,44,92,0.653,0.0,107,0.99,11.5,0.0,1,0.0,0.0,0.0,0,0,0,0,0,0,250,250,0,0.0,0.0,0.0,0.0,0,0,0.0,0,0.0,-1,0.0,0.0,0.0,0,0.0,0.1074
6463,0,,,248,251,237,232,,0.04,0.04,0.99,0,-0,-0,0.05,,73,0,6,44,92,0.655,0.0,107,0.99,11.3,0.0,1,0.0,0.0,0.0,0,0,0,0,0,,,,,,,,,,,,,,,,,,,,
6483,0,,,248,251,237,232,,0.04,0.04,0.99,0,-0,0,0.05,,73,0,6,44,93,0.656,0.0,107,0.99,11.6,0.0,1,0.0,0.0,0.0,0,0,0,0,0,,,,,,,,,,,,,,,,,,,,
6503,0,,,248,251,237,232,,0.04,0.03,1.0,0,-0,-0,0.05,,73,0,6,44,92,0.658,0.0,107,0.99,11.8,0.0,1,0.0,0.0,0.0,0,0,0,0,0,,,,,,,,,,,,,,,,,,,,
6523,0,,,248,251,237,232,,0.04,0.04,1.01,0,-0,-0,0.05,,73,0,6,44,92,0.658,0.0,110,0.99,11.7,0.0,1,0.0,0.0,0.0,0,0,0,0,0,,,,,,,,,,,,,,,,,,,,
6543,0,8,3,248,251,237,232,-0,0.04,0.03,0.99,0,-0,0,0.05,1,73,0,6,44,93,0.658,0.0,110,0.99,11.5,0.0,1,0.0,0.0,0.0,0,0,0,0,0,0,250,250,0,0.0,0.0,0.0,0.0,0,0,0.0,0,0.0,-1,0.0,,0.0,0,0.0,0.109
6563,0,,,248,251,237,232,,0.04,0.03,1.0,0,-0,-0,0.05,,73,0,6,44,93,0.663,0.0,110,0.99,11.7,0.0,1,0.0,0.0,0.0,0,0,0,0,0,,,,,,,,,,,,,,,,,,,,
6583,0,,,248,251,237,232,,0.04,0.04,1.0,0,-0,-0,0.06,,73,0,6,44,92,0.667,0.0,110,0.99,11.8,0.0,1,0.0,0.0,0.0,0,0,0,0,0,,,,,,,,,,,,,,,,,,,,
6603,0,,,248,251,237,232,,0.04,0.04,1.01,0,-0,-0,0.05,,73,0,6,44,92,0.67,0.0,110,0.99,11.6,0.0,1,0.0,0.0,0.0,0,0,0,0,0,,,,,,,,,,,,,,,,,,,,
6623,0,,,248,251,237,232,,0.04,0.04,1.0,0,-0,0,0.05,,73,0,6,44,93,0.67,0.0,110,0.99,11.7,0.0,1,0.0,0.0,0.0,0,0,0,0,0,,,,,,,,,,,,,,,,,,,,
6643,0,8,5,248,251,237,232,-0,0.04,0.04,1.0,0,-0,0,0.05,1,73,0,6,44,92,0.67,0.0,110,0.99,11.8,0.0,1,0.0,0.0,0.0,0,0,0,0,0,0,250,250,0,0.0,0.0,0.0,0.0,0,0,0.0,0,0.0,-1,0.0,0.0,0.0,0,0.0,0.1107
6663,0,,,248,251,237,232,,0.04,0.04,0.99,0,0,0,0.05,,73,0,6,44,92,0.668,0.0,110,0.99,11.8,0.0,1,0.0,0.0,0.0,0,0,0,0,0,,,,,,,,,,,,,,,,,,,,
6683,0,,,248,251,237,232,,0.04,0.04,0.99,0,-0,-0,0.06,,73,0,6,44,92,0.667,0.0,110,0.98,11.6,0.0,1,0.0,0.0,0.0,0,0,0,0,0,,,,,,,,,,,,,,,,,,,,
6703,0,,,248,251,237,232,,0.04,0.04,0.99,0,-0,-0,0.05,,73,0,6,44,93,0.667,0.0,110,0.98,11.8,0.0,1,0.0,0.0,0.0,0,0,0,0,0,,,,,,,,,,,,,,,,,,,,
6723,0,,,248,251,237,232,,0.04,0.04,0.99,0,0,-0,0.05,,73,0,6,44,92,0.668,0.0,110,0.98,11.9,0.0,1,0.0,0.0,0.0,0,0,0,0,0,,,,,,,,,,,,,,,,,,,,
6743,0,7,4,248,251,237,232,1,0.04,0.04,0.98,0,-0,-0,0.05,1,73,0,6,44,92,0.668,0.0,110,0.97,11.6,0.0,1,0.0,0.0,0.0,0,0,0,0,0,0,250,250,0,0.0,0.0,0.0,0.0,0,0,0.0,0,0.0,-1,0.0,,0.0,0,0.0,0.1124
6763,0,,,248,251,237,232,,0.04,0.04,1.0,0,-0,-0,0.06,,73,0,6,44,93,0.668,0.0,110,0.97,11.7,0.0,1,0.0,0.0,0.0,0,0,0,0,0,,,,,,,,,,,,,,,,,,,,
6783,0,,,248,251,237,232,,0.04,0.04,0.99,0,-0,-0,0.05,,73,0,6,44,92,0.669,0.0,110,0.97,11.8,0.0,1,0.0,0.0,0.0,0,0,0,0,0,,,,,,,,,,,,,,,,,,,,
6803,0,,,248,251,237,232,,0.04,0.04,1.0,0,-0,-0,0.06,,73,0,6,44,92,0.67,0.0,110,0.97,11.8,0.0,1,0.0,0.0,0.0,0,0,0,0,0,,,,,,,,,,,,,,,,,,,,
6823,0,,,248,251,237,232,,0.04,0.04,0.99,0,0,0,0.06,,73,0,6,44,92,0.671,0.0,110,0.97,11.6,0.0,1,0.0,0.0,0.0,0,0,0,0,0,,,,,,,,,,,,,,,,,,,,
6843,0,8,4,248,251,237,232,0,0.04,0.04,0.99,0,-0,-0,0.06,1,73,0,6,44,93,0.671,0.0,110,0.97,11.8,0.0,1,0.0,0.0,0.0,0,0,0,0,0,0,250,250,0,0.0,0.0,0.0,0.0,0,0,0.0,0,0.0,-1,0.0,0.0,0.0,0,0.0,0.114
6863,0,,,248,251,237,232,,0.04,0.04,1.0,0,-0,-0,0.06,,73,0,6,44,92,0.671,0.0,110,0.97,11.9,0.0,1,0.0,0.0,0.0,0,0,0,0,0,,,,,,,,,,,,,,,,,,,,
6883,0,,,248,251,237,232,,0.04,0.04,1.0,0,0,0,0.05,,73,122,6,44,92,0.671,0.0,111,0.97,11.4,0.0,1,18.6,4.44,0.0,0,0,0,1,0,,,,,,,,,,,,,,,,,,,,
6903,0,,,248,251,237,232,,0.04,0.04,0.98,0,0,0,0.05,,73,122,6,44,93,0.671,0.0,111,1.65,11.6,0.0,1,18.6,2.09,0.0,0,0,0,1,0,,,,,,,,,,,,,,,,,,,,
6923,0,,,248,251,237,232,,0.04,0.03,0.98,0,0,0,0.05,,73,122,6,44,92,0.671,0.0,111,3.05,11.7,0.0,1,18.6,2.09,0.0,0,0,0,1,0,,,,,,,,,,,,,,,,,,,,
6943,0,8,4,248,251,237,232,0,0.04,0.04,0.99,0,-0,0,0.06,1,73,423,6,44,92,0.672,0.0,113,4.71,11.7,0.0,1,18.6,4.44,0.0,0,0,0,1,0,0,250,250,0,0.0,0.0,0.0,0.0,0,0,0.0,0,0.0,-1,0.0,,0.0,0,0.0,0.1157
6963,0,,,248,251,237,232,,0.04,0.04,1.0,0,0,0,0.06,,73,423,6,44,92,0.671,0.0,113,4.7,11.5,0.0,1,18.6,4.44,0.0,0,0,0,1,0,,,,,,,,,,,,,,,,,,,,
6983,0,,,248,251,237,232,,0.04,0.04,0.98,0,0,0,0.05,,73,423,6,44,93,0.671,0.0,113,4.69,11.6,0.0,1,18.6,2.09,0.8,0,0,0,1,0,,,,,,,,,,,,,,,,,,,,
7003,0,,,248,251,237,232,,0.04,0.04,1.0,0,-0,0,0.06,,73,423,6,44,92,0.671,0.0,113,4.74,11.7,0.0,1,18.6,4.44,0.8,0,0,0,1,0,,,,,,,,,,,,,,,,,,,,
7023,0,,,248,251,237,232,,0.04,0.04,1.0,0,0,0,0.05,,73,423,6,44,91,0.669,0.0,110,4.76,11.2,0.0,1,18.6,4.44,0.8,0,0,0,1,0,,,,,,,,,,,,,,,,,,,,
7043,0,8,4,248,251,237,232,0,0.04,0.03,0.99,0,0,0,0.05,1,73,423,6,44,93,0.667,0.0,113,4.77,11.5,0.0,1,18.6,4.44,0.8,0,0,0,1,0,0,250,250,0,0.0,0.0,0.0,0.0,0,0,0.0,0,0.0,-1,0.0,0.0,0.0,0,0.0,0.1174
7063,0,,,248,251,237,232,,0.04,0.03,0.98,0,0,0,0.05,,73,666,6,44,91,0.666,0.0,112,4.76,11.5,0.0,1,18.6,4.44,0.8,0,0,0,1,0,,,,,,,,,,,,,,,,,,,,
7083,0,,,248,251,237,232,,0.04,0.03,0.99,0,0,0,0.05,,73,1233,6,44,91,0.665,0.0,118,4.73,11.9,0.0,1,20.0,4.44,1.3,0,0,0,1,0,,,,,,,,,,,,,,,,,,,,
7103,0,,,248,251,237,232,,0.04,0.03,0.97,0,0,0,0.05,,73,1476,11,44,90,0.66,0.0,116,4.71,11.7,0.0,1,20.0,2.09,1.3,0,0,0,1,0,,,,,,,,,,,,,,,,,,,,
7123,0,,,248,251,237,232,,0.04,0.04,1.0,0,0,0,0.06,,73,1476,18,44,90,0.652,0.0,113,4.68,11.4,0.0,1,22.8,7.73,1.3,0,0,0,1,0,,,,,,,,,,,,,,,,,,,,
7143,0,7,4,248,251,237,232,1,0.05,0.04,1.02,0,-0,0,0.06,1,74,1339,26,44,90,0.643,0.0,112,4.63,11.1,0.0,1,21.7,2.09,1.3,0,0,0,1,0,0,250,250,0,0.0,0.0,0.0,0.0,0,0,0.0,0,0.0,-1,0.0,,0.0,0,0.0,0.119
7163,0,,,248,251,237,232,,0.05,0.04,0.99,0,0,0,0.06,,74,1189,33,44,90,0.632,0.0,110,4.6,10.9,0.0,1,20.5,2.09,1.3,0,0,0,1,0,,,,,,,,,,,,,,,,,,,,
7183,0,,,248,251,237,232,,0.05,0.03,0.99,0,0,0,0.06,,74,1007,40,44,90,0.619,0.0,110,4.61,10.9,0.0,1,19.0,2.09,4.2,0,0,0,1,0,,,,,,,,,,,,,,,,,,,,
7203,0,,,248,251,237,232,,0.05,0.03,0.95,0,0,0,0.06,,74,1007,44,44,91,0.609,0.0,113,4.63,11.2,0.0,1,20.3,7.69,4.2,0,0,0,1,0,,,,,,,,,,,,,,,,,,,,
7223,0,,,248,251,237,232,,0.05,0.03,0.97,0,0,0,0.06,,74,1068,46,44,92,0.6,0.0,118,4.68,11.6,0.0,1,22.2,2.09,4.2,0,0,0,1,0,,,,,,,,,,,,,,,,,,,,
7243,0,6,2,248,251,237,232,1,0.05,0.04,0.97,0,-0,0,0.06,1,73,1453,47,44,92,0.593,0.0,128,4.68,11.9,0.0,1,25.3,7.73,4.2,0,0,0,1,0,0,250,250,0,0.0,0.0,0.0,0.0,0,0,0.0,0,0.0,-1,0.0,0.0,0.0,0,0.0,0.1207
7263,0,,,248,251,237,232,,0.05,0.03,0.94,0,-0,0,0.06,,73,1621,47,44,93,0.59,0.0,137,4.75,12.3,0.0,1,27.1,6.75,4.2,0,0,0,1,0,,,,,,,,,,,,,,,,,,,,
7283,0,,,248,251,237,232,,0.05,0.03,0.92,0,-0,0,0.06,,73,1529,47,44,93,0.591,0.0,140,4.74,12.3,0.0,1,27.1,6.75,4.7,0,0,0,1,0,,,,,,,,,,,,,,,,,,,,
7303,0,,,248,251,237,232,,0.05,0.03,0.94,0,-0,0,0.06,,73,1418,47,44,93,0.59,0.0,143,4.75,12.3,0.0,1,26.4,6.66,4.7,0,0,0,1,0,,,,,,,,,,,,,,,,,,,,
7323,0,,,248,251,237,232,,0.05,0.03,0.94,0,-0,0,0.06,,73,1347,43,44,93,0.589,0.0,143,4.74,12.3,0.0,1,25.8,6.66,4.7,0,0,0,1,0,,,,,,,,,,,,,,,,,,,,
7343,0,6,3,248,251,237,232,-0,0.05,0.03,0.94,0,-0,0,0.06,1,73,1504,32,44,93,0.589,0.0,148,4.73,12.4,0.0,1,27.1,5.71,4.7,0,0,0,1,0,0,250,250,0,0.0,0.0,0.0,0.0,0,0,0.0,0,0.0,-1,0.0,,0.0,0,0.0,0.1224
7363,0,,,248,251,237,232,,0.06,0.03,0.95,0,-0,0,0.06,,73,1946,20,44,92,0.593,0.0,153,4.76,12.2,0.0,1,25.7,5.63,4.7,0,0,0,1,0,,,,,,,,,,,,,,,,,,,,
7383,0,,,248,251,237,232,,0.05,0.03,0.92,0,0,0,0.06,,73,1853,11,44,90,0.599,0.0,157,4.71,12.3,0.0,1,20.0,5.63,5.0,0,0,0,1,0,,,,,,,,,,,,,,,,,,,,
7403,0,,,248,251,237,232,,0.05,0.03,0.99,0,-0,0,0.06,,73,1758,9,44,90,0.609,0.0,162,4.76,12.4,0.0,1,20.0,5.56,5.0,0,0,0,1,0,,,,,,,,,,,,,,,,,,,,
7423,0,,,248,251,237,232,,0.04,0.03,0.96,0,0,0,0.06,,73,1760,9,44,89,0.619,0.0,165,4.75,12.4,0.0,1,20.0,5.49,5.0,0,0,0,1,0,,,,,,,,,,,,,,,,,,,,
7443,0,6,3,248,251,237,232,1,0.05,0.03,0.95,0,-0,0,0.06,1,73,1944,13,44,89,0.626,0.0,170,4.71,12.3,0.0,1,21.5,5.43,5.0,0,0,0,1,0,0,250,250,0,0.0,0.0,0.0,0.0,0,0,0.0,0,0.0,-1,0.0,0.0,0.0,0,0.0,0.124
7463,0,,,248,251,237,232,,0.05,0.04,0.95,0,-0,0,0.06,,73,1942,19,44,89,0.635,0.0,173,4.75,12.4,0.0,1,21.5,5.36,5.0,0,0,0,1,0,,,,,,,,,,,,,,,,,,,,
7483,0,,,248,251,237,232,,0.05,0.04,1.0,0,-0,0,0.06,,73,1848,23,44,90,0.64,0.0,175,4.76,12.4,0.0,1,23.0,5.85,5.2,0,0,0,1,0,,,,,,,,,,,,,,,,,,,,
7503,0,,,248,251,237,232,,0.04,0.03,0.99,0,-0,0,0.06,,73,1771,28,44,92,0.644,0.0,178,4.77,12.4,0.0,1,25.7,5.85,5.2,0,0,0,1,0,,,,,,,,,,,,,,,,,,,,
7523,0,,,248,251,237,232,,0.05,0.03,0.98,0,-0,0,0.05,,73,1782,32,44,92,0.644,0.0,178,4.76,12.4,0.0,1,25.7,5.85,5.2,0,0,0,1,0,,,,,,,,,,,,,,,,,,,,
7543,0,5,4,248,251,237,232,1,0.04,0.02,0.99,0,-0,-0,0.05,1,73,2072,32,44,92,0.645,0.0,182,4.75,12.4,0.0,1,25.7,5.85,5.2,0,0,0,1,0,0,250,250,0,0.0,0.0,0.0,0.0,0,0,0.0,0,0.0,-1,0.0,,0.0,0,0.0,0.1257
7563,0,,,248,251,237,232,,0.05,0.02,0.96,0,-0,0,0.05,,73,2161,32,44,92,0.646,0.0,188,4.76,12.4,0.0,1,25.7,5.85,5.2,0,0,0,1,0,,,,,,,,,,,,,,,,,,,,
7583,0,,,248,251,237,232,,0.05,0.02,0.96,0,-0,0,0.05,,73,2140,32,44,92,0.645,0.0,192,4.71,12.2,0.0,1,25.7,5.78,5.8,0,0,0,1,0,,,,,,,,,,,,,,,,,,,,
7603,0,,,248,251,237,232,,0.05,0.02,0.96,0,-0,0,0.06,,73,2255,32,44,92,0.644,0.0,195,4.77,12.5,0.0,1,25.7,5.78,5.8,0,0,0,1,0,,,,,,,,,,,,,,,,,,,,
7623,0,,,248,251,237,232,,0.03,0.03,0.98,0,0,0,0.05,,73,2619,26,44,91,0.643,0.0,201,4.77,12.4,0.0,1,24.6,5.8,5.8,0,0,0,1,0,,,,,,,,,,,,,,,,,,,,
7643,0,6,2,248,251,237,232,1,0.03,0.04,0.95,0,1,-0,0.05,1,73,2780,16,44,90,0.643,0.0,206,4.77,12.4,0.0,1,24.1,5.79,5.8,0,0,0,1,0,0,250,250,0,0.0,0.0,0.0,0.0,0,0,0.0,0,0.0,-1,0.0,0.0,0.0,0,0.0,0.1274
7663,0,,,248,251,237,232,,0.03,0.05,1.07,0,2,-0,0.05,,73,3199,6,44,88,0.643,0.0,220,4.77,12.4,0.0,1,24.2,5.99,5.8,0,0,0,1,0,,,,,,,,,,,,,,,,,,,,
7683,0,,,248,251,237,232,,0.03,0.04,1.0,0,2,-0,0.05,,73,3449,6,44,86,0.642,0.0,239,4.76,12.4,0.0,1,0.0,6.01,9.5,0,0,0,1,0,,,,,,,,,,,,,,,,,,,,
7703,0,,,248,251,237,232,,0.03,0.02,1.05,0,2,-0,0.04,,73,3448,6,44,84,0.641,0.0,261,4.73,12.4,0.0,1,0.0,5.43,9.5,0,0,0,1,0,,,,,,,,,,,,,,,,,,,,
7723,0,,,248,251,237,232,,0.04,0.02,1.11,0,2,-0,0.04,,73,3388,6,44,82,0.64,0.0,278,4.78,12.4,0.0,1,0.0,4.97,9.5,0,0,0,1,0,,,,,,,,,,,,,,,,,,,,
7743,0,6,2,248,251,237,232,1,0.03,0.03,1.07,0,2,-0,0.04,1,73,3331,6,44,81,0.638,0.0,283,4.77,12.4,0.0,1,21.7,4.6,9.5,0,0,0,1,0,0,250,250,0,0.0,0.0,0.0,0.0,0,0,0.0,0,0.0,-1,0.0,,0.0,0,0.0,0.129
7763,0,,,248,251,237,232,,0.03,0.03,1.0,0,3,0,0.04,,73,3279,6,44,80,0.635,0.0,290,4.75,12.4,0.0,1,21.4,4.47,9.5,0,0,0,1,0,,,,,,,,,,,,,,,,,,,,
7783,0,,,248,251,237,232,,0.03,0.01,0.96,0,2,-0,0.04,,73,3206,6,44,79,0.633,0.0,294,4.75,12.4,0.0,1,0.0,4.23,6.5,0,0,0,1,0,,,,,,,,,,,,,,,,,,,,
7803,0,,,248,251,237,232,,0.04,0.0,0.93,0,1,-0,0.04,,73,3139,6,44,78,0.631,0.0,295,4.73,12.3,0.0,1,20.7,4.03,6.5,0,0,0,1,0,,,,,,,,,,,,,,,,,,,,
7823,0,,,248,250,237,232,,0.05,-0.01,0.89,0,1,0,0.05,,73,3036,6,44,77,0.63,0.0,295,4.73,12.7,0.0,1,0.0,1.82,6.5,0,0,0,1,0,,,,,,,,,,,,,,,,,,,,
7843,0,6,3,248,249,237,232,0,0.05,-0.02,0.82,0,-0,0,0.06,1,73,2971,6,44,77,0.631,0.0,292,4.72,12.8,0.0,1,0.0,1.8,6.5,0,0,0,1,0,0,250,250,0,0.0,0.0,0.0,0.0,0,0,0.0,0,0.0,-1,0.0,0.0,0.0,0,0.0,0.1307
7863,0,,,248,249,237,232,,0.06,-0.02,0.77,0,-1,1,0.07,,73,2932,6,44,76,0.631,0.0,287,4.74,12.8,0.0,1,0.0,1.77,6.5,0,0,0,1,0,,,,,,,,,,,,,,,,,,,,
7883,0,,,248,249,237,232,,0.06,-0.03,0.75,0,-3,1,0.07,,73,2972,6,44,76,0.63,0.0,288,4.76,12.9,0.0,1,0.0,3.67,5.0,0,0,0,1,0,,,,,,,,,,,,,,,,,,,,
7903,0,,,248,249,237,232,,0.07,-0.03,0.74,0,-4,0,0.08,,73,2908,6,44,76,0.629,0.0,283,4.78,13.0,0.0,1,0.0,3.62,5.0,0,0,0,1,0,,,,,,,,,,,,,,,,,,,,
7923,0,,,248,249,237,232,,0.06,-0.04,0.82,0,-5,-0,0.08,,73,2865,6,44,76,0.628,0.0,283,4.81,13.0,0.0,1,0.0,3.57,5.0,0,0,0,1,0,,,,,,,,,,,,,,,,,,,,
7943,0,6,2,248,249,237,232,1,0.05,-0.03,0.86,0,-5,-0,0.06,1,73,2798,6,44,76,0.627,0.0,279,4.75,13.0,0.0,1,-0.4,3.52,5.0,0,0,0,1,0,0,250,250,0,0.0,0.0,0.0,0.0,0,0,0.0,0,0.0,-1,0.0,,0.0,0,0.0,0.1324
7963,0,,,248,251,237,232,,0.03,-0.03,0.8,0,-3,0,0.04,,73,2768,6,44,76,0.627,0.0,277,4.81,12.9,0.0,1,-0.4,3.47,5.0,0,0,0,1,0,,,,,,,,,,,,,,,,,,,,
7983,0,,,248,249,237,232,,0.03,-0.02,0.86,0,-1,-0,0.04,,73,2696,6,44,76,0.627,0.0,277,4.76,12.6,0.0,1,-0.4,3.42,4.4,0,0,0,1,0,,,,,,,,,,,,,,,,,,,,
8003,0,,,248,250,237,232,,0.05,-0.01,0.88,0,-1,-0,0.05,,73,2647,6,44,76,0.627,0.0,268,4.73,12.9,0.0,1,-0.4,3.37,4.4,0,0,0,1,0,,,,,,,,,,,,,,,,,,,,
8023,0,,,248,249,237,232,,0.06,-0.01,0.84,0,-2,-0,0.06,,73,2617,12,44,77,0.628,0.0,267,4.8,13.0,0.0,1,-0.4,3.35,4.4,0,0,0,1,0,,,,,,,,,,,,,,,,,,,,
8043,0,6,3,248,249,237,232,0,0.03,-0.0,0.9,0,-2,-0,0.03,1,73,2619,17,44,79,0.627,0.0,265,4.76,13.0,0.0,1,15.4,3.4,4.4,0,0,0,1,0,0,250,250,0,0.0,0.0,0.0,0.0,0,0,0.0,0,0.0,-1,0.0,0.0,0.0,0,0.0,0.134
8063,0,,,248,250,237,232,,0.04,0.0,0.91,0,-1,-0,0.04,,73,2628,20,44,82,0.627,0.0,263,4.81,12.8,0.0,1,15.5,4.77,4.4,0,0,0,1,0,,,,,,,,,,,,,,,,,,,,
8083,0,,,248,250,237,232,,0.05,0.01,0.98,0,-1,-0,0.05,,73,2758,24,44,85,0.625,0.0,262,4.73,12.7,0.0,1,19.6,2.03,5.8,0,0,0,1,0,,,,,,,,,,,,,,,,,,,,
8103,0,,,248,249,237,232,,0.06,-0.0,0.9,0,-2,0,0.06,,73,3053,27,44,88,0.626,0.0,266,4.72,12.8,0.0,1,24.2,5.29,5.8,0,0,0,1,0,,,,,,,,,,,,,,,,,,,,
8123,0,,,248,250,237,232,,0.06,0.0,0.97,0,-2,-0,0.06,,73,3352,27,44,89,0.626,0.0,281,4.74,12.8,0.0,1,24.6,2.54,5.8,0,0,0,1,0,,,,,,,,,,,,,,,,,,,,
8143,0,6,3,248,249,237,232,1,0.07,0.0,0.89,0,-3,-0,0.07,1,73,3547,28,44,90,0.627,0.0,307,4.8,13.0,0.0,1,25.2,6.35,5.8,0,0,0,1,0,0,250,250,0,0.0,0.0,0.0,0.0,0,0,0.0,0,0.0,-1,0.0,,0.0,0,0.0,0.1357
8163,0,,,248,250,237,232,,0.04,-0.0,1.08,0,-2,-0,0.04,,73,3943,28,44,90,0.626,0.0,328,4.75,12.7,0.0,1,27.1,6.19,5.8,0,0,0,1,0,,,,,,,,,,,,,,,,,,,,
8183,0,,,248,249,237,232,,-0.01,0.02,1.19,0,-2,1,0.02,,73,4315,27,44,89,0.627,0.0,366,4.75,12.8,0.0,1,31.9,2.56,11.3,0,0,0,1,0,,,,,,,,,,,,,,,,,,,,
8203,0,,,248,251,237,232,,-0.04,0.03,1.33,0,1,2,0.05,,73,4682,22,44,88,0.628,0.0,409,4.8,12.7,0.0,1,37.3,2.51,11.3,0,0,0,1,0,,,,,,,,,,,,,,,,,,,,
8223,0,,,248,250,237,232,,-0.0,0.05,1.53,0,-2,-1,0.05,,73,5018,12,44,85,0.628,0.0,452,4.8,13.0,0.0,1,41.2,5.68,11.3,0,0,0,1,0,,,,,,,,,,,,,,,,,,,,
8243,0,5,4,248,249,237,232,-0,-0.07,0.0,1.41,0,2,3,0.07,1,73,5439,6,44,81,0.628,0.0,514,4.72,12.8,0.0,1,38.8,2.93,11.3,0,0,0,1,0,0,250,250,0,0.0,0.0,0.0,0.0,0,0,0.0,0,0.0,-1,0.0,0.0,0.0,0,0.0,0.1374
8263,0,,,248,251,237,232,,0.03,-0.04,1.61,-1,-5,-5,0.05,,73,5903,6,44,76,0.627,0.0,563,4.71,12.8,0.0,1,37.1,6.04,11.3,0,0,0,1,0,,,,,,,,,,,,,,,,,,,,
8283,0,,,248,250,237,232,,0.05,-0.06,1.72,-1,-8,-8,0.08,,73,6161,6,44,72,0.628,0.0,600,4.7,12.7,0.0,1,37.0,2.62,16.1,0,0,0,1,0,,,,,,,,,,,,,,,,,,,,
8303,0,,,248,250,237,232,,-0.0,-0.06,1.58,-1,-10,-10,0.06,,73,6125,6,44,69,0.627,0.0,618,4.68,12.6,0.0,1,36.2,2.36,16.1,0,0,0,1,0,,,,,,,,,,,,,,,,,,,,
8323,0,,,248,251,237,232,,-0.08,-0.06,1.46,-1,-9,-9,0.1,,73,6141,6,44,65,0.626,0.0,619,4.7,12.7,0.0,1,35.5,3.77,16.1,0,0,0,1,0,,,,,,,,,,,,,,,,,,,,
8343,0,5,4,248,251,237,232,1,-0.13,-0.07,1.35,-1,-6,-6,0.15,1,73,6093,6,44,62,0.624,0.0,623,4.65,12.6,0.0,1,34.6,2.92,16.1,0,0,0,1,0,0,250,250,0,0.0,0.0,0.0,0.0,0,0,0.0,0,0.0,-1,0.0,,0.0,0,0.0,0.1391
8363,0,,,248,251,237,232,,-0.16,-0.04,1.24,-1,-3,-2,0.16,,73,6135,6,44,59,0.622,0.0,625,4.7,12.9,0.0,1,34.1,2.66,16.1,0,0,0,1,0,,,,,,,,,,,,,,,,,,,,
8383,0,,,248,250,237,232,,-0.11,-0.01,1.4,-0,0,1,0.11,,73,6325,6,44,57,0.621,0.0,633,4.72,13.0,0.0,1,34.3,2.64,7.5,0,0,0,1,0,,,,,,,,,,,,,,,,,,,,
8403,0,,,248,249,237,232,,-0.04,0.02,1.6,-0,-1,-1,0.05,,73,6343,6,44,55,0.62,0.0,631,4.78,12.9,0.0,1,33.9,1.12,7.5,0,0,0,1,0,,,,,,,,,,,,,,,,,,,,
8423,0,,,248,249,237,232,,-0.01,-0.0,1.68,-0,-5,-4,0.01,,73,6287,6,44,53,0.619,0.0,628,4.77,12.9,0.0,1,33.2,1.13,7.5,0,0,0,1,0,,,,,,,,,,,,,,,,,,,,
8443,0,5,4,248,249,237,232,1,-0.09,-0.05,1.55,-0,-4,-3,0.1,1,73,6496,6,44,51,0.616,0.0,632,4.71,12.8,0.0,1,33.3,2.42,7.5,0,0,0,1,0,0,250,250,0,0.0,0.0,0.0,0.0,0,0,0.0,0,0.0,-1,0.0,0.0,0.0,0,0.0,0.1407
8463,0,,,248,251,237,232,,-0.03,0.01,1.74,-0,-2,-1,0.03,,73,6535,6,44,50,0.615,0.0,641,4.77,13.0,0.0,1,33.1,2.35,7.5,0,0,0,1,0,,,,,,,,,,,,,,,,,,,,
8483,0,,,248,251,237,232,,-0.01,-0.01,1.68,-0,-5,-4,0.01,,73,6663,6,44,49,0.615,0.0,638,4.76,12.7,0.0,1,33.2,1.14,7.1,0,0,0,1,0,,,,,,,,,,,,,,,,,,,,
8503,0,,,248,250,237,232,,-0.03,-0.02,1.55,-0,-2,-1,0.04,,73,6732,6,44,47,0.614,0.0,644,4.68,12.8,0.0,1,32.8,2.21,7.1,0,0,0,1,0,,,,,,,,,,,,,,,,,,,,
8523,0,,,248,250,237,232,,-0.01,0.01,1.55,-0,-4,-3,0.02,,73,6823,6,44,46,0.613,0.0,638,4.76,12.7,0.0,1,32.7,1.13,7.1,0,0,0,1,0,,,,,,,,,,,,,,,,,,,,
8543,0,5,3,248,250,237,232,-0,0.0,0.02,1.62,-0,-1,-1,0.02,1,73,6863,6,44,45,0.611,0.0,639,4.68,12.9,0.0,1,32.4,2.22,7.1,0,0,0,1,0,0,250,250,0,0.0,0.0,0.0,0.0,0,0,0.0,0,0.0,-1,0.0,,0.0,0,0.0,0.1424
8563,0,,,248,250,237,232,,-0.03,0.03,1.5,-0,-2,-1,0.05,,73,6957,6,44,44,0.611,0.0,640,4.66,12.7,0.0,1,32.4,2.22,7.1,0,0,0,1,0,,,,,,,,,,,,,,,,,,,,
8583,0,,,248,250,237,232,,0.01,0.03,1.69,-0,-3,-3,0.04,,73,6967,6,44,43,0.611,0.0,642,4.76,12.9,0.0,1,32.1,1.14,7.1,0,0,0,1,0,,,,,,,,,,,,,,,,,,,,
8603,0,,,248,251,237,232,,0.0,0.04,1.56,-0,-1,-0,0.04,,73,7019,7,43,43,0.611,0.0,647,4.66,12.8,0.0,1,32.2,2.23,7.1,0,0,0,1,0,,,,,,,,,,,,,,,,,,,,
8623,0,,,248,250,237,232,,-0.02,0.03,1.44,-0,-1,-1,0.04,,73,7035,9,44,42,0.611,0.0,642,4.73,12.7,0.0,1,31.9,2.23,7.1,0,0,0,1,0,,,,,,,,,,,,,,,,,,,,
8643,0,5,3,248,251,237,232,1,0.0,0.02,1.6,-0,-3,-3,0.02,1,73,7078,12,43,43,0.61,0.0,642,4.78,12.8,0.0,1,32.3,2.23,7.1,0,0,0,1,0,0,250,250,0,0.0,0.0,0.0,0.0,0,0,0.0,0,0.0,-1,0.0,0.0,0.0,0,0.0,0.144
8663,0,,,248,251,237,232,,0.02,0.01,1.72,-0,-1,-2,0.02,,73,7115,12,43,45,0.609,0.0,648,4.73,12.9,0.0,1,33.0,2.22,7.1,0,0,0,1,0,,,,,,,,,,,,,,,,,,,,
8683,0,,,248,251,237,232,,0.0,0.03,1.59,-0,0,0,0.03,,73,7167,12,43,46,0.609,0.0,646,4.7,12.7,0.0,1,33.5,2.22,7.3,0,0,0,1,0,,,,,,,,,,,,,,,,,,,,
8703,0,,,248,250,237,232,,-0.02,0.02,1.46,0,0,0,0.03,,73,7217,12,43,47,0.61,0.0,646,4.75,12.7,0.0,1,34.0,2.22,7.3,0,0,0,1,0,,,,,,,,,,,,,,,,,,,,
8723,0,,,248,251,237,232,,-0.01,0.01,1.46,0,-2,-1,0.02,,73,7222,12,43,48,0.609,0.0,649,4.78,12.7,0.0,1,34.3,1.13,7.3,0,0,0,1,0,,,,,,,,,,,,,,,,,,,,
8743,0,5,2,248,250,237,232,1,0.02,-0.0,1.62,0,-2,-2,0.02,1,73,7250,12,43,48,0.61,0.0,655,4.73,13.0,0.0,1,34.4,1.13,7.3,0,0,0,1,0,0,250,250,0,0.0,0.0,0.0,0.0,0,0,0.0,0,0.0,-1,0.0,,0.0,0,0.0,0.1457
8763,0,,,248,249,237,232,,0.04,-0.03,1.7,0,-2,-2,0.05,,73,7273,12,43,49,0.609,0.0,652,4.75,12.9,0.0,1,34.7,1.14,7.3,0,0,0,1,0,,,,,,,,,,,,,,,,,,,,
8783,0,,,248,250,237,232,,0.05,-0.01,1.73,0,-1,-1,0.05,,73,7275,12,43,49,0.609,0.0,650,4.79,13.0,0.0,1,34.7,2.23,7.5,0,0,0,1,0,,,,,,,,,,,,,,,,,,,,
8803,0,,,248,250,237,232,,0.03,-0.01,1.6,0,1,1,0.03,,73,7236,11,43,49,0.608,0.0,653,4.67,12.9,0.0,1,34.6,2.23,7.5,0,0,0,1,0,,,,,,,,,,,,,,,,,,,,
8823,0,,,248,251,237,232,,0.01,-0.04,1.48,0,1,1,0.04,,73,7214,11,43,49,0.609,0.0,649,4.76,12.7,0.0,1,34.6,2.22,7.5,0,0,0,1,0,,,,,,,,,,,,,,,,,,,,
8843,0,5,3,248,249,237,232,1,0.02,-0.02,1.54,0,-1,-1,0.03,1,73,7192,11,43,48,0.609,0.0,646,4.77,12.7,0.0,1,34.3,1.12,7.5,0,0,0,1,0,0,250,250,0,0.0,0.0,0.0,0.0,0,0,0.0,0,0.0,-1,0.0,0.0,0.0,0,0.0,0.1474
8863,0,,,248,249,237,232,,0.05,-0.04,1.73,0,-1,-1,0.06,,73,7142,11,43,48,0.608,0.0,650,4.71,13.0,0.0,1,34.1,2.2,7.5,0,0,0,1,0,,,,,,,,,,,,,,,,,,,,
8883,0,,,248,249,237,232,,0.05,-0.01,1.72,0,0,0,0.05,,73,7161,11,43,48,0.608,0.0,648,4.63,12.9,0.0,1,34.2,2.21,7.3,0,0,0,1,0,,,,,,,,,,,,,,,,,,,,
8903,0,,,248,250,237,232,,0.01,-0.01,1.58,0,1,1,0.02,,73,7072,11,43,48,0.609,0.0,643,4.72,12.7,0.0,1,33.9,2.2,7.3,0,0,0,1,0,,,,,,,,,,,,,,,,,,,,
8923,0,,,248,251,237,232,,0.03,-0.02,1.7,0,-1,-1,0.03,,73,7043,11,43,48,0.609,0.0,641,4.78,12.8,0.0,1,33.7,2.19,7.3,0,0,0,1,0,,,,,,,,,,,,,,,,,,,,
8943,0,5,3,248,250,237,232,0,0.05,-0.03,1.73,0,0,0,0.06,1,73,6947,11,43,48,0.609,0.0,646,4.68,12.9,0.0,1,33.5,2.2,7.3,0,0,0,1,0,0,250,250,0,0.0,0.0,0.0,0.0,0,0,0.0,0,0.0,-1,0.0,,0.0,0,0.0,0.149
8963,0,,,248,250,237,232,,-0.0,-0.01,1.6,0,-0,-0,0.01,,73,6858,11,43,48,0.609,0.0,645,4.71,12.8,0.0,1,33.3,2.21,7.3,0,0,0,1,0,,,,,,,,,,,,,,,,,,,,
8983,0,,,248,249,237,232,,0.04,-0.02,1.78,0,-0,-1,0.05,,73,6791,11,43,48,0.61,0.0,647,4.76,13.0,0.0,1,33.2,2.22,7.0,0,0,0,1,0,,,,,,,,,,,,,,,,,,,,
9003,0,,,248,249,237,232,,-0.02,0.02,1.65,0,1,1,0.03,,73,6858,11,43,49,0.61,0.0,642,4.72,12.7,0.0,1,33.6,2.21,7.0,0,0,0,1,0,,,,,,,,,,,,,,,,,,,,
9023,0,,,248,249,237,232,,0.03,0.03,1.83,0,-2,-1,0.04,,73,6908,11,43,48,0.611,0.0,644,4.78,12.8,0.0,1,33.4,2.2,7.0,0,0,0,1,0,,,,,,,,,,,,,,,,,,,,
9043,0,5,4,248,251,237,232,-0,0.02,0.04,1.69,0,1,1,0.05,1,73,6978,11,43,48,0.611,0.0,647,4.7,12.9,0.0,1,33.6,2.2,7.0,0,0,0,1,0,0,250,250,0,0.0,0.0,0.0,0.0,0,0,0.0,0,0.0,-1,0.0,0.0,0.0,0,0.0,0.1507
9063,0,,,248,250,237,232,,0.0,0.02,1.56,0,0,1,0.02,,73,7051,11,43,48,0.611,0.0,642,4.77,12.8,0.0,1,33.8,2.19,7.0,0,0,0,1,0,,,,,,,,,,,,,,,,,,,,
9083,0,,,248,250,237,232,,0.03,0.02,1.71,0,-1,-1,0.04,,73,7059,11,43,48,0.612,0.0,645,4.78,13.0,0.0,1,33.8,2.19,7.1,0,0,0,1,0,,,,,,,,,,,,,,,,,,,,
9103,0,,,248,249,237,232,,0.05,0.01,1.72,0,-0,-0,0.05,,73,7051,11,43,48,0.611,0.0,647,4.66,13.0,0.0,1,33.8,2.19,7.1,0,0,0,1,0,,,,,,,,,,,,,,,,,,,,
9123,0,,,248,250,237,232,,0.02,0.04,1.59,0,1,2,0.05,,73,7064,11,43,48,0.611,0.0,643,4.71,12.7,0.0,1,33.9,2.19,7.1,0,0,0,1,0,,,,,,,,,,,,,,,,,,,,
9143,0,4,4,248,249,237,232,0,0.04,0.05,1.62,0,-1,-0,0.07,1,73,7022,11,43,48,0.612,0.0,642,4.74,12.7,0.0,1,33.7,1.1,7.1,0,0,0,1,0,0,250,250,0,0.0,0.0,0.0,0.0,0,0,0.0,0,0.0,-1,0.0,,0.0,0,0.0,0.1524
9163,0,,,248,251,237,232,,0.07,0.07,1.77,0,0,0,0.09,,73,6954,11,43,48,0.612,0.0,645,4.7,13.0,0.0,1,33.5,1.11,7.1,0,0,0,1,0,,,,,,,,,,,,,,,,,,,,
9183,0,,,248,250,237,232,,0.02,0.05,1.64,0,1,2,0.05,,73,6996,11,43,48,0.612,0.0,647,4.7,12.9,0.0,1,33.6,2.2,7.1,0,0,0,1,0,,,,,,,,,,,,,,,,,,,,
9203,0,,,248,250,237,232,,0.05,0.05,1.79,0,-1,-1,0.06,,73,6949,11,43,48,0.612,0.0,642,4.72,12.8,0.0,1,33.5,1.11,7.1,0,0,0,1,0,,,,,,,,,,,,,,,,,,,,
9223,0,,,248,250,237,232,,0.05,0.05,1.75,0,1,1,0.07,,73,6900,11,43,48,0.612,0.0,647,4.77,13.0,0.0,1,33.4,2.2,7.1,0,0,0,1,0,,,,,,,,,,,,,,,,,,,,
9243,0,5,3,248,249,237,232,1,0.01,0.06,1.61,0,1,1,0.06,1,74,6900,11,43,48,0.612,0.0,645,4.77,12.7,0.0,1,33.4,2.2,7.1,0,0,0,1,0,0,250,250,0,0.0,0.0,0.0,0.0,0,0,0.0,0,0.0,-1,0.0,0.0,0.0,0,0.0,0.154
9263,0,,,248,250,237,232,,0.05,0.05,1.8,0,-1,-1,0.07,,74,6908,11,43,48,0.613,0.0,647,4.77,12.9,0.0,1,33.4,2.2,7.1,0,0,0,1,0,,,,,,,,,,,,,,,,,,,,
9283,0,,,248,249,237,232,,0.0,0.03,1.66,0,2,2,0.03,,74,6913,11,43,48,0.612,0.0,647,4.75,12.7,0.0,1,33.5,2.2,7.0,0,0,0,1,0,,,,,,,,,,,,,,,,,,,,
9303,0,,,248,250,237,232,,0.02,0.03,1.77,0,-1,-1,0.04,,74,6939,11,43,48,0.613,0.0,642,4.75,12.7,0.0,1,33.5,1.11,7.0,0,0,0,1,0,,,,,,,,,,,,,,,,,,,,
9323,0,,,248,250,237,232,,0.05,0.01,1.82,0,0,0,0.05,,73,6972,11,43,48,0.614,0.0,642,4.77,13.0,0.0,1,33.6,1.11,7.0,0,0,0,1,0,,,,,,,,,,,,,,,,,,,,
9343,0,5,3,248,249,237,232,-0,-0.0,0.03,1.68,0,1,1,0.03,1,73,6975,11,43,48,0.615,0.0,642,4.73,12.9,0.0,1,33.6,2.2,7.0,0,0,0,1,0,0,250,250,0,0.0,0.0,0.0,0.0,0,0,0.0,0,0.0,-1,0.0,,0.0,0,0.0,0.1557
9363,0,,,248,249,237,232,,0.03,0.02,1.81,0,-1,-1,0.03,,73,7030,11,43,48,0.615,0.0,642,4.76,12.7,0.0,1,33.7,1.1,7.0,0,0,0,1,0,,,,,,,,,,,,,,,,,,,,
9383,0,,,248,251,237,232,,0.05,0.01,1.95,0,-1,-1,0.06,,73,7038,11,43,48,0.616,0.0,646,4.72,13.0,0.0,1,33.8,2.19,7.1,0,0,0,1,0,,,,,,,,,,,,,,,,,,,,
9403,0,,,248,249,237,232,,0.01,0.02,1.8,0,1,1,0.02,,73,7083,11,43,48,0.616,0.0,647,4.68,12.7,0.0,1,33.9,2.2,7.1,0,0,0,1,0,,,,,,,,,,,,,,,,,,,,
9423,0,,,248,251,237,232,,0.02,-0.0,1.79,0,-1,-1,0.02,,73,7030,11,43,48,0.617,0.0,643,4.81,12.9,0.0,1,33.7,2.19,7.1,0,0,0,1,0,,,,,,,,,,,,,,,,,,,,
9443,0,4,3,248,251,237,232,1,0.06,-0.02,1.96,0,-1,-1,0.06,1,73,7014,11,43,48,0.617,0.0,644,4.8,12.9,0.0,1,33.7,2.19,7.1,0,0,0,1,0,0,250,250,0,0.0,0.0,0.0,0.0,0,0,0.0,0,0.0,-1,0.0,0.0,0.0,0,0.0,0.1574
9463,0,,,248,250,237,232,,0.0,-0.01,1.81,0,1,1,0.01,,73,6949,11,43,48,0.618,0.0,644,4.77,13.0,0.0,1,33.5,2.2,7.1,0,0,0,1,0,,,,,,,,,,,,,,,,,,,,
9483,0,,,248,249,237,232,,0.04,-0.02,1.89,0,-1,-1,0.04,,73,6923,11,43,47,0.618,0.0,647,4.73,12.7,0.0,1,33.2,2.2,7.0,0,0,0,1,0,,,,,,,,,,,,,,,,,,,,
9503,0,,,248,251,237,232,,0.06,-0.02,1.93,0,-0,-0,0.06,,73,6929,11,42,48,0.618,0.0,650,4.77,13.0,0.0,1,33.5,1.11,7.0,0,0,0,1,0,,,,,,,,,,,,,,,,,,,,
9523,0,,,248,249,237,232,,0.02,-0.01,1.78,0,1,1,0.02,,73,6934,11,43,47,0.618,0.0,650,4.72,12.7,0.0,1,33.2,2.2,7.0,0,0,0,1,0,,,,,,,,,,,,,,,,,,,,
9543,0,5,4,248,250,237,232,1,0.05,0.01,1.95,0,-1,-2,0.05,1,73,6975,11,42,48,0.617,0.0,645,4.76,12.8,0.0,1,33.6,1.11,7.0,0,0,0,1,0,0,250,250,0,0.0,0.0,0.0,0.0,0,0,0.0,0,0.0,-1,0.0,,0.0,0,0.0,0.159
9563,0,,,248,250,237,232,,0.04,0.01,1.8,0,1,0,0.04,,73,6996,11,42,48,0.618,0.0,649,4.66,12.9,0.0,1,33.6,2.2,7.0,0,0,0,1,0,,,,,,,,,,,,,,,,,,,,
9583,0,,,248,249,237,232,,-0.0,0.03,1.66,0,1,0,0.03,,73,6993,11,42,48,0.617,0.0,640,4.75,12.8,0.0,1,33.6,2.2,7.1,0,0,0,1,0,,,,,,,,,,,,,,,,,,,,
9603,0,,,248,249,237,232,,0.04,0.01,1.84,0,-1,-2,0.04,,73,6996,11,42,48,0.618,0.0,642,4.73,12.8,0.0,1,33.6,2.2,7.1,0,0,0,1,0,,,,,,,,,,,,,,,,,,,,
9623,0,,,248,250,237,232,,0.03,0.02,1.72,0,0,-0,0.03,,73,7035,11,42,48,0.617,0.0,643,4.76,13.0,0.0,1,33.8,1.1,7.1,0,0,0,1,0,,,,,,,,,,,,,,,,,,,,
9643,0,5,4,248,249,237,232,1,0.0,0.02,1.58,0,1,1,0.02,1,73,7038,11,42,48,0.616,0.0,643,4.73,12.9,0.0,1,33.8,2.19,7.1,0,0,0,1,0,0,250,250,0,0.0,0.0,0.0,0.0,0,0,0.0,0,0.0,-1,0.0,0.0,0.0,0,0.0,0.1607
9663,0,,,248,251,237,232,,0.02,0.02,1.77,0,-1,-2,0.03,,73,7033,11,42,48,0.616,0.0,641,4.77,12.8,0.0,1,33.8,1.1,7.1,0,0,0,1,0,,,,,,,,,,,,,,,,,,,,
9683,0,,,248,250,237,232,,0.04,0.02,1.75,0,-1,-1,0.04,,73,7006,11,42,48,0.617,0.0,641,4.79,13.0,0.0,1,33.7,2.19,7.1,0,0,0,1,0,,,,,,,,,,,,,,,,,,,,
9703,0,,,248,250,237,232,,-0.01,0.03,1.61,0,1,1,0.03,,73,6998,11,42,47,0.615,0.0,646,4.67,12.9,0.0,1,33.3,2.2,7.1,0,0,0,1,0,,,,,,,,,,,,,,,,,,,,
9723,0,,,248,250,237,232,,0.03,0.02,1.77,0,-1,-2,0.03,,73,7011,11,42,47,0.616,0.0,647,4.69,12.7,0.0,1,33.4,2.19,7.1,0,0,0,1,0,,,,,,,,,,,,,,,,,,,,
9743,0,5,3,248,250,237,232,-0,0.04,0.02,1.85,0,-1,-1,0.05,1,73,7017,11,42,48,0.617,0.0,651,4.78,13.0,0.0,1,33.7,1.1,7.1,0,0,0,1,0,0,250,250,0,0.0,0.0,0.0,0.0,0,0,0.0,0,0.0,-1,0.0,,0.0,0,0.0,0.1624
9763,0,,,248,250,237,232,,0.01,0.02,1.71,0,1,0,0.02,,73,7048,11,42,47,0.617,0.0,652,4.76,13.0,0.0,1,33.5,2.19,7.1,0,0,0,1,0,,,,,,,,,,,,,,,,,,,,
