"Interval"|"ms"|0|0|1,"Utc"|"ms"|0|0|1,"Brake_F"|"Bar"|0|2000|10,"Brake_R"|"Bar"|0|2000|10,"Height_RF"|"mm"|0|255|50,"Height_LF"|"mm"|0|255|50,"Height_LR"|"mm"|0|80|50,"Height_RR"|"mm"|0|255|50,"Steering"|"deg"|-100|100|10,"AccelX"|"G"|-3.0|3.0|50,"AccelY"|"G"|-3.0|3.0|50,"AccelZ"|"G"|-3.0|3.0|50,"Yaw"|"Deg/Sec"|-120|120|50,"Pitch"|"Deg/Sec"|-120|120|50,"Roll"|"Deg/Sec"|-120|120|50,"Gsum"|"G"|0.0|3.0|50,"Log_Button"|""|0.0|10.0|10,"WaterTemp"|"C"|0|150|50,"RPM"|"tr/min"|0|14000|50,"TPS"|"%"|0|100|50,"AirTemp"|"C"|0|150|50,"MAP"|"KPa"|0|100|50,"Lambda"|""|0.5|1.5|50,"SpeedDTA"|"kph"|0.0|250.0|50,"OilPress"|"KPa"|0|1500|50,"FuelPressur"|"Bar"|0.0|10.0|50,"Batterie"|"V"|0.0|20.0|50,"ConsoKm"|"L/100km"|0.0|200.0|50,"Gear"|""|0|6|50,"AdvIgnition"|"Deg"|-20.0|70.0|50,"Injection"|"ms"|0.0|10.0|50,"ConsoHr"|"L/Hr"|0.0|10000.0|50,"LC_But_Pres"|""|0|1|50,"LC_Active"|""|0|1|50,"TractionOn"|""|0|1|50,"TractionWet"|""|0|1|50,"FanOn"|""|0|1|50,"RD_Speed"|"km/h"|-30|250|10,"RUD_Speed"|"km/h"|-30|250|10,"LD_Speed"|"km/h"|-30|250|10,"LUD_Speed"|"km/h"|-30|250|10,"Latitude"|"Degrees"|-180.0|180.0|10,"Longitude"|"Degrees"|-180.0|180.0|10,"Speed"|"kph"|0.0|150.0|10,"Altitude"|"m"|0.0|4000.0|10,"GPSSats"|""|0|20|10,"GPSQual"|""|0|5|10,"GPSDOP"|""|0.0|20.0|10,"LapCount"|""|0|0|10,"LapTime"|"Min"|0.0|0.0|10,"Sector"|""|0|0|10,"SectorTime"|"Min"|0.0|0.0|10,"PredTime"|"Min"|0.0|0.0|5,"ElapsedTime"|"Min"|0.0|0.0|10,"CurrentLap"|""|0|0|10,"Distance"|"km"|0.0|0.0|10,"SessionTime"|"Min"|0.0|0.0|10
40064,1627482359546,,,246,251,238,235,,-0.06,0.01,1.05,-2,-0,-0,0.06,,67,4139,24,37,88,1.263,17.1,369,4.84,13.1,64.9,1,29.0,5.93,11.1,0,0,0,1,0,,,,,,,,,,,,,,,,,,,,
40084,1627482359566,,,246,251,238,235,,0.0,-0.02,0.97,-2,-1,0,0.02,,67,4331,24,37,88,1.274,17.1,395,4.85,13.2,64.9,1,31.8,2.52,11.1,0,0,0,1,0,,,,,,,,,,,,,,,,,,,,
40104,1627482359586,,,247,249,238,235,,0.08,-0.04,0.9,-2,-1,0,0.09,,67,4355,24,37,87,1.289,17.5,422,4.86,13.1,64.9,1,32.0,5.86,11.1,0,0,0,1,0,,,,,,,,,,,,,,,,,,,,
40124,1627482359606,,,249,252,236,233,,0.17,-0.04,0.83,-2,-1,1,0.17,,67,4062,24,37,87,1.301,18.4,413,4.82,13.2,64.9,1,27.6,5.68,11.1,0,0,0,1,0,,,,,,,,,,,,,,,,,,,,
40144,1627482359626,0,0,250,254,234,232,-8,0.13,-0.04,1.03,-3,-1,1,0.13,1,67,3983,19,37,87,1.311,18.7,405,4.88,12.8,64.9,1,26.5,5.65,11.1,0,0,0,1,0,196,-1,18432,187,47.221031,14.761069,17.92,686.7,9,2,1.7,0,0.0,-1,0.0,,0.0,0,0.02,0.6691
40164,1627482359646,,,251,254,233,230,,0.1,-0.04,1.24,-3,0,1,0.11,,67,4374,12,37,86,1.325,19.3,413,4.82,12.9,56.4,1,32.0,2.42,10.9,0,0,0,1,0,,,,,,,,,,,,,,,,,,,,
40184,1627482359666,,,252,255,233,230,,-0.06,0.01,1.45,-3,1,-0,0.06,,67,4673,9,37,83,1.335,18.9,439,4.87,13.1,56.4,1,35.7,2.42,10.9,0,0,0,1,0,,,,,,,,,,,,,,,,,,,,
40204,1627482359686,,,251,254,235,232,,-0.01,0.07,1.65,-3,-2,-3,0.07,,67,4789,9,37,80,1.325,18.9,471,4.87,13.0,56.4,1,36.5,3.36,10.9,0,0,0,1,0,,,,,,,,,,,,,,,,,,,,
40224,1627482359706,,,251,252,238,234,,0.03,-0.01,1.52,-3,-1,-2,0.03,,67,5064,10,37,78,1.312,18.1,500,4.86,13.2,56.4,1,39.0,3.57,10.9,0,0,0,1,0,,,,,,,,,,,,,,,,,,,,
40244,1627482359726,-1,2,251,251,239,236,-13,0.06,0.0,1.71,-4,0,-2,0.06,1,67,5358,14,37,77,1.299,18.5,542,4.8,13.0,56.4,1,38.1,3.73,10.9,0,0,0,1,0,178,-1,-1,185,47.221035,14.761072,17.85,686.9,9,2,1.7,0,0.0,-1,0.0,0.0,0.0,0,0.02,0.6707
40264,1627482359746,,,251,252,239,236,,0.01,-0.03,1.58,-4,1,-1,0.03,,67,5595,15,37,76,1.283,18.9,568,4.88,13.1,51.3,1,37.6,4.35,9.7,0,0,0,1,0,,,,,,,,,,,,,,,,,,,,
40284,1627482359766,,,251,253,238,235,,0.02,-0.06,1.56,-5,-3,-4,0.06,,67,5896,15,37,75,1.261,19.1,592,4.93,13.2,51.3,1,36.9,4.47,9.7,0,0,0,1,0,,,,,,,,,,,,,,,,,,,,
40304,1627482359786,,,251,253,237,234,,0.01,-0.09,1.44,-5,-3,-4,0.09,,67,6192,15,37,74,1.234,19.0,617,4.79,13.0,51.3,1,37.6,4.39,9.7,0,0,0,1,0,,,,,,,,,,,,,,,,,,,,
40324,1627482359806,,,251,253,236,234,,-0.02,-0.06,1.38,-5,-1,-3,0.06,,67,6565,15,37,72,1.205,19.0,630,4.86,13.0,51.3,1,39.4,4.11,9.7,0,0,0,1,0,,,,,,,,,,,,,,,,,,,,
40344,1627482359826,0,0,250,251,237,234,-13,-0.0,-0.08,1.43,-6,-2,-4,0.08,1,67,6771,15,37,70,1.179,18.5,645,4.86,13.2,51.3,1,40.0,3.88,9.7,0,0,0,1,0,179,5134,-1,185,47.221039,14.761075,18.41,687.1,9,2,1.7,0,0.0,-1,0.0,,0.0,0,0.03,0.6724
40364,1627482359846,,,249,249,237,234,,0.0,-0.08,1.32,-6,-0,-2,0.08,,67,6791,15,37,69,1.135,18.6,635,4.81,13.0,62.9,1,39.8,3.77,11.7,0,0,0,1,0,,,,,,,,,,,,,,,,,,,,
40384,1627482359866,,,249,249,238,234,,0.02,-0.04,1.22,-6,-1,-1,0.05,,67,7096,15,37,68,1.111,18.6,642,4.96,13.2,62.9,1,40.5,3.7,11.7,0,0,0,1,0,,,,,,,,,,,,,,,,,,,,
40404,1627482359886,,,249,249,238,234,,0.03,-0.08,1.18,-6,0,-0,0.09,,67,7267,15,37,67,1.078,18.7,653,4.87,13.2,62.9,1,39.8,3.5,11.7,0,0,0,1,0,,,,,,,,,,,,,,,,,,,,
40424,1627482359905,,,249,249,238,234,,0.01,-0.1,1.09,-6,-1,1,0.1,,67,7452,15,37,66,1.035,18.7,656,4.88,13.1,62.9,1,39.2,3.32,11.7,0,0,0,1,0,,,,,,,,,,,,,,,,,,,,
40444,1627482359925,-0,2,249,251,237,233,-13,-0.01,-0.1,1.07,-6,-1,1,0.1,1,67,7600,15,37,65,1.017,18.6,657,4.81,13.1,62.9,1,38.7,2.99,11.7,0,0,0,1,0,178,-1,-1,186,47.221046,14.761079,20.08,687.3,9,2,1.7,0,0.0,-1,0.0,0.0,0.0,0,0.03,0.6741
40464,1627482359945,,,249,251,237,233,,-0.06,-0.07,0.98,-7,1,3,0.09,,67,7802,15,37,63,1.004,18.7,658,4.81,13.1,56.3,1,38.1,2.79,10.6,0,0,0,1,0,,,,,,,,,,,,,,,,,,,,
40484,1627482359965,,,250,251,238,233,,-0.01,-0.04,1.07,-7,1,3,0.04,,67,8064,15,37,62,0.987,18.6,658,5.0,12.9,56.3,1,38.5,2.65,10.6,0,0,0,1,0,,,,,,,,,,,,,,,,,,,,
40504,1627482359985,,,250,252,238,233,,-0.02,-0.04,1.3,-7,-0,-0,0.04,,67,8067,15,37,59,0.968,18.6,667,4.76,13.1,56.3,1,38.2,2.58,10.6,0,0,0,1,0,,,,,,,,,,,,,,,,,,,,
40524,1627482359999,,,250,252,239,233,,-0.0,-0.02,1.2,-8,1,1,0.02,,67,8393,15,37,57,0.954,18.7,657,4.95,12.9,56.3,1,40.4,2.92,10.6,0,0,0,1,0,,,,,,,,,,,,,,,,,,,,
40544,1627482360019,1,1,250,252,240,235,-14,0.01,0.0,1.11,-8,1,2,0.02,1,67,8720,15,37,55,0.946,18.6,673,4.84,13.0,56.3,1,39.8,3.18,10.6,0,0,0,1,0,176,3584,-1,186,47.22105,14.761082,19.29,687.4,9,2,1.7,0,0.0,-1,0.0,,0.0,0,0.03,0.6757
40564,1627482360039,,,250,252,240,235,,0.03,0.03,1.18,-8,0,2,0.04,,67,9062,15,37,52,0.934,18.5,681,4.9,13.0,72.9,1,39.2,3.24,13.5,0,0,0,1,0,,,,,,,,,,,,,,,,,,,,
40584,1627482360059,,,250,250,240,235,,0.05,0.09,1.09,-8,-0,4,0.11,,67,9328,14,37,51,0.927,18.6,683,4.92,13.1,72.9,1,38.9,3.22,13.5,0,0,0,1,0,,,,,,,,,,,,,,,,,,,,
40604,1627482360079,,,250,249,239,234,,0.08,-0.02,1.16,-8,-1,4,0.08,,67,9585,13,37,48,0.918,18.6,686,4.78,13.0,72.9,1,38.2,3.05,13.5,0,0,0,1,0,,,,,,,,,,,,,,,,,,,,
40624,1627482360105,,,249,247,239,233,,0.06,0.06,1.07,-8,-1,4,0.08,,67,9770,13,37,46,0.91,18.4,691,4.82,13.0,72.9,1,37.2,2.86,13.5,0,0,0,1,0,,,,,,,,,,,,,,,,,,,,
40644,1627482360125,0,0,249,247,238,233,-12,0.06,-0.08,1.26,-8,-1,3,0.1,1,67,9816,13,37,44,0.905,18.8,688,4.77,13.0,72.9,1,35.7,2.77,13.5,0,0,0,1,0,177,3584,-1,188,47.221054,14.761085,19.28,687.4,9,2,1.7,0,0.0,-1,0.0,0.0,0.0,0,0.03,0.6774
40664,1627482360145,,,249,249,238,232,,0.05,0.04,1.27,-8,-2,3,0.06,,67,9775,12,37,42,0.897,18.4,690,4.82,13.0,67.2,1,34.2,2.72,12.3,0,0,0,1,0,,,,,,,,,,,,,,,,,,,,
40684,1627482360165,,,249,250,238,232,,0.05,-0.01,1.18,-8,-1,3,0.05,,67,9556,11,37,41,0.892,18.4,688,4.78,12.9,67.2,1,33.5,2.79,12.3,0,0,0,1,0,,,,,,,,,,,,,,,,,,,,
40704,1627482360185,,,249,250,238,232,,0.04,-0.04,1.11,-8,-0,2,0.06,,67,9379,7,37,38,0.889,18.2,681,4.79,12.9,67.2,1,31.7,2.75,12.3,0,0,0,1,0,,,,,,,,,,,,,,,,,,,,
40724,1627482360205,,,249,250,238,233,,0.02,-0.03,1.03,-8,0,2,0.04,,67,9200,6,37,36,0.886,18.1,678,4.82,13.0,67.2,1,31.1,2.56,12.3,0,0,0,1,0,,,,,,,,,,,,,,,,,,,,
40744,1627482360225,0,1,249,250,238,233,-11,-0.01,-0.03,0.95,-8,1,3,0.03,1,67,8962,6,37,35,0.884,18.2,680,4.85,13.1,67.2,1,30.8,2.49,12.3,0,0,0,1,0,174,-1495,-1,182,47.221058,14.761088,18.99,687.5,9,2,1.7,0,0.0,-1,0.0,,0.0,0,0.03,0.6791
40764,1627482360245,,,249,250,238,234,,-0.04,-0.01,0.97,-8,1,2,0.04,,67,8724,6,37,34,0.884,18.1,675,4.87,13.1,54.0,1,30.5,2.45,9.9,0,0,0,1,0,,,,,,,,,,,,,,,,,,,,
40784,1627482360265,,,249,251,238,234,,-0.03,-0.04,1.0,-8,2,-0,0.05,,67,8476,6,37,33,0.888,18.2,665,4.78,12.9,54.0,1,30.1,2.44,9.9,0,0,0,1,0,,,,,,,,,,,,,,,,,,,,
40804,1627482360285,,,250,251,239,234,,-0.04,-0.02,0.92,-8,3,3,0.04,,67,8267,6,37,33,0.891,18.3,669,4.83,13.1,54.0,1,29.7,2.23,9.9,0,0,0,1,0,,,,,,,,,,,,,,,,,,,,
40824,1627482360303,,,250,251,240,234,,0.0,-0.05,1.08,-8,2,1,0.05,,67,8005,6,37,32,0.897,18.1,661,4.83,13.0,54.0,1,29.0,1.93,9.9,0,0,0,1,0,,,,,,,,,,,,,,,,,,,,
40844,1627482360323,0,2,250,251,240,234,-10,0.03,-0.1,1.21,-8,1,-1,0.11,1,67,7776,6,36,32,0.904,17.9,656,4.9,13.2,54.0,1,29.0,1.93,9.9,0,0,0,1,0,173,10620,-1,179,47.221062,14.761091,18.76,687.5,9,2,1.7,0,0.0,-1,0.0,0.0,0.0,0,0.03,0.6807
40864,1627482360343,,,250,251,241,234,,0.03,-0.09,1.38,-8,-1,-2,0.09,,67,7548,6,36,32,0.923,18.2,655,4.86,13.2,36.8,1,29.0,1.93,6.7,0,0,0,1,0,,,,,,,,,,,,,,,,,,,,
40884,1627482360363,,,250,251,240,234,,0.06,-0.08,1.37,-8,-2,-3,0.1,,67,7312,6,36,33,0.94,18.2,651,4.89,13.2,36.8,1,29.2,1.98,6.7,0,0,0,1,0,,,,,,,,,,,,,,,,,,,,
40904,1627482360383,,,250,250,239,233,,0.05,-0.09,1.27,-8,-1,-2,0.1,,67,7070,6,36,33,0.951,18.1,647,4.85,12.9,36.8,1,29.2,1.98,6.7,0,0,0,1,0,,,,,,,,,,,,,,,,,,,,
40924,1627482360405,,,249,251,237,232,,0.02,-0.05,1.28,-8,-1,-2,0.06,,67,6873,6,36,34,0.977,18.0,646,4.93,13.0,36.8,1,29.3,2.03,6.7,0,0,0,1,0,,,,,,,,,,,,,,,,,,,,
40944,1627482360425,0,0,249,250,235,232,-10,0.02,-0.01,1.18,-8,0,-1,0.03,1,67,6618,6,36,34,0.994,17.8,641,4.85,12.9,36.8,1,29.2,2.03,6.7,0,0,0,1,0,174,10620,-236,178,47.221066,14.761095,18.47,687.5,9,2,1.7,0,0.0,-1,0.0,,0.0,0,0.03,0.6824
40964,1627482360445,,,248,250,235,232,,0.07,-0.06,1.4,-8,-2,-3,0.09,,67,6412,6,36,34,1.02,17.9,636,4.84,13.2,33.7,1,29.0,2.03,6.0,0,0,0,1,0,,,,,,,,,,,,,,,,,,,,
40984,1627482360465,,,248,248,236,233,,0.09,-0.1,1.35,-7,-3,-3,0.13,,67,6212,6,36,35,1.045,17.8,627,4.9,13.2,33.7,1,29.1,2.08,6.0,0,0,0,1,0,,,,,,,,,,,,,,,,,,,,
41004,1627482360485,,,248,251,237,234,,0.1,-0.11,1.25,-7,-3,-3,0.15,,67,6017,10,36,36,1.079,17.9,620,4.91,13.1,33.7,1,29.2,2.12,6.0,0,0,0,1,0,,,,,,,,,,,,,,,,,,,,
41024,1627482360505,,,249,252,237,234,,0.14,-0.13,1.32,-7,-5,-4,0.2,,67,5828,14,36,39,1.101,17.6,620,4.94,13.2,33.7,1,29.3,2.57,6.0,0,0,0,1,0,,,,,,,,,,,,,,,,,,,,
41044,1627482360525,-0,2,249,252,238,234,-9,0.2,-0.12,1.53,-7,-9,-7,0.24,1,67,5637,20,36,45,1.131,17.8,616,4.95,13.2,33.7,1,30.1,2.69,6.0,0,0,0,1,0,173,-1495,5134,178,47.221073,14.7611,18.59,687.5,9,2,1.7,0,0.0,-1,0.0,0.0,0.0,0,0.03,0.6841
41064,1627482360545,,,250,253,238,234,,0.13,-0.09,1.7,-7,-4,-5,0.16,,67,5511,27,36,54,1.162,17.8,597,4.88,13.0,39.8,1,32.2,2.83,7.1,0,0,0,1,0,,,,,,,,,,,,,,,,,,,,
41084,1627482360565,,,250,253,239,234,,0.02,-0.13,1.57,-6,1,1,0.13,,67,5603,31,36,65,1.195,17.7,590,4.86,13.0,39.8,1,35.0,3.25,7.1,0,0,0,1,0,,,,,,,,,,,,,,,,,,,,
41104,1627482360585,,,250,253,239,234,,0.11,-0.12,1.75,-6,-1,-1,0.16,,67,5748,33,36,75,1.21,17.9,599,4.91,13.1,39.8,1,37.1,4.37,7.1,0,0,0,1,0,,,,,,,,,,,,,,,,,,,,
41124,1627482360605,,,250,253,239,235,,0.18,-0.09,1.93,-6,-7,-4,0.2,,67,5952,35,36,81,1.225,17.7,612,4.92,13.2,39.8,1,38.0,4.87,7.1,0,0,0,1,0,,,,,,,,,,,,,,,,,,,,
41144,1627482360625,0,1,248,250,239,235,-10,0.19,-0.07,2.08,-6,-8,-5,0.21,1,67,6196,35,36,85,1.239,17.7,622,4.88,13.1,39.8,1,40.2,4.99,7.1,0,0,0,1,0,171,31744,250,177,47.221077,14.761103,18.32,687.5,9,2,1.7,0,0.0,-1,0.0,,0.0,0,0.03,0.6857
41164,1627482360645,,,247,248,238,235,,0.12,-0.06,1.92,-6,-6,-3,0.13,,67,6499,35,36,85,1.249,17.7,628,4.85,12.9,82.4,1,42.7,4.86,14.6,0,0,0,1,0,,,,,,,,,,,,,,,,,,,,
41184,1627482360665,,,247,249,237,234,,0.12,-0.06,2.03,-6,-7,-4,0.13,,67,6783,35,36,86,1.247,17.8,635,4.84,13.1,82.4,1,45.5,4.63,14.6,0,0,0,1,0,,,,,,,,,,,,,,,,,,,,
41204,1627482360685,,,246,251,236,233,,0.11,-0.05,1.99,-6,-7,-5,0.12,,67,7318,35,36,85,1.241,17.6,642,4.85,13.1,82.4,1,43.3,4.7,14.6,0,0,0,1,0,,,,,,,,,,,,,,,,,,,,
41224,1627482360705,,,247,251,236,233,,0.14,-0.07,2.15,-6,-8,-7,0.16,,67,7822,33,36,85,1.233,17.8,656,4.86,13.1,82.4,1,37.6,5.12,14.6,0,0,0,1,0,,,,,,,,,,,,,,,,,,,,
41244,1627482360725,-0,1,247,252,236,233,-8,0.1,0.0,1.98,-5,-6,-4,0.1,1,67,8241,26,36,82,1.227,17.4,660,4.9,13.0,82.4,1,39.2,3.76,14.6,0,0,0,1,0,172,10620,10620,173,47.221081,14.761105,18.0,687.7,9,2,1.7,0,0.0,-1,0.0,0.0,0.0,0,0.03,0.6874
41264,1627482360745,,,249,252,236,233,,0.05,0.01,2.14,-5,-6,-5,0.05,,67,8823,17,36,75,1.212,17.4,671,4.85,13.1,106.8,1,41.9,4.18,18.6,0,0,0,1,0,,,,,,,,,,,,,,,,,,,,
41284,1627482360765,,,249,252,237,233,,0.02,0.07,2.08,-5,-5,-5,0.08,,67,9403,9,36,66,1.201,17.3,673,4.84,13.1,106.8,1,41.3,2.5,18.6,0,0,0,1,0,,,,,,,,,,,,,,,,,,,,
41304,1627482360785,,,250,252,239,233,,0.03,0.02,2.1,-5,-4,-5,0.04,,67,9873,6,36,57,1.186,17.3,685,4.87,13.0,106.8,1,40.4,3.65,18.6,0,0,0,1,0,,,,,,,,,,,,,,,,,,,,
41324,1627482360805,,,250,252,240,233,,0.07,0.12,1.94,-5,-3,-3,0.13,,67,10234,6,36,49,1.17,17.2,688,4.87,12.9,106.8,1,38.5,3.03,18.6,0,0,0,1,0,,,,,,,,,,,,,,,,,,,,
41344,1627482360825,0,1,249,249,240,233,-7,0.06,0.1,2.03,-5,-4,-5,0.12,1,67,10251,6,36,44,1.159,17.3,690,4.85,13.0,106.8,1,35.7,2.68,18.6,0,0,0,1,0,168,-1,250,173,47.221081,14.761107,17.97,687.7,9,2,1.7,0,0.0,-1,0.0,,0.0,0,0.03,0.6891
41364,1627482360845,,,249,249,240,234,,0.04,-0.05,1.87,-5,-3,-4,0.07,,67,10021,6,36,41,1.146,17.4,696,4.83,13.0,68.3,1,33.5,2.52,11.9,0,0,0,1,0,,,,,,,,,,,,,,,,,,,,
41384,1627482360865,,,249,251,239,234,,0.07,0.02,1.84,-5,-3,-3,0.07,,67,9796,6,36,39,1.133,17.3,691,4.85,12.9,68.3,1,32.0,2.61,11.9,0,0,0,1,0,,,,,,,,,,,,,,,,,,,,
41404,1627482360885,,,249,251,239,234,,0.03,-0.05,1.91,-5,-3,-5,0.06,,67,9610,6,37,36,1.12,17.5,685,4.83,12.9,68.3,1,31.1,2.62,11.9,0,0,0,1,0,,,,,,,,,,,,,,,,,,,,
41424,1627482360906,,,250,252,239,234,,0.02,0.06,1.84,-5,-3,-3,0.06,,67,9417,6,36,35,1.101,17.4,684,4.89,13.0,68.3,1,30.8,2.61,11.9,0,0,0,1,0,,,,,,,,,,,,,,,,,,,,
41444,1627482360926,-0,2,249,251,239,234,-5,0.05,0.02,1.84,-4,-4,-1,0.05,1,67,9155,6,37,34,1.088,17.1,678,4.8,12.9,68.3,1,30.5,2.49,11.9,0,0,0,1,0,169,-253,-1281,173,47.221085,14.76111,18.17,687.7,9,2,1.7,0,0.0,-1,0.0,0.0,0.0,0,0.03,0.6907
41464,1627482360946,,,249,251,239,234,,0.07,0.02,1.8,-4,-3,1,0.07,,67,8937,6,37,33,1.075,17.2,676,4.83,12.9,58.9,1,30.2,2.46,10.2,0,0,0,1,0,,,,,,,,,,,,,,,,,,,,
41484,1627482360966,,,248,250,238,232,,0.09,0.02,1.69,-4,-3,3,0.09,,67,8704,6,37,32,1.063,17.2,668,4.84,13.0,58.9,1,30.0,2.43,10.2,0,0,0,1,0,,,,,,,,,,,,,,,,,,,,
41504,1627482360986,,,248,251,237,232,,0.07,0.11,1.56,-4,-3,2,0.13,,67,8511,6,36,32,1.057,16.9,670,4.87,13.0,58.9,1,30.0,2.43,10.2,0,0,0,1,0,,,,,,,,,,,,,,,,,,,,
41524,1627482360998,,,248,251,237,232,,0.08,0.04,1.63,-4,-4,1,0.09,,67,8263,6,36,32,1.052,16.7,661,4.9,13.0,58.9,1,29.5,2.22,10.2,0,0,0,1,0,,,,,,,,,,,,,,,,,,,,
41544,1627482361018,4,2,248,251,237,232,-5,0.04,0.07,1.51,-4,-3,0,0.08,1,67,8047,6,36,31,1.045,16.8,663,4.81,13.1,58.9,1,28.7,1.99,10.2,0,0,0,1,0,166,-1,-1,165,47.221088,14.761114,17.78,687.8,9,2,2.8,0,0.0,-1,0.0,,0.0,0,0.03,0.6924
41564,1627482361038,,,248,249,238,234,,0.03,0.11,1.39,-3,-0,3,0.11,,67,7835,6,36,31,1.04,16.6,657,4.98,13.0,42.7,1,28.6,1.96,7.1,0,0,0,1,0,,,,,,,,,,,,,,,,,,,,
41584,1627482361058,,,248,250,239,235,,0.03,0.04,1.29,-3,1,5,0.05,,67,7618,6,36,32,1.041,16.6,649,4.98,13.0,42.7,1,29.0,1.93,7.1,0,0,0,1,0,,,,,,,,,,,,,,,,,,,,
41604,1627482361078,,,248,251,240,237,,0.01,0.03,1.25,-3,2,6,0.03,,67,7399,6,36,32,1.046,16.5,651,5.0,13.1,42.7,1,29.0,0.81,7.1,0,0,0,1,0,,,,,,,,,,,,,,,,,,,,
41624,1627482361106,,,249,252,240,238,,-0.01,0.02,1.34,-3,0,6,0.02,,67,7170,6,36,33,1.052,16.3,646,4.91,13.1,42.7,1,29.2,1.98,7.1,0,0,0,1,0,,,,,,,,,,,,,,,,,,,,
41644,1627482361126,5,3,248,252,240,238,-8,0.01,0.0,1.44,-3,0,5,0.01,1,67,6941,6,36,33,1.055,16.4,643,4.8,13.2,42.7,1,29.1,1.98,7.1,0,0,0,1,0,163,10764,250,164,47.221088,14.761117,17.47,687.8,9,2,2.8,0,0.0,-1,0.0,0.0,0.0,0,0.03,0.6941
41664,1627482361146,,,248,252,240,238,,-0.05,0.02,1.33,-3,1,5,0.06,,67,6703,6,36,34,1.072,16.3,635,4.87,13.0,38.6,1,29.3,2.03,6.3,0,0,0,1,0,,,,,,,,,,,,,,,,,,,,
41684,1627482361166,,,248,252,239,236,,-0.0,0.05,1.53,-3,1,5,0.05,,67,6524,6,36,34,1.094,16.1,636,4.83,13.1,38.6,1,29.1,2.03,6.3,0,0,0,1,0,,,,,,,,,,,,,,,,,,,,
41704,1627482361186,,,248,252,238,235,,0.01,0.01,1.56,-3,-2,2,0.02,,67,6388,6,36,34,1.112,16.1,632,4.89,13.2,38.6,1,29.0,2.03,6.3,0,0,0,1,0,,,,,,,,,,,,,,,,,,,,
41724,1627482361206,,,247,250,238,235,,-0.05,-0.01,1.44,-4,-3,0,0.05,,67,6262,6,36,34,1.139,16.0,630,4.92,13.1,38.6,1,28.9,2.03,6.3,0,0,0,1,0,,,,,,,,,,,,,,,,,,,,
41744,1627482361226,3,3,247,249,238,236,-11,-0.12,-0.01,1.33,-4,-2,1,0.13,1,67,6077,8,36,35,1.155,16.0,625,4.84,13.0,38.6,1,29.0,2.08,6.3,0,0,0,1,0,154,-23552,-1281,160,47.221092,14.76112,16.86,687.9,9,2,2.8,0,0.0,-1,0.0,,0.0,0,0.03,0.6957
41764,1627482361246,,,247,252,238,236,,-0.19,-0.04,1.23,-4,-2,0,0.19,,67,5888,10,36,37,1.18,15.8,617,4.91,13.1,37.9,1,29.0,2.21,6.0,0,0,0,1,0,,,,,,,,,,,,,,,,,,,,
41784,1627482361266,,,247,252,238,236,,-0.14,-0.1,1.13,-4,-7,-4,0.17,,67,5702,10,36,40,1.202,15.8,607,4.91,13.2,37.9,1,29.2,2.38,6.0,0,0,0,1,0,,,,,,,,,,,,,,,,,,,,
41804,1627482361286,,,247,252,237,236,,-0.07,-0.05,1.35,-4,-9,-6,0.08,,67,5511,10,36,41,1.218,15.7,602,4.85,13.0,37.9,1,29.0,2.46,6.0,0,0,0,1,0,,,,,,,,,,,,,,,,,,,,
41824,1627482361306,,,247,252,237,236,,-0.14,-0.03,1.25,-4,-3,-1,0.15,,67,5391,10,36,44,1.243,15.5,586,4.83,13.0,37.9,1,29.3,2.55,6.0,0,0,0,1,0,,,,,,,,,,,,,,,,,,,,
41844,1627482361326,-1,0,247,252,237,235,-11,-0.06,-0.04,1.33,-4,-9,-6,0.07,1,67,5278,10,36,46,1.254,15.5,572,4.91,13.2,37.9,1,29.7,2.63,6.0,0,0,0,1,0,153,250,-1,155,47.221096,14.761122,16.31,687.9,9,2,2.8,0,0.0,-1,0.0,0.0,0.0,0,0.03,0.6974
41864,1627482361346,,,247,252,238,235,,-0.11,-0.01,1.35,-4,-4,-1,0.11,,67,5183,13,36,48,1.265,15.7,566,4.88,13.1,41.4,1,30.1,2.72,6.5,0,0,0,1,0,,,,,,,,,,,,,,,,,,,,
41884,1627482361366,,,248,252,238,235,,-0.02,0.03,1.55,-4,-9,-7,0.03,,67,5029,15,36,51,1.277,15.6,562,4.83,13.0,41.4,1,30.8,2.82,6.5,0,0,0,1,0,,,,,,,,,,,,,,,,,,,,
41904,1627482361386,,,248,252,239,235,,-0.06,0.01,1.43,-5,-5,-3,0.06,,67,5077,16,36,55,1.288,15.7,544,4.88,13.2,41.4,1,32.1,2.83,6.5,0,0,0,1,0,,,,,,,,,,,,,,,,,,,,
41924,1627482361406,,,248,252,239,235,,-0.06,0.02,1.63,-5,-5,-5,0.06,,67,5099,17,36,59,1.29,15.6,551,4.79,12.9,41.4,1,33.3,2.76,6.5,0,0,0,1,0,,,,,,,,,,,,,,,,,,,,
41944,1627482361426,-1,2,248,252,239,235,-11,-0.03,-0.06,1.5,-5,-7,-6,0.07,1,67,5148,17,36,62,1.287,15.6,555,4.86,13.3,41.4,1,34.3,2.76,6.5,0,0,0,1,0,150,-1,-165,156,47.221096,14.761124,16.05,687.8,9,2,2.8,0,0.0,-1,0.0,,0.0,0,0.03,0.6991
41964,1627482361446,,,248,252,239,235,,-0.07,-0.04,1.7,-5,-2,-3,0.08,,67,5302,17,36,65,1.287,15.4,552,4.86,13.1,45.4,1,35.1,2.94,7.0,0,0,0,1,0,,,,,,,,,,,,,,,,,,,,
41984,1627482361466,,,248,251,239,235,,-0.04,-0.16,1.57,-5,-5,-6,0.16,,67,5374,17,36,67,1.286,15.5,565,4.92,13.2,45.4,1,35.7,3.12,7.0,0,0,0,1,0,,,,,,,,,,,,,,,,,,,,
42004,1627482361486,,,248,250,238,235,,0.02,-0.09,1.75,-5,-3,-5,0.09,,67,5482,17,36,69,1.279,15.5,573,4.78,12.8,45.4,1,36.1,3.3,7.0,0,0,0,1,0,,,,,,,,,,,,,,,,,,,,
42024,1627482361506,,,248,250,238,235,,-0.1,-0.09,1.62,-5,2,-1,0.14,,67,5568,17,36,71,1.265,15.4,578,4.8,13.0,45.4,1,36.4,3.46,7.0,0,0,0,1,0,,,,,,,,,,,,,,,,,,,,
42044,1627482361526,1,1,248,249,239,235,-12,-0.12,-0.13,1.49,-5,-3,-2,0.18,1,67,5681,17,36,71,1.256,15.5,590,4.95,13.3,45.4,1,36.4,3.5,7.0,0,0,0,1,0,149,-1,23460,156,47.221096,14.761126,15.97,687.7,9,2,2.8,0,0.0,-1,0.0,0.0,0.0,0,0.03,0.7007
42064,1627482361546,,,248,250,239,235,,-0.03,-0.15,1.69,-6,-8,-7,0.15,,67,5830,20,36,73,1.245,15.4,602,4.97,13.2,62.9,1,36.6,3.72,9.7,0,0,0,1,0,,,,,,,,,,,,,,,,,,,,
42084,1627482361566,,,248,249,239,235,,0.03,-0.14,1.86,-6,-12,-10,0.15,,67,6027,23,36,75,1.217,15.5,622,4.94,13.2,62.9,1,36.8,3.98,9.7,0,0,0,1,0,,,,,,,,,,,,,,,,,,,,
42104,1627482361586,,,248,250,239,235,,0.02,-0.15,1.82,-6,-14,-11,0.15,,67,6177,25,36,77,1.198,15.3,628,4.91,13.3,62.9,1,38.1,4.06,9.7,0,0,0,1,0,,,,,,,,,,,,,,,,,,,,
42124,1627482361606,,,248,251,239,235,,-0.06,-0.12,1.68,-6,-13,-10,0.14,,67,6296,26,36,79,1.174,15.4,628,4.92,13.2,62.9,1,39.4,4.64,9.7,0,0,0,1,0,,,,,,,,,,,,,,,,,,,,
42144,1627482361626,1,2,248,251,239,235,-14,-0.03,-0.11,1.7,-6,-9,-7,0.11,1,67,6501,26,36,79,1.148,15.4,628,4.85,13.0,62.9,1,40.8,4.59,9.7,0,0,0,1,0,148,-1,250,154,47.2211,14.761128,15.66,687.7,9,2,2.8,0,0.0,-1,0.0,,0.0,0,0.03,0.7024
42164,1627482361646,,,248,251,239,235,,-0.05,-0.11,1.66,-6,-11,-8,0.12,,67,6783,26,36,80,1.132,15.3,632,4.86,13.2,90.9,1,43.0,4.47,14.0,0,0,0,1,0,,,,,,,,,,,,,,,,,,,,
42184,1627482361666,,,249,251,238,235,,-0.04,-0.11,1.73,-6,-11,-9,0.11,,67,7292,27,36,79,1.115,15.1,645,4.8,13.2,90.9,1,42.2,4.48,14.0,0,0,0,1,0,,,,,,,,,,,,,,,,,,,,
42204,1627482361686,,,248,251,238,234,,-0.07,-0.1,1.67,-7,-9,-8,0.12,,67,7709,24,36,79,1.104,15.3,651,4.83,13.1,90.9,1,39.5,4.69,14.0,0,0,0,1,0,,,,,,,,,,,,,,,,,,,,
42224,1627482361706,,,248,250,238,235,,-0.09,-0.07,1.54,-6,-7,-4,0.11,,67,8078,17,36,76,1.089,14.9,660,4.82,13.1,90.9,1,39.4,4.56,14.0,0,0,0,1,0,,,,,,,,,,,,,,,,,,,,
42244,1627482361726,5,3,248,249,239,235,-15,-0.13,-0.05,1.5,-7,-6,-6,0.14,1,67,8581,10,36,69,1.082,14.9,670,4.85,13.1,90.9,1,42.9,3.96,14.0,0,0,0,1,0,143,-1,-1,149,47.2211,14.761131,14.96,687.7,9,2,2.7,0,0.0,-1,0.0,0.0,0.0,0,0.03,0.7041
42264,1627482361746,,,248,249,239,235,,-0.15,-0.08,1.38,-7,-5,-8,0.17,,67,9115,6,36,60,1.08,14.8,671,4.81,12.9,99.3,1,40.0,3.51,14.7,0,0,0,1,0,,,,,,,,,,,,,,,,,,,,
42284,1627482361766,,,248,248,239,235,,-0.16,-0.01,1.28,-7,-4,-8,0.16,,67,9493,6,36,53,1.082,14.7,682,4.72,13.0,99.3,1,39.7,3.33,14.7,0,0,0,1,0,,,,,,,,,,,,,,,,,,,,
42304,1627482361786,,,248,248,240,235,,-0.17,-0.11,1.49,-7,-4,-8,0.2,,68,9811,6,36,47,1.082,14.5,690,4.87,12.9,99.3,1,38.0,2.84,14.7,0,0,0,1,0,,,,,,,,,,,,,,,,,,,,
42324,1627482361806,,,248,248,239,235,,-0.15,0.05,1.49,-7,-4,-8,0.15,,68,9931,6,36,42,1.079,14.6,690,4.8,13.0,99.3,1,34.2,2.65,14.7,0,0,0,1,0,,,,,,,,,,,,,,,,,,,,
42344,1627482361826,7,2,248,249,239,235,-14,-0.19,-0.03,1.37,-8,-4,-8,0.19,1,68,9786,6,37,39,1.081,14.4,690,4.78,13.0,99.3,1,32.0,2.62,14.7,0,0,0,1,0,139,-1,-236,144,47.2211,14.761134,15.0,687.6,9,2,2.7,0,0.0,-1,0.0,,0.0,0,0.04,0.7057
42364,1627482361846,,,248,250,239,235,,-0.17,0.03,1.27,-8,-1,-7,0.17,,68,9605,6,37,37,1.083,14.3,687,4.84,13.0,81.8,1,31.4,2.65,11.7,0,0,0,1,0,,,,,,,,,,,,,,,,,,,,
42384,1627482361866,,,248,251,239,234,,-0.15,-0.06,1.43,-7,-1,-5,0.16,,68,9389,6,37,34,1.088,13.9,677,4.85,12.9,81.8,1,30.5,2.58,11.7,0,0,0,1,0,,,,,,,,,,,,,,,,,,,,
42404,1627482361886,,,248,249,239,235,,-0.16,-0.09,1.59,-7,-2,-5,0.19,,68,9191,6,37,33,1.085,13.9,671,4.92,13.0,81.8,1,30.2,2.49,11.7,0,0,0,1,0,,,,,,,,,,,,,,,,,,,,
42424,1627482361905,,,248,248,240,235,,-0.14,-0.15,1.68,-7,-2,-5,0.21,,68,8958,6,37,32,1.076,13.6,666,4.77,13.0,81.8,1,30.0,2.46,11.7,0,0,0,1,0,,,,,,,,,,,,,,,,,,,,
42444,1627482361925,7,4,248,248,240,235,-12,-0.12,-0.19,1.79,-7,-2,-3,0.23,1,68,8716,6,37,32,1.065,13.7,671,4.79,12.8,81.8,1,30.0,2.43,11.7,0,0,0,1,0,131,-1,-1,137,47.221104,14.761138,15.16,687.4,9,2,2.7,0,0.0,-1,0.0,0.0,0.0,0,0.04,0.7074
42464,1627482361945,,,248,250,240,235,,-0.12,-0.2,1.66,-7,-1,-0,0.23,,68,8507,6,37,31,1.057,13.4,670,4.85,13.0,71.6,1,29.5,2.43,9.6,0,0,0,1,0,,,,,,,,,,,,,,,,,,,,
42484,1627482361965,,,248,248,239,235,,-0.11,-0.23,1.69,-7,-2,-2,0.25,,68,8259,6,36,31,1.048,13.3,665,4.9,13.1,71.6,1,29.1,2.19,9.6,0,0,0,1,0,,,,,,,,,,,,,,,,,,,,
42504,1627482361985,,,248,248,239,235,,-0.13,-0.13,1.56,-6,-0,0,0.19,,68,8050,6,36,31,1.039,13.2,665,4.73,13.1,71.6,1,28.8,2.0,9.6,0,0,0,1,0,,,,,,,,,,,,,,,,,,,,
42524,1627482361997,,,248,248,240,235,,-0.12,-0.18,1.49,-6,1,1,0.22,,68,7835,6,36,31,1.026,13.1,657,5.02,13.1,71.6,1,28.6,1.96,9.6,0,0,0,1,0,,,,,,,,,,,,,,,,,,,,
42544,1627482362017,6,2,248,248,239,235,-11,-0.1,-0.17,1.61,-6,1,1,0.2,1,68,7578,6,36,31,1.01,12.8,653,4.87,12.9,71.6,1,28.6,1.96,9.6,0,0,0,1,0,125,-1482,-1,128,47.221107,14.761141,14.99,687.3,9,2,1.7,0,0.0,-1,0.0,,0.0,0,0.04,0.7091
42564,1627482362037,,,248,249,240,235,,-0.07,-0.12,1.68,-6,0,0,0.14,,68,7358,6,36,32,1.007,12.6,654,4.84,12.9,52.3,1,29.0,0.81,6.6,0,0,0,1,0,,,,,,,,,,,,,,,,,,,,
42584,1627482362057,,,248,248,240,235,,-0.11,-0.11,1.55,-6,2,2,0.16,,68,7178,6,36,33,1.018,12.7,647,4.92,13.1,52.3,1,29.2,0.86,6.6,0,0,0,1,0,,,,,,,,,,,,,,,,,,,,
42604,1627482362077,,,248,250,240,235,,-0.1,-0.1,1.58,-6,-0,-0,0.14,,68,6944,6,36,33,1.031,12.5,645,4.91,13.2,52.3,1,29.1,1.98,6.6,0,0,0,1,0,,,,,,,,,,,,,,,,,,,,
42624,1627482362103,,,248,251,240,235,,-0.13,-0.09,1.45,-6,2,1,0.16,,68,6713,6,36,33,1.038,12.5,638,4.88,13.0,52.3,1,29.0,1.98,6.6,0,0,0,1,0,,,,,,,,,,,,,,,,,,,,
42644,1627482362123,5,2,248,251,240,235,-10,-0.07,-0.05,1.65,-6,-1,-1,0.09,1,68,6546,6,36,34,1.059,12.4,633,4.86,13.2,52.3,1,29.1,2.03,6.6,0,0,0,1,0,119,250,-1482,123,47.221107,14.761145,14.55,687.1,9,2,1.7,0,0.0,-1,0.0,0.0,0.0,0,0.04,0.7107
42664,1627482362143,,,248,251,240,235,,-0.11,-0.07,1.52,-6,-2,-2,0.13,,68,6414,6,36,34,1.085,12.1,627,4.92,13.1,48.7,1,29.0,2.03,6.0,0,0,0,1,0,,,,,,,,,,,,,,,,,,,,
42684,1627482362163,,,248,251,240,235,,-0.17,-0.04,1.41,-6,1,2,0.18,,68,6277,6,36,34,1.103,12.1,623,4.91,13.1,48.7,1,28.9,2.03,6.0,0,0,0,1,0,,,,,,,,,,,,,,,,,,,,
42704,1627482362183,,,248,251,240,235,,-0.21,0.01,1.3,-5,5,4,0.21,,68,6095,6,36,35,1.136,11.8,625,4.81,12.9,48.7,1,29.0,2.08,6.0,0,0,0,1,0,,,,,,,,,,,,,,,,,,,,
42724,1627482362207,,,248,251,240,235,,-0.25,0.04,1.2,-5,10,8,0.25,,68,5911,6,36,36,1.155,11.9,621,4.88,13.0,48.7,1,28.9,2.15,6.0,0,0,0,1,0,,,,,,,,,,,,,,,,,,,,
42744,1627482362227,4,1,248,249,239,235,-10,-0.31,0.05,1.1,-5,14,11,0.32,1,68,5725,6,36,37,1.187,11.7,610,4.86,12.9,48.7,1,28.6,2.24,6.0,0,0,0,1,0,114,13850,13856,117,47.221111,14.761148,13.83,687.1,9,2,1.7,0,0.0,-1,0.0,,0.0,0,0.04,0.7124
42764,1627482362247,,,248,249,239,235,,-0.29,-0.02,1.02,-5,10,10,0.29,,68,5585,6,36,38,1.207,11.7,598,4.91,13.3,50.4,1,28.5,2.35,5.9,0,0,0,1,0,,,,,,,,,,,,,,,,,,,,
42784,1627482362267,,,248,249,239,235,,-0.19,0.02,1.25,-5,4,4,0.19,,68,5397,6,36,39,1.235,11.6,592,4.9,13.2,50.4,1,28.3,2.47,5.9,0,0,0,1,0,,,,,,,,,,,,,,,,,,,,
42804,1627482362287,,,248,249,239,235,,-0.28,0.02,1.15,-5,9,10,0.28,,68,5255,6,36,40,1.266,11.5,581,4.85,13.0,50.4,1,28.2,2.53,5.9,0,0,0,1,0,,,,,,,,,,,,,,,,,,,,
42824,1627482362305,,,248,251,239,235,,-0.2,0.09,1.37,-5,2,5,0.22,,68,5064,9,36,41,1.278,11.5,566,4.88,13.2,50.4,1,28.0,2.62,5.9,0,0,0,1,0,,,,,,,,,,,,,,,,,,,,
42844,1627482362325,2,3,248,249,239,235,-11,-0.17,0.02,1.27,-5,4,6,0.18,1,68,4921,13,36,44,1.285,11.3,548,4.94,13.3,50.4,1,27.7,2.64,5.9,0,0,0,1,0,110,13844,13850,113,47.221115,14.76115,13.32,687.1,9,2,1.7,0,0.0,-1,0.0,0.0,0.0,0,0.04,0.7141
42864,1627482362345,,,248,251,239,235,,-0.17,0.01,1.17,-5,5,7,0.17,,68,4805,17,36,48,1.299,11.4,533,4.85,13.1,53.0,1,27.5,4.21,6.0,0,0,0,1,0,,,,,,,,,,,,,,,,,,,,
42884,1627482362365,,,248,251,239,235,,-0.21,0.05,1.37,-4,6,8,0.21,,68,4807,21,36,54,1.309,11.2,512,4.8,13.1,53.0,1,29.3,1.66,6.0,0,0,0,1,0,,,,,,,,,,,,,,,,,,,,
42904,1627482362385,,,248,251,239,235,,-0.17,0.05,1.57,-4,3,5,0.18,,68,4861,24,36,61,1.305,11.2,517,4.83,12.9,53.0,1,32.1,4.33,6.0,0,0,0,1,0,,,,,,,,,,,,,,,,,,,,
42924,1627482362405,,,248,251,239,235,,-0.13,0.04,1.45,-4,1,3,0.13,,68,4881,25,36,68,1.299,11.1,521,4.92,13.2,53.0,1,34.5,4.93,6.0,0,0,0,1,0,,,,,,,,,,,,,,,,,,,,
42944,1627482362425,3,1,248,251,239,235,-10,-0.17,0.03,1.34,-4,5,7,0.17,1,68,5060,25,36,73,1.295,11.0,521,4.87,13.1,53.0,1,37.5,5.63,6.0,0,0,0,1,0,106,3584,13844,110,47.221119,14.761154,12.22,687.1,9,2,1.7,0,0.0,-1,0.0,,0.0,0,0.04,0.7157
42964,1627482362445,,,247,251,239,235,,-0.08,0.06,1.54,-4,-1,2,0.1,,68,5322,25,36,77,1.29,10.9,537,4.83,13.0,134.5,1,38.2,6.27,14.8,0,0,0,1,0,,,,,,,,,,,,,,,,,,,,
42984,1627482362465,,,247,251,239,235,,-0.19,0.07,1.42,-4,5,8,0.2,,68,5668,25,36,79,1.277,10.8,560,4.85,13.1,134.5,1,38.1,6.77,14.8,0,0,0,1,0,,,,,,,,,,,,,,,,,,,,
43004,1627482362485,,,247,251,239,235,,-0.24,0.07,1.31,-4,5,9,0.25,,68,5931,25,36,80,1.258,10.8,583,4.85,13.0,134.5,1,37.8,7.1,14.8,0,0,0,1,0,,,,,,,,,,,,,,,,,,,,
43024,1627482362505,,,247,251,239,235,,-0.24,0.1,1.21,-4,7,11,0.26,,68,6347,24,36,80,1.241,10.7,617,4.83,12.9,134.5,1,40.0,6.89,14.8,0,0,0,1,0,,,,,,,,,,,,,,,,,,,,
43044,1627482362525,4,2,247,251,239,235,-9,-0.2,0.09,1.43,-4,5,9,0.22,1,68,6722,20,36,79,1.225,10.8,630,4.82,13.2,134.5,1,42.2,6.5,14.8,0,0,0,1,0,104,3584,13838,108,47.221119,14.761157,12.04,687.2,9,2,1.7,0,0.0,-1,0.0,0.0,0.0,0,0.04,0.7174
43064,1627482362545,,,248,251,238,235,,-0.16,0.11,1.46,-4,5,7,0.19,,68,7118,15,36,75,1.196,10.5,643,4.81,13.0,191.4,1,42.4,6.23,20.1,0,0,0,1,0,,,,,,,,,,,,,,,,,,,,
43084,1627482362565,,,248,251,239,235,,-0.17,0.08,1.35,-4,5,8,0.19,,68,7164,10,36,72,1.176,10.4,643,4.91,12.8,191.4,1,41.4,5.82,20.1,0,0,0,1,0,,,,,,,,,,,,,,,,,,,,
43104,1627482362585,,,247,251,239,235,,-0.2,0.1,1.28,-4,5,8,0.23,,68,7273,8,36,67,1.142,10.4,641,4.86,13.0,191.4,1,39.8,5.16,20.1,0,0,0,1,0,,,,,,,,,,,,,,,,,,,,
43124,1627482362605,,,247,251,239,235,,-0.24,0.1,1.18,-3,6,8,0.25,,68,7494,7,36,63,1.121,10.2,653,4.9,13.2,191.4,1,38.5,4.09,20.1,0,0,0,1,0,,,,,,,,,,,,,,,,,,,,
43144,1627482362625,4,4,247,251,239,235,-5,-0.26,0.09,1.09,-3,6,9,0.27,1,68,7443,7,36,59,1.089,10.1,650,4.93,13.1,191.4,1,37.6,3.47,20.1,0,0,0,1,0,99,-1483,2048,101,47.221123,14.76116,11.15,687.2,9,2,1.7,0,0.0,-1,0.0,,0.0,0,0.04,0.7191
43164,1627482362645,,,247,251,239,235,,-0.26,0.06,1.03,-3,5,9,0.27,,68,7533,7,36,55,1.066,10.1,655,4.92,13.1,113.8,1,36.7,3.3,11.5,0,0,0,1,0,,,,,,,,,,,,,,,,,,,,
43184,1627482362665,,,247,251,239,235,,-0.27,0.1,1.03,-3,6,10,0.29,,68,7665,7,36,52,1.041,9.9,656,4.92,13.1,113.8,1,36.2,3.25,11.5,0,0,0,1,0,,,,,,,,,,,,,,,,,,,,
43204,1627482362685,,,247,251,239,235,,-0.27,0.11,0.95,-3,7,11,0.29,,68,7653,7,36,50,1.024,9.9,657,4.93,13.1,113.8,1,35.9,1.22,11.5,0,0,0,1,0,,,,,,,,,,,,,,,,,,,,
43224,1627482362705,,,247,250,239,235,,-0.27,0.09,0.88,-3,8,12,0.28,,68,7509,7,36,48,1.001,9.8,654,4.84,12.9,113.8,1,35.2,3.07,11.5,0,0,0,1,0,,,,,,,,,,,,,,,,,,,,
43244,1627482362725,4,3,247,251,239,235,-5,-0.27,0.04,0.85,-3,8,11,0.27,1,68,7416,7,36,46,0.977,9.7,652,4.86,13.0,113.8,1,34.2,3.02,11.5,0,0,0,1,0,95,14312,-22528,97,47.221127,14.761164,10.83,687.3,9,2,1.7,0,0.0,-1,0.0,0.0,0.0,0,0.04,0.7207
43264,1627482362745,,,247,249,239,235,,-0.28,0.04,0.87,-3,7,10,0.28,,68,7361,7,36,45,0.963,9.5,653,4.98,13.2,107.3,1,33.6,2.99,10.2,0,0,0,1,0,,,,,,,,,,,,,,,,,,,,
43284,1627482362765,,,248,248,239,235,,-0.27,0.02,0.88,-2,6,9,0.27,,68,7281,7,36,43,0.939,9.5,653,4.92,13.1,107.3,1,32.6,2.94,10.2,0,0,0,1,0,,,,,,,,,,,,,,,,,,,,
43304,1627482362785,,,248,248,240,235,,-0.24,0.02,0.99,-2,5,7,0.24,,68,7242,7,36,43,0.926,9.3,653,4.79,13.1,107.3,1,32.5,2.92,10.2,0,0,0,1,0,,,,,,,,,,,,,,,,,,,,
43324,1627482362805,,,248,248,239,235,,-0.2,0.06,1.13,-3,4,5,0.2,,68,7172,7,36,42,0.921,9.3,652,4.83,13.2,107.3,1,32.0,2.9,10.2,0,0,0,1,0,,,,,,,,,,,,,,,,,,,,
43344,1627482362825,2,3,248,248,240,234,-5,-0.2,0.02,1.05,-2,5,6,0.2,1,68,7142,7,36,41,0.918,9.2,643,4.83,13.0,107.3,1,31.7,1.16,10.2,0,0,0,1,0,89,14298,250,92,47.221127,14.761165,10.39,687.4,9,2,1.7,0,0.0,-1,0.0,,0.0,0,0.04,0.7224
43364,1627482362845,,,248,249,239,235,,-0.22,-0.01,1.0,-2,4,5,0.22,,68,7046,7,36,41,0.913,9.0,641,4.88,13.1,103.3,1,31.6,2.86,9.3,0,0,0,1,0,,,,,,,,,,,,,,,,,,,,
43384,1627482362865,,,248,250,240,235,,-0.18,-0.01,1.21,-2,3,3,0.18,,68,6949,7,36,40,0.912,9.0,642,4.82,13.3,103.3,1,31.1,2.83,9.3,0,0,0,1,0,,,,,,,,,,,,,,,,,,,,
43404,1627482362885,,,248,248,240,235,,-0.21,0.02,1.11,-2,4,5,0.22,,68,6870,7,36,40,0.914,8.8,638,4.86,13.0,103.3,1,31.0,2.82,9.3,0,0,0,1,0,,,,,,,,,,,,,,,,,,,,
43424,1627482362906,,,248,251,240,234,,-0.16,0.0,1.32,-2,2,3,0.16,,68,6795,7,36,40,0.916,8.8,638,4.87,13.2,103.3,1,30.9,2.79,9.3,0,0,0,1,0,,,,,,,,,,,,,,,,,,,,
43444,1627482362926,2,2,248,250,240,234,-5,-0.2,0.03,1.22,-2,5,4,0.21,1,68,6667,7,36,40,0.917,8.8,635,4.83,12.9,103.3,1,30.8,2.76,9.3,0,0,0,1,0,85,-13312,-1481,88,47.22113,14.761167,9.88,687.4,9,2,1.7,0,0.0,-1,0.0,0.0,0.0,0,0.04,0.7241
43464,1627482362946,,,248,251,239,234,,-0.13,0.04,1.44,-2,1,2,0.14,,68,6604,7,36,40,0.919,8.6,638,4.83,13.1,97.6,1,30.7,2.74,8.4,0,0,0,1,0,,,,,,,,,,,,,,,,,,,,
43484,1627482362966,,,248,250,240,234,,-0.16,-0.01,1.32,-2,1,2,0.16,,68,6492,7,36,40,0.922,8.5,632,4.91,13.1,97.6,1,30.5,2.28,8.4,0,0,0,1,0,,,,,,,,,,,,,,,,,,,,
43504,1627482362986,,,248,250,240,234,,-0.19,0.02,1.22,-2,4,4,0.19,,68,6392,7,36,40,0.923,8.5,631,4.82,13.0,97.6,1,30.4,2.28,8.4,0,0,0,1,0,,,,,,,,,,,,,,,,,,,,
43524,1627482362998,,,248,249,240,234,,-0.16,0.01,1.43,-2,5,4,0.16,,68,6268,7,36,40,0.926,8.5,628,4.81,12.9,97.6,1,30.3,2.28,8.4,0,0,0,1,0,,,,,,,,,,,,,,,,,,,,
43544,1627482363018,2,2,248,250,240,234,-5,-0.1,-0.03,1.62,-2,3,2,0.11,1,68,6107,7,36,40,0.932,8.3,624,4.86,13.2,97.6,1,30.0,2.28,8.4,0,0,0,1,0,83,-1481,250,83,47.221134,14.761168,9.29,687.5,9,2,1.7,0,0.0,-1,0.0,,0.0,0,0.04,0.7257
43564,1627482363038,,,248,250,240,234,,-0.04,-0.02,1.81,-2,0,-0,0.05,,68,5941,7,36,41,0.936,8.3,618,4.8,13.2,75.9,1,29.9,2.31,6.3,0,0,0,1,0,,,,,,,,,,,,,,,,,,,,
43584,1627482363058,,,248,251,239,234,,-0.04,-0.03,1.98,-2,2,-0,0.05,,68,5763,7,36,41,0.941,8.2,613,4.8,12.9,75.9,1,29.6,2.38,6.3,0,0,0,1,0,,,,,,,,,,,,,,,,,,,,
43604,1627482363078,,,248,250,240,234,,-0.15,-0.02,1.82,-2,8,5,0.15,,68,5582,7,36,43,0.945,8.2,604,4.82,12.9,75.9,1,29.6,2.46,6.3,0,0,0,1,0,,,,,,,,,,,,,,,,,,,,
43624,1627482363106,,,248,249,240,234,,-0.1,-0.07,1.68,-1,5,5,0.12,,68,5455,7,36,43,0.947,8.0,587,5.0,13.3,75.9,1,29.3,2.51,6.3,0,0,0,1,0,,,,,,,,,,,,,,,,,,,,
43644,1627482363126,3,1,248,249,240,234,-5,-0.07,-0.01,1.86,-2,1,1,0.07,1,68,5302,8,36,44,0.948,8.0,578,4.86,13.2,75.9,1,29.2,2.59,6.3,0,0,0,1,0,78,14256,250,80,47.221134,14.761169,9.15,687.6,9,2,1.7,0,0.0,-1,0.0,0.0,0.0,0,0.04,0.7274
43664,1627482363146,,,248,249,240,234,,-0.11,-0.08,1.72,-1,5,5,0.14,,68,5193,13,36,47,0.95,7.9,571,4.89,13.2,81.0,1,29.9,2.99,6.4,0,0,0,1,0,,,,,,,,,,,,,,,,,,,,
43684,1627482363166,,,248,250,240,234,,-0.11,-0.05,1.89,-1,2,2,0.12,,68,5064,16,36,51,0.95,7.9,557,4.82,13.0,81.0,1,30.9,3.1,6.4,0,0,0,1,0,,,,,,,,,,,,,,,,,,,,
43704,1627482363186,,,248,250,240,234,,-0.06,-0.08,1.75,-1,1,1,0.1,,68,5030,19,36,56,0.952,7.9,551,4.92,13.3,81.0,1,32.4,3.2,6.4,0,0,0,1,0,,,,,,,,,,,,,,,,,,,,
43724,1627482363206,,,248,251,240,234,,-0.12,-0.05,1.61,-1,5,6,0.13,,68,5028,22,36,62,0.955,7.8,546,4.91,13.2,81.0,1,34.3,3.14,6.4,0,0,0,1,0,,,,,,,,,,,,,,,,,,,,
43744,1627482363226,3,1,248,251,239,234,-5,-0.06,-0.03,1.8,-1,-1,1,0.06,1,68,5193,24,36,68,0.961,7.6,539,4.76,12.9,81.0,1,36.1,3.58,6.4,0,0,0,1,0,76,250,250,76,47.221138,14.761171,9.18,687.7,9,2,1.7,0,0.0,-1,0.0,,0.0,0,0.04,0.7291
43764,1627482363246,,,248,250,240,234,,-0.15,-0.08,1.66,-1,5,7,0.17,,68,5343,25,36,73,0.966,7.6,551,4.86,13.1,125.0,1,37.1,3.98,9.5,0,0,0,1,0,,,,,,,,,,,,,,,,,,,,
43784,1627482363266,,,248,251,239,234,,-0.02,-0.02,1.84,-1,-5,0,0.03,,68,5514,25,36,77,0.973,7.5,573,4.99,13.2,125.0,1,37.9,4.3,9.5,0,0,0,1,0,,,,,,,,,,,,,,,,,,,,
43804,1627482363286,,,248,250,240,234,,-0.03,0.04,1.97,-1,-1,2,0.05,,68,5769,25,36,79,0.979,7.3,583,4.86,12.9,125.0,1,37.9,4.51,9.5,0,0,0,1,0,,,,,,,,,,,,,,,,,,,,
43824,1627482363304,,,248,250,239,234,,-0.05,0.06,1.82,-1,3,5,0.07,,68,6013,25,36,80,0.987,7.3,595,4.78,12.9,125.0,1,37.7,4.67,9.5,0,0,0,1,0,,,,,,,,,,,,,,,,,,,,
43844,1627482363324,3,1,248,249,239,234,-4,-0.0,0.07,1.87,-1,3,4,0.07,1,68,6306,25,36,80,0.997,7.3,619,4.78,13.0,125.0,1,39.7,4.47,9.5,0,0,0,1,0,72,250,250,73,47.221138,14.761174,9.4,687.8,9,2,1.7,0,0.0,-1,0.0,0.0,0.0,0,0.04,0.7307
43864,1627482363344,,,248,250,239,234,,0.02,0.04,1.96,-1,1,3,0.05,,68,6558,23,36,79,1.008,7.3,633,4.92,13.2,179.4,1,41.1,4.31,13.1,0,0,0,1,0,,,,,,,,,,,,,,,,,,,,
43884,1627482363364,,,247,251,239,234,,0.03,0.05,1.81,-1,2,3,0.06,,68,7006,18,36,77,1.012,7.1,634,4.82,13.1,179.4,1,43.4,4.02,13.1,0,0,0,1,0,,,,,,,,,,,,,,,,,,,,
43904,1627482363384,,,248,251,239,234,,0.03,0.02,1.75,-1,1,2,0.04,,68,7473,14,36,74,1.013,7.0,646,4.86,13.0,179.4,1,40.8,3.98,13.1,0,0,0,1,0,,,,,,,,,,,,,,,,,,,,
43924,1627482363404,,,248,251,239,234,,0.05,0.01,1.92,-1,-0,-0,0.05,,68,7780,11,36,70,1.015,7.0,653,4.86,12.9,179.4,1,39.1,3.57,13.1,0,0,0,1,0,,,,,,,,,,,,,,,,,,,,
43944,1627482363424,2,3,248,251,239,234,-3,0.02,0.04,1.9,-1,-1,-1,0.05,1,68,8019,9,36,65,1.017,6.9,665,4.87,13.2,179.4,1,38.1,3.03,13.1,0,0,0,1,0,69,-27648,-27648,69,47.221138,14.761174,8.59,687.8,9,2,1.7,0,0.0,-1,0.0,,0.0,0,0.04,0.7324
43964,1627482363444,,,248,251,239,234,,0.04,0.05,1.75,-1,-0,-0,0.06,,68,8415,8,36,59,1.026,6.7,661,4.96,12.9,159.4,1,42.0,3.0,11.0,0,0,0,1,0,,,,,,,,,,,,,,,,,,,,
43984,1627482363464,,,248,251,239,234,,0.04,0.12,1.62,-0,1,3,0.13,,68,8741,8,36,53,1.035,6.7,668,4.76,13.0,159.4,1,39.0,3.13,11.0,0,0,0,1,0,,,,,,,,,,,,,,,,,,,,
44004,1627482363484,,,248,251,239,234,,0.03,0.19,1.59,-0,0,4,0.19,,68,9040,8,36,48,1.041,6.6,678,4.93,13.1,159.4,1,37.4,3.0,11.0,0,0,0,1,0,,,,,,,,,,,,,,,,,,,,
44024,1627482363506,,,248,250,239,234,,0.06,0.28,1.47,-0,0,6,0.29,,68,9222,8,36,44,1.05,6.6,682,4.8,13.0,159.4,1,35.3,1.78,11.0,0,0,0,1,0,,,,,,,,,,,,,,,,,,,,
44044,1627482363526,2,2,248,251,239,235,-3,0.08,0.23,1.54,0,-0,6,0.24,1,68,9342,8,36,41,1.045,6.5,685,4.75,12.9,159.4,1,33.4,2.82,11.0,0,0,0,1,0,65,-6656,-6656,65,47.221138,14.761174,8.27,687.7,9,2,1.7,0,0.0,-1,0.0,0.0,0.0,0,0.04,0.7341
44064,1627482363546,,,248,249,239,234,,0.06,0.17,1.48,-0,-1,3,0.18,,68,9356,8,36,38,1.031,6.5,685,4.92,13.1,181.5,1,31.7,2.7,11.8,0,0,0,1,0,,,,,,,,,,,,,,,,,,,,
44084,1627482363566,,,248,251,239,235,,0.04,0.11,1.42,-0,-0,2,0.12,,68,9204,8,36,36,1.023,6.4,678,4.69,13.0,181.5,1,31.1,2.61,11.8,0,0,0,1,0,,,,,,,,,,,,,,,,,,,,
44104,1627482363586,,,248,251,239,234,,-0.02,0.1,1.31,-1,0,-0,0.1,,68,9057,8,36,35,1.011,6.4,676,4.7,13.0,181.5,1,30.8,2.55,11.8,0,0,0,1,0,,,,,,,,,,,,,,,,,,,,
44124,1627482363606,,,248,251,239,235,,-0.03,0.02,1.25,-1,1,-1,0.04,,68,8852,8,36,35,0.999,6.2,675,4.87,13.1,181.5,1,30.8,2.54,11.8,0,0,0,1,0,,,,,,,,,,,,,,,,,,,,
44144,1627482363626,3,1,248,251,239,235,-3,-0.04,-0.03,1.27,-1,1,-5,0.06,1,68,8600,8,36,34,0.991,6.1,674,4.9,13.1,181.5,1,30.5,2.5,11.8,0,0,0,1,0,61,-1,-1,61,47.221138,14.761174,7.27,687.5,9,2,1.7,0,0.0,-1,0.0,,0.0,0,0.04,0.7357
44164,1627482363646,,,248,251,239,234,,-0.04,0.01,1.18,-1,1,-3,0.04,,68,8348,8,36,34,0.984,6.1,660,4.81,12.9,154.0,1,30.1,2.4,9.4,0,0,0,1,0,,,,,,,,,,,,,,,,,,,,
44184,1627482363666,,,247,251,239,235,,-0.03,-0.05,1.39,-1,-1,-5,0.06,,68,8138,8,36,34,0.977,5.9,666,4.81,13.2,154.0,1,29.7,2.16,9.4,0,0,0,1,0,,,,,,,,,,,,,,,,,,,,
44204,1627482363686,,,248,251,239,235,,-0.07,-0.0,1.29,-1,0,-3,0.07,,68,7921,8,36,34,0.97,5.9,657,4.95,13.1,154.0,1,29.5,2.03,9.4,0,0,0,1,0,,,,,,,,,,,,,,,,,,,,
44224,1627482363706,,,248,251,239,235,,-0.09,0.02,1.19,-0,1,-1,0.09,,68,7703,8,36,35,0.956,5.8,654,5.01,13.1,154.0,1,29.8,2.03,9.4,0,0,0,1,0,,,,,,,,,,,,,,,,,,,,
44244,1627482363726,3,2,247,251,239,235,-4,-0.1,0.03,1.11,-0,2,0,0.1,1,68,7440,8,36,35,0.939,5.8,645,4.9,13.0,154.0,1,29.8,2.08,9.4,0,0,0,1,0,58,-1,-1,58,47.221138,14.761174,6.75,687.5,9,2,1.7,0,0.0,-1,0.0,0.0,0.0,0,0.04,0.7374
44264,1627482363746,,,247,251,239,234,,-0.1,0.03,1.03,-0,3,1,0.1,,68,7259,8,36,36,0.929,5.7,645,4.85,13.0,122.4,1,30.1,2.12,7.1,0,0,0,1,0,,,,,,,,,,,,,,,,,,,,
44284,1627482363766,,,248,251,239,235,,-0.06,0.06,1.25,-0,0,-1,0.08,,68,7027,8,36,37,0.92,5.7,647,4.88,13.2,122.4,1,30.4,2.12,7.1,0,0,0,1,0,,,,,,,,,,,,,,,,,,,,
44304,1627482363786,,,248,251,239,235,,-0.1,0.04,1.16,-0,2,0,0.11,,68,6815,8,36,37,0.93,5.6,641,4.78,12.9,122.4,1,30.1,2.17,7.1,0,0,0,1,0,,,,,,,,,,,,,,,,,,,,
44324,1627482363806,,,248,251,239,234,,-0.06,0.03,1.38,-0,-0,-2,0.07,,68,6718,8,36,37,0.938,5.6,643,4.87,13.2,122.4,1,30.0,2.17,7.1,0,0,0,1,0,,,,,,,,,,,,,,,,,,,,
44344,1627482363826,1,2,248,251,239,235,-3,-0.12,0.04,1.27,-0,3,1,0.13,1,68,6592,8,36,38,0.946,5.4,636,4.88,13.1,122.4,1,30.2,2.17,7.1,0,0,0,1,0,55,-1,-1,54,47.221138,14.761174,6.56,687.6,9,2,1.7,0,0.0,-1,0.0,,0.0,0,0.04,0.7391
44364,1627482363846,,,247,251,239,235,,-0.09,0.02,1.48,-0,1,-1,0.09,,68,6499,8,36,37,0.965,5.4,637,4.87,13.2,120.3,1,29.8,2.22,6.5,0,0,0,1,0,,,,,,,,,,,,,,,,,,,,
44384,1627482363866,,,248,251,239,235,,-0.05,-0.01,1.67,-0,-1,-2,0.05,,68,6414,9,36,38,0.983,5.4,631,4.87,13.2,120.3,1,29.9,2.22,6.5,0,0,0,1,0,,,,,,,,,,,,,,,,,,,,
44404,1627482363886,,,247,251,239,235,,-0.09,0.01,1.54,-0,1,0,0.09,,68,6289,11,36,40,1.01,5.4,627,4.92,13.0,120.3,1,30.3,2.28,6.5,0,0,0,1,0,,,,,,,,,,,,,,,,,,,,
44424,1627482363905,,,248,251,239,234,,-0.15,0.04,1.43,-0,4,3,0.16,,68,6184,12,36,42,1.026,5.4,626,4.91,12.9,120.3,1,30.6,1.17,6.5,0,0,0,1,0,,,,,,,,,,,,,,,,,,,,
44444,1627482363925,-0,2,248,251,239,235,-3,-0.21,0.05,1.32,-0,7,6,0.21,1,68,6064,14,36,45,1.055,5.2,623,4.82,13.0,120.3,1,30.9,2.3,6.5,0,0,0,1,0,52,-1,-1,52,47.221138,14.761174,6.41,687.5,9,2,1.7,0,0.0,-1,0.0,0.0,0.0,0,0.04,0.7407
44464,1627482363945,,,248,251,239,235,,-0.26,0.06,1.21,-0,10,7,0.26,,68,5948,16,36,48,1.072,5.2,617,4.83,13.0,123.0,1,31.3,2.33,6.4,0,0,0,1,0,,,,,,,,,,,,,,,,,,,,
44484,1627482363965,,,248,251,239,235,,-0.3,0.04,1.12,-0,14,10,0.31,,68,5877,17,36,52,1.095,5.2,611,4.86,12.9,123.0,1,32.0,2.34,6.4,0,0,0,1,0,,,,,,,,,,,,,,,,,,,,
44504,1627482363985,,,248,251,238,234,,-0.34,0.04,1.03,-0,16,12,0.34,,68,5961,17,36,56,1.121,5.2,615,4.82,12.9,123.0,1,32.9,2.26,6.4,0,0,0,1,0,,,,,,,,,,,,,,,,,,,,
44524,1627482363997,,,248,251,239,234,,-0.34,0.06,0.95,-0,18,14,0.35,,68,5975,17,36,60,1.139,5.1,620,4.83,12.9,123.0,1,33.7,2.2,6.4,0,0,0,1,0,,,,,,,,,,,,,,,,,,,,
44544,1627482364017,1,1,248,251,239,235,-3,-0.38,0.07,0.88,-0,19,16,0.38,1,68,6028,17,36,62,1.137,5.1,620,4.82,12.9,123.0,1,34.5,2.34,6.4,0,0,0,1,0,51,-1,-1,51,47.221142,14.761176,6.26,687.6,9,2,1.8,0,0.0,-1,0.0,,0.0,0,0.04,0.7424
44564,1627482364037,,,248,251,239,234,,-0.41,0.07,0.81,-0,20,17,0.42,,68,6064,17,36,65,1.136,5.1,622,4.81,12.9,147.0,1,35.1,2.84,7.5,0,0,0,1,0,,,,,,,,,,,,,,,,,,,,
44584,1627482364057,,,248,251,239,235,,-0.36,0.09,0.86,-0,22,18,0.37,,68,6071,17,36,66,1.136,5.1,618,4.8,13.0,147.0,1,35.3,3.01,7.5,0,0,0,1,0,,,,,,,,,,,,,,,,,,,,
44604,1627482364077,,,248,251,239,235,,-0.29,0.09,1.1,-0,23,19,0.3,,68,6093,17,36,67,1.134,5.0,623,4.78,13.0,147.0,1,35.6,3.17,7.5,0,0,0,1,0,,,,,,,,,,,,,,,,,,,,
44624,1627482364105,,,247,251,239,234,,-0.21,0.09,1.32,-0,23,18,0.23,,68,6163,17,36,68,1.119,5.0,627,4.78,13.1,147.0,1,36.3,3.42,7.5,0,0,0,1,0,,,,,,,,,,,,,,,,,,,,
44644,1627482364125,1,0,248,251,239,234,-2,-0.14,0.07,1.53,-0,18,14,0.16,1,68,6296,16,36,69,1.107,5.0,630,4.8,13.2,147.0,1,37.2,3.43,7.5,0,0,0,1,0,49,-1,-1,50,47.221142,14.761178,5.95,687.6,9,2,1.8,0,0.0,-1,0.0,0.0,0.0,0,0.04,0.7441
44664,1627482364145,,,248,251,239,234,,-0.15,0.06,1.41,-0,14,11,0.16,,68,6388,14,36,68,1.089,5.0,630,4.93,13.2,198.0,1,37.5,3.37,9.9,0,0,0,1,0,,,,,,,,,,,,,,,,,,,,
44684,1627482364165,,,248,251,239,234,,-0.14,0.08,1.3,-0,15,13,0.16,,68,6558,13,36,66,1.077,5.0,630,4.88,13.1,198.0,1,38.0,3.09,9.9,0,0,0,1,0,,,,,,,,,,,,,,,,,,,,
44704,1627482364185,,,248,251,239,235,,-0.13,0.06,1.26,-0,12,10,0.15,,68,6888,12,36,64,1.063,4.9,638,4.82,13.2,198.0,1,38.7,2.86,9.9,0,0,0,1,0,,,,,,,,,,,,,,,,,,,,
44724,1627482364203,,,248,251,239,234,,-0.1,0.08,1.43,-0,12,9,0.13,,68,7181,12,36,62,1.046,4.9,640,4.76,13.2,198.0,1,38.5,2.63,9.9,0,0,0,1,0,,,,,,,,,,,,,,,,,,,,
44744,1627482364223,0,2,248,251,239,234,-2,-0.08,0.06,1.32,-0,11,9,0.1,1,68,7370,12,36,61,1.036,4.9,642,4.86,13.0,198.0,1,38.1,2.5,9.9,0,0,0,1,0,48,-1,-1,49,47.221146,14.761178,6.57,687.7,9,2,1.8,0,0.0,-1,0.0,,0.0,0,0.04,0.7457
44764,1627482364243,,,248,251,239,234,,-0.07,0.05,1.45,-0,10,7,0.08,,68,7470,12,36,60,1.025,4.8,651,4.91,13.0,177.0,1,37.8,2.44,8.5,0,0,0,1,0,,,,,,,,,,,,,,,,,,,,
44784,1627482364263,,,248,251,238,234,,-0.04,0.04,1.55,-0,9,6,0.05,,68,7572,12,36,58,1.025,4.8,649,4.96,13.0,177.0,1,37.3,2.44,8.5,0,0,0,1,0,,,,,,,,,,,,,,,,,,,,
44804,1627482364283,,,248,251,239,234,,-0.02,0.02,1.54,-0,8,4,0.03,,68,7649,12,36,56,1.037,4.8,653,4.81,13.1,177.0,1,37.0,2.41,8.5,0,0,0,1,0,,,,,,,,,,,,,,,,,,,,
44824,1627482364303,,,247,251,239,234,,-0.03,-0.01,1.42,-0,6,2,0.03,,68,7731,12,36,55,1.044,4.8,652,4.85,13.0,177.0,1,36.8,2.4,8.5,0,0,0,1,0,,,,,,,,,,,,,,,,,,,,
44844,1627482364323,0,1,248,251,239,234,-2,-0.07,0.02,1.31,-0,5,2,0.07,1,68,7838,12,36,54,1.055,4.7,659,4.86,13.2,177.0,1,36.9,2.42,8.5,0,0,0,1,0,47,-1,-1,47,47.221146,14.761179,6.67,687.7,9,2,1.8,0,0.0,-1,0.0,0.0,0.0,0,0.04,0.7474
44864,1627482364343,,,248,251,238,234,,-0.04,-0.03,1.23,-0,5,4,0.05,,68,8012,12,36,53,1.063,4.7,661,4.91,13.0,189.3,1,37.0,1.34,8.9,0,0,0,1,0,,,,,,,,,,,,,,,,,,,,
44884,1627482364363,,,248,251,238,234,,-0.04,-0.09,1.33,-0,4,2,0.09,,68,8184,12,36,51,1.073,4.7,655,4.98,12.9,189.3,1,37.2,2.62,8.9,0,0,0,1,0,,,,,,,,,,,,,,,,,,,,
44904,1627482364383,,,248,251,238,234,,-0.02,-0.04,1.23,-0,5,5,0.04,,68,8366,12,36,49,1.084,4.7,667,4.81,13.1,189.3,1,37.2,2.78,8.9,0,0,0,1,0,,,,,,,,,,,,,,,,,,,,
44924,1627482364403,,,248,251,239,235,,-0.02,-0.03,1.19,-0,4,2,0.03,,68,8604,12,36,47,1.099,4.7,669,4.86,13.1,189.3,1,37.0,2.9,8.9,0,0,0,1,0,,,,,,,,,,,,,,,,,,,,
44944,1627482364423,-0,2,248,251,239,234,-2,-0.03,-0.04,1.33,-0,2,-1,0.05,1,68,8836,12,36,45,1.108,4.6,673,4.88,13.1,189.3,1,35.7,2.87,8.9,0,0,0,1,0,46,-1,-1,46,47.221149,14.761179,6.4,687.7,9,2,1.8,0,0.0,-1,0.0,,0.0,0,0.04,0.7491
44964,1627482364443,,,248,251,239,234,,-0.07,-0.01,1.4,-1,1,-3,0.07,,68,9023,12,36,43,1.117,4.6,677,4.72,12.9,256.5,1,34.5,2.83,11.8,0,0,0,1,0,,,,,,,,,,,,,,,,,,,,
44984,1627482364463,,,248,251,239,234,,-0.07,0.03,1.42,-1,-0,-5,0.08,,68,9168,12,36,42,1.127,4.6,687,4.83,13.1,256.5,1,33.9,2.81,11.8,0,0,0,1,0,,,,,,,,,,,,,,,,,,,,
45004,1627482364483,,,248,251,239,234,,-0.05,0.07,1.4,-1,-1,-6,0.09,,68,9286,12,36,41,1.136,4.6,678,4.83,13.0,256.5,1,33.3,2.79,11.8,0,0,0,1,0,,,,,,,,,,,,,,,,,,,,
45024,1627482364505,,,247,251,239,234,,-0.03,0.06,1.34,-1,-1,-4,0.06,,68,9398,13,36,40,1.135,4.6,678,4.86,13.0,256.5,1,32.7,2.77,11.8,0,0,0,1,0,,,,,,,,,,,,,,,,,,,,
45044,1627482364525,-0,2,248,251,239,234,-2,-0.04,-0.02,1.34,-0,-1,-5,0.04,1,68,9488,13,36,40,1.124,4.5,675,4.8,12.9,256.5,1,32.7,2.75,11.8,0,0,0,1,0,45,-1,-1,45,47.221149,14.761181,6.36,687.6,9,2,1.8,0,0.0,-1,0.0,0.0,0.0,0,0.04,0.7507
45064,1627482364545,,,248,251,239,234,,-0.03,0.07,1.24,-1,-1,-5,0.08,,68,9551,14,36,39,1.113,4.5,681,4.81,13.1,271.1,1,32.0,2.74,12.2,0,0,0,1,0,,,,,,,,,,,,,,,,,,,,
45084,1627482364565,,,248,251,239,235,,-0.01,-0.01,1.37,-0,0,-3,0.02,,68,9625,14,36,39,1.101,4.5,681,4.87,13.0,271.1,1,32.0,2.7,12.2,0,0,0,1,0,,,,,,,,,,,,,,,,,,,,
45104,1627482364585,,,248,251,238,234,,-0.01,0.03,1.39,-0,-1,-4,0.03,,68,9704,14,36,39,1.093,4.4,686,4.82,12.9,271.1,1,32.0,2.66,12.2,0,0,0,1,0,,,,,,,,,,,,,,,,,,,,
45124,1627482364605,,,248,251,238,235,,-0.0,0.02,1.42,-0,-1,-3,0.02,,68,9775,15,36,39,1.077,4.4,687,4.89,13.0,271.1,1,32.0,2.62,12.2,0,0,0,1,0,,,,,,,,,,,,,,,,,,,,
45144,1627482364625,0,1,248,251,239,234,-2,0.01,0.09,1.31,-0,-0,-3,0.09,1,68,9852,15,36,39,1.065,4.4,688,4.75,13.1,271.1,1,32.0,2.58,12.2,0,0,0,1,0,44,-1,-1,43,47.221149,14.761183,6.4,687.6,9,2,1.8,0,0.0,-1,0.0,,0.0,0,0.04,0.7524
45164,1627482364645,,,248,251,238,234,,-0.03,-0.07,1.52,-0,-0,-2,0.08,,68,9910,15,36,38,1.056,4.4,686,4.82,12.9,269.7,1,31.7,2.53,11.6,0,0,0,1,0,,,,,,,,,,,,,,,,,,,,
45184,1627482364665,,,248,251,239,234,,0.03,0.1,1.48,-0,-0,-2,0.1,,68,9952,15,36,38,1.037,4.4,687,4.86,13.1,269.7,1,31.7,2.51,11.6,0,0,0,1,0,,,,,,,,,,,,,,,,,,,,
45204,1627482364685,,,248,251,238,234,,-0.01,-0.01,1.36,-0,-0,-2,0.02,,68,9994,15,36,38,1.023,4.3,692,4.77,13.0,269.7,1,31.7,2.49,11.6,0,0,0,1,0,,,,,,,,,,,,,,,,,,,,
45224,1627482364705,,,248,251,239,234,,-0.02,-0.16,1.57,-0,0,-0,0.16,,68,10032,15,36,38,0.999,4.3,683,4.87,13.0,269.7,1,31.7,2.48,11.6,0,0,0,1,0,,,,,,,,,,,,,,,,,,,,
45244,1627482364725,0,0,248,251,239,234,0,0.02,0.01,1.56,-0,-0,-1,0.03,1,68,10016,15,36,38,0.982,4.3,685,4.82,13.1,269.7,1,31.7,2.48,11.6,0,0,0,1,0,42,5470,5470,43,47.221149,14.761183,5.91,687.5,9,2,1.9,0,0.0,-1,0.0,0.0,0.0,0,0.04,0.7541
45264,1627482364745,,,248,251,239,234,,0.01,-0.07,1.44,-0,-1,-1,0.07,,68,10037,15,36,38,0.968,4.3,682,4.87,12.9,267.4,1,31.7,2.48,11.5,0,0,0,1,0,,,,,,,,,,,,,,,,,,,,
45284,1627482364765,,,248,251,239,234,,-0.02,-0.21,1.64,-0,-1,0,0.21,,68,10091,15,36,37,0.96,4.3,687,4.85,13.0,267.4,1,31.4,2.47,11.5,0,0,0,1,0,,,,,,,,,,,,,,,,,,,,
45304,1627482364785,,,248,251,239,235,,0.01,-0.04,1.68,0,-1,0,0.04,,68,10118,14,36,37,0.953,4.3,690,4.95,13.0,267.4,1,31.4,2.47,11.5,0,0,0,1,0,,,,,,,,,,,,,,,,,,,,
45324,1627482364805,,,248,251,238,234,,0.03,0.11,1.55,-0,0,1,0.12,,68,10096,13,36,36,0.946,4.2,695,4.86,13.0,267.4,1,31.1,2.46,11.5,0,0,0,1,0,,,,,,,,,,,,,,,,,,,,
45344,1627482364825,1,0,248,251,238,234,-0,-0.01,-0.05,1.74,-0,-1,0,0.05,1,68,10107,13,36,36,0.939,4.2,688,4.86,12.9,267.4,1,31.1,2.46,11.5,0,0,0,1,0,42,5470,5470,42,47.221153,14.761184,6.6,687.5,9,2,1.9,0,0.0,-1,0.0,,0.0,0,0.04,0.7557
45364,1627482364845,,,248,251,238,234,,0.0,-0.16,1.84,-0,-2,-1,0.16,,68,10096,13,36,35,0.932,4.2,688,4.77,13.1,271.4,1,30.8,2.46,11.4,0,0,0,1,0,,,,,,,,,,,,,,,,,,,,
45384,1627482364865,,,248,251,239,235,,0.03,0.01,1.7,0,0,1,0.03,,68,10037,12,36,35,0.926,4.2,688,4.76,13.0,271.4,1,30.8,2.44,11.4,0,0,0,1,0,,,,,,,,,,,,,,,,,,,,
45404,1627482364885,,,248,251,239,234,,-0.0,0.02,1.79,-0,-1,-1,0.02,,68,10005,12,36,34,0.92,4.2,682,4.87,13.1,271.4,1,30.5,2.43,11.4,0,0,0,1,0,,,,,,,,,,,,,,,,,,,,
45424,1627482364904,,,248,251,239,235,,0.0,-0.13,1.77,0,-1,-1,0.13,,68,9968,12,36,34,0.914,4.1,685,4.82,13.0,271.4,1,30.5,2.44,11.4,0,0,0,1,0,,,,,,,,,,,,,,,,,,,,
45444,1627482364924,-0,2,248,251,239,234,0,0.02,0.04,1.63,0,1,1,0.04,1,68,9863,12,36,33,0.911,4.1,683,4.83,13.1,271.4,1,30.2,2.46,11.4,0,0,0,1,0,41,24067,24067,40,47.221153,14.761186,6.98,687.5,9,2,1.9,0,0.0,-1,0.0,0.0,0.0,0,0.04,0.7574
45464,1627482364944,,,248,251,238,235,,-0.01,-0.11,1.8,0,0,1,0.11,,68,9750,11,36,33,0.91,4.1,680,4.83,12.9,280.0,1,30.2,2.49,11.2,0,0,0,1,0,,,,,,,,,,,,,,,,,,,,
45484,1627482364964,,,248,251,238,235,,0.01,0.06,1.71,0,-0,-0,0.06,,68,9640,11,36,33,0.908,4.0,678,4.85,13.1,280.0,1,30.2,2.53,11.2,0,0,0,1,0,,,,,,,,,,,,,,,,,,,,
45504,1627482364984,,,248,251,239,234,,0.04,-0.02,1.7,0,-0,1,0.05,,68,9484,11,36,33,0.907,4.0,682,4.83,12.9,280.0,1,30.2,2.57,11.2,0,0,0,1,0,,,,,,,,,,,,,,,,,,,,
45524,1627482364996,,,248,251,239,234,,0.01,-0.07,1.61,0,-1,-0,0.07,,68,9360,11,36,33,0.907,4.0,680,4.77,13.0,280.0,1,30.2,2.53,11.2,0,0,0,1,0,,,,,,,,,,,,,,,,,,,,
45544,1627482365016,-1,2,248,251,239,234,-0,0.0,-0.09,1.51,0,-1,-2,0.09,1,68,9159,10,36,33,0.906,4.0,675,4.81,13.1,280.0,1,30.2,2.49,11.2,0,0,0,1,0,40,-1281,1018,40,47.221153,14.761188,7.14,687.5,9,2,1.8,0,0.0,-1,0.0,,0.0,0,0.04,0.7591
45564,1627482365036,,,248,251,238,235,,-0.06,-0.04,1.4,-0,-1,-5,0.07,,68,8962,10,36,34,0.905,4.0,669,4.87,13.1,260.0,1,30.5,2.5,10.4,0,0,0,1,0,,,,,,,,,,,,,,,,,,,,
45584,1627482365056,,,247,251,239,234,,-0.06,-0.12,1.39,-0,-1,-8,0.14,,68,8790,10,36,34,0.904,4.0,669,4.85,13.1,260.0,1,30.5,2.5,10.4,0,0,0,1,0,,,,,,,,,,,,,,,,,,,,
45604,1627482365076,,,248,251,238,234,,-0.06,-0.14,1.44,-0,-0,-8,0.15,,68,8704,10,36,34,0.907,3.9,671,4.83,12.9,260.0,1,30.5,2.5,10.4,0,0,0,1,0,,,,,,,,,,,,,,,,,,,,
45624,1627482365102,,,248,251,239,234,,-0.05,-0.09,1.32,-0,0,-5,0.1,,68,8526,10,36,34,0.91,3.9,667,4.85,13.0,260.0,1,30.5,2.5,10.4,0,0,0,1,0,,,,,,,,,,,,,,,,,,,,
45644,1627482365122,-1,3,248,251,238,234,-0,-0.06,-0.12,1.51,-0,-2,-7,0.13,1,68,8314,10,36,35,0.913,3.8,666,4.88,13.0,260.0,1,30.4,2.37,10.4,0,0,0,1,0,38,-1,-1,38,47.221157,14.761188,7.48,687.6,9,2,1.8,0,0.0,-1,0.0,0.0,0.0,0,0.04,0.7607
45664,1627482365142,,,248,251,239,234,,-0.04,-0.1,1.4,-0,-0,-4,0.11,,68,8085,10,36,36,0.917,3.8,660,4.9,13.0,218.4,1,30.2,2.18,8.3,0,0,0,1,0,,,,,,,,,,,,,,,,,,,,
45684,1627482365162,,,248,251,238,235,,-0.01,-0.18,1.58,-0,-2,-6,0.18,,68,7911,10,36,36,0.925,3.8,658,4.86,13.0,218.4,1,30.1,2.12,8.3,0,0,0,1,0,,,,,,,,,,,,,,,,,,,,
45704,1627482365182,,,248,251,239,234,,-0.01,-0.15,1.68,-0,-4,-8,0.15,,68,7776,10,36,37,0.933,3.8,659,4.83,13.2,218.4,1,30.4,2.17,8.3,0,0,0,1,0,,,,,,,,,,,,,,,,,,,,
45724,1627482365202,,,248,251,239,234,,-0.03,-0.12,1.55,-0,-4,-8,0.12,,68,7649,10,36,38,0.938,3.7,656,4.89,13.2,218.4,1,30.7,2.17,8.3,0,0,0,1,0,,,,,,,,,,,,,,,,,,,,
45744,1627482365222,1,1,248,251,238,234,-0,-0.06,-0.07,1.43,0,-2,-6,0.09,1,68,7575,10,36,38,0.948,3.7,650,4.88,13.2,218.4,1,30.7,2.22,8.3,0,0,0,1,0,38,-1,-1,37,47.221157,14.761192,7.9,687.6,9,2,1.7,0,0.0,-1,0.0,,0.0,0,0.04,0.7624
45764,1627482365242,,,248,251,239,234,,-0.11,-0.09,1.32,0,-1,-3,0.14,,68,7542,10,36,38,0.958,3.7,652,4.95,13.2,208.1,1,30.7,2.22,7.7,0,0,0,1,0,,,,,,,,,,,,,,,,,,,,
45784,1627482365262,,,248,251,238,235,,-0.15,-0.07,1.22,0,-0,-1,0.16,,68,7530,10,36,39,0.966,3.7,654,4.95,13.1,208.1,1,31.0,2.22,7.7,0,0,0,1,0,,,,,,,,,,,,,,,,,,,,
45804,1627482365282,,,248,251,239,234,,-0.16,-0.06,1.16,0,-0,-0,0.17,,68,7527,10,36,39,0.974,3.7,650,4.92,13.2,208.1,1,31.0,2.28,7.7,0,0,0,1,0,,,,,,,,,,,,,,,,,,,,
45824,1627482365300,,,248,251,239,234,,-0.2,0.02,1.12,1,1,1,0.2,,68,7521,10,36,39,0.987,3.7,649,4.93,13.1,208.1,1,31.0,2.28,7.7,0,0,0,1,0,,,,,,,,,,,,,,,,,,,,
45844,1627482365320,5,3,248,251,239,234,-0,-0.23,0.04,1.04,1,2,3,0.23,1,68,7497,10,36,40,0.993,3.6,652,4.84,13.2,208.1,1,31.4,2.28,7.7,0,0,0,1,0,35,-1,-1,35,47.221157,14.761195,8.43,687.4,9,2,1.7,0,0.0,-1,0.0,0.0,0.0,0,0.04,0.7641
45864,1627482365340,,,248,251,239,234,,-0.26,0.08,0.96,1,3,4,0.27,,68,7497,11,36,40,1.003,3.6,653,4.93,13.1,225.7,1,31.4,2.28,7.9,0,0,0,1,0,,,,,,,,,,,,,,,,,,,,
45884,1627482365360,,,248,251,238,235,,-0.28,0.07,0.92,1,3,5,0.29,,68,7506,11,36,40,1.008,3.6,655,4.84,13.2,225.7,1,31.5,2.28,7.9,0,0,0,1,0,,,,,,,,,,,,,,,,,,,,
45904,1627482365380,,,248,250,239,235,,-0.31,0.1,0.93,1,3,5,0.33,,68,7500,11,36,41,1.016,3.5,653,4.89,13.1,225.7,1,32.0,2.28,7.9,0,0,0,1,0,,,,,,,,,,,,,,,,,,,,
45924,1627482365402,,,247,249,239,235,,-0.32,0.11,0.86,1,3,6,0.34,,68,7488,11,36,41,1.019,3.2,650,4.92,13.1,225.7,1,31.9,2.28,7.9,0,0,0,1,0,,,,,,,,,,,,,,,,,,,,
45944,1627482365422,6,3,248,251,239,234,0,-0.34,0.16,0.79,1,4,7,0.37,1,68,7533,11,36,42,1.015,3.2,652,4.94,13.1,225.7,1,32.5,2.28,7.9,0,0,0,1,0,32,-1,-1,32,47.221157,14.761197,7.29,687.5,9,2,1.8,0,0.0,-1,0.0,,0.0,0,0.04,0.7657
45964,1627482365442,,,248,251,239,235,,-0.35,0.14,0.77,1,4,7,0.38,,68,7521,11,36,42,1.012,3.2,651,4.9,13.1,246.8,1,32.5,2.28,7.9,0,0,0,1,0,,,,,,,,,,,,,,,,,,,,
45984,1627482365462,,,248,251,239,235,,-0.37,0.15,0.84,1,4,7,0.4,,68,7563,11,36,42,1.009,3.2,651,4.87,13.1,246.8,1,32.5,2.28,7.9,0,0,0,1,0,,,,,,,,,,,,,,,,,,,,
46004,1627482365482,,,248,249,239,235,,-0.37,0.16,0.78,1,5,8,0.4,,68,7578,11,36,43,1.005,2.7,658,4.86,13.2,246.8,1,33.1,2.28,7.9,0,0,0,1,0,,,,,,,,,,,,,,,,,,,,
46024,1627482365504,,,247,251,239,235,,-0.36,0.17,0.72,1,6,10,0.4,,68,7603,11,36,43,0.997,2.7,651,4.93,13.0,246.8,1,33.1,2.28,7.9,0,0,0,1,0,,,,,,,,,,,,,,,,,,,,
46044,1627482365524,6,4,247,251,239,235,-0,-0.32,0.12,0.87,1,5,9,0.34,1,68,7628,11,36,43,0.992,2.7,657,4.85,13.0,246.8,1,33.2,2.28,7.9,0,0,0,1,0,28,-235,-235,26,47.221157,14.761199,6.21,687.4,9,2,1.9,0,0.0,-1,0.0,0.0,0.0,0,0.04,0.7674
46064,1627482365544,,,248,251,239,235,,-0.28,0.09,1.11,1,4,7,0.3,,68,7659,11,36,43,0.985,2.7,656,4.91,13.1,311.5,1,33.2,2.29,8.1,0,0,0,1,0,,,,,,,,,,,,,,,,,,,,
46084,1627482365564,,,247,251,239,235,,-0.25,0.08,1.33,1,2,4,0.26,,68,7700,11,36,43,0.978,2.7,654,4.96,13.0,311.5,1,33.3,1.18,8.1,0,0,0,1,0,,,,,,,,,,,,,,,,,,,,
46104,1627482365584,,,248,251,239,235,,-0.23,0.09,1.41,0,1,1,0.25,,68,7697,11,36,43,0.972,2.6,658,4.85,13.2,311.5,1,33.3,2.29,8.1,0,0,0,1,0,,,,,,,,,,,,,,,,,,,,
46124,1627482365602,,,247,251,239,234,,-0.25,0.11,1.3,0,1,1,0.27,,68,7735,11,36,43,0.969,2.0,656,4.77,13.1,311.5,1,33.3,2.29,8.1,0,0,0,1,0,,,,,,,,,,,,,,,,,,,,
46144,1627482365622,9,4,247,251,239,235,-0,-0.28,0.12,1.2,1,2,4,0.3,1,68,7754,11,36,43,0.964,2.0,656,4.8,13.2,311.5,1,33.4,2.29,8.1,0,0,0,1,0,21,-1,-1,20,47.221157,14.7612,5.39,687.4,9,2,1.8,0,0.0,-1,0.0,,0.0,0,0.04,0.7691
46164,1627482365642,,,247,251,239,234,,-0.29,0.14,1.11,1,5,7,0.32,,68,7793,11,36,43,0.96,2.0,655,4.92,13.0,0.0,1,33.4,2.3,8.2,0,0,0,1,0,,,,,,,,,,,,,,,,,,,,
46184,1627482365662,,,247,251,239,235,,-0.27,0.06,1.23,1,4,6,0.28,,68,7822,11,36,43,0.964,2.0,658,4.91,12.9,0.0,1,33.5,1.19,8.2,0,0,0,1,0,,,,,,,,,,,,,,,,,,,,
46204,1627482365682,,,247,251,239,235,,-0.25,0.02,1.38,1,3,3,0.25,,68,7841,11,36,42,0.968,2.0,657,4.77,13.1,0.0,1,32.8,2.29,8.2,0,0,0,1,0,,,,,,,,,,,,,,,,,,,,
46224,1627482365702,,,247,250,239,235,,-0.25,0.03,1.37,1,2,2,0.25,,68,7878,11,36,43,0.971,2.0,658,4.92,13.2,0.0,1,33.6,2.29,8.2,0,0,0,1,0,,,,,,,,,,,,,,,,,,,,
46244,1627482365722,11,4,247,249,239,235,-0,-0.27,0.06,1.26,1,3,4,0.28,1,68,7894,11,36,42,0.975,2.0,658,4.72,13.2,0.0,1,32.9,2.29,8.2,0,0,0,1,0,21,-1,-1,20,47.221161,14.7612,4.08,687.8,9,2,1.7,0,0.0,-1,0.0,0.0,0.0,0,0.04,0.7707
46264,1627482365742,,,247,250,239,235,,-0.26,0.02,1.31,1,2,3,0.26,,68,7938,11,36,42,0.983,2.0,652,4.86,12.9,0.0,1,33.0,2.3,8.4,0,0,0,1,0,,,,,,,,,,,,,,,,,,,,
46284,1627482365762,,,247,249,239,235,,-0.24,-0.02,1.41,1,1,1,0.24,,68,8012,11,36,42,0.987,2.0,658,4.91,12.9,0.0,1,33.1,2.32,8.4,0,0,0,1,0,,,,,,,,,,,,,,,,,,,,
46304,1627482365782,,,247,251,239,235,,-0.23,0.03,1.3,1,1,3,0.23,,68,8061,11,36,41,0.995,2.0,660,4.88,13.1,0.0,1,32.4,2.35,8.4,0,0,0,1,0,,,,,,,,,,,,,,,,,,,,
46324,1627482365802,,,247,251,239,235,,-0.19,-0.02,1.43,1,1,0,0.19,,68,8113,11,36,41,1.0,2.0,657,4.97,13.0,0.0,1,32.5,2.4,8.4,0,0,0,1,0,,,,,,,,,,,,,,,,,,,,
46344,1627482365822,9,6,248,251,238,234,-0,-0.2,0.02,1.32,1,-0,1,0.2,1,68,8184,11,36,40,1.004,2.0,660,4.81,13.1,0.0,1,31.9,1.35,8.4,0,0,0,1,0,21,-1,-1,20,47.221161,14.761199,4.46,688.0,9,2,1.7,0,0.0,-1,0.0,,0.0,0,0.04,0.7724
46364,1627482365842,,,248,251,238,234,,-0.13,-0.03,1.46,1,-1,1,0.13,,68,8227,11,36,40,1.007,2.0,662,4.92,12.9,0.0,1,32.0,2.48,9.3,0,0,0,1,0,,,,,,,,,,,,,,,,,,,,
46384,1627482365862,,,248,251,238,234,,-0.13,-0.02,1.35,1,-0,2,0.14,,68,8274,11,36,39,1.01,2.0,662,4.79,13.2,0.0,1,31.5,2.52,9.3,0,0,0,1,0,,,,,,,,,,,,,,,,,,,,
46404,1627482365882,,,248,251,238,234,,-0.09,-0.05,1.42,1,-0,1,0.11,,68,8318,11,36,39,1.012,2.0,662,5.01,13.0,0.0,1,31.6,2.55,9.3,0,0,0,1,0,,,,,,,,,,,,,,,,,,,,
46424,1627482365899,,,248,251,238,234,,-0.09,0.01,1.31,1,1,3,0.09,,68,8374,11,36,38,1.013,2.0,662,4.89,13.1,0.0,1,31.4,2.55,9.3,0,0,0,1,0,,,,,,,,,,,,,,,,,,,,
46444,1627482365919,10,5,248,251,238,234,-1,-0.08,-0.07,1.52,0,-1,-1,0.11,1,68,8426,11,36,38,1.013,2.0,668,4.87,13.1,0.0,1,31.5,2.6,9.3,0,0,0,1,0,21,-1,-1,20,47.221165,14.7612,4.14,688.0,9,2,1.7,0,0.0,-1,0.0,0.0,0.0,0,0.04,0.7741
46464,1627482365939,,,248,251,238,234,,-0.07,-0.07,1.4,1,-1,2,0.1,,68,8457,11,36,37,1.013,2.0,668,4.76,13.1,0.0,1,31.3,2.6,10.1,0,0,0,1,0,,,,,,,,,,,,,,,,,,,,
46484,1627482365959,,,248,251,238,234,,-0.07,-0.06,1.29,1,0,3,0.09,,68,8503,11,36,37,1.013,2.0,668,4.81,13.1,0.0,1,31.4,2.63,10.1,0,0,0,1,0,,,,,,,,,,,,,,,,,,,,
46504,1627482365979,,,248,251,238,234,,-0.06,-0.1,1.41,0,-0,0,0.12,,68,8507,11,36,37,1.01,2.0,662,4.9,13.0,0.0,1,31.4,2.63,10.1,0,0,0,1,0,,,,,,,,,,,,,,,,,,,,
46524,1627482366001,,,248,251,238,234,,-0.05,-0.09,1.3,1,0,2,0.1,,68,8522,11,36,36,1.006,2.0,666,4.8,13.1,0.0,1,31.1,2.59,10.1,0,0,0,1,0,,,,,,,,,,,,,,,,,,,,
46544,1627482366021,9,5,248,251,238,234,0,-0.05,-0.05,1.25,1,0,3,0.07,1,68,8522,11,36,36,1.002,2.0,671,4.81,13.1,0.0,1,31.1,2.59,10.1,0,0,0,1,0,21,-1,-1,20,47.221165,14.7612,4.1,688.0,9,2,1.8,0,0.0,-1,0.0,,0.0,0,0.05,0.7757
46564,1627482366041,,,248,251,238,234,,-0.05,-0.07,1.46,0,-1,-0,0.08,,68,8530,11,36,35,0.997,2.0,664,4.92,13.1,0.0,1,31.1,2.59,10.2,0,0,0,1,0,,,,,,,,,,,,,,,,,,,,
46584,1627482366061,,,248,251,238,234,,-0.03,-0.07,1.39,1,-1,1,0.07,,68,8511,11,36,35,0.992,2.0,667,4.88,13.0,0.0,1,30.8,2.54,10.2,0,0,0,1,0,,,,,,,,,,,,,,,,,,,,
46604,1627482366081,,,248,251,238,234,,-0.03,-0.02,1.28,1,-0,3,0.04,,68,8499,11,36,35,0.988,2.0,665,4.88,13.1,0.0,1,30.7,1.43,10.2,0,0,0,1,0,,,,,,,,,,,,,,,,,,,,
46624,1627482366103,,,248,251,238,234,,-0.02,-0.1,1.4,0,-1,-0,0.1,,68,8465,11,36,35,0.984,0.0,665,4.88,12.9,0.0,1,30.7,1.4,10.2,0,0,0,1,0,,,,,,,,,,,,,,,,,,,,
46644,1627482366123,9,5,248,251,238,234,0,-0.01,-0.06,1.29,1,0,2,0.06,1,68,8385,11,36,35,0.976,0.0,665,4.82,13.0,0.0,1,30.5,2.44,10.2,0,0,0,1,0,0,250,250,0,47.221165,14.7612,3.74,688.1,9,2,1.8,0,0.0,-1,0.0,0.0,0.0,0,0.05,0.7774
46664,1627482366143,,,248,251,238,234,,-0.01,-0.06,1.29,0,0,2,0.06,,68,8381,11,36,35,0.967,0.0,664,4.8,13.1,0.0,1,30.5,2.43,9.4,0,0,0,1,0,,,,,,,,,,,,,,,,,,,,
46684,1627482366163,,,248,251,238,234,,0.02,-0.06,1.41,0,-0,0,0.06,,68,8340,11,36,35,0.961,0.0,661,4.88,13.1,0.0,1,30.4,1.28,9.4,0,0,0,1,0,,,,,,,,,,,,,,,,,,,,
