"Interval"|"ms"|0|0|1,"Utc"|"ms"|0|0|1,"Brake_F"|"Bar"|0|2000|10,"Brake_R"|"Bar"|0|2000|10,"Height_RF"|"mm"|0|255|50,"Height_LF"|"mm"|0|255|50,"Height_LR"|"mm"|0|80|50,"Height_RR"|"mm"|0|255|50,"Steering"|"deg"|-100|100|10,"AccelX"|"G"|-3.0|3.0|50,"AccelY"|"G"|-3.0|3.0|50,"AccelZ"|"G"|-3.0|3.0|50,"Yaw"|"Deg/Sec"|-120|120|50,"Pitch"|"Deg/Sec"|-120|120|50,"Roll"|"Deg/Sec"|-120|120|50,"Gsum"|"G"|0.0|3.0|50,"Log_Button"|""|0.0|10.0|10,"WaterTemp"|"C"|0|150|50,"RPM"|"tr/min"|0|14000|50,"TPS"|"%"|0|100|50,"AirTemp"|"C"|0|150|50,"MAP"|"KPa"|0|100|50,"Lambda"|""|0.5|1.5|50,"SpeedDTA"|"kph"|0.0|250.0|50,"OilPress"|"KPa"|0|1500|50,"FuelPressur"|"Bar"|0.0|10.0|50,"Batterie"|"V"|0.0|20.0|50,"ConsoKm"|"L/100km"|0.0|200.0|50,"Gear"|""|0|6|50,"AdvIgnition"|"Deg"|-20.0|70.0|50,"Injection"|"ms"|0.0|10.0|50,"ConsoHr"|"L/Hr"|0.0|10000.0|50,"LC_But_Pres"|""|0|1|50,"LC_Active"|""|0|1|50,"TractionOn"|""|0|1|50,"TractionWet"|""|0|1|50,"FanOn"|""|0|1|50,"RD_Speed"|"km/h"|-30|250|10,"RUD_Speed"|"km/h"|-30|250|10,"LD_Speed"|"km/h"|-30|250|10,"LUD_Speed"|"km/h"|-30|250|10,"Latitude"|"Degrees"|-180.0|180.0|10,"Longitude"|"Degrees"|-180.0|180.0|10,"Speed"|"kph"|0.0|150.0|10,"Altitude"|"m"|0.0|4000.0|10,"GPSSats"|""|0|20|10,"GPSQual"|""|0|5|10,"GPSDOP"|""|0.0|20.0|10,"LapCount"|""|0|0|10,"LapTime"|"Min"|0.0|0.0|10,"Sector"|""|0|0|10,"SectorTime"|"Min"|0.0|0.0|10,"PredTime"|"Min"|0.0|0.0|5,"ElapsedTime"|"Min"|0.0|0.0|10,"CurrentLap"|""|0|0|10,"Distance"|"km"|0.0|0.0|10,"SessionTime"|"Min"|0.0|0.0|10
3064,0,,,248,252,236,231,,0.05,0.04,0.99,-0,-0,0,0.06,,24,0,6,26,93,1.498,0.0,99,4.73,12.8,0.0,1,0.0,0.0,0.0,0,0,0,1,0,,,,,,,,,,,,,,,,,,,,
3084,0,,,248,252,236,231,,0.05,0.04,0.99,-0,-0,0,0.06,,24,0,6,26,93,1.498,0.0,100,4.74,12.8,0.0,1,0.0,0.0,0.0,0,0,0,1,0,,,,,,,,,,,,,,,,,,,,
3104,0,,,248,252,236,231,,0.05,0.04,0.99,-0,-0,0,0.06,,24,0,6,26,93,1.498,0.0,100,4.74,12.8,0.0,1,0.0,0.0,0.0,0,0,0,1,0,,,,,,,,,,,,,,,,,,,,
3124,0,,,248,252,236,231,,0.05,0.04,0.99,0,-0,0,0.06,,24,0,6,26,93,1.498,0.0,100,4.73,12.8,0.0,1,0.0,0.0,0.0,0,0,0,1,0,,,,,,,,,,,,,,,,,,,,
3144,0,-0,1,248,252,236,231,1,0.05,0.04,0.98,0,-0,0,0.06,1,24,0,6,26,93,1.498,0.0,100,4.72,12.8,0.0,1,0.0,0.0,0.0,0,0,0,1,0,0,250,250,0,0.0,0.0,0.0,0.0,0,0,0.0,0,0.0,-1,0.0,,0.0,0,0.0,0.0524
3164,0,,,248,252,236,231,,0.05,0.04,0.99,-0,-0,0,0.06,,24,0,6,26,93,1.498,0.0,100,4.73,12.8,0.0,1,0.0,0.0,0.0,0,0,0,0,0,,,,,,,,,,,,,,,,,,,,
3184,0,,,248,252,236,231,,0.05,0.04,0.99,-0,-0,0,0.06,,24,0,6,26,93,1.498,0.0,100,4.66,13.1,0.0,1,0.0,0.0,0.0,0,0,0,0,0,,,,,,,,,,,,,,,,,,,,
3204,0,,,248,252,236,231,,0.05,0.04,0.99,-0,-0,0,0.06,,24,0,6,26,93,1.498,0.0,100,4.07,13.1,0.0,1,0.0,0.0,0.0,0,0,0,0,0,,,,,,,,,,,,,,,,,,,,
3224,0,,,248,252,236,231,,0.05,0.04,0.99,0,-0,0,0.06,,24,0,6,26,93,1.498,0.0,100,3.29,13.1,0.0,1,0.0,0.0,0.0,0,0,0,0,0,,,,,,,,,,,,,,,,,,,,
3244,0,1,1,248,252,236,231,3,0.05,0.04,0.99,0,-0,0,0.06,1,24,0,6,26,93,1.498,0.0,100,2.97,13.1,0.0,1,0.0,0.0,0.0,0,0,0,0,0,0,250,250,0,0.0,0.0,0.0,0.0,0,0,0.0,0,0.0,-1,0.0,0.0,0.0,0,0.0,0.0541
3264,0,,,248,252,236,231,,0.05,0.04,0.99,-0,-0,0,0.06,,24,0,6,26,93,1.498,0.0,100,2.72,13.1,0.0,1,0.0,0.0,0.0,0,0,0,0,0,,,,,,,,,,,,,,,,,,,,
3284,0,,,248,252,236,231,,0.05,0.04,0.99,-0,-0,0,0.06,,24,0,6,26,93,1.498,0.0,100,2.54,13.1,0.0,1,0.0,0.0,0.0,0,0,0,0,0,,,,,,,,,,,,,,,,,,,,
3304,0,,,248,252,236,231,,0.05,0.04,0.98,-0,-0,0,0.06,,24,0,6,26,92,1.498,0.0,100,2.41,13.1,0.0,1,0.0,0.0,0.0,0,0,0,0,0,,,,,,,,,,,,,,,,,,,,
3324,0,,,248,252,236,231,,0.05,0.04,0.98,-0,-0,0,0.06,,24,0,6,26,93,1.498,0.0,100,2.28,13.1,0.0,1,0.0,0.0,0.0,0,0,0,0,0,,,,,,,,,,,,,,,,,,,,
3344,0,-0,3,248,252,236,231,2,0.05,0.04,0.98,-0,-0,0,0.06,1,24,0,6,26,93,1.498,0.0,100,2.2,13.1,0.0,1,0.0,0.0,0.0,0,0,0,0,0,0,250,250,0,0.0,0.0,0.0,0.0,0,0,0.0,0,0.0,-1,0.0,,0.0,0,0.0,0.0557
3364,0,,,248,252,236,231,,0.05,0.04,0.99,-0,-0,0,0.06,,24,0,6,26,93,1.498,0.0,99,2.12,13.1,0.0,1,0.0,0.0,0.0,0,0,0,0,0,,,,,,,,,,,,,,,,,,,,
3384,0,,,248,252,236,231,,0.05,0.04,0.98,-0,-0,0,0.06,,24,0,6,26,93,1.498,0.0,100,2.05,13.1,0.0,1,0.0,0.0,0.0,0,0,0,0,0,,,,,,,,,,,,,,,,,,,,
3404,0,,,248,252,236,231,,0.04,0.04,0.98,-0,-0,0,0.06,,24,0,6,26,93,1.498,0.0,99,2.02,13.1,0.0,1,0.0,0.0,0.0,0,0,0,0,0,,,,,,,,,,,,,,,,,,,,
3424,0,,,248,252,236,231,,0.04,0.04,0.98,0,-0,0,0.06,,24,0,6,26,93,1.498,0.0,100,1.97,13.1,0.0,1,0.0,0.0,0.0,0,0,0,0,0,,,,,,,,,,,,,,,,,,,,
3444,0,1,1,248,252,236,231,3,0.04,0.04,0.98,-0,-0,0,0.06,1,24,0,6,26,93,1.498,0.0,100,1.93,13.1,0.0,1,0.0,0.0,0.0,0,0,0,0,0,0,250,250,0,0.0,0.0,0.0,0.0,0,0,0.0,0,0.0,-1,0.0,0.0,0.0,0,0.0,0.0574
3464,0,,,248,252,236,231,,0.04,0.04,0.98,-0,-0,0,0.06,,24,0,6,26,93,1.498,0.0,100,1.89,13.1,0.0,1,0.0,0.0,0.0,0,0,0,0,0,,,,,,,,,,,,,,,,,,,,
3484,0,,,248,252,236,231,,0.04,0.04,0.98,-0,-0,0,0.06,,24,0,6,26,93,1.498,0.0,100,1.83,13.1,0.0,1,0.0,0.0,0.0,0,0,0,0,0,,,,,,,,,,,,,,,,,,,,
3504,0,,,249,252,236,231,,0.05,0.04,0.98,-0,-0,0,0.06,,24,0,6,26,93,1.498,0.0,100,1.78,13.1,0.0,1,0.0,0.0,0.0,0,0,0,0,0,,,,,,,,,,,,,,,,,,,,
3524,0,,,248,252,236,231,,0.05,0.04,0.98,-0,-0,0,0.06,,24,0,6,26,93,1.498,0.0,100,1.75,13.1,0.0,1,0.0,0.0,0.0,0,0,0,0,0,,,,,,,,,,,,,,,,,,,,
3544,0,0,3,248,252,236,231,2,0.05,0.04,0.98,-0,-0,0,0.06,1,24,0,6,26,93,1.498,0.0,100,1.73,13.1,0.0,1,0.0,0.0,0.0,0,0,0,0,0,0,250,250,0,0.0,0.0,0.0,0.0,0,0,0.0,0,0.0,-1,0.0,,0.0,0,0.0,0.0591
3564,0,,,248,252,236,231,,0.05,0.04,0.98,-0,-0,0,0.06,,24,0,6,26,93,1.498,0.0,100,1.69,13.1,0.0,1,0.0,0.0,0.0,0,0,0,0,0,,,,,,,,,,,,,,,,,,,,
3584,0,,,249,252,236,231,,0.05,0.04,0.99,-0,-0,0,0.06,,24,0,6,26,92,1.498,0.0,100,1.65,13.1,0.0,1,0.0,0.0,0.0,0,0,0,0,0,,,,,,,,,,,,,,,,,,,,
3604,0,,,248,252,236,231,,0.05,0.04,0.99,-0,-0,0,0.06,,24,0,6,26,93,1.498,0.0,100,1.62,13.1,0.0,1,0.0,0.0,0.0,0,0,0,0,0,,,,,,,,,,,,,,,,,,,,
3624,0,,,249,252,236,231,,0.05,0.04,0.99,-0,-0,0,0.06,,24,0,6,26,93,1.498,0.0,98,1.61,13.1,0.0,1,0.0,0.0,0.0,0,0,0,0,0,,,,,,,,,,,,,,,,,,,,
3644,0,-1,2,248,252,236,231,2,0.05,0.04,0.99,-0,-0,0,0.06,1,24,0,6,26,93,1.498,0.0,100,1.58,13.1,0.0,1,0.0,0.0,0.0,0,0,0,0,0,0,250,250,0,0.0,0.0,0.0,0.0,0,0,0.0,0,0.0,-1,0.0,0.0,0.0,0,0.0,0.0607
3664,0,,,248,252,236,231,,0.04,0.04,0.99,-0,-0,0,0.06,,24,0,6,26,93,1.498,0.0,100,1.56,13.1,0.0,1,0.0,0.0,0.0,0,0,0,0,0,,,,,,,,,,,,,,,,,,,,
3684,0,,,248,252,236,231,,0.04,0.04,0.99,-0,-0,0,0.06,,24,0,6,26,93,1.498,0.0,100,1.53,13.1,0.0,1,0.0,0.0,0.0,0,0,0,0,0,,,,,,,,,,,,,,,,,,,,
3704,0,,,248,252,236,231,,0.04,0.05,0.99,-0,-0,0,0.06,,24,0,6,26,93,1.498,0.0,100,1.52,13.1,0.0,1,0.0,0.0,0.0,0,0,0,0,0,,,,,,,,,,,,,,,,,,,,
3724,0,,,248,252,236,231,,0.05,0.05,0.99,0,-0,0,0.06,,24,0,6,26,93,1.498,0.0,99,1.51,13.1,0.0,1,0.0,0.0,0.0,0,0,0,0,0,,,,,,,,,,,,,,,,,,,,
3744,0,1,1,248,252,236,231,1,0.05,0.05,0.99,-0,-0,0,0.06,1,24,0,6,26,93,1.498,0.0,100,1.48,13.1,0.0,1,0.0,0.0,0.0,0,0,0,0,0,0,250,250,0,0.0,0.0,0.0,0.0,0,0,0.0,0,0.0,-1,0.0,,0.0,0,0.0,0.0624
3764,0,,,248,252,236,231,,0.05,0.05,0.99,-0,-0,0,0.06,,24,0,6,26,93,1.498,0.0,100,1.47,13.1,0.0,1,0.0,0.0,0.0,0,0,0,0,0,,,,,,,,,,,,,,,,,,,,
3784,0,,,248,252,236,231,,0.05,0.04,0.99,-0,-0,0,0.06,,24,0,6,26,93,1.498,0.0,100,1.45,13.1,0.0,1,0.0,0.0,0.0,0,0,0,0,0,,,,,,,,,,,,,,,,,,,,
3804,0,,,248,252,236,231,,0.05,0.04,0.99,-0,-0,0,0.06,,24,0,6,26,93,1.498,0.0,100,1.45,13.1,0.0,1,0.0,0.0,0.0,0,0,0,0,0,,,,,,,,,,,,,,,,,,,,
3824,0,,,248,252,236,231,,0.05,0.04,0.99,-0,-0,0,0.06,,24,0,6,26,93,1.498,0.0,100,1.42,13.1,0.0,1,0.0,0.0,0.0,0,0,0,0,0,,,,,,,,,,,,,,,,,,,,
3844,0,1,1,248,252,236,231,3,0.05,0.04,0.99,-0,-0,0,0.06,1,24,0,6,26,93,1.498,0.0,100,1.42,13.1,0.0,1,0.0,0.0,0.0,0,0,0,0,0,0,250,250,0,0.0,0.0,0.0,0.0,0,0,0.0,0,0.0,-1,0.0,0.0,0.0,0,0.0,0.0641
3864,0,,,248,252,236,231,,0.04,0.04,0.99,-0,-0,0,0.06,,24,0,6,26,93,1.498,0.0,99,1.4,13.1,0.0,1,0.0,0.0,0.0,0,0,0,0,0,,,,,,,,,,,,,,,,,,,,
3884,0,,,248,252,236,231,,0.04,0.04,0.99,-0,-0,0,0.06,,24,0,6,26,93,1.498,0.0,100,1.4,13.1,0.0,1,0.0,0.0,0.0,0,0,0,0,0,,,,,,,,,,,,,,,,,,,,
3904,0,,,249,252,236,231,,0.04,0.04,0.99,-0,-0,0,0.06,,24,0,6,26,93,1.498,0.0,100,1.38,13.1,0.0,1,0.0,0.0,0.0,0,0,0,0,0,,,,,,,,,,,,,,,,,,,,
3924,0,,,248,252,236,231,,0.04,0.04,0.99,-0,-0,0,0.06,,24,0,6,26,93,1.498,0.0,100,1.37,13.1,0.0,1,0.0,0.0,0.0,0,0,0,0,0,,,,,,,,,,,,,,,,,,,,
3944,0,-1,2,248,252,236,231,2,0.05,0.04,0.99,-0,-0,0,0.06,1,24,0,6,26,93,1.498,0.0,100,1.37,13.1,0.0,1,0.0,0.0,0.0,0,0,0,0,0,0,250,250,0,0.0,0.0,0.0,0.0,0,0,0.0,0,0.0,-1,0.0,,0.0,0,0.0,0.0657
3964,0,,,248,252,236,231,,0.05,0.04,0.99,-0,-0,0,0.06,,24,0,6,26,93,1.498,0.0,100,1.34,13.1,0.0,1,0.0,0.0,0.0,0,0,0,0,0,,,,,,,,,,,,,,,,,,,,
3984,0,,,248,252,236,231,,0.05,0.04,0.99,-0,-0,0,0.06,,24,0,6,26,93,1.498,0.0,100,1.34,13.1,0.0,1,0.0,0.0,0.0,0,0,0,0,0,,,,,,,,,,,,,,,,,,,,
4004,0,,,248,252,236,231,,0.05,0.04,0.99,-0,-0,0,0.06,,24,0,6,26,92,1.498,0.0,100,1.34,13.1,0.0,1,0.0,0.0,0.0,0,0,0,0,0,,,,,,,,,,,,,,,,,,,,
4024,0,,,248,252,236,231,,0.05,0.04,0.99,0,-0,0,0.06,,24,0,6,26,93,1.498,0.0,100,1.34,13.1,0.0,1,0.0,0.0,0.0,0,0,0,0,0,,,,,,,,,,,,,,,,,,,,
4044,0,-1,3,248,252,236,231,2,0.05,0.04,0.99,-0,-0,0,0.06,1,24,0,6,26,93,1.498,0.0,100,1.34,13.1,0.0,1,0.0,0.0,0.0,0,0,0,0,0,0,250,250,0,0.0,0.0,0.0,0.0,0,0,0.0,0,0.0,-1,0.0,0.0,0.0,0,0.0,0.0674
4064,0,,,248,252,236,231,,0.05,0.04,0.99,0,-0,0,0.06,,24,0,6,26,93,1.498,0.0,100,1.31,13.1,0.0,1,0.0,0.0,0.0,0,0,0,0,0,,,,,,,,,,,,,,,,,,,,
4084,0,,,248,252,236,231,,0.05,0.04,0.99,0,-0,0,0.06,,24,0,6,26,93,1.498,0.0,100,1.31,13.1,0.0,1,0.0,0.0,0.0,0,0,0,0,0,,,,,,,,,,,,,,,,,,,,
4104,0,,,248,252,236,231,,0.05,0.04,0.99,-0,-0,0,0.06,,24,0,6,26,93,1.498,0.0,100,1.31,13.1,0.0,1,0.0,0.0,0.0,0,0,0,0,0,,,,,,,,,,,,,,,,,,,,
4124,0,,,249,252,236,231,,0.05,0.04,0.99,-0,-0,0,0.06,,24,0,6,26,93,1.498,0.0,100,1.3,13.1,0.0,1,0.0,0.0,0.0,0,0,0,0,0,,,,,,,,,,,,,,,,,,,,
4144,0,0,3,248,252,236,231,1,0.05,0.04,0.99,0,-0,0,0.06,1,24,0,6,26,93,1.498,0.0,100,1.28,13.1,0.0,1,0.0,0.0,0.0,0,0,0,0,0,0,250,250,0,0.0,0.0,0.0,0.0,0,0,0.0,0,0.0,-1,0.0,,0.0,0,0.0,0.0691
4164,0,,,248,252,236,231,,0.05,0.04,0.99,-0,-0,0,0.06,,24,0,6,26,93,1.498,0.0,100,1.28,13.1,0.0,1,0.0,0.0,0.0,0,0,0,0,0,,,,,,,,,,,,,,,,,,,,
4184,0,,,248,252,236,231,,0.05,0.04,0.99,0,-0,0,0.06,,24,0,6,26,93,1.498,0.0,100,1.26,13.1,0.0,1,0.0,0.0,0.0,0,0,0,0,0,,,,,,,,,,,,,,,,,,,,
4204,0,,,248,252,236,231,,0.05,0.04,0.99,0,-0,0,0.06,,24,0,6,26,93,1.498,0.0,100,1.26,13.1,0.0,1,0.0,0.0,0.0,0,0,0,0,0,,,,,,,,,,,,,,,,,,,,
4224,0,,,248,252,236,231,,0.05,0.04,0.99,0,-0,0,0.06,,24,0,6,26,93,1.498,0.0,100,1.26,13.1,0.0,1,0.0,0.0,0.0,0,0,0,0,0,,,,,,,,,,,,,,,,,,,,
4244,0,-1,3,248,252,236,231,3,0.05,0.04,0.99,0,-0,0,0.06,1,24,0,6,26,93,1.498,0.0,100,1.23,13.1,0.0,1,0.0,0.0,0.0,0,0,0,0,0,0,250,250,0,0.0,0.0,0.0,0.0,0,0,0.0,0,0.0,-1,0.0,0.0,0.0,0,0.0,0.0707
4264,0,,,248,252,236,231,,0.05,0.04,0.98,-0,-0,0,0.06,,24,0,6,26,93,1.498,0.0,100,1.23,13.1,0.0,1,0.0,0.0,0.0,0,0,0,0,0,,,,,,,,,,,,,,,,,,,,
4284,0,,,248,252,236,231,,0.05,0.04,0.99,0,-0,0,0.06,,24,0,6,26,93,1.498,0.0,100,1.23,13.1,0.0,1,0.0,0.0,0.0,0,0,0,0,0,,,,,,,,,,,,,,,,,,,,
4304,0,,,248,252,236,231,,0.05,0.04,0.99,0,-0,0,0.06,,24,0,6,26,93,1.498,0.0,100,1.23,13.1,0.0,1,0.0,0.0,0.0,0,0,0,0,0,,,,,,,,,,,,,,,,,,,,
4324,0,,,248,252,236,231,,0.05,0.04,0.99,0,-0,0,0.06,,24,0,6,26,93,1.498,0.0,100,1.21,13.1,0.0,1,0.0,0.0,0.0,0,0,0,0,0,,,,,,,,,,,,,,,,,,,,
4344,0,0,3,248,252,236,231,1,0.04,0.04,0.99,0,-0,0,0.06,1,24,0,6,26,93,1.498,0.0,100,1.21,13.1,0.0,1,0.0,0.0,0.0,0,0,0,0,0,0,250,250,0,0.0,0.0,0.0,0.0,0,0,0.0,0,0.0,-1,0.0,,0.0,0,0.0,0.0724
4364,0,,,248,252,236,231,,0.04,0.04,0.99,0,-0,0,0.06,,24,0,6,26,93,1.498,0.0,100,1.2,13.1,0.0,1,0.0,0.0,0.0,0,0,0,0,0,,,,,,,,,,,,,,,,,,,,
4384,0,,,248,252,236,231,,0.04,0.04,0.99,0,-0,0,0.06,,24,0,6,26,93,1.498,0.0,100,1.18,13.1,0.0,1,0.0,0.0,0.0,0,0,0,0,0,,,,,,,,,,,,,,,,,,,,
4404,0,,,248,252,236,231,,0.04,0.04,0.99,0,-0,0,0.06,,24,0,6,26,93,1.498,0.0,100,1.18,13.1,0.0,1,0.0,0.0,0.0,0,0,0,0,0,,,,,,,,,,,,,,,,,,,,
4424,0,,,248,252,236,231,,0.04,0.04,0.99,0,-0,0,0.06,,24,0,6,26,93,1.498,0.0,100,1.18,13.1,0.0,1,0.0,0.0,0.0,0,0,0,0,0,,,,,,,,,,,,,,,,,,,,
4444,0,-0,2,248,252,236,231,3,0.04,0.04,0.99,0,-0,0,0.06,1,24,0,6,26,93,1.498,0.0,100,1.16,13.1,0.0,1,0.0,0.0,0.0,0,0,0,0,0,0,250,250,0,0.0,0.0,0.0,0.0,0,0,0.0,0,0.0,-1,0.0,0.0,0.0,0,0.0,0.0741
4464,0,,,249,252,236,231,,0.04,0.04,0.99,0,-0,0,0.06,,24,0,6,26,93,1.498,0.0,100,1.15,13.1,0.0,1,0.0,0.0,0.0,0,0,0,0,0,,,,,,,,,,,,,,,,,,,,
4484,0,,,248,252,236,231,,0.05,0.04,0.99,0,-0,0,0.06,,24,0,6,26,93,1.498,0.0,99,1.15,13.1,0.0,1,0.0,0.0,0.0,0,0,0,0,0,,,,,,,,,,,,,,,,,,,,
4504,0,,,248,252,236,231,,0.05,0.04,0.99,0,-0,0,0.06,,24,0,6,26,93,1.498,0.0,100,1.15,13.1,0.0,1,0.0,0.0,0.0,0,0,0,0,0,,,,,,,,,,,,,,,,,,,,
4524,0,,,248,252,236,231,,0.05,0.04,0.99,0,-0,0,0.06,,24,0,6,26,93,1.498,0.0,100,1.12,13.1,0.0,1,0.0,0.0,0.0,0,0,0,0,0,,,,,,,,,,,,,,,,,,,,
4544,0,-1,2,248,252,236,231,2,0.05,0.04,0.99,0,-0,0,0.06,1,24,0,6,26,93,1.498,0.0,100,1.12,13.1,0.0,1,0.0,0.0,0.0,0,0,0,0,0,0,250,250,0,0.0,0.0,0.0,0.0,0,0,0.0,0,0.0,-1,0.0,,0.0,0,0.0,0.0757
4564,0,,,248,252,236,231,,0.05,0.04,0.99,0,-0,0,0.06,,24,0,6,26,93,1.498,0.0,100,1.12,13.1,0.0,1,0.0,0.0,0.0,0,0,0,0,0,,,,,,,,,,,,,,,,,,,,
4584,0,,,248,252,236,231,,0.05,0.04,0.99,0,-0,0,0.06,,24,0,6,26,93,1.498,0.0,100,1.12,13.1,0.0,1,0.0,0.0,0.0,0,0,0,0,0,,,,,,,,,,,,,,,,,,,,
4604,0,,,248,252,236,231,,0.05,0.04,0.99,0,-0,0,0.06,,24,0,6,26,93,1.498,0.0,100,1.12,13.1,0.0,1,0.0,0.0,0.0,0,0,0,0,0,,,,,,,,,,,,,,,,,,,,
4624,0,,,248,252,236,231,,0.05,0.04,0.99,0,-0,0,0.06,,24,0,6,26,93,1.498,0.0,100,1.12,13.1,0.0,1,0.0,0.0,0.0,0,0,0,0,0,,,,,,,,,,,,,,,,,,,,
4644,0,-1,3,248,252,236,231,2,0.05,0.04,0.99,0,-0,0,0.06,1,24,0,6,26,93,1.498,0.0,100,1.12,13.1,0.0,1,0.0,0.0,0.0,0,0,0,0,0,0,250,250,0,0.0,0.0,0.0,0.0,0,0,0.0,0,0.0,-1,0.0,0.0,0.0,0,0.0,0.0774
4664,0,,,248,252,236,231,,0.05,0.04,0.99,0,-0,0,0.06,,24,0,6,26,93,1.498,0.0,100,1.12,13.1,0.0,1,0.0,0.0,0.0,0,0,0,0,0,,,,,,,,,,,,,,,,,,,,
4684,0,,,248,252,236,231,,0.05,0.04,0.99,0,-0,0,0.06,,24,0,6,26,93,1.498,0.0,100,1.12,13.1,0.0,1,0.0,0.0,0.0,0,0,0,0,0,,,,,,,,,,,,,,,,,,,,
4704,0,,,248,252,236,231,,0.05,0.04,0.99,0,-0,0,0.06,,24,0,6,26,93,1.498,0.0,100,1.1,13.1,0.0,1,0.0,0.0,0.0,0,0,0,0,0,,,,,,,,,,,,,,,,,,,,
4724,0,,,248,252,236,231,,0.05,0.04,0.99,0,-0,0,0.06,,24,0,6,26,93,1.498,0.0,100,1.1,13.1,0.0,1,0.0,0.0,0.0,0,0,0,0,0,,,,,,,,,,,,,,,,,,,,
4744,0,-1,2,248,252,236,232,2,0.05,0.04,0.99,0,-0,0,0.06,1,24,0,6,26,93,1.498,0.0,100,1.1,13.1,0.0,1,0.0,0.0,0.0,0,0,0,0,0,0,250,250,0,0.0,0.0,0.0,0.0,0,0,0.0,0,0.0,-1,0.0,,0.0,0,0.0,0.0791
4764,0,,,248,252,236,231,,0.05,0.04,0.98,0,-0,0,0.06,,24,0,6,26,93,1.498,0.0,100,1.09,13.1,0.0,1,0.0,0.0,0.0,0,0,0,0,0,,,,,,,,,,,,,,,,,,,,
4784,0,,,248,252,236,231,,0.05,0.04,0.99,0,-0,0,0.06,,24,0,6,26,93,1.498,0.0,100,1.09,13.1,0.0,1,0.0,0.0,0.0,0,0,0,0,0,,,,,,,,,,,,,,,,,,,,
4804,0,,,248,252,236,231,,0.05,0.04,0.99,0,-0,0,0.06,,24,0,6,26,93,1.498,0.0,100,1.09,13.1,0.0,1,0.0,0.0,0.0,0,0,0,0,0,,,,,,,,,,,,,,,,,,,,
4824,0,,,249,252,236,231,,0.05,0.04,0.99,0,-0,0,0.06,,24,0,6,26,93,1.498,0.0,100,1.08,13.1,0.0,1,0.0,0.0,0.0,0,0,0,0,0,,,,,,,,,,,,,,,,,,,,
4844,0,0,2,248,252,236,231,1,0.05,0.04,0.99,0,-0,0,0.06,1,24,0,6,26,93,1.498,0.0,100,1.08,13.1,0.0,1,0.0,0.0,0.0,0,0,0,0,0,0,250,250,0,0.0,0.0,0.0,0.0,0,0,0.0,0,0.0,-1,0.0,0.0,0.0,0,0.0,0.0807
4864,0,,,248,252,236,231,,0.05,0.04,0.98,0,-0,0,0.06,,24,0,6,26,93,1.498,0.0,100,1.08,13.1,0.0,1,0.0,0.0,0.0,0,0,0,0,0,,,,,,,,,,,,,,,,,,,,
4884,0,,,248,252,236,231,,0.04,0.04,0.98,0,-0,0,0.06,,24,0,6,26,93,1.498,0.0,100,1.08,13.1,0.0,1,0.0,0.0,0.0,0,0,0,0,0,,,,,,,,,,,,,,,,,,,,
4904,0,,,249,252,236,231,,0.04,0.04,0.98,0,-0,0,0.06,,24,0,6,26,93,1.498,0.0,100,1.08,13.1,0.0,1,0.0,0.0,0.0,0,0,0,0,0,,,,,,,,,,,,,,,,,,,,
4924,0,,,248,252,236,231,,0.04,0.04,0.98,0,-0,0,0.06,,24,0,6,26,93,1.498,0.0,100,1.07,13.1,0.0,1,0.0,0.0,0.0,0,0,0,0,0,,,,,,,,,,,,,,,,,,,,
4944,0,1,0,248,252,236,231,2,0.04,0.04,0.98,0,-0,0,0.06,1,24,0,6,26,93,1.498,0.0,100,1.07,13.1,0.0,1,0.0,0.0,0.0,0,0,0,0,0,0,250,250,0,0.0,0.0,0.0,0.0,0,0,0.0,0,0.0,-1,0.0,,0.0,0,0.0,0.0824
4964,0,,,248,252,236,231,,0.04,0.04,0.99,0,-0,0,0.06,,24,0,6,26,93,1.498,0.0,99,1.07,13.1,0.0,1,0.0,0.0,0.0,0,0,0,0,0,,,,,,,,,,,,,,,,,,,,
4984,0,,,248,252,236,231,,0.04,0.04,0.99,0,-0,0,0.06,,24,0,6,26,93,1.498,0.0,100,1.07,13.1,0.0,1,0.0,0.0,0.0,0,0,0,0,0,,,,,,,,,,,,,,,,,,,,
5004,0,,,248,252,236,231,,0.05,0.04,0.99,0,-0,0,0.06,,24,0,6,26,93,1.498,0.0,100,1.07,13.1,0.0,1,0.0,0.0,0.0,0,0,0,0,0,,,,,,,,,,,,,,,,,,,,
5024,0,,,248,252,236,231,,0.05,0.04,0.98,0,-0,0,0.06,,24,0,6,26,93,1.498,0.0,100,1.07,13.1,0.0,1,0.0,0.0,0.0,0,0,0,0,0,,,,,,,,,,,,,,,,,,,,
5044,0,-1,2,248,252,236,231,2,0.05,0.04,0.99,-0,-0,0,0.06,1,24,0,6,26,93,1.498,0.0,100,1.07,13.1,0.0,1,0.0,0.0,0.0,0,0,0,0,0,0,250,250,0,0.0,0.0,0.0,0.0,0,0,0.0,0,0.0,-1,0.0,0.0,0.0,0,0.0,0.0841
5064,0,,,248,252,236,231,,0.05,0.04,0.99,-0,-0,-0,0.06,,24,0,6,26,93,1.498,0.0,100,1.07,13.1,0.0,1,0.0,0.0,0.0,0,0,0,0,0,,,,,,,,,,,,,,,,,,,,
5084,0,,,249,252,236,231,,0.05,0.04,0.99,-0,-0,0,0.06,,24,0,6,26,93,1.498,0.0,100,1.07,13.1,0.0,1,0.0,0.0,0.0,0,0,0,0,0,,,,,,,,,,,,,,,,,,,,
5104,0,,,248,252,236,231,,0.05,0.04,0.99,0,-0,0,0.06,,24,0,6,26,93,1.498,0.0,100,1.07,13.1,0.0,1,0.0,0.0,0.0,0,0,0,0,0,,,,,,,,,,,,,,,,,,,,
5124,0,,,248,252,236,231,,0.05,0.04,0.98,0,-0,0,0.06,,24,0,6,26,93,1.498,0.0,100,1.07,13.1,0.0,1,0.0,0.0,0.0,0,0,0,0,0,,,,,,,,,,,,,,,,,,,,
5144,0,-0,2,248,252,236,231,3,0.05,0.04,0.98,0,-0,0,0.06,1,24,0,6,26,93,1.498,0.0,100,1.07,13.1,0.0,1,0.0,0.0,0.0,0,0,0,0,0,0,250,250,0,0.0,0.0,0.0,0.0,0,0,0.0,0,0.0,-1,0.0,,0.0,0,0.0,0.0857
5164,0,,,248,252,236,231,,0.05,0.05,0.99,0,-0,0,0.06,,24,0,6,26,93,1.498,0.0,100,1.07,13.1,0.0,1,0.0,0.0,0.0,0,0,0,0,0,,,,,,,,,,,,,,,,,,,,
5184,0,,,248,252,236,231,,0.05,0.04,0.98,-0,-0,0,0.06,,24,0,6,26,93,1.498,0.0,100,1.07,13.1,0.0,1,0.0,0.0,0.0,0,0,0,0,0,,,,,,,,,,,,,,,,,,,,
5204,0,,,248,252,236,231,,0.05,0.04,0.98,-0,-0,0,0.06,,24,0,6,26,93,1.498,0.0,100,1.07,13.1,0.0,1,0.0,0.0,0.0,0,0,0,0,0,,,,,,,,,,,,,,,,,,,,
5224,0,,,248,252,236,231,,0.05,0.05,0.98,-0,-0,0,0.07,,24,0,6,26,93,1.498,0.0,100,1.07,13.1,0.0,1,0.0,0.0,0.0,0,0,0,0,0,,,,,,,,,,,,,,,,,,,,
5244,0,-0,3,248,252,236,231,2,0.05,0.05,0.98,-0,-0,0,0.07,1,24,0,6,26,93,1.498,0.0,100,1.07,13.1,0.0,1,0.0,0.0,0.0,0,0,0,0,0,0,250,250,0,0.0,0.0,0.0,0.0,0,0,0.0,0,0.0,-1,0.0,0.0,0.0,0,0.0,0.0874
5264,0,,,248,252,236,231,,0.05,0.05,0.98,0,-0,0,0.06,,24,0,6,26,93,1.498,0.0,100,1.07,13.1,0.0,1,0.0,0.0,0.0,0,0,0,0,0,,,,,,,,,,,,,,,,,,,,
5284,0,,,248,252,236,231,,0.05,0.04,0.98,-0,-0,0,0.06,,24,0,6,26,93,1.498,0.0,100,1.07,13.1,0.0,1,0.0,0.0,0.0,0,0,0,0,0,,,,,,,,,,,,,,,,,,,,
5304,0,,,248,252,236,231,,0.05,0.04,0.98,0,-0,0,0.06,,24,0,6,26,93,1.498,0.0,100,1.07,13.1,0.0,1,0.0,0.0,0.0,0,0,0,0,0,,,,,,,,,,,,,,,,,,,,
5324,0,,,248,252,236,231,,0.05,0.04,0.98,0,-0,0,0.06,,24,0,6,26,93,1.498,0.0,100,1.06,13.1,0.0,1,0.0,0.0,0.0,0,0,0,0,0,,,,,,,,,,,,,,,,,,,,
5344,0,0,3,248,252,236,231,1,0.05,0.04,0.98,0,-0,0,0.06,1,24,0,6,26,93,1.498,0.0,100,1.06,13.1,0.0,1,0.0,0.0,0.0,0,0,0,0,0,0,250,250,0,0.0,0.0,0.0,0.0,0,0,0.0,0,0.0,-1,0.0,,0.0,0,0.0,0.0891
5364,0,,,249,252,236,231,,0.05,0.04,0.98,0,-0,0,0.06,,24,0,6,26,93,1.498,0.0,100,1.06,13.1,0.0,1,0.0,0.0,0.0,0,0,0,0,0,,,,,,,,,,,,,,,,,,,,
5384,0,,,248,252,236,231,,0.05,0.04,0.98,0,-0,0,0.06,,24,0,6,26,93,1.498,0.0,100,1.06,13.0,0.0,1,0.0,0.0,0.0,0,0,0,0,0,,,,,,,,,,,,,,,,,,,,
5404,0,,,248,252,236,231,,0.05,0.04,0.98,0,-0,0,0.06,,24,0,6,26,93,1.498,0.0,99,1.06,13.0,0.0,1,0.0,0.0,0.0,0,0,0,0,0,,,,,,,,,,,,,,,,,,,,
5424,0,,,248,252,236,231,,0.05,0.04,0.98,0,-0,0,0.06,,24,0,6,26,93,1.498,0.0,99,1.06,13.0,0.0,1,0.0,0.0,0.0,0,0,0,0,0,,,,,,,,,,,,,,,,,,,,
5444,0,1,0,249,252,236,231,2,0.05,0.04,0.98,0,-0,0,0.06,1,24,0,6,26,93,1.498,0.0,99,1.06,13.0,0.0,1,0.0,0.0,0.0,0,0,0,0,0,0,250,250,0,0.0,0.0,0.0,0.0,0,0,0.0,0,0.0,-1,0.0,0.0,0.0,0,0.0,0.0907
5464,0,,,249,252,236,231,,0.05,0.04,0.98,0,-0,0,0.06,,24,0,6,26,93,1.498,0.0,100,1.06,13.0,0.0,1,0.0,0.0,0.0,0,0,0,0,0,,,,,,,,,,,,,,,,,,,,
5484,0,,,248,252,236,231,,0.05,0.04,0.98,0,-0,0,0.06,,24,0,6,26,93,1.498,0.0,99,1.06,13.0,0.0,1,0.0,0.0,0.0,0,0,0,0,0,,,,,,,,,,,,,,,,,,,,
5504,0,,,248,252,236,231,,0.05,0.04,0.98,0,-0,0,0.06,,24,0,6,26,93,1.498,0.0,99,1.06,13.0,0.0,1,0.0,0.0,0.0,0,0,0,0,0,,,,,,,,,,,,,,,,,,,,
5524,0,,,248,252,236,232,,0.05,0.04,0.98,0,-0,0,0.06,,24,0,6,26,93,1.498,0.0,99,1.06,13.0,0.0,1,0.0,0.0,0.0,0,0,0,0,0,,,,,,,,,,,,,,,,,,,,
5544,0,0,1,248,252,236,231,3,0.05,0.04,0.98,0,-0,0,0.06,1,24,0,6,26,93,1.498,0.0,100,1.06,13.0,0.0,1,0.0,0.0,0.0,0,0,0,0,0,0,250,250,0,0.0,0.0,0.0,0.0,0,0,0.0,0,0.0,-1,0.0,,0.0,0,0.0,0.0924
5564,0,,,248,252,236,231,,0.05,0.04,0.98,0,-0,0,0.06,,24,0,6,26,93,1.498,0.0,99,1.06,13.0,0.0,1,0.0,0.0,0.0,0,0,0,0,0,,,,,,,,,,,,,,,,,,,,
5584,0,,,248,252,236,231,,0.05,0.04,0.98,0,-0,0,0.06,,24,0,6,26,93,1.498,0.0,99,1.06,13.0,0.0,1,0.0,0.0,0.0,0,0,0,0,0,,,,,,,,,,,,,,,,,,,,
5604,0,,,248,252,236,231,,0.05,0.04,0.98,0,-0,0,0.06,,24,0,6,26,93,1.498,0.0,99,1.05,13.0,0.0,1,0.0,0.0,0.0,0,0,0,0,0,,,,,,,,,,,,,,,,,,,,
5624,0,,,248,252,236,231,,0.05,0.04,0.98,0,-0,0,0.06,,24,0,6,26,93,1.498,0.0,99,1.05,13.0,0.0,1,0.0,0.0,0.0,0,0,0,0,0,,,,,,,,,,,,,,,,,,,,
5644,0,0,1,248,252,236,231,1,0.05,0.04,0.98,0,-0,0,0.06,1,24,0,6,26,93,1.498,0.0,99,1.05,13.0,0.0,1,0.0,0.0,0.0,0,0,0,0,0,0,250,250,0,0.0,0.0,0.0,0.0,0,0,0.0,0,0.0,-1,0.0,0.0,0.0,0,0.0,0.0941
5664,0,,,248,252,236,231,,0.05,0.04,0.98,0,-0,0,0.06,,24,0,6,26,93,1.498,0.0,99,1.05,13.0,0.0,1,0.0,0.0,0.0,0,0,0,0,0,,,,,,,,,,,,,,,,,,,,
5684,0,,,248,252,236,231,,0.05,0.04,0.98,0,-0,0,0.06,,24,0,6,26,93,1.498,0.0,99,1.05,13.0,0.0,1,0.0,0.0,0.0,0,0,0,0,0,,,,,,,,,,,,,,,,,,,,
5704,0,,,248,252,236,231,,0.05,0.04,0.98,0,-0,0,0.06,,24,0,6,26,93,1.498,0.0,99,1.05,13.0,0.0,1,0.0,0.0,0.0,0,0,0,0,0,,,,,,,,,,,,,,,,,,,,
5724,0,,,248,252,236,231,,0.05,0.04,0.98,0,-0,0,0.06,,24,0,6,26,93,1.498,0.0,99,1.05,13.0,0.0,1,0.0,0.0,0.0,0,0,0,0,0,,,,,,,,,,,,,,,,,,,,
5744,0,-0,2,248,252,236,231,3,0.05,0.04,0.98,0,-0,0,0.06,1,24,0,6,26,93,1.498,0.0,99,1.05,13.0,0.0,1,0.0,0.0,0.0,0,0,0,0,0,0,250,250,0,0.0,0.0,0.0,0.0,0,0,0.0,0,0.0,-1,0.0,,0.0,0,0.0,0.0957
5764,0,,,249,252,236,231,,0.05,0.04,0.98,0,-0,0,0.06,,24,0,6,26,93,1.498,0.0,99,1.05,13.0,0.0,1,0.0,0.0,0.0,0,0,0,0,0,,,,,,,,,,,,,,,,,,,,
5784,0,,,248,252,236,231,,0.05,0.04,0.98,0,-0,0,0.06,,24,0,6,26,93,1.498,0.0,99,1.05,13.0,0.0,1,0.0,0.0,0.0,0,0,0,0,0,,,,,,,,,,,,,,,,,,,,
5804,0,,,248,252,236,231,,0.05,0.04,0.98,0,-0,0,0.06,,24,0,6,26,93,1.498,0.0,99,1.05,13.0,0.0,1,0.0,0.0,0.0,0,0,0,0,0,,,,,,,,,,,,,,,,,,,,
5824,0,,,248,252,236,231,,0.05,0.04,0.98,0,-0,0,0.06,,24,0,6,26,93,1.498,0.0,99,1.05,13.0,0.0,1,0.0,0.0,0.0,0,0,0,0,0,,,,,,,,,,,,,,,,,,,,
5844,0,-1,2,248,252,236,231,2,0.05,0.04,0.98,0,-0,0,0.06,1,24,0,6,26,93,1.498,0.0,99,1.05,13.0,0.0,1,0.0,0.0,0.0,0,0,0,0,0,0,250,250,0,0.0,0.0,0.0,0.0,0,0,0.0,0,0.0,-1,0.0,0.0,0.0,0,0.0,0.0974
5864,0,,,248,252,236,231,,0.05,0.04,0.98,0,-0,0,0.06,,24,0,6,26,93,1.498,0.0,100,1.05,13.0,0.0,1,0.0,0.0,0.0,0,0,0,0,0,,,,,,,,,,,,,,,,,,,,
5884,0,,,248,252,236,231,,0.05,0.04,0.98,-0,-0,0,0.06,,24,0,6,26,93,1.498,0.0,99,1.05,13.0,0.0,1,0.0,0.0,0.0,0,0,0,0,0,,,,,,,,,,,,,,,,,,,,
5904,0,,,248,252,236,231,,0.05,0.04,0.98,-0,-0,0,0.06,,24,0,6,26,93,1.498,0.0,99,1.05,13.0,0.0,1,0.0,0.0,0.0,0,0,0,0,0,,,,,,,,,,,,,,,,,,,,
5924,0,,,248,252,236,231,,0.05,0.04,0.98,-0,-0,0,0.06,,24,0,6,26,93,1.498,0.0,100,1.05,13.0,0.0,1,0.0,0.0,0.0,0,0,0,0,0,,,,,,,,,,,,,,,,,,,,
5944,0,0,1,248,252,236,231,2,0.05,0.04,0.98,-0,-0,0,0.06,1,24,0,6,26,93,1.498,0.0,99,1.05,13.0,0.0,1,0.0,0.0,0.0,0,0,0,0,0,0,250,250,0,0.0,0.0,0.0,0.0,0,0,0.0,0,0.0,-1,0.0,,0.0,0,0.0,0.0991
5964,0,,,248,252,236,231,,0.05,0.04,0.98,-0,-0,0,0.06,,24,0,6,26,93,1.498,0.0,99,1.04,13.0,0.0,1,0.0,0.0,0.0,0,0,0,0,0,,,,,,,,,,,,,,,,,,,,
5984,0,,,248,252,236,231,,0.05,0.04,0.98,-0,-0,0,0.06,,24,0,6,26,93,1.498,0.0,100,1.04,13.0,0.0,1,0.0,0.0,0.0,0,0,0,0,0,,,,,,,,,,,,,,,,,,,,
6004,0,,,249,252,236,231,,0.05,0.04,0.98,-0,-0,0,0.06,,24,0,6,26,93,1.498,0.0,99,1.04,13.0,0.0,1,0.0,0.0,0.0,0,0,0,0,0,,,,,,,,,,,,,,,,,,,,
6024,0,,,248,252,236,231,,0.05,0.04,0.98,-0,-0,0,0.06,,24,0,6,26,93,1.498,0.0,99,1.03,13.0,0.0,1,0.0,0.0,0.0,0,0,0,0,0,,,,,,,,,,,,,,,,,,,,
6044,0,1,2,248,252,236,231,2,0.05,0.04,0.98,-0,-0,0,0.06,1,24,0,6,26,93,1.498,0.0,100,1.03,13.0,0.0,1,0.0,0.0,0.0,0,0,0,0,0,0,250,250,0,0.0,0.0,0.0,0.0,0,0,0.0,0,0.0,-1,0.0,0.0,0.0,0,0.0,0.1007
6064,0,,,248,252,236,231,,0.05,0.04,0.98,-0,-0,0,0.06,,24,0,6,26,93,1.498,0.0,99,1.03,13.0,0.0,1,0.0,0.0,0.0,0,0,0,0,0,,,,,,,,,,,,,,,,,,,,
6084,0,,,249,252,236,231,,0.05,0.04,0.98,-0,-0,0,0.06,,24,0,6,26,93,1.498,0.0,99,1.03,13.0,0.0,1,0.0,0.0,0.0,0,0,0,0,0,,,,,,,,,,,,,,,,,,,,
6104,0,,,248,252,236,231,,0.05,0.04,0.98,-0,-0,0,0.06,,24,0,6,26,93,1.498,0.0,99,1.03,13.0,0.0,1,0.0,0.0,0.0,0,0,0,0,0,,,,,,,,,,,,,,,,,,,,
6124,0,,,249,252,236,231,,0.05,0.04,0.98,-0,-0,0,0.06,,24,0,6,26,93,1.498,0.0,100,1.03,13.0,0.0,1,0.0,0.0,0.0,0,0,0,0,0,,,,,,,,,,,,,,,,,,,,
6144,0,1,2,248,252,236,231,2,0.05,0.04,0.98,-0,-0,0,0.06,1,24,0,6,26,93,1.498,0.0,99,1.03,13.0,0.0,1,0.0,0.0,0.0,0,0,0,0,0,0,250,250,0,0.0,0.0,0.0,0.0,0,0,0.0,0,0.0,-1,0.0,,0.0,0,0.0,0.1024
6164,0,,,248,252,236,231,,0.05,0.04,0.98,-0,-0,0,0.06,,24,0,6,26,93,1.498,0.0,100,1.03,13.0,0.0,1,0.0,0.0,0.0,0,0,0,0,0,,,,,,,,,,,,,,,,,,,,
6184,0,,,248,252,236,231,,0.04,0.04,0.98,-0,-0,0,0.06,,24,0,6,26,93,1.498,0.0,99,1.03,13.0,0.0,1,0.0,0.0,0.0,0,0,0,0,0,,,,,,,,,,,,,,,,,,,,
6204,0,,,249,252,236,231,,0.04,0.04,0.98,-0,-0,0,0.06,,24,0,6,26,93,1.498,0.0,100,1.03,13.0,0.0,1,0.0,0.0,0.0,0,0,0,0,0,,,,,,,,,,,,,,,,,,,,
6224,0,,,248,252,236,231,,0.04,0.04,0.98,-0,-0,0,0.06,,24,0,6,26,93,1.498,0.0,99,1.03,13.0,0.0,1,0.0,0.0,0.0,0,0,0,0,0,,,,,,,,,,,,,,,,,,,,
6244,0,1,1,248,252,236,231,2,0.05,0.04,0.98,-0,-0,0,0.06,1,24,0,6,26,93,1.498,0.0,100,1.03,13.0,0.0,1,0.0,0.0,0.0,0,0,0,0,0,0,250,250,0,0.0,0.0,0.0,0.0,0,0,0.0,0,0.0,-1,0.0,0.0,0.0,0,0.0,0.1041
6264,0,,,248,252,236,231,,0.05,0.04,0.98,-0,-0,0,0.06,,24,0,6,26,93,1.498,0.0,100,1.02,13.0,0.0,1,0.0,0.0,0.0,0,0,0,0,0,,,,,,,,,,,,,,,,,,,,
6284,0,,,248,252,236,231,,0.05,0.04,0.98,-0,-0,0,0.06,,24,0,6,26,93,1.498,0.0,99,1.02,13.0,0.0,1,0.0,0.0,0.0,0,0,0,0,0,,,,,,,,,,,,,,,,,,,,
6304,0,,,248,252,236,231,,0.05,0.04,0.98,-0,-0,0,0.06,,24,0,6,26,93,1.498,0.0,99,1.02,13.0,0.0,1,0.0,0.0,0.0,0,0,0,0,0,,,,,,,,,,,,,,,,,,,,
6324,0,,,248,252,236,231,,0.05,0.04,0.98,-0,-0,0,0.06,,24,0,6,26,93,1.498,0.0,99,1.02,13.0,0.0,1,0.0,0.0,0.0,0,0,0,0,0,,,,,,,,,,,,,,,,,,,,
6344,0,0,1,248,252,236,231,2,0.05,0.04,0.98,-0,-0,0,0.06,1,24,0,6,26,93,1.498,0.0,99,1.02,13.0,0.0,1,0.0,0.0,0.0,0,0,0,0,0,0,250,250,0,0.0,0.0,0.0,0.0,0,0,0.0,0,0.0,-1,0.0,,0.0,0,0.0,0.1057
6364,0,,,248,252,236,231,,0.05,0.04,0.98,-0,-0,0,0.06,,24,0,6,26,93,1.498,0.0,99,1.02,13.0,0.0,1,0.0,0.0,0.0,0,0,0,0,0,,,,,,,,,,,,,,,,,,,,
6384,0,,,248,252,236,231,,0.05,0.04,0.98,-0,-0,0,0.06,,24,0,6,26,93,1.498,0.0,100,1.02,13.0,0.0,1,0.0,0.0,0.0,0,0,0,0,0,,,,,,,,,,,,,,,,,,,,
6404,0,,,248,252,236,231,,0.05,0.04,0.98,-0,-0,0,0.06,,24,0,6,26,93,1.498,0.0,99,1.02,13.0,0.0,1,0.0,0.0,0.0,0,0,0,0,0,,,,,,,,,,,,,,,,,,,,
6424,0,,,248,252,236,231,,0.05,0.04,0.98,-0,-0,0,0.06,,24,0,6,26,93,1.498,0.0,99,1.02,13.0,0.0,1,0.0,0.0,0.0,0,0,0,0,0,,,,,,,,,,,,,,,,,,,,
6444,0,-1,2,248,252,236,231,2,0.05,0.04,0.98,-0,-0,0,0.06,1,24,0,6,26,93,1.498,0.0,99,1.02,13.0,0.0,1,0.0,0.0,0.0,0,0,0,0,0,0,250,250,0,0.0,0.0,0.0,0.0,0,0,0.0,0,0.0,-1,0.0,0.0,0.0,0,0.0,0.1074
6464,0,,,248,252,236,231,,0.05,0.04,0.98,-0,-0,0,0.06,,24,0,6,26,93,1.498,0.0,100,1.02,13.0,0.0,1,0.0,0.0,0.0,0,0,0,0,0,,,,,,,,,,,,,,,,,,,,
6484,0,,,248,252,236,231,,0.05,0.04,0.98,-0,-0,0,0.06,,24,0,6,26,93,1.498,0.0,100,1.02,13.0,0.0,1,0.0,0.0,0.0,0,0,0,0,0,,,,,,,,,,,,,,,,,,,,
6504,0,,,248,252,236,231,,0.05,0.04,0.98,-0,-0,0,0.06,,24,0,6,26,93,1.498,0.0,99,1.02,13.0,0.0,1,0.0,0.0,0.0,0,0,0,0,0,,,,,,,,,,,,,,,,,,,,
6524,0,,,248,252,236,231,,0.05,0.04,0.98,0,-0,0,0.06,,24,0,6,26,93,1.498,0.0,99,1.02,13.0,0.0,1,0.0,0.0,0.0,0,0,0,0,0,,,,,,,,,,,,,,,,,,,,
6544,0,0,3,248,252,236,231,2,0.05,0.04,0.98,0,-0,0,0.06,1,24,0,6,26,93,1.498,0.0,100,1.02,13.0,0.0,1,0.0,0.0,0.0,0,0,0,0,0,0,250,250,0,0.0,0.0,0.0,0.0,0,0,0.0,0,0.0,-1,0.0,,0.0,0,0.0,0.1091
6564,0,,,248,252,236,231,,0.05,0.04,0.98,0,-0,0,0.06,,24,0,6,26,93,1.498,0.0,100,1.02,13.0,0.0,1,0.0,0.0,0.0,0,0,0,0,0,,,,,,,,,,,,,,,,,,,,
6584,0,,,248,252,236,231,,0.05,0.04,0.98,-0,-0,0,0.06,,24,0,6,26,93,1.498,0.0,100,1.02,13.0,0.0,1,0.0,0.0,0.0,0,0,0,0,0,,,,,,,,,,,,,,,,,,,,
6604,0,,,248,252,236,231,,0.04,0.04,0.98,-0,-0,0,0.06,,24,0,6,26,93,1.498,0.0,99,1.02,13.0,0.0,1,0.0,0.0,0.0,0,0,0,0,0,,,,,,,,,,,,,,,,,,,,
6624,0,,,248,252,236,231,,0.04,0.04,0.98,0,-0,0,0.06,,24,0,6,26,93,1.498,0.0,99,1.02,13.0,0.0,1,0.0,0.0,0.0,0,0,0,0,0,,,,,,,,,,,,,,,,,,,,
6644,0,0,1,248,252,236,231,2,0.05,0.04,0.98,0,-0,0,0.06,1,24,0,6,26,93,1.498,0.0,99,1.02,13.0,0.0,1,0.0,0.0,0.0,0,0,0,0,0,0,250,250,0,0.0,0.0,0.0,0.0,0,0,0.0,0,0.0,-1,0.0,0.0,0.0,0,0.0,0.1107
6664,0,,,248,252,236,231,,0.05,0.04,0.98,0,-0,0,0.06,,24,0,6,26,93,1.498,0.0,100,1.02,13.0,0.0,1,0.0,0.0,0.0,0,0,0,0,0,,,,,,,,,,,,,,,,,,,,
6684,0,,,248,252,236,231,,0.05,0.04,0.98,0,-0,0,0.06,,24,0,6,26,93,1.498,0.0,99,1.01,13.0,0.0,1,0.0,0.0,0.0,0,0,0,0,0,,,,,,,,,,,,,,,,,,,,
6704,0,,,248,252,236,231,,0.05,0.04,0.98,0,-0,0,0.06,,24,0,6,26,93,1.498,0.0,99,1.0,13.0,0.0,1,0.0,0.0,0.0,0,0,0,0,0,,,,,,,,,,,,,,,,,,,,
6724,0,,,248,252,236,231,,0.05,0.04,0.98,0,-0,0,0.06,,24,0,6,26,93,1.498,0.0,100,1.0,13.0,0.0,1,0.0,0.0,0.0,0,0,0,0,0,,,,,,,,,,,,,,,,,,,,
6744,0,1,2,248,252,236,231,2,0.05,0.04,0.98,0,-0,0,0.06,1,24,0,6,26,93,1.498,0.0,100,1.0,13.0,0.0,1,0.0,0.0,0.0,0,0,0,0,0,0,250,250,0,0.0,0.0,0.0,0.0,0,0,0.0,0,0.0,-1,0.0,,0.0,0,0.0,0.1124
6764,0,,,249,252,236,231,,0.04,0.04,0.98,0,-0,0,0.06,,24,0,6,26,93,1.498,0.0,99,0.99,13.0,0.0,1,0.0,0.0,0.0,0,0,0,0,0,,,,,,,,,,,,,,,,,,,,
6784,0,,,248,252,236,231,,0.04,0.04,0.98,0,-0,0,0.06,,24,0,6,26,93,1.498,0.0,99,0.99,13.0,0.0,1,0.0,0.0,0.0,0,0,0,0,0,,,,,,,,,,,,,,,,,,,,
6804,0,,,248,252,236,231,,0.04,0.04,0.98,0,-0,0,0.06,,24,0,6,26,93,1.498,0.0,99,0.99,13.0,0.0,1,0.0,0.0,0.0,0,0,0,0,0,,,,,,,,,,,,,,,,,,,,
6824,0,,,248,252,236,231,,0.05,0.04,0.98,0,-0,0,0.06,,24,0,6,26,93,1.498,0.0,99,0.99,13.0,0.0,1,0.0,0.0,0.0,0,0,0,0,0,,,,,,,,,,,,,,,,,,,,
6844,0,-1,3,248,252,236,231,2,0.05,0.04,0.98,0,-0,0,0.06,1,24,0,6,26,93,1.498,0.0,99,0.99,13.0,0.0,1,0.0,0.0,0.0,0,0,0,0,0,0,250,250,0,0.0,0.0,0.0,0.0,0,0,0.0,0,0.0,-1,0.0,0.0,0.0,0,0.0,0.1141
6864,0,,,248,252,236,231,,0.05,0.04,0.98,0,-0,0,0.06,,24,0,6,26,93,1.498,0.0,100,0.99,13.0,0.0,1,0.0,0.0,0.0,0,0,0,0,0,,,,,,,,,,,,,,,,,,,,
6884,0,,,248,252,236,231,,0.05,0.04,0.98,0,-0,0,0.06,,24,0,6,26,93,1.498,0.0,99,0.99,13.0,0.0,1,0.0,0.0,0.0,0,0,0,0,0,,,,,,,,,,,,,,,,,,,,
6904,0,,,248,252,236,231,,0.05,0.04,0.98,0,-0,0,0.06,,24,0,6,26,93,1.498,0.0,99,0.99,13.0,0.0,1,0.0,0.0,0.0,0,0,0,0,0,,,,,,,,,,,,,,,,,,,,
6924,0,,,248,252,236,231,,0.05,0.04,0.98,0,-0,0,0.06,,24,0,6,26,93,1.498,0.0,99,0.99,13.0,0.0,1,0.0,0.0,0.0,0,0,0,0,0,,,,,,,,,,,,,,,,,,,,
6944,0,1,2,248,252,236,231,2,0.05,0.04,0.98,0,-0,0,0.06,1,24,0,6,26,93,1.498,0.0,100,0.98,13.0,0.0,1,0.0,0.0,0.0,0,0,0,0,0,0,250,250,0,0.0,0.0,0.0,0.0,0,0,0.0,0,0.0,-1,0.0,,0.0,0,0.0,0.1157
6964,0,,,248,252,236,231,,0.05,0.04,0.98,0,-0,0,0.06,,24,0,6,26,93,1.498,0.0,99,0.99,13.0,0.0,1,0.0,0.0,0.0,0,0,0,0,0,,,,,,,,,,,,,,,,,,,,
6984,0,,,248,252,236,231,,0.05,0.04,0.98,0,-0,0,0.06,,24,0,6,26,93,1.498,0.0,100,0.99,13.0,0.0,1,0.0,0.0,0.0,0,0,0,0,0,,,,,,,,,,,,,,,,,,,,
7004,0,,,248,252,236,231,,0.05,0.04,0.98,0,-0,0,0.06,,24,0,6,26,93,1.498,0.0,100,0.98,13.0,0.0,1,0.0,0.0,0.0,0,0,0,0,0,,,,,,,,,,,,,,,,,,,,
7024,0,,,248,252,236,231,,0.05,0.04,0.98,0,-0,0,0.06,,24,0,6,26,93,1.498,0.0,100,0.98,13.0,0.0,1,0.0,0.0,0.0,0,0,0,0,0,,,,,,,,,,,,,,,,,,,,
7044,0,0,2,248,252,236,231,1,0.05,0.04,0.98,0,-0,0,0.06,1,24,0,6,26,93,1.498,0.0,99,0.98,13.0,0.0,1,0.0,0.0,0.0,0,0,0,0,0,0,250,250,0,0.0,0.0,0.0,0.0,0,0,0.0,0,0.0,-1,0.0,0.0,0.0,0,0.0,0.1174
7064,0,,,248,252,236,231,,0.05,0.04,0.98,0,-0,0,0.06,,24,0,6,26,93,1.498,0.0,100,0.98,13.0,0.0,1,0.0,0.0,0.0,0,0,0,0,0,,,,,,,,,,,,,,,,,,,,
7084,0,,,248,252,236,231,,0.05,0.04,0.98,0,-0,0,0.06,,24,0,6,26,93,1.498,0.0,99,0.98,13.0,0.0,1,0.0,0.0,0.0,0,0,0,0,0,,,,,,,,,,,,,,,,,,,,
7104,0,,,248,252,236,231,,0.05,0.04,0.98,0,-0,0,0.06,,24,0,6,26,93,1.498,0.0,100,0.98,13.0,0.0,1,0.0,0.0,0.0,0,0,0,0,0,,,,,,,,,,,,,,,,,,,,
7124,0,,,248,252,236,231,,0.05,0.04,0.98,0,-0,0,0.06,,24,0,6,26,93,1.498,0.0,99,0.98,13.0,0.0,1,0.0,0.0,0.0,0,0,0,0,0,,,,,,,,,,,,,,,,,,,,
7144,0,0,3,248,252,236,231,1,0.05,0.04,0.99,0,-0,0,0.06,1,24,0,6,26,93,1.498,0.0,99,0.98,13.0,0.0,1,0.0,0.0,0.0,0,0,0,0,0,0,250,250,0,0.0,0.0,0.0,0.0,0,0,0.0,0,0.0,-1,0.0,,0.0,0,0.0,0.1191
7164,0,,,248,252,236,231,,0.05,0.04,0.99,0,-0,0,0.06,,24,0,6,26,93,1.498,0.0,100,0.98,13.0,0.0,1,0.0,0.0,0.0,0,0,0,0,0,,,,,,,,,,,,,,,,,,,,
7184,0,,,248,252,236,231,,0.05,0.04,0.98,0,-0,0,0.06,,24,0,6,26,93,1.498,0.0,99,0.98,13.0,0.0,1,0.0,0.0,0.0,0,0,0,0,0,,,,,,,,,,,,,,,,,,,,
7204,0,,,249,252,236,231,,0.05,0.04,0.99,0,-0,0,0.06,,24,0,6,26,93,1.498,0.0,99,0.98,13.0,0.0,1,0.0,0.0,0.0,0,0,0,0,0,,,,,,,,,,,,,,,,,,,,
7224,0,,,248,252,236,231,,0.05,0.04,0.99,0,-0,0,0.06,,24,0,6,26,93,1.498,0.0,99,0.97,13.0,0.0,1,0.0,0.0,0.0,0,0,0,0,0,,,,,,,,,,,,,,,,,,,,
7244,0,-1,2,248,252,236,231,2,0.05,0.04,0.99,0,-0,0,0.06,1,24,0,6,26,93,1.498,0.0,99,0.97,13.0,0.0,1,0.0,0.0,0.0,0,0,0,0,0,0,250,250,0,0.0,0.0,0.0,0.0,0,0,0.0,0,0.0,-1,0.0,0.0,0.0,0,0.0,0.1207
7264,0,,,248,252,236,231,,0.05,0.04,0.99,0,-0,0,0.06,,24,0,6,26,93,1.498,0.0,99,0.96,13.0,0.0,1,0.0,0.0,0.0,0,0,0,0,0,,,,,,,,,,,,,,,,,,,,
7284,0,,,248,252,236,231,,0.05,0.04,0.99,0,-0,0,0.06,,24,0,6,26,93,1.498,0.0,100,0.97,13.0,0.0,1,0.0,0.0,0.0,0,0,0,0,0,,,,,,,,,,,,,,,,,,,,
7304,0,,,248,252,236,231,,0.05,0.04,0.98,0,-0,0,0.06,,24,0,6,26,93,1.498,0.0,100,0.96,13.0,0.0,1,0.0,0.0,0.0,0,0,0,0,0,,,,,,,,,,,,,,,,,,,,
7324,0,,,248,252,236,231,,0.05,0.04,0.99,0,-0,0,0.06,,24,0,6,26,93,1.498,0.0,99,0.97,13.0,0.0,1,0.0,0.0,0.0,0,0,0,0,0,,,,,,,,,,,,,,,,,,,,
7344,0,1,2,248,252,236,231,2,0.05,0.04,0.99,0,-0,0,0.06,1,24,0,6,26,93,1.498,0.0,99,0.96,13.0,0.0,1,0.0,0.0,0.0,0,0,0,0,0,0,250,250,0,0.0,0.0,0.0,0.0,0,0,0.0,0,0.0,-1,0.0,,0.0,0,0.0,0.1224
7364,0,,,248,252,236,231,,0.05,0.04,0.98,0,-0,0,0.06,,24,0,6,26,93,1.498,0.0,99,0.96,13.0,0.0,1,0.0,0.0,0.0,0,0,0,0,0,,,,,,,,,,,,,,,,,,,,
7384,0,,,248,252,236,231,,0.05,0.04,0.99,0,-0,0,0.06,,24,0,6,26,93,1.498,0.0,99,0.96,13.0,0.0,1,0.0,0.0,0.0,0,0,0,0,0,,,,,,,,,,,,,,,,,,,,
7404,0,,,249,252,236,231,,0.05,0.04,0.99,0,-0,0,0.06,,24,0,6,26,93,1.498,0.0,99,0.96,13.0,0.0,1,0.0,0.0,0.0,0,0,0,0,0,,,,,,,,,,,,,,,,,,,,
7424,0,,,249,252,236,231,,0.05,0.04,0.99,-0,-0,0,0.06,,24,0,6,26,93,1.498,0.0,99,0.96,13.0,0.0,1,0.0,0.0,0.0,0,0,0,0,0,,,,,,,,,,,,,,,,,,,,
7444,0,7,1,249,252,236,231,2,0.05,0.04,0.99,-0,-0,0,0.06,1,24,0,6,26,93,1.498,0.0,99,0.96,13.0,0.0,1,0.0,0.0,0.0,0,0,0,0,0,0,250,250,0,0.0,0.0,0.0,0.0,0,0,0.0,0,0.0,-1,0.0,0.0,0.0,0,0.0,0.1241
7464,0,,,248,252,236,231,,0.04,0.04,0.99,-0,-0,0,0.06,,24,0,6,26,93,1.498,0.0,99,0.96,13.0,0.0,1,0.0,0.0,0.0,0,0,0,0,0,,,,,,,,,,,,,,,,,,,,
7484,0,,,248,252,236,231,,0.05,0.04,0.99,-0,-0,0,0.06,,24,0,6,26,93,1.498,0.0,99,0.96,13.0,0.0,1,0.0,0.0,0.0,0,0,0,0,0,,,,,,,,,,,,,,,,,,,,
7504,0,,,248,252,236,231,,0.05,0.04,0.99,-0,-0,0,0.06,,24,0,6,26,93,1.498,0.0,99,0.96,13.0,0.0,1,0.0,0.0,0.0,0,0,0,0,0,,,,,,,,,,,,,,,,,,,,
7524,0,,,248,252,236,231,,0.05,0.04,0.99,-0,-0,0,0.06,,24,0,6,26,93,1.498,0.0,99,0.96,13.0,0.0,1,0.0,0.0,0.0,0,0,0,0,0,,,,,,,,,,,,,,,,,,,,
7544,0,13,3,248,252,236,231,3,0.05,0.04,0.99,-0,-0,0,0.06,1,24,0,6,26,93,1.498,0.0,99,0.96,13.0,0.0,1,0.0,0.0,0.0,0,0,0,0,0,0,250,250,0,0.0,0.0,0.0,0.0,0,0,0.0,0,0.0,-1,0.0,,0.0,0,0.0,0.1257
7564,0,,,248,252,236,231,,0.05,0.04,0.99,-0,-0,0,0.06,,24,0,6,26,93,1.498,0.0,99,0.96,13.0,0.0,1,0.0,0.0,0.0,0,0,0,0,0,,,,,,,,,,,,,,,,,,,,
7584,0,,,248,252,236,231,,0.05,0.04,0.99,-0,-0,0,0.06,,24,0,6,26,93,1.498,0.0,99,0.96,13.0,0.0,1,0.0,0.0,0.0,0,0,0,0,0,,,,,,,,,,,,,,,,,,,,
7604,0,,,248,252,236,231,,0.05,0.04,0.98,-0,-0,0,0.06,,24,0,6,26,93,1.498,0.0,100,0.96,13.0,0.0,1,0.0,0.0,0.0,0,0,0,0,0,,,,,,,,,,,,,,,,,,,,
7624,0,,,248,252,236,231,,0.04,0.04,0.98,0,-0,0,0.06,,24,0,6,26,93,1.498,0.0,99,0.96,13.0,0.0,1,0.0,0.0,0.0,0,0,0,0,0,,,,,,,,,,,,,,,,,,,,
7644,0,10,4,248,252,236,231,2,0.04,0.04,0.99,0,-0,0,0.06,1,24,0,6,26,93,1.498,0.0,99,0.96,13.0,0.0,1,0.0,0.0,0.0,0,0,0,0,0,0,250,250,0,0.0,0.0,0.0,0.0,0,0,0.0,0,0.0,-1,0.0,0.0,0.0,0,0.0,0.1274
7664,0,,,248,252,236,231,,0.05,0.04,0.99,0,-0,0,0.06,,24,0,6,26,93,1.498,0.0,99,0.96,13.0,0.0,1,0.0,0.0,0.0,0,0,0,0,0,,,,,,,,,,,,,,,,,,,,
7684,0,,,248,252,236,231,,0.05,0.04,0.99,0,-0,0,0.06,,24,0,6,26,93,1.498,0.0,99,0.96,13.0,0.0,1,0.0,0.0,0.0,0,0,0,0,0,,,,,,,,,,,,,,,,,,,,
7704,0,,,248,252,236,231,,0.05,0.04,0.99,0,-0,0,0.06,,24,0,6,26,93,1.498,0.0,99,0.96,13.0,0.0,1,0.0,0.0,0.0,0,0,0,0,0,,,,,,,,,,,,,,,,,,,,
7724,0,,,248,252,236,231,,0.05,0.04,0.99,0,-0,0,0.06,,24,0,6,26,93,1.498,0.0,99,0.96,13.0,0.0,1,0.0,0.0,0.0,0,0,0,0,0,,,,,,,,,,,,,,,,,,,,
7744,0,10,5,248,252,236,231,2,0.05,0.04,0.99,0,-0,0,0.06,1,24,0,6,26,93,1.498,0.0,100,0.96,13.0,0.0,1,0.0,0.0,0.0,0,0,0,0,0,0,250,250,0,0.0,0.0,0.0,0.0,0,0,0.0,0,0.0,-1,0.0,,0.0,0,0.0,0.1291
7764,0,,,248,252,236,231,,0.05,0.04,0.98,0,-0,0,0.06,,24,0,6,26,93,1.498,0.0,99,0.96,13.0,0.0,1,0.0,0.0,0.0,0,0,0,0,0,,,,,,,,,,,,,,,,,,,,
7784,0,,,248,252,236,231,,0.05,0.04,0.99,0,0,0,0.06,,24,0,6,26,93,1.498,0.0,99,0.96,13.0,0.0,1,0.0,0.0,0.0,0,0,0,0,0,,,,,,,,,,,,,,,,,,,,
7804,0,,,248,252,236,231,,0.05,0.04,0.99,0,-0,0,0.06,,24,0,6,26,93,1.498,0.0,100,0.96,13.0,0.0,1,0.0,0.0,0.0,0,0,0,0,0,,,,,,,,,,,,,,,,,,,,
7824,0,,,248,252,236,231,,0.05,0.04,0.99,0,-0,0,0.06,,24,0,6,26,93,1.498,0.0,100,0.96,13.0,0.0,1,0.0,0.0,0.0,0,0,0,0,0,,,,,,,,,,,,,,,,,,,,
7844,0,8,5,248,252,236,231,2,0.05,0.04,0.99,0,-0,0,0.06,1,24,0,6,26,93,1.498,0.0,100,0.96,13.0,0.0,1,0.0,0.0,0.0,0,0,0,0,0,0,250,250,0,0.0,0.0,0.0,0.0,0,0,0.0,0,0.0,-1,0.0,0.0,0.0,0,0.0,0.1307
7864,0,,,249,252,236,231,,0.05,0.04,0.98,-0,-0,0,0.06,,24,0,6,26,93,1.498,0.0,99,0.96,13.0,0.0,1,0.0,0.0,0.0,0,0,0,0,0,,,,,,,,,,,,,,,,,,,,
7884,0,,,248,252,236,231,,0.05,0.04,0.98,-0,-0,0,0.06,,24,0,6,26,93,1.498,0.0,99,0.96,13.0,0.0,1,0.0,0.0,0.0,0,0,0,0,0,,,,,,,,,,,,,,,,,,,,
7904,0,,,248,252,236,231,,0.05,0.04,0.99,-0,-0,0,0.06,,24,0,6,26,93,1.498,0.0,100,0.96,13.0,0.0,1,0.0,0.0,0.0,0,0,0,0,0,,,,,,,,,,,,,,,,,,,,
7924,0,,,248,252,236,231,,0.05,0.04,0.98,-0,-0,0,0.06,,24,0,6,26,93,1.498,0.0,100,0.96,13.0,0.0,1,0.0,0.0,0.0,0,0,0,0,0,,,,,,,,,,,,,,,,,,,,
7944,0,8,2,248,252,235,231,3,0.05,0.04,0.98,-0,-0,0,0.06,1,24,0,6,26,93,1.498,0.0,100,0.96,13.0,0.0,1,0.0,0.0,0.0,0,0,0,0,0,0,250,250,0,0.0,0.0,0.0,0.0,0,0,0.0,0,0.0,-1,0.0,,0.0,0,0.0,0.1324
7964,0,,,249,252,236,231,,0.05,0.04,0.98,-0,-0,0,0.06,,24,0,6,26,93,1.498,0.0,100,0.96,13.0,0.0,1,0.0,0.0,0.0,0,0,0,0,0,,,,,,,,,,,,,,,,,,,,
7984,0,,,248,252,236,231,,0.05,0.04,0.99,-0,-0,0,0.06,,24,0,6,26,93,1.498,0.0,100,0.96,13.0,0.0,1,0.0,0.0,0.0,0,0,0,0,0,,,,,,,,,,,,,,,,,,,,
8004,0,,,248,252,236,231,,0.05,0.04,0.98,0,-0,0,0.06,,24,0,6,26,93,1.498,0.0,100,0.96,13.0,0.0,1,0.0,0.0,0.0,0,0,0,0,0,,,,,,,,,,,,,,,,,,,,
8024,0,,,248,252,236,231,,0.05,0.04,0.98,0,-0,0,0.06,,24,0,6,26,93,1.498,0.0,99,0.96,13.0,0.0,1,0.0,0.0,0.0,0,0,0,0,0,,,,,,,,,,,,,,,,,,,,
8044,0,6,4,248,252,236,231,2,0.05,0.04,0.98,0,-0,0,0.06,1,24,0,6,26,93,1.498,0.0,99,0.95,13.0,0.0,1,0.0,0.0,0.0,0,0,0,0,0,0,250,250,0,0.0,0.0,0.0,0.0,0,0,0.0,0,0.0,-1,0.0,0.0,0.0,0,0.0,0.1341
8064,0,,,248,252,236,231,,0.05,0.04,0.99,0,-0,0,0.06,,24,0,6,26,93,1.498,0.0,100,0.95,13.0,0.0,1,0.0,0.0,0.0,0,0,0,0,0,,,,,,,,,,,,,,,,,,,,
8084,0,,,249,252,236,231,,0.05,0.04,0.98,0,-0,0,0.06,,24,0,6,26,93,1.498,0.0,100,0.95,13.0,0.0,1,0.0,0.0,0.0,0,0,0,0,0,,,,,,,,,,,,,,,,,,,,
8104,0,,,248,252,236,231,,0.05,0.04,0.98,0,-0,-0,0.06,,24,0,6,26,93,1.498,0.0,100,0.95,13.0,0.0,1,0.0,0.0,0.0,0,0,0,0,0,,,,,,,,,,,,,,,,,,,,
8124,0,,,248,252,236,231,,0.05,0.04,0.98,0,-0,0,0.06,,24,0,6,26,93,1.498,0.0,100,0.95,13.0,0.0,1,0.0,0.0,0.0,0,0,0,0,0,,,,,,,,,,,,,,,,,,,,
8144,0,7,4,248,252,236,231,2,0.05,0.04,0.99,0,-0,0,0.06,1,24,0,6,26,93,1.498,0.0,99,0.95,13.0,0.0,1,0.0,0.0,0.0,0,0,0,0,0,0,250,250,0,0.0,0.0,0.0,0.0,0,0,0.0,0,0.0,-1,0.0,,0.0,0,0.0,0.1357
8164,0,,,248,252,236,231,,0.04,0.04,0.99,0,-0,0,0.06,,24,0,6,26,93,1.498,0.0,99,0.95,13.1,0.0,1,0.0,0.0,0.0,0,0,0,0,0,,,,,,,,,,,,,,,,,,,,
8184,0,,,248,252,236,231,,0.04,0.04,0.99,0,-0,0,0.06,,24,0,6,26,93,1.498,0.0,99,0.95,13.1,0.0,1,0.0,0.0,0.0,0,0,0,0,0,,,,,,,,,,,,,,,,,,,,
8204,0,,,248,252,236,231,,0.05,0.04,0.99,0,-0,0,0.06,,24,0,6,26,93,1.498,0.0,100,0.95,13.0,0.0,1,0.0,0.0,0.0,0,0,0,0,0,,,,,,,,,,,,,,,,,,,,
8224,0,,,248,252,236,231,,0.05,0.04,0.99,0,-0,0,0.06,,24,0,6,26,93,1.498,0.0,100,0.95,13.0,0.0,1,0.0,0.0,0.0,0,0,0,0,0,,,,,,,,,,,,,,,,,,,,
8244,0,5,3,248,252,236,231,2,0.05,0.04,0.99,0,-0,0,0.06,1,24,0,6,26,93,1.498,0.0,100,0.95,13.1,0.0,1,0.0,0.0,0.0,0,0,0,0,0,0,250,250,0,0.0,0.0,0.0,0.0,0,0,0.0,0,0.0,-1,0.0,0.0,0.0,0,0.0,0.1374
8264,0,,,248,252,236,231,,0.05,0.04,0.98,0,0,0,0.06,,24,0,6,26,93,1.498,0.0,99,0.94,10.1,0.0,1,0.0,0.0,0.0,0,0,0,0,0,,,,,,,,,,,,,,,,,,,,
8284,0,,,248,252,236,231,,0.05,0.04,0.97,0,-0,-0,0.06,,24,0,6,26,93,1.498,0.0,99,0.94,10.1,0.0,1,0.0,0.0,0.0,0,0,0,0,0,,,,,,,,,,,,,,,,,,,,
8304,0,,,248,252,236,231,,0.05,0.04,0.97,0,-0,-0,0.06,,24,0,6,26,93,1.498,0.0,99,0.94,10.8,0.0,1,0.0,0.0,0.0,0,0,0,0,0,,,,,,,,,,,,,,,,,,,,
8324,0,,,248,252,236,231,,0.04,0.04,0.98,0,-0,-0,0.06,,24,0,6,26,93,1.498,0.0,100,0.94,11.2,0.0,1,0.0,0.0,0.0,0,0,0,0,0,,,,,,,,,,,,,,,,,,,,
8344,0,5,3,249,252,236,231,2,0.04,0.04,0.98,0,-0,-0,0.06,1,24,0,6,26,92,1.498,0.0,100,0.94,11.3,0.0,1,0.0,0.0,0.0,0,0,0,0,0,0,250,250,0,0.0,0.0,0.0,0.0,0,0,0.0,0,0.0,-1,0.0,,0.0,0,0.0,0.1391
8364,0,,,248,252,236,231,,0.04,0.04,0.98,0,-0,-0,0.06,,24,0,6,26,92,1.498,0.0,100,0.94,11.4,0.0,1,0.0,0.0,0.0,0,0,0,0,0,,,,,,,,,,,,,,,,,,,,
8384,0,,,248,252,236,231,,0.04,0.04,0.97,0,-0,0,0.06,,24,0,6,26,92,1.498,0.0,100,0.94,11.3,0.0,1,0.0,0.0,0.0,0,0,0,0,0,,,,,,,,,,,,,,,,,,,,
8404,0,,,248,252,236,231,,0.04,0.04,0.97,0,-0,0,0.06,,24,0,6,26,93,1.498,0.0,100,0.94,11.6,0.0,1,0.0,0.0,0.0,0,0,0,0,0,,,,,,,,,,,,,,,,,,,,
8424,0,,,248,252,236,231,,0.04,0.04,0.98,0,-0,0,0.06,,24,0,6,26,92,1.498,0.0,100,0.94,11.8,0.0,1,0.0,0.0,0.0,0,0,0,0,0,,,,,,,,,,,,,,,,,,,,
8444,0,6,4,248,252,236,231,2,0.04,0.04,0.97,0,-0,0,0.06,1,24,0,6,26,92,1.498,0.0,100,0.94,11.8,0.0,1,0.0,0.0,0.0,0,0,0,0,0,0,250,250,0,0.0,0.0,0.0,0.0,0,0,0.0,0,0.0,-1,0.0,0.0,0.0,0,0.0,0.1407
8464,0,,,249,252,236,231,,0.04,0.04,0.96,0,-0,0,0.06,,24,0,6,26,92,1.498,0.0,100,0.94,11.6,0.0,1,0.0,0.0,0.0,0,0,0,0,0,,,,,,,,,,,,,,,,,,,,
8484,0,,,248,252,236,231,,0.03,0.04,0.98,0,0,0,0.06,,24,0,6,26,93,1.498,0.0,100,0.94,11.8,0.0,1,0.0,0.0,0.0,0,0,0,0,0,,,,,,,,,,,,,,,,,,,,
8504,0,,,248,252,236,231,,0.04,0.04,0.99,0,0,0,0.06,,24,0,6,26,92,1.498,0.0,100,0.94,12.0,0.0,1,0.0,0.0,0.0,0,0,0,0,0,,,,,,,,,,,,,,,,,,,,
8524,0,,,248,252,236,231,,0.04,0.04,0.99,0,0,0,0.05,,24,0,6,26,92,1.498,0.0,100,0.94,11.8,0.0,1,0.0,0.0,0.0,0,0,0,0,0,,,,,,,,,,,,,,,,,,,,
8544,0,5,3,248,252,236,231,2,0.04,0.04,0.99,0,0,0,0.06,1,24,0,6,26,92,1.498,0.0,100,0.94,11.8,0.0,1,0.0,0.0,0.0,0,0,0,0,0,0,250,250,0,0.0,0.0,0.0,0.0,0,0,0.0,0,0.0,-1,0.0,,0.0,0,0.0,0.1424
8564,0,,,248,252,236,231,,0.04,0.04,0.98,0,0,0,0.06,,24,0,6,26,92,1.498,0.0,100,0.94,11.9,0.0,1,0.0,0.0,0.0,0,0,0,0,0,,,,,,,,,,,,,,,,,,,,
8584,0,,,248,252,236,231,,0.04,0.04,0.98,0,0,0,0.06,,24,0,6,26,92,1.498,0.0,101,0.94,12.0,0.0,1,0.0,0.0,0.0,0,0,0,0,0,,,,,,,,,,,,,,,,,,,,
8604,0,,,248,252,236,231,,0.04,0.04,0.98,0,0,0,0.05,,24,0,6,26,92,1.498,0.0,101,0.94,11.7,0.0,1,0.0,0.0,0.0,0,0,0,0,0,,,,,,,,,,,,,,,,,,,,
8624,0,,,248,252,236,231,,0.04,0.04,0.98,0,0,0,0.05,,24,0,6,26,93,1.498,0.0,101,0.94,11.9,0.0,1,0.0,0.0,0.0,0,0,0,0,0,,,,,,,,,,,,,,,,,,,,
8644,0,5,4,248,252,236,231,2,0.04,0.04,0.98,0,0,0,0.05,1,24,0,6,26,92,1.498,0.0,102,0.94,12.0,0.0,1,0.0,0.0,0.0,0,0,0,0,0,0,250,250,0,0.0,0.0,0.0,0.0,0,0,0.0,0,0.0,-1,0.0,0.0,0.0,0,0.0,0.1441
8664,0,,,248,252,236,231,,0.04,0.04,0.98,0,0,0,0.06,,24,124,6,26,92,1.498,0.0,102,0.94,11.5,0.0,1,20.0,2.09,0.0,0,0,0,1,0,,,,,,,,,,,,,,,,,,,,
8684,0,,,248,252,236,231,,0.04,0.04,0.98,0,0,0,0.06,,24,124,6,26,93,1.498,0.0,102,1.51,11.6,0.0,1,20.0,2.09,0.0,0,0,0,1,0,,,,,,,,,,,,,,,,,,,,
8704,0,,,248,252,236,231,,0.04,0.04,0.99,0,-0,0,0.06,,24,124,6,26,92,1.498,0.0,102,3.65,11.8,0.0,1,20.0,2.09,0.0,0,0,0,1,0,,,,,,,,,,,,,,,,,,,,
8724,0,,,248,252,236,231,,0.04,0.04,0.99,0,-0,0,0.06,,24,462,6,26,92,1.498,0.0,102,4.68,11.7,0.0,1,20.0,9.51,0.0,0,0,0,1,0,,,,,,,,,,,,,,,,,,,,
8744,0,6,3,248,252,236,231,2,0.04,0.04,0.99,0,0,0,0.06,1,24,462,6,26,92,1.498,0.0,102,4.72,11.6,0.0,1,20.0,9.51,0.0,0,0,0,1,0,0,250,250,0,0.0,0.0,0.0,0.0,0,0,0.0,0,0.0,-1,0.0,,0.0,0,0.0,0.1457
8764,0,,,248,252,236,231,,0.04,0.04,0.99,0,-0,0,0.06,,24,462,6,26,92,1.498,0.0,102,4.72,11.8,0.0,1,20.0,2.09,2.0,0,0,0,1,0,,,,,,,,,,,,,,,,,,,,
8784,0,,,248,252,236,231,,0.04,0.04,0.99,0,0,0,0.06,,24,452,6,26,92,1.498,0.0,102,4.72,11.8,0.0,1,20.0,2.09,2.0,0,0,0,1,0,,,,,,,,,,,,,,,,,,,,
8804,0,,,248,252,236,231,,0.04,0.04,0.98,0,0,0,0.06,,24,452,6,26,92,1.498,0.0,102,4.72,11.5,0.0,1,20.0,9.51,2.0,0,0,0,1,0,,,,,,,,,,,,,,,,,,,,
8824,0,,,248,252,236,231,,0.04,0.04,0.98,0,0,0,0.06,,24,452,6,26,92,1.498,0.0,102,4.71,11.7,0.0,1,20.0,9.51,2.0,0,0,0,1,0,,,,,,,,,,,,,,,,,,,,
8844,0,5,3,248,252,236,231,2,0.04,0.04,0.97,0,0,0,0.06,1,24,452,6,26,92,1.498,0.0,102,4.72,11.8,0.0,1,20.0,2.09,2.0,0,0,0,1,0,0,250,250,0,0.0,0.0,0.0,0.0,0,0,0.0,0,0.0,-1,0.0,0.0,0.0,0,0.0,0.1474
8864,0,,,248,252,236,231,,0.04,0.04,0.97,0,0,0,0.06,,24,454,6,26,92,1.498,0.0,102,4.71,11.6,0.0,1,20.0,2.09,1.9,0,0,0,1,0,,,,,,,,,,,,,,,,,,,,
8884,0,,,248,252,236,231,,0.04,0.04,0.97,0,0,0,0.06,,24,454,6,26,92,1.498,0.0,102,4.72,11.7,0.0,1,20.0,2.09,1.9,0,0,0,1,0,,,,,,,,,,,,,,,,,,,,
8904,0,,,248,252,236,231,,0.04,0.04,0.98,-0,0,0,0.06,,24,454,6,26,92,1.498,0.0,102,4.71,11.8,0.0,1,20.0,9.51,1.9,0,0,0,1,0,,,,,,,,,,,,,,,,,,,,
8924,0,,,248,252,236,231,,0.04,0.04,0.97,-0,-0,0,0.06,,24,457,6,26,92,1.498,0.0,103,4.72,11.6,0.0,1,20.0,9.51,1.9,0,0,0,1,0,,,,,,,,,,,,,,,,,,,,
8944,0,5,3,248,252,236,231,2,0.04,0.04,0.98,-0,-0,0,0.06,1,24,457,6,26,92,1.498,0.0,103,4.72,11.6,0.0,1,20.0,2.09,1.9,0,0,0,1,0,0,250,250,0,0.0,0.0,0.0,0.0,0,0,0.0,0,0.0,-1,0.0,,0.0,0,0.0,0.1491
8964,0,,,248,252,236,231,,0.04,0.04,0.98,-0,-0,0,0.06,,24,457,6,26,92,1.498,0.0,103,4.72,11.8,0.0,1,20.0,9.51,2.0,0,0,0,1,0,,,,,,,,,,,,,,,,,,,,
8984,0,,,248,252,236,231,,0.04,0.04,0.98,0,-0,0,0.06,,24,454,6,26,92,1.498,0.0,105,4.72,11.8,0.0,1,20.0,9.51,2.0,0,0,0,1,0,,,,,,,,,,,,,,,,,,,,
9004,0,,,248,252,236,231,,0.04,0.04,0.99,-0,-0,-0,0.06,,24,454,6,26,92,1.498,0.0,105,4.72,11.6,0.0,1,20.0,9.51,2.0,0,0,0,1,0,,,,,,,,,,,,,,,,,,,,
9024,0,,,248,252,236,231,,0.04,0.04,0.99,0,-0,0,0.06,,24,454,6,26,92,1.498,0.0,105,4.72,11.7,0.0,1,20.0,2.09,2.0,0,0,0,1,0,,,,,,,,,,,,,,,,,,,,
9044,0,5,3,248,252,236,231,3,0.04,0.04,0.98,0,-0,0,0.06,1,24,456,6,26,92,1.498,0.0,105,4.72,11.9,0.0,1,20.0,9.51,2.0,0,0,0,1,0,0,250,250,0,0.0,0.0,0.0,0.0,0,0,0.0,0,0.0,-1,0.0,0.0,0.0,0,0.0,0.1507
9064,0,,,249,252,236,231,,0.04,0.05,0.98,0,0,0,0.06,,24,456,6,26,92,1.498,0.0,105,4.72,11.6,0.0,1,20.0,9.51,1.9,0,0,0,1,0,,,,,,,,,,,,,,,,,,,,
9084,0,,,248,252,236,231,,0.04,0.05,0.99,0,0,0,0.07,,24,456,6,26,92,1.498,0.0,105,4.72,11.7,0.0,1,20.0,9.51,1.9,0,0,0,1,0,,,,,,,,,,,,,,,,,,,,
9104,0,,,248,252,236,231,,0.04,0.05,0.99,0,0,0,0.07,,24,456,6,26,92,1.498,0.0,105,4.72,11.8,0.0,1,20.0,9.51,1.9,0,0,0,1,0,,,,,,,,,,,,,,,,,,,,
9124,0,,,248,252,236,231,,0.05,0.04,0.97,0,0,0,0.06,,24,453,6,26,91,1.498,0.0,102,4.68,11.4,0.0,1,20.0,2.09,1.9,0,0,0,1,0,,,,,,,,,,,,,,,,,,,,
9144,0,4,4,248,252,236,231,1,0.04,0.04,0.98,0,-0,0,0.06,1,24,453,7,26,92,1.498,0.0,105,4.71,11.6,0.0,1,20.0,9.51,1.9,0,0,0,1,0,0,250,250,0,0.0,0.0,0.0,0.0,0,0,0.0,0,0.0,-1,0.0,,0.0,0,0.0,0.1524
9164,0,,,248,252,236,231,,0.05,0.04,0.98,0,-0,0,0.06,,24,453,14,26,92,1.498,0.0,105,4.72,11.8,0.0,1,21.7,4.18,1.9,0,0,0,1,0,,,,,,,,,,,,,,,,,,,,
9184,0,,,248,252,236,231,,0.04,0.04,0.98,0,-0,0,0.06,,24,455,22,26,92,1.498,0.0,102,4.7,11.3,0.0,1,21.7,4.18,1.9,0,0,0,1,0,,,,,,,,,,,,,,,,,,,,
9204,0,,,248,252,236,231,,0.05,0.04,0.99,0,-0,0,0.06,,24,455,33,26,93,1.498,0.0,105,4.71,11.5,0.0,1,23.1,17.87,1.9,0,0,0,1,0,,,,,,,,,,,,,,,,,,,,
9224,0,,,248,252,236,231,,0.05,0.04,1.0,0,-0,0,0.06,,24,455,43,26,93,1.498,0.0,105,4.71,11.7,0.0,1,23.1,17.87,1.9,0,0,0,1,0,,,,,,,,,,,,,,,,,,,,
9244,0,4,4,248,252,236,231,2,0.05,0.04,1.0,0,-0,0,0.06,1,24,455,49,26,93,1.498,0.0,105,4.68,11.8,0.0,1,23.1,17.87,1.9,0,0,0,1,0,0,250,250,0,0.0,0.0,0.0,0.0,0,0,0.0,0,0.0,-1,0.0,0.0,0.0,0,0.0,0.1541
9264,0,,,248,252,236,231,,0.05,0.05,0.99,0,-0,0,0.07,,24,455,54,26,93,1.498,0.0,106,4.71,11.5,0.0,1,23.1,17.87,3.7,0,0,0,1,0,,,,,,,,,,,,,,,,,,,,
9284,0,,,248,252,236,231,,0.05,0.05,0.99,0,-0,0,0.07,,24,455,57,26,93,1.498,0.0,105,4.7,11.7,0.0,1,23.1,2.09,3.7,0,0,0,1,0,,,,,,,,,,,,,,,,,,,,
9304,0,,,248,252,236,231,,0.05,0.05,0.99,0,-0,0,0.07,,24,455,60,26,93,1.498,0.0,105,4.68,11.7,0.0,1,23.1,17.87,3.7,0,0,0,1,0,,,,,,,,,,,,,,,,,,,,
9324,0,,,248,252,236,231,,0.05,0.05,0.99,0,-0,0,0.07,,24,453,62,26,92,1.498,0.0,105,4.7,11.5,0.0,1,21.7,2.09,3.7,0,0,0,1,0,,,,,,,,,,,,,,,,,,,,
9344,0,5,2,248,252,236,231,2,0.05,0.05,0.99,0,-0,0,0.07,1,24,453,64,26,93,1.498,0.0,107,4.71,11.6,0.0,1,23.1,17.87,3.7,0,0,0,1,0,0,250,250,0,0.0,0.0,0.0,0.0,0,0,0.0,0,0.0,-1,0.0,,0.0,0,0.0,0.1557
9364,0,,,248,252,236,231,,0.05,0.05,0.99,0,-0,0,0.07,,24,453,65,26,93,1.498,0.0,107,4.72,11.8,0.0,1,23.1,2.09,3.7,0,0,0,1,0,,,,,,,,,,,,,,,,,,,,
9384,0,,,248,252,236,231,,0.05,0.04,0.98,0,-0,0,0.06,,24,450,65,26,92,1.498,0.0,102,4.65,11.2,0.0,1,21.7,17.87,3.7,0,0,0,1,0,,,,,,,,,,,,,,,,,,,,
9404,0,,,248,252,236,231,,0.05,0.04,0.98,0,-0,0,0.06,,24,450,65,26,93,1.498,0.0,107,4.7,11.5,0.0,1,23.1,17.87,3.7,0,0,0,1,0,,,,,,,,,,,,,,,,,,,,
9424,0,,,248,252,236,231,,0.05,0.04,0.98,0,-0,0,0.06,,24,450,65,26,93,1.498,0.0,107,4.71,11.7,0.0,1,23.1,2.09,3.7,0,0,0,1,0,,,,,,,,,,,,,,,,,,,,
9444,0,5,4,249,252,236,231,2,0.05,0.04,0.97,0,-0,0,0.07,1,24,521,65,26,92,1.498,0.0,105,4.66,11.5,0.0,1,21.7,2.09,3.7,0,0,0,1,0,0,250,250,0,0.0,0.0,0.0,0.0,0,0,0.0,0,0.0,-1,0.0,0.0,0.0,0,0.0,0.1574
9464,0,,,249,252,236,231,,0.04,0.04,0.97,0,-0,0,0.06,,24,521,65,26,93,1.498,0.0,108,4.72,11.8,0.0,1,23.1,2.09,4.2,0,0,0,1,0,,,,,,,,,,,,,,,,,,,,
9484,0,,,248,252,236,231,,0.04,0.04,0.96,0,-0,0,0.06,,24,659,61,26,92,1.498,0.0,105,4.7,11.5,0.0,1,21.7,15.53,4.2,0,0,0,1,0,,,,,,,,,,,,,,,,,,,,
9504,0,,,248,252,236,231,,0.05,0.04,0.96,0,0,0,0.06,,24,1159,49,26,92,1.498,0.0,111,4.73,12.1,0.0,1,22.9,15.53,4.2,0,0,0,1,0,,,,,,,,,,,,,,,,,,,,
9524,0,,,248,252,236,231,,0.05,0.04,0.97,0,0,0,0.06,,24,1487,32,26,91,1.498,0.0,110,4.67,11.8,0.0,1,24.1,13.3,4.2,0,0,0,1,0,,,,,,,,,,,,,,,,,,,,
9544,0,5,3,248,252,236,231,2,0.05,0.04,0.97,0,0,0,0.06,1,24,1487,19,27,91,1.498,0.0,107,4.63,11.4,0.0,1,24.1,13.3,4.2,0,0,0,1,0,0,250,250,0,0.0,0.0,0.0,0.0,0,0,0.0,0,0.0,-1,0.0,,0.0,0,0.0,0.1591
9564,0,,,248,252,236,231,,0.05,0.04,0.97,0,0,-0,0.06,,24,1316,11,27,90,1.498,0.0,105,4.55,11.1,0.0,1,20.0,13.3,8.0,0,0,0,1,0,,,,,,,,,,,,,,,,,,,,
9584,0,,,248,252,236,231,,0.04,0.04,0.97,0,0,0,0.06,,24,1128,5,27,88,1.498,0.0,104,4.57,10.8,0.0,1,20.0,12.5,8.0,0,0,0,1,0,,,,,,,,,,,,,,,,,,,,
9604,0,,,248,252,236,231,,0.04,0.04,0.97,0,0,0,0.06,,24,1128,5,27,88,1.498,0.0,102,4.58,10.8,0.0,1,20.0,12.5,8.0,0,0,0,1,0,,,,,,,,,,,,,,,,,,,,
9624,0,,,248,252,236,231,,0.04,0.04,0.99,0,0,-0,0.06,,24,910,5,27,89,1.498,0.0,105,4.6,11.0,0.0,1,20.0,12.62,8.0,0,0,0,1,0,,,,,,,,,,,,,,,,,,,,
9644,0,3,3,248,252,236,231,2,0.04,0.04,0.97,0,0,0,0.06,1,24,910,7,27,89,1.498,0.0,100,4.62,11.0,0.0,1,20.0,12.14,8.0,0,0,0,1,0,0,250,250,0,0.0,0.0,0.0,0.0,0,0,0.0,0,0.0,-1,0.0,0.0,0.0,0,0.0,0.1607
9664,0,,,248,252,236,231,,0.05,0.06,1.01,-0,0,0,0.08,,24,691,16,27,90,1.498,0.0,107,4.62,10.9,0.0,1,19.0,2.09,3.8,0,0,0,1,0,,,,,,,,,,,,,,,,,,,,
9684,0,,,248,252,236,231,,0.06,0.06,1.0,-0,1,0,0.08,,24,691,26,27,91,1.498,0.0,107,4.6,10.7,0.0,1,20.3,2.09,3.8,0,0,0,1,0,,,,,,,,,,,,,,,,,,,,
9704,0,,,248,252,236,231,,0.06,0.05,1.01,-0,0,-0,0.08,,24,789,38,27,92,1.498,0.0,119,4.66,11.3,0.0,1,21.7,13.02,3.8,0,0,0,1,0,,,,,,,,,,,,,,,,,,,,
9724,0,,,248,252,236,231,,0.06,0.04,0.99,-0,0,-0,0.07,,24,1371,45,26,92,1.498,0.0,133,4.68,11.8,0.0,1,24.6,12.64,3.8,0,0,0,1,0,,,,,,,,,,,,,,,,,,,,
9744,0,3,3,248,252,236,231,2,0.06,0.04,0.98,0,0,-0,0.07,1,24,1602,51,26,92,1.498,0.0,148,4.69,12.0,0.0,1,25.7,12.31,3.8,0,0,0,1,0,0,250,250,0,0.0,0.0,0.0,0.0,0,0,0.0,0,0.0,-1,0.0,,0.0,0,0.0,0.1624
9764,0,,,248,252,236,231,,0.07,0.03,0.98,0,0,-0,0.08,,24,1865,54,27,92,1.498,0.0,161,4.66,11.7,0.0,1,25.7,12.31,9.5,0,0,0,1,0,,,,,,,,,,,,,,,,,,,,
9784,0,,,248,252,236,231,,0.07,0.04,0.97,0,0,0,0.08,,24,1736,55,26,92,1.498,0.0,177,4.71,11.9,0.0,1,25.7,11.97,9.5,0,0,0,1,0,,,,,,,,,,,,,,,,,,,,
9804,0,,,248,252,236,231,,0.06,0.04,0.99,0,0,0,0.07,,24,1673,55,27,92,1.498,0.0,189,4.67,11.8,0.0,1,25.7,11.97,9.5,0,0,0,1,0,,,,,,,,,,,,,,,,,,,,
9824,0,,,248,251,236,231,,0.07,0.04,0.97,0,-0,-0,0.08,,24,1924,55,27,91,1.498,0.0,211,4.62,11.5,0.0,1,24.3,11.6,9.5,0,0,0,1,0,,,,,,,,,,,,,,,,,,,,
9844,0,4,4,248,252,236,231,2,0.05,0.04,0.96,0,-0,0,0.06,1,24,2445,55,27,91,1.498,0.0,246,4.63,11.9,0.0,1,24.3,10.93,9.5,0,0,0,1,0,0,250,250,0,0.0,0.0,0.0,0.0,0,0,0.0,0,0.0,-1,0.0,0.0,0.0,0,0.0,0.1641
9864,0,,,248,252,235,231,,0.05,0.04,0.97,0,1,-0,0.06,,24,2569,53,27,91,1.498,0.0,296,4.66,11.9,0.0,1,24.5,10.3,12.3,0,0,0,1,0,,,,,,,,,,,,,,,,,,,,
9884,0,,,248,252,236,231,,0.06,0.05,0.98,0,1,0,0.07,,24,3050,42,26,92,1.498,0.0,367,4.7,12.2,0.0,1,26.5,10.86,12.3,0,0,0,1,0,,,,,,,,,,,,,,,,,,,,
9904,0,,,248,252,236,231,,0.05,0.08,0.99,0,2,1,0.09,,24,3388,27,26,91,1.498,0.0,471,4.65,12.3,0.0,1,25.7,11.33,12.3,0,0,0,1,0,,,,,,,,,,,,,,,,,,,,
9924,0,,,248,252,236,231,,0.06,0.06,0.92,0,2,1,0.08,,24,3576,18,26,90,1.498,0.0,576,4.71,12.4,0.0,1,25.3,11.39,12.3,0,0,0,1,0,,,,,,,,,,,,,,,,,,,,
9944,0,4,4,248,252,236,231,2,0.08,0.08,0.99,0,1,0,0.11,1,24,3948,16,26,88,1.498,0.0,605,4.65,12.3,0.0,1,26.6,10.35,12.3,0,0,0,1,0,0,250,250,0,0.0,0.0,0.0,0.0,0,0,0.0,0,0.0,-1,0.0,,0.0,0,0.0,0.1657
9964,0,,,248,252,236,231,,0.05,0.1,1.1,0,-0,0,0.11,,24,4162,16,26,86,1.498,0.0,608,4.68,12.2,0.0,1,28.8,9.51,18.4,0,0,0,1,0,,,,,,,,,,,,,,,,,,,,
9984,0,,,248,252,236,231,,0.03,0.1,1.19,0,-0,1,0.1,,24,4399,16,26,84,1.498,0.0,613,4.67,12.2,0.0,1,31.9,9.23,18.4,0,0,0,1,0,,,,,,,,,,,,,,,,,,,,
10004,0,,,248,252,236,231,,-0.01,0.08,1.21,0,0,1,0.08,,24,4528,16,26,82,1.498,0.0,614,4.71,12.2,0.0,1,33.3,9.03,18.4,0,0,0,1,0,,,,,,,,,,,,,,,,,,,,
10024,0,,,248,252,236,231,,-0.04,0.1,1.42,0,0,1,0.11,,24,4799,16,26,81,1.498,0.0,621,4.68,12.7,0.0,1,37.0,9.15,18.4,0,0,0,1,0,,,,,,,,,,,,,,,,,,,,
10044,0,5,1,248,252,236,231,2,0.03,0.06,1.37,0,-2,-2,0.06,1,24,5082,16,26,80,1.498,0.0,623,4.68,13.0,0.0,1,39.5,9.23,18.4,0,0,0,1,0,0,250,250,0,0.0,0.0,0.0,0.0,0,0,0.0,0,0.0,-1,0.0,0.0,0.0,0,0.0,0.1674
10064,0,,,248,252,236,231,,-0.03,0.05,1.35,0,2,1,0.06,,24,5422,16,26,78,1.498,0.0,632,4.62,12.7,0.0,1,38.3,9.53,22.4,0,0,0,1,0,,,,,,,,,,,,,,,,,,,,
10084,0,,,248,252,236,231,,-0.02,0.0,1.25,0,-1,-1,0.02,,24,5630,16,26,77,1.498,0.0,637,4.62,12.9,0.0,1,37.7,9.57,22.4,0,0,0,1,0,,,,,,,,,,,,,,,,,,,,
10104,0,,,248,252,236,231,,0.06,-0.03,1.46,-0,-4,-4,0.06,,24,5804,16,26,76,1.498,0.0,637,4.76,13.0,0.0,1,37.2,9.43,22.4,0,0,0,1,0,,,,,,,,,,,,,,,,,,,,
10124,0,,,248,252,236,231,,0.11,-0.02,1.65,0,-6,-5,0.11,,24,5961,16,26,75,1.498,0.0,644,4.7,13.0,0.0,1,36.8,9.05,22.4,0,0,0,1,0,,,,,,,,,,,,,,,,,,,,
10144,0,4,2,248,252,236,231,2,0.15,-0.01,1.83,0,-7,-5,0.15,1,24,5965,15,26,74,1.498,0.0,640,4.69,13.0,0.0,1,36.6,8.47,22.4,0,0,0,1,0,0,250,250,0,0.0,0.0,0.0,0.0,0,0,0.0,0,0.0,-1,0.0,,0.0,0,0.0,0.1691
10164,0,,,248,252,236,231,,0.16,0.03,2.0,0,-6,-5,0.16,,24,5737,15,26,73,1.498,0.0,642,4.72,13.0,0.0,1,36.7,7.67,22.6,0,0,0,1,0,,,,,,,,,,,,,,,,,,,,
10184,0,,,248,252,236,231,,0.13,0.05,1.96,0,-3,-2,0.14,,24,5795,15,26,71,1.498,0.0,642,4.66,13.0,0.0,1,36.3,7.01,22.6,0,0,0,1,0,,,,,,,,,,,,,,,,,,,,
10204,0,,,248,252,236,231,,0.08,0.07,1.81,0,-0,0,0.11,,24,5837,15,26,71,1.498,0.0,636,4.64,12.8,0.0,1,36.2,6.95,22.6,0,0,0,1,0,,,,,,,,,,,,,,,,,,,,
10224,0,,,248,252,236,231,,0.03,0.04,1.67,0,1,2,0.05,,24,5751,13,26,71,1.498,0.0,636,4.66,12.7,0.0,1,36.3,6.05,22.6,0,0,0,1,0,,,,,,,,,,,,,,,,,,,,
10244,0,4,4,248,252,236,231,1,0.02,0.01,1.54,0,-2,1,0.03,1,24,5813,12,26,69,1.498,0.0,638,4.66,12.8,0.0,1,35.8,5.93,22.6,0,0,0,1,0,0,250,250,0,0.0,0.0,0.0,0.0,0,0,0.0,0,0.0,-1,0.0,0.0,0.0,0,0.0,0.1707
10264,0,,,248,252,236,231,,0.06,0.0,1.52,0,-4,-2,0.06,,24,5841,11,26,69,1.498,0.0,637,4.67,12.9,0.0,1,35.8,5.7,15.5,0,0,0,1,0,,,,,,,,,,,,,,,,,,,,
10284,0,,,248,252,236,231,,0.11,0.0,1.71,0,-7,-4,0.11,,24,5857,10,26,67,1.498,0.0,640,4.71,13.0,0.0,1,35.4,5.14,15.5,0,0,0,1,0,,,,,,,,,,,,,,,,,,,,
10304,0,,,248,252,236,231,,0.16,0.0,1.88,0,-7,-5,0.16,,24,5842,9,26,66,1.498,0.0,635,4.7,13.1,0.0,1,35.2,4.75,15.5,0,0,0,1,0,,,,,,,,,,,,,,,,,,,,
10324,0,,,248,252,236,231,,0.15,0.01,2.05,0,-5,-5,0.15,,24,5762,9,26,64,1.498,0.0,638,4.73,13.0,0.0,1,34.7,4.15,15.5,0,0,0,1,0,,,,,,,,,,,,,,,,,,,,
10344,0,5,2,248,252,236,231,1,0.09,0.02,1.96,0,-0,-2,0.09,1,24,5740,8,26,63,1.498,0.0,640,4.7,13.0,0.0,1,34.4,3.83,15.5,0,0,0,1,0,0,250,250,0,0.0,0.0,0.0,0.0,0,0,0.0,0,0.0,-1,0.0,,0.0,0,0.0,0.1724
10364,0,,,248,252,236,231,,0.04,0.02,1.81,0,3,1,0.04,,24,5522,6,26,62,1.498,0.0,633,4.62,12.7,0.0,1,34.2,3.65,10.1,0,0,0,1,0,,,,,,,,,,,,,,,,,,,,
10384,0,,,248,252,236,232,,0.11,0.02,1.98,0,-2,-3,0.11,,24,5447,6,26,60,1.498,0.0,630,4.73,13.1,0.0,1,33.7,3.59,10.1,0,0,0,1,0,,,,,,,,,,,,,,,,,,,,
10404,0,,,248,252,236,232,,0.06,0.03,2.13,0,0,-1,0.07,,24,5433,6,26,59,1.498,0.0,636,4.71,13.0,0.0,1,33.4,3.55,10.1,0,0,0,1,0,,,,,,,,,,,,,,,,,,,,
10424,0,,,248,252,236,231,,0.08,-0.04,1.97,-0,-0,-1,0.09,,24,5269,6,26,59,1.498,0.0,629,4.64,13.0,0.0,1,33.4,3.64,10.1,0,0,0,1,0,,,,,,,,,,,,,,,,,,,,
10444,0,5,1,249,252,236,231,3,0.05,0.03,2.12,-0,1,-1,0.06,1,24,5138,6,26,57,1.498,0.0,629,4.66,12.7,0.0,1,32.8,3.75,10.1,0,0,0,1,0,0,250,250,0,0.0,0.0,0.0,0.0,0,0,0.0,0,0.0,-1,0.0,0.0,0.0,0,0.0,0.1741
10464,0,,,248,252,236,231,,0.09,-0.03,1.96,-0,0,-2,0.09,,24,5146,6,26,57,1.498,0.0,627,4.76,13.2,0.0,1,32.8,3.7,8.8,0,0,0,1,0,,,,,,,,,,,,,,,,,,,,
10484,0,,,248,252,236,232,,0.07,-0.0,1.92,0,0,-0,0.07,,24,4938,14,26,58,1.498,0.0,623,4.66,13.0,0.0,1,32.2,3.71,8.8,0,0,0,1,0,,,,,,,,,,,,,,,,,,,,
10504,0,,,249,252,236,231,,0.02,0.02,2.01,0,0,-0,0.03,,24,4762,22,26,62,1.498,0.0,622,4.69,12.9,0.0,1,31.1,3.64,8.8,0,0,0,1,0,,,,,,,,,,,,,,,,,,,,
10524,0,,,248,252,236,232,,0.04,0.09,2.16,0,-1,-2,0.09,,24,4894,33,26,70,1.498,0.0,627,4.7,12.9,0.0,1,35.2,7.42,8.8,0,0,0,1,0,,,,,,,,,,,,,,,,,,,,
10544,0,5,2,248,252,236,231,2,0.09,0.0,2.0,-0,-1,-2,0.09,1,24,5021,43,26,82,1.498,0.0,621,4.68,13.1,0.0,1,40.2,8.77,8.8,0,0,0,1,0,0,250,250,0,0.0,0.0,0.0,0.0,0,0,0.0,0,0.0,-1,0.0,,0.0,0,0.0,0.1757
10564,0,,,248,252,236,231,,0.03,0.05,2.15,-0,1,-1,0.06,,24,5329,48,26,88,1.498,0.0,628,4.69,13.0,0.0,1,41.2,9.82,21.4,0,0,0,1,0,,,,,,,,,,,,,,,,,,,,
10584,0,,,248,252,236,232,,0.01,0.0,1.99,-0,2,1,0.01,,24,5578,51,26,90,1.498,0.0,633,4.72,12.9,0.0,1,41.1,10.96,21.4,0,0,0,1,0,,,,,,,,,,,,,,,,,,,,
10604,0,,,248,252,236,231,,0.03,-0.03,2.04,-0,-1,-2,0.04,,24,6011,52,26,90,1.498,0.0,641,4.66,13.0,0.0,1,39.8,12.52,21.4,0,0,0,1,0,,,,,,,,,,,,,,,,,,,,
10624,0,,,248,252,236,231,,0.0,0.0,1.89,-0,-0,-0,0.0,,24,6581,52,26,90,1.498,0.0,647,4.69,12.8,0.0,1,45.6,11.12,21.4,0,0,0,1,0,,,,,,,,,,,,,,,,,,,,
10644,0,4,3,248,252,236,231,3,0.02,-0.02,1.82,-0,-1,-1,0.02,1,24,6967,52,26,89,1.498,0.0,656,4.67,12.9,0.0,1,48.9,9.85,21.4,0,0,0,1,0,0,250,250,0,0.0,0.0,0.0,0.0,0,0,0.0,0,0.0,-1,0.0,0.0,0.0,0,0.0,0.1774
10664,0,,,248,252,236,231,,0.04,-0.02,1.92,-0,-1,-2,0.05,,24,6926,50,26,89,1.498,0.0,656,4.65,12.8,0.0,1,48.6,9.65,31.6,0,0,0,1,0,,,,,,,,,,,,,,,,,,,,
10684,0,,,248,252,236,231,,0.05,-0.03,1.87,-0,-1,-2,0.05,,24,7428,41,26,88,1.498,0.0,660,4.67,12.7,0.0,1,43.3,10.15,31.6,0,0,0,1,0,,,,,,,,,,,,,,,,,,,,
10704,0,,,248,252,236,231,,0.05,-0.08,2.03,-0,-3,-4,0.1,,24,8009,27,26,84,1.498,0.0,673,4.63,12.7,0.0,1,35.5,10.51,31.6,0,0,0,1,0,,,,,,,,,,,,,,,,,,,,
10724,0,,,248,252,236,231,,0.04,-0.01,1.87,-0,-2,-2,0.04,,24,8396,14,26,76,1.498,0.0,679,4.67,12.8,0.0,1,41.8,5.8,31.6,0,0,0,1,0,,,,,,,,,,,,,,,,,,,,
10744,0,5,3,248,252,236,231,3,0.06,-0.07,1.86,-0,-3,-4,0.09,1,24,8256,6,26,66,1.498,0.0,680,4.68,13.1,0.0,1,41.0,4.64,31.6,0,0,0,1,0,0,250,250,0,0.0,0.0,0.0,0.0,0,0,0.0,0,0.0,-1,0.0,,0.0,0,0.0,0.1791
10764,0,,,248,252,236,231,,0.04,0.01,1.72,-0,-2,-2,0.04,,24,7958,6,26,59,1.498,0.0,672,4.73,12.9,0.0,1,37.5,3.14,15.9,0,0,0,1,0,,,,,,,,,,,,,,,,,,,,
10784,0,,,248,252,236,231,,0.03,0.02,1.59,0,-2,-1,0.03,,24,7603,6,26,55,1.498,0.0,668,4.71,12.8,0.0,1,36.8,3.01,15.9,0,0,0,1,0,,,,,,,,,,,,,,,,,,,,
