"Interval"|"ms"|0|0|1,"Utc"|"ms"|0|0|1,"FB_p"|"bar"|0|300|50,"Volant"|"F"|0.0|300.0|50,"xFR"|"mm"|0.0|5.0|50,"xRR"|"mm"|0.0|5.0|50,"xFL"|"mm"|0.0|5.0|50,"xRL"|"mm"|0.0|5.0|50,"AccelX"|"G"|-3.0|3.0|50,"AccelY"|"G"|-3.0|3.0|50,"AccelZ"|"G"|-3.0|3.0|50,"Yaw"|"Deg/Sec"|-120|120|50,"Pitch"|"Deg/Sec"|-120|120|50,"Roll"|"Deg/Sec"|-120|120|50,"Gsum"|"G"|0.0|3.0|50,"RPM"|""|0|14000|50,"TPS"|"%"|0|100|50,"WaterTemp"|"?C"|0|300|50,"AirTemp"|"?C"|-1000|1000|50,"MAP"|"KPa"|0|255|50,"Lambda"|""|0|1024|50,"WheelSpeed"|"MPH"|0.0|150.0|50,"OilPress"|"PSI"|0|150|50,"FuelPress"|"PSI"|0|150|50,"OilTemp"|"F"|0|300|50,"Battery"|"Volts"|0.0|20.0|50,"FuelCon"|"L/h"|-1000|1000|50,"Gear"|""|0|10|50,"Advance"|"Deg"|-360|360|50,"Injection"|"ms"|-1000|1000|50,"FuelCon"|"L/100km"|-1000|1000|50,"LC_But_Pres"|""|-1000|1000|50,"LC_Active"|""|-1000|1000|50,"RD_Speed"|""|-1000|1000|50,"RUD_Speed"|""|-1000|1000|50,"LD_Speed"|""|-1000|1000|50,"LUD_Speed"|""|-1000|1000|50,"Ana1"|"bar"|-1000.0|1000.0|50,"Latitude"|"Degrees"|-180.0|180.0|10,"Longitude"|"Degrees"|-180.0|180.0|10,"Speed"|"kph"|0.0|150.0|10,"Altitude"|"m"|0.0|4000.0|10,"LapCount"|""|0|0|10,"LapTime"|"Min"|0.0|0.0|10,"Sector"|""|0|0|10,"SectorTime"|"Min"|0.0|0.0|10,"ElapsedTime"|"Min"|0.0|0.0|10,"CurrentLap"|""|0|0|10,"Distance"|"km"|0.0|0.0|10,"SessionTime"|"Min"|0.0|0.0|10
264084,1564213406558,3,2.3,1.12,0.64,1.4,1.18,0.8,-0.01,0.55,0,-1,-1,0.8,4841,17,77,32,68,820,0.0,530,466,60,130.0,0,1,260,313,55,0,0,0,250,250,0,-5.59,,,,,,,,,,,,
264104,1564213406578,3,2.31,1.12,0.64,1.39,1.18,0.81,0.03,0.58,0,-1,-1,0.81,4801,17,77,32,67,823,0.0,532,457,60,130.0,0,1,256,313,55,0,0,0,250,250,0,-5.59,,,,,,,,,,,,
264124,1564213406598,2,2.31,1.11,0.64,1.4,1.17,0.88,0.01,0.59,-0,-2,-1,0.88,4810,17,77,32,67,826,0.0,516,458,60,130.0,0,1,257,306,55,0,0,0,250,250,0,-5.59,,,,,,,,,,,,
264144,1564213406618,6,2.3,1.11,0.64,1.39,1.18,0.9,0.0,0.52,-0,-2,-0,0.9,4815,17,77,32,68,830,0.0,529,466,60,130.0,0,1,258,236,57,0,0,0,250,250,0,-5.59,44.680759,10.020585,0.0,173.7,0,0.0,-1,0.0,0.0,0,0.01,4.4024
264164,1564213406638,5,2.3,1.12,0.65,1.39,1.18,0.88,0.01,0.52,-0,-2,-0,0.88,4876,17,77,32,68,833,0.0,529,466,60,131.0,0,1,263,314,57,0,0,0,250,250,0,-5.59,,,,,,,,,,,,
264184,1564213406658,2,2.3,1.11,0.65,1.39,1.19,0.82,0.02,0.57,-0,-2,-1,0.82,4861,17,77,32,68,834,0.0,529,466,60,129.0,0,1,262,314,57,0,0,0,250,250,0,-5.59,,,,,,,,,,,,
264204,1564213406678,3,2.3,1.12,0.64,1.4,1.18,0.86,0.02,0.56,-1,-3,-1,0.86,4899,17,77,32,67,835,0.0,535,460,60,131.0,0,1,264,230,57,0,0,0,250,250,0,-5.59,,,,,,,,,,,,
264224,1564213406698,6,2.3,1.12,0.65,1.4,1.18,0.89,-0.01,0.53,-1,-4,-0,0.89,4877,17,77,32,67,835,0.0,530,467,60,131.0,0,1,262,307,57,0,0,0,250,250,0,-5.59,,,,,,,,,,,,
264244,1564213406718,4,2.3,1.12,0.64,1.4,1.18,0.86,-0.01,0.53,-1,-2,0,0.86,4846,17,77,32,67,835,0.0,532,468,60,130.0,0,1,260,229,56,0,0,0,250,250,0,-5.59,44.680759,10.020585,0.0,173.7,0,0.0,-1,0.0,0.0,0,0.01,4.4041
264264,1564213406738,3,2.3,1.12,0.64,1.4,1.18,0.83,0.01,0.58,-1,-2,-0,0.83,4900,17,77,32,68,834,0.0,541,465,60,130.0,0,1,265,238,56,0,0,0,250,250,0,-5.59,,,,,,,,,,,,
264284,1564213406758,3,2.3,1.12,0.64,1.39,1.18,0.86,0.02,0.57,-1,-2,-0,0.87,4881,17,77,32,67,833,0.0,530,460,60,131.0,0,1,263,230,56,0,0,0,250,250,0,-5.59,,,,,,,,,,,,
264304,1564213406778,7,2.3,1.11,0.64,1.4,1.18,0.89,-0.01,0.53,-1,-2,-0,0.89,4918,17,77,32,67,833,0.0,533,465,60,131.0,0,1,266,231,56,0,0,0,250,250,0,-5.59,,,,,,,,,,,,
264324,1564213406798,2,2.3,1.11,0.64,1.39,1.18,0.85,0.01,0.57,0,-1,-1,0.85,4904,17,77,32,67,834,0.0,537,467,60,130.0,0,1,264,308,56,0,0,0,250,250,0,-5.59,,,,,,,,,,,,
264344,1564213406818,4,2.29,1.12,0.64,1.4,1.18,0.8,0.05,0.61,-0,-4,1,0.8,4930,17,77,32,67,833,0.0,533,458,60,130.0,0,1,267,308,57,0,0,0,250,250,0,-5.59,44.680759,10.020585,0.0,173.7,0,0.0,-1,0.0,0.0,0,0.01,4.4057
264364,1564213406838,4,2.3,1.11,0.64,1.39,1.18,0.86,0.04,0.59,-0,-5,-1,0.86,4931,17,77,32,67,834,0.0,546,462,60,131.0,0,1,267,308,57,0,0,0,250,250,0,-5.59,,,,,,,,,,,,
264384,1564213406858,8,2.29,1.11,0.64,1.4,1.18,0.84,0.04,0.53,-0,-3,0,0.84,4907,17,77,32,67,835,0.0,541,465,60,131.0,0,1,265,308,57,0,0,0,250,250,0,-5.59,,,,,,,,,,,,
264404,1564213406878,3,2.3,1.12,0.64,1.4,1.18,0.78,0.07,0.56,-0,-3,0,0.78,4932,17,77,32,67,835,0.0,544,466,60,129.0,0,1,267,231,57,0,0,0,250,250,0,-5.59,,,,,,,,,,,,
264424,1564213406898,3,2.3,1.11,0.64,1.4,1.17,0.83,0.08,0.55,-0,-3,-0,0.83,4943,17,77,32,67,834,0.0,541,458,60,131.0,0,1,268,308,57,0,0,0,250,250,0,-5.59,,,,,,,,,,,,
264444,1564213406918,5,2.31,1.11,0.64,1.39,1.18,0.85,0.04,0.52,-0,-3,0,0.85,4904,17,77,32,67,834,0.0,534,459,60,131.0,0,1,264,231,57,0,0,0,250,250,0,-5.59,44.680759,10.020585,0.0,173.7,0,0.0,-1,0.0,0.0,0,0.01,4.4074
264464,1564213406938,1,2.3,1.11,0.64,1.39,1.18,0.81,0.05,0.52,0,-2,1,0.81,4923,17,77,32,67,833,0.0,535,465,60,130.0,0,1,266,231,57,0,0,0,250,250,0,-5.59,,,,,,,,,,,,
264484,1564213406958,4,2.3,1.11,0.64,1.4,1.18,0.79,0.07,0.58,0,-2,0,0.8,4961,17,77,32,67,830,0.0,547,456,60,130.0,0,1,269,231,57,0,0,0,250,250,0,-5.59,,,,,,,,,,,,
264504,1564213406978,6,2.3,1.11,0.64,1.4,1.18,0.85,0.07,0.54,-0,-3,-0,0.85,4970,17,77,32,67,826,0.0,542,462,60,131.0,0,1,270,308,57,0,0,0,250,250,0,-5.59,,,,,,,,,,,,
264524,1564213406992,2,2.3,1.11,0.64,1.4,1.17,0.81,0.04,0.49,0,-2,1,0.81,4977,17,77,32,67,824,0.0,539,461,60,131.0,0,1,271,308,57,0,0,0,250,250,0,-5.59,,,,,,,,,,,,
264544,1564213407012,3,2.3,1.12,0.64,1.4,1.17,0.79,0.09,0.53,0,-1,0,0.79,4960,17,77,32,67,820,0.0,546,462,60,129.0,0,1,269,308,58,0,0,0,250,250,0,-5.59,44.680759,10.020585,0.0,173.7,0,0.0,-1,0.0,0.0,0,0.01,4.4091
264564,1564213407032,5,2.29,1.11,0.64,1.39,1.17,0.85,0.06,0.56,-0,-2,0,0.85,4957,17,77,32,67,815,0.0,539,457,60,131.0,0,1,269,231,58,0,0,0,250,250,0,-5.59,,,,,,,,,,,,
264584,1564213407052,6,2.3,1.12,0.64,1.39,1.18,0.82,0.05,0.53,0,-1,0,0.83,5020,17,77,32,67,812,0.0,545,464,60,131.0,0,1,274,309,58,0,0,0,250,250,0,-5.59,,,,,,,,,,,,
264604,1564213407072,4,2.29,1.12,0.64,1.4,1.18,0.79,0.05,0.6,-0,-1,-0,0.79,4982,17,77,32,67,810,0.0,551,465,60,130.0,0,1,271,231,58,0,0,0,250,250,0,-5.59,,,,,,,,,,,,
264624,1564213407097,3,2.31,1.11,0.64,1.4,1.18,0.85,0.06,0.59,-0,-2,-0,0.85,5021,17,77,32,67,808,0.0,544,460,60,130.0,0,1,274,232,58,0,0,0,250,250,0,-5.59,,,,,,,,,,,,
264644,1564213407117,6,2.3,1.12,0.64,1.39,1.17,0.82,0.03,0.55,-0,-1,-0,0.82,5051,17,77,32,67,807,0.0,550,461,60,130.0,0,1,277,232,58,0,0,0,250,250,0,-5.59,44.680759,10.020585,0.0,173.7,0,0.0,-1,0.0,0.0,0,0.01,4.4107
264664,1564213407137,3,2.3,1.12,0.64,1.4,1.18,0.77,0.07,0.57,0,-0,-0,0.78,5051,17,77,32,67,806,0.0,559,466,60,129.0,0,1,277,232,58,0,0,0,250,250,0,-5.59,,,,,,,,,,,,
264684,1564213407157,6,2.3,1.12,0.64,1.39,1.17,0.84,0.03,0.6,-0,-1,0,0.84,5068,17,77,32,66,806,0.0,555,460,60,130.0,0,1,279,225,58,0,0,0,250,250,0,-5.59,,,,,,,,,,,,
264704,1564213407177,3,2.3,1.12,0.64,1.39,1.18,0.8,0.02,0.59,0,-0,0,0.8,5075,17,77,32,66,806,0.0,563,467,60,130.0,0,1,280,225,58,0,0,0,250,250,0,-5.59,,,,,,,,,,,,
264724,1564213407199,3,2.3,1.11,0.64,1.39,1.18,0.79,0.04,0.67,-0,-0,-1,0.79,5090,17,77,32,66,806,0.0,567,459,60,130.0,0,1,281,225,58,0,0,0,250,250,0,-5.59,,,,,,,,,,,,
264744,1564213407219,6,2.31,1.12,0.64,1.4,1.17,0.84,0.01,0.58,0,-2,-0,0.84,5068,17,77,32,66,806,0.0,558,467,60,130.0,0,1,279,302,58,0,0,0,250,250,0,-5.59,44.680759,10.020585,0.0,173.7,0,0.0,-1,0.0,0.0,0,0.01,4.4124
264764,1564213407239,3,2.3,1.12,0.64,1.39,1.17,0.76,0.04,0.58,0,-1,-1,0.76,5079,17,77,32,66,806,0.0,560,462,60,129.0,0,1,280,225,58,0,0,0,250,250,0,-5.59,,,,,,,,,,,,
264784,1564213407259,7,2.3,1.12,0.64,1.4,1.18,0.85,0.04,0.54,-0,-2,-0,0.85,5114,17,77,32,66,805,0.0,564,461,60,130.0,0,1,284,301,58,0,0,0,250,250,0,-5.59,,,,,,,,,,,,
264804,1564213407279,3,2.31,1.11,0.64,1.39,1.18,0.81,0.02,0.54,0,-1,0,0.81,5093,17,77,32,66,802,0.0,565,467,60,129.0,0,1,282,225,58,0,0,0,250,250,0,-5.59,,,,,,,,,,,,
264824,1564213407299,4,2.29,1.11,0.64,1.4,1.17,0.79,0.05,0.58,-0,-1,0,0.79,5132,17,77,32,65,799,0.0,568,461,60,130.0,0,1,286,217,58,0,0,0,250,250,0,-5.59,,,,,,,,,,,,
264844,1564213407319,8,2.3,1.11,0.64,1.4,1.18,0.83,0.03,0.55,0,-1,0,0.83,5139,17,77,32,65,797,0.0,574,461,60,131.0,0,1,286,217,58,0,0,0,250,250,0,-5.59,44.680759,10.020585,0.0,173.7,0,0.0,-1,0.0,0.0,0,0.01,4.4141
264864,1564213407339,2,2.31,1.11,0.64,1.4,1.17,0.8,0.05,0.61,0,-1,-0,0.8,5208,17,77,32,65,795,0.0,577,465,60,129.0,0,1,293,215,58,0,0,0,250,250,0,-5.59,,,,,,,,,,,,
264884,1564213407359,6,2.3,1.12,0.64,1.39,1.17,0.86,0.02,0.56,-0,-2,-0,0.86,5203,17,77,32,65,794,0.0,568,460,60,131.0,0,1,293,215,58,0,0,0,250,250,0,-5.59,,,,,,,,,,,,
264904,1564213407379,2,2.3,1.11,0.64,1.39,1.18,0.8,0.03,0.56,0,-2,-0,0.81,5243,17,77,32,65,794,0.0,580,462,60,130.0,0,1,296,292,58,0,0,0,250,250,0,-5.59,,,,,,,,,,,,
264924,1564213407399,5,2.3,1.11,0.64,1.4,1.17,0.85,0.02,0.5,-0,-2,-0,0.85,5211,17,77,32,65,796,0.0,573,463,60,131.0,0,1,293,285,58,0,0,0,250,250,0,-5.59,,,,,,,,,,,,
264944,1564213407419,4,2.31,1.11,0.64,1.39,1.18,0.82,0.04,0.49,0,-2,1,0.82,5250,17,77,32,64,798,0.0,575,464,60,130.0,0,1,298,292,56,0,0,0,250,250,0,-5.59,44.680759,10.020585,0.0,173.7,0,0.0,-1,0.0,0.0,0,0.01,4.4157
264964,1564213407439,7,2.3,1.12,0.64,1.4,1.17,0.86,0.02,0.53,-0,-2,0,0.86,5237,17,77,32,64,799,0.0,579,463,60,131.0,0,1,296,208,56,0,0,0,250,250,0,-5.59,,,,,,,,,,,,
264984,1564213407459,4,2.3,1.11,0.64,1.39,1.18,0.84,0.04,0.54,0,-1,1,0.84,5260,17,77,32,64,801,0.0,586,463,60,129.0,0,1,298,207,56,0,0,0,250,250,0,-5.59,,,,,,,,,,,,
265004,1564213407479,7,2.3,1.12,0.64,1.4,1.18,0.89,0.04,0.59,-0,-1,-0,0.89,5292,17,77,32,64,800,0.0,576,461,60,131.0,0,1,301,284,56,0,0,0,250,250,0,-5.59,,,,,,,,,,,,
265024,1564213407499,3,2.3,1.11,0.64,1.39,1.18,0.88,0.02,0.6,-0,-2,0,0.88,5202,17,77,32,64,800,0.0,575,463,60,129.0,0,1,293,208,56,0,0,0,250,250,0,-5.59,,,,,,,,,,,,
265044,1564213407519,7,2.3,1.11,0.64,1.4,1.18,0.9,0.04,0.61,-0,-2,-0,0.9,5161,17,77,32,64,794,0.0,570,462,60,131.0,0,1,289,209,56,0,0,0,250,250,0,-5.59,44.680759,10.020585,0.0,173.7,0,0.0,-1,0.0,0.0,0,0.01,4.4174
265064,1564213407539,4,2.3,1.11,0.64,1.39,1.18,0.86,0.02,0.55,0,-2,0,0.86,5205,17,77,32,64,789,0.0,566,466,60,130.0,0,1,293,285,56,0,0,0,250,250,0,-5.59,,,,,,,,,,,,
265084,1564213407559,5,2.31,1.11,0.64,1.4,1.17,0.9,0.04,0.58,-0,-2,0,0.9,5208,17,77,32,64,783,0.0,570,462,60,131.0,0,1,293,208,56,0,0,0,250,250,0,-5.59,,,,,,,,,,,,
265104,1564213407579,2,2.3,1.11,0.64,1.39,1.18,0.88,0.01,0.56,0,-2,0,0.88,5155,17,77,32,64,779,0.0,573,466,60,130.0,0,1,288,209,56,0,0,0,250,250,0,-5.59,,,,,,,,,,,,
265124,1564213407599,4,2.3,1.11,0.64,1.39,1.18,0.87,0.01,0.61,-0,-2,1,0.87,5173,17,77,32,64,777,0.0,565,461,60,131.0,0,1,290,209,56,0,0,0,250,250,0,-5.59,,,,,,,,,,,,
265144,1564213407619,4,2.3,1.12,0.64,1.39,1.18,0.88,0.0,0.59,-0,-1,0,0.88,5156,17,77,32,64,776,0.0,571,465,60,130.0,0,1,289,209,56,0,0,0,250,250,0,-5.59,44.680759,10.020585,0.0,173.7,0,0.0,-1,0.0,0.0,0,0.01,4.4191
265164,1564213407639,4,2.29,1.11,0.64,1.4,1.17,0.86,0.03,0.61,-0,-1,-0,0.86,5219,17,77,32,64,778,0.0,577,461,60,129.0,0,1,294,208,56,0,0,0,250,250,0,-5.59,,,,,,,,,,,,
265184,1564213407659,5,2.29,1.11,0.64,1.39,1.17,0.87,0.03,0.55,0,-2,-0,0.87,5208,17,77,32,64,782,0.0,572,466,60,130.0,0,1,293,208,56,0,0,0,250,250,0,-5.59,,,,,,,,,,,,
265204,1564213407679,4,2.3,1.12,0.64,1.39,1.18,0.82,0.05,0.56,0,-1,-0,0.82,5221,17,77,32,64,787,0.0,575,462,60,130.0,0,1,295,208,56,0,0,0,250,250,0,-5.59,,,,,,,,,,,,
265224,1564213407699,6,2.31,1.11,0.64,1.4,1.18,0.84,0.01,0.5,-0,-1,-0,0.84,5195,17,77,32,64,792,0.0,581,463,60,130.0,0,1,292,209,56,0,0,0,250,250,0,-5.59,,,,,,,,,,,,
265244,1564213407719,3,2.3,1.12,0.65,1.39,1.18,0.8,0.06,0.5,0,-0,0,0.81,5246,17,77,32,64,795,0.0,581,461,60,130.0,0,1,297,208,56,0,0,0,250,250,0,-5.59,44.680759,10.020585,0.0,173.7,0,0.0,-1,0.0,0.0,0,0.01,4.4207
265264,1564213407739,8,2.31,1.11,0.65,1.39,1.18,0.83,0.04,0.51,0,-1,0,0.83,5209,17,77,32,64,796,0.0,572,463,60,130.0,0,1,293,208,56,0,0,0,250,250,0,-5.59,,,,,,,,,,,,
265284,1564213407759,3,2.3,1.12,0.64,1.4,1.18,0.81,0.08,0.54,0,-0,1,0.81,5281,17,77,32,64,796,0.0,586,463,60,128.0,0,1,300,284,56,0,0,0,250,250,0,-5.59,,,,,,,,,,,,
265304,1564213407779,8,2.29,1.11,0.64,1.39,1.17,0.85,0.06,0.54,0,0,-0,0.85,5286,17,77,32,64,794,0.0,582,462,60,131.0,0,1,301,284,56,0,0,0,250,250,0,-5.59,,,,,,,,,,,,
265324,1564213407799,4,2.31,1.11,0.64,1.4,1.18,0.83,0.08,0.56,0,-0,0,0.83,5322,17,77,32,64,793,0.0,581,462,60,130.0,0,1,305,206,56,0,0,0,250,250,0,-5.59,,,,,,,,,,,,
265344,1564213407819,2,2.31,1.11,0.64,1.39,1.18,0.84,0.05,0.54,0,-2,-0,0.84,5295,17,77,32,64,789,0.0,582,466,60,130.0,0,1,302,207,57,0,0,0,250,250,0,-5.59,44.680759,10.020585,0.0,173.7,0,0.0,-1,0.0,0.0,0,0.01,4.4224
265364,1564213407839,4,2.3,1.12,0.64,1.4,1.18,0.81,0.07,0.52,0,-1,-0,0.81,5316,17,77,32,63,786,0.0,584,462,60,130.0,0,1,305,277,57,0,0,0,250,250,0,-5.59,,,,,,,,,,,,
265384,1564213407859,4,2.3,1.11,0.64,1.4,1.18,0.79,0.03,0.49,0,-1,-0,0.79,5320,17,77,32,63,782,0.0,585,464,60,131.0,0,1,305,278,57,0,0,0,250,250,0,-5.59,,,,,,,,,,,,
265404,1564213407879,6,2.3,1.12,0.64,1.4,1.18,0.8,0.06,0.54,0,-1,0,0.81,5271,17,77,32,63,779,0.0,578,461,60,130.0,0,1,300,278,57,0,0,0,250,250,0,-5.59,,,,,,,,,,,,
265424,1564213407899,4,2.3,1.12,0.64,1.39,1.18,0.77,0.02,0.53,0,-0,-0,0.77,5252,17,77,32,63,778,0.0,580,464,60,130.0,0,1,298,200,57,0,0,0,250,250,0,-5.59,,,,,,,,,,,,
265444,1564213407919,5,2.3,1.12,0.64,1.39,1.18,0.78,0.04,0.59,-0,-0,0,0.78,5249,17,77,32,63,777,0.0,573,462,60,131.0,0,1,298,200,55,0,0,0,250,250,0,-5.59,44.680759,10.020585,0.0,173.7,0,0.0,-1,0.0,0.0,0,0.01,4.4241
265464,1564213407939,2,2.31,1.11,0.64,1.4,1.17,0.77,0.02,0.56,0,0,-0,0.77,5260,17,77,32,63,776,0.0,578,466,60,130.0,0,1,299,200,55,0,0,0,250,250,0,-5.59,,,,,,,,,,,,
265484,1564213407959,6,2.29,1.11,0.64,1.4,1.18,0.79,0.03,0.6,0,-0,-1,0.79,5289,17,77,32,63,775,0.0,578,462,60,130.0,0,1,302,200,55,0,0,0,250,250,0,-5.59,,,,,,,,,,,,
265504,1564213407979,4,2.3,1.11,0.64,1.4,1.18,0.76,0.02,0.56,0,-1,-1,0.76,5281,17,77,32,63,774,0.0,579,464,60,128.0,0,1,301,200,55,0,0,0,250,250,0,-5.59,,,,,,,,,,,,
265524,1564213407991,6,2.29,1.11,0.64,1.4,1.18,0.77,0.05,0.56,0,-1,-1,0.77,5234,17,77,32,63,774,0.0,571,462,60,130.0,0,1,296,200,55,0,0,0,250,250,0,-5.59,,,,,,,,,,,,
265544,1564213408011,2,2.31,1.11,0.64,1.4,1.18,0.74,0.03,0.54,0,-1,-1,0.74,5212,17,77,32,63,776,0.0,588,466,60,129.0,0,1,294,200,55,0,0,0,250,250,0,-5.59,44.680759,10.020585,0.0,173.7,0,0.0,-1,0.0,0.0,0,0.01,4.4257
265564,1564213408031,6,2.3,1.11,0.64,1.39,1.18,0.76,0.04,0.54,0,-1,-0,0.76,5211,17,77,32,63,777,0.0,576,460,60,131.0,0,1,294,200,55,0,0,0,250,250,0,-5.59,,,,,,,,,,,,
265584,1564213408051,3,2.3,1.11,0.64,1.39,1.18,0.74,0.03,0.56,0,-1,-0,0.74,5202,17,77,32,63,779,0.0,573,466,60,130.0,0,1,296,200,55,0,0,0,250,250,0,-5.59,,,,,,,,,,,,
265604,1564213408071,3,2.31,1.11,0.64,1.4,1.18,0.73,0.04,0.56,-0,-1,0,0.73,5233,17,77,32,63,780,0.0,579,461,60,130.0,0,1,296,278,55,0,0,0,250,250,0,-5.59,,,,,,,,,,,,
265624,1564213408092,3,2.3,1.11,0.64,1.39,1.18,0.74,0.03,0.56,0,-0,-1,0.74,5241,17,77,32,63,781,0.0,582,464,60,130.0,0,1,297,200,55,0,0,0,250,250,0,-5.59,,,,,,,,,,,,
265644,1564213408112,4,2.3,1.11,0.64,1.39,1.18,0.74,0.05,0.55,0,-0,-0,0.74,5212,16,77,32,63,782,0.0,575,460,60,129.0,0,1,294,278,54,0,0,0,250,250,0,-5.59,44.680759,10.020585,0.0,173.7,0,0.0,-1,0.0,0.0,0,0.01,4.4274
265664,1564213408132,3,2.31,1.12,0.64,1.39,1.18,0.77,0.05,0.52,0,-1,-0,0.77,5189,16,77,32,64,781,0.0,575,463,60,131.0,0,1,291,286,54,0,0,0,250,250,0,-5.59,,,,,,,,,,,,
265684,1564213408152,4,2.29,1.12,0.64,1.4,1.18,0.73,0.04,0.52,0,-1,-1,0.73,5170,16,77,32,64,782,0.0,583,464,60,129.0,0,1,290,286,54,0,0,0,250,250,0,-5.59,,,,,,,,,,,,
265704,1564213408172,8,2.3,1.12,0.64,1.4,1.18,0.79,0.02,0.48,0,-1,-1,0.79,5182,16,77,32,64,783,0.0,570,460,60,131.0,0,1,291,209,54,0,0,0,250,250,0,-5.59,,,,,,,,,,,,
265724,1564213408198,2,2.3,1.11,0.64,1.39,1.18,0.75,0.06,0.45,0,0,0,0.76,5237,16,77,32,63,786,0.0,572,462,60,129.0,0,1,296,285,54,0,0,0,250,250,0,-5.59,,,,,,,,,,,,
265744,1564213408218,7,2.3,1.11,0.64,1.39,1.18,0.8,0.03,0.49,0,-1,-0,0.8,5230,16,77,32,63,788,0.0,576,462,60,131.0,0,1,296,200,56,0,0,0,250,250,0,-5.59,44.680759,10.020585,0.0,173.7,0,0.0,-1,0.0,0.0,0,0.01,4.4291
265764,1564213408238,3,2.3,1.12,0.64,1.4,1.18,0.78,0.04,0.52,0,-0,0,0.78,5203,16,77,32,64,791,0.0,570,465,60,129.0,0,1,293,208,56,0,0,0,250,250,0,-5.59,,,,,,,,,,,,
265784,1564213408258,8,2.3,1.12,0.64,1.4,1.18,0.84,0.02,0.56,0,0,-0,0.84,5262,16,77,32,64,791,0.0,577,465,60,130.0,0,1,299,207,56,0,0,0,250,250,0,-5.59,,,,,,,,,,,,
265804,1564213408278,4,2.29,1.11,0.64,1.4,1.18,0.82,0.02,0.59,0,-1,0,0.82,5290,16,77,32,63,793,0.0,579,460,60,129.0,0,1,302,278,56,0,0,0,250,250,0,-5.59,,,,,,,,,,,,
265824,1564213408298,6,2.31,1.11,0.64,1.4,1.18,0.86,0.01,0.6,-0,-2,-1,0.86,5249,16,77,32,64,791,0.0,578,465,60,130.0,0,1,297,278,56,0,0,0,250,250,0,-5.59,,,,,,,,,,,,
265844,1564213408318,3,2.3,1.12,0.64,1.39,1.18,0.81,0.01,0.58,0,-1,-0,0.81,5310,16,77,32,63,789,0.0,573,462,60,130.0,0,1,304,199,55,0,0,0,250,250,0,-5.59,44.680759,10.020585,0.0,173.7,0,0.0,-1,0.0,0.0,0,0.01,4.4307
265864,1564213408338,4,2.3,1.11,0.64,1.39,1.18,0.85,-0.01,0.53,-0,-1,-1,0.85,5295,16,77,32,63,788,0.0,585,466,60,130.0,0,1,303,200,55,0,0,0,250,250,0,-5.59,,,,,,,,,,,,
265884,1564213408358,3,2.3,1.11,0.64,1.39,1.17,0.83,0.04,0.52,0,-1,0,0.83,5322,16,77,32,62,787,0.0,577,460,60,130.0,0,1,307,191,55,0,0,0,250,250,0,-5.59,,,,,,,,,,,,
265904,1564213408378,4,2.3,1.12,0.64,1.39,1.18,0.81,0.02,0.53,0,-1,-0,0.81,5335,16,77,32,63,788,0.0,579,463,60,130.0,0,1,307,277,55,0,0,0,250,250,0,-5.59,,,,,,,,,,,,
265924,1564213408398,6,2.29,1.11,0.64,1.4,1.18,0.82,0.04,0.54,-0,-1,0,0.82,5335,16,77,32,62,789,0.0,585,462,60,130.0,0,1,308,191,55,0,0,0,250,250,0,-5.59,,,,,,,,,,,,
265944,1564213408418,4,2.3,1.12,0.64,1.4,1.18,0.8,0.01,0.54,0,0,-0,0.8,5364,16,77,32,62,789,0.0,594,466,60,129.0,0,1,310,190,54,0,0,0,250,250,0,-5.59,44.680759,10.020585,0.0,173.7,0,0.0,-1,0.0,0.0,0,0.01,4.4324
265964,1564213408438,5,2.31,1.11,0.64,1.4,1.18,0.84,-0.0,0.51,-0,-0,-0,0.84,5409,16,77,32,62,789,0.0,588,457,60,130.0,0,1,315,267,54,0,0,0,250,250,0,-5.59,,,,,,,,,,,,
265984,1564213408458,4,2.3,1.11,0.64,1.39,1.18,0.79,0.02,0.58,0,-1,-1,0.79,5408,16,77,32,62,788,0.0,595,463,60,128.0,0,1,315,267,54,0,0,0,250,250,0,-5.59,,,,,,,,,,,,
266004,1564213408478,3,2.3,1.12,0.64,1.39,1.17,0.83,-0.0,0.52,0,-1,-1,0.83,5372,16,77,32,62,788,0.0,593,461,60,130.0,0,1,311,190,54,0,0,0,250,250,0,-5.59,,,,,,,,,,,,
266024,1564213408498,6,2.3,1.12,0.64,1.39,1.18,0.81,0.05,0.54,0,-0,-1,0.81,5383,16,77,32,61,785,0.0,591,460,60,131.0,0,1,313,261,54,0,0,0,250,250,0,-5.59,,,,,,,,,,,,
266044,1564213408518,3,2.3,1.11,0.64,1.4,1.18,0.79,0.01,0.5,0,0,-1,0.79,5346,16,77,32,62,784,0.0,587,463,60,130.0,0,1,305,269,53,0,0,0,250,250,0,-5.59,44.680759,10.020585,0.0,173.7,0,0.0,-1,0.0,0.0,0,0.01,4.4341
266064,1564213408538,6,2.3,1.12,0.64,1.4,1.18,0.82,0.05,0.52,-0,-1,-1,0.82,5257,16,77,32,61,782,0.0,585,462,60,130.0,0,1,300,185,53,0,0,0,250,250,0,-5.59,,,,,,,,,,,,
266084,1564213408558,3,2.3,1.11,0.64,1.4,1.18,0.79,0.0,0.49,0,-1,-0,0.79,5221,16,77,32,62,781,0.0,575,463,60,130.0,0,1,296,193,53,0,0,0,250,250,0,-5.59,,,,,,,,,,,,
266104,1564213408578,4,2.3,1.11,0.64,1.4,1.18,0.76,0.04,0.53,-0,-0,-0,0.76,5153,16,77,32,61,779,0.0,568,458,60,131.0,0,1,288,187,53,0,0,0,250,250,0,-5.59,,,,,,,,,,,,
266124,1564213408598,4,2.31,1.11,0.64,1.39,1.18,0.79,0.03,0.45,0,0,-0,0.79,5168,16,77,32,62,776,0.0,573,467,60,130.0,0,1,290,272,53,0,0,0,250,250,0,-5.59,,,,,,,,,,,,
266144,1564213408618,4,2.3,1.12,0.64,1.39,1.18,0.77,0.05,0.49,0,0,-0,0.77,5138,16,77,32,62,775,0.0,570,462,60,129.0,0,1,287,195,53,0,0,0,250,250,0,-5.59,44.680759,10.020585,0.0,173.7,0,0.0,-1,0.0,0.0,0,0.01,4.4357
266164,1564213408638,8,2.3,1.12,0.64,1.4,1.17,0.84,0.02,0.47,0,-2,-0,0.84,5166,16,77,32,63,773,0.0,560,465,60,131.0,0,1,290,201,53,0,0,0,250,250,0,-5.59,,,,,,,,,,,,
266184,1564213408658,2,2.31,1.11,0.64,1.39,1.19,0.77,0.03,0.46,0,-1,0,0.77,5189,16,77,32,62,776,0.0,566,461,60,129.0,0,1,292,194,53,0,0,0,250,250,0,-5.59,,,,,,,,,,,,
266204,1564213408678,5,2.31,1.11,0.64,1.4,1.18,0.85,0.04,0.49,-0,-2,-0,0.85,5158,16,77,32,63,779,0.0,566,458,60,131.0,0,1,289,278,53,0,0,0,250,250,0,-5.59,,,,,,,,,,,,
266224,1564213408698,3,2.31,1.12,0.64,1.4,1.17,0.82,0.01,0.44,0,-1,0,0.82,5148,16,77,32,63,784,0.0,561,468,60,130.0,0,1,288,279,53,0,0,0,250,250,0,-5.59,,,,,,,,,,,,
266244,1564213408718,6,2.3,1.12,0.64,1.39,1.18,0.82,0.03,0.55,-0,-2,0,0.82,5173,16,77,32,63,788,0.0,565,460,60,130.0,0,1,290,201,54,0,0,0,250,250,0,-5.59,44.680759,10.020585,0.0,173.7,0,0.0,-1,0.0,0.0,0,0.01,4.4374
266264,1564213408738,4,2.3,1.12,0.64,1.4,1.18,0.82,0.01,0.5,0,-1,0,0.82,5168,16,77,32,63,795,0.0,578,467,60,130.0,0,1,290,278,54,0,0,0,250,250,0,-5.59,,,,,,,,,,,,
266284,1564213408758,4,2.3,1.12,0.64,1.4,1.18,0.8,0.04,0.56,-0,-1,-0,0.8,5199,16,77,32,63,801,0.0,567,460,60,129.0,0,1,293,278,54,0,0,0,250,250,0,-5.59,,,,,,,,,,,,
266304,1564213408778,2,2.3,1.11,0.64,1.39,1.18,0.83,0.02,0.51,0,-2,-0,0.83,5173,16,77,32,63,808,0.0,566,464,60,131.0,0,1,290,201,54,0,0,0,250,250,0,-5.59,,,,,,,,,,,,
266324,1564213408798,4,2.3,1.11,0.64,1.39,1.18,0.76,0.03,0.5,0,-1,0,0.77,5221,16,77,32,63,811,0.0,575,464,60,129.0,0,1,295,200,54,0,0,0,250,250,0,-5.59,,,,,,,,,,,,
266344,1564213408818,4,2.3,1.11,0.64,1.39,1.18,0.81,0.01,0.47,0,-1,-1,0.81,5222,16,77,32,63,812,0.0,570,461,60,130.0,0,1,295,278,55,0,0,0,250,250,0,-5.59,44.680759,10.020585,0.0,173.7,0,0.0,-1,0.0,0.0,0,0.01,4.4391
266364,1564213408838,2,2.3,1.11,0.64,1.4,1.17,0.82,0.03,0.45,0,-0,0,0.82,5219,16,77,32,63,811,0.0,576,464,60,129.0,0,1,295,200,55,0,0,0,250,250,0,-5.59,,,,,,,,,,,,
266384,1564213408858,4,2.3,1.12,0.64,1.39,1.18,0.78,0.01,0.47,0,-1,0,0.78,5233,16,77,32,63,809,0.0,578,461,60,130.0,0,1,296,200,55,0,0,0,250,250,0,-5.59,,,,,,,,,,,,
266404,1564213408878,4,2.29,1.12,0.64,1.4,1.18,0.79,0.01,0.46,-0,-0,0,0.79,5265,16,77,32,63,805,0.0,586,464,60,129.0,0,1,299,200,55,0,0,0,250,250,0,-5.59,,,,,,,,,,,,
266424,1564213408898,2,2.31,1.11,0.65,1.4,1.18,0.77,0.0,0.47,0,0,0,0.77,5307,16,77,32,63,800,0.0,582,467,60,129.0,0,1,304,277,55,0,0,0,250,250,0,-5.59,,,,,,,,,,,,
266444,1564213408918,5,2.3,1.12,0.64,1.4,1.18,0.81,-0.0,0.46,-0,-0,0,0.81,5349,16,77,32,62,795,0.0,588,462,60,130.0,0,1,309,191,55,0,0,0,250,250,0,-5.59,44.680759,10.020585,0.0,173.7,0,0.0,-1,0.0,0.0,0,0.01,4.4407
266464,1564213408938,3,2.3,1.12,0.64,1.4,1.18,0.75,-0.01,0.55,0,-1,-0,0.75,5351,16,77,32,62,791,0.0,585,463,60,130.0,0,1,309,190,55,0,0,0,250,250,0,-5.59,,,,,,,,,,,,
266484,1564213408958,7,2.3,1.12,0.64,1.4,1.18,0.83,-0.03,0.5,-0,-1,-1,0.84,5363,16,77,32,62,790,0.0,585,462,60,131.0,0,1,310,190,55,0,0,0,250,250,0,-5.59,,,,,,,,,,,,
266504,1564213408978,2,2.3,1.11,0.64,1.39,1.18,0.78,0.03,0.54,0,0,-1,0.78,5455,16,77,32,61,790,0.0,592,464,60,129.0,0,1,321,181,55,0,0,0,250,250,0,-5.59,,,,,,,,,,,,
266524,1564213408998,2,2.31,1.11,0.64,1.39,1.19,0.76,-0.02,0.53,0,-1,-1,0.76,5463,16,77,32,61,791,0.0,599,462,60,129.0,0,1,322,259,55,0,0,0,250,250,0,-5.59,,,,,,,,,,,,
266544,1564213409010,6,2.29,1.11,0.64,1.4,1.18,0.85,0.01,0.54,-0,-1,-0,0.85,5441,16,77,32,61,790,0.0,591,462,60,130.0,0,1,320,182,53,0,0,0,250,250,0,-5.59,44.680759,10.020585,0.0,173.7,0,0.0,-1,0.0,0.0,0,0.01,4.4424
266564,1564213409030,4,2.29,1.1,0.64,1.4,1.18,0.78,0.0,0.53,0,-1,-1,0.78,5400,16,77,32,61,792,0.0,585,466,60,129.0,0,1,315,182,53,0,0,0,250,250,0,-5.59,,,,,,,,,,,,
266584,1564213409050,7,2.3,1.12,0.64,1.4,1.18,0.82,-0.01,0.51,-0,-1,-0,0.82,5387,16,77,32,61,792,0.0,593,465,60,130.0,0,1,314,183,53,0,0,0,250,250,0,-5.59,,,,,,,,,,,,
266604,1564213409070,3,2.3,1.11,0.64,1.39,1.18,0.81,0.05,0.53,0,-1,0,0.82,5299,16,77,32,61,794,0.0,588,463,60,129.0,0,1,304,263,53,0,0,0,250,250,0,-5.59,,,,,,,,,,,,
266624,1564213409097,8,2.31,1.11,0.64,1.39,1.19,0.83,0.04,0.48,-0,-1,-0,0.83,5268,16,77,32,61,794,0.0,577,461,60,130.0,0,1,301,183,53,0,0,0,250,250,0,-5.59,,,,,,,,,,,,
266644,1564213409117,4,2.3,1.11,0.64,1.4,1.18,0.81,0.08,0.51,0,-1,0,0.81,5284,16,77,32,61,794,0.0,578,463,60,129.0,0,1,302,183,51,0,0,0,250,250,0,-5.59,44.680759,10.020585,0.0,173.7,0,0.0,-1,0.0,0.0,0,0.01,4.4441
266664,1564213409137,7,2.3,1.12,0.64,1.39,1.18,0.84,0.04,0.48,-0,-2,-1,0.84,5224,15,77,32,61,796,0.0,575,465,60,130.0,0,1,296,186,51,0,0,0,250,250,0,-5.59,,,,,,,,,,,,
266684,1564213409157,4,2.3,1.11,0.64,1.4,1.18,0.78,0.06,0.49,0,-1,-0,0.78,5231,15,77,32,61,795,0.0,574,464,60,130.0,0,1,297,264,51,0,0,0,250,250,0,-5.59,,,,,,,,,,,,
266704,1564213409177,7,2.3,1.12,0.65,1.39,1.18,0.82,0.02,0.46,-0,-2,-0,0.82,5185,15,77,32,61,794,0.0,576,460,60,130.0,0,1,292,187,51,0,0,0,250,250,0,-5.59,,,,,,,,,,,,
266724,1564213409197,2,2.31,1.11,0.65,1.39,1.19,0.78,0.07,0.43,0,-1,0,0.78,5244,15,77,32,62,794,0.0,585,465,60,130.0,0,1,298,271,51,0,0,0,250,250,0,-5.59,,,,,,,,,,,,
266744,1564213409217,6,2.3,1.12,0.64,1.39,1.18,0.82,0.04,0.48,-0,-1,1,0.82,5180,15,77,32,61,792,0.0,568,457,60,131.0,0,1,291,265,53,0,0,0,250,250,0,-5.59,44.680759,10.020585,0.0,173.7,0,0.0,-1,0.0,0.0,0,0.01,4.4457
266764,1564213409237,2,2.3,1.11,0.64,1.4,1.17,0.78,0.08,0.53,-0,-0,0,0.78,5202,15,77,32,62,798,0.0,576,466,60,130.0,0,1,294,193,53,0,0,0,250,250,0,-5.59,,,,,,,,,,,,
266784,1564213409257,7,2.3,1.12,0.64,1.4,1.18,0.85,0.03,0.54,-0,-0,0,0.86,5212,15,77,32,62,801,0.0,575,459,60,131.0,0,1,295,193,53,0,0,0,250,250,0,-5.59,,,,,,,,,,,,
266804,1564213409277,4,2.3,1.11,0.64,1.4,1.18,0.8,0.05,0.59,-0,-1,-0,0.81,5227,15,77,32,62,807,0.0,574,466,60,130.0,0,1,296,191,53,0,0,0,250,250,0,-5.59,,,,,,,,,,,,
266824,1564213409297,6,2.31,1.11,0.64,1.39,1.18,0.88,0.03,0.59,-0,-2,-1,0.88,5185,15,77,32,62,812,0.0,571,461,60,132.0,0,1,292,194,53,0,0,0,250,250,0,-5.59,,,,,,,,,,,,
266844,1564213409317,4,2.31,1.12,0.65,1.4,1.18,0.79,0.04,0.58,0,-1,-1,0.8,5201,15,77,32,62,814,0.0,580,466,60,131.0,0,1,293,193,53,0,0,0,250,250,0,-5.59,44.680759,10.020585,0.0,173.7,0,0.0,-1,0.0,0.0,0,0.01,4.4474
266864,1564213409337,4,2.3,1.11,0.64,1.39,1.19,0.87,0.05,0.58,-0,-1,-0,0.87,5205,15,77,32,62,815,0.0,575,461,60,130.0,0,1,294,271,53,0,0,0,250,250,0,-5.59,,,,,,,,,,,,
266884,1564213409357,4,2.31,1.11,0.64,1.39,1.18,0.83,0.02,0.55,0,-2,-1,0.83,5218,15,77,32,62,813,0.0,566,463,60,131.0,0,1,295,193,53,0,0,0,250,250,0,-5.59,,,,,,,,,,,,
266904,1564213409377,3,2.31,1.11,0.64,1.4,1.18,0.86,0.02,0.62,-0,-1,-0,0.86,5244,15,77,32,62,809,0.0,572,461,60,131.0,0,1,298,193,53,0,0,0,250,250,0,-5.59,,,,,,,,,,,,
266924,1564213409397,4,2.31,1.11,0.64,1.4,1.18,0.83,-0.01,0.59,0,-1,-0,0.83,5265,15,77,32,62,804,0.0,582,465,60,130.0,0,1,300,192,53,0,0,0,250,250,0,-5.59,,,,,,,,,,,,
266944,1564213409417,6,2.31,1.12,0.64,1.39,1.18,0.86,0.0,0.66,-0,-1,-1,0.86,5292,15,77,32,62,798,0.0,572,461,60,131.0,0,1,303,192,53,0,0,0,250,250,0,-5.59,44.680759,10.020585,0.0,173.7,0,0.0,-1,0.0,0.0,0,0.01,4.4491
266964,1564213409437,4,2.3,1.12,0.64,1.39,1.18,0.82,-0.02,0.62,0,-2,-1,0.82,5299,15,77,32,62,796,0.0,579,465,60,129.0,0,1,304,192,53,0,0,0,250,250,0,-5.59,,,,,,,,,,,,
266984,1564213409457,5,2.3,1.12,0.64,1.4,1.18,0.88,-0.0,0.68,-0,-1,-0,0.88,5296,15,77,32,62,794,0.0,578,461,60,131.0,0,1,304,270,53,0,0,0,250,250,0,-5.59,,,,,,,,,,,,
267004,1564213409477,4,2.3,1.11,0.64,1.4,1.18,0.82,0.02,0.65,0,-1,-1,0.82,5293,15,77,32,62,792,0.0,580,465,60,131.0,0,1,300,192,53,0,0,0,250,250,0,-5.59,,,,,,,,,,,,
267024,1564213409497,6,2.3,1.11,0.62,1.39,1.18,0.9,0.02,0.63,-0,-1,-1,0.9,5311,15,77,32,62,790,0.0,580,459,60,131.0,0,1,305,191,53,0,0,0,250,250,0,-5.59,,,,,,,,,,,,
267044,1564213409517,4,2.31,1.11,0.64,1.4,1.18,0.84,0.06,0.57,0,-0,-0,0.84,5351,15,77,32,62,789,0.0,589,468,60,130.0,0,1,309,268,53,0,0,0,250,250,0,-5.59,44.680759,10.020585,0.0,173.7,0,0.0,-1,0.0,0.0,0,0.01,4.4507
267064,1564213409537,7,2.31,1.12,0.64,1.4,1.18,0.87,0.02,0.61,-0,-1,0,0.87,5307,15,77,32,61,788,0.0,576,460,60,131.0,0,1,305,184,53,0,0,0,250,250,0,-5.59,,,,,,,,,,,,
267084,1564213409557,2,2.31,1.11,0.64,1.39,1.17,0.84,0.07,0.59,0,-0,0,0.84,5322,15,77,32,61,789,0.0,578,462,60,130.0,0,1,307,184,53,0,0,0,250,250,0,-5.59,,,,,,,,,,,,
267104,1564213409577,4,2.31,1.11,0.64,1.39,1.18,0.86,0.03,0.56,0,-0,0,0.86,5351,15,77,32,61,792,0.0,591,462,60,131.0,0,1,310,261,53,0,0,0,250,250,0,-5.59,,,,,,,,,,,,
267124,1564213409597,4,2.31,1.11,0.64,1.39,1.18,0.84,0.06,0.58,0,-0,0,0.84,5349,15,77,32,61,794,0.0,585,462,60,130.0,0,1,310,262,53,0,0,0,250,250,0,-5.59,,,,,,,,,,,,
267144,1564213409617,2,2.31,1.11,0.64,1.4,1.17,0.8,0.03,0.56,0,-2,-0,0.8,5346,15,77,32,61,798,0.0,587,465,60,130.0,0,1,311,262,53,0,0,0,250,250,0,-5.59,44.680759,10.020585,0.0,173.7,0,0.0,-1,0.0,0.0,0,0.01,4.4524
267164,1564213409637,4,2.31,1.11,0.64,1.4,1.18,0.86,0.06,0.56,-0,-1,-0,0.87,5372,15,77,32,61,799,0.0,591,462,60,132.0,0,1,312,183,53,0,0,0,250,250,0,-5.59,,,,,,,,,,,,
267184,1564213409657,2,2.31,1.11,0.64,1.39,1.19,0.78,0.07,0.55,0,-0,-1,0.79,5392,15,77,32,61,802,0.0,601,465,60,130.0,0,1,314,183,53,0,0,0,250,250,0,-5.59,,,,,,,,,,,,
267204,1564213409677,6,2.31,1.12,0.64,1.39,1.19,0.85,0.03,0.53,-0,-2,-0,0.85,5412,15,77,32,61,802,0.0,591,462,60,131.0,0,1,316,182,53,0,0,0,250,250,0,-5.59,,,,,,,,,,,,
267224,1564213409697,4,2.3,1.12,0.64,1.39,1.17,0.84,0.1,0.5,0,-1,-0,0.84,5405,15,77,32,60,801,0.0,592,462,60,129.0,0,1,319,180,53,0,0,0,250,250,0,-5.59,,,,,,,,,,,,
267244,1564213409717,4,2.31,1.11,0.64,1.4,1.18,0.79,0.01,0.51,0,-1,-0,0.79,5411,15,77,32,60,800,0.0,591,466,60,130.0,0,1,323,258,52,0,0,0,250,250,0,-5.59,44.680759,10.020585,0.0,173.7,0,0.0,-1,0.0,0.0,0,0.01,4.4541
267264,1564213409737,6,2.3,1.11,0.64,1.4,1.18,0.84,0.02,0.52,-0,-1,0,0.84,5456,15,77,32,60,797,0.0,593,460,60,131.0,0,1,324,179,52,0,0,0,250,250,0,-5.59,,,,,,,,,,,,
267284,1564213409757,2,2.31,1.11,0.64,1.4,1.18,0.79,0.07,0.56,0,0,-0,0.79,5448,15,77,32,60,795,0.0,591,461,60,129.0,0,1,323,180,52,0,0,0,250,250,0,-5.59,,,,,,,,,,,,
267304,1564213409777,4,2.3,1.12,0.64,1.4,1.18,0.82,0.01,0.54,0,-0,0,0.82,5503,15,77,32,60,794,0.0,600,462,60,131.0,0,1,329,256,52,0,0,0,250,250,0,-5.59,,,,,,,,,,,,
267324,1564213409797,5,2.31,1.11,0.64,1.39,1.18,0.86,0.03,0.53,-0,0,0,0.86,5484,15,77,32,59,792,0.0,593,462,60,131.0,0,1,329,177,52,0,0,0,250,250,0,-5.59,,,,,,,,,,,,
267344,1564213409817,4,2.3,1.12,0.64,1.4,1.18,0.79,0.05,0.58,0,-1,-0,0.8,5496,15,77,32,59,791,0.0,591,463,60,130.0,0,1,331,177,53,0,0,0,250,250,0,-5.59,44.680759,10.020585,0.0,173.7,0,0.0,-1,0.0,0.0,0,0.01,4.4557
267364,1564213409837,4,2.31,1.11,0.64,1.39,1.19,0.83,0.01,0.59,0,-3,-0,0.83,5471,15,77,32,59,789,0.0,594,463,60,130.0,0,1,328,177,53,0,0,0,250,250,0,-5.59,,,,,,,,,,,,
267384,1564213409857,6,2.31,1.11,0.64,1.4,1.18,0.86,0.06,0.58,-0,-1,-0,0.86,5420,15,77,32,59,788,0.0,590,465,60,130.0,0,1,323,256,53,0,0,0,250,250,0,-5.59,,,,,,,,,,,,
267404,1564213409877,4,2.31,1.11,0.65,1.39,1.18,0.78,0.03,0.58,0,-0,-0,0.78,5422,15,77,32,59,788,27.0,595,462,60,130.0,0,1,323,256,53,0,0,0,250,10686,27,-5.59,,,,,,,,,,,,
267424,1564213409899,7,2.3,1.12,0.65,1.39,1.18,0.86,0.02,0.55,-0,-2,-0,0.86,5412,15,77,32,59,785,156.0,591,462,60,130.0,0,1,322,256,53,0,0,0,250,-16896,156,-5.59,,,,,,,,,,,,
267444,1564213409919,4,2.31,1.11,0.64,1.4,1.18,0.81,0.07,0.53,0,-1,0,0.82,5428,15,77,32,59,785,94.0,586,462,60,130.0,326,1,324,256,51,0,0,0,250,10686,94,-5.59,44.680759,10.020585,0.0,173.7,0,0.0,-1,0.0,0.0,0,0.01,4.4574
267464,1564213409939,4,2.31,1.11,0.64,1.39,1.19,0.79,0.0,0.54,0,-1,-0,0.79,5420,15,77,32,59,784,94.0,593,465,60,131.0,326,1,323,178,51,0,0,0,250,-16896,94,-5.59,,,,,,,,,,,,
267484,1564213409959,6,2.31,1.12,0.64,1.39,1.18,0.83,-0.0,0.56,-0,-1,0,0.83,5428,15,77,32,59,782,93.0,585,462,60,130.0,326,1,324,256,51,0,0,0,250,10686,93,-5.59,,,,,,,,,,,,
267504,1564213409979,3,2.31,1.11,0.64,1.39,1.18,0.79,0.02,0.6,0,-0,0,0.79,5436,15,77,32,59,782,93.0,597,461,60,130.0,326,1,325,178,51,0,0,0,250,41,93,-5.59,,,,,,,,,,,,
267524,1564213409991,4,2.31,1.12,0.64,1.39,1.18,0.85,0.01,0.6,0,-0,0,0.85,5452,15,77,32,59,781,93.0,596,463,60,131.0,326,1,326,177,51,0,0,0,250,41,93,-5.59,,,,,,,,,,,,
267544,1564213410011,4,2.31,1.11,0.64,1.4,1.18,0.84,0.04,0.61,-0,-0,-0,0.84,5469,15,77,32,59,782,93.0,600,459,60,130.0,559,1,328,177,52,0,0,0,250,0,93,-5.59,44.680759,10.020585,0.0,173.7,0,0.0,-1,0.0,0.0,0,0.01,4.4591
267564,1564213410031,2,2.31,1.11,0.65,1.39,1.18,0.76,0.01,0.63,0,-1,-0,0.76,5503,15,77,32,59,784,93.0,595,465,60,130.0,559,1,331,255,52,0,0,0,250,0,93,-5.59,,,,,,,,,,,,
267584,1564213410051,3,2.31,1.11,0.64,1.39,1.18,0.87,-0.02,0.56,-0,-3,-0,0.87,5522,15,77,32,59,783,93.0,600,462,60,131.0,559,1,333,253,52,0,0,0,250,20480,93,-5.59,,,,,,,,,,,,
267604,1564213410071,5,2.31,1.12,0.64,1.39,1.19,0.85,0.05,0.58,0,-1,-1,0.85,5477,15,77,32,58,784,93.0,606,460,60,130.0,559,1,331,175,52,0,0,0,250,0,93,-5.59,,,,,,,,,,,,
267624,1564213410099,3,2.31,1.11,0.64,1.39,1.19,0.76,0.01,0.59,0,0,-1,0.76,5482,15,77,32,59,784,93.0,598,465,60,130.0,559,1,329,255,52,0,0,0,250,0,93,-5.59,,,,,,,,,,,,
267644,1564213410119,8,2.31,1.12,0.64,1.39,1.18,0.84,-0.02,0.54,-0,-1,-0,0.84,5482,15,77,32,58,783,93.0,594,462,60,130.0,559,1,332,175,52,0,0,0,250,0,93,-5.59,44.680759,10.020585,0.0,173.7,0,0.0,-1,0.0,0.0,0,0.01,4.4607
267664,1564213410139,4,2.31,1.11,0.64,1.39,1.19,0.84,0.06,0.55,0,-1,-0,0.84,5509,15,77,32,58,782,93.0,597,463,60,130.0,559,1,334,175,52,0,0,0,250,0,93,-5.59,,,,,,,,,,,,
267684,1564213410159,5,2.31,1.11,0.64,1.39,1.19,0.76,0.01,0.58,0,-0,-1,0.76,5513,15,77,32,58,780,93.0,595,466,60,129.0,559,1,334,253,52,0,0,0,250,20480,93,-5.59,,,,,,,,,,,,
267704,1564213410179,2,2.31,1.11,0.64,1.4,1.18,0.8,-0.0,0.55,0,-1,-0,0.8,5540,15,77,32,58,778,93.0,595,463,60,130.0,559,1,337,253,52,0,0,0,250,80,93,-5.59,,,,,,,,,,,,
267724,1564213410198,5,2.31,1.11,0.64,1.39,1.18,0.84,0.01,0.57,-0,-0,0,0.84,5558,15,77,32,57,777,93.0,592,461,60,130.0,559,1,341,252,52,0,0,0,250,21760,93,-5.59,,,,,,,,,,,,
267744,1564213410218,3,2.31,1.11,0.64,1.4,1.18,0.76,0.02,0.59,0,0,-0,0.76,5545,15,77,32,58,776,93.0,606,466,60,130.0,569,1,338,253,53,0,0,0,250,80,93,-5.59,44.680759,10.020585,0.0,173.7,0,0.0,-1,0.0,0.0,0,0.01,4.4624
267764,1564213410238,2,2.3,1.11,0.64,1.39,1.18,0.8,-0.01,0.56,0,-0,-0,0.8,5562,15,77,32,58,775,93.0,612,463,60,131.0,569,1,339,175,53,0,0,0,250,21760,93,-5.59,,,,,,,,,,,,
267784,1564213410258,8,2.3,1.11,0.64,1.39,1.18,0.85,0.01,0.54,-0,0,-0,0.85,5592,15,77,32,57,775,93.0,600,464,60,130.0,569,1,344,252,53,0,0,0,250,250,93,-5.59,,,,,,,,,,,,
267804,1564213410278,5,2.31,1.11,0.64,1.39,1.18,0.8,0.06,0.57,0,0,-1,0.8,5628,15,77,32,57,775,93.0,600,462,60,130.0,569,1,348,174,53,0,0,0,250,250,93,-5.59,,,,,,,,,,,,
267824,1564213410298,4,2.31,1.12,0.65,1.39,1.19,0.74,-0.02,0.6,0,-1,-1,0.74,5645,15,77,32,57,775,93.0,603,462,60,129.0,569,1,349,174,53,0,0,0,250,250,93,-5.59,,,,,,,,,,,,
267844,1564213410318,4,2.31,1.12,0.64,1.4,1.18,0.81,-0.03,0.55,-0,-3,-1,0.81,5666,15,77,32,57,774,93.0,607,466,60,130.0,580,1,351,252,54,0,0,0,250,250,93,-5.59,44.680759,10.020585,0.0,173.7,0,0.0,-1,0.0,0.0,0,0.01,4.4641
267864,1564213410338,8,2.31,1.11,0.64,1.4,1.18,0.93,0.01,0.52,-0,-3,-1,0.93,5695,15,77,32,56,772,93.0,596,462,60,131.0,580,1,355,252,54,0,0,7,250,250,93,-5.59,,,,,,,,,,,,
267884,1564213410358,6,2.31,1.11,0.64,1.4,1.18,0.9,0.06,0.53,-0,-1,-1,0.91,5767,15,77,32,55,770,93.0,602,462,60,131.0,580,1,363,175,54,0,0,7,250,250,93,-5.59,,,,,,,,,,,,
267904,1564213410378,6,2.31,1.12,0.64,1.4,1.18,0.81,0.08,0.56,0,1,-2,0.81,5824,15,77,32,54,770,93.0,616,460,60,130.0,580,1,369,254,54,0,0,7,250,250,93,-5.59,,,,,,,,,,,,
267924,1564213410398,5,2.31,1.11,0.64,1.4,1.19,0.7,0.09,0.58,1,3,-2,0.71,5924,15,77,32,54,769,93.0,613,465,60,131.0,580,1,377,256,54,0,0,7,250,250,93,-5.59,,,,,,,,,,,,
267944,1564213410418,6,2.31,1.11,0.64,1.39,1.19,0.61,0.11,0.61,1,4,-2,0.62,5998,15,77,32,53,767,93.0,615,460,60,132.0,623,1,379,173,58,0,0,7,250,250,93,-5.59,44.680759,10.020585,0.0,173.7,0,0.0,-1,0.0,0.0,0,0.01,4.4657
267964,1564213410438,7,2.3,1.12,0.64,1.4,1.19,0.52,0.12,0.63,1,5,-2,0.54,6081,15,77,32,52,767,93.0,618,464,60,131.0,623,1,377,246,58,0,0,7,250,250,93,-5.59,,,,,,,,,,,,
267984,1564213410458,7,2.3,1.11,0.64,1.4,1.18,0.48,0.16,0.62,2,7,-2,0.5,6123,15,77,32,51,768,0.0,619,462,60,132.0,623,1,374,240,58,0,0,7,250,250,0,-5.59,,,,,,,,,,,,
268004,1564213410478,4,2.3,1.11,0.64,1.4,1.19,0.48,0.2,0.6,2,8,-2,0.52,6198,15,77,32,50,767,0.0,618,462,60,131.0,623,1,371,157,58,0,0,7,250,250,0,-5.59,,,,,,,,,,,,
268024,1564213410498,4,2.3,1.12,0.64,1.4,1.19,0.56,0.23,0.52,1,9,-2,0.61,6229,15,77,32,50,766,0.0,621,466,60,130.0,623,1,371,235,58,0,0,7,250,250,0,-5.59,,,,,,,,,,,,
268044,1564213410518,3,2.3,1.12,0.64,1.39,1.18,0.7,0.22,0.45,1,7,-1,0.73,6262,15,77,32,50,764,0.0,618,463,60,130.0,0,1,371,157,55,0,0,7,250,250,0,-5.59,44.680759,10.020585,0.0,173.7,0,0.0,-1,0.0,0.0,0,0.01,4.4674
268064,1564213410538,4,2.31,1.12,0.64,1.39,1.19,0.76,0.13,0.47,1,3,-1,0.77,6332,14,77,32,49,763,0.0,619,462,60,129.0,0,1,369,230,55,0,0,7,250,250,0,-5.59,,,,,,,,,,,,
268084,1564213410558,6,2.31,1.11,0.64,1.4,1.18,0.7,0.11,0.51,1,1,-1,0.71,6345,14,77,32,48,763,0.0,615,460,60,131.0,0,1,366,146,55,0,0,7,250,250,0,-5.59,,,,,,,,,,,,
268104,1564213410578,4,2.3,1.12,0.64,1.39,1.19,0.66,0.13,0.5,1,2,-2,0.67,6392,14,77,32,48,762,0.0,617,461,60,131.0,0,1,366,146,55,0,0,7,250,250,0,-5.59,,,,,,,,,,,,
268124,1564213410596,3,2.3,1.12,0.64,1.4,1.18,0.7,0.16,0.44,1,3,-3,0.72,6405,14,77,32,48,761,0.0,623,463,60,130.0,0,1,367,147,55,0,0,7,250,250,0,-5.59,,,,,,,,,,,,
268144,1564213410616,6,2.31,1.12,0.64,1.39,1.19,0.76,0.11,0.39,0,1,-2,0.77,6423,14,77,32,47,762,0.0,637,462,60,129.0,0,1,364,142,54,0,0,7,250,250,0,-5.59,44.680759,10.020585,0.0,173.7,0,0.0,-1,0.0,0.0,0,0.01,4.4691
268164,1564213410636,7,2.31,1.12,0.64,1.39,1.19,0.72,0.09,0.46,0,0,-2,0.72,6436,14,77,32,47,765,0.0,628,461,60,130.0,0,1,364,142,54,0,0,7,250,250,0,-5.59,,,,,,,,,,,,
268184,1564213410656,3,2.31,1.11,0.64,1.4,1.18,0.75,0.11,0.51,0,0,-3,0.76,6467,14,77,32,46,768,0.0,619,463,60,131.0,0,1,357,218,54,0,0,7,250,250,0,-5.59,,,,,,,,,,,,
268204,1564213410676,6,2.3,1.12,0.64,1.4,1.19,0.79,0.04,0.51,0,-1,-3,0.8,6499,14,77,32,46,769,0.0,632,463,60,130.0,0,1,357,220,54,0,0,7,250,250,0,-5.59,,,,,,,,,,,,
268224,1564213410698,8,2.31,1.12,0.65,1.39,1.19,0.7,0.04,0.52,0,0,-3,0.71,6469,14,77,32,46,773,0.0,631,462,60,131.0,0,1,357,218,54,0,0,7,250,250,0,-5.59,,,,,,,,,,,,
268244,1564213410718,3,2.3,1.12,0.64,1.4,1.18,0.75,0.11,0.55,0,2,-2,0.76,6469,14,77,32,46,777,0.0,626,464,60,131.0,0,1,357,140,53,0,0,7,250,250,0,-5.59,44.680759,10.020585,0.0,173.7,0,0.0,-1,0.0,0.0,0,0.01,4.4707
268264,1564213410738,5,2.3,1.11,0.64,1.4,1.18,0.81,0.05,0.55,-0,0,-1,0.82,6478,14,77,32,46,781,0.0,632,463,60,129.0,0,1,357,140,53,0,0,7,250,250,0,-5.59,,,,,,,,,,,,
268284,1564213410758,7,2.3,1.12,0.64,1.4,1.19,0.72,-0.0,0.6,0,0,-1,0.72,6436,14,77,32,45,783,0.0,626,465,60,132.0,0,1,350,139,53,0,0,7,250,250,0,-5.59,,,,,,,,,,,,
268304,1564213410778,3,2.31,1.11,0.64,1.4,1.18,0.67,0.06,0.61,1,3,-1,0.67,6401,14,77,32,45,785,0.0,622,462,60,130.0,0,1,350,217,53,0,0,7,250,250,0,-5.59,,,,,,,,,,,,
268324,1564213410798,4,2.31,1.11,0.64,1.4,1.18,0.79,0.1,0.54,0,2,-1,0.8,6405,14,77,32,45,789,0.0,623,467,60,130.0,0,1,350,217,53,0,0,7,250,250,0,-5.59,,,,,,,,,,,,
268344,1564213410818,4,2.31,1.12,0.64,1.39,1.19,0.84,0.01,0.54,0,-0,0,0.84,6392,14,77,32,45,792,0.0,621,463,60,129.0,0,1,349,216,53,0,0,7,250,250,0,-5.59,44.680759,10.020585,0.0,173.7,0,0.0,-1,0.0,0.0,0,0.01,4.4724
268364,1564213410838,7,2.3,1.12,0.64,1.39,1.18,0.75,0.01,0.57,0,-1,-0,0.75,6373,14,77,32,45,793,0.0,621,463,60,131.0,0,1,349,138,53,0,0,0,250,250,0,-5.59,,,,,,,,,,,,
268384,1564213410858,3,2.31,1.12,0.63,1.39,1.19,0.71,0.06,0.56,0,1,-2,0.71,6381,14,77,32,45,796,0.0,618,461,60,130.0,0,1,349,216,53,0,0,0,250,250,0,-5.59,,,,,,,,,,,,
268404,1564213410878,3,2.31,1.11,0.64,1.39,1.18,0.78,0.11,0.49,0,2,-2,0.78,6330,14,77,32,45,798,0.0,633,466,60,130.0,0,1,349,138,53,0,0,0,250,250,0,-5.59,,,,,,,,,,,,
268424,1564213410898,4,2.31,1.11,0.64,1.4,1.18,0.84,0.05,0.44,0,0,-1,0.84,6325,14,77,32,45,800,0.0,628,465,60,129.0,0,1,349,216,53,0,0,0,250,250,0,-5.59,,,,,,,,,,,,
268444,1564213410918,7,2.31,1.12,0.65,1.39,1.18,0.82,0.01,0.48,0,-1,-1,0.82,6294,14,77,32,45,802,0.0,628,464,60,128.0,0,1,349,216,52,0,0,0,250,250,0,-5.59,44.680759,10.020585,0.0,173.7,0,0.0,-1,0.0,0.0,0,0.01,4.4741
268464,1564213410938,7,2.31,1.12,0.64,1.39,1.19,0.77,0.03,0.51,0,-1,-1,0.77,6308,14,77,32,45,805,0.0,615,462,60,131.0,0,1,349,138,52,0,0,0,250,250,0,-5.59,,,,,,,,,,,,
268484,1564213410958,4,2.3,1.12,0.64,1.4,1.18,0.78,0.05,0.56,-0,-1,-2,0.78,6247,14,77,32,45,805,0.0,616,465,60,130.0,0,1,349,138,52,0,0,0,250,250,0,-5.59,,,,,,,,,,,,
268504,1564213410978,3,2.31,1.12,0.64,1.41,1.18,0.82,0.06,0.58,-0,-1,-2,0.82,6250,14,77,32,45,805,0.0,618,463,60,130.0,0,1,349,138,52,0,0,0,250,250,0,-5.59,,,,,,,,,,,,
268524,1564213410998,4,2.31,1.12,0.64,1.4,1.18,0.86,-0.0,0.57,-0,-1,-3,0.86,6241,14,77,32,45,806,0.0,625,462,60,129.0,0,1,349,138,52,0,0,0,250,250,0,-5.59,,,,,,,,,,,,
268544,1564213411010,3,2.3,1.12,0.64,1.4,1.18,0.85,-0.09,0.59,-0,-2,-2,0.85,6202,14,77,32,45,806,0.0,622,462,60,129.0,0,1,349,138,51,0,0,0,250,250,0,-5.59,44.680759,10.020585,0.0,173.7,0,0.0,-1,0.0,0.0,0,0.01,4.4757
268564,1564213411030,6,2.31,1.11,0.64,1.39,1.19,0.76,-0.1,0.61,0,-1,-1,0.77,6227,14,77,32,46,806,0.0,622,463,60,129.0,0,1,355,139,51,0,0,0,250,250,0,-5.59,,,,,,,,,,,,
268584,1564213411050,6,2.31,1.11,0.65,1.4,1.19,0.68,-0.03,0.62,0,1,-1,0.68,6177,14,77,32,46,806,0.0,622,459,60,130.0,0,1,354,216,51,0,0,0,250,250,0,-5.59,,,,,,,,,,,,
268604,1564213411070,5,2.31,1.12,0.65,1.39,1.19,0.63,0.04,0.64,1,3,-1,0.63,6186,14,77,32,46,806,0.0,621,461,60,131.0,0,1,354,138,51,0,0,0,250,250,0,-5.59,,,,,,,,,,,,
268624,1564213411097,4,2.3,1.12,0.64,1.4,1.19,0.67,0.09,0.64,1,4,-0,0.68,6186,14,77,32,46,806,0.0,623,462,60,131.0,0,1,354,138,51,0,0,0,250,250,0,-5.59,,,,,,,,,,,,
268644,1564213411117,2,2.3,1.11,0.64,1.4,1.18,0.77,0.12,0.64,0,3,0,0.78,6163,14,77,32,46,808,0.0,618,462,60,131.0,0,1,354,216,50,0,0,0,250,250,0,-5.59,44.680759,10.020585,0.0,173.7,0,0.0,-1,0.0,0.0,0,0.01,4.4774
268664,1564213411137,4,2.3,1.11,0.64,1.4,1.19,0.87,0.13,0.61,-0,2,1,0.88,6175,14,77,32,46,808,0.0,624,465,60,130.0,0,1,354,138,50,0,0,0,250,250,0,-5.59,,,,,,,,,,,,
268684,1564213411157,4,2.3,1.11,0.64,1.4,1.19,0.93,0.08,0.56,-0,-0,2,0.94,6131,14,77,32,46,809,0.0,625,465,60,130.0,0,1,354,138,50,0,0,0,250,250,0,-5.59,,,,,,,,,,,,
268704,1564213411177,4,2.3,1.11,0.65,1.39,1.19,0.95,-0.02,0.56,-1,-2,2,0.95,6151,14,77,32,46,811,0.0,630,465,60,129.0,0,1,354,138,50,0,0,0,250,250,0,-5.59,,,,,,,,,,,,
268724,1564213411197,4,2.3,1.12,0.64,1.4,1.18,0.92,-0.11,0.57,-1,-3,3,0.93,6141,14,77,32,46,812,0.0,629,466,60,130.0,0,1,354,138,50,0,0,0,250,250,0,-5.59,,,,,,,,,,,,
268744,1564213411217,4,2.3,1.12,0.64,1.39,1.19,0.84,-0.15,0.6,-0,-3,3,0.85,6123,14,77,32,46,814,0.0,620,463,60,129.0,0,1,354,216,50,0,0,0,250,250,0,-5.59,44.680759,10.020585,0.0,173.7,0,0.0,-1,0.0,0.0,0,0.01,4.4791
268764,1564213411237,6,2.3,1.11,0.64,1.4,1.19,0.74,-0.12,0.61,0,-1,3,0.75,6137,14,77,32,46,816,0.0,623,463,60,128.0,0,1,354,138,50,0,0,0,250,250,0,-5.59,,,,,,,,,,,,
268784,1564213411257,6,2.3,1.11,0.65,1.4,1.18,0.63,-0.05,0.61,1,1,3,0.64,6101,14,77,32,46,816,0.0,622,463,60,131.0,0,1,354,138,50,0,0,0,250,250,0,-5.59,,,,,,,,,,,,
268804,1564213411277,6,2.31,1.11,0.64,1.4,1.19,0.54,0.03,0.61,1,4,3,0.55,6127,14,77,32,46,815,0.0,621,461,60,130.0,0,1,354,216,50,0,0,0,250,250,0,-5.59,,,,,,,,,,,,
268824,1564213411297,8,2.3,1.12,0.64,1.4,1.18,0.51,0.11,0.6,1,6,1,0.52,6073,14,77,32,46,813,0.0,613,462,60,131.0,0,1,353,216,50,0,0,0,250,250,0,-5.59,,,,,,,,,,,,
268844,1564213411317,4,2.3,1.11,0.64,1.39,1.19,0.53,0.15,0.57,1,8,1,0.55,6111,14,77,32,46,810,0.0,615,461,60,131.0,0,1,354,138,49,0,0,0,250,250,0,-5.59,44.680759,10.020585,0.0,173.7,0,0.0,-1,0.0,0.0,0,0.01,4.4807
268864,1564213411337,2,2.3,1.11,0.64,1.39,1.19,0.6,0.18,0.53,1,8,1,0.63,6075,14,77,32,46,808,0.0,613,462,60,132.0,0,1,353,216,49,0,0,0,250,250,0,-5.59,,,,,,,,,,,,
268884,1564213411357,4,2.3,1.11,0.64,1.39,1.19,0.7,0.18,0.49,1,8,0,0.73,6085,14,77,32,46,805,0.0,613,465,60,130.0,0,1,353,138,49,0,0,0,250,250,0,-5.59,,,,,,,,,,,,
268904,1564213411377,3,2.29,1.11,0.64,1.4,1.19,0.83,0.18,0.45,0,7,0,0.85,6073,13,77,32,46,802,0.0,618,465,60,130.0,0,1,353,138,49,0,0,0,250,250,0,-5.59,,,,,,,,,,,,
268924,1564213411397,4,2.3,1.12,0.64,1.39,1.18,0.95,0.17,0.42,-0,4,0,0.97,6091,14,77,32,46,799,0.0,619,465,60,129.0,0,1,354,216,49,0,0,0,250,250,0,-5.59,,,,,,,,,,,,
268944,1564213411417,2,2.3,1.11,0.64,1.39,1.19,1.06,0.15,0.4,-0,1,1,1.07,6054,13,77,32,46,798,0.0,616,464,60,131.0,0,1,353,216,50,0,0,0,250,250,0,-5.59,44.680759,10.020585,0.0,173.7,0,0.0,-1,0.0,0.0,0,0.01,4.4824
268964,1564213411437,2,2.31,1.11,0.64,1.4,1.18,1.15,0.11,0.38,-1,-2,1,1.15,6111,13,77,32,46,797,0.0,618,465,60,130.0,0,1,354,138,50,0,0,0,250,250,0,-5.59,,,,,,,,,,,,
268984,1564213411457,5,2.3,1.12,0.64,1.4,1.18,1.2,0.06,0.38,-1,-5,0,1.2,6097,13,77,32,46,797,0.0,616,462,60,128.0,0,1,353,216,50,0,0,0,250,250,0,-5.59,,,,,,,,,,,,
269004,1564213411477,3,2.3,1.12,0.64,1.39,1.18,1.21,-0.0,0.41,-1,-8,0,1.21,6101,13,77,32,46,797,0.0,620,465,60,129.0,0,1,354,138,50,0,0,0,250,250,0,-5.59,,,,,,,,,,,,
269024,1564213411497,4,2.31,1.11,0.64,1.39,1.18,1.16,-0.04,0.45,-1,-9,0,1.16,6113,14,77,32,46,798,0.0,621,462,60,130.0,0,1,354,138,50,0,0,0,250,250,0,-5.59,,,,,,,,,,,,
269044,1564213411517,5,2.3,1.11,0.64,1.4,1.18,1.07,-0.05,0.49,-0,-10,-0,1.07,6095,13,77,32,46,798,0.0,612,460,60,130.0,0,1,353,216,50,0,0,0,250,250,0,-5.59,44.680759,10.020585,0.0,173.7,0,0.0,-1,0.0,0.0,0,0.01,4.4841
269064,1564213411537,4,2.31,1.11,0.64,1.39,1.19,0.94,-0.03,0.51,-0,-10,-1,0.94,6073,13,77,32,46,799,0.0,616,462,60,129.0,0,1,353,138,50,0,0,0,250,250,0,-5.59,,,,,,,,,,,,
269084,1564213411557,7,2.3,1.11,0.64,1.39,1.19,0.81,0.0,0.52,-0,-8,-1,0.81,6069,13,77,32,46,799,0.0,616,462,60,129.0,0,1,353,138,50,0,0,0,250,250,0,-5.59,,,,,,,,,,,,
269104,1564213411577,7,2.3,1.12,0.64,1.4,1.19,0.68,0.05,0.52,0,-7,-2,0.68,6105,13,77,32,46,799,0.0,618,463,60,130.0,0,1,354,138,50,0,0,0,250,250,0,-5.59,,,,,,,,,,,,
269124,1564213411599,8,2.3,1.12,0.64,1.4,1.18,0.57,0.09,0.52,0,-4,-3,0.57,6085,13,77,32,46,799,0.0,616,463,60,131.0,0,1,353,138,50,0,0,0,250,250,0,-5.59,,,,,,,,,,,,
269144,1564213411619,5,2.3,1.12,0.64,1.39,1.19,0.5,0.12,0.52,0,-2,-4,0.51,6135,14,77,32,46,799,0.0,614,462,60,131.0,0,1,354,216,49,0,0,0,250,250,0,-5.59,44.680759,10.020585,0.0,173.7,0,0.0,-1,0.0,0.0,0,0.01,4.4857
269164,1564213411639,3,2.31,1.12,0.64,1.4,1.18,0.49,0.12,0.53,0,-1,-5,0.5,6133,13,77,32,46,798,0.0,613,462,60,130.0,0,1,354,138,49,0,0,0,250,250,0,-5.59,,,,,,,,,,,,
269184,1564213411659,4,2.3,1.11,0.64,1.39,1.18,0.54,0.13,0.5,-0,1,-5,0.56,6186,14,77,32,46,797,0.0,615,462,60,131.0,0,1,354,216,49,0,0,0,250,250,0,-5.59,,,,,,,,,,,,
269204,1564213411679,1,2.31,1.11,0.64,1.39,1.19,0.65,0.15,0.47,-0,0,-5,0.67,6184,14,77,32,46,796,0.0,625,465,60,130.0,0,1,354,138,49,0,0,0,250,250,0,-5.59,,,,,,,,,,,,
269224,1564213411699,5,2.3,1.11,0.64,1.39,1.19,0.76,0.13,0.43,-0,-1,-5,0.77,6214,14,77,32,46,796,0.0,630,462,60,130.0,0,1,355,139,49,0,0,0,250,250,0,-5.59,,,,,,,,,,,,
269244,1564213411719,4,2.3,1.12,0.64,1.4,1.18,0.8,0.06,0.44,-0,-2,-4,0.8,6218,14,77,32,46,797,0.0,627,465,60,130.0,0,1,355,217,51,0,0,0,250,250,0,-5.59,44.680759,10.020585,0.0,173.7,0,0.0,-1,0.0,0.0,0,0.01,4.4874
269264,1564213411739,5,2.31,1.11,0.64,1.39,1.19,0.76,0.04,0.49,-0,-3,-4,0.77,6241,14,77,32,46,797,0.0,625,462,60,130.0,0,1,355,139,51,0,0,0,250,250,0,-5.59,,,,,,,,,,,,
269284,1564213411759,7,2.3,1.12,0.64,1.4,1.19,0.71,0.08,0.53,-0,-2,-3,0.71,6266,14,77,32,46,798,0.0,619,462,60,131.0,0,1,355,139,51,0,0,0,250,250,0,-5.59,,,,,,,,,,,,
269304,1564213411779,4,2.3,1.11,0.64,1.39,1.19,0.73,0.08,0.57,-1,-2,-4,0.73,6291,14,77,32,46,798,0.0,622,462,60,130.0,0,1,355,139,51,0,0,0,250,250,0,-5.59,,,,,,,,,,,,
269324,1564213411797,4,2.31,1.11,0.63,1.4,1.19,0.8,0.08,0.59,-1,-3,-4,0.8,6321,14,77,32,46,799,0.0,624,464,60,130.0,0,1,356,139,51,0,0,0,250,250,0,-5.59,,,,,,,,,,,,
269344,1564213411817,3,2.3,1.12,0.64,1.39,1.18,0.81,-0.01,0.61,-0,-3,-3,0.81,6353,15,77,32,46,799,0.0,623,464,60,129.0,0,1,356,139,52,0,0,0,250,250,0,-5.59,44.680759,10.020585,0.0,173.7,0,0.0,-1,0.0,0.0,0,0.01,4.4891
269364,1564213411837,7,2.3,1.12,0.64,1.4,1.19,0.72,-0.02,0.65,-0,-1,-3,0.72,6384,15,77,32,46,800,0.0,621,463,60,130.0,0,1,356,139,52,0,0,0,250,250,0,-5.59,,,,,,,,,,,,
269384,1564213411857,3,2.3,1.11,0.64,1.39,1.18,0.71,0.05,0.66,-0,-0,-2,0.71,6401,16,77,32,46,801,0.0,617,461,60,131.0,0,1,357,218,52,0,0,0,250,250,0,-5.59,,,,,,,,,,,,
269404,1564213411877,2,2.31,1.11,0.64,1.39,1.19,0.81,0.07,0.64,-0,-1,-1,0.81,6449,16,77,32,46,802,0.0,632,466,60,130.0,0,1,357,218,52,0,0,0,250,250,0,-5.59,,,,,,,,,,,,
269424,1564213411899,6,2.3,1.11,0.64,1.39,1.19,0.79,-0.02,0.65,-0,-1,-0,0.79,6425,17,77,32,46,805,0.0,629,462,60,130.0,0,1,357,220,52,0,0,0,250,250,0,-5.59,,,,,,,,,,,,
269444,1564213411919,3,2.3,1.11,0.64,1.39,1.19,0.69,-0.0,0.69,0,1,-1,0.69,6452,19,77,32,47,808,0.0,625,462,60,130.0,0,1,364,220,53,0,0,0,250,250,0,-5.59,44.680759,10.020585,0.0,173.7,0,0.0,-1,0.0,0.0,0,0.01,4.4907
269464,1564213411939,3,2.3,1.11,0.64,1.39,1.19,0.74,0.08,0.66,0,1,-0,0.75,6499,20,77,32,47,813,0.0,623,463,60,131.0,0,1,364,220,53,0,0,0,250,250,0,-5.59,,,,,,,,,,,,
269484,1564213411959,5,2.3,1.11,0.64,1.4,1.19,0.83,0.02,0.62,0,-1,1,0.83,6560,22,77,32,48,818,0.0,631,465,60,130.0,0,1,368,225,53,0,0,0,250,250,0,-5.59,,,,,,,,,,,,
269504,1564213411979,1,2.3,1.11,0.64,1.4,1.18,0.73,0.01,0.63,0,0,-1,0.73,6599,24,77,32,49,821,0.0,624,460,60,131.0,0,1,371,230,53,0,0,0,250,250,0,-5.59,,,,,,,,,,,,
269524,1564213411991,5,2.3,1.11,0.64,1.39,1.18,0.8,0.07,0.55,0,0,-1,0.8,6658,28,77,32,51,824,0.0,634,464,60,129.0,0,1,378,164,53,0,0,0,250,250,0,-5.59,,,,,,,,,,,,
269544,1564213412011,3,2.3,1.11,0.64,1.39,1.19,0.77,0.04,0.55,0,0,-1,0.77,6718,31,77,32,54,830,0.0,628,466,60,131.0,0,1,388,180,62,0,0,0,250,250,0,-5.59,44.680759,10.020585,0.0,173.7,0,0.0,-1,0.0,0.0,0,0.01,4.4924
269564,1564213412031,6,2.3,1.11,0.64,1.39,1.19,0.81,0.04,0.54,-0,-1,-2,0.81,6830,35,77,32,56,836,0.0,627,466,60,131.0,0,1,396,266,62,0,0,0,250,250,0,-5.59,,,,,,,,,,,,
269584,1564213412051,2,2.3,1.11,0.63,1.4,1.18,0.76,0.02,0.56,-0,0,-2,0.76,6952,37,77,32,59,841,0.0,636,461,60,131.0,0,1,411,283,62,0,0,0,250,250,0,-5.59,,,,,,,,,,,,
269604,1564213412071,2,2.31,1.11,0.64,1.39,1.19,0.82,-0.05,0.59,-0,-1,-1,0.82,7088,40,77,32,61,845,0.0,631,461,60,131.0,0,1,426,220,62,0,0,0,250,250,0,-5.59,,,,,,,,,,,,
269624,1564213412096,8,2.3,1.11,0.64,1.39,1.19,0.78,0.03,0.53,-1,-1,-0,0.78,7298,42,77,32,64,855,0.0,640,460,60,129.0,0,1,422,238,62,0,0,0,250,250,0,-5.59,,,,,,,,,,,,
269644,1564213412116,6,2.3,1.12,0.64,1.4,1.18,0.68,0.07,0.51,-0,0,-2,0.68,7467,44,77,32,66,870,0.0,643,464,60,130.0,0,1,424,332,87,0,0,0,250,250,0,-5.59,44.680759,10.020585,0.0,173.7,0,0.0,-1,0.0,0.0,0,0.01,4.4941
269664,1564213412136,6,2.3,1.11,0.64,1.39,1.18,0.63,0.05,0.46,0,1,-2,0.63,7697,47,77,32,67,882,0.0,648,465,60,129.0,0,1,434,346,87,0,0,0,250,250,0,-5.59,,,,,,,,,,,,
269684,1564213412156,1,2.3,1.11,0.64,1.39,1.19,0.65,0.01,0.46,0,0,-0,0.65,7904,51,77,32,68,892,0.0,645,459,60,130.0,0,1,444,286,87,0,0,0,250,250,0,-5.59,,,,,,,,,,,,
269704,1564213412176,6,2.29,1.12,0.64,1.4,1.19,0.64,-0.0,0.5,0,0,-0,0.64,8223,55,77,32,68,911,0.0,648,462,60,131.0,0,1,442,295,87,0,0,0,250,250,0,-5.59,,,,,,,,,,,,
269724,1564213412198,3,2.3,1.11,0.65,1.4,1.18,0.73,0.02,0.49,0,-1,-2,0.73,8616,59,77,32,68,939,0.0,671,466,60,131.0,0,1,428,303,87,0,0,0,250,250,0,-5.59,,,,,,,,,,,,
269744,1564213412218,6,2.3,1.12,0.64,1.4,1.18,0.77,-0.02,0.46,-0,-2,-1,0.77,8924,62,77,32,67,963,0.0,662,465,60,130.0,0,1,414,298,124,0,0,0,250,250,0,-5.59,44.680759,10.020585,0.0,173.7,0,0.0,-1,0.0,0.0,0,0.01,4.4957
269764,1564213412238,5,2.3,1.11,0.64,1.39,1.18,0.9,-0.01,0.44,-1,-2,-1,0.9,9272,64,77,32,67,980,0.0,667,460,60,129.0,0,1,412,375,124,0,0,0,250,250,0,-5.59,,,,,,,,,,,,
269784,1564213412258,7,2.29,1.11,0.64,1.4,1.18,0.99,0.04,0.44,-1,-4,-1,0.99,9650,66,77,32,67,1001,0.0,678,467,60,130.0,0,1,411,389,124,0,0,0,250,250,0,-5.59,,,,,,,,,,,,
269804,1564213412278,7,2.3,1.11,0.64,1.4,1.18,0.98,0.03,0.39,-1,-2,-1,0.98,9957,68,77,32,67,1027,0.0,688,462,60,129.0,0,1,399,345,124,0,0,0,250,250,0,-5.59,,,,,,,,,,,,
269824,1564213412298,7,2.3,1.11,0.64,1.39,1.19,1.08,-0.04,0.46,-1,-3,-1,1.08,10399,70,77,32,67,1049,0.0,691,462,60,128.0,0,1,435,437,124,0,0,0,250,250,0,-5.59,,,,,,,,,,,,
269844,1564213412318,7,2.3,1.11,0.63,1.39,1.18,1.15,-0.09,0.51,-1,-4,-2,1.15,10757,72,77,32,69,1059,0.0,697,465,60,128.0,0,1,445,456,173,0,0,0,250,250,0,-5.59,44.680759,10.020585,0.0,173.7,0,0.0,-1,0.0,0.0,0,0.01,4.4974
269864,1564213412338,6,2.3,1.11,0.64,1.4,1.18,1.1,0.09,0.51,-1,-3,-1,1.11,11147,73,77,32,70,1068,0.0,698,470,60,128.0,0,1,447,461,173,0,0,0,250,250,0,-5.59,,,,,,,,,,,,
269884,1564213412358,7,2.29,1.11,0.64,1.4,1.19,1.11,-0.11,0.61,-1,-3,-2,1.12,11474,76,77,32,71,1081,0.0,703,463,60,130.0,0,1,440,390,173,0,0,0,250,250,0,-5.59,,,,,,,,,,,,
269904,1564213412378,6,2.3,1.12,0.64,1.4,1.18,1.11,-0.2,0.63,-1,-6,-1,1.13,12034,79,77,32,72,1091,0.0,723,467,60,129.0,0,1,440,395,173,0,0,0,250,250,0,-5.59,,,,,,,,,,,,
269924,1564213412398,4,2.3,1.11,0.64,1.4,1.18,1.07,-0.36,0.7,-1,-7,-0,1.13,12441,81,77,32,74,1094,0.0,725,462,60,129.0,0,1,440,485,173,0,0,0,250,250,0,-5.59,,,,,,,,,,,,
269944,1564213412418,2,2.3,1.11,0.64,1.4,1.18,1.06,-0.34,0.7,-1,-6,0,1.11,12833,85,77,32,76,1092,0.0,720,467,60,128.0,0,1,440,504,231,0,0,0,250,250,0,-5.59,44.680759,10.020585,0.0,173.7,0,0.0,-1,0.0,0.0,0,0.01,4.4991
269964,1564213412438,2,2.3,1.11,0.64,1.39,1.18,1.02,-0.35,0.74,-1,-7,-0,1.08,12763,87,77,32,77,1077,0.0,719,463,60,132.0,0,1,440,435,231,0,0,0,250,250,0,-5.59,,,,,,,,,,,,
269984,1564213412458,3,2.29,1.11,0.64,1.39,1.18,0.99,-0.24,0.79,-1,-6,-0,1.02,12500,89,77,32,80,1063,0.0,714,462,60,131.0,0,1,440,458,231,0,0,0,250,250,0,-5.59,,,,,,,,,,,,
270004,1564213412478,2,2.31,1.12,0.64,1.39,1.19,0.99,-0.2,0.68,-0,-6,0,1.01,12246,89,77,32,81,1045,0.0,712,465,60,131.0,0,1,440,541,231,0,0,0,250,250,0,-5.59,,,,,,,,,,,,
270024,1564213412498,2,2.31,1.12,0.64,1.4,1.18,0.99,-0.22,0.53,-0,-6,0,1.01,11988,90,77,32,82,1027,0.0,703,461,60,131.0,0,1,440,474,231,0,0,0,250,250,0,-5.59,,,,,,,,,,,,
270044,1564213412518,7,2.3,1.11,0.64,1.39,1.19,0.95,-0.14,0.39,-0,-6,1,0.96,11726,90,77,32,83,1006,0.0,701,462,60,131.0,0,1,440,476,247,0,0,0,250,250,0,-5.59,44.680759,10.020585,0.0,173.7,0,0.0,-1,0.0,0.0,0,0.01,4.5007
270064,1564213412538,6,2.3,1.12,0.64,1.4,1.18,0.9,0.05,0.41,0,-5,1,0.9,11474,90,77,32,84,984,0.0,714,463,60,127.0,0,1,441,956,247,0,0,0,250,250,0,-5.59,,,,,,,,,,,,
270084,1564213412558,7,2.3,1.12,0.64,1.4,1.18,0.93,-0.15,0.53,-0,-6,0,0.95,11674,90,77,32,84,980,0.0,721,469,60,127.0,0,1,440,493,247,0,0,0,250,250,0,-5.59,,,,,,,,,,,,
270104,1564213412578,7,2.3,1.12,0.64,1.4,1.18,0.96,-0.28,0.66,-1,-7,-0,1.0,11867,91,77,32,83,975,0.0,716,468,60,126.0,0,1,440,481,247,0,0,0,250,250,0,-5.59,,,,,,,,,,,,
270124,1564213412598,6,2.3,1.11,0.64,1.4,1.18,0.96,-0.34,0.73,-1,-8,-1,1.02,12128,91,77,32,82,1055,0.0,712,469,60,127.0,0,1,440,475,247,0,0,0,250,250,0,-5.59,,,,,,,,,,,,
270144,1564213412618,6,2.29,1.11,0.64,1.4,1.18,0.9,-0.28,0.83,-1,-7,-1,0.95,12600,91,77,32,82,1136,0.0,721,471,60,128.0,0,1,440,555,291,0,0,0,250,250,0,-5.59,44.680759,10.020585,0.0,173.7,0,0.0,-1,0.0,0.0,0,0.01,4.5024
270164,1564213412638,5,2.3,1.12,0.64,1.4,1.18,0.98,-0.38,0.74,-1,-9,-1,1.05,12993,91,77,32,81,1219,0.0,728,468,60,127.0,0,1,440,469,291,0,0,0,250,250,0,-5.59,,,,,,,,,,,,
270184,1564213412658,5,2.31,1.11,0.64,1.4,1.18,0.9,-0.35,0.69,-0,-9,-1,0.97,13479,91,77,32,81,1303,0.0,732,464,60,127.0,0,1,440,469,291,0,0,0,250,250,0,-5.59,,,,,,,,,,,,
270204,1564213412678,3,2.3,1.12,0.64,1.4,1.19,0.91,-0.26,0.6,-0,-9,-0,0.95,13858,91,77,32,81,1282,0.0,735,462,60,128.0,0,1,440,544,291,0,0,0,250,250,0,-5.59,,,,,,,,,,,,
270224,1564213412698,4,2.3,1.12,0.64,1.39,1.18,0.81,-0.21,0.57,-0,-8,1,0.84,14034,91,77,32,81,1258,0.0,737,463,60,130.0,0,1,440,469,291,0,0,0,250,250,0,-5.59,,,,,,,,,,,,
270244,1564213412718,8,2.3,1.11,0.64,1.4,1.18,0.81,-0.11,0.59,0,-8,0,0.82,13919,91,77,32,82,1170,0.0,739,463,60,128.0,0,1,440,477,289,0,0,0,250,250,0,-5.59,44.680759,10.020585,0.0,173.7,0,0.0,-1,0.0,0.0,0,0.01,4.5041
270264,1564213412738,5,2.3,1.11,0.64,1.4,1.18,0.81,0.0,0.52,0,-7,2,0.81,13888,91,77,32,83,1060,0.0,729,460,60,129.0,0,1,440,485,289,0,0,0,250,250,0,-5.59,,,,,,,,,,,,
270284,1564213412758,3,2.31,1.12,0.64,1.4,1.18,0.73,0.02,0.47,0,-7,2,0.73,14034,91,77,32,82,950,0.0,736,476,60,128.0,0,1,440,552,289,0,0,0,250,250,0,-5.59,,,,,,,,,,,,
270304,1564213412778,6,2.31,1.11,0.64,1.39,1.18,0.72,0.07,0.49,1,-5,2,0.72,14034,91,77,32,81,840,0.0,738,471,60,129.0,0,1,440,469,289,0,0,0,250,250,0,-5.59,,,,,,,,,,,,
270324,1564213412798,3,2.3,1.11,0.64,1.4,1.18,0.73,0.16,0.45,1,-4,3,0.75,13919,91,77,32,82,811,0.0,732,467,60,130.0,0,1,440,552,289,0,0,0,250,250,0,-5.59,,,,,,,,,,,,
270344,1564213412818,2,2.31,1.11,0.64,1.4,1.18,0.67,0.19,0.39,1,-4,3,0.69,14055,91,77,32,82,811,0.0,739,473,60,130.0,0,1,440,552,293,0,0,0,250,250,0,-5.59,44.680759,10.020585,0.0,173.7,0,0.0,-1,0.0,0.0,0,0.01,4.5057
270364,1564213412838,4,2.31,1.11,0.64,1.39,1.19,0.65,0.24,0.36,1,-3,3,0.69,14140,92,77,32,81,830,0.0,750,470,60,129.0,0,1,440,544,293,0,0,0,250,250,0,-5.59,,,,,,,,,,,,
270384,1564213412858,3,2.31,1.11,0.64,1.4,1.18,0.65,0.25,0.31,1,-3,3,0.7,14034,92,77,33,82,855,0.0,737,457,60,130.0,0,1,440,552,293,0,0,0,250,250,0,-5.59,,,,,,,,,,,,
270404,1564213412878,0,2.32,1.11,0.64,1.39,1.19,0.59,0.25,0.34,1,-3,2,0.64,13858,92,77,33,82,882,0.0,726,467,60,131.0,0,1,440,477,293,0,0,0,250,250,0,-5.59,,,,,,,,,,,,
270424,1564213412898,8,2.32,1.11,0.64,1.4,1.18,0.63,0.3,0.32,1,-3,3,0.7,13868,92,77,33,83,908,0.0,737,463,60,128.0,0,1,440,560,293,0,0,0,250,250,0,-5.59,,,,,,,,,,,,
270444,1564213412918,1,2.31,1.11,0.64,1.39,1.19,0.63,0.45,0.31,1,-0,4,0.77,13868,93,77,33,82,943,0.0,740,454,60,128.0,0,1,440,552,294,0,0,0,250,250,0,-5.59,44.680759,10.020585,0.0,173.7,0,0.0,-1,0.0,0.0,0,0.01,4.5074
270464,1564213412938,1,2.31,1.11,0.64,1.4,1.18,0.64,0.45,0.31,1,-1,3,0.78,13696,93,77,33,82,987,0.0,727,457,60,132.0,0,1,440,552,294,0,0,0,250,250,0,-5.59,,,,,,,,,,,,
270484,1564213412958,1,2.31,1.12,0.64,1.4,1.18,0.75,0.32,0.3,1,-2,3,0.81,13345,93,77,33,81,1016,0.0,716,464,60,132.0,0,1,440,469,294,0,0,0,250,250,0,-5.59,,,,,,,,,,,,
270504,1564213412978,1,2.31,1.11,0.64,1.4,1.17,0.64,0.42,0.29,1,-0,3,0.77,13084,93,77,33,81,1033,0.0,718,456,60,131.0,0,1,440,544,294,0,0,0,250,250,0,-5.59,,,,,,,,,,,,
270524,1564213412998,1,2.31,1.11,0.64,1.4,1.18,0.72,0.31,0.37,1,2,1,0.79,12755,93,77,33,81,1070,0.0,722,455,60,131.0,0,1,440,543,294,0,0,0,250,250,0,-5.59,,,,,,,,,,,,
270544,1564213413010,6,2.3,1.12,0.64,1.4,1.17,0.73,0.48,0.26,1,3,2,0.88,12500,93,77,33,81,1127,0.0,714,456,60,131.0,0,1,440,542,261,0,0,0,250,250,0,-5.59,44.680759,10.020585,0.0,173.7,0,0.0,-1,0.0,0.0,0,0.01,4.5091
270564,1564213413030,7,2.31,1.12,0.64,1.4,1.18,0.74,0.5,0.23,1,2,3,0.89,12238,93,77,33,83,1175,0.0,705,460,60,128.0,0,1,440,485,261,0,0,0,250,250,0,-5.59,,,,,,,,,,,,
270584,1564213413050,5,2.31,1.12,0.64,1.4,1.18,0.78,0.33,0.28,1,1,3,0.85,12384,93,76,33,83,1213,0.0,725,466,60,127.0,0,1,440,485,261,0,0,0,250,250,0,-5.59,,,,,,,,,,,,
270604,1564213413070,5,2.32,1.11,0.64,1.4,1.19,0.78,0.22,0.4,1,2,3,0.81,12600,93,76,33,83,1263,0.0,726,467,60,127.0,0,1,440,761,261,0,0,0,250,250,0,-5.59,,,,,,,,,,,,
270624,1564213413096,5,2.3,1.12,0.64,1.4,1.18,0.8,0.17,0.33,0,-0,3,0.82,12957,93,76,33,82,1330,0.0,726,472,60,127.0,0,1,440,477,261,0,0,0,250,250,0,-5.59,,,,,,,,,,,,
270644,1564213413116,4,2.31,1.11,0.64,1.39,1.18,0.84,0.1,0.38,0,-1,2,0.85,13402,94,76,33,81,1388,0.0,728,472,60,128.0,0,1,440,553,313,0,0,0,250,250,0,-5.59,44.680759,10.020585,0.0,173.7,0,0.0,-1,0.0,0.0,0,0.01,4.5107
270664,1564213413136,4,2.31,1.12,0.64,1.39,1.18,0.84,0.01,0.37,0,-2,1,0.84,13899,94,76,33,82,1415,0.0,729,464,60,127.0,0,1,440,477,313,0,0,0,250,250,0,-5.59,,,,,,,,,,,,
270684,1564213413156,7,2.32,1.11,0.64,1.4,1.18,0.88,-0.14,0.49,-0,-1,1,0.89,14150,94,77,33,82,1412,0.0,730,463,60,130.0,0,1,440,552,313,0,0,0,250,250,0,-5.59,,,,,,,,,,,,
270704,1564213413176,4,2.31,1.12,0.64,1.39,1.18,0.88,-0.2,0.58,-0,-0,0,0.9,14118,94,77,33,82,1364,0.0,730,465,60,130.0,0,1,440,552,313,0,0,0,250,250,0,-5.59,,,,,,,,,,,,
270724,1564213413197,6,2.3,1.12,0.64,1.4,1.18,0.9,-0.24,0.52,-0,-0,-1,0.93,13950,94,77,33,83,1309,0.0,740,467,60,128.0,0,1,440,560,313,0,0,0,250,250,0,-5.59,,,,,,,,,,,,
