"Interval"|"ms"|0|0|1,"Utc"|"ms"|0|0|1,"Brake_F"|"Bar"|0|2000|10,"Brake_R"|"Bar"|0|2000|10,"Height_RF"|"mm"|0|255|10,"Height_LF"|"mm"|0|255|10,"Height_LR"|"mm"|0|80|10,"Height_RR"|"mm"|0|255|10,"Steering"|"deg"|-100|100|10,"AccelX"|"G"|-3.0|3.0|50,"AccelY"|"G"|-3.0|3.0|50,"AccelZ"|"G"|-3.0|3.0|50,"Yaw"|"Deg/Sec"|-120|120|50,"Pitch"|"Deg/Sec"|-120|120|50,"Roll"|"Deg/Sec"|-120|120|50,"Gsum"|"G"|0.0|3.0|50,"Log_Button"|""|0.0|10.0|10,"WaterTemp"|"C"|0|150|50,"RPM"|"tr/min"|0|14000|50,"TPS"|"%"|0|100|50,"AirTemp"|"C"|0|150|50,"MAP"|"KPa"|0|100|50,"Lambda"|""|0.5|1.5|50,"SpeedDTA"|"kph"|0.0|250.0|50,"OilPress"|"KPa"|0|1500|50,"FuelPressur"|"Bar"|0.0|10.0|50,"Batterie"|"V"|0.0|20.0|50,"ConsoKm"|"L/100km"|0.0|200.0|50,"Gear"|""|0|6|50,"AdvIgnition"|"Deg"|-20.0|70.0|50,"Injection"|"ms"|0.0|10.0|50,"ConsoHr"|"L/Hr"|0.0|10000.0|50,"LC_But_Pres"|""|0|1|50,"LC_Active"|""|0|1|50,"TractionOn"|""|0|1|50,"TractionWet"|""|0|1|50,"FanOn"|""|0|1|50,"RD_Speed"|"km/h"|-30|250|50,"RUD_Speed"|"km/h"|-30|250|50,"LD_Speed"|"km/h"|-30|250|50,"LUD_Speed"|"km/h"|-30|250|50,"Latitude"|"Degrees"|-180.0|180.0|10,"Longitude"|"Degrees"|-180.0|180.0|10,"Speed"|"kph"|0.0|150.0|10,"Altitude"|"m"|0.0|4000.0|10,"GPSSats"|""|0|20|10,"GPSQual"|""|0|5|10,"GPSDOP"|""|0.0|20.0|10,"LapCount"|""|0|0|10,"LapTime"|"Min"|0.0|0.0|10,"Sector"|""|0|0|10,"SectorTime"|"Min"|0.0|0.0|10,"PredTime"|"Min"|0.0|0.0|5,"ElapsedTime"|"Min"|0.0|0.0|10,"CurrentLap"|""|0|0|10,"Distance"|"km"|0.0|0.0|10,"SessionTime"|"Min"|0.0|0.0|10
9063,0,,,,,,,,0.0,0.0,-3.0,0,0,0,0.0,,24,0,4,25,99,0.5,0.0,105,0.99,13.1,0.0,1,0.0,0.0,0.0,0,0,0,0,0,0,250,250,0,,,,,,,,,,,,,,,,
9083,0,,,,,,,,0.0,0.0,-3.0,0,0,0,0.0,,24,0,4,25,99,0.5,0.0,105,1.0,13.1,0.0,1,0.0,0.0,0.0,0,0,0,0,0,0,250,250,0,,,,,,,,,,,,,,,,
9103,0,,,,,,,,0.0,0.0,-3.0,0,0,0,0.0,,24,0,4,25,99,0.5,0.0,105,1.0,13.1,0.0,1,0.0,0.0,0.0,0,0,0,0,0,0,250,250,0,,,,,,,,,,,,,,,,
9123,0,,,,,,,,-0.0,0.0,-3.0,0,0,0,0.0,,24,0,4,25,99,0.5,0.0,105,0.99,13.1,0.0,1,0.0,0.0,0.0,0,0,0,0,0,0,250,250,0,,,,,,,,,,,,,,,,
9143,0,10,5,39,38,32,32,-0,-0.0,0.0,-3.0,0,-0,0,0.0,1,24,0,4,25,99,0.5,0.0,105,0.99,13.1,0.0,1,0.0,0.0,0.0,0,0,0,0,0,0,250,250,0,0.0,0.0,0.0,0.0,0,0,0.0,0,0.0,-1,0.0,,0.0,0,0.0,0.1524
9163,0,,,,,,,,-0.0,0.0,-3.0,0,-0,0,0.0,,24,0,4,25,99,0.5,0.0,105,1.0,13.1,0.0,1,0.0,0.0,0.0,0,0,0,0,0,0,250,250,0,,,,,,,,,,,,,,,,
9183,0,,,,,,,,-0.0,0.0,-3.0,0,-0,0,0.0,,24,0,4,25,99,0.5,0.0,105,1.0,13.1,0.0,1,0.0,0.0,0.0,0,0,0,0,0,0,250,250,0,,,,,,,,,,,,,,,,
9203,0,,,,,,,,-0.0,0.0,-3.0,0,-0,0,0.0,,24,0,4,25,99,0.5,0.0,105,1.0,13.1,0.0,1,0.0,0.0,0.0,0,0,0,0,0,0,250,250,0,,,,,,,,,,,,,,,,
9223,0,,,,,,,,-0.0,0.0,-3.0,0,0,0,0.0,,24,0,4,25,99,0.5,0.0,105,0.99,13.1,0.0,1,0.0,0.0,0.0,0,0,0,0,0,0,250,250,0,,,,,,,,,,,,,,,,
9243,0,11,7,39,38,33,32,0,-0.0,0.0,-3.0,0,0,0,0.0,1,24,0,4,25,99,0.5,0.0,105,0.99,13.1,0.0,1,0.0,0.0,0.0,0,0,0,0,0,0,250,250,0,0.0,0.0,0.0,0.0,0,0,0.0,0,0.0,-1,0.0,0.0,0.0,0,0.0,0.154
9263,0,,,,,,,,-0.0,0.0,-3.0,0,0,0,0.0,,24,0,4,25,99,0.5,0.0,105,0.99,13.1,0.0,1,0.0,0.0,0.0,0,0,0,0,0,0,250,250,0,,,,,,,,,,,,,,,,
9283,0,,,,,,,,-0.0,0.0,-3.0,0,0,0,0.0,,24,0,4,25,99,0.5,0.0,105,1.0,13.1,0.0,1,0.0,0.0,0.0,0,0,0,0,0,0,250,250,0,,,,,,,,,,,,,,,,
9303,0,,,,,,,,-0.0,0.0,-3.0,0,-0,0,0.0,,24,0,4,25,99,0.5,0.0,105,0.99,13.1,0.0,1,0.0,0.0,0.0,0,0,0,0,0,0,250,250,0,,,,,,,,,,,,,,,,
9323,0,,,,,,,,-0.0,0.0,-3.0,0,0,0,0.0,,24,0,4,25,99,0.5,0.0,105,1.0,13.1,0.0,1,0.0,0.0,0.0,0,0,0,0,0,0,250,250,0,,,,,,,,,,,,,,,,
9343,0,10,8,39,38,33,32,0,-0.0,0.0,-3.0,0,0,0,0.0,1,24,0,4,25,99,0.5,0.0,105,1.0,13.1,0.0,1,0.0,0.0,0.0,0,0,0,0,0,0,250,250,0,0.0,0.0,0.0,0.0,0,0,0.0,0,0.0,-1,0.0,,0.0,0,0.0,0.1557
9363,0,,,,,,,,-0.0,0.0,-3.0,0,-0,0,0.0,,24,0,4,25,99,0.5,0.0,105,0.99,13.1,0.0,1,0.0,0.0,0.0,0,0,0,0,0,0,250,250,0,,,,,,,,,,,,,,,,
9383,0,,,,,,,,0.0,0.0,-3.0,0,-0,0,0.0,,24,0,4,25,99,0.5,0.0,105,1.0,13.1,0.0,1,0.0,0.0,0.0,0,0,0,0,0,0,250,250,0,,,,,,,,,,,,,,,,
9403,0,,,,,,,,0.0,0.0,-3.0,0,-0,0,0.0,,24,0,4,25,99,0.5,0.0,105,1.0,13.1,0.0,1,0.0,0.0,0.0,0,0,0,0,0,0,250,250,0,,,,,,,,,,,,,,,,
9423,0,,,,,,,,0.0,0.0,-3.0,0,-0,0,0.0,,24,0,4,25,99,0.5,0.0,105,1.0,13.1,0.0,1,0.0,0.0,0.0,0,0,0,0,0,0,250,250,0,,,,,,,,,,,,,,,,
9443,0,11,6,39,38,33,32,-0,0.0,0.0,-3.0,0,-0,0,0.0,1,24,0,4,25,99,0.5,0.0,105,0.99,13.1,0.0,1,0.0,0.0,0.0,0,0,0,0,0,0,250,250,0,0.0,0.0,0.0,0.0,0,0,0.0,0,0.0,-1,0.0,0.0,0.0,0,0.0,0.1574
9463,0,,,,,,,,0.0,0.0,-3.0,0,-0,0,0.0,,24,0,4,25,99,0.5,0.0,105,1.0,13.1,0.0,1,0.0,0.0,0.0,0,0,0,0,0,0,250,250,0,,,,,,,,,,,,,,,,
9483,0,,,,,,,,0.0,0.0,-3.0,0,-0,0,0.0,,24,0,4,25,99,0.5,0.0,105,1.0,13.1,0.0,1,0.0,0.0,0.0,0,0,0,0,0,0,250,250,0,,,,,,,,,,,,,,,,
9503,0,,,,,,,,0.0,0.0,-3.0,0,0,0,0.0,,24,0,4,25,99,0.5,0.0,105,1.0,13.1,0.0,1,0.0,0.0,0.0,0,0,0,0,0,0,250,250,0,,,,,,,,,,,,,,,,
9523,0,,,,,,,,0.0,0.0,-3.0,0,-0,0,0.0,,24,0,4,25,99,0.5,0.0,105,1.0,13.1,0.0,1,0.0,0.0,0.0,0,0,0,0,0,0,250,250,0,,,,,,,,,,,,,,,,
9543,0,10,7,39,38,32,32,0,0.0,0.0,-3.0,0,-0,0,0.0,0,24,0,4,25,99,0.5,0.0,105,1.0,13.1,0.0,1,0.0,0.0,0.0,0,0,0,0,0,0,250,250,0,0.0,0.0,0.0,0.0,0,0,0.0,0,0.0,-1,0.0,,0.0,0,0.0,0.159
9563,0,,,,,,,,0.0,0.0,-3.0,0,-0,0,0.0,,24,0,4,25,99,0.5,0.0,105,0.99,13.1,0.0,1,0.0,0.0,0.0,0,0,0,0,0,0,250,250,0,,,,,,,,,,,,,,,,
9583,0,,,,,,,,0.0,0.0,-3.0,0,-0,0,0.0,,24,0,4,25,99,0.5,0.0,105,1.0,13.1,0.0,1,0.0,0.0,0.0,0,0,0,0,0,0,250,250,0,,,,,,,,,,,,,,,,
9603,0,,,,,,,,-0.0,0.0,-3.0,0,0,0,0.0,,24,0,4,25,99,0.5,0.0,105,1.0,13.1,0.0,1,0.0,0.0,0.0,0,0,0,0,0,0,250,250,0,,,,,,,,,,,,,,,,
9623,0,,,,,,,,0.0,0.0,-3.0,0,0,0,0.0,,24,0,4,25,99,0.5,0.0,105,0.99,13.1,0.0,1,0.0,0.0,0.0,0,0,0,0,0,0,250,250,0,,,,,,,,,,,,,,,,
9643,0,11,7,39,38,33,32,-1,0.0,0.0,-3.0,0,-0,0,0.0,0,24,0,4,25,99,0.5,0.0,105,1.0,13.1,0.0,1,0.0,0.0,0.0,0,0,0,0,0,0,250,250,0,0.0,0.0,0.0,0.0,0,0,0.0,0,0.0,-1,0.0,0.0,0.0,0,0.0,0.1607
9663,0,,,,,,,,-0.0,0.0,-3.0,0,-0,0,0.0,,24,0,4,25,99,0.5,0.0,105,1.0,13.1,0.0,1,0.0,0.0,0.0,0,0,0,0,0,0,250,250,0,,,,,,,,,,,,,,,,
9683,0,,,,,,,,-0.0,0.0,-3.0,0,-0,0,0.0,,24,0,4,25,99,0.5,0.0,105,1.0,13.1,0.0,1,0.0,0.0,0.0,0,0,0,0,0,0,250,250,0,,,,,,,,,,,,,,,,
9703,0,,,,,,,,0.0,0.0,-3.0,0,0,0,0.0,,24,0,4,25,99,0.5,0.0,105,1.0,13.1,0.0,1,0.0,0.0,0.0,0,0,0,0,0,0,250,250,0,,,,,,,,,,,,,,,,
9723,0,,,,,,,,0.0,0.0,-3.0,0,0,0,0.0,,24,0,4,25,99,0.5,0.0,105,1.0,13.1,0.0,1,0.0,0.0,0.0,0,0,0,0,0,0,250,250,0,,,,,,,,,,,,,,,,
9743,0,11,8,39,38,33,32,-1,-0.0,0.0,-3.0,0,0,0,0.0,0,24,0,4,25,99,0.5,0.0,105,1.0,13.1,0.0,1,0.0,0.0,0.0,0,0,0,0,0,0,250,250,0,0.0,0.0,0.0,0.0,0,0,0.0,0,0.0,-1,0.0,,0.0,0,0.0,0.1624
9763,0,,,,,,,,-0.0,0.0,-3.0,0,0,0,0.0,,24,0,4,25,99,0.5,0.0,105,1.0,13.1,0.0,1,0.0,0.0,0.0,0,0,0,0,0,0,250,250,0,,,,,,,,,,,,,,,,
9783,0,,,,,,,,0.0,0.0,-3.0,0,0,0,0.0,,24,0,4,25,99,0.5,0.0,105,1.0,13.1,0.0,1,0.0,0.0,0.0,0,0,0,0,0,0,250,250,0,,,,,,,,,,,,,,,,
9803,0,,,,,,,,0.0,0.0,-3.0,0,0,0,0.0,,24,0,4,25,99,0.5,0.0,105,1.0,13.1,0.0,1,0.0,0.0,0.0,0,0,0,0,0,0,250,250,0,,,,,,,,,,,,,,,,
9823,0,,,,,,,,0.0,0.0,-3.0,0,0,0,0.0,,24,0,4,25,99,0.5,0.0,105,1.0,13.1,0.0,1,0.0,0.0,0.0,0,0,0,0,0,0,250,250,0,,,,,,,,,,,,,,,,
9843,0,10,8,39,37,33,32,0,0.0,0.0,-3.0,0,0,0,0.0,0,24,0,4,25,99,0.5,0.0,105,1.0,13.1,0.0,1,0.0,0.0,0.0,0,0,0,0,0,0,250,250,0,0.0,0.0,0.0,0.0,0,0,0.0,0,0.0,-1,0.0,0.0,0.0,0,0.0,0.164
9863,0,,,,,,,,0.0,0.0,-3.0,0,0,0,0.0,,24,0,4,25,99,0.5,0.0,105,0.99,13.1,0.0,1,0.0,0.0,0.0,0,0,0,0,0,0,250,250,0,,,,,,,,,,,,,,,,
9883,0,,,,,,,,0.0,0.0,-3.0,0,0,0,0.0,,24,0,4,25,99,0.5,0.0,105,1.0,13.1,0.0,1,0.0,0.0,0.0,0,0,0,0,0,0,250,250,0,,,,,,,,,,,,,,,,
9903,0,,,,,,,,0.0,0.0,-3.0,0,0,0,0.0,,24,0,4,25,99,0.5,0.0,105,1.0,13.1,0.0,1,0.0,0.0,0.0,0,0,0,0,0,0,250,250,0,,,,,,,,,,,,,,,,
9923,0,,,,,,,,0.0,0.0,-3.0,0,0,0,0.0,,24,0,4,25,99,0.5,0.0,105,1.0,13.1,0.0,1,0.0,0.0,0.0,0,0,0,0,0,0,250,250,0,,,,,,,,,,,,,,,,
9943,0,12,7,39,37,33,32,-0,0.0,0.0,-3.0,0,0,0,0.0,0,24,0,4,25,99,0.5,0.0,105,1.0,13.1,0.0,1,0.0,0.0,0.0,0,0,0,0,0,0,250,250,0,0.0,0.0,0.0,0.0,0,0,0.0,0,0.0,-1,0.0,,0.0,0,0.0,0.1657
9963,0,,,,,,,,0.0,0.0,-3.0,0,0,0,0.0,,24,0,4,25,99,0.5,0.0,105,0.99,13.1,0.0,1,0.0,0.0,0.0,0,0,0,0,0,0,250,250,0,,,,,,,,,,,,,,,,
9983,0,,,,,,,,0.0,0.0,-3.0,0,0,0,0.0,,24,0,4,25,99,0.5,0.0,105,1.0,13.1,0.0,1,0.0,0.0,0.0,0,0,0,0,0,0,250,250,0,,,,,,,,,,,,,,,,
10003,0,,,,,,,,0.0,0.0,-3.0,0,-0,0,0.0,,24,0,4,25,99,0.5,0.0,105,1.0,13.1,0.0,1,0.0,0.0,0.0,0,0,0,0,0,0,250,250,0,,,,,,,,,,,,,,,,
10023,0,,,,,,,,0.0,0.0,-3.0,0,-0,0,0.0,,24,0,4,25,99,0.5,0.0,105,1.0,13.1,0.0,1,0.0,0.0,0.0,0,0,0,0,0,0,250,250,0,,,,,,,,,,,,,,,,
10043,0,12,8,39,38,33,32,0,-0.0,0.0,-3.0,0,-0,0,0.0,0,24,0,4,25,99,0.5,0.0,105,1.0,13.1,0.0,1,0.0,0.0,0.0,0,0,0,0,0,0,250,250,0,0.0,0.0,0.0,0.0,0,0,0.0,0,0.0,-1,0.0,0.0,0.0,0,0.0,0.1674
10063,0,,,,,,,,-0.0,0.0,-3.0,0,-0,0,0.0,,24,0,4,25,99,0.5,0.0,105,1.0,13.1,0.0,1,0.0,0.0,0.0,0,0,0,0,0,0,250,250,0,,,,,,,,,,,,,,,,
10083,0,,,,,,,,-0.0,0.0,-3.0,0,-0,0,0.0,,24,0,4,25,99,0.5,0.0,105,1.0,13.1,0.0,1,0.0,0.0,0.0,0,0,0,0,0,0,250,250,0,,,,,,,,,,,,,,,,
10103,0,,,,,,,,-0.0,0.0,-3.0,0,-0,0,0.0,,24,0,4,25,99,0.5,0.0,105,1.0,13.1,0.0,1,0.0,0.0,0.0,0,0,0,0,0,0,250,250,0,,,,,,,,,,,,,,,,
10123,0,,,,,,,,-0.0,0.0,-3.0,0,-0,0,0.0,,24,0,4,25,99,0.5,0.0,105,1.0,13.1,0.0,1,0.0,0.0,0.0,0,0,0,0,0,0,250,250,0,,,,,,,,,,,,,,,,
10143,0,11,7,39,38,33,32,0,0.0,0.0,-3.0,0,-0,0,0.0,0,24,0,4,25,99,0.5,0.0,105,1.0,13.1,0.0,1,0.0,0.0,0.0,0,0,0,0,0,0,250,250,0,0.0,0.0,0.0,0.0,0,0,0.0,0,0.0,-1,0.0,,0.0,0,0.0,0.169
10163,0,,,,,,,,0.0,0.0,-3.0,0,-0,0,0.0,,24,0,4,25,99,0.5,0.0,105,0.99,13.1,0.0,1,0.0,0.0,0.0,0,0,0,0,0,0,250,250,0,,,,,,,,,,,,,,,,
10183,0,,,,,,,,0.0,0.0,-3.0,0,-0,0,0.0,,24,0,4,25,99,0.5,0.0,105,1.0,13.1,0.0,1,0.0,0.0,0.0,0,0,0,0,0,0,250,250,0,,,,,,,,,,,,,,,,
10203,0,,,,,,,,0.0,0.0,-3.0,0,-0,0,0.0,,24,0,4,25,99,0.5,0.0,105,1.0,13.1,0.0,1,0.0,0.0,0.0,0,0,0,0,0,0,250,250,0,,,,,,,,,,,,,,,,
10223,0,,,,,,,,0.0,0.0,-3.0,0,-0,0,0.0,,24,0,4,25,99,0.5,0.0,105,1.0,13.1,0.0,1,0.0,0.0,0.0,0,0,0,0,0,0,250,250,0,,,,,,,,,,,,,,,,
10243,0,11,8,39,38,33,32,0,-0.0,0.0,-3.0,0,-0,0,0.0,0,24,0,4,25,99,0.5,0.0,105,1.0,13.1,0.0,1,0.0,0.0,0.0,0,0,0,0,0,0,250,250,0,0.0,0.0,0.0,0.0,0,0,0.0,0,0.0,-1,0.0,0.0,0.0,0,0.0,0.1707
10263,0,,,,,,,,-0.0,0.0,-3.0,0,-0,0,0.0,,24,0,4,25,99,0.5,0.0,105,0.99,13.1,0.0,1,0.0,0.0,0.0,0,0,0,0,0,0,250,250,0,,,,,,,,,,,,,,,,
10283,0,,,,,,,,-0.0,0.0,-3.0,0,-0,0,0.0,,24,0,4,25,99,0.5,0.0,105,1.0,13.1,0.0,1,0.0,0.0,0.0,0,0,0,0,0,0,250,250,0,,,,,,,,,,,,,,,,
10303,0,,,,,,,,-0.0,0.0,-3.0,0,-0,0,0.0,,24,0,4,25,99,0.5,0.0,105,0.99,13.1,0.0,1,0.0,0.0,0.0,0,0,0,0,0,0,250,250,0,,,,,,,,,,,,,,,,
10323,0,,,,,,,,-0.0,0.0,-3.0,0,-0,0,0.0,,24,0,4,25,99,0.5,0.0,105,0.99,13.1,0.0,1,0.0,0.0,0.0,0,0,0,0,0,0,250,250,0,,,,,,,,,,,,,,,,
10343,0,12,8,39,38,33,32,-1,-0.0,0.0,-3.0,0,-0,0,0.0,0,24,0,4,25,99,0.5,0.0,105,1.0,13.1,0.0,1,0.0,0.0,0.0,0,0,0,0,0,0,250,250,0,0.0,0.0,0.0,0.0,0,0,0.0,0,0.0,-1,0.0,,0.0,0,0.0,0.1724
10363,0,,,,,,,,-0.0,0.0,-3.0,0,-0,0,0.0,,24,0,4,25,99,0.5,0.0,105,0.99,13.1,0.0,1,0.0,0.0,0.0,0,0,0,0,0,0,250,250,0,,,,,,,,,,,,,,,,
10383,0,,,,,,,,-0.0,0.0,-3.0,0,0,0,0.0,,24,0,4,25,99,0.5,0.0,105,1.0,13.1,0.0,1,0.0,0.0,0.0,0,0,0,0,0,0,250,250,0,,,,,,,,,,,,,,,,
10403,0,,,,,,,,-0.0,0.0,-3.0,0,0,0,0.0,,24,0,4,25,99,0.5,0.0,105,0.99,13.1,0.0,1,0.0,0.0,0.0,0,0,0,0,0,0,250,250,0,,,,,,,,,,,,,,,,
10423,0,,,,,,,,-0.0,0.0,-3.0,0,-0,0,0.0,,24,0,4,25,99,0.5,0.0,105,1.0,13.1,0.0,1,0.0,0.0,0.0,0,0,0,0,0,0,250,250,0,,,,,,,,,,,,,,,,
10443,0,11,6,39,38,33,32,-1,-0.0,0.0,-3.0,0,0,0,0.0,0,24,0,4,25,99,0.5,0.0,105,0.99,13.1,0.0,1,0.0,0.0,0.0,0,0,0,0,0,0,250,250,0,0.0,0.0,0.0,0.0,0,0,0.0,0,0.0,-1,0.0,0.0,0.0,0,0.0,0.174
10463,0,,,,,,,,-0.0,0.0,-3.0,0,0,0,0.0,,24,0,4,25,99,0.5,0.0,105,1.0,13.1,0.0,1,0.0,0.0,0.0,0,0,0,0,0,0,250,250,0,,,,,,,,,,,,,,,,
10483,0,,,,,,,,-0.0,0.0,-3.0,0,0,0,0.0,,24,0,4,25,99,0.5,0.0,105,1.0,13.1,0.0,1,0.0,0.0,0.0,0,0,0,0,0,0,250,250,0,,,,,,,,,,,,,,,,
10503,0,,,,,,,,-0.0,0.0,-3.0,0,0,0,0.0,,24,0,4,25,99,0.5,0.0,105,0.99,13.1,0.0,1,0.0,0.0,0.0,0,0,0,0,0,0,250,250,0,,,,,,,,,,,,,,,,
10523,0,,,,,,,,-0.0,0.0,-3.0,0,-0,0,0.0,,24,0,4,25,99,0.5,0.0,105,1.0,13.1,0.0,1,0.0,0.0,0.0,0,0,0,0,0,0,250,250,0,,,,,,,,,,,,,,,,
10543,0,12,8,39,38,33,32,-1,-0.0,0.0,-3.0,0,-0,0,0.0,0,24,0,4,25,99,0.5,0.0,105,1.0,13.1,0.0,1,0.0,0.0,0.0,0,0,0,0,0,0,250,250,0,0.0,0.0,0.0,0.0,0,0,0.0,0,0.0,-1,0.0,,0.0,0,0.0,0.1757
10563,0,,,,,,,,-0.0,0.0,-3.0,0,0,0,0.0,,24,0,4,25,99,0.5,0.0,105,1.0,13.1,0.0,1,0.0,0.0,0.0,0,0,0,0,0,0,250,250,0,,,,,,,,,,,,,,,,
10583,0,,,,,,,,-0.0,0.0,-3.0,0,0,0,0.0,,24,0,4,25,99,0.5,0.0,105,1.0,13.1,0.0,1,0.0,0.0,0.0,0,0,0,0,0,0,250,250,0,,,,,,,,,,,,,,,,
10603,0,,,,,,,,-0.0,0.0,-3.0,0,-0,0,0.0,,24,0,4,25,99,0.5,0.0,105,1.0,13.1,0.0,1,0.0,0.0,0.0,0,0,0,0,0,0,250,250,0,,,,,,,,,,,,,,,,
10623,0,,,,,,,,-0.0,0.0,-3.0,0,0,0,0.0,,24,0,4,25,99,0.5,0.0,105,0.99,13.1,0.0,1,0.0,0.0,0.0,0,0,0,0,0,0,250,250,0,,,,,,,,,,,,,,,,
10643,0,12,5,39,38,32,32,-0,-0.0,0.0,-3.0,0,-0,0,0.0,0,24,0,4,25,99,0.5,0.0,105,1.0,13.1,0.0,1,0.0,0.0,0.0,0,0,0,0,0,0,250,250,0,0.0,0.0,0.0,0.0,0,0,0.0,0,0.0,-1,0.0,0.0,0.0,0,0.0,0.1774
10663,0,,,,,,,,-0.0,0.0,-3.0,0,-0,0,0.0,,24,0,4,25,99,0.5,0.0,105,1.0,13.1,0.0,1,0.0,0.0,0.0,0,0,0,0,0,0,250,250,0,,,,,,,,,,,,,,,,
10683,0,,,,,,,,-0.0,0.0,-3.0,0,-0,0,0.0,,24,0,4,25,99,0.5,0.0,105,1.0,13.1,0.0,1,0.0,0.0,0.0,0,0,0,0,0,0,250,250,0,,,,,,,,,,,,,,,,
10703,0,,,,,,,,-0.0,0.0,-3.0,0,-0,0,0.0,,24,0,4,25,99,0.5,0.0,105,1.0,13.1,0.0,1,0.0,0.0,0.0,0,0,0,0,0,0,250,250,0,,,,,,,,,,,,,,,,
10723,0,,,,,,,,-0.0,0.0,-3.0,0,-0,0,0.0,,24,0,4,25,99,0.5,0.0,105,0.99,13.1,0.0,1,0.0,0.0,0.0,0,0,0,0,0,0,250,250,0,,,,,,,,,,,,,,,,
10743,0,11,6,39,38,33,32,0,-0.0,0.0,-3.0,0,-0,0,0.0,0,24,0,4,25,99,0.5,0.0,105,1.0,13.1,0.0,1,0.0,0.0,0.0,0,0,0,0,0,0,250,250,0,0.0,0.0,0.0,0.0,0,0,0.0,0,0.0,-1,0.0,,0.0,0,0.0,0.179
10763,0,,,,,,,,-0.0,0.0,-3.0,0,-0,0,0.0,,24,0,4,25,99,0.5,0.0,105,0.99,13.1,0.0,1,0.0,0.0,0.0,0,0,0,0,0,0,250,250,0,,,,,,,,,,,,,,,,
10783,0,,,,,,,,-0.0,0.0,-3.0,0,-0,0,0.0,,24,0,4,25,99,0.5,0.0,105,1.0,13.1,0.0,1,0.0,0.0,0.0,0,0,0,0,0,0,250,250,0,,,,,,,,,,,,,,,,
10803,0,,,,,,,,-0.0,0.0,-3.0,0,-0,0,0.0,,24,0,4,25,99,0.5,0.0,105,0.99,13.1,0.0,1,0.0,0.0,0.0,0,0,0,0,0,0,250,250,0,,,,,,,,,,,,,,,,
10823,0,,,,,,,,-0.0,0.0,-3.0,0,-0,0,0.0,,24,0,4,25,99,0.5,0.0,105,1.0,13.1,0.0,1,0.0,0.0,0.0,0,0,0,0,0,0,250,250,0,,,,,,,,,,,,,,,,
10843,0,12,5,39,38,32,32,-1,-0.0,0.0,-3.0,0,-0,0,0.0,0,24,0,4,25,99,0.5,0.0,105,1.0,13.1,0.0,1,0.0,0.0,0.0,0,0,0,0,0,0,250,250,0,0.0,0.0,0.0,0.0,0,0,0.0,0,0.0,-1,0.0,0.0,0.0,0,0.0,0.1807
10863,0,,,,,,,,-0.0,0.0,-3.0,0,-0,0,0.0,,24,0,4,25,99,0.5,0.0,105,1.0,13.1,0.0,1,0.0,0.0,0.0,0,0,0,0,0,0,250,250,0,,,,,,,,,,,,,,,,
10883,0,,,,,,,,-0.0,0.0,-3.0,0,-0,0,0.0,,24,0,4,25,99,0.5,0.0,105,1.0,13.1,0.0,1,0.0,0.0,0.0,0,0,0,0,0,0,250,250,0,,,,,,,,,,,,,,,,
10903,0,,,,,,,,-0.0,0.0,-3.0,0,-0,0,0.0,,24,0,4,25,99,0.5,0.0,105,1.0,13.1,0.0,1,0.0,0.0,0.0,0,0,0,0,0,0,250,250,0,,,,,,,,,,,,,,,,
10923,0,,,,,,,,-0.0,0.0,-3.0,0,-0,0,0.0,,24,0,4,25,99,0.5,0.0,105,1.0,13.1,0.0,1,0.0,0.0,0.0,0,0,0,0,0,0,250,250,0,,,,,,,,,,,,,,,,
10943,0,12,8,39,38,33,32,-1,-0.0,0.0,-3.0,0,-0,0,0.0,0,24,0,4,25,99,0.5,0.0,105,1.0,13.1,0.0,1,0.0,0.0,0.0,0,0,0,0,0,0,250,250,0,0.0,0.0,0.0,0.0,0,0,0.0,0,0.0,-1,0.0,,0.0,0,0.0,0.1824
10963,0,,,,,,,,-0.0,0.0,-3.0,0,0,0,0.0,,24,0,4,25,99,0.5,0.0,105,1.0,13.1,0.0,1,0.0,0.0,0.0,0,0,0,0,0,0,250,250,0,,,,,,,,,,,,,,,,
10983,0,,,,,,,,-0.0,0.0,-3.0,0,-0,0,0.0,,24,0,4,25,99,0.5,0.0,105,0.99,13.1,0.0,1,0.0,0.0,0.0,0,0,0,0,0,0,250,250,0,,,,,,,,,,,,,,,,
11003,0,,,,,,,,-0.0,0.0,-3.0,0,-0,0,0.0,,24,0,4,25,99,0.5,0.0,105,1.0,13.1,0.0,1,0.0,0.0,0.0,0,0,0,0,0,0,250,250,0,,,,,,,,,,,,,,,,
11023,0,,,,,,,,-0.0,0.0,-3.0,0,-0,0,0.0,,24,0,4,25,99,0.5,0.0,105,1.0,13.1,0.0,1,0.0,0.0,0.0,0,0,0,0,0,0,250,250,0,,,,,,,,,,,,,,,,
11043,0,10,8,39,37,33,32,0,-0.0,0.0,-3.0,0,-0,0,0.0,0,24,0,4,25,99,0.5,0.0,105,1.0,13.1,0.0,1,0.0,0.0,0.0,0,0,0,0,0,0,250,250,0,0.0,0.0,0.0,0.0,0,0,0.0,0,0.0,-1,0.0,0.0,0.0,0,0.0,0.184
11063,0,,,,,,,,0.0,0.0,-3.0,0,-0,0,0.0,,24,0,4,25,99,0.5,0.0,105,1.0,13.1,0.0,1,0.0,0.0,0.0,0,0,0,0,0,0,250,250,0,,,,,,,,,,,,,,,,
11083,0,,,,,,,,0.0,0.0,-3.0,0,-0,0,0.0,,24,0,4,25,99,0.5,0.0,105,1.0,13.1,0.0,1,0.0,0.0,0.0,0,0,0,0,0,0,250,250,0,,,,,,,,,,,,,,,,
11103,0,,,,,,,,-0.0,0.0,-3.0,0,-0,0,0.0,,24,0,4,25,99,0.5,0.0,105,0.99,13.1,0.0,1,0.0,0.0,0.0,0,0,0,0,0,0,250,250,0,,,,,,,,,,,,,,,,
11123,0,,,,,,,,-0.0,0.0,-3.0,0,-0,0,0.0,,24,0,4,25,99,0.5,0.0,105,1.0,13.1,0.0,1,0.0,0.0,0.0,0,0,0,0,0,0,250,250,0,,,,,,,,,,,,,,,,
11143,0,11,7,39,38,33,32,0,-0.0,0.0,-3.0,0,-0,0,0.0,0,24,0,4,25,99,0.5,0.0,105,1.0,13.1,0.0,1,0.0,0.0,0.0,0,0,0,0,0,0,250,250,0,0.0,0.0,0.0,0.0,0,0,0.0,0,0.0,-1,0.0,,0.0,0,0.0,0.1857
11163,0,,,,,,,,-0.0,0.0,-3.0,0,-0,0,0.0,,24,0,4,25,99,0.5,0.0,105,0.99,13.1,0.0,1,0.0,0.0,0.0,0,0,0,0,0,0,250,250,0,,,,,,,,,,,,,,,,
11183,0,,,,,,,,0.0,0.0,-3.0,0,-0,0,0.0,,24,0,4,25,99,0.5,0.0,105,1.0,13.1,0.0,1,0.0,0.0,0.0,0,0,0,0,0,0,250,250,0,,,,,,,,,,,,,,,,
11203,0,,,,,,,,0.0,0.0,-3.0,0,-0,0,0.0,,24,0,4,25,99,0.5,0.0,105,1.0,13.1,0.0,1,0.0,0.0,0.0,0,0,0,0,0,0,250,250,0,,,,,,,,,,,,,,,,
11223,0,,,,,,,,0.0,0.0,-3.0,0,-0,0,0.0,,24,0,4,25,99,0.5,0.0,105,0.99,13.1,0.0,1,0.0,0.0,0.0,0,0,0,0,0,0,250,250,0,,,,,,,,,,,,,,,,
11243,0,11,7,39,38,33,32,0,0.0,0.0,-3.0,0,-0,0,0.0,0,24,0,4,25,99,0.5,0.0,105,1.0,13.1,0.0,1,0.0,0.0,0.0,0,0,0,0,0,0,250,250,0,0.0,0.0,0.0,0.0,0,0,0.0,0,0.0,-1,0.0,0.0,0.0,0,0.0,0.1874
11263,0,,,,,,,,0.0,0.0,-3.0,0,-0,0,0.0,,24,0,4,25,99,0.5,0.0,105,0.99,13.1,0.0,1,0.0,0.0,0.0,0,0,0,0,0,0,250,250,0,,,,,,,,,,,,,,,,
11283,0,,,,,,,,0.0,0.0,-3.0,0,-0,0,0.0,,24,0,4,25,99,0.5,0.0,105,1.0,13.1,0.0,1,0.0,0.0,0.0,0,0,0,0,0,0,250,250,0,,,,,,,,,,,,,,,,
11303,0,,,,,,,,0.0,0.0,-3.0,0,-0,0,0.0,,24,0,4,25,99,0.5,0.0,105,1.0,13.1,0.0,1,0.0,0.0,0.0,0,0,0,0,0,0,250,250,0,,,,,,,,,,,,,,,,
11323,0,,,,,,,,0.0,0.0,-3.0,0,-0,0,0.0,,24,0,4,25,99,0.5,0.0,105,0.99,13.1,0.0,1,0.0,0.0,0.0,0,0,0,0,0,0,250,250,0,,,,,,,,,,,,,,,,
11343,0,12,5,39,38,33,32,-0,0.0,0.0,-3.0,0,-0,0,0.0,0,24,0,4,25,99,0.5,0.0,105,1.0,13.1,0.0,1,0.0,0.0,0.0,0,0,0,0,0,0,250,250,0,0.0,0.0,0.0,0.0,0,0,0.0,0,0.0,-1,0.0,,0.0,0,0.0,0.189
11363,0,,,,,,,,0.0,0.0,-3.0,0,-0,0,0.0,,24,0,4,25,99,0.5,0.0,105,1.0,13.1,0.0,1,0.0,0.0,0.0,0,0,0,0,0,0,250,250,0,,,,,,,,,,,,,,,,
11383,0,,,,,,,,0.0,0.0,-3.0,0,-0,0,0.0,,24,0,4,25,99,0.5,0.0,105,1.0,13.1,0.0,1,0.0,0.0,0.0,0,0,0,0,0,0,250,250,0,,,,,,,,,,,,,,,,
11403,0,,,,,,,,0.0,0.0,-3.0,0,-0,0,0.0,,24,0,4,25,99,0.5,0.0,105,1.0,13.1,0.0,1,0.0,0.0,0.0,0,0,0,0,0,0,250,250,0,,,,,,,,,,,,,,,,
11423,0,,,,,,,,0.0,0.0,-3.0,0,-0,0,0.0,,24,0,4,25,99,0.5,0.0,105,1.0,13.1,0.0,1,0.0,0.0,0.0,0,0,0,0,0,0,250,250,0,,,,,,,,,,,,,,,,
11443,0,11,6,39,38,33,32,-1,0.0,0.0,-3.0,0,-0,0,0.0,0,24,0,4,25,99,0.5,0.0,105,1.0,13.1,0.0,1,0.0,0.0,0.0,0,0,0,0,0,0,250,250,0,0.0,0.0,0.0,0.0,0,0,0.0,0,0.0,-1,0.0,0.0,0.0,0,0.0,0.1907
11463,0,,,,,,,,-0.0,0.0,-3.0,0,-0,0,0.0,,24,0,4,25,99,0.5,0.0,105,1.0,13.1,0.0,1,0.0,0.0,0.0,0,0,0,0,0,0,250,250,0,,,,,,,,,,,,,,,,
11483,0,,,,,,,,-0.0,0.0,-3.0,0,-0,0,0.0,,24,0,4,25,99,0.5,0.0,105,1.0,13.1,0.0,1,0.0,0.0,0.0,0,0,0,0,0,0,250,250,0,,,,,,,,,,,,,,,,
11503,0,,,,,,,,-0.0,0.0,-3.0,0,0,0,0.0,,24,0,4,25,99,0.5,0.0,105,0.99,13.1,0.0,1,0.0,0.0,0.0,0,0,0,0,0,0,250,250,0,,,,,,,,,,,,,,,,
11523,0,,,,,,,,-0.0,0.0,-3.0,0,-0,0,0.0,,24,0,4,25,99,0.5,0.0,105,0.99,13.1,0.0,1,0.0,0.0,0.0,0,0,0,0,0,0,250,250,0,,,,,,,,,,,,,,,,
11543,0,11,6,39,38,33,32,0,-0.0,0.0,-3.0,0,0,0,0.0,0,24,0,4,25,99,0.5,0.0,105,1.0,13.1,0.0,1,0.0,0.0,0.0,0,0,0,0,0,0,250,250,0,0.0,0.0,0.0,0.0,0,0,0.0,0,0.0,-1,0.0,,0.0,0,0.0,0.1924
11563,0,,,,,,,,-0.0,0.0,-3.0,0,-0,0,0.0,,24,0,4,25,99,0.5,0.0,105,1.0,13.1,0.0,1,0.0,0.0,0.0,0,0,0,0,0,0,250,250,0,,,,,,,,,,,,,,,,
11583,0,,,,,,,,-0.0,0.0,-3.0,0,0,0,0.0,,24,0,4,25,99,0.5,0.0,105,0.99,13.1,0.0,1,0.0,0.0,0.0,0,0,0,0,0,0,250,250,0,,,,,,,,,,,,,,,,
11603,0,,,,,,,,-0.0,0.0,-3.0,0,0,0,0.0,,24,0,4,25,99,0.5,0.0,105,1.0,13.1,0.0,1,0.0,0.0,0.0,0,0,0,0,0,0,250,250,0,,,,,,,,,,,,,,,,
11623,0,,,,,,,,-0.0,0.0,-3.0,0,-0,0,0.0,,24,0,4,25,99,0.5,0.0,105,1.0,13.1,0.0,1,0.0,0.0,0.0,0,0,0,0,0,0,250,250,0,,,,,,,,,,,,,,,,
11643,0,12,8,39,38,33,32,0,-0.0,0.0,-3.0,0,-0,0,0.0,0,24,0,4,25,99,0.5,0.0,105,1.0,13.1,0.0,1,0.0,0.0,0.0,0,0,0,0,0,0,250,250,0,0.0,0.0,0.0,0.0,0,0,0.0,0,0.0,-1,0.0,0.0,0.0,0,0.0,0.194
11663,0,,,,,,,,0.0,0.0,-3.0,0,-0,0,0.0,,24,0,4,25,99,0.5,0.0,105,1.0,13.1,0.0,1,0.0,0.0,0.0,0,0,0,0,0,0,250,250,0,,,,,,,,,,,,,,,,
11683,0,,,,,,,,-0.0,0.0,-3.0,0,-0,0,0.0,,24,0,4,25,99,0.5,0.0,105,1.0,13.1,0.0,1,0.0,0.0,0.0,0,0,0,0,0,0,250,250,0,,,,,,,,,,,,,,,,
11703,0,,,,,,,,-0.0,0.0,-3.0,0,-0,0,0.0,,24,0,4,25,99,0.5,0.0,105,1.0,13.1,0.0,1,0.0,0.0,0.0,0,0,0,0,0,0,250,250,0,,,,,,,,,,,,,,,,
11723,0,,,,,,,,-0.0,0.0,-3.0,0,-0,0,0.0,,24,0,4,25,99,0.5,0.0,105,1.0,13.1,0.0,1,0.0,0.0,0.0,0,0,0,0,0,0,250,250,0,,,,,,,,,,,,,,,,
11743,0,10,10,39,38,32,32,-0,-0.0,0.0,-3.0,0,-0,0,0.0,0,24,0,4,25,99,0.5,0.0,105,1.0,13.1,0.0,1,0.0,0.0,0.0,0,0,0,0,0,0,250,250,0,0.0,0.0,0.0,0.0,0,0,0.0,0,0.0,-1,0.0,,0.0,0,0.0,0.1957
11763,0,,,,,,,,-0.0,0.0,-3.0,0,-0,0,0.0,,24,0,4,25,99,0.5,0.0,105,0.99,13.1,0.0,1,0.0,0.0,0.0,0,0,0,0,0,0,250,250,0,,,,,,,,,,,,,,,,
11783,0,,,,,,,,-0.0,0.0,-3.0,0,-0,0,0.0,,24,0,4,25,99,0.5,0.0,105,1.0,13.1,0.0,1,0.0,0.0,0.0,0,0,0,0,0,0,250,250,0,,,,,,,,,,,,,,,,
11803,0,,,,,,,,-0.0,0.0,-3.0,0,-0,0,0.0,,24,0,4,25,99,0.5,0.0,105,1.0,13.1,0.0,1,0.0,0.0,0.0,0,0,0,0,0,0,250,250,0,,,,,,,,,,,,,,,,
11823,0,,,,,,,,-0.0,0.0,-3.0,0,-0,0,0.0,,24,0,4,25,99,0.5,0.0,105,1.0,13.1,0.0,1,0.0,0.0,0.0,0,0,0,0,0,0,250,250,0,,,,,,,,,,,,,,,,
11843,0,12,6,39,38,32,32,-0,-0.0,0.0,-3.0,0,-0,0,0.0,0,24,0,4,25,99,0.5,0.0,105,1.0,13.1,0.0,1,0.0,0.0,0.0,0,0,0,0,0,0,250,250,0,0.0,0.0,0.0,0.0,0,0,0.0,0,0.0,-1,0.0,0.0,0.0,0,0.0,0.1974
11863,0,,,,,,,,-0.0,0.0,-3.0,0,0,0,0.0,,24,0,4,25,99,0.5,0.0,105,1.0,13.1,0.0,1,0.0,0.0,0.0,0,0,0,0,0,0,250,250,0,,,,,,,,,,,,,,,,
11883,0,,,,,,,,-0.0,0.0,-3.0,0,-0,0,0.0,,24,0,4,25,99,0.5,0.0,105,1.0,13.1,0.0,1,0.0,0.0,0.0,0,0,0,0,0,0,250,250,0,,,,,,,,,,,,,,,,
11903,0,,,,,,,,-0.0,0.0,-3.0,0,-0,0,0.0,,24,0,4,25,99,0.5,0.0,105,1.0,13.1,0.0,1,0.0,0.0,0.0,0,0,0,0,0,0,250,250,0,,,,,,,,,,,,,,,,
11923,0,,,,,,,,-0.0,0.0,-3.0,0,-0,0,0.0,,24,0,4,25,99,0.5,0.0,105,1.0,13.1,0.0,1,0.0,0.0,0.0,0,0,0,0,0,0,250,250,0,,,,,,,,,,,,,,,,
11943,0,10,7,39,37,33,32,0,-0.0,0.0,-3.0,0,-0,0,0.0,0,24,0,4,25,99,0.5,0.0,105,1.0,13.1,0.0,1,0.0,0.0,0.0,0,0,0,0,0,0,250,250,0,0.0,0.0,0.0,0.0,0,0,0.0,0,0.0,-1,0.0,,0.0,0,0.0,0.199
11963,0,,,,,,,,-0.0,0.0,-3.0,0,0,0,0.0,,24,0,4,25,99,0.5,0.0,105,1.0,13.1,0.0,1,0.0,0.0,0.0,0,0,0,0,0,0,250,250,0,,,,,,,,,,,,,,,,
11983,0,,,,,,,,-0.0,0.0,-3.0,0,0,0,0.0,,24,0,4,25,99,0.5,0.0,105,1.0,13.1,0.0,1,0.0,0.0,0.0,0,0,0,0,0,0,250,250,0,,,,,,,,,,,,,,,,
12003,0,,,,,,,,-0.0,0.0,-3.0,0,0,0,0.0,,24,0,4,25,99,0.5,0.0,105,1.0,13.1,0.0,1,0.0,0.0,0.0,0,0,0,0,0,0,250,250,0,,,,,,,,,,,,,,,,
12023,0,,,,,,,,-0.0,0.0,-3.0,0,-0,0,0.0,,24,0,4,25,99,0.5,0.0,105,1.0,13.1,0.0,1,0.0,0.0,0.0,0,0,0,0,0,0,250,250,0,,,,,,,,,,,,,,,,
12043,0,10,7,39,38,33,32,0,-0.0,0.0,-3.0,0,-0,0,0.0,0,24,0,4,25,99,0.5,0.0,105,1.0,13.1,0.0,1,0.0,0.0,0.0,0,0,0,0,0,0,250,250,0,0.0,0.0,0.0,0.0,0,0,0.0,0,0.0,-1,0.0,0.0,0.0,0,0.0,0.2007
12063,0,,,,,,,,-0.0,0.0,-3.0,0,-0,0,0.0,,24,0,4,25,99,0.5,0.0,105,1.0,13.1,0.0,1,0.0,0.0,0.0,0,0,0,0,0,0,250,250,0,,,,,,,,,,,,,,,,
12083,0,,,,,,,,-0.0,0.0,-3.0,0,-0,0,0.0,,24,0,4,25,99,0.5,0.0,105,1.0,13.1,0.0,1,0.0,0.0,0.0,0,0,0,0,0,0,250,250,0,,,,,,,,,,,,,,,,
12103,0,,,,,,,,-0.0,0.0,-3.0,0,-0,0,0.0,,24,0,4,25,99,0.5,0.0,105,1.0,13.1,0.0,1,0.0,0.0,0.0,0,0,0,0,0,0,250,250,0,,,,,,,,,,,,,,,,
12123,0,,,,,,,,-0.0,0.0,-3.0,0,-0,0,0.0,,24,0,4,25,99,0.5,0.0,105,1.0,13.1,0.0,1,0.0,0.0,0.0,0,0,0,0,0,0,250,250,0,,,,,,,,,,,,,,,,
12143,0,12,7,39,38,33,32,-0,-0.0,0.0,-3.0,0,-0,0,0.0,0,24,0,4,25,99,0.5,0.0,105,1.0,13.1,0.0,1,0.0,0.0,0.0,0,0,0,0,0,0,250,250,0,0.0,0.0,0.0,0.0,0,0,0.0,0,0.0,-1,0.0,,0.0,0,0.0,0.2024
12163,0,,,,,,,,-0.0,0.0,-3.0,0,-0,0,0.0,,24,0,4,25,99,0.5,0.0,105,1.0,13.1,0.0,1,0.0,0.0,0.0,0,0,0,0,0,0,250,250,0,,,,,,,,,,,,,,,,
12183,0,,,,,,,,-0.0,0.0,-3.0,0,-0,0,0.0,,24,0,4,25,99,0.5,0.0,105,1.0,13.1,0.0,1,0.0,0.0,0.0,0,0,0,0,0,0,250,250,0,,,,,,,,,,,,,,,,
12203,0,,,,,,,,-0.0,0.0,-3.0,0,-0,0,0.0,,24,0,4,25,99,0.5,0.0,105,1.0,13.1,0.0,1,0.0,0.0,0.0,0,0,0,0,0,0,250,250,0,,,,,,,,,,,,,,,,
12223,0,,,,,,,,-0.0,0.0,-3.0,0,-0,0,0.0,,24,0,4,25,99,0.5,0.0,105,1.0,13.1,0.0,1,0.0,0.0,0.0,0,0,0,0,0,0,250,250,0,,,,,,,,,,,,,,,,
12243,0,12,6,39,38,32,32,-0,-0.0,0.0,-3.0,0,-0,0,0.0,0,24,0,4,25,99,0.5,0.0,105,1.0,13.1,0.0,1,0.0,0.0,0.0,0,0,0,0,0,0,250,250,0,0.0,0.0,0.0,0.0,0,0,0.0,0,0.0,-1,0.0,0.0,0.0,0,0.0,0.204
12263,0,,,,,,,,-0.0,0.0,-3.0,0,-0,0,0.0,,24,0,4,25,99,0.5,0.0,105,0.99,13.1,0.0,1,0.0,0.0,0.0,0,0,0,0,0,0,250,250,0,,,,,,,,,,,,,,,,
12283,0,,,,,,,,-0.0,0.0,-3.0,0,-0,0,0.0,,24,0,4,25,99,0.5,0.0,105,1.0,13.1,0.0,1,0.0,0.0,0.0,0,0,0,0,0,0,250,250,0,,,,,,,,,,,,,,,,
12303,0,,,,,,,,-0.0,0.0,-3.0,0,-0,0,0.0,,24,0,4,25,99,0.5,0.0,105,1.0,13.1,0.0,1,0.0,0.0,0.0,0,0,0,0,0,0,250,250,0,,,,,,,,,,,,,,,,
12323,0,,,,,,,,-0.0,0.0,-3.0,0,-0,0,0.0,,24,0,4,25,99,0.5,0.0,105,1.0,13.1,0.0,1,0.0,0.0,0.0,0,0,0,0,0,0,250,250,0,,,,,,,,,,,,,,,,
12343,0,11,7,39,38,33,32,1,-0.0,0.0,-3.0,0,-0,0,0.0,0,24,0,4,25,99,0.5,0.0,105,1.0,13.1,0.0,1,0.0,0.0,0.0,0,0,0,0,0,0,250,250,0,0.0,0.0,0.0,0.0,0,0,0.0,0,0.0,-1,0.0,,0.0,0,0.0,0.2057
12363,0,,,,,,,,-0.0,0.0,-3.0,0,-0,0,0.0,,24,0,4,25,99,0.5,0.0,105,1.0,13.1,0.0,1,0.0,0.0,0.0,0,0,0,0,0,0,250,250,0,,,,,,,,,,,,,,,,
12383,0,,,,,,,,-0.0,0.0,-3.0,0,-0,0,0.0,,24,0,4,25,99,0.5,0.0,105,1.0,13.1,0.0,1,0.0,0.0,0.0,0,0,0,0,0,0,250,250,0,,,,,,,,,,,,,,,,
12403,0,,,,,,,,-0.0,0.0,-3.0,0,-0,0,0.0,,24,0,4,25,99,0.5,0.0,105,1.0,13.1,0.0,1,0.0,0.0,0.0,0,0,0,0,0,0,250,250,0,,,,,,,,,,,,,,,,
12423,0,,,,,,,,-0.0,0.0,-3.0,0,-0,0,0.0,,24,0,4,25,99,0.5,0.0,105,1.0,13.1,0.0,1,0.0,0.0,0.0,0,0,0,0,0,0,250,250,0,,,,,,,,,,,,,,,,
12443,0,12,8,39,38,33,32,-0,-0.0,0.0,-3.0,0,-0,0,0.0,0,24,0,4,25,99,0.5,0.0,105,1.0,13.1,0.0,1,0.0,0.0,0.0,0,0,0,0,0,0,250,250,0,0.0,0.0,0.0,0.0,0,0,0.0,0,0.0,-1,0.0,0.0,0.0,0,0.0,0.2074
12463,0,,,,,,,,0.0,0.0,-3.0,0,-0,0,0.0,,24,0,4,25,99,0.5,0.0,105,1.0,13.1,0.0,1,0.0,0.0,0.0,0,0,0,0,0,0,250,250,0,,,,,,,,,,,,,,,,
12483,0,,,,,,,,0.0,0.0,-3.0,0,-0,0,0.0,,24,0,4,25,99,0.5,0.0,105,1.0,13.1,0.0,1,0.0,0.0,0.0,0,0,0,0,0,0,250,250,0,,,,,,,,,,,,,,,,
12503,0,,,,,,,,0.0,0.0,-3.0,0,-0,0,0.0,,24,0,4,25,99,0.5,0.0,105,1.0,13.1,0.0,1,0.0,0.0,0.0,0,0,0,0,0,0,250,250,0,,,,,,,,,,,,,,,,
12523,0,,,,,,,,0.0,0.0,-3.0,0,-0,0,0.0,,24,0,4,25,99,0.5,0.0,105,1.0,13.1,0.0,1,0.0,0.0,0.0,0,0,0,0,0,0,250,250,0,,,,,,,,,,,,,,,,
12543,0,10,7,39,38,32,32,-0,0.0,0.0,-3.0,0,-0,0,0.0,0,24,0,4,25,99,0.5,0.0,105,1.0,13.1,0.0,1,0.0,0.0,0.0,0,0,0,0,0,0,250,250,0,0.0,0.0,0.0,0.0,0,0,0.0,0,0.0,-1,0.0,,0.0,0,0.0,0.209
12563,0,,,,,,,,0.0,0.0,-3.0,0,-0,0,0.0,,24,0,4,25,99,0.5,0.0,105,1.0,13.1,0.0,1,0.0,0.0,0.0,0,0,0,0,0,0,250,250,0,,,,,,,,,,,,,,,,
12583,0,,,,,,,,0.0,0.0,-3.0,0,-0,0,0.0,,24,0,4,25,99,0.5,0.0,105,1.0,13.1,0.0,1,0.0,0.0,0.0,0,0,0,0,0,0,250,250,0,,,,,,,,,,,,,,,,
12603,0,,,,,,,,0.0,0.0,-3.0,0,-0,0,0.0,,24,0,4,25,99,0.5,0.0,105,1.0,13.1,0.0,1,0.0,0.0,0.0,0,0,0,0,0,0,250,250,0,,,,,,,,,,,,,,,,
12623,0,,,,,,,,0.0,0.0,-3.0,0,-0,0,0.0,,24,0,4,25,99,0.5,0.0,105,1.0,13.1,0.0,1,0.0,0.0,0.0,0,0,0,0,0,0,250,250,0,,,,,,,,,,,,,,,,
12643,0,11,6,39,38,33,32,-1,0.0,0.0,-3.0,0,-0,0,0.0,0,24,0,4,25,99,0.5,0.0,105,1.0,13.1,0.0,1,0.0,0.0,0.0,0,0,0,0,0,0,250,250,0,0.0,0.0,0.0,0.0,0,0,0.0,0,0.0,-1,0.0,0.0,0.0,0,0.0,0.2107
12663,0,,,,,,,,0.0,0.0,-3.0,0,-0,0,0.0,,24,0,4,25,99,0.5,0.0,105,1.0,13.1,0.0,1,0.0,0.0,0.0,0,0,0,0,0,0,250,250,0,,,,,,,,,,,,,,,,
12683,0,,,,,,,,0.0,0.0,-3.0,0,-0,0,0.0,,24,0,4,25,99,0.5,0.0,105,1.0,13.1,0.0,1,0.0,0.0,0.0,0,0,0,0,0,0,250,250,0,,,,,,,,,,,,,,,,
12703,0,,,,,,,,0.0,0.0,-3.0,0,-0,0,0.0,,24,0,4,25,99,0.5,0.0,105,0.99,13.1,0.0,1,0.0,0.0,0.0,0,0,0,0,0,0,250,250,0,,,,,,,,,,,,,,,,
12723,0,,,,,,,,0.0,0.0,-3.0,0,-0,0,0.0,,24,0,4,25,99,0.5,0.0,105,1.0,13.1,0.0,1,0.0,0.0,0.0,0,0,0,0,0,0,250,250,0,,,,,,,,,,,,,,,,
12743,0,12,8,39,38,33,32,-0,0.0,0.0,-3.0,0,-0,0,0.0,0,24,0,4,25,99,0.5,0.0,105,1.0,13.1,0.0,1,0.0,0.0,0.0,0,0,0,0,0,0,250,250,0,0.0,0.0,0.0,0.0,0,0,0.0,0,0.0,-1,0.0,,0.0,0,0.0,0.2124
12763,0,,,,,,,,-0.0,0.0,-3.0,0,-0,0,0.0,,24,0,4,25,99,0.5,0.0,105,1.0,13.1,0.0,1,0.0,0.0,0.0,0,0,0,0,0,0,250,250,0,,,,,,,,,,,,,,,,
12783,0,,,,,,,,0.0,0.0,-3.0,0,-0,0,0.0,,24,0,4,25,99,0.5,0.0,105,1.0,13.1,0.0,1,0.0,0.0,0.0,0,0,0,0,0,0,250,250,0,,,,,,,,,,,,,,,,
12803,0,,,,,,,,0.0,0.0,-3.0,0,-0,0,0.0,,24,0,4,25,99,0.5,0.0,105,1.0,13.1,0.0,1,0.0,0.0,0.0,0,0,0,0,0,0,250,250,0,,,,,,,,,,,,,,,,
12823,0,,,,,,,,0.0,0.0,-3.0,0,-0,0,0.0,,24,0,4,25,99,0.5,0.0,105,0.99,13.1,0.0,1,0.0,0.0,0.0,0,0,0,0,0,0,250,250,0,,,,,,,,,,,,,,,,
12843,0,12,6,39,38,32,32,0,-0.0,0.0,-3.0,0,-0,0,0.0,0,24,0,4,25,99,0.5,0.0,105,1.0,13.1,0.0,1,0.0,0.0,0.0,0,0,0,0,0,0,250,250,0,0.0,0.0,0.0,0.0,0,0,0.0,0,0.0,-1,0.0,0.0,0.0,0,0.0,0.214
12863,0,,,,,,,,-0.0,0.0,-3.0,0,-0,0,0.0,,24,0,4,25,99,0.5,0.0,105,1.0,13.1,0.0,1,0.0,0.0,0.0,0,0,0,0,0,0,250,250,0,,,,,,,,,,,,,,,,
12883,0,,,,,,,,-0.0,0.0,-3.0,0,-0,0,0.0,,24,0,4,25,99,0.5,0.0,105,0.99,13.1,0.0,1,0.0,0.0,0.0,0,0,0,0,0,0,250,250,0,,,,,,,,,,,,,,,,
12903,0,,,,,,,,0.0,0.0,-3.0,0,-0,0,0.0,,24,0,4,25,99,0.5,0.0,105,1.0,13.1,0.0,1,0.0,0.0,0.0,0,0,0,0,0,0,250,250,0,,,,,,,,,,,,,,,,
12923,0,,,,,,,,0.0,0.0,-3.0,0,-0,0,0.0,,24,0,4,25,99,0.5,0.0,105,1.0,13.1,0.0,1,0.0,0.0,0.0,0,0,0,0,0,0,250,250,0,,,,,,,,,,,,,,,,
12943,0,12,5,39,38,32,32,-0,0.0,0.0,-3.0,0,-0,0,0.0,0,24,0,4,25,99,0.5,0.0,105,1.0,13.1,0.0,1,0.0,0.0,0.0,0,0,0,0,0,0,250,250,0,0.0,0.0,0.0,0.0,0,0,0.0,0,0.0,-1,0.0,,0.0,0,0.0,0.2157
12963,0,,,,,,,,0.0,0.0,-3.0,0,-0,0,0.0,,24,0,4,25,99,0.5,0.0,105,1.0,13.1,0.0,1,0.0,0.0,0.0,0,0,0,0,0,0,250,250,0,,,,,,,,,,,,,,,,
12983,0,,,,,,,,0.0,0.0,-3.0,0,-0,0,0.0,,24,0,4,25,99,0.5,0.0,105,1.0,13.1,0.0,1,0.0,0.0,0.0,0,0,0,0,0,0,250,250,0,,,,,,,,,,,,,,,,
13003,0,,,,,,,,0.0,0.0,-3.0,0,-0,0,0.0,,24,0,4,25,99,0.5,0.0,105,1.0,13.1,0.0,1,0.0,0.0,0.0,0,0,0,0,0,0,250,250,0,,,,,,,,,,,,,,,,
13023,0,,,,,,,,0.0,0.0,-3.0,0,-0,0,0.0,,24,0,4,25,99,0.5,0.0,105,1.0,13.1,0.0,1,0.0,0.0,0.0,0,0,0,0,0,0,250,250,0,,,,,,,,,,,,,,,,
13043,0,11,8,39,38,33,32,0,0.0,0.0,-3.0,0,-0,0,0.0,0,24,0,4,25,99,0.5,0.0,105,0.99,13.1,0.0,1,0.0,0.0,0.0,0,0,0,0,0,0,250,250,0,0.0,0.0,0.0,0.0,0,0,0.0,0,0.0,-1,0.0,0.0,0.0,0,0.0,0.2174
13063,0,,,,,,,,0.0,0.0,-3.0,0,-0,0,0.0,,24,0,4,25,99,0.5,0.0,105,1.0,13.1,0.0,1,0.0,0.0,0.0,0,0,0,0,0,0,250,250,0,,,,,,,,,,,,,,,,
13083,0,,,,,,,,0.0,0.0,-3.0,0,-0,0,0.0,,24,0,4,25,99,0.5,0.0,105,1.0,13.1,0.0,1,0.0,0.0,0.0,0,0,0,0,0,0,250,250,0,,,,,,,,,,,,,,,,
13103,0,,,,,,,,0.0,0.0,-3.0,0,-0,0,0.0,,24,0,4,25,99,0.5,0.0,105,1.0,13.1,0.0,1,0.0,0.0,0.0,0,0,0,0,0,0,250,250,0,,,,,,,,,,,,,,,,
13123,0,,,,,,,,0.0,0.0,-3.0,0,-0,0,0.0,,24,0,4,25,99,0.5,0.0,105,0.99,13.1,0.0,1,0.0,0.0,0.0,0,0,0,0,0,0,250,250,0,,,,,,,,,,,,,,,,
13143,0,12,5,39,38,33,32,1,0.0,0.0,-3.0,0,-0,0,0.0,0,24,0,4,25,99,0.5,0.0,105,1.0,13.1,0.0,1,0.0,0.0,0.0,0,0,0,0,0,0,250,250,0,0.0,0.0,0.0,0.0,0,0,0.0,0,0.0,-1,0.0,,0.0,0,0.0,0.219
13163,0,,,,,,,,-0.0,0.0,-3.0,0,-0,0,0.0,,24,0,4,25,99,0.5,0.0,105,1.0,13.1,0.0,1,0.0,0.0,0.0,0,0,0,0,0,0,250,250,0,,,,,,,,,,,,,,,,
13183,0,,,,,,,,0.0,0.0,-3.0,0,-0,0,0.0,,24,0,4,25,99,0.5,0.0,105,1.0,13.1,0.0,1,0.0,0.0,0.0,0,0,0,0,0,0,250,250,0,,,,,,,,,,,,,,,,
13203,0,,,,,,,,0.0,0.0,-3.0,0,-0,0,0.0,,24,0,4,25,99,0.5,0.0,105,1.0,13.1,0.0,1,0.0,0.0,0.0,0,0,0,0,0,0,250,250,0,,,,,,,,,,,,,,,,
13223,0,,,,,,,,0.0,0.0,-3.0,0,-0,0,0.0,,24,0,4,25,99,0.5,0.0,105,1.0,13.1,0.0,1,0.0,0.0,0.0,0,0,0,0,0,0,250,250,0,,,,,,,,,,,,,,,,
13243,0,12,5,39,38,33,32,-1,0.0,0.0,-3.0,0,-0,0,0.0,0,24,0,4,25,99,0.5,0.0,105,1.0,13.1,0.0,1,0.0,0.0,0.0,0,0,0,0,0,0,250,250,0,0.0,0.0,0.0,0.0,0,0,0.0,0,0.0,-1,0.0,0.0,0.0,0,0.0,0.2207
13263,0,,,,,,,,0.0,0.0,-3.0,0,-0,0,0.0,,24,0,4,25,99,0.5,0.0,105,1.0,13.1,0.0,1,0.0,0.0,0.0,0,0,0,0,0,0,250,250,0,,,,,,,,,,,,,,,,
13283,0,,,,,,,,0.0,0.0,-3.0,0,-0,0,0.0,,24,0,4,25,99,0.5,0.0,105,0.99,13.1,0.0,1,0.0,0.0,0.0,0,0,0,0,0,0,250,250,0,,,,,,,,,,,,,,,,
13303,0,,,,,,,,0.0,0.0,-3.0,0,-0,0,0.0,,24,0,4,25,99,0.5,0.0,105,1.0,13.1,0.0,1,0.0,0.0,0.0,0,0,0,0,0,0,250,250,0,,,,,,,,,,,,,,,,
13323,0,,,,,,,,0.0,0.0,-3.0,0,-0,0,0.0,,24,0,4,25,99,0.5,0.0,105,1.0,13.1,0.0,1,0.0,0.0,0.0,0,0,0,0,0,0,250,250,0,,,,,,,,,,,,,,,,
13343,0,12,5,39,38,33,32,0,0.0,0.0,-3.0,0,-0,0,0.0,0,24,0,4,25,99,0.5,0.0,105,1.0,13.1,0.0,1,0.0,0.0,0.0,0,0,0,0,0,0,250,250,0,0.0,0.0,0.0,0.0,0,0,0.0,0,0.0,-1,0.0,,0.0,0,0.0,0.2224
13363,0,,,,,,,,0.0,0.0,-3.0,0,-0,0,0.0,,24,0,4,25,99,0.5,0.0,105,0.99,13.1,0.0,1,0.0,0.0,0.0,0,0,0,0,0,0,250,250,0,,,,,,,,,,,,,,,,
13383,0,,,,,,,,0.0,0.0,-3.0,0,-0,0,0.0,,24,0,4,25,99,0.5,0.0,105,1.0,13.1,0.0,1,0.0,0.0,0.0,0,0,0,0,0,0,250,250,0,,,,,,,,,,,,,,,,
13403,0,,,,,,,,0.0,0.0,-3.0,0,-0,0,0.0,,24,0,4,25,99,0.5,0.0,105,1.0,13.1,0.0,1,0.0,0.0,0.0,0,0,0,0,0,0,250,250,0,,,,,,,,,,,,,,,,
13423,0,,,,,,,,0.0,0.0,-3.0,0,-0,0,0.0,,24,0,4,25,99,0.5,0.0,105,1.0,13.1,0.0,1,0.0,0.0,0.0,0,0,0,0,0,0,250,250,0,,,,,,,,,,,,,,,,
13443,0,10,6,39,38,32,32,0,0.0,0.0,-3.0,0,-0,0,0.0,0,24,0,4,25,99,0.5,0.0,105,1.0,13.1,0.0,1,0.0,0.0,0.0,0,0,0,0,0,0,250,250,0,0.0,0.0,0.0,0.0,0,0,0.0,0,0.0,-1,0.0,0.0,0.0,0,0.0,0.224
13463,0,,,,,,,,0.0,0.0,-3.0,0,-0,0,0.0,,24,0,4,25,99,0.5,0.0,105,1.0,13.1,0.0,1,0.0,0.0,0.0,0,0,0,0,0,0,250,250,0,,,,,,,,,,,,,,,,
13483,0,,,,,,,,0.0,0.0,-3.0,0,-0,0,0.0,,24,0,4,25,99,0.5,0.0,105,1.0,13.1,0.0,1,0.0,0.0,0.0,0,0,0,0,0,0,250,250,0,,,,,,,,,,,,,,,,
13503,0,,,,,,,,-0.0,0.0,-3.0,0,-0,0,0.0,,24,0,4,25,99,0.5,0.0,105,1.0,13.1,0.0,1,0.0,0.0,0.0,0,0,0,0,0,0,250,250,0,,,,,,,,,,,,,,,,
13523,0,,,,,,,,-0.0,0.0,-3.0,0,-0,0,0.0,,24,0,4,25,99,0.5,0.0,105,1.0,13.1,0.0,1,0.0,0.0,0.0,0,0,0,0,0,0,250,250,0,,,,,,,,,,,,,,,,
13543,0,10,8,39,38,33,32,0,-0.0,0.0,-3.0,0,-0,0,0.0,0,24,0,4,25,99,0.5,0.0,105,1.0,13.1,0.0,1,0.0,0.0,0.0,0,0,0,0,0,0,250,250,0,0.0,0.0,0.0,0.0,0,0,0.0,0,0.0,-1,0.0,,0.0,0,0.0,0.2257
13563,0,,,,,,,,-0.0,0.0,-3.0,0,-0,0,0.0,,24,0,4,25,99,0.5,0.0,105,1.0,13.1,0.0,1,0.0,0.0,0.0,0,0,0,0,0,0,250,250,0,,,,,,,,,,,,,,,,
13583,0,,,,,,,,-0.0,0.0,-3.0,0,-0,0,0.0,,24,0,4,25,99,0.5,0.0,105,1.0,13.1,0.0,1,0.0,0.0,0.0,0,0,0,0,0,0,250,250,0,,,,,,,,,,,,,,,,
13603,0,,,,,,,,-0.0,0.0,-3.0,0,0,0,0.0,,24,0,4,25,99,0.5,0.0,105,1.0,13.1,0.0,1,0.0,0.0,0.0,0,0,0,0,0,0,250,250,0,,,,,,,,,,,,,,,,
13623,0,,,,,,,,-0.0,0.0,-3.0,0,0,0,0.0,,24,0,4,25,99,0.5,0.0,105,1.0,13.1,0.0,1,0.0,0.0,0.0,0,0,0,0,0,0,250,250,0,,,,,,,,,,,,,,,,
13643,0,10,6,39,38,32,32,-0,-0.0,0.0,-3.0,0,0,0,0.0,0,24,0,4,25,99,0.5,0.0,105,1.0,13.1,0.0,1,0.0,0.0,0.0,0,0,0,0,0,0,250,250,0,0.0,0.0,0.0,0.0,0,0,0.0,0,0.0,-1,0.0,0.0,0.0,0,0.0,0.2274
13663,0,,,,,,,,0.0,0.0,-3.0,0,0,0,0.0,,24,0,4,25,99,0.5,0.0,105,1.0,13.1,0.0,1,0.0,0.0,0.0,0,0,0,0,0,0,250,250,0,,,,,,,,,,,,,,,,
13683,0,,,,,,,,0.0,0.0,-3.0,0,0,0,0.0,,24,0,4,25,99,0.5,0.0,105,1.0,13.1,0.0,1,0.0,0.0,0.0,0,0,0,0,0,0,250,250,0,,,,,,,,,,,,,,,,
13703,0,,,,,,,,0.0,0.0,-3.0,0,0,0,0.0,,24,0,4,25,99,0.5,0.0,105,1.0,13.1,0.0,1,0.0,0.0,0.0,0,0,0,0,0,0,250,250,0,,,,,,,,,,,,,,,,
13723,0,,,,,,,,0.0,0.0,-3.0,0,0,0,0.0,,24,0,4,25,99,0.5,0.0,105,1.0,13.1,0.0,1,0.0,0.0,0.0,0,0,0,0,0,0,250,250,0,,,,,,,,,,,,,,,,
13743,0,12,7,39,38,32,32,0,0.0,0.0,-3.0,0,0,0,0.0,0,24,0,4,25,99,0.5,0.0,105,1.0,13.1,0.0,1,0.0,0.0,0.0,0,0,0,0,0,0,250,250,0,0.0,0.0,0.0,0.0,0,0,0.0,0,0.0,-1,0.0,,0.0,0,0.0,0.229
13763,0,,,,,,,,0.0,0.0,-3.0,0,0,0,0.0,,24,0,4,25,99,0.5,0.0,105,0.99,13.1,0.0,1,0.0,0.0,0.0,0,0,0,0,0,0,250,250,0,,,,,,,,,,,,,,,,
13783,0,,,,,,,,0.0,0.0,-3.0,0,-0,0,0.0,,24,0,4,25,99,0.5,0.0,105,1.0,13.1,0.0,1,0.0,0.0,0.0,0,0,0,0,0,0,250,250,0,,,,,,,,,,,,,,,,
13803,0,,,,,,,,0.0,0.0,-3.0,0,0,0,0.0,,24,0,4,25,99,0.5,0.0,105,1.0,13.1,0.0,1,0.0,0.0,0.0,0,0,0,0,0,0,250,250,0,,,,,,,,,,,,,,,,
13823,0,,,,,,,,0.0,0.0,-3.0,0,-0,0,0.0,,24,0,4,25,99,0.5,0.0,105,1.0,13.1,0.0,1,0.0,0.0,0.0,0,0,0,0,0,0,250,250,0,,,,,,,,,,,,,,,,
13843,0,12,7,39,38,33,32,-0,-0.0,0.0,-3.0,0,0,0,0.0,0,24,0,4,25,99,0.5,0.0,105,1.0,13.1,0.0,1,0.0,0.0,0.0,0,0,0,0,0,0,250,250,0,0.0,0.0,0.0,0.0,0,0,0.0,0,0.0,-1,0.0,0.0,0.0,0,0.0,0.2307
13863,0,,,,,,,,0.0,0.0,-3.0,0,0,0,0.0,,24,0,4,25,99,0.5,0.0,105,1.0,13.1,0.0,1,0.0,0.0,0.0,0,0,0,0,0,0,250,250,0,,,,,,,,,,,,,,,,
13883,0,,,,,,,,0.0,0.0,-3.0,0,0,0,0.0,,24,0,4,25,99,0.5,0.0,105,1.0,13.1,0.0,1,0.0,0.0,0.0,0,0,0,0,0,0,250,250,0,,,,,,,,,,,,,,,,
13903,0,,,,,,,,0.0,0.0,-3.0,0,0,0,0.0,,24,0,4,25,99,0.5,0.0,105,1.0,13.1,0.0,1,0.0,0.0,0.0,0,0,0,0,0,0,250,250,0,,,,,,,,,,,,,,,,
13923,0,,,,,,,,0.0,0.0,-3.0,0,-0,0,0.0,,24,0,4,25,99,0.5,0.0,105,1.0,13.1,0.0,1,0.0,0.0,0.0,0,0,0,0,0,0,250,250,0,,,,,,,,,,,,,,,,
13943,0,12,6,39,38,32,32,0,-0.0,0.0,-3.0,0,0,0,0.0,0,24,0,4,25,99,0.5,0.0,105,1.0,13.1,0.0,1,0.0,0.0,0.0,0,0,0,0,0,0,250,250,0,0.0,0.0,0.0,0.0,0,0,0.0,0,0.0,-1,0.0,,0.0,0,0.0,0.2324
13963,0,,,,,,,,-0.0,0.0,-3.0,0,0,0,0.0,,24,0,4,25,99,0.5,0.0,105,1.0,13.1,0.0,1,0.0,0.0,0.0,0,0,0,0,0,0,250,250,0,,,,,,,,,,,,,,,,
13983,0,,,,,,,,-0.0,0.0,-3.0,0,0,0,0.0,,24,0,4,25,99,0.5,0.0,105,1.0,13.1,0.0,1,0.0,0.0,0.0,0,0,0,0,0,0,250,250,0,,,,,,,,,,,,,,,,
14003,0,,,,,,,,-0.0,0.0,-3.0,0,0,0,0.0,,24,0,4,25,99,0.5,0.0,105,1.0,13.1,0.0,1,0.0,0.0,0.0,0,0,0,0,0,0,250,250,0,,,,,,,,,,,,,,,,
14023,0,,,,,,,,-0.0,0.0,-3.0,0,0,0,0.0,,24,0,4,25,99,0.5,0.0,105,0.99,13.1,0.0,1,0.0,0.0,0.0,0,0,0,0,0,0,250,250,0,,,,,,,,,,,,,,,,
14043,0,11,5,39,38,32,32,-1,-0.0,0.0,-3.0,0,0,0,0.0,0,24,0,4,25,99,0.5,0.0,105,1.0,13.1,0.0,1,0.0,0.0,0.0,0,0,0,0,0,0,250,250,0,0.0,0.0,0.0,0.0,0,0,0.0,0,0.0,-1,0.0,0.0,0.0,0,0.0,0.234
14063,0,,,,,,,,-0.0,0.0,-3.0,0,0,0,0.0,,24,0,4,25,99,0.5,0.0,105,1.0,13.1,0.0,1,0.0,0.0,0.0,0,0,0,0,0,0,250,250,0,,,,,,,,,,,,,,,,
14083,0,,,,,,,,-0.0,0.0,-3.0,0,0,0,0.0,,24,0,4,25,99,0.5,0.0,105,1.0,13.1,0.0,1,0.0,0.0,0.0,0,0,0,0,0,0,250,250,0,,,,,,,,,,,,,,,,
14103,0,,,,,,,,-0.0,0.0,-3.0,0,-0,0,0.0,,24,0,4,25,99,0.5,0.0,105,1.0,13.1,0.0,1,0.0,0.0,0.0,0,0,0,0,0,0,250,250,0,,,,,,,,,,,,,,,,
14123,0,,,,,,,,-0.0,0.0,-3.0,0,-0,0,0.0,,24,0,4,25,99,0.5,0.0,105,1.0,13.1,0.0,1,0.0,0.0,0.0,0,0,0,0,0,0,250,250,0,,,,,,,,,,,,,,,,
14143,0,11,7,39,38,33,32,-0,-0.0,0.0,-3.0,0,-0,0,0.0,0,24,0,4,25,99,0.5,0.0,105,1.0,13.1,0.0,1,0.0,0.0,0.0,0,0,0,0,0,0,250,250,0,0.0,0.0,0.0,0.0,0,0,0.0,0,0.0,-1,0.0,,0.0,0,0.0,0.2357
14163,0,,,,,,,,-0.0,0.0,-3.0,0,-0,0,0.0,,24,0,4,25,99,0.5,0.0,105,1.0,13.1,0.0,1,0.0,0.0,0.0,0,0,0,0,0,0,250,250,0,,,,,,,,,,,,,,,,
14183,0,,,,,,,,0.0,0.0,-3.0,0,-0,0,0.0,,24,0,4,25,99,0.5,0.0,105,1.0,13.1,0.0,1,0.0,0.0,0.0,0,0,0,0,0,0,250,250,0,,,,,,,,,,,,,,,,
14203,0,,,,,,,,0.0,0.0,-3.0,0,-0,0,0.0,,24,0,4,25,99,0.5,0.0,105,1.0,13.1,0.0,1,0.0,0.0,0.0,0,0,0,0,0,0,250,250,0,,,,,,,,,,,,,,,,
14223,0,,,,,,,,0.0,0.0,-3.0,0,-0,0,0.0,,24,0,4,25,99,0.5,0.0,105,1.0,13.1,0.0,1,0.0,0.0,0.0,0,0,0,0,0,0,250,250,0,,,,,,,,,,,,,,,,
14243,0,12,6,39,38,33,32,-1,0.0,0.0,-3.0,0,-0,0,0.0,0,24,0,4,25,99,0.5,0.0,105,1.0,13.1,0.0,1,0.0,0.0,0.0,0,0,0,0,0,0,250,250,0,0.0,0.0,0.0,0.0,0,0,0.0,0,0.0,-1,0.0,0.0,0.0,0,0.0,0.2374
14263,0,,,,,,,,0.0,0.0,-3.0,0,-0,0,0.0,,24,0,4,25,99,0.5,0.0,105,0.99,13.1,0.0,1,0.0,0.0,0.0,0,0,0,0,0,0,250,250,0,,,,,,,,,,,,,,,,
14283,0,,,,,,,,0.0,0.0,-3.0,0,-0,0,0.0,,24,0,4,25,99,0.5,0.0,105,1.0,13.1,0.0,1,0.0,0.0,0.0,0,0,0,0,0,0,250,250,0,,,,,,,,,,,,,,,,
14303,0,,,,,,,,0.0,0.0,-3.0,0,-0,0,0.0,,24,0,4,25,99,0.5,0.0,105,1.0,13.1,0.0,1,0.0,0.0,0.0,0,0,0,0,0,0,250,250,0,,,,,,,,,,,,,,,,
14323,0,,,,,,,,-0.0,0.0,-3.0,0,-0,0,0.0,,24,0,4,25,99,0.5,0.0,105,1.0,13.1,0.0,1,0.0,0.0,0.0,0,0,0,0,0,0,250,250,0,,,,,,,,,,,,,,,,
14343,0,12,7,39,38,33,32,-0,0.0,0.0,-3.0,0,-0,0,0.0,0,24,0,4,25,99,0.5,0.0,105,1.0,13.1,0.0,1,0.0,0.0,0.0,0,0,0,0,0,0,250,250,0,0.0,0.0,0.0,0.0,0,0,0.0,0,0.0,-1,0.0,,0.0,0,0.0,0.239
14363,0,,,,,,,,-0.0,0.0,-3.0,0,-0,0,0.0,,24,0,4,25,99,0.5,0.0,105,1.0,13.1,0.0,1,0.0,0.0,0.0,0,0,0,0,0,0,250,250,0,,,,,,,,,,,,,,,,
14383,0,,,,,,,,-0.0,0.0,-3.0,0,-0,0,0.0,,24,0,4,25,99,0.5,0.0,105,1.0,13.1,0.0,1,0.0,0.0,0.0,0,0,0,0,0,0,250,250,0,,,,,,,,,,,,,,,,
14403,0,,,,,,,,-0.0,0.0,-3.0,0,-0,0,0.0,,24,0,4,25,99,0.5,0.0,105,0.99,13.1,0.0,1,0.0,0.0,0.0,0,0,0,0,0,0,250,250,0,,,,,,,,,,,,,,,,
14423,0,,,,,,,,-0.0,0.0,-3.0,0,-0,0,0.0,,24,0,4,25,99,0.5,0.0,105,1.0,13.1,0.0,1,0.0,0.0,0.0,0,0,0,0,0,0,250,250,0,,,,,,,,,,,,,,,,
14443,0,11,8,39,38,33,32,0,-0.0,0.0,-3.0,0,-0,0,0.0,0,24,0,4,25,99,0.5,0.0,105,1.0,13.1,0.0,1,0.0,0.0,0.0,0,0,0,0,0,0,250,250,0,0.0,0.0,0.0,0.0,0,0,0.0,0,0.0,-1,0.0,0.0,0.0,0,0.0,0.2407
14463,0,,,,,,,,-0.0,0.0,-3.0,0,-0,0,0.0,,24,0,4,25,99,0.5,0.0,105,1.0,13.1,0.0,1,0.0,0.0,0.0,0,0,0,0,0,0,250,250,0,,,,,,,,,,,,,,,,
14483,0,,,,,,,,-0.0,0.0,-3.0,0,-0,0,0.0,,24,0,4,25,99,0.5,0.0,105,0.99,13.1,0.0,1,0.0,0.0,0.0,0,0,0,0,0,0,250,250,0,,,,,,,,,,,,,,,,
14503,0,,,,,,,,-0.0,0.0,-3.0,0,-0,0,0.0,,24,0,4,25,99,0.5,0.0,105,1.0,13.1,0.0,1,0.0,0.0,0.0,0,0,0,0,0,0,250,250,0,,,,,,,,,,,,,,,,
14523,0,,,,,,,,-0.0,0.0,-3.0,0,-0,0,0.0,,24,0,4,25,99,0.5,0.0,105,1.0,13.1,0.0,1,0.0,0.0,0.0,0,0,0,0,0,0,250,250,0,,,,,,,,,,,,,,,,
14543,0,11,7,39,38,33,32,-0,-0.0,0.0,-3.0,0,-0,0,0.0,1,24,0,4,25,99,0.5,0.0,105,1.0,13.1,0.0,1,0.0,0.0,0.0,0,0,0,0,0,0,250,250,0,0.0,0.0,0.0,0.0,0,0,0.0,0,0.0,-1,0.0,,0.0,0,0.0,0.2424
14563,0,,,,,,,,-0.0,0.0,-3.0,0,-0,0,0.0,,24,0,4,25,99,0.5,0.0,105,1.0,13.1,0.0,1,0.0,0.0,0.0,0,0,0,0,0,0,250,250,0,,,,,,,,,,,,,,,,
14583,0,,,,,,,,-0.0,0.0,-3.0,0,-0,0,0.0,,24,0,4,25,99,0.5,0.0,105,1.0,13.1,0.0,1,0.0,0.0,0.0,0,0,0,0,0,0,250,250,0,,,,,,,,,,,,,,,,
14603,0,,,,,,,,-0.0,0.0,-3.0,0,-0,0,0.0,,24,0,4,25,99,0.5,0.0,105,1.0,13.1,0.0,1,0.0,0.0,0.0,0,0,0,0,0,0,250,250,0,,,,,,,,,,,,,,,,
14623,0,,,,,,,,-0.0,0.0,-3.0,0,-0,0,0.0,,24,0,4,25,99,0.5,0.0,105,1.0,13.1,0.0,1,0.0,0.0,0.0,0,0,0,0,0,0,250,250,0,,,,,,,,,,,,,,,,
14643,0,11,7,39,38,33,32,-0,-0.0,0.0,-3.0,0,-0,0,0.0,1,24,0,4,25,99,0.5,0.0,105,1.0,13.1,0.0,1,0.0,0.0,0.0,0,0,0,0,0,0,250,250,0,0.0,0.0,0.0,0.0,0,0,0.0,0,0.0,-1,0.0,0.0,0.0,0,0.0,0.244
14663,0,,,,,,,,-0.0,0.0,-3.0,0,-0,0,0.0,,24,0,4,25,99,0.5,0.0,105,1.0,13.1,0.0,1,0.0,0.0,0.0,0,0,0,0,0,0,250,250,0,,,,,,,,,,,,,,,,
14683,0,,,,,,,,-0.0,0.0,-3.0,0,0,0,0.0,,24,0,4,25,99,0.5,0.0,105,1.0,13.1,0.0,1,0.0,0.0,0.0,0,0,0,0,0,0,250,250,0,,,,,,,,,,,,,,,,
14703,0,,,,,,,,-0.0,0.0,-3.0,0,-0,0,0.0,,24,0,4,25,99,0.5,0.0,105,1.0,13.1,0.0,1,0.0,0.0,0.0,0,0,0,0,0,0,250,250,0,,,,,,,,,,,,,,,,
14723,0,,,,,,,,-0.0,0.0,-3.0,0,0,0,0.0,,24,0,4,25,99,0.5,0.0,105,1.0,13.1,0.0,1,0.0,0.0,0.0,0,0,0,0,0,0,250,250,0,,,,,,,,,,,,,,,,
14743,0,10,7,39,38,33,32,0,-0.0,0.0,-3.0,0,-0,0,0.0,1,24,0,4,25,99,0.5,0.0,105,1.0,13.1,0.0,1,0.0,0.0,0.0,0,0,0,0,0,0,250,250,0,0.0,0.0,0.0,0.0,0,0,0.0,0,0.0,-1,0.0,,0.0,0,0.0,0.2457
14763,0,,,,,,,,-0.0,0.0,-3.0,0,0,0,0.0,,24,0,4,25,99,0.5,0.0,105,1.0,13.1,0.0,1,0.0,0.0,0.0,0,0,0,0,0,0,250,250,0,,,,,,,,,,,,,,,,
14783,0,,,,,,,,-0.0,0.0,-3.0,0,-0,0,0.0,,24,0,4,25,99,0.5,0.0,105,1.0,13.1,0.0,1,0.0,0.0,0.0,0,0,0,0,0,0,250,250,0,,,,,,,,,,,,,,,,
14803,0,,,,,,,,-0.0,0.0,-3.0,0,0,0,0.0,,24,0,4,25,99,0.5,0.0,105,0.99,13.1,0.0,1,0.0,0.0,0.0,0,0,0,0,0,0,250,250,0,,,,,,,,,,,,,,,,
14823,0,,,,,,,,-0.0,0.0,-3.0,0,0,0,0.0,,24,0,4,25,99,0.5,0.0,105,1.0,13.1,0.0,1,0.0,0.0,0.0,0,0,0,0,0,0,250,250,0,,,,,,,,,,,,,,,,
14843,0,11,8,39,38,33,32,-1,-0.0,0.0,-3.0,0,0,0,0.0,1,24,0,4,25,99,0.5,0.0,105,1.0,13.1,0.0,1,0.0,0.0,0.0,0,0,0,0,0,0,250,250,0,0.0,0.0,0.0,0.0,0,0,0.0,0,0.0,-1,0.0,0.0,0.0,0,0.0,0.2474
14863,0,,,,,,,,-0.0,0.0,-3.0,0,0,0,0.0,,24,0,4,25,99,0.5,0.0,105,1.0,13.1,0.0,1,0.0,0.0,0.0,0,0,0,0,0,0,250,250,0,,,,,,,,,,,,,,,,
14883,0,,,,,,,,-0.0,0.0,-3.0,0,0,0,0.0,,24,0,4,25,99,0.5,0.0,105,1.0,13.1,0.0,1,0.0,0.0,0.0,0,0,0,0,0,0,250,250,0,,,,,,,,,,,,,,,,
14903,0,,,,,,,,-0.0,0.0,-3.0,0,0,0,0.0,,24,0,4,25,99,0.5,0.0,105,1.0,13.1,0.0,1,0.0,0.0,0.0,0,0,0,0,0,0,250,250,0,,,,,,,,,,,,,,,,
14923,0,,,,,,,,-0.0,0.0,-3.0,0,0,0,0.0,,24,0,4,25,99,0.5,0.0,105,1.0,13.1,0.0,1,0.0,0.0,0.0,0,0,0,0,0,0,250,250,0,,,,,,,,,,,,,,,,
14943,0,12,5,39,38,32,32,-1,-0.0,0.0,-3.0,0,-0,0,0.0,1,24,0,4,25,99,0.5,0.0,105,1.0,13.1,0.0,1,0.0,0.0,0.0,0,0,0,0,0,0,250,250,0,0.0,0.0,0.0,0.0,0,0,0.0,0,0.0,-1,0.0,,0.0,0,0.0,0.249
14963,0,,,,,,,,-0.0,0.0,-3.0,0,-0,0,0.0,,24,0,4,25,99,0.5,0.0,105,1.0,13.1,0.0,1,0.0,0.0,0.0,0,0,0,0,0,0,250,250,0,,,,,,,,,,,,,,,,
14983,0,,,,,,,,-0.0,0.0,-3.0,0,-0,0,0.0,,24,0,4,25,99,0.5,0.0,105,1.0,13.1,0.0,1,0.0,0.0,0.0,0,0,0,0,0,0,250,250,0,,,,,,,,,,,,,,,,
15003,0,,,,,,,,-0.0,0.0,-3.0,0,-0,0,0.0,,24,0,4,25,99,0.5,0.0,105,1.0,13.1,0.0,1,0.0,0.0,0.0,0,0,0,0,0,0,250,250,0,,,,,,,,,,,,,,,,
15023,0,,,,,,,,-0.0,0.0,-3.0,0,0,0,0.0,,24,0,4,25,99,0.5,0.0,105,1.0,13.1,0.0,1,0.0,0.0,0.0,0,0,0,0,0,0,250,250,0,,,,,,,,,,,,,,,,
15043,0,11,7,39,38,33,32,0,-0.0,0.0,-3.0,0,0,0,0.0,1,24,0,4,25,99,0.5,0.0,105,1.0,13.1,0.0,1,0.0,0.0,0.0,0,0,0,0,0,0,250,250,0,0.0,0.0,0.0,0.0,0,0,0.0,0,0.0,-1,0.0,0.0,0.0,0,0.0,0.2507
