"Interval"|"ms"|0|0|1,"Utc"|"ms"|0|0|1,"Brake_F"|"Bar"|0|2000|10,"Brake_R"|"Bar"|0|2000|10,"Height_RF"|"mm"|0|255|10,"Height_LF"|"mm"|0|255|10,"Height_LR"|"mm"|0|80|10,"Height_RR"|"mm"|0|255|10,"Steering"|"deg"|-100|100|10,"AccelX"|"G"|-3.0|3.0|50,"AccelY"|"G"|-3.0|3.0|50,"AccelZ"|"G"|-3.0|3.0|50,"Yaw"|"Deg/Sec"|-120|120|50,"Pitch"|"Deg/Sec"|-120|120|50,"Roll"|"Deg/Sec"|-120|120|50,"Gsum"|"G"|0.0|3.0|50,"Log_Button"|""|0.0|10.0|10,"WaterTemp"|"C"|0|150|50,"RPM"|"tr/min"|0|14000|50,"TPS"|"%"|0|100|50,"AirTemp"|"C"|0|150|50,"MAP"|"KPa"|0|100|50,"Lambda"|""|0.5|1.5|50,"SpeedDTA"|"kph"|0.0|250.0|50,"OilPress"|"KPa"|0|1500|50,"FuelPressur"|"Bar"|0.0|10.0|50,"Batterie"|"V"|0.0|20.0|50,"ConsoKm"|"L/100km"|0.0|200.0|50,"Gear"|""|0|6|50,"AdvIgnition"|"Deg"|-20.0|70.0|50,"Injection"|"ms"|0.0|10.0|50,"ConsoHr"|"L/Hr"|0.0|10000.0|50,"LC_But_Pres"|""|0|1|50,"LC_Active"|""|0|1|50,"TractionOn"|""|0|1|50,"TractionWet"|""|0|1|50,"FanOn"|""|0|1|50,"RD_Speed"|"km/h"|-30|250|50,"RUD_Speed"|"km/h"|-30|250|50,"LD_Speed"|"km/h"|-30|250|50,"LUD_Speed"|"km/h"|-30|250|50,"Latitude"|"Degrees"|-180.0|180.0|10,"Longitude"|"Degrees"|-180.0|180.0|10,"Speed"|"kph"|0.0|150.0|10,"Altitude"|"m"|0.0|4000.0|10,"GPSSats"|""|0|20|10,"GPSQual"|""|0|5|10,"GPSDOP"|""|0.0|20.0|10,"LapCount"|""|0|0|10,"LapTime"|"Min"|0.0|0.0|10,"Sector"|""|0|0|10,"SectorTime"|"Min"|0.0|0.0|10,"PredTime"|"Min"|0.0|0.0|5,"ElapsedTime"|"Min"|0.0|0.0|10,"CurrentLap"|""|0|0|10,"Distance"|"km"|0.0|0.0|10,"SessionTime"|"Min"|0.0|0.0|10
19063,0,,,,,,,,-0.09,-0.27,-2.23,1,-3,-3,0.29,,66,8903,14,42,37,0.5,0.0,686,4.87,13.2,0.0,1,31.4,2.6,10.7,0,0,0,1,0,0,250,250,0,,,,,,,,,,,,,,,,
19083,0,,,,,,,,-0.07,-0.24,-2.18,1,-3,-1,0.25,,66,8886,14,42,37,0.5,0.0,686,4.87,13.2,0.0,1,31.4,2.6,10.7,0,0,0,1,0,0,250,250,0,,,,,,,,,,,,,,,,
19103,0,,,,,,,,-0.04,-0.29,-2.18,1,-4,0,0.29,,66,8886,14,42,37,0.5,0.0,685,4.88,13.1,0.0,1,31.4,2.6,10.7,0,0,0,1,0,0,250,250,0,,,,,,,,,,,,,,,,
19123,0,,,,,,,,0.01,-0.2,-2.3,1,-3,2,0.2,,66,8869,14,42,37,0.5,0.0,682,4.88,13.2,0.0,1,31.4,2.6,10.7,0,0,0,1,0,0,250,250,0,,,,,,,,,,,,,,,,
19143,0,-1,2,33,34,34,34,-68,0.02,-0.16,-2.42,1,-2,1,0.16,0,66,8819,14,42,37,0.5,0.0,674,4.85,13.2,0.0,1,31.1,2.56,10.7,0,0,0,1,0,0,250,250,0,0.0,0.0,0.0,0.0,0,0,0.0,0,0.0,-1,0.0,,0.0,0,0.0,0.3191
19163,0,,,,,,,,0.04,-0.03,-2.55,0,-2,1,0.05,,66,8819,14,42,37,0.5,0.0,674,4.85,13.2,0.0,1,31.4,2.6,10.7,0,0,0,1,0,0,250,250,0,,,,,,,,,,,,,,,,
19183,0,,,,,,,,0.03,0.01,-2.45,0,-2,-1,0.03,,66,8745,14,42,37,0.5,0.0,674,4.87,13.2,0.0,1,31.4,1.53,10.7,0,0,0,1,0,0,250,250,0,,,,,,,,,,,,,,,,
19203,0,,,,,,,,-0.01,-0.04,-2.32,0,-3,-2,0.05,,66,8745,14,42,37,0.5,0.0,674,4.87,13.2,0.0,1,31.4,1.53,10.7,0,0,0,1,0,0,250,250,0,,,,,,,,,,,,,,,,
19223,0,,,,,,,,-0.02,-0.08,-2.23,0,-2,-1,0.08,,66,8729,14,42,37,0.5,0.0,680,4.88,13.2,0.0,1,31.4,2.6,10.5,0,0,0,1,0,0,250,250,0,,,,,,,,,,,,,,,,
19243,0,0,1,33,36,34,34,-69,-0.02,-0.07,-2.38,0,-1,1,0.07,0,66,8648,14,42,37,0.5,0.0,676,4.87,13.2,0.0,1,31.4,1.53,10.5,0,0,0,1,0,0,250,250,0,0.0,0.0,0.0,0.0,0,0,0.0,0,0.0,-1,0.0,0.0,0.0,0,0.0,0.3207
19263,0,,,,,,,,-0.01,-0.04,-2.51,0,-1,-1,0.04,,66,8495,14,42,38,0.5,0.0,671,4.88,13.2,0.0,1,31.6,1.56,10.5,0,0,0,1,0,0,250,250,0,,,,,,,,,,,,,,,,
19283,0,,,,,,,,-0.01,-0.04,-2.43,0,-1,-1,0.04,,66,8495,14,42,38,0.5,0.0,671,4.88,13.2,0.0,1,31.6,1.56,10.5,0,0,0,1,0,0,250,250,0,,,,,,,,,,,,,,,,
19303,0,,,,,,,,-0.02,-0.08,-2.56,0,-1,-0,0.08,,66,8348,14,42,38,0.5,0.0,673,4.85,13.2,0.0,1,31.3,2.5,10.5,0,0,0,1,0,0,250,250,0,,,,,,,,,,,,,,,,
19323,0,,,,,,,,-0.0,-0.0,-2.34,0,-0,1,0.0,,66,7978,14,42,40,0.5,0.0,663,4.89,13.3,0.0,1,31.3,1.31,9.5,0,0,0,1,0,0,250,250,0,,,,,,,,,,,,,,,,
19343,0,0,2,33,36,34,34,-69,0.01,-0.06,-2.36,0,-1,-1,0.06,0,66,7978,14,42,40,0.5,0.0,663,4.89,13.3,0.0,1,31.6,2.26,9.5,0,0,0,1,0,0,250,250,0,0.0,0.0,0.0,0.0,0,0,0.0,0,0.0,-1,0.0,,0.0,0,0.0,0.3224
19363,0,,,,,,,,-0.02,-0.07,-2.5,0,-1,-0,0.08,,66,7864,14,41,41,0.5,0.0,654,4.87,13.3,0.0,1,32.2,1.18,9.5,0,0,0,1,0,0,250,250,0,,,,,,,,,,,,,,,,
19383,0,,,,,,,,-0.06,-0.06,-2.62,0,2,3,0.09,,66,7725,14,41,42,0.5,0.0,656,4.88,13.2,0.0,1,32.8,1.18,9.5,0,0,0,1,0,0,250,250,0,,,,,,,,,,,,,,,,
19403,0,,,,,,,,-0.08,0.02,-2.74,0,2,4,0.08,,66,7725,14,41,43,0.5,0.0,650,4.9,13.2,0.0,1,33.3,2.27,9.5,0,0,0,1,0,0,250,250,0,,,,,,,,,,,,,,,,
19423,0,,,,,,,,-0.03,0.08,-2.51,0,1,3,0.09,,66,7805,14,41,44,0.5,0.0,656,4.87,13.1,0.0,1,34.0,1.19,8.1,0,0,0,1,0,0,250,250,0,,,,,,,,,,,,,,,,
19443,0,0,3,33,34,34,34,-69,0.01,0.08,-2.31,0,-1,-1,0.08,0,66,7805,14,41,44,0.5,0.0,656,4.87,13.1,0.0,1,34.0,1.19,8.1,0,0,0,1,0,0,250,250,0,0.0,0.0,0.0,0.0,0,0,0.0,0,0.0,-1,0.0,0.0,0.0,0,0.0,0.324
19463,0,,,,,,,,-0.0,0.01,-2.39,0,-1,-2,0.01,,66,7858,14,41,44,0.5,0.0,661,4.89,13.3,0.0,1,34.1,1.2,8.1,0,0,0,1,0,0,250,250,0,,,,,,,,,,,,,,,,
19483,0,,,,,,,,-0.02,0.04,-2.52,0,1,1,0.04,,66,8050,14,41,44,0.5,0.0,657,4.87,13.2,0.0,1,34.3,1.2,8.1,0,0,0,1,0,0,250,250,0,,,,,,,,,,,,,,,,
19503,0,,,,,,,,-0.0,0.09,-2.31,0,-1,-2,0.09,,66,8050,14,41,44,0.5,0.0,657,4.87,13.2,0.0,1,34.5,2.34,8.1,0,0,0,1,0,0,250,250,0,,,,,,,,,,,,,,,,
19523,0,,,,,,,,-0.0,0.05,-2.45,0,-1,-1,0.05,,66,8220,14,41,43,0.5,0.0,664,4.88,13.2,0.0,1,33.9,1.32,8.7,0,0,0,1,0,0,250,250,0,,,,,,,,,,,,,,,,
19543,0,0,0,33,34,34,34,-69,-0.01,0.05,-2.25,0,-2,-3,0.05,0,66,8220,14,41,43,0.5,0.0,664,4.88,13.2,0.0,1,34.0,1.44,8.7,0,0,0,1,0,0,250,250,0,0.0,0.0,0.0,0.0,0,0,0.0,0,0.0,-1,0.0,,0.0,0,0.0,0.3257
19563,0,,,,,,,,-0.01,-0.07,-2.39,0,0,-0,0.07,,66,8449,13,41,41,0.5,0.0,671,4.9,13.2,0.0,1,33.0,1.61,8.7,0,0,0,1,0,0,250,250,0,,,,,,,,,,,,,,,,
19583,0,,,,,,,,-0.01,-0.01,-2.48,0,0,-1,0.02,,66,8514,12,41,41,0.5,0.0,671,4.9,13.2,0.0,1,33.0,1.61,8.7,0,0,0,1,0,0,250,250,0,,,,,,,,,,,,,,,,
19603,0,,,,,,,,-0.01,-0.06,-2.4,0,-0,-1,0.06,,66,8514,12,41,40,0.5,0.0,674,4.88,13.3,0.0,1,32.6,2.7,8.7,0,0,0,1,0,0,250,250,0,,,,,,,,,,,,,,,,
19623,0,,,,,,,,0.03,-0.14,-2.51,0,-0,-0,0.14,,66,8608,11,41,38,0.5,0.0,673,4.89,13.2,0.0,1,31.7,1.57,10.6,0,0,0,1,0,0,250,250,0,,,,,,,,,,,,,,,,
19643,0,-1,2,33,35,34,34,-69,0.03,0.0,-2.56,0,-0,-0,0.03,0,66,8608,11,41,38,0.5,0.0,673,4.89,13.2,0.0,1,31.7,2.64,10.6,0,0,0,1,0,0,250,250,0,0.0,0.0,0.0,0.0,0,0,0.0,0,0.0,-1,0.0,0.0,0.0,0,0.0,0.3274
19663,0,,,,,,,,-0.0,0.04,-2.35,0,-1,-2,0.04,,66,8652,11,41,35,0.5,0.0,673,4.85,13.3,0.0,1,31.4,1.53,10.6,0,0,0,1,0,0,250,250,0,,,,,,,,,,,,,,,,
19683,0,,,,,,,,-0.02,-0.07,-2.22,0,-1,-2,0.08,,66,8652,11,41,35,0.5,0.0,673,4.85,13.3,0.0,1,30.8,2.51,10.6,0,0,0,1,0,0,250,250,0,,,,,,,,,,,,,,,,
19703,0,,,,,,,,-0.0,-0.1,-2.37,0,0,0,0.1,,66,8589,11,41,34,0.5,0.0,673,4.9,13.1,0.0,1,30.8,2.51,10.6,0,0,0,1,0,0,250,250,0,,,,,,,,,,,,,,,,
19723,0,,,,,,,,-0.0,0.02,-2.51,0,1,0,0.02,,66,8589,11,41,34,0.5,0.0,673,4.9,13.1,0.0,1,30.5,2.48,10.0,0,0,0,1,0,0,250,250,0,,,,,,,,,,,,,,,,
19743,0,-0,2,33,33,34,34,-69,-0.0,0.08,-2.31,0,-1,-1,0.08,0,66,8434,11,41,34,0.5,0.0,672,4.88,13.2,0.0,1,30.5,2.48,10.0,0,0,0,1,0,0,250,250,0,0.0,0.0,0.0,0.0,0,0,0.0,0,0.0,-1,0.0,,0.0,0,0.0,0.329
19763,0,,,,,,,,-0.01,0.0,-2.45,0,0,0,0.01,,66,8434,11,41,34,0.5,0.0,672,4.87,13.2,0.0,1,30.3,1.33,10.0,0,0,0,1,0,0,250,250,0,,,,,,,,,,,,,,,,
19783,0,,,,,,,,0.01,0.07,-2.25,0,-2,-3,0.07,,66,8081,11,41,35,0.5,0.0,665,4.91,13.3,0.0,1,30.0,2.25,10.0,0,0,0,1,0,0,250,250,0,,,,,,,,,,,,,,,,
19803,0,,,,,,,,-0.03,-0.03,-2.39,0,0,-2,0.04,,66,8081,11,41,35,0.5,0.0,665,4.91,13.3,0.0,1,29.9,1.04,10.0,0,0,0,1,0,0,250,250,0,,,,,,,,,,,,,,,,
19823,0,,,,,,,,-0.07,-0.0,-2.53,0,1,-0,0.07,,66,7878,11,41,36,0.5,0.0,660,4.88,13.2,0.0,1,30.1,2.1,7.6,0,0,0,1,0,0,250,250,0,,,,,,,,,,,,,,,,
19843,0,-1,2,33,33,34,34,-69,-0.09,0.1,-2.65,0,2,1,0.14,0,66,7455,11,41,38,0.5,0.0,651,4.88,13.2,0.0,1,30.4,2.15,7.6,0,0,0,1,0,0,250,250,0,0.0,0.0,0.0,0.0,0,0,0.0,0,0.0,-1,0.0,0.0,0.0,0,0.0,0.3307
19863,0,,,,,,,,-0.13,0.16,-2.76,0,3,3,0.21,,66,7455,11,41,38,0.5,0.0,651,4.88,13.2,0.0,1,30.7,1.11,7.6,0,0,0,1,0,0,250,250,0,,,,,,,,,,,,,,,,
19883,0,,,,,,,,-0.18,0.13,-2.86,0,4,3,0.23,,66,7312,11,41,39,0.5,0.0,648,4.89,13.3,0.0,1,31.0,2.26,7.6,0,0,0,1,0,0,250,250,0,,,,,,,,,,,,,,,,
19903,0,,,,,,,,-0.17,0.12,-2.65,0,2,1,0.2,,66,7244,11,41,40,0.5,0.0,638,4.88,13.2,0.0,1,31.3,2.26,7.6,0,0,0,1,0,0,250,250,0,,,,,,,,,,,,,,,,
19923,0,,,,,,,,-0.1,0.1,-2.43,0,1,-0,0.14,,66,7175,11,41,40,0.5,0.0,653,4.89,13.2,0.0,1,31.3,2.26,7.5,0,0,0,1,0,0,250,250,0,,,,,,,,,,,,,,,,
19943,0,-1,0,34,35,34,34,-69,-0.06,0.14,-2.48,0,0,0,0.15,0,66,7200,11,41,41,0.5,0.0,645,4.89,13.2,0.0,1,31.3,2.25,7.5,0,0,0,1,0,0,250,250,0,0.0,0.0,0.0,0.0,0,0,0.0,0,0.0,-1,0.0,,0.0,0,0.0,0.3324
19963,0,,,,,,,,-0.09,0.15,-2.6,0,2,3,0.17,,66,7200,11,41,41,0.5,0.0,645,4.89,13.3,0.0,1,31.7,2.25,7.5,0,0,0,1,0,0,250,250,0,,,,,,,,,,,,,,,,
19983,0,,,,,,,,-0.14,0.11,-2.72,0,4,3,0.17,,66,7231,11,41,41,0.5,0.0,655,4.9,13.1,0.0,1,31.7,1.16,7.5,0,0,0,1,0,0,250,250,0,,,,,,,,,,,,,,,,
20003,0,,,,,,,,-0.15,0.11,-2.62,0,2,1,0.18,,66,7253,11,41,41,0.5,0.0,643,4.9,13.2,0.0,1,31.8,1.16,7.5,0,0,0,1,0,0,250,250,0,,,,,,,,,,,,,,,,
20023,0,,,,,,,,-0.13,0.07,-2.46,0,1,-0,0.15,,66,7312,11,41,41,0.5,0.0,650,4.88,13.3,0.0,1,31.8,1.17,7.5,0,0,0,1,0,0,250,250,0,,,,,,,,,,,,,,,,
20043,0,0,1,36,37,34,34,-68,-0.08,0.02,-2.25,0,-0,-1,0.09,0,66,7312,11,41,41,0.5,0.0,650,4.88,13.4,0.0,1,31.8,1.17,7.5,0,0,0,1,0,0,250,250,0,0.0,0.0,0.0,0.0,0,0,0.0,0,0.0,-1,0.0,0.0,0.0,0,0.0,0.334
20063,0,,,,,,,,-0.02,0.01,-2.1,0,-2,-3,0.02,,66,7347,11,41,41,0.5,0.0,653,4.88,13.2,0.0,1,31.8,1.17,7.5,0,0,0,1,0,0,250,250,0,,,,,,,,,,,,,,,,
20083,0,,,,,,,,0.01,0.0,-2.09,0,-2,-2,0.01,,66,7390,11,41,41,0.5,0.0,650,4.88,13.2,0.0,1,31.8,2.26,7.5,0,0,0,1,0,0,250,250,0,,,,,,,,,,,,,,,,
20103,0,,,,,,,,0.03,0.01,-2.24,0,-2,-1,0.03,,66,7419,11,41,41,0.5,0.0,650,4.88,13.3,0.0,1,31.9,2.26,7.5,0,0,0,1,0,0,250,250,0,,,,,,,,,,,,,,,,
20123,0,,,,,,,,0.03,0.04,-2.29,0,-2,-1,0.05,,66,7419,11,41,41,0.5,0.0,662,4.87,13.2,0.0,1,31.9,2.26,7.7,0,0,0,1,0,0,250,250,0,,,,,,,,,,,,,,,,
20143,0,-0,4,36,38,34,34,-69,0.03,0.05,-2.43,0,-1,0,0.06,0,66,7461,11,41,41,0.5,0.0,655,4.87,13.2,0.0,1,31.9,2.26,7.7,0,0,0,1,0,0,250,250,0,0.0,0.0,0.0,0.0,0,0,0.0,0,0.0,-1,0.0,,0.0,0,0.0,0.3357
20163,0,,,,,,,,0.01,0.04,-2.56,0,-0,2,0.04,,66,7461,11,41,41,0.5,0.0,646,4.88,13.2,0.0,1,31.9,2.26,7.7,0,0,0,1,0,0,250,250,0,,,,,,,,,,,,,,,,
20183,0,,,,,,,,-0.01,0.09,-2.68,0,1,3,0.09,,66,7497,11,41,41,0.5,0.0,653,4.87,13.2,0.0,1,31.9,2.26,7.7,0,0,0,1,0,0,250,250,0,,,,,,,,,,,,,,,,
20203,0,,,,,,,,-0.0,0.15,-2.76,0,1,4,0.15,,66,7497,11,41,41,0.5,0.0,653,4.87,13.2,0.0,1,31.9,2.26,7.7,0,0,0,1,0,0,250,250,0,,,,,,,,,,,,,,,,
20223,0,,,,,,,,-0.01,0.2,-2.87,0,2,4,0.2,,66,7515,11,41,41,0.5,0.0,653,4.88,13.2,0.0,1,32.0,2.26,7.8,0,0,0,1,0,0,250,250,0,,,,,,,,,,,,,,,,
20243,0,0,0,36,38,34,34,-68,-0.03,0.19,-2.96,0,3,6,0.19,0,66,7515,11,41,41,0.5,0.0,653,4.88,13.2,0.0,1,32.0,2.26,7.8,0,0,0,1,0,0,250,250,0,0.0,0.0,0.0,0.0,0,0,0.0,0,0.0,-1,0.0,0.0,0.0,0,0.0,0.3374
20263,0,,,,,,,,-0.04,0.24,-3.05,1,3,6,0.24,,66,7588,11,41,41,0.5,0.0,660,4.9,13.2,0.0,1,32.0,2.26,7.8,0,0,0,1,0,0,250,250,0,,,,,,,,,,,,,,,,
20283,0,,,,,,,,0.02,0.17,-2.79,1,2,5,0.18,,66,7606,12,41,41,0.5,0.0,660,4.9,13.2,0.0,1,32.0,2.26,7.8,0,0,0,1,0,0,250,250,0,,,,,,,,,,,,,,,,
20303,0,,,,,,,,0.07,0.13,-2.56,1,1,4,0.15,,66,7615,12,41,41,0.5,0.0,662,4.9,13.2,0.0,1,32.0,1.17,7.9,0,0,0,1,0,0,250,250,0,,,,,,,,,,,,,,,,
20323,0,,,,,,,,0.09,0.06,-2.34,1,-1,2,0.11,,66,7618,12,41,41,0.5,0.0,651,4.9,13.2,0.0,1,32.0,1.17,7.9,0,0,0,1,0,0,250,250,0,,,,,,,,,,,,,,,,
20343,0,-1,0,36,38,34,34,-69,0.06,0.0,-2.42,1,-2,0,0.06,0,66,7618,12,41,41,0.5,0.0,651,4.87,13.3,0.0,1,32.0,2.26,7.9,0,0,0,1,0,0,250,250,0,0.0,0.0,0.0,0.0,0,0,0.0,0,0.0,-1,0.0,,0.0,0,0.0,0.339
20363,0,,,,,,,,0.02,-0.02,-2.55,0,-3,-1,0.02,,66,7656,12,41,41,0.5,0.0,655,4.91,13.3,0.0,1,32.1,1.17,7.9,0,0,0,1,0,0,250,250,0,,,,,,,,,,,,,,,,
20383,0,,,,,,,,-0.02,-0.04,-2.67,0,-3,-2,0.05,,66,7656,12,41,41,0.5,0.0,655,4.91,13.3,0.0,1,32.1,1.17,7.9,0,0,0,1,0,0,250,250,0,,,,,,,,,,,,,,,,
20403,0,,,,,,,,-0.06,-0.01,-2.78,0,-2,-2,0.07,,67,7674,12,41,41,0.5,0.0,648,4.88,13.3,0.0,1,32.1,1.17,7.9,0,0,0,1,0,0,250,250,0,,,,,,,,,,,,,,,,
20423,0,,,,,,,,-0.06,0.06,-2.87,0,-0,0,0.09,,67,7700,12,41,41,0.5,0.0,655,4.88,13.2,0.0,1,32.1,1.17,8.0,0,0,0,1,0,0,250,250,0,,,,,,,,,,,,,,,,
20443,0,0,2,36,38,34,34,-69,-0.02,0.09,-2.77,0,1,2,0.09,0,67,7700,12,41,41,0.5,0.0,650,4.87,13.3,0.0,1,32.1,2.26,8.0,0,0,0,1,0,0,250,250,0,0.0,0.0,0.0,0.0,0,0,0.0,0,0.0,-1,0.0,0.0,0.0,0,0.0,0.3407
20463,0,,,,,,,,0.03,0.1,-2.53,0,1,3,0.1,,67,7716,12,41,41,0.5,0.0,660,4.88,13.2,0.0,1,32.1,1.17,8.0,0,0,0,1,0,0,250,250,0,,,,,,,,,,,,,,,,
20483,0,,,,,,,,0.05,0.03,-2.47,1,0,2,0.05,,67,7725,12,41,41,0.5,0.0,664,4.88,13.3,0.0,1,32.1,2.26,8.0,0,0,0,1,0,0,250,250,0,,,,,,,,,,,,,,,,
20503,0,,,,,,,,0.05,-0.02,-2.5,0,-2,-0,0.05,,67,7725,12,41,41,0.5,0.0,664,4.87,13.3,0.0,1,32.1,2.26,8.0,0,0,0,1,0,0,250,250,0,,,,,,,,,,,,,,,,
20523,0,,,,,,,,-0.01,-0.06,-2.63,0,-1,-2,0.07,,67,7735,12,41,41,0.5,0.0,659,4.9,13.3,0.0,1,32.1,1.17,8.1,0,0,0,1,0,0,250,250,0,,,,,,,,,,,,,,,,
20543,0,0,1,36,38,34,34,-70,-0.06,-0.05,-2.74,0,-1,-1,0.08,0,67,7760,12,41,40,0.5,0.0,663,4.9,13.3,0.0,1,32.1,1.17,8.1,0,0,0,1,0,0,250,250,0,0.0,0.0,0.0,0.0,0,0,0.0,0,0.0,-1,0.0,,0.0,0,0.0,0.3424
20563,0,,,,,,,,-0.05,0.04,-2.73,0,1,1,0.06,,67,7760,12,41,40,0.5,0.0,663,4.88,13.2,0.0,1,31.6,1.17,8.1,0,0,0,1,0,0,250,250,0,,,,,,,,,,,,,,,,
20583,0,,,,,,,,-0.01,0.09,-2.5,0,1,2,0.09,,67,7783,12,41,41,0.5,0.0,660,4.87,13.3,0.0,1,32.2,2.26,8.1,0,0,0,1,0,0,250,250,0,,,,,,,,,,,,,,,,
20603,0,,,,,,,,0.02,0.07,-2.29,0,-0,0,0.07,,67,7802,12,41,40,0.5,0.0,660,4.88,13.2,0.0,1,31.6,1.17,8.1,0,0,0,1,0,0,250,250,0,,,,,,,,,,,,,,,,
20623,0,,,,,,,,0.0,0.01,-2.43,0,-1,-1,0.01,,67,7802,12,41,40,0.5,0.0,660,4.89,13.3,0.0,1,31.6,1.17,8.1,0,0,0,1,0,0,250,250,0,,,,,,,,,,,,,,,,
20643,0,0,1,36,38,34,34,-69,-0.04,0.03,-2.56,0,-0,0,0.05,0,67,7805,11,41,40,0.5,0.0,658,4.89,13.3,0.0,1,31.6,1.17,8.1,0,0,0,1,0,0,250,250,0,0.0,0.0,0.0,0.0,0,0,0.0,0,0.0,-1,0.0,0.0,0.0,0,0.0,0.344
20663,0,,,,,,,,-0.04,0.07,-2.68,0,2,3,0.08,,67,7805,11,41,40,0.5,0.0,658,4.87,13.2,0.0,1,31.6,1.17,8.1,0,0,0,1,0,0,250,250,0,,,,,,,,,,,,,,,,
20683,0,,,,,,,,-0.01,0.09,-2.57,0,2,3,0.1,,67,7786,11,41,40,0.5,0.0,658,4.86,13.3,0.0,1,31.6,2.26,8.1,0,0,0,1,0,0,250,250,0,,,,,,,,,,,,,,,,
20703,0,,,,,,,,0.04,0.04,-2.36,0,0,1,0.06,,67,7805,11,41,39,0.5,0.0,663,4.9,13.3,0.0,1,31.0,2.26,8.1,0,0,0,1,0,0,250,250,0,,,,,,,,,,,,,,,,
20723,0,,,,,,,,0.01,-0.03,-2.49,0,-1,-2,0.03,,67,7786,11,41,39,0.5,0.0,661,4.88,13.3,0.0,1,31.0,1.17,8.1,0,0,0,1,0,0,250,250,0,,,,,,,,,,,,,,,,
20743,0,-1,0,36,38,33,34,-69,-0.03,-0.03,-2.62,0,-1,-2,0.04,0,67,7776,11,41,40,0.5,0.0,663,4.87,13.3,0.0,1,31.0,1.17,8.1,0,0,0,1,0,0,250,250,0,0.0,0.0,0.0,0.0,0,0,0.0,0,0.0,-1,0.0,,0.0,0,0.0,0.3457
20763,0,,,,,,,,-0.03,0.04,-2.73,0,1,1,0.05,,67,7776,11,41,40,0.5,0.0,663,4.87,13.3,0.0,1,31.6,1.17,8.1,0,0,0,1,0,0,250,250,0,,,,,,,,,,,,,,,,
20783,0,,,,,,,,-0.01,0.07,-2.62,0,2,2,0.07,,67,7754,11,41,39,0.5,0.0,660,4.89,13.3,0.0,1,31.0,2.26,8.1,0,0,0,1,0,0,250,250,0,,,,,,,,,,,,,,,,
20803,0,,,,,,,,0.03,0.1,-2.4,0,1,2,0.1,,67,7763,11,41,39,0.5,0.0,662,4.88,13.2,0.0,1,31.0,2.26,8.1,0,0,0,1,0,0,250,250,0,,,,,,,,,,,,,,,,
20823,0,,,,,,,,0.03,0.03,-2.38,0,-0,0,0.04,,67,7722,11,41,39,0.5,0.0,667,4.88,13.3,0.0,1,31.0,1.17,8.1,0,0,0,1,0,0,250,250,0,,,,,,,,,,,,,,,,
20843,0,-0,2,36,38,34,34,-68,0.03,-0.01,-2.47,0,-1,-2,0.03,0,67,7700,11,41,39,0.5,0.0,652,4.9,13.4,0.0,1,31.0,1.17,8.1,0,0,0,1,0,0,250,250,0,0.0,0.0,0.0,0.0,0,0,0.0,0,0.0,-1,0.0,0.0,0.0,0,0.0,0.3474
20863,0,,,,,,,,-0.02,-0.04,-2.6,0,0,-2,0.05,,67,7731,11,41,39,0.5,0.0,662,4.9,13.4,0.0,1,31.0,1.17,8.1,0,0,0,1,0,0,250,250,0,,,,,,,,,,,,,,,,
20883,0,,,,,,,,-0.06,-0.02,-2.72,0,1,-1,0.07,,67,7731,11,41,39,0.5,0.0,662,4.9,13.3,0.0,1,31.0,1.17,8.1,0,0,0,1,0,0,250,250,0,,,,,,,,,,,,,,,,
20903,0,,,,,,,,-0.06,0.04,-2.73,0,2,1,0.07,,67,7735,11,41,39,0.5,0.0,657,4.86,13.2,0.0,1,31.0,1.17,8.1,0,0,0,1,0,0,250,250,0,,,,,,,,,,,,,,,,
20923,0,,,,,,,,-0.02,0.07,-2.56,0,2,2,0.07,,67,7735,11,41,40,0.5,0.0,653,4.9,13.2,0.0,1,31.5,2.26,8.0,0,0,0,1,0,0,250,250,0,,,,,,,,,,,,,,,,
20943,0,0,2,36,38,34,34,-68,0.03,0.11,-2.35,0,1,1,0.11,0,67,7716,11,41,39,0.5,0.0,658,4.86,13.3,0.0,1,31.0,1.17,8.0,0,0,0,1,0,0,250,250,0,0.0,0.0,0.0,0.0,0,0,0.0,0,0.0,-1,0.0,,0.0,0,0.0,0.349
20963,0,,,,,,,,0.03,0.02,-2.37,0,0,0,0.03,,67,7706,11,41,39,0.5,0.0,661,4.9,13.3,0.0,1,31.0,2.26,8.0,0,0,0,1,0,0,250,250,0,,,,,,,,,,,,,,,,
20983,0,,,,,,,,0.0,-0.01,-2.5,0,-1,-1,0.01,,67,7703,11,41,39,0.5,0.0,651,4.88,13.3,0.0,1,31.0,1.17,8.0,0,0,0,1,0,0,250,250,0,,,,,,,,,,,,,,,,
21003,0,,,,,,,,-0.04,-0.06,-2.63,0,0,-1,0.07,,67,7706,11,41,40,0.5,0.0,658,4.87,13.3,0.0,1,31.0,1.17,8.0,0,0,0,1,0,0,250,250,0,,,,,,,,,,,,,,,,
21023,0,,,,,,,,-0.07,-0.04,-2.74,0,1,-0,0.08,,67,7706,11,41,40,0.5,0.0,658,4.87,13.3,0.0,1,31.5,1.17,8.0,0,0,0,1,0,0,250,250,0,,,,,,,,,,,,,,,,
21043,0,-1,2,36,38,34,34,-69,-0.07,0.04,-2.8,0,2,1,0.08,0,67,7709,11,41,40,0.5,0.0,658,4.88,13.3,0.0,1,31.5,2.26,8.0,0,0,0,1,0,0,250,250,0,0.0,0.0,0.0,0.0,0,0,0.0,0,0.0,-1,0.0,0.0,0.0,0,0.0,0.3507
21063,0,,,,,,,,-0.03,0.07,-2.67,0,2,2,0.08,,67,7716,11,41,40,0.5,0.0,658,4.88,13.3,0.0,1,31.5,2.26,8.0,0,0,0,1,0,0,250,250,0,,,,,,,,,,,,,,,,
21083,0,,,,,,,,0.01,0.1,-2.44,0,1,2,0.1,,67,7697,11,41,39,0.5,0.0,661,4.86,13.2,0.0,1,31.0,2.26,8.0,0,0,0,1,0,0,250,250,0,,,,,,,,,,,,,,,,
21103,0,,,,,,,,0.03,0.05,-2.4,0,1,1,0.06,,67,7684,11,41,39,0.5,0.0,663,4.88,13.2,0.0,1,31.0,2.26,8.0,0,0,0,1,0,0,250,250,0,,,,,,,,,,,,,,,,
21123,0,,,,,,,,0.05,0.0,-2.33,0,-1,-1,0.05,,67,7681,11,41,39,0.5,0.0,656,4.9,13.3,0.0,1,31.0,2.26,8.0,0,0,0,1,0,0,250,250,0,,,,,,,,,,,,,,,,
21143,0,-0,2,36,38,34,34,-68,0.02,-0.03,-2.47,0,-1,-2,0.04,0,67,7671,11,41,39,0.5,0.0,653,4.9,13.3,0.0,1,31.0,1.17,8.0,0,0,0,1,0,0,250,250,0,0.0,0.0,0.0,0.0,0,0,0.0,0,0.0,-1,0.0,,0.0,0,0.0,0.3524
21163,0,,,,,,,,-0.02,-0.07,-2.6,0,-1,-3,0.08,,67,7662,11,41,39,0.5,0.0,653,4.9,13.3,0.0,1,31.0,1.17,8.0,0,0,0,1,0,0,250,250,0,,,,,,,,,,,,,,,,
21183,0,,,,,,,,-0.05,-0.04,-2.71,0,0,-1,0.06,,67,7662,11,41,40,0.5,0.0,652,4.87,13.3,0.0,1,31.5,2.26,8.0,0,0,0,1,0,0,250,250,0,,,,,,,,,,,,,,,,
21203,0,,,,,,,,-0.06,0.01,-2.82,0,1,1,0.06,,67,7678,11,41,40,0.5,0.0,651,4.86,13.2,0.0,1,31.5,2.26,8.0,0,0,0,1,0,0,250,250,0,,,,,,,,,,,,,,,,
21223,0,,,,,,,,-0.04,0.03,-2.87,0,2,3,0.05,,67,7687,11,41,40,0.5,0.0,658,4.9,13.2,0.0,1,31.5,1.17,8.0,0,0,0,1,0,0,250,250,0,,,,,,,,,,,,,,,,
21243,0,0,0,36,38,34,34,-68,-0.0,0.06,-2.8,0,2,2,0.06,0,67,7690,11,41,39,0.5,0.0,653,4.9,13.2,0.0,1,31.0,2.26,8.0,0,0,0,1,0,0,250,250,0,0.0,0.0,0.0,0.0,0,0,0.0,0,0.0,-1,0.0,0.0,0.0,0,0.0,0.354
21263,0,,,,,,,,0.04,0.04,-2.57,0,0,1,0.06,,67,7665,11,41,39,0.5,0.0,653,4.88,13.2,0.0,1,31.0,2.26,8.0,0,0,0,1,0,0,250,250,0,,,,,,,,,,,,,,,,
21283,0,,,,,,,,0.07,0.02,-2.43,0,-1,-1,0.07,,67,7674,11,41,39,0.5,0.0,660,4.88,13.3,0.0,1,31.0,2.26,8.0,0,0,0,1,0,0,250,250,0,,,,,,,,,,,,,,,,
21303,0,,,,,,,,0.08,-0.03,-2.26,0,-2,-3,0.09,,67,7668,11,41,39,0.5,0.0,652,4.89,13.3,0.0,1,31.0,1.17,8.0,0,0,0,1,0,0,250,250,0,,,,,,,,,,,,,,,,
21323,0,,,,,,,,0.06,-0.07,-2.41,0,-2,-2,0.09,,67,7674,11,41,40,0.5,0.0,655,4.88,13.3,0.0,1,31.0,1.17,8.0,0,0,0,1,0,0,250,250,0,,,,,,,,,,,,,,,,
21343,0,1,1,36,38,34,34,-69,0.0,-0.06,-2.54,0,-1,-1,0.06,0,67,7693,11,41,40,0.5,0.0,655,4.88,13.3,0.0,1,31.5,1.17,8.0,0,0,0,1,0,0,250,250,0,0.0,0.0,0.0,0.0,0,0,0.0,0,0.0,-1,0.0,,0.0,0,0.0,0.3557
21363,0,,,,,,,,-0.04,-0.06,-2.66,0,1,1,0.08,,67,7678,11,41,40,0.5,0.0,650,4.89,13.3,0.0,1,31.5,2.26,8.0,0,0,0,1,0,0,250,250,0,,,,,,,,,,,,,,,,
21383,0,,,,,,,,-0.04,-0.01,-2.77,0,2,2,0.04,,67,7678,11,41,40,0.5,0.0,651,4.89,13.3,0.0,1,31.5,2.26,8.0,0,0,0,1,0,0,250,250,0,,,,,,,,,,,,,,,,
21403,0,,,,,,,,-0.02,0.05,-2.67,0,1,1,0.05,,67,7678,11,41,40,0.5,0.0,655,4.89,13.3,0.0,1,31.5,2.26,8.0,0,0,0,1,0,0,250,250,0,,,,,,,,,,,,,,,,
21423,0,,,,,,,,0.02,0.07,-2.48,0,0,0,0.08,,67,7634,7,41,38,0.5,0.0,662,4.88,13.2,0.0,1,30.7,1.11,8.0,0,0,0,1,0,0,250,250,0,,,,,,,,,,,,,,,,
21443,0,-1,2,36,38,34,34,-69,0.06,0.07,-2.27,0,-2,-1,0.09,0,67,7612,6,41,38,0.5,0.0,662,4.88,13.2,0.0,1,30.7,1.11,8.0,0,0,0,1,0,0,250,250,0,0.0,0.0,0.0,0.0,0,0,0.0,0,0.0,-1,0.0,0.0,0.0,0,0.0,0.3574
21463,0,,,,,,,,0.07,0.01,-2.19,0,-2,-2,0.07,,67,7530,6,41,35,0.5,0.0,652,4.87,13.2,0.0,1,29.8,0.96,8.0,0,0,0,1,0,0,250,250,0,,,,,,,,,,,,,,,,
21483,0,,,,,,,,0.11,-0.05,-2.01,0,-4,-3,0.12,,67,7458,6,41,35,0.5,0.0,652,4.87,13.2,0.0,1,29.8,0.96,8.0,0,0,0,1,0,0,250,250,0,,,,,,,,,,,,,,,,
21503,0,,,,,,,,0.14,-0.04,-1.88,0,-4,-4,0.15,,67,7367,6,41,33,0.5,0.0,650,4.88,13.2,0.0,1,29.5,2.01,8.0,0,0,0,1,0,0,250,250,0,,,,,,,,,,,,,,,,
21523,0,,,,,,,,0.16,-0.04,-1.85,0,-4,-3,0.16,,67,7259,6,41,33,0.5,0.0,650,4.88,13.2,0.0,1,29.2,1.96,6.9,0,0,0,1,0,0,250,250,0,,,,,,,,,,,,,,,,
21543,0,-1,2,36,38,34,34,-69,0.12,-0.02,-2.03,0,-2,-1,0.12,0,67,7129,6,41,33,0.5,0.0,648,4.9,13.2,0.0,1,29.2,1.96,6.9,0,0,0,1,0,0,250,250,0,0.0,0.0,0.0,0.0,0,0,0.0,0,0.0,-1,0.0,,0.0,0,0.0,0.359
21563,0,,,,,,,,0.07,-0.04,-2.19,0,-2,-1,0.08,,67,7129,6,41,32,0.5,0.0,649,4.9,13.3,0.0,1,29.0,1.91,6.9,0,0,0,1,0,0,250,250,0,,,,,,,,,,,,,,,,
21583,0,,,,,,,,0.13,-0.06,-2.01,0,-4,-4,0.14,,67,7030,6,41,32,0.5,0.0,642,4.88,13.3,0.0,1,29.0,0.81,6.9,0,0,0,1,0,0,250,250,0,,,,,,,,,,,,,,,,
21603,0,,,,,,,,0.05,-0.03,-2.17,0,-1,0,0.06,,67,6764,6,41,32,0.5,0.0,636,4.89,13.2,0.0,1,28.5,1.94,6.9,0,0,0,1,0,0,250,250,0,,,,,,,,,,,,,,,,
21623,0,,,,,,,,0.11,-0.02,-1.99,0,-4,-3,0.11,,67,6578,6,41,32,0.5,0.0,636,4.89,13.2,0.0,1,28.8,0.81,6.1,0,0,0,1,0,0,250,250,0,,,,,,,,,,,,,,,,
21643,0,-1,2,36,38,34,34,-69,0.03,-0.07,-2.16,0,-1,-1,0.08,0,67,6578,6,41,31,0.5,0.0,633,4.88,13.2,0.0,1,28.3,1.94,6.1,0,0,0,1,0,0,250,250,0,0.0,0.0,0.0,0.0,0,0,0.0,0,0.0,-1,0.0,0.0,0.0,0,0.0,0.3607
21663,0,,,,,,,,0.02,-0.0,-2.31,0,1,1,0.02,,67,6456,6,41,32,0.5,0.0,607,4.9,13.4,0.0,1,28.6,0.81,6.1,0,0,0,1,0,0,250,250,0,,,,,,,,,,,,,,,,
21683,0,,,,,,,,0.06,0.01,-2.11,1,-0,1,0.06,,67,6153,6,41,32,0.5,0.0,578,4.9,13.4,0.0,1,28.4,0.81,6.1,0,0,0,1,0,0,250,250,0,,,,,,,,,,,,,,,,
21703,0,,,,,,,,0.12,-0.05,-1.94,0,-3,-0,0.12,,67,5984,6,41,33,0.5,0.0,569,4.9,13.2,0.0,1,28.4,0.81,6.1,0,0,0,1,0,0,250,250,0,,,,,,,,,,,,,,,,
21723,0,,,,,,,,0.15,-0.11,-1.78,0,-3,-1,0.18,,67,5984,6,41,33,0.5,0.0,569,4.9,13.2,0.0,1,28.4,0.87,5.3,0,0,0,1,0,0,250,250,0,,,,,,,,,,,,,,,,
21743,0,-1,2,36,38,34,34,-69,0.07,-0.13,-1.96,1,1,2,0.15,0,67,5806,6,41,34,0.5,0.0,560,4.89,13.3,0.0,1,28.1,0.95,5.3,0,0,0,1,0,0,250,250,0,0.0,0.0,0.0,0.0,0,0,0.0,0,0.0,-1,0.0,,0.0,0,0.0,0.3624
21763,0,,,,,,,,0.05,-0.15,-2.13,1,3,4,0.16,,67,5447,6,41,35,0.5,0.0,525,4.88,13.2,0.0,1,27.3,2.18,5.3,0,0,0,1,0,0,250,250,0,,,,,,,,,,,,,,,,
21783,0,,,,,,,,0.16,-0.1,-1.95,0,-4,-1,0.19,,67,5313,6,41,35,0.5,0.0,525,4.88,13.2,0.0,1,27.3,2.18,5.3,0,0,0,1,0,0,250,250,0,,,,,,,,,,,,,,,,
21803,0,,,,,,,,0.1,-0.09,-2.12,1,2,4,0.13,,67,5313,6,41,36,0.5,0.0,502,4.88,13.4,0.0,1,27.2,2.28,5.3,0,0,0,1,0,0,250,250,0,,,,,,,,,,,,,,,,
21823,0,,,,,,,,0.11,-0.03,-1.94,0,-2,0,0.11,,67,5131,6,41,37,0.5,0.0,493,4.9,13.4,0.0,1,27.1,2.39,5.5,0,0,0,1,0,0,250,250,0,,,,,,,,,,,,,,,,
21843,0,0,1,36,38,34,34,-70,0.15,-0.09,-2.11,0,-2,0,0.18,0,67,4858,7,41,38,0.5,0.0,466,4.91,13.3,0.0,1,26.9,1.41,5.5,0,0,0,1,0,0,250,250,0,0.0,0.0,0.0,0.0,0,0,0.0,0,0.0,-1,0.0,0.0,0.0,0,0.0,0.364
21863,0,,,,,,,,0.18,-0.05,-2.27,0,-1,2,0.19,,67,4682,7,41,39,0.5,0.0,440,4.9,13.2,0.0,1,25.4,1.37,5.5,0,0,0,1,0,0,250,250,0,,,,,,,,,,,,,,,,
21883,0,,,,,,,,0.15,-0.04,-2.41,0,0,3,0.15,,67,4554,7,41,40,0.5,0.0,421,4.9,13.2,0.0,1,23.7,1.36,5.5,0,0,0,1,0,0,250,250,0,,,,,,,,,,,,,,,,
21903,0,,,,,,,,0.1,-0.05,-2.54,0,2,3,0.11,,67,4478,8,41,40,0.5,0.0,421,4.91,13.2,0.0,1,22.5,2.4,5.5,0,0,0,1,0,0,250,250,0,,,,,,,,,,,,,,,,
21923,0,,,,,,,,0.06,-0.05,-2.66,0,3,4,0.08,,67,4478,8,41,41,0.5,0.0,412,4.9,13.2,0.0,1,21.8,2.39,5.0,0,0,0,1,0,0,250,250,0,,,,,,,,,,,,,,,,
21943,0,0,2,36,38,34,34,-70,0.06,-0.05,-2.77,0,4,5,0.08,0,67,4243,12,41,44,0.501,0.0,391,4.89,13.4,0.0,1,19.8,1.23,5.0,0,0,0,1,0,0,250,250,0,0.0,0.0,0.0,0.0,0,0,0.0,0,0.0,-1,0.0,,0.0,0,0.0,0.3657
21963,0,,,,,,,,0.09,-0.02,-2.86,0,2,4,0.09,,67,4143,15,41,47,0.501,0.0,366,4.89,13.5,0.0,1,19.8,1.23,5.0,0,0,0,1,0,0,250,250,0,,,,,,,,,,,,,,,,
21983,0,,,,,,,,0.09,-0.01,-2.62,0,1,3,0.09,,68,4167,18,41,51,0.501,0.0,378,4.9,13.5,0.0,1,19.3,2.3,5.0,0,0,0,1,0,0,250,250,0,,,,,,,,,,,,,,,,
22003,0,,,,,,,,0.07,0.01,-2.55,0,2,3,0.07,,68,4033,20,41,57,0.502,0.0,374,4.93,13.5,0.0,1,20.3,1.2,6.4,0,0,0,1,0,0,250,250,0,,,,,,,,,,,,,,,,
22023,0,,,,,,,,0.07,0.01,-2.67,0,3,3,0.07,,68,3929,22,41,57,0.502,0.0,374,4.93,13.5,0.0,1,20.3,1.2,6.4,0,0,0,1,0,0,250,250,0,,,,,,,,,,,,,,,,
22043,0,1,1,36,38,34,34,-69,0.05,0.04,-2.44,0,1,1,0.07,0,68,3929,22,41,64,0.502,0.0,355,4.92,13.4,0.0,1,20.7,3.91,6.4,0,0,0,1,0,0,250,250,0,0.0,0.0,0.0,0.0,0,0,0.0,0,0.0,-1,0.0,0.0,0.0,0,0.0,0.3674
22063,0,,,,,,,,0.21,0.14,-2.24,0,-2,-0,0.25,,68,3777,22,41,70,0.503,0.0,345,4.9,13.4,0.0,1,20.7,1.6,6.4,0,0,0,1,0,0,250,250,0,,,,,,,,,,,,,,,,
22083,0,,,,,,,,0.13,0.12,-2.07,0,-4,-1,0.18,,68,3547,22,41,79,0.503,0.0,322,4.86,13.2,0.0,1,21.4,1.6,6.4,0,0,0,1,0,0,250,250,0,,,,,,,,,,,,,,,,
22103,0,,,,,,,,-0.01,0.14,-2.23,-0,2,0,0.14,,68,3517,22,41,83,0.503,0.0,319,4.84,13.4,0.0,1,22.6,2.23,8.0,0,0,0,1,0,0,250,250,0,,,,,,,,,,,,,,,,
22123,0,,,,,,,,0.04,0.1,-2.18,0,-0,0,0.11,,68,3517,22,41,83,0.503,0.0,319,4.84,13.4,0.0,1,22.6,2.23,8.0,0,0,0,1,0,0,250,250,0,,,,,,,,,,,,,,,,
22143,0,-1,1,38,37,34,34,-69,0.1,0.04,-2.1,0,-0,1,0.11,0,68,3788,22,41,87,0.503,0.0,340,4.88,13.4,0.0,1,23.2,2.37,8.0,0,0,0,1,0,0,250,250,0,0.0,0.0,0.0,0.0,0,0,0.0,0,0.0,-1,0.0,,0.0,0,0.0,0.369
22163,0,,,,,,,,0.03,0.01,-2.26,0,1,2,0.03,,68,3788,22,41,87,0.503,0.0,340,4.87,13.2,0.0,1,25.4,5.73,8.0,0,0,0,1,0,0,250,250,0,,,,,,,,,,,,,,,,
22183,0,,,,,,,,0.05,-0.0,-2.4,-0,3,2,0.05,,68,4311,21,41,89,0.503,0.0,366,4.87,13.3,0.0,1,28.2,5.94,8.0,0,0,0,1,0,0,250,250,0,,,,,,,,,,,,,,,,
22203,0,,,,,,,,0.09,0.03,-2.54,-0,4,2,0.1,,68,4649,20,41,89,0.503,0.0,366,4.88,13.4,0.0,1,31.8,5.81,8.0,0,0,0,1,0,0,250,250,0,,,,,,,,,,,,,,,,
22223,0,,,,,,,,0.08,0.06,-2.66,-0,5,4,0.1,,68,5082,20,41,87,0.503,0.0,392,4.9,13.4,0.0,1,36.4,5.65,11.6,0,0,0,1,0,0,250,250,0,,,,,,,,,,,,,,,,
22243,0,0,3,39,40,34,33,-68,0.24,0.07,-2.44,0,3,1,0.25,0,68,5380,20,41,85,0.503,0.0,472,4.86,13.4,0.0,1,40.3,2.9,11.6,0,0,0,1,0,0,250,250,0,0.0,0.0,0.0,0.0,0,0,0.0,0,0.0,-1,0.0,0.0,0.0,0,0.0,0.3707
22263,0,,,,,,,,0.17,0.03,-2.56,0,8,6,0.17,,68,5380,20,41,85,0.503,0.0,472,4.86,13.4,0.0,1,40.3,2.9,11.6,0,0,0,1,0,0,250,250,0,,,,,,,,,,,,,,,,
22283,0,,,,,,,,0.08,0.06,-2.68,-0,9,7,0.1,,68,6279,20,41,83,0.502,0.0,519,4.84,13.4,0.0,1,38.7,3.2,11.6,0,0,0,1,0,0,250,250,0,,,,,,,,,,,,,,,,
22303,0,,,,,,,,0.13,0.03,-2.46,0,9,8,0.14,,68,6279,20,41,82,0.502,0.0,554,4.83,13.4,0.0,1,40.0,6.67,11.6,0,0,0,1,0,0,250,250,0,,,,,,,,,,,,,,,,
22323,0,,,,,,,,0.08,0.1,-2.59,0,10,10,0.13,,68,6798,20,42,80,0.501,0.0,591,4.85,13.2,0.0,1,43.1,6.09,19.1,0,0,0,1,0,0,250,250,0,,,,,,,,,,,,,,,,
22343,0,0,0,39,40,33,33,-68,0.05,0.03,-2.7,0,9,8,0.06,0,68,7086,20,42,77,0.501,0.0,619,4.87,13.2,0.0,1,43.0,2.82,19.1,0,0,0,1,0,0,250,250,0,0.0,0.0,0.0,0.0,0,0,0.0,0,0.0,-1,0.0,,0.0,0,0.0,0.3724
22363,0,,,,,,,,0.02,-0.03,-2.77,-0,8,5,0.03,,68,7588,20,42,73,0.5,0.0,648,4.86,13.4,0.0,1,40.1,5.81,19.1,0,0,0,1,0,0,250,250,0,,,,,,,,,,,,,,,,
22383,0,,,,,,,,0.01,-0.02,-2.82,-0,7,4,0.02,,68,7982,20,42,71,0.5,0.0,659,4.84,13.2,0.0,1,40.1,5.81,19.1,0,0,0,1,0,0,250,250,0,,,,,,,,,,,,,,,,
22403,0,,,,,,,,0.01,0.03,-2.69,-0,7,4,0.03,,68,8430,20,42,71,0.5,0.0,659,4.84,13.2,0.0,1,38.6,2.7,19.1,0,0,0,1,0,0,250,250,0,,,,,,,,,,,,,,,,
22423,0,,,,,,,,0.05,-0.03,-2.8,-0,7,5,0.06,,68,8430,20,42,68,0.5,0.0,665,4.87,13.2,0.0,1,42.5,5.25,21.0,0,0,0,1,0,0,250,250,0,,,,,,,,,,,,,,,,
22443,0,-1,2,39,40,33,33,-68,0.11,0.04,-2.9,-0,7,5,0.12,0,68,9218,20,42,61,0.5,0.0,679,4.85,13.2,0.0,1,40.3,2.3,21.0,0,0,0,1,0,0,250,250,0,0.0,0.0,0.0,0.0,0,0,0.0,0,0.0,-1,0.0,0.0,0.0,0,0.0,0.374
22463,0,,,,,,,,0.11,0.02,-2.96,-0,6,7,0.11,,68,9580,20,42,61,0.5,0.0,679,4.85,13.2,0.0,1,40.3,2.3,21.0,0,0,0,1,0,0,250,250,0,,,,,,,,,,,,,,,,
22483,0,,,,,,,,0.02,-0.05,-2.81,-0,6,6,0.06,,68,9580,20,42,59,0.5,0.0,690,4.82,13.2,0.0,1,41.0,4.73,21.0,0,0,0,1,0,0,250,250,0,,,,,,,,,,,,,,,,
22503,0,,,,,,,,0.05,-0.1,-2.68,-0,4,4,0.11,,68,9863,20,42,56,0.5,0.0,695,4.86,13.1,0.0,1,40.3,2.42,21.0,0,0,0,1,0,0,250,250,0,,,,,,,,,,,,,,,,
22523,0,,,,,,,,-0.02,-0.11,-2.79,-0,5,2,0.12,,68,9699,20,42,53,0.5,0.0,691,4.84,13.2,0.0,1,40.0,2.4,21.6,0,0,0,1,0,0,250,250,0,,,,,,,,,,,,,,,,
22543,0,-0,2,39,40,33,33,-68,0.05,-0.08,-2.8,-0,5,3,0.09,0,68,9699,20,42,53,0.5,0.0,691,4.84,13.2,0.0,1,39.7,4.46,21.6,0,0,0,1,0,0,250,250,0,0.0,0.0,0.0,0.0,0,0,0.0,0,0.0,-1,0.0,,0.0,0,0.0,0.3757
22563,0,,,,,,,,-0.05,-0.14,-2.57,0,4,3,0.15,,68,9351,20,42,53,0.5,0.0,683,4.87,13.3,0.0,1,39.7,4.39,21.6,0,0,0,1,0,0,250,250,0,,,,,,,,,,,,,,,,
22583,0,,,,,,,,-0.11,-0.11,-2.62,-0,3,2,0.16,,68,9351,20,42,53,0.5,0.0,683,4.87,13.3,0.0,1,39.6,4.24,21.6,0,0,0,1,0,0,250,250,0,,,,,,,,,,,,,,,,
22603,0,,,,,,,,-0.07,-0.02,-2.71,-0,4,0,0.07,,68,9031,20,42,54,0.5,0.0,679,4.86,13.2,0.0,1,40.0,3.24,13.9,0,0,0,1,0,0,250,250,0,,,,,,,,,,,,,,,,
22623,0,,,,,,,,-0.05,0.12,-2.82,-0,3,0,0.13,,68,9031,20,42,54,0.5,0.0,679,4.86,13.2,0.0,1,40.0,3.24,13.9,0,0,0,1,0,0,250,250,0,,,,,,,,,,,,,,,,
22643,0,-1,2,39,40,33,33,-68,0.06,0.19,-2.91,-0,4,-1,0.2,0,68,9484,20,42,55,0.5,0.0,692,4.87,13.2,0.0,1,40.0,2.28,13.9,0,0,0,1,0,0,250,250,0,0.0,0.0,0.0,0.0,0,0,0.0,0,0.0,-1,0.0,0.0,0.0,0,0.0,0.3774
22663,0,,,,,,,,0.0,0.13,-2.74,-0,3,-1,0.13,,68,9755,20,42,53,0.5,0.0,687,4.87,13.3,0.0,1,39.7,2.34,13.9,0,0,0,1,0,0,250,250,0,,,,,,,,,,,,,,,,
22683,0,,,,,,,,0.04,0.29,-2.85,0,5,1,0.29,,68,9755,20,42,53,0.5,0.0,687,4.87,13.3,0.0,1,39.7,2.34,13.9,0,0,0,1,0,0,250,250,0,,,,,,,,,,,,,,,,
22703,0,,,,,,,,0.04,0.13,-2.74,0,3,0,0.14,,68,10075,20,42,52,0.5,0.0,697,4.87,13.2,0.0,1,39.4,3.33,13.9,0,0,0,1,0,0,250,250,0,,,,,,,,,,,,,,,,
22723,0,,,,,,,,0.01,-0.04,-2.84,-0,3,-2,0.04,,68,10641,20,42,49,0.5,0.0,695,4.84,13.2,0.0,1,38.8,2.22,15.5,0,0,0,1,0,0,250,250,0,,,,,,,,,,,,,,,,
22743,0,1,2,39,40,33,33,-68,0.07,-0.2,-2.67,-0,3,0,0.21,0,68,10641,20,42,49,0.5,0.0,695,4.84,13.2,0.0,1,38.5,2.17,15.5,0,0,0,1,0,0,250,250,0,0.0,0.0,0.0,0.0,0,0,0.0,0,0.0,-1,0.0,,0.0,0,0.0,0.379
22763,0,,,,,,,,0.09,-0.35,-2.78,-0,3,3,0.36,,68,10782,20,42,48,0.5,0.0,712,4.86,13.2,0.0,1,38.2,3.08,15.5,0,0,0,1,0,0,250,250,0,,,,,,,,,,,,,,,,
22783,0,,,,,,,,0.06,-0.15,-2.54,0,1,0,0.16,,68,10913,20,42,47,0.5,0.0,708,4.87,13.2,0.0,1,38.0,3.08,15.5,0,0,0,1,0,0,250,250,0,,,,,,,,,,,,,,,,
22803,0,,,,,,,,0.02,-0.07,-2.52,0,2,1,0.08,,68,11009,20,42,46,0.5,0.0,707,4.87,13.2,0.0,1,38.0,3.08,15.5,0,0,0,1,0,0,250,250,0,,,,,,,,,,,,,,,,
22823,0,,,,,,,,0.09,-0.23,-2.64,0,2,-0,0.24,,68,11114,20,42,46,0.5,0.0,716,4.85,13.2,0.0,1,37.2,3.05,15.6,0,0,0,1,0,0,250,250,0,,,,,,,,,,,,,,,,
22843,0,0,2,39,40,33,33,-68,0.04,-0.08,-2.42,0,2,0,0.09,0,68,11174,20,42,46,0.5,0.0,705,4.84,13.2,0.0,1,37.2,3.05,15.6,0,0,0,1,0,0,250,250,0,0.0,0.0,0.0,0.0,0,0,0.0,0,0.0,-1,0.0,0.0,0.0,0,0.0,0.3807
22863,0,,,,,,,,0.11,-0.06,-2.45,0,2,1,0.13,,68,11220,20,42,46,0.5,0.0,718,4.87,13.2,0.0,1,37.2,3.05,15.6,0,0,0,1,0,0,250,250,0,,,,,,,,,,,,,,,,
22883,0,,,,,,,,-0.01,-0.07,-2.57,0,3,2,0.07,,68,11220,20,42,46,0.5,0.0,718,4.87,13.2,0.0,1,37.2,3.05,15.6,0,0,0,1,0,0,250,250,0,,,,,,,,,,,,,,,,
22903,0,,,,,,,,0.13,-0.01,-2.61,0,0,2,0.13,,68,11281,20,42,46,0.5,0.0,708,4.88,13.2,0.0,1,37.2,3.05,15.6,0,0,0,1,0,0,250,250,0,,,,,,,,,,,,,,,,
22923,0,,,,,,,,0.02,0.08,-2.39,0,-2,-1,0.08,,68,11370,20,42,46,0.5,0.0,714,4.89,13.2,0.0,1,37.2,3.05,15.9,0,0,0,1,0,0,250,250,0,,,,,,,,,,,,,,,,
22943,0,-0,2,39,40,33,33,-68,0.11,-0.09,-2.37,0,-2,-1,0.14,0,68,11405,19,42,46,0.5,0.0,712,4.87,13.2,0.0,1,37.2,3.05,15.9,0,0,0,1,0,0,250,250,0,0.0,0.0,0.0,0.0,0,0,0.0,0,0.0,-1,0.0,,0.0,0,0.0,0.3824
22963,0,,,,,,,,0.07,-0.04,-2.51,1,-1,1,0.08,,68,11398,19,41,46,0.5,0.0,709,4.86,13.2,0.0,1,37.2,2.01,15.9,0,0,0,1,0,0,250,250,0,,,,,,,,,,,,,,,,
22983,0,,,,,,,,-0.06,0.05,-2.63,1,2,2,0.08,,68,11315,19,41,46,0.5,0.0,721,4.87,13.2,0.0,1,37.2,3.05,15.9,0,0,0,1,0,0,250,250,0,,,,,,,,,,,,,,,,
23003,0,,,,,,,,0.08,-0.04,-2.54,0,0,-2,0.09,,68,11227,19,41,47,0.5,0.0,709,4.87,13.2,0.0,1,37.2,3.05,15.9,0,0,0,1,0,0,250,250,0,,,,,,,,,,,,,,,,
23023,0,,,,,,,,0.03,0.07,-2.47,1,1,1,0.08,,68,11227,19,41,47,0.5,0.0,709,4.87,13.2,0.0,1,38.0,3.08,16.0,0,0,0,1,0,0,250,250,0,,,,,,,,,,,,,,,,
23043,0,-1,2,39,40,33,33,-68,0.04,0.1,-2.47,1,1,-0,0.11,0,68,11127,19,41,47,0.5,0.0,711,4.87,13.2,0.0,1,38.0,3.08,16.0,0,0,0,1,0,0,250,250,0,0.0,0.0,0.0,0.0,0,0,0.0,0,0.0,-1,0.0,0.0,0.0,0,0.0,0.384
23063,0,,,,,,,,0.04,-0.07,-2.6,1,1,2,0.08,,68,11127,19,41,47,0.5,0.0,705,4.85,13.2,0.0,1,38.0,2.04,16.0,0,0,0,1,0,0,250,250,0,,,,,,,,,,,,,,,,
23083,0,,,,,,,,0.01,0.11,-2.38,1,-1,-2,0.11,,68,11214,19,41,46,0.5,0.0,707,4.87,13.2,0.0,1,38.0,3.08,16.0,0,0,0,1,0,0,250,250,0,,,,,,,,,,,,,,,,
23103,0,,,,,,,,0.09,-0.06,-2.22,0,-1,-1,0.11,,68,11261,19,41,46,0.5,0.0,708,4.88,13.3,0.0,1,37.2,3.05,16.0,0,0,0,1,0,0,250,250,0,,,,,,,,,,,,,,,,
23123,0,,,,,,,,-0.03,0.04,-2.37,1,1,2,0.05,,68,11343,19,41,46,0.5,0.0,711,4.86,13.2,0.0,1,37.2,3.05,15.8,0,0,0,1,0,0,250,250,0,,,,,,,,,,,,,,,,
23143,0,-0,2,39,40,33,33,-68,0.0,-0.05,-2.51,1,2,1,0.05,0,68,11405,19,41,46,0.5,0.0,706,4.85,13.2,0.0,1,37.2,3.05,15.8,0,0,0,1,0,0,250,250,0,0.0,0.0,0.0,0.0,0,0,0.0,0,0.0,-1,0.0,,0.0,0,0.0,0.3857
23163,0,,,,,,,,0.06,-0.02,-2.3,1,-0,-2,0.07,,68,11405,19,41,46,0.5,0.0,719,4.87,13.2,0.0,1,37.2,3.03,15.8,0,0,0,1,0,0,250,250,0,,,,,,,,,,,,,,,,
23183,0,,,,,,,,-0.03,0.09,-2.35,1,1,1,0.1,,68,11405,19,41,46,0.5,0.0,719,4.87,13.2,0.0,1,37.2,3.05,15.8,0,0,0,1,0,0,250,250,0,,,,,,,,,,,,,,,,
23203,0,,,,,,,,0.13,0.1,-2.4,1,1,1,0.16,,68,11425,19,41,45,0.5,0.0,712,4.86,13.2,0.0,1,36.5,3.05,15.8,0,0,0,1,0,0,250,250,0,,,,,,,,,,,,,,,,
23223,0,,,,,,,,0.0,0.1,-2.44,1,1,-0,0.1,,68,11453,19,41,46,0.5,0.0,708,4.87,13.2,0.0,1,37.2,3.05,16.1,0,0,0,1,0,0,250,250,0,,,,,,,,,,,,,,,,
23243,0,1,0,39,40,33,33,-68,-0.02,-0.0,-2.57,1,2,2,0.02,0,68,11460,19,41,45,0.5,0.0,707,4.88,13.2,0.0,1,36.5,3.03,16.1,0,0,0,1,0,0,250,250,0,0.0,0.0,0.0,0.0,0,0,0.0,0,0.0,-1,0.0,0.0,0.0,0,0.0,0.3874
23263,0,,,,,,,,0.1,0.05,-2.56,0,-0,2,0.11,,68,11488,19,41,46,0.5,0.0,711,4.86,13.2,0.0,1,37.2,3.05,16.1,0,0,0,1,0,0,250,250,0,,,,,,,,,,,,,,,,
23283,0,,,,,,,,-0.01,0.1,-2.35,0,-2,-1,0.1,,68,11446,19,41,46,0.5,0.0,714,4.85,13.2,0.0,1,37.2,3.05,16.1,0,0,0,1,0,0,250,250,0,,,,,,,,,,,,,,,,
23303,0,,,,,,,,0.07,-0.07,-2.23,0,-2,-2,0.1,,68,11391,19,41,46,0.5,0.0,714,4.86,13.2,0.0,1,37.2,3.05,16.1,0,0,0,1,0,0,250,250,0,,,,,,,,,,,,,,,,
23323,0,,,,,,,,0.05,-0.03,-2.38,1,-1,-0,0.06,,68,11363,19,41,46,0.5,0.0,726,4.88,13.2,0.0,1,37.2,2.01,16.2,0,0,0,1,0,0,250,250,0,,,,,,,,,,,,,,,,
23343,0,1,1,39,40,33,33,-68,-0.06,-0.01,-2.51,1,2,1,0.06,0,68,11363,19,41,46,0.5,0.0,726,4.88,13.2,0.0,1,37.2,2.01,16.2,0,0,0,1,0,0,250,250,0,0.0,0.0,0.0,0.0,0,0,0.0,0,0.0,-1,0.0,,0.0,0,0.0,0.389
23363,0,,,,,,,,0.06,-0.05,-2.34,0,-0,-2,0.08,,68,11329,19,41,46,0.5,0.0,723,4.87,13.2,0.0,1,37.2,3.05,16.2,0,0,0,1,0,0,250,250,0,,,,,,,,,,,,,,,,
23383,0,,,,,,,,-0.02,0.12,-2.31,1,0,-1,0.12,,68,11315,19,41,47,0.5,0.0,711,4.85,13.2,0.0,1,38.0,3.05,16.2,0,0,0,1,0,0,250,250,0,,,,,,,,,,,,,,,,
23403,0,,,,,,,,0.09,0.09,-2.36,0,-0,0,0.13,,68,11322,19,41,46,0.5,0.0,709,4.86,13.2,0.0,1,37.2,3.05,16.2,0,0,0,1,0,0,250,250,0,,,,,,,,,,,,,,,,
23423,0,,,,,,,,-0.03,0.06,-2.5,0,-0,-1,0.07,,68,11425,19,41,46,0.5,0.0,707,4.86,13.2,0.0,1,37.2,3.05,15.9,0,0,0,1,0,0,250,250,0,,,,,,,,,,,,,,,,
23443,0,-1,2,39,40,33,33,-67,0.03,-0.01,-2.62,1,-0,2,0.03,0,68,11467,19,41,46,0.5,0.0,712,4.88,13.2,0.0,1,37.2,3.05,15.9,0,0,0,1,0,0,250,250,0,0.0,0.0,0.0,0.0,0,0,0.0,0,0.0,-1,0.0,0.0,0.0,0,0.0,0.3907
23463,0,,,,,,,,0.06,0.08,-2.41,1,-3,1,0.1,,68,11503,19,41,46,0.5,0.0,712,4.87,13.3,0.0,1,37.2,3.05,15.9,0,0,0,1,0,0,250,250,0,,,,,,,,,,,,,,,,
23483,0,,,,,,,,-0.04,0.1,-2.21,1,-4,-2,0.11,,68,11552,19,41,46,0.5,0.0,717,4.86,13.2,0.0,1,37.2,3.05,15.9,0,0,0,1,0,0,250,250,0,,,,,,,,,,,,,,,,
23503,0,,,,,,,,0.07,-0.07,-2.15,1,-4,-3,0.1,,68,11531,19,41,46,0.5,0.0,717,4.86,13.3,0.0,1,37.2,3.05,16.3,0,0,0,1,0,0,250,250,0,,,,,,,,,,,,,,,,
23523,0,,,,,,,,0.1,-0.09,-2.3,0,-4,-1,0.13,,68,11517,19,41,46,0.5,0.0,721,4.86,13.2,0.0,1,37.2,3.05,16.3,0,0,0,1,0,0,250,250,0,,,,,,,,,,,,,,,,
23543,0,1,2,39,40,33,33,-68,-0.08,0.0,-2.44,1,-2,1,0.08,0,68,11517,19,41,46,0.5,0.0,721,4.86,13.2,0.0,1,37.2,3.05,16.3,0,0,0,1,0,0,250,250,0,0.0,0.0,0.0,0.0,0,0,0.0,0,0.0,-1,0.0,,0.0,0,0.0,0.3924
23563,0,,,,,,,,0.01,-0.09,-2.57,1,0,1,0.09,,68,11474,19,41,46,0.5,0.0,714,4.87,13.2,0.0,1,37.2,3.05,16.3,0,0,0,1,0,0,250,250,0,,,,,,,,,,,,,,,,
23583,0,,,,,,,,0.03,-0.03,-2.36,0,-1,-2,0.05,,68,11343,18,41,47,0.5,0.0,706,4.85,13.2,0.0,1,38.0,3.08,16.3,0,0,0,1,0,0,250,250,0,,,,,,,,,,,,,,,,
23603,0,,,,,,,,0.01,0.04,-2.38,1,-0,0,0.04,,68,11343,18,41,46,0.5,0.0,707,4.86,13.2,0.0,1,37.2,3.05,16.3,0,0,0,1,0,0,250,250,0,,,,,,,,,,,,,,,,
23623,0,,,,,,,,0.04,0.05,-2.36,0,-1,0,0.06,,69,11167,18,41,46,0.5,0.0,707,4.87,13.2,0.0,1,37.2,2.01,16.0,0,0,0,1,0,0,250,250,0,,,,,,,,,,,,,,,,
23643,0,-1,2,39,40,33,33,-68,0.02,-0.12,-2.49,0,1,2,0.12,0,69,11094,17,41,45,0.5,0.0,710,4.87,13.2,0.0,1,37.2,3.05,16.0,0,0,0,1,0,0,250,250,0,0.0,0.0,0.0,0.0,0,0,0.0,0,0.0,-1,0.0,0.0,0.0,0,0.0,0.394
23663,0,,,,,,,,-0.0,0.06,-2.29,0,-2,-1,0.06,,69,10939,17,41,45,0.5,0.0,710,4.87,13.2,0.0,1,36.5,3.03,16.0,0,0,0,1,0,0,250,250,0,,,,,,,,,,,,,,,,
23683,0,,,,,,,,-0.03,-0.01,-2.16,0,-3,-1,0.03,,69,10850,17,41,45,0.5,0.0,704,4.86,13.2,0.0,1,36.5,3.02,16.0,0,0,0,1,0,0,250,250,0,,,,,,,,,,,,,,,,
23703,0,,,,,,,,0.02,-0.17,-2.31,0,0,2,0.17,,69,10775,17,41,44,0.5,0.0,706,4.87,13.3,0.0,1,36.5,3.02,16.0,0,0,0,1,0,0,250,250,0,,,,,,,,,,,,,,,,
23723,0,,,,,,,,0.06,-0.05,-2.25,0,-0,1,0.08,,69,10757,17,41,44,0.5,0.0,706,4.9,13.2,0.0,1,35.7,2.97,15.1,0,0,0,1,0,0,250,250,0,,,,,,,,,,,,,,,,
23743,0,-1,2,39,40,33,33,-68,0.03,0.12,-2.4,0,1,-0,0.12,0,69,10813,17,41,43,0.5,0.0,703,4.89,13.2,0.0,1,35.0,2.94,15.1,0,0,0,1,0,0,250,250,0,0.0,0.0,0.0,0.0,0,0,0.0,0,0.0,-1,0.0,,0.0,0,0.0,0.3957
23763,0,,,,,,,,0.01,0.28,-2.2,0,-2,-1,0.28,,69,10875,17,41,42,0.5,0.0,698,4.87,13.2,0.0,1,34.2,2.91,15.1,0,0,0,1,0,0,250,250,0,,,,,,,,,,,,,,,,
23783,0,,,,,,,,-0.01,0.1,-2.01,0,-2,-1,0.1,,69,10875,17,41,42,0.5,0.0,698,4.87,13.2,0.0,1,34.2,2.91,15.1,0,0,0,1,0,0,250,250,0,,,,,,,,,,,,,,,,
23803,0,,,,,,,,0.04,-0.07,-2.18,0,1,2,0.08,,69,10863,17,41,42,0.5,0.0,701,4.86,13.3,0.0,1,34.2,1.86,15.1,0,0,0,1,0,0,250,250,0,,,,,,,,,,,,,,,,
23823,0,,,,,,,,0.09,0.09,-2.22,0,-0,-0,0.13,,69,10769,16,41,41,0.5,0.0,702,4.86,13.3,0.0,1,33.5,2.88,14.6,0,0,0,1,0,0,250,250,0,,,,,,,,,,,,,,,,
23843,0,-1,2,39,40,33,33,-68,0.03,0.26,-2.37,0,1,-2,0.26,0,69,10689,15,41,40,0.5,0.0,705,4.89,13.2,0.0,1,32.7,2.86,14.6,0,0,0,1,0,0,250,250,0,0.0,0.0,0.0,0.0,0,0,0.0,0,0.0,-1,0.0,0.0,0.0,0,0.0,0.3974
23863,0,,,,,,,,-0.01,0.41,-2.17,0,-2,-3,0.41,,69,10689,15,41,40,0.5,0.0,705,4.89,13.2,0.0,1,32.7,2.82,14.6,0,0,0,1,0,0,250,250,0,,,,,,,,,,,,,,,,
23883,0,,,,,,,,-0.08,0.47,-2.12,0,-3,-3,0.47,,69,10463,14,41,39,0.5,0.0,705,4.87,13.1,0.0,1,32.0,2.76,14.6,0,0,0,1,0,0,250,250,0,,,,,,,,,,,,,,,,
23903,0,,,,,,,,-0.12,0.54,-1.94,0,-4,-6,0.55,,69,10347,13,41,38,0.5,0.0,697,4.84,13.2,0.0,1,32.0,2.74,14.6,0,0,0,1,0,0,250,250,0,,,,,,,,,,,,,,,,
23923,0,,,,,,,,-0.12,0.64,-1.93,0,-3,-6,0.65,,69,10234,8,41,36,0.5,0.0,688,4.85,13.2,0.0,1,31.7,2.73,13.2,0,0,0,1,0,0,250,250,0,,,,,,,,,,,,,,,,
23943,0,0,1,39,40,33,33,-67,-0.12,0.46,-1.8,0,-6,-7,0.48,0,69,10234,8,41,36,0.5,0.0,688,4.85,13.2,0.0,1,31.1,1.64,13.2,0,0,0,1,0,0,250,250,0,0.0,0.0,0.0,0.0,0,0,0.0,0,0.0,-1,0.0,,0.0,0,0.0,0.399
23963,0,,,,,,,,-0.05,0.52,-1.98,0,-4,-6,0.53,,69,9770,4,41,30,0.5,0.0,687,4.88,13.3,0.0,1,30.0,1.56,13.2,0,0,0,1,0,0,250,250,0,,,,,,,,,,,,,,,,
23983,0,,,,,,,,-0.1,0.32,-1.81,0,-4,-6,0.34,,69,9770,4,41,30,0.5,0.0,687,4.88,13.3,0.0,1,29.1,2.46,13.2,0,0,0,1,0,0,250,250,0,,,,,,,,,,,,,,,,
24003,0,,,,,,,,-0.12,0.29,-1.87,0,-4,-7,0.31,,69,9556,4,41,28,0.5,0.0,683,4.87,13.3,0.0,1,28.2,1.37,13.2,0,0,0,1,0,0,250,250,0,,,,,,,,,,,,,,,,
24023,0,,,,,,,,-0.03,0.4,-2.05,0,-4,-6,0.4,,69,9291,4,41,27,0.5,0.0,687,4.86,13.2,0.0,1,27.8,2.42,10.7,0,0,0,1,0,0,250,250,0,,,,,,,,,,,,,,,,
24043,0,-1,2,39,40,33,33,-67,0.02,0.38,-2.21,-0,-3,-7,0.38,0,69,8856,5,41,27,0.5,0.0,690,4.89,13.2,0.0,1,27.8,2.4,10.7,0,0,0,1,0,0,250,250,0,0.0,0.0,0.0,0.0,0,0,0.0,0,0.0,-1,0.0,0.0,0.0,0,0.0,0.4007
24063,0,,,,,,,,0.02,0.4,-2.36,-0,-4,-7,0.4,,69,8684,5,40,26,0.5,0.0,668,4.88,13.3,0.0,1,27.4,2.4,10.7,0,0,0,1,0,0,250,250,0,,,,,,,,,,,,,,,,
24083,0,,,,,,,,0.01,0.34,-2.16,-0,-3,-7,0.34,,69,8449,5,40,26,0.5,0.0,669,4.88,13.3,0.0,1,27.4,1.28,10.7,0,0,0,1,0,0,250,250,0,,,,,,,,,,,,,,,,
24103,0,,,,,,,,0.01,0.35,-2.31,-0,-2,-4,0.35,,69,8449,5,40,26,0.5,0.0,669,4.88,13.3,0.0,1,27.4,1.28,10.7,0,0,0,1,0,0,250,250,0,,,,,,,,,,,,,,,,
24123,0,,,,,,,,0.03,0.35,-2.16,-0,-3,-5,0.35,,69,8012,5,40,26,0.5,0.0,672,4.88,13.2,0.0,1,27.3,2.19,9.0,0,0,0,1,0,0,250,250,0,,,,,,,,,,,,,,,,
24143,0,0,1,39,40,33,33,-68,0.0,0.31,-2.26,-0,-4,-6,0.31,0,69,7815,5,40,26,0.5,0.0,653,4.89,13.4,0.0,1,27.1,2.04,9.0,0,0,0,1,0,0,250,250,0,0.0,0.0,0.0,0.0,0,0,0.0,0,0.0,-1,0.0,,0.0,0,0.0,0.4024
24163,0,,,,,,,,-0.03,0.3,-2.4,-0,-2,-4,0.3,,69,7815,5,40,26,0.5,0.0,653,4.89,13.4,0.0,1,27.1,2.04,9.0,0,0,0,1,0,0,250,250,0,,,,,,,,,,,,,,,,
24183,0,,,,,,,,-0.06,0.26,-2.53,0,-2,-3,0.27,,69,7399,5,40,27,0.5,0.0,642,4.91,13.4,0.0,1,27.2,2.02,9.0,0,0,0,1,0,0,250,250,0,,,,,,,,,,,,,,,,
24203,0,,,,,,,,-0.1,0.24,-2.65,-0,-2,-5,0.26,,69,7399,5,40,27,0.5,0.0,642,4.91,13.4,0.0,1,27.0,2.02,9.0,0,0,0,1,0,0,250,250,0,,,,,,,,,,,,,,,,
24223,0,,,,,,,,-0.03,0.21,-2.43,0,-4,-5,0.21,,69,6959,5,40,27,0.5,0.0,629,4.88,13.4,0.0,1,26.9,0.92,6.8,0,0,0,1,0,0,250,250,0,,,,,,,,,,,,,,,,
24243,0,-1,2,39,40,33,33,-67,-0.05,0.25,-2.56,0,-1,-2,0.25,0,69,6781,5,40,29,0.5,0.0,623,4.88,13.4,0.0,1,27.7,1.98,6.8,0,0,0,1,0,0,250,250,0,0.0,0.0,0.0,0.0,0,0,0.0,0,0.0,-1,0.0,0.0,0.0,0,0.0,0.404
24263,0,,,,,,,,-0.0,0.16,-2.35,0,-2,-4,0.16,,69,6542,5,40,29,0.5,0.0,623,4.88,13.4,0.0,1,27.7,1.98,6.8,0,0,0,1,0,0,250,250,0,,,,,,,,,,,,,,,,
24283,0,,,,,,,,-0.07,0.18,-2.48,-0,-2,-4,0.2,,69,6542,5,40,29,0.5,0.0,620,4.87,13.2,0.0,1,27.7,1.98,6.8,0,0,0,1,0,0,250,250,0,,,,,,,,,,,,,,,,
24303,0,,,,,,,,-0.11,0.26,-2.61,0,1,-1,0.28,,69,6349,6,40,29,0.5,0.0,596,4.88,13.5,0.0,1,27.7,1.98,6.8,0,0,0,1,0,0,250,250,0,,,,,,,,,,,,,,,,
24323,0,,,,,,,,-0.15,0.32,-2.72,0,4,2,0.35,,69,5961,6,40,31,0.5,0.0,560,4.92,13.4,0.0,1,27.9,0.86,5.7,0,0,0,1,0,0,250,250,0,,,,,,,,,,,,,,,,
24343,0,1,1,39,40,33,33,-68,-0.2,0.35,-2.83,1,8,6,0.41,0,69,5961,6,40,31,0.5,0.0,560,4.92,13.4,0.0,1,28.0,1.94,5.7,0,0,0,1,0,0,250,250,0,0.0,0.0,0.0,0.0,0,0,0.0,0,0.0,-1,0.0,,0.0,0,0.0,0.4057
24363,0,,,,,,,,-0.22,0.36,-2.93,0,7,5,0.42,,69,5771,6,40,32,0.5,0.0,541,4.91,13.4,0.0,1,27.6,0.85,5.7,0,0,0,1,0,0,250,250,0,,,,,,,,,,,,,,,,
24383,0,,,,,,,,-0.1,0.34,-2.68,0,1,2,0.36,,69,5433,6,40,33,0.5,0.0,534,4.9,13.4,0.0,1,27.2,2.04,5.7,0,0,0,1,0,0,250,250,0,,,,,,,,,,,,,,,,
24403,0,,,,,,,,-0.15,0.34,-2.79,1,7,6,0.37,,69,5433,6,40,34,0.5,0.0,523,4.88,13.4,0.0,1,27.0,2.12,5.7,0,0,0,1,0,0,250,250,0,,,,,,,,,,,,,,,,
24423,0,,,,,,,,-0.09,0.3,-2.74,0,1,1,0.31,,69,5093,6,40,34,0.5,0.0,485,4.89,13.5,0.0,1,26.4,2.16,5.3,0,0,0,1,0,0,250,250,0,,,,,,,,,,,,,,,,
24443,0,-0,2,39,40,33,33,-68,-0.1,0.27,-2.84,0,5,5,0.29,0,69,4895,6,40,36,0.5,0.0,476,4.88,13.3,0.0,1,25.3,1.24,5.3,0,0,0,1,0,0,250,250,0,0.0,0.0,0.0,0.0,0,0,0.0,0,0.0,-1,0.0,0.0,0.0,0,0.0,0.4074
24463,0,,,,,,,,-0.14,0.28,-2.6,0,5,5,0.31,,69,4746,6,40,36,0.5,0.0,476,4.88,13.3,0.0,1,25.3,1.24,5.3,0,0,0,1,0,0,250,250,0,,,,,,,,,,,,,,,,
24483,0,,,,,,,,-0.18,0.27,-2.39,0,5,4,0.32,,69,4601,6,40,37,0.501,0.0,428,4.9,13.4,0.0,1,22.4,2.3,5.3,0,0,0,1,0,0,250,250,0,,,,,,,,,,,,,,,,
24503,0,,,,,,,,-0.19,0.25,-2.19,0,4,2,0.31,,69,4446,6,40,37,0.501,0.0,428,4.9,13.4,0.0,1,22.4,2.3,5.3,0,0,0,1,0,0,250,250,0,,,,,,,,,,,,,,,,
24523,0,,,,,,,,-0.19,0.24,-2.0,0,4,2,0.31,,69,4291,6,40,38,0.501,0.0,400,4.9,13.3,0.0,1,19.2,2.25,4.8,0,0,0,1,0,0,250,250,0,,,,,,,,,,,,,,,,
24543,0,1,2,39,40,33,33,-68,-0.23,0.21,-2.06,0,5,2,0.31,0,69,4131,6,40,38,0.501,0.0,400,4.9,13.3,0.0,1,19.2,2.25,4.8,0,0,0,1,0,0,250,250,0,0.0,0.0,0.0,0.0,0,0,0.0,0,0.0,-1,0.0,,0.0,0,0.0,0.409
24563,0,,,,,,,,-0.22,0.16,-2.22,0,5,2,0.27,,69,4131,6,40,38,0.501,0.0,388,4.9,13.2,0.0,1,17.3,1.1,4.8,0,0,0,1,0,0,250,250,0,,,,,,,,,,,,,,,,
24583,0,,,,,,,,-0.2,0.18,-2.15,0,3,1,0.27,,69,3861,6,40,40,0.501,0.0,361,4.9,13.4,0.0,1,15.8,2.17,4.8,0,0,0,1,0,0,250,250,0,,,,,,,,,,,,,,,,
24603,0,,,,,,,,-0.18,0.14,-2.22,0,3,1,0.23,,69,3747,7,40,40,0.501,0.0,361,4.9,13.4,0.0,1,15.8,2.17,4.8,0,0,0,1,0,0,250,250,0,,,,,,,,,,,,,,,,
24623,0,,,,,,,,-0.18,0.13,-2.22,0,3,0,0.23,,69,3565,7,40,44,0.502,0.0,344,4.89,13.2,0.0,1,15.2,2.2,3.8,0,0,0,1,0,0,250,250,0,,,,,,,,,,,,,,,,
24643,0,1,2,39,41,33,33,-68,-0.16,0.12,-2.37,0,3,1,0.2,0,69,3441,8,40,44,0.502,0.0,344,4.89,13.2,0.0,1,15.2,2.2,3.8,0,0,0,1,0,0,250,250,0,0.0,0.0,0.0,0.0,0,0,0.0,0,0.0,-1,0.0,0.0,0.0,0,0.0,0.4107
24663,0,,,,,,,,-0.12,0.1,-2.41,0,2,1,0.16,,69,3441,8,40,46,0.502,0.0,307,4.91,13.5,0.0,1,15.0,2.21,3.8,0,0,0,1,0,0,250,250,0,,,,,,,,,,,,,,,,
24683,0,,,,,,,,-0.11,0.11,-2.43,0,1,1,0.15,,69,3181,8,41,50,0.502,0.0,293,4.91,13.4,0.0,1,15.0,2.24,3.8,0,0,0,1,0,0,250,250,0,,,,,,,,,,,,,,,,
24703,0,,,,,,,,-0.1,0.1,-2.45,0,1,1,0.14,,69,3045,9,41,50,0.502,0.0,293,4.91,13.4,0.0,1,15.0,2.24,3.8,0,0,0,1,0,0,250,250,0,,,,,,,,,,,,,,,,
24723,0,,,,,,,,-0.09,0.11,-2.49,0,2,1,0.14,,69,3045,9,41,52,0.502,0.0,282,4.91,13.4,0.0,1,15.0,1.17,3.2,0,0,0,1,0,0,250,250,0,,,,,,,,,,,,,,,,
24743,0,0,3,39,41,33,33,-68,-0.08,0.11,-2.58,0,1,1,0.14,0,69,2902,10,41,54,0.503,0.0,273,4.91,13.5,0.0,1,15.0,2.24,3.2,0,0,0,1,0,0,250,250,0,0.0,0.0,0.0,0.0,0,0,0.0,0,0.0,-1,0.0,,0.0,0,0.0,0.4124
24763,0,,,,,,,,-0.06,0.1,-2.67,0,0,1,0.11,,69,2618,13,41,59,0.503,0.0,250,4.91,13.5,0.0,1,15.0,2.22,3.2,0,0,0,1,0,0,250,250,0,,,,,,,,,,,,,,,,
24783,0,,,,,,,,-0.07,0.1,-2.64,0,1,1,0.12,,69,2492,15,41,63,0.503,0.0,253,4.91,13.2,0.0,1,15.0,2.22,3.2,0,0,0,1,0,0,250,250,0,,,,,,,,,,,,,,,,
24803,0,,,,,,,,-0.06,0.08,-2.67,0,1,1,0.1,,69,2442,20,41,69,0.503,0.0,233,4.9,13.5,0.0,1,15.8,2.29,2.5,0,0,0,1,0,0,250,250,0,,,,,,,,,,,,,,,,
24823,0,,,,,,,,-0.05,0.07,-2.69,0,0,1,0.08,,69,2353,25,41,75,0.503,0.0,229,4.9,13.3,0.0,1,14.3,2.72,2.5,0,0,0,1,0,0,250,250,0,,,,,,,,,,,,,,,,
24843,0,-1,2,39,40,33,33,-67,-0.04,0.07,-2.71,0,1,1,0.08,0,69,2319,29,41,75,0.503,0.0,229,4.9,13.3,0.0,1,14.3,2.72,2.5,0,0,0,1,0,0,250,250,0,0.0,0.0,0.0,0.0,0,0,0.0,0,0.0,-1,0.0,0.0,0.0,0,0.0,0.414
24863,0,,,,,,,,-0.03,0.05,-2.73,0,0,1,0.06,,69,2286,31,41,90,0.503,0.0,221,4.89,13.4,0.0,1,23.0,5.29,2.5,0,0,0,1,0,0,250,250,0,,,,,,,,,,,,,,,,
24883,0,,,,,,,,-0.03,0.04,-2.77,0,0,1,0.05,,69,2408,31,41,90,0.503,0.0,221,4.89,13.4,0.0,1,23.0,5.29,2.5,0,0,0,1,0,0,250,250,0,,,,,,,,,,,,,,,,
24903,0,,,,,,,,-0.04,0.04,-2.81,0,1,1,0.05,,69,2408,31,41,94,0.503,0.0,227,4.9,13.5,0.0,1,28.5,5.45,2.5,0,0,0,1,0,0,250,250,0,,,,,,,,,,,,,,,,
24923,0,,,,,,,,-0.01,0.05,-2.85,0,1,1,0.05,,69,2719,31,41,95,0.503,0.0,242,4.91,13.5,0.0,1,29.3,2.39,6.5,0,0,0,1,0,0,250,250,0,,,,,,,,,,,,,,,,
24943,0,-1,2,39,40,33,33,-68,-0.03,0.06,-2.81,0,1,0,0.07,0,69,3623,31,41,96,0.503,0.0,263,4.9,13.5,0.0,1,29.5,2.59,6.5,0,0,0,1,0,0,250,250,0,0.0,0.0,0.0,0.0,0,0,0.0,0,0.0,-1,0.0,,0.0,0,0.0,0.4157
24963,0,,,,,,,,-0.02,0.03,-2.91,0,1,1,0.03,,69,3875,31,41,96,0.503,0.0,322,4.87,13.5,0.0,1,32.6,7.09,6.5,0,0,0,1,0,0,250,250,0,,,,,,,,,,,,,,,,
24983,0,,,,,,,,0.04,0.02,-2.97,0,-1,0,0.04,,69,3875,31,41,96,0.503,0.0,322,4.87,13.5,0.0,1,32.6,7.09,6.5,0,0,0,1,0,0,250,250,0,,,,,,,,,,,,,,,,
25003,0,,,,,,,,0.1,0.0,-3.05,0,-3,-1,0.1,,69,4834,30,41,96,0.503,0.0,361,4.87,13.5,0.0,1,37.0,3.05,6.5,0,0,0,1,0,0,250,250,0,,,,,,,,,,,,,,,,
25023,0,,,,,,,,0.04,0.02,-3.13,0,3,3,0.05,,69,5347,28,41,94,0.502,0.0,405,4.87,13.4,0.0,1,40.9,2.73,13.7,0,0,0,1,0,0,250,250,0,,,,,,,,,,,,,,,,
25043,0,1,2,39,40,33,33,-67,0.1,-0.0,-2.87,1,-6,-2,0.1,0,69,5347,28,41,93,0.502,0.0,448,4.91,13.4,0.0,1,41.8,3.14,13.7,0,0,0,1,0,0,250,250,0,0.0,0.0,0.0,0.0,0,0,0.0,0,0.0,-1,0.0,0.0,0.0,0,0.0,0.4174
25063,0,,,,,,,,0.13,-0.07,-2.63,0,-9,-5,0.15,,69,6416,27,41,89,0.502,0.0,546,4.88,13.3,0.0,1,43.5,3.49,13.7,0,0,0,1,0,0,250,250,0,,,,,,,,,,,,,,,,
25083,0,,,,,,,,0.04,-0.02,-2.74,1,-4,-1,0.05,,69,6954,27,41,89,0.502,0.0,546,4.88,13.3,0.0,1,43.5,3.49,13.7,0,0,0,1,0,0,250,250,0,,,,,,,,,,,,,,,,
25103,0,,,,,,,,-0.01,-0.06,-2.85,0,-3,-2,0.06,,69,7497,26,41,87,0.501,0.0,587,4.88,13.4,0.0,1,47.6,6.46,13.7,0,0,0,1,0,0,250,250,0,,,,,,,,,,,,,,,,
25123,0,,,,,,,,-0.02,-0.07,-2.86,0,-3,-3,0.07,,70,7712,26,41,83,0.501,0.0,638,4.86,13.4,0.0,1,41.3,7.01,22.5,0,0,0,1,0,0,250,250,0,,,,,,,,,,,,,,,,
25143,0,0,1,39,40,33,33,-68,0.0,-0.06,-2.65,0,-3,-3,0.06,0,69,8329,25,41,83,0.501,0.0,638,4.85,13.4,0.0,1,38.4,7.01,22.5,0,0,0,1,0,0,250,250,0,0.0,0.0,0.0,0.0,0,0,0.0,0,0.0,-1,0.0,,0.0,0,0.0,0.419
25163,0,,,,,,,,-0.0,-0.04,-2.76,0,-2,-2,0.04,,69,8329,25,41,80,0.5,0.0,655,4.86,13.3,0.0,1,40.7,7.27,22.5,0,0,0,1,0,0,250,250,0,,,,,,,,,,,,,,,,
25183,0,,,,,,,,0.08,0.05,-2.86,0,-1,-0,0.09,,70,8894,24,41,75,0.5,0.0,677,4.85,13.2,0.0,1,41.7,3.14,22.5,0,0,0,1,0,0,250,250,0,,,,,,,,,,,,,,,,
25203,0,,,,,,,,0.05,0.02,-2.73,0,-1,0,0.05,,70,9878,24,41,66,0.5,0.0,690,4.85,13.2,0.0,1,41.6,5.75,22.5,0,0,0,1,0,0,250,250,0,,,,,,,,,,,,,,,,
25223,0,,,,,,,,0.1,0.19,-2.83,0,-0,2,0.22,,70,10229,23,42,66,0.5,0.0,690,4.85,13.2,0.0,1,40.4,5.75,25.2,0,0,0,1,0,0,250,250,0,,,,,,,,,,,,,,,,
25243,0,0,3,39,40,33,33,-67,0.13,0.16,-2.92,0,0,4,0.21,0,70,10229,23,42,63,0.5,0.0,687,4.87,13.3,0.0,1,41.5,5.44,25.2,0,0,0,1,0,0,250,250,0,0.0,0.0,0.0,0.0,0,0,0.0,0,0.0,-1,0.0,0.0,0.0,0,0.0,0.4207
25263,0,,,,,,,,0.07,-0.0,-2.68,0,0,2,0.07,,70,10157,20,42,58,0.5,0.0,698,4.85,13.3,0.0,1,41.8,2.58,25.2,0,0,0,1,0,0,250,250,0,,,,,,,,,,,,,,,,
25283,0,,,,,,,,0.03,-0.06,-2.56,0,-0,0,0.07,,70,9925,19,42,58,0.5,0.0,698,4.83,13.2,0.0,1,40.8,4.93,25.2,0,0,0,1,0,0,250,250,0,,,,,,,,,,,,,,,,
25303,0,,,,,,,,0.08,0.08,-2.68,1,1,2,0.11,,70,9925,19,42,56,0.5,0.0,685,4.86,13.3,0.0,1,40.2,4.73,25.2,0,0,0,1,0,0,250,250,0,,,,,,,,,,,,,,,,
25323,0,,,,,,,,0.0,0.06,-2.45,1,0,0,0.06,,70,9527,16,42,52,0.5,0.0,686,4.82,13.2,0.0,1,40.0,4.63,21.5,0,0,0,1,0,0,250,250,0,,,,,,,,,,,,,,,,
25343,0,1,1,39,41,33,33,-68,-0.06,0.04,-2.48,1,1,1,0.07,0,70,9527,16,42,52,0.5,0.0,686,4.82,13.2,0.0,1,39.4,2.26,21.5,0,0,0,1,0,0,250,250,0,0.0,0.0,0.0,0.0,0,0,0.0,0,0.0,-1,0.0,,0.0,0,0.0,0.4224
25363,0,,,,,,,,0.03,0.06,-2.6,0,0,0,0.07,,70,9079,15,42,50,0.5,0.0,682,4.88,13.3,0.0,1,38.5,4.01,21.5,0,0,0,1,0,0,250,250,0,,,,,,,,,,,,,,,,
25383,0,,,,,,,,0.04,0.14,-2.72,0,1,2,0.15,,70,8877,14,42,50,0.5,0.0,682,4.88,13.3,0.0,1,38.3,3.8,21.5,0,0,0,1,0,0,250,250,0,,,,,,,,,,,,,,,,
25403,0,,,,,,,,0.06,0.15,-2.77,0,1,1,0.16,,70,8712,14,42,48,0.5,0.0,677,4.85,13.2,0.0,1,37.3,2.97,21.5,0,0,0,1,0,0,250,250,0,,,,,,,,,,,,,,,,
25423,0,,,,,,,,0.04,0.08,-2.57,0,1,-0,0.09,,70,8712,14,42,48,0.5,0.0,677,4.85,13.2,0.0,1,37.3,2.9,12.1,0,0,0,1,0,0,250,250,0,,,,,,,,,,,,,,,,
25443,0,-1,2,39,40,33,33,-68,0.05,0.07,-2.69,0,1,1,0.09,0,70,8340,14,42,47,0.5,0.0,671,4.87,13.4,0.0,1,36.9,1.79,12.1,0,0,0,1,0,0,250,250,0,0.0,0.0,0.0,0.0,0,0,0.0,0,0.0,-1,0.0,0.0,0.0,0,0.0,0.424
25463,0,,,,,,,,0.03,0.09,-2.8,0,1,1,0.09,,70,8340,14,42,47,0.5,0.0,671,4.87,13.4,0.0,1,36.8,2.68,12.1,0,0,0,1,0,0,250,250,0,,,,,,,,,,,,,,,,
25483,0,,,,,,,,0.04,0.09,-2.9,0,2,2,0.1,,70,8067,14,41,46,0.5,0.0,671,4.88,13.3,0.0,1,36.0,2.53,12.1,0,0,0,1,0,0,250,250,0,,,,,,,,,,,,,,,,
25503,0,,,,,,,,0.05,0.12,-2.65,0,0,1,0.13,,70,7968,14,41,45,0.5,0.0,661,4.87,13.4,0.0,1,35.0,1.21,8.7,0,0,0,1,0,0,250,250,0,,,,,,,,,,,,,,,,
25523,0,,,,,,,,0.02,0.1,-2.76,0,1,1,0.1,,70,7968,14,41,45,0.5,0.0,661,4.87,13.4,0.0,1,35.0,1.21,8.7,0,0,0,1,0,0,250,250,0,,,,,,,,,,,,,,,,
25543,0,0,0,39,40,33,33,-68,-0.0,0.12,-2.87,0,2,3,0.12,0,70,7809,14,41,46,0.5,0.0,660,4.89,13.3,0.0,1,35.4,2.29,8.7,0,0,0,1,0,0,250,250,0,0.0,0.0,0.0,0.0,0,0,0.0,0,0.0,-1,0.0,,0.0,0,0.0,0.4257
25563,0,,,,,,,,0.01,0.1,-2.88,0,1,3,0.1,,70,7828,13,41,46,0.5,0.0,660,4.9,13.3,0.0,1,35.3,2.29,8.7,0,0,0,1,0,0,250,250,0,,,,,,,,,,,,,,,,
25583,0,,,,,,,,0.05,0.1,-2.82,1,1,3,0.11,,70,7828,13,41,46,0.5,0.0,660,4.9,13.3,0.0,1,35.3,2.29,8.7,0,0,0,1,0,0,250,250,0,,,,,,,,,,,,,,,,
25603,0,,,,,,,,0.04,0.1,-2.79,0,1,2,0.11,,70,7911,13,41,45,0.5,0.0,650,4.88,13.4,0.0,1,35.2,2.29,8.7,0,0,0,1,0,0,250,250,0,,,,,,,,,,,,,,,,
25623,0,,,,,,,,0.02,0.05,-2.89,0,2,4,0.06,,70,8050,13,41,45,0.5,0.0,658,4.88,13.3,0.0,1,35.2,1.27,8.3,0,0,0,1,0,0,250,250,0,,,,,,,,,,,,,,,,
25643,0,-0,2,39,40,33,33,-67,0.04,0.0,-2.81,1,1,3,0.04,0,70,8187,13,41,44,0.5,0.0,665,4.87,13.4,0.0,1,34.6,1.4,8.3,0,0,0,1,0,0,250,250,0,0.0,0.0,0.0,0.0,0,0,0.0,0,0.0,-1,0.0,0.0,0.0,0,0.0,0.4274
25663,0,,,,,,,,0.02,0.05,-2.91,1,2,4,0.05,,70,8187,13,41,44,0.5,0.0,665,4.87,13.4,0.0,1,34.6,1.4,8.3,0,0,0,1,0,0,250,250,0,,,,,,,,,,,,,,,,
25683,0,,,,,,,,0.01,0.01,-2.66,1,1,2,0.02,,70,8480,13,41,44,0.5,0.0,672,4.88,13.2,0.0,1,34.8,2.65,8.3,0,0,0,1,0,0,250,250,0,,,,,,,,,,,,,,,,
25703,0,,,,,,,,0.02,0.05,-2.77,1,2,3,0.06,,70,8593,13,41,41,0.5,0.0,662,4.88,13.4,0.0,1,33.7,2.72,8.3,0,0,0,1,0,0,250,250,0,,,,,,,,,,,,,,,,
25723,0,,,,,,,,0.01,0.07,-2.88,1,3,4,0.08,,70,8716,13,41,41,0.5,0.0,673,4.87,13.3,0.0,1,33.2,2.73,10.8,0,0,0,1,0,0,250,250,0,,,,,,,,,,,,,,,,
25743,0,0,0,39,40,33,33,-67,0.04,0.16,-2.97,0,3,5,0.17,0,70,8716,13,41,41,0.5,0.0,673,4.87,13.3,0.0,1,33.2,2.73,10.8,0,0,0,1,0,0,250,250,0,0.0,0.0,0.0,0.0,0,0,0.0,0,0.0,-1,0.0,,0.0,0,0.0,0.429
25763,0,,,,,,,,0.02,0.1,-2.79,0,3,2,0.1,,70,8856,13,41,39,0.5,0.0,672,4.88,13.3,0.0,1,32.0,2.68,10.8,0,0,0,1,0,0,250,250,0,,,,,,,,,,,,,,,,
25783,0,,,,,,,,0.03,0.09,-2.89,0,2,1,0.09,,70,8856,13,41,39,0.5,0.0,672,4.88,13.3,0.0,1,32.0,2.68,10.8,0,0,0,1,0,0,250,250,0,,,,,,,,,,,,,,,,
25803,0,,,,,,,,0.03,0.04,-2.98,-0,1,-2,0.05,,70,8971,12,41,38,0.5,0.0,677,4.86,13.3,0.0,1,31.7,2.64,10.8,0,0,0,1,0,0,250,250,0,,,,,,,,,,,,,,,,
25823,0,,,,,,,,0.01,0.03,-3.06,-0,0,-4,0.03,,70,8945,11,41,37,0.5,0.0,678,4.87,13.3,0.0,1,31.7,2.64,10.9,0,0,0,1,0,0,250,250,0,,,,,,,,,,,,,,,,
25843,0,-1,1,39,40,33,33,-68,0.01,-0.0,-2.96,-0,-1,-6,0.01,0,70,8848,8,41,36,0.5,0.0,677,4.9,13.4,0.0,1,31.1,1.49,10.9,0,0,0,1,0,0,250,250,0,0.0,0.0,0.0,0.0,0,0,0.0,0,0.0,-1,0.0,0.0,0.0,0,0.0,0.4307
25863,0,,,,,,,,-0.01,-0.08,-2.85,0,-1,-5,0.08,,70,8848,8,41,36,0.5,0.0,677,4.9,13.4,0.0,1,31.1,1.49,10.9,0,0,0,1,0,0,250,250,0,,,,,,,,,,,,,,,,
25883,0,,,,,,,,0.03,-0.01,-2.79,0,-1,-2,0.03,,70,8684,7,41,33,0.5,0.0,671,4.88,13.4,0.0,1,30.2,1.36,10.9,0,0,0,1,0,0,250,250,0,,,,,,,,,,,,,,,,
25903,0,,,,,,,,0.02,0.04,-2.85,0,-1,-4,0.05,,70,8256,6,41,32,0.5,0.0,660,4.88,13.3,0.0,1,30.0,2.38,10.9,0,0,0,1,0,0,250,250,0,,,,,,,,,,,,,,,,
25923,0,,,,,,,,0.04,-0.03,-2.71,0,-0,-1,0.05,,70,8256,6,41,32,0.5,0.0,660,4.88,13.3,0.0,1,29.5,1.07,9.0,0,0,0,1,0,0,250,250,0,,,,,,,,,,,,,,,,
25943,0,0,2,39,40,33,33,-68,0.06,-0.01,-2.56,0,-2,-3,0.06,0,70,7796,6,41,31,0.5,0.0,663,4.88,13.3,0.0,1,28.7,1.94,9.0,0,0,0,1,0,0,250,250,0,0.0,0.0,0.0,0.0,0,0,0.0,0,0.0,-1,0.0,,0.0,0,0.0,0.4324
25963,0,,,,,,,,0.06,-0.04,-2.4,0,-3,-4,0.07,,70,7591,6,41,31,0.5,0.0,650,4.87,13.4,0.0,1,28.6,1.94,9.0,0,0,0,1,0,0,250,250,0,,,,,,,,,,,,,,,,
25983,0,,,,,,,,0.04,-0.08,-2.35,0,-4,-4,0.09,,70,7591,6,41,31,0.5,0.0,650,4.87,13.4,0.0,1,28.6,0.84,9.0,0,0,0,1,0,0,250,250,0,,,,,,,,,,,,,,,,
26003,0,,,,,,,,0.08,-0.11,-2.15,0,-4,-4,0.13,,70,7159,6,41,31,0.5,0.0,643,4.86,13.4,0.0,1,28.6,1.94,9.0,0,0,0,1,0,0,250,250,0,,,,,,,,,,,,,,,,
26023,0,,,,,,,,0.07,-0.08,-2.3,0,-2,-1,0.1,,70,7159,6,41,32,0.5,0.0,648,4.88,13.2,0.0,1,29.0,1.91,6.5,0,0,0,1,0,0,250,250,0,,,,,,,,,,,,,,,,
26043,0,1,2,39,40,33,33,-67,0.02,-0.1,-2.44,0,-3,-4,0.1,0,70,6749,6,41,32,0.5,0.0,630,4.88,13.4,0.0,1,28.8,0.81,6.5,0,0,0,1,0,0,250,250,0,0.0,0.0,0.0,0.0,0,0,0.0,0,0.0,-1,0.0,0.0,0.0,0,0.0,0.434
26063,0,,,,,,,,0.03,-0.07,-2.44,0,-0,-1,0.08,,70,6562,6,41,32,0.5,0.0,630,4.88,13.4,0.0,1,28.8,0.81,6.5,0,0,0,1,0,0,250,250,0,,,,,,,,,,,,,,,,
26083,0,,,,,,,,0.12,-0.11,-2.24,0,-4,-3,0.16,,70,6562,6,41,32,0.5,0.0,608,4.88,13.4,0.0,1,28.7,1.91,6.5,0,0,0,1,0,0,250,250,0,,,,,,,,,,,,,,,,
26103,0,,,,,,,,0.08,-0.16,-2.38,0,-7,-6,0.18,,70,6159,6,41,32,0.5,0.0,595,4.9,13.4,0.0,1,28.6,1.91,6.5,0,0,0,1,0,0,250,250,0,,,,,,,,,,,,,,,,
26123,0,,,,,,,,0.03,-0.13,-2.52,-0,-9,-8,0.14,,70,6159,6,41,32,0.5,0.0,595,4.9,13.4,0.0,1,28.4,1.91,5.5,0,0,0,1,0,0,250,250,0,,,,,,,,,,,,,,,,
26143,0,0,2,39,40,33,33,-67,0.01,-0.08,-2.64,-0,-12,-10,0.08,0,70,5788,6,41,33,0.5,0.0,550,4.91,13.4,0.0,1,28.3,1.92,5.5,0,0,0,1,0,0,250,250,0,0.0,0.0,0.0,0.0,0,0,0.0,0,0.0,-1,0.0,,0.0,0,0.0,0.4357
26163,0,,,,,,,,0.07,-0.06,-2.42,-0,-16,-13,0.09,,70,5788,6,41,33,0.5,0.0,550,4.91,13.4,0.0,1,27.9,2.0,5.5,0,0,0,1,0,0,250,250,0,,,,,,,,,,,,,,,,
26183,0,,,,,,,,0.09,-0.1,-2.21,-0,-11,-10,0.13,,70,5458,6,41,34,0.5,0.0,537,4.87,13.3,0.0,1,27.5,2.09,5.5,0,0,0,1,0,0,250,250,0,,,,,,,,,,,,,,,,
26203,0,,,,,,,,-0.02,-0.13,-2.36,0,-9,-8,0.13,,70,5458,6,41,35,0.5,0.0,511,4.9,13.5,0.0,1,27.3,1.09,5.5,0,0,0,1,0,0,250,250,0,,,,,,,,,,,,,,,,
26223,0,,,,,,,,0.06,-0.09,-2.16,0,-13,-11,0.11,,70,5128,6,41,35,0.5,0.0,500,4.9,13.4,0.0,1,26.8,2.22,5.4,0,0,0,1,0,0,250,250,0,,,,,,,,,,,,,,,,
26243,0,0,2,39,40,33,33,-68,0.04,-0.16,-2.32,0,-11,-8,0.16,0,70,5128,6,41,36,0.5,0.0,490,4.88,13.5,0.0,1,26.8,1.24,5.4,0,0,0,1,0,0,250,250,0,0.0,0.0,0.0,0.0,0,0,0.0,0,0.0,-1,0.0,0.0,0.0,0,0.0,0.4374
26263,0,,,,,,,,0.01,-0.11,-2.3,0,-8,-5,0.11,,70,4789,7,41,37,0.5,0.0,446,4.88,13.3,0.0,1,26.0,1.32,5.4,0,0,0,1,0,0,250,250,0,,,,,,,,,,,,,,,,
26283,0,,,,,,,,-0.04,-0.08,-2.11,0,-7,-6,0.09,,70,4789,7,41,37,0.5,0.0,446,4.88,13.2,0.0,1,24.4,2.36,5.4,0,0,0,1,0,0,250,250,0,,,,,,,,,,,,,,,,
26303,0,,,,,,,,-0.08,-0.07,-1.93,0,-6,-6,0.1,,70,4502,8,41,39,0.5,0.0,406,4.9,13.5,0.0,1,23.1,2.37,5.4,0,0,0,1,0,0,250,250,0,,,,,,,,,,,,,,,,
26323,0,,,,,,,,-0.13,-0.03,-1.79,0,-4,-6,0.13,,70,4397,8,41,39,0.5,0.0,406,4.88,13.4,0.0,1,21.7,2.37,5.1,0,0,0,1,0,0,250,250,0,,,,,,,,,,,,,,,,
26343,0,0,0,39,40,33,33,-67,-0.17,-0.02,-1.7,0,-3,-5,0.17,0,70,4254,8,41,42,0.501,0.0,403,4.88,13.3,0.0,1,19.4,2.29,5.1,0,0,0,1,0,0,250,250,0,0.0,0.0,0.0,0.0,0,0,0.0,0,0.0,-1,0.0,,0.0,0,0.0,0.439
26363,0,,,,,,,,-0.19,-0.03,-1.89,0,-1,-4,0.19,,70,4171,9,41,42,0.501,0.0,403,4.88,13.3,0.0,1,19.4,2.29,5.1,0,0,0,1,0,0,250,250,0,,,,,,,,,,,,,,,,
26383,0,,,,,,,,-0.15,-0.05,-2.06,0,-1,-4,0.16,,70,4107,9,41,45,0.501,0.0,372,4.9,13.5,0.0,1,18.4,2.27,5.1,0,0,0,1,0,0,250,250,0,,,,,,,,,,,,,,,,
26403,0,,,,,,,,-0.13,-0.03,-2.04,0,-2,-4,0.13,,70,3967,9,41,45,0.501,0.0,372,4.9,13.5,0.0,1,18.4,2.27,5.1,0,0,0,1,0,0,250,250,0,,,,,,,,,,,,,,,,
26423,0,,,,,,,,-0.11,-0.03,-2.11,0,-1,-3,0.11,,70,3967,9,41,46,0.501,0.0,348,4.89,13.5,0.0,1,17.2,2.22,4.2,0,0,0,1,0,0,250,250,0,,,,,,,,,,,,,,,,
26443,0,-1,0,39,40,33,33,-68,-0.1,-0.01,-2.16,0,-1,-3,0.1,0,70,3698,13,41,52,0.501,0.0,331,4.88,13.5,0.0,1,16.5,2.23,4.2,0,0,0,1,0,0,250,250,0,0.0,0.0,0.0,0.0,0,0,0.0,0,0.0,-1,0.0,0.0,0.0,0,0.0,0.4407
26463,0,,,,,,,,-0.07,-0.03,-2.31,0,-1,-2,0.08,,70,3587,15,41,52,0.501,0.0,331,4.88,13.5,0.0,1,16.5,2.23,4.2,0,0,0,1,0,0,250,250,0,,,,,,,,,,,,,,,,
26483,0,,,,,,,,-0.07,-0.05,-2.25,0,-2,-3,0.09,,70,3587,15,41,56,0.502,0.0,339,4.91,13.5,0.0,1,15.7,2.33,4.2,0,0,0,1,0,0,250,250,0,,,,,,,,,,,,,,,,
26503,0,,,,,,,,-0.08,-0.05,-2.37,0,-1,-3,0.09,,70,3425,17,41,65,0.502,0.0,311,4.91,13.5,0.0,1,16.4,2.6,4.0,0,0,0,1,0,0,250,250,0,,,,,,,,,,,,,,,,
26523,0,,,,,,,,-0.04,-0.07,-2.45,0,-1,-2,0.08,,70,3341,17,41,69,0.502,0.0,295,4.91,13.5,0.0,1,16.4,2.6,4.0,0,0,0,1,0,0,250,250,0,,,,,,,,,,,,,,,,
26543,0,1,2,39,41,33,33,-68,-0.02,-0.07,-2.5,0,-1,-2,0.08,0,70,3339,17,41,69,0.502,0.0,295,4.91,13.5,0.0,1,17.8,2.67,4.0,0,0,0,1,0,0,250,250,0,0.0,0.0,0.0,0.0,0,0,0.0,0,0.0,-1,0.0,,0.0,0,0.0,0.4424
26563,0,,,,,,,,-0.04,-0.07,-2.48,0,-2,-2,0.08,,70,3339,17,41,72,0.502,0.0,306,4.91,13.5,0.0,1,18.7,1.66,4.0,0,0,0,1,0,0,250,250,0,,,,,,,,,,,,,,,,
26583,0,,,,,,,,-0.04,-0.07,-2.6,0,-0,-2,0.08,,70,3518,17,41,75,0.502,0.0,311,4.9,13.3,0.0,1,19.7,1.67,4.0,0,0,0,1,0,0,250,250,0,,,,,,,,,,,,,,,,
26603,0,,,,,,,,-0.02,-0.05,-2.48,0,-1,-2,0.06,,70,3779,17,41,79,0.502,0.0,331,4.89,13.4,0.0,1,23.1,1.81,4.8,0,0,0,1,0,0,250,250,0,,,,,,,,,,,,,,,,
26623,0,,,,,,,,-0.02,-0.07,-2.61,0,-0,-1,0.07,,70,3821,17,41,81,0.502,0.0,325,4.89,13.4,0.0,1,23.1,1.81,4.8,0,0,0,1,0,0,250,250,0,,,,,,,,,,,,,,,,
26643,0,0,1,39,40,33,33,-67,-0.02,-0.04,-2.43,0,-1,-2,0.04,0,70,3900,17,41,81,0.502,0.0,325,4.9,13.5,0.0,1,24.0,3.02,4.8,0,0,0,1,0,0,250,250,0,0.0,0.0,0.0,0.0,0,0,0.0,0,0.0,-1,0.0,0.0,0.0,0,0.0,0.444
26663,0,,,,,,,,-0.03,-0.05,-2.56,0,-0,-1,0.06,,70,3900,17,41,82,0.502,0.0,345,4.89,13.3,0.0,1,24.8,3.09,4.8,0,0,0,1,0,0,250,250,0,,,,,,,,,,,,,,,,
26683,0,,,,,,,,-0.01,-0.06,-2.67,0,-1,-1,0.06,,70,3974,17,41,83,0.502,0.0,347,4.91,13.4,0.0,1,25.6,2.13,4.8,0,0,0,1,0,0,250,250,0,,,,,,,,,,,,,,,,
