"Interval"|"ms"|0|0|1,"Utc"|"ms"|0|0|1,"Brake_F"|"Bar"|0|2000|10,"Brake_R"|"Bar"|0|2000|10,"Height_RF"|"mm"|0|255|50,"Height_LF"|"mm"|0|255|50,"Height_LR"|"mm"|0|80|50,"Height_RR"|"mm"|0|255|50,"Steering"|"deg"|-100|100|10,"AccelX"|"G"|-3.0|3.0|50,"AccelY"|"G"|-3.0|3.0|50,"AccelZ"|"G"|-3.0|3.0|50,"Yaw"|"Deg/Sec"|-120|120|50,"Pitch"|"Deg/Sec"|-120|120|50,"Roll"|"Deg/Sec"|-120|120|50,"Gsum"|"G"|0.0|3.0|50,"Log_Button"|""|0.0|10.0|10,"WaterTemp"|"C"|0|150|50,"RPM"|"tr/min"|0|14000|50,"TPS"|"%"|0|100|50,"AirTemp"|"C"|0|150|50,"MAP"|"KPa"|0|100|50,"Lambda"|""|0.5|1.5|50,"SpeedDTA"|"kph"|0.0|250.0|50,"OilPress"|"KPa"|0|1500|50,"FuelPressur"|"Bar"|0.0|10.0|50,"Batterie"|"V"|0.0|20.0|50,"ConsoKm"|"L/100km"|0.0|200.0|50,"Gear"|""|0|6|50,"AdvIgnition"|"Deg"|-20.0|70.0|50,"Injection"|"ms"|0.0|10.0|50,"ConsoHr"|"L/Hr"|0.0|10000.0|50,"LC_But_Pres"|""|0|1|50,"LC_Active"|""|0|1|50,"TractionOn"|""|0|1|50,"TractionWet"|""|0|1|50,"FanOn"|""|0|1|50,"RD_Speed"|"km/h"|-30|250|10,"RUD_Speed"|"km/h"|-30|250|10,"LD_Speed"|"km/h"|-30|250|10,"LUD_Speed"|"km/h"|-30|250|10,"Latitude"|"Degrees"|-180.0|180.0|10,"Longitude"|"Degrees"|-180.0|180.0|10,"Speed"|"kph"|0.0|150.0|10,"Altitude"|"m"|0.0|4000.0|10,"GPSSats"|""|0|20|10,"GPSQual"|""|0|5|10,"GPSDOP"|""|0.0|20.0|10,"LapCount"|""|0|0|10,"LapTime"|"Min"|0.0|0.0|10,"Sector"|""|0|0|10,"SectorTime"|"Min"|0.0|0.0|10,"PredTime"|"Min"|0.0|0.0|5,"ElapsedTime"|"Min"|0.0|0.0|10,"CurrentLap"|""|0|0|10,"Distance"|"km"|0.0|0.0|10,"SessionTime"|"Min"|0.0|0.0|10
121064,1626449492371,,,252,256,237,232,,-0.0,0.01,-3.01,-0,0,-0,0.01,,79,1810,7,35,91,0.931,0.0,199,4.33,13.4,0.0,1,0.1,3.17,2.7,0,0,0,1,0,,,,,,,,,,,,,,,,,,,,
121084,1626449492393,,,253,255,237,232,,-0.0,0.01,-3.0,-0,0,-0,0.01,,78,1779,7,35,92,0.931,0.0,198,4.23,13.5,0.0,1,0.1,3.17,2.7,0,0,0,1,0,,,,,,,,,,,,,,,,,,,,
121104,1626449492413,,,253,256,237,232,,-0.0,0.01,-3.0,-0,-0,-0,0.01,,78,1831,7,35,92,0.931,0.0,201,4.33,13.5,0.0,1,0.1,3.17,2.7,0,0,0,1,0,,,,,,,,,,,,,,,,,,,,
121124,1626449492433,,,252,256,237,232,,0.0,0.01,-3.01,-0,0,-0,0.01,,78,1877,7,35,92,0.931,0.0,202,4.34,13.4,0.0,1,0.1,3.17,2.7,0,0,0,1,0,,,,,,,,,,,,,,,,,,,,
121144,1626449492453,0,0,253,255,237,232,5,-0.0,0.01,-2.98,-0,0,-0,0.01,0,79,1843,7,35,91,0.93,0.0,197,4.25,13.3,0.0,1,0.1,3.17,2.7,0,0,0,1,0,0,250,250,0,45.847061,5.177974,0.0,221.4,9,3,1.7,0,0.0,1,0.1483,,1.0917,1,0.18,2.0191
121164,1626449492473,,,252,255,237,232,,-0.01,0.01,-2.99,-0,0,-0,0.01,,78,1776,7,35,91,0.93,0.0,196,4.18,13.4,0.0,1,0.1,3.17,2.7,0,0,0,1,0,,,,,,,,,,,,,,,,,,,,
121184,1626449492493,,,252,256,237,232,,-0.0,0.0,-2.98,-0,0,-0,0.01,,78,1727,7,35,92,0.929,0.0,197,4.3,13.4,0.0,1,0.1,3.17,2.7,0,0,0,1,0,,,,,,,,,,,,,,,,,,,,
121204,1626449492513,,,253,256,237,232,,-0.0,-0.0,-2.98,-0,-0,-0,0.0,,78,1749,7,35,92,0.929,0.0,197,4.35,13.5,0.0,1,0.1,3.17,2.7,0,0,0,1,0,,,,,,,,,,,,,,,,,,,,
121224,1626449492533,,,253,255,237,232,,0.01,-0.0,-2.98,-0,-0,-0,0.01,,78,1824,7,35,92,0.928,0.0,196,4.34,13.5,0.0,1,0.0,2.09,2.6,0,0,0,1,0,,,,,,,,,,,,,,,,,,,,
121244,1626449492553,1,0,253,256,237,232,5,-0.0,-0.01,-2.97,-0,0,-0,0.01,0,79,1815,7,35,91,0.927,0.0,197,4.26,13.2,0.0,1,0.0,3.17,2.6,0,0,0,1,0,0,250,250,0,45.847061,5.177974,0.0,221.4,9,3,1.7,0,0.0,1,0.1483,0.0,1.0933,1,0.18,2.0207
121264,1626449492573,,,253,255,237,232,,-0.0,-0.01,-2.96,-0,-0,-0,0.01,,79,1756,7,35,92,0.926,0.0,194,4.3,13.5,0.0,1,0.0,3.17,2.6,0,0,0,1,0,,,,,,,,,,,,,,,,,,,,
121284,1626449492593,,,253,256,237,232,,-0.0,-0.01,-2.96,-0,0,-0,0.01,,78,1674,7,35,92,0.925,0.0,192,4.3,13.5,0.0,1,0.0,2.09,2.6,0,0,0,1,0,,,,,,,,,,,,,,,,,,,,
121304,1626449492613,,,253,256,237,232,,-0.01,-0.01,-2.96,-0,-0,-0,0.01,,78,1635,7,35,92,0.925,0.0,189,4.33,13.4,0.0,1,0.0,3.17,2.6,0,0,0,1,0,,,,,,,,,,,,,,,,,,,,
121324,1626449492633,,,253,256,237,232,,-0.0,-0.01,-2.97,-0,-0,-0,0.01,,79,1681,7,35,93,0.924,0.0,189,4.34,13.5,0.0,1,0.0,3.17,2.3,0,0,0,1,0,,,,,,,,,,,,,,,,,,,,
121344,1626449492653,0,2,253,256,237,232,5,0.0,-0.01,-2.98,-0,-0,-0,0.01,0,78,1737,7,35,92,0.925,0.0,192,4.35,13.5,0.0,1,0.0,3.17,2.3,0,0,0,1,0,0,250,250,0,45.847061,5.177974,0.0,221.4,9,3,1.7,0,0.0,1,0.1483,,1.095,1,0.18,2.0224
121364,1626449492673,,,253,255,237,232,,0.0,-0.01,-2.99,-0,-0,-0,0.01,,79,1747,7,35,92,0.924,0.0,194,4.31,13.4,0.0,1,0.0,3.17,2.3,0,0,0,1,0,,,,,,,,,,,,,,,,,,,,
121384,1626449492693,,,253,255,237,232,,0.0,-0.01,-2.99,-0,-0,-0,0.01,,79,1674,7,35,92,0.923,0.0,191,4.29,13.1,0.0,1,0.0,3.17,2.3,0,0,0,1,0,,,,,,,,,,,,,,,,,,,,
121404,1626449492713,,,253,256,237,232,,0.0,-0.01,-2.97,-0,-0,-0,0.01,,79,1586,7,35,92,0.922,0.0,187,4.32,13.1,0.0,1,0.0,3.17,2.3,0,0,0,1,0,,,,,,,,,,,,,,,,,,,,
121424,1626449492733,,,253,256,237,232,,-0.0,-0.01,-2.96,-0,-0,-0,0.01,,79,1563,7,35,92,0.922,0.0,183,4.34,13.4,0.0,1,0.1,3.17,2.3,0,0,0,1,0,,,,,,,,,,,,,,,,,,,,
121444,1626449492753,0,2,253,255,237,232,5,-0.0,-0.0,-2.95,-0,-0,-0,0.01,0,79,1682,7,35,92,0.921,0.0,187,4.33,13.5,0.0,1,0.1,3.17,2.3,0,0,0,1,0,0,250,250,0,45.847061,5.177974,0.0,221.4,9,3,1.7,0,0.0,1,0.1483,0.0,1.0967,1,0.18,2.0241
121464,1626449492773,,,252,256,237,232,,-0.0,-0.0,-2.97,-0,-0,-0,0.0,,79,1806,7,35,93,0.921,0.0,192,4.28,13.5,0.0,1,0.1,3.17,2.3,0,0,0,1,0,,,,,,,,,,,,,,,,,,,,
121484,1626449492792,,,252,255,237,232,,0.0,-0.0,-2.97,-0,-0,-0,0.0,,79,1852,7,35,92,0.92,0.0,193,4.28,13.5,0.0,1,0.1,2.09,2.3,0,0,0,1,0,,,,,,,,,,,,,,,,,,,,
121504,1626449492812,,,253,255,237,232,,0.01,-0.0,-2.97,-0,-0,-0,0.01,,79,1730,7,35,92,0.918,0.0,194,4.27,13.4,0.0,1,0.1,3.17,2.3,0,0,0,1,0,,,,,,,,,,,,,,,,,,,,
121524,1626449492832,,,253,256,237,232,,0.0,0.0,-2.98,-0,-0,-0,0.0,,79,1632,7,35,92,0.918,0.0,192,4.3,13.3,0.0,1,0.1,2.09,2.5,0,0,0,1,0,,,,,,,,,,,,,,,,,,,,
121544,1626449492852,0,1,253,256,237,232,5,0.0,0.0,-2.97,-0,-0,-0,0.0,0,79,1627,7,35,91,0.917,0.0,189,4.33,13.2,0.0,1,0.1,3.17,2.5,0,0,0,1,0,0,250,250,0,45.847061,5.177974,0.0,221.4,9,3,1.7,0,0.0,1,0.1483,,1.0983,1,0.18,2.0257
121564,1626449492872,,,253,256,237,232,,-0.01,0.0,-2.97,-0,-0,-0,0.01,,79,1801,7,35,92,0.915,0.0,191,4.32,13.5,0.0,1,0.1,2.09,2.5,0,0,0,1,0,,,,,,,,,,,,,,,,,,,,
121584,1626449492892,,,253,256,237,232,,-0.0,0.0,-2.98,-0,-0,-0,0.0,,79,1912,7,35,92,0.914,0.0,196,4.29,13.5,0.0,1,0.1,3.17,2.5,0,0,0,1,0,,,,,,,,,,,,,,,,,,,,
121604,1626449492912,,,253,256,237,232,,0.0,-0.0,-2.99,-0,-0,-0,0.0,,79,1909,7,35,92,0.913,0.0,199,4.38,13.4,0.0,1,0.1,2.09,2.5,0,0,0,1,0,,,,,,,,,,,,,,,,,,,,
121624,1626449492932,,,253,256,237,232,,-0.0,-0.0,-2.98,-0,-0,-0,0.0,,79,1835,7,35,91,0.911,0.0,199,4.33,13.2,0.0,1,0.1,3.17,2.8,0,0,0,1,0,,,,,,,,,,,,,,,,,,,,
121644,1626449492952,0,2,252,255,237,232,5,-0.0,-0.0,-2.97,-0,-0,-0,0.0,0,79,1785,7,35,91,0.91,0.0,198,4.27,13.4,0.0,1,0.1,3.17,2.8,0,0,0,1,0,0,250,250,0,45.847061,5.177974,0.0,221.4,9,3,1.7,0,0.0,1,0.1483,0.0,1.1,1,0.18,2.0274
121664,1626449492972,,,252,256,237,232,,0.0,-0.0,-2.99,-0,-0,0,0.0,,79,1804,7,35,92,0.909,0.0,197,4.28,13.5,0.0,1,25.7,3.17,2.8,0,0,0,1,0,,,,,,,,,,,,,,,,,,,,
121684,1626449492992,,,253,256,237,232,,0.01,-0.01,-3.01,-0,-0,0,0.01,,79,1858,7,35,92,0.908,0.0,197,4.32,13.5,0.0,1,0.1,3.17,2.8,0,0,0,1,0,,,,,,,,,,,,,,,,,,,,
121704,1626449493004,,,253,255,237,232,,0.0,-0.01,-2.99,-0,-0,-0,0.01,,79,1881,7,35,91,0.909,0.0,202,4.36,13.3,0.0,1,0.1,3.17,2.8,0,0,0,1,0,,,,,,,,,,,,,,,,,,,,
121724,1626449493024,,,253,256,237,232,,-0.0,-0.01,-2.98,-0,-0,-0,0.01,,79,1799,7,35,91,0.908,0.0,200,4.33,13.4,0.0,1,0.1,3.17,2.7,0,0,0,1,0,,,,,,,,,,,,,,,,,,,,
121744,1626449493044,1,0,253,255,237,232,5,-0.0,-0.01,-2.98,-0,-0,-0,0.01,0,79,1716,7,35,92,0.908,0.0,194,4.33,13.5,0.0,1,0.1,3.17,2.7,0,0,0,1,0,0,250,250,0,45.847061,5.177974,0.0,221.4,9,3,1.7,0,0.0,1,0.1483,,1.1017,1,0.18,2.0291
121764,1626449493064,,,253,255,237,232,,-0.0,-0.01,-2.99,-0,-0,-0,0.01,,79,1719,7,35,92,0.908,0.0,194,4.32,13.5,0.0,1,0.1,3.17,2.7,0,0,0,1,0,,,,,,,,,,,,,,,,,,,,
121784,1626449493092,,,253,255,237,232,,0.01,-0.01,-3.01,-0,-0,-0,0.01,,79,1848,7,35,92,0.909,0.0,200,4.35,13.5,0.0,1,0.1,3.17,2.7,0,0,0,1,0,,,,,,,,,,,,,,,,,,,,
121804,1626449493112,,,253,255,237,232,,-0.0,-0.0,-2.98,-0,-0,-0,0.0,,79,1938,7,35,91,0.911,0.0,202,4.27,13.2,0.0,1,0.1,3.17,2.7,0,0,0,1,0,,,,,,,,,,,,,,,,,,,,
121824,1626449493132,,,253,256,237,232,,0.0,-0.01,-2.98,-0,-0,-0,0.01,,79,1898,7,35,92,0.912,0.0,200,4.24,13.4,0.0,1,0.0,3.17,2.8,0,0,0,1,0,,,,,,,,,,,,,,,,,,,,
121844,1626449493152,1,2,252,256,237,232,5,0.01,-0.01,-2.98,-0,-0,-0,0.01,0,79,1819,7,35,92,0.914,0.0,200,4.32,13.5,0.0,1,0.0,3.17,2.8,0,0,0,1,0,0,250,250,0,45.847061,5.177974,0.0,221.4,9,3,1.7,0,0.0,1,0.1483,0.0,1.1033,1,0.18,2.0307
121864,1626449493172,,,253,255,237,232,,0.01,-0.0,-2.99,-0,-0,-0,0.01,,79,1784,7,35,92,0.916,0.0,200,4.37,13.5,0.0,1,0.0,3.17,2.8,0,0,0,1,0,,,,,,,,,,,,,,,,,,,,
121884,1626449493192,,,253,256,237,232,,0.01,-0.0,-2.97,-0,-0,-0,0.01,,79,1886,7,35,91,0.918,0.0,200,4.25,13.2,0.0,1,0.0,3.17,2.8,0,0,0,1,0,,,,,,,,,,,,,,,,,,,,
121904,1626449493212,,,253,255,237,232,,0.0,-0.0,-2.98,-0,-0,-0,0.0,,79,1922,7,35,92,0.92,0.0,200,4.2,13.5,0.0,1,0.0,3.17,2.8,0,0,0,1,0,,,,,,,,,,,,,,,,,,,,
121924,1626449493232,,,253,255,237,232,,0.01,-0.0,-3.0,-0,-0,-0,0.01,,79,1882,7,35,92,0.924,0.0,201,4.31,13.5,0.0,1,0.0,3.17,2.8,0,0,0,1,0,,,,,,,,,,,,,,,,,,,,
121944,1626449493252,0,1,253,256,237,232,5,0.01,-0.0,-3.01,-0,-0,0,0.01,0,79,1803,7,35,92,0.925,0.0,200,4.33,13.5,0.0,1,0.0,3.17,2.8,0,0,0,1,0,0,250,250,0,45.847061,5.177974,0.0,221.4,9,3,1.7,0,0.0,1,0.1483,,1.105,1,0.18,2.0324
121964,1626449493272,,,253,256,237,232,,0.01,-0.0,-3.02,-0,-0,0,0.02,,79,1791,7,35,91,0.926,0.0,197,4.33,13.4,0.0,1,0.0,3.17,2.8,0,0,0,1,0,,,,,,,,,,,,,,,,,,,,
121984,1626449493292,,,252,256,237,232,,0.01,-0.0,-3.0,-0,-0,-0,0.01,,79,1892,7,35,91,0.928,0.0,197,4.29,13.2,0.0,1,0.0,3.17,2.8,0,0,0,1,0,,,,,,,,,,,,,,,,,,,,
122004,1626449493312,,,253,256,237,232,,0.01,-0.0,-3.01,-0,-0,-0,0.01,,79,1904,7,35,92,0.929,0.0,200,4.26,13.5,0.0,1,0.0,3.17,2.8,0,0,0,1,0,,,,,,,,,,,,,,,,,,,,
122024,1626449493332,,,252,256,237,232,,0.02,-0.0,-3.01,-0,-0,-0,0.02,,79,1877,7,35,92,0.93,0.0,200,4.34,13.4,0.0,1,-0.1,3.17,2.7,0,0,0,1,0,,,,,,,,,,,,,,,,,,,,
122044,1626449493352,1,1,253,256,237,232,4,0.02,-0.0,-3.01,-0,-0,-0,0.02,0,79,1794,7,35,91,0.931,0.0,200,4.36,13.4,0.0,1,-0.1,3.17,2.7,0,0,0,1,0,0,250,250,0,45.847061,5.177974,0.0,221.4,9,3,1.7,0,0.0,1,0.1483,0.0,1.1067,1,0.18,2.0341
122064,1626449493372,,,253,255,237,232,,0.01,0.0,-3.01,-0,-0,-0,0.01,,79,1754,7,35,91,0.931,0.0,197,4.28,13.4,0.0,1,-0.1,2.09,2.7,0,0,0,1,0,,,,,,,,,,,,,,,,,,,,
122084,1626449493392,,,252,256,237,232,,0.01,0.0,-3.0,-0,-0,-0,0.01,,79,1887,7,35,92,0.933,0.0,196,4.3,13.4,0.0,1,-0.1,3.17,2.7,0,0,0,1,0,,,,,,,,,,,,,,,,,,,,
122104,1626449493412,,,253,256,237,232,,0.01,0.0,-3.02,-0,-0,-0,0.01,,79,1982,7,35,92,0.933,0.0,203,4.35,13.5,0.0,1,-0.1,3.17,2.7,0,0,0,1,0,,,,,,,,,,,,,,,,,,,,
122124,1626449493432,,,252,256,237,232,,0.01,0.0,-3.01,-0,-0,-0,0.02,,79,1931,7,35,91,0.932,0.0,206,4.33,13.5,0.0,1,-0.1,3.17,2.8,0,0,0,1,0,,,,,,,,,,,,,,,,,,,,
122144,1626449493452,-1,2,253,256,237,232,5,0.01,-0.0,-3.03,-0,-0,-0,0.01,0,79,1788,7,35,91,0.932,0.0,200,4.26,13.4,0.0,1,-0.1,3.17,2.8,0,0,0,1,0,0,250,250,0,45.847061,5.177974,0.0,221.4,9,3,1.7,0,0.0,1,0.1483,,1.1083,1,0.18,2.0357
122164,1626449493472,,,253,256,237,232,,0.0,0.0,-3.01,-0,0,-0,0.0,,79,1813,7,35,91,0.931,0.0,196,4.27,13.5,0.0,1,-0.1,3.17,2.8,0,0,0,1,0,,,,,,,,,,,,,,,,,,,,
122184,1626449493492,,,253,256,237,232,,0.0,-0.0,-3.04,-0,-0,-0,0.01,,79,1958,7,35,92,0.931,0.0,205,4.31,13.5,0.0,1,-0.1,3.17,2.8,0,0,0,1,0,,,,,,,,,,,,,,,,,,,,
122204,1626449493512,,,253,256,237,232,,0.01,-0.01,-3.04,-0,-0,-0,0.01,,79,1995,7,35,91,0.931,0.0,208,4.34,13.4,0.0,1,-0.1,3.17,2.8,0,0,0,1,0,,,,,,,,,,,,,,,,,,,,
122224,1626449493532,,,253,255,237,232,,-0.0,-0.01,-3.02,-0,-0,-0,0.01,,79,1952,7,35,91,0.931,0.0,205,4.36,13.3,0.0,1,-0.2,3.17,2.9,0,0,0,1,0,,,,,,,,,,,,,,,,,,,,
122244,1626449493552,0,1,253,256,237,232,4,0.0,-0.01,-3.03,-0,-0,-0,0.01,1,79,1885,7,35,91,0.93,0.0,204,4.35,13.5,0.0,1,-0.2,3.17,2.9,0,0,0,1,0,0,250,250,0,45.847061,5.177974,0.0,221.4,9,3,1.7,0,0.0,1,0.1483,0.0,1.11,1,0.18,2.0374
122264,1626449493572,,,253,255,237,232,,0.01,-0.01,-3.01,-0,-0,-0,0.01,,79,1871,7,35,91,0.929,0.0,205,4.37,13.5,0.0,1,-0.2,3.17,2.9,0,0,0,1,0,,,,,,,,,,,,,,,,,,,,
122284,1626449493592,,,253,255,237,232,,0.0,-0.01,-2.99,-0,-0,-0,0.01,,79,1995,7,35,91,0.928,0.0,207,4.24,13.2,0.0,1,-0.2,3.17,2.9,0,0,0,1,0,,,,,,,,,,,,,,,,,,,,
122304,1626449493612,,,253,256,237,232,,-0.0,-0.01,-3.01,-0,-0,-0,0.01,,79,1998,7,35,91,0.926,0.0,206,4.32,13.5,0.0,1,-0.2,3.17,2.9,0,0,0,1,0,,,,,,,,,,,,,,,,,,,,
122324,1626449493632,,,252,256,237,232,,0.01,-0.01,-3.02,-0,-0,-0,0.01,,79,1961,7,35,91,0.925,0.0,206,4.31,13.5,0.0,1,24.3,3.17,2.9,0,0,0,1,0,,,,,,,,,,,,,,,,,,,,
122344,1626449493652,0,2,253,255,237,232,4,0.01,-0.01,-3.01,-0,-0,-0,0.01,1,79,1871,7,35,91,0.924,0.0,205,4.26,13.4,0.0,1,-0.2,3.17,2.9,0,0,0,1,0,0,250,250,0,45.847061,5.177974,0.0,221.4,9,3,1.7,0,0.0,1,0.1483,,1.1117,1,0.18,2.0391
122364,1626449493672,,,253,256,237,232,,-0.0,-0.01,-2.99,-0,-0,-0,0.01,,79,1922,7,35,91,0.923,0.0,205,4.29,13.4,0.0,1,-0.2,3.17,2.9,0,0,0,1,0,,,,,,,,,,,,,,,,,,,,
122384,1626449493692,,,252,255,237,232,,0.01,-0.01,-3.0,-0,-0,-0,0.01,,79,1969,7,35,92,0.923,0.0,206,4.31,13.5,0.0,1,-0.2,3.17,2.9,0,0,0,1,0,,,,,,,,,,,,,,,,,,,,
122404,1626449493712,,,253,255,237,232,,0.01,-0.01,-2.99,-0,-0,-0,0.01,,79,1983,7,35,91,0.923,0.0,206,4.27,13.5,0.0,1,-0.2,3.17,2.9,0,0,0,1,0,,,,,,,,,,,,,,,,,,,,
122424,1626449493732,,,253,255,237,232,,0.01,-0.01,-2.98,-0,-0,-0,0.01,,79,1847,7,35,91,0.922,0.0,205,4.21,13.3,0.0,1,-0.3,3.17,2.8,0,0,0,1,0,,,,,,,,,,,,,,,,,,,,
122444,1626449493752,1,2,252,256,237,232,5,0.0,-0.01,-2.96,-0,-0,-0,0.01,1,79,1793,7,35,91,0.921,0.0,203,4.27,13.5,0.0,1,-0.3,3.17,2.8,0,0,0,1,0,0,250,250,0,45.847061,5.177974,0.0,221.4,9,3,1.7,0,0.0,1,0.1483,0.0,1.1133,1,0.18,2.0407
122464,1626449493772,,,253,255,237,232,,0.01,-0.01,-2.98,-0,-0,-0,0.01,,79,1861,7,35,92,0.921,0.0,200,4.32,13.5,0.0,1,-0.3,3.17,2.8,0,0,0,1,0,,,,,,,,,,,,,,,,,,,,
122484,1626449493791,,,253,256,237,232,,0.01,-0.01,-2.99,-0,-0,-0,0.02,,79,1962,7,35,91,0.922,0.0,204,4.36,13.5,0.0,1,-0.3,3.17,2.8,0,0,0,1,0,,,,,,,,,,,,,,,,,,,,
122504,1626449493811,,,253,256,237,232,,0.01,-0.0,-2.96,-0,-0,-0,0.01,,79,1904,7,35,91,0.922,0.0,205,4.35,13.2,0.0,1,-0.3,3.17,2.8,0,0,0,1,0,,,,,,,,,,,,,,,,,,,,
122524,1626449493831,,,253,256,237,232,,0.0,-0.0,-2.97,-0,-0,-0,0.0,,79,1833,7,35,91,0.922,0.0,203,4.32,13.5,0.0,1,-0.3,3.17,2.7,0,0,0,1,0,,,,,,,,,,,,,,,,,,,,
122544,1626449493851,1,2,252,256,237,232,5,0.01,-0.0,-2.97,-0,-0,-0,0.01,1,79,1784,7,35,91,0.923,0.0,198,4.25,13.5,0.0,1,-0.3,3.17,2.7,0,0,0,1,0,0,250,250,0,45.847061,5.177974,0.0,221.4,9,3,1.7,0,0.0,1,0.1483,,1.115,1,0.18,2.0424
122564,1626449493871,,,253,255,237,232,,0.01,-0.0,-2.97,-0,-1,-0,0.01,,79,1838,7,35,91,0.924,0.0,200,4.3,13.4,0.0,1,-0.3,3.17,2.7,0,0,0,1,0,,,,,,,,,,,,,,,,,,,,
122584,1626449493891,,,253,256,237,232,,0.01,-0.0,-2.94,-0,-0,-0,0.01,,79,1945,7,35,91,0.925,0.0,202,4.28,13.3,0.0,1,-0.3,3.17,2.7,0,0,0,1,0,,,,,,,,,,,,,,,,,,,,
122604,1626449493911,,,253,256,237,232,,0.0,0.0,-2.96,-0,-0,-0,0.0,,79,1888,7,35,91,0.923,0.0,202,4.28,13.5,0.0,1,-0.3,3.17,2.7,0,0,0,1,0,,,,,,,,,,,,,,,,,,,,
122624,1626449493931,,,253,256,237,232,,0.01,0.0,-2.98,-0,-0,-0,0.01,,79,1808,7,35,91,0.923,0.0,200,4.28,13.5,0.0,1,-0.4,3.17,2.7,0,0,0,1,0,,,,,,,,,,,,,,,,,,,,
122644,1626449493951,0,1,253,256,237,232,4,0.01,-0.0,-2.98,-0,-0,-0,0.01,1,79,1755,7,35,92,0.923,0.0,197,4.33,13.5,0.0,1,-0.4,3.17,2.7,0,0,0,1,0,0,250,250,0,45.847061,5.177974,0.0,221.4,9,3,1.7,0,0.0,1,0.1483,0.0,1.1167,1,0.18,2.0441
122664,1626449493971,,,253,256,237,232,,0.01,-0.0,-2.99,-0,-0,-0,0.01,,79,1881,7,35,91,0.922,0.0,197,4.31,13.4,0.0,1,-0.4,3.17,2.7,0,0,0,1,0,,,,,,,,,,,,,,,,,,,,
122684,1626449493991,,,253,256,237,232,,0.0,-0.0,-2.98,-0,-0,-0,0.0,,79,1932,7,35,92,0.921,0.0,201,4.32,13.5,0.0,1,-0.4,3.17,2.7,0,0,0,1,0,,,,,,,,,,,,,,,,,,,,
122704,1626449494005,,,253,256,237,232,,0.01,0.0,-2.99,-0,-0,-0,0.01,,79,1899,7,35,92,0.921,0.0,202,4.3,13.4,0.0,1,-0.4,3.17,2.7,0,0,0,1,0,,,,,,,,,,,,,,,,,,,,
122724,1626449494025,,,253,256,237,232,,0.01,0.0,-3.0,-0,-0,-0,0.01,,79,1819,7,35,92,0.919,0.0,198,4.29,13.4,0.0,1,-0.4,3.17,2.7,0,0,0,1,0,,,,,,,,,,,,,,,,,,,,
122744,1626449494045,-1,2,253,255,237,232,5,0.01,0.0,-3.01,-0,-0,-0,0.01,1,79,1733,7,35,92,0.918,0.0,195,4.26,13.5,0.0,1,-0.4,3.17,2.7,0,0,0,1,0,0,250,250,0,45.847061,5.177974,0.0,221.4,9,3,1.7,0,0.0,1,0.1483,,1.1183,1,0.18,2.0457
122764,1626449494065,,,253,255,237,232,,0.01,0.01,-3.01,-0,-0,-0,0.01,,79,1794,7,35,91,0.917,0.0,197,4.26,13.3,0.0,1,-0.4,3.17,2.7,0,0,0,1,0,,,,,,,,,,,,,,,,,,,,
122784,1626449494093,,,253,255,237,232,,0.0,0.01,-3.0,-0,-0,-0,0.01,,79,1844,7,35,91,0.916,0.0,197,4.3,13.4,0.0,1,-0.4,3.17,2.7,0,0,0,1,0,,,,,,,,,,,,,,,,,,,,
122804,1626449494113,,,253,255,237,232,,0.01,0.01,-3.02,-0,-0,-0,0.01,,79,1852,7,35,92,0.916,0.0,197,4.36,13.5,0.0,1,-0.4,3.17,2.7,0,0,0,1,0,,,,,,,,,,,,,,,,,,,,
122824,1626449494133,,,253,255,237,232,,0.01,0.01,-3.02,-0,-0,-0,0.01,,79,1848,7,35,92,0.915,0.0,198,4.32,13.5,0.0,1,-0.5,3.17,2.7,0,0,0,1,0,,,,,,,,,,,,,,,,,,,,
122844,1626449494153,-0,2,253,256,237,232,5,0.01,0.01,-3.02,-0,-0,-0,0.02,1,79,1757,7,35,92,0.914,0.0,197,4.24,13.5,0.0,1,-0.5,3.17,2.7,0,0,0,1,0,0,250,250,0,45.847061,5.177974,0.0,221.4,9,3,1.7,0,0.0,1,0.1483,0.0,1.12,1,0.18,2.0474
122864,1626449494173,,,253,256,237,232,,0.02,0.01,-3.03,-0,-0,-0,0.02,,79,1690,7,35,92,0.914,0.0,194,4.36,13.4,0.0,1,-0.5,3.17,2.7,0,0,0,1,0,,,,,,,,,,,,,,,,,,,,
122884,1626449494193,,,253,255,237,232,,0.01,0.01,-3.02,-0,0,-0,0.01,,79,1761,7,35,91,0.913,0.0,192,4.35,13.2,0.0,1,-0.5,3.17,2.7,0,0,0,1,0,,,,,,,,,,,,,,,,,,,,
122904,1626449494213,,,253,255,237,232,,0.0,0.01,-3.0,-0,-0,-0,0.01,,79,1768,7,35,92,0.913,0.0,192,4.26,13.4,0.0,1,-0.5,3.17,2.7,0,0,0,1,0,,,,,,,,,,,,,,,,,,,,
122924,1626449494233,,,253,255,237,232,,0.0,0.01,-3.0,-0,-0,-0,0.01,,79,1762,7,35,92,0.912,0.0,193,4.36,13.4,0.0,1,-0.5,3.17,2.5,0,0,0,1,0,,,,,,,,,,,,,,,,,,,,
122944,1626449494253,0,1,253,255,237,232,5,0.0,0.0,-3.01,-0,-0,-0,0.01,1,79,1704,7,35,92,0.912,0.0,194,4.27,13.5,0.0,1,-0.5,3.17,2.5,0,0,0,1,0,15,250,250,0,45.847061,5.177974,0.0,221.4,9,3,1.7,0,0.0,1,0.1483,,1.1217,1,0.18,2.0491
122964,1626449494273,,,252,256,237,232,,0.01,0.0,-3.02,-0,-0,-0,0.01,,79,1621,7,35,92,0.912,0.0,189,4.35,13.5,0.0,1,-0.5,3.17,2.5,0,0,0,1,0,,,,,,,,,,,,,,,,,,,,
122984,1626449494293,,,253,256,237,232,,0.01,0.0,-3.02,-0,-0,0,0.01,,79,1578,7,35,92,0.912,0.0,186,4.36,13.5,0.0,1,-0.5,3.17,2.5,0,0,0,1,0,,,,,,,,,,,,,,,,,,,,
123004,1626449494313,,,252,256,237,232,,0.02,0.01,-3.02,-0,-0,-0,0.02,,79,1635,7,35,92,0.912,0.0,187,4.35,13.5,0.0,1,-0.5,3.17,2.5,0,0,0,1,0,,,,,,,,,,,,,,,,,,,,
123024,1626449494333,,,253,255,237,232,,0.02,0.01,-3.04,-0,-0,-0,0.02,,79,1726,7,35,92,0.911,0.0,189,4.36,13.3,0.0,1,-0.5,2.09,2.5,0,0,0,1,0,,,,,,,,,,,,,,,,,,,,
123044,1626449494353,0,3,253,256,237,232,5,0.01,0.0,-3.03,-0,-0,-0,0.01,1,79,1676,7,35,92,0.909,0.0,191,4.31,13.1,0.0,1,-0.5,3.17,2.5,0,0,0,1,0,31,250,250,0,45.847061,5.177974,0.0,221.4,9,3,1.7,0,0.0,1,0.1483,0.0,1.1233,1,0.18,2.0507
123064,1626449494373,,,253,255,237,232,,0.01,0.01,-3.0,-0,-0,-0,0.01,,79,1620,7,35,92,0.909,0.0,186,4.25,13.4,0.0,1,-0.5,3.17,2.5,0,0,0,1,0,,,,,,,,,,,,,,,,,,,,
123084,1626449494393,,,253,256,237,232,,0.01,0.01,-2.99,-0,-0,-0,0.01,,79,1550,7,35,92,0.909,0.0,183,4.28,13.3,0.0,1,-0.5,3.17,2.5,0,0,0,1,0,,,,,,,,,,,,,,,,,,,,
123104,1626449494413,,,253,255,237,232,,0.01,0.01,-2.97,-0,-0,-0,0.01,,79,1542,7,35,92,0.909,0.0,182,4.35,13.4,0.0,1,-0.5,3.17,2.5,0,0,0,1,0,,,,,,,,,,,,,,,,,,,,
123124,1626449494433,,,253,255,237,232,,0.0,0.01,-2.97,-0,-0,-0,0.01,,79,1608,7,35,93,0.908,0.0,184,4.3,13.5,0.0,1,-0.5,3.17,2.2,0,0,0,1,0,,,,,,,,,,,,,,,,,,,,
123144,1626449494453,-1,2,253,255,237,232,5,0.0,0.01,-2.97,-0,-0,-0,0.01,0,79,1706,7,35,93,0.909,0.0,187,4.31,13.5,0.0,1,-0.5,3.17,2.2,0,0,0,1,0,31,250,250,0,45.847061,5.177974,0.0,221.4,9,3,1.7,0,0.0,1,0.1483,,1.125,1,0.18,2.0524
123164,1626449494473,,,253,256,237,232,,0.0,0.01,-2.98,-0,-0,-0,0.01,,79,1689,7,35,93,0.908,0.0,187,4.33,13.5,0.0,1,-0.5,3.17,2.2,0,0,0,1,0,,,,,,,,,,,,,,,,,,,,
123184,1626449494493,,,253,255,237,232,,0.01,0.0,-3.0,-0,-0,-0,0.01,,79,1632,7,35,93,0.907,0.0,185,4.37,13.4,0.0,1,-0.5,3.17,2.2,0,0,0,1,0,,,,,,,,,,,,,,,,,,,,
123204,1626449494513,,,253,256,237,232,,0.01,0.0,-2.99,-0,-1,-0,0.01,,79,1548,7,35,93,0.907,0.0,184,4.28,13.4,0.0,1,-0.5,3.17,2.2,0,0,0,1,0,,,,,,,,,,,,,,,,,,,,
123224,1626449494533,,,253,256,237,232,,0.02,0.0,-2.99,-0,-1,-0,0.02,,79,1523,7,35,93,0.907,0.0,184,4.32,13.4,0.0,1,-0.2,3.17,2.2,0,0,0,1,0,,,,,,,,,,,,,,,,,,,,
123244,1626449494553,-0,2,253,255,237,232,5,0.02,0.0,-3.0,-0,-1,-0,0.03,0,79,1614,7,35,93,0.907,0.0,184,4.36,13.4,0.0,1,-0.2,3.17,2.2,0,0,0,1,0,8,250,250,0,45.847061,5.177974,0.0,221.4,9,3,1.7,0,0.0,1,0.1483,0.0,1.1267,1,0.18,2.0541
123264,1626449494573,,,253,256,237,232,,0.02,0.01,-3.0,-0,-0,-0,0.03,,79,1774,7,35,92,0.906,0.0,187,4.25,13.4,0.0,1,-0.2,3.17,2.2,0,0,0,1,0,,,,,,,,,,,,,,,,,,,,
123284,1626449494593,,,253,255,237,232,,0.02,0.01,-2.99,-0,-0,-0,0.02,,79,1736,7,35,92,0.906,0.0,187,4.32,13.1,0.0,1,-0.2,3.17,2.2,0,0,0,1,0,,,,,,,,,,,,,,,,,,,,
123304,1626449494609,,,253,256,237,232,,0.02,0.01,-2.98,-0,-0,-0,0.02,,79,1637,7,35,92,0.906,0.0,187,4.31,13.4,0.0,1,-0.2,3.17,2.2,0,0,0,1,0,,,,,,,,,,,,,,,,,,,,
123324,1626449494629,,,253,256,237,232,,0.02,0.0,-2.97,-0,-0,-0,0.02,,79,1552,7,35,92,0.906,0.0,184,4.38,13.5,0.0,1,-0.2,3.17,2.3,0,0,0,1,0,,,,,,,,,,,,,,,,,,,,
123344,1626449494649,0,2,252,255,237,232,4,0.01,0.01,-2.96,-0,-0,-0,0.01,0,79,1565,7,35,92,0.905,0.0,182,4.32,13.4,0.0,1,-0.2,3.17,2.3,0,0,0,1,0,8,250,250,0,45.847061,5.177974,0.0,221.4,9,3,1.7,0,0.0,1,0.1483,,1.1283,1,0.18,2.0557
123364,1626449494669,,,252,255,237,232,,0.01,0.0,-2.97,-0,-0,-0,0.01,,79,1726,7,35,93,0.904,0.0,186,4.35,13.5,0.0,1,-0.2,3.17,2.3,0,0,0,1,0,,,,,,,,,,,,,,,,,,,,
123384,1626449494693,,,253,256,237,232,,0.02,0.0,-2.98,-0,-0,-0,0.02,,79,1832,7,35,93,0.904,0.0,193,4.36,13.5,0.0,1,-0.2,3.17,2.3,0,0,0,1,0,,,,,,,,,,,,,,,,,,,,
123404,1626449494713,,,253,255,237,232,,0.01,0.01,-2.99,-0,-0,-0,0.02,,79,1838,7,35,92,0.902,0.0,198,4.28,13.3,0.0,1,-0.2,3.17,2.3,0,0,0,1,0,,,,,,,,,,,,,,,,,,,,
123424,1626449494733,,,252,255,237,232,,0.01,0.01,-2.96,-0,-0,-0,0.02,,79,1749,7,35,92,0.902,0.0,195,4.31,13.2,0.0,1,-0.1,3.17,2.7,0,0,0,1,0,,,,,,,,,,,,,,,,,,,,
123444,1626449494753,0,2,253,255,237,232,4,0.01,0.01,-2.97,-0,-0,-0,0.01,0,79,1661,7,35,92,0.902,0.0,189,4.32,13.4,0.0,1,-0.1,3.17,2.7,0,0,0,1,0,11,250,250,0,45.847061,5.177974,0.0,221.4,9,3,1.7,0,0.0,1,0.1483,0.0,1.13,1,0.18,2.0574
123464,1626449494773,,,253,256,237,232,,0.01,0.0,-2.97,-0,-0,-0,0.01,,79,1707,7,35,92,0.901,0.0,191,4.43,13.5,0.0,1,-0.1,3.17,2.7,0,0,0,1,0,,,,,,,,,,,,,,,,,,,,
123484,1626449494793,,,253,256,237,232,,0.01,-0.0,-2.96,-0,-0,-0,0.01,,79,1870,7,35,92,0.9,0.0,199,4.39,13.5,0.0,1,-0.1,3.17,2.7,0,0,0,1,0,,,,,,,,,,,,,,,,,,,,
123504,1626449494813,,,253,256,237,232,,0.01,-0.0,-2.97,-0,-0,-0,0.01,,79,1913,7,35,92,0.9,0.0,199,4.29,13.3,0.0,1,-0.1,3.17,2.7,0,0,0,1,0,,,,,,,,,,,,,,,,,,,,
123524,1626449494833,,,253,255,237,232,,0.0,-0.01,-2.96,-0,-0,-0,0.01,,79,1892,7,35,91,0.9,0.0,198,4.36,13.4,0.0,1,-0.1,3.17,2.8,0,0,0,1,0,,,,,,,,,,,,,,,,,,,,
123544,1626449494853,0,1,253,255,237,232,5,0.0,-0.01,-2.96,-0,-0,-0,0.01,0,79,1807,7,35,92,0.899,0.0,199,4.24,13.4,0.0,1,-0.1,3.17,2.8,0,0,0,1,0,11,250,250,0,45.847061,5.177974,0.0,221.4,9,3,1.7,0,0.0,1,0.1483,,1.1317,1,0.18,2.0591
123564,1626449494873,,,253,256,237,232,,0.01,-0.01,-2.96,-0,-0,-0,0.01,,79,1765,7,35,92,0.899,0.0,198,4.28,13.5,0.0,1,-0.1,3.17,2.8,0,0,0,1,0,,,,,,,,,,,,,,,,,,,,
123584,1626449494892,,,252,256,237,232,,0.01,-0.01,-2.97,-0,-0,-0,0.02,,79,1773,7,35,92,0.9,0.0,197,4.35,13.4,0.0,1,-0.1,3.17,2.8,0,0,0,1,0,,,,,,,,,,,,,,,,,,,,
123604,1626449494912,,,253,256,237,232,,0.01,-0.01,-2.96,-0,-0,-0,0.01,,79,1829,7,35,92,0.901,0.0,197,4.25,13.3,0.0,1,-0.1,3.17,2.8,0,0,0,1,0,,,,,,,,,,,,,,,,,,,,
123624,1626449494932,,,253,255,237,232,,0.0,-0.01,-2.95,-0,-0,-0,0.01,,79,1831,7,35,92,0.901,0.0,197,4.3,13.4,0.0,1,-0.1,3.17,2.6,0,0,0,1,0,,,,,,,,,,,,,,,,,,,,
123644,1626449494952,-1,2,253,256,237,232,5,0.0,-0.01,-2.95,-0,-0,-0,0.01,0,79,1759,7,35,92,0.903,0.0,194,4.3,13.5,0.0,1,-0.1,3.17,2.6,0,0,0,1,0,11,250,250,0,45.847061,5.177974,0.0,221.4,9,3,1.7,0,0.0,1,0.1483,0.0,1.1333,1,0.18,2.0607
123664,1626449494972,,,253,256,237,232,,0.01,-0.01,-2.96,-0,-0,-0,0.01,,79,1717,7,35,92,0.906,0.0,195,4.29,13.5,0.0,1,-0.1,3.17,2.6,0,0,0,1,0,,,,,,,,,,,,,,,,,,,,
123684,1626449494992,,,253,256,237,232,,0.01,-0.01,-2.97,-0,-0,-0,0.01,,79,1702,7,35,92,0.907,0.0,192,4.34,13.5,0.0,1,-0.1,3.17,2.6,0,0,0,1,0,,,,,,,,,,,,,,,,,,,,
123704,1626449495004,,,253,255,237,232,,0.02,-0.01,-2.97,-0,-0,-0,0.02,,79,1731,7,35,92,0.91,0.0,192,4.39,13.4,0.0,1,-0.1,3.17,2.6,0,0,0,1,0,,,,,,,,,,,,,,,,,,,,
123724,1626449495024,,,253,255,237,232,,0.01,-0.01,-2.97,-0,-0,-0,0.02,,79,1778,7,35,92,0.913,0.0,192,4.29,13.1,0.0,1,-0.1,3.17,2.6,0,0,0,1,0,,,,,,,,,,,,,,,,,,,,
123744,1626449495044,1,1,253,256,237,232,5,0.01,-0.01,-2.95,-0,-0,-0,0.01,0,79,1728,7,35,92,0.915,0.0,194,4.26,13.4,0.0,1,-0.1,3.17,2.6,0,0,0,1,0,11,250,250,0,45.847061,5.177974,0.0,221.4,9,3,1.7,0,0.0,1,0.1483,,1.135,1,0.18,2.0624
123764,1626449495064,,,253,256,237,232,,0.0,-0.01,-2.96,-0,-0,-0,0.01,,79,1696,7,35,92,0.917,0.0,192,4.3,13.5,0.0,1,-0.1,3.17,2.6,0,0,0,1,0,,,,,,,,,,,,,,,,,,,,
123784,1626449495092,,,253,255,237,232,,0.0,-0.01,-2.96,-0,-0,-0,0.01,,79,1640,7,35,92,0.919,0.0,188,4.31,13.5,0.0,1,-0.1,3.17,2.6,0,0,0,1,0,,,,,,,,,,,,,,,,,,,,
123804,1626449495112,,,253,256,237,232,,0.0,-0.01,-2.98,-0,-0,-0,0.01,,79,1672,7,35,93,0.922,0.0,187,4.28,13.5,0.0,1,-0.1,3.17,2.6,0,0,0,1,0,,,,,,,,,,,,,,,,,,,,
123824,1626449495132,,,253,255,237,232,,0.01,-0.02,-2.98,-0,-0,-0,0.02,,79,1705,7,35,93,0.923,0.0,191,4.35,13.5,0.0,1,-0.1,3.17,2.4,0,0,0,1,0,,,,,,,,,,,,,,,,,,,,
123844,1626449495152,-0,2,253,255,237,232,5,0.01,-0.01,-2.98,-0,-0,-0,0.02,0,79,1737,7,35,92,0.925,0.0,192,4.41,13.5,0.0,1,-0.1,3.17,2.4,0,0,0,1,0,11,250,250,0,45.847061,5.177974,0.0,221.4,9,3,1.7,0,0.0,1,0.1483,0.0,1.1367,1,0.18,2.0641
123864,1626449495172,,,252,256,237,232,,0.01,-0.01,-3.0,-0,-0,-0,0.01,,79,1639,7,35,92,0.927,0.0,189,4.41,13.4,0.0,1,-0.1,3.17,2.4,0,0,0,1,0,,,,,,,,,,,,,,,,,,,,
123884,1626449495192,,,253,256,237,232,,0.01,-0.01,-3.03,-0,-0,-0,0.01,,79,1565,7,35,92,0.929,0.0,186,4.26,13.3,0.0,1,-0.1,2.09,2.4,0,0,0,1,0,,,,,,,,,,,,,,,,,,,,
123904,1626449495212,,,252,256,237,232,,0.0,-0.01,-3.04,-0,-0,-0,0.01,,79,1537,7,35,92,0.93,0.0,184,4.32,13.2,0.0,1,-0.1,3.17,2.4,0,0,0,1,0,,,,,,,,,,,,,,,,,,,,
123924,1626449495232,,,253,255,237,232,,-0.0,-0.0,-3.01,-0,0,-0,0.0,,79,1616,7,35,92,0.93,0.0,184,4.35,13.2,0.0,1,-0.1,3.17,2.2,0,0,0,1,0,,,,,,,,,,,,,,,,,,,,
123944,1626449495252,-1,2,253,255,237,232,5,-0.01,-0.0,-2.99,-0,0,-0,0.01,0,79,1736,7,35,92,0.929,0.0,186,4.33,13.4,0.0,1,-0.1,3.17,2.2,0,0,0,1,0,0,250,250,0,45.847061,5.177974,0.0,221.4,9,3,1.7,0,0.0,1,0.1483,,1.1383,1,0.18,2.0657
123964,1626449495272,,,253,255,237,232,,-0.01,-0.0,-2.99,-0,-0,-0,0.01,,79,1723,7,35,93,0.928,0.0,187,4.28,13.5,0.0,1,-0.1,3.17,2.2,0,0,0,1,0,,,,,,,,,,,,,,,,,,,,
123984,1626449495292,,,253,256,237,232,,-0.01,-0.01,-2.99,-0,-0,-0,0.01,,79,1670,7,35,93,0.927,0.0,187,4.3,13.5,0.0,1,-0.1,3.17,2.2,0,0,0,1,0,,,,,,,,,,,,,,,,,,,,
124004,1626449495312,,,253,255,237,232,,-0.01,-0.01,-3.0,-0,-0,-0,0.01,,79,1586,7,35,93,0.925,0.0,185,4.43,13.5,0.0,1,-0.1,3.17,2.2,0,0,0,1,0,,,,,,,,,,,,,,,,,,,,
124024,1626449495332,,,253,255,237,232,,-0.0,-0.01,-2.99,-0,-0,-0,0.01,,79,1506,7,35,93,0.924,0.0,183,4.35,13.4,0.0,1,0.2,3.17,2.3,0,0,0,1,0,,,,,,,,,,,,,,,,,,,,
124044,1626449495352,1,2,252,255,237,232,5,0.0,-0.01,-2.98,-0,-1,-0,0.01,0,79,1534,7,35,93,0.922,0.0,184,4.28,13.5,0.0,1,0.2,3.17,2.3,0,0,0,1,0,0,250,250,0,45.847061,5.177974,0.0,221.4,9,3,1.7,0,0.0,1,0.1483,0.0,1.14,1,0.18,2.0674
124064,1626449495372,,,253,256,237,232,,0.01,-0.02,-2.99,-0,-1,-0,0.02,,79,1710,7,35,93,0.921,0.0,187,4.34,13.5,0.0,1,0.2,3.17,2.3,0,0,0,1,0,,,,,,,,,,,,,,,,,,,,
124084,1626449495392,,,253,255,237,232,,0.01,-0.01,-3.0,-0,-0,-0,0.01,,79,1759,7,35,92,0.918,0.0,189,4.3,13.3,0.0,1,0.2,3.17,2.3,0,0,0,1,0,,,,,,,,,,,,,,,,,,,,
124104,1626449495412,,,252,255,237,232,,0.01,-0.01,-3.0,-0,-0,-0,0.01,,79,1696,7,35,92,0.917,0.0,191,4.32,13.2,0.0,1,0.2,3.17,2.3,0,0,0,1,0,,,,,,,,,,,,,,,,,,,,
124124,1626449495432,,,253,256,237,232,,0.01,-0.01,-2.98,-0,-0,-0,0.01,,79,1619,7,35,92,0.914,0.0,189,4.23,13.4,0.0,1,0.2,3.17,2.4,0,0,0,1,0,,,,,,,,,,,,,,,,,,,,
124144,1626449495452,1,0,253,256,237,232,5,0.0,-0.01,-2.97,-0,-0,-0,0.01,0,79,1594,7,35,92,0.913,0.0,185,4.27,13.5,0.0,1,0.2,3.17,2.4,0,0,0,1,0,0,250,250,0,45.847061,5.177974,0.0,221.4,9,3,1.7,0,0.0,1,0.1483,,1.1417,1,0.18,2.0691
124164,1626449495472,,,253,256,237,232,,-0.0,-0.01,-2.97,-0,-0,-0,0.01,,79,1685,7,35,93,0.911,0.0,187,4.37,13.5,0.0,1,0.2,3.17,2.4,0,0,0,1,0,,,,,,,,,,,,,,,,,,,,
124184,1626449495492,,,252,256,237,232,,0.0,-0.01,-2.97,-0,-1,-0,0.01,,79,1763,7,35,93,0.91,0.0,192,4.28,13.5,0.0,1,0.2,3.17,2.4,0,0,0,1,0,,,,,,,,,,,,,,,,,,,,
124204,1626449495512,,,253,256,237,232,,0.01,-0.01,-2.97,-0,-0,-0,0.01,,79,1820,7,35,92,0.91,0.0,196,4.31,13.5,0.0,1,0.2,3.17,2.4,0,0,0,1,0,,,,,,,,,,,,,,,,,,,,
124224,1626449495532,,,253,256,237,232,,0.01,-0.0,-2.99,-0,-0,-0,0.01,,79,1710,7,35,92,0.908,0.0,192,4.26,13.3,0.0,1,0.3,3.17,2.6,0,0,0,1,0,,,,,,,,,,,,,,,,,,,,
124244,1626449495552,1,2,253,255,237,232,5,0.0,-0.0,-3.01,-0,-0,-0,0.0,0,79,1627,7,35,92,0.908,0.0,189,4.27,13.2,0.0,1,0.3,2.09,2.6,0,0,0,1,0,0,250,250,0,45.847061,5.177974,0.0,221.4,9,3,1.7,0,0.0,1,0.1483,0.0,1.1433,1,0.18,2.0707
124264,1626449495572,,,253,255,237,232,,0.0,0.0,-2.98,-0,-0,-0,0.0,,79,1649,7,35,92,0.907,0.0,189,4.3,13.4,0.0,1,0.3,3.17,2.6,0,0,0,1,0,,,,,,,,,,,,,,,,,,,,
124284,1626449495592,,,253,256,237,232,,-0.0,0.0,-2.97,-0,-0,-0,0.0,,79,1774,7,35,92,0.907,0.0,193,4.25,13.5,0.0,1,0.3,3.17,2.6,0,0,0,1,0,,,,,,,,,,,,,,,,,,,,
124304,1626449495612,,,253,256,237,232,,0.0,0.0,-2.98,-0,-1,-0,0.0,,79,1847,7,35,93,0.907,0.0,195,4.28,13.5,0.0,1,0.3,3.17,2.6,0,0,0,1,0,,,,,,,,,,,,,,,,,,,,
124324,1626449495632,,,253,256,237,232,,0.01,0.0,-2.99,-0,-0,-0,0.01,,79,1842,7,35,92,0.906,0.0,196,4.3,13.5,0.0,1,0.3,3.17,2.7,0,0,0,1,0,,,,,,,,,,,,,,,,,,,,
124344,1626449495652,-1,2,253,255,237,232,5,0.01,-0.0,-3.0,-0,-0,-0,0.01,0,79,1692,7,35,92,0.906,0.0,193,4.23,13.4,0.0,1,0.3,3.17,2.7,0,0,0,1,0,0,250,250,0,45.847061,5.177974,0.0,221.4,9,3,1.7,0,0.0,1,0.1483,,1.145,1,0.18,2.0724
124364,1626449495672,,,253,256,237,232,,0.01,0.0,-3.01,-0,-0,-0,0.01,,79,1635,7,35,92,0.905,0.0,190,4.25,13.3,0.0,1,0.3,3.17,2.7,0,0,0,1,0,,,,,,,,,,,,,,,,,,,,
124384,1626449495692,,,253,256,237,232,,-0.0,0.01,-2.99,-0,-0,-0,0.01,,79,1725,7,35,92,0.904,0.0,191,4.26,13.4,0.0,1,0.3,3.17,2.7,0,0,0,1,0,,,,,,,,,,,,,,,,,,,,
124404,1626449495712,,,253,256,237,232,,-0.0,0.0,-2.99,-0,-0,-0,0.01,,79,1880,7,35,92,0.905,0.0,196,4.28,13.5,0.0,1,0.3,3.17,2.7,0,0,0,1,0,,,,,,,,,,,,,,,,,,,,
124424,1626449495732,,,253,256,237,232,,0.0,0.01,-2.98,-0,-0,-0,0.01,,79,1884,7,35,92,0.905,0.0,197,4.3,13.5,0.0,1,0.3,3.17,2.7,0,0,0,1,0,,,,,,,,,,,,,,,,,,,,
124444,1626449495752,0,2,253,256,237,232,5,0.0,0.0,-2.97,-0,-0,-0,0.01,0,79,1782,7,35,92,0.905,0.0,198,4.36,13.4,0.0,1,0.3,3.17,2.7,0,0,0,1,0,0,250,250,0,45.847061,5.177974,0.0,221.4,9,3,1.7,0,0.0,1,0.1483,0.0,1.1467,1,0.18,2.0741
124464,1626449495772,,,253,256,237,232,,-0.0,0.01,-2.99,-0,-0,-0,0.01,,79,1717,7,35,91,0.906,0.0,194,4.4,13.2,0.0,1,0.3,3.17,2.7,0,0,0,1,0,,,,,,,,,,,,,,,,,,,,
124484,1626449495793,,,253,256,237,232,,-0.01,0.01,-2.97,-0,-0,-0,0.01,,79,1729,7,35,92,0.906,0.0,192,4.37,13.4,0.0,1,0.3,3.17,2.7,0,0,0,1,0,,,,,,,,,,,,,,,,,,,,
124504,1626449495813,,,253,256,237,232,,-0.0,0.01,-2.99,-0,-0,-0,0.01,,79,1836,7,35,92,0.907,0.0,195,4.31,13.5,0.0,1,0.3,2.09,2.7,0,0,0,1,0,,,,,,,,,,,,,,,,,,,,
124524,1626449495833,,,253,256,237,232,,0.0,0.01,-2.99,-0,-0,-0,0.01,,79,1910,7,35,92,0.907,0.0,201,4.32,13.5,0.0,1,0.3,3.17,2.6,0,0,0,1,0,,,,,,,,,,,,,,,,,,,,
124544,1626449495853,-0,2,253,255,237,232,5,-0.0,0.01,-3.0,-0,-0,-0,0.01,0,79,1812,7,35,92,0.908,0.0,203,4.34,13.4,0.0,1,0.3,2.09,2.6,0,0,0,1,0,0,250,250,0,45.847061,5.177974,0.0,221.4,9,3,1.7,0,0.0,1,0.1483,,1.1483,1,0.18,2.0757
124564,1626449495873,,,253,256,237,232,,-0.0,0.01,-2.98,-0,-0,-0,0.01,,79,1731,7,35,91,0.91,0.0,195,4.4,13.2,0.0,1,0.3,3.17,2.6,0,0,0,1,0,,,,,,,,,,,,,,,,,,,,
124584,1626449495891,,,253,255,237,232,,-0.01,0.02,-2.96,-0,-0,-0,0.02,,79,1730,7,35,92,0.912,0.0,192,4.28,13.5,0.0,1,0.3,3.17,2.6,0,0,0,1,0,,,,,,,,,,,,,,,,,,,,
124604,1626449495911,,,253,255,237,232,,-0.0,0.01,-2.98,-0,-0,-0,0.01,,79,1875,7,35,92,0.914,0.0,199,4.32,13.5,0.0,1,0.3,3.17,2.6,0,0,0,1,0,,,,,,,,,,,,,,,,,,,,
124624,1626449495931,,,253,256,237,232,,0.0,0.01,-3.0,-0,-0,-0,0.01,,79,1974,7,35,92,0.916,0.0,205,4.32,13.4,0.0,1,0.2,3.17,2.7,0,0,0,1,0,,,,,,,,,,,,,,,,,,,,
124644,1626449495951,-1,2,252,256,237,232,5,-0.01,0.02,-2.98,-0,-0,-0,0.02,0,79,1921,7,35,91,0.917,0.0,203,4.31,13.2,0.0,1,0.2,3.17,2.7,0,0,0,1,0,0,250,250,0,45.847061,5.177974,0.0,221.4,9,3,1.7,0,0.0,1,0.1483,0.0,1.15,1,0.18,2.0774
124664,1626449495971,,,253,256,237,232,,-0.0,0.01,-2.98,-0,-0,-0,0.01,,79,1850,7,35,91,0.919,0.0,200,4.39,13.5,0.0,1,24.3,3.17,2.7,0,0,0,1,0,,,,,,,,,,,,,,,,,,,,
124684,1626449495991,,,253,255,237,232,,-0.0,0.01,-2.98,-0,-0,-0,0.01,,79,1809,7,35,92,0.921,0.0,199,4.34,13.5,0.0,1,0.2,3.17,2.7,0,0,0,1,0,,,,,,,,,,,,,,,,,,,,
124704,1626449496005,,,253,255,237,232,,0.0,0.01,-3.0,-0,-0,-0,0.01,,79,1949,7,35,91,0.922,0.0,203,4.4,13.5,0.0,1,0.2,3.17,2.7,0,0,0,1,0,,,,,,,,,,,,,,,,,,,,
124724,1626449496025,,,253,255,237,232,,-0.01,0.01,-2.97,-0,-0,-0,0.01,,79,1960,7,35,91,0.924,0.0,205,4.3,13.2,0.0,1,0.2,3.17,2.8,0,0,0,1,0,,,,,,,,,,,,,,,,,,,,
124744,1626449496045,0,2,253,256,237,232,4,-0.0,0.0,-2.97,-0,-1,-0,0.0,0,79,1915,7,35,91,0.925,0.0,201,4.25,13.5,0.0,1,0.2,3.17,2.8,0,0,0,1,0,0,250,250,0,45.847061,5.177974,0.0,221.4,9,3,1.7,0,0.0,1,0.1483,,1.1517,1,0.18,2.0791
124764,1626449496065,,,253,256,237,232,,0.01,0.0,-2.97,-0,-1,-0,0.01,,79,1837,7,35,91,0.926,0.0,200,4.27,13.4,0.0,1,0.2,3.17,2.8,0,0,0,1,0,,,,,,,,,,,,,,,,,,,,
124784,1626449496093,,,253,255,237,232,,0.01,0.0,-2.98,-0,-1,-0,0.01,,79,1771,7,35,91,0.928,0.0,200,4.27,13.4,0.0,1,0.2,3.17,2.8,0,0,0,1,0,,,,,,,,,,,,,,,,,,,,
124804,1626449496113,,,253,256,237,232,,0.0,0.0,-2.94,-0,-0,-0,0.0,,79,1917,7,35,91,0.929,0.0,201,4.26,13.2,0.0,1,0.2,2.09,2.8,0,0,0,1,0,,,,,,,,,,,,,,,,,,,,
124824,1626449496133,,,253,256,237,232,,0.0,0.0,-2.95,-0,-1,-0,0.0,,79,1974,7,35,92,0.929,0.0,201,4.31,13.5,0.0,1,0.1,3.17,2.8,0,0,0,1,0,,,,,,,,,,,,,,,,,,,,
124844,1626449496153,-0,2,252,256,237,232,5,0.01,0.0,-2.96,-0,-1,-0,0.01,0,79,1931,7,35,92,0.928,0.0,204,4.37,13.5,0.0,1,25.7,3.17,2.8,0,0,0,1,0,0,250,250,0,45.847061,5.177974,0.0,221.4,9,3,1.7,0,0.0,1,0.1483,0.0,1.1533,1,0.18,2.0807
124864,1626449496173,,,252,255,237,232,,0.01,0.0,-2.97,-0,-0,-0,0.01,,79,1872,7,35,91,0.928,0.0,203,4.35,13.4,0.0,1,0.1,3.17,2.8,0,0,0,1,0,,,,,,,,,,,,,,,,,,,,
124884,1626449496191,,,253,255,237,232,,0.0,0.01,-2.95,-0,-0,-0,0.01,,79,1825,7,35,91,0.928,0.0,199,4.28,13.2,0.0,1,0.1,3.17,2.8,0,0,0,1,0,,,,,,,,,,,,,,,,,,,,
124904,1626449496211,,,252,256,237,232,,0.0,0.01,-2.95,-0,-0,-0,0.01,,79,1921,7,35,92,0.928,0.0,200,4.33,13.5,0.0,1,0.1,3.17,2.8,0,0,0,1,0,,,,,,,,,,,,,,,,,,,,
124924,1626449496231,,,253,256,237,232,,0.01,0.01,-2.95,-0,-0,-0,0.01,,79,1967,7,35,92,0.928,0.0,203,4.39,13.5,0.0,1,0.1,3.17,2.8,0,0,0,1,0,,,,,,,,,,,,,,,,,,,,
124944,1626449496251,0,2,253,255,237,232,5,0.0,0.01,-2.95,-0,-0,-0,0.01,0,79,1903,7,35,91,0.927,0.0,205,4.28,13.3,0.0,1,0.1,3.17,2.8,0,0,0,1,0,0,250,250,0,45.847061,5.177974,0.0,221.4,9,3,1.7,0,0.0,1,0.1483,,1.155,1,0.18,2.0824
124964,1626449496271,,,253,255,237,232,,-0.0,0.01,-2.94,-0,-0,-0,0.01,,79,1822,7,35,91,0.928,0.0,202,4.27,13.4,0.0,1,0.1,3.17,2.8,0,0,0,1,0,,,,,,,,,,,,,,,,,,,,
124984,1626449496293,,,253,254,237,232,,0.0,0.01,-2.94,-0,-0,-0,0.01,,79,1799,7,35,92,0.927,0.0,199,4.28,13.5,0.0,1,0.1,3.17,2.8,0,0,0,1,0,,,,,,,,,,,,,,,,,,,,
125004,1626449496313,,,253,256,237,232,,0.0,0.0,-2.94,-0,-0,-0,0.01,,79,1847,7,35,92,0.926,0.0,200,4.37,13.5,0.0,1,0.1,3.17,2.8,0,0,0,1,0,,,,,,,,,,,,,,,,,,,,
125024,1626449496333,,,253,256,237,232,,0.0,0.0,-2.96,-0,0,-0,0.0,,79,1921,7,35,91,0.926,0.0,203,4.32,13.5,0.0,1,0.0,2.09,2.7,0,0,0,1,0,,,,,,,,,,,,,,,,,,,,
125044,1626449496353,0,2,253,255,237,232,5,-0.01,0.0,-2.96,-0,0,-0,0.01,0,79,1906,7,35,91,0.925,0.0,203,4.33,13.4,0.0,1,0.0,3.17,2.7,0,0,0,1,0,0,250,250,0,45.847061,5.177974,0.0,221.4,9,3,1.7,0,0.0,1,0.1483,0.0,1.1567,1,0.18,2.0841
125064,1626449496373,,,253,255,237,232,,-0.01,-0.0,-2.96,-0,-0,-0,0.01,,79,1810,7,35,91,0.924,0.0,200,4.36,13.5,0.0,1,0.0,3.17,2.7,0,0,0,1,0,,,,,,,,,,,,,,,,,,,,
125084,1626449496393,,,253,256,237,232,,-0.0,-0.01,-2.97,-0,-0,-0,0.01,,79,1744,7,35,92,0.923,0.0,195,4.27,13.4,0.0,1,0.0,3.17,2.7,0,0,0,1,0,,,,,,,,,,,,,,,,,,,,
125104,1626449496413,,,252,256,237,232,,0.0,-0.01,-2.98,-0,-0,-0,0.01,,79,1755,7,35,92,0.924,0.0,197,4.25,13.5,0.0,1,0.0,3.17,2.7,0,0,0,1,0,,,,,,,,,,,,,,,,,,,,
125124,1626449496433,,,253,256,237,232,,-0.0,-0.01,-2.96,-0,0,-0,0.01,,79,1937,7,35,91,0.921,0.0,202,4.24,13.2,0.0,1,0.0,3.17,2.7,0,0,0,1,0,,,,,,,,,,,,,,,,,,,,
125144,1626449496453,0,1,253,255,237,232,5,-0.01,-0.01,-2.96,-0,-0,-0,0.01,0,79,1924,7,35,91,0.92,0.0,201,4.32,13.5,0.0,1,0.0,3.17,2.7,0,0,0,1,0,0,250,250,0,45.847061,5.177974,0.0,221.4,9,3,1.7,0,0.0,1,0.1483,,1.1583,1,0.18,2.0857
125164,1626449496473,,,253,255,237,232,,0.0,-0.01,-2.97,-0,-0,-0,0.01,,79,1844,7,35,92,0.918,0.0,200,4.37,13.5,0.0,1,0.0,3.17,2.7,0,0,0,1,0,,,,,,,,,,,,,,,,,,,,
125184,1626449496491,,,253,256,237,232,,0.0,-0.01,-2.97,-0,-0,-0,0.01,,79,1766,7,35,92,0.917,0.0,199,4.32,13.5,0.0,1,0.0,3.17,2.7,0,0,0,1,0,,,,,,,,,,,,,,,,,,,,
125204,1626449496511,,,252,256,237,232,,0.01,-0.01,-2.99,-0,-0,-0,0.01,,79,1801,7,35,91,0.915,0.0,197,4.35,13.5,0.0,1,0.0,3.17,2.7,0,0,0,1,0,,,,,,,,,,,,,,,,,,,,
125224,1626449496531,,,252,255,237,232,,-0.0,-0.0,-2.98,-0,-0,-0,0.0,,79,1916,7,35,91,0.913,0.0,198,4.36,13.4,0.0,1,-0.1,3.17,2.6,0,0,0,1,0,,,,,,,,,,,,,,,,,,,,
125244,1626449496551,1,2,253,256,237,232,4,0.0,-0.0,-2.98,-0,-0,-0,0.0,0,79,1909,7,35,92,0.912,0.0,201,4.33,13.5,0.0,1,-0.1,3.17,2.6,0,0,0,1,0,0,250,250,0,45.847061,5.177974,0.0,221.4,9,3,1.7,0,0.0,1,0.1483,0.0,1.16,1,0.18,2.0874
125264,1626449496571,,,253,256,237,232,,0.01,-0.0,-2.98,-0,-0,-0,0.01,,79,1842,7,35,92,0.911,0.0,201,4.28,13.4,0.0,1,-0.1,3.17,2.6,0,0,0,1,0,,,,,,,,,,,,,,,,,,,,
125284,1626449496591,,,253,255,237,232,,0.01,-0.0,-2.98,-0,-0,-0,0.01,,79,1767,7,35,92,0.91,0.0,198,4.26,13.5,0.0,1,-0.1,3.17,2.6,0,0,0,1,0,,,,,,,,,,,,,,,,,,,,
125304,1626449496611,,,253,256,237,232,,0.01,-0.0,-2.98,-0,-0,-0,0.01,,79,1800,7,35,91,0.909,0.0,196,4.31,13.5,0.0,1,-0.1,3.17,2.6,0,0,0,1,0,,,,,,,,,,,,,,,,,,,,
125324,1626449496631,,,253,255,237,232,,0.01,0.0,-2.97,-0,-0,-0,0.01,,79,1901,7,35,92,0.908,0.0,197,4.33,13.4,0.0,1,-0.1,3.17,2.6,0,0,0,1,0,,,,,,,,,,,,,,,,,,,,
125344,1626449496651,1,0,253,256,237,232,5,0.01,0.0,-2.99,-0,-0,-0,0.01,0,79,1971,7,35,92,0.907,0.0,203,4.37,13.5,0.0,1,-0.1,3.17,2.6,0,0,0,1,0,0,250,250,0,45.847061,5.177974,0.0,221.4,9,3,1.7,0,0.0,1,0.1483,,1.1617,1,0.18,2.0891
125364,1626449496671,,,253,255,237,232,,0.01,0.01,-2.99,-0,-0,-0,0.02,,79,1933,7,35,91,0.906,0.0,205,4.32,13.5,0.0,1,-0.1,3.17,2.6,0,0,0,1,0,,,,,,,,,,,,,,,,,,,,
125384,1626449496693,,,253,255,237,232,,0.01,0.01,-3.02,-0,-0,-0,0.01,,79,1779,7,35,91,0.906,0.0,200,4.25,13.3,0.0,1,-0.1,2.09,2.6,0,0,0,1,0,,,,,,,,,,,,,,,,,,,,
125404,1626449496713,,,252,255,237,232,,0.0,0.01,-3.0,-0,0,-0,0.01,,79,1791,7,35,91,0.907,0.0,196,4.37,13.4,0.0,1,-0.1,3.17,2.6,0,0,0,1,0,,,,,,,,,,,,,,,,,,,,
125424,1626449496733,,,253,255,237,232,,0.01,0.01,-3.02,-0,-0,-0,0.01,,79,1897,7,35,92,0.907,0.0,200,4.26,13.5,0.0,1,-0.2,3.17,2.6,0,0,0,1,0,,,,,,,,,,,,,,,,,,,,
125444,1626449496753,-0,2,252,256,237,232,5,0.01,0.01,-3.01,-0,-0,-0,0.01,0,79,1944,7,35,92,0.908,0.0,206,4.3,13.5,0.0,1,-0.2,3.17,2.6,0,0,0,1,0,0,250,250,0,45.847061,5.177974,0.0,221.4,9,3,1.7,0,0.0,1,0.1483,0.0,1.1633,1,0.18,2.0907
125464,1626449496773,,,253,255,237,232,,0.0,0.01,-3.0,-0,-0,-0,0.01,,79,1876,7,35,91,0.908,0.0,203,4.32,13.4,0.0,1,-0.2,3.17,2.6,0,0,0,1,0,,,,,,,,,,,,,,,,,,,,
125484,1626449496792,,,253,255,237,232,,-0.0,0.01,-2.99,-0,-0,-0,0.01,,79,1815,7,35,91,0.908,0.0,198,4.27,13.4,0.0,1,24.3,3.17,2.6,0,0,0,1,0,,,,,,,,,,,,,,,,,,,,
125504,1626449496812,,,253,254,237,232,,0.0,0.01,-2.98,-0,-0,-0,0.01,,79,1818,7,35,92,0.909,0.0,198,4.23,13.5,0.0,1,-0.2,2.09,2.6,0,0,0,1,0,,,,,,,,,,,,,,,,,,,,
125524,1626449496832,,,253,256,237,232,,0.01,0.0,-2.98,-0,-0,-0,0.01,,79,1865,7,35,92,0.91,0.0,203,4.27,13.5,0.0,1,25.7,3.17,2.6,0,0,0,1,0,,,,,,,,,,,,,,,,,,,,
125544,1626449496852,-1,2,253,255,237,232,5,0.01,0.0,-3.0,-0,0,-0,0.01,0,79,1854,7,35,92,0.91,0.0,202,4.3,13.5,0.0,1,-0.2,3.17,2.6,0,0,0,1,0,0,250,250,0,45.847061,5.177974,0.0,221.4,9,3,1.7,0,0.0,1,0.1483,,1.165,1,0.18,2.0924
125564,1626449496872,,,253,255,237,232,,-0.0,0.01,-2.98,-0,0,-0,0.01,,79,1802,7,35,91,0.911,0.0,197,4.31,13.2,0.0,1,-0.2,3.17,2.6,0,0,0,1,0,,,,,,,,,,,,,,,,,,,,
125584,1626449496892,,,253,256,237,232,,-0.0,0.01,-2.99,-0,0,-0,0.01,,79,1743,7,35,92,0.911,0.0,196,4.33,13.5,0.0,1,-0.2,3.17,2.6,0,0,0,1,0,,,,,,,,,,,,,,,,,,,,
125604,1626449496912,,,253,255,237,232,,0.0,0.0,-2.99,-0,-0,-0,0.0,,79,1749,7,35,92,0.912,0.0,197,4.3,13.5,0.0,1,-0.2,3.17,2.6,0,0,0,1,0,,,,,,,,,,,,,,,,,,,,
125624,1626449496932,,,253,256,237,232,,0.01,0.0,-2.99,-0,-0,-0,0.01,,79,1799,7,35,92,0.913,0.0,197,4.32,13.5,0.0,1,-0.2,3.17,2.5,0,0,0,1,0,,,,,,,,,,,,,,,,,,,,
125644,1626449496952,-0,2,253,256,237,232,5,0.01,0.0,-2.99,-0,-0,-0,0.01,0,79,1834,7,35,92,0.913,0.0,197,4.27,13.4,0.0,1,-0.2,3.17,2.5,0,0,0,1,0,0,250,250,0,45.847061,5.177974,0.0,221.4,9,3,1.7,0,0.0,1,0.1483,0.0,1.1667,1,0.18,2.0941
125664,1626449496972,,,253,255,237,232,,0.0,0.0,-2.97,-0,-0,-0,0.0,,79,1753,7,35,91,0.913,0.0,197,4.29,13.2,0.0,1,-0.2,3.17,2.5,0,0,0,1,0,,,,,,,,,,,,,,,,,,,,
125684,1626449496992,,,252,256,237,232,,0.0,0.0,-2.96,-0,-0,-0,0.01,,79,1663,7,35,91,0.914,0.0,191,4.33,13.4,0.0,1,-0.2,3.17,2.5,0,0,0,1,0,,,,,,,,,,,,,,,,,,,,
125704,1626449497006,,,253,256,237,232,,-0.0,0.01,-2.96,-0,-0,-0,0.01,,79,1620,7,35,92,0.914,0.0,189,4.32,13.5,0.0,1,-0.2,3.17,2.5,0,0,0,1,0,,,,,,,,,,,,,,,,,,,,
125724,1626449497026,,,253,256,237,232,,-0.0,0.0,-2.96,-0,-0,-0,0.01,,79,1707,7,35,92,0.913,0.0,190,4.38,13.5,0.0,1,-0.2,2.09,2.3,0,0,0,1,0,,,,,,,,,,,,,,,,,,,,
125744,1626449497046,1,2,253,256,237,232,5,0.0,0.01,-2.95,-0,-0,-0,0.01,0,79,1832,7,35,92,0.912,0.0,194,4.41,13.5,0.0,1,-0.2,2.09,2.3,0,0,0,1,0,0,250,250,0,45.847061,5.177974,0.0,221.4,9,3,1.7,0,0.0,1,0.1483,,1.1683,1,0.18,2.0957
125764,1626449497066,,,253,256,237,232,,0.01,0.0,-2.96,-0,-0,-0,0.01,,79,1815,7,35,92,0.911,0.0,197,4.4,13.4,0.0,1,-0.2,2.09,2.3,0,0,0,1,0,,,,,,,,,,,,,,,,,,,,
125784,1626449497092,,,253,256,237,232,,0.0,-0.0,-2.96,-0,-0,-0,0.0,,80,1730,7,35,92,0.911,0.0,197,4.2,13.3,0.0,1,-0.2,3.17,2.3,0,0,0,1,0,,,,,,,,,,,,,,,,,,,,
125804,1626449497112,,,253,256,237,232,,0.0,0.0,-2.94,-0,-0,-0,0.0,,79,1647,7,35,91,0.91,0.0,192,4.32,13.2,0.0,1,-0.2,3.17,2.3,0,0,0,1,0,,,,,,,,,,,,,,,,,,,,
125824,1626449497132,,,253,256,237,232,,-0.0,0.0,-2.93,-0,0,-0,0.0,,79,1633,7,35,92,0.908,0.0,187,4.32,13.4,0.0,1,0.0,3.17,2.4,0,0,0,1,0,,,,,,,,,,,,,,,,,,,,
125844,1626449497152,-1,2,252,256,237,232,5,-0.0,-0.0,-2.94,-0,-0,-0,0.0,0,79,1750,7,35,92,0.907,0.0,189,4.28,13.5,0.0,1,0.0,2.09,2.4,0,0,0,1,0,0,250,250,0,45.847061,5.177974,0.0,221.4,9,3,1.7,0,0.0,1,0.1483,0.0,1.17,1,0.18,2.0974
125864,1626449497172,,,253,256,237,232,,-0.0,0.0,-2.95,-0,-0,-0,0.0,,79,1855,7,35,92,0.905,0.0,197,4.33,13.5,0.0,1,0.0,3.17,2.4,0,0,0,1,0,,,,,,,,,,,,,,,,,,,,
125884,1626449497192,,,253,255,237,232,,0.0,-0.0,-2.95,-0,-0,-0,0.0,,79,1807,7,35,92,0.904,0.0,197,4.22,13.5,0.0,1,0.0,3.17,2.4,0,0,0,1,0,,,,,,,,,,,,,,,,,,,,
125904,1626449497212,,,253,255,237,232,,-0.0,-0.01,-2.96,-0,0,-0,0.01,,80,1728,7,35,91,0.902,0.0,194,4.25,13.2,0.0,1,0.0,3.17,2.4,0,0,0,1,0,,,,,,,,,,,,,,,,,,,,
125924,1626449497232,,,253,255,237,232,,-0.0,0.0,-2.94,-0,0,-0,0.0,,79,1682,7,35,91,0.9,0.0,191,4.31,13.4,0.0,1,0.0,3.17,2.5,0,0,0,1,0,,,,,,,,,,,,,,,,,,,,
125944,1626449497252,-0,2,253,256,237,232,5,-0.01,0.0,-2.95,-0,0,-0,0.01,0,79,1742,7,35,92,0.898,0.0,192,4.23,13.5,0.0,1,0.0,2.09,2.5,0,0,0,1,0,0,250,250,0,45.847061,5.177974,0.0,221.4,9,3,1.7,0,0.0,1,0.1483,,1.1717,1,0.18,2.0991
125964,1626449497272,,,253,255,237,232,,-0.0,-0.0,-2.95,-0,-0,-0,0.0,,79,1831,7,35,92,0.897,0.0,196,4.31,13.5,0.0,1,0.0,3.17,2.5,0,0,0,1,0,,,,,,,,,,,,,,,,,,,,
125984,1626449497292,,,253,256,237,232,,0.0,-0.0,-2.96,-0,-0,-0,0.0,,79,1887,7,35,92,0.897,0.0,197,4.28,13.5,0.0,1,0.0,3.17,2.5,0,0,0,1,0,,,,,,,,,,,,,,,,,,,,
126004,1626449497312,,,253,255,237,232,,-0.0,-0.0,-2.97,-0,0,-0,0.0,,80,1762,7,35,91,0.896,0.0,197,4.23,13.4,0.0,1,0.0,3.17,2.5,0,0,0,1,0,,,,,,,,,,,,,,,,,,,,
126024,1626449497332,,,253,256,237,232,,-0.0,0.0,-2.95,-0,-0,-0,0.01,,80,1679,7,35,91,0.894,0.0,194,4.27,13.3,0.0,1,0.1,3.17,2.5,0,0,0,1,0,,,,,,,,,,,,,,,,,,,,
126044,1626449497352,0,0,253,255,237,232,5,-0.01,0.0,-2.94,-0,0,-0,0.01,0,79,1708,7,35,92,0.894,0.0,192,4.28,13.5,0.0,1,0.1,2.09,2.5,0,0,0,1,0,0,250,250,0,45.847061,5.177974,0.0,221.4,9,3,1.7,0,0.0,1,0.1483,0.0,1.1733,1,0.18,2.1007
126064,1626449497372,,,253,255,237,232,,-0.0,0.0,-2.95,-0,-0,-0,0.01,,79,1854,7,35,92,0.894,0.0,195,4.37,13.5,0.0,1,0.1,3.17,2.5,0,0,0,1,0,,,,,,,,,,,,,,,,,,,,
126084,1626449497392,,,253,256,237,232,,0.0,0.0,-2.97,-0,-0,-0,0.0,,79,1927,7,35,92,0.895,0.0,198,4.27,13.5,0.0,1,0.1,3.17,2.5,0,0,0,1,0,,,,,,,,,,,,,,,,,,,,
126104,1626449497412,,,253,256,237,232,,-0.0,0.0,-2.95,-0,-0,-0,0.0,,80,1874,7,35,91,0.895,0.0,200,4.21,13.2,0.0,1,0.1,3.17,2.5,0,0,0,1,0,,,,,,,,,,,,,,,,,,,,
126124,1626449497432,,,253,255,237,232,,-0.0,-0.0,-2.95,-0,-0,-0,0.0,,79,1779,7,35,91,0.897,0.0,199,4.25,13.4,0.0,1,0.1,3.17,2.7,0,0,0,1,0,,,,,,,,,,,,,,,,,,,,
126144,1626449497452,0,1,253,255,237,232,4,-0.0,-0.0,-2.94,-0,-0,-0,0.01,0,79,1713,7,35,92,0.898,0.0,196,4.32,13.5,0.0,1,0.1,3.17,2.7,0,0,0,1,0,0,250,250,0,45.847061,5.177974,0.0,221.4,9,3,1.7,0,0.0,1,0.1483,,1.175,1,0.18,2.1024
126164,1626449497472,,,253,256,237,232,,-0.0,-0.01,-2.93,-0,-0,-0,0.01,,79,1756,7,35,92,0.899,0.0,195,4.33,13.5,0.0,1,0.1,2.09,2.7,0,0,0,1,0,,,,,,,,,,,,,,,,,,,,
126184,1626449497492,,,253,255,237,232,,0.01,-0.01,-2.95,-0,-0,-0,0.01,,79,1915,7,35,92,0.9,0.0,198,4.28,13.4,0.0,1,0.1,2.09,2.7,0,0,0,1,0,,,,,,,,,,,,,,,,,,,,
126204,1626449497512,,,253,256,237,232,,-0.0,-0.01,-2.93,-0,-0,-0,0.01,,80,1878,7,35,91,0.902,0.0,201,4.27,13.2,0.0,1,0.1,3.17,2.7,0,0,0,1,0,,,,,,,,,,,,,,,,,,,,
126224,1626449497532,,,253,256,237,232,,-0.01,-0.0,-2.94,-0,-0,-0,0.01,,79,1816,7,35,92,0.903,0.0,199,4.28,13.5,0.0,1,0.1,3.17,2.7,0,0,0,1,0,,,,,,,,,,,,,,,,,,,,
126244,1626449497552,-1,2,253,256,237,232,5,-0.0,-0.0,-2.94,-0,-0,-0,0.0,0,79,1748,7,35,92,0.905,0.0,194,4.32,13.5,0.0,1,0.1,3.17,2.7,0,0,0,1,0,0,250,250,0,45.847061,5.177974,0.0,221.4,9,3,1.7,0,0.0,1,0.1483,0.0,1.1767,1,0.18,2.1041
126264,1626449497572,,,253,256,237,232,,0.0,-0.0,-2.95,-0,-0,-0,0.0,,79,1755,7,35,92,0.906,0.0,197,4.33,13.5,0.0,1,0.1,3.17,2.7,0,0,0,1,0,,,,,,,,,,,,,,,,,,,,
126284,1626449497592,,,253,256,237,232,,0.0,-0.0,-2.95,-0,-0,-0,0.0,,80,1933,7,35,92,0.906,0.0,202,4.25,13.3,0.0,1,0.1,3.17,2.7,0,0,0,1,0,,,,,,,,,,,,,,,,,,,,
126304,1626449497612,,,253,255,237,232,,-0.0,-0.0,-2.96,-0,-0,-0,0.01,,80,1937,7,35,92,0.908,0.0,203,4.23,13.5,0.0,1,0.1,3.17,2.7,0,0,0,1,0,,,,,,,,,,,,,,,,,,,,
126324,1626449497632,,,253,256,237,232,,0.0,-0.0,-2.98,-0,-0,-0,0.0,,79,1898,7,35,92,0.908,0.0,202,4.3,13.5,0.0,1,0.1,2.09,2.8,0,0,0,1,0,,,,,,,,,,,,,,,,,,,,
126344,1626449497652,-0,2,253,254,237,232,5,0.01,0.0,-2.98,-0,-0,-0,0.01,0,79,1820,7,35,92,0.909,0.0,200,4.3,13.5,0.0,1,0.1,3.17,2.8,0,0,0,1,0,0,250,250,0,45.847061,5.177974,0.0,221.4,9,3,1.7,0,0.0,1,0.1483,,1.1783,1,0.18,2.1057
126364,1626449497672,,,253,255,237,232,,0.01,-0.0,-2.99,-0,-0,-0,0.01,,79,1795,7,35,92,0.91,0.0,197,4.31,13.4,0.0,1,0.1,2.09,2.8,0,0,0,1,0,,,,,,,,,,,,,,,,,,,,
126384,1626449497692,,,253,256,237,232,,0.0,-0.0,-2.97,-0,-0,-0,0.0,,80,1884,7,35,91,0.911,0.0,200,4.31,13.3,0.0,1,0.1,3.17,2.8,0,0,0,1,0,,,,,,,,,,,,,,,,,,,,
126404,1626449497712,,,253,256,237,232,,0.0,-0.0,-2.98,-0,-0,-0,0.0,,79,1896,7,35,92,0.912,0.0,200,4.3,13.5,0.0,1,0.1,3.17,2.8,0,0,0,1,0,,,,,,,,,,,,,,,,,,,,
126424,1626449497732,,,253,256,237,232,,0.01,-0.0,-2.99,-0,-0,-0,0.01,,79,1879,7,35,92,0.914,0.0,200,4.27,13.5,0.0,1,0.0,3.17,2.7,0,0,0,1,0,,,,,,,,,,,,,,,,,,,,
126444,1626449497752,0,2,253,256,237,232,5,0.01,-0.0,-2.98,-0,-0,-0,0.01,0,79,1825,7,35,92,0.915,0.0,200,4.25,13.5,0.0,1,0.0,3.17,2.7,0,0,0,1,0,0,250,250,0,45.847061,5.177974,0.0,221.4,9,3,1.7,0,0.0,1,0.1483,0.0,1.18,1,0.18,2.1074
126464,1626449497772,,,253,256,237,232,,0.0,0.0,-2.98,-0,-0,-0,0.01,,80,1746,7,35,92,0.915,0.0,197,4.26,13.2,0.0,1,0.0,3.17,2.7,0,0,0,1,0,,,,,,,,,,,,,,,,,,,,
126484,1626449497791,,,253,256,237,232,,0.0,0.01,-2.97,-0,-0,-0,0.01,,80,1784,7,35,92,0.917,0.0,196,4.31,13.4,0.0,1,0.0,3.17,2.7,0,0,0,1,0,,,,,,,,,,,,,,,,,,,,
126504,1626449497811,,,253,255,237,232,,0.0,-0.0,-2.99,-0,-0,-0,0.0,,79,1868,7,35,92,0.918,0.0,197,4.31,13.5,0.0,1,0.0,2.09,2.7,0,0,0,1,0,,,,,,,,,,,,,,,,,,,,
126524,1626449497831,,,253,255,237,232,,0.01,0.0,-2.99,-0,-0,-0,0.01,,79,1826,7,35,92,0.919,0.0,198,4.3,13.5,0.0,1,0.0,3.17,2.7,0,0,0,1,0,,,,,,,,,,,,,,,,,,,,
126544,1626449497851,1,0,253,256,237,232,4,0.01,0.0,-2.98,-0,-0,-0,0.01,0,79,1767,7,35,92,0.92,0.0,198,4.3,13.5,0.0,1,0.0,3.17,2.7,0,0,0,1,0,0,250,250,0,45.847061,5.177974,0.0,221.4,9,3,1.7,0,0.0,1,0.1483,,1.1817,1,0.18,2.1091
126564,1626449497871,,,253,255,237,232,,0.01,0.0,-3.0,-0,-0,-0,0.01,,80,1718,7,35,92,0.921,0.0,193,4.32,13.4,0.0,1,0.0,3.17,2.7,0,0,0,1,0,,,,,,,,,,,,,,,,,,,,
126584,1626449497891,,,253,255,237,232,,0.0,0.0,-2.98,-0,0,-0,0.0,,80,1848,7,35,92,0.921,0.0,194,4.31,13.4,0.0,1,0.0,3.17,2.7,0,0,0,1,0,,,,,,,,,,,,,,,,,,,,
126604,1626449497911,,,252,256,237,232,,0.0,0.0,-2.98,-0,-0,-0,0.0,,80,1901,7,35,92,0.922,0.0,200,4.3,13.5,0.0,1,0.0,2.09,2.7,0,0,0,1,0,,,,,,,,,,,,,,,,,,,,
126624,1626449497931,,,252,255,237,232,,0.01,0.0,-2.97,-0,-0,-0,0.01,,79,1893,7,35,92,0.921,0.0,203,4.36,13.5,0.0,1,-0.1,3.17,2.7,0,0,0,1,0,,,,,,,,,,,,,,,,,,,,
126644,1626449497951,-0,2,253,256,237,232,5,0.01,0.0,-2.97,-0,-0,-0,0.01,0,80,1826,7,35,92,0.919,0.0,200,4.27,13.4,0.0,1,-0.1,3.17,2.7,0,0,0,1,0,0,250,250,0,45.847061,5.177974,0.0,221.4,9,3,1.7,0,0.0,1,0.1483,0.0,1.1833,1,0.18,2.1107
126664,1626449497971,,,253,255,237,232,,-0.0,0.01,-2.95,-0,-0,-0,0.01,,80,1804,7,35,91,0.92,0.0,196,4.4,13.2,0.0,1,-0.1,3.17,2.7,0,0,0,1,0,,,,,,,,,,,,,,,,,,,,
126684,1626449497991,,,253,256,237,232,,-0.0,0.01,-2.94,-0,-0,-0,0.01,,80,1806,7,35,92,0.919,0.0,197,4.24,13.5,0.0,1,-0.1,3.17,2.7,0,0,0,1,0,,,,,,,,,,,,,,,,,,,,
126704,1626449498005,,,253,255,237,232,,0.0,0.01,-2.96,-0,-0,-0,0.01,,80,1820,7,35,93,0.918,0.0,200,4.25,13.5,0.0,1,-0.1,3.17,2.7,0,0,0,1,0,,,,,,,,,,,,,,,,,,,,
126724,1626449498025,,,253,256,237,232,,0.01,0.01,-2.97,-0,-0,-0,0.01,,80,1850,7,35,92,0.917,0.0,200,4.3,13.5,0.0,1,-0.1,2.09,2.7,0,0,0,1,0,,,,,,,,,,,,,,,,,,,,
126744,1626449498045,1,1,252,255,237,232,3,0.0,0.01,-2.98,-0,-0,-0,0.01,0,80,1792,7,35,92,0.916,0.0,199,4.3,13.4,0.0,1,-0.1,3.17,2.7,0,0,0,1,0,0,250,250,0,45.847061,5.177974,0.0,221.4,9,3,1.7,0,0.0,1,0.1483,,1.185,1,0.18,2.1124
126764,1626449498065,,,253,255,237,232,,-0.0,0.01,-2.95,-0,-0,-0,0.01,,80,1745,7,35,92,0.914,0.0,193,4.32,13.3,0.0,1,-0.1,3.17,2.7,0,0,0,1,0,,,,,,,,,,,,,,,,,,,,
126784,1626449498091,,,253,256,237,232,,-0.0,0.01,-2.95,-0,-0,-0,0.01,,80,1705,7,35,92,0.913,0.0,193,4.24,13.4,0.0,1,-0.1,3.17,2.7,0,0,0,1,0,,,,,,,,,,,,,,,,,,,,
126804,1626449498111,,,252,256,237,232,,-0.0,0.01,-2.96,-0,-0,-0,0.01,,80,1735,7,35,93,0.912,0.0,196,4.3,13.5,0.0,1,-0.1,3.17,2.7,0,0,0,1,0,,,,,,,,,,,,,,,,,,,,
126824,1626449498131,,,253,255,237,232,,0.0,0.01,-2.96,-0,-0,-0,0.01,,80,1820,7,35,93,0.911,0.0,197,4.3,13.5,0.0,1,-0.2,3.17,2.5,0,0,0,1,0,,,,,,,,,,,,,,,,,,,,
126844,1626449498151,-0,2,253,256,237,232,5,0.01,0.01,-2.96,-0,-0,-0,0.01,0,80,1790,7,35,92,0.91,0.0,197,4.37,13.5,0.0,1,-0.2,3.17,2.5,0,0,0,1,0,0,250,250,0,45.847061,5.177974,0.0,221.4,9,3,1.7,0,0.0,1,0.1483,0.0,1.1867,1,0.18,2.1141
126864,1626449498171,,,253,255,237,232,,0.0,0.01,-2.94,-0,-0,-0,0.01,,80,1747,7,35,92,0.908,0.0,197,4.33,13.2,0.0,1,-0.2,3.17,2.5,0,0,0,1,0,,,,,,,,,,,,,,,,,,,,
126884,1626449498193,,,253,256,237,232,,0.0,0.01,-2.92,-0,-0,-0,0.01,,80,1680,7,35,92,0.907,0.0,193,4.27,13.4,0.0,1,-0.2,3.17,2.5,0,0,0,1,0,,,,,,,,,,,,,,,,,,,,
126904,1626449498213,,,253,255,237,232,,-0.0,0.01,-2.93,-0,-0,-0,0.01,,80,1705,7,35,92,0.905,0.0,189,4.29,13.5,0.0,1,-0.2,2.09,2.5,0,0,0,1,0,,,,,,,,,,,,,,,,,,,,
126924,1626449498233,,,252,256,237,232,,0.0,0.01,-2.93,-0,-0,-0,0.01,,80,1809,8,35,93,0.904,0.0,193,4.37,13.5,0.0,1,-0.2,2.09,2.4,0,0,0,1,0,,,,,,,,,,,,,,,,,,,,
126944,1626449498253,1,0,253,256,237,232,5,0.01,0.01,-2.94,-0,-0,-0,0.01,0,80,1818,8,35,93,0.903,0.0,197,4.31,13.5,0.0,1,-0.2,3.17,2.4,0,0,0,1,0,0,250,250,0,45.847061,5.177974,0.0,221.4,9,3,1.7,0,0.0,1,0.1483,,1.1883,1,0.18,2.1157
126964,1626449498273,,,253,256,237,232,,0.01,0.01,-2.96,-0,-0,-0,0.01,,80,1797,7,35,92,0.901,0.0,200,4.27,13.3,0.0,1,-0.2,3.17,2.4,0,0,0,1,0,,,,,,,,,,,,,,,,,,,,
126984,1626449498293,,,253,256,237,232,,0.0,0.01,-2.94,-0,-0,-0,0.01,,80,1721,7,35,92,0.901,0.0,193,4.43,13.3,0.0,1,-0.2,3.17,2.4,0,0,0,1,0,,,,,,,,,,,,,,,,,,,,
127004,1626449498313,,,253,256,237,232,,-0.0,0.01,-2.93,-0,-0,-0,0.01,,80,1706,7,35,92,0.9,0.0,191,4.36,13.4,0.0,1,-0.2,3.17,2.4,0,0,0,1,0,,,,,,,,,,,,,,,,,,,,
127024,1626449498333,,,253,256,237,232,,-0.0,0.01,-2.95,-0,-0,-0,0.01,,80,1721,7,35,93,0.9,0.0,192,4.32,13.5,0.0,1,-0.2,2.09,2.4,0,0,0,1,0,,,,,,,,,,,,,,,,,,,,
127044,1626449498353,0,2,253,256,237,232,5,-0.0,0.0,-2.95,-0,-0,-0,0.0,0,80,1756,8,35,93,0.9,0.0,192,4.3,13.5,0.0,1,-0.2,2.09,2.4,0,0,0,1,0,0,250,250,0,45.847061,5.177974,0.0,221.4,9,3,1.7,0,0.0,1,0.1483,0.0,1.19,1,0.18,2.1174
127064,1626449498373,,,253,255,237,232,,0.0,0.01,-2.95,-0,-0,-0,0.01,,80,1748,8,35,93,0.899,0.0,192,4.36,13.5,0.0,1,-0.2,3.17,2.4,0,0,0,1,0,,,,,,,,,,,,,,,,,,,,
127084,1626449498391,,,253,255,237,232,,0.01,0.01,-2.94,-0,-0,-0,0.01,,80,1701,8,35,93,0.899,0.0,192,4.37,13.5,0.0,1,-0.2,3.17,2.4,0,0,0,1,0,,,,,,,,,,,,,,,,,,,,
127104,1626449498411,,,253,256,237,232,,0.01,0.0,-2.96,-0,-0,-0,0.01,,80,1620,8,35,92,0.899,0.0,188,4.31,13.4,0.0,1,-0.2,2.09,2.4,0,0,0,1,0,,,,,,,,,,,,,,,,,,,,
127124,1626449498431,,,253,256,237,232,,0.0,0.0,-2.97,-0,-0,-0,0.0,,80,1677,7,35,92,0.899,0.0,186,4.29,13.3,0.0,1,-0.2,2.09,2.3,0,0,0,1,0,,,,,,,,,,,,,,,,,,,,
127144,1626449498451,-1,2,253,255,237,232,5,-0.0,0.0,-2.95,-0,-0,-0,0.0,0,80,1757,7,35,92,0.898,0.0,190,4.35,13.3,0.0,1,-0.2,2.09,2.3,0,0,0,1,0,0,250,250,0,45.847061,5.177974,0.0,221.4,9,3,1.7,0,0.0,1,0.1483,,1.1917,1,0.18,2.1191
127164,1626449498471,,,253,256,237,232,,-0.01,0.0,-2.96,-0,-0,-0,0.01,,80,1754,7,35,93,0.898,0.0,192,4.28,13.5,0.0,1,-0.2,3.17,2.3,0,0,0,1,0,,,,,,,,,,,,,,,,,,,,
127184,1626449498493,,,253,256,237,232,,-0.0,-0.0,-2.95,-0,-0,-0,0.0,,80,1714,8,35,93,0.898,0.0,189,4.33,13.5,0.0,1,-0.2,3.17,2.3,0,0,0,1,0,,,,,,,,,,,,,,,,,,,,
127204,1626449498513,,,252,256,237,232,,-0.0,-0.0,-2.97,-0,-0,-0,0.0,,80,1652,7,35,93,0.899,0.0,187,4.4,13.4,0.0,1,-0.2,3.17,2.3,0,0,0,1,0,,,,,,,,,,,,,,,,,,,,
127224,1626449498533,,,253,255,237,232,,0.0,-0.01,-2.99,-0,-0,-0,0.01,,80,1578,8,35,93,0.899,0.0,185,4.41,13.5,0.0,1,0.0,2.09,2.4,0,0,0,1,0,,,,,,,,,,,,,,,,,,,,
127244,1626449498553,1,1,253,256,237,232,5,0.01,-0.01,-2.99,-0,-0,-0,0.01,0,80,1597,8,35,93,0.899,0.0,188,4.31,13.5,0.0,1,0.0,3.17,2.4,0,0,0,1,0,0,250,250,0,45.847061,5.177974,0.0,221.4,9,3,1.7,0,0.0,1,0.1483,0.0,1.1933,1,0.18,2.1207
127264,1626449498573,,,252,256,237,232,,0.01,-0.01,-3.01,-0,-0,-0,0.01,,80,1814,8,35,92,0.899,0.0,191,4.34,13.4,0.0,1,0.0,3.17,2.4,0,0,0,1,0,,,,,,,,,,,,,,,,,,,,
127284,1626449498591,,,253,256,237,232,,0.0,-0.01,-2.98,-0,-0,-0,0.01,,80,1857,7,35,92,0.9,0.0,192,4.41,13.4,0.0,1,0.0,3.17,2.4,0,0,0,1,0,,,,,,,,,,,,,,,,,,,,
127304,1626449498611,,,253,255,237,232,,-0.0,-0.01,-2.99,-0,-0,-0,0.01,,80,1791,7,35,93,0.9,0.0,194,4.25,13.5,0.0,1,0.0,3.17,2.4,0,0,0,1,0,,,,,,,,,,,,,,,,,,,,
127324,1626449498631,,,253,256,237,232,,0.0,-0.01,-2.98,-0,-0,-0,0.01,,80,1710,8,35,93,0.901,0.0,194,4.22,13.5,0.0,1,0.0,3.17,2.6,0,0,0,1,0,,,,,,,,,,,,,,,,,,,,
127344,1626449498651,-1,2,253,255,237,232,5,0.0,-0.01,-2.99,-0,-0,-0,0.01,0,80,1644,8,35,93,0.901,0.0,189,4.28,13.5,0.0,1,0.0,2.09,2.6,0,0,0,1,0,0,250,250,0,45.847061,5.177974,0.0,221.4,9,3,1.7,0,0.0,1,0.1483,,1.195,1,0.18,2.1224
127364,1626449498671,,,253,256,237,232,,0.01,-0.01,-2.99,-0,-1,-0,0.01,,80,1702,8,35,93,0.902,0.0,192,4.42,13.5,0.0,1,0.0,3.17,2.6,0,0,0,1,0,,,,,,,,,,,,,,,,,,,,
127384,1626449498693,,,253,255,237,232,,0.0,-0.0,-2.96,-0,-0,-0,0.0,,80,1922,7,35,92,0.902,0.0,197,4.31,13.2,0.0,1,0.0,3.17,2.6,0,0,0,1,0,,,,,,,,,,,,,,,,,,,,
127404,1626449498713,,,253,255,237,232,,0.0,-0.0,-2.98,-0,-0,-0,0.0,,80,1889,7,35,92,0.902,0.0,200,4.22,13.5,0.0,1,0.0,3.17,2.6,0,0,0,1,0,,,,,,,,,,,,,,,,,,,,
127424,1626449498733,,,252,256,237,232,,0.01,-0.01,-3.0,-0,-0,-0,0.01,,80,1841,8,35,92,0.903,0.0,200,4.35,13.5,0.0,1,0.0,3.17,2.7,0,0,0,1,0,,,,,,,,,,,,,,,,,,,,
127444,1626449498753,0,2,253,255,237,232,4,0.01,-0.0,-2.99,-0,-1,-0,0.01,0,80,1772,8,35,92,0.902,0.0,197,4.37,13.5,0.0,1,0.0,3.17,2.7,0,0,0,1,0,0,250,250,0,45.847061,5.177974,0.0,221.4,9,3,1.7,0,0.0,1,0.1483,0.0,1.1967,1,0.18,2.1241
127464,1626449498773,,,253,255,237,232,,0.01,-0.0,-2.99,-0,-0,-0,0.01,,80,1850,8,35,92,0.902,0.0,196,4.23,13.4,0.0,1,0.0,3.17,2.7,0,0,0,1,0,,,,,,,,,,,,,,,,,,,,
127484,1626449498793,,,253,255,237,232,,0.0,-0.0,-2.99,-0,-0,-0,0.0,,80,1915,7,35,92,0.902,0.0,200,4.3,13.4,0.0,1,0.0,3.17,2.7,0,0,0,1,0,,,,,,,,,,,,,,,,,,,,
127504,1626449498813,,,252,255,237,232,,0.01,-0.0,-3.0,-0,-1,-0,0.01,,80,1883,8,35,92,0.902,0.0,203,4.3,13.5,0.0,1,0.0,3.17,2.7,0,0,0,1,0,,,,,,,,,,,,,,,,,,,,
127524,1626449498833,,,253,255,237,232,,0.01,-0.0,-3.01,-0,-1,-0,0.01,,80,1820,8,35,92,0.901,0.0,197,4.33,13.5,0.0,1,0.0,3.17,2.7,0,0,0,1,0,,,,,,,,,,,,,,,,,,,,
127544,1626449498853,1,0,253,256,237,232,5,0.02,-0.0,-3.01,-0,-1,-0,0.02,0,80,1731,8,35,92,0.901,0.0,194,4.43,13.5,0.0,1,0.0,2.09,2.7,0,0,0,1,0,0,250,250,0,45.847061,5.177974,0.0,221.4,9,3,1.7,0,0.0,1,0.1483,,1.1983,1,0.18,2.1257
127564,1626449498873,,,253,256,237,232,,0.01,-0.0,-3.0,-0,-0,-0,0.01,,80,1827,7,35,92,0.9,0.0,197,4.28,13.4,0.0,1,0.0,3.17,2.7,0,0,0,1,0,,,,,,,,,,,,,,,,,,,,
127584,1626449498892,,,253,256,237,232,,0.01,0.0,-3.0,-0,-0,-0,0.01,,80,1936,7,35,92,0.899,0.0,200,4.33,13.5,0.0,1,0.0,3.17,2.7,0,0,0,1,0,,,,,,,,,,,,,,,,,,,,
127604,1626449498912,,,253,256,237,232,,0.01,-0.0,-3.01,-0,-0,-0,0.01,,80,1955,8,35,93,0.9,0.0,203,4.35,13.5,0.0,1,0.0,3.17,2.7,0,0,0,1,0,,,,,,,,,,,,,,,,,,,,
127624,1626449498932,,,252,255,237,232,,0.01,-0.0,-3.02,-0,0,-0,0.01,,80,1929,10,35,92,0.901,0.0,203,4.31,13.5,0.0,1,-0.1,2.09,2.8,0,0,0,1,0,,,,,,,,,,,,,,,,,,,,
127644,1626449498952,1,0,253,256,237,232,5,0.01,-0.01,-3.02,-0,0,-0,0.01,0,80,1808,11,35,92,0.902,0.0,201,4.16,13.3,0.0,1,-0.1,2.09,2.8,0,0,0,1,0,0,250,250,0,45.847061,5.177974,0.0,221.4,9,3,1.7,0,0.0,1,0.1483,0.0,1.2,1,0.18,2.1274
127664,1626449498972,,,253,256,237,232,,0.0,-0.01,-3.02,-0,0,-0,0.01,,80,1854,13,35,93,0.902,0.0,200,4.31,13.4,0.0,1,27.1,3.17,2.8,0,0,0,1,0,,,,,,,,,,,,,,,,,,,,
127684,1626449498992,,,253,256,237,232,,0.01,-0.01,-3.03,-0,-0,-0,0.01,,80,1962,14,35,94,0.904,0.0,204,4.41,13.5,0.0,1,28.5,2.09,2.8,0,0,0,1,0,,,,,,,,,,,,,,,,,,,,
127704,1626449499004,,,253,256,237,232,,0.0,-0.01,-3.05,-0,0,-0,0.01,,80,2016,17,35,94,0.906,0.0,207,4.28,13.3,0.0,1,28.5,3.17,2.8,0,0,0,1,0,,,,,,,,,,,,,,,,,,,,
127724,1626449499024,,,252,255,237,232,,-0.0,-0.01,-3.04,-0,1,-0,0.01,,80,1964,20,35,95,0.908,0.0,206,4.21,13.4,0.0,1,29.8,3.17,2.9,0,0,0,1,0,,,,,,,,,,,,,,,,,,,,
127744,1626449499044,1,1,253,255,237,232,5,0.0,-0.01,-3.04,-0,-0,-0,0.01,0,80,1951,22,35,97,0.909,0.0,208,4.27,13.5,0.0,1,32.6,5.19,2.9,0,0,0,1,0,0,250,250,0,45.847061,5.177974,0.0,221.4,9,3,1.7,0,0.0,1,0.1483,,1.2017,1,0.18,2.1291
127764,1626449499064,,,253,256,237,232,,0.01,-0.01,-2.99,-0,0,-0,0.01,,80,2371,23,35,96,0.911,0.0,216,4.22,13.4,0.0,1,31.2,2.09,2.9,0,0,0,1,0,,,,,,,,,,,,,,,,,,,,
