"Interval"|"ms"|0|0|1,"Utc"|"ms"|0|0|1,"Brake_F"|"Bar"|0|2000|10,"Brake_R"|"Bar"|0|2000|10,"Height_RF"|"mm"|0|255|10,"Height_LF"|"mm"|0|255|10,"Height_LR"|"mm"|0|80|10,"Height_RR"|"mm"|0|255|10,"Steering"|"deg"|-100|100|10,"AccelX"|"G"|-3.0|3.0|50,"AccelY"|"G"|-3.0|3.0|50,"AccelZ"|"G"|-3.0|3.0|50,"Yaw"|"Deg/Sec"|-120|120|50,"Pitch"|"Deg/Sec"|-120|120|50,"Roll"|"Deg/Sec"|-120|120|50,"Gsum"|"G"|0.0|3.0|50,"Log_Button"|""|0.0|10.0|10,"WaterTemp"|"C"|0|150|50,"RPM"|"tr/min"|0|14000|50,"TPS"|"%"|0|100|50,"AirTemp"|"C"|0|150|50,"MAP"|"KPa"|0|100|50,"Lambda"|""|0.5|1.5|50,"SpeedDTA"|"kph"|0.0|250.0|50,"OilPress"|"KPa"|0|1500|50,"FuelPressur"|"Bar"|0.0|10.0|50,"Batterie"|"V"|0.0|20.0|50,"ConsoKm"|"L/100km"|0.0|200.0|50,"Gear"|""|0|6|50,"AdvIgnition"|"Deg"|-20.0|70.0|50,"Injection"|"ms"|0.0|10.0|50,"ConsoHr"|"L/Hr"|0.0|10000.0|50,"LC_But_Pres"|""|0|1|50,"LC_Active"|""|0|1|50,"TractionOn"|""|0|1|50,"TractionWet"|""|0|1|50,"FanOn"|""|0|1|50,"RD_Speed"|"km/h"|-30|250|50,"RUD_Speed"|"km/h"|-30|250|50,"LD_Speed"|"km/h"|-30|250|50,"LUD_Speed"|"km/h"|-30|250|50,"Latitude"|"Degrees"|-180.0|180.0|10,"Longitude"|"Degrees"|-180.0|180.0|10,"Speed"|"kph"|0.0|150.0|10,"Altitude"|"m"|0.0|4000.0|10,"GPSSats"|""|0|20|10,"GPSQual"|""|0|5|10,"GPSDOP"|""|0.0|20.0|10,"LapCount"|""|0|0|10,"LapTime"|"Min"|0.0|0.0|10,"Sector"|""|0|0|10,"SectorTime"|"Min"|0.0|0.0|10,"PredTime"|"Min"|0.0|0.0|5,"ElapsedTime"|"Min"|0.0|0.0|10,"CurrentLap"|""|0|0|10,"Distance"|"km"|0.0|0.0|10,"SessionTime"|"Min"|0.0|0.0|10
377063,0,,,,,,,,-0.04,-0.05,-2.01,2,-0,7,0.07,,87,5484,10,39,59,0.78,0.0,463,5.01,13.1,0.0,1,33.4,2.52,6.3,0,0,1,1,0,0,250,250,0,,,,,,,,,,,,,,,,
377083,0,,,,,,,,-0.01,-0.11,-2.04,3,-5,5,0.11,,87,5450,10,39,59,0.78,0.0,463,4.9,13.0,0.0,1,33.4,2.54,6.3,0,0,1,1,0,0,250,250,0,,,,,,,,,,,,,,,,
377103,0,,,,,,,,0.03,-0.09,-1.87,2,-8,2,0.09,,87,5423,10,39,59,0.78,0.0,445,4.92,13.0,0.0,1,33.4,1.46,6.3,0,0,1,1,0,0,250,250,0,,,,,,,,,,,,,,,,
377123,0,,,,,,,,-0.09,-0.15,-2.04,2,2,10,0.17,,87,5444,10,39,59,0.781,0.0,445,5.01,13.1,0.0,1,33.4,2.54,6.3,0,0,1,1,0,0,250,250,0,,,,,,,,,,,,,,,,
377143,0,8,6,37,38,34,33,4,0.07,-0.1,-1.87,5,-16,1,0.12,1,87,5397,10,39,60,0.781,0.0,458,4.9,13.0,0.0,1,33.7,2.56,6.3,0,0,1,1,0,0,250,250,0,0.0,0.0,0.0,0.0,0,0,0.0,0,0.0,-1,0.0,,0.0,0,0.0,6.2857
377163,0,,,,,,,,-0.0,-0.06,-1.87,5,-10,5,0.06,,87,5412,10,39,59,0.78,0.0,450,4.91,13.0,0.0,1,33.4,1.47,6.4,0,0,1,1,0,0,250,250,0,,,,,,,,,,,,,,,,
377183,0,,,,,,,,-0.02,-0.17,-2.04,5,-7,6,0.17,,87,5360,10,39,60,0.781,0.0,451,4.97,13.1,0.0,1,33.7,2.58,6.4,0,0,1,1,0,0,250,250,0,,,,,,,,,,,,,,,,
377203,0,,,,,,,,-0.01,-0.15,-1.87,4,-11,1,0.15,,87,5346,10,39,60,0.78,0.0,452,4.9,12.9,0.0,1,33.7,2.59,6.4,0,0,1,1,0,0,250,250,0,,,,,,,,,,,,,,,,
377223,0,,,,,,,,-0.06,-0.22,-2.05,4,-5,6,0.22,,87,5305,10,39,60,0.78,0.0,445,4.93,13.1,0.0,1,33.7,2.61,6.4,0,0,1,1,0,0,250,250,0,,,,,,,,,,,,,,,,
377243,0,8,5,37,38,34,33,4,0.03,-0.15,-1.88,4,-14,-0,0.15,1,87,5311,10,39,60,0.781,0.0,447,4.86,12.9,0.0,1,33.7,2.61,6.4,0,0,1,1,0,0,250,250,0,0.0,0.0,0.0,0.0,0,0,0.0,0,0.0,-1,0.0,0.0,0.0,0,0.0,6.2874
377263,0,,,,,,,,-0.04,-0.18,-2.05,4,-5,7,0.19,,87,5287,10,39,60,0.781,0.0,445,5.01,13.1,0.0,1,33.7,2.62,6.4,0,0,1,1,0,0,250,250,0,,,,,,,,,,,,,,,,
377283,0,,,,,,,,0.05,-0.12,-1.88,3,-11,-2,0.13,,87,5296,10,39,60,0.781,0.0,446,4.9,12.9,0.0,1,33.7,1.54,6.4,0,0,1,1,0,0,250,250,0,,,,,,,,,,,,,,,,
377303,0,,,,,,,,-0.03,-0.11,-2.06,3,-2,6,0.11,,87,5289,10,39,60,0.781,0.0,432,4.95,13.1,0.0,1,33.7,2.62,6.4,0,0,1,1,0,0,250,250,0,,,,,,,,,,,,,,,,
377323,0,,,,,,,,0.08,-0.05,-1.88,3,-12,-2,0.1,,87,5308,10,39,60,0.781,0.0,444,4.89,12.9,0.0,1,33.7,2.61,6.4,0,0,1,1,0,0,250,250,0,,,,,,,,,,,,,,,,
377343,0,9,5,37,38,34,33,4,-0.01,0.03,-2.06,3,-5,5,0.04,1,87,5307,10,39,60,0.779,0.0,438,4.98,13.1,0.0,1,33.7,2.61,6.4,0,0,1,1,0,0,250,250,0,0.0,0.0,0.0,0.0,0,0,0.0,0,0.0,-1,0.0,,0.0,0,0.0,6.2891
377363,0,,,,,,,,0.08,0.05,-1.89,4,-14,-0,0.1,,87,5263,10,39,60,0.779,0.0,438,4.87,12.9,0.0,1,33.7,2.64,6.4,0,0,1,1,0,0,250,250,0,,,,,,,,,,,,,,,,
377383,0,,,,,,,,-0.0,0.1,-2.06,4,-6,5,0.1,,87,5252,10,39,60,0.778,0.0,430,4.93,13.1,0.0,1,33.7,2.64,6.4,0,0,1,1,0,0,250,250,0,,,,,,,,,,,,,,,,
377403,0,,,,,,,,0.08,0.13,-1.89,3,-9,-0,0.15,,87,5237,10,39,60,0.779,0.0,451,4.9,13.0,0.0,1,33.7,2.65,6.4,0,0,1,1,0,0,250,250,0,,,,,,,,,,,,,,,,
377423,0,,,,,,,,0.01,0.15,-2.06,3,-2,6,0.15,,87,5225,10,39,60,0.779,0.0,436,5.0,13.1,0.0,1,33.7,1.58,6.4,0,0,1,1,0,0,250,250,0,,,,,,,,,,,,,,,,
377443,0,8,5,37,38,34,33,4,0.09,0.19,-1.89,1,-6,-1,0.21,1,87,5237,10,39,60,0.779,0.0,432,4.88,13.0,0.0,1,33.7,2.65,6.4,0,0,1,1,0,0,250,250,0,0.0,0.0,0.0,0.0,0,0,0.0,0,0.0,-1,0.0,0.0,0.0,0,0.0,6.2907
377463,0,,,,,,,,0.0,0.21,-2.07,2,2,6,0.21,,87,5233,10,39,61,0.779,0.0,430,4.97,13.1,0.0,1,34.0,2.66,6.4,0,0,1,1,0,0,250,250,0,,,,,,,,,,,,,,,,
377483,0,,,,,,,,0.09,0.26,-1.89,1,-5,-2,0.28,,87,5212,10,39,60,0.778,0.0,430,4.91,12.9,0.0,1,33.7,2.65,6.4,0,0,1,1,0,0,250,250,0,,,,,,,,,,,,,,,,
377503,0,,,,,,,,0.04,0.25,-2.07,2,1,4,0.25,,87,5178,10,39,61,0.777,0.0,426,4.98,13.1,0.0,1,34.0,2.69,6.4,0,0,1,1,0,0,250,250,0,,,,,,,,,,,,,,,,
377523,0,,,,,,,,0.07,0.28,-1.89,1,-6,-2,0.29,,87,5162,10,39,60,0.776,0.0,431,4.88,13.0,0.0,1,33.7,2.7,6.4,0,0,1,1,0,0,250,250,0,,,,,,,,,,,,,,,,
377543,0,7,6,37,38,34,33,4,0.04,0.18,-2.07,1,-0,2,0.19,1,87,5191,10,39,60,0.775,0.0,433,4.93,13.1,0.0,1,33.7,2.68,6.4,0,0,1,1,0,0,250,250,0,0.0,0.0,0.0,0.0,0,0,0.0,0,0.0,-1,0.0,,0.0,0,0.0,6.2924
377563,0,,,,,,,,0.03,0.16,-1.89,1,-5,-2,0.16,,87,5175,10,39,60,0.775,0.0,433,4.87,13.0,0.0,1,33.7,1.61,6.4,0,0,1,1,0,0,250,250,0,,,,,,,,,,,,,,,,
377583,0,,,,,,,,0.05,0.04,-2.07,1,-2,1,0.06,,87,5202,10,39,60,0.775,0.0,433,5.01,13.1,0.0,1,33.7,2.68,6.4,0,0,1,1,0,0,250,250,0,,,,,,,,,,,,,,,,
377603,0,,,,,,,,0.01,0.09,-1.9,1,-4,-1,0.09,,87,5199,10,39,60,0.774,0.0,430,4.94,13.0,0.0,1,33.7,1.6,6.4,0,0,1,1,0,0,250,250,0,,,,,,,,,,,,,,,,
377623,0,,,,,,,,0.04,-0.0,-2.07,1,-1,-0,0.04,,87,5224,10,39,60,0.774,0.0,429,4.97,13.1,0.0,1,33.7,2.66,6.4,0,0,1,1,0,0,250,250,0,,,,,,,,,,,,,,,,
377643,0,8,4,37,38,34,33,4,0.01,0.02,-1.9,1,-1,-1,0.02,0,87,5235,10,39,61,0.774,0.0,437,4.98,13.1,0.0,1,34.0,2.63,6.4,0,0,1,1,0,0,250,250,0,0.0,0.0,0.0,0.0,0,0,0.0,0,0.0,-1,0.0,0.0,0.0,0,0.0,6.2941
377663,0,,,,,,,,0.05,-0.08,-2.07,1,-1,-1,0.09,,87,5225,10,39,60,0.773,0.0,443,4.97,13.0,0.0,1,33.7,2.66,6.4,0,0,1,1,0,0,250,250,0,,,,,,,,,,,,,,,,
377683,0,,,,,,,,-0.02,-0.05,-1.9,1,0,-0,0.05,,87,5230,10,39,61,0.772,0.0,429,4.93,13.0,0.0,1,34.0,1.56,6.4,0,0,1,1,0,0,250,250,0,,,,,,,,,,,,,,,,
377703,0,,,,,,,,0.04,-0.14,-2.07,1,1,-1,0.14,,87,5214,10,39,60,0.772,0.0,436,4.9,12.9,0.0,1,33.7,2.67,6.4,0,0,1,1,0,0,250,250,0,,,,,,,,,,,,,,,,
377723,0,,,,,,,,-0.03,-0.09,-1.9,1,4,1,0.1,,87,5219,10,39,60,0.773,0.0,441,4.92,13.0,0.0,1,33.7,1.58,6.4,0,0,1,1,0,0,250,250,0,,,,,,,,,,,,,,,,
377743,0,7,6,37,38,34,33,4,0.03,-0.1,-1.97,1,1,-2,0.1,0,87,5214,10,39,60,0.775,0.0,434,4.92,13.0,0.0,1,33.7,2.67,6.4,0,0,1,1,0,0,250,250,0,0.0,0.0,0.0,0.0,0,0,0.0,0,0.0,-1,0.0,,0.0,0,0.0,6.2957
377763,0,,,,,,,,-0.05,-0.03,-2.14,1,6,2,0.06,,87,5206,10,39,60,0.775,0.0,427,4.97,13.1,0.0,1,33.7,2.67,6.4,0,0,1,1,0,0,250,250,0,,,,,,,,,,,,,,,,
377783,0,,,,,,,,0.04,-0.01,-1.96,0,2,-2,0.04,,87,5224,10,39,60,0.777,0.0,445,4.91,13.0,0.0,1,33.7,1.58,6.4,0,0,1,1,0,0,250,250,0,,,,,,,,,,,,,,,,
377803,0,,,,,,,,-0.04,0.05,-2.13,0,8,4,0.07,,87,5202,10,39,60,0.778,0.0,430,4.93,13.1,0.0,1,33.7,2.68,6.4,0,0,1,1,0,0,250,250,0,,,,,,,,,,,,,,,,
377823,0,,,,,,,,0.03,0.12,-1.95,0,2,-2,0.12,,87,5215,10,39,60,0.78,0.0,429,4.91,12.9,0.0,1,33.7,2.67,6.4,0,0,1,1,0,0,250,250,0,,,,,,,,,,,,,,,,
377843,0,8,6,37,38,34,33,4,-0.04,0.16,-2.12,0,9,5,0.16,0,87,5230,10,39,60,0.782,0.0,429,5.03,13.1,0.0,1,33.7,2.66,6.4,0,0,1,1,0,0,250,250,0,0.0,0.0,0.0,0.0,0,0,0.0,0,0.0,-1,0.0,0.0,0.0,0,0.0,6.2974
377863,0,,,,,,,,0.04,0.21,-1.94,1,-2,-1,0.22,,87,5211,10,39,60,0.784,0.0,440,4.89,12.9,0.0,1,33.7,2.67,6.4,0,0,1,1,0,0,250,250,0,,,,,,,,,,,,,,,,
377883,0,,,,,,,,-0.01,0.19,-2.11,1,5,6,0.19,,87,5209,10,39,60,0.785,0.0,432,4.99,13.1,0.0,1,33.7,2.67,6.4,0,0,1,1,0,0,250,250,0,,,,,,,,,,,,,,,,
377903,0,,,,,,,,0.06,0.21,-1.94,0,-1,-2,0.22,,87,5214,10,39,60,0.787,0.0,435,4.88,12.9,0.0,1,33.7,1.59,6.4,0,0,1,1,0,0,250,250,0,,,,,,,,,,,,,,,,
377923,0,,,,,,,,0.01,0.14,-2.11,0,6,5,0.14,,87,5209,10,39,60,0.789,0.0,431,4.98,13.1,0.0,1,33.7,2.67,6.4,0,0,1,1,0,0,250,250,0,,,,,,,,,,,,,,,,
377943,0,7,6,37,38,34,33,4,0.06,0.17,-1.93,0,-3,-2,0.18,0,87,5228,10,39,60,0.79,0.0,434,4.89,12.9,0.0,1,33.7,2.67,6.4,0,0,1,1,0,0,250,250,0,0.0,0.0,0.0,0.0,0,0,0.0,0,0.0,-1,0.0,,0.0,0,0.0,6.299
377963,0,,,,,,,,0.03,0.08,-2.1,0,3,3,0.08,,87,5173,10,39,60,0.792,0.0,437,4.98,13.1,0.0,1,33.7,2.69,6.4,0,0,1,1,0,0,250,250,0,,,,,,,,,,,,,,,,
377983,0,,,,,,,,0.02,0.09,-1.93,0,-3,-2,0.09,,87,5208,10,39,60,0.792,0.0,435,4.93,12.9,0.0,1,33.7,1.59,6.4,0,0,1,1,0,0,250,250,0,,,,,,,,,,,,,,,,
378003,0,,,,,,,,0.05,-0.04,-2.1,0,-1,1,0.06,,87,5158,10,39,60,0.794,0.0,428,5.02,13.1,0.0,1,33.7,2.7,6.4,0,0,1,1,0,0,250,250,0,,,,,,,,,,,,,,,,
378023,0,,,,,,,,-0.0,-0.02,-1.92,0,-1,-1,0.02,,87,5166,10,39,60,0.794,0.0,435,4.95,13.1,0.0,1,33.7,2.7,6.4,0,0,1,1,0,0,250,250,0,,,,,,,,,,,,,,,,
378043,0,7,6,37,38,34,33,4,0.05,-0.02,-2.09,0,-2,-3,0.05,0,87,5134,10,39,60,0.795,0.0,430,4.93,13.0,0.0,1,33.7,2.72,6.4,0,0,1,1,0,0,250,250,0,0.0,0.0,0.0,0.0,0,0,0.0,0,0.0,-1,0.0,0.0,0.0,0,0.0,6.3007
378063,0,,,,,,,,-0.01,-0.0,-2.25,0,3,1,0.01,,87,5117,10,39,61,0.794,0.0,416,4.95,13.1,0.0,1,34.0,2.73,6.4,0,0,1,1,0,0,250,250,0,,,,,,,,,,,,,,,,
378083,0,,,,,,,,0.05,0.03,-2.06,-0,-3,-6,0.06,,87,5136,10,39,60,0.795,0.0,430,4.92,13.0,0.0,1,33.7,2.72,6.4,0,0,1,1,0,0,250,250,0,,,,,,,,,,,,,,,,
378103,0,,,,,,,,0.03,-0.05,-2.22,0,2,-1,0.05,,87,5141,10,39,60,0.794,0.0,428,4.98,13.1,0.0,1,33.7,2.71,6.4,0,0,1,1,0,0,250,250,0,,,,,,,,,,,,,,,,
378123,0,,,,,,,,0.0,-0.04,-2.04,-0,-3,-5,0.04,,87,5128,10,39,61,0.795,0.0,420,4.93,13.0,0.0,1,34.0,2.7,6.4,0,0,1,1,0,0,250,250,0,,,,,,,,,,,,,,,,
378143,0,8,6,37,38,34,33,4,0.05,-0.13,-2.2,-0,-1,-4,0.14,0,87,5107,10,39,60,0.794,0.0,421,4.97,13.1,0.0,1,33.6,2.74,6.4,0,0,1,1,0,0,250,250,0,0.0,0.0,0.0,0.0,0,0,0.0,0,0.0,-1,0.0,,0.0,0,0.0,6.3024
378163,0,,,,,,,,-0.01,-0.08,-2.33,-0,2,-1,0.08,,87,5104,10,39,61,0.794,0.0,425,4.92,13.0,0.0,1,34.0,2.72,6.4,0,0,1,1,0,0,250,250,0,,,,,,,,,,,,,,,,
378183,0,,,,,,,,0.03,-0.04,-2.13,-0,-4,-6,0.05,,87,5040,10,39,61,0.795,0.0,414,4.91,12.9,0.0,1,34.0,1.68,6.4,0,0,1,1,0,0,250,250,0,,,,,,,,,,,,,,,,
378203,0,,,,,,,,0.04,-0.12,-2.29,-0,1,-2,0.13,,87,5033,10,39,61,0.795,0.0,414,4.98,13.1,0.0,1,34.0,2.78,6.4,0,0,1,1,0,0,250,250,0,,,,,,,,,,,,,,,,
378223,0,,,,,,,,-0.01,-0.05,-2.09,0,1,-1,0.05,,87,4989,10,39,61,0.795,0.0,417,4.97,13.0,0.0,1,33.8,1.69,6.4,0,0,1,1,0,0,250,250,0,,,,,,,,,,,,,,,,
378243,0,7,6,37,38,34,33,4,-0.0,-0.0,-1.92,0,-2,-4,0.0,0,87,4989,10,39,61,0.796,0.0,416,4.92,12.9,0.0,1,33.8,2.77,6.4,0,0,1,1,0,0,250,250,0,0.0,0.0,0.0,0.0,0,0,0.0,0,0.0,-1,0.0,0.0,0.0,0,0.0,6.304
378263,0,,,,,,,,0.03,-0.09,-2.09,0,0,-1,0.1,,87,4969,10,39,61,0.796,0.0,413,4.98,13.1,0.0,1,33.5,2.76,6.4,0,0,1,1,0,0,250,250,0,,,,,,,,,,,,,,,,
378283,0,,,,,,,,-0.01,-0.06,-2.2,0,2,0,0.07,,87,4936,10,39,61,0.797,0.0,410,4.93,13.1,0.0,1,33.1,1.67,6.4,0,0,1,1,0,0,250,250,0,,,,,,,,,,,,,,,,
378303,0,,,,,,,,-0.03,-0.03,-2.01,0,-1,-3,0.04,,87,4922,10,39,61,0.798,0.0,403,4.91,12.8,0.0,1,32.8,1.66,6.4,0,0,1,1,0,0,250,250,0,,,,,,,,,,,,,,,,
378323,0,,,,,,,,0.03,-0.04,-2.14,0,-2,-3,0.05,,87,4886,10,39,61,0.798,0.0,407,4.97,13.0,0.0,1,32.5,2.73,6.4,0,0,1,1,0,0,250,250,0,,,,,,,,,,,,,,,,
378343,0,9,4,37,38,34,33,5,0.03,-0.09,-2.3,0,0,-0,0.09,0,87,4876,10,39,61,0.799,0.0,410,4.99,13.1,0.0,1,32.3,2.73,6.4,0,0,1,1,0,0,250,250,0,0.0,0.0,0.0,0.0,0,0,0.0,0,0.0,-1,0.0,,0.0,0,0.0,6.3057
378363,0,,,,,,,,-0.01,-0.04,-2.28,0,1,0,0.04,,87,4846,10,39,61,0.799,0.0,398,4.86,13.0,0.0,1,31.9,2.72,6.1,0,0,1,1,0,0,250,250,0,,,,,,,,,,,,,,,,
378383,0,,,,,,,,-0.04,-0.02,-2.09,0,-0,-2,0.05,,87,4802,10,39,61,0.8,0.0,409,4.91,12.9,0.0,1,31.3,1.62,6.1,0,0,1,1,0,0,250,250,0,,,,,,,,,,,,,,,,
378403,0,,,,,,,,-0.03,-0.01,-1.91,0,-2,-3,0.03,,87,4761,10,39,61,0.801,0.0,399,4.97,13.0,0.0,1,30.8,2.69,6.1,0,0,1,1,0,0,250,250,0,,,,,,,,,,,,,,,,
378423,0,,,,,,,,0.02,0.0,-1.99,0,-3,-4,0.02,,87,4685,10,39,61,0.801,0.0,390,4.98,12.9,0.0,1,29.8,1.58,6.1,0,0,1,1,0,0,250,250,0,,,,,,,,,,,,,,,,
378443,0,9,4,37,38,34,33,5,0.05,-0.07,-2.16,0,-2,-3,0.08,0,87,4737,10,39,61,0.802,0.0,391,4.93,13.0,0.0,1,30.5,2.68,6.1,0,0,1,1,0,0,250,250,0,0.0,0.0,0.0,0.0,0,0,0.0,0,0.0,-1,0.0,0.0,0.0,0,0.0,6.3074
378463,0,,,,,,,,0.03,-0.04,-2.31,0,-1,-1,0.05,,87,4672,10,39,61,0.802,0.0,382,4.91,13.1,0.0,1,29.7,1.57,5.7,0,0,1,1,0,0,250,250,0,,,,,,,,,,,,,,,,
378483,0,,,,,,,,0.01,-0.03,-2.45,0,1,1,0.03,,87,4701,10,39,61,0.803,0.0,388,4.93,13.1,0.0,1,30.0,2.66,5.7,0,0,1,1,0,0,250,250,0,,,,,,,,,,,,,,,,
378503,0,,,,,,,,-0.04,0.02,-2.29,0,1,1,0.04,,87,4764,10,39,60,0.803,0.0,389,4.98,13.0,0.0,1,30.6,1.62,5.7,0,0,1,1,0,0,250,250,0,,,,,,,,,,,,,,,,
378523,0,,,,,,,,-0.06,0.06,-2.1,0,-0,-1,0.08,,87,4716,10,39,60,0.804,0.0,387,4.95,12.9,0.0,1,29.9,1.59,5.7,0,0,1,1,0,0,250,250,0,,,,,,,,,,,,,,,,
378543,0,8,6,37,38,34,33,3,-0.03,0.05,-2.06,0,-2,-2,0.06,0,87,4839,10,39,60,0.805,0.0,396,4.95,13.0,0.0,1,31.5,1.65,5.7,0,0,1,1,0,0,250,250,0,0.0,0.0,0.0,0.0,0,0,0.0,0,0.0,-1,0.0,,0.0,0,0.0,6.3091
378563,0,,,,,,,,0.03,-0.02,-2.22,0,-1,-1,0.03,,87,4802,10,39,60,0.806,0.0,393,4.91,13.1,0.0,1,31.1,1.63,6.0,0,0,1,1,0,0,250,250,0,,,,,,,,,,,,,,,,
378583,0,,,,,,,,0.02,-0.04,-2.36,0,1,2,0.04,,87,4785,10,39,60,0.808,0.0,392,4.96,13.1,0.0,1,30.8,1.63,6.0,0,0,1,1,0,0,250,250,0,,,,,,,,,,,,,,,,
378603,0,,,,,,,,-0.02,0.0,-2.43,1,2,2,0.02,,87,4762,10,39,60,0.809,0.0,396,4.93,13.0,0.0,1,30.5,2.7,6.0,0,0,1,1,0,0,250,250,0,,,,,,,,,,,,,,,,
378623,0,,,,,,,,-0.05,0.04,-2.23,1,1,0,0.07,,87,4725,10,39,60,0.809,0.0,385,4.9,13.0,0.0,1,30.0,1.6,6.0,0,0,1,1,0,0,250,250,0,,,,,,,,,,,,,,,,
378643,0,8,6,37,38,34,33,4,-0.02,0.04,-2.21,0,-0,-1,0.05,0,87,4703,10,39,60,0.809,0.0,394,4.96,12.9,0.0,1,29.8,2.66,6.0,0,0,1,1,0,0,250,250,0,0.0,0.0,0.0,0.0,0,0,0.0,0,0.0,-1,0.0,0.0,0.0,0,0.0,6.3107
378663,0,,,,,,,,0.0,0.05,-2.11,0,-2,-2,0.05,,87,4703,10,39,60,0.809,0.0,393,4.98,12.8,0.0,1,29.8,2.66,5.7,0,0,1,1,0,0,250,250,0,,,,,,,,,,,,,,,,
378683,0,,,,,,,,0.04,0.0,-2.22,0,-3,-2,0.04,,87,4667,9,39,59,0.809,0.0,384,4.97,13.0,0.0,1,29.0,2.64,5.7,0,0,1,1,0,0,250,250,0,,,,,,,,,,,,,,,,
378703,0,,,,,,,,0.04,-0.02,-2.37,0,-1,-1,0.04,,87,4700,9,39,60,0.806,0.0,386,4.95,13.1,0.0,1,29.7,2.66,5.7,0,0,1,1,0,0,250,250,0,,,,,,,,,,,,,,,,
378723,0,,,,,,,,0.0,-0.0,-2.51,0,0,1,0.0,,87,4688,10,39,60,0.804,0.0,386,4.95,13.1,0.0,1,29.6,1.57,5.7,0,0,1,1,0,0,250,250,0,,,,,,,,,,,,,,,,
378743,0,8,6,37,38,34,33,4,-0.03,0.04,-2.34,1,2,2,0.05,0,87,4700,10,39,60,0.8,0.0,384,4.92,13.1,0.0,1,29.7,2.66,5.7,0,0,1,1,0,0,250,250,0,0.0,0.0,0.0,0.0,0,0,0.0,0,0.0,-1,0.0,,0.0,0,0.0,6.3124
378763,0,,,,,,,,-0.06,0.07,-2.15,1,1,1,0.09,,87,4746,10,39,60,0.797,0.0,400,4.9,13.0,0.0,1,30.7,2.69,5.9,0,0,1,1,0,0,250,250,0,,,,,,,,,,,,,,,,
378783,0,,,,,,,,-0.02,0.06,-2.02,0,-1,-1,0.06,,87,4736,10,39,60,0.797,0.0,392,4.92,12.9,0.0,1,30.2,2.68,5.9,0,0,1,1,0,0,250,250,0,,,,,,,,,,,,,,,,
378803,0,,,,,,,,0.04,0.01,-2.18,0,-2,-2,0.04,,87,4789,9,39,59,0.795,0.0,398,4.96,12.8,0.0,1,30.6,1.63,5.9,0,0,1,1,0,0,250,250,0,,,,,,,,,,,,,,,,
378823,0,,,,,,,,0.03,-0.01,-2.33,0,-1,-1,0.03,,87,4768,10,39,60,0.792,0.0,394,4.93,13.1,0.0,1,30.6,2.7,5.9,0,0,1,1,0,0,250,250,0,,,,,,,,,,,,,,,,
378843,0,8,6,37,38,34,33,4,-0.01,0.02,-2.39,0,1,1,0.02,0,87,4764,10,39,60,0.79,0.0,389,4.88,13.1,0.0,1,30.6,2.7,5.9,0,0,1,1,0,0,250,250,0,0.0,0.0,0.0,0.0,0,0,0.0,0,0.0,-1,0.0,0.0,0.0,0,0.0,6.3141
378863,0,,,,,,,,-0.04,0.03,-2.19,0,2,1,0.05,,87,4785,9,39,60,0.788,0.0,405,4.91,13.1,0.0,1,30.8,1.63,6.0,0,0,1,1,0,0,250,250,0,,,,,,,,,,,,,,,,
378883,0,,,,,,,,-0.04,0.04,-2.01,0,0,-1,0.06,,87,4724,10,39,59,0.786,0.0,398,4.9,12.9,0.0,1,29.7,1.6,6.0,0,0,1,1,0,0,250,250,0,,,,,,,,,,,,,,,,
378903,0,,,,,,,,-0.0,0.04,-2.0,0,-1,-3,0.04,,87,4695,10,39,60,0.786,0.0,396,4.94,12.9,0.0,1,29.7,1.58,6.0,0,0,1,1,0,0,250,250,0,,,,,,,,,,,,,,,,
378923,0,,,,,,,,0.04,-0.03,-2.17,0,-2,-3,0.05,,87,4687,10,39,59,0.784,0.0,391,4.93,13.0,0.0,1,29.2,2.65,6.0,0,0,1,1,0,0,250,250,0,,,,,,,,,,,,,,,,
378943,0,8,6,37,38,34,33,4,0.08,-0.08,-2.32,0,-3,-3,0.11,0,87,4663,9,39,59,0.784,0.0,385,4.93,13.1,0.0,1,28.9,1.56,6.0,0,0,1,1,0,0,250,250,0,0.0,0.0,0.0,0.0,0,0,0.0,0,0.0,-1,0.0,,0.0,0,0.0,6.3157
378963,0,,,,,,,,0.07,-0.11,-2.46,0,-2,-2,0.13,,87,4671,10,39,59,0.785,0.0,384,4.95,13.1,0.0,1,29.0,1.56,5.6,0,0,1,1,0,0,250,250,0,,,,,,,,,,,,,,,,
378983,0,,,,,,,,0.04,-0.1,-2.59,0,0,0,0.11,,87,4722,9,39,59,0.787,0.0,381,4.97,13.1,0.0,1,29.7,2.67,5.6,0,0,1,1,0,0,250,250,0,,,,,,,,,,,,,,,,
379003,0,,,,,,,,0.01,-0.05,-2.59,0,2,2,0.05,,87,4657,9,39,59,0.789,0.0,384,4.92,13.1,0.0,1,28.9,1.56,5.6,0,0,1,1,0,0,250,250,0,,,,,,,,,,,,,,,,
379023,0,,,,,,,,-0.03,-0.02,-2.37,0,2,1,0.04,,87,4744,9,39,59,0.791,0.0,388,4.96,13.0,0.0,1,30.0,2.69,5.6,0,0,1,1,0,0,250,250,0,,,,,,,,,,,,,,,,
379043,0,8,6,37,38,34,33,4,-0.01,-0.01,-2.2,0,0,-1,0.01,0,87,4761,9,39,59,0.791,0.0,396,4.91,13.0,0.0,1,30.2,2.7,5.6,0,0,1,1,0,0,250,250,0,0.0,0.0,0.0,0.0,0,0,0.0,0,0.0,-1,0.0,0.0,0.0,0,0.0,6.3174
379063,0,,,,,,,,0.05,-0.04,-2.35,0,-2,-2,0.06,,87,4781,9,39,59,0.792,0.0,395,4.93,12.9,0.0,1,30.5,2.7,5.9,0,0,1,1,0,0,250,250,0,,,,,,,,,,,,,,,,
379083,0,,,,,,,,0.05,-0.08,-2.49,0,-1,-0,0.09,,87,4826,9,39,59,0.792,0.0,394,4.97,13.1,0.0,1,31.1,2.73,5.9,0,0,1,1,0,0,250,250,0,,,,,,,,,,,,,,,,
379103,0,,,,,,,,-0.01,-0.05,-2.56,1,2,2,0.05,,87,4781,9,39,60,0.793,0.0,389,4.95,13.1,0.0,1,30.8,2.7,5.9,0,0,1,1,0,0,250,250,0,,,,,,,,,,,,,,,,
379123,0,,,,,,,,-0.04,-0.03,-2.35,0,1,1,0.05,,87,4815,9,39,60,0.794,0.0,398,4.92,13.0,0.0,1,31.2,1.64,5.9,0,0,1,1,0,0,250,250,0,,,,,,,,,,,,,,,,
379143,0,7,6,37,38,34,33,4,-0.04,-0.01,-2.15,0,0,-1,0.04,0,87,4709,9,39,59,0.795,0.0,403,4.93,12.9,0.0,1,29.5,2.67,5.9,0,0,1,1,0,0,250,250,0,0.0,0.0,0.0,0.0,0,0,0.0,0,0.0,-1,0.0,,0.0,0,0.0,6.319
379163,0,,,,,,,,0.01,-0.02,-2.21,0,-2,-2,0.03,,87,4705,9,39,59,0.796,0.0,392,4.97,12.9,0.0,1,29.5,2.66,5.7,0,0,1,1,0,0,250,250,0,,,,,,,,,,,,,,,,
379183,0,,,,,,,,0.05,-0.05,-2.36,0,-2,-2,0.07,,87,4748,9,39,59,0.797,0.0,394,4.92,13.1,0.0,1,30.0,2.69,5.7,0,0,1,1,0,0,250,250,0,,,,,,,,,,,,,,,,
379203,0,,,,,,,,0.05,-0.08,-2.49,0,-2,-2,0.09,,87,4733,9,39,59,0.795,0.0,385,4.94,13.1,0.0,1,29.9,2.68,5.7,0,0,1,1,0,0,250,250,0,,,,,,,,,,,,,,,,
379223,0,,,,,,,,0.0,-0.04,-2.44,0,0,1,0.04,,87,4788,9,39,59,0.794,0.0,393,4.95,13.1,0.0,1,30.6,2.71,5.7,0,0,1,1,0,0,250,250,0,,,,,,,,,,,,,,,,
379243,0,8,6,37,38,34,33,4,-0.04,-0.0,-2.24,0,1,0,0.04,0,87,4770,9,39,59,0.792,0.0,401,4.9,13.0,0.0,1,30.3,2.7,5.7,0,0,1,1,0,0,250,250,0,0.0,0.0,0.0,0.0,0,0,0.0,0,0.0,-1,0.0,0.0,0.0,0,0.0,6.3207
379263,0,,,,,,,,-0.02,0.01,-2.05,0,-2,-2,0.02,,87,4791,10,39,59,0.791,0.0,396,4.92,12.9,0.0,1,30.6,2.71,6.0,0,0,1,1,0,0,250,250,0,,,,,,,,,,,,,,,,
379283,0,,,,,,,,0.04,-0.03,-2.21,0,-3,-3,0.05,,87,4774,9,39,59,0.791,0.0,403,4.95,12.8,0.0,1,30.4,2.7,6.0,0,0,1,1,0,0,250,250,0,,,,,,,,,,,,,,,,
379303,0,,,,,,,,0.05,-0.08,-2.36,0,-2,-2,0.09,,87,4822,9,39,59,0.791,0.0,393,4.97,13.0,0.0,1,31.0,1.65,6.0,0,0,1,1,0,0,250,250,0,,,,,,,,,,,,,,,,
379323,0,,,,,,,,-0.0,-0.03,-2.37,0,0,1,0.03,,87,4851,9,39,59,0.79,0.0,393,4.93,13.1,0.0,1,31.4,2.74,6.0,0,0,1,1,0,0,250,250,0,,,,,,,,,,,,,,,,
379343,0,9,5,37,38,34,33,5,-0.04,0.01,-2.18,0,0,-0,0.04,0,87,4822,9,39,59,0.789,0.0,402,4.93,13.0,0.0,1,31.0,1.65,6.0,0,0,1,1,0,0,250,250,0,0.0,0.0,0.0,0.0,0,0,0.0,0,0.0,-1,0.0,,0.0,0,0.0,6.3224
379363,0,,,,,,,,-0.01,0.03,-1.99,0,-2,-2,0.03,,87,4784,9,39,59,0.79,0.0,395,4.91,12.8,0.0,1,30.5,1.63,6.0,0,0,1,1,0,0,250,250,0,,,,,,,,,,,,,,,,
379383,0,,,,,,,,0.04,-0.03,-2.16,0,-3,-3,0.05,,87,4799,9,39,59,0.79,0.0,397,4.97,13.0,0.0,1,30.7,2.71,6.0,0,0,1,1,0,0,250,250,0,,,,,,,,,,,,,,,,
379403,0,,,,,,,,0.05,-0.07,-2.31,0,-2,-2,0.09,,87,4785,9,39,59,0.79,0.0,401,4.97,13.1,0.0,1,30.5,2.71,6.0,0,0,1,1,0,0,250,250,0,,,,,,,,,,,,,,,,
379423,0,,,,,,,,0.01,-0.0,-2.45,0,-0,0,0.01,,87,4754,9,39,60,0.791,0.0,388,4.94,13.1,0.0,1,30.4,1.61,6.0,0,0,1,1,0,0,250,250,0,,,,,,,,,,,,,,,,
379443,0,8,6,37,38,34,33,4,-0.04,0.03,-2.25,0,1,1,0.05,0,87,4767,9,39,59,0.792,0.0,393,4.91,13.1,0.0,1,30.3,2.7,6.0,0,0,1,1,0,0,250,250,0,0.0,0.0,0.0,0.0,0,0,0.0,0,0.0,-1,0.0,0.0,0.0,0,0.0,6.324
379463,0,,,,,,,,-0.05,0.04,-2.06,0,-1,-1,0.06,,87,4770,10,39,59,0.793,0.0,391,4.92,12.9,0.0,1,30.3,2.7,5.9,0,0,1,1,0,0,250,250,0,,,,,,,,,,,,,,,,
379483,0,,,,,,,,-0.0,0.02,-2.12,0,-2,-3,0.02,,87,4791,9,39,59,0.795,0.0,394,4.91,12.9,0.0,1,30.6,2.71,5.9,0,0,1,1,0,0,250,250,0,,,,,,,,,,,,,,,,
379503,0,,,,,,,,0.03,-0.06,-2.27,0,-3,-2,0.07,,87,4803,9,39,59,0.796,0.0,402,4.96,13.1,0.0,1,30.8,2.71,5.9,0,0,1,1,0,0,250,250,0,,,,,,,,,,,,,,,,
379523,0,,,,,,,,0.02,-0.03,-2.41,0,-1,-0,0.03,,87,4768,9,39,59,0.797,0.0,394,4.98,13.1,0.0,1,30.3,2.7,5.9,0,0,1,1,0,0,250,250,0,,,,,,,,,,,,,,,,
379543,0,9,6,37,38,34,33,4,-0.04,-0.0,-2.27,0,1,1,0.04,0,87,4770,9,39,59,0.799,0.0,391,4.91,13.1,0.0,1,30.3,2.7,5.9,0,0,1,1,0,0,250,250,0,0.0,0.0,0.0,0.0,0,0,0.0,0,0.0,-1,0.0,,0.0,0,0.0,6.3257
379563,0,,,,,,,,-0.07,0.04,-2.08,0,1,-0,0.08,,87,4777,9,39,59,0.799,0.0,395,4.91,12.9,0.0,1,30.4,2.7,5.9,0,0,1,1,0,0,250,250,0,,,,,,,,,,,,,,,,
379583,0,,,,,,,,-0.03,0.06,-1.91,0,-1,-2,0.06,,87,4767,9,39,59,0.8,0.0,391,4.97,12.8,0.0,1,30.3,1.62,5.9,0,0,1,1,0,0,250,250,0,,,,,,,,,,,,,,,,
379603,0,,,,,,,,0.03,-0.03,-2.08,0,-2,-2,0.04,,87,4796,9,39,59,0.8,0.0,402,4.98,13.0,0.0,1,30.7,2.71,5.9,0,0,1,1,0,0,250,250,0,,,,,,,,,,,,,,,,
379623,0,,,,,,,,0.04,-0.05,-2.24,0,-1,-1,0.07,,87,4746,9,39,59,0.799,0.0,398,5.0,13.0,0.0,1,30.0,2.69,5.9,0,0,1,1,0,0,250,250,0,,,,,,,,,,,,,,,,
379643,0,8,6,37,38,34,33,4,0.02,-0.04,-2.39,0,1,1,0.05,0,87,4734,9,39,59,0.798,0.0,391,4.92,13.1,0.0,1,29.9,2.68,5.9,0,0,1,1,0,0,250,250,0,0.0,0.0,0.0,0.0,0,0,0.0,0,0.0,-1,0.0,0.0,0.0,0,0.0,6.3274
379663,0,,,,,,,,-0.03,0.02,-2.21,1,3,2,0.04,,87,4725,9,39,59,0.796,0.0,394,4.93,13.0,0.0,1,29.7,2.68,5.8,0,0,1,1,0,0,250,250,0,,,,,,,,,,,,,,,,
379683,0,,,,,,,,-0.05,0.04,-2.02,0,2,1,0.07,,87,4762,9,39,59,0.795,0.0,396,4.92,12.9,0.0,1,30.4,2.7,5.8,0,0,1,1,0,0,250,250,0,,,,,,,,,,,,,,,,
379703,0,,,,,,,,-0.03,0.03,-1.97,0,0,-1,0.05,,87,4737,9,39,59,0.795,0.0,391,4.92,12.9,0.0,1,29.9,1.61,5.8,0,0,1,1,0,0,250,250,0,,,,,,,,,,,,,,,,
379723,0,,,,,,,,0.03,-0.04,-2.14,0,-1,-2,0.05,,87,4770,9,39,59,0.794,0.0,393,4.96,13.0,0.0,1,30.3,2.7,5.8,0,0,1,1,0,0,250,250,0,,,,,,,,,,,,,,,,
379743,0,8,6,37,38,34,33,5,0.04,-0.06,-2.29,0,-0,-1,0.08,0,87,4744,9,39,59,0.793,0.0,392,4.91,13.1,0.0,1,30.0,1.61,5.8,0,0,1,1,0,0,250,250,0,0.0,0.0,0.0,0.0,0,0,0.0,0,0.0,-1,0.0,,0.0,0,0.0,6.3291
379763,0,,,,,,,,0.01,-0.06,-2.44,0,2,2,0.06,,87,4721,9,39,59,0.792,0.0,392,4.95,13.1,0.0,1,29.7,1.59,5.8,0,0,1,1,0,0,250,250,0,,,,,,,,,,,,,,,,
379783,0,,,,,,,,-0.03,-0.02,-2.23,0,3,2,0.04,,87,4808,9,39,59,0.791,0.0,400,4.9,13.0,0.0,1,30.8,2.72,5.8,0,0,1,1,0,0,250,250,0,,,,,,,,,,,,,,,,
379803,0,,,,,,,,-0.05,0.03,-2.04,0,2,-0,0.06,,87,4783,9,39,59,0.79,0.0,390,4.91,13.0,0.0,1,30.5,2.7,5.8,0,0,1,1,0,0,250,250,0,,,,,,,,,,,,,,,,
379823,0,,,,,,,,0.0,0.01,-2.12,0,-0,-2,0.01,,87,4794,9,39,59,0.789,0.0,405,4.9,12.9,0.0,1,30.7,1.63,5.8,0,0,1,1,0,0,250,250,0,,,,,,,,,,,,,,,,
379843,0,8,6,37,38,34,33,4,0.03,-0.04,-2.27,0,0,-1,0.05,0,87,4789,9,39,59,0.788,0.0,392,4.95,13.1,0.0,1,30.6,2.71,5.8,0,0,1,1,0,0,250,250,0,0.0,0.0,0.0,0.0,0,0,0.0,0,0.0,-1,0.0,0.0,0.0,0,0.0,6.3307
379863,0,,,,,,,,0.01,-0.05,-2.41,0,2,1,0.06,,87,4768,9,39,59,0.788,0.0,392,4.95,13.1,0.0,1,30.3,2.7,6.0,0,0,1,1,0,0,250,250,0,,,,,,,,,,,,,,,,
379883,0,,,,,,,,-0.03,-0.01,-2.41,1,3,3,0.03,,87,4736,9,39,59,0.788,0.0,392,4.94,13.1,0.0,1,29.9,1.6,6.0,0,0,1,1,0,0,250,250,0,,,,,,,,,,,,,,,,
379903,0,,,,,,,,-0.06,0.01,-2.21,1,3,1,0.06,,87,4768,9,39,59,0.788,0.0,386,4.93,13.1,0.0,1,30.3,2.7,6.0,0,0,1,1,0,0,250,250,0,,,,,,,,,,,,,,,,
379923,0,,,,,,,,-0.04,0.02,-2.03,0,1,-0,0.04,,87,4737,9,39,59,0.788,0.0,395,4.89,13.0,0.0,1,29.9,1.61,6.0,0,0,1,1,0,0,250,250,0,,,,,,,,,,,,,,,,
379943,0,8,6,37,38,34,33,4,0.01,-0.02,-2.19,0,-1,-2,0.02,0,87,4763,9,39,59,0.789,0.0,395,4.95,13.0,0.0,1,30.2,2.7,6.0,0,0,1,1,0,0,250,250,0,0.0,0.0,0.0,0.0,0,0,0.0,0,0.0,-1,0.0,,0.0,0,0.0,6.3324
379963,0,,,,,,,,0.04,-0.06,-2.34,0,-0,-1,0.07,,87,4766,9,39,59,0.789,0.0,392,4.96,13.1,0.0,1,30.3,2.7,6.0,0,0,1,1,0,0,250,250,0,,,,,,,,,,,,,,,,
379983,0,,,,,,,,0.02,-0.05,-2.48,0,1,1,0.06,,87,4701,9,39,59,0.789,0.0,396,4.93,13.1,0.0,1,29.4,2.66,6.0,0,0,1,1,0,0,250,250,0,,,,,,,,,,,,,,,,
380003,0,,,,,,,,-0.01,-0.02,-2.43,1,2,2,0.02,,87,4728,9,39,59,0.789,0.0,385,4.93,13.1,0.0,1,29.8,2.68,6.0,0,0,1,1,0,0,250,250,0,,,,,,,,,,,,,,,,
380023,0,,,,,,,,-0.05,0.02,-2.23,1,3,2,0.05,,87,4708,9,39,59,0.789,0.0,390,4.9,13.0,0.0,1,29.5,1.58,6.0,0,0,1,1,0,0,250,250,0,,,,,,,,,,,,,,,,
380043,0,8,6,37,38,34,33,4,-0.06,0.05,-2.04,1,1,-0,0.08,0,87,4687,9,39,59,0.788,0.0,393,4.92,12.9,0.0,1,29.2,2.65,6.0,0,0,1,1,0,0,250,250,0,0.0,0.0,0.0,0.0,0,0,0.0,0,0.0,-1,0.0,0.0,0.0,0,0.0,6.3341
380063,0,,,,,,,,-0.03,0.04,-2.01,0,-1,-2,0.05,,87,4736,9,39,59,0.788,0.0,389,4.97,12.9,0.0,1,29.9,2.68,5.9,0,0,1,1,0,0,250,250,0,,,,,,,,,,,,,,,,
380083,0,,,,,,,,0.02,-0.0,-2.14,0,-2,-2,0.02,,87,4705,9,39,59,0.788,0.0,392,4.91,13.0,0.0,1,29.5,2.66,5.9,0,0,1,1,0,0,250,250,0,,,,,,,,,,,,,,,,
380103,0,,,,,,,,0.05,-0.05,-2.29,0,-1,-1,0.06,,87,4760,9,39,59,0.789,0.0,388,4.93,13.1,0.0,1,30.2,2.7,5.9,0,0,1,1,0,0,250,250,0,,,,,,,,,,,,,,,,
380123,0,,,,,,,,0.02,-0.04,-2.43,0,1,1,0.04,,87,4751,9,39,59,0.789,0.0,388,4.96,13.1,0.0,1,30.1,2.69,5.9,0,0,1,1,0,0,250,250,0,,,,,,,,,,,,,,,,
380143,0,7,6,37,38,34,33,4,-0.03,-0.0,-2.35,1,2,3,0.03,0,87,4745,9,39,59,0.79,0.0,398,4.92,13.1,0.0,1,30.0,2.69,5.9,0,0,1,1,0,0,250,250,0,0.0,0.0,0.0,0.0,0,0,0.0,0,0.0,-1,0.0,,0.0,0,0.0,6.3357
380163,0,,,,,,,,-0.04,0.05,-2.15,0,1,1,0.06,,87,4808,9,39,59,0.791,0.0,397,4.92,12.9,0.0,1,30.7,2.72,6.0,0,0,1,1,0,0,250,250,0,,,,,,,,,,,,,,,,
380183,0,,,,,,,,-0.02,0.03,-2.09,0,-1,-0,0.03,,87,4752,9,39,59,0.791,0.0,396,4.91,12.9,0.0,1,30.1,2.69,6.0,0,0,1,1,0,0,250,250,0,,,,,,,,,,,,,,,,
380203,0,,,,,,,,0.04,-0.06,-2.25,0,-1,-0,0.07,,87,4810,9,39,58,0.792,0.0,394,5.0,13.0,0.0,1,30.6,2.72,6.0,0,0,1,1,0,0,250,250,0,,,,,,,,,,,,,,,,
380223,0,,,,,,,,0.03,-0.07,-2.39,0,0,1,0.08,,87,4796,9,39,58,0.792,0.0,391,4.98,13.1,0.0,1,30.4,2.72,6.0,0,0,1,1,0,0,250,250,0,,,,,,,,,,,,,,,,
380243,0,8,6,37,38,34,33,4,-0.02,-0.02,-2.39,1,2,3,0.03,0,87,4791,9,39,59,0.793,0.0,392,4.93,13.1,0.0,1,30.6,2.71,6.0,0,0,1,1,0,0,250,250,0,0.0,0.0,0.0,0.0,0,0,0.0,0,0.0,-1,0.0,0.0,0.0,0,0.0,6.3374
380263,0,,,,,,,,-0.05,0.02,-2.19,1,2,2,0.05,,87,4768,9,39,59,0.793,0.0,400,4.93,13.0,0.0,1,30.3,2.7,5.9,0,0,1,1,0,0,250,250,0,,,,,,,,,,,,,,,,
380283,0,,,,,,,,-0.05,0.03,-2.03,0,0,0,0.06,,87,4775,9,39,59,0.794,0.0,392,4.87,13.0,0.0,1,30.4,2.7,5.9,0,0,1,1,0,0,250,250,0,,,,,,,,,,,,,,,,
380303,0,,,,,,,,0.02,-0.02,-2.17,0,-2,-1,0.03,,87,4774,9,39,58,0.794,0.0,403,5.0,13.0,0.0,1,30.1,2.7,5.9,0,0,1,1,0,0,250,250,0,,,,,,,,,,,,,,,,
380323,0,,,,,,,,0.03,-0.06,-2.32,0,-0,1,0.07,,87,4810,9,39,59,0.794,0.0,396,4.9,13.1,0.0,1,30.9,1.64,5.9,0,0,1,1,0,0,250,250,0,,,,,,,,,,,,,,,,
380343,0,8,5,37,38,34,33,5,0.0,-0.04,-2.46,0,2,3,0.04,0,87,4754,9,39,59,0.796,0.0,388,4.93,13.1,0.0,1,30.1,2.69,5.9,0,0,1,1,0,0,250,250,0,0.0,0.0,0.0,0.0,0,0,0.0,0,0.0,-1,0.0,,0.0,0,0.0,6.339
380363,0,,,,,,,,-0.04,-0.01,-2.26,1,3,3,0.04,,87,4772,9,39,59,0.796,0.0,392,4.91,13.0,0.0,1,30.4,2.7,5.9,0,0,1,1,0,0,250,250,0,,,,,,,,,,,,,,,,
380383,0,,,,,,,,-0.06,0.01,-2.07,0,1,1,0.06,,87,4789,9,39,59,0.797,0.0,387,4.92,13.0,0.0,1,30.6,2.71,5.9,0,0,1,1,0,0,250,250,0,,,,,,,,,,,,,,,,
380403,0,,,,,,,,-0.0,0.01,-2.1,0,-1,-1,0.01,,87,4792,9,39,59,0.798,0.0,404,4.93,12.9,0.0,1,30.6,2.71,5.9,0,0,1,1,0,0,250,250,0,,,,,,,,,,,,,,,,
380423,0,,,,,,,,0.03,-0.03,-2.26,0,-0,0,0.04,,87,4780,9,39,59,0.799,0.0,403,4.93,13.1,0.0,1,30.5,2.71,5.9,0,0,1,1,0,0,250,250,0,,,,,,,,,,,,,,,,
380443,0,8,6,37,38,34,33,4,0.01,-0.06,-2.4,0,2,2,0.06,0,87,4752,9,39,59,0.8,0.0,391,4.9,13.1,0.0,1,30.1,2.69,5.9,0,0,1,1,0,0,250,250,0,0.0,0.0,0.0,0.0,0,0,0.0,0,0.0,-1,0.0,0.0,0.0,0,0.0,6.3407
380463,0,,,,,,,,-0.03,-0.02,-2.24,1,3,3,0.04,,87,4807,9,39,59,0.801,0.0,397,4.93,13.1,0.0,1,30.8,1.64,6.0,0,0,1,1,0,0,250,250,0,,,,,,,,,,,,,,,,
380483,0,,,,,,,,-0.06,0.01,-2.05,0,1,1,0.06,,87,4800,9,39,59,0.802,0.0,393,4.88,12.9,0.0,1,30.8,2.71,6.0,0,0,1,1,0,0,250,250,0,,,,,,,,,,,,,,,,
380503,0,,,,,,,,-0.01,0.01,-2.08,0,-1,-1,0.01,,87,4810,9,39,59,0.802,0.0,401,4.9,12.8,0.0,1,30.9,2.72,6.0,0,0,1,1,0,0,250,250,0,,,,,,,,,,,,,,,,
380523,0,,,,,,,,0.03,-0.03,-2.24,0,-0,-0,0.04,,87,4785,9,39,59,0.803,0.0,406,4.96,13.1,0.0,1,30.5,2.71,6.0,0,0,1,1,0,0,250,250,0,,,,,,,,,,,,,,,,
380543,0,8,6,37,38,34,33,4,0.0,-0.03,-2.39,1,2,2,0.03,0,87,4825,9,39,59,0.803,0.0,397,4.95,13.1,0.0,1,31.1,2.73,6.0,0,0,1,1,0,0,250,250,0,0.0,0.0,0.0,0.0,0,0,0.0,0,0.0,-1,0.0,,0.0,0,0.0,6.3424
380563,0,,,,,,,,-0.04,0.01,-2.21,1,3,3,0.05,,87,4790,9,39,59,0.804,0.0,398,4.92,13.0,0.0,1,30.6,1.63,6.0,0,0,1,1,0,0,250,250,0,,,,,,,,,,,,,,,,
380583,0,,,,,,,,-0.07,0.05,-2.02,1,2,1,0.09,,87,4773,9,39,59,0.804,0.0,399,4.9,12.9,0.0,1,30.4,2.7,6.0,0,0,1,1,0,0,250,250,0,,,,,,,,,,,,,,,,
380603,0,,,,,,,,-0.04,0.04,-1.93,0,-0,-1,0.05,,87,4754,9,39,59,0.803,0.0,393,4.89,12.9,0.0,1,30.1,2.69,6.0,0,0,1,1,0,0,250,250,0,,,,,,,,,,,,,,,,
380623,0,,,,,,,,0.02,-0.0,-2.1,0,-1,-1,0.02,,87,4779,9,39,59,0.803,0.0,396,4.96,13.1,0.0,1,30.5,2.7,6.0,0,0,1,1,0,0,250,250,0,,,,,,,,,,,,,,,,
380643,0,8,4,37,38,34,33,4,0.02,-0.05,-2.26,0,0,0,0.05,0,87,4755,9,39,59,0.802,0.0,391,4.92,13.1,0.0,1,30.1,2.69,6.0,0,0,1,1,0,0,250,250,0,0.0,0.0,0.0,0.0,0,0,0.0,0,0.0,-1,0.0,0.0,0.0,0,0.0,6.344
380663,0,,,,,,,,-0.02,-0.01,-2.4,1,2,3,0.02,,87,4742,9,39,59,0.801,0.0,388,4.92,13.1,0.0,1,30.0,2.69,5.8,0,0,1,1,0,0,250,250,0,,,,,,,,,,,,,,,,
380683,0,,,,,,,,-0.06,0.0,-2.2,1,2,2,0.06,,87,4800,9,39,59,0.8,0.0,393,4.95,13.0,0.0,1,30.7,1.63,5.8,0,0,1,1,0,0,250,250,0,,,,,,,,,,,,,,,,
380703,0,,,,,,,,-0.07,0.04,-2.02,1,1,-0,0.08,,87,4742,9,39,59,0.799,0.0,396,4.95,12.9,0.0,1,30.0,2.69,5.8,0,0,1,1,0,0,250,250,0,,,,,,,,,,,,,,,,
380723,0,,,,,,,,-0.01,0.0,-2.18,0,-1,-2,0.01,,87,4834,9,39,59,0.798,0.0,397,4.96,13.0,0.0,1,31.2,1.65,5.8,0,0,1,1,0,0,250,250,0,,,,,,,,,,,,,,,,
380743,0,8,6,37,38,34,33,4,0.02,-0.05,-2.33,0,-0,-1,0.06,0,87,4778,9,39,59,0.797,0.0,396,4.92,13.1,0.0,1,30.4,2.7,5.8,0,0,1,1,0,0,250,250,0,0.0,0.0,0.0,0.0,0,0,0.0,0,0.0,-1,0.0,,0.0,0,0.0,6.3457
380763,0,,,,,,,,-0.0,-0.05,-2.47,0,1,1,0.05,,87,4756,9,39,59,0.797,0.0,385,4.93,13.1,0.0,1,30.2,2.69,5.9,0,0,1,1,0,0,250,250,0,,,,,,,,,,,,,,,,
380783,0,,,,,,,,-0.05,-0.04,-2.34,0,2,2,0.06,,87,4789,9,39,59,0.796,0.0,393,4.93,13.1,0.0,1,30.6,2.71,5.9,0,0,1,1,0,0,250,250,0,,,,,,,,,,,,,,,,
380803,0,,,,,,,,-0.07,0.01,-2.14,0,1,-0,0.07,,87,4749,9,39,59,0.796,0.0,394,4.91,13.0,0.0,1,30.1,1.61,5.9,0,0,1,1,0,0,250,250,0,,,,,,,,,,,,,,,,
380823,0,,,,,,,,-0.04,0.02,-2.02,0,-2,-2,0.04,,87,4801,9,39,59,0.795,0.0,390,4.91,12.9,0.0,1,30.7,2.71,5.9,0,0,1,1,0,0,250,250,0,,,,,,,,,,,,,,,,
380843,0,8,6,37,38,34,33,4,0.02,-0.03,-2.18,0,-2,-2,0.04,0,87,4808,9,39,59,0.794,0.0,402,4.94,13.0,0.0,1,30.8,2.72,5.9,0,0,1,1,0,0,250,250,0,0.0,0.0,0.0,0.0,0,0,0.0,0,0.0,-1,0.0,0.0,0.0,0,0.0,6.3474
380863,0,,,,,,,,0.01,-0.04,-2.33,0,-0,-0,0.04,,87,4788,9,39,59,0.793,0.0,391,4.92,13.1,0.0,1,30.6,2.71,6.0,0,0,1,1,0,0,250,250,0,,,,,,,,,,,,,,,,
380883,0,,,,,,,,-0.03,-0.01,-2.38,0,1,1,0.03,,87,4761,9,39,59,0.792,0.0,391,4.92,13.1,0.0,1,30.2,2.7,6.0,0,0,1,1,0,0,250,250,0,,,,,,,,,,,,,,,,
380903,0,,,,,,,,-0.06,0.03,-2.18,0,1,-0,0.07,,87,4779,9,39,59,0.791,0.0,400,4.93,13.0,0.0,1,30.5,1.62,6.0,0,0,1,1,0,0,250,250,0,,,,,,,,,,,,,,,,
380923,0,,,,,,,,-0.04,0.02,-2.06,0,-1,-2,0.05,,87,4795,9,39,59,0.791,0.0,400,4.92,12.9,0.0,1,30.7,2.71,6.0,0,0,1,1,0,0,250,250,0,,,,,,,,,,,,,,,,
380943,0,8,4,37,38,34,33,5,0.02,-0.02,-2.22,0,-2,-2,0.03,0,87,4748,9,39,59,0.79,0.0,401,4.95,13.0,0.0,1,30.0,2.69,6.0,0,0,1,1,0,0,250,250,0,0.0,0.0,0.0,0.0,0,0,0.0,0,0.0,-1,0.0,,0.0,0,0.0,6.3491
380963,0,,,,,,,,0.04,-0.04,-2.37,0,-1,-1,0.06,,87,4794,9,39,59,0.79,0.0,397,4.93,13.1,0.0,1,30.7,2.71,6.0,0,0,1,1,0,0,250,250,0,,,,,,,,,,,,,,,,
380983,0,,,,,,,,0.01,-0.01,-2.5,1,1,1,0.02,,87,4755,9,39,59,0.79,0.0,390,4.92,13.1,0.0,1,30.1,2.69,6.0,0,0,1,1,0,0,250,250,0,,,,,,,,,,,,,,,,
381003,0,,,,,,,,-0.05,0.0,-2.29,1,2,1,0.05,,87,4756,9,39,59,0.789,0.0,398,4.92,13.1,0.0,1,30.2,2.69,6.0,0,0,1,1,0,0,250,250,0,,,,,,,,,,,,,,,,
381023,0,,,,,,,,-0.06,0.02,-2.1,0,-0,-1,0.07,,87,4796,9,39,59,0.789,0.0,396,4.91,12.9,0.0,1,30.7,2.71,6.0,0,0,1,1,0,0,250,250,0,,,,,,,,,,,,,,,,
381043,0,7,6,37,38,34,33,4,-0.0,0.02,-2.2,0,-2,-2,0.02,0,87,4800,9,39,59,0.789,0.0,403,4.95,12.8,0.0,1,30.7,2.71,6.0,0,0,1,1,0,0,250,250,0,0.0,0.0,0.0,0.0,0,0,0.0,0,0.0,-1,0.0,0.0,0.0,0,0.0,6.3507
381063,0,,,,,,,,0.04,-0.04,-2.35,0,-1,-2,0.06,,87,4778,9,39,58,0.789,0.0,403,5.0,13.1,0.0,1,30.1,2.7,5.9,0,0,1,1,0,0,250,250,0,,,,,,,,,,,,,,,,
381083,0,,,,,,,,0.01,-0.03,-2.49,0,1,0,0.03,,87,4775,9,39,59,0.79,0.0,387,4.92,13.1,0.0,1,30.4,2.7,5.9,0,0,1,1,0,0,250,250,0,,,,,,,,,,,,,,,,
381103,0,,,,,,,,-0.04,-0.02,-2.28,0,2,1,0.05,,87,4803,9,39,59,0.79,0.0,394,4.92,13.1,0.0,1,30.8,2.71,5.9,0,0,1,1,0,0,250,250,0,,,,,,,,,,,,,,,,
381123,0,,,,,,,,-0.06,0.02,-2.09,0,-0,-2,0.06,,87,4797,9,39,59,0.79,0.0,400,4.91,12.9,0.0,1,30.7,2.72,5.9,0,0,1,1,0,0,250,250,0,,,,,,,,,,,,,,,,
381143,0,6,6,37,38,34,33,4,-0.0,0.01,-2.12,0,-2,-3,0.02,0,87,4785,9,39,59,0.791,0.0,394,4.96,13.0,0.0,1,30.5,1.63,5.9,0,0,1,1,0,0,250,250,0,0.0,0.0,0.0,0.0,0,0,0.0,0,0.0,-1,0.0,,0.0,0,0.0,6.3524
381163,0,,,,,,,,0.04,-0.06,-2.28,0,-1,-2,0.07,,87,4794,9,39,59,0.791,0.0,410,4.92,13.1,0.0,1,30.7,1.63,6.0,0,0,1,1,0,0,250,250,0,,,,,,,,,,,,,,,,
381183,0,,,,,,,,0.02,-0.05,-2.42,0,1,0,0.05,,87,4774,9,39,59,0.792,0.0,389,4.92,13.1,0.0,1,30.4,2.7,6.0,0,0,1,1,0,0,250,250,0,,,,,,,,,,,,,,,,
381203,0,,,,,,,,-0.03,-0.01,-2.35,0,2,1,0.03,,87,4769,9,39,59,0.792,0.0,391,4.92,13.1,0.0,1,30.3,2.7,6.0,0,0,1,1,0,0,250,250,0,,,,,,,,,,,,,,,,
381223,0,,,,,,,,-0.06,0.04,-2.15,0,1,-1,0.07,,87,4792,9,39,59,0.793,0.0,392,4.93,13.0,0.0,1,30.6,1.63,6.0,0,0,1,1,0,0,250,250,0,,,,,,,,,,,,,,,,
381243,0,8,5,37,38,34,33,4,-0.02,0.05,-2.03,0,-1,-3,0.05,0,87,4746,9,39,59,0.793,0.0,392,4.96,12.9,0.0,1,30.0,2.69,6.0,0,0,1,1,0,0,250,250,0,0.0,0.0,0.0,0.0,0,0,0.0,0,0.0,-1,0.0,0.0,0.0,0,0.0,6.3541
381263,0,,,,,,,,0.02,-0.03,-2.2,0,-2,-3,0.04,,87,4781,9,39,59,0.793,0.0,397,4.99,12.9,0.0,1,30.5,2.7,5.9,0,0,1,1,0,0,250,250,0,,,,,,,,,,,,,,,,
381283,0,,,,,,,,0.04,-0.05,-2.35,0,-0,-1,0.06,,87,4760,9,39,58,0.793,0.0,398,4.96,13.1,0.0,1,29.9,2.7,5.9,0,0,1,1,0,0,250,250,0,,,,,,,,,,,,,,,,
381303,0,,,,,,,,0.0,-0.0,-2.48,0,2,1,0.0,,87,4801,9,39,59,0.793,0.0,392,4.93,13.1,0.0,1,30.7,2.71,5.9,0,0,1,1,0,0,250,250,0,,,,,,,,,,,,,,,,
381323,0,,,,,,,,-0.04,0.05,-2.27,0,1,-0,0.07,,87,4825,9,39,59,0.792,0.0,399,4.94,13.0,0.0,1,31.1,1.65,5.9,0,0,1,1,0,0,250,250,0,,,,,,,,,,,,,,,,
381343,0,8,5,37,38,34,33,5,-0.02,0.06,-2.08,0,-1,-2,0.07,0,87,4772,9,39,59,0.793,0.0,397,4.96,12.8,0.0,1,30.4,2.7,5.9,0,0,1,1,0,0,250,250,0,0.0,0.0,0.0,0.0,0,0,0.0,0,0.0,-1,0.0,,0.0,0,0.0,6.3557
381363,0,,,,,,,,0.02,-0.0,-2.24,0,-2,-2,0.02,,87,4769,9,39,59,0.793,0.0,398,4.99,13.0,0.0,1,30.3,2.7,6.0,0,0,1,1,0,0,250,250,0,,,,,,,,,,,,,,,,
381383,0,,,,,,,,0.07,-0.05,-2.39,0,-1,-1,0.08,,87,4743,9,39,58,0.793,0.0,397,4.97,13.0,0.0,1,29.7,2.69,6.0,0,0,1,1,0,0,250,250,0,,,,,,,,,,,,,,,,
381403,0,,,,,,,,0.03,-0.03,-2.52,0,1,1,0.04,,87,4800,9,39,59,0.793,0.0,392,4.92,13.1,0.0,1,30.7,2.71,6.0,0,0,1,1,0,0,250,250,0,,,,,,,,,,,,,,,,
381423,0,,,,,,,,-0.03,0.02,-2.31,1,2,2,0.03,,87,4815,9,39,59,0.792,0.0,397,4.93,13.1,0.0,1,30.9,2.72,6.0,0,0,1,1,0,0,250,250,0,,,,,,,,,,,,,,,,
381443,0,8,6,37,38,34,33,4,-0.02,0.04,-2.12,0,-0,-1,0.05,0,87,4816,9,39,59,0.792,0.0,405,4.92,13.0,0.0,1,30.8,1.63,6.0,0,0,1,1,0,0,250,250,0,0.0,0.0,0.0,0.0,0,0,0.0,0,0.0,-1,0.0,0.0,0.0,0,0.0,6.3574
381463,0,,,,,,,,0.02,-0.01,-2.27,0,-1,-1,0.03,,87,4831,9,39,58,0.792,0.0,399,5.0,13.0,0.0,1,30.8,2.73,6.1,0,0,1,1,0,0,250,250,0,,,,,,,,,,,,,,,,
381483,0,,,,,,,,0.06,-0.07,-2.42,0,-0,1,0.1,,87,4805,9,39,59,0.792,0.0,397,4.99,13.0,0.0,1,30.8,2.71,6.1,0,0,1,1,0,0,250,250,0,,,,,,,,,,,,,,,,
381503,0,,,,,,,,0.03,-0.05,-2.55,1,2,3,0.06,,87,4790,9,39,59,0.792,0.0,389,4.92,13.1,0.0,1,30.6,2.71,6.1,0,0,1,1,0,0,250,250,0,,,,,,,,,,,,,,,,
381523,0,,,,,,,,-0.02,0.01,-2.33,1,3,3,0.03,,87,4755,9,39,59,0.791,0.0,387,4.96,13.1,0.0,1,30.1,2.69,6.1,0,0,1,1,0,0,250,250,0,,,,,,,,,,,,,,,,
381543,0,8,6,37,38,34,33,4,-0.03,0.03,-2.14,1,1,1,0.05,0,87,4789,9,39,59,0.791,0.0,402,4.92,12.9,0.0,1,30.5,1.62,6.1,0,0,1,1,0,0,250,250,0,0.0,0.0,0.0,0.0,0,0,0.0,0,0.0,-1,0.0,,0.0,0,0.0,6.359
381563,0,,,,,,,,0.01,0.03,-2.14,0,-1,-0,0.03,,87,4779,9,39,59,0.792,0.0,396,4.97,12.9,0.0,1,30.5,2.7,5.9,0,0,1,1,0,0,250,250,0,,,,,,,,,,,,,,,,
381583,0,,,,,,,,0.05,-0.04,-2.29,0,-0,1,0.06,,87,4827,9,39,59,0.791,0.0,394,4.96,13.1,0.0,1,31.1,2.73,5.9,0,0,1,1,0,0,250,250,0,,,,,,,,,,,,,,,,
381603,0,,,,,,,,0.03,-0.04,-2.44,1,2,3,0.05,,87,4802,9,39,59,0.791,0.0,397,4.94,13.1,0.0,1,30.8,2.72,5.9,0,0,1,1,0,0,250,250,0,,,,,,,,,,,,,,,,
381623,0,,,,,,,,-0.02,0.01,-2.23,1,2,3,0.02,,87,4832,9,39,59,0.791,0.0,389,4.91,13.0,0.0,1,31.1,2.73,5.9,0,0,1,1,0,0,250,250,0,,,,,,,,,,,,,,,,
381643,0,8,5,37,38,34,33,4,-0.03,0.04,-2.04,0,-1,-0,0.05,0,87,4805,9,39,59,0.791,0.0,400,4.93,13.0,0.0,1,30.8,2.71,5.9,0,0,1,1,0,0,250,250,0,0.0,0.0,0.0,0.0,0,0,0.0,0,0.0,-1,0.0,0.0,0.0,0,0.0,6.3607
381663,0,,,,,,,,0.01,0.0,-2.21,0,-1,-1,0.01,,87,4818,9,39,59,0.791,0.0,401,4.95,13.0,0.0,1,31.0,2.72,6.0,0,0,1,1,0,0,250,250,0,,,,,,,,,,,,,,,,
381683,0,,,,,,,,0.04,-0.07,-2.35,0,-0,1,0.08,,87,4831,9,39,59,0.791,0.0,401,4.97,13.0,0.0,1,31.1,1.65,6.0,0,0,1,1,0,0,250,250,0,,,,,,,,,,,,,,,,
381703,0,,,,,,,,0.01,-0.05,-2.49,1,2,3,0.05,,87,4827,9,39,59,0.791,0.0,402,4.91,13.1,0.0,1,31.1,2.73,6.0,0,0,1,1,0,0,250,250,0,,,,,,,,,,,,,,,,
381723,0,,,,,,,,-0.05,0.01,-2.28,1,2,2,0.05,,87,4769,9,39,59,0.792,0.0,393,4.92,13.0,0.0,1,30.3,1.62,6.0,0,0,1,1,0,0,250,250,0,,,,,,,,,,,,,,,,
381743,0,8,5,37,38,34,33,5,-0.04,0.03,-2.09,1,-1,-1,0.05,0,87,4811,9,39,59,0.792,0.0,397,4.93,12.8,0.0,1,30.9,2.72,6.0,0,0,1,1,0,0,250,250,0,0.0,0.0,0.0,0.0,0,0,0.0,0,0.0,-1,0.0,,0.0,0,0.0,6.3624
381763,0,,,,,,,,0.01,-0.02,-2.25,0,-1,-1,0.03,,87,4828,9,39,59,0.792,0.0,402,4.97,13.0,0.0,1,31.1,2.73,6.1,0,0,1,1,0,0,250,250,0,,,,,,,,,,,,,,,,
381783,0,,,,,,,,0.04,-0.07,-2.39,0,0,1,0.08,,87,4815,9,39,59,0.792,0.0,397,4.98,13.1,0.0,1,30.9,2.72,6.1,0,0,1,1,0,0,250,250,0,,,,,,,,,,,,,,,,
381803,0,,,,,,,,0.0,-0.05,-2.53,1,2,3,0.05,,87,4791,9,39,59,0.793,0.0,402,4.93,13.1,0.0,1,30.6,2.71,6.1,0,0,1,1,0,0,250,250,0,,,,,,,,,,,,,,,,
381823,0,,,,,,,,-0.05,0.02,-2.32,1,2,2,0.06,,87,4751,9,39,59,0.794,0.0,399,4.9,13.0,0.0,1,30.1,1.61,6.1,0,0,1,1,0,0,250,250,0,,,,,,,,,,,,,,,,
381843,0,8,5,37,38,34,33,4,-0.05,0.03,-2.12,1,-0,-0,0.06,0,87,4832,9,39,59,0.794,0.0,399,4.93,12.9,0.0,1,31.1,2.73,6.1,0,0,1,1,0,0,250,250,0,0.0,0.0,0.0,0.0,0,0,0.0,0,0.0,-1,0.0,0.0,0.0,0,0.0,6.364
381863,0,,,,,,,,0.01,-0.03,-2.28,0,-1,-0,0.03,,87,4823,9,39,59,0.795,0.0,400,4.98,13.1,0.0,1,31.0,2.73,6.0,0,0,1,1,0,0,250,250,0,,,,,,,,,,,,,,,,
381883,0,,,,,,,,0.04,-0.06,-2.42,0,1,2,0.07,,87,4823,9,39,59,0.795,0.0,394,4.99,13.1,0.0,1,31.0,2.73,6.0,0,0,1,1,0,0,250,250,0,,,,,,,,,,,,,,,,
381903,0,,,,,,,,-0.0,-0.05,-2.55,1,3,3,0.05,,87,4783,9,39,59,0.794,0.0,394,4.9,13.1,0.0,1,30.5,2.7,6.0,0,0,1,1,0,0,250,250,0,,,,,,,,,,,,,,,,
381923,0,,,,,,,,-0.05,0.02,-2.34,1,2,1,0.05,,87,4817,9,39,59,0.794,0.0,407,4.91,12.9,0.0,1,31.0,2.72,6.0,0,0,1,1,0,0,250,250,0,,,,,,,,,,,,,,,,
381943,0,7,6,37,38,34,33,5,-0.03,0.03,-2.14,0,-0,-1,0.04,0,87,4791,9,39,59,0.793,0.0,402,4.88,12.9,0.0,1,30.6,2.71,6.0,0,0,1,1,0,0,250,250,0,0.0,0.0,0.0,0.0,0,0,0.0,0,0.0,-1,0.0,,0.0,0,0.0,6.3657
381963,0,,,,,,,,0.01,-0.04,-2.29,0,-1,-1,0.04,,87,4764,9,39,59,0.792,0.0,398,4.94,12.9,0.0,1,30.3,1.62,5.9,0,0,1,1,0,0,250,250,0,,,,,,,,,,,,,,,,
381983,0,,,,,,,,0.06,-0.1,-2.44,0,-0,0,0.12,,87,4727,9,39,59,0.792,0.0,388,4.98,13.1,0.0,1,29.8,2.68,5.9,0,0,1,1,0,0,250,250,0,,,,,,,,,,,,,,,,
382003,0,,,,,,,,0.04,-0.09,-2.57,1,2,2,0.1,,87,4751,9,39,59,0.791,0.0,386,4.95,13.1,0.0,1,30.1,2.69,5.9,0,0,1,1,0,0,250,250,0,,,,,,,,,,,,,,,,
382023,0,,,,,,,,-0.01,-0.05,-2.52,1,3,3,0.05,,87,4744,9,39,59,0.791,0.0,391,4.96,13.1,0.0,1,30.0,1.61,5.9,0,0,1,1,0,0,250,250,0,,,,,,,,,,,,,,,,
382043,0,8,6,37,38,34,33,4,-0.03,-0.02,-2.31,1,2,1,0.03,0,87,4766,9,39,59,0.79,0.0,392,4.93,13.0,0.0,1,30.3,2.7,5.9,0,0,1,1,0,0,250,250,0,0.0,0.0,0.0,0.0,0,0,0.0,0,0.0,-1,0.0,0.0,0.0,0,0.0,6.3674
382063,0,,,,,,,,-0.01,0.01,-2.13,0,0,-1,0.02,,87,4757,9,39,59,0.79,0.0,392,4.96,12.9,0.0,1,30.2,2.7,6.0,0,0,1,1,0,0,250,250,0,,,,,,,,,,,,,,,,
382083,0,,,,,,,,0.04,-0.03,-2.29,0,-1,-0,0.05,,87,4760,9,39,58,0.789,0.0,398,4.97,13.1,0.0,1,29.9,2.7,6.0,0,0,1,1,0,0,250,250,0,,,,,,,,,,,,,,,,
382103,0,,,,,,,,0.06,-0.07,-2.43,0,1,1,0.1,,87,4769,9,39,58,0.788,0.0,395,4.98,13.1,0.0,1,30.0,2.7,6.0,0,0,1,1,0,0,250,250,0,,,,,,,,,,,,,,,,
382123,0,,,,,,,,0.01,-0.05,-2.56,0,3,3,0.06,,87,4817,9,39,59,0.787,0.0,392,4.95,13.1,0.0,1,31.0,2.72,6.0,0,0,1,1,0,0,250,250,0,,,,,,,,,,,,,,,,
382143,0,8,6,37,38,34,33,4,-0.02,0.0,-2.35,0,2,1,0.02,0,87,4816,9,39,59,0.787,0.0,394,4.89,13.0,0.0,1,30.9,1.64,6.0,0,0,1,1,0,0,250,250,0,0.0,0.0,0.0,0.0,0,0,0.0,0,0.0,-1,0.0,,0.0,0,0.0,6.3691
382163,0,,,,,,,,-0.02,0.05,-2.15,0,-0,-1,0.06,,87,4786,9,39,59,0.788,0.0,391,4.88,13.0,0.0,1,30.5,1.63,6.0,0,0,1,1,0,0,250,250,0,,,,,,,,,,,,,,,,
382183,0,,,,,,,,0.04,-0.02,-2.3,0,-1,-1,0.04,,87,4817,9,39,58,0.79,0.0,401,4.97,13.1,0.0,1,30.7,2.73,6.0,0,0,1,1,0,0,250,250,0,,,,,,,,,,,,,,,,
382203,0,,,,,,,,0.05,-0.06,-2.44,0,1,1,0.08,,87,4790,9,39,58,0.79,0.0,404,5.0,13.1,0.0,1,30.3,2.71,6.0,0,0,1,1,0,0,250,250,0,,,,,,,,,,,,,,,,
382223,0,,,,,,,,0.01,-0.04,-2.57,0,3,3,0.04,,87,4789,9,39,59,0.791,0.0,392,4.96,13.1,0.0,1,30.6,2.71,6.0,0,0,1,1,0,0,250,250,0,,,,,,,,,,,,,,,,
382243,0,8,6,37,38,34,33,4,-0.02,0.0,-2.36,0,2,2,0.02,0,87,4796,9,39,59,0.791,0.0,399,4.89,13.0,0.0,1,30.7,1.63,6.0,0,0,1,1,0,0,250,250,0,0.0,0.0,0.0,0.0,0,0,0.0,0,0.0,-1,0.0,0.0,0.0,0,0.0,6.3707
382263,0,,,,,,,,-0.03,0.05,-2.16,0,-0,-0,0.06,,87,4783,9,39,59,0.792,0.0,392,4.9,13.0,0.0,1,30.5,1.62,6.0,0,0,1,1,0,0,250,250,0,,,,,,,,,,,,,,,,
382283,0,,,,,,,,0.02,-0.01,-2.31,0,-1,-0,0.02,,87,4790,9,39,59,0.792,0.0,396,5.0,13.0,0.0,1,30.6,2.71,6.0,0,0,1,1,0,0,250,250,0,,,,,,,,,,,,,,,,
382303,0,,,,,,,,0.06,-0.07,-2.45,0,-0,1,0.09,,87,4768,9,39,58,0.792,0.0,402,5.0,13.0,0.0,1,30.0,1.62,6.0,0,0,1,1,0,0,250,250,0,,,,,,,,,,,,,,,,
382323,0,,,,,,,,0.03,-0.08,-2.58,1,2,4,0.09,,87,4786,9,39,59,0.792,0.0,391,4.95,13.1,0.0,1,30.5,2.71,6.0,0,0,1,1,0,0,250,250,0,,,,,,,,,,,,,,,,
382343,0,7,6,37,38,34,33,5,-0.01,-0.03,-2.42,1,2,3,0.03,0,87,4780,9,39,59,0.792,0.0,393,4.91,13.0,0.0,1,30.5,1.62,6.0,0,0,1,1,0,0,250,250,0,0.0,0.0,0.0,0.0,0,0,0.0,0,0.0,-1,0.0,,0.0,0,0.0,6.3724
382363,0,,,,,,,,-0.04,0.01,-2.22,1,1,1,0.04,,87,4763,9,39,59,0.792,0.0,391,4.9,13.0,0.0,1,30.2,1.62,5.9,0,0,1,1,0,0,250,250,0,,,,,,,,,,,,,,,,
382383,0,,,,,,,,-0.01,-0.01,-2.16,0,-1,-0,0.01,,87,4795,9,39,58,0.793,0.0,396,4.93,12.9,0.0,1,30.4,2.72,5.9,0,0,1,1,0,0,250,250,0,,,,,,,,,,,,,,,,
382403,0,,,,,,,,0.04,-0.03,-2.31,0,-1,0,0.05,,87,4764,9,39,58,0.792,0.0,397,4.96,13.1,0.0,1,30.0,2.7,5.9,0,0,1,1,0,0,250,250,0,,,,,,,,,,,,,,,,
382423,0,,,,,,,,0.03,-0.06,-2.45,0,2,3,0.07,,87,4826,9,39,58,0.792,0.0,393,4.95,13.1,0.0,1,30.8,1.65,5.9,0,0,1,1,0,0,250,250,0,,,,,,,,,,,,,,,,
382443,0,8,7,37,38,34,33,5,-0.01,-0.01,-2.31,1,2,3,0.02,0,87,4834,9,39,59,0.792,0.0,397,4.92,13.0,0.0,1,31.2,2.73,5.9,0,0,1,1,0,0,250,250,0,0.0,0.0,0.0,0.0,0,0,0.0,0,0.0,-1,0.0,0.0,0.0,0,0.0,6.3741
382463,0,,,,,,,,-0.05,0.04,-2.11,1,0,1,0.06,,87,4806,9,39,58,0.792,0.0,406,4.91,12.9,0.0,1,30.5,2.72,6.0,0,0,1,1,0,0,250,250,0,,,,,,,,,,,,,,,,
382483,0,,,,,,,,-0.01,0.0,-2.11,0,-2,-0,0.01,,87,4813,9,39,59,0.792,0.0,398,4.96,12.9,0.0,1,30.9,2.72,6.0,0,0,1,1,0,0,250,250,0,,,,,,,,,,,,,,,,
382503,0,,,,,,,,0.04,-0.04,-2.27,0,-1,1,0.06,,88,4785,9,39,58,0.792,0.0,400,4.96,13.0,0.0,1,30.2,2.71,6.0,0,0,1,1,0,0,250,250,0,,,,,,,,,,,,,,,,
382523,0,,,,,,,,0.02,-0.07,-2.41,0,2,3,0.07,,87,4799,9,39,59,0.792,0.0,393,4.92,13.1,0.0,1,30.7,1.63,6.0,0,0,1,1,0,0,250,250,0,,,,,,,,,,,,,,,,
382543,0,8,6,37,38,34,33,5,-0.02,-0.02,-2.35,1,2,4,0.03,0,87,4781,9,39,59,0.791,0.0,390,4.92,13.0,0.0,1,30.5,2.7,6.0,0,0,1,1,0,0,250,250,0,0.0,0.0,0.0,0.0,0,0,0.0,0,0.0,-1,0.0,,0.0,0,0.0,6.3757
382563,0,,,,,,,,-0.06,0.0,-2.15,1,1,1,0.06,,87,4778,9,39,59,0.791,0.0,396,4.92,13.0,0.0,1,30.4,2.7,5.9,0,0,1,1,0,0,250,250,0,,,,,,,,,,,,,,,,
382583,0,,,,,,,,-0.03,-0.01,-2.02,0,-1,-0,0.03,,87,4801,9,39,59,0.791,0.0,398,4.91,12.9,0.0,1,30.7,2.71,5.9,0,0,1,1,0,0,250,250,0,,,,,,,,,,,,,,,,
382603,0,,,,,,,,0.02,-0.03,-2.18,0,-2,-0,0.03,,87,4766,9,39,58,0.791,0.0,395,4.97,13.1,0.0,1,30.0,2.7,5.9,0,0,1,1,0,0,250,250,0,,,,,,,,,,,,,,,,
382623,0,,,,,,,,0.03,-0.06,-2.33,0,1,2,0.06,,87,4792,9,39,58,0.791,0.0,397,4.94,13.1,0.0,1,30.3,2.72,5.9,0,0,1,1,0,0,250,250,0,,,,,,,,,,,,,,,,
382643,0,9,6,37,38,34,33,4,-0.02,-0.02,-2.42,1,2,3,0.03,0,87,4794,9,39,59,0.791,0.0,391,4.93,13.1,0.0,1,30.7,2.71,5.9,0,0,1,1,0,0,250,250,0,0.0,0.0,0.0,0.0,0,0,0.0,0,0.0,-1,0.0,0.0,0.0,0,0.0,6.3774
382663,0,,,,,,,,-0.06,0.0,-2.21,1,1,1,0.06,,87,4817,9,39,59,0.791,0.0,397,4.96,12.9,0.0,1,31.0,1.64,6.0,0,0,1,1,0,0,250,250,0,,,,,,,,,,,,,,,,
382683,0,,,,,,,,-0.04,0.0,-2.03,0,-2,-1,0.04,,87,4802,9,39,58,0.792,0.0,406,4.96,12.9,0.0,1,30.5,2.72,6.0,0,0,1,1,0,0,250,250,0,,,,,,,,,,,,,,,,
382703,0,,,,,,,,0.01,-0.04,-2.19,0,-1,0,0.04,,87,4834,9,39,58,0.792,0.0,398,4.96,13.1,0.0,1,30.9,2.74,6.0,0,0,1,1,0,0,250,250,0,,,,,,,,,,,,,,,,
382723,0,,,,,,,,0.02,-0.08,-2.34,0,1,2,0.08,,87,4827,9,39,59,0.793,0.0,397,4.92,13.1,0.0,1,31.1,2.73,6.0,0,0,1,1,0,0,250,250,0,,,,,,,,,,,,,,,,
382743,0,8,6,37,38,34,33,4,-0.03,-0.04,-2.34,1,2,3,0.05,0,87,4800,9,39,59,0.794,0.0,394,4.94,13.1,0.0,1,30.7,1.63,6.0,0,0,1,1,0,0,250,250,0,0.0,0.0,0.0,0.0,0,0,0.0,0,0.0,-1,0.0,,0.0,0,0.0,6.379
382763,0,,,,,,,,-0.07,-0.01,-2.15,1,0,1,0.07,,87,4794,9,39,59,0.794,0.0,391,4.91,13.0,0.0,1,30.7,1.63,6.0,0,0,1,1,0,0,250,250,0,,,,,,,,,,,,,,,,
382783,0,,,,,,,,-0.05,-0.01,-1.97,0,-2,-1,0.05,,87,4764,9,39,58,0.795,0.0,401,4.97,12.9,0.0,1,30.0,2.7,6.0,0,0,1,1,0,0,250,250,0,,,,,,,,,,,,,,,,
382803,0,,,,,,,,0.0,-0.03,-2.13,0,-2,-1,0.03,,87,4801,9,39,58,0.796,0.0,396,4.95,13.0,0.0,1,30.4,2.71,6.0,0,0,1,1,0,0,250,250,0,,,,,,,,,,,,,,,,
382823,0,,,,,,,,0.02,-0.07,-2.29,0,1,2,0.08,,87,4839,9,39,59,0.796,0.0,392,4.95,13.1,0.0,1,31.2,2.74,6.0,0,0,1,1,0,0,250,250,0,,,,,,,,,,,,,,,,
382843,0,9,6,37,38,34,33,4,-0.03,-0.03,-2.32,1,2,3,0.05,0,87,4815,9,39,59,0.796,0.0,402,4.95,13.0,0.0,1,30.9,1.64,6.0,0,0,1,1,0,0,250,250,0,0.0,0.0,0.0,0.0,0,0,0.0,0,0.0,-1,0.0,0.0,0.0,0,0.0,6.3807
382863,0,,,,,,,,-0.06,0.01,-2.12,1,-0,0,0.06,,87,4846,9,39,59,0.797,0.0,392,4.91,13.0,0.0,1,31.3,1.66,6.1,0,0,1,1,0,0,250,250,0,,,,,,,,,,,,,,,,
382883,0,,,,,,,,-0.02,-0.02,-2.11,0,-2,-1,0.03,,87,4849,9,39,58,0.797,0.0,404,4.96,13.0,0.0,1,31.1,2.74,6.1,0,0,1,1,0,0,250,250,0,,,,,,,,,,,,,,,,
382903,0,,,,,,,,0.01,-0.07,-2.27,0,-0,1,0.07,,87,4837,9,39,59,0.797,0.0,402,4.92,13.1,0.0,1,31.2,2.73,6.1,0,0,1,1,0,0,250,250,0,,,,,,,,,,,,,,,,
382923,0,,,,,,,,-0.01,-0.07,-2.41,1,2,3,0.08,,87,4790,9,39,59,0.797,0.0,391,4.95,13.1,0.0,1,30.6,2.71,6.1,0,0,1,1,0,0,250,250,0,,,,,,,,,,,,,,,,
382943,0,8,5,37,38,34,33,4,-0.05,-0.03,-2.21,1,2,2,0.06,0,87,4797,9,39,59,0.798,0.0,397,4.92,13.1,0.0,1,30.7,2.71,6.1,0,0,1,1,0,0,250,250,0,0.0,0.0,0.0,0.0,0,0,0.0,0,0.0,-1,0.0,,0.0,0,0.0,6.3824
382963,0,,,,,,,,-0.08,0.01,-2.02,1,0,0,0.08,,87,4758,9,39,59,0.798,0.0,392,4.9,13.0,0.0,1,30.2,2.7,5.9,0,0,1,1,0,0,250,250,0,,,,,,,,,,,,,,,,
382983,0,,,,,,,,-0.05,0.01,-1.88,0,-2,-1,0.05,,87,4788,9,39,59,0.798,0.0,394,4.92,12.9,0.0,1,30.6,1.63,5.9,0,0,1,1,0,0,250,250,0,,,,,,,,,,,,,,,,
383003,0,,,,,,,,0.0,-0.04,-2.06,0,-1,-0,0.04,,87,4779,9,39,58,0.798,0.0,400,4.97,13.0,0.0,1,30.2,2.71,5.9,0,0,1,1,0,0,250,250,0,,,,,,,,,,,,,,,,
383023,0,,,,,,,,-0.0,-0.08,-2.22,1,2,2,0.08,,87,4811,9,39,59,0.798,0.0,389,4.92,13.1,0.0,1,30.9,2.73,5.9,0,0,1,1,0,0,250,250,0,,,,,,,,,,,,,,,,
383043,0,9,5,37,38,34,33,4,-0.05,-0.04,-2.14,1,2,3,0.06,0,87,4818,9,39,59,0.798,0.0,399,4.92,13.0,0.0,1,31.0,2.72,5.9,0,0,1,1,0,0,250,250,0,0.0,0.0,0.0,0.0,0,0,0.0,0,0.0,-1,0.0,0.0,0.0,0,0.0,6.384
383063,0,,,,,,,,-0.08,0.01,-1.96,1,0,-0,0.08,,87,4838,9,39,59,0.798,0.0,401,4.89,13.0,0.0,1,31.2,2.74,6.0,0,0,1,1,0,0,250,250,0,,,,,,,,,,,,,,,,
383083,0,,,,,,,,-0.04,0.01,-1.98,0,-1,-1,0.04,,88,4857,9,39,59,0.798,0.0,406,4.89,12.8,0.0,1,31.5,1.66,6.0,0,0,1,1,0,0,250,250,0,,,,,,,,,,,,,,,,
383103,0,,,,,,,,-0.0,-0.05,-2.15,0,1,1,0.05,,88,4829,9,39,59,0.799,0.0,402,4.94,13.1,0.0,1,31.1,2.73,6.0,0,0,1,1,0,0,250,250,0,,,,,,,,,,,,,,,,
383123,0,,,,,,,,-0.03,-0.04,-2.3,1,3,3,0.05,,87,4813,9,39,59,0.799,0.0,397,4.96,13.1,0.0,1,30.9,2.72,6.0,0,0,1,1,0,0,250,250,0,,,,,,,,,,,,,,,,
383143,0,9,5,37,38,34,33,5,-0.07,-0.01,-2.11,1,2,2,0.07,0,87,4788,9,39,59,0.798,0.0,397,4.92,13.0,0.0,1,30.6,2.71,6.0,0,0,1,1,0,0,250,250,0,0.0,0.0,0.0,0.0,0,0,0.0,0,0.0,-1,0.0,,0.0,0,0.0,6.3857
383163,0,,,,,,,,-0.09,0.02,-1.93,1,0,0,0.09,,87,4799,9,39,59,0.798,0.0,403,4.95,12.8,0.0,1,30.7,2.71,6.0,0,0,1,1,0,0,250,250,0,,,,,,,,,,,,,,,,
383183,0,,,,,,,,-0.04,0.02,-1.96,0,-1,-1,0.04,,87,4808,9,39,59,0.798,0.0,402,4.95,12.9,0.0,1,30.8,2.72,6.0,0,0,1,1,0,0,250,250,0,,,,,,,,,,,,,,,,
383203,0,,,,,,,,-0.0,-0.04,-2.13,0,1,1,0.04,,87,4788,9,39,59,0.797,0.0,398,5.0,13.1,0.0,1,30.6,1.63,6.0,0,0,1,1,0,0,250,250,0,,,,,,,,,,,,,,,,
383223,0,,,,,,,,-0.02,-0.06,-2.28,1,3,3,0.06,,87,4783,9,39,59,0.796,0.0,396,4.93,13.1,0.0,1,30.5,2.7,6.0,0,0,1,1,0,0,250,250,0,,,,,,,,,,,,,,,,
383243,0,9,6,37,38,34,33,4,-0.06,-0.01,-2.12,1,3,3,0.06,0,87,4796,9,39,59,0.796,0.0,394,4.91,13.0,0.0,1,30.7,1.63,6.0,0,0,1,1,0,0,250,250,0,0.0,0.0,0.0,0.0,0,0,0.0,0,0.0,-1,0.0,0.0,0.0,0,0.0,6.3874
383263,0,,,,,,,,-0.03,-0.02,-2.09,0,1,0,0.04,,87,4807,9,39,59,0.795,0.0,397,4.88,13.0,0.0,1,30.8,1.64,6.0,0,0,1,1,0,0,250,250,0,,,,,,,,,,,,,,,,
383283,0,,,,,,,,0.03,-0.11,-2.25,0,-1,-0,0.11,,87,4760,9,39,59,0.795,0.0,398,4.98,13.0,0.0,1,30.2,2.7,6.0,0,0,1,1,0,0,250,250,0,,,,,,,,,,,,,,,,
383303,0,,,,,,,,0.07,-0.15,-2.39,0,1,1,0.17,,88,4794,9,39,58,0.795,0.0,396,5.0,13.1,0.0,1,30.4,1.64,6.0,0,0,1,1,0,0,250,250,0,,,,,,,,,,,,,,,,
383323,0,,,,,,,,0.06,-0.17,-2.53,0,3,3,0.18,,87,4789,9,39,59,0.796,0.0,396,4.95,13.1,0.0,1,30.6,2.71,6.0,0,0,1,1,0,0,250,250,0,,,,,,,,,,,,,,,,
383343,0,9,6,37,38,34,33,4,0.03,-0.13,-2.31,1,3,3,0.13,0,87,4789,9,39,59,0.797,0.0,393,4.9,13.0,0.0,1,30.6,1.63,6.0,0,0,1,1,0,0,250,250,0,0.0,0.0,0.0,0.0,0,0,0.0,0,0.0,-1,0.0,,0.0,0,0.0,6.389
383363,0,,,,,,,,0.04,-0.08,-2.12,0,1,1,0.09,,87,4781,9,39,59,0.798,0.0,389,4.92,12.9,0.0,1,30.3,1.62,6.0,0,0,1,1,0,0,250,250,0,,,,,,,,,,,,,,,,
383383,0,,,,,,,,0.09,-0.13,-2.28,0,-0,-0,0.16,,87,4795,9,39,58,0.797,0.0,400,4.97,13.0,0.0,1,30.4,2.72,6.0,0,0,1,1,0,0,250,250,0,,,,,,,,,,,,,,,,
383403,0,,,,,,,,0.1,-0.15,-2.42,0,-0,1,0.18,,87,4781,9,39,58,0.797,0.0,394,4.98,13.1,0.0,1,30.2,1.63,6.0,0,0,1,1,0,0,250,250,0,,,,,,,,,,,,,,,,
383423,0,,,,,,,,0.05,-0.13,-2.54,0,3,3,0.13,,87,4816,9,39,59,0.797,0.0,397,4.95,13.1,0.0,1,30.9,2.72,6.0,0,0,1,1,0,0,250,250,0,,,,,,,,,,,,,,,,
383443,0,9,6,37,38,34,33,5,0.02,-0.07,-2.33,1,2,3,0.07,0,87,4822,9,39,59,0.797,0.0,402,4.94,13.1,0.0,1,31.0,1.65,6.0,0,0,1,1,0,0,250,250,0,0.0,0.0,0.0,0.0,0,0,0.0,0,0.0,-1,0.0,0.0,0.0,0,0.0,6.3907
383463,0,,,,,,,,0.02,-0.03,-2.13,1,1,1,0.04,,87,4780,9,39,59,0.797,0.0,392,4.88,13.0,0.0,1,30.5,1.62,6.0,0,0,1,1,0,0,250,250,0,,,,,,,,,,,,,,,,
383483,0,,,,,,,,0.07,-0.09,-2.29,0,-1,-1,0.11,,87,4777,9,39,58,0.798,0.0,402,4.92,12.9,0.0,1,30.1,2.7,6.0,0,0,1,1,0,0,250,250,0,,,,,,,,,,,,,,,,
383503,0,,,,,,,,0.09,-0.13,-2.43,0,-1,-0,0.16,,87,4728,9,39,58,0.798,0.0,397,4.97,13.0,0.0,1,29.5,2.68,6.0,0,0,1,1,0,0,250,250,0,,,,,,,,,,,,,,,,
383523,0,,,,,,,,0.06,-0.12,-2.56,0,1,2,0.13,,87,4775,9,39,58,0.798,0.0,390,4.96,13.1,0.0,1,30.1,2.7,6.0,0,0,1,1,0,0,250,250,0,,,,,,,,,,,,,,,,
383543,0,9,5,37,38,34,33,5,0.02,-0.06,-2.35,1,2,3,0.06,0,87,4796,9,39,59,0.798,0.0,400,4.92,13.1,0.0,1,30.7,2.71,6.0,0,0,1,1,0,0,250,250,0,0.0,0.0,0.0,0.0,0,0,0.0,0,0.0,-1,0.0,,0.0,0,0.0,6.3924
383563,0,,,,,,,,-0.0,-0.01,-2.15,1,1,1,0.01,,87,4806,9,39,58,0.797,0.0,391,4.91,13.1,0.0,1,30.5,2.72,6.0,0,0,1,1,0,0,250,250,0,,,,,,,,,,,,,,,,
383583,0,,,,,,,,0.05,-0.06,-2.3,0,-1,-1,0.07,,87,4846,9,39,58,0.796,0.0,403,4.9,12.9,0.0,1,31.0,1.66,6.0,0,0,1,1,0,0,250,250,0,,,,,,,,,,,,,,,,
383603,0,,,,,,,,0.07,-0.11,-2.44,0,-1,-0,0.13,,87,4823,9,39,58,0.796,0.0,407,4.97,13.1,0.0,1,30.7,2.73,6.0,0,0,1,1,0,0,250,250,0,,,,,,,,,,,,,,,,
383623,0,,,,,,,,0.03,-0.1,-2.57,0,1,2,0.1,,87,4813,9,39,59,0.796,0.0,393,4.95,13.1,0.0,1,30.9,2.72,6.0,0,0,1,1,0,0,250,250,0,,,,,,,,,,,,,,,,
383643,0,9,7,37,38,34,33,4,-0.01,-0.04,-2.36,1,2,3,0.04,0,87,4801,9,39,59,0.796,0.0,396,4.93,13.0,0.0,1,30.7,1.63,6.0,0,0,1,1,0,0,250,250,0,0.0,0.0,0.0,0.0,0,0,0.0,0,0.0,-1,0.0,0.0,0.0,0,0.0,6.3941
383663,0,,,,,,,,-0.03,0.0,-2.16,1,1,1,0.03,,87,4807,9,39,58,0.796,0.0,390,4.89,13.0,0.0,1,30.5,1.64,6.0,0,0,1,1,0,0,250,250,0,,,,,,,,,,,,,,,,
383683,0,,,,,,,,0.02,-0.03,-2.25,0,-1,-1,0.04,,87,4748,9,39,58,0.796,0.0,397,4.97,12.9,0.0,1,29.7,2.69,6.0,0,0,1,1,0,0,250,250,0,,,,,,,,,,,,,,,,
383703,0,,,,,,,,0.05,-0.09,-2.39,0,-2,-1,0.1,,87,4777,9,39,58,0.796,0.0,405,4.96,12.9,0.0,1,30.1,1.62,6.0,0,0,1,1,0,0,250,250,0,,,,,,,,,,,,,,,,
383723,0,,,,,,,,0.03,-0.09,-2.53,0,-0,1,0.1,,87,4794,9,39,58,0.796,0.0,396,4.97,13.1,0.0,1,30.4,2.72,6.0,0,0,1,1,0,0,250,250,0,,,,,,,,,,,,,,,,
383743,0,9,5,37,38,34,33,5,-0.02,-0.05,-2.32,1,1,3,0.05,0,87,4810,9,39,59,0.796,0.0,391,4.92,13.1,0.0,1,30.9,2.72,6.0,0,0,1,1,0,0,250,250,0,0.0,0.0,0.0,0.0,0,0,0.0,0,0.0,-1,0.0,,0.0,0,0.0,6.3957
383763,0,,,,,,,,-0.05,-0.01,-2.12,1,1,1,0.05,,87,4789,9,39,58,0.796,0.0,396,4.91,13.0,0.0,1,30.3,2.71,6.0,0,0,1,1,0,0,250,250,0,,,,,,,,,,,,,,,,
383783,0,,,,,,,,-0.01,-0.02,-2.1,0,-2,-2,0.02,,87,4848,9,39,58,0.796,0.0,393,4.89,12.9,0.0,1,31.1,1.67,6.0,0,0,1,1,0,0,250,250,0,,,,,,,,,,,,,,,,
383803,0,,,,,,,,0.02,-0.06,-2.26,0,-2,-1,0.07,,87,4842,9,39,58,0.796,0.0,407,4.97,13.0,0.0,1,31.0,2.74,6.0,0,0,1,1,0,0,250,250,0,,,,,,,,,,,,,,,,
383823,0,,,,,,,,-0.0,-0.06,-2.4,0,0,1,0.06,,87,4775,9,39,59,0.795,0.0,399,4.96,13.1,0.0,1,30.4,2.7,6.0,0,0,1,1,0,0,250,250,0,,,,,,,,,,,,,,,,
383843,0,9,6,37,38,34,33,5,-0.04,-0.02,-2.2,1,1,2,0.05,0,87,4807,9,39,58,0.795,0.0,397,4.95,13.1,0.0,1,30.5,1.64,6.0,0,0,1,1,0,0,250,250,0,0.0,0.0,0.0,0.0,0,0,0.0,0,0.0,-1,0.0,0.0,0.0,0,0.0,6.3974
383863,0,,,,,,,,-0.07,0.0,-2.02,1,1,1,0.07,,87,4746,9,39,59,0.795,0.0,397,4.91,13.0,0.0,1,30.0,1.61,5.9,0,0,1,1,0,0,250,250,0,,,,,,,,,,,,,,,,
383883,0,,,,,,,,-0.04,0.0,-1.93,0,-1,-1,0.04,,87,4770,9,39,58,0.794,0.0,399,4.96,12.8,0.0,1,30.0,2.7,5.9,0,0,1,1,0,0,250,250,0,,,,,,,,,,,,,,,,
383903,0,,,,,,,,0.01,-0.05,-2.11,0,-3,-2,0.05,,87,4748,9,39,58,0.794,0.0,394,4.93,12.8,0.0,1,29.7,1.61,5.9,0,0,1,1,0,0,250,250,0,,,,,,,,,,,,,,,,
383923,0,,,,,,,,0.02,-0.09,-2.26,0,-1,-1,0.09,,87,4794,9,39,58,0.794,0.0,399,4.97,13.0,0.0,1,30.4,2.72,5.9,0,0,1,1,0,0,250,250,0,,,,,,,,,,,,,,,,
383943,0,9,5,37,38,34,33,4,-0.03,-0.06,-2.37,1,1,2,0.06,0,87,4779,9,39,58,0.794,0.0,397,4.91,13.1,0.0,1,30.2,2.71,5.9,0,0,1,1,0,0,250,250,0,0.0,0.0,0.0,0.0,0,0,0.0,0,0.0,-1,0.0,,0.0,0,0.0,6.399
383963,0,,,,,,,,-0.07,-0.02,-2.17,1,1,1,0.07,,87,4785,9,39,58,0.794,0.0,396,4.9,13.0,0.0,1,30.2,2.71,6.0,0,0,1,1,0,0,250,250,0,,,,,,,,,,,,,,,,
383983,0,,,,,,,,-0.06,0.02,-1.99,0,-1,-1,0.06,,87,4796,9,39,58,0.795,0.0,410,4.91,13.0,0.0,1,30.5,1.64,6.0,0,0,1,1,0,0,250,250,0,,,,,,,,,,,,,,,,
384003,0,,,,,,,,-0.0,-0.04,-2.16,0,-2,-2,0.04,,87,4757,9,39,58,0.795,0.0,397,4.93,12.9,0.0,1,29.9,2.7,6.0,0,0,1,1,0,0,250,250,0,,,,,,,,,,,,,,,,
384023,0,,,,,,,,0.02,-0.09,-2.31,0,-2,-1,0.09,,87,4744,9,39,58,0.796,0.0,390,4.95,13.1,0.0,1,29.7,2.69,6.0,0,0,1,1,0,0,250,250,0,,,,,,,,,,,,,,,,
384043,0,9,5,37,38,34,33,4,-0.0,-0.07,-2.45,0,0,1,0.07,0,87,4755,9,39,58,0.797,0.0,388,4.93,13.1,0.0,1,29.8,2.69,6.0,0,0,1,1,0,0,250,250,0,0.0,0.0,0.0,0.0,0,0,0.0,0,0.0,-1,0.0,0.0,0.0,0,0.0,6.4007
384063,0,,,,,,,,-0.04,-0.03,-2.25,1,1,1,0.05,,87,4785,9,39,58,0.798,0.0,389,4.9,13.1,0.0,1,30.2,2.71,6.0,0,0,1,1,0,0,250,250,0,,,,,,,,,,,,,,,,
384083,0,,,,,,,,-0.05,-0.03,-2.06,0,1,0,0.06,,87,4757,9,39,58,0.798,0.0,406,4.91,13.0,0.0,1,29.9,1.62,6.0,0,0,1,1,0,0,250,250,0,,,,,,,,,,,,,,,,
384103,0,,,,,,,,-0.01,-0.04,-1.99,0,-2,-2,0.04,,87,4811,9,39,58,0.799,0.0,398,4.92,12.9,0.0,1,30.6,2.73,6.0,0,0,1,1,0,0,250,250,0,,,,,,,,,,,,,,,,
384123,0,,,,,,,,0.04,-0.09,-2.15,0,-2,-2,0.09,,87,4767,9,39,58,0.8,0.0,396,4.98,13.0,0.0,1,30.0,2.7,6.0,0,0,1,1,0,0,250,250,0,,,,,,,,,,,,,,,,
384143,0,8,7,37,38,34,33,4,0.02,-0.08,-2.31,0,-0,-1,0.08,0,87,4786,9,39,58,0.801,0.0,398,4.97,13.1,0.0,1,30.2,2.71,6.0,0,0,1,1,0,0,250,250,0,0.0,0.0,0.0,0.0,0,0,0.0,0,0.0,-1,0.0,,0.0,0,0.0,6.4024
384163,0,,,,,,,,-0.02,-0.05,-2.11,0,1,1,0.06,,87,4837,9,39,58,0.801,0.0,390,4.88,13.1,0.0,1,30.9,2.73,6.1,0,0,1,1,0,0,250,250,0,,,,,,,,,,,,,,,,
384183,0,,,,,,,,-0.04,-0.03,-1.94,0,1,-1,0.05,,87,4805,9,39,58,0.802,0.0,402,4.9,12.9,0.0,1,30.5,1.64,6.1,0,0,1,1,0,0,250,250,0,,,,,,,,,,,,,,,,
384203,0,,,,,,,,0.01,-0.06,-2.05,0,-2,-3,0.06,,87,4822,9,39,58,0.803,0.0,407,4.91,12.9,0.0,1,30.7,2.73,6.1,0,0,1,1,0,0,250,250,0,,,,,,,,,,,,,,,,
384223,0,,,,,,,,0.05,-0.1,-2.21,0,-2,-2,0.11,,87,4777,9,39,58,0.804,0.0,394,4.98,13.1,0.0,1,30.1,2.7,6.1,0,0,1,1,0,0,250,250,0,,,,,,,,,,,,,,,,
384243,0,8,6,37,38,34,33,4,0.04,-0.1,-2.36,0,-1,-1,0.11,0,87,4746,9,39,58,0.805,0.0,401,4.92,13.1,0.0,1,29.7,2.69,6.1,0,0,1,1,0,0,250,250,0,0.0,0.0,0.0,0.0,0,0,0.0,0,0.0,-1,0.0,0.0,0.0,0,0.0,6.404
384263,0,,,,,,,,0.01,-0.07,-2.3,0,1,1,0.07,,87,4769,9,39,59,0.805,0.0,391,4.92,13.1,0.0,1,30.3,2.7,5.8,0,0,1,1,0,0,250,250,0,,,,,,,,,,,,,,,,
384283,0,,,,,,,,-0.03,-0.05,-2.1,0,2,0,0.06,,87,4748,9,39,58,0.804,0.0,394,4.9,13.0,0.0,1,29.7,1.61,5.8,0,0,1,1,0,0,250,250,0,,,,,,,,,,,,,,,,
384303,0,,,,,,,,-0.03,-0.02,-1.93,0,-1,-2,0.03,,87,4732,9,39,58,0.804,0.0,390,4.9,13.0,0.0,1,29.5,1.6,5.8,0,0,1,1,0,0,250,250,0,,,,,,,,,,,,,,,,
384323,0,,,,,,,,0.02,-0.04,-2.1,0,-2,-3,0.05,,87,4764,9,39,58,0.803,0.0,392,4.93,12.9,0.0,1,30.0,2.7,5.8,0,0,1,1,0,0,250,250,0,,,,,,,,,,,,,,,,
384343,0,8,6,37,38,34,33,5,0.06,-0.09,-2.26,0,-3,-3,0.11,0,87,4737,9,39,58,0.802,0.0,397,4.96,13.0,0.0,1,29.6,2.69,5.8,0,0,1,1,0,0,250,250,0,0.0,0.0,0.0,0.0,0,0,0.0,0,0.0,-1,0.0,,0.0,0,0.0,6.4057
384363,0,,,,,,,,0.04,-0.06,-2.4,0,-1,-0,0.07,,87,4789,9,39,58,0.803,0.0,398,4.94,13.1,0.0,1,30.3,2.71,5.9,0,0,1,1,0,0,250,250,0,,,,,,,,,,,,,,,,
384383,0,,,,,,,,-0.0,-0.03,-2.4,0,1,1,0.03,,87,4768,9,39,58,0.803,0.0,392,4.93,13.1,0.0,1,30.0,2.7,5.9,0,0,1,1,0,0,250,250,0,,,,,,,,,,,,,,,,
384403,0,,,,,,,,-0.04,0.0,-2.2,0,1,0,0.04,,87,4796,9,39,58,0.803,0.0,397,4.94,13.1,0.0,1,30.4,2.72,5.9,0,0,1,1,0,0,250,250,0,,,,,,,,,,,,,,,,
384423,0,,,,,,,,-0.01,0.01,-2.05,0,-2,-2,0.01,,87,4770,9,39,58,0.803,0.0,394,4.97,12.8,0.0,1,30.0,2.7,5.9,0,0,1,1,0,0,250,250,0,,,,,,,,,,,,,,,,
384443,0,7,6,37,38,34,33,4,0.04,-0.06,-2.22,0,-3,-2,0.07,0,87,4808,9,39,58,0.803,0.0,397,4.97,12.8,0.0,1,30.5,1.64,5.9,0,0,1,1,0,0,250,250,0,0.0,0.0,0.0,0.0,0,0,0.0,0,0.0,-1,0.0,0.0,0.0,0,0.0,6.4074
384463,0,,,,,,,,0.05,-0.06,-2.36,0,-1,-0,0.08,,87,4816,9,39,58,0.803,0.0,400,4.93,13.1,0.0,1,30.6,2.73,6.0,0,0,1,1,0,0,250,250,0,,,,,,,,,,,,,,,,
384483,0,,,,,,,,0.02,-0.05,-2.5,0,1,2,0.06,,87,4752,9,39,58,0.802,0.0,392,4.93,13.1,0.0,1,29.8,2.69,6.0,0,0,1,1,0,0,250,250,0,,,,,,,,,,,,,,,,
384503,0,,,,,,,,-0.03,-0.01,-2.29,1,2,3,0.03,,87,4737,9,39,58,0.801,0.0,388,4.95,13.1,0.0,1,29.6,2.69,6.0,0,0,1,1,0,0,250,250,0,,,,,,,,,,,,,,,,
384523,0,,,,,,,,-0.05,0.01,-2.1,1,1,1,0.05,,87,4721,9,39,58,0.801,0.0,391,4.92,13.0,0.0,1,29.4,1.59,6.0,0,0,1,1,0,0,250,250,0,,,,,,,,,,,,,,,,
384543,0,8,6,37,38,34,33,5,-0.02,-0.01,-2.05,0,-1,-1,0.02,0,87,4749,9,39,58,0.802,0.0,388,4.93,12.9,0.0,1,29.8,2.69,6.0,0,0,1,1,0,0,250,250,0,0.0,0.0,0.0,0.0,0,0,0.0,0,0.0,-1,0.0,,0.0,0,0.0,6.409
384563,0,,,,,,,,0.04,-0.1,-2.21,0,-2,-1,0.11,,87,4796,9,39,58,0.802,0.0,406,4.94,12.9,0.0,1,30.4,1.64,5.9,0,0,1,1,0,0,250,250,0,,,,,,,,,,,,,,,,
384583,0,,,,,,,,0.03,-0.11,-2.36,0,0,1,0.11,,87,4818,9,39,58,0.803,0.0,395,4.97,13.1,0.0,1,30.7,2.73,5.9,0,0,1,1,0,0,250,250,0,,,,,,,,,,,,,,,,
384603,0,,,,,,,,-0.02,-0.05,-2.38,1,2,3,0.06,,87,4769,9,39,58,0.803,0.0,392,4.93,13.1,0.0,1,30.0,2.7,5.9,0,0,1,1,0,0,250,250,0,,,,,,,,,,,,,,,,
384623,0,,,,,,,,-0.05,0.0,-2.18,1,1,2,0.05,,87,4774,9,39,58,0.803,0.0,397,4.96,13.1,0.0,1,30.1,1.62,5.9,0,0,1,1,0,0,250,250,0,,,,,,,,,,,,,,,,
