"Interval"|"ms"|0|0|1,"Utc"|"ms"|0|0|1,"Brake_F"|"Bar"|0|2000|10,"Brake_R"|"Bar"|0|2000|10,"Height_RF"|"mm"|0|255|50,"Height_LF"|"mm"|0|255|50,"Height_LR"|"mm"|0|80|50,"Height_RR"|"mm"|0|255|50,"Steering"|"deg"|-100|100|10,"AccelX"|"G"|-3.0|3.0|50,"AccelY"|"G"|-3.0|3.0|50,"AccelZ"|"G"|-3.0|3.0|50,"Yaw"|"Deg/Sec"|-120|120|50,"Pitch"|"Deg/Sec"|-120|120|50,"Roll"|"Deg/Sec"|-120|120|50,"Gsum"|"G"|0.0|3.0|50,"Log_Button"|""|0.0|10.0|10,"WaterTemp"|"C"|0|150|50,"RPM"|"tr/min"|0|14000|50,"TPS"|"%"|0|100|50,"AirTemp"|"C"|0|150|50,"MAP"|"KPa"|0|100|50,"Lambda"|""|0.5|1.5|50,"SpeedDTA"|"kph"|0.0|250.0|50,"OilPress"|"KPa"|0|1500|50,"FuelPressur"|"Bar"|0.0|10.0|50,"Batterie"|"V"|0.0|20.0|50,"ConsoKm"|"L/100km"|0.0|200.0|50,"Gear"|""|0|6|50,"AdvIgnition"|"Deg"|-20.0|70.0|50,"Injection"|"ms"|0.0|10.0|50,"ConsoHr"|"L/Hr"|0.0|10000.0|50,"LC_But_Pres"|""|0|1|50,"LC_Active"|""|0|1|50,"TractionOn"|""|0|1|50,"TractionWet"|""|0|1|50,"FanOn"|""|0|1|50,"RD_Speed"|"km/h"|-30|250|10,"RUD_Speed"|"km/h"|-30|250|10,"LD_Speed"|"km/h"|-30|250|10,"LUD_Speed"|"km/h"|-30|250|10,"Latitude"|"Degrees"|-180.0|180.0|10,"Longitude"|"Degrees"|-180.0|180.0|10,"Speed"|"kph"|0.0|150.0|10,"Altitude"|"m"|0.0|4000.0|10,"GPSSats"|""|0|20|10,"GPSQual"|""|0|5|10,"GPSDOP"|""|0.0|20.0|10,"LapCount"|""|0|0|10,"LapTime"|"Min"|0.0|0.0|10,"Sector"|""|0|0|10,"SectorTime"|"Min"|0.0|0.0|10,"PredTime"|"Min"|0.0|0.0|5,"ElapsedTime"|"Min"|0.0|0.0|10,"CurrentLap"|""|0|0|10,"Distance"|"km"|0.0|0.0|10,"SessionTime"|"Min"|0.0|0.0|10
31063,1646317743546,,,249,252,235,231,,-0.05,0.02,1.01,-0,-2,-0,0.06,,64,2596,3,29,79,0.502,0.0,255,4.82,13.0,0.0,1,-4.0,2.97,3.5,0,0,0,1,0,,,,,,,,,,,,,,,,,,,,
31083,1646317743566,,,250,252,235,232,,-0.06,0.02,1.01,-0,-1,-0,0.06,,64,2541,3,29,80,0.502,0.0,251,4.81,13.0,0.0,1,-4.0,2.99,3.5,0,0,0,1,0,,,,,,,,,,,,,,,,,,,,
31103,1646317743586,,,249,252,235,232,,-0.04,0.01,0.99,-0,-0,0,0.04,,64,2528,3,29,80,0.502,0.0,256,4.83,13.1,0.0,1,-4.0,2.99,3.5,0,0,0,1,0,,,,,,,,,,,,,,,,,,,,
31123,1646317743606,,,250,252,235,232,,-0.03,0.0,0.99,-0,-1,-0,0.03,,64,2595,3,29,80,0.502,0.0,257,4.81,13.0,0.0,1,-4.0,1.87,3.5,0,0,0,1,0,,,,,,,,,,,,,,,,,,,,
31143,1646317743626,0,1,250,252,235,232,-13,-0.07,0.01,0.96,-0,-1,0,0.07,1,64,2563,3,29,80,0.502,0.0,255,4.81,12.7,0.0,1,-4.0,1.86,3.5,0,0,0,1,0,0,250,250,0,45.930729,5.257636,0.0,239.3,10,3,1.4,0,0.0,-1,0.0,,0.0,0,0.0,0.519
31163,1646317743646,,,249,252,235,232,,-0.06,0.01,0.98,-0,-0,0,0.06,,64,2530,3,29,80,0.502,0.0,254,4.84,13.1,0.0,1,-4.0,2.99,3.5,0,0,0,1,0,,,,,,,,,,,,,,,,,,,,
31183,1646317743666,,,250,252,235,232,,-0.04,0.01,0.99,-0,-1,-0,0.04,,64,2559,3,29,80,0.502,0.0,248,4.82,13.1,0.0,1,-4.0,1.86,3.5,0,0,0,1,0,,,,,,,,,,,,,,,,,,,,
31203,1646317743686,,,250,251,235,232,,-0.06,0.01,1.03,-0,-1,-0,0.06,,64,2581,3,29,80,0.502,0.0,250,4.8,12.8,0.0,1,-4.0,2.99,3.5,0,0,0,1,0,,,,,,,,,,,,,,,,,,,,
31223,1646317743708,,,250,252,235,232,,-0.07,0.01,1.01,-0,-0,-0,0.07,,64,2504,3,29,80,0.501,0.0,257,4.81,13.1,0.0,1,-4.0,2.99,3.5,0,0,0,1,0,,,,,,,,,,,,,,,,,,,,
31243,1646317743728,0,1,249,252,235,232,-12,-0.04,0.01,0.99,-0,-0,-0,0.04,1,64,2486,3,29,81,0.502,0.0,250,4.82,13.1,0.0,1,-4.3,3.01,3.5,0,0,0,1,0,0,250,250,0,45.930729,5.257636,0.0,239.3,10,3,1.4,0,0.0,-1,0.0,0.0,0.0,0,0.0,0.5207
31263,1646317743748,,,249,252,235,232,,-0.06,0.02,1.01,-0,-1,-0,0.06,,64,2537,3,29,81,0.502,0.0,251,4.82,12.7,0.0,1,-4.3,3.01,3.5,0,0,0,1,0,,,,,,,,,,,,,,,,,,,,
31283,1646317743768,,,249,252,235,232,,-0.07,0.01,1.01,-0,-0,-0,0.07,,64,2512,3,29,81,0.502,0.0,257,4.8,13.0,0.0,1,-4.3,3.01,3.5,0,0,0,1,0,,,,,,,,,,,,,,,,,,,,
31303,1646317743788,,,250,252,235,232,,-0.04,0.01,1.0,-0,-0,-0,0.05,,64,2472,3,29,81,0.502,0.0,246,4.82,13.1,0.0,1,-4.3,3.01,3.4,0,0,0,1,0,,,,,,,,,,,,,,,,,,,,
31323,1646317743808,,,249,252,235,232,,-0.06,0.01,1.0,-0,-0,-0,0.06,,64,2447,3,29,81,0.502,0.0,242,4.81,12.7,0.0,1,-4.3,3.01,3.4,0,0,0,1,0,,,,,,,,,,,,,,,,,,,,
31343,1646317743828,-1,1,249,252,235,232,-11,-0.06,0.01,1.01,-0,0,-0,0.06,1,64,2438,3,29,82,0.502,0.0,247,4.82,13.1,0.0,1,-4.3,3.03,3.4,0,0,0,1,0,0,250,250,0,45.930729,5.257636,0.0,239.3,10,3,1.4,0,0.0,-1,0.0,,0.0,0,0.0,0.5224
31363,1646317743848,,,249,252,235,232,,-0.04,0.0,1.01,-0,-0,-0,0.04,,64,2452,3,29,82,0.502,0.0,246,4.81,13.1,0.0,1,-4.3,3.03,3.4,0,0,0,1,0,,,,,,,,,,,,,,,,,,,,
31383,1646317743868,,,250,252,235,231,,-0.05,0.0,1.0,-0,-0,-0,0.05,,64,2390,3,29,82,0.502,0.0,242,4.77,13.0,0.0,1,-4.3,3.03,3.4,0,0,0,1,0,,,,,,,,,,,,,,,,,,,,
31403,1646317743888,,,250,252,235,232,,-0.04,-0.01,1.0,-0,-1,-0,0.04,,64,2359,3,29,83,0.502,0.0,240,4.83,13.1,0.0,1,-4.3,1.93,3.3,0,0,0,1,0,,,,,,,,,,,,,,,,,,,,
31423,1646317743907,,,249,252,235,231,,-0.04,-0.01,1.0,-0,-1,-0,0.04,,64,2341,3,29,83,0.502,0.0,237,4.81,12.7,0.0,1,-4.3,3.06,3.3,0,0,0,1,0,,,,,,,,,,,,,,,,,,,,
31443,1646317743927,0,0,250,252,235,232,-11,-0.04,-0.01,1.0,-0,-1,-0,0.04,1,64,2326,3,29,84,0.502,0.0,232,4.83,13.1,0.0,1,-4.6,3.08,3.3,0,0,0,1,0,0,250,250,0,45.930729,5.257636,0.0,239.3,10,3,1.4,0,0.0,-1,0.0,0.0,0.0,0,0.0,0.524
31463,1646317743947,,,249,252,235,232,,-0.04,-0.01,1.0,-0,-1,-0,0.05,,64,2292,3,29,83,0.502,0.0,235,4.81,12.8,0.0,1,-4.6,3.06,3.3,0,0,0,1,0,,,,,,,,,,,,,,,,,,,,
31483,1646317743967,,,249,252,235,232,,-0.04,-0.01,0.98,-0,-1,-0,0.04,,64,2255,3,29,84,0.502,0.0,235,4.82,13.1,0.0,1,-4.6,3.08,3.3,0,0,0,1,0,,,,,,,,,,,,,,,,,,,,
31503,1646317743987,,,250,252,235,232,,-0.05,-0.0,0.99,-0,-1,0,0.05,,64,2230,3,29,84,0.502,0.0,227,4.85,12.7,0.0,1,-4.6,3.08,3.3,0,0,0,1,0,,,,,,,,,,,,,,,,,,,,
31523,1646317743997,,,249,252,235,232,,-0.05,-0.01,0.96,-0,-1,0,0.05,,63,2242,3,29,85,0.502,0.0,230,4.82,13.1,0.0,1,-4.6,1.97,3.1,0,0,0,1,0,,,,,,,,,,,,,,,,,,,,
31543,1646317744017,0,2,250,252,235,231,-11,-0.06,-0.01,0.96,-0,-1,0,0.06,1,64,2185,3,29,84,0.502,0.0,232,4.83,12.8,0.0,1,-4.6,3.08,3.1,0,0,0,1,0,0,250,250,0,45.930729,5.257636,0.0,239.3,10,3,1.4,0,0.0,-1,0.0,,0.0,0,0.0,0.5257
31563,1646317744037,,,250,252,235,232,,-0.05,-0.01,0.93,-0,-1,0,0.05,,64,2180,3,29,85,0.502,0.0,224,4.85,13.1,0.0,1,-4.6,3.1,3.1,0,0,0,1,0,,,,,,,,,,,,,,,,,,,,
31583,1646317744057,,,250,252,235,232,,-0.05,-0.01,0.93,-0,-0,0,0.05,,63,2138,3,29,85,0.502,0.0,223,4.77,12.8,0.0,1,-4.6,1.97,3.1,0,0,0,1,0,,,,,,,,,,,,,,,,,,,,
31603,1646317744077,,,250,252,235,232,,-0.06,-0.0,0.95,-0,-0,0,0.06,,64,2112,3,29,86,0.502,0.0,223,4.81,13.0,0.0,1,-4.6,3.12,3.1,0,0,0,1,0,,,,,,,,,,,,,,,,,,,,
31623,1646317744108,,,250,252,235,232,,-0.06,-0.0,0.96,-0,-0,0,0.06,,63,2087,3,29,86,0.502,0.0,221,4.84,13.0,0.0,1,-4.6,3.12,3.0,0,0,0,1,0,,,,,,,,,,,,,,,,,,,,
31643,1646317744128,-1,2,250,252,235,232,-12,-0.06,-0.0,0.97,-0,0,0,0.06,1,64,2018,3,29,86,0.502,0.0,216,4.83,12.6,0.0,1,-4.8,3.12,3.0,0,0,0,1,0,0,250,250,0,45.930729,5.257636,0.0,239.3,10,3,1.4,0,0.0,-1,0.0,0.0,0.0,0,0.0,0.5274
31663,1646317744148,,,249,252,235,232,,-0.06,-0.0,0.96,-0,0,0,0.06,,63,1984,3,29,87,0.502,0.0,211,4.82,13.1,0.0,1,-4.8,3.14,3.0,0,0,0,1,0,,,,,,,,,,,,,,,,,,,,
31683,1646317744168,,,249,252,235,232,,-0.06,-0.0,0.96,-0,0,0,0.06,,63,1950,3,29,87,0.502,0.0,209,4.83,13.1,0.0,1,-4.8,3.14,3.0,0,0,0,1,0,,,,,,,,,,,,,,,,,,,,
31703,1646317744188,,,249,252,235,232,,-0.06,-0.0,0.94,-0,0,0,0.06,,64,1986,3,29,87,0.502,0.0,213,4.77,12.8,0.0,1,-4.8,3.14,2.8,0,0,0,1,0,,,,,,,,,,,,,,,,,,,,
31723,1646317744207,,,249,252,235,232,,-0.07,-0.0,0.96,-0,0,0,0.07,,63,1956,3,29,88,0.502,0.0,210,4.81,13.1,0.0,1,-4.8,3.16,2.8,0,0,0,1,0,,,,,,,,,,,,,,,,,,,,
31743,1646317744227,-1,0,249,252,235,232,-12,-0.06,-0.0,0.97,-0,-0,0,0.06,1,63,1927,3,29,88,0.502,0.0,207,4.82,13.1,0.0,1,-4.8,3.16,2.8,0,0,0,1,0,0,250,250,0,45.930729,5.257636,0.0,239.3,10,3,1.4,0,0.0,-1,0.0,,0.0,0,0.0,0.529
31763,1646317744247,,,249,252,235,232,,-0.05,0.0,1.0,-0,-0,0,0.05,,63,1880,3,29,88,0.502,0.0,205,4.82,13.0,0.0,1,-4.8,3.16,2.8,0,0,0,1,0,,,,,,,,,,,,,,,,,,,,
31783,1646317744267,,,249,252,235,232,,-0.06,0.0,0.96,-0,-0,0,0.06,,63,1765,3,29,88,0.502,0.0,201,4.77,12.8,0.0,1,-4.8,3.16,2.8,0,0,0,1,0,,,,,,,,,,,,,,,,,,,,
31803,1646317744287,,,249,252,235,232,,-0.06,0.0,0.99,-0,-0,0,0.06,,64,1762,3,29,89,0.502,0.0,193,4.82,12.8,0.0,1,-4.8,3.16,2.8,0,0,0,1,0,,,,,,,,,,,,,,,,,,,,
31823,1646317744307,,,249,252,235,232,,-0.07,0.01,0.99,-0,-0,0,0.07,,63,1749,3,29,89,0.502,0.0,193,4.81,13.1,0.0,1,-4.8,2.06,2.5,0,0,0,1,0,,,,,,,,,,,,,,,,,,,,
31843,1646317744327,0,0,249,252,235,232,-11,-0.07,0.01,0.98,-0,-0,0,0.07,1,63,1710,3,29,90,0.502,0.0,194,4.82,13.0,0.0,1,-4.8,3.21,2.5,0,0,0,1,0,0,250,250,0,45.930729,5.257636,0.0,239.3,10,3,1.4,0,0.0,-1,0.0,0.0,0.0,0,0.0,0.5307
31863,1646317744347,,,250,252,235,231,,-0.06,0.0,0.99,-0,-0,0,0.06,,63,1628,3,29,90,0.502,0.0,189,4.82,13.0,0.0,1,23.0,3.21,2.5,0,0,0,1,0,,,,,,,,,,,,,,,,,,,,
31883,1646317744367,,,249,252,235,232,,-0.06,-0.0,0.99,-0,-1,0,0.06,,63,1538,3,29,91,0.503,0.0,182,4.83,13.0,0.0,1,-4.8,2.09,2.5,0,0,0,1,0,,,,,,,,,,,,,,,,,,,,
31903,1646317744387,,,249,252,235,232,,-0.06,-0.01,1.01,-0,-1,-0,0.06,,63,1486,3,29,91,0.503,0.0,179,4.82,13.0,0.0,1,-4.8,3.21,2.2,0,0,0,1,0,,,,,,,,,,,,,,,,,,,,
31923,1646317744405,,,250,252,235,232,,-0.06,-0.01,0.99,-0,-1,-0,0.06,,63,1531,3,29,91,0.503,0.0,182,4.82,13.0,0.0,1,-4.8,2.09,2.2,0,0,0,1,0,,,,,,,,,,,,,,,,,,,,
31943,1646317744425,-0,3,250,252,235,232,-12,-0.05,-0.01,1.0,-0,-1,-0,0.05,1,63,1596,3,29,92,0.503,0.0,183,4.83,13.1,0.0,1,-4.8,3.21,2.2,0,0,0,1,0,0,250,250,0,45.930729,5.257636,0.0,239.3,10,3,1.4,0,0.0,-1,0.0,,0.0,0,0.0,0.5324
31963,1646317744445,,,250,252,235,232,,-0.05,-0.02,0.99,-0,-1,-0,0.05,,63,1577,3,29,92,0.502,0.0,180,4.83,13.0,0.0,1,-4.8,2.09,2.2,0,0,0,1,0,,,,,,,,,,,,,,,,,,,,
31983,1646317744465,,,250,252,235,232,,-0.04,-0.02,0.98,-0,-1,-0,0.05,,63,1477,3,29,92,0.502,0.0,176,4.83,13.0,0.0,1,-4.8,3.21,2.2,0,0,0,1,0,,,,,,,,,,,,,,,,,,,,
32003,1646317744485,,,249,252,235,232,,-0.05,-0.03,0.98,-0,-1,-0,0.05,,63,1361,3,29,92,0.503,0.0,173,4.82,13.0,0.0,1,-4.8,2.09,2.0,0,0,0,1,0,,,,,,,,,,,,,,,,,,,,
32023,1646317744507,,,249,252,235,231,,-0.05,-0.03,0.98,-0,-1,-0,0.06,,63,1289,3,29,92,0.502,0.0,167,4.82,13.0,0.0,1,-4.8,3.21,2.0,0,0,0,1,0,,,,,,,,,,,,,,,,,,,,
32043,1646317744527,1,2,249,252,235,232,-12,-0.06,-0.03,0.99,-0,-0,-0,0.06,1,63,1428,3,29,92,0.502,0.0,171,4.82,13.0,0.0,1,-4.2,2.09,2.0,0,0,0,1,0,0,250,250,0,45.930729,5.257636,0.0,239.3,10,3,1.4,0,0.0,-1,0.0,0.0,0.0,0,0.0,0.534
32063,1646317744547,,,249,252,235,232,,-0.06,-0.02,0.97,-0,-0,-0,0.06,,63,1600,3,29,93,0.503,0.0,179,4.83,13.0,0.0,1,-4.2,3.21,2.0,0,0,0,1,0,,,,,,,,,,,,,,,,,,,,
32083,1646317744567,,,249,252,235,232,,-0.06,-0.02,0.97,-0,-0,-0,0.07,,63,1576,3,29,92,0.503,0.0,181,4.82,13.0,0.0,1,-4.2,3.21,2.0,0,0,0,1,0,,,,,,,,,,,,,,,,,,,,
32103,1646317744587,,,249,252,235,232,,-0.07,-0.02,0.96,-0,0,-0,0.07,,63,1483,3,29,92,0.503,0.0,176,4.83,13.0,0.0,1,25.5,3.21,2.0,0,0,0,1,0,,,,,,,,,,,,,,,,,,,,
32123,1646317744607,,,249,252,235,232,,-0.07,-0.02,0.96,-0,0,-0,0.07,,63,1378,3,29,92,0.503,0.0,170,4.82,13.0,0.0,1,-4.2,2.06,2.2,0,0,0,1,0,,,,,,,,,,,,,,,,,,,,
32143,1646317744627,1,2,249,252,235,232,-12,-0.07,-0.02,0.97,-0,0,-0,0.07,1,64,1309,2,29,92,0.502,0.0,169,4.8,12.9,0.0,1,-4.2,3.21,2.2,0,0,0,1,0,0,250,250,0,45.930729,5.257636,0.0,239.3,10,3,1.4,0,0.0,-1,0.0,,0.0,0,0.0,0.5357
32163,1646317744647,,,250,252,235,231,,-0.07,-0.02,0.99,-0,0,-0,0.07,,64,1452,2,29,92,0.502,0.0,173,4.83,12.8,0.0,1,-4.2,3.21,2.2,0,0,0,1,0,,,,,,,,,,,,,,,,,,,,
32183,1646317744667,,,250,252,235,232,,-0.08,-0.01,1.04,-0,0,-0,0.08,,64,1652,2,29,92,0.502,0.0,180,4.82,13.0,0.0,1,-4.2,2.09,2.2,0,0,0,1,0,,,,,,,,,,,,,,,,,,,,
32203,1646317744687,,,249,252,235,232,,-0.08,-0.01,1.02,-0,1,-0,0.09,,63,1717,3,29,92,0.502,0.0,182,4.81,13.0,0.0,1,-4.2,2.09,2.2,0,0,0,1,0,,,,,,,,,,,,,,,,,,,,
32223,1646317744707,,,249,252,235,232,,-0.08,-0.01,1.04,-0,0,-0,0.08,,63,1626,3,29,92,0.503,0.0,182,4.82,13.0,0.0,1,-4.2,2.09,2.5,0,0,0,1,0,,,,,,,,,,,,,,,,,,,,
32243,1646317744727,-1,2,250,252,235,231,-12,-0.08,-0.01,1.03,-0,0,-0,0.08,1,63,1521,3,29,92,0.503,0.0,180,4.82,13.0,0.0,1,-3.9,2.09,2.5,0,0,0,1,0,0,250,250,0,45.930729,5.257636,0.0,239.3,10,3,1.4,0,0.0,-1,0.0,0.0,0.0,0,0.0,0.5374
32263,1646317744747,,,249,252,235,232,,-0.08,-0.01,1.05,-0,0,-0,0.08,,63,1444,3,29,92,0.503,0.0,178,4.82,13.0,0.0,1,-3.9,3.21,2.5,0,0,0,1,0,,,,,,,,,,,,,,,,,,,,
32283,1646317744767,,,249,252,235,231,,-0.08,-0.01,1.04,-0,0,-0,0.08,,63,1563,3,29,92,0.503,0.0,183,4.82,13.0,0.0,1,-3.9,3.21,2.5,0,0,0,1,0,,,,,,,,,,,,,,,,,,,,
32303,1646317744787,,,250,252,235,232,,-0.07,-0.0,1.02,-0,0,-0,0.07,,63,1752,3,29,92,0.503,0.0,190,4.82,13.1,0.0,1,-3.9,2.09,2.6,0,0,0,1,0,,,,,,,,,,,,,,,,,,,,
32323,1646317744807,,,250,252,235,232,,-0.07,-0.0,1.02,-0,0,-0,0.07,,63,1702,3,29,92,0.503,0.0,192,4.83,13.0,0.0,1,-3.9,2.09,2.6,0,0,0,1,0,,,,,,,,,,,,,,,,,,,,
32343,1646317744827,0,3,249,252,235,232,-13,-0.07,-0.01,1.01,-0,0,-0,0.07,1,63,1611,3,29,91,0.503,0.0,189,4.78,13.0,0.0,1,-3.9,3.21,2.6,0,0,0,1,0,0,250,250,0,45.930729,5.257636,0.0,239.3,10,3,1.4,0,0.0,-1,0.0,,0.0,0,0.0,0.539
32363,1646317744847,,,250,252,235,232,,-0.07,-0.01,0.99,-0,0,-0,0.07,,63,1557,3,29,91,0.503,0.0,185,4.78,12.9,0.0,1,-3.9,3.21,2.6,0,0,0,1,0,,,,,,,,,,,,,,,,,,,,
32383,1646317744867,,,250,252,235,232,,-0.08,-0.01,1.02,-0,-0,-0,0.08,,64,1655,3,29,91,0.503,0.0,183,4.76,12.7,0.0,1,-3.9,3.21,2.6,0,0,0,1,0,,,,,,,,,,,,,,,,,,,,
32403,1646317744887,,,250,252,235,232,,-0.08,-0.0,1.02,-0,-0,-0,0.08,,63,1801,2,29,91,0.503,0.0,190,4.83,13.0,0.0,1,-3.9,2.09,2.6,0,0,0,1,0,,,,,,,,,,,,,,,,,,,,
32423,1646317744909,,,249,252,235,232,,-0.07,-0.0,1.02,-0,-0,-0,0.07,,63,1845,3,29,92,0.503,0.0,194,4.82,13.1,0.0,1,-3.9,3.21,2.6,0,0,0,1,0,,,,,,,,,,,,,,,,,,,,
32443,1646317744929,0,-0,250,252,235,232,-12,-0.07,-0.0,1.01,-0,-0,-0,0.07,1,63,1774,3,29,91,0.503,0.0,195,4.83,13.1,0.0,1,24.3,3.21,2.6,0,0,0,1,0,0,250,250,0,45.930729,5.257636,0.0,239.3,10,3,1.4,0,0.0,-1,0.0,0.0,0.0,0,0.0,0.5407
32463,1646317744949,,,249,252,235,231,,-0.07,-0.0,1.01,-0,-0,-0,0.07,,63,1689,3,29,91,0.503,0.0,192,4.82,13.0,0.0,1,-3.8,2.09,2.6,0,0,0,1,0,,,,,,,,,,,,,,,,,,,,
32483,1646317744969,,,249,252,235,232,,-0.06,-0.01,0.99,-0,0,-0,0.06,,63,1729,3,29,91,0.503,0.0,187,4.83,13.1,0.0,1,-3.8,2.09,2.6,0,0,0,1,0,,,,,,,,,,,,,,,,,,,,
32503,1646317744989,,,250,252,235,232,,-0.06,0.0,1.03,-0,-0,-0,0.06,,63,1901,2,29,91,0.502,0.0,195,4.83,12.8,0.0,1,-3.8,3.21,2.8,0,0,0,1,0,,,,,,,,,,,,,,,,,,,,
32523,1646317744998,,,249,252,235,232,,-0.07,0.0,1.0,-0,0,-0,0.07,,63,1857,3,29,91,0.502,0.0,201,4.81,13.1,0.0,1,-3.8,3.21,2.8,0,0,0,1,0,,,,,,,,,,,,,,,,,,,,
32543,1646317745018,0,-0,249,252,235,231,-11,-0.06,0.0,0.99,-0,-0,-0,0.06,1,63,1793,3,29,91,0.502,0.0,197,4.82,13.1,0.0,1,-3.8,3.21,2.8,0,0,0,1,0,0,250,250,0,45.930729,5.257636,0.0,239.3,10,3,1.4,0,0.0,-1,0.0,,0.0,0,0.0,0.5424
32563,1646317745038,,,249,252,235,232,,-0.06,0.0,0.97,-0,-0,0,0.06,,63,1754,3,29,91,0.503,0.0,193,4.83,13.1,0.0,1,-3.8,3.21,2.8,0,0,0,1,0,,,,,,,,,,,,,,,,,,,,
32583,1646317745058,,,250,252,235,232,,-0.06,0.0,0.95,-0,0,0,0.06,,63,1878,3,29,91,0.503,0.0,200,4.8,13.0,0.0,1,-3.8,3.21,2.8,0,0,0,1,0,,,,,,,,,,,,,,,,,,,,
32603,1646317745078,,,249,252,235,232,,-0.06,0.0,0.98,-0,-0,0,0.06,,63,1913,2,29,90,0.502,0.0,203,4.82,12.9,0.0,1,-3.8,3.21,2.8,0,0,0,1,0,,,,,,,,,,,,,,,,,,,,
32623,1646317745106,,,249,252,236,231,,-0.06,0.0,0.97,-0,-0,-0,0.06,,63,1892,3,29,91,0.502,0.0,205,4.82,13.1,0.0,1,-3.8,2.09,2.8,0,0,0,1,0,,,,,,,,,,,,,,,,,,,,
32643,1646317745126,0,3,249,252,235,231,-11,-0.05,0.01,0.95,-0,-0,0,0.05,1,63,1877,3,29,91,0.502,0.0,200,4.84,13.1,0.0,1,-3.8,3.21,2.8,0,0,0,1,0,0,250,250,0,45.930729,5.257636,0.0,239.3,10,3,1.4,0,0.0,-1,0.0,0.0,0.0,0,0.0,0.544
32663,1646317745146,,,249,252,235,231,,-0.05,0.0,0.93,-0,0,0,0.05,,63,1783,3,29,90,0.502,0.0,197,4.81,13.0,0.0,1,-3.8,2.09,2.8,0,0,0,1,0,,,,,,,,,,,,,,,,,,,,
32683,1646317745166,,,249,252,235,231,,-0.06,0.0,0.96,-0,-0,0,0.06,,63,1832,3,29,90,0.502,0.0,198,4.83,12.8,0.0,1,-3.8,3.21,2.8,0,0,0,1,0,,,,,,,,,,,,,,,,,,,,
32703,1646317745186,,,249,252,235,232,,-0.06,0.0,0.95,-0,-0,0,0.06,,63,1867,3,29,91,0.502,0.0,202,4.82,13.1,0.0,1,-3.8,3.21,2.7,0,0,0,1,0,,,,,,,,,,,,,,,,,,,,
32723,1646317745206,,,250,252,236,232,,-0.05,0.0,0.94,-0,-0,0,0.05,,63,1850,3,29,91,0.503,0.0,200,4.82,13.1,0.0,1,-3.8,3.21,2.7,0,0,0,1,0,,,,,,,,,,,,,,,,,,,,
32743,1646317745226,-1,2,249,252,235,232,-11,-0.04,0.0,0.96,-0,-0,0,0.04,1,63,1780,3,29,91,0.502,0.0,193,4.82,13.1,0.0,1,-3.8,2.09,2.7,0,0,0,1,0,0,250,250,0,45.930729,5.257636,0.0,239.3,10,3,1.4,0,0.0,-1,0.0,,0.0,0,0.0,0.5457
32763,1646317745246,,,250,252,235,232,,-0.05,0.0,0.94,-0,-0,0,0.05,,63,1715,3,29,91,0.502,0.0,193,4.83,13.0,0.0,1,-3.8,2.09,2.7,0,0,0,1,0,,,,,,,,,,,,,,,,,,,,
32783,1646317745266,,,249,252,235,231,,-0.05,-0.0,0.94,-0,-0,0,0.05,,63,1805,3,29,90,0.502,0.0,197,4.81,12.6,0.0,1,-3.8,2.09,2.7,0,0,0,1,0,,,,,,,,,,,,,,,,,,,,
32803,1646317745286,,,249,252,235,232,,-0.06,-0.0,0.93,-0,-0,0,0.06,,63,1910,3,29,91,0.502,0.0,203,4.81,13.1,0.0,1,-3.8,3.21,2.8,0,0,0,1,0,,,,,,,,,,,,,,,,,,,,
32823,1646317745308,,,249,252,235,232,,-0.05,0.0,0.95,-0,-0,0,0.05,,63,1867,3,29,91,0.502,0.0,197,4.81,13.1,0.0,1,-3.8,3.21,2.8,0,0,0,1,0,,,,,,,,,,,,,,,,,,,,
32843,1646317745328,-1,2,250,252,235,232,-11,-0.05,-0.0,0.95,-0,-0,0,0.05,1,63,1777,3,29,91,0.502,0.0,197,4.83,13.1,0.0,1,-3.8,3.21,2.8,0,0,0,1,0,0,250,250,0,45.930729,5.257636,0.0,239.3,10,3,1.4,0,0.0,-1,0.0,0.0,0.0,0,0.0,0.5474
32863,1646317745348,,,250,252,235,231,,-0.05,-0.0,0.92,-0,-0,0,0.05,,63,1793,3,29,91,0.502,0.0,199,4.83,13.0,0.0,1,-3.8,3.21,2.8,0,0,0,1,0,,,,,,,,,,,,,,,,,,,,
32883,1646317745368,,,250,252,235,232,,-0.05,0.0,0.97,-0,-0,0,0.05,,63,1950,2,29,90,0.502,0.0,201,4.83,12.8,0.0,1,-3.8,3.21,2.8,0,0,0,1,0,,,,,,,,,,,,,,,,,,,,
32903,1646317745388,,,250,252,235,232,,-0.05,0.0,0.96,-0,-0,0,0.05,,63,1982,3,29,91,0.502,0.0,203,4.83,13.1,0.0,1,-3.8,3.21,2.9,0,0,0,1,0,,,,,,,,,,,,,,,,,,,,
32923,1646317745408,,,249,252,235,231,,-0.04,0.01,0.96,-0,-0,0,0.04,,63,1945,3,29,90,0.502,0.0,208,4.83,13.1,0.0,1,-3.8,3.21,2.9,0,0,0,1,0,,,,,,,,,,,,,,,,,,,,
32943,1646317745428,0,0,249,252,235,231,-12,-0.05,0.0,0.93,-0,0,0,0.05,1,63,1806,3,29,90,0.502,0.0,202,4.77,12.8,0.0,1,-3.8,2.09,2.9,0,0,0,1,0,0,250,250,0,45.930729,5.257636,0.0,239.3,10,3,1.4,0,0.0,-1,0.0,,0.0,0,0.0,0.549
32963,1646317745448,,,249,252,235,232,,-0.06,0.0,0.97,-0,-0,0,0.06,,63,1832,2,29,90,0.502,0.0,200,4.82,13.1,0.0,1,-3.8,3.21,2.9,0,0,0,1,0,,,,,,,,,,,,,,,,,,,,
32983,1646317745468,,,250,252,235,232,,-0.05,0.0,0.95,-0,-0,-0,0.05,,63,1947,3,29,91,0.502,0.0,206,4.85,13.1,0.0,1,-3.8,3.21,2.9,0,0,0,1,0,,,,,,,,,,,,,,,,,,,,
33003,1646317745488,,,249,252,235,232,,-0.05,0.0,0.94,-0,0,-0,0.05,,63,2010,3,29,90,0.502,0.0,208,4.82,13.1,0.0,1,-3.8,2.09,2.9,0,0,0,1,0,,,,,,,,,,,,,,,,,,,,
33023,1646317745506,,,250,252,235,232,,-0.05,0.0,0.97,-0,-0,-0,0.05,,63,1941,3,29,89,0.502,0.0,211,4.84,12.7,0.0,1,-3.8,3.18,2.9,0,0,0,1,0,,,,,,,,,,,,,,,,,,,,
33043,1646317745526,0,2,249,252,235,232,-12,-0.06,0.0,0.96,-0,-0,0,0.06,1,63,1878,3,29,90,0.502,0.0,208,4.82,13.1,0.0,1,-3.8,3.21,2.9,0,0,0,1,0,0,250,250,0,45.930729,5.257636,0.0,239.3,10,3,1.4,0,0.0,-1,0.0,0.0,0.0,0,0.0,0.5507
33063,1646317745546,,,250,252,235,231,,-0.05,-0.01,0.94,-0,-0,0,0.05,,63,1849,3,29,90,0.502,0.0,202,4.83,13.1,0.0,1,-3.8,3.21,2.9,0,0,0,1,0,,,,,,,,,,,,,,,,,,,,
33083,1646317745566,,,249,252,235,232,,-0.05,-0.01,0.94,-0,-0,0,0.05,,63,2010,3,29,90,0.502,0.0,204,4.77,12.9,0.0,1,-3.8,3.21,2.9,0,0,0,1,0,,,,,,,,,,,,,,,,,,,,
33103,1646317745586,,,250,252,235,232,,-0.06,-0.01,0.97,-0,-0,-0,0.07,,63,2029,3,29,90,0.502,0.0,213,4.81,13.1,0.0,1,-3.8,3.21,3.0,0,0,0,1,0,,,,,,,,,,,,,,,,,,,,
33123,1646317745608,,,249,252,235,232,,-0.05,-0.01,0.99,-0,-0,-0,0.05,,63,1972,3,29,90,0.502,0.0,210,4.82,13.1,0.0,1,-3.8,3.21,3.0,0,0,0,1,0,,,,,,,,,,,,,,,,,,,,
33143,1646317745628,0,0,249,252,235,231,-12,-0.05,-0.01,1.0,-0,-0,-0,0.05,1,63,1860,3,29,90,0.502,0.0,201,4.81,13.0,0.0,1,-3.8,2.09,3.0,0,0,0,1,0,0,250,250,0,45.930729,5.257636,0.0,239.3,10,3,1.4,0,0.0,-1,0.0,,0.0,0,0.0,0.5524
33163,1646317745648,,,249,252,235,232,,-0.06,-0.0,1.02,-0,-0,-0,0.06,,64,1908,3,29,89,0.502,0.0,203,4.84,12.7,0.0,1,-3.8,3.18,3.0,0,0,0,1,0,,,,,,,,,,,,,,,,,,,,
33183,1646317745668,,,250,252,235,232,,-0.05,-0.01,0.98,-0,-0,-0,0.05,,63,2047,3,29,90,0.502,0.0,216,4.82,13.1,0.0,1,-3.8,3.21,3.0,0,0,0,1,0,,,,,,,,,,,,,,,,,,,,
33203,1646317745688,,,250,252,235,232,,-0.05,-0.01,0.95,-0,0,0,0.05,,63,2084,3,29,89,0.502,0.0,214,4.77,12.8,0.0,1,-3.8,3.18,3.0,0,0,0,1,0,,,,,,,,,,,,,,,,,,,,
33223,1646317745708,,,250,252,235,232,,-0.06,-0.01,0.99,-0,-0,-0,0.06,,63,2036,3,29,89,0.502,0.0,213,4.81,13.1,0.0,1,-3.8,3.18,3.0,0,0,0,1,0,,,,,,,,,,,,,,,,,,,,
33243,1646317745728,-1,2,250,252,235,232,-13,-0.05,-0.01,0.99,-0,-0,-0,0.05,1,63,1979,3,29,89,0.502,0.0,212,4.82,13.1,0.0,1,-3.9,3.18,3.0,0,0,0,1,0,0,250,250,0,45.930729,5.257636,0.0,239.3,10,3,1.4,0,0.0,-1,0.0,0.0,0.0,0,0.0,0.5541
33263,1646317745748,,,249,252,235,232,,-0.05,-0.01,0.97,-0,-0,-0,0.05,,63,2035,3,29,89,0.502,0.0,211,4.78,13.0,0.0,1,-3.9,3.18,3.0,0,0,0,1,0,,,,,,,,,,,,,,,,,,,,
33283,1646317745768,,,249,252,235,231,,-0.06,-0.01,1.0,-0,-0,-0,0.06,,63,2113,3,29,89,0.503,0.0,215,4.81,13.1,0.0,1,-3.9,3.18,3.0,0,0,0,1,0,,,,,,,,,,,,,,,,,,,,
33303,1646317745788,,,249,252,235,232,,-0.05,-0.0,0.99,-0,-0,-0,0.05,,63,2159,3,29,89,0.503,0.0,220,4.83,13.1,0.0,1,-3.9,3.18,3.1,0,0,0,1,0,,,,,,,,,,,,,,,,,,,,
33323,1646317745808,,,250,252,235,232,,-0.06,0.0,1.01,-0,-0,-0,0.06,,63,2055,3,29,88,0.502,0.0,218,4.82,13.0,0.0,1,-3.9,3.16,3.1,0,0,0,1,0,,,,,,,,,,,,,,,,,,,,
33343,1646317745828,1,0,250,252,235,231,-11,-0.06,-0.01,0.99,-0,-0,-0,0.06,1,63,1994,3,29,89,0.502,0.0,215,4.83,13.1,0.0,1,21.5,3.18,3.1,0,0,0,1,0,0,250,250,0,45.930729,5.257636,0.0,239.3,10,3,1.4,0,0.0,-1,0.0,,0.0,0,0.0,0.5557
33363,1646317745848,,,249,252,235,232,,-0.05,-0.0,0.98,-0,0,-0,0.05,,63,2086,3,29,89,0.502,0.0,211,4.8,13.0,0.0,1,-3.9,3.18,3.1,0,0,0,1,0,,,,,,,,,,,,,,,,,,,,
33383,1646317745868,,,249,252,235,231,,-0.06,-0.0,1.0,-0,-0,-0,0.06,,63,2162,3,29,89,0.502,0.0,216,4.81,13.1,0.0,1,-3.9,3.18,3.1,0,0,0,1,0,,,,,,,,,,,,,,,,,,,,
33403,1646317745888,,,250,252,235,232,,-0.05,-0.0,0.99,-0,0,-0,0.05,,63,2174,3,29,89,0.502,0.0,225,4.82,13.1,0.0,1,-3.9,3.18,3.2,0,0,0,1,0,,,,,,,,,,,,,,,,,,,,
33423,1646317745907,,,250,252,235,232,,-0.06,0.0,1.01,-0,0,-0,0.06,,63,2122,3,29,88,0.502,0.0,221,4.82,13.0,0.0,1,-3.9,3.16,3.2,0,0,0,1,0,,,,,,,,,,,,,,,,,,,,
33443,1646317745927,0,1,249,252,235,232,-12,-0.05,-0.0,1.0,-0,-0,-0,0.05,1,63,2081,3,29,88,0.502,0.0,216,4.82,13.1,0.0,1,-4.1,2.04,3.2,0,0,0,1,0,0,250,250,0,45.930729,5.257636,0.0,239.3,10,3,1.4,0,0.0,-1,0.0,0.0,0.0,0,0.0,0.5574
33463,1646317745947,,,249,252,235,232,,-0.05,-0.01,0.99,-0,0,-0,0.05,,63,2040,3,29,88,0.502,0.0,219,4.8,13.0,0.0,1,-4.1,2.04,3.2,0,0,0,1,0,,,,,,,,,,,,,,,,,,,,
33483,1646317745967,,,249,252,235,231,,-0.06,-0.0,1.03,-0,0,-0,0.06,,63,1949,3,29,88,0.502,0.0,216,4.82,13.0,0.0,1,-4.1,3.16,3.2,0,0,0,1,0,,,,,,,,,,,,,,,,,,,,
33503,1646317745987,,,249,252,235,232,,-0.07,0.0,1.01,-0,0,-0,0.07,,63,1848,3,29,89,0.503,0.0,202,4.83,12.8,0.0,1,-4.1,3.18,2.7,0,0,0,1,0,,,,,,,,,,,,,,,,,,,,
33523,1646317745999,,,249,252,235,232,,-0.06,-0.01,1.0,-0,-0,-0,0.06,,63,1746,3,29,89,0.503,0.0,194,4.83,13.0,0.0,1,-4.1,3.18,2.7,0,0,0,1,0,,,,,,,,,,,,,,,,,,,,
33543,1646317746019,-1,2,250,252,235,232,-12,-0.06,-0.02,1.09,-0,-2,-1,0.06,1,63,1637,3,29,89,0.503,0.0,191,4.82,13.0,0.0,1,-4.1,3.18,2.7,0,0,0,1,0,0,250,250,0,45.930729,5.257636,0.0,239.3,10,3,1.4,0,0.0,-1,0.0,,0.0,0,0.0,0.559
33563,1646317746039,,,250,252,235,232,,-0.08,-0.03,1.05,-0,-1,-0,0.08,,63,1610,3,29,90,0.503,0.0,192,4.83,13.1,0.0,1,-4.1,3.21,2.7,0,0,0,1,0,,,,,,,,,,,,,,,,,,,,
33583,1646317746059,,,249,252,235,231,,-0.08,-0.03,1.06,-0,-0,-0,0.08,,63,1674,3,29,90,0.503,0.0,189,4.82,13.1,0.0,1,-4.1,2.09,2.7,0,0,0,1,0,,,,,,,,,,,,,,,,,,,,
33603,1646317746079,,,250,252,235,232,,-0.12,-0.04,1.11,-0,1,-1,0.12,,63,1581,3,29,90,0.503,0.0,184,4.82,13.0,0.0,1,-4.1,2.09,2.3,0,0,0,1,0,,,,,,,,,,,,,,,,,,,,
33623,1646317746107,,,250,252,236,232,,-0.12,-0.01,1.15,-0,1,-0,0.12,,63,1527,3,29,91,0.503,0.0,184,4.83,13.1,0.0,1,-4.1,3.21,2.3,0,0,0,1,0,,,,,,,,,,,,,,,,,,,,
33643,1646317746127,-1,2,250,252,236,232,-12,-0.12,-0.01,1.13,-0,1,-0,0.12,1,63,1524,3,29,91,0.503,0.0,181,4.83,13.0,0.0,1,-3.9,2.09,2.3,0,0,0,1,0,0,250,250,0,45.930729,5.257636,0.0,239.3,10,3,1.4,0,0.0,-1,0.0,0.0,0.0,0,0.0,0.5607
33663,1646317746147,,,249,252,236,232,,-0.12,-0.01,1.09,-0,2,-0,0.12,,63,1695,3,29,91,0.503,0.0,188,4.82,13.0,0.0,1,-3.9,2.09,2.3,0,0,0,1,0,,,,,,,,,,,,,,,,,,,,
33683,1646317746167,,,249,252,236,232,,-0.12,-0.01,1.1,-0,2,-0,0.12,,64,1763,3,29,91,0.504,0.0,191,4.79,12.6,0.0,1,-3.9,2.09,2.3,0,0,0,1,0,,,,,,,,,,,,,,,,,,,,
33703,1646317746187,,,249,252,235,232,,-0.12,0.02,1.13,-0,1,0,0.12,,64,1667,2,29,91,0.504,0.0,187,4.8,13.0,0.0,1,-3.9,3.21,2.4,0,0,0,1,0,,,,,,,,,,,,,,,,,,,,
33723,1646317746207,,,250,252,235,232,,-0.12,0.01,1.11,-0,1,0,0.12,,63,1561,3,29,91,0.504,0.0,182,4.81,13.0,0.0,1,-3.9,3.21,2.4,0,0,0,1,0,,,,,,,,,,,,,,,,,,,,
33743,1646317746227,-0,2,250,252,236,232,-11,-0.13,0.01,1.12,-0,2,0,0.13,1,63,1485,3,29,91,0.503,0.0,181,4.81,13.0,0.0,1,-3.9,2.09,2.4,0,0,0,1,0,0,250,250,0,45.930729,5.257636,0.0,239.3,10,3,1.4,0,0.0,-1,0.0,,0.0,0,0.0,0.5624
33763,1646317746247,,,249,252,235,232,,-0.13,0.01,1.1,-0,2,0,0.13,,63,1572,3,29,92,0.503,0.0,185,4.8,13.1,0.0,1,-3.9,2.09,2.4,0,0,0,1,0,,,,,,,,,,,,,,,,,,,,
33783,1646317746267,,,250,252,236,232,,-0.12,0.01,1.09,-0,2,0,0.12,,63,1763,3,29,92,0.503,0.0,189,4.82,13.1,0.0,1,-3.9,3.21,2.4,0,0,0,1,0,,,,,,,,,,,,,,,,,,,,
33803,1646317746287,,,249,252,236,232,,-0.12,0.01,1.08,-0,1,0,0.12,,63,1821,3,29,92,0.503,0.0,192,4.83,13.1,0.0,1,-3.9,2.09,2.7,0,0,0,1,0,,,,,,,,,,,,,,,,,,,,
33823,1646317746309,,,250,252,236,232,,-0.12,0.01,1.06,-0,2,0,0.12,,63,1755,3,29,91,0.503,0.0,191,4.82,13.0,0.0,1,-3.9,3.21,2.7,0,0,0,1,0,,,,,,,,,,,,,,,,,,,,
33843,1646317746329,1,0,250,252,235,232,-12,-0.12,0.01,1.04,-0,2,0,0.12,1,63,1576,3,29,91,0.503,0.0,189,4.81,13.0,0.0,1,-3.7,2.09,2.7,0,0,0,1,0,0,250,250,0,45.930729,5.257636,0.0,239.3,10,3,1.4,0,0.0,-1,0.0,0.0,0.0,0,0.0,0.564
33863,1646317746349,,,250,252,236,232,,-0.11,0.01,1.03,-0,2,0,0.11,,63,1658,3,29,91,0.503,0.0,187,4.77,12.9,0.0,1,-3.7,3.21,2.7,0,0,0,1,0,,,,,,,,,,,,,,,,,,,,
33883,1646317746369,,,249,252,236,232,,-0.12,0.01,1.05,-0,2,0,0.12,,64,1840,2,29,91,0.503,0.0,191,4.83,12.9,0.0,1,-3.7,2.09,2.7,0,0,0,1,0,,,,,,,,,,,,,,,,,,,,
33903,1646317746389,,,250,252,235,232,,-0.12,0.0,1.05,-0,1,-0,0.12,,63,1894,3,29,91,0.503,0.0,197,4.82,13.1,0.0,1,-3.7,3.21,2.8,0,0,0,1,0,,,,,,,,,,,,,,,,,,,,
33923,1646317746409,,,249,252,236,232,,-0.11,0.0,1.01,-0,1,0,0.11,,63,1814,3,29,91,0.503,0.0,197,4.81,13.0,0.0,1,-3.7,3.21,2.8,0,0,0,1,0,,,,,,,,,,,,,,,,,,,,
33943,1646317746429,-1,3,250,252,235,232,-12,-0.1,0.01,1.04,-0,1,0,0.1,1,63,1726,12,29,92,0.503,0.0,192,4.82,13.1,0.0,1,25.7,5.27,2.8,0,0,0,1,0,0,250,250,0,45.930729,5.257636,0.0,239.3,10,3,1.4,0,0.0,-1,0.0,,0.0,0,0.0,0.5657
33963,1646317746449,,,249,252,235,232,,-0.09,0.0,1.01,-0,1,0,0.09,,63,1736,23,29,93,0.503,0.0,190,4.82,13.1,0.0,1,27.1,5.27,2.8,0,0,0,1,0,,,,,,,,,,,,,,,,,,,,
33983,1646317746469,,,250,252,236,232,,-0.1,0.01,1.05,-0,1,0,0.1,,64,1904,33,29,96,0.503,0.0,196,4.81,12.7,0.0,1,31.2,5.27,2.8,0,0,0,1,0,,,,,,,,,,,,,,,,,,,,
34003,1646317746489,,,250,252,236,232,,-0.09,0.01,1.03,-0,1,0,0.09,,63,1951,40,29,97,0.503,0.0,200,4.82,13.1,0.0,1,32.6,5.27,4.7,0,0,0,1,0,,,,,,,,,,,,,,,,,,,,
34023,1646317746509,,,250,252,236,232,,-0.08,0.0,1.02,-0,1,0,0.08,,63,1921,42,29,97,0.502,0.0,203,4.83,13.1,0.0,1,32.6,5.27,4.7,0,0,0,1,0,,,,,,,,,,,,,,,,,,,,
34043,1646317746529,0,1,250,252,236,232,-13,-0.07,0.01,1.06,-0,0,-0,0.07,1,63,2288,44,29,97,0.502,0.0,218,4.83,13.1,0.0,1,32.6,5.27,4.7,0,0,0,1,0,0,250,250,0,45.930729,5.257636,0.0,239.3,10,3,1.4,0,0.0,-1,0.0,0.0,0.0,0,0.0,0.5674
34063,1646317746549,,,249,252,236,232,,-0.09,0.02,1.03,-0,1,-0,0.09,,64,2824,43,29,97,0.502,0.0,243,4.78,12.9,0.0,1,31.1,5.95,4.7,0,0,0,1,0,,,,,,,,,,,,,,,,,,,,
34083,1646317746569,,,250,252,236,232,,-0.1,0.02,0.95,-0,1,0,0.1,,63,3240,43,29,97,0.502,0.0,288,4.81,13.1,0.0,1,30.2,6.91,4.7,0,0,0,1,0,,,,,,,,,,,,,,,,,,,,
34103,1646317746589,,,250,252,236,232,,-0.07,0.01,0.9,-0,0,0,0.07,,63,3385,44,29,97,0.502,0.0,310,4.75,13.0,0.0,1,30.2,3.1,11.3,0,0,0,1,0,,,,,,,,,,,,,,,,,,,,
34123,1646317746609,,,250,252,236,232,,-0.08,0.01,0.96,-0,1,-0,0.08,,63,3867,39,29,96,0.502,0.0,345,4.77,13.0,0.0,1,32.5,3.16,11.3,0,0,0,1,0,,,,,,,,,,,,,,,,,,,,
34143,1646317746629,1,0,250,252,236,231,-12,-0.08,0.02,1.19,-0,0,-1,0.08,1,64,4333,28,29,96,0.501,0.0,373,4.79,12.9,0.0,1,36.7,7.06,11.3,0,0,0,1,0,0,250,250,0,45.930729,5.257636,0.0,239.3,10,3,1.4,0,0.0,-1,0.0,,0.0,0,0.0,0.569
34163,1646317746649,,,250,252,236,232,,-0.04,0.06,1.41,-0,-1,-3,0.08,,64,4848,11,29,93,0.501,0.0,431,4.81,12.7,0.0,1,40.9,6.35,11.3,0,0,0,1,0,,,,,,,,,,,,,,,,,,,,
34183,1646317746669,,,249,252,235,232,,-0.06,0.03,1.3,-0,2,1,0.07,,64,5253,3,29,88,0.501,0.0,500,4.8,13.0,0.0,1,41.5,6.51,11.3,0,0,0,1,0,,,,,,,,,,,,,,,,,,,,
34203,1646317746689,,,250,252,236,232,,0.02,-0.04,1.51,-0,-4,-5,0.04,,64,5842,3,29,82,0.501,0.0,541,4.75,12.9,0.0,1,38.4,7.2,11.3,0,0,0,1,0,,,,,,,,,,,,,,,,,,,,
34223,1646317746707,,,249,252,235,232,,0.06,-0.05,1.7,-1,-8,-9,0.08,,64,6085,3,29,77,0.501,0.0,577,4.75,13.0,0.0,1,37.6,3.0,19.2,0,0,0,1,0,,,,,,,,,,,,,,,,,,,,
34243,1646317746727,-1,2,250,252,236,232,-12,0.05,-0.08,1.62,-1,-10,-11,0.09,1,64,6175,3,29,73,0.5,0.0,601,4.77,13.0,0.0,1,37.3,2.71,19.2,0,0,0,1,0,0,250,250,0,45.930729,5.257636,0.0,239.3,10,3,1.4,0,0.0,-1,0.0,0.0,0.0,0,0.0,0.5707
34263,1646317746747,,,250,252,236,232,,-0.0,-0.11,1.5,-1,-11,-11,0.11,,64,6091,3,29,69,0.5,0.0,611,4.78,12.8,0.0,1,36.0,2.35,19.2,0,0,0,1,0,,,,,,,,,,,,,,,,,,,,
34283,1646317746767,,,250,252,235,232,,-0.03,-0.17,1.38,-1,-9,-10,0.17,,64,5920,3,29,65,0.5,0.0,598,4.82,13.0,0.0,1,34.9,4.33,19.2,0,0,0,1,0,,,,,,,,,,,,,,,,,,,,
34303,1646317746787,,,250,252,236,232,,0.03,-0.21,1.58,-1,-14,-14,0.21,,64,5744,3,29,63,0.5,0.0,578,4.81,13.1,0.0,1,34.4,1.49,19.2,0,0,0,1,0,,,,,,,,,,,,,,,,,,,,
34323,1646317746809,,,249,252,235,232,,0.05,-0.13,1.77,-1,-19,-18,0.14,,64,5558,9,29,62,0.5,0.0,567,4.71,12.8,0.0,1,34.2,3.72,10.2,0,0,0,1,0,,,,,,,,,,,,,,,,,,,,
34343,1646317746829,1,2,249,252,236,232,-12,-0.03,-0.12,1.63,-0,-11,-10,0.12,1,64,5417,17,29,64,0.5,0.0,559,4.75,12.7,0.0,1,34.8,1.74,10.2,0,0,0,1,0,0,250,250,0,45.930729,5.257636,0.0,239.3,10,3,1.4,0,0.0,-1,0.0,,0.0,0,0.0,0.5724
34363,1646317746849,,,249,252,236,232,,0.03,-0.16,1.56,-1,-13,-13,0.17,,64,5243,28,29,71,0.5,0.0,544,4.83,13.0,0.0,1,36.8,5.65,10.2,0,0,0,1,0,,,,,,,,,,,,,,,,,,,,
34383,1646317746869,,,250,252,236,232,,-0.02,-0.12,1.75,-0,-10,-9,0.12,,64,5567,38,29,81,0.5,0.0,527,4.73,12.8,0.0,1,38.8,6.95,10.2,0,0,0,1,0,,,,,,,,,,,,,,,,,,,,
34403,1646317746889,,,249,252,236,232,,-0.08,-0.1,1.61,-0,-3,-2,0.13,,64,6139,43,29,90,0.5,0.0,567,4.76,12.7,0.0,1,41.1,8.43,24.0,0,0,0,1,0,,,,,,,,,,,,,,,,,,,,
34423,1646317746908,,,249,252,236,232,,-0.03,-0.1,1.8,-0,-4,-3,0.1,,64,6679,45,29,93,0.5,0.0,612,4.7,12.7,0.0,1,46.6,3.52,24.0,0,0,0,1,0,,,,,,,,,,,,,,,,,,,,
34443,1646317746928,-0,2,250,252,236,232,-13,-0.03,-0.11,1.66,-0,-3,-2,0.11,1,64,7437,47,29,93,0.5,0.0,635,4.8,12.8,0.0,1,43.8,3.7,24.0,0,0,0,1,0,0,250,250,0,45.930729,5.257636,0.0,239.3,10,3,1.4,0,0.0,-1,0.0,0.0,0.0,0,0.0,0.574
34463,1646317746948,,,250,252,236,232,,-0.02,-0.08,1.7,-0,-4,-4,0.09,,64,7874,47,29,93,0.5,0.0,638,4.75,12.6,0.0,1,37.5,9.35,24.0,0,0,0,1,0,,,,,,,,,,,,,,,,,,,,
34483,1646317746968,,,250,252,236,232,,0.01,-0.13,1.58,-0,-4,-3,0.13,,64,8561,47,29,91,0.5,0.0,650,4.67,12.7,0.0,1,43.0,11.33,24.0,0,0,0,1,0,,,,,,,,,,,,,,,,,,,,
34503,1646317746988,,,249,252,236,232,,0.02,-0.07,1.46,-0,-3,1,0.07,,64,9209,45,29,88,0.5,0.0,662,4.73,12.7,0.0,1,38.8,4.9,24.0,0,0,0,1,0,,,,,,,,,,,,,,,,,,,,
34523,1646317746998,,,249,252,236,232,,-0.03,-0.15,1.66,-0,-3,-2,0.15,,64,9765,36,29,86,0.5,0.0,663,4.7,12.6,0.0,1,39.2,10.19,45.9,0,0,0,1,0,,,,,,,,,,,,,,,,,,,,
34543,1646317747018,-1,3,250,252,235,232,-12,-0.0,0.01,1.6,-0,-3,-1,0.01,1,64,9816,21,29,79,0.5,0.0,677,4.76,12.6,0.0,1,39.9,8.73,45.9,0,0,0,1,0,0,250,250,0,45.930729,5.257636,0.0,239.3,10,3,1.4,0,0.0,-1,0.0,,0.0,0,0.0,0.5757
34563,1646317747038,,,250,252,236,232,,-0.03,-0.12,1.66,-0,-2,-2,0.12,,64,9551,9,29,72,0.5,0.0,666,4.74,12.6,0.0,1,41.4,6.8,45.9,0,0,0,1,0,,,,,,,,,,,,,,,,,,,,
34583,1646317747058,,,249,252,236,232,,-0.05,-0.12,1.54,-0,-2,-3,0.13,,64,9333,3,29,63,0.5,0.0,669,4.75,12.8,0.0,1,40.9,2.38,45.9,0,0,0,1,0,,,,,,,,,,,,,,,,,,,,
34603,1646317747078,,,250,252,235,232,,-0.05,-0.07,1.42,-0,-1,0,0.09,,64,9115,3,29,57,0.5,0.0,663,4.8,12.8,0.0,1,40.0,2.26,21.9,0,0,0,1,0,,,,,,,,,,,,,,,,,,,,
34623,1646317747108,,,250,252,236,232,,-0.06,-0.02,1.31,0,-0,4,0.06,,64,8894,3,29,52,0.5,0.0,665,4.77,12.8,0.0,1,38.9,2.06,21.9,0,0,0,1,0,,,,,,,,,,,,,,,,,,,,
34643,1646317747128,0,2,249,252,235,232,-12,-0.07,-0.02,1.21,0,-0,4,0.07,1,64,8664,3,29,48,0.5,0.0,665,4.75,12.7,0.0,1,37.3,4.35,21.9,0,0,0,1,0,0,250,250,0,45.930729,5.257636,0.0,239.3,10,3,1.4,0,0.0,-1,0.0,0.0,0.0,0,0.0,0.5774
34663,1646317747148,,,250,252,236,232,,-0.06,-0.03,1.25,-0,0,2,0.07,,64,8438,3,29,46,0.5,0.0,657,4.73,12.7,0.0,1,36.2,1.7,21.9,0,0,0,1,0,,,,,,,,,,,,,,,,,,,,
34683,1646317747168,,,250,252,236,232,,-0.07,-0.06,1.23,-0,0,3,0.09,,64,8249,3,29,44,0.5,0.0,655,4.75,12.9,0.0,1,34.7,1.46,21.9,0,0,0,1,0,,,,,,,,,,,,,,,,,,,,
34703,1646317747188,,,249,252,236,232,,-0.05,0.01,1.27,0,-0,2,0.05,,64,8012,3,29,43,0.5,0.0,650,4.78,12.6,0.0,1,33.8,3.21,11.9,0,0,0,1,0,,,,,,,,,,,,,,,,,,,,
34723,1646317747208,,,250,252,235,232,,-0.04,0.06,1.43,-0,-1,0,0.07,,64,7809,3,29,42,0.5,0.0,649,4.81,12.6,0.0,1,32.8,3.06,11.9,0,0,0,1,0,,,,,,,,,,,,,,,,,,,,
34743,1646317747228,0,3,249,252,236,232,-12,-0.02,0.04,1.62,-0,-2,-1,0.05,1,64,7606,3,29,41,0.5,0.0,641,4.76,12.7,0.0,1,32.0,3.02,11.9,0,0,0,1,0,0,250,250,0,45.930729,5.257636,0.0,239.3,10,3,1.4,0,0.0,-1,0.0,,0.0,0,0.0,0.579
34763,1646317747248,,,250,252,235,232,,-0.02,-0.01,1.69,-0,-2,-1,0.02,,64,7396,3,29,40,0.5,0.0,638,4.73,12.7,0.0,1,31.4,2.99,11.9,0,0,0,1,0,,,,,,,,,,,,,,,,,,,,
34783,1646317747268,,,250,252,236,232,,-0.0,0.01,1.72,-0,-2,-2,0.01,,64,7189,3,29,40,0.5,0.0,635,4.76,12.7,0.0,1,31.3,2.96,11.9,0,0,0,1,0,,,,,,,,,,,,,,,,,,,,
34803,1646317747288,,,250,252,236,232,,-0.05,0.03,1.59,-0,-0,0,0.06,,64,7017,3,29,40,0.5,0.0,631,4.83,12.9,0.0,1,31.3,1.15,11.9,0,0,0,1,0,,,,,,,,,,,,,,,,,,,,
34823,1646317747309,,,250,252,236,232,,-0.0,0.03,1.77,-0,-2,-2,0.03,,64,6795,3,29,40,0.5,0.0,630,4.73,12.9,0.0,1,30.9,2.9,9.5,0,0,0,1,0,,,,,,,,,,,,,,,,,,,,
34843,1646317747329,0,0,250,252,235,232,-11,-0.06,-0.01,1.64,-0,-0,1,0.06,1,64,6613,3,29,40,0.5,0.0,618,4.75,12.8,0.0,1,30.7,1.15,9.5,0,0,0,1,0,0,250,250,0,45.930729,5.257636,0.0,239.3,10,3,1.4,0,0.0,-1,0.0,0.0,0.0,0,0.0,0.5807
34863,1646317747349,,,250,252,236,232,,-0.06,0.03,1.55,-0,0,1,0.07,,64,6381,3,29,40,0.5,0.0,616,4.71,12.9,0.0,1,30.4,2.86,9.5,0,0,0,1,0,,,,,,,,,,,,,,,,,,,,
34883,1646317747369,,,250,252,236,232,,-0.02,0.06,1.74,-0,-3,-1,0.07,,64,6188,3,29,41,0.5,0.0,605,4.81,13.0,0.0,1,30.4,2.84,9.5,0,0,0,1,0,,,,,,,,,,,,,,,,,,,,
34903,1646317747389,,,250,252,236,232,,0.03,0.07,1.91,-0,-7,-4,0.08,,64,5994,3,29,41,0.5,0.0,593,4.83,13.1,0.0,1,30.0,2.83,7.8,0,0,0,1,0,,,,,,,,,,,,,,,,,,,,
34923,1646317747408,,,250,252,235,232,,0.04,0.1,2.07,-0,-8,-6,0.11,,64,5792,3,29,42,0.5,0.0,584,4.71,12.7,0.0,1,29.8,1.26,7.8,0,0,0,1,0,,,,,,,,,,,,,,,,,,,,
34943,1646317747428,-1,2,250,252,235,232,-11,0.02,0.13,2.22,-0,-4,-2,0.13,1,64,5588,3,29,44,0.5,0.0,557,4.73,12.8,0.0,1,29.8,3.03,7.8,0,0,0,1,0,0,250,250,0,45.930729,5.257636,0.0,239.3,10,3,1.4,0,0.0,-1,0.0,,0.0,0,0.0,0.5824
34963,1646317747448,,,250,252,235,232,,-0.05,0.11,2.05,0,-0,2,0.12,,64,5433,3,28,45,0.5,0.0,541,4.8,13.0,0.0,1,29.7,1.45,7.8,0,0,0,1,0,,,,,,,,,,,,,,,,,,,,
34983,1646317747468,,,249,252,236,232,,0.01,0.12,2.2,-0,-6,-3,0.13,,64,5228,3,28,45,0.5,0.0,531,4.82,13.0,0.0,1,29.4,2.67,7.8,0,0,0,1,0,,,,,,,,,,,,,,,,,,,,
35003,1646317747488,,,250,252,236,232,,-0.01,0.08,2.03,0,-2,1,0.08,,64,5075,3,28,46,0.5,0.0,520,4.85,13.1,0.0,1,29.4,1.62,7.8,0,0,0,1,0,,,,,,,,,,,,,,,,,,,,
35023,1646317747508,,,250,252,235,232,,-0.05,0.11,2.18,0,-2,1,0.13,,64,4922,3,28,47,0.5,0.0,478,4.79,13.0,0.0,1,0.0,1.63,6.4,0,0,0,1,0,,,,,,,,,,,,,,,,,,,,
35043,1646317747528,1,0,250,252,235,232,-12,-0.06,0.14,2.32,-0,-3,-0,0.15,1,64,4718,3,28,47,0.5,0.0,467,4.8,12.9,0.0,1,0.0,1.53,6.4,0,0,0,1,0,0,250,250,0,45.930729,5.257636,0.0,239.3,10,3,1.4,0,0.0,-1,0.0,0.0,0.0,0,0.0,0.584
35063,1646317747548,,,250,252,236,232,,-0.03,0.13,2.45,-0,-3,-1,0.14,,64,4567,3,28,47,0.5,0.0,447,4.81,12.8,0.0,1,0.0,2.58,6.4,0,0,0,1,0,,,,,,,,,,,,,,,,,,,,
35083,1646317747568,,,249,252,236,232,,-0.02,0.15,2.57,-0,-4,-1,0.15,,64,4411,3,28,47,0.5,0.0,427,4.72,12.7,0.0,1,0.0,2.49,6.4,0,0,0,1,0,,,,,,,,,,,,,,,,,,,,
35103,1646317747588,,,250,252,235,232,,-0.02,0.18,2.68,-0,-4,-2,0.18,,64,4260,3,28,48,0.5,0.0,423,4.8,13.0,0.0,1,0.0,2.41,4.8,0,0,0,1,0,,,,,,,,,,,,,,,,,,,,
35123,1646317747608,,,249,252,235,232,,-0.04,0.19,2.52,-0,-3,-1,0.19,,64,4162,3,28,49,0.5,0.0,400,4.82,13.1,0.0,1,0.0,2.35,4.8,0,0,0,1,0,,,,,,,,,,,,,,,,,,,,
35143,1646317747628,-0,3,249,252,236,232,-12,-0.04,0.17,2.32,-0,-2,-0,0.17,1,64,4043,3,28,49,0.5,0.0,405,4.83,13.0,0.0,1,0.0,2.29,4.8,0,0,0,1,0,0,250,250,0,45.930729,5.257636,0.0,239.3,10,3,1.4,0,0.0,-1,0.0,,0.0,0,0.0,0.5857
35163,1646317747648,,,249,252,236,232,,-0.05,0.16,2.37,-0,-2,-1,0.17,,64,3929,3,28,50,0.5,0.0,379,4.77,12.7,0.0,1,0.0,2.26,4.8,0,0,0,1,0,,,,,,,,,,,,,,,,,,,,
35183,1646317747668,,,250,252,236,232,,-0.04,0.13,2.18,-0,-2,-0,0.14,,64,3820,9,28,53,0.5,0.0,376,4.82,13.1,0.0,1,17.5,2.26,4.8,0,0,0,1,0,,,,,,,,,,,,,,,,,,,,
35203,1646317747688,,,250,252,235,232,,-0.06,0.13,2.21,-0,-2,-0,0.15,,64,3657,13,28,57,0.5,0.0,357,4.75,12.7,0.0,1,16.5,1.26,6.1,0,0,0,1,0,,,,,,,,,,,,,,,,,,,,
35223,1646317747708,,,249,252,236,232,,-0.07,0.12,2.04,-0,-0,-0,0.13,,64,3543,16,28,63,0.5,0.0,354,4.82,13.1,0.0,1,16.1,4.03,6.1,0,0,0,1,0,,,,,,,,,,,,,,,,,,,,
35243,1646317747728,-1,2,250,252,236,232,-12,-0.05,0.1,1.98,-0,-1,-0,0.11,1,64,3437,18,28,69,0.501,0.0,328,4.79,13.0,0.0,1,17.8,1.62,6.1,0,0,0,1,0,0,250,250,0,45.930729,5.257636,0.0,239.3,10,3,1.4,0,0.0,-1,0.0,0.0,0.0,0,0.0,0.5874
35263,1646317747748,,,249,252,236,232,,-0.05,0.11,1.98,-0,-1,-0,0.12,,64,3382,19,28,75,0.501,0.0,331,4.75,12.6,0.0,1,19.6,1.7,6.1,0,0,0,1,0,,,,,,,,,,,,,,,,,,,,
35283,1646317747768,,,250,252,235,232,,-0.07,0.1,1.89,-0,1,-0,0.12,,64,3371,19,28,79,0.501,0.0,315,4.84,13.0,0.0,1,21.0,4.93,6.1,0,0,0,1,0,,,,,,,,,,,,,,,,,,,,
35303,1646317747788,,,250,252,235,232,,-0.05,0.06,1.75,-0,0,-0,0.08,,64,3400,19,28,83,0.501,0.0,326,4.85,13.1,0.0,1,22.5,5.47,8.6,0,0,0,1,0,,,,,,,,,,,,,,,,,,,,
35323,1646317747808,,,249,252,235,232,,-0.06,0.06,1.81,-0,-1,-0,0.08,,64,3703,19,28,86,0.501,0.0,332,4.77,13.0,0.0,1,24.7,5.88,8.6,0,0,0,1,0,,,,,,,,,,,,,,,,,,,,
35343,1646317747828,1,0,250,252,236,231,-11,-0.05,0.05,1.67,-0,0,0,0.07,1,64,3886,15,28,87,0.501,0.0,358,4.81,13.1,0.0,1,26.0,5.93,8.6,0,0,0,1,0,0,250,250,0,45.930729,5.257636,0.0,239.3,10,3,1.4,0,0.0,-1,0.0,,0.0,0,0.0,0.589
35363,1646317747848,,,250,252,236,232,,-0.03,0.02,1.6,-0,-1,-1,0.04,,64,4175,10,28,86,0.5,0.0,370,4.8,13.1,0.0,1,29.0,5.75,8.6,0,0,0,1,0,,,,,,,,,,,,,,,,,,,,
35383,1646317747868,,,250,252,236,232,,-0.01,0.02,1.73,-0,-2,-2,0.02,,64,4518,3,28,83,0.5,0.0,406,4.8,13.0,0.0,1,0.0,5.65,8.6,0,0,0,1,0,,,,,,,,,,,,,,,,,,,,
35403,1646317747888,,,249,252,235,232,,0.04,-0.02,1.59,-0,-3,-3,0.04,,64,4839,3,28,79,0.5,0.0,437,4.83,13.1,0.0,1,0.0,3.43,8.6,0,0,0,1,0,,,,,,,,,,,,,,,,,,,,
35423,1646317747907,,,250,252,236,232,,-0.0,-0.01,1.47,-0,-1,0,0.01,,64,4955,3,28,77,0.5,0.0,482,4.8,13.1,0.0,1,0.0,2.4,7.6,0,0,0,1,0,,,,,,,,,,,,,,,,,,,,
35443,1646317747927,0,2,250,252,236,232,-13,-0.04,0.02,1.67,-0,-2,-1,0.04,1,64,4942,3,28,74,0.5,0.0,489,4.77,12.8,0.0,1,0.0,3.33,7.6,0,0,0,1,0,0,250,250,0,45.930729,5.257636,0.0,239.3,10,3,1.4,0,0.0,-1,0.0,0.0,0.0,0,0.0,0.5907
35463,1646317747947,,,250,252,236,232,,0.01,0.01,1.54,-0,-3,-2,0.01,,64,4909,3,28,72,0.5,0.0,470,4.87,12.9,0.0,1,35.9,3.29,7.6,0,0,0,1,0,,,,,,,,,,,,,,,,,,,,
35483,1646317747967,,,250,252,236,232,,0.03,-0.03,1.42,-0,-2,-1,0.04,,64,4862,3,28,70,0.5,0.0,486,4.82,13.0,0.0,1,0.0,3.19,7.6,0,0,0,1,0,,,,,,,,,,,,,,,,,,,,
35503,1646317747987,,,250,252,235,232,,-0.01,-0.0,1.31,-0,-2,0,0.01,,64,4813,4,28,69,0.5,0.0,466,4.8,13.1,0.0,1,0.0,3.13,7.6,0,0,0,1,0,,,,,,,,,,,,,,,,,,,,
35523,1646317747999,,,250,252,235,232,,-0.07,0.0,1.52,-0,-1,0,0.07,,64,4742,8,28,69,0.5,0.0,454,4.79,12.9,0.0,1,32.8,1.97,6.9,0,0,0,1,0,,,,,,,,,,,,,,,,,,,,
35543,1646317748019,0,3,249,252,236,232,-13,-0.09,0.04,1.71,-0,-1,-1,0.09,1,64,4692,12,28,70,0.5,0.0,461,4.81,12.8,0.0,1,32.4,5.03,6.9,0,0,0,1,0,0,250,250,0,45.930729,5.257636,0.0,239.3,10,3,1.4,0,0.0,-1,0.0,,0.0,0,0.0,0.5924
35563,1646317748039,,,249,252,235,232,,-0.02,0.04,1.88,-0,-3,-2,0.04,,64,4880,16,28,72,0.5,0.0,455,4.86,12.8,0.0,1,35.5,5.39,6.9,0,0,0,1,0,,,,,,,,,,,,,,,,,,,,
35583,1646317748059,,,249,252,236,232,,-0.04,0.02,1.73,-0,-0,1,0.05,,64,5104,22,28,76,0.5,0.0,492,4.76,13.1,0.0,1,38.3,4.92,6.9,0,0,0,1,0,,,,,,,,,,,,,,,,,,,,
35603,1646317748079,,,250,252,235,232,,0.02,0.05,1.91,-0,-7,-4,0.05,,64,5492,25,28,80,0.5,0.0,529,4.81,13.0,0.0,1,38.7,6.77,17.2,0,0,0,1,0,,,,,,,,,,,,,,,,,,,,
35623,1646317748109,,,250,252,236,232,,0.01,0.06,2.07,-0,-4,-2,0.06,,64,5952,27,28,84,0.5,0.0,551,4.74,12.8,0.0,1,38.7,3.36,17.2,0,0,0,1,0,,,,,,,,,,,,,,,,,,,,
35643,1646317748129,-0,3,249,252,236,232,-12,0.02,0.02,2.22,0,-5,-3,0.03,1,64,6410,28,28,86,0.5,0.0,586,4.73,12.9,0.0,1,42.3,7.69,17.2,0,0,0,1,0,0,250,250,0,45.930729,5.257636,0.0,239.3,10,3,1.4,0,0.0,-1,0.0,0.0,0.0,0,0.0,0.594
35663,1646317748149,,,250,252,236,232,,-0.0,0.05,2.05,0,-3,-1,0.05,,64,6944,29,28,86,0.5,0.0,618,4.82,12.9,0.0,1,46.7,7.03,17.2,0,0,0,1,0,,,,,,,,,,,,,,,,,,,,
35683,1646317748169,,,250,252,235,232,,-0.01,0.06,1.89,0,-2,1,0.06,,64,7503,29,28,86,0.5,0.0,636,4.8,12.7,0.0,1,41.5,3.42,17.2,0,0,0,1,0,,,,,,,,,,,,,,,,,,,,
35703,1646317748189,,,249,252,235,232,,-0.01,0.07,1.81,0,-2,1,0.07,,64,7924,29,28,85,0.5,0.0,635,4.76,12.7,0.0,1,36.2,3.88,17.2,0,0,0,1,0,,,,,,,,,,,,,,,,,,,,
35723,1646317748207,,,250,252,235,232,,-0.0,0.11,1.67,0,-1,4,0.11,,64,8668,29,28,81,0.5,0.0,652,4.69,12.8,0.0,1,41.7,8.38,31.9,0,0,0,1,0,,,,,,,,,,,,,,,,,,,,
35743,1646317748227,-1,2,250,252,236,232,-12,0.04,0.13,1.6,1,-0,7,0.14,1,64,9328,29,28,78,0.5,0.0,663,4.71,12.7,0.0,1,40.8,7.82,31.9,0,0,0,1,0,0,250,250,0,45.930729,5.257636,0.0,239.3,10,3,1.4,0,0.0,-1,0.0,,0.0,0,0.0,0.5957
35763,1646317748247,,,250,252,235,232,,-0.0,0.03,1.62,0,-1,5,0.03,,64,9962,26,28,75,0.5,0.0,672,4.65,12.7,0.0,1,39.7,3.65,31.9,0,0,0,1,0,,,,,,,,,,,,,,,,,,,,
35783,1646317748267,,,249,252,236,232,,-0.02,-0.05,1.66,0,0,5,0.05,,64,10151,22,28,71,0.5,0.0,674,4.76,12.7,0.0,1,40.2,7.09,31.9,0,0,0,1,0,,,,,,,,,,,,,,,,,,,,
35803,1646317748287,,,249,252,235,232,,-0.01,0.04,1.54,0,-0,7,0.05,,64,9925,18,28,67,0.5,0.0,671,4.76,12.7,0.0,1,40.1,2.95,29.0,0,0,0,1,0,,,,,,,,,,,,,,,,,,,,
35823,1646317748307,,,250,252,236,232,,-0.03,-0.11,1.69,0,-0,4,0.11,,64,9669,15,28,63,0.5,0.0,672,4.69,12.7,0.0,1,41.2,5.58,29.0,0,0,0,1,0,,,,,,,,,,,,,,,,,,,,
35843,1646317748327,0,0,250,252,235,232,-12,-0.03,-0.03,1.6,0,-0,3,0.04,1,64,9445,13,28,59,0.5,0.0,664,4.79,12.8,0.0,1,40.8,5.06,29.0,0,0,0,1,0,0,250,250,0,45.930729,5.257636,0.0,239.3,10,3,1.4,0,0.0,-1,0.0,0.0,0.0,0,0.0,0.5974
35863,1646317748347,,,250,252,235,232,,-0.0,0.12,1.48,0,-0,8,0.12,,64,9222,13,29,57,0.5,0.0,667,4.78,12.8,0.0,1,40.1,4.9,29.0,0,0,0,1,0,,,,,,,,,,,,,,,,,,,,
35883,1646317748367,,,250,252,235,232,,0.02,0.15,1.36,1,1,11,0.16,,64,9010,13,29,54,0.5,0.0,655,4.73,12.7,0.0,1,40.0,2.18,29.0,0,0,0,1,0,,,,,,,,,,,,,,,,,,,,
35903,1646317748387,,,250,252,235,232,,0.03,0.25,1.26,1,1,13,0.25,,64,8794,13,28,54,0.5,0.0,655,4.72,12.8,0.0,1,39.5,2.11,18.4,0,0,0,1,0,,,,,,,,,,,,,,,,,,,,
35923,1646317748407,,,250,252,236,232,,0.01,0.27,1.28,1,1,13,0.27,,64,8573,13,28,54,0.5,0.0,652,4.81,12.8,0.0,1,39.1,2.02,18.4,0,0,0,1,0,,,,,,,,,,,,,,,,,,,,
35943,1646317748427,0,1,250,252,235,232,-11,0.0,0.27,1.42,1,-0,10,0.27,1,64,8344,13,28,53,0.5,0.0,652,4.77,12.7,0.0,1,38.1,3.86,18.4,0,0,0,1,0,0,250,250,0,45.930729,5.257636,0.0,239.3,10,3,1.4,0,0.0,-1,0.0,,0.0,0,0.0,0.599
35963,1646317748447,,,250,252,235,232,,-0.0,0.19,1.33,1,0,10,0.19,,64,8145,13,28,53,0.5,0.0,659,4.77,12.9,0.0,1,37.4,1.51,18.4,0,0,0,1,0,,,,,,,,,,,,,,,,,,,,
35983,1646317748467,,,250,252,235,232,,-0.01,0.2,1.23,1,1,10,0.2,,64,7951,13,28,53,0.5,0.0,642,4.81,12.7,0.0,1,36.8,1.3,18.4,0,0,0,1,0,,,,,,,,,,,,,,,,,,,,
36003,1646317748487,,,250,252,236,232,,-0.02,0.26,1.29,1,0,8,0.26,,64,7728,13,28,54,0.5,0.0,646,4.76,12.7,0.0,1,36.7,3.01,10.7,0,0,0,1,0,,,,,,,,,,,,,,,,,,,,
36023,1646317748507,,,249,252,236,232,,-0.02,0.29,1.35,1,0,7,0.29,,64,7625,13,28,54,0.5,0.0,640,4.72,12.8,0.0,1,36.6,2.97,10.7,0,0,0,1,0,,,,,,,,,,,,,,,,,,,,
36043,1646317748527,0,2,250,252,236,232,-12,0.0,0.28,1.45,0,-1,6,0.28,1,64,7518,13,28,55,0.5,0.0,633,4.75,12.9,0.0,1,36.7,2.9,10.7,0,0,0,1,0,0,250,250,0,45.930729,5.257636,0.0,239.3,10,3,1.4,0,0.0,-1,0.0,0.0,0.0,0,0.0,0.6007
36063,1646317748547,,,249,252,236,232,,0.01,0.23,1.49,0,-1,5,0.23,,64,7615,13,28,56,0.5,0.0,643,4.8,12.9,0.0,1,37.0,2.43,10.7,0,0,0,1,0,,,,,,,,,,,,,,,,,,,,
36083,1646317748567,,,250,252,236,232,,0.01,0.19,1.64,0,-1,4,0.19,,64,7789,13,28,56,0.5,0.0,644,4.74,12.8,0.0,1,37.1,2.45,10.7,0,0,0,1,0,,,,,,,,,,,,,,,,,,,,
36103,1646317748587,,,249,252,236,232,,0.0,0.12,1.51,0,-1,5,0.12,,64,8009,13,28,55,0.5,0.0,640,4.81,12.9,0.0,1,37.2,1.36,9.2,0,0,0,1,0,,,,,,,,,,,,,,,,,,,,
36123,1646317748607,,,250,252,236,232,,0.01,0.12,1.51,0,-1,3,0.12,,64,8363,13,28,53,0.5,0.0,644,4.81,12.8,0.0,1,38.1,2.92,9.2,0,0,0,1,0,,,,,,,,,,,,,,,,,,,,
36143,1646317748627,0,3,249,252,236,232,-12,0.02,0.08,1.44,0,-1,2,0.09,1,64,8668,13,28,51,0.5,0.0,651,4.74,12.9,0.0,1,38.3,1.95,9.2,0,0,0,1,0,0,250,250,0,45.930729,5.257636,0.0,239.3,10,3,1.4,0,0.0,-1,0.0,,0.0,0,0.0,0.6024
36163,1646317748647,,,250,252,236,232,,0.04,0.08,1.41,0,-1,2,0.09,,64,9001,13,28,49,0.5,0.0,651,4.8,12.9,0.0,1,37.8,1.95,9.2,0,0,0,1,0,,,,,,,,,,,,,,,,,,,,
36183,1646317748667,,,250,252,236,232,,0.07,0.1,1.48,-0,-1,0,0.12,,64,9300,13,28,48,0.5,0.0,663,4.72,12.7,0.0,1,37.9,3.07,9.2,0,0,0,1,0,,,,,,,,,,,,,,,,,,,,
36203,1646317748687,,,250,252,236,232,,0.02,-0.04,1.54,-0,-1,-3,0.05,,64,9527,13,28,47,0.5,0.0,661,4.74,12.7,0.0,1,38.0,3.04,9.2,0,0,0,1,0,,,,,,,,,,,,,,,,,,,,
36223,1646317748707,,,250,252,235,232,,0.05,0.06,1.42,-0,-1,-0,0.08,,64,9750,13,28,45,0.5,0.0,670,4.73,12.8,0.0,1,36.5,2.87,13.4,0,0,0,1,0,,,,,,,,,,,,,,,,,,,,
36243,1646317748727,0,3,250,252,236,232,-12,0.07,0.21,1.33,-0,-1,-1,0.22,1,64,9989,13,28,44,0.5,0.0,673,4.71,12.6,0.0,1,35.7,2.72,13.4,0,0,0,1,0,0,250,250,0,45.930729,5.257636,0.0,239.3,10,3,1.4,0,0.0,-1,0.0,0.0,0.0,0,0.0,0.604
36263,1646317748747,,,250,252,236,232,,0.05,0.1,1.22,-0,-0,-1,0.11,,64,10190,13,28,43,0.5,0.0,682,4.8,12.8,0.0,1,35.0,2.68,13.4,0,0,0,1,0,,,,,,,,,,,,,,,,,,,,
36283,1646317748767,,,249,252,236,232,,0.02,-0.01,1.41,-0,-0,-1,0.02,,64,10330,13,28,41,0.5,0.0,678,4.73,12.7,0.0,1,33.5,2.6,13.4,0,0,0,1,0,,,,,,,,,,,,,,,,,,,,
36303,1646317748787,,,249,252,236,232,,-0.01,-0.14,1.36,-0,-1,-1,0.14,,64,10445,13,28,40,0.5,0.0,685,4.81,12.7,0.0,1,32.7,2.56,12.3,0,0,0,1,0,,,,,,,,,,,,,,,,,,,,
36323,1646317748809,,,249,252,235,232,,-0.03,-0.28,1.56,-0,-1,-0,0.29,,64,10463,13,28,40,0.5,0.0,686,4.76,12.8,0.0,1,32.7,2.56,12.3,0,0,0,1,0,,,,,,,,,,,,,,,,,,,,
36343,1646317748829,0,1,249,252,235,232,-12,-0.04,-0.39,1.5,-0,-2,-1,0.39,1,64,10527,13,28,39,0.5,0.0,680,4.74,12.8,0.0,1,32.0,1.4,12.3,0,0,0,1,0,0,250,250,0,45.930729,5.257636,0.0,239.3,10,3,1.4,0,0.0,-1,0.0,,0.0,0,0.0,0.6057
36363,1646317748849,,,249,252,236,232,,-0.09,-0.45,1.7,0,-1,-0,0.46,,64,10563,13,28,39,0.5,0.0,686,4.78,12.8,0.0,1,32.0,1.41,12.3,0,0,0,1,0,,,,,,,,,,,,,,,,,,,,
36383,1646317748869,,,250,252,236,232,,-0.08,-0.56,1.57,-0,-0,-1,0.57,,64,10575,13,28,38,0.5,0.0,675,4.8,12.7,0.0,1,31.7,2.53,12.3,0,0,0,1,0,,,,,,,,,,,,,,,,,,,,
36403,1646317748889,,,250,252,235,232,,-0.08,-0.67,1.75,-0,-2,-1,0.68,,64,10593,13,28,38,0.5,0.0,671,4.8,12.7,0.0,1,31.7,2.53,12.4,0,0,0,1,0,,,,,,,,,,,,,,,,,,,,
36423,1646317748909,,,250,252,236,232,,-0.09,-0.77,1.62,-0,-2,-1,0.78,,64,10575,13,28,38,0.5,0.0,676,4.78,12.6,0.0,1,31.7,1.4,12.4,0,0,0,1,0,,,,,,,,,,,,,,,,,,,,
36443,1646317748929,-0,1,250,252,236,232,-13,-0.08,-0.84,1.77,-0,-1,-2,0.84,1,64,10587,13,28,38,0.5,0.0,673,4.81,12.8,0.0,1,31.7,2.53,12.4,0,0,0,1,0,0,250,250,0,45.930729,5.257636,0.0,239.3,10,3,1.6,0,0.0,-1,0.0,0.0,0.0,0,0.0,0.6074
36463,1646317748949,,,250,252,236,232,,-0.03,-0.92,1.63,-0,-1,-3,0.93,,64,10593,13,28,38,0.5,0.0,683,4.78,12.7,0.0,1,31.7,2.53,12.4,0,0,0,1,0,,,,,,,,,,,,,,,,,,,,
36483,1646317748969,,,250,252,236,232,,-0.02,-0.87,1.63,-1,-2,-2,0.87,,64,10605,13,28,37,0.5,0.0,676,4.72,12.7,0.0,1,31.4,2.54,12.4,0,0,0,1,0,,,,,,,,,,,,,,,,,,,,
36503,1646317748989,,,250,252,235,232,,0.0,-0.77,1.5,-1,-1,-2,0.77,,64,10587,13,28,37,0.5,0.0,670,4.76,12.7,0.0,1,31.4,2.53,12.4,0,0,0,1,0,,,,,,,,,,,,,,,,,,,,
36523,1646317748998,,,249,252,235,232,,0.04,-0.66,1.56,-1,-1,-3,0.66,,64,10575,13,28,37,0.5,0.0,677,4.8,12.7,0.0,1,31.4,2.53,12.4,0,0,0,1,0,,,,,,,,,,,,,,,,,,,,
36543,1646317749018,-1,3,250,252,236,232,-12,0.05,-0.55,1.44,-1,0,-2,0.56,1,64,10551,13,28,37,0.5,0.0,678,4.72,12.8,0.0,1,31.4,1.4,12.4,0,0,0,1,0,0,250,250,0,45.930729,5.257636,0.0,239.3,10,3,1.6,0,0.0,-1,0.0,,0.0,0,0.0,0.609
36563,1646317749038,,,249,252,236,232,,0.08,-0.36,1.45,-1,-0,-2,0.37,,64,10563,13,28,37,0.5,0.0,677,4.77,12.6,0.0,1,31.4,2.53,12.4,0,0,0,1,0,,,,,,,,,,,,,,,,,,,,
36583,1646317749058,,,250,252,235,232,,0.08,-0.19,1.34,-1,0,-0,0.21,,64,10545,13,28,37,0.5,0.0,680,4.77,12.6,0.0,1,31.4,2.53,12.4,0,0,0,1,0,,,,,,,,,,,,,,,,,,,,
36643,1646317749120,-1,0,250,252,235,232,-12,0.09,0.25,1.43,-0,1,0,0.27,1,64,10575,13,28,37,0.5,0.0,677,4.78,12.8,0.0,1,31.4,2.53,12.4,0,0,0,1,0,0,250,250,0,45.930729,5.257636,0.0,239.3,10,3,1.6,0,0.0,-1,0.0,0.0,0.0,0,0.0,0.6107
36663,1646317749140,,,250,252,236,232,,0.04,0.33,1.32,-0,0,1,0.33,,64,10581,13,28,37,0.5,0.0,671,4.72,12.8,0.0,1,31.4,1.4,12.4,0,0,0,1,0,,,,,,,,,,,,,,,,,,,,
36683,1646317749160,,,249,252,235,232,,0.02,0.4,1.5,-0,0,0,0.4,,64,10593,13,28,37,0.5,0.0,680,4.79,12.8,0.0,1,31.4,2.53,12.4,0,0,0,1,0,,,,,,,,,,,,,,,,,,,,
36703,1646317749180,,,250,252,236,231,,-0.02,0.48,1.55,0,1,2,0.48,,64,10599,13,28,37,0.5,0.0,669,4.81,12.8,0.0,1,31.4,2.53,12.4,0,0,0,1,0,,,,,,,,,,,,,,,,,,,,
36723,1646317749200,,,249,252,235,232,,-0.05,0.44,1.65,0,0,1,0.44,,64,10611,13,28,37,0.5,0.0,683,4.73,12.8,0.0,1,31.4,2.53,12.4,0,0,0,1,0,,,,,,,,,,,,,,,,,,,,
36743,1646317749210,0,1,250,252,235,232,-12,-0.09,0.29,1.79,0,-1,1,0.3,1,64,10599,13,28,37,0.5,0.0,673,4.82,12.7,0.0,1,31.4,1.41,12.4,0,0,0,1,0,0,250,250,0,45.930729,5.257636,0.0,239.3,10,3,1.6,0,0.0,-1,0.0,,0.0,0,0.0,0.6124
36763,1646317749230,,,249,252,236,232,,-0.1,0.13,1.8,0,-0,0,0.17,,64,10581,13,28,37,0.5,0.0,673,4.78,12.8,0.0,1,31.4,2.53,12.4,0,0,0,1,0,,,,,,,,,,,,,,,,,,,,
36783,1646317749250,,,250,252,236,232,,-0.12,0.0,1.89,-0,0,-0,0.12,,64,10581,13,28,37,0.5,0.0,677,4.8,12.8,0.0,1,31.4,2.53,12.4,0,0,0,1,0,,,,,,,,,,,,,,,,,,,,
36823,1646317749306,,,250,252,235,232,,-0.07,-0.29,1.82,-0,-2,-1,0.3,,64,10533,13,28,37,0.5,0.0,679,4.78,12.6,0.0,1,31.4,2.53,12.3,0,0,0,1,0,,,,,,,,,,,,,,,,,,,,
36843,1646317749326,0,2,250,252,236,232,-12,-0.09,-0.42,1.78,-0,-2,-2,0.43,1,64,10439,13,28,37,0.5,0.0,680,4.77,12.7,0.0,1,31.4,2.52,12.3,0,0,0,1,0,0,250,250,0,45.930729,5.257636,0.0,239.3,10,3,1.6,0,0.0,-1,0.0,0.0,0.0,0,0.0,0.614
36863,1646317749346,,,249,252,235,232,,-0.1,-0.52,1.87,-0,0,-1,0.53,,64,10376,13,28,37,0.5,0.0,666,4.87,12.8,0.0,1,31.4,1.39,12.3,0,0,0,1,0,,,,,,,,,,,,,,,,,,,,
36883,1646317749366,,,249,252,235,232,,-0.04,-0.52,1.92,-0,-1,-1,0.52,,64,10285,13,28,37,0.5,0.0,671,4.75,12.8,0.0,1,31.4,1.38,12.3,0,0,0,1,0,,,,,,,,,,,,,,,,,,,,
36903,1646317749386,,,249,252,235,232,,-0.02,-0.4,1.85,-0,-2,0,0.4,,64,10195,13,28,37,0.5,0.0,666,4.78,12.8,0.0,1,31.4,2.51,11.8,0,0,0,1,0,,,,,,,,,,,,,,,,,,,,
36923,1646317749396,,,250,252,236,231,,-0.02,-0.34,1.8,-0,-2,-1,0.34,,64,10113,13,28,36,0.5,0.0,672,4.76,12.8,0.0,1,31.1,2.49,11.8,0,0,0,1,0,,,,,,,,,,,,,,,,,,,,
36943,1646317749416,-1,3,250,252,236,231,-12,-0.02,-0.46,1.69,-0,-1,-3,0.47,1,64,10016,13,28,36,0.5,0.0,665,4.86,12.7,0.0,1,31.1,2.48,11.8,0,0,0,1,0,0,250,250,0,45.930729,5.257636,0.0,239.3,10,3,1.4,0,0.0,-1,0.0,,0.0,0,0.0,0.6157
36963,1646317749436,,,250,252,236,231,,0.01,-0.3,1.68,-0,-2,-1,0.3,,64,9915,14,28,37,0.5,0.0,663,4.8,12.7,0.0,1,31.4,2.54,11.8,0,0,0,1,0,,,,,,,,,,,,,,,,,,,,
36983,1646317749456,,,250,252,236,231,,-0.0,-0.37,1.65,-0,-2,-3,0.37,,64,9811,15,28,38,0.5,0.0,663,4.75,12.6,0.0,1,31.7,2.61,11.8,0,0,0,1,0,,,,,,,,,,,,,,,,,,,,
37003,1646317749476,,,249,252,236,232,,0.03,-0.22,1.6,-0,-1,-1,0.22,,64,9709,16,28,39,0.5,0.0,660,4.72,12.7,0.0,1,32.0,1.56,11.8,0,0,0,1,0,,,,,,,,,,,,,,,,,,,,
37023,1646317749496,,,250,252,235,232,,0.02,-0.35,1.55,-1,-2,-4,0.35,,64,9595,17,28,41,0.5,0.0,663,4.72,12.8,0.0,1,33.5,2.81,12.0,0,0,0,1,0,,,,,,,,,,,,,,,,,,,,
37043,1646317749500,0,3,250,252,236,232,-14,0.06,-0.21,1.43,-0,-1,0,0.22,1,64,9512,18,27,43,0.5,0.0,663,4.82,12.8,0.0,1,35.0,2.94,12.0,0,0,0,1,0,0,250,250,0,45.930729,5.257636,0.0,239.3,10,3,1.4,0,0.0,-1,0.0,0.0,0.0,0,0.0,0.6174
37063,1646317749520,,,250,252,236,232,,0.06,-0.2,1.46,-0,-1,0,0.21,,64,9445,20,27,46,0.5,0.0,665,4.73,12.7,0.0,1,37.0,2.99,12.0,0,0,0,1,0,,,,,,,,,,,,,,,,,,,,
37083,1646317749540,,,250,252,236,232,,0.02,-0.31,1.55,-1,-1,-4,0.31,,64,9403,21,27,49,0.5,0.0,662,4.73,12.7,0.0,1,38.4,3.18,12.0,0,0,0,1,0,,,,,,,,,,,,,,,,,,,,
37103,1646317749560,,,250,252,236,232,,0.04,-0.28,1.44,-1,-1,-3,0.29,,64,9384,23,27,52,0.5,0.0,662,4.68,12.8,0.0,1,39.3,3.37,12.0,0,0,0,1,0,,,,,,,,,,,,,,,,,,,,
37123,1646317749580,,,249,252,235,232,,0.09,-0.14,1.38,-0,-1,1,0.16,,64,9375,24,27,55,0.5,0.0,659,4.74,12.7,0.0,1,40.1,3.5,14.6,0,0,0,1,0,,,,,,,,,,,,,,,,,,,,
37143,1646317749600,-1,3,250,252,236,232,-21,0.09,-0.1,1.45,-0,-1,0,0.13,1,64,9407,24,27,58,0.5,0.0,660,4.81,12.8,0.0,1,40.5,3.48,14.6,0,0,0,1,0,0,250,250,0,45.930729,5.257636,0.0,239.3,10,3,1.4,0,0.0,-1,0.0,,0.0,0,0.0,0.6191
37163,1646317749608,,,250,252,235,232,,0.07,-0.24,1.49,-1,-1,-4,0.25,,64,9393,25,27,60,0.5,1.2,657,4.72,12.8,0.0,1,40.8,3.46,14.6,0,0,0,1,0,,,,,,,,,,,,,,,,,,,,
37183,1646317749628,,,250,252,236,232,,0.07,-0.24,1.38,-1,-2,-4,0.25,,64,9346,26,27,62,0.5,1.2,666,4.85,12.8,0.0,1,40.9,2.34,14.6,0,0,0,1,0,,,,,,,,,,,,,,,,,,,,
37203,1646317749648,,,249,252,235,232,,0.11,-0.08,1.27,-0,-1,2,0.14,,64,9291,27,27,64,0.5,1.2,664,4.78,12.8,0.0,1,40.9,3.57,15.3,0,0,0,1,0,,,,,,,,,,,,,,,,,,,,
37223,1646317749709,,,250,252,236,232,,0.13,-0.02,1.17,-0,-0,3,0.13,,64,9282,28,27,66,0.5,1.2,657,4.74,12.7,0.0,1,41.1,3.65,15.3,0,0,0,1,0,,,,,,,,,,,,,,,,,,,,
37243,1646317749729,-1,3,250,252,235,232,-31,0.12,-0.05,1.2,-1,-0,0,0.13,1,64,9124,31,27,69,0.5,1.2,661,4.71,12.7,0.0,1,41.3,3.81,15.3,0,0,0,1,0,18,250,250,12,45.930714,5.257642,1.61,235.8,10,3,1.4,0,0.0,-1,0.0,0.0,0.0,0,0.0,0.6207
37263,1646317749749,,,250,252,235,232,,0.12,-0.14,1.28,-1,-1,-4,0.18,,64,9027,33,27,73,0.5,2.2,655,4.65,12.7,0.0,1,41.3,4.14,15.3,0,0,0,1,0,,,,,,,,,,,,,,,,,,,,
37283,1646317749769,,,250,252,236,232,,0.12,-0.21,1.33,-2,-1,-8,0.24,,64,8924,37,28,76,0.5,2.2,660,4.76,12.6,0.0,1,41.5,4.25,15.3,0,0,0,1,0,,,,,,,,,,,,,,,,,,,,
37303,1646317749789,,,249,252,235,232,,0.14,-0.25,1.34,-2,-1,-10,0.29,,64,8941,42,28,78,0.5,2.2,652,4.66,12.7,0.0,1,40.9,5.44,15.3,0,0,0,1,0,,,,,,,,,,,,,,,,,,,,
37323,1646317749798,,,250,252,235,232,,0.16,-0.18,1.24,-2,-1,-11,0.24,,64,8882,47,28,81,0.5,2.2,654,4.72,12.6,995.4,1,40.4,5.75,21.9,0,0,0,1,0,,,,,,,,,,,,,,,,,,,,
37343,1646317749818,-0,1,250,252,235,232,-39,0.18,-0.16,1.14,-2,-1,-9,0.24,1,64,8932,50,28,83,0.5,2.8,647,4.68,12.7,995.4,1,39.4,6.05,21.9,0,0,0,1,0,25,5442,250,28,45.930714,5.257642,2.66,235.8,10,3,1.4,0,0.0,-1,0.0,,0.0,0,0.0,0.6224
37363,1646317749838,,,250,252,235,232,,0.2,-0.05,1.05,-2,0,-7,0.21,,64,9027,53,28,85,0.5,2.8,647,4.72,12.7,995.4,1,38.8,6.41,21.9,0,0,0,1,0,,,,,,,,,,,,,,,,,,,,
37383,1646317749858,,,250,252,235,232,,0.23,-0.06,1.0,-2,0,-6,0.23,,64,9191,55,28,86,0.5,2.8,653,4.67,12.6,995.4,1,38.8,6.62,21.9,0,0,0,1,0,,,,,,,,,,,,,,,,,,,,
37403,1646317749878,,,250,252,235,232,,0.21,-0.15,1.07,-3,0,-10,0.26,,64,9250,56,28,86,0.5,3.6,652,4.75,12.7,788.8,1,38.8,6.62,28.4,0,0,0,1,0,,,,,,,,,,,,,,,,,,,,
37423,1646317749907,,,249,252,235,232,,0.19,-0.27,1.18,-4,-0,-13,0.33,,64,9436,56,28,87,0.5,3.6,656,4.7,12.6,788.8,1,38.8,4.77,28.4,0,0,0,1,0,,,,,,,,,,,,,,,,,,,,
37443,1646317749927,-1,2,249,252,235,232,-44,0.24,-0.12,1.13,-3,-0,-10,0.26,1,64,9715,56,28,87,0.5,3.6,664,4.77,12.7,788.8,1,39.2,6.87,28.4,0,0,0,1,0,38,-1,250,36,45.930714,5.257643,3.22,235.9,10,3,1.4,0,0.0,-1,0.0,0.0,0.0,0,0.0,0.624
37463,1646317749947,,,250,252,234,232,,0.23,-0.21,1.05,-4,0,-9,0.31,,64,10069,56,28,86,0.5,4.2,662,4.74,12.5,788.8,1,39.7,6.6,28.4,0,0,0,1,0,,,,,,,,,,,,,,,,,,,,
37483,1646317749967,,,250,252,234,232,,0.21,-0.28,1.11,-4,0,-10,0.35,,64,10416,56,28,85,0.5,4.2,668,4.72,12.6,788.8,1,40.8,6.28,28.4,0,0,0,1,0,,,,,,,,,,,,,,,,,,,,
37503,1646317749987,,,250,252,233,232,,0.23,-0.41,1.02,-4,1,-10,0.47,,64,10720,56,28,84,0.5,4.9,680,4.75,12.7,579.5,1,41.5,5.73,28.4,0,0,0,1,0,,,,,,,,,,,,,,,,,,,,
37523,1646317749999,,,250,253,232,231,,0.28,-0.34,1.03,-5,0,-8,0.44,,64,10958,56,28,84,0.5,4.9,680,4.76,12.7,579.5,1,42.1,5.41,28.4,0,0,0,1,0,,,,,,,,,,,,,,,,,,,,
37543,1646317750019,1,0,250,253,232,230,-46,0.26,-0.28,0.95,-5,1,-7,0.38,1,64,11127,56,28,84,0.5,5.8,672,4.77,12.6,579.5,1,42.4,5.2,28.4,0,0,0,1,0,64,-1,250,58,45.930714,5.257643,4.45,235.8,10,3,1.4,0,0.0,-1,0.0,,0.0,0,0.0,0.6257
37563,1646317750039,,,250,254,232,230,,0.28,-0.19,0.88,-6,2,-6,0.34,,64,11187,56,28,84,0.5,5.8,671,4.76,12.7,579.5,1,42.4,5.13,28.4,0,0,0,1,0,,,,,,,,,,,,,,,,,,,,
37583,1646317750059,,,251,254,232,230,,0.3,-0.25,1.12,-6,0,-7,0.38,,64,11180,56,28,84,0.5,6.5,671,4.77,12.7,579.5,1,42.4,5.13,28.4,0,0,0,1,0,,,,,,,,,,,,,,,,,,,,
37603,1646317750079,,,251,254,232,230,,0.34,-0.23,1.19,-6,1,-7,0.41,,64,11160,56,28,84,0.5,7.2,672,4.72,12.7,579.5,1,42.4,5.13,28.4,0,0,0,1,0,,,,,,,,,,,,,,,,,,,,
37623,1646317750091,,,252,254,232,230,,0.34,-0.22,1.1,-7,1,-4,0.4,,64,11134,56,28,84,0.5,7.2,683,4.77,12.7,368.0,1,42.4,5.13,26.5,0,0,0,1,0,,,,,,,,,,,,,,,,,,,,
37643,1646317750111,0,2,252,254,232,230,-47,0.37,-0.32,1.01,-7,-1,-6,0.49,1,64,10939,56,28,84,0.5,7.7,680,4.75,12.6,368.0,1,42.1,4.08,26.5,0,0,0,1,0,90,250,250,77,45.930717,5.257644,5.63,235.8,10,3,1.4,0,0.0,-1,0.0,0.0,0.0,0,0.0,0.6274
37663,1646317750131,,,252,255,231,229,,0.43,-0.29,1.03,-8,0,-5,0.52,,64,10629,56,28,84,0.5,8.4,671,4.71,12.7,368.0,1,41.3,5.43,26.5,0,0,0,1,0,,,,,,,,,,,,,,,,,,,,
37683,1646317750151,,,253,256,230,228,,0.45,-0.26,0.95,-8,1,-5,0.52,,64,10341,56,28,84,0.5,9.1,665,4.72,12.7,368.0,1,40.4,5.53,26.5,0,0,0,1,0,,,,,,,,,,,,,,,,,,,,
37703,1646317750171,,,254,258,229,228,,0.42,-0.25,1.18,-9,1,-5,0.49,,64,10096,56,28,83,0.5,9.8,660,4.74,12.6,258.1,1,39.7,5.38,25.3,0,0,0,1,0,,,,,,,,,,,,,,,,,,,,
37723,1646317750207,,,255,259,228,227,,0.44,-0.11,1.26,-9,1,-3,0.45,,64,9899,56,28,83,0.5,9.8,657,4.76,12.7,258.1,1,39.3,5.51,25.3,0,0,0,1,0,,,,,,,,,,,,,,,,,,,,
37743,1646317750227,0,1,255,260,229,228,-39,0.41,-0.2,1.19,-10,0,-5,0.46,1,64,9566,56,28,84,0.5,10.2,655,4.73,12.6,258.1,1,38.8,5.46,25.3,0,0,0,1,0,427,-1481,250,102,45.930717,5.257645,8.09,235.8,10,3,1.4,0,0.0,-1,0.0,,0.0,0,0.0,0.629
37763,1646317750247,,,255,260,229,227,,0.35,-0.1,1.1,-11,-0,-6,0.36,,64,9231,56,28,86,0.5,10.6,655,4.75,12.8,258.1,1,38.8,5.71,25.3,0,0,0,1,0,,,,,,,,,,,,,,,,,,,,
37783,1646317750267,,,255,260,229,228,,0.35,0.0,1.02,-12,1,-5,0.35,,64,9164,56,28,87,0.5,10.8,652,4.78,12.8,258.1,1,38.8,5.85,25.3,0,0,0,1,0,,,,,,,,,,,,,,,,,,,,
37803,1646317750287,,,254,258,230,229,,0.37,0.07,0.95,-12,2,-1,0.38,,64,9522,56,28,87,0.5,10.9,653,4.78,12.7,243.1,1,38.9,6.01,26.5,0,0,0,1,0,,,,,,,,,,,,,,,,,,,,
37823,1646317750309,,,253,256,231,230,,0.38,0.11,0.89,-13,2,-1,0.4,,64,10118,56,28,87,0.5,11.1,656,4.7,12.7,243.1,1,40.0,6.0,26.5,0,0,0,1,0,,,,,,,,,,,,,,,,,,,,
37843,1646317750329,-1,3,252,255,231,230,-39,0.38,0.08,0.82,-14,1,-1,0.38,1,64,10336,56,28,86,0.5,11.5,663,4.7,12.6,243.1,1,40.6,5.69,26.5,0,0,0,1,0,522,-1482,250,115,45.930721,5.257647,10.31,235.8,10,3,1.4,0,0.0,-1,0.0,0.0,0.0,0,0.0,0.6307
37863,1646317750349,,,253,258,230,229,,0.35,0.04,0.92,-14,1,-1,0.35,,64,10279,56,28,85,0.5,12.0,661,4.76,12.6,243.1,1,40.3,5.53,26.5,0,0,0,1,0,,,,,,,,,,,,,,,,,,,,
