"Interval"|"ms"|0|0|1,"Utc"|"ms"|0|0|1,"Brake_F"|"Bar"|0|2000|10,"Brake_R"|"Bar"|0|2000|10,"Height_RF"|"mm"|0|255|50,"Height_LF"|"mm"|0|255|50,"Height_LR"|"mm"|0|80|50,"Height_RR"|"mm"|0|255|50,"Steering"|"deg"|-100|100|10,"AccelX"|"G"|-3.0|3.0|50,"AccelY"|"G"|-3.0|3.0|50,"AccelZ"|"G"|-3.0|3.0|50,"Yaw"|"Deg/Sec"|-120|120|50,"Pitch"|"Deg/Sec"|-120|120|50,"Roll"|"Deg/Sec"|-120|120|50,"Gsum"|"G"|0.0|3.0|50,"Log_Button"|""|0.0|10.0|10,"WaterTemp"|"C"|0|150|50,"RPM"|"tr/min"|0|14000|50,"TPS"|"%"|0|100|50,"AirTemp"|"C"|0|150|50,"MAP"|"KPa"|0|100|50,"Lambda"|""|0.5|1.5|50,"SpeedDTA"|"kph"|0.0|250.0|50,"OilPress"|"KPa"|0|1500|50,"FuelPressur"|"Bar"|0.0|10.0|50,"Batterie"|"V"|0.0|20.0|50,"ConsoKm"|"L/100km"|0.0|200.0|50,"Gear"|""|0|6|50,"AdvIgnition"|"Deg"|-20.0|70.0|50,"Injection"|"ms"|0.0|10.0|50,"ConsoHr"|"L/Hr"|0.0|10000.0|50,"LC_But_Pres"|""|0|1|50,"LC_Active"|""|0|1|50,"TractionOn"|""|0|1|50,"TractionWet"|""|0|1|50,"FanOn"|""|0|1|50,"RD_Speed"|"km/h"|-30|250|10,"RUD_Speed"|"km/h"|-30|250|10,"LD_Speed"|"km/h"|-30|250|10,"LUD_Speed"|"km/h"|-30|250|10,"Latitude"|"Degrees"|-180.0|180.0|10,"Longitude"|"Degrees"|-180.0|180.0|10,"Speed"|"kph"|0.0|150.0|10,"Altitude"|"m"|0.0|4000.0|10,"GPSSats"|""|0|20|10,"GPSQual"|""|0|5|10,"GPSDOP"|""|0.0|20.0|10,"LapCount"|""|0|0|10,"LapTime"|"Min"|0.0|0.0|10,"Sector"|""|0|0|10,"SectorTime"|"Min"|0.0|0.0|10,"PredTime"|"Min"|0.0|0.0|5,"ElapsedTime"|"Min"|0.0|0.0|10,"CurrentLap"|""|0|0|10,"Distance"|"km"|0.0|0.0|10,"SessionTime"|"Min"|0.0|0.0|10
42063,1646324507123,,,250,255,235,232,,-0.04,-0.01,0.98,-0,-0,-0,0.04,,64,0,3,20,98,1.498,0.0,115,0.97,12.7,0.0,1,0.0,0.0,0.0,0,0,0,0,0,,,,,,,,,,,,,,,,,,,,
42083,1646324507143,,,250,255,235,233,,-0.04,-0.01,0.99,-0,-0,-0,0.04,,64,0,3,20,98,1.498,0.0,115,0.97,12.8,0.0,1,0.0,0.0,0.0,0,0,0,0,0,,,,,,,,,,,,,,,,,,,,
42103,1646324507163,,,250,255,235,233,,-0.04,-0.01,0.98,-0,-0,-0,0.04,,64,0,3,20,98,1.498,0.0,115,0.97,12.8,0.0,1,0.0,0.0,0.0,0,0,0,0,0,,,,,,,,,,,,,,,,,,,,
42123,1646324507183,,,250,255,235,233,,-0.04,-0.01,0.98,-0,-0,-0,0.04,,64,0,3,20,98,1.498,0.0,115,0.97,12.7,0.0,1,0.0,0.0,0.0,0,0,0,0,0,,,,,,,,,,,,,,,,,,,,
42143,1646324507203,-0,0,250,255,235,233,-25,-0.04,-0.01,0.98,-0,0,-0,0.04,1,64,0,3,20,98,1.498,0.0,115,0.97,12.7,0.0,1,0.0,0.0,0.0,0,0,0,0,0,0,250,250,0,45.93066,5.257569,0.0,224.3,9,3,1.8,0,0.0,-1,0.0,,0.0,0,0.0,0.7024
42163,1646324507223,,,250,255,235,233,,-0.04,-0.01,0.98,-0,0,-0,0.04,,64,0,3,20,98,1.498,0.0,115,0.97,12.7,0.0,1,0.0,0.0,0.0,0,0,0,0,0,,,,,,,,,,,,,,,,,,,,
42183,1646324507243,,,250,255,235,232,,-0.04,-0.01,0.98,-0,-0,-0,0.04,,64,0,3,20,98,1.498,0.0,115,0.97,12.7,0.0,1,0.0,0.0,0.0,0,0,0,0,0,,,,,,,,,,,,,,,,,,,,
42203,1646324507263,,,250,255,235,232,,-0.04,-0.01,0.98,-0,0,-0,0.04,,64,0,3,20,98,1.498,0.0,115,0.97,12.7,0.0,1,0.0,0.0,0.0,0,0,0,0,0,,,,,,,,,,,,,,,,,,,,
42223,1646324507283,,,250,255,235,233,,-0.04,-0.01,0.98,-0,-0,-0,0.04,,64,0,3,20,98,1.498,0.0,115,0.97,12.7,0.0,1,0.0,0.0,0.0,0,0,0,0,0,,,,,,,,,,,,,,,,,,,,
42243,1646324507303,-0,-0,250,255,235,233,-24,-0.04,-0.01,0.98,-0,-0,-0,0.04,1,64,0,3,20,98,1.498,0.0,115,0.97,12.7,0.0,1,0.0,0.0,0.0,0,0,0,0,0,0,250,250,0,45.93066,5.257569,0.0,224.3,9,3,1.8,0,0.0,-1,0.0,0.0,0.0,0,0.0,0.704
42263,1646324507323,,,250,255,234,233,,-0.04,-0.01,0.98,-0,-0,-0,0.04,,64,0,3,20,98,1.498,0.0,115,0.97,12.8,0.0,1,0.0,0.0,0.0,0,0,0,0,0,,,,,,,,,,,,,,,,,,,,
42283,1646324507343,,,250,255,235,233,,-0.04,-0.01,0.98,-0,-0,-0,0.04,,64,0,3,20,98,1.498,0.0,115,0.97,12.7,0.0,1,0.0,0.0,0.0,0,0,0,0,0,,,,,,,,,,,,,,,,,,,,
42303,1646324507363,,,250,255,235,233,,-0.04,-0.0,0.98,-0,-0,-0,0.05,,64,0,3,20,98,1.498,0.0,115,0.97,12.7,0.0,1,0.0,0.0,0.0,0,0,0,0,0,,,,,,,,,,,,,,,,,,,,
42323,1646324507383,,,250,255,235,233,,-0.05,-0.01,0.98,-0,-0,-0,0.05,,64,0,3,20,98,1.498,0.0,115,0.97,12.7,0.0,1,0.0,0.0,0.0,0,0,0,0,0,,,,,,,,,,,,,,,,,,,,
42343,1646324507403,-1,0,250,255,235,233,-25,-0.05,-0.0,0.98,-0,-0,-0,0.05,1,64,0,3,20,98,1.498,0.0,115,0.97,12.7,0.0,1,0.0,0.0,0.0,0,0,0,0,0,0,250,250,0,45.93066,5.257569,0.0,224.3,9,3,1.8,0,0.0,-1,0.0,,0.0,0,0.0,0.7057
42363,1646324507423,,,250,255,235,232,,-0.04,-0.0,0.98,-0,0,-0,0.05,,64,0,3,20,98,1.498,0.0,115,0.97,12.7,0.0,1,0.0,0.0,0.0,0,0,0,0,0,,,,,,,,,,,,,,,,,,,,
42383,1646324507443,,,250,255,235,232,,-0.04,-0.0,0.98,-0,0,-0,0.04,,64,0,3,20,98,1.498,0.0,115,0.97,12.7,0.0,1,0.0,0.0,0.0,0,0,0,0,0,,,,,,,,,,,,,,,,,,,,
42403,1646324507463,,,250,255,235,233,,-0.04,-0.0,0.98,-0,0,-0,0.04,,64,0,3,20,98,1.498,0.0,115,0.97,12.7,0.0,1,0.0,0.0,0.0,0,0,0,0,0,,,,,,,,,,,,,,,,,,,,
42423,1646324507483,,,250,255,235,233,,-0.04,-0.01,0.98,-0,0,-0,0.04,,64,0,3,20,98,1.498,0.0,115,0.97,12.7,0.0,1,0.0,0.0,0.0,0,0,0,0,0,,,,,,,,,,,,,,,,,,,,
42443,1646324507504,-1,2,250,255,235,233,-24,-0.04,-0.01,0.98,-0,0,-0,0.04,1,64,0,3,20,98,1.498,0.0,115,0.97,12.8,0.0,1,0.0,0.0,0.0,0,0,0,0,0,0,250,250,0,45.93066,5.257569,0.0,224.3,9,3,1.8,0,0.0,-1,0.0,0.0,0.0,0,0.0,0.7074
42463,1646324507524,,,250,255,235,233,,-0.04,-0.01,0.98,-0,0,-0,0.04,,64,0,3,20,98,1.498,0.0,115,0.96,12.7,0.0,1,0.0,0.0,0.0,0,0,0,0,0,,,,,,,,,,,,,,,,,,,,
42483,1646324507544,,,250,255,235,233,,-0.04,-0.01,0.98,-0,0,-0,0.04,,64,0,3,20,98,1.498,0.0,115,0.97,12.7,0.0,1,0.0,0.0,0.0,0,0,0,0,0,,,,,,,,,,,,,,,,,,,,
42503,1646324507564,,,250,255,235,233,,-0.04,-0.01,0.99,-0,0,-0,0.04,,64,0,3,20,98,1.498,0.0,115,0.97,12.7,0.0,1,0.0,0.0,0.0,0,0,0,0,0,,,,,,,,,,,,,,,,,,,,
42523,1646324507584,,,250,255,235,233,,-0.04,-0.0,0.98,-0,0,-0,0.04,,64,0,3,20,98,1.498,0.0,115,0.97,12.7,0.0,1,0.0,0.0,0.0,0,0,0,0,0,,,,,,,,,,,,,,,,,,,,
42543,1646324507602,-0,-0,250,255,235,232,-24,-0.04,-0.0,0.99,-0,0,-0,0.04,1,64,0,3,20,98,1.498,0.0,115,0.97,12.7,0.0,1,0.0,0.0,0.0,0,0,0,0,0,0,250,250,0,45.93066,5.257569,0.0,224.3,9,3,2.1,0,0.0,-1,0.0,,0.0,0,0.0,0.709
42563,1646324507622,,,250,255,235,233,,-0.04,-0.0,0.99,-0,-0,-0,0.04,,64,0,3,20,98,1.498,0.0,115,0.97,12.7,0.0,1,0.0,0.0,0.0,0,0,0,0,0,,,,,,,,,,,,,,,,,,,,
42583,1646324507642,,,250,255,235,233,,-0.04,-0.0,0.99,-0,0,-0,0.04,,64,0,3,20,98,1.498,0.0,115,0.97,12.7,0.0,1,0.0,0.0,0.0,0,0,0,0,0,,,,,,,,,,,,,,,,,,,,
42603,1646324507662,,,250,255,235,233,,-0.04,-0.0,0.99,-0,0,-0,0.04,,64,0,3,20,98,1.498,0.0,115,0.97,12.7,0.0,1,0.0,0.0,0.0,0,0,0,0,0,,,,,,,,,,,,,,,,,,,,
42623,1646324507682,,,250,255,235,233,,-0.04,-0.0,0.98,-0,0,-0,0.04,,64,0,3,20,98,1.498,0.0,115,0.97,12.8,0.0,1,0.0,0.0,0.0,0,0,0,0,0,,,,,,,,,,,,,,,,,,,,
42643,1646324507704,-0,0,250,255,235,233,-24,-0.04,-0.0,0.98,-0,0,-0,0.04,1,64,0,3,20,98,1.498,0.0,115,0.97,12.7,0.0,1,0.0,0.0,0.0,0,0,0,0,0,0,250,250,0,45.93066,5.257569,0.0,224.3,9,3,1.8,0,0.0,-1,0.0,0.0,0.0,0,0.0,0.7107
42663,1646324507724,,,250,255,235,233,,-0.04,-0.0,0.99,-0,-0,-0,0.04,,64,0,3,20,98,1.498,0.0,115,0.97,12.8,0.0,1,0.0,0.0,0.0,0,0,0,0,0,,,,,,,,,,,,,,,,,,,,
42683,1646324507744,,,250,255,235,233,,-0.04,-0.0,0.99,-0,0,-0,0.04,,64,0,3,20,98,1.498,0.0,116,0.97,12.7,0.0,1,0.0,0.0,0.0,0,0,0,0,0,,,,,,,,,,,,,,,,,,,,
42703,1646324507764,,,250,255,235,233,,-0.04,-0.0,0.99,-0,0,-0,0.04,,64,0,3,20,98,1.498,0.0,115,0.97,12.7,0.0,1,0.0,0.0,0.0,0,0,0,0,0,,,,,,,,,,,,,,,,,,,,
42723,1646324507784,,,250,255,235,232,,-0.04,-0.0,0.99,-0,-0,-0,0.04,,64,0,3,20,98,1.498,0.0,115,0.97,12.7,0.0,1,0.0,0.0,0.0,0,0,0,0,0,,,,,,,,,,,,,,,,,,,,
42743,1646324507804,-1,1,250,255,235,233,-24,-0.04,-0.0,0.99,-0,-0,-0,0.04,1,64,0,3,20,98,1.498,0.0,115,0.97,12.7,0.0,1,0.0,0.0,0.0,0,0,0,0,0,0,250,250,0,45.93066,5.257569,0.0,224.3,9,3,1.8,0,0.0,-1,0.0,,0.0,0,0.0,0.7124
42763,1646324507824,,,250,255,235,233,,-0.04,-0.0,0.98,-0,-0,-0,0.04,,64,0,3,20,98,1.498,0.0,115,0.97,12.7,0.0,1,0.0,0.0,0.0,0,0,0,0,0,,,,,,,,,,,,,,,,,,,,
42783,1646324507844,,,250,255,235,232,,-0.04,-0.0,0.98,-0,0,-0,0.04,,64,0,3,20,98,1.498,0.0,115,0.97,12.7,0.0,1,0.0,0.0,0.0,0,0,0,0,0,,,,,,,,,,,,,,,,,,,,
42803,1646324507864,,,250,255,235,232,,-0.04,-0.0,0.99,-0,0,-0,0.04,,64,0,3,20,98,1.498,0.0,115,0.97,12.8,0.0,1,0.0,0.0,0.0,0,0,0,0,0,,,,,,,,,,,,,,,,,,,,
42823,1646324507884,,,250,255,235,233,,-0.04,-0.0,0.99,-0,-0,-0,0.04,,64,0,3,20,98,1.498,0.0,115,0.97,12.7,0.0,1,0.0,0.0,0.0,0,0,0,0,0,,,,,,,,,,,,,,,,,,,,
42843,1646324507904,-0,-0,250,255,235,233,-24,-0.04,-0.0,0.98,-0,0,-0,0.04,1,64,0,3,20,98,1.498,0.0,115,0.97,12.7,0.0,1,0.0,0.0,0.0,0,0,0,0,0,0,250,250,0,45.93066,5.257569,0.0,224.3,9,3,1.8,0,0.0,-1,0.0,0.0,0.0,0,0.0,0.714
42863,1646324507924,,,250,255,235,233,,-0.04,-0.0,0.98,-0,0,-0,0.04,,64,0,3,20,98,1.498,0.0,115,0.97,12.7,0.0,1,0.0,0.0,0.0,0,0,0,0,0,,,,,,,,,,,,,,,,,,,,
42883,1646324507944,,,250,255,235,233,,-0.04,-0.01,0.98,-0,0,-0,0.04,,64,0,3,20,98,1.498,0.0,115,0.97,12.7,0.0,1,0.0,0.0,0.0,0,0,0,0,0,,,,,,,,,,,,,,,,,,,,
42903,1646324507964,,,250,255,235,233,,-0.04,-0.01,0.99,-0,0,-0,0.04,,64,0,3,20,98,1.498,0.0,115,0.97,12.7,0.0,1,0.0,0.0,0.0,0,0,0,0,0,,,,,,,,,,,,,,,,,,,,
42923,1646324507984,,,250,255,235,233,,-0.04,-0.01,0.99,-0,0,-0,0.04,,64,0,3,20,98,1.498,0.0,115,0.97,12.7,0.0,1,0.0,0.0,0.0,0,0,0,0,0,,,,,,,,,,,,,,,,,,,,
42943,1646324507998,-1,2,250,255,235,233,-24,-0.04,-0.01,0.99,-0,0,-0,0.04,1,64,0,3,20,98,1.498,0.0,115,0.97,12.7,0.0,1,0.0,0.0,0.0,0,0,0,0,0,0,250,250,0,45.93066,5.257569,0.0,224.3,9,3,1.6,0,0.0,-1,0.0,,0.0,0,0.0,0.7157
42963,1646324508018,,,250,255,235,233,,-0.04,-0.01,0.98,-0,0,-0,0.04,,64,0,3,20,98,1.498,0.0,115,0.97,12.8,0.0,1,0.0,0.0,0.0,0,0,0,0,0,,,,,,,,,,,,,,,,,,,,
42983,1646324508038,,,250,254,235,232,,-0.04,-0.01,0.98,-0,0,-0,0.04,,64,0,3,20,98,1.498,0.0,115,0.97,12.7,0.0,1,0.0,0.0,0.0,0,0,0,0,0,,,,,,,,,,,,,,,,,,,,
43003,1646324508058,,,250,255,235,233,,-0.04,-0.01,0.98,-0,0,-0,0.04,,64,0,3,20,98,1.498,0.0,115,0.97,12.7,0.0,1,0.0,0.0,0.0,0,0,0,0,0,,,,,,,,,,,,,,,,,,,,
43023,1646324508078,,,250,255,235,233,,-0.04,-0.01,0.98,-0,0,-0,0.04,,64,0,3,20,98,1.498,0.0,115,0.97,12.7,0.0,1,0.0,0.0,0.0,0,0,0,0,0,,,,,,,,,,,,,,,,,,,,
43043,1646324508104,-1,1,250,255,235,233,-25,-0.04,-0.01,0.98,-0,0,-0,0.04,1,64,0,3,20,98,1.498,0.0,115,0.97,12.7,0.0,1,0.0,0.0,0.0,0,0,0,0,0,0,250,250,0,45.93066,5.257569,0.0,224.3,9,3,1.6,0,0.0,-1,0.0,0.0,0.0,0,0.0,0.7174
43063,1646324508124,,,250,255,235,233,,-0.04,-0.01,0.98,-0,0,-0,0.05,,64,0,3,20,98,1.498,0.0,115,0.96,12.7,0.0,1,0.0,0.0,0.0,0,0,0,0,0,,,,,,,,,,,,,,,,,,,,
43083,1646324508144,,,250,255,235,232,,-0.04,-0.01,0.98,-0,0,-0,0.05,,64,0,3,20,98,1.498,0.0,115,0.97,12.7,0.0,1,0.0,0.0,0.0,0,0,0,0,0,,,,,,,,,,,,,,,,,,,,
43103,1646324508164,,,250,255,235,232,,-0.04,-0.01,0.98,-0,0,-0,0.04,,64,0,3,20,98,1.498,0.0,115,0.97,12.7,0.0,1,0.0,0.0,0.0,0,0,0,0,0,,,,,,,,,,,,,,,,,,,,
43123,1646324508184,,,250,255,235,233,,-0.04,-0.01,0.98,-0,0,-0,0.04,,64,0,3,20,98,1.498,0.0,115,0.97,12.7,0.0,1,0.0,0.0,0.0,0,0,0,0,0,,,,,,,,,,,,,,,,,,,,
43143,1646324508204,-1,1,250,255,235,233,-24,-0.04,-0.01,0.98,-0,0,-0,0.04,1,64,0,3,20,98,1.498,0.0,115,0.97,12.8,0.0,1,0.0,0.0,0.0,0,0,0,0,0,0,250,250,0,45.93066,5.257569,0.0,224.3,9,3,1.6,0,0.0,-1,0.0,,0.0,0,0.0,0.719
43163,1646324508224,,,250,255,235,233,,-0.04,-0.01,0.98,-0,0,-0,0.04,,64,0,3,20,98,1.498,0.0,115,0.97,12.7,0.0,1,0.0,0.0,0.0,0,0,0,0,0,,,,,,,,,,,,,,,,,,,,
43183,1646324508244,,,250,255,235,232,,-0.04,-0.01,0.98,-0,0,-0,0.04,,64,0,3,20,98,1.498,0.0,115,0.97,12.7,0.0,1,0.0,0.0,0.0,0,0,0,0,0,,,,,,,,,,,,,,,,,,,,
43203,1646324508264,,,250,255,235,233,,-0.04,-0.01,0.98,-0,0,-0,0.04,,64,0,3,20,98,1.498,0.0,116,0.97,12.7,0.0,1,0.0,0.0,0.0,0,0,0,0,0,,,,,,,,,,,,,,,,,,,,
43223,1646324508284,,,250,255,235,233,,-0.04,-0.01,0.98,-0,0,-0,0.04,,64,0,3,20,98,1.498,0.0,115,0.97,12.7,0.0,1,0.0,0.0,0.0,0,0,0,0,0,,,,,,,,,,,,,,,,,,,,
43243,1646324508300,-0,2,250,255,235,233,-24,-0.04,-0.01,0.98,-0,0,-0,0.04,1,64,0,3,20,98,1.498,0.0,115,0.97,12.7,0.0,1,0.0,0.0,0.0,0,0,0,0,0,0,250,250,0,45.93066,5.257569,0.0,224.3,9,3,1.6,0,0.0,-1,0.0,0.0,0.0,0,0.0,0.7207
43263,1646324508320,,,250,255,235,233,,-0.04,-0.0,0.98,-0,0,-0,0.04,,64,0,3,20,98,1.498,0.0,115,0.97,12.7,0.0,1,0.0,0.0,0.0,0,0,0,0,0,,,,,,,,,,,,,,,,,,,,
43283,1646324508340,,,250,255,235,233,,-0.04,-0.0,0.98,-0,0,-0,0.04,,64,0,3,20,98,1.498,0.0,115,0.97,12.8,0.0,1,0.0,0.0,0.0,0,0,0,0,0,,,,,,,,,,,,,,,,,,,,
43303,1646324508360,,,250,255,235,232,,-0.04,-0.0,0.98,-0,0,-0,0.04,,64,0,3,20,97,1.498,0.0,115,0.97,12.7,0.0,1,0.0,0.0,0.0,0,0,0,0,0,,,,,,,,,,,,,,,,,,,,
43323,1646324508380,,,250,255,235,233,,-0.04,-0.0,0.98,-0,0,-0,0.04,,64,0,3,20,98,1.498,0.0,115,0.97,12.7,0.0,1,0.0,0.0,0.0,0,0,0,0,0,,,,,,,,,,,,,,,,,,,,
43343,1646324508404,-0,-0,250,255,235,233,-24,-0.04,-0.0,0.98,-0,0,-0,0.04,1,64,0,3,20,98,1.498,0.0,115,0.97,12.7,0.0,1,0.0,0.0,0.0,0,0,0,0,0,0,250,250,0,45.93066,5.257569,0.0,224.3,9,3,1.6,0,0.0,-1,0.0,,0.0,0,0.0,0.7224
43363,1646324508424,,,250,255,235,232,,-0.04,-0.01,0.98,-0,0,-0,0.04,,64,0,3,20,98,1.498,0.0,115,0.96,12.7,0.0,1,0.0,0.0,0.0,0,0,0,0,0,,,,,,,,,,,,,,,,,,,,
43383,1646324508444,,,250,255,235,233,,-0.04,-0.01,0.98,-0,0,-0,0.04,,64,0,3,20,98,1.498,0.0,115,0.97,12.7,0.0,1,0.0,0.0,0.0,0,0,0,0,0,,,,,,,,,,,,,,,,,,,,
43403,1646324508464,,,250,255,235,233,,-0.04,-0.0,0.98,-0,0,-0,0.04,,64,0,3,20,98,1.498,0.0,115,0.97,12.7,0.0,1,0.0,0.0,0.0,0,0,0,0,0,,,,,,,,,,,,,,,,,,,,
43423,1646324508484,,,250,255,235,233,,-0.04,-0.0,0.98,-0,0,-0,0.04,,64,0,3,20,98,1.498,0.0,115,0.97,12.7,0.0,1,0.0,0.0,0.0,0,0,0,0,0,,,,,,,,,,,,,,,,,,,,
43443,1646324508503,-1,2,250,255,235,233,-24,-0.04,-0.01,0.98,-0,0,-0,0.04,1,64,0,3,20,98,1.498,0.0,115,0.97,12.7,0.0,1,0.0,0.0,0.0,0,0,0,0,0,0,250,250,0,45.93066,5.257569,0.0,224.3,9,3,1.6,0,0.0,-1,0.0,0.0,0.0,0,0.0,0.724
43463,1646324508523,,,250,255,235,233,,-0.04,-0.01,0.98,-0,0,-0,0.04,,64,0,3,20,98,1.498,0.0,115,0.97,12.7,0.0,1,0.0,0.0,0.0,0,0,0,0,0,,,,,,,,,,,,,,,,,,,,
43483,1646324508543,,,250,255,235,233,,-0.04,-0.01,0.98,-0,0,-0,0.04,,64,0,3,20,98,1.498,0.0,115,0.97,12.7,0.0,1,0.0,0.0,0.0,0,0,0,0,0,,,,,,,,,,,,,,,,,,,,
43503,1646324508563,,,250,255,235,233,,-0.04,-0.0,0.98,-0,-0,-0,0.04,,64,0,3,20,98,1.498,0.0,115,0.97,12.7,0.0,1,0.0,0.0,0.0,0,0,0,0,0,,,,,,,,,,,,,,,,,,,,
43523,1646324508583,,,250,255,235,233,,-0.04,-0.01,0.98,-0,-0,-0,0.04,,64,0,3,20,98,1.498,0.0,115,0.97,12.7,0.0,1,0.0,0.0,0.0,0,0,0,0,0,,,,,,,,,,,,,,,,,,,,
43543,1646324508603,-2,2,250,253,235,233,-24,-0.05,-0.01,0.98,-0,-0,-0,0.05,1,64,0,3,20,98,1.498,0.0,115,0.97,12.7,0.0,1,0.0,0.0,0.0,0,0,0,0,0,0,250,250,0,45.93066,5.257569,0.0,224.3,9,3,1.6,0,0.0,-1,0.0,,0.0,0,0.0,0.7257
43563,1646324508623,,,250,252,235,233,,-0.05,-0.01,0.98,-0,-0,-0,0.05,,64,0,3,20,98,1.498,0.0,115,0.97,12.7,0.0,1,0.0,0.0,0.0,0,0,0,0,0,,,,,,,,,,,,,,,,,,,,
43583,1646324508643,,,250,252,235,233,,-0.05,-0.0,0.98,-0,-0,0,0.05,,64,0,3,20,98,1.498,0.0,115,0.97,12.7,0.0,1,0.0,0.0,0.0,0,0,0,0,0,,,,,,,,,,,,,,,,,,,,
43603,1646324508663,,,250,252,235,232,,-0.05,-0.0,0.98,-0,-0,0,0.05,,64,0,3,20,98,1.498,0.0,115,0.97,12.7,0.0,1,0.0,0.0,0.0,0,0,0,0,0,,,,,,,,,,,,,,,,,,,,
43623,1646324508683,,,250,253,235,233,,-0.05,-0.0,0.98,-0,-0,0,0.05,,64,0,3,20,98,1.498,0.0,115,0.97,12.7,0.0,1,0.0,0.0,0.0,0,0,0,0,0,,,,,,,,,,,,,,,,,,,,
43643,1646324508703,-1,2,250,253,235,233,-24,-0.05,-0.0,0.98,-0,-0,0,0.05,1,64,0,3,20,98,1.498,0.0,115,0.97,12.8,0.0,1,0.0,0.0,0.0,0,0,0,0,0,0,250,250,0,45.93066,5.257569,0.0,224.3,9,3,1.6,0,0.0,-1,0.0,0.0,0.0,0,0.0,0.7274
43663,1646324508723,,,250,253,235,233,,-0.05,-0.0,0.98,-0,-0,-0,0.05,,64,0,3,20,98,1.498,0.0,115,0.96,12.7,0.0,1,0.0,0.0,0.0,0,0,0,0,0,,,,,,,,,,,,,,,,,,,,
43683,1646324508743,,,250,253,235,232,,-0.05,-0.0,0.98,-0,-0,-0,0.05,,64,0,3,20,98,1.498,0.0,115,0.97,12.7,0.0,1,0.0,0.0,0.0,0,0,0,0,0,,,,,,,,,,,,,,,,,,,,
43703,1646324508763,,,250,253,235,233,,-0.05,-0.0,0.98,-0,-0,-0,0.05,,64,0,3,20,98,1.498,0.0,115,0.97,12.7,0.0,1,0.0,0.0,0.0,0,0,0,0,0,,,,,,,,,,,,,,,,,,,,
43723,1646324508783,,,250,253,235,233,,-0.05,-0.0,0.98,-0,-0,-0,0.05,,64,0,3,20,98,1.498,0.0,115,0.96,12.7,0.0,1,0.0,0.0,0.0,0,0,0,0,0,,,,,,,,,,,,,,,,,,,,
43743,1646324508803,-2,2,250,252,235,233,-25,-0.05,-0.0,0.98,-0,-0,-0,0.05,1,64,0,3,20,98,1.498,0.0,115,0.97,12.7,0.0,1,0.0,0.0,0.0,0,0,0,0,0,0,250,250,0,45.93066,5.257569,0.0,224.3,9,3,1.6,0,0.0,-1,0.0,,0.0,0,0.0,0.729
43763,1646324508823,,,250,252,235,233,,-0.05,-0.0,0.98,-0,-0,-0,0.05,,64,0,3,20,98,1.498,0.0,115,0.97,12.7,0.0,1,0.0,0.0,0.0,0,0,0,0,0,,,,,,,,,,,,,,,,,,,,
43783,1646324508843,,,250,252,235,232,,-0.05,-0.0,0.99,-0,-0,-0,0.05,,64,0,3,20,98,1.498,0.0,114,0.97,12.7,0.0,1,0.0,0.0,0.0,0,0,0,0,0,,,,,,,,,,,,,,,,,,,,
43803,1646324508863,,,250,253,235,233,,-0.05,-0.0,0.99,-0,-0,-0,0.05,,64,0,3,20,98,1.498,0.0,114,0.97,12.8,0.0,1,0.0,0.0,0.0,0,0,0,0,0,,,,,,,,,,,,,,,,,,,,
43823,1646324508883,,,250,252,235,233,,-0.04,-0.0,0.99,-0,-0,-0,0.04,,64,0,3,20,98,1.498,0.0,114,0.97,12.7,0.0,1,0.0,0.0,0.0,0,0,0,0,0,,,,,,,,,,,,,,,,,,,,
43843,1646324508903,-1,2,250,252,235,233,-25,-0.04,-0.0,0.99,-0,-0,-0,0.04,1,64,0,3,20,98,1.498,0.0,115,0.97,12.7,0.0,1,0.0,0.0,0.0,0,0,0,0,0,0,250,250,0,45.93066,5.257569,0.0,224.3,9,3,1.6,0,0.0,-1,0.0,0.0,0.0,0,0.0,0.7307
43863,1646324508923,,,250,252,235,233,,-0.04,-0.0,0.99,-0,-0,-0,0.04,,64,0,3,20,98,1.498,0.0,115,0.97,12.7,0.0,1,0.0,0.0,0.0,0,0,0,0,0,,,,,,,,,,,,,,,,,,,,
43883,1646324508943,,,250,252,235,233,,-0.04,-0.0,0.99,-0,-0,-0,0.04,,64,0,3,20,98,1.498,0.0,115,0.97,12.7,0.0,1,0.0,0.0,0.0,0,0,0,0,0,,,,,,,,,,,,,,,,,,,,
43903,1646324508963,,,250,252,235,233,,-0.04,-0.0,0.99,-0,-0,-0,0.04,,64,0,3,20,98,1.498,0.0,115,0.97,12.7,0.0,1,0.0,0.0,0.0,0,0,0,0,0,,,,,,,,,,,,,,,,,,,,
43923,1646324508983,,,250,252,235,233,,-0.04,-0.0,0.99,-0,-0,-0,0.04,,64,0,3,20,98,1.498,0.0,115,0.97,12.7,0.0,1,0.0,0.0,0.0,0,0,0,0,0,,,,,,,,,,,,,,,,,,,,
43943,1646324508997,0,1,250,252,235,232,-24,-0.04,-0.0,0.99,-0,-0,-0,0.04,1,64,0,3,20,98,1.498,0.0,115,0.97,12.7,0.0,1,0.0,0.0,0.0,0,0,0,0,0,0,250,250,0,45.93066,5.257569,0.0,224.3,9,3,1.6,0,0.0,-1,0.0,,0.0,0,0.0,0.7324
43963,1646324509017,,,250,252,235,233,,-0.04,-0.0,0.99,-0,-0,-0,0.04,,64,0,3,20,98,1.498,0.0,115,0.97,12.7,0.0,1,0.0,0.0,0.0,0,0,0,0,0,,,,,,,,,,,,,,,,,,,,
43983,1646324509037,,,250,252,235,232,,-0.04,-0.0,0.99,-0,-0,-0,0.04,,64,0,3,20,98,1.498,0.0,115,0.97,12.8,0.0,1,0.0,0.0,0.0,0,0,0,0,0,,,,,,,,,,,,,,,,,,,,
44003,1646324509057,,,250,252,235,232,,-0.04,-0.0,0.99,-0,-0,-0,0.04,,64,0,3,20,98,1.498,0.0,115,0.97,12.8,0.0,1,0.0,0.0,0.0,0,0,0,0,0,,,,,,,,,,,,,,,,,,,,
44023,1646324509077,,,250,252,235,233,,-0.04,-0.0,0.99,-0,-0,-0,0.04,,64,0,3,20,98,1.498,0.0,115,0.97,12.7,0.0,1,0.0,0.0,0.0,0,0,0,0,0,,,,,,,,,,,,,,,,,,,,
44043,1646324509103,-1,4,250,253,235,233,-25,-0.04,-0.0,0.99,-0,-0,-0,0.04,1,64,0,3,20,98,1.498,0.0,115,0.97,12.7,0.0,1,0.0,0.0,0.0,0,0,0,0,0,0,250,250,0,45.93066,5.257569,0.0,224.3,9,3,1.6,0,0.0,-1,0.0,0.0,0.0,0,0.0,0.734
44063,1646324509123,,,250,253,235,233,,-0.04,-0.0,0.99,-0,0,-0,0.04,,64,0,3,20,98,1.498,0.0,115,0.97,12.7,0.0,1,0.0,0.0,0.0,0,0,0,0,0,,,,,,,,,,,,,,,,,,,,
44083,1646324509143,,,250,253,235,233,,-0.04,-0.0,0.99,-0,0,-0,0.04,,64,0,3,20,98,1.498,0.0,115,0.97,12.7,0.0,1,0.0,0.0,0.0,0,0,0,0,0,,,,,,,,,,,,,,,,,,,,
44103,1646324509163,,,250,253,235,233,,-0.04,-0.0,0.99,-0,0,-0,0.04,,64,0,3,20,98,1.498,0.0,115,0.97,12.7,0.0,1,0.0,0.0,0.0,0,0,0,0,0,,,,,,,,,,,,,,,,,,,,
44123,1646324509183,,,250,252,235,233,,-0.04,-0.0,0.99,-0,0,-0,0.04,,64,0,3,20,98,1.498,0.0,115,0.97,12.7,0.0,1,0.0,0.0,0.0,0,0,0,0,0,,,,,,,,,,,,,,,,,,,,
44143,1646324509205,-1,5,250,252,235,233,-24,-0.04,-0.0,0.99,-0,0,-0,0.04,1,64,0,3,20,98,1.498,0.0,115,0.97,12.7,0.0,1,0.0,0.0,0.0,0,0,0,0,0,0,250,250,0,45.93066,5.257569,0.0,224.3,9,3,1.6,0,0.0,-1,0.0,,0.0,0,0.0,0.7357
44163,1646324509225,,,250,252,235,232,,-0.04,-0.0,0.99,-0,0,-0,0.04,,64,0,3,20,98,1.498,0.0,115,0.97,12.7,0.0,1,0.0,0.0,0.0,0,0,0,0,0,,,,,,,,,,,,,,,,,,,,
44183,1646324509245,,,250,253,235,233,,-0.05,-0.0,0.98,-0,0,-0,0.05,,64,0,3,20,98,1.498,0.0,115,0.97,12.7,0.0,1,0.0,0.0,0.0,0,0,0,0,0,,,,,,,,,,,,,,,,,,,,
44203,1646324509265,,,250,253,235,233,,-0.04,-0.0,0.98,-0,0,-0,0.05,,64,0,3,20,98,1.498,0.0,115,0.97,12.7,0.0,1,0.0,0.0,0.0,0,0,0,0,0,,,,,,,,,,,,,,,,,,,,
44223,1646324509285,,,250,252,235,232,,-0.04,-0.0,0.98,-0,0,-0,0.04,,64,0,3,20,98,1.498,0.0,115,0.97,12.7,0.0,1,0.0,0.0,0.0,0,0,0,0,0,,,,,,,,,,,,,,,,,,,,
44243,1646324509303,0,4,250,252,235,233,-24,-0.04,-0.0,0.99,-0,0,-0,0.04,1,64,0,3,20,98,1.498,0.0,115,0.97,12.7,0.0,1,0.0,0.0,0.0,0,0,0,0,0,0,250,250,0,45.93066,5.257569,0.0,224.3,9,3,1.6,0,0.0,-1,0.0,0.0,0.0,0,0.0,0.7374
44263,1646324509323,,,250,252,235,233,,-0.04,-0.0,0.99,-0,0,-0,0.04,,64,0,3,20,98,1.498,0.0,115,0.96,12.7,0.0,1,0.0,0.0,0.0,0,0,0,0,0,,,,,,,,,,,,,,,,,,,,
44283,1646324509343,,,250,252,235,233,,-0.04,-0.0,0.99,-0,-0,-0,0.04,,64,0,3,20,98,1.498,0.0,115,0.97,12.7,0.0,1,0.0,0.0,0.0,0,0,0,0,0,,,,,,,,,,,,,,,,,,,,
44303,1646324509363,,,250,252,235,232,,-0.04,-0.0,0.99,-0,-0,-0,0.04,,64,0,3,20,98,1.498,0.0,115,0.97,12.8,0.0,1,0.0,0.0,0.0,0,0,0,0,0,,,,,,,,,,,,,,,,,,,,
44323,1646324509383,,,250,252,235,233,,-0.04,-0.0,0.99,-0,-0,-0,0.04,,64,0,3,20,98,1.498,0.0,116,0.96,12.7,0.0,1,0.0,0.0,0.0,0,0,0,0,0,,,,,,,,,,,,,,,,,,,,
44343,1646324509401,-0,3,250,252,235,233,-24,-0.04,-0.0,0.99,-0,-0,-0,0.04,1,64,0,3,20,98,1.498,0.0,115,0.97,12.7,0.0,1,0.0,0.0,0.0,0,0,0,0,0,0,250,250,0,45.93066,5.257569,0.0,224.3,9,3,1.6,0,0.0,-1,0.0,,0.0,0,0.0,0.739
44363,1646324509421,,,250,252,235,232,,-0.04,-0.0,0.99,-0,-0,-0,0.04,,64,0,3,20,98,1.498,0.0,115,0.97,12.7,0.0,1,0.0,0.0,0.0,0,0,0,0,0,,,,,,,,,,,,,,,,,,,,
44383,1646324509441,,,250,252,235,233,,-0.04,-0.0,0.99,-0,-0,-0,0.04,,64,0,3,20,98,1.498,0.0,115,0.97,12.7,0.0,1,0.0,0.0,0.0,0,0,0,0,0,,,,,,,,,,,,,,,,,,,,
44403,1646324509461,,,250,252,235,233,,-0.04,-0.0,0.99,-0,-0,-0,0.04,,64,0,3,20,98,1.498,0.0,115,0.97,12.7,0.0,1,0.0,0.0,0.0,0,0,0,0,0,,,,,,,,,,,,,,,,,,,,
44423,1646324509481,,,250,252,235,232,,-0.04,-0.0,0.99,-0,0,-0,0.04,,64,0,3,20,98,1.498,0.0,115,0.97,12.7,0.0,1,0.0,0.0,0.0,0,0,0,0,0,,,,,,,,,,,,,,,,,,,,
44443,1646324509502,-0,3,250,252,235,233,-25,-0.04,-0.0,0.99,-0,-0,-0,0.04,1,64,0,3,20,98,1.498,0.0,115,0.97,12.7,0.0,1,0.0,0.0,0.0,0,0,0,0,0,0,250,250,0,45.93066,5.257569,0.0,224.3,9,3,1.6,0,0.0,-1,0.0,0.0,0.0,0,0.0,0.7407
44463,1646324509522,,,250,252,235,232,,-0.04,-0.0,0.99,-0,0,-0,0.04,,64,0,3,20,98,1.498,0.0,115,0.97,12.7,0.0,1,0.0,0.0,0.0,0,0,0,0,0,,,,,,,,,,,,,,,,,,,,
44483,1646324509542,,,250,252,235,233,,-0.04,-0.0,0.99,-0,0,-0,0.04,,64,0,3,20,98,1.498,0.0,115,0.97,12.8,0.0,1,0.0,0.0,0.0,0,0,0,0,0,,,,,,,,,,,,,,,,,,,,
44503,1646324509562,,,250,252,235,232,,-0.04,-0.0,0.99,-0,0,-0,0.04,,64,0,3,20,98,1.498,0.0,115,0.97,12.8,0.0,1,0.0,0.0,0.0,0,0,0,0,0,,,,,,,,,,,,,,,,,,,,
44523,1646324509582,,,250,252,235,232,,-0.04,-0.0,0.99,-0,0,-0,0.04,,64,0,3,20,98,1.498,0.0,115,0.97,12.7,0.0,1,0.0,0.0,0.0,0,0,0,0,0,,,,,,,,,,,,,,,,,,,,
44543,1646324509602,-1,4,250,252,235,233,-24,-0.04,-0.0,0.99,-0,-0,-0,0.04,1,64,0,3,20,98,1.498,0.0,115,0.97,12.7,0.0,1,0.0,0.0,0.0,0,0,0,0,0,0,250,250,0,45.93066,5.257569,0.0,224.3,9,3,1.6,0,0.0,-1,0.0,,0.0,0,0.0,0.7424
44563,1646324509622,,,250,252,235,233,,-0.04,-0.0,0.99,-0,-0,-0,0.04,,64,0,3,20,98,1.498,0.0,115,0.96,12.7,0.0,1,0.0,0.0,0.0,0,0,0,0,0,,,,,,,,,,,,,,,,,,,,
44583,1646324509642,,,250,252,235,233,,-0.04,-0.0,0.99,-0,-0,-0,0.04,,64,0,3,20,98,1.498,0.0,116,0.97,12.7,0.0,1,0.0,0.0,0.0,0,0,0,0,0,,,,,,,,,,,,,,,,,,,,
44603,1646324509662,,,250,252,235,232,,-0.04,-0.0,0.98,-0,-0,-0,0.04,,64,0,3,20,98,1.498,0.0,115,0.97,12.7,0.0,1,0.0,0.0,0.0,0,0,0,0,0,,,,,,,,,,,,,,,,,,,,
44623,1646324509682,,,250,252,235,233,,-0.04,-0.0,0.98,-0,-0,-0,0.04,,64,0,3,20,98,1.498,0.0,115,0.97,12.7,0.0,1,0.0,0.0,0.0,0,0,0,0,0,,,,,,,,,,,,,,,,,,,,
44643,1646324509700,-1,4,250,252,235,233,-24,-0.04,-0.0,0.98,-0,-0,-0,0.04,1,64,0,3,20,98,1.498,0.0,115,0.97,12.7,0.0,1,0.0,0.0,0.0,0,0,0,0,0,0,250,250,0,45.93066,5.257569,0.0,224.3,9,3,1.6,0,0.0,-1,0.0,0.0,0.0,0,0.0,0.7441
44663,1646324509720,,,250,252,235,233,,-0.04,-0.0,0.98,-0,-0,-0,0.04,,64,0,3,20,98,1.498,0.0,115,0.97,12.8,0.0,1,0.0,0.0,0.0,0,0,0,0,0,,,,,,,,,,,,,,,,,,,,
44683,1646324509740,,,250,252,235,233,,-0.04,-0.0,0.98,-0,-0,-0,0.04,,64,0,3,20,98,1.498,0.0,115,0.97,12.8,0.0,1,0.0,0.0,0.0,0,0,0,0,0,,,,,,,,,,,,,,,,,,,,
44703,1646324509760,,,250,252,235,233,,-0.04,-0.0,0.98,-0,-0,-0,0.04,,64,0,3,20,98,1.498,0.0,115,0.97,12.7,0.0,1,0.0,0.0,0.0,0,0,0,0,0,,,,,,,,,,,,,,,,,,,,
44723,1646324509780,,,250,252,235,233,,-0.04,-0.01,0.98,-0,-0,-0,0.04,,64,0,3,20,98,1.498,0.0,115,0.97,12.7,0.0,1,0.0,0.0,0.0,0,0,0,0,0,,,,,,,,,,,,,,,,,,,,
44743,1646324509802,-1,4,250,252,235,233,-24,-0.04,-0.01,0.98,-0,-0,-0,0.04,1,64,0,3,20,98,1.498,0.0,115,0.97,12.7,0.0,1,0.0,0.0,0.0,0,0,0,0,0,0,250,250,0,45.93066,5.257569,0.0,224.3,9,3,1.6,0,0.0,-1,0.0,,0.0,0,0.0,0.7457
44763,1646324509822,,,250,252,235,233,,-0.04,-0.0,0.98,-0,-0,-0,0.04,,64,0,3,20,98,1.498,0.0,115,0.97,12.7,0.0,1,0.0,0.0,0.0,0,0,0,0,0,,,,,,,,,,,,,,,,,,,,
44783,1646324509842,,,250,252,235,233,,-0.04,-0.0,0.98,-0,-0,-0,0.04,,64,0,3,20,98,1.498,0.0,115,0.97,12.7,0.0,1,0.0,0.0,0.0,0,0,0,0,0,,,,,,,,,,,,,,,,,,,,
44803,1646324509862,,,250,252,235,232,,-0.04,-0.0,0.98,-0,0,-0,0.04,,64,0,3,20,98,1.498,0.0,115,0.97,12.7,0.0,1,0.0,0.0,0.0,0,0,0,0,0,,,,,,,,,,,,,,,,,,,,
44823,1646324509882,,,250,252,235,233,,-0.04,-0.0,0.98,-0,0,-0,0.04,,64,0,3,20,98,1.498,0.0,115,0.97,12.7,0.0,1,0.0,0.0,0.0,0,0,0,0,0,,,,,,,,,,,,,,,,,,,,
44843,1646324509904,-0,3,250,252,235,233,-25,-0.04,-0.0,0.98,-0,0,-0,0.04,1,64,0,3,20,98,1.498,0.0,115,0.97,12.8,0.0,1,0.0,0.0,0.0,0,0,0,0,0,0,250,250,0,45.93066,5.257569,0.0,224.3,9,3,1.6,0,0.0,-1,0.0,0.0,0.0,0,0.0,0.7474
44863,1646324509924,,,250,251,235,233,,-0.04,-0.01,0.98,-0,0,-0,0.04,,64,0,3,20,98,1.498,0.0,115,0.97,12.7,0.0,1,0.0,0.0,0.0,0,0,0,0,0,,,,,,,,,,,,,,,,,,,,
44883,1646324509944,,,250,252,235,232,,-0.04,-0.01,0.98,-0,0,-0,0.04,,64,0,3,20,98,1.498,0.0,115,0.97,12.7,0.0,1,0.0,0.0,0.0,0,0,0,0,0,,,,,,,,,,,,,,,,,,,,
44903,1646324509964,,,250,252,235,233,,-0.04,-0.01,0.98,-0,0,-0,0.04,,64,0,3,20,98,1.498,0.0,116,0.97,12.7,0.0,1,0.0,0.0,0.0,0,0,0,0,0,,,,,,,,,,,,,,,,,,,,
44923,1646324509984,,,250,252,235,233,,-0.04,-0.01,0.98,-0,0,-0,0.04,,64,0,3,20,98,1.498,0.0,115,0.97,12.7,0.0,1,0.0,0.0,0.0,0,0,0,0,0,,,,,,,,,,,,,,,,,,,,
44943,1646324509998,-1,4,250,252,235,233,-24,-0.04,-0.0,0.98,-0,0,-0,0.04,1,64,0,3,20,98,1.498,0.0,115,0.97,12.7,0.0,1,0.0,0.0,0.0,0,0,0,0,0,0,250,250,0,45.93066,5.257569,0.0,224.3,9,3,1.6,0,0.0,-1,0.0,,0.0,0,0.0,0.749
44963,1646324510018,,,250,252,235,233,,-0.04,-0.01,0.98,-0,0,-0,0.04,,64,0,3,20,98,1.498,0.0,115,0.97,12.7,0.0,1,0.0,0.0,0.0,0,0,0,0,0,,,,,,,,,,,,,,,,,,,,
44983,1646324510038,,,250,252,235,233,,-0.04,-0.01,0.98,-0,0,-0,0.04,,64,0,3,20,98,1.498,0.0,115,0.97,12.7,0.0,1,0.0,0.0,0.0,0,0,0,0,0,,,,,,,,,,,,,,,,,,,,
45003,1646324510058,,,250,252,235,233,,-0.04,-0.0,0.98,-0,0,-0,0.04,,64,0,3,20,98,1.498,0.0,115,0.97,12.7,0.0,1,0.0,0.0,0.0,0,0,0,0,0,,,,,,,,,,,,,,,,,,,,
45023,1646324510078,,,250,252,235,233,,-0.04,-0.01,0.98,-0,0,-0,0.04,,64,0,3,20,98,1.498,0.0,115,0.97,12.7,0.0,1,0.0,0.0,0.0,0,0,0,0,0,,,,,,,,,,,,,,,,,,,,
45043,1646324510104,-1,4,250,252,235,233,-24,-0.04,-0.0,0.98,-0,0,-0,0.04,1,64,0,3,20,98,1.498,0.0,115,0.97,12.7,0.0,1,0.0,0.0,0.0,0,0,0,0,0,0,250,250,0,45.93066,5.257569,0.0,224.3,9,3,1.6,0,0.0,-1,0.0,0.0,0.0,0,0.0,0.7507
45063,1646324510124,,,250,252,235,233,,-0.04,-0.0,0.98,-0,0,-0,0.04,,64,0,3,20,98,1.498,0.0,115,0.97,12.7,0.0,1,0.0,0.0,0.0,0,0,0,0,0,,,,,,,,,,,,,,,,,,,,
45083,1646324510144,,,250,252,235,233,,-0.04,-0.0,0.98,-0,0,-0,0.04,,64,0,3,20,98,1.498,0.0,115,0.97,12.7,0.0,1,0.0,0.0,0.0,0,0,0,0,0,,,,,,,,,,,,,,,,,,,,
45103,1646324510164,,,250,252,235,233,,-0.04,-0.01,0.98,-0,0,-0,0.04,,64,0,3,20,98,1.498,0.0,115,0.97,12.7,0.0,1,0.0,0.0,0.0,0,0,0,0,0,,,,,,,,,,,,,,,,,,,,
45123,1646324510184,,,250,252,235,232,,-0.04,-0.0,0.98,-0,0,-0,0.04,,64,0,3,20,98,1.498,0.0,115,0.97,12.7,0.0,1,0.0,0.0,0.0,0,0,0,0,0,,,,,,,,,,,,,,,,,,,,
45143,1646324510204,-1,5,250,252,235,233,-24,-0.04,-0.0,0.98,-0,0,-0,0.04,1,64,0,3,20,98,1.498,0.0,115,0.97,12.7,0.0,1,0.0,0.0,0.0,0,0,0,0,0,0,250,250,0,45.93066,5.257569,0.0,224.3,9,3,1.6,0,0.0,-1,0.0,,0.0,0,0.0,0.7524
45163,1646324510224,,,250,252,235,233,,-0.04,-0.0,0.98,-0,0,-0,0.04,,64,0,3,20,98,1.498,0.0,115,0.97,12.7,0.0,1,0.0,0.0,0.0,0,0,0,0,0,,,,,,,,,,,,,,,,,,,,
45183,1646324510244,,,250,252,235,232,,-0.04,-0.0,0.98,-0,0,-0,0.04,,64,0,3,20,98,1.498,0.0,115,0.97,12.7,0.0,1,0.0,0.0,0.0,0,0,0,0,0,,,,,,,,,,,,,,,,,,,,
45203,1646324510264,,,250,252,235,232,,-0.04,-0.0,0.98,-0,0,-0,0.04,,64,0,3,20,98,1.498,0.0,115,0.97,12.7,0.0,1,0.0,0.0,0.0,0,0,0,0,0,,,,,,,,,,,,,,,,,,,,
45223,1646324510284,,,250,252,235,233,,-0.04,-0.0,0.98,-0,0,-0,0.04,,64,0,3,20,98,1.498,0.0,115,0.97,12.7,0.0,1,0.0,0.0,0.0,0,0,0,0,0,,,,,,,,,,,,,,,,,,,,
45243,1646324510304,-0,6,250,252,235,232,-24,-0.04,-0.0,0.98,-0,0,-0,0.04,1,64,0,3,20,98,1.498,0.0,115,0.97,12.7,0.0,1,0.0,0.0,0.0,0,0,0,0,0,0,250,250,0,45.93066,5.257569,0.0,224.3,9,3,1.6,0,0.0,-1,0.0,0.0,0.0,0,0.0,0.754
45263,1646324510324,,,250,252,235,233,,-0.04,-0.0,0.98,-0,-0,-0,0.04,,64,0,3,20,98,1.498,0.0,115,0.97,12.7,0.0,1,0.0,0.0,0.0,0,0,0,0,0,,,,,,,,,,,,,,,,,,,,
45283,1646324510344,,,250,251,235,233,,-0.04,-0.0,0.98,-0,-0,-0,0.04,,64,0,3,20,98,1.498,0.0,115,0.97,12.7,0.0,1,0.0,0.0,0.0,0,0,0,0,0,,,,,,,,,,,,,,,,,,,,
45303,1646324510364,,,250,252,235,233,,-0.04,-0.0,0.98,-0,-0,-0,0.04,,64,0,3,20,98,1.498,0.0,115,0.97,12.7,0.0,1,0.0,0.0,0.0,0,0,0,0,0,,,,,,,,,,,,,,,,,,,,
45323,1646324510384,,,250,252,235,233,,-0.04,-0.0,0.98,-0,-0,-0,0.04,,64,0,3,20,98,1.498,0.0,115,0.97,12.7,0.0,1,0.0,0.0,0.0,0,0,0,0,0,,,,,,,,,,,,,,,,,,,,
45343,1646324510404,-0,6,250,252,235,233,-25,-0.04,-0.0,0.98,-0,-0,-0,0.04,1,64,0,3,20,98,1.498,0.0,115,0.97,12.8,0.0,1,0.0,0.0,0.0,0,0,0,0,0,0,250,250,0,45.93066,5.257569,0.0,224.3,9,3,1.6,0,0.0,-1,0.0,,0.0,0,0.0,0.7557
45363,1646324510424,,,250,252,235,233,,-0.04,-0.0,0.98,-0,-0,-0,0.04,,64,0,3,20,98,1.498,0.0,115,0.97,12.8,0.0,1,0.0,0.0,0.0,0,0,0,0,0,,,,,,,,,,,,,,,,,,,,
45383,1646324510444,,,250,252,235,233,,-0.04,-0.0,0.98,-0,-0,-0,0.04,,64,0,3,20,98,1.498,0.0,115,0.97,12.7,0.0,1,0.0,0.0,0.0,0,0,0,0,0,,,,,,,,,,,,,,,,,,,,
45403,1646324510464,,,250,252,235,233,,-0.04,-0.0,0.98,-0,-0,-0,0.04,,64,0,3,20,98,1.498,0.0,115,0.97,12.7,0.0,1,0.0,0.0,0.0,0,0,0,0,0,,,,,,,,,,,,,,,,,,,,
45423,1646324510484,,,250,252,235,233,,-0.04,-0.0,0.98,-0,-0,-0,0.04,,64,0,3,20,98,1.498,0.0,115,0.97,12.7,0.0,1,0.0,0.0,0.0,0,0,0,0,0,,,,,,,,,,,,,,,,,,,,
45443,1646324510503,0,5,250,252,235,233,-24,-0.04,-0.0,0.98,-0,-0,-0,0.04,1,64,0,3,20,98,1.498,0.0,115,0.97,12.7,0.0,1,0.0,0.0,0.0,0,0,0,0,0,0,250,250,0,45.93066,5.257569,0.0,224.3,9,3,1.6,0,0.0,-1,0.0,0.0,0.0,0,0.0,0.7574
45463,1646324510523,,,250,252,235,233,,-0.04,-0.0,0.98,-0,-0,-0,0.04,,64,0,3,20,98,1.498,0.0,115,0.96,12.7,0.0,1,0.0,0.0,0.0,0,0,0,0,0,,,,,,,,,,,,,,,,,,,,
45483,1646324510543,,,250,252,235,233,,-0.04,-0.0,0.99,-0,-0,-0,0.04,,64,0,3,20,98,1.498,0.0,115,0.97,12.7,0.0,1,0.0,0.0,0.0,0,0,0,0,0,,,,,,,,,,,,,,,,,,,,
45503,1646324510563,,,250,252,235,232,,-0.04,-0.0,0.99,-0,-0,-0,0.04,,64,0,3,20,98,1.498,0.0,115,0.97,12.7,0.0,1,0.0,0.0,0.0,0,0,0,0,0,,,,,,,,,,,,,,,,,,,,
45523,1646324510583,,,250,252,235,232,,-0.04,-0.0,0.99,-0,-0,-0,0.04,,64,0,3,20,98,1.498,0.0,115,0.97,12.7,0.0,1,0.0,0.0,0.0,0,0,0,0,0,,,,,,,,,,,,,,,,,,,,
45543,1646324510603,0,3,250,252,235,232,-24,-0.04,-0.0,0.98,-0,-0,-0,0.04,1,64,0,3,20,98,1.498,0.0,115,0.97,12.7,0.0,1,0.0,0.0,0.0,0,0,0,0,0,0,250,250,0,45.93066,5.257569,0.0,224.3,9,3,1.6,0,0.0,-1,0.0,,0.0,0,0.0,0.759
45563,1646324510623,,,250,252,235,233,,-0.04,-0.0,0.98,-0,-0,-0,0.04,,64,0,3,20,98,1.498,0.0,115,0.97,12.7,0.0,1,0.0,0.0,0.0,0,0,0,0,0,,,,,,,,,,,,,,,,,,,,
45583,1646324510643,,,250,252,235,233,,-0.04,-0.0,0.99,-0,-0,-0,0.04,,64,0,3,20,98,1.498,0.0,115,0.97,12.7,0.0,1,0.0,0.0,0.0,0,0,0,0,0,,,,,,,,,,,,,,,,,,,,
45603,1646324510663,,,250,252,235,232,,-0.04,-0.0,0.99,-0,-0,-0,0.04,,64,0,3,20,98,1.498,0.0,116,0.97,12.7,0.0,1,0.0,0.0,0.0,0,0,0,0,0,,,,,,,,,,,,,,,,,,,,
45623,1646324510683,,,250,252,235,232,,-0.04,-0.0,0.98,-0,-0,-0,0.04,,64,0,3,20,98,1.498,0.0,115,0.97,12.7,0.0,1,0.0,0.0,0.0,0,0,0,0,0,,,,,,,,,,,,,,,,,,,,
45643,1646324510703,-1,5,250,252,235,233,-24,-0.04,-0.0,0.98,-0,-0,-0,0.04,1,64,0,3,20,98,1.498,0.0,115,0.97,12.7,0.0,1,0.0,0.0,0.0,0,0,0,0,0,0,250,250,0,45.93066,5.257569,0.0,224.3,9,3,1.6,0,0.0,-1,0.0,0.0,0.0,0,0.0,0.7607
45663,1646324510723,,,250,252,235,232,,-0.04,-0.0,0.98,-0,-0,-0,0.04,,64,0,3,20,98,1.498,0.0,115,0.97,12.7,0.0,1,0.0,0.0,0.0,0,0,0,0,0,,,,,,,,,,,,,,,,,,,,
45683,1646324510743,,,250,252,235,233,,-0.04,-0.0,0.98,-0,-0,-0,0.04,,64,0,3,20,98,1.498,0.0,115,0.97,12.7,0.0,1,0.0,0.0,0.0,0,0,0,0,0,,,,,,,,,,,,,,,,,,,,
45703,1646324510763,,,250,252,235,233,,-0.04,-0.0,0.99,-0,-0,-0,0.04,,64,0,3,20,98,1.498,0.0,115,0.97,12.8,0.0,1,0.0,0.0,0.0,0,0,0,0,0,,,,,,,,,,,,,,,,,,,,
45723,1646324510783,,,250,252,235,232,,-0.04,-0.0,0.98,-0,-0,-0,0.04,,64,0,3,20,98,1.498,0.0,115,0.97,12.7,0.0,1,0.0,0.0,0.0,0,0,0,0,0,,,,,,,,,,,,,,,,,,,,
45743,1646324510803,-0,5,250,252,235,233,-25,-0.04,-0.0,0.99,-0,-0,-0,0.04,1,64,0,3,20,98,1.498,0.0,115,0.97,12.7,0.0,1,0.0,0.0,0.0,0,0,0,0,0,0,250,250,0,45.93066,5.257569,0.0,224.3,9,3,1.6,0,0.0,-1,0.0,,0.0,0,0.0,0.7624
45763,1646324510823,,,250,252,235,233,,-0.04,-0.0,0.98,-0,-0,-0,0.04,,64,0,3,20,98,1.498,0.0,115,0.97,12.7,0.0,1,0.0,0.0,0.0,0,0,0,0,0,,,,,,,,,,,,,,,,,,,,
45783,1646324510843,,,250,252,235,232,,-0.04,-0.01,0.98,-0,-0,-0,0.04,,64,0,3,20,98,1.498,0.0,115,0.97,12.7,0.0,1,0.0,0.0,0.0,0,0,0,0,0,,,,,,,,,,,,,,,,,,,,
45803,1646324510863,,,250,252,235,233,,-0.04,-0.0,0.98,-0,0,-0,0.04,,64,0,3,20,98,1.498,0.0,115,0.97,12.7,0.0,1,0.0,0.0,0.0,0,0,0,0,0,,,,,,,,,,,,,,,,,,,,
45823,1646324510883,,,250,252,235,232,,-0.04,-0.0,0.98,-0,0,-0,0.04,,64,0,3,20,98,1.498,0.0,115,0.96,12.7,0.0,1,0.0,0.0,0.0,0,0,0,0,0,,,,,,,,,,,,,,,,,,,,
45843,1646324510903,-1,4,250,252,235,232,-24,-0.04,-0.0,0.98,-0,0,-0,0.04,1,64,0,3,20,98,1.498,0.0,115,0.97,12.7,0.0,1,0.0,0.0,0.0,0,0,0,0,0,0,250,250,0,45.93066,5.257569,0.0,224.3,9,3,1.6,0,0.0,-1,0.0,0.0,0.0,0,0.0,0.764
45863,1646324510923,,,250,252,235,232,,-0.04,-0.0,0.98,-0,0,-0,0.05,,64,0,3,20,98,1.498,0.0,115,0.97,12.7,0.0,1,0.0,0.0,0.0,0,0,0,0,0,,,,,,,,,,,,,,,,,,,,
45883,1646324510943,,,250,252,235,233,,-0.04,-0.0,0.98,-0,0,-0,0.04,,64,0,3,20,98,1.498,0.0,115,0.97,12.7,0.0,1,0.0,0.0,0.0,0,0,0,0,0,,,,,,,,,,,,,,,,,,,,
45903,1646324510963,,,250,252,235,233,,-0.04,-0.0,0.98,-0,0,-0,0.04,,64,0,3,20,98,1.498,0.0,115,0.97,12.7,0.0,1,0.0,0.0,0.0,0,0,0,0,0,,,,,,,,,,,,,,,,,,,,
45923,1646324510983,,,250,252,235,232,,-0.04,-0.0,0.98,-0,0,-0,0.04,,64,0,3,20,98,1.498,0.0,115,0.97,12.7,0.0,1,0.0,0.0,0.0,0,0,0,0,0,,,,,,,,,,,,,,,,,,,,
45943,1646324510997,-1,2,250,252,235,233,-24,-0.04,-0.0,0.98,-0,0,-0,0.04,1,64,0,3,20,98,1.498,0.0,115,0.97,12.7,0.0,1,0.0,0.0,0.0,0,0,0,0,0,0,250,250,0,45.93066,5.257569,0.0,224.3,9,3,1.6,0,0.0,-1,0.0,,0.0,0,0.0,0.7657
45963,1646324511017,,,250,252,235,233,,-0.04,-0.0,0.98,-0,0,-0,0.04,,64,0,3,20,98,1.498,0.0,115,0.97,12.7,0.0,1,0.0,0.0,0.0,0,0,0,0,0,,,,,,,,,,,,,,,,,,,,
45983,1646324511037,,,250,252,235,233,,-0.04,-0.0,0.99,-0,0,-0,0.04,,64,0,3,20,98,1.498,0.0,115,0.97,12.7,0.0,1,0.0,0.0,0.0,0,0,0,0,0,,,,,,,,,,,,,,,,,,,,
46003,1646324511057,,,250,252,235,233,,-0.05,-0.0,0.99,-0,0,-0,0.05,,64,0,3,20,98,1.498,0.0,115,0.97,12.7,0.0,1,0.0,0.0,0.0,0,0,0,0,0,,,,,,,,,,,,,,,,,,,,
46023,1646324511077,,,250,252,235,233,,-0.05,-0.0,0.98,-0,0,-0,0.05,,64,0,3,20,98,1.498,0.0,115,0.97,12.7,0.0,1,0.0,0.0,0.0,0,0,0,0,0,,,,,,,,,,,,,,,,,,,,
46043,1646324511103,-0,1,250,252,235,233,-25,-0.05,-0.0,0.99,-0,0,-0,0.05,1,64,0,3,20,98,1.498,0.0,115,0.97,12.8,0.0,1,0.0,0.0,0.0,0,0,0,0,0,0,250,250,0,45.93066,5.257569,0.0,224.3,9,3,1.6,0,0.0,-1,0.0,0.0,0.0,0,0.0,0.7674
46063,1646324511123,,,250,252,235,232,,-0.05,-0.0,0.99,-0,0,-0,0.05,,64,0,3,20,98,1.498,0.0,115,0.97,12.7,0.0,1,0.0,0.0,0.0,0,0,0,0,0,,,,,,,,,,,,,,,,,,,,
46083,1646324511143,,,250,251,235,233,,-0.05,-0.0,0.98,-0,0,-0,0.05,,64,0,3,20,98,1.498,0.0,115,0.97,12.7,0.0,1,0.0,0.0,0.0,0,0,0,0,0,,,,,,,,,,,,,,,,,,,,
46103,1646324511163,,,250,252,235,232,,-0.05,-0.0,0.98,-0,-0,-0,0.05,,64,0,3,20,98,1.498,0.0,115,0.97,12.7,0.0,1,0.0,0.0,0.0,0,0,0,0,0,,,,,,,,,,,,,,,,,,,,
46123,1646324511183,,,250,252,235,233,,-0.05,-0.0,0.98,-0,-0,-0,0.05,,64,0,3,20,98,1.498,0.0,115,0.97,12.7,0.0,1,0.0,0.0,0.0,0,0,0,0,0,,,,,,,,,,,,,,,,,,,,
46143,1646324511203,-0,-0,250,252,235,232,-24,-0.05,-0.0,0.98,-0,-0,-0,0.05,1,64,0,3,20,98,1.498,0.0,115,0.97,12.7,0.0,1,0.0,0.0,0.0,0,0,0,0,0,0,250,250,0,45.93066,5.257569,0.0,224.3,9,3,1.6,0,0.0,-1,0.0,,0.0,0,0.0,0.769
46163,1646324511223,,,250,252,235,233,,-0.05,-0.0,0.98,-0,-0,-0,0.05,,64,0,3,20,98,1.498,0.0,115,0.97,12.7,0.0,1,0.0,0.0,0.0,0,0,0,0,0,,,,,,,,,,,,,,,,,,,,
46183,1646324511243,,,250,252,235,233,,-0.05,-0.0,0.98,-0,-0,-0,0.05,,64,0,3,20,98,1.498,0.0,115,0.97,12.7,0.0,1,0.0,0.0,0.0,0,0,0,0,0,,,,,,,,,,,,,,,,,,,,
46203,1646324511263,,,250,252,235,232,,-0.05,-0.0,0.98,-0,-0,-0,0.05,,64,0,3,20,98,1.498,0.0,115,0.97,12.8,0.0,1,0.0,0.0,0.0,0,0,0,0,0,,,,,,,,,,,,,,,,,,,,
46223,1646324511283,,,250,252,235,233,,-0.05,-0.0,0.98,-0,-0,-0,0.05,,64,0,3,20,98,1.498,0.0,115,0.97,12.7,0.0,1,0.0,0.0,0.0,0,0,0,0,0,,,,,,,,,,,,,,,,,,,,
46243,1646324511305,-0,2,250,252,235,233,-24,-0.05,-0.0,0.99,-0,-0,-0,0.05,1,64,0,3,20,98,1.498,0.0,115,0.97,12.7,0.0,1,0.0,0.0,0.0,0,0,0,0,0,0,250,250,0,45.93066,5.257569,0.0,224.3,9,3,1.6,0,0.0,-1,0.0,0.0,0.0,0,0.0,0.7707
46263,1646324511325,,,250,252,235,233,,-0.05,-0.0,0.98,-0,-0,-0,0.05,,64,0,3,20,98,1.498,0.0,115,0.97,12.7,0.0,1,0.0,0.0,0.0,0,0,0,0,0,,,,,,,,,,,,,,,,,,,,
46283,1646324511345,,,250,252,235,233,,-0.05,-0.0,0.98,-0,-0,-0,0.05,,64,0,3,20,98,1.498,0.0,115,0.97,12.7,0.0,1,0.0,0.0,0.0,0,0,0,0,0,,,,,,,,,,,,,,,,,,,,
46303,1646324511365,,,250,252,235,233,,-0.05,-0.0,0.98,-0,-0,-0,0.05,,64,0,3,20,98,1.498,0.0,115,0.97,12.7,0.0,1,0.0,0.0,0.0,0,0,0,0,0,,,,,,,,,,,,,,,,,,,,
46323,1646324511385,,,250,252,235,233,,-0.05,-0.0,0.98,-0,-0,-0,0.05,,64,0,3,20,98,1.498,0.0,115,0.97,12.7,0.0,1,0.0,0.0,0.0,0,0,0,0,0,,,,,,,,,,,,,,,,,,,,
46343,1646324511405,-1,1,250,252,235,233,-24,-0.05,-0.0,0.98,-0,-0,-0,0.05,1,64,0,3,20,98,1.498,0.0,115,0.97,12.7,0.0,1,0.0,0.0,0.0,0,0,0,0,0,0,250,250,0,45.93066,5.257569,0.0,224.3,9,3,1.6,0,0.0,-1,0.0,,0.0,0,0.0,0.7724
46363,1646324511425,,,250,252,235,233,,-0.05,-0.0,0.98,-0,-0,-0,0.05,,64,0,3,20,98,1.498,0.0,115,0.97,12.7,0.0,1,0.0,0.0,0.0,0,0,0,0,0,,,,,,,,,,,,,,,,,,,,
46383,1646324511445,,,250,252,235,233,,-0.05,-0.0,0.98,-0,-0,-0,0.05,,64,0,3,20,98,1.498,0.0,115,0.97,12.8,0.0,1,0.0,0.0,0.0,0,0,0,0,0,,,,,,,,,,,,,,,,,,,,
46403,1646324511465,,,250,252,235,233,,-0.05,-0.0,0.98,-0,-0,-0,0.05,,64,0,3,20,98,1.498,0.0,115,0.97,12.7,0.0,1,0.0,0.0,0.0,0,0,0,0,0,,,,,,,,,,,,,,,,,,,,
46423,1646324511485,,,250,252,235,233,,-0.05,-0.0,0.98,-0,-0,-0,0.05,,64,0,3,20,98,1.498,0.0,115,0.97,12.7,0.0,1,0.0,0.0,0.0,0,0,0,0,0,,,,,,,,,,,,,,,,,,,,
46443,1646324511504,0,2,250,252,235,233,-24,-0.05,-0.0,0.98,-0,-0,-0,0.05,1,64,0,3,20,98,1.498,0.0,115,0.97,12.7,0.0,1,0.0,0.0,0.0,0,0,0,0,0,0,250,250,0,45.93066,5.257569,0.0,224.3,9,3,1.6,0,0.0,-1,0.0,0.0,0.0,0,0.0,0.774
46463,1646324511524,,,250,252,235,233,,-0.05,-0.0,0.98,-0,-0,-0,0.05,,64,0,3,20,98,1.498,0.0,115,0.97,12.7,0.0,1,0.0,0.0,0.0,0,0,0,0,0,,,,,,,,,,,,,,,,,,,,
46483,1646324511544,,,250,252,235,233,,-0.05,-0.0,0.98,-0,-0,-0,0.05,,64,0,3,20,98,1.498,0.0,115,0.97,12.7,0.0,1,0.0,0.0,0.0,0,0,0,0,0,,,,,,,,,,,,,,,,,,,,
46503,1646324511564,,,250,252,235,232,,-0.05,-0.0,0.98,-0,-0,-0,0.05,,64,0,3,20,98,1.498,0.0,115,0.97,12.7,0.0,1,0.0,0.0,0.0,0,0,0,0,0,,,,,,,,,,,,,,,,,,,,
46523,1646324511584,,,250,252,235,233,,-0.05,-0.0,0.98,-0,-0,-0,0.05,,64,0,3,20,98,1.498,0.0,115,0.97,12.7,0.0,1,0.0,0.0,0.0,0,0,0,0,0,,,,,,,,,,,,,,,,,,,,
46543,1646324511604,-0,-0,250,252,235,232,-24,-0.05,-0.0,0.98,-0,-0,-0,0.05,1,64,0,3,20,98,1.498,0.0,115,0.97,12.8,0.0,1,0.0,0.0,0.0,0,0,0,0,0,0,250,250,0,45.93066,5.257569,0.0,224.3,9,3,1.6,0,0.0,-1,0.0,,0.0,0,0.0,0.7757
46563,1646324511624,,,250,252,235,233,,-0.05,-0.0,0.98,-0,-0,-0,0.05,,64,0,3,20,98,1.498,0.0,115,0.97,12.8,0.0,1,0.0,0.0,0.0,0,0,0,0,0,,,,,,,,,,,,,,,,,,,,
46583,1646324511644,,,250,252,235,232,,-0.04,-0.0,0.98,-0,-0,-0,0.04,,64,0,3,20,98,1.498,0.0,115,0.97,12.7,0.0,1,0.0,0.0,0.0,0,0,0,0,0,,,,,,,,,,,,,,,,,,,,
46603,1646324511664,,,250,252,235,233,,-0.04,-0.0,0.98,-0,-0,-0,0.04,,64,0,3,20,98,1.498,0.0,115,0.97,12.7,0.0,1,0.0,0.0,0.0,0,0,0,0,0,,,,,,,,,,,,,,,,,,,,
46623,1646324511684,,,250,252,235,233,,-0.04,-0.0,0.98,-0,-0,-0,0.04,,64,0,3,20,98,1.498,0.0,115,0.97,12.7,0.0,1,0.0,0.0,0.0,0,0,0,0,0,,,,,,,,,,,,,,,,,,,,
46643,1646324511704,-0,1,250,252,235,233,-25,-0.04,-0.0,0.98,-0,-0,-0,0.04,1,64,0,3,20,98,1.498,0.0,115,0.97,12.7,0.0,1,0.0,0.0,0.0,0,0,0,0,0,0,250,250,0,45.93066,5.257569,0.0,224.3,9,3,1.6,0,0.0,-1,0.0,0.0,0.0,0,0.0,0.7774
46663,1646324511724,,,250,252,235,233,,-0.04,-0.0,0.99,-0,-0,-0,0.04,,64,0,3,20,98,1.498,0.0,115,0.97,12.7,0.0,1,0.0,0.0,0.0,0,0,0,0,0,,,,,,,,,,,,,,,,,,,,
46683,1646324511744,,,250,252,235,233,,-0.04,-0.0,0.98,-0,-0,-0,0.04,,64,0,3,20,98,1.498,0.0,115,0.97,12.7,0.0,1,0.0,0.0,0.0,0,0,0,0,0,,,,,,,,,,,,,,,,,,,,
46703,1646324511764,,,250,252,235,233,,-0.04,-0.0,0.98,-0,-0,-0,0.04,,64,0,3,20,98,1.498,0.0,115,0.97,12.7,0.0,1,0.0,0.0,0.0,0,0,0,0,0,,,,,,,,,,,,,,,,,,,,
46723,1646324511784,,,250,252,235,233,,-0.04,-0.0,0.98,-0,-0,-0,0.04,,64,0,3,20,98,1.498,0.0,115,0.97,12.8,0.0,1,0.0,0.0,0.0,0,0,0,0,0,,,,,,,,,,,,,,,,,,,,
46743,1646324511804,-1,2,250,251,235,233,-24,-0.04,-0.0,0.98,-0,-0,-0,0.04,1,64,0,3,20,98,1.498,0.0,115,0.97,12.8,0.0,1,0.0,0.0,0.0,0,0,0,0,0,0,250,250,0,45.93066,5.257569,0.0,224.3,9,3,1.6,0,0.0,-1,0.0,,0.0,0,0.0,0.779
46763,1646324511824,,,250,252,235,233,,-0.04,-0.0,0.98,-0,-0,-0,0.04,,64,0,3,20,98,1.498,0.0,115,0.97,12.7,0.0,1,0.0,0.0,0.0,0,0,0,0,0,,,,,,,,,,,,,,,,,,,,
46783,1646324511844,,,250,252,235,233,,-0.04,-0.0,0.98,-0,-0,-0,0.04,,64,0,3,20,98,1.498,0.0,115,0.97,12.7,0.0,1,0.0,0.0,0.0,0,0,0,0,0,,,,,,,,,,,,,,,,,,,,
46803,1646324511864,,,250,252,235,232,,-0.04,-0.0,0.98,-0,0,-0,0.04,,64,0,3,20,98,1.498,0.0,115,0.97,12.7,0.0,1,0.0,0.0,0.0,0,0,0,0,0,,,,,,,,,,,,,,,,,,,,
46823,1646324511884,,,250,252,235,233,,-0.04,-0.0,0.98,-0,-0,-0,0.04,,64,0,3,20,98,1.498,0.0,115,0.97,12.7,0.0,1,0.0,0.0,0.0,0,0,0,0,0,,,,,,,,,,,,,,,,,,,,
46843,1646324511904,-2,0,250,252,235,233,-24,-0.04,-0.0,0.99,-0,-0,-0,0.04,1,64,0,3,20,98,1.498,0.0,115,0.97,12.7,0.0,1,0.0,0.0,0.0,0,0,0,0,0,0,250,250,0,45.93066,5.257569,0.0,224.3,9,3,1.6,0,0.0,-1,0.0,0.0,0.0,0,0.0,0.7807
46863,1646324511924,,,250,252,235,232,,-0.04,-0.0,0.99,-0,0,-0,0.04,,64,0,3,20,98,1.498,0.0,115,0.97,12.7,0.0,1,0.0,0.0,0.0,0,0,0,0,0,,,,,,,,,,,,,,,,,,,,
46883,1646324511944,,,250,252,235,232,,-0.04,-0.0,0.99,-0,0,-0,0.04,,64,0,3,20,98,1.498,0.0,115,0.97,12.7,0.0,1,0.0,0.0,0.0,0,0,0,0,0,,,,,,,,,,,,,,,,,,,,
46903,1646324511964,,,250,252,235,233,,-0.04,-0.0,0.98,-0,0,-0,0.04,,64,0,3,20,98,1.498,0.0,115,0.97,12.8,0.0,1,0.0,0.0,0.0,0,0,0,0,0,,,,,,,,,,,,,,,,,,,,
46923,1646324511984,,,250,252,235,233,,-0.04,-0.0,0.98,-0,0,-0,0.04,,64,0,3,20,98,1.498,0.0,115,0.97,12.7,0.0,1,0.0,0.0,0.0,0,0,0,0,0,,,,,,,,,,,,,,,,,,,,
46943,1646324511998,-0,-0,250,252,235,232,-24,-0.04,-0.0,0.98,-0,0,-0,0.04,1,64,0,3,20,98,1.498,0.0,115,0.97,12.7,0.0,1,0.0,0.0,0.0,0,0,0,0,0,0,250,250,0,45.93066,5.257569,0.0,224.3,9,3,1.6,0,0.0,-1,0.0,,0.0,0,0.0,0.7824
46963,1646324512018,,,250,252,235,233,,-0.04,-0.0,0.99,-0,-0,-0,0.04,,64,0,3,20,98,1.498,0.0,115,0.96,12.7,0.0,1,0.0,0.0,0.0,0,0,0,0,0,,,,,,,,,,,,,,,,,,,,
46983,1646324512038,,,250,252,235,233,,-0.04,-0.0,0.99,-0,-0,-0,0.04,,64,0,3,20,98,1.498,0.0,115,0.97,12.7,0.0,1,0.0,0.0,0.0,0,0,0,0,0,,,,,,,,,,,,,,,,,,,,
47003,1646324512058,,,250,252,235,233,,-0.04,-0.0,0.99,-0,-0,-0,0.04,,64,0,3,20,98,1.498,0.0,115,0.97,12.7,0.0,1,0.0,0.0,0.0,0,0,0,0,0,,,,,,,,,,,,,,,,,,,,
47023,1646324512078,,,250,252,235,233,,-0.04,-0.0,0.99,-0,-0,-0,0.04,,64,0,3,20,98,1.498,0.0,115,0.96,12.7,0.0,1,0.0,0.0,0.0,0,0,0,0,0,,,,,,,,,,,,,,,,,,,,
47043,1646324512104,-2,-0,250,252,235,233,-24,-0.04,-0.0,0.99,-0,-0,-0,0.04,1,64,0,3,20,98,1.498,0.0,115,0.97,12.7,0.0,1,0.0,0.0,0.0,0,0,0,0,0,0,250,250,0,45.93066,5.257569,0.0,224.3,9,3,1.6,0,0.0,-1,0.0,0.0,0.0,0,0.0,0.784
47063,1646324512124,,,250,252,235,233,,-0.04,-0.0,0.99,-0,-0,-0,0.04,,64,0,3,20,98,1.498,0.0,115,0.97,12.8,0.0,1,0.0,0.0,0.0,0,0,0,0,0,,,,,,,,,,,,,,,,,,,,
47083,1646324512144,,,250,252,235,233,,-0.04,-0.0,0.99,-0,-0,-0,0.04,,64,0,3,20,98,1.498,0.0,115,0.97,12.8,0.0,1,0.0,0.0,0.0,0,0,0,0,0,,,,,,,,,,,,,,,,,,,,
47103,1646324512164,,,250,252,235,233,,-0.04,-0.0,0.99,-0,-0,-0,0.04,,64,0,3,20,98,1.498,0.0,115,0.97,12.7,0.0,1,0.0,0.0,0.0,0,0,0,0,0,,,,,,,,,,,,,,,,,,,,
47123,1646324512184,,,250,252,235,232,,-0.04,-0.0,0.99,-0,-0,-0,0.04,,64,0,3,20,98,1.498,0.0,115,0.97,12.7,0.0,1,0.0,0.0,0.0,0,0,0,0,0,,,,,,,,,,,,,,,,,,,,
47143,1646324512204,-0,0,250,252,235,233,-24,-0.04,-0.0,0.99,-0,-0,-0,0.04,1,64,0,3,20,98,1.498,0.0,115,0.97,12.7,0.0,1,0.0,0.0,0.0,0,0,0,0,0,0,250,250,0,45.93066,5.257569,0.0,224.3,9,3,1.6,0,0.0,-1,0.0,,0.0,0,0.0,0.7857
47163,1646324512224,,,250,252,235,233,,-0.04,-0.0,0.99,-0,-0,-0,0.04,,64,0,3,20,98,1.498,0.0,115,0.97,12.7,0.0,1,0.0,0.0,0.0,0,0,0,0,0,,,,,,,,,,,,,,,,,,,,
47183,1646324512244,,,250,252,235,233,,-0.04,-0.0,0.98,-0,-0,-0,0.04,,64,0,3,20,98,1.498,0.0,115,0.97,12.7,0.0,1,0.0,0.0,0.0,0,0,0,0,0,,,,,,,,,,,,,,,,,,,,
47203,1646324512264,,,250,252,235,232,,-0.04,-0.0,0.99,-0,-0,-0,0.04,,64,0,3,20,98,1.498,0.0,115,0.97,12.7,0.0,1,0.0,0.0,0.0,0,0,0,0,0,,,,,,,,,,,,,,,,,,,,
47223,1646324512284,,,250,252,235,233,,-0.04,-0.0,0.99,-0,-0,-0,0.04,,64,0,3,20,98,1.498,0.0,115,0.97,12.8,0.0,1,0.0,0.0,0.0,0,0,0,0,0,,,,,,,,,,,,,,,,,,,,
47243,1646324512304,-1,0,250,252,235,233,-24,-0.04,-0.0,0.99,-0,-0,-0,0.04,1,64,0,3,20,98,1.498,0.0,115,0.97,12.8,0.0,1,0.0,0.0,0.0,0,0,0,0,0,0,250,250,0,45.93066,5.257569,0.0,224.3,9,3,1.6,0,0.0,-1,0.0,0.0,0.0,0,0.0,0.7874
47263,1646324512324,,,250,252,235,233,,-0.04,-0.0,0.99,-0,-0,-0,0.04,,64,0,3,20,98,1.498,0.0,115,0.97,12.7,0.0,1,0.0,0.0,0.0,0,0,0,0,0,,,,,,,,,,,,,,,,,,,,
47283,1646324512344,,,250,252,235,233,,-0.04,-0.0,0.99,-0,-0,-0,0.04,,64,0,3,20,98,1.498,0.0,115,0.97,12.7,0.0,1,0.0,0.0,0.0,0,0,0,0,0,,,,,,,,,,,,,,,,,,,,
47303,1646324512364,,,250,252,235,233,,-0.04,-0.0,0.99,-0,-0,-0,0.04,,64,0,3,20,98,1.498,0.0,115,0.97,12.7,0.0,1,0.0,0.0,0.0,0,0,0,0,0,,,,,,,,,,,,,,,,,,,,
47323,1646324512384,,,250,252,235,233,,-0.04,-0.0,0.99,-0,-0,-0,0.04,,64,0,3,20,98,1.498,0.0,115,0.97,12.7,0.0,1,0.0,0.0,0.0,0,0,0,0,0,,,,,,,,,,,,,,,,,,,,
47343,1646324512404,-2,2,250,252,235,233,-22,-0.04,-0.0,0.98,-0,-0,-0,0.04,1,64,0,3,20,98,1.498,0.0,115,0.97,12.7,0.0,1,0.0,0.0,0.0,0,0,0,0,0,0,250,250,0,45.93066,5.257569,0.0,224.3,9,3,1.6,0,0.0,-1,0.0,,0.0,0,0.0,0.789
47363,1646324512424,,,250,252,235,233,,-0.04,-0.0,0.98,-0,-0,-0,0.04,,64,0,3,20,98,1.498,0.0,115,0.97,12.7,0.0,1,0.0,0.0,0.0,0,0,0,0,0,,,,,,,,,,,,,,,,,,,,
47383,1646324512444,,,250,252,235,232,,-0.04,-0.0,0.98,-0,-0,-0,0.04,,64,0,3,20,98,1.498,0.0,115,0.97,12.7,0.0,1,0.0,0.0,0.0,0,0,0,0,0,,,,,,,,,,,,,,,,,,,,
47403,1646324512464,,,250,252,235,233,,-0.04,-0.0,0.98,-0,-0,-0,0.04,,64,0,3,20,98,1.498,0.0,115,0.97,12.8,0.0,1,0.0,0.0,0.0,0,0,0,0,0,,,,,,,,,,,,,,,,,,,,
47423,1646324512484,,,250,252,235,232,,-0.04,-0.0,0.99,-0,-0,-0,0.04,,64,0,3,20,98,1.498,0.0,115,0.97,12.7,0.0,1,0.0,0.0,0.0,0,0,0,0,0,,,,,,,,,,,,,,,,,,,,
47443,1646324512503,-0,2,250,252,235,232,-20,-0.04,-0.0,0.99,-0,-0,-0,0.04,1,64,0,3,20,98,1.498,0.0,115,0.97,12.7,0.0,1,0.0,0.0,0.0,0,0,0,0,0,0,250,250,0,45.93066,5.257569,0.0,224.3,9,3,1.6,0,0.0,-1,0.0,0.0,0.0,0,0.0,0.7907
47463,1646324512523,,,250,252,235,232,,-0.04,-0.0,0.99,-0,-0,-0,0.04,,64,0,3,20,98,1.498,0.0,115,0.97,12.7,0.0,1,0.0,0.0,0.0,0,0,0,0,0,,,,,,,,,,,,,,,,,,,,
47483,1646324512543,,,250,252,235,233,,-0.04,-0.0,0.99,-0,-0,-0,0.04,,64,0,3,20,98,1.498,0.0,115,0.97,12.7,0.0,1,0.0,0.0,0.0,0,0,0,0,0,,,,,,,,,,,,,,,,,,,,
47503,1646324512563,,,250,252,235,233,,-0.04,-0.0,0.99,-0,-0,-0,0.04,,64,0,3,20,98,1.498,0.0,115,0.97,12.7,0.0,1,0.0,0.0,0.0,0,0,0,0,0,,,,,,,,,,,,,,,,,,,,
47523,1646324512583,,,250,252,235,233,,-0.04,-0.0,0.99,-0,-0,-0,0.04,,64,0,3,20,98,1.498,0.0,115,0.97,12.7,0.0,1,0.0,0.0,0.0,0,0,0,0,0,,,,,,,,,,,,,,,,,,,,
47543,1646324512603,-2,2,250,252,235,233,-19,-0.04,-0.0,0.99,-0,-0,-0,0.04,1,64,0,3,20,98,1.498,0.0,115,0.97,12.7,0.0,1,0.0,0.0,0.0,0,0,0,0,0,0,250,250,0,45.93066,5.257569,0.0,224.3,9,3,1.6,0,0.0,-1,0.0,,0.0,0,0.0,0.7924
47563,1646324512623,,,250,253,235,233,,-0.04,-0.0,0.99,-0,-0,-0,0.04,,64,0,3,20,98,1.498,0.0,115,0.97,12.8,0.0,1,0.0,0.0,0.0,0,0,0,0,0,,,,,,,,,,,,,,,,,,,,
47583,1646324512643,,,250,252,235,233,,-0.04,-0.0,0.99,-0,-0,-0,0.04,,64,0,3,21,98,1.498,0.0,115,0.97,12.7,0.0,1,0.0,0.0,0.0,0,0,0,0,0,,,,,,,,,,,,,,,,,,,,
47603,1646324512663,,,250,253,235,233,,-0.04,-0.0,0.99,-0,-0,-0,0.04,,64,0,3,21,98,1.498,0.0,115,0.97,12.7,0.0,1,0.0,0.0,0.0,0,0,0,0,0,,,,,,,,,,,,,,,,,,,,
47623,1646324512683,,,250,252,235,233,,-0.04,-0.0,0.99,-0,-0,-0,0.04,,64,0,3,21,98,1.498,0.0,115,0.97,12.7,0.0,1,0.0,0.0,0.0,0,0,0,0,0,,,,,,,,,,,,,,,,,,,,
47643,1646324512703,-0,2,250,252,235,232,-15,-0.04,-0.0,0.99,-0,-0,-0,0.04,1,64,0,3,21,98,1.498,0.0,115,0.97,12.7,0.0,1,0.0,0.0,0.0,0,0,0,0,0,0,250,250,0,45.93066,5.257569,0.0,224.3,9,3,1.6,0,0.0,-1,0.0,0.0,0.0,0,0.0,0.794
47663,1646324512723,,,250,252,235,233,,-0.04,-0.0,0.99,-0,-0,-0,0.04,,64,0,3,21,98,1.498,0.0,115,0.97,12.7,0.0,1,0.0,0.0,0.0,0,0,0,0,0,,,,,,,,,,,,,,,,,,,,
47683,1646324512743,,,250,252,235,233,,-0.04,-0.0,0.98,-0,-0,-0,0.04,,64,0,3,21,98,1.498,0.0,115,0.97,12.7,0.0,1,0.0,0.0,0.0,0,0,0,0,0,,,,,,,,,,,,,,,,,,,,
47703,1646324512763,,,250,253,235,233,,-0.04,-0.0,0.98,-0,-0,-0,0.04,,64,0,3,21,98,1.498,0.0,115,0.97,12.7,0.0,1,0.0,0.0,0.0,0,0,0,0,0,,,,,,,,,,,,,,,,,,,,
47723,1646324512783,,,250,252,235,232,,-0.04,-0.0,0.99,-0,-0,-0,0.04,,64,0,3,21,98,1.498,0.0,115,0.97,12.7,0.0,1,0.0,0.0,0.0,0,0,0,0,0,,,,,,,,,,,,,,,,,,,,
47743,1646324512803,-1,1,250,253,235,233,-17,-0.04,-0.0,0.99,-0,-0,-0,0.04,1,64,0,3,21,98,1.498,0.0,115,0.97,12.8,0.0,1,0.0,0.0,0.0,0,0,0,0,0,0,250,250,0,45.93066,5.257569,0.0,224.3,9,3,1.6,0,0.0,-1,0.0,,0.0,0,0.0,0.7957
47763,1646324512823,,,251,253,235,232,,-0.04,-0.0,0.98,-0,-0,-0,0.04,,64,0,3,21,98,1.498,0.0,115,0.97,12.8,0.0,1,0.0,0.0,0.0,0,0,0,0,0,,,,,,,,,,,,,,,,,,,,
47783,1646324512843,,,250,253,235,233,,-0.04,-0.0,0.99,-0,-0,-0,0.04,,64,0,3,21,98,1.498,0.0,115,0.97,12.7,0.0,1,0.0,0.0,0.0,0,0,0,0,0,,,,,,,,,,,,,,,,,,,,
47803,1646324512863,,,250,253,235,233,,-0.04,-0.0,0.98,-0,-0,-0,0.04,,64,0,3,21,98,1.498,0.0,115,0.97,12.7,0.0,1,0.0,0.0,0.0,0,0,0,0,0,,,,,,,,,,,,,,,,,,,,
47823,1646324512883,,,250,253,235,233,,-0.04,-0.0,0.98,-0,-0,-0,0.04,,64,0,3,21,98,1.498,0.0,115,0.97,12.7,0.0,1,0.0,0.0,0.0,0,0,0,0,0,,,,,,,,,,,,,,,,,,,,
47843,1646324512903,-1,2,250,252,235,233,-19,-0.04,-0.0,0.98,-0,-0,-0,0.04,1,64,0,3,21,98,1.498,0.0,115,0.97,12.7,0.0,1,0.0,0.0,0.0,0,0,0,0,0,0,250,250,0,45.93066,5.257569,0.0,224.3,9,3,1.6,0,0.0,-1,0.0,0.0,0.0,0,0.0,0.7974
47863,1646324512923,,,251,252,235,233,,-0.04,-0.0,0.99,-0,-0,-0,0.04,,64,0,3,21,98,1.498,0.0,115,0.97,12.7,0.0,1,0.0,0.0,0.0,0,0,0,0,0,,,,,,,,,,,,,,,,,,,,
47883,1646324512943,,,251,252,235,232,,-0.04,-0.0,0.99,-0,-0,-0,0.04,,64,0,3,21,98,1.498,0.0,115,0.97,12.7,0.0,1,0.0,0.0,0.0,0,0,0,0,0,,,,,,,,,,,,,,,,,,,,
47903,1646324512963,,,250,252,235,233,,-0.04,-0.0,0.98,-0,-0,-0,0.04,,64,0,3,21,98,1.498,0.0,115,0.97,12.7,0.0,1,0.0,0.0,0.0,0,0,0,0,0,,,,,,,,,,,,,,,,,,,,
47923,1646324512983,,,251,253,235,233,,-0.04,-0.0,0.98,-0,-0,-0,0.04,,64,0,3,21,98,1.498,0.0,115,0.97,12.8,0.0,1,0.0,0.0,0.0,0,0,0,0,0,,,,,,,,,,,,,,,,,,,,
47943,1646324512997,-0,-0,251,253,235,233,-20,-0.04,-0.0,0.99,-0,-0,-0,0.04,1,64,0,3,21,98,1.498,0.0,115,0.97,12.8,0.0,1,0.0,0.0,0.0,0,0,0,0,0,0,250,250,0,45.93066,5.257569,0.0,224.3,9,3,1.6,0,0.0,-1,0.0,,0.0,0,0.0,0.799
47963,1646324513017,,,251,252,235,233,,-0.04,-0.0,0.98,-0,-0,-0,0.04,,64,0,3,21,98,1.498,0.0,115,0.97,12.7,0.0,1,0.0,0.0,0.0,0,0,0,0,0,,,,,,,,,,,,,,,,,,,,
47983,1646324513037,,,250,252,235,233,,-0.04,-0.0,0.99,-0,-0,-0,0.04,,64,0,3,21,98,1.498,0.0,115,0.97,12.7,0.0,1,0.0,0.0,0.0,0,0,0,0,0,,,,,,,,,,,,,,,,,,,,
48003,1646324513057,,,251,252,235,232,,-0.04,-0.0,0.99,-0,-0,-0,0.04,,64,0,3,21,98,1.498,0.0,115,0.97,12.7,0.0,1,0.0,0.0,0.0,0,0,0,0,0,,,,,,,,,,,,,,,,,,,,
48023,1646324513077,,,251,252,235,232,,-0.04,-0.0,0.99,-0,-0,-0,0.04,,64,0,3,21,98,1.498,0.0,115,0.97,12.7,0.0,1,0.0,0.0,0.0,0,0,0,0,0,,,,,,,,,,,,,,,,,,,,
48043,1646324513105,-2,2,250,252,235,233,-20,-0.04,-0.0,0.99,-0,-0,-0,0.04,1,64,0,3,21,98,1.498,0.0,115,0.97,12.7,0.0,1,0.0,0.0,0.0,0,0,0,0,0,0,250,250,0,45.93066,5.257569,0.0,224.3,9,3,1.6,0,0.0,-1,0.0,0.0,0.0,0,0.0,0.8007
48063,1646324513125,,,250,252,235,232,,-0.04,-0.0,0.99,-0,-0,-0,0.04,,64,0,3,21,98,1.498,0.0,115,0.97,12.7,0.0,1,0.0,0.0,0.0,0,0,0,0,0,,,,,,,,,,,,,,,,,,,,
48083,1646324513145,,,251,252,235,233,,-0.04,-0.0,0.98,-0,-0,-0,0.04,,64,0,3,21,98,1.498,0.0,115,0.97,12.7,0.0,1,0.0,0.0,0.0,0,0,0,0,0,,,,,,,,,,,,,,,,,,,,
48103,1646324513165,,,250,252,235,233,,-0.04,-0.0,0.98,-0,-0,-0,0.04,,64,0,3,21,98,1.498,0.0,115,0.97,12.8,0.0,1,0.0,0.0,0.0,0,0,0,0,0,,,,,,,,,,,,,,,,,,,,
48123,1646324513185,,,251,252,235,233,,-0.04,-0.0,0.98,-0,-0,-0,0.04,,64,0,3,21,98,1.498,0.0,115,0.97,12.7,0.0,1,0.0,0.0,0.0,0,0,0,0,0,,,,,,,,,,,,,,,,,,,,
48143,1646324513203,-0,1,250,252,235,233,-22,-0.04,-0.0,0.98,-0,-0,-0,0.04,1,64,0,3,21,98,1.498,0.0,115,0.97,12.7,0.0,1,0.0,0.0,0.0,0,0,0,0,0,0,250,250,0,45.93066,5.257569,0.0,224.3,9,3,1.6,0,0.0,-1,0.0,,0.0,0,0.0,0.8024
48163,1646324513223,,,251,252,235,233,,-0.04,-0.0,0.98,-0,-0,-0,0.04,,64,0,3,21,98,1.498,0.0,115,0.97,12.7,0.0,1,0.0,0.0,0.0,0,0,0,0,0,,,,,,,,,,,,,,,,,,,,
48183,1646324513243,,,250,252,235,233,,-0.04,-0.0,0.98,-0,-0,-0,0.04,,64,0,3,21,98,1.498,0.0,115,0.97,12.7,0.0,1,0.0,0.0,0.0,0,0,0,0,0,,,,,,,,,,,,,,,,,,,,
48203,1646324513263,,,250,252,235,232,,-0.04,-0.0,0.98,-0,-0,-0,0.04,,64,0,3,21,98,1.498,0.0,115,0.97,12.7,0.0,1,0.0,0.0,0.0,0,0,0,0,0,,,,,,,,,,,,,,,,,,,,
48223,1646324513283,,,250,252,235,233,,-0.04,-0.0,0.98,-0,-0,-0,0.04,,64,0,3,21,98,1.498,0.0,115,0.97,12.7,0.0,1,0.0,0.0,0.0,0,0,0,0,0,,,,,,,,,,,,,,,,,,,,
48243,1646324513305,0,1,251,252,235,233,-21,-0.04,-0.0,0.98,-0,-0,-0,0.04,1,64,0,3,21,98,1.498,0.0,115,0.97,12.7,0.0,1,0.0,0.0,0.0,0,0,0,0,0,0,250,250,0,45.93066,5.257569,0.0,224.3,9,3,1.6,0,0.0,-1,0.0,0.0,0.0,0,0.0,0.8041
48263,1646324513325,,,251,252,235,233,,-0.04,-0.0,0.98,-0,-0,-0,0.04,,64,0,3,21,98,1.498,0.0,115,0.97,12.7,0.0,1,0.0,0.0,0.0,0,0,0,0,0,,,,,,,,,,,,,,,,,,,,
48283,1646324513345,,,251,252,235,233,,-0.04,-0.0,0.98,-0,0,-0,0.04,,64,0,3,21,98,1.498,0.0,115,0.97,12.7,0.0,1,0.0,0.0,0.0,0,0,0,0,0,,,,,,,,,,,,,,,,,,,,
48303,1646324513365,,,250,252,235,233,,-0.04,-0.0,0.98,-0,0,-0,0.04,,64,0,3,21,98,1.498,0.0,115,0.97,12.7,0.0,1,0.0,0.0,0.0,0,0,0,0,0,,,,,,,,,,,,,,,,,,,,
48323,1646324513385,,,250,252,235,233,,-0.04,-0.0,0.98,-0,0,-0,0.04,,64,0,3,21,98,1.498,0.0,115,0.97,12.7,0.0,1,0.0,0.0,0.0,0,0,0,0,0,,,,,,,,,,,,,,,,,,,,
48343,1646324513405,-0,-0,251,252,235,233,-21,-0.04,-0.0,0.98,-0,0,-0,0.04,1,64,0,3,21,98,1.498,0.0,115,0.97,12.7,0.0,1,0.0,0.0,0.0,0,0,0,0,0,0,250,250,0,45.93066,5.257569,0.0,224.3,9,3,1.6,0,0.0,-1,0.0,,0.0,0,0.0,0.8057
48363,1646324513425,,,251,252,235,232,,-0.04,-0.0,0.98,-0,0,-0,0.04,,64,0,3,21,98,1.498,0.0,115,0.97,12.7,0.0,1,0.0,0.0,0.0,0,0,0,0,0,,,,,,,,,,,,,,,,,,,,
48383,1646324513445,,,251,252,235,233,,-0.04,-0.0,0.98,-0,0,-0,0.04,,64,0,3,21,98,1.498,0.0,115,0.97,12.7,0.0,1,0.0,0.0,0.0,0,0,0,0,0,,,,,,,,,,,,,,,,,,,,
48403,1646324513465,,,251,252,235,233,,-0.04,-0.0,0.98,-0,0,-0,0.04,,64,0,3,21,98,1.498,0.0,115,0.97,12.7,0.0,1,0.0,0.0,0.0,0,0,0,0,0,,,,,,,,,,,,,,,,,,,,
48423,1646324513485,,,251,252,235,232,,-0.04,-0.0,0.98,-0,0,-0,0.04,,64,0,3,21,98,1.498,0.0,115,0.97,12.7,0.0,1,0.0,0.0,0.0,0,0,0,0,0,,,,,,,,,,,,,,,,,,,,
48443,1646324513504,-0,-0,251,252,235,232,-20,-0.04,-0.0,0.98,-0,0,-0,0.04,1,64,0,3,21,98,1.498,0.0,115,0.97,12.7,0.0,1,0.0,0.0,0.0,0,0,0,0,0,0,250,250,0,45.93066,5.257569,0.0,224.3,9,3,1.6,0,0.0,-1,0.0,0.0,0.0,0,0.0,0.8074
48463,1646324513524,,,251,252,235,233,,-0.04,-0.0,0.98,-0,0,-0,0.04,,64,0,3,21,98,1.498,0.0,115,0.96,12.7,0.0,1,0.0,0.0,0.0,0,0,0,0,0,,,,,,,,,,,,,,,,,,,,
48483,1646324513544,,,251,252,235,233,,-0.04,-0.0,0.98,-0,0,-0,0.04,,64,0,3,21,98,1.498,0.0,115,0.97,12.7,0.0,1,0.0,0.0,0.0,0,0,0,0,0,,,,,,,,,,,,,,,,,,,,
48503,1646324513564,,,250,252,235,233,,-0.04,-0.0,0.98,-0,0,-0,0.04,,64,0,3,21,98,1.498,0.0,115,0.97,12.7,0.0,1,0.0,0.0,0.0,0,0,0,0,0,,,,,,,,,,,,,,,,,,,,
48523,1646324513584,,,251,252,235,233,,-0.04,-0.0,0.98,-0,0,-0,0.04,,64,0,3,21,98,1.498,0.0,115,0.97,12.7,0.0,1,0.0,0.0,0.0,0,0,0,0,0,,,,,,,,,,,,,,,,,,,,
48543,1646324513604,-0,0,251,252,235,233,-22,-0.04,-0.0,0.98,-0,0,-0,0.04,1,64,0,3,21,98,1.498,0.0,115,0.97,12.7,0.0,1,0.0,0.0,0.0,0,0,0,0,0,0,250,250,0,45.93066,5.257569,0.0,224.3,9,3,1.6,0,0.0,-1,0.0,,0.0,0,0.0,0.809
48563,1646324513624,,,250,252,235,233,,-0.04,-0.0,0.98,-0,0,-0,0.04,,64,0,3,21,98,1.498,0.0,115,0.97,12.7,0.0,1,0.0,0.0,0.0,0,0,0,0,0,,,,,,,,,,,,,,,,,,,,
48583,1646324513644,,,251,252,235,233,,-0.04,-0.0,0.98,-0,0,-0,0.04,,64,0,3,21,98,1.498,0.0,115,0.97,12.7,0.0,1,0.0,0.0,0.0,0,0,0,0,0,,,,,,,,,,,,,,,,,,,,
48603,1646324513664,,,251,252,235,233,,-0.04,-0.0,0.98,-0,0,-0,0.04,,64,0,3,21,98,1.498,0.0,115,0.97,12.8,0.0,1,0.0,0.0,0.0,0,0,0,0,0,,,,,,,,,,,,,,,,,,,,
48623,1646324513684,,,251,252,235,233,,-0.04,-0.0,0.98,-0,0,-0,0.04,,64,0,3,21,98,1.498,0.0,115,0.97,12.7,0.0,1,0.0,0.0,0.0,0,0,0,0,0,,,,,,,,,,,,,,,,,,,,
48643,1646324513704,0,2,251,252,235,233,-21,-0.04,-0.0,0.98,-0,0,-0,0.04,1,64,0,3,21,98,1.498,0.0,115,0.97,12.7,0.0,1,0.0,0.0,0.0,0,0,0,0,0,0,250,250,0,45.93066,5.257569,0.0,224.3,9,3,1.6,0,0.0,-1,0.0,0.0,0.0,0,0.0,0.8107
48663,1646324513724,,,251,252,235,233,,-0.04,-0.0,0.98,-0,0,-0,0.04,,64,0,3,21,98,1.498,0.0,115,0.97,12.7,0.0,1,0.0,0.0,0.0,0,0,0,0,0,,,,,,,,,,,,,,,,,,,,
48683,1646324513744,,,251,252,235,232,,-0.04,-0.0,0.98,-0,0,-0,0.04,,64,0,3,21,98,1.498,0.0,115,0.97,12.7,0.0,1,0.0,0.0,0.0,0,0,0,0,0,,,,,,,,,,,,,,,,,,,,
48703,1646324513764,,,251,252,235,233,,-0.04,-0.0,0.98,-0,0,-0,0.04,,64,0,3,21,98,1.498,0.0,116,0.97,12.7,0.0,1,0.0,0.0,0.0,0,0,0,0,0,,,,,,,,,,,,,,,,,,,,
48723,1646324513784,,,250,252,235,232,,-0.04,-0.0,0.98,-0,0,-0,0.04,,64,0,3,21,98,1.498,0.0,115,0.97,12.7,0.0,1,0.0,0.0,0.0,0,0,0,0,0,,,,,,,,,,,,,,,,,,,,
48743,1646324513804,-0,-0,251,252,235,233,-20,-0.04,-0.0,0.98,-0,0,-0,0.04,1,64,0,3,21,98,1.498,0.0,115,0.97,12.7,0.0,1,0.0,0.0,0.0,0,0,0,0,0,0,250,250,0,45.93066,5.257569,0.0,224.3,9,3,1.6,0,0.0,-1,0.0,,0.0,0,0.0,0.8124
48763,1646324513824,,,251,252,235,232,,-0.04,-0.0,0.98,-0,0,-0,0.04,,64,0,3,21,98,1.498,0.0,115,0.97,12.8,0.0,1,0.0,0.0,0.0,0,0,0,0,0,,,,,,,,,,,,,,,,,,,,
48783,1646324513844,,,250,252,235,233,,-0.04,-0.0,0.98,-0,0,-0,0.04,,64,0,3,21,98,1.498,0.0,115,0.97,12.7,0.0,1,0.0,0.0,0.0,0,0,0,0,0,,,,,,,,,,,,,,,,,,,,
48803,1646324513864,,,251,252,235,232,,-0.04,-0.0,0.98,-0,0,-0,0.04,,64,0,3,21,98,1.498,0.0,115,0.97,12.7,0.0,1,0.0,0.0,0.0,0,0,0,0,0,,,,,,,,,,,,,,,,,,,,
48823,1646324513884,,,251,252,235,232,,-0.04,-0.0,0.98,-0,0,-0,0.04,,64,0,3,21,98,1.498,0.0,115,0.97,12.7,0.0,1,0.0,0.0,0.0,0,0,0,0,0,,,,,,,,,,,,,,,,,,,,
48843,1646324513904,-2,2,251,252,235,233,-21,-0.04,-0.0,0.98,-0,0,-0,0.04,1,64,0,3,21,98,1.498,0.0,115,0.97,12.7,0.0,1,0.0,0.0,0.0,0,0,0,0,0,0,250,250,0,45.93066,5.257569,0.0,224.3,9,3,1.6,0,0.0,-1,0.0,0.0,0.0,0,0.0,0.814
48863,1646324513924,,,250,252,235,233,,-0.04,-0.0,0.98,-0,0,-0,0.04,,64,0,3,21,98,1.498,0.0,115,0.97,12.7,0.0,1,0.0,0.0,0.0,0,0,0,0,0,,,,,,,,,,,,,,,,,,,,
48883,1646324513944,,,251,252,235,232,,-0.04,-0.0,0.98,-0,0,-0,0.04,,64,0,3,21,98,1.498,0.0,115,0.97,12.7,0.0,1,0.0,0.0,0.0,0,0,0,0,0,,,,,,,,,,,,,,,,,,,,
48903,1646324513964,,,250,252,235,233,,-0.04,-0.0,0.98,-0,0,-0,0.04,,64,0,3,21,98,1.498,0.0,115,0.97,12.7,0.0,1,0.0,0.0,0.0,0,0,0,0,0,,,,,,,,,,,,,,,,,,,,
48923,1646324513984,,,250,252,235,232,,-0.04,-0.0,0.98,-0,0,-0,0.04,,64,0,3,21,98,1.498,0.0,115,0.97,12.7,0.0,1,0.0,0.0,0.0,0,0,0,0,0,,,,,,,,,,,,,,,,,,,,
48943,1646324513998,-1,1,250,252,235,233,-22,-0.04,-0.01,0.98,-0,0,-0,0.04,1,64,0,3,21,98,1.498,0.0,115,0.97,12.8,0.0,1,0.0,0.0,0.0,0,0,0,0,0,0,250,250,0,45.93066,5.257569,0.0,224.3,9,3,1.6,0,0.0,-1,0.0,,0.0,0,0.0,0.8157
48963,1646324514018,,,251,252,235,233,,-0.04,-0.0,0.98,-0,0,-0,0.04,,64,0,3,21,98,1.498,0.0,115,0.97,12.8,0.0,1,0.0,0.0,0.0,0,0,0,0,0,,,,,,,,,,,,,,,,,,,,
48983,1646324514038,,,251,252,235,233,,-0.04,-0.0,0.98,-0,0,-0,0.04,,64,0,3,21,98,1.498,0.0,115,0.97,12.7,0.0,1,0.0,0.0,0.0,0,0,0,0,0,,,,,,,,,,,,,,,,,,,,
49003,1646324514058,,,250,252,235,232,,-0.04,-0.01,0.98,-0,0,-0,0.04,,64,0,3,21,98,1.498,0.0,115,0.97,12.7,0.0,1,0.0,0.0,0.0,0,0,0,0,0,,,,,,,,,,,,,,,,,,,,
