"Interval"|"ms"|0|0|1,"Utc"|"ms"|0|0|1,"Brake_F"|"Bar"|0|2000|10,"Brake_R"|"Bar"|0|2000|10,"Height_RF"|"mm"|0|255|50,"Height_LF"|"mm"|0|255|50,"Height_LR"|"mm"|0|80|50,"Height_RR"|"mm"|0|255|50,"Steering"|"deg"|-100|100|10,"AccelX"|"G"|-3.0|3.0|50,"AccelY"|"G"|-3.0|3.0|50,"AccelZ"|"G"|-3.0|3.0|50,"Yaw"|"Deg/Sec"|-120|120|50,"Pitch"|"Deg/Sec"|-120|120|50,"Roll"|"Deg/Sec"|-120|120|50,"Gsum"|"G"|0.0|3.0|50,"Log_Button"|""|0.0|10.0|10,"WaterTemp"|"C"|0|150|50,"RPM"|"tr/min"|0|14000|50,"TPS"|"%"|0|100|50,"AirTemp"|"C"|0|150|50,"MAP"|"KPa"|0|100|50,"Lambda"|""|0.5|1.5|50,"SpeedDTA"|"kph"|0.0|250.0|50,"OilPress"|"KPa"|0|1500|50,"FuelPressur"|"Bar"|0.0|10.0|50,"Batterie"|"V"|0.0|20.0|50,"ConsoKm"|"L/100km"|0.0|200.0|50,"Gear"|""|0|6|50,"AdvIgnition"|"Deg"|-20.0|70.0|50,"Injection"|"ms"|0.0|10.0|50,"ConsoHr"|"L/Hr"|0.0|10000.0|50,"LC_But_Pres"|""|0|1|50,"LC_Active"|""|0|1|50,"TractionOn"|""|0|1|50,"TractionWet"|""|0|1|50,"FanOn"|""|0|1|50,"RD_Speed"|"km/h"|-30|250|10,"RUD_Speed"|"km/h"|-30|250|10,"LD_Speed"|"km/h"|-30|250|10,"LUD_Speed"|"km/h"|-30|250|10,"Latitude"|"Degrees"|-180.0|180.0|10,"Longitude"|"Degrees"|-180.0|180.0|10,"Speed"|"kph"|0.0|150.0|10,"Altitude"|"m"|0.0|4000.0|10,"GPSSats"|""|0|20|10,"GPSQual"|""|0|5|10,"GPSDOP"|""|0.0|20.0|10,"LapCount"|""|0|0|10,"LapTime"|"Min"|0.0|0.0|10,"Sector"|""|0|0|10,"SectorTime"|"Min"|0.0|0.0|10,"PredTime"|"Min"|0.0|0.0|5,"ElapsedTime"|"Min"|0.0|0.0|10,"CurrentLap"|""|0|0|10,"Distance"|"km"|0.0|0.0|10,"SessionTime"|"Min"|0.0|0.0|10
64,0,,,247,251,237,235,,-0.07,-0.0,0.99,-0,-0,-0,0.07,,0,0,0,0,0,0.0,0.0,0,0.0,0.0,0.0,0,0.0,0.0,0.0,0,0,0,0,0,,,,,,,,,,,,,,,,,,,,
84,0,,,246,251,237,234,,-0.06,-0.0,0.99,-0,-0,-0,0.06,,0,0,0,0,0,0.0,0.0,0,0.0,0.0,0.0,0,0.0,0.0,0.0,0,0,0,0,0,,,,,,,,,,,,,,,,,,,,
104,0,,,247,251,237,234,,-0.06,-0.0,0.99,-0,-0,-0,0.06,,0,0,0,0,0,0.0,0.0,0,0.0,0.0,0.0,0,0.0,0.0,0.0,0,0,0,0,0,,,,,,,,,,,,,,,,,,,,
124,0,,,246,251,236,234,,-0.06,-0.0,0.99,-0,-0,-0,0.06,,0,0,0,0,0,0.0,0.0,0,0.0,0.0,0.0,0,0.0,0.0,0.0,0,0,0,0,0,,,,,,,,,,,,,,,,,,,,
144,0,-1,5,247,251,237,234,-13,-0.06,-0.0,0.99,-0,-0,-0,0.06,1,0,0,0,0,0,0.0,0.0,0,0.0,0.0,0.0,0,0.0,0.0,0.0,0,0,0,0,0,0,0,0,0,0.0,0.0,0.0,0.0,0,0,0.0,0,0.0,-1,0.0,,0.0,0,0.0,0.0024
164,0,,,246,251,237,234,,-0.06,-0.0,0.99,-0,-0,-0,0.06,,0,0,0,0,0,0.0,0.0,0,0.0,0.0,0.0,0,0.0,0.0,0.0,0,0,0,0,0,,,,,,,,,,,,,,,,,,,,
184,0,,,247,251,237,234,,-0.06,-0.0,0.98,-0,-0,-0,0.06,,0,0,0,0,0,0.0,0.0,0,0.0,0.0,0.0,0,0.0,0.0,0.0,0,0,0,0,0,,,,,,,,,,,,,,,,,,,,
204,0,,,247,251,237,234,,-0.06,-0.0,0.98,-0,-0,-0,0.06,,0,0,0,0,0,0.0,0.0,0,0.0,0.0,0.0,0,0.0,0.0,0.0,0,0,0,0,0,,,,,,,,,,,,,,,,,,,,
224,0,,,247,251,237,234,,-0.06,-0.0,0.98,-0,-0,-0,0.06,,0,0,0,0,0,0.0,0.0,0,0.0,0.0,0.0,0,0.0,0.0,0.0,0,0,0,0,0,,,,,,,,,,,,,,,,,,,,
244,0,1,4,247,251,237,234,-13,-0.06,-0.0,0.98,-0,-0,-0,0.06,1,0,0,0,0,0,0.0,0.0,0,0.0,0.0,0.0,0,0.0,0.0,0.0,0,0,0,0,0,0,0,0,0,0.0,0.0,0.0,0.0,0,0,0.0,0,0.0,-1,0.0,0.0,0.0,0,0.0,0.0041
264,0,,,247,251,237,234,,-0.06,-0.0,0.98,-0,-0,-0,0.06,,0,0,0,0,0,0.0,0.0,0,0.0,0.0,0.0,0,0.0,0.0,0.0,0,0,0,0,0,,,,,,,,,,,,,,,,,,,,
284,0,,,247,251,237,234,,-0.06,-0.0,0.97,-0,-0,-0,0.06,,0,0,0,0,0,0.0,0.0,0,0.0,0.0,0.0,0,0.0,0.0,0.0,0,0,0,0,0,,,,,,,,,,,,,,,,,,,,
304,0,,,246,251,237,234,,-0.06,-0.0,0.98,-0,-0,-0,0.06,,0,0,0,0,0,0.0,0.0,0,0.0,0.0,0.0,0,0.0,0.0,0.0,0,0,0,0,0,,,,,,,,,,,,,,,,,,,,
324,0,,,247,251,237,234,,-0.06,-0.0,0.98,-0,-0,-0,0.06,,0,0,0,0,0,0.0,0.0,0,0.0,0.0,0.0,0,0.0,0.0,0.0,0,0,0,0,0,,,,,,,,,,,,,,,,,,,,
344,0,-1,5,247,251,237,234,-13,-0.06,-0.0,0.98,-0,0,-0,0.06,1,0,0,0,0,0,0.0,0.0,0,0.0,0.0,0.0,0,0.0,0.0,0.0,0,0,0,0,0,0,0,0,0,0.0,0.0,0.0,0.0,0,0,0.0,0,0.0,-1,0.0,,0.0,0,0.0,0.0057
364,0,,,246,251,237,234,,-0.06,-0.0,0.98,-0,0,-0,0.06,,0,0,0,0,0,0.0,0.0,0,0.0,0.0,0.0,0,0.0,0.0,0.0,0,0,0,0,0,,,,,,,,,,,,,,,,,,,,
384,0,,,247,251,237,234,,-0.06,-0.0,0.98,-0,0,-0,0.06,,0,0,0,0,0,0.0,0.0,0,0.0,0.0,0.0,0,0.0,0.0,0.0,0,0,0,0,0,,,,,,,,,,,,,,,,,,,,
404,0,,,246,251,237,234,,-0.06,-0.0,0.98,-0,0,-0,0.06,,0,0,0,0,0,0.0,0.0,0,0.0,0.0,0.0,0,0.0,0.0,0.0,0,0,0,0,0,,,,,,,,,,,,,,,,,,,,
424,0,,,247,251,237,234,,-0.06,-0.0,0.98,-0,0,-0,0.06,,0,0,0,0,0,0.0,0.0,0,0.0,0.0,0.0,0,0.0,0.0,0.0,0,0,0,0,0,,,,,,,,,,,,,,,,,,,,
444,0,-0,5,246,251,237,234,-13,-0.06,-0.0,0.98,-0,-0,-0,0.06,1,0,0,0,0,0,0.0,0.0,0,0.0,0.0,0.0,0,0.0,0.0,0.0,0,0,0,0,0,0,0,0,0,0.0,0.0,0.0,0.0,0,0,0.0,0,0.0,-1,0.0,0.0,0.0,0,0.0,0.0074
464,0,,,247,251,236,234,,-0.06,-0.0,0.98,-0,-0,-0,0.06,,0,0,0,0,0,0.0,0.0,0,0.0,0.0,0.0,0,0.0,0.0,0.0,0,0,0,0,0,,,,,,,,,,,,,,,,,,,,
484,0,,,247,251,237,234,,-0.06,-0.0,0.98,-0,-0,-0,0.06,,0,0,0,0,0,0.0,0.0,0,0.0,0.0,0.0,0,0.0,0.0,0.0,0,0,0,0,0,,,,,,,,,,,,,,,,,,,,
504,0,,,247,251,237,234,,-0.06,-0.0,0.98,-0,-0,-0,0.06,,0,0,0,0,0,0.0,0.0,0,0.0,0.0,0.0,0,0.0,0.0,0.0,0,0,0,0,0,,,,,,,,,,,,,,,,,,,,
524,0,,,247,251,237,234,,-0.06,-0.0,0.98,-0,0,-0,0.06,,0,0,0,0,0,0.0,0.0,0,0.0,0.0,0.0,0,0.0,0.0,0.0,0,0,0,0,0,,,,,,,,,,,,,,,,,,,,
544,0,1,2,247,251,236,234,-13,-0.06,-0.0,0.98,-0,0,-0,0.06,1,0,0,0,0,0,0.0,0.0,0,0.0,0.0,0.0,0,0.0,0.0,0.0,0,0,0,0,0,0,0,0,0,0.0,0.0,0.0,0.0,0,0,0.0,0,0.0,-1,0.0,,0.0,0,0.0,0.0091
564,0,,,247,251,237,234,,-0.06,-0.0,0.98,-0,0,-0,0.06,,0,0,0,0,0,0.0,0.0,0,0.0,0.0,0.0,0,0.0,0.0,0.0,0,0,0,0,0,,,,,,,,,,,,,,,,,,,,
584,0,,,247,251,237,234,,-0.06,-0.0,0.98,-0,0,-0,0.06,,0,0,0,0,0,0.0,0.0,0,0.0,0.0,0.0,0,0.0,0.0,0.0,0,0,0,0,0,,,,,,,,,,,,,,,,,,,,
604,0,,,247,251,237,234,,-0.06,-0.0,0.98,-0,-0,-0,0.06,,0,0,0,0,0,0.0,0.0,0,0.0,0.0,0.0,0,0.0,0.0,0.0,0,0,0,0,0,,,,,,,,,,,,,,,,,,,,
624,0,,,246,251,237,234,,-0.06,-0.0,0.98,-0,-0,-0,0.06,,0,0,0,0,0,0.0,0.0,0,0.0,0.0,0.0,0,0.0,0.0,0.0,0,0,0,0,0,,,,,,,,,,,,,,,,,,,,
644,0,-1,4,247,251,236,234,-13,-0.06,-0.0,0.98,-0,-0,-0,0.06,1,0,0,0,0,0,0.0,0.0,0,0.0,0.0,0.0,0,0.0,0.0,0.0,0,0,0,0,0,0,0,0,0,0.0,0.0,0.0,0.0,0,0,0.0,0,0.0,-1,0.0,0.0,0.0,0,0.0,0.0107
664,0,,,246,251,237,234,,-0.06,-0.0,0.98,-0,-0,-0,0.06,,0,0,0,0,0,0.0,0.0,0,0.0,0.0,0.0,0,0.0,0.0,0.0,0,0,0,0,0,,,,,,,,,,,,,,,,,,,,
684,0,,,247,251,237,234,,-0.06,-0.0,0.98,-0,-0,-0,0.06,,0,0,0,0,0,0.0,0.0,0,0.0,0.0,0.0,0,0.0,0.0,0.0,0,0,0,0,0,,,,,,,,,,,,,,,,,,,,
704,0,,,246,251,237,234,,-0.06,-0.0,0.98,-0,-0,-0,0.06,,0,0,0,0,0,0.0,0.0,0,0.0,0.0,0.0,0,0.0,0.0,0.0,0,0,0,0,0,,,,,,,,,,,,,,,,,,,,
724,0,,,247,251,236,234,,-0.06,-0.0,0.98,-0,-0,-0,0.06,,0,0,0,0,0,0.0,0.0,0,0.0,0.0,0.0,0,0.0,0.0,0.0,0,0,0,0,0,,,,,,,,,,,,,,,,,,,,
744,0,0,4,247,251,237,234,-13,-0.06,-0.0,0.98,-0,-0,-0,0.06,1,0,0,0,0,0,0.0,0.0,0,0.0,0.0,0.0,0,0.0,0.0,0.0,0,0,0,0,0,0,0,0,0,0.0,0.0,0.0,0.0,0,0,0.0,0,0.0,-1,0.0,,0.0,0,0.0,0.0124
764,0,,,247,251,237,234,,-0.06,-0.0,0.98,-0,-0,-0,0.06,,0,0,0,0,0,0.0,0.0,0,0.0,0.0,0.0,0,0.0,0.0,0.0,0,0,0,0,0,,,,,,,,,,,,,,,,,,,,
784,0,,,247,251,237,234,,-0.06,-0.0,0.98,-0,-0,-0,0.06,,0,0,0,0,0,0.0,0.0,0,0.0,0.0,0.0,0,0.0,0.0,0.0,0,0,0,0,0,,,,,,,,,,,,,,,,,,,,
804,0,,,247,251,237,234,,-0.06,-0.0,0.98,-0,-0,-0,0.06,,0,0,0,0,0,0.0,0.0,0,0.0,0.0,0.0,0,0.0,0.0,0.0,0,0,0,0,0,,,,,,,,,,,,,,,,,,,,
824,0,,,247,251,237,234,,-0.06,-0.0,0.98,-0,-0,-0,0.06,,0,0,0,0,0,0.0,0.0,0,0.0,0.0,0.0,0,0.0,0.0,0.0,0,0,0,0,0,,,,,,,,,,,,,,,,,,,,
844,0,-1,5,247,251,237,234,-14,-0.06,-0.0,0.98,-0,-0,-0,0.06,1,0,0,0,0,0,0.0,0.0,0,0.0,0.0,0.0,0,0.0,0.0,0.0,0,0,0,0,0,0,0,0,0,0.0,0.0,0.0,0.0,0,0,0.0,0,0.0,-1,0.0,0.0,0.0,0,0.0,0.0141
864,0,,,247,251,237,234,,-0.06,-0.0,0.98,-0,-0,-0,0.06,,0,0,0,0,0,0.0,0.0,0,0.0,0.0,0.0,0,0.0,0.0,0.0,0,0,0,0,0,,,,,,,,,,,,,,,,,,,,
884,0,,,246,251,237,234,,-0.06,-0.0,0.98,-0,0,-0,0.06,,0,0,0,0,0,0.0,0.0,0,0.0,0.0,0.0,0,0.0,0.0,0.0,0,0,0,0,0,,,,,,,,,,,,,,,,,,,,
904,0,,,247,251,237,234,,-0.06,-0.0,0.98,-0,0,-0,0.06,,0,0,0,0,0,0.0,0.0,0,0.0,0.0,0.0,0,0.0,0.0,0.0,0,0,0,0,0,,,,,,,,,,,,,,,,,,,,
924,0,,,247,251,237,234,,-0.06,-0.0,0.98,-0,0,-0,0.06,,0,0,0,0,0,0.0,0.0,0,0.0,0.0,0.0,0,0.0,0.0,0.0,0,0,0,0,0,,,,,,,,,,,,,,,,,,,,
944,0,1,4,246,251,237,234,-13,-0.06,-0.0,0.98,-0,0,-0,0.06,1,0,0,0,0,0,0.0,0.0,0,0.0,0.0,0.0,0,0.0,0.0,0.0,0,0,0,0,0,0,0,0,0,0.0,0.0,0.0,0.0,0,0,0.0,0,0.0,-1,0.0,,0.0,0,0.0,0.0157
964,0,,,247,251,236,234,,-0.06,-0.0,0.98,-0,0,-0,0.06,,0,0,0,0,0,0.0,0.0,0,0.0,0.0,0.0,0,0.0,0.0,0.0,0,0,0,0,0,,,,,,,,,,,,,,,,,,,,
984,0,,,246,251,237,234,,-0.06,-0.0,0.99,-0,0,-0,0.06,,0,0,0,0,0,0.0,0.0,0,0.0,0.0,0.0,0,0.0,0.0,0.0,0,0,0,0,0,,,,,,,,,,,,,,,,,,,,
1004,0,,,247,251,237,234,,-0.06,-0.0,0.99,-0,0,-0,0.06,,0,0,0,0,0,0.0,0.0,0,0.0,0.0,0.0,0,0.0,0.0,0.0,0,0,0,0,0,,,,,,,,,,,,,,,,,,,,
1024,0,,,246,251,237,234,,-0.06,-0.0,0.99,-0,0,-0,0.06,,0,0,0,0,0,0.0,0.0,0,0.0,0.0,0.0,0,0.0,0.0,0.0,0,0,0,0,0,,,,,,,,,,,,,,,,,,,,
1044,0,-1,5,247,251,237,234,-14,-0.06,-0.0,0.99,-0,0,-0,0.06,1,0,0,0,0,0,0.0,0.0,0,0.0,0.0,0.0,0,0.0,0.0,0.0,0,0,0,0,0,0,0,0,0,0.0,0.0,0.0,0.0,0,0,0.0,0,0.0,-1,0.0,0.0,0.0,0,0.0,0.0174
1064,0,,,247,251,237,234,,-0.06,-0.0,0.99,-0,0,-0,0.06,,0,0,0,0,0,0.0,0.0,0,0.0,0.0,0.0,0,0.0,0.0,0.0,0,0,0,0,0,,,,,,,,,,,,,,,,,,,,
1084,0,,,247,251,237,234,,-0.06,-0.0,0.99,-0,0,-0,0.06,,0,0,0,0,0,0.0,0.0,0,0.0,0.0,0.0,0,0.0,0.0,0.0,0,0,0,0,0,,,,,,,,,,,,,,,,,,,,
1104,0,,,247,251,237,234,,-0.06,-0.0,0.99,-0,0,-0,0.06,,0,0,0,0,0,0.0,0.0,0,0.0,0.0,0.0,0,0.0,0.0,0.0,0,0,0,0,0,,,,,,,,,,,,,,,,,,,,
1124,0,,,247,251,237,234,,-0.06,-0.0,0.99,-0,0,-0,0.06,,0,0,0,0,0,0.0,0.0,0,0.0,0.0,0.0,0,0.0,0.0,0.0,0,0,0,0,0,,,,,,,,,,,,,,,,,,,,
1144,0,0,3,247,251,237,234,-13,-0.06,-0.0,0.99,-0,0,-0,0.06,1,0,0,0,0,0,0.0,0.0,0,0.0,0.0,0.0,0,0.0,0.0,0.0,0,0,0,0,0,0,0,0,0,0.0,0.0,0.0,0.0,0,0,0.0,0,0.0,-1,0.0,,0.0,0,0.0,0.0191
1164,0,,,247,251,237,234,,-0.06,-0.0,0.99,-0,0,-0,0.06,,0,0,0,0,0,0.0,0.0,0,0.0,0.0,0.0,0,0.0,0.0,0.0,0,0,0,0,0,,,,,,,,,,,,,,,,,,,,
1184,0,,,247,251,237,234,,-0.06,-0.0,0.98,-0,0,-0,0.06,,0,0,0,0,0,0.0,0.0,0,0.0,0.0,0.0,0,0.0,0.0,0.0,0,0,0,0,0,,,,,,,,,,,,,,,,,,,,
1204,0,,,247,251,237,234,,-0.06,-0.0,0.98,-0,0,-0,0.06,,0,0,0,0,0,0.0,0.0,0,0.0,0.0,0.0,0,0.0,0.0,0.0,0,0,0,0,0,,,,,,,,,,,,,,,,,,,,
1224,0,,,247,251,237,234,,-0.06,-0.0,0.98,-0,0,-0,0.06,,0,0,0,0,0,0.0,0.0,0,0.0,0.0,0.0,0,0.0,0.0,0.0,0,0,0,0,0,,,,,,,,,,,,,,,,,,,,
1244,0,0,2,247,251,237,234,-14,-0.06,-0.0,0.98,-0,0,-0,0.06,1,0,0,0,0,0,0.0,0.0,0,0.0,0.0,0.0,0,0.0,0.0,0.0,0,0,0,0,0,0,0,0,0,0.0,0.0,0.0,0.0,0,0,0.0,0,0.0,-1,0.0,0.0,0.0,0,0.0,0.0207
1264,0,,,247,251,237,234,,-0.06,-0.0,0.98,-0,0,-0,0.06,,0,0,0,0,0,0.0,0.0,0,0.0,0.0,0.0,0,0.0,0.0,0.0,0,0,0,0,0,,,,,,,,,,,,,,,,,,,,
1284,0,,,247,251,236,234,,-0.06,-0.0,0.98,-0,0,-0,0.06,,0,0,0,0,0,0.0,0.0,0,0.0,0.0,0.0,0,0.0,0.0,0.0,0,0,0,0,0,,,,,,,,,,,,,,,,,,,,
1304,0,,,246,251,237,234,,-0.06,-0.0,0.98,-0,0,-0,0.06,,0,0,0,0,0,0.0,0.0,0,0.0,0.0,0.0,0,0.0,0.0,0.0,0,0,0,0,0,,,,,,,,,,,,,,,,,,,,
1324,0,,,247,251,237,234,,-0.06,-0.0,0.98,-0,0,-0,0.06,,0,0,0,0,0,0.0,0.0,0,0.0,0.0,0.0,0,0.0,0.0,0.0,0,0,0,0,0,,,,,,,,,,,,,,,,,,,,
1344,0,-1,5,247,251,237,234,-13,-0.06,-0.0,0.98,-0,0,-0,0.06,1,0,0,0,0,0,0.0,0.0,0,0.0,0.0,0.0,0,0.0,0.0,0.0,0,0,0,0,0,0,0,0,0,0.0,0.0,0.0,0.0,0,0,0.0,0,0.0,-1,0.0,,0.0,0,0.0,0.0224
1364,0,,,246,251,237,234,,-0.06,-0.0,0.98,-0,0,-0,0.06,,0,0,0,0,0,0.0,0.0,0,0.0,0.0,0.0,0,0.0,0.0,0.0,0,0,0,0,0,,,,,,,,,,,,,,,,,,,,
1384,0,,,247,251,237,234,,-0.06,-0.0,0.98,-0,0,-0,0.06,,0,0,0,0,0,0.0,0.0,0,0.0,0.0,0.0,0,0.0,0.0,0.0,0,0,0,0,0,,,,,,,,,,,,,,,,,,,,
1404,0,,,247,251,236,234,,-0.06,-0.0,0.98,-0,-0,-0,0.06,,0,0,0,0,0,0.0,0.0,0,0.0,0.0,0.0,0,0.0,0.0,0.0,0,0,0,0,0,,,,,,,,,,,,,,,,,,,,
1424,0,,,247,251,237,234,,-0.06,-0.0,0.98,-0,-0,-0,0.06,,0,0,0,0,0,0.0,0.0,0,0.0,0.0,0.0,0,0.0,0.0,0.0,0,0,0,0,0,,,,,,,,,,,,,,,,,,,,
1444,0,0,3,246,251,237,234,-13,-0.06,-0.0,0.98,-0,-0,-0,0.06,1,0,0,0,0,0,0.0,0.0,0,0.0,0.0,0.0,0,0.0,0.0,0.0,0,0,0,0,0,0,0,0,0,0.0,0.0,0.0,0.0,0,0,0.0,0,0.0,-1,0.0,0.0,0.0,0,0.0,0.0241
1464,0,,,247,251,236,234,,-0.06,-0.0,0.98,-0,-0,-0,0.06,,0,0,0,0,0,0.0,0.0,0,0.0,0.0,0.0,0,0.0,0.0,0.0,0,0,0,0,0,,,,,,,,,,,,,,,,,,,,
1484,0,,,247,251,237,234,,-0.06,-0.0,0.98,-0,-0,-0,0.06,,0,0,0,0,0,0.0,0.0,0,0.0,0.0,0.0,0,0.0,0.0,0.0,0,0,0,0,0,,,,,,,,,,,,,,,,,,,,
1504,0,,,247,251,237,234,,-0.06,-0.0,0.98,-0,-0,-0,0.06,,0,0,0,0,0,0.0,0.0,0,0.0,0.0,0.0,0,0.0,0.0,0.0,0,0,0,0,0,,,,,,,,,,,,,,,,,,,,
1524,0,,,247,251,237,234,,-0.06,-0.0,0.98,-0,-0,-0,0.06,,0,0,0,0,0,0.0,0.0,0,0.0,0.0,0.0,0,0.0,0.0,0.0,0,0,0,0,0,,,,,,,,,,,,,,,,,,,,
1544,0,0,5,246,251,237,234,-13,-0.06,-0.0,0.98,-0,-0,-0,0.06,1,0,0,0,0,0,0.0,0.0,0,0.0,0.0,0.0,0,0.0,0.0,0.0,0,0,0,0,0,0,0,0,0,0.0,0.0,0.0,0.0,0,0,0.0,0,0.0,-1,0.0,,0.0,0,0.0,0.0257
1564,0,,,247,251,237,234,,-0.06,-0.0,0.98,-0,-0,-0,0.06,,0,0,0,0,0,0.0,0.0,0,0.0,0.0,0.0,0,0.0,0.0,0.0,0,0,0,0,0,,,,,,,,,,,,,,,,,,,,
1584,0,,,247,251,237,234,,-0.06,-0.0,0.98,-0,-0,-0,0.06,,0,0,0,0,0,0.0,0.0,0,0.0,0.0,0.0,0,0.0,0.0,0.0,0,0,0,0,0,,,,,,,,,,,,,,,,,,,,
1604,0,,,247,251,236,234,,-0.06,-0.0,0.98,-0,-0,-0,0.06,,0,0,0,0,0,0.0,0.0,0,0.0,0.0,0.0,0,0.0,0.0,0.0,0,0,0,0,0,,,,,,,,,,,,,,,,,,,,
1624,0,,,247,251,237,234,,-0.06,-0.0,0.98,-0,-0,-0,0.06,,0,0,0,0,0,0.0,0.0,0,0.0,0.0,0.0,0,0.0,0.0,0.0,0,0,0,0,0,,,,,,,,,,,,,,,,,,,,
1644,0,-1,4,247,251,237,234,-13,-0.06,-0.0,0.98,-0,-0,-0,0.06,1,0,0,0,0,0,0.0,0.0,0,0.0,0.0,0.0,0,0.0,0.0,0.0,0,0,0,0,0,0,0,0,0,0.0,0.0,0.0,0.0,0,0,0.0,0,0.0,-1,0.0,0.0,0.0,0,0.0,0.0274
1664,0,,,247,251,237,234,,-0.06,-0.0,0.98,-0,-0,-0,0.06,,0,0,0,0,0,0.0,0.0,0,0.0,0.0,0.0,0,0.0,0.0,0.0,0,0,0,0,0,,,,,,,,,,,,,,,,,,,,
1684,0,,,246,251,237,234,,-0.06,-0.0,0.98,-0,-0,-0,0.06,,0,0,0,0,0,0.0,0.0,0,0.0,0.0,0.0,0,0.0,0.0,0.0,0,0,0,0,0,,,,,,,,,,,,,,,,,,,,
1704,0,,,247,251,237,234,,-0.06,-0.0,0.98,-0,-0,-0,0.06,,0,0,0,0,0,0.0,0.0,0,0.0,0.0,0.0,0,0.0,0.0,0.0,0,0,0,0,0,,,,,,,,,,,,,,,,,,,,
1724,0,,,247,251,237,234,,-0.06,-0.0,0.98,-0,-0,-0,0.06,,0,0,0,0,0,0.0,0.0,0,0.0,0.0,0.0,0,0.0,0.0,0.0,0,0,0,0,0,,,,,,,,,,,,,,,,,,,,
1744,0,0,5,246,251,237,234,-13,-0.06,-0.0,0.98,-0,-0,-0,0.06,1,0,0,0,0,0,0.0,0.0,0,0.0,0.0,0.0,0,0.0,0.0,0.0,0,0,0,0,0,0,0,0,0,0.0,0.0,0.0,0.0,0,0,0.0,0,0.0,-1,0.0,,0.0,0,0.0,0.0291
1764,0,,,247,251,236,234,,-0.06,-0.0,0.98,-0,-0,-0,0.06,,0,0,0,0,0,0.0,0.0,0,0.0,0.0,0.0,0,0.0,0.0,0.0,0,0,0,0,0,,,,,,,,,,,,,,,,,,,,
1784,0,,,247,251,237,234,,-0.06,-0.0,0.98,-0,-0,-0,0.06,,0,0,0,0,0,0.0,0.0,0,0.0,0.0,0.0,0,0.0,0.0,0.0,0,0,0,0,0,,,,,,,,,,,,,,,,,,,,
1804,0,,,247,251,237,234,,-0.06,-0.0,0.98,-0,-0,-0,0.06,,0,0,0,0,0,0.0,0.0,0,0.0,0.0,0.0,0,0.0,0.0,0.0,0,0,0,0,0,,,,,,,,,,,,,,,,,,,,
1824,0,,,247,251,237,234,,-0.06,-0.0,0.98,-0,-0,-0,0.06,,0,0,0,0,0,0.0,0.0,0,0.0,0.0,0.0,0,0.0,0.0,0.0,0,0,0,0,0,,,,,,,,,,,,,,,,,,,,
1844,0,0,2,247,251,237,234,-14,-0.06,-0.0,0.98,-0,-0,-0,0.06,1,0,0,0,0,0,0.0,0.0,0,0.0,0.0,0.0,0,0.0,0.0,0.0,0,0,0,0,0,0,0,0,0,0.0,0.0,0.0,0.0,0,0,0.0,0,0.0,-1,0.0,0.0,0.0,0,0.0,0.0307
1864,0,,,246,251,237,234,,-0.06,-0.0,0.98,-0,-0,-0,0.06,,0,0,0,0,0,0.0,0.0,0,0.0,0.0,0.0,0,0.0,0.0,0.0,0,0,0,0,0,,,,,,,,,,,,,,,,,,,,
1884,0,,,247,251,237,234,,-0.06,-0.0,0.98,-0,-0,-0,0.06,,0,0,0,0,0,0.0,0.0,0,0.0,0.0,0.0,0,0.0,0.0,0.0,0,0,0,0,0,,,,,,,,,,,,,,,,,,,,
1904,0,,,247,251,237,234,,-0.06,-0.0,0.98,-0,0,-0,0.06,,0,0,0,0,0,0.0,0.0,0,0.0,0.0,0.0,0,0.0,0.0,0.0,0,0,0,0,0,,,,,,,,,,,,,,,,,,,,
1924,0,,,246,251,237,234,,-0.06,-0.0,0.98,-0,0,-0,0.06,,0,0,0,0,0,0.0,0.0,0,0.0,0.0,0.0,0,0.0,0.0,0.0,0,0,0,0,0,,,,,,,,,,,,,,,,,,,,
1944,0,-0,4,247,251,237,234,-14,-0.06,-0.0,0.98,-0,0,-0,0.06,1,0,0,0,0,0,0.0,0.0,0,0.0,0.0,0.0,0,0.0,0.0,0.0,0,0,0,0,0,0,0,0,0,0.0,0.0,0.0,0.0,0,0,0.0,0,0.0,-1,0.0,,0.0,0,0.0,0.0324
1964,0,,,247,251,237,234,,-0.06,-0.0,0.98,-0,0,-0,0.06,,0,0,0,0,0,0.0,0.0,0,0.0,0.0,0.0,0,0.0,0.0,0.0,0,0,0,0,0,,,,,,,,,,,,,,,,,,,,
1984,0,,,246,251,237,234,,-0.06,-0.0,0.98,-0,0,-0,0.06,,0,0,0,0,0,0.0,0.0,0,0.0,0.0,0.0,0,0.0,0.0,0.0,0,0,0,0,0,,,,,,,,,,,,,,,,,,,,
2004,0,,,247,251,236,234,,-0.06,-0.0,0.98,-0,0,-0,0.06,,0,0,0,0,0,0.0,0.0,0,0.0,0.0,0.0,0,0.0,0.0,0.0,0,0,0,0,0,,,,,,,,,,,,,,,,,,,,
2024,0,,,246,251,237,234,,-0.06,-0.0,0.98,-0,0,-0,0.06,,0,0,0,0,0,0.0,0.0,0,0.0,0.0,0.0,0,0.0,0.0,0.0,0,0,0,0,0,,,,,,,,,,,,,,,,,,,,
2044,0,0,6,246,251,237,234,-14,-0.06,-0.0,0.98,-0,0,-0,0.06,1,0,0,0,0,0,0.0,0.0,0,0.0,0.0,0.0,0,0.0,0.0,0.0,0,0,0,0,0,0,0,0,0,0.0,0.0,0.0,0.0,0,0,0.0,0,0.0,-1,0.0,0.0,0.0,0,0.0,0.0341
2064,0,,,247,251,236,234,,-0.06,-0.0,0.98,-0,0,-0,0.06,,0,0,0,0,0,0.0,0.0,0,0.0,0.0,0.0,0,0.0,0.0,0.0,0,0,0,0,0,,,,,,,,,,,,,,,,,,,,
2084,0,,,247,251,237,234,,-0.06,-0.0,0.98,-0,0,-0,0.06,,0,0,0,0,0,0.0,0.0,0,0.0,0.0,0.0,0,0.0,0.0,0.0,0,0,0,0,0,,,,,,,,,,,,,,,,,,,,
2104,0,,,247,251,237,234,,-0.06,-0.0,0.99,-0,0,-0,0.06,,0,0,0,0,0,0.0,0.0,0,0.0,0.0,0.0,0,0.0,0.0,0.0,0,0,0,0,0,,,,,,,,,,,,,,,,,,,,
2124,0,,,246,251,237,234,,-0.06,-0.0,0.99,-0,0,-0,0.06,,0,0,0,0,0,0.0,0.0,0,0.0,0.0,0.0,0,0.0,0.0,0.0,0,0,0,0,0,,,,,,,,,,,,,,,,,,,,
2144,0,-1,5,247,251,237,234,-13,-0.06,-0.0,0.99,-0,0,-0,0.06,1,0,0,0,0,0,0.0,0.0,0,0.0,0.0,0.0,0,0.0,0.0,0.0,0,0,0,0,0,0,0,0,0,0.0,0.0,0.0,0.0,0,0,0.0,0,0.0,-1,0.0,,0.0,0,0.0,0.0357
2164,0,,,247,251,237,234,,-0.06,-0.0,0.99,-0,0,-0,0.06,,0,0,0,0,0,0.0,0.0,0,0.0,0.0,0.0,0,0.0,0.0,0.0,0,0,0,0,0,,,,,,,,,,,,,,,,,,,,
2184,0,,,247,251,237,234,,-0.06,-0.0,0.99,-0,0,-0,0.06,,89,0,8,28,97,0.5,0.0,118,4.8,12.4,0.0,1,0.0,0.0,0.0,0,0,1,1,0,,,,,,,,,,,,,,,,,,,,
2204,0,,,247,251,237,234,,-0.06,-0.0,0.99,-0,0,-0,0.06,,89,0,8,28,97,0.5,0.0,118,4.81,12.4,0.0,1,0.0,0.0,0.0,0,0,1,1,0,,,,,,,,,,,,,,,,,,,,
2224,0,,,247,251,237,234,,-0.06,-0.0,0.99,-0,0,-0,0.06,,89,0,8,28,97,0.5,0.0,118,4.81,12.4,0.0,1,0.0,0.0,0.0,0,0,1,1,0,,,,,,,,,,,,,,,,,,,,
2244,0,0,4,247,251,237,234,-13,-0.06,-0.0,0.99,-0,0,-0,0.06,1,89,0,8,28,97,0.5,0.0,118,4.81,12.4,0.0,1,0.0,0.0,0.0,0,0,1,1,0,0,250,250,0,0.0,0.0,0.0,0.0,0,0,0.0,0,0.0,-1,0.0,0.0,0.0,0,0.0,0.0374
2264,0,,,246,251,237,234,,-0.06,-0.0,0.99,-0,0,-0,0.06,,89,0,8,28,97,0.5,0.0,118,4.8,12.4,0.0,1,0.0,0.0,0.0,0,0,1,1,0,,,,,,,,,,,,,,,,,,,,
2284,0,,,247,251,237,234,,-0.06,-0.0,0.99,-0,0,-0,0.06,,89,0,8,28,97,0.5,0.0,118,4.8,12.4,0.0,1,0.0,0.0,0.0,0,0,1,1,0,,,,,,,,,,,,,,,,,,,,
2304,0,,,246,251,237,234,,-0.06,-0.0,0.99,-0,0,-0,0.06,,89,0,8,28,97,0.5,0.0,118,4.79,12.4,0.0,1,0.0,0.0,0.0,0,0,1,1,0,,,,,,,,,,,,,,,,,,,,
2324,0,,,247,251,237,234,,-0.06,-0.0,0.99,-0,0,-0,0.06,,89,0,8,28,97,0.5,0.0,118,4.8,12.4,0.0,1,0.0,0.0,0.0,0,0,1,1,0,,,,,,,,,,,,,,,,,,,,
2344,0,1,6,246,251,237,235,-14,-0.06,-0.0,0.99,-0,0,-0,0.06,1,89,0,8,28,97,0.5,0.0,118,4.82,12.4,0.0,1,0.0,0.0,0.0,0,0,1,1,0,0,250,250,0,0.0,0.0,0.0,0.0,0,0,0.0,0,0.0,-1,0.0,,0.0,0,0.0,0.0391
2364,0,,,246,251,237,234,,-0.06,-0.0,0.99,-0,0,-0,0.06,,89,0,8,28,97,0.5,0.0,118,4.8,12.4,0.0,1,0.0,0.0,0.0,0,0,1,1,0,,,,,,,,,,,,,,,,,,,,
2384,0,,,247,251,236,234,,-0.06,-0.0,0.99,-0,0,-0,0.06,,89,0,8,28,97,0.5,0.0,118,4.8,12.4,0.0,1,0.0,0.0,0.0,0,0,1,1,0,,,,,,,,,,,,,,,,,,,,
2404,0,,,247,251,237,234,,-0.06,-0.0,0.99,-0,0,-0,0.06,,89,0,8,28,97,0.5,0.0,118,4.81,12.4,0.0,1,0.0,0.0,0.0,0,0,1,1,0,,,,,,,,,,,,,,,,,,,,
2424,0,,,247,251,236,234,,-0.06,-0.0,0.99,-0,0,-0,0.06,,89,0,7,28,97,0.5,0.0,118,4.81,12.4,0.0,1,0.0,0.0,0.0,0,0,1,1,0,,,,,,,,,,,,,,,,,,,,
2444,0,1,2,247,251,237,234,-13,-0.06,-0.0,0.99,-0,0,-0,0.06,1,89,0,8,28,97,0.5,0.0,118,4.8,12.4,0.0,1,0.0,0.0,0.0,0,0,1,1,0,0,250,250,0,0.0,0.0,0.0,0.0,0,0,0.0,0,0.0,-1,0.0,0.0,0.0,0,0.0,0.0407
2464,0,,,246,251,237,234,,-0.06,-0.0,0.99,-0,0,-0,0.06,,89,0,8,28,97,0.5,0.0,118,4.8,12.4,0.0,1,0.0,0.0,0.0,0,0,1,1,0,,,,,,,,,,,,,,,,,,,,
2484,0,,,247,251,237,234,,-0.06,-0.0,0.99,-0,0,-0,0.06,,89,0,8,28,97,0.5,0.0,118,4.81,12.4,0.0,1,0.0,0.0,0.0,0,0,1,1,0,,,,,,,,,,,,,,,,,,,,
2504,0,,,247,251,237,234,,-0.06,-0.0,0.99,-0,0,-0,0.06,,89,0,8,28,97,0.501,0.0,118,4.8,12.3,0.0,1,0.0,0.0,0.0,0,0,1,1,0,,,,,,,,,,,,,,,,,,,,
2524,0,,,247,251,236,234,,-0.06,-0.0,0.99,-0,0,-0,0.06,,89,0,8,28,97,0.501,0.0,118,4.81,12.3,0.0,1,0.0,0.0,0.0,0,0,1,1,0,,,,,,,,,,,,,,,,,,,,
2544,0,-1,5,247,251,237,234,-13,-0.06,-0.0,0.99,-0,0,-0,0.06,1,89,0,8,28,97,0.501,0.0,118,4.79,12.3,0.0,1,0.0,0.0,0.0,0,0,1,1,0,0,250,250,0,0.0,0.0,0.0,0.0,0,0,0.0,0,0.0,-1,0.0,,0.0,0,0.0,0.0424
2564,0,,,247,251,237,234,,-0.06,-0.0,0.99,-0,0,-0,0.06,,89,0,8,28,97,0.501,0.0,118,4.79,12.3,0.0,1,0.0,0.0,0.0,0,0,1,1,0,,,,,,,,,,,,,,,,,,,,
2584,0,,,247,251,236,234,,-0.06,-0.0,0.99,-0,0,-0,0.06,,89,0,8,28,97,0.501,0.0,118,4.8,12.3,0.0,1,0.0,0.0,0.0,0,0,1,1,0,,,,,,,,,,,,,,,,,,,,
2604,0,,,247,251,237,234,,-0.07,-0.0,0.99,-0,0,-0,0.07,,89,0,8,28,97,0.501,0.0,118,4.8,12.3,0.0,1,0.0,0.0,0.0,0,0,1,1,0,,,,,,,,,,,,,,,,,,,,
2624,0,,,247,251,237,234,,-0.07,-0.0,0.99,-0,0,-0,0.07,,89,0,8,28,97,0.501,0.0,118,4.8,12.3,0.0,1,0.0,0.0,0.0,0,0,1,1,0,,,,,,,,,,,,,,,,,,,,
2644,0,-1,5,247,251,237,234,-13,-0.06,-0.0,0.99,-0,0,-0,0.06,1,89,0,8,28,97,0.501,0.0,118,4.81,12.4,0.0,1,0.0,0.0,0.0,0,0,1,1,0,0,250,250,0,0.0,0.0,0.0,0.0,0,0,0.0,0,0.0,-1,0.0,0.0,0.0,0,0.0,0.0441
2664,0,,,247,251,237,234,,-0.06,-0.0,0.99,-0,0,-0,0.06,,89,0,8,28,97,0.501,0.0,118,4.8,12.4,0.0,1,0.0,0.0,0.0,0,0,1,1,0,,,,,,,,,,,,,,,,,,,,
2684,0,,,246,251,237,234,,-0.06,-0.0,0.99,-0,0,-0,0.06,,89,0,8,28,97,0.501,0.0,118,4.8,12.4,0.0,1,0.0,0.0,0.0,0,0,1,1,0,,,,,,,,,,,,,,,,,,,,
2704,0,,,247,251,237,234,,-0.06,-0.0,0.99,-0,0,-0,0.06,,89,0,8,28,97,0.501,0.0,118,4.81,12.4,0.0,1,0.0,0.0,0.0,0,0,1,1,0,,,,,,,,,,,,,,,,,,,,
2724,0,,,247,251,236,234,,-0.06,-0.0,0.99,-0,0,-0,0.06,,89,0,8,28,97,0.502,0.0,118,4.81,12.4,0.0,1,0.0,0.0,0.0,0,0,1,1,0,,,,,,,,,,,,,,,,,,,,
2744,0,-1,5,247,251,237,234,-13,-0.06,-0.0,0.99,-0,0,-0,0.06,1,89,0,8,28,97,0.501,0.0,118,4.8,12.4,0.0,1,0.0,0.0,0.0,0,0,1,1,0,0,250,250,0,0.0,0.0,0.0,0.0,0,0,0.0,0,0.0,-1,0.0,,0.0,0,0.0,0.0457
2764,0,,,247,251,237,234,,-0.06,-0.0,0.99,-0,0,-0,0.06,,89,0,8,28,97,0.501,0.0,118,4.79,12.4,0.0,1,0.0,0.0,0.0,0,0,1,1,0,,,,,,,,,,,,,,,,,,,,
2784,0,,,247,251,237,234,,-0.06,-0.0,0.99,-0,0,-0,0.06,,89,0,8,28,97,0.501,0.0,118,4.8,12.4,0.0,1,0.0,0.0,0.0,0,0,1,1,0,,,,,,,,,,,,,,,,,,,,
2804,0,,,247,251,237,234,,-0.06,-0.0,0.99,-0,0,-0,0.06,,89,0,8,28,97,0.501,0.0,118,4.78,12.4,0.0,1,0.0,0.0,0.0,0,0,1,1,0,,,,,,,,,,,,,,,,,,,,
2824,0,,,247,251,236,234,,-0.06,-0.0,0.99,-0,0,-0,0.06,,89,0,7,28,97,0.501,0.0,118,4.79,12.4,0.0,1,0.0,0.0,0.0,0,0,1,1,0,,,,,,,,,,,,,,,,,,,,
2844,0,-1,5,247,251,237,234,-13,-0.06,-0.0,0.99,-0,0,-0,0.06,1,89,0,7,28,97,0.501,0.0,118,4.8,12.4,0.0,1,0.0,0.0,0.0,0,0,1,1,0,0,250,250,0,0.0,0.0,0.0,0.0,0,0,0.0,0,0.0,-1,0.0,0.0,0.0,0,0.0,0.0474
2864,0,,,247,251,237,234,,-0.06,-0.0,0.99,-0,0,-0,0.06,,89,0,8,28,97,0.501,0.0,118,4.8,12.4,0.0,1,0.0,0.0,0.0,0,0,1,1,0,,,,,,,,,,,,,,,,,,,,
2884,0,,,247,251,236,234,,-0.06,-0.0,0.99,-0,0,-0,0.06,,89,0,8,28,97,0.501,0.0,118,4.81,12.4,0.0,1,0.0,0.0,0.0,0,0,1,1,0,,,,,,,,,,,,,,,,,,,,
2904,0,,,247,251,237,234,,-0.06,-0.0,0.99,-0,0,-0,0.06,,89,0,8,28,97,0.501,0.0,118,4.81,12.4,0.0,1,0.0,0.0,0.0,0,0,1,1,0,,,,,,,,,,,,,,,,,,,,
2924,0,,,247,251,237,234,,-0.06,-0.0,0.99,-0,0,-0,0.06,,89,0,8,28,97,0.501,0.0,118,4.82,12.4,0.0,1,0.0,0.0,0.0,0,0,1,1,0,,,,,,,,,,,,,,,,,,,,
2944,0,0,4,247,251,237,234,-14,-0.06,-0.0,0.99,-0,0,-0,0.06,1,89,0,8,28,97,0.501,0.0,118,4.82,12.4,0.0,1,0.0,0.0,0.0,0,0,1,1,0,0,250,250,0,0.0,0.0,0.0,0.0,0,0,0.0,0,0.0,-1,0.0,,0.0,0,0.0,0.0491
2964,0,,,247,251,237,234,,-0.06,-0.0,0.99,-0,0,-0,0.06,,89,0,8,28,97,0.501,0.0,118,4.81,12.4,0.0,1,0.0,0.0,0.0,0,0,1,1,0,,,,,,,,,,,,,,,,,,,,
2984,0,,,247,251,237,234,,-0.06,-0.0,1.0,-0,0,-0,0.06,,89,0,8,28,97,0.502,0.0,118,4.8,12.4,0.0,1,0.0,0.0,0.0,0,0,1,1,0,,,,,,,,,,,,,,,,,,,,
3004,0,,,247,251,236,234,,-0.06,-0.0,1.0,-0,0,-0,0.06,,89,0,8,28,97,0.502,0.0,118,4.8,12.4,0.0,1,0.0,0.0,0.0,0,0,1,1,0,,,,,,,,,,,,,,,,,,,,
3024,0,,,247,251,237,234,,-0.06,-0.0,1.0,-0,0,-0,0.06,,89,0,8,28,97,0.502,0.0,118,4.8,12.4,0.0,1,0.0,0.0,0.0,0,0,1,1,0,,,,,,,,,,,,,,,,,,,,
3044,0,-0,4,247,251,237,234,-13,-0.06,-0.0,1.0,-0,0,-0,0.06,1,89,0,8,28,97,0.502,0.0,118,4.79,12.4,0.0,1,0.0,0.0,0.0,0,0,1,1,0,0,250,250,0,0.0,0.0,0.0,0.0,0,0,0.0,0,0.0,-1,0.0,0.0,0.0,0,0.0,0.0507
3064,0,,,246,251,237,234,,-0.06,-0.0,1.0,-0,0,-0,0.06,,89,0,8,28,97,0.502,0.0,118,4.81,12.4,0.0,1,0.0,0.0,0.0,0,0,1,1,0,,,,,,,,,,,,,,,,,,,,
3084,0,,,247,251,237,234,,-0.06,-0.0,1.0,-0,0,-0,0.06,,89,0,8,28,97,0.502,0.0,118,4.8,12.4,0.0,1,0.0,0.0,0.0,0,0,1,1,0,,,,,,,,,,,,,,,,,,,,
3104,0,,,247,251,237,234,,-0.06,-0.0,1.0,-0,0,-0,0.06,,89,0,8,28,97,0.502,0.0,118,4.81,12.4,0.0,1,0.0,0.0,0.0,0,0,1,1,0,,,,,,,,,,,,,,,,,,,,
3124,0,,,247,251,237,234,,-0.06,-0.0,1.0,-0,0,-0,0.06,,89,0,8,28,97,0.503,0.0,118,4.8,12.4,0.0,1,0.0,0.0,0.0,0,0,1,1,0,,,,,,,,,,,,,,,,,,,,
3144,0,0,3,247,251,237,234,-14,-0.06,-0.0,1.0,-0,0,-0,0.06,1,89,0,7,28,97,0.503,0.0,118,4.81,12.4,0.0,1,0.0,0.0,0.0,0,0,1,1,0,0,250,250,0,0.0,0.0,0.0,0.0,0,0,0.0,0,0.0,-1,0.0,,0.0,0,0.0,0.0524
3164,0,,,247,251,237,234,,-0.06,-0.0,1.0,-0,0,-0,0.06,,89,0,8,28,97,0.503,0.0,118,4.8,12.4,0.0,1,0.0,0.0,0.0,0,0,1,1,0,,,,,,,,,,,,,,,,,,,,
3184,0,,,247,251,236,234,,-0.06,-0.0,1.0,-0,0,-0,0.06,,89,0,8,28,97,0.503,0.0,118,4.81,12.4,0.0,1,0.0,0.0,0.0,0,0,1,0,0,,,,,,,,,,,,,,,,,,,,
3204,0,,,247,251,237,234,,-0.06,-0.0,1.0,-0,0,-0,0.06,,89,0,8,28,97,0.503,0.0,118,4.73,12.6,0.0,1,0.0,0.0,0.0,0,0,1,0,0,,,,,,,,,,,,,,,,,,,,
3224,0,,,247,251,237,234,,-0.06,-0.0,1.0,-0,0,-0,0.06,,89,0,8,28,97,0.504,0.0,118,4.25,12.6,0.0,1,0.0,0.0,0.0,0,0,1,0,0,,,,,,,,,,,,,,,,,,,,
3244,0,1,2,247,251,237,234,-13,-0.06,-0.0,1.0,-0,0,-0,0.06,1,89,0,8,28,97,0.504,0.0,118,3.51,12.6,0.0,1,0.0,0.0,0.0,0,0,1,0,0,0,250,250,0,0.0,0.0,0.0,0.0,0,0,0.0,0,0.0,-1,0.0,0.0,0.0,0,0.0,0.0541
3264,0,,,247,251,236,234,,-0.06,-0.0,1.0,-0,0,-0,0.06,,89,0,8,28,97,0.504,0.0,118,3.32,12.6,0.0,1,0.0,0.0,0.0,0,0,1,0,0,,,,,,,,,,,,,,,,,,,,
3284,0,,,247,251,236,234,,-0.06,-0.0,1.0,-0,0,-0,0.06,,89,0,8,28,97,0.504,0.0,118,3.18,12.6,0.0,1,0.0,0.0,0.0,0,0,1,0,0,,,,,,,,,,,,,,,,,,,,
3304,0,,,247,251,237,234,,-0.06,-0.0,0.99,-0,0,-0,0.06,,89,0,8,28,97,0.505,0.0,118,3.08,12.6,0.0,1,0.0,0.0,0.0,0,0,1,0,0,,,,,,,,,,,,,,,,,,,,
3324,0,,,247,251,237,234,,-0.06,-0.0,0.99,-0,0,-0,0.06,,89,0,8,28,97,0.505,0.0,118,2.98,12.6,0.0,1,0.0,0.0,0.0,0,0,1,0,0,,,,,,,,,,,,,,,,,,,,
3344,0,-0,3,247,251,237,234,-14,-0.06,-0.0,0.99,-0,0,-0,0.06,1,89,0,8,28,97,0.505,0.0,118,2.9,12.6,0.0,1,0.0,0.0,0.0,0,0,1,0,0,0,250,250,0,0.0,0.0,0.0,0.0,0,0,0.0,0,0.0,-1,0.0,,0.0,0,0.0,0.0557
3364,0,,,247,251,237,234,,-0.06,-0.0,0.99,-0,0,-0,0.06,,89,0,8,28,97,0.505,0.0,118,2.83,12.6,0.0,1,0.0,0.0,0.0,0,0,1,0,0,,,,,,,,,,,,,,,,,,,,
3384,0,,,247,251,236,234,,-0.06,-0.0,0.99,-0,0,-0,0.06,,89,0,8,28,97,0.505,0.0,118,2.76,12.6,0.0,1,0.0,0.0,0.0,0,0,1,0,0,,,,,,,,,,,,,,,,,,,,
3404,0,,,247,251,236,234,,-0.06,-0.0,0.99,-0,0,-0,0.06,,89,0,8,28,97,0.506,0.0,118,2.7,12.6,0.0,1,0.0,0.0,0.0,0,0,1,0,0,,,,,,,,,,,,,,,,,,,,
3424,0,,,247,251,237,234,,-0.06,-0.0,0.99,-0,0,-0,0.06,,89,0,8,28,97,0.506,0.0,118,2.65,12.6,0.0,1,0.0,0.0,0.0,0,0,1,0,0,,,,,,,,,,,,,,,,,,,,
3444,0,-1,5,247,251,237,234,-13,-0.06,-0.0,0.99,-0,0,-0,0.06,1,89,0,8,28,97,0.506,0.0,118,2.6,12.6,0.0,1,0.0,0.0,0.0,0,0,1,0,0,0,250,250,0,0.0,0.0,0.0,0.0,0,0,0.0,0,0.0,-1,0.0,0.0,0.0,0,0.0,0.0574
3464,0,,,247,251,237,234,,-0.06,-0.0,0.99,-0,0,-0,0.06,,89,0,8,28,97,0.506,0.0,118,2.54,12.6,0.0,1,0.0,0.0,0.0,0,0,1,0,0,,,,,,,,,,,,,,,,,,,,
3484,0,,,247,251,237,234,,-0.06,-0.0,0.99,-0,0,-0,0.06,,89,0,8,28,97,0.506,0.0,118,2.51,12.6,0.0,1,0.0,0.0,0.0,0,0,1,0,0,,,,,,,,,,,,,,,,,,,,
3504,0,,,247,251,237,234,,-0.06,-0.0,0.99,-0,0,-0,0.06,,89,0,8,28,97,0.506,0.0,118,2.46,12.6,0.0,1,0.0,0.0,0.0,0,0,1,0,0,,,,,,,,,,,,,,,,,,,,
3524,0,,,247,251,237,234,,-0.06,-0.0,0.99,-0,0,-0,0.06,,89,0,8,28,97,0.506,0.0,118,2.43,12.6,0.0,1,0.0,0.0,0.0,0,0,1,0,0,,,,,,,,,,,,,,,,,,,,
3544,0,-0,3,247,251,237,234,-14,-0.06,-0.0,0.99,-0,0,-0,0.06,1,89,0,8,28,97,0.507,0.0,118,2.4,12.6,0.0,1,0.0,0.0,0.0,0,0,1,0,0,0,250,250,0,0.0,0.0,0.0,0.0,0,0,0.0,0,0.0,-1,0.0,,0.0,0,0.0,0.0591
3564,0,,,247,251,237,234,,-0.06,-0.0,0.99,-0,0,-0,0.06,,89,0,8,28,97,0.507,0.0,118,2.36,12.6,0.0,1,0.0,0.0,0.0,0,0,1,0,0,,,,,,,,,,,,,,,,,,,,
3584,0,,,246,251,237,234,,-0.06,-0.0,0.99,-0,0,-0,0.06,,89,0,8,28,97,0.507,0.0,118,2.32,12.6,0.0,1,0.0,0.0,0.0,0,0,1,0,0,,,,,,,,,,,,,,,,,,,,
3604,0,,,247,251,236,234,,-0.06,-0.0,0.99,-0,0,-0,0.06,,89,0,8,28,97,0.507,0.0,118,2.3,12.6,0.0,1,0.0,0.0,0.0,0,0,1,0,0,,,,,,,,,,,,,,,,,,,,
3624,0,,,247,251,237,234,,-0.06,-0.0,0.99,-0,0,-0,0.06,,89,0,8,28,97,0.507,0.0,118,2.27,12.6,0.0,1,0.0,0.0,0.0,0,0,1,0,0,,,,,,,,,,,,,,,,,,,,
3644,0,0,5,246,251,237,234,-14,-0.06,-0.0,0.99,-0,0,-0,0.06,1,89,0,8,28,97,0.508,0.0,118,2.24,12.6,0.0,1,0.0,0.0,0.0,0,0,1,0,0,0,250,250,0,0.0,0.0,0.0,0.0,0,0,0.0,0,0.0,-1,0.0,0.0,0.0,0,0.0,0.0607
3664,0,,,247,251,237,234,,-0.06,-0.0,0.99,-0,0,-0,0.06,,89,0,8,28,97,0.508,0.0,118,2.21,12.6,0.0,1,0.0,0.0,0.0,0,0,1,0,0,,,,,,,,,,,,,,,,,,,,
3684,0,,,247,251,237,234,,-0.06,-0.0,0.99,-0,0,-0,0.06,,89,0,8,28,97,0.508,0.0,118,2.19,12.6,0.0,1,0.0,0.0,0.0,0,0,1,0,0,,,,,,,,,,,,,,,,,,,,
3704,0,,,247,251,237,234,,-0.06,-0.0,0.99,-0,0,-0,0.06,,89,0,8,28,97,0.508,0.0,118,2.16,12.6,0.0,1,0.0,0.0,0.0,0,0,1,0,0,,,,,,,,,,,,,,,,,,,,
3724,0,,,247,251,236,234,,-0.06,-0.0,0.99,-0,0,-0,0.06,,89,0,8,28,97,0.508,0.0,118,2.16,12.6,0.0,1,0.0,0.0,0.0,0,0,1,0,0,,,,,,,,,,,,,,,,,,,,
3744,0,1,5,247,251,237,234,-13,-0.06,-0.0,0.99,-0,0,-0,0.06,1,89,0,8,28,97,0.508,0.0,118,2.13,12.6,0.0,1,0.0,0.0,0.0,0,0,1,0,0,0,250,250,0,0.0,0.0,0.0,0.0,0,0,0.0,0,0.0,-1,0.0,,0.0,0,0.0,0.0624
3764,0,,,247,251,237,235,,-0.06,-0.0,0.99,-0,0,-0,0.06,,89,0,8,28,97,0.508,0.0,118,2.11,12.6,0.0,1,0.0,0.0,0.0,0,0,1,0,0,,,,,,,,,,,,,,,,,,,,
3784,0,,,247,251,237,234,,-0.06,-0.0,0.99,-0,0,-0,0.06,,89,0,8,28,97,0.508,0.0,118,2.08,12.6,0.0,1,0.0,0.0,0.0,0,0,1,0,0,,,,,,,,,,,,,,,,,,,,
3804,0,,,247,251,236,234,,-0.06,-0.01,0.98,-0,0,-0,0.06,,89,0,8,28,97,0.508,0.0,118,2.05,12.6,0.0,1,0.0,0.0,0.0,0,0,1,0,0,,,,,,,,,,,,,,,,,,,,
3824,0,,,246,251,237,234,,-0.06,-0.01,0.98,-0,0,-0,0.06,,89,0,8,28,97,0.508,0.0,118,2.05,12.6,0.0,1,0.0,0.0,0.0,0,0,1,0,0,,,,,,,,,,,,,,,,,,,,
3844,0,-0,5,247,251,237,234,-14,-0.06,-0.01,0.98,-0,0,-0,0.06,1,89,0,8,28,97,0.508,0.0,118,2.02,12.6,0.0,1,0.0,0.0,0.0,0,0,1,0,0,0,250,250,0,0.0,0.0,0.0,0.0,0,0,0.0,0,0.0,-1,0.0,0.0,0.0,0,0.0,0.0641
3864,0,,,247,251,237,234,,-0.06,-0.01,0.98,-0,0,-0,0.06,,89,0,8,28,97,0.508,0.0,118,1.99,12.6,0.0,1,0.0,0.0,0.0,0,0,1,0,0,,,,,,,,,,,,,,,,,,,,
3884,0,,,247,251,237,234,,-0.06,-0.01,0.98,-0,0,-0,0.06,,89,0,8,28,97,0.508,0.0,118,1.98,12.6,0.0,1,0.0,0.0,0.0,0,0,1,0,0,,,,,,,,,,,,,,,,,,,,
3904,0,,,247,251,237,234,,-0.06,-0.0,0.98,-0,0,-0,0.06,,89,0,8,28,97,0.508,0.0,118,1.97,12.6,0.0,1,0.0,0.0,0.0,0,0,1,0,0,,,,,,,,,,,,,,,,,,,,
3924,0,,,247,251,237,234,,-0.06,-0.01,0.99,-0,0,-0,0.06,,89,0,7,28,97,0.509,0.0,118,1.94,12.0,0.0,1,0.0,0.0,0.0,0,0,1,0,0,,,,,,,,,,,,,,,,,,,,
3944,0,0,5,246,251,237,234,-13,-0.06,-0.0,0.98,-0,0,-0,0.06,1,89,0,8,28,97,0.508,0.0,118,1.94,9.3,0.0,1,0.0,0.0,0.0,0,0,1,0,0,0,250,250,0,0.0,0.0,0.0,0.0,0,0,0.0,0,0.0,-1,0.0,,0.0,0,0.0,0.0657
3964,0,,,246,251,236,234,,-0.06,-0.0,0.99,-0,0,-0,0.06,,89,0,8,28,97,0.508,0.0,118,1.92,10.1,0.0,1,0.0,0.0,0.0,0,0,1,0,0,,,,,,,,,,,,,,,,,,,,
3984,0,,,247,251,236,234,,-0.07,0.0,0.99,-0,0,-0,0.07,,89,0,8,28,97,0.508,0.0,118,1.89,10.5,0.0,1,0.0,0.0,0.0,0,0,1,0,0,,,,,,,,,,,,,,,,,,,,
4004,0,,,247,251,237,234,,-0.07,0.0,0.98,-0,0,-0,0.07,,89,0,8,28,97,0.507,0.0,118,1.89,10.7,0.0,1,0.0,0.0,0.0,0,0,1,0,0,,,,,,,,,,,,,,,,,,,,
4024,0,,,247,251,237,234,,-0.06,-0.0,0.98,-0,0,-0,0.06,,89,0,8,28,97,0.506,0.0,118,1.89,10.8,0.0,1,0.0,0.0,0.0,0,0,1,0,0,,,,,,,,,,,,,,,,,,,,
4044,0,1,4,246,251,237,234,-14,-0.06,-0.0,0.98,-0,0,0,0.06,1,89,0,8,28,97,0.506,0.0,120,1.85,10.9,0.0,1,0.0,0.0,0.0,0,0,1,0,0,0,250,250,0,0.0,0.0,0.0,0.0,0,0,0.0,0,0.0,-1,0.0,0.0,0.0,0,0.0,0.0674
4064,0,,,247,251,237,234,,-0.06,0.0,0.99,-0,0,-0,0.06,,89,0,8,28,97,0.505,0.0,120,1.84,10.8,0.0,1,0.0,0.0,0.0,0,0,1,0,0,,,,,,,,,,,,,,,,,,,,
4084,0,,,246,251,236,234,,-0.07,-0.0,0.99,-0,0,0,0.07,,89,0,8,28,97,0.504,0.0,120,1.83,10.6,0.0,1,0.0,0.0,0.0,0,0,1,0,0,,,,,,,,,,,,,,,,,,,,
4104,0,,,246,251,237,234,,-0.07,-0.0,0.99,-0,0,0,0.07,,89,0,8,28,97,0.504,0.0,120,1.83,10.9,0.0,1,0.0,0.0,0.0,0,0,1,0,0,,,,,,,,,,,,,,,,,,,,
4124,0,,,247,251,237,234,,-0.07,-0.0,0.99,-0,0,-0,0.07,,89,0,8,28,97,0.503,0.0,121,1.8,11.1,0.0,1,0.0,0.0,0.0,0,0,1,0,0,,,,,,,,,,,,,,,,,,,,
4144,0,0,5,247,251,237,234,-14,-0.07,-0.0,0.98,-0,0,-0,0.07,1,89,0,8,28,97,0.502,0.0,121,1.8,11.1,0.0,1,0.0,0.0,0.0,0,0,1,0,0,0,250,250,0,0.0,0.0,0.0,0.0,0,0,0.0,0,0.0,-1,0.0,,0.0,0,0.0,0.0691
4164,0,,,247,251,237,234,,-0.06,0.0,0.98,-0,0,-0,0.06,,89,0,8,28,97,0.502,0.0,121,1.78,10.8,0.0,1,0.0,0.0,0.0,0,0,1,0,0,,,,,,,,,,,,,,,,,,,,
4184,0,,,246,251,237,234,,-0.06,-0.0,0.98,-0,0,-0,0.06,,89,0,8,28,97,0.501,0.0,121,1.78,10.9,0.0,1,0.0,0.0,0.0,0,0,1,0,0,,,,,,,,,,,,,,,,,,,,
4204,0,,,247,251,236,234,,-0.07,-0.0,0.98,-0,0,-0,0.07,,89,0,8,28,97,0.501,0.0,121,1.78,11.1,0.0,1,0.0,0.0,0.0,0,0,1,0,0,,,,,,,,,,,,,,,,,,,,
4224,0,,,247,251,236,234,,-0.06,0.0,0.99,-0,0,-0,0.06,,89,0,8,28,97,0.501,0.0,121,1.75,11.1,0.0,1,0.0,0.0,0.0,0,0,1,0,0,,,,,,,,,,,,,,,,,,,,
4244,0,-1,5,247,251,237,234,-13,-0.07,0.0,0.98,-0,0,-0,0.07,1,89,0,8,28,97,0.501,0.0,121,1.75,11.0,0.0,1,0.0,0.0,0.0,0,0,1,0,0,0,250,250,0,0.0,0.0,0.0,0.0,0,0,0.0,0,0.0,-1,0.0,0.0,0.0,0,0.0,0.0707
4264,0,,,247,251,236,234,,-0.07,0.0,0.99,-0,0,-0,0.07,,89,0,8,28,97,0.501,0.0,121,1.75,11.0,0.0,1,0.0,0.0,0.0,0,0,1,0,0,,,,,,,,,,,,,,,,,,,,
4284,0,,,247,251,237,234,,-0.06,-0.0,0.99,-0,0,-0,0.06,,89,0,8,28,97,0.502,0.0,121,1.73,11.2,0.0,1,0.0,0.0,0.0,0,0,1,0,0,,,,,,,,,,,,,,,,,,,,
4304,0,,,247,251,237,234,,-0.07,-0.0,0.98,-0,0,-0,0.07,,89,0,8,28,97,0.502,0.0,121,1.73,11.1,0.0,1,0.0,0.0,0.0,0,0,1,0,0,,,,,,,,,,,,,,,,,,,,
4324,0,,,247,251,236,234,,-0.07,-0.0,0.97,-0,0,-0,0.07,,89,0,8,28,97,0.502,0.0,121,1.73,10.9,0.0,1,0.0,0.0,0.0,0,0,1,0,0,,,,,,,,,,,,,,,,,,,,
4344,0,0,2,247,251,237,234,-13,-0.07,-0.0,0.98,-0,0,-0,0.07,1,89,0,8,28,97,0.503,0.0,121,1.73,11.0,0.0,1,0.0,0.0,0.0,0,0,1,0,0,0,250,250,0,0.0,0.0,0.0,0.0,0,0,0.0,0,0.0,-1,0.0,,0.0,0,0.0,0.0724
4364,0,,,247,251,237,234,,-0.06,-0.0,0.97,-0,0,-0,0.06,,89,0,8,28,97,0.503,0.0,121,1.7,11.2,0.0,1,0.0,0.0,0.0,0,0,1,0,0,,,,,,,,,,,,,,,,,,,,
4384,0,,,246,251,237,234,,-0.07,-0.01,0.96,-0,0,-0,0.07,,89,0,8,28,97,0.503,0.0,121,1.7,11.1,0.0,1,0.0,0.0,0.0,0,0,1,0,0,,,,,,,,,,,,,,,,,,,,
4404,0,,,246,251,237,234,,-0.07,-0.0,0.98,-0,-0,-0,0.07,,89,0,8,28,97,0.503,0.0,121,1.7,10.9,0.0,1,0.0,0.0,0.0,0,0,1,0,0,,,,,,,,,,,,,,,,,,,,
4424,0,,,247,251,237,234,,-0.06,-0.0,0.97,-0,-0,-0,0.06,,89,0,8,28,97,0.503,0.0,121,1.67,11.0,0.0,1,0.0,0.0,0.0,0,0,1,0,0,,,,,,,,,,,,,,,,,,,,
4444,0,0,2,247,251,237,234,-14,-0.06,0.0,0.97,-0,-0,-0,0.06,1,89,0,8,28,97,0.503,0.0,121,1.67,11.2,0.0,1,0.0,0.0,0.0,0,0,1,0,0,0,250,250,0,0.0,0.0,0.0,0.0,0,0,0.0,0,0.0,-1,0.0,0.0,0.0,0,0.0,0.0741
4464,0,,,247,251,237,234,,-0.06,0.0,0.98,-0,-0,-0,0.06,,89,0,8,28,97,0.503,0.0,121,1.67,11.2,0.0,1,0.0,0.0,0.0,0,0,1,0,0,,,,,,,,,,,,,,,,,,,,
4484,0,,,247,251,237,234,,-0.06,0.0,1.0,-0,-0,-0,0.06,,89,0,8,28,97,0.503,0.0,121,1.67,10.9,0.0,1,0.0,0.0,0.0,0,0,1,0,0,,,,,,,,,,,,,,,,,,,,
4504,0,,,247,251,237,234,,-0.06,-0.0,0.99,-0,-0,-0,0.06,,89,0,8,28,97,0.503,0.0,121,1.66,11.0,0.0,1,0.0,0.0,0.0,0,0,1,0,0,,,,,,,,,,,,,,,,,,,,
4524,0,,,247,251,237,234,,-0.06,-0.0,0.99,-0,-0,-0,0.06,,89,0,8,28,97,0.503,0.0,121,1.64,11.2,0.0,1,0.0,0.0,0.0,0,0,1,0,0,,,,,,,,,,,,,,,,,,,,
4544,0,-0,5,247,251,237,234,-14,-0.06,0.0,1.0,-0,-0,-0,0.06,1,89,0,8,28,97,0.503,0.0,121,1.64,11.2,0.0,1,0.0,0.0,0.0,0,0,1,0,0,0,250,250,0,0.0,0.0,0.0,0.0,0,0,0.0,0,0.0,-1,0.0,,0.0,0,0.0,0.0757
4564,0,,,247,251,237,234,,-0.06,-0.0,1.0,-0,-0,-0,0.06,,89,0,8,28,97,0.503,0.0,121,1.62,11.0,0.0,1,0.0,0.0,0.0,0,0,1,0,0,,,,,,,,,,,,,,,,,,,,
4584,0,,,247,251,237,234,,-0.06,-0.0,0.99,-0,-0,-0,0.06,,89,0,8,28,97,0.503,0.0,121,1.61,11.1,0.0,1,0.0,0.0,0.0,0,0,1,0,0,,,,,,,,,,,,,,,,,,,,
4604,0,,,246,251,237,234,,-0.06,-0.0,0.99,-0,-0,-0,0.06,,89,0,8,28,97,0.503,0.0,121,1.61,11.3,0.0,1,0.0,0.0,0.0,0,0,1,0,0,,,,,,,,,,,,,,,,,,,,
4624,0,,,247,251,236,234,,-0.06,-0.01,1.01,-0,-0,-0,0.06,,89,110,8,28,97,0.502,0.0,121,1.61,11.1,0.0,1,28.6,4.48,0.0,0,0,1,1,0,,,,,,,,,,,,,,,,,,,,
4644,0,-0,5,246,251,237,234,-13,-0.06,-0.01,1.0,-0,-0,-0,0.06,1,89,110,8,28,97,0.502,0.0,121,1.76,10.7,0.0,1,28.6,2.06,0.0,0,0,1,1,0,0,250,250,0,0.0,0.0,0.0,0.0,0,0,0.0,0,0.0,-1,0.0,0.0,0.0,0,0.0,0.0774
4664,0,,,247,251,237,234,,-0.06,-0.01,0.99,-0,-0,-0,0.06,,89,110,8,28,97,0.502,0.0,121,3.31,11.0,0.0,1,28.6,2.06,0.0,0,0,1,1,0,,,,,,,,,,,,,,,,,,,,
4684,0,,,246,251,237,234,,-0.06,-0.0,1.01,-0,-0,-0,0.06,,89,110,8,28,97,0.502,0.0,121,4.71,11.1,0.0,1,28.6,2.09,0.0,0,0,1,1,0,,,,,,,,,,,,,,,,,,,,
4704,0,,,247,251,237,234,,-0.07,-0.01,1.0,-0,-0,-0,0.07,,89,384,8,28,97,0.502,0.0,121,4.75,10.9,0.0,1,28.6,4.48,0.0,0,0,1,1,0,,,,,,,,,,,,,,,,,,,,
4724,0,,,247,251,237,234,,-0.06,-0.01,1.0,-0,-0,-0,0.06,,89,384,8,28,97,0.502,0.0,121,4.78,10.7,0.0,1,28.6,4.48,0.7,0,0,1,1,0,,,,,,,,,,,,,,,,,,,,
4744,0,-1,4,246,251,237,234,-13,-0.06,-0.01,1.0,-0,-0,-0,0.06,1,89,384,8,28,97,0.502,0.0,121,4.77,11.0,0.0,1,28.6,4.48,0.7,0,0,1,1,0,0,250,250,0,0.0,0.0,0.0,0.0,0,0,0.0,0,0.0,-1,0.0,,0.0,0,0.0,0.0791
4764,0,,,247,251,237,234,,-0.07,-0.01,0.99,-0,-0,-0,0.07,,89,384,8,28,97,0.502,0.0,121,4.77,11.1,0.0,1,28.6,2.06,0.7,0,0,1,1,0,,,,,,,,,,,,,,,,,,,,
4784,0,,,247,251,237,234,,-0.06,-0.01,0.99,-0,-0,-0,0.06,,89,380,8,28,97,0.502,0.0,121,4.77,10.9,0.0,1,28.6,2.09,0.7,0,0,1,1,0,,,,,,,,,,,,,,,,,,,,
4804,0,,,246,251,237,234,,-0.06,-0.01,0.98,-0,-0,-0,0.06,,89,380,8,28,97,0.502,0.0,121,4.77,10.7,0.0,1,28.6,4.48,0.7,0,0,1,1,0,,,,,,,,,,,,,,,,,,,,
4824,0,,,247,251,237,234,,-0.06,-0.01,0.99,-0,-0,-0,0.06,,89,380,8,28,97,0.502,0.0,121,4.77,11.0,0.0,1,28.6,4.48,0.7,0,0,1,1,0,,,,,,,,,,,,,,,,,,,,
4844,0,-0,5,247,251,237,234,-13,-0.07,-0.01,0.99,-0,-0,-0,0.07,1,89,380,8,28,97,0.502,0.0,122,4.77,11.0,0.0,1,28.6,4.48,0.7,0,0,1,1,0,0,250,250,0,0.0,0.0,0.0,0.0,0,0,0.0,0,0.0,-1,0.0,0.0,0.0,0,0.0,0.0807
4864,0,,,247,251,237,234,,-0.06,-0.01,0.99,-0,-0,-0,0.06,,89,384,8,28,97,0.502,0.0,123,4.77,10.9,0.0,1,28.6,4.48,0.7,0,0,1,1,0,,,,,,,,,,,,,,,,,,,,
4884,0,,,247,251,237,234,,-0.06,-0.01,0.99,-0,-0,-0,0.06,,89,384,8,28,97,0.502,0.0,123,4.77,10.7,0.0,1,28.6,2.09,0.7,0,0,1,1,0,,,,,,,,,,,,,,,,,,,,
4904,0,,,247,251,237,234,,-0.07,-0.01,0.99,-0,-0,-0,0.07,,89,384,8,28,97,0.502,0.0,123,4.77,11.0,0.0,1,28.6,4.48,0.7,0,0,1,1,0,,,,,,,,,,,,,,,,,,,,
4924,0,,,247,251,236,234,,-0.07,-0.01,0.99,-0,-0,-0,0.07,,89,384,8,28,97,0.503,0.0,123,4.77,11.0,0.0,1,28.6,4.48,0.7,0,0,1,1,0,,,,,,,,,,,,,,,,,,,,
4944,0,-1,4,246,251,236,234,-13,-0.06,-0.01,0.99,-0,-0,-0,0.07,1,89,382,8,28,97,0.503,0.0,123,4.77,10.9,0.0,1,28.6,4.48,0.7,0,0,1,1,0,0,250,250,0,0.0,0.0,0.0,0.0,0,0,0.0,0,0.0,-1,0.0,,0.0,0,0.0,0.0824
4964,0,,,246,251,237,234,,-0.07,-0.01,1.0,-0,-0,-0,0.07,,89,382,8,28,97,0.503,0.0,123,4.77,10.8,0.0,1,28.6,2.09,0.7,0,0,1,1,0,,,,,,,,,,,,,,,,,,,,
4984,0,,,247,251,237,234,,-0.07,-0.01,0.99,-0,-0,-0,0.07,,89,382,8,28,97,0.503,0.0,123,4.77,11.0,0.0,1,28.6,2.09,0.7,0,0,1,1,0,,,,,,,,,,,,,,,,,,,,
5004,0,,,247,251,237,234,,-0.06,-0.01,1.01,-0,-0,-0,0.06,,89,382,8,28,97,0.503,0.0,123,4.77,11.0,0.0,1,28.6,4.48,0.7,0,0,1,1,0,,,,,,,,,,,,,,,,,,,,
5024,0,,,246,251,237,234,,-0.06,-0.0,1.01,-0,-0,-0,0.06,,89,375,7,28,96,0.503,0.0,118,4.74,10.5,0.0,1,27.2,4.48,0.7,0,0,1,1,0,,,,,,,,,,,,,,,,,,,,
5044,0,-1,5,247,251,237,234,-13,-0.07,-0.01,1.0,-0,-0,-0,0.07,1,89,375,8,28,97,0.503,0.0,121,4.76,10.7,0.0,1,28.6,4.48,0.7,0,0,1,1,0,0,250,250,0,0.0,0.0,0.0,0.0,0,0,0.0,0,0.0,-1,0.0,0.0,0.0,0,0.0,0.0841
5064,0,,,246,251,237,234,,-0.07,-0.01,0.99,-0,-0,-0,0.07,,89,627,8,28,96,0.503,0.0,121,4.77,11.0,0.0,1,27.2,4.48,0.7,0,0,1,1,0,,,,,,,,,,,,,,,,,,,,
5084,0,,,247,251,237,234,,-0.06,-0.01,0.98,-0,-0,-0,0.07,,89,627,8,28,96,0.503,0.0,125,4.78,11.3,0.0,1,27.2,2.09,0.7,0,0,1,1,0,,,,,,,,,,,,,,,,,,,,
5104,0,,,246,251,237,234,,-0.06,-0.01,0.97,-0,-0,-0,0.06,,89,1102,7,28,95,0.503,0.0,123,4.75,11.1,0.0,1,26.6,2.09,0.7,0,0,1,1,0,,,,,,,,,,,,,,,,,,,,
5124,0,,,247,251,237,234,,-0.07,-0.01,0.98,-0,-0,-0,0.07,,90,1256,7,28,94,0.503,0.0,121,4.72,10.8,0.0,1,26.5,2.09,2.5,0,0,1,1,0,,,,,,,,,,,,,,,,,,,,
5144,0,-1,4,246,251,237,234,-13,-0.07,-0.01,0.97,-0,-0,-0,0.07,1,90,1055,7,28,94,0.503,0.0,121,4.7,10.8,0.0,1,24.9,2.09,2.5,0,0,1,1,0,0,250,250,0,0.0,0.0,0.0,0.0,0,0,0.0,0,0.0,-1,0.0,,0.0,0,0.0,0.0857
5164,0,,,247,251,237,234,,-0.07,-0.01,0.96,-0,-0,-0,0.07,,90,1055,7,28,94,0.502,0.0,117,4.67,10.5,0.0,1,24.9,2.09,2.5,0,0,1,1,0,,,,,,,,,,,,,,,,,,,,
5184,0,,,247,251,237,234,,-0.07,-0.01,0.95,-0,-0,-0,0.07,,91,793,7,28,94,0.502,0.0,112,4.67,10.2,0.0,1,24.5,2.09,2.5,0,0,1,1,0,,,,,,,,,,,,,,,,,,,,
5204,0,,,247,251,237,234,,-0.07,-0.01,0.96,-0,0,-0,0.07,,91,793,7,28,95,0.502,0.0,112,4.63,10.0,0.0,1,25.8,4.44,2.5,0,0,1,1,0,,,,,,,,,,,,,,,,,,,,
5224,0,,,247,251,237,234,,-0.07,-0.01,0.96,-0,0,-0,0.07,,91,793,7,28,95,0.501,0.0,110,4.65,10.0,0.0,1,25.8,2.09,1.6,0,0,1,1,0,,,,,,,,,,,,,,,,,,,,
5244,0,-0,5,246,251,237,234,-13,-0.09,-0.0,0.92,-0,1,0,0.09,1,91,562,7,28,95,0.501,0.0,114,4.66,10.0,0.0,1,25.8,4.19,1.6,0,0,1,1,0,0,250,250,0,0.0,0.0,0.0,0.0,0,0,0.0,0,0.0,-1,0.0,0.0,0.0,0,0.0,0.0874
5264,0,,,247,251,236,234,,-0.08,-0.01,0.91,-0,1,-0,0.08,,90,562,7,28,96,0.501,0.0,116,4.67,8.7,0.0,1,27.2,2.09,1.6,0,0,1,1,0,,,,,,,,,,,,,,,,,,,,
5284,0,,,247,251,236,234,,-0.08,-0.01,0.92,-0,1,-0,0.08,,90,562,7,28,96,0.501,0.0,112,4.63,9.4,0.0,1,27.2,2.09,1.6,0,0,1,1,0,,,,,,,,,,,,,,,,,,,,
5304,0,,,247,251,236,234,,-0.06,-0.01,0.94,-0,1,-0,0.06,,90,501,7,28,95,0.5,0.0,118,4.67,10.0,0.0,1,25.8,4.24,1.6,0,0,1,1,0,,,,,,,,,,,,,,,,,,,,
5324,0,,,247,251,237,234,,-0.06,-0.01,0.99,-0,1,-0,0.06,,90,501,7,28,96,0.5,0.0,122,4.63,9.6,0.0,1,27.2,4.24,0.9,0,0,1,1,0,,,,,,,,,,,,,,,,,,,,
5344,0,0,2,247,251,237,234,-13,-0.05,-0.01,1.01,-0,0,-0,0.05,1,89,501,7,28,96,0.5,0.0,122,4.7,10.2,0.0,1,27.2,4.24,0.9,0,0,1,1,0,0,250,250,0,0.0,0.0,0.0,0.0,0,0,0.0,0,0.0,-1,0.0,,0.0,0,0.0,0.0891
5364,0,,,246,251,237,234,,-0.06,-0.01,1.02,-0,0,-1,0.06,,89,501,8,28,97,0.5,0.0,125,4.7,9.4,0.0,1,28.6,2.09,0.9,0,0,1,1,0,,,,,,,,,,,,,,,,,,,,
5384,0,,,247,251,237,234,,-0.06,-0.02,1.02,-0,-0,-0,0.07,,89,501,7,28,96,0.5,0.0,125,4.7,10.1,0.0,1,27.2,2.09,0.9,0,0,1,1,0,,,,,,,,,,,,,,,,,,,,
5404,0,,,247,251,237,234,,-0.07,-0.01,1.0,-0,-0,-0,0.07,,89,501,8,28,96,0.5,0.0,123,4.72,10.4,0.0,1,27.2,2.09,0.9,0,0,1,1,0,,,,,,,,,,,,,,,,,,,,
5424,0,,,246,251,237,234,,-0.07,-0.01,1.01,-0,-0,-0,0.07,,89,501,8,28,95,0.5,0.0,126,4.72,10.5,0.0,1,25.8,3.62,0.8,0,0,1,1,0,,,,,,,,,,,,,,,,,,,,
5444,0,-1,4,247,251,237,234,-14,-0.06,-0.01,1.01,-0,-0,-0,0.06,1,89,501,8,28,97,0.5,0.0,123,4.73,10.5,0.0,1,28.6,3.62,0.8,0,0,1,1,0,0,250,250,0,0.0,0.0,0.0,0.0,0,0,0.0,0,0.0,-1,0.0,0.0,0.0,0,0.0,0.0907
5464,0,,,246,251,237,234,,-0.06,-0.01,1.02,-0,-0,-0,0.06,,89,501,7,28,97,0.5,0.0,123,4.72,10.6,0.0,1,28.6,2.09,0.8,0,0,1,1,0,,,,,,,,,,,,,,,,,,,,
5484,0,,,246,251,237,234,,-0.06,-0.0,1.03,-0,-0,-0,0.06,,89,501,7,28,96,0.5,0.0,123,4.72,10.8,0.0,1,27.2,3.62,0.8,0,0,1,1,0,,,,,,,,,,,,,,,,,,,,
5504,0,,,247,251,237,234,,-0.06,-0.01,1.01,-0,-0,-0,0.07,,89,501,8,28,96,0.5,0.0,123,4.72,10.4,0.0,1,27.2,3.62,0.8,0,0,1,1,0,,,,,,,,,,,,,,,,,,,,
5524,0,,,247,251,237,234,,-0.06,-0.01,1.02,-0,-0,-0,0.06,,89,501,8,28,97,0.5,0.0,121,4.72,10.6,0.0,1,28.6,3.62,0.8,0,0,1,1,0,,,,,,,,,,,,,,,,,,,,
5544,0,1,2,247,251,237,234,-13,-0.06,-0.01,1.03,-0,-0,-0,0.06,1,89,501,10,28,97,0.5,0.0,121,4.73,10.7,0.0,1,28.6,2.09,0.8,0,0,1,1,0,0,250,250,0,0.0,0.0,0.0,0.0,0,0,0.0,0,0.0,-1,0.0,,0.0,0,0.0,0.0924
5564,0,,,247,251,237,234,,-0.06,-0.01,1.01,-0,-0,-0,0.07,,89,501,12,28,96,0.5,0.0,121,4.72,10.6,0.0,1,27.2,3.62,0.8,0,0,1,1,0,,,,,,,,,,,,,,,,,,,,
5584,0,,,247,251,237,234,,-0.06,-0.02,1.0,-0,-1,-0,0.06,,89,501,13,28,97,0.5,0.0,121,4.72,10.3,0.0,1,28.6,2.06,0.8,0,0,1,1,0,,,,,,,,,,,,,,,,,,,,
5604,0,,,247,251,237,234,,-0.06,-0.02,1.0,-0,-1,-0,0.06,,89,501,14,28,97,0.5,0.0,121,4.75,10.6,0.0,1,28.6,6.09,0.8,0,0,1,1,0,,,,,,,,,,,,,,,,,,,,
5624,0,,,247,251,237,234,,-0.06,-0.01,1.0,-0,-1,-0,0.06,,89,501,14,28,97,0.5,0.0,121,4.72,10.7,0.0,1,28.6,6.09,1.4,0,0,1,1,0,,,,,,,,,,,,,,,,,,,,
5644,0,-1,4,247,251,237,234,-13,-0.06,-0.01,0.99,-0,-0,-0,0.06,1,89,501,14,28,97,0.5,0.0,121,4.73,11.6,0.0,1,28.6,6.09,1.4,0,0,1,1,0,0,250,250,0,0.0,0.0,0.0,0.0,0,0,0.0,0,0.0,-1,0.0,0.0,0.0,0,0.0,0.0941
5664,0,,,247,251,237,234,,-0.06,-0.0,1.01,-0,-0,-0,0.06,,89,83,14,28,97,0.5,0.0,121,4.75,11.6,0.0,1,28.6,6.09,1.4,0,0,1,1,0,,,,,,,,,,,,,,,,,,,,
5684,0,,,247,251,237,234,,-0.06,-0.0,1.0,-0,-0,-0,0.06,,89,83,14,28,97,0.5,0.0,118,4.75,11.7,0.0,1,28.6,2.06,1.4,0,0,1,1,0,,,,,,,,,,,,,,,,,,,,
5704,0,,,247,251,237,234,,-0.06,-0.0,1.0,-0,-0,-0,0.06,,89,83,14,28,97,0.5,0.0,118,4.74,11.7,0.0,1,28.6,2.09,1.4,0,0,1,1,0,,,,,,,,,,,,,,,,,,,,
5724,0,,,247,251,237,234,,-0.06,-0.0,1.02,-0,-0,-0,0.06,,89,83,14,28,97,0.5,0.0,118,4.75,11.7,0.0,1,28.6,6.01,0.2,0,0,1,1,0,,,,,,,,,,,,,,,,,,,,
5744,0,1,4,246,251,237,234,-14,-0.06,-0.01,1.0,-0,-0,-0,0.06,1,89,83,14,28,97,0.5,0.0,118,4.75,11.7,0.0,1,28.6,6.01,0.2,0,0,1,1,0,0,250,250,0,0.0,0.0,0.0,0.0,0,0,0.0,0,0.0,-1,0.0,,0.0,0,0.0,0.0957
5764,0,,,247,251,237,234,,-0.06,-0.01,1.01,-0,-0,-0,0.06,,89,83,14,28,97,0.5,0.0,118,4.75,11.7,0.0,1,28.6,2.06,0.2,0,0,1,1,0,,,,,,,,,,,,,,,,,,,,
5784,0,,,247,251,237,234,,-0.06,-0.0,1.0,-0,0,-0,0.06,,89,83,14,28,97,0.5,0.0,116,4.75,11.7,0.0,1,28.6,4.05,0.2,0,0,1,1,0,,,,,,,,,,,,,,,,,,,,
5804,0,,,246,251,237,234,,-0.06,-0.0,0.99,-0,0,-0,0.06,,89,83,14,28,97,0.5,0.0,116,4.75,10.3,0.0,1,28.6,2.09,0.2,0,0,1,1,0,,,,,,,,,,,,,,,,,,,,
5824,0,,,247,251,237,234,,-0.06,-0.0,0.99,-0,0,-0,0.06,,89,83,14,28,97,0.5,0.0,118,4.7,8.1,0.0,1,28.6,2.09,0.2,0,0,1,1,0,,,,,,,,,,,,,,,,,,,,
5844,0,-1,4,247,251,237,234,-14,-0.06,-0.0,0.99,-0,0,-0,0.06,1,89,83,16,28,97,0.5,0.0,117,4.69,8.3,0.0,1,28.6,6.01,0.2,0,0,1,1,0,0,250,250,0,0.0,0.0,0.0,0.0,0,0,0.0,0,0.0,-1,0.0,0.0,0.0,0,0.0,0.0974
5864,0,,,246,251,237,234,,-0.06,-0.0,0.99,-0,0,-0,0.06,,89,153,19,28,97,0.5,0.0,116,4.67,8.6,0.0,1,28.6,2.06,0.2,0,0,1,1,0,,,,,,,,,,,,,,,,,,,,
5884,0,,,246,251,237,234,,-0.06,-0.01,0.98,-0,0,-0,0.06,,89,153,20,28,97,0.5,0.0,115,4.66,9.2,0.0,1,28.6,6.09,0.2,0,0,1,1,0,,,,,,,,,,,,,,,,,,,,
5904,0,,,247,251,237,234,,-0.06,-0.01,0.98,-0,0,-0,0.06,,89,153,21,28,97,0.5,0.0,115,4.68,9.7,0.0,1,28.6,6.09,0.2,0,0,1,1,0,,,,,,,,,,,,,,,,,,,,
5924,0,,,247,251,237,234,,-0.06,-0.01,0.98,-0,0,-0,0.06,,89,153,22,28,97,0.5,0.0,116,4.7,10.0,0.0,1,28.6,2.09,0.4,0,0,1,1,0,,,,,,,,,,,,,,,,,,,,
5944,0,0,3,247,251,237,234,-13,-0.06,-0.01,0.98,-0,0,-0,0.06,1,89,153,22,28,97,0.5,0.0,116,4.7,10.1,0.0,1,28.6,2.06,0.4,0,0,1,1,0,0,250,250,0,0.0,0.0,0.0,0.0,0,0,0.0,0,0.0,-1,0.0,,0.0,0,0.0,0.0991
5964,0,,,247,251,237,234,,-0.06,-0.01,0.99,-0,0,-0,0.06,,90,153,22,28,97,0.5,0.0,112,4.67,9.7,0.0,1,28.6,6.01,0.4,0,0,1,1,0,,,,,,,,,,,,,,,,,,,,
5984,0,,,247,251,237,234,,-0.06,-0.0,1.0,-0,0,-0,0.06,,89,236,22,28,97,0.5,0.0,116,4.72,9.8,0.0,1,28.6,2.09,0.4,0,0,1,1,0,,,,,,,,,,,,,,,,,,,,
6004,0,,,247,251,237,234,,-0.06,-0.0,1.0,-0,0,-0,0.06,,89,236,22,28,97,0.5,0.0,116,4.71,10.1,0.0,1,28.6,6.01,0.4,0,0,1,1,0,,,,,,,,,,,,,,,,,,,,
6024,0,,,246,251,237,234,,-0.06,-0.0,1.0,-0,0,-0,0.06,,89,236,22,28,97,0.5,0.0,116,4.72,10.4,0.0,1,28.6,6.01,0.6,0,0,1,1,0,,,,,,,,,,,,,,,,,,,,
6044,0,-1,4,247,251,237,234,-13,-0.06,-0.01,1.0,-0,0,-0,0.06,1,89,236,21,28,97,0.5,0.0,116,4.72,10.3,0.0,1,28.6,2.09,0.6,0,0,1,1,0,0,250,250,0,0.0,0.0,0.0,0.0,0,0,0.0,0,0.0,-1,0.0,0.0,0.0,0,0.0,0.1007
6064,0,,,247,251,237,234,,-0.06,-0.01,1.01,-0,0,-0,0.06,,90,236,20,28,97,0.5,0.0,115,4.7,10.1,0.0,1,28.6,6.01,0.6,0,0,1,1,0,,,,,,,,,,,,,,,,,,,,
6084,0,,,247,251,237,234,,-0.06,-0.01,1.01,-0,0,-0,0.06,,89,326,18,28,97,0.5,0.0,116,4.72,10.1,0.0,1,28.6,2.09,0.6,0,0,1,1,0,,,,,,,,,,,,,,,,,,,,
6104,0,,,246,251,236,234,,-0.06,-0.01,1.01,-0,0,-0,0.06,,89,326,17,28,97,0.5,0.0,116,4.71,10.3,0.0,1,28.6,6.01,0.6,0,0,1,1,0,,,,,,,,,,,,,,,,,,,,
6124,0,,,247,251,237,234,,-0.06,-0.01,1.02,-0,0,-0,0.06,,89,326,17,28,97,0.5,0.0,116,4.72,10.3,0.0,1,28.6,6.01,0.8,0,0,1,1,0,,,,,,,,,,,,,,,,,,,,
6144,0,-1,5,247,251,236,234,-13,-0.06,-0.01,1.01,-0,0,-0,0.06,1,90,326,17,28,97,0.5,0.0,115,4.72,10.3,0.0,1,28.6,5.93,0.8,0,0,1,1,0,0,250,250,0,0.0,0.0,0.0,0.0,0,0,0.0,0,0.0,-1,0.0,,0.0,0,0.0,0.1024
6164,0,,,247,251,237,234,,-0.06,-0.0,1.01,-0,0,-0,0.06,,89,354,17,28,97,0.5,0.0,116,4.71,10.1,0.0,1,28.6,2.09,0.8,0,0,1,1,0,,,,,,,,,,,,,,,,,,,,
6184,0,,,247,251,237,234,,-0.06,-0.0,1.01,-0,0,-0,0.06,,89,354,17,28,97,0.5,0.0,116,4.72,10.3,0.0,1,28.6,5.93,0.8,0,0,1,1,0,,,,,,,,,,,,,,,,,,,,
6204,0,,,247,251,236,234,,-0.06,-0.01,1.0,-0,0,-0,0.06,,89,354,17,28,97,0.5,0.0,116,4.72,10.5,0.0,1,28.6,2.06,0.8,0,0,1,1,0,,,,,,,,,,,,,,,,,,,,
6224,0,,,247,251,237,234,,-0.06,-0.0,1.01,-0,-0,-0,0.06,,89,354,17,28,97,0.5,0.0,116,4.72,10.4,0.0,1,28.6,5.93,0.9,0,0,1,1,0,,,,,,,,,,,,,,,,,,,,
6244,0,1,3,246,251,236,234,-13,-0.06,-0.0,0.99,-0,0,0,0.06,1,89,357,18,28,97,0.5,0.0,116,4.68,10.1,0.0,1,28.6,2.09,0.9,0,0,1,1,0,0,250,250,0,0.0,0.0,0.0,0.0,0,0,0.0,0,0.0,-1,0.0,0.0,0.0,0,0.0,0.1041
6264,0,,,246,251,237,234,,-0.06,-0.0,0.99,-0,0,-0,0.06,,89,357,18,28,97,0.5,0.0,121,4.75,10.7,0.0,1,28.6,5.93,0.9,0,0,1,1,0,,,,,,,,,,,,,,,,,,,,
6284,0,,,246,251,237,234,,-0.07,-0.0,1.0,-0,0,-0,0.07,,89,357,18,28,97,0.5,0.0,121,4.76,10.8,0.0,1,28.6,5.93,0.9,0,0,1,1,0,,,,,,,,,,,,,,,,,,,,
6304,0,,,247,251,237,234,,-0.07,-0.0,0.98,-0,-0,-0,0.07,,89,357,18,28,97,0.5,0.0,121,4.76,10.7,0.0,1,28.6,2.09,0.9,0,0,1,1,0,,,,,,,,,,,,,,,,,,,,
6324,0,,,247,251,237,234,,-0.06,-0.01,0.99,-0,-0,-0,0.06,,89,357,18,28,97,0.501,0.0,121,4.71,10.1,0.0,1,28.6,5.86,0.9,0,0,1,1,0,,,,,,,,,,,,,,,,,,,,
6344,0,-1,4,247,251,236,234,-13,-0.06,-0.01,0.99,-0,-0,-0,0.06,1,89,357,18,28,97,0.501,0.0,122,4.75,10.7,0.0,1,28.6,2.09,0.9,0,0,1,1,0,0,250,250,0,0.0,0.0,0.0,0.0,0,0,0.0,0,0.0,-1,0.0,,0.0,0,0.0,0.1057
6364,0,,,247,251,237,234,,-0.06,-0.01,1.0,-0,-0,-0,0.06,,89,357,18,28,97,0.501,0.0,121,4.77,10.9,0.0,1,28.6,2.09,0.9,0,0,1,1,0,,,,,,,,,,,,,,,,,,,,
6384,0,,,246,251,237,234,,-0.07,-0.01,1.0,-0,-0,-0,0.07,,89,357,18,28,97,0.501,0.0,122,4.77,10.9,0.0,1,28.6,5.86,0.9,0,0,1,1,0,,,,,,,,,,,,,,,,,,,,
6404,0,,,247,251,237,234,,-0.07,-0.01,0.99,-0,-0,-0,0.07,,89,365,18,28,97,0.501,0.0,123,4.72,10.4,0.0,1,28.6,2.09,0.9,0,0,1,1,0,,,,,,,,,,,,,,,,,,,,
6424,0,,,246,251,237,234,,-0.06,-0.01,0.99,-0,-0,-0,0.06,,89,365,18,28,97,0.501,0.0,121,4.75,10.7,0.0,1,28.6,2.09,0.9,0,0,1,1,0,,,,,,,,,,,,,,,,,,,,
6444,0,-1,4,247,251,237,234,-13,-0.06,-0.01,0.98,-0,-0,-0,0.06,1,89,365,18,28,97,0.502,0.0,121,4.75,10.9,0.0,1,28.6,5.86,0.9,0,0,1,1,0,0,250,250,0,0.0,0.0,0.0,0.0,0,0,0.0,0,0.0,-1,0.0,0.0,0.0,0,0.0,0.1074
6464,0,,,247,251,237,234,,-0.06,-0.01,0.99,-0,-0,-0,0.06,,89,365,18,28,97,0.502,0.0,121,4.77,10.9,0.0,1,28.6,5.86,0.9,0,0,1,1,0,,,,,,,,,,,,,,,,,,,,
6484,0,,,247,251,236,234,,-0.06,-0.01,0.99,-0,-0,0,0.06,,89,365,18,28,97,0.502,0.0,121,4.77,10.7,0.0,1,28.6,5.86,0.9,0,0,1,1,0,,,,,,,,,,,,,,,,,,,,
6504,0,,,246,251,236,234,,-0.06,-0.01,0.99,-0,-0,0,0.06,,89,363,18,28,97,0.503,0.0,121,4.75,10.7,0.0,1,28.6,5.79,0.9,0,0,1,1,0,,,,,,,,,,,,,,,,,,,,
6524,0,,,246,251,236,234,,-0.06,-0.01,0.99,-0,-0,-0,0.06,,89,363,18,28,97,0.503,0.0,121,4.75,10.9,0.0,1,28.6,5.79,0.9,0,0,1,1,0,,,,,,,,,,,,,,,,,,,,
6544,0,-1,5,247,251,236,234,-13,-0.06,-0.01,1.01,-0,-0,0,0.06,1,89,363,18,28,97,0.503,0.0,122,4.77,11.0,0.0,1,28.6,5.79,0.9,0,0,1,1,0,0,250,250,0,0.0,0.0,0.0,0.0,0,0,0.0,0,0.0,-1,0.0,,0.0,0,0.0,0.1091
6564,0,,,246,251,237,234,,-0.06,-0.01,0.99,-0,-0,0,0.06,,89,363,18,28,97,0.503,0.0,122,4.77,10.7,0.0,1,28.6,5.79,0.9,0,0,1,1,0,,,,,,,,,,,,,,,,,,,,
6584,0,,,247,251,237,234,,-0.06,-0.01,0.99,-0,-0,0,0.06,,89,363,18,28,97,0.503,0.0,122,4.76,10.7,0.0,1,28.6,2.09,0.9,0,0,1,1,0,,,,,,,,,,,,,,,,,,,,
6604,0,,,247,251,237,234,,-0.06,-0.01,0.99,-0,-0,0,0.06,,89,279,18,28,97,0.503,0.0,118,4.72,10.6,0.0,1,28.6,2.09,0.9,0,0,1,1,0,,,,,,,,,,,,,,,,,,,,
6624,0,,,246,251,237,234,,-0.06,-0.01,0.98,-0,-0,-0,0.06,,89,279,18,28,97,0.503,0.0,121,4.76,10.9,0.0,1,28.6,2.09,0.7,0,0,1,1,0,,,,,,,,,,,,,,,,,,,,
6644,0,1,4,246,251,237,234,-13,-0.06,-0.0,0.99,-0,-0,0,0.06,1,89,279,18,28,97,0.503,0.0,122,4.76,10.7,0.0,1,28.6,5.79,0.7,0,0,1,1,0,0,250,250,0,0.0,0.0,0.0,0.0,0,0,0.0,0,0.0,-1,0.0,0.0,0.0,0,0.0,0.1107
6664,0,,,247,251,237,234,,-0.06,-0.0,0.99,-0,-0,0,0.06,,89,279,19,28,97,0.503,0.0,123,4.76,10.7,0.0,1,28.6,2.09,0.7,0,0,1,1,0,,,,,,,,,,,,,,,,,,,,
6684,0,,,247,251,236,234,,-0.06,-0.0,1.0,-0,-0,0,0.06,,89,0,19,28,97,0.503,0.0,123,4.73,10.8,0.0,1,28.6,5.72,0.7,0,0,1,1,0,,,,,,,,,,,,,,,,,,,,
6704,0,,,247,251,237,234,,-0.06,-0.0,0.99,-0,-0,-0,0.06,,89,0,19,28,97,0.504,0.0,123,4.76,10.9,0.0,1,28.6,5.72,0.7,0,0,1,1,0,,,,,,,,,,,,,,,,,,,,
6724,0,,,247,251,237,234,,-0.06,-0.0,1.0,-0,-0,-0,0.06,,89,0,19,28,97,0.504,0.0,123,4.77,10.8,0.0,1,28.6,5.72,0.7,0,0,1,1,0,,,,,,,,,,,,,,,,,,,,
6744,0,-0,5,246,251,237,234,-14,-0.06,-0.01,0.98,-0,-0,-0,0.06,1,89,0,19,28,97,0.504,0.0,122,4.76,10.7,0.0,1,28.6,5.72,0.7,0,0,1,1,0,0,250,250,0,0.0,0.0,0.0,0.0,0,0,0.0,0,0.0,-1,0.0,,0.0,0,0.0,0.1124
6764,0,,,247,251,237,234,,-0.06,-0.0,0.98,-0,-0,-0,0.06,,89,0,19,28,97,0.504,0.0,122,4.77,10.9,0.0,1,28.6,5.72,0.7,0,0,1,1,0,,,,,,,,,,,,,,,,,,,,
6784,0,,,247,251,236,234,,-0.06,-0.0,0.98,-0,-0,-0,0.06,,89,0,19,28,97,0.504,0.0,122,4.77,10.9,0.0,1,28.6,5.72,0.7,0,0,1,1,0,,,,,,,,,,,,,,,,,,,,
6804,0,,,247,251,237,234,,-0.06,-0.01,1.0,-0,-0,-0,0.06,,89,0,19,28,97,0.504,0.0,122,4.76,10.7,0.0,1,28.6,5.72,0.7,0,0,1,1,0,,,,,,,,,,,,,,,,,,,,
6824,0,,,247,251,236,234,,-0.06,-0.0,0.98,-0,-0,-0,0.06,,89,0,19,28,97,0.505,0.0,122,4.77,10.6,0.0,1,28.6,5.72,0.7,0,0,1,1,0,,,,,,,,,,,,,,,,,,,,
6844,0,-1,5,247,251,237,234,-14,-0.06,-0.0,0.99,-0,-0,-0,0.06,1,89,0,19,28,97,0.505,0.0,122,4.76,10.9,0.0,1,28.6,5.72,0.7,0,0,1,1,0,0,250,250,0,0.0,0.0,0.0,0.0,0,0,0.0,0,0.0,-1,0.0,0.0,0.0,0,0.0,0.1141
6864,0,,,246,251,237,234,,-0.06,-0.0,1.0,-0,-0,-0,0.06,,89,0,19,28,97,0.505,0.0,122,4.77,10.9,0.0,1,28.6,5.72,0.7,0,0,1,1,0,,,,,,,,,,,,,,,,,,,,
6884,0,,,246,251,237,234,,-0.06,0.0,1.01,-0,-0,-0,0.06,,89,0,19,28,97,0.505,0.0,122,4.76,10.7,0.0,1,28.6,5.72,0.7,0,0,1,1,0,,,,,,,,,,,,,,,,,,,,
6904,0,,,247,251,237,234,,-0.06,0.0,1.0,-0,-0,-0,0.06,,89,0,19,28,97,0.505,0.0,123,4.77,10.6,0.0,1,28.6,5.72,0.7,0,0,1,1,0,,,,,,,,,,,,,,,,,,,,
6924,0,,,247,251,237,234,,-0.06,0.0,1.0,-0,-0,-0,0.06,,89,0,19,28,97,0.506,0.0,123,4.76,10.9,0.0,1,28.6,5.72,0.7,0,0,1,1,0,,,,,,,,,,,,,,,,,,,,
6944,0,-0,5,246,251,237,234,-14,-0.06,0.0,0.99,-0,-0,0,0.06,1,89,0,19,28,97,0.506,0.0,123,4.77,10.9,0.0,1,28.6,5.72,0.7,0,0,1,1,0,0,250,250,0,0.0,0.0,0.0,0.0,0,0,0.0,0,0.0,-1,0.0,,0.0,0,0.0,0.1157
6964,0,,,247,251,236,234,,-0.06,0.0,0.98,-0,-0,0,0.06,,89,0,19,28,97,0.506,0.0,123,4.77,10.7,0.0,1,28.6,5.72,0.7,0,0,1,1,0,,,,,,,,,,,,,,,,,,,,
6984,0,,,246,251,237,234,,-0.06,0.0,0.98,-0,0,0,0.06,,89,0,19,28,97,0.506,0.0,123,4.76,10.6,0.0,1,28.6,5.72,0.7,0,0,1,1,0,,,,,,,,,,,,,,,,,,,,
7004,0,,,247,251,237,234,,-0.06,0.0,0.98,-0,0,0,0.06,,89,0,20,28,97,0.506,0.0,123,4.76,10.9,0.0,1,28.6,5.72,0.7,0,0,1,1,0,,,,,,,,,,,,,,,,,,,,
7024,0,,,246,251,237,234,,-0.06,-0.01,0.98,-0,0,-0,0.06,,89,0,19,28,97,0.507,0.0,123,4.77,10.9,0.0,1,28.6,5.72,0.7,0,0,1,1,0,,,,,,,,,,,,,,,,,,,,
7044,0,1,2,247,251,237,234,-14,-0.06,-0.0,0.99,-0,0,0,0.06,1,89,0,19,28,97,0.506,0.0,118,4.73,10.4,0.0,1,28.6,5.72,0.7,0,0,1,1,0,0,250,250,0,0.0,0.0,0.0,0.0,0,0,0.0,0,0.0,-1,0.0,0.0,0.0,0,0.0,0.1174
7064,0,,,247,251,237,234,,-0.07,-0.0,0.99,-0,-0,0,0.07,,89,0,19,28,98,0.506,0.0,121,4.75,10.6,0.0,1,28.6,5.72,0.7,0,0,1,1,0,,,,,,,,,,,,,,,,,,,,
7084,0,,,247,251,237,234,,-0.06,-0.0,0.97,-0,-0,0,0.06,,89,0,19,28,97,0.506,0.0,121,4.74,10.8,0.0,1,28.6,5.72,0.7,0,0,1,1,0,,,,,,,,,,,,,,,,,,,,
7104,0,,,246,251,237,234,,-0.06,-0.0,0.97,-0,-0,0,0.06,,89,0,20,28,97,0.506,0.0,126,4.77,11.2,0.0,1,28.6,5.72,0.7,0,0,1,1,0,,,,,,,,,,,,,,,,,,,,
7124,0,,,247,251,237,234,,-0.06,-0.01,0.97,-0,-1,0,0.06,,89,0,19,28,97,0.506,0.0,126,4.71,11.3,0.0,1,28.6,5.72,0.7,0,0,1,1,0,,,,,,,,,,,,,,,,,,,,
7144,0,1,3,246,251,237,234,-13,-0.05,-0.01,0.96,-0,-1,0,0.05,1,89,218,19,28,97,0.506,0.0,129,4.77,11.4,0.0,1,28.6,5.56,0.7,0,0,1,1,0,0,250,250,0,0.0,0.0,0.0,0.0,0,0,0.0,0,0.0,-1,0.0,,0.0,0,0.0,0.1191
7164,0,,,247,251,237,234,,-0.05,-0.02,0.97,-0,-1,0,0.05,,89,1615,19,28,96,0.506,0.0,135,4.73,11.4,0.0,1,31.2,5.49,0.7,0,0,1,1,0,,,,,,,,,,,,,,,,,,,,
7184,0,,,247,251,237,234,,-0.05,-0.02,0.94,-0,-1,0,0.06,,89,1864,19,28,96,0.505,0.0,136,4.72,11.4,0.0,1,31.2,5.35,4.1,0,0,1,1,0,,,,,,,,,,,,,,,,,,,,
7204,0,,,246,251,237,234,,-0.05,-0.02,0.93,-0,-1,0,0.06,,89,2085,19,28,96,0.505,0.0,140,4.79,11.6,0.0,1,31.2,5.35,4.1,0,0,1,1,0,,,,,,,,,,,,,,,,,,,,
7224,0,,,247,251,237,234,,-0.07,-0.02,0.88,-0,-1,0,0.07,,89,2490,19,28,95,0.505,0.0,146,4.72,11.5,0.0,1,29.8,5.21,4.1,0,0,1,1,0,,,,,,,,,,,,,,,,,,,,
7244,0,-1,5,247,251,237,234,-13,-0.07,-0.02,0.95,-0,0,-0,0.07,1,89,2822,19,28,95,0.504,0.0,153,4.76,11.7,0.0,1,29.1,5.56,4.1,0,0,1,1,0,0,250,250,0,0.0,0.0,0.0,0.0,0,0,0.0,0,0.0,-1,0.0,0.0,0.0,0,0.0,0.1207
7264,0,,,247,251,236,234,,-0.07,-0.01,1.05,-0,2,0,0.07,,89,3292,19,28,94,0.504,0.0,162,4.74,11.5,0.0,1,28.0,6.23,4.1,0,0,1,1,0,,,,,,,,,,,,,,,,,,,,
7284,0,,,247,251,237,234,,-0.05,-0.04,0.97,-0,1,1,0.07,,89,3717,19,28,93,0.504,0.0,173,4.76,11.7,0.0,1,28.6,6.32,10.3,0,0,1,1,0,,,,,,,,,,,,,,,,,,,,
7304,0,,,246,251,237,234,,-0.02,-0.04,0.89,-0,1,1,0.04,,89,4262,19,28,92,0.504,0.0,191,4.76,11.8,0.0,1,32.9,5.66,10.3,0,0,1,1,0,,,,,,,,,,,,,,,,,,,,
7324,0,,,247,251,236,234,,0.03,-0.09,0.82,-0,1,0,0.1,,89,4731,19,28,91,0.503,0.0,209,4.77,12.2,0.0,1,38.9,5.2,10.3,0,0,1,1,0,,,,,,,,,,,,,,,,,,,,
7344,0,-1,5,247,251,236,234,-13,-0.03,-0.05,0.76,-0,4,4,0.06,1,89,5051,19,28,89,0.503,0.0,228,4.75,12.2,0.0,1,42.3,4.84,10.3,0,0,1,1,0,0,250,250,0,0.0,0.0,0.0,0.0,0,0,0.0,0,0.0,-1,0.0,,0.0,0,0.0,0.1224
7364,0,,,246,251,237,234,,0.01,-0.12,0.7,-0,1,1,0.12,,89,5666,19,28,88,0.503,0.0,258,4.81,12.2,0.0,1,40.3,3.29,10.3,0,0,1,1,0,,,,,,,,,,,,,,,,,,,,
7384,0,,,247,251,236,234,,0.04,-0.13,0.95,-0,-5,-4,0.13,,89,6239,19,28,85,0.502,0.0,290,4.75,12.1,0.0,1,40.6,3.35,16.6,0,0,1,1,0,,,,,,,,,,,,,,,,,,,,
7404,0,,,247,251,237,234,,0.04,-0.07,1.06,-0,-4,-3,0.08,,89,6934,19,28,84,0.502,0.0,331,4.75,11.9,0.0,1,45.7,2.91,16.6,0,0,1,1,0,,,,,,,,,,,,,,,,,,,,
7424,0,,,247,251,237,234,,0.0,-0.04,0.98,0,-3,-1,0.04,,89,7312,19,28,82,0.502,0.0,377,4.78,12.1,0.0,1,42.4,4.72,16.6,0,0,1,1,0,,,,,,,,,,,,,,,,,,,,
7444,0,-0,4,247,251,237,234,-14,0.02,-0.0,1.13,0,-3,-1,0.02,1,89,7868,19,28,79,0.501,0.0,418,4.75,12.0,0.0,1,38.4,3.28,16.6,0,0,1,1,0,0,250,250,0,0.0,0.0,0.0,0.0,0,0,0.0,0,0.0,-1,0.0,0.0,0.0,0,0.0,0.1241
7464,0,,,247,251,236,234,,0.02,-0.01,1.05,0,-2,2,0.02,,89,8396,18,28,75,0.501,0.0,472,4.77,12.1,0.0,1,41.9,4.23,16.6,0,0,1,1,0,,,,,,,,,,,,,,,,,,,,
7484,0,,,247,251,237,234,,0.02,0.01,0.97,0,-1,2,0.03,,89,9106,17,28,69,0.501,0.0,515,4.7,11.9,0.0,1,41.3,3.78,16.2,0,0,1,1,0,,,,,,,,,,,,,,,,,,,,
7504,0,,,247,251,237,234,,0.03,0.02,0.89,0,-1,5,0.03,,89,9684,16,28,65,0.5,0.0,563,4.77,12.0,0.0,1,41.1,3.78,16.2,0,0,1,1,0,,,,,,,,,,,,,,,,,,,,
7524,0,,,247,251,236,234,,0.06,0.05,0.92,0,-1,4,0.08,,89,10279,16,28,60,0.5,0.0,602,4.68,12.0,0.0,1,42.6,4.08,16.2,0,0,1,1,0,,,,,,,,,,,,,,,,,,,,
7544,0,-1,5,247,251,237,234,-13,0.05,0.06,0.85,0,1,6,0.08,1,89,10738,15,28,56,0.5,0.0,620,4.7,12.0,0.0,1,41.4,3.83,16.2,0,0,1,1,0,0,250,250,0,0.0,0.0,0.0,0.0,0,0,0.0,0,0.0,-1,0.0,,0.0,0,0.0,0.1257
7564,0,,,246,251,237,234,,0.0,0.21,1.09,0,0,3,0.21,,89,11061,15,28,53,0.5,0.0,626,4.68,12.0,0.0,1,39.7,3.59,16.2,0,0,1,1,0,,,,,,,,,,,,,,,,,,,,
7584,0,,,247,251,237,234,,0.06,0.24,1.32,0,-1,3,0.25,,89,11336,15,28,51,0.5,0.0,631,4.73,12.0,0.0,1,39.1,3.33,18.0,0,0,1,1,0,,,,,,,,,,,,,,,,,,,,
7604,0,,,247,251,236,234,,-0.03,0.22,1.21,0,0,5,0.22,,89,11517,14,28,50,0.5,0.0,628,4.76,12.0,0.0,1,38.8,3.2,18.0,0,0,1,1,0,,,,,,,,,,,,,,,,,,,,
7624,0,,,247,251,237,234,,-0.1,0.12,1.12,0,3,6,0.16,,89,11588,11,28,47,0.5,0.0,640,4.73,11.9,0.0,1,38.0,2.84,18.0,0,0,1,1,0,,,,,,,,,,,,,,,,,,,,
7644,0,0,3,247,251,237,234,-14,-0.02,0.05,1.03,0,5,6,0.05,1,89,11609,9,28,45,0.5,0.0,635,4.73,11.9,0.0,1,36.5,2.79,18.0,0,0,1,1,0,0,250,250,0,0.0,0.0,0.0,0.0,0,0,0.0,0,0.0,-1,0.0,0.0,0.0,0,0.0,0.1274
7664,0,,,247,251,237,234,,0.01,0.13,1.24,0,4,4,0.13,,89,11503,6,28,42,0.5,0.0,636,4.75,11.9,0.0,1,34.2,1.57,18.0,0,0,1,1,0,,,,,,,,,,,,,,,,,,,,
7684,0,,,246,251,237,234,,0.02,0.14,1.46,0,1,1,0.14,,89,11315,5,28,39,0.5,0.0,632,4.75,12.0,0.0,1,32.0,2.63,13.8,0,0,1,1,0,,,,,,,,,,,,,,,,,,,,
7704,0,,,246,251,237,234,,-0.02,0.1,1.65,0,-1,-0,0.1,,89,11048,4,28,38,0.5,0.0,628,4.72,11.9,0.0,1,31.7,2.61,13.8,0,0,1,1,0,,,,,,,,,,,,,,,,,,,,
7724,0,,,247,251,237,234,,0.01,-0.06,1.52,0,1,2,0.06,,89,10806,4,28,36,0.5,0.0,628,4.71,12.0,0.0,1,31.1,2.57,13.8,0,0,1,1,0,,,,,,,,,,,,,,,,,,,,
7744,0,0,5,246,251,237,234,-14,0.07,0.04,1.69,0,1,2,0.08,1,89,10593,3,28,35,0.5,0.0,622,4.77,11.9,0.0,1,30.8,2.53,13.8,0,0,1,1,0,0,250,250,0,0.0,0.0,0.0,0.0,0,0,0.0,0,0.0,-1,0.0,,0.0,0,0.0,0.1291
7764,0,,,247,251,236,234,,0.08,0.04,1.56,0,2,4,0.09,,89,10336,3,28,34,0.5,0.0,617,4.72,12.1,0.0,1,30.5,1.37,13.8,0,0,1,1,0,,,,,,,,,,,,,,,,,,,,
7784,0,,,247,251,237,234,,0.04,-0.0,1.75,-0,0,1,0.04,,89,10107,3,28,33,0.5,0.0,613,4.77,12.0,0.0,1,30.2,2.46,11.6,0,0,1,1,0,,,,,,,,,,,,,,,,,,,,
