"Interval"|"ms"|0|0|1,"Utc"|"ms"|0|0|1,"Brake_F"|"Bar"|0|2000|10,"Brake_R"|"Bar"|0|2000|10,"Height_RF"|"mm"|0|255|10,"Height_LF"|"mm"|0|255|10,"Height_LR"|"mm"|0|80|10,"Height_RR"|"mm"|0|255|10,"Steering"|"deg"|-100|100|10,"AccelX"|"G"|-3.0|3.0|25,"AccelY"|"G"|-3.0|3.0|25,"AccelZ"|"G"|-3.0|3.0|25,"Yaw"|"Deg/Sec"|-120|120|25,"Pitch"|"Deg/Sec"|-120|120|25,"Roll"|"Deg/Sec"|-120|120|25,"Gsum"|"G"|0.0|3.0|25,"Unknown"|""|0|1024|25,"Log_Button"|""|0.0|10.0|10,"Latitude"|"Degrees"|-180.0|180.0|10,"Longitude"|"Degrees"|-180.0|180.0|10,"Speed"|"kph"|0.0|150.0|10,"Altitude"|"m"|0.0|4000.0|10,"GPSSats"|""|0|20|10,"GPSQual"|""|0|5|10,"GPSDOP"|""|0.0|20.0|10,"LapCount"|""|0|0|10,"LapTime"|"Min"|0.0|0.0|10,"Sector"|""|0|0|10,"SectorTime"|"Min"|0.0|0.0|10,"PredTime"|"Min"|0.0|0.0|5,"ElapsedTime"|"Min"|0.0|0.0|10,"CurrentLap"|""|0|0|10,"Distance"|"km"|0.0|0.0|10,"SessionTime"|"Min"|0.0|0.0|10
10083,0,,,,,,,,0.02,-0.01,0.99,0,0,0,0.02,0,,,,,,,,,,,,,,,,,
10123,0,,,,,,,,0.02,-0.01,0.99,0,0,0,0.02,0,,,,,,,,,,,,,,,,,
10163,0,,,,,,,,0.02,-0.01,0.99,0,0,0,0.02,0,,,,,,,,,,,,,,,,,
10203,0,,,,,,,,0.02,-0.01,1.0,0,0,0,0.02,0,,,,,,,,,,,,,,,,,
10243,0,-0,2,52,58,36,38,100,0.02,-0.01,1.0,0,0,0,0.02,0,1,0.0,0.0,0.0,0.0,0,0,0.0,0,0.0,-1,0.0,0.0,0.0,0,0.0,0.1707
10283,0,,,,,,,,0.02,-0.01,1.0,0,0,0,0.02,0,,,,,,,,,,,,,,,,,
10323,0,,,,,,,,0.02,-0.01,1.0,0,0,0,0.02,0,,,,,,,,,,,,,,,,,
10363,0,,,,,,,,0.02,-0.01,1.0,0,0,0,0.02,0,,,,,,,,,,,,,,,,,
10403,0,,,,,,,,0.02,-0.01,1.0,0,0,0,0.02,0,,,,,,,,,,,,,,,,,
10443,0,-1,2,52,58,36,39,100,0.02,-0.01,1.0,0,0,0,0.02,0,1,0.0,0.0,0.0,0.0,0,0,0.0,0,0.0,-1,0.0,0.0,0.0,0,0.0,0.174
10483,0,,,,,,,,0.02,-0.01,1.0,0,0,0,0.02,0,,,,,,,,,,,,,,,,,
10523,0,,,,,,,,0.02,-0.01,1.0,0,-0,0,0.02,0,,,,,,,,,,,,,,,,,
10563,0,,,,,,,,0.02,-0.01,1.0,0,-0,0,0.02,0,,,,,,,,,,,,,,,,,
10603,0,,,,,,,,0.02,-0.01,1.0,0,-0,0,0.02,0,,,,,,,,,,,,,,,,,
10643,0,1,2,52,58,35,39,100,0.02,-0.01,1.0,0,-0,0,0.02,0,0,0.0,0.0,0.0,0.0,0,0,0.0,0,0.0,-1,0.0,0.0,0.0,0,0.0,0.1774
10683,0,,,,,,,,0.02,-0.01,1.0,0,-0,0,0.02,0,,,,,,,,,,,,,,,,,
10723,0,,,,,,,,0.02,-0.01,0.99,0,-0,0,0.02,0,,,,,,,,,,,,,,,,,
10763,0,,,,,,,,0.02,-0.01,1.0,0,-0,0,0.02,0,,,,,,,,,,,,,,,,,
10803,0,,,,,,,,0.02,-0.01,1.0,0,-0,0,0.02,0,,,,,,,,,,,,,,,,,
10843,0,-0,2,52,58,36,39,100,0.02,-0.01,1.01,0,-0,0,0.02,0,0,0.0,0.0,0.0,0.0,0,0,0.0,0,0.0,-1,0.0,0.0,0.0,0,0.0,0.1807
10883,0,,,,,,,,0.02,-0.01,1.0,0,-0,0,0.02,0,,,,,,,,,,,,,,,,,
10923,0,,,,,,,,0.02,-0.01,1.01,0,-0,0,0.02,0,,,,,,,,,,,,,,,,,
10963,0,,,,,,,,0.02,-0.01,1.0,0,-0,0,0.02,0,,,,,,,,,,,,,,,,,
11003,0,,,,,,,,0.02,-0.01,1.0,0,0,0,0.02,0,,,,,,,,,,,,,,,,,
11043,0,-0,2,52,58,35,38,100,0.02,-0.01,1.0,0,-0,0,0.02,0,0,0.0,0.0,0.0,0.0,0,0,0.0,0,0.0,-1,0.0,0.0,0.0,0,0.0,0.184
11083,0,,,,,,,,0.02,-0.01,1.0,0,-0,0,0.02,0,,,,,,,,,,,,,,,,,
11123,0,,,,,,,,0.02,-0.01,1.0,0,0,0,0.02,0,,,,,,,,,,,,,,,,,
11163,0,,,,,,,,0.02,-0.01,1.0,0,-0,0,0.02,0,,,,,,,,,,,,,,,,,
11203,0,,,,,,,,0.02,-0.01,1.0,0,-0,0,0.02,0,,,,,,,,,,,,,,,,,
11243,0,-0,2,52,58,35,38,100,0.02,-0.01,1.0,0,0,0,0.02,0,0,0.0,0.0,0.0,0.0,0,0,0.0,0,0.0,-1,0.0,0.0,0.0,0,0.0,0.1874
11283,0,,,,,,,,0.03,-0.01,1.01,0,0,0,0.03,0,,,,,,,,,,,,,,,,,
11323,0,,,,,,,,0.03,-0.01,1.0,0,0,0,0.03,0,,,,,,,,,,,,,,,,,
11363,0,,,,,,,,0.03,-0.01,1.0,0,0,0,0.03,0,,,,,,,,,,,,,,,,,
11403,0,,,,,,,,0.03,-0.01,1.0,0,0,0,0.03,0,,,,,,,,,,,,,,,,,
11443,0,-0,2,52,58,36,39,100,0.03,-0.01,1.0,0,0,0,0.03,0,0,0.0,0.0,0.0,0.0,0,0,0.0,0,0.0,-1,0.0,0.0,0.0,0,0.0,0.1907
11483,0,,,,,,,,0.03,-0.01,1.0,0,0,0,0.03,0,,,,,,,,,,,,,,,,,
11523,0,,,,,,,,0.03,-0.01,1.0,0,0,0,0.03,0,,,,,,,,,,,,,,,,,
11563,0,,,,,,,,0.03,-0.01,1.0,0,0,0,0.03,0,,,,,,,,,,,,,,,,,
11603,0,,,,,,,,0.03,-0.01,1.0,-0,0,0,0.03,0,,,,,,,,,,,,,,,,,
11643,0,1,3,51,57,35,38,99,0.03,-0.01,1.01,-0,0,0,0.03,0,0,0.0,0.0,0.0,0.0,0,0,0.0,0,0.0,-1,0.0,0.0,0.0,0,0.0,0.194
11683,0,,,,,,,,0.03,-0.01,1.0,-0,0,0,0.03,0,,,,,,,,,,,,,,,,,
11723,0,,,,,,,,0.02,-0.01,1.0,-0,0,0,0.03,0,,,,,,,,,,,,,,,,,
11763,0,,,,,,,,0.02,-0.01,1.0,-0,0,0,0.03,0,,,,,,,,,,,,,,,,,
11803,0,,,,,,,,0.02,-0.01,1.0,-0,-0,0,0.02,0,,,,,,,,,,,,,,,,,
11843,0,0,0,52,58,35,38,100,0.02,-0.01,1.0,-0,-0,0,0.02,0,0,0.0,0.0,0.0,0.0,0,0,0.0,0,0.0,-1,0.0,0.0,0.0,0,0.0,0.1974
11883,0,,,,,,,,0.02,-0.01,1.0,-0,-0,0,0.02,0,,,,,,,,,,,,,,,,,
11923,0,,,,,,,,0.02,-0.01,1.0,-0,0,0,0.02,0,,,,,,,,,,,,,,,,,
11963,0,,,,,,,,0.02,-0.01,1.0,-0,0,0,0.02,0,,,,,,,,,,,,,,,,,
12003,0,,,,,,,,0.02,-0.01,1.0,-0,0,0,0.02,0,,,,,,,,,,,,,,,,,
12043,0,0,1,52,58,36,39,99,0.01,-0.01,0.99,-0,-0,0,0.02,0,0,0.0,0.0,0.0,0.0,0,0,0.0,0,0.0,-1,0.0,0.0,0.0,0,0.0,0.2007
12083,0,,,,,,,,0.01,-0.01,0.99,0,-0,0,0.01,0,,,,,,,,,,,,,,,,,
12123,0,,,,,,,,0.01,-0.0,1.0,0,-0,0,0.01,0,,,,,,,,,,,,,,,,,
12163,0,,,,,,,,0.01,-0.0,0.99,0,-0,0,0.01,0,,,,,,,,,,,,,,,,,
12203,0,,,,,,,,0.01,-0.0,0.99,0,-0,0,0.01,0,,,,,,,,,,,,,,,,,
12243,0,1,1,52,58,35,39,99,0.02,-0.0,0.99,0,-0,0,0.02,0,0,0.0,0.0,0.0,0.0,0,0,0.0,0,0.0,-1,0.0,0.0,0.0,0,0.0,0.204
12283,0,,,,,,,,0.02,-0.01,0.99,0,-0,0,0.02,0,,,,,,,,,,,,,,,,,
12323,0,,,,,,,,0.02,-0.01,1.0,0,-0,0,0.02,0,,,,,,,,,,,,,,,,,
12363,0,,,,,,,,0.03,-0.01,1.0,0,0,0,0.03,0,,,,,,,,,,,,,,,,,
12403,0,,,,,,,,0.03,-0.01,0.99,0,-0,0,0.03,0,,,,,,,,,,,,,,,,,
12443,0,-1,2,52,58,36,39,99,0.03,-0.01,0.98,0,-0,0,0.03,0,0,0.0,0.0,0.0,0.0,0,0,0.0,0,0.0,-1,0.0,0.0,0.0,0,0.0,0.2074
12483,0,,,,,,,,0.03,-0.01,0.99,0,-0,0,0.03,0,,,,,,,,,,,,,,,,,
12523,0,,,,,,,,0.03,-0.01,0.99,0,-0,0,0.03,0,,,,,,,,,,,,,,,,,
12563,0,,,,,,,,0.03,-0.01,0.99,0,-0,0,0.03,0,,,,,,,,,,,,,,,,,
12603,0,,,,,,,,0.02,-0.01,1.0,0,-0,0,0.03,0,,,,,,,,,,,,,,,,,
12643,0,0,2,52,58,36,39,100,0.02,-0.01,1.0,0,-0,0,0.02,0,0,0.0,0.0,0.0,0.0,0,0,0.0,0,0.0,-1,0.0,0.0,0.0,0,0.0,0.2107
12683,0,,,,,,,,0.02,-0.01,1.0,0,0,0,0.02,0,,,,,,,,,,,,,,,,,
12723,0,,,,,,,,0.02,-0.01,1.0,0,-0,0,0.02,0,,,,,,,,,,,,,,,,,
12763,0,,,,,,,,0.02,-0.01,1.0,0,0,0,0.02,0,,,,,,,,,,,,,,,,,
12803,0,,,,,,,,0.02,-0.01,1.0,0,-0,0,0.02,0,,,,,,,,,,,,,,,,,
12843,0,-0,2,52,58,35,38,100,0.02,-0.01,1.0,0,0,0,0.02,0,0,0.0,0.0,0.0,0.0,0,0,0.0,0,0.0,-1,0.0,0.0,0.0,0,0.0,0.214
12883,0,,,,,,,,0.02,-0.01,1.0,0,0,0,0.02,0,,,,,,,,,,,,,,,,,
12923,0,,,,,,,,0.02,-0.01,1.0,0,0,0,0.02,0,,,,,,,,,,,,,,,,,
12963,0,,,,,,,,0.02,-0.01,1.0,0,0,0,0.02,0,,,,,,,,,,,,,,,,,
13003,0,,,,,,,,0.02,-0.01,1.0,0,0,0,0.02,0,,,,,,,,,,,,,,,,,
13043,0,1,2,52,58,36,38,100,0.02,-0.01,1.0,0,0,0,0.02,0,0,0.0,0.0,0.0,0.0,0,0,0.0,0,0.0,-1,0.0,0.0,0.0,0,0.0,0.2174
13083,0,,,,,,,,0.02,-0.01,1.01,0,0,0,0.02,0,,,,,,,,,,,,,,,,,
13123,0,,,,,,,,0.02,-0.01,1.01,0,-0,0,0.02,0,,,,,,,,,,,,,,,,,
13163,0,,,,,,,,0.02,-0.01,1.01,0,-0,0,0.02,0,,,,,,,,,,,,,,,,,
13203,0,,,,,,,,0.02,-0.01,1.01,0,-0,0,0.02,0,,,,,,,,,,,,,,,,,
13243,0,-1,2,52,58,35,39,99,0.02,-0.01,1.01,0,-0,0,0.02,0,0,0.0,0.0,0.0,0.0,0,0,0.0,0,0.0,-1,0.0,0.0,0.0,0,0.0,0.2207
13283,0,,,,,,,,0.02,-0.01,1.01,0,0,0,0.02,0,,,,,,,,,,,,,,,,,
13323,0,,,,,,,,0.02,-0.01,1.01,0,0,0,0.02,0,,,,,,,,,,,,,,,,,
13363,0,,,,,,,,0.02,-0.01,1.0,0,0,0,0.02,0,,,,,,,,,,,,,,,,,
13403,0,,,,,,,,0.02,-0.01,1.0,0,-0,0,0.02,0,,,,,,,,,,,,,,,,,
13443,0,-0,2,52,58,36,39,99,0.02,-0.01,1.0,0,0,0,0.02,0,0,0.0,0.0,0.0,0.0,0,0,0.0,0,0.0,-1,0.0,0.0,0.0,0,0.0,0.224
13483,0,,,,,,,,0.02,-0.01,1.0,0,-0,0,0.02,0,,,,,,,,,,,,,,,,,
13523,0,,,,,,,,0.02,-0.01,1.0,0,-0,0,0.02,0,,,,,,,,,,,,,,,,,
13563,0,,,,,,,,0.02,-0.01,1.0,0,-0,0,0.02,0,,,,,,,,,,,,,,,,,
13603,0,,,,,,,,0.02,-0.01,1.0,0,-0,0,0.02,0,,,,,,,,,,,,,,,,,
13643,0,0,1,52,58,35,39,99,0.02,-0.01,1.0,0,-0,0,0.02,0,0,0.0,0.0,0.0,0.0,0,0,0.0,0,0.0,-1,0.0,0.0,0.0,0,0.0,0.2274
13683,0,,,,,,,,0.02,-0.01,1.0,0,-0,0,0.02,0,,,,,,,,,,,,,,,,,
13723,0,,,,,,,,0.02,-0.01,0.99,0,-0,0,0.02,0,,,,,,,,,,,,,,,,,
13763,0,,,,,,,,0.02,-0.01,1.0,0,-0,0,0.02,0,,,,,,,,,,,,,,,,,
13803,0,,,,,,,,0.02,-0.01,1.0,0,0,0,0.02,0,,,,,,,,,,,,,,,,,
13843,0,0,2,52,58,35,39,99,0.02,-0.01,1.0,0,0,0,0.02,0,0,0.0,0.0,0.0,0.0,0,0,0.0,0,0.0,-1,0.0,0.0,0.0,0,0.0,0.2307
13883,0,,,,,,,,0.02,-0.0,0.98,0,0,0,0.02,0,,,,,,,,,,,,,,,,,
13923,0,,,,,,,,0.02,-0.0,0.98,0,0,0,0.02,0,,,,,,,,,,,,,,,,,
13963,0,,,,,,,,0.02,-0.01,0.99,0,0,0,0.02,0,,,,,,,,,,,,,,,,,
14003,0,,,,,,,,0.02,-0.01,0.99,0,0,0,0.03,0,,,,,,,,,,,,,,,,,
14043,0,1,0,52,58,35,39,99,0.02,-0.01,0.99,0,0,0,0.03,0,0,0.0,0.0,0.0,0.0,0,0,0.0,0,0.0,-1,0.0,0.0,0.0,0,0.0,0.234
14083,0,,,,,,,,0.02,-0.01,0.99,0,0,0,0.03,0,,,,,,,,,,,,,,,,,
14123,0,,,,,,,,0.02,-0.01,0.99,0,0,0,0.03,0,,,,,,,,,,,,,,,,,
14163,0,,,,,,,,0.02,-0.01,0.99,0,0,0,0.03,0,,,,,,,,,,,,,,,,,
14203,0,,,,,,,,0.02,-0.01,0.99,0,0,0,0.02,0,,,,,,,,,,,,,,,,,
14243,0,1,1,52,58,35,39,99,0.02,-0.01,0.99,0,0,0,0.02,0,0,0.0,0.0,0.0,0.0,0,0,0.0,0,0.0,-1,0.0,0.0,0.0,0,0.0,0.2374
14283,0,,,,,,,,0.02,-0.01,0.99,0,0,0,0.02,0,,,,,,,,,,,,,,,,,
14323,0,,,,,,,,0.02,-0.01,0.99,0,0,0,0.02,0,,,,,,,,,,,,,,,,,
14363,0,,,,,,,,0.02,-0.01,0.99,0,0,0,0.02,0,,,,,,,,,,,,,,,,,
14403,0,,,,,,,,0.02,-0.01,0.99,0,0,0,0.02,0,,,,,,,,,,,,,,,,,
14443,0,0,1,52,58,35,39,99,0.02,-0.01,1.0,0,0,0,0.02,0,0,0.0,0.0,0.0,0.0,0,0,0.0,0,0.0,-1,0.0,0.0,0.0,0,0.0,0.2407
14483,0,,,,,,,,0.02,-0.01,1.0,0,0,0,0.02,0,,,,,,,,,,,,,,,,,
14523,0,,,,,,,,0.02,-0.01,1.0,0,0,0,0.02,0,,,,,,,,,,,,,,,,,
14563,0,,,,,,,,0.02,-0.01,1.0,0,0,0,0.02,0,,,,,,,,,,,,,,,,,
14603,0,,,,,,,,0.02,-0.01,1.0,0,0,0,0.03,0,,,,,,,,,,,,,,,,,
14643,0,1,0,52,58,35,39,99,0.02,-0.01,1.0,0,0,0,0.02,0,0,0.0,0.0,0.0,0.0,0,0,0.0,0,0.0,-1,0.0,0.0,0.0,0,0.0,0.244
14683,0,,,,,,,,0.02,-0.01,1.0,0,-0,0,0.02,0,,,,,,,,,,,,,,,,,
14723,0,,,,,,,,0.02,-0.01,1.0,0,0,0,0.02,0,,,,,,,,,,,,,,,,,
14763,0,,,,,,,,0.02,-0.01,1.0,0,0,0,0.03,0,,,,,,,,,,,,,,,,,
14803,0,,,,,,,,0.03,-0.01,0.99,0,0,0,0.03,0,,,,,,,,,,,,,,,,,
14843,0,0,2,52,58,36,38,100,0.03,-0.01,0.99,0,0,0,0.03,0,0,0.0,0.0,0.0,0.0,0,0,0.0,0,0.0,-1,0.0,0.0,0.0,0,0.0,0.2474
14883,0,,,,,,,,0.02,-0.01,0.99,0,0,0,0.03,0,,,,,,,,,,,,,,,,,
14923,0,,,,,,,,0.02,-0.01,0.99,0,0,0,0.03,0,,,,,,,,,,,,,,,,,
14963,0,,,,,,,,0.02,-0.01,0.99,0,0,0,0.03,0,,,,,,,,,,,,,,,,,
15003,0,,,,,,,,0.02,-0.01,0.99,0,0,0,0.02,0,,,,,,,,,,,,,,,,,
15043,0,1,2,52,58,36,38,100,0.02,-0.01,0.99,0,0,0,0.02,0,0,0.0,0.0,0.0,0.0,0,0,0.0,0,0.0,-1,0.0,0.0,0.0,0,0.0,0.2507
15083,0,,,,,,,,0.02,-0.01,0.99,0,-0,0,0.02,0,,,,,,,,,,,,,,,,,
15123,0,,,,,,,,0.02,-0.01,0.99,0,0,0,0.02,0,,,,,,,,,,,,,,,,,
15163,0,,,,,,,,0.02,-0.01,0.99,0,0,0,0.02,0,,,,,,,,,,,,,,,,,
15203,0,,,,,,,,0.02,-0.01,0.99,0,0,0,0.02,0,,,,,,,,,,,,,,,,,
15243,0,-0,0,52,58,35,39,99,0.02,-0.01,0.99,0,0,0,0.02,0,0,0.0,0.0,0.0,0.0,0,0,0.0,0,0.0,-1,0.0,0.0,0.0,0,0.0,0.254
15283,0,,,,,,,,0.02,-0.01,0.99,0,0,0,0.02,0,,,,,,,,,,,,,,,,,
15323,0,,,,,,,,0.02,-0.01,1.0,0,-0,0,0.02,0,,,,,,,,,,,,,,,,,
15363,0,,,,,,,,0.02,-0.01,1.0,0,-0,0,0.02,0,,,,,,,,,,,,,,,,,
15403,0,,,,,,,,0.02,-0.01,1.0,0,-0,0,0.02,0,,,,,,,,,,,,,,,,,
15443,0,-0,2,52,58,36,38,100,0.02,-0.01,1.0,0,-0,0,0.02,0,0,0.0,0.0,0.0,0.0,0,0,0.0,0,0.0,-1,0.0,0.0,0.0,0,0.0,0.2574
15483,0,,,,,,,,0.02,-0.01,1.0,0,-0,0,0.02,0,,,,,,,,,,,,,,,,,
15523,0,,,,,,,,0.02,-0.01,1.0,0,-0,0,0.02,0,,,,,,,,,,,,,,,,,
15563,0,,,,,,,,0.02,-0.01,1.0,0,-0,0,0.02,0,,,,,,,,,,,,,,,,,
15603,0,,,,,,,,0.02,-0.01,1.0,0,-0,0,0.02,0,,,,,,,,,,,,,,,,,
15643,0,1,2,52,58,36,39,100,0.02,-0.01,1.0,0,-0,0,0.02,0,0,0.0,0.0,0.0,0.0,0,0,0.0,0,0.0,-1,0.0,0.0,0.0,0,0.0,0.2607
15683,0,,,,,,,,0.02,-0.01,0.99,0,-0,0,0.02,0,,,,,,,,,,,,,,,,,
15723,0,,,,,,,,0.02,-0.01,0.99,0,-0,0,0.02,0,,,,,,,,,,,,,,,,,
15763,0,,,,,,,,0.02,-0.01,1.0,0,-0,0,0.02,0,,,,,,,,,,,,,,,,,
15803,0,,,,,,,,0.02,-0.01,1.0,0,-0,0,0.02,0,,,,,,,,,,,,,,,,,
15843,0,-1,0,52,58,35,39,99,0.02,-0.01,1.0,0,0,0,0.02,0,0,0.0,0.0,0.0,0.0,0,0,0.0,0,0.0,-1,0.0,0.0,0.0,0,0.0,0.264
15883,0,,,,,,,,0.02,-0.01,0.99,0,0,0,0.02,0,,,,,,,,,,,,,,,,,
15923,0,,,,,,,,0.02,-0.01,1.01,0,0,0,0.03,0,,,,,,,,,,,,,,,,,
15963,0,,,,,,,,0.02,-0.01,1.0,0,0,0,0.02,0,,,,,,,,,,,,,,,,,
16003,0,,,,,,,,0.02,-0.01,1.0,0,0,0,0.02,0,,,,,,,,,,,,,,,,,
16043,0,0,1,52,58,35,39,99,0.02,-0.01,1.0,0,0,0,0.02,0,0,0.0,0.0,0.0,0.0,0,0,0.0,0,0.0,-1,0.0,0.0,0.0,0,0.0,0.2674
16083,0,,,,,,,,0.02,-0.01,1.0,0,0,0,0.02,0,,,,,,,,,,,,,,,,,
16123,0,,,,,,,,0.02,-0.01,1.0,0,0,0,0.02,0,,,,,,,,,,,,,,,,,
16163,0,,,,,,,,0.02,-0.01,1.0,0,0,0,0.02,0,,,,,,,,,,,,,,,,,
16203,0,,,,,,,,0.02,-0.01,1.0,0,0,0,0.02,0,,,,,,,,,,,,,,,,,
16243,0,0,0,52,58,36,38,100,0.02,-0.01,1.0,0,0,0,0.02,0,0,0.0,0.0,0.0,0.0,0,0,0.0,0,0.0,-1,0.0,0.0,0.0,0,0.0,0.2707
16283,0,,,,,,,,0.02,-0.01,1.0,0,0,0,0.02,0,,,,,,,,,,,,,,,,,
16323,0,,,,,,,,0.02,-0.01,1.0,0,0,0,0.02,0,,,,,,,,,,,,,,,,,
16363,0,,,,,,,,0.02,-0.01,1.0,0,-0,0,0.02,0,,,,,,,,,,,,,,,,,
16403,0,,,,,,,,0.02,-0.01,1.0,0,-0,0,0.02,0,,,,,,,,,,,,,,,,,
16443,0,-1,2,52,58,35,39,99,0.02,-0.01,1.0,0,-0,0,0.02,0,0,0.0,0.0,0.0,0.0,0,0,0.0,0,0.0,-1,0.0,0.0,0.0,0,0.0,0.274
16483,0,,,,,,,,0.02,-0.01,1.0,0,-0,0,0.02,0,,,,,,,,,,,,,,,,,
16523,0,,,,,,,,0.02,-0.01,1.0,0,-0,0,0.02,0,,,,,,,,,,,,,,,,,
16563,0,,,,,,,,0.02,-0.01,0.99,0,-0,0,0.02,0,,,,,,,,,,,,,,,,,
16603,0,,,,,,,,0.02,-0.01,1.0,0,-0,0,0.02,0,,,,,,,,,,,,,,,,,
16643,0,-1,2,52,58,35,39,99,0.02,-0.01,1.0,0,-0,0,0.02,0,0,0.0,0.0,0.0,0.0,0,0,0.0,0,0.0,-1,0.0,0.0,0.0,0,0.0,0.2774
16683,0,,,,,,,,0.02,-0.01,1.0,0,-0,0,0.02,0,,,,,,,,,,,,,,,,,
16723,0,,,,,,,,0.02,-0.01,1.0,0,-0,0,0.02,0,,,,,,,,,,,,,,,,,
16763,0,,,,,,,,0.02,-0.01,1.0,0,0,0,0.02,0,,,,,,,,,,,,,,,,,
16803,0,,,,,,,,0.02,-0.01,1.0,0,0,0,0.02,0,,,,,,,,,,,,,,,,,
16843,0,0,1,52,58,36,38,99,0.02,-0.01,1.0,0,0,0,0.02,0,0,0.0,0.0,0.0,0.0,0,0,0.0,0,0.0,-1,0.0,0.0,0.0,0,0.0,0.2807
16883,0,,,,,,,,0.02,-0.01,1.0,0,-0,0,0.02,0,,,,,,,,,,,,,,,,,
16923,0,,,,,,,,0.02,-0.01,1.0,0,-0,0,0.02,0,,,,,,,,,,,,,,,,,
16963,0,,,,,,,,0.02,-0.01,1.0,0,0,0,0.02,0,,,,,,,,,,,,,,,,,
17003,0,,,,,,,,0.02,-0.01,1.0,0,-0,0,0.02,0,,,,,,,,,,,,,,,,,
17043,0,1,1,52,58,35,39,99,0.02,-0.01,1.0,0,-0,0,0.02,0,0,0.0,0.0,0.0,0.0,0,0,0.0,0,0.0,-1,0.0,0.0,0.0,0,0.0,0.284
17083,0,,,,,,,,0.02,-0.01,1.0,0,-0,0,0.02,0,,,,,,,,,,,,,,,,,
17123,0,,,,,,,,0.02,-0.01,1.0,0,-0,0,0.02,0,,,,,,,,,,,,,,,,,
17163,0,,,,,,,,0.02,-0.01,1.0,0,-0,0,0.02,0,,,,,,,,,,,,,,,,,
17203,0,,,,,,,,0.02,-0.01,1.0,0,-0,0,0.02,0,,,,,,,,,,,,,,,,,
17243,0,0,1,52,58,35,38,100,0.02,-0.01,1.0,0,0,0,0.02,0,0,0.0,0.0,0.0,0.0,0,0,0.0,0,0.0,-1,0.0,0.0,0.0,0,0.0,0.2874
17283,0,,,,,,,,0.02,-0.01,1.0,0,0,0,0.02,0,,,,,,,,,,,,,,,,,
17323,0,,,,,,,,0.02,-0.01,1.0,0,0,0,0.02,0,,,,,,,,,,,,,,,,,
17363,0,,,,,,,,0.02,-0.01,1.0,0,0,0,0.02,0,,,,,,,,,,,,,,,,,
17403,0,,,,,,,,0.02,-0.01,1.0,0,0,0,0.02,0,,,,,,,,,,,,,,,,,
17443,0,1,1,52,58,36,39,99,0.02,-0.01,1.0,0,0,0,0.02,0,0,0.0,0.0,0.0,0.0,0,0,0.0,0,0.0,-1,0.0,0.0,0.0,0,0.0,0.2907
17483,0,,,,,,,,0.02,-0.01,1.0,0,0,0,0.02,0,,,,,,,,,,,,,,,,,
17523,0,,,,,,,,0.02,-0.01,1.0,0,0,0,0.02,0,,,,,,,,,,,,,,,,,
17563,0,,,,,,,,0.02,-0.01,1.0,0,-0,0,0.02,0,,,,,,,,,,,,,,,,,
17603,0,,,,,,,,0.02,-0.01,1.0,0,0,0,0.02,0,,,,,,,,,,,,,,,,,
17643,0,0,0,52,58,35,39,100,0.02,-0.01,1.0,0,0,0,0.02,0,0,0.0,0.0,0.0,0.0,0,0,0.0,0,0.0,-1,0.0,0.0,0.0,0,0.0,0.294
17683,0,,,,,,,,0.02,-0.01,1.0,0,0,0,0.02,0,,,,,,,,,,,,,,,,,
17723,0,,,,,,,,0.02,-0.01,1.0,0,0,0,0.02,0,,,,,,,,,,,,,,,,,
17763,0,,,,,,,,0.02,-0.01,1.0,0,0,0,0.02,0,,,,,,,,,,,,,,,,,
17803,0,,,,,,,,0.02,-0.01,1.0,0,0,0,0.02,0,,,,,,,,,,,,,,,,,
17843,0,-1,2,52,58,35,39,99,0.02,-0.01,1.0,0,0,0,0.02,0,0,0.0,0.0,0.0,0.0,0,0,0.0,0,0.0,-1,0.0,0.0,0.0,0,0.0,0.2974
17883,0,,,,,,,,0.02,-0.01,0.99,0,0,0,0.02,0,,,,,,,,,,,,,,,,,
17923,0,,,,,,,,0.02,-0.01,1.0,0,0,0,0.02,0,,,,,,,,,,,,,,,,,
17963,0,,,,,,,,0.02,-0.01,1.0,0,0,0,0.02,0,,,,,,,,,,,,,,,,,
18003,0,,,,,,,,0.02,-0.01,1.0,0,-0,0,0.02,0,,,,,,,,,,,,,,,,,
18043,0,0,2,52,58,36,39,99,0.02,-0.01,1.0,0,0,0,0.02,0,0,0.0,0.0,0.0,0.0,0,0,0.0,0,0.0,-1,0.0,0.0,0.0,0,0.0,0.3007
18083,0,,,,,,,,0.02,-0.01,1.0,0,0,0,0.02,0,,,,,,,,,,,,,,,,,
18123,0,,,,,,,,0.02,-0.01,1.0,0,0,0,0.02,0,,,,,,,,,,,,,,,,,
18163,0,,,,,,,,0.02,-0.01,1.0,0,0,0,0.02,0,,,,,,,,,,,,,,,,,
18203,0,,,,,,,,0.02,-0.01,1.0,0,0,0,0.02,0,,,,,,,,,,,,,,,,,
18243,0,-0,2,52,58,35,39,99,0.02,-0.01,1.0,0,0,0,0.02,0,0,0.0,0.0,0.0,0.0,0,0,0.0,0,0.0,-1,0.0,0.0,0.0,0,0.0,0.304
18283,0,,,,,,,,0.02,-0.01,1.0,0,0,0,0.02,0,,,,,,,,,,,,,,,,,
18323,0,,,,,,,,0.02,-0.01,1.0,0,0,0,0.02,0,,,,,,,,,,,,,,,,,
18363,0,,,,,,,,0.02,-0.01,1.0,0,0,0,0.02,0,,,,,,,,,,,,,,,,,
18403,0,,,,,,,,0.02,-0.01,1.0,0,0,0,0.02,0,,,,,,,,,,,,,,,,,
18443,0,-1,2,52,58,35,39,99,0.02,-0.01,1.0,0,0,0,0.02,0,0,0.0,0.0,0.0,0.0,0,0,0.0,0,0.0,-1,0.0,0.0,0.0,0,0.0,0.3074
18483,0,,,,,,,,0.02,-0.01,1.0,0,0,0,0.02,0,,,,,,,,,,,,,,,,,
18523,0,,,,,,,,0.02,-0.01,1.0,0,0,0,0.02,0,,,,,,,,,,,,,,,,,
18563,0,,,,,,,,0.02,-0.01,1.0,0,0,0,0.02,0,,,,,,,,,,,,,,,,,
18603,0,,,,,,,,0.02,-0.01,1.0,0,0,0,0.02,0,,,,,,,,,,,,,,,,,
18643,0,0,1,52,58,36,39,100,0.02,-0.01,1.0,0,0,0,0.02,0,0,0.0,0.0,0.0,0.0,0,0,0.0,0,0.0,-1,0.0,0.0,0.0,0,0.0,0.3107
18683,0,,,,,,,,0.02,-0.01,1.0,0,0,0,0.02,0,,,,,,,,,,,,,,,,,
18723,0,,,,,,,,0.02,-0.01,1.0,0,0,0,0.02,0,,,,,,,,,,,,,,,,,
18763,0,,,,,,,,0.02,-0.01,1.0,0,0,0,0.02,0,,,,,,,,,,,,,,,,,
18803,0,,,,,,,,0.02,-0.01,1.0,0,0,0,0.02,0,,,,,,,,,,,,,,,,,
18843,0,0,1,52,58,35,38,100,0.02,-0.01,1.0,0,0,0,0.02,0,0,0.0,0.0,0.0,0.0,0,0,0.0,0,0.0,-1,0.0,0.0,0.0,0,0.0,0.314
18883,0,,,,,,,,0.02,-0.01,1.0,0,0,0,0.02,0,,,,,,,,,,,,,,,,,
18923,0,,,,,,,,0.02,-0.01,1.0,0,0,0,0.02,0,,,,,,,,,,,,,,,,,
18963,0,,,,,,,,0.02,-0.01,1.0,0,-0,0,0.02,0,,,,,,,,,,,,,,,,,
19003,0,,,,,,,,0.02,-0.01,1.0,0,0,0,0.02,0,,,,,,,,,,,,,,,,,
19043,0,1,0,52,58,35,39,100,0.02,-0.01,1.0,0,0,0,0.02,0,0,0.0,0.0,0.0,0.0,0,0,0.0,0,0.0,-1,0.0,0.0,0.0,0,0.0,0.3174
19083,0,,,,,,,,0.02,-0.01,1.0,0,-0,0,0.02,0,,,,,,,,,,,,,,,,,
19123,0,,,,,,,,0.02,-0.01,1.0,0,-0,0,0.02,0,,,,,,,,,,,,,,,,,
19163,0,,,,,,,,0.02,-0.01,1.0,0,-0,0,0.02,0,,,,,,,,,,,,,,,,,
19203,0,,,,,,,,0.02,-0.01,1.0,0,-0,0,0.02,0,,,,,,,,,,,,,,,,,
19243,0,0,2,52,58,35,39,99,0.02,-0.01,1.0,0,-0,0,0.02,0,0,0.0,0.0,0.0,0.0,0,0,0.0,0,0.0,-1,0.0,0.0,0.0,0,0.0,0.3207
19283,0,,,,,,,,0.02,-0.01,1.0,0,-0,0,0.02,0,,,,,,,,,,,,,,,,,
19323,0,,,,,,,,0.02,-0.01,1.0,0,0,0,0.02,0,,,,,,,,,,,,,,,,,
19363,0,,,,,,,,0.02,-0.01,1.0,0,-0,0,0.02,0,,,,,,,,,,,,,,,,,
19403,0,,,,,,,,0.02,-0.01,1.0,0,-0,0,0.02,0,,,,,,,,,,,,,,,,,
19443,0,-1,2,52,58,35,39,99,0.02,-0.01,1.0,0,-0,0,0.02,0,0,0.0,0.0,0.0,0.0,0,0,0.0,0,0.0,-1,0.0,0.0,0.0,0,0.0,0.324
19483,0,,,,,,,,0.02,-0.01,1.0,0,-0,0,0.02,0,,,,,,,,,,,,,,,,,
19523,0,,,,,,,,0.02,-0.01,1.0,0,-0,0,0.02,0,,,,,,,,,,,,,,,,,
19563,0,,,,,,,,0.02,-0.01,1.0,0,-0,0,0.02,0,,,,,,,,,,,,,,,,,
19603,0,,,,,,,,0.02,-0.01,1.0,0,-0,0,0.02,0,,,,,,,,,,,,,,,,,
19643,0,-0,2,52,58,35,39,100,0.02,-0.01,1.0,0,-0,0,0.02,0,0,0.0,0.0,0.0,0.0,0,0,0.0,0,0.0,-1,0.0,0.0,0.0,0,0.0,0.3274
19683,0,,,,,,,,0.02,-0.01,1.0,0,0,0,0.02,0,,,,,,,,,,,,,,,,,
19723,0,,,,,,,,0.02,-0.01,0.99,0,0,0,0.02,0,,,,,,,,,,,,,,,,,
19763,0,,,,,,,,0.02,-0.01,1.0,0,0,0,0.02,0,,,,,,,,,,,,,,,,,
19803,0,,,,,,,,0.02,-0.01,1.0,0,-0,0,0.02,0,,,,,,,,,,,,,,,,,
19843,0,0,0,52,58,35,38,100,0.02,-0.01,1.0,0,-0,0,0.02,0,0,0.0,0.0,0.0,0.0,0,0,0.0,0,0.0,-1,0.0,0.0,0.0,0,0.0,0.3307
19883,0,,,,,,,,0.02,-0.01,1.0,0,0,0,0.02,0,,,,,,,,,,,,,,,,,
19923,0,,,,,,,,0.02,-0.01,1.0,0,0,0,0.02,0,,,,,,,,,,,,,,,,,
19963,0,,,,,,,,0.02,-0.01,1.0,0,0,0,0.03,0,,,,,,,,,,,,,,,,,
20003,0,,,,,,,,0.03,-0.01,1.0,0,0,-0,0.03,0,,,,,,,,,,,,,,,,,
20043,0,-1,2,52,58,36,39,99,0.02,-0.01,1.05,0,-0,-0,0.02,0,0,0.0,0.0,0.0,0.0,0,0,0.0,0,0.0,-1,0.0,0.0,0.0,0,0.0,0.334
20083,0,,,,,,,,0.02,-0.01,1.17,0,1,-1,0.03,0,,,,,,,,,,,,,,,,,
20123,0,,,,,,,,0.03,0.02,1.19,0,1,-1,0.03,0,,,,,,,,,,,,,,,,,
20163,0,,,,,,,,0.03,0.02,1.1,0,2,-0,0.03,0,,,,,,,,,,,,,,,,,
20203,0,,,,,,,,0.03,0.01,1.16,0,2,-1,0.03,0,,,,,,,,,,,,,,,,,
20243,0,-0,2,52,58,35,39,99,0.03,0.01,1.15,0,2,-1,0.03,0,0,0.0,0.0,0.0,0.0,0,0,0.0,0,0.0,-1,0.0,0.0,0.0,0,0.0,0.3374
20283,0,,,,,,,,0.03,0.0,1.13,0,2,-1,0.03,0,,,,,,,,,,,,,,,,,
20323,0,,,,,,,,0.03,0.0,1.1,0,1,-0,0.03,0,,,,,,,,,,,,,,,,,
20363,0,,,,,,,,0.03,-0.0,1.08,0,1,-0,0.03,0,,,,,,,,,,,,,,,,,
20403,0,,,,,,,,0.03,-0.0,1.07,0,1,-0,0.03,0,,,,,,,,,,,,,,,,,
20443,0,-0,2,52,58,35,39,99,0.02,-0.0,1.06,0,1,-0,0.02,0,0,0.0,0.0,0.0,0.0,0,0,0.0,0,0.0,-1,0.0,0.0,0.0,0,0.0,0.3407
20483,0,,,,,,,,0.02,-0.01,1.05,0,0,-0,0.02,0,,,,,,,,,,,,,,,,,
20523,0,,,,,,,,0.02,-0.0,1.04,0,0,-0,0.02,0,,,,,,,,,,,,,,,,,
20563,0,,,,,,,,0.02,-0.01,1.01,0,0,0,0.02,0,,,,,,,,,,,,,,,,,
20603,0,,,,,,,,0.02,-0.01,1.02,0,0,0,0.02,0,,,,,,,,,,,,,,,,,
20643,0,-0,2,52,58,36,39,100,0.02,-0.01,1.01,0,0,0,0.02,0,0,0.0,0.0,0.0,0.0,0,0,0.0,0,0.0,-1,0.0,0.0,0.0,0,0.0,0.344
20683,0,,,,,,,,0.02,-0.01,1.01,0,0,0,0.02,0,,,,,,,,,,,,,,,,,
20723,0,,,,,,,,0.02,-0.01,1.01,0,0,0,0.02,0,,,,,,,,,,,,,,,,,
20763,0,,,,,,,,0.02,-0.01,1.0,0,-0,0,0.02,0,,,,,,,,,,,,,,,,,
20803,0,,,,,,,,0.02,-0.01,1.0,0,-0,0,0.02,0,,,,,,,,,,,,,,,,,
20843,0,1,1,52,58,35,39,99,0.02,-0.01,1.0,0,-0,0,0.02,0,0,0.0,0.0,0.0,0.0,0,0,0.0,0,0.0,-1,0.0,0.0,0.0,0,0.0,0.3474
20883,0,,,,,,,,0.02,-0.01,1.01,0,0,0,0.02,0,,,,,,,,,,,,,,,,,
20923,0,,,,,,,,0.02,-0.01,1.0,0,0,0,0.02,0,,,,,,,,,,,,,,,,,
20963,0,,,,,,,,0.02,-0.01,1.0,0,0,0,0.02,0,,,,,,,,,,,,,,,,,
21003,0,,,,,,,,0.02,-0.01,1.0,0,0,0,0.02,0,,,,,,,,,,,,,,,,,
21043,0,0,1,52,58,35,39,100,0.02,-0.01,1.01,0,-0,0,0.02,0,0,0.0,0.0,0.0,0.0,0,0,0.0,0,0.0,-1,0.0,0.0,0.0,0,0.0,0.3507
21083,0,,,,,,,,0.02,-0.01,1.0,0,0,0,0.02,0,,,,,,,,,,,,,,,,,
21123,0,,,,,,,,0.02,-0.01,1.0,0,0,0,0.02,0,,,,,,,,,,,,,,,,,
21163,0,,,,,,,,0.02,-0.01,1.0,0,0,0,0.02,0,,,,,,,,,,,,,,,,,
21203,0,,,,,,,,0.02,-0.01,1.0,0,0,0,0.02,0,,,,,,,,,,,,,,,,,
21243,0,0,1,52,58,36,39,100,0.02,-0.01,1.03,0,-0,-0,0.02,0,0,0.0,0.0,0.0,0.0,0,0,0.0,0,0.0,-1,0.0,0.0,0.0,0,0.0,0.354
21283,0,,,,,,,,0.02,-0.01,1.03,0,-0,0,0.02,0,,,,,,,,,,,,,,,,,
21323,0,,,,,,,,0.02,-0.01,1.11,0,0,-1,0.02,0,,,,,,,,,,,,,,,,,
21363,0,,,,,,,,0.02,-0.01,1.1,0,0,-0,0.03,0,,,,,,,,,,,,,,,,,
21403,0,,,,,,,,0.02,-0.01,1.11,0,0,-1,0.03,0,,,,,,,,,,,,,,,,,
21443,0,0,0,51,57,35,38,100,0.02,-0.01,1.09,0,0,-1,0.02,0,0,0.0,0.0,0.0,0.0,0,0,0.0,0,0.0,-1,0.0,0.0,0.0,0,0.0,0.3574
21483,0,,,,,,,,0.02,-0.01,1.08,0,0,-0,0.02,0,,,,,,,,,,,,,,,,,
21523,0,,,,,,,,0.02,-0.01,1.07,0,0,-0,0.02,0,,,,,,,,,,,,,,,,,
21563,0,,,,,,,,0.02,-0.01,1.06,0,0,-0,0.02,0,,,,,,,,,,,,,,,,,
21603,0,,,,,,,,0.02,-0.01,1.05,0,0,-0,0.02,0,,,,,,,,,,,,,,,,,
21643,0,0,2,50,54,34,37,99,0.03,-0.01,1.04,0,0,-0,0.03,0,0,0.0,0.0,0.0,0.0,0,0,0.0,0,0.0,-1,0.0,0.0,0.0,0,0.0,0.3607
21683,0,,,,,,,,0.03,-0.01,1.04,0,0,-0,0.03,0,,,,,,,,,,,,,,,,,
21723,0,,,,,,,,0.03,-0.01,1.04,0,0,-0,0.03,0,,,,,,,,,,,,,,,,,
21763,0,,,,,,,,0.03,-0.01,1.04,0,0,0,0.04,0,,,,,,,,,,,,,,,,,
21803,0,,,,,,,,0.03,-0.01,1.02,0,-0,0,0.04,0,,,,,,,,,,,,,,,,,
21843,0,-1,2,50,54,34,37,100,0.03,-0.01,1.02,0,-0,0,0.03,0,0,0.0,0.0,0.0,0.0,0,0,0.0,0,0.0,-1,0.0,0.0,0.0,0,0.0,0.364
21883,0,,,,,,,,0.03,-0.01,1.01,0,-0,0,0.03,0,,,,,,,,,,,,,,,,,
21923,0,,,,,,,,0.03,-0.01,1.01,0,-0,0,0.03,0,,,,,,,,,,,,,,,,,
21963,0,,,,,,,,0.02,-0.01,1.01,0,-0,0,0.02,0,,,,,,,,,,,,,,,,,
22003,0,,,,,,,,0.02,-0.01,1.01,0,-0,0,0.02,0,,,,,,,,,,,,,,,,,
22043,0,1,2,49,56,34,37,100,0.02,-0.01,1.01,0,-0,0,0.02,0,0,0.0,0.0,0.0,0.0,0,0,0.0,0,0.0,-1,0.0,0.0,0.0,0,0.0,0.3674
22083,0,,,,,,,,0.02,-0.01,1.0,0,-0,0,0.02,0,,,,,,,,,,,,,,,,,
22123,0,,,,,,,,0.02,-0.01,1.0,0,-0,0,0.02,0,,,,,,,,,,,,,,,,,
22163,0,,,,,,,,0.03,-0.0,1.0,0,0,0,0.03,0,,,,,,,,,,,,,,,,,
22203,0,,,,,,,,0.03,-0.0,1.0,0,-0,0,0.03,0,,,,,,,,,,,,,,,,,
22243,0,-1,2,50,56,34,37,100,0.03,-0.0,1.0,0,-0,0,0.03,0,0,0.0,0.0,0.0,0.0,0,0,0.0,0,0.0,-1,0.0,0.0,0.0,0,0.0,0.3707
22283,0,,,,,,,,0.04,-0.01,0.99,0,0,0,0.04,0,,,,,,,,,,,,,,,,,
22323,0,,,,,,,,0.04,-0.01,0.99,-0,0,0,0.04,0,,,,,,,,,,,,,,,,,
22363,0,,,,,,,,0.03,-0.0,1.0,-0,0,0,0.03,0,,,,,,,,,,,,,,,,,
22403,0,,,,,,,,0.02,-0.01,1.0,-0,0,0,0.02,0,,,,,,,,,,,,,,,,,
22443,0,0,2,48,55,33,36,100,0.01,-0.0,0.98,0,-0,0,0.01,0,0,0.0,0.0,0.0,0.0,0,0,0.0,0,0.0,-1,0.0,0.0,0.0,0,0.0,0.374
22483,0,,,,,,,,0.01,0.0,1.0,0,-0,1,0.01,0,,,,,,,,,,,,,,,,,
22523,0,,,,,,,,0.02,0.0,1.01,0,-0,0,0.02,0,,,,,,,,,,,,,,,,,
22563,0,,,,,,,,0.03,-0.01,1.0,0,0,0,0.03,0,,,,,,,,,,,,,,,,,
22603,0,,,,,,,,0.03,-0.0,1.0,0,0,0,0.03,0,,,,,,,,,,,,,,,,,
22643,0,0,2,49,54,31,35,100,0.03,-0.0,1.03,0,1,-0,0.03,0,0,0.0,0.0,0.0,0.0,0,0,0.0,0,0.0,-1,0.0,0.0,0.0,0,0.0,0.3774
22683,0,,,,,,,,0.02,-0.01,0.95,0,-0,1,0.02,0,,,,,,,,,,,,,,,,,
22723,0,,,,,,,,0.02,-0.01,0.96,0,0,1,0.03,0,,,,,,,,,,,,,,,,,
22763,0,,,,,,,,0.03,-0.01,0.96,0,0,1,0.03,0,,,,,,,,,,,,,,,,,
22803,0,,,,,,,,0.03,-0.01,0.96,0,-0,1,0.03,0,,,,,,,,,,,,,,,,,
22843,0,1,1,49,54,32,35,100,0.03,-0.01,0.98,0,-0,0,0.03,0,0,0.0,0.0,0.0,0.0,0,0,0.0,0,0.0,-1,0.0,0.0,0.0,0,0.0,0.3807
22883,0,,,,,,,,0.03,-0.01,0.98,0,0,0,0.03,0,,,,,,,,,,,,,,,,,
22923,0,,,,,,,,0.03,-0.01,0.98,0,-0,0,0.03,0,,,,,,,,,,,,,,,,,
22963,0,,,,,,,,0.03,-0.01,0.98,0,-0,0,0.03,0,,,,,,,,,,,,,,,,,
23003,0,,,,,,,,0.02,-0.01,0.99,0,-0,0,0.02,0,,,,,,,,,,,,,,,,,
23043,0,-0,2,49,54,32,35,100,0.03,-0.0,1.04,0,-0,0,0.03,0,0,0.0,0.0,0.0,0.0,0,0,0.0,0,0.0,-1,0.0,0.0,0.0,0,0.0,0.384
23083,0,,,,,,,,0.03,-0.01,1.03,0,-1,0,0.03,0,,,,,,,,,,,,,,,,,
23123,0,,,,,,,,0.03,-0.01,1.02,0,-1,0,0.03,0,,,,,,,,,,,,,,,,,
23163,0,,,,,,,,0.01,-0.01,1.0,0,-0,0,0.02,0,,,,,,,,,,,,,,,,,
23203,0,,,,,,,,0.03,-0.01,1.02,0,0,0,0.03,0,,,,,,,,,,,,,,,,,
23243,0,-1,2,48,53,32,35,100,0.03,-0.01,1.0,0,0,0,0.04,0,0,0.0,0.0,0.0,0.0,0,0,0.0,0,0.0,-1,0.0,0.0,0.0,0,0.0,0.3874
23283,0,,,,,,,,0.02,-0.01,1.0,0,0,0,0.03,0,,,,,,,,,,,,,,,,,
23323,0,,,,,,,,0.01,-0.0,0.99,0,1,0,0.01,0,,,,,,,,,,,,,,,,,
23363,0,,,,,,,,0.01,0.0,0.97,0,1,0,0.01,0,,,,,,,,,,,,,,,,,
23403,0,,,,,,,,0.01,0.0,0.96,0,1,0,0.02,0,,,,,,,,,,,,,,,,,
23443,0,0,2,48,54,32,35,100,0.02,-0.0,0.87,0,0,0,0.02,0,0,0.0,0.0,0.0,0.0,0,0,0.0,0,0.0,-1,0.0,0.0,0.0,0,0.0,0.3907
23483,0,,,,,,,,0.04,-0.03,1.07,0,1,-0,0.05,0,,,,,,,,,,,,,,,,,
23523,0,,,,,,,,0.05,-0.03,1.11,0,1,-0,0.06,0,,,,,,,,,,,,,,,,,
23563,0,,,,,,,,0.05,-0.03,1.04,0,-0,0,0.06,0,,,,,,,,,,,,,,,,,
23603,0,,,,,,,,0.04,-0.02,1.04,0,-0,0,0.05,0,,,,,,,,,,,,,,,,,
23643,0,1,1,47,52,32,35,100,0.06,-0.01,1.02,0,-0,0,0.06,0,0,0.0,0.0,0.0,0.0,0,0,0.0,0,0.0,-1,0.0,0.0,0.0,0,0.0,0.394
23683,0,,,,,,,,0.05,-0.02,1.08,-0,0,0,0.05,0,,,,,,,,,,,,,,,,,
23723,0,,,,,,,,0.04,-0.01,1.05,-0,0,0,0.04,0,,,,,,,,,,,,,,,,,
23763,0,,,,,,,,0.04,-0.01,1.02,-0,0,0,0.04,0,,,,,,,,,,,,,,,,,
23803,0,,,,,,,,0.04,-0.01,1.02,-1,1,0,0.04,0,,,,,,,,,,,,,,,,,
23843,0,-1,2,47,53,32,36,100,0.03,-0.01,1.02,-1,1,0,0.03,0,0,0.0,0.0,0.0,0.0,0,0,0.0,0,0.0,-1,0.0,0.0,0.0,0,0.0,0.3974
23883,0,,,,,,,,0.03,-0.0,1.01,-1,1,0,0.03,0,,,,,,,,,,,,,,,,,
23923,0,,,,,,,,0.04,-0.0,1.0,-1,1,0,0.04,0,,,,,,,,,,,,,,,,,
23963,0,,,,,,,,0.03,-0.01,1.0,-1,1,0,0.03,0,,,,,,,,,,,,,,,,,
24003,0,,,,,,,,0.02,-0.0,0.99,-1,1,-0,0.02,0,,,,,,,,,,,,,,,,,
24043,0,0,1,47,53,32,36,99,0.01,0.0,0.98,-0,0,-0,0.01,0,0,0.0,0.0,0.0,0.0,0,0,0.0,0,0.0,-1,0.0,0.0,0.0,0,0.0,0.4007
24083,0,,,,,,,,0.0,0.0,1.0,-0,0,-0,0.01,0,,,,,,,,,,,,,,,,,
24123,0,,,,,,,,0.0,0.01,1.0,-0,-0,0,0.01,0,,,,,,,,,,,,,,,,,
24163,0,,,,,,,,0.0,0.01,1.02,-0,-0,-0,0.01,0,,,,,,,,,,,,,,,,,
24203,0,,,,,,,,0.0,0.0,1.07,-0,0,-0,0.01,0,,,,,,,,,,,,,,,,,
24243,0,-1,2,48,53,32,36,100,0.01,0.0,1.05,0,0,-0,0.01,0,0,0.0,0.0,0.0,0.0,0,0,0.0,0,0.0,-1,0.0,0.0,0.0,0,0.0,0.404
24283,0,,,,,,,,0.01,0.0,1.07,0,1,-0,0.01,0,,,,,,,,,,,,,,,,,
24323,0,,,,,,,,0.01,0.0,1.05,0,1,-0,0.01,0,,,,,,,,,,,,,,,,,
24363,0,,,,,,,,0.01,-0.0,1.04,0,1,-0,0.01,0,,,,,,,,,,,,,,,,,
24403,0,,,,,,,,0.01,-0.0,1.03,0,1,0,0.02,0,,,,,,,,,,,,,,,,,
24443,0,-1,3,47,52,32,36,99,0.02,-0.01,1.02,0,0,0,0.02,0,0,0.0,0.0,0.0,0.0,0,0,0.0,0,0.0,-1,0.0,0.0,0.0,0,0.0,0.4074
24483,0,,,,,,,,0.02,-0.01,1.02,0,0,0,0.02,0,,,,,,,,,,,,,,,,,
24523,0,,,,,,,,0.02,-0.01,1.0,0,0,0,0.02,0,,,,,,,,,,,,,,,,,
24563,0,,,,,,,,0.02,-0.01,1.05,0,0,0,0.03,0,,,,,,,,,,,,,,,,,
24603,0,,,,,,,,0.02,-0.01,1.09,0,0,-0,0.03,0,,,,,,,,,,,,,,,,,
24643,0,1,0,47,53,32,36,100,0.03,-0.01,1.09,0,0,-0,0.03,0,0,0.0,0.0,0.0,0.0,0,0,0.0,0,0.0,-1,0.0,0.0,0.0,0,0.0,0.4107
24683,0,,,,,,,,0.03,-0.01,1.08,0,0,-0,0.03,0,,,,,,,,,,,,,,,,,
24723,0,,,,,,,,0.03,-0.01,1.06,0,0,-0,0.03,0,,,,,,,,,,,,,,,,,
24763,0,,,,,,,,0.03,-0.01,1.04,0,0,-0,0.03,0,,,,,,,,,,,,,,,,,
24803,0,,,,,,,,0.03,-0.01,1.03,0,0,-0,0.03,0,,,,,,,,,,,,,,,,,
24843,0,-1,2,47,53,32,36,100,0.03,-0.01,1.03,0,0,0,0.03,0,0,0.0,0.0,0.0,0.0,0,0,0.0,0,0.0,-1,0.0,0.0,0.0,0,0.0,0.414
24883,0,,,,,,,,0.02,-0.01,1.02,0,-0,0,0.03,0,,,,,,,,,,,,,,,,,
24923,0,,,,,,,,0.02,-0.01,1.02,0,-0,0,0.02,0,,,,,,,,,,,,,,,,,
24963,0,,,,,,,,0.02,-0.01,1.01,0,-0,0,0.02,0,,,,,,,,,,,,,,,,,
25003,0,,,,,,,,0.02,-0.01,1.02,0,0,0,0.02,0,,,,,,,,,,,,,,,,,
25043,0,0,0,47,53,32,36,99,0.03,-0.01,1.01,0,0,0,0.03,0,0,0.0,0.0,0.0,0.0,0,0,0.0,0,0.0,-1,0.0,0.0,0.0,0,0.0,0.4174
25083,0,,,,,,,,0.02,-0.01,1.0,0,0,0,0.02,0,,,,,,,,,,,,,,,,,
25123,0,,,,,,,,0.02,-0.01,1.0,0,0,0,0.02,0,,,,,,,,,,,,,,,,,
25163,0,,,,,,,,0.02,-0.01,1.01,0,0,0,0.02,0,,,,,,,,,,,,,,,,,
25203,0,,,,,,,,0.0,-0.0,1.11,0,-0,-0,0.0,0,,,,,,,,,,,,,,,,,
25243,0,-1,2,47,53,32,35,100,0.0,-0.0,1.07,0,-0,-0,0.0,0,0,0.0,0.0,0.0,0.0,0,0,0.0,0,0.0,-1,0.0,0.0,0.0,0,0.0,0.4207
25283,0,,,,,,,,0.02,-0.01,1.04,0,0,-0,0.02,0,,,,,,,,,,,,,,,,,
25323,0,,,,,,,,0.02,-0.01,1.04,0,0,-0,0.02,0,,,,,,,,,,,,,,,,,
25363,0,,,,,,,,0.03,-0.01,1.03,0,0,-0,0.03,0,,,,,,,,,,,,,,,,,
25403,0,,,,,,,,0.03,-0.01,1.02,0,0,-0,0.03,0,,,,,,,,,,,,,,,,,
25443,0,1,2,47,53,32,36,100,0.03,-0.01,1.02,0,0,0,0.03,0,0,0.0,0.0,0.0,0.0,0,0,0.0,0,0.0,-1,0.0,0.0,0.0,0,0.0,0.424
25483,0,,,,,,,,0.03,-0.01,1.02,0,0,0,0.03,0,,,,,,,,,,,,,,,,,
25523,0,,,,,,,,0.03,-0.01,1.01,0,0,0,0.03,0,,,,,,,,,,,,,,,,,
25563,0,,,,,,,,0.03,-0.01,1.01,0,0,0,0.03,0,,,,,,,,,,,,,,,,,
25603,0,,,,,,,,0.03,-0.01,1.01,0,0,-0,0.03,0,,,,,,,,,,,,,,,,,
25643,0,0,2,47,52,32,36,100,0.03,-0.01,1.02,0,0,0,0.03,0,0,0.0,0.0,0.0,0.0,0,0,0.0,0,0.0,-1,0.0,0.0,0.0,0,0.0,0.4274
25683,0,,,,,,,,0.02,-0.0,1.01,0,0,0,0.02,0,,,,,,,,,,,,,,,,,
25723,0,,,,,,,,0.02,-0.01,1.01,0,0,0,0.02,0,,,,,,,,,,,,,,,,,
25763,0,,,,,,,,0.02,-0.0,1.0,0,0,0,0.02,0,,,,,,,,,,,,,,,,,
25803,0,,,,,,,,0.02,-0.0,1.0,0,0,0,0.02,0,,,,,,,,,,,,,,,,,
25843,0,1,2,47,52,32,36,100,0.02,-0.0,1.0,0,0,0,0.02,0,0,0.0,0.0,0.0,0.0,0,0,0.0,0,0.0,-1,0.0,0.0,0.0,0,0.0,0.4307
25883,0,,,,,,,,0.02,-0.01,1.0,0,0,0,0.02,0,,,,,,,,,,,,,,,,,
25923,0,,,,,,,,0.02,-0.0,1.0,0,-0,0,0.02,0,,,,,,,,,,,,,,,,,
25963,0,,,,,,,,0.02,-0.0,1.0,0,-0,0,0.02,0,,,,,,,,,,,,,,,,,
26003,0,,,,,,,,0.02,-0.0,1.0,0,-0,0,0.02,0,,,,,,,,,,,,,,,,,
26043,0,-1,0,47,53,32,36,100,0.02,-0.01,1.0,0,-0,0,0.02,0,0,0.0,0.0,0.0,0.0,0,0,0.0,0,0.0,-1,0.0,0.0,0.0,0,0.0,0.434
26083,0,,,,,,,,0.02,-0.01,1.0,0,-0,0,0.02,0,,,,,,,,,,,,,,,,,
26123,0,,,,,,,,0.02,-0.01,1.0,0,-0,0,0.02,0,,,,,,,,,,,,,,,,,
26163,0,,,,,,,,0.02,-0.01,1.0,0,-0,0,0.02,0,,,,,,,,,,,,,,,,,
26203,0,,,,,,,,0.03,-0.01,0.99,0,-0,0,0.03,0,,,,,,,,,,,,,,,,,
26243,0,1,2,47,51,32,36,100,0.03,-0.01,1.0,0,-0,0,0.03,0,0,0.0,0.0,0.0,0.0,0,0,0.0,0,0.0,-1,0.0,0.0,0.0,0,0.0,0.4374
26283,0,,,,,,,,0.03,-0.01,1.0,0,-0,0,0.03,0,,,,,,,,,,,,,,,,,
26323,0,,,,,,,,0.03,-0.01,1.0,0,-0,0,0.03,0,,,,,,,,,,,,,,,,,
26363,0,,,,,,,,0.02,-0.01,1.0,0,-0,0,0.03,0,,,,,,,,,,,,,,,,,
26403,0,,,,,,,,0.02,-0.01,0.99,0,-0,0,0.03,0,,,,,,,,,,,,,,,,,
26443,0,1,2,47,51,32,35,100,0.02,-0.01,1.0,0,-0,0,0.03,0,0,0.0,0.0,0.0,0.0,0,0,0.0,0,0.0,-1,0.0,0.0,0.0,0,0.0,0.4407
26483,0,,,,,,,,0.02,-0.01,1.0,0,-0,0,0.03,0,,,,,,,,,,,,,,,,,
26523,0,,,,,,,,0.02,-0.01,1.0,0,-0,0,0.02,0,,,,,,,,,,,,,,,,,
26563,0,,,,,,,,0.02,-0.01,1.0,0,-0,0,0.02,0,,,,,,,,,,,,,,,,,
26603,0,,,,,,,,0.02,-0.01,1.0,0,-0,0,0.02,0,,,,,,,,,,,,,,,,,
26643,0,1,0,47,51,32,36,100,0.02,-0.01,1.0,0,-0,0,0.02,0,0,0.0,0.0,0.0,0.0,0,0,0.0,0,0.0,-1,0.0,0.0,0.0,0,0.0,0.444
26683,0,,,,,,,,0.02,-0.01,0.99,0,0,0,0.02,0,,,,,,,,,,,,,,,,,
26723,0,,,,,,,,0.02,-0.01,0.99,0,0,0,0.02,0,,,,,,,,,,,,,,,,,
26763,0,,,,,,,,0.02,-0.01,0.99,0,0,0,0.02,0,,,,,,,,,,,,,,,,,
26803,0,,,,,,,,0.02,-0.01,1.0,0,0,0,0.02,0,,,,,,,,,,,,,,,,,
26843,0,0,2,47,52,32,36,99,0.02,-0.01,1.0,0,0,0,0.02,0,0,0.0,0.0,0.0,0.0,0,0,0.0,0,0.0,-1,0.0,0.0,0.0,0,0.0,0.4474
26883,0,,,,,,,,0.02,-0.01,1.0,0,0,0,0.02,0,,,,,,,,,,,,,,,,,
26923,0,,,,,,,,0.02,-0.01,0.99,0,0,0,0.02,0,,,,,,,,,,,,,,,,,
26963,0,,,,,,,,0.02,-0.01,1.0,0,0,0,0.02,0,,,,,,,,,,,,,,,,,
27003,0,,,,,,,,0.02,-0.01,1.0,0,0,0,0.02,0,,,,,,,,,,,,,,,,,
27043,0,-1,2,47,52,32,36,100,0.02,-0.01,1.0,0,0,0,0.02,0,0,0.0,0.0,0.0,0.0,0,0,0.0,0,0.0,-1,0.0,0.0,0.0,0,0.0,0.4507
27083,0,,,,,,,,0.02,-0.01,1.0,0,0,0,0.02,0,,,,,,,,,,,,,,,,,
27123,0,,,,,,,,0.02,-0.01,1.0,0,0,0,0.02,0,,,,,,,,,,,,,,,,,
27163,0,,,,,,,,0.02,-0.0,0.99,0,-0,0,0.02,0,,,,,,,,,,,,,,,,,
27203,0,,,,,,,,0.02,-0.0,0.96,0,-0,0,0.02,0,,,,,,,,,,,,,,,,,
27243,0,0,0,47,53,32,35,100,0.02,-0.01,0.96,0,-0,0,0.02,0,0,0.0,0.0,0.0,0.0,0,0,0.0,0,0.0,-1,0.0,0.0,0.0,0,0.0,0.454
27283,0,,,,,,,,0.02,-0.0,0.97,0,0,0,0.02,0,,,,,,,,,,,,,,,,,
27323,0,,,,,,,,0.03,-0.0,0.97,0,0,0,0.03,0,,,,,,,,,,,,,,,,,
27363,0,,,,,,,,0.03,-0.0,0.95,0,-0,0,0.03,0,,,,,,,,,,,,,,,,,
27403,0,,,,,,,,0.03,-0.01,0.96,0,0,0,0.03,0,,,,,,,,,,,,,,,,,
27443,0,0,2,47,51,32,36,99,0.02,-0.01,0.96,0,0,0,0.02,0,0,0.0,0.0,0.0,0.0,0,0,0.0,0,0.0,-1,0.0,0.0,0.0,0,0.0,0.4574
27483,0,,,,,,,,0.03,-0.01,0.98,0,0,0,0.03,0,,,,,,,,,,,,,,,,,
27523,0,,,,,,,,0.02,-0.01,1.03,0,-0,0,0.02,0,,,,,,,,,,,,,,,,,
27563,0,,,,,,,,0.02,-0.0,1.03,0,-0,0,0.02,0,,,,,,,,,,,,,,,,,
27603,0,,,,,,,,0.03,-0.01,0.99,0,-0,0,0.03,0,,,,,,,,,,,,,,,,,
27643,0,1,1,47,52,32,36,100,0.02,-0.03,1.01,0,0,-0,0.03,0,0,0.0,0.0,0.0,0.0,0,0,0.0,0,0.0,-1,0.0,0.0,0.0,0,0.0,0.4607
27683,0,,,,,,,,0.02,-0.02,1.03,0,2,-0,0.03,0,,,,,,,,,,,,,,,,,
27723,0,,,,,,,,0.0,-0.02,1.13,0,3,-1,0.02,0,,,,,,,,,,,,,,,,,
27763,0,,,,,,,,0.02,-0.01,1.19,0,4,-1,0.03,0,,,,,,,,,,,,,,,,,
27803,0,,,,,,,,0.04,0.0,1.08,0,5,-1,0.04,0,,,,,,,,,,,,,,,,,
27843,0,1,2,47,53,32,36,99,0.02,0.01,1.22,0,2,-0,0.02,0,0,0.0,0.0,0.0,0.0,0,0,0.0,0,0.0,-1,0.0,0.0,0.0,0,0.0,0.464
27883,0,,,,,,,,-0.04,-0.03,1.01,0,-2,0,0.05,0,,,,,,,,,,,,,,,,,
27923,0,,,,,,,,-0.04,-0.04,1.2,0,20,-2,0.06,0,,,,,,,,,,,,,,,,,
27963,0,,,,,,,,-0.41,-0.01,1.3,0,36,-4,0.41,0,,,,,,,,,,,,,,,,,
28003,0,,,,,,,,-0.25,-0.01,1.03,0,29,-2,0.25,0,,,,,,,,,,,,,,,,,
28043,0,0,2,47,53,32,36,100,-0.41,-0.07,0.78,-0,31,-7,0.41,0,0,0.0,0.0,0.0,0.0,0,0,0.0,0,0.0,-1,0.0,0.0,0.0,0,0.0,0.4674
28083,0,,,,,,,,-0.66,-0.08,0.44,-0,27,-8,0.67,0,,,,,,,,,,,,,,,,,
28123,0,,,,,,,,-0.56,0.12,0.33,-2,23,-8,0.57,0,,,,,,,,,,,,,,,,,
28163,0,,,,,,,,-0.2,0.22,0.29,-21,21,-5,0.29,0,,,,,,,,,,,,,,,,,
28203,0,,,,,,,,0.08,0.29,0.61,-18,18,-1,0.3,0,,,,,,,,,,,,,,,,,
28243,0,-1,2,47,53,32,36,100,0.02,0.19,0.48,-14,15,-1,0.19,0,0,0.0,0.0,0.0,0.0,0,0,0.0,0,0.0,-1,0.0,0.0,0.0,0,0.0,0.4707
28283,0,,,,,,,,0.04,0.23,0.77,-11,16,-6,0.24,0,,,,,,,,,,,,,,,,,
28323,0,,,,,,,,-0.02,0.09,0.24,-9,14,-2,0.09,0,,,,,,,,,,,,,,,,,
28363,0,,,,,,,,0.1,0.13,0.34,-8,18,-6,0.17,0,,,,,,,,,,,,,,,,,
28403,0,,,,,,,,0.12,0.12,0.26,-6,8,0,0.16,0,,,,,,,,,,,,,,,,,
28443,0,0,0,47,52,32,36,100,0.04,0.16,0.59,-5,4,-1,0.16,0,0,0.0,0.0,0.0,0.0,0,0,0.0,0,0.0,-1,0.0,0.0,0.0,0,0.0,0.474
28483,0,,,,,,,,0.04,0.1,0.1,-4,3,2,0.11,0,,,,,,,,,,,,,,,,,
28523,0,,,,,,,,0.11,0.09,0.46,-3,22,-14,0.14,0,,,,,,,,,,,,,,,,,
28563,0,,,,,,,,0.32,0.09,0.75,-3,35,-21,0.33,0,,,,,,,,,,,,,,,,,
28603,0,,,,,,,,-0.03,0.14,0.23,-0,17,-15,0.15,0,,,,,,,,,,,,,,,,,
28643,0,-1,2,47,53,32,36,100,-0.04,0.25,0.16,1,13,-9,0.26,0,0,0.0,0.0,0.0,0.0,0,0,0.0,0,0.0,-1,0.0,0.0,0.0,0,0.0,0.4774
28683,0,,,,,,,,0.14,0.45,0.11,13,23,-16,0.48,0,,,,,,,,,,,,,,,,,
28723,0,,,,,,,,0.13,0.3,0.11,11,33,-21,0.33,0,,,,,,,,,,,,,,,,,
28763,0,,,,,,,,-0.14,0.2,-0.29,10,23,-16,0.25,0,,,,,,,,,,,,,,,,,
28803,0,,,,,,,,-0.06,0.15,-0.26,8,7,-4,0.16,0,,,,,,,,,,,,,,,,,
28843,0,1,1,47,53,32,36,100,-0.01,0.13,-0.19,6,20,-13,0.13,0,0,0.0,0.0,0.0,0.0,0,0,0.0,0,0.0,-1,0.0,0.0,0.0,0,0.0,0.4807
28883,0,,,,,,,,-0.14,0.11,-0.53,-8,-11,5,0.18,0,,,,,,,,,,,,,,,,,
28923,0,,,,,,,,-0.1,0.17,-0.05,-6,12,-14,0.19,0,,,,,,,,,,,,,,,,,
28963,0,,,,,,,,0.11,0.13,-0.29,-3,11,-6,0.17,0,,,,,,,,,,,,,,,,,
29003,0,,,,,,,,-0.03,0.12,-0.62,-3,-18,12,0.13,0,,,,,,,,,,,,,,,,,
29043,0,-0,2,47,53,32,36,100,-0.4,0.12,-0.88,-2,-41,26,0.42,0,0,0.0,0.0,0.0,0.0,0,0,0.0,0,0.0,-1,0.0,0.0,0.0,0,0.0,0.484
29083,0,,,,,,,,-0.56,0.2,-1.1,-1,-56,35,0.59,0,,,,,,,,,,,,,,,,,
29123,0,,,,,,,,-0.45,0.17,-1.27,-0,-58,39,0.48,0,,,,,,,,,,,,,,,,,
29163,0,,,,,,,,-0.25,0.22,-1.31,-1,-46,36,0.33,0,,,,,,,,,,,,,,,,,
29203,0,,,,,,,,-0.09,0.2,-1.08,-0,-32,31,0.22,0,,,,,,,,,,,,,,,,,
29243,0,0,1,47,53,32,35,100,-0.03,0.21,-1.26,0,-31,30,0.21,0,0,0.0,0.0,0.0,0.0,0,0,0.0,0,0.0,-1,0.0,0.0,0.0,0,0.0,0.4874
29283,0,,,,,,,,0.0,0.2,-1.4,2,-42,40,0.2,0,,,,,,,,,,,,,,,,,
29323,0,,,,,,,,-0.32,0.16,-1.51,2,-59,46,0.36,0,,,,,,,,,,,,,,,,,
29363,0,,,,,,,,-0.35,0.21,-1.21,1,-45,31,0.4,0,,,,,,,,,,,,,,,,,
29403,0,,,,,,,,0.04,0.21,-0.6,0,-16,14,0.22,0,,,,,,,,,,,,,,,,,
29443,0,0,0,47,53,32,36,100,-0.19,0.17,-0.87,3,-27,24,0.26,0,0,0.0,0.0,0.0,0.0,0,0,0.0,0,0.0,-1,0.0,0.0,0.0,0,0.0,0.4907
29483,0,,,,,,,,0.02,0.27,-0.32,1,1,4,0.27,0,,,,,,,,,,,,,,,,,
29523,0,,,,,,,,-0.24,0.17,-0.64,1,-23,19,0.29,0,,,,,,,,,,,,,,,,,
29563,0,,,,,,,,0.1,0.26,-0.14,1,5,0,0.27,0,,,,,,,,,,,,,,,,,
29603,0,,,,,,,,-0.17,0.14,-0.49,2,-16,19,0.22,0,,,,,,,,,,,,,,,,,
29643,0,0,1,47,53,32,36,100,-0.03,0.13,-0.23,1,2,7,0.14,0,0,0.0,0.0,0.0,0.0,0,0,0.0,0,0.0,-1,0.0,0.0,0.0,0,0.0,0.494
29683,0,,,,,,,,-0.26,0.07,-0.57,2,-8,15,0.26,0,,,,,,,,,,,,,,,,,
29723,0,,,,,,,,0.02,0.25,-0.08,2,1,5,0.25,0,,,,,,,,,,,,,,,,,
29763,0,,,,,,,,-0.29,0.08,-0.45,2,-3,4,0.3,0,,,,,,,,,,,,,,,,,
29803,0,,,,,,,,-0.03,0.18,0.02,0,-13,11,0.19,0,,,,,,,,,,,,,,,,,
29843,0,1,1,47,53,32,36,100,-0.33,0.08,-0.37,0,-14,6,0.34,0,0,0.0,0.0,0.0,0.0,0,0,0.0,0,0.0,-1,0.0,0.0,0.0,0,0.0,0.4974
29883,0,,,,,,,,-0.03,0.19,0.08,-2,-9,5,0.19,0,,,,,,,,,,,,,,,,,
29923,0,,,,,,,,-0.36,0.21,-0.31,-1,-16,12,0.42,0,,,,,,,,,,,,,,,,,
29963,0,,,,,,,,-0.03,0.25,0.13,-1,-1,2,0.25,0,,,,,,,,,,,,,,,,,
30003,0,,,,,,,,-0.23,0.24,-0.28,0,-14,11,0.34,0,,,,,,,,,,,,,,,,,
30043,0,0,0,47,53,32,36,100,0.02,0.38,0.15,0,5,-2,0.39,0,0,0.0,0.0,0.0,0.0,0,0,0.0,0,0.0,-1,0.0,0.0,0.0,0,0.0,0.5007
30083,0,,,,,,,,-0.14,0.25,-0.26,-1,-10,8,0.29,0,,,,,,,,,,,,,,,,,
30123,0,,,,,,,,0.2,0.34,0.0,-1,-4,4,0.4,0,,,,,,,,,,,,,,,,,
30163,0,,,,,,,,-0.03,0.42,0.02,-2,6,-7,0.42,0,,,,,,,,,,,,,,,,,
30203,0,,,,,,,,-0.04,0.46,-0.18,-1,-9,4,0.46,0,,,,,,,,,,,,,,,,,
30243,0,-1,2,47,52,32,36,100,-0.12,0.44,-0.16,-2,-7,4,0.45,0,0,0.0,0.0,0.0,0.0,0,0,0.0,0,0.0,-1,0.0,0.0,0.0,0,0.0,0.504
30283,0,,,,,,,,-0.1,0.48,-0.15,-3,6,-3,0.49,0,,,,,,,,,,,,,,,,,
30323,0,,,,,,,,0.04,0.44,-0.11,-1,-2,5,0.44,0,,,,,,,,,,,,,,,,,
30363,0,,,,,,,,-0.29,0.24,-0.47,-0,-6,7,0.37,0,,,,,,,,,,,,,,,,,
30403,0,,,,,,,,0.12,0.26,0.0,-1,-1,3,0.29,0,,,,,,,,,,,,,,,,,
30443,0,-1,2,47,53,32,36,100,0.1,0.26,0.38,-1,14,-7,0.28,0,0,0.0,0.0,0.0,0.0,0,0,0.0,0,0.0,-1,0.0,0.0,0.0,0,0.0,0.5074
30483,0,,,,,,,,0.29,0.24,0.69,-1,26,-13,0.37,0,,,,,,,,,,,,,,,,,
30523,0,,,,,,,,0.41,0.31,0.65,-1,18,-7,0.51,0,,,,,,,,,,,,,,,,,
30563,0,,,,,,,,0.22,0.12,0.54,-1,13,-5,0.25,0,,,,,,,,,,,,,,,,,
30603,0,,,,,,,,0.09,0.17,0.57,-0,7,-3,0.19,0,,,,,,,,,,,,,,,,,
30643,0,1,2,47,53,32,36,100,0.29,0.12,0.8,-0,11,-5,0.31,0,0,0.0,0.0,0.0,0.0,0,0,0.0,0,0.0,-1,0.0,0.0,0.0,0,0.0,0.5107
30683,0,,,,,,,,0.07,0.09,0.47,-0,8,-4,0.11,0,,,,,,,,,,,,,,,,,
30723,0,,,,,,,,0.21,0.1,0.75,-0,5,-3,0.23,0,,,,,,,,,,,,,,,,,
30763,0,,,,,,,,-0.1,0.02,0.38,-0,2,-1,0.1,0,,,,,,,,,,,,,,,,,
30803,0,,,,,,,,0.15,0.04,0.69,-0,14,-9,0.16,0,,,,,,,,,,,,,,,,,
30843,0,1,2,47,53,32,36,100,0.5,0.22,0.93,-0,23,-12,0.55,0,0,0.0,0.0,0.0,0.0,0,0,0.0,0,0.0,-1,0.0,0.0,0.0,0,0.0,0.514
30883,0,,,,,,,,0.63,0.21,1.14,-0,35,-19,0.66,0,,,,,,,,,,,,,,,,,
30923,0,,,,,,,,0.42,0.1,0.54,-2,10,-8,0.43,0,,,,,,,,,,,,,,,,,
30963,0,,,,,,,,0.42,0.16,0.42,1,17,-12,0.45,0,,,,,,,,,,,,,,,,,
31003,0,,,,,,,,0.21,0.17,0.36,1,31,-25,0.27,0,,,,,,,,,,,,,,,,,
31043,0,1,0,47,53,32,36,100,0.47,0.17,0.67,1,44,-34,0.5,0,0,0.0,0.0,0.0,0.0,0,0,0.0,0,0.0,-1,0.0,0.0,0.0,0,0.0,0.5174
31083,0,,,,,,,,0.47,0.05,0.92,0,53,-43,0.47,0,,,,,,,,,,,,,,,,,
31123,0,,,,,,,,0.39,0.05,0.37,1,34,-25,0.39,0,,,,,,,,,,,,,,,,,
31163,0,,,,,,,,0.34,-0.03,0.28,1,27,-20,0.34,0,,,,,,,,,,,,,,,,,
31203,0,,,,,,,,0.31,0.02,0.2,1,27,-16,0.31,0,,,,,,,,,,,,,,,,,
31243,0,0,1,47,53,32,36,100,0.18,0.06,0.14,1,17,-14,0.19,0,0,0.0,0.0,0.0,0.0,0,0,0.0,0,0.0,-1,0.0,0.0,0.0,0,0.0,0.5207
31283,0,,,,,,,,0.15,-0.02,0.1,1,12,-10,0.16,0,,,,,,,,,,,,,,,,,
31323,0,,,,,,,,0.24,0.02,0.46,2,24,-20,0.24,0,,,,,,,,,,,,,,,,,
31363,0,,,,,,,,0.14,-0.01,0.75,2,30,-26,0.14,0,,,,,,,,,,,,,,,,,
31403,0,,,,,,,,0.3,0.04,0.99,1,46,-36,0.3,0,,,,,,,,,,,,,,,,,
31443,0,0,1,47,53,32,36,100,0.33,0.05,0.71,1,32,-21,0.34,0,0,0.0,0.0,0.0,0.0,0,0,0.0,0,0.0,-1,0.0,0.0,0.0,0,0.0,0.524
31483,0,,,,,,,,0.3,0.07,0.59,0,37,-25,0.31,0,,,,,,,,,,,,,,,,,
31523,0,,,,,,,,0.14,0.09,0.1,0,16,-6,0.17,0,,,,,,,,,,,,,,,,,
31563,0,,,,,,,,0.33,0.24,0.46,-0,40,-12,0.41,0,,,,,,,,,,,,,,,,,
31603,0,,,,,,,,0.12,0.1,0.34,0,28,-2,0.15,0,,,,,,,,,,,,,,,,,
31643,0,0,1,47,53,32,36,100,0.07,0.2,0.25,-0,11,7,0.21,0,0,0.0,0.0,0.0,0.0,0,0,0.0,0,0.0,-1,0.0,0.0,0.0,0,0.0,0.5274
31683,0,,,,,,,,0.19,0.33,0.36,0,25,1,0.38,0,,,,,,,,,,,,,,,,,
31723,0,,,,,,,,-0.11,0.33,0.03,1,26,-5,0.35,0,,,,,,,,,,,,,,,,,
31763,0,,,,,,,,-0.02,0.21,0.0,1,17,2,0.21,0,,,,,,,,,,,,,,,,,
31803,0,,,,,,,,0.16,0.39,-0.02,3,9,3,0.42,0,,,,,,,,,,,,,,,,,
31843,0,0,2,47,53,32,36,100,0.15,0.56,0.0,5,4,-3,0.58,0,0,0.0,0.0,0.0,0.0,0,0,0.0,0,0.0,-1,0.0,0.0,0.0,0,0.0,0.5307
31883,0,,,,,,,,0.14,0.58,0.02,3,5,-4,0.6,0,,,,,,,,,,,,,,,,,
31923,0,,,,,,,,0.07,0.58,-0.36,3,8,-9,0.59,0,,,,,,,,,,,,,,,,,
31963,0,,,,,,,,0.04,0.53,-0.42,2,-3,-1,0.53,0,,,,,,,,,,,,,,,,,
32003,0,,,,,,,,0.01,0.54,-0.36,2,-11,8,0.54,0,,,,,,,,,,,,,,,,,
32043,0,0,1,47,53,32,36,100,0.14,0.59,-0.31,1,-9,4,0.6,0,0,0.0,0.0,0.0,0.0,0,0,0.0,0,0.0,-1,0.0,0.0,0.0,0,0.0,0.534
32083,0,,,,,,,,0.14,0.65,-0.23,1,5,1,0.67,0,,,,,,,,,,,,,,,,,
32123,0,,,,,,,,0.12,0.68,-0.17,-0,5,2,0.69,0,,,,,,,,,,,,,,,,,
32163,0,,,,,,,,-0.03,0.75,-0.12,-0,9,-3,0.75,0,,,,,,,,,,,,,,,,,
32203,0,,,,,,,,-0.16,0.83,-0.48,-0,11,-4,0.85,0,,,,,,,,,,,,,,,,,
32243,0,0,1,47,53,32,36,100,-0.21,0.83,-0.41,-1,4,2,0.86,0,0,0.0,0.0,0.0,0.0,0,0,0.0,0,0.0,-1,0.0,0.0,0.0,0,0.0,0.5374
32283,0,,,,,,,,-0.19,0.69,-0.35,-23,3,6,0.72,0,,,,,,,,,,,,,,,,,
32323,0,,,,,,,,-0.13,0.64,-0.3,-18,-4,11,0.66,0,,,,,,,,,,,,,,,,,
32363,0,,,,,,,,0.01,0.64,-0.27,-16,-9,9,0.64,0,,,,,,,,,,,,,,,,,
32403,0,,,,,,,,0.08,0.77,-0.24,-8,5,-0,0.77,0,,,,,,,,,,,,,,,,,
32443,0,0,1,47,53,32,36,99,0.08,0.59,-0.17,-7,6,3,0.6,0,0,0.0,0.0,0.0,0.0,0,0,0.0,0,0.0,-1,0.0,0.0,0.0,0,0.0,0.5407
32483,0,,,,,,,,0.09,0.57,-0.12,-2,17,2,0.58,0,,,,,,,,,,,,,,,,,
32523,0,,,,,,,,0.09,0.64,-0.08,-1,14,-3,0.64,0,,,,,,,,,,,,,,,,,
32563,0,,,,,,,,0.04,0.6,-0.04,0,10,-3,0.6,0,,,,,,,,,,,,,,,,,
32603,0,,,,,,,,0.02,0.54,-0.02,2,12,0,0.54,0,,,,,,,,,,,,,,,,,
32643,0,1,2,47,53,32,36,100,0.04,0.51,0.01,1,10,5,0.51,0,0,0.0,0.0,0.0,0.0,0,0,0.0,0,0.0,-1,0.0,0.0,0.0,0,0.0,0.544
32683,0,,,,,,,,0.04,0.49,-0.38,4,14,5,0.49,0,,,,,,,,,,,,,,,,,
32723,0,,,,,,,,-0.13,0.48,-0.32,3,4,3,0.49,0,,,,,,,,,,,,,,,,,
32763,0,,,,,,,,-0.14,0.49,-0.28,2,4,2,0.51,0,,,,,,,,,,,,,,,,,
32803,0,,,,,,,,-0.09,0.5,0.07,3,20,-2,0.51,0,,,,,,,,,,,,,,,,,
32843,0,-0,2,47,53,32,36,100,-0.06,0.32,0.08,2,-2,8,0.32,0,0,0.0,0.0,0.0,0.0,0,0,0.0,0,0.0,-1,0.0,0.0,0.0,0,0.0,0.5474
32883,0,,,,,,,,-0.03,0.35,0.23,2,17,-3,0.35,0,,,,,,,,,,,,,,,,,
32923,0,,,,,,,,-0.32,0.25,-0.19,2,14,-3,0.41,0,,,,,,,,,,,,,,,,,
32963,0,,,,,,,,-0.16,0.2,0.21,1,23,-8,0.25,0,,,,,,,,,,,,,,,,,
33003,0,,,,,,,,-0.06,0.25,0.24,1,16,-4,0.25,0,,,,,,,,,,,,,,,,,
33043,0,0,1,47,53,32,36,100,-0.01,0.14,0.3,1,12,-2,0.14,0,0,0.0,0.0,0.0,0.0,0,0,0.0,0,0.0,-1,0.0,0.0,0.0,0,0.0,0.5507
33083,0,,,,,,,,-0.03,0.08,0.26,1,13,-4,0.08,0,,,,,,,,,,,,,,,,,
33123,0,,,,,,,,-0.06,0.1,0.46,1,12,-4,0.11,0,,,,,,,,,,,,,,,,,
33163,0,,,,,,,,-0.1,0.11,0.56,1,9,-3,0.14,0,,,,,,,,,,,,,,,,,
33203,0,,,,,,,,-0.13,0.11,0.43,0,5,-1,0.17,0,,,,,,,,,,,,,,,,,
33243,0,-0,2,47,52,32,36,100,-0.05,0.11,0.33,0,2,-0,0.12,0,0,0.0,0.0,0.0,0.0,0,0,0.0,0,0.0,-1,0.0,0.0,0.0,0,0.0,0.5541
33283,0,,,,,,,,0.09,0.08,0.59,0,4,-1,0.12,0,,,,,,,,,,,,,,,,,
33323,0,,,,,,,,0.08,0.04,0.5,0,8,-2,0.09,0,,,,,,,,,,,,,,,,,
33363,0,,,,,,,,-0.08,0.1,0.4,0,1,0,0.13,0,,,,,,,,,,,,,,,,,
33403,0,,,,,,,,0.14,0.04,0.67,0,6,-2,0.15,0,,,,,,,,,,,,,,,,,
33443,0,0,1,47,53,32,36,100,-0.05,0.04,0.46,0,-2,2,0.07,0,0,0.0,0.0,0.0,0.0,0,0,0.0,0,0.0,-1,0.0,0.0,0.0,0,0.0,0.5574
33483,0,,,,,,,,-0.35,-0.12,0.06,0,-7,3,0.37,0,,,,,,,,,,,,,,,,,
33523,0,,,,,,,,-0.4,-0.16,0.43,-0,2,-3,0.43,0,,,,,,,,,,,,,,,,,
33563,0,,,,,,,,-0.63,-0.17,0.22,0,-4,0,0.65,0,,,,,,,,,,,,,,,,,
33603,0,,,,,,,,-0.44,-0.18,0.2,-0,-8,4,0.48,0,,,,,,,,,,,,,,,,,
33643,0,-1,2,47,53,32,36,100,-0.5,-0.14,0.14,1,-12,6,0.52,0,0,0.0,0.0,0.0,0.0,0,0,0.0,0,0.0,-1,0.0,0.0,0.0,0,0.0,0.5607
33683,0,,,,,,,,-0.42,-0.02,0.09,-0,-14,7,0.42,0,,,,,,,,,,,,,,,,,
33723,0,,,,,,,,-0.07,0.1,0.06,0,8,-2,0.13,0,,,,,,,,,,,,,,,,,
33763,0,,,,,,,,-0.38,0.06,-0.34,1,-9,10,0.39,0,,,,,,,,,,,,,,,,,
33803,0,,,,,,,,-0.41,0.04,-0.29,1,8,-4,0.41,0,,,,,,,,,,,,,,,,,
33843,0,-1,2,47,52,32,36,100,-0.65,-0.01,-0.62,1,16,-8,0.65,0,0,0.0,0.0,0.0,0.0,0,0,0.0,0,0.0,-1,0.0,0.0,0.0,0,0.0,0.564
33883,0,,,,,,,,-0.69,0.08,-0.88,0,0,3,0.69,0,,,,,,,,,,,,,,,,,
33923,0,,,,,,,,-0.53,0.05,-1.09,1,-21,15,0.53,0,,,,,,,,,,,,,,,,,
33963,0,,,,,,,,-0.44,0.08,-1.27,1,-37,22,0.44,0,,,,,,,,,,,,,,,,,
34003,0,,,,,,,,-0.64,0.07,-1.41,0,-46,27,0.64,0,,,,,,,,,,,,,,,,,
34043,0,-0,2,47,53,32,36,100,-0.85,0.04,-1.52,0,-28,17,0.85,0,0,0.0,0.0,0.0,0.0,0,0,0.0,0,0.0,-1,0.0,0.0,0.0,0,0.0,0.5674
34083,0,,,,,,,,-0.86,0.04,-1.21,-1,3,-10,0.86,0,,,,,,,,,,,,,,,,,
34123,0,,,,,,,,-0.41,0.04,-0.6,-1,10,-9,0.41,0,,,,,,,,,,,,,,,,,
34163,0,,,,,,,,-0.5,0.06,-0.87,-2,-31,12,0.5,0,,,,,,,,,,,,,,,,,
34203,0,,,,,,,,-0.46,0.13,-0.68,-1,-3,-7,0.48,0,,,,,,,,,,,,,,,,,
34243,0,-0,2,47,52,32,36,100,-0.35,0.17,-0.57,-1,-30,8,0.39,0,0,0.0,0.0,0.0,0.0,0,0,0.0,0,0.0,-1,0.0,0.0,0.0,0,0.0,0.5707
34283,0,,,,,,,,-0.22,0.19,-0.33,-3,-20,-6,0.29,0,,,,,,,,,,,,,,,,,
34323,0,,,,,,,,-0.22,0.2,-0.25,-5,-19,-11,0.3,0,,,,,,,,,,,,,,,,,
34363,0,,,,,,,,-0.35,0.36,-0.42,-5,-22,-4,0.5,0,,,,,,,,,,,,,,,,,
34403,0,,,,,,,,-0.31,0.3,-0.36,-4,-21,4,0.43,0,,,,,,,,,,,,,,,,,
34443,0,0,0,47,53,32,36,100,-0.27,0.38,-0.31,-2,-17,6,0.46,0,0,0.0,0.0,0.0,0.0,0,0,0.0,0,0.0,-1,0.0,0.0,0.0,0,0.0,0.574
34483,0,,,,,,,,-0.24,0.31,-0.27,0,-2,2,0.39,0,,,,,,,,,,,,,,,,,
34523,0,,,,,,,,0.01,0.35,0.16,0,4,-5,0.35,0,,,,,,,,,,,,,,,,,
34563,0,,,,,,,,-0.02,0.24,-0.25,2,-11,5,0.24,0,,,,,,,,,,,,,,,,,
34603,0,,,,,,,,0.31,0.32,0.18,2,1,-2,0.45,0,,,,,,,,,,,,,,,,,
34643,0,-1,2,47,53,32,36,100,0.63,0.36,0.52,1,12,-8,0.72,0,0,0.0,0.0,0.0,0.0,0,0,0.0,0,0.0,-1,0.0,0.0,0.0,0,0.0,0.5774
34683,0,,,,,,,,0.52,0.32,0.4,1,6,-3,0.61,0,,,,,,,,,,,,,,,,,
34723,0,,,,,,,,0.5,0.17,0.54,1,1,-2,0.53,0,,,,,,,,,,,,,,,,,
34763,0,,,,,,,,0.42,0.15,0.56,1,3,-2,0.45,0,,,,,,,,,,,,,,,,,
34803,0,,,,,,,,0.3,0.13,0.44,1,-2,0,0.33,0,,,,,,,,,,,,,,,,,
34843,0,1,0,47,53,32,36,100,0.05,0.09,0.4,1,-3,-0,0.11,0,0,0.0,0.0,0.0,0.0,0,0,0.0,0,0.0,-1,0.0,0.0,0.0,0,0.0,0.5807
34883,0,,,,,,,,0.05,0.06,0.43,1,3,-2,0.08,0,,,,,,,,,,,,,,,,,
34923,0,,,,,,,,0.21,0.07,0.53,1,2,-2,0.22,0,,,,,,,,,,,,,,,,,
34963,0,,,,,,,,0.05,0.07,0.38,1,-4,2,0.09,0,,,,,,,,,,,,,,,,,
35003,0,,,,,,,,-0.09,0.03,0.45,1,-3,0,0.1,0,,,,,,,,,,,,,,,,,
35043,0,-1,2,47,52,32,36,100,0.03,0.03,0.61,0,2,-1,0.04,0,0,0.0,0.0,0.0,0.0,0,0,0.0,0,0.0,-1,0.0,0.0,0.0,0,0.0,0.584
35083,0,,,,,,,,0.1,0.02,0.75,0,4,-2,0.1,0,,,,,,,,,,,,,,,,,
35123,0,,,,,,,,0.12,-0.01,0.67,0,4,-3,0.12,0,,,,,,,,,,,,,,,,,
35163,0,,,,,,,,0.11,-0.04,0.56,0,5,-3,0.12,0,,,,,,,,,,,,,,,,,
35203,0,,,,,,,,0.03,-0.01,0.54,0,4,-3,0.03,0,,,,,,,,,,,,,,,,,
35243,0,-1,2,47,52,32,36,100,-0.05,-0.01,0.38,0,-0,-0,0.05,0,0,0.0,0.0,0.0,0.0,0,0,0.0,0,0.0,-1,0.0,0.0,0.0,0,0.0,0.5874
35283,0,,,,,,,,0.11,0.02,0.49,0,-1,-0,0.12,0,,,,,,,,,,,,,,,,,
35323,0,,,,,,,,0.12,-0.06,0.45,0,4,-2,0.14,0,,,,,,,,,,,,,,,,,
35363,0,,,,,,,,0.03,0.03,0.34,0,-2,1,0.04,0,,,,,,,,,,,,,,,,,
35403,0,,,,,,,,-0.06,-0.07,0.21,0,-0,1,0.09,0,,,,,,,,,,,,,,,,,
35443,0,0,2,47,53,32,36,100,0.27,0.04,0.55,-0,10,-6,0.28,0,0,0.0,0.0,0.0,0.0,0,0,0.0,0,0.0,-1,0.0,0.0,0.0,0,0.0,0.5907
35483,0,,,,,,,,0.6,0.11,0.82,-0,17,-9,0.61,0,,,,,,,,,,,,,,,,,
35523,0,,,,,,,,0.83,0.1,1.05,-0,26,-13,0.84,0,,,,,,,,,,,,,,,,,
35563,0,,,,,,,,0.75,0.12,1.22,-0,33,-17,0.76,0,,,,,,,,,,,,,,,,,
35603,0,,,,,,,,0.33,0.07,0.61,0,11,-6,0.33,0,,,,,,,,,,,,,,,,,
35643,0,0,2,47,53,32,36,100,0.54,0.13,0.87,-0,20,-14,0.55,0,0,0.0,0.0,0.0,0.0,0,0,0.0,0,0.0,-1,0.0,0.0,0.0,0,0.0,0.594
35683,0,,,,,,,,0.23,0.05,0.32,-1,4,-4,0.24,0,,,,,,,,,,,,,,,,,
35723,0,,,,,,,,0.09,0.1,0.24,-1,-8,0,0.14,0,,,,,,,,,,,,,,,,,
35763,0,,,,,,,,0.14,0.1,0.18,-5,-13,-1,0.17,0,,,,,,,,,,,,,,,,,
35803,0,,,,,,,,0.2,0.12,0.4,-6,10,-11,0.23,0,,,,,,,,,,,,,,,,,
35843,0,-1,2,47,52,32,36,100,-0.09,0.03,-0.06,-3,-17,6,0.09,0,0,0.0,0.0,0.0,0.0,0,0,0.0,0,0.0,-1,0.0,0.0,0.0,0,0.0,0.5974
35883,0,,,,,,,,-0.14,0.14,0.09,-3,-5,-9,0.2,0,,,,,,,,,,,,,,,,,
35923,0,,,,,,,,0.09,0.23,0.45,-3,20,-24,0.25,0,,,,,,,,,,,,,,,,,
35963,0,,,,,,,,0.28,0.21,0.74,-3,22,-20,0.35,0,,,,,,,,,,,,,,,,,
36003,0,,,,,,,,0.49,0.27,0.98,-2,4,-5,0.56,0,,,,,,,,,,,,,,,,,
36043,0,0,2,47,53,32,36,100,0.36,0.18,0.41,0,-24,15,0.4,0,0,0.0,0.0,0.0,0.0,0,0,0.0,0,0.0,-1,0.0,0.0,0.0,0,0.0,0.6007
36083,0,,,,,,,,-0.06,0.1,-0.04,1,-17,6,0.12,0,,,,,,,,,,,,,,,,,
36123,0,,,,,,,,0.05,0.17,0.34,1,9,-10,0.18,0,,,,,,,,,,,,,,,,,
36163,0,,,,,,,,0.08,0.12,0.26,4,-9,4,0.14,0,,,,,,,,,,,,,,,,,
36203,0,,,,,,,,0.08,0.08,0.23,3,15,-10,0.11,0,,,,,,,,,,,,,,,,,
36243,0,-1,1,47,53,32,36,100,-0.09,0.01,-0.2,3,9,-4,0.09,0,0,0.0,0.0,0.0,0.0,0,0,0.0,0,0.0,-1,0.0,0.0,0.0,0,0.0,0.604
36283,0,,,,,,,,-0.1,0.29,-0.18,8,19,5,0.31,0,,,,,,,,,,,,,,,,,
36323,0,,,,,,,,-0.13,0.2,-0.17,7,16,6,0.24,0,,,,,,,,,,,,,,,,,
36363,0,,,,,,,,-0.13,0.29,-0.15,7,22,5,0.32,0,,,,,,,,,,,,,,,,,
36403,0,,,,,,,,0.05,0.35,0.04,5,19,0,0.35,0,,,,,,,,,,,,,,,,,
36443,0,-1,1,47,53,32,36,100,-0.34,0.24,-0.35,4,14,1,0.42,0,0,0.0,0.0,0.0,0.0,0,0,0.0,0,0.0,-1,0.0,0.0,0.0,0,0.0,0.6074
36483,0,,,,,,,,-0.51,0.17,-0.66,3,-1,7,0.54,0,,,,,,,,,,,,,,,,,
36523,0,,,,,,,,-0.52,0.06,-0.52,3,4,2,0.53,0,,,,,,,,,,,,,,,,,
36563,0,,,,,,,,-0.48,0.1,-0.29,2,3,2,0.49,0,,,,,,,,,,,,,,,,,
36603,0,,,,,,,,-0.44,0.06,-0.26,2,-1,4,0.45,0,,,,,,,,,,,,,,,,,
36643,0,-0,2,47,53,32,36,100,-0.31,0.03,-0.08,2,4,2,0.31,0,0,0.0,0.0,0.0,0.0,0,0,0.0,0,0.0,-1,0.0,0.0,0.0,0,0.0,0.6107
36683,0,,,,,,,,-0.07,0.05,0.15,1,4,1,0.08,0,,,,,,,,,,,,,,,,,
36723,0,,,,,,,,-0.24,0.03,-0.03,1,-3,4,0.24,0,,,,,,,,,,,,,,,,,
36763,0,,,,,,,,-0.13,0.03,0.2,1,8,0,0.13,0,,,,,,,,,,,,,,,,,
36803,0,,,,,,,,-0.15,0.04,0.19,1,-5,3,0.15,0,,,,,,,,,,,,,,,,,
36843,0,-1,1,47,53,32,36,100,0.03,-0.0,0.54,1,13,-2,0.03,0,0,0.0,0.0,0.0,0.0,0,0,0.0,0,0.0,-1,0.0,0.0,0.0,0,0.0,0.614
36883,0,,,,,,,,-0.33,0.02,0.67,1,-7,2,0.33,0,,,,,,,,,,,,,,,,,
36923,0,,,,,,,,0.11,0.03,0.58,0,-3,1,0.12,0,,,,,,,,,,,,,,,,,
36963,0,,,,,,,,-0.11,-0.04,0.72,0,7,-0,0.11,0,,,,,,,,,,,,,,,,,
37003,0,,,,,,,,0.05,0.01,0.65,0,-6,2,0.05,0,,,,,,,,,,,,,,,,,
37043,0,-1,0,47,53,32,36,100,-0.03,-0.04,0.61,0,5,0,0.05,0,0,0.0,0.0,0.0,0.0,0,0,0.0,0,0.0,-1,0.0,0.0,0.0,0,0.0,0.6174
37083,0,,,,,,,,0.1,0.01,0.72,0,-2,2,0.1,0,,,,,,,,,,,,,,,,,
37123,0,,,,,,,,-0.07,-0.01,0.76,0,5,-1,0.07,0,,,,,,,,,,,,,,,,,
37163,0,,,,,,,,0.15,0.01,0.93,0,1,0,0.15,0,,,,,,,,,,,,,,,,,
37203,0,,,,,,,,-0.12,0.01,0.91,0,2,-0,0.12,0,,,,,,,,,,,,,,,,,
37243,0,0,0,47,53,32,36,100,0.17,0.01,1.02,0,3,-1,0.17,0,0,0.0,0.0,0.0,0.0,0,0,0.0,0,0.0,-1,0.0,0.0,0.0,0,0.0,0.6207
37283,0,,,,,,,,-0.04,0.02,0.74,0,-3,2,0.05,0,,,,,,,,,,,,,,,,,
37323,0,,,,,,,,-0.05,0.04,0.6,0,1,0,0.07,0,,,,,,,,,,,,,,,,,
37363,0,,,,,,,,0.04,0.01,0.7,0,3,-1,0.04,0,,,,,,,,,,,,,,,,,
37403,0,,,,,,,,0.13,0.03,0.76,0,5,-2,0.13,0,,,,,,,,,,,,,,,,,
37443,0,-1,2,47,53,32,36,100,0.12,-0.02,0.66,0,6,-2,0.12,0,0,0.0,0.0,0.0,0.0,0,0,0.0,0,0.0,-1,0.0,0.0,0.0,0,0.0,0.624
37483,0,,,,,,,,0.06,-0.03,0.59,0,5,-2,0.07,0,,,,,,,,,,,,,,,,,
37523,0,,,,,,,,-0.01,-0.05,0.74,0,3,-2,0.05,0,,,,,,,,,,,,,,,,,
37563,0,,,,,,,,-0.09,-0.05,0.58,0,-1,1,0.1,0,,,,,,,,,,,,,,,,,
37603,0,,,,,,,,-0.1,-0.05,0.45,0,-3,1,0.11,0,,,,,,,,,,,,,,,,,
37643,0,-0,2,47,53,32,36,100,-0.01,-0.07,0.47,0,-2,-0,0.07,0,0,0.0,0.0,0.0,0.0,0,0,0.0,0,0.0,-1,0.0,0.0,0.0,0,0.0,0.6274
37683,0,,,,,,,,0.1,-0.05,0.72,0,1,-1,0.11,0,,,,,,,,,,,,,,,,,
37723,0,,,,,,,,0.08,-0.03,0.6,0,4,-2,0.09,0,,,,,,,,,,,,,,,,,
37763,0,,,,,,,,-0.03,-0.04,0.6,0,1,-0,0.05,0,,,,,,,,,,,,,,,,,
37803,0,,,,,,,,-0.06,-0.0,0.47,0,-2,1,0.06,0,,,,,,,,,,,,,,,,,
37843,0,0,0,47,53,32,36,100,0.13,-0.01,0.67,0,3,-0,0.13,0,0,0.0,0.0,0.0,0.0,0,0,0.0,0,0.0,-1,0.0,0.0,0.0,0,0.0,0.6307
37883,0,,,,,,,,-0.04,-0.01,0.56,0,1,0,0.04,0,,,,,,,,,,,,,,,,,
37923,0,,,,,,,,0.08,0.02,0.71,0,0,0,0.08,0,,,,,,,,,,,,,,,,,
37963,0,,,,,,,,-0.02,-0.04,0.59,0,2,-1,0.05,0,,,,,,,,,,,,,,,,,
38003,0,,,,,,,,0.04,0.05,0.53,0,-0,0,0.06,0,,,,,,,,,,,,,,,,,
38043,0,0,0,47,53,32,36,100,-0.19,-0.08,0.11,0,1,-0,0.21,0,0,0.0,0.0,0.0,0.0,0,0,0.0,0,0.0,-1,0.0,0.0,0.0,0,0.0,0.634
38083,0,,,,,,,,0.08,-0.06,0.47,0,1,-0,0.1,0,,,,,,,,,,,,,,,,,
38123,0,,,,,,,,-0.08,0.01,0.33,0,-2,2,0.08,0,,,,,,,,,,,,,,,,,
38163,0,,,,,,,,-0.04,-0.1,0.35,0,3,-1,0.11,0,,,,,,,,,,,,,,,,,
38203,0,,,,,,,,0.11,0.05,0.66,0,-1,0,0.12,0,,,,,,,,,,,,,,,,,
38243,0,-1,2,47,53,32,36,100,-0.1,-0.02,0.27,0,1,-0,0.11,0,0,0.0,0.0,0.0,0.0,0,0,0.0,0,0.0,-1,0.0,0.0,0.0,0,0.0,0.6374
38283,0,,,,,,,,0.12,0.0,0.6,0,-1,-0,0.12,0,,,,,,,,,,,,,,,,,
38323,0,,,,,,,,-0.07,-0.04,0.47,0,2,-1,0.08,0,,,,,,,,,,,,,,,,,
38363,0,,,,,,,,-0.01,0.02,0.36,0,-2,1,0.02,0,,,,,,,,,,,,,,,,,
38403,0,,,,,,,,0.1,-0.01,0.5,0,-0,-1,0.1,0,,,,,,,,,,,,,,,,,
38443,0,-1,2,47,53,32,36,100,-0.09,-0.01,0.5,0,2,-2,0.09,0,0,0.0,0.0,0.0,0.0,0,0,0.0,0,0.0,-1,0.0,0.0,0.0,0,0.0,0.6407
38483,0,,,,,,,,-0.06,0.01,0.46,0,-3,0,0.06,0,,,,,,,,,,,,,,,,,
38523,0,,,,,,,,0.04,-0.03,0.67,0,-3,-1,0.05,0,,,,,,,,,,,,,,,,,
38563,0,,,,,,,,0.07,-0.04,0.7,0,-3,0,0.08,0,,,,,,,,,,,,,,,,,
38603,0,,,,,,,,0.09,-0.05,0.58,0,-4,2,0.1,0,,,,,,,,,,,,,,,,,
38643,0,0,1,47,52,32,36,100,0.09,-0.05,0.49,0,-3,2,0.1,0,0,0.0,0.0,0.0,0.0,0,0,0.0,0,0.0,-1,0.0,0.0,0.0,0,0.0,0.644
38683,0,,,,,,,,0.08,-0.02,0.38,0,-3,3,0.08,0,,,,,,,,,,,,,,,,,
38723,0,,,,,,,,-0.01,-0.04,0.54,0,-4,2,0.04,0,,,,,,,,,,,,,,,,,
38763,0,,,,,,,,-0.09,-0.05,0.43,0,-1,1,0.11,0,,,,,,,,,,,,,,,,,
38803,0,,,,,,,,-0.06,-0.05,0.45,0,3,1,0.08,0,,,,,,,,,,,,,,,,,
38843,0,-1,2,47,53,32,36,100,0.04,-0.08,0.53,0,5,-0,0.09,0,0,0.0,0.0,0.0,0.0,0,0,0.0,0,0.0,-1,0.0,0.0,0.0,0,0.0,0.6474
38883,0,,,,,,,,0.11,-0.04,0.5,0,3,-0,0.11,0,,,,,,,,,,,,,,,,,
38923,0,,,,,,,,0.09,-0.05,0.29,0,-1,2,0.11,0,,,,,,,,,,,,,,,,,
38963,0,,,,,,,,0.01,-0.05,0.4,0,-2,2,0.05,0,,,,,,,,,,,,,,,,,
39003,0,,,,,,,,-0.07,-0.03,0.34,0,-2,1,0.08,0,,,,,,,,,,,,,,,,,
39043,0,0,1,47,53,32,36,100,-0.08,-0.04,0.26,0,0,1,0.08,0,0,0.0,0.0,0.0,0.0,0,0,0.0,0,0.0,-1,0.0,0.0,0.0,0,0.0,0.6507
39083,0,,,,,,,,0.03,-0.01,0.45,0,3,-0,0.03,0,,,,,,,,,,,,,,,,,
39123,0,,,,,,,,0.14,0.02,0.47,0,3,-1,0.14,0,,,,,,,,,,,,,,,,,
39163,0,,,,,,,,0.02,0.01,0.28,0,-4,3,0.02,0,,,,,,,,,,,,,,,,,
39203,0,,,,,,,,-0.09,0.01,0.25,0,-2,1,0.09,0,,,,,,,,,,,,,,,,,
39243,0,0,0,47,52,32,36,100,0.1,-0.02,0.37,0,1,1,0.1,0,0,0.0,0.0,0.0,0.0,0,0,0.0,0,0.0,-1,0.0,0.0,0.0,0,0.0,0.654
39283,0,,,,,,,,0.05,0.02,0.38,0,-6,3,0.05,0,,,,,,,,,,,,,,,,,
39323,0,,,,,,,,-0.13,0.02,0.29,0,-7,3,0.14,0,,,,,,,,,,,,,,,,,
39363,0,,,,,,,,-0.07,0.02,0.4,0,-2,1,0.07,0,,,,,,,,,,,,,,,,,
39403,0,,,,,,,,0.11,0.02,0.52,0,1,0,0.11,0,,,,,,,,,,,,,,,,,
39443,0,0,1,47,52,32,36,100,0.09,0.02,0.35,0,-4,2,0.09,0,0,0.0,0.0,0.0,0.0,0,0,0.0,0,0.0,-1,0.0,0.0,0.0,0,0.0,0.6574
39483,0,,,,,,,,-0.07,-0.01,0.36,0,-3,1,0.07,0,,,,,,,,,,,,,,,,,
39523,0,,,,,,,,0.07,-0.02,0.54,0,3,-1,0.08,0,,,,,,,,,,,,,,,,,
39563,0,,,,,,,,0.08,-0.0,0.56,0,-3,0,0.08,0,,,,,,,,,,,,,,,,,
39603,0,,,,,,,,-0.09,-0.02,0.54,0,-1,-0,0.1,0,,,,,,,,,,,,,,,,,
39643,0,-1,2,47,52,32,36,100,0.18,-0.01,0.72,0,4,-1,0.18,0,0,0.0,0.0,0.0,0.0,0,0,0.0,0,0.0,-1,0.0,0.0,0.0,0,0.0,0.6607
39683,0,,,,,,,,-0.19,0.0,0.56,0,-4,1,0.19,0,,,,,,,,,,,,,,,,,
39723,0,,,,,,,,0.17,0.0,0.65,0,2,-0,0.17,0,,,,,,,,,,,,,,,,,
39763,0,,,,,,,,0.02,-0.02,0.85,0,14,-3,0.02,0,,,,,,,,,,,,,,,,,
39803,0,,,,,,,,-0.37,0.01,1.07,0,-19,2,0.37,0,,,,,,,,,,,,,,,,,
39843,0,0,1,47,53,32,36,100,-0.13,0.07,0.96,0,-29,3,0.14,0,0,0.0,0.0,0.0,0.0,0,0,0.0,0,0.0,-1,0.0,0.0,0.0,0,0.0,0.664
39883,0,,,,,,,,0.28,0.0,0.53,0,8,-2,0.28,0,,,,,,,,,,,,,,,,,
39923,0,,,,,,,,0.05,-0.04,0.81,0,13,-2,0.07,0,,,,,,,,,,,,,,,,,
39963,0,,,,,,,,-0.34,0.0,1.03,0,-23,3,0.34,0,,,,,,,,,,,,,,,,,
40003,0,,,,,,,,-0.04,0.04,0.6,0,-22,4,0.06,0,,,,,,,,,,,,,,,,,
40043,0,0,1,47,53,32,36,100,0.35,-0.05,0.36,0,16,-2,0.35,0,0,0.0,0.0,0.0,0.0,0,0,0.0,0,0.0,-1,0.0,0.0,0.0,0,0.0,0.6674
40083,0,,,,,,,,-0.06,-0.05,0.67,0,6,-1,0.08,0,,,,,,,,,,,,,,,,,
40123,0,,,,,,,,-0.3,0.01,0.77,0,-23,4,0.3,0,,,,,,,,,,,,,,,,,
40163,0,,,,,,,,0.14,-0.03,0.24,0,-6,3,0.14,0,,,,,,,,,,,,,,,,,
40203,0,,,,,,,,-0.05,-0.07,0.53,0,24,-2,0.08,0,,,,,,,,,,,,,,,,,
40243,0,-1,2,47,52,32,36,100,-0.42,-0.02,0.81,0,1,1,0.42,0,0,0.0,0.0,0.0,0.0,0,0,0.0,0,0.0,-1,0.0,0.0,0.0,0,0.0,0.6707
40283,0,,,,,,,,-0.15,0.05,0.47,0,-30,5,0.16,0,,,,,,,,,,,,,,,,,
40323,0,,,,,,,,0.26,-0.03,0.04,-0,-12,2,0.26,0,,,,,,,,,,,,,,,,,
40363,0,,,,,,,,0.08,-0.06,0.35,-0,23,-2,0.1,0,,,,,,,,,,,,,,,,,
40403,0,,,,,,,,-0.31,-0.04,0.66,-0,9,-1,0.31,0,,,,,,,,,,,,,,,,,
40443,0,0,1,47,53,32,36,100,-0.25,0.03,0.51,-0,-26,4,0.25,0,0,0.0,0.0,0.0,0.0,0,0,0.0,0,0.0,-1,0.0,0.0,0.0,0,0.0,0.674
40483,0,,,,,,,,0.18,-0.01,0.12,-0,-10,1,0.18,0,,,,,,,,,,,,,,,,,
40523,0,,,,,,,,-0.03,-0.05,0.45,-0,17,-3,0.06,0,,,,,,,,,,,,,,,,,
40563,0,,,,,,,,-0.4,0.01,0.75,-0,-7,0,0.4,0,,,,,,,,,,,,,,,,,
40603,0,,,,,,,,-0.07,0.05,0.41,-0,-28,3,0.09,0,,,,,,,,,,,,,,,,,
40643,0,-1,2,47,52,32,36,100,0.32,-0.05,-0.02,0,0,0,0.33,0,0,0.0,0.0,0.0,0.0,0,0,0.0,0,0.0,-1,0.0,0.0,0.0,0,0.0,0.6774
40683,0,,,,,,,,0.06,-0.06,0.24,0,27,-4,0.09,0,,,,,,,,,,,,,,,,,
40723,0,,,,,,,,-0.25,0.01,0.43,0,-4,1,0.25,0,,,,,,,,,,,,,,,,,
40763,0,,,,,,,,0.15,0.02,0.14,0,-10,2,0.15,0,,,,,,,,,,,,,,,,,
40803,0,,,,,,,,0.34,-0.03,0.19,0,26,-3,0.34,0,,,,,,,,,,,,,,,,,
40843,0,1,1,47,53,32,36,100,-0.11,-0.02,0.53,0,23,-3,0.11,0,0,0.0,0.0,0.0,0.0,0,0,0.0,0,0.0,-1,0.0,0.0,0.0,0,0.0,0.6807
40883,0,,,,,,,,-0.35,0.03,0.81,0,-17,1,0.35,0,,,,,,,,,,,,,,,,,
40923,0,,,,,,,,0.09,0.04,0.27,0,-24,3,0.09,0,,,,,,,,,,,,,,,,,
40963,0,,,,,,,,0.43,-0.06,0.07,0,14,-2,0.44,0,,,,,,,,,,,,,,,,,
41003,0,,,,,,,,0.02,-0.04,0.44,0,26,-4,0.05,0,,,,,,,,,,,,,,,,,
41043,0,0,1,47,53,32,36,100,-0.36,-0.05,0.74,0,-7,1,0.37,0,0,0.0,0.0,0.0,0.0,0,0,0.0,0,0.0,-1,0.0,0.0,0.0,0,0.0,0.684
41083,0,,,,,,,,-0.46,0.03,0.54,-0,-45,6,0.46,0,,,,,,,,,,,,,,,,,
41123,0,,,,,,,,0.01,0.03,0.16,0,-45,6,0.03,0,,,,,,,,,,,,,,,,,
41163,0,,,,,,,,0.39,-0.05,-0.25,0,-8,2,0.39,0,,,,,,,,,,,,,,,,,
41203,0,,,,,,,,0.43,-0.11,-0.11,0,25,-1,0.44,0,,,,,,,,,,,,,,,,,
41243,0,1,1,47,53,32,36,100,-0.03,-0.06,0.29,-0,15,-1,0.07,0,0,0.0,0.0,0.0,0.0,0,0,0.0,0,0.0,-1,0.0,0.0,0.0,0,0.0,0.6874
41283,0,,,,,,,,-0.37,-0.01,0.54,0,-23,4,0.37,0,,,,,,,,,,,,,,,,,
41323,0,,,,,,,,-0.04,0.08,0.16,0,-36,7,0.08,0,,,,,,,,,,,,,,,,,
41363,0,,,,,,,,0.35,-0.0,-0.25,0,-7,3,0.35,0,,,,,,,,,,,,,,,,,
41403,0,,,,,,,,0.5,-0.08,-0.27,0,32,-2,0.51,0,,,,,,,,,,,,,,,,,
41443,0,1,1,47,53,32,36,100,0.03,-0.04,0.16,1,26,-2,0.05,0,0,0.0,0.0,0.0,0.0,0,0,0.0,0,0.0,-1,0.0,0.0,0.0,0,0.0,0.6907
41483,0,,,,,,,,-0.36,-0.02,0.49,0,-14,3,0.36,0,,,,,,,,,,,,,,,,,
41523,0,,,,,,,,-0.03,0.03,0.2,0,-24,5,0.05,0,,,,,,,,,,,,,,,,,
41563,0,,,,,,,,0.35,-0.05,-0.22,0,11,0,0.36,0,,,,,,,,,,,,,,,,,
41603,0,,,,,,,,0.46,-0.07,-0.08,0,44,-5,0.47,0,,,,,,,,,,,,,,,,,
41643,0,0,2,47,53,32,36,100,0.01,-0.03,0.32,0,39,-6,0.03,0,0,0.0,0.0,0.0,0.0,0,0,0.0,0,0.0,-1,0.0,0.0,0.0,0,0.0,0.694
41683,0,,,,,,,,-0.37,-0.01,0.64,1,-1,-2,0.37,0,,,,,,,,,,,,,,,,,
41723,0,,,,,,,,-0.51,0.04,0.8,1,-36,3,0.52,0,,,,,,,,,,,,,,,,,
41763,0,,,,,,,,-0.04,0.06,0.44,0,-25,1,0.07,0,,,,,,,,,,,,,,,,,
41803,0,,,,,,,,0.32,-0.03,0.15,0,12,-3,0.32,0,,,,,,,,,,,,,,,,,
41843,0,-1,2,47,52,32,36,100,-0.02,-0.02,0.5,1,16,-5,0.03,0,0,0.0,0.0,0.0,0.0,0,0,0.0,0,0.0,-1,0.0,0.0,0.0,0,0.0,0.6974
41883,0,,,,,,,,-0.39,0.01,0.78,1,-21,-0,0.39,0,,,,,,,,,,,,,,,,,
41923,0,,,,,,,,-0.44,0.09,0.74,1,-44,4,0.45,0,,,,,,,,,,,,,,,,,
41963,0,,,,,,,,0.02,0.07,0.22,1,-25,2,0.08,0,,,,,,,,,,,,,,,,,
42003,0,,,,,,,,0.4,-0.04,-0.21,1,16,-2,0.4,0,,,,,,,,,,,,,,,,,
42043,0,0,1,47,52,32,36,100,0.37,-0.05,0.04,1,39,-6,0.37,0,0,0.0,0.0,0.0,0.0,0,0,0.0,0,0.0,-1,0.0,0.0,0.0,0,0.0,0.7007
42083,0,,,,,,,,-0.08,-0.01,0.41,1,21,-5,0.08,0,,,,,,,,,,,,,,,,,
42123,0,,,,,,,,-0.45,0.01,0.6,1,-22,2,0.45,0,,,,,,,,,,,,,,,,,
42163,0,,,,,,,,-0.1,0.06,0.4,1,-18,2,0.11,0,,,,,,,,,,,,,,,,,
42203,0,,,,,,,,0.3,-0.03,0.11,1,18,-3,0.3,0,,,,,,,,,,,,,,,,,
42243,0,-1,2,47,52,32,36,100,-0.05,-0.03,0.47,1,15,-4,0.06,0,0,0.0,0.0,0.0,0.0,0,0,0.0,0,0.0,-1,0.0,0.0,0.0,0,0.0,0.704
42283,0,,,,,,,,-0.09,0.05,0.56,1,-20,2,0.1,0,,,,,,,,,,,,,,,,,
42323,0,,,,,,,,0.17,0.03,0.28,1,-19,2,0.17,0,,,,,,,,,,,,,,,,,
42363,0,,,,,,,,0.29,-0.07,0.22,0,16,-3,0.3,0,,,,,,,,,,,,,,,,,
42403,0,,,,,,,,-0.15,-0.01,0.56,0,23,-5,0.15,0,,,,,,,,,,,,,,,,,
42443,0,0,0,47,53,32,36,100,-0.37,0.02,0.73,0,-12,-0,0.37,0,0,0.0,0.0,0.0,0.0,0,0,0.0,0,0.0,-1,0.0,0.0,0.0,0,0.0,0.7074
42483,0,,,,,,,,0.05,0.05,0.36,0,-29,3,0.08,0,,,,,,,,,,,,,,,,,
42523,0,,,,,,,,0.31,-0.03,0.12,0,2,-0,0.31,0,,,,,,,,,,,,,,,,,
