"Interval"|"ms"|0|0|1,"Utc"|"ms"|0|0|1,"Brake_F"|"Bar"|0|2000|10,"Brake_R"|"Bar"|0|2000|10,"Height_RF"|"mm"|0|255|10,"Height_LF"|"mm"|0|255|10,"Height_LR"|"mm"|0|80|10,"Height_RR"|"mm"|0|255|10,"Steering"|"deg"|-100|100|10,"AccelX"|"G"|-3.0|3.0|25,"AccelY"|"G"|-3.0|3.0|25,"AccelZ"|"G"|-3.0|3.0|25,"Yaw"|"Deg/Sec"|-120|120|25,"Pitch"|"Deg/Sec"|-120|120|25,"Roll"|"Deg/Sec"|-120|120|25,"Gsum"|"G"|0.0|3.0|25,"Unknown"|""|0|1024|25,"Log_Button"|""|0.0|10.0|10,"Latitude"|"Degrees"|-180.0|180.0|10,"Longitude"|"Degrees"|-180.0|180.0|10,"Speed"|"kph"|0.0|150.0|10,"Altitude"|"m"|0.0|4000.0|10,"GPSSats"|""|0|20|10,"GPSQual"|""|0|5|10,"GPSDOP"|""|0.0|20.0|10,"LapCount"|""|0|0|10,"LapTime"|"Min"|0.0|0.0|10,"Sector"|""|0|0|10,"SectorTime"|"Min"|0.0|0.0|10,"PredTime"|"Min"|0.0|0.0|5,"ElapsedTime"|"Min"|0.0|0.0|10,"CurrentLap"|""|0|0|10,"Distance"|"km"|0.0|0.0|10,"SessionTime"|"Min"|0.0|0.0|10
17083,0,,,,,,,,0.04,-0.02,1.0,0,0,0,0.04,0,,,,,,,,,,,,,,,,,
17123,0,,,,,,,,0.04,-0.02,1.0,0,0,0,0.04,0,,,,,,,,,,,,,,,,,
17163,0,,,,,,,,0.04,-0.02,1.0,0,0,0,0.04,0,,,,,,,,,,,,,,,,,
17203,0,,,,,,,,0.04,-0.02,1.0,0,0,0,0.04,0,,,,,,,,,,,,,,,,,
17243,0,-1,2,46,54,32,37,-22,0.04,-0.02,1.0,0,0,0,0.04,0,1,0.0,0.0,0.0,0.0,0,0,0.0,0,0.0,-1,0.0,0.0,0.0,0,0.0,0.2874
17283,0,,,,,,,,0.04,-0.02,1.0,0,0,0,0.04,0,,,,,,,,,,,,,,,,,
17323,0,,,,,,,,0.04,-0.02,1.0,0,0,0,0.04,0,,,,,,,,,,,,,,,,,
17363,0,,,,,,,,0.04,-0.02,1.0,0,0,0,0.04,0,,,,,,,,,,,,,,,,,
17403,0,,,,,,,,0.04,-0.02,1.0,0,0,0,0.04,0,,,,,,,,,,,,,,,,,
17443,0,0,1,46,53,32,37,-21,0.04,-0.02,1.0,0,0,0,0.04,0,0,0.0,0.0,0.0,0.0,0,0,0.0,0,0.0,-1,0.0,0.0,0.0,0,0.0,0.2907
17483,0,,,,,,,,0.04,-0.02,1.0,0,0,0,0.04,0,,,,,,,,,,,,,,,,,
17523,0,,,,,,,,0.04,-0.02,1.0,0,0,0,0.04,0,,,,,,,,,,,,,,,,,
17563,0,,,,,,,,0.04,-0.02,1.0,0,0,0,0.04,0,,,,,,,,,,,,,,,,,
17603,0,,,,,,,,0.04,-0.02,1.0,0,0,0,0.04,0,,,,,,,,,,,,,,,,,
17643,0,0,2,47,54,32,37,-21,0.04,-0.02,1.0,0,0,0,0.04,0,0,0.0,0.0,0.0,0.0,0,0,0.0,0,0.0,-1,0.0,0.0,0.0,0,0.0,0.294
17683,0,,,,,,,,0.04,-0.02,1.0,0,0,0,0.04,0,,,,,,,,,,,,,,,,,
17723,0,,,,,,,,0.04,-0.02,1.0,0,0,0,0.04,0,,,,,,,,,,,,,,,,,
17763,0,,,,,,,,0.04,-0.02,1.0,0,-0,0,0.04,0,,,,,,,,,,,,,,,,,
17803,0,,,,,,,,0.04,-0.02,1.0,0,-0,0,0.04,0,,,,,,,,,,,,,,,,,
17843,0,0,2,46,54,32,37,-22,0.04,-0.02,1.0,0,0,0,0.04,0,0,0.0,0.0,0.0,0.0,0,0,0.0,0,0.0,-1,0.0,0.0,0.0,0,0.0,0.2974
17883,0,,,,,,,,0.04,-0.02,1.0,0,-0,0,0.04,0,,,,,,,,,,,,,,,,,
17923,0,,,,,,,,0.04,-0.02,1.0,0,-0,0,0.04,0,,,,,,,,,,,,,,,,,
17963,0,,,,,,,,0.04,-0.02,1.0,0,-0,0,0.04,0,,,,,,,,,,,,,,,,,
18003,0,,,,,,,,0.04,-0.02,1.0,0,-0,0,0.04,0,,,,,,,,,,,,,,,,,
18043,0,-0,2,47,53,32,37,-22,0.04,-0.02,1.0,0,-0,0,0.04,0,0,0.0,0.0,0.0,0.0,0,0,0.0,0,0.0,-1,0.0,0.0,0.0,0,0.0,0.3007
18083,0,,,,,,,,0.04,-0.02,1.0,0,-0,0,0.04,0,,,,,,,,,,,,,,,,,
18123,0,,,,,,,,0.04,-0.02,1.0,0,-0,0,0.04,0,,,,,,,,,,,,,,,,,
18163,0,,,,,,,,0.04,-0.02,1.0,0,0,0,0.04,0,,,,,,,,,,,,,,,,,
18203,0,,,,,,,,0.04,-0.02,1.0,0,0,0,0.04,0,,,,,,,,,,,,,,,,,
18243,0,-0,2,47,53,32,37,-21,0.04,-0.02,1.0,0,0,0,0.04,0,0,0.0,0.0,0.0,0.0,0,0,0.0,0,0.0,-1,0.0,0.0,0.0,0,0.0,0.304
18283,0,,,,,,,,0.04,-0.02,1.0,0,0,0,0.04,0,,,,,,,,,,,,,,,,,
18323,0,,,,,,,,0.04,-0.02,1.0,0,0,0,0.04,0,,,,,,,,,,,,,,,,,
18363,0,,,,,,,,0.04,-0.02,1.0,0,0,0,0.04,0,,,,,,,,,,,,,,,,,
18403,0,,,,,,,,0.04,-0.02,1.0,0,0,0,0.04,0,,,,,,,,,,,,,,,,,
18443,0,-1,2,47,53,32,37,-22,0.04,-0.02,1.0,0,0,0,0.04,0,0,0.0,0.0,0.0,0.0,0,0,0.0,0,0.0,-1,0.0,0.0,0.0,0,0.0,0.3074
18483,0,,,,,,,,0.04,-0.02,1.0,0,0,0,0.04,0,,,,,,,,,,,,,,,,,
18523,0,,,,,,,,0.04,-0.02,1.0,0,0,0,0.04,0,,,,,,,,,,,,,,,,,
18563,0,,,,,,,,0.04,-0.02,1.0,0,0,0,0.04,0,,,,,,,,,,,,,,,,,
18603,0,,,,,,,,0.04,-0.02,1.0,0,0,0,0.04,0,,,,,,,,,,,,,,,,,
18643,0,0,0,47,53,32,37,-21,0.04,-0.02,1.0,0,0,0,0.04,0,0,0.0,0.0,0.0,0.0,0,0,0.0,0,0.0,-1,0.0,0.0,0.0,0,0.0,0.3107
18683,0,,,,,,,,0.04,-0.02,1.0,0,0,0,0.04,0,,,,,,,,,,,,,,,,,
18723,0,,,,,,,,0.04,-0.02,1.0,0,0,0,0.04,0,,,,,,,,,,,,,,,,,
18763,0,,,,,,,,0.04,-0.02,1.0,0,0,0,0.04,0,,,,,,,,,,,,,,,,,
18803,0,,,,,,,,0.04,-0.02,1.0,0,0,0,0.04,0,,,,,,,,,,,,,,,,,
18843,0,-1,2,47,53,32,37,-22,0.04,-0.02,1.02,0,0,0,0.04,0,0,0.0,0.0,0.0,0.0,0,0,0.0,0,0.0,-1,0.0,0.0,0.0,0,0.0,0.314
18883,0,,,,,,,,0.04,-0.02,1.01,0,-0,0,0.04,0,,,,,,,,,,,,,,,,,
18923,0,,,,,,,,0.04,-0.02,1.01,0,-0,0,0.04,0,,,,,,,,,,,,,,,,,
18963,0,,,,,,,,0.04,-0.02,1.01,0,-0,0,0.04,0,,,,,,,,,,,,,,,,,
19003,0,,,,,,,,0.03,-0.02,1.01,0,-0,0,0.04,0,,,,,,,,,,,,,,,,,
19043,0,0,2,46,54,32,37,-22,0.04,-0.02,1.0,0,-0,0,0.04,0,0,0.0,0.0,0.0,0.0,0,0,0.0,0,0.0,-1,0.0,0.0,0.0,0,0.0,0.3174
19083,0,,,,,,,,0.04,-0.02,1.0,0,-0,0,0.04,0,,,,,,,,,,,,,,,,,
19123,0,,,,,,,,0.04,-0.02,1.0,0,-0,0,0.04,0,,,,,,,,,,,,,,,,,
19163,0,,,,,,,,0.04,-0.02,1.0,0,0,0,0.04,0,,,,,,,,,,,,,,,,,
19203,0,,,,,,,,0.04,-0.02,1.0,0,0,0,0.04,0,,,,,,,,,,,,,,,,,
19243,0,0,0,47,54,32,36,-21,0.04,-0.02,1.0,0,0,0,0.04,0,0,0.0,0.0,0.0,0.0,0,0,0.0,0,0.0,-1,0.0,0.0,0.0,0,0.0,0.3207
19283,0,,,,,,,,0.04,-0.02,1.0,0,0,0,0.04,0,,,,,,,,,,,,,,,,,
19323,0,,,,,,,,0.04,-0.02,1.0,0,0,0,0.04,0,,,,,,,,,,,,,,,,,
19363,0,,,,,,,,0.04,-0.02,1.0,0,0,0,0.04,0,,,,,,,,,,,,,,,,,
19403,0,,,,,,,,0.04,-0.02,1.0,0,0,0,0.04,0,,,,,,,,,,,,,,,,,
19443,0,-1,2,47,53,32,37,-22,0.04,-0.02,1.0,0,0,0,0.04,0,0,0.0,0.0,0.0,0.0,0,0,0.0,0,0.0,-1,0.0,0.0,0.0,0,0.0,0.324
19483,0,,,,,,,,0.04,-0.02,1.0,0,0,0,0.04,0,,,,,,,,,,,,,,,,,
19523,0,,,,,,,,0.04,-0.02,1.0,0,-0,0,0.04,0,,,,,,,,,,,,,,,,,
19563,0,,,,,,,,0.04,-0.02,1.0,0,0,0,0.04,0,,,,,,,,,,,,,,,,,
19603,0,,,,,,,,0.04,-0.02,1.0,0,0,0,0.04,0,,,,,,,,,,,,,,,,,
19643,0,0,1,47,53,32,36,-21,0.04,-0.02,1.0,0,0,0,0.04,0,0,0.0,0.0,0.0,0.0,0,0,0.0,0,0.0,-1,0.0,0.0,0.0,0,0.0,0.3274
19683,0,,,,,,,,0.04,-0.02,1.0,0,0,0,0.04,0,,,,,,,,,,,,,,,,,
19723,0,,,,,,,,0.04,-0.02,1.0,0,0,0,0.04,0,,,,,,,,,,,,,,,,,
19763,0,,,,,,,,0.04,-0.02,1.0,0,0,0,0.04,0,,,,,,,,,,,,,,,,,
19803,0,,,,,,,,0.04,-0.02,1.0,0,0,0,0.04,0,,,,,,,,,,,,,,,,,
19843,0,-1,2,46,53,32,37,-21,0.04,-0.02,1.0,0,0,0,0.04,0,0,0.0,0.0,0.0,0.0,0,0,0.0,0,0.0,-1,0.0,0.0,0.0,0,0.0,0.3307
19883,0,,,,,,,,0.04,-0.02,1.0,0,0,0,0.04,0,,,,,,,,,,,,,,,,,
19923,0,,,,,,,,0.04,-0.02,1.0,0,0,0,0.04,0,,,,,,,,,,,,,,,,,
19963,0,,,,,,,,0.04,-0.02,1.0,0,0,0,0.04,0,,,,,,,,,,,,,,,,,
20003,0,,,,,,,,0.04,-0.02,1.0,0,0,0,0.04,0,,,,,,,,,,,,,,,,,
20043,0,1,2,46,54,32,37,-22,0.04,-0.02,1.0,0,0,0,0.04,0,0,0.0,0.0,0.0,0.0,0,0,0.0,0,0.0,-1,0.0,0.0,0.0,0,0.0,0.334
20083,0,,,,,,,,0.04,-0.02,1.0,0,0,0,0.04,0,,,,,,,,,,,,,,,,,
20123,0,,,,,,,,0.04,-0.02,1.0,0,0,0,0.04,0,,,,,,,,,,,,,,,,,
20163,0,,,,,,,,0.04,-0.02,1.0,0,-0,0,0.04,0,,,,,,,,,,,,,,,,,
20203,0,,,,,,,,0.04,-0.02,1.0,0,0,0,0.04,0,,,,,,,,,,,,,,,,,
20243,0,1,2,46,54,32,37,-22,0.04,-0.02,1.0,0,-0,0,0.04,0,0,0.0,0.0,0.0,0.0,0,0,0.0,0,0.0,-1,0.0,0.0,0.0,0,0.0,0.3374
20283,0,,,,,,,,0.04,-0.02,1.0,0,-0,0,0.04,0,,,,,,,,,,,,,,,,,
20323,0,,,,,,,,0.04,-0.02,1.0,0,0,0,0.04,0,,,,,,,,,,,,,,,,,
20363,0,,,,,,,,0.04,-0.02,1.0,0,0,0,0.04,0,,,,,,,,,,,,,,,,,
20403,0,,,,,,,,0.04,-0.02,1.0,0,0,0,0.04,0,,,,,,,,,,,,,,,,,
20443,0,0,2,46,53,32,37,-22,0.04,-0.02,1.0,0,0,0,0.04,0,0,0.0,0.0,0.0,0.0,0,0,0.0,0,0.0,-1,0.0,0.0,0.0,0,0.0,0.3407
20483,0,,,,,,,,0.04,-0.02,0.99,0,-0,0,0.04,0,,,,,,,,,,,,,,,,,
20523,0,,,,,,,,0.04,-0.02,0.99,0,0,0,0.04,0,,,,,,,,,,,,,,,,,
20563,0,,,,,,,,0.04,-0.02,0.99,0,0,0,0.04,0,,,,,,,,,,,,,,,,,
20603,0,,,,,,,,0.04,-0.02,0.99,0,0,0,0.04,0,,,,,,,,,,,,,,,,,
20643,0,-0,2,46,54,32,36,-22,0.04,-0.02,0.99,0,0,0,0.04,0,0,0.0,0.0,0.0,0.0,0,0,0.0,0,0.0,-1,0.0,0.0,0.0,0,0.0,0.344
20683,0,,,,,,,,0.04,-0.02,1.0,0,0,0,0.04,0,,,,,,,,,,,,,,,,,
20723,0,,,,,,,,0.04,-0.02,0.99,0,0,0,0.04,0,,,,,,,,,,,,,,,,,
20763,0,,,,,,,,0.04,-0.02,0.99,0,0,0,0.04,0,,,,,,,,,,,,,,,,,
20803,0,,,,,,,,0.04,-0.02,1.0,0,0,0,0.04,0,,,,,,,,,,,,,,,,,
20843,0,-1,2,47,53,32,37,-22,0.04,-0.02,1.0,0,0,0,0.04,0,0,0.0,0.0,0.0,0.0,0,0,0.0,0,0.0,-1,0.0,0.0,0.0,0,0.0,0.3474
20883,0,,,,,,,,0.04,-0.02,1.0,0,0,0,0.04,0,,,,,,,,,,,,,,,,,
20923,0,,,,,,,,0.04,-0.02,1.0,0,0,0,0.04,0,,,,,,,,,,,,,,,,,
20963,0,,,,,,,,0.04,-0.02,1.0,0,0,0,0.04,0,,,,,,,,,,,,,,,,,
21003,0,,,,,,,,0.04,-0.02,1.0,0,0,0,0.04,0,,,,,,,,,,,,,,,,,
21043,0,0,1,46,54,32,37,-21,0.04,-0.02,1.0,0,-0,0,0.04,0,0,0.0,0.0,0.0,0.0,0,0,0.0,0,0.0,-1,0.0,0.0,0.0,0,0.0,0.3507
21083,0,,,,,,,,0.04,-0.02,1.0,0,0,0,0.04,0,,,,,,,,,,,,,,,,,
21123,0,,,,,,,,0.04,-0.02,1.0,0,0,0,0.04,0,,,,,,,,,,,,,,,,,
21163,0,,,,,,,,0.04,-0.02,1.0,0,0,0,0.04,0,,,,,,,,,,,,,,,,,
21203,0,,,,,,,,0.04,-0.02,0.99,0,0,0,0.04,0,,,,,,,,,,,,,,,,,
21243,0,-0,2,46,54,32,36,-22,0.04,-0.02,0.99,0,0,0,0.04,0,0,0.0,0.0,0.0,0.0,0,0,0.0,0,0.0,-1,0.0,0.0,0.0,0,0.0,0.354
21283,0,,,,,,,,0.04,-0.02,0.99,0,0,0,0.04,0,,,,,,,,,,,,,,,,,
21323,0,,,,,,,,0.04,-0.02,0.99,0,-0,0,0.04,0,,,,,,,,,,,,,,,,,
21363,0,,,,,,,,0.04,-0.02,0.99,0,-0,0,0.04,0,,,,,,,,,,,,,,,,,
21403,0,,,,,,,,0.04,-0.02,0.99,0,0,0,0.04,0,,,,,,,,,,,,,,,,,
21443,0,1,2,46,54,32,37,-22,0.04,-0.02,0.99,0,0,0,0.04,0,0,0.0,0.0,0.0,0.0,0,0,0.0,0,0.0,-1,0.0,0.0,0.0,0,0.0,0.3574
21483,0,,,,,,,,0.04,-0.02,0.99,0,0,0,0.04,0,,,,,,,,,,,,,,,,,
21523,0,,,,,,,,0.04,-0.02,0.99,0,0,0,0.04,0,,,,,,,,,,,,,,,,,
21563,0,,,,,,,,0.04,-0.02,0.99,0,0,0,0.04,0,,,,,,,,,,,,,,,,,
21603,0,,,,,,,,0.04,-0.02,0.99,0,0,0,0.04,0,,,,,,,,,,,,,,,,,
21643,0,-0,2,46,54,32,36,-22,0.04,-0.02,0.99,0,0,0,0.04,0,0,0.0,0.0,0.0,0.0,0,0,0.0,0,0.0,-1,0.0,0.0,0.0,0,0.0,0.3607
21683,0,,,,,,,,0.04,-0.02,0.99,0,0,0,0.04,0,,,,,,,,,,,,,,,,,
21723,0,,,,,,,,0.04,-0.02,0.99,0,0,0,0.04,0,,,,,,,,,,,,,,,,,
21763,0,,,,,,,,0.04,-0.02,1.0,0,0,0,0.04,0,,,,,,,,,,,,,,,,,
21803,0,,,,,,,,0.04,-0.02,1.0,0,0,0,0.04,0,,,,,,,,,,,,,,,,,
21843,0,-0,2,47,53,32,37,-22,0.04,-0.02,1.0,0,0,0,0.04,0,0,0.0,0.0,0.0,0.0,0,0,0.0,0,0.0,-1,0.0,0.0,0.0,0,0.0,0.364
21883,0,,,,,,,,0.04,-0.02,1.0,0,0,0,0.04,0,,,,,,,,,,,,,,,,,
21923,0,,,,,,,,0.04,-0.02,1.0,0,-0,0,0.04,0,,,,,,,,,,,,,,,,,
21963,0,,,,,,,,0.04,-0.02,1.0,0,-0,0,0.04,0,,,,,,,,,,,,,,,,,
22003,0,,,,,,,,0.04,-0.02,1.0,0,-0,0,0.04,0,,,,,,,,,,,,,,,,,
22043,0,-0,3,46,54,32,36,-22,0.04,-0.02,1.0,0,-0,0,0.04,0,0,0.0,0.0,0.0,0.0,0,0,0.0,0,0.0,-1,0.0,0.0,0.0,0,0.0,0.3674
22083,0,,,,,,,,0.04,-0.02,1.0,0,-0,0,0.04,0,,,,,,,,,,,,,,,,,
22123,0,,,,,,,,0.04,-0.02,1.0,0,-0,0,0.04,0,,,,,,,,,,,,,,,,,
22163,0,,,,,,,,0.04,-0.02,1.0,0,-0,0,0.04,0,,,,,,,,,,,,,,,,,
22203,0,,,,,,,,0.04,-0.02,1.0,0,-0,0,0.04,0,,,,,,,,,,,,,,,,,
22243,0,-1,2,47,53,32,37,-22,0.04,-0.02,1.0,0,-0,0,0.04,0,0,0.0,0.0,0.0,0.0,0,0,0.0,0,0.0,-1,0.0,0.0,0.0,0,0.0,0.3707
22283,0,,,,,,,,0.04,-0.02,0.99,0,-0,0,0.04,0,,,,,,,,,,,,,,,,,
22323,0,,,,,,,,0.04,-0.02,0.99,0,-0,0,0.04,0,,,,,,,,,,,,,,,,,
22363,0,,,,,,,,0.04,-0.02,1.0,0,-0,0,0.04,0,,,,,,,,,,,,,,,,,
22403,0,,,,,,,,0.04,-0.02,1.0,0,0,0,0.04,0,,,,,,,,,,,,,,,,,
22443,0,1,1,46,53,32,37,-23,0.04,-0.02,1.0,0,-0,0,0.04,0,0,0.0,0.0,0.0,0.0,0,0,0.0,0,0.0,-1,0.0,0.0,0.0,0,0.0,0.374
22483,0,,,,,,,,0.04,-0.02,1.0,0,0,0,0.04,0,,,,,,,,,,,,,,,,,
22523,0,,,,,,,,0.04,-0.02,0.99,0,-0,0,0.04,0,,,,,,,,,,,,,,,,,
22563,0,,,,,,,,0.04,-0.02,0.99,0,-0,0,0.04,0,,,,,,,,,,,,,,,,,
22603,0,,,,,,,,0.04,-0.02,1.0,0,-0,0,0.04,0,,,,,,,,,,,,,,,,,
22643,0,-1,2,47,53,32,37,-21,0.04,-0.02,1.0,0,-0,0,0.04,0,0,0.0,0.0,0.0,0.0,0,0,0.0,0,0.0,-1,0.0,0.0,0.0,0,0.0,0.3774
22683,0,,,,,,,,0.04,-0.02,0.99,0,-0,0,0.04,0,,,,,,,,,,,,,,,,,
22723,0,,,,,,,,0.04,-0.02,1.0,0,-0,0,0.04,0,,,,,,,,,,,,,,,,,
22763,0,,,,,,,,0.04,-0.02,1.0,0,-0,0,0.04,0,,,,,,,,,,,,,,,,,
22803,0,,,,,,,,0.04,-0.02,0.99,0,-0,0,0.04,0,,,,,,,,,,,,,,,,,
22843,0,0,1,47,54,32,37,-22,0.04,-0.02,0.99,0,-0,0,0.04,0,0,0.0,0.0,0.0,0.0,0,0,0.0,0,0.0,-1,0.0,0.0,0.0,0,0.0,0.3807
22883,0,,,,,,,,0.04,-0.02,0.99,0,-0,0,0.04,0,,,,,,,,,,,,,,,,,
22923,0,,,,,,,,0.04,-0.02,0.99,0,-0,0,0.04,0,,,,,,,,,,,,,,,,,
22963,0,,,,,,,,0.04,-0.02,1.0,0,-0,0,0.04,0,,,,,,,,,,,,,,,,,
23003,0,,,,,,,,0.04,-0.02,1.0,0,-0,0,0.04,0,,,,,,,,,,,,,,,,,
23043,0,0,0,47,54,32,37,-22,0.04,-0.02,1.0,0,-0,0,0.04,0,0,0.0,0.0,0.0,0.0,0,0,0.0,0,0.0,-1,0.0,0.0,0.0,0,0.0,0.384
23083,0,,,,,,,,0.04,-0.02,1.0,0,-0,0,0.04,0,,,,,,,,,,,,,,,,,
23123,0,,,,,,,,0.04,-0.02,0.99,0,-0,0,0.04,0,,,,,,,,,,,,,,,,,
23163,0,,,,,,,,0.04,-0.02,0.99,0,-0,0,0.04,0,,,,,,,,,,,,,,,,,
23203,0,,,,,,,,0.04,-0.02,1.0,0,-0,0,0.04,0,,,,,,,,,,,,,,,,,
23243,0,1,0,47,54,32,37,-22,0.04,-0.02,0.99,0,0,0,0.04,0,0,0.0,0.0,0.0,0.0,0,0,0.0,0,0.0,-1,0.0,0.0,0.0,0,0.0,0.3874
23283,0,,,,,,,,0.04,-0.02,0.99,0,-0,0,0.04,0,,,,,,,,,,,,,,,,,
23323,0,,,,,,,,0.04,-0.02,1.0,0,-0,0,0.04,0,,,,,,,,,,,,,,,,,
23363,0,,,,,,,,0.04,-0.02,1.0,0,-0,0,0.04,0,,,,,,,,,,,,,,,,,
23403,0,,,,,,,,0.04,-0.02,1.0,0,0,0,0.04,0,,,,,,,,,,,,,,,,,
23443,0,0,3,46,54,32,37,-21,0.04,-0.02,1.0,0,-0,0,0.04,0,0,0.0,0.0,0.0,0.0,0,0,0.0,0,0.0,-1,0.0,0.0,0.0,0,0.0,0.3907
23483,0,,,,,,,,0.04,-0.02,1.0,0,-0,0,0.04,0,,,,,,,,,,,,,,,,,
23523,0,,,,,,,,0.04,-0.02,1.0,0,0,0,0.04,0,,,,,,,,,,,,,,,,,
23563,0,,,,,,,,0.04,-0.02,1.0,0,0,0,0.04,0,,,,,,,,,,,,,,,,,
23603,0,,,,,,,,0.04,-0.02,0.99,0,0,0,0.04,0,,,,,,,,,,,,,,,,,
23643,0,0,0,47,54,32,37,-22,0.04,-0.02,1.0,0,-0,0,0.04,0,0,0.0,0.0,0.0,0.0,0,0,0.0,0,0.0,-1,0.0,0.0,0.0,0,0.0,0.394
23683,0,,,,,,,,0.04,-0.02,1.0,0,0,0,0.04,0,,,,,,,,,,,,,,,,,
23723,0,,,,,,,,0.04,-0.02,1.0,0,0,0,0.04,0,,,,,,,,,,,,,,,,,
23763,0,,,,,,,,0.04,-0.02,1.0,0,0,0,0.04,0,,,,,,,,,,,,,,,,,
23803,0,,,,,,,,0.04,-0.02,1.0,0,0,0,0.04,0,,,,,,,,,,,,,,,,,
23843,0,0,3,46,54,32,37,-21,0.04,-0.02,1.0,0,0,0,0.04,0,0,0.0,0.0,0.0,0.0,0,0,0.0,0,0.0,-1,0.0,0.0,0.0,0,0.0,0.3974
23883,0,,,,,,,,0.04,-0.02,1.0,0,0,0,0.04,0,,,,,,,,,,,,,,,,,
23923,0,,,,,,,,0.04,-0.02,1.0,0,0,0,0.04,0,,,,,,,,,,,,,,,,,
23963,0,,,,,,,,0.04,-0.02,1.0,0,0,0,0.04,0,,,,,,,,,,,,,,,,,
24003,0,,,,,,,,0.04,-0.02,1.0,0,-0,0,0.04,0,,,,,,,,,,,,,,,,,
24043,0,-0,2,47,53,32,37,-22,0.04,-0.02,1.0,0,-0,0,0.04,0,0,0.0,0.0,0.0,0.0,0,0,0.0,0,0.0,-1,0.0,0.0,0.0,0,0.0,0.4007
24083,0,,,,,,,,0.04,-0.02,1.0,0,-0,0,0.04,0,,,,,,,,,,,,,,,,,
24123,0,,,,,,,,0.04,-0.02,1.0,0,0,0,0.04,0,,,,,,,,,,,,,,,,,
24163,0,,,,,,,,0.04,-0.02,1.0,0,0,0,0.04,0,,,,,,,,,,,,,,,,,
24203,0,,,,,,,,0.04,-0.02,1.0,0,0,0,0.04,0,,,,,,,,,,,,,,,,,
24243,0,1,2,46,54,32,37,-22,0.04,-0.02,1.0,0,0,0,0.04,0,0,0.0,0.0,0.0,0.0,0,0,0.0,0,0.0,-1,0.0,0.0,0.0,0,0.0,0.404
24283,0,,,,,,,,0.04,-0.02,1.0,0,0,0,0.04,0,,,,,,,,,,,,,,,,,
24323,0,,,,,,,,0.04,-0.02,1.0,0,0,0,0.04,0,,,,,,,,,,,,,,,,,
24363,0,,,,,,,,0.04,-0.02,1.0,0,0,0,0.04,0,,,,,,,,,,,,,,,,,
24403,0,,,,,,,,0.04,-0.02,1.0,0,0,0,0.04,0,,,,,,,,,,,,,,,,,
24443,0,-1,2,46,53,32,37,-21,0.04,-0.02,1.0,0,0,0,0.04,0,0,0.0,0.0,0.0,0.0,0,0,0.0,0,0.0,-1,0.0,0.0,0.0,0,0.0,0.4074
24483,0,,,,,,,,0.04,-0.02,1.0,0,0,0,0.04,0,,,,,,,,,,,,,,,,,
24523,0,,,,,,,,0.04,-0.02,1.0,0,0,0,0.04,0,,,,,,,,,,,,,,,,,
24563,0,,,,,,,,0.04,-0.02,1.0,0,0,0,0.04,0,,,,,,,,,,,,,,,,,
24603,0,,,,,,,,0.04,-0.02,1.0,0,-0,0,0.04,0,,,,,,,,,,,,,,,,,
24643,0,0,2,46,54,32,37,-21,0.04,-0.02,1.0,0,0,0,0.04,0,0,0.0,0.0,0.0,0.0,0,0,0.0,0,0.0,-1,0.0,0.0,0.0,0,0.0,0.4107
24683,0,,,,,,,,0.04,-0.02,1.0,0,0,0,0.04,0,,,,,,,,,,,,,,,,,
24723,0,,,,,,,,0.04,-0.02,1.0,0,0,0,0.04,0,,,,,,,,,,,,,,,,,
24763,0,,,,,,,,0.04,-0.02,1.0,0,0,0,0.04,0,,,,,,,,,,,,,,,,,
24803,0,,,,,,,,0.04,-0.02,1.0,0,0,0,0.04,0,,,,,,,,,,,,,,,,,
24843,0,0,1,47,54,32,37,-22,0.04,-0.02,1.0,0,0,0,0.04,0,0,0.0,0.0,0.0,0.0,0,0,0.0,0,0.0,-1,0.0,0.0,0.0,0,0.0,0.414
24883,0,,,,,,,,0.04,-0.02,1.0,0,0,0,0.04,0,,,,,,,,,,,,,,,,,
24923,0,,,,,,,,0.04,-0.02,1.0,0,0,0,0.04,0,,,,,,,,,,,,,,,,,
24963,0,,,,,,,,0.04,-0.02,1.0,0,0,0,0.04,0,,,,,,,,,,,,,,,,,
25003,0,,,,,,,,0.04,-0.02,1.0,0,0,0,0.04,0,,,,,,,,,,,,,,,,,
25043,0,0,0,47,54,32,37,-22,0.04,-0.02,1.0,0,0,0,0.04,0,0,0.0,0.0,0.0,0.0,0,0,0.0,0,0.0,-1,0.0,0.0,0.0,0,0.0,0.4174
25083,0,,,,,,,,0.04,-0.02,1.0,0,0,0,0.04,0,,,,,,,,,,,,,,,,,
25123,0,,,,,,,,0.04,-0.02,1.0,0,0,0,0.04,0,,,,,,,,,,,,,,,,,
25163,0,,,,,,,,0.04,-0.02,1.0,0,0,0,0.04,0,,,,,,,,,,,,,,,,,
25203,0,,,,,,,,0.04,-0.02,1.0,0,0,0,0.04,0,,,,,,,,,,,,,,,,,
25243,0,-0,2,47,53,32,37,-22,0.04,-0.02,1.0,0,0,0,0.04,0,0,0.0,0.0,0.0,0.0,0,0,0.0,0,0.0,-1,0.0,0.0,0.0,0,0.0,0.4207
25283,0,,,,,,,,0.04,-0.02,1.0,0,0,0,0.04,0,,,,,,,,,,,,,,,,,
25323,0,,,,,,,,0.04,-0.02,1.0,0,0,0,0.04,0,,,,,,,,,,,,,,,,,
25363,0,,,,,,,,0.04,-0.02,1.0,0,0,0,0.04,0,,,,,,,,,,,,,,,,,
25403,0,,,,,,,,0.04,-0.02,1.0,0,0,0,0.04,0,,,,,,,,,,,,,,,,,
25443,0,-1,2,47,53,32,37,-21,0.04,-0.02,1.0,0,0,0,0.04,0,0,0.0,0.0,0.0,0.0,0,0,0.0,0,0.0,-1,0.0,0.0,0.0,0,0.0,0.424
25483,0,,,,,,,,0.04,-0.02,1.0,0,0,0,0.04,0,,,,,,,,,,,,,,,,,
25523,0,,,,,,,,0.04,-0.02,1.0,0,0,0,0.04,0,,,,,,,,,,,,,,,,,
25563,0,,,,,,,,0.04,-0.02,1.0,0,0,0,0.04,0,,,,,,,,,,,,,,,,,
25603,0,,,,,,,,0.04,-0.02,1.0,0,0,0,0.04,0,,,,,,,,,,,,,,,,,
25643,0,-0,0,47,54,32,37,-22,0.04,-0.02,1.0,0,0,0,0.04,0,0,0.0,0.0,0.0,0.0,0,0,0.0,0,0.0,-1,0.0,0.0,0.0,0,0.0,0.4274
25683,0,,,,,,,,0.04,-0.02,1.0,0,0,0,0.04,0,,,,,,,,,,,,,,,,,
25723,0,,,,,,,,0.04,-0.02,1.0,0,0,0,0.04,0,,,,,,,,,,,,,,,,,
25763,0,,,,,,,,0.04,-0.02,1.0,0,0,0,0.04,0,,,,,,,,,,,,,,,,,
25803,0,,,,,,,,0.04,-0.02,1.0,0,0,0,0.04,0,,,,,,,,,,,,,,,,,
25843,0,0,1,47,54,32,37,-22,0.04,-0.02,1.0,0,0,0,0.04,0,0,0.0,0.0,0.0,0.0,0,0,0.0,0,0.0,-1,0.0,0.0,0.0,0,0.0,0.4307
25883,0,,,,,,,,0.04,-0.02,1.0,0,0,0,0.04,0,,,,,,,,,,,,,,,,,
25923,0,,,,,,,,0.04,-0.02,1.0,0,-0,0,0.04,0,,,,,,,,,,,,,,,,,
25963,0,,,,,,,,0.04,-0.02,0.99,0,0,0,0.04,0,,,,,,,,,,,,,,,,,
26003,0,,,,,,,,0.04,-0.02,0.99,0,0,0,0.04,0,,,,,,,,,,,,,,,,,
26043,0,1,2,47,53,32,37,-22,0.04,-0.02,1.0,0,0,0,0.04,0,0,0.0,0.0,0.0,0.0,0,0,0.0,0,0.0,-1,0.0,0.0,0.0,0,0.0,0.434
26083,0,,,,,,,,0.04,-0.02,1.0,0,0,0,0.04,0,,,,,,,,,,,,,,,,,
26123,0,,,,,,,,0.04,-0.02,1.0,0,0,0,0.04,0,,,,,,,,,,,,,,,,,
26163,0,,,,,,,,0.04,-0.02,1.0,0,0,0,0.04,0,,,,,,,,,,,,,,,,,
26203,0,,,,,,,,0.04,-0.02,1.0,0,0,0,0.04,0,,,,,,,,,,,,,,,,,
26243,0,-0,2,46,53,32,37,-21,0.04,-0.02,1.0,0,-0,0,0.04,0,0,0.0,0.0,0.0,0.0,0,0,0.0,0,0.0,-1,0.0,0.0,0.0,0,0.0,0.4374
26283,0,,,,,,,,0.04,-0.02,0.99,0,-0,0,0.04,0,,,,,,,,,,,,,,,,,
26323,0,,,,,,,,0.04,-0.02,0.99,0,-0,0,0.04,0,,,,,,,,,,,,,,,,,
26363,0,,,,,,,,0.04,-0.02,0.99,0,-0,0,0.04,0,,,,,,,,,,,,,,,,,
26403,0,,,,,,,,0.04,-0.02,1.0,0,0,0,0.04,0,,,,,,,,,,,,,,,,,
26443,0,1,2,47,53,32,37,-21,0.04,-0.02,1.0,0,0,0,0.04,0,0,0.0,0.0,0.0,0.0,0,0,0.0,0,0.0,-1,0.0,0.0,0.0,0,0.0,0.4407
26483,0,,,,,,,,0.04,-0.02,0.99,0,-0,0,0.04,0,,,,,,,,,,,,,,,,,
26523,0,,,,,,,,0.04,-0.02,1.0,0,-0,0,0.04,0,,,,,,,,,,,,,,,,,
26563,0,,,,,,,,0.04,-0.02,1.0,0,-0,0,0.04,0,,,,,,,,,,,,,,,,,
26603,0,,,,,,,,0.04,-0.02,1.0,0,-0,0,0.04,0,,,,,,,,,,,,,,,,,
26643,0,0,3,47,54,32,37,-22,0.04,-0.02,1.0,0,-0,0,0.04,0,0,0.0,0.0,0.0,0.0,0,0,0.0,0,0.0,-1,0.0,0.0,0.0,0,0.0,0.444
26683,0,,,,,,,,0.04,-0.02,1.0,0,0,0,0.04,0,,,,,,,,,,,,,,,,,
26723,0,,,,,,,,0.04,-0.02,1.0,0,-0,0,0.04,0,,,,,,,,,,,,,,,,,
26763,0,,,,,,,,0.04,-0.02,0.99,0,0,0,0.04,0,,,,,,,,,,,,,,,,,
26803,0,,,,,,,,0.04,-0.02,1.0,0,0,0,0.04,0,,,,,,,,,,,,,,,,,
26843,0,0,2,47,54,32,37,-22,0.04,-0.02,1.0,0,0,0,0.04,0,0,0.0,0.0,0.0,0.0,0,0,0.0,0,0.0,-1,0.0,0.0,0.0,0,0.0,0.4474
26883,0,,,,,,,,0.04,-0.02,1.0,0,0,0,0.04,0,,,,,,,,,,,,,,,,,
26923,0,,,,,,,,0.04,-0.02,1.0,0,0,0,0.04,0,,,,,,,,,,,,,,,,,
26963,0,,,,,,,,0.04,-0.02,1.0,0,0,0,0.04,0,,,,,,,,,,,,,,,,,
27003,0,,,,,,,,0.04,-0.02,1.0,0,0,0,0.04,0,,,,,,,,,,,,,,,,,
27043,0,1,0,47,53,32,36,-21,0.04,-0.02,1.0,0,0,0,0.04,0,0,0.0,0.0,0.0,0.0,0,0,0.0,0,0.0,-1,0.0,0.0,0.0,0,0.0,0.4507
27083,0,,,,,,,,0.04,-0.02,1.0,0,0,0,0.04,0,,,,,,,,,,,,,,,,,
27123,0,,,,,,,,0.04,-0.02,1.0,0,0,0,0.04,0,,,,,,,,,,,,,,,,,
27163,0,,,,,,,,0.04,-0.02,1.0,0,0,0,0.04,0,,,,,,,,,,,,,,,,,
27203,0,,,,,,,,0.04,-0.02,1.0,0,0,0,0.04,0,,,,,,,,,,,,,,,,,
27243,0,-0,2,46,53,32,37,-21,0.04,-0.02,1.0,0,0,0,0.04,0,0,0.0,0.0,0.0,0.0,0,0,0.0,0,0.0,-1,0.0,0.0,0.0,0,0.0,0.454
27283,0,,,,,,,,0.04,-0.02,1.0,0,0,0,0.04,0,,,,,,,,,,,,,,,,,
27323,0,,,,,,,,0.04,-0.02,1.0,0,0,0,0.04,0,,,,,,,,,,,,,,,,,
27363,0,,,,,,,,0.04,-0.02,1.0,0,0,0,0.04,0,,,,,,,,,,,,,,,,,
27403,0,,,,,,,,0.04,-0.02,1.0,0,0,0,0.04,0,,,,,,,,,,,,,,,,,
27443,0,1,1,47,53,32,37,-21,0.04,-0.02,0.99,0,0,0,0.04,0,0,0.0,0.0,0.0,0.0,0,0,0.0,0,0.0,-1,0.0,0.0,0.0,0,0.0,0.4574
27483,0,,,,,,,,0.04,-0.02,0.99,0,-0,0,0.04,0,,,,,,,,,,,,,,,,,
27523,0,,,,,,,,0.04,-0.02,1.0,0,-0,0,0.04,0,,,,,,,,,,,,,,,,,
27563,0,,,,,,,,0.04,-0.02,1.0,0,0,0,0.04,0,,,,,,,,,,,,,,,,,
27603,0,,,,,,,,0.04,-0.02,0.99,0,0,0,0.04,0,,,,,,,,,,,,,,,,,
27643,0,0,1,47,53,32,37,-21,0.04,-0.02,0.99,0,0,0,0.04,0,0,0.0,0.0,0.0,0.0,0,0,0.0,0,0.0,-1,0.0,0.0,0.0,0,0.0,0.4607
27683,0,,,,,,,,0.04,-0.02,1.0,0,0,0,0.04,0,,,,,,,,,,,,,,,,,
27723,0,,,,,,,,0.04,-0.02,0.99,0,0,0,0.04,0,,,,,,,,,,,,,,,,,
27763,0,,,,,,,,0.04,-0.02,0.99,0,0,0,0.04,0,,,,,,,,,,,,,,,,,
27803,0,,,,,,,,0.04,-0.02,0.99,0,0,0,0.04,0,,,,,,,,,,,,,,,,,
27843,0,-1,2,47,54,32,37,-22,0.04,-0.02,0.99,0,0,0,0.04,0,0,0.0,0.0,0.0,0.0,0,0,0.0,0,0.0,-1,0.0,0.0,0.0,0,0.0,0.464
27883,0,,,,,,,,0.04,-0.02,1.0,0,0,0,0.04,0,,,,,,,,,,,,,,,,,
27923,0,,,,,,,,0.04,-0.02,1.0,0,0,0,0.04,0,,,,,,,,,,,,,,,,,
27963,0,,,,,,,,0.04,-0.02,1.0,0,0,0,0.04,0,,,,,,,,,,,,,,,,,
28003,0,,,,,,,,0.04,-0.02,1.0,0,0,0,0.04,0,,,,,,,,,,,,,,,,,
28043,0,0,0,47,53,32,37,-21,0.04,-0.02,1.0,0,0,0,0.04,0,0,0.0,0.0,0.0,0.0,0,0,0.0,0,0.0,-1,0.0,0.0,0.0,0,0.0,0.4674
28083,0,,,,,,,,0.04,-0.02,1.0,0,0,0,0.04,0,,,,,,,,,,,,,,,,,
28123,0,,,,,,,,0.04,-0.02,1.0,0,0,0,0.04,0,,,,,,,,,,,,,,,,,
28163,0,,,,,,,,0.04,-0.02,1.0,0,0,0,0.04,0,,,,,,,,,,,,,,,,,
28203,0,,,,,,,,0.04,-0.02,1.0,0,0,0,0.04,0,,,,,,,,,,,,,,,,,
28243,0,1,1,47,53,32,37,-21,0.04,-0.02,1.0,0,0,0,0.04,0,0,0.0,0.0,0.0,0.0,0,0,0.0,0,0.0,-1,0.0,0.0,0.0,0,0.0,0.4707
28283,0,,,,,,,,0.04,-0.02,1.0,0,0,0,0.04,0,,,,,,,,,,,,,,,,,
28323,0,,,,,,,,0.04,-0.02,1.0,0,0,0,0.04,0,,,,,,,,,,,,,,,,,
28363,0,,,,,,,,0.04,-0.02,1.0,0,0,0,0.04,0,,,,,,,,,,,,,,,,,
28403,0,,,,,,,,0.04,-0.02,1.0,0,0,0,0.04,0,,,,,,,,,,,,,,,,,
28443,0,0,1,47,54,32,36,-22,0.04,-0.02,1.0,0,0,0,0.04,0,0,0.0,0.0,0.0,0.0,0,0,0.0,0,0.0,-1,0.0,0.0,0.0,0,0.0,0.474
28483,0,,,,,,,,0.04,-0.02,1.0,0,0,0,0.04,0,,,,,,,,,,,,,,,,,
28523,0,,,,,,,,0.04,-0.02,1.0,0,0,0,0.04,0,,,,,,,,,,,,,,,,,
28563,0,,,,,,,,0.04,-0.02,1.0,0,0,0,0.04,0,,,,,,,,,,,,,,,,,
28603,0,,,,,,,,0.04,-0.02,1.0,0,-0,0,0.04,0,,,,,,,,,,,,,,,,,
28643,0,-0,2,47,54,32,37,-22,0.04,-0.02,1.0,0,0,0,0.04,0,0,0.0,0.0,0.0,0.0,0,0,0.0,0,0.0,-1,0.0,0.0,0.0,0,0.0,0.4774
28683,0,,,,,,,,0.04,-0.02,1.0,0,-0,0,0.04,0,,,,,,,,,,,,,,,,,
28723,0,,,,,,,,0.04,-0.02,1.0,0,0,0,0.04,0,,,,,,,,,,,,,,,,,
28763,0,,,,,,,,0.04,-0.02,1.0,0,0,0,0.04,0,,,,,,,,,,,,,,,,,
28803,0,,,,,,,,0.04,-0.02,1.0,0,0,0,0.04,0,,,,,,,,,,,,,,,,,
28843,0,0,1,47,54,32,36,-21,0.04,-0.02,1.0,0,0,0,0.04,0,0,0.0,0.0,0.0,0.0,0,0,0.0,0,0.0,-1,0.0,0.0,0.0,0,0.0,0.4807
28883,0,,,,,,,,0.04,-0.02,1.0,0,0,0,0.04,0,,,,,,,,,,,,,,,,,
28923,0,,,,,,,,0.04,-0.02,1.0,0,0,0,0.04,0,,,,,,,,,,,,,,,,,
28963,0,,,,,,,,0.04,-0.02,1.0,0,0,0,0.04,0,,,,,,,,,,,,,,,,,
29003,0,,,,,,,,0.04,-0.02,1.0,0,-0,0,0.04,0,,,,,,,,,,,,,,,,,
29043,0,-0,2,47,54,32,37,-22,0.04,-0.02,1.0,0,-0,0,0.04,0,0,0.0,0.0,0.0,0.0,0,0,0.0,0,0.0,-1,0.0,0.0,0.0,0,0.0,0.484
29083,0,,,,,,,,0.04,-0.02,1.0,0,-0,0,0.04,0,,,,,,,,,,,,,,,,,
29123,0,,,,,,,,0.04,-0.02,1.0,0,0,0,0.04,0,,,,,,,,,,,,,,,,,
29163,0,,,,,,,,0.04,-0.02,1.0,0,0,0,0.04,0,,,,,,,,,,,,,,,,,
29203,0,,,,,,,,0.04,-0.02,1.0,0,0,0,0.04,0,,,,,,,,,,,,,,,,,
29243,0,-1,2,47,53,32,37,-22,0.04,-0.02,1.0,0,0,0,0.04,0,0,0.0,0.0,0.0,0.0,0,0,0.0,0,0.0,-1,0.0,0.0,0.0,0,0.0,0.4874
29283,0,,,,,,,,0.04,-0.02,1.0,0,0,0,0.04,0,,,,,,,,,,,,,,,,,
29323,0,,,,,,,,0.04,-0.02,1.0,0,0,0,0.04,0,,,,,,,,,,,,,,,,,
29363,0,,,,,,,,0.04,-0.02,1.0,0,0,0,0.04,0,,,,,,,,,,,,,,,,,
29403,0,,,,,,,,0.04,-0.02,1.0,0,0,0,0.04,0,,,,,,,,,,,,,,,,,
29443,0,-1,2,47,53,32,37,-22,0.04,-0.02,1.0,0,0,0,0.04,0,0,0.0,0.0,0.0,0.0,0,0,0.0,0,0.0,-1,0.0,0.0,0.0,0,0.0,0.4907
29483,0,,,,,,,,0.04,-0.02,1.0,0,0,0,0.04,0,,,,,,,,,,,,,,,,,
29523,0,,,,,,,,0.04,-0.02,1.0,0,0,0,0.04,0,,,,,,,,,,,,,,,,,
29563,0,,,,,,,,0.04,-0.02,1.0,0,0,0,0.04,0,,,,,,,,,,,,,,,,,
29603,0,,,,,,,,0.04,-0.02,1.0,0,0,0,0.04,0,,,,,,,,,,,,,,,,,
29643,0,1,2,46,54,32,37,-22,0.04,-0.02,1.0,0,0,0,0.04,0,0,0.0,0.0,0.0,0.0,0,0,0.0,0,0.0,-1,0.0,0.0,0.0,0,0.0,0.494
29683,0,,,,,,,,0.04,-0.02,1.0,0,0,0,0.04,0,,,,,,,,,,,,,,,,,
29723,0,,,,,,,,0.04,-0.02,1.0,0,0,0,0.04,0,,,,,,,,,,,,,,,,,
29763,0,,,,,,,,0.04,-0.02,1.0,0,0,0,0.04,0,,,,,,,,,,,,,,,,,
29803,0,,,,,,,,0.04,-0.02,1.0,0,0,0,0.04,0,,,,,,,,,,,,,,,,,
29843,0,-1,2,47,53,32,37,-22,0.04,-0.02,1.0,0,0,0,0.04,0,0,0.0,0.0,0.0,0.0,0,0,0.0,0,0.0,-1,0.0,0.0,0.0,0,0.0,0.4974
29883,0,,,,,,,,0.04,-0.02,1.0,0,0,0,0.04,0,,,,,,,,,,,,,,,,,
29923,0,,,,,,,,0.04,-0.02,1.0,0,0,0,0.04,0,,,,,,,,,,,,,,,,,
29963,0,,,,,,,,0.04,-0.02,1.0,0,0,0,0.04,0,,,,,,,,,,,,,,,,,
30003,0,,,,,,,,0.04,-0.02,1.0,0,0,0,0.04,0,,,,,,,,,,,,,,,,,
30043,0,-0,2,47,54,32,37,-22,0.04,-0.02,1.0,0,0,0,0.04,0,0,0.0,0.0,0.0,0.0,0,0,0.0,0,0.0,-1,0.0,0.0,0.0,0,0.0,0.5007
30083,0,,,,,,,,0.04,-0.02,1.0,0,-0,0,0.04,0,,,,,,,,,,,,,,,,,
30123,0,,,,,,,,0.04,-0.02,1.0,0,-0,0,0.04,0,,,,,,,,,,,,,,,,,
30163,0,,,,,,,,0.04,-0.02,1.0,0,-0,0,0.04,0,,,,,,,,,,,,,,,,,
30203,0,,,,,,,,0.04,-0.02,1.0,0,-0,0,0.04,0,,,,,,,,,,,,,,,,,
30243,0,0,2,46,54,32,37,-22,0.04,-0.02,1.0,0,-0,0,0.04,0,0,0.0,0.0,0.0,0.0,0,0,0.0,0,0.0,-1,0.0,0.0,0.0,0,0.0,0.504
30283,0,,,,,,,,0.04,-0.02,1.0,0,0,0,0.04,0,,,,,,,,,,,,,,,,,
30323,0,,,,,,,,0.04,-0.02,1.0,0,0,0,0.04,0,,,,,,,,,,,,,,,,,
30363,0,,,,,,,,0.04,-0.02,1.0,0,0,0,0.04,0,,,,,,,,,,,,,,,,,
30403,0,,,,,,,,0.04,-0.02,1.0,0,0,0,0.04,0,,,,,,,,,,,,,,,,,
30443,0,0,3,46,54,32,37,-23,0.04,-0.02,1.0,0,0,0,0.04,0,0,0.0,0.0,0.0,0.0,0,0,0.0,0,0.0,-1,0.0,0.0,0.0,0,0.0,0.5074
30483,0,,,,,,,,0.04,-0.02,1.0,0,0,0,0.04,0,,,,,,,,,,,,,,,,,
30523,0,,,,,,,,0.04,-0.02,1.0,0,0,0,0.04,0,,,,,,,,,,,,,,,,,
30563,0,,,,,,,,0.04,-0.02,1.0,0,0,0,0.04,0,,,,,,,,,,,,,,,,,
30603,0,,,,,,,,0.04,-0.02,1.0,0,0,0,0.04,0,,,,,,,,,,,,,,,,,
30643,0,-0,2,46,54,32,37,-22,0.04,-0.02,1.0,0,0,0,0.04,0,0,0.0,0.0,0.0,0.0,0,0,0.0,0,0.0,-1,0.0,0.0,0.0,0,0.0,0.5107
30683,0,,,,,,,,0.04,-0.02,1.0,0,0,0,0.04,0,,,,,,,,,,,,,,,,,
30723,0,,,,,,,,0.04,-0.02,1.0,0,0,0,0.04,0,,,,,,,,,,,,,,,,,
30763,0,,,,,,,,0.04,-0.02,1.0,0,0,0,0.04,0,,,,,,,,,,,,,,,,,
30803,0,,,,,,,,0.04,-0.02,1.0,0,0,0,0.04,0,,,,,,,,,,,,,,,,,
30843,0,0,1,47,53,32,37,-21,0.04,-0.02,1.0,0,0,0,0.04,0,0,0.0,0.0,0.0,0.0,0,0,0.0,0,0.0,-1,0.0,0.0,0.0,0,0.0,0.514
30883,0,,,,,,,,0.04,-0.02,1.0,0,0,0,0.04,0,,,,,,,,,,,,,,,,,
30923,0,,,,,,,,0.04,-0.02,1.0,0,0,0,0.04,0,,,,,,,,,,,,,,,,,
30963,0,,,,,,,,0.04,-0.02,1.0,0,0,0,0.04,0,,,,,,,,,,,,,,,,,
31003,0,,,,,,,,0.04,-0.02,1.0,0,0,0,0.04,0,,,,,,,,,,,,,,,,,
31043,0,1,1,46,54,32,37,-21,0.04,-0.02,1.0,0,0,0,0.04,0,0,0.0,0.0,0.0,0.0,0,0,0.0,0,0.0,-1,0.0,0.0,0.0,0,0.0,0.5174
31083,0,,,,,,,,0.04,-0.02,1.0,0,0,0,0.04,0,,,,,,,,,,,,,,,,,
31123,0,,,,,,,,0.04,-0.02,1.0,0,0,0,0.04,0,,,,,,,,,,,,,,,,,
31163,0,,,,,,,,0.04,-0.02,1.0,0,0,0,0.04,0,,,,,,,,,,,,,,,,,
31203,0,,,,,,,,0.04,-0.02,1.0,0,0,0,0.04,0,,,,,,,,,,,,,,,,,
31243,0,1,2,46,54,32,37,-22,0.04,-0.02,1.0,0,0,0,0.04,0,0,0.0,0.0,0.0,0.0,0,0,0.0,0,0.0,-1,0.0,0.0,0.0,0,0.0,0.5207
31283,0,,,,,,,,0.04,-0.02,1.0,0,0,0,0.04,0,,,,,,,,,,,,,,,,,
31323,0,,,,,,,,0.04,-0.02,1.0,0,0,0,0.04,0,,,,,,,,,,,,,,,,,
31363,0,,,,,,,,0.04,-0.02,1.0,0,0,0,0.04,0,,,,,,,,,,,,,,,,,
31403,0,,,,,,,,0.04,-0.02,1.0,0,0,0,0.04,0,,,,,,,,,,,,,,,,,
31443,0,0,2,46,54,32,37,-22,0.04,-0.02,1.0,0,0,0,0.04,0,0,0.0,0.0,0.0,0.0,0,0,0.0,0,0.0,-1,0.0,0.0,0.0,0,0.0,0.524
31483,0,,,,,,,,0.04,-0.02,1.0,0,0,0,0.04,0,,,,,,,,,,,,,,,,,
31523,0,,,,,,,,0.04,-0.02,1.0,0,0,0,0.04,0,,,,,,,,,,,,,,,,,
31563,0,,,,,,,,0.04,-0.02,0.99,0,0,0,0.04,0,,,,,,,,,,,,,,,,,
31603,0,,,,,,,,0.04,-0.02,0.99,0,0,0,0.04,0,,,,,,,,,,,,,,,,,
31643,0,1,2,46,54,32,37,-22,0.04,-0.02,0.99,0,-0,0,0.04,0,0,0.0,0.0,0.0,0.0,0,0,0.0,0,0.0,-1,0.0,0.0,0.0,0,0.0,0.5274
31683,0,,,,,,,,0.04,-0.02,0.99,0,0,0,0.04,0,,,,,,,,,,,,,,,,,
31723,0,,,,,,,,0.04,-0.02,0.99,0,0,0,0.04,0,,,,,,,,,,,,,,,,,
31763,0,,,,,,,,0.04,-0.02,0.99,0,0,0,0.04,0,,,,,,,,,,,,,,,,,
31803,0,,,,,,,,0.04,-0.02,0.99,0,0,0,0.04,0,,,,,,,,,,,,,,,,,
31843,0,-0,2,47,53,32,37,-21,0.04,-0.02,1.0,0,0,0,0.04,0,0,0.0,0.0,0.0,0.0,0,0,0.0,0,0.0,-1,0.0,0.0,0.0,0,0.0,0.5307
31883,0,,,,,,,,0.04,-0.02,1.0,0,0,0,0.04,0,,,,,,,,,,,,,,,,,
31923,0,,,,,,,,0.04,-0.02,1.0,0,0,0,0.04,0,,,,,,,,,,,,,,,,,
31963,0,,,,,,,,0.04,-0.02,1.0,0,0,0,0.04,0,,,,,,,,,,,,,,,,,
32003,0,,,,,,,,0.04,-0.02,1.0,0,0,0,0.04,0,,,,,,,,,,,,,,,,,
32043,0,0,1,47,54,32,37,-21,0.04,-0.02,1.0,0,0,0,0.04,0,0,0.0,0.0,0.0,0.0,0,0,0.0,0,0.0,-1,0.0,0.0,0.0,0,0.0,0.534
32083,0,,,,,,,,0.04,-0.02,1.0,0,0,0,0.04,0,,,,,,,,,,,,,,,,,
32123,0,,,,,,,,0.04,-0.02,0.99,0,0,0,0.04,0,,,,,,,,,,,,,,,,,
32163,0,,,,,,,,0.04,-0.02,1.0,0,0,0,0.04,0,,,,,,,,,,,,,,,,,
32203,0,,,,,,,,0.04,-0.02,0.99,0,0,0,0.04,0,,,,,,,,,,,,,,,,,
32243,0,-0,2,47,53,32,37,-22,0.04,-0.02,0.99,0,0,0,0.04,0,0,0.0,0.0,0.0,0.0,0,0,0.0,0,0.0,-1,0.0,0.0,0.0,0,0.0,0.5374
32283,0,,,,,,,,0.04,-0.02,0.99,0,0,0,0.04,0,,,,,,,,,,,,,,,,,
32323,0,,,,,,,,0.04,-0.02,1.0,0,0,0,0.04,0,,,,,,,,,,,,,,,,,
32363,0,,,,,,,,0.04,-0.02,0.99,0,0,0,0.04,0,,,,,,,,,,,,,,,,,
32403,0,,,,,,,,0.04,-0.02,1.0,0,0,0,0.04,0,,,,,,,,,,,,,,,,,
32443,0,0,2,46,54,32,37,-21,0.04,-0.02,1.0,0,0,0,0.04,0,0,0.0,0.0,0.0,0.0,0,0,0.0,0,0.0,-1,0.0,0.0,0.0,0,0.0,0.5407
32483,0,,,,,,,,0.04,-0.02,1.0,0,0,0,0.04,0,,,,,,,,,,,,,,,,,
32523,0,,,,,,,,0.04,-0.02,1.0,0,0,0,0.04,0,,,,,,,,,,,,,,,,,
32563,0,,,,,,,,0.04,-0.02,1.0,0,0,0,0.04,0,,,,,,,,,,,,,,,,,
32603,0,,,,,,,,0.04,-0.02,1.0,0,0,0,0.04,0,,,,,,,,,,,,,,,,,
32643,0,-1,2,47,53,32,37,-21,0.04,-0.02,1.0,0,0,0,0.04,0,0,0.0,0.0,0.0,0.0,0,0,0.0,0,0.0,-1,0.0,0.0,0.0,0,0.0,0.544
32683,0,,,,,,,,0.04,-0.02,1.0,0,0,0,0.04,0,,,,,,,,,,,,,,,,,
32723,0,,,,,,,,0.04,-0.02,0.99,0,0,0,0.04,0,,,,,,,,,,,,,,,,,
32763,0,,,,,,,,0.04,-0.02,0.99,0,0,0,0.04,0,,,,,,,,,,,,,,,,,
32803,0,,,,,,,,0.04,-0.02,1.0,0,0,0,0.04,0,,,,,,,,,,,,,,,,,
32843,0,1,2,46,54,32,37,-22,0.04,-0.02,0.99,0,0,0,0.04,0,0,0.0,0.0,0.0,0.0,0,0,0.0,0,0.0,-1,0.0,0.0,0.0,0,0.0,0.5474
32883,0,,,,,,,,0.04,-0.02,1.0,0,0,0,0.04,0,,,,,,,,,,,,,,,,,
32923,0,,,,,,,,0.04,-0.02,1.0,0,0,0,0.04,0,,,,,,,,,,,,,,,,,
32963,0,,,,,,,,0.04,-0.02,1.0,0,0,0,0.04,0,,,,,,,,,,,,,,,,,
33003,0,,,,,,,,0.04,-0.02,1.0,0,0,0,0.04,0,,,,,,,,,,,,,,,,,
33043,0,0,1,47,54,32,37,-22,0.04,-0.02,1.0,0,0,0,0.04,0,0,0.0,0.0,0.0,0.0,0,0,0.0,0,0.0,-1,0.0,0.0,0.0,0,0.0,0.5507
33083,0,,,,,,,,0.04,-0.02,1.0,0,0,0,0.04,0,,,,,,,,,,,,,,,,,
33123,0,,,,,,,,0.04,-0.02,1.0,0,0,0,0.04,0,,,,,,,,,,,,,,,,,
33163,0,,,,,,,,0.04,-0.02,1.0,0,0,0,0.04,0,,,,,,,,,,,,,,,,,
33203,0,,,,,,,,0.04,-0.02,1.0,0,0,0,0.04,0,,,,,,,,,,,,,,,,,
33243,0,0,2,46,54,32,37,-21,0.04,-0.02,1.0,0,0,0,0.04,0,0,0.0,0.0,0.0,0.0,0,0,0.0,0,0.0,-1,0.0,0.0,0.0,0,0.0,0.5541
33283,0,,,,,,,,0.04,-0.02,1.0,0,0,0,0.04,0,,,,,,,,,,,,,,,,,
33323,0,,,,,,,,0.04,-0.02,1.0,0,0,0,0.04,0,,,,,,,,,,,,,,,,,
33363,0,,,,,,,,0.04,-0.02,1.0,0,0,0,0.04,0,,,,,,,,,,,,,,,,,
33403,0,,,,,,,,0.04,-0.02,1.0,0,0,0,0.04,0,,,,,,,,,,,,,,,,,
33443,0,0,2,47,53,32,37,-22,0.04,-0.02,1.0,0,0,0,0.04,0,0,0.0,0.0,0.0,0.0,0,0,0.0,0,0.0,-1,0.0,0.0,0.0,0,0.0,0.5574
33483,0,,,,,,,,0.04,-0.02,1.0,0,-0,0,0.04,0,,,,,,,,,,,,,,,,,
33523,0,,,,,,,,0.04,-0.02,0.99,0,-0,0,0.04,0,,,,,,,,,,,,,,,,,
33563,0,,,,,,,,0.04,-0.02,0.99,0,0,0,0.04,0,,,,,,,,,,,,,,,,,
33603,0,,,,,,,,0.04,-0.02,0.99,0,0,0,0.04,0,,,,,,,,,,,,,,,,,
33643,0,-1,2,47,53,32,36,-21,0.04,-0.02,1.0,0,0,0,0.04,0,0,0.0,0.0,0.0,0.0,0,0,0.0,0,0.0,-1,0.0,0.0,0.0,0,0.0,0.5607
33683,0,,,,,,,,0.04,-0.02,1.0,0,0,0,0.04,0,,,,,,,,,,,,,,,,,
33723,0,,,,,,,,0.04,-0.02,1.0,0,0,0,0.04,0,,,,,,,,,,,,,,,,,
33763,0,,,,,,,,0.04,-0.02,1.0,0,0,0,0.04,0,,,,,,,,,,,,,,,,,
33803,0,,,,,,,,0.04,-0.02,1.0,0,0,0,0.04,0,,,,,,,,,,,,,,,,,
33843,0,-1,1,47,53,32,37,-22,0.04,-0.02,0.99,0,0,0,0.04,0,0,0.0,0.0,0.0,0.0,0,0,0.0,0,0.0,-1,0.0,0.0,0.0,0,0.0,0.564
33883,0,,,,,,,,0.04,-0.02,1.0,0,-0,0,0.04,0,,,,,,,,,,,,,,,,,
33923,0,,,,,,,,0.03,-0.02,1.0,0,-0,0,0.04,0,,,,,,,,,,,,,,,,,
33963,0,,,,,,,,0.03,-0.02,0.99,0,-0,0,0.04,0,,,,,,,,,,,,,,,,,
34003,0,,,,,,,,0.03,-0.02,1.0,0,-0,0,0.04,0,,,,,,,,,,,,,,,,,
34043,0,0,0,46,53,32,37,-22,0.03,-0.02,1.01,0,-0,0,0.04,0,0,0.0,0.0,0.0,0.0,0,0,0.0,0,0.0,-1,0.0,0.0,0.0,0,0.0,0.5674
34083,0,,,,,,,,0.03,-0.03,1.0,0,-0,0,0.04,0,,,,,,,,,,,,,,,,,
34123,0,,,,,,,,0.04,-0.03,0.99,0,-0,0,0.05,0,,,,,,,,,,,,,,,,,
34163,0,,,,,,,,0.03,-0.03,0.98,0,-0,-0,0.04,0,,,,,,,,,,,,,,,,,
34203,0,,,,,,,,0.04,-0.02,0.99,0,0,0,0.05,0,,,,,,,,,,,,,,,,,
34243,0,1,0,47,53,32,37,-22,0.04,-0.02,0.95,0,-0,0,0.05,0,0,0.0,0.0,0.0,0.0,0,0,0.0,0,0.0,-1,0.0,0.0,0.0,0,0.0,0.5707
34283,0,,,,,,,,0.04,-0.02,0.98,0,0,0,0.05,0,,,,,,,,,,,,,,,,,
34323,0,,,,,,,,0.04,-0.03,0.98,0,0,0,0.05,0,,,,,,,,,,,,,,,,,
34363,0,,,,,,,,0.05,-0.02,0.98,0,-0,0,0.05,0,,,,,,,,,,,,,,,,,
34403,0,,,,,,,,0.04,-0.02,0.99,0,-0,0,0.04,0,,,,,,,,,,,,,,,,,
34443,0,0,1,47,54,32,37,-22,0.04,-0.01,0.98,0,-0,0,0.04,0,0,0.0,0.0,0.0,0.0,0,0,0.0,0,0.0,-1,0.0,0.0,0.0,0,0.0,0.574
34483,0,,,,,,,,0.04,-0.02,0.98,0,-0,0,0.05,0,,,,,,,,,,,,,,,,,
34523,0,,,,,,,,0.04,-0.02,0.97,0,-0,0,0.05,0,,,,,,,,,,,,,,,,,
34563,0,,,,,,,,0.05,-0.01,0.98,0,-0,0,0.05,0,,,,,,,,,,,,,,,,,
34603,0,,,,,,,,0.05,-0.02,0.97,0,0,0,0.05,0,,,,,,,,,,,,,,,,,
34643,0,0,2,46,54,32,37,-21,0.05,-0.02,1.0,0,0,0,0.05,0,0,0.0,0.0,0.0,0.0,0,0,0.0,0,0.0,-1,0.0,0.0,0.0,0,0.0,0.5774
34683,0,,,,,,,,0.03,-0.02,1.0,0,0,0,0.03,0,,,,,,,,,,,,,,,,,
34723,0,,,,,,,,0.03,-0.02,1.0,0,0,0,0.04,0,,,,,,,,,,,,,,,,,
34763,0,,,,,,,,0.03,-0.02,1.02,0,0,0,0.04,0,,,,,,,,,,,,,,,,,
34803,0,,,,,,,,0.03,-0.02,1.0,0,0,0,0.04,0,,,,,,,,,,,,,,,,,
34843,0,1,0,47,54,32,37,-22,0.05,-0.02,1.04,0,0,0,0.06,0,0,0.0,0.0,0.0,0.0,0,0,0.0,0,0.0,-1,0.0,0.0,0.0,0,0.0,0.5807
34883,0,,,,,,,,0.05,-0.02,1.02,0,0,0,0.06,0,,,,,,,,,,,,,,,,,
34923,0,,,,,,,,0.05,-0.02,1.03,0,0,0,0.06,0,,,,,,,,,,,,,,,,,
34963,0,,,,,,,,0.04,-0.02,1.03,0,1,0,0.05,0,,,,,,,,,,,,,,,,,
35003,0,,,,,,,,0.04,-0.03,1.04,0,0,0,0.05,0,,,,,,,,,,,,,,,,,
35043,0,1,2,46,54,32,37,-22,0.04,-0.03,1.02,0,0,0,0.05,0,0,0.0,0.0,0.0,0.0,0,0,0.0,0,0.0,-1,0.0,0.0,0.0,0,0.0,0.584
35083,0,,,,,,,,0.05,-0.03,1.02,0,0,0,0.05,0,,,,,,,,,,,,,,,,,
35123,0,,,,,,,,0.05,-0.02,1.02,0,0,0,0.06,0,,,,,,,,,,,,,,,,,
35163,0,,,,,,,,0.04,-0.03,1.0,0,0,0,0.05,0,,,,,,,,,,,,,,,,,
35203,0,,,,,,,,0.04,-0.03,1.03,0,0,0,0.05,0,,,,,,,,,,,,,,,,,
35243,0,-1,2,47,53,32,37,-21,0.04,-0.02,1.03,0,0,0,0.04,0,0,0.0,0.0,0.0,0.0,0,0,0.0,0,0.0,-1,0.0,0.0,0.0,0,0.0,0.5874
35283,0,,,,,,,,0.03,-0.02,1.03,0,0,0,0.04,0,,,,,,,,,,,,,,,,,
35323,0,,,,,,,,0.02,-0.03,1.02,0,0,0,0.04,0,,,,,,,,,,,,,,,,,
35363,0,,,,,,,,0.03,-0.02,1.03,0,-0,0,0.03,0,,,,,,,,,,,,,,,,,
35403,0,,,,,,,,0.03,-0.02,1.04,0,-0,0,0.03,0,,,,,,,,,,,,,,,,,
35443,0,-0,2,47,53,32,37,-22,0.03,-0.02,1.03,0,-0,0,0.04,0,0,0.0,0.0,0.0,0.0,0,0,0.0,0,0.0,-1,0.0,0.0,0.0,0,0.0,0.5907
35483,0,,,,,,,,0.03,-0.02,1.01,0,-0,0,0.04,0,,,,,,,,,,,,,,,,,
35523,0,,,,,,,,0.04,-0.02,1.03,0,-0,-0,0.04,0,,,,,,,,,,,,,,,,,
35563,0,,,,,,,,0.04,-0.02,1.04,0,0,-0,0.04,0,,,,,,,,,,,,,,,,,
35603,0,,,,,,,,0.03,-0.02,1.02,0,0,0,0.04,0,,,,,,,,,,,,,,,,,
35643,0,0,4,46,53,32,36,-22,0.03,-0.02,1.0,0,0,0,0.04,0,0,0.0,0.0,0.0,0.0,0,0,0.0,0,0.0,-1,0.0,0.0,0.0,0,0.0,0.594
35683,0,,,,,,,,0.04,-0.02,1.0,0,-0,0,0.04,0,,,,,,,,,,,,,,,,,
35723,0,,,,,,,,0.03,-0.01,1.02,0,-0,0,0.03,0,,,,,,,,,,,,,,,,,
35763,0,,,,,,,,0.03,-0.01,1.04,0,-0,0,0.03,0,,,,,,,,,,,,,,,,,
35803,0,,,,,,,,0.03,-0.01,1.08,0,-1,0,0.03,0,,,,,,,,,,,,,,,,,
35843,0,1,1,46,54,32,37,-21,0.03,-0.01,1.06,0,-1,0,0.03,0,0,0.0,0.0,0.0,0.0,0,0,0.0,0,0.0,-1,0.0,0.0,0.0,0,0.0,0.5974
35883,0,,,,,,,,0.03,-0.01,0.99,0,-0,0,0.03,0,,,,,,,,,,,,,,,,,
35923,0,,,,,,,,0.05,-0.01,0.92,0,-1,1,0.05,0,,,,,,,,,,,,,,,,,
35963,0,,,,,,,,0.01,-0.01,0.85,0,-1,0,0.01,0,,,,,,,,,,,,,,,,,
36003,0,,,,,,,,-0.02,0.0,0.84,0,-1,-0,0.02,0,,,,,,,,,,,,,,,,,
36043,0,0,2,47,54,32,36,-22,0.0,-0.03,0.84,0,-2,-0,0.03,0,0,0.0,0.0,0.0,0.0,0,0,0.0,0,0.0,-1,0.0,0.0,0.0,0,0.0,0.6007
36083,0,,,,,,,,0.12,-0.04,0.66,0,4,0,0.13,0,,,,,,,,,,,,,,,,,
36123,0,,,,,,,,0.23,-0.03,0.29,0,-29,3,0.23,0,,,,,,,,,,,,,,,,,
36163,0,,,,,,,,0.32,-0.06,0.09,0,-40,2,0.33,0,,,,,,,,,,,,,,,,,
36203,0,,,,,,,,0.32,-0.06,0.34,0,-38,0,0.32,0,,,,,,,,,,,,,,,,,
36243,0,1,2,47,54,32,37,-22,0.08,-0.03,0.26,0,-36,3,0.09,0,0,0.0,0.0,0.0,0.0,0,0,0.0,0,0.0,-1,0.0,0.0,0.0,0,0.0,0.604
36283,0,,,,,,,,0.01,-0.1,0.4,0,-15,-7,0.1,0,,,,,,,,,,,,,,,,,
36323,0,,,,,,,,-0.27,-0.1,0.16,1,-0,-9,0.28,0,,,,,,,,,,,,,,,,,
36363,0,,,,,,,,0.02,-0.11,0.51,0,7,-12,0.11,0,,,,,,,,,,,,,,,,,
36403,0,,,,,,,,-0.03,-0.1,0.4,0,5,-11,0.1,0,,,,,,,,,,,,,,,,,
36443,0,0,2,47,53,32,37,-21,0.05,-0.12,0.55,0,15,-11,0.14,0,0,0.0,0.0,0.0,0.0,0,0,0.0,0,0.0,-1,0.0,0.0,0.0,0,0.0,0.6074
36483,0,,,,,,,,0.08,-0.19,0.65,1,19,-10,0.2,0,,,,,,,,,,,,,,,,,
36523,0,,,,,,,,0.1,-0.01,0.51,1,17,-7,0.1,0,,,,,,,,,,,,,,,,,
36563,0,,,,,,,,0.16,-0.06,0.39,0,9,-6,0.17,0,,,,,,,,,,,,,,,,,
36603,0,,,,,,,,0.05,0.05,-0.05,0,4,-2,0.07,0,,,,,,,,,,,,,,,,,
36643,0,-1,0,47,54,32,37,-21,-0.06,0.07,-0.42,0,1,2,0.09,0,0,0.0,0.0,0.0,0.0,0,0,0.0,0,0.0,-1,0.0,0.0,0.0,0,0.0,0.6107
36683,0,,,,,,,,-0.13,-0.06,-0.32,-0,-3,3,0.14,0,,,,,,,,,,,,,,,,,
36723,0,,,,,,,,-0.03,-0.07,-0.19,0,1,-2,0.07,0,,,,,,,,,,,,,,,,,
36763,0,,,,,,,,-0.07,0.02,-0.53,0,-1,4,0.08,0,,,,,,,,,,,,,,,,,
36803,0,,,,,,,,-0.04,-0.04,-0.41,1,-1,4,0.06,0,,,,,,,,,,,,,,,,,
36843,0,-0,2,46,53,32,37,-21,-0.04,-0.12,-0.35,1,-0,4,0.13,0,0,0.0,0.0,0.0,0.0,0,0,0.0,0,0.0,-1,0.0,0.0,0.0,0,0.0,0.614
36883,0,,,,,,,,0.0,-0.1,-0.22,1,-1,2,0.1,0,,,,,,,,,,,,,,,,,
36923,0,,,,,,,,0.02,-0.1,-0.19,0,-2,2,0.1,0,,,,,,,,,,,,,,,,,
36963,0,,,,,,,,0.1,-0.1,0.06,1,3,-0,0.14,0,,,,,,,,,,,,,,,,,
37003,0,,,,,,,,0.16,-0.1,0.43,1,10,-1,0.19,0,,,,,,,,,,,,,,,,,
37043,0,1,2,47,53,32,37,-21,0.19,-0.1,-0.03,1,15,2,0.21,0,0,0.0,0.0,0.0,0.0,0,0,0.0,0,0.0,-1,0.0,0.0,0.0,0,0.0,0.6174
37083,0,,,,,,,,0.27,-0.1,-0.26,0,21,4,0.29,0,,,,,,,,,,,,,,,,,
37123,0,,,,,,,,0.42,-0.11,-0.5,1,26,4,0.43,0,,,,,,,,,,,,,,,,,
37163,0,,,,,,,,0.5,-0.16,-0.57,1,29,3,0.53,0,,,,,,,,,,,,,,,,,
37203,0,,,,,,,,0.45,-0.11,-0.53,1,29,4,0.47,0,,,,,,,,,,,,,,,,,
37243,0,-0,2,47,54,32,37,-21,0.42,-0.04,-0.41,1,23,5,0.42,0,0,0.0,0.0,0.0,0.0,0,0,0.0,0,0.0,-1,0.0,0.0,0.0,0,0.0,0.6207
37283,0,,,,,,,,0.31,0.0,-0.2,1,19,8,0.31,0,,,,,,,,,,,,,,,,,
37323,0,,,,,,,,0.27,-0.02,-0.37,1,13,7,0.27,0,,,,,,,,,,,,,,,,,
37363,0,,,,,,,,0.25,-0.05,0.03,1,13,6,0.26,0,,,,,,,,,,,,,,,,,
37403,0,,,,,,,,0.16,0.0,-0.24,0,8,6,0.16,0,,,,,,,,,,,,,,,,,
37443,0,1,0,47,53,32,37,-21,0.14,-0.09,0.15,1,11,1,0.16,0,0,0.0,0.0,0.0,0.0,0,0,0.0,0,0.0,-1,0.0,0.0,0.0,0,0.0,0.624
37483,0,,,,,,,,0.2,-0.2,0.5,1,12,-6,0.29,0,,,,,,,,,,,,,,,,,
37523,0,,,,,,,,0.21,-0.12,0.78,1,13,-9,0.24,0,,,,,,,,,,,,,,,,,
37563,0,,,,,,,,0.23,-0.24,1.01,1,14,-13,0.33,0,,,,,,,,,,,,,,,,,
37603,0,,,,,,,,0.19,-0.22,1.2,1,12,-14,0.3,0,,,,,,,,,,,,,,,,,
37643,0,-1,2,46,54,32,37,-21,0.09,-0.19,0.65,1,11,-12,0.21,0,0,0.0,0.0,0.0,0.0,0,0,0.0,0,0.0,-1,0.0,0.0,0.0,0,0.0,0.6274
37683,0,,,,,,,,0.03,-0.21,0.53,1,7,-8,0.21,0,,,,,,,,,,,,,,,,,
37723,0,,,,,,,,0.08,-0.11,0.81,1,8,-8,0.13,0,,,,,,,,,,,,,,,,,
37763,0,,,,,,,,-0.01,-0.1,0.59,0,5,-7,0.11,0,,,,,,,,,,,,,,,,,
37803,0,,,,,,,,0.06,-0.04,0.49,0,2,-3,0.07,0,,,,,,,,,,,,,,,,,
37843,0,0,1,46,54,32,36,-21,0.03,-0.05,0.38,0,2,-5,0.05,0,0,0.0,0.0,0.0,0.0,0,0,0.0,0,0.0,-1,0.0,0.0,0.0,0,0.0,0.6307
37883,0,,,,,,,,0.04,-0.13,0.47,0,0,-4,0.14,0,,,,,,,,,,,,,,,,,
37923,0,,,,,,,,-0.0,-0.1,0.15,-0,-0,-2,0.1,0,,,,,,,,,,,,,,,,,
37963,0,,,,,,,,0.11,-0.12,0.5,-0,2,-1,0.16,0,,,,,,,,,,,,,,,,,
38003,0,,,,,,,,-0.02,0.02,0.3,-0,-4,4,0.03,0,,,,,,,,,,,,,,,,,
38043,0,-1,2,47,54,32,37,-21,0.08,0.07,0.22,0,-3,4,0.11,0,0,0.0,0.0,0.0,0.0,0,0,0.0,0,0.0,-1,0.0,0.0,0.0,0,0.0,0.634
38083,0,,,,,,,,0.02,-0.07,0.56,-1,-5,2,0.07,0,,,,,,,,,,,,,,,,,
38123,0,,,,,,,,-0.06,-0.31,0.83,-0,-4,2,0.31,0,,,,,,,,,,,,,,,,,
38163,0,,,,,,,,-0.14,-0.44,1.06,0,-6,1,0.46,0,,,,,,,,,,,,,,,,,
38203,0,,,,,,,,-0.16,-0.23,0.47,0,-7,0,0.28,0,,,,,,,,,,,,,,,,,
38243,0,-1,2,47,54,32,37,-21,-0.14,-0.12,0.36,0,-4,-0,0.18,0,0,0.0,0.0,0.0,0.0,0,0,0.0,0,0.0,-1,0.0,0.0,0.0,0,0.0,0.6374
38283,0,,,,,,,,-0.09,-0.13,0.42,0,-5,2,0.16,0,,,,,,,,,,,,,,,,,
38323,0,,,,,,,,-0.13,-0.13,0.21,0,-7,5,0.18,0,,,,,,,,,,,,,,,,,
38363,0,,,,,,,,-0.12,-0.12,0.55,0,-6,4,0.17,0,,,,,,,,,,,,,,,,,
38403,0,,,,,,,,-0.1,-0.07,0.1,0,-6,4,0.12,0,,,,,,,,,,,,,,,,,
38443,0,-1,2,47,54,32,37,-21,0.01,-0.12,0.46,0,-3,4,0.12,0,0,0.0,0.0,0.0,0.0,0,0,0.0,0,0.0,-1,0.0,0.0,0.0,0,0.0,0.6407
38483,0,,,,,,,,0.01,-0.11,0.75,0,1,4,0.11,0,,,,,,,,,,,,,,,,,
38523,0,,,,,,,,0.03,-0.16,0.31,0,8,3,0.16,0,,,,,,,,,,,,,,,,,
38563,0,,,,,,,,0.13,-0.12,0.23,0,7,5,0.18,0,,,,,,,,,,,,,,,,,
38603,0,,,,,,,,0.04,-0.05,0.16,0,7,3,0.07,0,,,,,,,,,,,,,,,,,
38643,0,0,1,47,53,32,37,-21,0.1,-0.06,0.46,0,6,-0,0.11,0,0,0.0,0.0,0.0,0.0,0,0,0.0,0,0.0,-1,0.0,0.0,0.0,0,0.0,0.644
38683,0,,,,,,,,-0.02,-0.08,0.28,0,4,3,0.09,0,,,,,,,,,,,,,,,,,
38723,0,,,,,,,,0.12,-0.12,0.19,0,11,1,0.17,0,,,,,,,,,,,,,,,,,
38763,0,,,,,,,,0.26,-0.13,0.16,-0,14,2,0.3,0,,,,,,,,,,,,,,,,,
38803,0,,,,,,,,0.22,-0.04,0.15,-0,13,1,0.23,0,,,,,,,,,,,,,,,,,
38843,0,0,1,47,54,32,36,-20,0.22,-0.02,0.5,-0,11,-3,0.22,0,0,0.0,0.0,0.0,0.0,0,0,0.0,0,0.0,-1,0.0,0.0,0.0,0,0.0,0.6474
38883,0,,,,,,,,0.18,0.11,0.38,-0,9,-1,0.21,0,,,,,,,,,,,,,,,,,
38923,0,,,,,,,,0.07,0.05,-0.07,0,4,4,0.09,0,,,,,,,,,,,,,,,,,
38963,0,,,,,,,,0.02,0.1,-0.07,-0,3,2,0.1,0,,,,,,,,,,,,,,,,,
39003,0,,,,,,,,-0.05,0.13,-0.08,-0,-0,4,0.14,0,,,,,,,,,,,,,,,,,
39043,0,0,2,46,54,32,37,-21,-0.05,0.14,0.07,-0,0,4,0.15,0,0,0.0,0.0,0.0,0.0,0,0,0.0,0,0.0,-1,0.0,0.0,0.0,0,0.0,0.6507
39083,0,,,,,,,,-0.11,0.15,-0.03,0,1,5,0.18,0,,,,,,,,,,,,,,,,,
39123,0,,,,,,,,-0.01,0.09,-0.03,1,1,3,0.09,0,,,,,,,,,,,,,,,,,
39163,0,,,,,,,,0.03,0.05,-0.07,1,5,2,0.06,0,,,,,,,,,,,,,,,,,
39203,0,,,,,,,,0.13,0.03,0.12,1,10,2,0.13,0,,,,,,,,,,,,,,,,,
39243,0,1,0,47,54,32,36,-21,0.16,0.01,-0.2,1,13,5,0.16,0,0,0.0,0.0,0.0,0.0,0,0,0.0,0,0.0,-1,0.0,0.0,0.0,0,0.0,0.654
39283,0,,,,,,,,0.27,-0.03,0.03,1,17,3,0.28,0,,,,,,,,,,,,,,,,,
39323,0,,,,,,,,0.24,-0.05,0.04,1,11,1,0.24,0,,,,,,,,,,,,,,,,,
39363,0,,,,,,,,0.24,-0.03,0.05,1,10,0,0.24,0,,,,,,,,,,,,,,,,,
39403,0,,,,,,,,0.2,0.02,0.02,1,1,4,0.2,0,,,,,,,,,,,,,,,,,
39443,0,0,2,46,54,32,37,-22,0.19,0.04,0.04,1,-1,6,0.19,0,0,0.0,0.0,0.0,0.0,0,0,0.0,0,0.0,-1,0.0,0.0,0.0,0,0.0,0.6574
39483,0,,,,,,,,0.23,-0.06,0.41,0,9,-4,0.24,0,,,,,,,,,,,,,,,,,
39523,0,,,,,,,,0.18,-0.07,0.49,0,13,-11,0.19,0,,,,,,,,,,,,,,,,,
39563,0,,,,,,,,0.13,-0.01,0.11,0,5,-2,0.13,0,,,,,,,,,,,,,,,,,
39603,0,,,,,,,,0.04,-0.02,0.12,-0,5,-5,0.04,0,,,,,,,,,,,,,,,,,
39643,0,-1,2,47,53,32,37,-21,0.05,0.06,-0.03,0,4,-0,0.08,0,0,0.0,0.0,0.0,0.0,0,0,0.0,0,0.0,-1,0.0,0.0,0.0,0,0.0,0.6607
39683,0,,,,,,,,0.18,-0.01,0.36,-0,15,-8,0.18,0,,,,,,,,,,,,,,,,,
39723,0,,,,,,,,0.18,0.0,0.27,0,4,0,0.18,0,,,,,,,,,,,,,,,,,
39763,0,,,,,,,,0.18,-0.02,0.24,1,15,-10,0.18,0,,,,,,,,,,,,,,,,,
39803,0,,,,,,,,0.11,0.02,0.21,1,9,-9,0.11,0,,,,,,,,,,,,,,,,,
39843,0,0,1,47,54,32,37,-21,0.11,0.01,0.19,-0,-3,-2,0.11,0,0,0.0,0.0,0.0,0.0,0,0,0.0,0,0.0,-1,0.0,0.0,0.0,0,0.0,0.664
39883,0,,,,,,,,-0.12,0.01,0.13,-1,-11,0,0.13,0,,,,,,,,,,,,,,,,,
39923,0,,,,,,,,0.15,-0.06,0.13,1,-1,-2,0.16,0,,,,,,,,,,,,,,,,,
39963,0,,,,,,,,0.43,0.04,0.48,0,21,-15,0.43,0,,,,,,,,,,,,,,,,,
40003,0,,,,,,,,0.66,0.08,0.77,1,29,-18,0.66,0,,,,,,,,,,,,,,,,,
40043,0,1,1,46,54,32,37,-21,0.49,0.03,0.64,0,24,-14,0.49,0,0,0.0,0.0,0.0,0.0,0,0,0.0,0,0.0,-1,0.0,0.0,0.0,0,0.0,0.6674
40083,0,,,,,,,,0.49,0.03,0.59,1,19,-12,0.49,0,,,,,,,,,,,,,,,,,
40123,0,,,,,,,,0.12,0.01,0.47,0,12,-8,0.12,0,,,,,,,,,,,,,,,,,
40163,0,,,,,,,,-0.04,0.05,0.74,1,-11,-4,0.06,0,,,,,,,,,,,,,,,,,
40203,0,,,,,,,,0.35,0.05,0.24,1,-30,-2,0.35,0,,,,,,,,,,,,,,,,,
40243,0,0,2,46,54,32,37,-22,0.66,-0.03,-0.19,1,-14,-3,0.67,0,0,0.0,0.0,0.0,0.0,0,0,0.0,0,0.0,-1,0.0,0.0,0.0,0,0.0,0.6707
40283,0,,,,,,,,0.45,-0.05,-0.28,1,13,-5,0.45,0,,,,,,,,,,,,,,,,,
40323,0,,,,,,,,0.27,-0.02,0.15,0,6,-3,0.27,0,,,,,,,,,,,,,,,,,
40363,0,,,,,,,,0.31,-0.03,0.25,0,11,-4,0.31,0,,,,,,,,,,,,,,,,,
40403,0,,,,,,,,0.21,-0.0,0.4,0,4,-2,0.21,0,,,,,,,,,,,,,,,,,
40443,0,0,1,47,54,32,37,-21,0.04,-0.01,0.32,0,7,-3,0.04,0,0,0.0,0.0,0.0,0.0,0,0,0.0,0,0.0,-1,0.0,0.0,0.0,0,0.0,0.674
40483,0,,,,,,,,0.19,-0.03,0.58,0,9,-4,0.19,0,,,,,,,,,,,,,,,,,
40523,0,,,,,,,,0.17,-0.05,0.52,0,5,-1,0.18,0,,,,,,,,,,,,,,,,,
40563,0,,,,,,,,0.14,-0.03,0.46,0,2,-0,0.14,0,,,,,,,,,,,,,,,,,
40603,0,,,,,,,,0.12,-0.02,0.4,0,3,-1,0.12,0,,,,,,,,,,,,,,,,,
40643,0,1,0,47,54,32,37,-20,-0.03,-0.09,0.21,0,5,-2,0.09,0,0,0.0,0.0,0.0,0.0,0,0,0.0,0,0.0,-1,0.0,0.0,0.0,0,0.0,0.6774
40683,0,,,,,,,,0.16,0.01,0.55,0,-1,1,0.16,0,,,,,,,,,,,,,,,,,
40723,0,,,,,,,,-0.18,-0.09,0.06,0,-9,7,0.2,0,,,,,,,,,,,,,,,,,
40763,0,,,,,,,,-0.53,-0.19,-0.33,0,-17,10,0.56,0,,,,,,,,,,,,,,,,,
40803,0,,,,,,,,-0.26,-0.16,-0.25,1,-20,13,0.3,0,,,,,,,,,,,,,,,,,
40843,0,1,2,46,54,32,37,-22,-0.22,-0.21,-0.18,1,-6,7,0.3,0,0,0.0,0.0,0.0,0.0,0,0,0.0,0,0.0,-1,0.0,0.0,0.0,0,0.0,0.6807
40883,0,,,,,,,,-0.17,-0.19,-0.53,2,-18,20,0.25,0,,,,,,,,,,,,,,,,,
40923,0,,,,,,,,-0.04,-0.17,-0.41,1,-18,22,0.18,0,,,,,,,,,,,,,,,,,
40963,0,,,,,,,,0.0,-0.14,-0.35,1,-15,15,0.14,0,,,,,,,,,,,,,,,,,
41003,0,,,,,,,,0.08,-0.18,-0.29,1,-6,13,0.2,0,,,,,,,,,,,,,,,,,
41043,0,-1,2,47,53,32,37,-22,0.21,-0.16,-0.62,1,-0,12,0.27,0,0,0.0,0.0,0.0,0.0,0,0,0.0,0,0.0,-1,0.0,0.0,0.0,0,0.0,0.684
41083,0,,,,,,,,0.31,-0.2,-0.48,1,6,9,0.37,0,,,,,,,,,,,,,,,,,
41123,0,,,,,,,,0.2,-0.15,-0.43,1,5,8,0.25,0,,,,,,,,,,,,,,,,,
41163,0,,,,,,,,0.13,-0.15,0.03,1,2,5,0.2,0,,,,,,,,,,,,,,,,,
41203,0,,,,,,,,0.13,-0.12,0.14,1,3,6,0.18,0,,,,,,,,,,,,,,,,,
41243,0,-1,2,47,53,32,37,-23,0.11,-0.07,0.22,1,7,4,0.13,0,0,0.0,0.0,0.0,0.0,0,0,0.0,0,0.0,-1,0.0,0.0,0.0,0,0.0,0.6874
41283,0,,,,,,,,0.03,-0.05,0.27,1,2,4,0.06,0,,,,,,,,,,,,,,,,,
41323,0,,,,,,,,0.1,-0.03,0.6,1,0,1,0.1,0,,,,,,,,,,,,,,,,,
41363,0,,,,,,,,0.1,0.02,0.82,1,-2,-3,0.11,0,,,,,,,,,,,,,,,,,
41403,0,,,,,,,,0.02,0.05,0.65,1,-8,-1,0.05,0,,,,,,,,,,,,,,,,,
41443,0,-1,2,47,54,32,37,-25,-0.05,0.02,0.7,1,-10,-2,0.05,0,0,0.0,0.0,0.0,0.0,0,0,0.0,0,0.0,-1,0.0,0.0,0.0,0,0.0,0.6907
41483,0,,,,,,,,-0.1,0.04,0.54,1,-8,1,0.11,0,,,,,,,,,,,,,,,,,
41523,0,,,,,,,,0.01,0.03,0.42,1,-2,0,0.03,0,,,,,,,,,,,,,,,,,
41563,0,,,,,,,,-0.03,0.05,0.32,0,-6,1,0.06,0,,,,,,,,,,,,,,,,,
41603,0,,,,,,,,0.02,-0.01,0.24,0,-4,-1,0.03,0,,,,,,,,,,,,,,,,,
41643,0,0,1,47,54,32,37,-25,0.03,-0.05,0.28,0,-1,-3,0.06,0,0,0.0,0.0,0.0,0.0,0,0,0.0,0,0.0,-1,0.0,0.0,0.0,0,0.0,0.694
41683,0,,,,,,,,0.03,-0.0,0.21,0,-6,0,0.03,0,,,,,,,,,,,,,,,,,
41723,0,,,,,,,,0.03,0.0,0.19,1,-6,1,0.03,0,,,,,,,,,,,,,,,,,
41763,0,,,,,,,,-0.01,-0.01,0.13,0,-1,-3,0.01,0,,,,,,,,,,,,,,,,,
41803,0,,,,,,,,0.02,0.01,0.37,0,2,-3,0.02,0,,,,,,,,,,,,,,,,,
41843,0,0,1,47,54,32,37,-25,0.01,0.02,0.11,0,-1,-1,0.02,0,0,0.0,0.0,0.0,0.0,0,0,0.0,0,0.0,-1,0.0,0.0,0.0,0,0.0,0.6974
41883,0,,,,,,,,-0.03,0.07,0.47,0,-4,-3,0.07,0,,,,,,,,,,,,,,,,,
41923,0,,,,,,,,-0.07,0.1,0.76,1,1,-7,0.12,0,,,,,,,,,,,,,,,,,
41963,0,,,,,,,,-0.02,0.1,0.99,1,8,-10,0.1,0,,,,,,,,,,,,,,,,,
42003,0,,,,,,,,-0.01,0.1,1.18,1,14,-13,0.1,0,,,,,,,,,,,,,,,,,
42043,0,0,2,47,54,32,37,-25,0.02,0.06,0.84,1,16,-9,0.06,0,0,0.0,0.0,0.0,0.0,0,0,0.0,0,0.0,-1,0.0,0.0,0.0,0,0.0,0.7007
42083,0,,,,,,,,0.16,0.01,0.95,0,20,-9,0.16,0,,,,,,,,,,,,,,,,,
42123,0,,,,,,,,0.12,0.05,0.39,0,11,-5,0.13,0,,,,,,,,,,,,,,,,,
42163,0,,,,,,,,0.0,0.04,0.69,0,4,-6,0.04,0,,,,,,,,,,,,,,,,,
42203,0,,,,,,,,0.04,0.02,0.6,0,6,-4,0.04,0,,,,,,,,,,,,,,,,,
42243,0,0,0,47,54,32,37,-25,0.07,0.01,0.47,0,7,-3,0.08,0,0,0.0,0.0,0.0,0.0,0,0,0.0,0,0.0,-1,0.0,0.0,0.0,0,0.0,0.704
42283,0,,,,,,,,0.05,-0.01,0.76,0,3,-4,0.05,0,,,,,,,,,,,,,,,,,
42323,0,,,,,,,,0.01,-0.06,0.75,0,5,-4,0.06,0,,,,,,,,,,,,,,,,,
42363,0,,,,,,,,0.01,-0.06,0.63,0,1,-2,0.06,0,,,,,,,,,,,,,,,,,
42403,0,,,,,,,,0.03,-0.03,0.22,0,4,-6,0.04,0,,,,,,,,,,,,,,,,,
42443,0,-1,2,47,54,32,37,-26,-0.05,-0.01,-0.2,1,-9,5,0.05,0,0,0.0,0.0,0.0,0.0,0,0,0.0,0,0.0,-1,0.0,0.0,0.0,0,0.0,0.7074
42483,0,,,,,,,,-0.19,-0.04,-0.54,0,-7,2,0.19,0,,,,,,,,,,,,,,,,,
42523,0,,,,,,,,-0.18,-0.04,-0.53,0,8,-12,0.18,0,,,,,,,,,,,,,,,,,
42563,0,,,,,,,,-0.19,-0.06,-0.53,-0,14,-20,0.2,0,,,,,,,,,,,,,,,,,
42603,0,,,,,,,,-0.19,0.02,-0.81,-0,8,-13,0.19,0,,,,,,,,,,,,,,,,,
42643,0,0,3,47,54,32,37,-26,-0.13,-0.01,-0.35,0,7,-9,0.13,0,0,0.0,0.0,0.0,0.0,0,0,0.0,0,0.0,-1,0.0,0.0,0.0,0,0.0,0.7107
42683,0,,,,,,,,-0.09,0.01,-0.27,0,6,-7,0.09,0,,,,,,,,,,,,,,,,,
42723,0,,,,,,,,-0.08,-0.04,-0.6,0,9,-5,0.09,0,,,,,,,,,,,,,,,,,
42763,0,,,,,,,,0.01,-0.1,-0.84,0,10,-3,0.1,0,,,,,,,,,,,,,,,,,
42803,0,,,,,,,,0.13,-0.1,-0.49,0,13,-3,0.17,0,,,,,,,,,,,,,,,,,
42843,0,-0,2,47,54,32,37,-26,0.08,-0.0,-0.42,1,8,3,0.08,0,0,0.0,0.0,0.0,0.0,0,0,0.0,0,0.0,-1,0.0,0.0,0.0,0,0.0,0.714
42883,0,,,,,,,,0.13,-0.16,0.04,1,8,-0,0.21,0,,,,,,,,,,,,,,,,,
42923,0,,,,,,,,0.06,-0.01,-0.09,1,8,1,0.06,0,,,,,,,,,,,,,,,,,
42963,0,,,,,,,,0.05,0.02,-0.46,0,3,6,0.06,0,,,,,,,,,,,,,,,,,
43003,0,,,,,,,,0.04,-0.18,-0.2,0,3,5,0.18,0,,,,,,,,,,,,,,,,,
43043,0,0,2,47,54,32,37,-26,0.08,-0.17,0.22,0,5,1,0.18,0,0,0.0,0.0,0.0,0.0,0,0,0.0,0,0.0,-1,0.0,0.0,0.0,0,0.0,0.7174
43083,0,,,,,,,,0.08,-0.12,0.56,0,7,-3,0.14,0,,,,,,,,,,,,,,,,,
43123,0,,,,,,,,0.01,0.02,0.09,1,3,2,0.02,0,,,,,,,,,,,,,,,,,
43163,0,,,,,,,,0.02,-0.06,0.01,0,-0,2,0.06,0,,,,,,,,,,,,,,,,,
43203,0,,,,,,,,0.2,-0.1,0.39,0,4,-3,0.23,0,,,,,,,,,,,,,,,,,
43243,0,-0,2,47,54,32,37,-26,0.17,-0.11,0.47,0,3,-2,0.2,0,0,0.0,0.0,0.0,0.0,0,0,0.0,0,0.0,-1,0.0,0.0,0.0,0,0.0,0.7207
43283,0,,,,,,,,0.08,0.06,-0.0,0,-0,3,0.1,0,,,,,,,,,,,,,,,,,
43323,0,,,,,,,,0.06,0.01,0.02,0,-0,3,0.06,0,,,,,,,,,,,,,,,,,
43363,0,,,,,,,,0.1,-0.17,0.39,0,3,-2,0.2,0,,,,,,,,,,,,,,,,,
43403,0,,,,,,,,0.2,-0.05,0.7,1,6,-5,0.21,0,,,,,,,,,,,,,,,,,
43443,0,-0,2,47,54,32,37,-27,0.32,-0.11,0.94,1,8,-9,0.34,0,0,0.0,0.0,0.0,0.0,0,0,0.0,0,0.0,-1,0.0,0.0,0.0,0,0.0,0.724
43483,0,,,,,,,,0.41,0.01,1.14,1,10,-11,0.41,0,,,,,,,,,,,,,,,,,
43523,0,,,,,,,,0.46,-0.08,1.31,1,11,-14,0.47,0,,,,,,,,,,,,,,,,,
43563,0,,,,,,,,0.39,-0.1,1.44,1,11,-14,0.4,0,,,,,,,,,,,,,,,,,
43603,0,,,,,,,,0.27,0.02,0.78,1,4,-5,0.27,0,,,,,,,,,,,,,,,,,
43643,0,1,2,47,54,32,37,-31,0.29,-0.01,1.01,1,3,-6,0.29,0,0,0.0,0.0,0.0,0.0,0,0,0.0,0,0.0,-1,0.0,0.0,0.0,0,0.0,0.7274
43683,0,,,,,,,,0.22,0.04,0.49,2,3,-2,0.22,0,,,,,,,,,,,,,,,,,
43723,0,,,,,,,,0.18,0.08,0.38,2,0,-2,0.2,0,,,,,,,,,,,,,,,,,
43763,0,,,,,,,,0.17,0.08,0.29,2,-2,1,0.19,0,,,,,,,,,,,,,,,,,
43803,0,,,,,,,,0.17,0.03,0.01,2,-3,3,0.18,0,,,,,,,,,,,,,,,,,
43843,0,1,2,47,54,32,37,-35,0.23,0.0,0.16,2,-1,1,0.23,0,0,0.0,0.0,0.0,0.0,0,0,0.0,0,0.0,-1,0.0,0.0,0.0,0,0.0,0.7307
43883,0,,,,,,,,0.21,-0.01,0.11,3,-3,2,0.21,0,,,,,,,,,,,,,,,,,
43923,0,,,,,,,,0.24,-0.07,0.1,3,2,-0,0.25,0,,,,,,,,,,,,,,,,,
43963,0,,,,,,,,0.3,-0.07,0.17,4,2,0,0.31,0,,,,,,,,,,,,,,,,,
44003,0,,,,,,,,0.21,-0.04,0.11,4,-1,2,0.21,0,,,,,,,,,,,,,,,,,
44043,0,-0,2,48,54,32,37,-39,0.09,-0.01,0.06,4,-4,3,0.09,0,0,0.0,0.0,0.0,0.0,0,0,0.0,0,0.0,-1,0.0,0.0,0.0,0,0.0,0.734
44083,0,,,,,,,,0.07,0.05,0.14,4,-8,1,0.09,0,,,,,,,,,,,,,,,,,
44123,0,,,,,,,,0.13,0.1,0.4,5,-10,-1,0.16,0,,,,,,,,,,,,,,,,,
44163,0,,,,,,,,0.19,0.14,0.6,5,-10,-3,0.24,0,,,,,,,,,,,,,,,,,
44203,0,,,,,,,,0.18,0.18,0.52,6,-11,-3,0.25,0,,,,,,,,,,,,,,,,,
44243,0,-1,2,48,54,31,36,-41,0.02,0.12,0.33,6,-17,2,0.12,0,0,0.0,0.0,0.0,0.0,0,0,0.0,0,0.0,-1,0.0,0.0,0.0,0,0.0,0.7374
44283,0,,,,,,,,-0.0,0.12,0.64,7,-17,1,0.12,0,,,,,,,,,,,,,,,,,
44323,0,,,,,,,,0.1,0.15,0.57,7,-9,2,0.18,0,,,,,,,,,,,,,,,,,
44363,0,,,,,,,,0.21,0.16,0.44,8,-5,3,0.26,0,,,,,,,,,,,,,,,,,
44403,0,,,,,,,,0.24,0.13,0.34,9,-7,3,0.27,0,,,,,,,,,,,,,,,,,
44443,0,1,3,48,55,30,35,-46,0.3,0.11,0.29,10,0,-1,0.32,0,0,0.0,0.0,0.0,0.0,0,0,0.0,0,0.0,-1,0.0,0.0,0.0,0,0.0,0.7407
44483,0,,,,,,,,0.45,0.09,0.62,11,13,-13,0.46,0,,,,,,,,,,,,,,,,,
44523,0,,,,,,,,0.47,0.12,0.48,12,-7,3,0.48,0,,,,,,,,,,,,,,,,,
44563,0,,,,,,,,0.47,0.06,0.37,15,1,-3,0.48,0,,,,,,,,,,,,,,,,,
44603,0,,,,,,,,0.66,0.1,0.68,16,6,-5,0.66,0,,,,,,,,,,,,,,,,,
44643,0,-0,2,50,56,29,35,-48,0.34,0.05,0.48,18,22,-15,0.34,0,0,0.0,0.0,0.0,0.0,0,0,0.0,0,0.0,-1,0.0,0.0,0.0,0,0.0,0.7441
44683,0,,,,,,,,0.46,0.16,0.77,20,25,-15,0.48,0,,,,,,,,,,,,,,,,,
44723,0,,,,,,,,0.5,0.12,0.67,22,16,-10,0.52,0,,,,,,,,,,,,,,,,,
44763,0,,,,,,,,0.51,0.12,0.93,24,22,-10,0.52,0,,,,,,,,,,,,,,,,,
44803,0,,,,,,,,0.5,0.08,1.13,25,41,-9,0.51,0,,,,,,,,,,,,,,,,,
44843,0,0,2,52,56,28,35,-47,0.66,0.09,0.74,25,45,-8,0.66,0,0,0.0,0.0,0.0,0.0,0,0,0.0,0,0.0,-1,0.0,0.0,0.0,0,0.0,0.7474
44883,0,,,,,,,,0.7,0.14,0.51,26,37,-6,0.71,0,,,,,,,,,,,,,,,,,
44923,0,,,,,,,,0.6,0.18,0.61,26,29,-4,0.63,0,,,,,,,,,,,,,,,,,
44963,0,,,,,,,,0.52,0.17,0.73,27,24,-3,0.55,0,,,,,,,,,,,,,,,,,
45003,0,,,,,,,,0.4,0.19,0.73,27,20,-2,0.44,0,,,,,,,,,,,,,,,,,
45043,0,0,1,50,54,31,38,-45,0.27,0.19,0.89,28,16,-1,0.33,0,0,0.0,0.0,0.0,0.0,0,0,0.0,0,0.0,-1,0.0,0.0,0.0,0,0.0,0.7507
45083,0,,,,,,,,0.22,0.18,1.03,28,12,-1,0.28,0,,,,,,,,,,,,,,,,,
45123,0,,,,,,,,0.16,0.2,1.02,28,10,-1,0.25,0,,,,,,,,,,,,,,,,,
45163,0,,,,,,,,0.12,0.2,0.95,28,8,0,0.23,0,,,,,,,,,,,,,,,,,
45203,0,,,,,,,,0.06,0.16,0.96,28,8,-0,0.17,0,,,,,,,,,,,,,,,,,
45243,0,0,1,48,53,32,38,-44,0.04,0.17,1.0,28,6,-0,0.18,0,0,0.0,0.0,0.0,0.0,0,0,0.0,0,0.0,-1,0.0,0.0,0.0,0,0.0,0.754
45283,0,,,,,,,,-0.0,0.18,0.99,28,4,1,0.18,0,,,,,,,,,,,,,,,,,
45323,0,,,,,,,,-0.04,0.16,1.05,28,4,1,0.17,0,,,,,,,,,,,,,,,,,
45363,0,,,,,,,,-0.05,0.17,1.09,27,2,1,0.18,0,,,,,,,,,,,,,,,,,
45403,0,,,,,,,,-0.06,0.19,1.07,27,2,1,0.19,0,,,,,,,,,,,,,,,,,
45443,0,-1,2,49,52,33,38,-40,-0.05,0.17,1.1,27,1,1,0.18,0,0,0.0,0.0,0.0,0.0,0,0,0.0,0,0.0,-1,0.0,0.0,0.0,0,0.0,0.7574
45483,0,,,,,,,,-0.03,0.16,1.18,26,1,1,0.17,0,,,,,,,,,,,,,,,,,
45523,0,,,,,,,,-0.04,0.17,1.05,26,1,2,0.18,0,,,,,,,,,,,,,,,,,
45563,0,,,,,,,,-0.03,0.17,1.08,26,0,1,0.17,0,,,,,,,,,,,,,,,,,
45603,0,,,,,,,,0.01,0.16,1.19,25,-0,1,0.16,0,,,,,,,,,,,,,,,,,
45643,0,-1,2,48,53,32,38,-34,0.06,0.16,1.24,25,-0,1,0.17,0,0,0.0,0.0,0.0,0.0,0,0,0.0,0,0.0,-1,0.0,0.0,0.0,0,0.0,0.7607
45683,0,,,,,,,,0.07,0.13,1.0,24,-0,2,0.15,0,,,,,,,,,,,,,,,,,
45723,0,,,,,,,,0.07,0.1,0.95,23,0,1,0.12,0,,,,,,,,,,,,,,,,,
45763,0,,,,,,,,0.12,0.1,1.1,22,1,1,0.15,0,,,,,,,,,,,,,,,,,
45803,0,,,,,,,,0.16,0.09,1.07,21,1,1,0.18,0,,,,,,,,,,,,,,,,,
45843,0,-1,2,49,54,31,37,-25,0.13,0.09,1.05,20,2,1,0.16,0,0,0.0,0.0,0.0,0.0,0,0,0.0,0,0.0,-1,0.0,0.0,0.0,0,0.0,0.764
45883,0,,,,,,,,0.14,0.09,0.95,20,1,1,0.17,0,,,,,,,,,,,,,,,,,
45923,0,,,,,,,,0.11,0.11,0.81,19,0,1,0.15,0,,,,,,,,,,,,,,,,,
45963,0,,,,,,,,0.18,0.12,0.88,18,1,1,0.21,0,,,,,,,,,,,,,,,,,
46003,0,,,,,,,,0.19,0.14,0.9,18,0,1,0.24,0,,,,,,,,,,,,,,,,,
46043,0,0,1,49,54,31,36,-25,0.22,0.17,0.99,18,0,0,0.27,0,0,0.0,0.0,0.0,0.0,0,0,0.0,0,0.0,-1,0.0,0.0,0.0,0,0.0,0.7674
46083,0,,,,,,,,0.19,0.15,1.12,17,1,-0,0.24,0,,,,,,,,,,,,,,,,,
46123,0,,,,,,,,0.19,0.16,1.15,17,0,0,0.25,0,,,,,,,,,,,,,,,,,
46163,0,,,,,,,,0.2,0.15,1.04,17,-1,1,0.25,0,,,,,,,,,,,,,,,,,
46203,0,,,,,,,,0.24,0.12,1.02,17,-1,1,0.27,0,,,,,,,,,,,,,,,,,
46243,0,0,1,49,54,31,37,-24,0.22,0.12,1.04,17,0,1,0.25,0,0,0.0,0.0,0.0,0.0,0,0,0.0,0,0.0,-1,0.0,0.0,0.0,0,0.0,0.7707
46283,0,,,,,,,,0.21,0.12,0.96,17,2,1,0.24,0,,,,,,,,,,,,,,,,,
46323,0,,,,,,,,0.19,0.12,0.76,18,1,2,0.23,0,,,,,,,,,,,,,,,,,
46363,0,,,,,,,,0.27,0.14,0.81,18,2,1,0.3,0,,,,,,,,,,,,,,,,,
46403,0,,,,,,,,0.27,0.16,0.83,18,1,1,0.32,0,,,,,,,,,,,,,,,,,
46443,0,1,2,49,54,31,37,-22,0.18,0.13,0.9,18,1,1,0.23,0,0,0.0,0.0,0.0,0.0,0,0,0.0,0,0.0,-1,0.0,0.0,0.0,0,0.0,0.774
46483,0,,,,,,,,0.2,0.15,0.99,18,1,1,0.25,0,,,,,,,,,,,,,,,,,
46523,0,,,,,,,,0.17,0.13,0.86,18,-2,2,0.22,0,,,,,,,,,,,,,,,,,
46563,0,,,,,,,,0.17,0.13,1.02,18,-0,0,0.21,0,,,,,,,,,,,,,,,,,
46603,0,,,,,,,,0.15,0.11,1.09,17,-1,1,0.18,0,,,,,,,,,,,,,,,,,
46643,0,-1,1,49,54,31,37,-14,0.19,0.11,1.16,16,1,-0,0.22,0,0,0.0,0.0,0.0,0.0,0,0,0.0,0,0.0,-1,0.0,0.0,0.0,0,0.0,0.7774
46683,0,,,,,,,,0.26,0.05,1.06,15,-1,-1,0.26,0,,,,,,,,,,,,,,,,,
46723,0,,,,,,,,0.23,0.03,0.88,14,-3,-1,0.24,0,,,,,,,,,,,,,,,,,
46763,0,,,,,,,,0.19,0.04,0.84,13,-7,-1,0.2,0,,,,,,,,,,,,,,,,,
46803,0,,,,,,,,0.09,0.05,0.89,12,-7,-0,0.11,0,,,,,,,,,,,,,,,,,
46843,0,-1,1,49,54,31,36,-11,0.24,0.11,0.7,12,3,1,0.26,0,0,0.0,0.0,0.0,0.0,0,0,0.0,0,0.0,-1,0.0,0.0,0.0,0,0.0,0.7807
46883,0,,,,,,,,0.2,0.09,0.58,12,-4,-1,0.22,0,,,,,,,,,,,,,,,,,
46923,0,,,,,,,,0.4,0.11,0.45,11,14,-1,0.41,0,,,,,,,,,,,,,,,,,
46963,0,,,,,,,,0.7,0.09,-0.01,11,10,1,0.71,0,,,,,,,,,,,,,,,,,
47003,0,,,,,,,,0.61,0.1,0.01,11,-30,4,0.61,0,,,,,,,,,,,,,,,,,
47043,0,-1,2,50,54,30,36,-14,0.11,0.12,0.39,11,-63,5,0.17,0,0,0.0,0.0,0.0,0.0,0,0,0.0,0,0.0,-1,0.0,0.0,0.0,0,0.0,0.784
47083,0,,,,,,,,-0.29,0.22,0.69,11,-83,8,0.36,0,,,,,,,,,,,,,,,,,
47123,0,,,,,,,,-0.18,0.31,0.94,12,-92,9,0.36,0,,,,,,,,,,,,,,,,,
47163,0,,,,,,,,-0.13,0.23,1.11,12,-74,6,0.26,0,,,,,,,,,,,,,,,,,
47203,0,,,,,,,,0.06,0.21,0.96,13,-57,4,0.22,0,,,,,,,,,,,,,,,,,
47243,0,-0,1,50,54,29,35,-12,0.18,0.17,0.86,13,-49,3,0.24,0,0,0.0,0.0,0.0,0.0,0,0,0.0,0,0.0,-1,0.0,0.0,0.0,0,0.0,0.7874
47283,0,,,,,,,,0.18,0.18,0.62,13,-40,3,0.26,0,,,,,,,,,,,,,,,,,
47323,0,,,,,,,,0.31,0.23,0.51,13,-38,5,0.39,0,,,,,,,,,,,,,,,,,
47363,0,,,,,,,,0.37,0.19,0.76,13,-27,4,0.42,0,,,,,,,,,,,,,,,,,
47403,0,,,,,,,,0.19,0.04,0.35,13,-22,3,0.2,0,,,,,,,,,,,,,,,,,
47443,0,1,2,50,56,28,35,-7,0.37,0.18,0.67,13,-6,-5,0.41,0,0,0.0,0.0,0.0,0.0,0,0,0.0,0,0.0,-1,0.0,0.0,0.0,0,0.0,0.7907
47483,0,,,,,,,,0.49,0.22,0.57,13,-9,0,0.53,0,,,,,,,,,,,,,,,,,
47523,0,,,,,,,,0.27,0.12,0.48,12,-3,-2,0.29,0,,,,,,,,,,,,,,,,,
47563,0,,,,,,,,0.51,0.2,0.77,12,13,-10,0.55,0,,,,,,,,,,,,,,,,,
47603,0,,,,,,,,0.73,0.31,1.0,12,26,-18,0.79,0,,,,,,,,,,,,,,,,,
47643,0,0,2,50,54,30,36,-6,0.58,0.32,0.89,11,19,-12,0.67,0,0,0.0,0.0,0.0,0.0,0,0,0.0,0,0.0,-1,0.0,0.0,0.0,0,0.0,0.794
47683,0,,,,,,,,0.32,0.25,0.76,11,27,-16,0.41,0,,,,,,,,,,,,,,,,,
47723,0,,,,,,,,0.04,0.19,0.6,11,24,-16,0.19,0,,,,,,,,,,,,,,,,,
47763,0,,,,,,,,0.37,0.33,0.5,9,21,-15,0.5,0,,,,,,,,,,,,,,,,,
47803,0,,,,,,,,0.46,0.3,0.79,8,34,-23,0.55,0,,,,,,,,,,,,,,,,,
47843,0,-1,2,49,54,31,37,-3,0.57,0.39,1.02,8,28,-18,0.69,0,0,0.0,0.0,0.0,0.0,0,0,0.0,0,0.0,-1,0.0,0.0,0.0,0,0.0,0.7974
47883,0,,,,,,,,0.14,0.22,0.44,8,9,-8,0.26,0,,,,,,,,,,,,,,,,,
47923,0,,,,,,,,-0.04,0.17,-0.02,8,-12,5,0.17,0,,,,,,,,,,,,,,,,,
47963,0,,,,,,,,0.0,0.24,0.22,7,-1,-3,0.24,0,,,,,,,,,,,,,,,,,
48003,0,,,,,,,,0.21,0.28,0.2,6,-5,-2,0.35,0,,,,,,,,,,,,,,,,,
48043,0,0,2,49,54,30,35,-1,0.09,0.19,-0.22,7,-19,8,0.21,0,0,0.0,0.0,0.0,0.0,0,0,0.0,0,0.0,-1,0.0,0.0,0.0,0,0.0,0.8007
48083,0,,,,,,,,0.39,0.16,0.2,7,-14,7,0.42,0,,,,,,,,,,,,,,,,,
48123,0,,,,,,,,0.63,0.12,0.54,6,-7,8,0.64,0,,,,,,,,,,,,,,,,,
48163,0,,,,,,,,0.47,-0.04,0.26,5,-19,15,0.47,0,,,,,,,,,,,,,,,,,
48203,0,,,,,,,,0.06,-0.07,0.04,4,-21,12,0.09,0,,,,,,,,,,,,,,,,,
48243,0,1,2,46,49,34,37,5,0.11,0.04,0.41,3,-1,-2,0.12,0,0,0.0,0.0,0.0,0.0,0,0,0.0,0,0.0,-1,0.0,0.0,0.0,0,0.0,0.8041
48283,0,,,,,,,,-0.08,-0.08,0.31,1,-5,1,0.11,0,,,,,,,,,,,,,,,,,
48323,0,,,,,,,,-0.08,-0.07,0.23,2,-2,-0,0.11,0,,,,,,,,,,,,,,,,,
48363,0,,,,,,,,0.13,-0.01,0.17,0,6,-6,0.13,0,,,,,,,,,,,,,,,,,
48403,0,,,,,,,,0.09,0.03,0.16,-1,0,-9,0.09,0,,,,,,,,,,,,,,,,,
48443,0,-1,2,47,54,31,34,6,-0.08,-0.1,-0.08,0,-20,6,0.13,0,0,0.0,0.0,0.0,0.0,0,0,0.0,0,0.0,-1,0.0,0.0,0.0,0,0.0,0.8074
48483,0,,,,,,,,-0.0,-0.17,-0.18,-0,-23,11,0.17,0,,,,,,,,,,,,,,,,,
48523,0,,,,,,,,-0.15,-0.27,-0.21,-1,-22,10,0.31,0,,,,,,,,,,,,,,,,,
48563,0,,,,,,,,0.07,-0.13,0.1,-2,-12,7,0.15,0,,,,,,,,,,,,,,,,,
48603,0,,,,,,,,-0.06,-0.26,-0.3,-3,-24,18,0.27,0,,,,,,,,,,,,,,,,,
48643,0,0,1,45,50,34,38,6,-0.07,-0.24,0.04,-4,-15,11,0.25,0,0,0.0,0.0,0.0,0.0,0,0,0.0,0,0.0,-1,0.0,0.0,0.0,0,0.0,0.8107
48683,0,,,,,,,,-0.11,-0.27,0.05,-4,-16,10,0.29,0,,,,,,,,,,,,,,,,,
48723,0,,,,,,,,0.08,-0.17,0.02,-5,-14,11,0.19,0,,,,,,,,,,,,,,,,,
48763,0,,,,,,,,0.16,-0.15,0.04,-4,-12,2,0.22,0,,,,,,,,,,,,,,,,,
48803,0,,,,,,,,0.15,-0.17,-0.35,-3,-28,13,0.23,0,,,,,,,,,,,,,,,,,
48843,0,-1,2,48,54,32,36,0,0.45,-0.06,0.1,-2,-21,14,0.46,0,0,0.0,0.0,0.0,0.0,0,0,0.0,0,0.0,-1,0.0,0.0,0.0,0,0.0,0.814
48883,0,,,,,,,,0.62,-0.11,0.39,-1,-24,19,0.63,0,,,,,,,,,,,,,,,,,
48923,0,,,,,,,,0.27,-0.14,0.01,-0,-17,14,0.3,0,,,,,,,,,,,,,,,,,
48963,0,,,,,,,,0.38,0.08,0.39,1,-6,9,0.38,0,,,,,,,,,,,,,,,,,
49003,0,,,,,,,,0.57,0.27,0.7,2,5,3,0.63,0,,,,,,,,,,,,,,,,,
49043,0,-1,2,45,49,34,40,-5,0.21,0.18,0.54,3,8,-2,0.28,0,0,0.0,0.0,0.0,0.0,0,0,0.0,0,0.0,-1,0.0,0.0,0.0,0,0.0,0.8174
49083,0,,,,,,,,0.47,0.24,0.51,4,-3,6,0.53,0,,,,,,,,,,,,,,,,,
49123,0,,,,,,,,0.01,0.2,0.03,6,4,1,0.2,0,,,,,,,,,,,,,,,,,
49163,0,,,,,,,,0.21,0.25,0.05,7,-19,14,0.33,0,,,,,,,,,,,,,,,,,
49203,0,,,,,,,,0.55,0.35,0.42,8,-18,14,0.65,0,,,,,,,,,,,,,,,,,
49243,0,-0,2,47,50,33,39,-9,0.51,0.33,0.32,9,-25,19,0.61,0,0,0.0,0.0,0.0,0.0,0,0,0.0,0,0.0,-1,0.0,0.0,0.0,0,0.0,0.8207
49283,0,,,,,,,,0.27,0.21,0.29,10,-13,10,0.34,0,,,,,,,,,,,,,,,,,
49323,0,,,,,,,,0.42,0.26,0.61,10,3,1,0.5,0,,,,,,,,,,,,,,,,,
49363,0,,,,,,,,0.65,0.32,0.88,11,9,-1,0.73,0,,,,,,,,,,,,,,,,,
49403,0,,,,,,,,0.54,0.26,0.69,12,-5,9,0.6,0,,,,,,,,,,,,,,,,,
49443,0,0,1,46,50,34,40,-10,0.08,0.04,0.18,12,-15,12,0.08,0,0,0.0,0.0,0.0,0.0,0,0,0.0,0,0.0,-1,0.0,0.0,0.0,0,0.0,0.824
49483,0,,,,,,,,-0.03,0.14,0.16,12,-6,4,0.14,0,,,,,,,,,,,,,,,,,
49523,0,,,,,,,,0.07,0.13,0.41,13,-4,5,0.15,0,,,,,,,,,,,,,,,,,
49563,0,,,,,,,,-0.14,0.01,0.13,12,-3,5,0.14,0,,,,,,,,,,,,,,,,,
49603,0,,,,,,,,-0.03,0.12,0.45,12,-6,4,0.12,0,,,,,,,,,,,,,,,,,
49643,0,1,2,45,50,34,39,-6,-0.13,0.06,0.38,12,0,1,0.14,0,0,0.0,0.0,0.0,0.0,0,0,0.0,0,0.0,-1,0.0,0.0,0.0,0,0.0,0.8274
49683,0,,,,,,,,-0.11,0.09,0.29,12,-7,6,0.14,0,,,,,,,,,,,,,,,,,
