"Interval"|"ms"|0|0|1,"Utc"|"ms"|0|0|1,"Brake_F"|"Bar"|0|2000|10,"Brake_R"|"Bar"|0|2000|10,"Height_RF"|"mm"|0|255|10,"Height_LF"|"mm"|0|255|10,"Height_LR"|"mm"|0|80|10,"Height_RR"|"mm"|0|255|10,"Steering"|"deg"|-100|100|10,"AccelX"|"G"|-3.0|3.0|25,"AccelY"|"G"|-3.0|3.0|25,"AccelZ"|"G"|-3.0|3.0|25,"Yaw"|"Deg/Sec"|-120|120|25,"Pitch"|"Deg/Sec"|-120|120|25,"Roll"|"Deg/Sec"|-120|120|25,"Gsum"|"G"|0.0|3.0|25,"Unknown"|""|0|1024|25,"Log_Button"|""|0.0|10.0|10,"Latitude"|"Degrees"|-180.0|180.0|10,"Longitude"|"Degrees"|-180.0|180.0|10,"Speed"|"kph"|0.0|150.0|10,"Altitude"|"m"|0.0|4000.0|10,"GPSSats"|""|0|20|10,"GPSQual"|""|0|5|10,"GPSDOP"|""|0.0|20.0|10,"LapCount"|""|0|0|10,"LapTime"|"Min"|0.0|0.0|10,"Sector"|""|0|0|10,"SectorTime"|"Min"|0.0|0.0|10,"PredTime"|"Min"|0.0|0.0|5,"ElapsedTime"|"Min"|0.0|0.0|10,"CurrentLap"|""|0|0|10,"Distance"|"km"|0.0|0.0|10,"SessionTime"|"Min"|0.0|0.0|10
52083,0,,,,,,,,-0.31,0.08,-0.59,1,-20,19,0.32,0,,,,,,,,,,,,,,,,,
52123,0,,,,,,,,-0.13,0.05,-0.1,1,-12,14,0.14,0,,,,,,,,,,,,,,,,,
52163,0,,,,,,,,-0.11,-0.03,-0.1,1,2,-1,0.12,0,,,,,,,,,,,,,,,,,
52203,0,,,,,,,,-0.15,0.05,-0.46,1,-10,10,0.15,0,,,,,,,,,,,,,,,,,
52243,0,7,7,47,52,33,37,-6,-0.03,-0.01,-0.25,1,-10,12,0.04,0,0,0.0,0.0,0.0,0.0,0,0,0.0,0,0.0,-1,0.0,0.0,0.0,0,0.0,0.8707
52283,0,,,,,,,,0.12,-0.08,0.18,1,-1,4,0.15,0,,,,,,,,,,,,,,,,,
52323,0,,,,,,,,0.21,-0.14,0.52,1,4,-2,0.25,0,,,,,,,,,,,,,,,,,
52363,0,,,,,,,,0.31,-0.17,0.8,1,-1,3,0.35,0,,,,,,,,,,,,,,,,,
52403,0,,,,,,,,0.18,-0.07,0.27,1,-19,17,0.2,0,,,,,,,,,,,,,,,,,
52443,0,7,7,47,52,33,37,-6,-0.07,0.02,-0.16,1,-12,12,0.07,0,0,0.0,0.0,0.0,0.0,0,0,0.0,0,0.0,-1,0.0,0.0,0.0,0,0.0,0.874
52483,0,,,,,,,,0.09,-0.01,0.25,0,3,-4,0.09,0,,,,,,,,,,,,,,,,,
52523,0,,,,,,,,0.23,-0.03,0.18,1,-7,5,0.23,0,,,,,,,,,,,,,,,,,
52563,0,,,,,,,,-0.07,-0.0,-0.23,1,-13,12,0.07,0,,,,,,,,,,,,,,,,,
52603,0,,,,,,,,0.15,-0.06,0.19,1,5,-6,0.16,0,,,,,,,,,,,,,,,,,
52643,0,8,6,47,52,33,37,-6,0.11,-0.04,0.13,1,-14,8,0.12,0,0,0.0,0.0,0.0,0.0,0,0,0.0,0,0.0,-1,0.0,0.0,0.0,0,0.0,0.8774
52683,0,,,,,,,,-0.05,-0.04,0.13,1,-1,1,0.06,0,,,,,,,,,,,,,,,,,
52723,0,,,,,,,,0.19,-0.12,0.48,-1,5,0,0.22,0,,,,,,,,,,,,,,,,,
52763,0,,,,,,,,-0.11,-0.09,0.01,0,-1,9,0.14,0,,,,,,,,,,,,,,,,,
52803,0,,,,,,,,0.18,-0.05,0.39,0,15,-5,0.19,0,,,,,,,,,,,,,,,,,
52843,0,8,7,47,52,33,37,-7,-0.13,0.01,-0.07,0,-3,7,0.13,0,0,0.0,0.0,0.0,0.0,0,0,0.0,0,0.0,-1,0.0,0.0,0.0,0,0.0,0.8807
52883,0,,,,,,,,0.14,-0.01,0.33,0,9,-4,0.14,0,,,,,,,,,,,,,,,,,
52923,0,,,,,,,,-0.18,-0.01,-0.06,1,-1,0,0.19,0,,,,,,,,,,,,,,,,,
52963,0,,,,,,,,0.01,-0.08,-0.07,1,-6,5,0.08,0,,,,,,,,,,,,,,,,,
53003,0,,,,,,,,0.09,-0.14,-0.04,-0,12,-3,0.17,0,,,,,,,,,,,,,,,,,
53043,0,9,6,47,52,33,37,-6,-0.17,-0.12,-0.41,1,1,3,0.21,0,0,0.0,0.0,0.0,0.0,0,0,0.0,0,0.0,-1,0.0,0.0,0.0,0,0.0,0.884
53083,0,,,,,,,,-0.02,-0.11,-0.35,1,-4,4,0.11,0,,,,,,,,,,,,,,,,,
53123,0,,,,,,,,-0.06,-0.12,-0.27,1,8,-5,0.14,0,,,,,,,,,,,,,,,,,
53163,0,,,,,,,,-0.25,-0.04,-0.6,1,-12,6,0.25,0,,,,,,,,,,,,,,,,,
53203,0,,,,,,,,0.0,-0.03,-0.5,1,-1,-1,0.03,0,,,,,,,,,,,,,,,,,
53243,0,8,5,47,52,33,37,-6,-0.02,-0.02,-0.39,-1,8,-7,0.03,0,0,0.0,0.0,0.0,0.0,0,0,0.0,0,0.0,-1,0.0,0.0,0.0,0,0.0,0.8874
53283,0,,,,,,,,-0.15,-0.01,-0.7,-1,-11,4,0.15,0,,,,,,,,,,,,,,,,,
53323,0,,,,,,,,0.04,-0.08,-0.58,-1,-1,-3,0.08,0,,,,,,,,,,,,,,,,,
53363,0,,,,,,,,-0.02,-0.07,-0.45,-2,3,-9,0.08,0,,,,,,,,,,,,,,,,,
53403,0,,,,,,,,-0.29,-0.05,-0.75,-1,-10,-0,0.3,0,,,,,,,,,,,,,,,,,
53443,0,8,7,47,52,33,37,-6,-0.17,-0.06,-0.63,-0,-13,0,0.18,0,0,0.0,0.0,0.0,0.0,0,0,0.0,0,0.0,-1,0.0,0.0,0.0,0,0.0,0.8907
53483,0,,,,,,,,-0.08,-0.05,-0.49,-1,2,-6,0.09,0,,,,,,,,,,,,,,,,,
53523,0,,,,,,,,-0.26,-0.0,-0.78,-0,-6,3,0.26,0,,,,,,,,,,,,,,,,,
53563,0,,,,,,,,-0.1,-0.05,-0.65,0,-2,-0,0.11,0,,,,,,,,,,,,,,,,,
53603,0,,,,,,,,-0.01,-0.11,-0.51,0,10,-8,0.11,0,,,,,,,,,,,,,,,,,
53643,0,7,7,47,52,33,37,-6,-0.22,-0.1,-0.79,1,-6,2,0.24,0,0,0.0,0.0,0.0,0.0,0,0,0.0,0,0.0,-1,0.0,0.0,0.0,0,0.0,0.894
53683,0,,,,,,,,-0.09,-0.1,-0.66,1,-9,1,0.13,0,,,,,,,,,,,,,,,,,
53723,0,,,,,,,,-0.12,-0.09,-0.52,1,-5,-5,0.15,0,,,,,,,,,,,,,,,,,
53763,0,,,,,,,,-0.14,0.03,-0.8,2,-10,5,0.15,0,,,,,,,,,,,,,,,,,
53803,0,,,,,,,,0.03,0.05,-0.27,2,4,-5,0.06,0,,,,,,,,,,,,,,,,,
53843,0,8,6,47,52,33,37,-6,-0.27,0.04,-0.6,2,-13,5,0.27,0,0,0.0,0.0,0.0,0.0,0,0,0.0,0,0.0,-1,0.0,0.0,0.0,0,0.0,0.8974
53883,0,,,,,,,,-0.03,-0.05,-0.5,2,-2,-4,0.06,0,,,,,,,,,,,,,,,,,
53923,0,,,,,,,,-0.2,-0.0,-0.39,1,-10,3,0.2,0,,,,,,,,,,,,,,,,,
53963,0,,,,,,,,0.09,-0.03,-0.34,0,3,-5,0.09,0,,,,,,,,,,,,,,,,,
54003,0,,,,,,,,-0.09,0.07,-0.25,1,-4,0,0.12,0,,,,,,,,,,,,,,,,,
54043,0,8,5,47,52,33,37,-7,0.27,0.03,0.17,1,4,-6,0.27,0,0,0.0,0.0,0.0,0.0,0,0,0.0,0,0.0,-1,0.0,0.0,0.0,0,0.0,0.9007
54083,0,,,,,,,,-0.11,0.06,-0.24,0,-1,2,0.13,0,,,,,,,,,,,,,,,,,
54123,0,,,,,,,,0.15,0.05,0.19,-1,8,-1,0.15,0,,,,,,,,,,,,,,,,,
54163,0,,,,,,,,-0.11,0.06,-0.23,-1,4,-3,0.13,0,,,,,,,,,,,,,,,,,
54203,0,,,,,,,,0.13,-0.04,-0.21,0,-6,6,0.13,0,,,,,,,,,,,,,,,,,
54243,0,7,6,47,52,33,37,-6,0.14,0.01,-0.15,1,13,-6,0.14,0,0,0.0,0.0,0.0,0.0,0,0,0.0,0,0.0,-1,0.0,0.0,0.0,0,0.0,0.904
54283,0,,,,,,,,-0.04,0.07,-0.4,2,-2,4,0.08,0,,,,,,,,,,,,,,,,,
54323,0,,,,,,,,0.12,0.04,0.06,2,-1,-1,0.12,0,,,,,,,,,,,,,,,,,
54363,0,,,,,,,,-0.09,0.04,-0.2,1,4,-6,0.1,0,,,,,,,,,,,,,,,,,
54403,0,,,,,,,,-0.01,-0.0,-0.18,1,-13,7,0.01,0,,,,,,,,,,,,,,,,,
54443,0,8,5,47,52,33,37,-6,0.04,-0.06,-0.13,0,-0,-0,0.07,0,0,0.0,0.0,0.0,0.0,0,0,0.0,0,0.0,-1,0.0,0.0,0.0,0,0.0,0.9074
54483,0,,,,,,,,0.02,-0.07,-0.09,2,3,-8,0.07,0,,,,,,,,,,,,,,,,,
54523,0,,,,,,,,-0.05,0.0,-0.19,1,-5,-2,0.05,0,,,,,,,,,,,,,,,,,
54563,0,,,,,,,,0.03,-0.03,-0.17,0,-8,5,0.05,0,,,,,,,,,,,,,,,,,
54603,0,,,,,,,,0.14,0.03,-0.16,2,-5,5,0.14,0,,,,,,,,,,,,,,,,,
54643,0,7,6,47,52,33,37,-6,0.18,0.11,0.07,2,3,-1,0.21,0,0,0.0,0.0,0.0,0.0,0,0,0.0,0,0.0,-1,0.0,0.0,0.0,0,0.0,0.9107
54683,0,,,,,,,,0.17,0.06,0.08,1,1,-1,0.18,0,,,,,,,,,,,,,,,,,
54723,0,,,,,,,,0.16,0.01,0.08,1,9,-1,0.16,0,,,,,,,,,,,,,,,,,
54763,0,,,,,,,,0.18,0.04,0.09,1,11,-1,0.18,0,,,,,,,,,,,,,,,,,
54803,0,,,,,,,,0.11,0.06,0.09,1,9,-1,0.13,0,,,,,,,,,,,,,,,,,
54843,0,8,5,47,52,33,37,-6,0.1,0.11,0.09,1,7,-3,0.15,0,0,0.0,0.0,0.0,0.0,0,0,0.0,0,0.0,-1,0.0,0.0,0.0,0,0.0,0.914
54883,0,,,,,,,,0.02,0.11,0.09,2,6,-6,0.11,0,,,,,,,,,,,,,,,,,
54923,0,,,,,,,,-0.02,0.1,0.1,2,5,-7,0.11,0,,,,,,,,,,,,,,,,,
54963,0,,,,,,,,-0.1,0.11,-0.02,2,5,-6,0.15,0,,,,,,,,,,,,,,,,,
55003,0,,,,,,,,-0.1,0.13,-0.04,3,2,2,0.17,0,,,,,,,,,,,,,,,,,
55043,0,8,5,47,52,33,37,-7,0.04,0.09,-0.05,4,2,1,0.1,0,0,0.0,0.0,0.0,0.0,0,0,0.0,0,0.0,-1,0.0,0.0,0.0,0,0.0,0.9174
55083,0,,,,,,,,0.13,0.14,0.22,2,7,-3,0.19,0,,,,,,,,,,,,,,,,,
55123,0,,,,,,,,-0.04,0.12,0.2,2,7,-7,0.12,0,,,,,,,,,,,,,,,,,
55163,0,,,,,,,,-0.05,0.18,0.07,2,-5,3,0.18,0,,,,,,,,,,,,,,,,,
55203,0,,,,,,,,0.12,0.25,0.43,3,3,-7,0.28,0,,,,,,,,,,,,,,,,,
55243,0,7,7,47,52,33,37,-5,-0.07,0.18,0.37,0,4,-4,0.19,0,0,0.0,0.0,0.0,0.0,0,0,0.0,0,0.0,-1,0.0,0.0,0.0,0,0.0,0.9207
55283,0,,,,,,,,0.17,0.11,0.28,1,-1,1,0.2,0,,,,,,,,,,,,,,,,,
55323,0,,,,,,,,-0.02,0.08,0.12,1,-2,-1,0.08,0,,,,,,,,,,,,,,,,,
55363,0,,,,,,,,0.19,0.02,0.48,1,5,-5,0.19,0,,,,,,,,,,,,,,,,,
55403,0,,,,,,,,-0.06,0.03,0.01,2,-5,6,0.06,0,,,,,,,,,,,,,,,,,
55443,0,8,5,47,52,33,37,-6,0.14,-0.02,0.39,1,10,-8,0.14,0,0,0.0,0.0,0.0,0.0,0,0,0.0,0,0.0,-1,0.0,0.0,0.0,0,0.0,0.924
55483,0,,,,,,,,0.1,0.0,0.29,1,-4,5,0.1,0,,,,,,,,,,,,,,,,,
55523,0,,,,,,,,0.01,0.01,0.26,1,4,-2,0.01,0,,,,,,,,,,,,,,,,,
55563,0,,,,,,,,0.24,-0.03,0.35,2,8,-4,0.24,0,,,,,,,,,,,,,,,,,
55603,0,,,,,,,,-0.03,-0.0,-0.1,2,-4,3,0.03,0,,,,,,,,,,,,,,,,,
55643,0,8,5,47,52,33,37,-6,0.22,-0.01,0.3,2,11,-10,0.22,0,0,0.0,0.0,0.0,0.0,0,0,0.0,0,0.0,-1,0.0,0.0,0.0,0,0.0,0.9274
55683,0,,,,,,,,-0.05,0.01,-0.14,2,-6,4,0.05,0,,,,,,,,,,,,,,,,,
55723,0,,,,,,,,0.21,0.05,0.27,2,9,-9,0.21,0,,,,,,,,,,,,,,,,,
55763,0,,,,,,,,0.03,0.05,-0.16,1,-3,3,0.06,0,,,,,,,,,,,,,,,,,
55803,0,,,,,,,,0.27,0.01,0.25,1,11,-6,0.27,0,,,,,,,,,,,,,,,,,
55843,0,8,5,47,52,33,37,-7,-0.06,0.04,-0.18,1,-8,7,0.07,0,0,0.0,0.0,0.0,0.0,0,0,0.0,0,0.0,-1,0.0,0.0,0.0,0,0.0,0.9307
55883,0,,,,,,,,0.17,0.04,0.23,1,13,-8,0.17,0,,,,,,,,,,,,,,,,,
55923,0,,,,,,,,0.06,0.07,-0.19,3,-2,5,0.09,0,,,,,,,,,,,,,,,,,
55963,0,,,,,,,,0.09,0.02,-0.14,3,11,-10,0.09,0,,,,,,,,,,,,,,,,,
56003,0,,,,,,,,0.1,0.02,-0.13,3,5,-2,0.1,0,,,,,,,,,,,,,,,,,
56043,0,7,5,47,52,33,37,-7,-0.08,0.04,-0.09,2,1,-2,0.09,0,0,0.0,0.0,0.0,0.0,0,0,0.0,0,0.0,-1,0.0,0.0,0.0,0,0.0,0.934
56083,0,,,,,,,,0.13,-0.01,-0.09,2,1,-2,0.13,0,,,,,,,,,,,,,,,,,
56123,0,,,,,,,,-0.05,0.08,-0.05,1,-3,2,0.09,0,,,,,,,,,,,,,,,,,
56163,0,,,,,,,,0.24,0.04,-0.06,0,6,-4,0.24,0,,,,,,,,,,,,,,,,,
56203,0,,,,,,,,-0.04,0.09,-0.28,1,-9,5,0.1,0,,,,,,,,,,,,,,,,,
56243,0,7,5,47,52,33,37,-7,0.25,0.03,0.15,1,14,-9,0.25,0,0,0.0,0.0,0.0,0.0,0,0,0.0,0,0.0,-1,0.0,0.0,0.0,0,0.0,0.9374
56283,0,,,,,,,,0.09,0.05,-0.26,1,1,5,0.1,0,,,,,,,,,,,,,,,,,
56323,0,,,,,,,,0.36,0.03,0.17,0,19,-6,0.37,0,,,,,,,,,,,,,,,,,
56363,0,,,,,,,,0.09,-0.01,-0.14,1,6,4,0.09,0,,,,,,,,,,,,,,,,,
56403,0,,,,,,,,0.23,-0.09,-0.14,-0,13,-4,0.25,0,,,,,,,,,,,,,,,,,
56443,0,5,3,47,52,33,37,-7,0.06,0.01,-0.09,-1,7,1,0.06,0,0,0.0,0.0,0.0,0.0,0,0,0.0,0,0.0,-1,0.0,0.0,0.0,0,0.0,0.9407
56483,0,,,,,,,,0.08,-0.0,-0.09,1,4,0,0.08,0,,,,,,,,,,,,,,,,,
56523,0,,,,,,,,0.02,-0.05,-0.06,0,10,-6,0.05,0,,,,,,,,,,,,,,,,,
56563,0,,,,,,,,-0.0,0.01,-0.03,1,11,-8,0.01,0,,,,,,,,,,,,,,,,,
56603,0,,,,,,,,-0.01,0.06,-0.0,1,-0,0,0.06,0,,,,,,,,,,,,,,,,,
56643,0,3,4,47,52,33,37,-6,-0.24,-0.0,-0.02,2,6,-5,0.24,0,0,0.0,0.0,0.0,0.0,0,0,0.0,0,0.0,-1,0.0,0.0,0.0,0,0.0,0.944
56683,0,,,,,,,,0.09,0.02,0.25,2,-4,4,0.09,0,,,,,,,,,,,,,,,,,
56723,0,,,,,,,,0.25,0.09,0.58,2,15,-7,0.27,0,,,,,,,,,,,,,,,,,
56763,0,,,,,,,,0.44,0.15,0.85,1,24,-13,0.46,0,,,,,,,,,,,,,,,,,
56803,0,,,,,,,,0.44,0.13,0.69,1,14,-6,0.46,0,,,,,,,,,,,,,,,,,
56843,0,3,4,47,52,33,37,-7,0.4,0.05,0.59,1,10,-5,0.4,0,0,0.0,0.0,0.0,0.0,0,0,0.0,0,0.0,-1,0.0,0.0,0.0,0,0.0,0.9474
56883,0,,,,,,,,0.17,0.06,0.44,1,11,-6,0.18,0,,,,,,,,,,,,,,,,,
56923,0,,,,,,,,0.2,0.08,0.58,1,5,-3,0.21,0,,,,,,,,,,,,,,,,,
56963,0,,,,,,,,0.24,0.05,0.8,1,7,-4,0.24,0,,,,,,,,,,,,,,,,,
57003,0,,,,,,,,0.11,0.04,0.67,1,8,-4,0.11,0,,,,,,,,,,,,,,,,,
57043,0,3,4,47,52,33,37,-6,0.14,0.05,0.56,1,3,-1,0.15,0,0,0.0,0.0,0.0,0.0,0,0,0.0,0,0.0,-1,0.0,0.0,0.0,0,0.0,0.9507
57083,0,,,,,,,,0.11,-0.03,0.56,0,7,-3,0.11,0,,,,,,,,,,,,,,,,,
57123,0,,,,,,,,0.3,0.06,0.83,0,6,-3,0.3,0,,,,,,,,,,,,,,,,,
57163,0,,,,,,,,0.31,0.09,0.66,1,-11,8,0.32,0,,,,,,,,,,,,,,,,,
57203,0,,,,,,,,0.43,0.15,0.56,1,-28,17,0.45,0,,,,,,,,,,,,,,,,,
57243,0,2,2,47,52,33,37,-7,0.3,0.15,0.43,-0,-16,10,0.34,0,0,0.0,0.0,0.0,0.0,0,0,0.0,0,0.0,-1,0.0,0.0,0.0,0,0.0,0.954
57283,0,,,,,,,,0.33,0.11,0.33,-0,-21,16,0.34,0,,,,,,,,,,,,,,,,,
57323,0,,,,,,,,0.33,0.11,0.37,-1,5,-5,0.34,0,,,,,,,,,,,,,,,,,
57363,0,,,,,,,,0.46,0.06,0.68,-0,13,-17,0.46,0,,,,,,,,,,,,,,,,,
57403,0,,,,,,,,0.23,0.13,0.26,-0,8,-13,0.26,0,,,,,,,,,,,,,,,,,
57443,0,-1,1,47,52,33,37,-7,0.2,0.17,0.23,-1,9,-13,0.26,0,0,0.0,0.0,0.0,0.0,0,0,0.0,0,0.0,-1,0.0,0.0,0.0,0,0.0,0.9574
57483,0,,,,,,,,0.12,0.13,0.2,-1,11,-12,0.18,0,,,,,,,,,,,,,,,,,
57523,0,,,,,,,,0.1,0.19,0.18,-0,3,-9,0.21,0,,,,,,,,,,,,,,,,,
57563,0,,,,,,,,0.08,0.16,0.17,-0,7,-8,0.18,0,,,,,,,,,,,,,,,,,
57603,0,,,,,,,,0.05,0.2,0.16,-0,4,-8,0.21,0,,,,,,,,,,,,,,,,,
57643,0,-1,0,47,52,33,37,-6,-0.01,0.13,0.15,0,5,-5,0.13,0,0,0.0,0.0,0.0,0.0,0,0,0.0,0,0.0,-1,0.0,0.0,0.0,0,0.0,0.9607
57683,0,,,,,,,,0.07,0.1,-0.01,1,4,-1,0.12,0,,,,,,,,,,,,,,,,,
57723,0,,,,,,,,0.02,0.07,-0.03,0,0,-1,0.08,0,,,,,,,,,,,,,,,,,
57763,0,,,,,,,,0.1,0.07,0.19,0,6,-2,0.12,0,,,,,,,,,,,,,,,,,
57803,0,,,,,,,,0.12,0.06,0.18,0,2,-5,0.14,0,,,,,,,,,,,,,,,,,
57843,0,0,2,47,52,33,37,-6,-0.0,-0.03,-0.04,0,1,-1,0.03,0,0,0.0,0.0,0.0,0.0,0,0,0.0,0,0.0,-1,0.0,0.0,0.0,0,0.0,0.964
57883,0,,,,,,,,0.07,-0.05,-0.05,1,3,1,0.09,0,,,,,,,,,,,,,,,,,
57923,0,,,,,,,,0.0,-0.03,-0.06,1,-3,1,0.03,0,,,,,,,,,,,,,,,,,
57963,0,,,,,,,,0.09,-0.03,-0.07,1,2,1,0.09,0,,,,,,,,,,,,,,,,,
58003,0,,,,,,,,0.05,-0.08,0.2,0,-1,-1,0.09,0,,,,,,,,,,,,,,,,,
58043,0,0,2,47,52,33,37,-6,0.11,-0.11,0.19,0,5,-4,0.15,0,0,0.0,0.0,0.0,0.0,0,0,0.0,0,0.0,-1,0.0,0.0,0.0,0,0.0,0.9674
58083,0,,,,,,,,0.05,-0.09,0.17,1,-1,-1,0.1,0,,,,,,,,,,,,,,,,,
58123,0,,,,,,,,-0.07,-0.08,0.12,1,-3,1,0.11,0,,,,,,,,,,,,,,,,,
58163,0,,,,,,,,0.07,-0.05,0.27,1,7,-3,0.09,0,,,,,,,,,,,,,,,,,
58203,0,,,,,,,,0.07,-0.08,-0.16,1,2,1,0.11,0,,,,,,,,,,,,,,,,,
58243,0,-0,2,47,52,33,37,-6,0.0,0.0,0.25,0,-4,-3,0.0,0,0,0.0,0.0,0.0,0.0,0,0,0.0,0,0.0,-1,0.0,0.0,0.0,0,0.0,0.9707
58283,0,,,,,,,,-0.09,-0.02,0.19,0,-5,-0,0.09,0,,,,,,,,,,,,,,,,,
58323,0,,,,,,,,-0.06,-0.1,-0.23,0,4,4,0.12,0,,,,,,,,,,,,,,,,,
58363,0,,,,,,,,0.09,-0.08,-0.4,1,13,3,0.12,0,,,,,,,,,,,,,,,,,
58403,0,,,,,,,,0.23,-0.05,-0.28,1,19,1,0.24,0,,,,,,,,,,,,,,,,,
58443,0,-0,2,47,52,33,37,-5,0.36,-0.04,-0.18,1,23,-1,0.36,0,0,0.0,0.0,0.0,0.0,0,0,0.0,0,0.0,-1,0.0,0.0,0.0,0,0.0,0.974
58483,0,,,,,,,,0.42,-0.02,-0.11,1,24,-1,0.42,0,,,,,,,,,,,,,,,,,
58523,0,,,,,,,,0.46,0.0,-0.25,1,25,2,0.46,0,,,,,,,,,,,,,,,,,
58563,0,,,,,,,,0.46,0.01,-0.59,1,25,5,0.47,0,,,,,,,,,,,,,,,,,
58603,0,,,,,,,,0.49,-0.03,-0.85,0,26,7,0.5,0,,,,,,,,,,,,,,,,,
58643,0,-0,2,47,52,33,37,-6,0.5,-0.07,-0.91,0,28,5,0.51,0,0,0.0,0.0,0.0,0.0,0,0,0.0,0,0.0,-1,0.0,0.0,0.0,0,0.0,0.9774
58683,0,,,,,,,,0.54,-0.09,-0.35,0,32,0,0.55,0,,,,,,,,,,,,,,,,,
58723,0,,,,,,,,0.46,-0.07,0.09,-0,31,-3,0.46,0,,,,,,,,,,,,,,,,,
58763,0,,,,,,,,0.35,0.03,0.45,-0,26,-5,0.35,0,,,,,,,,,,,,,,,,,
58803,0,,,,,,,,0.15,0.08,0.75,0,19,-3,0.17,0,,,,,,,,,,,,,,,,,
58843,0,1,1,47,52,33,37,-6,-0.03,0.14,0.98,0,9,-3,0.14,0,0,0.0,0.0,0.0,0.0,0,0,0.0,0,0.0,-1,0.0,0.0,0.0,0,0.0,0.9807
58883,0,,,,,,,,0.01,0.19,1.18,0,6,-4,0.19,0,,,,,,,,,,,,,,,,,
58923,0,,,,,,,,-0.03,0.13,1.15,1,10,-6,0.14,0,,,,,,,,,,,,,,,,,
58963,0,,,,,,,,0.11,0.08,1.05,1,17,-6,0.13,0,,,,,,,,,,,,,,,,,
59003,0,,,,,,,,0.16,0.07,0.87,1,16,-6,0.17,0,,,,,,,,,,,,,,,,,
59043,0,1,1,47,52,32,36,-6,-0.0,0.07,0.33,2,11,1,0.07,0,0,0.0,0.0,0.0,0.0,0,0,0.0,0,0.0,-1,0.0,0.0,0.0,0,0.0,0.984
59083,0,,,,,,,,0.13,0.02,0.64,1,20,-14,0.13,0,,,,,,,,,,,,,,,,,
59123,0,,,,,,,,0.27,0.06,0.9,0,32,-25,0.28,0,,,,,,,,,,,,,,,,,
59163,0,,,,,,,,0.5,0.04,1.11,1,30,-22,0.5,0,,,,,,,,,,,,,,,,,
59203,0,,,,,,,,0.37,0.0,0.52,2,4,-4,0.37,0,,,,,,,,,,,,,,,,,
59243,0,-1,2,47,53,32,36,-6,0.28,-0.02,0.44,1,20,-13,0.28,0,0,0.0,0.0,0.0,0.0,0,0,0.0,0,0.0,-1,0.0,0.0,0.0,0,0.0,0.9874
59283,0,,,,,,,,0.21,-0.02,0.33,1,-1,2,0.21,0,,,,,,,,,,,,,,,,,
59323,0,,,,,,,,0.35,-0.01,0.62,1,17,-7,0.35,0,,,,,,,,,,,,,,,,,
59363,0,,,,,,,,0.07,-0.0,0.12,2,6,-3,0.07,0,,,,,,,,,,,,,,,,,
59403,0,,,,,,,,0.28,-0.07,0.08,2,-9,6,0.29,0,,,,,,,,,,,,,,,,,
59443,0,0,0,47,53,32,36,-7,0.21,0.01,0.08,2,5,-2,0.21,0,0,0.0,0.0,0.0,0.0,0,0,0.0,0,0.0,-1,0.0,0.0,0.0,0,0.0,0.9907
59483,0,,,,,,,,0.02,-0.01,0.08,2,6,-7,0.03,0,,,,,,,,,,,,,,,,,
59523,0,,,,,,,,-0.03,0.06,-0.11,2,4,-4,0.07,0,,,,,,,,,,,,,,,,,
59563,0,,,,,,,,-0.04,0.12,-0.11,1,5,-7,0.13,0,,,,,,,,,,,,,,,,,
59603,0,,,,,,,,0.17,0.16,0.29,0,6,-9,0.23,0,,,,,,,,,,,,,,,,,
59643,0,-1,2,47,54,32,36,-8,0.21,0.08,0.26,0,-8,-0,0.23,0,0,0.0,0.0,0.0,0.0,0,0,0.0,0,0.0,-1,0.0,0.0,0.0,0,0.0,0.994
59683,0,,,,,,,,-0.06,0.01,0.0,0,-7,-2,0.06,0,,,,,,,,,,,,,,,,,
59723,0,,,,,,,,0.3,0.1,0.26,-1,-11,1,0.32,0,,,,,,,,,,,,,,,,,
59763,0,,,,,,,,0.09,0.11,0.19,-1,7,-10,0.15,0,,,,,,,,,,,,,,,,,
59803,0,,,,,,,,-0.16,0.02,-0.23,-0,7,-10,0.16,0,,,,,,,,,,,,,,,,,
59843,0,-0,2,48,55,31,36,-8,0.06,0.08,0.19,0,14,-13,0.1,0,0,0.0,0.0,0.0,0.0,0,0,0.0,0,0.0,-1,0.0,0.0,0.0,0,0.0,0.9974
59883,0,,,,,,,,0.18,0.08,0.3,1,12,-10,0.2,0,,,,,,,,,,,,,,,,,
59923,0,,,,,,,,-0.08,0.05,0.2,1,5,-8,0.09,0,,,,,,,,,,,,,,,,,
59963,0,,,,,,,,0.05,0.07,0.01,2,-10,-4,0.08,0,,,,,,,,,,,,,,,,,
60003,0,,,,,,,,0.42,0.05,-0.37,2,-20,-1,0.42,0,,,,,,,,,,,,,,,,,
60043,0,-0,2,48,55,31,36,-8,0.52,0.04,-0.57,2,-43,1,0.52,0,0,0.0,0.0,0.0,0.0,0,0,0.0,0,0.0,-1,0.0,0.0,0.0,0,0.0,1.0007
60083,0,,,,,,,,0.34,0.08,-0.08,2,-51,1,0.35,0,,,,,,,,,,,,,,,,,
60123,0,,,,,,,,0.32,0.07,-0.17,2,-41,1,0.32,0,,,,,,,,,,,,,,,,,
60163,0,,,,,,,,0.3,0.06,-0.11,3,-35,2,0.31,0,,,,,,,,,,,,,,,,,
60203,0,,,,,,,,0.3,0.05,0.05,3,-27,1,0.3,0,,,,,,,,,,,,,,,,,
60243,0,0,0,48,55,31,36,-8,0.27,0.01,0.25,3,-22,2,0.27,0,0,0.0,0.0,0.0,0.0,0,0,0.0,0,0.0,-1,0.0,0.0,0.0,0,0.0,1.0041
60283,0,,,,,,,,0.3,0.02,0.45,4,-18,1,0.3,0,,,,,,,,,,,,,,,,,
60323,0,,,,,,,,0.31,0.01,0.52,4,-14,1,0.31,0,,,,,,,,,,,,,,,,,
60363,0,,,,,,,,0.29,-0.02,0.63,4,-12,1,0.29,0,,,,,,,,,,,,,,,,,
60403,0,,,,,,,,0.29,-0.01,0.64,4,-11,1,0.29,0,,,,,,,,,,,,,,,,,
60443,0,-0,2,49,54,32,35,-8,0.28,-0.01,0.69,4,-10,2,0.28,0,0,0.0,0.0,0.0,0.0,0,0,0.0,0,0.0,-1,0.0,0.0,0.0,0,0.0,1.0074
60483,0,,,,,,,,0.21,0.02,0.72,4,-8,1,0.21,0,,,,,,,,,,,,,,,,,
60523,0,,,,,,,,0.21,0.0,0.79,5,-6,1,0.21,0,,,,,,,,,,,,,,,,,
60563,0,,,,,,,,0.21,0.01,0.83,5,-5,1,0.21,0,,,,,,,,,,,,,,,,,
60603,0,,,,,,,,0.2,0.02,1.03,5,-4,0,0.2,0,,,,,,,,,,,,,,,,,
60643,0,0,0,49,53,32,36,-7,0.2,0.03,1.0,5,-4,-0,0.2,0,0,0.0,0.0,0.0,0.0,0,0,0.0,0,0.0,-1,0.0,0.0,0.0,0,0.0,1.0107
60683,0,,,,,,,,0.17,0.03,0.84,5,-5,1,0.17,0,,,,,,,,,,,,,,,,,
60723,0,,,,,,,,0.2,0.04,0.89,5,-3,-1,0.21,0,,,,,,,,,,,,,,,,,
60763,0,,,,,,,,0.21,0.04,1.0,5,-2,-1,0.21,0,,,,,,,,,,,,,,,,,
60803,0,,,,,,,,0.18,0.02,0.97,5,-2,-0,0.18,0,,,,,,,,,,,,,,,,,
60843,0,0,2,48,54,31,36,-8,0.19,0.05,1.04,5,-2,-0,0.2,0,0,0.0,0.0,0.0,0.0,0,0,0.0,0,0.0,-1,0.0,0.0,0.0,0,0.0,1.0141
60883,0,,,,,,,,0.18,0.06,1.03,5,-1,-0,0.19,0,,,,,,,,,,,,,,,,,
60923,0,,,,,,,,0.17,0.06,0.95,5,-1,1,0.18,0,,,,,,,,,,,,,,,,,
60963,0,,,,,,,,0.16,0.06,0.85,5,-1,1,0.17,0,,,,,,,,,,,,,,,,,
61003,0,,,,,,,,0.21,0.05,1.05,5,-2,0,0.22,0,,,,,,,,,,,,,,,,,
61043,0,-0,2,50,55,31,35,-8,0.26,0.03,1.06,5,-2,0,0.26,0,0,0.0,0.0,0.0,0.0,0,0,0.0,0,0.0,-1,0.0,0.0,0.0,0,0.0,1.0174
61083,0,,,,,,,,0.26,-0.0,0.91,5,-0,1,0.26,0,,,,,,,,,,,,,,,,,
61123,0,,,,,,,,0.29,-0.0,0.78,5,1,1,0.29,0,,,,,,,,,,,,,,,,,
61163,0,,,,,,,,0.23,0.0,0.57,6,0,1,0.23,0,,,,,,,,,,,,,,,,,
61203,0,,,,,,,,0.28,0.0,0.66,6,0,1,0.28,0,,,,,,,,,,,,,,,,,
61243,0,0,1,49,55,30,36,-8,0.26,0.01,0.71,6,-0,1,0.26,0,0,0.0,0.0,0.0,0.0,0,0,0.0,0,0.0,-1,0.0,0.0,0.0,0,0.0,1.0207
61283,0,,,,,,,,0.29,0.01,0.74,6,1,1,0.29,0,,,,,,,,,,,,,,,,,
61323,0,,,,,,,,0.33,0.02,0.82,6,1,1,0.33,0,,,,,,,,,,,,,,,,,
61363,0,,,,,,,,0.28,0.03,0.75,6,-1,1,0.28,0,,,,,,,,,,,,,,,,,
61403,0,,,,,,,,0.26,0.05,0.77,6,-0,1,0.26,0,,,,,,,,,,,,,,,,,
61443,0,-0,2,49,55,30,35,-5,0.22,0.04,0.66,5,-0,2,0.22,0,0,0.0,0.0,0.0,0.0,0,0,0.0,0,0.0,-1,0.0,0.0,0.0,0,0.0,1.024
61483,0,,,,,,,,0.24,0.07,0.92,5,0,0,0.25,0,,,,,,,,,,,,,,,,,
61523,0,,,,,,,,0.25,0.08,0.78,5,1,0,0.26,0,,,,,,,,,,,,,,,,,
61563,0,,,,,,,,0.26,0.1,0.92,5,3,-1,0.28,0,,,,,,,,,,,,,,,,,
61603,0,,,,,,,,0.28,0.08,1.05,5,-0,-1,0.29,0,,,,,,,,,,,,,,,,,
61643,0,-1,2,49,54,32,35,-2,0.32,0.07,1.06,5,-1,0,0.33,0,0,0.0,0.0,0.0,0.0,0,0,0.0,0,0.0,-1,0.0,0.0,0.0,0,0.0,1.0274
61683,0,,,,,,,,0.32,0.02,0.98,4,-2,1,0.32,0,,,,,,,,,,,,,,,,,
61723,0,,,,,,,,0.34,0.02,0.77,4,1,1,0.34,0,,,,,,,,,,,,,,,,,
61763,0,,,,,,,,0.3,-0.06,0.61,3,-0,2,0.31,0,,,,,,,,,,,,,,,,,
61803,0,,,,,,,,0.24,-0.09,0.87,3,-1,0,0.25,0,,,,,,,,,,,,,,,,,
61843,0,-1,2,49,56,31,36,4,0.2,-0.09,0.75,3,-0,-1,0.22,0,0,0.0,0.0,0.0,0.0,0,0,0.0,0,0.0,-1,0.0,0.0,0.0,0,0.0,1.0307
61883,0,,,,,,,,0.32,-0.14,0.64,2,12,-1,0.35,0,,,,,,,,,,,,,,,,,
61923,0,,,,,,,,0.45,-0.22,0.14,2,-0,-0,0.5,0,,,,,,,,,,,,,,,,,
61963,0,,,,,,,,0.19,-0.11,0.49,1,-9,-0,0.22,0,,,,,,,,,,,,,,,,,
62003,0,,,,,,,,0.13,-0.11,0.02,1,-5,2,0.17,0,,,,,,,,,,,,,,,,,
62043,0,-1,2,49,56,31,37,5,0.15,-0.06,0.39,1,-5,0,0.17,0,0,0.0,0.0,0.0,0.0,0,0,0.0,0,0.0,-1,0.0,0.0,0.0,0,0.0,1.034
62083,0,,,,,,,,0.28,-0.05,-0.06,1,-2,2,0.28,0,,,,,,,,,,,,,,,,,
62123,0,,,,,,,,0.19,-0.05,0.33,0,-6,0,0.19,0,,,,,,,,,,,,,,,,,
62163,0,,,,,,,,-0.0,-0.08,0.1,-1,1,-1,0.08,0,,,,,,,,,,,,,,,,,
62203,0,,,,,,,,-0.14,-0.06,0.46,-1,8,-1,0.15,0,,,,,,,,,,,,,,,,,
62243,0,-1,2,48,54,33,36,13,-0.08,-0.08,0.03,-2,4,1,0.11,0,0,0.0,0.0,0.0,0.0,0,0,0.0,0,0.0,-1,0.0,0.0,0.0,0,0.0,1.0374
62283,0,,,,,,,,-0.23,-0.1,0.4,-3,-8,-1,0.25,0,,,,,,,,,,,,,,,,,
62323,0,,,,,,,,0.02,-0.12,0.3,-4,7,1,0.12,0,,,,,,,,,,,,,,,,,
62363,0,,,,,,,,-0.03,-0.12,0.27,-5,-10,-0,0.13,0,,,,,,,,,,,,,,,,,
62403,0,,,,,,,,-0.18,-0.12,0.59,-6,-7,-1,0.22,0,,,,,,,,,,,,,,,,,
62443,0,0,1,47,55,32,37,16,0.2,-0.14,0.25,-6,10,0,0.25,0,0,0.0,0.0,0.0,0.0,0,0,0.0,0,0.0,-1,0.0,0.0,0.0,0,0.0,1.0407
62483,0,,,,,,,,0.0,-0.15,0.22,-7,-8,-0,0.15,0,,,,,,,,,,,,,,,,,
62523,0,,,,,,,,-0.18,-0.18,0.56,-8,-0,-1,0.25,0,,,,,,,,,,,,,,,,,
62563,0,,,,,,,,0.23,-0.26,0.07,-8,18,0,0.34,0,,,,,,,,,,,,,,,,,
62603,0,,,,,,,,0.1,-0.26,0.08,-9,-7,2,0.28,0,,,,,,,,,,,,,,,,,
62643,0,0,1,48,54,34,36,19,-0.22,-0.17,0.44,-10,-23,1,0.28,0,0,0.0,0.0,0.0,0.0,0,0,0.0,0,0.0,-1,0.0,0.0,0.0,0,0.0,1.044
62683,0,,,,,,,,0.02,-0.16,0.34,-10,8,1,0.16,0,,,,,,,,,,,,,,,,,
62723,0,,,,,,,,0.31,-0.22,-0.11,-10,1,2,0.38,0,,,,,,,,,,,,,,,,,
62763,0,,,,,,,,-0.04,-0.22,0.13,-10,-29,3,0.22,0,,,,,,,,,,,,,,,,,
62803,0,,,,,,,,-0.4,-0.2,0.49,-11,-35,3,0.44,0,,,,,,,,,,,,,,,,,
62843,0,-1,2,46,53,34,36,25,-0.21,-0.18,0.5,-12,2,-0,0.28,0,0,0.0,0.0,0.0,0.0,0,0,0.0,0,0.0,-1,0.0,0.0,0.0,0,0.0,1.0474
62883,0,,,,,,,,0.21,-0.25,0.02,-13,31,-1,0.33,0,,,,,,,,,,,,,,,,,
62923,0,,,,,,,,0.38,-0.32,-0.36,-14,19,1,0.5,0,,,,,,,,,,,,,,,,,
62963,0,,,,,,,,-0.01,-0.3,0.03,-15,-19,2,0.3,0,,,,,,,,,,,,,,,,,
63003,0,,,,,,,,-0.32,-0.19,0.4,-16,-20,-1,0.37,0,,,,,,,,,,,,,,,,,
63043,0,0,0,47,56,33,36,29,0.01,-0.21,0.31,-16,13,-2,0.21,0,0,0.0,0.0,0.0,0.0,0,0,0.0,0,0.0,-1,0.0,0.0,0.0,0,0.0,1.0507
63083,0,,,,,,,,0.29,-0.29,-0.13,-17,20,-1,0.41,0,,,,,,,,,,,,,,,,,
63123,0,,,,,,,,-0.06,-0.26,-0.09,-17,-11,-0,0.26,0,,,,,,,,,,,,,,,,,
63163,0,,,,,,,,-0.37,-0.2,0.31,-18,-21,-1,0.42,0,,,,,,,,,,,,,,,,,
63203,0,,,,,,,,-0.03,-0.24,0.23,-18,13,-2,0.24,0,,,,,,,,,,,,,,,,,
63243,0,-0,1,47,53,36,36,34,0.22,-0.26,-0.19,-19,13,-1,0.34,0,0,0.0,0.0,0.0,0.0,0,0,0.0,0,0.0,-1,0.0,0.0,0.0,0,0.0,1.054
63283,0,,,,,,,,-0.16,-0.2,0.11,-21,-16,-0,0.25,0,,,,,,,,,,,,,,,,,
63323,0,,,,,,,,-0.25,-0.17,0.47,-21,-4,-2,0.31,0,,,,,,,,,,,,,,,,,
63363,0,,,,,,,,0.13,-0.21,0.0,-22,10,-2,0.24,0,,,,,,,,,,,,,,,,,
63403,0,,,,,,,,-0.11,-0.35,0.02,-23,-8,-1,0.37,0,,,,,,,,,,,,,,,,,
63443,0,0,0,46,55,34,35,36,-0.34,-0.31,0.4,-24,-15,-2,0.46,0,0,0.0,0.0,0.0,0.0,0,0,0.0,0,0.0,-1,0.0,0.0,0.0,0,0.0,1.0574
63483,0,,,,,,,,0.03,-0.26,0.04,-24,11,-2,0.26,0,,,,,,,,,,,,,,,,,
63523,0,,,,,,,,0.3,-0.36,-0.35,-25,16,2,0.47,0,,,,,,,,,,,,,,,,,
63563,0,,,,,,,,-0.02,-0.33,-0.16,-25,-18,4,0.34,0,,,,,,,,,,,,,,,,,
63603,0,,,,,,,,-0.4,-0.32,0.25,-25,-58,6,0.51,0,,,,,,,,,,,,,,,,,
63643,0,0,0,47,55,34,35,35,-0.7,-0.27,0.58,-26,-80,5,0.75,0,0,0.0,0.0,0.0,0.0,0,0,0.0,0,0.0,-1,0.0,0.0,0.0,0,0.0,1.0607
63683,0,,,,,,,,-0.95,-0.18,0.85,-26,-78,2,0.97,0,,,,,,,,,,,,,,,,,
63723,0,,,,,,,,-1.1,-0.12,1.07,-26,-59,-0,1.1,0,,,,,,,,,,,,,,,,,
63763,0,,,,,,,,-1.07,-0.12,1.24,-25,-32,-4,1.08,0,,,,,,,,,,,,,,,,,
63803,0,,,,,,,,-0.95,-0.11,1.39,-25,-11,-5,0.96,0,,,,,,,,,,,,,,,,,
63843,0,-0,2,47,55,34,35,34,-0.81,-0.17,1.5,-25,7,-9,0.83,0,0,0.0,0.0,0.0,0.0,0,0,0.0,0,0.0,-1,0.0,0.0,0.0,0,0.0,1.064
63883,0,,,,,,,,-0.69,-0.19,1.6,-25,23,-11,0.71,0,,,,,,,,,,,,,,,,,
63923,0,,,,,,,,-0.7,-0.15,1.67,-26,28,-14,0.72,0,,,,,,,,,,,,,,,,,
63963,0,,,,,,,,-0.92,-0.2,1.73,-26,20,-12,0.94,0,,,,,,,,,,,,,,,,,
64003,0,,,,,,,,-1.13,-0.22,1.75,-26,-8,-7,1.15,0,,,,,,,,,,,,,,,,,
64043,0,-0,2,47,55,34,35,33,-1.18,-0.22,1.79,-26,-28,-4,1.2,0,0,0.0,0.0,0.0,0.0,0,0,0.0,0,0.0,-1,0.0,0.0,0.0,0,0.0,1.0674
64083,0,,,,,,,,-0.87,-0.22,1.33,-26,-30,-0,0.9,0,,,,,,,,,,,,,,,,,
64123,0,,,,,,,,-0.37,-0.19,0.8,-25,-22,1,0.42,0,,,,,,,,,,,,,,,,,
64163,0,,,,,,,,0.08,-0.22,0.27,-25,-4,1,0.23,0,,,,,,,,,,,,,,,,,
64203,0,,,,,,,,0.44,-0.34,-0.16,-25,9,0,0.56,0,,,,,,,,,,,,,,,,,
64243,0,0,2,47,54,35,34,34,0.74,-0.41,-0.51,-26,14,0,0.85,0,0,0.0,0.0,0.0,0.0,0,0,0.0,0,0.0,-1,0.0,0.0,0.0,0,0.0,1.0707
64283,0,,,,,,,,0.98,-0.4,-0.8,-26,19,-0,1.06,0,,,,,,,,,,,,,,,,,
64323,0,,,,,,,,1.17,-0.46,-1.03,-27,24,-2,1.26,0,,,,,,,,,,,,,,,,,
64363,0,,,,,,,,1.33,-0.47,-1.21,-26,30,-3,1.41,0,,,,,,,,,,,,,,,,,
64403,0,,,,,,,,1.46,-0.5,-1.36,-26,37,-4,1.54,0,,,,,,,,,,,,,,,,,
64443,0,1,1,46,54,34,35,37,1.56,-0.59,-1.48,-26,40,-3,1.67,0,0,0.0,0.0,0.0,0.0,0,0,0.0,0,0.0,-1,0.0,0.0,0.0,0,0.0,1.074
64483,0,,,,,,,,1.64,-0.53,-1.58,-27,27,-2,1.73,0,,,,,,,,,,,,,,,,,
64523,0,,,,,,,,1.4,-0.56,-1.6,-28,-5,1,1.51,0,,,,,,,,,,,,,,,,,
64563,0,,,,,,,,0.78,-0.55,-0.92,-29,-43,3,0.96,0,,,,,,,,,,,,,,,,,
64603,0,,,,,,,,0.26,-0.5,-0.36,-29,-44,1,0.56,0,,,,,,,,,,,,,,,,,
64643,0,1,1,45,55,35,36,42,-0.14,-0.41,0.08,-30,-13,-4,0.43,0,0,0.0,0.0,0.0,0.0,0,0,0.0,0,0.0,-1,0.0,0.0,0.0,0,0.0,1.0774
64683,0,,,,,,,,-0.05,-0.41,0.45,-31,28,-7,0.41,0,,,,,,,,,,,,,,,,,
64723,0,,,,,,,,0.29,-0.43,0.36,-32,64,-9,0.52,0,,,,,,,,,,,,,,,,,
64763,0,,,,,,,,0.62,-0.49,-0.09,-32,88,-9,0.79,0,,,,,,,,,,,,,,,,,
64803,0,,,,,,,,0.88,-0.61,-0.45,-33,96,-9,1.07,0,,,,,,,,,,,,,,,,,
64843,0,1,1,46,54,37,35,44,1.09,-0.73,-0.75,-33,76,-7,1.31,0,0,0.0,0.0,0.0,0.0,0,0,0.0,0,0.0,-1,0.0,0.0,0.0,0,0.0,1.0807
64883,0,,,,,,,,0.79,-0.71,-0.58,-34,29,-3,1.06,0,,,,,,,,,,,,,,,,,
64923,0,,,,,,,,0.26,-0.59,-0.09,-34,-3,-3,0.65,0,,,,,,,,,,,,,,,,,
64963,0,,,,,,,,-0.02,-0.41,0.3,-35,10,-5,0.41,0,,,,,,,,,,,,,,,,,
65003,0,,,,,,,,0.32,-0.44,0.2,-35,43,-7,0.54,0,,,,,,,,,,,,,,,,,
65043,0,0,1,45,56,35,37,41,0.61,-0.48,-0.22,-35,38,-4,0.78,0,0,0.0,0.0,0.0,0.0,0,0,0.0,0,0.0,-1,0.0,0.0,0.0,0,0.0,1.084
65083,0,,,,,,,,0.29,-0.49,-0.16,-36,-0,-2,0.57,0,,,,,,,,,,,,,,,,,
65123,0,,,,,,,,-0.15,-0.41,0.25,-36,-24,-3,0.43,0,,,,,,,,,,,,,,,,,
65163,0,,,,,,,,-0.5,-0.26,0.58,-35,-14,-6,0.56,0,,,,,,,,,,,,,,,,,
65203,0,,,,,,,,-0.78,-0.17,0.85,-34,10,-9,0.8,0,,,,,,,,,,,,,,,,,
65243,0,0,2,46,55,35,35,40,-0.81,-0.18,1.07,-34,37,-12,0.83,0,0,0.0,0.0,0.0,0.0,0,0,0.0,0,0.0,-1,0.0,0.0,0.0,0,0.0,1.0874
65283,0,,,,,,,,-0.73,-0.23,1.24,-33,59,-14,0.77,0,,,,,,,,,,,,,,,,,
65323,0,,,,,,,,-0.77,-0.27,1.39,-32,70,-16,0.81,0,,,,,,,,,,,,,,,,,
65363,0,,,,,,,,-0.69,-0.26,1.5,-32,83,-17,0.73,0,,,,,,,,,,,,,,,,,
65403,0,,,,,,,,-0.3,-0.38,1.34,-31,111,-17,0.49,0,,,,,,,,,,,,,,,,,
65443,0,0,1,46,56,34,35,37,0.13,-0.4,0.7,-31,130,-15,0.42,0,0,0.0,0.0,0.0,0.0,0,0,0.0,0,0.0,-1,0.0,0.0,0.0,0,0.0,1.0907
65483,0,,,,,,,,0.49,-0.44,0.19,-30,137,-16,0.66,0,,,,,,,,,,,,,,,,,
65523,0,,,,,,,,0.78,-0.49,-0.23,-29,142,-15,0.92,0,,,,,,,,,,,,,,,,,
65563,0,,,,,,,,0.91,-0.49,-0.2,-29,140,-16,1.03,0,,,,,,,,,,,,,,,,,
65603,0,,,,,,,,0.44,-0.53,0.04,-29,111,-13,0.69,0,,,,,,,,,,,,,,,,,
65643,0,0,0,47,55,35,34,38,0.33,-0.53,0.26,-29,79,-9,0.62,0,0,0.0,0.0,0.0,0.0,0,0,0.0,0,0.0,-1,0.0,0.0,0.0,0,0.0,1.0941
65683,0,,,,,,,,0.56,-0.51,0.5,-29,76,-11,0.76,0,,,,,,,,,,,,,,,,,
65723,0,,,,,,,,0.26,-0.5,0.72,-29,64,-10,0.56,0,,,,,,,,,,,,,,,,,
65763,0,,,,,,,,-0.17,-0.61,0.94,-29,35,-6,0.63,0,,,,,,,,,,,,,,,,,
65803,0,,,,,,,,-0.36,-0.53,1.14,-30,0,-1,0.64,0,,,,,,,,,,,,,,,,,
65843,0,0,1,46,56,35,35,37,-0.04,-0.44,1.27,-30,2,-2,0.45,0,0,0.0,0.0,0.0,0.0,0,0,0.0,0,0.0,-1,0.0,0.0,0.0,0,0.0,1.0974
65883,0,,,,,,,,-0.2,-0.52,1.25,-30,0,-3,0.56,0,,,,,,,,,,,,,,,,,
65923,0,,,,,,,,-0.42,-0.51,1.16,-30,-13,-1,0.66,0,,,,,,,,,,,,,,,,,
65963,0,,,,,,,,-0.2,-0.52,1.13,-30,-22,1,0.56,0,,,,,,,,,,,,,,,,,
66003,0,,,,,,,,0.22,-0.56,0.72,-30,-6,-0,0.61,0,,,,,,,,,,,,,,,,,
66043,0,1,1,46,55,34,35,35,0.24,-0.55,0.71,-30,13,-4,0.6,0,0,0.0,0.0,0.0,0.0,0,0,0.0,0,0.0,-1,0.0,0.0,0.0,0,0.0,1.1007
66083,0,,,,,,,,-0.18,-0.5,0.8,-30,-0,-0,0.53,0,,,,,,,,,,,,,,,,,
66123,0,,,,,,,,-0.48,-0.44,0.94,-30,-27,3,0.66,0,,,,,,,,,,,,,,,,,
66163,0,,,,,,,,-0.35,-0.38,0.83,-30,-39,4,0.52,0,,,,,,,,,,,,,,,,,
66203,0,,,,,,,,0.03,-0.34,0.45,-30,-39,5,0.34,0,,,,,,,,,,,,,,,,,
66243,0,0,0,46,55,34,36,29,0.41,-0.32,-0.01,-29,-23,4,0.52,0,0,0.0,0.0,0.0,0.0,0,0,0.0,0,0.0,-1,0.0,0.0,0.0,0,0.0,1.1041
66283,0,,,,,,,,0.71,-0.37,-0.35,-28,8,1,0.8,0,,,,,,,,,,,,,,,,,
66323,0,,,,,,,,0.36,-0.42,-0.47,-28,9,0,0.55,0,,,,,,,,,,,,,,,,,
66363,0,,,,,,,,0.46,-0.38,-0.28,-27,1,2,0.6,0,,,,,,,,,,,,,,,,,
66403,0,,,,,,,,0.76,-0.4,-0.51,-26,25,-1,0.85,0,,,,,,,,,,,,,,,,,
66443,0,0,1,46,54,34,35,26,0.69,-0.41,-0.08,-25,36,-4,0.8,0,0,0.0,0.0,0.0,0.0,0,0,0.0,0,0.0,-1,0.0,0.0,0.0,0,0.0,1.1074
66483,0,,,,,,,,0.18,-0.46,0.15,-24,15,-1,0.49,0,,,,,,,,,,,,,,,,,
66523,0,,,,,,,,-0.13,-0.42,0.44,-23,-13,2,0.44,0,,,,,,,,,,,,,,,,,
66563,0,,,,,,,,0.11,-0.33,0.33,-23,-17,4,0.35,0,,,,,,,,,,,,,,,,,
66603,0,,,,,,,,0.47,-0.35,-0.11,-23,4,1,0.59,0,,,,,,,,,,,,,,,,,
66643,0,0,0,47,54,35,35,26,0.72,-0.38,-0.18,-23,31,-3,0.82,0,0,0.0,0.0,0.0,0.0,0,0,0.0,0,0.0,-1,0.0,0.0,0.0,0,0.0,1.1107
66683,0,,,,,,,,0.28,-0.37,-0.07,-22,25,-2,0.47,0,,,,,,,,,,,,,,,,,
66723,0,,,,,,,,0.3,-0.38,0.04,-22,5,0,0.48,0,,,,,,,,,,,,,,,,,
66763,0,,,,,,,,0.63,-0.42,-0.23,-22,7,3,0.76,0,,,,,,,,,,,,,,,,,
66803,0,,,,,,,,0.76,-0.45,-0.12,-21,34,-2,0.88,0,,,,,,,,,,,,,,,,,
66843,0,0,0,47,54,35,36,24,0.34,-0.37,0.24,-21,52,-6,0.5,0,0,0.0,0.0,0.0,0.0,0,0,0.0,0,0.0,-1,0.0,0.0,0.0,0,0.0,1.1141
66883,0,,,,,,,,-0.11,-0.35,0.57,-21,44,-7,0.36,0,,,,,,,,,,,,,,,,,
66923,0,,,,,,,,-0.3,-0.31,0.84,-20,10,-1,0.43,0,,,,,,,,,,,,,,,,,
66963,0,,,,,,,,0.13,-0.3,0.51,-20,-6,1,0.33,0,,,,,,,,,,,,,,,,,
67003,0,,,,,,,,0.35,-0.28,0.54,-19,12,-2,0.45,0,,,,,,,,,,,,,,,,,
67043,0,0,0,46,54,33,36,18,-0.02,-0.32,0.81,-19,18,-4,0.32,0,0,0.0,0.0,0.0,0.0,0,0,0.0,0,0.0,-1,0.0,0.0,0.0,0,0.0,1.1174
67083,0,,,,,,,,-0.39,-0.31,1.04,-18,-3,-3,0.5,0,,,,,,,,,,,,,,,,,
67123,0,,,,,,,,-0.68,-0.29,1.12,-17,-43,3,0.74,0,,,,,,,,,,,,,,,,,
67163,0,,,,,,,,-0.58,-0.23,1.04,-16,-76,9,0.62,0,,,,,,,,,,,,,,,,,
67203,0,,,,,,,,-0.09,-0.27,0.82,-16,-83,11,0.28,0,,,,,,,,,,,,,,,,,
67243,0,-1,2,46,54,34,36,17,0.31,-0.28,0.29,-15,-55,7,0.42,0,0,0.0,0.0,0.0,0.0,0,0,0.0,0,0.0,-1,0.0,0.0,0.0,0,0.0,1.1207
67283,0,,,,,,,,0.57,-0.28,-0.02,-14,-10,3,0.63,0,,,,,,,,,,,,,,,,,
67323,0,,,,,,,,0.23,-0.27,0.33,-14,19,-2,0.35,0,,,,,,,,,,,,,,,,,
67363,0,,,,,,,,-0.16,-0.27,0.53,-14,5,0,0.32,0,,,,,,,,,,,,,,,,,
67403,0,,,,,,,,0.11,-0.2,0.63,-13,-8,2,0.23,0,,,,,,,,,,,,,,,,,
67443,0,0,1,46,53,34,36,17,0.45,-0.23,0.61,-13,13,0,0.51,0,0,0.0,0.0,0.0,0.0,0,0,0.0,0,0.0,-1,0.0,0.0,0.0,0,0.0,1.1241
67483,0,,,,,,,,0.36,-0.18,0.77,-12,37,-5,0.4,0,,,,,,,,,,,,,,,,,
67523,0,,,,,,,,-0.08,-0.12,0.84,-13,34,-6,0.14,0,,,,,,,,,,,,,,,,,
67563,0,,,,,,,,-0.26,-0.11,1.06,-13,8,-1,0.28,0,,,,,,,,,,,,,,,,,
67603,0,,,,,,,,0.11,-0.06,1.12,-12,11,-2,0.13,0,,,,,,,,,,,,,,,,,
67643,0,0,1,47,54,34,36,17,0.0,-0.1,1.2,-13,18,-4,0.1,0,0,0.0,0.0,0.0,0.0,0,0,0.0,0,0.0,-1,0.0,0.0,0.0,0,0.0,1.1274
67683,0,,,,,,,,-0.32,-0.14,1.2,-12,4,-1,0.35,0,,,,,,,,,,,,,,,,,
67723,0,,,,,,,,-0.11,-0.15,0.94,-13,-6,2,0.19,0,,,,,,,,,,,,,,,,,
67763,0,,,,,,,,-0.05,-0.13,0.99,-13,6,-1,0.14,0,,,,,,,,,,,,,,,,,
67803,0,,,,,,,,-0.37,-0.11,1.13,-12,-5,-1,0.39,0,,,,,,,,,,,,,,,,,
67843,0,1,1,47,53,34,36,12,-0.11,-0.03,1.1,-12,-13,2,0.11,0,0,0.0,0.0,0.0,0.0,0,0,0.0,0,0.0,-1,0.0,0.0,0.0,0,0.0,1.1307
67883,0,,,,,,,,0.1,-0.07,1.14,-12,1,-2,0.12,0,,,,,,,,,,,,,,,,,
67923,0,,,,,,,,-0.11,-0.07,1.0,-11,-9,0,0.12,0,,,,,,,,,,,,,,,,,
67963,0,,,,,,,,0.24,-0.08,0.72,-10,-10,2,0.26,0,,,,,,,,,,,,,,,,,
68003,0,,,,,,,,0.45,-0.16,0.6,-10,13,-2,0.48,0,,,,,,,,,,,,,,,,,
68043,0,-0,0,46,54,33,37,8,0.03,-0.12,0.74,-9,11,-2,0.12,0,0,0.0,0.0,0.0,0.0,0,0,0.0,0,0.0,-1,0.0,0.0,0.0,0,0.0,1.1341
68083,0,,,,,,,,0.19,-0.08,0.98,-8,-0,0,0.21,0,,,,,,,,,,,,,,,,,
68123,0,,,,,,,,0.28,-0.08,0.95,-8,12,-2,0.29,0,,,,,,,,,,,,,,,,,
68163,0,,,,,,,,-0.06,-0.09,0.84,-7,1,1,0.11,0,,,,,,,,,,,,,,,,,
68203,0,,,,,,,,0.29,-0.07,0.97,-6,3,-0,0.3,0,,,,,,,,,,,,,,,,,
68243,0,1,2,47,53,33,37,7,0.15,-0.06,1.1,-6,14,-2,0.17,0,0,0.0,0.0,0.0,0.0,0,0,0.0,0,0.0,-1,0.0,0.0,0.0,0,0.0,1.1374
68283,0,,,,,,,,-0.09,-0.05,1.07,-5,-2,0,0.1,0,,,,,,,,,,,,,,,,,
68323,0,,,,,,,,0.14,-0.08,1.25,-5,5,-2,0.16,0,,,,,,,,,,,,,,,,,
68363,0,,,,,,,,-0.16,-0.06,1.21,-5,-5,0,0.17,0,,,,,,,,,,,,,,,,,
68403,0,,,,,,,,0.19,-0.07,1.33,-4,-0,-0,0.2,0,,,,,,,,,,,,,,,,,
68443,0,-1,1,47,53,33,36,5,0.07,-0.09,0.98,-4,1,-1,0.11,0,0,0.0,0.0,0.0,0.0,0,0,0.0,0,0.0,-1,0.0,0.0,0.0,0,0.0,1.1407
68483,0,,,,,,,,0.24,-0.04,1.04,-3,5,-1,0.24,0,,,,,,,,,,,,,,,,,
68523,0,,,,,,,,-0.05,-0.07,0.82,-3,0,-1,0.08,0,,,,,,,,,,,,,,,,,
68563,0,,,,,,,,0.15,-0.04,0.9,-3,-2,0,0.15,0,,,,,,,,,,,,,,,,,
68603,0,,,,,,,,-0.06,-0.03,0.94,-3,-1,-1,0.07,0,,,,,,,,,,,,,,,,,
68643,0,1,2,47,52,33,36,5,0.09,0.0,1.13,-3,-6,-0,0.09,0,0,0.0,0.0,0.0,0.0,0,0,0.0,0,0.0,-1,0.0,0.0,0.0,0,0.0,1.144
68683,0,,,,,,,,-0.03,0.01,1.05,-3,-2,-1,0.03,0,,,,,,,,,,,,,,,,,
68723,0,,,,,,,,0.12,0.0,0.96,-2,-0,-1,0.12,0,,,,,,,,,,,,,,,,,
68763,0,,,,,,,,-0.18,-0.05,0.74,-2,-6,1,0.18,0,,,,,,,,,,,,,,,,,
68803,0,,,,,,,,0.16,-0.05,0.98,-2,-2,0,0.17,0,,,,,,,,,,,,,,,,,
68843,0,-0,2,47,53,33,36,6,-0.01,-0.06,0.72,-2,-0,1,0.06,0,0,0.0,0.0,0.0,0.0,0,0,0.0,0,0.0,-1,0.0,0.0,0.0,0,0.0,1.1474
68883,0,,,,,,,,0.19,-0.06,0.89,-2,-0,0,0.2,0,,,,,,,,,,,,,,,,,
68923,0,,,,,,,,-0.03,-0.08,0.62,-3,6,-0,0.08,0,,,,,,,,,,,,,,,,,
68963,0,,,,,,,,0.15,-0.06,0.88,-3,3,-1,0.16,0,,,,,,,,,,,,,,,,,
69003,0,,,,,,,,-0.02,-0.05,0.9,-4,2,-1,0.06,0,,,,,,,,,,,,,,,,,
69043,0,-1,2,46,53,33,37,10,0.15,-0.1,1.04,-4,4,-1,0.18,0,0,0.0,0.0,0.0,0.0,0,0,0.0,0,0.0,-1,0.0,0.0,0.0,0,0.0,1.1507
69083,0,,,,,,,,-0.05,-0.12,0.99,-5,6,-2,0.13,0,,,,,,,,,,,,,,,,,
69123,0,,,,,,,,-0.1,-0.11,1.02,-6,-6,1,0.15,0,,,,,,,,,,,,,,,,,
69163,0,,,,,,,,0.3,-0.15,0.86,-7,9,-2,0.33,0,,,,,,,,,,,,,,,,,
69203,0,,,,,,,,0.51,-0.2,0.83,-8,31,-6,0.54,0,,,,,,,,,,,,,,,,,
69243,0,1,1,46,53,33,37,16,0.12,-0.16,1.06,-9,27,-6,0.2,0,0,0.0,0.0,0.0,0.0,0,0,0.0,0,0.0,-1,0.0,0.0,0.0,0,0.0,1.154
69283,0,,,,,,,,-0.28,-0.2,1.13,-10,-3,-2,0.34,0,,,,,,,,,,,,,,,,,
69323,0,,,,,,,,-0.11,-0.19,1.11,-10,-30,3,0.22,0,,,,,,,,,,,,,,,,,
69363,0,,,,,,,,0.29,-0.18,0.64,-11,-22,2,0.34,0,,,,,,,,,,,,,,,,,
69403,0,,,,,,,,0.26,-0.18,0.68,-12,1,-1,0.32,0,,,,,,,,,,,,,,,,,
69443,0,-0,2,46,51,34,36,19,-0.17,-0.19,0.84,-12,6,-3,0.26,0,0,0.0,0.0,0.0,0.0,0,0,0.0,0,0.0,-1,0.0,0.0,0.0,0,0.0,1.1574
69483,0,,,,,,,,-0.4,-0.22,1.03,-13,-17,0,0.45,0,,,,,,,,,,,,,,,,,
69523,0,,,,,,,,-0.02,-0.18,0.91,-13,-28,1,0.18,0,,,,,,,,,,,,,,,,,
69563,0,,,,,,,,0.32,-0.21,0.88,-14,-5,-1,0.38,0,,,,,,,,,,,,,,,,,
69603,0,,,,,,,,0.2,-0.2,1.09,-14,18,-4,0.28,0,,,,,,,,,,,,,,,,,
69643,0,0,0,46,53,35,37,21,-0.21,-0.14,1.27,-15,31,-7,0.26,0,0,0.0,0.0,0.0,0.0,0,0,0.0,0,0.0,-1,0.0,0.0,0.0,0,0.0,1.1607
69683,0,,,,,,,,-0.55,-0.07,1.4,-15,33,-9,0.56,0,,,,,,,,,,,,,,,,,
69723,0,,,,,,,,-0.83,-0.07,1.52,-15,26,-10,0.83,0,,,,,,,,,,,,,,,,,
69763,0,,,,,,,,-1.05,-0.06,1.61,-16,12,-9,1.05,0,,,,,,,,,,,,,,,,,
69803,0,,,,,,,,-1.23,-0.03,1.68,-16,-4,-7,1.23,0,,,,,,,,,,,,,,,,,
69843,0,-0,2,46,54,35,37,28,-1.38,0.03,1.74,-17,-21,-6,1.38,0,0,0.0,0.0,0.0,0.0,0,0,0.0,0,0.0,-1,0.0,0.0,0.0,0,0.0,1.164
69883,0,,,,,,,,-1.5,-0.02,1.79,-18,-26,-8,1.5,0,,,,,,,,,,,,,,,,,
69923,0,,,,,,,,-1.59,0.0,1.83,-20,-16,-8,1.59,0,,,,,,,,,,,,,,,,,
69963,0,,,,,,,,-1.33,-0.06,1.86,-21,17,-9,1.33,0,,,,,,,,,,,,,,,,,
70003,0,,,,,,,,-0.7,-0.15,1.19,-21,49,-8,0.71,0,,,,,,,,,,,,,,,,,
70043,0,-1,2,45,54,35,37,32,-0.19,-0.27,0.58,-22,46,-5,0.33,0,0,0.0,0.0,0.0,0.0,0,0,0.0,0,0.0,-1,0.0,0.0,0.0,0,0.0,1.1674
70083,0,,,,,,,,-0.09,-0.28,0.2,-23,10,-2,0.3,0,,,,,,,,,,,,,,,,,
70123,0,,,,,,,,-0.46,-0.21,0.54,-24,-26,-2,0.5,0,,,,,,,,,,,,,,,,,
70163,0,,,,,,,,-0.59,-0.18,0.82,-24,-13,-3,0.61,0,,,,,,,,,,,,,,,,,
70203,0,,,,,,,,-0.15,-0.23,0.31,-25,10,-2,0.28,0,,,,,,,,,,,,,,,,,
70243,0,1,0,45,54,35,36,36,-0.19,-0.3,0.27,-25,-8,-3,0.35,0,0,0.0,0.0,0.0,0.0,0,0,0.0,0,0.0,-1,0.0,0.0,0.0,0,0.0,1.1707
70283,0,,,,,,,,-0.26,-0.25,0.6,-26,-3,-2,0.36,0,,,,,,,,,,,,,,,,,
70323,0,,,,,,,,-0.19,-0.29,0.1,-27,0,-1,0.34,0,,,,,,,,,,,,,,,,,
70363,0,,,,,,,,-0.25,-0.29,0.46,-27,-4,-2,0.39,0,,,,,,,,,,,,,,,,,
70403,0,,,,,,,,-0.12,-0.34,0.01,-28,1,-0,0.36,0,,,,,,,,,,,,,,,,,
70443,0,0,1,45,54,35,36,41,-0.18,-0.33,0.36,-29,-7,-1,0.37,0,0,0.0,0.0,0.0,0.0,0,0,0.0,0,0.0,-1,0.0,0.0,0.0,0,0.0,1.174
70483,0,,,,,,,,-0.14,-0.33,0.13,-29,4,-1,0.35,0,,,,,,,,,,,,,,,,,
70523,0,,,,,,,,-0.13,-0.33,0.48,-30,4,-2,0.36,0,,,,,,,,,,,,,,,,,
70563,0,,,,,,,,-0.14,-0.45,0.33,-30,4,-2,0.47,0,,,,,,,,,,,,,,,,,
70603,0,,,,,,,,-0.16,-0.45,0.25,-31,4,-0,0.48,0,,,,,,,,,,,,,,,,,
70643,0,0,0,45,54,36,36,46,-0.19,-0.39,0.58,-31,1,-1,0.43,0,0,0.0,0.0,0.0,0.0,0,0,0.0,0,0.0,-1,0.0,0.0,0.0,0,0.0,1.1774
70683,0,,,,,,,,-0.2,-0.42,0.14,-31,2,-1,0.47,0,,,,,,,,,,,,,,,,,
70723,0,,,,,,,,-0.34,-0.43,0.49,-32,-5,-2,0.55,0,,,,,,,,,,,,,,,,,
70763,0,,,,,,,,-0.01,-0.37,0.27,-33,18,-3,0.37,0,,,,,,,,,,,,,,,,,
70803,0,,,,,,,,0.37,-0.44,-0.16,-33,31,-2,0.58,0,,,,,,,,,,,,,,,,,
70843,0,0,0,45,54,35,35,48,0.68,-0.46,-0.51,-33,23,-1,0.82,0,0,0.0,0.0,0.0,0.0,0,0,0.0,0,0.0,-1,0.0,0.0,0.0,0,0.0,1.1807
70883,0,,,,,,,,0.39,-0.46,-0.4,-34,-10,1,0.61,0,,,,,,,,,,,,,,,,,
70923,0,,,,,,,,0.2,-0.37,0.06,-34,-19,1,0.42,0,,,,,,,,,,,,,,,,,
70963,0,,,,,,,,0.38,-0.4,-0.33,-35,-3,0,0.55,0,,,,,,,,,,,,,,,,,
71003,0,,,,,,,,0.14,-0.37,0.08,-35,-17,-1,0.4,0,,,,,,,,,,,,,,,,,
71043,0,-0,1,46,55,35,35,49,0.07,-0.41,0.02,-35,-8,0,0.42,0,0,0.0,0.0,0.0,0.0,0,0,0.0,0,0.0,-1,0.0,0.0,0.0,0,0.0,1.184
71083,0,,,,,,,,-0.04,-0.43,0.17,-35,-21,-0,0.44,0,,,,,,,,,,,,,,,,,
71123,0,,,,,,,,0.02,-0.48,0.12,-35,-10,-0,0.48,0,,,,,,,,,,,,,,,,,
71163,0,,,,,,,,0.01,-0.51,0.12,-36,-9,-1,0.51,0,,,,,,,,,,,,,,,,,
71203,0,,,,,,,,-0.01,-0.44,0.46,-36,-4,-2,0.44,0,,,,,,,,,,,,,,,,,
71243,0,0,1,46,55,35,35,49,0.1,-0.52,-0.01,-36,3,-1,0.53,0,0,0.0,0.0,0.0,0.0,0,0,0.0,0,0.0,-1,0.0,0.0,0.0,0,0.0,1.1874
71283,0,,,,,,,,0.15,-0.43,0.37,-37,0,-3,0.45,0,,,,,,,,,,,,,,,,,
71323,0,,,,,,,,0.37,-0.49,-0.08,-37,15,-3,0.61,0,,,,,,,,,,,,,,,,,
71363,0,,,,,,,,0.03,-0.5,0.11,-37,-0,-2,0.51,0,,,,,,,,,,,,,,,,,
71403,0,,,,,,,,0.02,-0.45,0.45,-37,4,-3,0.45,0,,,,,,,,,,,,,,,,,
71443,0,1,1,46,56,35,35,49,0.23,-0.53,-0.01,-38,13,-1,0.58,0,0,0.0,0.0,0.0,0.0,0,0,0.0,0,0.0,-1,0.0,0.0,0.0,0,0.0,1.1907
71483,0,,,,,,,,-0.13,-0.43,0.36,-38,-10,-1,0.45,0,,,,,,,,,,,,,,,,,
71523,0,,,,,,,,-0.07,-0.49,0.5,-37,-3,-1,0.49,0,,,,,,,,,,,,,,,,,
71563,0,,,,,,,,0.17,-0.6,0.02,-37,8,-0,0.63,0,,,,,,,,,,,,,,,,,
71603,0,,,,,,,,-0.03,-0.51,0.4,-37,-3,-1,0.51,0,,,,,,,,,,,,,,,,,
71643,0,0,1,46,54,35,35,49,0.05,-0.5,0.15,-37,8,-1,0.51,0,0,0.0,0.0,0.0,0.0,0,0,0.0,0,0.0,-1,0.0,0.0,0.0,0,0.0,1.194
71683,0,,,,,,,,-0.07,-0.47,0.37,-38,-10,-1,0.48,0,,,,,,,,,,,,,,,,,
71723,0,,,,,,,,0.06,-0.45,0.29,-38,2,-2,0.46,0,,,,,,,,,,,,,,,,,
71763,0,,,,,,,,0.12,-0.5,-0.14,-38,11,-1,0.52,0,,,,,,,,,,,,,,,,,
71803,0,,,,,,,,-0.14,-0.46,0.26,-38,-12,-1,0.48,0,,,,,,,,,,,,,,,,,
71843,0,0,0,45,56,35,35,45,-0.06,-0.43,0.19,-38,-1,-1,0.43,0,0,0.0,0.0,0.0,0.0,0,0,0.0,0,0.0,-1,0.0,0.0,0.0,0,0.0,1.1974
71883,0,,,,,,,,-0.13,-0.47,0.18,-38,-9,-1,0.49,0,,,,,,,,,,,,,,,,,
71923,0,,,,,,,,-0.15,-0.49,0.52,-37,6,-1,0.51,0,,,,,,,,,,,,,,,,,
71963,0,,,,,,,,0.16,-0.47,0.04,-36,3,-1,0.5,0,,,,,,,,,,,,,,,,,
72003,0,,,,,,,,-0.07,-0.39,0.22,-36,-15,-1,0.4,0,,,,,,,,,,,,,,,,,
72043,0,-0,2,46,55,35,36,34,-0.0,-0.33,0.32,-34,10,-3,0.33,0,0,0.0,0.0,0.0,0.0,0,0,0.0,0,0.0,-1,0.0,0.0,0.0,0,0.0,1.2007
72083,0,,,,,,,,0.14,-0.33,0.0,-33,-2,-1,0.36,0,,,,,,,,,,,,,,,,,
72123,0,,,,,,,,-0.2,-0.25,0.38,-32,-15,-2,0.31,0,,,,,,,,,,,,,,,,,
72163,0,,,,,,,,-0.06,-0.23,0.41,-30,11,-3,0.24,0,,,,,,,,,,,,,,,,,
72203,0,,,,,,,,0.23,-0.26,-0.05,-29,8,-1,0.35,0,,,,,,,,,,,,,,,,,
72243,0,-1,2,47,54,35,35,32,-0.0,-0.25,0.27,-28,-6,-2,0.25,0,0,0.0,0.0,0.0,0.0,0,0,0.0,0,0.0,-1,0.0,0.0,0.0,0,0.0,1.2041
72283,0,,,,,,,,0.06,-0.24,0.56,-27,19,-4,0.25,0,,,,,,,,,,,,,,,,,
72323,0,,,,,,,,0.32,-0.31,0.07,-26,8,-1,0.45,0,,,,,,,,,,,,,,,,,
72363,0,,,,,,,,0.01,-0.27,0.3,-26,-13,-2,0.27,0,,,,,,,,,,,,,,,,,
72403,0,,,,,,,,-0.11,-0.21,0.62,-25,2,-2,0.24,0,,,,,,,,,,,,,,,,,
72443,0,-1,2,46,54,34,36,33,0.28,-0.3,0.12,-25,16,-1,0.41,0,0,0.0,0.0,0.0,0.0,0,0,0.0,0,0.0,-1,0.0,0.0,0.0,0,0.0,1.2074
72483,0,,,,,,,,0.18,-0.35,0.1,-25,-3,-0,0.4,0,,,,,,,,,,,,,,,,,
72523,0,,,,,,,,-0.15,-0.36,0.46,-24,-8,-1,0.39,0,,,,,,,,,,,,,,,,,
72563,0,,,,,,,,0.11,-0.36,0.35,-25,23,-4,0.37,0,,,,,,,,,,,,,,,,,
72603,0,,,,,,,,0.46,-0.37,-0.1,-25,19,-1,0.59,0,,,,,,,,,,,,,,,,,
72643,0,0,1,46,54,35,36,33,0.12,-0.38,-0.06,-25,-9,-1,0.4,0,0,0.0,0.0,0.0,0.0,0,0,0.0,0,0.0,-1,0.0,0.0,0.0,0,0.0,1.2107
72683,0,,,,,,,,-0.28,-0.33,0.33,-25,-10,-5,0.43,0,,,,,,,,,,,,,,,,,
72723,0,,,,,,,,-0.47,-0.3,0.65,-25,15,-8,0.56,0,,,,,,,,,,,,,,,,,
72763,0,,,,,,,,-0.59,-0.33,0.9,-25,31,-10,0.68,0,,,,,,,,,,,,,,,,,
72803,0,,,,,,,,-0.86,-0.39,1.11,-25,22,-8,0.94,0,,,,,,,,,,,,,,,,,
72843,0,0,1,46,56,33,35,34,-0.81,-0.37,1.25,-24,7,-5,0.89,0,0,0.0,0.0,0.0,0.0,0,0,0.0,0,0.0,-1,0.0,0.0,0.0,0,0.0,1.2141
72883,0,,,,,,,,-0.52,-0.42,1.19,-25,11,-6,0.67,0,,,,,,,,,,,,,,,,,
72923,0,,,,,,,,-0.28,-0.4,1.2,-25,7,-4,0.49,0,,,,,,,,,,,,,,,,,
72963,0,,,,,,,,-0.13,-0.39,1.19,-25,4,-3,0.41,0,,,,,,,,,,,,,,,,,
73003,0,,,,,,,,-0.0,-0.37,1.01,-25,4,-4,0.37,0,,,,,,,,,,,,,,,,,
73043,0,1,1,48,57,33,34,34,0.02,-0.49,0.93,-26,5,-4,0.49,0,0,0.0,0.0,0.0,0.0,0,0,0.0,0,0.0,-1,0.0,0.0,0.0,0,0.0,1.2174
73083,0,,,,,,,,0.16,-0.43,1.06,-27,-1,-2,0.45,0,,,,,,,,,,,,,,,,,
73123,0,,,,,,,,0.04,-0.51,0.48,-28,-6,2,0.51,0,,,,,,,,,,,,,,,,,
73163,0,,,,,,,,0.04,-0.47,0.45,-29,4,-6,0.47,0,,,,,,,,,,,,,,,,,
73203,0,,,,,,,,0.34,-0.29,0.75,-29,15,-12,0.45,0,,,,,,,,,,,,,,,,,
73243,0,0,2,48,58,33,33,33,0.42,-0.28,0.58,-30,6,-6,0.51,0,0,0.0,0.0,0.0,0.0,0,0,0.0,0,0.0,-1,0.0,0.0,0.0,0,0.0,1.2207
73283,0,,,,,,,,0.38,-0.39,0.69,-29,7,-6,0.55,0,,,,,,,,,,,,,,,,,
73323,0,,,,,,,,0.38,-0.42,0.58,-29,9,-7,0.56,0,,,,,,,,,,,,,,,,,
73363,0,,,,,,,,0.21,-0.54,0.45,-30,7,-6,0.58,0,,,,,,,,,,,,,,,,,
73403,0,,,,,,,,0.16,-0.49,0.33,-30,1,-1,0.51,0,,,,,,,,,,,,,,,,,
73443,0,0,0,47,57,34,35,34,0.06,-0.6,0.13,-31,3,-2,0.6,0,0,0.0,0.0,0.0,0.0,0,0,0.0,0,0.0,-1,0.0,0.0,0.0,0,0.0,1.2241
73483,0,,,,,,,,0.24,-0.49,0.47,-31,8,-3,0.54,0,,,,,,,,,,,,,,,,,
73523,0,,,,,,,,0.2,-0.47,0.43,-30,8,-2,0.51,0,,,,,,,,,,,,,,,,,
73563,0,,,,,,,,0.13,-0.56,0.33,-30,2,-0,0.58,0,,,,,,,,,,,,,,,,,
73603,0,,,,,,,,0.3,-0.49,0.65,-31,1,-1,0.58,0,,,,,,,,,,,,,,,,,
73643,0,0,1,46,55,35,34,33,-0.1,-0.56,0.14,-31,-6,4,0.57,0,0,0.0,0.0,0.0,0.0,0,0,0.0,0,0.0,-1,0.0,0.0,0.0,0,0.0,1.2274
73683,0,,,,,,,,-0.35,-0.66,-0.27,-31,-16,7,0.75,0,,,,,,,,,,,,,,,,,
73723,0,,,,,,,,-0.19,-0.71,-0.52,-30,-26,14,0.73,0,,,,,,,,,,,,,,,,,
73763,0,,,,,,,,0.11,-0.6,-0.04,-30,-15,8,0.61,0,,,,,,,,,,,,,,,,,
73803,0,,,,,,,,0.34,-0.28,0.35,-30,-3,2,0.44,0,,,,,,,,,,,,,,,,,
73843,0,0,0,48,58,34,34,34,0.57,-0.19,0.66,-30,1,2,0.6,0,0,0.0,0.0,0.0,0.0,0,0,0.0,0,0.0,-1,0.0,0.0,0.0,0,0.0,1.2307
73883,0,,,,,,,,0.74,-0.18,0.92,-29,12,-2,0.76,0,,,,,,,,,,,,,,,,,
73923,0,,,,,,,,0.44,-0.33,0.72,-30,-0,4,0.55,0,,,,,,,,,,,,,,,,,
73963,0,,,,,,,,0.6,-0.24,0.96,-30,21,-8,0.65,0,,,,,,,,,,,,,,,,,
74003,0,,,,,,,,0.28,-0.35,0.4,-29,5,2,0.45,0,,,,,,,,,,,,,,,,,
74043,0,-0,2,48,57,34,33,30,0.47,-0.16,0.57,-30,17,-9,0.5,0,0,0.0,0.0,0.0,0.0,0,0,0.0,0,0.0,-1,0.0,0.0,0.0,0,0.0,1.2341
74083,0,,,,,,,,0.43,-0.18,0.48,-29,14,-11,0.46,0,,,,,,,,,,,,,,,,,
74123,0,,,,,,,,0.39,-0.24,0.41,-29,14,-13,0.46,0,,,,,,,,,,,,,,,,,
74163,0,,,,,,,,0.36,-0.23,0.35,-28,10,-14,0.43,0,,,,,,,,,,,,,,,,,
74203,0,,,,,,,,0.29,-0.22,0.3,-27,5,-12,0.37,0,,,,,,,,,,,,,,,,,
74243,0,-1,2,49,55,33,33,19,0.21,-0.26,-0.13,-26,-8,3,0.33,0,0,0.0,0.0,0.0,0.0,0,0,0.0,0,0.0,-1,0.0,0.0,0.0,0,0.0,1.2374
74283,0,,,,,,,,0.37,-0.32,-0.13,-25,2,-3,0.49,0,,,,,,,,,,,,,,,,,
74323,0,,,,,,,,0.44,-0.27,-0.09,-24,17,-14,0.51,0,,,,,,,,,,,,,,,,,
74363,0,,,,,,,,0.47,-0.25,-0.45,-22,-2,2,0.53,0,,,,,,,,,,,,,,,,,
74403,0,,,,,,,,0.43,-0.13,-0.34,-20,17,-10,0.45,0,,,,,,,,,,,,,,,,,
74443,0,-1,2,49,55,31,35,5,0.42,-0.03,-0.39,-17,-6,6,0.42,0,0,0.0,0.0,0.0,0.0,0,0,0.0,0,0.0,-1,0.0,0.0,0.0,0,0.0,1.2407
74483,0,,,,,,,,0.17,-0.22,-0.3,-15,10,-6,0.28,0,,,,,,,,,,,,,,,,,
74523,0,,,,,,,,0.24,-0.14,0.14,-12,24,-20,0.27,0,,,,,,,,,,,,,,,,,
74563,0,,,,,,,,0.3,-0.21,0.49,-10,34,-30,0.36,0,,,,,,,,,,,,,,,,,
74603,0,,,,,,,,0.41,-0.18,0.78,-7,40,-33,0.44,0,,,,,,,,,,,,,,,,,
74643,0,-1,2,49,55,30,35,-4,0.52,-0.17,1.01,-5,44,-39,0.54,0,0,0.0,0.0,0.0,0.0,0,0,0.0,0,0.0,-1,0.0,0.0,0.0,0,0.0,1.2441
74683,0,,,,,,,,0.32,-0.01,0.44,-3,27,-26,0.32,0,,,,,,,,,,,,,,,,,
74723,0,,,,,,,,0.41,0.1,0.73,-1,25,-23,0.43,0,,,,,,,,,,,,,,,,,
74763,0,,,,,,,,0.34,0.12,0.21,1,19,-17,0.36,0,,,,,,,,,,,,,,,,,
74803,0,,,,,,,,0.3,0.29,0.15,3,17,-15,0.42,0,,,,,,,,,,,,,,,,,
74843,0,-0,2,51,54,30,35,-9,0.47,0.32,0.1,5,16,-13,0.57,0,0,0.0,0.0,0.0,0.0,0,0,0.0,0,0.0,-1,0.0,0.0,0.0,0,0.0,1.2474
74883,0,,,,,,,,0.51,0.32,0.2,6,7,-12,0.6,0,,,,,,,,,,,,,,,,,
74923,0,,,,,,,,0.34,0.34,-0.13,8,9,-11,0.48,0,,,,,,,,,,,,,,,,,
74963,0,,,,,,,,0.48,0.44,0.28,9,10,-8,0.65,0,,,,,,,,,,,,,,,,,
75003,0,,,,,,,,0.39,0.33,-0.16,10,-1,-2,0.51,0,,,,,,,,,,,,,,,,,
75043,0,1,1,51,55,28,35,-5,0.32,0.44,0.25,10,-7,-5,0.54,0,0,0.0,0.0,0.0,0.0,0,0,0.0,0,0.0,-1,0.0,0.0,0.0,0,0.0,1.2507
75083,0,,,,,,,,0.25,0.37,0.51,10,-1,-4,0.45,0,,,,,,,,,,,,,,,,,
75123,0,,,,,,,,0.27,0.22,0.65,9,7,-1,0.35,0,,,,,,,,,,,,,,,,,
75163,0,,,,,,,,0.36,0.12,0.48,8,10,2,0.38,0,,,,,,,,,,,,,,,,,
75203,0,,,,,,,,0.41,0.05,0.28,7,10,4,0.42,0,,,,,,,,,,,,,,,,,
75243,0,0,2,50,54,31,35,4,0.47,0.03,0.25,6,10,4,0.47,0,0,0.0,0.0,0.0,0.0,0,0,0.0,0,0.0,-1,0.0,0.0,0.0,0,0.0,1.2541
75283,0,,,,,,,,0.58,-0.06,0.58,4,13,1,0.59,0,,,,,,,,,,,,,,,,,
75323,0,,,,,,,,0.52,-0.03,0.74,3,12,-2,0.52,0,,,,,,,,,,,,,,,,,
75363,0,,,,,,,,0.35,0.01,0.98,2,12,-6,0.35,0,,,,,,,,,,,,,,,,,
75403,0,,,,,,,,0.32,0.01,0.81,2,16,-4,0.32,0,,,,,,,,,,,,,,,,,
75443,0,9,7,46,53,32,36,5,0.32,-0.04,0.64,-0,5,3,0.32,0,0,0.0,0.0,0.0,0.0,0,0,0.0,0,0.0,-1,0.0,0.0,0.0,0,0.0,1.2574
75483,0,,,,,,,,0.04,-0.11,0.5,-1,4,2,0.12,0,,,,,,,,,,,,,,,,,
75523,0,,,,,,,,-0.11,-0.24,0.42,-2,8,4,0.26,0,,,,,,,,,,,,,,,,,
75563,0,,,,,,,,-0.15,-0.22,0.72,-3,21,-9,0.26,0,,,,,,,,,,,,,,,,,
75603,0,,,,,,,,-0.29,-0.14,0.56,-4,4,3,0.32,0,,,,,,,,,,,,,,,,,
75643,0,12,8,39,48,39,44,5,-0.46,-0.15,0.44,-5,8,2,0.48,0,0,0.0,0.0,0.0,0.0,0,0,0.0,0,0.0,-1,0.0,0.0,0.0,0,0.0,1.2607
75683,0,,,,,,,,-0.35,-0.33,0.73,-7,21,-9,0.48,0,,,,,,,,,,,,,,,,,
75723,0,,,,,,,,-0.32,-0.37,0.61,-9,5,-2,0.49,0,,,,,,,,,,,,,,,,,
75763,0,,,,,,,,-0.61,-0.37,0.48,-12,-4,2,0.72,0,,,,,,,,,,,,,,,,,
75803,0,,,,,,,,-0.4,-0.27,0.77,-14,8,-5,0.48,0,,,,,,,,,,,,,,,,,
75843,0,17,12,39,46,40,43,1,-0.58,-0.2,0.8,-16,20,-13,0.61,0,0,0.0,0.0,0.0,0.0,0,0,0.0,0,0.0,-1,0.0,0.0,0.0,0,0.0,1.264
75883,0,,,,,,,,-0.37,-0.13,1.02,-15,22,-13,0.39,0,,,,,,,,,,,,,,,,,
75923,0,,,,,,,,-0.51,-0.04,1.09,-14,25,-15,0.51,0,,,,,,,,,,,,,,,,,
75963,0,,,,,,,,-0.51,0.04,1.05,-11,16,-9,0.51,0,,,,,,,,,,,,,,,,,
76003,0,,,,,,,,-0.55,-0.06,0.87,-8,19,-8,0.55,0,,,,,,,,,,,,,,,,,
76043,0,22,20,41,44,39,43,-8,-0.7,-0.01,0.61,-4,16,-6,0.7,0,0,0.0,0.0,0.0,0.0,0,0,0.0,0,0.0,-1,0.0,0.0,0.0,0,0.0,1.2674
76083,0,,,,,,,,-0.66,0.05,0.57,-1,13,-4,0.66,0,,,,,,,,,,,,,,,,,
76123,0,,,,,,,,-0.65,-0.04,0.49,1,15,-4,0.65,0,,,,,,,,,,,,,,,,,
76163,0,,,,,,,,-0.47,-0.07,0.59,2,15,-4,0.47,0,,,,,,,,,,,,,,,,,
76203,0,,,,,,,,-0.43,-0.07,0.59,2,11,-3,0.44,0,,,,,,,,,,,,,,,,,
76243,0,0,0,43,49,37,40,8,-0.57,-0.07,0.19,1,1,0,0.57,0,0,0.0,0.0,0.0,0.0,0,0,0.0,0,0.0,-1,0.0,0.0,0.0,0,0.0,1.2707
76283,0,,,,,,,,-0.84,-0.16,-0.23,-0,-14,7,0.85,0,,,,,,,,,,,,,,,,,
76323,0,,,,,,,,-0.8,-0.21,-0.56,-1,-30,15,0.83,0,,,,,,,,,,,,,,,,,
76363,0,,,,,,,,-0.64,-0.22,-0.48,-3,-22,8,0.68,0,,,,,,,,,,,,,,,,,
76403,0,,,,,,,,-0.2,-0.15,-0.37,-5,-16,6,0.25,0,,,,,,,,,,,,,,,,,
76443,0,0,0,49,57,32,33,26,0.15,-0.09,0.08,-7,-7,0,0.17,0,0,0.0,0.0,0.0,0.0,0,0,0.0,0,0.0,-1,0.0,0.0,0.0,0,0.0,1.274
76483,0,,,,,,,,0.04,-0.22,-0.13,-10,-14,5,0.23,0,,,,,,,,,,,,,,,,,
76523,0,,,,,,,,-0.31,-0.39,-0.49,-13,-21,10,0.49,0,,,,,,,,,,,,,,,,,
76563,0,,,,,,,,-0.45,-0.58,-0.77,-18,-38,18,0.73,0,,,,,,,,,,,,,,,,,
76603,0,,,,,,,,-0.06,-0.49,-0.25,-23,-20,7,0.5,0,,,,,,,,,,,,,,,,,
76643,0,0,0,46,59,34,34,47,-0.16,-0.64,-0.58,-25,-30,14,0.66,0,0,0.0,0.0,0.0,0.0,0,0,0.0,0,0.0,-1,0.0,0.0,0.0,0,0.0,1.2774
76683,0,,,,,,,,0.18,-0.54,-0.09,-27,-4,-1,0.57,0,,,,,,,,,,,,,,,,,
76723,0,,,,,,,,-0.1,-0.69,-0.09,-30,-9,4,0.69,0,,,,,,,,,,,,,,,,,
76763,0,,,,,,,,0.13,-0.75,-0.06,-33,-8,4,0.76,0,,,,,,,,,,,,,,,,,
76803,0,,,,,,,,0.4,-0.74,0.33,-36,8,-7,0.84,0,,,,,,,,,,,,,,,,,
76843,0,0,1,44,59,37,33,59,0.51,-0.8,0.65,-40,12,-9,0.95,0,0,0.0,0.0,0.0,0.0,0,0,0.0,0,0.0,-1,0.0,0.0,0.0,0,0.0,1.2807
76883,0,,,,,,,,0.33,-0.88,0.55,-44,10,-7,0.94,0,,,,,,,,,,,,,,,,,
76923,0,,,,,,,,0.15,-0.97,0.49,-48,11,-6,0.98,0,,,,,,,,,,,,,,,,,
76963,0,,,,,,,,0.26,-1.02,0.77,-52,15,-8,1.05,0,,,,,,,,,,,,,,,,,
77003,0,,,,,,,,0.03,-0.97,0.48,-56,8,-5,0.97,0,,,,,,,,,,,,,,,,,
77043,0,-1,1,42,59,42,36,64,0.1,-1.06,0.58,-60,7,-6,1.07,0,0,0.0,0.0,0.0,0.0,0,0,0.0,0,0.0,-1,0.0,0.0,0.0,0,0.0,1.284
77083,0,,,,,,,,-0.09,-1.03,0.63,-63,7,-7,1.03,0,,,,,,,,,,,,,,,,,
77123,0,,,,,,,,0.04,-1.05,0.89,-65,1,-3,1.05,0,,,,,,,,,,,,,,,,,
77163,0,,,,,,,,-0.35,-1.16,0.34,-66,-6,0,1.21,0,,,,,,,,,,,,,,,,,
77203,0,,,,,,,,-0.57,-1.32,-0.11,-67,-9,0,1.44,0,,,,,,,,,,,,,,,,,
77243,0,-1,2,43,57,43,37,52,-0.46,-1.41,-0.47,-68,-28,11,1.48,0,0,0.0,0.0,0.0,0.0,0,0,0.0,0,0.0,-1,0.0,0.0,0.0,0,0.0,1.2874
77283,0,,,,,,,,-0.16,-1.17,0.0,-67,-9,3,1.18,0,,,,,,,,,,,,,,,,,
77323,0,,,,,,,,-0.14,-1.08,-0.38,-64,-21,9,1.09,0,,,,,,,,,,,,,,,,,
77363,0,,,,,,,,0.03,-1.0,-0.33,-62,-21,9,1.0,0,,,,,,,,,,,,,,,,,
77403,0,,,,,,,,0.18,-0.94,-0.29,-59,-28,11,0.96,0,,,,,,,,,,,,,,,,,
77443,0,0,0,50,59,34,33,28,0.2,-0.78,-0.25,-54,-18,2,0.81,0,0,0.0,0.0,0.0,0.0,0,0,0.0,0,0.0,-1,0.0,0.0,0.0,0,0.0,1.2907
77483,0,,,,,,,,0.45,-0.67,0.18,-48,-1,-6,0.8,0,,,,,,,,,,,,,,,,,
77523,0,,,,,,,,0.38,-0.61,0.16,-45,-15,0,0.72,0,,,,,,,,,,,,,,,,,
77563,0,,,,,,,,0.22,-0.58,-0.04,-42,-17,2,0.62,0,,,,,,,,,,,,,,,,,
77603,0,,,,,,,,0.32,-0.57,-0.05,-40,-15,1,0.65,0,,,,,,,,,,,,,,,,,
77643,0,0,0,48,59,34,33,31,0.4,-0.55,-0.02,-39,4,-7,0.68,0,0,0.0,0.0,0.0,0.0,0,0,0.0,0,0.0,-1,0.0,0.0,0.0,0,0.0,1.294
77683,0,,,,,,,,0.21,-0.67,-0.38,-36,3,-7,0.7,0,,,,,,,,,,,,,,,,,
77723,0,,,,,,,,0.22,-0.51,-0.33,-35,-10,4,0.56,0,,,,,,,,,,,,,,,,,
77763,0,,,,,,,,0.31,-0.55,0.11,-35,10,-9,0.63,0,,,,,,,,,,,,,,,,,
77803,0,,,,,,,,0.31,-0.57,0.07,-34,-4,4,0.65,0,,,,,,,,,,,,,,,,,
77843,0,0,2,47,58,35,33,35,0.2,-0.68,-0.33,-35,-8,9,0.71,0,0,0.0,0.0,0.0,0.0,0,0,0.0,0,0.0,-1,0.0,0.0,0.0,0,0.0,1.2974
77883,0,,,,,,,,0.15,-0.77,-0.27,-36,1,-2,0.78,0,,,,,,,,,,,,,,,,,
77923,0,,,,,,,,0.14,-0.82,-0.6,-36,-1,-3,0.84,0,,,,,,,,,,,,,,,,,
77963,0,,,,,,,,0.1,-0.8,-0.87,-36,-14,7,0.81,0,,,,,,,,,,,,,,,,,
78003,0,,,,,,,,0.07,-0.82,-0.68,-36,-18,15,0.82,0,,,,,,,,,,,,,,,,,
78043,0,1,1,47,58,35,33,28,0.24,-0.81,-0.17,-36,-4,1,0.84,0,0,0.0,0.0,0.0,0.0,0,0,0.0,0,0.0,-1,0.0,0.0,0.0,0,0.0,1.3007
78083,0,,,,,,,,0.29,-0.78,-0.43,-35,-10,5,0.83,0,,,,,,,,,,,,,,,,,
78123,0,,,,,,,,0.42,-0.77,0.03,-34,-5,-0,0.87,0,,,,,,,,,,,,,,,,,
78163,0,,,,,,,,0.47,-0.71,0.05,-33,-12,5,0.85,0,,,,,,,,,,,,,,,,,
78203,0,,,,,,,,0.5,-0.66,0.08,-32,-8,5,0.83,0,,,,,,,,,,,,,,,,,
78243,0,1,2,48,59,33,33,21,0.56,-0.77,0.04,-30,-11,7,0.96,0,0,0.0,0.0,0.0,0.0,0,0,0.0,0,0.0,-1,0.0,0.0,0.0,0,0.0,1.304
78283,0,,,,,,,,0.72,-0.63,0.41,-29,1,-2,0.96,0,,,,,,,,,,,,,,,,,
78323,0,,,,,,,,0.49,-0.57,0.31,-27,3,-4,0.75,0,,,,,,,,,,,,,,,,,
78363,0,,,,,,,,0.23,-0.6,-0.13,-25,-2,1,0.65,0,,,,,,,,,,,,,,,,,
78403,0,,,,,,,,0.03,-0.5,-0.08,-24,14,-10,0.5,0,,,,,,,,,,,,,,,,,
78443,0,24,20,41,50,38,40,4,0.04,-0.41,-0.09,-22,4,-1,0.41,0,0,0.0,0.0,0.0,0.0,0,0,0.0,0,0.0,-1,0.0,0.0,0.0,0,0.0,1.3074
78483,0,,,,,,,,0.02,-0.34,-0.09,-19,9,-3,0.34,0,,,,,,,,,,,,,,,,,
78523,0,,,,,,,,-0.26,-0.38,-0.09,-16,-1,3,0.46,0,,,,,,,,,,,,,,,,,
78563,0,,,,,,,,-0.26,-0.21,-0.1,-13,3,-3,0.34,0,,,,,,,,,,,,,,,,,
78603,0,,,,,,,,-0.46,-0.14,-0.31,-10,-22,9,0.48,0,,,,,,,,,,,,,,,,,
78643,0,13,10,40,47,38,43,-3,-0.26,-0.17,0.13,-7,-20,9,0.31,0,0,0.0,0.0,0.0,0.0,0,0,0.0,0,0.0,-1,0.0,0.0,0.0,0,0.0,1.3107
78683,0,,,,,,,,-0.0,-0.07,0.48,-5,-3,1,0.07,0,,,,,,,,,,,,,,,,,
78723,0,,,,,,,,0.23,0.01,0.77,-4,17,-8,0.23,0,,,,,,,,,,,,,,,,,
78763,0,,,,,,,,0.05,-0.01,0.6,-2,21,-10,0.05,0,,,,,,,,,,,,,,,,,
78803,0,,,,,,,,0.12,0.12,0.51,-1,20,-15,0.17,0,,,,,,,,,,,,,,,,,
78843,0,0,2,46,49,33,40,-14,-0.15,0.2,0.03,3,-2,-2,0.25,0,0,0.0,0.0,0.0,0.0,0,0,0.0,0,0.0,-1,0.0,0.0,0.0,0,0.0,1.314
78883,0,,,,,,,,0.22,0.26,0.4,6,15,-17,0.34,0,,,,,,,,,,,,,,,,,
78923,0,,,,,,,,0.25,0.3,0.35,9,11,-15,0.39,0,,,,,,,,,,,,,,,,,
78963,0,,,,,,,,-0.11,0.35,-0.1,12,0,-6,0.37,0,,,,,,,,,,,,,,,,,
79003,0,,,,,,,,0.16,0.56,-0.06,16,7,-10,0.58,0,,,,,,,,,,,,,,,,,
79043,0,0,1,53,52,31,40,-30,0.16,0.61,-0.03,19,6,-7,0.63,0,0,0.0,0.0,0.0,0.0,0,0,0.0,0,0.0,-1,0.0,0.0,0.0,0,0.0,1.3174
79083,0,,,,,,,,0.15,0.58,-0.01,22,12,-7,0.6,0,,,,,,,,,,,,,,,,,
79123,0,,,,,,,,0.07,0.64,0.02,27,12,-10,0.64,0,,,,,,,,,,,,,,,,,
79163,0,,,,,,,,-0.06,0.66,-0.37,30,-5,4,0.66,0,,,,,,,,,,,,,,,,,
79203,0,,,,,,,,0.02,0.68,-0.32,33,-2,-2,0.68,0,,,,,,,,,,,,,,,,,
79243,0,-0,1,53,52,30,41,-37,0.09,0.71,-0.24,36,9,-9,0.71,0,0,0.0,0.0,0.0,0.0,0,0,0.0,0,0.0,-1,0.0,0.0,0.0,0,0.0,1.3207
79283,0,,,,,,,,-0.09,0.85,-0.57,38,-4,1,0.85,0,,,,,,,,,,,,,,,,,
79323,0,,,,,,,,0.17,0.79,-0.49,38,9,-4,0.81,0,,,,,,,,,,,,,,,,,
79363,0,,,,,,,,-0.09,0.84,-0.37,40,-4,4,0.85,0,,,,,,,,,,,,,,,,,
79403,0,,,,,,,,0.12,0.81,-0.32,41,4,-2,0.82,0,,,,,,,,,,,,,,,,,
79443,0,0,2,55,51,31,42,-40,-0.05,0.87,-0.24,43,-7,6,0.88,0,0,0.0,0.0,0.0,0.0,0,0,0.0,0,0.0,-1,0.0,0.0,0.0,0,0.0,1.324
79483,0,,,,,,,,0.14,0.77,0.18,44,12,-9,0.78,0,,,,,,,,,,,,,,,,,
79523,0,,,,,,,,0.28,0.72,0.53,47,16,-8,0.78,0,,,,,,,,,,,,,,,,,
79563,0,,,,,,,,0.34,0.75,0.81,50,20,-10,0.82,0,,,,,,,,,,,,,,,,,
79603,0,,,,,,,,0.41,0.88,1.03,53,19,-5,0.97,0,,,,,,,,,,,,,,,,,
79643,0,0,0,55,51,31,44,-38,0.45,0.9,0.82,54,-1,7,1.01,0,0,0.0,0.0,0.0,0.0,0,0,0.0,0,0.0,-1,0.0,0.0,0.0,0,0.0,1.3274
79683,0,,,,,,,,0.12,1.08,0.28,55,-6,11,1.08,0,,,,,,,,,,,,,,,,,
79723,0,,,,,,,,0.26,1.08,0.61,54,7,3,1.11,0,,,,,,,,,,,,,,,,,
79763,0,,,,,,,,0.0,1.04,0.11,53,7,0,1.04,0,,,,,,,,,,,,,,,,,
79803,0,,,,,,,,-0.02,0.96,0.07,50,1,7,0.96,0,,,,,,,,,,,,,,,,,
79843,0,0,2,52,50,33,43,-13,-0.04,0.88,0.04,47,4,8,0.88,0,0,0.0,0.0,0.0,0.0,0,0,0.0,0,0.0,-1,0.0,0.0,0.0,0,0.0,1.3307
79883,0,,,,,,,,0.24,0.88,0.41,41,-3,7,0.91,0,,,,,,,,,,,,,,,,,
79923,0,,,,,,,,-0.12,0.74,-0.05,38,7,-1,0.75,0,,,,,,,,,,,,,,,,,
79963,0,,,,,,,,-0.35,0.62,-0.42,35,-3,4,0.72,0,,,,,,,,,,,,,,,,,
80003,0,,,,,,,,-0.08,0.57,0.04,33,-14,13,0.57,0,,,,,,,,,,,,,,,,,
80043,0,20,14,45,46,37,44,-16,-0.0,0.59,0.41,32,-18,15,0.59,0,0,0.0,0.0,0.0,0.0,0,0,0.0,0,0.0,-1,0.0,0.0,0.0,0,0.0,1.334
80083,0,,,,,,,,-0.35,0.57,-0.03,32,-17,15,0.67,0,,,,,,,,,,,,,,,,,
80123,0,,,,,,,,-0.4,0.64,0.07,32,-15,13,0.75,0,,,,,,,,,,,,,,,,,
80163,0,,,,,,,,-0.41,0.66,0.17,33,-10,11,0.78,0,,,,,,,,,,,,,,,,,
80203,0,,,,,,,,-0.48,0.67,0.01,34,-10,10,0.83,0,,,,,,,,,,,,,,,,,
80243,0,2,2,47,46,36,45,-29,-0.27,0.72,0.39,35,-6,8,0.77,0,0,0.0,0.0,0.0,0.0,0,0,0.0,0,0.0,-1,0.0,0.0,0.0,0,0.0,1.3374
80283,0,,,,,,,,-0.45,0.6,0.24,36,-3,7,0.75,0,,,,,,,,,,,,,,,,,
80323,0,,,,,,,,-0.15,0.8,0.57,37,-1,5,0.81,0,,,,,,,,,,,,,,,,,
80363,0,,,,,,,,-0.14,0.78,0.49,39,-9,10,0.79,0,,,,,,,,,,,,,,,,,
80403,0,,,,,,,,-0.4,0.78,0.02,41,-22,17,0.88,0,,,,,,,,,,,,,,,,,
80443,0,0,0,51,49,32,44,-47,-0.32,0.93,-0.04,44,-39,24,0.98,0,0,0.0,0.0,0.0,0.0,0,0,0.0,0,0.0,-1,0.0,0.0,0.0,0,0.0,1.3407
80483,0,,,,,,,,0.06,1.05,0.35,46,-31,21,1.05,0,,,,,,,,,,,,,,,,,
80523,0,,,,,,,,0.32,1.19,0.66,49,-24,19,1.24,0,,,,,,,,,,,,,,,,,
80563,0,,,,,,,,0.06,1.16,0.45,51,-29,20,1.16,0,,,,,,,,,,,,,,,,,
80603,0,,,,,,,,-0.12,1.15,0.38,54,-20,15,1.15,0,,,,,,,,,,,,,,,,,
80643,0,-1,2,54,49,32,44,-67,0.05,1.16,0.69,57,-12,12,1.17,0,0,0.0,0.0,0.0,0.0,0,0,0.0,0,0.0,-1,0.0,0.0,0.0,0,0.0,1.344
80683,0,,,,,,,,-0.13,1.14,0.64,59,-13,11,1.15,0,,,,,,,,,,,,,,,,,
80723,0,,,,,,,,-0.15,1.24,0.71,62,-15,9,1.25,0,,,,,,,,,,,,,,,,,
80763,0,,,,,,,,-0.15,1.2,0.96,65,-12,7,1.21,0,,,,,,,,,,,,,,,,,
80803,0,,,,,,,,-0.2,1.17,0.84,68,-9,8,1.19,0,,,,,,,,,,,,,,,,,
80843,0,0,2,53,48,32,47,-82,-0.3,1.26,0.82,70,-5,7,1.29,0,0,0.0,0.0,0.0,0.0,0,0,0.0,0,0.0,-1,0.0,0.0,0.0,0,0.0,1.3474
80883,0,,,,,,,,-0.29,1.27,0.93,72,-0,6,1.31,0,,,,,,,,,,,,,,,,,
80923,0,,,,,,,,-0.29,1.25,1.02,74,2,6,1.29,0,,,,,,,,,,,,,,,,,
80963,0,,,,,,,,-0.24,1.21,1.09,77,6,4,1.24,0,,,,,,,,,,,,,,,,,
81003,0,,,,,,,,-0.27,1.19,1.01,80,2,5,1.22,0,,,,,,,,,,,,,,,,,
81043,0,1,0,54,47,35,47,-90,-0.19,1.19,0.9,81,-0,6,1.21,0,0,0.0,0.0,0.0,0.0,0,0,0.0,0,0.0,-1,0.0,0.0,0.0,0,0.0,1.3507
81083,0,,,,,,,,-0.11,1.23,1.06,82,4,4,1.24,0,,,,,,,,,,,,,,,,,
81123,0,,,,,,,,-0.37,1.13,0.58,83,-1,7,1.18,0,,,,,,,,,,,,,,,,,
81163,0,,,,,,,,-0.24,1.13,0.85,84,8,-1,1.16,0,,,,,,,,,,,,,,,,,
81203,0,,,,,,,,-0.02,1.22,1.07,84,22,-10,1.22,0,,,,,,,,,,,,,,,,,
81243,0,0,0,54,48,34,47,-90,0.05,1.13,1.24,84,38,-20,1.14,0,0,0.0,0.0,0.0,0.0,0,0,0.0,0,0.0,-1,0.0,0.0,0.0,0,0.0,1.3541
81283,0,,,,,,,,-0.26,1.04,0.63,85,31,-16,1.08,0,,,,,,,,,,,,,,,,,
81323,0,,,,,,,,-0.55,0.88,0.13,85,5,-1,1.04,0,,,,,,,,,,,,,,,,,
81363,0,,,,,,,,-0.52,0.96,-0.28,86,-15,11,1.09,0,,,,,,,,,,,,,,,,,
81403,0,,,,,,,,-0.33,1.03,-0.33,86,-18,16,1.08,0,,,,,,,,,,,,,,,,,
81443,0,-1,2,54,48,34,47,-90,0.02,1.13,0.11,87,2,2,1.13,0,0,0.0,0.0,0.0,0.0,0,0,0.0,0,0.0,-1,0.0,0.0,0.0,0,0.0,1.3574
81483,0,,,,,,,,-0.35,1.11,-0.29,87,-17,11,1.16,0,,,,,,,,,,,,,,,,,
81523,0,,,,,,,,-0.27,1.16,0.14,87,-5,5,1.19,0,,,,,,,,,,,,,,,,,
81563,0,,,,,,,,-0.07,1.24,0.13,87,0,2,1.25,0,,,,,,,,,,,,,,,,,
81603,0,,,,,,,,-0.07,1.22,0.13,89,5,-0,1.22,0,,,,,,,,,,,,,,,,,
81643,0,0,2,53,48,33,47,-90,-0.14,1.28,0.12,88,4,-4,1.29,0,0,0.0,0.0,0.0,0.0,0,0,0.0,0,0.0,-1,0.0,0.0,0.0,0,0.0,1.3607
81683,0,,,,,,,,-0.34,1.2,-0.28,89,-0,3,1.25,0,,,,,,,,,,,,,,,,,
81723,0,,,,,,,,-0.25,1.16,-0.25,91,4,1,1.19,0,,,,,,,,,,,,,,,,,
81763,0,,,,,,,,-0.31,1.2,-0.18,91,9,-7,1.24,0,,,,,,,,,,,,,,,,,
81803,0,,,,,,,,-0.47,1.27,-0.53,91,-9,6,1.36,0,,,,,,,,,,,,,,,,,
81843,0,0,1,54,47,34,47,-89,-0.36,1.17,-0.05,90,7,-4,1.23,0,0,0.0,0.0,0.0,0.0,0,0,0.0,0,0.0,-1,0.0,0.0,0.0,0,0.0,1.3641
81883,0,,,,,,,,-0.21,1.26,-0.06,90,15,-5,1.28,0,,,,,,,,,,,,,,,,,
81923,0,,,,,,,,-0.26,1.33,-0.43,91,7,4,1.36,0,,,,,,,,,,,,,,,,,
81963,0,,,,,,,,-0.34,1.15,-0.73,91,-12,16,1.2,0,,,,,,,,,,,,,,,,,
82003,0,,,,,,,,0.01,1.16,-0.61,91,7,1,1.16,0,,,,,,,,,,,,,,,,,
82043,0,0,0,54,54,31,40,-38,-0.11,0.99,-0.87,89,-12,12,1.0,0,0,0.0,0.0,0.0,0.0,0,0,0.0,0,0.0,-1,0.0,0.0,0.0,0,0.0,1.3674
82083,0,,,,,,,,0.08,1.0,-0.33,85,7,1,1.0,0,,,,,,,,,,,,,,,,,
82123,0,,,,,,,,-0.05,0.86,-0.35,80,23,-9,0.86,0,,,,,,,,,,,,,,,,,
82163,0,,,,,,,,0.2,0.87,0.09,75,25,-8,0.9,0,,,,,,,,,,,,,,,,,
82203,0,,,,,,,,0.05,0.75,-0.19,68,23,-6,0.75,0,,,,,,,,,,,,,,,,,
82243,0,-1,2,52,53,30,41,-10,0.02,0.7,-0.39,59,13,-3,0.7,0,0,0.0,0.0,0.0,0.0,0,0,0.0,0,0.0,-1,0.0,0.0,0.0,0,0.0,1.3707
82283,0,,,,,,,,0.16,0.6,-0.01,51,11,-3,0.62,0,,,,,,,,,,,,,,,,,
82323,0,,,,,,,,0.02,0.37,-0.24,42,9,-4,0.37,0,,,,,,,,,,,,,,,,,
82363,0,,,,,,,,0.21,0.32,0.19,34,9,-5,0.38,0,,,,,,,,,,,,,,,,,
82403,0,,,,,,,,0.13,0.16,-0.2,27,5,-2,0.2,0,,,,,,,,,,,,,,,,,
82443,0,-1,2,49,55,31,34,10,0.26,0.13,0.01,21,4,-1,0.29,0,0,0.0,0.0,0.0,0.0,0,0,0.0,0,0.0,-1,0.0,0.0,0.0,0,0.0,1.3741
82483,0,,,,,,,,0.22,0.06,-0.01,15,-8,4,0.22,0,,,,,,,,,,,,,,,,,
82523,0,,,,,,,,-0.07,-0.09,-0.39,11,-12,6,0.11,0,,,,,,,,,,,,,,,,,
82563,0,,,,,,,,0.02,-0.1,-0.57,7,-26,13,0.1,0,,,,,,,,,,,,,,,,,
82603,0,,,,,,,,0.13,-0.12,-0.34,3,-12,4,0.18,0,,,,,,,,,,,,,,,,,
82643,0,0,0,50,57,31,32,24,0.2,-0.25,-0.26,0,-25,13,0.32,0,0,0.0,0.0,0.0,0.0,0,0,0.0,0,0.0,-1,0.0,0.0,0.0,0,0.0,1.3774
82683,0,,,,,,,,0.07,-0.3,-0.23,-4,-9,2,0.31,0,,,,,,,,,,,,,,,,,
82723,0,,,,,,,,0.07,-0.37,-0.21,-8,2,-3,0.38,0,,,,,,,,,,,,,,,,,
82763,0,,,,,,,,0.05,-0.42,-0.19,-12,-3,-0,0.42,0,,,,,,,,,,,,,,,,,
82803,0,,,,,,,,0.23,-0.47,-0.17,-17,-15,10,0.52,0,,,,,,,,,,,,,,,,,
82843,0,0,0,48,59,33,32,39,0.25,-0.49,-0.12,-21,2,-3,0.55,0,0,0.0,0.0,0.0,0.0,0,0,0.0,0,0.0,-1,0.0,0.0,0.0,0,0.0,1.3807
82883,0,,,,,,,,0.13,-0.64,-0.48,-24,-21,13,0.66,0,,,,,,,,,,,,,,,,,
82923,0,,,,,,,,0.21,-0.66,-0.37,-28,-1,-6,0.69,0,,,,,,,,,,,,,,,,,
82963,0,,,,,,,,0.31,-0.55,0.08,-31,11,-18,0.63,0,,,,,,,,,,,,,,,,,
83003,0,,,,,,,,0.5,-0.61,0.45,-33,23,-25,0.79,0,,,,,,,,,,,,,,,,,
83043,0,0,2,47,60,35,33,36,0.6,-0.64,0.74,-34,29,-25,0.87,0,0,0.0,0.0,0.0,0.0,0,0,0.0,0,0.0,-1,0.0,0.0,0.0,0,0.0,1.384
83083,0,,,,,,,,0.58,-0.63,0.98,-36,31,-30,0.86,0,,,,,,,,,,,,,,,,,
83123,0,,,,,,,,0.46,-0.68,0.77,-38,28,-28,0.82,0,,,,,,,,,,,,,,,,,
83163,0,,,,,,,,0.38,-0.65,0.65,-37,19,-18,0.75,0,,,,,,,,,,,,,,,,,
83203,0,,,,,,,,0.44,-0.66,0.85,-37,27,-29,0.79,0,,,,,,,,,,,,,,,,,
83243,0,0,2,46,57,34,33,17,0.39,-0.64,0.31,-34,13,-13,0.75,0,0,0.0,0.0,0.0,0.0,0,0,0.0,0,0.0,-1,0.0,0.0,0.0,0,0.0,1.3874
83283,0,,,,,,,,0.44,-0.61,0.63,-32,11,-13,0.75,0,,,,,,,,,,,,,,,,,
83323,0,,,,,,,,0.42,-0.56,0.53,-29,2,-6,0.7,0,,,,,,,,,,,,,,,,,
83363,0,,,,,,,,0.55,-0.52,0.45,-27,4,-4,0.76,0,,,,,,,,,,,,,,,,,
83403,0,,,,,,,,0.53,-0.46,0.38,-25,5,-5,0.7,0,,,,,,,,,,,,,,,,,
83443,0,0,2,47,55,33,33,16,0.5,-0.49,0.33,-24,6,-5,0.7,0,0,0.0,0.0,0.0,0.0,0,0,0.0,0,0.0,-1,0.0,0.0,0.0,0,0.0,1.3907
83483,0,,,,,,,,0.52,-0.55,0.29,-23,-0,-3,0.76,0,,,,,,,,,,,,,,,,,
83523,0,,,,,,,,0.44,-0.55,0.21,-23,-3,-2,0.7,0,,,,,,,,,,,,,,,,,
83563,0,,,,,,,,0.54,-0.54,0.15,-22,5,-3,0.76,0,,,,,,,,,,,,,,,,,
83603,0,,,,,,,,0.45,-0.52,0.5,-21,3,-4,0.68,0,,,,,,,,,,,,,,,,,
83643,0,0,1,46,53,34,35,11,0.36,-0.46,0.5,-20,8,-5,0.59,0,0,0.0,0.0,0.0,0.0,0,0,0.0,0,0.0,-1,0.0,0.0,0.0,0,0.0,1.394
