"Interval"|"ms"|0|0|1,"Utc"|"ms"|0|0|1,"Brake_F"|"Bar"|0|2000|10,"Brake_R"|"Bar"|0|2000|10,"Height_RF"|"mm"|0|255|10,"Height_LF"|"mm"|0|255|10,"Height_LR"|"mm"|0|80|10,"Height_RR"|"mm"|0|255|10,"Steering"|"deg"|-100|100|10,"AccelX"|"G"|-3.0|3.0|25,"AccelY"|"G"|-3.0|3.0|25,"AccelZ"|"G"|-3.0|3.0|25,"Yaw"|"Deg/Sec"|-120|120|25,"Pitch"|"Deg/Sec"|-120|120|25,"Roll"|"Deg/Sec"|-120|120|25,"Gsum"|"G"|0.0|3.0|25,"Unknown"|""|0|1024|25,"Log_Button"|""|0.0|10.0|10,"Latitude"|"Degrees"|-180.0|180.0|10,"Longitude"|"Degrees"|-180.0|180.0|10,"Speed"|"kph"|0.0|150.0|10,"Altitude"|"m"|0.0|4000.0|10,"GPSSats"|""|0|20|10,"GPSQual"|""|0|5|10,"GPSDOP"|""|0.0|20.0|10,"LapCount"|""|0|0|10,"LapTime"|"Min"|0.0|0.0|10,"Sector"|""|0|0|10,"SectorTime"|"Min"|0.0|0.0|10,"PredTime"|"Min"|0.0|0.0|5,"ElapsedTime"|"Min"|0.0|0.0|10,"CurrentLap"|""|0|0|10,"Distance"|"km"|0.0|0.0|10,"SessionTime"|"Min"|0.0|0.0|10
10083,0,,,,,,,,0.04,0.01,0.99,0,-0,0,0.04,0,,,,,,,,,,,,,,,,,
10123,0,,,,,,,,0.04,0.01,1.0,0,-0,0,0.04,0,,,,,,,,,,,,,,,,,
10163,0,,,,,,,,0.04,0.01,1.0,0,-0,0,0.04,0,,,,,,,,,,,,,,,,,
10203,0,,,,,,,,0.04,0.01,1.0,0,-0,0,0.04,0,,,,,,,,,,,,,,,,,
10243,0,1,0,47,52,31,35,7,0.04,0.0,1.0,0,-0,0,0.04,0,1,0.0,0.0,0.0,0.0,0,0,0.0,0,0.0,-1,0.0,0.0,0.0,0,0.0,0.1707
10283,0,,,,,,,,0.04,0.01,1.0,0,-0,0,0.04,0,,,,,,,,,,,,,,,,,
10323,0,,,,,,,,0.04,0.01,1.0,0,0,0,0.04,0,,,,,,,,,,,,,,,,,
10363,0,,,,,,,,0.04,0.01,1.0,0,-0,0,0.04,0,,,,,,,,,,,,,,,,,
10403,0,,,,,,,,0.04,0.01,1.0,0,-0,0,0.04,0,,,,,,,,,,,,,,,,,
10443,0,-1,2,47,52,31,35,8,0.04,0.0,1.0,0,-0,0,0.04,0,0,0.0,0.0,0.0,0.0,0,0,0.0,0,0.0,-1,0.0,0.0,0.0,0,0.0,0.174
10483,0,,,,,,,,0.04,0.0,1.0,0,0,0,0.04,0,,,,,,,,,,,,,,,,,
10523,0,,,,,,,,0.04,0.0,1.0,0,0,0,0.04,0,,,,,,,,,,,,,,,,,
10563,0,,,,,,,,0.04,0.01,0.99,0,0,0,0.04,0,,,,,,,,,,,,,,,,,
10603,0,,,,,,,,0.04,0.01,0.99,0,0,0,0.04,0,,,,,,,,,,,,,,,,,
10643,0,0,0,47,52,31,35,8,0.04,0.01,1.0,0,0,0,0.04,0,0,0.0,0.0,0.0,0.0,0,0,0.0,0,0.0,-1,0.0,0.0,0.0,0,0.0,0.1774
10683,0,,,,,,,,0.04,0.01,1.0,0,0,0,0.04,0,,,,,,,,,,,,,,,,,
10723,0,,,,,,,,0.04,0.0,1.0,0,0,0,0.04,0,,,,,,,,,,,,,,,,,
10763,0,,,,,,,,0.04,0.01,1.0,0,0,0,0.04,0,,,,,,,,,,,,,,,,,
10803,0,,,,,,,,0.04,0.01,0.99,0,0,0,0.04,0,,,,,,,,,,,,,,,,,
10843,0,0,1,47,52,31,35,7,0.04,0.01,0.99,0,-0,0,0.04,0,0,0.0,0.0,0.0,0.0,0,0,0.0,0,0.0,-1,0.0,0.0,0.0,0,0.0,0.1807
10883,0,,,,,,,,0.04,0.01,1.0,0,0,0,0.04,0,,,,,,,,,,,,,,,,,
10923,0,,,,,,,,0.04,0.01,1.0,0,0,0,0.04,0,,,,,,,,,,,,,,,,,
10963,0,,,,,,,,0.04,0.01,1.0,0,0,0,0.04,0,,,,,,,,,,,,,,,,,
11003,0,,,,,,,,0.04,0.01,1.0,0,0,0,0.04,0,,,,,,,,,,,,,,,,,
11043,0,0,1,47,52,31,35,7,0.04,0.0,1.0,0,0,0,0.04,0,0,0.0,0.0,0.0,0.0,0,0,0.0,0,0.0,-1,0.0,0.0,0.0,0,0.0,0.184
11083,0,,,,,,,,0.04,0.0,1.0,0,-0,0,0.04,0,,,,,,,,,,,,,,,,,
11123,0,,,,,,,,0.04,0.01,1.0,0,-0,0,0.04,0,,,,,,,,,,,,,,,,,
11163,0,,,,,,,,0.04,0.01,1.0,0,-0,0,0.04,0,,,,,,,,,,,,,,,,,
11203,0,,,,,,,,0.04,0.0,1.0,0,-0,0,0.04,0,,,,,,,,,,,,,,,,,
11243,0,0,1,47,52,31,35,7,0.04,0.0,1.0,0,-0,0,0.04,0,0,0.0,0.0,0.0,0.0,0,0,0.0,0,0.0,-1,0.0,0.0,0.0,0,0.0,0.1874
11283,0,,,,,,,,0.04,0.0,1.0,0,0,0,0.04,0,,,,,,,,,,,,,,,,,
11323,0,,,,,,,,0.04,0.01,0.99,0,-0,0,0.04,0,,,,,,,,,,,,,,,,,
11363,0,,,,,,,,0.04,0.01,0.99,0,0,0,0.04,0,,,,,,,,,,,,,,,,,
11403,0,,,,,,,,0.04,0.01,0.99,0,0,0,0.04,0,,,,,,,,,,,,,,,,,
11443,0,1,0,47,52,31,35,8,0.04,0.01,0.99,0,0,0,0.04,0,0,0.0,0.0,0.0,0.0,0,0,0.0,0,0.0,-1,0.0,0.0,0.0,0,0.0,0.1907
11483,0,,,,,,,,0.04,0.01,0.99,0,0,0,0.04,0,,,,,,,,,,,,,,,,,
11523,0,,,,,,,,0.04,0.01,1.0,0,0,0,0.04,0,,,,,,,,,,,,,,,,,
11563,0,,,,,,,,0.04,0.01,1.0,0,0,0,0.04,0,,,,,,,,,,,,,,,,,
11603,0,,,,,,,,0.04,0.01,0.99,0,0,0,0.04,0,,,,,,,,,,,,,,,,,
11643,0,-1,2,47,52,31,35,8,0.04,0.01,0.99,0,-0,0,0.04,0,0,0.0,0.0,0.0,0.0,0,0,0.0,0,0.0,-1,0.0,0.0,0.0,0,0.0,0.194
11683,0,,,,,,,,0.04,0.01,0.99,0,-0,0,0.04,0,,,,,,,,,,,,,,,,,
11723,0,,,,,,,,0.04,0.01,0.99,0,-0,0,0.04,0,,,,,,,,,,,,,,,,,
11763,0,,,,,,,,0.04,0.01,1.0,0,-0,0,0.04,0,,,,,,,,,,,,,,,,,
11803,0,,,,,,,,0.04,0.01,0.99,0,-0,0,0.04,0,,,,,,,,,,,,,,,,,
11843,0,1,0,47,52,31,35,7,0.04,0.01,0.99,0,-0,0,0.04,0,0,0.0,0.0,0.0,0.0,0,0,0.0,0,0.0,-1,0.0,0.0,0.0,0,0.0,0.1974
11883,0,,,,,,,,0.04,0.01,0.99,0,-0,0,0.04,0,,,,,,,,,,,,,,,,,
11923,0,,,,,,,,0.04,0.01,0.99,0,-0,0,0.04,0,,,,,,,,,,,,,,,,,
11963,0,,,,,,,,0.04,0.01,0.99,0,-0,0,0.04,0,,,,,,,,,,,,,,,,,
12003,0,,,,,,,,0.04,0.01,0.99,0,-0,0,0.04,0,,,,,,,,,,,,,,,,,
12043,0,-0,2,47,52,31,35,8,0.04,0.0,0.99,0,-0,0,0.04,0,0,0.0,0.0,0.0,0.0,0,0,0.0,0,0.0,-1,0.0,0.0,0.0,0,0.0,0.2007
12083,0,,,,,,,,0.04,0.01,1.0,0,0,0,0.04,0,,,,,,,,,,,,,,,,,
12123,0,,,,,,,,0.04,0.0,1.0,0,-0,0,0.04,0,,,,,,,,,,,,,,,,,
12163,0,,,,,,,,0.04,0.0,1.0,0,-0,0,0.04,0,,,,,,,,,,,,,,,,,
12203,0,,,,,,,,0.04,0.0,1.0,0,-0,0,0.04,0,,,,,,,,,,,,,,,,,
12243,0,1,1,47,52,31,35,7,0.04,0.0,1.0,0,0,0,0.04,0,0,0.0,0.0,0.0,0.0,0,0,0.0,0,0.0,-1,0.0,0.0,0.0,0,0.0,0.204
12283,0,,,,,,,,0.04,0.0,0.98,0,0,0,0.04,0,,,,,,,,,,,,,,,,,
12323,0,,,,,,,,0.05,0.0,0.98,0,0,0,0.05,0,,,,,,,,,,,,,,,,,
12363,0,,,,,,,,0.05,0.0,0.99,0,0,0,0.05,0,,,,,,,,,,,,,,,,,
12403,0,,,,,,,,0.05,0.0,1.0,0,0,0,0.05,0,,,,,,,,,,,,,,,,,
12443,0,-0,2,47,52,31,35,7,0.05,0.0,1.0,0,0,0,0.05,0,0,0.0,0.0,0.0,0.0,0,0,0.0,0,0.0,-1,0.0,0.0,0.0,0,0.0,0.2074
12483,0,,,,,,,,0.04,0.0,1.0,0,0,0,0.05,0,,,,,,,,,,,,,,,,,
12523,0,,,,,,,,0.04,0.01,1.0,0,0,0,0.04,0,,,,,,,,,,,,,,,,,
12563,0,,,,,,,,0.04,0.01,0.99,0,0,0,0.04,0,,,,,,,,,,,,,,,,,
12603,0,,,,,,,,0.05,0.01,1.0,0,0,0,0.05,0,,,,,,,,,,,,,,,,,
12643,0,-1,2,47,52,31,35,8,0.05,0.01,1.0,0,0,0,0.05,0,0,0.0,0.0,0.0,0.0,0,0,0.0,0,0.0,-1,0.0,0.0,0.0,0,0.0,0.2107
12683,0,,,,,,,,0.05,0.01,0.99,0,0,0,0.05,0,,,,,,,,,,,,,,,,,
12723,0,,,,,,,,0.06,0.01,0.99,0,0,0,0.06,0,,,,,,,,,,,,,,,,,
12763,0,,,,,,,,0.06,0.01,0.99,0,0,0,0.06,0,,,,,,,,,,,,,,,,,
12803,0,,,,,,,,0.06,0.01,0.99,0,0,0,0.06,0,,,,,,,,,,,,,,,,,
12843,0,-0,2,46,52,31,36,7,0.06,0.01,0.99,0,0,0,0.06,0,0,0.0,0.0,0.0,0.0,0,0,0.0,0,0.0,-1,0.0,0.0,0.0,0,0.0,0.214
12883,0,,,,,,,,0.06,0.01,0.99,0,0,0,0.06,0,,,,,,,,,,,,,,,,,
12923,0,,,,,,,,0.06,0.01,0.99,0,0,0,0.06,0,,,,,,,,,,,,,,,,,
12963,0,,,,,,,,0.06,0.0,1.0,0,0,0,0.06,0,,,,,,,,,,,,,,,,,
13003,0,,,,,,,,0.06,0.0,0.99,0,0,0,0.06,0,,,,,,,,,,,,,,,,,
13043,0,1,0,46,52,31,36,8,0.05,0.0,0.99,0,0,0,0.05,0,0,0.0,0.0,0.0,0.0,0,0,0.0,0,0.0,-1,0.0,0.0,0.0,0,0.0,0.2174
13083,0,,,,,,,,0.05,0.0,0.99,0,0,0,0.05,0,,,,,,,,,,,,,,,,,
13123,0,,,,,,,,0.05,0.0,0.99,0,0,0,0.05,0,,,,,,,,,,,,,,,,,
13163,0,,,,,,,,0.04,0.01,0.99,0,0,0,0.04,0,,,,,,,,,,,,,,,,,
13203,0,,,,,,,,0.04,0.01,0.99,0,0,0,0.04,0,,,,,,,,,,,,,,,,,
13243,0,-1,2,46,51,32,36,8,0.04,0.01,0.99,0,0,0,0.04,0,0,0.0,0.0,0.0,0.0,0,0,0.0,0,0.0,-1,0.0,0.0,0.0,0,0.0,0.2207
13283,0,,,,,,,,0.04,0.01,0.99,0,0,0,0.04,0,,,,,,,,,,,,,,,,,
13323,0,,,,,,,,0.04,0.01,0.99,0,0,0,0.04,0,,,,,,,,,,,,,,,,,
13363,0,,,,,,,,0.04,0.01,0.99,0,0,0,0.04,0,,,,,,,,,,,,,,,,,
13403,0,,,,,,,,0.04,0.01,0.99,0,0,0,0.04,0,,,,,,,,,,,,,,,,,
13443,0,1,2,46,52,32,36,7,0.04,0.01,1.0,0,0,0,0.04,0,0,0.0,0.0,0.0,0.0,0,0,0.0,0,0.0,-1,0.0,0.0,0.0,0,0.0,0.224
13483,0,,,,,,,,0.04,0.0,1.0,0,0,0,0.04,0,,,,,,,,,,,,,,,,,
13523,0,,,,,,,,0.04,0.0,1.0,0,0,0,0.04,0,,,,,,,,,,,,,,,,,
13563,0,,,,,,,,0.04,0.01,0.99,0,0,0,0.04,0,,,,,,,,,,,,,,,,,
13603,0,,,,,,,,0.05,0.01,0.99,0,0,0,0.05,0,,,,,,,,,,,,,,,,,
13643,0,-1,1,46,52,32,36,7,0.05,0.01,0.99,0,0,0,0.05,0,0,0.0,0.0,0.0,0.0,0,0,0.0,0,0.0,-1,0.0,0.0,0.0,0,0.0,0.2274
13683,0,,,,,,,,0.05,0.01,0.99,0,0,0,0.05,0,,,,,,,,,,,,,,,,,
13723,0,,,,,,,,0.05,0.0,0.99,0,0,0,0.05,0,,,,,,,,,,,,,,,,,
13763,0,,,,,,,,0.05,0.01,1.0,0,0,0,0.05,0,,,,,,,,,,,,,,,,,
13803,0,,,,,,,,0.05,0.01,1.0,0,0,0,0.05,0,,,,,,,,,,,,,,,,,
13843,0,0,2,46,52,32,36,8,0.05,0.01,1.0,0,0,0,0.05,0,0,0.0,0.0,0.0,0.0,0,0,0.0,0,0.0,-1,0.0,0.0,0.0,0,0.0,0.2307
13883,0,,,,,,,,0.05,0.01,1.0,0,0,0,0.05,0,,,,,,,,,,,,,,,,,
13923,0,,,,,,,,0.04,0.0,1.0,0,0,0,0.04,0,,,,,,,,,,,,,,,,,
13963,0,,,,,,,,0.04,0.0,1.0,0,0,0,0.04,0,,,,,,,,,,,,,,,,,
14003,0,,,,,,,,0.04,0.0,1.0,0,-0,0,0.04,0,,,,,,,,,,,,,,,,,
14043,0,1,2,46,51,32,36,8,0.03,0.0,1.0,0,-0,0,0.03,0,0,0.0,0.0,0.0,0.0,0,0,0.0,0,0.0,-1,0.0,0.0,0.0,0,0.0,0.234
14083,0,,,,,,,,0.03,0.0,1.0,0,-0,0,0.03,0,,,,,,,,,,,,,,,,,
14123,0,,,,,,,,0.02,0.0,1.0,0,-0,0,0.02,0,,,,,,,,,,,,,,,,,
14163,0,,,,,,,,0.02,0.01,1.0,0,-0,0,0.02,0,,,,,,,,,,,,,,,,,
14203,0,,,,,,,,0.02,0.01,1.0,0,-0,0,0.02,0,,,,,,,,,,,,,,,,,
14243,0,-1,0,46,52,32,36,7,0.01,0.01,1.0,0,-0,0,0.02,0,0,0.0,0.0,0.0,0.0,0,0,0.0,0,0.0,-1,0.0,0.0,0.0,0,0.0,0.2374
14283,0,,,,,,,,0.01,0.01,1.0,0,0,0,0.01,0,,,,,,,,,,,,,,,,,
14323,0,,,,,,,,0.01,0.0,1.0,0,0,0,0.01,0,,,,,,,,,,,,,,,,,
14363,0,,,,,,,,0.01,0.01,1.0,0,0,0,0.01,0,,,,,,,,,,,,,,,,,
14403,0,,,,,,,,0.01,0.0,1.0,0,0,0,0.01,0,,,,,,,,,,,,,,,,,
14443,0,0,0,46,52,32,36,7,0.01,0.0,1.0,0,0,0,0.01,0,0,0.0,0.0,0.0,0.0,0,0,0.0,0,0.0,-1,0.0,0.0,0.0,0,0.0,0.2407
14483,0,,,,,,,,0.01,0.01,1.0,0,0,0,0.01,0,,,,,,,,,,,,,,,,,
14523,0,,,,,,,,0.02,0.01,1.0,0,0,0,0.02,0,,,,,,,,,,,,,,,,,
14563,0,,,,,,,,0.02,0.0,1.0,0,0,0,0.02,0,,,,,,,,,,,,,,,,,
14603,0,,,,,,,,0.02,0.0,1.0,0,0,0,0.02,0,,,,,,,,,,,,,,,,,
14643,0,-1,2,46,52,32,36,8,0.02,0.0,1.0,0,-0,0,0.02,0,0,0.0,0.0,0.0,0.0,0,0,0.0,0,0.0,-1,0.0,0.0,0.0,0,0.0,0.244
14683,0,,,,,,,,0.02,0.0,1.0,0,-0,0,0.02,0,,,,,,,,,,,,,,,,,
14723,0,,,,,,,,0.02,0.01,1.0,0,-0,0,0.02,0,,,,,,,,,,,,,,,,,
14763,0,,,,,,,,0.02,0.01,0.99,0,0,0,0.02,0,,,,,,,,,,,,,,,,,
14803,0,,,,,,,,0.02,0.01,0.99,0,0,0,0.02,0,,,,,,,,,,,,,,,,,
14843,0,-0,2,47,52,32,36,7,0.02,0.01,0.99,0,0,0,0.02,0,0,0.0,0.0,0.0,0.0,0,0,0.0,0,0.0,-1,0.0,0.0,0.0,0,0.0,0.2474
14883,0,,,,,,,,0.02,0.01,1.0,0,0,0,0.02,0,,,,,,,,,,,,,,,,,
14923,0,,,,,,,,0.02,0.01,1.0,0,0,0,0.02,0,,,,,,,,,,,,,,,,,
14963,0,,,,,,,,0.02,0.01,0.99,0,0,0,0.02,0,,,,,,,,,,,,,,,,,
15003,0,,,,,,,,0.02,0.01,1.0,0,0,0,0.02,0,,,,,,,,,,,,,,,,,
15043,0,1,0,47,52,32,35,8,0.02,0.01,1.0,0,-0,0,0.02,0,0,0.0,0.0,0.0,0.0,0,0,0.0,0,0.0,-1,0.0,0.0,0.0,0,0.0,0.2507
15083,0,,,,,,,,0.02,0.01,1.0,0,-0,0,0.02,0,,,,,,,,,,,,,,,,,
15123,0,,,,,,,,0.01,0.01,1.0,0,-0,-0,0.02,0,,,,,,,,,,,,,,,,,
15163,0,,,,,,,,0.01,0.01,1.0,0,0,-0,0.01,0,,,,,,,,,,,,,,,,,
15203,0,,,,,,,,0.01,0.0,1.0,0,-0,-0,0.01,0,,,,,,,,,,,,,,,,,
15243,0,1,1,47,52,32,35,7,0.02,0.0,1.0,0,-0,0,0.02,0,0,0.0,0.0,0.0,0.0,0,0,0.0,0,0.0,-1,0.0,0.0,0.0,0,0.0,0.254
15283,0,,,,,,,,0.04,0.0,1.0,0,-0,-0,0.04,0,,,,,,,,,,,,,,,,,
15323,0,,,,,,,,0.08,0.0,0.99,0,-0,-0,0.08,0,,,,,,,,,,,,,,,,,
15363,0,,,,,,,,0.11,0.0,0.99,0,-0,-0,0.11,0,,,,,,,,,,,,,,,,,
15403,0,,,,,,,,0.13,0.0,0.99,0,-0,-0,0.13,0,,,,,,,,,,,,,,,,,
15443,0,0,0,47,53,32,34,8,0.13,-0.0,0.99,0,-0,-0,0.13,0,0,0.0,0.0,0.0,0.0,0,0,0.0,0,0.0,-1,0.0,0.0,0.0,0,0.0,0.2574
15483,0,,,,,,,,0.12,0.0,0.99,0,-0,0,0.12,0,,,,,,,,,,,,,,,,,
15523,0,,,,,,,,0.11,-0.0,0.99,0,0,0,0.11,0,,,,,,,,,,,,,,,,,
15563,0,,,,,,,,0.09,0.0,0.99,0,0,0,0.09,0,,,,,,,,,,,,,,,,,
15603,0,,,,,,,,0.08,0.0,1.0,0,0,0,0.08,0,,,,,,,,,,,,,,,,,
15643,0,-1,2,47,53,32,34,8,0.07,0.0,0.99,0,0,0,0.07,0,0,0.0,0.0,0.0,0.0,0,0,0.0,0,0.0,-1,0.0,0.0,0.0,0,0.0,0.2607
15683,0,,,,,,,,0.07,0.0,0.99,0,0,0,0.07,0,,,,,,,,,,,,,,,,,
15723,0,,,,,,,,0.06,0.0,0.99,0,0,0,0.06,0,,,,,,,,,,,,,,,,,
15763,0,,,,,,,,0.06,0.0,0.99,0,0,0,0.06,0,,,,,,,,,,,,,,,,,
15803,0,,,,,,,,0.06,0.0,1.0,0,0,0,0.06,0,,,,,,,,,,,,,,,,,
15843,0,-1,2,46,52,32,35,8,0.06,0.0,1.0,0,0,0,0.06,0,0,0.0,0.0,0.0,0.0,0,0,0.0,0,0.0,-1,0.0,0.0,0.0,0,0.0,0.264
15883,0,,,,,,,,0.06,0.0,0.99,0,0,0,0.06,0,,,,,,,,,,,,,,,,,
15923,0,,,,,,,,0.06,0.0,0.99,0,0,0,0.06,0,,,,,,,,,,,,,,,,,
15963,0,,,,,,,,0.06,0.0,0.99,0,0,0,0.06,0,,,,,,,,,,,,,,,,,
16003,0,,,,,,,,0.05,0.0,0.99,0,0,0,0.05,0,,,,,,,,,,,,,,,,,
16043,0,-1,2,46,52,32,35,7,0.05,0.0,1.0,0,0,0,0.05,0,0,0.0,0.0,0.0,0.0,0,0,0.0,0,0.0,-1,0.0,0.0,0.0,0,0.0,0.2674
16083,0,,,,,,,,0.03,0.0,0.99,0,0,0,0.03,0,,,,,,,,,,,,,,,,,
16123,0,,,,,,,,0.01,0.0,0.99,0,0,0,0.01,0,,,,,,,,,,,,,,,,,
16163,0,,,,,,,,-0.02,0.0,0.99,0,0,0,0.02,0,,,,,,,,,,,,,,,,,
16203,0,,,,,,,,-0.03,0.0,1.0,0,0,0,0.03,0,,,,,,,,,,,,,,,,,
16243,0,0,1,46,52,32,35,7,-0.04,0.0,1.0,0,0,0,0.04,0,0,0.0,0.0,0.0,0.0,0,0,0.0,0,0.0,-1,0.0,0.0,0.0,0,0.0,0.2707
16283,0,,,,,,,,-0.04,0.0,1.0,0,-0,0,0.04,0,,,,,,,,,,,,,,,,,
16323,0,,,,,,,,-0.02,0.01,1.0,0,0,0,0.02,0,,,,,,,,,,,,,,,,,
16363,0,,,,,,,,-0.01,0.0,0.99,0,0,0,0.01,0,,,,,,,,,,,,,,,,,
16403,0,,,,,,,,0.0,0.01,0.99,0,0,0,0.01,0,,,,,,,,,,,,,,,,,
16443,0,-1,2,47,52,32,35,7,0.01,0.01,0.99,0,0,0,0.01,0,0,0.0,0.0,0.0,0.0,0,0,0.0,0,0.0,-1,0.0,0.0,0.0,0,0.0,0.274
16483,0,,,,,,,,0.01,0.01,1.0,0,0,0,0.02,0,,,,,,,,,,,,,,,,,
16523,0,,,,,,,,0.02,0.0,1.0,0,0,0,0.02,0,,,,,,,,,,,,,,,,,
16563,0,,,,,,,,0.03,0.0,1.0,0,0,0,0.03,0,,,,,,,,,,,,,,,,,
16603,0,,,,,,,,0.03,0.0,1.0,0,0,0,0.03,0,,,,,,,,,,,,,,,,,
16643,0,1,1,46,52,32,35,7,0.03,0.0,1.0,0,0,0,0.03,0,0,0.0,0.0,0.0,0.0,0,0,0.0,0,0.0,-1,0.0,0.0,0.0,0,0.0,0.2774
16683,0,,,,,,,,0.04,0.0,1.0,0,0,0,0.04,0,,,,,,,,,,,,,,,,,
16723,0,,,,,,,,0.04,0.0,1.0,0,0,0,0.04,0,,,,,,,,,,,,,,,,,
16763,0,,,,,,,,0.04,0.0,1.0,0,0,0,0.04,0,,,,,,,,,,,,,,,,,
16803,0,,,,,,,,0.04,0.0,1.0,0,0,0,0.04,0,,,,,,,,,,,,,,,,,
16843,0,1,0,47,52,32,35,8,0.04,0.0,0.99,0,-0,0,0.04,0,0,0.0,0.0,0.0,0.0,0,0,0.0,0,0.0,-1,0.0,0.0,0.0,0,0.0,0.2807
16883,0,,,,,,,,0.04,0.0,1.0,0,-0,0,0.04,0,,,,,,,,,,,,,,,,,
16923,0,,,,,,,,0.04,0.0,1.0,0,0,0,0.04,0,,,,,,,,,,,,,,,,,
16963,0,,,,,,,,0.04,0.0,1.0,0,0,0,0.04,0,,,,,,,,,,,,,,,,,
17003,0,,,,,,,,0.04,0.0,1.0,0,-0,0,0.04,0,,,,,,,,,,,,,,,,,
17043,0,1,1,46,52,32,35,7,0.05,0.0,1.0,0,0,0,0.05,0,0,0.0,0.0,0.0,0.0,0,0,0.0,0,0.0,-1,0.0,0.0,0.0,0,0.0,0.284
17083,0,,,,,,,,0.05,0.0,0.99,0,-0,0,0.05,0,,,,,,,,,,,,,,,,,
17123,0,,,,,,,,0.05,0.01,0.99,0,0,0,0.05,0,,,,,,,,,,,,,,,,,
17163,0,,,,,,,,0.05,0.0,1.0,0,0,0,0.05,0,,,,,,,,,,,,,,,,,
17203,0,,,,,,,,0.05,0.0,1.0,0,0,0,0.05,0,,,,,,,,,,,,,,,,,
17243,0,-1,2,47,52,32,35,7,0.05,0.0,1.0,0,0,0,0.05,0,0,0.0,0.0,0.0,0.0,0,0,0.0,0,0.0,-1,0.0,0.0,0.0,0,0.0,0.2874
17283,0,,,,,,,,0.05,0.01,0.99,0,0,0,0.05,0,,,,,,,,,,,,,,,,,
17323,0,,,,,,,,0.05,0.01,0.99,0,0,0,0.05,0,,,,,,,,,,,,,,,,,
17363,0,,,,,,,,0.05,0.01,0.99,0,0,0,0.05,0,,,,,,,,,,,,,,,,,
17403,0,,,,,,,,0.05,0.01,1.0,0,0,0,0.05,0,,,,,,,,,,,,,,,,,
17443,0,-0,2,47,52,32,35,7,0.05,0.01,1.0,0,0,0,0.05,0,0,0.0,0.0,0.0,0.0,0,0,0.0,0,0.0,-1,0.0,0.0,0.0,0,0.0,0.2907
17483,0,,,,,,,,0.05,0.01,1.0,0,0,0,0.05,0,,,,,,,,,,,,,,,,,
17523,0,,,,,,,,0.05,0.01,0.99,0,0,0,0.05,0,,,,,,,,,,,,,,,,,
17563,0,,,,,,,,0.05,0.01,1.0,0,0,0,0.05,0,,,,,,,,,,,,,,,,,
17603,0,,,,,,,,0.05,0.01,0.99,0,0,0,0.05,0,,,,,,,,,,,,,,,,,
17643,0,1,0,47,52,32,35,8,0.05,0.0,1.0,0,0,0,0.05,0,0,0.0,0.0,0.0,0.0,0,0,0.0,0,0.0,-1,0.0,0.0,0.0,0,0.0,0.294
17683,0,,,,,,,,0.05,0.0,1.0,0,0,0,0.05,0,,,,,,,,,,,,,,,,,
17723,0,,,,,,,,0.05,0.0,0.99,0,0,0,0.05,0,,,,,,,,,,,,,,,,,
17763,0,,,,,,,,0.05,0.0,0.99,0,0,0,0.05,0,,,,,,,,,,,,,,,,,
17803,0,,,,,,,,0.05,0.0,0.99,0,0,0,0.05,0,,,,,,,,,,,,,,,,,
17843,0,-0,2,47,52,32,35,7,0.05,0.0,1.0,0,0,0,0.05,0,0,0.0,0.0,0.0,0.0,0,0,0.0,0,0.0,-1,0.0,0.0,0.0,0,0.0,0.2974
17883,0,,,,,,,,0.05,0.0,1.0,0,0,0,0.05,0,,,,,,,,,,,,,,,,,
17923,0,,,,,,,,0.05,0.0,1.0,0,0,0,0.05,0,,,,,,,,,,,,,,,,,
17963,0,,,,,,,,0.05,0.01,0.99,0,0,0,0.05,0,,,,,,,,,,,,,,,,,
18003,0,,,,,,,,0.05,0.01,0.99,0,0,0,0.05,0,,,,,,,,,,,,,,,,,
18043,0,-1,2,47,52,32,35,7,0.04,0.01,1.0,0,-0,0,0.04,0,0,0.0,0.0,0.0,0.0,0,0,0.0,0,0.0,-1,0.0,0.0,0.0,0,0.0,0.3007
18083,0,,,,,,,,0.04,0.01,1.01,0,0,0,0.04,0,,,,,,,,,,,,,,,,,
18123,0,,,,,,,,0.04,0.01,1.01,0,0,0,0.04,0,,,,,,,,,,,,,,,,,
18163,0,,,,,,,,0.04,0.01,1.0,0,0,0,0.04,0,,,,,,,,,,,,,,,,,
18203,0,,,,,,,,0.04,0.01,1.0,0,0,0,0.04,0,,,,,,,,,,,,,,,,,
18243,0,1,0,47,52,32,35,8,0.04,0.01,1.0,0,0,0,0.04,0,0,0.0,0.0,0.0,0.0,0,0,0.0,0,0.0,-1,0.0,0.0,0.0,0,0.0,0.304
18283,0,,,,,,,,0.04,0.0,1.0,0,0,0,0.04,0,,,,,,,,,,,,,,,,,
18323,0,,,,,,,,0.04,0.0,1.0,0,0,0,0.04,0,,,,,,,,,,,,,,,,,
18363,0,,,,,,,,0.04,0.0,1.0,0,0,0,0.04,0,,,,,,,,,,,,,,,,,
18403,0,,,,,,,,0.04,0.0,1.0,0,0,0,0.04,0,,,,,,,,,,,,,,,,,
18443,0,0,1,47,52,32,35,8,0.04,0.01,1.0,0,0,0,0.04,0,0,0.0,0.0,0.0,0.0,0,0,0.0,0,0.0,-1,0.0,0.0,0.0,0,0.0,0.3074
18483,0,,,,,,,,0.04,0.0,1.0,0,0,0,0.04,0,,,,,,,,,,,,,,,,,
18523,0,,,,,,,,0.04,0.0,1.0,0,0,0,0.04,0,,,,,,,,,,,,,,,,,
18563,0,,,,,,,,0.04,0.0,1.0,0,0,0,0.04,0,,,,,,,,,,,,,,,,,
18603,0,,,,,,,,0.04,0.0,1.0,0,0,0,0.04,0,,,,,,,,,,,,,,,,,
18643,0,-1,2,47,52,32,35,8,0.04,0.01,1.0,0,0,0,0.04,0,0,0.0,0.0,0.0,0.0,0,0,0.0,0,0.0,-1,0.0,0.0,0.0,0,0.0,0.3107
18683,0,,,,,,,,0.04,0.01,0.99,0,0,0,0.04,0,,,,,,,,,,,,,,,,,
18723,0,,,,,,,,0.04,0.01,1.0,0,0,0,0.04,0,,,,,,,,,,,,,,,,,
18763,0,,,,,,,,0.04,0.01,1.0,0,0,0,0.04,0,,,,,,,,,,,,,,,,,
18803,0,,,,,,,,0.04,0.0,1.0,0,0,0,0.04,0,,,,,,,,,,,,,,,,,
18843,0,1,1,47,52,32,35,7,0.04,0.0,1.0,0,0,0,0.04,0,0,0.0,0.0,0.0,0.0,0,0,0.0,0,0.0,-1,0.0,0.0,0.0,0,0.0,0.314
18883,0,,,,,,,,0.04,0.0,1.0,0,0,0,0.04,0,,,,,,,,,,,,,,,,,
18923,0,,,,,,,,0.04,0.0,1.0,0,0,0,0.04,0,,,,,,,,,,,,,,,,,
18963,0,,,,,,,,0.04,0.0,0.99,0,0,0,0.04,0,,,,,,,,,,,,,,,,,
19003,0,,,,,,,,0.04,0.0,1.0,0,0,0,0.04,0,,,,,,,,,,,,,,,,,
19043,0,-1,2,47,52,32,35,8,0.04,0.0,1.0,0,0,0,0.04,0,0,0.0,0.0,0.0,0.0,0,0,0.0,0,0.0,-1,0.0,0.0,0.0,0,0.0,0.3174
19083,0,,,,,,,,0.04,0.0,1.0,0,0,0,0.04,0,,,,,,,,,,,,,,,,,
19123,0,,,,,,,,0.04,0.0,1.0,0,-0,0,0.04,0,,,,,,,,,,,,,,,,,
19163,0,,,,,,,,0.04,0.0,1.0,0,0,0,0.04,0,,,,,,,,,,,,,,,,,
19203,0,,,,,,,,0.04,0.0,0.99,0,0,0,0.04,0,,,,,,,,,,,,,,,,,
19243,0,-0,2,47,52,32,35,8,0.04,0.0,1.0,0,0,0,0.04,0,0,0.0,0.0,0.0,0.0,0,0,0.0,0,0.0,-1,0.0,0.0,0.0,0,0.0,0.3207
19283,0,,,,,,,,0.04,0.0,1.0,0,0,0,0.04,0,,,,,,,,,,,,,,,,,
19323,0,,,,,,,,0.04,0.0,1.0,0,0,0,0.04,0,,,,,,,,,,,,,,,,,
19363,0,,,,,,,,0.04,0.0,1.0,0,0,0,0.04,0,,,,,,,,,,,,,,,,,
19403,0,,,,,,,,0.04,0.0,1.0,0,-0,0,0.04,0,,,,,,,,,,,,,,,,,
19443,0,0,0,47,52,32,35,8,0.04,0.0,0.99,0,0,0,0.04,0,0,0.0,0.0,0.0,0.0,0,0,0.0,0,0.0,-1,0.0,0.0,0.0,0,0.0,0.324
19483,0,,,,,,,,0.04,0.01,1.0,0,0,0,0.04,0,,,,,,,,,,,,,,,,,
19523,0,,,,,,,,0.04,0.0,1.0,0,0,0,0.04,0,,,,,,,,,,,,,,,,,
19563,0,,,,,,,,0.04,0.0,1.0,0,0,0,0.04,0,,,,,,,,,,,,,,,,,
19603,0,,,,,,,,0.04,0.0,0.99,0,0,0,0.04,0,,,,,,,,,,,,,,,,,
19643,0,0,2,47,52,32,35,8,0.04,0.0,0.99,0,0,0,0.04,0,0,0.0,0.0,0.0,0.0,0,0,0.0,0,0.0,-1,0.0,0.0,0.0,0,0.0,0.3274
19683,0,,,,,,,,0.04,0.01,1.0,0,0,0,0.04,0,,,,,,,,,,,,,,,,,
19723,0,,,,,,,,0.04,0.01,1.0,0,0,0,0.04,0,,,,,,,,,,,,,,,,,
19763,0,,,,,,,,0.04,0.01,0.99,0,0,0,0.04,0,,,,,,,,,,,,,,,,,
19803,0,,,,,,,,0.04,0.01,1.0,0,0,0,0.04,0,,,,,,,,,,,,,,,,,
19843,0,18,15,46,52,32,35,7,0.04,0.01,0.99,0,0,0,0.04,0,0,0.0,0.0,0.0,0.0,0,0,0.0,0,0.0,-1,0.0,0.0,0.0,0,0.0,0.3307
19883,0,,,,,,,,0.04,0.01,1.0,0,0,0,0.04,0,,,,,,,,,,,,,,,,,
19923,0,,,,,,,,0.04,0.01,1.0,0,0,0,0.04,0,,,,,,,,,,,,,,,,,
19963,0,,,,,,,,0.04,0.0,1.0,0,-0,0,0.04,0,,,,,,,,,,,,,,,,,
20003,0,,,,,,,,0.04,0.0,1.01,0,0,0,0.04,0,,,,,,,,,,,,,,,,,
20043,0,0,2,46,52,32,35,6,0.04,0.0,1.0,0,0,0,0.04,0,0,0.0,0.0,0.0,0.0,0,0,0.0,0,0.0,-1,0.0,0.0,0.0,0,0.0,0.334
20083,0,,,,,,,,0.04,0.0,1.0,0,0,0,0.04,0,,,,,,,,,,,,,,,,,
20123,0,,,,,,,,0.04,0.0,1.0,0,0,0,0.04,0,,,,,,,,,,,,,,,,,
20163,0,,,,,,,,0.04,0.0,0.99,0,-0,0,0.04,0,,,,,,,,,,,,,,,,,
20203,0,,,,,,,,0.04,0.0,1.0,0,-0,0,0.04,0,,,,,,,,,,,,,,,,,
20243,0,18,18,47,52,32,35,7,0.04,0.0,1.0,0,-0,0,0.04,0,0,0.0,0.0,0.0,0.0,0,0,0.0,0,0.0,-1,0.0,0.0,0.0,0,0.0,0.3374
20283,0,,,,,,,,0.04,0.0,0.99,0,-0,0,0.04,0,,,,,,,,,,,,,,,,,
20323,0,,,,,,,,0.04,0.01,0.99,0,0,0,0.04,0,,,,,,,,,,,,,,,,,
20363,0,,,,,,,,0.04,0.0,0.99,0,0,0,0.04,0,,,,,,,,,,,,,,,,,
20403,0,,,,,,,,0.04,0.0,1.0,0,0,0,0.04,0,,,,,,,,,,,,,,,,,
20443,0,25,21,46,52,32,35,8,0.04,0.0,1.0,0,0,0,0.04,0,0,0.0,0.0,0.0,0.0,0,0,0.0,0,0.0,-1,0.0,0.0,0.0,0,0.0,0.3407
20483,0,,,,,,,,0.04,0.01,0.99,0,-0,0,0.04,0,,,,,,,,,,,,,,,,,
20523,0,,,,,,,,0.04,0.01,0.99,0,-0,0,0.04,0,,,,,,,,,,,,,,,,,
20563,0,,,,,,,,0.04,0.01,0.99,0,-0,0,0.04,0,,,,,,,,,,,,,,,,,
20603,0,,,,,,,,0.04,0.0,1.0,0,-0,0,0.04,0,,,,,,,,,,,,,,,,,
20643,0,22,20,47,52,32,35,8,0.04,0.01,0.99,0,0,0,0.04,0,0,0.0,0.0,0.0,0.0,0,0,0.0,0,0.0,-1,0.0,0.0,0.0,0,0.0,0.344
20683,0,,,,,,,,0.04,0.01,1.0,0,0,0,0.04,0,,,,,,,,,,,,,,,,,
20723,0,,,,,,,,0.04,0.01,0.99,0,0,0,0.04,0,,,,,,,,,,,,,,,,,
20763,0,,,,,,,,0.04,0.01,0.99,0,-0,0,0.04,0,,,,,,,,,,,,,,,,,
20803,0,,,,,,,,0.04,0.01,0.99,0,-0,0,0.04,0,,,,,,,,,,,,,,,,,
20843,0,24,21,47,52,32,35,8,0.04,0.01,1.0,0,-0,0,0.04,0,0,0.0,0.0,0.0,0.0,0,0,0.0,0,0.0,-1,0.0,0.0,0.0,0,0.0,0.3474
20883,0,,,,,,,,0.04,0.0,1.0,0,-0,0,0.04,0,,,,,,,,,,,,,,,,,
20923,0,,,,,,,,0.04,0.01,1.0,0,0,0,0.04,0,,,,,,,,,,,,,,,,,
20963,0,,,,,,,,0.04,0.0,1.0,0,0,0,0.04,0,,,,,,,,,,,,,,,,,
21003,0,,,,,,,,0.04,0.0,1.0,0,0,0,0.04,0,,,,,,,,,,,,,,,,,
21043,0,30,26,47,52,32,35,8,0.04,0.0,1.0,0,0,0,0.04,0,0,0.0,0.0,0.0,0.0,0,0,0.0,0,0.0,-1,0.0,0.0,0.0,0,0.0,0.3507
21083,0,,,,,,,,0.04,0.0,1.0,0,0,0,0.04,0,,,,,,,,,,,,,,,,,
21123,0,,,,,,,,0.04,0.0,0.99,0,0,0,0.04,0,,,,,,,,,,,,,,,,,
21163,0,,,,,,,,0.04,0.0,1.0,0,0,0,0.04,0,,,,,,,,,,,,,,,,,
21203,0,,,,,,,,0.04,0.0,1.0,0,0,0,0.04,0,,,,,,,,,,,,,,,,,
21243,0,18,14,47,52,32,35,7,0.04,0.0,0.99,0,0,0,0.04,0,0,0.0,0.0,0.0,0.0,0,0,0.0,0,0.0,-1,0.0,0.0,0.0,0,0.0,0.354
21283,0,,,,,,,,0.04,0.0,0.99,0,0,0,0.04,0,,,,,,,,,,,,,,,,,
21323,0,,,,,,,,0.04,0.0,0.99,0,0,0,0.04,0,,,,,,,,,,,,,,,,,
21363,0,,,,,,,,0.04,0.01,0.99,0,0,0,0.04,0,,,,,,,,,,,,,,,,,
21403,0,,,,,,,,0.04,0.0,0.99,0,0,0,0.04,0,,,,,,,,,,,,,,,,,
21443,0,6,4,47,52,32,35,8,0.04,0.0,1.0,0,0,0,0.04,0,0,0.0,0.0,0.0,0.0,0,0,0.0,0,0.0,-1,0.0,0.0,0.0,0,0.0,0.3574
21483,0,,,,,,,,0.04,0.0,0.99,0,0,0,0.04,0,,,,,,,,,,,,,,,,,
21523,0,,,,,,,,0.04,0.0,1.0,0,-0,0,0.04,0,,,,,,,,,,,,,,,,,
21563,0,,,,,,,,0.04,0.0,1.0,0,0,0,0.04,0,,,,,,,,,,,,,,,,,
21603,0,,,,,,,,0.04,0.0,0.99,0,-0,0,0.04,0,,,,,,,,,,,,,,,,,
21643,0,4,3,47,52,32,35,7,0.04,0.0,1.0,0,0,0,0.04,0,0,0.0,0.0,0.0,0.0,0,0,0.0,0,0.0,-1,0.0,0.0,0.0,0,0.0,0.3607
21683,0,,,,,,,,0.04,0.0,1.0,0,-0,0,0.04,0,,,,,,,,,,,,,,,,,
21723,0,,,,,,,,0.04,0.0,0.99,0,0,0,0.04,0,,,,,,,,,,,,,,,,,
21763,0,,,,,,,,0.04,0.0,0.99,0,-0,0,0.04,0,,,,,,,,,,,,,,,,,
21803,0,,,,,,,,0.04,0.0,0.99,0,0,0,0.04,0,,,,,,,,,,,,,,,,,
21843,0,3,3,47,52,32,35,6,0.04,0.0,1.0,0,0,0,0.04,0,0,0.0,0.0,0.0,0.0,0,0,0.0,0,0.0,-1,0.0,0.0,0.0,0,0.0,0.364
21883,0,,,,,,,,0.04,0.0,1.0,0,0,0,0.04,0,,,,,,,,,,,,,,,,,
21923,0,,,,,,,,0.04,0.0,1.0,0,0,0,0.04,0,,,,,,,,,,,,,,,,,
21963,0,,,,,,,,0.04,0.0,0.99,0,-0,0,0.04,0,,,,,,,,,,,,,,,,,
22003,0,,,,,,,,0.04,0.0,0.99,0,0,0,0.04,0,,,,,,,,,,,,,,,,,
22043,0,7,8,47,52,32,35,8,0.04,0.0,0.99,0,0,0,0.04,0,0,0.0,0.0,0.0,0.0,0,0,0.0,0,0.0,-1,0.0,0.0,0.0,0,0.0,0.3674
22083,0,,,,,,,,0.04,0.0,0.99,0,0,0,0.04,0,,,,,,,,,,,,,,,,,
22123,0,,,,,,,,0.04,0.0,0.99,0,-0,0,0.04,0,,,,,,,,,,,,,,,,,
22163,0,,,,,,,,0.04,0.0,0.99,0,-0,0,0.04,0,,,,,,,,,,,,,,,,,
22203,0,,,,,,,,0.04,0.0,0.99,0,0,0,0.04,0,,,,,,,,,,,,,,,,,
22243,0,2,4,47,52,32,35,8,0.04,0.0,0.99,0,0,0,0.04,0,0,0.0,0.0,0.0,0.0,0,0,0.0,0,0.0,-1,0.0,0.0,0.0,0,0.0,0.3707
22283,0,,,,,,,,0.04,0.0,0.99,0,-0,0,0.04,0,,,,,,,,,,,,,,,,,
22323,0,,,,,,,,0.04,0.01,0.99,0,0,0,0.04,0,,,,,,,,,,,,,,,,,
22363,0,,,,,,,,0.04,0.0,0.99,0,0,0,0.04,0,,,,,,,,,,,,,,,,,
22403,0,,,,,,,,0.04,0.0,1.0,0,0,0,0.04,0,,,,,,,,,,,,,,,,,
22443,0,4,5,47,52,32,35,8,0.04,0.0,0.99,0,0,0,0.04,0,0,0.0,0.0,0.0,0.0,0,0,0.0,0,0.0,-1,0.0,0.0,0.0,0,0.0,0.374
22483,0,,,,,,,,0.04,0.0,0.99,0,0,0,0.04,0,,,,,,,,,,,,,,,,,
22523,0,,,,,,,,0.04,0.0,0.99,0,0,0,0.04,0,,,,,,,,,,,,,,,,,
22563,0,,,,,,,,0.04,0.0,0.99,0,0,0,0.04,0,,,,,,,,,,,,,,,,,
22603,0,,,,,,,,0.04,0.0,0.99,0,0,0,0.04,0,,,,,,,,,,,,,,,,,
22643,0,5,4,46,52,32,35,8,0.04,0.0,0.99,0,0,0,0.04,0,0,0.0,0.0,0.0,0.0,0,0,0.0,0,0.0,-1,0.0,0.0,0.0,0,0.0,0.3774
22683,0,,,,,,,,0.04,0.0,0.99,0,0,0,0.04,0,,,,,,,,,,,,,,,,,
22723,0,,,,,,,,0.04,0.0,0.99,0,0,0,0.04,0,,,,,,,,,,,,,,,,,
22763,0,,,,,,,,0.04,0.0,0.99,0,0,0,0.04,0,,,,,,,,,,,,,,,,,
22803,0,,,,,,,,0.04,0.0,0.99,0,0,0,0.04,0,,,,,,,,,,,,,,,,,
22843,0,0,1,47,52,32,35,7,0.04,0.0,0.99,0,-0,0,0.04,0,0,0.0,0.0,0.0,0.0,0,0,0.0,0,0.0,-1,0.0,0.0,0.0,0,0.0,0.3807
22883,0,,,,,,,,0.04,0.0,0.99,0,-0,0,0.04,0,,,,,,,,,,,,,,,,,
22923,0,,,,,,,,0.04,0.01,0.99,0,-0,0,0.04,0,,,,,,,,,,,,,,,,,
22963,0,,,,,,,,0.04,0.01,0.99,0,0,0,0.04,0,,,,,,,,,,,,,,,,,
23003,0,,,,,,,,0.04,0.0,0.99,0,0,0,0.04,0,,,,,,,,,,,,,,,,,
23043,0,0,0,47,52,32,35,7,0.04,0.01,0.99,0,0,0,0.04,0,0,0.0,0.0,0.0,0.0,0,0,0.0,0,0.0,-1,0.0,0.0,0.0,0,0.0,0.384
23083,0,,,,,,,,0.04,0.01,0.99,0,0,0,0.04,0,,,,,,,,,,,,,,,,,
23123,0,,,,,,,,0.04,0.0,0.99,0,0,0,0.04,0,,,,,,,,,,,,,,,,,
23163,0,,,,,,,,0.04,0.0,1.0,0,0,0,0.04,0,,,,,,,,,,,,,,,,,
23203,0,,,,,,,,0.04,0.0,1.0,0,0,0,0.04,0,,,,,,,,,,,,,,,,,
23243,0,1,0,47,52,32,35,7,0.04,0.0,0.99,0,0,0,0.04,0,0,0.0,0.0,0.0,0.0,0,0,0.0,0,0.0,-1,0.0,0.0,0.0,0,0.0,0.3874
23283,0,,,,,,,,0.04,0.01,0.99,0,0,0,0.04,0,,,,,,,,,,,,,,,,,
23323,0,,,,,,,,0.04,0.01,0.99,0,0,0,0.04,0,,,,,,,,,,,,,,,,,
23363,0,,,,,,,,0.04,0.01,0.99,0,0,0,0.04,0,,,,,,,,,,,,,,,,,
23403,0,,,,,,,,0.04,0.0,1.0,0,0,0,0.04,0,,,,,,,,,,,,,,,,,
23443,0,0,2,47,52,32,35,7,0.04,0.0,1.0,0,0,0,0.04,0,0,0.0,0.0,0.0,0.0,0,0,0.0,0,0.0,-1,0.0,0.0,0.0,0,0.0,0.3907
23483,0,,,,,,,,0.04,0.0,1.0,0,0,0,0.04,0,,,,,,,,,,,,,,,,,
23523,0,,,,,,,,0.04,0.0,0.99,0,0,0,0.04,0,,,,,,,,,,,,,,,,,
23563,0,,,,,,,,0.04,0.0,0.99,0,0,0,0.04,0,,,,,,,,,,,,,,,,,
23603,0,,,,,,,,0.04,0.0,0.99,0,0,0,0.04,0,,,,,,,,,,,,,,,,,
23643,0,1,1,46,52,32,35,8,0.04,0.0,0.99,0,0,0,0.04,0,0,0.0,0.0,0.0,0.0,0,0,0.0,0,0.0,-1,0.0,0.0,0.0,0,0.0,0.394
23683,0,,,,,,,,0.04,0.0,0.99,0,0,0,0.04,0,,,,,,,,,,,,,,,,,
23723,0,,,,,,,,0.04,0.0,0.99,0,0,0,0.04,0,,,,,,,,,,,,,,,,,
23763,0,,,,,,,,0.04,0.01,0.99,0,0,0,0.04,0,,,,,,,,,,,,,,,,,
23803,0,,,,,,,,0.04,0.01,0.99,0,0,0,0.04,0,,,,,,,,,,,,,,,,,
23843,0,1,0,47,52,32,35,7,0.04,0.0,0.99,0,0,0,0.04,0,0,0.0,0.0,0.0,0.0,0,0,0.0,0,0.0,-1,0.0,0.0,0.0,0,0.0,0.3974
23883,0,,,,,,,,0.04,0.0,0.99,0,0,0,0.04,0,,,,,,,,,,,,,,,,,
23923,0,,,,,,,,0.04,0.0,0.99,0,0,0,0.04,0,,,,,,,,,,,,,,,,,
23963,0,,,,,,,,0.04,0.0,0.99,0,0,0,0.04,0,,,,,,,,,,,,,,,,,
24003,0,,,,,,,,0.04,0.0,0.99,0,0,0,0.04,0,,,,,,,,,,,,,,,,,
24043,0,1,2,47,52,32,35,8,0.04,0.0,0.99,0,0,0,0.04,0,0,0.0,0.0,0.0,0.0,0,0,0.0,0,0.0,-1,0.0,0.0,0.0,0,0.0,0.4007
24083,0,,,,,,,,0.04,0.0,0.99,0,0,0,0.04,0,,,,,,,,,,,,,,,,,
24123,0,,,,,,,,0.04,0.0,0.99,0,0,0,0.04,0,,,,,,,,,,,,,,,,,
24163,0,,,,,,,,0.04,0.0,0.99,0,0,0,0.04,0,,,,,,,,,,,,,,,,,
24203,0,,,,,,,,0.04,0.0,0.99,0,0,0,0.04,0,,,,,,,,,,,,,,,,,
24243,0,1,2,47,52,32,35,8,0.04,0.0,0.99,0,0,0,0.04,0,0,0.0,0.0,0.0,0.0,0,0,0.0,0,0.0,-1,0.0,0.0,0.0,0,0.0,0.404
24283,0,,,,,,,,0.04,0.0,0.99,0,0,0,0.04,0,,,,,,,,,,,,,,,,,
24323,0,,,,,,,,0.04,0.0,0.99,0,0,0,0.04,0,,,,,,,,,,,,,,,,,
24363,0,,,,,,,,0.04,0.0,0.99,0,0,0,0.04,0,,,,,,,,,,,,,,,,,
24403,0,,,,,,,,0.04,0.01,0.99,0,0,0,0.04,0,,,,,,,,,,,,,,,,,
24443,0,-1,1,47,52,32,35,7,0.04,0.0,1.0,0,0,0,0.04,0,0,0.0,0.0,0.0,0.0,0,0,0.0,0,0.0,-1,0.0,0.0,0.0,0,0.0,0.4074
24483,0,,,,,,,,0.04,0.0,1.0,0,0,0,0.04,0,,,,,,,,,,,,,,,,,
24523,0,,,,,,,,0.04,0.0,0.99,0,0,0,0.04,0,,,,,,,,,,,,,,,,,
24563,0,,,,,,,,0.04,0.0,0.99,0,-0,0,0.04,0,,,,,,,,,,,,,,,,,
24603,0,,,,,,,,0.04,0.0,0.99,0,0,0,0.04,0,,,,,,,,,,,,,,,,,
24643,0,-0,0,47,52,32,35,7,0.04,0.0,0.99,0,0,0,0.04,0,0,0.0,0.0,0.0,0.0,0,0,0.0,0,0.0,-1,0.0,0.0,0.0,0,0.0,0.4107
24683,0,,,,,,,,0.04,0.0,1.0,0,0,0,0.04,0,,,,,,,,,,,,,,,,,
24723,0,,,,,,,,0.04,0.0,1.0,0,-0,0,0.04,0,,,,,,,,,,,,,,,,,
24763,0,,,,,,,,0.04,0.0,0.99,0,-0,0,0.04,0,,,,,,,,,,,,,,,,,
24803,0,,,,,,,,0.04,0.0,0.99,0,-0,0,0.04,0,,,,,,,,,,,,,,,,,
24843,0,1,2,47,52,32,35,8,0.04,0.01,1.0,0,-0,0,0.04,0,0,0.0,0.0,0.0,0.0,0,0,0.0,0,0.0,-1,0.0,0.0,0.0,0,0.0,0.414
24883,0,,,,,,,,0.04,0.01,1.0,0,0,0,0.04,0,,,,,,,,,,,,,,,,,
24923,0,,,,,,,,0.04,0.01,1.0,0,0,0,0.04,0,,,,,,,,,,,,,,,,,
24963,0,,,,,,,,0.04,0.0,1.0,0,0,0,0.04,0,,,,,,,,,,,,,,,,,
25003,0,,,,,,,,0.04,0.01,1.0,0,0,0,0.04,0,,,,,,,,,,,,,,,,,
25043,0,1,0,47,52,32,35,8,0.04,0.0,1.0,0,0,0,0.04,0,0,0.0,0.0,0.0,0.0,0,0,0.0,0,0.0,-1,0.0,0.0,0.0,0,0.0,0.4174
25083,0,,,,,,,,0.04,0.0,1.0,0,0,0,0.04,0,,,,,,,,,,,,,,,,,
25123,0,,,,,,,,0.04,0.0,1.0,0,0,0,0.04,0,,,,,,,,,,,,,,,,,
25163,0,,,,,,,,0.04,0.0,0.99,0,0,0,0.04,0,,,,,,,,,,,,,,,,,
25203,0,,,,,,,,0.04,0.0,1.0,0,0,0,0.04,0,,,,,,,,,,,,,,,,,
25243,0,1,2,47,52,32,35,7,0.04,0.0,0.99,0,0,0,0.04,0,0,0.0,0.0,0.0,0.0,0,0,0.0,0,0.0,-1,0.0,0.0,0.0,0,0.0,0.4207
25283,0,,,,,,,,0.04,0.0,1.0,0,0,0,0.04,0,,,,,,,,,,,,,,,,,
25323,0,,,,,,,,0.04,0.0,0.99,0,0,0,0.04,0,,,,,,,,,,,,,,,,,
25363,0,,,,,,,,0.04,0.0,0.99,0,0,0,0.04,0,,,,,,,,,,,,,,,,,
25403,0,,,,,,,,0.04,0.0,0.99,0,0,0,0.04,0,,,,,,,,,,,,,,,,,
25443,0,-1,2,47,52,32,35,8,0.04,0.0,0.99,0,0,0,0.04,0,0,0.0,0.0,0.0,0.0,0,0,0.0,0,0.0,-1,0.0,0.0,0.0,0,0.0,0.424
25483,0,,,,,,,,0.04,0.0,0.99,0,0,0,0.04,0,,,,,,,,,,,,,,,,,
25523,0,,,,,,,,0.04,0.0,0.99,0,0,0,0.04,0,,,,,,,,,,,,,,,,,
25563,0,,,,,,,,0.04,0.0,0.99,0,0,0,0.04,0,,,,,,,,,,,,,,,,,
25603,0,,,,,,,,0.04,0.0,0.99,0,0,0,0.04,0,,,,,,,,,,,,,,,,,
25643,0,0,2,47,52,32,35,7,0.04,0.0,0.99,0,0,0,0.04,0,0,0.0,0.0,0.0,0.0,0,0,0.0,0,0.0,-1,0.0,0.0,0.0,0,0.0,0.4274
25683,0,,,,,,,,0.04,0.01,0.99,0,0,0,0.04,0,,,,,,,,,,,,,,,,,
25723,0,,,,,,,,0.04,0.01,0.99,0,0,0,0.04,0,,,,,,,,,,,,,,,,,
25763,0,,,,,,,,0.04,0.01,0.99,0,0,0,0.04,0,,,,,,,,,,,,,,,,,
25803,0,,,,,,,,0.04,0.01,1.01,0,-0,0,0.04,0,,,,,,,,,,,,,,,,,
25843,0,-0,1,46,52,32,35,8,0.04,0.01,1.01,0,-0,0,0.04,0,0,0.0,0.0,0.0,0.0,0,0,0.0,0,0.0,-1,0.0,0.0,0.0,0,0.0,0.4307
25883,0,,,,,,,,0.04,0.01,1.01,0,-0,0,0.04,0,,,,,,,,,,,,,,,,,
25923,0,,,,,,,,0.04,0.01,1.01,0,-0,0,0.04,0,,,,,,,,,,,,,,,,,
25963,0,,,,,,,,0.04,0.01,1.01,0,-0,0,0.04,0,,,,,,,,,,,,,,,,,
26003,0,,,,,,,,0.03,0.0,1.01,0,-0,0,0.03,0,,,,,,,,,,,,,,,,,
26043,0,1,1,47,52,32,35,7,0.03,0.0,1.0,0,-0,0,0.03,0,0,0.0,0.0,0.0,0.0,0,0,0.0,0,0.0,-1,0.0,0.0,0.0,0,0.0,0.434
26083,0,,,,,,,,0.04,0.0,1.01,0,-0,0,0.04,0,,,,,,,,,,,,,,,,,
26123,0,,,,,,,,0.03,0.0,0.97,0,-0,0,0.03,0,,,,,,,,,,,,,,,,,
26163,0,,,,,,,,0.04,0.0,0.96,0,-0,0,0.04,0,,,,,,,,,,,,,,,,,
26203,0,,,,,,,,0.03,0.0,0.98,0,-0,0,0.03,0,,,,,,,,,,,,,,,,,
26243,0,1,0,47,52,32,35,7,0.02,0.0,0.97,0,-0,0,0.02,0,0,0.0,0.0,0.0,0.0,0,0,0.0,0,0.0,-1,0.0,0.0,0.0,0,0.0,0.4374
26283,0,,,,,,,,0.02,0.0,0.96,0,-0,0,0.02,0,,,,,,,,,,,,,,,,,
26323,0,,,,,,,,0.03,0.0,0.97,0,-0,0,0.03,0,,,,,,,,,,,,,,,,,
26363,0,,,,,,,,0.02,0.0,0.98,0,0,0,0.02,0,,,,,,,,,,,,,,,,,
26403,0,,,,,,,,0.03,0.01,1.01,0,0,0,0.03,0,,,,,,,,,,,,,,,,,
26443,0,-1,2,47,52,32,35,7,0.02,0.0,1.03,0,0,0,0.02,0,0,0.0,0.0,0.0,0.0,0,0,0.0,0,0.0,-1,0.0,0.0,0.0,0,0.0,0.4407
26483,0,,,,,,,,0.03,0.0,0.99,0,0,0,0.03,0,,,,,,,,,,,,,,,,,
26523,0,,,,,,,,0.03,0.0,0.98,0,-0,0,0.03,0,,,,,,,,,,,,,,,,,
26563,0,,,,,,,,0.02,-0.0,0.97,0,-0,0,0.02,0,,,,,,,,,,,,,,,,,
26603,0,,,,,,,,0.03,-0.0,0.99,0,-0,0,0.03,0,,,,,,,,,,,,,,,,,
26643,0,1,1,46,52,32,35,7,0.03,-0.0,1.03,0,-0,0,0.03,0,0,0.0,0.0,0.0,0.0,0,0,0.0,0,0.0,-1,0.0,0.0,0.0,0,0.0,0.444
26683,0,,,,,,,,0.02,-0.0,1.04,0,-0,0,0.02,0,,,,,,,,,,,,,,,,,
26723,0,,,,,,,,0.02,-0.0,1.02,0,0,0,0.02,0,,,,,,,,,,,,,,,,,
26763,0,,,,,,,,0.04,0.0,1.01,0,0,0,0.04,0,,,,,,,,,,,,,,,,,
26803,0,,,,,,,,0.04,0.0,1.0,0,0,0,0.04,0,,,,,,,,,,,,,,,,,
26843,0,0,0,47,52,32,35,8,0.03,-0.0,0.94,0,-0,0,0.03,0,0,0.0,0.0,0.0,0.0,0,0,0.0,0,0.0,-1,0.0,0.0,0.0,0,0.0,0.4474
26883,0,,,,,,,,0.03,0.0,0.94,0,0,0,0.03,0,,,,,,,,,,,,,,,,,
26923,0,,,,,,,,0.03,0.01,0.91,0,-0,0,0.03,0,,,,,,,,,,,,,,,,,
26963,0,,,,,,,,0.02,0.01,1.05,0,-1,-0,0.03,0,,,,,,,,,,,,,,,,,
27003,0,,,,,,,,0.01,0.01,1.13,0,-1,-0,0.02,0,,,,,,,,,,,,,,,,,
27043,0,0,2,46,52,32,35,7,0.03,0.01,1.25,0,-1,-1,0.03,0,0,0.0,0.0,0.0,0.0,0,0,0.0,0,0.0,-1,0.0,0.0,0.0,0,0.0,0.4507
27083,0,,,,,,,,0.0,-0.0,1.27,0,-1,-1,0.01,0,,,,,,,,,,,,,,,,,
27123,0,,,,,,,,0.0,0.0,1.23,0,1,-1,0.01,0,,,,,,,,,,,,,,,,,
27163,0,,,,,,,,0.03,0.0,1.22,0,1,-1,0.03,0,,,,,,,,,,,,,,,,,
27203,0,,,,,,,,0.02,0.0,1.16,0,1,-1,0.02,0,,,,,,,,,,,,,,,,,
27243,0,-1,2,47,52,32,35,7,0.03,-0.0,1.15,0,1,-1,0.03,0,0,0.0,0.0,0.0,0.0,0,0,0.0,0,0.0,-1,0.0,0.0,0.0,0,0.0,0.454
27283,0,,,,,,,,0.03,-0.0,1.11,0,1,-0,0.03,0,,,,,,,,,,,,,,,,,
27323,0,,,,,,,,0.04,-0.0,1.1,0,1,-0,0.04,0,,,,,,,,,,,,,,,,,
27363,0,,,,,,,,0.04,-0.0,1.1,0,0,-0,0.04,0,,,,,,,,,,,,,,,,,
27403,0,,,,,,,,0.04,0.01,1.1,0,0,-0,0.04,0,,,,,,,,,,,,,,,,,
27443,0,-0,2,47,52,32,35,7,0.03,-0.0,1.07,0,0,-0,0.03,0,0,0.0,0.0,0.0,0.0,0,0,0.0,0,0.0,-1,0.0,0.0,0.0,0,0.0,0.4574
27483,0,,,,,,,,0.04,0.0,1.05,0,1,-0,0.04,0,,,,,,,,,,,,,,,,,
27523,0,,,,,,,,0.04,0.01,1.07,0,0,-0,0.04,0,,,,,,,,,,,,,,,,,
27563,0,,,,,,,,0.04,0.01,1.04,0,0,-0,0.04,0,,,,,,,,,,,,,,,,,
27603,0,,,,,,,,0.04,0.01,1.04,0,0,-0,0.04,0,,,,,,,,,,,,,,,,,
27643,0,-1,2,47,52,32,35,7,0.04,-0.0,1.03,0,0,-0,0.04,0,0,0.0,0.0,0.0,0.0,0,0,0.0,0,0.0,-1,0.0,0.0,0.0,0,0.0,0.4607
27683,0,,,,,,,,0.05,0.0,1.03,0,0,-0,0.05,0,,,,,,,,,,,,,,,,,
27723,0,,,,,,,,0.05,-0.0,1.07,0,-0,-0,0.05,0,,,,,,,,,,,,,,,,,
27763,0,,,,,,,,0.07,0.0,0.99,0,1,-0,0.07,0,,,,,,,,,,,,,,,,,
27803,0,,,,,,,,0.02,-0.01,1.1,0,-1,-0,0.02,0,,,,,,,,,,,,,,,,,
27843,0,0,2,46,52,32,35,6,0.01,-0.01,1.1,0,-2,0,0.02,0,0,0.0,0.0,0.0,0.0,0,0,0.0,0,0.0,-1,0.0,0.0,0.0,0,0.0,0.464
27883,0,,,,,,,,0.01,-0.0,1.18,0,-1,-0,0.01,0,,,,,,,,,,,,,,,,,
27923,0,,,,,,,,-0.25,-0.0,1.09,0,-15,0,0.25,0,,,,,,,,,,,,,,,,,
27963,0,,,,,,,,-0.37,0.08,1.26,0,-48,3,0.38,0,,,,,,,,,,,,,,,,,
28003,0,,,,,,,,-0.63,0.06,1.2,0,-39,-3,0.63,0,,,,,,,,,,,,,,,,,
28043,0,1,1,47,52,32,35,7,-0.57,0.13,0.99,-0,-23,-6,0.59,0,0,0.0,0.0,0.0,0.0,0,0,0.0,0,0.0,-1,0.0,0.0,0.0,0,0.0,0.4674
28083,0,,,,,,,,-0.42,0.1,0.78,-0,-20,-5,0.43,0,,,,,,,,,,,,,,,,,
28123,0,,,,,,,,-0.25,0.1,0.61,-0,-16,0,0.27,0,,,,,,,,,,,,,,,,,
28163,0,,,,,,,,-0.27,0.11,0.11,-0,-15,5,0.3,0,,,,,,,,,,,,,,,,,
28203,0,,,,,,,,-0.25,0.05,-0.29,-0,-16,9,0.25,0,,,,,,,,,,,,,,,,,
28243,0,0,1,47,52,32,35,7,-0.23,0.14,0.03,-0,-11,4,0.26,0,0,0.0,0.0,0.0,0.0,0,0,0.0,0,0.0,-1,0.0,0.0,0.0,0,0.0,0.4707
28283,0,,,,,,,,-0.14,0.03,-0.01,-0,-9,4,0.14,0,,,,,,,,,,,,,,,,,
28323,0,,,,,,,,-0.05,0.09,0.37,0,-2,2,0.1,0,,,,,,,,,,,,,,,,,
28363,0,,,,,,,,-0.03,0.13,0.68,0,4,1,0.13,0,,,,,,,,,,,,,,,,,
28403,0,,,,,,,,0.03,0.09,0.57,0,8,-0,0.1,0,,,,,,,,,,,,,,,,,
28443,0,0,0,47,52,32,35,8,0.11,0.07,0.59,0,5,-1,0.13,0,0,0.0,0.0,0.0,0.0,0,0,0.0,0,0.0,-1,0.0,0.0,0.0,0,0.0,0.474
28483,0,,,,,,,,0.02,0.06,0.49,0,1,4,0.06,0,,,,,,,,,,,,,,,,,
28523,0,,,,,,,,0.03,0.12,0.38,0,6,-5,0.12,0,,,,,,,,,,,,,,,,,
28563,0,,,,,,,,-0.0,0.13,0.33,0,2,0,0.13,0,,,,,,,,,,,,,,,,,
28603,0,,,,,,,,-0.08,0.1,0.28,0,5,0,0.12,0,,,,,,,,,,,,,,,,,
28643,0,0,1,47,52,32,35,8,-0.09,0.06,0.21,1,3,-1,0.11,0,0,0.0,0.0,0.0,0.0,0,0,0.0,0,0.0,-1,0.0,0.0,0.0,0,0.0,0.4774
28683,0,,,,,,,,0.04,-0.01,-0.02,0,10,-1,0.04,0,,,,,,,,,,,,,,,,,
28723,0,,,,,,,,0.17,-0.03,0.0,0,15,-2,0.17,0,,,,,,,,,,,,,,,,,
28763,0,,,,,,,,0.2,-0.06,0.02,1,14,-3,0.21,0,,,,,,,,,,,,,,,,,
28803,0,,,,,,,,0.21,-0.07,0.31,0,13,-6,0.22,0,,,,,,,,,,,,,,,,,
28843,0,1,1,46,52,32,35,7,0.2,-0.04,0.25,0,11,-3,0.2,0,0,0.0,0.0,0.0,0.0,0,0,0.0,0,0.0,-1,0.0,0.0,0.0,0,0.0,0.4807
28883,0,,,,,,,,0.17,0.0,0.41,0,9,-6,0.17,0,,,,,,,,,,,,,,,,,
28923,0,,,,,,,,0.15,-0.0,0.18,0,4,-1,0.15,0,,,,,,,,,,,,,,,,,
28963,0,,,,,,,,0.16,-0.02,0.49,0,9,-1,0.17,0,,,,,,,,,,,,,,,,,
29003,0,,,,,,,,0.17,0.0,0.77,0,12,-1,0.17,0,,,,,,,,,,,,,,,,,
29043,0,1,0,47,52,32,35,7,0.16,-0.06,0.47,0,12,2,0.17,0,0,0.0,0.0,0.0,0.0,0,0,0.0,0,0.0,-1,0.0,0.0,0.0,0,0.0,0.484
29083,0,,,,,,,,0.2,-0.11,0.0,1,17,4,0.22,0,,,,,,,,,,,,,,,,,
29123,0,,,,,,,,0.26,-0.14,-0.3,1,18,6,0.29,0,,,,,,,,,,,,,,,,,
29163,0,,,,,,,,0.33,-0.13,0.07,0,21,2,0.36,0,,,,,,,,,,,,,,,,,
29203,0,,,,,,,,0.12,-0.07,-0.23,0,15,4,0.14,0,,,,,,,,,,,,,,,,,
29243,0,-1,2,47,52,32,35,8,0.19,-0.09,-0.08,0,12,2,0.21,0,0,0.0,0.0,0.0,0.0,0,0,0.0,0,0.0,-1,0.0,0.0,0.0,0,0.0,0.4874
29283,0,,,,,,,,0.22,-0.09,0.31,1,11,-2,0.24,0,,,,,,,,,,,,,,,,,
29323,0,,,,,,,,0.23,-0.1,0.44,-0,8,-2,0.25,0,,,,,,,,,,,,,,,,,
29363,0,,,,,,,,0.14,-0.0,0.53,0,4,1,0.14,0,,,,,,,,,,,,,,,,,
29403,0,,,,,,,,0.19,-0.02,0.45,1,1,2,0.19,0,,,,,,,,,,,,,,,,,
29443,0,0,1,47,52,32,35,7,0.23,-0.05,0.37,1,7,-2,0.24,0,0,0.0,0.0,0.0,0.0,0,0,0.0,0,0.0,-1,0.0,0.0,0.0,0,0.0,0.4907
29483,0,,,,,,,,0.29,-0.11,0.32,1,6,-2,0.31,0,,,,,,,,,,,,,,,,,
29523,0,,,,,,,,0.16,-0.05,0.24,1,6,-2,0.17,0,,,,,,,,,,,,,,,,,
29563,0,,,,,,,,0.24,-0.09,0.57,1,8,-3,0.26,0,,,,,,,,,,,,,,,,,
29603,0,,,,,,,,0.07,-0.1,0.29,1,5,-0,0.12,0,,,,,,,,,,,,,,,,,
29643,0,1,1,46,52,32,35,7,0.06,-0.06,0.62,1,8,-1,0.08,0,0,0.0,0.0,0.0,0.0,0,0,0.0,0,0.0,-1,0.0,0.0,0.0,0,0.0,0.494
29683,0,,,,,,,,-0.05,-0.08,0.88,1,8,-4,0.1,0,,,,,,,,,,,,,,,,,
29723,0,,,,,,,,-0.13,-0.05,0.69,1,-2,-1,0.14,0,,,,,,,,,,,,,,,,,
29763,0,,,,,,,,-0.01,0.0,0.48,1,-5,2,0.01,0,,,,,,,,,,,,,,,,,
29803,0,,,,,,,,0.21,-0.03,0.77,-1,-5,2,0.21,0,,,,,,,,,,,,,,,,,
29843,0,-1,2,47,52,32,35,7,0.33,-0.06,0.94,-1,1,-2,0.34,0,0,0.0,0.0,0.0,0.0,0,0,0.0,0,0.0,-1,0.0,0.0,0.0,0,0.0,0.4974
29883,0,,,,,,,,0.26,-0.04,1.1,0,12,-4,0.26,0,,,,,,,,,,,,,,,,,
29923,0,,,,,,,,0.16,0.1,0.8,1,15,-2,0.19,0,,,,,,,,,,,,,,,,,
29963,0,,,,,,,,0.08,0.31,0.63,1,12,0,0.32,0,,,,,,,,,,,,,,,,,
30003,0,,,,,,,,0.08,0.4,0.83,1,13,-0,0.41,0,,,,,,,,,,,,,,,,,
30043,0,-1,2,47,52,32,35,8,0.22,0.28,1.05,-0,13,-3,0.36,0,0,0.0,0.0,0.0,0.0,0,0,0.0,0,0.0,-1,0.0,0.0,0.0,0,0.0,0.5007
30083,0,,,,,,,,0.3,0.11,1.05,-1,17,-7,0.32,0,,,,,,,,,,,,,,,,,
30123,0,,,,,,,,0.31,0.11,0.88,-0,18,-5,0.33,0,,,,,,,,,,,,,,,,,
30163,0,,,,,,,,0.48,0.04,1.01,-2,15,-6,0.48,0,,,,,,,,,,,,,,,,,
30203,0,,,,,,,,0.38,0.02,0.65,-2,11,-3,0.38,0,,,,,,,,,,,,,,,,,
30243,0,0,2,46,52,32,35,7,0.17,0.07,0.63,-1,14,-6,0.19,0,0,0.0,0.0,0.0,0.0,0,0,0.0,0,0.0,-1,0.0,0.0,0.0,0,0.0,0.504
30283,0,,,,,,,,0.15,-0.04,0.49,-0,14,-7,0.15,0,,,,,,,,,,,,,,,,,
30323,0,,,,,,,,-0.02,-0.07,0.54,0,13,-9,0.07,0,,,,,,,,,,,,,,,,,
30363,0,,,,,,,,0.11,-0.12,0.58,0,13,-8,0.17,0,,,,,,,,,,,,,,,,,
30403,0,,,,,,,,0.0,-0.05,0.65,0,10,-7,0.05,0,,,,,,,,,,,,,,,,,
30443,0,0,0,47,52,32,35,8,0.04,0.07,0.55,1,8,-5,0.08,0,0,0.0,0.0,0.0,0.0,0,0,0.0,0,0.0,-1,0.0,0.0,0.0,0,0.0,0.5074
30483,0,,,,,,,,-0.09,0.05,0.42,-0,1,-2,0.1,0,,,,,,,,,,,,,,,,,
30523,0,,,,,,,,-0.09,0.04,0.71,-1,3,-5,0.09,0,,,,,,,,,,,,,,,,,
30563,0,,,,,,,,-0.18,0.02,0.32,-1,-2,-3,0.18,0,,,,,,,,,,,,,,,,,
30603,0,,,,,,,,-0.14,0.02,0.15,-1,-11,2,0.14,0,,,,,,,,,,,,,,,,,
30643,0,1,1,47,52,32,35,7,-0.1,0.05,0.18,-1,-16,5,0.11,0,0,0.0,0.0,0.0,0.0,0,0,0.0,0,0.0,-1,0.0,0.0,0.0,0,0.0,0.5107
30683,0,,,,,,,,0.05,-0.06,-0.14,-2,-23,7,0.08,0,,,,,,,,,,,,,,,,,
30723,0,,,,,,,,-0.05,-0.09,-0.1,-3,-26,6,0.11,0,,,,,,,,,,,,,,,,,
30763,0,,,,,,,,-0.05,-0.1,0.22,-2,-20,4,0.11,0,,,,,,,,,,,,,,,,,
30803,0,,,,,,,,-0.16,-0.02,0.15,-1,-14,3,0.16,0,,,,,,,,,,,,,,,,,
30843,0,0,0,47,52,32,35,7,-0.15,0.02,0.38,-0,-6,0,0.16,0,0,0.0,0.0,0.0,0.0,0,0,0.0,0,0.0,-1,0.0,0.0,0.0,0,0.0,0.514
30883,0,,,,,,,,-0.06,0.03,0.33,-0,-6,1,0.07,0,,,,,,,,,,,,,,,,,
30923,0,,,,,,,,-0.09,-0.06,0.44,1,-5,0,0.11,0,,,,,,,,,,,,,,,,,
30963,0,,,,,,,,-0.04,-0.06,0.46,0,-3,-0,0.08,0,,,,,,,,,,,,,,,,,
31003,0,,,,,,,,0.08,-0.04,0.35,0,-5,2,0.09,0,,,,,,,,,,,,,,,,,
31043,0,-1,2,47,52,32,35,8,0.22,-0.09,0.52,0,-4,1,0.24,0,0,0.0,0.0,0.0,0.0,0,0,0.0,0,0.0,-1,0.0,0.0,0.0,0,0.0,0.5174
31083,0,,,,,,,,0.12,-0.13,0.8,0,-3,-1,0.17,0,,,,,,,,,,,,,,,,,
31123,0,,,,,,,,-0.03,-0.02,0.59,0,-3,-0,0.03,0,,,,,,,,,,,,,,,,,
31163,0,,,,,,,,0.12,-0.03,0.85,-1,3,-4,0.12,0,,,,,,,,,,,,,,,,,
31203,0,,,,,,,,0.34,-0.04,1.06,-0,10,-4,0.34,0,,,,,,,,,,,,,,,,,
31243,0,-1,2,47,52,32,35,8,0.28,-0.08,1.07,-1,15,-6,0.29,0,0,0.0,0.0,0.0,0.0,0,0,0.0,0,0.0,-1,0.0,0.0,0.0,0,0.0,0.5207
31283,0,,,,,,,,0.08,-0.03,0.57,-1,8,-2,0.09,0,,,,,,,,,,,,,,,,,
31323,0,,,,,,,,0.08,0.01,0.84,-0,8,-2,0.08,0,,,,,,,,,,,,,,,,,
31363,0,,,,,,,,-0.03,0.01,1.06,-0,8,-5,0.03,0,,,,,,,,,,,,,,,,,
31403,0,,,,,,,,-0.17,0.02,0.66,0,0,-2,0.17,0,,,,,,,,,,,,,,,,,
31443,0,1,0,47,52,32,35,7,-0.02,-0.08,0.4,-0,-9,1,0.08,0,0,0.0,0.0,0.0,0.0,0,0,0.0,0,0.0,-1,0.0,0.0,0.0,0,0.0,0.524
31483,0,,,,,,,,0.11,-0.16,0.14,0,-12,3,0.19,0,,,,,,,,,,,,,,,,,
31523,0,,,,,,,,-0.04,-0.16,-0.27,0,-17,6,0.17,0,,,,,,,,,,,,,,,,,
31563,0,,,,,,,,0.09,-0.2,0.16,1,-12,4,0.22,0,,,,,,,,,,,,,,,,,
31603,0,,,,,,,,0.01,-0.19,0.51,1,-8,1,0.19,0,,,,,,,,,,,,,,,,,
31643,0,-1,2,47,52,32,35,8,-0.02,-0.11,0.13,1,-6,2,0.12,0,0,0.0,0.0,0.0,0.0,0,0,0.0,0,0.0,-1,0.0,0.0,0.0,0,0.0,0.5274
31683,0,,,,,,,,0.05,-0.12,0.49,1,-6,-2,0.12,0,,,,,,,,,,,,,,,,,
31723,0,,,,,,,,0.09,-0.04,0.77,1,0,-4,0.1,0,,,,,,,,,,,,,,,,,
31763,0,,,,,,,,0.06,0.07,0.54,0,-4,1,0.09,0,,,,,,,,,,,,,,,,,
31803,0,,,,,,,,0.07,-0.06,0.82,0,-2,1,0.09,0,,,,,,,,,,,,,,,,,
31843,0,1,1,47,52,32,36,7,0.02,-0.03,0.51,-0,-5,1,0.03,0,0,0.0,0.0,0.0,0.0,0,0,0.0,0,0.0,-1,0.0,0.0,0.0,0,0.0,0.5307
31883,0,,,,,,,,0.15,-0.06,0.79,-1,-3,-4,0.17,0,,,,,,,,,,,,,,,,,
31923,0,,,,,,,,0.24,-0.0,0.91,-2,-0,-4,0.24,0,,,,,,,,,,,,,,,,,
31963,0,,,,,,,,0.28,0.03,0.99,-1,7,-4,0.28,0,,,,,,,,,,,,,,,,,
32003,0,,,,,,,,0.28,0.03,0.95,-0,11,-4,0.28,0,,,,,,,,,,,,,,,,,
32043,0,1,1,47,52,32,35,7,0.32,0.04,0.83,-1,12,-3,0.32,0,0,0.0,0.0,0.0,0.0,0,0,0.0,0,0.0,-1,0.0,0.0,0.0,0,0.0,0.534
32083,0,,,,,,,,0.4,0.07,0.91,-0,12,-1,0.41,0,,,,,,,,,,,,,,,,,
32123,0,,,,,,,,0.43,0.14,0.97,-1,8,-1,0.45,0,,,,,,,,,,,,,,,,,
32163,0,,,,,,,,0.28,0.04,0.74,-1,-1,4,0.28,0,,,,,,,,,,,,,,,,,
32203,0,,,,,,,,0.35,-0.1,0.89,-0,1,4,0.36,0,,,,,,,,,,,,,,,,,
32243,0,1,1,47,52,32,35,7,0.29,-0.08,0.74,-1,0,2,0.3,0,0,0.0,0.0,0.0,0.0,0,0,0.0,0,0.0,-1,0.0,0.0,0.0,0,0.0,0.5374
32283,0,,,,,,,,0.2,0.01,0.58,-0,-2,5,0.2,0,,,,,,,,,,,,,,,,,
32323,0,,,,,,,,0.16,-0.12,0.51,-0,-1,2,0.2,0,,,,,,,,,,,,,,,,,
32363,0,,,,,,,,0.11,0.03,0.79,-0,-0,1,0.12,0,,,,,,,,,,,,,,,,,
32403,0,,,,,,,,0.13,-0.01,0.44,-0,-2,5,0.13,0,,,,,,,,,,,,,,,,,
32443,0,-0,2,47,52,32,35,8,0.13,-0.09,0.66,-0,0,0,0.16,0,0,0.0,0.0,0.0,0.0,0,0,0.0,0,0.0,-1,0.0,0.0,0.0,0,0.0,0.5407
32483,0,,,,,,,,0.1,-0.02,0.57,-0,-0,3,0.1,0,,,,,,,,,,,,,,,,,
32523,0,,,,,,,,0.12,-0.07,0.84,-0,0,3,0.14,0,,,,,,,,,,,,,,,,,
32563,0,,,,,,,,0.04,-0.11,0.94,-0,0,-1,0.12,0,,,,,,,,,,,,,,,,,
32603,0,,,,,,,,0.14,-0.05,0.91,0,-0,0,0.15,0,,,,,,,,,,,,,,,,,
32643,0,0,1,47,52,32,35,7,0.04,-0.02,0.76,0,-2,1,0.05,0,0,0.0,0.0,0.0,0.0,0,0,0.0,0,0.0,-1,0.0,0.0,0.0,0,0.0,0.544
32683,0,,,,,,,,-0.02,-0.06,0.54,1,-2,2,0.06,0,,,,,,,,,,,,,,,,,
32723,0,,,,,,,,0.04,-0.12,0.82,1,-1,3,0.13,0,,,,,,,,,,,,,,,,,
32763,0,,,,,,,,-0.07,-0.08,0.52,0,-2,8,0.11,0,,,,,,,,,,,,,,,,,
32803,0,,,,,,,,-0.11,0.04,0.44,1,0,3,0.12,0,,,,,,,,,,,,,,,,,
32843,0,0,0,47,52,32,36,7,-0.2,0.11,0.31,1,3,3,0.22,0,0,0.0,0.0,0.0,0.0,0,0,0.0,0,0.0,-1,0.0,0.0,0.0,0,0.0,0.5474
32883,0,,,,,,,,-0.01,0.02,0.49,1,0,3,0.02,0,,,,,,,,,,,,,,,,,
32923,0,,,,,,,,-0.03,0.02,0.47,0,-0,3,0.04,0,,,,,,,,,,,,,,,,,
32963,0,,,,,,,,-0.01,-0.07,0.58,1,-2,2,0.07,0,,,,,,,,,,,,,,,,,
33003,0,,,,,,,,-0.1,0.02,0.55,1,1,-1,0.11,0,,,,,,,,,,,,,,,,,
33043,0,0,0,47,52,32,36,7,-0.05,0.06,0.64,0,0,0,0.08,0,0,0.0,0.0,0.0,0.0,0,0,0.0,0,0.0,-1,0.0,0.0,0.0,0,0.0,0.5507
33083,0,,,,,,,,0.02,0.07,0.41,0,-2,2,0.07,0,,,,,,,,,,,,,,,,,
33123,0,,,,,,,,0.02,-0.03,0.57,1,3,1,0.03,0,,,,,,,,,,,,,,,,,
33163,0,,,,,,,,-0.01,-0.04,0.84,1,4,1,0.04,0,,,,,,,,,,,,,,,,,
33203,0,,,,,,,,-0.05,0.06,0.34,0,-2,3,0.07,0,,,,,,,,,,,,,,,,,
33243,0,0,0,47,52,32,35,7,0.01,0.03,0.61,-1,-1,-2,0.03,0,0,0.0,0.0,0.0,0.0,0,0,0.0,0,0.0,-1,0.0,0.0,0.0,0,0.0,0.5541
33283,0,,,,,,,,0.18,0.01,0.74,-1,3,-4,0.18,0,,,,,,,,,,,,,,,,,
33323,0,,,,,,,,0.36,-0.07,0.97,-1,9,-4,0.36,0,,,,,,,,,,,,,,,,,
33363,0,,,,,,,,0.43,-0.15,1.06,-0,19,-8,0.45,0,,,,,,,,,,,,,,,,,
33403,0,,,,,,,,0.25,-0.11,0.48,-1,12,-4,0.27,0,,,,,,,,,,,,,,,,,
33443,0,1,1,47,52,32,35,7,0.18,0.02,0.51,-1,7,-1,0.18,0,0,0.0,0.0,0.0,0.0,0,0,0.0,0,0.0,-1,0.0,0.0,0.0,0,0.0,0.5574
33483,0,,,,,,,,0.04,-0.0,0.66,0,13,-5,0.04,0,,,,,,,,,,,,,,,,,
33523,0,,,,,,,,0.02,0.0,0.4,0,-0,2,0.02,0,,,,,,,,,,,,,,,,,
33563,0,,,,,,,,0.23,0.07,0.7,0,6,-4,0.24,0,,,,,,,,,,,,,,,,,
33603,0,,,,,,,,0.06,0.01,0.19,1,3,3,0.06,0,,,,,,,,,,,,,,,,,
33643,0,0,0,47,52,32,35,7,0.15,0.02,0.53,1,6,1,0.15,0,0,0.0,0.0,0.0,0.0,0,0,0.0,0,0.0,-1,0.0,0.0,0.0,0,0.0,0.5607
33683,0,,,,,,,,-0.11,-0.03,0.42,0,4,-2,0.11,0,,,,,,,,,,,,,,,,,
33723,0,,,,,,,,-0.0,-0.01,0.36,1,-3,3,0.02,0,,,,,,,,,,,,,,,,,
33763,0,,,,,,,,0.21,-0.07,0.67,-0,1,-1,0.22,0,,,,,,,,,,,,,,,,,
33803,0,,,,,,,,0.07,0.01,0.26,1,7,-2,0.07,0,,,,,,,,,,,,,,,,,
33843,0,-0,1,47,52,32,35,8,-0.04,-0.02,-0.15,1,1,2,0.05,0,0,0.0,0.0,0.0,0.0,0,0,0.0,0,0.0,-1,0.0,0.0,0.0,0,0.0,0.564
33883,0,,,,,,,,-0.04,-0.0,0.26,1,1,3,0.04,0,,,,,,,,,,,,,,,,,
33923,0,,,,,,,,0.0,-0.03,0.59,1,7,-3,0.03,0,,,,,,,,,,,,,,,,,
33963,0,,,,,,,,-0.15,-0.08,0.47,2,7,-2,0.17,0,,,,,,,,,,,,,,,,,
34003,0,,,,,,,,-0.1,-0.02,0.14,2,-2,2,0.1,0,,,,,,,,,,,,,,,,,
34043,0,-1,2,47,52,32,35,8,0.1,-0.01,0.48,2,-0,4,0.1,0,0,0.0,0.0,0.0,0.0,0,0,0.0,0,0.0,-1,0.0,0.0,0.0,0,0.0,0.5674
34083,0,,,,,,,,0.33,-0.02,0.77,3,10,1,0.33,0,,,,,,,,,,,,,,,,,
34123,0,,,,,,,,0.26,0.06,0.63,2,12,-3,0.27,0,,,,,,,,,,,,,,,,,
34163,0,,,,,,,,0.15,-0.03,0.13,2,7,-0,0.15,0,,,,,,,,,,,,,,,,,
34203,0,,,,,,,,-0.0,-0.01,0.34,2,9,0,0.01,0,,,,,,,,,,,,,,,,,
34243,0,-1,2,47,52,32,35,8,0.01,0.07,0.66,2,15,-7,0.07,0,0,0.0,0.0,0.0,0.0,0,0,0.0,0,0.0,-1,0.0,0.0,0.0,0,0.0,0.5707
34283,0,,,,,,,,-0.19,0.05,0.51,1,6,-5,0.19,0,,,,,,,,,,,,,,,,,
34323,0,,,,,,,,-0.12,0.05,0.19,1,-2,2,0.13,0,,,,,,,,,,,,,,,,,
34363,0,,,,,,,,0.04,0.08,0.54,0,1,2,0.1,0,,,,,,,,,,,,,,,,,
34403,0,,,,,,,,0.26,0.04,0.65,0,8,-3,0.26,0,,,,,,,,,,,,,,,,,
34443,0,0,2,47,52,32,35,8,0.2,0.1,0.36,0,8,-1,0.22,0,0,0.0,0.0,0.0,0.0,0,0,0.0,0,0.0,-1,0.0,0.0,0.0,0,0.0,0.574
34483,0,,,,,,,,0.16,0.07,-0.03,0,2,-1,0.17,0,,,,,,,,,,,,,,,,,
34523,0,,,,,,,,0.07,0.03,0.13,0,3,0,0.08,0,,,,,,,,,,,,,,,,,
34563,0,,,,,,,,0.17,0.08,0.48,-0,3,-4,0.18,0,,,,,,,,,,,,,,,,,
34603,0,,,,,,,,-0.02,0.02,0.64,-1,-3,-4,0.03,0,,,,,,,,,,,,,,,,,
34643,0,-0,2,46,52,32,35,9,-0.09,0.04,0.14,-1,-10,4,0.1,0,0,0.0,0.0,0.0,0.0,0,0,0.0,0,0.0,-1,0.0,0.0,0.0,0,0.0,0.5774
34683,0,,,,,,,,0.04,0.05,0.45,-0,-5,0,0.07,0,,,,,,,,,,,,,,,,,
34723,0,,,,,,,,0.18,0.03,0.66,0,6,-5,0.18,0,,,,,,,,,,,,,,,,,
34763,0,,,,,,,,0.01,0.01,0.15,0,-2,-1,0.01,0,,,,,,,,,,,,,,,,,
34803,0,,,,,,,,-0.09,0.01,0.22,-0,-2,3,0.09,0,,,,,,,,,,,,,,,,,
34843,0,0,1,47,52,32,36,9,-0.23,-0.02,0.38,0,4,-2,0.23,0,0,0.0,0.0,0.0,0.0,0,0,0.0,0,0.0,-1,0.0,0.0,0.0,0,0.0,0.5807
34883,0,,,,,,,,-0.26,0.04,-0.07,0,-2,1,0.27,0,,,,,,,,,,,,,,,,,
34923,0,,,,,,,,-0.03,0.03,0.32,-0,-5,2,0.04,0,,,,,,,,,,,,,,,,,
34963,0,,,,,,,,0.02,0.09,0.28,1,8,-3,0.1,0,,,,,,,,,,,,,,,,,
35003,0,,,,,,,,-0.04,0.1,-0.16,-0,2,-0,0.11,0,,,,,,,,,,,,,,,,,
35043,0,-0,0,47,52,32,36,10,-0.01,0.0,0.25,0,0,2,0.01,0,0,0.0,0.0,0.0,0.0,0,0,0.0,0,0.0,-1,0.0,0.0,0.0,0,0.0,0.584
35083,0,,,,,,,,0.05,0.04,0.58,1,7,1,0.06,0,,,,,,,,,,,,,,,,,
35123,0,,,,,,,,-0.13,0.03,0.49,1,5,-1,0.13,0,,,,,,,,,,,,,,,,,
35163,0,,,,,,,,0.02,0.07,0.26,1,-5,4,0.07,0,,,,,,,,,,,,,,,,,
35203,0,,,,,,,,0.19,0.02,0.59,0,-6,4,0.2,0,,,,,,,,,,,,,,,,,
35243,0,0,2,46,52,32,35,10,0.2,0.1,0.6,1,8,-4,0.22,0,0,0.0,0.0,0.0,0.0,0,0,0.0,0,0.0,-1,0.0,0.0,0.0,0,0.0,0.5874
35283,0,,,,,,,,0.02,0.05,0.11,0,0,0,0.05,0,,,,,,,,,,,,,,,,,
35323,0,,,,,,,,-0.05,0.05,0.47,-0,-3,1,0.07,0,,,,,,,,,,,,,,,,,
35363,0,,,,,,,,-0.03,0.07,0.76,0,1,-5,0.08,0,,,,,,,,,,,,,,,,,
35403,0,,,,,,,,-0.12,0.01,0.55,0,0,-6,0.12,0,,,,,,,,,,,,,,,,,
35443,0,-0,1,46,52,32,35,10,0.0,0.07,0.46,0,-5,1,0.07,0,0,0.0,0.0,0.0,0.0,0,0,0.0,0,0.0,-1,0.0,0.0,0.0,0,0.0,0.5907
35483,0,,,,,,,,0.13,0.12,0.61,-0,0,-4,0.18,0,,,,,,,,,,,,,,,,,
35523,0,,,,,,,,0.05,0.06,0.13,-0,1,-4,0.07,0,,,,,,,,,,,,,,,,,
35563,0,,,,,,,,-0.03,-0.01,0.14,0,0,-1,0.03,0,,,,,,,,,,,,,,,,,
35603,0,,,,,,,,0.03,0.08,0.49,-0,3,-1,0.08,0,,,,,,,,,,,,,,,,,
35643,0,-1,2,47,52,32,36,10,-0.09,-0.0,0.38,-1,3,-3,0.09,0,0,0.0,0.0,0.0,0.0,0,0,0.0,0,0.0,-1,0.0,0.0,0.0,0,0.0,0.594
35683,0,,,,,,,,0.07,0.04,0.36,-2,-9,2,0.08,0,,,,,,,,,,,,,,,,,
35723,0,,,,,,,,0.22,0.1,0.64,-2,-3,-2,0.24,0,,,,,,,,,,,,,,,,,
35763,0,,,,,,,,0.13,0.08,0.3,-2,-2,-2,0.15,0,,,,,,,,,,,,,,,,,
35803,0,,,,,,,,0.09,-0.01,0.09,-1,-9,3,0.09,0,,,,,,,,,,,,,,,,,
35843,0,0,1,47,52,32,35,10,0.15,0.05,0.45,-0,-0,1,0.16,0,0,0.0,0.0,0.0,0.0,0,0,0.0,0,0.0,-1,0.0,0.0,0.0,0,0.0,0.5974
35883,0,,,,,,,,-0.04,-0.02,0.53,0,5,-1,0.05,0,,,,,,,,,,,,,,,,,
35923,0,,,,,,,,-0.08,0.08,0.05,-0,-7,5,0.11,0,,,,,,,,,,,,,,,,,
35963,0,,,,,,,,0.09,0.07,0.42,0,-4,4,0.11,0,,,,,,,,,,,,,,,,,
36003,0,,,,,,,,0.15,0.14,0.42,0,5,-1,0.2,0,,,,,,,,,,,,,,,,,
36043,0,-0,2,46,52,32,35,11,0.06,0.1,-0.04,1,0,4,0.11,0,0,0.0,0.0,0.0,0.0,0,0,0.0,0,0.0,-1,0.0,0.0,0.0,0,0.0,0.6007
36083,0,,,,,,,,0.02,-0.02,0.32,1,2,7,0.03,0,,,,,,,,,,,,,,,,,
36123,0,,,,,,,,0.01,0.07,0.63,0,3,1,0.07,0,,,,,,,,,,,,,,,,,
36163,0,,,,,,,,-0.17,0.04,0.49,1,1,2,0.17,0,,,,,,,,,,,,,,,,,
36203,0,,,,,,,,-0.05,0.11,0.03,0,-7,6,0.12,0,,,,,,,,,,,,,,,,,
36243,0,0,1,47,52,32,35,11,0.16,0.05,0.39,-0,-3,3,0.16,0,0,0.0,0.0,0.0,0.0,0,0,0.0,0,0.0,-1,0.0,0.0,0.0,0,0.0,0.604
36283,0,,,,,,,,0.25,0.13,0.46,-1,2,-1,0.28,0,,,,,,,,,,,,,,,,,
36323,0,,,,,,,,0.08,0.11,0.03,-1,-4,2,0.14,0,,,,,,,,,,,,,,,,,
36363,0,,,,,,,,0.02,0.08,-0.22,-1,-5,4,0.09,0,,,,,,,,,,,,,,,,,
36403,0,,,,,,,,0.01,-0.08,0.2,-1,-5,5,0.08,0,,,,,,,,,,,,,,,,,
36443,0,0,1,47,52,32,35,12,0.01,-0.09,0.54,-1,-3,4,0.09,0,0,0.0,0.0,0.0,0.0,0,0,0.0,0,0.0,-1,0.0,0.0,0.0,0,0.0,0.6074
36483,0,,,,,,,,0.02,-0.15,0.82,-1,-1,5,0.15,0,,,,,,,,,,,,,,,,,
36523,0,,,,,,,,0.06,-0.22,1.04,-0,1,5,0.23,0,,,,,,,,,,,,,,,,,
36563,0,,,,,,,,0.01,-0.21,1.03,-1,-2,4,0.21,0,,,,,,,,,,,,,,,,,
36603,0,,,,,,,,0.05,-0.22,0.46,-0,-7,5,0.23,0,,,,,,,,,,,,,,,,,
36643,0,0,2,47,52,32,35,14,-0.06,-0.25,-0.01,-0,-12,5,0.26,0,0,0.0,0.0,0.0,0.0,0,0,0.0,0,0.0,-1,0.0,0.0,0.0,0,0.0,0.6107
36683,0,,,,,,,,-0.12,-0.23,-0.36,1,-14,7,0.26,0,,,,,,,,,,,,,,,,,
36723,0,,,,,,,,-0.17,-0.06,-0.07,0,-12,6,0.17,0,,,,,,,,,,,,,,,,,
36763,0,,,,,,,,0.07,0.09,0.32,-0,-3,-1,0.12,0,,,,,,,,,,,,,,,,,
36803,0,,,,,,,,0.2,-0.03,0.34,-1,1,-0,0.21,0,,,,,,,,,,,,,,,,,
36843,0,0,0,48,53,32,35,18,0.28,0.12,0.36,-0,-2,-0,0.31,0,0,0.0,0.0,0.0,0.0,0,0,0.0,0,0.0,-1,0.0,0.0,0.0,0,0.0,0.614
36883,0,,,,,,,,0.21,0.1,0.49,-0,-3,-0,0.23,0,,,,,,,,,,,,,,,,,
36923,0,,,,,,,,0.2,0.03,0.69,-0,-2,-1,0.2,0,,,,,,,,,,,,,,,,,
36963,0,,,,,,,,0.2,0.02,0.49,-1,-0,-1,0.2,0,,,,,,,,,,,,,,,,,
37003,0,,,,,,,,0.2,-0.02,0.48,-1,-4,1,0.2,0,,,,,,,,,,,,,,,,,
37043,0,0,0,48,54,32,35,20,0.25,0.02,0.15,-1,-4,-1,0.25,0,0,0.0,0.0,0.0,0.0,0,0,0.0,0,0.0,-1,0.0,0.0,0.0,0,0.0,0.6174
37083,0,,,,,,,,0.4,-0.05,0.5,-1,1,-5,0.4,0,,,,,,,,,,,,,,,,,
37123,0,,,,,,,,0.46,-0.07,0.79,-1,1,-4,0.47,0,,,,,,,,,,,,,,,,,
37163,0,,,,,,,,0.46,0.0,0.62,-2,-1,3,0.46,0,,,,,,,,,,,,,,,,,
37203,0,,,,,,,,0.39,-0.06,0.16,-2,-2,2,0.39,0,,,,,,,,,,,,,,,,,
37243,0,-0,2,50,55,31,34,22,0.45,-0.1,0.48,-3,-0,-1,0.46,0,0,0.0,0.0,0.0,0.0,0,0,0.0,0,0.0,-1,0.0,0.0,0.0,0,0.0,0.6207
37283,0,,,,,,,,0.51,-0.16,0.47,-3,2,-2,0.53,0,,,,,,,,,,,,,,,,,
37323,0,,,,,,,,0.63,-0.08,0.76,-3,3,-1,0.64,0,,,,,,,,,,,,,,,,,
37363,0,,,,,,,,0.74,-0.04,0.79,-4,8,-4,0.74,0,,,,,,,,,,,,,,,,,
37403,0,,,,,,,,0.6,-0.1,0.26,-5,9,-7,0.61,0,,,,,,,,,,,,,,,,,
37443,0,-0,2,53,59,29,31,33,0.49,-0.09,0.19,-7,11,-9,0.5,0,0,0.0,0.0,0.0,0.0,0,0,0.0,0,0.0,-1,0.0,0.0,0.0,0,0.0,0.624
37483,0,,,,,,,,0.48,-0.12,0.14,-9,7,-9,0.49,0,,,,,,,,,,,,,,,,,
37523,0,,,,,,,,0.51,-0.12,0.31,-11,-12,-7,0.53,0,,,,,,,,,,,,,,,,,
37563,0,,,,,,,,0.36,-0.12,0.63,-13,-18,-6,0.37,0,,,,,,,,,,,,,,,,,
37603,0,,,,,,,,0.25,-0.13,0.64,-14,-11,-5,0.28,0,,,,,,,,,,,,,,,,,
37643,0,-1,2,52,58,31,32,39,0.24,-0.16,0.53,-15,-4,-5,0.29,0,0,0.0,0.0,0.0,0.0,0,0,0.0,0,0.0,-1,0.0,0.0,0.0,0,0.0,0.6274
37683,0,,,,,,,,0.21,-0.19,0.62,-16,-3,-5,0.28,0,,,,,,,,,,,,,,,,,
37723,0,,,,,,,,0.17,-0.16,0.65,-17,-2,-5,0.23,0,,,,,,,,,,,,,,,,,
37763,0,,,,,,,,0.18,-0.18,0.79,-17,-2,-5,0.25,0,,,,,,,,,,,,,,,,,
37803,0,,,,,,,,0.18,-0.16,0.68,-18,-1,-4,0.24,0,,,,,,,,,,,,,,,,,
37843,0,0,0,50,56,33,34,38,0.13,-0.18,0.65,-18,-1,-3,0.23,0,0,0.0,0.0,0.0,0.0,0,0,0.0,0,0.0,-1,0.0,0.0,0.0,0,0.0,0.6307
37883,0,,,,,,,,0.13,-0.21,0.67,-19,-1,-2,0.25,0,,,,,,,,,,,,,,,,,
37923,0,,,,,,,,0.16,-0.2,0.66,-20,1,-2,0.26,0,,,,,,,,,,,,,,,,,
37963,0,,,,,,,,0.18,-0.16,0.65,-20,-5,-2,0.24,0,,,,,,,,,,,,,,,,,
38003,0,,,,,,,,0.14,-0.17,0.65,-20,-3,-2,0.22,0,,,,,,,,,,,,,,,,,
38043,0,1,0,48,56,33,35,38,0.14,-0.19,0.83,-20,-2,-2,0.24,0,0,0.0,0.0,0.0,0.0,0,0,0.0,0,0.0,-1,0.0,0.0,0.0,0,0.0,0.634
38083,0,,,,,,,,0.13,-0.21,0.7,-21,-2,-1,0.25,0,,,,,,,,,,,,,,,,,
38123,0,,,,,,,,0.13,-0.2,0.73,-21,-1,-1,0.24,0,,,,,,,,,,,,,,,,,
38163,0,,,,,,,,0.1,-0.22,0.78,-22,-1,-1,0.24,0,,,,,,,,,,,,,,,,,
38203,0,,,,,,,,0.13,-0.2,0.79,-22,-2,-1,0.24,0,,,,,,,,,,,,,,,,,
38243,0,0,1,48,56,33,36,38,0.16,-0.16,0.69,-21,-5,0,0.23,0,0,0.0,0.0,0.0,0.0,0,0,0.0,0,0.0,-1,0.0,0.0,0.0,0,0.0,0.6374
38283,0,,,,,,,,0.17,-0.19,0.78,-21,-5,-1,0.25,0,,,,,,,,,,,,,,,,,
38323,0,,,,,,,,0.15,-0.22,0.59,-21,-3,-0,0.26,0,,,,,,,,,,,,,,,,,
38363,0,,,,,,,,0.13,-0.22,0.73,-22,-1,-1,0.25,0,,,,,,,,,,,,,,,,,
38403,0,,,,,,,,0.14,-0.22,0.61,-22,-1,-1,0.26,0,,,,,,,,,,,,,,,,,
38443,0,1,2,47,55,34,36,36,0.13,-0.21,0.79,-22,1,-2,0.25,0,0,0.0,0.0,0.0,0.0,0,0,0.0,0,0.0,-1,0.0,0.0,0.0,0,0.0,0.6407
38483,0,,,,,,,,0.14,-0.26,0.87,-22,-4,-1,0.3,0,,,,,,,,,,,,,,,,,
38523,0,,,,,,,,0.14,-0.28,0.73,-22,-6,-0,0.32,0,,,,,,,,,,,,,,,,,
38563,0,,,,,,,,0.1,-0.28,0.66,-22,-4,-1,0.3,0,,,,,,,,,,,,,,,,,
38603,0,,,,,,,,0.16,-0.21,0.55,-22,-2,-1,0.26,0,,,,,,,,,,,,,,,,,
38643,0,-1,2,48,54,32,35,33,0.12,-0.21,0.8,-22,-7,-1,0.24,0,0,0.0,0.0,0.0,0.0,0,0,0.0,0,0.0,-1,0.0,0.0,0.0,0,0.0,0.644
38683,0,,,,,,,,0.15,-0.2,0.67,-21,-5,-2,0.25,0,,,,,,,,,,,,,,,,,
38723,0,,,,,,,,0.28,-0.22,0.41,-21,4,-0,0.36,0,,,,,,,,,,,,,,,,,
38763,0,,,,,,,,0.2,-0.19,0.64,-21,-3,-1,0.27,0,,,,,,,,,,,,,,,,,
38803,0,,,,,,,,0.4,-0.24,0.24,-21,13,-1,0.47,0,,,,,,,,,,,,,,,,,
38843,0,-1,2,48,56,32,35,33,0.11,-0.27,0.21,-21,-15,0,0.29,0,0,0.0,0.0,0.0,0.0,0,0,0.0,0,0.0,-1,0.0,0.0,0.0,0,0.0,0.6474
38883,0,,,,,,,,-0.23,-0.25,0.55,-21,-26,-0,0.34,0,,,,,,,,,,,,,,,,,
38923,0,,,,,,,,0.08,-0.24,0.83,-20,12,-5,0.25,0,,,,,,,,,,,,,,,,,
38963,0,,,,,,,,0.44,-0.28,0.29,-20,52,-8,0.52,0,,,,,,,,,,,,,,,,,
39003,0,,,,,,,,0.74,-0.31,-0.07,-20,79,-10,0.8,0,,,,,,,,,,,,,,,,,
39043,0,-1,2,48,57,32,34,28,0.53,-0.34,-0.16,-20,67,-8,0.63,0,0,0.0,0.0,0.0,0.0,0,0,0.0,0,0.0,-1,0.0,0.0,0.0,0,0.0,0.6507
39083,0,,,,,,,,0.55,-0.27,-0.13,-19,54,-5,0.61,0,,,,,,,,,,,,,,,,,
39123,0,,,,,,,,0.48,-0.22,0.22,-19,45,-6,0.53,0,,,,,,,,,,,,,,,,,
39163,0,,,,,,,,0.52,-0.17,0.34,-17,34,-4,0.55,0,,,,,,,,,,,,,,,,,
39203,0,,,,,,,,0.46,-0.22,0.42,-17,30,-4,0.51,0,,,,,,,,,,,,,,,,,
39243,0,0,2,49,56,32,34,18,0.47,-0.17,0.41,-16,25,-3,0.5,0,0,0.0,0.0,0.0,0.0,0,0,0.0,0,0.0,-1,0.0,0.0,0.0,0,0.0,0.654
39283,0,,,,,,,,0.5,-0.23,0.42,-15,18,-1,0.55,0,,,,,,,,,,,,,,,,,
39323,0,,,,,,,,0.53,-0.19,0.43,-14,14,-1,0.57,0,,,,,,,,,,,,,,,,,
39363,0,,,,,,,,0.57,-0.2,0.73,-14,16,-4,0.61,0,,,,,,,,,,,,,,,,,
39403,0,,,,,,,,0.41,-0.29,0.46,-14,6,0,0.5,0,,,,,,,,,,,,,,,,,
39443,0,-1,2,50,58,31,33,22,0.56,-0.28,0.64,-14,16,-6,0.63,0,0,0.0,0.0,0.0,0.0,0,0,0.0,0,0.0,-1,0.0,0.0,0.0,0,0.0,0.6574
39483,0,,,,,,,,0.78,-0.12,0.6,-14,12,-4,0.79,0,,,,,,,,,,,,,,,,,
39523,0,,,,,,,,0.95,0.05,0.87,-14,-6,7,0.96,0,,,,,,,,,,,,,,,,,
39563,0,,,,,,,,1.07,0.05,1.08,-14,-3,5,1.07,0,,,,,,,,,,,,,,,,,
39603,0,,,,,,,,0.76,-0.06,0.81,-15,17,-6,0.76,0,,,,,,,,,,,,,,,,,
39643,0,-1,2,50,58,31,33,21,0.9,-0.1,1.04,-15,23,-10,0.91,0,0,0.0,0.0,0.0,0.0,0,0,0.0,0,0.0,-1,0.0,0.0,0.0,0,0.0,0.6607
39683,0,,,,,,,,1.0,0.01,1.22,-16,23,-12,1.0,0,,,,,,,,,,,,,,,,,
39723,0,,,,,,,,0.75,-0.15,1.0,-17,17,-13,0.77,0,,,,,,,,,,,,,,,,,
39763,0,,,,,,,,0.59,-0.16,0.79,-17,4,-5,0.62,0,,,,,,,,,,,,,,,,,
39803,0,,,,,,,,0.69,-0.11,0.62,-16,-5,3,0.7,0,,,,,,,,,,,,,,,,,
39843,0,-0,2,51,59,30,32,17,0.86,-0.11,0.48,-16,-8,6,0.87,0,0,0.0,0.0,0.0,0.0,0,0,0.0,0,0.0,-1,0.0,0.0,0.0,0,0.0,0.664
39883,0,,,,,,,,0.81,-0.08,0.41,-14,13,-7,0.82,0,,,,,,,,,,,,,,,,,
39923,0,,,,,,,,0.77,-0.09,0.31,-14,-9,10,0.78,0,,,,,,,,,,,,,,,,,
39963,0,,,,,,,,0.52,-0.1,-0.13,-14,-11,12,0.53,0,,,,,,,,,,,,,,,,,
40003,0,,,,,,,,0.49,-0.19,-0.48,-13,-18,18,0.52,0,,,,,,,,,,,,,,,,,
40043,0,-1,2,52,57,29,32,12,0.68,-0.17,-0.03,-13,-15,18,0.7,0,0,0.0,0.0,0.0,0.0,0,0,0.0,0,0.0,-1,0.0,0.0,0.0,0,0.0,0.6674
40083,0,,,,,,,,0.64,-0.23,0.29,-12,-7,3,0.68,0,,,,,,,,,,,,,,,,,
40123,0,,,,,,,,0.5,-0.26,0.25,-11,-12,12,0.57,0,,,,,,,,,,,,,,,,,
40163,0,,,,,,,,0.44,-0.21,0.18,-11,-7,8,0.48,0,,,,,,,,,,,,,,,,,
40203,0,,,,,,,,0.35,-0.15,0.13,-11,-9,5,0.38,0,,,,,,,,,,,,,,,,,
40243,0,0,2,51,58,30,32,14,0.31,-0.26,0.08,-11,-4,3,0.4,0,0,0.0,0.0,0.0,0.0,0,0,0.0,0,0.0,-1,0.0,0.0,0.0,0,0.0,0.6707
40283,0,,,,,,,,0.21,-0.28,0.05,-10,-5,4,0.35,0,,,,,,,,,,,,,,,,,
40323,0,,,,,,,,0.36,-0.3,0.02,-11,-5,4,0.47,0,,,,,,,,,,,,,,,,,
40363,0,,,,,,,,0.34,-0.3,0.31,-11,-6,1,0.45,0,,,,,,,,,,,,,,,,,
40403,0,,,,,,,,0.41,-0.28,0.27,-11,2,-0,0.49,0,,,,,,,,,,,,,,,,,
40443,0,0,2,49,55,33,34,12,0.48,-0.26,0.24,-11,-1,6,0.54,0,0,0.0,0.0,0.0,0.0,0,0,0.0,0,0.0,-1,0.0,0.0,0.0,0,0.0,0.674
40483,0,,,,,,,,0.55,-0.32,0.57,-12,13,-7,0.64,0,,,,,,,,,,,,,,,,,
40523,0,,,,,,,,0.46,-0.34,0.84,-13,15,-6,0.57,0,,,,,,,,,,,,,,,,,
40563,0,,,,,,,,0.27,-0.43,0.3,-13,-5,10,0.51,0,,,,,,,,,,,,,,,,,
40603,0,,,,,,,,0.11,-0.48,-0.13,-13,-13,19,0.49,0,,,,,,,,,,,,,,,,,
40643,0,0,0,44,52,35,38,4,-0.07,-0.4,-0.49,-12,-20,25,0.41,0,0,0.0,0.0,0.0,0.0,0,0,0.0,0,0.0,-1,0.0,0.0,0.0,0,0.0,0.6774
40683,0,,,,,,,,-0.15,-0.32,-0.38,-10,-19,26,0.35,0,,,,,,,,,,,,,,,,,
40723,0,,,,,,,,-0.16,-0.28,0.07,-8,-9,13,0.32,0,,,,,,,,,,,,,,,,,
40763,0,,,,,,,,-0.19,-0.17,0.04,-6,-8,8,0.25,0,,,,,,,,,,,,,,,,,
40803,0,,,,,,,,-0.24,-0.07,-0.35,-5,-18,16,0.25,0,,,,,,,,,,,,,,,,,
40843,0,0,2,45,51,34,39,0,-0.41,-0.11,-0.66,-3,-24,24,0.42,0,0,0.0,0.0,0.0,0.0,0,0,0.0,0,0.0,-1,0.0,0.0,0.0,0,0.0,0.6807
40883,0,,,,,,,,-0.52,-0.08,-0.92,-2,-34,33,0.52,0,,,,,,,,,,,,,,,,,
40923,0,,,,,,,,-0.61,-0.08,-1.12,-2,-40,38,0.61,0,,,,,,,,,,,,,,,,,
40963,0,,,,,,,,-0.61,-0.05,-1.29,-2,-36,35,0.61,0,,,,,,,,,,,,,,,,,
41003,0,,,,,,,,-0.57,-0.0,-0.67,-2,-19,17,0.57,0,,,,,,,,,,,,,,,,,
41043,0,-1,2,45,51,35,39,4,-0.3,-0.01,-0.36,-3,-11,10,0.3,0,0,0.0,0.0,0.0,0.0,0,0,0.0,0,0.0,-1,0.0,0.0,0.0,0,0.0,0.684
41083,0,,,,,,,,-0.4,-0.09,-0.67,-3,-17,18,0.42,0,,,,,,,,,,,,,,,,,
41123,0,,,,,,,,-0.11,-0.04,-0.16,-3,0,5,0.12,0,,,,,,,,,,,,,,,,,
41163,0,,,,,,,,-0.26,-0.08,-0.51,-4,-17,15,0.27,0,,,,,,,,,,,,,,,,,
41203,0,,,,,,,,-0.1,0.01,-0.04,-6,-4,5,0.1,0,,,,,,,,,,,,,,,,,
41243,0,1,1,44,52,35,38,11,-0.24,-0.11,-0.01,-5,-6,7,0.26,0,0,0.0,0.0,0.0,0.0,0,0,0.0,0,0.0,-1,0.0,0.0,0.0,0,0.0,0.6874
41283,0,,,,,,,,-0.16,-0.12,-0.03,-5,-7,6,0.2,0,,,,,,,,,,,,,,,,,
41323,0,,,,,,,,-0.18,-0.15,-0.0,-7,-7,4,0.24,0,,,,,,,,,,,,,,,,,
41363,0,,,,,,,,0.05,-0.12,0.38,-8,12,-13,0.13,0,,,,,,,,,,,,,,,,,
41403,0,,,,,,,,0.04,-0.13,0.68,-9,20,-22,0.14,0,,,,,,,,,,,,,,,,,
41443,0,0,0,45,53,35,37,16,0.1,-0.13,0.53,-11,15,-17,0.17,0,0,0.0,0.0,0.0,0.0,0,0,0.0,0,0.0,-1,0.0,0.0,0.0,0,0.0,0.6907
41483,0,,,,,,,,0.09,-0.22,0.05,-11,-3,-1,0.24,0,,,,,,,,,,,,,,,,,
41523,0,,,,,,,,0.15,-0.29,0.06,-12,4,-8,0.33,0,,,,,,,,,,,,,,,,,
41563,0,,,,,,,,0.12,-0.33,0.03,-14,-5,2,0.35,0,,,,,,,,,,,,,,,,,
41603,0,,,,,,,,0.17,-0.38,0.04,-16,7,-7,0.42,0,,,,,,,,,,,,,,,,,
41643,0,0,0,46,56,35,36,21,0.31,-0.36,0.41,-18,19,-19,0.47,0,0,0.0,0.0,0.0,0.0,0,0,0.0,0,0.0,-1,0.0,0.0,0.0,0,0.0,0.694
41683,0,,,,,,,,0.42,-0.32,0.72,-19,23,-26,0.53,0,,,,,,,,,,,,,,,,,
41723,0,,,,,,,,0.47,-0.4,0.96,-19,31,-33,0.62,0,,,,,,,,,,,,,,,,,
41763,0,,,,,,,,0.45,-0.39,0.95,-20,23,-28,0.59,0,,,,,,,,,,,,,,,,,
41803,0,,,,,,,,0.43,-0.37,0.79,-20,18,-20,0.57,0,,,,,,,,,,,,,,,,,
41843,0,-1,2,48,58,33,33,24,0.35,-0.49,0.26,-21,17,-17,0.6,0,0,0.0,0.0,0.0,0.0,0,0,0.0,0,0.0,-1,0.0,0.0,0.0,0,0.0,0.6974
41883,0,,,,,,,,0.43,-0.4,0.59,-21,19,-15,0.58,0,,,,,,,,,,,,,,,,,
41923,0,,,,,,,,0.47,-0.47,0.18,-22,8,-8,0.66,0,,,,,,,,,,,,,,,,,
41963,0,,,,,,,,0.44,-0.41,0.12,-23,10,-10,0.6,0,,,,,,,,,,,,,,,,,
42003,0,,,,,,,,0.48,-0.39,0.48,-23,12,-11,0.62,0,,,,,,,,,,,,,,,,,
42043,0,1,1,47,55,36,32,26,0.32,-0.45,0.41,-24,5,-7,0.56,0,0,0.0,0.0,0.0,0.0,0,0,0.0,0,0.0,-1,0.0,0.0,0.0,0,0.0,0.7007
42083,0,,,,,,,,0.3,-0.45,0.35,-24,4,-4,0.54,0,,,,,,,,,,,,,,,,,
42123,0,,,,,,,,0.24,-0.48,-0.05,-25,3,-6,0.54,0,,,,,,,,,,,,,,,,,
42163,0,,,,,,,,0.09,-0.63,-0.42,-26,-13,10,0.64,0,,,,,,,,,,,,,,,,,
42203,0,,,,,,,,0.0,-0.66,-0.72,-27,-17,13,0.66,0,,,,,,,,,,,,,,,,,
42243,0,1,0,44,57,37,36,25,0.09,-0.67,-0.2,-27,-7,3,0.68,0,0,0.0,0.0,0.0,0.0,0,0,0.0,0,0.0,-1,0.0,0.0,0.0,0,0.0,0.704
42283,0,,,,,,,,-0.25,-0.87,-0.55,-28,-11,5,0.91,0,,,,,,,,,,,,,,,,,
42323,0,,,,,,,,-0.21,-0.79,-0.06,-31,2,-5,0.82,0,,,,,,,,,,,,,,,,,
42363,0,,,,,,,,-0.13,-0.69,0.33,-32,6,-3,0.7,0,,,,,,,,,,,,,,,,,
42403,0,,,,,,,,-0.02,-0.71,0.65,-32,13,-6,0.71,0,,,,,,,,,,,,,,,,,
42443,0,-0,1,43,55,38,37,11,0.01,-0.59,0.9,-31,20,-16,0.59,0,0,0.0,0.0,0.0,0.0,0,0,0.0,0,0.0,-1,0.0,0.0,0.0,0,0.0,0.7074
42483,0,,,,,,,,-0.04,-0.58,0.35,-28,13,-10,0.58,0,,,,,,,,,,,,,,,,,
42523,0,,,,,,,,-0.02,-0.51,0.3,-24,5,1,0.51,0,,,,,,,,,,,,,,,,,
42563,0,,,,,,,,-0.03,-0.41,0.63,-21,10,-9,0.41,0,,,,,,,,,,,,,,,,,
42603,0,,,,,,,,0.0,-0.28,0.53,-18,3,-2,0.28,0,,,,,,,,,,,,,,,,,
42643,0,-1,2,45,54,34,36,12,0.18,-0.34,0.45,-16,3,0,0.39,0,0,0.0,0.0,0.0,0.0,0,0,0.0,0,0.0,-1,0.0,0.0,0.0,0,0.0,0.7107
42683,0,,,,,,,,0.24,-0.44,0.34,-14,6,-7,0.5,0,,,,,,,,,,,,,,,,,
42723,0,,,,,,,,0.02,-0.39,-0.1,-14,-7,1,0.39,0,,,,,,,,,,,,,,,,,
42763,0,,,,,,,,-0.06,-0.51,-0.47,-14,-5,1,0.51,0,,,,,,,,,,,,,,,,,
42803,0,,,,,,,,0.06,-0.52,-0.36,-15,-8,5,0.52,0,,,,,,,,,,,,,,,,,
42843,0,-1,2,47,56,33,34,18,0.2,-0.56,-0.27,-15,-3,1,0.6,0,0,0.0,0.0,0.0,0.0,0,0,0.0,0,0.0,-1,0.0,0.0,0.0,0,0.0,0.714
42883,0,,,,,,,,0.24,-0.65,-0.2,-16,-5,1,0.69,0,,,,,,,,,,,,,,,,,
42923,0,,,,,,,,0.24,-0.58,-0.11,-16,-6,1,0.62,0,,,,,,,,,,,,,,,,,
