"Interval"|"ms"|0|0|1,"Utc"|"ms"|0|0|1,"Brake_F"|"Bar"|0|2000|10,"Brake_R"|"Bar"|0|2000|10,"Height_RF"|"mm"|0|255|10,"Height_LF"|"mm"|0|255|10,"Height_LR"|"mm"|0|80|10,"Height_RR"|"mm"|0|255|10,"Steering"|"deg"|-100|100|10,"AccelX"|"G"|-3.0|3.0|25,"AccelY"|"G"|-3.0|3.0|25,"AccelZ"|"G"|-3.0|3.0|25,"Yaw"|"Deg/Sec"|-120|120|25,"Pitch"|"Deg/Sec"|-120|120|25,"Roll"|"Deg/Sec"|-120|120|25,"Gsum"|"G"|0.0|3.0|25,"Unknown"|""|0|1024|25,"Log_Button"|""|0.0|10.0|10,"Latitude"|"Degrees"|-180.0|180.0|10,"Longitude"|"Degrees"|-180.0|180.0|10,"Speed"|"kph"|0.0|150.0|10,"Altitude"|"m"|0.0|4000.0|10,"GPSSats"|""|0|20|10,"GPSQual"|""|0|5|10,"GPSDOP"|""|0.0|20.0|10,"LapCount"|""|0|0|10,"LapTime"|"Min"|0.0|0.0|10,"Sector"|""|0|0|10,"SectorTime"|"Min"|0.0|0.0|10,"PredTime"|"Min"|0.0|0.0|5,"ElapsedTime"|"Min"|0.0|0.0|10,"CurrentLap"|""|0|0|10,"Distance"|"km"|0.0|0.0|10,"SessionTime"|"Min"|0.0|0.0|10
60083,0,,,,,,,,-0.02,0.16,0.33,-1,-11,-3,0.16,0,,,,,,,,,,,,,,,,,
60123,0,,,,,,,,0.01,0.2,0.29,-0,4,-7,0.2,0,,,,,,,,,,,,,,,,,
60163,0,,,,,,,,-0.05,0.08,-0.07,-1,1,-6,0.1,0,,,,,,,,,,,,,,,,,
60203,0,,,,,,,,-0.04,0.1,-0.08,1,-10,5,0.11,0,,,,,,,,,,,,,,,,,
60243,0,-1,2,46,52,32,36,-0,0.12,0.1,-0.09,-0,-14,7,0.16,0,1,0.0,0.0,0.0,0.0,0,0,0.0,0,0.0,-1,0.0,0.0,0.0,0,0.0,1.0041
60283,0,,,,,,,,0.12,0.02,-0.05,-0,-2,1,0.12,0,,,,,,,,,,,,,,,,,
60323,0,,,,,,,,0.03,-0.01,-0.02,-0,5,-3,0.03,0,,,,,,,,,,,,,,,,,
60363,0,,,,,,,,-0.03,0.07,-0.04,0,-4,5,0.07,0,,,,,,,,,,,,,,,,,
60403,0,,,,,,,,0.07,0.06,-0.05,1,-8,7,0.09,0,,,,,,,,,,,,,,,,,
60443,0,-1,2,46,52,32,36,-0,0.04,0.03,-0.02,-0,5,-0,0.05,0,0,0.0,0.0,0.0,0.0,0,0,0.0,0,0.0,-1,0.0,0.0,0.0,0,0.0,1.0074
60483,0,,,,,,,,-0.08,-0.0,-0.4,0,-7,8,0.08,0,,,,,,,,,,,,,,,,,
60523,0,,,,,,,,0.11,0.01,-0.34,-0,-8,10,0.11,0,,,,,,,,,,,,,,,,,
60563,0,,,,,,,,0.1,-0.04,-0.26,-1,6,1,0.1,0,,,,,,,,,,,,,,,,,
60603,0,,,,,,,,0.11,0.03,-0.38,-0,-9,11,0.12,0,,,,,,,,,,,,,,,,,
60643,0,-0,2,46,52,32,36,0,0.16,0.03,0.07,0,5,-0,0.16,0,0,0.0,0.0,0.0,0.0,0,0,0.0,0,0.0,-1,0.0,0.0,0.0,0,0.0,1.0107
60683,0,,,,,,,,0.0,0.0,-0.21,1,2,2,0.01,0,,,,,,,,,,,,,,,,,
60723,0,,,,,,,,0.13,0.02,-0.19,-0,0,5,0.13,0,,,,,,,,,,,,,,,,,
60763,0,,,,,,,,0.07,0.0,-0.13,-1,8,-2,0.07,0,,,,,,,,,,,,,,,,,
60803,0,,,,,,,,0.12,0.05,-0.13,-0,-4,7,0.13,0,,,,,,,,,,,,,,,,,
60843,0,0,2,46,52,32,36,-1,0.05,0.01,-0.09,-1,7,-4,0.05,0,0,0.0,0.0,0.0,0.0,0,0,0.0,0,0.0,-1,0.0,0.0,0.0,0,0.0,1.0141
60883,0,,,,,,,,0.12,0.05,-0.09,-0,-2,5,0.13,0,,,,,,,,,,,,,,,,,
60923,0,,,,,,,,0.0,0.01,-0.05,-0,3,-1,0.01,0,,,,,,,,,,,,,,,,,
60963,0,,,,,,,,0.09,0.04,-0.06,0,-3,5,0.1,0,,,,,,,,,,,,,,,,,
61003,0,,,,,,,,0.04,-0.03,-0.03,-0,4,-1,0.05,0,,,,,,,,,,,,,,,,,
61043,0,-1,2,46,52,32,36,-0,0.13,0.05,-0.05,-1,-1,2,0.13,0,0,0.0,0.0,0.0,0.0,0,0,0.0,0,0.0,-1,0.0,0.0,0.0,0,0.0,1.0174
61083,0,,,,,,,,0.02,-0.03,-0.02,-0,-2,2,0.04,0,,,,,,,,,,,,,,,,,
61123,0,,,,,,,,0.15,0.0,0.05,-1,5,-2,0.15,0,,,,,,,,,,,,,,,,,
61163,0,,,,,,,,0.03,-0.07,-0.34,-1,-6,6,0.07,0,,,,,,,,,,,,,,,,,
61203,0,,,,,,,,0.16,0.02,0.1,-0,12,-8,0.16,0,,,,,,,,,,,,,,,,,
61243,0,1,2,46,52,32,36,-0,0.13,0.03,-0.3,-0,-3,4,0.13,0,0,0.0,0.0,0.0,0.0,0,0,0.0,0,0.0,-1,0.0,0.0,0.0,0,0.0,1.0207
61283,0,,,,,,,,0.02,0.02,-0.22,-0,-2,0,0.03,0,,,,,,,,,,,,,,,,,
61323,0,,,,,,,,0.1,0.02,0.2,-0,11,-9,0.1,0,,,,,,,,,,,,,,,,,
61363,0,,,,,,,,0.07,-0.01,-0.22,0,-1,4,0.07,0,,,,,,,,,,,,,,,,,
61403,0,,,,,,,,0.08,-0.07,0.1,-0,11,-7,0.11,0,,,,,,,,,,,,,,,,,
61443,0,0,2,46,52,32,36,-1,0.13,-0.01,0.06,-2,7,-5,0.13,0,0,0.0,0.0,0.0,0.0,0,0,0.0,0,0.0,-1,0.0,0.0,0.0,0,0.0,1.024
61483,0,,,,,,,,0.02,-0.07,-0.33,-1,-8,7,0.07,0,,,,,,,,,,,,,,,,,
61523,0,,,,,,,,0.1,-0.06,0.11,-1,9,-8,0.11,0,,,,,,,,,,,,,,,,,
61563,0,,,,,,,,0.08,-0.06,-0.03,-1,-1,0,0.1,0,,,,,,,,,,,,,,,,,
61603,0,,,,,,,,0.01,-0.1,-0.01,-1,-9,6,0.1,0,,,,,,,,,,,,,,,,,
61643,0,-1,2,46,52,32,36,-0,0.11,-0.04,0.38,-1,5,-5,0.11,0,0,0.0,0.0,0.0,0.0,0,0,0.0,0,0.0,-1,0.0,0.0,0.0,0,0.0,1.0274
61683,0,,,,,,,,0.1,-0.03,-0.08,-0,-8,8,0.11,0,,,,,,,,,,,,,,,,,
61723,0,,,,,,,,0.02,-0.06,-0.44,-1,-8,6,0.06,0,,,,,,,,,,,,,,,,,
61763,0,,,,,,,,0.03,-0.07,0.02,0,8,-6,0.08,0,,,,,,,,,,,,,,,,,
61803,0,,,,,,,,0.09,0.01,-0.0,1,-6,5,0.09,0,,,,,,,,,,,,,,,,,
61843,0,-1,2,46,52,32,36,-0,-0.05,-0.04,-0.1,0,4,-5,0.07,0,0,0.0,0.0,0.0,0.0,0,0,0.0,0,0.0,-1,0.0,0.0,0.0,0,0.0,1.0307
61883,0,,,,,,,,0.06,0.04,0.3,-0,2,-4,0.07,0,,,,,,,,,,,,,,,,,
61923,0,,,,,,,,0.01,0.05,-0.14,0,-8,5,0.05,0,,,,,,,,,,,,,,,,,
61963,0,,,,,,,,0.02,-0.02,0.27,1,9,-9,0.03,0,,,,,,,,,,,,,,,,,
62003,0,,,,,,,,0.06,0.06,0.2,2,-4,2,0.08,0,,,,,,,,,,,,,,,,,
62043,0,0,2,46,52,32,36,-1,-0.04,-0.01,0.1,1,5,-7,0.04,0,0,0.0,0.0,0.0,0.0,0,0,0.0,0,0.0,-1,0.0,0.0,0.0,0,0.0,1.034
62083,0,,,,,,,,0.06,0.03,0.46,-0,7,-6,0.07,0,,,,,,,,,,,,,,,,,
62123,0,,,,,,,,0.02,0.08,-0.01,0,-7,4,0.08,0,,,,,,,,,,,,,,,,,
62163,0,,,,,,,,0.02,0.02,0.12,0,10,-11,0.03,0,,,,,,,,,,,,,,,,,
62203,0,,,,,,,,0.08,0.09,0.07,-0,-4,0,0.12,0,,,,,,,,,,,,,,,,,
62243,0,0,2,46,52,32,36,-1,-0.03,0.03,0.08,-1,2,-6,0.04,0,0,0.0,0.0,0.0,0.0,0,0,0.0,0,0.0,-1,0.0,0.0,0.0,0,0.0,1.0374
62283,0,,,,,,,,0.09,0.1,0.44,-1,1,-5,0.13,0,,,,,,,,,,,,,,,,,
62323,0,,,,,,,,0.01,0.07,-0.02,-0,-5,0,0.07,0,,,,,,,,,,,,,,,,,
62363,0,,,,,,,,0.09,0.06,0.36,-1,8,-9,0.11,0,,,,,,,,,,,,,,,,,
62403,0,,,,,,,,0.07,0.11,-0.09,-0,-10,5,0.13,0,,,,,,,,,,,,,,,,,
62443,0,0,1,46,52,32,36,-0,0.06,0.06,-0.05,-0,5,-8,0.09,0,0,0.0,0.0,0.0,0.0,0,0,0.0,0,0.0,-1,0.0,0.0,0.0,0,0.0,1.0407
62483,0,,,,,,,,0.12,0.1,-0.06,0,-4,0,0.15,0,,,,,,,,,,,,,,,,,
62523,0,,,,,,,,-0.02,0.06,-0.24,1,-4,-0,0.07,0,,,,,,,,,,,,,,,,,
62563,0,,,,,,,,0.08,0.06,0.19,-1,0,-3,0.1,0,,,,,,,,,,,,,,,,,
62603,0,,,,,,,,-0.02,0.06,-0.23,-0,-12,7,0.06,0,,,,,,,,,,,,,,,,,
62643,0,-0,2,46,52,32,36,0,-0.01,0.02,0.19,-0,5,-7,0.02,0,0,0.0,0.0,0.0,0.0,0,0,0.0,0,0.0,-1,0.0,0.0,0.0,0,0.0,1.044
62683,0,,,,,,,,0.04,0.06,0.14,-1,-4,2,0.07,0,,,,,,,,,,,,,,,,,
62723,0,,,,,,,,-0.05,0.05,-0.27,-1,-10,6,0.07,0,,,,,,,,,,,,,,,,,
62763,0,,,,,,,,-0.03,0.06,0.16,-1,4,-8,0.06,0,,,,,,,,,,,,,,,,,
62803,0,,,,,,,,0.05,0.09,0.51,-0,8,-7,0.1,0,,,,,,,,,,,,,,,,,
62843,0,0,0,46,52,32,36,-0,0.05,0.1,0.03,0,-7,6,0.11,0,0,0.0,0.0,0.0,0.0,0,0,0.0,0,0.0,-1,0.0,0.0,0.0,0,0.0,1.0474
62883,0,,,,,,,,0.03,0.14,-0.35,0,-19,15,0.15,0,,,,,,,,,,,,,,,,,
62923,0,,,,,,,,-0.09,0.04,-0.66,0,-20,15,0.1,0,,,,,,,,,,,,,,,,,
62963,0,,,,,,,,-0.18,0.01,-0.3,0,-12,8,0.18,0,,,,,,,,,,,,,,,,,
63003,0,,,,,,,,-0.15,-0.09,0.13,-0,-1,-3,0.17,0,,,,,,,,,,,,,,,,,
63043,0,-0,2,46,52,32,35,-1,-0.08,-0.13,0.49,-0,9,-12,0.15,0,0,0.0,0.0,0.0,0.0,0,0,0.0,0,0.0,-1,0.0,0.0,0.0,0,0.0,1.0507
63083,0,,,,,,,,-0.02,-0.17,0.78,-0,17,-19,0.18,0,,,,,,,,,,,,,,,,,
63123,0,,,,,,,,0.03,-0.18,1.01,-0,26,-28,0.18,0,,,,,,,,,,,,,,,,,
63163,0,,,,,,,,0.08,-0.21,1.2,-1,30,-32,0.22,0,,,,,,,,,,,,,,,,,
63203,0,,,,,,,,0.13,-0.2,1.35,-1,34,-35,0.24,0,,,,,,,,,,,,,,,,,
63243,0,1,0,46,52,32,36,-0,0.15,-0.24,1.47,-1,34,-35,0.29,0,0,0.0,0.0,0.0,0.0,0,0,0.0,0,0.0,-1,0.0,0.0,0.0,0,0.0,1.054
63283,0,,,,,,,,0.09,-0.21,1.36,-1,29,-30,0.23,0,,,,,,,,,,,,,,,,,
63323,0,,,,,,,,-0.04,-0.26,0.72,-1,19,-21,0.27,0,,,,,,,,,,,,,,,,,
63363,0,,,,,,,,-0.14,-0.23,0.2,-0,6,-10,0.27,0,,,,,,,,,,,,,,,,,
63403,0,,,,,,,,-0.19,-0.2,-0.22,0,-7,3,0.27,0,,,,,,,,,,,,,,,,,
63443,0,1,0,46,52,32,36,-0,-0.14,-0.13,-0.56,1,-19,14,0.2,0,0,0.0,0.0,0.0,0.0,0,0,0.0,0,0.0,-1,0.0,0.0,0.0,0,0.0,1.0574
63483,0,,,,,,,,-0.1,-0.13,-0.83,1,-25,21,0.16,0,,,,,,,,,,,,,,,,,
63523,0,,,,,,,,-0.1,-0.05,-1.05,1,-23,21,0.11,0,,,,,,,,,,,,,,,,,
63563,0,,,,,,,,-0.05,-0.01,-1.05,1,-18,19,0.05,0,,,,,,,,,,,,,,,,,
63603,0,,,,,,,,0.05,-0.06,-0.47,1,-7,9,0.08,0,,,,,,,,,,,,,,,,,
63643,0,0,2,46,52,32,35,-1,0.03,-0.07,-0.13,1,7,-5,0.07,0,0,0.0,0.0,0.0,0.0,0,0,0.0,0,0.0,-1,0.0,0.0,0.0,0,0.0,1.0607
63683,0,,,,,,,,-0.06,-0.09,-0.49,0,12,-10,0.11,0,,,,,,,,,,,,,,,,,
63723,0,,,,,,,,-0.03,-0.05,-0.77,0,2,-2,0.06,0,,,,,,,,,,,,,,,,,
63763,0,,,,,,,,0.05,0.04,-0.59,1,-7,7,0.07,0,,,,,,,,,,,,,,,,,
63803,0,,,,,,,,0.06,0.01,-0.09,1,-6,7,0.06,0,,,,,,,,,,,,,,,,,
63843,0,0,2,46,52,32,35,-1,0.09,-0.09,0.3,1,6,-6,0.12,0,0,0.0,0.0,0.0,0.0,0,0,0.0,0,0.0,-1,0.0,0.0,0.0,0,0.0,1.064
63883,0,,,,,,,,-0.05,-0.09,-0.14,0,9,-10,0.1,0,,,,,,,,,,,,,,,,,
63923,0,,,,,,,,-0.04,-0.04,-0.49,0,-5,3,0.05,0,,,,,,,,,,,,,,,,,
63963,0,,,,,,,,0.1,0.04,-0.38,1,-11,11,0.11,0,,,,,,,,,,,,,,,,,
64003,0,,,,,,,,0.14,0.05,0.07,1,-6,8,0.15,0,,,,,,,,,,,,,,,,,
64043,0,-0,1,46,52,32,36,-1,0.14,-0.05,0.44,1,5,-4,0.15,0,0,0.0,0.0,0.0,0.0,0,0,0.0,0,0.0,-1,0.0,0.0,0.0,0,0.0,1.0674
64083,0,,,,,,,,0.01,-0.06,0.24,1,13,-11,0.06,0,,,,,,,,,,,,,,,,,
64123,0,,,,,,,,0.04,-0.02,-0.18,1,3,-1,0.05,0,,,,,,,,,,,,,,,,,
64163,0,,,,,,,,0.01,0.04,-0.53,1,-8,9,0.04,0,,,,,,,,,,,,,,,,,
64203,0,,,,,,,,0.16,0.04,-0.05,1,-6,7,0.16,0,,,,,,,,,,,,,,,,,
64243,0,0,1,46,52,32,36,-1,0.12,-0.01,0.34,0,5,-4,0.12,0,0,0.0,0.0,0.0,0.0,0,0,0.0,0,0.0,-1,0.0,0.0,0.0,0,0.0,1.0707
64283,0,,,,,,,,0.07,-0.06,0.57,-0,12,-13,0.09,0,,,,,,,,,,,,,,,,,
64323,0,,,,,,,,-0.01,-0.03,0.08,-0,8,-10,0.03,0,,,,,,,,,,,,,,,,,
64363,0,,,,,,,,-0.03,0.01,-0.31,0,-5,3,0.04,0,,,,,,,,,,,,,,,,,
64403,0,,,,,,,,0.08,0.03,0.13,0,-1,1,0.09,0,,,,,,,,,,,,,,,,,
64443,0,1,1,46,52,32,36,-1,0.08,-0.03,0.43,-0,10,-11,0.09,0,0,0.0,0.0,0.0,0.0,0,0,0.0,0,0.0,-1,0.0,0.0,0.0,0,0.0,1.074
64483,0,,,,,,,,0.04,-0.02,-0.03,0,2,-1,0.05,0,,,,,,,,,,,,,,,,,
64523,0,,,,,,,,0.07,0.02,-0.01,1,-2,5,0.08,0,,,,,,,,,,,,,,,,,
64563,0,,,,,,,,0.09,-0.01,0.37,1,5,-2,0.09,0,,,,,,,,,,,,,,,,,
64603,0,,,,,,,,0.07,-0.07,0.38,0,11,-8,0.1,0,,,,,,,,,,,,,,,,,
64643,0,0,1,46,52,32,36,-1,-0.0,-0.06,-0.07,1,-2,3,0.06,0,0,0.0,0.0,0.0,0.0,0,0,0.0,0,0.0,-1,0.0,0.0,0.0,0,0.0,1.0774
64683,0,,,,,,,,0.07,0.05,-0.04,1,-2,4,0.08,0,,,,,,,,,,,,,,,,,
64723,0,,,,,,,,0.05,0.02,0.35,1,9,-7,0.06,0,,,,,,,,,,,,,,,,,
64763,0,,,,,,,,0.0,-0.05,0.26,0,11,-9,0.05,0,,,,,,,,,,,,,,,,,
64803,0,,,,,,,,-0.03,-0.01,-0.17,1,-2,3,0.03,0,,,,,,,,,,,,,,,,,
64843,0,-1,2,46,52,32,36,-0,0.04,0.06,0.21,1,3,-1,0.07,0,0,0.0,0.0,0.0,0.0,0,0,0.0,0,0.0,-1,0.0,0.0,0.0,0,0.0,1.0807
64883,0,,,,,,,,0.07,0.01,0.55,1,9,-8,0.07,0,,,,,,,,,,,,,,,,,
64923,0,,,,,,,,-0.02,-0.01,0.06,1,-5,4,0.03,0,,,,,,,,,,,,,,,,,
64963,0,,,,,,,,0.02,0.09,0.07,0,-7,5,0.09,0,,,,,,,,,,,,,,,,,
65003,0,,,,,,,,0.05,0.06,0.44,-0,7,-9,0.08,0,,,,,,,,,,,,,,,,,
65043,0,-1,2,46,52,32,36,-1,-0.02,-0.01,0.23,0,3,-4,0.02,0,0,0.0,0.0,0.0,0.0,0,0,0.0,0,0.0,-1,0.0,0.0,0.0,0,0.0,1.084
65083,0,,,,,,,,-0.05,0.02,-0.19,1,-3,4,0.06,0,,,,,,,,,,,,,,,,,
65123,0,,,,,,,,0.07,0.06,0.22,1,9,-7,0.09,0,,,,,,,,,,,,,,,,,
65163,0,,,,,,,,0.08,-0.02,0.31,0,12,-10,0.08,0,,,,,,,,,,,,,,,,,
65203,0,,,,,,,,-0.01,-0.04,-0.13,1,-2,3,0.04,0,,,,,,,,,,,,,,,,,
65243,0,-0,2,46,52,32,35,-0,0.09,0.07,-0.09,0,-1,2,0.11,0,0,0.0,0.0,0.0,0.0,0,0,0.0,0,0.0,-1,0.0,0.0,0.0,0,0.0,1.0874
65283,0,,,,,,,,0.12,0.05,0.31,-0,11,-10,0.13,0,,,,,,,,,,,,,,,,,
65323,0,,,,,,,,0.04,-0.04,0.22,0,2,-0,0.05,0,,,,,,,,,,,,,,,,,
65363,0,,,,,,,,-0.01,-0.0,-0.21,0,-7,8,0.01,0,,,,,,,,,,,,,,,,,
65403,0,,,,,,,,0.14,0.09,0.19,-0,0,1,0.16,0,,,,,,,,,,,,,,,,,
65443,0,-1,2,46,52,32,36,-0,0.1,0.05,0.53,-0,12,-11,0.11,0,0,0.0,0.0,0.0,0.0,0,0,0.0,0,0.0,-1,0.0,0.0,0.0,0,0.0,1.0907
65483,0,,,,,,,,0.04,-0.06,0.43,-0,8,-7,0.07,0,,,,,,,,,,,,,,,,,
65523,0,,,,,,,,0.02,-0.04,-0.03,0,-4,4,0.04,0,,,,,,,,,,,,,,,,,
65563,0,,,,,,,,0.06,0.01,0.35,0,2,-1,0.06,0,,,,,,,,,,,,,,,,,
65603,0,,,,,,,,-0.05,-0.06,0.25,0,11,-9,0.08,0,,,,,,,,,,,,,,,,,
65643,0,0,2,46,52,32,35,-0,-0.09,-0.02,-0.17,-0,-3,4,0.09,0,0,0.0,0.0,0.0,0.0,0,0,0.0,0,0.0,-1,0.0,0.0,0.0,0,0.0,1.0941
65683,0,,,,,,,,0.08,0.05,0.24,0,-4,6,0.1,0,,,,,,,,,,,,,,,,,
65723,0,,,,,,,,0.11,0.0,0.57,0,9,-5,0.11,0,,,,,,,,,,,,,,,,,
65763,0,,,,,,,,0.04,-0.07,0.84,0,19,-17,0.08,0,,,,,,,,,,,,,,,,,
65803,0,,,,,,,,-0.06,-0.09,0.72,-0,29,-26,0.11,0,,,,,,,,,,,,,,,,,
65843,0,0,2,46,52,32,36,0,-0.19,-0.16,0.54,-0,35,-32,0.25,0,0,0.0,0.0,0.0,0.0,0,0,0.0,0,0.0,-1,0.0,0.0,0.0,0,0.0,1.0974
65883,0,,,,,,,,-0.22,-0.17,0.75,-1,41,-39,0.28,0,,,,,,,,,,,,,,,,,
65923,0,,,,,,,,-0.19,-0.22,0.98,-1,47,-45,0.29,0,,,,,,,,,,,,,,,,,
65963,0,,,,,,,,-0.11,-0.21,1.18,-1,54,-49,0.24,0,,,,,,,,,,,,,,,,,
66003,0,,,,,,,,-0.04,-0.16,1.33,-1,52,-46,0.16,0,,,,,,,,,,,,,,,,,
66043,0,0,2,46,52,32,35,0,0.05,-0.08,1.46,-1,40,-34,0.1,0,0,0.0,0.0,0.0,0.0,0,0,0.0,0,0.0,-1,0.0,0.0,0.0,0,0.0,1.1007
66083,0,,,,,,,,0.06,0.04,0.95,-1,17,-16,0.07,0,,,,,,,,,,,,,,,,,
66123,0,,,,,,,,0.03,0.02,0.39,-0,5,-6,0.04,0,,,,,,,,,,,,,,,,,
66163,0,,,,,,,,0.02,-0.07,0.33,-1,19,-18,0.07,0,,,,,,,,,,,,,,,,,
66203,0,,,,,,,,0.1,-0.07,0.65,-0,18,-14,0.12,0,,,,,,,,,,,,,,,,,
66243,0,1,0,46,52,32,36,-1,0.07,-0.02,0.15,-0,0,-1,0.07,0,0,0.0,0.0,0.0,0.0,0,0,0.0,0,0.0,-1,0.0,0.0,0.0,0,0.0,1.1041
66283,0,,,,,,,,0.08,-0.07,0.14,-1,14,-14,0.11,0,,,,,,,,,,,,,,,,,
66323,0,,,,,,,,0.14,-0.02,0.09,-0,5,-6,0.14,0,,,,,,,,,,,,,,,,,
66363,0,,,,,,,,0.02,-0.01,-0.31,-0,-3,-0,0.02,0,,,,,,,,,,,,,,,,,
66403,0,,,,,,,,0.02,0.01,0.13,-0,10,-11,0.02,0,,,,,,,,,,,,,,,,,
66443,0,0,1,46,52,32,36,-1,0.02,0.08,0.09,1,-3,1,0.09,0,0,0.0,0.0,0.0,0.0,0,0,0.0,0,0.0,-1,0.0,0.0,0.0,0,0.0,1.1074
66483,0,,,,,,,,-0.06,0.04,0.09,1,1,-3,0.07,0,,,,,,,,,,,,,,,,,
66523,0,,,,,,,,0.09,0.11,0.45,1,10,-8,0.15,0,,,,,,,,,,,,,,,,,
66563,0,,,,,,,,-0.02,0.09,-0.02,1,-8,7,0.1,0,,,,,,,,,,,,,,,,,
66603,0,,,,,,,,-0.03,0.05,0.01,0,4,-5,0.06,0,,,,,,,,,,,,,,,,,
66643,0,-1,2,46,52,32,35,0,0.12,0.06,0.13,1,8,-6,0.13,0,0,0.0,0.0,0.0,0.0,0,0,0.0,0,0.0,-1,0.0,0.0,0.0,0,0.0,1.1107
66683,0,,,,,,,,-0.04,0.01,-0.28,1,-6,5,0.04,0,,,,,,,,,,,,,,,,,
66723,0,,,,,,,,0.1,0.02,0.16,1,10,-8,0.1,0,,,,,,,,,,,,,,,,,
66763,0,,,,,,,,0.07,0.05,0.08,2,-2,3,0.09,0,,,,,,,,,,,,,,,,,
66803,0,,,,,,,,0.05,0.03,0.08,1,8,-5,0.06,0,,,,,,,,,,,,,,,,,
66843,0,-0,2,46,52,32,36,-1,0.1,0.07,0.05,1,2,3,0.12,0,0,0.0,0.0,0.0,0.0,0,0,0.0,0,0.0,-1,0.0,0.0,0.0,0,0.0,1.1141
66883,0,,,,,,,,0.03,0.04,0.06,1,6,-1,0.05,0,,,,,,,,,,,,,,,,,
66923,0,,,,,,,,0.24,0.04,0.03,1,8,-2,0.25,0,,,,,,,,,,,,,,,,,
66963,0,,,,,,,,0.04,-0.0,-0.23,1,1,3,0.04,0,,,,,,,,,,,,,,,,,
67003,0,,,,,,,,0.17,0.05,0.19,1,11,-4,0.18,0,,,,,,,,,,,,,,,,,
67043,0,-1,2,46,52,32,36,-0,-0.04,0.03,-0.23,1,-3,8,0.05,0,0,0.0,0.0,0.0,0.0,0,0,0.0,0,0.0,-1,0.0,0.0,0.0,0,0.0,1.1174
67083,0,,,,,,,,0.15,0.07,0.2,1,11,-6,0.17,0,,,,,,,,,,,,,,,,,
67123,0,,,,,,,,-0.03,-0.01,-0.22,1,-7,7,0.03,0,,,,,,,,,,,,,,,,,
67163,0,,,,,,,,0.16,0.04,0.2,-0,8,-4,0.17,0,,,,,,,,,,,,,,,,,
67203,0,,,,,,,,-0.01,-0.02,-0.22,-0,-11,9,0.02,0,,,,,,,,,,,,,,,,,
67243,0,0,0,46,52,32,36,-1,0.13,-0.0,0.2,0,10,-6,0.13,0,0,0.0,0.0,0.0,0.0,0,0,0.0,0,0.0,-1,0.0,0.0,0.0,0,0.0,1.1207
67283,0,,,,,,,,0.03,-0.01,-0.22,1,-2,5,0.03,0,,,,,,,,,,,,,,,,,
67323,0,,,,,,,,0.15,-0.01,0.2,0,12,-7,0.15,0,,,,,,,,,,,,,,,,,
67363,0,,,,,,,,0.04,0.02,-0.22,1,-1,5,0.04,0,,,,,,,,,,,,,,,,,
67403,0,,,,,,,,0.08,0.02,0.14,1,9,-7,0.08,0,,,,,,,,,,,,,,,,,
67443,0,-1,2,46,52,32,36,-0,0.02,0.03,0.03,1,-3,2,0.03,0,0,0.0,0.0,0.0,0.0,0,0,0.0,0,0.0,-1,0.0,0.0,0.0,0,0.0,1.1241
67483,0,,,,,,,,-0.13,-0.04,-0.36,1,5,-5,0.14,0,,,,,,,,,,,,,,,,,
67523,0,,,,,,,,0.05,0.04,0.09,-0,-0,1,0.07,0,,,,,,,,,,,,,,,,,
67563,0,,,,,,,,-0.11,0.02,-0.31,-0,-2,3,0.11,0,,,,,,,,,,,,,,,,,
67603,0,,,,,,,,0.05,0.04,0.13,0,8,-4,0.06,0,,,,,,,,,,,,,,,,,
67643,0,-1,0,46,52,32,36,-1,0.02,0.06,-0.07,0,-8,10,0.06,0,0,0.0,0.0,0.0,0.0,0,0,0.0,0,0.0,-1,0.0,0.0,0.0,0,0.0,1.1274
67683,0,,,,,,,,-0.1,-0.0,-0.15,-0,3,-1,0.1,0,,,,,,,,,,,,,,,,,
67723,0,,,,,,,,0.07,0.06,0.25,-1,8,-2,0.09,0,,,,,,,,,,,,,,,,,
67763,0,,,,,,,,0.01,0.08,-0.17,-0,-9,10,0.08,0,,,,,,,,,,,,,,,,,
67803,0,,,,,,,,-0.05,-0.01,-0.12,-0,6,-3,0.06,0,,,,,,,,,,,,,,,,,
67843,0,-1,1,46,52,32,36,-0,0.12,0.03,0.28,-1,13,-5,0.12,0,0,0.0,0.0,0.0,0.0,0,0,0.0,0,0.0,-1,0.0,0.0,0.0,0,0.0,1.1307
67883,0,,,,,,,,0.1,0.06,0.07,-0,-2,7,0.11,0,,,,,,,,,,,,,,,,,
67923,0,,,,,,,,-0.02,-0.01,-0.13,-0,3,-2,0.02,0,,,,,,,,,,,,,,,,,
67963,0,,,,,,,,0.07,0.01,0.27,0,11,-7,0.08,0,,,,,,,,,,,,,,,,,
68003,0,,,,,,,,0.05,-0.01,0.1,0,-6,6,0.05,0,,,,,,,,,,,,,,,,,
68043,0,-1,0,46,52,32,36,-0,-0.01,-0.05,-0.3,-0,-1,2,0.05,0,0,0.0,0.0,0.0,0.0,0,0,0.0,0,0.0,-1,0.0,0.0,0.0,0,0.0,1.1341
68083,0,,,,,,,,0.06,-0.09,0.14,0,13,-10,0.11,0,,,,,,,,,,,,,,,,,
68123,0,,,,,,,,0.13,-0.04,0.12,1,7,-2,0.13,0,,,,,,,,,,,,,,,,,
68163,0,,,,,,,,0.09,-0.02,-0.28,0,-9,10,0.09,0,,,,,,,,,,,,,,,,,
68203,0,,,,,,,,0.02,-0.06,-0.21,-0,1,-3,0.06,0,,,,,,,,,,,,,,,,,
68243,0,0,2,46,52,32,35,-0,0.08,-0.04,0.21,-0,8,-6,0.09,0,0,0.0,0.0,0.0,0.0,0,0,0.0,0,0.0,-1,0.0,0.0,0.0,0,0.0,1.1374
68283,0,,,,,,,,0.04,-0.06,-0.2,0,-7,7,0.07,0,,,,,,,,,,,,,,,,,
68323,0,,,,,,,,-0.02,-0.1,-0.14,1,1,-0,0.1,0,,,,,,,,,,,,,,,,,
68363,0,,,,,,,,0.06,-0.1,0.27,0,12,-8,0.12,0,,,,,,,,,,,,,,,,,
68403,0,,,,,,,,0.08,-0.05,0.2,0,-2,3,0.1,0,,,,,,,,,,,,,,,,,
68443,0,1,2,46,52,32,35,0,0.02,-0.05,-0.22,0,-10,10,0.06,0,0,0.0,0.0,0.0,0.0,0,0,0.0,0,0.0,-1,0.0,0.0,0.0,0,0.0,1.1407
68483,0,,,,,,,,0.04,-0.03,0.2,0,2,-5,0.05,0,,,,,,,,,,,,,,,,,
68523,0,,,,,,,,0.12,0.03,0.54,-1,3,-5,0.12,0,,,,,,,,,,,,,,,,,
68563,0,,,,,,,,0.05,-0.01,0.06,-0,-9,6,0.05,0,,,,,,,,,,,,,,,,,
68603,0,,,,,,,,-0.03,-0.01,-0.33,-0,-17,13,0.03,0,,,,,,,,,,,,,,,,,
68643,0,0,1,47,52,32,36,-1,-0.02,-0.05,-0.1,-0,-4,-0,0.05,0,0,0.0,0.0,0.0,0.0,0,0,0.0,0,0.0,-1,0.0,0.0,0.0,0,0.0,1.144
68683,0,,,,,,,,0.06,-0.01,0.3,-1,7,-8,0.06,0,,,,,,,,,,,,,,,,,
68723,0,,,,,,,,0.14,0.05,0.57,-0,7,-7,0.15,0,,,,,,,,,,,,,,,,,
68763,0,,,,,,,,0.08,0.03,0.08,-0,-5,5,0.08,0,,,,,,,,,,,,,,,,,
68803,0,,,,,,,,0.03,0.02,-0.31,0,-16,13,0.03,0,,,,,,,,,,,,,,,,,
68843,0,-0,2,46,52,32,36,-0,-0.02,-0.06,-0.22,-0,-9,4,0.06,0,0,0.0,0.0,0.0,0.0,0,0,0.0,0,0.0,-1,0.0,0.0,0.0,0,0.0,1.1474
68883,0,,,,,,,,0.02,-0.06,0.2,-1,5,-8,0.06,0,,,,,,,,,,,,,,,,,
68923,0,,,,,,,,0.07,-0.0,0.54,-1,8,-7,0.07,0,,,,,,,,,,,,,,,,,
68963,0,,,,,,,,0.03,0.01,0.06,0,-0,3,0.03,0,,,,,,,,,,,,,,,,,
69003,0,,,,,,,,-0.05,-0.05,-0.33,0,-9,9,0.07,0,,,,,,,,,,,,,,,,,
69043,0,0,0,46,52,32,35,0,0.0,-0.03,0.11,0,2,-3,0.03,0,0,0.0,0.0,0.0,0.0,0,0,0.0,0,0.0,-1,0.0,0.0,0.0,0,0.0,1.1507
69083,0,,,,,,,,0.12,0.0,0.47,-0,13,-11,0.12,0,,,,,,,,,,,,,,,,,
69123,0,,,,,,,,0.17,0.02,0.36,0,11,-6,0.17,0,,,,,,,,,,,,,,,,,
69163,0,,,,,,,,0.07,0.05,-0.09,1,-4,7,0.08,0,,,,,,,,,,,,,,,,,
69203,0,,,,,,,,-0.02,-0.01,-0.45,1,-17,17,0.02,0,,,,,,,,,,,,,,,,,
69243,0,-0,2,46,52,32,36,-0,0.0,-0.07,-0.11,1,-12,10,0.07,0,0,0.0,0.0,0.0,0.0,0,0,0.0,0,0.0,-1,0.0,0.0,0.0,0,0.0,1.154
69283,0,,,,,,,,0.1,-0.06,0.29,0,3,-5,0.11,0,,,,,,,,,,,,,,,,,
69323,0,,,,,,,,0.16,0.02,0.22,1,9,-8,0.16,0,,,,,,,,,,,,,,,,,
69363,0,,,,,,,,0.01,-0.0,-0.21,1,-1,2,0.01,0,,,,,,,,,,,,,,,,,
69403,0,,,,,,,,-0.07,-0.02,-0.55,1,-14,13,0.07,0,,,,,,,,,,,,,,,,,
69443,0,1,0,46,52,32,35,0,-0.08,-0.05,-0.82,1,-10,8,0.1,0,0,0.0,0.0,0.0,0.0,0,0,0.0,0,0.0,-1,0.0,0.0,0.0,0,0.0,1.1574
69483,0,,,,,,,,-0.05,-0.11,-0.45,0,7,-7,0.12,0,,,,,,,,,,,,,,,,,
69523,0,,,,,,,,0.07,-0.07,0.01,-0,2,-1,0.1,0,,,,,,,,,,,,,,,,,
69563,0,,,,,,,,0.06,-0.06,-0.37,0,-15,11,0.09,0,,,,,,,,,,,,,,,,,
69603,0,,,,,,,,-0.02,-0.04,-0.68,0,-10,6,0.05,0,,,,,,,,,,,,,,,,,
69643,0,0,0,46,52,32,35,-0,-0.0,-0.02,-0.17,0,6,-7,0.02,0,0,0.0,0.0,0.0,0.0,0,0,0.0,0,0.0,-1,0.0,0.0,0.0,0,0.0,1.1607
69683,0,,,,,,,,0.1,0.01,0.24,0,3,-2,0.1,0,,,,,,,,,,,,,,,,,
69723,0,,,,,,,,0.05,-0.03,-0.19,-0,-14,11,0.05,0,,,,,,,,,,,,,,,,,
69763,0,,,,,,,,0.02,-0.05,-0.13,-0,-2,-1,0.05,0,,,,,,,,,,,,,,,,,
69803,0,,,,,,,,0.14,-0.07,0.27,-1,5,-7,0.15,0,,,,,,,,,,,,,,,,,
69843,0,-0,2,46,52,32,36,0,0.12,-0.04,0.2,-0,-9,7,0.13,0,0,0.0,0.0,0.0,0.0,0,0,0.0,0,0.0,-1,0.0,0.0,0.0,0,0.0,1.164
69883,0,,,,,,,,-0.03,-0.06,-0.22,-0,-9,8,0.06,0,,,,,,,,,,,,,,,,,
69923,0,,,,,,,,0.06,-0.03,0.2,-0,9,-9,0.06,0,,,,,,,,,,,,,,,,,
69963,0,,,,,,,,0.23,0.01,0.54,-1,6,-4,0.23,0,,,,,,,,,,,,,,,,,
70003,0,,,,,,,,0.09,-0.05,0.06,-0,-10,9,0.1,0,,,,,,,,,,,,,,,,,
70043,0,1,1,46,52,32,36,-0,-0.04,-0.06,0.07,-0,-3,2,0.08,0,0,0.0,0.0,0.0,0.0,0,0,0.0,0,0.0,-1,0.0,0.0,0.0,0,0.0,1.1674
70083,0,,,,,,,,0.13,-0.05,0.43,-1,8,-7,0.13,0,,,,,,,,,,,,,,,,,
70123,0,,,,,,,,0.12,0.0,0.33,-0,-4,3,0.12,0,,,,,,,,,,,,,,,,,
70163,0,,,,,,,,-0.04,-0.0,-0.11,-0,-12,10,0.04,0,,,,,,,,,,,,,,,,,
70203,0,,,,,,,,0.02,0.02,0.29,-0,4,-6,0.03,0,,,,,,,,,,,,,,,,,
70243,0,-1,2,46,52,32,36,-0,0.12,0.07,0.27,-1,-0,-1,0.14,0,0,0.0,0.0,0.0,0.0,0,0,0.0,0,0.0,-1,0.0,0.0,0.0,0,0.0,1.1707
70283,0,,,,,,,,-0.01,0.03,-0.16,-1,-13,11,0.03,0,,,,,,,,,,,,,,,,,
70323,0,,,,,,,,-0.02,-0.02,-0.11,-1,-1,0,0.03,0,,,,,,,,,,,,,,,,,
70363,0,,,,,,,,0.08,-0.05,0.29,-0,12,-9,0.09,0,,,,,,,,,,,,,,,,,
70403,0,,,,,,,,0.09,-0.01,0.21,0,7,-2,0.09,0,,,,,,,,,,,,,,,,,
70443,0,-1,2,46,52,32,36,-0,0.03,0.03,-0.21,0,-9,10,0.04,0,0,0.0,0.0,0.0,0.0,0,0,0.0,0,0.0,-1,0.0,0.0,0.0,0,0.0,1.174
70483,0,,,,,,,,0.06,0.03,-0.15,0,1,-1,0.07,0,,,,,,,,,,,,,,,,,
70523,0,,,,,,,,0.19,0.03,0.26,-0,7,-5,0.19,0,,,,,,,,,,,,,,,,,
70563,0,,,,,,,,-0.0,-0.02,-0.17,0,-11,8,0.02,0,,,,,,,,,,,,,,,,,
70603,0,,,,,,,,0.15,0.0,0.24,-1,3,-2,0.15,0,,,,,,,,,,,,,,,,,
70643,0,0,1,46,52,32,36,-0,0.01,-0.03,0.17,-1,0,1,0.04,0,0,0.0,0.0,0.0,0.0,0,0,0.0,0,0.0,-1,0.0,0.0,0.0,0,0.0,1.1774
70683,0,,,,,,,,-0.02,-0.01,0.12,-1,-7,7,0.03,0,,,,,,,,,,,,,,,,,
70723,0,,,,,,,,-0.04,0.03,0.07,-1,-5,9,0.05,0,,,,,,,,,,,,,,,,,
70763,0,,,,,,,,0.01,0.0,0.29,-1,7,4,0.01,0,,,,,,,,,,,,,,,,,
70803,0,,,,,,,,-0.05,0.06,0.25,0,-10,12,0.08,0,,,,,,,,,,,,,,,,,
70843,0,0,2,46,52,32,36,-1,0.34,0.16,0.59,-0,7,-2,0.38,0,0,0.0,0.0,0.0,0.0,0,0,0.0,0,0.0,-1,0.0,0.0,0.0,0,0.0,1.1807
70883,0,,,,,,,,0.5,0.21,0.85,-0,10,-4,0.54,0,,,,,,,,,,,,,,,,,
70923,0,,,,,,,,0.4,0.14,0.71,-0,9,-4,0.42,0,,,,,,,,,,,,,,,,,
70963,0,,,,,,,,0.34,0.1,0.75,-0,8,-4,0.36,0,,,,,,,,,,,,,,,,,
71003,0,,,,,,,,0.23,0.08,0.73,-0,0,-2,0.25,0,,,,,,,,,,,,,,,,,
71043,0,-1,2,46,52,32,36,-0,0.19,-0.01,0.8,-0,11,-4,0.19,0,0,0.0,0.0,0.0,0.0,0,0,0.0,0,0.0,-1,0.0,0.0,0.0,0,0.0,1.184
71083,0,,,,,,,,-0.11,0.01,0.96,-0,-14,1,0.11,0,,,,,,,,,,,,,,,,,
71123,0,,,,,,,,0.26,0.03,0.6,-0,-6,1,0.26,0,,,,,,,,,,,,,,,,,
71163,0,,,,,,,,0.59,-0.08,0.1,-0,36,-2,0.6,0,,,,,,,,,,,,,,,,,
71203,0,,,,,,,,0.85,-0.12,-0.3,0,73,-7,0.86,0,,,,,,,,,,,,,,,,,
71243,0,1,1,46,52,32,36,-0,0.4,-0.09,0.14,0,64,-6,0.41,0,0,0.0,0.0,0.0,0.0,0,0,0.0,0,0.0,-1,0.0,0.0,0.0,0,0.0,1.1874
71283,0,,,,,,,,0.42,-0.02,0.49,0,43,-5,0.42,0,,,,,,,,,,,,,,,,,
71323,0,,,,,,,,0.18,-0.04,0.44,0,32,-2,0.18,0,,,,,,,,,,,,,,,,,
71363,0,,,,,,,,0.18,-0.03,0.52,0,27,-2,0.19,0,,,,,,,,,,,,,,,,,
71403,0,,,,,,,,0.22,-0.01,0.65,0,20,-1,0.22,0,,,,,,,,,,,,,,,,,
71443,0,-1,2,46,52,32,35,-0,0.15,-0.02,0.54,0,21,-6,0.15,0,0,0.0,0.0,0.0,0.0,0,0,0.0,0,0.0,-1,0.0,0.0,0.0,0,0.0,1.1907
71483,0,,,,,,,,0.46,0.08,0.82,0,18,-3,0.47,0,,,,,,,,,,,,,,,,,
71523,0,,,,,,,,0.76,0.16,1.04,-0,17,-1,0.77,0,,,,,,,,,,,,,,,,,
71563,0,,,,,,,,0.52,0.02,0.46,-0,5,1,0.52,0,,,,,,,,,,,,,,,,,
71603,0,,,,,,,,0.52,-0.03,0.4,0,24,-9,0.52,0,,,,,,,,,,,,,,,,,
71643,0,0,1,46,52,32,35,-0,0.5,-0.03,0.7,0,19,-5,0.51,0,0,0.0,0.0,0.0,0.0,0,0,0.0,0,0.0,-1,0.0,0.0,0.0,0,0.0,1.194
71683,0,,,,,,,,0.46,-0.03,0.55,0,14,-4,0.46,0,,,,,,,,,,,,,,,,,
71723,0,,,,,,,,0.46,-0.03,0.42,1,12,-3,0.46,0,,,,,,,,,,,,,,,,,
71763,0,,,,,,,,0.33,-0.02,0.04,0,3,-3,0.33,0,,,,,,,,,,,,,,,,,
71803,0,,,,,,,,0.14,0.01,0.04,0,-2,-3,0.14,0,,,,,,,,,,,,,,,,,
71843,0,0,0,46,52,32,35,-0,-0.05,0.01,-0.21,0,-6,-1,0.05,0,0,0.0,0.0,0.0,0.0,0,0,0.0,0,0.0,-1,0.0,0.0,0.0,0,0.0,1.1974
71883,0,,,,,,,,-0.1,0.05,-0.14,0,-6,-4,0.11,0,,,,,,,,,,,,,,,,,
71923,0,,,,,,,,-0.1,-0.03,-0.17,0,-1,-4,0.11,0,,,,,,,,,,,,,,,,,
71963,0,,,,,,,,-0.06,-0.03,-0.12,-0,1,-4,0.07,0,,,,,,,,,,,,,,,,,
72003,0,,,,,,,,-0.13,-0.02,-0.24,-0,9,-12,0.13,0,,,,,,,,,,,,,,,,,
72043,0,-0,2,47,52,32,35,0,0.12,-0.02,0.18,0,20,-20,0.12,0,0,0.0,0.0,0.0,0.0,0,0,0.0,0,0.0,-1,0.0,0.0,0.0,0,0.0,1.2007
72083,0,,,,,,,,0.13,-0.02,0.17,0,23,-22,0.13,0,,,,,,,,,,,,,,,,,
72123,0,,,,,,,,0.38,-0.0,0.15,0,21,-19,0.38,0,,,,,,,,,,,,,,,,,
72163,0,,,,,,,,0.31,-0.01,0.14,1,24,-18,0.31,0,,,,,,,,,,,,,,,,,
72203,0,,,,,,,,0.12,-0.09,0.14,-1,21,-19,0.15,0,,,,,,,,,,,,,,,,,
72243,0,-1,2,47,52,32,36,-0,-0.03,-0.17,-0.27,-2,8,-8,0.17,0,0,0.0,0.0,0.0,0.0,0,0,0.0,0,0.0,-1,0.0,0.0,0.0,0,0.0,1.2041
72283,0,,,,,,,,0.13,-0.12,-0.24,-2,-2,-2,0.18,0,,,,,,,,,,,,,,,,,
72323,0,,,,,,,,-0.1,-0.18,-0.17,-2,-2,-5,0.21,0,,,,,,,,,,,,,,,,,
72363,0,,,,,,,,-0.04,-0.03,0.24,-1,13,-18,0.05,0,,,,,,,,,,,,,,,,,
72403,0,,,,,,,,0.04,-0.06,0.57,-1,23,-26,0.07,0,,,,,,,,,,,,,,,,,
72443,0,-1,2,47,52,32,36,-1,-0.02,-0.1,0.44,-1,20,-22,0.1,0,0,0.0,0.0,0.0,0.0,0,0,0.0,0,0.0,-1,0.0,0.0,0.0,0,0.0,1.2074
72483,0,,,,,,,,-0.02,-0.03,0.38,0,17,-19,0.04,0,,,,,,,,,,,,,,,,,
72523,0,,,,,,,,-0.05,-0.04,0.33,0,10,-15,0.07,0,,,,,,,,,,,,,,,,,
72563,0,,,,,,,,-0.03,-0.1,0.1,0,10,-8,0.11,0,,,,,,,,,,,,,,,,,
72603,0,,,,,,,,0.08,-0.07,-0.05,0,14,-5,0.11,0,,,,,,,,,,,,,,,,,
72643,0,0,0,47,52,32,36,-0,0.15,-0.12,-0.38,0,17,-1,0.19,0,0,0.0,0.0,0.0,0.0,0,0,0.0,0,0.0,-1,0.0,0.0,0.0,0,0.0,1.2107
72683,0,,,,,,,,0.2,-0.13,-0.29,1,21,-4,0.23,0,,,,,,,,,,,,,,,,,
72723,0,,,,,,,,0.15,-0.08,-0.25,1,19,-2,0.17,0,,,,,,,,,,,,,,,,,
72763,0,,,,,,,,0.0,-0.08,-0.11,0,12,-1,0.08,0,,,,,,,,,,,,,,,,,
72803,0,,,,,,,,0.05,-0.06,0.25,0,9,-5,0.08,0,,,,,,,,,,,,,,,,,
72843,0,0,0,46,52,32,36,-0,0.1,-0.03,0.57,0,5,-4,0.1,0,0,0.0,0.0,0.0,0.0,0,0,0.0,0,0.0,-1,0.0,0.0,0.0,0,0.0,1.2141
72883,0,,,,,,,,0.2,-0.04,0.84,0,6,-6,0.2,0,,,,,,,,,,,,,,,,,
72923,0,,,,,,,,0.25,-0.02,1.06,0,9,-10,0.25,0,,,,,,,,,,,,,,,,,
72963,0,,,,,,,,0.17,-0.03,0.72,0,3,-6,0.17,0,,,,,,,,,,,,,,,,,
73003,0,,,,,,,,0.01,-0.01,0.45,1,-8,-0,0.02,0,,,,,,,,,,,,,,,,,
73043,0,-0,2,47,52,32,36,0,-0.05,-0.0,0.74,1,-7,-5,0.05,0,0,0.0,0.0,0.0,0.0,0,0,0.0,0,0.0,-1,0.0,0.0,0.0,0,0.0,1.2174
73083,0,,,,,,,,0.0,-0.02,0.62,1,-1,-2,0.02,0,,,,,,,,,,,,,,,,,
73123,0,,,,,,,,0.06,0.02,0.52,1,3,-4,0.06,0,,,,,,,,,,,,,,,,,
73163,0,,,,,,,,0.11,0.05,0.44,-0,-0,-1,0.12,0,,,,,,,,,,,,,,,,,
73203,0,,,,,,,,0.11,-0.01,0.74,-0,11,-12,0.11,0,,,,,,,,,,,,,,,,,
73243,0,0,2,47,52,32,36,0,0.21,-0.05,0.98,-0,17,-20,0.22,0,0,0.0,0.0,0.0,0.0,0,0,0.0,0,0.0,-1,0.0,0.0,0.0,0,0.0,1.2207
73283,0,,,,,,,,0.3,-0.05,1.17,-0,25,-26,0.3,0,,,,,,,,,,,,,,,,,
73323,0,,,,,,,,0.17,-0.09,0.57,-0,27,-30,0.19,0,,,,,,,,,,,,,,,,,
73363,0,,,,,,,,0.1,-0.04,0.08,-0,20,-23,0.11,0,,,,,,,,,,,,,,,,,
73403,0,,,,,,,,0.08,0.03,0.08,-0,8,-10,0.08,0,,,,,,,,,,,,,,,,,
73443,0,1,2,46,52,32,36,-1,0.02,-0.03,0.05,-0,13,-13,0.03,0,0,0.0,0.0,0.0,0.0,0,0,0.0,0,0.0,-1,0.0,0.0,0.0,0,0.0,1.2241
73483,0,,,,,,,,-0.07,0.02,0.02,-0,11,-8,0.07,0,,,,,,,,,,,,,,,,,
73523,0,,,,,,,,0.04,0.03,-0.13,0,11,-7,0.05,0,,,,,,,,,,,,,,,,,
73563,0,,,,,,,,0.14,-0.02,-0.09,-0,14,-8,0.14,0,,,,,,,,,,,,,,,,,
73603,0,,,,,,,,0.07,-0.07,-0.05,0,11,-6,0.1,0,,,,,,,,,,,,,,,,,
73643,0,-1,2,47,52,32,36,-0,0.09,-0.02,0.06,0,11,-7,0.09,0,0,0.0,0.0,0.0,0.0,0,0,0.0,0,0.0,-1,0.0,0.0,0.0,0,0.0,1.2274
73683,0,,,,,,,,0.06,-0.12,0.04,0,10,-5,0.13,0,,,,,,,,,,,,,,,,,
73723,0,,,,,,,,0.06,-0.09,0.39,0,13,-9,0.11,0,,,,,,,,,,,,,,,,,
73763,0,,,,,,,,0.06,-0.07,0.09,0,12,-7,0.09,0,,,,,,,,,,,,,,,,,
73803,0,,,,,,,,0.06,-0.05,0.21,0,8,-7,0.08,0,,,,,,,,,,,,,,,,,
73843,0,0,3,46,52,32,36,-1,0.18,-0.03,0.55,1,11,-8,0.18,0,0,0.0,0.0,0.0,0.0,0,0,0.0,0,0.0,-1,0.0,0.0,0.0,0,0.0,1.2307
73883,0,,,,,,,,0.03,0.02,0.46,0,8,-5,0.04,0,,,,,,,,,,,,,,,,,
73923,0,,,,,,,,0.12,0.0,0.48,0,3,-2,0.12,0,,,,,,,,,,,,,,,,,
73963,0,,,,,,,,0.14,-0.02,0.52,0,5,-2,0.14,0,,,,,,,,,,,,,,,,,
74003,0,,,,,,,,0.14,-0.02,0.8,0,10,-3,0.15,0,,,,,,,,,,,,,,,,,
74043,0,-1,2,47,52,32,36,-0,0.14,-0.07,0.28,1,12,1,0.15,0,0,0.0,0.0,0.0,0.0,0,0,0.0,0,0.0,-1,0.0,0.0,0.0,0,0.0,1.2341
74083,0,,,,,,,,0.26,-0.03,0.47,1,15,-1,0.26,0,,,,,,,,,,,,,,,,,
74123,0,,,,,,,,0.2,-0.05,0.35,0,6,1,0.21,0,,,,,,,,,,,,,,,,,
74163,0,,,,,,,,0.13,-0.03,0.55,0,-3,1,0.14,0,,,,,,,,,,,,,,,,,
74203,0,,,,,,,,0.19,-0.11,0.68,0,-4,-0,0.22,0,,,,,,,,,,,,,,,,,
74243,0,1,2,46,52,32,36,-0,0.19,-0.13,0.8,0,-4,-2,0.23,0,0,0.0,0.0,0.0,0.0,0,0,0.0,0,0.0,-1,0.0,0.0,0.0,0,0.0,1.2374
74283,0,,,,,,,,0.15,-0.04,0.62,1,-0,-1,0.15,0,,,,,,,,,,,,,,,,,
74323,0,,,,,,,,0.24,-0.05,0.52,1,-1,-2,0.25,0,,,,,,,,,,,,,,,,,
74363,0,,,,,,,,0.25,-0.08,0.58,1,-0,-0,0.27,0,,,,,,,,,,,,,,,,,
74403,0,,,,,,,,0.23,-0.23,0.77,1,-0,-2,0.32,0,,,,,,,,,,,,,,,,,
74443,0,1,2,46,52,32,36,-0,0.1,-0.17,0.24,1,-6,2,0.2,0,0,0.0,0.0,0.0,0.0,0,0,0.0,0,0.0,-1,0.0,0.0,0.0,0,0.0,1.2407
74483,0,,,,,,,,-0.12,0.01,-0.19,1,-9,4,0.13,0,,,,,,,,,,,,,,,,,
74523,0,,,,,,,,-0.27,0.2,-0.29,1,-5,5,0.34,0,,,,,,,,,,,,,,,,,
74563,0,,,,,,,,-0.2,0.26,0.03,1,4,2,0.32,0,,,,,,,,,,,,,,,,,
74603,0,,,,,,,,-0.15,0.18,0.4,1,12,-2,0.23,0,,,,,,,,,,,,,,,,,
74643,0,-0,2,47,52,32,36,0,0.04,0.04,0.7,1,19,-7,0.06,0,0,0.0,0.0,0.0,0.0,0,0,0.0,0,0.0,-1,0.0,0.0,0.0,0,0.0,1.2441
74683,0,,,,,,,,0.18,0.01,0.74,0,20,-8,0.18,0,,,,,,,,,,,,,,,,,
74723,0,,,,,,,,0.29,0.14,0.87,-0,16,-5,0.32,0,,,,,,,,,,,,,,,,,
74763,0,,,,,,,,0.31,0.21,1.08,-1,9,-1,0.37,0,,,,,,,,,,,,,,,,,
74803,0,,,,,,,,0.31,0.2,0.66,-1,3,2,0.37,0,,,,,,,,,,,,,,,,,
74843,0,0,1,47,52,32,36,0,0.1,0.12,0.16,-0,-6,6,0.15,0,0,0.0,0.0,0.0,0.0,0,0,0.0,0,0.0,-1,0.0,0.0,0.0,0,0.0,1.2474
74883,0,,,,,,,,0.06,0.05,0.51,-0,-4,4,0.08,0,,,,,,,,,,,,,,,,,
74923,0,,,,,,,,0.12,0.02,0.66,0,-1,2,0.12,0,,,,,,,,,,,,,,,,,
74963,0,,,,,,,,0.02,-0.12,0.51,0,-3,2,0.12,0,,,,,,,,,,,,,,,,,
75003,0,,,,,,,,0.02,-0.03,0.08,1,-1,0,0.03,0,,,,,,,,,,,,,,,,,
75043,0,0,2,47,52,32,36,-0,0.04,-0.04,-0.09,1,2,-4,0.05,0,0,0.0,0.0,0.0,0.0,0,0,0.0,0,0.0,-1,0.0,0.0,0.0,0,0.0,1.2507
75083,0,,,,,,,,0.08,0.0,-0.17,1,5,-7,0.08,0,,,,,,,,,,,,,,,,,
75123,0,,,,,,,,0.02,0.07,-0.52,1,3,-4,0.07,0,,,,,,,,,,,,,,,,,
75163,0,,,,,,,,0.13,0.08,-0.29,0,-0,-1,0.15,0,,,,,,,,,,,,,,,,,
75203,0,,,,,,,,0.21,0.02,-0.04,1,5,-5,0.21,0,,,,,,,,,,,,,,,,,
75243,0,-0,2,47,53,32,36,0,0.26,-0.04,0.04,1,3,-1,0.26,0,0,0.0,0.0,0.0,0.0,0,0,0.0,0,0.0,-1,0.0,0.0,0.0,0,0.0,1.2541
75283,0,,,,,,,,0.27,-0.03,0.37,0,3,-4,0.28,0,,,,,,,,,,,,,,,,,
75323,0,,,,,,,,0.18,0.01,0.22,0,-0,1,0.18,0,,,,,,,,,,,,,,,,,
75363,0,,,,,,,,0.19,0.1,-0.2,0,-5,5,0.21,0,,,,,,,,,,,,,,,,,
75403,0,,,,,,,,0.21,0.12,-0.39,-0,-9,8,0.24,0,,,,,,,,,,,,,,,,,
75443,0,0,2,48,53,31,35,1,0.27,0.17,-0.33,-0,-5,5,0.32,0,0,0.0,0.0,0.0,0.0,0,0,0.0,0,0.0,-1,0.0,0.0,0.0,0,0.0,1.2574
75483,0,,,,,,,,0.2,0.13,-0.29,0,-6,5,0.23,0,,,,,,,,,,,,,,,,,
75523,0,,,,,,,,0.2,0.13,-0.14,1,-1,2,0.24,0,,,,,,,,,,,,,,,,,
75563,0,,,,,,,,0.25,0.07,0.26,1,-3,1,0.26,0,,,,,,,,,,,,,,,,,
75603,0,,,,,,,,0.21,0.06,-0.17,1,-3,3,0.22,0,,,,,,,,,,,,,,,,,
75643,0,0,1,49,54,31,35,1,0.2,0.12,0.08,0,6,-3,0.23,0,0,0.0,0.0,0.0,0.0,0,0,0.0,0,0.0,-1,0.0,0.0,0.0,0,0.0,1.2607
75683,0,,,,,,,,0.47,0.12,0.44,0,10,-6,0.49,0,,,,,,,,,,,,,,,,,
75723,0,,,,,,,,0.6,0.04,0.56,0,6,-1,0.6,0,,,,,,,,,,,,,,,,,
75763,0,,,,,,,,0.64,0.15,0.73,0,-2,1,0.66,0,,,,,,,,,,,,,,,,,
75803,0,,,,,,,,0.51,0.04,0.54,0,-4,2,0.52,0,,,,,,,,,,,,,,,,,
75843,0,1,2,50,56,29,34,3,0.6,-0.02,0.67,0,-2,1,0.6,0,0,0.0,0.0,0.0,0.0,0,0,0.0,0,0.0,-1,0.0,0.0,0.0,0,0.0,1.264
75883,0,,,,,,,,0.71,-0.02,0.56,-0,-2,-1,0.71,0,,,,,,,,,,,,,,,,,
75923,0,,,,,,,,0.7,0.08,0.59,-0,-2,-2,0.71,0,,,,,,,,,,,,,,,,,
75963,0,,,,,,,,0.78,-0.06,0.86,0,1,-3,0.79,0,,,,,,,,,,,,,,,,,
76003,0,,,,,,,,0.76,-0.1,0.82,0,0,-1,0.77,0,,,,,,,,,,,,,,,,,
76043,0,-1,2,53,58,27,31,5,0.72,-0.03,0.64,1,-5,1,0.72,0,0,0.0,0.0,0.0,0.0,0,0,0.0,0,0.0,-1,0.0,0.0,0.0,0,0.0,1.2674
76083,0,,,,,,,,0.56,-0.01,0.13,1,-15,11,0.56,0,,,,,,,,,,,,,,,,,
76123,0,,,,,,,,0.43,0.01,0.09,0,-5,6,0.43,0,,,,,,,,,,,,,,,,,
76163,0,,,,,,,,0.49,-0.01,0.05,-0,5,4,0.49,0,,,,,,,,,,,,,,,,,
76203,0,,,,,,,,0.61,-0.02,0.06,-3,-11,10,0.61,0,,,,,,,,,,,,,,,,,
76243,0,-1,2,53,58,27,31,6,0.41,-0.13,-0.17,-2,-15,12,0.43,0,0,0.0,0.0,0.0,0.0,0,0,0.0,0,0.0,-1,0.0,0.0,0.0,0,0.0,1.2707
76283,0,,,,,,,,0.45,-0.08,-0.11,-5,-7,4,0.46,0,,,,,,,,,,,,,,,,,
76323,0,,,,,,,,0.61,-0.02,0.08,-3,0,-1,0.61,0,,,,,,,,,,,,,,,,,
76363,0,,,,,,,,0.6,0.06,-0.31,-1,-15,9,0.61,0,,,,,,,,,,,,,,,,,
76403,0,,,,,,,,0.58,0.15,-0.27,-1,-7,2,0.6,0,,,,,,,,,,,,,,,,,
76443,0,-0,2,53,58,26,30,6,0.79,0.19,-0.2,-3,-4,-4,0.81,0,0,0.0,0.0,0.0,0.0,0,0,0.0,0,0.0,-1,0.0,0.0,0.0,0,0.0,1.274
76483,0,,,,,,,,0.73,0.1,-0.14,-3,-15,5,0.74,0,,,,,,,,,,,,,,,,,
76523,0,,,,,,,,0.6,0.03,-0.14,-3,-13,1,0.6,0,,,,,,,,,,,,,,,,,
76563,0,,,,,,,,0.84,-0.0,-0.09,-2,-8,0,0.84,0,,,,,,,,,,,,,,,,,
76603,0,,,,,,,,0.77,0.06,-0.06,-3,8,-8,0.77,0,,,,,,,,,,,,,,,,,
76643,0,-1,2,52,58,28,31,10,0.76,-0.04,-0.03,-4,-1,-2,0.76,0,0,0.0,0.0,0.0,0.0,0,0,0.0,0,0.0,-1,0.0,0.0,0.0,0,0.0,1.2774
76683,0,,,,,,,,0.58,-0.17,-0.05,-4,-2,-0,0.61,0,,,,,,,,,,,,,,,,,
76723,0,,,,,,,,0.58,-0.16,-0.02,-5,-15,8,0.61,0,,,,,,,,,,,,,,,,,
76763,0,,,,,,,,0.79,-0.03,0.36,-5,-7,1,0.79,0,,,,,,,,,,,,,,,,,
76803,0,,,,,,,,0.92,0.09,0.67,-6,12,-12,0.93,0,,,,,,,,,,,,,,,,,
76843,0,0,1,51,57,28,32,11,0.57,-0.02,0.53,-6,1,-5,0.57,0,0,0.0,0.0,0.0,0.0,0,0,0.0,0,0.0,-1,0.0,0.0,0.0,0,0.0,1.2807
76883,0,,,,,,,,0.48,0.06,0.41,-6,-6,-0,0.48,0,,,,,,,,,,,,,,,,,
76923,0,,,,,,,,0.5,-0.0,0.31,-6,-6,-1,0.5,0,,,,,,,,,,,,,,,,,
76963,0,,,,,,,,0.63,-0.04,0.23,-7,-1,-4,0.64,0,,,,,,,,,,,,,,,,,
77003,0,,,,,,,,0.66,-0.1,0.37,-7,9,-5,0.67,0,,,,,,,,,,,,,,,,,
77043,0,1,2,51,55,30,32,11,0.49,-0.2,-0.08,-7,-10,9,0.53,0,0,0.0,0.0,0.0,0.0,0,0,0.0,0,0.0,-1,0.0,0.0,0.0,0,0.0,1.284
77083,0,,,,,,,,0.57,-0.2,0.32,-8,-8,5,0.6,0,,,,,,,,,,,,,,,,,
77123,0,,,,,,,,0.51,-0.18,-0.02,-8,-13,10,0.54,0,,,,,,,,,,,,,,,,,
77163,0,,,,,,,,0.45,-0.15,-0.17,-8,-13,11,0.48,0,,,,,,,,,,,,,,,,,
77203,0,,,,,,,,0.63,-0.22,0.24,-9,-3,1,0.67,0,,,,,,,,,,,,,,,,,
77243,0,0,2,51,59,29,32,9,0.59,-0.26,0.21,-9,-5,2,0.64,0,0,0.0,0.0,0.0,0.0,0,0,0.0,0,0.0,-1,0.0,0.0,0.0,0,0.0,1.2874
77283,0,,,,,,,,0.62,-0.24,0.19,-9,-3,5,0.66,0,,,,,,,,,,,,,,,,,
77323,0,,,,,,,,0.74,-0.31,0.3,-9,5,-0,0.81,0,,,,,,,,,,,,,,,,,
77363,0,,,,,,,,0.82,-0.27,0.5,-9,-2,2,0.86,0,,,,,,,,,,,,,,,,,
77403,0,,,,,,,,0.8,-0.37,0.56,-8,-9,6,0.88,0,,,,,,,,,,,,,,,,,
77443,0,-1,2,52,58,28,31,6,0.73,-0.28,0.47,-8,-10,3,0.78,0,0,0.0,0.0,0.0,0.0,0,0,0.0,0,0.0,-1,0.0,0.0,0.0,0,0.0,1.2907
77483,0,,,,,,,,0.73,-0.12,0.36,-7,-7,3,0.74,0,,,,,,,,,,,,,,,,,
77523,0,,,,,,,,0.89,-0.19,0.67,-7,-2,-3,0.91,0,,,,,,,,,,,,,,,,,
77563,0,,,,,,,,0.83,-0.19,0.36,-7,-5,-0,0.85,0,,,,,,,,,,,,,,,,,
77603,0,,,,,,,,0.81,-0.14,-0.09,-6,-6,1,0.82,0,,,,,,,,,,,,,,,,,
77643,0,1,2,51,58,27,31,4,0.76,-0.12,-0.06,-6,-5,3,0.77,0,0,0.0,0.0,0.0,0.0,0,0,0.0,0,0.0,-1,0.0,0.0,0.0,0,0.0,1.294
77683,0,,,,,,,,0.67,0.01,-0.43,-5,-8,8,0.67,0,,,,,,,,,,,,,,,,,
77723,0,,,,,,,,0.7,-0.09,-0.66,-4,-6,9,0.7,0,,,,,,,,,,,,,,,,,
77763,0,,,,,,,,0.78,-0.07,-0.51,-2,-1,6,0.78,0,,,,,,,,,,,,,,,,,
77803,0,,,,,,,,0.71,-0.11,-0.08,-1,-0,3,0.72,0,,,,,,,,,,,,,,,,,
77843,0,-1,2,51,54,27,31,2,0.74,-0.29,-0.04,-2,-7,6,0.79,0,0,0.0,0.0,0.0,0.0,0,0,0.0,0,0.0,-1,0.0,0.0,0.0,0,0.0,1.2974
77883,0,,,,,,,,0.72,-0.09,-0.14,-0,-4,4,0.73,0,,,,,,,,,,,,,,,,,
77923,0,,,,,,,,0.71,-0.2,-0.19,0,-5,4,0.74,0,,,,,,,,,,,,,,,,,
77963,0,,,,,,,,0.6,-0.08,0.05,1,1,2,0.6,0,,,,,,,,,,,,,,,,,
78003,0,,,,,,,,0.61,-0.07,0.42,1,1,3,0.61,0,,,,,,,,,,,,,,,,,
78043,0,0,2,50,52,28,33,3,0.49,-0.09,-0.04,1,-8,6,0.5,0,0,0.0,0.0,0.0,0.0,0,0,0.0,0,0.0,-1,0.0,0.0,0.0,0,0.0,1.3007
78083,0,,,,,,,,0.36,-0.13,-0.3,1,-5,4,0.38,0,,,,,,,,,,,,,,,,,
78123,0,,,,,,,,0.28,0.06,-0.26,2,-0,3,0.29,0,,,,,,,,,,,,,,,,,
78163,0,,,,,,,,0.17,0.2,-0.59,2,1,8,0.26,0,,,,,,,,,,,,,,,,,
78203,0,,,,,,,,0.17,0.14,-0.46,3,1,8,0.23,0,,,,,,,,,,,,,,,,,
78243,0,-1,1,47,51,30,35,0,0.26,0.28,-0.31,4,-4,6,0.38,0,0,0.0,0.0,0.0,0.0,0,0,0.0,0,0.0,-1,0.0,0.0,0.0,0,0.0,1.304
78283,0,,,,,,,,0.28,0.12,-0.45,5,-2,7,0.31,0,,,,,,,,,,,,,,,,,
78323,0,,,,,,,,0.43,0.22,-0.34,5,1,6,0.48,0,,,,,,,,,,,,,,,,,
78363,0,,,,,,,,0.61,0.28,-0.07,6,5,3,0.67,0,,,,,,,,,,,,,,,,,
78403,0,,,,,,,,0.61,0.22,-0.06,6,6,3,0.65,0,,,,,,,,,,,,,,,,,
78443,0,-1,0,48,51,28,36,-1,0.61,0.3,0.14,7,4,1,0.68,0,0,0.0,0.0,0.0,0.0,0,0,0.0,0,0.0,-1,0.0,0.0,0.0,0,0.0,1.3074
78483,0,,,,,,,,0.53,0.28,0.1,8,2,2,0.6,0,,,,,,,,,,,,,,,,,
78523,0,,,,,,,,0.46,0.2,0.1,8,1,-0,0.5,0,,,,,,,,,,,,,,,,,
78563,0,,,,,,,,0.42,0.17,-0.22,8,-1,4,0.45,0,,,,,,,,,,,,,,,,,
78603,0,,,,,,,,0.53,0.24,0.2,9,3,1,0.58,0,,,,,,,,,,,,,,,,,
78643,0,-1,2,48,48,29,35,2,0.49,0.34,0.14,9,-1,4,0.6,0,0,0.0,0.0,0.0,0.0,0,0,0.0,0,0.0,-1,0.0,0.0,0.0,0,0.0,1.3107
78683,0,,,,,,,,0.4,0.35,-0.24,9,-5,7,0.53,0,,,,,,,,,,,,,,,,,
78723,0,,,,,,,,0.37,0.39,-0.22,8,-5,7,0.54,0,,,,,,,,,,,,,,,,,
78763,0,,,,,,,,0.41,0.32,0.01,8,1,2,0.52,0,,,,,,,,,,,,,,,,,
78803,0,,,,,,,,0.39,0.4,0.03,8,-1,5,0.56,0,,,,,,,,,,,,,,,,,
78843,0,-1,1,49,51,30,35,-1,0.48,0.49,0.36,9,-1,4,0.69,0,0,0.0,0.0,0.0,0.0,0,0,0.0,0,0.0,-1,0.0,0.0,0.0,0,0.0,1.314
78883,0,,,,,,,,0.57,0.28,0.67,9,2,-2,0.63,0,,,,,,,,,,,,,,,,,
78923,0,,,,,,,,0.69,0.32,0.93,10,2,-2,0.76,0,,,,,,,,,,,,,,,,,
78963,0,,,,,,,,0.84,0.18,1.13,11,5,-5,0.86,0,,,,,,,,,,,,,,,,,
79003,0,,,,,,,,0.9,0.27,1.29,11,4,-6,0.94,0,,,,,,,,,,,,,,,,,
79043,0,1,2,48,50,29,36,1,0.82,0.3,1.26,11,1,-0,0.87,0,0,0.0,0.0,0.0,0.0,0,0,0.0,0,0.0,-1,0.0,0.0,0.0,0,0.0,1.3174
79083,0,,,,,,,,0.78,0.36,0.64,11,-0,3,0.86,0,,,,,,,,,,,,,,,,,
79123,0,,,,,,,,0.7,0.35,0.75,10,2,-1,0.79,0,,,,,,,,,,,,,,,,,
79163,0,,,,,,,,0.69,0.45,0.59,11,8,-3,0.82,0,,,,,,,,,,,,,,,,,
79203,0,,,,,,,,0.62,0.45,0.46,11,4,-2,0.76,0,,,,,,,,,,,,,,,,,
79243,0,0,1,49,52,27,36,-0,0.62,0.35,0.75,11,5,-2,0.71,0,0,0.0,0.0,0.0,0.0,0,0,0.0,0,0.0,-1,0.0,0.0,0.0,0,0.0,1.3207
79283,0,,,,,,,,0.62,0.52,0.63,10,6,-1,0.81,0,,,,,,,,,,,,,,,,,
79323,0,,,,,,,,0.6,0.49,0.71,10,2,0,0.78,0,,,,,,,,,,,,,,,,,
79363,0,,,,,,,,0.55,0.54,0.59,10,-1,-0,0.78,0,,,,,,,,,,,,,,,,,
79403,0,,,,,,,,0.62,0.54,0.78,12,1,-4,0.83,0,,,,,,,,,,,,,,,,,
79443,0,-1,2,45,46,32,41,3,0.6,0.45,0.81,13,-5,2,0.75,0,0,0.0,0.0,0.0,0.0,0,0,0.0,0,0.0,-1,0.0,0.0,0.0,0,0.0,1.324
79483,0,,,,,,,,0.66,0.54,0.62,12,-4,3,0.86,0,,,,,,,,,,,,,,,,,
79523,0,,,,,,,,0.46,0.52,0.55,11,-0,3,0.69,0,,,,,,,,,,,,,,,,,
79563,0,,,,,,,,0.3,0.55,0.47,9,0,1,0.62,0,,,,,,,,,,,,,,,,,
79603,0,,,,,,,,0.35,0.38,0.4,8,5,-1,0.52,0,,,,,,,,,,,,,,,,,
79643,0,1,0,44,47,34,39,3,0.4,0.24,0.34,7,6,-3,0.46,0,0,0.0,0.0,0.0,0.0,0,0,0.0,0,0.0,-1,0.0,0.0,0.0,0,0.0,1.3274
79683,0,,,,,,,,0.3,0.19,0.42,7,8,-3,0.36,0,,,,,,,,,,,,,,,,,
79723,0,,,,,,,,0.27,0.14,0.72,6,0,0,0.31,0,,,,,,,,,,,,,,,,,
79763,0,,,,,,,,0.25,0.17,0.56,5,-3,-0,0.3,0,,,,,,,,,,,,,,,,,
79803,0,,,,,,,,0.3,0.24,0.63,6,4,-4,0.38,0,,,,,,,,,,,,,,,,,
79843,0,1,3,43,46,30,37,-0,0.13,0.23,0.49,6,1,-1,0.26,0,0,0.0,0.0,0.0,0.0,0,0,0.0,0,0.0,-1,0.0,0.0,0.0,0,0.0,1.3307
79883,0,,,,,,,,0.09,0.22,0.78,7,5,-5,0.23,0,,,,,,,,,,,,,,,,,
79923,0,,,,,,,,0.04,0.25,0.25,7,1,-3,0.26,0,,,,,,,,,,,,,,,,,
79963,0,,,,,,,,-0.05,0.22,0.03,7,3,0,0.22,0,,,,,,,,,,,,,,,,,
80003,0,,,,,,,,-0.06,0.3,0.34,7,7,-2,0.3,0,,,,,,,,,,,,,,,,,
80043,0,16,14,39,38,38,45,1,-0.23,0.29,0.29,8,3,-1,0.37,0,0,0.0,0.0,0.0,0.0,0,0,0.0,0,0.0,-1,0.0,0.0,0.0,0,0.0,1.334
80083,0,,,,,,,,-0.39,0.18,-0.09,7,-2,5,0.43,0,,,,,,,,,,,,,,,,,
80123,0,,,,,,,,-0.54,0.31,-0.09,8,-2,-0,0.63,0,,,,,,,,,,,,,,,,,
80163,0,,,,,,,,-0.7,0.29,-0.05,9,0,2,0.76,0,,,,,,,,,,,,,,,,,
80203,0,,,,,,,,-0.6,0.21,-0.07,10,1,2,0.63,0,,,,,,,,,,,,,,,,,
80243,0,3,5,40,41,41,47,1,-0.5,0.29,0.19,11,4,1,0.57,0,0,0.0,0.0,0.0,0.0,0,0,0.0,0,0.0,-1,0.0,0.0,0.0,0,0.0,1.3374
80283,0,,,,,,,,-0.45,0.31,0.53,12,9,-9,0.55,0,,,,,,,,,,,,,,,,,
80323,0,,,,,,,,-0.4,0.32,0.81,13,16,-19,0.52,0,,,,,,,,,,,,,,,,,
80363,0,,,,,,,,-0.36,0.31,0.77,11,21,-21,0.47,0,,,,,,,,,,,,,,,,,
80403,0,,,,,,,,-0.34,0.37,0.65,9,21,-19,0.5,0,,,,,,,,,,,,,,,,,
80443,0,5,6,42,43,35,43,5,-0.41,0.43,0.54,6,20,-17,0.59,0,0,0.0,0.0,0.0,0.0,0,0,0.0,0,0.0,-1,0.0,0.0,0.0,0,0.0,1.3407
80483,0,,,,,,,,-0.4,0.31,0.46,4,15,-14,0.51,0,,,,,,,,,,,,,,,,,
80523,0,,,,,,,,-0.38,0.15,0.54,3,13,-11,0.41,0,,,,,,,,,,,,,,,,,
80563,0,,,,,,,,-0.27,0.04,0.41,2,3,-5,0.27,0,,,,,,,,,,,,,,,,,
80603,0,,,,,,,,-0.23,0.0,0.31,1,8,-7,0.23,0,,,,,,,,,,,,,,,,,
80643,0,5,4,39,44,35,41,-1,-0.42,0.09,0.27,2,9,-6,0.43,0,0,0.0,0.0,0.0,0.0,0,0,0.0,0,0.0,-1,0.0,0.0,0.0,0,0.0,1.344
80683,0,,,,,,,,-0.48,0.1,0.13,3,6,-2,0.49,0,,,,,,,,,,,,,,,,,
80723,0,,,,,,,,-0.24,0.13,0.48,5,12,-8,0.27,0,,,,,,,,,,,,,,,,,
80763,0,,,,,,,,-0.29,0.16,0.01,6,3,3,0.33,0,,,,,,,,,,,,,,,,,
80803,0,,,,,,,,-0.23,0.18,0.39,7,6,-5,0.29,0,,,,,,,,,,,,,,,,,
80843,0,5,5,40,43,33,41,-0,-0.3,0.13,-0.07,7,-7,4,0.33,0,0,0.0,0.0,0.0,0.0,0,0,0.0,0,0.0,-1,0.0,0.0,0.0,0,0.0,1.3474
80883,0,,,,,,,,-0.38,0.16,-0.43,7,-13,11,0.41,0,,,,,,,,,,,,,,,,,
80923,0,,,,,,,,-0.29,0.25,0.03,7,-5,3,0.38,0,,,,,,,,,,,,,,,,,
80963,0,,,,,,,,-0.13,0.25,0.4,6,6,-9,0.28,0,,,,,,,,,,,,,,,,,
81003,0,,,,,,,,-0.23,0.08,0.7,6,8,-10,0.24,0,,,,,,,,,,,,,,,,,
81043,0,14,13,40,43,37,42,-1,-0.21,0.12,0.95,5,15,-19,0.24,0,0,0.0,0.0,0.0,0.0,0,0,0.0,0,0.0,-1,0.0,0.0,0.0,0,0.0,1.3507
81083,0,,,,,,,,-0.3,0.22,0.75,6,3,-8,0.37,0,,,,,,,,,,,,,,,,,
81123,0,,,,,,,,-0.26,0.2,0.59,7,-0,-11,0.33,0,,,,,,,,,,,,,,,,,
81163,0,,,,,,,,-0.12,0.1,0.85,6,26,-20,0.15,0,,,,,,,,,,,,,,,,,
81203,0,,,,,,,,-0.12,0.07,0.8,7,28,-22,0.14,0,,,,,,,,,,,,,,,,,
81243,0,10,8,39,42,38,44,1,-0.26,0.12,0.66,8,17,-11,0.29,0,0,0.0,0.0,0.0,0.0,0,0,0.0,0,0.0,-1,0.0,0.0,0.0,0,0.0,1.3541
81283,0,,,,,,,,-0.25,0.13,0.3,8,14,-9,0.28,0,,,,,,,,,,,,,,,,,
81323,0,,,,,,,,-0.23,0.16,0.22,7,11,-8,0.28,0,,,,,,,,,,,,,,,,,
81363,0,,,,,,,,-0.33,0.25,0.16,6,3,-5,0.42,0,,,,,,,,,,,,,,,,,
81403,0,,,,,,,,-0.2,0.3,0.51,6,3,-5,0.36,0,,,,,,,,,,,,,,,,,
81443,0,5,6,40,45,36,42,-0,-0.21,0.32,0.43,6,3,-7,0.38,0,0,0.0,0.0,0.0,0.0,0,0,0.0,0,0.0,-1,0.0,0.0,0.0,0,0.0,1.3574
81483,0,,,,,,,,-0.27,0.19,0.33,5,1,-4,0.33,0,,,,,,,,,,,,,,,,,
81523,0,,,,,,,,-0.15,0.23,0.63,5,9,-9,0.27,0,,,,,,,,,,,,,,,,,
81563,0,,,,,,,,-0.13,0.18,0.13,4,-3,2,0.22,0,,,,,,,,,,,,,,,,,
81603,0,,,,,,,,-0.07,0.08,0.48,4,4,0,0.11,0,,,,,,,,,,,,,,,,,
81643,0,4,5,41,45,35,40,0,0.03,0.15,0.77,4,12,-5,0.15,0,0,0.0,0.0,0.0,0.0,0,0,0.0,0,0.0,-1,0.0,0.0,0.0,0,0.0,1.3607
81683,0,,,,,,,,0.08,0.18,1.0,4,16,-12,0.19,0,,,,,,,,,,,,,,,,,
81723,0,,,,,,,,-0.08,0.06,0.43,3,10,-6,0.1,0,,,,,,,,,,,,,,,,,
81763,0,,,,,,,,-0.06,-0.01,0.37,3,5,-2,0.06,0,,,,,,,,,,,,,,,,,
81803,0,,,,,,,,-0.08,-0.18,0.39,2,13,-11,0.2,0,,,,,,,,,,,,,,,,,
81843,0,5,5,41,46,35,40,2,-0.24,-0.15,-0.06,2,-2,0,0.28,0,0,0.0,0.0,0.0,0.0,0,0,0.0,0,0.0,-1,0.0,0.0,0.0,0,0.0,1.3641
81883,0,,,,,,,,-0.38,-0.08,-0.43,2,-8,3,0.39,0,,,,,,,,,,,,,,,,,
81923,0,,,,,,,,-0.39,-0.13,-0.1,1,3,-10,0.42,0,,,,,,,,,,,,,,,,,
81963,0,,,,,,,,-0.13,-0.19,0.3,1,15,-21,0.23,0,,,,,,,,,,,,,,,,,
82003,0,,,,,,,,-0.13,-0.17,0.62,-0,21,-28,0.21,0,,,,,,,,,,,,,,,,,
82043,0,3,3,40,47,36,40,4,-0.19,-0.12,0.35,-1,10,-19,0.23,0,0,0.0,0.0,0.0,0.0,0,0,0.0,0,0.0,-1,0.0,0.0,0.0,0,0.0,1.3674
82083,0,,,,,,,,-0.28,-0.09,0.26,-1,5,-17,0.29,0,,,,,,,,,,,,,,,,,
82123,0,,,,,,,,-0.31,-0.15,0.34,-2,7,-13,0.34,0,,,,,,,,,,,,,,,,,
82163,0,,,,,,,,-0.35,-0.07,0.26,-3,9,-7,0.36,0,,,,,,,,,,,,,,,,,
82203,0,,,,,,,,-0.22,-0.02,0.49,-3,6,-9,0.22,0,,,,,,,,,,,,,,,,,
82243,0,1,2,40,48,36,39,5,-0.27,0.15,0.41,-3,-1,-3,0.3,0,0,0.0,0.0,0.0,0.0,0,0,0.0,0,0.0,-1,0.0,0.0,0.0,0,0.0,1.3707
82283,0,,,,,,,,-0.32,0.22,0.32,-4,-6,0,0.39,0,,,,,,,,,,,,,,,,,
82323,0,,,,,,,,-0.24,0.21,0.63,-4,-5,-0,0.32,0,,,,,,,,,,,,,,,,,
82363,0,,,,,,,,-0.15,0.27,0.53,-4,-6,-1,0.3,0,,,,,,,,,,,,,,,,,
82403,0,,,,,,,,0.02,0.16,0.45,-3,1,-3,0.17,0,,,,,,,,,,,,,,,,,
82443,0,0,2,42,50,34,37,6,-0.01,-0.03,0.39,-4,-0,-3,0.03,0,0,0.0,0.0,0.0,0.0,0,0,0.0,0,0.0,-1,0.0,0.0,0.0,0,0.0,1.3741
82483,0,,,,,,,,-0.05,-0.0,0.27,-4,0,-1,0.05,0,,,,,,,,,,,,,,,,,
82523,0,,,,,,,,-0.16,0.03,0.28,-4,-3,1,0.17,0,,,,,,,,,,,,,,,,,
82563,0,,,,,,,,-0.17,-0.01,0.21,-4,-6,2,0.17,0,,,,,,,,,,,,,,,,,
82603,0,,,,,,,,-0.09,-0.01,0.33,-5,1,-3,0.1,0,,,,,,,,,,,,,,,,,
82643,0,2,2,42,50,34,37,6,-0.34,-0.02,0.01,-5,-4,1,0.34,0,0,0.0,0.0,0.0,0.0,0,0,0.0,0,0.0,-1,0.0,0.0,0.0,0,0.0,1.3774
82683,0,,,,,,,,-0.34,-0.05,0.39,-5,-9,-1,0.34,0,,,,,,,,,,,,,,,,,
82723,0,,,,,,,,-0.25,-0.12,-0.06,-6,-4,1,0.28,0,,,,,,,,,,,,,,,,,
82763,0,,,,,,,,-0.05,-0.13,0.33,-6,7,-4,0.14,0,,,,,,,,,,,,,,,,,
82803,0,,,,,,,,-0.11,-0.15,0.17,-6,4,-2,0.19,0,,,,,,,,,,,,,,,,,
82843,0,1,3,42,50,35,37,6,-0.39,-0.15,-0.11,-7,-2,1,0.41,0,0,0.0,0.0,0.0,0.0,0,0,0.0,0,0.0,-1,0.0,0.0,0.0,0,0.0,1.3807
82883,0,,,,,,,,-0.29,-0.21,0.05,-7,-3,1,0.35,0,,,,,,,,,,,,,,,,,
82923,0,,,,,,,,-0.23,-0.24,0.02,-7,3,1,0.34,0,,,,,,,,,,,,,,,,,
82963,0,,,,,,,,-0.25,-0.2,-0.01,-8,-0,2,0.32,0,,,,,,,,,,,,,,,,,
83003,0,,,,,,,,-0.46,-0.31,0.09,-9,-6,0,0.56,0,,,,,,,,,,,,,,,,,
83043,0,1,2,41,50,35,37,11,-0.37,-0.32,0.45,-10,-10,-1,0.49,0,0,0.0,0.0,0.0,0.0,0,0,0.0,0,0.0,-1,0.0,0.0,0.0,0,0.0,1.384
83083,0,,,,,,,,-0.19,-0.36,0.6,-11,-8,1,0.4,0,,,,,,,,,,,,,,,,,
83123,0,,,,,,,,-0.12,-0.36,0.43,-12,2,-1,0.38,0,,,,,,,,,,,,,,,,,
83163,0,,,,,,,,0.0,-0.46,0.05,-13,6,-5,0.46,0,,,,,,,,,,,,,,,,,
83203,0,,,,,,,,0.16,-0.56,0.08,-13,-0,-6,0.59,0,,,,,,,,,,,,,,,,,
83243,0,2,3,40,51,37,37,11,0.26,-0.63,0.27,-14,-3,-9,0.68,0,0,0.0,0.0,0.0,0.0,0,0,0.0,0,0.0,-1,0.0,0.0,0.0,0,0.0,1.3874
83283,0,,,,,,,,0.37,-0.6,0.51,-15,-7,-9,0.71,0,,,,,,,,,,,,,,,,,
83323,0,,,,,,,,0.36,-0.54,0.73,-16,-13,-5,0.65,0,,,,,,,,,,,,,,,,,
83363,0,,,,,,,,0.21,-0.49,0.74,-16,-17,-1,0.54,0,,,,,,,,,,,,,,,,,
83403,0,,,,,,,,0.01,-0.56,0.44,-16,-26,4,0.56,0,,,,,,,,,,,,,,,,,
83443,0,2,3,40,51,37,37,11,-0.13,-0.6,0.55,-17,-21,1,0.61,0,0,0.0,0.0,0.0,0.0,0,0,0.0,0,0.0,-1,0.0,0.0,0.0,0,0.0,1.3907
83483,0,,,,,,,,-0.23,-0.55,0.49,-17,-11,2,0.6,0,,,,,,,,,,,,,,,,,
83523,0,,,,,,,,-0.16,-0.58,0.42,-17,-3,2,0.61,0,,,,,,,,,,,,,,,,,
83563,0,,,,,,,,-0.15,-0.57,0.32,-17,-8,4,0.59,0,,,,,,,,,,,,,,,,,
83603,0,,,,,,,,-0.19,-0.49,0.64,-16,-10,2,0.52,0,,,,,,,,,,,,,,,,,
83643,0,4,2,40,51,36,37,9,-0.2,-0.49,0.54,-16,-0,1,0.53,0,0,0.0,0.0,0.0,0.0,0,0,0.0,0,0.0,-1,0.0,0.0,0.0,0,0.0,1.394
83683,0,,,,,,,,-0.32,-0.41,0.45,-15,-5,1,0.52,0,,,,,,,,,,,,,,,,,
83723,0,,,,,,,,-0.28,-0.43,0.39,-15,-6,3,0.51,0,,,,,,,,,,,,,,,,,
83763,0,,,,,,,,-0.31,-0.45,0.33,-14,-7,3,0.55,0,,,,,,,,,,,,,,,,,
83803,0,,,,,,,,-0.31,-0.4,0.29,-14,-2,-1,0.51,0,,,,,,,,,,,,,,,,,
83843,0,3,3,41,50,35,38,9,-0.27,-0.44,0.25,-13,-5,-0,0.51,0,0,0.0,0.0,0.0,0.0,0,0,0.0,0,0.0,-1,0.0,0.0,0.0,0,0.0,1.3974
83883,0,,,,,,,,-0.26,-0.41,0.22,-12,-2,-0,0.48,0,,,,,,,,,,,,,,,,,
83923,0,,,,,,,,-0.2,-0.37,0.2,-11,-3,0,0.42,0,,,,,,,,,,,,,,,,,
83963,0,,,,,,,,-0.14,-0.36,0.18,-11,-1,2,0.38,0,,,,,,,,,,,,,,,,,
84003,0,,,,,,,,-0.15,-0.29,0.07,-9,-4,4,0.32,0,,,,,,,,,,,,,,,,,
84043,0,2,3,43,49,34,38,1,-0.02,-0.27,0.03,-7,-4,3,0.27,0,0,0.0,0.0,0.0,0.0,0,0,0.0,0,0.0,-1,0.0,0.0,0.0,0,0.0,1.4007
84083,0,,,,,,,,0.07,-0.19,0.41,-6,-0,-2,0.21,0,,,,,,,,,,,,,,,,,
84123,0,,,,,,,,0.16,-0.03,0.35,-5,-4,4,0.16,0,,,,,,,,,,,,,,,,,
84163,0,,,,,,,,0.08,-0.08,0.26,-3,1,-3,0.11,0,,,,,,,,,,,,,,,,,
84203,0,,,,,,,,-0.07,0.0,-0.17,-2,-9,7,0.07,0,,,,,,,,,,,,,,,,,
84243,0,9,7,43,48,34,39,-1,-0.1,0.11,0.24,-1,-7,6,0.15,0,0,0.0,0.0,0.0,0.0,0,0,0.0,0,0.0,-1,0.0,0.0,0.0,0,0.0,1.404
84283,0,,,,,,,,-0.09,0.05,0.58,0,3,-2,0.11,0,,,,,,,,,,,,,,,,,
84323,0,,,,,,,,-0.03,-0.02,0.85,1,17,-13,0.03,0,,,,,,,,,,,,,,,,,
84363,0,,,,,,,,0.02,-0.09,1.06,1,21,-21,0.09,0,,,,,,,,,,,,,,,,,
84403,0,,,,,,,,0.02,-0.12,1.24,2,30,-27,0.12,0,,,,,,,,,,,,,,,,,
84443,0,10,8,43,45,36,40,5,0.07,-0.15,0.99,1,25,-21,0.16,0,0,0.0,0.0,0.0,0.0,0,0,0.0,0,0.0,-1,0.0,0.0,0.0,0,0.0,1.4074
84483,0,,,,,,,,-0.18,-0.24,0.42,0,12,-9,0.3,0,,,,,,,,,,,,,,,,,
84523,0,,,,,,,,-0.07,-0.15,0.32,0,18,-14,0.17,0,,,,,,,,,,,,,,,,,
84563,0,,,,,,,,-0.21,-0.17,0.28,-1,18,-15,0.27,0,,,,,,,,,,,,,,,,,
84603,0,,,,,,,,-0.36,-0.15,0.2,-2,-0,-2,0.39,0,,,,,,,,,,,,,,,,,
84643,0,7,7,42,49,36,39,11,-0.21,-0.14,0.22,-4,6,-9,0.26,0,0,0.0,0.0,0.0,0.0,0,0,0.0,0,0.0,-1,0.0,0.0,0.0,0,0.0,1.4107
84683,0,,,,,,,,-0.25,-0.12,0.19,-7,5,-7,0.28,0,,,,,,,,,,,,,,,,,
84723,0,,,,,,,,-0.26,-0.17,0.18,-6,7,-9,0.3,0,,,,,,,,,,,,,,,,,
84763,0,,,,,,,,-0.22,-0.26,0.16,-8,5,-12,0.34,0,,,,,,,,,,,,,,,,,
84803,0,,,,,,,,-0.16,-0.32,0.15,-10,-3,-6,0.35,0,,,,,,,,,,,,,,,,,
84843,0,10,10,42,51,37,40,13,-0.35,-0.43,-0.26,-12,-15,3,0.55,0,0,0.0,0.0,0.0,0.0,0,0,0.0,0,0.0,-1,0.0,0.0,0.0,0,0.0,1.414
84883,0,,,,,,,,-0.33,-0.3,-0.23,-12,-5,-4,0.44,0,,,,,,,,,,,,,,,,,
84923,0,,,,,,,,-0.14,-0.35,-0.17,-14,-8,-3,0.38,0,,,,,,,,,,,,,,,,,
84963,0,,,,,,,,-0.39,-0.24,-0.16,-14,-11,-1,0.46,0,,,,,,,,,,,,,,,,,
85003,0,,,,,,,,-0.45,-0.32,-0.51,-13,-27,10,0.56,0,,,,,,,,,,,,,,,,,
85043,0,10,10,41,50,37,39,11,-0.54,-0.32,-0.79,-13,-33,17,0.63,0,0,0.0,0.0,0.0,0.0,0,0,0.0,0,0.0,-1,0.0,0.0,0.0,0,0.0,1.4174
85083,0,,,,,,,,-0.76,-0.27,-1.02,-12,-33,16,0.8,0,,,,,,,,,,,,,,,,,
85123,0,,,,,,,,-0.44,-0.13,-0.45,-11,-19,10,0.46,0,,,,,,,,,,,,,,,,,
85163,0,,,,,,,,-0.32,-0.12,-0.38,-9,-20,13,0.34,0,,,,,,,,,,,,,,,,,
85203,0,,,,,,,,-0.57,-0.17,-0.6,-8,-13,6,0.59,0,,,,,,,,,,,,,,,,,
85243,0,12,8,42,47,36,40,1,-0.44,-0.02,-0.1,-6,0,-1,0.44,0,0,0.0,0.0,0.0,0.0,0,0,0.0,0,0.0,-1,0.0,0.0,0.0,0,0.0,1.4207
85283,0,,,,,,,,-0.04,0.15,0.3,-5,5,-1,0.16,0,,,,,,,,,,,,,,,,,
85323,0,,,,,,,,0.15,0.14,0.56,-3,-9,8,0.2,0,,,,,,,,,,,,,,,,,
85363,0,,,,,,,,0.13,0.19,0.43,-2,-13,8,0.23,0,,,,,,,,,,,,,,,,,
85403,0,,,,,,,,0.12,0.12,0.34,-1,-13,8,0.17,0,,,,,,,,,,,,,,,,,
85443,0,7,8,43,49,35,39,-0,-0.0,0.16,0.34,-0,-10,7,0.16,0,0,0.0,0.0,0.0,0.0,0,0,0.0,0,0.0,-1,0.0,0.0,0.0,0,0.0,1.424
85483,0,,,,,,,,-0.12,0.21,0.36,0,-7,6,0.24,0,,,,,,,,,,,,,,,,,
85523,0,,,,,,,,-0.15,0.19,0.48,1,-6,5,0.24,0,,,,,,,,,,,,,,,,,
85563,0,,,,,,,,-0.17,0.2,0.3,2,-6,4,0.26,0,,,,,,,,,,,,,,,,,
85603,0,,,,,,,,-0.2,0.2,0.3,2,-8,4,0.29,0,,,,,,,,,,,,,,,,,
85643,0,11,9,43,49,34,40,-3,-0.3,0.11,0.3,3,0,3,0.32,0,0,0.0,0.0,0.0,0.0,0,0,0.0,0,0.0,-1,0.0,0.0,0.0,0,0.0,1.4274
85683,0,,,,,,,,-0.08,0.15,0.54,3,-6,4,0.17,0,,,,,,,,,,,,,,,,,
85723,0,,,,,,,,-0.37,0.1,0.56,4,-0,3,0.39,0,,,,,,,,,,,,,,,,,
85763,0,,,,,,,,-0.32,0.19,0.83,5,-16,5,0.37,0,,,,,,,,,,,,,,,,,
85803,0,,,,,,,,-0.18,0.25,0.81,8,2,0,0.31,0,,,,,,,,,,,,,,,,,
85843,0,12,10,45,47,34,42,-32,-0.52,0.28,0.85,11,-4,2,0.59,0,0,0.0,0.0,0.0,0.0,0,0,0.0,0,0.0,-1,0.0,0.0,0.0,0,0.0,1.4307
85883,0,,,,,,,,-0.65,0.4,0.83,15,-24,6,0.76,0,,,,,,,,,,,,,,,,,
85923,0,,,,,,,,-0.27,0.44,0.47,20,-19,7,0.52,0,,,,,,,,,,,,,,,,,
85963,0,,,,,,,,0.16,0.52,0.05,24,1,5,0.55,0,,,,,,,,,,,,,,,,,
86003,0,,,,,,,,0.51,0.59,-0.34,29,24,4,0.78,0,,,,,,,,,,,,,,,,,
86043,0,10,7,47,46,33,44,-65,0.79,0.67,-0.66,33,22,6,1.03,0,0,0.0,0.0,0.0,0.0,0,0,0.0,0,0.0,-1,0.0,0.0,0.0,0,0.0,1.434
86083,0,,,,,,,,0.54,0.71,-0.76,38,-4,6,0.89,0,,,,,,,,,,,,,,,,,
86123,0,,,,,,,,0.05,0.82,-0.24,43,-49,8,0.82,0,,,,,,,,,,,,,,,,,
86163,0,,,,,,,,-0.34,0.84,0.19,48,-69,8,0.9,0,,,,,,,,,,,,,,,,,
86203,0,,,,,,,,-0.63,0.86,0.53,53,-49,5,1.06,0,,,,,,,,,,,,,,,,,
86243,0,3,4,47,45,34,46,-75,-0.39,0.86,0.72,57,-4,2,0.95,0,0,0.0,0.0,0.0,0.0,0,0,0.0,0,0.0,-1,0.0,0.0,0.0,0,0.0,1.4374
86283,0,,,,,,,,0.07,0.76,0.21,60,33,1,0.77,0,,,,,,,,,,,,,,,,,
86323,0,,,,,,,,0.32,0.72,-0.21,63,30,3,0.79,0,,,,,,,,,,,,,,,,,
86363,0,,,,,,,,0.15,0.79,0.21,64,9,3,0.8,0,,,,,,,,,,,,,,,,,
86403,0,,,,,,,,0.32,0.78,0.04,66,22,3,0.84,0,,,,,,,,,,,,,,,,,
86443,0,3,4,50,47,33,44,-80,0.15,0.77,0.06,68,9,4,0.79,0,0,0.0,0.0,0.0,0.0,0,0,0.0,0,0.0,-1,0.0,0.0,0.0,0,0.0,1.4407
86483,0,,,,,,,,0.05,0.76,0.15,69,10,5,0.76,0,,,,,,,,,,,,,,,,,
86523,0,,,,,,,,-0.01,0.78,0.05,71,6,4,0.78,0,,,,,,,,,,,,,,,,,
86563,0,,,,,,,,0.01,0.77,0.42,72,8,4,0.77,0,,,,,,,,,,,,,,,,,
86603,0,,,,,,,,0.01,0.76,-0.04,73,12,4,0.76,0,,,,,,,,,,,,,,,,,
86643,0,2,4,50,47,33,44,-84,-0.15,0.74,0.35,74,7,4,0.76,0,0,0.0,0.0,0.0,0.0,0,0,0.0,0,0.0,-1,0.0,0.0,0.0,0,0.0,1.4441
86683,0,,,,,,,,-0.16,0.85,0.16,76,10,4,0.87,0,,,,,,,,,,,,,,,,,
86723,0,,,,,,,,-0.34,0.86,0.51,77,-11,5,0.93,0,,,,,,,,,,,,,,,,,
86763,0,,,,,,,,-0.27,0.81,0.39,77,-4,4,0.85,0,,,,,,,,,,,,,,,,,
86803,0,,,,,,,,-0.15,0.82,0.51,77,3,3,0.84,0,,,,,,,,,,,,,,,,,
86843,0,2,4,50,46,34,44,-89,-0.09,0.82,0.54,78,7,2,0.83,0,0,0.0,0.0,0.0,0.0,0,0,0.0,0,0.0,-1,0.0,0.0,0.0,0,0.0,1.4474
86883,0,,,,,,,,-0.11,0.87,0.59,78,5,2,0.88,0,,,,,,,,,,,,,,,,,
86923,0,,,,,,,,-0.1,0.87,0.55,78,3,3,0.88,0,,,,,,,,,,,,,,,,,
86963,0,,,,,,,,-0.18,0.85,0.52,78,-2,3,0.87,0,,,,,,,,,,,,,,,,,
87003,0,,,,,,,,-0.13,0.84,0.36,78,4,3,0.85,0,,,,,,,,,,,,,,,,,
87043,0,3,3,49,48,32,44,-89,-0.19,0.86,0.48,79,2,3,0.88,0,0,0.0,0.0,0.0,0.0,0,0,0.0,0,0.0,-1,0.0,0.0,0.0,0,0.0,1.4507
87083,0,,,,,,,,-0.06,0.75,0.43,79,6,3,0.75,0,,,,,,,,,,,,,,,,,
87123,0,,,,,,,,-0.22,0.73,0.11,79,0,3,0.76,0,,,,,,,,,,,,,,,,,
87163,0,,,,,,,,-0.44,0.68,0.46,80,2,3,0.81,0,,,,,,,,,,,,,,,,,
87203,0,,,,,,,,-0.2,0.74,0.36,80,30,2,0.77,0,,,,,,,,,,,,,,,,,
87243,0,1,2,51,49,31,43,-88,-0.0,0.81,0.11,81,21,3,0.81,0,0,0.0,0.0,0.0,0.0,0,0,0.0,0,0.0,-1,0.0,0.0,0.0,0,0.0,1.4541
87283,0,,,,,,,,-0.11,0.88,0.36,82,14,3,0.89,0,,,,,,,,,,,,,,,,,
87323,0,,,,,,,,-0.22,0.81,0.67,83,16,3,0.84,0,,,,,,,,,,,,,,,,,
87363,0,,,,,,,,-0.13,0.7,0.16,83,14,4,0.71,0,,,,,,,,,,,,,,,,,
87403,0,,,,,,,,-0.42,0.79,0.51,83,-11,3,0.9,0,,,,,,,,,,,,,,,,,
87443,0,1,1,50,49,32,44,-82,-0.72,0.73,0.79,83,2,3,1.03,0,0,0.0,0.0,0.0,0.0,0,0,0.0,0,0.0,-1,0.0,0.0,0.0,0,0.0,1.4574
87483,0,,,,,,,,-0.77,0.76,1.02,85,34,-1,1.08,0,,,,,,,,,,,,,,,,,
87523,0,,,,,,,,-0.73,0.81,1.21,84,55,-3,1.09,0,,,,,,,,,,,,,,,,,
87563,0,,,,,,,,-0.82,0.75,1.36,85,74,-7,1.11,0,,,,,,,,,,,,,,,,,
87603,0,,,,,,,,-0.91,0.77,1.48,86,79,-7,1.2,0,,,,,,,,,,,,,,,,,
87643,0,1,3,52,50,31,42,-74,-1.12,0.82,1.58,87,64,-5,1.39,0,0,0.0,0.0,0.0,0.0,0,0,0.0,0,0.0,-1,0.0,0.0,0.0,0,0.0,1.4607
87683,0,,,,,,,,-0.76,0.88,1.6,88,56,-5,1.16,0,,,,,,,,,,,,,,,,,
87723,0,,,,,,,,-0.73,0.89,1.36,89,41,-2,1.15,0,,,,,,,,,,,,,,,,,
87763,0,,,,,,,,-0.6,0.88,1.38,89,34,-3,1.07,0,,,,,,,,,,,,,,,,,
87803,0,,,,,,,,-0.44,0.87,1.27,90,26,1,0.98,0,,,,,,,,,,,,,,,,,
87843,0,1,1,54,51,29,42,-65,-0.29,0.76,1.27,92,31,-3,0.82,0,0,0.0,0.0,0.0,0.0,0,0,0.0,0,0.0,-1,0.0,0.0,0.0,0,0.0,1.4641
87883,0,,,,,,,,0.09,0.9,1.41,93,24,3,0.91,0,,,,,,,,,,,,,,,,,
87923,0,,,,,,,,0.29,0.88,1.26,95,4,11,0.92,0,,,,,,,,,,,,,,,,,
87963,0,,,,,,,,0.5,0.99,1.29,96,1,13,1.11,0,,,,,,,,,,,,,,,,,
88003,0,,,,,,,,0.28,0.98,1.02,97,8,7,1.02,0,,,,,,,,,,,,,,,,,
88043,0,1,1,54,54,29,39,-17,0.21,0.9,0.81,98,15,4,0.92,0,0,0.0,0.0,0.0,0.0,0,0,0.0,0,0.0,-1,0.0,0.0,0.0,0,0.0,1.4674
88083,0,,,,,,,,0.23,0.81,0.85,98,13,2,0.85,0,,,,,,,,,,,,,,,,,
88123,0,,,,,,,,0.13,0.82,0.31,97,5,8,0.83,0,,,,,,,,,,,,,,,,,
88163,0,,,,,,,,0.32,0.72,0.23,95,6,9,0.79,0,,,,,,,,,,,,,,,,,
88203,0,,,,,,,,0.24,0.66,0.21,91,16,-3,0.7,0,,,,,,,,,,,,,,,,,
88243,0,-0,2,51,54,30,37,51,0.43,0.69,0.55,86,15,-4,0.81,0,0,0.0,0.0,0.0,0.0,0,0,0.0,0,0.0,-1,0.0,0.0,0.0,0,0.0,1.4707
88283,0,,,,,,,,0.51,0.66,0.82,81,20,-10,0.83,0,,,,,,,,,,,,,,,,,
88323,0,,,,,,,,0.61,0.61,0.94,75,22,-16,0.87,0,,,,,,,,,,,,,,,,,
88363,0,,,,,,,,0.75,0.62,0.78,70,15,-12,0.98,0,,,,,,,,,,,,,,,,,
88403,0,,,,,,,,0.7,0.64,0.66,65,15,-7,0.95,0,,,,,,,,,,,,,,,,,
88443,0,-0,2,52,54,27,35,69,0.77,0.62,0.54,61,14,-6,0.99,0,0,0.0,0.0,0.0,0.0,0,0,0.0,0,0.0,-1,0.0,0.0,0.0,0,0.0,1.4741
88483,0,,,,,,,,0.68,0.32,0.46,56,13,-3,0.75,0,,,,,,,,,,,,,,,,,
88523,0,,,,,,,,0.64,0.24,0.49,49,8,-2,0.68,0,,,,,,,,,,,,,,,,,
88563,0,,,,,,,,0.56,0.03,0.54,42,10,-5,0.57,0,,,,,,,,,,,,,,,,,
88603,0,,,,,,,,0.69,0.24,0.58,36,11,-7,0.73,0,,,,,,,,,,,,,,,,,
88643,0,1,1,51,56,27,34,79,0.7,0.21,0.45,30,13,-5,0.73,0,0,0.0,0.0,0.0,0.0,0,0,0.0,0,0.0,-1,0.0,0.0,0.0,0,0.0,1.4774
88683,0,,,,,,,,0.62,0.23,0.51,24,5,-1,0.66,0,,,,,,,,,,,,,,,,,
88723,0,,,,,,,,0.59,0.26,0.76,18,8,-3,0.65,0,,,,,,,,,,,,,,,,,
88763,0,,,,,,,,0.72,0.27,0.99,14,7,0,0.77,0,,,,,,,,,,,,,,,,,
88803,0,,,,,,,,0.7,0.33,0.42,12,1,3,0.77,0,,,,,,,,,,,,,,,,,
88843,0,1,2,53,57,27,34,51,0.84,0.29,0.72,10,11,-2,0.89,0,0,0.0,0.0,0.0,0.0,0,0,0.0,0,0.0,-1,0.0,0.0,0.0,0,0.0,1.4807
88883,0,,,,,,,,0.87,0.14,0.93,10,19,-8,0.88,0,,,,,,,,,,,,,,,,,
88923,0,,,,,,,,0.87,0.21,0.87,9,18,-8,0.89,0,,,,,,,,,,,,,,,,,
88963,0,,,,,,,,1.03,0.29,1.08,9,21,-10,1.07,0,,,,,,,,,,,,,,,,,
89003,0,,,,,,,,0.97,0.36,1.26,10,24,-9,1.03,0,,,,,,,,,,,,,,,,,
89043,0,1,2,53,55,26,33,43,0.78,0.17,0.64,12,16,-6,0.8,0,0,0.0,0.0,0.0,0.0,0,0,0.0,0,0.0,-1,0.0,0.0,0.0,0,0.0,1.4841
89083,0,,,,,,,,0.9,0.13,0.56,13,13,-4,0.91,0,,,,,,,,,,,,,,,,,
89123,0,,,,,,,,0.85,0.1,0.08,14,7,-1,0.86,0,,,,,,,,,,,,,,,,,
89163,0,,,,,,,,0.8,-0.04,0.04,14,8,-3,0.81,0,,,,,,,,,,,,,,,,,
89203,0,,,,,,,,0.76,-0.08,0.21,14,5,1,0.77,0,,,,,,,,,,,,,,,,,
89243,0,1,1,52,54,28,32,53,0.82,0.02,0.19,13,2,2,0.82,0,0,0.0,0.0,0.0,0.0,0,0,0.0,0,0.0,-1,0.0,0.0,0.0,0,0.0,1.4874
89283,0,,,,,,,,0.69,0.0,-0.23,13,4,0,0.69,0,,,,,,,,,,,,,,,,,
89323,0,,,,,,,,0.51,0.02,-0.21,12,-2,3,0.51,0,,,,,,,,,,,,,,,,,
89363,0,,,,,,,,0.45,0.01,-0.19,11,-1,3,0.45,0,,,,,,,,,,,,,,,,,
89403,0,,,,,,,,0.42,-0.05,-0.17,8,-6,7,0.43,0,,,,,,,,,,,,,,,,,
89443,0,1,2,50,55,29,33,57,0.46,-0.26,-0.16,6,-3,1,0.53,0,0,0.0,0.0,0.0,0.0,0,0,0.0,0,0.0,-1,0.0,0.0,0.0,0,0.0,1.4907
89483,0,,,,,,,,0.3,-0.18,0.09,3,2,-2,0.35,0,,,,,,,,,,,,,,,,,
89523,0,,,,,,,,0.38,-0.16,0.1,-2,-1,1,0.41,0,,,,,,,,,,,,,,,,,
89563,0,,,,,,,,0.39,-0.2,0.1,-7,1,-0,0.44,0,,,,,,,,,,,,,,,,,
89603,0,,,,,,,,0.48,-0.26,0.1,-13,2,-2,0.55,0,,,,,,,,,,,,,,,,,
89643,0,0,2,49,55,28,33,26,0.42,-0.21,-0.24,-18,2,-1,0.47,0,0,0.0,0.0,0.0,0.0,0,0,0.0,0,0.0,-1,0.0,0.0,0.0,0,0.0,1.4941
89683,0,,,,,,,,0.32,-0.1,-0.21,-21,3,-3,0.34,0,,,,,,,,,,,,,,,,,
89723,0,,,,,,,,0.36,-0.14,-0.19,-21,6,-3,0.38,0,,,,,,,,,,,,,,,,,
89763,0,,,,,,,,0.41,-0.08,-0.18,-22,5,-5,0.42,0,,,,,,,,,,,,,,,,,
89803,0,,,,,,,,0.46,-0.1,-0.16,-21,9,-7,0.48,0,,,,,,,,,,,,,,,,,
89843,0,0,2,50,56,28,32,-3,0.54,-0.02,-0.11,-21,10,-6,0.54,0,0,0.0,0.0,0.0,0.0,0,0,0.0,0,0.0,-1,0.0,0.0,0.0,0,0.0,1.4974
89883,0,,,,,,,,0.58,0.11,-0.07,-20,1,-3,0.59,0,,,,,,,,,,,,,,,,,
89923,0,,,,,,,,0.5,0.01,-0.14,-19,-2,-2,0.5,0,,,,,,,,,,,,,,,,,
89963,0,,,,,,,,0.48,-0.04,-0.13,-18,-6,-2,0.48,0,,,,,,,,,,,,,,,,,
90003,0,,,,,,,,0.61,0.02,-0.13,-16,1,-3,0.61,0,,,,,,,,,,,,,,,,,
90043,0,-1,2,50,57,28,31,-7,0.61,-0.05,0.27,-14,6,-6,0.61,0,0,0.0,0.0,0.0,0.0,0,0,0.0,0,0.0,-1,0.0,0.0,0.0,0,0.0,1.5007
90083,0,,,,,,,,0.71,-0.1,0.24,-14,-0,-3,0.72,0,,,,,,,,,,,,,,,,,
90123,0,,,,,,,,0.58,-0.15,-0.12,-14,-0,-1,0.6,0,,,,,,,,,,,,,,,,,
90163,0,,,,,,,,0.57,-0.16,0.24,-12,7,-4,0.6,0,,,,,,,,,,,,,,,,,
90203,0,,,,,,,,0.7,-0.13,0.26,-10,3,0,0.71,0,,,,,,,,,,,,,,,,,
90243,0,0,1,50,57,29,33,-16,0.71,-0.29,0.19,-8,2,1,0.77,0,0,0.0,0.0,0.0,0.0,0,0,0.0,0,0.0,-1,0.0,0.0,0.0,0,0.0,1.504
90283,0,,,,,,,,0.87,-0.11,0.53,-3,6,-2,0.88,0,,,,,,,,,,,,,,,,,
90323,0,,,,,,,,0.83,-0.06,0.33,1,-1,0,0.83,0,,,,,,,,,,,,,,,,,
90363,0,,,,,,,,0.96,0.04,0.64,5,4,-1,0.96,0,,,,,,,,,,,,,,,,,
90403,0,,,,,,,,0.86,-0.08,0.3,8,2,0,0.86,0,,,,,,,,,,,,,,,,,
90443,0,-0,2,51,55,26,31,4,0.86,0.06,0.43,8,1,4,0.86,0,0,0.0,0.0,0.0,0.0,0,0,0.0,0,0.0,-1,0.0,0.0,0.0,0,0.0,1.5074
90483,0,,,,,,,,0.93,0.05,0.72,8,3,0,0.93,0,,,,,,,,,,,,,,,,,
90523,0,,,,,,,,0.9,0.09,0.97,8,10,-3,0.9,0,,,,,,,,,,,,,,,,,
90563,0,,,,,,,,0.81,0.06,0.8,7,7,-0,0.81,0,,,,,,,,,,,,,,,,,
90603,0,,,,,,,,0.81,0.16,0.98,6,10,-1,0.83,0,,,,,,,,,,,,,,,,,
90643,0,-1,2,51,55,27,34,1,0.68,0.17,0.78,5,5,-4,0.7,0,0,0.0,0.0,0.0,0.0,0,0,0.0,0,0.0,-1,0.0,0.0,0.0,0,0.0,1.5107
90683,0,,,,,,,,0.66,0.13,0.7,5,9,-3,0.67,0,,,,,,,,,,,,,,,,,
90723,0,,,,,,,,0.55,0.17,0.55,4,-1,1,0.57,0,,,,,,,,,,,,,,,,,
90763,0,,,,,,,,0.53,0.13,0.42,4,-1,-1,0.54,0,,,,,,,,,,,,,,,,,
90803,0,,,,,,,,0.62,0.1,0.36,5,2,0,0.63,0,,,,,,,,,,,,,,,,,
90843,0,-1,2,50,54,28,34,-0,0.7,0.32,0.31,6,3,2,0.77,0,0,0.0,0.0,0.0,0.0,0,0,0.0,0,0.0,-1,0.0,0.0,0.0,0,0.0,1.514
90883,0,,,,,,,,0.42,0.16,0.0,5,2,4,0.45,0,,,,,,,,,,,,,,,,,
90923,0,,,,,,,,0.1,0.21,-0.23,6,-6,5,0.24,0,,,,,,,,,,,,,,,,,
90963,0,,,,,,,,0.14,0.3,-0.21,6,-12,11,0.33,0,,,,,,,,,,,,,,,,,
91003,0,,,,,,,,0.24,0.29,0.21,7,-14,8,0.38,0,,,,,,,,,,,,,,,,,
91043,0,0,2,50,53,27,34,6,0.28,0.41,-0.08,7,-18,14,0.5,0,0,0.0,0.0,0.0,0.0,0,0,0.0,0,0.0,-1,0.0,0.0,0.0,0,0.0,1.5174
91083,0,,,,,,,,0.35,0.27,0.28,6,-12,8,0.44,0,,,,,,,,,,,,,,,,,
91123,0,,,,,,,,0.49,0.3,-0.16,5,-11,7,0.57,0,,,,,,,,,,,,,,,,,
91163,0,,,,,,,,0.47,0.29,-0.51,5,-10,12,0.55,0,,,,,,,,,,,,,,,,,
91203,0,,,,,,,,0.55,0.27,-0.03,5,-12,12,0.61,0,,,,,,,,,,,,,,,,,
91243,0,-1,2,50,54,28,34,5,0.6,0.19,0.35,4,-9,10,0.63,0,0,0.0,0.0,0.0,0.0,0,0,0.0,0,0.0,-1,0.0,0.0,0.0,0,0.0,1.5207
91283,0,,,,,,,,0.63,0.1,0.67,3,-4,5,0.64,0,,,,,,,,,,,,,,,,,
91323,0,,,,,,,,0.54,0.16,0.62,3,0,1,0.56,0,,,,,,,,,,,,,,,,,
91363,0,,,,,,,,0.55,0.19,0.12,2,-6,5,0.58,0,,,,,,,,,,,,,,,,,
91403,0,,,,,,,,0.65,0.14,0.37,2,-3,2,0.67,0,,,,,,,,,,,,,,,,,
91443,0,-1,2,49,55,29,34,5,0.63,0.12,0.32,2,-5,1,0.64,0,0,0.0,0.0,0.0,0.0,0,0,0.0,0,0.0,-1,0.0,0.0,0.0,0,0.0,1.524
91483,0,,,,,,,,0.53,0.2,0.09,-0,-11,6,0.56,0,,,,,,,,,,,,,,,,,
91523,0,,,,,,,,0.56,0.15,0.05,-0,-4,3,0.58,0,,,,,,,,,,,,,,,,,
91563,0,,,,,,,,0.51,0.05,0.23,-1,-2,1,0.51,0,,,,,,,,,,,,,,,,,
91603,0,,,,,,,,0.68,0.07,0.31,-1,-2,2,0.68,0,,,,,,,,,,,,,,,,,
91643,0,-1,2,48,54,29,33,3,0.58,0.11,0.29,-1,-0,-0,0.59,0,0,0.0,0.0,0.0,0.0,0,0,0.0,0,0.0,-1,0.0,0.0,0.0,0,0.0,1.5274
91683,0,,,,,,,,0.83,0.11,0.42,-1,3,-1,0.83,0,,,,,,,,,,,,,,,,,
91723,0,,,,,,,,0.68,0.07,0.42,-0,-1,2,0.68,0,,,,,,,,,,,,,,,,,
91763,0,,,,,,,,0.52,0.1,0.69,-0,1,-3,0.53,0,,,,,,,,,,,,,,,,,
91803,0,,,,,,,,0.5,0.06,0.82,-0,0,-2,0.51,0,,,,,,,,,,,,,,,,,
91843,0,-1,2,47,53,32,35,5,0.6,-0.02,1.0,-0,-2,2,0.6,0,0,0.0,0.0,0.0,0.0,0,0,0.0,0,0.0,-1,0.0,0.0,0.0,0,0.0,1.5307
91883,0,,,,,,,,0.53,-0.14,1.02,-1,-3,3,0.54,0,,,,,,,,,,,,,,,,,
91923,0,,,,,,,,0.34,-0.17,0.51,-1,-4,5,0.38,0,,,,,,,,,,,,,,,,,
91963,0,,,,,,,,0.04,-0.28,0.03,-1,-6,7,0.29,0,,,,,,,,,,,,,,,,,
92003,0,,,,,,,,-0.09,-0.43,-0.35,-1,-7,7,0.44,0,,,,,,,,,,,,,,,,,
92043,0,-0,2,45,49,30,34,4,-0.09,-0.39,-0.67,-2,-13,9,0.4,0,0,0.0,0.0,0.0,0.0,0,0,0.0,0,0.0,-1,0.0,0.0,0.0,0,0.0,1.534
92083,0,,,,,,,,0.03,-0.38,-0.91,-1,-20,11,0.38,0,,,,,,,,,,,,,,,,,
