"Interval"|"ms"|0|0|1,"Utc"|"ms"|0|0|1,"Brake_F"|"Bar"|0|2000|10,"Brake_R"|"Bar"|0|2000|10,"Height_RF"|"mm"|0|255|10,"Height_LF"|"mm"|0|255|10,"Height_LR"|"mm"|0|80|10,"Height_RR"|"mm"|0|255|10,"Steering"|"deg"|-100|100|10,"AccelX"|"G"|-3.0|3.0|25,"AccelY"|"G"|-3.0|3.0|25,"AccelZ"|"G"|-3.0|3.0|25,"Yaw"|"Deg/Sec"|-120|120|25,"Pitch"|"Deg/Sec"|-120|120|25,"Roll"|"Deg/Sec"|-120|120|25,"Gsum"|"G"|0.0|3.0|25,"Unknown"|""|0|1024|25,"Log_Button"|""|0.0|10.0|10,"Latitude"|"Degrees"|-180.0|180.0|10,"Longitude"|"Degrees"|-180.0|180.0|10,"Speed"|"kph"|0.0|150.0|10,"Altitude"|"m"|0.0|4000.0|10,"GPSSats"|""|0|20|10,"GPSQual"|""|0|5|10,"GPSDOP"|""|0.0|20.0|10,"LapCount"|""|0|0|10,"LapTime"|"Min"|0.0|0.0|10,"Sector"|""|0|0|10,"SectorTime"|"Min"|0.0|0.0|10,"PredTime"|"Min"|0.0|0.0|5,"ElapsedTime"|"Min"|0.0|0.0|10,"CurrentLap"|""|0|0|10,"Distance"|"km"|0.0|0.0|10,"SessionTime"|"Min"|0.0|0.0|10
9083,0,,,,,,,,0.04,-0.02,1.0,0,0,0,0.05,0,,,,,,,,,,,,,,,,,
9123,0,,,,,,,,0.04,-0.02,1.0,0,0,0,0.05,0,,,,,,,,,,,,,,,,,
9163,0,,,,,,,,0.04,-0.02,1.0,0,0,0,0.05,0,,,,,,,,,,,,,,,,,
9203,0,,,,,,,,0.04,-0.02,1.0,0,0,0,0.05,0,,,,,,,,,,,,,,,,,
9243,0,1,1,47,52,32,36,-4,0.04,-0.02,1.0,0,0,0,0.05,0,1,0.0,0.0,0.0,0.0,0,0,0.0,0,0.0,-1,0.0,0.0,0.0,0,0.0,0.154
9283,0,,,,,,,,0.04,-0.02,1.0,0,0,0,0.05,0,,,,,,,,,,,,,,,,,
9323,0,,,,,,,,0.04,-0.02,1.0,0,0,0,0.05,0,,,,,,,,,,,,,,,,,
9363,0,,,,,,,,0.04,-0.02,1.0,0,-0,0,0.04,0,,,,,,,,,,,,,,,,,
9403,0,,,,,,,,0.04,-0.02,1.0,0,-0,0,0.04,0,,,,,,,,,,,,,,,,,
9443,0,1,1,47,52,32,36,-5,0.04,-0.02,1.0,0,-0,0,0.04,0,1,0.0,0.0,0.0,0.0,0,0,0.0,0,0.0,-1,0.0,0.0,0.0,0,0.0,0.1574
9483,0,,,,,,,,0.04,-0.02,1.0,0,-0,0,0.04,0,,,,,,,,,,,,,,,,,
9523,0,,,,,,,,0.04,-0.02,1.0,0,-0,0,0.05,0,,,,,,,,,,,,,,,,,
9563,0,,,,,,,,0.04,-0.02,1.0,0,0,0,0.05,0,,,,,,,,,,,,,,,,,
9603,0,,,,,,,,0.04,-0.02,1.0,0,0,0,0.05,0,,,,,,,,,,,,,,,,,
9643,0,-0,2,47,51,32,36,-4,0.04,-0.02,1.0,0,0,0,0.05,0,1,0.0,0.0,0.0,0.0,0,0,0.0,0,0.0,-1,0.0,0.0,0.0,0,0.0,0.1607
9683,0,,,,,,,,0.04,-0.02,1.0,0,0,0,0.04,0,,,,,,,,,,,,,,,,,
9723,0,,,,,,,,0.04,-0.02,1.0,0,0,0,0.04,0,,,,,,,,,,,,,,,,,
9763,0,,,,,,,,0.04,-0.02,1.0,0,0,0,0.04,0,,,,,,,,,,,,,,,,,
9803,0,,,,,,,,0.04,-0.02,1.0,0,0,0,0.04,0,,,,,,,,,,,,,,,,,
9843,0,-1,3,47,51,32,36,-5,0.04,-0.02,1.0,0,0,0,0.04,0,1,0.0,0.0,0.0,0.0,0,0,0.0,0,0.0,-1,0.0,0.0,0.0,0,0.0,0.164
9883,0,,,,,,,,0.04,-0.02,1.0,0,0,0,0.04,0,,,,,,,,,,,,,,,,,
9923,0,,,,,,,,0.04,-0.02,1.0,0,0,0,0.04,0,,,,,,,,,,,,,,,,,
9963,0,,,,,,,,0.04,-0.02,1.0,0,0,0,0.04,0,,,,,,,,,,,,,,,,,
10003,0,,,,,,,,0.04,-0.02,1.0,0,0,0,0.04,0,,,,,,,,,,,,,,,,,
10043,0,1,2,47,52,32,36,-5,0.04,-0.02,1.0,0,0,0,0.04,0,0,0.0,0.0,0.0,0.0,0,0,0.0,0,0.0,-1,0.0,0.0,0.0,0,0.0,0.1674
10083,0,,,,,,,,0.04,-0.02,1.0,0,0,0,0.04,0,,,,,,,,,,,,,,,,,
10123,0,,,,,,,,0.04,-0.02,1.0,0,0,0,0.04,0,,,,,,,,,,,,,,,,,
10163,0,,,,,,,,0.04,-0.02,1.0,0,0,0,0.04,0,,,,,,,,,,,,,,,,,
10203,0,,,,,,,,0.04,-0.02,1.0,0,0,0,0.05,0,,,,,,,,,,,,,,,,,
10243,0,1,1,47,52,32,36,-5,0.04,-0.02,1.0,0,0,0,0.05,0,0,0.0,0.0,0.0,0.0,0,0,0.0,0,0.0,-1,0.0,0.0,0.0,0,0.0,0.1707
10283,0,,,,,,,,0.04,-0.02,1.0,0,0,0,0.05,0,,,,,,,,,,,,,,,,,
10323,0,,,,,,,,0.04,-0.02,1.0,0,0,0,0.05,0,,,,,,,,,,,,,,,,,
10363,0,,,,,,,,0.04,-0.02,1.0,0,0,0,0.05,0,,,,,,,,,,,,,,,,,
10403,0,,,,,,,,0.04,-0.02,1.0,0,0,0,0.05,0,,,,,,,,,,,,,,,,,
10443,0,1,1,47,52,32,36,-5,0.04,-0.02,1.0,0,0,0,0.05,0,0,0.0,0.0,0.0,0.0,0,0,0.0,0,0.0,-1,0.0,0.0,0.0,0,0.0,0.174
10483,0,,,,,,,,0.04,-0.02,1.0,0,0,0,0.05,0,,,,,,,,,,,,,,,,,
10523,0,,,,,,,,0.04,-0.02,1.0,0,0,0,0.05,0,,,,,,,,,,,,,,,,,
10563,0,,,,,,,,0.04,-0.02,1.0,0,0,0,0.05,0,,,,,,,,,,,,,,,,,
10603,0,,,,,,,,0.04,-0.02,1.0,0,0,0,0.05,0,,,,,,,,,,,,,,,,,
10643,0,1,1,47,52,32,36,-5,0.04,-0.02,1.0,0,-0,0,0.04,0,0,0.0,0.0,0.0,0.0,0,0,0.0,0,0.0,-1,0.0,0.0,0.0,0,0.0,0.1774
10683,0,,,,,,,,0.04,-0.02,1.0,0,-0,0,0.04,0,,,,,,,,,,,,,,,,,
10723,0,,,,,,,,0.04,-0.02,1.0,0,0,0,0.04,0,,,,,,,,,,,,,,,,,
10763,0,,,,,,,,0.04,-0.02,1.0,0,0,0,0.04,0,,,,,,,,,,,,,,,,,
10803,0,,,,,,,,0.04,-0.02,1.0,0,0,0,0.05,0,,,,,,,,,,,,,,,,,
10843,0,1,1,47,52,32,36,-5,0.04,-0.02,1.0,0,0,0,0.05,0,0,0.0,0.0,0.0,0.0,0,0,0.0,0,0.0,-1,0.0,0.0,0.0,0,0.0,0.1807
10883,0,,,,,,,,0.04,-0.02,1.0,0,0,0,0.04,0,,,,,,,,,,,,,,,,,
10923,0,,,,,,,,0.04,-0.02,1.0,0,-0,0,0.04,0,,,,,,,,,,,,,,,,,
10963,0,,,,,,,,0.04,-0.02,1.0,0,0,0,0.05,0,,,,,,,,,,,,,,,,,
11003,0,,,,,,,,0.04,-0.02,1.0,0,0,0,0.05,0,,,,,,,,,,,,,,,,,
11043,0,1,1,47,52,32,36,-5,0.04,-0.02,1.0,0,0,0,0.05,0,0,0.0,0.0,0.0,0.0,0,0,0.0,0,0.0,-1,0.0,0.0,0.0,0,0.0,0.184
11083,0,,,,,,,,0.04,-0.02,1.0,0,0,0,0.05,0,,,,,,,,,,,,,,,,,
11123,0,,,,,,,,0.04,-0.02,1.0,0,0,0,0.05,0,,,,,,,,,,,,,,,,,
11163,0,,,,,,,,0.04,-0.02,1.0,0,-0,0,0.04,0,,,,,,,,,,,,,,,,,
11203,0,,,,,,,,0.04,-0.02,1.0,0,-0,0,0.04,0,,,,,,,,,,,,,,,,,
11243,0,-1,3,47,51,32,36,-4,0.04,-0.02,1.0,0,-0,0,0.05,0,0,0.0,0.0,0.0,0.0,0,0,0.0,0,0.0,-1,0.0,0.0,0.0,0,0.0,0.1874
11283,0,,,,,,,,0.04,-0.02,1.0,0,0,0,0.05,0,,,,,,,,,,,,,,,,,
11323,0,,,,,,,,0.04,-0.02,1.0,0,0,0,0.05,0,,,,,,,,,,,,,,,,,
11363,0,,,,,,,,0.04,-0.02,1.0,0,0,0,0.05,0,,,,,,,,,,,,,,,,,
11403,0,,,,,,,,0.04,-0.02,1.0,0,0,0,0.05,0,,,,,,,,,,,,,,,,,
11443,0,1,1,47,52,32,36,-5,0.04,-0.02,1.0,0,-0,0,0.05,0,0,0.0,0.0,0.0,0.0,0,0,0.0,0,0.0,-1,0.0,0.0,0.0,0,0.0,0.1907
11483,0,,,,,,,,0.04,-0.02,1.0,0,0,0,0.05,0,,,,,,,,,,,,,,,,,
11523,0,,,,,,,,0.04,-0.02,1.0,0,0,0,0.05,0,,,,,,,,,,,,,,,,,
11563,0,,,,,,,,0.04,-0.02,1.0,0,0,0,0.05,0,,,,,,,,,,,,,,,,,
11603,0,,,,,,,,0.04,-0.02,1.0,0,0,0,0.05,0,,,,,,,,,,,,,,,,,
11643,0,-0,5,47,52,32,36,-5,0.04,-0.02,1.0,0,-0,0,0.05,0,0,0.0,0.0,0.0,0.0,0,0,0.0,0,0.0,-1,0.0,0.0,0.0,0,0.0,0.194
11683,0,,,,,,,,0.04,-0.02,1.0,0,-0,0,0.05,0,,,,,,,,,,,,,,,,,
11723,0,,,,,,,,0.04,-0.02,1.0,0,-0,0,0.04,0,,,,,,,,,,,,,,,,,
11763,0,,,,,,,,0.04,-0.02,1.0,0,0,0,0.04,0,,,,,,,,,,,,,,,,,
11803,0,,,,,,,,0.04,-0.02,0.98,0,0,0,0.05,0,,,,,,,,,,,,,,,,,
11843,0,1,3,47,52,32,36,-4,0.04,-0.02,0.99,0,0,0,0.05,0,0,0.0,0.0,0.0,0.0,0,0,0.0,0,0.0,-1,0.0,0.0,0.0,0,0.0,0.1974
11883,0,,,,,,,,0.04,-0.02,0.99,0,0,0,0.04,0,,,,,,,,,,,,,,,,,
11923,0,,,,,,,,0.04,-0.02,0.99,0,0,0,0.05,0,,,,,,,,,,,,,,,,,
11963,0,,,,,,,,0.04,-0.02,0.99,0,0,0,0.05,0,,,,,,,,,,,,,,,,,
12003,0,,,,,,,,0.04,-0.02,0.99,0,0,0,0.04,0,,,,,,,,,,,,,,,,,
12043,0,-0,3,47,52,32,36,-4,0.04,-0.02,0.99,0,0,0,0.04,0,0,0.0,0.0,0.0,0.0,0,0,0.0,0,0.0,-1,0.0,0.0,0.0,0,0.0,0.2007
12083,0,,,,,,,,0.04,-0.02,1.0,0,0,0,0.05,0,,,,,,,,,,,,,,,,,
12123,0,,,,,,,,0.04,-0.02,1.0,0,0,0,0.05,0,,,,,,,,,,,,,,,,,
12163,0,,,,,,,,0.04,-0.02,1.0,0,0,0,0.05,0,,,,,,,,,,,,,,,,,
12203,0,,,,,,,,0.04,-0.02,1.0,0,0,0,0.04,0,,,,,,,,,,,,,,,,,
12243,0,1,1,47,52,32,36,-5,0.04,-0.02,1.0,0,0,0,0.04,0,0,0.0,0.0,0.0,0.0,0,0,0.0,0,0.0,-1,0.0,0.0,0.0,0,0.0,0.204
12283,0,,,,,,,,0.04,-0.02,1.0,0,0,0,0.04,0,,,,,,,,,,,,,,,,,
12323,0,,,,,,,,0.04,-0.02,1.0,0,0,0,0.05,0,,,,,,,,,,,,,,,,,
12363,0,,,,,,,,0.04,-0.02,1.0,0,-0,0,0.05,0,,,,,,,,,,,,,,,,,
12403,0,,,,,,,,0.04,-0.02,1.0,0,-0,0,0.05,0,,,,,,,,,,,,,,,,,
12443,0,1,2,47,52,32,36,-5,0.04,-0.02,1.0,0,-0,0,0.05,0,0,0.0,0.0,0.0,0.0,0,0,0.0,0,0.0,-1,0.0,0.0,0.0,0,0.0,0.2074
12483,0,,,,,,,,0.04,-0.02,1.0,0,0,0,0.05,0,,,,,,,,,,,,,,,,,
12523,0,,,,,,,,0.04,-0.02,1.0,0,0,0,0.05,0,,,,,,,,,,,,,,,,,
12563,0,,,,,,,,0.04,-0.02,1.0,0,0,0,0.05,0,,,,,,,,,,,,,,,,,
12603,0,,,,,,,,0.04,-0.02,1.0,0,0,0,0.05,0,,,,,,,,,,,,,,,,,
12643,0,1,2,47,52,32,36,-5,0.04,-0.02,1.0,0,-0,0,0.05,0,0,0.0,0.0,0.0,0.0,0,0,0.0,0,0.0,-1,0.0,0.0,0.0,0,0.0,0.2107
12683,0,,,,,,,,0.04,-0.02,1.0,0,0,0,0.04,0,,,,,,,,,,,,,,,,,
12723,0,,,,,,,,0.04,-0.02,1.0,0,0,0,0.04,0,,,,,,,,,,,,,,,,,
12763,0,,,,,,,,0.04,-0.02,1.0,0,0,0,0.05,0,,,,,,,,,,,,,,,,,
12803,0,,,,,,,,0.04,-0.02,1.0,0,0,0,0.05,0,,,,,,,,,,,,,,,,,
12843,0,-0,2,47,52,32,36,-5,0.04,-0.02,1.0,0,0,0,0.05,0,0,0.0,0.0,0.0,0.0,0,0,0.0,0,0.0,-1,0.0,0.0,0.0,0,0.0,0.214
12883,0,,,,,,,,0.04,-0.02,1.0,0,0,0,0.04,0,,,,,,,,,,,,,,,,,
12923,0,,,,,,,,0.04,-0.02,1.0,0,-0,0,0.04,0,,,,,,,,,,,,,,,,,
12963,0,,,,,,,,0.04,-0.02,1.0,0,-0,0,0.04,0,,,,,,,,,,,,,,,,,
13003,0,,,,,,,,0.04,-0.02,1.0,0,-0,0,0.05,0,,,,,,,,,,,,,,,,,
13043,0,1,1,47,52,32,36,-5,0.04,-0.02,1.0,0,-0,0,0.05,0,0,0.0,0.0,0.0,0.0,0,0,0.0,0,0.0,-1,0.0,0.0,0.0,0,0.0,0.2174
13083,0,,,,,,,,0.04,-0.02,1.0,0,-0,0,0.04,0,,,,,,,,,,,,,,,,,
13123,0,,,,,,,,0.04,-0.02,1.0,0,-0,0,0.04,0,,,,,,,,,,,,,,,,,
13163,0,,,,,,,,0.04,-0.02,1.0,0,-0,0,0.04,0,,,,,,,,,,,,,,,,,
13203,0,,,,,,,,0.04,-0.02,1.0,0,-0,0,0.05,0,,,,,,,,,,,,,,,,,
13243,0,1,2,47,52,32,36,-4,0.04,-0.02,1.0,0,0,0,0.05,0,0,0.0,0.0,0.0,0.0,0,0,0.0,0,0.0,-1,0.0,0.0,0.0,0,0.0,0.2207
13283,0,,,,,,,,0.04,-0.02,1.0,0,0,0,0.05,0,,,,,,,,,,,,,,,,,
13323,0,,,,,,,,0.04,-0.02,1.0,0,0,0,0.05,0,,,,,,,,,,,,,,,,,
13363,0,,,,,,,,0.04,-0.02,1.0,0,-0,0,0.05,0,,,,,,,,,,,,,,,,,
13403,0,,,,,,,,0.04,-0.02,1.0,0,0,0,0.04,0,,,,,,,,,,,,,,,,,
13443,0,0,1,47,52,32,36,-6,0.04,-0.02,1.0,0,0,0,0.05,0,0,0.0,0.0,0.0,0.0,0,0,0.0,0,0.0,-1,0.0,0.0,0.0,0,0.0,0.224
13483,0,,,,,,,,0.04,-0.02,1.0,0,0,0,0.05,0,,,,,,,,,,,,,,,,,
13523,0,,,,,,,,0.04,-0.02,1.0,0,0,0,0.05,0,,,,,,,,,,,,,,,,,
13563,0,,,,,,,,0.04,-0.02,1.0,0,0,0,0.05,0,,,,,,,,,,,,,,,,,
13603,0,,,,,,,,0.04,-0.02,1.0,0,-0,0,0.04,0,,,,,,,,,,,,,,,,,
13643,0,1,1,47,52,32,36,-5,0.04,-0.02,1.0,0,-0,0,0.04,0,0,0.0,0.0,0.0,0.0,0,0,0.0,0,0.0,-1,0.0,0.0,0.0,0,0.0,0.2274
13683,0,,,,,,,,0.04,-0.02,1.0,0,-0,0,0.05,0,,,,,,,,,,,,,,,,,
13723,0,,,,,,,,0.04,-0.02,1.0,0,0,0,0.04,0,,,,,,,,,,,,,,,,,
13763,0,,,,,,,,0.04,-0.02,1.0,0,-0,0,0.04,0,,,,,,,,,,,,,,,,,
13803,0,,,,,,,,0.04,-0.02,1.0,0,-0,0,0.05,0,,,,,,,,,,,,,,,,,
13843,0,1,1,47,53,32,36,-5,0.04,-0.02,1.0,0,-0,0,0.05,0,0,0.0,0.0,0.0,0.0,0,0,0.0,0,0.0,-1,0.0,0.0,0.0,0,0.0,0.2307
13883,0,,,,,,,,0.04,-0.02,1.01,0,-0,0,0.04,0,,,,,,,,,,,,,,,,,
13923,0,,,,,,,,0.04,-0.02,1.01,0,0,0,0.04,0,,,,,,,,,,,,,,,,,
13963,0,,,,,,,,0.04,-0.02,1.01,0,0,0,0.05,0,,,,,,,,,,,,,,,,,
14003,0,,,,,,,,0.04,-0.02,1.0,0,0,0,0.05,0,,,,,,,,,,,,,,,,,
14043,0,-1,2,47,53,32,36,-5,0.05,-0.02,1.0,0,-0,0,0.05,0,0,0.0,0.0,0.0,0.0,0,0,0.0,0,0.0,-1,0.0,0.0,0.0,0,0.0,0.234
14083,0,,,,,,,,0.04,-0.03,1.01,0,0,0,0.05,0,,,,,,,,,,,,,,,,,
14123,0,,,,,,,,0.04,-0.02,1.0,0,0,0,0.04,0,,,,,,,,,,,,,,,,,
14163,0,,,,,,,,0.03,-0.02,1.01,0,0,0,0.04,0,,,,,,,,,,,,,,,,,
14203,0,,,,,,,,0.04,-0.02,1.02,0,0,0,0.04,0,,,,,,,,,,,,,,,,,
14243,0,1,1,47,53,32,36,-5,0.03,-0.02,1.01,0,0,0,0.04,0,0,0.0,0.0,0.0,0.0,0,0,0.0,0,0.0,-1,0.0,0.0,0.0,0,0.0,0.2374
14283,0,,,,,,,,0.03,-0.03,0.99,0,0,0,0.04,0,,,,,,,,,,,,,,,,,
14323,0,,,,,,,,0.03,-0.03,1.0,0,-0,0,0.04,0,,,,,,,,,,,,,,,,,
14363,0,,,,,,,,0.03,-0.04,0.98,0,-0,0,0.05,0,,,,,,,,,,,,,,,,,
14403,0,,,,,,,,0.04,-0.04,0.99,0,-0,0,0.05,0,,,,,,,,,,,,,,,,,
14443,0,0,1,47,53,32,36,-5,0.04,-0.03,0.97,0,-0,0,0.05,0,0,0.0,0.0,0.0,0.0,0,0,0.0,0,0.0,-1,0.0,0.0,0.0,0,0.0,0.2407
14483,0,,,,,,,,0.04,-0.03,0.96,0,0,0,0.05,0,,,,,,,,,,,,,,,,,
14523,0,,,,,,,,0.04,-0.02,0.96,0,-0,0,0.04,0,,,,,,,,,,,,,,,,,
14563,0,,,,,,,,0.03,-0.03,0.97,0,-0,0,0.04,0,,,,,,,,,,,,,,,,,
14603,0,,,,,,,,0.04,-0.02,1.0,0,0,0,0.04,0,,,,,,,,,,,,,,,,,
14643,0,0,1,47,52,32,36,-6,0.04,-0.02,1.01,0,0,0,0.04,0,0,0.0,0.0,0.0,0.0,0,0,0.0,0,0.0,-1,0.0,0.0,0.0,0,0.0,0.244
14683,0,,,,,,,,0.04,-0.02,1.05,0,0,0,0.04,0,,,,,,,,,,,,,,,,,
14723,0,,,,,,,,0.05,-0.01,1.04,0,0,0,0.05,0,,,,,,,,,,,,,,,,,
14763,0,,,,,,,,0.05,-0.02,1.0,0,0,0,0.05,0,,,,,,,,,,,,,,,,,
14803,0,,,,,,,,0.06,-0.02,1.02,0,0,0,0.06,0,,,,,,,,,,,,,,,,,
14843,0,0,1,47,53,32,36,-6,0.05,-0.02,1.01,0,0,0,0.05,0,0,0.0,0.0,0.0,0.0,0,0,0.0,0,0.0,-1,0.0,0.0,0.0,0,0.0,0.2474
14883,0,,,,,,,,0.05,-0.02,1.01,0,0,0,0.05,0,,,,,,,,,,,,,,,,,
14923,0,,,,,,,,0.04,-0.01,1.01,0,-0,0,0.04,0,,,,,,,,,,,,,,,,,
14963,0,,,,,,,,0.05,-0.02,1.0,0,0,0,0.05,0,,,,,,,,,,,,,,,,,
15003,0,,,,,,,,0.05,-0.02,0.99,0,0,0,0.05,0,,,,,,,,,,,,,,,,,
15043,0,-1,2,47,53,32,36,-5,0.04,-0.02,1.02,0,0,0,0.05,0,0,0.0,0.0,0.0,0.0,0,0,0.0,0,0.0,-1,0.0,0.0,0.0,0,0.0,0.2507
15083,0,,,,,,,,0.05,-0.02,1.02,0,1,-0,0.05,0,,,,,,,,,,,,,,,,,
15123,0,,,,,,,,0.06,-0.01,1.03,0,1,-0,0.06,0,,,,,,,,,,,,,,,,,
15163,0,,,,,,,,0.04,-0.01,1.03,0,0,0,0.05,0,,,,,,,,,,,,,,,,,
15203,0,,,,,,,,0.04,-0.02,1.04,0,0,-0,0.05,0,,,,,,,,,,,,,,,,,
15243,0,1,2,47,53,32,36,-4,0.04,-0.02,1.02,0,-0,0,0.04,0,0,0.0,0.0,0.0,0.0,0,0,0.0,0,0.0,-1,0.0,0.0,0.0,0,0.0,0.254
15283,0,,,,,,,,0.04,-0.02,1.03,0,0,0,0.05,0,,,,,,,,,,,,,,,,,
15323,0,,,,,,,,0.05,-0.02,1.0,0,-0,0,0.05,0,,,,,,,,,,,,,,,,,
15363,0,,,,,,,,0.05,-0.02,1.01,0,-0,0,0.06,0,,,,,,,,,,,,,,,,,
15403,0,,,,,,,,0.05,-0.02,1.0,0,0,0,0.05,0,,,,,,,,,,,,,,,,,
15443,0,-1,1,47,53,32,36,-5,0.05,-0.01,0.99,0,-0,0,0.05,0,0,0.0,0.0,0.0,0.0,0,0,0.0,0,0.0,-1,0.0,0.0,0.0,0,0.0,0.2574
15483,0,,,,,,,,0.05,-0.01,0.99,0,0,0,0.05,0,,,,,,,,,,,,,,,,,
15523,0,,,,,,,,0.04,-0.01,0.96,0,-0,0,0.04,0,,,,,,,,,,,,,,,,,
15563,0,,,,,,,,0.03,-0.01,0.98,0,-0,0,0.03,0,,,,,,,,,,,,,,,,,
15603,0,,,,,,,,0.03,-0.01,0.97,0,-0,0,0.03,0,,,,,,,,,,,,,,,,,
15643,0,0,2,47,53,32,36,-6,0.03,-0.01,0.96,0,-0,0,0.03,0,0,0.0,0.0,0.0,0.0,0,0,0.0,0,0.0,-1,0.0,0.0,0.0,0,0.0,0.2607
15683,0,,,,,,,,0.05,-0.01,0.94,0,-0,0,0.05,0,,,,,,,,,,,,,,,,,
15723,0,,,,,,,,0.05,-0.02,0.97,0,-0,0,0.05,0,,,,,,,,,,,,,,,,,
15763,0,,,,,,,,0.04,-0.02,0.96,0,-0,0,0.04,0,,,,,,,,,,,,,,,,,
15803,0,,,,,,,,0.03,-0.02,0.94,0,-0,0,0.04,0,,,,,,,,,,,,,,,,,
15843,0,0,2,47,53,32,36,-5,0.05,-0.02,0.94,0,-0,0,0.05,0,0,0.0,0.0,0.0,0.0,0,0,0.0,0,0.0,-1,0.0,0.0,0.0,0,0.0,0.264
15883,0,,,,,,,,0.04,-0.01,0.93,0,-0,0,0.04,0,,,,,,,,,,,,,,,,,
15923,0,,,,,,,,0.04,-0.01,0.87,0,0,0,0.04,0,,,,,,,,,,,,,,,,,
15963,0,,,,,,,,0.02,-0.01,0.9,0,1,0,0.03,0,,,,,,,,,,,,,,,,,
16003,0,,,,,,,,0.03,-0.02,0.89,0,1,0,0.03,0,,,,,,,,,,,,,,,,,
16043,0,0,0,47,53,32,36,-5,0.02,-0.01,0.92,0,1,0,0.02,0,0,0.0,0.0,0.0,0.0,0,0,0.0,0,0.0,-1,0.0,0.0,0.0,0,0.0,0.2674
16083,0,,,,,,,,0.02,-0.02,0.91,0,1,0,0.03,0,,,,,,,,,,,,,,,,,
16123,0,,,,,,,,-0.01,-0.03,1.0,0,-0,0,0.03,0,,,,,,,,,,,,,,,,,
16163,0,,,,,,,,-0.04,-0.04,1.03,0,-3,1,0.05,0,,,,,,,,,,,,,,,,,
16203,0,,,,,,,,-0.03,-0.03,1.16,0,-3,-0,0.04,0,,,,,,,,,,,,,,,,,
16243,0,-1,2,47,53,32,36,-5,0.13,-0.01,0.74,0,-1,2,0.13,0,0,0.0,0.0,0.0,0.0,0,0,0.0,0,0.0,-1,0.0,0.0,0.0,0,0.0,0.2707
16283,0,,,,,,,,0.44,-0.03,0.27,0,-6,1,0.45,0,,,,,,,,,,,,,,,,,
16323,0,,,,,,,,0.42,-0.03,-0.16,0,-18,10,0.42,0,,,,,,,,,,,,,,,,,
16363,0,,,,,,,,0.31,0.0,-0.15,-1,-29,14,0.31,0,,,,,,,,,,,,,,,,,
16403,0,,,,,,,,0.26,0.07,-0.14,-1,-22,7,0.27,0,,,,,,,,,,,,,,,,,
16443,0,0,2,47,53,32,36,-5,0.16,0.12,0.22,-1,-19,5,0.2,0,0,0.0,0.0,0.0,0.0,0,0,0.0,0,0.0,-1,0.0,0.0,0.0,0,0.0,0.274
16483,0,,,,,,,,0.15,0.12,0.16,-1,-17,6,0.2,0,,,,,,,,,,,,,,,,,
16523,0,,,,,,,,0.11,0.13,-0.25,-1,-16,10,0.17,0,,,,,,,,,,,,,,,,,
16563,0,,,,,,,,0.09,0.04,-0.36,-0,-11,5,0.1,0,,,,,,,,,,,,,,,,,
16603,0,,,,,,,,0.05,-0.05,-0.62,-0,-11,7,0.07,0,,,,,,,,,,,,,,,,,
16643,0,0,1,47,53,32,36,-4,0.03,-0.03,-0.14,-1,-9,5,0.04,0,0,0.0,0.0,0.0,0.0,0,0,0.0,0,0.0,-1,0.0,0.0,0.0,0,0.0,0.2774
16683,0,,,,,,,,0.08,-0.14,0.18,-1,-5,3,0.16,0,,,,,,,,,,,,,,,,,
16723,0,,,,,,,,0.02,-0.14,0.32,-0,-3,1,0.14,0,,,,,,,,,,,,,,,,,
16763,0,,,,,,,,0.02,-0.12,0.15,0,-4,4,0.12,0,,,,,,,,,,,,,,,,,
16803,0,,,,,,,,0.05,-0.12,0.1,0,0,3,0.13,0,,,,,,,,,,,,,,,,,
16843,0,-1,2,47,53,32,36,-5,0.0,-0.17,-0.3,0,-1,4,0.17,0,0,0.0,0.0,0.0,0.0,0,0,0.0,0,0.0,-1,0.0,0.0,0.0,0,0.0,0.2807
16883,0,,,,,,,,-0.0,-0.22,-0.62,0,-1,7,0.22,0,,,,,,,,,,,,,,,,,
16923,0,,,,,,,,0.06,-0.12,-0.13,1,4,2,0.13,0,,,,,,,,,,,,,,,,,
16963,0,,,,,,,,0.06,-0.06,0.06,1,2,1,0.09,0,,,,,,,,,,,,,,,,,
17003,0,,,,,,,,0.04,-0.09,0.07,1,-1,1,0.1,0,,,,,,,,,,,,,,,,,
17043,0,-0,2,47,53,32,36,-6,0.07,-0.02,0.03,1,-4,1,0.07,0,0,0.0,0.0,0.0,0.0,0,0,0.0,0,0.0,-1,0.0,0.0,0.0,0,0.0,0.284
17083,0,,,,,,,,0.1,-0.07,0.41,1,1,-3,0.13,0,,,,,,,,,,,,,,,,,
17123,0,,,,,,,,0.08,-0.08,0.31,0,-7,3,0.11,0,,,,,,,,,,,,,,,,,
17163,0,,,,,,,,0.07,-0.15,0.44,1,-4,-1,0.17,0,,,,,,,,,,,,,,,,,
17203,0,,,,,,,,0.13,-0.12,0.74,0,-2,-2,0.18,0,,,,,,,,,,,,,,,,,
17243,0,-1,2,47,53,32,36,-4,0.04,-0.09,0.22,0,-3,2,0.1,0,0,0.0,0.0,0.0,0.0,0,0,0.0,0,0.0,-1,0.0,0.0,0.0,0,0.0,0.2874
17283,0,,,,,,,,0.08,0.04,0.3,0,-3,-0,0.09,0,,,,,,,,,,,,,,,,,
17323,0,,,,,,,,-0.01,0.06,-0.14,0,-4,4,0.06,0,,,,,,,,,,,,,,,,,
17363,0,,,,,,,,-0.08,0.14,-0.13,1,-2,5,0.16,0,,,,,,,,,,,,,,,,,
17403,0,,,,,,,,-0.05,0.13,-0.13,1,-2,4,0.14,0,,,,,,,,,,,,,,,,,
17443,0,0,1,47,53,32,36,-5,-0.06,0.07,0.12,1,1,0,0.09,0,0,0.0,0.0,0.0,0.0,0,0,0.0,0,0.0,-1,0.0,0.0,0.0,0,0.0,0.2907
17483,0,,,,,,,,0.05,0.04,0.33,1,1,-0,0.06,0,,,,,,,,,,,,,,,,,
17523,0,,,,,,,,0.0,0.1,0.24,1,-0,1,0.1,0,,,,,,,,,,,,,,,,,
17563,0,,,,,,,,-0.03,0.07,0.21,1,1,-1,0.08,0,,,,,,,,,,,,,,,,,
17603,0,,,,,,,,0.01,0.09,0.46,1,-1,-3,0.09,0,,,,,,,,,,,,,,,,,
17643,0,-1,2,47,53,32,36,-5,0.05,0.09,0.75,1,3,-6,0.1,0,0,0.0,0.0,0.0,0.0,0,0,0.0,0,0.0,-1,0.0,0.0,0.0,0,0.0,0.294
17683,0,,,,,,,,0.07,0.1,0.99,1,6,-10,0.12,0,,,,,,,,,,,,,,,,,
17723,0,,,,,,,,0.11,0.13,1.18,1,8,-11,0.17,0,,,,,,,,,,,,,,,,,
17763,0,,,,,,,,0.05,0.11,0.76,1,0,-5,0.11,0,,,,,,,,,,,,,,,,,
17803,0,,,,,,,,-0.03,0.07,0.66,1,-1,-5,0.08,0,,,,,,,,,,,,,,,,,
17843,0,0,2,47,53,32,36,-6,-0.01,0.1,0.85,0,1,-6,0.1,0,0,0.0,0.0,0.0,0.0,0,0,0.0,0,0.0,-1,0.0,0.0,0.0,0,0.0,0.2974
17883,0,,,,,,,,-0.01,0.02,0.31,-0,1,-2,0.02,0,,,,,,,,,,,,,,,,,
17923,0,,,,,,,,0.07,0.04,0.59,0,5,-5,0.08,0,,,,,,,,,,,,,,,,,
17963,0,,,,,,,,0.0,-0.01,0.14,0,-1,-1,0.01,0,,,,,,,,,,,,,,,,,
18003,0,,,,,,,,0.02,0.01,0.09,0,-1,1,0.02,0,,,,,,,,,,,,,,,,,
18043,0,0,0,47,53,32,36,-5,-0.04,-0.05,0.06,0,-1,0,0.07,0,0,0.0,0.0,0.0,0.0,0,0,0.0,0,0.0,-1,0.0,0.0,0.0,0,0.0,0.3007
18083,0,,,,,,,,-0.02,-0.06,0.06,1,-4,5,0.07,0,,,,,,,,,,,,,,,,,
18123,0,,,,,,,,0.03,-0.13,0.43,0,6,-4,0.14,0,,,,,,,,,,,,,,,,,
18163,0,,,,,,,,0.16,-0.1,0.73,-1,9,-4,0.19,0,,,,,,,,,,,,,,,,,
18203,0,,,,,,,,0.14,-0.05,0.21,1,-5,8,0.15,0,,,,,,,,,,,,,,,,,
18243,0,-1,2,47,53,32,36,-5,0.03,-0.1,-0.21,1,-21,20,0.1,0,0,0.0,0.0,0.0,0.0,0,0,0.0,0,0.0,-1,0.0,0.0,0.0,0,0.0,0.304
18283,0,,,,,,,,-0.01,-0.03,-0.55,1,-28,27,0.03,0,,,,,,,,,,,,,,,,,
18323,0,,,,,,,,-0.07,-0.05,-0.83,1,-35,34,0.09,0,,,,,,,,,,,,,,,,,
18363,0,,,,,,,,0.01,-0.01,-0.65,0,-31,30,0.01,0,,,,,,,,,,,,,,,,,
18403,0,,,,,,,,0.06,-0.07,-0.15,0,-14,13,0.1,0,,,,,,,,,,,,,,,,,
18443,0,1,0,47,53,32,36,-4,-0.01,-0.09,-0.21,0,-18,18,0.09,0,0,0.0,0.0,0.0,0.0,0,0,0.0,0,0.0,-1,0.0,0.0,0.0,0,0.0,0.3074
18483,0,,,,,,,,0.04,-0.06,-0.15,0,-15,15,0.07,0,,,,,,,,,,,,,,,,,
18523,0,,,,,,,,0.11,-0.03,-0.14,0,-12,13,0.12,0,,,,,,,,,,,,,,,,,
18563,0,,,,,,,,0.21,-0.04,0.27,0,-8,8,0.21,0,,,,,,,,,,,,,,,,,
18603,0,,,,,,,,0.17,-0.0,0.23,1,-6,7,0.17,0,,,,,,,,,,,,,,,,,
18643,0,0,2,47,53,32,36,-6,0.13,-0.04,0.15,0,-4,7,0.14,0,0,0.0,0.0,0.0,0.0,0,0,0.0,0,0.0,-1,0.0,0.0,0.0,0,0.0,0.3107
18683,0,,,,,,,,0.14,-0.0,0.1,1,-3,7,0.14,0,,,,,,,,,,,,,,,,,
18723,0,,,,,,,,0.07,0.02,0.46,0,-4,1,0.08,0,,,,,,,,,,,,,,,,,
18763,0,,,,,,,,0.07,-0.08,0.11,0,-4,5,0.11,0,,,,,,,,,,,,,,,,,
18803,0,,,,,,,,0.13,-0.04,0.07,0,-1,3,0.14,0,,,,,,,,,,,,,,,,,
18843,0,-0,1,47,53,32,36,-4,0.05,-0.13,0.41,0,-4,1,0.14,0,0,0.0,0.0,0.0,0.0,0,0,0.0,0,0.0,-1,0.0,0.0,0.0,0,0.0,0.314
18883,0,,,,,,,,0.02,-0.11,0.24,1,3,0,0.11,0,,,,,,,,,,,,,,,,,
18923,0,,,,,,,,0.08,-0.07,0.4,0,1,-2,0.11,0,,,,,,,,,,,,,,,,,
18963,0,,,,,,,,-0.02,-0.03,0.35,0,-0,3,0.04,0,,,,,,,,,,,,,,,,,
19003,0,,,,,,,,-0.01,-0.03,0.45,0,10,-10,0.03,0,,,,,,,,,,,,,,,,,
19043,0,-1,2,47,53,32,36,-5,-0.12,-0.07,-0.01,0,17,-16,0.14,0,0,0.0,0.0,0.0,0.0,0,0,0.0,0,0.0,-1,0.0,0.0,0.0,0,0.0,0.3174
19083,0,,,,,,,,-0.15,-0.06,0.02,0,30,-28,0.16,0,,,,,,,,,,,,,,,,,
19123,0,,,,,,,,0.02,-0.02,0.39,-0,36,-30,0.03,0,,,,,,,,,,,,,,,,,
19163,0,,,,,,,,0.17,0.05,0.7,0,26,-18,0.18,0,,,,,,,,,,,,,,,,,
19203,0,,,,,,,,0.25,0.09,0.94,0,11,-7,0.27,0,,,,,,,,,,,,,,,,,
19243,0,0,1,47,53,32,36,-4,0.31,0.11,1.14,1,7,-1,0.33,0,0,0.0,0.0,0.0,0.0,0,0,0.0,0,0.0,-1,0.0,0.0,0.0,0,0.0,0.3207
19283,0,,,,,,,,0.3,0.05,1.31,1,13,-7,0.31,0,,,,,,,,,,,,,,,,,
19323,0,,,,,,,,0.26,0.13,1.23,1,21,-18,0.29,0,,,,,,,,,,,,,,,,,
19363,0,,,,,,,,0.13,0.06,0.62,1,9,-6,0.15,0,,,,,,,,,,,,,,,,,
19403,0,,,,,,,,0.18,0.01,0.52,1,6,-1,0.18,0,,,,,,,,,,,,,,,,,
19443,0,0,0,47,53,32,36,-4,0.18,0.04,0.4,1,12,-11,0.18,0,0,0.0,0.0,0.0,0.0,0,0,0.0,0,0.0,-1,0.0,0.0,0.0,0,0.0,0.324
19483,0,,,,,,,,0.12,0.07,0.34,1,4,-1,0.14,0,,,,,,,,,,,,,,,,,
19523,0,,,,,,,,0.13,0.15,0.26,0,7,-8,0.2,0,,,,,,,,,,,,,,,,,
19563,0,,,,,,,,0.08,0.15,0.23,1,4,-4,0.17,0,,,,,,,,,,,,,,,,,
19603,0,,,,,,,,-0.01,0.15,0.16,1,4,-2,0.15,0,,,,,,,,,,,,,,,,,
19643,0,0,1,47,53,32,36,-5,0.11,0.09,0.51,1,10,-7,0.14,0,0,0.0,0.0,0.0,0.0,0,0,0.0,0,0.0,-1,0.0,0.0,0.0,0,0.0,0.3274
19683,0,,,,,,,,0.03,0.04,0.03,1,2,0,0.05,0,,,,,,,,,,,,,,,,,
19723,0,,,,,,,,0.12,-0.01,0.41,1,9,-5,0.12,0,,,,,,,,,,,,,,,,,
19763,0,,,,,,,,0.04,-0.04,0.02,1,2,1,0.06,0,,,,,,,,,,,,,,,,,
19803,0,,,,,,,,0.05,-0.02,0.18,1,2,1,0.05,0,,,,,,,,,,,,,,,,,
19843,0,0,0,47,53,32,36,-4,0.02,0.02,0.13,0,5,-6,0.02,0,0,0.0,0.0,0.0,0.0,0,0,0.0,0,0.0,-1,0.0,0.0,0.0,0,0.0,0.3307
19883,0,,,,,,,,-0.06,0.05,-0.28,1,-4,5,0.08,0,,,,,,,,,,,,,,,,,
19923,0,,,,,,,,0.08,-0.0,0.15,0,6,-4,0.08,0,,,,,,,,,,,,,,,,,
19963,0,,,,,,,,0.03,0.01,0.1,0,8,-7,0.03,0,,,,,,,,,,,,,,,,,
20003,0,,,,,,,,-0.03,0.04,-0.3,1,-6,5,0.05,0,,,,,,,,,,,,,,,,,
20043,0,-0,2,47,53,32,36,-5,0.04,-0.02,0.14,1,1,1,0.05,0,0,0.0,0.0,0.0,0.0,0,0,0.0,0,0.0,-1,0.0,0.0,0.0,0,0.0,0.334
20083,0,,,,,,,,0.24,-0.0,0.49,-0,6,-3,0.24,0,,,,,,,,,,,,,,,,,
20123,0,,,,,,,,0.06,-0.01,0.39,0,1,1,0.07,0,,,,,,,,,,,,,,,,,
20163,0,,,,,,,,0.1,-0.01,0.34,1,3,-1,0.1,0,,,,,,,,,,,,,,,,,
20203,0,,,,,,,,0.06,-0.05,0.2,-1,-5,3,0.08,0,,,,,,,,,,,,,,,,,
20243,0,0,0,47,53,32,36,-4,0.09,-0.06,0.14,0,-9,8,0.11,0,0,0.0,0.0,0.0,0.0,0,0,0.0,0,0.0,-1,0.0,0.0,0.0,0,0.0,0.3374
20283,0,,,,,,,,0.19,0.02,0.49,1,10,-7,0.19,0,,,,,,,,,,,,,,,,,
20323,0,,,,,,,,0.15,-0.03,0.02,1,-11,7,0.16,0,,,,,,,,,,,,,,,,,
20363,0,,,,,,,,0.05,-0.0,0.03,1,-5,1,0.05,0,,,,,,,,,,,,,,,,,
20403,0,,,,,,,,0.09,0.0,0.41,1,6,-11,0.09,0,,,,,,,,,,,,,,,,,
20443,0,1,0,47,53,32,36,-4,0.06,0.04,0.28,1,-1,-4,0.07,0,0,0.0,0.0,0.0,0.0,0,0,0.0,0,0.0,-1,0.0,0.0,0.0,0,0.0,0.3407
20483,0,,,,,,,,-0.01,0.07,0.25,1,3,-7,0.07,0,,,,,,,,,,,,,,,,,
20523,0,,,,,,,,-0.05,0.1,0.22,1,-1,-6,0.11,0,,,,,,,,,,,,,,,,,
20563,0,,,,,,,,-0.04,0.06,-0.18,1,3,-4,0.07,0,,,,,,,,,,,,,,,,,
20603,0,,,,,,,,0.05,0.05,0.22,0,5,-5,0.07,0,,,,,,,,,,,,,,,,,
20643,0,0,0,47,53,32,36,-4,0.08,0.03,0.2,0,5,-7,0.08,0,0,0.0,0.0,0.0,0.0,0,0,0.0,0,0.0,-1,0.0,0.0,0.0,0,0.0,0.344
20683,0,,,,,,,,0.1,0.01,0.54,1,9,-9,0.1,0,,,,,,,,,,,,,,,,,
20723,0,,,,,,,,0.13,-0.02,0.82,1,7,-8,0.13,0,,,,,,,,,,,,,,,,,
20763,0,,,,,,,,0.21,0.1,1.04,0,6,-10,0.23,0,,,,,,,,,,,,,,,,,
20803,0,,,,,,,,0.27,0.12,1.22,1,6,-11,0.3,0,,,,,,,,,,,,,,,,,
20843,0,-1,2,47,53,32,36,-5,0.3,0.26,1.37,1,6,-13,0.4,0,0,0.0,0.0,0.0,0.0,0,0,0.0,0,0.0,-1,0.0,0.0,0.0,0,0.0,0.3474
20883,0,,,,,,,,0.29,0.21,1.49,1,7,-16,0.35,0,,,,,,,,,,,,,,,,,
20923,0,,,,,,,,0.21,0.31,1.33,1,11,-15,0.38,0,,,,,,,,,,,,,,,,,
20963,0,,,,,,,,0.12,0.24,0.82,1,8,-10,0.27,0,,,,,,,,,,,,,,,,,
21003,0,,,,,,,,0.08,0.19,0.29,1,5,-4,0.21,0,,,,,,,,,,,,,,,,,
21043,0,-1,2,47,53,32,36,-5,0.06,0.09,-0.15,1,2,1,0.11,0,0,0.0,0.0,0.0,0.0,0,0,0.0,0,0.0,-1,0.0,0.0,0.0,0,0.0,0.3507
21083,0,,,,,,,,0.03,-0.0,-0.46,0,-3,6,0.03,0,,,,,,,,,,,,,,,,,
21123,0,,,,,,,,-0.02,-0.09,-0.57,-0,-6,11,0.09,0,,,,,,,,,,,,,,,,,
21163,0,,,,,,,,-0.03,-0.25,-0.15,-1,-7,9,0.25,0,,,,,,,,,,,,,,,,,
21203,0,,,,,,,,-0.01,-0.25,0.22,-1,-7,9,0.25,0,,,,,,,,,,,,,,,,,
21243,0,-1,2,47,53,32,36,-5,0.01,-0.34,0.56,-1,-7,6,0.34,0,0,0.0,0.0,0.0,0.0,0,0,0.0,0,0.0,-1,0.0,0.0,0.0,0,0.0,0.354
21283,0,,,,,,,,0.08,-0.27,0.83,-1,-5,3,0.28,0,,,,,,,,,,,,,,,,,
21323,0,,,,,,,,0.12,-0.25,1.05,-1,-3,-1,0.28,0,,,,,,,,,,,,,,,,,
21363,0,,,,,,,,0.23,-0.13,1.23,-1,-2,-4,0.27,0,,,,,,,,,,,,,,,,,
21403,0,,,,,,,,0.22,-0.23,1.38,-1,0,-5,0.32,0,,,,,,,,,,,,,,,,,
21443,0,-1,2,47,53,32,36,-4,0.11,-0.21,0.85,-0,-1,-2,0.23,0,0,0.0,0.0,0.0,0.0,0,0,0.0,0,0.0,-1,0.0,0.0,0.0,0,0.0,0.3574
21483,0,,,,,,,,0.12,-0.18,0.88,-0,1,-4,0.22,0,,,,,,,,,,,,,,,,,
21523,0,,,,,,,,0.16,-0.21,0.79,-0,4,-7,0.26,0,,,,,,,,,,,,,,,,,
21563,0,,,,,,,,0.17,-0.16,0.62,-0,1,-4,0.23,0,,,,,,,,,,,,,,,,,
21603,0,,,,,,,,0.09,-0.14,0.33,-1,-2,-1,0.17,0,,,,,,,,,,,,,,,,,
21643,0,0,0,47,53,32,36,-4,-0.02,-0.15,0.05,-0,-5,3,0.15,0,0,0.0,0.0,0.0,0.0,0,0,0.0,0,0.0,-1,0.0,0.0,0.0,0,0.0,0.3607
21683,0,,,,,,,,-0.06,-0.09,0.26,0,-8,4,0.11,0,,,,,,,,,,,,,,,,,
21723,0,,,,,,,,-0.17,-0.05,0.02,0,-11,7,0.18,0,,,,,,,,,,,,,,,,,
21763,0,,,,,,,,-0.21,-0.07,0.03,0,-12,5,0.22,0,,,,,,,,,,,,,,,,,
21803,0,,,,,,,,-0.13,0.03,0.23,1,-10,7,0.14,0,,,,,,,,,,,,,,,,,
21843,0,0,0,47,53,32,36,-9,-0.18,0.12,0.21,1,-11,10,0.21,0,0,0.0,0.0,0.0,0.0,0,0,0.0,0,0.0,-1,0.0,0.0,0.0,0,0.0,0.364
21883,0,,,,,,,,-0.08,0.05,0.55,1,-5,5,0.09,0,,,,,,,,,,,,,,,,,
21923,0,,,,,,,,-0.04,0.12,0.41,2,-4,6,0.13,0,,,,,,,,,,,,,,,,,
21963,0,,,,,,,,-0.01,0.05,0.42,1,-3,3,0.05,0,,,,,,,,,,,,,,,,,
22003,0,,,,,,,,0.04,0.01,0.33,1,-4,3,0.04,0,,,,,,,,,,,,,,,,,
22043,0,0,1,47,53,32,36,-36,-0.04,0.08,0.33,1,-4,3,0.09,0,0,0.0,0.0,0.0,0.0,0,0,0.0,0,0.0,-1,0.0,0.0,0.0,0,0.0,0.3674
22083,0,,,,,,,,0.02,0.17,0.24,1,-3,4,0.17,0,,,,,,,,,,,,,,,,,
22123,0,,,,,,,,-0.04,0.13,0.48,1,-5,4,0.13,0,,,,,,,,,,,,,,,,,
22163,0,,,,,,,,0.02,0.1,0.52,2,-2,4,0.1,0,,,,,,,,,,,,,,,,,
22203,0,,,,,,,,0.02,-0.04,0.78,3,-0,2,0.05,0,,,,,,,,,,,,,,,,,
22243,0,0,0,47,53,32,36,-45,-0.08,0.06,0.5,2,-4,5,0.1,0,0,0.0,0.0,0.0,0.0,0,0,0.0,0,0.0,-1,0.0,0.0,0.0,0,0.0,0.3707
22283,0,,,,,,,,0.05,-0.04,0.54,3,3,2,0.06,0,,,,,,,,,,,,,,,,,
22323,0,,,,,,,,0.12,0.03,0.44,4,5,3,0.12,0,,,,,,,,,,,,,,,,,
22363,0,,,,,,,,-0.03,0.08,0.58,2,-5,4,0.08,0,,,,,,,,,,,,,,,,,
22403,0,,,,,,,,0.0,0.03,0.64,2,-7,3,0.03,0,,,,,,,,,,,,,,,,,
22443,0,0,2,47,53,32,36,-48,0.02,-0.07,0.83,3,-4,2,0.08,0,0,0.0,0.0,0.0,0.0,0,0,0.0,0,0.0,-1,0.0,0.0,0.0,0,0.0,0.374
22483,0,,,,,,,,-0.0,-0.06,0.64,3,-4,2,0.06,0,,,,,,,,,,,,,,,,,
22523,0,,,,,,,,0.01,-0.05,0.9,4,-1,1,0.06,0,,,,,,,,,,,,,,,,,
22563,0,,,,,,,,0.02,0.01,0.62,4,-2,3,0.02,0,,,,,,,,,,,,,,,,,
22603,0,,,,,,,,-0.02,-0.03,0.49,3,-4,3,0.04,0,,,,,,,,,,,,,,,,,
22643,0,0,0,47,53,31,37,-48,0.01,-0.06,0.52,4,1,-0,0.06,0,0,0.0,0.0,0.0,0.0,0,0,0.0,0,0.0,-1,0.0,0.0,0.0,0,0.0,0.3774
22683,0,,,,,,,,0.03,-0.01,0.5,4,-1,-0,0.03,0,,,,,,,,,,,,,,,,,
22723,0,,,,,,,,-0.03,-0.02,0.55,4,-3,0,0.04,0,,,,,,,,,,,,,,,,,
22763,0,,,,,,,,-0.0,-0.07,0.46,4,-2,-1,0.07,0,,,,,,,,,,,,,,,,,
22803,0,,,,,,,,0.03,-0.02,0.16,4,-5,3,0.04,0,,,,,,,,,,,,,,,,,
22843,0,0,0,47,54,31,37,-50,0.07,0.04,0.11,5,-2,1,0.08,0,0,0.0,0.0,0.0,0.0,0,0,0.0,0,0.0,-1,0.0,0.0,0.0,0,0.0,0.3807
22883,0,,,,,,,,0.05,-0.07,0.19,4,-3,-1,0.08,0,,,,,,,,,,,,,,,,,
22923,0,,,,,,,,0.1,0.01,-0.23,4,-7,3,0.1,0,,,,,,,,,,,,,,,,,
22963,0,,,,,,,,0.08,0.06,-0.21,5,-4,2,0.1,0,,,,,,,,,,,,,,,,,
23003,0,,,,,,,,0.09,-0.06,0.13,5,-2,-3,0.11,0,,,,,,,,,,,,,,,,,
23043,0,-1,2,47,54,32,37,-50,0.13,0.01,-0.28,5,-5,3,0.13,0,0,0.0,0.0,0.0,0.0,0,0,0.0,0,0.0,-1,0.0,0.0,0.0,0,0.0,0.384
23083,0,,,,,,,,0.12,-0.05,0.16,5,-2,-1,0.13,0,,,,,,,,,,,,,,,,,
23123,0,,,,,,,,0.13,-0.06,0.09,6,-2,3,0.14,0,,,,,,,,,,,,,,,,,
23163,0,,,,,,,,0.08,-0.02,0.45,7,1,-1,0.08,0,,,,,,,,,,,,,,,,,
23203,0,,,,,,,,0.12,0.02,0.0,8,-2,2,0.12,0,,,,,,,,,,,,,,,,,
23243,0,0,0,47,54,31,37,-53,0.13,0.02,0.38,8,3,-2,0.13,0,0,0.0,0.0,0.0,0.0,0,0,0.0,0,0.0,-1,0.0,0.0,0.0,0,0.0,0.3874
23283,0,,,,,,,,0.14,0.08,-0.07,8,1,3,0.16,0,,,,,,,,,,,,,,,,,
23323,0,,,,,,,,0.16,-0.07,0.32,8,4,-3,0.17,0,,,,,,,,,,,,,,,,,
23363,0,,,,,,,,0.06,0.06,0.28,8,3,-1,0.08,0,,,,,,,,,,,,,,,,,
23403,0,,,,,,,,0.1,0.08,-0.01,8,-3,2,0.13,0,,,,,,,,,,,,,,,,,
23443,0,0,0,47,54,31,37,-54,0.25,0.0,0.37,9,3,-4,0.25,0,0,0.0,0.0,0.0,0.0,0,0,0.0,0,0.0,-1,0.0,0.0,0.0,0,0.0,0.3907
23483,0,,,,,,,,0.22,-0.04,0.68,9,4,-3,0.22,0,,,,,,,,,,,,,,,,,
23523,0,,,,,,,,0.17,0.15,0.17,9,-0,2,0.23,0,,,,,,,,,,,,,,,,,
23563,0,,,,,,,,0.16,0.13,-0.21,10,-3,5,0.2,0,,,,,,,,,,,,,,,,,
23603,0,,,,,,,,0.19,-0.03,0.21,10,-2,1,0.19,0,,,,,,,,,,,,,,,,,
23643,0,0,0,48,54,31,37,-55,0.22,-0.08,0.55,10,0,-3,0.23,0,0,0.0,0.0,0.0,0.0,0,0,0.0,0,0.0,-1,0.0,0.0,0.0,0,0.0,0.394
23683,0,,,,,,,,0.28,-0.13,0.82,10,5,-8,0.31,0,,,,,,,,,,,,,,,,,
23723,0,,,,,,,,0.36,-0.04,1.05,11,7,-8,0.36,0,,,,,,,,,,,,,,,,,
23763,0,,,,,,,,0.38,-0.09,1.23,11,8,-10,0.39,0,,,,,,,,,,,,,,,,,
23803,0,,,,,,,,0.41,-0.01,1.37,12,8,-8,0.41,0,,,,,,,,,,,,,,,,,
23843,0,0,0,48,53,31,37,-56,0.47,-0.1,1.49,12,10,-10,0.48,0,0,0.0,0.0,0.0,0.0,0,0,0.0,0,0.0,-1,0.0,0.0,0.0,0,0.0,0.3974
23883,0,,,,,,,,0.54,-0.03,1.59,13,9,-10,0.54,0,,,,,,,,,,,,,,,,,
23923,0,,,,,,,,0.56,-0.11,1.67,13,10,-14,0.57,0,,,,,,,,,,,,,,,,,
23963,0,,,,,,,,0.44,-0.14,1.21,14,8,-11,0.46,0,,,,,,,,,,,,,,,,,
24003,0,,,,,,,,0.33,0.03,0.6,14,4,-4,0.33,0,,,,,,,,,,,,,,,,,
24043,0,0,2,48,53,32,36,-55,0.39,0.01,0.87,15,4,-7,0.39,0,0,0.0,0.0,0.0,0.0,0,0,0.0,0,0.0,-1,0.0,0.0,0.0,0,0.0,0.4007
24083,0,,,,,,,,0.33,-0.05,0.81,15,5,-10,0.33,0,,,,,,,,,,,,,,,,,
24123,0,,,,,,,,0.28,-0.05,0.67,15,2,-4,0.29,0,,,,,,,,,,,,,,,,,
24163,0,,,,,,,,0.27,-0.05,0.53,16,3,-3,0.28,0,,,,,,,,,,,,,,,,,
24203,0,,,,,,,,0.26,-0.05,0.45,16,-0,1,0.26,0,,,,,,,,,,,,,,,,,
24243,0,0,0,48,53,31,36,-54,0.25,-0.04,0.38,17,-2,4,0.25,0,0,0.0,0.0,0.0,0.0,0,0,0.0,0,0.0,-1,0.0,0.0,0.0,0,0.0,0.404
24283,0,,,,,,,,0.29,-0.07,0.39,17,0,0,0.3,0,,,,,,,,,,,,,,,,,
24323,0,,,,,,,,0.31,-0.0,0.58,17,3,-1,0.31,0,,,,,,,,,,,,,,,,,
24363,0,,,,,,,,0.26,0.02,0.32,17,-1,3,0.26,0,,,,,,,,,,,,,,,,,
24403,0,,,,,,,,0.36,0.08,0.64,18,-2,3,0.37,0,,,,,,,,,,,,,,,,,
24443,0,-1,2,49,53,31,36,-52,0.36,0.06,0.75,18,0,-2,0.37,0,0,0.0,0.0,0.0,0.0,0,0,0.0,0,0.0,-1,0.0,0.0,0.0,0,0.0,0.4074
24483,0,,,,,,,,0.41,0.07,0.92,19,1,-5,0.41,0,,,,,,,,,,,,,,,,,
24523,0,,,,,,,,0.4,0.08,1.13,19,-0,-3,0.41,0,,,,,,,,,,,,,,,,,
24563,0,,,,,,,,0.3,0.06,0.77,19,-3,-1,0.3,0,,,,,,,,,,,,,,,,,
24603,0,,,,,,,,0.31,0.08,1.01,20,0,-4,0.32,0,,,,,,,,,,,,,,,,,
24643,0,-0,2,48,54,30,36,-50,0.31,0.08,0.55,20,-1,1,0.32,0,0,0.0,0.0,0.0,0.0,0,0,0.0,0,0.0,-1,0.0,0.0,0.0,0,0.0,0.4107
24683,0,,,,,,,,0.34,0.12,0.77,21,0,-1,0.36,0,,,,,,,,,,,,,,,,,
24723,0,,,,,,,,0.29,0.06,0.64,20,-2,-1,0.29,0,,,,,,,,,,,,,,,,,
24763,0,,,,,,,,0.23,0.1,0.5,21,-2,2,0.25,0,,,,,,,,,,,,,,,,,
24803,0,,,,,,,,0.3,0.07,0.39,21,-2,4,0.31,0,,,,,,,,,,,,,,,,,
24843,0,0,2,49,54,30,36,-44,0.31,0.1,0.69,21,-2,2,0.33,0,0,0.0,0.0,0.0,0.0,0,0,0.0,0,0.0,-1,0.0,0.0,0.0,0,0.0,0.414
24883,0,,,,,,,,0.35,0.11,0.58,22,4,1,0.37,0,,,,,,,,,,,,,,,,,
24923,0,,,,,,,,0.33,0.13,0.49,23,-2,4,0.36,0,,,,,,,,,,,,,,,,,
24963,0,,,,,,,,0.29,0.13,0.02,23,-2,5,0.32,0,,,,,,,,,,,,,,,,,
25003,0,,,,,,,,0.34,0.13,-0.01,24,-1,4,0.36,0,,,,,,,,,,,,,,,,,
25043,0,0,0,50,54,29,36,-41,0.56,0.15,0.37,24,4,-1,0.59,0,0,0.0,0.0,0.0,0.0,0,0,0.0,0,0.0,-1,0.0,0.0,0.0,0,0.0,0.4174
25083,0,,,,,,,,0.43,0.18,0.28,23,6,-5,0.47,0,,,,,,,,,,,,,,,,,
25123,0,,,,,,,,0.25,0.27,-0.15,23,-4,3,0.37,0,,,,,,,,,,,,,,,,,
25163,0,,,,,,,,0.22,0.26,-0.1,22,12,-11,0.34,0,,,,,,,,,,,,,,,,,
25203,0,,,,,,,,0.22,0.16,-0.1,22,-2,0,0.27,0,,,,,,,,,,,,,,,,,
25243,0,1,1,50,55,29,36,-33,0.21,0.12,-0.11,23,6,-10,0.24,0,0,0.0,0.0,0.0,0.0,0,0,0.0,0,0.0,-1,0.0,0.0,0.0,0,0.0,0.4207
25283,0,,,,,,,,0.46,0.16,-0.07,22,7,-8,0.49,0,,,,,,,,,,,,,,,,,
25323,0,,,,,,,,0.42,0.14,-0.03,24,3,0,0.44,0,,,,,,,,,,,,,,,,,
25363,0,,,,,,,,0.33,0.09,-0.05,22,-5,4,0.34,0,,,,,,,,,,,,,,,,,
25403,0,,,,,,,,0.19,0.1,-0.06,20,-9,7,0.22,0,,,,,,,,,,,,,,,,,
25443,0,-0,3,50,55,29,36,-30,0.22,0.18,-0.07,19,-9,7,0.29,0,0,0.0,0.0,0.0,0.0,0,0,0.0,0,0.0,-1,0.0,0.0,0.0,0,0.0,0.424
25483,0,,,,,,,,0.22,0.21,-0.08,20,-0,3,0.31,0,,,,,,,,,,,,,,,,,
25523,0,,,,,,,,0.35,0.19,-0.04,22,10,-3,0.4,0,,,,,,,,,,,,,,,,,
25563,0,,,,,,,,0.4,0.24,-0.01,23,3,3,0.47,0,,,,,,,,,,,,,,,,,
25603,0,,,,,,,,0.28,0.26,-0.3,23,-0,7,0.38,0,,,,,,,,,,,,,,,,,
25643,0,0,2,50,55,28,35,-24,0.24,0.24,-0.26,23,0,6,0.34,0,0,0.0,0.0,0.0,0.0,0,0,0.0,0,0.0,-1,0.0,0.0,0.0,0,0.0,0.4274
25683,0,,,,,,,,0.25,0.29,-0.23,22,9,1,0.38,0,,,,,,,,,,,,,,,,,
25723,0,,,,,,,,0.47,0.36,-0.17,22,10,-2,0.59,0,,,,,,,,,,,,,,,,,
25763,0,,,,,,,,0.4,0.36,-0.52,22,-3,7,0.54,0,,,,,,,,,,,,,,,,,
25803,0,,,,,,,,0.3,0.3,-0.44,20,4,1,0.43,0,,,,,,,,,,,,,,,,,
25843,0,-1,0,51,56,28,35,-16,0.51,0.32,-0.34,17,1,-1,0.61,0,0,0.0,0.0,0.0,0.0,0,0,0.0,0,0.0,-1,0.0,0.0,0.0,0,0.0,0.4307
25883,0,,,,,,,,0.38,0.16,-0.29,17,-1,3,0.41,0,,,,,,,,,,,,,,,,,
25923,0,,,,,,,,0.47,0.17,-0.22,17,-8,9,0.5,0,,,,,,,,,,,,,,,,,
25963,0,,,,,,,,0.47,0.1,-0.22,18,-12,10,0.48,0,,,,,,,,,,,,,,,,,
26003,0,,,,,,,,0.44,0.12,-0.01,17,-9,8,0.46,0,,,,,,,,,,,,,,,,,
26043,0,0,2,52,55,29,35,-13,0.36,0.15,0.04,16,-4,6,0.39,0,0,0.0,0.0,0.0,0.0,0,0,0.0,0,0.0,-1,0.0,0.0,0.0,0,0.0,0.434
26083,0,,,,,,,,0.31,0.18,0.03,16,-3,6,0.36,0,,,,,,,,,,,,,,,,,
26123,0,,,,,,,,0.37,0.19,0.37,16,4,1,0.42,0,,,,,,,,,,,,,,,,,
26163,0,,,,,,,,0.39,0.19,0.36,15,-1,2,0.43,0,,,,,,,,,,,,,,,,,
26203,0,,,,,,,,0.36,0.04,0.45,14,2,1,0.36,0,,,,,,,,,,,,,,,,,
26243,0,0,2,49,54,31,36,-2,0.35,0.18,0.54,13,-2,0,0.39,0,0,0.0,0.0,0.0,0.0,0,0,0.0,0,0.0,-1,0.0,0.0,0.0,0,0.0,0.4374
26283,0,,,,,,,,0.21,0.1,0.49,11,5,-3,0.24,0,,,,,,,,,,,,,,,,,
26323,0,,,,,,,,0.4,0.13,0.77,10,17,-10,0.43,0,,,,,,,,,,,,,,,,,
26363,0,,,,,,,,0.65,0.13,1.01,9,25,-15,0.66,0,,,,,,,,,,,,,,,,,
26403,0,,,,,,,,0.46,-0.04,0.79,7,36,-21,0.46,0,,,,,,,,,,,,,,,,,
26443,0,0,2,50,55,29,34,2,0.46,-0.1,0.26,6,19,-9,0.47,0,0,0.0,0.0,0.0,0.0,0,0,0.0,0,0.0,-1,0.0,0.0,0.0,0,0.0,0.4407
26483,0,,,,,,,,0.62,-0.04,0.59,6,21,-14,0.63,0,,,,,,,,,,,,,,,,,
26523,0,,,,,,,,0.45,-0.06,0.1,5,12,-7,0.45,0,,,,,,,,,,,,,,,,,
26563,0,,,,,,,,0.46,-0.02,0.06,3,18,-11,0.46,0,,,,,,,,,,,,,,,,,
26603,0,,,,,,,,0.5,-0.09,-0.04,1,10,-9,0.51,0,,,,,,,,,,,,,,,,,
26643,0,0,2,50,56,29,34,2,0.52,-0.0,-0.01,2,12,-9,0.52,0,0,0.0,0.0,0.0,0.0,0,0,0.0,0,0.0,-1,0.0,0.0,0.0,0,0.0,0.444
26683,0,,,,,,,,0.48,-0.03,0.01,2,15,-13,0.48,0,,,,,,,,,,,,,,,,,
26723,0,,,,,,,,0.32,-0.05,-0.37,4,3,-6,0.32,0,,,,,,,,,,,,,,,,,
26763,0,,,,,,,,0.52,0.0,-0.2,2,-0,-2,0.52,0,,,,,,,,,,,,,,,,,
26803,0,,,,,,,,0.26,0.17,-0.23,3,5,-10,0.31,0,,,,,,,,,,,,,,,,,
26843,0,-1,2,49,56,29,34,3,0.43,0.11,-0.2,1,-10,3,0.45,0,0,0.0,0.0,0.0,0.0,0,0,0.0,0,0.0,-1,0.0,0.0,0.0,0,0.0,0.4474
26883,0,,,,,,,,0.13,-0.05,-0.36,0,-3,-2,0.14,0,,,,,,,,,,,,,,,,,
26923,0,,,,,,,,0.3,-0.13,0.09,1,12,-18,0.32,0,,,,,,,,,,,,,,,,,
26963,0,,,,,,,,0.42,0.08,0.45,1,22,-26,0.43,0,,,,,,,,,,,,,,,,,
27003,0,,,,,,,,0.46,0.04,0.75,1,27,-34,0.46,0,,,,,,,,,,,,,,,,,
27043,0,-0,2,49,55,29,34,2,0.49,0.2,0.98,1,36,-41,0.54,0,0,0.0,0.0,0.0,0.0,0,0,0.0,0,0.0,-1,0.0,0.0,0.0,0,0.0,0.4507
27083,0,,,,,,,,0.45,0.18,0.95,1,37,-42,0.49,0,,,,,,,,,,,,,,,,,
27123,0,,,,,,,,0.4,0.25,0.39,2,20,-26,0.47,0,,,,,,,,,,,,,,,,,
27163,0,,,,,,,,0.52,0.22,0.7,2,25,-30,0.57,0,,,,,,,,,,,,,,,,,
27203,0,,,,,,,,0.39,0.19,0.18,2,13,-16,0.43,0,,,,,,,,,,,,,,,,,
27243,0,0,1,49,51,30,35,-0,0.44,0.17,0.53,2,19,-20,0.47,0,0,0.0,0.0,0.0,0.0,0,0,0.0,0,0.0,-1,0.0,0.0,0.0,0,0.0,0.454
27283,0,,,,,,,,0.35,0.15,0.17,3,12,-12,0.38,0,,,,,,,,,,,,,,,,,
27323,0,,,,,,,,0.37,0.07,0.12,3,10,-8,0.38,0,,,,,,,,,,,,,,,,,
27363,0,,,,,,,,0.29,0.11,0.08,3,7,-8,0.31,0,,,,,,,,,,,,,,,,,
27403,0,,,,,,,,0.32,0.17,0.08,3,7,-9,0.37,0,,,,,,,,,,,,,,,,,
27443,0,-1,2,48,54,31,36,-0,0.37,0.14,0.08,3,6,-6,0.4,0,0,0.0,0.0,0.0,0.0,0,0,0.0,0,0.0,-1,0.0,0.0,0.0,0,0.0,0.4574
27483,0,,,,,,,,0.37,0.13,0.09,3,-1,-5,0.39,0,,,,,,,,,,,,,,,,,
27523,0,,,,,,,,0.42,0.08,0.09,4,2,-4,0.43,0,,,,,,,,,,,,,,,,,
27563,0,,,,,,,,0.36,0.08,0.09,4,1,-3,0.37,0,,,,,,,,,,,,,,,,,
27603,0,,,,,,,,0.26,0.07,0.09,4,0,-3,0.27,0,,,,,,,,,,,,,,,,,
27643,0,0,0,47,48,32,36,-1,0.31,0.05,0.1,4,-3,-2,0.32,0,0,0.0,0.0,0.0,0.0,0,0,0.0,0,0.0,-1,0.0,0.0,0.0,0,0.0,0.4607
27683,0,,,,,,,,0.2,0.08,0.1,5,-3,0,0.22,0,,,,,,,,,,,,,,,,,
27723,0,,,,,,,,0.22,0.14,-0.12,5,-4,3,0.26,0,,,,,,,,,,,,,,,,,
27763,0,,,,,,,,0.14,0.15,-0.12,5,-3,2,0.21,0,,,,,,,,,,,,,,,,,
27803,0,,,,,,,,0.21,0.12,0.28,5,-0,-1,0.24,0,,,,,,,,,,,,,,,,,
27843,0,-0,1,47,52,31,37,-1,0.21,0.13,0.25,5,-2,-1,0.25,0,0,0.0,0.0,0.0,0.0,0,0,0.0,0,0.0,-1,0.0,0.0,0.0,0,0.0,0.464
27883,0,,,,,,,,0.11,0.17,0.25,5,-1,-0,0.2,0,,,,,,,,,,,,,,,,,
27923,0,,,,,,,,0.19,0.18,0.18,5,4,-1,0.26,0,,,,,,,,,,,,,,,,,
27963,0,,,,,,,,0.15,0.14,0.29,5,1,-1,0.21,0,,,,,,,,,,,,,,,,,
28003,0,,,,,,,,0.08,0.17,0.21,5,1,0,0.19,0,,,,,,,,,,,,,,,,,
28043,0,0,0,47,52,31,37,-0,0.17,0.19,0.24,5,7,-2,0.25,0,0,0.0,0.0,0.0,0.0,0,0,0.0,0,0.0,-1,0.0,0.0,0.0,0,0.0,0.4674
28083,0,,,,,,,,0.18,0.16,0.21,5,2,-0,0.24,0,,,,,,,,,,,,,,,,,
28123,0,,,,,,,,0.15,0.17,0.41,5,-2,-2,0.23,0,,,,,,,,,,,,,,,,,
28163,0,,,,,,,,0.13,0.07,0.31,5,5,-2,0.15,0,,,,,,,,,,,,,,,,,
28203,0,,,,,,,,0.17,0.17,0.62,5,8,-2,0.24,0,,,,,,,,,,,,,,,,,
28243,0,-1,2,47,51,32,37,-1,0.09,0.11,0.37,5,4,-3,0.15,0,0,0.0,0.0,0.0,0.0,0,0,0.0,0,0.0,-1,0.0,0.0,0.0,0,0.0,0.4707
28283,0,,,,,,,,0.06,0.09,0.68,5,4,-3,0.11,0,,,,,,,,,,,,,,,,,
28323,0,,,,,,,,0.09,0.01,0.51,5,6,-3,0.09,0,,,,,,,,,,,,,,,,,
28363,0,,,,,,,,0.18,0.16,0.4,6,5,-0,0.24,0,,,,,,,,,,,,,,,,,
28403,0,,,,,,,,0.11,0.12,0.41,6,-1,-2,0.16,0,,,,,,,,,,,,,,,,,
28443,0,0,2,46,50,32,38,-7,-0.03,0.19,0.37,7,-2,1,0.19,0,0,0.0,0.0,0.0,0.0,0,0,0.0,0,0.0,-1,0.0,0.0,0.0,0,0.0,0.474
28483,0,,,,,,,,0.13,0.21,0.32,8,4,-2,0.24,0,,,,,,,,,,,,,,,,,
28523,0,,,,,,,,0.08,0.2,-0.12,8,-3,2,0.22,0,,,,,,,,,,,,,,,,,
28563,0,,,,,,,,0.06,0.28,0.28,9,-5,-0,0.29,0,,,,,,,,,,,,,,,,,
28603,0,,,,,,,,0.01,0.38,0.21,9,-5,2,0.38,0,,,,,,,,,,,,,,,,,
28643,0,-1,2,47,51,31,38,-8,0.11,0.43,0.31,10,4,-2,0.44,0,0,0.0,0.0,0.0,0.0,0,0,0.0,0,0.0,-1,0.0,0.0,0.0,0,0.0,0.4774
28683,0,,,,,,,,0.08,0.42,0.27,11,3,-1,0.43,0,,,,,,,,,,,,,,,,,
28723,0,,,,,,,,0.04,0.5,0.6,12,-1,-1,0.5,0,,,,,,,,,,,,,,,,,
28763,0,,,,,,,,0.04,0.33,0.41,12,7,-1,0.33,0,,,,,,,,,,,,,,,,,
28803,0,,,,,,,,0.17,0.38,0.6,13,7,1,0.42,0,,,,,,,,,,,,,,,,,
28843,0,-1,2,48,50,32,39,-10,0.13,0.36,0.31,13,0,3,0.38,0,0,0.0,0.0,0.0,0.0,0,0,0.0,0,0.0,-1,0.0,0.0,0.0,0,0.0,0.4807
28883,0,,,,,,,,0.05,0.35,0.63,14,-2,1,0.35,0,,,,,,,,,,,,,,,,,
28923,0,,,,,,,,-0.02,0.24,0.32,14,-4,6,0.24,0,,,,,,,,,,,,,,,,,
28963,0,,,,,,,,0.11,0.39,0.31,14,1,2,0.4,0,,,,,,,,,,,,,,,,,
29003,0,,,,,,,,0.16,0.35,0.23,15,3,1,0.38,0,,,,,,,,,,,,,,,,,
29043,0,-1,2,47,50,31,39,-12,0.08,0.28,-0.07,15,-6,5,0.29,0,0,0.0,0.0,0.0,0.0,0,0,0.0,0,0.0,-1,0.0,0.0,0.0,0,0.0,0.484
29083,0,,,,,,,,0.05,0.36,0.32,15,-8,2,0.37,0,,,,,,,,,,,,,,,,,
29123,0,,,,,,,,0.03,0.37,0.24,16,-8,3,0.37,0,,,,,,,,,,,,,,,,,
29163,0,,,,,,,,0.04,0.31,-0.09,17,-5,5,0.31,0,,,,,,,,,,,,,,,,,
29203,0,,,,,,,,0.12,0.54,-0.05,18,-1,3,0.56,0,,,,,,,,,,,,,,,,,
29243,0,0,1,49,50,30,39,-16,0.23,0.56,-0.02,19,2,1,0.61,0,0,0.0,0.0,0.0,0.0,0,0,0.0,0,0.0,-1,0.0,0.0,0.0,0,0.0,0.4874
29283,0,,,,,,,,0.28,0.51,0.18,20,-0,2,0.58,0,,,,,,,,,,,,,,,,,
29323,0,,,,,,,,0.12,0.51,0.12,20,-5,4,0.53,0,,,,,,,,,,,,,,,,,
29363,0,,,,,,,,0.04,0.56,0.08,22,-8,5,0.57,0,,,,,,,,,,,,,,,,,
29403,0,,,,,,,,-0.05,0.61,-0.03,23,-9,8,0.61,0,,,,,,,,,,,,,,,,,
29443,0,0,2,49,49,30,40,-17,-0.15,0.51,-0.06,23,-12,10,0.53,0,0,0.0,0.0,0.0,0.0,0,0,0.0,0,0.0,-1,0.0,0.0,0.0,0,0.0,0.4907
29483,0,,,,,,,,-0.18,0.41,-0.13,23,-12,12,0.45,0,,,,,,,,,,,,,,,,,
29523,0,,,,,,,,-0.06,0.43,0.14,23,-11,9,0.43,0,,,,,,,,,,,,,,,,,
29563,0,,,,,,,,0.05,0.42,0.31,24,-9,5,0.42,0,,,,,,,,,,,,,,,,,
29603,0,,,,,,,,0.17,0.51,0.63,24,-7,2,0.54,0,,,,,,,,,,,,,,,,,
29643,0,-0,1,50,50,30,40,-14,0.19,0.5,0.18,24,-2,2,0.54,0,0,0.0,0.0,0.0,0.0,0,0,0.0,0,0.0,-1,0.0,0.0,0.0,0,0.0,0.494
29683,0,,,,,,,,0.25,0.5,-0.17,24,-1,3,0.56,0,,,,,,,,,,,,,,,,,
29723,0,,,,,,,,0.32,0.48,0.24,24,1,0,0.58,0,,,,,,,,,,,,,,,,,
29763,0,,,,,,,,0.18,0.5,0.17,24,-2,2,0.53,0,,,,,,,,,,,,,,,,,
29803,0,,,,,,,,0.2,0.5,-0.02,24,-6,3,0.54,0,,,,,,,,,,,,,,,,,
29843,0,-1,2,50,50,29,39,-13,0.22,0.65,-0.04,23,-4,2,0.69,0,0,0.0,0.0,0.0,0.0,0,0,0.0,0,0.0,-1,0.0,0.0,0.0,0,0.0,0.4974
29883,0,,,,,,,,0.13,0.57,-0.05,23,-6,3,0.58,0,,,,,,,,,,,,,,,,,
29923,0,,,,,,,,0.17,0.62,-0.06,23,-3,1,0.65,0,,,,,,,,,,,,,,,,,
29963,0,,,,,,,,0.14,0.64,-0.4,23,-5,5,0.66,0,,,,,,,,,,,,,,,,,
30003,0,,,,,,,,0.22,0.49,-0.05,23,-3,2,0.53,0,,,,,,,,,,,,,,,,,
30043,0,0,1,50,50,29,39,-11,0.22,0.51,0.32,22,-1,-1,0.55,0,0,0.0,0.0,0.0,0.0,0,0,0.0,0,0.0,-1,0.0,0.0,0.0,0,0.0,0.5007
30083,0,,,,,,,,0.28,0.37,0.64,23,4,-5,0.46,0,,,,,,,,,,,,,,,,,
30123,0,,,,,,,,0.32,0.39,0.65,23,1,-4,0.5,0,,,,,,,,,,,,,,,,,
30163,0,,,,,,,,0.27,0.44,0.5,22,3,-1,0.51,0,,,,,,,,,,,,,,,,,
30203,0,,,,,,,,0.45,0.31,0.79,22,5,-5,0.55,0,,,,,,,,,,,,,,,,,
30243,0,-1,2,50,50,29,38,-10,0.43,0.32,0.62,22,5,-3,0.54,0,0,0.0,0.0,0.0,0.0,0,0,0.0,0,0.0,-1,0.0,0.0,0.0,0,0.0,0.504
30283,0,,,,,,,,0.39,0.39,0.31,22,6,-2,0.56,0,,,,,,,,,,,,,,,,,
30323,0,,,,,,,,0.5,0.48,0.63,22,4,-3,0.69,0,,,,,,,,,,,,,,,,,
30363,0,,,,,,,,0.53,0.48,0.89,21,5,-4,0.71,0,,,,,,,,,,,,,,,,,
30403,0,,,,,,,,0.46,0.4,1.09,21,3,-3,0.62,0,,,,,,,,,,,,,,,,,
30443,0,-1,2,50,50,29,38,-8,0.43,0.42,1.22,21,7,-5,0.6,0,0,0.0,0.0,0.0,0.0,0,0,0.0,0,0.0,-1,0.0,0.0,0.0,0,0.0,0.5074
30483,0,,,,,,,,0.4,0.41,0.77,21,3,-1,0.57,0,,,,,,,,,,,,,,,,,
30523,0,,,,,,,,0.47,0.48,0.65,20,2,-2,0.68,0,,,,,,,,,,,,,,,,,
30563,0,,,,,,,,0.36,0.52,0.5,20,-1,1,0.63,0,,,,,,,,,,,,,,,,,
30603,0,,,,,,,,0.55,0.52,0.57,20,-0,-1,0.76,0,,,,,,,,,,,,,,,,,
30643,0,0,1,50,51,28,38,-7,0.44,0.54,0.48,20,3,-1,0.69,0,0,0.0,0.0,0.0,0.0,0,0,0.0,0,0.0,-1,0.0,0.0,0.0,0,0.0,0.5107
30683,0,,,,,,,,0.42,0.65,0.42,20,-1,0,0.77,0,,,,,,,,,,,,,,,,,
30723,0,,,,,,,,0.33,0.56,0.5,19,-0,-1,0.65,0,,,,,,,,,,,,,,,,,
30763,0,,,,,,,,0.22,0.51,0.68,19,1,-1,0.55,0,,,,,,,,,,,,,,,,,
30803,0,,,,,,,,0.2,0.54,0.46,19,-3,-0,0.57,0,,,,,,,,,,,,,,,,,
30843,0,-1,2,50,51,28,37,-6,0.16,0.47,0.37,19,3,-0,0.5,0,0,0.0,0.0,0.0,0.0,0,0,0.0,0,0.0,-1,0.0,0.0,0.0,0,0.0,0.514
30883,0,,,,,,,,0.39,0.51,0.68,19,8,-3,0.64,0,,,,,,,,,,,,,,,,,
30923,0,,,,,,,,0.41,0.37,0.71,18,5,-2,0.55,0,,,,,,,,,,,,,,,,,
30963,0,,,,,,,,0.5,0.3,0.84,18,2,-1,0.59,0,,,,,,,,,,,,,,,,,
31003,0,,,,,,,,0.57,0.18,0.99,18,6,-4,0.59,0,,,,,,,,,,,,,,,,,
31043,0,-0,1,51,51,27,37,-4,0.65,0.24,1.01,18,10,-6,0.69,0,0,0.0,0.0,0.0,0.0,0,0,0.0,0,0.0,-1,0.0,0.0,0.0,0,0.0,0.5174
31083,0,,,,,,,,0.52,0.44,0.6,17,10,-5,0.68,0,,,,,,,,,,,,,,,,,
31123,0,,,,,,,,0.44,0.46,0.33,18,5,-1,0.63,0,,,,,,,,,,,,,,,,,
31163,0,,,,,,,,0.55,0.4,0.64,18,7,-4,0.68,0,,,,,,,,,,,,,,,,,
31203,0,,,,,,,,0.55,0.43,0.44,18,1,1,0.7,0,,,,,,,,,,,,,,,,,
31243,0,0,1,51,51,28,36,-3,0.65,0.55,0.58,18,5,-2,0.85,0,0,0.0,0.0,0.0,0.0,0,0,0.0,0,0.0,-1,0.0,0.0,0.0,0,0.0,0.5207
31283,0,,,,,,,,0.67,0.54,0.49,18,-0,1,0.86,0,,,,,,,,,,,,,,,,,
31323,0,,,,,,,,0.64,0.6,0.39,18,-1,3,0.88,0,,,,,,,,,,,,,,,,,
31363,0,,,,,,,,0.71,0.58,0.29,18,4,-1,0.92,0,,,,,,,,,,,,,,,,,
31403,0,,,,,,,,0.38,0.58,0.2,16,-2,3,0.7,0,,,,,,,,,,,,,,,,,
31443,0,0,0,48,48,30,40,0,0.19,0.63,-0.22,15,-1,2,0.66,0,0,0.0,0.0,0.0,0.0,0,0,0.0,0,0.0,-1,0.0,0.0,0.0,0,0.0,0.524
31483,0,,,,,,,,0.26,0.75,0.05,14,-6,3,0.8,0,,,,,,,,,,,,,,,,,
31523,0,,,,,,,,0.47,0.54,0.42,14,-3,-1,0.71,0,,,,,,,,,,,,,,,,,
31563,0,,,,,,,,0.54,0.42,0.48,13,1,-3,0.68,0,,,,,,,,,,,,,,,,,
31603,0,,,,,,,,0.67,0.44,0.63,13,3,-2,0.81,0,,,,,,,,,,,,,,,,,
31643,0,1,1,49,51,28,36,-0,0.64,0.51,0.61,13,3,-4,0.81,0,0,0.0,0.0,0.0,0.0,0,0,0.0,0,0.0,-1,0.0,0.0,0.0,0,0.0,0.5274
31683,0,,,,,,,,0.61,0.54,0.21,14,0,-1,0.82,0,,,,,,,,,,,,,,,,,
31723,0,,,,,,,,0.59,0.43,0.55,14,1,-1,0.73,0,,,,,,,,,,,,,,,,,
31763,0,,,,,,,,0.63,0.3,0.83,14,4,-5,0.7,0,,,,,,,,,,,,,,,,,
31803,0,,,,,,,,0.69,0.32,1.05,14,4,-4,0.76,0,,,,,,,,,,,,,,,,,
31843,0,-0,2,50,51,28,37,1,0.58,0.49,0.68,14,-2,1,0.76,0,0,0.0,0.0,0.0,0.0,0,0,0.0,0,0.0,-1,0.0,0.0,0.0,0,0.0,0.5307
31883,0,,,,,,,,0.49,0.5,0.17,14,-6,2,0.7,0,,,,,,,,,,,,,,,,,
31923,0,,,,,,,,0.37,0.46,0.52,13,-1,-4,0.59,0,,,,,,,,,,,,,,,,,
31963,0,,,,,,,,0.38,0.57,0.04,12,-4,2,0.68,0,,,,,,,,,,,,,,,,,
32003,0,,,,,,,,0.43,0.51,0.28,12,0,0,0.67,0,,,,,,,,,,,,,,,,,
32043,0,0,1,49,50,28,36,3,0.42,0.51,-0.13,10,1,2,0.66,0,0,0.0,0.0,0.0,0.0,0,0,0.0,0,0.0,-1,0.0,0.0,0.0,0,0.0,0.534
32083,0,,,,,,,,0.45,0.39,0.1,9,1,0,0.59,0,,,,,,,,,,,,,,,,,
32123,0,,,,,,,,0.54,0.27,-0.1,8,-1,3,0.61,0,,,,,,,,,,,,,,,,,
32163,0,,,,,,,,0.53,0.22,-0.1,7,-2,1,0.58,0,,,,,,,,,,,,,,,,,
32203,0,,,,,,,,0.34,0.14,0.13,6,-0,-1,0.36,0,,,,,,,,,,,,,,,,,
32243,0,-0,2,46,51,30,35,1,0.3,0.18,0.12,5,-5,-1,0.35,0,0,0.0,0.0,0.0,0.0,0,0,0.0,0,0.0,-1,0.0,0.0,0.0,0,0.0,0.5374
32283,0,,,,,,,,0.26,0.07,-0.05,5,-8,4,0.27,0,,,,,,,,,,,,,,,,,
32323,0,,,,,,,,0.26,0.17,0.07,5,-2,2,0.31,0,,,,,,,,,,,,,,,,,
32363,0,,,,,,,,0.4,0.3,0.1,5,-2,2,0.5,0,,,,,,,,,,,,,,,,,
32403,0,,,,,,,,0.3,0.37,0.19,6,-3,1,0.47,0,,,,,,,,,,,,,,,,,
32443,0,0,2,45,50,30,36,3,0.36,0.52,0.4,5,-1,1,0.64,0,0,0.0,0.0,0.0,0.0,0,0,0.0,0,0.0,-1,0.0,0.0,0.0,0,0.0,0.5407
32483,0,,,,,,,,0.37,0.33,0.7,5,-2,2,0.49,0,,,,,,,,,,,,,,,,,
32523,0,,,,,,,,0.34,0.15,0.56,5,-2,4,0.37,0,,,,,,,,,,,,,,,,,
32563,0,,,,,,,,0.2,0.08,0.14,5,-1,2,0.22,0,,,,,,,,,,,,,,,,,
32603,0,,,,,,,,0.13,0.24,0.0,5,5,-0,0.27,0,,,,,,,,,,,,,,,,,
32643,0,0,1,45,48,30,36,3,0.08,0.23,0.1,5,13,-6,0.24,0,0,0.0,0.0,0.0,0.0,0,0,0.0,0,0.0,-1,0.0,0.0,0.0,0,0.0,0.544
32683,0,,,,,,,,0.32,0.11,0.46,4,17,-8,0.34,0,,,,,,,,,,,,,,,,,
32723,0,,,,,,,,0.64,0.1,0.75,4,21,-13,0.65,0,,,,,,,,,,,,,,,,,
32763,0,,,,,,,,0.67,0.09,0.87,4,26,-16,0.67,0,,,,,,,,,,,,,,,,,
32803,0,,,,,,,,0.55,0.14,0.49,4,22,-15,0.56,0,,,,,,,,,,,,,,,,,
32843,0,0,0,46,49,31,35,3,0.44,0.25,0.23,3,20,-12,0.51,0,0,0.0,0.0,0.0,0.0,0,0,0.0,0,0.0,-1,0.0,0.0,0.0,0,0.0,0.5474
32883,0,,,,,,,,0.42,0.13,-0.11,4,14,-8,0.44,0,,,,,,,,,,,,,,,,,
32923,0,,,,,,,,0.27,0.07,-0.24,3,7,-6,0.28,0,,,,,,,,,,,,,,,,,
32963,0,,,,,,,,0.25,0.07,-0.01,2,9,-4,0.26,0,,,,,,,,,,,,,,,,,
33003,0,,,,,,,,0.37,0.16,0.01,2,7,-3,0.4,0,,,,,,,,,,,,,,,,,
33043,0,-1,2,43,48,33,37,3,0.41,-0.01,-0.01,2,6,-2,0.41,0,0,0.0,0.0,0.0,0.0,0,0,0.0,0,0.0,-1,0.0,0.0,0.0,0,0.0,0.5507
33083,0,,,,,,,,0.39,0.11,-0.36,2,-2,3,0.41,0,,,,,,,,,,,,,,,,,
33123,0,,,,,,,,0.42,0.12,-0.54,2,-2,5,0.44,0,,,,,,,,,,,,,,,,,
33163,0,,,,,,,,0.41,0.29,-0.3,2,0,3,0.5,0,,,,,,,,,,,,,,,,,
33203,0,,,,,,,,0.42,0.18,0.14,3,7,-0,0.46,0,,,,,,,,,,,,,,,,,
33243,0,0,1,44,50,33,38,3,0.28,0.18,0.13,3,1,1,0.33,0,0,0.0,0.0,0.0,0.0,0,0,0.0,0,0.0,-1,0.0,0.0,0.0,0,0.0,0.5541
33283,0,,,,,,,,0.43,0.2,0.13,3,2,-1,0.48,0,,,,,,,,,,,,,,,,,
33323,0,,,,,,,,0.43,0.2,0.08,3,1,2,0.47,0,,,,,,,,,,,,,,,,,
33363,0,,,,,,,,0.3,0.23,-0.0,3,1,3,0.37,0,,,,,,,,,,,,,,,,,
33403,0,,,,,,,,0.36,0.26,0.35,3,4,-3,0.44,0,,,,,,,,,,,,,,,,,
33443,0,-0,2,42,48,29,34,4,0.34,0.29,0.33,3,2,2,0.45,0,0,0.0,0.0,0.0,0.0,0,0,0.0,0,0.0,-1,0.0,0.0,0.0,0,0.0,0.5574
33483,0,,,,,,,,0.35,0.31,-0.05,2,3,1,0.47,0,,,,,,,,,,,,,,,,,
33523,0,,,,,,,,0.45,0.25,0.34,2,9,-2,0.52,0,,,,,,,,,,,,,,,,,
33563,0,,,,,,,,0.5,0.23,0.02,2,7,-0,0.55,0,,,,,,,,,,,,,,,,,
33603,0,,,,,,,,0.45,0.05,0.28,1,5,1,0.45,0,,,,,,,,,,,,,,,,,
33643,0,-0,2,43,49,33,37,4,0.45,0.14,0.11,1,4,-1,0.47,0,0,0.0,0.0,0.0,0.0,0,0,0.0,0,0.0,-1,0.0,0.0,0.0,0,0.0,0.5607
33683,0,,,,,,,,0.38,0.06,0.23,0,2,-2,0.38,0,,,,,,,,,,,,,,,,,
33723,0,,,,,,,,0.37,0.03,0.16,-0,-2,1,0.37,0,,,,,,,,,,,,,,,,,
33763,0,,,,,,,,0.36,-0.0,0.15,-0,1,-4,0.36,0,,,,,,,,,,,,,,,,,
33803,0,,,,,,,,0.38,-0.1,0.5,-0,0,-3,0.4,0,,,,,,,,,,,,,,,,,
33843,0,8,8,39,40,34,39,1,0.32,0.12,0.29,0,-0,-5,0.34,0,0,0.0,0.0,0.0,0.0,0,0,0.0,0,0.0,-1,0.0,0.0,0.0,0,0.0,0.564
33883,0,,,,,,,,0.1,0.1,0.03,1,0,-3,0.14,0,,,,,,,,,,,,,,,,,
33923,0,,,,,,,,-0.05,0.12,-0.03,1,2,-2,0.13,0,,,,,,,,,,,,,,,,,
33963,0,,,,,,,,-0.21,0.14,0.07,2,3,-5,0.26,0,,,,,,,,,,,,,,,,,
34003,0,,,,,,,,-0.3,0.09,0.14,3,5,-5,0.32,0,,,,,,,,,,,,,,,,,
34043,0,15,15,36,36,38,44,3,-0.35,0.05,0.39,3,1,-5,0.35,0,0,0.0,0.0,0.0,0.0,0,0,0.0,0,0.0,-1,0.0,0.0,0.0,0,0.0,0.5674
34083,0,,,,,,,,-0.37,0.06,0.39,4,-0,-3,0.38,0,,,,,,,,,,,,,,,,,
34123,0,,,,,,,,-0.39,0.11,0.27,4,-6,1,0.4,0,,,,,,,,,,,,,,,,,
34163,0,,,,,,,,-0.43,-0.04,0.2,4,-12,5,0.43,0,,,,,,,,,,,,,,,,,
34203,0,,,,,,,,-0.52,-0.09,0.14,3,-11,4,0.53,0,,,,,,,,,,,,,,,,,
34243,0,19,18,38,42,33,39,6,-0.61,-0.09,0.27,1,-2,2,0.62,0,0,0.0,0.0,0.0,0.0,0,0,0.0,0,0.0,-1,0.0,0.0,0.0,0,0.0,0.5707
34283,0,,,,,,,,-0.49,-0.12,0.55,-1,6,-4,0.5,0,,,,,,,,,,,,,,,,,
34323,0,,,,,,,,-0.49,-0.12,0.53,-4,4,-6,0.5,0,,,,,,,,,,,,,,,,,
34363,0,,,,,,,,-0.59,-0.28,0.45,-6,0,-5,0.65,0,,,,,,,,,,,,,,,,,
34403,0,,,,,,,,-0.6,-0.29,-0.01,-7,-0,0,0.67,0,,,,,,,,,,,,,,,,,
34443,0,19,18,34,41,41,42,0,-0.41,-0.28,0.37,-7,4,-4,0.5,0,0,0.0,0.0,0.0,0.0,0,0,0.0,0,0.0,-1,0.0,0.0,0.0,0,0.0,0.574
34483,0,,,,,,,,-0.49,-0.21,0.31,-6,3,-4,0.53,0,,,,,,,,,,,,,,,,,
34523,0,,,,,,,,-0.63,-0.28,0.08,-5,-2,0,0.69,0,,,,,,,,,,,,,,,,,
34563,0,,,,,,,,-0.65,-0.21,0.12,-3,-3,2,0.68,0,,,,,,,,,,,,,,,,,
34603,0,,,,,,,,-0.63,-0.15,0.38,-0,-6,4,0.65,0,,,,,,,,,,,,,,,,,
34643,0,16,15,36,41,37,43,-1,-0.59,-0.1,0.69,2,-7,4,0.6,0,0,0.0,0.0,0.0,0.0,0,0,0.0,0,0.0,-1,0.0,0.0,0.0,0,0.0,0.5774
34683,0,,,,,,,,-0.55,0.07,0.94,4,-6,3,0.56,0,,,,,,,,,,,,,,,,,
34723,0,,,,,,,,-0.46,0.03,1.14,4,-9,3,0.47,0,,,,,,,,,,,,,,,,,
34763,0,,,,,,,,-0.45,0.01,1.11,4,-14,4,0.45,0,,,,,,,,,,,,,,,,,
34803,0,,,,,,,,-0.46,0.01,0.88,2,-13,5,0.46,0,,,,,,,,,,,,,,,,,
34843,0,17,16,36,43,36,41,8,-0.5,-0.19,0.55,0,-13,5,0.53,0,0,0.0,0.0,0.0,0.0,0,0,0.0,0,0.0,-1,0.0,0.0,0.0,0,0.0,0.5807
34883,0,,,,,,,,-0.47,-0.16,0.82,-2,-9,-1,0.5,0,,,,,,,,,,,,,,,,,
34923,0,,,,,,,,-0.54,-0.18,0.38,-3,-5,3,0.57,0,,,,,,,,,,,,,,,,,
34963,0,,,,,,,,-0.43,-0.11,0.48,-5,5,-2,0.44,0,,,,,,,,,,,,,,,,,
35003,0,,,,,,,,-0.35,-0.18,0.4,-5,2,-2,0.4,0,,,,,,,,,,,,,,,,,
35043,0,21,19,36,44,39,42,0,-0.37,-0.24,0.49,-6,2,-1,0.45,0,0,0.0,0.0,0.0,0.0,0,0,0.0,0,0.0,-1,0.0,0.0,0.0,0,0.0,0.584
35083,0,,,,,,,,-0.33,-0.07,0.38,-4,4,-2,0.34,0,,,,,,,,,,,,,,,,,
35123,0,,,,,,,,-0.35,-0.05,0.28,-2,0,1,0.36,0,,,,,,,,,,,,,,,,,
35163,0,,,,,,,,-0.34,-0.06,0.21,1,4,-1,0.34,0,,,,,,,,,,,,,,,,,
35203,0,,,,,,,,-0.35,-0.06,0.15,2,0,-2,0.36,0,,,,,,,,,,,,,,,,,
35243,0,20,17,38,42,35,41,1,-0.4,-0.02,0.26,3,0,-4,0.4,0,0,0.0,0.0,0.0,0.0,0,0,0.0,0,0.0,-1,0.0,0.0,0.0,0,0.0,0.5874
35283,0,,,,,,,,-0.38,0.11,0.23,3,-1,-4,0.39,0,,,,,,,,,,,,,,,,,
35323,0,,,,,,,,-0.44,0.13,0.12,3,-6,-2,0.46,0,,,,,,,,,,,,,,,,,
35363,0,,,,,,,,-0.39,0.07,0.42,2,6,-13,0.39,0,,,,,,,,,,,,,,,,,
35403,0,,,,,,,,-0.47,0.18,0.32,2,-2,-2,0.5,0,,,,,,,,,,,,,,,,,
35443,0,24,19,36,42,40,44,5,-0.42,0.14,0.64,2,8,-10,0.45,0,0,0.0,0.0,0.0,0.0,0,0,0.0,0,0.0,-1,0.0,0.0,0.0,0,0.0,0.5907
35483,0,,,,,,,,-0.48,0.19,0.13,-0,3,-3,0.51,0,,,,,,,,,,,,,,,,,
35523,0,,,,,,,,-0.56,0.17,0.49,-2,8,-7,0.59,0,,,,,,,,,,,,,,,,,
35563,0,,,,,,,,-0.47,0.15,0.41,-3,12,-5,0.49,0,,,,,,,,,,,,,,,,,
35603,0,,,,,,,,-0.37,0.08,0.34,-4,9,-3,0.38,0,,,,,,,,,,,,,,,,,
35643,0,18,14,37,44,39,42,1,-0.37,0.01,0.65,-4,2,-2,0.37,0,0,0.0,0.0,0.0,0.0,0,0,0.0,0,0.0,-1,0.0,0.0,0.0,0,0.0,0.594
35683,0,,,,,,,,-0.4,-0.06,0.61,-3,1,-1,0.4,0,,,,,,,,,,,,,,,,,
35723,0,,,,,,,,-0.34,-0.26,0.34,-2,2,-0,0.43,0,,,,,,,,,,,,,,,,,
35763,0,,,,,,,,-0.3,-0.11,0.14,-1,1,1,0.32,0,,,,,,,,,,,,,,,,,
35803,0,,,,,,,,-0.33,-0.05,0.43,-0,-4,1,0.33,0,,,,,,,,,,,,,,,,,
35843,0,17,14,39,45,36,40,1,-0.34,-0.13,0.37,1,1,1,0.36,0,0,0.0,0.0,0.0,0.0,0,0,0.0,0,0.0,-1,0.0,0.0,0.0,0,0.0,0.5974
35883,0,,,,,,,,-0.39,-0.09,0.32,1,-0,0,0.4,0,,,,,,,,,,,,,,,,,
35923,0,,,,,,,,-0.41,-0.1,0.28,2,2,1,0.42,0,,,,,,,,,,,,,,,,,
35963,0,,,,,,,,-0.37,-0.05,0.24,2,-1,-1,0.37,0,,,,,,,,,,,,,,,,,
36003,0,,,,,,,,-0.33,-0.13,0.22,2,-1,4,0.36,0,,,,,,,,,,,,,,,,,
36043,0,15,13,39,46,36,41,7,-0.25,-0.2,0.15,1,-4,4,0.32,0,0,0.0,0.0,0.0,0.0,0,0,0.0,0,0.0,-1,0.0,0.0,0.0,0,0.0,0.6007
36083,0,,,,,,,,-0.24,-0.39,0.1,-1,1,2,0.46,0,,,,,,,,,,,,,,,,,
36123,0,,,,,,,,-0.28,-0.27,0.1,-2,-3,7,0.39,0,,,,,,,,,,,,,,,,,
36163,0,,,,,,,,-0.22,-0.35,0.06,-4,3,-0,0.41,0,,,,,,,,,,,,,,,,,
36203,0,,,,,,,,-0.18,-0.48,0.07,-5,0,4,0.51,0,,,,,,,,,,,,,,,,,
36243,0,15,13,39,48,37,40,8,-0.25,-0.5,0.04,-6,5,-4,0.56,0,0,0.0,0.0,0.0,0.0,0,0,0.0,0,0.0,-1,0.0,0.0,0.0,0,0.0,0.604
36283,0,,,,,,,,-0.41,-0.48,-0.27,-7,7,-8,0.63,0,,,,,,,,,,,,,,,,,
36323,0,,,,,,,,-0.32,-0.47,-0.24,-8,-0,-1,0.56,0,,,,,,,,,,,,,,,,,
36363,0,,,,,,,,-0.37,-0.48,-0.21,-9,-0,0,0.61,0,,,,,,,,,,,,,,,,,
36403,0,,,,,,,,-0.44,-0.55,-0.19,-13,-12,10,0.71,0,,,,,,,,,,,,,,,,,
36443,0,22,19,36,46,40,42,6,-0.58,-0.45,-0.54,-16,-13,5,0.73,0,0,0.0,0.0,0.0,0.0,0,0,0.0,0,0.0,-1,0.0,0.0,0.0,0,0.0,0.6074
36483,0,,,,,,,,-0.67,-0.51,-0.42,-19,-15,7,0.84,0,,,,,,,,,,,,,,,,,
36523,0,,,,,,,,-0.66,-0.53,-0.28,-20,-10,5,0.85,0,,,,,,,,,,,,,,,,,
36563,0,,,,,,,,-0.46,-0.41,-0.28,-21,-8,4,0.62,0,,,,,,,,,,,,,,,,,
36603,0,,,,,,,,-0.44,-0.41,-0.46,-20,-8,5,0.6,0,,,,,,,,,,,,,,,,,
36643,0,17,14,37,49,41,41,-3,-0.38,-0.41,-0.09,-17,-3,1,0.56,0,0,0.0,0.0,0.0,0.0,0,0,0.0,0,0.0,-1,0.0,0.0,0.0,0,0.0,0.6107
36683,0,,,,,,,,-0.35,-0.26,0.05,-14,-5,3,0.43,0,,,,,,,,,,,,,,,,,
36723,0,,,,,,,,-0.27,-0.21,0.37,-11,-3,-0,0.34,0,,,,,,,,,,,,,,,,,
36763,0,,,,,,,,-0.27,-0.04,-0.01,-7,-4,2,0.28,0,,,,,,,,,,,,,,,,,
36803,0,,,,,,,,-0.24,-0.07,-0.19,-4,-5,7,0.25,0,,,,,,,,,,,,,,,,,
36843,0,9,8,43,49,33,39,-3,-0.15,-0.05,0.09,-1,-4,7,0.16,0,0,0.0,0.0,0.0,0.0,0,0,0.0,0,0.0,-1,0.0,0.0,0.0,0,0.0,0.614
36883,0,,,,,,,,-0.08,0.08,0.46,0,-1,2,0.11,0,,,,,,,,,,,,,,,,,
36923,0,,,,,,,,-0.07,0.12,0.75,2,-2,-1,0.14,0,,,,,,,,,,,,,,,,,
36963,0,,,,,,,,-0.09,0.12,0.64,2,-3,0,0.15,0,,,,,,,,,,,,,,,,,
37003,0,,,,,,,,-0.17,-0.01,0.27,3,-5,3,0.17,0,,,,,,,,,,,,,,,,,
37043,0,10,11,43,49,33,38,5,-0.24,-0.08,-0.09,2,-7,6,0.25,0,0,0.0,0.0,0.0,0.0,0,0,0.0,0,0.0,-1,0.0,0.0,0.0,0,0.0,0.6174
37083,0,,,,,,,,-0.39,-0.19,-0.35,1,-11,8,0.43,0,,,,,,,,,,,,,,,,,
37123,0,,,,,,,,-0.38,-0.23,-0.51,-0,-14,9,0.44,0,,,,,,,,,,,,,,,,,
37163,0,,,,,,,,-0.45,-0.26,-0.74,-1,-15,10,0.52,0,,,,,,,,,,,,,,,,,
37203,0,,,,,,,,-0.57,-0.16,-0.6,-2,-19,10,0.59,0,,,,,,,,,,,,,,,,,
37243,0,13,10,43,50,35,38,8,-0.53,-0.2,-0.49,-3,-18,11,0.57,0,0,0.0,0.0,0.0,0.0,0,0,0.0,0,0.0,-1,0.0,0.0,0.0,0,0.0,0.6207
37283,0,,,,,,,,-0.54,-0.13,-0.22,-4,-17,9,0.56,0,,,,,,,,,,,,,,,,,
37323,0,,,,,,,,-0.42,0.01,0.2,-5,-12,4,0.42,0,,,,,,,,,,,,,,,,,
37363,0,,,,,,,,-0.39,-0.14,0.21,-5,-5,4,0.42,0,,,,,,,,,,,,,,,,,
37403,0,,,,,,,,-0.36,-0.29,0.01,-6,-0,5,0.46,0,,,,,,,,,,,,,,,,,
37443,0,34,29,40,49,37,40,8,-0.37,-0.31,-0.02,-6,1,4,0.48,0,0,0.0,0.0,0.0,0.0,0,0,0.0,0,0.0,-1,0.0,0.0,0.0,0,0.0,0.624
37483,0,,,,,,,,-0.5,-0.24,0.18,-7,-6,3,0.55,0,,,,,,,,,,,,,,,,,
37523,0,,,,,,,,-0.45,-0.28,0.13,-7,-4,6,0.53,0,,,,,,,,,,,,,,,,,
37563,0,,,,,,,,-0.39,-0.44,0.48,-7,-1,2,0.58,0,,,,,,,,,,,,,,,,,
37603,0,,,,,,,,-0.41,-0.37,0.41,-7,-8,9,0.55,0,,,,,,,,,,,,,,,,,
37643,0,25,22,38,46,39,42,7,-0.38,-0.21,0.71,-7,-8,10,0.43,0,0,0.0,0.0,0.0,0.0,0,0,0.0,0,0.0,-1,0.0,0.0,0.0,0,0.0,0.6274
37683,0,,,,,,,,-0.33,-0.23,0.96,-7,-5,8,0.4,0,,,,,,,,,,,,,,,,,
37723,0,,,,,,,,-0.22,-0.16,1.15,-7,-4,5,0.28,0,,,,,,,,,,,,,,,,,
37763,0,,,,,,,,-0.09,-0.19,1.31,-7,-3,5,0.21,0,,,,,,,,,,,,,,,,,
37803,0,,,,,,,,-0.01,-0.04,1.44,-6,-2,5,0.04,0,,,,,,,,,,,,,,,,,
37843,0,11,9,42,50,35,39,9,0.05,0.05,1.55,-6,-8,11,0.07,0,0,0.0,0.0,0.0,0.0,0,0,0.0,0,0.0,-1,0.0,0.0,0.0,0,0.0,0.6307
37883,0,,,,,,,,0.07,0.05,1.49,-6,-14,18,0.08,0,,,,,,,,,,,,,,,,,
37923,0,,,,,,,,0.11,0.01,1.56,-6,-18,21,0.11,0,,,,,,,,,,,,,,,,,
37963,0,,,,,,,,0.14,-0.02,1.65,-6,-22,26,0.14,0,,,,,,,,,,,,,,,,,
38003,0,,,,,,,,0.16,-0.08,1.18,-6,-26,30,0.18,0,,,,,,,,,,,,,,,,,
38043,0,4,3,45,53,33,36,12,0.19,-0.11,1.2,-7,-26,34,0.22,0,0,0.0,0.0,0.0,0.0,0,0,0.0,0,0.0,-1,0.0,0.0,0.0,0,0.0,0.634
38083,0,,,,,,,,0.2,-0.16,1.35,-7,-17,24,0.26,0,,,,,,,,,,,,,,,,,
38123,0,,,,,,,,0.18,-0.19,0.94,-8,-13,15,0.26,0,,,,,,,,,,,,,,,,,
38163,0,,,,,,,,0.16,-0.25,0.38,-8,-14,13,0.3,0,,,,,,,,,,,,,,,,,
38203,0,,,,,,,,0.09,-0.35,-0.07,-9,-20,17,0.36,0,,,,,,,,,,,,,,,,,
38243,0,7,7,45,53,34,35,13,0.06,-0.31,0.32,-10,-17,14,0.31,0,0,0.0,0.0,0.0,0.0,0,0,0.0,0,0.0,-1,0.0,0.0,0.0,0,0.0,0.6374
38283,0,,,,,,,,0.04,-0.31,0.24,-10,-6,4,0.32,0,,,,,,,,,,,,,,,,,
38323,0,,,,,,,,0.01,-0.38,-0.19,-11,-13,13,0.38,0,,,,,,,,,,,,,,,,,
38363,0,,,,,,,,0.0,-0.34,-0.3,-11,-18,18,0.34,0,,,,,,,,,,,,,,,,,
38403,0,,,,,,,,-0.01,-0.29,0.14,-12,-16,18,0.29,0,,,,,,,,,,,,,,,,,
38443,0,7,5,43,52,35,37,14,-0.02,-0.27,0.49,-12,-9,8,0.27,0,0,0.0,0.0,0.0,0.0,0,0,0.0,0,0.0,-1,0.0,0.0,0.0,0,0.0,0.6407
38483,0,,,,,,,,-0.06,-0.25,0.35,-12,-6,2,0.26,0,,,,,,,,,,,,,,,,,
38523,0,,,,,,,,-0.0,-0.3,-0.1,-12,-6,1,0.3,0,,,,,,,,,,,,,,,,,
38563,0,,,,,,,,0.07,-0.36,-0.46,-12,-9,3,0.37,0,,,,,,,,,,,,,,,,,
38603,0,,,,,,,,-0.06,-0.33,-0.75,-12,-12,7,0.34,0,,,,,,,,,,,,,,,,,
38643,0,10,8,43,52,36,38,12,-0.11,-0.41,-0.99,-13,-16,13,0.42,0,0,0.0,0.0,0.0,0.0,0,0,0.0,0,0.0,-1,0.0,0.0,0.0,0,0.0,0.644
38683,0,,,,,,,,-0.22,-0.34,-1.18,-13,-27,25,0.41,0,,,,,,,,,,,,,,,,,
38723,0,,,,,,,,-0.33,-0.35,-1.34,-12,-29,28,0.48,0,,,,,,,,,,,,,,,,,
38763,0,,,,,,,,-0.22,-0.28,-0.71,-12,-14,10,0.35,0,,,,,,,,,,,,,,,,,
38803,0,,,,,,,,-0.09,-0.2,-0.19,-12,-4,4,0.22,0,,,,,,,,,,,,,,,,,
38843,0,16,13,42,50,35,38,9,-0.24,-0.22,-0.54,-12,-18,16,0.33,0,0,0.0,0.0,0.0,0.0,0,0,0.0,0,0.0,-1,0.0,0.0,0.0,0,0.0,0.6474
38883,0,,,,,,,,-0.16,-0.19,-0.07,-11,0,2,0.25,0,,,,,,,,,,,,,,,,,
38923,0,,,,,,,,-0.25,-0.28,-0.43,-10,-7,9,0.37,0,,,,,,,,,,,,,,,,,
38963,0,,,,,,,,-0.24,-0.27,-0.37,-9,-11,12,0.36,0,,,,,,,,,,,,,,,,,
39003,0,,,,,,,,-0.19,-0.31,-0.32,-8,-3,5,0.37,0,,,,,,,,,,,,,,,,,
39043,0,15,13,42,48,36,40,4,-0.17,-0.24,-0.17,-7,2,6,0.29,0,0,0.0,0.0,0.0,0.0,0,0,0.0,0,0.0,-1,0.0,0.0,0.0,0,0.0,0.6507
39083,0,,,,,,,,-0.1,-0.21,-0.12,-7,4,5,0.24,0,,,,,,,,,,,,,,,,,
39123,0,,,,,,,,-0.17,-0.08,-0.08,-7,3,2,0.18,0,,,,,,,,,,,,,,,,,
39163,0,,,,,,,,-0.12,0.01,-0.04,-6,5,-1,0.12,0,,,,,,,,,,,,,,,,,
39203,0,,,,,,,,-0.01,0.09,-0.02,-4,5,-1,0.09,0,,,,,,,,,,,,,,,,,
39243,0,13,12,43,50,34,39,4,0.04,0.1,0.01,-4,0,2,0.11,0,0,0.0,0.0,0.0,0.0,0,0,0.0,0,0.0,-1,0.0,0.0,0.0,0,0.0,0.654
39283,0,,,,,,,,-0.11,0.04,-0.38,-4,-7,7,0.11,0,,,,,,,,,,,,,,,,,
39323,0,,,,,,,,-0.15,0.04,-0.32,-2,-5,7,0.15,0,,,,,,,,,,,,,,,,,
39363,0,,,,,,,,-0.13,0.07,-0.28,-2,1,3,0.15,0,,,,,,,,,,,,,,,,,
39403,0,,,,,,,,0.02,0.06,-0.21,-3,6,-3,0.07,0,,,,,,,,,,,,,,,,,
39443,0,12,12,43,50,34,39,4,-0.19,-0.04,-0.55,-2,-10,6,0.19,0,0,0.0,0.0,0.0,0.0,0,0,0.0,0,0.0,-1,0.0,0.0,0.0,0,0.0,0.6574
39483,0,,,,,,,,0.05,-0.03,-0.07,-2,7,-4,0.05,0,,,,,,,,,,,,,,,,,
39523,0,,,,,,,,-0.21,-0.09,-0.23,-2,7,-1,0.23,0,,,,,,,,,,,,,,,,,
39563,0,,,,,,,,-0.17,-0.08,-0.11,-2,-10,9,0.19,0,,,,,,,,,,,,,,,,,
39603,0,,,,,,,,-0.05,0.05,0.29,-2,-22,16,0.07,0,,,,,,,,,,,,,,,,,
39643,0,12,10,42,46,36,40,5,-0.17,0.03,0.07,-1,-31,22,0.18,0,0,0.0,0.0,0.0,0.0,0,0,0.0,0,0.0,-1,0.0,0.0,0.0,0,0.0,0.6607
39683,0,,,,,,,,-0.19,-0.04,-0.2,-2,-23,17,0.19,0,,,,,,,,,,,,,,,,,
39723,0,,,,,,,,-0.32,-0.04,-0.2,-2,-16,15,0.32,0,,,,,,,,,,,,,,,,,
39763,0,,,,,,,,-0.18,-0.02,-0.05,-2,-14,12,0.18,0,,,,,,,,,,,,,,,,,
39803,0,,,,,,,,-0.12,-0.07,0.05,-2,-10,9,0.14,0,,,,,,,,,,,,,,,,,
39843,0,3,5,42,49,35,40,7,-0.09,-0.09,0.09,-2,-6,6,0.12,0,0,0.0,0.0,0.0,0.0,0,0,0.0,0,0.0,-1,0.0,0.0,0.0,0,0.0,0.664
39883,0,,,,,,,,-0.13,-0.11,0.37,-3,0,4,0.17,0,,,,,,,,,,,,,,,,,
39923,0,,,,,,,,-0.27,-0.09,0.43,-3,-0,3,0.28,0,,,,,,,,,,,,,,,,,
39963,0,,,,,,,,-0.12,-0.09,0.43,-4,-7,5,0.16,0,,,,,,,,,,,,,,,,,
40003,0,,,,,,,,-0.21,-0.16,0.45,-4,-0,-0,0.26,0,,,,,,,,,,,,,,,,,
40043,0,3,5,42,50,35,39,7,0.03,-0.01,0.74,-4,1,-0,0.03,0,0,0.0,0.0,0.0,0.0,0,0,0.0,0,0.0,-1,0.0,0.0,0.0,0,0.0,0.6674
40083,0,,,,,,,,0.06,-0.08,0.41,-5,-8,8,0.1,0,,,,,,,,,,,,,,,,,
40123,0,,,,,,,,-0.09,-0.26,-0.02,-5,-13,9,0.27,0,,,,,,,,,,,,,,,,,
40163,0,,,,,,,,-0.09,-0.15,0.16,-5,-10,6,0.17,0,,,,,,,,,,,,,,,,,
40203,0,,,,,,,,-0.11,-0.11,0.32,-5,-13,6,0.16,0,,,,,,,,,,,,,,,,,
40243,0,11,7,44,51,34,38,9,-0.18,-0.17,0.17,-6,-5,4,0.25,0,0,0.0,0.0,0.0,0.0,0,0,0.0,0,0.0,-1,0.0,0.0,0.0,0,0.0,0.6707
40283,0,,,,,,,,-0.14,-0.09,0.33,-6,-12,5,0.16,0,,,,,,,,,,,,,,,,,
40323,0,,,,,,,,-0.29,-0.15,0.22,-6,-3,3,0.33,0,,,,,,,,,,,,,,,,,
40363,0,,,,,,,,-0.13,-0.09,0.56,-6,-5,4,0.16,0,,,,,,,,,,,,,,,,,
40403,0,,,,,,,,-0.34,-0.01,0.41,-5,-8,5,0.34,0,,,,,,,,,,,,,,,,,
40443,0,14,10,43,48,36,41,-5,-0.39,0.02,0.47,-3,-1,3,0.39,0,0,0.0,0.0,0.0,0.0,0,0,0.0,0,0.0,-1,0.0,0.0,0.0,0,0.0,0.674
40483,0,,,,,,,,-0.34,0.09,0.68,-2,2,1,0.35,0,,,,,,,,,,,,,,,,,
40523,0,,,,,,,,-0.23,0.21,0.56,1,-3,3,0.32,0,,,,,,,,,,,,,,,,,
40563,0,,,,,,,,0.02,0.27,0.5,5,9,3,0.27,0,,,,,,,,,,,,,,,,,
40603,0,,,,,,,,0.29,0.39,0.08,10,25,1,0.49,0,,,,,,,,,,,,,,,,,
40643,0,7,6,48,46,32,41,-47,0.62,0.35,-0.31,15,38,-1,0.71,0,0,0.0,0.0,0.0,0.0,0,0,0.0,0,0.0,-1,0.0,0.0,0.0,0,0.0,0.6774
40683,0,,,,,,,,0.88,0.4,-0.63,20,50,-1,0.97,0,,,,,,,,,,,,,,,,,
40723,0,,,,,,,,1.09,0.28,-0.89,26,59,-1,1.13,0,,,,,,,,,,,,,,,,,
40763,0,,,,,,,,1.27,0.38,-1.1,31,59,1,1.32,0,,,,,,,,,,,,,,,,,
40803,0,,,,,,,,1.22,0.36,-1.28,37,50,4,1.28,0,,,,,,,,,,,,,,,,,
40843,0,7,6,49,47,32,44,-85,0.88,0.58,-0.83,42,20,3,1.05,0,0,0.0,0.0,0.0,0.0,0,0,0.0,0,0.0,-1,0.0,0.0,0.0,0,0.0,0.6807
40883,0,,,,,,,,0.34,0.68,-0.3,47,-6,4,0.76,0,,,,,,,,,,,,,,,,,
40923,0,,,,,,,,-0.1,0.71,0.14,52,-21,4,0.72,0,,,,,,,,,,,,,,,,,
40963,0,,,,,,,,-0.44,0.79,0.49,57,-24,5,0.91,0,,,,,,,,,,,,,,,,,
41003,0,,,,,,,,-0.65,0.88,0.78,62,-18,5,1.1,0,,,,,,,,,,,,,,,,,
41043,0,4,5,50,46,33,46,-89,-0.65,0.94,1.01,65,-6,5,1.15,0,0,0.0,0.0,0.0,0.0,0,0,0.0,0,0.0,-1,0.0,0.0,0.0,0,0.0,0.684
41083,0,,,,,,,,-0.36,0.83,1.1,69,18,4,0.91,0,,,,,,,,,,,,,,,,,
41123,0,,,,,,,,0.08,0.75,0.51,72,44,1,0.75,0,,,,,,,,,,,,,,,,,
41163,0,,,,,,,,0.34,0.83,0.03,75,47,4,0.9,0,,,,,,,,,,,,,,,,,
41203,0,,,,,,,,0.34,0.83,-0.26,78,37,5,0.89,0,,,,,,,,,,,,,,,,,
41243,0,2,4,50,47,33,46,-90,0.14,0.88,-0.11,80,16,5,0.89,0,0,0.0,0.0,0.0,0.0,0,0,0.0,0,0.0,-1,0.0,0.0,0.0,0,0.0,0.6874
41283,0,,,,,,,,-0.22,0.84,0.29,81,-8,4,0.87,0,,,,,,,,,,,,,,,,,
41323,0,,,,,,,,-0.35,0.9,0.61,82,-20,5,0.97,0,,,,,,,,,,,,,,,,,
41363,0,,,,,,,,-0.16,0.89,0.24,83,-0,5,0.91,0,,,,,,,,,,,,,,,,,
