"Interval"|"ms"|0|0|1,"Utc"|"ms"|0|0|1,"Battery"|"Volts"|0.0|20.0|1,"AccelX"|"G"|-3.0|3.0|25,"AccelY"|"G"|-3.0|3.0|25,"AccelZ"|"G"|-3.0|3.0|25,"Yaw"|"Deg/Sec"|-120|120|25,"Pitch"|"Deg/Sec"|-120|120|25,"Roll"|"Deg/Sec"|-120|120|25,"Gsum"|"G"|0.0|3.0|25,"Latitude"|"Degrees"|-180.0|180.0|10,"Longitude"|"Degrees"|-180.0|180.0|10,"Speed"|"mph"|0.0|150.0|10,"Altitude"|"ft"|0.0|4000.0|10,"GPSSats"|""|0|20|10,"GPSQual"|""|0|5|10,"GPSDOP"|""|0.0|20.0|10,"LapCount"|""|0|0|10,"LapTime"|"Min"|0.0|0.0|10,"Sector"|""|0|0|10,"SectorTime"|"Min"|0.0|0.0|10,"PredTime"|"Min"|0.0|0.0|5,"ElapsedTime"|"Min"|0.0|0.0|10,"CurrentLap"|""|0|0|10,"Distance"|"mi"|0.0|0.0|10,"SessionTime"|"Min"|0.0|0.0|10
17283,0,,0.8,-0.01,0.64,-0,1,-0,0.8,,,,,,,,,,,,,,,,
17323,0,,0.79,-0.02,0.67,0,-1,-1,0.79,,,,,,,,,,,,,,,,
17363,0,,0.82,0.01,0.67,-0,0,-1,0.82,,,,,,,,,,,,,,,,
17403,0,,0.82,0.01,0.63,-0,-0,-1,0.82,,,,,,,,,,,,,,,,
17443,0,,0.88,0.03,0.64,-1,-3,-1,0.88,0.0,0.0,0.0,0.0,0,0,0.0,0,0.0,-1,0.0,0.0,0.0,0,0.0,0.2907
17483,0,,0.84,0.01,0.57,-1,0,-2,0.84,,,,,,,,,,,,,,,,
17523,0,,0.78,0.01,0.59,-0,0,-1,0.78,,,,,,,,,,,,,,,,
17563,0,,0.78,0.03,0.62,0,0,-0,0.78,,,,,,,,,,,,,,,,
17603,0,,0.74,0.04,0.55,0,4,-0,0.74,,,,,,,,,,,,,,,,
17643,0,,0.74,0.05,0.61,1,2,-1,0.74,0.0,0.0,0.0,0.0,0,0,0.0,0,0.0,-1,0.0,0.0,0.0,0,0.0,0.294
17683,0,,0.81,0.04,0.66,0,-0,0,0.81,,,,,,,,,,,,,,,,
17723,0,,0.79,0.02,0.62,0,3,-0,0.79,,,,,,,,,,,,,,,,
17763,0,,0.76,0.03,0.64,0,2,-0,0.76,,,,,,,,,,,,,,,,
17803,0,,0.84,0.06,0.66,0,-2,0,0.84,,,,,,,,,,,,,,,,
17843,0,,0.9,0.07,0.6,0,1,-0,0.9,0.0,0.0,0.0,0.0,0,0,0.0,0,0.0,-1,0.0,0.0,0.0,0,0.0,0.2974
17883,0,,0.78,0.03,0.52,0,2,-0,0.78,,,,,,,,,,,,,,,,
17923,0,,0.87,0.06,0.62,0,-2,-0,0.87,,,,,,,,,,,,,,,,
17963,0,,0.89,0.06,0.64,0,1,-1,0.89,,,,,,,,,,,,,,,,
18003,0,,0.86,0.03,0.55,0,3,-1,0.86,,,,,,,,,,,,,,,,
18043,0,12.55,0.83,0.04,0.63,0,-0,0,0.83,0.0,0.0,0.0,0.0,0,0,0.0,0,0.0,-1,0.0,0.0,0.0,0,0.0,0.3007
18083,0,,0.9,0.06,0.65,0,0,0,0.9,,,,,,,,,,,,,,,,
18123,0,,0.93,0.06,0.62,0,3,-1,0.94,,,,,,,,,,,,,,,,
18163,0,,0.83,-0.0,0.6,0,2,-1,0.83,,,,,,,,,,,,,,,,
18203,0,,0.95,0.02,0.67,0,-1,-0,0.95,,,,,,,,,,,,,,,,
18243,0,,0.93,0.02,0.67,0,2,-0,0.93,0.0,0.0,0.0,0.0,0,0,0.0,0,0.0,-1,0.0,0.0,0.0,0,0.0,0.304
18283,0,,0.92,0.01,0.57,0,4,-1,0.92,,,,,,,,,,,,,,,,
18323,0,,0.89,0.03,0.62,0,0,0,0.89,,,,,,,,,,,,,,,,
18363,0,,0.91,0.01,0.65,0,2,-0,0.91,,,,,,,,,,,,,,,,
18403,0,,0.82,-0.01,0.59,0,4,-1,0.82,,,,,,,,,,,,,,,,
18443,0,,0.77,0.03,0.58,0,2,-0,0.77,0.0,0.0,0.0,0.0,0,0,0.0,0,0.0,-1,0.0,0.0,0.0,0,0.0,0.3074
18483,0,,0.76,0.08,0.59,0,2,-0,0.76,,,,,,,,,,,,,,,,
18523,0,,0.72,0.04,0.54,0,3,-0,0.73,,,,,,,,,,,,,,,,
18563,0,,0.71,0.01,0.59,0,0,-1,0.71,,,,,,,,,,,,,,,,
18603,0,,0.74,0.0,0.64,0,2,0,0.74,,,,,,,,,,,,,,,,
18643,0,,0.74,0.02,0.56,0,3,-1,0.74,0.0,0.0,0.0,0.0,0,0,0.0,0,0.0,-1,0.0,0.0,0.0,0,0.0,0.3107
18683,0,,0.77,0.03,0.65,0,-2,-0,0.77,,,,,,,,,,,,,,,,
18723,0,,0.87,0.05,0.62,0,-0,-0,0.87,,,,,,,,,,,,,,,,
18763,0,,0.87,0.04,0.56,0,2,-1,0.87,,,,,,,,,,,,,,,,
18803,0,,0.79,0.01,0.62,0,1,-0,0.79,,,,,,,,,,,,,,,,
18843,0,,0.89,0.03,0.62,0,-2,-0,0.89,0.0,0.0,0.0,0.0,0,0,0.0,0,0.0,-1,0.0,0.0,0.0,0,0.0,0.314
18883,0,,0.91,0.05,0.63,0,1,-0,0.91,,,,,,,,,,,,,,,,
18923,0,,0.89,0.01,0.58,0,2,-1,0.89,,,,,,,,,,,,,,,,
18963,0,,0.89,-0.0,0.7,-0,-3,-1,0.89,,,,,,,,,,,,,,,,
19003,0,,1.0,0.04,0.68,-0,-2,-0,1.0,,,,,,,,,,,,,,,,
19043,0,12.51,1.0,0.04,0.62,-0,0,-1,1.0,0.0,0.0,0.0,0.0,0,0,0.0,0,0.0,-1,0.0,0.0,0.0,0,0.0,0.3174
19083,0,,0.9,0.01,0.65,0,1,-1,0.9,,,,,,,,,,,,,,,,
19123,0,,1.0,0.02,0.68,-0,-4,-1,1.0,,,,,,,,,,,,,,,,
19163,0,,0.98,0.03,0.66,-0,-0,-1,0.98,,,,,,,,,,,,,,,,
19203,0,,0.89,0.04,0.61,-0,2,-0,0.9,,,,,,,,,,,,,,,,
19243,0,,0.9,0.05,0.67,-0,-1,-1,0.9,0.0,0.0,0.0,0.0,0,0,0.0,0,0.0,-1,0.0,0.0,0.0,0,0.0,0.3207
19283,0,,0.95,0.02,0.7,-0,-3,-1,0.95,,,,,,,,,,,,,,,,
19323,0,,0.88,0.02,0.66,-0,1,-1,0.88,,,,,,,,,,,,,,,,
19363,0,,0.83,0.04,0.65,-0,2,-1,0.83,,,,,,,,,,,,,,,,
19403,0,,0.86,0.02,0.69,-0,-2,-1,0.86,,,,,,,,,,,,,,,,
19443,0,,0.88,0.0,0.72,-0,-2,-0,0.88,0.0,0.0,0.0,0.0,0,0,0.0,0,0.0,-1,0.0,0.0,0.0,0,0.0,0.324
19483,0,,0.8,-0.01,0.67,-0,0,-1,0.8,,,,,,,,,,,,,,,,
19523,0,,0.7,0.02,0.55,-0,5,-2,0.7,,,,,,,,,,,,,,,,
19563,0,,0.69,0.03,0.47,0,5,-2,0.69,,,,,,,,,,,,,,,,
19603,0,,0.7,0.07,0.56,0,1,-1,0.7,,,,,,,,,,,,,,,,
19643,0,,0.85,0.07,0.61,0,-2,-0,0.85,0.0,0.0,0.0,0.0,0,0,0.0,0,0.0,-1,0.0,0.0,0.0,0,0.0,0.3274
19683,0,,0.95,0.05,0.71,-0,-6,1,0.95,,,,,,,,,,,,,,,,
19723,0,,0.94,0.07,0.79,-0,-3,0,0.94,,,,,,,,,,,,,,,,
19763,0,,0.91,0.11,0.72,-0,0,0,0.92,,,,,,,,,,,,,,,,
19803,0,,0.84,0.07,0.62,-0,3,-1,0.84,,,,,,,,,,,,,,,,
19843,0,,0.75,0.01,0.49,0,7,-2,0.75,0.0,0.0,0.0,0.0,0,0,0.0,0,0.0,-1,0.0,0.0,0.0,0,0.0,0.3307
19883,0,,0.67,0.03,0.49,0,7,-2,0.67,,,,,,,,,,,,,,,,
19923,0,,0.55,0.05,0.59,0,5,-2,0.55,,,,,,,,,,,,,,,,
19963,0,,0.61,0.07,0.66,0,3,-1,0.62,,,,,,,,,,,,,,,,
20003,0,,0.66,0.07,0.71,1,0,-1,0.67,,,,,,,,,,,,,,,,
20043,0,12.59,0.66,0.04,0.76,0,-2,0,0.66,0.0,0.0,0.0,0.0,0,0,0.0,0,0.0,-1,0.0,0.0,0.0,0,0.0,0.334
20083,0,,0.75,0.11,0.81,0,-5,0,0.76,,,,,,,,,,,,,,,,
20123,0,,0.82,0.12,0.79,0,-9,2,0.82,,,,,,,,,,,,,,,,
20163,0,,0.95,0.1,0.76,0,-13,3,0.95,,,,,,,,,,,,,,,,
20203,0,,1.08,0.11,0.74,0,-12,4,1.08,,,,,,,,,,,,,,,,
20243,0,,1.23,0.09,0.69,0,-12,4,1.23,0.0,0.0,0.0,0.0,0,0,0.0,0,0.0,-1,0.0,0.0,0.0,0,0.0,0.3374
20283,0,,1.27,0.09,0.73,-0,-13,4,1.27,,,,,,,,,,,,,,,,
20323,0,,1.34,0.08,0.77,-0,-10,2,1.35,,,,,,,,,,,,,,,,
20363,0,,1.32,0.09,0.8,-0,-8,2,1.32,,,,,,,,,,,,,,,,
20403,0,,1.31,0.09,0.87,-0,-8,2,1.31,,,,,,,,,,,,,,,,
20443,0,,1.32,0.13,0.92,-0,-4,1,1.32,0.0,0.0,0.0,0.0,0,0,0.0,0,0.0,-1,0.0,0.0,0.0,0,0.0,0.3407
20483,0,,1.24,0.14,0.89,-0,0,0,1.25,,,,,,,,,,,,,,,,
20523,0,,1.27,0.16,0.91,-0,1,1,1.28,,,,,,,,,,,,,,,,
20563,0,,1.22,0.13,0.92,-1,2,0,1.23,,,,,,,,,,,,,,,,
20603,0,,1.26,0.15,0.96,-0,5,-0,1.27,,,,,,,,,,,,,,,,
20643,0,,1.23,0.14,0.96,-1,4,-0,1.24,0.0,0.0,0.0,0.0,0,0,0.0,0,0.0,-1,0.0,0.0,0.0,0,0.0,0.344
20683,0,,1.32,0.17,1.0,-1,2,0,1.33,,,,,,,,,,,,,,,,
20723,0,,1.38,0.13,1.03,-1,1,-0,1.38,,,,,,,,,,,,,,,,
20763,0,,1.45,0.17,1.01,-1,-2,1,1.46,,,,,,,,,,,,,,,,
20803,0,,1.52,0.13,0.95,-1,-7,1,1.53,,,,,,,,,,,,,,,,
20843,0,,1.49,0.13,0.99,-1,-10,2,1.49,0.0,0.0,0.0,0.0,0,0,0.0,0,0.0,-1,0.0,0.0,0.0,0,0.0,0.3474
20883,0,,1.48,0.11,1.01,-1,-13,3,1.49,,,,,,,,,,,,,,,,
20923,0,,1.48,0.12,1.01,-1,-15,5,1.49,,,,,,,,,,,,,,,,
20963,0,,1.49,0.13,0.87,-1,-19,4,1.5,,,,,,,,,,,,,,,,
21003,0,,1.44,0.12,0.87,-1,-19,5,1.45,,,,,,,,,,,,,,,,
21043,0,12.57,1.43,0.15,0.93,-1,-20,5,1.44,0.0,0.0,0.0,0.0,0,0,0.0,0,0.0,-1,0.0,0.0,0.0,0,0.0,0.3507
21083,0,,1.42,0.15,0.86,-1,-20,6,1.42,,,,,,,,,,,,,,,,
21123,0,,1.27,0.15,0.82,-0,-20,6,1.28,,,,,,,,,,,,,,,,
21163,0,,1.06,0.09,0.85,-0,-18,5,1.06,,,,,,,,,,,,,,,,
21203,0,,0.77,0.04,0.74,0,-13,3,0.77,,,,,,,,,,,,,,,,
21243,0,,0.59,0.02,0.67,0,-7,2,0.59,0.0,0.0,0.0,0.0,0,0,0.0,0,0.0,-1,0.0,0.0,0.0,0,0.0,0.354
21283,0,,0.52,-0.08,0.51,0,-2,0,0.53,,,,,,,,,,,,,,,,
21323,0,,0.49,-0.12,0.41,0,1,-1,0.5,,,,,,,,,,,,,,,,
21363,0,,0.51,-0.13,0.31,0,6,-2,0.52,,,,,,,,,,,,,,,,
21403,0,,0.57,-0.16,0.29,0,9,-2,0.59,,,,,,,,,,,,,,,,
21443,0,,0.63,-0.1,0.28,0,10,-3,0.63,0.0,0.0,0.0,0.0,0,0,0.0,0,0.0,-1,0.0,0.0,0.0,0,0.0,0.3574
21483,0,,0.63,-0.1,0.26,0,13,-3,0.64,,,,,,,,,,,,,,,,
21523,0,,0.7,-0.06,0.3,0,14,-3,0.71,,,,,,,,,,,,,,,,
21563,0,,0.68,-0.08,0.27,0,14,-3,0.69,,,,,,,,,,,,,,,,
21603,0,,0.72,-0.05,0.28,-0,14,-3,0.72,,,,,,,,,,,,,,,,
21643,0,,0.77,0.01,0.36,-0,14,-3,0.77,0.0,0.0,0.0,0.0,0,0,0.0,0,0.0,-1,0.0,0.0,0.0,0,0.0,0.3607
21683,0,,0.75,0.03,0.46,-0,13,-2,0.75,,,,,,,,,,,,,,,,
21723,0,,0.83,0.09,0.56,-0,9,-1,0.83,,,,,,,,,,,,,,,,
21763,0,,0.97,0.11,0.64,-1,2,-0,0.98,,,,,,,,,,,,,,,,
21803,0,,1.1,0.09,0.67,-1,-3,2,1.11,,,,,,,,,,,,,,,,
21843,0,,1.15,0.11,0.67,-1,-6,1,1.16,0.0,0.0,0.0,0.0,0,0,0.0,0,0.0,-1,0.0,0.0,0.0,0,0.0,0.364
21883,0,,1.12,0.07,0.72,-1,-6,2,1.12,,,,,,,,,,,,,,,,
21923,0,,1.0,0.0,0.77,-0,-6,1,1.0,,,,,,,,,,,,,,,,
21963,0,,0.82,0.02,0.72,0,-4,1,0.82,,,,,,,,,,,,,,,,
22003,0,,0.68,-0.01,0.66,0,-1,-0,0.68,,,,,,,,,,,,,,,,
22043,0,12.54,0.59,-0.02,0.55,0,1,-0,0.59,0.0,0.0,0.0,0.0,0,0,0.0,0,0.0,-1,0.0,0.0,0.0,0,0.0,0.3674
22083,0,,0.55,-0.08,0.51,0,3,-1,0.56,,,,,,,,,,,,,,,,
22123,0,,0.57,-0.14,0.46,0,5,-1,0.59,,,,,,,,,,,,,,,,
22163,0,,0.62,-0.13,0.48,-0,6,-2,0.64,,,,,,,,,,,,,,,,
22203,0,,0.64,-0.07,0.5,-0,6,-2,0.65,,,,,,,,,,,,,,,,
22243,0,,0.73,-0.02,0.59,-0,5,-2,0.73,0.0,0.0,0.0,0.0,0,0,0.0,0,0.0,-1,0.0,0.0,0.0,0,0.0,0.3707
22283,0,,0.9,-0.02,0.64,-0,4,-2,0.9,,,,,,,,,,,,,,,,
22323,0,,1.01,0.04,0.69,-0,0,-0,1.01,,,,,,,,,,,,,,,,
22363,0,,1.05,0.08,0.71,-0,-5,0,1.05,,,,,,,,,,,,,,,,
22403,0,,0.95,0.06,0.7,-0,-7,1,0.96,,,,,,,,,,,,,,,,
22443,0,,0.8,0.05,0.68,-0,-7,1,0.8,0.0,0.0,0.0,0.0,0,0,0.0,0,0.0,-1,0.0,0.0,0.0,0,0.0,0.374
22483,0,,0.68,0.02,0.63,0,-6,1,0.68,,,,,,,,,,,,,,,,
22523,0,,0.63,-0.04,0.5,0,-2,1,0.64,,,,,,,,,,,,,,,,
22563,0,,0.57,-0.06,0.46,0,1,-1,0.57,,,,,,,,,,,,,,,,
22603,0,,0.59,-0.02,0.56,-0,4,-1,0.59,,,,,,,,,,,,,,,,
22643,0,,0.66,0.05,0.66,-0,6,-1,0.66,0.0,0.0,0.0,0.0,0,0,0.0,0,0.0,-1,0.0,0.0,0.0,0,0.0,0.3774
22683,0,,0.84,0.12,0.61,-0,2,0,0.84,,,,,,,,,,,,,,,,
22723,0,,0.92,0.07,0.65,-0,-1,-0,0.93,,,,,,,,,,,,,,,,
22763,0,,0.91,0.06,0.63,-0,1,-1,0.91,,,,,,,,,,,,,,,,
22803,0,,0.89,0.06,0.62,-0,1,-0,0.89,,,,,,,,,,,,,,,,
22843,0,,0.88,0.08,0.63,-0,-0,1,0.89,0.0,0.0,0.0,0.0,0,0,0.0,0,0.0,-1,0.0,0.0,0.0,0,0.0,0.3807
22883,0,,0.89,0.04,0.67,-0,-1,0,0.89,,,,,,,,,,,,,,,,
22923,0,,0.88,0.04,0.68,-1,1,-0,0.88,,,,,,,,,,,,,,,,
22963,0,,0.87,0.01,0.61,-0,3,-1,0.87,,,,,,,,,,,,,,,,
23003,0,,0.78,-0.03,0.54,-0,4,-1,0.78,,,,,,,,,,,,,,,,
23043,0,12.57,0.76,-0.08,0.45,0,5,-2,0.76,0.0,0.0,0.0,0.0,0,0,0.0,0,0.0,-1,0.0,0.0,0.0,0,0.0,0.384
23083,0,,0.75,-0.09,0.43,0,7,-3,0.76,,,,,,,,,,,,,,,,
23123,0,,0.81,-0.08,0.41,-0,6,-2,0.81,,,,,,,,,,,,,,,,
23163,0,,0.78,-0.09,0.44,-0,7,-3,0.79,,,,,,,,,,,,,,,,
23203,0,,0.75,-0.06,0.5,-0,6,-3,0.76,,,,,,,,,,,,,,,,
23243,0,,0.81,-0.02,0.58,-0,4,-3,0.81,0.0,0.0,0.0,0.0,0,0,0.0,0,0.0,-1,0.0,0.0,0.0,0,0.0,0.3874
23283,0,,0.96,0.06,0.61,-0,2,-1,0.96,,,,,,,,,,,,,,,,
23323,0,,0.91,0.1,0.6,0,2,-1,0.92,,,,,,,,,,,,,,,,
23363,0,,0.87,0.04,0.52,-0,2,-2,0.87,,,,,,,,,,,,,,,,
23403,0,,0.85,0.08,0.58,-0,2,-2,0.86,,,,,,,,,,,,,,,,
23443,0,,0.96,0.15,0.62,-0,-0,-1,0.97,0.0,0.0,0.0,0.0,0,0,0.0,0,0.0,-1,0.0,0.0,0.0,0,0.0,0.3907
23483,0,,0.9,0.08,0.66,-0,1,-1,0.9,,,,,,,,,,,,,,,,
23523,0,,0.84,0.03,0.66,-0,2,-2,0.84,,,,,,,,,,,,,,,,
23563,0,,0.89,0.1,0.65,-0,2,-1,0.9,,,,,,,,,,,,,,,,
23603,0,,0.78,0.04,0.63,-0,2,-1,0.78,,,,,,,,,,,,,,,,
23643,0,,0.84,0.06,0.64,-0,2,-1,0.84,0.0,0.0,0.0,0.0,0,0,0.0,0,0.0,-1,0.0,0.0,0.0,0,0.0,0.394
23683,0,,0.81,0.03,0.58,0,3,-1,0.81,,,,,,,,,,,,,,,,
23723,0,,0.78,0.06,0.6,0,2,0,0.78,,,,,,,,,,,,,,,,
23763,0,,0.83,0.04,0.56,-0,3,-0,0.83,,,,,,,,,,,,,,,,
23803,0,,0.88,0.09,0.61,0,1,0,0.89,,,,,,,,,,,,,,,,
23843,0,,0.85,0.03,0.62,-0,1,-1,0.85,0.0,0.0,0.0,0.0,0,0,0.0,0,0.0,-1,0.0,0.0,0.0,0,0.0,0.3974
23883,0,,0.84,0.05,0.59,-0,4,-0,0.84,,,,,,,,,,,,,,,,
23923,0,,0.79,-0.01,0.64,-0,1,0,0.79,,,,,,,,,,,,,,,,
23963,0,,0.81,-0.0,0.61,-0,1,-0,0.81,,,,,,,,,,,,,,,,
24003,0,,0.89,-0.0,0.69,-0,-1,-0,0.89,,,,,,,,,,,,,,,,
24043,0,12.48,0.87,0.03,0.59,-0,1,-0,0.88,0.0,0.0,0.0,0.0,0,0,0.0,0,0.0,-1,0.0,0.0,0.0,0,0.0,0.4007
24083,0,,0.93,0.07,0.59,-0,-1,-1,0.94,,,,,,,,,,,,,,,,
24123,0,,0.99,-0.01,0.6,-1,-2,-1,0.99,,,,,,,,,,,,,,,,
24163,0,,0.96,0.03,0.57,-0,1,-0,0.96,,,,,,,,,,,,,,,,
24203,0,,0.95,0.07,0.55,-0,-1,-0,0.95,,,,,,,,,,,,,,,,
24243,0,,0.88,0.04,0.52,-0,-0,0,0.88,0.0,0.0,0.0,0.0,0,0,0.0,0,0.0,-1,0.0,0.0,0.0,0,0.0,0.404
24283,0,,0.91,0.03,0.58,0,1,0,0.91,,,,,,,,,,,,,,,,
24323,0,,0.75,0.01,0.59,-0,1,-0,0.75,,,,,,,,,,,,,,,,
24363,0,,0.73,0.04,0.6,0,1,-0,0.74,,,,,,,,,,,,,,,,
24403,0,,0.81,0.06,0.64,0,1,-0,0.81,,,,,,,,,,,,,,,,
24443,0,,0.75,0.01,0.68,-0,1,-0,0.75,0.0,0.0,0.0,0.0,0,0,0.0,0,0.0,-1,0.0,0.0,0.0,0,0.0,0.4074
24483,0,,0.74,0.05,0.63,0,-0,0,0.74,,,,,,,,,,,,,,,,
24523,0,,0.74,0.06,0.64,-0,0,-0,0.75,,,,,,,,,,,,,,,,
24563,0,,0.79,0.04,0.61,-0,0,-1,0.79,,,,,,,,,,,,,,,,
24603,0,,0.82,0.07,0.63,0,-1,-0,0.82,,,,,,,,,,,,,,,,
24643,0,,0.89,0.05,0.67,-0,-1,-1,0.89,0.0,0.0,0.0,0.0,0,0,0.0,0,0.0,-1,0.0,0.0,0.0,0,0.0,0.4107
24683,0,,0.83,0.06,0.64,-0,1,-0,0.83,,,,,,,,,,,,,,,,
24723,0,,0.82,0.05,0.66,0,-1,0,0.82,,,,,,,,,,,,,,,,
24763,0,,0.83,0.04,0.65,-0,-1,-1,0.83,,,,,,,,,,,,,,,,
24803,0,,0.84,0.06,0.61,-0,-0,-1,0.84,,,,,,,,,,,,,,,,
24843,0,,0.88,0.08,0.64,0,-2,-1,0.89,0.0,0.0,0.0,0.0,0,0,0.0,0,0.0,-1,0.0,0.0,0.0,0,0.0,0.414
24883,0,,0.89,0.02,0.64,-0,-1,-1,0.89,,,,,,,,,,,,,,,,
24923,0,,0.89,0.03,0.61,0,1,-0,0.89,,,,,,,,,,,,,,,,
24963,0,,0.9,0.03,0.63,-0,-0,-0,0.9,,,,,,,,,,,,,,,,
25003,0,,0.85,0.03,0.56,0,1,-0,0.85,,,,,,,,,,,,,,,,
25043,0,12.56,0.84,0.04,0.63,-0,0,-0,0.84,0.0,0.0,0.0,0.0,0,0,0.0,0,0.0,-1,0.0,0.0,0.0,0,0.0,0.4174
25083,0,,0.82,0.04,0.59,0,1,0,0.82,,,,,,,,,,,,,,,,
25123,0,,0.82,0.04,0.62,-0,1,0,0.82,,,,,,,,,,,,,,,,
25163,0,,0.83,0.04,0.59,0,2,0,0.83,,,,,,,,,,,,,,,,
25203,0,,0.81,0.01,0.6,-0,2,-0,0.81,,,,,,,,,,,,,,,,
25243,0,,0.8,0.04,0.59,0,3,0,0.8,0.0,0.0,0.0,0.0,0,0,0.0,0,0.0,-1,0.0,0.0,0.0,0,0.0,0.4207
25283,0,,0.75,-0.03,0.58,-0,3,-0,0.75,,,,,,,,,,,,,,,,
25323,0,,0.8,0.05,0.59,-0,2,0,0.8,,,,,,,,,,,,,,,,
25363,0,,0.74,0.01,0.56,-0,4,0,0.74,,,,,,,,,,,,,,,,
25403,0,,0.8,-0.03,0.63,-1,3,-0,0.8,,,,,,,,,,,,,,,,
25443,0,,0.82,0.03,0.59,-0,4,1,0.82,0.0,0.0,0.0,0.0,0,0,0.0,0,0.0,-1,0.0,0.0,0.0,0,0.0,0.424
25483,0,,0.76,-0.04,0.6,-1,3,-0,0.76,,,,,,,,,,,,,,,,
25523,0,,0.85,0.03,0.63,-1,2,1,0.85,,,,,,,,,,,,,,,,
25563,0,,0.78,-0.0,0.61,-1,3,-0,0.78,,,,,,,,,,,,,,,,
25603,0,,0.82,0.05,0.66,-1,2,-0,0.82,,,,,,,,,,,,,,,,
25643,0,,0.84,0.04,0.66,-0,2,-0,0.84,0.0,0.0,0.0,0.0,0,0,0.0,0,0.0,-1,0.0,0.0,0.0,0,0.0,0.4274
25683,0,,0.87,0.02,0.64,-1,-0,-1,0.87,,,,,,,,,,,,,,,,
25723,0,,0.85,0.0,0.55,-0,-1,-0,0.85,,,,,,,,,,,,,,,,
25763,0,,0.91,-0.04,0.56,-1,-2,-1,0.91,,,,,,,,,,,,,,,,
25803,0,,0.88,-0.0,0.56,0,0,0,0.88,,,,,,,,,,,,,,,,
25843,0,,0.78,-0.03,0.65,-0,-1,-1,0.78,0.0,0.0,0.0,0.0,0,0,0.0,0,0.0,-1,0.0,0.0,0.0,0,0.0,0.4307
25883,0,,0.82,0.07,0.6,0,-1,-1,0.82,,,,,,,,,,,,,,,,
25923,0,,0.74,0.04,0.62,0,1,-1,0.74,,,,,,,,,,,,,,,,
25963,0,,0.78,0.05,0.62,0,1,-1,0.78,,,,,,,,,,,,,,,,
26003,0,,0.76,-0.0,0.67,-0,-0,-1,0.76,,,,,,,,,,,,,,,,
26043,0,12.53,0.8,0.02,0.66,-0,-1,-1,0.8,0.0,0.0,0.0,0.0,0,0,0.0,0,0.0,-1,0.0,0.0,0.0,0,0.0,0.434
26083,0,,0.81,0.01,0.61,-0,-2,-2,0.81,,,,,,,,,,,,,,,,
26123,0,,0.83,0.05,0.6,0,0,-0,0.83,,,,,,,,,,,,,,,,
26163,0,,0.7,0.01,0.68,-0,-1,-1,0.7,,,,,,,,,,,,,,,,
26203,0,,0.71,0.04,0.62,0,0,-1,0.71,,,,,,,,,,,,,,,,
26243,0,,0.78,0.06,0.65,-0,0,-1,0.78,0.0,0.0,0.0,0.0,0,0,0.0,0,0.0,-1,0.0,0.0,0.0,0,0.0,0.4374
26283,0,,0.82,0.06,0.58,-0,0,-1,0.82,,,,,,,,,,,,,,,,
26323,0,,0.83,0.06,0.63,-0,-1,-0,0.84,,,,,,,,,,,,,,,,
26363,0,,0.83,0.01,0.63,-0,0,-1,0.83,,,,,,,,,,,,,,,,
26403,0,,0.83,0.02,0.61,-0,2,-1,0.83,,,,,,,,,,,,,,,,
26443,0,,0.86,0.06,0.6,-0,-1,0,0.86,0.0,0.0,0.0,0.0,0,0,0.0,0,0.0,-1,0.0,0.0,0.0,0,0.0,0.4407
26483,0,,0.84,0.0,0.6,-0,0,-1,0.84,,,,,,,,,,,,,,,,
26523,0,,0.86,0.03,0.57,-0,1,-0,0.86,,,,,,,,,,,,,,,,
26563,0,,0.86,0.04,0.63,-0,0,-0,0.86,,,,,,,,,,,,,,,,
26603,0,,0.87,0.07,0.57,-0,0,-1,0.88,,,,,,,,,,,,,,,,
26643,0,,0.78,0.05,0.6,-1,-1,0,0.78,0.0,0.0,0.0,0.0,0,0,0.0,0,0.0,-1,0.0,0.0,0.0,0,0.0,0.444
26683,0,,0.78,0.06,0.59,-0,-0,-1,0.78,,,,,,,,,,,,,,,,
26723,0,,0.74,-0.0,0.57,-0,2,-1,0.74,,,,,,,,,,,,,,,,
26763,0,,0.79,0.05,0.52,-0,1,0,0.8,,,,,,,,,,,,,,,,
26803,0,,0.82,-0.01,0.61,-0,-0,-0,0.82,,,,,,,,,,,,,,,,
26843,0,,0.78,0.03,0.54,0,1,-0,0.78,0.0,0.0,0.0,0.0,0,0,0.0,0,0.0,-1,0.0,0.0,0.0,0,0.0,0.4474
26883,0,,0.82,0.06,0.53,-0,-0,-0,0.82,,,,,,,,,,,,,,,,
26923,0,,0.83,0.02,0.56,-0,-0,-0,0.83,,,,,,,,,,,,,,,,
26963,0,,0.83,0.01,0.57,0,1,-0,0.83,,,,,,,,,,,,,,,,
27003,0,,0.72,0.03,0.61,0,1,-1,0.72,,,,,,,,,,,,,,,,
27043,0,12.5,0.74,0.02,0.58,0,2,-1,0.74,0.0,0.0,0.0,0.0,0,0,0.0,0,0.0,-1,0.0,0.0,0.0,0,0.0,0.4507
27083,0,,0.76,0.09,0.56,0,2,-0,0.77,,,,,,,,,,,,,,,,
27123,0,,0.76,0.05,0.58,0,2,0,0.76,,,,,,,,,,,,,,,,
27163,0,,0.79,0.06,0.6,0,1,-0,0.79,,,,,,,,,,,,,,,,
27203,0,,0.83,0.06,0.61,-0,1,-1,0.84,,,,,,,,,,,,,,,,
27243,0,,0.86,0.07,0.56,-0,1,-0,0.86,0.0,0.0,0.0,0.0,0,0,0.0,0,0.0,-1,0.0,0.0,0.0,0,0.0,0.454
27283,0,,0.87,0.09,0.62,-0,-0,0,0.88,,,,,,,,,,,,,,,,
27323,0,,0.9,0.04,0.62,-0,0,-1,0.9,,,,,,,,,,,,,,,,
27363,0,,0.93,0.07,0.55,-0,2,0,0.94,,,,,,,,,,,,,,,,
27403,0,,0.94,0.1,0.55,-0,-0,1,0.94,,,,,,,,,,,,,,,,
27443,0,,0.94,0.09,0.56,-0,-0,-1,0.94,0.0,0.0,0.0,0.0,0,0,0.0,0,0.0,-1,0.0,0.0,0.0,0,0.0,0.4574
27483,0,,0.92,0.07,0.57,-1,0,0,0.92,,,,,,,,,,,,,,,,
27523,0,,0.9,0.03,0.64,-0,0,-0,0.9,,,,,,,,,,,,,,,,
27563,0,,0.93,0.05,0.56,-0,1,-0,0.94,,,,,,,,,,,,,,,,
27603,0,,0.86,0.08,0.51,-0,-0,1,0.86,,,,,,,,,,,,,,,,
27643,0,,0.85,0.03,0.54,0,1,-1,0.85,0.0,0.0,0.0,0.0,0,0,0.0,0,0.0,-1,0.0,0.0,0.0,0,0.0,0.4607
27683,0,,0.8,0.1,0.49,1,3,-2,0.8,,,,,,,,,,,,,,,,
27723,0,,0.84,0.06,0.51,1,2,-1,0.84,,,,,,,,,,,,,,,,
27763,0,,0.83,0.09,0.49,1,2,-0,0.83,,,,,,,,,,,,,,,,
27803,0,,0.84,0.09,0.53,0,1,-0,0.85,,,,,,,,,,,,,,,,
27843,0,,0.86,0.03,0.61,0,1,-2,0.86,0.0,0.0,0.0,0.0,0,0,0.0,0,0.0,-1,0.0,0.0,0.0,0,0.0,0.464
27883,0,,0.83,0.01,0.63,-0,2,-1,0.83,,,,,,,,,,,,,,,,
27923,0,,0.84,0.04,0.67,-0,1,-1,0.84,,,,,,,,,,,,,,,,
27963,0,,0.88,0.02,0.61,0,1,-1,0.88,,,,,,,,,,,,,,,,
28003,0,,0.81,0.03,0.63,0,0,-1,0.81,,,,,,,,,,,,,,,,
28043,0,12.52,0.8,0.05,0.57,0,1,-0,0.81,0.0,0.0,0.0,0.0,0,0,0.0,0,0.0,-1,0.0,0.0,0.0,0,0.0,0.4674
28083,0,,0.85,0.06,0.56,0,2,-0,0.85,,,,,,,,,,,,,,,,
28123,0,,0.77,0.01,0.6,0,2,-1,0.77,,,,,,,,,,,,,,,,
28163,0,,0.77,0.04,0.59,0,2,-1,0.77,,,,,,,,,,,,,,,,
28203,0,,0.82,0.06,0.59,-0,1,-0,0.82,,,,,,,,,,,,,,,,
28243,0,,0.87,0.05,0.58,-0,1,-0,0.88,0.0,0.0,0.0,0.0,0,0,0.0,0,0.0,-1,0.0,0.0,0.0,0,0.0,0.4707
28283,0,,0.88,0.1,0.56,0,-0,0,0.89,,,,,,,,,,,,,,,,
28323,0,,0.88,0.05,0.59,-0,-1,-1,0.88,,,,,,,,,,,,,,,,
28363,0,,0.92,0.07,0.59,-0,0,-1,0.92,,,,,,,,,,,,,,,,
28403,0,,0.89,0.1,0.58,0,-1,0,0.9,,,,,,,,,,,,,,,,
28443,0,,0.83,0.04,0.59,0,0,-2,0.83,0.0,0.0,0.0,0.0,0,0,0.0,0,0.0,-1,0.0,0.0,0.0,0,0.0,0.474
28483,0,,0.8,0.09,0.49,0,3,-0,0.8,,,,,,,,,,,,,,,,
28523,0,,0.76,0.05,0.61,0,1,0,0.76,,,,,,,,,,,,,,,,
28563,0,,0.75,0.06,0.6,0,1,-0,0.76,,,,,,,,,,,,,,,,
28603,0,,0.72,0.1,0.51,0,3,0,0.73,,,,,,,,,,,,,,,,
28643,0,,0.71,-0.01,0.65,0,1,1,0.71,0.0,0.0,0.0,0.0,0,0,0.0,0,0.0,-1,0.0,0.0,0.0,0,0.0,0.4774
28683,0,,0.69,0.03,0.6,0,1,-1,0.69,,,,,,,,,,,,,,,,
28723,0,,0.69,0.01,0.5,0,4,-0,0.69,,,,,,,,,,,,,,,,
28763,0,,0.72,0.05,0.57,0,1,1,0.72,,,,,,,,,,,,,,,,
28803,0,,0.75,0.01,0.58,0,1,-2,0.75,,,,,,,,,,,,,,,,
28843,0,,0.78,0.04,0.55,0,2,-0,0.78,0.0,0.0,0.0,0.0,0,0,0.0,0,0.0,-1,0.0,0.0,0.0,0,0.0,0.4807
28883,0,,0.79,0.05,0.61,0,-0,1,0.79,,,,,,,,,,,,,,,,
28923,0,,0.8,0.05,0.62,0,0,-1,0.81,,,,,,,,,,,,,,,,
28963,0,,0.87,0.07,0.58,0,2,-0,0.87,,,,,,,,,,,,,,,,
29003,0,,0.82,0.04,0.64,0,0,1,0.82,,,,,,,,,,,,,,,,
29043,0,12.63,0.85,0.08,0.57,0,-0,-0,0.85,0.0,0.0,0.0,0.0,0,0,0.0,0,0.0,-1,0.0,0.0,0.0,0,0.0,0.484
29083,0,,0.81,0.03,0.64,-0,0,0,0.81,,,,,,,,,,,,,,,,
29123,0,,0.79,0.04,0.63,0,-0,-1,0.79,,,,,,,,,,,,,,,,
29163,0,,0.84,-0.0,0.65,0,1,0,0.84,,,,,,,,,,,,,,,,
29203,0,,0.83,0.08,0.59,0,0,0,0.83,,,,,,,,,,,,,,,,
29243,0,,0.81,0.04,0.7,-0,-1,-0,0.81,0.0,0.0,0.0,0.0,0,0,0.0,0,0.0,-1,0.0,0.0,0.0,0,0.0,0.4874
29283,0,,0.79,0.03,0.6,0,1,-0,0.79,,,,,,,,,,,,,,,,
29323,0,,0.74,0.08,0.52,0,-0,-1,0.74,,,,,,,,,,,,,,,,
29363,0,,0.78,0.04,0.5,0,2,-0,0.78,,,,,,,,,,,,,,,,
29403,0,,0.77,0.07,0.47,0,1,-0,0.77,,,,,,,,,,,,,,,,
29443,0,,0.78,0.09,0.47,0,0,-1,0.78,0.0,0.0,0.0,0.0,0,0,0.0,0,0.0,-1,0.0,0.0,0.0,0,0.0,0.4907
29483,0,,0.77,0.03,0.5,0,2,0,0.78,,,,,,,,,,,,,,,,
29523,0,,0.77,0.03,0.59,0,1,-0,0.77,,,,,,,,,,,,,,,,
29563,0,,0.8,0.07,0.54,0,1,-0,0.8,,,,,,,,,,,,,,,,
29603,0,,0.83,0.01,0.53,-0,1,-1,0.83,,,,,,,,,,,,,,,,
29643,0,,0.8,0.05,0.52,0,1,-1,0.8,0.0,0.0,0.0,0.0,0,0,0.0,0,0.0,-1,0.0,0.0,0.0,0,0.0,0.494
29683,0,,0.81,0.04,0.55,0,1,-1,0.81,,,,,,,,,,,,,,,,
29723,0,,0.86,0.05,0.54,0,2,-0,0.87,,,,,,,,,,,,,,,,
29763,0,,0.87,0.08,0.54,0,0,1,0.87,,,,,,,,,,,,,,,,
29803,0,,0.9,0.04,0.6,-0,-1,-1,0.9,,,,,,,,,,,,,,,,
29843,0,,0.95,0.07,0.55,-0,0,-0,0.95,0.0,0.0,0.0,0.0,0,0,0.0,0,0.0,-1,0.0,0.0,0.0,0,0.0,0.4974
29883,0,,0.92,0.1,0.54,0,-1,0,0.93,,,,,,,,,,,,,,,,
29923,0,,0.96,0.05,0.58,-0,-1,-1,0.96,,,,,,,,,,,,,,,,
29963,0,,0.98,0.08,0.56,-0,0,-0,0.98,,,,,,,,,,,,,,,,
30003,0,,0.93,0.05,0.62,0,0,-0,0.93,,,,,,,,,,,,,,,,
30043,0,12.66,0.91,0.08,0.6,-0,0,-0,0.91,0.0,0.0,0.0,0.0,0,0,0.0,0,0.0,-1,0.0,0.0,0.0,0,0.0,0.5007
30083,0,,0.87,0.03,0.62,-0,0,-1,0.87,,,,,,,,,,,,,,,,
30123,0,,0.88,0.04,0.62,-0,1,-1,0.88,,,,,,,,,,,,,,,,
30163,0,,0.89,-0.0,0.62,-0,2,-0,0.89,,,,,,,,,,,,,,,,
30203,0,,0.87,0.07,0.6,0,-0,-0,0.87,,,,,,,,,,,,,,,,
30243,0,,0.87,-0.01,0.68,-0,-0,-1,0.87,0.0,0.0,0.0,0.0,0,0,0.0,0,0.0,-1,0.0,0.0,0.0,0,0.0,0.504
30283,0,,0.78,0.05,0.57,0,2,-0,0.78,,,,,,,,,,,,,,,,
30323,0,,0.73,0.07,0.54,0,2,-1,0.73,,,,,,,,,,,,,,,,
30363,0,,0.73,0.01,0.55,0,4,0,0.73,,,,,,,,,,,,,,,,
30403,0,,0.74,0.03,0.57,0,2,-1,0.74,,,,,,,,,,,,,,,,
30443,0,,0.74,0.11,0.45,0,1,-0,0.75,0.0,0.0,0.0,0.0,0,0,0.0,0,0.0,-1,0.0,0.0,0.0,0,0.0,0.5074
30483,0,,0.72,0.05,0.53,0,1,1,0.72,,,,,,,,,,,,,,,,
30523,0,,0.71,0.04,0.53,0,0,-1,0.71,,,,,,,,,,,,,,,,
30563,0,,0.75,0.02,0.56,0,3,0,0.75,,,,,,,,,,,,,,,,
30603,0,,0.77,0.06,0.64,0,-0,-0,0.78,,,,,,,,,,,,,,,,
30643,0,,0.78,0.05,0.56,0,0,-1,0.78,0.0,0.0,0.0,0.0,0,0,0.0,0,0.0,-1,0.0,0.0,0.0,0,0.0,0.5107
30683,0,,0.82,0.04,0.59,0,1,1,0.82,,,,,,,,,,,,,,,,
30723,0,,0.75,0.02,0.62,0,0,-1,0.75,,,,,,,,,,,,,,,,
30763,0,,0.8,0.1,0.57,1,1,-1,0.8,,,,,,,,,,,,,,,,
30803,0,,0.77,0.05,0.59,0,2,-0,0.77,,,,,,,,,,,,,,,,
30843,0,,0.8,0.04,0.56,0,2,-1,0.8,0.0,0.0,0.0,0.0,0,0,0.0,0,0.0,-1,0.0,0.0,0.0,0,0.0,0.514
30883,0,,0.71,0.03,0.53,0,3,-1,0.71,,,,,,,,,,,,,,,,
30923,0,,0.67,-0.01,0.61,0,3,-1,0.67,,,,,,,,,,,,,,,,
30963,0,,0.71,0.0,0.66,1,-0,-0,0.71,,,,,,,,,,,,,,,,
31003,0,,0.77,0.0,0.69,1,-1,0,0.77,,,,,,,,,,,,,,,,
31043,0,12.67,0.65,-0.0,0.61,1,0,0,0.65,0.0,0.0,0.0,0.0,0,0,0.0,0,0.0,-1,0.0,0.0,0.0,0,0.0,0.5174
31083,0,,0.56,-0.07,0.64,1,-2,-0,0.57,,,,,,,,,,,,,,,,
31123,0,,0.43,-0.04,0.54,1,-0,0,0.43,,,,,,,,,,,,,,,,
31163,0,,0.36,-0.08,0.59,1,0,-1,0.37,,,,,,,,,,,,,,,,
31203,0,,0.29,-0.09,0.48,1,1,-0,0.31,,,,,,,,,,,,,,,,
31243,0,,0.27,-0.11,0.44,1,2,-1,0.29,0.0,0.0,0.0,0.0,0,0,0.0,0,0.0,-1,0.0,0.0,0.0,0,0.0,0.5207
31283,0,,0.35,-0.16,0.37,1,5,-2,0.38,,,,,,,,,,,,,,,,
31323,0,,0.41,-0.1,0.37,1,8,-3,0.42,,,,,,,,,,,,,,,,
31363,0,,0.49,-0.0,0.45,1,8,-2,0.49,,,,,,,,,,,,,,,,
31403,0,,0.71,0.05,0.61,1,4,-2,0.71,,,,,,,,,,,,,,,,
31443,0,,0.83,0.1,0.6,1,-0,-1,0.83,0.0,0.0,0.0,0.0,0,0,0.0,0,0.0,-1,0.0,0.0,0.0,0,0.0,0.524
31483,0,,0.68,0.06,0.54,0,0,-0,0.69,,,,,,,,,,,,,,,,
31523,0,,0.74,0.06,0.54,0,2,-1,0.74,,,,,,,,,,,,,,,,
31563,0,,0.79,0.05,0.58,0,1,1,0.8,,,,,,,,,,,,,,,,
31603,0,,0.73,0.04,0.6,0,2,-0,0.73,,,,,,,,,,,,,,,,
31643,0,,0.8,0.08,0.62,0,0,0,0.8,0.0,0.0,0.0,0.0,0,0,0.0,0,0.0,-1,0.0,0.0,0.0,0,0.0,0.5274
31683,0,,0.8,0.05,0.64,0,2,-0,0.8,,,,,,,,,,,,,,,,
31723,0,,0.81,0.01,0.63,0,2,-0,0.82,,,,,,,,,,,,,,,,
31763,0,,0.89,0.09,0.6,0,0,0,0.89,,,,,,,,,,,,,,,,
31803,0,,0.84,0.03,0.66,0,1,-0,0.84,,,,,,,,,,,,,,,,
31843,0,,0.84,0.03,0.65,0,2,-0,0.84,0.0,0.0,0.0,0.0,0,0,0.0,0,0.0,-1,0.0,0.0,0.0,0,0.0,0.5307
31883,0,,0.89,0.08,0.61,0,-0,0,0.89,,,,,,,,,,,,,,,,
31923,0,,0.89,0.08,0.64,0,1,-0,0.9,,,,,,,,,,,,,,,,
31963,0,,0.91,0.04,0.66,-0,0,0,0.91,,,,,,,,,,,,,,,,
32003,0,,0.84,0.03,0.71,0,-0,-1,0.84,,,,,,,,,,,,,,,,
32043,0,12.13,0.87,-0.04,0.68,0,1,0,0.87,0.0,0.0,0.0,0.0,0,0,0.0,0,0.0,-1,0.0,0.0,0.0,0,0.0,0.534
32083,0,,0.89,-0.0,0.64,0,0,1,0.89,,,,,,,,,,,,,,,,
32123,0,,0.92,0.02,0.56,0,2,1,0.92,,,,,,,,,,,,,,,,
32163,0,,0.95,0.03,0.55,0,-0,1,0.95,,,,,,,,,,,,,,,,
32203,0,,0.89,-0.01,0.47,0,1,1,0.89,,,,,,,,,,,,,,,,
32243,0,,0.8,-0.04,0.64,0,1,-1,0.8,0.0,0.0,0.0,0.0,0,0,0.0,0,0.0,-1,0.0,0.0,0.0,0,0.0,0.5374
32283,0,,0.85,0.04,0.62,0,0,0,0.85,,,,,,,,,,,,,,,,
32323,0,,0.87,0.06,0.55,-0,1,-1,0.87,,,,,,,,,,,,,,,,
32363,0,,0.9,0.03,0.6,0,-0,0,0.9,,,,,,,,,,,,,,,,
32403,0,,0.85,0.05,0.68,0,2,1,0.85,,,,,,,,,,,,,,,,
32443,0,,0.75,0.1,0.73,0,1,-0,0.76,0.0,0.0,0.0,0.0,0,0,0.0,0,0.0,-1,0.0,0.0,0.0,0,0.0,0.5407
32483,0,,0.71,0.08,0.73,0,1,-1,0.72,,,,,,,,,,,,,,,,
32523,0,,0.68,0.02,0.69,0,2,-1,0.68,,,,,,,,,,,,,,,,
32563,0,,0.75,0.04,0.64,0,1,-0,0.75,,,,,,,,,,,,,,,,
32603,0,,0.73,0.03,0.62,0,1,0,0.73,,,,,,,,,,,,,,,,
32643,0,,0.72,-0.03,0.63,0,1,-1,0.72,0.0,0.0,0.0,0.0,0,0,0.0,0,0.0,-1,0.0,0.0,0.0,0,0.0,0.544
32683,0,,0.72,0.05,0.47,0,1,0,0.72,,,,,,,,,,,,,,,,
32723,0,,0.68,0.08,0.56,0,1,0,0.69,,,,,,,,,,,,,,,,
32763,0,,0.68,0.03,0.55,0,0,-1,0.68,,,,,,,,,,,,,,,,
32803,0,,0.69,0.09,0.45,0,1,-1,0.69,,,,,,,,,,,,,,,,
32843,0,,0.62,0.07,0.54,0,2,-1,0.62,0.0,0.0,0.0,0.0,0,0,0.0,0,0.0,-1,0.0,0.0,0.0,0,0.0,0.5474
32883,0,,0.63,0.05,0.58,0,3,-1,0.63,,,,,,,,,,,,,,,,
32923,0,,0.64,0.05,0.55,0,2,-2,0.64,,,,,,,,,,,,,,,,
32963,0,,0.62,0.01,0.5,0,3,-1,0.62,,,,,,,,,,,,,,,,
33003,0,,0.6,-0.02,0.68,0,2,-2,0.6,,,,,,,,,,,,,,,,
33043,0,12.41,0.69,0.07,0.66,0,1,-1,0.69,0.0,0.0,0.0,0.0,0,0,0.0,0,0.0,-1,0.0,0.0,0.0,0,0.0,0.5507
33083,0,,0.76,0.06,0.61,0,1,-1,0.76,,,,,,,,,,,,,,,,
33123,0,,0.77,0.09,0.59,0,1,-0,0.78,,,,,,,,,,,,,,,,
33163,0,,0.67,0.01,0.59,0,2,-1,0.67,,,,,,,,,,,,,,,,
33203,0,,0.74,0.08,0.71,0,1,-1,0.75,,,,,,,,,,,,,,,,
33243,0,,0.79,0.03,0.57,0,1,-0,0.79,0.0,0.0,0.0,0.0,0,0,0.0,0,0.0,-1,0.0,0.0,0.0,0,0.0,0.5541
33283,0,,0.81,0.11,0.66,-0,1,-1,0.82,,,,,,,,,,,,,,,,
33323,0,,0.82,0.0,0.56,0,-0,-1,0.82,,,,,,,,,,,,,,,,
33363,0,,0.74,0.02,0.62,0,-0,-1,0.74,,,,,,,,,,,,,,,,
33403,0,,0.87,0.05,0.51,0,-0,-0,0.88,,,,,,,,,,,,,,,,
33443,0,,0.71,0.0,0.66,0,0,-0,0.71,0.0,0.0,0.0,0.0,0,0,0.0,0,0.0,-1,0.0,0.0,0.0,0,0.0,0.5574
33483,0,,0.89,0.11,0.63,0,-1,1,0.9,,,,,,,,,,,,,,,,
33523,0,,0.71,-0.02,0.62,0,1,-0,0.71,,,,,,,,,,,,,,,,
33563,0,,0.75,0.03,0.73,0,1,-1,0.75,,,,,,,,,,,,,,,,
33603,0,,0.83,0.09,0.59,0,2,-1,0.84,,,,,,,,,,,,,,,,
33643,0,,0.82,0.08,0.58,0,-1,-0,0.82,0.0,0.0,0.0,0.0,0,0,0.0,0,0.0,-1,0.0,0.0,0.0,0,0.0,0.5607
33683,0,,0.69,0.02,0.66,0,1,0,0.69,,,,,,,,,,,,,,,,
33723,0,,0.86,0.14,0.57,0,2,-0,0.87,,,,,,,,,,,,,,,,
33763,0,,0.7,0.01,0.61,0,2,-0,0.7,,,,,,,,,,,,,,,,
33803,0,,0.79,0.14,0.58,-0,1,0,0.8,,,,,,,,,,,,,,,,
33843,0,,0.7,0.17,0.67,0,-1,-0,0.72,0.0,0.0,0.0,0.0,0,0,0.0,0,0.0,-1,0.0,0.0,0.0,0,0.0,0.564
33883,0,,0.75,0.11,0.71,1,-3,0,0.76,,,,,,,,,,,,,,,,
33923,0,,0.7,0.14,0.71,1,-4,2,0.71,,,,,,,,,,,,,,,,
33963,0,,0.76,0.11,0.83,0,-3,1,0.77,,,,,,,,,,,,,,,,
34003,0,,0.78,0.16,0.82,0,-1,0,0.8,,,,,,,,,,,,,,,,
34043,0,12.27,0.83,0.18,0.91,0,-4,0,0.85,0.0,0.0,0.0,0.0,0,0,0.0,0,0.0,-1,0.0,0.0,0.0,0,0.0,0.5674
34083,0,,0.68,0.12,0.74,1,2,1,0.69,,,,,,,,,,,,,,,,
34123,0,,0.75,0.09,0.69,1,1,1,0.76,,,,,,,,,,,,,,,,
34163,0,,0.72,0.05,0.74,0,0,1,0.72,,,,,,,,,,,,,,,,
34203,0,,0.96,-0.01,0.79,0,-2,-0,0.96,,,,,,,,,,,,,,,,
34243,0,,0.73,0.08,0.74,-0,-1,-0,0.73,0.0,0.0,0.0,0.0,0,0,0.0,0,0.0,-1,0.0,0.0,0.0,0,0.0,0.5707
34283,0,,0.75,0.14,0.76,-0,-0,-1,0.76,,,,,,,,,,,,,,,,
34323,0,,0.85,0.04,0.73,-0,-4,-1,0.85,,,,,,,,,,,,,,,,
34363,0,,0.81,0.0,0.81,-0,-2,-0,0.81,,,,,,,,,,,,,,,,
34403,0,,0.85,0.02,0.71,-0,-1,-2,0.85,,,,,,,,,,,,,,,,
34443,0,,0.88,0.14,0.52,-0,-3,2,0.89,0.0,0.0,0.0,0.0,0,0,0.0,0,0.0,-1,0.0,0.0,0.0,0,0.0,0.574
34483,0,,0.86,0.34,0.52,0,1,-0,0.93,,,,,,,,,,,,,,,,
34523,0,,0.84,0.4,0.45,0,-4,3,0.93,,,,,,,,,,,,,,,,
34563,0,,0.8,0.53,0.32,1,3,2,0.96,,,,,,,,,,,,,,,,
34603,0,,0.82,0.31,0.28,0,-5,2,0.87,,,,,,,,,,,,,,,,
34643,0,,0.79,0.24,0.45,0,4,1,0.82,0.0,0.0,0.0,0.0,0,0,0.0,0,0.0,-1,0.0,0.0,0.0,0,0.0,0.5774
34683,0,,0.88,0.22,0.33,0,-1,1,0.91,,,,,,,,,,,,,,,,
34723,0,,0.8,0.14,0.47,0,-3,2,0.81,,,,,,,,,,,,,,,,
34763,0,,0.74,0.03,0.53,0,3,-1,0.74,,,,,,,,,,,,,,,,
34803,0,,0.77,0.1,0.56,0,2,-0,0.78,,,,,,,,,,,,,,,,
34843,0,,0.69,0.35,0.53,1,2,2,0.78,0.0,0.0,0.0,0.0,0,0,0.0,0,0.0,-1,0.0,0.0,0.0,0,0.0,0.5807
34883,0,,0.69,0.38,0.55,1,2,2,0.79,,,,,,,,,,,,,,,,
34923,0,,0.61,0.25,0.65,1,2,1,0.67,,,,,,,,,,,,,,,,
34963,0,,0.78,0.15,0.61,0,1,2,0.79,,,,,,,,,,,,,,,,
35003,0,,0.78,0.11,0.66,0,3,-0,0.79,,,,,,,,,,,,,,,,
35043,0,12.32,0.8,0.05,0.61,0,1,1,0.8,0.0,0.0,0.0,0.0,0,0,0.0,0,0.0,-1,0.0,0.0,0.0,0,0.0,0.584
35083,0,,0.84,0.12,0.53,0,0,0,0.85,,,,,,,,,,,,,,,,
35123,0,,0.81,0.22,0.43,0,2,-0,0.83,,,,,,,,,,,,,,,,
35163,0,,0.89,0.06,0.42,0,2,-1,0.89,,,,,,,,,,,,,,,,
35203,0,,0.85,-0.18,0.62,-0,-2,-0,0.87,,,,,,,,,,,,,,,,
35243,0,,0.86,0.13,0.57,0,4,-0,0.87,0.0,0.0,0.0,0.0,0,0,0.0,0,0.0,-1,0.0,0.0,0.0,0,0.0,0.5874
35283,0,,0.81,0.11,0.54,-0,-3,-0,0.82,,,,,,,,,,,,,,,,
35323,0,,0.79,-0.09,0.62,-0,3,-2,0.8,,,,,,,,,,,,,,,,
35363,0,,0.82,-0.19,0.73,-1,-1,-0,0.84,,,,,,,,,,,,,,,,
35403,0,,0.81,-0.24,0.82,-0,2,-2,0.85,,,,,,,,,,,,,,,,
35443,0,,0.79,-0.16,0.83,-0,-0,-1,0.8,0.0,0.0,0.0,0.0,0,0,0.0,0,0.0,-1,0.0,0.0,0.0,0,0.0,0.5907
35483,0,,0.57,-0.0,1.0,0,4,-0,0.57,,,,,,,,,,,,,,,,
35523,0,,0.46,-0.0,1.03,0,5,-1,0.46,,,,,,,,,,,,,,,,
35563,0,,0.56,-0.03,1.11,0,4,-1,0.56,,,,,,,,,,,,,,,,
35603,0,,0.44,-0.0,1.0,0,3,-0,0.44,,,,,,,,,,,,,,,,
35643,0,,0.36,0.06,0.86,0,1,0,0.37,0.0,0.0,0.0,0.0,0,0,0.0,0,0.0,-1,0.0,0.0,0.0,0,0.0,0.594
35683,0,,0.32,-0.01,0.97,1,1,-0,0.32,,,,,,,,,,,,,,,,
35723,0,,0.52,0.01,0.92,-0,3,-1,0.52,,,,,,,,,,,,,,,,
35763,0,,0.75,0.04,0.96,-1,3,-1,0.75,,,,,,,,,,,,,,,,
35803,0,,0.69,0.01,1.04,-1,3,-2,0.69,,,,,,,,,,,,,,,,
35843,0,,0.64,-0.05,0.94,-0,4,-3,0.64,0.0,0.0,0.0,0.0,0,0,0.0,0,0.0,-1,0.0,0.0,0.0,0,0.0,0.5974
35883,0,,0.59,-0.05,0.91,-0,3,-1,0.59,,,,,,,,,,,,,,,,
35923,0,,0.55,-0.06,0.97,0,3,-2,0.55,,,,,,,,,,,,,,,,
35963,0,,0.54,-0.05,0.93,0,2,-3,0.55,,,,,,,,,,,,,,,,
36003,0,,0.53,-0.03,0.95,0,4,-3,0.53,,,,,,,,,,,,,,,,
36043,0,12.41,0.56,-0.01,0.91,0,-1,-3,0.56,0.0,0.0,0.0,0.0,0,0,0.0,0,0.0,-1,0.0,0.0,0.0,0,0.0,0.6007
36083,0,,0.54,0.02,0.87,0,4,-1,0.54,,,,,,,,,,,,,,,,
36123,0,,0.56,-0.0,0.9,-0,3,-3,0.56,,,,,,,,,,,,,,,,
36163,0,,0.63,0.06,0.91,0,9,-5,0.64,,,,,,,,,,,,,,,,
36203,0,,0.64,-0.01,0.79,0,0,-1,0.64,,,,,,,,,,,,,,,,
36243,0,,0.75,0.02,0.7,0,3,-0,0.75,0.0,0.0,0.0,0.0,0,0,0.0,0,0.0,-1,0.0,0.0,0.0,0,0.0,0.604
36283,0,,0.69,0.04,0.71,1,9,-2,0.69,,,,,,,,,,,,,,,,
36323,0,,0.73,0.02,0.68,0,-4,0,0.73,,,,,,,,,,,,,,,,
36363,0,,0.72,-0.02,0.65,0,-5,1,0.72,,,,,,,,,,,,,,,,
36403,0,,0.75,0.02,0.73,1,5,-3,0.75,,,,,,,,,,,,,,,,
36443,0,,0.78,0.05,0.69,0,-1,0,0.78,0.0,0.0,0.0,0.0,0,0,0.0,0,0.0,-1,0.0,0.0,0.0,0,0.0,0.6074
36483,0,,0.75,0.02,0.7,0,-2,-1,0.75,,,,,,,,,,,,,,,,
36523,0,,0.8,0.04,0.65,0,-2,0,0.8,,,,,,,,,,,,,,,,
36563,0,,0.76,-0.01,0.68,1,-1,0,0.76,,,,,,,,,,,,,,,,
36603,0,,0.82,-0.0,0.64,1,-2,0,0.82,,,,,,,,,,,,,,,,
36643,0,,0.71,-0.03,0.61,1,-4,2,0.71,0.0,0.0,0.0,0.0,0,0,0.0,0,0.0,-1,0.0,0.0,0.0,0,0.0,0.6107
36683,0,,0.81,-0.05,0.56,2,6,-0,0.81,,,,,,,,,,,,,,,,
36723,0,,0.83,-0.03,0.59,2,4,0,0.83,,,,,,,,,,,,,,,,
36763,0,,0.8,-0.04,0.62,2,-6,3,0.8,,,,,,,,,,,,,,,,
36803,0,,0.74,-0.04,0.57,2,-2,2,0.74,,,,,,,,,,,,,,,,
36843,0,,0.76,0.02,0.57,2,7,1,0.76,0.0,0.0,0.0,0.0,0,0,0.0,0,0.0,-1,0.0,0.0,0.0,0,0.0,0.614
36883,0,,0.72,0.07,0.62,2,5,1,0.72,,,,,,,,,,,,,,,,
36923,0,,0.69,0.08,0.64,2,-2,4,0.69,,,,,,,,,,,,,,,,
36963,0,,0.65,0.06,0.65,2,-3,4,0.65,,,,,,,,,,,,,,,,
37003,0,,0.7,0.04,0.65,3,4,2,0.7,,,,,,,,,,,,,,,,
37043,0,12.39,0.76,0.06,0.65,3,8,0,0.76,0.0,0.0,0.0,0.0,0,0,0.0,0,0.0,-1,0.0,0.0,0.0,0,0.0,0.6174
37083,0,,0.78,0.04,0.67,4,7,1,0.78,,,,,,,,,,,,,,,,
37123,0,,0.76,0.01,0.65,4,3,3,0.76,,,,,,,,,,,,,,,,
37163,0,,0.75,-0.02,0.61,4,4,4,0.75,,,,,,,,,,,,,,,,
37203,0,,0.74,0.01,0.7,5,8,3,0.74,,,,,,,,,,,,,,,,
37243,0,,0.74,-0.03,0.76,5,3,4,0.74,0.0,0.0,0.0,0.0,0,0,0.0,0,0.0,-1,0.0,0.0,0.0,0,0.0,0.6207
37283,0,,0.63,-0.04,0.78,5,5,4,0.63,,,,,,,,,,,,,,,,
37323,0,,0.62,-0.05,0.79,5,0,5,0.62,,,,,,,,,,,,,,,,
37363,0,,0.57,-0.09,0.76,6,3,6,0.58,,,,,,,,,,,,,,,,
37403,0,,0.53,-0.14,0.78,6,6,6,0.55,,,,,,,,,,,,,,,,
37443,0,,0.51,-0.23,0.86,7,2,8,0.56,0.0,0.0,0.0,0.0,0,0,0.0,0,0.0,-1,0.0,0.0,0.0,0,0.0,0.624
37483,0,,0.55,-0.2,0.86,6,4,8,0.59,,,,,,,,,,,,,,,,
37523,0,,0.46,-0.13,0.78,7,4,10,0.48,,,,,,,,,,,,,,,,
37563,0,,0.43,-0.19,0.95,8,1,10,0.47,,,,,,,,,,,,,,,,
37603,0,,0.42,-0.13,0.94,8,2,11,0.44,,,,,,,,,,,,,,,,
37643,0,,0.45,-0.13,0.98,9,-1,13,0.47,0.0,0.0,0.0,0.0,0,0,0.0,0,0.0,-1,0.0,0.0,0.0,0,0.0,0.6274
37683,0,,0.52,-0.19,0.96,11,-1,13,0.56,,,,,,,,,,,,,,,,
37723,0,,0.44,-0.18,0.96,12,1,15,0.48,,,,,,,,,,,,,,,,
37763,0,,0.38,-0.27,0.98,14,-0,17,0.47,,,,,,,,,,,,,,,,
37803,0,,0.37,-0.28,1.05,16,3,18,0.46,,,,,,,,,,,,,,,,
37843,0,,0.09,-0.14,1.16,18,8,19,0.17,0.0,0.0,0.0,0.0,0,0,0.0,0,0.0,-1,0.0,0.0,0.0,0,0.0,0.6307
37883,0,,-0.12,-0.25,1.08,19,5,21,0.27,,,,,,,,,,,,,,,,
37923,0,,-0.11,-0.42,1.21,19,-3,22,0.43,,,,,,,,,,,,,,,,
37963,0,,0.06,-0.41,1.27,18,-8,21,0.41,,,,,,,,,,,,,,,,
38003,0,,0.43,-0.44,1.27,15,-9,22,0.61,,,,,,,,,,,,,,,,
38043,0,12.36,0.57,-0.45,1.17,12,-6,19,0.72,0.0,0.0,0.0,0.0,0,0,0.0,0,0.0,-1,0.0,0.0,0.0,0,0.0,0.634
38083,0,,0.66,-0.32,1.15,9,-10,18,0.73,,,,,,,,,,,,,,,,
38123,0,,0.51,-0.19,1.01,7,-4,14,0.54,,,,,,,,,,,,,,,,
38163,0,,0.79,-0.17,0.94,4,-5,11,0.81,,,,,,,,,,,,,,,,
38203,0,,0.73,0.02,1.06,1,-10,7,0.73,,,,,,,,,,,,,,,,
38243,0,,0.57,0.16,0.78,-2,-4,2,0.59,0.0,0.0,0.0,0.0,0,0,0.0,0,0.0,-1,0.0,0.0,0.0,0,0.0,0.6374
38283,0,,0.6,0.29,0.86,-6,-7,-1,0.67,,,,,,,,,,,,,,,,
38323,0,,0.71,0.32,0.87,-9,-5,-6,0.78,,,,,,,,,,,,,,,,
38363,0,,0.64,0.37,0.73,-13,-2,-11,0.74,,,,,,,,,,,,,,,,
38403,0,,0.65,0.49,0.68,-15,-1,-15,0.81,,,,,,,,,,,,,,,,
38443,0,,0.62,0.48,0.59,-18,1,-20,0.78,0.0,0.0,0.0,0.0,0,0,0.0,0,0.0,-1,0.0,0.0,0.0,0,0.0,0.6407
38483,0,,0.7,0.48,0.65,-20,1,-23,0.85,,,,,,,,,,,,,,,,
38523,0,,0.72,0.63,0.72,-22,0,-25,0.95,,,,,,,,,,,,,,,,
38563,0,,0.7,0.64,0.77,-24,-1,-29,0.95,,,,,,,,,,,,,,,,
38603,0,,0.66,0.63,0.77,-26,-1,-31,0.91,,,,,,,,,,,,,,,,
38643,0,,0.75,0.82,0.73,-28,-3,-32,1.11,0.0,0.0,0.0,0.0,0,0,0.0,0,0.0,-1,0.0,0.0,0.0,0,0.0,0.644
38683,0,,0.71,0.77,0.77,-29,0,-35,1.05,,,,,,,,,,,,,,,,
38723,0,,0.67,0.87,0.69,-30,-0,-37,1.1,,,,,,,,,,,,,,,,
38763,0,,0.9,1.0,0.79,-30,-1,-39,1.34,,,,,,,,,,,,,,,,
38803,0,,0.75,0.93,0.76,-33,1,-42,1.19,,,,,,,,,,,,,,,,
38843,0,,0.54,0.96,0.46,-34,2,-43,1.1,0.0,0.0,0.0,0.0,0,0,0.0,0,0.0,-1,0.0,0.0,0.0,0,0.0,0.6474
38883,0,,0.47,1.03,0.39,-34,2,-44,1.13,,,,,,,,,,,,,,,,
38923,0,,0.37,0.89,0.53,-34,3,-45,0.96,,,,,,,,,,,,,,,,
38963,0,,0.53,0.93,0.66,-33,3,-46,1.07,,,,,,,,,,,,,,,,
39003,0,,0.6,0.82,0.71,-29,0,-43,1.01,,,,,,,,,,,,,,,,
39043,0,12.3,0.55,0.45,0.72,-22,-1,-39,0.71,0.0,0.0,0.0,0.0,0,0,0.0,0,0.0,-1,0.0,0.0,0.0,0,0.0,0.6507
39083,0,,0.54,0.29,0.65,-16,1,-32,0.61,,,,,,,,,,,,,,,,
39123,0,,0.66,0.11,0.64,-9,-1,-25,0.67,,,,,,,,,,,,,,,,
39163,0,,0.51,-0.08,0.65,-3,0,-16,0.52,,,,,,,,,,,,,,,,
39203,0,,0.67,-0.23,0.52,0,2,-10,0.71,,,,,,,,,,,,,,,,
39243,0,,0.71,-0.35,0.4,4,-1,-1,0.79,0.0,0.0,0.0,0.0,0,0,0.0,0,0.0,-1,0.0,0.0,0.0,0,0.0,0.654
39283,0,,0.75,-0.41,0.41,8,-2,5,0.86,,,,,,,,,,,,,,,,
39323,0,,0.78,-0.47,0.41,12,-2,10,0.9,,,,,,,,,,,,,,,,
39363,0,,0.78,-0.58,0.37,17,-0,17,0.97,,,,,,,,,,,,,,,,
39403,0,,0.8,-0.58,0.34,20,0,19,0.99,,,,,,,,,,,,,,,,
39443,0,,0.9,-0.75,0.39,22,-2,25,1.18,0.0,0.0,0.0,0.0,0,0,0.0,0,0.0,-1,0.0,0.0,0.0,0,0.0,0.6574
39483,0,,0.93,-0.88,0.45,23,-3,30,1.28,,,,,,,,,,,,,,,,
39523,0,,1.05,-0.79,0.48,25,-3,33,1.31,,,,,,,,,,,,,,,,
39563,0,,1.04,-0.89,0.42,28,-1,38,1.36,,,,,,,,,,,,,,,,
39603,0,,1.08,-0.98,0.32,30,-3,40,1.45,,,,,,,,,,,,,,,,
39643,0,,0.99,-0.94,0.31,33,-4,42,1.36,0.0,0.0,0.0,0.0,0,0,0.0,0,0.0,-1,0.0,0.0,0.0,0,0.0,0.6607
39683,0,,1.15,-0.89,0.31,32,-6,44,1.46,,,,,,,,,,,,,,,,
39723,0,,1.18,-0.75,0.28,32,-4,42,1.4,,,,,,,,,,,,,,,,
39763,0,,1.09,-0.88,0.26,32,-5,41,1.4,,,,,,,,,,,,,,,,
39803,0,,1.16,-0.75,0.13,30,-3,43,1.38,,,,,,,,,,,,,,,,
39843,0,,0.89,-0.64,0.37,28,-0,41,1.1,0.0,0.0,0.0,0.0,0,0,0.0,0,0.0,-1,0.0,0.0,0.0,0,0.0,0.664
39883,0,,1.09,-0.63,0.35,25,-3,37,1.26,,,,,,,,,,,,,,,,
39923,0,,0.85,-0.48,0.37,22,1,34,0.97,,,,,,,,,,,,,,,,
39963,0,,1.07,-0.39,0.3,18,0,30,1.14,,,,,,,,,,,,,,,,
40003,0,,0.91,-0.3,0.53,14,-1,24,0.96,,,,,,,,,,,,,,,,
40043,0,12.4,0.93,-0.12,0.38,9,1,19,0.94,0.0,0.0,0.0,0.0,0,0,0.0,0,0.0,-1,0.0,0.0,0.0,0,0.0,0.6674
40083,0,,1.02,0.03,0.46,4,-2,14,1.02,,,,,,,,,,,,,,,,
40123,0,,0.94,0.13,0.49,-1,-2,8,0.95,,,,,,,,,,,,,,,,
40163,0,,0.87,0.29,0.4,-5,0,2,0.92,,,,,,,,,,,,,,,,
40203,0,,0.82,0.46,0.3,-10,0,-4,0.94,,,,,,,,,,,,,,,,
40243,0,,0.71,0.57,0.37,-14,2,-10,0.91,0.0,0.0,0.0,0.0,0,0,0.0,0,0.0,-1,0.0,0.0,0.0,0,0.0,0.6707
40283,0,,0.91,0.63,0.35,-18,-0,-16,1.11,,,,,,,,,,,,,,,,
40323,0,,0.75,0.59,0.45,-21,0,-23,0.96,,,,,,,,,,,,,,,,
40363,0,,0.94,0.63,0.41,-23,-3,-27,1.13,,,,,,,,,,,,,,,,
40403,0,,0.99,0.66,0.37,-25,0,-31,1.19,,,,,,,,,,,,,,,,
40443,0,,0.83,0.72,0.51,-27,4,-32,1.09,0.0,0.0,0.0,0.0,0,0,0.0,0,0.0,-1,0.0,0.0,0.0,0,0.0,0.674
40483,0,,0.83,0.7,0.5,-26,-1,-35,1.09,,,,,,,,,,,,,,,,
40523,0,,0.76,0.63,0.63,-27,-4,-36,0.99,,,,,,,,,,,,,,,,
40563,0,,0.77,0.65,0.64,-28,-1,-34,1.01,,,,,,,,,,,,,,,,
40603,0,,0.79,0.66,0.72,-28,-4,-37,1.03,,,,,,,,,,,,,,,,
40643,0,,0.99,0.62,0.67,-28,0,-38,1.17,0.0,0.0,0.0,0.0,0,0,0.0,0,0.0,-1,0.0,0.0,0.0,0,0.0,0.6774
40683,0,,1.02,0.59,0.73,-28,4,-40,1.18,,,,,,,,,,,,,,,,
40723,0,,0.95,0.62,0.68,-29,8,-38,1.14,,,,,,,,,,,,,,,,
40763,0,,0.84,0.65,0.68,-28,11,-37,1.07,,,,,,,,,,,,,,,,
40803,0,,0.62,0.62,0.69,-25,11,-39,0.87,,,,,,,,,,,,,,,,
40843,0,,0.64,0.43,0.58,-22,15,-35,0.77,0.0,0.0,0.0,0.0,0,0,0.0,0,0.0,-1,0.0,0.0,0.0,0,0.0,0.6807
40883,0,,0.75,0.32,0.73,-19,10,-30,0.81,,,,,,,,,,,,,,,,
40923,0,,0.6,0.23,0.8,-15,6,-25,0.65,,,,,,,,,,,,,,,,
40963,0,,0.58,0.15,0.68,-10,8,-19,0.59,,,,,,,,,,,,,,,,
41003,0,,0.53,0.1,0.84,-6,4,-14,0.54,,,,,,,,,,,,,,,,
41043,0,12.22,0.52,-0.02,0.83,-4,5,-8,0.52,0.0,0.0,0.0,0.0,0,0,0.0,0,0.0,-1,0.0,0.0,0.0,0,0.0,0.684
41083,0,,0.44,-0.06,0.8,-2,4,-5,0.44,,,,,,,,,,,,,,,,
41123,0,,0.3,-0.13,0.78,1,5,-1,0.32,,,,,,,,,,,,,,,,
41163,0,,0.51,-0.1,0.89,4,6,2,0.52,,,,,,,,,,,,,,,,
41203,0,,0.12,-0.23,0.76,6,9,4,0.26,,,,,,,,,,,,,,,,
41243,0,,0.47,-0.24,0.66,7,2,8,0.52,0.0,0.0,0.0,0.0,0,0,0.0,0,0.0,-1,0.0,0.0,0.0,0,0.0,0.6874
41283,0,,0.63,-0.29,0.69,7,1,10,0.7,,,,,,,,,,,,,,,,
41323,0,,0.55,-0.32,0.74,8,2,13,0.63,,,,,,,,,,,,,,,,
41363,0,,0.48,-0.35,0.89,8,1,13,0.6,,,,,,,,,,,,,,,,
41403,0,,0.56,-0.34,1.03,9,-2,13,0.65,,,,,,,,,,,,,,,,
41443,0,,0.42,-0.3,1.11,9,-1,13,0.51,0.0,0.0,0.0,0.0,0,0,0.0,0,0.0,-1,0.0,0.0,0.0,0,0.0,0.6907
41483,0,,0.46,-0.39,1.28,9,1,10,0.6,,,,,,,,,,,,,,,,
41523,0,,0.58,-0.38,1.41,9,-1,12,0.7,,,,,,,,,,,,,,,,
41563,0,,0.59,-0.53,1.26,10,-1,12,0.79,,,,,,,,,,,,,,,,
41603,0,,0.41,-0.34,1.29,11,-0,13,0.53,,,,,,,,,,,,,,,,
41643,0,,0.39,-0.32,1.14,10,1,12,0.5,0.0,0.0,0.0,0.0,0,0,0.0,0,0.0,-1,0.0,0.0,0.0,0,0.0,0.694
41683,0,,0.43,-0.41,1.31,10,1,12,0.6,,,,,,,,,,,,,,,,
41723,0,,0.48,-0.39,1.09,10,1,12,0.62,,,,,,,,,,,,,,,,
41763,0,,0.5,-0.53,1.24,10,2,13,0.72,,,,,,,,,,,,,,,,
41803,0,,0.38,-0.65,1.38,11,2,10,0.75,,,,,,,,,,,,,,,,
41843,0,,0.4,-0.62,1.37,11,3,11,0.74,0.0,0.0,0.0,0.0,0,0,0.0,0,0.0,-1,0.0,0.0,0.0,0,0.0,0.6974
41883,0,,0.44,-0.65,1.34,10,2,12,0.78,,,,,,,,,,,,,,,,
41923,0,,0.44,-0.58,1.32,10,0,12,0.73,,,,,,,,,,,,,,,,
41963,0,,0.4,-0.5,1.22,10,1,11,0.64,,,,,,,,,,,,,,,,
42003,0,,0.41,-0.5,1.2,10,1,12,0.64,,,,,,,,,,,,,,,,
42043,0,12.15,0.44,-0.45,1.12,10,-2,12,0.62,0.0,0.0,0.0,0.0,0,0,0.0,0,0.0,-1,0.0,0.0,0.0,0,0.0,0.7007
42083,0,,0.44,-0.25,1.08,9,-5,14,0.5,,,,,,,,,,,,,,,,
42123,0,,0.46,-0.11,1.09,8,-7,13,0.48,,,,,,,,,,,,,,,,
42163,0,,0.51,-0.12,1.23,7,-7,13,0.52,,,,,,,,,,,,,,,,
42203,0,,0.52,-0.35,1.38,7,-5,11,0.63,,,,,,,,,,,,,,,,
42243,0,,0.48,-0.2,1.35,7,-7,10,0.52,0.0,0.0,0.0,0.0,0,0,0.0,0,0.0,-1,0.0,0.0,0.0,0,0.0,0.704
42283,0,,0.58,-0.28,1.2,6,-11,8,0.65,,,,,,,,,,,,,,,,
42323,0,,0.75,-0.39,0.95,5,-14,7,0.85,,,,,,,,,,,,,,,,
42363,0,,0.84,-0.3,0.94,5,-10,4,0.89,,,,,,,,,,,,,,,,
42403,0,,0.8,-0.39,0.74,4,-10,7,0.89,,,,,,,,,,,,,,,,
42443,0,,0.84,-0.2,0.49,5,-1,7,0.86,0.0,0.0,0.0,0.0,0,0,0.0,0,0.0,-1,0.0,0.0,0.0,0,0.0,0.7074
42483,0,,1.0,-0.23,0.51,4,-0,6,1.03,,,,,,,,,,,,,,,,
42523,0,,1.06,-0.26,0.54,3,-7,5,1.09,,,,,,,,,,,,,,,,
42563,0,,1.06,-0.32,0.35,2,-3,7,1.1,,,,,,,,,,,,,,,,
42603,0,,1.11,-0.1,0.28,2,-3,9,1.11,,,,,,,,,,,,,,,,
42643,0,,1.17,-0.26,0.31,2,-4,6,1.2,0.0,0.0,0.0,0.0,0,0,0.0,0,0.0,-1,0.0,0.0,0.0,0,0.0,0.7107
42683,0,,1.16,-0.2,0.27,1,-0,4,1.17,,,,,,,,,,,,,,,,
42723,0,,1.15,-0.12,0.2,1,-1,0,1.16,,,,,,,,,,,,,,,,
42763,0,,1.14,-0.14,0.01,-0,0,1,1.14,,,,,,,,,,,,,,,,
42803,0,,1.12,0.07,0.03,-1,-0,0,1.12,,,,,,,,,,,,,,,,
42843,0,,1.12,0.09,-0.04,-2,-1,-2,1.12,0.0,0.0,0.0,0.0,0,0,0.0,0,0.0,-1,0.0,0.0,0.0,0,0.0,0.714
42883,0,,1.21,0.03,-0.01,-3,-3,-4,1.21,,,,,,,,,,,,,,,,
42923,0,,1.05,0.15,-0.05,-4,-1,-5,1.06,,,,,,,,,,,,,,,,
42963,0,,0.9,0.23,-0.14,-3,4,-6,0.93,,,,,,,,,,,,,,,,
43003,0,,0.76,0.12,-0.13,-2,3,-7,0.77,,,,,,,,,,,,,,,,
43043,0,12.25,0.93,0.14,-0.06,-2,1,-6,0.94,0.0,0.0,0.0,0.0,0,0,0.0,0,0.0,-1,0.0,0.0,0.0,0,0.0,0.7174
43083,0,,0.96,0.12,-0.11,-2,3,-6,0.97,,,,,,,,,,,,,,,,
43123,0,,1.03,0.13,-0.12,-2,1,-4,1.04,,,,,,,,,,,,,,,,
43163,0,,1.04,0.21,-0.08,-1,1,-4,1.06,,,,,,,,,,,,,,,,
43203,0,,1.09,0.24,0.02,-2,0,-2,1.11,,,,,,,,,,,,,,,,
43243,0,,1.07,0.18,0.0,-2,3,-3,1.08,0.0,0.0,0.0,0.0,0,0,0.0,0,0.0,-1,0.0,0.0,0.0,0,0.0,0.7207
43283,0,,1.24,0.26,0.09,-2,-1,-5,1.27,,,,,,,,,,,,,,,,
43323,0,,1.36,0.3,0.18,-2,-4,-4,1.39,,,,,,,,,,,,,,,,
43363,0,,1.48,0.34,0.31,-3,-6,-4,1.51,,,,,,,,,,,,,,,,
43403,0,,1.56,0.29,0.24,-4,-6,-7,1.59,,,,,,,,,,,,,,,,
43443,0,,1.25,0.26,0.16,-5,-3,-6,1.28,0.0,0.0,0.0,0.0,0,0,0.0,0,0.0,-1,0.0,0.0,0.0,0,0.0,0.724
43483,0,,1.31,0.36,0.25,-6,-3,-7,1.36,,,,,,,,,,,,,,,,
43523,0,,1.17,0.45,0.15,-7,-2,-5,1.26,,,,,,,,,,,,,,,,
43563,0,,1.11,0.51,-0.02,-8,-0,-9,1.22,,,,,,,,,,,,,,,,
43603,0,,1.14,0.43,0.02,-10,-1,-13,1.22,,,,,,,,,,,,,,,,
43643,0,,1.11,0.46,0.09,-11,1,-13,1.2,0.0,0.0,0.0,0.0,0,0,0.0,0,0.0,-1,0.0,0.0,0.0,0,0.0,0.7274
43683,0,,1.04,0.42,0.2,-11,1,-14,1.12,,,,,,,,,,,,,,,,
43723,0,,1.01,0.33,0.25,-11,2,-16,1.06,,,,,,,,,,,,,,,,
43763,0,,0.91,0.39,0.15,-9,6,-14,0.99,,,,,,,,,,,,,,,,
43803,0,,1.07,0.29,0.31,-9,-0,-14,1.11,,,,,,,,,,,,,,,,
43843,0,,0.94,0.33,0.14,-9,4,-13,0.99,0.0,0.0,0.0,0.0,0,0,0.0,0,0.0,-1,0.0,0.0,0.0,0,0.0,0.7307
43883,0,,1.08,0.28,0.31,-10,3,-17,1.11,,,,,,,,,,,,,,,,
43923,0,,1.03,0.3,0.13,-11,1,-15,1.07,,,,,,,,,,,,,,,,
43963,0,,0.85,0.36,0.07,-12,3,-13,0.93,,,,,,,,,,,,,,,,
44003,0,,0.72,0.37,0.15,-13,4,-14,0.81,,,,,,,,,,,,,,,,
44043,0,12.32,0.58,0.45,0.25,-14,4,-14,0.73,0.0,0.0,0.0,0.0,0,0,0.0,0,0.0,-1,0.0,0.0,0.0,0,0.0,0.734
44083,0,,0.45,0.45,0.34,-15,6,-16,0.64,,,,,,,,,,,,,,,,
44123,0,,0.68,0.38,0.23,-17,1,-17,0.78,,,,,,,,,,,,,,,,
44163,0,,0.91,0.29,0.11,-17,-0,-19,0.96,,,,,,,,,,,,,,,,
44203,0,,0.58,0.24,0.28,-16,4,-20,0.63,,,,,,,,,,,,,,,,
44243,0,,0.56,0.09,0.34,-12,2,-20,0.57,0.0,0.0,0.0,0.0,0,0,0.0,0,0.0,-1,0.0,0.0,0.0,0,0.0,0.7374
44283,0,,0.69,0.12,0.34,-8,2,-15,0.7,,,,,,,,,,,,,,,,
44323,0,,0.78,-0.04,0.49,-5,1,-11,0.79,,,,,,,,,,,,,,,,
44363,0,,0.61,-0.06,0.51,-1,4,-7,0.61,,,,,,,,,,,,,,,,
44403,0,,0.72,-0.08,0.4,1,2,-2,0.72,,,,,,,,,,,,,,,,
44443,0,,0.66,-0.26,0.52,4,2,1,0.71,0.0,0.0,0.0,0.0,0,0,0.0,0,0.0,-1,0.0,0.0,0.0,0,0.0,0.7407
44483,0,,0.57,-0.33,0.5,6,1,5,0.66,,,,,,,,,,,,,,,,
44523,0,,0.8,-0.24,0.5,9,3,9,0.83,,,,,,,,,,,,,,,,
44563,0,,0.52,-0.36,0.59,11,1,11,0.63,,,,,,,,,,,,,,,,
44603,0,,0.72,-0.39,0.59,11,-2,14,0.81,,,,,,,,,,,,,,,,
44643,0,,0.96,-0.39,0.56,12,2,17,1.04,0.0,0.0,0.0,0.0,0,0,0.0,0,0.0,-1,0.0,0.0,0.0,0,0.0,0.7441
44683,0,,1.16,-0.44,0.59,13,5,18,1.24,,,,,,,,,,,,,,,,
44723,0,,0.96,-0.42,0.61,15,8,18,1.05,,,,,,,,,,,,,,,,
44763,0,,0.92,-0.44,0.62,16,7,19,1.02,,,,,,,,,,,,,,,,
44803,0,,0.9,-0.42,0.71,18,6,22,1.0,,,,,,,,,,,,,,,,
44843,0,,0.96,-0.52,0.69,20,4,24,1.09,0.0,0.0,0.0,0.0,0,0,0.0,0,0.0,-1,0.0,0.0,0.0,0,0.0,0.7474
44883,0,,0.83,-0.64,0.6,23,4,25,1.05,,,,,,,,,,,,,,,,
44923,0,,0.82,-0.82,0.5,23,0,27,1.16,,,,,,,,,,,,,,,,
44963,0,,0.87,-0.76,0.54,23,1,30,1.16,,,,,,,,,,,,,,,,
45003,0,,0.97,-0.6,0.66,24,3,31,1.14,,,,,,,,,,,,,,,,
45043,0,12.3,0.84,-0.44,0.67,26,6,33,0.95,0.0,0.0,0.0,0.0,0,0,0.0,0,0.0,-1,0.0,0.0,0.0,0,0.0,0.7507
45083,0,,0.71,-0.52,0.67,27,7,32,0.88,,,,,,,,,,,,,,,,
45123,0,,0.76,-0.69,0.68,25,7,30,1.02,,,,,,,,,,,,,,,,
45163,0,,0.78,-0.55,0.73,27,7,31,0.96,,,,,,,,,,,,,,,,
45203,0,,0.73,-0.5,0.68,29,7,32,0.88,,,,,,,,,,,,,,,,
45243,0,,0.63,-0.58,0.63,30,7,34,0.86,0.0,0.0,0.0,0.0,0,0,0.0,0,0.0,-1,0.0,0.0,0.0,0,0.0,0.754
45283,0,,0.61,-0.65,0.59,31,4,36,0.89,,,,,,,,,,,,,,,,
45323,0,,0.53,-0.64,0.62,33,2,37,0.83,,,,,,,,,,,,,,,,
45363,0,,0.56,-0.57,0.6,33,1,37,0.81,,,,,,,,,,,,,,,,
45403,0,,0.56,-0.55,0.67,31,1,35,0.78,,,,,,,,,,,,,,,,
45443,0,,0.63,-0.64,0.69,30,1,35,0.89,0.0,0.0,0.0,0.0,0,0,0.0,0,0.0,-1,0.0,0.0,0.0,0,0.0,0.7574
45483,0,,0.6,-0.54,0.62,28,3,34,0.81,,,,,,,,,,,,,,,,
45523,0,,0.51,-0.49,0.64,29,3,33,0.7,,,,,,,,,,,,,,,,
45563,0,,0.58,-0.58,0.68,28,0,32,0.82,,,,,,,,,,,,,,,,
45603,0,,0.58,-0.58,0.75,26,2,33,0.82,,,,,,,,,,,,,,,,
45643,0,,0.64,-0.56,0.74,27,1,34,0.85,0.0,0.0,0.0,0.0,0,0,0.0,0,0.0,-1,0.0,0.0,0.0,0,0.0,0.7607
45683,0,,0.5,-0.6,0.85,26,1,35,0.78,,,,,,,,,,,,,,,,
45723,0,,0.79,-0.46,0.88,25,-2,36,0.91,,,,,,,,,,,,,,,,
45763,0,,0.94,-0.45,0.9,25,-4,36,1.04,,,,,,,,,,,,,,,,
45803,0,,1.04,-0.49,0.9,24,-5,36,1.15,,,,,,,,,,,,,,,,
45843,0,,0.83,-0.49,0.97,23,-2,35,0.97,0.0,0.0,0.0,0.0,0,0,0.0,0,0.0,-1,0.0,0.0,0.0,0,0.0,0.764
45883,0,,0.63,-0.35,0.99,24,-1,35,0.72,,,,,,,,,,,,,,,,
45923,0,,0.53,-0.38,1.09,25,2,32,0.65,,,,,,,,,,,,,,,,
45963,0,,0.48,-0.46,1.04,24,2,32,0.66,,,,,,,,,,,,,,,,
46003,0,,0.49,-0.55,1.02,23,3,32,0.73,,,,,,,,,,,,,,,,
46043,0,12.24,0.57,-0.66,1.03,25,3,32,0.87,0.0,0.0,0.0,0.0,0,0,0.0,0,0.0,-1,0.0,0.0,0.0,0,0.0,0.7674
46083,0,,0.72,-0.71,0.89,25,1,32,1.01,,,,,,,,,,,,,,,,
46123,0,,0.55,-0.68,0.69,26,3,31,0.88,,,,,,,,,,,,,,,,
46163,0,,0.59,-0.73,0.81,25,5,30,0.94,,,,,,,,,,,,,,,,
46203,0,,0.45,-0.8,0.87,25,4,29,0.92,,,,,,,,,,,,,,,,
46243,0,,0.48,-0.82,0.95,25,3,29,0.95,0.0,0.0,0.0,0.0,0,0,0.0,0,0.0,-1,0.0,0.0,0.0,0,0.0,0.7707
46283,0,,0.54,-0.83,1.02,25,1,30,0.99,,,,,,,,,,,,,,,,
46323,0,,0.57,-0.79,1.0,23,0,29,0.97,,,,,,,,,,,,,,,,
46363,0,,0.47,-0.71,1.12,22,3,27,0.85,,,,,,,,,,,,,,,,
46403,0,,0.47,-0.74,1.14,22,4,27,0.87,,,,,,,,,,,,,,,,
46443,0,,0.51,-0.81,1.0,20,2,25,0.96,0.0,0.0,0.0,0.0,0,0,0.0,0,0.0,-1,0.0,0.0,0.0,0,0.0,0.774
46483,0,,0.41,-0.77,1.08,18,2,23,0.87,,,,,,,,,,,,,,,,
46523,0,,0.35,-0.61,1.0,16,2,24,0.7,,,,,,,,,,,,,,,,
46563,0,,0.38,-0.53,0.93,16,1,23,0.65,,,,,,,,,,,,,,,,
46603,0,,0.39,-0.53,0.97,16,1,21,0.66,,,,,,,,,,,,,,,,
46643,0,,0.39,-0.5,1.05,16,2,21,0.63,0.0,0.0,0.0,0.0,0,0,0.0,0,0.0,-1,0.0,0.0,0.0,0,0.0,0.7774
46683,0,,0.33,-0.42,1.02,15,0,21,0.53,,,,,,,,,,,,,,,,
46723,0,,0.3,-0.43,0.97,14,0,19,0.52,,,,,,,,,,,,,,,,
46763,0,,0.43,-0.47,1.0,15,1,16,0.63,,,,,,,,,,,,,,,,
46803,0,,0.35,-0.55,0.91,15,1,15,0.65,,,,,,,,,,,,,,,,
46843,0,,0.4,-0.63,1.01,15,5,14,0.74,0.0,0.0,0.0,0.0,0,0,0.0,0,0.0,-1,0.0,0.0,0.0,0,0.0,0.7807
46883,0,,0.41,-0.39,1.04,15,6,11,0.57,,,,,,,,,,,,,,,,
46923,0,,0.48,-0.31,1.07,11,4,14,0.57,,,,,,,,,,,,,,,,
46963,0,,0.34,-0.38,1.07,12,3,15,0.51,,,,,,,,,,,,,,,,
47003,0,,0.39,-0.42,0.97,12,3,15,0.57,,,,,,,,,,,,,,,,
47043,0,12.31,0.46,-0.39,0.77,11,4,15,0.61,0.0,0.0,0.0,0.0,0,0,0.0,0,0.0,-1,0.0,0.0,0.0,0,0.0,0.784
47083,0,,0.44,-0.39,0.97,10,4,11,0.59,,,,,,,,,,,,,,,,
47123,0,,0.33,-0.14,1.09,10,7,12,0.35,,,,,,,,,,,,,,,,
47163,0,,0.35,-0.29,1.08,10,10,14,0.45,,,,,,,,,,,,,,,,
47203,0,,0.34,-0.33,1.0,9,8,10,0.47,,,,,,,,,,,,,,,,
47243,0,,0.42,-0.31,1.13,8,5,11,0.52,0.0,0.0,0.0,0.0,0,0,0.0,0,0.0,-1,0.0,0.0,0.0,0,0.0,0.7874
47283,0,,0.34,-0.24,1.05,7,5,10,0.42,,,,,,,,,,,,,,,,
47323,0,,0.43,-0.24,1.23,7,6,9,0.49,,,,,,,,,,,,,,,,
47363,0,,0.33,-0.06,1.04,6,5,8,0.34,,,,,,,,,,,,,,,,
47403,0,,0.43,-0.16,0.97,6,4,7,0.46,,,,,,,,,,,,,,,,
47443,0,,0.5,-0.21,1.09,4,4,6,0.54,0.0,0.0,0.0,0.0,0,0,0.0,0,0.0,-1,0.0,0.0,0.0,0,0.0,0.7907
47483,0,,0.52,-0.12,1.11,4,4,5,0.53,,,,,,,,,,,,,,,,
47523,0,,0.47,-0.13,1.03,4,3,5,0.49,,,,,,,,,,,,,,,,
47563,0,,0.51,-0.1,0.95,3,2,5,0.52,,,,,,,,,,,,,,,,
47603,0,,0.4,-0.03,1.0,3,2,6,0.4,,,,,,,,,,,,,,,,
47643,0,,0.41,-0.05,1.08,3,1,4,0.42,0.0,0.0,0.0,0.0,0,0,0.0,0,0.0,-1,0.0,0.0,0.0,0,0.0,0.794
47683,0,,0.45,-0.11,1.03,1,-1,4,0.47,,,,,,,,,,,,,,,,
47723,0,,0.43,-0.09,0.94,0,-1,3,0.44,,,,,,,,,,,,,,,,
47763,0,,0.43,0.05,0.99,-0,-2,3,0.44,,,,,,,,,,,,,,,,
47803,0,,0.36,0.24,0.85,-0,2,5,0.44,,,,,,,,,,,,,,,,
47843,0,,0.31,0.05,0.78,-0,3,5,0.31,0.0,0.0,0.0,0.0,0,0,0.0,0,0.0,-1,0.0,0.0,0.0,0,0.0,0.7974
47883,0,,0.41,0.18,0.7,-0,3,5,0.44,,,,,,,,,,,,,,,,
47923,0,,0.41,0.03,0.82,-1,3,2,0.41,,,,,,,,,,,,,,,,
47963,0,,0.44,-0.01,0.62,-1,-0,0,0.44,,,,,,,,,,,,,,,,
48003,0,,0.42,0.04,0.29,-1,-1,-4,0.42,,,,,,,,,,,,,,,,
48043,0,12.19,0.39,0.05,0.13,-2,-0,-3,0.39,0.0,0.0,0.0,0.0,0,0,0.0,0,0.0,-1,0.0,0.0,0.0,0,0.0,0.8007
48083,0,,0.46,-0.04,0.33,-1,-2,-9,0.46,,,,,,,,,,,,,,,,
48123,0,,0.51,-0.13,0.56,-1,-3,-9,0.52,,,,,,,,,,,,,,,,
48163,0,,0.59,-0.15,0.55,-2,-8,-9,0.61,,,,,,,,,,,,,,,,
48203,0,,0.66,-0.02,0.47,-1,-10,-9,0.66,,,,,,,,,,,,,,,,
48243,0,,0.75,-0.06,0.54,-1,-11,-8,0.76,0.0,0.0,0.0,0.0,0,0,0.0,0,0.0,-1,0.0,0.0,0.0,0,0.0,0.8041
48283,0,,0.71,0.04,0.5,-1,-7,-5,0.71,,,,,,,,,,,,,,,,
48323,0,,0.85,-0.11,0.65,-1,-6,-5,0.86,,,,,,,,,,,,,,,,
48363,0,,0.78,0.09,0.8,-1,-6,-6,0.79,,,,,,,,,,,,,,,,
48403,0,,0.77,-0.14,0.64,0,-2,-5,0.78,,,,,,,,,,,,,,,,
48443,0,,0.95,-0.25,0.9,0,-4,-3,0.98,0.0,0.0,0.0,0.0,0,0,0.0,0,0.0,-1,0.0,0.0,0.0,0,0.0,0.8074
48483,0,,0.94,-0.26,0.89,1,0,-3,0.97,,,,,,,,,,,,,,,,
48523,0,,0.85,-0.36,0.88,0,-3,-1,0.92,,,,,,,,,,,,,,,,
48563,0,,0.77,-0.24,0.84,1,-3,-2,0.81,,,,,,,,,,,,,,,,
48603,0,,0.64,-0.2,0.8,1,-2,-0,0.67,,,,,,,,,,,,,,,,
48643,0,,0.7,-0.32,0.98,1,-3,2,0.77,0.0,0.0,0.0,0.0,0,0,0.0,0,0.0,-1,0.0,0.0,0.0,0,0.0,0.8107
48683,0,,0.68,-0.25,0.87,2,-0,3,0.73,,,,,,,,,,,,,,,,
48723,0,,0.74,-0.17,0.79,2,0,3,0.76,,,,,,,,,,,,,,,,
48763,0,,0.65,-0.23,0.8,2,-4,2,0.69,,,,,,,,,,,,,,,,
48803,0,,0.62,-0.16,0.75,1,-2,5,0.64,,,,,,,,,,,,,,,,
48843,0,,0.56,-0.1,0.74,1,2,3,0.57,0.0,0.0,0.0,0.0,0,0,0.0,0,0.0,-1,0.0,0.0,0.0,0,0.0,0.814
48883,0,,0.6,-0.13,0.79,2,-1,1,0.62,,,,,,,,,,,,,,,,
48923,0,,0.64,-0.16,0.9,1,0,4,0.66,,,,,,,,,,,,,,,,
48963,0,,0.81,-0.21,0.76,1,-4,2,0.83,,,,,,,,,,,,,,,,
49003,0,,0.84,-0.16,0.66,1,-1,2,0.85,,,,,,,,,,,,,,,,
49043,0,12.26,0.82,-0.21,0.57,2,-2,3,0.84,0.0,0.0,0.0,0.0,0,0,0.0,0,0.0,-1,0.0,0.0,0.0,0,0.0,0.8174
49083,0,,0.92,-0.31,0.56,2,-3,0,0.97,,,,,,,,,,,,,,,,
49123,0,,0.92,-0.38,0.39,2,-3,1,1.0,,,,,,,,,,,,,,,,
49163,0,,1.09,-0.31,0.35,2,-2,1,1.13,,,,,,,,,,,,,,,,
49203,0,,1.02,-0.28,0.3,2,0,-1,1.06,,,,,,,,,,,,,,,,
49243,0,,1.0,-0.09,0.21,1,2,-0,1.01,0.0,0.0,0.0,0.0,0,0,0.0,0,0.0,-1,0.0,0.0,0.0,0,0.0,0.8207
49283,0,,1.02,-0.1,0.11,1,0,1,1.02,,,,,,,,,,,,,,,,
49323,0,,1.04,-0.02,0.2,1,3,0,1.04,,,,,,,,,,,,,,,,
49363,0,,1.14,0.13,0.09,1,4,2,1.15,,,,,,,,,,,,,,,,
49403,0,,1.19,-0.08,0.17,1,1,3,1.2,,,,,,,,,,,,,,,,
49443,0,,0.94,-0.14,0.01,-1,1,1,0.95,0.0,0.0,0.0,0.0,0,0,0.0,0,0.0,-1,0.0,0.0,0.0,0,0.0,0.824
49483,0,,0.81,-0.08,0.06,-0,0,-1,0.82,,,,,,,,,,,,,,,,
49523,0,,0.99,-0.08,0.01,1,0,-0,1.0,,,,,,,,,,,,,,,,
49563,0,,0.93,-0.17,0.0,-1,-1,2,0.95,,,,,,,,,,,,,,,,
49603,0,,1.01,-0.16,0.1,1,3,-1,1.02,,,,,,,,,,,,,,,,
49643,0,,1.16,-0.05,-0.09,-2,3,-1,1.16,0.0,0.0,0.0,0.0,0,0,0.0,0,0.0,-1,0.0,0.0,0.0,0,0.0,0.8274
49683,0,,1.18,-0.06,0.02,-0,1,-3,1.18,,,,,,,,,,,,,,,,
49723,0,,1.2,-0.17,-0.0,-1,-0,1,1.21,,,,,,,,,,,,,,,,
49763,0,,1.03,-0.24,-0.01,0,-0,1,1.06,,,,,,,,,,,,,,,,
49803,0,,1.22,-0.11,-0.12,0,-2,1,1.22,,,,,,,,,,,,,,,,
49843,0,,1.06,-0.12,-0.13,0,-0,3,1.07,0.0,0.0,0.0,0.0,0,0,0.0,0,0.0,-1,0.0,0.0,0.0,0,0.0,0.8307
49883,0,,1.07,-0.06,-0.18,0,-1,-0,1.07,,,,,,,,,,,,,,,,
49923,0,,1.08,0.04,-0.26,0,1,-1,1.08,,,,,,,,,,,,,,,,
49963,0,,1.19,0.07,-0.28,-1,1,0,1.19,,,,,,,,,,,,,,,,
50003,0,,1.21,0.11,-0.21,0,3,1,1.22,,,,,,,,,,,,,,,,
50043,0,12.21,1.26,0.19,-0.2,-0,6,-0,1.27,0.0,0.0,0.0,0.0,0,0,0.0,0,0.0,-1,0.0,0.0,0.0,0,0.0,0.834
50083,0,,1.25,0.09,-0.2,-0,3,1,1.25,,,,,,,,,,,,,,,,
50123,0,,1.3,0.03,-0.15,0,2,-0,1.3,,,,,,,,,,,,,,,,
50163,0,,1.29,0.02,-0.19,1,4,1,1.29,,,,,,,,,,,,,,,,
50203,0,,1.17,0.01,-0.19,1,4,-0,1.17,,,,,,,,,,,,,,,,
50243,0,,1.1,-0.12,-0.21,1,4,-0,1.11,0.0,0.0,0.0,0.0,0,0,0.0,0,0.0,-1,0.0,0.0,0.0,0,0.0,0.8374
50283,0,,1.21,-0.17,-0.15,2,3,-1,1.22,,,,,,,,,,,,,,,,
50323,0,,1.28,-0.2,-0.17,2,4,-0,1.29,,,,,,,,,,,,,,,,
50363,0,,1.06,-0.21,-0.25,3,7,-1,1.08,,,,,,,,,,,,,,,,
50403,0,,1.21,-0.17,-0.12,3,5,2,1.22,,,,,,,,,,,,,,,,
50443,0,,1.16,-0.21,-0.14,4,5,4,1.18,0.0,0.0,0.0,0.0,0,0,0.0,0,0.0,-1,0.0,0.0,0.0,0,0.0,0.8407
50483,0,,1.21,-0.2,0.02,5,5,6,1.23,,,,,,,,,,,,,,,,
50523,0,,1.24,-0.22,0.06,5,4,7,1.26,,,,,,,,,,,,,,,,
50563,0,,1.21,-0.2,-0.06,7,4,8,1.22,,,,,,,,,,,,,,,,
50603,0,,1.33,-0.29,-0.01,7,2,7,1.36,,,,,,,,,,,,,,,,
50643,0,,1.45,-0.4,0.01,6,-5,9,1.51,0.0,0.0,0.0,0.0,0,0,0.0,0,0.0,-1,0.0,0.0,0.0,0,0.0,0.844
50683,0,,1.56,-0.46,0.13,6,-11,13,1.63,,,,,,,,,,,,,,,,
50723,0,,1.58,-0.36,-0.06,8,-6,12,1.62,,,,,,,,,,,,,,,,
50763,0,,1.43,-0.46,0.0,8,-4,12,1.5,,,,,,,,,,,,,,,,
50803,0,,1.39,-0.41,-0.01,9,-5,14,1.45,,,,,,,,,,,,,,,,
50843,0,,1.36,-0.4,-0.08,10,-2,16,1.42,0.0,0.0,0.0,0.0,0,0,0.0,0,0.0,-1,0.0,0.0,0.0,0,0.0,0.8474
50883,0,,1.26,-0.39,-0.11,11,0,15,1.32,,,,,,,,,,,,,,,,
50923,0,,1.34,-0.41,-0.09,11,-3,17,1.4,,,,,,,,,,,,,,,,
50963,0,,1.46,-0.46,0.02,12,-7,18,1.53,,,,,,,,,,,,,,,,
51003,0,,1.46,-0.53,0.06,12,-9,17,1.55,,,,,,,,,,,,,,,,
51043,0,12.4,1.4,-0.57,0.03,13,-8,16,1.51,0.0,0.0,0.0,0.0,0,0,0.0,0,0.0,-1,0.0,0.0,0.0,0,0.0,0.8507
51083,0,,1.37,-0.54,0.09,13,-9,17,1.47,,,,,,,,,,,,,,,,
51123,0,,1.34,-0.47,0.06,12,-7,15,1.42,,,,,,,,,,,,,,,,
51163,0,,1.47,-0.37,0.08,10,-12,17,1.51,,,,,,,,,,,,,,,,
51203,0,,1.48,-0.24,0.07,8,-8,15,1.5,,,,,,,,,,,,,,,,
51243,0,,1.28,-0.21,-0.03,6,-4,11,1.3,0.0,0.0,0.0,0.0,0,0,0.0,0,0.0,-1,0.0,0.0,0.0,0,0.0,0.854
51283,0,,1.21,-0.15,-0.01,6,-0,8,1.22,,,,,,,,,,,,,,,,
51323,0,,1.17,-0.13,-0.01,4,2,8,1.18,,,,,,,,,,,,,,,,
51363,0,,1.2,-0.08,0.08,2,2,6,1.2,,,,,,,,,,,,,,,,
51403,0,,1.19,-0.06,0.18,-1,0,1,1.19,,,,,,,,,,,,,,,,
51443,0,,1.06,0.11,0.24,-4,3,-2,1.06,0.0,0.0,0.0,0.0,0,0,0.0,0,0.0,-1,0.0,0.0,0.0,0,0.0,0.8574
51483,0,,1.08,0.19,0.39,-9,0,-5,1.1,,,,,,,,,,,,,,,,
51523,0,,1.03,0.37,0.38,-13,1,-8,1.09,,,,,,,,,,,,,,,,
51563,0,,1.0,0.55,0.42,-16,-1,-13,1.14,,,,,,,,,,,,,,,,
51603,0,,0.97,0.61,0.37,-20,0,-17,1.15,,,,,,,,,,,,,,,,
51643,0,,1.0,0.61,0.42,-24,-4,-25,1.17,0.0,0.0,0.0,0.0,0,0,0.0,0,0.0,-1,0.0,0.0,0.0,0,0.0,0.8607
51683,0,,0.94,0.63,0.41,-27,-1,-31,1.13,,,,,,,,,,,,,,,,
51723,0,,0.87,0.68,0.42,-30,-2,-35,1.11,,,,,,,,,,,,,,,,
51763,0,,0.99,0.77,0.39,-32,-3,-40,1.25,,,,,,,,,,,,,,,,
51803,0,,0.88,0.66,0.47,-33,0,-43,1.1,,,,,,,,,,,,,,,,
51843,0,,0.93,0.57,0.58,-32,-2,-44,1.09,0.0,0.0,0.0,0.0,0,0,0.0,0,0.0,-1,0.0,0.0,0.0,0,0.0,0.864
51883,0,,0.89,0.52,0.61,-30,-3,-45,1.03,,,,,,,,,,,,,,,,
51923,0,,0.75,0.37,0.64,-26,2,-41,0.83,,,,,,,,,,,,,,,,
51963,0,,0.68,0.23,0.73,-22,2,-37,0.72,,,,,,,,,,,,,,,,
52003,0,,0.78,0.11,0.75,-16,1,-31,0.79,,,,,,,,,,,,,,,,
52043,0,12.24,0.75,-0.06,0.81,-12,2,-23,0.76,0.0,0.0,0.0,0.0,0,0,0.0,0,0.0,-1,0.0,0.0,0.0,0,0.0,0.8674
52083,0,,0.68,-0.16,0.85,-7,3,-17,0.7,,,,,,,,,,,,,,,,
52123,0,,0.74,-0.25,0.83,-1,3,-8,0.78,,,,,,,,,,,,,,,,
52163,0,,0.72,-0.28,0.89,2,3,-3,0.77,,,,,,,,,,,,,,,,
52203,0,,0.67,-0.38,0.85,6,2,4,0.77,,,,,,,,,,,,,,,,
52243,0,,0.61,-0.49,0.84,9,4,7,0.79,0.0,0.0,0.0,0.0,0,0,0.0,0,0.0,-1,0.0,0.0,0.0,0,0.0,0.8707
52283,0,,0.7,-0.65,0.84,10,3,9,0.95,,,,,,,,,,,,,,,,
52323,0,,0.78,-0.83,0.83,13,1,13,1.14,,,,,,,,,,,,,,,,
52363,0,,0.74,-0.86,0.84,18,1,20,1.13,,,,,,,,,,,,,,,,
52403,0,,0.64,-0.87,0.87,21,2,22,1.08,,,,,,,,,,,,,,,,
52443,0,,0.67,-0.95,0.83,26,1,28,1.16,0.0,0.0,0.0,0.0,0,0,0.0,0,0.0,-1,0.0,0.0,0.0,0,0.0,0.874
52483,0,,0.6,-0.95,0.87,29,-1,34,1.13,,,,,,,,,,,,,,,,
52523,0,,0.65,-0.91,0.87,32,-1,38,1.12,,,,,,,,,,,,,,,,
52563,0,,0.66,-0.87,0.88,32,-0,40,1.09,,,,,,,,,,,,,,,,
52603,0,,0.68,-0.83,0.94,30,1,41,1.07,,,,,,,,,,,,,,,,
52643,0,,0.69,-0.77,0.86,28,1,38,1.04,0.0,0.0,0.0,0.0,0,0,0.0,0,0.0,-1,0.0,0.0,0.0,0,0.0,0.8774
52683,0,,0.63,-0.63,0.89,24,-1,36,0.89,,,,,,,,,,,,,,,,
52723,0,,0.71,-0.49,0.97,22,-4,32,0.86,,,,,,,,,,,,,,,,
52763,0,,0.64,-0.46,0.67,19,-2,29,0.79,,,,,,,,,,,,,,,,
52803,0,,0.83,-0.37,0.78,18,-4,28,0.91,,,,,,,,,,,,,,,,
52843,0,,0.73,-0.28,0.9,17,-2,26,0.78,0.0,0.0,0.0,0.0,0,0,0.0,0,0.0,-1,0.0,0.0,0.0,0,0.0,0.8807
52883,0,,0.77,-0.2,0.97,15,-2,22,0.79,,,,,,,,,,,,,,,,
52923,0,,0.69,-0.04,0.94,12,-2,21,0.69,,,,,,,,,,,,,,,,
52963,0,,0.57,-0.14,1.09,11,-2,17,0.59,,,,,,,,,,,,,,,,
53003,0,,0.44,-0.09,1.03,10,1,16,0.45,,,,,,,,,,,,,,,,
53043,0,12.25,0.42,-0.14,0.94,10,2,16,0.44,0.0,0.0,0.0,0.0,0,0,0.0,0,0.0,-1,0.0,0.0,0.0,0,0.0,0.884
53083,0,,0.55,-0.19,0.95,10,-0,16,0.59,,,,,,,,,,,,,,,,
53123,0,,0.41,-0.29,0.98,11,2,13,0.5,,,,,,,,,,,,,,,,
53163,0,,0.43,-0.3,0.77,10,2,13,0.53,,,,,,,,,,,,,,,,
53203,0,,0.54,-0.29,0.64,9,2,15,0.61,,,,,,,,,,,,,,,,
53243,0,,0.42,-0.27,0.56,10,4,14,0.5,0.0,0.0,0.0,0.0,0,0,0.0,0,0.0,-1,0.0,0.0,0.0,0,0.0,0.8874
53283,0,,0.29,-0.26,0.73,11,6,13,0.39,,,,,,,,,,,,,,,,
53323,0,,0.4,-0.27,0.84,10,4,14,0.48,,,,,,,,,,,,,,,,
53363,0,,0.37,-0.4,0.68,11,3,15,0.55,,,,,,,,,,,,,,,,
53403,0,,0.41,-0.36,0.75,12,1,18,0.55,,,,,,,,,,,,,,,,
53443,0,,0.55,-0.43,0.68,15,-0,20,0.69,0.0,0.0,0.0,0.0,0,0,0.0,0,0.0,-1,0.0,0.0,0.0,0,0.0,0.8907
53483,0,,0.43,-0.56,0.63,17,1,21,0.71,,,,,,,,,,,,,,,,
53523,0,,0.5,-0.58,0.7,17,2,23,0.77,,,,,,,,,,,,,,,,
53563,0,,0.39,-0.66,0.59,18,2,23,0.77,,,,,,,,,,,,,,,,
53603,0,,0.49,-0.66,0.55,18,-0,24,0.82,,,,,,,,,,,,,,,,
53643,0,,0.57,-0.59,0.44,18,-2,24,0.82,0.0,0.0,0.0,0.0,0,0,0.0,0,0.0,-1,0.0,0.0,0.0,0,0.0,0.894
53683,0,,0.72,-0.53,0.33,17,-2,22,0.89,,,,,,,,,,,,,,,,
53723,0,,0.78,-0.51,0.38,16,-2,22,0.93,,,,,,,,,,,,,,,,
53763,0,,0.82,-0.49,0.32,15,-1,20,0.96,,,,,,,,,,,,,,,,
53803,0,,0.89,-0.47,0.31,15,-1,22,1.01,,,,,,,,,,,,,,,,
53843,0,,0.89,-0.5,0.3,16,1,21,1.02,0.0,0.0,0.0,0.0,0,0,0.0,0,0.0,-1,0.0,0.0,0.0,0,0.0,0.8974
53883,0,,0.95,-0.55,0.34,16,-2,22,1.1,,,,,,,,,,,,,,,,
53923,0,,0.99,-0.56,0.31,17,-2,23,1.14,,,,,,,,,,,,,,,,
53963,0,,0.96,-0.55,0.41,18,1,22,1.11,,,,,,,,,,,,,,,,
54003,0,,0.99,-0.55,0.35,18,2,23,1.13,,,,,,,,,,,,,,,,
54043,0,12.24,0.83,-0.59,0.44,18,4,21,1.02,0.0,0.0,0.0,0.0,0,0,0.0,0,0.0,-1,0.0,0.0,0.0,0,0.0,0.9007
54083,0,,1.06,-0.53,0.58,18,-1,20,1.18,,,,,,,,,,,,,,,,
54123,0,,0.92,-0.56,0.42,17,1,22,1.08,,,,,,,,,,,,,,,,
54163,0,,0.68,-0.66,0.32,17,3,22,0.95,,,,,,,,,,,,,,,,
54203,0,,0.84,-0.61,0.3,17,5,22,1.04,,,,,,,,,,,,,,,,
54243,0,,1.06,-0.61,0.34,18,6,21,1.22,0.0,0.0,0.0,0.0,0,0,0.0,0,0.0,-1,0.0,0.0,0.0,0,0.0,0.904
54283,0,,1.19,-0.6,0.44,18,9,21,1.33,,,,,,,,,,,,,,,,
54323,0,,1.04,-0.58,0.58,18,11,21,1.19,,,,,,,,,,,,,,,,
54363,0,,0.8,-0.67,0.59,20,11,20,1.04,,,,,,,,,,,,,,,,
54403,0,,0.8,-0.61,0.6,19,6,23,1.01,,,,,,,,,,,,,,,,
54443,0,,0.94,-0.51,0.56,20,5,22,1.07,0.0,0.0,0.0,0.0,0,0,0.0,0,0.0,-1,0.0,0.0,0.0,0,0.0,0.9074
54483,0,,0.85,-0.66,0.59,18,3,25,1.08,,,,,,,,,,,,,,,,
54523,0,,1.06,-0.6,0.62,18,1,22,1.22,,,,,,,,,,,,,,,,
54563,0,,0.89,-0.52,0.59,15,1,21,1.03,,,,,,,,,,,,,,,,
54603,0,,0.88,-0.4,0.48,13,-0,19,0.97,,,,,,,,,,,,,,,,
54643,0,,0.93,-0.31,0.43,10,1,18,0.98,0.0,0.0,0.0,0.0,0,0,0.0,0,0.0,-1,0.0,0.0,0.0,0,0.0,0.9107
54683,0,,0.9,-0.23,0.55,9,-1,13,0.93,,,,,,,,,,,,,,,,
54723,0,,0.82,-0.19,0.52,5,-0,11,0.85,,,,,,,,,,,,,,,,
54763,0,,0.82,-0.05,0.43,3,1,6,0.82,,,,,,,,,,,,,,,,
54803,0,,0.82,0.02,0.47,-1,2,3,0.82,,,,,,,,,,,,,,,,
54843,0,,0.92,0.11,0.57,-5,-1,-2,0.93,0.0,0.0,0.0,0.0,0,0,0.0,0,0.0,-1,0.0,0.0,0.0,0,0.0,0.914
54883,0,,0.98,0.25,0.64,-8,-3,-6,1.02,,,,,,,,,,,,,,,,
54923,0,,0.91,0.49,0.61,-9,-4,-8,1.03,,,,,,,,,,,,,,,,
54963,0,,0.79,0.6,0.49,-10,-0,-12,0.99,,,,,,,,,,,,,,,,
55003,0,,0.73,0.61,0.43,-11,1,-15,0.95,,,,,,,,,,,,,,,,
55043,0,12.29,0.83,0.52,0.52,-13,0,-16,0.98,0.0,0.0,0.0,0.0,0,0,0.0,0,0.0,-1,0.0,0.0,0.0,0,0.0,0.9174
55083,0,,0.88,0.54,0.61,-13,-2,-18,1.03,,,,,,,,,,,,,,,,
55123,0,,0.81,0.49,0.6,-13,-2,-20,0.94,,,,,,,,,,,,,,,,
55163,0,,0.74,0.43,0.59,-13,0,-20,0.85,,,,,,,,,,,,,,,,
55203,0,,0.71,0.28,0.61,-10,2,-19,0.77,,,,,,,,,,,,,,,,
55243,0,,0.72,0.24,0.6,-7,-2,-18,0.76,0.0,0.0,0.0,0.0,0,0,0.0,0,0.0,-1,0.0,0.0,0.0,0,0.0,0.9207
55283,0,,0.78,0.14,0.54,-3,-1,-14,0.79,,,,,,,,,,,,,,,,
55323,0,,0.82,0.03,0.6,0,-8,-10,0.82,,,,,,,,,,,,,,,,
55363,0,,0.79,-0.03,0.56,3,-3,-6,0.79,,,,,,,,,,,,,,,,
55403,0,,0.87,-0.23,0.59,7,-4,2,0.9,,,,,,,,,,,,,,,,
55443,0,,0.86,-0.37,0.54,14,-3,8,0.94,0.0,0.0,0.0,0.0,0,0,0.0,0,0.0,-1,0.0,0.0,0.0,0,0.0,0.924
55483,0,,0.85,-0.38,0.51,19,1,13,0.93,,,,,,,,,,,,,,,,
55523,0,,0.9,-0.43,0.5,21,2,16,1.0,,,,,,,,,,,,,,,,
55563,0,,0.95,-0.37,0.58,22,4,21,1.02,,,,,,,,,,,,,,,,
55603,0,,0.93,-0.37,0.5,25,4,24,1.0,,,,,,,,,,,,,,,,
55643,0,,0.96,-0.37,0.49,29,2,28,1.03,0.0,0.0,0.0,0.0,0,0,0.0,0,0.0,-1,0.0,0.0,0.0,0,0.0,0.9274
55683,0,,0.9,-0.56,0.42,33,2,33,1.06,,,,,,,,,,,,,,,,
55723,0,,1.01,-0.75,0.32,34,-2,36,1.26,,,,,,,,,,,,,,,,
55763,0,,0.99,-0.66,0.4,35,-1,38,1.19,,,,,,,,,,,,,,,,
55803,0,,0.96,-0.82,0.33,36,-3,39,1.26,,,,,,,,,,,,,,,,
