"Interval"|"ms"|0|0|1,"Utc"|"ms"|0|0|1,"FB_p"|"bar"|0|300|50,"Volant"|"F"|0|300|50,"AccelX"|"G"|-3.0|3.0|50,"AccelY"|"G"|-3.0|3.0|50,"AccelZ"|"G"|-3.0|3.0|50,"Yaw"|"Deg/Sec"|-120|120|50,"Pitch"|"Deg/Sec"|-120|120|50,"Roll"|"Deg/Sec"|-120|120|50,"Gsum"|"G"|0.0|3.0|50,"RPM"|""|0|14000|50,"TPS"|"%"|0|100|50,"WaterTemp"|"?C"|0|300|50,"AirTemp"|"?C"|-1000|1000|50,"MAP"|"KPa"|0|255|50,"Lambda"|""|0|1024|50,"WheelSpeed"|"MPH"|0.0|150.0|50,"OilPress"|"PSI"|0|150|50,"FuelPress"|"PSI"|0|150|50,"OilTemp"|"F"|0|300|50,"Battery"|"Volts"|0.0|20.0|50,"FuelCon"|"L/h"|-1000|1000|50,"Gear"|""|0|10|50,"Advance"|"Deg"|-360|360|50,"Injection"|"ms"|-1000|1000|50,"FuelCon"|"L/100km"|-1000|1000|50,"LC_But_Pres"|""|-1000|1000|50,"LC_Active"|""|-1000|1000|50,"RD_Speed"|""|-1000|1000|50,"RUD_Speed"|""|-1000|1000|50,"LD_Speed"|""|-1000|1000|50,"LUD_Speed"|""|-1000|1000|50,"Latitude"|"Degrees"|-180.0|180.0|10,"Longitude"|"Degrees"|-180.0|180.0|10,"Speed"|"mph"|0.0|150.0|10,"Altitude"|"ft"|0.0|4000.0|10,"LapCount"|""|0|0|10,"LapTime"|"Min"|0.0|0.0|10,"Sector"|""|0|0|10,"SectorTime"|"Min"|0.0|0.0|10,"ElapsedTime"|"Min"|0.0|0.0|10,"CurrentLap"|""|0|0|10,"Distance"|"mi"|0.0|0.0|10,"SessionTime"|"Min"|0.0|0.0|10
56003,0,4,2,0.89,-0.02,0.63,0,-2,-0,0.89,10313,3,78,28,38,500,0.0,667,455,60,119.0,0,1,317,219,85,0,0,0,250,250,0,,,,,,,,,,,,
56023,0,5,2,0.86,-0.04,0.66,-0,-3,-1,0.86,10347,3,78,28,38,500,0.0,660,457,60,119.0,0,1,317,219,85,0,0,0,250,250,0,,,,,,,,,,,,
56043,0,3,2,0.82,-0.01,0.7,-0,-3,-1,0.82,10319,3,78,28,38,500,0.0,661,451,60,118.0,0,1,317,219,85,0,0,0,250,250,0,0.0,0.0,0.0,0.0,0,0.0,-1,0.0,0.0,0,0.0,0.934
56063,0,3,2,0.76,0.03,0.68,-0,-2,-1,0.76,10353,3,78,28,38,500,0.0,672,456,60,118.0,0,1,317,219,85,0,0,0,250,250,0,,,,,,,,,,,,
56083,0,4,2,0.74,0.06,0.55,0,-2,-0,0.74,10313,3,78,28,38,500,0.0,668,462,60,119.0,0,1,317,219,85,0,0,0,250,250,0,,,,,,,,,,,,
56103,0,1,2,0.72,0.05,0.47,-0,-3,-1,0.72,10319,3,78,28,38,500,0.0,658,456,60,119.0,0,1,317,219,85,0,0,0,250,250,0,,,,,,,,,,,,
56123,0,0,2,0.75,0.02,0.46,-0,-3,-1,0.75,10341,3,78,28,38,500,0.0,667,455,60,119.0,0,1,317,219,85,0,0,0,250,250,0,,,,,,,,,,,,
56143,0,1,2,0.83,0.01,0.54,-0,-3,-1,0.83,10290,3,78,28,38,500,0.0,666,453,60,119.0,0,1,317,219,85,0,0,0,250,250,0,0.0,0.0,0.0,0.0,0,0.0,-1,0.0,0.0,0,0.0,0.9357
56163,0,6,2,0.86,-0.01,0.59,-0,-3,-0,0.86,10336,3,78,28,38,500,0.0,656,456,60,119.0,0,1,317,219,85,0,0,0,250,250,0,,,,,,,,,,,,
56183,0,6,2,0.87,-0.05,0.61,-0,-4,-1,0.88,10296,3,78,28,38,500,0.0,660,456,60,119.0,0,1,317,219,86,0,0,0,250,250,0,,,,,,,,,,,,
56203,0,4,2,0.81,-0.05,0.66,-0,-3,-1,0.81,10319,3,78,28,38,500,0.0,658,460,60,119.0,0,1,317,219,86,0,0,0,250,250,0,,,,,,,,,,,,
56223,0,4,2,0.76,0.0,0.59,0,-2,0,0.76,10296,3,78,28,38,500,0.0,666,459,60,119.0,0,1,317,219,86,0,0,0,250,250,0,,,,,,,,,,,,
56243,0,3,2,0.71,0.03,0.52,0,-1,-0,0.71,10302,3,78,28,38,500,0.0,662,458,60,119.0,0,1,317,139,86,0,0,0,250,250,0,0.0,0.0,0.0,0.0,0,0.0,-1,0.0,0.0,0,0.0,0.9374
56263,0,3,2,0.72,0.02,0.49,0,-0,-0,0.72,10324,3,78,28,38,500,0.0,666,456,60,119.0,0,1,317,219,86,0,0,0,250,250,0,,,,,,,,,,,,
56283,0,1,2,0.78,0.01,0.54,0,1,0,0.78,10290,3,78,28,38,500,0.0,675,462,60,119.0,0,1,317,139,85,0,0,0,250,250,0,,,,,,,,,,,,
56303,0,1,2,0.84,0.01,0.58,0,1,1,0.84,10330,3,78,28,38,500,0.0,662,460,60,119.0,0,1,317,219,85,0,0,0,250,250,0,,,,,,,,,,,,
56323,0,4,2,0.87,-0.01,0.56,0,-0,-0,0.87,10290,3,78,28,38,500,0.0,655,456,60,119.0,0,1,317,219,85,0,0,0,250,250,0,,,,,,,,,,,,
56343,0,6,2,0.83,-0.04,0.63,0,-0,-1,0.83,10330,3,78,28,38,500,0.0,664,453,60,119.0,0,1,317,219,85,0,0,0,250,250,0,0.0,0.0,0.0,0.0,0,0.0,-1,0.0,0.0,0,0.0,0.939
56363,0,4,2,0.81,-0.04,0.63,0,1,-0,0.81,10302,3,78,28,38,500,0.0,660,456,60,119.0,0,1,317,219,85,0,0,0,250,250,0,,,,,,,,,,,,
56383,0,4,2,0.76,-0.01,0.62,0,0,-0,0.76,10336,3,78,28,38,500,0.0,657,460,60,118.0,0,1,317,219,86,0,0,0,250,250,0,,,,,,,,,,,,
56403,0,2,2,0.73,0.01,0.63,0,1,-0,0.73,10313,3,78,28,38,500,0.0,664,455,60,118.0,0,1,317,219,86,0,0,0,250,250,0,,,,,,,,,,,,
56423,0,3,2,0.75,0.03,0.59,0,1,-0,0.75,10319,3,78,28,38,500,0.0,656,457,60,119.0,0,1,317,219,86,0,0,0,250,250,0,,,,,,,,,,,,
56443,0,0,2,0.76,0.07,0.53,0,1,0,0.76,10353,3,78,28,38,500,0.0,663,458,60,119.0,0,1,317,219,86,0,0,0,250,250,0,0.0,0.0,0.0,0.0,0,0.0,-1,0.0,0.0,0,0.0,0.9407
56463,0,1,2,0.79,0.07,0.52,0,0,0,0.79,10324,3,78,28,38,500,0.0,662,455,60,119.0,0,1,317,219,86,0,0,0,250,250,0,,,,,,,,,,,,
56483,0,1,2,0.82,0.04,0.51,0,1,-0,0.82,10364,3,78,28,38,500,0.0,665,451,60,119.0,0,1,317,219,85,0,0,0,250,250,0,,,,,,,,,,,,
56503,0,6,2,0.87,-0.01,0.61,0,1,-0,0.87,10336,3,78,28,38,500,0.0,659,455,60,119.0,0,1,317,219,85,0,0,0,250,250,0,,,,,,,,,,,,
56523,0,5,2,0.87,-0.03,0.66,0,-0,-0,0.87,10359,3,78,28,38,500,0.0,668,457,60,118.0,0,1,317,219,85,0,0,0,250,250,0,,,,,,,,,,,,
56543,0,4,2,0.84,-0.02,0.75,0,-1,-1,0.84,10330,3,78,28,38,500,0.0,665,455,60,119.0,0,1,317,219,85,0,0,0,250,250,0,0.0,0.0,0.0,0.0,0,0.0,-1,0.0,0.0,0,0.0,0.9424
56563,0,3,2,0.79,0.02,0.78,0,-0,-0,0.79,10341,3,78,28,38,500,0.0,658,460,60,118.0,0,1,317,219,85,0,0,0,250,250,0,,,,,,,,,,,,
56583,0,3,2,0.76,0.05,0.65,0,0,-0,0.76,10341,3,78,28,38,500,0.0,667,457,60,119.0,0,1,317,219,85,0,0,0,250,250,0,,,,,,,,,,,,
56603,0,3,2,0.73,0.06,0.57,0,-0,-0,0.73,10313,3,78,28,38,500,0.0,662,457,60,119.0,0,1,317,219,85,0,0,0,250,250,0,,,,,,,,,,,,
56623,0,2,2,0.74,0.04,0.53,0,0,-0,0.74,10336,3,78,28,38,500,0.0,653,451,60,119.0,0,1,317,219,85,0,0,0,250,250,0,,,,,,,,,,,,
56643,0,0,2,0.82,0.02,0.61,0,0,0,0.82,10296,3,78,28,38,500,0.0,662,455,60,119.0,0,1,317,219,85,0,0,0,250,250,0,0.0,0.0,0.0,0.0,0,0.0,-1,0.0,0.0,0,0.0,0.944
56663,0,0,2,0.88,0.0,0.68,0,-0,0,0.88,10330,3,78,28,38,500,0.0,667,456,60,118.0,0,1,317,219,85,0,0,0,250,250,0,,,,,,,,,,,,
56683,0,6,2,0.9,-0.03,0.69,0,-1,-0,0.9,10279,3,78,28,38,500,0.0,661,455,60,119.0,0,1,317,219,85,0,0,0,250,250,0,,,,,,,,,,,,
56703,0,6,2,0.83,-0.03,0.73,-0,-1,-1,0.83,10319,3,78,28,38,500,0.0,659,455,60,119.0,0,1,317,219,85,0,0,0,250,250,0,,,,,,,,,,,,
56723,0,3,2,0.78,0.0,0.63,0,1,-0,0.78,10290,3,78,28,38,500,0.0,664,457,60,118.0,0,1,317,219,85,0,0,0,250,250,0,,,,,,,,,,,,
56743,0,1,2,0.74,0.04,0.56,0,-0,-0,0.74,10290,3,78,28,38,500,0.0,670,455,60,118.0,0,1,317,219,85,0,0,0,250,250,0,0.0,0.0,0.0,0.0,0,0.0,-1,0.0,0.0,0,0.0,0.9457
56763,0,3,2,0.75,0.03,0.5,0,-0,-0,0.76,10296,3,78,28,38,500,0.0,660,454,60,119.0,0,1,317,219,85,0,0,0,250,250,0,,,,,,,,,,,,
56783,0,2,2,0.82,0.04,0.53,0,-0,-0,0.82,10302,3,78,28,38,500,0.0,661,457,60,119.0,0,1,317,219,85,0,0,0,250,250,0,,,,,,,,,,,,
56803,0,1,2,0.87,0.06,0.56,0,-1,0,0.87,10341,3,78,28,38,500,0.0,658,457,60,119.0,0,1,317,219,85,0,0,0,250,250,0,,,,,,,,,,,,
56823,0,1,2,0.89,0.05,0.55,-0,-1,-0,0.89,10319,3,78,28,38,500,0.0,660,458,60,119.0,0,1,317,219,85,0,0,0,250,250,0,,,,,,,,,,,,
56843,0,4,2,0.87,-0.0,0.59,-0,-1,-0,0.87,10347,3,78,28,38,500,0.0,665,451,60,118.0,0,1,317,219,85,0,0,0,250,250,0,0.0,0.0,0.0,0.0,0,0.0,-1,0.0,0.0,0,0.0,0.9474
56863,0,6,2,0.85,-0.03,0.63,0,0,-0,0.85,10319,3,78,28,38,500,0.0,663,455,60,119.0,0,1,317,219,85,0,0,0,250,250,0,,,,,,,,,,,,
56883,0,5,2,0.81,-0.01,0.66,0,-1,-0,0.81,10364,3,78,28,38,500,0.0,661,459,60,119.0,0,1,317,219,85,0,0,0,250,250,0,,,,,,,,,,,,
56903,0,4,2,0.78,0.03,0.69,0,-1,-0,0.79,10370,3,78,28,38,500,0.0,665,455,60,119.0,0,1,317,219,85,0,0,0,250,250,0,,,,,,,,,,,,
56923,0,3,2,0.76,0.06,0.65,0,-1,-0,0.76,10370,3,78,28,38,500,0.0,664,458,60,119.0,0,1,317,219,85,0,0,0,250,250,0,,,,,,,,,,,,
56943,0,2,2,0.75,0.06,0.54,0,0,0,0.75,10341,3,78,28,38,500,0.0,661,458,60,119.0,0,1,317,219,85,0,0,0,250,250,0,0.0,0.0,0.0,0.0,0,0.0,-1,0.0,0.0,0,0.0,0.949
56963,0,3,2,0.74,0.07,0.44,0,-0,-0,0.74,10336,3,78,28,38,500,0.0,653,455,60,119.0,0,1,317,219,85,0,0,0,250,250,0,,,,,,,,,,,,
56983,0,1,2,0.76,0.05,0.41,0,0,-0,0.76,10387,3,78,28,38,500,0.0,662,458,60,119.0,0,1,317,219,85,0,0,0,250,250,0,,,,,,,,,,,,
57003,0,2,2,0.87,0.06,0.49,0,1,0,0.87,10347,3,79,28,38,500,0.0,665,458,60,119.0,0,1,317,219,85,0,0,0,250,250,0,,,,,,,,,,,,
57023,0,1,2,0.91,0.05,0.6,0,-0,1,0.91,10382,3,79,28,38,500,0.0,658,461,60,119.0,0,1,317,219,85,0,0,0,250,250,0,,,,,,,,,,,,
57043,0,-0,2,0.91,0.02,0.64,0,-1,-0,0.91,10347,3,79,28,38,500,0.0,657,454,60,119.0,0,1,317,219,85,0,0,0,250,250,0,0.0,0.0,0.0,0.0,0,0.0,-1,0.0,0.0,0,0.0,0.9507
57063,0,5,2,0.87,-0.02,0.71,0,-0,-0,0.87,10387,3,79,28,38,500,0.0,676,455,60,119.0,0,1,317,219,85,0,0,0,250,250,0,,,,,,,,,,,,
57083,0,4,2,0.85,-0.06,0.68,0,1,-0,0.85,10353,3,79,28,38,500,0.0,667,460,60,119.0,0,1,317,219,86,0,0,0,250,250,0,,,,,,,,,,,,
57103,0,5,2,0.82,-0.04,0.73,0,-2,-0,0.82,10387,3,79,28,39,500,0.0,661,461,60,119.0,0,1,320,220,86,0,0,0,250,250,0,,,,,,,,,,,,
57123,0,5,2,0.78,-0.01,0.77,0,-1,-0,0.78,10393,3,79,28,39,500,0.0,666,456,60,119.0,0,1,320,219,86,0,0,0,250,250,0,,,,,,,,,,,,
57143,0,4,2,0.77,0.03,0.71,0,-0,-1,0.77,10387,3,79,28,38,500,0.0,663,458,60,119.0,0,1,317,219,86,0,0,0,250,250,0,0.0,0.0,0.0,0.0,0,0.0,-1,0.0,0.0,0,0.0,0.9524
57163,0,3,2,0.73,0.06,0.56,0,0,-0,0.73,10347,3,79,28,38,500,0.0,661,457,60,118.0,0,1,317,219,86,0,0,0,250,250,0,,,,,,,,,,,,
57183,0,1,2,0.69,0.06,0.49,0,-1,-0,0.7,10341,3,79,28,39,500,0.0,657,461,60,119.0,0,1,320,220,86,0,0,0,250,250,0,,,,,,,,,,,,
57203,0,3,2,0.71,0.05,0.44,0,-0,-1,0.72,10405,3,79,28,38,500,0.0,658,453,60,119.0,0,1,317,219,86,0,0,0,250,250,0,,,,,,,,,,,,
57223,0,1,2,0.82,0.06,0.5,0,-0,0,0.82,10359,3,79,28,38,500,0.0,670,457,60,119.0,0,1,317,220,86,0,0,0,250,250,0,,,,,,,,,,,,
57243,0,1,2,0.84,0.07,0.56,0,-1,1,0.84,10399,3,79,28,38,500,0.0,660,457,60,119.0,0,1,317,220,86,0,0,0,250,250,0,0.0,0.0,0.0,0.0,0,0.0,-1,0.0,0.0,0,0.0,0.954
57263,0,3,2,0.85,0.06,0.58,0,-2,0,0.85,10364,3,79,28,38,500,0.0,664,452,60,118.0,0,1,317,219,86,0,0,0,250,250,0,,,,,,,,,,,,
57283,0,2,2,0.86,0.03,0.64,0,-1,-0,0.86,10405,3,79,28,39,500,0.0,666,456,60,119.0,0,1,320,219,86,0,0,0,250,250,0,,,,,,,,,,,,
57303,0,5,2,0.87,-0.03,0.69,0,-0,0,0.87,10370,3,79,28,38,500,0.0,666,455,60,119.0,0,1,317,220,86,0,0,0,250,250,0,,,,,,,,,,,,
57323,0,5,2,0.83,-0.05,0.74,0,-3,0,0.83,10399,3,79,28,39,500,0.0,663,460,60,119.0,0,1,320,220,86,0,0,0,250,250,0,,,,,,,,,,,,
57343,0,4,2,0.82,-0.03,0.79,0,-2,-0,0.82,10353,3,79,28,39,500,0.0,661,455,60,119.0,0,1,320,220,86,0,0,0,250,250,0,0.0,0.0,0.0,0.0,0,0.0,-1,0.0,0.0,0,0.0,0.9557
57363,0,4,2,0.79,0.0,0.78,-0,-1,-1,0.79,10382,3,79,28,39,500,0.0,659,456,60,118.0,0,1,320,219,86,0,0,0,250,250,0,,,,,,,,,,,,
57383,0,3,2,0.76,0.03,0.63,-0,-1,-0,0.77,10359,3,79,28,39,500,0.0,665,457,60,118.0,0,1,320,220,86,0,0,0,250,250,0,,,,,,,,,,,,
57403,0,2,2,0.71,0.0,0.67,0,-2,-0,0.71,10347,3,79,28,39,500,0.0,661,458,60,119.0,0,1,320,219,86,0,0,0,250,250,0,,,,,,,,,,,,
57423,0,3,2,0.72,0.03,0.71,0,-1,-1,0.72,10399,3,79,28,38,500,0.0,659,456,60,119.0,0,1,317,219,86,0,0,0,250,250,0,,,,,,,,,,,,
57443,0,1,2,0.72,0.06,0.71,0,-0,-1,0.72,10364,3,79,28,38,500,0.0,659,456,60,119.0,0,1,317,219,86,0,0,0,250,250,0,0.0,0.0,0.0,0.0,0,0.0,-1,0.0,0.0,0,0.0,0.9574
57463,0,2,2,0.69,0.08,0.57,0,-1,0,0.69,10399,3,79,28,38,500,0.0,663,456,60,119.0,0,1,317,219,86,0,0,0,250,250,0,,,,,,,,,,,,
57483,0,1,2,0.63,0.07,0.53,0,-1,-0,0.63,10370,3,79,28,39,500,0.0,665,459,60,119.0,0,1,320,219,86,0,0,0,250,250,0,,,,,,,,,,,,
57503,0,3,2,0.62,0.05,0.43,0,0,-0,0.62,10405,3,79,28,38,500,0.0,662,454,60,119.0,0,1,317,220,86,0,0,0,250,250,0,,,,,,,,,,,,
57523,0,-0,2,0.7,0.06,0.46,0,-0,1,0.71,10370,3,79,28,39,500,0.0,659,457,60,118.0,0,1,320,220,86,0,0,0,250,250,0,,,,,,,,,,,,
57543,0,5,2,0.71,0.1,0.42,0,-2,1,0.72,10405,3,79,28,39,500,0.0,663,458,60,118.0,0,1,320,220,86,0,0,0,250,250,0,0.0,0.0,0.0,0.0,0,0.0,-1,0.0,0.0,0,0.0,0.959
57563,0,4,2,0.71,0.13,0.46,0,-1,-0,0.73,10364,3,79,28,39,500,0.0,661,453,60,119.0,0,1,320,220,86,0,0,0,250,250,0,,,,,,,,,,,,
57583,0,5,2,0.77,0.11,0.46,0,0,-1,0.78,10405,3,79,28,39,500,0.0,660,458,60,119.0,0,1,320,220,86,0,0,0,250,250,0,,,,,,,,,,,,
57603,0,5,2,0.85,0.07,0.56,0,-0,-0,0.85,10370,3,79,28,39,500,0.0,659,456,60,118.0,0,1,320,220,86,0,0,0,250,250,0,,,,,,,,,,,,
57623,0,4,2,0.85,0.03,0.62,0,-2,-0,0.85,10399,3,79,28,38,500,0.0,663,458,60,118.0,0,1,317,219,86,0,0,0,250,250,0,,,,,,,,,,,,
57643,0,3,2,0.85,0.01,0.75,0,-1,-0,0.85,10370,3,79,28,39,500,0.0,668,456,60,118.0,0,1,320,220,86,0,0,0,250,250,0,0.0,0.0,0.0,0.0,0,0.0,-1,0.0,0.0,0,0.0,0.9607
57663,0,4,2,0.83,-0.01,0.81,0,1,-1,0.83,10410,3,79,28,39,500,0.0,668,455,60,118.0,0,1,320,220,86,0,0,0,250,250,0,,,,,,,,,,,,
57683,0,3,2,0.8,-0.01,0.71,0,0,-0,0.8,10405,3,79,28,38,500,0.0,663,460,60,119.0,0,1,317,219,86,0,0,0,250,250,0,,,,,,,,,,,,
57703,0,1,2,0.75,0.02,0.63,0,-1,-0,0.75,10364,3,79,28,39,500,0.0,657,455,60,119.0,0,1,320,220,86,0,0,0,250,250,0,,,,,,,,,,,,
57723,0,1,2,0.72,0.02,0.64,0,0,-0,0.72,10405,3,79,28,38,500,0.0,665,454,60,119.0,0,1,317,219,86,0,0,0,250,250,0,,,,,,,,,,,,
57743,0,1,2,0.74,0.03,0.59,1,1,0,0.74,10353,3,79,28,39,500,0.0,661,458,60,119.0,0,1,320,219,86,0,0,0,250,250,0,0.0,0.0,0.0,0.0,0,0.0,-1,0.0,0.0,0,0.0,0.9624
57763,0,0,2,0.7,0.06,0.5,0,-1,1,0.7,10399,3,79,28,38,500,0.0,662,453,60,119.0,0,1,317,219,86,0,0,0,250,250,0,,,,,,,,,,,,
57783,0,1,2,0.66,0.07,0.43,0,-1,-0,0.67,10376,3,79,28,38,500,0.0,658,457,60,119.0,0,1,317,220,86,0,0,0,250,250,0,,,,,,,,,,,,
57803,0,3,2,0.72,0.05,0.4,0,-0,-0,0.72,10405,3,79,28,38,500,0.0,660,455,60,119.0,0,1,317,219,86,0,0,0,250,250,0,,,,,,,,,,,,
57823,0,4,2,0.84,0.04,0.45,0,-0,-0,0.84,10370,3,79,28,38,500,0.0,665,455,60,119.0,0,1,317,219,86,0,0,0,250,250,0,,,,,,,,,,,,
57843,0,4,2,0.86,0.05,0.54,0,-3,-0,0.86,10410,3,79,28,39,500,0.0,663,459,60,119.0,0,1,320,220,86,0,0,0,250,250,0,0.0,0.0,0.0,0.0,0,0.0,-1,0.0,0.0,0,0.0,0.964
57863,0,4,2,0.88,0.04,0.58,0,-2,-1,0.88,10376,3,79,28,39,500,0.0,666,455,60,119.0,0,1,320,220,86,0,0,0,250,250,0,,,,,,,,,,,,
57883,0,5,2,0.86,0.0,0.65,0,-1,-1,0.86,10416,3,79,28,39,500,0.0,665,461,60,119.0,0,1,320,220,87,0,0,0,250,250,0,,,,,,,,,,,,
57903,0,4,2,0.86,-0.04,0.7,0,0,-0,0.86,10376,3,79,28,39,500,0.0,668,459,60,119.0,0,1,320,220,87,0,0,0,250,250,0,,,,,,,,,,,,
57923,0,2,2,0.84,-0.04,0.75,0,-2,-1,0.84,10410,3,79,28,39,500,0.0,662,457,60,118.0,0,1,320,220,87,0,0,0,250,250,0,,,,,,,,,,,,
57943,0,2,2,0.8,-0.03,0.77,0,-0,-1,0.8,10393,3,79,28,39,500,0.0,659,454,60,119.0,0,1,320,220,87,0,0,0,250,250,0,0.0,0.0,0.0,0.0,0,0.0,-1,0.0,0.0,0,0.0,0.9657
57963,0,3,2,0.78,-0.0,0.75,1,1,-1,0.78,10364,3,79,28,39,500,0.0,652,454,60,119.0,0,1,320,220,87,0,0,0,250,250,0,,,,,,,,,,,,
57983,0,3,2,0.74,0.02,0.6,0,0,0,0.74,10405,3,79,28,38,500,0.0,655,456,60,119.0,0,1,317,220,86,0,0,0,250,250,0,,,,,,,,,,,,
58003,0,-0,2,0.67,0.01,0.56,0,-0,-0,0.67,10370,3,79,28,39,500,0.0,659,454,60,119.0,0,1,320,220,86,0,0,0,250,250,0,,,,,,,,,,,,
58023,0,1,2,0.67,-0.01,0.47,0,1,-0,0.67,10405,3,79,28,39,500,0.0,663,455,60,119.0,0,1,320,220,86,0,0,0,250,250,0,,,,,,,,,,,,
58043,0,1,2,0.74,-0.0,0.43,1,1,0,0.74,10382,3,79,28,39,500,0.0,663,456,60,118.0,0,1,320,220,86,0,0,0,250,250,0,0.0,0.0,0.0,0.0,0,0.0,-1,0.0,0.0,0,0.0,0.9674
58063,0,5,2,0.77,0.04,0.41,0,-1,1,0.77,10410,3,79,28,39,500,0.0,670,457,60,118.0,0,1,320,220,86,0,0,0,250,250,0,,,,,,,,,,,,
58083,0,4,2,0.77,0.07,0.47,0,-1,-0,0.77,10382,3,79,28,39,500,0.0,673,454,60,118.0,0,1,320,219,86,0,0,0,250,250,0,,,,,,,,,,,,
58103,0,5,2,0.81,0.07,0.45,0,0,-1,0.82,10416,3,79,28,39,500,0.0,665,460,60,119.0,0,1,320,220,86,0,0,0,250,250,0,,,,,,,,,,,,
58123,0,6,2,0.89,0.04,0.54,0,0,-0,0.89,10382,3,79,28,39,500,0.0,659,453,60,119.0,0,1,320,220,86,0,0,0,250,250,0,,,,,,,,,,,,
58143,0,5,2,0.9,0.02,0.61,0,-2,0,0.9,10416,3,79,28,39,500,0.0,659,461,60,119.0,0,1,320,220,86,0,0,0,250,250,0,0.0,0.0,0.0,0.0,0,0.0,-1,0.0,0.0,0,0.0,0.969
58163,0,4,2,0.89,-0.01,0.74,0,-1,-0,0.89,10387,3,79,28,39,500,0.0,664,456,60,119.0,0,1,320,220,86,0,0,0,250,250,0,,,,,,,,,,,,
58183,0,4,2,0.86,-0.05,0.81,0,0,-1,0.86,10393,3,79,28,39,500,0.0,666,461,60,119.0,0,1,320,220,87,0,0,0,250,250,0,,,,,,,,,,,,
58203,0,3,2,0.83,-0.07,0.77,0,0,-0,0.84,10422,3,79,28,39,500,0.0,661,457,60,118.0,0,1,320,220,87,0,0,0,250,250,0,,,,,,,,,,,,
58223,0,1,2,0.77,-0.06,0.78,0,-1,-1,0.77,10428,3,79,28,39,500,0.0,663,460,60,119.0,0,1,320,220,87,0,0,0,250,250,0,,,,,,,,,,,,
58243,0,4,2,0.75,-0.03,0.8,0,0,-1,0.75,10422,3,79,28,39,500,0.0,658,455,60,119.0,0,1,320,220,87,0,0,0,250,250,0,0.0,0.0,0.0,0.0,0,0.0,-1,0.0,0.0,0,0.0,0.9707
58263,0,2,2,0.73,0.0,0.76,0,1,-0,0.73,10382,3,79,28,39,500,0.0,670,458,60,119.0,0,1,320,220,87,0,0,0,250,250,0,,,,,,,,,,,,
58283,0,0,2,0.69,0.02,0.62,0,0,0,0.69,10416,3,79,28,38,500,0.0,665,457,60,119.0,0,1,317,220,86,0,0,0,250,250,0,,,,,,,,,,,,
58303,0,2,2,0.66,0.02,0.54,0,-0,-0,0.66,10393,3,79,28,38,500,0.0,662,455,60,119.0,0,1,317,219,86,0,0,0,250,250,0,,,,,,,,,,,,
58323,0,2,2,0.67,0.0,0.46,0,-0,0,0.67,10422,3,79,28,39,500,0.0,661,454,60,119.0,0,1,320,220,86,0,0,0,250,250,0,,,,,,,,,,,,
58343,0,1,2,0.73,0.01,0.43,0,0,1,0.73,10387,3,79,28,39,500,0.0,655,455,60,119.0,0,1,320,220,86,0,0,0,250,250,0,0.0,0.0,0.0,0.0,0,0.0,-1,0.0,0.0,0,0.0,0.9724
58363,0,2,2,0.76,0.07,0.4,0,-1,1,0.76,10422,3,79,28,39,500,0.0,655,458,60,119.0,0,1,320,220,86,0,0,0,250,250,0,,,,,,,,,,,,
58383,0,23,2,0.77,0.1,0.41,0,-1,-0,0.78,10393,3,79,28,39,500,0.0,669,454,60,118.0,0,1,320,220,87,0,0,0,250,250,0,,,,,,,,,,,,
58403,0,6,2,0.82,0.09,0.4,0,-0,-1,0.82,10422,3,79,28,39,500,0.0,666,457,60,119.0,0,1,320,220,87,0,0,0,250,250,0,,,,,,,,,,,,
58423,0,3,2,0.89,0.05,0.5,0,-0,-0,0.89,10382,3,79,28,39,500,0.0,665,455,60,119.0,0,1,320,220,87,0,0,0,250,250,0,,,,,,,,,,,,
58443,0,6,2,0.92,0.03,0.59,0,-1,-0,0.92,10416,3,79,28,38,500,0.0,661,456,60,119.0,0,1,317,220,87,0,0,0,250,250,0,0.0,0.0,0.0,0.0,0,0.0,-1,0.0,0.0,0,0.0,0.974
58463,0,2,2,0.92,0.01,0.71,0,-1,-1,0.92,10382,3,79,28,39,500,0.0,665,452,60,118.0,0,1,320,220,87,0,0,0,250,250,0,,,,,,,,,,,,
58483,0,2,2,0.88,-0.02,0.78,0,-1,-1,0.88,10382,3,79,28,39,500,0.0,667,458,60,119.0,0,1,320,220,87,0,0,0,250,250,0,,,,,,,,,,,,
58503,0,4,2,0.87,-0.06,0.79,0,0,-1,0.87,10422,3,79,28,39,500,0.0,666,456,60,118.0,0,1,320,220,87,0,0,0,250,250,0,,,,,,,,,,,,
58523,0,3,2,0.82,-0.06,0.8,0,-1,-1,0.82,10439,3,79,28,39,500,0.0,660,460,60,119.0,0,1,320,220,87,0,0,0,250,250,0,,,,,,,,,,,,
58543,0,2,2,0.8,-0.03,0.8,0,-1,-1,0.81,10399,3,79,28,39,500,0.0,659,452,60,119.0,0,1,320,220,87,0,0,0,250,250,0,0.0,0.0,0.0,0.0,0,0.0,-1,0.0,0.0,0,0.0,0.9757
58563,0,2,2,0.77,-0.01,0.8,0,-1,-1,0.77,10405,3,79,28,39,500,0.0,657,458,60,119.0,0,1,320,220,87,0,0,0,250,250,0,,,,,,,,,,,,
58583,0,1,2,0.75,0.0,0.69,0,-0,-0,0.75,10434,3,79,28,39,500,0.0,661,458,60,119.0,0,1,320,220,86,0,0,0,250,250,0,,,,,,,,,,,,
58603,0,0,2,0.69,-0.01,0.61,0,-2,-0,0.69,10399,3,79,28,39,500,0.0,656,456,60,119.0,0,1,320,140,86,0,0,0,250,250,0,,,,,,,,,,,,
58623,0,-0,2,0.68,-0.02,0.52,0,-1,0,0.68,10434,3,80,28,39,500,0.0,663,453,60,119.0,0,1,320,220,86,0,0,0,250,250,0,,,,,,,,,,,,
58643,0,1,2,0.7,-0.01,0.48,0,-1,1,0.7,10405,3,80,28,39,500,0.0,667,459,60,119.0,0,1,320,220,86,0,0,0,250,250,0,0.0,0.0,0.0,0.0,0,0.0,-1,0.0,0.0,0,0.0,0.9774
58663,0,1,2,0.71,0.02,0.38,0,-2,1,0.71,10445,3,80,28,39,500,0.0,660,458,60,119.0,0,1,320,140,86,0,0,0,250,250,0,,,,,,,,,,,,
58683,0,2,2,0.71,0.03,0.35,0,-2,1,0.71,10393,3,80,28,39,500,0.0,658,457,60,119.0,0,1,320,220,87,0,0,0,250,250,0,,,,,,,,,,,,
58703,0,1,2,0.76,0.03,0.31,0,-1,0,0.76,10422,3,80,28,39,500,0.0,662,457,60,118.0,0,1,320,220,87,0,0,0,250,250,0,,,,,,,,,,,,
58723,0,-0,2,0.86,0.04,0.37,0,-1,1,0.86,10387,3,80,28,38,500,0.0,661,458,60,119.0,0,1,317,220,87,0,0,0,250,250,0,,,,,,,,,,,,
58743,0,4,2,0.9,0.06,0.44,0,-2,1,0.9,10428,3,80,28,38,500,0.0,659,456,60,119.0,0,1,317,220,87,0,0,0,250,250,0,0.0,0.0,0.0,0.0,0,0.0,-1,0.0,0.0,0,0.0,0.979
58763,0,5,2,0.92,0.06,0.47,0,-3,-0,0.92,10393,3,80,28,39,500,0.0,662,456,60,118.0,0,1,320,220,87,0,0,0,250,250,0,,,,,,,,,,,,
58783,0,5,2,0.9,0.04,0.55,0,-2,-1,0.9,10434,3,80,28,38,500,0.0,658,453,60,119.0,0,1,317,220,86,0,0,0,250,250,0,,,,,,,,,,,,
58803,0,5,2,0.93,-0.02,0.63,0,-1,-0,0.93,10410,3,80,28,39,500,0.0,661,458,60,119.0,0,1,320,220,86,0,0,0,250,250,0,,,,,,,,,,,,
58823,0,4,2,0.92,-0.04,0.69,0,-2,-0,0.92,10451,3,80,28,39,500,0.0,660,453,60,118.0,0,1,320,220,86,0,0,0,250,250,0,,,,,,,,,,,,
58843,0,5,2,0.88,-0.05,0.81,0,-1,-1,0.88,10416,3,80,28,39,500,0.0,666,454,60,118.0,0,1,320,220,86,0,0,0,250,250,0,0.0,0.0,0.0,0.0,0,0.0,-1,0.0,0.0,0,0.0,0.9807
58863,0,4,2,0.83,-0.07,0.87,0,-1,-1,0.83,10445,3,80,28,39,500,0.0,667,458,60,118.0,0,1,320,220,86,0,0,0,250,250,0,,,,,,,,,,,,
58883,0,3,2,0.78,-0.07,0.82,0,0,-0,0.78,10405,3,80,28,39,500,0.0,664,458,60,119.0,0,1,320,220,86,0,0,0,250,250,0,,,,,,,,,,,,
58903,0,1,2,0.75,-0.06,0.81,0,-1,-1,0.75,10428,3,80,28,39,500,0.0,661,458,60,119.0,0,1,320,220,86,0,0,0,250,250,0,,,,,,,,,,,,
58923,0,2,2,0.72,-0.03,0.83,0,-1,-1,0.72,10422,3,80,28,39,500,0.0,658,455,60,119.0,0,1,320,220,86,0,0,0,250,250,0,,,,,,,,,,,,
58943,0,1,2,0.71,0.0,0.79,0,-1,-1,0.71,10370,3,80,28,39,500,0.0,653,456,60,119.0,0,1,320,220,86,0,0,0,250,250,0,0.0,0.0,0.0,0.0,0,0.0,-1,0.0,0.0,0,0.0,0.9824
58963,0,2,2,0.67,0.03,0.62,0,-1,0,0.67,10416,3,80,28,39,500,0.0,663,458,60,119.0,0,1,320,219,86,0,0,0,250,250,0,,,,,,,,,,,,
58983,0,2,2,0.63,0.02,0.56,0,-1,-0,0.63,10382,3,80,28,39,500,0.0,659,453,60,119.0,0,1,320,220,86,0,0,0,250,250,0,,,,,,,,,,,,
59003,0,1,2,0.66,0.02,0.46,0,-1,-0,0.66,10416,3,80,28,39,500,0.0,665,455,60,119.0,0,1,320,220,86,0,0,0,250,250,0,,,,,,,,,,,,
59023,0,1,2,0.76,0.04,0.48,0,-1,0,0.76,10382,3,80,28,39,500,0.0,663,452,60,119.0,0,1,320,220,86,0,0,0,250,250,0,,,,,,,,,,,,
59043,0,2,2,0.8,0.09,0.46,0,-1,0,0.81,10405,3,80,28,39,500,0.0,668,460,60,118.0,0,1,320,220,86,0,0,0,250,250,0,0.0,0.0,0.0,0.0,0,0.0,-1,0.0,0.0,0,0.0,0.984
59063,0,5,2,0.84,0.11,0.5,0,-2,-0,0.84,10370,3,80,28,39,500,0.0,661,455,60,119.0,0,1,320,220,86,0,0,0,250,250,0,,,,,,,,,,,,
59083,0,5,2,0.86,0.07,0.55,0,-2,-0,0.86,10405,3,80,28,39,500,0.0,663,458,60,118.0,0,1,320,220,86,0,0,0,250,250,0,,,,,,,,,,,,
59103,0,5,2,0.92,-0.0,0.62,-0,-2,0,0.92,10370,3,80,28,39,500,0.0,659,455,60,119.0,0,1,320,220,86,0,0,0,250,250,0,,,,,,,,,,,,
59123,0,4,2,0.91,-0.05,0.64,-0,-2,0,0.91,10405,3,80,28,39,500,0.0,655,460,60,119.0,0,1,320,220,86,0,0,0,250,250,0,,,,,,,,,,,,
59143,0,5,2,0.88,-0.04,0.71,0,-1,-1,0.89,10359,3,80,28,39,500,0.0,653,452,60,118.0,0,1,320,219,86,0,0,0,250,250,0,0.0,0.0,0.0,0.0,0,0.0,-1,0.0,0.0,0,0.0,0.9857
59163,0,3,2,0.82,-0.03,0.76,0,-1,-1,0.82,10405,3,80,28,39,500,0.0,663,457,60,118.0,0,1,320,220,86,0,0,0,250,250,0,,,,,,,,,,,,
59183,0,5,2,0.76,-0.01,0.68,0,-1,-0,0.76,10410,3,80,28,39,500,0.0,660,458,60,118.0,0,1,320,220,86,0,0,0,250,250,0,,,,,,,,,,,,
59203,0,3,2,0.72,0.01,0.62,0,-1,-0,0.72,10382,3,80,28,39,500,0.0,662,461,60,119.0,0,1,320,220,86,0,0,0,250,250,0,,,,,,,,,,,,
59223,0,2,2,0.71,0.05,0.6,0,0,-1,0.71,10434,3,80,28,39,500,0.0,663,455,60,119.0,0,1,320,220,86,0,0,0,250,250,0,,,,,,,,,,,,
59243,0,2,2,0.69,0.1,0.57,0,-0,-0,0.7,10393,3,80,28,39,500,0.0,665,456,60,119.0,0,1,320,220,86,0,0,0,250,250,0,0.0,0.0,0.0,0.0,0,0.0,-1,0.0,0.0,0,0.0,0.9874
59263,0,2,2,0.65,0.13,0.48,0,-0,1,0.66,10434,3,80,28,39,500,0.0,666,458,60,119.0,0,1,320,220,86,0,0,0,250,250,0,,,,,,,,,,,,
59283,0,1,2,0.67,0.12,0.39,0,1,0,0.68,10399,3,80,28,39,500,0.0,662,455,60,119.0,0,1,320,140,87,0,0,0,250,250,0,,,,,,,,,,,,
59303,0,1,2,0.72,0.13,0.36,0,-0,-0,0.74,10422,3,80,28,39,500,0.0,660,455,60,119.0,0,1,320,220,87,0,0,0,250,250,0,,,,,,,,,,,,
59323,0,-1,2,0.8,0.14,0.43,0,-1,0,0.81,10393,3,80,28,39,500,0.0,656,457,60,119.0,0,1,320,220,87,0,0,0,250,250,0,,,,,,,,,,,,
59343,0,1,2,0.82,0.15,0.44,0,0,1,0.84,10428,3,80,28,39,500,0.0,655,456,60,118.0,0,1,320,220,87,0,0,0,250,250,0,0.0,0.0,0.0,0.0,0,0.0,-1,0.0,0.0,0,0.0,0.989
59363,0,5,2,0.89,0.14,0.46,0,0,-1,0.9,10393,3,80,28,39,500,0.0,665,455,60,118.0,0,1,320,220,87,0,0,0,250,250,0,,,,,,,,,,,,
59383,0,5,2,0.92,0.11,0.54,-0,-1,-1,0.93,10428,3,80,28,39,500,0.0,666,458,60,118.0,0,1,320,140,86,0,0,0,250,250,0,,,,,,,,,,,,
59403,0,5,2,0.99,0.02,0.65,-0,-2,-0,0.99,10399,3,80,28,39,500,0.0,661,458,60,119.0,0,1,320,220,86,0,0,0,250,250,0,,,,,,,,,,,,
59423,0,5,2,0.96,-0.01,0.67,0,-1,-0,0.96,10439,3,80,28,39,500,0.0,663,457,60,119.0,0,1,320,220,86,0,0,0,250,250,0,,,,,,,,,,,,
59443,0,5,2,0.97,-0.03,0.74,0,-0,-1,0.97,10405,3,80,28,39,500,0.0,663,456,60,119.0,0,1,320,220,86,0,0,0,250,250,0,0.0,0.0,0.0,0.0,0,0.0,-1,0.0,0.0,0,0.0,0.9907
59463,0,4,2,0.93,-0.07,0.81,-0,-1,-2,0.93,10434,3,80,28,39,500,0.0,663,455,60,118.0,0,1,320,220,86,0,0,0,250,250,0,,,,,,,,,,,,
59483,0,2,2,0.9,-0.11,0.79,-0,-1,-1,0.91,10434,3,80,28,39,500,0.0,665,458,60,119.0,0,1,320,220,86,0,0,0,250,250,0,,,,,,,,,,,,
59503,0,3,2,0.86,-0.1,0.79,-0,-0,-1,0.86,10399,3,80,28,39,500,0.0,661,454,60,118.0,0,1,320,220,86,0,0,0,250,250,0,,,,,,,,,,,,
59523,0,2,2,0.84,-0.06,0.8,0,-0,-2,0.85,10399,3,80,28,39,500,0.0,659,455,60,119.0,0,1,320,220,86,0,0,0,250,250,0,,,,,,,,,,,,
59543,0,1,2,0.76,-0.04,0.76,0,-1,-1,0.76,10422,3,80,28,39,500,0.0,658,456,60,119.0,0,1,320,220,86,0,0,0,250,250,0,0.0,0.0,0.0,0.0,0,0.0,-1,0.0,0.0,0,0.0,0.9924
59563,0,0,2,0.69,-0.02,0.66,0,0,-0,0.69,10422,3,80,28,39,500,0.0,653,458,60,119.0,0,1,320,220,86,0,0,0,250,250,0,,,,,,,,,,,,
59583,0,2,2,0.64,-0.01,0.59,0,1,-1,0.64,10376,3,80,28,39,500,0.0,658,457,60,119.0,0,1,320,220,87,0,0,0,250,250,0,,,,,,,,,,,,
59603,0,2,2,0.64,0.01,0.46,0,1,-1,0.64,10416,3,80,28,39,500,0.0,661,454,60,119.0,0,1,320,220,87,0,0,0,250,250,0,,,,,,,,,,,,
59623,0,1,2,0.68,0.04,0.48,0,-0,-0,0.68,10370,3,80,28,39,500,0.0,661,454,60,119.0,0,1,320,220,87,0,0,0,250,250,0,,,,,,,,,,,,
59643,0,-0,2,0.68,0.08,0.47,0,1,-0,0.69,10393,3,80,28,39,500,0.0,661,459,60,119.0,0,1,320,220,87,0,0,0,250,250,0,0.0,0.0,0.0,0.0,0,0.0,-1,0.0,0.0,0,0.0,0.994
59663,0,1,2,0.74,0.1,0.48,0,1,-1,0.74,10376,3,80,28,39,500,0.0,665,452,60,118.0,0,1,320,220,87,0,0,0,250,250,0,,,,,,,,,,,,
59683,0,7,2,0.79,0.09,0.49,0,1,-1,0.79,10422,3,80,28,39,500,0.0,658,452,60,119.0,0,1,320,220,86,0,0,0,250,250,0,,,,,,,,,,,,
59703,0,5,2,0.85,0.03,0.59,0,1,-1,0.85,10387,3,80,28,39,500,0.0,662,458,60,118.0,0,1,320,220,86,0,0,0,250,250,0,,,,,,,,,,,,
59723,0,3,2,0.89,0.0,0.63,0,1,-1,0.89,10416,3,80,28,39,500,0.0,658,457,60,119.0,0,1,320,220,86,0,0,0,250,250,0,,,,,,,,,,,,
59743,0,2,2,0.91,-0.02,0.72,0,0,-1,0.91,10387,3,80,28,39,500,0.0,654,455,60,119.0,0,1,320,220,86,0,0,0,250,250,0,0.0,0.0,0.0,0.0,0,0.0,-1,0.0,0.0,0,0.0,0.9957
59763,0,5,2,0.88,-0.06,0.78,0,-1,-1,0.88,10405,3,80,28,39,500,0.0,659,455,60,119.0,0,1,320,220,86,0,0,0,250,250,0,,,,,,,,,,,,
59783,0,3,2,0.84,-0.08,0.76,0,0,-0,0.85,10370,3,80,28,39,500,0.0,667,458,60,118.0,0,1,320,220,86,0,0,0,250,250,0,,,,,,,,,,,,
59803,0,4,2,0.8,-0.06,0.72,0,-0,-1,0.81,10410,3,80,28,39,500,0.0,667,457,60,119.0,0,1,320,220,86,0,0,0,250,250,0,,,,,,,,,,,,
59823,0,2,2,0.8,-0.03,0.73,0,0,-1,0.8,10410,3,80,28,39,500,0.0,663,457,60,119.0,0,1,320,220,86,0,0,0,250,250,0,,,,,,,,,,,,
59843,0,1,2,0.77,-0.01,0.67,0,-1,-1,0.77,10376,3,80,28,39,500,0.0,661,456,60,119.0,0,1,320,220,86,0,0,0,250,250,0,0.0,0.0,0.0,0.0,0,0.0,-1,0.0,0.0,0,0.0,0.9974
59863,0,1,2,0.72,0.02,0.54,0,0,-0,0.72,10410,3,80,28,39,500,0.0,662,459,60,119.0,0,1,320,220,86,0,0,0,250,250,0,,,,,,,,,,,,
59883,0,1,2,0.68,0.03,0.45,0,-1,-1,0.68,10387,3,80,28,39,500,0.0,660,453,60,119.0,0,1,320,220,87,0,0,0,250,250,0,,,,,,,,,,,,
59903,0,2,2,0.68,0.03,0.36,0,0,-1,0.68,10416,3,80,28,39,500,0.0,662,455,60,119.0,0,1,320,220,87,0,0,0,250,250,0,,,,,,,,,,,,
59923,0,-1,2,0.75,0.06,0.4,1,-0,-0,0.75,10376,3,80,28,39,500,0.0,658,456,60,119.0,0,1,320,220,87,0,0,0,250,250,0,,,,,,,,,,,,
59943,0,1,2,0.78,0.09,0.39,0,-1,1,0.78,10416,3,80,28,39,500,0.0,657,460,60,119.0,0,1,320,220,87,0,0,0,250,250,0,0.0,0.0,0.0,0.0,0,0.0,-1,0.0,0.0,0,0.0,0.999
59963,0,2,2,0.81,0.12,0.43,0,-1,0,0.82,10382,3,80,28,39,500,0.0,655,454,60,119.0,0,1,320,220,87,0,0,0,250,250,0,,,,,,,,,,,,
59983,0,5,2,0.84,0.09,0.49,0,-1,-0,0.85,10410,3,80,28,39,500,0.0,663,455,60,119.0,0,1,320,220,86,0,0,0,250,250,0,,,,,,,,,,,,
60003,0,7,2,0.91,0.02,0.58,0,-2,0,0.91,10359,3,80,28,39,500,0.0,665,453,60,119.0,0,1,320,220,86,0,0,0,250,250,0,,,,,,,,,,,,
60023,0,5,2,0.9,-0.01,0.65,0,-2,0,0.9,10399,3,80,28,39,500,0.0,663,458,60,119.0,0,1,320,220,86,0,0,0,250,250,0,,,,,,,,,,,,
60043,0,5,2,0.89,-0.03,0.76,0,-2,-1,0.89,10359,3,80,28,39,500,0.0,661,455,60,119.0,0,1,320,220,86,0,0,0,250,250,0,0.0,0.0,0.0,0.0,0,0.0,-1,0.0,0.0,0,0.0,1.0007
60063,0,5,2,0.85,-0.03,0.82,0,-1,-1,0.85,10387,3,80,28,39,500,0.0,664,457,60,119.0,0,1,320,220,86,0,0,0,250,250,0,,,,,,,,,,,,
60083,0,2,2,0.81,-0.01,0.71,0,-1,-0,0.81,10393,3,80,28,39,500,0.0,665,462,60,119.0,0,1,320,220,86,0,0,0,250,250,0,,,,,,,,,,,,
60103,0,3,2,0.73,0.0,0.6,0,-2,-1,0.73,10359,3,80,28,39,500,0.0,656,456,60,119.0,0,1,320,220,86,0,0,0,250,250,0,,,,,,,,,,,,
60123,0,1,2,0.69,0.0,0.52,0,-0,-1,0.69,10382,3,80,28,39,500,0.0,660,457,60,119.0,0,1,320,220,86,0,0,0,250,250,0,,,,,,,,,,,,
60143,0,1,2,0.72,0.02,0.5,0,1,-1,0.72,10353,3,80,28,39,500,0.0,655,456,60,119.0,0,1,320,220,86,0,0,0,250,250,0,0.0,0.0,0.0,0.0,0,0.0,-1,0.0,0.0,0,0.0,1.0024
60163,0,2,2,0.71,0.09,0.43,0,0,1,0.71,10393,3,80,28,39,500,0.0,668,461,60,119.0,0,1,320,220,86,0,0,0,250,250,0,,,,,,,,,,,,
60183,0,2,2,0.7,0.12,0.44,0,-0,-0,0.71,10364,3,80,28,39,500,0.0,661,458,60,119.0,0,1,320,220,86,0,0,0,250,250,0,,,,,,,,,,,,
60203,0,1,2,0.75,0.12,0.43,0,1,-0,0.76,10410,3,80,28,39,500,0.0,664,456,60,119.0,0,1,320,220,86,0,0,0,250,250,0,,,,,,,,,,,,
60223,0,1,2,0.85,0.1,0.52,0,-0,-0,0.86,10370,3,80,28,39,500,0.0,661,455,60,119.0,0,1,320,220,86,0,0,0,250,250,0,,,,,,,,,,,,
60243,0,5,2,0.89,0.06,0.61,0,-2,1,0.89,10410,3,80,28,39,500,0.0,662,457,60,119.0,0,1,320,220,86,0,0,0,250,250,0,0.0,0.0,0.0,0.0,0,0.0,-1,0.0,0.0,0,0.0,1.0041
60263,0,5,2,0.9,0.04,0.7,0,-2,-0,0.9,10393,3,80,28,39,500,0.0,666,455,60,119.0,0,1,320,220,86,0,0,0,250,250,0,,,,,,,,,,,,
60283,0,3,2,0.88,0.0,0.77,0,-1,-1,0.88,10416,3,80,28,39,500,0.0,659,453,60,119.0,0,1,320,220,87,0,0,0,250,250,0,,,,,,,,,,,,
60303,0,3,2,0.88,-0.05,0.81,0,-2,-0,0.88,10387,3,80,28,39,500,0.0,657,460,60,119.0,0,1,320,220,87,0,0,0,250,250,0,,,,,,,,,,,,
60323,0,5,2,0.82,-0.05,0.83,0,-3,0,0.83,10428,3,80,28,39,500,0.0,655,458,60,119.0,0,1,320,220,87,0,0,0,250,250,0,,,,,,,,,,,,
60343,0,3,2,0.83,-0.04,0.86,0,-3,-0,0.83,10405,3,80,28,39,500,0.0,661,454,60,118.0,0,1,320,220,87,0,0,0,250,250,0,0.0,0.0,0.0,0.0,0,0.0,-1,0.0,0.0,0,0.0,1.0057
60363,0,3,2,0.78,-0.02,0.86,0,-2,-1,0.78,10405,3,80,28,39,500,0.0,661,458,60,119.0,0,1,320,220,87,0,0,0,250,250,0,,,,,,,,,,,,
60383,0,3,2,0.73,-0.01,0.73,0,-1,-0,0.73,10405,3,80,28,39,500,0.0,665,460,60,119.0,0,1,320,220,86,0,0,0,250,250,0,,,,,,,,,,,,
60403,0,4,2,0.67,0.0,0.64,0,-1,-0,0.67,10399,3,80,28,39,500,0.0,661,458,60,119.0,0,1,320,220,86,0,0,0,250,250,0,,,,,,,,,,,,
60423,0,4,2,0.63,0.01,0.56,0,0,-1,0.63,10439,3,80,28,39,500,0.0,657,457,60,119.0,0,1,320,220,86,0,0,0,250,250,0,,,,,,,,,,,,
60443,0,2,2,0.61,0.04,0.5,0,1,-0,0.61,10399,3,80,28,39,500,0.0,658,457,60,119.0,0,1,320,220,86,0,0,0,250,250,0,0.0,0.0,0.0,0.0,0,0.0,-1,0.0,0.0,0,0.0,1.0074
60463,0,2,2,0.58,0.07,0.41,0,1,1,0.59,10428,3,80,28,39,500,0.0,661,458,60,119.0,0,1,320,220,86,0,0,0,250,250,0,,,,,,,,,,,,
60483,0,2,2,0.57,0.08,0.36,0,1,0,0.57,10387,3,80,28,39,500,0.0,661,458,60,119.0,0,1,320,220,87,0,0,0,250,250,0,,,,,,,,,,,,
60503,0,1,2,0.62,0.09,0.32,0,2,0,0.62,10434,3,80,28,39,500,0.0,663,454,60,119.0,0,1,320,220,87,0,0,0,250,250,0,,,,,,,,,,,,
60523,0,1,2,0.74,0.11,0.4,0,1,1,0.75,10410,3,80,28,39,500,0.0,655,455,60,120.0,0,1,320,140,87,0,0,0,250,250,0,,,,,,,,,,,,
60543,0,1,2,0.77,0.13,0.45,0,0,1,0.78,10445,3,80,28,39,500,0.0,656,458,60,119.0,0,1,320,220,87,0,0,0,250,250,0,0.0,0.0,0.0,0.0,0,0.0,-1,0.0,0.0,0,0.0,1.0091
60563,0,1,2,0.81,0.14,0.5,0,-0,0,0.82,10405,3,80,28,39,500,0.0,655,455,60,120.0,0,1,320,220,87,0,0,0,250,250,0,,,,,,,,,,,,
60583,0,1,2,0.83,0.12,0.55,0,0,0,0.84,10434,3,80,28,39,500,0.0,661,456,60,119.0,0,1,320,220,86,0,0,0,250,250,0,,,,,,,,,,,,
60603,0,5,2,0.88,0.04,0.63,0,-0,1,0.89,10405,3,80,28,39,500,0.0,668,457,60,119.0,0,1,320,220,86,0,0,0,250,250,0,,,,,,,,,,,,
60623,0,5,2,0.87,0.01,0.68,0,-2,1,0.87,10439,3,81,28,39,500,0.0,663,458,60,119.0,0,1,320,220,86,0,0,0,250,250,0,,,,,,,,,,,,
60643,0,6,2,0.89,-0.01,0.77,0,-2,-0,0.89,10399,3,81,28,39,500,0.0,662,455,60,119.0,0,1,320,220,86,0,0,0,250,250,0,0.0,0.0,0.0,0.0,0,0.0,-1,0.0,0.0,0,0.0,1.0107
60663,0,5,2,0.85,-0.05,0.83,-0,-2,-0,0.85,10428,3,81,28,39,500,0.0,661,453,60,119.0,0,1,320,220,86,0,0,0,250,250,0,,,,,,,,,,,,
60683,0,5,2,0.81,-0.07,0.78,-0,-2,0,0.81,10387,3,81,28,39,500,0.0,662,460,60,119.0,0,1,320,220,86,0,0,0,250,250,0,,,,,,,,,,,,
60703,0,4,2,0.77,-0.05,0.76,-0,-3,0,0.77,10416,3,81,28,39,500,0.0,656,456,60,119.0,0,1,320,220,86,0,0,0,250,250,0,,,,,,,,,,,,
60723,0,2,2,0.77,-0.01,0.76,0,-3,-0,0.77,10428,3,81,28,39,500,0.0,663,456,60,119.0,0,1,320,220,86,0,0,0,250,250,0,,,,,,,,,,,,
60743,0,4,2,0.72,0.04,0.71,0,-3,-0,0.72,10399,3,81,28,39,500,0.0,660,456,60,119.0,0,1,320,220,86,0,0,0,250,250,0,0.0,0.0,0.0,0.0,0,0.0,-1,0.0,0.0,0,0.0,1.0124
60763,0,3,2,0.68,0.06,0.58,0,-2,1,0.68,10439,3,81,28,39,500,0.0,665,460,60,119.0,0,1,320,220,86,0,0,0,250,250,0,,,,,,,,,,,,
60783,0,1,2,0.64,0.06,0.52,-0,-3,0,0.64,10416,3,81,28,39,500,0.0,658,456,60,119.0,0,1,320,140,87,0,0,0,250,250,0,,,,,,,,,,,,
60803,0,3,2,0.65,0.06,0.41,0,-2,0,0.65,10451,3,81,28,39,500,0.0,665,457,60,119.0,0,1,320,220,87,0,0,0,250,250,0,,,,,,,,,,,,
60823,0,3,2,0.68,0.07,0.42,0,-2,1,0.68,10422,3,81,28,39,500,0.0,666,458,60,119.0,0,1,320,220,87,0,0,0,250,250,0,,,,,,,,,,,,
60843,0,1,2,0.68,0.11,0.37,0,-2,1,0.69,10469,3,81,28,39,500,0.0,661,455,60,119.0,0,1,320,220,87,0,0,0,250,250,0,0.0,0.0,0.0,0.0,0,0.0,-1,0.0,0.0,0,0.0,1.0141
60863,0,2,2,0.67,0.11,0.32,0,-2,0,0.68,10428,3,81,28,39,500,0.0,658,453,60,119.0,0,1,320,220,87,0,0,0,250,250,0,,,,,,,,,,,,
60883,0,2,2,0.72,0.09,0.3,0,-2,1,0.72,10469,3,81,28,39,500,0.0,659,450,60,119.0,0,1,320,220,87,0,0,0,250,250,0,,,,,,,,,,,,
60903,0,3,2,0.79,0.1,0.38,0,-3,1,0.8,10434,3,81,28,39,500,0.0,654,456,60,119.0,0,1,320,220,87,0,0,0,250,250,0,,,,,,,,,,,,
60923,0,2,2,0.8,0.14,0.4,0,-2,2,0.81,10469,3,81,28,39,500,0.0,663,461,60,119.0,0,1,320,220,87,0,0,0,250,250,0,,,,,,,,,,,,
60943,0,0,2,0.83,0.16,0.45,0,-2,1,0.84,10428,3,81,28,39,500,0.0,656,455,60,119.0,0,1,320,220,87,0,0,0,250,250,0,0.0,0.0,0.0,0.0,0,0.0,-1,0.0,0.0,0,0.0,1.0157
60963,0,2,2,0.87,0.15,0.47,0,-1,1,0.88,10469,3,81,28,39,500,0.0,658,458,60,120.0,0,1,320,220,87,0,0,0,250,250,0,,,,,,,,,,,,
60983,0,1,2,0.96,0.12,0.58,0,-2,1,0.97,10422,3,81,28,39,500,0.0,666,456,60,119.0,0,1,320,220,87,0,0,0,250,250,0,,,,,,,,,,,,
61003,0,1,2,0.97,0.11,0.66,0,-3,2,0.98,10457,3,81,28,39,500,0.0,661,459,60,119.0,0,1,320,220,87,0,0,0,250,250,0,,,,,,,,,,,,
61023,0,1,2,0.98,0.09,0.72,0,-3,1,0.99,10416,3,81,28,39,500,0.0,657,455,60,119.0,0,1,320,220,87,0,0,0,250,250,0,,,,,,,,,,,,
61043,0,5,2,0.97,0.06,0.76,0,-1,0,0.97,10463,3,81,28,39,500,0.0,665,455,60,119.0,0,1,320,220,87,0,0,0,250,250,0,0.0,0.0,0.0,0.0,0,0.0,-1,0.0,0.0,0,0.0,1.0174
61063,0,6,2,0.98,-0.02,0.8,0,-2,0,0.98,10428,3,81,28,39,500,0.0,662,457,60,119.0,0,1,320,220,87,0,0,0,250,250,0,,,,,,,,,,,,
61083,0,5,2,0.95,-0.04,0.85,0,-2,1,0.95,10457,3,81,28,39,500,0.0,656,457,60,119.0,0,1,320,220,87,0,0,0,250,250,0,,,,,,,,,,,,
61103,0,3,2,0.92,-0.07,0.95,0,-2,-1,0.93,10416,3,81,28,39,500,0.0,658,455,60,119.0,0,1,320,220,87,0,0,0,250,250,0,,,,,,,,,,,,
61123,0,5,2,0.86,-0.08,0.97,0,-1,-1,0.87,10439,3,81,28,39,500,0.0,657,457,60,119.0,0,1,320,220,87,0,0,0,250,250,0,,,,,,,,,,,,
61143,0,3,2,0.83,-0.08,0.9,0,-0,-0,0.83,10422,3,81,28,39,500,0.0,657,456,60,119.0,0,1,320,220,87,0,0,0,250,250,0,0.0,0.0,0.0,0.0,0,0.0,-1,0.0,0.0,0,0.0,1.0191
61163,0,3,2,0.76,-0.05,0.89,0,-1,-0,0.77,10439,3,81,28,39,500,0.0,661,459,60,119.0,0,1,320,220,87,0,0,0,250,250,0,,,,,,,,,,,,
61183,0,4,2,0.76,-0.02,0.89,0,-1,-1,0.76,10399,3,81,28,39,500,0.0,668,453,60,119.0,0,1,320,220,86,0,0,0,250,250,0,,,,,,,,,,,,
61203,0,3,2,0.72,0.04,0.83,0,-0,-1,0.72,10393,3,81,28,39,500,0.0,665,458,60,120.0,0,1,320,220,86,0,0,0,250,250,0,,,,,,,,,,,,
61223,0,3,2,0.7,0.04,0.7,0,-1,-1,0.7,10428,3,81,28,39,500,0.0,660,458,60,119.0,0,1,320,220,86,0,0,0,250,250,0,,,,,,,,,,,,
61243,0,3,2,0.67,0.03,0.6,0,-1,-1,0.67,10393,3,81,28,39,500,0.0,658,460,60,119.0,0,1,320,220,86,0,0,0,250,250,0,0.0,0.0,0.0,0.0,0,0.0,-1,0.0,0.0,0,0.0,1.0207
61263,0,2,2,0.68,0.02,0.49,0,-1,-1,0.68,10428,3,81,28,39,500,0.0,657,451,60,119.0,0,1,320,220,86,0,0,0,250,250,0,,,,,,,,,,,,
61283,0,2,2,0.73,0.03,0.48,0,-1,-1,0.73,10387,3,81,28,39,500,0.0,658,460,60,119.0,0,1,320,220,87,0,0,0,250,250,0,,,,,,,,,,,,
61303,0,2,2,0.74,0.07,0.44,0,-1,0,0.74,10434,3,81,28,39,500,0.0,667,457,60,119.0,0,1,320,220,87,0,0,0,250,250,0,,,,,,,,,,,,
61323,0,2,2,0.75,0.1,0.46,0,-1,-0,0.76,10410,3,81,28,39,500,0.0,653,455,60,119.0,0,1,320,220,87,0,0,0,250,250,0,,,,,,,,,,,,
61343,0,0,2,0.8,0.1,0.44,0,-0,0,0.81,10457,3,81,28,39,500,0.0,663,452,60,119.0,0,1,320,220,87,0,0,0,250,250,0,0.0,0.0,0.0,0.0,0,0.0,-1,0.0,0.0,0,0.0,1.0224
61363,0,2,2,0.89,0.1,0.53,1,-1,1,0.9,10422,3,81,27,39,500,0.0,658,456,60,120.0,0,1,320,221,87,0,0,0,250,250,0,,,,,,,,,,,,
61383,0,1,2,0.91,0.1,0.61,1,-1,1,0.91,10469,3,81,28,39,500,0.0,666,456,60,119.0,0,1,320,220,87,0,0,0,250,250,0,,,,,,,,,,,,
61403,0,3,2,0.92,0.11,0.66,0,-1,1,0.93,10434,3,81,28,39,500,0.0,658,457,60,120.0,0,1,320,220,87,0,0,0,250,250,0,,,,,,,,,,,,
61423,0,0,2,0.92,0.1,0.72,0,0,0,0.93,10486,3,81,27,39,500,0.0,662,455,60,119.0,0,1,320,221,87,0,0,0,250,250,0,,,,,,,,,,,,
61443,0,1,2,0.96,0.06,0.8,0,-1,1,0.96,10451,3,81,27,39,500,0.0,664,456,60,118.0,0,1,320,221,87,0,0,0,250,250,0,0.0,0.0,0.0,0.0,0,0.0,-1,0.0,0.0,0,0.0,1.024
61463,0,1,2,0.94,0.04,0.85,1,-1,1,0.94,10492,3,81,27,39,500,0.0,659,456,60,119.0,0,1,320,221,87,0,0,0,250,250,0,,,,,,,,,,,,
61483,0,1,2,0.95,0.03,0.94,0,-0,-0,0.95,10463,3,81,27,39,500,0.0,652,455,60,119.0,0,1,320,221,88,0,0,0,250,250,0,,,,,,,,,,,,
61503,0,-2,2,0.93,-0.02,0.99,0,-0,-0,0.93,10480,3,81,27,39,500,0.0,655,453,60,119.0,0,1,320,221,88,0,0,0,250,250,0,,,,,,,,,,,,
61523,0,5,2,0.94,-0.1,1.05,0,-1,0,0.94,10445,3,81,27,39,500,0.0,667,455,60,119.0,0,1,320,221,88,0,0,0,250,250,0,,,,,,,,,,,,
61543,0,4,2,0.9,-0.11,1.06,0,-1,-0,0.91,10463,3,81,27,39,500,0.0,663,459,60,119.0,0,1,320,221,88,0,0,0,250,250,0,0.0,0.0,0.0,0.0,0,0.0,-1,0.0,0.0,0,0.0,1.0257
61563,0,6,2,0.91,-0.11,1.13,0,-1,-1,0.92,10439,3,81,27,39,500,0.0,660,452,60,119.0,0,1,320,221,88,0,0,0,250,250,0,,,,,,,,,,,,
61583,0,5,2,0.87,-0.13,1.16,0,-1,-1,0.88,10474,3,81,27,39,500,0.0,660,454,60,119.0,0,1,320,221,87,0,0,0,250,250,0,,,,,,,,,,,,
61603,0,3,2,0.86,-0.16,1.12,0,-2,-1,0.88,10428,3,81,27,39,500,0.0,661,453,60,119.0,0,1,320,221,87,0,0,0,250,250,0,,,,,,,,,,,,
61623,0,5,2,0.82,-0.15,1.1,0,-2,-1,0.83,10474,3,81,27,39,500,0.0,660,460,60,119.0,0,1,320,221,87,0,0,0,250,250,0,,,,,,,,,,,,
61643,0,4,2,0.84,-0.11,1.1,0,-2,-1,0.85,10428,3,81,27,39,500,0.0,661,452,60,119.0,0,1,320,221,87,0,0,0,250,250,0,0.0,0.0,0.0,0.0,0,0.0,-1,0.0,0.0,0,0.0,1.0274
61663,0,5,2,0.81,-0.08,1.07,0,-1,-2,0.81,10457,3,81,27,39,500,0.0,662,455,60,118.0,0,1,320,221,87,0,0,0,250,250,0,,,,,,,,,,,,
61683,0,3,2,0.78,-0.06,0.92,0,-2,-1,0.79,10422,3,81,27,39,500,0.0,662,455,60,119.0,0,1,320,221,87,0,0,0,250,250,0,,,,,,,,,,,,
61703,0,5,2,0.79,-0.08,0.94,0,-3,-1,0.79,10445,3,81,27,39,500,0.0,660,458,60,118.0,0,1,320,221,87,0,0,0,250,250,0,,,,,,,,,,,,
61723,0,2,2,0.75,-0.05,0.88,0,-2,-1,0.76,10393,3,81,27,39,500,0.0,665,455,60,119.0,0,1,320,221,87,0,0,0,250,250,0,,,,,,,,,,,,
61743,0,2,2,0.7,-0.02,0.8,0,-2,-1,0.7,10416,3,81,27,39,500,0.0,662,457,60,119.0,0,1,320,221,87,0,0,0,250,250,0,0.0,0.0,0.0,0.0,0,0.0,-1,0.0,0.0,0,0.0,1.029
61763,0,3,2,0.69,-0.04,0.79,0,-1,-0,0.7,10439,3,81,27,39,500,0.0,661,460,60,119.0,0,1,320,221,87,0,0,0,250,250,0,,,,,,,,,,,,
61783,0,4,2,0.67,-0.02,0.79,0,-1,-1,0.67,10405,3,81,27,39,500,0.0,659,455,60,119.0,0,1,320,221,87,0,0,0,250,250,0,,,,,,,,,,,,
61803,0,1,2,0.69,0.01,0.78,0,-1,-1,0.69,10434,3,81,27,39,500,0.0,659,454,60,120.0,0,1,320,221,87,0,0,0,250,250,0,,,,,,,,,,,,
61823,0,1,2,0.65,0.04,0.75,0,-1,-0,0.65,10405,3,81,27,39,500,0.0,663,461,60,119.0,0,1,320,221,87,0,0,0,250,250,0,,,,,,,,,,,,
61843,0,1,2,0.64,0.06,0.64,0,-1,1,0.65,10445,3,81,27,39,500,0.0,658,457,60,119.0,0,1,320,221,87,0,0,0,250,250,0,0.0,0.0,0.0,0.0,0,0.0,-1,0.0,0.0,0,0.0,1.0307
61863,0,1,2,0.59,0.06,0.57,0,-2,0,0.59,10387,3,81,27,39,500,0.0,656,455,60,119.0,0,1,320,221,87,0,0,0,250,250,0,,,,,,,,,,,,
61883,0,-0,2,0.59,0.05,0.45,0,-0,0,0.59,10428,3,81,27,39,500,0.0,655,455,60,119.0,0,1,320,221,87,0,0,0,250,250,0,,,,,,,,,,,,
61903,0,-0,2,0.63,0.07,0.44,0,-0,1,0.64,10387,3,81,27,39,500,0.0,658,460,60,119.0,0,1,320,221,87,0,0,0,250,250,0,,,,,,,,,,,,
61923,0,0,2,0.62,0.11,0.38,0,-2,1,0.63,10428,3,81,27,39,500,0.0,648,457,60,120.0,0,1,320,221,87,0,0,0,250,250,0,,,,,,,,,,,,
61943,0,16,2,0.62,0.12,0.36,0,-3,-0,0.63,10393,3,81,27,39,500,0.0,658,455,60,119.0,0,1,320,221,87,0,0,0,250,250,0,0.0,0.0,0.0,0.0,0,0.0,-1,0.0,0.0,0,0.0,1.0324
61963,0,6,2,0.68,0.11,0.32,0,-1,-0,0.69,10422,3,81,27,39,500,0.0,667,457,60,119.0,0,1,320,221,87,0,0,0,250,250,0,,,,,,,,,,,,
61983,0,5,2,0.78,0.09,0.39,0,-1,0,0.78,10393,3,81,27,39,500,0.0,658,456,60,119.0,0,1,320,221,87,0,0,0,250,250,0,,,,,,,,,,,,
62003,0,3,2,0.8,0.09,0.49,0,-2,0,0.81,10416,3,81,27,39,500,0.0,660,458,60,119.0,0,1,320,221,87,0,0,0,250,250,0,,,,,,,,,,,,
62023,0,4,2,0.83,0.07,0.57,0,-3,-0,0.83,10387,3,81,27,39,500,0.0,661,456,60,119.0,0,1,320,221,87,0,0,0,250,250,0,,,,,,,,,,,,
62043,0,4,2,0.84,0.03,0.64,-0,-2,-1,0.84,10422,3,81,27,39,500,0.0,659,455,60,119.0,0,1,320,221,87,0,0,0,250,250,0,0.0,0.0,0.0,0.0,0,0.0,-1,0.0,0.0,0,0.0,1.034
62063,0,2,2,0.87,-0.04,0.69,-0,-3,-0,0.87,10428,3,81,27,39,500,0.0,664,458,60,119.0,0,1,320,221,87,0,0,0,250,250,0,,,,,,,,,,,,
62083,0,3,2,0.82,-0.06,0.73,-0,-4,-0,0.82,10422,3,81,27,39,500,0.0,658,459,60,119.0,0,1,320,221,87,0,0,0,250,250,0,,,,,,,,,,,,
62103,0,2,2,0.82,-0.05,0.75,0,-2,-0,0.82,10422,3,81,27,39,500,0.0,654,453,60,119.0,0,1,320,221,87,0,0,0,250,250,0,,,,,,,,,,,,
62123,0,1,2,0.81,-0.03,0.78,0,-2,0,0.81,10399,3,81,27,39,500,0.0,651,456,60,119.0,0,1,320,140,87,0,0,0,250,250,0,,,,,,,,,,,,
62143,0,1,2,0.79,-0.02,0.68,0,-3,1,0.79,10434,3,81,27,39,500,0.0,663,460,60,119.0,0,1,320,221,87,0,0,0,250,250,0,0.0,0.0,0.0,0.0,0,0.0,-1,0.0,0.0,0,0.0,1.0357
62163,0,4,2,0.74,-0.01,0.6,-0,-2,1,0.74,10405,3,81,27,39,500,0.0,664,457,60,119.0,0,1,320,221,87,0,0,0,250,250,0,,,,,,,,,,,,
62183,0,0,2,0.74,-0.03,0.53,0,-1,0,0.74,10439,3,81,27,39,500,0.0,667,453,60,119.0,0,1,320,221,87,0,0,0,250,250,0,,,,,,,,,,,,
62203,0,2,2,0.73,-0.0,0.48,0,-2,2,0.73,10405,3,81,27,39,500,0.0,661,457,60,119.0,0,1,320,220,87,0,0,0,250,250,0,,,,,,,,,,,,
62223,0,2,2,0.69,0.02,0.4,0,-2,2,0.69,10434,3,81,27,38,500,0.0,659,460,60,119.0,0,1,317,220,87,0,0,0,250,250,0,,,,,,,,,,,,
62243,0,1,2,0.67,0.01,0.35,0,-1,0,0.67,10393,3,81,27,37,500,0.0,654,456,60,119.0,0,1,314,220,87,0,0,0,250,250,0,0.0,0.0,0.0,0.0,0,0.0,-1,0.0,0.0,0,0.0,1.0374
62263,0,23,2,0.72,0.0,0.33,0,-1,-0,0.72,10387,3,81,27,36,500,0.0,658,457,60,119.0,0,1,311,219,87,0,0,0,250,250,0,,,,,,,,,,,,
62283,0,4,2,0.84,-0.02,0.43,0,-2,0,0.84,10296,3,81,27,35,500,0.0,660,458,60,119.0,0,1,308,218,86,0,0,0,250,250,0,,,,,,,,,,,,
62303,0,4,2,0.86,-0.03,0.54,0,-4,1,0.86,10257,3,81,27,35,500,0.0,652,457,60,119.0,0,1,308,218,86,0,0,0,250,250,0,,,,,,,,,,,,
62323,0,2,2,0.79,-0.01,0.62,0,-3,0,0.79,10168,3,81,27,34,500,0.0,658,457,60,119.0,0,1,305,216,86,0,0,0,250,250,0,,,,,,,,,,,,
62343,0,1,2,0.8,0.05,0.59,0,-1,-0,0.8,10032,3,82,27,33,500,0.0,662,457,60,119.0,0,1,302,212,86,0,0,0,250,250,0,0.0,0.0,0.0,0.0,0,0.0,-1,0.0,0.0,0,0.0,1.039
62363,0,4,2,0.92,-0.02,0.65,0,-4,0,0.92,9915,3,82,27,33,500,0.0,664,455,60,119.0,0,1,302,210,86,0,0,0,250,250,0,,,,,,,,,,,,
62383,0,1,2,0.68,0.02,0.58,0,-4,0,0.68,9765,3,82,27,33,500,0.0,655,456,60,119.0,0,1,302,208,78,0,0,0,250,250,0,,,,,,,,,,,,
62403,0,0,2,0.81,-0.05,0.67,0,-0,-0,0.81,9541,3,82,27,34,500,0.0,658,455,60,119.0,0,1,305,206,78,0,0,0,250,250,0,,,,,,,,,,,,
62423,0,4,2,0.8,-0.02,0.6,-0,-4,-0,0.8,9441,3,82,27,34,500,0.0,648,457,60,120.0,0,1,305,204,78,0,0,0,250,250,0,,,,,,,,,,,,
62443,0,5,2,0.52,0.06,0.58,-0,-3,-0,0.52,9309,3,82,27,34,500,0.0,648,458,60,120.0,0,1,305,202,78,0,0,0,250,250,0,0.0,0.0,0.0,0.0,0,0.0,-1,0.0,0.0,0,0.0,1.0407
62463,0,1,2,0.6,0.03,0.6,0,-0,-0,0.6,9236,3,82,27,33,500,0.0,638,458,60,120.0,0,1,302,198,78,0,0,0,250,250,0,,,,,,,,,,,,
62483,0,0,2,0.62,0.04,0.6,0,0,1,0.62,9173,3,82,27,33,500,0.0,645,455,60,119.0,0,1,302,197,68,0,0,0,250,250,0,,,,,,,,,,,,
62503,0,-0,2,0.72,0.05,0.57,1,1,-0,0.72,9128,3,82,27,32,500,0.0,643,456,60,119.0,0,1,300,193,68,0,0,0,250,250,0,,,,,,,,,,,,
62523,0,2,2,0.85,-0.01,0.62,1,-0,0,0.85,9084,3,82,27,31,500,0.0,647,455,60,119.0,0,1,295,191,68,0,0,0,250,250,0,,,,,,,,,,,,
62543,0,2,2,0.97,-0.04,0.64,0,-1,-1,0.97,9066,3,82,27,31,500,0.0,645,457,60,119.0,0,1,295,191,68,0,0,0,250,250,0,0.0,0.0,0.0,0.0,0,0.0,-1,0.0,0.0,0,0.0,1.0424
62563,0,-0,2,1.07,-0.11,0.67,0,-3,-1,1.08,9049,3,82,27,30,500,0.0,651,454,60,119.0,0,1,291,191,68,0,0,0,250,250,0,,,,,,,,,,,,
62583,0,-0,2,1.17,-0.12,0.67,0,-4,-1,1.17,8979,3,82,27,30,500,0.0,650,455,60,119.0,0,1,291,191,65,0,0,0,250,250,0,,,,,,,,,,,,
62603,0,1,2,1.25,-0.16,0.69,0,-5,-1,1.26,8941,3,82,27,30,500,0.0,659,453,60,119.0,0,1,291,191,65,0,0,0,250,250,0,,,,,,,,,,,,
62623,0,0,2,1.27,-0.12,0.67,1,-4,-2,1.28,8882,3,82,27,30,500,0.0,648,456,60,119.0,0,1,291,191,65,0,0,0,250,250,0,,,,,,,,,,,,
62643,0,5,2,1.24,-0.06,0.6,1,-3,-1,1.25,8840,3,82,27,30,500,0.0,642,456,60,119.0,0,1,291,110,65,0,0,0,250,250,0,0.0,0.0,0.0,0.0,0,0.0,-1,0.0,0.0,0,0.0,1.044
62663,0,3,2,1.1,0.03,0.53,1,-1,-2,1.1,8749,3,82,27,30,500,0.0,633,460,60,120.0,0,1,291,191,65,0,0,0,250,250,0,,,,,,,,,,,,
62683,0,3,2,0.95,0.04,0.52,1,-0,-1,0.95,8704,3,82,27,30,500,0.0,639,456,60,120.0,0,1,291,110,63,0,0,0,250,250,0,,,,,,,,,,,,
62703,0,1,2,1.0,-0.02,0.59,0,-1,-1,1.0,8636,3,82,27,30,500,0.0,639,459,60,120.0,0,1,291,110,63,0,0,0,250,250,0,,,,,,,,,,,,
62723,0,-0,2,1.03,-0.05,0.64,0,-2,-1,1.03,8585,3,82,27,30,500,0.0,642,456,60,120.0,0,1,291,191,63,0,0,0,250,250,0,,,,,,,,,,,,
62743,0,5,2,0.97,0.01,0.57,1,-1,-2,0.97,8522,3,82,27,30,500,0.0,643,457,60,119.0,0,1,291,191,63,0,0,0,250,250,0,0.0,0.0,0.0,0.0,0,0.0,-1,0.0,0.0,0,0.0,1.0457
62763,0,-0,2,0.93,-0.01,0.57,0,-1,-1,0.93,8514,3,82,27,31,500,0.0,630,460,60,120.0,0,1,295,191,63,0,0,0,250,250,0,,,,,,,,,,,,
62783,0,-1,2,1.01,-0.06,0.64,1,-1,-1,1.01,8465,3,82,27,31,500,0.0,628,457,60,120.0,0,1,294,188,61,0,0,0,250,250,0,,,,,,,,,,,,
62803,0,3,2,0.96,0.01,0.58,0,-1,-2,0.96,8393,3,82,27,31,500,0.0,636,454,60,120.0,0,1,293,185,61,0,0,0,250,250,0,,,,,,,,,,,,
62823,0,1,2,0.93,-0.07,0.66,0,-1,-1,0.93,8333,3,82,27,31,500,0.0,640,456,60,120.0,0,1,292,183,61,0,0,0,250,250,0,,,,,,,,,,,,
62843,0,4,2,0.87,0.02,0.6,0,-2,-1,0.87,8281,3,82,28,32,500,0.0,645,458,60,118.0,0,1,295,180,61,0,0,0,250,250,0,0.0,0.0,0.0,0.0,0,0.0,-1,0.0,0.0,0,0.0,1.0474
62863,0,1,2,0.9,-0.03,0.66,0,-1,-0,0.9,8278,3,82,28,32,500,0.0,630,457,60,120.0,0,1,295,181,61,0,0,0,250,250,0,,,,,,,,,,,,
62883,0,3,2,0.86,0.04,0.58,1,-1,-1,0.86,8216,3,82,28,32,500,0.0,635,454,60,119.0,0,1,294,99,56,0,0,0,250,250,0,,,,,,,,,,,,
62903,0,-0,2,0.92,0.02,0.63,0,-1,-0,0.92,8155,3,82,28,32,500,0.0,639,457,60,120.0,0,1,293,176,56,0,0,0,250,250,0,,,,,,,,,,,,
62923,0,1,2,0.9,0.07,0.62,0,-1,-1,0.91,8141,3,82,28,33,500,0.0,627,455,60,119.0,0,1,294,175,56,0,0,0,250,250,0,,,,,,,,,,,,
62943,0,4,2,0.93,0.01,0.66,1,-2,-0,0.93,8074,3,82,28,33,500,0.0,637,457,60,119.0,0,1,293,177,56,0,0,0,250,250,0,0.0,0.0,0.0,0.0,0,0.0,-1,0.0,0.0,0,0.0,1.049
62963,0,0,2,0.96,0.01,0.68,0,-1,-0,0.96,8009,3,82,28,33,500,0.0,626,455,60,120.0,0,1,292,176,56,0,0,0,250,250,0,,,,,,,,,,,,
62983,0,1,2,0.93,0.05,0.66,1,-2,-1,0.94,7978,3,82,28,34,500,0.0,631,457,60,119.0,0,1,295,175,54,0,0,0,250,250,0,,,,,,,,,,,,
63003,0,4,2,0.91,0.03,0.68,1,-2,-1,0.91,7914,3,82,28,34,500,0.0,623,460,60,120.0,0,1,295,181,54,0,0,0,250,250,0,,,,,,,,,,,,
63023,0,1,2,0.91,0.01,0.7,0,-1,-1,0.91,7841,3,82,28,34,500,0.0,632,454,60,120.0,0,1,295,181,54,0,0,0,250,250,0,,,,,,,,,,,,
63043,0,-0,2,0.93,0.01,0.74,0,-0,-1,0.93,7802,3,82,28,35,500,0.0,625,455,60,120.0,0,1,298,187,54,0,0,0,250,250,0,0.0,0.0,0.0,0.0,0,0.0,-1,0.0,0.0,0,0.0,1.0507
63063,0,1,2,0.95,0.06,0.62,1,0,-1,0.95,7757,3,82,28,35,500,0.0,629,456,60,119.0,0,1,298,187,54,0,0,0,250,250,0,,,,,,,,,,,,
63083,0,1,2,0.93,0.1,0.49,1,-1,-1,0.94,7741,3,82,28,36,500,0.0,635,458,60,119.0,0,1,301,193,56,0,0,0,250,250,0,,,,,,,,,,,,
63103,0,4,2,0.8,0.09,0.52,1,-1,-1,0.81,7716,3,82,28,36,500,0.0,642,460,60,119.0,0,1,301,193,56,0,0,0,250,250,0,,,,,,,,,,,,
63123,0,4,2,0.73,0.07,0.59,1,-1,-1,0.73,7671,3,82,28,36,500,0.0,638,455,60,120.0,0,1,301,113,56,0,0,0,250,250,0,,,,,,,,,,,,
63143,0,5,2,0.72,0.03,0.65,0,-1,-0,0.72,7643,3,82,28,37,500,0.0,633,457,60,119.0,0,1,304,199,56,0,0,0,250,250,0,0.0,0.0,0.0,0.0,0,0.0,-1,0.0,0.0,0,0.0,1.0524
63163,0,5,2,0.71,0.0,0.64,0,1,0,0.71,7597,3,82,28,37,500,0.0,612,453,60,120.0,0,1,304,199,56,0,0,0,250,250,0,,,,,,,,,,,,
63183,0,5,2,0.75,-0.02,0.69,-0,1,-1,0.75,7594,3,82,28,37,500,0.0,622,457,60,120.0,0,1,304,199,57,0,0,0,250,250,0,,,,,,,,,,,,
63203,0,1,2,0.79,-0.06,0.71,-0,2,-0,0.79,7563,3,82,28,38,500,0.0,621,456,60,120.0,0,1,307,125,57,0,0,0,250,250,0,,,,,,,,,,,,
63223,0,-0,2,0.86,-0.06,0.76,-0,1,1,0.86,7572,3,82,28,38,500,0.0,623,457,60,120.0,0,1,307,199,57,0,0,0,250,250,0,,,,,,,,,,,,
63243,0,-1,2,0.97,-0.09,0.78,-1,1,-0,0.98,7518,3,82,28,38,500,0.0,620,455,60,120.0,0,1,307,205,57,0,0,0,250,250,0,0.0,0.0,0.0,0.0,0,0.0,-1,0.0,0.0,0,0.0,1.054
63263,0,-2,2,1.04,-0.08,0.76,-1,0,-2,1.04,7530,3,82,28,38,500,0.0,629,455,60,120.0,0,1,307,205,57,0,0,0,250,250,0,,,,,,,,,,,,
63283,0,-0,2,1.09,-0.08,0.73,-1,0,-0,1.1,7482,3,82,28,38,500,0.0,622,455,60,120.0,0,1,307,204,58,0,0,0,250,250,0,,,,,,,,,,,,
63303,0,-0,2,1.19,-0.1,0.8,-1,-1,0,1.19,7518,3,82,28,38,500,0.0,633,458,60,120.0,0,1,307,205,58,0,0,0,250,250,0,,,,,,,,,,,,
63323,0,-0,2,1.27,-0.1,0.83,-1,-1,-1,1.27,7479,3,82,28,38,500,0.0,632,456,60,120.0,0,1,307,204,58,0,0,0,250,250,0,,,,,,,,,,,,
63343,0,0,2,1.31,-0.11,0.78,-1,-1,-2,1.31,7479,3,82,28,39,500,0.0,641,453,60,120.0,0,1,310,204,58,0,0,0,250,250,0,0.0,0.0,0.0,0.0,0,0.0,-1,0.0,0.0,0,0.0,1.0557
63363,0,4,2,1.33,-0.12,0.8,-1,1,0,1.34,7446,3,82,28,39,500,0.0,618,455,60,121.0,0,1,310,210,58,0,0,0,250,250,0,,,,,,,,,,,,
63383,0,5,2,1.38,-0.15,0.87,-1,0,0,1.38,7437,3,82,28,39,500,0.0,641,458,60,120.0,0,1,310,210,59,0,0,0,250,250,0,,,,,,,,,,,,
63403,0,4,2,1.37,-0.18,0.87,-1,1,-1,1.38,7396,3,82,28,39,500,0.0,609,456,60,120.0,0,1,310,130,59,0,0,0,250,250,0,,,,,,,,,,,,
63423,0,5,2,1.28,-0.23,0.86,-1,2,-2,1.3,7419,3,82,28,39,500,0.0,619,455,60,121.0,0,1,310,130,59,0,0,0,250,250,0,,,,,,,,,,,,
63443,0,3,2,1.17,-0.23,0.86,-1,3,1,1.19,7376,3,82,28,39,500,0.0,633,457,60,120.0,0,1,310,210,59,0,0,0,250,250,0,0.0,0.0,0.0,0.0,0,0.0,-1,0.0,0.0,0,0.0,1.0574
63463,0,1,2,1.02,-0.22,0.82,-1,4,2,1.05,7408,3,82,28,39,500,0.0,635,459,60,120.0,0,1,310,210,59,0,0,0,250,250,0,,,,,,,,,,,,
63483,0,3,2,0.86,-0.15,0.77,-1,5,0,0.87,7378,3,82,28,39,500,0.0,615,455,60,120.0,0,1,310,211,58,0,0,0,250,250,0,,,,,,,,,,,,
63503,0,0,2,0.72,-0.14,0.73,-1,3,-1,0.73,7413,3,82,28,39,500,0.0,626,458,60,120.0,0,1,310,211,58,0,0,0,250,250,0,,,,,,,,,,,,
63523,0,-0,2,0.65,-0.08,0.67,-1,3,2,0.65,7381,3,82,28,39,500,0.0,626,457,60,119.0,0,1,310,211,58,0,0,0,250,250,0,,,,,,,,,,,,
63543,0,-0,2,0.62,-0.0,0.61,-0,3,2,0.62,7396,3,82,28,40,500,0.0,623,460,60,119.0,0,1,317,211,58,0,0,0,250,250,0,0.0,0.0,0.0,0.0,0,0.0,-1,0.0,0.0,0,0.0,1.059
63563,0,0,2,0.65,0.05,0.58,-0,-0,0,0.65,7358,3,82,28,40,500,0.0,619,460,60,119.0,0,1,317,211,58,0,0,0,250,250,0,,,,,,,,,,,,
63583,0,-2,2,0.77,0.05,0.6,0,-2,-1,0.77,7402,3,82,28,40,500,0.0,626,461,60,119.0,0,1,317,211,59,0,0,0,250,250,0,,,,,,,,,,,,
63603,0,-1,2,0.86,0.06,0.58,0,-1,0,0.86,7422,3,82,28,40,500,0.0,632,454,60,119.0,0,1,317,211,59,0,0,0,250,250,0,,,,,,,,,,,,
63623,0,-1,2,0.95,0.08,0.58,0,-0,1,0.95,7399,3,82,28,40,500,0.0,630,458,60,120.0,0,1,317,211,59,0,0,0,250,250,0,,,,,,,,,,,,
63643,0,-1,2,1.05,0.03,0.68,0,-3,-1,1.06,7434,3,82,28,40,500,0.0,636,458,60,120.0,0,1,317,211,59,0,0,0,250,250,0,0.0,0.0,0.0,0.0,0,0.0,-1,0.0,0.0,0,0.0,1.0607
63663,0,1,2,1.15,-0.03,0.7,-0,-3,-2,1.15,7419,3,82,28,40,500,0.0,628,455,60,120.0,0,1,317,210,59,0,0,0,250,250,0,,,,,,,,,,,,
63683,0,3,2,1.2,-0.08,0.69,-0,-2,-1,1.2,7434,3,82,28,40,500,0.0,615,455,60,121.0,0,1,317,211,59,0,0,0,250,250,0,,,,,,,,,,,,
63703,0,6,2,1.19,-0.12,0.77,-1,-1,1,1.2,7411,3,82,28,40,500,0.0,614,456,60,120.0,0,1,317,131,59,0,0,0,250,250,0,,,,,,,,,,,,
63723,0,5,2,1.17,-0.14,0.83,-1,-1,1,1.18,7428,3,82,28,40,500,0.0,616,456,60,120.0,0,1,317,211,59,0,0,0,250,250,0,,,,,,,,,,,,
63743,0,4,2,1.08,-0.16,0.8,-1,2,-0,1.09,7413,3,82,28,40,500,0.0,610,452,60,121.0,0,1,317,211,59,0,0,0,250,250,0,0.0,0.0,0.0,0.0,0,0.0,-1,0.0,0.0,0,0.0,1.0624
63763,0,4,2,0.94,-0.21,0.8,-1,2,-1,0.97,7422,3,82,28,39,500,0.0,619,457,60,121.0,0,1,310,210,59,0,0,0,250,250,0,,,,,,,,,,,,
63783,0,3,2,0.83,-0.2,0.77,-1,3,1,0.85,7393,3,82,28,40,500,0.0,624,458,60,121.0,0,1,317,131,58,0,0,0,250,250,0,,,,,,,,,,,,
63803,0,2,2,0.7,-0.15,0.76,-1,3,2,0.71,7413,3,82,28,40,500,0.0,619,458,60,119.0,0,1,317,211,58,0,0,0,250,250,0,,,,,,,,,,,,
63823,0,2,2,0.55,-0.09,0.67,-1,3,1,0.55,7405,3,82,28,40,500,0.0,617,458,60,118.0,0,1,317,211,58,0,0,0,250,250,0,,,,,,,,,,,,
63843,0,0,2,0.45,-0.06,0.66,-1,1,-1,0.46,7402,3,82,28,40,500,0.0,623,462,60,119.0,0,1,317,211,58,0,0,0,250,250,0,0.0,0.0,0.0,0.0,0,0.0,-1,0.0,0.0,0,0.0,1.064
63863,0,1,2,0.45,-0.01,0.6,-0,2,1,0.45,7390,3,82,28,40,500,0.0,630,457,60,119.0,0,1,317,131,58,0,0,0,250,250,0,,,,,,,,,,,,
63883,0,1,2,0.47,0.06,0.55,0,2,2,0.48,7408,3,82,28,40,500,0.0,630,460,60,120.0,0,1,317,211,59,0,0,0,250,250,0,,,,,,,,,,,,
63903,0,0,2,0.57,0.1,0.54,0,-1,0,0.58,7381,3,82,28,40,500,0.0,637,458,60,120.0,0,1,317,211,59,0,0,0,250,250,0,,,,,,,,,,,,
63923,0,-2,2,0.71,0.11,0.58,1,-3,-2,0.72,7393,3,82,28,40,500,0.0,629,458,60,119.0,0,1,317,211,59,0,0,0,250,250,0,,,,,,,,,,,,
63943,0,-1,2,0.84,0.1,0.53,1,-2,-1,0.84,7419,3,82,28,40,500,0.0,628,459,60,119.0,0,1,317,131,59,0,0,0,250,250,0,0.0,0.0,0.0,0.0,0,0.0,-1,0.0,0.0,0,0.0,1.0657
63963,0,1,2,0.94,0.09,0.56,1,-1,0,0.95,7396,3,82,28,40,500,0.0,610,458,60,120.0,0,1,317,211,59,0,0,0,250,250,0,,,,,,,,,,,,
63983,0,-0,2,1.05,0.02,0.69,0,-4,-1,1.05,7428,3,82,28,40,500,0.0,629,458,60,120.0,0,1,317,211,59,0,0,0,250,250,0,,,,,,,,,,,,
64003,0,-2,2,1.14,-0.03,0.7,0,-3,-3,1.14,7411,3,82,28,40,500,0.0,618,455,60,120.0,0,1,317,211,59,0,0,0,250,250,0,,,,,,,,,,,,
64023,0,3,2,1.17,-0.09,0.68,-0,-2,-2,1.17,7461,3,82,28,40,500,0.0,618,453,60,120.0,0,1,317,211,59,0,0,0,250,250,0,,,,,,,,,,,,
64043,0,5,2,1.16,-0.13,0.74,-0,-0,0,1.17,7443,3,82,28,40,500,0.0,617,456,60,121.0,0,1,317,211,59,0,0,0,250,250,0,0.0,0.0,0.0,0.0,0,0.0,-1,0.0,0.0,0,0.0,1.0674
64063,0,4,2,1.16,-0.17,0.81,-1,-1,0,1.17,7458,3,82,28,40,500,0.0,619,457,60,120.0,0,1,317,211,59,0,0,0,250,250,0,,,,,,,,,,,,
64083,0,6,2,1.11,-0.18,0.82,-1,0,-2,1.13,7467,3,82,28,40,500,0.0,617,453,60,120.0,0,1,317,210,59,0,0,0,250,250,0,,,,,,,,,,,,
64103,0,3,2,1.06,-0.25,0.83,-1,0,-2,1.09,7488,3,82,28,40,500,0.0,623,454,60,120.0,0,1,317,210,59,0,0,0,250,250,0,,,,,,,,,,,,
64123,0,5,2,0.99,-0.28,0.82,-1,2,1,1.03,7482,3,82,28,39,500,0.0,617,455,60,120.0,0,1,310,210,59,0,0,0,250,250,0,,,,,,,,,,,,
64143,0,4,2,0.95,-0.29,0.87,-2,2,1,0.99,7497,3,82,28,39,500,0.0,623,457,60,120.0,0,1,310,210,59,0,0,0,250,250,0,0.0,0.0,0.0,0.0,0,0.0,-1,0.0,0.0,0,0.0,1.069
64163,0,4,2,0.89,-0.29,0.84,-2,4,0,0.93,7482,3,82,28,39,500,0.0,618,452,60,120.0,0,1,310,210,59,0,0,0,250,250,0,,,,,,,,,,,,
64183,0,5,2,0.83,-0.34,0.86,-2,4,-1,0.9,7500,3,82,28,39,500,0.0,617,458,60,120.0,0,1,310,211,60,0,0,0,250,250,0,,,,,,,,,,,,
64203,0,5,2,0.78,-0.37,0.87,-2,5,1,0.86,7485,3,82,28,39,500,0.0,620,456,60,120.0,0,1,310,210,60,0,0,0,250,250,0,,,,,,,,,,,,
64223,0,3,2,0.74,-0.36,0.9,-2,5,2,0.82,7527,3,82,28,39,500,0.0,622,456,60,120.0,0,1,310,211,60,0,0,0,250,250,0,,,,,,,,,,,,
64243,0,5,2,0.69,-0.35,0.87,-2,6,1,0.77,7491,3,82,28,39,500,0.0,620,455,60,120.0,0,1,310,210,60,0,0,0,250,250,0,0.0,0.0,0.0,0.0,0,0.0,-1,0.0,0.0,0,0.0,1.0707
64263,0,4,2,0.67,-0.39,0.9,-2,5,-0,0.78,7542,3,82,28,39,500,0.0,617,455,60,120.0,0,1,310,211,60,0,0,0,250,250,0,,,,,,,,,,,,
64283,0,5,2,0.66,-0.42,0.89,-2,6,2,0.79,7506,3,82,28,39,500,0.0,620,453,60,120.0,0,1,310,211,60,0,0,0,250,250,0,,,,,,,,,,,,
64303,0,4,2,0.66,-0.41,0.95,-2,5,3,0.78,7539,3,82,28,39,500,0.0,618,458,60,120.0,0,1,310,211,60,0,0,0,250,250,0,,,,,,,,,,,,
64323,0,5,2,0.66,-0.4,0.93,-2,6,1,0.77,7503,3,82,28,39,500,0.0,618,456,60,120.0,0,1,310,211,60,0,0,0,250,250,0,,,,,,,,,,,,
64343,0,4,2,0.68,-0.42,0.94,-2,6,-0,0.8,7521,3,82,28,39,500,0.0,622,454,60,120.0,0,1,310,131,60,0,0,0,250,250,0,0.0,0.0,0.0,0.0,0,0.0,-1,0.0,0.0,0,0.0,1.0724
64363,0,6,2,0.7,-0.44,0.93,-2,6,1,0.83,7494,3,82,28,39,500,0.0,618,455,60,120.0,0,1,310,210,60,0,0,0,250,250,0,,,,,,,,,,,,
64383,0,6,2,0.73,-0.45,0.97,-2,5,2,0.86,7506,3,82,28,39,500,0.0,624,456,60,120.0,0,1,310,211,60,0,0,0,250,250,0,,,,,,,,,,,,
64403,0,4,2,0.75,-0.44,0.95,-2,6,1,0.86,7494,3,82,28,39,500,0.0,621,453,60,120.0,0,1,310,210,60,0,0,0,250,250,0,,,,,,,,,,,,
64423,0,6,2,0.76,-0.45,0.95,-2,5,-0,0.88,7524,3,82,28,39,500,0.0,615,457,60,121.0,0,1,310,211,60,0,0,0,250,250,0,,,,,,,,,,,,
64443,0,5,2,0.75,-0.47,0.94,-2,6,1,0.89,7482,3,82,28,39,500,0.0,617,457,60,121.0,0,1,310,210,60,0,0,0,250,250,0,0.0,0.0,0.0,0.0,0,0.0,-1,0.0,0.0,0,0.0,1.074
64463,0,6,2,0.78,-0.46,0.97,-3,5,2,0.91,7524,3,82,28,39,500,0.0,624,457,60,120.0,0,1,310,211,60,0,0,0,250,250,0,,,,,,,,,,,,
64483,0,5,2,0.8,-0.46,0.96,-3,5,1,0.92,7512,3,82,28,39,500,0.0,617,454,60,121.0,0,1,310,211,59,0,0,0,250,250,0,,,,,,,,,,,,
64503,0,5,2,0.82,-0.46,0.95,-2,5,-0,0.94,7533,3,82,28,39,500,0.0,623,454,60,120.0,0,1,310,211,59,0,0,0,250,250,0,,,,,,,,,,,,
64523,0,15,2,0.83,-0.47,0.97,-2,5,1,0.95,7500,3,82,28,39,500,0.0,619,458,60,120.0,0,1,310,211,59,0,0,0,250,250,0,,,,,,,,,,,,
64543,0,8,2,0.88,-0.47,1.01,-2,4,1,1.0,7500,3,82,28,39,500,0.0,620,456,60,120.0,0,1,310,211,59,0,0,0,250,250,0,0.0,0.0,0.0,0.0,0,0.0,-1,0.0,0.0,0,0.0,1.0757
64563,0,0,2,0.92,-0.47,1.01,-2,4,-0,1.03,7482,3,82,28,39,500,0.0,613,453,60,120.0,0,1,310,210,59,0,0,0,250,250,0,,,,,,,,,,,,
64583,0,5,2,0.92,-0.47,0.99,-2,4,-1,1.04,7512,3,82,28,39,500,0.0,621,457,60,120.0,0,1,310,211,60,0,0,0,250,250,0,,,,,,,,,,,,
64603,0,5,2,0.93,-0.48,1.01,-2,4,1,1.04,7485,3,82,28,39,500,0.0,621,456,60,121.0,0,1,310,210,60,0,0,0,250,250,0,,,,,,,,,,,,
64623,0,-2,2,0.95,-0.48,1.04,-2,3,1,1.06,7515,3,82,28,39,500,0.0,619,458,60,120.0,0,1,310,211,60,0,0,0,250,250,0,,,,,,,,,,,,
64643,0,5,2,0.97,-0.47,1.02,-2,4,-0,1.07,7497,3,82,28,39,500,0.0,613,455,60,120.0,0,1,310,210,60,0,0,0,250,250,0,0.0,0.0,0.0,0.0,0,0.0,-1,0.0,0.0,0,0.0,1.0774
64663,0,-3,2,0.97,-0.48,1.01,-2,3,-1,1.08,7527,3,82,28,39,500,0.0,615,452,60,120.0,0,1,310,211,60,0,0,0,250,250,0,,,,,,,,,,,,
64683,0,0,2,0.97,-0.49,1.01,-2,4,0,1.09,7500,3,82,28,39,500,0.0,617,455,60,120.0,0,1,310,211,60,0,0,0,250,250,0,,,,,,,,,,,,
64703,0,4,2,1.0,-0.49,1.03,-2,3,1,1.11,7500,3,82,28,39,500,0.0,618,457,60,120.0,0,1,310,211,60,0,0,0,250,250,0,,,,,,,,,,,,
64723,0,5,2,1.01,-0.48,1.03,-2,4,-0,1.12,7491,3,82,28,39,500,0.0,615,453,60,120.0,0,1,310,210,60,0,0,0,250,250,0,,,,,,,,,,,,
64743,0,1,2,1.01,-0.48,1.01,-2,3,-1,1.12,7503,3,82,28,39,500,0.0,636,458,60,120.0,0,1,310,211,60,0,0,0,250,250,0,0.0,0.0,0.0,0.0,0,0.0,-1,0.0,0.0,0,0.0,1.079
64763,0,8,2,1.0,-0.49,1.01,-2,4,0,1.12,7479,3,82,28,39,500,0.0,634,457,60,120.0,0,1,310,210,60,0,0,0,250,250,0,,,,,,,,,,,,
64783,0,5,2,1.02,-0.48,1.03,-2,3,1,1.12,7512,3,82,28,39,500,0.0,621,458,60,120.0,0,1,310,211,59,0,0,0,250,250,0,,,,,,,,,,,,
64803,0,-1,2,1.03,-0.47,1.01,-2,3,-0,1.13,7509,3,82,28,39,500,0.0,615,453,60,120.0,0,1,310,211,59,0,0,0,250,250,0,,,,,,,,,,,,
64823,0,0,2,1.04,-0.48,0.99,-2,3,-2,1.14,7530,3,82,28,39,500,0.0,621,457,60,120.0,0,1,310,211,59,0,0,0,250,250,0,,,,,,,,,,,,
64843,0,1,2,1.04,-0.49,1.01,-2,3,0,1.15,7518,3,82,28,39,500,0.0,616,456,60,120.0,0,1,310,211,59,0,0,0,250,250,0,0.0,0.0,0.0,0.0,0,0.0,-1,0.0,0.0,0,0.0,1.0807
64863,0,-1,2,1.07,-0.48,1.05,-2,2,1,1.17,7545,3,82,28,39,500,0.0,623,458,60,120.0,0,1,310,211,59,0,0,0,250,250,0,,,,,,,,,,,,
64883,0,0,2,1.11,-0.47,1.03,-2,3,-1,1.2,7515,3,82,28,39,500,0.0,618,455,60,120.0,0,1,310,211,60,0,0,0,250,250,0,,,,,,,,,,,,
64903,0,-1,2,1.15,-0.45,1.01,-2,2,-2,1.23,7539,3,82,28,39,500,0.0,628,453,60,120.0,0,1,310,211,60,0,0,0,250,250,0,,,,,,,,,,,,
64923,0,-0,2,1.17,-0.46,1.01,-1,3,-0,1.26,7524,3,82,28,39,500,0.0,625,457,60,120.0,0,1,310,211,60,0,0,0,250,250,0,,,,,,,,,,,,
64943,0,0,2,1.24,-0.43,1.08,-2,1,0,1.31,7533,3,82,28,39,500,0.0,634,458,60,120.0,0,1,310,211,60,0,0,0,250,250,0,0.0,0.0,0.0,0.0,0,0.0,-1,0.0,0.0,0,0.0,1.0824
