"Interval"|"ms"|0|0|1,"Utc"|"ms"|0|0|1,"FB_p"|"bar"|0|300|50,"Volant"|"F"|0|300|50,"AccelX"|"G"|-3.0|3.0|50,"AccelY"|"G"|-3.0|3.0|50,"AccelZ"|"G"|-3.0|3.0|50,"Yaw"|"Deg/Sec"|-120|120|50,"Pitch"|"Deg/Sec"|-120|120|50,"Roll"|"Deg/Sec"|-120|120|50,"Gsum"|"G"|0.0|3.0|50,"RPM"|""|0|14000|50,"TPS"|"%"|0|100|50,"WaterTemp"|"?C"|0|300|50,"AirTemp"|"?C"|-1000|1000|50,"MAP"|"KPa"|0|255|50,"Lambda"|""|0|1024|50,"WheelSpeed"|"MPH"|0.0|150.0|50,"OilPress"|"PSI"|0|150|50,"FuelPress"|"PSI"|0|150|50,"OilTemp"|"F"|0|300|50,"Battery"|"Volts"|0.0|20.0|50,"FuelCon"|"L/h"|-1000|1000|50,"Gear"|""|0|10|50,"Advance"|"Deg"|-360|360|50,"Injection"|"ms"|-1000|1000|50,"FuelCon"|"L/100km"|-1000|1000|50,"LC_But_Pres"|""|-1000|1000|50,"LC_Active"|""|-1000|1000|50,"RD_Speed"|""|-1000|1000|50,"RUD_Speed"|""|-1000|1000|50,"LD_Speed"|""|-1000|1000|50,"LUD_Speed"|""|-1000|1000|50,"Latitude"|"Degrees"|-180.0|180.0|10,"Longitude"|"Degrees"|-180.0|180.0|10,"Speed"|"kph"|0.0|150.0|10,"Altitude"|"m"|0.0|4000.0|10,"LapCount"|""|0|0|10,"LapTime"|"Min"|0.0|0.0|10,"Sector"|""|0|0|10,"SectorTime"|"Min"|0.0|0.0|10,"ElapsedTime"|"Min"|0.0|0.0|10,"CurrentLap"|""|0|0|10,"Distance"|"mi"|0.0|0.0|10,"SessionTime"|"Min"|0.0|0.0|10
9803,0,0,2,1.04,-0.04,0.79,1,-4,24,1.05,7566,22,83,33,35,501,0.0,637,457,60,121.0,0,1,298,202,60,0,0,0,250,250,0,,,,,,,,,,,,
9823,0,1,2,1.04,-0.06,0.78,1,-3,25,1.04,7600,22,83,33,36,501,0.0,633,458,60,120.0,0,1,298,202,60,0,0,0,250,250,0,,,,,,,,,,,,
9843,0,3,2,0.99,0.04,0.77,1,-2,25,0.99,7557,22,82,33,36,501,0.0,624,455,60,120.0,0,1,301,208,60,0,0,0,250,250,0,0.0,0.0,0.0,0.0,0,0.0,-1,0.0,0.0,0,0.0,0.164
9863,0,2,2,0.94,0.06,0.67,1,-3,18,0.94,7575,22,82,33,36,500,0.0,631,457,60,120.0,0,1,301,201,60,0,0,0,250,250,0,,,,,,,,,,,,
9883,0,2,2,0.86,0.06,0.6,0,-4,16,0.86,7545,22,82,33,36,500,0.0,636,456,60,121.0,0,1,301,207,60,0,0,0,250,250,0,,,,,,,,,,,,
9903,0,2,2,0.82,0.05,0.58,0,-3,18,0.82,7591,22,82,33,36,500,0.0,637,456,60,120.0,0,1,301,207,59,0,0,0,250,250,0,,,,,,,,,,,,
9923,0,2,2,0.78,0.08,0.58,0,-2,16,0.79,7557,22,82,33,36,500,0.0,627,457,60,120.0,0,1,301,206,59,0,0,0,250,250,0,,,,,,,,,,,,
9943,0,1,2,0.68,0.07,0.48,0,-2,12,0.69,7575,22,82,33,36,500,0.0,631,457,60,120.0,0,1,301,205,59,0,0,0,250,250,0,0.0,0.0,0.0,0.0,0,0.0,-1,0.0,0.0,0,0.0,0.1657
9963,0,3,2,0.59,0.01,0.41,-0,-1,10,0.59,7548,22,82,33,36,500,0.0,623,457,60,120.0,0,1,301,205,59,0,0,0,250,250,0,,,,,,,,,,,,
9983,0,3,2,0.56,0.01,0.35,-0,1,13,0.56,7545,22,81,33,36,500,0.0,638,461,60,119.0,0,1,301,204,59,0,0,0,250,250,0,,,,,,,,,,,,
10003,0,2,2,0.54,0.03,0.38,-1,2,10,0.54,7563,22,81,33,36,500,0.0,639,458,60,119.0,0,1,301,204,58,0,0,0,250,250,0,,,,,,,,,,,,
10023,0,2,2,0.52,0.02,0.33,-1,2,7,0.52,7581,22,81,33,36,500,0.0,638,456,60,120.0,0,1,301,204,58,0,0,0,250,250,0,,,,,,,,,,,,
10043,0,5,2,0.5,-0.06,0.33,-1,3,7,0.51,7560,22,81,33,36,500,0.0,629,460,60,119.0,0,1,301,203,58,0,0,0,250,250,0,0.0,0.0,0.0,0.0,0,0.0,-1,0.0,0.0,0,0.0,0.1674
10063,0,3,2,0.52,-0.07,0.37,-1,4,9,0.52,7542,22,81,33,36,500,0.0,633,457,60,119.0,0,1,301,202,58,0,0,0,250,250,0,,,,,,,,,,,,
10083,0,4,2,0.56,-0.07,0.44,-1,3,5,0.57,7572,22,80,33,36,500,0.0,631,457,60,120.0,0,1,301,202,58,0,0,0,250,250,0,,,,,,,,,,,,
10103,0,5,2,0.62,-0.08,0.44,-1,2,4,0.62,7566,22,80,33,36,500,0.0,636,453,60,120.0,0,1,301,200,57,0,0,0,250,250,0,,,,,,,,,,,,
10123,0,18,2,0.69,-0.11,0.48,-1,3,6,0.7,7578,22,80,33,36,500,0.0,639,457,60,120.0,0,1,301,200,57,0,0,0,250,250,0,,,,,,,,,,,,
10143,0,0,2,0.74,-0.11,0.56,-1,2,6,0.75,7560,22,80,33,36,500,0.0,635,457,60,120.0,0,1,301,199,57,0,0,0,250,250,0,0.0,0.0,0.0,0.0,0,0.0,-1,0.0,0.0,0,0.0,0.169
10163,0,0,2,0.83,-0.11,0.64,-1,-1,3,0.84,7572,22,80,33,36,500,0.0,637,461,60,121.0,0,1,301,199,57,0,0,0,250,250,0,,,,,,,,,,,,
10183,0,-0,2,0.93,-0.14,0.72,-1,-3,3,0.94,7443,22,80,33,35,501,0.0,636,455,60,122.0,0,1,298,197,57,0,0,0,250,250,0,,,,,,,,,,,,
10203,0,-1,2,0.98,-0.14,0.72,-0,-2,4,0.99,7261,22,80,33,36,502,0.0,637,459,60,121.0,0,1,301,197,54,0,0,0,250,250,0,,,,,,,,,,,,
10223,0,-1,2,0.9,-0.13,0.7,-0,-0,4,0.9,7088,22,80,33,37,503,0.0,623,456,60,122.0,0,1,304,197,54,0,0,0,250,250,0,,,,,,,,,,,,
10243,0,-0,2,0.76,-0.0,0.58,0,2,2,0.76,6845,22,79,33,37,504,0.0,622,457,60,122.0,0,1,304,202,54,0,0,0,250,250,0,0.0,0.0,0.0,0.0,0,0.0,-1,0.0,0.0,0,0.0,0.1707
10263,0,1,2,0.88,-0.02,0.61,-0,-1,0,0.88,6641,22,79,33,38,506,0.0,614,457,60,122.0,0,1,307,332,54,0,0,0,250,250,0,,,,,,,,,,,,
10283,0,5,2,0.81,-0.03,0.57,-0,-2,2,0.81,6463,22,79,33,39,506,0.0,607,458,60,121.0,0,1,310,315,54,0,0,0,250,250,0,,,,,,,,,,,,
10303,0,-2,2,0.72,-0.02,0.44,0,1,3,0.72,6410,22,79,33,40,505,0.0,592,456,60,120.0,0,1,316,291,71,0,0,0,250,250,0,,,,,,,,,,,,
10323,0,-1,2,0.8,-0.0,0.45,0,2,2,0.8,6476,22,79,33,41,504,0.0,591,457,60,119.0,0,1,323,264,71,0,0,0,250,250,0,,,,,,,,,,,,
10343,0,4,2,0.86,-0.02,0.55,0,0,1,0.86,6494,22,79,33,42,503,0.0,590,457,60,120.0,0,1,330,238,71,0,0,0,250,250,0,0.0,0.0,0.0,0.0,0,0.0,-1,0.0,0.0,0,0.0,0.1724
10363,0,-2,2,0.75,-0.02,0.48,-0,2,1,0.75,6492,22,79,33,42,502,0.0,592,457,60,121.0,0,1,330,215,71,0,0,0,250,250,0,,,,,,,,,,,,
10383,0,0,2,0.81,-0.06,0.51,0,1,1,0.82,6574,22,79,33,43,501,0.0,595,461,60,119.0,0,1,337,218,71,0,0,0,250,250,0,,,,,,,,,,,,
10403,0,4,2,0.8,0.01,0.59,0,-1,2,0.8,6585,22,79,33,43,501,0.0,591,456,60,121.0,0,1,337,218,54,0,0,0,250,250,0,,,,,,,,,,,,
10423,0,-0,2,0.79,-0.05,0.59,0,0,2,0.79,6595,22,78,33,44,501,0.0,597,457,60,120.0,0,1,344,217,54,0,0,0,250,250,0,,,,,,,,,,,,
10443,0,3,2,0.87,-0.06,0.66,0,-1,1,0.87,6572,22,78,33,44,501,0.0,601,458,60,120.0,0,1,344,217,54,0,0,0,250,250,0,0.0,0.0,0.0,0.0,0,0.0,-1,0.0,0.0,0,0.0,0.174
10463,0,0,2,0.74,0.04,0.57,0,1,1,0.74,6585,22,78,33,44,501,0.0,594,456,60,121.0,0,1,344,216,54,0,0,0,250,250,0,,,,,,,,,,,,
10483,0,1,2,0.83,0.0,0.61,0,0,-0,0.83,6620,22,78,33,44,501,0.0,595,462,60,119.0,0,1,345,216,54,0,0,0,250,250,0,,,,,,,,,,,,
10503,0,4,2,0.83,-0.02,0.64,0,-3,0,0.83,6651,22,78,33,44,501,0.0,603,462,60,120.0,0,1,345,216,54,0,0,0,250,250,0,,,,,,,,,,,,
10523,0,-1,2,0.75,-0.03,0.56,0,-0,1,0.75,6672,22,78,33,45,501,0.0,607,455,60,120.0,0,1,352,217,54,0,0,0,250,250,0,,,,,,,,,,,,
10543,0,3,2,0.85,-0.01,0.66,0,-3,1,0.85,6689,22,78,33,45,501,0.0,616,460,60,120.0,0,1,352,217,54,0,0,0,250,250,0,0.0,0.0,0.0,0.0,0,0.0,-1,0.0,0.0,0,0.0,0.1757
10563,0,0,2,0.73,-0.06,0.6,0,-1,2,0.73,6715,22,78,33,45,501,0.0,611,457,60,121.0,0,1,352,217,54,0,0,0,250,250,0,,,,,,,,,,,,
10583,0,4,2,0.8,-0.03,0.73,0,-3,1,0.8,6773,22,78,33,45,501,0.0,611,461,60,119.0,0,1,352,217,54,0,0,0,250,250,0,,,,,,,,,,,,
10603,0,1,2,0.74,-0.08,0.63,0,-1,2,0.74,6820,22,77,33,44,501,0.0,613,459,60,120.0,0,1,346,216,55,0,0,0,250,250,0,,,,,,,,,,,,
10623,0,5,2,0.77,-0.05,0.7,1,-2,1,0.77,6840,22,77,33,44,501,0.0,613,453,60,121.0,0,1,346,216,55,0,0,0,250,250,0,,,,,,,,,,,,
10643,0,2,2,0.75,-0.1,0.71,0,-1,-1,0.76,6885,22,77,33,44,501,0.0,610,454,60,120.0,0,1,346,216,55,0,0,0,250,250,0,0.0,0.0,0.0,0.0,0,0.0,-1,0.0,0.0,0,0.0,0.1774
10663,0,-0,2,0.71,-0.08,0.64,0,-2,-0,0.71,6936,22,77,33,44,501,0.0,614,459,60,121.0,0,1,346,215,55,0,0,0,250,250,0,,,,,,,,,,,,
10683,0,4,2,0.84,-0.06,0.7,1,-3,0,0.84,6978,22,77,33,43,501,0.0,625,458,60,120.0,0,1,339,216,55,0,0,0,250,250,0,,,,,,,,,,,,
10703,0,2,2,0.68,-0.1,0.56,0,0,2,0.68,7004,22,77,33,43,501,0.0,620,458,60,121.0,0,1,340,215,57,0,0,0,250,250,0,,,,,,,,,,,,
10723,0,-0,2,0.71,0.02,0.59,0,-0,2,0.71,7056,22,77,33,43,500,0.0,612,456,60,121.0,0,1,340,215,57,0,0,0,250,250,0,,,,,,,,,,,,
10743,0,5,2,0.84,-0.02,0.7,1,-2,1,0.84,7091,22,77,33,42,501,0.0,617,457,60,121.0,0,1,332,213,57,0,0,0,250,250,0,0.0,0.0,0.0,0.0,0,0.0,-1,0.0,0.0,0,0.0,0.179
10763,0,3,2,0.82,-0.04,0.72,0,-2,-2,0.82,7123,22,77,33,42,501,0.0,618,456,60,119.0,0,1,332,213,57,0,0,0,250,250,0,,,,,,,,,,,,
10783,0,2,2,0.62,-0.04,0.46,0,1,-2,0.62,7211,22,77,33,42,501,0.0,625,458,60,120.0,0,1,332,213,57,0,0,0,250,250,0,,,,,,,,,,,,
10803,0,0,2,0.66,-0.02,0.51,-0,1,-1,0.66,7205,22,76,33,41,501,0.0,627,457,60,120.0,0,1,325,211,57,0,0,0,250,250,0,,,,,,,,,,,,
10823,0,-2,2,0.8,0.02,0.58,0,-1,3,0.8,7298,22,76,33,41,501,0.0,625,456,60,121.0,0,1,325,211,57,0,0,0,250,250,0,,,,,,,,,,,,
10843,0,0,2,0.91,0.0,0.71,1,-3,1,0.91,7329,22,76,33,41,501,0.0,630,460,60,119.0,0,1,325,211,57,0,0,0,250,250,0,0.0,0.0,0.0,0.0,0,0.0,-1,0.0,0.0,0,0.0,0.1807
10863,0,5,2,0.98,-0.01,0.75,1,-6,-2,0.98,7384,22,76,33,40,501,0.0,638,458,60,120.0,0,1,317,209,57,0,0,0,250,250,0,,,,,,,,,,,,
10883,0,5,2,0.99,-0.04,0.7,1,-6,-3,0.99,7416,22,76,33,40,501,0.0,641,454,60,120.0,0,1,317,209,57,0,0,0,250,250,0,,,,,,,,,,,,
10903,0,5,2,0.93,-0.12,0.66,1,-3,0,0.94,7482,22,76,33,39,500,0.0,638,458,60,120.0,0,1,310,208,58,0,0,0,250,250,0,,,,,,,,,,,,
10923,0,4,2,0.89,-0.12,0.65,1,-2,2,0.9,7515,22,76,33,39,501,0.0,634,458,60,120.0,0,1,310,209,58,0,0,0,250,250,0,,,,,,,,,,,,
10943,0,4,2,0.92,-0.11,0.65,1,-3,-2,0.92,7575,22,76,33,38,501,0.0,633,458,60,120.0,0,1,307,203,58,0,0,0,250,250,0,0.0,0.0,0.0,0.0,0,0.0,-1,0.0,0.0,0,0.0,0.1824
10963,0,0,2,0.96,-0.1,0.6,1,-4,-4,0.96,7578,22,76,33,38,501,0.0,643,452,60,121.0,0,1,307,203,58,0,0,0,250,250,0,,,,,,,,,,,,
10983,0,-2,2,1.03,-0.16,0.64,1,-3,-2,1.04,7621,22,76,33,37,500,0.0,636,458,60,121.0,0,1,304,203,58,0,0,0,250,250,0,,,,,,,,,,,,
11003,0,0,2,1.07,-0.15,0.68,1,-2,3,1.08,7628,22,76,33,37,500,0.0,632,458,60,121.0,0,1,304,197,57,0,0,0,250,250,0,,,,,,,,,,,,
11023,0,-2,2,1.13,-0.08,0.76,2,-4,-1,1.14,7656,22,75,33,37,500,0.0,636,458,60,120.0,0,1,304,197,57,0,0,0,250,250,0,,,,,,,,,,,,
11043,0,0,2,1.2,-0.11,0.81,2,-7,-4,1.21,7665,22,75,33,36,500,0.0,631,458,60,121.0,0,1,301,197,57,0,0,0,250,250,0,0.0,0.0,0.0,0.0,0,0.0,-1,0.0,0.0,0,0.0,0.184
11063,0,1,2,1.18,-0.13,0.78,1,-4,0,1.19,7706,22,75,33,36,500,0.0,638,458,60,121.0,0,1,301,191,57,0,0,0,250,250,0,,,,,,,,,,,,
11083,0,4,2,1.09,-0.06,0.78,1,-3,3,1.1,7684,22,75,33,36,500,0.0,628,457,60,120.0,0,1,301,191,57,0,0,0,250,250,0,,,,,,,,,,,,
11103,0,3,2,0.95,-0.02,0.66,1,-3,-2,0.95,7719,22,75,33,36,500,0.0,639,460,60,120.0,0,1,301,191,55,0,0,0,250,250,0,,,,,,,,,,,,
11123,0,3,2,1.03,-0.06,0.67,1,-3,-4,1.03,7738,22,75,33,36,500,0.0,636,456,60,120.0,0,1,301,191,55,0,0,0,250,250,0,,,,,,,,,,,,
11143,0,-2,2,1.06,-0.14,0.64,1,-1,2,1.07,7719,22,75,33,36,500,0.0,645,460,60,119.0,0,1,301,191,55,0,0,0,250,250,0,0.0,0.0,0.0,0.0,0,0.0,-1,0.0,0.0,0,0.0,0.1857
11163,0,0,2,1.04,-0.05,0.64,1,-2,2,1.04,7760,22,75,33,36,500,0.0,640,458,60,121.0,0,1,301,191,55,0,0,0,250,250,0,,,,,,,,,,,,
11183,0,1,2,0.96,-0.03,0.63,1,-5,-4,0.96,7684,22,75,33,35,500,0.0,635,455,60,120.0,0,1,298,185,55,0,0,0,250,250,0,,,,,,,,,,,,
11203,0,2,2,0.86,-0.06,0.5,1,-4,-1,0.86,7754,22,75,33,35,500,0.0,642,458,60,121.0,0,1,298,185,54,0,0,0,250,250,0,,,,,,,,,,,,
11223,0,2,2,0.86,-0.06,0.55,1,-2,3,0.86,7728,22,75,33,35,500,0.0,636,457,60,120.0,0,1,298,185,54,0,0,0,250,250,0,,,,,,,,,,,,
11243,0,5,2,0.9,0.0,0.57,0,-1,-1,0.9,7731,22,75,33,35,500,0.0,642,457,60,120.0,0,1,298,185,54,0,0,0,250,250,0,0.0,0.0,0.0,0.0,0,0.0,-1,0.0,0.0,0,0.0,0.1874
11263,0,1,2,1.01,-0.02,0.57,0,-1,-4,1.01,7757,22,75,33,35,500,0.0,637,456,60,120.0,0,1,298,185,54,0,0,0,250,250,0,,,,,,,,,,,,
11283,0,-1,2,1.01,0.0,0.52,1,-0,2,1.01,7712,22,74,33,35,500,0.0,631,457,60,121.0,0,1,298,185,54,0,0,0,250,250,0,,,,,,,,,,,,
11303,0,2,2,0.94,0.08,0.51,1,-1,2,0.95,7744,22,74,33,35,500,0.0,633,459,60,121.0,0,1,298,185,54,0,0,0,250,250,0,,,,,,,,,,,,
11323,0,3,2,0.82,0.07,0.46,1,-3,-3,0.83,7716,22,74,33,35,500,0.0,640,456,60,120.0,0,1,298,185,54,0,0,0,250,250,0,,,,,,,,,,,,
11343,0,3,2,0.74,0.01,0.36,1,-1,-0,0.74,7690,22,74,33,35,500,0.0,638,460,60,120.0,0,1,298,185,54,0,0,0,250,250,0,0.0,0.0,0.0,0.0,0,0.0,-1,0.0,0.0,0,0.0,0.189
11363,0,2,2,0.78,0.01,0.39,0,1,3,0.78,7687,22,74,33,35,500,0.0,636,456,60,119.0,0,1,298,185,54,0,0,0,250,250,0,,,,,,,,,,,,
11383,0,3,2,0.83,0.05,0.43,0,1,-1,0.83,7700,22,74,33,35,500,0.0,638,458,60,120.0,0,1,298,185,54,0,0,0,250,250,0,,,,,,,,,,,,
11403,0,0,2,0.95,0.02,0.45,0,0,-3,0.95,7706,22,74,33,35,500,0.0,643,456,60,120.0,0,1,298,185,53,0,0,0,250,250,0,,,,,,,,,,,,
11423,0,-0,2,0.96,0.04,0.45,1,1,3,0.96,7697,22,74,33,35,500,0.0,638,456,60,121.0,0,1,298,185,53,0,0,0,250,250,0,,,,,,,,,,,,
11443,0,0,2,0.92,0.13,0.47,1,-0,3,0.93,7725,22,74,33,35,500,0.0,644,458,60,121.0,0,1,298,185,53,0,0,0,250,250,0,0.0,0.0,0.0,0.0,0,0.0,-1,0.0,0.0,0,0.0,0.1907
11463,0,2,2,0.81,0.13,0.44,1,-3,-4,0.82,7693,22,74,33,35,500,0.0,635,456,60,120.0,0,1,298,185,53,0,0,0,250,250,0,,,,,,,,,,,,
11483,0,3,2,0.71,0.07,0.34,1,-1,-0,0.72,7712,22,74,33,35,500,0.0,639,458,60,120.0,0,1,298,185,53,0,0,0,250,250,0,,,,,,,,,,,,
11503,0,2,2,0.71,0.07,0.42,0,1,4,0.71,7728,22,74,33,35,500,0.0,636,457,60,120.0,0,1,298,185,54,0,0,0,250,250,0,,,,,,,,,,,,
11523,0,5,2,0.73,0.11,0.45,-0,1,-0,0.74,7684,22,74,33,35,500,0.0,636,457,60,120.0,0,1,298,185,54,0,0,0,250,250,0,,,,,,,,,,,,
11543,0,-1,2,0.84,0.06,0.47,0,1,-3,0.84,7693,22,74,33,35,500,0.0,636,458,60,120.0,0,1,298,185,54,0,0,0,250,250,0,0.0,0.0,0.0,0.0,0,0.0,-1,0.0,0.0,0,0.0,0.1924
11563,0,-1,2,0.89,0.06,0.52,0,2,3,0.9,7643,22,74,33,35,500,0.0,627,458,60,120.0,0,1,298,185,54,0,0,0,250,250,0,,,,,,,,,,,,
11583,0,-0,2,0.91,0.12,0.58,1,0,2,0.91,7684,22,74,33,35,500,0.0,642,458,60,121.0,0,1,298,185,54,0,0,0,250,250,0,,,,,,,,,,,,
11603,0,1,2,0.89,0.13,0.64,1,-3,-3,0.9,7637,22,74,33,35,500,0.0,631,455,60,121.0,0,1,298,185,53,0,0,0,250,250,0,,,,,,,,,,,,
11623,0,-0,2,0.85,0.05,0.62,1,-3,-0,0.85,7643,22,74,33,35,500,0.0,629,457,60,121.0,0,1,298,185,53,0,0,0,250,250,0,,,,,,,,,,,,
11643,0,2,2,0.79,0.08,0.65,1,-2,4,0.79,7618,22,74,33,35,500,0.0,633,457,60,121.0,0,1,298,185,53,0,0,0,250,250,0,0.0,0.0,0.0,0.0,0,0.0,-1,0.0,0.0,0,0.0,0.194
11663,0,2,2,0.67,0.11,0.52,1,-2,-0,0.67,7634,22,73,33,35,500,0.0,636,458,60,120.0,0,1,298,185,53,0,0,0,250,250,0,,,,,,,,,,,,
11683,0,2,2,0.57,0.02,0.45,0,-2,-4,0.57,7575,22,73,33,35,500,0.0,631,456,60,120.0,0,1,298,185,53,0,0,0,250,250,0,,,,,,,,,,,,
11703,0,4,2,0.57,-0.05,0.36,0,1,2,0.57,7594,22,73,33,35,500,0.0,635,459,60,119.0,0,1,298,185,53,0,0,0,250,250,0,,,,,,,,,,,,
11723,0,2,2,0.57,-0.01,0.4,-0,2,4,0.57,7548,22,73,33,35,500,0.0,633,458,60,119.0,0,1,298,185,53,0,0,0,250,250,0,,,,,,,,,,,,
11743,0,2,2,0.57,-0.0,0.38,-0,2,-2,0.57,7530,22,73,33,36,500,0.0,642,457,60,119.0,0,1,301,185,53,0,0,0,250,250,0,0.0,0.0,0.0,0.0,0,0.0,-1,0.0,0.0,0,0.0,0.1957
11763,0,4,2,0.56,-0.12,0.36,-1,3,-4,0.57,7506,22,73,33,36,500,0.0,638,459,60,121.0,0,1,301,191,53,0,0,0,250,250,0,,,,,,,,,,,,
11783,0,2,2,0.56,-0.14,0.33,-1,7,4,0.58,7452,22,73,33,36,500,0.0,638,460,60,120.0,0,1,301,190,53,0,0,0,250,250,0,,,,,,,,,,,,
11803,0,3,2,0.53,-0.09,0.37,-1,7,3,0.54,7422,22,73,33,36,500,0.0,623,455,60,121.0,0,1,301,190,53,0,0,0,250,250,0,,,,,,,,,,,,
11823,0,3,2,0.45,-0.07,0.3,-1,7,-3,0.45,7437,22,73,33,36,500,0.0,631,458,60,120.0,0,1,301,190,53,0,0,0,250,250,0,,,,,,,,,,,,
11843,0,1,2,0.36,-0.16,0.21,-1,8,-3,0.4,7373,22,73,33,36,500,0.0,627,460,60,120.0,0,1,301,190,53,0,0,0,250,250,0,0.0,0.0,0.0,0.0,0,0.0,-1,0.0,0.0,0,0.0,0.1974
11863,0,1,2,0.35,-0.15,0.21,-1,9,4,0.38,7405,22,73,33,36,501,0.0,628,456,60,120.0,0,1,301,190,53,0,0,0,250,250,0,,,,,,,,,,,,
11883,0,-1,2,0.32,-0.04,0.23,-1,8,3,0.32,7367,22,73,33,36,501,0.0,630,458,60,121.0,0,1,301,190,53,0,0,0,250,250,0,,,,,,,,,,,,
11903,0,0,2,0.32,-0.02,0.2,-1,4,-3,0.32,7384,22,73,33,37,501,0.0,625,456,60,121.0,0,1,304,190,54,0,0,0,250,250,0,,,,,,,,,,,,
11923,0,-2,2,0.43,-0.05,0.28,-1,1,-3,0.44,7350,22,73,33,37,501,0.0,642,455,60,120.0,0,1,304,196,54,0,0,0,250,250,0,,,,,,,,,,,,
11943,0,-0,2,0.56,-0.03,0.32,-0,1,4,0.56,7376,22,73,33,37,501,0.0,631,459,60,121.0,0,1,304,196,54,0,0,0,250,250,0,0.0,0.0,0.0,0.0,0,0.0,-1,0.0,0.0,0,0.0,0.199
11963,0,3,2,0.66,0.04,0.45,0,1,4,0.66,7350,22,73,33,37,501,0.0,622,459,60,121.0,0,1,304,196,54,0,0,0,250,250,0,,,,,,,,,,,,
11983,0,3,2,0.79,0.04,0.52,0,-1,-3,0.8,7364,22,73,33,37,501,0.0,630,461,60,120.0,0,1,304,196,54,0,0,0,250,250,0,,,,,,,,,,,,
12003,0,2,2,0.87,-0.01,0.52,0,0,-4,0.87,7350,22,73,33,37,501,0.0,630,456,60,120.0,0,1,304,196,54,0,0,0,250,250,0,,,,,,,,,,,,
12023,0,2,2,0.84,-0.11,0.51,0,3,0,0.85,7373,22,73,33,37,501,0.0,630,460,60,119.0,0,1,304,196,54,0,0,0,250,250,0,,,,,,,,,,,,
12043,0,3,2,0.74,-0.09,0.49,-0,5,4,0.74,7361,22,73,33,37,501,0.0,628,459,60,120.0,0,1,304,196,54,0,0,0,250,250,0,0.0,0.0,0.0,0.0,0,0.0,-1,0.0,0.0,0,0.0,0.2007
12063,0,0,2,0.65,-0.05,0.46,-0,5,0,0.65,7355,22,73,33,38,500,0.0,613,460,60,121.0,0,1,307,202,54,0,0,0,250,250,0,,,,,,,,,,,,
12083,0,1,2,0.53,-0.05,0.31,-0,4,-3,0.53,7373,22,73,33,38,500,0.0,631,456,60,120.0,0,1,307,196,54,0,0,0,250,250,0,,,,,,,,,,,,
12103,0,-0,2,0.5,-0.07,0.34,-1,3,-2,0.5,7341,22,73,33,37,500,0.0,627,455,60,121.0,0,1,304,202,56,0,0,0,250,250,0,,,,,,,,,,,,
12123,0,-2,2,0.55,-0.05,0.38,-0,4,3,0.55,7381,22,73,33,38,500,0.0,617,459,60,121.0,0,1,307,202,56,0,0,0,250,250,0,,,,,,,,,,,,
12143,0,-2,2,0.59,0.06,0.43,0,2,2,0.6,7373,22,73,33,38,500,0.0,626,456,60,121.0,0,1,307,202,56,0,0,0,250,250,0,0.0,0.0,0.0,0.0,0,0.0,-1,0.0,0.0,0,0.0,0.2024
12163,0,1,2,0.71,0.06,0.53,0,-2,-3,0.71,7422,22,73,33,37,500,0.0,631,460,60,120.0,0,1,304,196,56,0,0,0,250,250,0,,,,,,,,,,,,
12183,0,0,2,0.84,0.02,0.61,0,-4,-3,0.84,7399,22,73,33,37,500,0.0,633,453,60,119.0,0,1,304,196,56,0,0,0,250,250,0,,,,,,,,,,,,
12203,0,1,2,0.95,0.02,0.65,1,-2,2,0.95,7452,22,73,33,37,500,0.0,624,457,60,121.0,0,1,304,202,56,0,0,0,250,250,0,,,,,,,,,,,,
12223,0,0,2,1.0,0.04,0.75,1,-2,3,1.0,7419,22,73,33,37,500,0.0,638,461,60,119.0,0,1,304,196,56,0,0,0,250,250,0,,,,,,,,,,,,
12243,0,5,2,1.09,0.05,0.78,1,-4,-2,1.09,7488,22,73,33,37,500,0.0,633,458,60,120.0,0,1,304,196,56,0,0,0,250,250,0,0.0,0.0,0.0,0.0,0,0.0,-1,0.0,0.0,0,0.0,0.204
12263,0,5,2,1.18,0.01,0.77,1,-4,-4,1.18,7488,22,73,33,37,500,0.0,640,455,60,120.0,0,1,304,196,56,0,0,0,250,250,0,,,,,,,,,,,,
12283,0,22,2,1.23,-0.04,0.78,1,-3,-0,1.24,7536,22,73,33,37,500,0.0,635,457,60,120.0,0,1,304,197,56,0,0,0,250,250,0,,,,,,,,,,,,
12303,0,4,2,1.26,-0.04,0.85,1,-2,3,1.26,7494,22,73,33,37,500,0.0,637,460,60,120.0,0,1,304,196,55,0,0,0,250,250,0,,,,,,,,,,,,
12323,0,7,2,1.3,-0.01,0.85,1,-4,-2,1.3,7533,22,73,33,37,501,0.0,630,458,60,120.0,0,1,304,197,55,0,0,0,250,250,0,,,,,,,,,,,,
12343,0,-0,2,1.37,-0.03,0.85,1,-6,-5,1.37,7506,22,73,33,37,501,0.0,643,455,60,119.0,0,1,304,197,55,0,0,0,250,250,0,0.0,0.0,0.0,0.0,0,0.0,-1,0.0,0.0,0,0.0,0.2057
12363,0,1,2,1.42,-0.07,0.84,1,-4,-1,1.42,7539,22,73,33,37,500,0.0,630,459,60,121.0,0,1,304,197,55,0,0,0,250,250,0,,,,,,,,,,,,
12383,0,-0,2,1.42,-0.06,0.9,1,-2,3,1.42,7497,22,73,33,37,500,0.0,635,458,60,119.0,0,1,304,196,55,0,0,0,250,250,0,,,,,,,,,,,,
12403,0,-1,2,1.45,-0.02,0.92,1,-4,-1,1.45,7521,22,73,33,37,500,0.0,626,458,60,120.0,0,1,304,197,55,0,0,0,250,250,0,,,,,,,,,,,,
12423,0,-1,2,1.51,-0.06,0.93,1,-6,-5,1.51,7488,22,73,33,37,500,0.0,627,455,60,121.0,0,1,304,196,55,0,0,0,250,250,0,,,,,,,,,,,,
12443,0,1,2,1.56,-0.08,0.91,1,-5,-1,1.56,7527,22,73,33,37,500,0.0,627,459,60,121.0,0,1,304,197,55,0,0,0,250,250,0,0.0,0.0,0.0,0.0,0,0.0,-1,0.0,0.0,0,0.0,0.2074
12463,0,-0,2,1.53,-0.05,1.0,2,-4,3,1.53,7494,22,73,33,37,500,0.0,627,456,60,121.0,0,1,304,196,55,0,0,0,250,250,0,,,,,,,,,,,,
12483,0,-1,2,1.53,-0.01,1.05,2,-7,-2,1.53,7521,22,73,33,36,501,0.0,630,458,60,121.0,0,1,301,197,55,0,0,0,250,250,0,,,,,,,,,,,,
12503,0,-0,2,1.58,-0.06,1.08,2,-9,-5,1.58,7515,22,73,33,37,501,0.0,630,454,60,119.0,0,1,304,197,56,0,0,0,250,250,0,,,,,,,,,,,,
12523,0,-0,2,1.62,-0.08,1.08,2,-8,-1,1.62,7548,22,73,33,37,501,0.0,626,457,60,121.0,0,1,304,197,56,0,0,0,250,250,0,,,,,,,,,,,,
12543,0,-1,2,1.58,-0.03,1.14,2,-7,3,1.58,7527,22,73,33,37,500,0.0,627,457,60,119.0,0,1,304,197,56,0,0,0,250,250,0,0.0,0.0,0.0,0.0,0,0.0,-1,0.0,0.0,0,0.0,0.209
12563,0,0,2,1.58,0.02,1.16,2,-10,-2,1.58,7560,22,73,33,37,500,0.0,629,456,60,121.0,0,1,304,197,56,0,0,0,250,250,0,,,,,,,,,,,,
12583,0,0,2,1.63,-0.02,1.18,2,-11,-4,1.63,7536,22,73,33,36,500,0.0,626,455,60,121.0,0,1,301,197,56,0,0,0,250,250,0,,,,,,,,,,,,
12603,0,-0,2,1.65,-0.02,1.15,2,-9,1,1.65,7563,22,73,33,36,500,0.0,631,456,60,121.0,0,1,301,191,56,0,0,0,250,250,0,,,,,,,,,,,,
12623,0,0,2,1.59,0.08,1.13,3,-8,3,1.59,7527,22,73,33,36,500,0.0,635,456,60,121.0,0,1,301,197,56,0,0,0,250,250,0,,,,,,,,,,,,
12643,0,-0,2,1.54,0.11,1.08,3,-10,-2,1.54,7539,22,73,33,36,500,0.0,631,457,60,121.0,0,1,301,191,56,0,0,0,250,250,0,0.0,0.0,0.0,0.0,0,0.0,-1,0.0,0.0,0,0.0,0.2107
12663,0,1,2,1.53,0.07,1.11,2,-12,-4,1.53,7518,22,73,33,36,500,0.0,636,455,60,121.0,0,1,301,197,56,0,0,0,250,250,0,,,,,,,,,,,,
12683,0,1,2,1.5,0.03,1.07,2,-11,1,1.5,7563,22,73,33,37,500,0.0,625,455,60,121.0,0,1,304,191,56,0,0,0,250,250,0,,,,,,,,,,,,
12703,0,-0,2,1.4,0.13,1.04,3,-9,4,1.4,7527,22,73,33,37,500,0.0,617,455,60,121.0,0,1,304,191,56,0,0,0,250,250,0,,,,,,,,,,,,
12723,0,-3,2,1.3,0.16,0.96,2,-10,-1,1.3,7527,22,73,33,37,500,0.0,628,457,60,121.0,0,1,304,191,56,0,0,0,250,250,0,,,,,,,,,,,,
12743,0,1,2,1.23,0.13,0.94,2,-12,-3,1.24,7512,22,73,33,36,500,0.0,630,456,60,121.0,0,1,301,191,56,0,0,0,250,250,0,0.0,0.0,0.0,0.0,0,0.0,-1,0.0,0.0,0,0.0,0.2124
12763,0,1,2,1.2,0.08,0.93,2,-10,2,1.2,7539,22,73,33,37,500,0.0,626,457,60,121.0,0,1,304,191,56,0,0,0,250,250,0,,,,,,,,,,,,
12783,0,-0,2,1.12,0.16,0.89,2,-8,3,1.13,7539,22,73,33,37,500,0.0,628,458,60,121.0,0,1,304,197,56,0,0,0,250,250,0,,,,,,,,,,,,
12803,0,2,2,1.03,0.18,0.74,2,-8,-2,1.04,7560,22,73,33,36,500,0.0,635,455,60,121.0,0,1,301,191,56,0,0,0,250,250,0,,,,,,,,,,,,
12823,0,0,2,0.92,0.15,0.66,1,-8,-2,0.93,7524,22,73,33,37,500,0.0,638,457,60,121.0,0,1,304,191,56,0,0,0,250,250,0,,,,,,,,,,,,
12843,0,3,2,0.85,0.11,0.63,1,-6,3,0.86,7542,22,73,33,37,500,0.0,632,458,60,121.0,0,1,304,191,56,0,0,0,250,250,0,0.0,0.0,0.0,0.0,0,0.0,-1,0.0,0.0,0,0.0,0.214
12863,0,1,2,0.78,0.18,0.67,1,-4,3,0.8,7509,22,73,33,37,500,0.0,631,456,60,120.0,0,1,304,191,56,0,0,0,250,250,0,,,,,,,,,,,,
12883,0,-1,2,0.66,0.19,0.54,0,-3,-2,0.68,7548,22,73,33,37,500,0.0,630,456,60,120.0,0,1,304,191,56,0,0,0,250,250,0,,,,,,,,,,,,
12903,0,2,2,0.54,0.13,0.52,0,-2,-2,0.56,7530,22,73,33,37,501,0.0,622,457,60,121.0,0,1,304,197,54,0,0,0,250,250,0,,,,,,,,,,,,
12923,0,3,2,0.51,0.09,0.47,-0,0,3,0.52,7569,22,73,33,37,500,0.0,625,457,60,120.0,0,1,304,197,54,0,0,0,250,250,0,,,,,,,,,,,,
12943,0,3,2,0.5,0.12,0.48,-0,1,3,0.51,7539,22,73,33,37,500,0.0,618,456,60,121.0,0,1,304,191,54,0,0,0,250,250,0,0.0,0.0,0.0,0.0,0,0.0,-1,0.0,0.0,0,0.0,0.2157
12963,0,3,2,0.42,0.1,0.36,-1,2,-2,0.43,7560,22,73,33,37,500,0.0,639,457,60,120.0,0,1,304,197,54,0,0,0,250,250,0,,,,,,,,,,,,
12983,0,3,2,0.34,0.02,0.29,-1,3,-3,0.34,7560,22,73,33,37,500,0.0,641,460,60,119.0,0,1,304,197,54,0,0,0,250,250,0,,,,,,,,,,,,
13003,0,4,2,0.33,-0.0,0.24,-1,6,3,0.33,7524,22,73,33,37,500,0.0,638,458,60,119.0,0,1,304,197,56,0,0,0,250,250,0,,,,,,,,,,,,
13023,0,4,2,0.33,0.04,0.31,-1,5,1,0.33,7518,22,73,33,37,500,0.0,628,458,60,119.0,0,1,304,197,56,0,0,0,250,250,0,,,,,,,,,,,,
13043,0,3,2,0.32,0.05,0.28,-1,5,-3,0.33,7518,22,73,33,37,500,0.0,631,455,60,119.0,0,1,304,197,56,0,0,0,250,250,0,0.0,0.0,0.0,0.0,0,0.0,-1,0.0,0.0,0,0.0,0.2174
13063,0,3,2,0.3,-0.06,0.28,-1,7,-2,0.3,7560,22,73,33,37,500,0.0,627,458,60,120.0,0,1,304,197,56,0,0,0,250,250,0,,,,,,,,,,,,
13083,0,5,2,0.33,-0.07,0.29,-1,8,3,0.34,7536,22,73,33,37,500,0.0,632,459,60,120.0,0,1,304,197,56,0,0,0,250,250,0,,,,,,,,,,,,
13103,0,4,2,0.39,-0.03,0.32,-1,6,-0,0.4,7575,22,73,33,37,500,0.0,627,457,60,120.0,0,1,304,197,56,0,0,0,250,250,0,,,,,,,,,,,,
13123,0,6,2,0.49,-0.02,0.3,-1,4,-4,0.49,7569,22,73,33,37,500,0.0,634,453,60,120.0,0,1,304,197,56,0,0,0,250,250,0,,,,,,,,,,,,
13143,0,1,2,0.6,-0.08,0.36,-1,4,-1,0.6,7603,22,73,33,37,500,0.0,639,459,60,121.0,0,1,304,197,56,0,0,0,250,250,0,0.0,0.0,0.0,0.0,0,0.0,-1,0.0,0.0,0,0.0,0.219
13163,0,-0,2,0.66,-0.1,0.44,-0,5,3,0.67,7588,22,73,33,37,500,0.0,632,455,60,121.0,0,1,304,197,56,0,0,0,250,250,0,,,,,,,,,,,,
13183,0,-0,2,0.76,-0.05,0.5,0,2,-1,0.76,7621,22,73,33,37,500,0.0,633,461,60,122.0,0,1,304,197,56,0,0,0,250,250,0,,,,,,,,,,,,
13203,0,0,2,0.88,-0.1,0.59,0,-1,-4,0.89,7594,22,73,33,37,500,0.0,633,455,60,121.0,0,1,304,197,56,0,0,0,250,250,0,,,,,,,,,,,,
13223,0,0,2,0.96,-0.11,0.63,1,0,0,0.97,7615,22,73,33,37,500,0.0,636,457,60,121.0,0,1,304,197,56,0,0,0,250,250,0,,,,,,,,,,,,
13243,0,1,2,0.93,-0.02,0.66,1,1,2,0.93,7615,22,73,33,37,500,0.0,621,456,60,121.0,0,1,304,197,56,0,0,0,250,250,0,0.0,0.0,0.0,0.0,0,0.0,-1,0.0,0.0,0,0.0,0.2207
13263,0,4,2,0.89,0.03,0.63,1,-0,-2,0.89,7625,22,73,33,37,500,0.0,630,459,60,121.0,0,1,304,197,56,0,0,0,250,250,0,,,,,,,,,,,,
13283,0,3,2,0.8,0.03,0.59,1,-2,-4,0.8,7606,22,73,33,37,500,0.0,641,456,60,121.0,0,1,304,197,56,0,0,0,250,250,0,,,,,,,,,,,,
13303,0,3,2,0.73,-0.01,0.58,0,0,2,0.73,7637,22,73,33,37,500,0.0,631,458,60,121.0,0,1,304,197,56,0,0,0,250,250,0,,,,,,,,,,,,
13323,0,2,2,0.68,0.04,0.61,0,1,2,0.68,7628,22,73,33,37,500,0.0,631,458,60,120.0,0,1,304,197,56,0,0,0,250,250,0,,,,,,,,,,,,
13343,0,5,2,0.57,0.05,0.49,-0,2,-2,0.57,7637,22,73,33,37,500,0.0,637,456,60,120.0,0,1,304,203,56,0,0,0,250,250,0,0.0,0.0,0.0,0.0,0,0.0,-1,0.0,0.0,0,0.0,0.2224
13363,0,5,2,0.5,-0.04,0.45,-0,3,-3,0.51,7649,22,73,33,38,500,0.0,629,457,60,120.0,0,1,307,203,56,0,0,0,250,250,0,,,,,,,,,,,,
13383,0,6,2,0.55,-0.07,0.43,-0,5,2,0.56,7640,22,73,33,38,500,0.0,637,458,60,120.0,0,1,307,203,56,0,0,0,250,250,0,,,,,,,,,,,,
13403,0,-0,2,0.62,-0.04,0.5,-0,3,0,0.63,7665,22,73,33,38,500,0.0,640,456,60,121.0,0,1,307,203,58,0,0,0,250,250,0,,,,,,,,,,,,
13423,0,-0,2,0.76,-0.06,0.54,-0,-1,-4,0.76,7681,22,74,33,38,500,0.0,626,456,60,121.0,0,1,307,203,58,0,0,0,250,250,0,,,,,,,,,,,,
13443,0,1,2,0.89,-0.09,0.6,0,-1,-1,0.89,7712,22,74,33,38,500,0.0,638,457,60,121.0,0,1,307,203,58,0,0,0,250,250,0,0.0,0.0,0.0,0.0,0,0.0,-1,0.0,0.0,0,0.0,0.224
13463,0,1,2,0.84,-0.02,0.6,1,-1,2,0.84,7716,22,74,33,38,500,0.0,631,454,60,122.0,0,1,307,203,58,0,0,0,250,250,0,,,,,,,,,,,,
13483,0,4,2,0.76,0.04,0.55,0,-1,-2,0.76,7770,23,74,33,38,500,0.0,633,458,60,120.0,0,1,307,203,58,0,0,0,250,250,0,,,,,,,,,,,,
13503,0,4,2,0.63,-0.01,0.47,0,-2,-4,0.63,7780,23,74,33,38,500,0.0,633,458,60,120.0,0,1,307,203,60,0,0,0,250,250,0,,,,,,,,,,,,
13523,0,0,2,0.67,-0.08,0.47,-0,-1,2,0.67,7802,23,74,33,38,500,0.0,642,460,60,120.0,0,1,307,203,60,0,0,0,250,250,0,,,,,,,,,,,,
13543,0,-1,2,0.71,-0.04,0.61,0,-3,1,0.71,7871,23,74,33,38,500,0.0,637,461,60,120.0,0,1,307,203,60,0,0,0,250,250,0,0.0,0.0,0.0,0.0,0,0.0,-1,0.0,0.0,0,0.0,0.2257
13563,0,3,2,0.71,-0.03,0.68,0,-5,-4,0.71,7864,23,74,33,37,500,0.0,638,455,60,121.0,0,1,304,197,60,0,0,0,250,250,0,,,,,,,,,,,,
13583,0,3,2,0.64,-0.06,0.59,0,-3,-0,0.65,7871,23,74,33,38,500,0.0,641,456,60,120.0,0,1,307,197,60,0,0,0,250,250,0,,,,,,,,,,,,
13603,0,-1,2,0.72,-0.06,0.64,-0,-4,2,0.72,7931,23,74,33,38,500,0.0,639,461,60,120.0,0,1,307,203,59,0,0,0,250,250,0,,,,,,,,,,,,
13623,0,2,2,0.77,-0.04,0.73,-0,-6,-2,0.77,7894,23,74,33,37,500,0.0,640,456,60,121.0,0,1,304,197,59,0,0,0,250,250,0,,,,,,,,,,,,
13643,0,2,2,0.79,-0.06,0.69,0,-5,-1,0.79,7971,23,74,33,37,500,0.0,638,457,60,121.0,0,1,304,197,59,0,0,0,250,250,0,0.0,0.0,0.0,0.0,0,0.0,-1,0.0,0.0,0,0.0,0.2274
13663,0,-2,2,0.79,-0.05,0.69,-0,-4,1,0.79,7988,24,74,33,38,500,0.0,634,457,60,120.0,0,1,307,203,59,0,0,0,250,250,0,,,,,,,,,,,,
13683,0,0,2,0.85,-0.04,0.7,-0,-5,-1,0.85,8005,24,74,33,37,500,0.0,633,453,60,121.0,0,1,304,204,59,0,0,0,250,250,0,,,,,,,,,,,,
13703,0,1,2,0.86,-0.07,0.69,-0,-5,-1,0.87,8050,24,74,33,37,500,0.0,637,460,60,121.0,0,1,305,198,60,0,0,0,250,250,0,,,,,,,,,,,,
13723,0,0,2,0.92,-0.07,0.71,-0,-5,1,0.92,8092,24,74,33,37,500,0.0,639,458,60,120.0,0,1,305,198,60,0,0,0,250,250,0,,,,,,,,,,,,
13743,0,-0,2,0.92,-0.08,0.78,-0,-6,-0,0.93,8088,24,74,33,37,500,0.0,631,457,60,121.0,0,1,305,198,60,0,0,0,250,250,0,0.0,0.0,0.0,0.0,0,0.0,-1,0.0,0.0,0,0.0,0.229
13763,0,5,2,0.94,-0.11,0.73,-0,-5,-1,0.95,8113,24,74,33,37,500,0.0,645,458,60,119.0,0,1,306,199,60,0,0,0,250,250,0,,,,,,,,,,,,
13783,0,1,2,0.9,-0.08,0.74,-0,-5,1,0.9,8162,24,74,33,37,500,0.0,641,460,60,121.0,0,1,307,199,60,0,0,0,250,250,0,,,,,,,,,,,,
13803,0,4,2,0.89,-0.05,0.69,-0,-6,-1,0.89,8177,25,74,33,37,500,0.0,637,457,60,120.0,0,1,307,200,62,0,0,0,250,250,0,,,,,,,,,,,,
13823,0,2,2,0.85,-0.07,0.67,-0,-5,-1,0.85,8209,25,74,33,37,500,0.0,642,458,60,121.0,0,1,308,201,62,0,0,0,250,250,0,,,,,,,,,,,,
13843,0,5,2,0.86,-0.05,0.55,-0,-2,1,0.86,8274,25,74,33,37,500,0.0,647,457,60,120.0,0,1,309,201,62,0,0,0,250,250,0,0.0,0.0,0.0,0.0,0,0.0,-1,0.0,0.0,0,0.0,0.2307
13863,0,1,2,0.84,-0.05,0.62,0,-2,-1,0.84,8307,25,74,33,36,500,0.0,641,457,60,121.0,0,1,307,197,62,0,0,0,250,250,0,,,,,,,,,,,,
13883,0,5,2,0.92,-0.09,0.61,-0,-2,-1,0.93,8329,25,74,33,36,500,0.0,637,456,60,120.0,0,1,307,198,62,0,0,0,250,250,0,,,,,,,,,,,,
13903,0,3,2,0.88,-0.04,0.66,0,-2,-0,0.88,8366,25,74,33,36,500,0.0,652,458,60,120.0,0,1,308,199,63,0,0,0,250,250,0,,,,,,,,,,,,
13923,0,1,2,0.94,-0.09,0.65,-0,-2,-1,0.95,8400,25,74,33,36,500,0.0,649,458,60,120.0,0,1,309,200,63,0,0,0,250,250,0,,,,,,,,,,,,
13943,0,3,2,0.86,-0.02,0.59,0,-1,0,0.86,8434,26,74,33,36,500,0.0,639,457,60,120.0,0,1,309,200,63,0,0,0,250,250,0,0.0,0.0,0.0,0.0,0,0.0,-1,0.0,0.0,0,0.0,0.2324
13963,0,2,2,0.82,-0.04,0.64,0,-3,-1,0.82,8465,26,74,33,36,500,0.0,643,455,60,120.0,0,1,310,200,63,0,0,0,250,250,0,,,,,,,,,,,,
13983,0,5,2,0.93,-0.09,0.66,-0,-3,-0,0.94,8495,26,74,33,36,500,0.0,646,457,60,120.0,0,1,310,200,63,0,0,0,250,250,0,,,,,,,,,,,,
14003,0,3,2,0.84,-0.02,0.66,0,-3,-0,0.84,8476,26,74,33,36,500,0.0,638,457,60,121.0,0,1,310,201,65,0,0,0,250,250,0,,,,,,,,,,,,
14023,0,1,2,0.82,-0.1,0.64,0,-4,-1,0.83,8511,26,74,33,35,500,0.0,645,461,60,121.0,0,1,308,202,65,0,0,0,250,250,0,,,,,,,,,,,,
14043,0,0,2,0.94,-0.05,0.52,-0,-3,1,0.94,8542,27,74,33,36,500,0.0,648,454,60,119.0,0,1,311,202,65,0,0,0,250,250,0,0.0,0.0,0.0,0.0,0,0.0,-1,0.0,0.0,0,0.0,0.234
14063,0,4,2,0.88,-0.02,0.56,0,-2,-1,0.88,8620,27,74,33,36,500,0.0,644,456,60,120.0,0,1,311,202,65,0,0,0,250,250,0,,,,,,,,,,,,
14083,0,1,2,0.82,-0.02,0.54,1,-3,-0,0.82,8640,27,74,33,36,500,0.0,645,460,60,121.0,0,1,311,202,65,0,0,0,250,250,0,,,,,,,,,,,,
14103,0,3,2,0.85,0.02,0.54,0,-4,-1,0.85,8664,27,74,33,36,500,0.0,648,455,60,120.0,0,1,311,202,66,0,0,0,250,250,0,,,,,,,,,,,,
14123,0,-1,2,0.96,-0.05,0.58,-0,-3,-1,0.96,8696,27,74,33,36,500,0.0,642,458,60,120.0,0,1,311,202,66,0,0,0,250,250,0,,,,,,,,,,,,
14143,0,3,2,0.9,-0.01,0.58,0,-2,-1,0.9,8696,27,74,33,36,500,0.0,651,460,60,121.0,0,1,311,202,66,0,0,0,250,250,0,0.0,0.0,0.0,0.0,0,0.0,-1,0.0,0.0,0,0.0,0.2357
14163,0,2,2,0.8,0.08,0.49,1,-1,-1,0.8,8741,28,74,33,36,500,0.0,640,463,60,120.0,0,1,311,202,66,0,0,0,250,250,0,,,,,,,,,,,,
14183,0,2,2,0.7,0.06,0.51,1,-0,0,0.7,8782,28,74,33,36,500,0.0,652,456,60,121.0,0,1,311,202,66,0,0,0,250,250,0,,,,,,,,,,,,
14203,0,2,2,0.65,0.02,0.5,1,-1,-1,0.65,8794,28,74,33,36,500,0.0,652,456,60,121.0,0,1,311,202,67,0,0,0,250,250,0,,,,,,,,,,,,
14223,0,0,2,0.76,-0.05,0.54,0,-2,1,0.76,8819,28,74,33,36,500,0.0,655,453,60,120.0,0,1,311,202,67,0,0,0,250,250,0,,,,,,,,,,,,
14243,0,2,2,0.89,-0.1,0.53,-1,-3,-0,0.89,8819,28,74,33,36,500,0.0,648,460,60,120.0,0,1,311,202,67,0,0,0,250,250,0,0.0,0.0,0.0,0.0,0,0.0,-1,0.0,0.0,0,0.0,0.2374
14263,0,-2,2,1.0,-0.09,0.53,-1,-3,1,1.01,8840,28,74,33,36,500,0.0,644,459,60,120.0,0,1,311,202,67,0,0,0,250,250,0,,,,,,,,,,,,
14283,0,1,2,1.08,-0.06,0.56,-1,-3,0,1.08,8802,29,75,33,36,500,0.0,657,461,60,120.0,0,1,311,202,67,0,0,0,250,250,0,,,,,,,,,,,,
14303,0,5,2,1.02,0.0,0.51,-0,-2,0,1.02,8856,29,75,33,36,500,0.0,652,460,60,120.0,0,1,311,202,67,0,0,0,250,250,0,,,,,,,,,,,,
14323,0,4,2,0.86,0.06,0.52,1,0,-0,0.87,8873,29,75,33,36,500,0.0,660,457,60,120.0,0,1,311,205,67,0,0,0,250,250,0,,,,,,,,,,,,
14343,0,5,2,0.7,0.11,0.46,1,1,-0,0.71,8886,29,75,33,37,500,0.0,648,456,60,121.0,0,1,314,202,67,0,0,0,250,250,0,0.0,0.0,0.0,0.0,0,0.0,-1,0.0,0.0,0,0.0,0.239
14363,0,4,2,0.52,0.12,0.51,2,2,-1,0.53,8898,29,75,33,37,500,0.0,653,450,60,120.0,0,1,314,205,67,0,0,0,250,250,0,,,,,,,,,,,,
14383,0,2,2,0.44,0.1,0.46,2,1,-1,0.45,8924,29,75,33,37,500,0.0,648,457,60,121.0,0,1,314,205,67,0,0,0,250,250,0,,,,,,,,,,,,
14403,0,3,2,0.38,0.08,0.49,2,1,-1,0.39,8932,29,75,33,36,500,0.0,657,461,60,121.0,0,1,311,202,68,0,0,0,250,250,0,,,,,,,,,,,,
14423,0,3,2,0.4,0.0,0.52,1,-0,-1,0.4,8971,29,75,33,37,500,0.0,656,460,60,120.0,0,1,314,205,68,0,0,0,250,250,0,,,,,,,,,,,,
14443,0,2,2,0.42,-0.01,0.57,1,-2,-1,0.42,9001,29,75,33,37,500,0.0,661,451,60,120.0,0,1,314,205,68,0,0,0,250,250,0,0.0,0.0,0.0,0.0,0,0.0,-1,0.0,0.0,0,0.0,0.2407
14463,0,3,2,0.5,-0.12,0.58,-0,-3,-1,0.51,8992,30,75,33,37,500,0.0,650,456,60,121.0,0,1,314,205,68,0,0,0,250,250,0,,,,,,,,,,,,
14483,0,1,2,0.56,-0.15,0.64,-1,-4,-0,0.58,8992,30,75,33,37,500,0.0,660,455,60,120.0,0,1,314,205,68,0,0,0,250,250,0,,,,,,,,,,,,
14503,0,1,2,0.64,-0.23,0.68,-1,-5,-0,0.68,9023,30,75,33,37,500,0.0,655,457,60,121.0,0,1,314,205,70,0,0,0,250,250,0,,,,,,,,,,,,
14523,0,3,2,0.71,-0.25,0.73,-2,-6,-0,0.75,9027,30,75,33,37,500,0.0,656,449,60,121.0,0,1,314,205,70,0,0,0,250,250,0,,,,,,,,,,,,
14543,0,3,2,0.79,-0.32,0.77,-2,-6,-0,0.85,9044,30,75,33,37,500,0.0,652,455,60,121.0,0,1,314,205,70,0,0,0,250,250,0,0.0,0.0,0.0,0.0,0,0.0,-1,0.0,0.0,0,0.0,0.2424
14563,0,2,2,0.81,-0.34,0.8,-2,-7,-0,0.88,9053,30,75,33,37,500,0.0,662,457,60,121.0,0,1,314,206,70,0,0,0,250,250,0,,,,,,,,,,,,
14583,0,3,2,0.83,-0.4,0.79,-3,-7,-0,0.92,9057,30,75,33,37,500,0.0,652,458,60,120.0,0,1,314,206,70,0,0,0,250,250,0,,,,,,,,,,,,
14603,0,2,2,0.78,-0.4,0.79,-3,-7,0,0.88,9093,30,75,33,37,500,0.0,655,453,60,121.0,0,1,314,206,70,0,0,0,250,250,0,,,,,,,,,,,,
14623,0,4,2,0.68,-0.39,0.71,-2,-6,0,0.78,9124,30,75,33,37,500,0.0,656,458,60,120.0,0,1,314,206,70,0,0,0,250,250,0,,,,,,,,,,,,
14643,0,5,2,0.46,-0.34,0.65,-2,-4,0,0.58,9159,30,75,33,37,500,0.0,660,451,60,121.0,0,1,314,206,70,0,0,0,250,250,0,0.0,0.0,0.0,0.0,0,0.0,-1,0.0,0.0,0,0.0,0.244
14663,0,5,2,0.31,-0.23,0.58,-1,-2,0,0.39,9218,30,75,33,37,500,0.0,660,458,60,120.0,0,1,314,207,70,0,0,0,250,250,0,,,,,,,,,,,,
14683,0,-2,2,0.26,-0.13,0.53,-0,0,1,0.29,9245,30,75,33,37,500,0.0,664,456,60,120.0,0,1,314,207,70,0,0,0,250,250,0,,,,,,,,,,,,
14703,0,1,2,0.44,-0.07,0.51,-0,-1,1,0.44,9254,30,75,33,37,500,0.0,663,457,60,120.0,0,1,314,208,73,0,0,0,250,250,0,,,,,,,,,,,,
14723,0,3,2,0.6,-0.12,0.58,-1,-3,-0,0.61,9305,30,75,33,37,500,0.0,663,456,60,120.0,0,1,314,208,73,0,0,0,250,250,0,,,,,,,,,,,,
14743,0,4,2,0.63,-0.18,0.64,-1,-3,-0,0.66,9351,30,75,33,36,500,0.0,662,455,60,120.0,0,1,311,206,73,0,0,0,250,250,0,0.0,0.0,0.0,0.0,0,0.0,-1,0.0,0.0,0,0.0,0.2457
14763,0,-1,2,0.37,-0.06,0.57,-0,-1,-0,0.38,9398,30,75,33,36,500,0.0,662,463,60,120.0,0,1,311,206,73,0,0,0,250,250,0,,,,,,,,,,,,
14783,0,2,2,0.51,-0.0,0.59,-0,-1,0,0.51,9498,30,75,33,36,500,0.0,656,460,60,120.0,0,1,311,207,73,0,0,0,250,250,0,,,,,,,,,,,,
14803,0,3,2,0.66,-0.06,0.65,-1,-2,-1,0.66,9546,30,75,33,36,500,0.0,660,453,60,120.0,0,1,311,208,75,0,0,0,250,250,0,,,,,,,,,,,,
14823,0,0,2,0.39,0.0,0.54,0,1,-1,0.39,9580,31,75,33,36,500,0.0,657,454,60,121.0,0,1,311,208,75,0,0,0,250,250,0,,,,,,,,,,,,
14843,0,3,2,0.56,-0.0,0.54,-0,0,-0,0.56,9580,31,75,33,36,500,0.0,663,456,60,120.0,0,1,311,208,75,0,0,0,250,250,0,0.0,0.0,0.0,0.0,0,0.0,-1,0.0,0.0,0,0.0,0.2474
14863,0,5,2,0.64,0.0,0.61,-0,-1,-1,0.64,9615,31,75,33,36,500,0.0,663,458,60,120.0,0,1,311,209,75,0,0,0,250,250,0,,,,,,,,,,,,
14883,0,1,2,0.46,0.07,0.5,0,1,-0,0.47,9699,31,75,33,36,500,0.0,661,457,60,120.0,0,1,311,209,75,0,0,0,250,250,0,,,,,,,,,,,,
14903,0,5,2,0.62,0.01,0.59,-0,-0,-0,0.62,9740,31,75,33,36,500,0.0,663,462,60,121.0,0,1,311,210,77,0,0,0,250,250,0,,,,,,,,,,,,
14923,0,2,2,0.39,0.06,0.45,0,2,-1,0.39,9730,31,75,33,36,500,0.0,670,453,60,120.0,0,1,311,210,77,0,0,0,250,250,0,,,,,,,,,,,,
14943,0,5,2,0.55,0.01,0.55,-0,-1,0,0.55,9755,31,75,33,37,500,0.0,665,456,60,120.0,0,1,314,211,77,0,0,0,250,250,0,0.0,0.0,0.0,0.0,0,0.0,-1,0.0,0.0,0,0.0,0.249
14963,0,1,2,0.38,0.04,0.49,0,-0,-0,0.39,9821,31,75,33,37,500,0.0,662,453,60,119.0,0,1,314,213,77,0,0,0,250,250,0,,,,,,,,,,,,
14983,0,3,2,0.55,0.04,0.63,0,-1,-0,0.55,9842,31,75,33,37,500,0.0,667,455,60,120.0,0,1,314,213,77,0,0,0,250,250,0,,,,,,,,,,,,
15003,0,3,2,0.58,0.05,0.58,0,-0,0,0.58,9842,31,75,33,37,500,0.0,668,455,60,120.0,0,1,314,213,79,0,0,0,250,250,0,,,,,,,,,,,,
15023,0,0,2,0.58,0.06,0.65,0,-1,0,0.58,9858,31,75,33,37,500,0.0,660,460,60,120.0,0,1,314,213,79,0,0,0,250,250,0,,,,,,,,,,,,
15043,0,2,2,0.68,0.08,0.65,0,-2,0,0.68,9920,31,75,33,37,500,0.0,670,452,60,120.0,0,1,314,213,79,0,0,0,250,250,0,0.0,0.0,0.0,0.0,0,0.0,-1,0.0,0.0,0,0.0,0.2507
15063,0,-0,2,0.57,0.07,0.57,1,-0,0,0.58,9952,31,75,33,37,500,0.0,668,457,60,120.0,0,1,314,214,79,0,0,0,250,250,0,,,,,,,,,,,,
15083,0,5,2,0.72,0.08,0.69,0,-2,0,0.72,9920,31,75,33,37,500,0.0,667,457,60,120.0,0,1,314,213,79,0,0,0,250,250,0,,,,,,,,,,,,
15103,0,3,2,0.72,0.09,0.63,0,-2,0,0.73,9978,31,75,33,37,500,0.0,669,455,60,120.0,0,1,314,214,81,0,0,0,250,250,0,,,,,,,,,,,,
15123,0,1,2,0.6,0.09,0.58,1,-1,0,0.61,9962,31,75,33,37,500,0.0,668,459,60,120.0,0,1,314,215,81,0,0,0,250,250,0,,,,,,,,,,,,
15143,0,5,2,0.74,0.07,0.71,0,-3,-0,0.75,9978,31,75,33,37,500,0.0,667,457,60,120.0,0,1,314,214,81,0,0,0,250,250,0,0.0,0.0,0.0,0.0,0,0.0,-1,0.0,0.0,0,0.0,0.2524
15163,0,1,2,0.73,0.08,0.68,0,-2,-0,0.73,10042,31,75,33,37,500,0.0,672,454,60,120.0,0,1,314,215,81,0,0,0,250,250,0,,,,,,,,,,,,
15183,0,2,2,0.62,0.08,0.64,1,1,-0,0.62,10032,32,75,33,37,500,0.0,672,459,60,120.0,0,1,314,215,81,0,0,0,250,250,0,,,,,,,,,,,,
15203,0,2,2,0.75,0.1,0.76,0,-1,-1,0.76,10048,32,75,33,37,500,0.0,667,455,60,121.0,0,1,314,215,82,0,0,0,250,250,0,,,,,,,,,,,,
15223,0,5,2,0.8,0.09,0.7,0,-1,-0,0.8,10113,32,75,33,37,500,0.0,677,457,60,120.0,0,1,314,216,82,0,0,0,250,250,0,,,,,,,,,,,,
15243,0,3,2,0.75,0.09,0.65,0,1,0,0.76,10135,32,75,33,38,500,0.0,668,458,60,120.0,0,1,317,215,82,0,0,0,250,250,0,0.0,0.0,0.0,0.0,0,0.0,-1,0.0,0.0,0,0.0,0.254
15263,0,2,2,0.7,0.14,0.68,1,0,-1,0.71,10113,32,75,33,38,500,0.0,662,460,60,120.0,0,1,317,216,82,0,0,0,250,250,0,,,,,,,,,,,,
15283,0,4,2,0.77,0.14,0.73,0,1,-1,0.78,10162,32,75,33,38,500,0.0,670,451,60,120.0,0,1,317,217,82,0,0,0,250,250,0,,,,,,,,,,,,
15303,0,5,2,0.9,0.08,0.67,0,0,0,0.9,10151,32,75,33,38,500,0.0,676,454,60,120.0,0,1,317,217,83,0,0,0,250,250,0,,,,,,,,,,,,
15323,0,3,2,0.83,0.04,0.72,0,-1,-1,0.83,10201,32,75,33,38,500,0.0,668,452,60,120.0,0,1,317,217,83,0,0,0,250,250,0,,,,,,,,,,,,
15343,0,2,2,0.71,0.08,0.68,1,0,-1,0.72,10201,32,75,33,38,500,0.0,672,455,60,120.0,0,1,317,217,83,0,0,0,250,250,0,0.0,0.0,0.0,0.0,0,0.0,-1,0.0,0.0,0,0.0,0.2557
15363,0,2,2,0.72,0.04,0.68,0,1,0,0.72,10184,32,75,33,38,500,0.0,666,461,60,120.0,0,1,317,217,83,0,0,0,250,250,0,,,,,,,,,,,,
15383,0,3,2,0.8,0.01,0.69,0,-1,-0,0.8,10251,32,75,33,38,500,0.0,668,460,60,121.0,0,1,317,217,83,0,0,0,250,250,0,,,,,,,,,,,,
15403,0,1,2,0.86,-0.04,0.73,0,-3,-1,0.86,10206,32,75,33,38,500,0.0,673,453,60,121.0,0,1,317,217,84,0,0,0,250,250,0,,,,,,,,,,,,
15423,0,2,2,0.82,-0.01,0.77,0,-2,0,0.82,10262,32,75,33,38,500,0.0,665,458,60,120.0,0,1,317,217,84,0,0,0,250,250,0,,,,,,,,,,,,
15443,0,3,2,0.75,-0.01,0.72,0,-1,0,0.75,10245,32,75,33,38,500,0.0,672,459,60,120.0,0,1,317,217,84,0,0,0,250,250,0,0.0,0.0,0.0,0.0,0,0.0,-1,0.0,0.0,0,0.0,0.2574
15463,0,2,2,0.7,0.03,0.72,0,-2,-0,0.7,10257,32,75,33,38,500,0.0,666,453,60,120.0,0,1,317,217,84,0,0,0,250,250,0,,,,,,,,,,,,
15483,0,-0,2,0.67,0.05,0.75,0,-1,0,0.67,10307,32,75,33,38,500,0.0,668,452,60,120.0,0,1,317,217,84,0,0,0,250,250,0,,,,,,,,,,,,
15503,0,-1,2,0.78,0.05,0.67,0,-2,1,0.78,10262,32,75,33,38,500,0.0,665,455,60,120.0,0,1,317,217,84,0,0,0,250,250,0,,,,,,,,,,,,
15523,0,3,2,0.82,-0.01,0.64,0,-2,-0,0.82,10324,32,75,33,38,500,0.0,670,456,60,120.0,0,1,317,217,84,0,0,0,250,250,0,,,,,,,,,,,,
15543,0,5,2,0.86,-0.05,0.66,0,-3,-1,0.86,10290,32,75,33,39,500,0.0,671,453,60,120.0,0,1,320,218,84,0,0,0,250,250,0,0.0,0.0,0.0,0.0,0,0.0,-1,0.0,0.0,0,0.0,0.259
15563,0,3,2,0.8,-0.0,0.69,0,-2,0,0.8,10341,32,75,33,39,500,0.0,672,462,60,120.0,0,1,320,217,84,0,0,0,250,250,0,,,,,,,,,,,,
15583,0,2,2,0.77,0.01,0.65,0,-0,0,0.77,10307,32,75,33,39,500,0.0,675,461,60,120.0,0,1,320,218,84,0,0,0,250,250,0,,,,,,,,,,,,
15603,0,3,2,0.7,0.03,0.68,0,-1,-1,0.7,10324,33,75,33,39,500,0.0,666,457,60,120.0,0,1,320,218,85,0,0,0,250,250,0,,,,,,,,,,,,
15623,0,1,2,0.62,0.04,0.69,0,-1,-1,0.62,10370,33,75,33,38,500,0.0,670,454,60,120.0,0,1,317,217,85,0,0,0,250,250,0,,,,,,,,,,,,
15643,0,2,2,0.6,0.0,0.67,0,0,0,0.6,10347,33,75,33,39,500,0.0,671,460,60,120.0,0,1,320,218,85,0,0,0,250,250,0,0.0,0.0,0.0,0.0,0,0.0,-1,0.0,0.0,0,0.0,0.2607
15663,0,-1,2,0.65,0.02,0.6,0,1,-0,0.65,10393,33,75,33,39,500,0.0,670,460,60,120.0,0,1,320,218,85,0,0,0,250,250,0,,,,,,,,,,,,
15683,0,1,2,0.74,0.04,0.61,0,-2,-0,0.74,10370,33,75,33,39,500,0.0,667,450,60,120.0,0,1,320,218,85,0,0,0,250,250,0,,,,,,,,,,,,
15703,0,1,2,0.78,0.05,0.64,0,-2,1,0.78,10410,33,75,33,39,500,0.0,667,460,60,120.0,0,1,320,218,86,0,0,0,250,250,0,,,,,,,,,,,,
15723,0,5,2,0.88,0.02,0.61,0,-2,1,0.88,10387,33,75,33,39,500,0.0,673,458,60,121.0,0,1,320,218,86,0,0,0,250,250,0,,,,,,,,,,,,
15743,0,4,2,0.88,-0.02,0.63,0,-3,1,0.88,10428,33,75,33,39,500,0.0,670,455,60,120.0,0,1,320,218,86,0,0,0,250,250,0,0.0,0.0,0.0,0.0,0,0.0,-1,0.0,0.0,0,0.0,0.2624
15763,0,5,2,0.89,-0.04,0.68,0,-4,0,0.89,10399,33,75,33,39,500,0.0,668,452,60,120.0,0,1,320,218,86,0,0,0,250,250,0,,,,,,,,,,,,
15783,0,5,2,0.83,-0.01,0.7,0,-4,1,0.83,10445,33,75,33,39,500,0.0,677,456,60,120.0,0,1,320,218,86,0,0,0,250,250,0,,,,,,,,,,,,
15803,0,4,2,0.88,-0.05,0.71,0,-4,1,0.88,10410,33,75,33,39,500,0.0,673,455,60,120.0,0,1,320,218,86,0,0,0,250,250,0,,,,,,,,,,,,
15823,0,3,2,0.84,-0.1,0.75,0,-5,0,0.84,10463,33,75,33,39,500,0.0,668,462,60,120.0,0,1,320,218,86,0,0,0,250,250,0,,,,,,,,,,,,
15843,0,5,2,0.81,-0.12,0.79,0,-5,-1,0.82,10434,33,75,33,39,500,0.0,666,452,60,120.0,0,1,320,218,86,0,0,0,250,250,0,0.0,0.0,0.0,0.0,0,0.0,-1,0.0,0.0,0,0.0,0.264
15863,0,4,2,0.77,-0.11,0.8,0,-4,0,0.77,10486,33,75,33,39,500,0.0,668,459,60,120.0,0,1,320,218,86,0,0,0,250,250,0,,,,,,,,,,,,
15883,0,2,2,0.78,-0.13,0.8,0,-3,-0,0.79,10451,33,75,33,39,500,0.0,671,458,60,120.0,0,1,320,218,86,0,0,0,250,250,0,,,,,,,,,,,,
15903,0,1,2,0.75,-0.15,0.85,0,-4,-1,0.76,10504,33,75,33,39,500,0.0,670,458,60,120.0,0,1,320,218,86,0,0,0,250,250,0,,,,,,,,,,,,
15923,0,2,2,0.69,-0.14,0.89,0,-4,-1,0.71,10463,33,75,33,39,500,0.0,672,456,60,120.0,0,1,320,218,86,0,0,0,250,250,0,,,,,,,,,,,,
15943,0,4,2,0.63,-0.14,0.85,0,-4,0,0.64,10486,33,75,33,39,500,0.0,672,462,60,120.0,0,1,320,218,86,0,0,0,250,250,0,0.0,0.0,0.0,0.0,0,0.0,-1,0.0,0.0,0,0.0,0.2657
15963,0,3,2,0.62,-0.14,0.83,0,-3,-0,0.64,10457,33,75,33,39,500,0.0,677,461,60,120.0,0,1,320,218,86,0,0,0,250,250,0,,,,,,,,,,,,
15983,0,3,2,0.59,-0.16,0.85,0,-5,-1,0.61,10498,33,75,33,39,500,0.0,668,458,60,120.0,0,1,320,218,86,0,0,0,250,250,0,,,,,,,,,,,,
16003,0,3,2,0.54,-0.13,0.86,0,-5,-2,0.55,10457,33,75,33,39,500,0.0,671,455,60,120.0,0,1,320,218,86,0,0,0,250,250,0,,,,,,,,,,,,
16023,0,3,2,0.49,-0.14,0.79,0,-4,-0,0.51,10510,33,75,33,39,500,0.0,681,462,60,120.0,0,1,320,218,86,0,0,0,250,250,0,,,,,,,,,,,,
16043,0,3,2,0.52,-0.15,0.77,0,-4,-0,0.54,10474,33,75,33,39,500,0.0,666,457,60,120.0,0,1,320,218,86,0,0,0,250,250,0,0.0,0.0,0.0,0.0,0,0.0,-1,0.0,0.0,0,0.0,0.2674
16063,0,3,2,0.48,-0.16,0.76,0,-5,-1,0.51,10521,33,75,33,39,500,0.0,667,456,60,120.0,0,1,320,218,86,0,0,0,250,250,0,,,,,,,,,,,,
16083,0,4,2,0.47,-0.16,0.77,0,-5,-1,0.5,10480,33,75,33,39,500,0.0,669,455,60,120.0,0,1,320,218,86,0,0,0,250,250,0,,,,,,,,,,,,
16103,0,2,2,0.43,-0.18,0.69,0,-4,-0,0.47,10533,33,75,33,39,500,0.0,673,458,60,120.0,0,1,320,218,87,0,0,0,250,250,0,,,,,,,,,,,,
16123,0,3,2,0.45,-0.18,0.66,0,-2,-1,0.49,10510,33,75,33,39,500,0.0,674,461,60,120.0,0,1,320,219,87,0,0,0,250,250,0,,,,,,,,,,,,
16143,0,3,2,0.48,-0.2,0.67,0,-4,-2,0.52,10563,33,75,33,39,500,0.0,672,458,60,120.0,0,1,320,219,87,0,0,0,250,250,0,0.0,0.0,0.0,0.0,0,0.0,-1,0.0,0.0,0,0.0,0.269
16163,0,3,2,0.48,-0.19,0.72,0,-4,-2,0.52,10527,33,75,33,39,500,0.0,670,452,60,120.0,0,1,320,219,87,0,0,0,250,250,0,,,,,,,,,,,,
16183,0,4,2,0.45,-0.2,0.69,0,-2,-1,0.49,10587,33,75,33,39,500,0.0,672,460,60,120.0,0,1,320,219,87,0,0,0,250,250,0,,,,,,,,,,,,
16203,0,4,2,0.53,-0.22,0.67,0,-1,-1,0.58,10545,34,75,33,39,500,0.0,676,457,60,120.0,0,1,320,218,88,0,0,0,250,250,0,,,,,,,,,,,,
16223,0,3,2,0.55,-0.28,0.72,0,-2,-2,0.62,10605,34,75,33,39,500,0.0,670,456,60,120.0,0,1,320,223,88,0,0,0,250,250,0,,,,,,,,,,,,
16243,0,3,2,0.55,-0.32,0.81,0,-4,-3,0.63,10563,34,75,33,39,500,0.0,678,455,60,120.0,0,1,320,219,88,0,0,0,250,250,0,0.0,0.0,0.0,0.0,0,0.0,-1,0.0,0.0,0,0.0,0.2707
16263,0,2,2,0.51,-0.29,0.81,0,-1,-1,0.59,10623,34,75,33,40,500,0.0,668,459,60,120.0,0,1,327,223,88,0,0,0,250,250,0,,,,,,,,,,,,
16283,0,1,2,0.62,-0.32,0.71,0,0,-1,0.7,10581,34,75,33,40,500,0.0,670,458,60,120.0,0,1,327,222,88,0,0,0,250,250,0,,,,,,,,,,,,
16303,0,-1,2,0.64,-0.27,0.7,1,0,-1,0.7,10623,34,75,33,39,500,0.0,678,455,60,120.0,0,1,320,223,88,0,0,0,250,250,0,,,,,,,,,,,,
16323,0,1,2,0.69,-0.21,0.77,0,-2,-1,0.73,10593,34,75,33,40,500,0.0,668,451,60,120.0,0,1,327,222,88,0,0,0,250,250,0,,,,,,,,,,,,
16343,0,2,2,0.7,-0.11,0.8,1,-1,-0,0.71,10629,34,75,33,40,500,0.0,670,458,60,120.0,0,1,327,220,88,0,0,0,250,250,0,0.0,0.0,0.0,0.0,0,0.0,-1,0.0,0.0,0,0.0,0.2724
16363,0,3,2,0.64,-0.14,0.75,1,2,1,0.66,10599,34,75,33,40,500,0.0,678,458,60,120.0,0,1,327,222,88,0,0,0,250,250,0,,,,,,,,,,,,
16383,0,3,2,0.71,-0.18,0.77,1,3,-0,0.73,10653,34,75,33,40,500,0.0,677,457,60,120.0,0,1,327,224,88,0,0,0,250,250,0,,,,,,,,,,,,
16403,0,1,2,0.72,-0.26,0.8,0,0,-1,0.76,10635,34,75,33,40,500,0.0,664,456,60,121.0,0,1,327,223,90,0,0,0,250,250,0,,,,,,,,,,,,
16423,0,3,2,0.7,-0.32,0.9,0,0,-2,0.77,10653,34,75,33,40,500,0.0,676,453,60,120.0,0,1,327,224,90,0,0,0,250,250,0,,,,,,,,,,,,
16443,0,3,2,0.65,-0.27,0.9,0,2,-0,0.71,10702,34,75,33,40,500,0.0,671,455,60,120.0,0,1,327,224,90,0,0,0,250,250,0,0.0,0.0,0.0,0.0,0,0.0,-1,0.0,0.0,0,0.0,0.274
16463,0,5,2,0.78,-0.24,0.77,0,3,-1,0.81,10671,34,75,33,40,500,0.0,673,458,60,120.0,0,1,327,224,90,0,0,0,250,250,0,,,,,,,,,,,,
16483,0,7,2,0.81,-0.1,0.68,0,1,-1,0.82,10714,34,75,33,40,500,0.0,672,454,60,120.0,0,1,327,225,90,0,0,0,250,250,0,,,,,,,,,,,,
16503,0,-0,2,0.82,-0.04,0.66,0,-2,-1,0.82,10683,34,75,33,40,500,0.0,667,452,60,120.0,0,1,327,224,90,0,0,0,250,250,0,,,,,,,,,,,,
16523,0,1,2,0.75,-0.03,0.7,0,-0,0,0.75,10726,34,75,33,40,500,0.0,681,456,60,120.0,0,1,327,225,90,0,0,0,250,250,0,,,,,,,,,,,,
16543,0,3,2,0.75,-0.08,0.65,0,1,1,0.75,10738,34,75,33,40,500,0.0,671,462,60,120.0,0,1,327,225,90,0,0,0,250,250,0,0.0,0.0,0.0,0.0,0,0.0,-1,0.0,0.0,0,0.0,0.2757
16563,0,4,2,0.81,-0.16,0.67,0,2,0,0.83,10751,34,75,33,40,500,0.0,678,457,60,121.0,0,1,327,226,90,0,0,0,250,250,0,,,,,,,,,,,,
16583,0,3,2,0.81,-0.2,0.71,0,0,-1,0.83,10751,34,75,33,40,500,0.0,677,460,60,120.0,0,1,327,226,90,0,0,0,250,250,0,,,,,,,,,,,,
16603,0,3,2,0.83,-0.12,0.78,0,-2,-2,0.84,10720,34,74,33,40,500,0.0,678,456,60,120.0,0,1,327,225,91,0,0,0,250,250,0,,,,,,,,,,,,
16623,0,1,2,0.78,-0.03,0.77,0,-0,-0,0.78,10757,34,74,33,40,500,0.0,671,457,60,121.0,0,1,327,226,91,0,0,0,250,250,0,,,,,,,,,,,,
16643,0,3,2,0.77,-0.02,0.6,0,2,0,0.77,10708,35,74,33,40,500,0.0,669,457,60,120.0,0,1,327,225,91,0,0,0,250,250,0,0.0,0.0,0.0,0.0,0,0.0,-1,0.0,0.0,0,0.0,0.2774
16663,0,2,2,0.79,-0.0,0.49,0,4,-1,0.79,10751,35,74,33,40,500,0.0,672,457,60,120.0,0,1,327,226,91,0,0,0,250,250,0,,,,,,,,,,,,
16683,0,2,2,0.84,-0.07,0.57,0,-0,-2,0.84,10714,35,74,33,40,500,0.0,671,456,60,120.0,0,1,327,225,91,0,0,0,250,250,0,,,,,,,,,,,,
16703,0,3,2,0.79,-0.1,0.71,0,-1,-2,0.8,10689,35,75,33,40,500,0.0,684,458,60,120.0,0,1,327,224,90,0,0,0,250,250,0,,,,,,,,,,,,
16723,0,5,2,0.74,-0.12,0.75,0,1,-0,0.75,10720,35,75,33,40,500,0.0,681,459,60,120.0,0,1,327,225,90,0,0,0,250,250,0,,,,,,,,,,,,
16743,0,5,2,0.86,-0.14,0.68,0,2,-1,0.87,10641,35,75,33,40,500,0.0,677,454,60,120.0,0,1,327,223,90,0,0,0,250,250,0,0.0,0.0,0.0,0.0,0,0.0,-1,0.0,0.0,0,0.0,0.279
16763,0,4,2,0.89,-0.11,0.58,0,1,-1,0.89,10641,35,75,33,40,500,0.0,691,455,60,120.0,0,1,327,223,90,0,0,0,250,250,0,,,,,,,,,,,,
16783,0,2,2,0.93,-0.03,0.57,0,-1,-2,0.93,10569,35,75,33,40,500,0.0,675,453,60,121.0,0,1,327,226,90,0,0,0,250,250,0,,,,,,,,,,,,
16803,0,1,2,0.93,0.07,0.61,0,0,-1,0.93,10551,35,75,33,41,500,0.0,671,456,60,120.0,0,1,335,226,90,0,0,0,250,250,0,,,,,,,,,,,,
16823,0,0,2,0.93,0.13,0.47,0,1,0,0.94,10474,35,75,33,41,500,0.0,663,456,60,121.0,0,1,335,225,90,0,0,0,250,250,0,,,,,,,,,,,,
16843,0,-1,2,0.95,0.2,0.42,0,1,-0,0.97,10469,35,75,33,41,500,0.0,669,456,60,120.0,0,1,335,225,90,0,0,0,250,250,0,0.0,0.0,0.0,0.0,0,0.0,-1,0.0,0.0,0,0.0,0.2807
16863,0,5,2,1.03,0.22,0.46,0,-1,-1,1.05,10376,35,75,33,41,500,0.0,667,454,60,120.0,0,1,335,225,90,0,0,0,250,250,0,,,,,,,,,,,,
16883,0,4,2,1.05,0.25,0.55,0,-1,-0,1.08,10364,35,75,33,41,500,0.0,668,459,60,121.0,0,1,335,225,90,0,0,0,250,250,0,,,,,,,,,,,,
16903,0,4,2,1.14,0.18,0.59,0,-0,0,1.15,10273,35,75,33,41,500,0.0,673,461,60,120.0,0,1,335,225,87,0,0,0,250,250,0,,,,,,,,,,,,
16923,0,1,2,1.06,0.14,0.68,0,-1,-0,1.07,10251,35,75,33,41,500,0.0,668,459,60,120.0,0,1,335,225,87,0,0,0,250,250,0,,,,,,,,,,,,
16943,0,1,2,0.92,0.14,0.74,0,0,-1,0.93,10217,35,75,33,41,500,0.0,666,451,60,121.0,0,1,335,225,87,0,0,0,250,250,0,0.0,0.0,0.0,0.0,0,0.0,-1,0.0,0.0,0,0.0,0.2824
16963,0,1,2,0.84,0.09,0.7,0,1,0,0.84,10146,35,75,33,41,500,0.0,662,455,60,120.0,0,1,335,225,87,0,0,0,250,250,0,,,,,,,,,,,,
16983,0,4,2,0.93,0.08,0.64,0,-0,-0,0.93,10135,35,75,33,41,500,0.0,672,456,60,120.0,0,1,335,225,87,0,0,0,250,250,0,,,,,,,,,,,,
17003,0,4,2,0.96,0.06,0.71,0,0,-1,0.96,10064,35,75,33,41,500,0.0,670,452,60,120.0,0,1,335,225,86,0,0,0,250,250,0,,,,,,,,,,,,
17023,0,1,2,0.76,0.07,0.7,1,1,0,0.76,10032,35,75,33,41,500,0.0,666,462,60,120.0,0,1,335,225,86,0,0,0,250,250,0,,,,,,,,,,,,
17043,0,5,2,0.8,0.1,0.71,0,1,-1,0.8,10026,35,75,33,41,500,0.0,663,452,60,120.0,0,1,335,225,86,0,0,0,250,250,0,0.0,0.0,0.0,0.0,0,0.0,-1,0.0,0.0,0,0.0,0.284
17063,0,3,2,0.89,0.04,0.71,0,0,-1,0.89,9941,35,75,33,41,500,0.0,666,453,60,120.0,0,1,335,224,86,0,0,0,250,250,0,,,,,,,,,,,,
17083,0,-0,2,0.65,0.05,0.71,0,2,-0,0.66,9920,35,75,33,41,500,0.0,657,457,60,120.0,0,1,335,224,86,0,0,0,250,250,0,,,,,,,,,,,,
17103,0,2,2,0.79,0.05,0.72,0,0,-1,0.79,9920,35,75,33,41,500,0.0,659,457,60,121.0,0,1,335,224,84,0,0,0,250,250,0,,,,,,,,,,,,
17123,0,2,2,0.7,0.05,0.66,1,1,-1,0.7,9847,35,75,33,41,500,0.0,673,455,60,120.0,0,1,335,224,84,0,0,0,250,250,0,,,,,,,,,,,,
17143,0,4,2,0.72,-0.01,0.78,0,0,-0,0.72,9821,35,75,33,41,500,11.0,673,460,60,121.0,0,1,335,223,84,0,0,0,-235,250,0,0.0,0.0,0.0,0.0,0,0.0,-1,0.0,0.0,0,0.0,0.2857
17163,0,3,2,0.72,-0.05,0.72,0,0,-0,0.72,9821,36,75,33,41,500,11.0,667,462,60,120.0,0,1,335,223,84,0,0,0,-235,250,0,,,,,,,,,,,,
17183,0,6,2,0.63,-0.04,0.72,0,1,-1,0.63,9770,36,75,33,41,500,11.0,657,455,60,121.0,0,1,335,223,84,0,0,0,-235,250,0,,,,,,,,,,,,
17203,0,2,2,0.76,-0.01,0.69,0,1,0,0.76,9679,36,75,33,41,500,11.0,668,458,60,120.0,0,1,335,222,81,0,0,15,-235,250,0,,,,,,,,,,,,
17223,0,4,2,0.83,-0.0,0.76,-0,-2,-0,0.83,9625,36,75,33,41,500,11.0,660,456,60,121.0,0,1,335,222,81,0,0,15,-235,250,0,,,,,,,,,,,,
17243,0,0,2,0.64,0.05,0.64,1,0,-0,0.64,9576,36,75,33,41,500,11.0,662,460,60,120.0,0,1,335,224,81,0,0,15,-235,9731,0,0.0,0.0,0.0,0.0,0,0.0,-1,0.0,0.0,0,0.0,0.2874
17263,0,3,2,0.77,0.0,0.7,-0,-2,-0,0.77,9532,36,75,33,41,500,17.0,657,463,60,120.0,0,1,335,224,81,0,0,15,-235,9731,17,,,,,,,,,,,,
17283,0,4,2,0.5,0.02,0.61,-0,-1,-1,0.5,9512,36,75,33,41,500,18.0,659,460,60,120.0,0,1,335,221,81,0,0,15,5414,9731,17,,,,,,,,,,,,
17303,0,1,2,0.52,0.04,0.58,0,1,-1,0.52,9422,36,75,33,42,500,18.0,660,460,60,120.0,0,1,341,223,79,0,0,15,5414,9731,17,,,,,,,,,,,,
17323,0,2,2,0.67,-0.0,0.72,-0,-2,-2,0.67,9360,36,75,33,41,500,18.0,664,460,60,120.0,0,1,334,220,79,0,0,21,5414,9731,17,,,,,,,,,,,,
17343,0,2,2,0.63,-0.06,0.76,-1,-2,-1,0.64,9328,36,75,33,42,500,18.0,657,457,60,121.0,0,1,341,222,79,0,0,21,5414,9731,17,0.0,0.0,0.0,0.0,0,0.0,-1,0.0,0.0,0,0.0,0.2891
17363,0,3,2,0.39,-0.02,0.72,-0,-0,-1,0.39,9286,36,75,33,42,500,23.0,650,460,60,121.0,0,1,340,221,79,0,0,21,5414,-1281,23,,,,,,,,,,,,
17383,0,1,2,0.32,0.02,0.65,0,2,-0,0.32,9231,36,75,33,42,500,24.0,649,455,60,120.0,0,1,340,221,79,0,0,21,1018,-1281,23,,,,,,,,,,,,
17403,0,-0,2,0.4,0.05,0.65,0,1,-1,0.4,9191,37,75,33,42,500,24.0,657,457,60,120.0,3391,1,339,221,78,0,0,21,1018,-1281,23,,,,,,,,,,,,
17423,0,1,2,0.56,0.07,0.71,0,0,-1,0.57,9146,37,75,33,43,500,24.0,664,452,60,120.0,3391,1,346,223,78,0,0,26,1018,-1281,23,,,,,,,,,,,,
17443,0,1,2,0.71,0.0,0.74,-1,-1,-1,0.71,9018,37,75,33,43,500,24.0,655,458,60,120.0,3391,1,345,223,78,0,0,26,1018,-1281,23,0.0,0.0,0.0,0.0,0,0.0,-1,0.0,0.0,0,0.0,0.2907
17463,0,-1,2,0.82,0.01,0.78,-1,-2,-1,0.82,8915,37,75,33,44,500,29.0,661,449,60,120.0,3391,1,351,222,78,0,0,26,-1,-1,27,,,,,,,,,,,,
17483,0,-2,2,0.82,-0.03,0.78,-1,-1,-1,0.82,8823,37,75,33,44,500,29.0,652,457,60,120.0,3391,1,351,224,78,0,0,26,-1,-1,27,,,,,,,,,,,,
17503,0,4,2,0.71,-0.03,0.74,-1,-0,-1,0.71,8700,37,75,33,44,500,29.0,641,463,60,120.0,2740,1,351,223,74,0,0,31,-1,-1,27,,,,,,,,,,,,
17523,0,4,2,0.62,0.01,0.75,0,0,-1,0.62,8600,37,75,33,45,500,29.0,644,455,60,121.0,2740,1,357,225,74,0,0,31,-1,-1,27,,,,,,,,,,,,
17543,0,2,2,0.72,0.01,0.77,-0,-1,0,0.72,8565,38,75,33,46,500,33.0,650,449,60,120.0,2740,1,363,226,74,0,0,31,-1,-1,31,0.0,0.0,0.0,0.0,0,0.0,-1,0.0,0.0,0,0.0,0.2924
17563,0,0,2,0.75,0.02,0.74,-1,-1,-1,0.75,8542,38,75,33,46,500,33.0,662,453,60,120.0,2740,1,363,226,74,0,0,31,-1,-1,31,,,,,,,,,,,,
17583,0,4,2,0.71,0.03,0.69,-0,0,0,0.71,8453,38,75,33,47,500,33.0,655,456,60,121.0,2740,1,370,227,74,0,0,35,-1,-1,31,,,,,,,,,,,,
17603,0,-1,2,0.77,0.08,0.74,-0,-1,-1,0.77,8389,38,75,33,47,500,33.0,636,457,60,121.0,2290,1,370,226,71,0,0,35,-1,-1,35,,,,,,,,,,,,
17623,0,3,2,0.71,0.06,0.69,-0,1,0,0.71,8311,38,75,33,48,500,37.0,653,457,60,120.0,2290,1,372,232,71,0,0,35,-1,-1,35,,,,,,,,,,,,
17643,0,2,2,0.76,0.08,0.76,-1,-0,-0,0.76,8267,39,75,33,48,500,37.0,642,460,60,121.0,2290,1,372,231,71,0,0,39,-1,-1,35,0.0,0.0,0.0,0.0,0,0.0,-1,0.0,0.0,0,0.0,0.294
17663,0,5,2,0.75,0.03,0.72,-1,0,-1,0.75,8307,39,75,33,49,500,37.0,647,455,60,120.0,2290,1,375,239,71,0,0,39,-1,1018,35,,,,,,,,,,,,
17683,0,3,2,0.75,0.07,0.74,-1,0,1,0.75,8285,39,75,33,49,500,41.0,636,456,60,121.0,2290,1,375,238,71,0,0,39,24067,1018,39,,,,,,,,,,,,
17703,0,5,2,0.67,0.05,0.74,-1,0,-2,0.68,8311,39,75,33,50,500,41.0,642,456,60,120.0,1974,1,378,245,77,0,0,43,24067,1018,39,,,,,,,,,,,,
17723,0,1,2,0.67,-0.0,0.77,-1,1,1,0.67,8267,39,75,33,50,500,41.0,635,460,60,121.0,1974,1,378,252,77,0,0,43,-1,-1,39,,,,,,,,,,,,
17743,0,4,2,0.66,0.01,0.72,-1,1,-1,0.66,8281,39,75,33,50,500,45.0,637,457,60,121.0,1974,1,378,245,77,0,0,43,-1,-1,44,0.0,0.0,0.0,0.0,0,0.0,-1,0.0,0.0,0,0.0,0.2957
17763,0,2,2,0.68,-0.05,0.75,-1,0,-2,0.69,8292,39,75,33,50,500,45.0,636,455,60,121.0,1974,1,378,245,77,0,0,47,-1,-1,44,,,,,,,,,,,,
17783,0,-1,2,0.67,-0.03,0.78,-1,1,-1,0.67,8296,39,75,33,51,500,49.0,643,456,60,120.0,1974,1,381,245,77,0,0,47,-1,-1,47,,,,,,,,,,,,
17803,0,2,2,0.67,-0.05,0.79,-1,0,-3,0.68,8274,40,75,33,51,500,49.0,638,460,60,121.0,1680,1,381,252,79,0,0,51,-1,-1,47,,,,,,,,,,,,
17823,0,0,2,0.72,-0.04,0.73,-1,1,-1,0.72,8318,40,75,33,51,500,49.0,633,458,60,120.0,1680,1,381,253,79,0,0,51,-1,-1,47,,,,,,,,,,,,
17843,0,3,2,0.7,0.01,0.7,-1,0,-2,0.7,8366,40,75,33,51,500,53.0,638,455,60,121.0,1680,1,381,254,79,0,0,55,-1,-1,51,0.0,0.0,0.0,0.0,0,0.0,-1,0.0,0.0,0,0.0,0.2974
17863,0,1,2,0.75,0.03,0.73,-1,-1,-3,0.75,8400,40,75,33,51,500,53.0,649,450,60,120.0,1680,1,381,255,79,0,0,55,-1,-1,51,,,,,,,,,,,,
17883,0,5,2,0.66,0.06,0.69,-1,1,-0,0.66,8348,41,75,33,51,500,56.0,652,456,60,120.0,1680,1,381,253,79,0,0,55,-1,-1,55,,,,,,,,,,,,
17903,0,2,2,0.73,0.04,0.77,-2,0,-3,0.73,8344,41,75,33,51,500,56.0,643,458,60,121.0,1454,1,381,260,80,0,0,58,-1,-1,55,,,,,,,,,,,,
17923,0,3,2,0.71,0.02,0.74,-2,1,-1,0.71,8385,41,75,33,52,500,60.0,659,458,60,120.0,1454,1,384,255,80,0,0,58,-1,-1,58,,,,,,,,,,,,
17943,0,3,2,0.69,0.04,0.77,-1,1,-2,0.7,8445,41,75,33,51,500,60.0,636,455,60,121.0,1454,1,381,262,80,0,0,61,-1,-1,58,0.0,0.0,0.0,0.0,0,0.0,-1,0.0,0.0,0,0.0,0.299
17963,0,-1,2,0.75,0.07,0.82,-2,0,-4,0.76,8415,42,75,33,52,500,63.0,644,455,60,120.0,1454,1,384,262,80,0,0,61,-1281,-1,58,,,,,,,,,,,,
17983,0,3,2,0.68,0.09,0.72,-1,2,-1,0.69,8370,42,75,33,52,500,63.0,638,455,60,120.0,1454,1,384,261,80,0,0,64,-1281,-1,61,,,,,,,,,,,,
18003,0,-1,2,0.69,0.11,0.77,-1,1,-4,0.69,8408,42,75,33,52,500,66.0,644,455,60,120.0,1360,1,384,262,83,0,0,64,14054,-6656,61,,,,,,,,,,,,
18023,0,1,2,0.7,0.1,0.75,-2,1,-2,0.7,8457,43,75,33,52,500,66.0,640,457,60,120.0,1360,1,384,262,83,0,0,68,14054,-6656,64,,,,,,,,,,,,
18043,0,2,2,0.68,0.11,0.69,-2,1,-2,0.69,8507,43,75,33,52,500,69.0,649,455,60,121.0,1360,1,384,263,83,0,0,68,-27648,250,67,0.0,0.0,0.0,0.0,0,0.0,-1,0.0,0.0,0,0.0,0.3007
18063,0,3,2,0.74,0.12,0.76,-2,0,-4,0.75,8507,43,75,33,52,500,69.0,648,455,60,120.0,1360,1,384,263,83,0,0,71,-27648,250,67,,,,,,,,,,,,
18083,0,1,2,0.68,0.09,0.75,-2,2,-3,0.68,8442,43,75,33,53,500,72.0,640,457,60,119.0,1360,1,387,262,83,0,0,74,250,250,70,,,,,,,,,,,,
18103,0,2,2,0.66,0.07,0.77,-1,2,-5,0.66,8411,43,75,33,52,500,75.0,638,459,60,121.0,1185,1,384,262,83,0,0,74,-1481,-1481,70,,,,,,,,,,,,
18123,0,-1,2,0.74,0.05,0.84,-2,1,-3,0.74,8385,44,75,33,53,500,75.0,650,461,60,121.0,1185,1,387,268,83,0,0,77,-1481,-1481,74,,,,,,,,,,,,
18143,0,3,2,0.69,0.05,0.8,-2,1,-4,0.69,8400,44,75,33,53,500,79.0,633,453,60,120.0,1185,1,387,269,83,0,0,77,-1481,-20480,74,0.0,0.0,0.0,0.0,0,0.0,-1,0.0,0.0,0,0.0,0.3024
18163,0,1,2,0.71,0.02,0.83,-2,1,-4,0.71,8370,44,75,33,54,500,79.0,653,456,60,120.0,1185,1,390,275,83,0,0,80,-1481,-20480,77,,,,,,,,,,,,
18183,0,11,2,0.62,0.03,0.84,-2,3,-3,0.62,8370,44,75,33,53,500,82.0,638,456,60,121.0,1185,1,387,268,83,0,0,83,14270,-16896,80,,,,,,,,,,,,
18203,0,4,2,0.65,0.0,0.88,-2,3,-5,0.65,8348,44,75,33,54,500,85.0,639,457,60,121.0,1087,1,390,274,87,0,0,83,-13312,250,80,,,,,,,,,,,,
18223,0,1,2,0.68,0.03,0.85,-2,2,-3,0.68,8366,44,75,33,55,500,85.0,637,460,60,120.0,1087,1,398,275,87,0,0,86,-13312,250,83,,,,,,,,,,,,
18243,0,3,2,0.63,0.06,0.74,-2,2,-4,0.63,8442,44,75,33,54,500,88.0,628,463,60,121.0,1087,1,390,276,87,0,0,90,250,-1481,86,0.0,0.0,0.0,0.0,0,0.0,-1,0.0,0.0,0,0.0,0.304
18263,0,3,2,0.67,0.06,0.78,-2,1,-4,0.67,8457,45,75,33,55,500,91.0,643,454,60,120.0,1087,1,398,277,87,0,0,93,-1481,-1481,86,,,,,,,,,,,,
18283,0,5,2,0.59,0.08,0.79,-2,1,-4,0.6,8359,45,75,33,54,500,94.0,638,451,60,121.0,1087,1,390,275,87,0,0,93,14312,-1481,89,,,,,,,,,,,,
18303,0,3,2,0.62,0.06,0.84,-2,1,-5,0.62,8307,45,75,33,54,500,94.0,628,460,60,121.0,988,1,390,280,88,0,0,96,14312,14312,92,,,,,,,,,,,,
18323,0,-0,2,0.6,0.09,0.84,-3,1,-3,0.61,8267,45,75,33,56,500,97.0,641,459,60,119.0,988,1,406,287,88,0,0,99,-22528,-22528,92,,,,,,,,,,,,
18343,0,3,2,0.61,0.1,0.84,-2,1,-4,0.62,8278,45,75,33,56,500,101.0,624,460,60,121.0,988,1,406,286,88,0,0,103,2048,2048,96,0.0,0.0,0.0,0.0,0,0.0,-1,0.0,0.0,0,0.0,0.3057
18363,0,-1,2,0.56,0.08,0.92,-3,1,-4,0.57,8270,45,75,33,57,500,105.0,652,455,60,120.0,988,1,414,293,88,0,0,103,3584,3584,100,,,,,,,,,,,,
18383,0,2,2,0.53,0.07,0.89,-2,2,-2,0.54,8216,46,75,33,57,500,105.0,622,455,60,121.0,988,1,415,291,88,0,0,106,250,3584,103,,,,,,,,,,,,
18403,0,2,2,0.53,0.05,0.88,-3,2,-4,0.53,8205,46,75,33,58,500,108.0,650,460,60,120.0,873,1,423,298,90,0,0,110,250,5120,106,,,,,,,,,,,,
18423,0,3,2,0.56,0.01,0.85,-2,2,-3,0.56,8230,46,75,33,57,500,111.0,629,455,60,121.0,873,1,415,299,90,0,0,113,-1482,13850,106,,,,,,,,,,,,
18443,0,5,2,0.48,0.03,0.96,-3,3,-5,0.48,8159,46,75,33,58,500,115.0,632,453,60,121.0,873,1,423,296,90,0,0,117,-1482,8192,111,0.0,0.0,0.0,0.0,0,0.0,-1,0.0,0.0,0,0.0,0.3074
18463,0,-0,2,0.56,0.03,0.95,-3,3,-4,0.56,8074,46,75,33,59,500,118.0,635,458,60,120.0,873,1,432,298,90,0,0,122,13856,13862,114,,,,,,,,,,,,
18483,0,5,2,0.52,0.01,0.97,-3,5,-4,0.52,7992,46,75,33,60,500,122.0,632,458,60,120.0,873,1,440,300,90,0,0,125,13862,-202,118,,,,,,,,,,,,
18503,0,4,2,0.42,0.08,0.98,-3,7,-5,0.43,7770,46,76,33,61,500,127.0,628,455,60,121.0,723,1,443,304,89,0,0,131,-202,-1,123,,,,,,,,,,,,
18523,0,5,2,0.32,0.06,0.98,-3,11,-5,0.33,7437,46,76,33,63,500,132.0,620,456,60,120.0,723,1,430,315,89,0,0,137,-1,-1,127,,,,,,,,,,,,
18543,0,2,2,0.23,0.08,0.95,-4,13,-5,0.24,7096,46,76,33,66,500,137.0,608,459,60,120.0,723,1,406,320,89,0,0,144,-1,-1,133,0.0,0.0,0.0,0.0,0,0.0,-1,0.0,0.0,0,0.0,0.309
18563,0,3,2,0.33,0.11,1.05,-3,10,-4,0.34,6602,46,76,33,68,500,144.0,571,452,60,121.0,723,1,378,319,89,0,0,151,-1,-1,140,,,,,,,,,,,,
18583,0,5,2,0.22,0.12,1.04,-3,11,-5,0.25,6081,46,76,33,72,500,150.0,539,457,60,122.0,723,1,355,372,89,0,0,173,-1,250,151,,,,,,,,,,,,
18603,0,2,2,0.22,0.12,1.0,-4,9,-5,0.25,5471,46,76,33,74,501,161.0,485,455,60,120.0,536,1,314,373,81,0,0,189,3072,-1,157,,,,,,,,,,,,
18623,0,3,2,0.21,0.19,1.01,-4,7,-4,0.28,4910,46,76,33,78,501,165.0,428,458,60,122.0,536,1,283,367,81,0,0,222,30720,19456,162,,,,,,,,,,,,
