"Interval"|"ms"|0|0|1,"Utc"|"ms"|0|0|1,"EngineTemp"|"F"|0|300|1,"OilTemp"|"F"|0|300|1,"OilPress"|"PSI"|0|150|25,"Battery"|"Volts"|0.0|20.0|1,"Battery"|"Volts"|0.0|20.0|1,"AccelX"|"G"|-3.0|3.0|25,"AccelY"|"G"|-3.0|3.0|25,"AccelZ"|"G"|-3.0|3.0|25,"Yaw"|"Deg/Sec"|-120|120|25,"Pitch"|"Deg/Sec"|-120|120|25,"Roll"|"Deg/Sec"|-120|120|25,"RPM"|""|0|10000|25,"RPM"|""|0|14000|1,"Latitude"|"Degrees"|-180.0|180.0|10,"Longitude"|"Degrees"|-180.0|180.0|10,"Speed"|"MPH"|0.0|150.0|10,"Altitude"|"ft"|0.0|4000.0|10,"GPSSats"|""|0|20|10,"GPSQual"|""|0|5|10,"GPSDOP"|""|0.0|20.0|10,"Distance"|"mi"|0.0|0.0|10,"LapCount"|""|0|0|10,"LapTime"|"Min"|0.0|0.0|10,"Sector"|""|0|0|10,"SectorTime"|"Min"|0.0|0.0|10,"PredTime"|"Min"|0.0|0.0|5,"ElapsedTime"|"Min"|0.0|0.0|10,"CurrentLap"|""|0|0|10
1251827,0,,,0,,,0.01,0.02,0.98,-0,0,-8,0,,,,,,,,,,,,,,,,
1251867,0,,,0,,,0.01,0.02,0.99,-2,0,-6,0,,,,,,,,,,,,,,,,
1251907,0,,,0,,,0.01,0.02,0.99,-2,0,-5,0,,,,,,,,,,,,,,,,
1251947,0,,,0,,,0.01,0.02,0.99,-3,0,-4,0,,0.0,0.0,0.0,0.0,0,0,0.0,0.0,0,0.0,-1,0.0,0.0,0.0,0
1251987,0,,,0,,,0.02,0.02,0.99,-2,0,-3,0,,,,,,,,,,,,,,,,
1252027,0,,,0,,,0.02,0.02,0.99,-2,0,-3,0,,,,,,,,,,,,,,,,
1252067,0,,,0,,,0.02,0.02,0.99,-1,0,-2,0,,,,,,,,,,,,,,,,
1252107,0,,,0,,,0.02,0.02,0.99,-1,0,-2,0,,,,,,,,,,,,,,,,
1252147,0,,,0,,,0.02,0.02,0.99,-1,0,-2,0,,0.0,0.0,0.0,0.0,0,0,0.0,0.0,0,0.0,-1,0.0,0.0,0.0,0
1252187,0,,,0,,,0.02,0.02,0.98,1,0,-1,0,,,,,,,,,,,,,,,,
1252227,0,,,0,,,0.02,0.02,0.98,1,0,-1,0,,,,,,,,,,,,,,,,
1252267,0,,,0,,,0.02,0.02,0.98,1,0,-1,0,,,,,,,,,,,,,,,,
1252307,0,,,0,,,0.02,0.02,0.98,1,0,-1,0,,,,,,,,,,,,,,,,
1252347,0,247,285,0,0.0,5.17,0.02,0.02,0.98,1,0,-1,0,0,0.0,0.0,0.0,0.0,0,0,0.0,0.0,0,0.0,-1,0.0,0.0,0.0,0
1252387,0,,,0,,,0.02,0.02,0.98,1,0,-1,0,,,,,,,,,,,,,,,,
1252427,0,,,0,,,0.02,0.02,0.98,1,0,-0,0,,,,,,,,,,,,,,,,
1252467,0,,,0,,,0.02,0.02,0.98,0,0,-0,0,,,,,,,,,,,,,,,,
1252507,0,,,0,,,0.02,0.02,0.98,0,0,-0,0,,,,,,,,,,,,,,,,
1252547,0,,,0,,,0.02,0.02,0.98,0,0,-0,0,,0.0,0.0,0.0,0.0,0,0,0.0,0.0,0,0.0,-1,0.0,0.0,0.0,0
1252587,0,,,0,,,0.02,0.02,0.98,0,0,-0,0,,,,,,,,,,,,,,,,
1252627,0,,,0,,,0.02,0.02,0.98,0,0,-0,0,,,,,,,,,,,,,,,,
1252667,0,,,0,,,0.02,0.02,0.98,0,0,-0,0,,,,,,,,,,,,,,,,
1252707,0,,,0,,,0.02,0.02,0.98,0,0,-0,0,,,,,,,,,,,,,,,,
1252747,0,,,0,,,0.02,0.02,0.98,0,0,-0,0,,0.0,0.0,0.0,0.0,0,0,0.0,0.0,0,0.0,-1,0.0,0.0,0.0,0
1252787,0,,,0,,,0.02,0.02,0.98,0,0,-0,0,,,,,,,,,,,,,,,,
1252827,0,,,0,,,0.02,0.02,0.98,0,0,-0,0,,,,,,,,,,,,,,,,
1252867,0,,,0,,,0.02,0.02,0.98,0,0,-0,0,,,,,,,,,,,,,,,,
1252907,0,,,0,,,0.02,0.02,0.99,0,0,-0,0,,,,,,,,,,,,,,,,
1252947,0,,,0,,,0.02,0.02,0.99,0,0,-0,0,,0.0,0.0,0.0,0.0,0,0,0.0,0.0,0,0.0,-1,0.0,0.0,0.0,0
1252987,0,,,0,,,0.02,0.02,0.99,0,0,-0,0,,,,,,,,,,,,,,,,
1253027,0,,,0,,,0.02,0.02,0.99,0,0,-0,0,,,,,,,,,,,,,,,,
1253067,0,,,0,,,0.02,0.02,0.98,0,0,-0,0,,,,,,,,,,,,,,,,
1253107,0,,,0,,,0.02,0.02,0.98,0,0,-0,0,,,,,,,,,,,,,,,,
1253147,0,,,0,,,0.02,0.02,0.99,0,0,-0,0,,0.0,0.0,0.0,0.0,0,0,0.0,0.0,0,0.0,-1,0.0,0.0,0.0,0
1253187,0,,,0,,,0.02,0.02,0.99,0,0,-0,0,,,,,,,,,,,,,,,,
1253227,0,,,0,,,0.02,0.02,0.99,0,0,-0,0,,,,,,,,,,,,,,,,
1253267,0,,,0,,,0.02,0.02,0.98,0,0,-0,0,,,,,,,,,,,,,,,,
1253307,0,,,0,,,0.02,0.02,0.98,0,0,-0,0,,,,,,,,,,,,,,,,
1253347,0,247,285,0,0.0,5.17,0.02,0.02,0.98,0,0,-0,0,0,0.0,0.0,0.0,0.0,0,0,0.0,0.0,0,0.0,-1,0.0,0.0,0.0,0
1253387,0,,,0,,,0.02,0.02,0.98,0,0,-0,0,,,,,,,,,,,,,,,,
1253427,0,,,0,,,0.02,0.02,0.98,0,0,0,0,,,,,,,,,,,,,,,,
1253467,0,,,0,,,0.02,0.02,0.98,0,-1,-1,0,,,,,,,,,,,,,,,,
1253507,0,,,0,,,0.02,0.02,0.97,0,-0,-0,0,,,,,,,,,,,,,,,,
1253547,0,,,0,,,0.02,0.02,0.97,0,-0,-0,0,,0.0,0.0,0.0,0.0,0,0,0.0,0.0,0,0.0,-1,0.0,0.0,0.0,0
1253587,0,,,0,,,0.02,0.02,0.98,0,-0,-0,0,,,,,,,,,,,,,,,,
1253627,0,,,0,,,0.02,0.02,0.98,0,-0,-0,0,,,,,,,,,,,,,,,,
1253667,0,,,0,,,0.02,0.02,0.98,0,-0,-0,0,,,,,,,,,,,,,,,,
1253707,0,,,0,,,0.02,0.02,0.98,0,-0,-0,0,,,,,,,,,,,,,,,,
1253747,0,,,0,,,0.02,0.02,0.98,0,-0,-0,0,,0.0,0.0,0.0,0.0,0,0,0.0,0.0,0,0.0,-1,0.0,0.0,0.0,0
1253787,0,,,0,,,0.02,0.02,0.98,0,-0,-0,0,,,,,,,,,,,,,,,,
1253827,0,,,0,,,0.02,0.02,0.98,0,-0,-0,0,,,,,,,,,,,,,,,,
1253867,0,,,0,,,0.02,0.02,0.98,0,-0,-0,0,,,,,,,,,,,,,,,,
1253907,0,,,0,,,0.02,0.02,0.98,0,0,-0,0,,,,,,,,,,,,,,,,
1253947,0,,,0,,,0.02,0.02,0.98,0,0,-0,0,,0.0,0.0,0.0,0.0,0,0,0.0,0.0,0,0.0,-1,0.0,0.0,0.0,0
1253987,0,,,0,,,0.02,0.02,0.98,0,-0,-0,0,,,,,,,,,,,,,,,,
1254027,0,,,0,,,0.02,0.02,0.98,0,-0,-0,0,,,,,,,,,,,,,,,,
1254067,0,,,0,,,0.02,0.02,0.98,0,-0,-0,0,,,,,,,,,,,,,,,,
1254107,0,,,0,,,0.02,0.02,0.98,0,0,-0,0,,,,,,,,,,,,,,,,
1254147,0,,,0,,,0.02,0.02,0.99,0,0,-0,0,,0.0,0.0,0.0,0.0,0,0,0.0,0.0,0,0.0,-1,0.0,0.0,0.0,0
1254187,0,,,0,,,0.02,0.02,0.99,0,0,-0,0,,,,,,,,,,,,,,,,
1254227,0,,,0,,,0.02,0.02,0.99,0,0,-0,0,,,,,,,,,,,,,,,,
1254267,0,,,0,,,0.02,0.02,0.99,0,0,-0,0,,,,,,,,,,,,,,,,
1254307,0,,,0,,,0.02,0.02,0.99,0,0,-0,0,,,,,,,,,,,,,,,,
1254347,0,247,285,0,0.0,5.14,0.02,0.02,0.99,0,0,-0,0,0,0.0,0.0,0.0,0.0,0,0,0.0,0.0,0,0.0,-1,0.0,0.0,0.0,0
1254387,0,,,0,,,0.02,0.02,0.99,0,0,-0,0,,,,,,,,,,,,,,,,
1254427,0,,,0,,,0.02,0.02,0.99,0,0,-0,0,,,,,,,,,,,,,,,,
1254467,0,,,0,,,0.02,0.02,0.98,0,0,-0,0,,,,,,,,,,,,,,,,
1254507,0,,,0,,,0.02,0.02,0.98,0,0,-0,0,,,,,,,,,,,,,,,,
1254547,0,,,0,,,0.02,0.02,0.98,0,0,-0,0,,0.0,0.0,0.0,0.0,0,0,0.0,0.0,0,0.0,-1,0.0,0.0,0.0,0
1254587,0,,,0,,,0.02,0.02,0.98,0,0,-0,0,,,,,,,,,,,,,,,,
1254627,0,,,0,,,0.02,0.02,0.99,0,0,-0,0,,,,,,,,,,,,,,,,
1254667,0,,,0,,,0.02,0.02,0.99,0,0,-0,0,,,,,,,,,,,,,,,,
1254707,0,,,0,,,0.02,0.02,0.99,0,0,-0,0,,,,,,,,,,,,,,,,
1254747,0,,,0,,,0.02,0.02,0.99,0,0,-0,0,,0.0,0.0,0.0,0.0,0,0,0.0,0.0,0,0.0,-1,0.0,0.0,0.0,0
1254787,0,,,0,,,0.02,0.02,0.99,0,0,-0,0,,,,,,,,,,,,,,,,
1254827,0,,,0,,,0.02,0.02,0.99,0,0,-0,0,,,,,,,,,,,,,,,,
1254867,0,,,0,,,0.02,0.02,0.98,0,0,-0,0,,,,,,,,,,,,,,,,
1254907,0,,,0,,,0.02,0.02,0.98,0,0,-0,0,,,,,,,,,,,,,,,,
1254947,0,,,0,,,0.02,0.02,0.99,0,0,-0,0,,0.0,0.0,0.0,0.0,0,0,0.0,0.0,0,0.0,-1,0.0,0.0,0.0,0
1254987,0,,,0,,,0.02,0.02,0.99,0,0,-0,0,,,,,,,,,,,,,,,,
1255027,0,,,0,,,0.02,0.02,0.99,0,0,-0,0,,,,,,,,,,,,,,,,
1255067,0,,,0,,,0.02,0.02,0.99,0,0,-0,0,,,,,,,,,,,,,,,,
1255107,0,,,0,,,0.02,0.02,0.99,0,0,-0,0,,,,,,,,,,,,,,,,
1255147,0,,,0,,,0.02,0.02,0.98,0,0,-0,0,,0.0,0.0,0.0,0.0,0,0,0.0,0.0,0,0.0,-1,0.0,0.0,0.0,0
1255187,0,,,0,,,0.02,0.02,0.98,0,0,-0,0,,,,,,,,,,,,,,,,
1255227,0,,,0,,,0.02,0.02,0.98,0,0,-0,0,,,,,,,,,,,,,,,,
1255267,0,,,0,,,0.02,0.02,0.99,0,0,-0,0,,,,,,,,,,,,,,,,
1255307,0,,,0,,,0.02,0.02,0.99,0,0,-0,0,,,,,,,,,,,,,,,,
1255347,0,247,285,0,0.0,5.17,0.02,0.02,0.98,0,0,-0,0,0,0.0,0.0,0.0,0.0,0,0,0.0,0.0,0,0.0,-1,0.0,0.0,0.0,0
1255387,0,,,0,,,0.02,0.02,0.99,0,0,-0,0,,,,,,,,,,,,,,,,
1255427,0,,,0,,,0.02,0.02,0.99,0,-0,-0,0,,,,,,,,,,,,,,,,
1255467,0,,,0,,,0.02,0.02,0.99,0,0,-0,0,,,,,,,,,,,,,,,,
1255507,0,,,0,,,0.02,0.02,0.99,0,0,-0,0,,,,,,,,,,,,,,,,
1255547,0,,,0,,,0.02,0.02,0.99,0,0,-0,0,,0.0,0.0,0.0,0.0,0,0,0.0,0.0,0,0.0,-1,0.0,0.0,0.0,0
1255587,0,,,0,,,0.02,0.02,0.99,0,0,-0,0,,,,,,,,,,,,,,,,
1255627,0,,,0,,,0.02,0.02,0.99,0,0,-0,0,,,,,,,,,,,,,,,,
1255667,0,,,0,,,0.02,0.02,0.99,0,0,-0,0,,,,,,,,,,,,,,,,
1255707,0,,,0,,,0.02,0.02,0.99,0,0,-0,0,,,,,,,,,,,,,,,,
1255747,0,,,0,,,0.02,0.02,0.99,0,0,-0,0,,0.0,0.0,0.0,0.0,0,0,0.0,0.0,0,0.0,-1,0.0,0.0,0.0,0
1255787,0,,,0,,,0.02,0.02,0.99,0,0,-0,0,,,,,,,,,,,,,,,,
1255827,0,,,0,,,0.02,0.02,0.99,0,0,-0,0,,,,,,,,,,,,,,,,
1255867,0,,,0,,,0.02,0.02,0.99,0,0,-0,0,,,,,,,,,,,,,,,,
1255907,0,,,0,,,0.02,0.02,0.99,0,0,-0,0,,,,,,,,,,,,,,,,
1255947,0,,,0,,,0.02,0.02,0.99,0,0,-0,0,,0.0,0.0,0.0,0.0,0,0,0.0,0.0,0,0.0,-1,0.0,0.0,0.0,0
1255987,0,,,0,,,0.02,0.02,0.99,0,0,-0,0,,,,,,,,,,,,,,,,
1256027,0,,,0,,,0.02,0.02,0.99,0,0,-0,0,,,,,,,,,,,,,,,,
1256067,0,,,0,,,0.02,0.02,0.98,0,0,-0,0,,,,,,,,,,,,,,,,
1256107,0,,,0,,,0.02,0.02,0.98,0,0,-0,0,,,,,,,,,,,,,,,,
1256147,0,,,0,,,0.02,0.02,0.98,0,0,-0,0,,0.0,0.0,0.0,0.0,0,0,0.0,0.0,0,0.0,-1,0.0,0.0,0.0,0
1256187,0,,,0,,,0.02,0.02,0.99,0,0,-0,0,,,,,,,,,,,,,,,,
1256227,0,,,0,,,0.02,0.02,0.99,0,0,-0,0,,,,,,,,,,,,,,,,
1256267,0,,,0,,,0.02,0.02,0.99,0,0,-0,0,,,,,,,,,,,,,,,,
1256307,0,,,0,,,0.02,0.02,0.99,0,0,-0,0,,,,,,,,,,,,,,,,
1256347,0,247,285,0,0.0,5.15,0.02,0.02,0.99,0,0,-0,0,0,0.0,0.0,0.0,0.0,0,0,0.0,0.0,0,0.0,-1,0.0,0.0,0.0,0
1256387,0,,,0,,,0.02,0.02,0.99,0,0,-0,0,,,,,,,,,,,,,,,,
1256427,0,,,0,,,0.02,0.02,0.99,0,0,-0,0,,,,,,,,,,,,,,,,
1256467,0,,,0,,,0.02,0.02,0.99,0,0,-0,0,,,,,,,,,,,,,,,,
1256507,0,,,0,,,0.02,0.02,0.99,0,0,-0,0,,,,,,,,,,,,,,,,
1256547,0,,,0,,,0.02,0.02,0.99,0,0,-0,0,,0.0,0.0,0.0,0.0,0,0,0.0,0.0,0,0.0,-1,0.0,0.0,0.0,0
1256587,0,,,0,,,0.02,0.02,0.99,0,0,-0,0,,,,,,,,,,,,,,,,
1256627,0,,,0,,,0.02,0.02,0.99,0,0,-0,0,,,,,,,,,,,,,,,,
1256667,0,,,0,,,0.02,0.02,0.98,0,0,-0,0,,,,,,,,,,,,,,,,
1256707,0,,,0,,,0.02,0.02,0.98,0,0,-0,0,,,,,,,,,,,,,,,,
1256747,0,,,0,,,0.02,0.02,0.99,0,0,-0,0,,0.0,0.0,0.0,0.0,0,0,0.0,0.0,0,0.0,-1,0.0,0.0,0.0,0
1256787,0,,,0,,,0.02,0.02,0.99,0,0,-0,0,,,,,,,,,,,,,,,,
1256827,0,,,0,,,0.02,0.02,0.98,0,0,-0,0,,,,,,,,,,,,,,,,
1256867,0,,,0,,,0.02,0.02,0.98,0,0,-0,0,,,,,,,,,,,,,,,,
1256907,0,,,0,,,0.02,0.02,0.98,0,0,-0,0,,,,,,,,,,,,,,,,
1256947,0,,,0,,,0.02,0.02,0.98,0,0,-0,0,,0.0,0.0,0.0,0.0,0,0,0.0,0.0,0,0.0,-1,0.0,0.0,0.0,0
1256987,0,,,0,,,0.02,0.02,0.98,0,0,-0,0,,,,,,,,,,,,,,,,
1257027,0,,,0,,,0.02,0.02,0.98,0,0,-0,0,,,,,,,,,,,,,,,,
1257067,0,,,0,,,0.02,0.02,0.99,0,0,-0,0,,,,,,,,,,,,,,,,
1257107,0,,,0,,,0.02,0.02,0.99,0,0,-0,0,,,,,,,,,,,,,,,,
1257147,0,,,0,,,0.02,0.02,0.99,0,0,-0,0,,0.0,0.0,0.0,0.0,0,0,0.0,0.0,0,0.0,-1,0.0,0.0,0.0,0
1257187,0,,,0,,,0.02,0.02,0.99,0,0,-0,0,,,,,,,,,,,,,,,,
1257227,0,,,0,,,0.02,0.02,0.99,0,0,-0,0,,,,,,,,,,,,,,,,
1257267,0,,,0,,,0.02,0.02,0.99,0,0,-0,0,,,,,,,,,,,,,,,,
1257307,0,,,0,,,0.02,0.02,0.99,0,0,-0,0,,,,,,,,,,,,,,,,
1257347,0,247,285,0,0.0,5.17,0.02,0.02,0.99,0,0,-0,0,0,0.0,0.0,0.0,0.0,0,0,0.0,0.0,0,0.0,-1,0.0,0.0,0.0,0
1257387,0,,,0,,,0.02,0.02,0.99,0,-0,-0,0,,,,,,,,,,,,,,,,
1257427,0,,,0,,,0.02,0.02,0.99,0,-0,-0,0,,,,,,,,,,,,,,,,
1257467,0,,,0,,,0.02,0.02,0.99,0,0,-0,0,,,,,,,,,,,,,,,,
1257507,0,,,0,,,0.02,0.02,0.99,0,0,-0,0,,,,,,,,,,,,,,,,
1257547,0,,,0,,,0.02,0.02,0.99,0,0,-0,0,,0.0,0.0,0.0,0.0,0,0,0.0,0.0,0,0.0,-1,0.0,0.0,0.0,0
1257587,0,,,0,,,0.02,0.02,0.99,0,0,-0,0,,,,,,,,,,,,,,,,
1257627,0,,,0,,,0.02,0.02,0.98,0,0,-0,0,,,,,,,,,,,,,,,,
1257667,0,,,0,,,0.02,0.02,0.99,0,0,-0,0,,,,,,,,,,,,,,,,
1257707,0,,,0,,,0.02,0.02,0.99,0,0,-0,0,,,,,,,,,,,,,,,,
1257747,0,,,0,,,0.02,0.02,0.99,0,0,-0,0,,0.0,0.0,0.0,0.0,0,0,0.0,0.0,0,0.0,-1,0.0,0.0,0.0,0
1257787,0,,,0,,,0.02,0.02,0.99,0,0,-0,0,,,,,,,,,,,,,,,,
1257827,0,,,0,,,0.02,0.02,0.99,0,0,-0,0,,,,,,,,,,,,,,,,
1257867,0,,,0,,,0.02,0.02,0.99,0,0,-0,0,,,,,,,,,,,,,,,,
1257907,0,,,0,,,0.02,0.02,0.99,0,0,-0,0,,,,,,,,,,,,,,,,
1257947,0,,,0,,,0.02,0.02,0.99,0,0,-0,0,,0.0,0.0,0.0,0.0,0,0,0.0,0.0,0,0.0,-1,0.0,0.0,0.0,0
1257987,0,,,0,,,0.02,0.02,0.99,0,0,-0,0,,,,,,,,,,,,,,,,
1258027,0,,,0,,,0.02,0.02,0.99,0,0,-0,0,,,,,,,,,,,,,,,,
1258067,0,,,0,,,0.02,0.02,0.99,0,0,-0,0,,,,,,,,,,,,,,,,
1258107,0,,,0,,,0.02,0.02,0.99,0,0,-0,0,,,,,,,,,,,,,,,,
1258147,0,,,0,,,0.02,0.02,0.99,0,0,-0,0,,0.0,0.0,0.0,0.0,0,0,0.0,0.0,0,0.0,-1,0.0,0.0,0.0,0
1258187,0,,,0,,,0.02,0.02,0.99,0,0,-0,0,,,,,,,,,,,,,,,,
1258227,0,,,0,,,0.02,0.02,0.99,0,0,-0,0,,,,,,,,,,,,,,,,
1258267,0,,,0,,,0.02,0.02,0.99,0,0,-0,0,,,,,,,,,,,,,,,,
1258307,0,,,0,,,0.02,0.02,0.99,0,0,-0,0,,,,,,,,,,,,,,,,
1258347,0,247,285,0,0.0,5.14,0.02,0.02,0.99,0,0,-0,0,0,0.0,0.0,0.0,0.0,0,0,0.0,0.0,0,0.0,-1,0.0,0.0,0.0,0
1258387,0,,,0,,,0.02,0.02,0.99,0,0,-0,0,,,,,,,,,,,,,,,,
1258427,0,,,0,,,0.02,0.02,0.99,0,0,-0,0,,,,,,,,,,,,,,,,
1258467,0,,,0,,,0.02,0.02,0.99,0,0,-0,0,,,,,,,,,,,,,,,,
1258507,0,,,0,,,0.02,0.02,0.99,0,0,-0,0,,,,,,,,,,,,,,,,
1258547,0,,,0,,,0.02,0.02,0.99,0,0,-0,0,,0.0,0.0,0.0,0.0,0,0,0.0,0.0,0,0.0,-1,0.0,0.0,0.0,0
1258587,0,,,0,,,0.02,0.02,0.99,0,0,-0,0,,,,,,,,,,,,,,,,
1258627,0,,,0,,,0.02,0.02,0.99,0,0,-0,0,,,,,,,,,,,,,,,,
1258667,0,,,0,,,0.02,0.02,0.99,0,0,-0,0,,,,,,,,,,,,,,,,
1258707,0,,,0,,,0.02,0.02,0.99,0,0,-0,0,,,,,,,,,,,,,,,,
1258747,0,,,0,,,0.02,0.02,0.99,0,0,-0,0,,0.0,0.0,0.0,0.0,0,0,0.0,0.0,0,0.0,-1,0.0,0.0,0.0,0
1258787,0,,,0,,,0.02,0.02,0.99,0,0,-0,0,,,,,,,,,,,,,,,,
1258827,0,,,0,,,0.02,0.02,0.99,0,0,-0,0,,,,,,,,,,,,,,,,
1258867,0,,,0,,,0.02,0.02,0.99,0,0,-0,0,,,,,,,,,,,,,,,,
1258907,0,,,0,,,0.02,0.02,0.99,0,0,-0,0,,,,,,,,,,,,,,,,
1258947,0,,,0,,,0.02,0.02,0.99,0,0,-0,0,,0.0,0.0,0.0,0.0,0,0,0.0,0.0,0,0.0,-1,0.0,0.0,0.0,0
1258987,0,,,0,,,0.02,0.02,0.99,0,0,-0,0,,,,,,,,,,,,,,,,
1259027,0,,,0,,,0.02,0.02,0.99,0,0,-0,0,,,,,,,,,,,,,,,,
1259067,0,,,0,,,0.02,0.02,0.99,0,0,-0,0,,,,,,,,,,,,,,,,
1259107,0,,,0,,,0.02,0.02,0.99,0,0,-0,0,,,,,,,,,,,,,,,,
1259147,0,,,0,,,0.02,0.02,0.99,0,0,-0,0,,0.0,0.0,0.0,0.0,0,0,0.0,0.0,0,0.0,-1,0.0,0.0,0.0,0
1259187,0,,,0,,,0.02,0.02,0.98,0,0,-0,0,,,,,,,,,,,,,,,,
1259227,0,,,0,,,0.02,0.02,0.98,0,0,-0,0,,,,,,,,,,,,,,,,
1259267,0,,,0,,,0.02,0.02,0.98,0,0,-0,0,,,,,,,,,,,,,,,,
1259307,0,,,0,,,0.02,0.02,0.98,0,0,-0,0,,,,,,,,,,,,,,,,
1259347,0,248,285,0,0.0,5.16,0.02,0.02,0.98,0,0,-0,0,0,0.0,0.0,0.0,0.0,0,0,0.0,0.0,0,0.0,-1,0.0,0.0,0.0,0
1259387,0,,,0,,,0.02,0.02,0.98,0,0,-0,0,,,,,,,,,,,,,,,,
1259427,0,,,0,,,0.02,0.02,0.98,0,0,-0,0,,,,,,,,,,,,,,,,
1259467,0,,,0,,,0.02,0.02,0.99,0,0,-0,0,,,,,,,,,,,,,,,,
1259507,0,,,0,,,0.02,0.02,0.99,0,0,-0,0,,,,,,,,,,,,,,,,
1259547,0,,,0,,,0.02,0.02,0.99,0,-0,-0,0,,0.0,0.0,0.0,0.0,0,0,0.0,0.0,0,0.0,-1,0.0,0.0,0.0,0
1259587,0,,,0,,,0.02,0.02,0.98,0,-0,-0,0,,,,,,,,,,,,,,,,
1259627,0,,,0,,,0.02,0.02,0.98,0,0,-0,0,,,,,,,,,,,,,,,,
1259667,0,,,0,,,0.02,0.02,0.99,0,0,-0,0,,,,,,,,,,,,,,,,
1259707,0,,,0,,,0.02,0.02,0.98,0,0,-0,0,,,,,,,,,,,,,,,,
1259747,0,,,0,,,0.02,0.02,0.98,0,0,-0,0,,0.0,0.0,0.0,0.0,0,0,0.0,0.0,0,0.0,-1,0.0,0.0,0.0,0
1259787,0,,,0,,,0.02,0.02,0.98,0,0,-0,0,,,,,,,,,,,,,,,,
1259827,0,,,0,,,0.02,0.02,0.99,0,0,-0,0,,,,,,,,,,,,,,,,
1259867,0,,,0,,,0.02,0.02,0.99,0,0,-0,0,,,,,,,,,,,,,,,,
1259907,0,,,0,,,0.02,0.02,0.99,0,0,-0,0,,,,,,,,,,,,,,,,
1259947,0,,,0,,,0.02,0.02,0.99,0,0,-0,0,,0.0,0.0,0.0,0.0,0,0,0.0,0.0,0,0.0,-1,0.0,0.0,0.0,0
1259987,0,,,0,,,0.02,0.02,0.98,0,0,-0,0,,,,,,,,,,,,,,,,
1260027,0,,,0,,,0.02,0.02,0.99,0,0,-0,0,,,,,,,,,,,,,,,,
1260067,0,,,0,,,0.02,0.02,0.98,0,0,-0,0,,,,,,,,,,,,,,,,
1260107,0,,,0,,,0.02,0.02,0.98,0,0,-0,0,,,,,,,,,,,,,,,,
1260147,0,,,0,,,0.02,0.02,0.98,0,0,0,0,,0.0,0.0,0.0,0.0,0,0,0.0,0.0,0,0.0,-1,0.0,0.0,0.0,0
1260187,0,,,0,,,0.02,0.02,0.98,0,-0,-0,0,,,,,,,,,,,,,,,,
1260227,0,,,0,,,0.02,0.02,0.99,0,-0,-0,0,,,,,,,,,,,,,,,,
1260267,0,,,0,,,0.02,0.02,0.99,0,0,-0,0,,,,,,,,,,,,,,,,
1260307,0,,,0,,,0.02,0.02,0.99,0,0,-0,0,,,,,,,,,,,,,,,,
1260347,0,248,285,0,0.0,5.14,0.02,0.02,0.99,0,0,-0,0,0,0.0,0.0,0.0,0.0,0,0,0.0,0.0,0,0.0,-1,0.0,0.0,0.0,0
1260387,0,,,0,,,0.02,0.02,0.99,0,0,-0,0,,,,,,,,,,,,,,,,
1260427,0,,,0,,,0.02,0.02,0.99,0,0,-0,0,,,,,,,,,,,,,,,,
1260467,0,,,0,,,0.02,0.02,0.99,0,0,-0,0,,,,,,,,,,,,,,,,
1260507,0,,,0,,,0.02,0.02,0.99,0,0,-0,0,,,,,,,,,,,,,,,,
1260547,0,,,0,,,0.02,0.02,0.99,0,0,-0,0,,0.0,0.0,0.0,0.0,0,0,0.0,0.0,0,0.0,-1,0.0,0.0,0.0,0
1260587,0,,,0,,,0.02,0.02,0.98,0,0,-0,0,,,,,,,,,,,,,,,,
1260627,0,,,0,,,0.02,0.02,0.98,0,0,-0,0,,,,,,,,,,,,,,,,
1260667,0,,,0,,,0.02,0.02,0.98,0,0,-0,0,,,,,,,,,,,,,,,,
1260707,0,,,0,,,0.02,0.02,0.99,0,0,-0,0,,,,,,,,,,,,,,,,
1260747,0,,,0,,,0.02,0.02,0.99,0,0,-0,0,,0.0,0.0,0.0,0.0,0,0,0.0,0.0,0,0.0,-1,0.0,0.0,0.0,0
1260787,0,,,0,,,0.02,0.02,0.99,0,0,-0,0,,,,,,,,,,,,,,,,
1260827,0,,,0,,,0.02,0.02,0.99,0,0,-0,0,,,,,,,,,,,,,,,,
1260867,0,,,0,,,0.02,0.02,0.99,0,0,-0,0,,,,,,,,,,,,,,,,
1260907,0,,,0,,,0.02,0.02,0.99,0,0,-0,0,,,,,,,,,,,,,,,,
1260947,0,,,0,,,0.02,0.02,0.99,0,0,-0,0,,0.0,0.0,0.0,0.0,0,0,0.0,0.0,0,0.0,-1,0.0,0.0,0.0,0
1260987,0,,,0,,,0.02,0.02,0.99,0,0,-0,0,,,,,,,,,,,,,,,,
1261027,0,,,0,,,0.02,0.02,0.99,0,0,-0,0,,,,,,,,,,,,,,,,
1261067,0,,,0,,,0.02,0.02,0.99,0,0,-0,0,,,,,,,,,,,,,,,,
1261107,0,,,0,,,0.02,0.02,0.99,0,0,-0,0,,,,,,,,,,,,,,,,
1261147,0,,,0,,,0.02,0.02,0.99,0,0,-0,0,,0.0,0.0,0.0,0.0,0,0,0.0,0.0,0,0.0,-1,0.0,0.0,0.0,0
1261187,0,,,0,,,0.02,0.02,0.99,0,0,-0,0,,,,,,,,,,,,,,,,
1261227,0,,,0,,,0.02,0.02,0.99,0,0,-0,0,,,,,,,,,,,,,,,,
1261267,0,,,0,,,0.02,0.02,0.99,0,0,-0,0,,,,,,,,,,,,,,,,
1261307,0,,,0,,,0.02,0.02,0.99,0,0,-0,0,,,,,,,,,,,,,,,,
1261347,0,249,285,0,0.0,5.15,0.02,0.02,0.99,0,0,-0,0,0,0.0,0.0,0.0,0.0,0,0,0.0,0.0,0,0.0,-1,0.0,0.0,0.0,0
1261387,0,,,0,,,0.02,0.02,0.99,0,0,-0,0,,,,,,,,,,,,,,,,
1261427,0,,,0,,,0.02,0.02,0.99,0,0,-0,0,,,,,,,,,,,,,,,,
1261467,0,,,0,,,0.02,0.02,0.99,0,0,-0,0,,,,,,,,,,,,,,,,
1261507,0,,,0,,,0.02,0.02,0.99,0,0,-0,0,,,,,,,,,,,,,,,,
1261547,0,,,0,,,0.02,0.02,0.99,0,0,-0,0,,0.0,0.0,0.0,0.0,0,0,0.0,0.0,0,0.0,-1,0.0,0.0,0.0,0
1261587,0,,,0,,,0.02,0.02,0.99,0,0,-0,0,,,,,,,,,,,,,,,,
1261627,0,,,0,,,0.02,0.02,0.99,0,0,-0,0,,,,,,,,,,,,,,,,
1261667,0,,,0,,,0.02,0.02,0.99,0,0,-0,0,,,,,,,,,,,,,,,,
1261707,0,,,0,,,0.02,0.02,0.99,0,0,-0,0,,,,,,,,,,,,,,,,
1261747,0,,,0,,,0.02,0.02,0.99,0,0,-0,0,,0.0,0.0,0.0,0.0,0,0,0.0,0.0,0,0.0,-1,0.0,0.0,0.0,0
1261787,0,,,0,,,0.02,0.02,0.98,0,0,-0,0,,,,,,,,,,,,,,,,
1261827,0,,,0,,,0.02,0.02,0.98,0,0,-0,0,,,,,,,,,,,,,,,,
1261867,0,,,0,,,0.02,0.02,0.98,0,0,-0,0,,,,,,,,,,,,,,,,
1261907,0,,,0,,,0.02,0.02,0.99,0,0,-0,0,,,,,,,,,,,,,,,,
1261947,0,,,0,,,0.02,0.02,0.99,0,0,-0,0,,0.0,0.0,0.0,0.0,0,0,0.0,0.0,0,0.0,-1,0.0,0.0,0.0,0
1261987,0,,,0,,,0.02,0.02,0.98,0,0,-0,0,,,,,,,,,,,,,,,,
1262027,0,,,0,,,0.02,0.02,0.99,0,0,-0,0,,,,,,,,,,,,,,,,
1262067,0,,,0,,,0.02,0.02,0.99,0,0,-0,0,,,,,,,,,,,,,,,,
1262107,0,,,0,,,0.02,0.02,0.99,0,0,-0,0,,,,,,,,,,,,,,,,
1262147,0,,,0,,,0.02,0.02,0.99,0,0,-0,0,,0.0,0.0,0.0,0.0,0,0,0.0,0.0,0,0.0,-1,0.0,0.0,0.0,0
1262187,0,,,0,,,0.02,0.02,0.99,0,0,-0,0,,,,,,,,,,,,,,,,
1262227,0,,,0,,,0.02,0.02,0.99,0,0,-0,0,,,,,,,,,,,,,,,,
1262267,0,,,0,,,0.02,0.02,0.99,0,0,-0,0,,,,,,,,,,,,,,,,
1262307,0,,,0,,,0.02,0.02,0.99,0,0,-0,0,,,,,,,,,,,,,,,,
1262347,0,248,285,0,0.0,5.17,0.02,0.02,0.99,0,0,-0,0,0,0.0,0.0,0.0,0.0,0,0,0.0,0.0,0,0.0,-1,0.0,0.0,0.0,0
1262387,0,,,0,,,0.02,0.02,0.99,0,0,-0,0,,,,,,,,,,,,,,,,
1262427,0,,,0,,,0.02,0.02,0.99,0,0,-0,0,,,,,,,,,,,,,,,,
1262467,0,,,0,,,0.02,0.02,0.99,0,0,-0,0,,,,,,,,,,,,,,,,
1262507,0,,,0,,,0.02,0.02,0.99,0,0,-0,0,,,,,,,,,,,,,,,,
1262547,0,,,0,,,0.02,0.02,0.99,0,0,-0,0,,0.0,0.0,0.0,0.0,0,0,0.0,0.0,0,0.0,-1,0.0,0.0,0.0,0
1262587,0,,,0,,,0.02,0.02,0.99,0,0,-0,0,,,,,,,,,,,,,,,,
1262627,0,,,0,,,0.02,0.02,0.99,0,0,-0,0,,,,,,,,,,,,,,,,
1262667,0,,,0,,,0.02,0.02,0.99,0,0,-0,0,,,,,,,,,,,,,,,,
1262707,0,,,0,,,0.02,0.02,0.99,0,0,-0,0,,,,,,,,,,,,,,,,
1262747,0,,,0,,,0.02,0.02,0.99,0,0,-0,0,,0.0,0.0,0.0,0.0,0,0,0.0,0.0,0,0.0,-1,0.0,0.0,0.0,0
1262787,0,,,0,,,0.02,0.02,0.99,0,0,-0,0,,,,,,,,,,,,,,,,
1262827,0,,,0,,,0.02,0.02,0.99,0,0,-0,0,,,,,,,,,,,,,,,,
1262867,0,,,0,,,0.02,0.02,0.99,0,0,-0,0,,,,,,,,,,,,,,,,
1262907,0,,,0,,,0.02,0.02,0.99,0,0,-0,0,,,,,,,,,,,,,,,,
1262947,0,,,0,,,0.02,0.02,0.98,0,0,-0,0,,0.0,0.0,0.0,0.0,0,0,0.0,0.0,0,0.0,-1,0.0,0.0,0.0,0
1262987,0,,,0,,,0.02,0.02,0.98,0,0,-0,0,,,,,,,,,,,,,,,,
1263027,0,,,0,,,0.02,0.02,0.98,0,0,-0,0,,,,,,,,,,,,,,,,
1263067,0,,,0,,,0.02,0.02,0.99,0,0,-0,0,,,,,,,,,,,,,,,,
1263107,0,,,0,,,0.02,0.02,0.98,0,0,-0,0,,,,,,,,,,,,,,,,
1263147,0,,,0,,,0.02,0.02,0.99,0,0,-0,0,,0.0,0.0,0.0,0.0,0,0,0.0,0.0,0,0.0,-1,0.0,0.0,0.0,0
1263187,0,,,0,,,0.02,0.02,0.99,0,0,-0,0,,,,,,,,,,,,,,,,
1263227,0,,,0,,,0.02,0.02,0.99,0,0,-0,0,,,,,,,,,,,,,,,,
1263267,0,,,0,,,0.02,0.02,0.99,0,0,-0,0,,,,,,,,,,,,,,,,
1263307,0,,,0,,,0.02,0.02,0.98,0,0,-0,0,,,,,,,,,,,,,,,,
1263347,0,248,285,0,0.0,5.14,0.02,0.02,0.99,0,0,-0,0,0,0.0,0.0,0.0,0.0,0,0,0.0,0.0,0,0.0,-1,0.0,0.0,0.0,0
1263387,0,,,0,,,0.02,0.02,0.99,0,0,-0,0,,,,,,,,,,,,,,,,
1263427,0,,,0,,,0.02,0.02,0.98,0,0,-0,0,,,,,,,,,,,,,,,,
1263467,0,,,0,,,0.02,0.02,0.99,0,0,-0,0,,,,,,,,,,,,,,,,
1263507,0,,,0,,,0.02,0.02,0.99,0,0,-0,0,,,,,,,,,,,,,,,,
1263547,0,,,0,,,0.02,0.02,0.99,0,0,-0,0,,0.0,0.0,0.0,0.0,0,0,0.0,0.0,0,0.0,-1,0.0,0.0,0.0,0
1263587,0,,,0,,,0.02,0.02,0.99,0,0,-0,0,,,,,,,,,,,,,,,,
1263627,0,,,0,,,0.02,0.02,0.99,0,0,-0,0,,,,,,,,,,,,,,,,
1263667,0,,,0,,,0.02,0.02,0.98,0,0,-0,0,,,,,,,,,,,,,,,,
1263707,0,,,0,,,0.02,0.02,0.99,0,0,-0,0,,,,,,,,,,,,,,,,
1263747,0,,,0,,,0.02,0.02,0.99,0,0,-0,0,,0.0,0.0,0.0,0.0,0,0,0.0,0.0,0,0.0,-1,0.0,0.0,0.0,0
1263787,0,,,0,,,0.02,0.02,0.99,0,0,-0,0,,,,,,,,,,,,,,,,
1263827,0,,,0,,,0.02,0.02,0.99,0,0,-0,0,,,,,,,,,,,,,,,,
1263867,0,,,0,,,0.02,0.02,0.99,0,0,-0,0,,,,,,,,,,,,,,,,
1263907,0,,,0,,,0.02,0.02,0.99,0,0,-0,0,,,,,,,,,,,,,,,,
1263947,0,,,0,,,0.02,0.02,0.99,0,-0,-0,0,,0.0,0.0,0.0,0.0,0,0,0.0,0.0,0,0.0,-1,0.0,0.0,0.0,0
1263987,0,,,0,,,0.02,0.02,0.99,0,-0,-0,0,,,,,,,,,,,,,,,,
1264027,0,,,0,,,0.02,0.02,0.99,0,-0,-0,0,,,,,,,,,,,,,,,,
1264067,0,,,0,,,0.02,0.02,0.99,0,0,-0,0,,,,,,,,,,,,,,,,
1264107,0,,,0,,,0.02,0.02,0.99,0,0,-0,0,,,,,,,,,,,,,,,,
1264147,0,,,0,,,0.02,0.02,0.99,0,0,-0,0,,0.0,0.0,0.0,0.0,0,0,0.0,0.0,0,0.0,-1,0.0,0.0,0.0,0
1264187,0,,,0,,,0.02,0.02,0.99,0,0,-0,0,,,,,,,,,,,,,,,,
1264227,0,,,0,,,0.02,0.02,0.99,0,0,-0,0,,,,,,,,,,,,,,,,
1264267,0,,,0,,,0.02,0.02,0.99,0,0,-0,0,,,,,,,,,,,,,,,,
1264307,0,,,0,,,0.02,0.02,0.99,0,0,-0,0,,,,,,,,,,,,,,,,
1264347,0,248,285,0,0.0,5.16,0.02,0.02,0.99,0,0,-0,0,0,0.0,0.0,0.0,0.0,0,0,0.0,0.0,0,0.0,-1,0.0,0.0,0.0,0
1264387,0,,,0,,,0.02,0.02,0.99,0,0,-0,0,,,,,,,,,,,,,,,,
1264427,0,,,0,,,0.02,0.02,0.99,0,0,-0,0,,,,,,,,,,,,,,,,
1264467,0,,,0,,,0.02,0.02,0.99,0,0,-0,0,,,,,,,,,,,,,,,,
1264507,0,,,0,,,0.02,0.02,0.99,0,0,-0,0,,,,,,,,,,,,,,,,
1264547,0,,,0,,,0.02,0.02,0.99,0,0,-0,0,,0.0,0.0,0.0,0.0,0,0,0.0,0.0,0,0.0,-1,0.0,0.0,0.0,0
1264587,0,,,0,,,0.02,0.02,0.99,0,0,-0,0,,,,,,,,,,,,,,,,
1264627,0,,,0,,,0.02,0.02,0.99,0,0,-0,0,,,,,,,,,,,,,,,,
1264667,0,,,0,,,0.02,0.02,0.99,0,0,-0,0,,,,,,,,,,,,,,,,
1264707,0,,,0,,,0.02,0.02,0.99,0,0,-0,0,,,,,,,,,,,,,,,,
1264747,0,,,0,,,0.02,0.02,0.99,0,0,-0,0,,0.0,0.0,0.0,0.0,0,0,0.0,0.0,0,0.0,-1,0.0,0.0,0.0,0
1264787,0,,,0,,,0.02,0.02,0.99,0,0,-0,0,,,,,,,,,,,,,,,,
1264827,0,,,0,,,0.02,0.02,0.99,0,0,-0,0,,,,,,,,,,,,,,,,
1264867,0,,,0,,,0.02,0.02,0.99,0,0,-0,0,,,,,,,,,,,,,,,,
1264907,0,,,0,,,0.02,0.02,0.99,0,0,-0,0,,,,,,,,,,,,,,,,
1264947,0,,,0,,,0.02,0.02,0.99,0,0,-0,0,,0.0,0.0,0.0,0.0,0,0,0.0,0.0,0,0.0,-1,0.0,0.0,0.0,0
1264987,0,,,0,,,0.02,0.02,0.99,0,0,-0,0,,,,,,,,,,,,,,,,
1265027,0,,,0,,,0.02,0.02,0.99,0,0,-0,0,,,,,,,,,,,,,,,,
1265067,0,,,0,,,0.02,0.02,0.99,0,0,-0,0,,,,,,,,,,,,,,,,
1265107,0,,,0,,,0.02,0.02,0.99,0,0,-0,0,,,,,,,,,,,,,,,,
1265147,0,,,0,,,0.02,0.02,0.99,0,0,-0,0,,0.0,0.0,0.0,0.0,0,0,0.0,0.0,0,0.0,-1,0.0,0.0,0.0,0
1265187,0,,,0,,,0.02,0.02,0.98,0,0,-0,0,,,,,,,,,,,,,,,,
1265227,0,,,0,,,0.02,0.02,0.98,0,-0,-0,0,,,,,,,,,,,,,,,,
1265267,0,,,0,,,0.02,0.02,0.98,0,-0,-0,0,,,,,,,,,,,,,,,,
1265307,0,,,0,,,0.02,0.02,0.98,0,-0,-0,0,,,,,,,,,,,,,,,,
1265347,0,248,285,0,0.0,5.15,0.02,0.02,0.98,0,0,-0,0,0,0.0,0.0,0.0,0.0,0,0,0.0,0.0,0,0.0,-1,0.0,0.0,0.0,0
1265387,0,,,0,,,0.02,0.02,0.98,0,0,-0,0,,,,,,,,,,,,,,,,
1265427,0,,,0,,,0.02,0.02,0.99,0,0,-0,0,,,,,,,,,,,,,,,,
1265467,0,,,0,,,0.02,0.02,0.99,0,0,-0,0,,,,,,,,,,,,,,,,
1265507,0,,,0,,,0.02,0.02,0.99,0,0,-0,0,,,,,,,,,,,,,,,,
1265547,0,,,0,,,0.02,0.02,0.98,0,0,-0,0,,0.0,0.0,0.0,0.0,0,0,0.0,0.0,0,0.0,-1,0.0,0.0,0.0,0
1265587,0,,,0,,,0.02,0.02,0.98,0,0,-0,0,,,,,,,,,,,,,,,,
1265627,0,,,0,,,0.02,0.02,0.98,0,0,-0,0,,,,,,,,,,,,,,,,
1265667,0,,,0,,,0.02,0.02,0.98,0,0,-0,0,,,,,,,,,,,,,,,,
1265707,0,,,0,,,0.02,0.02,0.98,0,0,-0,0,,,,,,,,,,,,,,,,
1265747,0,,,0,,,0.02,0.02,0.98,0,-0,-0,0,,0.0,0.0,0.0,0.0,0,0,0.0,0.0,0,0.0,-1,0.0,0.0,0.0,0
1265787,0,,,0,,,0.02,0.02,0.98,0,-0,-0,0,,,,,,,,,,,,,,,,
1265827,0,,,0,,,0.02,0.02,0.98,0,-0,-0,0,,,,,,,,,,,,,,,,
1265867,0,,,0,,,0.02,0.02,0.98,0,0,-0,0,,,,,,,,,,,,,,,,
1265907,0,,,0,,,0.02,0.02,0.98,0,0,-0,0,,,,,,,,,,,,,,,,
1265947,0,,,0,,,0.02,0.02,0.98,0,0,-0,0,,0.0,0.0,0.0,0.0,0,0,0.0,0.0,0,0.0,-1,0.0,0.0,0.0,0
1265987,0,,,0,,,0.02,0.02,0.98,0,0,-0,0,,,,,,,,,,,,,,,,
1266027,0,,,0,,,0.02,0.02,0.98,0,0,-0,0,,,,,,,,,,,,,,,,
1266067,0,,,0,,,0.02,0.02,0.98,0,0,-0,0,,,,,,,,,,,,,,,,
1266107,0,,,0,,,0.02,0.02,0.98,0,0,-0,0,,,,,,,,,,,,,,,,
1266147,0,,,0,,,0.02,0.02,0.98,0,0,-0,0,,0.0,0.0,0.0,0.0,0,0,0.0,0.0,0,0.0,-1,0.0,0.0,0.0,0
1266187,0,,,0,,,0.02,0.02,0.98,0,0,-0,0,,,,,,,,,,,,,,,,
1266227,0,,,0,,,0.02,0.02,0.99,0,0,-0,0,,,,,,,,,,,,,,,,
1266267,0,,,0,,,0.02,0.02,0.99,0,0,-0,0,,,,,,,,,,,,,,,,
1266307,0,,,0,,,0.02,0.02,0.98,0,0,-0,0,,,,,,,,,,,,,,,,
1266347,0,248,285,0,0.0,5.17,0.02,0.02,0.99,0,0,-0,0,0,0.0,0.0,0.0,0.0,0,0,0.0,0.0,0,0.0,-1,0.0,0.0,0.0,0
1266387,0,,,0,,,0.02,0.02,0.98,0,0,-0,0,,,,,,,,,,,,,,,,
1266427,0,,,0,,,0.02,0.02,0.98,0,0,-0,0,,,,,,,,,,,,,,,,
1266467,0,,,0,,,0.02,0.02,0.98,0,0,-0,0,,,,,,,,,,,,,,,,
1266507,0,,,0,,,0.02,0.02,0.98,0,0,-0,0,,,,,,,,,,,,,,,,
1266547,0,,,0,,,0.02,0.02,0.98,0,0,-0,0,,0.0,0.0,0.0,0.0,0,0,0.0,0.0,0,0.0,-1,0.0,0.0,0.0,0
1266587,0,,,0,,,0.02,0.02,0.98,0,0,-0,0,,,,,,,,,,,,,,,,
1266627,0,,,0,,,0.02,0.02,0.98,0,0,-0,0,,,,,,,,,,,,,,,,
1266667,0,,,0,,,0.02,0.02,0.98,0,0,-0,0,,,,,,,,,,,,,,,,
1266707,0,,,0,,,0.02,0.02,0.98,0,0,-0,0,,,,,,,,,,,,,,,,
1266747,0,,,0,,,0.02,0.02,0.99,0,0,-0,0,,0.0,0.0,0.0,0.0,0,0,0.0,0.0,0,0.0,-1,0.0,0.0,0.0,0
1266787,0,,,0,,,0.02,0.02,0.98,0,0,-0,0,,,,,,,,,,,,,,,,
1266827,0,,,0,,,0.02,0.02,0.98,0,0,-0,0,,,,,,,,,,,,,,,,
1266867,0,,,0,,,0.02,0.02,0.98,0,0,-0,0,,,,,,,,,,,,,,,,
1266907,0,,,0,,,0.02,0.02,0.98,0,0,-0,0,,,,,,,,,,,,,,,,
1266947,0,,,0,,,0.02,0.02,0.98,0,0,-0,0,,0.0,0.0,0.0,0.0,0,0,0.0,0.0,0,0.0,-1,0.0,0.0,0.0,0
1266987,0,,,0,,,0.02,0.02,0.99,0,0,-0,0,,,,,,,,,,,,,,,,
1267027,0,,,0,,,0.02,0.02,0.99,0,0,-0,0,,,,,,,,,,,,,,,,
1267067,0,,,0,,,0.02,0.02,0.99,0,0,-0,0,,,,,,,,,,,,,,,,
1267107,0,,,0,,,0.02,0.02,0.99,0,0,-0,0,,,,,,,,,,,,,,,,
1267147,0,,,0,,,0.02,0.02,0.99,0,0,-0,0,,0.0,0.0,0.0,0.0,0,0,0.0,0.0,0,0.0,-1,0.0,0.0,0.0,0
1267187,0,,,0,,,0.02,0.02,0.99,0,0,-0,0,,,,,,,,,,,,,,,,
1267227,0,,,0,,,0.02,0.02,0.99,0,0,-0,0,,,,,,,,,,,,,,,,
1267267,0,,,0,,,0.02,0.02,0.99,0,0,-0,0,,,,,,,,,,,,,,,,
1267307,0,,,0,,,0.02,0.02,0.99,0,0,-0,0,,,,,,,,,,,,,,,,
1267347,0,248,284,0,0.0,5.14,0.02,0.02,0.99,0,0,-0,0,0,0.0,0.0,0.0,0.0,0,0,0.0,0.0,0,0.0,-1,0.0,0.0,0.0,0
1267387,0,,,0,,,0.02,0.02,0.98,0,0,-0,0,,,,,,,,,,,,,,,,
1267427,0,,,0,,,0.02,0.02,0.98,0,0,-0,0,,,,,,,,,,,,,,,,
1267467,0,,,0,,,0.02,0.02,0.98,0,0,-0,0,,,,,,,,,,,,,,,,
1267507,0,,,0,,,0.02,0.02,0.98,0,0,-0,0,,,,,,,,,,,,,,,,
1267547,0,,,0,,,0.02,0.02,0.98,0,0,-0,0,,0.0,0.0,0.0,0.0,0,0,0.0,0.0,0,0.0,-1,0.0,0.0,0.0,0
1267587,0,,,0,,,0.01,0.03,1.02,0,-1,-1,0,,,,,,,,,,,,,,,,
1267627,0,,,0,,,0.0,0.03,1.02,0,-1,-1,0,,,,,,,,,,,,,,,,
1267667,0,,,0,,,0.0,0.03,1.01,0,-1,-1,0,,,,,,,,,,,,,,,,
1267707,0,,,0,,,0.0,0.03,1.01,-1,-0,-1,0,,,,,,,,,,,,,,,,
1267747,0,,,0,,,0.01,0.03,1.0,-1,-0,-1,0,,0.0,0.0,0.0,0.0,0,0,0.0,0.0,0,0.0,-1,0.0,0.0,0.0,0
1267787,0,,,0,,,0.01,0.03,1.0,-0,-0,-1,0,,,,,,,,,,,,,,,,
1267827,0,,,0,,,0.01,0.03,1.0,-0,-0,-0,0,,,,,,,,,,,,,,,,
1267867,0,,,0,,,0.01,0.03,0.99,-0,-0,-0,0,,,,,,,,,,,,,,,,
1267907,0,,,0,,,0.01,0.03,0.99,-0,-0,-0,0,,,,,,,,,,,,,,,,
1267947,0,,,0,,,0.01,0.03,0.99,-0,-0,-0,0,,0.0,0.0,0.0,0.0,0,0,0.0,0.0,0,0.0,-1,0.0,0.0,0.0,0
1267987,0,,,0,,,0.01,0.03,0.99,0,-0,-0,0,,,,,,,,,,,,,,,,
1268027,0,,,0,,,0.01,0.03,0.99,0,-0,-0,0,,,,,,,,,,,,,,,,
1268067,0,,,0,,,0.01,0.03,0.99,0,0,-0,0,,,,,,,,,,,,,,,,
1268107,0,,,0,,,0.01,0.03,0.99,0,0,-0,0,,,,,,,,,,,,,,,,
1268147,0,,,0,,,0.01,0.03,0.99,0,0,-0,0,,0.0,0.0,0.0,0.0,0,0,0.0,0.0,0,0.0,-1,0.0,0.0,0.0,0
1268187,0,,,0,,,0.01,0.03,0.99,0,0,-0,0,,,,,,,,,,,,,,,,
1268227,0,,,0,,,0.01,0.03,0.99,0,0,-0,0,,,,,,,,,,,,,,,,
1268267,0,,,0,,,0.02,0.03,0.99,0,0,-0,0,,,,,,,,,,,,,,,,
1268307,0,,,0,,,0.01,0.03,0.99,0,0,-0,0,,,,,,,,,,,,,,,,
1268347,0,248,284,0,0.0,5.17,0.02,0.03,0.99,0,0,-0,0,0,0.0,0.0,0.0,0.0,0,0,0.0,0.0,0,0.0,-1,0.0,0.0,0.0,0
1268387,0,,,0,,,0.02,0.03,0.99,0,0,-0,0,,,,,,,,,,,,,,,,
1268427,0,,,0,,,0.02,0.03,0.99,0,0,-0,0,,,,,,,,,,,,,,,,
1268467,0,,,0,,,0.02,0.02,0.99,0,0,-0,0,,,,,,,,,,,,,,,,
1268507,0,,,0,,,0.02,0.02,0.98,0,0,-0,0,,,,,,,,,,,,,,,,
1268547,0,,,0,,,0.02,0.02,0.98,0,0,-0,0,,0.0,0.0,0.0,0.0,0,0,0.0,0.0,0,0.0,-1,0.0,0.0,0.0,0
1268587,0,,,0,,,0.02,0.02,0.98,0,0,-0,0,,,,,,,,,,,,,,,,
1268627,0,,,0,,,0.02,0.02,0.98,0,0,-0,0,,,,,,,,,,,,,,,,
1268667,0,,,0,,,0.02,0.02,0.98,0,0,-0,0,,,,,,,,,,,,,,,,
1268707,0,,,0,,,0.01,0.02,0.98,0,0,-0,0,,,,,,,,,,,,,,,,
1268747,0,,,0,,,0.02,0.02,0.99,0,0,-0,0,,0.0,0.0,0.0,0.0,0,0,0.0,0.0,0,0.0,-1,0.0,0.0,0.0,0
1268787,0,,,0,,,0.01,0.02,0.99,0,0,-0,0,,,,,,,,,,,,,,,,
1268827,0,,,0,,,0.02,0.02,0.99,0,0,-0,0,,,,,,,,,,,,,,,,
1268867,0,,,0,,,0.02,0.02,0.98,0,0,-0,0,,,,,,,,,,,,,,,,
1268907,0,,,0,,,0.02,0.02,0.98,0,0,-0,0,,,,,,,,,,,,,,,,
1268947,0,,,0,,,0.02,0.02,0.98,0,0,-0,0,,0.0,0.0,0.0,0.0,0,0,0.0,0.0,0,0.0,-1,0.0,0.0,0.0,0
1268987,0,,,0,,,0.01,0.02,0.99,0,0,-0,0,,,,,,,,,,,,,,,,
1269027,0,,,0,,,0.02,0.03,0.98,0,0,-0,0,,,,,,,,,,,,,,,,
1269067,0,,,0,,,0.02,0.03,0.98,0,0,-0,0,,,,,,,,,,,,,,,,
1269107,0,,,0,,,0.02,0.03,0.98,0,0,-0,0,,,,,,,,,,,,,,,,
1269147,0,,,0,,,0.02,0.03,0.98,0,0,-0,0,,0.0,0.0,0.0,0.0,0,0,0.0,0.0,0,0.0,-1,0.0,0.0,0.0,0
1269187,0,,,0,,,0.01,0.03,0.99,0,0,-0,0,,,,,,,,,,,,,,,,
1269227,0,,,0,,,0.02,0.03,0.99,0,0,-0,0,,,,,,,,,,,,,,,,
1269267,0,,,0,,,0.02,0.03,0.99,0,0,-0,0,,,,,,,,,,,,,,,,
1269307,0,,,0,,,0.01,0.03,0.99,0,0,-0,0,,,,,,,,,,,,,,,,
1269347,0,248,285,0,0.0,5.16,0.01,0.03,0.99,0,0,-0,0,0,0.0,0.0,0.0,0.0,0,0,0.0,0.0,0,0.0,-1,0.0,0.0,0.0,0
1269387,0,,,0,,,0.01,0.03,0.99,0,0,-0,0,,,,,,,,,,,,,,,,
1269427,0,,,0,,,0.01,0.03,0.99,0,0,-0,0,,,,,,,,,,,,,,,,
1269467,0,,,0,,,0.01,0.03,0.99,0,0,-0,0,,,,,,,,,,,,,,,,
1269507,0,,,0,,,0.01,0.03,0.99,0,0,-0,0,,,,,,,,,,,,,,,,
1269547,0,,,0,,,0.02,0.03,0.99,0,0,-0,0,,0.0,0.0,0.0,0.0,0,0,0.0,0.0,0,0.0,-1,0.0,0.0,0.0,0
1269587,0,,,0,,,0.01,0.03,0.99,0,0,-0,0,,,,,,,,,,,,,,,,
1269627,0,,,0,,,0.02,0.03,0.99,0,-0,-0,0,,,,,,,,,,,,,,,,
1269667,0,,,0,,,0.02,0.03,0.99,0,0,-0,0,,,,,,,,,,,,,,,,
1269707,0,,,0,,,0.02,0.02,0.99,0,0,-0,0,,,,,,,,,,,,,,,,
1269747,0,,,0,,,0.02,0.02,0.99,0,0,-0,0,,0.0,0.0,0.0,0.0,0,0,0.0,0.0,0,0.0,-1,0.0,0.0,0.0,0
1269787,0,,,0,,,0.02,0.02,0.99,0,0,-0,0,,,,,,,,,,,,,,,,
1269827,0,,,0,,,0.02,0.02,0.99,0,0,-0,0,,,,,,,,,,,,,,,,
1269867,0,,,0,,,0.02,0.02,0.99,0,0,-0,0,,,,,,,,,,,,,,,,
1269907,0,,,0,,,0.02,0.02,0.99,0,0,-0,0,,,,,,,,,,,,,,,,
1269947,0,,,0,,,0.02,0.02,0.99,0,0,-0,0,,0.0,0.0,0.0,0.0,0,0,0.0,0.0,0,0.0,-1,0.0,0.0,0.0,0
1269987,0,,,0,,,0.02,0.02,0.99,0,0,-0,0,,,,,,,,,,,,,,,,
1270027,0,,,0,,,0.02,0.02,0.98,0,0,-0,0,,,,,,,,,,,,,,,,
1270067,0,,,0,,,0.02,0.03,0.98,0,0,-0,0,,,,,,,,,,,,,,,,
1270107,0,,,0,,,0.02,0.02,0.98,0,0,-0,0,,,,,,,,,,,,,,,,
1270147,0,,,0,,,0.02,0.02,0.99,0,0,-0,0,,0.0,0.0,0.0,0.0,0,0,0.0,0.0,0,0.0,-1,0.0,0.0,0.0,0
1270187,0,,,0,,,0.01,0.02,0.99,0,0,-0,0,,,,,,,,,,,,,,,,
1270227,0,,,0,,,0.01,0.02,0.98,0,0,-0,0,,,,,,,,,,,,,,,,
1270267,0,,,0,,,0.01,0.02,0.98,0,0,-0,0,,,,,,,,,,,,,,,,
1270307,0,,,0,,,0.01,0.02,0.99,0,0,-0,0,,,,,,,,,,,,,,,,
1270347,0,249,285,0,0.0,5.15,0.01,0.02,0.99,0,0,-0,0,0,0.0,0.0,0.0,0.0,0,0,0.0,0.0,0,0.0,-1,0.0,0.0,0.0,0
1270387,0,,,0,,,0.01,0.02,0.98,0,0,-0,0,,,,,,,,,,,,,,,,
1270427,0,,,0,,,0.01,0.02,0.98,0,0,-0,0,,,,,,,,,,,,,,,,
1270467,0,,,0,,,0.02,0.02,0.98,0,0,-0,0,,,,,,,,,,,,,,,,
1270507,0,,,0,,,0.01,0.02,0.98,0,0,-0,0,,,,,,,,,,,,,,,,
1270547,0,,,0,,,0.01,0.02,0.99,0,0,-0,0,,0.0,0.0,0.0,0.0,0,0,0.0,0.0,0,0.0,-1,0.0,0.0,0.0,0
1270587,0,,,0,,,0.01,0.02,0.99,0,0,-0,0,,,,,,,,,,,,,,,,
1270627,0,,,0,,,0.01,0.02,0.99,0,0,-0,0,,,,,,,,,,,,,,,,
1270667,0,,,0,,,0.01,0.02,0.99,0,0,-0,0,,,,,,,,,,,,,,,,
1270707,0,,,0,,,0.01,0.02,0.99,0,0,-0,0,,,,,,,,,,,,,,,,
1270747,0,,,0,,,0.01,0.02,0.99,0,0,-0,0,,0.0,0.0,0.0,0.0,0,0,0.0,0.0,0,0.0,-1,0.0,0.0,0.0,0
1270787,0,,,0,,,0.01,0.02,0.99,0,0,-0,0,,,,,,,,,,,,,,,,
1270827,0,,,0,,,0.02,0.02,0.99,0,0,-0,0,,,,,,,,,,,,,,,,
1270867,0,,,0,,,0.02,0.02,0.99,0,0,-0,0,,,,,,,,,,,,,,,,
1270907,0,,,0,,,0.02,0.02,0.99,0,0,-0,0,,,,,,,,,,,,,,,,
1270947,0,,,0,,,0.01,0.02,0.99,0,0,-0,0,,0.0,0.0,0.0,0.0,0,0,0.0,0.0,0,0.0,-1,0.0,0.0,0.0,0
1270987,0,,,0,,,0.02,0.02,0.99,-0,0,-0,0,,,,,,,,,,,,,,,,
1271027,0,,,0,,,0.02,0.02,0.99,-0,0,-0,0,,,,,,,,,,,,,,,,
1271067,0,,,0,,,0.02,0.02,0.99,0,0,-0,0,,,,,,,,,,,,,,,,
1271107,0,,,0,,,0.02,0.02,0.99,0,0,-0,0,,,,,,,,,,,,,,,,
1271147,0,,,0,,,0.02,0.02,0.98,0,0,-0,0,,0.0,0.0,0.0,0.0,0,0,0.0,0.0,0,0.0,-1,0.0,0.0,0.0,0
1271187,0,,,0,,,0.02,0.02,0.98,0,0,-0,0,,,,,,,,,,,,,,,,
1271227,0,,,0,,,0.02,0.02,0.99,0,0,-0,0,,,,,,,,,,,,,,,,
1271267,0,,,0,,,0.02,0.02,0.99,0,0,-0,0,,,,,,,,,,,,,,,,
1271307,0,,,0,,,0.02,0.02,0.99,0,0,-0,0,,,,,,,,,,,,,,,,
1271347,0,247,284,0,0.0,5.17,0.02,0.02,0.99,0,0,-0,0,0,0.0,0.0,0.0,0.0,0,0,0.0,0.0,0,0.0,-1,0.0,0.0,0.0,0
1271387,0,,,0,,,0.02,0.02,0.99,0,0,-0,0,,,,,,,,,,,,,,,,
1271427,0,,,0,,,0.02,0.02,0.99,0,0,-0,0,,,,,,,,,,,,,,,,
1271467,0,,,0,,,0.02,0.02,0.99,0,0,-0,0,,,,,,,,,,,,,,,,
1271507,0,,,0,,,0.02,0.02,0.99,0,0,-0,0,,,,,,,,,,,,,,,,
1271547,0,,,0,,,0.02,0.02,0.99,0,0,-0,0,,0.0,0.0,0.0,0.0,0,0,0.0,0.0,0,0.0,-1,0.0,0.0,0.0,0
1271587,0,,,0,,,0.02,0.02,0.99,-0,0,-0,0,,,,,,,,,,,,,,,,
1271627,0,,,0,,,0.02,0.02,0.98,-0,0,-0,0,,,,,,,,,,,,,,,,
1271667,0,,,0,,,0.02,0.02,0.98,-0,0,-0,0,,,,,,,,,,,,,,,,
1271707,0,,,0,,,0.02,0.02,0.98,0,0,-0,0,,,,,,,,,,,,,,,,
1271747,0,,,0,,,0.02,0.02,0.98,0,0,-0,0,,0.0,0.0,0.0,0.0,0,0,0.0,0.0,0,0.0,-1,0.0,0.0,0.0,0
1271787,0,,,0,,,0.02,0.02,0.98,0,0,-0,0,,,,,,,,,,,,,,,,
1271827,0,,,0,,,0.02,0.02,0.99,0,0,-0,0,,,,,,,,,,,,,,,,
1271867,0,,,0,,,0.02,0.02,0.99,0,0,-0,0,,,,,,,,,,,,,,,,
1271907,0,,,0,,,0.02,0.02,0.99,0,0,-0,0,,,,,,,,,,,,,,,,
1271947,0,,,0,,,0.02,0.02,0.99,0,0,-0,0,,0.0,0.0,0.0,0.0,0,0,0.0,0.0,0,0.0,-1,0.0,0.0,0.0,0
1271987,0,,,0,,,0.01,0.02,0.99,0,0,-0,0,,,,,,,,,,,,,,,,
1272027,0,,,0,,,0.01,0.03,0.98,-1,0,-0,0,,,,,,,,,,,,,,,,
1272067,0,,,0,,,0.01,0.03,0.99,-3,0,-0,0,,,,,,,,,,,,,,,,
1272107,0,,,0,,,0.02,0.02,0.99,-3,0,-0,0,,,,,,,,,,,,,,,,
1272147,0,,,0,,,0.02,0.02,0.98,-2,0,-0,0,,0.0,0.0,0.0,0.0,0,0,0.0,0.0,0,0.0,-1,0.0,0.0,0.0,0
1272187,0,,,0,,,0.02,0.02,0.99,-2,0,-0,0,,,,,,,,,,,,,,,,
1272227,0,,,0,,,0.02,0.02,0.99,-1,0,-0,0,,,,,,,,,,,,,,,,
1272267,0,,,0,,,0.02,0.02,0.99,-1,0,-0,0,,,,,,,,,,,,,,,,
1272307,0,,,0,,,0.02,0.02,0.98,-1,0,-0,0,,,,,,,,,,,,,,,,
1272347,0,247,284,0,0.0,5.14,0.02,0.02,0.98,-1,0,-0,0,0,0.0,0.0,0.0,0.0,0,0,0.0,0.0,0,0.0,-1,0.0,0.0,0.0,0
1272387,0,,,0,,,0.02,0.02,0.99,-0,0,-0,0,,,,,,,,,,,,,,,,
1272427,0,,,0,,,0.02,0.03,0.99,-0,0,-0,0,,,,,,,,,,,,,,,,
1272467,0,,,0,,,0.02,0.03,0.99,-0,0,-0,0,,,,,,,,,,,,,,,,
1272507,0,,,0,,,0.02,0.02,0.99,-0,0,-0,0,,,,,,,,,,,,,,,,
1272547,0,,,0,,,0.02,0.02,0.99,-0,0,-0,0,,0.0,0.0,0.0,0.0,0,0,0.0,0.0,0,0.0,-1,0.0,0.0,0.0,0
1272587,0,,,0,,,0.02,0.03,0.99,-0,0,-0,0,,,,,,,,,,,,,,,,
1272627,0,,,0,,,0.02,0.02,0.99,0,0,-0,0,,,,,,,,,,,,,,,,
1272667,0,,,0,,,0.02,0.02,0.99,0,-0,-0,0,,,,,,,,,,,,,,,,
1272707,0,,,0,,,0.02,0.02,0.99,0,0,-0,0,,,,,,,,,,,,,,,,
1272747,0,,,0,,,0.02,0.02,0.99,0,0,-0,0,,0.0,0.0,0.0,0.0,0,0,0.0,0.0,0,0.0,-1,0.0,0.0,0.0,0
1272787,0,,,0,,,0.02,0.02,0.99,0,0,-0,0,,,,,,,,,,,,,,,,
1272827,0,,,0,,,0.02,0.02,0.99,0,0,-0,0,,,,,,,,,,,,,,,,
1272867,0,,,0,,,0.01,0.02,0.99,0,0,-0,0,,,,,,,,,,,,,,,,
1272907,0,,,0,,,0.01,0.02,0.99,0,0,-0,0,,,,,,,,,,,,,,,,
1272947,0,,,0,,,0.02,0.02,0.99,0,0,-0,0,,0.0,0.0,0.0,0.0,0,0,0.0,0.0,0,0.0,-1,0.0,0.0,0.0,0
1272987,0,,,0,,,0.02,0.02,0.99,0,0,-0,0,,,,,,,,,,,,,,,,
1273027,0,,,0,,,0.01,0.02,0.99,0,0,-0,0,,,,,,,,,,,,,,,,
1273067,0,,,0,,,0.02,0.02,0.99,0,0,-0,0,,,,,,,,,,,,,,,,
1273107,0,,,0,,,0.01,0.02,0.99,0,0,-0,0,,,,,,,,,,,,,,,,
1273147,0,,,0,,,0.02,0.02,0.99,0,0,-0,0,,0.0,0.0,0.0,0.0,0,0,0.0,0.0,0,0.0,-1,0.0,0.0,0.0,0
1273187,0,,,0,,,0.02,0.02,0.99,0,0,-0,0,,,,,,,,,,,,,,,,
1273227,0,,,0,,,0.02,0.02,0.99,0,0,-0,0,,,,,,,,,,,,,,,,
1273267,0,,,0,,,0.02,0.02,0.99,0,0,-0,0,,,,,,,,,,,,,,,,
1273307,0,,,0,,,0.02,0.02,0.99,0,0,-0,0,,,,,,,,,,,,,,,,
1273347,0,247,284,0,0.0,5.17,0.02,0.02,0.99,0,0,-0,0,0,0.0,0.0,0.0,0.0,0,0,0.0,0.0,0,0.0,-1,0.0,0.0,0.0,0
1273387,0,,,0,,,0.02,0.02,0.99,0,0,-0,0,,,,,,,,,,,,,,,,
1273427,0,,,0,,,0.02,0.02,0.99,0,0,-0,0,,,,,,,,,,,,,,,,
1273467,0,,,0,,,0.02,0.02,0.99,0,0,-0,0,,,,,,,,,,,,,,,,
1273507,0,,,0,,,0.02,0.02,0.99,0,0,-0,0,,,,,,,,,,,,,,,,
1273547,0,,,0,,,0.02,0.02,0.99,0,0,-0,0,,0.0,0.0,0.0,0.0,0,0,0.0,0.0,0,0.0,-1,0.0,0.0,0.0,0
1273587,0,,,0,,,0.02,0.02,0.99,0,0,-0,0,,,,,,,,,,,,,,,,
1273627,0,,,0,,,0.02,0.02,0.99,0,0,-0,0,,,,,,,,,,,,,,,,
1273667,0,,,0,,,0.02,0.02,0.99,0,0,-0,0,,,,,,,,,,,,,,,,
1273707,0,,,0,,,0.02,0.02,0.99,0,0,-0,0,,,,,,,,,,,,,,,,
1273747,0,,,0,,,0.02,0.02,0.99,0,0,-0,0,,0.0,0.0,0.0,0.0,0,0,0.0,0.0,0,0.0,-1,0.0,0.0,0.0,0
1273787,0,,,0,,,0.02,0.02,0.99,0,0,-0,0,,,,,,,,,,,,,,,,
1273827,0,,,0,,,0.02,0.02,0.99,0,0,-0,0,,,,,,,,,,,,,,,,
1273867,0,,,0,,,0.02,0.02,0.99,0,0,-0,0,,,,,,,,,,,,,,,,
1273907,0,,,0,,,0.02,0.02,0.99,0,0,-0,0,,,,,,,,,,,,,,,,
1273947,0,,,0,,,0.02,0.02,0.99,0,0,-0,0,,0.0,0.0,0.0,0.0,0,0,0.0,0.0,0,0.0,-1,0.0,0.0,0.0,0
1273987,0,,,0,,,0.02,0.02,0.99,0,0,-0,0,,,,,,,,,,,,,,,,
1274027,0,,,0,,,0.02,0.02,0.99,0,0,-0,0,,,,,,,,,,,,,,,,
1274067,0,,,0,,,0.02,0.02,0.99,0,0,-0,0,,,,,,,,,,,,,,,,
1274107,0,,,0,,,0.02,0.02,0.99,0,0,-0,0,,,,,,,,,,,,,,,,
1274147,0,,,0,,,0.02,0.02,0.99,0,0,-0,0,,0.0,0.0,0.0,0.0,0,0,0.0,0.0,0,0.0,-1,0.0,0.0,0.0,0
1274187,0,,,0,,,0.02,0.02,0.99,0,0,-0,0,,,,,,,,,,,,,,,,
1274227,0,,,0,,,0.02,0.02,0.99,0,0,-0,0,,,,,,,,,,,,,,,,
1274267,0,,,0,,,0.02,0.02,0.99,0,0,-0,0,,,,,,,,,,,,,,,,
1274307,0,,,0,,,0.02,0.03,0.99,0,0,-0,0,,,,,,,,,,,,,,,,
1274347,0,248,284,0,0.0,5.14,0.02,0.02,0.99,0,0,-0,0,0,0.0,0.0,0.0,0.0,0,0,0.0,0.0,0,0.0,-1,0.0,0.0,0.0,0
1274387,0,,,0,,,0.01,0.02,0.99,0,0,-0,0,,,,,,,,,,,,,,,,
1274427,0,,,0,,,0.02,0.02,0.99,0,0,-0,0,,,,,,,,,,,,,,,,
1274467,0,,,0,,,0.02,0.02,0.99,0,0,-0,0,,,,,,,,,,,,,,,,
1274507,0,,,0,,,0.02,0.02,0.99,0,0,-0,0,,,,,,,,,,,,,,,,
1274547,0,,,0,,,0.02,0.02,0.98,0,0,-0,0,,0.0,0.0,0.0,0.0,0,0,0.0,0.0,0,0.0,-1,0.0,0.0,0.0,0
1274587,0,,,0,,,0.02,0.02,0.98,0,0,-0,0,,,,,,,,,,,,,,,,
1274627,0,,,0,,,0.01,0.02,0.98,0,-0,-0,0,,,,,,,,,,,,,,,,
1274667,0,,,0,,,0.01,0.02,0.98,0,0,-0,0,,,,,,,,,,,,,,,,
1274707,0,,,0,,,0.02,0.02,0.99,0,0,-0,0,,,,,,,,,,,,,,,,
1274747,0,,,0,,,0.02,0.02,0.99,0,0,-0,0,,0.0,0.0,0.0,0.0,0,0,0.0,0.0,0,0.0,-1,0.0,0.0,0.0,0
1274787,0,,,0,,,0.01,0.02,0.99,0,0,-0,0,,,,,,,,,,,,,,,,
1274827,0,,,0,,,0.02,0.02,0.99,0,0,-0,0,,,,,,,,,,,,,,,,
1274867,0,,,0,,,0.02,0.02,0.98,0,0,-0,0,,,,,,,,,,,,,,,,
1274907,0,,,0,,,0.01,0.02,0.98,0,0,-0,0,,,,,,,,,,,,,,,,
1274947,0,,,0,,,0.01,0.02,0.99,0,0,-0,0,,0.0,0.0,0.0,0.0,0,0,0.0,0.0,0,0.0,-1,0.0,0.0,0.0,0
1274987,0,,,0,,,0.02,0.02,0.99,0,0,-0,0,,,,,,,,,,,,,,,,
1275027,0,,,0,,,0.02,0.02,0.99,0,0,-0,0,,,,,,,,,,,,,,,,
1275067,0,,,0,,,0.02,0.02,0.99,0,0,-0,0,,,,,,,,,,,,,,,,
1275107,0,,,0,,,0.02,0.02,0.99,0,0,-0,0,,,,,,,,,,,,,,,,
1275147,0,,,0,,,0.02,0.02,0.99,0,0,-0,0,,0.0,0.0,0.0,0.0,0,0,0.0,0.0,0,0.0,-1,0.0,0.0,0.0,0
1275187,0,,,0,,,0.02,0.02,0.99,0,-0,-0,0,,,,,,,,,,,,,,,,
1275227,0,,,0,,,0.02,0.02,0.99,0,-0,-0,0,,,,,,,,,,,,,,,,
1275267,0,,,0,,,0.02,0.02,0.99,0,0,-0,0,,,,,,,,,,,,,,,,
1275307,0,,,0,,,0.02,0.02,0.99,0,-0,-0,0,,,,,,,,,,,,,,,,
1275347,0,248,284,0,0.0,5.16,0.02,0.02,0.99,0,-0,-0,0,0,0.0,0.0,0.0,0.0,0,0,0.0,0.0,0,0.0,-1,0.0,0.0,0.0,0
1275387,0,,,0,,,0.02,0.02,0.99,0,0,-0,0,,,,,,,,,,,,,,,,
1275427,0,,,0,,,0.02,0.02,0.99,0,0,-0,0,,,,,,,,,,,,,,,,
1275467,0,,,0,,,0.02,0.02,0.98,0,0,-0,0,,,,,,,,,,,,,,,,
1275507,0,,,0,,,0.01,0.02,0.98,0,0,-0,0,,,,,,,,,,,,,,,,
1275547,0,,,0,,,0.02,0.02,0.99,0,0,-0,0,,0.0,0.0,0.0,0.0,0,0,0.0,0.0,0,0.0,-1,0.0,0.0,0.0,0
1275587,0,,,0,,,0.02,0.02,0.98,0,0,-0,0,,,,,,,,,,,,,,,,
1275627,0,,,0,,,0.02,0.02,0.98,0,0,-0,0,,,,,,,,,,,,,,,,
1275667,0,,,0,,,0.01,0.02,0.98,0,0,-0,0,,,,,,,,,,,,,,,,
1275707,0,,,0,,,0.02,0.02,0.98,0,-0,-0,0,,,,,,,,,,,,,,,,
1275747,0,,,0,,,0.01,0.02,0.98,0,0,-0,0,,0.0,0.0,0.0,0.0,0,0,0.0,0.0,0,0.0,-1,0.0,0.0,0.0,0
1275787,0,,,0,,,0.02,0.02,0.99,0,0,-0,0,,,,,,,,,,,,,,,,
1275827,0,,,0,,,0.02,0.02,0.99,0,0,-0,0,,,,,,,,,,,,,,,,
1275867,0,,,0,,,0.02,0.02,0.98,0,0,-0,0,,,,,,,,,,,,,,,,
1275907,0,,,0,,,0.01,0.02,0.98,0,0,-0,0,,,,,,,,,,,,,,,,
1275947,0,,,0,,,0.01,0.02,0.99,0,0,-0,0,,0.0,0.0,0.0,0.0,0,0,0.0,0.0,0,0.0,-1,0.0,0.0,0.0,0
1275987,0,,,0,,,0.01,0.02,0.99,0,0,-0,0,,,,,,,,,,,,,,,,
1276027,0,,,0,,,0.01,0.02,0.98,0,0,-0,0,,,,,,,,,,,,,,,,
1276067,0,,,0,,,0.01,0.02,0.98,0,-0,-0,0,,,,,,,,,,,,,,,,
1276107,0,,,0,,,0.01,0.02,0.98,0,-0,-0,0,,,,,,,,,,,,,,,,
1276147,0,,,0,,,0.02,0.02,0.98,0,-0,-0,0,,0.0,0.0,0.0,0.0,0,0,0.0,0.0,0,0.0,-1,0.0,0.0,0.0,0
1276187,0,,,0,,,0.02,0.02,0.98,0,-0,-0,0,,,,,,,,,,,,,,,,
1276227,0,,,0,,,0.01,0.02,0.98,0,0,-0,0,,,,,,,,,,,,,,,,
1276267,0,,,0,,,0.02,0.02,0.98,0,-0,-0,0,,,,,,,,,,,,,,,,
1276307,0,,,0,,,0.02,0.02,0.98,0,-0,-0,0,,,,,,,,,,,,,,,,
1276347,0,248,284,0,0.0,5.15,0.02,0.02,0.98,0,0,-0,0,0,0.0,0.0,0.0,0.0,0,0,0.0,0.0,0,0.0,-1,0.0,0.0,0.0,0
1276387,0,,,0,,,0.01,0.02,0.98,0,0,-0,0,,,,,,,,,,,,,,,,
1276427,0,,,0,,,0.02,0.02,0.98,0,0,-0,0,,,,,,,,,,,,,,,,
1276467,0,,,0,,,0.01,0.02,0.98,0,0,-0,0,,,,,,,,,,,,,,,,
1276507,0,,,0,,,0.01,0.02,0.99,0,0,-0,0,,,,,,,,,,,,,,,,
1276547,0,,,0,,,0.01,0.02,0.99,0,0,-0,0,,0.0,0.0,0.0,0.0,0,0,0.0,0.0,0,0.0,-1,0.0,0.0,0.0,0
1276587,0,,,0,,,0.01,0.02,0.99,0,0,-0,0,,,,,,,,,,,,,,,,
1276627,0,,,0,,,0.02,0.02,0.99,0,0,-0,0,,,,,,,,,,,,,,,,
1276667,0,,,0,,,0.02,0.02,0.99,0,0,-0,0,,,,,,,,,,,,,,,,
1276707,0,,,0,,,0.01,0.02,0.99,0,0,-0,0,,,,,,,,,,,,,,,,
1276747,0,,,0,,,0.01,0.02,0.98,0,0,-0,0,,0.0,0.0,0.0,0.0,0,0,0.0,0.0,0,0.0,-1,0.0,0.0,0.0,0
1276787,0,,,0,,,0.01,0.02,0.98,0,0,-0,0,,,,,,,,,,,,,,,,
1276827,0,,,0,,,0.01,0.02,0.98,0,-0,-0,0,,,,,,,,,,,,,,,,
1276867,0,,,0,,,0.01,0.02,0.98,0,0,-0,0,,,,,,,,,,,,,,,,
1276907,0,,,0,,,0.01,0.02,0.99,0,0,-0,0,,,,,,,,,,,,,,,,
1276947,0,,,0,,,0.01,0.02,0.98,0,0,-0,0,,0.0,0.0,0.0,0.0,0,0,0.0,0.0,0,0.0,-1,0.0,0.0,0.0,0
1276987,0,,,0,,,0.01,0.02,0.99,0,0,-0,0,,,,,,,,,,,,,,,,
1277027,0,,,0,,,0.01,0.02,0.99,0,0,-0,0,,,,,,,,,,,,,,,,
1277067,0,,,0,,,0.01,0.02,0.98,0,0,-0,0,,,,,,,,,,,,,,,,
1277107,0,,,0,,,0.01,0.02,0.99,0,0,-0,0,,,,,,,,,,,,,,,,
1277147,0,,,0,,,0.01,0.02,0.99,0,0,-0,0,,0.0,0.0,0.0,0.0,0,0,0.0,0.0,0,0.0,-1,0.0,0.0,0.0,0
1277187,0,,,0,,,0.02,0.02,0.99,0,-0,-0,0,,,,,,,,,,,,,,,,
1277227,0,,,0,,,0.02,0.02,0.99,0,0,-0,0,,,,,,,,,,,,,,,,
1277267,0,,,0,,,0.01,0.02,0.99,0,0,-0,0,,,,,,,,,,,,,,,,
1277307,0,,,0,,,0.01,0.02,0.99,0,-0,-0,0,,,,,,,,,,,,,,,,
1277347,0,248,284,0,0.0,5.14,0.01,0.02,0.98,0,-0,-0,0,0,0.0,0.0,0.0,0.0,0,0,0.0,0.0,0,0.0,-1,0.0,0.0,0.0,0
1277387,0,,,0,,,0.01,0.02,0.99,0,-0,-0,0,,,,,,,,,,,,,,,,
1277427,0,,,0,,,0.01,0.02,0.99,0,-0,-0,0,,,,,,,,,,,,,,,,
1277467,0,,,0,,,0.01,0.02,0.98,0,-0,-0,0,,,,,,,,,,,,,,,,
1277507,0,,,0,,,0.01,0.02,0.98,0,0,-0,0,,,,,,,,,,,,,,,,
1277547,0,,,0,,,0.02,0.02,0.98,0,0,-0,0,,0.0,0.0,0.0,0.0,0,0,0.0,0.0,0,0.0,-1,0.0,0.0,0.0,0
1277587,0,,,0,,,0.01,0.02,0.98,0,-0,-0,0,,,,,,,,,,,,,,,,
1277627,0,,,0,,,0.01,0.02,0.98,0,0,-0,0,,,,,,,,,,,,,,,,
1277667,0,,,0,,,0.01,0.02,0.99,0,0,-0,0,,,,,,,,,,,,,,,,
1277707,0,,,0,,,0.02,0.02,0.99,0,0,-0,0,,,,,,,,,,,,,,,,
1277747,0,,,0,,,0.02,0.02,0.99,0,0,-0,0,,0.0,0.0,0.0,0.0,0,0,0.0,0.0,0,0.0,-1,0.0,0.0,0.0,0
1277787,0,,,0,,,0.02,0.03,0.99,0,0,-0,0,,,,,,,,,,,,,,,,
1277827,0,,,0,,,0.02,0.03,0.99,0,0,-0,0,,,,,,,,,,,,,,,,
1277867,0,,,0,,,0.02,0.02,0.99,0,0,-0,0,,,,,,,,,,,,,,,,
1277907,0,,,0,,,0.02,0.02,0.99,0,0,-0,0,,,,,,,,,,,,,,,,
1277947,0,,,0,,,0.02,0.02,0.99,0,0,-0,0,,0.0,0.0,0.0,0.0,0,0,0.0,0.0,0,0.0,-1,0.0,0.0,0.0,0
1277987,0,,,0,,,0.02,0.02,0.99,0,0,-0,0,,,,,,,,,,,,,,,,
1278027,0,,,0,,,0.02,0.02,0.99,0,0,-0,0,,,,,,,,,,,,,,,,
1278067,0,,,0,,,0.01,0.02,0.99,0,0,-0,0,,,,,,,,,,,,,,,,
1278107,0,,,0,,,0.01,0.02,0.99,0,0,-0,0,,,,,,,,,,,,,,,,
1278147,0,,,0,,,0.02,0.02,0.99,0,0,-0,0,,0.0,0.0,0.0,0.0,0,0,0.0,0.0,0,0.0,-1,0.0,0.0,0.0,0
1278187,0,,,0,,,0.02,0.02,0.99,0,0,-0,0,,,,,,,,,,,,,,,,
1278227,0,,,0,,,0.02,0.02,0.99,0,0,-0,0,,,,,,,,,,,,,,,,
1278267,0,,,0,,,0.02,0.02,0.98,0,0,-0,0,,,,,,,,,,,,,,,,
1278307,0,,,0,,,0.02,0.02,0.98,0,0,-0,0,,,,,,,,,,,,,,,,
1278347,0,248,284,0,0.0,5.17,0.02,0.02,0.98,0,0,-0,0,0,0.0,0.0,0.0,0.0,0,0,0.0,0.0,0,0.0,-1,0.0,0.0,0.0,0
1278387,0,,,0,,,0.02,0.02,0.98,0,0,-0,0,,,,,,,,,,,,,,,,
1278427,0,,,0,,,0.02,0.02,0.99,0,0,-0,0,,,,,,,,,,,,,,,,
1278467,0,,,0,,,0.02,0.02,0.99,0,0,-0,0,,,,,,,,,,,,,,,,
1278507,0,,,0,,,0.02,0.02,0.99,0,0,-0,0,,,,,,,,,,,,,,,,
1278547,0,,,0,,,0.02,0.02,0.98,0,0,-0,0,,0.0,0.0,0.0,0.0,0,0,0.0,0.0,0,0.0,-1,0.0,0.0,0.0,0
1278587,0,,,0,,,0.02,0.02,0.99,0,0,-0,0,,,,,,,,,,,,,,,,
1278627,0,,,0,,,0.02,0.02,0.98,0,0,-0,0,,,,,,,,,,,,,,,,
1278667,0,,,0,,,0.02,0.02,0.98,0,0,-0,0,,,,,,,,,,,,,,,,
1278707,0,,,0,,,0.02,0.02,0.98,0,0,-0,0,,,,,,,,,,,,,,,,
1278747,0,,,0,,,0.02,0.02,0.99,0,-0,-0,0,,0.0,0.0,0.0,0.0,0,0,0.0,0.0,0,0.0,-1,0.0,0.0,0.0,0
1278787,0,,,0,,,0.02,0.02,0.99,0,0,-0,0,,,,,,,,,,,,,,,,
1278827,0,,,0,,,0.02,0.02,0.99,0,-0,-0,0,,,,,,,,,,,,,,,,
1278867,0,,,0,,,0.02,0.02,0.99,0,0,-0,0,,,,,,,,,,,,,,,,
1278907,0,,,0,,,0.02,0.02,0.99,0,0,-0,0,,,,,,,,,,,,,,,,
1278947,0,,,0,,,0.01,0.02,0.99,0,0,-0,0,,0.0,0.0,0.0,0.0,0,0,0.0,0.0,0,0.0,-1,0.0,0.0,0.0,0
1278987,0,,,0,,,0.01,0.03,0.99,0,0,-0,0,,,,,,,,,,,,,,,,
1279027,0,,,0,,,0.02,0.03,0.99,0,0,-0,0,,,,,,,,,,,,,,,,
1279067,0,,,0,,,0.02,0.03,0.99,0,0,-0,0,,,,,,,,,,,,,,,,
1279107,0,,,0,,,0.01,0.03,0.99,0,0,-0,0,,,,,,,,,,,,,,,,
1279147,0,,,0,,,0.02,0.02,0.99,0,0,-0,0,,0.0,0.0,0.0,0.0,0,0,0.0,0.0,0,0.0,-1,0.0,0.0,0.0,0
1279187,0,,,0,,,0.02,0.02,0.98,0,0,-0,0,,,,,,,,,,,,,,,,
1279227,0,,,0,,,0.02,0.02,0.99,0,0,-0,0,,,,,,,,,,,,,,,,
1279267,0,,,0,,,0.02,0.02,0.98,0,0,-0,0,,,,,,,,,,,,,,,,
1279307,0,,,0,,,0.02,0.02,0.98,0,0,-0,0,,,,,,,,,,,,,,,,
1279347,0,248,284,0,0.0,5.14,0.02,0.02,0.98,0,0,-0,0,0,0.0,0.0,0.0,0.0,0,0,0.0,0.0,0,0.0,-1,0.0,0.0,0.0,0
1279387,0,,,0,,,0.02,0.02,0.98,0,0,-0,0,,,,,,,,,,,,,,,,
1279427,0,,,0,,,0.02,0.02,0.98,0,0,-0,0,,,,,,,,,,,,,,,,
1279467,0,,,0,,,0.02,0.02,0.98,0,0,-0,0,,,,,,,,,,,,,,,,
1279507,0,,,0,,,0.02,0.02,0.98,0,0,-0,0,,,,,,,,,,,,,,,,
1279547,0,,,0,,,0.02,0.02,0.98,0,0,-0,0,,0.0,0.0,0.0,0.0,0,0,0.0,0.0,0,0.0,-1,0.0,0.0,0.0,0
1279587,0,,,0,,,0.02,0.02,0.99,0,0,-0,0,,,,,,,,,,,,,,,,
1279627,0,,,0,,,0.02,0.02,0.98,0,0,-0,0,,,,,,,,,,,,,,,,
1279667,0,,,0,,,0.02,0.02,0.99,0,0,-0,0,,,,,,,,,,,,,,,,
1279707,0,,,0,,,0.02,0.02,0.98,0,0,-0,0,,,,,,,,,,,,,,,,
1279747,0,,,0,,,0.02,0.02,0.98,0,0,-0,0,,0.0,0.0,0.0,0.0,0,0,0.0,0.0,0,0.0,-1,0.0,0.0,0.0,0
1279787,0,,,0,,,0.02,0.02,0.98,0,0,-0,0,,,,,,,,,,,,,,,,
1279827,0,,,0,,,0.02,0.02,0.99,0,0,-0,0,,,,,,,,,,,,,,,,
1279867,0,,,0,,,0.02,0.02,0.99,0,0,-0,0,,,,,,,,,,,,,,,,
1279907,0,,,0,,,0.02,0.02,0.99,0,0,-0,0,,,,,,,,,,,,,,,,
1279947,0,,,0,,,0.02,0.02,0.99,0,0,-0,0,,0.0,0.0,0.0,0.0,0,0,0.0,0.0,0,0.0,-1,0.0,0.0,0.0,0
1279987,0,,,0,,,0.02,0.02,0.99,0,0,-0,0,,,,,,,,,,,,,,,,
1280027,0,,,0,,,0.02,0.02,0.99,0,0,-0,0,,,,,,,,,,,,,,,,
1280067,0,,,0,,,0.01,0.02,0.98,0,0,-0,0,,,,,,,,,,,,,,,,
1280107,0,,,0,,,0.01,0.02,0.98,0,0,-0,0,,,,,,,,,,,,,,,,
1280147,0,,,0,,,0.01,0.02,0.98,0,0,-0,0,,0.0,0.0,0.0,0.0,0,0,0.0,0.0,0,0.0,-1,0.0,0.0,0.0,0
1280187,0,,,0,,,0.01,0.02,0.98,0,0,-0,0,,,,,,,,,,,,,,,,
1280227,0,,,0,,,0.01,0.02,0.98,0,0,-0,0,,,,,,,,,,,,,,,,
1280267,0,,,0,,,0.01,0.02,0.98,0,0,-0,0,,,,,,,,,,,,,,,,
1280307,0,,,0,,,0.01,0.02,0.99,0,0,-0,0,,,,,,,,,,,,,,,,
1280347,0,248,284,0,0.0,5.17,0.01,0.02,0.98,0,0,-0,0,0,0.0,0.0,0.0,0.0,0,0,0.0,0.0,0,0.0,-1,0.0,0.0,0.0,0
1280387,0,,,0,,,0.02,0.02,0.98,0,0,-0,0,,,,,,,,,,,,,,,,
1280427,0,,,0,,,0.02,0.02,0.98,0,0,-0,0,,,,,,,,,,,,,,,,
1280467,0,,,0,,,0.02,0.02,0.98,0,0,-0,0,,,,,,,,,,,,,,,,
1280507,0,,,0,,,0.02,0.03,0.98,0,0,-0,0,,,,,,,,,,,,,,,,
1280547,0,,,0,,,0.02,0.02,0.98,0,0,-0,0,,0.0,0.0,0.0,0.0,0,0,0.0,0.0,0,0.0,-1,0.0,0.0,0.0,0
1280587,0,,,0,,,0.02,0.02,0.99,0,0,-0,0,,,,,,,,,,,,,,,,
1280627,0,,,0,,,0.02,0.02,0.98,0,0,-0,0,,,,,,,,,,,,,,,,
1280667,0,,,0,,,0.02,0.02,0.99,0,0,-0,0,,,,,,,,,,,,,,,,
1280707,0,,,0,,,0.02,0.02,0.99,0,0,-0,0,,,,,,,,,,,,,,,,
1280747,0,,,0,,,0.02,0.02,0.99,0,0,-0,0,,0.0,0.0,0.0,0.0,0,0,0.0,0.0,0,0.0,-1,0.0,0.0,0.0,0
1280787,0,,,0,,,0.02,0.02,0.99,0,0,-0,0,,,,,,,,,,,,,,,,
1280827,0,,,0,,,0.02,0.02,0.99,0,0,-0,0,,,,,,,,,,,,,,,,
1280867,0,,,0,,,0.02,0.02,0.99,0,0,-0,0,,,,,,,,,,,,,,,,
1280907,0,,,0,,,0.02,0.02,0.99,0,0,-0,0,,,,,,,,,,,,,,,,
1280947,0,,,0,,,0.02,0.02,0.99,0,0,-0,0,,0.0,0.0,0.0,0.0,0,0,0.0,0.0,0,0.0,-1,0.0,0.0,0.0,0
1280987,0,,,0,,,0.02,0.02,0.99,0,0,-0,0,,,,,,,,,,,,,,,,
1281027,0,,,0,,,0.02,0.02,0.99,0,0,-0,0,,,,,,,,,,,,,,,,
1281067,0,,,0,,,0.02,0.02,0.99,0,0,-0,0,,,,,,,,,,,,,,,,
1281107,0,,,0,,,0.02,0.02,0.99,0,0,-0,0,,,,,,,,,,,,,,,,
1281147,0,,,0,,,0.02,0.02,0.99,0,0,-0,0,,0.0,0.0,0.0,0.0,0,0,0.0,0.0,0,0.0,-1,0.0,0.0,0.0,0
1281187,0,,,0,,,0.02,0.02,0.99,0,0,-0,0,,,,,,,,,,,,,,,,
1281227,0,,,0,,,0.02,0.02,0.98,0,0,-0,0,,,,,,,,,,,,,,,,
1281267,0,,,0,,,0.02,0.02,0.99,0,0,-0,0,,,,,,,,,,,,,,,,
1281307,0,,,0,,,0.02,0.02,0.98,0,0,-0,0,,,,,,,,,,,,,,,,
1281347,0,248,284,0,0.0,5.15,0.02,0.02,0.98,0,0,-0,0,0,0.0,0.0,0.0,0.0,0,0,0.0,0.0,0,0.0,-1,0.0,0.0,0.0,0
1281387,0,,,0,,,0.02,0.02,0.98,0,0,-0,0,,,,,,,,,,,,,,,,
1281427,0,,,0,,,0.02,0.02,0.99,0,0,-0,0,,,,,,,,,,,,,,,,
1281467,0,,,0,,,0.02,0.02,0.99,0,0,-0,0,,,,,,,,,,,,,,,,
1281507,0,,,0,,,0.02,0.02,0.99,0,0,-0,0,,,,,,,,,,,,,,,,
1281547,0,,,0,,,0.02,0.02,0.98,0,0,-0,0,,0.0,0.0,0.0,0.0,0,0,0.0,0.0,0,0.0,-1,0.0,0.0,0.0,0
1281587,0,,,0,,,0.02,0.02,0.99,0,0,-0,0,,,,,,,,,,,,,,,,
1281627,0,,,0,,,0.02,0.02,0.99,0,0,-0,0,,,,,,,,,,,,,,,,
1281667,0,,,0,,,0.01,0.02,0.99,0,0,-0,0,,,,,,,,,,,,,,,,
1281707,0,,,0,,,0.02,0.02,0.99,0,0,-0,0,,,,,,,,,,,,,,,,
1281747,0,,,0,,,0.02,0.02,0.98,0,0,-0,0,,0.0,0.0,0.0,0.0,0,0,0.0,0.0,0,0.0,-1,0.0,0.0,0.0,0
1281787,0,,,0,,,0.02,0.02,0.98,0,0,-0,0,,,,,,,,,,,,,,,,
1281827,0,,,0,,,0.01,0.02,0.98,0,0,-0,0,,,,,,,,,,,,,,,,
1281867,0,,,0,,,0.01,0.02,0.99,0,0,-0,0,,,,,,,,,,,,,,,,
1281907,0,,,0,,,0.02,0.02,0.99,0,0,-0,0,,,,,,,,,,,,,,,,
1281947,0,,,0,,,0.02,0.02,0.98,0,0,-0,0,,0.0,0.0,0.0,0.0,0,0,0.0,0.0,0,0.0,-1,0.0,0.0,0.0,0
1281987,0,,,0,,,0.02,0.02,0.98,0,0,-0,0,,,,,,,,,,,,,,,,
1282027,0,,,0,,,0.02,0.02,0.99,0,0,-0,0,,,,,,,,,,,,,,,,
1282067,0,,,0,,,0.02,0.02,0.98,0,0,-0,0,,,,,,,,,,,,,,,,
1282107,0,,,0,,,0.02,0.02,0.98,0,0,-0,0,,,,,,,,,,,,,,,,
1282147,0,,,0,,,0.02,0.02,0.98,0,0,-0,0,,0.0,0.0,0.0,0.0,0,0,0.0,0.0,0,0.0,-1,0.0,0.0,0.0,0
1282187,0,,,0,,,0.01,0.02,0.98,0,0,-0,0,,,,,,,,,,,,,,,,
1282227,0,,,0,,,0.01,0.02,0.98,0,0,-0,0,,,,,,,,,,,,,,,,
1282267,0,,,0,,,0.02,0.02,0.98,0,0,-0,0,,,,,,,,,,,,,,,,
1282307,0,,,0,,,0.02,0.02,0.98,0,0,-0,0,,,,,,,,,,,,,,,,
1282347,0,248,284,0,0.0,5.16,0.01,0.02,0.98,0,0,-0,0,0,0.0,0.0,0.0,0.0,0,0,0.0,0.0,0,0.0,-1,0.0,0.0,0.0,0
1282387,0,,,0,,,0.01,0.02,0.98,0,0,-0,0,,,,,,,,,,,,,,,,
1282427,0,,,0,,,0.01,0.02,0.98,0,0,-0,0,,,,,,,,,,,,,,,,
1282467,0,,,0,,,0.02,0.02,0.98,0,0,-0,0,,,,,,,,,,,,,,,,
1282507,0,,,0,,,0.02,0.02,0.98,0,0,-0,0,,,,,,,,,,,,,,,,
1282547,0,,,0,,,0.02,0.02,0.98,0,0,-0,0,,0.0,0.0,0.0,0.0,0,0,0.0,0.0,0,0.0,-1,0.0,0.0,0.0,0
1282587,0,,,0,,,0.01,0.02,0.98,0,0,-0,0,,,,,,,,,,,,,,,,
1282627,0,,,0,,,0.02,0.02,0.99,0,0,-0,0,,,,,,,,,,,,,,,,
1282667,0,,,0,,,0.02,0.02,0.99,0,0,-0,0,,,,,,,,,,,,,,,,
1282707,0,,,0,,,0.02,0.02,0.98,0,0,-0,0,,,,,,,,,,,,,,,,
1282747,0,,,0,,,0.02,0.02,0.98,0,0,-0,0,,0.0,0.0,0.0,0.0,0,0,0.0,0.0,0,0.0,-1,0.0,0.0,0.0,0
1282787,0,,,0,,,0.02,0.02,0.98,0,0,-0,0,,,,,,,,,,,,,,,,
1282827,0,,,0,,,0.02,0.02,0.98,0,0,-0,0,,,,,,,,,,,,,,,,
1282867,0,,,0,,,0.02,0.02,0.98,0,0,-0,0,,,,,,,,,,,,,,,,
1282907,0,,,0,,,0.02,0.02,0.98,0,0,-0,0,,,,,,,,,,,,,,,,
1282947,0,,,0,,,0.02,0.02,0.98,0,0,-0,0,,0.0,0.0,0.0,0.0,0,0,0.0,0.0,0,0.0,-1,0.0,0.0,0.0,0
1282987,0,,,0,,,0.02,0.02,0.98,0,0,-0,0,,,,,,,,,,,,,,,,
1283027,0,,,0,,,0.01,0.02,0.98,0,0,-0,0,,,,,,,,,,,,,,,,
1283067,0,,,0,,,0.02,0.02,0.98,0,0,-0,0,,,,,,,,,,,,,,,,
1283107,0,,,0,,,0.02,0.02,0.98,0,0,-0,0,,,,,,,,,,,,,,,,
1283147,0,,,0,,,0.02,0.02,0.98,0,0,-0,0,,0.0,0.0,0.0,0.0,0,0,0.0,0.0,0,0.0,-1,0.0,0.0,0.0,0
1283187,0,,,0,,,0.02,0.02,0.98,0,0,-0,0,,,,,,,,,,,,,,,,
1283227,0,,,0,,,0.02,0.02,0.99,0,0,-0,0,,,,,,,,,,,,,,,,
1283267,0,,,0,,,0.01,0.02,0.99,0,0,-0,0,,,,,,,,,,,,,,,,
1283307,0,,,0,,,0.01,0.02,0.99,0,0,-0,0,,,,,,,,,,,,,,,,
1283347,0,251,286,0,0.0,5.14,0.02,0.02,0.98,0,0,-0,0,0,0.0,0.0,0.0,0.0,0,0,0.0,0.0,0,0.0,-1,0.0,0.0,0.0,0
1283387,0,,,0,,,0.02,0.02,0.99,0,0,-0,0,,,,,,,,,,,,,,,,
1283427,0,,,0,,,0.02,0.02,0.99,0,0,-0,0,,,,,,,,,,,,,,,,
1283467,0,,,0,,,0.02,0.02,0.99,0,0,-0,0,,,,,,,,,,,,,,,,
1283507,0,,,0,,,0.02,0.02,0.99,0,0,-0,0,,,,,,,,,,,,,,,,
1283547,0,,,0,,,0.02,0.02,0.99,0,0,-0,0,,0.0,0.0,0.0,0.0,0,0,0.0,0.0,0,0.0,-1,0.0,0.0,0.0,0
1283587,0,,,0,,,0.02,0.02,0.99,0,0,-0,0,,,,,,,,,,,,,,,,
1283627,0,,,0,,,0.02,0.02,0.99,0,0,-0,0,,,,,,,,,,,,,,,,
1283667,0,,,0,,,0.02,0.02,0.99,0,0,-0,0,,,,,,,,,,,,,,,,
1283707,0,,,0,,,0.02,0.02,0.99,0,0,-0,0,,,,,,,,,,,,,,,,
1283747,0,,,0,,,0.02,0.02,0.99,0,0,-0,0,,0.0,0.0,0.0,0.0,0,0,0.0,0.0,0,0.0,-1,0.0,0.0,0.0,0
1283787,0,,,0,,,0.02,0.02,0.99,0,-0,-0,0,,,,,,,,,,,,,,,,
1283827,0,,,0,,,0.02,0.02,0.99,0,0,-0,0,,,,,,,,,,,,,,,,
1283867,0,,,0,,,0.02,0.02,0.99,0,0,-0,0,,,,,,,,,,,,,,,,
1283907,0,,,0,,,0.02,0.02,0.99,0,0,-0,0,,,,,,,,,,,,,,,,
1283947,0,,,0,,,0.02,0.02,0.99,0,0,-0,0,,0.0,0.0,0.0,0.0,0,0,0.0,0.0,0,0.0,-1,0.0,0.0,0.0,0
1283987,0,,,0,,,0.02,0.02,0.99,0,-0,-0,0,,,,,,,,,,,,,,,,
1284027,0,,,0,,,0.02,0.02,0.99,0,-0,-0,0,,,,,,,,,,,,,,,,
1284067,0,,,0,,,0.02,0.02,0.99,0,0,-0,0,,,,,,,,,,,,,,,,
1284107,0,,,0,,,0.02,0.02,0.99,0,0,-0,0,,,,,,,,,,,,,,,,
1284147,0,,,0,,,0.01,0.02,0.99,0,0,-0,0,,0.0,0.0,0.0,0.0,0,0,0.0,0.0,0,0.0,-1,0.0,0.0,0.0,0
1284187,0,,,0,,,0.01,0.03,0.98,-0,0,-0,0,,,,,,,,,,,,,,,,
1284227,0,,,0,,,0.01,0.03,0.98,-1,-0,-0,0,,,,,,,,,,,,,,,,
1284267,0,,,0,,,0.01,0.03,0.99,-4,-0,-0,0,,,,,,,,,,,,,,,,
1284307,0,,,0,,,0.01,0.03,0.98,-5,-0,-0,0,,,,,,,,,,,,,,,,
1284347,0,248,284,0,0.0,5.15,0.02,0.03,0.98,-4,-0,-0,0,0,0.0,0.0,0.0,0.0,0,0,0.0,0.0,0,0.0,-1,0.0,0.0,0.0,0
1284387,0,,,0,,,0.03,0.02,0.98,-4,-0,-1,0,,,,,,,,,,,,,,,,
1284427,0,,,0,,,0.02,0.03,1.0,-3,0,-0,0,,,,,,,,,,,,,,,,
1284467,0,,,0,,,0.02,0.02,1.0,-2,0,0,0,,,,,,,,,,,,,,,,
1284507,0,,,0,,,0.02,0.02,1.0,-2,0,0,0,,,,,,,,,,,,,,,,
1284547,0,,,0,,,0.02,0.02,1.0,-1,0,-0,0,,0.0,0.0,0.0,0.0,0,0,0.0,0.0,0,0.0,-1,0.0,0.0,0.0,0
1284587,0,,,0,,,0.02,0.02,0.99,-1,0,-0,0,,,,,,,,,,,,,,,,
1284627,0,,,0,,,0.02,0.02,0.99,-0,0,-0,0,,,,,,,,,,,,,,,,
1284667,0,,,0,,,0.02,0.02,0.99,0,0,-0,0,,,,,,,,,,,,,,,,
1284707,0,,,0,,,0.02,0.02,0.99,1,0,-0,0,,,,,,,,,,,,,,,,
1284747,0,,,0,,,0.02,0.02,0.99,1,0,-0,0,,0.0,0.0,0.0,0.0,0,0,0.0,0.0,0,0.0,-1,0.0,0.0,0.0,0
1284787,0,,,0,,,0.02,0.02,0.99,1,0,-0,0,,,,,,,,,,,,,,,,
1284827,0,,,0,,,0.02,0.02,0.99,1,0,-0,0,,,,,,,,,,,,,,,,
1284867,0,,,0,,,0.02,0.02,0.99,1,0,-0,0,,,,,,,,,,,,,,,,
1284907,0,,,0,,,0.02,0.02,0.99,1,0,-0,0,,,,,,,,,,,,,,,,
1284947,0,,,0,,,0.02,0.02,0.99,1,0,-0,0,,0.0,0.0,0.0,0.0,0,0,0.0,0.0,0,0.0,-1,0.0,0.0,0.0,0
1284987,0,,,0,,,0.02,0.02,0.99,1,0,-0,0,,,,,,,,,,,,,,,,
1285027,0,,,0,,,0.02,0.02,0.99,0,0,-0,0,,,,,,,,,,,,,,,,
1285067,0,,,0,,,0.02,0.02,0.99,0,0,-0,0,,,,,,,,,,,,,,,,
1285107,0,,,0,,,0.01,0.02,0.99,0,0,-0,0,,,,,,,,,,,,,,,,
1285147,0,,,0,,,0.01,0.02,0.99,0,0,-0,0,,0.0,0.0,0.0,0.0,0,0,0.0,0.0,0,0.0,-1,0.0,0.0,0.0,0
1285187,0,,,0,,,0.02,0.02,0.99,0,0,-0,0,,,,,,,,,,,,,,,,
1285227,0,,,0,,,0.02,0.02,0.98,0,0,-0,0,,,,,,,,,,,,,,,,
1285267,0,,,0,,,0.02,0.02,0.98,0,0,-0,0,,,,,,,,,,,,,,,,
1285307,0,,,0,,,0.02,0.02,0.98,0,0,-0,0,,,,,,,,,,,,,,,,
1285347,0,249,285,0,0.0,5.16,0.02,0.02,0.98,0,0,-0,0,0,0.0,0.0,0.0,0.0,0,0,0.0,0.0,0,0.0,-1,0.0,0.0,0.0,0
1285387,0,,,0,,,0.02,0.02,0.99,0,0,-0,0,,,,,,,,,,,,,,,,
1285427,0,,,0,,,0.02,0.02,0.99,0,0,-0,0,,,,,,,,,,,,,,,,
1285467,0,,,0,,,0.02,0.02,0.99,0,0,-0,0,,,,,,,,,,,,,,,,
1285507,0,,,0,,,0.02,0.02,0.99,0,0,-0,0,,,,,,,,,,,,,,,,
1285547,0,,,0,,,0.01,0.02,0.99,0,0,-0,0,,0.0,0.0,0.0,0.0,0,0,0.0,0.0,0,0.0,-1,0.0,0.0,0.0,0
1285587,0,,,0,,,0.01,0.02,0.99,0,0,-0,0,,,,,,,,,,,,,,,,
1285627,0,,,0,,,0.01,0.02,0.99,0,0,-0,0,,,,,,,,,,,,,,,,
1285667,0,,,0,,,0.01,0.02,0.99,0,0,-0,0,,,,,,,,,,,,,,,,
1285707,0,,,0,,,0.02,0.02,0.99,0,0,-0,0,,,,,,,,,,,,,,,,
1285747,0,,,0,,,0.02,0.03,0.99,0,0,-0,0,,0.0,0.0,0.0,0.0,0,0,0.0,0.0,0,0.0,-1,0.0,0.0,0.0,0
1285787,0,,,0,,,0.02,0.02,0.99,0,0,-0,0,,,,,,,,,,,,,,,,
1285827,0,,,0,,,0.02,0.02,0.99,0,0,-0,0,,,,,,,,,,,,,,,,
1285867,0,,,0,,,0.02,0.02,0.99,0,0,-0,0,,,,,,,,,,,,,,,,
1285907,0,,,0,,,0.02,0.02,0.99,0,0,-0,0,,,,,,,,,,,,,,,,
1285947,0,,,0,,,0.02,0.03,0.99,0,0,-0,0,,0.0,0.0,0.0,0.0,0,0,0.0,0.0,0,0.0,-1,0.0,0.0,0.0,0
1285987,0,,,0,,,0.01,0.02,0.99,0,0,-0,0,,,,,,,,,,,,,,,,
1286027,0,,,0,,,0.02,0.02,0.99,0,0,-0,0,,,,,,,,,,,,,,,,
1286067,0,,,0,,,0.02,0.02,0.99,0,0,-0,0,,,,,,,,,,,,,,,,
1286107,0,,,0,,,0.02,0.03,0.99,0,0,-0,0,,,,,,,,,,,,,,,,
1286147,0,,,0,,,0.02,0.02,0.99,0,0,-0,0,,0.0,0.0,0.0,0.0,0,0,0.0,0.0,0,0.0,-1,0.0,0.0,0.0,0
1286187,0,,,0,,,0.02,0.02,0.99,0,0,-0,0,,,,,,,,,,,,,,,,
1286227,0,,,0,,,0.02,0.02,0.99,0,0,-0,0,,,,,,,,,,,,,,,,
1286267,0,,,0,,,0.02,0.02,0.99,0,0,-0,0,,,,,,,,,,,,,,,,
1286307,0,,,0,,,0.02,0.02,0.99,0,0,-0,0,,,,,,,,,,,,,,,,
1286347,0,252,287,0,0.01,5.14,0.01,0.02,0.99,0,0,-0,0,0,0.0,0.0,0.0,0.0,0,0,0.0,0.0,0,0.0,-1,0.0,0.0,0.0,0
1286387,0,,,0,,,0.01,0.02,0.99,0,0,-0,0,,,,,,,,,,,,,,,,
1286427,0,,,0,,,0.01,0.02,0.99,0,0,-0,0,,,,,,,,,,,,,,,,
1286467,0,,,0,,,0.01,0.02,0.99,0,0,-0,0,,,,,,,,,,,,,,,,
1286507,0,,,0,,,0.02,0.02,0.98,0,0,-0,0,,,,,,,,,,,,,,,,
1286547,0,,,0,,,0.02,0.02,0.98,0,0,-0,0,,0.0,0.0,0.0,0.0,0,0,0.0,0.0,0,0.0,-1,0.0,0.0,0.0,0
1286587,0,,,0,,,0.02,0.02,0.98,0,0,-0,0,,,,,,,,,,,,,,,,
1286627,0,,,0,,,0.02,0.02,0.98,0,0,-0,0,,,,,,,,,,,,,,,,
1286667,0,,,0,,,0.02,0.02,0.98,0,0,-0,0,,,,,,,,,,,,,,,,
1286707,0,,,0,,,0.02,0.02,0.98,0,0,-0,0,,,,,,,,,,,,,,,,
1286747,0,,,0,,,0.02,0.02,0.98,0,0,-0,0,,0.0,0.0,0.0,0.0,0,0,0.0,0.0,0,0.0,-1,0.0,0.0,0.0,0
1286787,0,,,0,,,0.02,0.02,0.98,0,0,-0,0,,,,,,,,,,,,,,,,
1286827,0,,,0,,,0.02,0.02,0.98,0,0,-0,0,,,,,,,,,,,,,,,,
1286867,0,,,0,,,0.02,0.02,0.98,0,0,-0,0,,,,,,,,,,,,,,,,
1286907,0,,,0,,,0.01,0.02,0.98,0,0,-0,0,,,,,,,,,,,,,,,,
1286947,0,,,0,,,0.01,0.02,0.98,0,0,-0,0,,0.0,0.0,0.0,0.0,0,0,0.0,0.0,0,0.0,-1,0.0,0.0,0.0,0
1286987,0,,,0,,,0.01,0.03,0.98,0,0,-0,0,,,,,,,,,,,,,,,,
1287027,0,,,0,,,0.01,0.03,0.98,0,0,-0,0,,,,,,,,,,,,,,,,
1287067,0,,,0,,,0.01,0.03,0.98,0,0,-0,0,,,,,,,,,,,,,,,,
1287107,0,,,0,,,0.01,0.03,0.98,0,0,-0,0,,,,,,,,,,,,,,,,
1287147,0,,,0,,,0.01,0.02,0.98,0,0,-0,0,,0.0,0.0,0.0,0.0,0,0,0.0,0.0,0,0.0,-1,0.0,0.0,0.0,0
1287187,0,,,0,,,0.01,0.02,0.98,0,0,-0,0,,,,,,,,,,,,,,,,
1287227,0,,,0,,,0.02,0.02,0.98,0,0,-0,0,,,,,,,,,,,,,,,,
1287267,0,,,0,,,0.02,0.02,0.98,0,0,-0,0,,,,,,,,,,,,,,,,
1287307,0,,,0,,,0.02,0.02,0.98,0,0,-0,0,,,,,,,,,,,,,,,,
1287347,0,251,286,0,0.0,5.16,0.01,0.02,0.99,0,0,-0,0,0,0.0,0.0,0.0,0.0,0,0,0.0,0.0,0,0.0,-1,0.0,0.0,0.0,0
1287387,0,,,0,,,0.01,0.02,0.99,0,0,-0,0,,,,,,,,,,,,,,,,
1287427,0,,,0,,,0.01,0.02,0.99,0,0,-0,0,,,,,,,,,,,,,,,,
1287467,0,,,0,,,0.01,0.02,0.99,0,0,-0,0,,,,,,,,,,,,,,,,
1287507,0,,,0,,,0.01,0.02,0.99,0,0,-0,0,,,,,,,,,,,,,,,,
1287547,0,,,0,,,0.02,0.02,0.99,0,0,-0,0,,0.0,0.0,0.0,0.0,0,0,0.0,0.0,0,0.0,-1,0.0,0.0,0.0,0
1287587,0,,,0,,,0.01,0.02,0.99,0,0,-0,0,,,,,,,,,,,,,,,,
1287627,0,,,0,,,0.01,0.02,0.99,0,0,-0,0,,,,,,,,,,,,,,,,
1287667,0,,,0,,,0.01,0.02,0.98,0,0,-0,0,,,,,,,,,,,,,,,,
1287707,0,,,0,,,0.02,0.02,0.98,0,0,-0,0,,,,,,,,,,,,,,,,
1287747,0,,,0,,,0.02,0.02,0.98,0,0,-0,0,,0.0,0.0,0.0,0.0,0,0,0.0,0.0,0,0.0,-1,0.0,0.0,0.0,0
1287787,0,,,0,,,0.02,0.02,0.98,0,0,-0,0,,,,,,,,,,,,,,,,
1287827,0,,,0,,,0.01,0.02,0.98,0,0,-0,0,,,,,,,,,,,,,,,,
1287867,0,,,0,,,0.01,0.02,0.98,0,0,-0,0,,,,,,,,,,,,,,,,
1287907,0,,,0,,,0.01,0.02,0.98,0,0,-0,0,,,,,,,,,,,,,,,,
1287947,0,,,0,,,0.02,0.02,0.98,0,0,-0,0,,0.0,0.0,0.0,0.0,0,0,0.0,0.0,0,0.0,-1,0.0,0.0,0.0,0
1287987,0,,,0,,,0.02,0.02,0.98,0,0,-0,0,,,,,,,,,,,,,,,,
1288027,0,,,0,,,0.01,0.02,0.98,0,0,-0,0,,,,,,,,,,,,,,,,
1288067,0,,,0,,,0.01,0.02,0.99,0,0,-0,0,,,,,,,,,,,,,,,,
1288107,0,,,0,,,0.01,0.02,0.99,0,0,-0,0,,,,,,,,,,,,,,,,
1288147,0,,,0,,,0.01,0.02,0.99,0,0,-0,0,,0.0,0.0,0.0,0.0,0,0,0.0,0.0,0,0.0,-1,0.0,0.0,0.0,0
1288187,0,,,0,,,0.01,0.02,0.99,0,0,-0,0,,,,,,,,,,,,,,,,
1288227,0,,,0,,,0.01,0.02,0.99,0,0,-0,0,,,,,,,,,,,,,,,,
1288267,0,,,0,,,0.02,0.02,0.99,0,0,-0,0,,,,,,,,,,,,,,,,
1288307,0,,,0,,,0.02,0.02,0.99,0,0,-0,0,,,,,,,,,,,,,,,,
1288347,0,252,287,0,0.0,5.14,0.02,0.02,0.98,0,0,-0,0,0,0.0,0.0,0.0,0.0,0,0,0.0,0.0,0,0.0,-1,0.0,0.0,0.0,0
1288387,0,,,0,,,0.02,0.02,0.99,0,0,-0,0,,,,,,,,,,,,,,,,
1288427,0,,,0,,,0.02,0.02,0.98,0,0,-0,0,,,,,,,,,,,,,,,,
1288467,0,,,0,,,0.01,0.02,0.98,0,0,-0,0,,,,,,,,,,,,,,,,
1288507,0,,,0,,,0.01,0.02,0.98,0,0,-0,0,,,,,,,,,,,,,,,,
1288547,0,,,0,,,0.01,0.02,0.98,0,0,-0,0,,0.0,0.0,0.0,0.0,0,0,0.0,0.0,0,0.0,-1,0.0,0.0,0.0,0
1288587,0,,,0,,,0.01,0.02,0.98,0,0,-0,0,,,,,,,,,,,,,,,,
1288627,0,,,0,,,0.01,0.02,0.98,0,0,-0,0,,,,,,,,,,,,,,,,
1288667,0,,,0,,,0.01,0.02,0.98,0,0,-0,0,,,,,,,,,,,,,,,,
1288707,0,,,0,,,0.01,0.02,0.98,0,0,-0,0,,,,,,,,,,,,,,,,
1288747,0,,,0,,,0.01,0.02,0.99,0,0,-0,0,,0.0,0.0,0.0,0.0,0,0,0.0,0.0,0,0.0,-1,0.0,0.0,0.0,0
1288787,0,,,0,,,0.02,0.02,0.98,1,0,-0,0,,,,,,,,,,,,,,,,
1288827,0,,,0,,,0.02,0.03,0.99,2,0,-0,0,,,,,,,,,,,,,,,,
1288867,0,,,0,,,0.02,0.02,0.99,2,0,-0,0,,,,,,,,,,,,,,,,
