"Interval"|"ms"|0|0|1,"Utc"|"ms"|0|0|1,"EngineTemp"|"F"|0|300|1,"OilTemp"|"F"|0|300|1,"OilPress"|"PSI"|0|150|25,"Battery"|"Volts"|0.0|20.0|1,"Battery"|"Volts"|0.0|20.0|1,"AccelX"|"G"|-3.0|3.0|25,"AccelY"|"G"|-3.0|3.0|25,"AccelZ"|"G"|-3.0|3.0|25,"Yaw"|"Deg/Sec"|-120|120|25,"Pitch"|"Deg/Sec"|-120|120|25,"Roll"|"Deg/Sec"|-120|120|25,"RPM"|""|0|10000|25,"RPM"|""|0|14000|1,"Latitude"|"Degrees"|-180.0|180.0|10,"Longitude"|"Degrees"|-180.0|180.0|10,"Speed"|"MPH"|0.0|150.0|10,"Altitude"|"ft"|0.0|4000.0|10,"GPSSats"|""|0|20|10,"GPSQual"|""|0|5|10,"GPSDOP"|""|0.0|20.0|10,"Distance"|"mi"|0.0|0.0|10,"LapCount"|""|0|0|10,"LapTime"|"Min"|0.0|0.0|10,"Sector"|""|0|0|10,"SectorTime"|"Min"|0.0|0.0|10,"PredTime"|"Min"|0.0|0.0|5,"ElapsedTime"|"Min"|0.0|0.0|10,"CurrentLap"|""|0|0|10
1310387,0,,,0,,,0.01,0.02,0.99,-0,-1,-25,0,,,,,,,,,,,,,,,,
1310427,0,,,0,,,0.01,0.03,0.99,-0,-1,-20,0,,,,,,,,,,,,,,,,
1310467,0,,,0,,,0.01,0.02,0.99,-1,-1,-16,0,,,,,,,,,,,,,,,,
1310507,0,,,0,,,0.01,0.02,0.99,-2,-0,-13,0,,,,,,,,,,,,,,,,
1310547,0,,,0,,,0.02,0.02,0.99,-1,-0,-11,0,,0.0,0.0,0.0,0.0,0,0,0.0,0.0,0,0.0,-1,0.0,0.0,0.0,0
1310587,0,,,0,,,0.02,0.02,0.99,-1,-0,-9,0,,,,,,,,,,,,,,,,
1310627,0,,,0,,,0.02,0.03,0.99,-1,-0,-7,0,,,,,,,,,,,,,,,,
1310667,0,,,0,,,0.02,0.02,0.99,-1,-0,-6,0,,,,,,,,,,,,,,,,
1310707,0,,,0,,,0.02,0.02,0.99,-0,-0,-5,0,,,,,,,,,,,,,,,,
1310747,0,,,0,,,0.02,0.03,0.99,-0,-0,-4,0,,0.0,0.0,0.0,0.0,0,0,0.0,0.0,0,0.0,-1,0.0,0.0,0.0,0
1310787,0,,,0,,,0.02,0.03,0.99,-0,-0,-3,0,,,,,,,,,,,,,,,,
1310827,0,,,0,,,0.02,0.03,0.99,-0,-0,-3,0,,,,,,,,,,,,,,,,
1310867,0,,,0,,,0.02,0.02,0.99,-0,-0,-2,0,,,,,,,,,,,,,,,,
1310907,0,,,0,,,0.02,0.02,0.99,0,0,-2,0,,,,,,,,,,,,,,,,
1310947,0,,,0,,,0.02,0.02,0.98,0,0,-2,0,,0.0,0.0,0.0,0.0,0,0,0.0,0.0,0,0.0,-1,0.0,0.0,0.0,0
1310987,0,,,0,,,0.02,0.02,0.98,0,0,-1,0,,,,,,,,,,,,,,,,
1311027,0,,,0,,,0.01,0.03,0.99,0,0,-1,0,,,,,,,,,,,,,,,,
1311067,0,,,0,,,0.01,0.03,0.99,0,0,-1,0,,,,,,,,,,,,,,,,
1311107,0,,,0,,,0.01,0.03,0.99,0,0,-1,0,,,,,,,,,,,,,,,,
1311147,0,,,0,,,0.01,0.03,0.99,0,0,-1,0,,0.0,0.0,0.0,0.0,0,0,0.0,0.0,0,0.0,-1,0.0,0.0,0.0,0
1311187,0,,,0,,,0.02,0.02,0.98,0,0,-1,0,,,,,,,,,,,,,,,,
1311227,0,,,0,,,0.02,0.02,0.98,0,0,-1,0,,,,,,,,,,,,,,,,
1311267,0,,,0,,,0.02,0.02,0.98,0,0,-0,0,,,,,,,,,,,,,,,,
1311307,0,,,0,,,0.02,0.02,0.98,0,0,-0,0,,,,,,,,,,,,,,,,
1311347,0,250,285,0,0.0,5.14,0.02,0.02,0.98,0,0,-0,0,0,0.0,0.0,0.0,0.0,0,0,0.0,0.0,0,0.0,-1,0.0,0.0,0.0,0
1311387,0,,,0,,,0.02,0.02,0.98,0,0,-0,0,,,,,,,,,,,,,,,,
1311427,0,,,0,,,0.02,0.02,0.98,0,0,-0,0,,,,,,,,,,,,,,,,
1311467,0,,,0,,,0.02,0.02,0.99,0,0,-0,0,,,,,,,,,,,,,,,,
1311507,0,,,0,,,0.02,0.02,0.98,0,0,-0,0,,,,,,,,,,,,,,,,
1311547,0,,,0,,,0.02,0.03,0.98,0,0,-0,0,,0.0,0.0,0.0,0.0,0,0,0.0,0.0,0,0.0,-1,0.0,0.0,0.0,0
1311587,0,,,0,,,0.02,0.02,0.98,0,0,-0,0,,,,,,,,,,,,,,,,
1311627,0,,,0,,,0.02,0.02,0.98,0,0,-0,0,,,,,,,,,,,,,,,,
1311667,0,,,0,,,0.02,0.02,0.99,0,0,-0,0,,,,,,,,,,,,,,,,
1311707,0,,,0,,,0.01,0.02,1.0,0,-0,-1,0,,,,,,,,,,,,,,,,
1311747,0,,,0,,,0.01,0.02,1.0,0,-1,-1,0,,0.0,0.0,0.0,0.0,0,0,0.0,0.0,0,0.0,-1,0.0,0.0,0.0,0
1311787,0,,,0,,,0.01,0.02,1.0,0,-0,-1,0,,,,,,,,,,,,,,,,
1311827,0,,,0,,,0.01,0.02,1.0,0,-0,-1,0,,,,,,,,,,,,,,,,
1311867,0,,,0,,,0.01,0.02,1.0,0,-0,-1,0,,,,,,,,,,,,,,,,
1311907,0,,,0,,,0.01,0.02,0.99,0,-0,-0,0,,,,,,,,,,,,,,,,
1311947,0,,,0,,,0.01,0.02,0.99,0,-0,-0,0,,0.0,0.0,0.0,0.0,0,0,0.0,0.0,0,0.0,-1,0.0,0.0,0.0,0
1311987,0,,,0,,,0.02,0.02,0.99,0,-0,-0,0,,,,,,,,,,,,,,,,
1312027,0,,,0,,,0.02,0.02,0.99,0,0,-0,0,,,,,,,,,,,,,,,,
1312067,0,,,0,,,0.02,0.02,0.99,0,0,-0,0,,,,,,,,,,,,,,,,
1312107,0,,,0,,,0.02,0.02,0.99,0,0,-0,0,,,,,,,,,,,,,,,,
1312147,0,,,0,,,0.02,0.02,0.99,0,0,-0,0,,0.0,0.0,0.0,0.0,0,0,0.0,0.0,0,0.0,-1,0.0,0.0,0.0,0
1312187,0,,,0,,,0.02,0.02,0.99,0,0,-0,0,,,,,,,,,,,,,,,,
1312227,0,,,0,,,0.02,0.02,0.99,0,0,-0,0,,,,,,,,,,,,,,,,
1312267,0,,,0,,,0.02,0.02,0.99,0,0,-0,0,,,,,,,,,,,,,,,,
1312307,0,,,0,,,0.02,0.02,0.99,0,0,-0,0,,,,,,,,,,,,,,,,
1312347,0,253,287,0,0.0,5.16,0.02,0.02,0.99,0,0,-0,0,0,0.0,0.0,0.0,0.0,0,0,0.0,0.0,0,0.0,-1,0.0,0.0,0.0,0
1312387,0,,,0,,,0.02,0.02,0.99,0,0,-0,0,,,,,,,,,,,,,,,,
1312427,0,,,0,,,0.02,0.02,0.99,0,0,-0,0,,,,,,,,,,,,,,,,
1312467,0,,,0,,,0.02,0.02,0.99,0,0,-0,0,,,,,,,,,,,,,,,,
1312507,0,,,0,,,0.02,0.02,0.99,0,0,-0,0,,,,,,,,,,,,,,,,
1312547,0,,,0,,,0.02,0.02,1.0,0,0,-0,0,,0.0,0.0,0.0,0.0,0,0,0.0,0.0,0,0.0,-1,0.0,0.0,0.0,0
1312587,0,,,0,,,0.02,0.02,0.99,0,0,-0,0,,,,,,,,,,,,,,,,
1312627,0,,,0,,,0.02,0.02,0.99,0,0,0,0,,,,,,,,,,,,,,,,
1312667,0,,,0,,,0.02,0.02,0.99,0,0,-0,0,,,,,,,,,,,,,,,,
1312707,0,,,0,,,0.02,0.02,0.99,0,-0,-0,0,,,,,,,,,,,,,,,,
1312747,0,,,0,,,0.02,0.02,0.99,0,-0,-0,0,,0.0,0.0,0.0,0.0,0,0,0.0,0.0,0,0.0,-1,0.0,0.0,0.0,0
1312787,0,,,0,,,0.02,0.02,0.99,0,-0,-0,0,,,,,,,,,,,,,,,,
1312827,0,,,0,,,0.02,0.02,0.99,0,-0,-0,0,,,,,,,,,,,,,,,,
1312867,0,,,0,,,0.02,0.02,0.99,0,-0,-0,0,,,,,,,,,,,,,,,,
1312907,0,,,0,,,0.02,0.02,0.99,0,-0,-0,0,,,,,,,,,,,,,,,,
1312947,0,,,0,,,0.02,0.02,0.99,0,-0,-0,0,,0.0,0.0,0.0,0.0,0,0,0.0,0.0,0,0.0,-1,0.0,0.0,0.0,0
1312987,0,,,0,,,0.02,0.02,0.99,0,0,-0,0,,,,,,,,,,,,,,,,
1313027,0,,,0,,,0.02,0.02,0.99,0,0,-0,0,,,,,,,,,,,,,,,,
1313067,0,,,0,,,0.02,0.02,0.99,0,0,-0,0,,,,,,,,,,,,,,,,
1313107,0,,,0,,,0.02,0.02,0.99,0,0,-0,0,,,,,,,,,,,,,,,,
1313147,0,,,0,,,0.02,0.02,0.99,0,0,-0,0,,0.0,0.0,0.0,0.0,0,0,0.0,0.0,0,0.0,-1,0.0,0.0,0.0,0
1313187,0,,,0,,,0.02,0.02,0.99,0,0,-0,0,,,,,,,,,,,,,,,,
1313227,0,,,0,,,0.02,0.02,0.99,0,0,-0,0,,,,,,,,,,,,,,,,
1313267,0,,,0,,,0.02,0.02,0.99,0,0,-0,0,,,,,,,,,,,,,,,,
1313307,0,,,0,,,0.02,0.02,0.99,0,0,-0,0,,,,,,,,,,,,,,,,
1313347,0,256,289,0,0.0,5.14,0.02,0.02,0.98,0,0,-0,0,0,0.0,0.0,0.0,0.0,0,0,0.0,0.0,0,0.0,-1,0.0,0.0,0.0,0
1313387,0,,,0,,,0.02,0.02,0.98,0,0,-0,0,,,,,,,,,,,,,,,,
1313427,0,,,0,,,0.02,0.02,0.98,0,0,-0,0,,,,,,,,,,,,,,,,
1313467,0,,,0,,,0.02,0.02,0.98,0,0,-0,0,,,,,,,,,,,,,,,,
1313507,0,,,0,,,0.02,0.02,0.98,0,0,-0,0,,,,,,,,,,,,,,,,
1313547,0,,,0,,,0.02,0.02,0.98,0,0,-0,0,,0.0,0.0,0.0,0.0,0,0,0.0,0.0,0,0.0,-1,0.0,0.0,0.0,0
1313587,0,,,0,,,0.02,0.02,0.98,0,0,-0,0,,,,,,,,,,,,,,,,
1313627,0,,,0,,,0.02,0.02,0.98,0,0,-0,0,,,,,,,,,,,,,,,,
1313667,0,,,0,,,0.02,0.02,0.98,0,0,-0,0,,,,,,,,,,,,,,,,
1313707,0,,,0,,,0.02,0.02,0.98,0,0,-0,0,,,,,,,,,,,,,,,,
1313747,0,,,0,,,0.02,0.02,0.99,0,0,-0,0,,0.0,0.0,0.0,0.0,0,0,0.0,0.0,0,0.0,-1,0.0,0.0,0.0,0
1313787,0,,,0,,,0.02,0.02,0.98,0,0,-0,0,,,,,,,,,,,,,,,,
1313827,0,,,0,,,0.02,0.02,0.98,0,0,-0,0,,,,,,,,,,,,,,,,
1313867,0,,,0,,,0.02,0.02,0.98,0,0,-0,0,,,,,,,,,,,,,,,,
1313907,0,,,0,,,0.02,0.02,0.98,0,0,-0,0,,,,,,,,,,,,,,,,
1313947,0,,,0,,,0.02,0.02,0.98,0,0,-0,0,,0.0,0.0,0.0,0.0,0,0,0.0,0.0,0,0.0,-1,0.0,0.0,0.0,0
1313987,0,,,0,,,0.02,0.02,0.98,0,0,-0,0,,,,,,,,,,,,,,,,
1314027,0,,,0,,,0.02,0.02,0.98,0,0,-0,0,,,,,,,,,,,,,,,,
1314067,0,,,0,,,0.02,0.02,0.98,0,0,-0,0,,,,,,,,,,,,,,,,
1314107,0,,,0,,,0.02,0.02,0.98,0,0,-0,0,,,,,,,,,,,,,,,,
1314147,0,,,0,,,0.02,0.02,0.98,0,0,-0,0,,0.0,0.0,0.0,0.0,0,0,0.0,0.0,0,0.0,-1,0.0,0.0,0.0,0
1314187,0,,,0,,,0.02,0.02,0.98,0,0,-0,0,,,,,,,,,,,,,,,,
1314227,0,,,0,,,0.02,0.02,0.99,0,0,-0,0,,,,,,,,,,,,,,,,
1314267,0,,,0,,,0.02,0.02,0.98,0,0,-0,0,,,,,,,,,,,,,,,,
1314307,0,,,0,,,0.02,0.02,0.98,0,0,-0,0,,,,,,,,,,,,,,,,
1314347,0,253,287,0,0.0,5.14,0.02,0.02,0.99,0,0,-0,0,0,0.0,0.0,0.0,0.0,0,0,0.0,0.0,0,0.0,-1,0.0,0.0,0.0,0
1314387,0,,,0,,,0.02,0.02,0.99,0,0,-0,0,,,,,,,,,,,,,,,,
1314427,0,,,0,,,0.02,0.02,0.98,0,0,-0,0,,,,,,,,,,,,,,,,
1314467,0,,,0,,,0.02,0.02,0.98,0,0,-0,0,,,,,,,,,,,,,,,,
1314507,0,,,0,,,0.02,0.02,0.98,0,0,-0,0,,,,,,,,,,,,,,,,
1314547,0,,,0,,,0.02,0.02,0.98,0,0,-0,0,,0.0,0.0,0.0,0.0,0,0,0.0,0.0,0,0.0,-1,0.0,0.0,0.0,0
1314587,0,,,0,,,0.02,0.02,0.98,0,0,-0,0,,,,,,,,,,,,,,,,
1314627,0,,,0,,,0.02,0.02,0.98,0,0,-0,0,,,,,,,,,,,,,,,,
1314667,0,,,0,,,0.02,0.02,0.98,0,0,-0,0,,,,,,,,,,,,,,,,
1314707,0,,,0,,,0.02,0.02,0.98,0,0,-0,0,,,,,,,,,,,,,,,,
1314747,0,,,0,,,0.02,0.02,0.98,0,0,-0,0,,0.0,0.0,0.0,0.0,0,0,0.0,0.0,0,0.0,-1,0.0,0.0,0.0,0
1314787,0,,,0,,,0.02,0.02,0.98,0,0,-0,0,,,,,,,,,,,,,,,,
1314827,0,,,0,,,0.02,0.02,0.98,0,0,-0,0,,,,,,,,,,,,,,,,
1314867,0,,,0,,,0.02,0.02,0.99,0,0,-0,0,,,,,,,,,,,,,,,,
1314907,0,,,0,,,0.02,0.02,0.99,0,0,-0,0,,,,,,,,,,,,,,,,
1314947,0,,,0,,,0.02,0.02,0.98,0,0,-0,0,,0.0,0.0,0.0,0.0,0,0,0.0,0.0,0,0.0,-1,0.0,0.0,0.0,0
1314987,0,,,0,,,0.02,0.02,0.99,0,0,-0,0,,,,,,,,,,,,,,,,
1315027,0,,,0,,,0.02,0.02,0.99,0,0,-0,0,,,,,,,,,,,,,,,,
1315067,0,,,0,,,0.02,0.02,0.99,0,0,-0,0,,,,,,,,,,,,,,,,
1315107,0,,,0,,,0.02,0.02,0.99,0,0,-0,0,,,,,,,,,,,,,,,,
1315147,0,,,0,,,0.02,0.02,0.98,0,0,-0,0,,0.0,0.0,0.0,0.0,0,0,0.0,0.0,0,0.0,-1,0.0,0.0,0.0,0
1315187,0,,,0,,,0.02,0.02,0.98,0,0,-0,0,,,,,,,,,,,,,,,,
1315227,0,,,0,,,0.02,0.02,0.98,0,0,-0,0,,,,,,,,,,,,,,,,
1315267,0,,,0,,,0.02,0.02,0.98,0,0,-0,0,,,,,,,,,,,,,,,,
1315307,0,,,0,,,0.02,0.02,0.98,0,0,-0,0,,,,,,,,,,,,,,,,
1315347,0,275,302,0,0.0,5.14,0.02,0.02,0.98,0,0,-0,0,0,0.0,0.0,0.0,0.0,0,0,0.0,0.0,0,0.0,-1,0.0,0.0,0.0,0
1315387,0,,,0,,,0.02,0.02,0.99,0,0,-0,0,,,,,,,,,,,,,,,,
1315427,0,,,0,,,0.02,0.02,0.99,0,0,-0,0,,,,,,,,,,,,,,,,
1315467,0,,,0,,,0.02,0.02,0.99,0,0,-0,0,,,,,,,,,,,,,,,,
1315507,0,,,0,,,0.02,0.02,0.99,0,0,-0,0,,,,,,,,,,,,,,,,
1315547,0,,,0,,,0.02,0.02,0.99,0,0,-0,0,,0.0,0.0,0.0,0.0,0,0,0.0,0.0,0,0.0,-1,0.0,0.0,0.0,0
1315587,0,,,0,,,0.02,0.02,0.99,0,0,-0,0,,,,,,,,,,,,,,,,
1315627,0,,,0,,,0.02,0.02,0.99,0,0,-0,0,,,,,,,,,,,,,,,,
1315667,0,,,0,,,0.02,0.02,0.99,0,0,-0,0,,,,,,,,,,,,,,,,
1315707,0,,,0,,,0.02,0.02,0.99,0,0,-0,0,,,,,,,,,,,,,,,,
1315747,0,,,0,,,0.02,0.02,0.99,0,0,-0,0,,0.0,0.0,0.0,0.0,0,0,0.0,0.0,0,0.0,-1,0.0,0.0,0.0,0
1315787,0,,,0,,,0.02,0.02,0.99,0,0,-0,0,,,,,,,,,,,,,,,,
1315827,0,,,0,,,0.02,0.02,0.99,0,0,-0,0,,,,,,,,,,,,,,,,
1315867,0,,,0,,,0.02,0.02,0.99,0,0,-0,0,,,,,,,,,,,,,,,,
1315907,0,,,0,,,0.02,0.02,0.99,0,0,-0,0,,,,,,,,,,,,,,,,
1315947,0,,,0,,,0.02,0.02,0.99,0,0,-0,0,,0.0,0.0,0.0,0.0,0,0,0.0,0.0,0,0.0,-1,0.0,0.0,0.0,0
1315987,0,,,0,,,0.02,0.02,0.99,0,0,-0,0,,,,,,,,,,,,,,,,
1316027,0,,,0,,,0.02,0.02,0.99,0,0,-0,0,,,,,,,,,,,,,,,,
1316067,0,,,0,,,0.02,0.02,0.99,0,0,-0,0,,,,,,,,,,,,,,,,
1316107,0,,,0,,,0.02,0.02,0.99,0,0,-0,0,,,,,,,,,,,,,,,,
1316147,0,,,0,,,0.02,0.02,0.98,0,0,-0,0,,0.0,0.0,0.0,0.0,0,0,0.0,0.0,0,0.0,-1,0.0,0.0,0.0,0
1316187,0,,,0,,,0.02,0.02,0.99,0,0,-0,0,,,,,,,,,,,,,,,,
1316227,0,,,0,,,0.02,0.02,0.99,0,0,-0,0,,,,,,,,,,,,,,,,
1316267,0,,,0,,,0.02,0.02,0.99,0,0,-0,0,,,,,,,,,,,,,,,,
1316307,0,,,0,,,0.02,0.02,0.98,0,0,-0,0,,,,,,,,,,,,,,,,
1316347,0,267,298,0,0.0,5.15,0.02,0.02,0.99,0,0,-0,0,0,0.0,0.0,0.0,0.0,0,0,0.0,0.0,0,0.0,-1,0.0,0.0,0.0,0
1316387,0,,,0,,,0.02,0.02,0.99,0,0,-0,0,,,,,,,,,,,,,,,,
1316427,0,,,0,,,0.02,0.02,0.99,0,0,-0,0,,,,,,,,,,,,,,,,
1316467,0,,,0,,,0.02,0.02,0.99,0,0,-0,0,,,,,,,,,,,,,,,,
1316507,0,,,0,,,0.02,0.02,0.99,0,0,-0,0,,,,,,,,,,,,,,,,
1316547,0,,,0,,,0.02,0.02,0.99,0,0,-0,0,,0.0,0.0,0.0,0.0,0,0,0.0,0.0,0,0.0,-1,0.0,0.0,0.0,0
1316587,0,,,0,,,0.02,0.02,0.99,0,0,-0,0,,,,,,,,,,,,,,,,
1316627,0,,,0,,,0.02,0.02,0.99,0,0,-0,0,,,,,,,,,,,,,,,,
1316667,0,,,0,,,0.02,0.02,0.99,0,0,-0,0,,,,,,,,,,,,,,,,
1316707,0,,,0,,,0.02,0.02,0.99,0,0,-0,0,,,,,,,,,,,,,,,,
1316747,0,,,0,,,0.02,0.02,0.99,0,0,-0,0,,0.0,0.0,0.0,0.0,0,0,0.0,0.0,0,0.0,-1,0.0,0.0,0.0,0
1316787,0,,,0,,,0.02,0.02,0.99,0,0,-0,0,,,,,,,,,,,,,,,,
1316827,0,,,0,,,0.02,0.02,0.99,0,0,-0,0,,,,,,,,,,,,,,,,
1316867,0,,,0,,,0.02,0.02,0.99,0,0,-0,0,,,,,,,,,,,,,,,,
1316907,0,,,0,,,0.02,0.02,0.99,0,0,-0,0,,,,,,,,,,,,,,,,
1316947,0,,,0,,,0.02,0.02,0.99,0,0,-0,0,,0.0,0.0,0.0,0.0,0,0,0.0,0.0,0,0.0,-1,0.0,0.0,0.0,0
1316987,0,,,0,,,0.02,0.02,0.99,0,0,-0,0,,,,,,,,,,,,,,,,
1317027,0,,,0,,,0.02,0.02,0.98,0,0,-0,0,,,,,,,,,,,,,,,,
1317067,0,,,0,,,0.02,0.02,0.98,0,0,-0,0,,,,,,,,,,,,,,,,
1317107,0,,,0,,,0.02,0.02,0.99,0,0,-0,0,,,,,,,,,,,,,,,,
1317147,0,,,0,,,0.02,0.02,0.99,0,0,-0,0,,0.0,0.0,0.0,0.0,0,0,0.0,0.0,0,0.0,-1,0.0,0.0,0.0,0
1317187,0,,,0,,,0.02,0.02,0.99,0,0,-0,0,,,,,,,,,,,,,,,,
1317227,0,,,0,,,0.02,0.02,0.99,0,0,-0,0,,,,,,,,,,,,,,,,
1317267,0,,,0,,,0.02,0.02,0.99,0,0,-0,0,,,,,,,,,,,,,,,,
1317307,0,,,0,,,0.02,0.02,0.99,0,0,-0,0,,,,,,,,,,,,,,,,
1317347,0,262,294,0,0.0,5.16,0.02,0.02,0.99,0,0,-0,0,0,0.0,0.0,0.0,0.0,0,0,0.0,0.0,0,0.0,-1,0.0,0.0,0.0,0
1317387,0,,,0,,,0.02,0.02,0.98,0,0,-0,0,,,,,,,,,,,,,,,,
1317427,0,,,0,,,0.02,0.02,0.99,0,0,-0,0,,,,,,,,,,,,,,,,
1317467,0,,,0,,,0.02,0.02,0.98,0,0,-0,0,,,,,,,,,,,,,,,,
1317507,0,,,0,,,0.02,0.02,0.98,0,0,-0,0,,,,,,,,,,,,,,,,
1317547,0,,,0,,,0.02,0.02,0.98,0,0,-0,0,,0.0,0.0,0.0,0.0,0,0,0.0,0.0,0,0.0,-1,0.0,0.0,0.0,0
1317587,0,,,0,,,0.02,0.02,0.98,0,0,-0,0,,,,,,,,,,,,,,,,
1317627,0,,,0,,,0.02,0.02,0.98,0,0,-0,0,,,,,,,,,,,,,,,,
1317667,0,,,0,,,0.02,0.02,0.98,0,0,-0,0,,,,,,,,,,,,,,,,
1317707,0,,,0,,,0.02,0.02,0.98,0,0,-0,0,,,,,,,,,,,,,,,,
1317747,0,,,0,,,0.02,0.02,0.98,0,0,-0,0,,0.0,0.0,0.0,0.0,0,0,0.0,0.0,0,0.0,-1,0.0,0.0,0.0,0
1317787,0,,,0,,,0.02,0.02,0.98,0,0,-0,0,,,,,,,,,,,,,,,,
1317827,0,,,0,,,0.02,0.02,0.98,0,0,-0,0,,,,,,,,,,,,,,,,
1317867,0,,,0,,,0.02,0.02,0.98,0,0,-0,0,,,,,,,,,,,,,,,,
1317907,0,,,0,,,0.02,0.02,0.98,0,0,-0,0,,,,,,,,,,,,,,,,
1317947,0,,,0,,,0.02,0.02,0.98,0,0,-0,0,,0.0,0.0,0.0,0.0,0,0,0.0,0.0,0,0.0,-1,0.0,0.0,0.0,0
1317987,0,,,0,,,0.02,0.02,0.98,0,0,-0,0,,,,,,,,,,,,,,,,
1318027,0,,,0,,,0.02,0.02,0.98,0,0,-0,0,,,,,,,,,,,,,,,,
1318067,0,,,0,,,0.02,0.02,0.98,0,0,-0,0,,,,,,,,,,,,,,,,
1318107,0,,,0,,,0.02,0.02,0.98,0,0,-0,0,,,,,,,,,,,,,,,,
1318147,0,,,0,,,0.02,0.02,0.98,0,0,-0,0,,0.0,0.0,0.0,0.0,0,0,0.0,0.0,0,0.0,-1,0.0,0.0,0.0,0
1318187,0,,,0,,,0.02,0.02,0.98,0,0,-0,0,,,,,,,,,,,,,,,,
1318227,0,,,0,,,0.02,0.02,0.98,0,0,-0,0,,,,,,,,,,,,,,,,
1318267,0,,,0,,,0.02,0.02,0.98,0,0,-0,0,,,,,,,,,,,,,,,,
1318307,0,,,0,,,0.02,0.02,0.98,0,0,-0,0,,,,,,,,,,,,,,,,
1318347,0,258,291,0,0.0,5.14,0.02,0.02,0.98,0,0,-0,0,0,0.0,0.0,0.0,0.0,0,0,0.0,0.0,0,0.0,-1,0.0,0.0,0.0,0
1318387,0,,,0,,,0.02,0.02,0.98,0,0,-0,0,,,,,,,,,,,,,,,,
1318427,0,,,0,,,0.02,0.02,0.98,0,0,-0,0,,,,,,,,,,,,,,,,
1318467,0,,,0,,,0.02,0.02,0.98,0,0,-0,0,,,,,,,,,,,,,,,,
1318507,0,,,0,,,0.02,0.02,0.98,0,0,-0,0,,,,,,,,,,,,,,,,
1318547,0,,,0,,,0.02,0.02,0.98,0,0,-0,0,,0.0,0.0,0.0,0.0,0,0,0.0,0.0,0,0.0,-1,0.0,0.0,0.0,0
1318587,0,,,0,,,0.02,0.02,0.98,0,0,-0,0,,,,,,,,,,,,,,,,
1318627,0,,,0,,,0.02,0.02,0.98,0,0,-0,0,,,,,,,,,,,,,,,,
1318667,0,,,0,,,0.02,0.02,0.98,0,0,-0,0,,,,,,,,,,,,,,,,
1318707,0,,,0,,,0.02,0.02,0.98,0,0,-0,0,,,,,,,,,,,,,,,,
1318747,0,,,0,,,0.02,0.02,0.98,0,0,-0,0,,0.0,0.0,0.0,0.0,0,0,0.0,0.0,0,0.0,-1,0.0,0.0,0.0,0
1318787,0,,,0,,,0.02,0.02,0.98,0,0,-0,0,,,,,,,,,,,,,,,,
1318827,0,,,0,,,0.02,0.02,0.98,0,0,-0,0,,,,,,,,,,,,,,,,
1318867,0,,,0,,,0.02,0.02,0.99,0,0,-0,0,,,,,,,,,,,,,,,,
1318907,0,,,0,,,0.02,0.02,0.98,0,0,-0,0,,,,,,,,,,,,,,,,
1318947,0,,,0,,,0.02,0.02,0.98,0,0,-0,0,,0.0,0.0,0.0,0.0,0,0,0.0,0.0,0,0.0,-1,0.0,0.0,0.0,0
1318987,0,,,0,,,0.02,0.02,0.98,0,0,-0,0,,,,,,,,,,,,,,,,
1319027,0,,,0,,,0.02,0.02,0.98,0,0,-0,0,,,,,,,,,,,,,,,,
1319067,0,,,0,,,0.02,0.02,0.98,0,0,-0,0,,,,,,,,,,,,,,,,
1319107,0,,,0,,,0.02,0.02,0.98,0,0,-0,0,,,,,,,,,,,,,,,,
1319147,0,,,0,,,0.02,0.02,0.98,0,0,-0,0,,0.0,0.0,0.0,0.0,0,0,0.0,0.0,0,0.0,-1,0.0,0.0,0.0,0
1319187,0,,,0,,,0.02,0.02,0.98,0,0,-0,0,,,,,,,,,,,,,,,,
1319227,0,,,0,,,0.02,0.02,0.98,0,0,-0,0,,,,,,,,,,,,,,,,
1319267,0,,,0,,,0.02,0.02,0.98,0,0,-0,0,,,,,,,,,,,,,,,,
1319307,0,,,0,,,0.02,0.02,0.99,0,0,-0,0,,,,,,,,,,,,,,,,
1319347,0,258,291,0,0.0,5.16,0.02,0.02,0.98,0,0,-0,0,0,0.0,0.0,0.0,0.0,0,0,0.0,0.0,0,0.0,-1,0.0,0.0,0.0,0
1319387,0,,,0,,,0.02,0.02,0.98,0,0,-0,0,,,,,,,,,,,,,,,,
1319427,0,,,0,,,0.02,0.02,0.98,0,0,-0,0,,,,,,,,,,,,,,,,
1319467,0,,,0,,,0.02,0.02,0.98,0,0,-0,0,,,,,,,,,,,,,,,,
1319507,0,,,0,,,0.02,0.02,0.98,0,0,-0,0,,,,,,,,,,,,,,,,
1319547,0,,,0,,,0.02,0.02,0.98,0,0,-0,0,,0.0,0.0,0.0,0.0,0,0,0.0,0.0,0,0.0,-1,0.0,0.0,0.0,0
1319587,0,,,0,,,0.02,0.02,0.98,0,0,-0,0,,,,,,,,,,,,,,,,
1319627,0,,,0,,,0.02,0.02,0.98,0,0,-0,0,,,,,,,,,,,,,,,,
1319667,0,,,0,,,0.02,0.02,0.98,0,0,-0,0,,,,,,,,,,,,,,,,
1319707,0,,,0,,,0.02,0.02,0.98,0,0,-0,0,,,,,,,,,,,,,,,,
1319747,0,,,0,,,0.02,0.02,0.99,0,0,-0,0,,0.0,0.0,0.0,0.0,0,0,0.0,0.0,0,0.0,-1,0.0,0.0,0.0,0
1319787,0,,,0,,,0.02,0.02,0.98,0,0,-0,0,,,,,,,,,,,,,,,,
1319827,0,,,0,,,0.02,0.02,0.98,0,0,-0,0,,,,,,,,,,,,,,,,
1319867,0,,,0,,,0.02,0.02,0.99,0,0,-0,0,,,,,,,,,,,,,,,,
1319907,0,,,0,,,0.02,0.02,0.99,0,0,-0,0,,,,,,,,,,,,,,,,
1319947,0,,,0,,,0.02,0.02,0.99,0,0,-0,0,,0.0,0.0,0.0,0.0,0,0,0.0,0.0,0,0.0,-1,0.0,0.0,0.0,0
1319987,0,,,0,,,0.02,0.02,0.99,0,0,-0,0,,,,,,,,,,,,,,,,
1320027,0,,,0,,,0.02,0.02,0.98,0,0,-0,0,,,,,,,,,,,,,,,,
1320067,0,,,0,,,0.02,0.02,0.98,0,0,-0,0,,,,,,,,,,,,,,,,
1320107,0,,,0,,,0.02,0.02,0.98,0,0,-0,0,,,,,,,,,,,,,,,,
1320147,0,,,0,,,0.02,0.02,0.98,0,0,-0,0,,0.0,0.0,0.0,0.0,0,0,0.0,0.0,0,0.0,-1,0.0,0.0,0.0,0
1320187,0,,,0,,,0.02,0.02,0.98,0,0,-0,0,,,,,,,,,,,,,,,,
1320227,0,,,0,,,0.02,0.02,0.98,0,0,-0,0,,,,,,,,,,,,,,,,
1320267,0,,,0,,,0.02,0.02,0.99,0,0,-0,0,,,,,,,,,,,,,,,,
1320307,0,,,0,,,0.02,0.02,0.99,0,0,-0,0,,,,,,,,,,,,,,,,
1320347,0,258,292,0,0.0,5.14,0.02,0.02,0.99,0,0,-0,0,0,0.0,0.0,0.0,0.0,0,0,0.0,0.0,0,0.0,-1,0.0,0.0,0.0,0
1320387,0,,,0,,,0.02,0.02,0.99,0,0,-0,0,,,,,,,,,,,,,,,,
1320427,0,,,0,,,0.02,0.02,0.98,0,0,-0,0,,,,,,,,,,,,,,,,
1320467,0,,,0,,,0.02,0.02,0.98,0,0,-0,0,,,,,,,,,,,,,,,,
1320507,0,,,0,,,0.02,0.02,0.98,0,0,-0,0,,,,,,,,,,,,,,,,
1320547,0,,,0,,,0.02,0.02,0.98,0,0,-0,0,,0.0,0.0,0.0,0.0,0,0,0.0,0.0,0,0.0,-1,0.0,0.0,0.0,0
1320587,0,,,0,,,0.02,0.02,0.98,0,0,-0,0,,,,,,,,,,,,,,,,
1320627,0,,,0,,,0.02,0.02,0.98,0,0,-0,0,,,,,,,,,,,,,,,,
1320667,0,,,0,,,0.02,0.02,0.98,0,0,-0,0,,,,,,,,,,,,,,,,
1320707,0,,,0,,,0.02,0.02,0.98,0,0,-0,0,,,,,,,,,,,,,,,,
1320747,0,,,0,,,0.02,0.02,0.99,0,0,-0,0,,0.0,0.0,0.0,0.0,0,0,0.0,0.0,0,0.0,-1,0.0,0.0,0.0,0
1320787,0,,,0,,,0.02,0.02,0.99,0,0,-0,0,,,,,,,,,,,,,,,,
1320827,0,,,0,,,0.02,0.02,0.99,0,0,-0,0,,,,,,,,,,,,,,,,
1320867,0,,,0,,,0.02,0.02,0.99,0,0,-0,0,,,,,,,,,,,,,,,,
1320907,0,,,0,,,0.02,0.02,0.99,0,0,-0,0,,,,,,,,,,,,,,,,
1320947,0,,,0,,,0.02,0.02,0.99,0,0,-0,0,,0.0,0.0,0.0,0.0,0,0,0.0,0.0,0,0.0,-1,0.0,0.0,0.0,0
1320987,0,,,0,,,0.02,0.02,0.99,0,0,-0,0,,,,,,,,,,,,,,,,
1321027,0,,,0,,,0.02,0.02,0.99,0,0,-0,0,,,,,,,,,,,,,,,,
1321067,0,,,0,,,0.02,0.02,0.99,0,0,-0,0,,,,,,,,,,,,,,,,
1321107,0,,,0,,,0.02,0.02,0.99,0,0,-0,0,,,,,,,,,,,,,,,,
1321147,0,,,0,,,0.02,0.02,0.98,0,0,-0,0,,0.0,0.0,0.0,0.0,0,0,0.0,0.0,0,0.0,-1,0.0,0.0,0.0,0
1321187,0,,,0,,,0.02,0.02,0.99,0,0,-0,0,,,,,,,,,,,,,,,,
1321227,0,,,0,,,0.02,0.02,0.99,0,0,-0,0,,,,,,,,,,,,,,,,
1321267,0,,,0,,,0.02,0.02,0.98,0,0,-0,0,,,,,,,,,,,,,,,,
1321307,0,,,0,,,0.02,0.02,0.98,0,0,-0,0,,,,,,,,,,,,,,,,
1321347,0,257,291,0,0.0,5.16,0.02,0.02,0.99,0,0,-0,0,0,0.0,0.0,0.0,0.0,0,0,0.0,0.0,0,0.0,-1,0.0,0.0,0.0,0
1321387,0,,,0,,,0.02,0.02,0.99,0,0,-0,0,,,,,,,,,,,,,,,,
1321427,0,,,0,,,0.02,0.02,0.98,0,0,-0,0,,,,,,,,,,,,,,,,
1321467,0,,,0,,,0.02,0.02,0.98,0,0,-0,0,,,,,,,,,,,,,,,,
1321507,0,,,0,,,0.02,0.02,0.98,0,0,-0,0,,,,,,,,,,,,,,,,
1321547,0,,,0,,,0.02,0.02,0.98,0,0,-0,0,,0.0,0.0,0.0,0.0,0,0,0.0,0.0,0,0.0,-1,0.0,0.0,0.0,0
1321587,0,,,0,,,0.02,0.02,0.98,0,0,-0,0,,,,,,,,,,,,,,,,
1321627,0,,,0,,,0.02,0.02,0.98,0,0,-0,0,,,,,,,,,,,,,,,,
1321667,0,,,0,,,0.02,0.02,0.98,0,0,-0,0,,,,,,,,,,,,,,,,
1321707,0,,,0,,,0.02,0.02,0.98,0,0,-0,0,,,,,,,,,,,,,,,,
1321747,0,,,0,,,0.02,0.02,0.99,0,0,-0,0,,0.0,0.0,0.0,0.0,0,0,0.0,0.0,0,0.0,-1,0.0,0.0,0.0,0
1321787,0,,,0,,,0.02,0.02,0.99,0,0,-0,0,,,,,,,,,,,,,,,,
1321827,0,,,0,,,0.02,0.02,0.99,0,0,-0,0,,,,,,,,,,,,,,,,
1321867,0,,,0,,,0.02,0.02,0.99,0,0,-0,0,,,,,,,,,,,,,,,,
1321907,0,,,0,,,0.02,0.02,0.99,0,0,-0,0,,,,,,,,,,,,,,,,
1321947,0,,,0,,,0.02,0.02,0.99,0,0,-0,0,,0.0,0.0,0.0,0.0,0,0,0.0,0.0,0,0.0,-1,0.0,0.0,0.0,0
1321987,0,,,0,,,0.02,0.02,0.99,0,0,-0,0,,,,,,,,,,,,,,,,
1322027,0,,,0,,,0.02,0.02,0.99,0,0,-0,0,,,,,,,,,,,,,,,,
1322067,0,,,0,,,0.02,0.02,0.99,0,0,-0,0,,,,,,,,,,,,,,,,
1322107,0,,,0,,,0.02,0.02,0.98,0,0,-0,0,,,,,,,,,,,,,,,,
1322147,0,,,0,,,0.02,0.02,0.98,0,0,-0,0,,0.0,0.0,0.0,0.0,0,0,0.0,0.0,0,0.0,-1,0.0,0.0,0.0,0
1322187,0,,,0,,,0.02,0.02,0.98,0,0,-0,0,,,,,,,,,,,,,,,,
1322227,0,,,0,,,0.02,0.02,0.99,0,0,-0,0,,,,,,,,,,,,,,,,
1322267,0,,,0,,,0.02,0.02,0.99,0,0,-0,0,,,,,,,,,,,,,,,,
1322307,0,,,0,,,0.02,0.02,0.98,0,0,-0,0,,,,,,,,,,,,,,,,
1322347,0,257,290,0,0.0,5.14,0.02,0.02,0.99,0,0,-0,0,0,0.0,0.0,0.0,0.0,0,0,0.0,0.0,0,0.0,-1,0.0,0.0,0.0,0
1322387,0,,,0,,,0.02,0.02,0.99,0,0,-0,0,,,,,,,,,,,,,,,,
1322427,0,,,0,,,0.02,0.02,0.98,0,0,-0,0,,,,,,,,,,,,,,,,
1322467,0,,,0,,,0.02,0.02,0.99,0,0,-0,0,,,,,,,,,,,,,,,,
1322507,0,,,0,,,0.02,0.02,0.99,0,0,-0,0,,,,,,,,,,,,,,,,
1322547,0,,,0,,,0.02,0.02,0.99,0,0,-0,0,,0.0,0.0,0.0,0.0,0,0,0.0,0.0,0,0.0,-1,0.0,0.0,0.0,0
1322587,0,,,0,,,0.02,0.02,0.99,0,0,-0,0,,,,,,,,,,,,,,,,
1322627,0,,,0,,,0.02,0.02,0.98,0,0,-0,0,,,,,,,,,,,,,,,,
1322667,0,,,0,,,0.02,0.02,0.98,0,-0,-0,0,,,,,,,,,,,,,,,,
1322707,0,,,0,,,0.02,0.02,0.98,0,-0,-0,0,,,,,,,,,,,,,,,,
1322747,0,,,0,,,0.02,0.02,0.98,0,-0,-0,0,,0.0,0.0,0.0,0.0,0,0,0.0,0.0,0,0.0,-1,0.0,0.0,0.0,0
1322787,0,,,0,,,0.02,0.02,0.98,0,0,-0,0,,,,,,,,,,,,,,,,
1322827,0,,,0,,,0.02,0.02,0.98,0,0,-0,0,,,,,,,,,,,,,,,,
1322867,0,,,0,,,0.02,0.02,0.98,0,0,-0,0,,,,,,,,,,,,,,,,
1322907,0,,,0,,,0.02,0.02,0.98,0,0,-0,0,,,,,,,,,,,,,,,,
1322947,0,,,0,,,0.02,0.02,0.98,0,0,-0,0,,0.0,0.0,0.0,0.0,0,0,0.0,0.0,0,0.0,-1,0.0,0.0,0.0,0
1322987,0,,,0,,,0.02,0.02,0.98,0,0,-0,0,,,,,,,,,,,,,,,,
1323027,0,,,0,,,0.02,0.02,0.98,0,0,-0,0,,,,,,,,,,,,,,,,
1323067,0,,,0,,,0.02,0.02,0.98,0,0,-0,0,,,,,,,,,,,,,,,,
1323107,0,,,0,,,0.02,0.02,0.98,0,0,-0,0,,,,,,,,,,,,,,,,
1323147,0,,,0,,,0.02,0.02,0.98,0,0,-0,0,,0.0,0.0,0.0,0.0,0,0,0.0,0.0,0,0.0,-1,0.0,0.0,0.0,0
1323187,0,,,0,,,0.02,0.02,0.98,0,0,-0,0,,,,,,,,,,,,,,,,
1323227,0,,,0,,,0.02,0.02,0.98,0,0,-0,0,,,,,,,,,,,,,,,,
1323267,0,,,0,,,0.02,0.02,0.98,0,0,-0,0,,,,,,,,,,,,,,,,
1323307,0,,,0,,,0.02,0.02,0.98,0,0,-0,0,,,,,,,,,,,,,,,,
1323347,0,259,292,0,0.0,5.16,0.02,0.02,0.98,0,0,-0,0,0,0.0,0.0,0.0,0.0,0,0,0.0,0.0,0,0.0,-1,0.0,0.0,0.0,0
1323387,0,,,0,,,0.02,0.02,0.98,0,0,-0,0,,,,,,,,,,,,,,,,
1323427,0,,,0,,,0.02,0.02,0.98,0,0,-0,0,,,,,,,,,,,,,,,,
1323467,0,,,0,,,0.02,0.02,0.98,0,0,-0,0,,,,,,,,,,,,,,,,
1323507,0,,,0,,,0.02,0.02,0.98,0,0,-0,0,,,,,,,,,,,,,,,,
1323547,0,,,0,,,0.02,0.02,0.98,0,0,-0,0,,0.0,0.0,0.0,0.0,0,0,0.0,0.0,0,0.0,-1,0.0,0.0,0.0,0
1323587,0,,,0,,,0.02,0.02,0.98,0,0,-0,0,,,,,,,,,,,,,,,,
1323627,0,,,0,,,0.02,0.02,0.98,0,0,-0,0,,,,,,,,,,,,,,,,
1323667,0,,,0,,,0.02,0.02,0.98,0,0,-0,0,,,,,,,,,,,,,,,,
1323707,0,,,0,,,0.02,0.02,0.98,0,0,-0,0,,,,,,,,,,,,,,,,
1323747,0,,,0,,,0.02,0.02,0.98,0,0,-0,0,,0.0,0.0,0.0,0.0,0,0,0.0,0.0,0,0.0,-1,0.0,0.0,0.0,0
1323787,0,,,0,,,0.02,0.02,0.98,0,0,-0,0,,,,,,,,,,,,,,,,
1323827,0,,,0,,,0.02,0.02,0.98,0,0,-0,0,,,,,,,,,,,,,,,,
1323867,0,,,0,,,0.02,0.02,0.98,0,0,-0,0,,,,,,,,,,,,,,,,
1323907,0,,,0,,,0.02,0.02,0.98,0,0,-0,0,,,,,,,,,,,,,,,,
1323947,0,,,0,,,0.02,0.02,0.99,0,0,-0,0,,0.0,0.0,0.0,0.0,0,0,0.0,0.0,0,0.0,-1,0.0,0.0,0.0,0
1323987,0,,,0,,,0.02,0.02,0.99,0,0,-0,0,,,,,,,,,,,,,,,,
1324027,0,,,0,,,0.02,0.02,0.99,0,0,-0,0,,,,,,,,,,,,,,,,
1324067,0,,,0,,,0.02,0.02,0.99,0,0,-0,0,,,,,,,,,,,,,,,,
1324107,0,,,0,,,0.02,0.02,0.99,0,0,-0,0,,,,,,,,,,,,,,,,
1324147,0,,,0,,,0.02,0.02,0.99,0,0,-0,0,,0.0,0.0,0.0,0.0,0,0,0.0,0.0,0,0.0,-1,0.0,0.0,0.0,0
1324187,0,,,0,,,0.02,0.02,0.99,0,0,-0,0,,,,,,,,,,,,,,,,
1324227,0,,,0,,,0.02,0.02,0.99,0,0,-0,0,,,,,,,,,,,,,,,,
1324267,0,,,0,,,0.02,0.02,0.99,0,0,-0,0,,,,,,,,,,,,,,,,
1324307,0,,,0,,,0.02,0.02,0.99,0,0,-0,0,,,,,,,,,,,,,,,,
1324347,0,258,291,0,0.0,5.14,0.02,0.02,0.99,0,0,-0,0,0,0.0,0.0,0.0,0.0,0,0,0.0,0.0,0,0.0,-1,0.0,0.0,0.0,0
1324387,0,,,0,,,0.02,0.02,0.99,0,0,-0,0,,,,,,,,,,,,,,,,
1324427,0,,,0,,,0.02,0.02,0.99,0,0,-0,0,,,,,,,,,,,,,,,,
1324467,0,,,0,,,0.02,0.02,0.99,0,0,-0,0,,,,,,,,,,,,,,,,
1324507,0,,,0,,,0.02,0.02,0.99,0,0,-0,0,,,,,,,,,,,,,,,,
1324547,0,,,0,,,0.02,0.02,0.99,0,0,-0,0,,0.0,0.0,0.0,0.0,0,0,0.0,0.0,0,0.0,-1,0.0,0.0,0.0,0
1324587,0,,,0,,,0.02,0.02,0.99,0,0,-0,0,,,,,,,,,,,,,,,,
1324627,0,,,0,,,0.02,0.02,0.99,0,0,-0,0,,,,,,,,,,,,,,,,
1324667,0,,,0,,,0.02,0.02,0.99,0,0,-0,0,,,,,,,,,,,,,,,,
1324707,0,,,0,,,0.02,0.02,0.99,0,0,-0,0,,,,,,,,,,,,,,,,
1324747,0,,,0,,,0.02,0.02,0.98,0,0,-0,0,,0.0,0.0,0.0,0.0,0,0,0.0,0.0,0,0.0,-1,0.0,0.0,0.0,0
1324787,0,,,0,,,0.02,0.02,0.99,0,0,-0,0,,,,,,,,,,,,,,,,
1324827,0,,,0,,,0.02,0.02,0.99,0,0,-0,0,,,,,,,,,,,,,,,,
1324867,0,,,0,,,0.02,0.02,0.99,0,0,-0,0,,,,,,,,,,,,,,,,
1324907,0,,,0,,,0.02,0.02,0.98,0,0,-0,0,,,,,,,,,,,,,,,,
1324947,0,,,0,,,0.02,0.02,0.98,0,-0,-0,0,,0.0,0.0,0.0,0.0,0,0,0.0,0.0,0,0.0,-1,0.0,0.0,0.0,0
1324987,0,,,0,,,0.02,0.02,0.98,0,-0,-0,0,,,,,,,,,,,,,,,,
1325027,0,,,0,,,0.02,0.02,0.98,0,0,-0,0,,,,,,,,,,,,,,,,
1325067,0,,,0,,,0.02,0.02,0.98,0,0,-0,0,,,,,,,,,,,,,,,,
1325107,0,,,0,,,0.02,0.02,0.98,0,-0,-0,0,,,,,,,,,,,,,,,,
1325147,0,,,0,,,0.02,0.02,0.98,0,-0,-0,0,,0.0,0.0,0.0,0.0,0,0,0.0,0.0,0,0.0,-1,0.0,0.0,0.0,0
1325187,0,,,0,,,0.02,0.02,0.98,0,0,-0,0,,,,,,,,,,,,,,,,
1325227,0,,,0,,,0.02,0.02,0.99,0,0,-0,0,,,,,,,,,,,,,,,,
1325267,0,,,0,,,0.02,0.02,0.99,0,0,-0,0,,,,,,,,,,,,,,,,
1325307,0,,,0,,,0.02,0.02,0.98,0,0,-0,0,,,,,,,,,,,,,,,,
1325347,0,257,291,0,0.0,5.13,0.02,0.02,0.98,0,0,-0,0,0,0.0,0.0,0.0,0.0,0,0,0.0,0.0,0,0.0,-1,0.0,0.0,0.0,0
1325387,0,,,0,,,0.02,0.02,0.99,0,0,-0,0,,,,,,,,,,,,,,,,
1325427,0,,,0,,,0.02,0.02,0.99,0,0,-0,0,,,,,,,,,,,,,,,,
1325467,0,,,0,,,0.02,0.02,0.99,0,0,-0,0,,,,,,,,,,,,,,,,
1325507,0,,,0,,,0.02,0.02,0.99,0,0,-0,0,,,,,,,,,,,,,,,,
1325547,0,,,0,,,0.02,0.02,0.98,0,0,-0,0,,0.0,0.0,0.0,0.0,0,0,0.0,0.0,0,0.0,-1,0.0,0.0,0.0,0
1325587,0,,,0,,,0.02,0.02,0.99,0,0,-0,0,,,,,,,,,,,,,,,,
1325627,0,,,0,,,0.02,0.02,0.99,0,0,-0,0,,,,,,,,,,,,,,,,
1325667,0,,,0,,,0.02,0.02,0.99,0,0,-0,0,,,,,,,,,,,,,,,,
1325707,0,,,0,,,0.02,0.02,0.98,0,0,-0,0,,,,,,,,,,,,,,,,
1325747,0,,,0,,,0.02,0.02,0.99,0,0,-0,0,,0.0,0.0,0.0,0.0,0,0,0.0,0.0,0,0.0,-1,0.0,0.0,0.0,0
1325787,0,,,0,,,0.02,0.02,0.98,0,0,-0,0,,,,,,,,,,,,,,,,
1325827,0,,,0,,,0.02,0.02,0.98,0,0,-0,0,,,,,,,,,,,,,,,,
1325867,0,,,0,,,0.02,0.02,0.98,0,0,-0,0,,,,,,,,,,,,,,,,
1325907,0,,,0,,,0.02,0.02,0.98,0,0,-0,0,,,,,,,,,,,,,,,,
1325947,0,,,0,,,0.02,0.02,0.99,0,0,-0,0,,0.0,0.0,0.0,0.0,0,0,0.0,0.0,0,0.0,-1,0.0,0.0,0.0,0
1325987,0,,,0,,,0.02,0.02,0.99,0,0,-0,0,,,,,,,,,,,,,,,,
1326027,0,,,0,,,0.02,0.02,0.99,0,0,-0,0,,,,,,,,,,,,,,,,
1326067,0,,,0,,,0.02,0.02,0.99,0,0,-0,0,,,,,,,,,,,,,,,,
1326107,0,,,0,,,0.02,0.02,0.99,0,0,-0,0,,,,,,,,,,,,,,,,
1326147,0,,,0,,,0.02,0.02,0.99,0,0,-0,0,,0.0,0.0,0.0,0.0,0,0,0.0,0.0,0,0.0,-1,0.0,0.0,0.0,0
1326187,0,,,0,,,0.02,0.02,0.99,0,0,-0,0,,,,,,,,,,,,,,,,
1326227,0,,,0,,,0.02,0.02,0.99,0,0,-0,0,,,,,,,,,,,,,,,,
1326267,0,,,0,,,0.02,0.02,0.99,0,0,-0,0,,,,,,,,,,,,,,,,
1326307,0,,,0,,,0.02,0.02,0.99,0,-0,-0,0,,,,,,,,,,,,,,,,
1326347,0,257,290,0,0.0,5.16,0.02,0.02,0.99,0,0,-0,0,0,0.0,0.0,0.0,0.0,0,0,0.0,0.0,0,0.0,-1,0.0,0.0,0.0,0
1326387,0,,,0,,,0.02,0.02,0.99,0,0,-0,0,,,,,,,,,,,,,,,,
1326427,0,,,0,,,0.02,0.02,0.99,0,0,-0,0,,,,,,,,,,,,,,,,
1326467,0,,,0,,,0.02,0.02,0.99,0,0,-0,0,,,,,,,,,,,,,,,,
1326507,0,,,0,,,0.02,0.02,0.99,0,0,-0,0,,,,,,,,,,,,,,,,
1326547,0,,,0,,,0.02,0.02,0.99,0,0,-0,0,,0.0,0.0,0.0,0.0,0,0,0.0,0.0,0,0.0,-1,0.0,0.0,0.0,0
1326587,0,,,0,,,0.02,0.02,0.99,0,0,-0,0,,,,,,,,,,,,,,,,
1326627,0,,,0,,,0.02,0.02,0.99,0,0,-0,0,,,,,,,,,,,,,,,,
1326667,0,,,0,,,0.02,0.02,0.99,0,0,-0,0,,,,,,,,,,,,,,,,
1326707,0,,,0,,,0.02,0.02,0.99,0,0,-0,0,,,,,,,,,,,,,,,,
1326747,0,,,0,,,0.02,0.02,0.99,0,0,-0,0,,0.0,0.0,0.0,0.0,0,0,0.0,0.0,0,0.0,-1,0.0,0.0,0.0,0
1326787,0,,,0,,,0.02,0.02,0.99,0,0,-0,0,,,,,,,,,,,,,,,,
1326827,0,,,0,,,0.02,0.02,0.99,0,0,-0,0,,,,,,,,,,,,,,,,
1326867,0,,,0,,,0.02,0.02,0.99,0,0,-0,0,,,,,,,,,,,,,,,,
1326907,0,,,0,,,0.02,0.02,0.99,0,0,-0,0,,,,,,,,,,,,,,,,
1326947,0,,,0,,,0.02,0.02,0.99,0,0,-0,0,,0.0,0.0,0.0,0.0,0,0,0.0,0.0,0,0.0,-1,0.0,0.0,0.0,0
1326987,0,,,0,,,0.02,0.02,0.99,0,0,-0,0,,,,,,,,,,,,,,,,
1327027,0,,,0,,,0.02,0.02,0.99,0,0,-0,0,,,,,,,,,,,,,,,,
1327067,0,,,0,,,0.02,0.02,0.99,0,0,-0,0,,,,,,,,,,,,,,,,
1327107,0,,,0,,,0.02,0.02,0.99,0,0,-0,0,,,,,,,,,,,,,,,,
1327147,0,,,0,,,0.02,0.02,0.99,0,0,-0,0,,0.0,0.0,0.0,0.0,0,0,0.0,0.0,0,0.0,-1,0.0,0.0,0.0,0
1327187,0,,,0,,,0.02,0.02,0.99,0,0,-0,0,,,,,,,,,,,,,,,,
1327227,0,,,0,,,0.02,0.02,0.99,0,0,-0,0,,,,,,,,,,,,,,,,
1327267,0,,,0,,,0.02,0.02,0.99,0,0,-0,0,,,,,,,,,,,,,,,,
1327307,0,,,0,,,0.02,0.02,0.99,0,0,-0,0,,,,,,,,,,,,,,,,
1327347,0,258,291,0,0.0,5.13,0.02,0.02,0.99,0,0,-0,0,0,0.0,0.0,0.0,0.0,0,0,0.0,0.0,0,0.0,-1,0.0,0.0,0.0,0
1327387,0,,,0,,,0.02,0.02,0.99,0,0,-0,0,,,,,,,,,,,,,,,,
1327427,0,,,0,,,0.02,0.02,0.99,0,0,-0,0,,,,,,,,,,,,,,,,
1327467,0,,,0,,,0.02,0.02,0.99,0,0,-0,0,,,,,,,,,,,,,,,,
1327507,0,,,0,,,0.02,0.02,0.99,0,0,-0,0,,,,,,,,,,,,,,,,
1327547,0,,,0,,,0.02,0.02,0.99,0,0,-0,0,,0.0,0.0,0.0,0.0,0,0,0.0,0.0,0,0.0,-1,0.0,0.0,0.0,0
1327587,0,,,0,,,0.02,0.02,0.99,0,0,-0,0,,,,,,,,,,,,,,,,
1327627,0,,,0,,,0.02,0.02,0.99,0,0,-0,0,,,,,,,,,,,,,,,,
1327667,0,,,0,,,0.02,0.02,0.99,0,0,-0,0,,,,,,,,,,,,,,,,
1327707,0,,,0,,,0.02,0.02,0.99,0,0,-0,0,,,,,,,,,,,,,,,,
1327747,0,,,0,,,0.02,0.02,0.99,0,0,-0,0,,0.0,0.0,0.0,0.0,0,0,0.0,0.0,0,0.0,-1,0.0,0.0,0.0,0
1327787,0,,,0,,,0.02,0.02,0.99,0,0,-0,0,,,,,,,,,,,,,,,,
1327827,0,,,0,,,0.02,0.02,0.99,0,0,-0,0,,,,,,,,,,,,,,,,
1327867,0,,,0,,,0.02,0.02,0.98,0,0,-0,0,,,,,,,,,,,,,,,,
1327907,0,,,0,,,0.02,0.02,0.98,0,0,-0,0,,,,,,,,,,,,,,,,
1327947,0,,,0,,,0.02,0.02,0.98,0,0,-0,0,,0.0,0.0,0.0,0.0,0,0,0.0,0.0,0,0.0,-1,0.0,0.0,0.0,0
1327987,0,,,0,,,0.02,0.02,0.98,0,0,-0,0,,,,,,,,,,,,,,,,
1328027,0,,,0,,,0.02,0.02,0.99,0,0,-0,0,,,,,,,,,,,,,,,,
1328067,0,,,0,,,0.02,0.02,0.98,0,0,-0,0,,,,,,,,,,,,,,,,
1328107,0,,,0,,,0.02,0.02,0.98,0,0,-0,0,,,,,,,,,,,,,,,,
1328147,0,,,0,,,0.02,0.02,0.98,0,0,-0,0,,0.0,0.0,0.0,0.0,0,0,0.0,0.0,0,0.0,-1,0.0,0.0,0.0,0
1328187,0,,,0,,,0.02,0.02,0.98,0,0,-0,0,,,,,,,,,,,,,,,,
1328227,0,,,0,,,0.02,0.02,0.98,0,0,-0,0,,,,,,,,,,,,,,,,
1328267,0,,,0,,,0.02,0.02,0.98,0,0,-0,0,,,,,,,,,,,,,,,,
1328307,0,,,0,,,0.02,0.02,0.98,0,0,-0,0,,,,,,,,,,,,,,,,
1328347,0,253,288,0,0.0,5.16,0.02,0.02,0.98,0,0,-0,0,0,0.0,0.0,0.0,0.0,0,0,0.0,0.0,0,0.0,-1,0.0,0.0,0.0,0
1328387,0,,,0,,,0.02,0.02,0.98,0,0,-0,0,,,,,,,,,,,,,,,,
1328427,0,,,0,,,0.02,0.02,0.98,0,0,-0,0,,,,,,,,,,,,,,,,
1328467,0,,,0,,,0.02,0.02,0.98,0,0,-0,0,,,,,,,,,,,,,,,,
1328507,0,,,0,,,0.02,0.02,0.98,0,0,-0,0,,,,,,,,,,,,,,,,
1328547,0,,,0,,,0.02,0.02,0.98,0,0,-0,0,,0.0,0.0,0.0,0.0,0,0,0.0,0.0,0,0.0,-1,0.0,0.0,0.0,0
1328587,0,,,0,,,0.02,0.02,0.98,0,0,-0,0,,,,,,,,,,,,,,,,
1328627,0,,,0,,,0.02,0.02,0.98,0,0,-0,0,,,,,,,,,,,,,,,,
1328667,0,,,0,,,0.02,0.02,0.98,0,0,-0,0,,,,,,,,,,,,,,,,
1328707,0,,,0,,,0.02,0.02,0.98,0,0,-0,0,,,,,,,,,,,,,,,,
1328747,0,,,0,,,0.02,0.02,0.98,0,0,-0,0,,0.0,0.0,0.0,0.0,0,0,0.0,0.0,0,0.0,-1,0.0,0.0,0.0,0
1328787,0,,,0,,,0.02,0.02,0.98,0,0,-0,0,,,,,,,,,,,,,,,,
1328827,0,,,0,,,0.02,0.02,0.98,0,0,-0,0,,,,,,,,,,,,,,,,
1328867,0,,,0,,,0.02,0.02,0.98,0,0,-0,0,,,,,,,,,,,,,,,,
1328907,0,,,0,,,0.02,0.02,0.98,0,0,-0,0,,,,,,,,,,,,,,,,
1328947,0,,,0,,,0.02,0.02,0.98,0,0,-0,0,,0.0,0.0,0.0,0.0,0,0,0.0,0.0,0,0.0,-1,0.0,0.0,0.0,0
1328987,0,,,0,,,0.02,0.02,0.98,0,0,-0,0,,,,,,,,,,,,,,,,
1329027,0,,,0,,,0.02,0.02,0.98,0,0,-0,0,,,,,,,,,,,,,,,,
1329067,0,,,0,,,0.02,0.02,0.99,0,0,-0,0,,,,,,,,,,,,,,,,
1329107,0,,,0,,,0.02,0.02,0.99,0,0,-0,0,,,,,,,,,,,,,,,,
1329147,0,,,0,,,0.02,0.02,0.99,0,0,-0,0,,0.0,0.0,0.0,0.0,0,0,0.0,0.0,0,0.0,-1,0.0,0.0,0.0,0
1329187,0,,,0,,,0.02,0.02,0.99,0,0,-0,0,,,,,,,,,,,,,,,,
1329227,0,,,0,,,0.02,0.02,0.98,0,0,-0,0,,,,,,,,,,,,,,,,
1329267,0,,,0,,,0.02,0.02,0.99,0,0,-0,0,,,,,,,,,,,,,,,,
1329307,0,,,0,,,0.02,0.02,0.99,0,0,-0,0,,,,,,,,,,,,,,,,
1329347,0,251,286,0,0.0,5.13,0.02,0.02,0.99,0,0,-0,0,0,0.0,0.0,0.0,0.0,0,0,0.0,0.0,0,0.0,-1,0.0,0.0,0.0,0
1329387,0,,,0,,,0.02,0.02,0.99,0,0,-0,0,,,,,,,,,,,,,,,,
1329427,0,,,0,,,0.02,0.02,0.99,0,0,-0,0,,,,,,,,,,,,,,,,
1329467,0,,,0,,,0.02,0.02,0.98,0,0,-0,0,,,,,,,,,,,,,,,,
1329507,0,,,0,,,0.02,0.02,0.98,0,0,-0,0,,,,,,,,,,,,,,,,
1329547,0,,,0,,,0.02,0.02,0.98,0,0,-0,0,,0.0,0.0,0.0,0.0,0,0,0.0,0.0,0,0.0,-1,0.0,0.0,0.0,0
1329587,0,,,0,,,0.02,0.02,0.99,0,0,-0,0,,,,,,,,,,,,,,,,
1329627,0,,,0,,,0.02,0.02,0.99,0,0,-0,0,,,,,,,,,,,,,,,,
1329667,0,,,0,,,0.02,0.02,0.99,0,0,-0,0,,,,,,,,,,,,,,,,
1329707,0,,,0,,,0.02,0.02,0.99,0,0,-0,0,,,,,,,,,,,,,,,,
1329747,0,,,0,,,0.02,0.02,0.99,0,0,-0,0,,0.0,0.0,0.0,0.0,0,0,0.0,0.0,0,0.0,-1,0.0,0.0,0.0,0
1329787,0,,,0,,,0.02,0.02,0.99,0,0,-0,0,,,,,,,,,,,,,,,,
1329827,0,,,0,,,0.02,0.02,0.99,0,0,-0,0,,,,,,,,,,,,,,,,
1329867,0,,,0,,,0.02,0.02,0.99,0,0,-0,0,,,,,,,,,,,,,,,,
1329907,0,,,0,,,0.02,0.02,0.99,0,0,-0,0,,,,,,,,,,,,,,,,
1329947,0,,,0,,,0.02,0.02,0.99,0,0,-0,0,,0.0,0.0,0.0,0.0,0,0,0.0,0.0,0,0.0,-1,0.0,0.0,0.0,0
1329987,0,,,0,,,0.02,0.02,0.99,0,0,-0,0,,,,,,,,,,,,,,,,
1330027,0,,,0,,,0.02,0.02,0.99,0,0,-0,0,,,,,,,,,,,,,,,,
1330067,0,,,0,,,0.02,0.02,0.99,0,0,-0,0,,,,,,,,,,,,,,,,
1330107,0,,,0,,,0.02,0.02,0.99,0,0,-0,0,,,,,,,,,,,,,,,,
1330147,0,,,0,,,0.02,0.02,0.98,0,0,-0,0,,0.0,0.0,0.0,0.0,0,0,0.0,0.0,0,0.0,-1,0.0,0.0,0.0,0
1330187,0,,,0,,,0.02,0.02,0.99,0,0,-0,0,,,,,,,,,,,,,,,,
1330227,0,,,0,,,0.02,0.02,0.99,0,0,-0,0,,,,,,,,,,,,,,,,
1330267,0,,,0,,,0.02,0.02,0.99,0,0,-0,0,,,,,,,,,,,,,,,,
1330307,0,,,0,,,0.02,0.02,0.98,0,0,-0,0,,,,,,,,,,,,,,,,
1330347,0,239,277,0,0.09,5.15,0.02,0.02,0.98,0,0,-0,0,0,0.0,0.0,0.0,0.0,0,0,0.0,0.0,0,0.0,-1,0.0,0.0,0.0,0
1330387,0,,,0,,,0.02,0.02,0.98,0,0,-0,0,,,,,,,,,,,,,,,,
1330427,0,,,0,,,0.02,0.02,0.98,0,0,-0,0,,,,,,,,,,,,,,,,
1330467,0,,,0,,,0.02,0.02,0.98,0,0,-0,0,,,,,,,,,,,,,,,,
1330507,0,,,0,,,0.02,0.02,0.98,0,0,-0,0,,,,,,,,,,,,,,,,
1330547,0,,,0,,,0.02,0.02,0.98,0,0,-0,0,,0.0,0.0,0.0,0.0,0,0,0.0,0.0,0,0.0,-1,0.0,0.0,0.0,0
1330587,0,,,0,,,0.02,0.02,0.98,0,0,-0,0,,,,,,,,,,,,,,,,
1330627,0,,,0,,,0.02,0.02,0.98,0,0,-0,0,,,,,,,,,,,,,,,,
1330667,0,,,0,,,0.02,0.02,0.98,0,0,-0,0,,,,,,,,,,,,,,,,
1330707,0,,,0,,,0.02,0.02,0.98,0,0,-0,0,,,,,,,,,,,,,,,,
1330747,0,,,0,,,0.02,0.02,0.99,0,0,-0,0,,0.0,0.0,0.0,0.0,0,0,0.0,0.0,0,0.0,-1,0.0,0.0,0.0,0
1330787,0,,,0,,,0.02,0.02,0.99,0,0,-0,0,,,,,,,,,,,,,,,,
1330827,0,,,0,,,0.02,0.02,0.99,0,0,-0,0,,,,,,,,,,,,,,,,
1330867,0,,,0,,,0.02,0.02,0.98,0,0,-0,0,,,,,,,,,,,,,,,,
1330907,0,,,0,,,0.02,0.02,0.99,0,0,-0,0,,,,,,,,,,,,,,,,
1330947,0,,,0,,,0.02,0.02,0.99,0,0,-0,0,,0.0,0.0,0.0,0.0,0,0,0.0,0.0,0,0.0,-1,0.0,0.0,0.0,0
1330987,0,,,0,,,0.02,0.02,0.99,0,0,-0,0,,,,,,,,,,,,,,,,
1331027,0,,,0,,,0.02,0.02,0.98,0,0,-0,0,,,,,,,,,,,,,,,,
1331067,0,,,0,,,0.02,0.02,0.98,0,0,-0,0,,,,,,,,,,,,,,,,
1331107,0,,,0,,,0.02,0.02,0.98,0,0,-0,0,,,,,,,,,,,,,,,,
1331147,0,,,0,,,0.02,0.02,0.99,0,0,-0,0,,0.0,0.0,0.0,0.0,0,0,0.0,0.0,0,0.0,-1,0.0,0.0,0.0,0
1331187,0,,,0,,,0.02,0.02,0.99,0,0,-0,0,,,,,,,,,,,,,,,,
1331227,0,,,0,,,0.02,0.02,0.99,0,0,-0,0,,,,,,,,,,,,,,,,
1331267,0,,,0,,,0.02,0.02,0.99,0,0,-0,0,,,,,,,,,,,,,,,,
1331307,0,,,0,,,0.02,0.02,0.99,0,0,-0,0,,,,,,,,,,,,,,,,
1331347,0,242,279,0,0.04,5.13,0.02,0.02,0.99,0,0,-0,0,0,0.0,0.0,0.0,0.0,0,0,0.0,0.0,0,0.0,-1,0.0,0.0,0.0,0
1331387,0,,,0,,,0.02,0.02,0.99,0,0,-0,0,,,,,,,,,,,,,,,,
1331427,0,,,0,,,0.02,0.02,0.98,0,0,-0,0,,,,,,,,,,,,,,,,
1331467,0,,,0,,,0.02,0.02,0.98,0,0,-0,0,,,,,,,,,,,,,,,,
1331507,0,,,0,,,0.02,0.02,0.99,0,0,-0,0,,,,,,,,,,,,,,,,
1331547,0,,,0,,,0.02,0.02,0.99,0,0,-0,0,,0.0,0.0,0.0,0.0,0,0,0.0,0.0,0,0.0,-1,0.0,0.0,0.0,0
1331587,0,,,0,,,0.02,0.02,0.99,0,0,-0,0,,,,,,,,,,,,,,,,
1331627,0,,,0,,,0.02,0.02,0.99,0,0,-0,0,,,,,,,,,,,,,,,,
1331667,0,,,0,,,0.02,0.02,0.99,0,0,-0,0,,,,,,,,,,,,,,,,
1331707,0,,,0,,,0.02,0.02,0.99,0,0,-0,0,,,,,,,,,,,,,,,,
1331747,0,,,0,,,0.02,0.02,0.99,0,0,-0,0,,0.0,0.0,0.0,0.0,0,0,0.0,0.0,0,0.0,-1,0.0,0.0,0.0,0
1331787,0,,,0,,,0.02,0.02,0.99,0,0,-0,0,,,,,,,,,,,,,,,,
1331827,0,,,0,,,0.02,0.02,0.98,0,0,-0,0,,,,,,,,,,,,,,,,
1331867,0,,,0,,,0.02,0.02,0.98,0,0,-0,0,,,,,,,,,,,,,,,,
1331907,0,,,0,,,0.02,0.02,0.98,0,0,-0,0,,,,,,,,,,,,,,,,
1331947,0,,,0,,,0.02,0.02,0.98,0,0,-0,0,,0.0,0.0,0.0,0.0,0,0,0.0,0.0,0,0.0,-1,0.0,0.0,0.0,0
1331987,0,,,0,,,0.02,0.02,0.99,0,0,-0,0,,,,,,,,,,,,,,,,
1332027,0,,,0,,,0.02,0.02,0.99,0,0,-0,0,,,,,,,,,,,,,,,,
1332067,0,,,0,,,0.02,0.02,0.98,0,0,-0,0,,,,,,,,,,,,,,,,
1332107,0,,,0,,,0.02,0.02,0.98,0,0,-0,0,,,,,,,,,,,,,,,,
1332147,0,,,0,,,0.02,0.02,0.98,0,0,-0,0,,0.0,0.0,0.0,0.0,0,0,0.0,0.0,0,0.0,-1,0.0,0.0,0.0,0
1332187,0,,,0,,,0.02,0.02,0.98,0,0,-0,0,,,,,,,,,,,,,,,,
1332227,0,,,0,,,0.02,0.02,0.98,0,0,-0,0,,,,,,,,,,,,,,,,
1332267,0,,,0,,,0.02,0.02,0.98,0,0,-0,0,,,,,,,,,,,,,,,,
1332307,0,,,0,,,0.02,0.02,0.98,0,0,-0,0,,,,,,,,,,,,,,,,
1332347,0,244,280,0,0.01,5.16,0.02,0.02,0.98,0,0,-0,0,0,0.0,0.0,0.0,0.0,0,0,0.0,0.0,0,0.0,-1,0.0,0.0,0.0,0
1332387,0,,,0,,,0.02,0.02,0.98,0,0,-0,0,,,,,,,,,,,,,,,,
1332427,0,,,0,,,0.02,0.02,0.98,0,0,-0,0,,,,,,,,,,,,,,,,
1332467,0,,,0,,,0.02,0.02,0.98,0,0,-0,0,,,,,,,,,,,,,,,,
1332507,0,,,0,,,0.02,0.02,0.98,0,0,-0,0,,,,,,,,,,,,,,,,
1332547,0,,,0,,,0.02,0.02,0.98,0,0,-0,0,,0.0,0.0,0.0,0.0,0,0,0.0,0.0,0,0.0,-1,0.0,0.0,0.0,0
1332587,0,,,0,,,0.02,0.02,0.98,0,0,-0,0,,,,,,,,,,,,,,,,
1332627,0,,,0,,,0.02,0.02,0.98,0,0,-0,0,,,,,,,,,,,,,,,,
1332667,0,,,0,,,0.02,0.02,0.98,0,0,-0,0,,,,,,,,,,,,,,,,
1332707,0,,,0,,,0.02,0.02,0.98,0,0,-0,0,,,,,,,,,,,,,,,,
1332747,0,,,0,,,0.02,0.02,0.98,0,0,-0,0,,0.0,0.0,0.0,0.0,0,0,0.0,0.0,0,0.0,-1,0.0,0.0,0.0,0
1332787,0,,,0,,,0.02,0.02,0.98,0,0,-0,0,,,,,,,,,,,,,,,,
1332827,0,,,0,,,0.02,0.02,0.98,0,0,-0,0,,,,,,,,,,,,,,,,
1332867,0,,,0,,,0.02,0.02,0.98,0,0,-0,0,,,,,,,,,,,,,,,,
1332907,0,,,0,,,0.02,0.02,0.98,0,0,-0,0,,,,,,,,,,,,,,,,
1332947,0,,,0,,,0.02,0.02,0.98,0,0,-0,0,,0.0,0.0,0.0,0.0,0,0,0.0,0.0,0,0.0,-1,0.0,0.0,0.0,0
1332987,0,,,0,,,0.02,0.02,0.98,0,0,-0,0,,,,,,,,,,,,,,,,
1333027,0,,,0,,,0.02,0.02,0.98,0,0,-0,0,,,,,,,,,,,,,,,,
1333067,0,,,0,,,0.02,0.02,0.98,0,0,-0,0,,,,,,,,,,,,,,,,
1333107,0,,,0,,,0.02,0.02,0.98,0,0,-0,0,,,,,,,,,,,,,,,,
1333147,0,,,0,,,0.02,0.02,0.98,0,0,-0,0,,0.0,0.0,0.0,0.0,0,0,0.0,0.0,0,0.0,-1,0.0,0.0,0.0,0
1333187,0,,,0,,,0.02,0.02,0.98,0,0,-0,0,,,,,,,,,,,,,,,,
1333227,0,,,0,,,0.02,0.02,0.98,0,0,-0,0,,,,,,,,,,,,,,,,
1333267,0,,,0,,,0.02,0.02,0.98,0,0,-0,0,,,,,,,,,,,,,,,,
1333307,0,,,0,,,0.02,0.02,0.98,0,0,-0,0,,,,,,,,,,,,,,,,
1333347,0,246,281,0,0.0,5.16,0.02,0.02,0.98,0,0,-0,0,0,0.0,0.0,0.0,0.0,0,0,0.0,0.0,0,0.0,-1,0.0,0.0,0.0,0
1333387,0,,,0,,,0.02,0.02,0.98,0,0,-0,0,,,,,,,,,,,,,,,,
1333427,0,,,0,,,0.02,0.02,0.98,0,0,-0,0,,,,,,,,,,,,,,,,
1333467,0,,,0,,,0.02,0.02,0.99,0,0,-0,0,,,,,,,,,,,,,,,,
1333507,0,,,0,,,0.02,0.02,0.99,0,0,-0,0,,,,,,,,,,,,,,,,
1333547,0,,,0,,,0.02,0.02,0.99,0,0,-0,0,,0.0,0.0,0.0,0.0,0,0,0.0,0.0,0,0.0,-1,0.0,0.0,0.0,0
1333587,0,,,0,,,0.02,0.02,0.99,0,0,-0,0,,,,,,,,,,,,,,,,
1333627,0,,,0,,,0.02,0.02,0.99,0,0,-0,0,,,,,,,,,,,,,,,,
1333667,0,,,0,,,0.02,0.02,0.99,0,0,-0,0,,,,,,,,,,,,,,,,
1333707,0,,,0,,,0.02,0.02,0.99,0,0,-0,0,,,,,,,,,,,,,,,,
1333747,0,,,0,,,0.02,0.02,0.99,0,0,-0,0,,0.0,0.0,0.0,0.0,0,0,0.0,0.0,0,0.0,-1,0.0,0.0,0.0,0
1333787,0,,,0,,,0.02,0.02,0.99,0,0,-0,0,,,,,,,,,,,,,,,,
1333827,0,,,0,,,0.02,0.02,0.99,0,0,-0,0,,,,,,,,,,,,,,,,
1333867,0,,,0,,,0.02,0.02,0.99,0,0,-0,0,,,,,,,,,,,,,,,,
1333907,0,,,0,,,0.02,0.02,0.99,0,0,-0,0,,,,,,,,,,,,,,,,
1333947,0,,,0,,,0.02,0.02,0.99,0,0,-0,0,,0.0,0.0,0.0,0.0,0,0,0.0,0.0,0,0.0,-1,0.0,0.0,0.0,0
1333987,0,,,0,,,0.02,0.02,0.99,0,0,-0,0,,,,,,,,,,,,,,,,
1334027,0,,,0,,,0.02,0.02,0.99,0,0,-0,0,,,,,,,,,,,,,,,,
1334067,0,,,0,,,0.02,0.02,0.99,0,0,-0,0,,,,,,,,,,,,,,,,
1334107,0,,,0,,,0.02,0.02,0.99,0,0,-0,0,,,,,,,,,,,,,,,,
1334147,0,,,0,,,0.02,0.02,0.99,0,0,-0,0,,0.0,0.0,0.0,0.0,0,0,0.0,0.0,0,0.0,-1,0.0,0.0,0.0,0
1334187,0,,,0,,,0.02,0.02,0.99,0,0,-0,0,,,,,,,,,,,,,,,,
1334227,0,,,0,,,0.02,0.02,0.99,0,0,-0,0,,,,,,,,,,,,,,,,
1334267,0,,,0,,,0.02,0.02,0.99,0,0,-0,0,,,,,,,,,,,,,,,,
1334307,0,,,0,,,0.02,0.02,0.99,0,0,-0,0,,,,,,,,,,,,,,,,
1334347,0,244,280,0,0.0,5.13,0.02,0.02,0.99,0,0,-0,0,0,0.0,0.0,0.0,0.0,0,0,0.0,0.0,0,0.0,-1,0.0,0.0,0.0,0
1334387,0,,,0,,,0.02,0.02,0.99,0,0,-0,0,,,,,,,,,,,,,,,,
1334427,0,,,0,,,0.02,0.02,0.99,0,0,-0,0,,,,,,,,,,,,,,,,
1334467,0,,,0,,,0.02,0.02,0.99,0,0,-0,0,,,,,,,,,,,,,,,,
1334507,0,,,0,,,0.02,0.02,0.99,0,0,-0,0,,,,,,,,,,,,,,,,
1334547,0,,,0,,,0.02,0.02,1.0,0,1,1,0,,0.0,0.0,0.0,0.0,0,0,0.0,0.0,0,0.0,-1,0.0,0.0,0.0,0
1334587,0,,,0,,,0.01,0.02,1.01,0,0,0,0,,,,,,,,,,,,,,,,
1334627,0,,,0,,,0.02,0.02,1.0,0,0,0,0,,,,,,,,,,,,,,,,
1334667,0,,,0,,,0.02,0.02,1.0,0,0,-0,0,,,,,,,,,,,,,,,,
1334707,0,,,0,,,0.01,0.02,1.0,0,0,-0,0,,,,,,,,,,,,,,,,
1334747,0,,,0,,,0.01,0.02,1.0,0,0,-0,0,,0.0,0.0,0.0,0.0,0,0,0.0,0.0,0,0.0,-1,0.0,0.0,0.0,0
1334787,0,,,0,,,0.01,0.02,0.99,0,0,-0,0,,,,,,,,,,,,,,,,
1334827,0,,,0,,,0.01,0.02,0.99,0,0,-0,0,,,,,,,,,,,,,,,,
1334867,0,,,0,,,0.01,0.02,0.99,0,0,-0,0,,,,,,,,,,,,,,,,
1334907,0,,,0,,,0.02,0.02,0.99,0,0,-0,0,,,,,,,,,,,,,,,,
1334947,0,,,0,,,0.01,0.02,0.99,0,0,-0,0,,0.0,0.0,0.0,0.0,0,0,0.0,0.0,0,0.0,-1,0.0,0.0,0.0,0
1334987,0,,,0,,,0.01,0.02,0.99,0,0,-0,0,,,,,,,,,,,,,,,,
1335027,0,,,0,,,0.01,0.02,0.99,0,0,-0,0,,,,,,,,,,,,,,,,
1335067,0,,,0,,,0.02,0.02,0.99,0,0,-0,0,,,,,,,,,,,,,,,,
1335107,0,,,0,,,0.02,0.02,0.99,0,0,-0,0,,,,,,,,,,,,,,,,
1335147,0,,,0,,,0.01,0.02,0.99,0,0,-0,0,,0.0,0.0,0.0,0.0,0,0,0.0,0.0,0,0.0,-1,0.0,0.0,0.0,0
1335187,0,,,0,,,0.02,0.02,0.99,0,0,-0,0,,,,,,,,,,,,,,,,
1335227,0,,,0,,,0.02,0.02,0.99,0,-0,1,0,,,,,,,,,,,,,,,,
1335267,0,,,0,,,0.02,0.02,0.99,0,0,1,0,,,,,,,,,,,,,,,,
1335307,0,,,0,,,0.01,0.02,0.99,0,0,1,0,,,,,,,,,,,,,,,,
1335347,0,226,254,0,0.32,5.16,0.01,0.02,0.99,0,0,0,0,0,0.0,0.0,0.0,0.0,0,0,0.0,0.0,0,0.0,-1,0.0,0.0,0.0,0
1335387,0,,,0,,,0.02,0.02,0.98,0,0,0,0,,,,,,,,,,,,,,,,
1335427,0,,,0,,,0.02,0.02,0.98,0,0,0,0,,,,,,,,,,,,,,,,
1335467,0,,,0,,,0.02,0.02,0.98,0,0,0,0,,,,,,,,,,,,,,,,
1335507,0,,,0,,,0.02,0.02,0.98,0,0,0,0,,,,,,,,,,,,,,,,
1335547,0,,,0,,,0.02,0.02,0.98,0,0,-0,0,,0.0,0.0,0.0,0.0,0,0,0.0,0.0,0,0.0,-1,0.0,0.0,0.0,0
1335587,0,,,0,,,0.02,0.02,0.98,0,0,-0,0,,,,,,,,,,,,,,,,
1335627,0,,,0,,,0.02,0.02,0.98,0,0,-0,0,,,,,,,,,,,,,,,,
1335667,0,,,0,,,0.02,0.02,0.98,0,0,-0,0,,,,,,,,,,,,,,,,
1335707,0,,,0,,,0.02,0.02,0.98,0,0,-0,0,,,,,,,,,,,,,,,,
1335747,0,,,0,,,0.02,0.03,0.98,0,0,-0,0,,0.0,0.0,0.0,0.0,0,0,0.0,0.0,0,0.0,-1,0.0,0.0,0.0,0
1335787,0,,,0,,,0.02,0.02,0.98,0,0,-0,0,,,,,,,,,,,,,,,,
1335827,0,,,0,,,0.01,0.02,0.98,0,0,-0,0,,,,,,,,,,,,,,,,
1335867,0,,,0,,,0.01,0.02,0.98,0,0,-0,0,,,,,,,,,,,,,,,,
1335907,0,,,0,,,0.01,0.02,0.98,0,0,-0,0,,,,,,,,,,,,,,,,
1335947,0,,,0,,,0.01,0.02,0.98,0,0,-0,0,,0.0,0.0,0.0,0.0,0,0,0.0,0.0,0,0.0,-1,0.0,0.0,0.0,0
1335987,0,,,0,,,0.01,0.02,0.99,0,0,-0,0,,,,,,,,,,,,,,,,
1336027,0,,,0,,,0.01,0.02,0.98,0,0,-0,0,,,,,,,,,,,,,,,,
1336067,0,,,0,,,0.02,0.02,0.98,0,0,-0,0,,,,,,,,,,,,,,,,
1336107,0,,,0,,,0.01,0.02,0.98,0,0,-0,0,,,,,,,,,,,,,,,,
1336147,0,,,0,,,0.01,0.02,0.98,0,0,-0,0,,0.0,0.0,0.0,0.0,0,0,0.0,0.0,0,0.0,-1,0.0,0.0,0.0,0
1336187,0,,,0,,,0.01,0.02,0.98,0,-0,-0,0,,,,,,,,,,,,,,,,
1336227,0,,,0,,,0.01,0.03,0.98,0,0,-0,0,,,,,,,,,,,,,,,,
1336267,0,,,0,,,0.01,0.03,0.98,0,-0,-0,0,,,,,,,,,,,,,,,,
1336307,0,,,0,,,0.01,0.03,0.98,0,0,-0,0,,,,,,,,,,,,,,,,
1336347,0,229,259,0,0.24,5.13,0.01,0.03,0.98,0,0,-0,0,0,0.0,0.0,0.0,0.0,0,0,0.0,0.0,0,0.0,-1,0.0,0.0,0.0,0
1336387,0,,,0,,,0.01,0.03,0.98,0,0,-0,0,,,,,,,,,,,,,,,,
1336427,0,,,0,,,0.01,0.03,0.98,0,0,-0,0,,,,,,,,,,,,,,,,
1336467,0,,,0,,,0.01,0.03,0.98,0,0,-0,0,,,,,,,,,,,,,,,,
1336507,0,,,0,,,0.02,0.03,0.99,0,0,-0,0,,,,,,,,,,,,,,,,
1336547,0,,,0,,,0.02,0.03,0.98,0,0,-0,0,,0.0,0.0,0.0,0.0,0,0,0.0,0.0,0,0.0,-1,0.0,0.0,0.0,0
1336587,0,,,0,,,0.02,0.03,0.98,0,0,-0,0,,,,,,,,,,,,,,,,
1336627,0,,,0,,,0.02,0.03,0.99,0,0,-0,0,,,,,,,,,,,,,,,,
1336667,0,,,0,,,0.02,0.03,0.99,0,0,-0,0,,,,,,,,,,,,,,,,
1336707,0,,,0,,,0.02,0.03,0.99,0,0,-0,0,,,,,,,,,,,,,,,,
1336747,0,,,0,,,0.01,0.03,0.98,0,0,-0,0,,0.0,0.0,0.0,0.0,0,0,0.0,0.0,0,0.0,-1,0.0,0.0,0.0,0
1336787,0,,,0,,,0.02,0.03,0.98,0,0,-0,0,,,,,,,,,,,,,,,,
1336827,0,,,0,,,0.02,0.03,0.98,0,0,-0,0,,,,,,,,,,,,,,,,
1336867,0,,,0,,,0.01,0.02,0.98,0,0,-0,0,,,,,,,,,,,,,,,,
1336907,0,,,0,,,0.01,0.03,0.98,0,0,-0,0,,,,,,,,,,,,,,,,
1336947,0,,,0,,,0.01,0.03,0.98,0,0,-0,0,,0.0,0.0,0.0,0.0,0,0,0.0,0.0,0,0.0,-1,0.0,0.0,0.0,0
1336987,0,,,0,,,0.01,0.02,0.98,0,0,-0,0,,,,,,,,,,,,,,,,
1337027,0,,,0,,,0.01,0.03,0.99,0,0,-0,0,,,,,,,,,,,,,,,,
1337067,0,,,0,,,0.01,0.03,0.99,0,0,-0,0,,,,,,,,,,,,,,,,
1337107,0,,,0,,,0.01,0.02,0.99,0,0,-0,0,,,,,,,,,,,,,,,,
1337147,0,,,0,,,0.01,0.02,0.98,0,0,-0,0,,0.0,0.0,0.0,0.0,0,0,0.0,0.0,0,0.0,-1,0.0,0.0,0.0,0
1337187,0,,,0,,,0.01,0.03,0.98,0,0,-0,0,,,,,,,,,,,,,,,,
1337227,0,,,0,,,0.01,0.03,0.98,0,0,-0,0,,,,,,,,,,,,,,,,
1337267,0,,,0,,,0.01,0.03,0.98,0,0,-0,0,,,,,,,,,,,,,,,,
1337307,0,,,0,,,0.01,0.03,0.98,0,0,-0,0,,,,,,,,,,,,,,,,
1337347,0,230,261,0,0.19,5.16,0.01,0.03,0.98,0,0,-0,0,0,0.0,0.0,0.0,0.0,0,0,0.0,0.0,0,0.0,-1,0.0,0.0,0.0,0
1337387,0,,,0,,,0.01,0.02,0.98,0,0,-0,0,,,,,,,,,,,,,,,,
1337427,0,,,0,,,0.02,0.02,0.99,0,0,-0,0,,,,,,,,,,,,,,,,
1337467,0,,,0,,,0.02,0.02,0.99,0,0,-0,0,,,,,,,,,,,,,,,,
1337507,0,,,0,,,0.02,0.02,0.99,0,0,-0,0,,,,,,,,,,,,,,,,
1337547,0,,,0,,,0.02,0.02,0.99,0,0,-0,0,,0.0,0.0,0.0,0.0,0,0,0.0,0.0,0,0.0,-1,0.0,0.0,0.0,0
1337587,0,,,0,,,0.02,0.02,0.99,0,0,-0,0,,,,,,,,,,,,,,,,
1337627,0,,,0,,,0.02,0.02,0.98,0,0,-0,0,,,,,,,,,,,,,,,,
1337667,0,,,0,,,0.02,0.02,0.98,0,0,-0,0,,,,,,,,,,,,,,,,
1337707,0,,,0,,,0.02,0.02,0.98,0,0,-0,0,,,,,,,,,,,,,,,,
1337747,0,,,0,,,0.02,0.02,0.99,0,0,-0,0,,0.0,0.0,0.0,0.0,0,0,0.0,0.0,0,0.0,-1,0.0,0.0,0.0,0
1337787,0,,,0,,,0.02,0.02,0.98,0,0,-0,0,,,,,,,,,,,,,,,,
1337827,0,,,0,,,0.01,0.02,0.98,0,0,-0,0,,,,,,,,,,,,,,,,
1337867,0,,,0,,,0.01,0.02,0.98,0,0,-0,0,,,,,,,,,,,,,,,,
1337907,0,,,0,,,0.01,0.02,0.98,0,0,-0,0,,,,,,,,,,,,,,,,
1337947,0,,,0,,,0.02,0.02,0.98,0,0,-0,0,,0.0,0.0,0.0,0.0,0,0,0.0,0.0,0,0.0,-1,0.0,0.0,0.0,0
1337987,0,,,0,,,0.02,0.02,0.98,0,0,-0,0,,,,,,,,,,,,,,,,
1338027,0,,,0,,,0.01,0.02,0.99,0,0,-0,0,,,,,,,,,,,,,,,,
1338067,0,,,0,,,0.01,0.03,0.99,0,0,-0,0,,,,,,,,,,,,,,,,
1338107,0,,,0,,,0.01,0.03,0.99,0,0,-0,0,,,,,,,,,,,,,,,,
1338147,0,,,0,,,0.01,0.02,0.99,0,0,-0,0,,0.0,0.0,0.0,0.0,0,0,0.0,0.0,0,0.0,-1,0.0,0.0,0.0,0
1338187,0,,,0,,,0.01,0.02,0.99,0,0,-0,0,,,,,,,,,,,,,,,,
1338227,0,,,0,,,0.01,0.03,0.98,0,0,-0,0,,,,,,,,,,,,,,,,
1338267,0,,,0,,,0.01,0.03,0.99,0,0,-0,0,,,,,,,,,,,,,,,,
1338307,0,,,0,,,0.02,0.03,0.99,0,0,-0,0,,,,,,,,,,,,,,,,
1338347,0,232,263,0,0.16,5.14,0.02,0.03,0.99,0,0,-0,0,0,0.0,0.0,0.0,0.0,0,0,0.0,0.0,0,0.0,-1,0.0,0.0,0.0,0
1338387,0,,,0,,,0.02,0.02,0.99,0,0,-0,0,,,,,,,,,,,,,,,,
1338427,0,,,0,,,0.02,0.02,0.99,0,0,-0,0,,,,,,,,,,,,,,,,
1338467,0,,,0,,,0.02,0.02,0.99,0,0,-0,0,,,,,,,,,,,,,,,,
1338507,0,,,0,,,0.02,0.03,0.99,0,0,-0,0,,,,,,,,,,,,,,,,
1338547,0,,,0,,,0.02,0.02,0.99,0,0,-0,0,,0.0,0.0,0.0,0.0,0,0,0.0,0.0,0,0.0,-1,0.0,0.0,0.0,0
1338587,0,,,0,,,0.01,0.02,0.99,0,0,-0,0,,,,,,,,,,,,,,,,
1338627,0,,,0,,,0.01,0.02,0.99,0,0,-0,0,,,,,,,,,,,,,,,,
1338667,0,,,0,,,0.01,0.02,0.99,0,0,-0,0,,,,,,,,,,,,,,,,
1338707,0,,,0,,,0.01,0.02,0.99,0,0,-0,0,,,,,,,,,,,,,,,,
1338747,0,,,0,,,0.01,0.02,0.99,0,0,-0,0,,0.0,0.0,0.0,0.0,0,0,0.0,0.0,0,0.0,-1,0.0,0.0,0.0,0
1338787,0,,,0,,,0.01,0.02,0.99,0,0,-0,0,,,,,,,,,,,,,,,,
1338827,0,,,0,,,0.02,0.02,0.99,0,0,-0,0,,,,,,,,,,,,,,,,
1338867,0,,,0,,,0.02,0.02,0.99,0,0,-0,0,,,,,,,,,,,,,,,,
1338907,0,,,0,,,0.02,0.02,0.99,0,0,-0,0,,,,,,,,,,,,,,,,
1338947,0,,,0,,,0.02,0.02,0.99,0,0,-0,0,,0.0,0.0,0.0,0.0,0,0,0.0,0.0,0,0.0,-1,0.0,0.0,0.0,0
1338987,0,,,0,,,0.02,0.02,0.99,0,0,-0,0,,,,,,,,,,,,,,,,
1339027,0,,,0,,,0.02,0.02,0.99,0,0,-0,0,,,,,,,,,,,,,,,,
1339067,0,,,0,,,0.02,0.02,0.99,0,0,-0,0,,,,,,,,,,,,,,,,
1339107,0,,,0,,,0.02,0.02,0.99,0,0,-0,0,,,,,,,,,,,,,,,,
1339147,0,,,0,,,0.02,0.02,0.99,0,0,-0,0,,0.0,0.0,0.0,0.0,0,0,0.0,0.0,0,0.0,-1,0.0,0.0,0.0,0
1339187,0,,,0,,,0.02,0.02,0.99,0,0,-0,0,,,,,,,,,,,,,,,,
1339227,0,,,0,,,0.02,0.02,0.98,0,0,-0,0,,,,,,,,,,,,,,,,
1339267,0,,,0,,,0.02,0.02,0.99,0,0,-0,0,,,,,,,,,,,,,,,,
1339307,0,,,0,,,0.02,0.02,0.98,0,0,-0,0,,,,,,,,,,,,,,,,
1339347,0,233,265,0,0.13,5.15,0.02,0.02,0.99,1,0,-0,0,0,0.0,0.0,0.0,0.0,0,0,0.0,0.0,0,0.0,-1,0.0,0.0,0.0,0
1339387,0,,,0,,,0.02,0.03,0.99,1,0,-0,0,,,,,,,,,,,,,,,,
1339427,0,,,0,,,0.02,0.03,0.98,1,0,-0,0,,,,,,,,,,,,,,,,
1339467,0,,,0,,,0.02,0.02,0.98,1,0,-0,0,,,,,,,,,,,,,,,,
1339507,0,,,0,,,0.01,0.03,0.99,1,-1,-1,0,,,,,,,,,,,,,,,,
1339547,0,,,0,,,0.02,0.03,1.03,1,-0,-1,0,,0.0,0.0,0.0,0.0,0,0,0.0,0.0,0,0.0,-1,0.0,0.0,0.0,0
1339587,0,,,0,,,0.02,0.02,1.02,1,-0,-1,0,,,,,,,,,,,,,,,,
1339627,0,,,0,,,0.02,0.02,1.02,0,-0,-1,0,,,,,,,,,,,,,,,,
1339667,0,,,0,,,0.02,0.02,1.01,0,-0,-1,0,,,,,,,,,,,,,,,,
1339707,0,,,0,,,0.02,0.02,1.01,0,-0,-1,0,,,,,,,,,,,,,,,,
1339747,0,,,0,,,0.02,0.02,1.0,0,-0,-0,0,,0.0,0.0,0.0,0.0,0,0,0.0,0.0,0,0.0,-1,0.0,0.0,0.0,0
1339787,0,,,0,,,0.02,0.02,1.0,0,-0,-0,0,,,,,,,,,,,,,,,,
1339827,0,,,0,,,0.02,0.02,1.0,0,-0,-0,0,,,,,,,,,,,,,,,,
1339867,0,,,0,,,0.02,0.02,1.0,0,-0,-0,0,,,,,,,,,,,,,,,,
1339907,0,,,0,,,0.02,0.02,0.99,0,-0,-0,0,,,,,,,,,,,,,,,,
1339947,0,,,0,,,0.02,0.02,0.99,0,-0,-0,0,,0.0,0.0,0.0,0.0,0,0,0.0,0.0,0,0.0,-1,0.0,0.0,0.0,0
1339987,0,,,0,,,0.02,0.02,0.99,0,-0,-0,0,,,,,,,,,,,,,,,,
1340027,0,,,0,,,0.02,0.02,0.99,0,0,-0,0,,,,,,,,,,,,,,,,
1340067,0,,,0,,,0.02,0.02,0.99,0,0,-0,0,,,,,,,,,,,,,,,,
1340107,0,,,0,,,0.02,0.02,0.99,0,0,-0,0,,,,,,,,,,,,,,,,
1340147,0,,,0,,,0.02,0.02,0.99,0,0,-0,0,,0.0,0.0,0.0,0.0,0,0,0.0,0.0,0,0.0,-1,0.0,0.0,0.0,0
1340187,0,,,0,,,0.02,0.02,0.99,0,0,-0,0,,,,,,,,,,,,,,,,
1340227,0,,,0,,,0.02,0.02,0.99,0,0,-0,0,,,,,,,,,,,,,,,,
1340267,0,,,0,,,0.02,0.02,0.99,0,0,-0,0,,,,,,,,,,,,,,,,
1340307,0,,,0,,,0.02,0.02,0.99,0,0,-0,0,,,,,,,,,,,,,,,,
1340347,0,234,266,0,0.11,5.13,0.02,0.02,0.99,0,0,-0,0,0,0.0,0.0,0.0,0.0,0,0,0.0,0.0,0,0.0,-1,0.0,0.0,0.0,0
1340387,0,,,0,,,0.02,0.02,0.99,0,0,-0,0,,,,,,,,,,,,,,,,
1340427,0,,,0,,,0.02,0.02,0.99,0,0,-0,0,,,,,,,,,,,,,,,,
1340467,0,,,0,,,0.02,0.02,0.99,0,-0,-0,0,,,,,,,,,,,,,,,,
1340507,0,,,0,,,0.02,0.02,0.99,0,0,-0,0,,,,,,,,,,,,,,,,
1340547,0,,,0,,,0.02,0.02,0.99,0,0,-0,0,,0.0,0.0,0.0,0.0,0,0,0.0,0.0,0,0.0,-1,0.0,0.0,0.0,0
1340587,0,,,0,,,0.02,0.02,0.99,0,0,-0,0,,,,,,,,,,,,,,,,
1340627,0,,,0,,,0.02,0.02,0.99,0,0,-0,0,,,,,,,,,,,,,,,,
1340667,0,,,0,,,0.02,0.02,0.99,0,0,-0,0,,,,,,,,,,,,,,,,
1340707,0,,,0,,,0.02,0.02,0.99,0,0,-0,0,,,,,,,,,,,,,,,,
1340747,0,,,0,,,0.02,0.02,0.99,0,0,-0,0,,0.0,0.0,0.0,0.0,0,0,0.0,0.0,0,0.0,-1,0.0,0.0,0.0,0
1340787,0,,,0,,,0.02,0.02,0.99,0,0,-0,0,,,,,,,,,,,,,,,,
1340827,0,,,0,,,0.02,0.02,0.99,0,0,-0,0,,,,,,,,,,,,,,,,
1340867,0,,,0,,,0.02,0.02,0.99,0,0,-0,0,,,,,,,,,,,,,,,,
1340907,0,,,0,,,0.02,0.02,0.99,0,0,-0,0,,,,,,,,,,,,,,,,
1340947,0,,,0,,,0.02,0.02,0.98,0,0,-0,0,,0.0,0.0,0.0,0.0,0,0,0.0,0.0,0,0.0,-1,0.0,0.0,0.0,0
1340987,0,,,0,,,0.02,0.02,0.99,0,0,-0,0,,,,,,,,,,,,,,,,
1341027,0,,,0,,,0.02,0.02,0.98,0,0,-0,0,,,,,,,,,,,,,,,,
1341067,0,,,0,,,0.02,0.02,0.99,0,0,-0,0,,,,,,,,,,,,,,,,
1341107,0,,,0,,,0.02,0.02,0.99,0,0,-0,0,,,,,,,,,,,,,,,,
1341147,0,,,0,,,0.02,0.02,0.99,0,0,-0,0,,0.0,0.0,0.0,0.0,0,0,0.0,0.0,0,0.0,-1,0.0,0.0,0.0,0
1341187,0,,,0,,,0.02,0.02,0.99,0,0,-0,0,,,,,,,,,,,,,,,,
1341227,0,,,0,,,0.02,0.02,0.99,0,0,-0,0,,,,,,,,,,,,,,,,
1341267,0,,,0,,,0.02,0.02,0.99,0,0,-0,0,,,,,,,,,,,,,,,,
1341307,0,,,0,,,0.02,0.02,0.98,0,0,-0,0,,,,,,,,,,,,,,,,
1341347,0,234,267,0,0.09,5.14,0.02,0.02,0.98,0,0,-0,0,0,0.0,0.0,0.0,0.0,0,0,0.0,0.0,0,0.0,-1,0.0,0.0,0.0,0
1341387,0,,,0,,,0.02,0.02,0.98,0,0,-0,0,,,,,,,,,,,,,,,,
1341427,0,,,0,,,0.02,0.02,0.98,0,0,-0,0,,,,,,,,,,,,,,,,
1341467,0,,,0,,,0.02,0.02,0.98,0,0,-0,0,,,,,,,,,,,,,,,,
1341507,0,,,0,,,0.02,0.02,0.99,0,0,-0,0,,,,,,,,,,,,,,,,
1341547,0,,,0,,,0.02,0.02,0.98,0,0,-0,0,,0.0,0.0,0.0,0.0,0,0,0.0,0.0,0,0.0,-1,0.0,0.0,0.0,0
1341587,0,,,0,,,0.02,0.02,0.98,0,0,-0,0,,,,,,,,,,,,,,,,
1341627,0,,,0,,,0.02,0.02,0.98,0,0,-0,0,,,,,,,,,,,,,,,,
1341667,0,,,0,,,0.02,0.02,0.99,0,0,-0,0,,,,,,,,,,,,,,,,
1341707,0,,,0,,,0.02,0.02,0.99,0,0,-0,0,,,,,,,,,,,,,,,,
1341747,0,,,0,,,0.02,0.02,0.99,0,0,-0,0,,0.0,0.0,0.0,0.0,0,0,0.0,0.0,0,0.0,-1,0.0,0.0,0.0,0
1341787,0,,,0,,,0.02,0.02,0.99,0,-0,-0,0,,,,,,,,,,,,,,,,
1341827,0,,,0,,,0.02,0.02,0.99,0,-0,-0,0,,,,,,,,,,,,,,,,
1341867,0,,,0,,,0.02,0.02,0.99,0,0,-0,0,,,,,,,,,,,,,,,,
1341907,0,,,0,,,0.02,0.02,0.99,0,0,-0,0,,,,,,,,,,,,,,,,
1341947,0,,,0,,,0.02,0.02,0.99,0,0,-0,0,,0.0,0.0,0.0,0.0,0,0,0.0,0.0,0,0.0,-1,0.0,0.0,0.0,0
1341987,0,,,0,,,0.02,0.02,0.99,0,0,-0,0,,,,,,,,,,,,,,,,
1342027,0,,,0,,,0.02,0.02,0.99,0,0,-0,0,,,,,,,,,,,,,,,,
1342067,0,,,0,,,0.02,0.02,0.99,0,0,-0,0,,,,,,,,,,,,,,,,
1342107,0,,,0,,,0.02,0.02,0.99,0,0,-0,0,,,,,,,,,,,,,,,,
1342147,0,,,0,,,0.02,0.02,0.98,0,0,-0,0,,0.0,0.0,0.0,0.0,0,0,0.0,0.0,0,0.0,-1,0.0,0.0,0.0,0
1342187,0,,,0,,,0.02,0.02,0.98,0,0,-0,0,,,,,,,,,,,,,,,,
1342227,0,,,0,,,0.02,0.02,0.99,0,0,-0,0,,,,,,,,,,,,,,,,
1342267,0,,,0,,,0.02,0.02,0.99,0,0,-0,0,,,,,,,,,,,,,,,,
1342307,0,,,0,,,0.02,0.02,0.98,0,0,-0,0,,,,,,,,,,,,,,,,
1342347,0,234,266,0,0.09,5.16,0.02,0.02,0.98,0,0,-0,0,0,0.0,0.0,0.0,0.0,0,0,0.0,0.0,0,0.0,-1,0.0,0.0,0.0,0
1342387,0,,,0,,,0.02,0.02,0.99,0,0,-0,0,,,,,,,,,,,,,,,,
1342427,0,,,0,,,0.02,0.02,0.99,0,0,-0,0,,,,,,,,,,,,,,,,
1342467,0,,,0,,,0.02,0.02,0.99,0,0,-0,0,,,,,,,,,,,,,,,,
1342507,0,,,0,,,0.02,0.02,0.99,0,0,-0,0,,,,,,,,,,,,,,,,
1342547,0,,,0,,,0.02,0.02,0.99,0,0,-0,0,,0.0,0.0,0.0,0.0,0,0,0.0,0.0,0,0.0,-1,0.0,0.0,0.0,0
1342587,0,,,0,,,0.02,0.02,0.99,0,0,-0,0,,,,,,,,,,,,,,,,
1342627,0,,,0,,,0.02,0.02,0.99,0,0,-0,0,,,,,,,,,,,,,,,,
1342667,0,,,0,,,0.02,0.02,0.99,0,0,-0,0,,,,,,,,,,,,,,,,
1342707,0,,,0,,,0.02,0.02,0.99,0,0,-0,0,,,,,,,,,,,,,,,,
1342747,0,,,0,,,0.02,0.02,0.99,0,0,-0,0,,0.0,0.0,0.0,0.0,0,0,0.0,0.0,0,0.0,-1,0.0,0.0,0.0,0
1342787,0,,,0,,,0.02,0.02,0.98,0,0,-0,0,,,,,,,,,,,,,,,,
1342827,0,,,0,,,0.02,0.02,0.99,0,0,-0,0,,,,,,,,,,,,,,,,
1342867,0,,,0,,,0.02,0.02,0.98,0,0,-0,0,,,,,,,,,,,,,,,,
1342907,0,,,0,,,0.02,0.02,0.99,0,0,-0,0,,,,,,,,,,,,,,,,
1342947,0,,,0,,,0.02,0.02,0.99,0,0,-0,0,,0.0,0.0,0.0,0.0,0,0,0.0,0.0,0,0.0,-1,0.0,0.0,0.0,0
1342987,0,,,0,,,0.02,0.02,0.99,0,0,-0,0,,,,,,,,,,,,,,,,
1343027,0,,,0,,,0.02,0.02,0.99,0,0,-0,0,,,,,,,,,,,,,,,,
1343067,0,,,0,,,0.02,0.02,0.99,0,0,-0,0,,,,,,,,,,,,,,,,
1343107,0,,,0,,,0.02,0.02,0.99,0,0,-0,0,,,,,,,,,,,,,,,,
1343147,0,,,0,,,0.02,0.02,0.98,0,0,-0,0,,0.0,0.0,0.0,0.0,0,0,0.0,0.0,0,0.0,-1,0.0,0.0,0.0,0
1343187,0,,,0,,,0.02,0.02,0.99,0,0,-0,0,,,,,,,,,,,,,,,,
1343227,0,,,0,,,0.02,0.02,0.99,0,0,-0,0,,,,,,,,,,,,,,,,
1343267,0,,,0,,,0.02,0.02,0.99,0,0,-0,0,,,,,,,,,,,,,,,,
1343307,0,,,0,,,0.02,0.02,0.99,0,0,-0,0,,,,,,,,,,,,,,,,
1343347,0,234,266,0,0.08,5.14,0.02,0.02,0.99,0,0,-0,0,0,0.0,0.0,0.0,0.0,0,0,0.0,0.0,0,0.0,-1,0.0,0.0,0.0,0
1343387,0,,,0,,,0.02,0.02,0.99,0,0,-0,0,,,,,,,,,,,,,,,,
1343427,0,,,0,,,0.02,0.02,0.99,0,0,-0,0,,,,,,,,,,,,,,,,
1343467,0,,,0,,,0.02,0.02,0.98,0,0,-0,0,,,,,,,,,,,,,,,,
1343507,0,,,0,,,0.02,0.02,0.99,0,0,-0,0,,,,,,,,,,,,,,,,
1343547,0,,,0,,,0.02,0.02,0.99,0,0,-0,0,,0.0,0.0,0.0,0.0,0,0,0.0,0.0,0,0.0,-1,0.0,0.0,0.0,0
1343587,0,,,0,,,0.02,0.02,0.99,0,0,-0,0,,,,,,,,,,,,,,,,
1343627,0,,,0,,,0.02,0.02,0.99,0,0,-0,0,,,,,,,,,,,,,,,,
1343667,0,,,0,,,0.02,0.02,0.99,0,0,-0,0,,,,,,,,,,,,,,,,
1343707,0,,,0,,,0.02,0.02,0.99,0,0,-0,0,,,,,,,,,,,,,,,,
1343747,0,,,0,,,0.02,0.02,0.99,0,0,-0,0,,0.0,0.0,0.0,0.0,0,0,0.0,0.0,0,0.0,-1,0.0,0.0,0.0,0
1343787,0,,,0,,,0.02,0.02,0.99,0,0,-0,0,,,,,,,,,,,,,,,,
1343827,0,,,0,,,0.02,0.02,0.99,0,0,-0,0,,,,,,,,,,,,,,,,
1343867,0,,,0,,,0.02,0.02,0.99,0,0,-0,0,,,,,,,,,,,,,,,,
1343907,0,,,0,,,0.02,0.02,0.99,0,0,-0,0,,,,,,,,,,,,,,,,
1343947,0,,,0,,,0.02,0.02,0.99,0,0,-0,0,,0.0,0.0,0.0,0.0,0,0,0.0,0.0,0,0.0,-1,0.0,0.0,0.0,0
1343987,0,,,0,,,0.02,0.02,0.98,0,0,-0,0,,,,,,,,,,,,,,,,
1344027,0,,,0,,,0.02,0.02,0.98,0,0,-0,0,,,,,,,,,,,,,,,,
1344067,0,,,0,,,0.02,0.02,0.98,0,0,-0,0,,,,,,,,,,,,,,,,
1344107,0,,,0,,,0.02,0.02,0.98,0,-0,-0,0,,,,,,,,,,,,,,,,
1344147,0,,,0,,,0.02,0.02,0.99,0,0,-0,0,,0.0,0.0,0.0,0.0,0,0,0.0,0.0,0,0.0,-1,0.0,0.0,0.0,0
1344187,0,,,0,,,0.02,0.02,0.99,0,0,-0,0,,,,,,,,,,,,,,,,
1344227,0,,,0,,,0.02,0.02,0.98,0,0,-0,0,,,,,,,,,,,,,,,,
1344267,0,,,0,,,0.02,0.02,0.99,0,0,-0,0,,,,,,,,,,,,,,,,
1344307,0,,,0,,,0.02,0.02,0.99,0,0,-0,0,,,,,,,,,,,,,,,,
1344347,0,235,267,0,0.07,5.04,0.02,0.02,0.98,0,0,-0,0,0,0.0,0.0,0.0,0.0,0,0,0.0,0.0,0,0.0,-1,0.0,0.0,0.0,0
1344387,0,,,0,,,0.02,0.02,0.98,0,0,-0,0,,,,,,,,,,,,,,,,
1344427,0,,,0,,,0.02,0.02,0.98,0,0,-0,0,,,,,,,,,,,,,,,,
1344467,0,,,0,,,0.02,0.02,0.98,0,0,-0,0,,,,,,,,,,,,,,,,
1344507,0,,,0,,,0.02,0.02,0.98,0,0,-0,0,,,,,,,,,,,,,,,,
1344547,0,,,0,,,0.02,0.02,0.98,0,0,-0,0,,0.0,0.0,0.0,0.0,0,0,0.0,0.0,0,0.0,-1,0.0,0.0,0.0,0
1344587,0,,,0,,,0.02,0.02,0.98,0,0,-0,0,,,,,,,,,,,,,,,,
1344627,0,,,0,,,0.02,0.02,0.98,0,0,-0,0,,,,,,,,,,,,,,,,
1344667,0,,,0,,,0.02,0.02,0.98,0,0,-0,0,,,,,,,,,,,,,,,,
1344707,0,,,0,,,0.02,0.02,0.98,0,0,-0,0,,,,,,,,,,,,,,,,
1344747,0,,,0,,,0.02,0.02,0.99,0,0,-0,0,,0.0,0.0,0.0,0.0,0,0,0.0,0.0,0,0.0,-1,0.0,0.0,0.0,0
1344787,0,,,0,,,0.02,0.02,0.99,0,0,-0,0,,,,,,,,,,,,,,,,
1344827,0,,,0,,,0.02,0.02,0.99,0,0,-0,0,,,,,,,,,,,,,,,,
1344867,0,,,0,,,0.02,0.02,0.99,0,0,-0,0,,,,,,,,,,,,,,,,
1344907,0,,,0,,,0.02,0.02,0.99,0,0,-0,0,,,,,,,,,,,,,,,,
1344947,0,,,0,,,0.02,0.02,0.98,0,0,-0,0,,0.0,0.0,0.0,0.0,0,0,0.0,0.0,0,0.0,-1,0.0,0.0,0.0,0
1344987,0,,,0,,,0.02,0.02,0.98,0,0,-0,0,,,,,,,,,,,,,,,,
1345027,0,,,0,,,0.02,0.02,0.98,0,0,-0,0,,,,,,,,,,,,,,,,
1345067,0,,,0,,,0.02,0.02,0.99,0,0,-0,0,,,,,,,,,,,,,,,,
1345107,0,,,0,,,0.02,0.02,0.99,0,0,-0,0,,,,,,,,,,,,,,,,
1345147,0,,,0,,,0.02,0.02,0.99,0,0,-0,0,,0.0,0.0,0.0,0.0,0,0,0.0,0.0,0,0.0,-1,0.0,0.0,0.0,0
1345187,0,,,0,,,0.02,0.02,0.99,0,0,-0,0,,,,,,,,,,,,,,,,
1345227,0,,,0,,,0.02,0.02,0.99,0,0,-0,0,,,,,,,,,,,,,,,,
1345267,0,,,0,,,0.02,0.02,0.99,0,0,-0,0,,,,,,,,,,,,,,,,
1345307,0,,,0,,,0.02,0.02,0.98,0,0,-0,0,,,,,,,,,,,,,,,,
1345347,0,234,267,0,0.06,5.14,0.02,0.02,0.98,0,0,-0,0,0,0.0,0.0,0.0,0.0,0,0,0.0,0.0,0,0.0,-1,0.0,0.0,0.0,0
1345387,0,,,0,,,0.02,0.02,0.99,0,0,-0,0,,,,,,,,,,,,,,,,
1345427,0,,,0,,,0.02,0.02,0.98,0,0,-0,0,,,,,,,,,,,,,,,,
1345467,0,,,0,,,0.02,0.02,0.98,0,0,-0,0,,,,,,,,,,,,,,,,
1345507,0,,,0,,,0.02,0.02,0.98,0,0,-0,0,,,,,,,,,,,,,,,,
1345547,0,,,0,,,0.02,0.02,0.99,0,0,-0,0,,0.0,0.0,0.0,0.0,0,0,0.0,0.0,0,0.0,-1,0.0,0.0,0.0,0
1345587,0,,,0,,,0.02,0.02,0.98,0,0,-0,0,,,,,,,,,,,,,,,,
1345627,0,,,0,,,0.02,0.02,0.98,0,0,-0,0,,,,,,,,,,,,,,,,
1345667,0,,,0,,,0.02,0.02,0.98,0,0,-0,0,,,,,,,,,,,,,,,,
1345707,0,,,0,,,0.02,0.02,0.99,0,0,-0,0,,,,,,,,,,,,,,,,
1345747,0,,,0,,,0.02,0.02,0.98,0,0,-0,0,,0.0,0.0,0.0,0.0,0,0,0.0,0.0,0,0.0,-1,0.0,0.0,0.0,0
1345787,0,,,0,,,0.02,0.02,0.98,0,0,-0,0,,,,,,,,,,,,,,,,
1345827,0,,,0,,,0.02,0.02,0.98,0,0,-0,0,,,,,,,,,,,,,,,,
1345867,0,,,0,,,0.02,0.02,0.98,0,0,-0,0,,,,,,,,,,,,,,,,
1345907,0,,,0,,,0.02,0.02,0.98,0,0,-0,0,,,,,,,,,,,,,,,,
1345947,0,,,0,,,0.02,0.02,0.98,0,0,-0,0,,0.0,0.0,0.0,0.0,0,0,0.0,0.0,0,0.0,-1,0.0,0.0,0.0,0
1345987,0,,,0,,,0.02,0.02,0.98,0,0,-0,0,,,,,,,,,,,,,,,,
1346027,0,,,0,,,0.02,0.02,0.98,0,0,-0,0,,,,,,,,,,,,,,,,
1346067,0,,,0,,,0.02,0.02,0.98,0,0,-0,0,,,,,,,,,,,,,,,,
1346107,0,,,0,,,0.02,0.02,0.98,0,0,-0,0,,,,,,,,,,,,,,,,
1346147,0,,,0,,,0.02,0.02,0.98,0,0,-0,0,,0.0,0.0,0.0,0.0,0,0,0.0,0.0,0,0.0,-1,0.0,0.0,0.0,0
1346187,0,,,0,,,0.02,0.02,0.98,0,0,-0,0,,,,,,,,,,,,,,,,
1346227,0,,,0,,,0.02,0.02,0.99,0,0,-0,0,,,,,,,,,,,,,,,,
1346267,0,,,0,,,0.02,0.02,0.99,0,0,-0,0,,,,,,,,,,,,,,,,
1346307,0,,,0,,,0.02,0.02,0.99,0,0,-0,0,,,,,,,,,,,,,,,,
1346347,0,234,267,0,0.05,5.16,0.02,0.02,0.99,0,0,-0,0,0,0.0,0.0,0.0,0.0,0,0,0.0,0.0,0,0.0,-1,0.0,0.0,0.0,0
1346387,0,,,0,,,0.02,0.02,0.99,0,0,-0,0,,,,,,,,,,,,,,,,
1346427,0,,,0,,,0.02,0.02,0.99,0,0,-0,0,,,,,,,,,,,,,,,,
1346467,0,,,0,,,0.02,0.02,0.99,0,0,-0,0,,,,,,,,,,,,,,,,
1346507,0,,,0,,,0.02,0.02,0.99,0,0,-0,0,,,,,,,,,,,,,,,,
1346547,0,,,0,,,0.02,0.02,0.99,0,0,-0,0,,0.0,0.0,0.0,0.0,0,0,0.0,0.0,0,0.0,-1,0.0,0.0,0.0,0
1346587,0,,,0,,,0.02,0.02,0.99,0,0,-0,0,,,,,,,,,,,,,,,,
1346627,0,,,0,,,0.02,0.02,0.99,0,0,-0,0,,,,,,,,,,,,,,,,
1346667,0,,,0,,,0.02,0.02,0.99,0,0,-0,0,,,,,,,,,,,,,,,,
1346707,0,,,0,,,0.02,0.02,0.99,0,0,-0,0,,,,,,,,,,,,,,,,
1346747,0,,,0,,,0.02,0.02,0.99,0,0,-0,0,,0.0,0.0,0.0,0.0,0,0,0.0,0.0,0,0.0,-1,0.0,0.0,0.0,0
1346787,0,,,0,,,0.02,0.02,0.99,0,0,-0,0,,,,,,,,,,,,,,,,
1346827,0,,,0,,,0.02,0.02,0.99,0,-0,-0,0,,,,,,,,,,,,,,,,
1346867,0,,,0,,,0.02,0.02,0.99,0,0,-0,0,,,,,,,,,,,,,,,,
1346907,0,,,0,,,0.02,0.02,0.99,0,0,-0,0,,,,,,,,,,,,,,,,
1346947,0,,,0,,,0.02,0.02,0.99,0,0,-0,0,,0.0,0.0,0.0,0.0,0,0,0.0,0.0,0,0.0,-1,0.0,0.0,0.0,0
1346987,0,,,0,,,0.02,0.02,0.99,0,0,-0,0,,,,,,,,,,,,,,,,
1347027,0,,,0,,,0.02,0.02,0.99,0,0,-0,0,,,,,,,,,,,,,,,,
1347067,0,,,0,,,0.02,0.02,0.99,0,0,-0,0,,,,,,,,,,,,,,,,
1347107,0,,,0,,,0.02,0.02,0.99,0,0,-0,0,,,,,,,,,,,,,,,,
1347147,0,,,0,,,0.02,0.02,0.99,0,0,-0,0,,0.0,0.0,0.0,0.0,0,0,0.0,0.0,0,0.0,-1,0.0,0.0,0.0,0
1347187,0,,,0,,,0.02,0.02,0.99,0,0,-0,0,,,,,,,,,,,,,,,,
1347227,0,,,0,,,0.02,0.02,0.99,0,0,-0,0,,,,,,,,,,,,,,,,
1347267,0,,,0,,,0.02,0.02,0.99,0,0,-0,0,,,,,,,,,,,,,,,,
1347307,0,,,0,,,0.02,0.02,0.99,0,0,-0,0,,,,,,,,,,,,,,,,
1347347,0,235,267,0,0.04,5.14,0.02,0.02,0.99,0,0,-0,0,0,0.0,0.0,0.0,0.0,0,0,0.0,0.0,0,0.0,-1,0.0,0.0,0.0,0
1347387,0,,,0,,,0.02,0.02,0.99,0,0,-0,0,,,,,,,,,,,,,,,,
1347427,0,,,0,,,0.02,0.02,0.99,0,0,-0,0,,,,,,,,,,,,,,,,
1347467,0,,,0,,,0.02,0.02,0.98,0,0,-0,0,,,,,,,,,,,,,,,,
