"Interval"|"ms"|0|0|1,"Utc"|"ms"|0|0|1,"EngineTemp"|"F"|0|300|1,"OilTemp"|"F"|0|300|1,"OilPress"|"PSI"|0|150|25,"Battery"|"Volts"|0.0|20.0|1,"Battery"|"Volts"|0.0|20.0|1,"AccelX"|"G"|-3.0|3.0|25,"AccelY"|"G"|-3.0|3.0|25,"AccelZ"|"G"|-3.0|3.0|25,"Yaw"|"Deg/Sec"|-120|120|25,"Pitch"|"Deg/Sec"|-120|120|25,"Roll"|"Deg/Sec"|-120|120|25,"RPM"|""|0|10000|25,"RPM"|""|0|14000|1,"Latitude"|"Degrees"|-180.0|180.0|10,"Longitude"|"Degrees"|-180.0|180.0|10,"Speed"|"MPH"|0.0|150.0|10,"Altitude"|"ft"|0.0|4000.0|10,"GPSSats"|""|0|20|10,"GPSQual"|""|0|5|10,"GPSDOP"|""|0.0|20.0|10,"Distance"|"mi"|0.0|0.0|10,"LapCount"|""|0|0|10,"LapTime"|"Min"|0.0|0.0|10,"Sector"|""|0|0|10,"SectorTime"|"Min"|0.0|0.0|10,"PredTime"|"Min"|0.0|0.0|5,"ElapsedTime"|"Min"|0.0|0.0|10,"CurrentLap"|""|0|0|10
448932,0,,,0,,,0.02,0.02,0.99,0,0,3,0,,,,,,,,,,,,,,,,
448972,0,,,0,,,0.02,0.02,0.99,0,-0,3,0,,,,,,,,,,,,,,,,
449012,0,,,0,,,0.02,0.02,0.99,0,0,2,0,,,,,,,,,,,,,,,,
449052,0,,,0,,,0.03,0.02,0.98,0,1,2,0,,,,,,,,,,,,,,,,
449092,0,,,0,,,0.02,0.02,0.99,0,-0,1,0,,0.0,0.0,0.0,0.0,0,0,0.0,0.0,0,0.0,-1,0.0,0.0,0.0,0
449132,0,,,0,,,0.02,0.02,0.99,0,-0,1,0,,,,,,,,,,,,,,,,
449172,0,,,0,,,0.02,0.02,0.99,0,-0,1,0,,,,,,,,,,,,,,,,
449212,0,,,0,,,0.02,0.02,0.99,0,-0,0,0,,,,,,,,,,,,,,,,
449252,0,,,0,,,0.02,0.02,0.99,0,0,0,0,,,,,,,,,,,,,,,,
449292,0,,,0,,,0.02,0.02,0.99,0,0,0,0,,0.0,0.0,0.0,0.0,0,0,0.0,0.0,0,0.0,-1,0.0,0.0,0.0,0
449332,0,,,0,,,0.02,0.02,0.99,0,0,0,0,,,,,,,,,,,,,,,,
449372,0,,,0,,,0.02,0.02,0.99,0,0,0,0,,,,,,,,,,,,,,,,
449412,0,,,0,,,0.02,0.02,0.99,0,0,0,0,,,,,,,,,,,,,,,,
449452,0,,,0,,,0.02,0.02,0.99,0,0,-0,0,,,,,,,,,,,,,,,,
449492,0,,,0,,,0.02,0.02,0.99,0,0,-0,0,,0.0,0.0,0.0,0.0,0,0,0.0,0.0,0,0.0,-1,0.0,0.0,0.0,0
449532,0,,,0,,,0.02,0.02,0.99,0,0,-0,0,,,,,,,,,,,,,,,,
449572,0,,,0,,,0.02,0.02,0.99,0,0,-0,0,,,,,,,,,,,,,,,,
449612,0,,,0,,,0.02,0.02,0.99,0,0,-0,0,,,,,,,,,,,,,,,,
449652,0,,,0,,,0.02,0.02,0.99,0,0,-0,0,,,,,,,,,,,,,,,,
449692,0,,,0,,,0.02,0.02,0.99,0,0,-0,0,,0.0,0.0,0.0,0.0,0,0,0.0,0.0,0,0.0,-1,0.0,0.0,0.0,0
449732,0,,,0,,,0.02,0.02,0.99,0,0,-0,0,,,,,,,,,,,,,,,,
449772,0,,,0,,,0.02,0.02,0.99,0,0,-0,0,,,,,,,,,,,,,,,,
449812,0,,,0,,,0.02,0.02,0.99,0,0,-0,0,,,,,,,,,,,,,,,,
449852,0,,,0,,,0.02,0.02,0.99,0,0,-0,0,,,,,,,,,,,,,,,,
449892,0,276,296,0,0.0,5.15,0.02,0.02,0.99,0,0,-0,0,57390,0.0,0.0,0.0,0.0,0,0,0.0,0.0,0,0.0,-1,0.0,0.0,0.0,0
449932,0,,,0,,,0.02,0.02,0.99,0,0,-0,0,,,,,,,,,,,,,,,,
449972,0,,,0,,,0.02,0.02,0.99,0,0,-0,0,,,,,,,,,,,,,,,,
450012,0,,,0,,,0.02,0.02,0.99,0,-0,-0,0,,,,,,,,,,,,,,,,
450052,0,,,0,,,0.02,0.02,0.98,0,-0,-0,0,,,,,,,,,,,,,,,,
450092,0,,,0,,,0.02,0.02,0.98,0,-0,-0,0,,0.0,0.0,0.0,0.0,0,0,0.0,0.0,0,0.0,-1,0.0,0.0,0.0,0
450132,0,,,0,,,0.02,0.02,0.99,0,-0,-0,0,,,,,,,,,,,,,,,,
450172,0,,,0,,,0.02,0.02,0.99,0,-0,-0,0,,,,,,,,,,,,,,,,
450212,0,,,0,,,0.02,0.02,0.99,0,0,-0,0,,,,,,,,,,,,,,,,
450252,0,,,0,,,0.02,0.02,0.99,0,0,-0,0,,,,,,,,,,,,,,,,
450292,0,,,0,,,0.02,0.02,0.99,0,0,-0,0,,0.0,0.0,0.0,0.0,0,0,0.0,0.0,0,0.0,-1,0.0,0.0,0.0,0
450332,0,,,0,,,0.02,0.02,0.99,0,0,-0,0,,,,,,,,,,,,,,,,
450372,0,,,0,,,0.02,0.02,0.99,0,0,-0,0,,,,,,,,,,,,,,,,
450412,0,,,0,,,0.02,0.02,0.99,0,0,-0,0,,,,,,,,,,,,,,,,
450452,0,,,0,,,0.02,0.02,0.99,0,0,-0,0,,,,,,,,,,,,,,,,
450492,0,,,0,,,0.02,0.02,0.99,0,0,-0,0,,0.0,0.0,0.0,0.0,0,0,0.0,0.0,0,0.0,-1,0.0,0.0,0.0,0
450532,0,,,0,,,0.02,0.02,0.99,0,0,-0,0,,,,,,,,,,,,,,,,
450572,0,,,0,,,0.02,0.02,0.99,0,0,-0,0,,,,,,,,,,,,,,,,
450612,0,,,0,,,0.02,0.02,0.99,0,0,-0,0,,,,,,,,,,,,,,,,
450652,0,,,0,,,0.02,0.02,0.99,0,0,-0,0,,,,,,,,,,,,,,,,
450692,0,,,0,,,0.02,0.02,0.99,0,0,-0,0,,0.0,0.0,0.0,0.0,0,0,0.0,0.0,0,0.0,-1,0.0,0.0,0.0,0
450732,0,,,0,,,0.02,0.02,0.99,0,0,-0,0,,,,,,,,,,,,,,,,
450772,0,,,0,,,0.02,0.02,0.99,0,0,-0,0,,,,,,,,,,,,,,,,
450812,0,,,0,,,0.02,0.02,0.99,0,0,-0,0,,,,,,,,,,,,,,,,
450852,0,,,0,,,0.02,0.02,0.99,0,0,-0,0,,,,,,,,,,,,,,,,
450892,0,276,296,0,0.0,5.14,0.02,0.02,0.99,0,-0,-0,0,57390,0.0,0.0,0.0,0.0,0,0,0.0,0.0,0,0.0,-1,0.0,0.0,0.0,0
450932,0,,,0,,,0.02,0.02,0.99,0,-0,-0,0,,,,,,,,,,,,,,,,
450972,0,,,0,,,0.02,0.02,0.99,0,0,-0,0,,,,,,,,,,,,,,,,
451012,0,,,0,,,0.02,0.02,0.99,0,0,-0,0,,,,,,,,,,,,,,,,
451052,0,,,0,,,0.02,0.02,0.99,0,0,0,0,,,,,,,,,,,,,,,,
451092,0,,,0,,,0.02,0.02,0.99,0,0,0,0,,0.0,0.0,0.0,0.0,0,0,0.0,0.0,0,0.0,-1,0.0,0.0,0.0,0
451132,0,,,0,,,0.02,0.02,0.99,0,0,-0,0,,,,,,,,,,,,,,,,
451172,0,,,0,,,0.02,0.02,0.99,0,0,0,0,,,,,,,,,,,,,,,,
451212,0,,,0,,,0.02,0.02,0.99,0,0,0,0,,,,,,,,,,,,,,,,
451252,0,,,0,,,0.02,0.02,0.99,0,0,-0,0,,,,,,,,,,,,,,,,
451292,0,,,0,,,0.02,0.02,0.99,0,0,-0,0,,0.0,0.0,0.0,0.0,0,0,0.0,0.0,0,0.0,-1,0.0,0.0,0.0,0
451332,0,,,0,,,0.02,0.02,0.99,0,-0,-0,0,,,,,,,,,,,,,,,,
451372,0,,,0,,,0.02,0.02,0.99,0,-0,-0,0,,,,,,,,,,,,,,,,
451412,0,,,0,,,0.02,0.02,0.99,0,-0,-0,0,,,,,,,,,,,,,,,,
451452,0,,,0,,,0.02,0.02,0.99,0,-0,-0,0,,,,,,,,,,,,,,,,
451492,0,,,0,,,0.02,0.02,0.99,0,-0,-0,0,,0.0,0.0,0.0,0.0,0,0,0.0,0.0,0,0.0,-1,0.0,0.0,0.0,0
451532,0,,,0,,,0.02,0.02,0.99,0,-0,-0,0,,,,,,,,,,,,,,,,
451572,0,,,0,,,0.02,0.02,0.99,0,0,-0,0,,,,,,,,,,,,,,,,
451612,0,,,0,,,0.02,0.02,0.99,0,-0,-0,0,,,,,,,,,,,,,,,,
451652,0,,,0,,,0.02,0.02,0.99,0,-0,-0,0,,,,,,,,,,,,,,,,
451692,0,,,0,,,0.02,0.02,0.99,0,0,0,0,,0.0,0.0,0.0,0.0,0,0,0.0,0.0,0,0.0,-1,0.0,0.0,0.0,0
451732,0,,,0,,,0.02,0.02,0.99,0,0,-0,0,,,,,,,,,,,,,,,,
451772,0,,,0,,,0.02,0.02,0.99,0,-0,-0,0,,,,,,,,,,,,,,,,
451812,0,,,0,,,0.02,0.02,0.99,0,0,0,0,,,,,,,,,,,,,,,,
451852,0,,,0,,,0.02,0.02,0.99,0,0,0,0,,,,,,,,,,,,,,,,
451892,0,276,296,0,0.0,5.13,0.02,0.02,0.99,0,-0,-0,0,57390,0.0,0.0,0.0,0.0,0,0,0.0,0.0,0,0.0,-1,0.0,0.0,0.0,0
451932,0,,,0,,,0.02,0.02,0.99,0,-0,-0,0,,,,,,,,,,,,,,,,
451972,0,,,0,,,0.02,0.02,0.99,0,-0,-0,0,,,,,,,,,,,,,,,,
452012,0,,,0,,,0.02,0.02,0.99,0,-0,-0,0,,,,,,,,,,,,,,,,
452052,0,,,0,,,0.02,0.02,0.99,0,-0,-0,0,,,,,,,,,,,,,,,,
452092,0,,,0,,,0.02,0.02,0.99,0,0,0,0,,0.0,0.0,0.0,0.0,0,0,0.0,0.0,0,0.0,-1,0.0,0.0,0.0,0
452132,0,,,0,,,0.02,0.02,0.99,0,0,0,0,,,,,,,,,,,,,,,,
452172,0,,,0,,,0.02,0.02,0.99,0,0,0,0,,,,,,,,,,,,,,,,
452212,0,,,0,,,0.02,0.02,0.99,0,0,0,0,,,,,,,,,,,,,,,,
452252,0,,,0,,,0.02,0.02,0.99,0,-0,-0,0,,,,,,,,,,,,,,,,
452292,0,,,0,,,0.02,0.02,0.99,0,-0,-0,0,,0.0,0.0,0.0,0.0,0,0,0.0,0.0,0,0.0,-1,0.0,0.0,0.0,0
452332,0,,,0,,,0.02,0.02,0.99,0,0,0,0,,,,,,,,,,,,,,,,
452372,0,,,0,,,0.02,0.02,0.99,0,0,0,0,,,,,,,,,,,,,,,,
452412,0,,,0,,,0.02,0.02,0.99,0,0,0,0,,,,,,,,,,,,,,,,
452452,0,,,0,,,0.02,0.02,0.99,0,0,0,0,,,,,,,,,,,,,,,,
452492,0,,,0,,,0.02,0.02,0.99,0,0,-0,0,,0.0,0.0,0.0,0.0,0,0,0.0,0.0,0,0.0,-1,0.0,0.0,0.0,0
452532,0,,,0,,,0.02,0.02,0.99,0,0,-0,0,,,,,,,,,,,,,,,,
452572,0,,,0,,,0.02,0.02,0.99,0,0,-0,0,,,,,,,,,,,,,,,,
452612,0,,,0,,,0.02,0.02,0.99,0,0,-0,0,,,,,,,,,,,,,,,,
452652,0,,,0,,,0.02,0.02,0.99,0,0,-0,0,,,,,,,,,,,,,,,,
452692,0,,,0,,,0.02,0.02,0.99,0,0,-0,0,,0.0,0.0,0.0,0.0,0,0,0.0,0.0,0,0.0,-1,0.0,0.0,0.0,0
452732,0,,,0,,,0.02,0.02,0.99,0,0,-0,0,,,,,,,,,,,,,,,,
452772,0,,,0,,,0.02,0.02,0.99,0,0,-0,0,,,,,,,,,,,,,,,,
452812,0,,,0,,,0.02,0.02,0.99,0,0,-0,0,,,,,,,,,,,,,,,,
452852,0,,,0,,,0.02,0.02,0.99,0,-0,-0,0,,,,,,,,,,,,,,,,
452892,0,278,297,0,0.0,5.15,0.02,0.02,0.99,0,-0,-0,0,57390,0.0,0.0,0.0,0.0,0,0,0.0,0.0,0,0.0,-1,0.0,0.0,0.0,0
452932,0,,,0,,,0.02,0.02,0.99,0,-0,-0,0,,,,,,,,,,,,,,,,
452972,0,,,0,,,0.02,0.02,0.99,0,-0,-0,0,,,,,,,,,,,,,,,,
453012,0,,,0,,,0.02,0.02,0.99,0,-0,-0,0,,,,,,,,,,,,,,,,
453052,0,,,0,,,0.02,0.02,0.99,0,-0,-0,0,,,,,,,,,,,,,,,,
453092,0,,,0,,,0.02,0.02,0.99,0,-0,-0,0,,0.0,0.0,0.0,0.0,0,0,0.0,0.0,0,0.0,-1,0.0,0.0,0.0,0
453132,0,,,0,,,0.02,0.02,0.99,0,0,-0,0,,,,,,,,,,,,,,,,
453172,0,,,0,,,0.02,0.02,0.99,0,0,-0,0,,,,,,,,,,,,,,,,
453212,0,,,0,,,0.02,0.02,0.99,0,0,-0,0,,,,,,,,,,,,,,,,
453252,0,,,0,,,0.02,0.02,0.99,0,0,-0,0,,,,,,,,,,,,,,,,
453292,0,,,0,,,0.02,0.02,0.99,0,-0,-0,0,,0.0,0.0,0.0,0.0,0,0,0.0,0.0,0,0.0,-1,0.0,0.0,0.0,0
453332,0,,,0,,,0.02,0.02,0.99,0,-0,-0,0,,,,,,,,,,,,,,,,
453372,0,,,0,,,0.02,0.02,0.99,0,-0,-0,0,,,,,,,,,,,,,,,,
453412,0,,,0,,,0.02,0.02,0.99,0,-0,-0,0,,,,,,,,,,,,,,,,
453452,0,,,0,,,0.02,0.02,0.99,0,-0,-0,0,,,,,,,,,,,,,,,,
453492,0,,,0,,,0.02,0.02,0.99,0,-0,-0,0,,0.0,0.0,0.0,0.0,0,0,0.0,0.0,0,0.0,-1,0.0,0.0,0.0,0
453532,0,,,0,,,0.02,0.02,0.99,0,-0,-0,0,,,,,,,,,,,,,,,,
453572,0,,,0,,,0.02,0.02,0.99,0,-0,-0,0,,,,,,,,,,,,,,,,
453612,0,,,0,,,0.02,0.02,0.99,0,-0,-0,0,,,,,,,,,,,,,,,,
453652,0,,,0,,,0.02,0.02,0.99,0,0,-0,0,,,,,,,,,,,,,,,,
453692,0,,,0,,,0.02,0.02,0.99,0,0,-0,0,,0.0,0.0,0.0,0.0,0,0,0.0,0.0,0,0.0,-1,0.0,0.0,0.0,0
453732,0,,,0,,,0.02,0.02,0.99,0,0,-0,0,,,,,,,,,,,,,,,,
453772,0,,,0,,,0.02,0.02,0.99,0,0,-0,0,,,,,,,,,,,,,,,,
453812,0,,,0,,,0.02,0.02,0.99,0,0,-0,0,,,,,,,,,,,,,,,,
453852,0,,,0,,,0.02,0.02,0.99,0,0,-0,0,,,,,,,,,,,,,,,,
453892,0,281,299,0,0.0,5.13,0.02,0.02,0.99,0,0,-0,0,57390,0.0,0.0,0.0,0.0,0,0,0.0,0.0,0,0.0,-1,0.0,0.0,0.0,0
453932,0,,,0,,,0.02,0.02,0.99,0,0,-0,0,,,,,,,,,,,,,,,,
453972,0,,,0,,,0.02,0.02,0.99,0,-0,-0,0,,,,,,,,,,,,,,,,
454012,0,,,0,,,0.02,0.02,0.99,0,0,-0,0,,,,,,,,,,,,,,,,
454052,0,,,0,,,0.02,0.02,0.99,0,0,-0,0,,,,,,,,,,,,,,,,
454092,0,,,0,,,0.02,0.02,0.99,0,-0,-0,0,,0.0,0.0,0.0,0.0,0,0,0.0,0.0,0,0.0,-1,0.0,0.0,0.0,0
454132,0,,,0,,,0.02,0.02,0.99,0,-0,-0,0,,,,,,,,,,,,,,,,
454172,0,,,0,,,0.02,0.02,0.99,0,-0,-0,0,,,,,,,,,,,,,,,,
454212,0,,,0,,,0.02,0.02,0.99,0,-0,-0,0,,,,,,,,,,,,,,,,
454252,0,,,0,,,0.02,0.02,0.99,0,0,-0,0,,,,,,,,,,,,,,,,
454292,0,,,0,,,0.02,0.02,0.99,0,0,-0,0,,0.0,0.0,0.0,0.0,0,0,0.0,0.0,0,0.0,-1,0.0,0.0,0.0,0
454332,0,,,0,,,0.02,0.02,0.99,0,-0,-0,0,,,,,,,,,,,,,,,,
454372,0,,,0,,,0.02,0.02,0.99,0,-0,-0,0,,,,,,,,,,,,,,,,
454412,0,,,0,,,0.02,0.02,0.99,0,0,-0,0,,,,,,,,,,,,,,,,
454452,0,,,0,,,0.02,0.02,0.99,0,0,-0,0,,,,,,,,,,,,,,,,
454492,0,,,0,,,0.02,0.02,0.99,0,0,-0,0,,0.0,0.0,0.0,0.0,0,0,0.0,0.0,0,0.0,-1,0.0,0.0,0.0,0
454532,0,,,0,,,0.02,0.02,0.99,0,0,-0,0,,,,,,,,,,,,,,,,
454572,0,,,0,,,0.02,0.02,0.99,0,-0,-0,0,,,,,,,,,,,,,,,,
454612,0,,,0,,,0.02,0.02,0.99,0,-0,-0,0,,,,,,,,,,,,,,,,
454652,0,,,0,,,0.02,0.02,0.99,0,-0,-0,0,,,,,,,,,,,,,,,,
454692,0,,,0,,,0.02,0.02,0.99,0,-0,-0,0,,0.0,0.0,0.0,0.0,0,0,0.0,0.0,0,0.0,-1,0.0,0.0,0.0,0
454732,0,,,0,,,0.02,0.02,0.99,0,-0,-0,0,,,,,,,,,,,,,,,,
454772,0,,,0,,,0.02,0.02,0.99,0,-0,-0,0,,,,,,,,,,,,,,,,
454812,0,,,0,,,0.02,0.02,0.99,0,-0,-0,0,,,,,,,,,,,,,,,,
454852,0,,,0,,,0.02,0.02,0.99,0,0,-0,0,,,,,,,,,,,,,,,,
454892,0,275,295,0,0.0,5.16,0.02,0.02,0.99,0,0,-0,0,57390,0.0,0.0,0.0,0.0,0,0,0.0,0.0,0,0.0,-1,0.0,0.0,0.0,0
454932,0,,,0,,,0.02,0.02,0.99,0,0,-0,0,,,,,,,,,,,,,,,,
454972,0,,,0,,,0.02,0.02,0.99,0,0,-0,0,,,,,,,,,,,,,,,,
455012,0,,,0,,,0.02,0.02,0.99,0,0,-0,0,,,,,,,,,,,,,,,,
455052,0,,,0,,,0.02,0.02,0.99,0,0,-0,0,,,,,,,,,,,,,,,,
455092,0,,,0,,,0.02,0.02,0.99,0,0,-0,0,,0.0,0.0,0.0,0.0,0,0,0.0,0.0,0,0.0,-1,0.0,0.0,0.0,0
455132,0,,,0,,,0.02,0.02,0.99,0,0,-0,0,,,,,,,,,,,,,,,,
455172,0,,,0,,,0.02,0.02,0.99,0,0,-0,0,,,,,,,,,,,,,,,,
455212,0,,,0,,,0.02,0.02,0.99,0,-0,-0,0,,,,,,,,,,,,,,,,
455252,0,,,0,,,0.02,0.02,0.99,0,-0,-0,0,,,,,,,,,,,,,,,,
455292,0,,,0,,,0.02,0.02,0.99,0,-0,-0,0,,0.0,0.0,0.0,0.0,0,0,0.0,0.0,0,0.0,-1,0.0,0.0,0.0,0
455332,0,,,0,,,0.02,0.02,0.99,0,-0,-0,0,,,,,,,,,,,,,,,,
455372,0,,,0,,,0.02,0.02,0.99,0,-0,-0,0,,,,,,,,,,,,,,,,
455412,0,,,0,,,0.02,0.02,0.99,0,-0,-0,0,,,,,,,,,,,,,,,,
455452,0,,,0,,,0.02,0.02,0.99,0,-0,-0,0,,,,,,,,,,,,,,,,
455492,0,,,0,,,0.02,0.02,0.99,0,0,-0,0,,0.0,0.0,0.0,0.0,0,0,0.0,0.0,0,0.0,-1,0.0,0.0,0.0,0
455532,0,,,0,,,0.02,0.02,0.99,0,0,-0,0,,,,,,,,,,,,,,,,
455572,0,,,0,,,0.02,0.02,0.99,0,0,-0,0,,,,,,,,,,,,,,,,
455612,0,,,0,,,0.02,0.02,0.99,0,-0,-0,0,,,,,,,,,,,,,,,,
455652,0,,,0,,,0.02,0.02,0.99,0,0,-0,0,,,,,,,,,,,,,,,,
455692,0,,,0,,,0.02,0.02,0.99,0,0,-0,0,,0.0,0.0,0.0,0.0,0,0,0.0,0.0,0,0.0,-1,0.0,0.0,0.0,0
455732,0,,,0,,,0.02,0.02,0.99,0,0,-0,0,,,,,,,,,,,,,,,,
455772,0,,,0,,,0.02,0.02,0.99,0,0,-0,0,,,,,,,,,,,,,,,,
455812,0,,,0,,,0.02,0.02,0.99,0,-0,-0,0,,,,,,,,,,,,,,,,
455852,0,,,0,,,0.02,0.02,0.99,0,0,-0,0,,,,,,,,,,,,,,,,
455892,0,274,294,0,0.0,5.13,0.02,0.02,0.99,0,0,-0,0,57390,0.0,0.0,0.0,0.0,0,0,0.0,0.0,0,0.0,-1,0.0,0.0,0.0,0
455932,0,,,0,,,0.02,0.02,0.99,0,-0,-0,0,,,,,,,,,,,,,,,,
455972,0,,,0,,,0.02,0.02,0.99,0,0,-0,0,,,,,,,,,,,,,,,,
456012,0,,,0,,,0.02,0.02,0.99,0,0,-0,0,,,,,,,,,,,,,,,,
456052,0,,,0,,,0.02,0.02,0.99,0,0,-0,0,,,,,,,,,,,,,,,,
456092,0,,,0,,,0.02,0.02,0.99,0,0,-0,0,,0.0,0.0,0.0,0.0,0,0,0.0,0.0,0,0.0,-1,0.0,0.0,0.0,0
456132,0,,,0,,,0.02,0.02,0.99,0,0,-0,0,,,,,,,,,,,,,,,,
456172,0,,,0,,,0.02,0.02,0.99,0,0,-0,0,,,,,,,,,,,,,,,,
456212,0,,,0,,,0.02,0.02,0.99,0,0,-0,0,,,,,,,,,,,,,,,,
456252,0,,,0,,,0.02,0.02,0.99,0,-0,-0,0,,,,,,,,,,,,,,,,
456292,0,,,0,,,0.02,0.02,0.99,0,-0,-0,0,,0.0,0.0,0.0,0.0,0,0,0.0,0.0,0,0.0,-1,0.0,0.0,0.0,0
456332,0,,,0,,,0.02,0.02,0.99,0,-0,-0,0,,,,,,,,,,,,,,,,
456372,0,,,0,,,0.02,0.02,0.99,0,-0,-0,0,,,,,,,,,,,,,,,,
456412,0,,,0,,,0.02,0.02,0.99,0,-0,-0,0,,,,,,,,,,,,,,,,
456452,0,,,0,,,0.02,0.02,0.99,0,-0,-0,0,,,,,,,,,,,,,,,,
456492,0,,,0,,,0.02,0.02,0.99,0,-0,-0,0,,0.0,0.0,0.0,0.0,0,0,0.0,0.0,0,0.0,-1,0.0,0.0,0.0,0
456532,0,,,0,,,0.02,0.02,0.99,0,0,-0,0,,,,,,,,,,,,,,,,
456572,0,,,0,,,0.02,0.02,0.99,0,0,-0,0,,,,,,,,,,,,,,,,
456612,0,,,0,,,0.02,0.02,0.99,0,-0,-0,0,,,,,,,,,,,,,,,,
456652,0,,,0,,,0.02,0.02,0.99,0,-0,-0,0,,,,,,,,,,,,,,,,
456692,0,,,0,,,0.02,0.02,0.99,0,-0,-0,0,,0.0,0.0,0.0,0.0,0,0,0.0,0.0,0,0.0,-1,0.0,0.0,0.0,0
456732,0,,,0,,,0.02,0.02,0.99,0,-0,-0,0,,,,,,,,,,,,,,,,
456772,0,,,0,,,0.02,0.02,0.99,0,-0,-0,0,,,,,,,,,,,,,,,,
456812,0,,,0,,,0.02,0.02,0.99,0,0,-0,0,,,,,,,,,,,,,,,,
456852,0,,,0,,,0.02,0.02,0.99,0,0,-0,0,,,,,,,,,,,,,,,,
456892,0,274,294,0,0.0,5.16,0.02,0.02,0.99,0,0,-0,0,57390,0.0,0.0,0.0,0.0,0,0,0.0,0.0,0,0.0,-1,0.0,0.0,0.0,0
456932,0,,,0,,,0.02,0.02,0.99,0,0,-0,0,,,,,,,,,,,,,,,,
456972,0,,,0,,,0.02,0.02,0.99,0,0,-0,0,,,,,,,,,,,,,,,,
457012,0,,,0,,,0.02,0.02,0.99,0,0,-0,0,,,,,,,,,,,,,,,,
457052,0,,,0,,,0.02,0.02,0.99,0,0,-0,0,,,,,,,,,,,,,,,,
457092,0,,,0,,,0.02,0.02,0.99,0,-0,-0,0,,0.0,0.0,0.0,0.0,0,0,0.0,0.0,0,0.0,-1,0.0,0.0,0.0,0
457132,0,,,0,,,0.02,0.02,0.99,0,0,0,0,,,,,,,,,,,,,,,,
457172,0,,,0,,,0.02,0.02,0.99,0,0,0,0,,,,,,,,,,,,,,,,
457212,0,,,0,,,0.02,0.02,0.99,0,0,0,0,,,,,,,,,,,,,,,,
457252,0,,,0,,,0.02,0.02,0.99,0,0,-0,0,,,,,,,,,,,,,,,,
457292,0,,,0,,,0.02,0.02,0.99,0,0,0,0,,0.0,0.0,0.0,0.0,0,0,0.0,0.0,0,0.0,-1,0.0,0.0,0.0,0
457332,0,,,0,,,0.02,0.02,0.99,0,0,0,0,,,,,,,,,,,,,,,,
457372,0,,,0,,,0.02,0.02,0.99,0,0,0,0,,,,,,,,,,,,,,,,
457412,0,,,0,,,0.02,0.02,0.99,0,0,0,0,,,,,,,,,,,,,,,,
457452,0,,,0,,,0.02,0.02,0.99,0,0,-0,0,,,,,,,,,,,,,,,,
457492,0,,,0,,,0.02,0.02,0.99,0,0,-0,0,,0.0,0.0,0.0,0.0,0,0,0.0,0.0,0,0.0,-1,0.0,0.0,0.0,0
457532,0,,,0,,,0.02,0.02,0.99,0,0,-0,0,,,,,,,,,,,,,,,,
457572,0,,,0,,,0.02,0.02,0.99,0,-0,-0,0,,,,,,,,,,,,,,,,
