"Interval"|"ms"|0|0|1,"Utc"|"ms"|0|0|1,"Brake_F"|"Bar"|0|2000|10,"Brake_R"|"Bar"|0|2000|10,"Height_RF"|"mm"|0|255|10,"Height_LF"|"mm"|0|255|10,"Height_LR"|"mm"|0|80|10,"Height_RR"|"mm"|0|255|10,"Steering"|"deg"|-100|100|10,"AccelX"|"G"|-3.0|3.0|50,"AccelY"|"G"|-3.0|3.0|50,"AccelZ"|"G"|-3.0|3.0|50,"Yaw"|"Deg/Sec"|-120|120|50,"Pitch"|"Deg/Sec"|-120|120|50,"Roll"|"Deg/Sec"|-120|120|50,"Gsum"|"G"|0.0|3.0|50,"Log_Button"|""|0.0|10.0|10,"WaterTemp"|"C"|0|150|50,"RPM"|"tr/min"|0|14000|50,"TPS"|"%"|0|100|50,"AirTemp"|"C"|0|150|50,"MAP"|"KPa"|0|100|50,"Lambda"|""|0.5|1.5|50,"SpeedDTA"|"kph"|0.0|250.0|50,"OilPress"|"KPa"|0|1500|50,"FuelPressur"|"Bar"|0.0|10.0|50,"Batterie"|"V"|0.0|20.0|50,"ConsoKm"|"L/100km"|0.0|200.0|50,"Gear"|""|0|6|50,"AdvIgnition"|"Deg"|-20.0|70.0|50,"Injection"|"ms"|0.0|10.0|50,"ConsoHr"|"L/Hr"|0.0|10000.0|50,"LC_But_Pres"|""|0|1|50,"LC_Active"|""|0|1|50,"TractionOn"|""|0|1|50,"TractionWet"|""|0|1|50,"FanOn"|""|0|1|50,"RD_Speed"|"km/h"|-30|250|50,"RUD_Speed"|"km/h"|-30|250|50,"LD_Speed"|"km/h"|-30|250|50,"LUD_Speed"|"km/h"|-30|250|50,"Latitude"|"Degrees"|-180.0|180.0|10,"Longitude"|"Degrees"|-180.0|180.0|10,"Speed"|"kph"|0.0|150.0|10,"Altitude"|"m"|0.0|4000.0|10,"GPSSats"|""|0|20|10,"GPSQual"|""|0|5|10,"GPSDOP"|""|0.0|20.0|10,"LapCount"|""|0|0|10,"LapTime"|"Min"|0.0|0.0|10,"Sector"|""|0|0|10,"SectorTime"|"Min"|0.0|0.0|10,"PredTime"|"Min"|0.0|0.0|5,"ElapsedTime"|"Min"|0.0|0.0|10,"CurrentLap"|""|0|0|10,"Distance"|"km"|0.0|0.0|10,"SessionTime"|"Min"|0.0|0.0|10
153063,1624194708636,,,,,,,,-0.12,0.14,1.95,-0,1,0,0.18,,80,4666,10,28,58,0.807,0.0,462,4.88,13.0,0.0,1,28.7,1.56,5.7,0,0,0,1,0,0,250,250,0,,,,,,,,,,,,,,,,
153083,1624194708656,,,,,,,,-0.06,0.12,2.08,-0,-1,-2,0.14,,80,4657,10,28,58,0.806,0.0,468,4.9,13.0,0.0,1,28.6,1.56,5.7,0,0,0,1,0,0,250,250,0,,,,,,,,,,,,,,,,
153103,1624194708676,,,,,,,,-0.0,0.08,1.93,-0,-3,-3,0.08,,80,4665,10,28,58,0.806,0.0,455,4.86,13.2,0.0,1,28.7,1.56,5.8,0,0,0,1,0,0,250,250,0,,,,,,,,,,,,,,,,
153123,1624194708696,,,,,,,,0.05,0.05,1.77,-0,-3,-2,0.07,,80,4609,10,28,58,0.806,0.0,458,4.87,13.2,0.0,1,27.9,2.66,5.8,0,0,0,1,0,0,250,250,0,,,,,,,,,,,,,,,,
153143,1624194708716,1,3,36,16,34,32,-4,0.08,0.02,1.62,-0,-2,-1,0.08,0,80,4635,10,28,58,0.806,0.0,450,4.85,13.2,0.0,1,28.3,2.67,5.8,0,0,0,1,0,0,250,250,0,45.700356,4.909466,0.0,190.2,7,2,3.2,0,0.0,-1,0.0,,0.0,0,0.08,2.5524
153163,1624194708736,,,,,,,,0.09,0.03,1.49,-0,-0,1,0.1,,80,4605,10,28,58,0.806,0.0,451,4.9,13.2,0.0,1,27.9,2.66,5.8,0,0,0,1,0,0,250,250,0,,,,,,,,,,,,,,,,
153183,1624194708756,,,,,,,,0.07,0.0,1.36,-0,2,3,0.07,,80,4659,10,28,58,0.807,0.0,457,4.88,13.2,0.0,1,28.6,1.56,5.8,0,0,0,1,0,0,250,250,0,,,,,,,,,,,,,,,,
153203,1624194708776,,,,,,,,0.03,-0.01,1.25,-0,4,4,0.04,,80,4633,10,28,58,0.808,0.0,453,4.83,13.1,0.0,1,28.2,1.54,5.7,0,0,0,1,0,0,250,250,0,,,,,,,,,,,,,,,,
153223,1624194708796,,,,,,,,-0.01,-0.02,1.34,-0,4,3,0.02,,80,4651,10,28,58,0.809,0.0,468,4.83,13.1,0.0,1,28.5,1.55,5.7,0,0,0,1,0,0,250,250,0,,,,,,,,,,,,,,,,
153243,1624194708816,1,1,37,16,34,32,-3,-0.07,0.03,1.56,-0,4,3,0.07,0,80,4707,10,28,58,0.809,0.0,472,4.85,13.1,0.0,1,28.9,1.57,5.7,0,0,0,1,0,0,250,250,0,45.700356,4.909466,0.0,190.2,7,2,3.2,0,0.0,-1,0.0,0.0,0.0,0,0.08,2.554
153263,1624194708836,,,,,,,,-0.08,0.09,1.77,-0,2,1,0.12,,80,4658,10,28,58,0.808,0.0,463,4.86,13.0,0.0,1,28.6,2.69,5.7,0,0,0,1,0,0,250,250,0,,,,,,,,,,,,,,,,
153283,1624194708856,,,,,,,,-0.04,0.09,1.95,-0,-0,-1,0.1,,80,4685,10,28,58,0.808,0.0,475,4.87,13.1,0.0,1,28.9,2.7,5.7,0,0,0,1,0,0,250,250,0,,,,,,,,,,,,,,,,
153303,1624194708866,,,,,,,,0.02,0.05,1.92,-0,-2,-2,0.06,,80,4627,10,28,58,0.807,0.0,462,4.89,13.0,0.0,1,28.2,2.67,5.7,0,0,0,1,0,0,250,250,0,,,,,,,,,,,,,,,,
153323,1624194708886,,,,,,,,0.07,0.02,1.76,-0,-3,-2,0.07,,80,4620,10,28,58,0.807,0.0,470,4.85,13.1,0.0,1,28.1,2.66,5.7,0,0,0,1,0,0,250,250,0,,,,,,,,,,,,,,,,
153343,1624194708906,1,1,37,16,34,32,-3,0.11,-0.03,1.61,-0,-3,-1,0.11,0,80,4630,10,28,58,0.806,0.0,461,4.9,13.2,0.0,1,28.2,2.67,5.7,0,0,0,1,0,0,250,250,0,45.700356,4.909466,0.0,190.2,7,2,3.2,0,0.0,-1,0.0,,0.0,0,0.08,2.5557
153363,1624194708926,,,,,,,,0.11,-0.03,1.48,-0,-1,1,0.12,,80,4644,10,28,58,0.806,0.0,456,4.9,13.2,0.0,1,28.4,1.55,5.7,0,0,0,1,0,0,250,250,0,,,,,,,,,,,,,,,,
153383,1624194708946,,,,,,,,0.06,-0.03,1.44,-0,1,2,0.07,,80,4617,10,28,58,0.806,0.0,463,4.89,13.2,0.0,1,28.0,2.66,5.7,0,0,0,1,0,0,250,250,0,,,,,,,,,,,,,,,,
153403,1624194708978,,,,,,,,0.01,-0.02,1.61,-0,3,3,0.02,,80,4641,10,28,58,0.805,0.0,448,4.86,13.1,0.0,1,28.3,1.55,5.7,0,0,0,1,0,0,250,250,0,,,,,,,,,,,,,,,,
153423,1624194708998,,,,,,,,-0.05,0.02,1.81,-0,4,3,0.06,,80,4673,10,28,58,0.804,0.0,455,4.87,13.1,0.0,1,28.8,1.56,5.7,0,0,0,1,0,0,250,250,0,,,,,,,,,,,,,,,,
153443,1624194709018,1,2,37,16,34,32,-4,-0.06,0.08,1.99,-0,3,2,0.1,0,80,4656,10,28,58,0.803,0.0,457,4.83,13.1,0.0,1,28.5,2.69,5.7,0,0,0,1,0,0,250,250,0,45.700356,4.909466,0.0,190.2,7,2,3.2,0,0.0,-1,0.0,0.0,0.0,0,0.08,2.5574
153463,1624194709038,,,,,,,,-0.02,0.08,2.16,-0,1,1,0.08,,80,4667,10,28,58,0.802,0.0,460,4.9,13.0,0.0,1,28.7,1.56,5.7,0,0,0,1,0,0,250,250,0,,,,,,,,,,,,,,,,
153483,1624194709058,,,,,,,,0.05,0.02,2.03,-0,-1,-1,0.05,,80,4689,10,28,58,0.803,0.0,472,4.88,13.0,0.0,1,29.0,1.57,5.7,0,0,0,1,0,0,250,250,0,,,,,,,,,,,,,,,,
153503,1624194709079,,,,,,,,0.09,-0.02,1.86,-0,-2,-2,0.09,,80,4711,10,28,58,0.804,0.0,462,4.88,13.1,0.0,1,29.3,2.72,5.9,0,0,0,1,0,0,250,250,0,,,,,,,,,,,,,,,,
153523,1624194709099,,,,,,,,0.1,-0.0,1.71,-0,-2,-1,0.1,,80,4685,10,28,58,0.805,0.0,461,4.86,13.2,0.0,1,28.9,2.7,5.9,0,0,0,1,0,0,250,250,0,,,,,,,,,,,,,,,,
153543,1624194709119,1,2,37,16,34,32,-4,0.07,-0.01,1.57,-0,-0,1,0.07,0,80,4647,10,28,58,0.806,0.0,459,4.9,13.2,0.0,1,28.4,1.55,5.9,0,0,0,1,0,0,250,250,0,45.700356,4.909466,0.0,190.2,7,2,3.2,0,0.0,-1,0.0,,0.0,0,0.08,2.5591
153563,1624194709139,,,,,,,,0.02,-0.01,1.55,-0,1,2,0.02,,80,4675,10,28,58,0.807,0.0,456,4.87,13.2,0.0,1,28.8,2.69,5.9,0,0,0,1,0,0,250,250,0,,,,,,,,,,,,,,,,
153583,1624194709159,,,,,,,,-0.03,-0.0,1.75,-0,3,3,0.03,,80,4671,10,28,58,0.807,0.0,468,4.83,13.1,0.0,1,28.7,1.56,5.9,0,0,0,1,0,0,250,250,0,,,,,,,,,,,,,,,,
153603,1624194709175,,,,,,,,-0.07,0.05,1.94,-0,3,3,0.09,,80,4689,10,28,58,0.807,0.0,465,4.87,13.1,0.0,1,29.0,1.57,5.8,0,0,0,1,0,0,250,250,0,,,,,,,,,,,,,,,,
153623,1624194709195,,,,,,,,-0.07,0.11,2.11,-0,2,2,0.12,,80,4647,10,28,58,0.807,0.0,462,4.84,13.1,0.0,1,28.4,2.68,5.8,0,0,0,1,0,0,250,250,0,,,,,,,,,,,,,,,,
153643,1624194709215,2,3,37,16,34,32,-4,-0.01,0.06,2.13,-0,-0,-0,0.06,0,80,4675,10,28,58,0.807,0.0,477,4.91,13.0,0.0,1,28.8,1.56,5.8,0,0,0,1,0,0,250,250,0,45.700356,4.909466,0.0,190.2,7,2,3.2,0,0.0,-1,0.0,0.0,0.0,0,0.08,2.5607
153663,1624194709235,,,,,,,,0.05,0.03,1.95,-0,-2,-2,0.05,,80,4660,10,28,58,0.807,0.0,466,4.9,13.0,0.0,1,28.6,1.56,5.8,0,0,0,1,0,0,250,250,0,,,,,,,,,,,,,,,,
153683,1624194709255,,,,,,,,0.08,0.02,1.79,-0,-2,-2,0.08,,80,4702,10,28,58,0.806,0.0,471,4.88,13.1,0.0,1,29.1,2.71,5.8,0,0,0,1,0,0,250,250,0,,,,,,,,,,,,,,,,
153703,1624194709277,,,,,,,,0.08,0.03,1.64,-0,-1,-1,0.09,,80,4689,10,28,58,0.806,0.0,459,4.88,13.1,0.0,1,29.0,2.7,5.8,0,0,0,1,0,0,250,250,0,,,,,,,,,,,,,,,,
153723,1624194709297,,,,,,,,0.05,0.04,1.5,-0,1,1,0.06,,80,4686,10,28,58,0.805,0.0,460,4.86,13.2,0.0,1,28.9,2.7,5.8,0,0,0,1,0,0,250,250,0,,,,,,,,,,,,,,,,
153743,1624194709317,2,3,37,16,34,32,-3,-0.01,0.04,1.69,-0,3,2,0.05,0,80,4734,10,28,58,0.804,0.0,470,4.88,13.2,0.0,1,29.6,2.73,5.8,0,0,0,1,0,0,250,250,0,45.700356,4.909466,0.0,190.2,7,2,3.2,0,0.0,-1,0.0,,0.0,0,0.08,2.5624
153763,1624194709337,,,,,,,,-0.03,0.09,1.88,-0,2,2,0.09,,80,4712,10,28,58,0.803,0.0,476,4.84,13.1,0.0,1,29.1,1.58,5.8,0,0,0,1,0,0,250,250,0,,,,,,,,,,,,,,,,
153783,1624194709357,,,,,,,,-0.03,0.13,2.06,-0,1,1,0.14,,80,4675,10,28,58,0.802,0.0,468,4.85,13.1,0.0,1,28.8,1.56,5.8,0,0,0,1,0,0,250,250,0,,,,,,,,,,,,,,,,
153803,1624194709377,,,,,,,,0.02,0.09,2.16,-0,-1,-1,0.1,,80,4652,10,28,58,0.801,0.0,468,4.86,13.0,0.0,1,28.5,2.69,5.7,0,0,0,1,0,0,250,250,0,,,,,,,,,,,,,,,,
153823,1624194709397,,,,,,,,0.07,0.07,1.98,-0,-3,-2,0.1,,80,4652,10,28,58,0.8,0.0,458,4.87,13.1,0.0,1,28.5,2.68,5.7,0,0,0,1,0,0,250,250,0,,,,,,,,,,,,,,,,
153843,1624194709417,1,2,37,17,34,32,-3,0.11,0.03,1.82,-0,-4,-3,0.11,0,80,4653,10,28,58,0.799,0.0,475,4.9,13.1,0.0,1,28.5,2.69,5.7,0,0,0,1,0,0,250,250,0,45.700356,4.909466,0.0,190.2,7,2,3.2,0,0.0,-1,0.0,0.0,0.0,0,0.08,2.564
153863,1624194709437,,,,,,,,0.12,0.04,1.67,-0,-3,-1,0.12,,80,4681,10,28,58,0.799,0.0,467,4.89,13.2,0.0,1,28.9,2.7,5.7,0,0,0,1,0,0,250,250,0,,,,,,,,,,,,,,,,
153883,1624194709457,,,,,,,,0.09,0.06,1.53,-0,-1,1,0.11,,80,4676,10,28,58,0.798,0.0,455,4.9,13.2,0.0,1,28.8,2.7,5.7,0,0,0,1,0,0,250,250,0,,,,,,,,,,,,,,,,
153903,1624194709477,,,,,,,,0.04,0.05,1.61,-0,1,2,0.06,,80,4724,10,28,58,0.798,0.0,470,4.95,13.2,0.0,1,29.4,1.6,5.9,0,0,0,1,0,0,250,250,0,,,,,,,,,,,,,,,,
153923,1624194709497,,,,,,,,-0.01,0.08,1.81,-0,1,2,0.08,,80,4695,10,28,58,0.797,0.0,461,4.83,13.1,0.0,1,29.1,1.58,5.9,0,0,0,1,0,0,250,250,0,,,,,,,,,,,,,,,,
153943,1624194709517,1,2,37,16,34,32,-3,-0.04,0.13,1.99,-0,1,1,0.13,0,80,4682,10,28,58,0.796,0.0,467,4.86,13.0,0.0,1,28.9,1.57,5.9,0,0,0,1,0,0,250,250,0,45.700356,4.909466,0.0,190.2,7,2,3.2,0,0.0,-1,0.0,,0.0,0,0.08,2.5657
153963,1624194709537,,,,,,,,-0.02,0.13,2.16,-0,-1,-1,0.13,,80,4643,10,28,58,0.796,0.0,465,4.9,13.0,0.0,1,28.4,2.68,5.9,0,0,0,1,0,0,250,250,0,,,,,,,,,,,,,,,,
153983,1624194709557,,,,,,,,0.04,0.08,2.13,-0,-3,-2,0.09,,81,4681,10,28,58,0.797,0.0,460,4.9,13.1,0.0,1,28.9,1.57,5.9,0,0,0,1,0,0,250,250,0,,,,,,,,,,,,,,,,
154003,1624194709577,,,,,,,,0.1,0.05,1.95,-0,-4,-3,0.11,,80,4683,10,28,58,0.798,0.0,471,4.86,13.1,0.0,1,28.9,2.7,5.8,0,0,0,1,0,0,250,250,0,,,,,,,,,,,,,,,,
154023,1624194709597,,,,,,,,0.12,0.04,1.79,-0,-3,-2,0.13,,80,4680,10,28,58,0.798,0.0,460,4.87,13.2,0.0,1,28.9,1.57,5.8,0,0,0,1,0,0,250,250,0,,,,,,,,,,,,,,,,
154043,1624194709617,2,0,37,16,34,32,-3,0.11,0.04,1.64,-0,-2,-1,0.12,0,80,4660,10,28,58,0.799,0.0,458,4.84,13.2,0.0,1,28.6,1.56,5.8,0,0,0,1,0,0,250,250,0,45.700356,4.909466,0.0,190.2,7,2,3.2,0,0.0,-1,0.0,0.0,0.0,0,0.08,2.5674
154063,1624194709637,,,,,,,,0.08,0.05,1.5,-0,-0,1,0.09,,80,4671,10,28,58,0.8,0.0,462,4.88,13.2,0.0,1,28.7,2.69,5.8,0,0,0,1,0,0,250,250,0,,,,,,,,,,,,,,,,
154083,1624194709657,,,,,,,,0.02,0.06,1.67,-0,0,2,0.06,,80,4692,10,28,58,0.801,0.0,458,4.86,13.1,0.0,1,29.0,1.57,5.8,0,0,0,1,0,0,250,250,0,,,,,,,,,,,,,,,,
154103,1624194709677,,,,,,,,-0.03,0.08,1.86,-0,0,1,0.09,,80,4660,10,28,58,0.802,0.0,473,4.85,13.1,0.0,1,28.6,1.56,5.8,0,0,0,1,0,0,250,250,0,,,,,,,,,,,,,,,,
154123,1624194709697,,,,,,,,-0.03,0.13,2.04,-0,-1,-0,0.13,,81,4733,10,28,58,0.803,0.0,471,4.85,13.1,0.0,1,29.6,2.73,5.8,0,0,0,1,0,0,250,250,0,,,,,,,,,,,,,,,,
154143,1624194709717,1,2,37,16,34,32,-3,0.01,0.11,2.07,-0,-3,-2,0.11,0,80,4701,10,28,58,0.804,0.0,473,4.88,13.1,0.0,1,29.1,2.71,5.8,0,0,0,1,0,0,250,250,0,45.700356,4.909466,0.0,190.2,7,2,3.2,0,0.0,-1,0.0,,0.0,0,0.08,2.5691
154163,1624194709737,,,,,,,,0.06,0.04,1.9,-0,-4,-2,0.07,,80,4709,10,28,58,0.806,0.0,487,4.88,13.0,0.0,1,29.2,2.72,5.8,0,0,0,1,0,0,250,250,0,,,,,,,,,,,,,,,,
154183,1624194709757,,,,,,,,0.07,0.03,1.74,-0,-3,-1,0.08,,80,4701,10,28,58,0.807,0.0,467,4.87,13.1,0.0,1,29.1,2.71,5.8,0,0,0,1,0,0,250,250,0,,,,,,,,,,,,,,,,
154203,1624194709779,,,,,,,,0.05,0.03,1.59,-0,-0,1,0.06,,80,4700,10,28,58,0.809,0.0,465,4.9,13.2,0.0,1,29.1,2.71,5.8,0,0,0,1,0,0,250,250,0,,,,,,,,,,,,,,,,
154223,1624194709799,,,,,,,,0.01,-0.01,1.59,-0,1,2,0.02,,80,4702,10,28,59,0.809,0.0,462,4.91,13.2,0.0,1,29.4,1.58,5.8,0,0,0,1,0,0,250,250,0,,,,,,,,,,,,,,,,
154243,1624194709819,3,1,37,16,34,32,-3,-0.04,-0.0,1.76,-0,3,2,0.04,0,80,4651,10,28,59,0.809,0.0,453,4.88,13.2,0.0,1,28.8,2.69,5.8,0,0,0,1,0,0,250,250,0,45.700356,4.909466,0.0,190.2,7,2,3.2,0,0.0,-1,0.0,0.0,0.0,0,0.08,2.5707
154263,1624194709839,,,,,,,,-0.08,0.04,1.95,-0,3,2,0.09,,80,4638,10,28,58,0.809,0.0,470,4.88,13.0,0.0,1,28.3,2.68,5.8,0,0,0,1,0,0,250,250,0,,,,,,,,,,,,,,,,
154283,1624194709859,,,,,,,,-0.08,0.08,2.12,-0,2,0,0.11,,80,4633,10,28,58,0.809,0.0,460,4.85,13.1,0.0,1,28.7,1.56,5.8,0,0,0,1,0,0,250,250,0,,,,,,,,,,,,,,,,
154303,1624194709867,,,,,,,,-0.04,0.07,2.28,-0,-0,-1,0.08,,81,4656,10,28,58,0.809,0.0,460,4.87,13.0,0.0,1,28.5,2.69,5.8,0,0,0,1,0,0,250,250,0,,,,,,,,,,,,,,,,
154323,1624194709887,,,,,,,,0.02,0.03,2.26,-0,-3,-3,0.04,,80,4654,9,28,58,0.808,0.0,462,4.86,13.1,0.0,1,28.5,2.69,5.8,0,0,0,1,0,0,250,250,0,,,,,,,,,,,,,,,,
154343,1624194709907,2,1,37,16,34,32,-4,0.07,-0.02,2.07,-0,-3,-3,0.08,0,80,4674,9,28,58,0.808,0.0,455,4.84,13.1,0.0,1,28.8,2.69,5.8,0,0,0,1,0,0,250,250,0,45.700356,4.909466,0.0,190.2,7,2,3.2,0,0.0,-1,0.0,,0.0,0,0.08,2.5724
154363,1624194709927,,,,,,,,0.09,-0.04,1.9,-0,-3,-2,0.1,,80,4625,9,28,58,0.808,0.0,464,4.85,13.1,0.0,1,28.1,2.67,5.8,0,0,0,1,0,0,250,250,0,,,,,,,,,,,,,,,,
154383,1624194709947,,,,,,,,0.09,-0.03,1.74,-0,-1,0,0.09,,80,4650,9,28,58,0.808,0.0,460,4.9,13.2,0.0,1,28.5,2.68,5.8,0,0,0,1,0,0,250,250,0,,,,,,,,,,,,,,,,
154403,1624194709979,,,,,,,,0.07,-0.05,1.59,-0,0,2,0.08,,80,4631,9,28,58,0.807,0.0,455,4.88,13.2,0.0,1,28.2,2.67,5.7,0,0,0,1,0,0,250,250,0,,,,,,,,,,,,,,,,
154423,1624194709999,,,,,,,,0.02,-0.06,1.49,-0,3,3,0.06,,80,4656,9,28,58,0.807,0.0,458,4.91,13.2,0.0,1,28.5,2.69,5.7,0,0,0,1,0,0,250,250,0,,,,,,,,,,,,,,,,
154443,1624194710019,2,3,37,16,34,32,-4,-0.03,-0.04,1.69,-0,3,3,0.05,0,80,4693,9,28,57,0.807,0.0,462,4.82,13.1,0.0,1,28.7,1.57,5.7,0,0,0,1,0,0,250,250,0,45.700356,4.909466,0.0,190.2,7,2,3.2,0,0.0,-1,0.0,0.0,0.0,0,0.08,2.574
154463,1624194710039,,,,,,,,-0.07,0.02,1.89,-0,2,2,0.07,,80,4658,9,28,57,0.806,0.0,467,4.82,13.1,0.0,1,28.3,1.55,5.7,0,0,0,1,0,0,250,250,0,,,,,,,,,,,,,,,,
154483,1624194710059,,,,,,,,-0.08,0.07,2.06,-0,1,0,0.11,,81,4629,9,28,57,0.806,0.0,462,4.85,13.1,0.0,1,27.9,2.67,5.7,0,0,0,1,0,0,250,250,0,,,,,,,,,,,,,,,,
154503,1624194710078,,,,,,,,-0.05,0.06,2.22,-0,-1,-1,0.08,,81,4626,9,28,57,0.806,0.0,462,4.9,13.0,0.0,1,27.9,2.67,5.6,0,0,0,1,0,0,250,250,0,,,,,,,,,,,,,,,,
154523,1624194710098,,,,,,,,0.01,0.03,2.25,-0,-3,-3,0.03,,81,4567,9,28,57,0.806,0.0,476,4.91,12.9,0.0,1,27.1,1.5,5.6,0,0,0,1,0,0,250,250,0,,,,,,,,,,,,,,,,
154543,1624194710118,2,2,36,16,34,32,-4,0.06,0.01,2.19,-0,-5,-4,0.06,0,80,4584,9,28,57,0.806,0.0,454,4.82,13.1,0.0,1,27.4,2.64,5.6,0,0,0,1,0,0,250,250,0,45.700356,4.909466,0.0,190.2,7,2,3.2,0,0.0,-1,0.0,,0.0,0,0.08,2.5757
154563,1624194710138,,,,,,,,0.11,-0.0,2.01,-0,-6,-5,0.11,,80,4545,9,28,57,0.807,0.0,457,4.85,13.1,0.0,1,26.9,2.62,5.6,0,0,0,1,0,0,250,250,0,,,,,,,,,,,,,,,,
154583,1624194710158,,,,,,,,0.14,-0.01,1.86,-0,-7,-6,0.14,,81,4485,9,28,57,0.807,0.0,448,4.83,13.0,0.0,1,26.1,1.45,5.6,0,0,0,1,0,0,250,250,0,,,,,,,,,,,,,,,,
154603,1624194710178,,,,,,,,0.19,-0.05,1.7,-0,-9,-6,0.2,,80,4542,9,28,57,0.808,0.0,451,4.81,13.0,0.0,1,26.8,2.62,5.5,0,0,0,1,0,0,250,250,0,,,,,,,,,,,,,,,,
154623,1624194710198,,,,,,,,0.22,-0.06,1.56,-0,-9,-6,0.23,,80,4509,9,28,57,0.809,0.0,453,4.87,13.2,0.0,1,26.4,2.6,5.5,0,0,0,1,0,0,250,250,0,,,,,,,,,,,,,,,,
154643,1624194710218,1,2,37,16,34,32,-3,0.26,-0.06,1.43,-0,-9,-6,0.26,0,80,4548,9,28,57,0.809,0.0,445,4.82,13.1,0.0,1,26.9,1.49,5.5,0,0,0,1,0,0,250,250,0,45.700356,4.909466,0.0,190.2,7,2,3.2,0,0.0,-1,0.0,0.0,0.0,0,0.08,2.5774
154663,1624194710238,,,,,,,,0.28,-0.06,1.31,-0,-8,-5,0.28,,80,4566,9,28,57,0.81,0.0,460,4.92,13.1,0.0,1,27.1,1.5,5.5,0,0,0,1,0,0,250,250,0,,,,,,,,,,,,,,,,
154683,1624194710258,,,,,,,,0.31,-0.09,1.2,-0,-8,-4,0.32,,80,4554,9,28,57,0.811,0.0,452,4.91,13.2,0.0,1,27.0,2.62,5.5,0,0,0,1,0,0,250,250,0,,,,,,,,,,,,,,,,
154703,1624194710278,,,,,,,,0.31,-0.1,1.1,-0,-7,-3,0.32,,80,4572,9,28,57,0.812,0.0,443,4.9,13.2,0.0,1,27.2,2.64,5.5,0,0,0,1,0,0,250,250,0,,,,,,,,,,,,,,,,
154723,1624194710298,,,,,,,,0.3,-0.1,1.01,-0,-5,-1,0.32,,80,4566,9,28,57,0.812,0.0,456,4.86,13.2,0.0,1,27.1,2.63,5.5,0,0,0,1,0,0,250,250,0,,,,,,,,,,,,,,,,
154743,1624194710318,2,3,36,16,34,32,-3,0.28,-0.1,0.92,-0,-3,0,0.3,0,80,4569,9,28,57,0.812,0.0,442,4.85,13.2,0.0,1,27.2,2.63,5.5,0,0,0,1,0,0,250,250,0,45.700356,4.909466,0.0,190.2,7,2,3.2,0,0.0,-1,0.0,,0.0,0,0.08,2.5791
154763,1624194710338,,,,,,,,0.25,-0.08,0.85,-0,-1,2,0.27,,80,4594,9,28,57,0.813,0.0,452,4.83,13.2,0.0,1,27.5,2.64,5.5,0,0,0,1,0,0,250,250,0,,,,,,,,,,,,,,,,
154783,1624194710358,,,,,,,,0.21,-0.1,0.78,-0,1,3,0.23,,80,4580,9,28,57,0.813,0.0,450,4.85,13.2,0.0,1,27.3,2.64,5.5,0,0,0,1,0,0,250,250,0,,,,,,,,,,,,,,,,
154803,1624194710378,,,,,,,,0.16,-0.11,0.71,-0,3,4,0.19,,80,4583,9,28,57,0.813,0.0,447,4.84,13.2,0.0,1,27.3,1.51,5.5,0,0,0,1,0,0,250,250,0,,,,,,,,,,,,,,,,
154823,1624194710398,,,,,,,,0.1,-0.11,0.75,-0,4,5,0.15,,80,4572,9,28,57,0.812,0.0,455,4.85,13.1,0.0,1,27.2,1.51,5.5,0,0,0,1,0,0,250,250,0,,,,,,,,,,,,,,,,
154843,1624194710418,3,3,36,16,34,32,-4,0.04,-0.08,0.87,-0,6,6,0.09,0,80,4548,9,28,57,0.812,0.0,442,4.88,13.1,0.0,1,26.9,1.49,5.5,0,0,0,1,0,0,250,250,0,45.700356,4.909466,0.0,190.2,7,2,3.2,0,0.0,-1,0.0,0.0,0.0,0,0.08,2.5807
154863,1624194710438,,,,,,,,-0.02,-0.04,0.99,-0,7,6,0.05,,80,4521,9,28,57,0.812,0.0,443,4.85,13.1,0.0,1,26.6,1.48,5.5,0,0,0,1,0,0,250,250,0,,,,,,,,,,,,,,,,
154883,1624194710458,,,,,,,,-0.08,-0.01,1.24,-0,7,5,0.08,,81,4537,9,28,57,0.811,0.0,444,4.82,13.2,0.0,1,26.8,2.61,5.5,0,0,0,1,0,0,250,250,0,,,,,,,,,,,,,,,,
154903,1624194710478,,,,,,,,-0.13,0.03,1.47,-0,6,5,0.14,,81,4554,9,28,57,0.811,0.0,451,4.88,13.1,0.0,1,26.9,1.49,5.5,0,0,0,1,0,0,250,250,0,,,,,,,,,,,,,,,,
154923,1624194710494,,,,,,,,-0.19,0.08,1.68,-0,6,4,0.21,,80,4542,9,28,57,0.811,0.0,457,4.85,13.2,0.0,1,26.8,1.49,5.5,0,0,0,1,0,0,250,250,0,,,,,,,,,,,,,,,,
154943,1624194710514,2,3,36,16,34,32,-3,-0.22,0.11,1.87,-0,5,3,0.25,0,81,4592,9,28,57,0.81,0.0,446,4.87,13.2,0.0,1,27.5,2.64,5.5,0,0,0,1,0,0,250,250,0,45.700356,4.909466,0.0,190.2,7,2,3.2,0,0.0,-1,0.0,,0.0,0,0.08,2.5824
154963,1624194710534,,,,,,,,-0.23,0.13,2.05,-0,3,1,0.27,,81,4565,9,28,57,0.811,0.0,460,4.89,13.0,0.0,1,27.1,1.5,5.5,0,0,0,1,0,0,250,250,0,,,,,,,,,,,,,,,,
154983,1624194710554,,,,,,,,-0.22,0.17,2.21,-0,1,-1,0.28,,81,4601,9,28,57,0.812,0.0,462,4.87,13.0,0.0,1,27.6,2.65,5.5,0,0,0,1,0,0,250,250,0,,,,,,,,,,,,,,,,
155003,1624194710574,,,,,,,,-0.17,0.16,2.36,-0,-1,-3,0.23,,81,4615,9,28,57,0.812,0.0,457,4.9,13.1,0.0,1,27.7,1.53,5.7,0,0,0,1,0,0,250,250,0,,,,,,,,,,,,,,,,
155023,1624194710594,,,,,,,,-0.09,0.12,2.34,-0,-3,-4,0.15,,81,4631,9,28,57,0.813,0.0,462,4.84,13.1,0.0,1,27.9,2.67,5.7,0,0,0,1,0,0,250,250,0,,,,,,,,,,,,,,,,
155043,1624194710614,3,1,36,16,34,32,-3,-0.03,0.08,2.15,-0,-3,-4,0.09,0,80,4672,9,28,57,0.814,0.0,457,4.85,13.2,0.0,1,28.5,2.69,5.7,0,0,0,1,0,0,250,250,0,45.700356,4.909466,0.0,190.2,7,2,3.2,0,0.0,-1,0.0,0.0,0.0,0,0.08,2.584
155063,1624194710634,,,,,,,,0.02,0.07,1.97,-0,-2,-3,0.07,,80,4621,9,28,57,0.816,0.0,467,4.86,13.2,0.0,1,27.8,2.66,5.7,0,0,0,1,0,0,250,250,0,,,,,,,,,,,,,,,,
155083,1624194710654,,,,,,,,0.04,0.04,1.8,-0,-1,-1,0.06,,81,4646,9,28,57,0.817,0.0,462,4.86,13.1,0.0,1,28.1,2.67,5.7,0,0,0,1,0,0,250,250,0,,,,,,,,,,,,,,,,
155103,1624194710674,,,,,,,,0.03,0.06,1.65,-0,1,1,0.07,,80,4633,9,28,57,0.818,0.0,451,4.87,13.2,0.0,1,28.0,2.67,5.8,0,0,0,1,0,0,250,250,0,,,,,,,,,,,,,,,,
155123,1624194710694,,,,,,,,-0.0,0.03,1.51,-0,2,2,0.03,,80,4611,9,28,57,0.82,0.0,456,4.9,13.2,0.0,1,27.7,1.52,5.8,0,0,0,1,0,0,250,250,0,,,,,,,,,,,,,,,,
155143,1624194710714,3,1,36,16,34,32,-4,-0.05,0.01,1.54,-0,3,2,0.05,0,80,4603,9,28,57,0.821,0.0,446,4.88,13.1,0.0,1,27.6,1.52,5.8,0,0,0,1,0,0,250,250,0,45.700356,4.909466,0.0,190.2,7,2,3.2,0,0.0,-1,0.0,,0.0,0,0.08,2.5857
155163,1624194710734,,,,,,,,-0.09,0.03,1.64,-0,3,2,0.1,,81,4566,9,28,57,0.823,0.0,451,4.86,13.1,0.0,1,27.1,1.5,5.8,0,0,0,1,0,0,250,250,0,,,,,,,,,,,,,,,,
155183,1624194710754,,,,,,,,-0.15,0.05,1.81,-0,4,2,0.16,,81,4544,9,28,57,0.824,0.0,446,4.81,13.2,0.0,1,26.9,1.49,5.8,0,0,0,1,0,0,250,250,0,,,,,,,,,,,,,,,,
155203,1624194710774,,,,,,,,-0.2,0.07,1.99,-0,4,2,0.21,,81,4546,9,28,57,0.825,0.0,438,4.92,13.1,0.0,1,26.9,1.49,5.5,0,0,0,1,0,0,250,250,0,,,,,,,,,,,,,,,,
155223,1624194710794,,,,,,,,-0.24,0.11,2.16,-0,3,1,0.27,,81,4549,9,28,57,0.826,0.0,451,4.93,13.0,0.0,1,26.7,1.48,5.5,0,0,0,1,0,0,250,250,0,,,,,,,,,,,,,,,,
155243,1624194710814,3,1,37,16,34,32,-3,-0.27,0.13,2.31,-0,3,0,0.3,0,81,4501,9,28,57,0.828,0.0,441,4.92,13.0,0.0,1,26.3,1.47,5.5,0,0,0,1,0,0,250,250,0,45.700356,4.909466,0.0,190.2,7,2,3.2,0,0.0,-1,0.0,0.0,0.0,0,0.08,2.5874
155263,1624194710834,,,,,,,,-0.3,0.16,2.45,-0,2,-1,0.35,,81,4516,9,28,57,0.829,0.0,444,4.87,13.2,0.0,1,26.5,1.49,5.5,0,0,0,1,0,0,250,250,0,,,,,,,,,,,,,,,,
155283,1624194710854,,,,,,,,-0.32,0.19,2.58,-0,1,-2,0.38,,81,4544,9,28,57,0.829,0.0,442,4.87,13.1,0.0,1,26.9,2.62,5.5,0,0,0,1,0,0,250,250,0,,,,,,,,,,,,,,,,
155303,1624194710874,,,,,,,,-0.35,0.23,2.7,-0,-1,-4,0.41,,81,4542,9,28,57,0.829,0.0,446,4.91,13.0,0.0,1,26.8,1.49,5.4,0,0,0,1,0,0,250,250,0,,,,,,,,,,,,,,,,
155323,1624194710894,,,,,,,,-0.34,0.25,2.81,-0,-3,-5,0.42,,81,4602,9,28,57,0.83,0.0,461,4.9,13.0,0.0,1,27.6,1.52,5.4,0,0,0,1,0,0,250,250,0,,,,,,,,,,,,,,,,
155343,1624194710914,1,2,36,16,34,32,-3,-0.32,0.26,2.9,-0,-4,-6,0.41,0,81,4547,9,28,57,0.83,0.0,454,4.93,13.1,0.0,1,26.9,2.62,5.4,0,0,0,1,0,0,250,250,0,45.700356,4.909466,0.0,190.2,7,2,3.2,0,0.0,-1,0.0,,0.0,0,0.08,2.5891
155363,1624194710934,,,,,,,,-0.23,0.19,2.72,-0,-6,-7,0.29,,81,4585,9,28,57,0.829,0.0,455,4.87,13.0,0.0,1,27.4,2.64,5.4,0,0,0,1,0,0,250,250,0,,,,,,,,,,,,,,,,
155383,1624194710954,,,,,,,,-0.15,0.15,2.49,-0,-8,-8,0.21,,81,4630,9,28,57,0.827,0.0,453,4.82,13.1,0.0,1,27.9,2.67,5.4,0,0,0,1,0,0,250,250,0,,,,,,,,,,,,,,,,
155403,1624194710974,,,,,,,,-0.1,0.13,2.28,-0,-8,-7,0.17,,81,4608,9,28,56,0.824,0.0,458,4.85,13.1,0.0,1,27.4,2.65,5.6,0,0,0,1,0,0,250,250,0,,,,,,,,,,,,,,,,
155423,1624194710994,,,,,,,,-0.07,0.11,2.09,-0,-7,-6,0.14,,81,4641,9,28,57,0.822,0.0,463,4.84,13.1,0.0,1,28.1,2.67,5.6,0,0,0,1,0,0,250,250,0,,,,,,,,,,,,,,,,
155443,1624194711002,2,2,36,16,34,32,-4,-0.06,0.1,1.92,-0,-6,-4,0.12,0,81,4586,9,28,57,0.82,0.0,446,4.89,13.2,0.0,1,27.4,2.64,5.6,0,0,0,1,0,0,250,250,0,45.700356,4.909466,0.0,190.2,7,2,3.2,0,0.0,-1,0.0,0.0,0.0,0,0.08,2.5907
155463,1624194711022,,,,,,,,-0.06,0.09,1.76,-0,-4,-2,0.11,,81,4593,9,28,57,0.818,0.0,453,4.86,13.2,0.0,1,27.5,2.64,5.6,0,0,0,1,0,0,250,250,0,,,,,,,,,,,,,,,,
155483,1624194711042,,,,,,,,-0.08,0.05,1.61,-0,-2,-1,0.09,,81,4558,9,28,57,0.816,0.0,455,4.9,13.2,0.0,1,27.0,2.63,5.6,0,0,0,1,0,0,250,250,0,,,,,,,,,,,,,,,,
155503,1624194711062,,,,,,,,-0.1,0.03,1.48,-0,-0,1,0.11,,81,4547,9,28,57,0.814,0.0,441,4.88,13.2,0.0,1,26.9,1.49,5.5,0,0,0,1,0,0,250,250,0,,,,,,,,,,,,,,,,
155523,1624194711093,,,,,,,,-0.14,0.02,1.48,-0,2,2,0.14,,81,4594,9,28,57,0.813,0.0,447,4.82,13.2,0.0,1,27.5,1.51,5.5,0,0,0,1,0,0,250,250,0,,,,,,,,,,,,,,,,
155543,1624194711113,2,1,36,16,34,32,-4,-0.2,0.05,1.64,-0,3,3,0.2,0,81,4583,9,28,57,0.813,0.0,440,4.88,13.2,0.0,1,27.3,2.64,5.5,0,0,0,1,0,0,250,250,0,45.700356,4.909466,0.0,190.2,7,2,3.2,0,0.0,-1,0.0,,0.0,0,0.08,2.5924
155563,1624194711133,,,,,,,,-0.25,0.09,1.83,-0,5,3,0.27,,81,4583,9,28,57,0.813,0.0,451,4.86,13.1,0.0,1,27.3,1.51,5.5,0,0,0,1,0,0,250,250,0,,,,,,,,,,,,,,,,
155583,1624194711153,,,,,,,,-0.28,0.11,2.01,-0,5,4,0.3,,81,4570,9,28,57,0.813,0.0,448,4.87,13.1,0.0,1,27.2,1.51,5.5,0,0,0,1,0,0,250,250,0,,,,,,,,,,,,,,,,
155603,1624194711173,,,,,,,,-0.31,0.16,2.18,-0,6,3,0.35,,81,4608,9,28,57,0.813,0.0,442,4.85,13.2,0.0,1,27.7,2.65,5.6,0,0,0,1,0,0,250,250,0,,,,,,,,,,,,,,,,
155623,1624194711193,,,,,,,,-0.31,0.19,2.33,-0,5,2,0.36,,81,4516,9,28,57,0.816,0.0,452,4.92,13.0,0.0,1,26.5,1.48,5.6,0,0,0,1,0,0,250,250,0,,,,,,,,,,,,,,,,
155643,1624194711213,1,2,37,16,34,32,-4,-0.29,0.2,2.47,-0,4,1,0.35,0,81,4515,9,28,57,0.819,0.0,441,4.85,13.1,0.0,1,26.5,1.48,5.6,0,0,0,1,0,0,250,250,0,45.700356,4.909466,0.0,190.2,7,2,3.2,0,0.0,-1,0.0,0.0,0.0,0,0.08,2.594
155663,1624194711233,,,,,,,,-0.26,0.2,2.59,-0,3,0,0.33,,81,4536,9,28,57,0.821,0.0,446,4.87,13.1,0.0,1,26.8,2.61,5.6,0,0,0,1,0,0,250,250,0,,,,,,,,,,,,,,,,
155683,1624194711253,,,,,,,,-0.24,0.21,2.71,-0,2,-1,0.32,,81,4524,9,28,57,0.824,0.0,445,4.92,13.0,0.0,1,26.6,1.48,5.6,0,0,0,1,0,0,250,250,0,,,,,,,,,,,,,,,,
155703,1624194711273,,,,,,,,-0.2,0.21,2.82,-0,-0,-3,0.29,,81,4557,9,28,57,0.825,0.0,442,4.88,13.1,0.0,1,27.0,1.5,5.5,0,0,0,1,0,0,250,250,0,,,,,,,,,,,,,,,,
155723,1624194711293,,,,,,,,-0.15,0.17,2.92,-0,-2,-4,0.23,,81,4536,9,28,57,0.826,0.0,458,4.92,13.0,0.0,1,26.8,2.61,5.5,0,0,0,1,0,0,250,250,0,,,,,,,,,,,,,,,,
155743,1624194711313,2,1,36,16,34,32,-4,-0.09,0.16,2.96,-0,-4,-6,0.18,0,81,4579,9,28,57,0.826,0.0,450,4.88,13.0,0.0,1,27.3,1.51,5.5,0,0,0,1,0,0,250,250,0,45.700356,4.909466,0.0,190.2,7,2,3.2,0,0.0,-1,0.0,,0.0,0,0.08,2.5957
155763,1624194711333,,,,,,,,-0.03,0.11,2.81,-0,-6,-7,0.11,,81,4592,9,28,57,0.827,0.0,450,4.84,13.1,0.0,1,27.5,2.64,5.5,0,0,0,1,0,0,250,250,0,,,,,,,,,,,,,,,,
155783,1624194711353,,,,,,,,0.04,0.04,2.58,-0,-7,-8,0.06,,81,4593,9,28,57,0.827,0.0,452,4.92,13.0,0.0,1,27.5,1.51,5.5,0,0,0,1,0,0,250,250,0,,,,,,,,,,,,,,,,
155803,1624194711373,,,,,,,,0.09,0.03,2.36,-0,-8,-8,0.1,,81,4612,9,28,57,0.826,0.0,458,4.85,13.0,0.0,1,27.7,2.66,5.6,0,0,0,1,0,0,250,250,0,,,,,,,,,,,,,,,,
155823,1624194711393,,,,,,,,0.13,0.03,2.17,-0,-8,-7,0.14,,81,4558,9,28,57,0.825,0.0,455,4.88,13.2,0.0,1,27.0,2.63,5.6,0,0,0,1,0,0,250,250,0,,,,,,,,,,,,,,,,
155843,1624194711413,1,3,37,16,34,32,-4,0.16,0.01,1.99,-0,-8,-7,0.16,0,81,4568,9,28,57,0.824,0.0,444,4.81,13.1,0.0,1,27.2,1.5,5.6,0,0,0,1,0,0,250,250,0,45.700356,4.909466,0.0,190.2,7,2,3.2,0,0.0,-1,0.0,0.0,0.0,0,0.08,2.5974
155863,1624194711433,,,,,,,,0.17,0.01,1.82,-0,-7,-5,0.17,,81,4563,9,28,57,0.824,0.0,456,4.95,13.2,0.0,1,27.1,2.63,5.6,0,0,0,1,0,0,250,250,0,,,,,,,,,,,,,,,,
155883,1624194711453,,,,,,,,0.17,-0.02,1.67,-0,-6,-4,0.18,,81,4524,9,28,57,0.824,0.0,445,4.92,13.2,0.0,1,26.6,2.61,5.6,0,0,0,1,0,0,250,250,0,,,,,,,,,,,,,,,,
155903,1624194711473,,,,,,,,0.17,-0.03,1.53,-0,-5,-2,0.17,,81,4554,9,28,57,0.823,0.0,440,4.9,13.2,0.0,1,27.0,2.62,5.5,0,0,0,1,0,0,250,250,0,,,,,,,,,,,,,,,,
155923,1624194711494,,,,,,,,0.16,-0.04,1.4,-0,-3,-1,0.17,,81,4520,9,28,57,0.823,0.0,450,4.89,13.1,0.0,1,26.6,2.61,5.5,0,0,0,1,0,0,250,250,0,,,,,,,,,,,,,,,,
155943,1624194711514,1,2,37,16,34,32,-4,0.15,-0.03,1.28,-0,-1,1,0.16,0,81,4532,9,28,57,0.824,0.0,435,4.85,13.2,0.0,1,26.7,2.61,5.5,0,0,0,1,0,0,250,250,0,45.700356,4.909466,0.0,190.2,7,2,3.2,0,0.0,-1,0.0,,0.0,0,0.08,2.5991
155963,1624194711534,,,,,,,,0.14,-0.05,1.18,-0,0,2,0.15,,81,4547,9,28,57,0.825,0.0,442,4.88,13.2,0.0,1,26.9,2.62,5.5,0,0,0,1,0,0,250,250,0,,,,,,,,,,,,,,,,
155983,1624194711554,,,,,,,,0.12,-0.07,1.08,-0,2,3,0.14,,81,4547,9,28,57,0.826,0.0,448,4.9,13.2,0.0,1,26.9,1.49,5.5,0,0,0,1,0,0,250,250,0,,,,,,,,,,,,,,,,
156003,1624194711574,,,,,,,,0.09,-0.06,0.99,-0,4,5,0.11,,81,4570,9,28,57,0.827,0.0,441,4.82,13.2,0.0,1,27.2,2.64,5.5,0,0,0,1,0,0,250,250,0,,,,,,,,,,,,,,,,
156023,1624194711593,,,,,,,,0.05,-0.05,0.9,0,5,6,0.07,,81,4544,9,28,57,0.828,0.0,448,4.86,13.2,0.0,1,26.9,2.62,5.5,0,0,0,1,0,0,250,250,0,,,,,,,,,,,,,,,,
156043,1624194711613,3,2,36,16,34,32,-4,-0.01,-0.04,0.91,0,7,7,0.04,0,81,4552,9,28,57,0.828,0.0,439,4.89,13.2,0.0,1,27.0,1.49,5.5,0,0,0,1,0,0,250,250,0,45.700356,4.909466,0.0,190.2,7,2,3.2,0,0.0,-1,0.0,0.0,0.0,0,0.08,2.6007
156063,1624194711633,,,,,,,,-0.07,-0.01,1.12,0,8,7,0.08,,81,4588,9,28,57,0.829,0.0,451,4.85,13.2,0.0,1,27.4,2.64,5.5,0,0,0,1,0,0,250,250,0,,,,,,,,,,,,,,,,
156083,1624194711653,,,,,,,,-0.13,0.02,1.36,0,7,7,0.13,,81,4586,9,28,57,0.83,0.0,442,4.85,13.2,0.0,1,27.4,2.64,5.5,0,0,0,1,0,0,250,250,0,,,,,,,,,,,,,,,,
156103,1624194711673,,,,,,,,-0.18,0.06,1.58,-0,7,6,0.19,,81,4605,9,28,57,0.83,0.0,447,4.85,13.1,0.0,1,27.7,1.53,5.6,0,0,0,1,0,0,250,250,0,,,,,,,,,,,,,,,,
156123,1624194711693,,,,,,,,-0.2,0.1,1.78,-0,6,5,0.22,,81,4631,9,28,57,0.829,0.0,463,4.83,13.1,0.0,1,27.9,1.51,5.6,0,0,0,1,0,0,250,250,0,,,,,,,,,,,,,,,,
156143,1624194711713,1,2,37,16,34,32,-4,-0.18,0.11,1.96,-0,4,3,0.21,0,81,4592,9,28,57,0.828,0.0,451,4.87,13.1,0.0,1,27.5,2.64,5.6,0,0,0,1,0,0,250,250,0,45.700356,4.909466,0.0,190.2,7,2,3.2,0,0.0,-1,0.0,,0.0,0,0.08,2.6024
156163,1624194711733,,,,,,,,-0.14,0.11,2.13,-0,2,1,0.18,,81,4587,9,28,57,0.827,0.0,451,4.88,13.0,0.0,1,27.4,2.64,5.6,0,0,0,1,0,0,250,250,0,,,,,,,,,,,,,,,,
156183,1624194711753,,,,,,,,-0.08,0.09,2.26,-0,-0,-1,0.12,,81,4574,9,28,57,0.826,0.0,452,4.93,13.0,0.0,1,27.2,2.64,5.6,0,0,0,1,0,0,250,250,0,,,,,,,,,,,,,,,,
156203,1624194711773,,,,,,,,-0.01,0.08,2.25,-0,-2,-3,0.08,,81,4539,9,28,57,0.825,0.0,448,4.81,13.1,0.0,1,26.8,1.48,5.5,0,0,0,1,0,0,250,250,0,,,,,,,,,,,,,,,,
156223,1624194711793,,,,,,,,0.05,0.06,2.18,-0,-4,-4,0.08,,81,4522,9,28,57,0.824,0.0,453,4.84,13.1,0.0,1,26.6,2.61,5.5,0,0,0,1,0,0,250,250,0,,,,,,,,,,,,,,,,
156243,1624194711813,2,3,36,16,34,32,-4,0.1,0.06,2.1,-0,-6,-5,0.11,0,81,4510,9,28,57,0.823,0.0,444,4.89,13.0,0.0,1,26.4,1.47,5.5,0,0,0,1,0,0,250,250,0,45.700356,4.909466,0.0,190.2,7,2,3.2,0,0.0,-1,0.0,0.0,0.0,0,0.08,2.604
156263,1624194711833,,,,,,,,0.14,0.05,2.01,-0,-7,-6,0.15,,81,4511,9,28,57,0.823,0.0,452,4.85,13.1,0.0,1,26.4,1.47,5.5,0,0,0,1,0,0,250,250,0,,,,,,,,,,,,,,,,
156283,1624194711853,,,,,,,,0.2,0.0,1.89,-0,-9,-7,0.2,,81,4543,9,28,57,0.824,0.0,451,4.82,13.1,0.0,1,26.8,2.62,5.5,0,0,0,1,0,0,250,250,0,,,,,,,,,,,,,,,,
156303,1624194711873,,,,,,,,0.24,-0.02,1.73,-0,-10,-7,0.24,,81,4553,9,28,57,0.824,0.0,442,4.83,13.1,0.0,1,27.0,2.62,5.5,0,0,0,1,0,0,250,250,0,,,,,,,,,,,,,,,,
156323,1624194711893,,,,,,,,0.27,-0.03,1.59,-0,-10,-7,0.27,,81,4595,9,28,57,0.824,0.0,456,4.83,13.1,0.0,1,27.5,2.65,5.5,0,0,0,1,0,0,250,250,0,,,,,,,,,,,,,,,,
156343,1624194711913,1,2,37,16,34,32,-4,0.29,-0.03,1.46,-0,-10,-6,0.29,0,81,4617,9,28,57,0.825,0.0,451,4.89,13.1,0.0,1,27.8,2.66,5.5,0,0,0,1,0,0,250,250,0,45.700356,4.909466,0.0,190.2,7,2,3.2,0,0.0,-1,0.0,,0.0,0,0.08,2.6057
156363,1624194711933,,,,,,,,0.3,-0.04,1.33,-0,-8,-4,0.3,,81,4605,9,28,57,0.825,0.0,451,4.89,13.2,0.0,1,27.6,2.65,5.5,0,0,0,1,0,0,250,250,0,,,,,,,,,,,,,,,,
156383,1624194711953,,,,,,,,0.29,-0.05,1.22,-0,-6,-2,0.29,,81,4612,9,28,57,0.826,0.0,456,4.86,13.2,0.0,1,27.7,1.53,5.5,0,0,0,1,0,0,250,250,0,,,,,,,,,,,,,,,,
156403,1624194711973,,,,,,,,0.25,-0.05,1.12,-0,-3,-1,0.26,,81,4583,9,28,57,0.826,0.0,451,4.85,13.2,0.0,1,27.3,2.64,5.6,0,0,0,1,0,0,250,250,0,,,,,,,,,,,,,,,,
156423,1624194711993,,,,,,,,0.21,-0.06,1.03,-0,-2,1,0.22,,81,4579,9,28,57,0.827,0.0,453,4.91,13.2,0.0,1,27.3,2.64,5.6,0,0,0,1,0,0,250,250,0,,,,,,,,,,,,,,,,
156443,1624194712003,2,0,37,16,34,32,-4,0.15,-0.07,0.95,-0,0,2,0.17,0,81,4592,9,28,57,0.826,0.0,444,4.85,13.2,0.0,1,27.5,2.64,5.6,0,0,0,1,0,0,250,250,0,45.700356,4.909466,0.0,190.2,7,2,3.2,0,0.0,-1,0.0,0.0,0.0,0,0.08,2.6074
156463,1624194712023,,,,,,,,0.09,-0.04,1.01,-0,2,3,0.09,,81,4557,9,28,57,0.826,0.0,448,4.87,13.2,0.0,1,27.0,1.5,5.6,0,0,0,1,0,0,250,250,0,,,,,,,,,,,,,,,,
156483,1624194712043,,,,,,,,0.01,-0.01,1.15,-0,3,3,0.02,,81,4533,9,28,57,0.825,0.0,440,4.84,13.2,0.0,1,26.7,2.61,5.6,0,0,0,1,0,0,250,250,0,,,,,,,,,,,,,,,,
156503,1624194712063,,,,,,,,-0.05,-0.01,1.35,-0,4,4,0.05,,81,4567,9,28,57,0.825,0.0,440,4.85,13.1,0.0,1,27.1,1.5,5.5,0,0,0,1,0,0,250,250,0,,,,,,,,,,,,,,,,
156523,1624194712092,,,,,,,,-0.11,0.04,1.57,-0,5,4,0.12,,81,4538,9,28,57,0.824,0.0,450,4.82,13.1,0.0,1,26.8,1.48,5.5,0,0,0,1,0,0,250,250,0,,,,,,,,,,,,,,,,
156543,1624194712112,1,2,37,16,34,32,-3,-0.16,0.07,1.77,-0,5,3,0.18,0,81,4546,9,28,57,0.823,0.0,437,4.83,13.2,0.0,1,26.9,2.62,5.5,0,0,0,1,0,0,250,250,0,45.700356,4.909466,0.0,190.2,7,2,3.2,0,0.0,-1,0.0,,0.0,0,0.08,2.6091
156563,1624194712132,,,,,,,,-0.21,0.12,1.96,-0,4,2,0.24,,81,4567,9,28,57,0.822,0.0,450,4.9,13.0,0.0,1,27.1,1.5,5.5,0,0,0,1,0,0,250,250,0,,,,,,,,,,,,,,,,
156583,1624194712152,,,,,,,,-0.22,0.16,2.13,-0,3,1,0.28,,81,4579,9,28,57,0.821,0.0,445,4.86,13.1,0.0,1,27.3,1.51,5.5,0,0,0,1,0,0,250,250,0,,,,,,,,,,,,,,,,
156603,1624194712172,,,,,,,,-0.24,0.2,2.28,-0,2,-0,0.31,,81,4548,9,28,57,0.822,0.0,446,4.92,13.1,0.0,1,26.9,2.62,5.5,0,0,0,1,0,0,250,250,0,,,,,,,,,,,,,,,,
156623,1624194712192,,,,,,,,-0.22,0.21,2.42,-0,0,-2,0.3,,81,4547,9,28,57,0.822,0.0,454,4.9,12.9,0.0,1,26.9,1.49,5.5,0,0,0,1,0,0,250,250,0,,,,,,,,,,,,,,,,
156643,1624194712212,2,2,36,16,34,32,-4,-0.18,0.18,2.56,-0,-2,-3,0.25,0,81,4569,9,28,57,0.822,0.0,448,4.88,13.0,0.0,1,27.2,2.63,5.5,0,0,0,1,0,0,250,250,0,45.700356,4.909466,0.0,190.2,7,2,3.2,0,0.0,-1,0.0,0.0,0.0,0,0.08,2.6107
156663,1624194712232,,,,,,,,-0.13,0.17,2.68,-0,-4,-5,0.22,,81,4524,9,28,57,0.823,0.0,455,4.92,13.0,0.0,1,26.6,1.48,5.5,0,0,0,1,0,0,250,250,0,,,,,,,,,,,,,,,,
156683,1624194712252,,,,,,,,-0.08,0.16,2.79,-0,-6,-6,0.18,,81,4576,9,28,57,0.823,0.0,454,4.88,13.0,0.0,1,27.3,2.64,5.5,0,0,0,1,0,0,250,250,0,,,,,,,,,,,,,,,,
156703,1624194712272,,,,,,,,-0.01,0.12,2.74,-0,-7,-7,0.12,,81,4574,9,28,57,0.823,0.0,446,4.82,13.1,0.0,1,27.2,2.64,5.5,0,0,0,1,0,0,250,250,0,,,,,,,,,,,,,,,,
156723,1624194712293,,,,,,,,0.05,0.12,2.62,-0,-9,-8,0.13,,81,4548,9,28,57,0.823,0.0,462,4.87,13.0,0.0,1,26.9,1.49,5.5,0,0,0,1,0,0,250,250,0,,,,,,,,,,,,,,,,
156743,1624194712313,2,1,37,16,34,32,-4,0.11,0.08,2.4,-0,-9,-8,0.13,0,81,4605,9,28,57,0.823,0.0,447,4.87,13.0,0.0,1,27.6,2.65,5.5,0,0,0,1,0,0,250,250,0,45.700356,4.909466,0.0,190.2,7,2,3.2,0,0.0,-1,0.0,,0.0,0,0.08,2.6124
156763,1624194712333,,,,,,,,0.15,0.05,2.2,-0,-10,-8,0.16,,81,4542,9,28,57,0.822,0.0,451,4.85,13.1,0.0,1,26.8,2.62,5.5,0,0,0,1,0,0,250,250,0,,,,,,,,,,,,,,,,
156783,1624194712353,,,,,,,,0.2,-0.01,2.02,-0,-10,-7,0.2,,81,4576,9,28,57,0.822,0.0,451,4.88,13.1,0.0,1,27.3,2.64,5.5,0,0,0,1,0,0,250,250,0,,,,,,,,,,,,,,,,
156803,1624194712373,,,,,,,,0.21,-0.02,1.85,-0,-9,-4,0.21,,81,4629,9,28,57,0.821,0.0,450,4.91,13.2,0.0,1,27.9,2.67,5.7,0,0,0,1,0,0,250,250,0,,,,,,,,,,,,,,,,
156823,1624194712392,,,,,,,,0.21,-0.03,1.69,-0,-6,-2,0.21,,81,4602,9,28,57,0.82,0.0,455,4.91,13.2,0.0,1,27.6,2.65,5.7,0,0,0,1,0,0,250,250,0,,,,,,,,,,,,,,,,
156843,1624194712412,1,2,37,16,34,32,-4,0.18,-0.04,1.55,-0,-4,-0,0.18,0,81,4650,9,28,57,0.82,0.0,450,4.9,13.2,0.0,1,28.2,2.68,5.7,0,0,0,1,0,0,250,250,0,45.700356,4.909466,0.0,190.2,7,2,3.2,0,0.0,-1,0.0,0.0,0.0,0,0.08,2.614
156863,1624194712432,,,,,,,,0.13,-0.03,1.42,-0,-1,1,0.13,,81,4619,9,28,57,0.82,0.0,450,4.84,13.2,0.0,1,27.8,1.53,5.7,0,0,0,1,0,0,250,250,0,,,,,,,,,,,,,,,,
156883,1624194712452,,,,,,,,0.07,-0.02,1.51,-0,0,1,0.07,,81,4645,9,28,57,0.819,0.0,450,4.87,13.2,0.0,1,28.1,2.67,5.7,0,0,0,1,0,0,250,250,0,,,,,,,,,,,,,,,,
156903,1624194712472,,,,,,,,0.01,0.04,1.72,-0,0,0,0.04,,81,4600,9,28,57,0.819,0.0,453,4.86,13.1,0.0,1,27.6,1.51,5.6,0,0,0,1,0,0,250,250,0,,,,,,,,,,,,,,,,
156923,1624194712492,,,,,,,,-0.04,0.08,1.91,-0,0,0,0.09,,81,4555,9,28,57,0.819,0.0,453,4.83,13.1,0.0,1,27.0,1.49,5.6,0,0,0,1,0,0,250,250,0,,,,,,,,,,,,,,,,
156943,1624194712512,2,2,37,16,34,32,-5,-0.09,0.13,2.08,-0,-1,-1,0.16,0,81,4597,9,28,57,0.819,0.0,451,4.86,13.1,0.0,1,27.5,1.52,5.6,0,0,0,1,0,0,250,250,0,45.700356,4.909466,0.0,190.2,7,2,3.2,0,0.0,-1,0.0,,0.0,0,0.08,2.6157
156963,1624194712532,,,,,,,,-0.1,0.13,2.24,-0,-2,-2,0.17,,81,4566,9,28,57,0.82,0.0,447,4.87,12.9,0.0,1,27.1,1.5,5.6,0,0,0,1,0,0,250,250,0,,,,,,,,,,,,,,,,
156983,1624194712552,,,,,,,,-0.09,0.12,2.39,-0,-5,-4,0.15,,81,4606,9,28,57,0.82,0.0,459,4.84,13.0,0.0,1,27.6,2.65,5.6,0,0,0,1,0,0,250,250,0,,,,,,,,,,,,,,,,
157003,1624194712572,,,,,,,,-0.05,0.12,2.52,-0,-6,-5,0.13,,81,4569,9,28,56,0.821,0.0,450,4.85,13.1,0.0,1,26.9,2.63,5.6,0,0,0,1,0,0,250,250,0,,,,,,,,,,,,,,,,
157023,1624194712594,,,,,,,,-0.01,0.1,2.6,-0,-8,-7,0.1,,81,4547,9,28,57,0.823,0.0,455,4.94,13.0,0.0,1,26.9,1.49,5.6,0,0,0,1,0,0,250,250,0,,,,,,,,,,,,,,,,
157043,1624194712614,1,2,37,16,34,32,-4,0.05,0.06,2.49,-0,-9,-7,0.08,0,81,4595,9,28,57,0.824,0.0,450,4.89,13.0,0.0,1,27.5,2.65,5.6,0,0,0,1,0,0,250,250,0,45.700356,4.909466,0.0,190.2,7,2,3.2,0,0.0,-1,0.0,0.0,0.0,0,0.08,2.6174
157063,1624194712634,,,,,,,,0.11,0.03,2.28,-0,-10,-7,0.11,,81,4555,9,28,57,0.825,0.0,447,4.82,13.1,0.0,1,27.0,2.62,5.6,0,0,0,1,0,0,250,250,0,,,,,,,,,,,,,,,,
157083,1624194712654,,,,,,,,0.16,0.02,2.09,-0,-9,-6,0.17,,81,4587,9,28,57,0.826,0.0,451,4.82,13.1,0.0,1,27.4,2.64,5.6,0,0,0,1,0,0,250,250,0,,,,,,,,,,,,,,,,
157103,1624194712674,,,,,,,,0.2,0.0,1.91,-0,-8,-5,0.2,,81,4601,9,28,57,0.826,0.0,446,4.82,13.1,0.0,1,27.6,2.65,5.6,0,0,0,1,0,0,250,250,0,,,,,,,,,,,,,,,,
157123,1624194712694,,,,,,,,0.24,-0.02,1.75,-0,-7,-3,0.24,,81,4562,9,28,57,0.826,0.0,448,4.91,13.1,0.0,1,27.1,2.63,5.6,0,0,0,1,0,0,250,250,0,,,,,,,,,,,,,,,,
157143,1624194712714,1,2,37,16,34,32,-3,0.24,-0.05,1.61,-0,-5,-2,0.25,0,81,4589,9,28,57,0.826,0.0,440,4.89,13.2,0.0,1,27.4,2.64,5.6,0,0,0,1,0,0,250,250,0,45.700356,4.909466,0.0,190.2,7,2,3.2,0,0.0,-1,0.0,,0.0,0,0.08,2.6191
157163,1624194712734,,,,,,,,0.25,-0.06,1.47,-0,-3,-0,0.25,,81,4539,9,28,57,0.826,0.0,450,4.89,13.2,0.0,1,26.8,2.61,5.6,0,0,0,1,0,0,250,250,0,,,,,,,,,,,,,,,,
157183,1624194712754,,,,,,,,0.24,-0.07,1.35,-0,-1,1,0.25,,81,4528,9,28,57,0.825,0.0,447,4.88,13.2,0.0,1,26.7,2.61,5.6,0,0,0,1,0,0,250,250,0,,,,,,,,,,,,,,,,
157203,1624194712774,,,,,,,,0.22,-0.05,1.24,-0,1,3,0.23,,81,4573,9,28,57,0.825,0.0,439,4.85,13.2,0.0,1,27.2,2.64,5.5,0,0,0,1,0,0,250,250,0,,,,,,,,,,,,,,,,
157223,1624194712794,,,,,,,,0.2,-0.06,1.13,-0,2,4,0.21,,81,4524,9,28,57,0.824,0.0,446,4.91,13.2,0.0,1,26.6,2.61,5.5,0,0,0,1,0,0,250,250,0,,,,,,,,,,,,,,,,
157243,1624194712814,1,2,37,16,34,32,-4,0.18,-0.09,1.04,-0,4,5,0.2,0,81,4539,9,28,57,0.823,0.0,437,4.9,13.2,0.0,1,26.8,2.61,5.5,0,0,0,1,0,0,250,250,0,45.700356,4.909466,0.0,190.2,7,2,3.2,0,0.0,-1,0.0,0.0,0.0,0,0.08,2.6207
157263,1624194712834,,,,,,,,0.15,-0.1,0.95,0,6,6,0.18,,81,4555,9,28,57,0.821,0.0,442,4.88,13.2,0.0,1,27.0,2.62,5.5,0,0,0,1,0,0,250,250,0,,,,,,,,,,,,,,,,
157283,1624194712854,,,,,,,,0.11,-0.09,0.87,0,8,7,0.14,,81,4514,9,28,57,0.82,0.0,436,4.81,13.2,0.0,1,26.5,1.48,5.5,0,0,0,1,0,0,250,250,0,,,,,,,,,,,,,,,,
157303,1624194712874,,,,,,,,0.03,-0.05,1.13,0,9,7,0.06,,81,4568,9,28,57,0.818,0.0,436,4.87,13.2,0.0,1,27.2,1.5,5.5,0,0,0,1,0,0,250,250,0,,,,,,,,,,,,,,,,
157323,1624194712892,,,,,,,,-0.02,-0.05,1.17,0,10,7,0.06,,81,4573,9,28,57,0.817,0.0,456,4.86,13.1,0.0,1,27.2,1.51,5.5,0,0,0,1,0,0,250,250,0,,,,,,,,,,,,,,,,
157343,1624194712912,1,2,37,16,34,32,-4,-0.06,0.01,1.41,0,9,7,0.06,0,81,4569,9,28,57,0.817,0.0,448,4.89,13.1,0.0,1,27.2,1.5,5.5,0,0,0,1,0,0,250,250,0,45.700356,4.909466,0.0,190.2,7,2,3.2,0,0.0,-1,0.0,,0.0,0,0.08,2.6224
157363,1624194712932,,,,,,,,-0.08,0.06,1.62,0,8,6,0.1,,81,4621,9,28,57,0.816,0.0,447,4.85,13.1,0.0,1,27.8,1.53,5.5,0,0,0,1,0,0,250,250,0,,,,,,,,,,,,,,,,
157383,1624194712952,,,,,,,,-0.06,0.08,1.82,-0,6,4,0.09,,81,4591,9,28,57,0.816,0.0,450,4.86,13.1,0.0,1,27.4,2.64,5.5,0,0,0,1,0,0,250,250,0,,,,,,,,,,,,,,,,
157403,1624194712972,,,,,,,,-0.01,0.06,1.93,-0,3,2,0.07,,81,4621,9,28,57,0.816,0.0,453,4.9,13.0,0.0,1,27.8,1.53,5.6,0,0,0,1,0,0,250,250,0,,,,,,,,,,,,,,,,
157423,1624194712992,,,,,,,,0.05,0.04,1.81,-0,1,0,0.06,,81,4585,9,28,57,0.816,0.0,467,4.9,13.0,0.0,1,27.4,2.64,5.6,0,0,0,1,0,0,250,250,0,,,,,,,,,,,,,,,,
157443,1624194713000,0,1,37,16,34,32,-3,0.09,0.02,1.66,-0,-1,-2,0.09,0,81,4516,9,28,57,0.817,0.0,447,4.91,13.0,0.0,1,26.5,2.61,5.6,0,0,0,1,0,0,250,250,0,45.700356,4.909466,0.0,190.2,7,2,3.2,0,0.0,-1,0.0,0.0,0.0,0,0.08,2.6241
157463,1624194713020,,,,,,,,0.15,-0.02,1.52,-0,-3,-3,0.15,,81,4587,9,28,57,0.819,0.0,446,4.82,13.0,0.0,1,27.4,2.64,5.6,0,0,0,1,0,0,250,250,0,,,,,,,,,,,,,,,,
157483,1624194713040,,,,,,,,0.19,-0.03,1.39,-0,-4,-4,0.19,,81,4538,9,28,57,0.82,0.0,454,4.83,13.1,0.0,1,26.8,2.61,5.6,0,0,0,1,0,0,250,250,0,,,,,,,,,,,,,,,,
157503,1624194713060,,,,,,,,0.23,-0.05,1.28,-0,-5,-4,0.23,,81,4574,9,28,57,0.82,0.0,443,4.88,13.0,0.0,1,27.2,2.64,5.5,0,0,0,1,0,0,250,250,0,,,,,,,,,,,,,,,,
157523,1624194713094,,,,,,,,0.25,-0.06,1.17,-0,-6,-4,0.25,,81,4591,9,28,57,0.821,0.0,449,4.84,13.1,0.0,1,27.4,2.64,5.5,0,0,0,1,0,0,250,250,0,,,,,,,,,,,,,,,,
157543,1624194713114,-1,1,37,16,34,32,-4,0.27,-0.07,1.07,-0,-6,-3,0.28,0,81,4538,9,28,57,0.822,0.0,440,4.88,13.1,0.0,1,26.8,2.61,5.5,0,0,0,1,0,0,250,250,0,45.700356,4.909466,0.0,190.2,7,2,3.2,0,0.0,-1,0.0,,0.0,0,0.08,2.6257
157563,1624194713134,,,,,,,,0.25,-0.09,0.98,-0,-5,-2,0.27,,81,4630,9,28,57,0.823,0.0,450,4.93,13.2,0.0,1,27.9,2.67,5.5,0,0,0,1,0,0,250,250,0,,,,,,,,,,,,,,,,
157583,1624194713154,,,,,,,,0.23,-0.11,0.9,-0,-3,0,0.26,,81,4567,9,28,57,0.824,0.0,459,4.9,13.2,0.0,1,27.1,2.63,5.5,0,0,0,1,0,0,250,250,0,,,,,,,,,,,,,,,,
157603,1624194713174,,,,,,,,0.21,-0.13,0.83,-0,-1,2,0.25,,81,4567,9,28,57,0.825,0.0,440,4.88,13.2,0.0,1,27.1,2.63,5.4,0,0,0,1,0,0,250,250,0,,,,,,,,,,,,,,,,
157623,1624194713191,,,,,,,,0.16,-0.12,0.76,-0,1,3,0.2,,81,4596,9,28,57,0.826,0.0,451,4.97,13.1,0.0,1,27.5,2.65,5.4,0,0,0,1,0,0,250,250,0,,,,,,,,,,,,,,,,
157643,1624194713211,-1,2,37,16,34,32,-3,0.1,-0.09,0.74,-0,3,5,0.14,0,81,4544,9,28,57,0.827,0.0,440,4.89,13.2,0.0,1,26.9,2.62,5.4,0,0,0,1,0,0,250,250,0,45.700356,4.909466,0.0,190.2,7,2,3.2,0,0.0,-1,0.0,0.0,0.0,0,0.08,2.6274
157663,1624194713231,,,,,,,,0.03,-0.05,0.95,0,4,5,0.06,,81,4586,9,28,57,0.826,0.0,448,4.83,13.2,0.0,1,27.4,2.64,5.4,0,0,0,1,0,0,250,250,0,,,,,,,,,,,,,,,,
157683,1624194713251,,,,,,,,-0.03,-0.01,1.2,-0,5,5,0.03,,81,4609,9,28,57,0.825,0.0,446,4.87,13.2,0.0,1,27.7,1.52,5.4,0,0,0,1,0,0,250,250,0,,,,,,,,,,,,,,,,
157703,1624194713271,,,,,,,,-0.09,0.05,1.43,-0,5,5,0.1,,81,4602,9,28,57,0.824,0.0,443,4.85,13.2,0.0,1,27.6,2.65,5.6,0,0,0,1,0,0,250,250,0,,,,,,,,,,,,,,,,
157723,1624194713291,,,,,,,,-0.11,0.07,1.65,-0,4,4,0.13,,81,4630,9,28,57,0.823,0.0,468,4.91,13.0,0.0,1,27.7,1.53,5.6,0,0,0,1,0,0,250,250,0,,,,,,,,,,,,,,,,
157743,1624194713311,-1,2,36,16,34,32,-4,-0.1,0.08,1.84,-0,3,2,0.12,0,81,4570,9,28,57,0.822,0.0,463,4.91,13.0,0.0,1,27.2,1.51,5.6,0,0,0,1,0,0,250,250,0,45.700356,4.909466,0.0,190.2,7,2,3.2,0,0.0,-1,0.0,,0.0,0,0.08,2.629
157763,1624194713331,,,,,,,,-0.06,0.08,2.02,-0,1,1,0.1,,81,4604,9,28,57,0.822,0.0,452,4.87,13.0,0.0,1,27.6,1.52,5.6,0,0,0,1,0,0,250,250,0,,,,,,,,,,,,,,,,
157783,1624194713351,,,,,,,,-0.01,0.05,2.12,-0,-1,-1,0.05,,81,4559,9,28,57,0.821,0.0,460,4.88,13.0,0.0,1,27.0,2.63,5.6,0,0,0,1,0,0,250,250,0,,,,,,,,,,,,,,,,
157803,1624194713371,,,,,,,,0.05,0.01,2.1,-0,-3,-3,0.06,,81,4547,9,28,56,0.821,0.0,446,4.88,13.0,0.0,1,26.6,2.62,5.4,0,0,0,1,0,0,250,250,0,,,,,,,,,,,,,,,,
157823,1624194713393,,,,,,,,0.11,0.01,1.95,-0,-5,-4,0.11,,81,4563,9,28,57,0.82,0.0,460,4.91,13.0,0.0,1,27.1,1.5,5.4,0,0,0,1,0,0,250,250,0,,,,,,,,,,,,,,,,
157843,1624194713413,0,3,36,16,34,32,-4,0.15,0.0,1.79,-0,-6,-6,0.15,0,81,4523,9,28,57,0.818,0.0,450,4.9,13.0,0.0,1,26.6,2.61,5.4,0,0,0,1,0,0,250,250,0,45.700356,4.909466,0.0,190.2,7,2,3.2,0,0.0,-1,0.0,0.0,0.0,0,0.08,2.6307
157863,1624194713433,,,,,,,,0.19,-0.01,1.64,-0,-8,-7,0.19,,81,4515,9,28,57,0.817,0.0,443,4.87,13.1,0.0,1,26.5,2.61,5.4,0,0,0,1,0,0,250,250,0,,,,,,,,,,,,,,,,
157883,1624194713453,,,,,,,,0.23,-0.06,1.5,-0,-9,-7,0.24,,81,4494,9,28,57,0.815,0.0,452,4.89,13.0,0.0,1,26.2,2.59,5.4,0,0,0,1,0,0,250,250,0,,,,,,,,,,,,,,,,
157903,1624194713473,,,,,,,,0.26,-0.07,1.38,-0,-10,-8,0.27,,81,4514,9,28,57,0.815,0.0,439,4.87,13.0,0.0,1,26.5,2.61,5.4,0,0,0,1,0,0,250,250,0,,,,,,,,,,,,,,,,
157923,1624194713491,,,,,,,,0.29,-0.08,1.26,-0,-11,-8,0.3,,81,4562,9,28,57,0.815,0.0,446,4.83,13.2,0.0,1,27.1,2.63,5.4,0,0,0,1,0,0,250,250,0,,,,,,,,,,,,,,,,
157943,1624194713511,-0,3,36,16,34,32,-3,0.32,-0.09,1.16,-0,-11,-8,0.33,0,81,4543,9,28,57,0.816,0.0,438,4.85,13.1,0.0,1,26.8,2.62,5.4,0,0,0,1,0,0,250,250,0,45.700356,4.909466,0.0,190.2,7,2,3.2,0,0.0,-1,0.0,,0.0,0,0.08,2.6324
157963,1624194713531,,,,,,,,0.34,-0.12,1.06,-0,-10,-8,0.36,,81,4606,9,28,57,0.816,0.0,447,4.91,13.1,0.0,1,27.6,1.52,5.4,0,0,0,1,0,0,250,250,0,,,,,,,,,,,,,,,,
157983,1624194713551,,,,,,,,0.33,-0.14,0.97,-0,-9,-6,0.36,,81,4634,9,28,57,0.817,0.0,458,4.89,13.2,0.0,1,28.0,2.67,5.4,0,0,0,1,0,0,250,250,0,,,,,,,,,,,,,,,,
158003,1624194713571,,,,,,,,0.31,-0.15,0.89,-0,-6,-3,0.35,,81,4604,9,28,57,0.818,0.0,446,4.9,13.2,0.0,1,27.6,2.65,5.6,0,0,0,1,0,0,250,250,0,,,,,,,,,,,,,,,,
158023,1624194713593,,,,,,,,0.27,-0.13,0.82,-0,-4,-1,0.31,,81,4645,9,28,57,0.818,0.0,457,4.91,13.2,0.0,1,28.1,2.67,5.6,0,0,0,1,0,0,250,250,0,,,,,,,,,,,,,,,,
158043,1624194713613,0,1,37,16,34,32,-4,0.21,-0.13,0.82,-0,-2,0,0.25,0,81,4625,9,28,57,0.819,0.0,452,4.87,13.1,0.0,1,27.9,1.54,5.6,0,0,0,1,0,0,250,250,0,45.700356,4.909466,0.0,190.2,7,2,3.2,0,0.0,-1,0.0,0.0,0.0,0,0.08,2.634
158063,1624194713633,,,,,,,,0.15,-0.09,1.08,-0,-1,1,0.18,,81,4612,9,28,57,0.82,0.0,451,4.85,13.1,0.0,1,27.7,1.53,5.6,0,0,0,1,0,0,250,250,0,,,,,,,,,,,,,,,,
158083,1624194713653,,,,,,,,0.08,-0.02,1.33,-0,-1,0,0.08,,81,4634,9,28,57,0.82,0.0,462,4.85,13.1,0.0,1,28.0,1.54,5.6,0,0,0,1,0,0,250,250,0,,,,,,,,,,,,,,,,
158103,1624194713673,,,,,,,,0.04,0.03,1.55,-0,-2,-1,0.05,,81,4597,9,28,57,0.82,0.0,449,4.84,13.1,0.0,1,27.6,2.65,5.6,0,0,0,1,0,0,250,250,0,,,,,,,,,,,,,,,,
158123,1624194713693,,,,,,,,0.02,0.06,1.75,-0,-2,-1,0.06,,81,4563,9,28,57,0.82,0.0,467,4.87,13.0,0.0,1,27.1,1.5,5.6,0,0,0,1,0,0,250,250,0,,,,,,,,,,,,,,,,
158143,1624194713713,-0,3,36,16,34,32,-3,0.03,0.07,1.94,-0,-3,-3,0.08,0,81,4560,9,28,57,0.82,0.0,455,4.88,13.0,0.0,1,27.1,1.5,5.6,0,0,0,1,0,0,250,250,0,45.700352,4.909463,0.0,192.3,7,2,3.2,0,0.0,-1,0.0,,0.0,0,0.08,2.6357
158163,1624194713733,,,,,,,,0.05,0.05,2.09,-0,-5,-4,0.07,,81,4548,9,28,57,0.82,0.0,450,4.92,13.0,0.0,1,26.9,2.62,5.6,0,0,0,1,0,0,250,250,0,,,,,,,,,,,,,,,,
158183,1624194713753,,,,,,,,0.09,0.03,2.22,-0,-6,-5,0.09,,81,4552,9,28,57,0.82,0.0,458,4.82,13.0,0.0,1,27.0,2.62,5.6,0,0,0,1,0,0,250,250,0,,,,,,,,,,,,,,,,
158203,1624194713773,,,,,,,,0.12,0.02,2.27,-0,-7,-7,0.12,,81,4567,9,28,57,0.82,0.0,448,4.91,13.0,0.0,1,27.1,2.63,5.5,0,0,0,1,0,0,250,250,0,,,,,,,,,,,,,,,,
158223,1624194713793,,,,,,,,0.15,-0.0,2.22,-0,-8,-8,0.15,,81,4521,9,28,57,0.821,0.0,457,4.87,13.0,0.0,1,26.6,2.61,5.5,0,0,0,1,0,0,250,250,0,,,,,,,,,,,,,,,,
158243,1624194713813,-0,2,37,16,34,32,-3,0.19,-0.0,2.11,-0,-10,-8,0.19,0,81,4567,9,28,57,0.821,0.0,453,4.87,13.1,0.0,1,27.1,2.63,5.5,0,0,0,1,0,0,250,250,0,45.700352,4.909463,0.0,192.3,7,2,3.2,0,0.0,-1,0.0,0.0,0.0,0,0.08,2.6374
158263,1624194713833,,,,,,,,0.22,-0.02,1.93,-0,-10,-9,0.22,,81,4542,9,28,57,0.822,0.0,453,4.9,13.0,0.0,1,26.8,1.49,5.5,0,0,0,1,0,0,250,250,0,,,,,,,,,,,,,,,,
158283,1624194713853,,,,,,,,0.25,-0.05,1.77,-0,-11,-9,0.25,,81,4556,9,28,57,0.823,0.0,456,4.84,13.1,0.0,1,27.0,2.63,5.5,0,0,0,1,0,0,250,250,0,,,,,,,,,,,,,,,,
158303,1624194713873,,,,,,,,0.27,-0.1,1.62,-0,-11,-8,0.29,,81,4603,9,28,57,0.824,0.0,448,4.85,13.0,0.0,1,27.6,2.65,5.6,0,0,0,1,0,0,250,250,0,,,,,,,,,,,,,,,,
158323,1624194713893,,,,,,,,0.28,-0.1,1.49,-0,-9,-6,0.29,,81,4610,9,28,57,0.825,0.0,453,4.89,13.1,0.0,1,27.7,2.65,5.6,0,0,0,1,0,0,250,250,0,,,,,,,,,,,,,,,,
158343,1624194713913,-1,1,37,16,34,32,-3,0.27,-0.1,1.36,-0,-7,-4,0.29,0,81,4610,9,28,57,0.827,0.0,449,4.85,13.2,0.0,1,27.7,1.52,5.6,0,0,0,1,0,0,250,250,0,45.700352,4.909463,0.0,192.3,7,2,3.2,0,0.0,-1,0.0,,0.0,0,0.08,2.639
158363,1624194713933,,,,,,,,0.25,-0.1,1.25,-0,-5,-2,0.27,,81,4601,9,28,57,0.828,0.0,448,4.91,13.2,0.0,1,27.6,2.65,5.6,0,0,0,1,0,0,250,250,0,,,,,,,,,,,,,,,,
158383,1624194713953,,,,,,,,0.22,-0.09,1.14,-0,-3,-0,0.24,,81,4601,9,28,57,0.83,0.0,457,4.89,13.2,0.0,1,27.6,2.65,5.6,0,0,0,1,0,0,250,250,0,,,,,,,,,,,,,,,,
158403,1624194713973,,,,,,,,0.19,-0.08,1.06,-0,-2,0,0.2,,81,4552,9,28,57,0.829,0.0,442,4.82,13.2,0.0,1,27.0,2.62,5.6,0,0,0,1,0,0,250,250,0,,,,,,,,,,,,,,,,
158423,1624194713993,,,,,,,,0.14,-0.09,1.03,-0,-0,1,0.16,,81,4533,9,28,57,0.829,0.0,450,4.83,13.2,0.0,1,26.7,1.48,5.6,0,0,0,1,0,0,250,250,0,,,,,,,,,,,,,,,,
158443,1624194714001,0,0,37,16,34,32,-4,0.09,-0.08,1.08,-0,1,2,0.12,0,81,4559,9,28,57,0.829,0.0,444,4.85,13.1,0.0,1,27.0,2.63,5.6,0,0,0,1,0,0,250,250,0,45.700352,4.909463,0.0,192.3,7,2,3.2,0,0.0,-1,0.0,0.0,0.0,0,0.08,2.6407
158463,1624194714021,,,,,,,,0.03,-0.07,1.11,-0,2,3,0.07,,81,4509,9,28,57,0.829,0.0,436,4.87,13.2,0.0,1,26.4,1.47,5.6,0,0,0,1,0,0,250,250,0,,,,,,,,,,,,,,,,
158483,1624194714041,,,,,,,,-0.03,-0.02,1.27,-0,3,3,0.04,,81,4575,9,28,57,0.828,0.0,446,4.88,13.1,0.0,1,27.2,1.51,5.6,0,0,0,1,0,0,250,250,0,,,,,,,,,,,,,,,,
158503,1624194714061,,,,,,,,-0.09,0.03,1.5,-0,4,3,0.1,,81,4578,9,28,57,0.826,0.0,447,4.91,13.1,0.0,1,27.3,1.51,5.6,0,0,0,1,0,0,250,250,0,,,,,,,,,,,,,,,,
158523,1624194714092,,,,,,,,-0.14,0.06,1.7,-0,4,3,0.15,,81,4567,9,28,57,0.825,0.0,457,4.86,13.1,0.0,1,27.1,1.49,5.6,0,0,0,1,0,0,250,250,0,,,,,,,,,,,,,,,,
158543,1624194714112,0,0,37,16,34,32,-3,-0.18,0.13,1.89,-0,4,2,0.22,0,81,4603,9,28,57,0.824,0.0,449,4.81,13.1,0.0,1,27.6,1.52,5.6,0,0,0,1,0,0,250,250,0,45.700352,4.909463,0.0,192.3,7,2,3.2,0,0.0,-1,0.0,,0.0,0,0.08,2.6424
158563,1624194714132,,,,,,,,-0.19,0.15,2.07,-0,3,1,0.24,,81,4568,9,28,57,0.823,0.0,447,4.91,13.0,0.0,1,27.3,1.51,5.6,0,0,0,1,0,0,250,250,0,,,,,,,,,,,,,,,,
158583,1624194714152,,,,,,,,-0.17,0.15,2.23,-0,1,-1,0.23,,81,4619,9,28,57,0.822,0.0,460,4.86,13.1,0.0,1,27.8,2.66,5.6,0,0,0,1,0,0,250,250,0,,,,,,,,,,,,,,,,
158603,1624194714172,,,,,,,,-0.13,0.14,2.38,-0,-1,-2,0.19,,81,4604,9,28,57,0.821,0.0,451,4.87,13.0,0.0,1,27.6,2.65,5.6,0,0,0,1,0,0,250,250,0,,,,,,,,,,,,,,,,
158623,1624194714192,,,,,,,,-0.08,0.12,2.42,-0,-3,-4,0.15,,81,4587,9,28,57,0.82,0.0,464,4.94,13.0,0.0,1,27.4,2.64,5.6,0,0,0,1,0,0,250,250,0,,,,,,,,,,,,,,,,
158643,1624194714212,0,1,37,16,34,32,-3,-0.03,0.06,2.26,-0,-4,-4,0.07,0,81,4588,9,28,57,0.819,0.0,464,4.88,13.0,0.0,1,27.4,2.64,5.6,0,0,0,1,0,0,250,250,0,45.700352,4.909463,0.0,192.3,7,2,3.2,0,0.0,-1,0.0,0.0,0.0,0,0.08,2.6441
158663,1624194714232,,,,,,,,0.02,0.04,2.07,-0,-5,-5,0.05,,81,4570,9,28,57,0.819,0.0,450,4.82,13.1,0.0,1,27.2,2.64,5.6,0,0,0,1,0,0,250,250,0,,,,,,,,,,,,,,,,
158683,1624194714252,,,,,,,,0.05,0.02,1.89,-0,-5,-4,0.06,,81,4595,9,28,57,0.819,0.0,461,4.86,13.1,0.0,1,27.5,2.65,5.6,0,0,0,1,0,0,250,250,0,,,,,,,,,,,,,,,,
158703,1624194714272,,,,,,,,0.09,0.01,1.74,-0,-4,-3,0.09,,81,4560,9,28,57,0.819,0.0,449,4.84,13.1,0.0,1,27.1,2.63,5.5,0,0,0,1,0,0,250,250,0,,,,,,,,,,,,,,,,
158723,1624194714292,,,,,,,,0.12,-0.01,1.59,-0,-3,-1,0.12,,81,4570,9,28,57,0.82,0.0,450,4.9,13.2,0.0,1,27.2,2.64,5.5,0,0,0,1,0,0,250,250,0,,,,,,,,,,,,,,,,
158743,1624194714312,-1,2,36,16,34,32,-4,0.12,-0.04,1.46,-0,-2,0,0.13,0,81,4570,9,28,57,0.821,0.0,443,4.91,13.2,0.0,1,27.2,2.64,5.5,0,0,0,1,0,0,250,250,0,45.700352,4.909463,0.0,192.3,7,2,3.2,0,0.0,-1,0.0,,0.0,0,0.08,2.6457
158763,1624194714332,,,,,,,,0.13,-0.05,1.34,-0,-0,2,0.14,,81,4570,9,28,57,0.822,0.0,445,4.95,13.2,0.0,1,27.2,1.51,5.5,0,0,0,1,0,0,250,250,0,,,,,,,,,,,,,,,,
158783,1624194714352,,,,,,,,0.12,-0.07,1.22,0,1,3,0.14,,81,4552,9,28,57,0.822,0.0,456,4.88,13.1,0.0,1,27.0,2.62,5.5,0,0,0,1,0,0,250,250,0,,,,,,,,,,,,,,,,
158803,1624194714372,,,,,,,,0.11,-0.05,1.12,0,2,4,0.12,,81,4576,9,28,57,0.823,0.0,445,4.89,13.2,0.0,1,27.3,2.64,5.6,0,0,0,1,0,0,250,250,0,,,,,,,,,,,,,,,,
158823,1624194714392,,,,,,,,0.08,-0.06,1.03,-0,3,4,0.1,,81,4538,9,28,57,0.823,0.0,446,4.92,13.2,0.0,1,26.8,2.61,5.6,0,0,0,1,0,0,250,250,0,,,,,,,,,,,,,,,,
158843,1624194714412,0,3,37,16,34,32,-4,0.06,-0.07,0.94,0,4,5,0.09,0,81,4537,9,28,57,0.823,0.0,440,4.85,13.2,0.0,1,26.8,1.48,5.6,0,0,0,1,0,0,250,250,0,45.700352,4.909463,0.0,192.3,7,2,3.2,0,0.0,-1,0.0,0.0,0.0,0,0.08,2.6474
158863,1624194714432,,,,,,,,0.03,-0.07,0.87,-0,5,5,0.08,,81,4538,9,28,57,0.823,0.0,440,4.85,13.1,0.0,1,26.8,1.48,5.6,0,0,0,1,0,0,250,250,0,,,,,,,,,,,,,,,,
158883,1624194714452,,,,,,,,-0.0,-0.06,0.79,-0,7,6,0.06,,81,4494,9,28,57,0.823,0.0,442,4.86,13.2,0.0,1,26.2,2.59,5.6,0,0,0,1,0,0,250,250,0,,,,,,,,,,,,,,,,
158903,1624194714472,,,,,,,,-0.03,-0.03,0.74,0,8,6,0.04,,81,4524,9,28,57,0.823,0.0,432,4.82,13.2,0.0,1,26.6,1.48,5.4,0,0,0,1,0,0,250,250,0,,,,,,,,,,,,,,,,
158923,1624194714492,,,,,,,,-0.06,-0.04,0.71,0,8,7,0.07,,81,4500,9,28,57,0.823,0.0,447,4.85,13.2,0.0,1,26.3,2.6,5.4,0,0,0,1,0,0,250,250,0,,,,,,,,,,,,,,,,
158943,1624194714512,0,1,37,16,34,32,-4,-0.08,-0.05,0.67,-0,9,7,0.09,0,81,4519,9,28,57,0.823,0.0,441,4.86,13.1,0.0,1,26.5,2.61,5.4,0,0,0,1,0,0,250,250,0,45.700352,4.909463,0.0,192.3,7,2,3.2,0,0.0,-1,0.0,,0.0,0,0.08,2.649
158963,1624194714532,,,,,,,,-0.12,-0.05,0.76,-0,9,7,0.13,,81,4591,9,28,57,0.823,0.0,445,4.9,13.1,0.0,1,27.4,1.51,5.4,0,0,0,1,0,0,250,250,0,,,,,,,,,,,,,,,,
158983,1624194714552,,,,,,,,-0.17,0.01,1.03,-0,9,6,0.17,,81,4595,9,28,57,0.822,0.0,447,4.87,13.1,0.0,1,27.5,1.52,5.4,0,0,0,1,0,0,250,250,0,,,,,,,,,,,,,,,,
159003,1624194714572,,,,,,,,-0.21,0.06,1.28,-0,8,5,0.22,,81,4617,9,28,57,0.821,0.0,446,4.84,13.1,0.0,1,27.8,2.65,5.6,0,0,0,1,0,0,250,250,0,,,,,,,,,,,,,,,,
159023,1624194714592,,,,,,,,-0.23,0.1,1.5,-0,7,4,0.25,,81,4596,9,28,57,0.821,0.0,468,4.87,13.0,0.0,1,27.5,1.52,5.6,0,0,0,1,0,0,250,250,0,,,,,,,,,,,,,,,,
159043,1624194714612,-0,2,37,16,34,32,-3,-0.23,0.14,1.71,-0,5,2,0.27,0,81,4617,9,28,57,0.82,0.0,460,4.86,13.0,0.0,1,27.8,1.53,5.6,0,0,0,1,0,0,250,250,0,45.700352,4.909463,0.0,192.3,7,2,3.2,0,0.0,-1,0.0,0.0,0.0,0,0.08,2.6507
159063,1624194714632,,,,,,,,-0.19,0.14,1.9,-0,3,1,0.24,,81,4542,9,28,57,0.82,0.0,455,4.9,13.0,0.0,1,26.8,1.49,5.6,0,0,0,1,0,0,250,250,0,,,,,,,,,,,,,,,,
159083,1624194714652,,,,,,,,-0.14,0.11,2.04,-0,1,-1,0.18,,81,4560,9,28,57,0.819,0.0,463,4.84,13.1,0.0,1,27.1,2.63,5.6,0,0,0,1,0,0,250,250,0,,,,,,,,,,,,,,,,
159103,1624194714672,,,,,,,,-0.1,0.1,2.15,-0,-1,-2,0.14,,81,4516,9,28,57,0.819,0.0,446,4.83,13.1,0.0,1,26.5,2.61,5.4,0,0,0,1,0,0,250,250,0,,,,,,,,,,,,,,,,
159123,1624194714694,,,,,,,,-0.07,0.09,2.27,-0,-2,-3,0.12,,81,4510,9,28,57,0.819,0.0,450,4.89,13.0,0.0,1,26.4,2.6,5.4,0,0,0,1,0,0,250,250,0,,,,,,,,,,,,,,,,
159143,1624194714714,0,0,37,16,34,32,-3,-0.03,0.09,2.34,-0,-4,-4,0.09,0,81,4497,9,28,57,0.819,0.0,442,4.88,12.9,0.0,1,26.3,2.59,5.4,0,0,0,1,0,0,250,250,0,45.700352,4.909463,0.0,192.3,7,2,3.2,0,0.0,-1,0.0,,0.0,0,0.08,2.6524
159163,1624194714734,,,,,,,,0.0,0.07,2.4,-0,-5,-5,0.07,,81,4506,9,28,57,0.819,0.0,444,4.82,13.1,0.0,1,26.4,2.6,5.4,0,0,0,1,0,0,250,250,0,,,,,,,,,,,,,,,,
159183,1624194714754,,,,,,,,0.04,0.06,2.4,-0,-6,-6,0.07,,81,4532,9,28,57,0.819,0.0,457,4.89,13.0,0.0,1,26.7,1.48,5.4,0,0,0,1,0,0,250,250,0,,,,,,,,,,,,,,,,
159203,1624194714774,,,,,,,,0.07,0.04,2.41,-0,-7,-6,0.08,,81,4508,9,28,57,0.819,0.0,440,4.88,13.1,0.0,1,26.4,1.47,5.4,0,0,0,1,0,0,250,250,0,,,,,,,,,,,,,,,,
159223,1624194714792,,,,,,,,0.12,0.01,2.33,-0,-8,-7,0.12,,81,4579,9,28,57,0.821,0.0,446,4.83,13.0,0.0,1,27.3,2.64,5.4,0,0,0,1,0,0,250,250,0,,,,,,,,,,,,,,,,
159243,1624194714812,0,0,37,16,34,32,-4,0.15,0.01,2.14,-0,-8,-6,0.15,0,81,4585,9,28,57,0.822,0.0,447,4.83,13.1,0.0,1,27.4,2.64,5.4,0,0,0,1,0,0,250,250,0,45.700352,4.909463,0.0,192.3,7,2,3.2,0,0.0,-1,0.0,0.0,0.0,0,0.08,2.654
159263,1624194714832,,,,,,,,0.18,-0.0,1.96,-0,-7,-5,0.18,,81,4563,9,28,57,0.824,0.0,446,4.82,13.1,0.0,1,27.1,1.5,5.4,0,0,0,1,0,0,250,250,0,,,,,,,,,,,,,,,,
159283,1624194714852,,,,,,,,0.21,-0.03,1.79,-0,-7,-4,0.21,,81,4613,9,28,57,0.825,0.0,448,4.83,13.1,0.0,1,27.7,2.66,5.4,0,0,0,1,0,0,250,250,0,,,,,,,,,,,,,,,,
159303,1624194714872,,,,,,,,0.23,-0.04,1.64,-0,-6,-2,0.23,,81,4585,9,28,57,0.826,0.0,444,4.91,13.2,0.0,1,27.4,2.64,5.6,0,0,0,1,0,0,250,250,0,,,,,,,,,,,,,,,,
159323,1624194714892,,,,,,,,0.2,-0.05,1.51,-0,-4,-1,0.2,,81,4574,9,28,57,0.826,0.0,451,4.93,13.1,0.0,1,27.2,1.51,5.6,0,0,0,1,0,0,250,250,0,,,,,,,,,,,,,,,,
159343,1624194714912,0,0,37,16,34,32,-3,0.16,-0.05,1.48,-0,-2,1,0.16,0,81,4613,9,28,57,0.826,0.0,452,4.87,13.2,0.0,1,27.7,2.66,5.6,0,0,0,1,0,0,250,250,0,45.700352,4.909463,0.0,192.3,7,2,3.2,0,0.0,-1,0.0,,0.0,0,0.08,2.6557
159363,1624194714932,,,,,,,,0.11,-0.04,1.5,-0,-1,2,0.12,,81,4550,9,28,57,0.826,0.0,443,4.86,13.1,0.0,1,26.9,2.62,5.6,0,0,0,1,0,0,250,250,0,,,,,,,,,,,,,,,,
159383,1624194714952,,,,,,,,0.05,-0.02,1.56,-0,1,2,0.05,,81,4554,9,28,57,0.827,0.0,445,4.84,13.2,0.0,1,27.0,2.62,5.6,0,0,0,1,0,0,250,250,0,,,,,,,,,,,,,,,,
159403,1624194714972,,,,,,,,-0.01,0.02,1.69,-0,2,3,0.02,,81,4562,9,28,57,0.827,0.0,437,4.85,13.2,0.0,1,27.1,1.5,5.5,0,0,0,1,0,0,250,250,0,,,,,,,,,,,,,,,,
159423,1624194714992,,,,,,,,-0.07,0.06,1.83,-0,3,3,0.09,,81,4501,9,28,57,0.827,0.0,445,4.86,13.2,0.0,1,26.3,2.6,5.5,0,0,0,1,0,0,250,250,0,,,,,,,,,,,,,,,,
159443,1624194715000,1,0,37,16,34,32,-4,-0.12,0.09,1.99,-0,4,4,0.15,0,81,4547,9,28,57,0.827,0.0,439,4.87,13.2,0.0,1,26.9,2.62,5.5,0,0,0,1,0,0,250,250,0,45.700352,4.909463,0.0,192.3,7,2,3.2,0,0.0,-1,0.0,0.0,0.0,0,0.08,2.6574
159463,1624194715020,,,,,,,,-0.17,0.14,2.14,-0,6,5,0.22,,81,4511,9,28,57,0.827,0.0,439,4.81,13.2,0.0,1,26.4,1.47,5.5,0,0,0,1,0,0,250,250,0,,,,,,,,,,,,,,,,
159483,1624194715040,,,,,,,,-0.21,0.17,2.29,-0,6,5,0.27,,81,4507,9,28,58,0.827,0.0,439,4.87,13.2,0.0,1,26.6,2.61,5.5,0,0,0,1,0,0,250,250,0,,,,,,,,,,,,,,,,
159503,1624194715060,,,,,,,,-0.25,0.21,2.43,-0,7,5,0.33,,81,4548,9,28,57,0.826,0.0,443,4.86,13.1,0.0,1,26.9,1.49,5.5,0,0,0,1,0,0,250,250,0,,,,,,,,,,,,,,,,
159523,1624194715093,,,,,,,,-0.28,0.23,2.57,-0,7,5,0.36,,81,4510,9,28,57,0.826,0.0,439,4.84,13.1,0.0,1,26.4,1.47,5.5,0,0,0,1,0,0,250,250,0,,,,,,,,,,,,,,,,
159543,1624194715113,-0,2,36,16,34,32,-3,-0.3,0.26,2.68,-0,7,5,0.4,0,81,4546,9,28,58,0.827,0.0,430,4.84,13.2,0.0,1,27.1,2.63,5.5,0,0,0,1,0,0,250,250,0,45.700352,4.909463,0.0,192.3,7,2,3.3,0,0.0,-1,0.0,,0.0,0,0.08,2.659
159563,1624194715133,,,,,,,,-0.31,0.26,2.79,-0,7,4,0.4,,81,4549,9,28,58,0.828,0.0,443,4.91,13.1,0.0,1,27.1,1.5,5.5,0,0,0,1,0,0,250,250,0,,,,,,,,,,,,,,,,
159583,1624194715153,,,,,,,,-0.32,0.27,2.89,-0,6,4,0.41,,81,4505,9,28,58,0.829,0.0,442,4.84,13.2,0.0,1,26.6,1.48,5.5,0,0,0,1,0,0,250,250,0,,,,,,,,,,,,,,,,
159603,1624194715173,,,,,,,,-0.32,0.28,2.99,-0,6,3,0.42,,81,4526,9,28,58,0.83,0.0,432,4.93,13.1,0.0,1,26.8,1.49,5.4,0,0,0,1,0,0,250,250,0,,,,,,,,,,,,,,,,
159623,1624194715191,,,,,,,,-0.32,0.28,3.07,-0,6,2,0.43,,81,4492,9,28,58,0.831,0.0,442,4.96,13.1,0.0,1,26.4,1.46,5.4,0,0,0,1,0,0,250,250,0,,,,,,,,,,,,,,,,
159643,1624194715211,-1,2,37,16,34,32,-3,-0.32,0.27,3.15,-0,6,2,0.42,0,81,4463,9,28,58,0.831,0.0,430,4.91,13.1,0.0,1,26.0,1.46,5.4,0,0,0,1,0,0,250,250,0,45.700352,4.909463,0.0,192.3,7,2,3.2,0,0.0,-1,0.0,0.0,0.0,0,0.08,2.6607
159663,1624194715231,,,,,,,,-0.33,0.27,3.22,-0,6,1,0.43,,81,4470,9,28,58,0.831,0.0,436,4.85,13.2,0.0,1,26.1,1.46,5.4,0,0,0,1,0,0,250,250,0,,,,,,,,,,,,,,,,
159683,1624194715251,,,,,,,,-0.35,0.26,3.28,-0,6,2,0.43,,81,4406,9,28,58,0.832,0.0,427,4.86,13.1,0.0,1,25.3,2.56,5.4,0,0,0,1,0,0,250,250,0,,,,,,,,,,,,,,,,
159703,1624194715271,,,,,,,,-0.37,0.29,3.3,-0,7,2,0.47,,81,4456,9,28,58,0.831,0.0,428,4.89,13.2,0.0,1,26.0,1.45,5.3,0,0,0,1,0,0,250,250,0,,,,,,,,,,,,,,,,
159723,1624194715291,,,,,,,,-0.4,0.29,3.25,-0,8,3,0.49,,81,4431,9,28,58,0.831,0.0,440,4.78,13.2,0.0,1,25.6,1.44,5.3,0,0,0,1,0,0,250,250,0,,,,,,,,,,,,,,,,
159743,1624194715311,1,1,37,16,34,31,-4,-0.41,0.27,3.02,-0,9,4,0.49,0,81,4404,9,28,58,0.83,0.0,422,4.88,13.2,0.0,1,25.3,2.55,5.3,0,0,0,1,0,0,250,250,0,45.700352,4.909463,0.0,192.3,7,2,3.2,0,0.0,-1,0.0,,0.0,0,0.08,2.6624
159763,1624194715331,,,,,,,,-0.4,0.27,2.77,-0,10,5,0.48,,81,4470,9,28,59,0.829,0.0,430,4.85,13.2,0.0,1,26.4,2.6,5.3,0,0,0,1,0,0,250,250,0,,,,,,,,,,,,,,,,
159783,1624194715351,,,,,,,,-0.38,0.26,2.54,-0,10,6,0.46,,81,4373,9,28,59,0.828,0.0,424,4.85,13.2,0.0,1,25.1,2.55,5.3,0,0,0,1,0,0,250,250,0,,,,,,,,,,,,,,,,
159803,1624194715371,,,,,,,,-0.34,0.22,2.32,-0,10,6,0.4,,81,4424,9,28,59,0.827,0.0,424,4.91,13.2,0.0,1,25.8,1.45,5.2,0,0,0,1,0,0,250,250,0,,,,,,,,,,,,,,,,
159823,1624194715391,,,,,,,,-0.28,0.16,2.13,-0,9,7,0.33,,81,4411,9,28,59,0.826,0.0,428,4.9,13.2,0.0,1,25.6,2.57,5.2,0,0,0,1,0,0,250,250,0,,,,,,,,,,,,,,,,
159843,1624194715411,-1,2,37,16,34,32,-3,-0.21,0.11,1.95,-0,7,6,0.24,0,81,4369,9,28,59,0.825,0.0,422,4.86,13.1,0.0,1,25.1,2.55,5.2,0,0,0,1,0,0,250,250,0,45.700352,4.909463,0.0,192.3,7,2,3.2,0,0.0,-1,0.0,0.0,0.0,0,0.08,2.6641
159863,1624194715431,,,,,,,,-0.15,0.08,1.79,-0,6,6,0.17,,81,4449,9,28,59,0.824,0.0,435,4.87,13.1,0.0,1,26.1,2.59,5.2,0,0,0,1,0,0,250,250,0,,,,,,,,,,,,,,,,
159883,1624194715451,,,,,,,,-0.09,0.07,1.64,-0,4,5,0.12,,81,4345,9,28,59,0.824,0.0,432,4.77,13.0,0.0,1,24.8,1.41,5.2,0,0,0,1,0,0,250,250,0,,,,,,,,,,,,,,,,
159903,1624194715471,,,,,,,,-0.04,0.07,1.61,-0,2,3,0.08,,81,4430,9,28,59,0.825,0.0,432,4.85,13.0,0.0,1,25.9,2.58,5.2,0,0,0,1,0,0,250,250,0,,,,,,,,,,,,,,,,
159923,1624194715492,,,,,,,,-0.0,0.07,1.65,-0,0,2,0.07,,81,4423,9,28,59,0.825,0.0,434,4.91,13.0,0.0,1,25.8,2.58,5.2,0,0,0,1,0,0,250,250,0,,,,,,,,,,,,,,,,
159943,1624194715512,-1,2,37,16,34,32,-4,0.01,0.08,1.8,-0,-1,1,0.08,0,81,4356,9,28,59,0.825,0.0,427,4.81,13.0,0.0,1,24.9,1.42,5.2,0,0,0,1,0,0,250,250,0,45.700352,4.909463,0.0,192.3,7,2,3.2,0,0.0,-1,0.0,,0.0,0,0.08,2.6657
159963,1624194715532,,,,,,,,0.01,0.08,1.99,-0,-1,-0,0.08,,81,4428,9,28,59,0.826,0.0,432,4.94,13.1,0.0,1,25.9,1.46,5.2,0,0,0,1,0,0,250,250,0,,,,,,,,,,,,,,,,
