"Interval"|"ms"|0|0|1,"Utc"|"ms"|0|0|1,"Brake_F"|"Bar"|0|2000|10,"Brake_R"|"Bar"|0|2000|10,"Height_RF"|"mm"|0|255|10,"Height_LF"|"mm"|0|255|10,"Height_LR"|"mm"|0|80|10,"Height_RR"|"mm"|0|255|10,"Steering"|"deg"|-100|100|10,"AccelX"|"G"|-3.0|3.0|50,"AccelY"|"G"|-3.0|3.0|50,"AccelZ"|"G"|-3.0|3.0|50,"Yaw"|"Deg/Sec"|-120|120|50,"Pitch"|"Deg/Sec"|-120|120|50,"Roll"|"Deg/Sec"|-120|120|50,"Gsum"|"G"|0.0|3.0|50,"Log_Button"|""|0.0|10.0|10,"WaterTemp"|"C"|0|150|50,"RPM"|"tr/min"|0|14000|50,"TPS"|"%"|0|100|50,"AirTemp"|"C"|0|150|50,"MAP"|"KPa"|0|100|50,"Lambda"|""|0.5|1.5|50,"SpeedDTA"|"kph"|0.0|250.0|50,"OilPress"|"KPa"|0|1500|50,"FuelPressur"|"Bar"|0.0|10.0|50,"Batterie"|"V"|0.0|20.0|50,"ConsoKm"|"L/100km"|0.0|200.0|50,"Gear"|""|0|6|50,"AdvIgnition"|"Deg"|-20.0|70.0|50,"Injection"|"ms"|0.0|10.0|50,"ConsoHr"|"L/Hr"|0.0|10000.0|50,"LC_But_Pres"|""|0|1|50,"LC_Active"|""|0|1|50,"TractionOn"|""|0|1|50,"TractionWet"|""|0|1|50,"FanOn"|""|0|1|50,"RD_Speed"|"km/h"|-30|250|50,"RUD_Speed"|"km/h"|-30|250|50,"LD_Speed"|"km/h"|-30|250|50,"LUD_Speed"|"km/h"|-30|250|50,"Latitude"|"Degrees"|-180.0|180.0|10,"Longitude"|"Degrees"|-180.0|180.0|10,"Speed"|"kph"|0.0|150.0|10,"Altitude"|"m"|0.0|4000.0|10,"GPSSats"|""|0|20|10,"GPSQual"|""|0|5|10,"GPSDOP"|""|0.0|20.0|10,"LapCount"|""|0|0|10,"LapTime"|"Min"|0.0|0.0|10,"Sector"|""|0|0|10,"SectorTime"|"Min"|0.0|0.0|10,"PredTime"|"Min"|0.0|0.0|5,"ElapsedTime"|"Min"|0.0|0.0|10,"CurrentLap"|""|0|0|10,"Distance"|"km"|0.0|0.0|10,"SessionTime"|"Min"|0.0|0.0|10
32063,0,,,,,,,,0.01,0.03,0.99,0,-0,0,0.03,,74,0,7,34,98,0.501,0.0,113,0.99,13.0,0.0,1,0.0,0.0,0.0,0,0,0,0,1,0,250,250,0,,,,,,,,,,,,,,,,
32083,0,,,,,,,,0.01,0.03,0.99,0,-0,0,0.03,,74,0,7,34,98,0.501,0.0,113,1.0,13.0,0.0,1,0.0,0.0,0.0,0,0,0,0,1,0,250,250,0,,,,,,,,,,,,,,,,
32103,0,,,,,,,,0.01,0.03,0.99,0,-0,0,0.03,,74,0,7,34,98,0.501,0.0,113,0.99,13.0,0.0,1,0.0,0.0,0.0,0,0,0,0,1,0,250,250,0,,,,,,,,,,,,,,,,
32123,0,,,,,,,,0.01,0.03,0.99,0,-0,0,0.03,,74,0,7,34,98,0.501,0.0,113,0.99,13.0,0.0,1,0.0,0.0,0.0,0,0,0,0,1,0,250,250,0,,,,,,,,,,,,,,,,
32143,0,-1,2,38,18,33,30,-1,0.01,0.03,0.99,0,-0,-0,0.03,1,74,0,7,34,98,0.501,0.0,113,1.0,13.0,0.0,1,0.0,0.0,0.0,0,0,0,0,1,0,250,250,0,0.0,0.0,0.0,0.0,0,0,0.0,0,0.0,-1,0.0,,0.0,0,0.0,0.5357
32163,0,,,,,,,,0.01,0.03,0.99,0,-0,-0,0.03,,74,0,7,34,98,0.501,0.0,113,0.99,12.9,0.0,1,0.0,0.0,0.0,0,0,0,0,1,0,250,250,0,,,,,,,,,,,,,,,,
32183,0,,,,,,,,0.01,0.03,0.99,0,-0,-0,0.03,,74,0,7,34,98,0.501,0.0,113,1.0,13.0,0.0,1,0.0,0.0,0.0,0,0,0,0,1,0,250,250,0,,,,,,,,,,,,,,,,
32203,0,,,,,,,,0.01,0.03,0.99,0,-0,-0,0.03,,74,0,7,34,98,0.501,0.0,113,1.0,13.0,0.0,1,0.0,0.0,0.0,0,0,0,0,1,0,250,250,0,,,,,,,,,,,,,,,,
32223,0,,,,,,,,0.01,0.03,0.99,0,-0,-0,0.03,,74,0,7,34,98,0.501,0.0,113,0.99,13.0,0.0,1,0.0,0.0,0.0,0,0,0,0,1,0,250,250,0,,,,,,,,,,,,,,,,
32243,0,-1,2,38,16,34,30,-1,0.01,0.03,0.99,0,-0,-0,0.03,0,74,0,7,34,98,0.501,0.0,113,0.99,13.0,0.0,1,0.0,0.0,0.0,0,0,0,0,1,0,250,250,0,0.0,0.0,0.0,0.0,0,0,0.0,0,0.0,-1,0.0,0.0,0.0,0,0.0,0.5374
32263,0,,,,,,,,0.01,0.03,0.99,0,-0,-0,0.03,,74,0,7,34,98,0.501,0.0,113,0.99,13.0,0.0,1,0.0,0.0,0.0,0,0,0,0,1,0,250,250,0,,,,,,,,,,,,,,,,
32283,0,,,,,,,,0.01,0.03,0.99,0,-0,-0,0.03,,74,0,7,34,98,0.501,0.0,113,0.99,12.9,0.0,1,0.0,0.0,0.0,0,0,0,0,1,0,250,250,0,,,,,,,,,,,,,,,,
32303,0,,,,,,,,0.01,0.03,0.99,0,-0,-0,0.03,,74,0,7,34,98,0.501,0.0,113,1.0,13.0,0.0,1,0.0,0.0,0.0,0,0,0,0,1,0,250,250,0,,,,,,,,,,,,,,,,
32323,0,,,,,,,,0.01,0.03,0.99,0,-0,-0,0.03,,74,0,7,34,98,0.501,0.0,113,0.99,13.0,0.0,1,0.0,0.0,0.0,0,0,0,0,1,0,250,250,0,,,,,,,,,,,,,,,,
32343,0,0,2,38,15,33,30,-1,0.01,0.03,0.99,0,-0,-0,0.03,0,74,0,7,34,98,0.501,0.0,113,0.99,13.0,0.0,1,0.0,0.0,0.0,0,0,0,0,1,0,250,250,0,0.0,0.0,0.0,0.0,0,0,0.0,0,0.0,-1,0.0,,0.0,0,0.0,0.539
32363,0,,,,,,,,0.01,0.03,0.98,0,-0,-0,0.03,,74,0,7,34,98,0.501,0.0,113,0.99,12.9,0.0,1,0.0,0.0,0.0,0,0,0,0,1,0,250,250,0,,,,,,,,,,,,,,,,
32383,0,,,,,,,,0.01,0.03,0.98,0,-0,-0,0.03,,74,0,7,34,98,0.501,0.0,113,0.99,13.0,0.0,1,0.0,0.0,0.0,0,0,0,0,1,0,250,250,0,,,,,,,,,,,,,,,,
32403,0,,,,,,,,0.01,0.03,0.98,0,-0,-0,0.03,,74,0,7,34,98,0.501,0.0,113,0.99,13.0,0.0,1,0.0,0.0,0.0,0,0,0,0,1,0,250,250,0,,,,,,,,,,,,,,,,
32423,0,,,,,,,,0.01,0.03,0.98,0,-0,0,0.03,,74,0,7,34,98,0.501,0.0,113,0.99,13.0,0.0,1,0.0,0.0,0.0,0,0,0,0,1,0,250,250,0,,,,,,,,,,,,,,,,
32443,0,0,3,38,16,34,29,-0,0.01,0.03,0.98,0,-0,0,0.03,0,74,0,7,34,98,0.5,0.0,113,1.0,13.0,0.0,1,0.0,0.0,0.0,0,0,0,0,1,0,250,250,0,0.0,0.0,0.0,0.0,0,0,0.0,0,0.0,-1,0.0,0.0,0.0,0,0.0,0.5407
32463,0,,,,,,,,0.01,0.03,0.98,0,-0,0,0.03,,74,0,7,34,98,0.5,0.0,113,0.99,13.0,0.0,1,0.0,0.0,0.0,0,0,0,0,1,0,250,250,0,,,,,,,,,,,,,,,,
32483,0,,,,,,,,0.01,0.03,0.98,0,-0,0,0.03,,74,0,7,34,98,0.5,0.0,113,0.99,13.0,0.0,1,0.0,0.0,0.0,0,0,0,0,1,0,250,250,0,,,,,,,,,,,,,,,,
32503,0,,,,,,,,0.01,0.03,0.98,0,-0,0,0.03,,74,0,7,34,98,0.5,0.0,113,0.99,13.0,0.0,1,0.0,0.0,0.0,0,0,0,0,1,0,250,250,0,,,,,,,,,,,,,,,,
32523,0,,,,,,,,0.01,0.03,0.98,0,-0,-0,0.03,,74,0,7,34,98,0.5,0.0,113,0.99,13.0,0.0,1,0.0,0.0,0.0,0,0,0,0,1,0,250,250,0,,,,,,,,,,,,,,,,
32543,0,0,1,38,16,34,29,-0,0.01,0.03,0.98,0,-0,-0,0.03,0,74,0,7,34,98,0.5,0.0,113,1.0,13.0,0.0,1,0.0,0.0,0.0,0,0,0,0,1,0,250,250,0,0.0,0.0,0.0,0.0,0,0,0.0,0,0.0,-1,0.0,,0.0,0,0.0,0.5424
32563,0,,,,,,,,0.01,0.03,0.98,0,-0,-0,0.03,,74,0,7,34,98,0.5,0.0,113,0.99,13.0,0.0,1,0.0,0.0,0.0,0,0,0,0,1,0,250,250,0,,,,,,,,,,,,,,,,
32583,0,,,,,,,,0.01,0.03,0.98,0,-0,0,0.03,,74,0,7,34,98,0.5,0.0,113,1.0,13.0,0.0,1,0.0,0.0,0.0,0,0,0,0,1,0,250,250,0,,,,,,,,,,,,,,,,
32603,0,,,,,,,,0.01,0.03,0.98,0,-0,0,0.03,,74,0,7,34,98,0.5,0.0,113,0.99,13.0,0.0,1,0.0,0.0,0.0,0,0,0,0,1,0,250,250,0,,,,,,,,,,,,,,,,
32623,0,,,,,,,,0.01,0.03,0.98,0,-0,0,0.03,,74,0,7,34,98,0.5,0.0,113,0.99,13.0,0.0,1,0.0,0.0,0.0,0,0,0,0,1,0,250,250,0,,,,,,,,,,,,,,,,
32643,0,-0,2,38,15,34,30,-1,0.01,0.03,0.98,0,-0,0,0.03,0,74,0,7,34,98,0.515,0.0,113,1.0,13.0,0.0,1,0.0,0.0,0.0,0,0,0,0,1,0,250,250,0,0.0,0.0,0.0,0.0,0,0,0.0,0,0.0,-1,0.0,0.0,0.0,0,0.0,0.544
32663,0,,,,,,,,0.01,0.03,0.98,0,-0,0,0.03,,74,0,7,34,98,0.594,0.0,113,0.99,13.0,0.0,1,0.0,0.0,0.0,0,0,0,0,1,0,250,250,0,,,,,,,,,,,,,,,,
32683,0,,,,,,,,0.01,0.03,0.98,0,-0,0,0.03,,74,0,7,34,98,0.675,0.0,113,1.0,13.0,0.0,1,0.0,0.0,0.0,0,0,0,0,1,0,250,250,0,,,,,,,,,,,,,,,,
32703,0,,,,,,,,0.01,0.03,0.98,0,-0,0,0.03,,74,0,7,34,98,0.754,0.0,113,0.99,13.0,0.0,1,0.0,0.0,0.0,0,0,0,0,1,0,250,250,0,,,,,,,,,,,,,,,,
32723,0,,,,,,,,0.01,0.03,0.98,0,-0,-0,0.03,,74,0,7,34,98,0.834,0.0,113,1.0,13.0,0.0,1,0.0,0.0,0.0,0,0,0,0,1,0,250,250,0,,,,,,,,,,,,,,,,
32743,0,0,1,38,16,34,29,-1,0.01,0.03,0.98,0,-0,0,0.03,0,74,0,7,34,98,0.914,0.0,113,0.99,13.0,0.0,1,0.0,0.0,0.0,0,0,0,0,1,0,250,250,0,0.0,0.0,0.0,0.0,0,0,0.0,0,0.0,-1,0.0,,0.0,0,0.0,0.5457
32763,0,,,,,,,,0.01,0.03,0.98,0,-0,-0,0.03,,74,0,7,34,98,0.994,0.0,113,0.99,13.0,0.0,1,0.0,0.0,0.0,0,0,0,0,1,0,250,250,0,,,,,,,,,,,,,,,,
32783,0,,,,,,,,0.01,0.03,0.98,0,-0,0,0.03,,74,0,7,34,98,1.074,0.0,113,1.0,13.0,0.0,1,0.0,0.0,0.0,0,0,0,0,1,0,250,250,0,,,,,,,,,,,,,,,,
32803,0,,,,,,,,0.01,0.03,0.98,0,-0,0,0.03,,74,0,7,34,98,1.154,0.0,113,1.0,13.0,0.0,1,0.0,0.0,0.0,0,0,0,0,1,0,250,250,0,,,,,,,,,,,,,,,,
32823,0,,,,,,,,0.01,0.03,0.98,0,-0,0,0.03,,74,0,7,34,98,1.233,0.0,113,0.99,13.0,0.0,1,0.0,0.0,0.0,0,0,0,0,1,0,250,250,0,,,,,,,,,,,,,,,,
32843,0,0,2,38,16,34,30,-2,0.01,0.03,0.98,0,-0,0,0.03,0,74,0,7,34,98,1.313,0.0,113,1.0,13.0,0.0,1,0.0,0.0,0.0,0,0,0,0,1,0,250,250,0,0.0,0.0,0.0,0.0,0,0,0.0,0,0.0,-1,0.0,0.0,0.0,0,0.0,0.5474
32863,0,,,,,,,,0.01,0.03,0.98,0,-0,-0,0.03,,74,0,7,34,98,1.393,0.0,113,1.0,13.0,0.0,1,0.0,0.0,0.0,0,0,0,0,1,0,250,250,0,,,,,,,,,,,,,,,,
32883,0,,,,,,,,0.01,0.03,0.98,0,-0,-0,0.03,,74,0,7,34,98,1.473,0.0,113,0.99,13.0,0.0,1,0.0,0.0,0.0,0,0,0,0,1,0,250,250,0,,,,,,,,,,,,,,,,
32903,0,,,,,,,,0.01,0.03,0.98,0,-0,-0,0.03,,74,0,7,34,98,1.498,0.0,113,0.99,13.0,0.0,1,0.0,0.0,0.0,0,0,0,0,1,0,250,250,0,,,,,,,,,,,,,,,,
32923,0,,,,,,,,0.01,0.03,0.98,0,-0,-0,0.03,,74,0,7,34,98,1.498,0.0,113,0.99,13.0,0.0,1,0.0,0.0,0.0,0,0,0,0,1,0,250,250,0,,,,,,,,,,,,,,,,
32943,0,0,1,38,15,33,30,-1,0.01,0.03,0.98,0,-0,0,0.03,0,74,0,7,34,98,1.498,0.0,113,0.98,13.0,0.0,1,0.0,0.0,0.0,0,0,0,0,1,0,250,250,0,0.0,0.0,0.0,0.0,0,0,0.0,0,0.0,-1,0.0,,0.0,0,0.0,0.549
32963,0,,,,,,,,0.01,0.03,0.98,0,-0,-0,0.03,,74,0,7,34,98,1.498,0.0,113,0.99,13.0,0.0,1,0.0,0.0,0.0,0,0,0,0,1,0,250,250,0,,,,,,,,,,,,,,,,
32983,0,,,,,,,,0.01,0.03,0.98,0,-0,0,0.03,,74,0,7,34,98,1.498,0.0,113,0.99,13.0,0.0,1,0.0,0.0,0.0,0,0,0,0,1,0,250,250,0,,,,,,,,,,,,,,,,
33003,0,,,,,,,,0.01,0.03,0.98,0,-0,0,0.03,,74,0,7,34,98,1.498,0.0,113,0.99,13.0,0.0,1,0.0,0.0,0.0,0,0,0,0,1,0,250,250,0,,,,,,,,,,,,,,,,
33023,0,,,,,,,,0.01,0.03,0.98,0,-0,-0,0.03,,74,0,7,34,98,1.498,0.0,113,0.99,12.9,0.0,1,0.0,0.0,0.0,0,0,0,0,1,0,250,250,0,,,,,,,,,,,,,,,,
33043,0,-1,2,38,16,34,29,-0,0.01,0.03,0.98,0,-0,0,0.03,0,74,0,7,34,98,1.498,0.0,113,1.0,12.9,0.0,1,0.0,0.0,0.0,0,0,0,0,1,0,250,250,0,0.0,0.0,0.0,0.0,0,0,0.0,0,0.0,-1,0.0,0.0,0.0,0,0.0,0.5507
33063,0,,,,,,,,0.01,0.03,0.98,0,-0,0,0.03,,74,0,7,34,98,1.498,0.0,113,0.99,13.0,0.0,1,0.0,0.0,0.0,0,0,0,0,1,0,250,250,0,,,,,,,,,,,,,,,,
33083,0,,,,,,,,0.01,0.03,0.98,0,-0,0,0.03,,74,0,7,34,98,1.498,0.0,113,1.0,13.0,0.0,1,0.0,0.0,0.0,0,0,0,0,1,0,250,250,0,,,,,,,,,,,,,,,,
33103,0,,,,,,,,0.01,0.03,0.98,0,-0,0,0.03,,74,0,7,34,98,1.498,0.0,113,1.0,13.0,0.0,1,0.0,0.0,0.0,0,0,0,0,1,0,250,250,0,,,,,,,,,,,,,,,,
33123,0,,,,,,,,0.01,0.03,0.98,0,-0,-0,0.03,,74,0,7,34,98,1.498,0.0,113,0.99,13.0,0.0,1,0.0,0.0,0.0,0,0,0,0,1,0,250,250,0,,,,,,,,,,,,,,,,
33143,0,-0,2,38,16,34,29,-0,0.01,0.03,0.98,0,-0,-0,0.03,0,74,0,7,34,98,1.498,0.0,113,0.99,13.0,0.0,1,0.0,0.0,0.0,0,0,0,0,1,0,250,250,0,0.0,0.0,0.0,0.0,0,0,0.0,0,0.0,-1,0.0,,0.0,0,0.0,0.5524
33163,0,,,,,,,,0.01,0.03,0.98,0,-0,-0,0.03,,74,0,7,34,98,1.498,0.0,113,0.99,13.0,0.0,1,0.0,0.0,0.0,0,0,0,0,1,0,250,250,0,,,,,,,,,,,,,,,,
33183,0,,,,,,,,0.01,0.03,0.99,0,-0,-0,0.03,,74,0,7,34,98,1.498,0.0,113,0.99,13.0,0.0,1,0.0,0.0,0.0,0,0,0,0,1,0,250,250,0,,,,,,,,,,,,,,,,
33203,0,,,,,,,,0.01,0.03,0.99,0,-0,-0,0.03,,74,0,7,34,98,1.498,0.0,113,1.0,13.0,0.0,1,0.0,0.0,0.0,0,0,0,0,1,0,250,250,0,,,,,,,,,,,,,,,,
33223,0,,,,,,,,0.01,0.03,0.99,0,-0,-0,0.03,,74,0,7,34,98,1.498,0.0,113,1.0,13.0,0.0,1,0.0,0.0,0.0,0,0,0,0,1,0,250,250,0,,,,,,,,,,,,,,,,
33243,0,-0,2,38,16,34,30,-1,0.01,0.03,0.99,0,-0,-0,0.03,0,74,0,7,34,98,1.498,0.0,113,0.99,13.0,0.0,1,0.0,0.0,0.0,0,0,0,0,1,0,250,250,0,0.0,0.0,0.0,0.0,0,0,0.0,0,0.0,-1,0.0,0.0,0.0,0,0.0,0.5541
33263,0,,,,,,,,0.01,0.03,0.98,0,-0,-0,0.03,,74,0,7,34,98,1.498,0.0,113,0.99,13.0,0.0,1,0.0,0.0,0.0,0,0,0,0,1,0,250,250,0,,,,,,,,,,,,,,,,
33283,0,,,,,,,,0.01,0.03,0.98,0,-0,-0,0.03,,74,0,7,34,98,1.498,0.0,113,0.99,13.0,0.0,1,0.0,0.0,0.0,0,0,0,0,1,0,250,250,0,,,,,,,,,,,,,,,,
33303,0,,,,,,,,0.01,0.03,0.98,0,-0,-0,0.03,,74,0,7,34,98,1.498,0.0,113,0.99,13.0,0.0,1,0.0,0.0,0.0,0,0,0,0,1,0,250,250,0,,,,,,,,,,,,,,,,
33323,0,,,,,,,,0.01,0.03,0.98,0,-0,-0,0.03,,74,0,7,34,98,1.498,0.0,113,0.99,13.0,0.0,1,0.0,0.0,0.0,0,0,0,0,1,0,250,250,0,,,,,,,,,,,,,,,,
33343,0,-1,2,38,16,34,30,-1,0.01,0.03,0.98,0,-0,0,0.03,0,74,0,7,34,98,1.498,0.0,113,0.99,13.0,0.0,1,0.0,0.0,0.0,0,0,0,0,1,0,250,250,0,0.0,0.0,0.0,0.0,0,0,0.0,0,0.0,-1,0.0,,0.0,0,0.0,0.5557
33363,0,,,,,,,,0.01,0.03,0.98,0,-0,0,0.03,,74,0,7,34,98,1.498,0.0,113,0.99,12.9,0.0,1,0.0,0.0,0.0,0,0,0,0,1,0,250,250,0,,,,,,,,,,,,,,,,
33383,0,,,,,,,,0.01,0.03,0.98,0,-0,0,0.03,,74,0,7,34,98,1.498,0.0,113,0.99,13.0,0.0,1,0.0,0.0,0.0,0,0,0,0,1,0,250,250,0,,,,,,,,,,,,,,,,
33403,0,,,,,,,,0.01,0.03,0.98,0,-0,0,0.03,,74,0,7,34,98,1.498,0.0,113,1.0,13.0,0.0,1,0.0,0.0,0.0,0,0,0,0,1,0,250,250,0,,,,,,,,,,,,,,,,
33423,0,,,,,,,,0.01,0.03,0.98,0,-0,0,0.03,,74,0,7,34,98,1.498,0.0,113,0.99,13.0,0.0,1,0.0,0.0,0.0,0,0,0,0,1,0,250,250,0,,,,,,,,,,,,,,,,
33443,0,-1,2,38,15,34,30,-1,0.01,0.03,0.98,0,-0,0,0.03,0,74,0,7,34,98,1.498,0.0,113,0.99,13.0,0.0,1,0.0,0.0,0.0,0,0,0,0,1,0,250,250,0,0.0,0.0,0.0,0.0,0,0,0.0,0,0.0,-1,0.0,0.0,0.0,0,0.0,0.5574
33463,0,,,,,,,,0.01,0.03,0.98,0,-0,0,0.03,,74,0,7,34,98,1.498,0.0,113,0.99,13.0,0.0,1,0.0,0.0,0.0,0,0,0,0,1,0,250,250,0,,,,,,,,,,,,,,,,
33483,0,,,,,,,,0.01,0.03,0.98,0,-0,0,0.03,,74,0,7,34,98,1.498,0.0,113,0.99,13.0,0.0,1,0.0,0.0,0.0,0,0,0,0,1,0,250,250,0,,,,,,,,,,,,,,,,
33503,0,,,,,,,,0.01,0.03,0.98,0,-0,0,0.03,,74,0,7,34,98,1.498,0.0,113,0.98,12.9,0.0,1,0.0,0.0,0.0,0,0,0,0,1,0,250,250,0,,,,,,,,,,,,,,,,
33523,0,,,,,,,,0.01,0.03,0.98,0,-0,0,0.03,,74,0,7,34,98,1.498,0.0,113,0.99,13.0,0.0,1,0.0,0.0,0.0,0,0,0,0,1,0,250,250,0,,,,,,,,,,,,,,,,
33543,0,-1,2,38,16,33,30,-1,0.01,0.03,0.98,0,-0,0,0.03,0,74,0,7,34,98,1.498,0.0,113,1.0,13.0,0.0,1,0.0,0.0,0.0,0,0,0,0,1,0,250,250,0,0.0,0.0,0.0,0.0,0,0,0.0,0,0.0,-1,0.0,,0.0,0,0.0,0.559
33563,0,,,,,,,,0.01,0.03,0.98,0,-0,0,0.03,,74,0,7,34,98,1.498,0.0,113,1.0,13.0,0.0,1,0.0,0.0,0.0,0,0,0,0,1,0,250,250,0,,,,,,,,,,,,,,,,
33583,0,,,,,,,,0.01,0.03,0.98,0,-0,0,0.03,,74,0,7,34,98,1.498,0.0,113,0.99,13.0,0.0,1,0.0,0.0,0.0,0,0,0,0,1,0,250,250,0,,,,,,,,,,,,,,,,
33603,0,,,,,,,,0.01,0.03,0.98,0,-0,0,0.03,,74,0,7,34,98,1.498,0.0,113,0.99,13.0,0.0,1,0.0,0.0,0.0,0,0,0,0,1,0,250,250,0,,,,,,,,,,,,,,,,
33623,0,,,,,,,,0.01,0.03,0.98,0,-0,0,0.03,,74,0,7,34,98,1.498,0.0,113,0.99,13.0,0.0,1,0.0,0.0,0.0,0,0,0,0,1,0,250,250,0,,,,,,,,,,,,,,,,
33643,0,0,0,38,16,33,30,-1,0.01,0.03,0.98,0,-0,0,0.03,0,74,0,7,34,98,1.498,0.0,113,0.99,13.0,0.0,1,0.0,0.0,0.0,0,0,0,0,1,0,250,250,0,0.0,0.0,0.0,0.0,0,0,0.0,0,0.0,-1,0.0,0.0,0.0,0,0.0,0.5607
33663,0,,,,,,,,0.01,0.03,0.98,0,-0,0,0.03,,74,0,7,34,98,1.498,0.0,113,0.99,13.0,0.0,1,0.0,0.0,0.0,0,0,0,0,1,0,250,250,0,,,,,,,,,,,,,,,,
33683,0,,,,,,,,0.01,0.03,0.98,0,-0,0,0.03,,74,0,7,34,98,1.498,0.0,113,0.99,13.0,0.0,1,0.0,0.0,0.0,0,0,0,0,1,0,250,250,0,,,,,,,,,,,,,,,,
33703,0,,,,,,,,0.01,0.03,0.98,0,-0,-0,0.03,,74,0,7,34,98,1.498,0.0,113,0.99,13.0,0.0,1,0.0,0.0,0.0,0,0,0,0,1,0,250,250,0,,,,,,,,,,,,,,,,
33723,0,,,,,,,,0.01,0.03,0.98,0,-0,-0,0.03,,74,0,7,34,98,1.498,0.0,113,0.99,13.0,0.0,1,0.0,0.0,0.0,0,0,0,0,1,0,250,250,0,,,,,,,,,,,,,,,,
33743,0,-0,2,38,16,34,30,-0,0.01,0.03,0.98,0,-0,0,0.03,0,74,0,7,34,98,1.498,0.0,113,1.0,13.0,0.0,1,0.0,0.0,0.0,0,0,0,0,1,0,250,250,0,0.0,0.0,0.0,0.0,0,0,0.0,0,0.0,-1,0.0,,0.0,0,0.0,0.5624
33763,0,,,,,,,,0.01,0.03,0.98,0,-0,0,0.03,,74,0,7,34,98,1.498,0.0,113,0.99,13.0,0.0,1,0.0,0.0,0.0,0,0,0,0,1,0,250,250,0,,,,,,,,,,,,,,,,
33783,0,,,,,,,,0.01,0.03,0.98,0,-0,0,0.03,,74,0,7,34,98,1.498,0.0,113,0.99,13.0,0.0,1,0.0,0.0,0.0,0,0,0,0,1,0,250,250,0,,,,,,,,,,,,,,,,
33803,0,,,,,,,,0.01,0.03,0.98,0,-0,0,0.03,,74,0,7,34,98,1.498,0.0,113,0.99,13.0,0.0,1,0.0,0.0,0.0,0,0,0,0,1,0,250,250,0,,,,,,,,,,,,,,,,
33823,0,,,,,,,,0.01,0.03,0.98,0,-0,0,0.03,,74,0,7,34,98,1.498,0.0,113,0.99,13.0,0.0,1,0.0,0.0,0.0,0,0,0,0,1,0,250,250,0,,,,,,,,,,,,,,,,
33843,0,0,1,38,16,33,30,-1,0.01,0.03,0.98,0,-0,0,0.03,0,74,0,7,34,98,1.498,0.0,113,0.99,13.0,0.0,1,0.0,0.0,0.0,0,0,0,0,1,0,250,250,0,0.0,0.0,0.0,0.0,0,0,0.0,0,0.0,-1,0.0,0.0,0.0,0,0.0,0.564
33863,0,,,,,,,,0.01,0.03,0.98,0,-0,0,0.03,,74,0,7,34,98,1.498,0.0,113,0.99,13.0,0.0,1,0.0,0.0,0.0,0,0,0,0,1,0,250,250,0,,,,,,,,,,,,,,,,
33883,0,,,,,,,,0.01,0.03,0.99,0,-0,0,0.03,,74,0,7,34,98,1.498,0.0,113,0.99,13.0,0.0,1,0.0,0.0,0.0,0,0,0,0,1,0,250,250,0,,,,,,,,,,,,,,,,
33903,0,,,,,,,,0.01,0.03,0.98,0,-0,0,0.03,,74,0,7,34,98,1.498,0.0,113,1.0,13.0,0.0,1,0.0,0.0,0.0,0,0,0,0,1,0,250,250,0,,,,,,,,,,,,,,,,
33923,0,,,,,,,,0.01,0.03,0.99,0,-0,-0,0.03,,74,0,7,34,98,1.498,0.0,113,0.99,13.0,0.0,1,0.0,0.0,0.0,0,0,0,0,1,0,250,250,0,,,,,,,,,,,,,,,,
33943,0,0,3,38,16,34,30,-2,0.01,0.03,0.99,0,-0,0,0.03,0,74,0,7,34,98,1.498,0.0,113,0.99,13.0,0.0,1,0.0,0.0,0.0,0,0,0,0,1,0,250,250,0,0.0,0.0,0.0,0.0,0,0,0.0,0,0.0,-1,0.0,,0.0,0,0.0,0.5657
33963,0,,,,,,,,0.01,0.03,0.99,0,-0,-0,0.03,,74,0,7,34,98,1.498,0.0,113,1.0,13.0,0.0,1,0.0,0.0,0.0,0,0,0,0,1,0,250,250,0,,,,,,,,,,,,,,,,
33983,0,,,,,,,,0.01,0.03,0.99,0,-0,0,0.03,,74,0,7,34,98,1.498,0.0,113,0.99,13.0,0.0,1,0.0,0.0,0.0,0,0,0,0,1,0,250,250,0,,,,,,,,,,,,,,,,
34003,0,,,,,,,,0.01,0.03,0.99,0,-0,-0,0.03,,74,0,7,34,98,1.498,0.0,113,0.99,13.0,0.0,1,0.0,0.0,0.0,0,0,0,0,1,0,250,250,0,,,,,,,,,,,,,,,,
34023,0,,,,,,,,0.01,0.03,0.99,0,-0,0,0.03,,74,0,7,34,98,1.498,0.0,113,0.98,13.0,0.0,1,0.0,0.0,0.0,0,0,0,0,1,0,250,250,0,,,,,,,,,,,,,,,,
34043,0,0,3,38,16,34,29,-0,0.01,0.03,0.99,0,-0,0,0.03,0,74,0,7,34,98,1.498,0.0,113,0.99,13.0,0.0,1,0.0,0.0,0.0,0,0,0,0,1,0,250,250,0,0.0,0.0,0.0,0.0,0,0,0.0,0,0.0,-1,0.0,0.0,0.0,0,0.0,0.5674
34063,0,,,,,,,,0.01,0.03,0.99,0,-0,0,0.03,,74,0,7,34,98,1.498,0.0,113,1.0,13.0,0.0,1,0.0,0.0,0.0,0,0,0,0,1,0,250,250,0,,,,,,,,,,,,,,,,
34083,0,,,,,,,,0.01,0.03,0.99,0,-0,0,0.03,,74,0,7,34,98,1.498,0.0,113,1.0,13.0,0.0,1,0.0,0.0,0.0,0,0,0,0,1,0,250,250,0,,,,,,,,,,,,,,,,
34103,0,,,,,,,,0.01,0.03,0.99,0,-0,0,0.03,,74,0,7,34,98,1.498,0.0,113,0.99,13.0,0.0,1,0.0,0.0,0.0,0,0,0,0,1,0,250,250,0,,,,,,,,,,,,,,,,
34123,0,,,,,,,,0.01,0.03,0.99,0,-0,0,0.03,,74,0,7,34,98,1.498,0.0,113,0.99,13.0,0.0,1,0.0,0.0,0.0,0,0,0,0,1,0,250,250,0,,,,,,,,,,,,,,,,
34143,0,0,3,38,16,34,30,-2,0.01,0.03,0.98,0,-0,0,0.03,0,74,0,7,34,98,1.498,0.0,113,0.99,13.0,0.0,1,0.0,0.0,0.0,0,0,0,0,1,0,250,250,0,0.0,0.0,0.0,0.0,0,0,0.0,0,0.0,-1,0.0,,0.0,0,0.0,0.569
34163,0,,,,,,,,0.01,0.03,0.98,0,-0,0,0.03,,74,0,7,34,98,1.498,0.0,113,0.99,12.9,0.0,1,0.0,0.0,0.0,0,0,0,0,1,0,250,250,0,,,,,,,,,,,,,,,,
34183,0,,,,,,,,0.01,0.03,0.98,0,-0,0,0.03,,74,0,7,34,98,1.498,0.0,113,0.99,13.0,0.0,1,0.0,0.0,0.0,0,0,0,0,1,0,250,250,0,,,,,,,,,,,,,,,,
34203,0,,,,,,,,0.01,0.03,0.99,0,-0,0,0.03,,74,0,7,34,98,1.498,0.0,113,0.99,13.0,0.0,1,0.0,0.0,0.0,0,0,0,0,1,0,250,250,0,,,,,,,,,,,,,,,,
34223,0,,,,,,,,0.01,0.03,0.99,0,-0,0,0.03,,74,0,7,34,98,1.498,0.0,113,0.99,13.0,0.0,1,0.0,0.0,0.0,0,0,0,0,1,0,250,250,0,,,,,,,,,,,,,,,,
34243,0,-1,2,38,15,34,30,-1,0.01,0.03,0.99,0,-0,0,0.03,0,74,0,7,34,98,1.498,0.0,113,0.99,13.0,0.0,1,0.0,0.0,0.0,0,0,0,0,1,0,250,250,0,0.0,0.0,0.0,0.0,0,0,0.0,0,0.0,-1,0.0,0.0,0.0,0,0.0,0.5707
34263,0,,,,,,,,0.01,0.03,0.99,0,-0,0,0.03,,74,0,7,34,98,1.498,0.0,113,0.99,13.0,0.0,1,0.0,0.0,0.0,0,0,0,0,1,0,250,250,0,,,,,,,,,,,,,,,,
34283,0,,,,,,,,0.01,0.03,0.99,0,-0,0,0.03,,74,0,7,34,98,1.498,0.0,113,0.99,13.0,0.0,1,0.0,0.0,0.0,0,0,0,0,1,0,250,250,0,,,,,,,,,,,,,,,,
34303,0,,,,,,,,0.01,0.03,0.99,0,-0,0,0.03,,74,0,7,34,98,1.498,0.0,113,0.99,13.0,0.0,1,0.0,0.0,0.0,0,0,0,0,1,0,250,250,0,,,,,,,,,,,,,,,,
34323,0,,,,,,,,0.01,0.03,0.99,0,-0,0,0.03,,74,0,7,34,98,1.498,0.0,113,0.99,13.0,0.0,1,0.0,0.0,0.0,0,0,0,0,1,0,250,250,0,,,,,,,,,,,,,,,,
34343,0,-0,2,38,15,34,29,-1,0.01,0.03,0.99,0,-0,-0,0.03,0,74,0,7,34,98,1.498,0.0,113,0.99,12.9,0.0,1,0.0,0.0,0.0,0,0,0,0,1,0,250,250,0,0.0,0.0,0.0,0.0,0,0,0.0,0,0.0,-1,0.0,,0.0,0,0.0,0.5724
34363,0,,,,,,,,0.01,0.03,0.99,0,-0,0,0.03,,74,0,7,34,98,1.498,0.0,113,0.99,13.0,0.0,1,0.0,0.0,0.0,0,0,0,0,1,0,250,250,0,,,,,,,,,,,,,,,,
34383,0,,,,,,,,0.01,0.03,0.99,0,-0,0,0.03,,74,0,7,34,98,1.498,0.0,113,0.99,12.9,0.0,1,0.0,0.0,0.0,0,0,0,0,1,0,250,250,0,,,,,,,,,,,,,,,,
34403,0,,,,,,,,0.01,0.03,0.99,0,-0,-0,0.03,,74,0,7,34,98,1.498,0.0,113,0.99,13.0,0.0,1,0.0,0.0,0.0,0,0,0,0,1,0,250,250,0,,,,,,,,,,,,,,,,
34423,0,,,,,,,,0.01,0.03,0.98,0,-0,0,0.03,,74,0,7,34,98,1.498,0.0,113,0.99,13.0,0.0,1,0.0,0.0,0.0,0,0,0,0,1,0,250,250,0,,,,,,,,,,,,,,,,
34443,0,-1,2,38,16,34,29,-1,0.01,0.03,0.99,0,-0,0,0.03,0,74,0,7,34,98,1.498,0.0,113,0.99,13.0,0.0,1,0.0,0.0,0.0,0,0,0,0,1,0,250,250,0,0.0,0.0,0.0,0.0,0,0,0.0,0,0.0,-1,0.0,0.0,0.0,0,0.0,0.574
34463,0,,,,,,,,0.01,0.03,0.99,0,-0,-0,0.03,,74,0,7,34,98,1.498,0.0,113,0.99,13.0,0.0,1,0.0,0.0,0.0,0,0,0,0,1,0,250,250,0,,,,,,,,,,,,,,,,
34483,0,,,,,,,,0.01,0.03,0.99,0,-0,-0,0.03,,74,0,7,34,98,1.498,0.0,113,0.98,13.0,0.0,1,0.0,0.0,0.0,0,0,0,0,1,0,250,250,0,,,,,,,,,,,,,,,,
34503,0,,,,,,,,0.01,0.03,0.99,0,-0,-0,0.03,,74,0,7,34,98,1.498,0.0,113,0.98,13.0,0.0,1,0.0,0.0,0.0,0,0,0,0,1,0,250,250,0,,,,,,,,,,,,,,,,
34523,0,,,,,,,,0.01,0.03,0.99,0,-0,-0,0.03,,74,0,7,34,98,1.498,0.0,113,0.99,13.0,0.0,1,0.0,0.0,0.0,0,0,0,0,1,0,250,250,0,,,,,,,,,,,,,,,,
34543,0,-0,2,38,15,34,29,-0,0.01,0.03,0.99,0,-0,-0,0.03,0,74,0,7,34,98,1.498,0.0,113,0.99,13.0,0.0,1,0.0,0.0,0.0,0,0,0,0,1,0,250,250,0,0.0,0.0,0.0,0.0,0,0,0.0,0,0.0,-1,0.0,,0.0,0,0.0,0.5757
34563,0,,,,,,,,0.01,0.03,0.99,0,-0,0,0.03,,74,0,7,34,98,1.498,0.0,113,0.99,13.0,0.0,1,0.0,0.0,0.0,0,0,0,0,1,0,250,250,0,,,,,,,,,,,,,,,,
34583,0,,,,,,,,0.01,0.03,0.99,0,-0,-0,0.03,,74,0,7,34,98,1.498,0.0,113,0.99,13.0,0.0,1,0.0,0.0,0.0,0,0,0,0,1,0,250,250,0,,,,,,,,,,,,,,,,
34603,0,,,,,,,,0.01,0.03,0.98,0,-0,0,0.03,,74,0,7,34,98,1.498,0.0,113,0.99,13.0,0.0,1,0.0,0.0,0.0,0,0,0,0,1,0,250,250,0,,,,,,,,,,,,,,,,
34623,0,,,,,,,,0.01,0.03,0.99,0,-0,-0,0.03,,74,0,7,34,98,1.498,0.0,113,0.99,13.0,0.0,1,0.0,0.0,0.0,0,0,0,0,1,0,250,250,0,,,,,,,,,,,,,,,,
34643,0,-0,2,38,16,34,30,-2,0.01,0.03,0.98,0,-0,-0,0.03,0,74,0,7,34,98,1.498,0.0,113,0.99,13.0,0.0,1,0.0,0.0,0.0,0,0,0,0,1,0,250,250,0,0.0,0.0,0.0,0.0,0,0,0.0,0,0.0,-1,0.0,0.0,0.0,0,0.0,0.5774
34663,0,,,,,,,,0.01,0.03,0.99,0,-0,0,0.03,,74,0,7,34,98,1.498,0.0,113,0.99,13.0,0.0,1,0.0,0.0,0.0,0,0,0,0,1,0,250,250,0,,,,,,,,,,,,,,,,
34683,0,,,,,,,,0.01,0.03,0.99,0,-0,0,0.03,,74,0,7,34,98,1.498,0.0,113,0.99,13.0,0.0,1,0.0,0.0,0.0,0,0,0,0,1,0,250,250,0,,,,,,,,,,,,,,,,
34703,0,,,,,,,,0.01,0.03,0.99,0,-0,0,0.03,,74,0,7,34,98,1.498,0.0,113,0.99,13.0,0.0,1,0.0,0.0,0.0,0,0,0,0,1,0,250,250,0,,,,,,,,,,,,,,,,
34723,0,,,,,,,,0.01,0.03,0.99,0,-0,0,0.03,,74,0,7,34,98,1.498,0.0,113,0.99,13.0,0.0,1,0.0,0.0,0.0,0,0,0,0,1,0,250,250,0,,,,,,,,,,,,,,,,
34743,0,0,1,38,16,33,30,-1,0.01,0.03,0.99,0,-0,0,0.03,0,74,0,7,34,98,1.498,0.0,113,1.0,13.0,0.0,1,0.0,0.0,0.0,0,0,0,0,1,0,250,250,0,0.0,0.0,0.0,0.0,0,0,0.0,0,0.0,-1,0.0,,0.0,0,0.0,0.579
34763,0,,,,,,,,0.01,0.03,0.99,0,-0,0,0.03,,74,0,7,34,98,1.498,0.0,113,0.99,13.0,0.0,1,0.0,0.0,0.0,0,0,0,0,1,0,250,250,0,,,,,,,,,,,,,,,,
34783,0,,,,,,,,0.01,0.03,0.99,0,-0,0,0.03,,74,0,7,34,98,1.498,0.0,113,0.99,13.0,0.0,1,0.0,0.0,0.0,0,0,0,0,1,0,250,250,0,,,,,,,,,,,,,,,,
34803,0,,,,,,,,0.01,0.03,0.99,0,-0,0,0.03,,74,0,7,34,98,1.498,0.0,113,0.99,13.0,0.0,1,0.0,0.0,0.0,0,0,0,0,1,0,250,250,0,,,,,,,,,,,,,,,,
34823,0,,,,,,,,0.01,0.03,0.99,0,-0,0,0.03,,74,0,7,34,98,1.498,0.0,113,1.0,13.0,0.0,1,0.0,0.0,0.0,0,0,0,0,1,0,250,250,0,,,,,,,,,,,,,,,,
34843,0,0,1,38,16,33,30,-1,0.01,0.03,0.99,0,-0,0,0.03,0,74,0,7,34,98,1.498,0.0,113,0.99,13.0,0.0,1,0.0,0.0,0.0,0,0,0,0,1,0,250,250,0,0.0,0.0,0.0,0.0,0,0,0.0,0,0.0,-1,0.0,0.0,0.0,0,0.0,0.5807
34863,0,,,,,,,,0.01,0.03,0.98,0,-0,0,0.03,,74,0,7,34,98,1.498,0.0,113,0.99,13.0,0.0,1,0.0,0.0,0.0,0,0,0,0,1,0,250,250,0,,,,,,,,,,,,,,,,
34883,0,,,,,,,,0.01,0.03,0.98,0,-0,0,0.03,,74,0,7,34,98,1.498,0.0,113,0.98,13.0,0.0,1,0.0,0.0,0.0,0,0,0,0,1,0,250,250,0,,,,,,,,,,,,,,,,
34903,0,,,,,,,,0.01,0.03,0.98,0,-0,0,0.03,,74,0,7,34,98,1.498,0.0,113,0.98,13.0,0.0,1,0.0,0.0,0.0,0,0,0,0,1,0,250,250,0,,,,,,,,,,,,,,,,
34923,0,,,,,,,,0.01,0.03,0.98,0,-0,0,0.03,,74,0,7,34,98,1.498,0.0,113,0.98,13.0,0.0,1,0.0,0.0,0.0,0,0,0,0,1,0,250,250,0,,,,,,,,,,,,,,,,
34943,0,-1,2,38,15,33,30,-1,0.01,0.03,0.98,0,-0,-0,0.03,0,74,0,7,34,98,1.498,0.0,113,0.99,13.0,0.0,1,0.0,0.0,0.0,0,0,0,0,1,0,250,250,0,0.0,0.0,0.0,0.0,0,0,0.0,0,0.0,-1,0.0,,0.0,0,0.0,0.5824
34963,0,,,,,,,,0.01,0.03,0.98,0,-0,0,0.03,,74,0,7,34,98,1.498,0.0,113,0.99,13.0,0.0,1,0.0,0.0,0.0,0,0,0,0,1,0,250,250,0,,,,,,,,,,,,,,,,
34983,0,,,,,,,,0.01,0.03,0.98,0,-0,0,0.03,,74,0,7,34,98,1.498,0.0,113,0.98,13.0,0.0,1,0.0,0.0,0.0,0,0,0,0,1,0,250,250,0,,,,,,,,,,,,,,,,
35003,0,,,,,,,,0.01,0.03,0.98,0,-0,0,0.03,,74,0,7,34,98,1.498,0.0,113,0.99,13.0,0.0,1,0.0,0.0,0.0,0,0,0,0,1,0,250,250,0,,,,,,,,,,,,,,,,
35023,0,,,,,,,,0.01,0.03,0.98,0,-0,0,0.03,,74,0,7,34,98,1.498,0.0,113,0.98,13.0,0.0,1,0.0,0.0,0.0,0,0,0,0,1,0,250,250,0,,,,,,,,,,,,,,,,
35043,0,-1,2,38,15,34,30,-1,0.01,0.03,0.98,0,-0,0,0.03,0,74,0,7,34,98,1.498,0.0,113,0.99,13.0,0.0,1,0.0,0.0,0.0,0,0,0,0,1,0,250,250,0,0.0,0.0,0.0,0.0,0,0,0.0,0,0.0,-1,0.0,0.0,0.0,0,0.0,0.584
35063,0,,,,,,,,0.01,0.03,0.98,0,-0,0,0.03,,74,0,7,34,98,1.498,0.0,113,0.99,13.0,0.0,1,0.0,0.0,0.0,0,0,0,0,1,0,250,250,0,,,,,,,,,,,,,,,,
35083,0,,,,,,,,0.01,0.03,0.98,0,-0,-0,0.03,,74,0,7,34,98,1.498,0.0,113,0.99,13.0,0.0,1,0.0,0.0,0.0,0,0,0,0,1,0,250,250,0,,,,,,,,,,,,,,,,
35103,0,,,,,,,,0.01,0.03,0.98,0,-0,0,0.03,,74,0,7,34,98,1.498,0.0,113,0.99,13.0,0.0,1,0.0,0.0,0.0,0,0,0,0,1,0,250,250,0,,,,,,,,,,,,,,,,
35123,0,,,,,,,,0.01,0.03,0.98,0,-0,0,0.03,,74,0,7,34,98,1.498,0.0,113,0.99,13.0,0.0,1,0.0,0.0,0.0,0,0,0,0,1,0,250,250,0,,,,,,,,,,,,,,,,
35143,0,-1,2,38,15,34,30,-1,0.01,0.03,0.98,0,-0,0,0.03,0,74,0,7,34,98,1.498,0.0,113,0.99,13.0,0.0,1,0.0,0.0,0.0,0,0,0,0,1,0,250,250,0,0.0,0.0,0.0,0.0,0,0,0.0,0,0.0,-1,0.0,,0.0,0,0.0,0.5857
35163,0,,,,,,,,0.01,0.03,0.98,0,-0,0,0.03,,74,0,7,34,98,1.498,0.0,113,0.99,13.0,0.0,1,0.0,0.0,0.0,0,0,0,0,1,0,250,250,0,,,,,,,,,,,,,,,,
35183,0,,,,,,,,0.01,0.03,0.98,0,-0,0,0.03,,74,0,7,34,98,1.498,0.0,113,0.99,13.0,0.0,1,0.0,0.0,0.0,0,0,0,0,1,0,250,250,0,,,,,,,,,,,,,,,,
35203,0,,,,,,,,0.01,0.03,0.98,0,-0,0,0.03,,74,0,7,34,98,1.498,0.0,113,0.98,12.9,0.0,1,0.0,0.0,0.0,0,0,0,0,1,0,250,250,0,,,,,,,,,,,,,,,,
35223,0,,,,,,,,0.01,0.03,0.98,0,-0,-0,0.03,,74,0,7,34,98,1.498,0.0,113,0.98,13.0,0.0,1,0.0,0.0,0.0,0,0,0,0,1,0,250,250,0,,,,,,,,,,,,,,,,
35243,0,0,2,38,16,34,29,-1,0.01,0.03,0.98,0,-0,-0,0.03,0,74,0,7,34,98,1.498,0.0,113,0.98,13.0,0.0,1,0.0,0.0,0.0,0,0,0,0,1,0,250,250,0,0.0,0.0,0.0,0.0,0,0,0.0,0,0.0,-1,0.0,0.0,0.0,0,0.0,0.5874
35263,0,,,,,,,,0.01,0.03,0.98,0,-0,-0,0.03,,74,0,7,34,98,1.498,0.0,113,0.98,13.0,0.0,1,0.0,0.0,0.0,0,0,0,0,1,0,250,250,0,,,,,,,,,,,,,,,,
35283,0,,,,,,,,0.01,0.03,0.98,0,-0,0,0.03,,74,0,7,34,98,1.498,0.0,113,0.99,13.0,0.0,1,0.0,0.0,0.0,0,0,0,0,1,0,250,250,0,,,,,,,,,,,,,,,,
35303,0,,,,,,,,0.01,0.03,0.98,0,-0,0,0.03,,74,0,7,34,98,1.498,0.0,113,0.99,13.0,0.0,1,0.0,0.0,0.0,0,0,0,0,1,0,250,250,0,,,,,,,,,,,,,,,,
35323,0,,,,,,,,0.01,0.03,0.98,0,-0,-0,0.03,,74,0,7,34,98,1.498,0.0,113,0.99,13.0,0.0,1,0.0,0.0,0.0,0,0,0,0,1,0,250,250,0,,,,,,,,,,,,,,,,
35343,0,0,1,38,16,34,29,-0,0.01,0.03,0.98,0,-0,-0,0.03,0,74,0,7,34,98,1.498,0.0,113,0.99,12.9,0.0,1,0.0,0.0,0.0,0,0,0,0,1,0,250,250,0,0.0,0.0,0.0,0.0,0,0,0.0,0,0.0,-1,0.0,,0.0,0,0.0,0.589
35363,0,,,,,,,,0.01,0.03,0.98,0,-0,-0,0.03,,74,0,7,34,98,1.498,0.0,113,0.99,13.0,0.0,1,0.0,0.0,0.0,0,0,0,0,1,0,250,250,0,,,,,,,,,,,,,,,,
35383,0,,,,,,,,0.01,0.03,0.98,0,-0,-0,0.03,,74,0,7,34,98,1.498,0.0,113,0.99,13.0,0.0,1,0.0,0.0,0.0,0,0,0,0,1,0,250,250,0,,,,,,,,,,,,,,,,
35403,0,,,,,,,,0.01,0.03,0.98,0,-0,-0,0.03,,74,0,7,34,98,1.498,0.0,113,0.99,13.0,0.0,1,0.0,0.0,0.0,0,0,0,0,1,0,250,250,0,,,,,,,,,,,,,,,,
35423,0,,,,,,,,0.01,0.03,0.98,0,-0,-0,0.03,,74,0,7,34,98,1.498,0.0,113,0.99,13.0,0.0,1,0.0,0.0,0.0,0,0,0,0,1,0,250,250,0,,,,,,,,,,,,,,,,
35443,0,1,0,38,16,33,30,-1,0.01,0.03,0.98,0,-0,-0,0.03,0,74,0,7,34,98,1.498,0.0,113,0.99,13.0,0.0,1,0.0,0.0,0.0,0,0,0,0,1,0,250,250,0,0.0,0.0,0.0,0.0,0,0,0.0,0,0.0,-1,0.0,0.0,0.0,0,0.0,0.5907
35463,0,,,,,,,,0.01,0.03,0.98,0,-0,-0,0.03,,74,0,7,34,98,1.498,0.0,113,0.99,13.0,0.0,1,0.0,0.0,0.0,0,0,0,0,1,0,250,250,0,,,,,,,,,,,,,,,,
35483,0,,,,,,,,0.01,0.03,0.98,0,-0,-0,0.03,,74,0,7,34,98,1.498,0.0,113,0.99,13.0,0.0,1,0.0,0.0,0.0,0,0,0,0,1,0,250,250,0,,,,,,,,,,,,,,,,
35503,0,,,,,,,,0.01,0.03,0.98,0,-0,-0,0.03,,74,0,7,34,97,1.498,0.0,113,0.99,13.0,0.0,1,0.0,0.0,0.0,0,0,0,0,1,0,250,250,0,,,,,,,,,,,,,,,,
35523,0,,,,,,,,0.01,0.03,0.98,0,-0,-0,0.03,,74,0,7,34,97,1.498,0.0,113,0.99,13.0,0.0,1,0.0,0.0,0.0,0,0,0,0,1,0,250,250,0,,,,,,,,,,,,,,,,
35543,0,1,0,38,16,33,29,-0,0.01,0.03,0.98,0,-0,-0,0.03,0,74,0,7,34,97,1.498,0.0,113,0.99,13.0,0.0,1,0.0,0.0,0.0,0,0,0,0,1,0,250,250,0,0.0,0.0,0.0,0.0,0,0,0.0,0,0.0,-1,0.0,,0.0,0,0.0,0.5924
35563,0,,,,,,,,0.01,0.03,0.98,0,-0,-0,0.03,,74,0,7,34,97,1.498,0.0,113,0.99,13.0,0.0,1,0.0,0.0,0.0,0,0,0,0,1,0,250,250,0,,,,,,,,,,,,,,,,
35583,0,,,,,,,,0.01,0.03,0.98,0,-0,-0,0.03,,74,0,7,34,97,1.498,0.0,113,0.99,13.0,0.0,1,0.0,0.0,0.0,0,0,0,0,1,0,250,250,0,,,,,,,,,,,,,,,,
35603,0,,,,,,,,0.01,0.03,0.98,0,-0,0,0.03,,74,0,7,34,97,1.498,0.0,113,0.99,13.0,0.0,1,0.0,0.0,0.0,0,0,0,0,1,0,250,250,0,,,,,,,,,,,,,,,,
35623,0,,,,,,,,0.01,0.03,0.98,0,-0,-0,0.03,,74,0,7,34,98,1.498,0.0,113,0.99,13.0,0.0,1,0.0,0.0,0.0,0,0,0,0,1,0,250,250,0,,,,,,,,,,,,,,,,
35643,0,0,2,38,15,34,30,-2,0.01,0.03,0.98,0,-0,-0,0.03,0,74,0,7,34,98,1.498,0.0,113,0.99,13.0,0.0,1,0.0,0.0,0.0,0,0,0,0,1,0,250,250,0,0.0,0.0,0.0,0.0,0,0,0.0,0,0.0,-1,0.0,0.0,0.0,0,0.0,0.594
35663,0,,,,,,,,0.01,0.03,0.98,0,-0,-0,0.03,,74,0,7,34,97,1.498,0.0,113,0.99,13.0,0.0,1,0.0,0.0,0.0,0,0,0,0,1,0,250,250,0,,,,,,,,,,,,,,,,
35683,0,,,,,,,,0.01,0.03,0.98,0,-0,0,0.03,,74,0,7,34,97,1.498,0.0,113,0.99,13.0,0.0,1,0.0,0.0,0.0,0,0,0,0,1,0,250,250,0,,,,,,,,,,,,,,,,
35703,0,,,,,,,,0.01,0.03,0.98,0,-0,-0,0.03,,74,0,7,34,98,1.498,0.0,113,0.99,13.0,0.0,1,0.0,0.0,0.0,0,0,0,0,1,0,250,250,0,,,,,,,,,,,,,,,,
35723,0,,,,,,,,0.01,0.03,0.98,0,-0,-0,0.03,,74,0,7,34,98,1.498,0.0,113,0.99,13.0,0.0,1,0.0,0.0,0.0,0,0,0,0,1,0,250,250,0,,,,,,,,,,,,,,,,
35743,0,0,2,38,16,34,30,-1,0.01,0.03,0.99,0,-0,0,0.03,0,74,0,7,34,98,1.498,0.0,113,0.99,13.0,0.0,1,0.0,0.0,0.0,0,0,0,0,1,0,250,250,0,0.0,0.0,0.0,0.0,0,0,0.0,0,0.0,-1,0.0,,0.0,0,0.0,0.5957
35763,0,,,,,,,,0.01,0.03,0.99,0,-0,0,0.03,,74,0,7,34,98,1.498,0.0,113,0.99,13.0,0.0,1,0.0,0.0,0.0,0,0,0,0,1,0,250,250,0,,,,,,,,,,,,,,,,
35783,0,,,,,,,,0.01,0.03,0.99,0,-0,0,0.03,,74,0,7,34,98,1.498,0.0,113,0.99,13.0,0.0,1,0.0,0.0,0.0,0,0,0,0,1,0,250,250,0,,,,,,,,,,,,,,,,
35803,0,,,,,,,,0.01,0.03,0.98,0,-0,-0,0.03,,74,0,7,34,98,1.498,0.0,113,0.99,13.0,0.0,1,0.0,0.0,0.0,0,0,0,0,1,0,250,250,0,,,,,,,,,,,,,,,,
35823,0,,,,,,,,0.01,0.03,0.98,0,-0,-0,0.03,,74,0,7,34,98,1.498,0.0,113,0.99,13.0,0.0,1,0.0,0.0,0.0,0,0,0,0,1,0,250,250,0,,,,,,,,,,,,,,,,
35843,0,0,1,38,16,33,30,-1,0.01,0.03,0.98,0,-0,0,0.03,0,74,0,7,34,98,1.498,0.0,113,0.99,13.0,0.0,1,0.0,0.0,0.0,0,0,0,0,1,0,250,250,0,0.0,0.0,0.0,0.0,0,0,0.0,0,0.0,-1,0.0,0.0,0.0,0,0.0,0.5974
35863,0,,,,,,,,0.01,0.03,0.98,0,-0,-0,0.03,,74,0,7,34,98,1.498,0.0,113,0.98,13.0,0.0,1,0.0,0.0,0.0,0,0,0,0,1,0,250,250,0,,,,,,,,,,,,,,,,
35883,0,,,,,,,,0.01,0.03,0.98,0,-0,-0,0.03,,74,0,7,34,98,1.498,0.0,113,0.99,13.0,0.0,1,0.0,0.0,0.0,0,0,0,0,1,0,250,250,0,,,,,,,,,,,,,,,,
35903,0,,,,,,,,0.01,0.03,0.98,0,-0,-0,0.03,,74,0,7,34,98,1.498,0.0,113,0.98,13.0,0.0,1,0.0,0.0,0.0,0,0,0,0,1,0,250,250,0,,,,,,,,,,,,,,,,
35923,0,,,,,,,,0.01,0.03,0.99,0,-0,-0,0.03,,74,0,7,34,98,1.498,0.0,113,0.98,13.0,0.0,1,0.0,0.0,0.0,0,0,0,0,1,0,250,250,0,,,,,,,,,,,,,,,,
35943,0,-0,2,38,15,34,29,-0,0.01,0.03,0.98,0,-0,-0,0.03,0,74,0,7,34,98,1.498,0.0,113,0.98,13.0,0.0,1,0.0,0.0,0.0,0,0,0,0,1,0,250,250,0,0.0,0.0,0.0,0.0,0,0,0.0,0,0.0,-1,0.0,,0.0,0,0.0,0.599
35963,0,,,,,,,,0.01,0.03,0.99,0,-0,-0,0.03,,74,0,7,34,98,1.498,0.0,113,0.98,13.0,0.0,1,0.0,0.0,0.0,0,0,0,0,1,0,250,250,0,,,,,,,,,,,,,,,,
35983,0,,,,,,,,0.01,0.03,0.99,0,-0,-0,0.03,,74,0,7,34,98,1.498,0.0,113,0.98,13.0,0.0,1,0.0,0.0,0.0,0,0,0,0,1,0,250,250,0,,,,,,,,,,,,,,,,
36003,0,,,,,,,,0.01,0.03,0.99,0,-0,-0,0.03,,74,0,7,34,98,1.498,0.0,113,0.98,13.0,0.0,1,0.0,0.0,0.0,0,0,0,0,1,0,250,250,0,,,,,,,,,,,,,,,,
36023,0,,,,,,,,0.01,0.03,0.98,0,-0,-0,0.03,,74,0,7,34,98,1.498,0.0,113,0.98,12.9,0.0,1,0.0,0.0,0.0,0,0,0,0,1,0,250,250,0,,,,,,,,,,,,,,,,
36043,0,-1,3,37,16,34,30,-1,0.01,0.03,0.98,0,-0,-0,0.03,0,74,0,7,34,98,1.498,0.0,113,0.98,13.0,0.0,1,0.0,0.0,0.0,0,0,0,0,1,0,250,250,0,0.0,0.0,0.0,0.0,0,0,0.0,0,0.0,-1,0.0,0.0,0.0,0,0.0,0.6007
36063,0,,,,,,,,0.01,0.03,0.98,0,-0,-0,0.03,,74,0,7,34,98,1.498,0.0,113,0.98,13.0,0.0,1,0.0,0.0,0.0,0,0,0,0,1,0,250,250,0,,,,,,,,,,,,,,,,
36083,0,,,,,,,,0.01,0.03,0.98,0,-0,-0,0.03,,74,0,7,34,98,1.498,0.0,113,0.98,13.0,0.0,1,0.0,0.0,0.0,0,0,0,0,1,0,250,250,0,,,,,,,,,,,,,,,,
36103,0,,,,,,,,0.01,0.03,0.98,0,-0,-0,0.03,,74,0,7,34,98,1.498,0.0,113,0.98,13.0,0.0,1,0.0,0.0,0.0,0,0,0,0,1,0,250,250,0,,,,,,,,,,,,,,,,
36123,0,,,,,,,,0.01,0.03,0.98,0,-0,-0,0.03,,74,0,7,34,98,1.498,0.0,113,0.98,13.0,0.0,1,0.0,0.0,0.0,0,0,0,0,1,0,250,250,0,,,,,,,,,,,,,,,,
36143,0,0,1,38,16,33,29,-1,0.01,0.03,0.98,0,-0,-0,0.03,0,74,0,7,34,98,1.498,0.0,113,0.98,13.0,0.0,1,0.0,0.0,0.0,0,0,0,0,1,0,250,250,0,0.0,0.0,0.0,0.0,0,0,0.0,0,0.0,-1,0.0,,0.0,0,0.0,0.6024
36163,0,,,,,,,,0.01,0.03,0.98,0,-0,0,0.03,,74,0,7,34,98,1.498,0.0,113,0.98,13.0,0.0,1,0.0,0.0,0.0,0,0,0,0,1,0,250,250,0,,,,,,,,,,,,,,,,
36183,0,,,,,,,,0.01,0.03,0.98,0,-0,0,0.03,,74,0,7,34,98,1.498,0.0,113,0.98,13.0,0.0,1,0.0,0.0,0.0,0,0,0,0,1,0,250,250,0,,,,,,,,,,,,,,,,
36203,0,,,,,,,,0.01,0.03,0.98,0,-0,0,0.03,,74,0,7,34,98,1.498,0.0,113,0.98,13.0,0.0,1,0.0,0.0,0.0,0,0,0,0,1,0,250,250,0,,,,,,,,,,,,,,,,
36223,0,,,,,,,,0.01,0.03,0.98,0,-0,0,0.03,,74,0,7,34,98,1.498,0.0,113,0.98,13.0,0.0,1,0.0,0.0,0.0,0,0,0,0,1,0,250,250,0,,,,,,,,,,,,,,,,
36243,0,-1,1,38,16,33,30,-1,0.01,0.03,0.98,0,-0,0,0.03,0,74,0,7,34,98,1.498,0.0,113,0.98,13.0,0.0,1,0.0,0.0,0.0,0,0,0,0,1,0,250,250,0,0.0,0.0,0.0,0.0,0,0,0.0,0,0.0,-1,0.0,0.0,0.0,0,0.0,0.604
36263,0,,,,,,,,0.01,0.03,0.98,0,-0,0,0.03,,74,0,7,34,98,1.498,0.0,113,0.98,13.0,0.0,1,0.0,0.0,0.0,0,0,0,0,1,0,250,250,0,,,,,,,,,,,,,,,,
36283,0,,,,,,,,0.01,0.03,0.98,0,-0,0,0.03,,74,0,7,34,98,1.498,0.0,113,0.97,13.0,0.0,1,0.0,0.0,0.0,0,0,0,0,1,0,250,250,0,,,,,,,,,,,,,,,,
36303,0,,,,,,,,0.01,0.03,0.98,0,-0,0,0.03,,74,0,7,34,98,1.498,0.0,113,0.97,13.0,0.0,1,0.0,0.0,0.0,0,0,0,0,1,0,250,250,0,,,,,,,,,,,,,,,,
36323,0,,,,,,,,0.01,0.03,0.98,0,-0,0,0.03,,74,0,7,34,98,1.498,0.0,113,0.97,13.0,0.0,1,0.0,0.0,0.0,0,0,0,0,1,0,250,250,0,,,,,,,,,,,,,,,,
36343,0,0,3,38,16,34,30,-2,0.01,0.03,0.98,0,-0,0,0.03,0,74,0,7,34,98,1.498,0.0,113,0.97,13.0,0.0,1,0.0,0.0,0.0,0,0,0,0,1,0,250,250,0,0.0,0.0,0.0,0.0,0,0,0.0,0,0.0,-1,0.0,,0.0,0,0.0,0.6057
36363,0,,,,,,,,0.01,0.03,0.98,0,-0,0,0.03,,74,0,7,34,98,1.498,0.0,113,0.97,13.0,0.0,1,0.0,0.0,0.0,0,0,0,0,1,0,250,250,0,,,,,,,,,,,,,,,,
36383,0,,,,,,,,0.01,0.03,0.98,0,-0,0,0.03,,74,0,7,34,98,1.498,0.0,113,0.97,13.0,0.0,1,0.0,0.0,0.0,0,0,0,0,1,0,250,250,0,,,,,,,,,,,,,,,,
36403,0,,,,,,,,0.01,0.03,0.98,0,-0,0,0.03,,74,0,7,34,98,1.498,0.0,113,0.97,13.0,0.0,1,0.0,0.0,0.0,0,0,0,0,1,0,250,250,0,,,,,,,,,,,,,,,,
36423,0,,,,,,,,0.01,0.03,0.98,0,-0,0,0.03,,74,0,7,34,98,1.498,0.0,113,0.97,13.0,0.0,1,0.0,0.0,0.0,0,0,0,0,1,0,250,250,0,,,,,,,,,,,,,,,,
36443,0,0,1,38,16,34,30,-2,0.01,0.03,0.98,0,-0,0,0.03,0,74,0,7,34,98,1.498,0.0,113,0.97,13.0,0.0,1,0.0,0.0,0.0,0,0,0,0,1,0,250,250,0,0.0,0.0,0.0,0.0,0,0,0.0,0,0.0,-1,0.0,0.0,0.0,0,0.0,0.6074
36463,0,,,,,,,,0.01,0.03,0.98,0,-0,0,0.03,,74,0,7,34,98,1.498,0.0,113,0.97,13.0,0.0,1,0.0,0.0,0.0,0,0,0,0,1,0,250,250,0,,,,,,,,,,,,,,,,
36483,0,,,,,,,,0.01,0.03,0.98,0,-0,0,0.03,,74,0,7,34,98,1.498,0.0,113,0.97,13.0,0.0,1,0.0,0.0,0.0,0,0,0,0,1,0,250,250,0,,,,,,,,,,,,,,,,
36503,0,,,,,,,,0.01,0.03,0.98,0,-0,0,0.03,,74,0,7,34,98,1.498,0.0,113,0.97,13.0,0.0,1,0.0,0.0,0.0,0,0,0,0,1,0,250,250,0,,,,,,,,,,,,,,,,
36523,0,,,,,,,,0.01,0.03,0.98,0,-0,0,0.03,,74,0,7,34,98,1.498,0.0,113,0.97,13.0,0.0,1,0.0,0.0,0.0,0,0,0,0,1,0,250,250,0,,,,,,,,,,,,,,,,
36543,0,-1,2,38,15,34,30,-1,0.01,0.03,0.98,0,-0,0,0.03,0,74,0,7,34,98,1.498,0.0,113,0.97,13.0,0.0,1,0.0,0.0,0.0,0,0,0,0,1,0,250,250,0,0.0,0.0,0.0,0.0,0,0,0.0,0,0.0,-1,0.0,,0.0,0,0.0,0.609
36563,0,,,,,,,,0.01,0.03,0.98,0,-0,0,0.03,,74,0,7,34,98,1.498,0.0,113,0.97,13.0,0.0,1,0.0,0.0,0.0,0,0,0,0,1,0,250,250,0,,,,,,,,,,,,,,,,
36583,0,,,,,,,,0.01,0.03,0.98,0,-0,0,0.03,,74,0,7,34,98,1.498,0.0,113,0.97,13.0,0.0,1,0.0,0.0,0.0,0,0,0,0,1,0,250,250,0,,,,,,,,,,,,,,,,
36603,0,,,,,,,,0.01,0.03,0.98,0,-0,0,0.03,,74,0,7,34,98,1.498,0.0,113,0.97,13.0,0.0,1,0.0,0.0,0.0,0,0,0,0,1,0,250,250,0,,,,,,,,,,,,,,,,
36623,0,,,,,,,,0.01,0.03,0.98,0,-0,0,0.03,,74,0,7,34,98,1.498,0.0,113,0.97,13.0,0.0,1,0.0,0.0,0.0,0,0,0,0,1,0,250,250,0,,,,,,,,,,,,,,,,
36643,0,-1,1,38,16,33,30,-1,0.01,0.03,0.98,0,-0,0,0.03,0,74,0,7,34,98,1.498,0.0,113,0.97,13.0,0.0,1,0.0,0.0,0.0,0,0,0,0,1,0,250,250,0,0.0,0.0,0.0,0.0,0,0,0.0,0,0.0,-1,0.0,0.0,0.0,0,0.0,0.6107
36663,0,,,,,,,,0.01,0.03,0.98,0,-0,0,0.03,,74,0,7,34,98,1.498,0.0,113,0.97,13.0,0.0,1,0.0,0.0,0.0,0,0,0,0,1,0,250,250,0,,,,,,,,,,,,,,,,
36683,0,,,,,,,,0.01,0.03,0.98,0,-0,-0,0.03,,74,0,7,34,98,1.498,0.0,113,0.97,13.0,0.0,1,0.0,0.0,0.0,0,0,0,0,1,0,250,250,0,,,,,,,,,,,,,,,,
36703,0,,,,,,,,0.01,0.03,0.98,0,-0,0,0.03,,74,0,7,34,98,1.498,0.0,113,0.97,13.0,0.0,1,0.0,0.0,0.0,0,0,0,0,1,0,250,250,0,,,,,,,,,,,,,,,,
36723,0,,,,,,,,0.01,0.03,0.98,0,-0,0,0.03,,74,0,7,34,98,1.498,0.0,113,0.97,13.0,0.0,1,0.0,0.0,0.0,0,0,0,0,1,0,250,250,0,,,,,,,,,,,,,,,,
36743,0,-1,2,38,16,34,29,-1,0.01,0.03,0.98,0,-0,0,0.03,0,74,0,7,34,98,1.498,0.0,113,0.97,13.0,0.0,1,0.0,0.0,0.0,0,0,0,0,1,0,250,250,0,0.0,0.0,0.0,0.0,0,0,0.0,0,0.0,-1,0.0,,0.0,0,0.0,0.6124
36763,0,,,,,,,,0.01,0.03,0.98,0,-0,0,0.03,,74,0,7,34,98,1.498,0.0,113,0.97,13.0,0.0,1,0.0,0.0,0.0,0,0,0,0,1,0,250,250,0,,,,,,,,,,,,,,,,
36783,0,,,,,,,,0.01,0.03,0.98,0,-0,-0,0.03,,74,0,7,34,98,1.498,0.0,113,0.97,13.0,0.0,1,0.0,0.0,0.0,0,0,0,0,1,0,250,250,0,,,,,,,,,,,,,,,,
36803,0,,,,,,,,0.01,0.03,0.98,0,-0,-0,0.03,,74,0,7,34,98,1.498,0.0,113,0.97,13.0,0.0,1,0.0,0.0,0.0,0,0,0,0,1,0,250,250,0,,,,,,,,,,,,,,,,
36823,0,,,,,,,,0.01,0.03,0.98,0,-0,-0,0.03,,74,0,7,34,98,1.498,0.0,113,0.97,13.0,0.0,1,0.0,0.0,0.0,0,0,0,0,1,0,250,250,0,,,,,,,,,,,,,,,,
36843,0,-0,1,38,16,33,30,-1,0.01,0.03,0.98,0,-0,-0,0.03,0,74,0,7,34,98,1.498,0.0,113,0.97,13.0,0.0,1,0.0,0.0,0.0,0,0,0,0,1,0,250,250,0,0.0,0.0,0.0,0.0,0,0,0.0,0,0.0,-1,0.0,0.0,0.0,0,0.0,0.614
36863,0,,,,,,,,0.01,0.03,0.98,0,-0,-0,0.03,,74,0,7,34,98,1.498,0.0,113,0.97,13.0,0.0,1,0.0,0.0,0.0,0,0,0,0,1,0,250,250,0,,,,,,,,,,,,,,,,
36883,0,,,,,,,,0.01,0.03,0.98,0,-0,-0,0.03,,74,0,7,34,98,1.498,0.0,113,0.97,13.0,0.0,1,0.0,0.0,0.0,0,0,0,0,1,0,250,250,0,,,,,,,,,,,,,,,,
36903,0,,,,,,,,0.01,0.03,0.98,0,-0,-0,0.03,,74,0,7,34,98,1.498,0.0,113,0.97,13.0,0.0,1,0.0,0.0,0.0,0,0,0,0,1,0,250,250,0,,,,,,,,,,,,,,,,
36923,0,,,,,,,,0.01,0.03,0.98,0,-0,-0,0.03,,74,0,7,34,98,1.498,0.0,113,0.97,13.0,0.0,1,0.0,0.0,0.0,0,0,0,0,1,0,250,250,0,,,,,,,,,,,,,,,,
36943,0,0,3,38,16,34,29,-2,0.01,0.03,0.98,0,-0,-0,0.03,0,74,0,7,34,98,1.498,0.0,113,0.97,13.0,0.0,1,0.0,0.0,0.0,0,0,0,0,1,0,250,250,0,0.0,0.0,0.0,0.0,0,0,0.0,0,0.0,-1,0.0,,0.0,0,0.0,0.6157
36963,0,,,,,,,,0.01,0.03,0.98,0,-0,-0,0.03,,74,0,7,34,98,1.498,0.0,113,0.97,13.0,0.0,1,0.0,0.0,0.0,0,0,0,0,1,0,250,250,0,,,,,,,,,,,,,,,,
36983,0,,,,,,,,0.01,0.03,0.98,0,-0,-0,0.03,,74,0,7,34,98,1.498,0.0,113,0.97,13.0,0.0,1,0.0,0.0,0.0,0,0,0,0,1,0,250,250,0,,,,,,,,,,,,,,,,
37003,0,,,,,,,,0.01,0.03,0.98,0,-0,-0,0.03,,74,0,7,34,98,1.498,0.0,113,0.97,13.0,0.0,1,0.0,0.0,0.0,0,0,0,0,1,0,250,250,0,,,,,,,,,,,,,,,,
37023,0,,,,,,,,0.01,0.03,0.98,0,-0,-0,0.03,,74,0,7,34,98,1.498,0.0,113,0.97,13.0,0.0,1,0.0,0.0,0.0,0,0,0,0,1,0,250,250,0,,,,,,,,,,,,,,,,
37043,0,0,2,38,15,34,30,-1,0.01,0.02,0.98,0,-0,-0,0.03,0,74,0,7,34,98,1.498,0.0,113,0.97,13.0,0.0,1,0.0,0.0,0.0,0,0,0,0,1,0,250,250,0,0.0,0.0,0.0,0.0,0,0,0.0,0,0.0,-1,0.0,0.0,0.0,0,0.0,0.6174
37063,0,,,,,,,,0.01,0.02,0.98,0,-0,-0,0.03,,74,0,7,34,98,1.498,0.0,113,0.97,13.0,0.0,1,0.0,0.0,0.0,0,0,0,0,1,0,250,250,0,,,,,,,,,,,,,,,,
37083,0,,,,,,,,0.01,0.02,0.98,0,-0,0,0.03,,74,0,7,34,98,1.498,0.0,113,0.97,13.0,0.0,1,0.0,0.0,0.0,0,0,0,0,1,0,250,250,0,,,,,,,,,,,,,,,,
37103,0,,,,,,,,0.01,0.02,0.98,0,-0,0,0.03,,74,0,7,34,98,1.498,0.0,113,0.97,13.0,0.0,1,0.0,0.0,0.0,0,0,0,0,1,0,250,250,0,,,,,,,,,,,,,,,,
37123,0,,,,,,,,0.01,0.02,0.99,0,-0,0,0.03,,74,0,7,34,98,1.498,0.0,113,0.97,12.9,0.0,1,0.0,0.0,0.0,0,0,0,0,1,0,250,250,0,,,,,,,,,,,,,,,,
37143,0,-1,2,38,15,34,29,-1,0.01,0.02,0.98,0,-0,0,0.03,0,74,0,7,34,98,1.498,0.0,113,0.97,12.9,0.0,1,0.0,0.0,0.0,0,0,0,0,1,0,250,250,0,0.0,0.0,0.0,0.0,0,0,0.0,0,0.0,-1,0.0,,0.0,0,0.0,0.6191
37163,0,,,,,,,,0.01,0.02,0.99,0,-0,0,0.03,,74,0,7,34,98,1.498,0.0,113,0.97,13.0,0.0,1,0.0,0.0,0.0,0,0,0,0,1,0,250,250,0,,,,,,,,,,,,,,,,
37183,0,,,,,,,,0.01,0.02,0.98,0,-0,0,0.03,,74,0,7,34,98,1.498,0.0,113,0.97,13.0,0.0,1,0.0,0.0,0.0,0,0,0,0,1,0,250,250,0,,,,,,,,,,,,,,,,
37203,0,,,,,,,,0.01,0.02,0.99,0,-0,0,0.03,,74,0,7,34,98,1.498,0.0,113,0.97,13.0,0.0,1,0.0,0.0,0.0,0,0,0,0,1,0,250,250,0,,,,,,,,,,,,,,,,
37223,0,,,,,,,,0.01,0.03,0.99,0,-0,0,0.03,,74,0,7,34,98,1.498,0.0,113,0.97,13.0,0.0,1,0.0,0.0,0.0,0,0,0,0,1,0,250,250,0,,,,,,,,,,,,,,,,
37243,0,0,1,38,15,34,30,-0,0.01,0.03,0.99,0,-0,0,0.03,0,74,0,7,34,98,1.498,0.0,113,0.97,13.0,0.0,1,0.0,0.0,0.0,0,0,0,0,1,0,250,250,0,0.0,0.0,0.0,0.0,0,0,0.0,0,0.0,-1,0.0,0.0,0.0,0,0.0,0.6207
37263,0,,,,,,,,0.01,0.03,0.99,0,-0,0,0.03,,74,0,7,34,98,1.498,0.0,113,0.97,12.9,0.0,1,0.0,0.0,0.0,0,0,0,0,1,0,250,250,0,,,,,,,,,,,,,,,,
37283,0,,,,,,,,0.01,0.03,0.99,0,-0,0,0.03,,74,0,7,34,98,1.498,0.0,113,0.97,12.9,0.0,1,0.0,0.0,0.0,0,0,0,0,1,0,250,250,0,,,,,,,,,,,,,,,,
37303,0,,,,,,,,0.01,0.03,0.99,0,-0,0,0.03,,74,0,7,34,98,1.498,0.0,113,0.97,12.9,0.0,1,0.0,0.0,0.0,0,0,0,0,1,0,250,250,0,,,,,,,,,,,,,,,,
37323,0,,,,,,,,0.01,0.03,0.99,0,-0,0,0.03,,74,0,7,34,98,1.498,0.0,113,0.97,12.9,0.0,1,0.0,0.0,0.0,0,0,0,0,1,0,250,250,0,,,,,,,,,,,,,,,,
37343,0,-1,2,38,15,34,30,-1,0.01,0.03,0.99,0,-0,0,0.03,0,74,0,7,34,98,1.498,0.0,113,0.97,13.0,0.0,1,0.0,0.0,0.0,0,0,0,0,1,0,250,250,0,0.0,0.0,0.0,0.0,0,0,0.0,0,0.0,-1,0.0,,0.0,0,0.0,0.6224
37363,0,,,,,,,,0.01,0.03,0.99,0,-0,0,0.03,,74,0,7,34,98,1.498,0.0,113,0.97,13.0,0.0,1,0.0,0.0,0.0,0,0,0,0,1,0,250,250,0,,,,,,,,,,,,,,,,
37383,0,,,,,,,,0.01,0.03,0.99,0,-0,0,0.03,,74,0,7,34,98,1.498,0.0,113,0.97,13.0,0.0,1,0.0,0.0,0.0,0,0,0,0,1,0,250,250,0,,,,,,,,,,,,,,,,
37403,0,,,,,,,,0.01,0.03,0.98,0,-0,0,0.03,,74,0,7,34,98,1.498,0.0,113,0.97,13.0,0.0,1,0.0,0.0,0.0,0,0,0,0,1,0,250,250,0,,,,,,,,,,,,,,,,
37423,0,,,,,,,,0.01,0.03,0.99,0,-0,0,0.03,,74,0,7,34,98,1.498,0.0,113,0.97,13.0,0.0,1,0.0,0.0,0.0,0,0,0,0,1,0,250,250,0,,,,,,,,,,,,,,,,
37443,0,0,0,38,15,34,29,-0,0.01,0.03,0.99,0,-0,0,0.03,0,74,0,7,34,98,1.498,0.0,113,0.97,12.9,0.0,1,0.0,0.0,0.0,0,0,0,0,1,0,250,250,0,0.0,0.0,0.0,0.0,0,0,0.0,0,0.0,-1,0.0,0.0,0.0,0,0.0,0.624
37463,0,,,,,,,,0.01,0.03,0.99,0,-0,0,0.03,,74,0,7,34,98,1.498,0.0,113,0.97,12.9,0.0,1,0.0,0.0,0.0,0,0,0,0,1,0,250,250,0,,,,,,,,,,,,,,,,
37483,0,,,,,,,,0.01,0.03,0.99,0,-0,0,0.03,,74,0,7,34,98,1.498,0.0,113,0.97,12.9,0.0,1,0.0,0.0,0.0,0,0,0,0,1,0,250,250,0,,,,,,,,,,,,,,,,
37503,0,,,,,,,,0.01,0.03,0.98,0,-0,0,0.03,,74,0,7,34,98,1.498,0.0,113,0.97,12.9,0.0,1,0.0,0.0,0.0,0,0,0,0,1,0,250,250,0,,,,,,,,,,,,,,,,
37523,0,,,,,,,,0.01,0.03,0.98,0,-0,0,0.03,,74,0,7,34,98,1.498,0.0,113,0.97,13.0,0.0,1,0.0,0.0,0.0,0,0,0,0,1,0,250,250,0,,,,,,,,,,,,,,,,
37543,0,-0,2,38,16,34,29,-1,0.01,0.03,0.98,0,-0,0,0.03,0,74,0,7,34,98,1.498,0.0,113,0.96,13.0,0.0,1,0.0,0.0,0.0,0,0,0,0,1,0,250,250,0,0.0,0.0,0.0,0.0,0,0,0.0,0,0.0,-1,0.0,,0.0,0,0.0,0.6257
37563,0,,,,,,,,0.01,0.03,0.98,0,-0,0,0.03,,74,0,7,34,98,1.498,0.0,113,0.97,13.0,0.0,1,0.0,0.0,0.0,0,0,0,0,1,0,250,250,0,,,,,,,,,,,,,,,,
37583,0,,,,,,,,0.01,0.03,0.98,0,-0,0,0.03,,74,0,7,34,98,1.498,0.0,113,0.97,12.9,0.0,1,0.0,0.0,0.0,0,0,0,0,1,0,250,250,0,,,,,,,,,,,,,,,,
37603,0,,,,,,,,0.01,0.03,0.98,0,-0,0,0.03,,74,0,7,34,98,1.498,0.0,113,0.97,12.9,0.0,1,0.0,0.0,0.0,0,0,0,0,1,0,250,250,0,,,,,,,,,,,,,,,,
37623,0,,,,,,,,0.01,0.03,0.98,0,-0,0,0.03,,74,0,7,34,98,1.498,0.0,113,0.97,12.9,0.0,1,0.0,0.0,0.0,0,0,0,0,1,0,250,250,0,,,,,,,,,,,,,,,,
37643,0,0,0,38,15,34,29,-1,0.01,0.03,0.98,0,-0,0,0.03,0,74,0,7,34,98,1.498,0.0,113,0.97,12.9,0.0,1,0.0,0.0,0.0,0,0,0,0,1,0,250,250,0,0.0,0.0,0.0,0.0,0,0,0.0,0,0.0,-1,0.0,0.0,0.0,0,0.0,0.6274
37663,0,,,,,,,,0.01,0.03,0.98,0,-0,0,0.03,,74,0,7,34,98,1.498,0.0,113,0.97,12.9,0.0,1,0.0,0.0,0.0,0,0,0,0,1,0,250,250,0,,,,,,,,,,,,,,,,
37683,0,,,,,,,,0.01,0.03,0.98,0,-0,0,0.03,,74,0,7,34,98,1.498,0.0,113,0.97,13.0,0.0,1,0.0,0.0,0.0,0,0,0,0,1,0,250,250,0,,,,,,,,,,,,,,,,
37703,0,,,,,,,,0.01,0.03,0.98,0,-0,0,0.03,,74,0,7,34,98,1.498,0.0,113,0.97,13.0,0.0,1,0.0,0.0,0.0,0,0,0,0,1,0,250,250,0,,,,,,,,,,,,,,,,
37723,0,,,,,,,,0.01,0.03,0.98,0,-0,0,0.03,,74,0,7,34,98,1.498,0.0,113,0.97,13.0,0.0,1,0.0,0.0,0.0,0,0,0,0,1,0,250,250,0,,,,,,,,,,,,,,,,
37743,0,0,1,38,15,34,30,-2,0.01,0.03,0.98,0,-0,0,0.03,0,74,0,7,34,98,1.498,0.0,113,0.97,12.9,0.0,1,0.0,0.0,0.0,0,0,0,0,1,0,250,250,0,0.0,0.0,0.0,0.0,0,0,0.0,0,0.0,-1,0.0,,0.0,0,0.0,0.629
37763,0,,,,,,,,0.01,0.03,0.98,0,-0,0,0.03,,74,0,7,34,98,1.498,0.0,113,0.97,12.9,0.0,1,0.0,0.0,0.0,0,0,0,0,1,0,250,250,0,,,,,,,,,,,,,,,,
37783,0,,,,,,,,0.01,0.03,0.98,0,-0,0,0.03,,74,0,7,34,98,1.498,0.0,113,0.97,12.9,0.0,1,0.0,0.0,0.0,0,0,0,0,1,0,250,250,0,,,,,,,,,,,,,,,,
37803,0,,,,,,,,0.01,0.03,0.99,0,-0,0,0.03,,74,0,7,34,98,1.498,0.0,113,0.97,12.9,0.0,1,0.0,0.0,0.0,0,0,0,0,1,0,250,250,0,,,,,,,,,,,,,,,,
37823,0,,,,,,,,0.01,0.03,0.99,0,-0,0,0.03,,74,0,7,34,98,1.498,0.0,113,0.97,12.9,0.0,1,0.0,0.0,0.0,0,0,0,0,1,0,250,250,0,,,,,,,,,,,,,,,,
37843,0,0,1,38,15,34,30,-1,0.01,0.03,0.99,0,-0,0,0.03,0,74,0,7,34,98,1.498,0.0,113,0.97,13.0,0.0,1,0.0,0.0,0.0,0,0,0,0,1,0,250,250,0,0.0,0.0,0.0,0.0,0,0,0.0,0,0.0,-1,0.0,0.0,0.0,0,0.0,0.6307
37863,0,,,,,,,,0.01,0.03,0.99,0,-0,0,0.03,,74,0,7,34,98,1.498,0.0,113,0.97,13.0,0.0,1,0.0,0.0,0.0,0,0,0,0,1,0,250,250,0,,,,,,,,,,,,,,,,
37883,0,,,,,,,,0.01,0.03,0.99,0,-0,0,0.03,,74,0,7,34,98,1.498,0.0,113,0.97,13.0,0.0,1,0.0,0.0,0.0,0,0,0,0,1,0,250,250,0,,,,,,,,,,,,,,,,
37903,0,,,,,,,,0.01,0.03,0.99,0,-0,0,0.03,,74,0,7,34,98,1.498,0.0,113,0.97,12.9,0.0,1,0.0,0.0,0.0,0,0,0,0,1,0,250,250,0,,,,,,,,,,,,,,,,
37923,0,,,,,,,,0.01,0.03,0.99,0,-0,0,0.03,,74,0,7,34,98,1.498,0.0,113,0.97,12.9,0.0,1,0.0,0.0,0.0,0,0,0,0,1,0,250,250,0,,,,,,,,,,,,,,,,
37943,0,0,3,37,16,34,29,-1,0.01,0.03,0.99,0,-0,0,0.03,0,74,0,7,34,98,1.498,0.0,113,0.97,12.9,0.0,1,0.0,0.0,0.0,0,0,0,0,1,0,250,250,0,0.0,0.0,0.0,0.0,0,0,0.0,0,0.0,-1,0.0,,0.0,0,0.0,0.6324
37963,0,,,,,,,,0.01,0.03,0.99,0,-0,0,0.03,,74,0,7,34,98,1.498,0.0,113,0.97,12.9,0.0,1,0.0,0.0,0.0,0,0,0,0,1,0,250,250,0,,,,,,,,,,,,,,,,
37983,0,,,,,,,,0.01,0.03,0.98,0,-0,0,0.03,,74,0,7,34,98,1.498,0.0,113,0.97,12.9,0.0,1,0.0,0.0,0.0,0,0,0,0,1,0,250,250,0,,,,,,,,,,,,,,,,
38003,0,,,,,,,,0.01,0.03,0.99,0,-0,0,0.03,,74,0,7,34,98,1.498,0.0,113,0.96,12.9,0.0,1,0.0,0.0,0.0,0,0,0,0,1,0,250,250,0,,,,,,,,,,,,,,,,
38023,0,,,,,,,,0.01,0.03,0.98,0,-0,0,0.03,,74,0,7,34,98,1.498,0.0,113,0.97,13.0,0.0,1,0.0,0.0,0.0,0,0,0,0,1,0,250,250,0,,,,,,,,,,,,,,,,
38043,0,-0,2,37,16,34,30,-0,0.01,0.03,0.98,0,-0,0,0.03,0,74,0,7,34,98,1.498,0.0,113,0.97,12.9,0.0,1,0.0,0.0,0.0,0,0,0,0,1,0,250,250,0,0.0,0.0,0.0,0.0,0,0,0.0,0,0.0,-1,0.0,0.0,0.0,0,0.0,0.634
38063,0,,,,,,,,0.01,0.03,0.99,0,-0,0,0.03,,74,0,7,34,98,1.498,0.0,113,0.97,12.9,0.0,1,0.0,0.0,0.0,0,0,0,0,1,0,250,250,0,,,,,,,,,,,,,,,,
38083,0,,,,,,,,0.01,0.03,0.99,0,-0,0,0.03,,74,0,7,34,98,1.498,0.0,113,0.97,12.9,0.0,1,0.0,0.0,0.0,0,0,0,0,1,0,250,250,0,,,,,,,,,,,,,,,,
38103,0,,,,,,,,0.01,0.03,0.99,0,-0,0,0.03,,74,0,7,34,98,1.498,0.0,113,0.97,12.9,0.0,1,0.0,0.0,0.0,0,0,0,0,1,0,250,250,0,,,,,,,,,,,,,,,,
38123,0,,,,,,,,0.01,0.03,0.99,0,-0,0,0.03,,74,0,7,34,98,1.498,0.0,113,0.97,12.9,0.0,1,0.0,0.0,0.0,0,0,0,0,1,0,250,250,0,,,,,,,,,,,,,,,,
38143,0,-1,2,38,15,34,30,-1,0.01,0.03,0.99,0,-0,0,0.03,0,74,0,7,34,98,1.498,0.0,113,0.97,12.9,0.0,1,0.0,0.0,0.0,0,0,0,0,1,0,250,250,0,0.0,0.0,0.0,0.0,0,0,0.0,0,0.0,-1,0.0,,0.0,0,0.0,0.6357
38163,0,,,,,,,,0.01,0.03,0.98,0,-0,0,0.03,,74,0,7,34,98,1.498,0.0,113,0.97,12.9,0.0,1,0.0,0.0,0.0,0,0,0,0,1,0,250,250,0,,,,,,,,,,,,,,,,
38183,0,,,,,,,,0.01,0.03,0.98,0,-0,0,0.03,,74,0,7,34,98,1.498,0.0,113,0.97,12.9,0.0,1,0.0,0.0,0.0,0,0,0,0,1,0,250,250,0,,,,,,,,,,,,,,,,
38203,0,,,,,,,,0.01,0.03,0.98,0,-0,0,0.03,,74,0,7,34,98,1.498,0.0,113,0.97,13.0,0.0,1,0.0,0.0,0.0,0,0,0,0,1,0,250,250,0,,,,,,,,,,,,,,,,
38223,0,,,,,,,,0.01,0.03,0.98,0,-0,0,0.03,,74,0,7,34,98,1.498,0.0,113,0.97,13.0,0.0,1,0.0,0.0,0.0,0,0,0,0,1,0,250,250,0,,,,,,,,,,,,,,,,
38243,0,-0,2,38,15,33,30,-1,0.01,0.03,0.99,0,-0,0,0.03,0,74,0,7,34,98,1.498,0.0,113,0.97,12.9,0.0,1,0.0,0.0,0.0,0,0,0,0,1,0,250,250,0,0.0,0.0,0.0,0.0,0,0,0.0,0,0.0,-1,0.0,0.0,0.0,0,0.0,0.6374
38263,0,,,,,,,,0.01,0.03,0.99,0,-0,0,0.03,,74,0,7,34,98,1.498,0.0,113,0.97,12.9,0.0,1,0.0,0.0,0.0,0,0,0,0,1,0,250,250,0,,,,,,,,,,,,,,,,
38283,0,,,,,,,,0.01,0.03,0.98,0,-0,0,0.03,,74,0,7,34,98,1.498,0.0,113,0.97,12.9,0.0,1,0.0,0.0,0.0,0,0,0,0,1,0,250,250,0,,,,,,,,,,,,,,,,
38303,0,,,,,,,,0.01,0.03,0.98,0,-0,0,0.03,,74,0,7,34,98,1.498,0.0,113,0.97,12.9,0.0,1,0.0,0.0,0.0,0,0,0,0,1,0,250,250,0,,,,,,,,,,,,,,,,
38323,0,,,,,,,,0.01,0.03,0.98,0,-0,0,0.03,,74,0,7,34,98,1.498,0.0,113,0.97,12.9,0.0,1,0.0,0.0,0.0,0,0,0,0,1,0,250,250,0,,,,,,,,,,,,,,,,
38343,0,0,3,38,16,34,29,-1,0.01,0.03,0.98,0,-0,0,0.03,0,74,0,7,34,98,1.498,0.0,113,0.97,12.9,0.0,1,0.0,0.0,0.0,0,0,0,0,1,0,250,250,0,0.0,0.0,0.0,0.0,0,0,0.0,0,0.0,-1,0.0,,0.0,0,0.0,0.639
38363,0,,,,,,,,0.01,0.03,0.98,0,-0,0,0.03,,74,0,7,34,98,1.498,0.0,113,0.97,13.0,0.0,1,0.0,0.0,0.0,0,0,0,0,1,0,250,250,0,,,,,,,,,,,,,,,,
38383,0,,,,,,,,0.01,0.03,0.99,0,-0,0,0.03,,74,0,7,34,98,1.498,0.0,113,0.97,13.0,0.0,1,0.0,0.0,0.0,0,0,0,0,1,0,250,250,0,,,,,,,,,,,,,,,,
38403,0,,,,,,,,0.01,0.03,0.99,0,-0,0,0.03,,74,0,7,34,98,1.498,0.0,113,0.97,12.9,0.0,1,0.0,0.0,0.0,0,0,0,0,1,0,250,250,0,,,,,,,,,,,,,,,,
38423,0,,,,,,,,0.01,0.03,0.99,0,-0,-0,0.03,,74,0,7,34,98,1.498,0.0,113,0.97,12.9,0.0,1,0.0,0.0,0.0,0,0,0,0,1,0,250,250,0,,,,,,,,,,,,,,,,
38443,0,-0,2,38,15,34,29,-1,0.01,0.03,0.99,0,-0,0,0.03,0,74,0,7,34,98,1.498,0.0,113,0.97,12.9,0.0,1,0.0,0.0,0.0,0,0,0,0,1,0,250,250,0,0.0,0.0,0.0,0.0,0,0,0.0,0,0.0,-1,0.0,0.0,0.0,0,0.0,0.6407
38463,0,,,,,,,,0.01,0.03,0.99,0,-0,-0,0.03,,74,0,7,34,98,1.498,0.0,113,0.96,12.9,0.0,1,0.0,0.0,0.0,0,0,0,0,1,0,250,250,0,,,,,,,,,,,,,,,,
38483,0,,,,,,,,0.01,0.03,0.99,0,-0,-0,0.03,,74,0,7,34,98,1.498,0.0,113,0.97,12.9,0.0,1,0.0,0.0,0.0,0,0,0,0,1,0,250,250,0,,,,,,,,,,,,,,,,
38503,0,,,,,,,,0.01,0.03,0.99,0,-0,-0,0.03,,74,0,7,34,98,1.498,0.0,113,0.97,12.9,0.0,1,0.0,0.0,0.0,0,0,0,0,1,0,250,250,0,,,,,,,,,,,,,,,,
38523,0,,,,,,,,0.01,0.03,0.99,0,-0,-0,0.03,,74,0,7,34,98,1.498,0.0,113,0.97,12.9,0.0,1,0.0,0.0,0.0,0,0,0,0,1,0,250,250,0,,,,,,,,,,,,,,,,
38543,0,1,1,38,16,33,29,-1,0.01,0.03,0.99,0,-0,0,0.03,0,74,0,7,34,98,1.498,0.0,113,0.97,13.0,0.0,1,0.0,0.0,0.0,0,0,0,0,1,0,250,250,0,0.0,0.0,0.0,0.0,0,0,0.0,0,0.0,-1,0.0,,0.0,0,0.0,0.6424
38563,0,,,,,,,,0.01,0.03,0.99,0,-0,0,0.03,,74,0,7,34,98,1.498,0.0,113,0.97,12.9,0.0,1,0.0,0.0,0.0,0,0,0,0,1,0,250,250,0,,,,,,,,,,,,,,,,
38583,0,,,,,,,,0.01,0.03,0.99,0,-0,-0,0.03,,74,0,7,34,98,1.498,0.0,113,0.97,12.9,0.0,1,0.0,0.0,0.0,0,0,0,0,1,0,250,250,0,,,,,,,,,,,,,,,,
38603,0,,,,,,,,0.01,0.03,0.99,0,-0,0,0.03,,74,0,7,34,98,1.498,0.0,113,0.97,12.9,0.0,1,0.0,0.0,0.0,0,0,0,0,1,0,250,250,0,,,,,,,,,,,,,,,,
38623,0,,,,,,,,0.01,0.03,0.98,0,-0,0,0.03,,74,0,7,34,98,1.498,0.0,113,0.97,12.9,0.0,1,0.0,0.0,0.0,0,0,0,0,1,0,250,250,0,,,,,,,,,,,,,,,,
38643,0,0,1,38,16,34,29,-1,0.01,0.03,0.99,0,-0,-0,0.03,0,74,0,7,34,98,1.498,0.0,113,0.97,12.9,0.0,1,0.0,0.0,0.0,0,0,0,0,1,0,250,250,0,0.0,0.0,0.0,0.0,0,0,0.0,0,0.0,-1,0.0,0.0,0.0,0,0.0,0.644
38663,0,,,,,,,,0.01,0.03,0.99,0,-0,-0,0.03,,74,0,7,34,98,1.498,0.0,113,0.97,12.9,0.0,1,0.0,0.0,0.0,0,0,0,0,1,0,250,250,0,,,,,,,,,,,,,,,,
38683,0,,,,,,,,0.01,0.03,0.99,0,-0,-0,0.03,,74,0,7,34,98,1.498,0.0,113,0.97,12.9,0.0,1,0.0,0.0,0.0,0,0,0,0,1,0,250,250,0,,,,,,,,,,,,,,,,
38703,0,,,,,,,,0.01,0.03,0.98,0,-0,-0,0.03,,74,0,7,34,98,1.498,0.0,113,0.97,12.9,0.0,1,0.0,0.0,0.0,0,0,0,0,1,0,250,250,0,,,,,,,,,,,,,,,,
38723,0,,,,,,,,0.01,0.03,0.98,0,-0,-0,0.03,,74,0,7,34,98,1.498,0.0,113,0.97,13.0,0.0,1,0.0,0.0,0.0,0,0,0,0,1,0,250,250,0,,,,,,,,,,,,,,,,
38743,0,0,1,38,15,34,30,-2,0.01,0.03,0.98,0,-0,-0,0.03,0,74,0,7,34,98,1.498,0.0,113,0.97,12.9,0.0,1,0.0,0.0,0.0,0,0,0,0,1,0,250,250,0,0.0,0.0,0.0,0.0,0,0,0.0,0,0.0,-1,0.0,,0.0,0,0.0,0.6457
38763,0,,,,,,,,0.01,0.03,0.98,0,-0,-0,0.03,,74,0,7,34,98,1.498,0.0,113,0.97,12.9,0.0,1,0.0,0.0,0.0,0,0,0,0,1,0,250,250,0,,,,,,,,,,,,,,,,
38783,0,,,,,,,,0.01,0.03,0.98,0,-0,-0,0.03,,74,0,7,34,98,1.498,0.0,113,0.97,12.9,0.0,1,0.0,0.0,0.0,0,0,0,0,1,0,250,250,0,,,,,,,,,,,,,,,,
38803,0,,,,,,,,0.01,0.03,0.98,0,-0,-0,0.03,,74,0,7,34,98,1.498,0.0,113,0.97,12.9,0.0,1,0.0,0.0,0.0,0,0,0,0,1,0,250,250,0,,,,,,,,,,,,,,,,
38823,0,,,,,,,,0.01,0.03,0.98,0,-0,-0,0.03,,74,0,7,34,98,1.498,0.0,113,0.97,12.9,0.0,1,0.0,0.0,0.0,0,0,0,0,1,0,250,250,0,,,,,,,,,,,,,,,,
38843,0,-0,2,38,15,33,30,-1,0.01,0.03,0.98,0,-0,-0,0.03,0,74,0,7,34,98,1.498,0.0,113,0.97,12.9,0.0,1,0.0,0.0,0.0,0,0,0,0,1,0,250,250,0,0.0,0.0,0.0,0.0,0,0,0.0,0,0.0,-1,0.0,0.0,0.0,0,0.0,0.6474
38863,0,,,,,,,,0.01,0.03,0.98,0,-0,-0,0.03,,74,0,7,34,98,1.498,0.0,113,0.97,12.9,0.0,1,0.0,0.0,0.0,0,0,0,0,1,0,250,250,0,,,,,,,,,,,,,,,,
38883,0,,,,,,,,0.01,0.03,0.98,0,-0,-0,0.03,,74,0,7,34,98,1.498,0.0,113,0.97,13.0,0.0,1,0.0,0.0,0.0,0,0,0,0,1,0,250,250,0,,,,,,,,,,,,,,,,
38903,0,,,,,,,,0.01,0.03,0.98,0,-0,-0,0.03,,74,0,7,34,98,1.498,0.0,113,0.97,12.9,0.0,1,0.0,0.0,0.0,0,0,0,0,1,0,250,250,0,,,,,,,,,,,,,,,,
38923,0,,,,,,,,0.01,0.03,0.98,0,-0,-0,0.03,,74,0,7,34,98,1.498,0.0,113,0.97,12.9,0.0,1,0.0,0.0,0.0,0,0,0,0,1,0,250,250,0,,,,,,,,,,,,,,,,
38943,0,-1,2,38,15,34,29,-1,0.01,0.03,0.98,0,-0,-0,0.03,0,74,0,7,34,98,1.498,0.0,113,0.97,12.9,0.0,1,0.0,0.0,0.0,0,0,0,0,1,0,250,250,0,0.0,0.0,0.0,0.0,0,0,0.0,0,0.0,-1,0.0,,0.0,0,0.0,0.649
38963,0,,,,,,,,0.01,0.03,0.98,0,-0,-0,0.03,,74,0,7,34,98,1.498,0.0,113,0.97,12.9,0.0,1,0.0,0.0,0.0,0,0,0,0,1,0,250,250,0,,,,,,,,,,,,,,,,
38983,0,,,,,,,,0.01,0.03,0.98,0,-0,-0,0.03,,74,0,7,34,98,1.498,0.0,113,0.97,12.9,0.0,1,0.0,0.0,0.0,0,0,0,0,1,0,250,250,0,,,,,,,,,,,,,,,,
39003,0,,,,,,,,0.01,0.03,0.98,0,-0,-0,0.03,,74,0,7,34,98,1.498,0.0,113,0.97,12.9,0.0,1,0.0,0.0,0.0,0,0,0,0,1,0,250,250,0,,,,,,,,,,,,,,,,
39023,0,,,,,,,,0.01,0.03,0.98,0,-0,-0,0.03,,74,0,7,34,98,1.498,0.0,113,0.97,12.9,0.0,1,0.0,0.0,0.0,0,0,0,0,1,0,250,250,0,,,,,,,,,,,,,,,,
39043,0,-1,2,38,16,33,30,-1,0.01,0.03,0.98,0,-0,-0,0.03,0,74,0,7,34,98,1.498,0.0,113,0.97,12.9,0.0,1,0.0,0.0,0.0,0,0,0,0,1,0,250,250,0,0.0,0.0,0.0,0.0,0,0,0.0,0,0.0,-1,0.0,0.0,0.0,0,0.0,0.6507
39063,0,,,,,,,,0.01,0.03,0.98,0,-0,-0,0.03,,74,0,7,34,98,1.498,0.0,113,0.97,12.9,0.0,1,0.0,0.0,0.0,0,0,0,0,1,0,250,250,0,,,,,,,,,,,,,,,,
39083,0,,,,,,,,0.01,0.03,0.98,0,-0,-0,0.03,,74,0,7,34,98,1.498,0.0,113,0.97,12.9,0.0,1,0.0,0.0,0.0,0,0,0,0,1,0,250,250,0,,,,,,,,,,,,,,,,
39103,0,,,,,,,,0.01,0.03,0.98,0,-0,-0,0.03,,74,0,7,34,98,1.498,0.0,113,0.97,12.9,0.0,1,0.0,0.0,0.0,0,0,0,0,1,0,250,250,0,,,,,,,,,,,,,,,,
39123,0,,,,,,,,0.01,0.03,0.98,0,-0,-0,0.03,,74,0,7,34,98,1.498,0.0,113,0.97,12.9,0.0,1,0.0,0.0,0.0,0,0,0,0,1,0,250,250,0,,,,,,,,,,,,,,,,
39143,0,0,1,38,16,33,30,-1,0.01,0.03,0.98,0,-0,-0,0.03,0,74,0,7,34,98,1.498,0.0,113,0.97,12.9,0.0,1,0.0,0.0,0.0,0,0,0,0,1,0,250,250,0,0.0,0.0,0.0,0.0,0,0,0.0,0,0.0,-1,0.0,,0.0,0,0.0,0.6524
39163,0,,,,,,,,0.01,0.03,0.98,0,-0,-0,0.03,,74,0,7,34,98,1.498,0.0,113,0.97,12.9,0.0,1,0.0,0.0,0.0,0,0,0,0,1,0,250,250,0,,,,,,,,,,,,,,,,
39183,0,,,,,,,,0.01,0.03,0.98,0,-0,-0,0.03,,74,0,7,34,98,1.498,0.0,113,0.97,12.9,0.0,1,0.0,0.0,0.0,0,0,0,0,1,0,250,250,0,,,,,,,,,,,,,,,,
39203,0,,,,,,,,0.01,0.03,0.98,0,-0,-0,0.03,,74,0,7,34,98,1.498,0.0,113,0.97,12.9,0.0,1,0.0,0.0,0.0,0,0,0,0,1,0,250,250,0,,,,,,,,,,,,,,,,
39223,0,,,,,,,,0.01,0.03,0.98,0,-0,-0,0.03,,74,0,7,34,98,1.498,0.0,113,0.97,12.9,0.0,1,0.0,0.0,0.0,0,0,0,0,1,0,250,250,0,,,,,,,,,,,,,,,,
39243,0,0,3,37,15,34,30,-2,0.01,0.03,0.98,0,-0,-0,0.03,0,74,0,7,34,98,1.498,0.0,113,0.97,12.9,0.0,1,0.0,0.0,0.0,0,0,0,0,1,0,250,250,0,0.0,0.0,0.0,0.0,0,0,0.0,0,0.0,-1,0.0,0.0,0.0,0,0.0,0.654
39263,0,,,,,,,,0.01,0.03,0.98,0,-0,-0,0.03,,74,0,7,34,98,1.498,0.0,113,0.97,12.9,0.0,1,0.0,0.0,0.0,0,0,0,0,1,0,250,250,0,,,,,,,,,,,,,,,,
39283,0,,,,,,,,0.01,0.03,0.98,0,-0,-0,0.03,,74,0,7,34,98,1.498,0.0,113,0.97,12.9,0.0,1,0.0,0.0,0.0,0,0,0,0,1,0,250,250,0,,,,,,,,,,,,,,,,
39303,0,,,,,,,,0.01,0.03,0.98,0,-0,0,0.03,,74,0,7,34,98,1.498,0.0,113,0.97,12.9,0.0,1,0.0,0.0,0.0,0,0,0,0,1,0,250,250,0,,,,,,,,,,,,,,,,
39323,0,,,,,,,,0.01,0.03,0.98,0,-0,-0,0.03,,74,0,7,34,98,1.498,0.0,113,0.97,12.9,0.0,1,0.0,0.0,0.0,0,0,0,0,1,0,250,250,0,,,,,,,,,,,,,,,,
39343,0,-1,2,38,15,34,29,-1,0.01,0.03,0.98,0,-0,-0,0.03,0,74,0,7,34,98,1.498,0.0,113,0.97,12.9,0.0,1,0.0,0.0,0.0,0,0,0,0,1,0,250,250,0,0.0,0.0,0.0,0.0,0,0,0.0,0,0.0,-1,0.0,,0.0,0,0.0,0.6557
39363,0,,,,,,,,0.01,0.03,0.98,0,-0,-0,0.03,,74,0,7,34,98,1.498,0.0,113,0.97,12.9,0.0,1,0.0,0.0,0.0,0,0,0,0,1,0,250,250,0,,,,,,,,,,,,,,,,
39383,0,,,,,,,,0.01,0.03,0.98,0,-0,-0,0.03,,74,0,7,34,98,1.498,0.0,113,0.97,12.9,0.0,1,0.0,0.0,0.0,0,0,0,0,1,0,250,250,0,,,,,,,,,,,,,,,,
39403,0,,,,,,,,0.01,0.03,0.98,0,-0,-0,0.03,,74,0,7,34,98,1.498,0.0,113,0.97,12.9,0.0,1,0.0,0.0,0.0,0,0,0,0,1,0,250,250,0,,,,,,,,,,,,,,,,
39423,0,,,,,,,,0.01,0.03,0.99,0,-0,-0,0.03,,74,0,7,34,98,1.498,0.0,113,0.97,12.9,0.0,1,0.0,0.0,0.0,0,0,0,0,1,0,250,250,0,,,,,,,,,,,,,,,,
39443,0,0,3,38,16,34,30,-2,0.01,0.03,0.98,0,-0,-0,0.03,0,74,0,7,34,98,1.498,0.0,113,0.97,12.9,0.0,1,0.0,0.0,0.0,0,0,0,0,1,0,250,250,0,0.0,0.0,0.0,0.0,0,0,0.0,0,0.0,-1,0.0,0.0,0.0,0,0.0,0.6574
39463,0,,,,,,,,0.01,0.03,0.98,0,-0,-0,0.03,,74,0,7,34,98,1.498,0.0,113,0.97,12.9,0.0,1,0.0,0.0,0.0,0,0,0,0,1,0,250,250,0,,,,,,,,,,,,,,,,
39483,0,,,,,,,,0.01,0.03,0.98,0,-0,-0,0.03,,74,0,7,34,98,1.498,0.0,113,0.97,12.9,0.0,1,0.0,0.0,0.0,0,0,0,0,1,0,250,250,0,,,,,,,,,,,,,,,,
39503,0,,,,,,,,0.01,0.03,0.98,0,-0,-0,0.03,,74,0,7,34,98,1.498,0.0,113,0.97,12.9,0.0,1,0.0,0.0,0.0,0,0,0,0,1,0,250,250,0,,,,,,,,,,,,,,,,
39523,0,,,,,,,,0.01,0.03,0.99,0,-0,-0,0.03,,74,0,7,34,98,1.498,0.0,113,0.97,12.9,0.0,1,0.0,0.0,0.0,0,0,0,0,1,0,250,250,0,,,,,,,,,,,,,,,,
39543,0,0,3,38,16,34,29,-1,0.01,0.03,0.98,0,-0,-0,0.03,0,74,0,7,34,98,1.498,0.0,113,0.97,12.9,0.0,1,0.0,0.0,0.0,0,0,0,0,1,0,250,250,0,0.0,0.0,0.0,0.0,0,0,0.0,0,0.0,-1,0.0,,0.0,0,0.0,0.659
39563,0,,,,,,,,0.01,0.03,0.98,0,-0,-0,0.03,,74,0,7,34,98,1.498,0.0,113,0.97,12.9,0.0,1,0.0,0.0,0.0,0,0,0,0,1,0,250,250,0,,,,,,,,,,,,,,,,
39583,0,,,,,,,,0.01,0.03,0.98,0,-0,-0,0.03,,74,0,7,34,98,1.498,0.0,113,0.97,12.9,0.0,1,0.0,0.0,0.0,0,0,0,0,1,0,250,250,0,,,,,,,,,,,,,,,,
39603,0,,,,,,,,0.01,0.03,0.98,0,-0,-0,0.03,,74,0,7,34,98,1.498,0.0,113,0.97,12.9,0.0,1,0.0,0.0,0.0,0,0,0,0,1,0,250,250,0,,,,,,,,,,,,,,,,
39623,0,,,,,,,,0.01,0.03,0.98,0,-0,-0,0.03,,74,0,7,34,98,1.498,0.0,113,0.97,12.9,0.0,1,0.0,0.0,0.0,0,0,0,0,1,0,250,250,0,,,,,,,,,,,,,,,,
39643,0,0,3,38,15,34,30,-1,0.01,0.03,0.98,0,-0,-0,0.03,0,74,0,7,34,98,1.498,0.0,113,0.97,12.9,0.0,1,0.0,0.0,0.0,0,0,0,0,1,0,250,250,0,0.0,0.0,0.0,0.0,0,0,0.0,0,0.0,-1,0.0,0.0,0.0,0,0.0,0.6607
39663,0,,,,,,,,0.01,0.03,0.98,0,-0,-0,0.03,,74,0,7,34,98,1.498,0.0,113,0.97,12.9,0.0,1,0.0,0.0,0.0,0,0,0,0,1,0,250,250,0,,,,,,,,,,,,,,,,
39683,0,,,,,,,,0.01,0.03,0.98,0,-0,-0,0.03,,74,0,7,34,98,1.498,0.0,113,0.97,12.9,0.0,1,0.0,0.0,0.0,0,0,0,0,1,0,250,250,0,,,,,,,,,,,,,,,,
39703,0,,,,,,,,0.01,0.03,0.98,0,-0,-0,0.03,,74,0,7,34,98,1.498,0.0,113,0.97,12.9,0.0,1,0.0,0.0,0.0,0,0,0,0,1,0,250,250,0,,,,,,,,,,,,,,,,
39723,0,,,,,,,,0.01,0.03,0.98,0,-0,-0,0.03,,74,0,7,34,98,1.498,0.0,113,0.97,12.9,0.0,1,0.0,0.0,0.0,0,0,0,0,1,0,250,250,0,,,,,,,,,,,,,,,,
39743,0,-0,2,38,16,34,29,-1,0.01,0.03,0.98,0,-0,0,0.03,0,74,0,7,34,98,1.498,0.0,113,0.97,12.9,0.0,1,0.0,0.0,0.0,0,0,0,0,1,0,250,250,0,0.0,0.0,0.0,0.0,0,0,0.0,0,0.0,-1,0.0,,0.0,0,0.0,0.6624
39763,0,,,,,,,,0.01,0.03,0.98,0,-0,0,0.03,,74,0,7,34,98,1.498,0.0,113,0.97,12.9,0.0,1,0.0,0.0,0.0,0,0,0,0,1,0,250,250,0,,,,,,,,,,,,,,,,
39783,0,,,,,,,,0.01,0.03,0.98,0,-0,0,0.03,,74,0,7,34,98,1.498,0.0,113,0.97,12.9,0.0,1,0.0,0.0,0.0,0,0,0,0,1,0,250,250,0,,,,,,,,,,,,,,,,
39803,0,,,,,,,,0.01,0.03,0.99,0,-0,0,0.03,,74,0,7,34,98,1.498,0.0,113,0.97,12.9,0.0,1,0.0,0.0,0.0,0,0,0,0,1,0,250,250,0,,,,,,,,,,,,,,,,
39823,0,,,,,,,,0.01,0.03,0.99,0,-0,0,0.03,,74,0,7,34,98,1.498,0.0,113,0.97,12.9,0.0,1,0.0,0.0,0.0,0,0,0,0,1,0,250,250,0,,,,,,,,,,,,,,,,
39843,0,0,2,38,15,34,30,-1,0.01,0.03,0.99,0,-0,0,0.03,0,74,0,7,34,98,1.498,0.0,113,0.96,12.9,0.0,1,0.0,0.0,0.0,0,0,0,0,1,0,250,250,0,0.0,0.0,0.0,0.0,0,0,0.0,0,0.0,-1,0.0,0.0,0.0,0,0.0,0.664
39863,0,,,,,,,,0.01,0.03,0.99,0,-0,0,0.03,,74,0,7,34,98,1.498,0.0,113,0.97,12.9,0.0,1,0.0,0.0,0.0,0,0,0,0,1,0,250,250,0,,,,,,,,,,,,,,,,
39883,0,,,,,,,,0.01,0.03,0.98,0,-0,0,0.03,,74,0,7,34,98,1.498,0.0,113,0.97,12.9,0.0,1,0.0,0.0,0.0,0,0,0,0,1,0,250,250,0,,,,,,,,,,,,,,,,
39903,0,,,,,,,,0.01,0.03,0.98,0,-0,0,0.03,,74,0,7,34,98,1.498,0.0,113,0.97,12.9,0.0,1,0.0,0.0,0.0,0,0,0,0,1,0,250,250,0,,,,,,,,,,,,,,,,
39923,0,,,,,,,,0.01,0.03,0.98,0,-0,0,0.03,,74,0,7,34,98,1.498,0.0,113,0.97,12.9,0.0,1,0.0,0.0,0.0,0,0,0,0,1,0,250,250,0,,,,,,,,,,,,,,,,
39943,0,0,2,38,15,34,30,-2,0.01,0.03,0.98,0,-0,0,0.03,0,74,0,7,34,98,1.498,0.0,113,0.97,12.9,0.0,1,0.0,0.0,0.0,0,0,0,0,1,0,250,250,0,0.0,0.0,0.0,0.0,0,0,0.0,0,0.0,-1,0.0,,0.0,0,0.0,0.6657
39963,0,,,,,,,,0.01,0.03,0.98,0,-0,0,0.03,,74,0,7,34,98,1.498,0.0,113,0.97,12.9,0.0,1,0.0,0.0,0.0,0,0,0,0,1,0,250,250,0,,,,,,,,,,,,,,,,
39983,0,,,,,,,,0.01,0.03,0.98,0,-0,0,0.03,,74,0,7,34,98,1.498,0.0,113,0.97,12.9,0.0,1,0.0,0.0,0.0,0,0,0,0,1,0,250,250,0,,,,,,,,,,,,,,,,
40003,0,,,,,,,,0.01,0.03,0.98,0,-0,0,0.03,,74,0,7,34,98,1.498,0.0,113,0.97,12.9,0.0,1,0.0,0.0,0.0,0,0,0,0,1,0,250,250,0,,,,,,,,,,,,,,,,
