"Interval"|"ms"|0|0|1,"Utc"|"ms"|0|0|1,"Brake_F"|"Bar"|0|2000|10,"Brake_R"|"Bar"|0|2000|10,"Height_RF"|"mm"|0|255|50,"Height_LF"|"mm"|0|255|50,"Height_LR"|"mm"|0|80|50,"Height_RR"|"mm"|0|255|50,"Steering"|"deg"|-100|100|10,"AccelX"|"G"|-3.0|3.0|50,"AccelY"|"G"|-3.0|3.0|50,"AccelZ"|"G"|-3.0|3.0|50,"Yaw"|"Deg/Sec"|-120|120|50,"Pitch"|"Deg/Sec"|-120|120|50,"Roll"|"Deg/Sec"|-120|120|50,"Gsum"|"G"|0.0|3.0|50,"Log_Button"|""|0.0|10.0|10,"WaterTemp"|"C"|0|150|50,"RPM"|"tr/min"|0|14000|50,"TPS"|"%"|0|100|50,"AirTemp"|"C"|0|150|50,"MAP"|"KPa"|0|100|50,"Lambda"|""|0.5|1.5|50,"SpeedDTA"|"kph"|0.0|250.0|50,"OilPress"|"KPa"|0|1500|50,"FuelPressur"|"Bar"|0.0|10.0|50,"Batterie"|"V"|0.0|20.0|50,"ConsoKm"|"L/100km"|0.0|200.0|50,"Gear"|""|0|6|50,"AdvIgnition"|"Deg"|-20.0|70.0|50,"Injection"|"ms"|0.0|10.0|50,"ConsoHr"|"L/Hr"|0.0|10000.0|50,"LC_But_Pres"|""|0|1|50,"LC_Active"|""|0|1|50,"TractionOn"|""|0|1|50,"TractionWet"|""|0|1|50,"FanOn"|""|0|1|50,"RD_Speed"|"km/h"|-30|250|10,"RUD_Speed"|"km/h"|-30|250|10,"LD_Speed"|"km/h"|-30|250|10,"LUD_Speed"|"km/h"|-30|250|10,"Latitude"|"Degrees"|-180.0|180.0|10,"Longitude"|"Degrees"|-180.0|180.0|10,"Speed"|"kph"|0.0|150.0|10,"Altitude"|"m"|0.0|4000.0|10,"GPSSats"|""|0|20|10,"GPSQual"|""|0|5|10,"GPSDOP"|""|0.0|20.0|10,"LapCount"|""|0|0|10,"LapTime"|"Min"|0.0|0.0|10,"Sector"|""|0|0|10,"SectorTime"|"Min"|0.0|0.0|10,"PredTime"|"Min"|0.0|0.0|5,"ElapsedTime"|"Min"|0.0|0.0|10,"CurrentLap"|""|0|0|10,"Distance"|"km"|0.0|0.0|10,"SessionTime"|"Min"|0.0|0.0|10
64,0,,,260,265,240,234,,-0.03,0.04,0.97,-0,-0,-0,0.05,,0,0,0,0,0,0.0,0.0,0,0.0,0.0,0.0,0,0.0,0.0,0.0,0,0,0,0,0,,,,,,,,,,,,,,,,,,,,
84,0,,,260,265,240,234,,-0.03,0.04,0.97,-0,-0,-0,0.05,,0,0,0,0,0,0.0,0.0,0,0.0,0.0,0.0,0,0.0,0.0,0.0,0,0,0,0,0,,,,,,,,,,,,,,,,,,,,
104,0,,,260,265,240,234,,-0.03,0.04,0.97,-0,-0,-0,0.05,,0,0,0,0,0,0.0,0.0,0,0.0,0.0,0.0,0,0.0,0.0,0.0,0,0,0,0,0,,,,,,,,,,,,,,,,,,,,
124,0,,,260,265,240,233,,-0.03,0.04,0.97,-0,-0,-0,0.05,,0,0,0,0,0,0.0,0.0,0,0.0,0.0,0.0,0,0.0,0.0,0.0,0,0,0,0,0,,,,,,,,,,,,,,,,,,,,
144,0,-1,4,260,265,240,234,-4,-0.04,0.04,0.97,-0,-0,-0,0.05,1,0,0,0,0,0,0.0,0.0,0,0.0,0.0,0.0,0,0.0,0.0,0.0,0,0,0,0,0,0,0,0,0,0.0,0.0,0.0,0.0,0,0,0.0,0,0.0,-1,0.0,,0.0,0,0.0,0.0024
164,0,,,260,265,240,234,,-0.04,0.04,0.97,-0,-0,-0,0.05,,0,0,0,0,0,0.0,0.0,0,0.0,0.0,0.0,0,0.0,0.0,0.0,0,0,0,0,0,,,,,,,,,,,,,,,,,,,,
184,0,,,260,265,240,234,,-0.04,0.04,0.97,-0,-0,-0,0.05,,0,0,0,0,0,0.0,0.0,0,0.0,0.0,0.0,0,0.0,0.0,0.0,0,0,0,0,0,,,,,,,,,,,,,,,,,,,,
204,0,,,260,265,240,234,,-0.04,0.04,0.97,-0,-0,-0,0.06,,0,0,0,0,0,0.0,0.0,0,0.0,0.0,0.0,0,0.0,0.0,0.0,0,0,0,0,0,,,,,,,,,,,,,,,,,,,,
224,0,,,260,265,240,233,,-0.04,0.04,0.97,-0,-0,-0,0.06,,0,0,0,0,0,0.0,0.0,0,0.0,0.0,0.0,0,0.0,0.0,0.0,0,0,0,0,0,,,,,,,,,,,,,,,,,,,,
244,0,-1,1,260,265,240,234,-5,-0.04,0.04,0.98,-0,-0,-0,0.06,1,0,0,0,0,0,0.0,0.0,0,0.0,0.0,0.0,0,0.0,0.0,0.0,0,0,0,0,0,0,0,0,0,0.0,0.0,0.0,0.0,0,0,0.0,0,0.0,-1,0.0,0.0,0.0,0,0.0,0.0041
264,0,,,260,265,240,233,,-0.05,0.04,0.98,-0,-0,-0,0.06,,0,0,0,0,0,0.0,0.0,0,0.0,0.0,0.0,0,0.0,0.0,0.0,0,0,0,0,0,,,,,,,,,,,,,,,,,,,,
284,0,,,260,265,240,234,,-0.05,0.04,0.98,-0,-0,-0,0.06,,0,0,0,0,0,0.0,0.0,0,0.0,0.0,0.0,0,0.0,0.0,0.0,0,0,0,0,0,,,,,,,,,,,,,,,,,,,,
304,0,,,260,265,240,234,,-0.05,0.04,0.97,-0,-0,-0,0.06,,0,0,0,0,0,0.0,0.0,0,0.0,0.0,0.0,0,0.0,0.0,0.0,0,0,0,0,0,,,,,,,,,,,,,,,,,,,,
324,0,,,260,265,240,234,,-0.05,0.04,0.97,-0,-0,-0,0.06,,0,0,0,0,0,0.0,0.0,0,0.0,0.0,0.0,0,0.0,0.0,0.0,0,0,0,0,0,,,,,,,,,,,,,,,,,,,,
344,0,0,5,260,265,240,233,-5,-0.05,0.04,0.97,-0,-0,-0,0.06,1,0,0,0,0,0,0.0,0.0,0,0.0,0.0,0.0,0,0.0,0.0,0.0,0,0,0,0,0,0,0,0,0,0.0,0.0,0.0,0.0,0,0,0.0,0,0.0,-1,0.0,,0.0,0,0.0,0.0057
364,0,,,260,265,240,234,,-0.05,0.04,0.97,-0,-0,-0,0.07,,0,0,0,0,0,0.0,0.0,0,0.0,0.0,0.0,0,0.0,0.0,0.0,0,0,0,0,0,,,,,,,,,,,,,,,,,,,,
384,0,,,260,265,240,233,,-0.06,0.04,0.97,-0,-0,-0,0.07,,0,0,0,0,0,0.0,0.0,0,0.0,0.0,0.0,0,0.0,0.0,0.0,0,0,0,0,0,,,,,,,,,,,,,,,,,,,,
404,0,,,260,265,240,233,,-0.06,0.04,0.97,-0,-0,-0,0.07,,0,0,0,0,0,0.0,0.0,0,0.0,0.0,0.0,0,0.0,0.0,0.0,0,0,0,0,0,,,,,,,,,,,,,,,,,,,,
424,0,,,260,265,240,234,,-0.06,0.04,0.97,-0,-0,-0,0.07,,0,0,0,0,0,0.0,0.0,0,0.0,0.0,0.0,0,0.0,0.0,0.0,0,0,0,0,0,,,,,,,,,,,,,,,,,,,,
444,0,1,4,260,265,240,233,-5,-0.06,0.04,0.97,-0,-0,-0,0.07,1,0,0,0,0,0,0.0,0.0,0,0.0,0.0,0.0,0,0.0,0.0,0.0,0,0,0,0,0,0,0,0,0,0.0,0.0,0.0,0.0,0,0,0.0,0,0.0,-1,0.0,0.0,0.0,0,0.0,0.0074
464,0,,,260,265,240,234,,-0.06,0.04,0.97,-0,-0,-0,0.07,,0,0,0,0,0,0.0,0.0,0,0.0,0.0,0.0,0,0.0,0.0,0.0,0,0,0,0,0,,,,,,,,,,,,,,,,,,,,
484,0,,,260,265,240,234,,-0.06,0.04,0.97,-0,-0,-0,0.07,,0,0,0,0,0,0.0,0.0,0,0.0,0.0,0.0,0,0.0,0.0,0.0,0,0,0,0,0,,,,,,,,,,,,,,,,,,,,
504,0,,,260,265,240,233,,-0.06,0.04,0.98,-0,-0,-0,0.07,,0,0,0,0,0,0.0,0.0,0,0.0,0.0,0.0,0,0.0,0.0,0.0,0,0,0,0,0,,,,,,,,,,,,,,,,,,,,
524,0,,,260,265,240,234,,-0.06,0.04,0.97,-0,-0,-0,0.07,,0,0,0,0,0,0.0,0.0,0,0.0,0.0,0.0,0,0.0,0.0,0.0,0,0,0,0,0,,,,,,,,,,,,,,,,,,,,
544,0,-0,9,260,265,241,233,-5,-0.06,0.04,0.97,-0,-0,-0,0.07,1,0,0,0,0,0,0.0,0.0,0,0.0,0.0,0.0,0,0.0,0.0,0.0,0,0,0,0,0,0,0,0,0,0.0,0.0,0.0,0.0,0,0,0.0,0,0.0,-1,0.0,,0.0,0,0.0,0.0091
564,0,,,260,265,240,233,,-0.06,0.04,0.98,-0,-0,-0,0.07,,0,0,0,0,0,0.0,0.0,0,0.0,0.0,0.0,0,0.0,0.0,0.0,0,0,0,0,0,,,,,,,,,,,,,,,,,,,,
584,0,,,260,265,240,234,,-0.06,0.04,0.98,-0,-0,-0,0.07,,0,0,0,0,0,0.0,0.0,0,0.0,0.0,0.0,0,0.0,0.0,0.0,0,0,0,0,0,,,,,,,,,,,,,,,,,,,,
604,0,,,260,265,240,234,,-0.06,0.04,0.98,-0,-0,-0,0.07,,0,0,0,0,0,0.0,0.0,0,0.0,0.0,0.0,0,0.0,0.0,0.0,0,0,0,0,0,,,,,,,,,,,,,,,,,,,,
624,0,,,260,265,240,233,,-0.06,0.04,0.98,-0,-0,-0,0.07,,0,0,0,0,0,0.0,0.0,0,0.0,0.0,0.0,0,0.0,0.0,0.0,0,0,0,0,0,,,,,,,,,,,,,,,,,,,,
644,0,-0,4,260,265,240,234,-5,-0.06,0.04,0.98,-0,-0,-0,0.07,1,0,0,0,0,0,0.0,0.0,0,0.0,0.0,0.0,0,0.0,0.0,0.0,0,0,0,0,0,0,0,0,0,0.0,0.0,0.0,0.0,0,0,0.0,0,0.0,-1,0.0,0.0,0.0,0,0.0,0.0107
664,0,,,260,265,240,233,,-0.06,0.04,0.98,-0,-0,-0,0.07,,0,0,0,0,0,0.0,0.0,0,0.0,0.0,0.0,0,0.0,0.0,0.0,0,0,0,0,0,,,,,,,,,,,,,,,,,,,,
684,0,,,260,265,240,233,,-0.06,0.04,0.98,-0,-0,-0,0.07,,0,0,0,0,0,0.0,0.0,0,0.0,0.0,0.0,0,0.0,0.0,0.0,0,0,0,0,0,,,,,,,,,,,,,,,,,,,,
704,0,,,260,265,240,234,,-0.06,0.03,0.98,-0,-0,-0,0.07,,0,0,0,0,0,0.0,0.0,0,0.0,0.0,0.0,0,0.0,0.0,0.0,0,0,0,0,0,,,,,,,,,,,,,,,,,,,,
724,0,,,260,265,240,234,,-0.06,0.03,0.98,-0,-0,-0,0.07,,0,0,0,0,0,0.0,0.0,0,0.0,0.0,0.0,0,0.0,0.0,0.0,0,0,0,0,0,,,,,,,,,,,,,,,,,,,,
744,0,0,2,260,265,240,234,-5,-0.06,0.03,0.97,-0,-0,-0,0.07,1,0,0,0,0,0,0.0,0.0,0,0.0,0.0,0.0,0,0.0,0.0,0.0,0,0,0,0,0,0,0,0,0,0.0,0.0,0.0,0.0,0,0,0.0,0,0.0,-1,0.0,,0.0,0,0.0,0.0124
764,0,,,260,265,240,233,,-0.06,0.03,0.97,-0,-0,0,0.07,,0,0,0,0,0,0.0,0.0,0,0.0,0.0,0.0,0,0.0,0.0,0.0,0,0,0,0,0,,,,,,,,,,,,,,,,,,,,
784,0,,,260,265,240,233,,-0.06,0.03,0.97,-0,-0,0,0.07,,0,0,0,0,0,0.0,0.0,0,0.0,0.0,0.0,0,0.0,0.0,0.0,0,0,0,0,0,,,,,,,,,,,,,,,,,,,,
804,0,,,260,266,240,233,,-0.06,0.03,0.97,-0,-0,0,0.07,,0,0,0,0,0,0.0,0.0,0,0.0,0.0,0.0,0,0.0,0.0,0.0,0,0,0,0,0,,,,,,,,,,,,,,,,,,,,
824,0,,,260,265,240,233,,-0.06,0.03,0.97,-0,-0,0,0.07,,0,0,0,0,0,0.0,0.0,0,0.0,0.0,0.0,0,0.0,0.0,0.0,0,0,0,0,0,,,,,,,,,,,,,,,,,,,,
844,0,0,4,260,265,240,233,-5,-0.06,0.03,0.97,-0,-0,0,0.07,1,0,0,0,0,0,0.0,0.0,0,0.0,0.0,0.0,0,0.0,0.0,0.0,0,0,0,0,0,0,0,0,0,0.0,0.0,0.0,0.0,0,0,0.0,0,0.0,-1,0.0,0.0,0.0,0,0.0,0.0141
864,0,,,260,266,240,233,,-0.07,0.03,0.97,-0,-0,0,0.07,,0,0,0,0,0,0.0,0.0,0,0.0,0.0,0.0,0,0.0,0.0,0.0,0,0,0,0,0,,,,,,,,,,,,,,,,,,,,
884,0,,,260,266,240,233,,-0.07,0.04,0.97,-0,-0,0,0.07,,0,0,0,0,0,0.0,0.0,0,0.0,0.0,0.0,0,0.0,0.0,0.0,0,0,0,0,0,,,,,,,,,,,,,,,,,,,,
904,0,,,260,266,240,233,,-0.07,0.04,0.97,-0,-0,0,0.08,,0,0,0,0,0,0.0,0.0,0,0.0,0.0,0.0,0,0.0,0.0,0.0,0,0,0,0,0,,,,,,,,,,,,,,,,,,,,
924,0,,,260,266,240,233,,-0.07,0.04,0.96,-0,-0,0,0.08,,0,0,0,0,0,0.0,0.0,0,0.0,0.0,0.0,0,0.0,0.0,0.0,0,0,0,0,0,,,,,,,,,,,,,,,,,,,,
944,0,1,3,260,266,240,233,-5,-0.07,0.04,0.96,-0,-0,-0,0.08,1,0,0,0,0,0,0.0,0.0,0,0.0,0.0,0.0,0,0.0,0.0,0.0,0,0,0,0,0,0,0,0,0,0.0,0.0,0.0,0.0,0,0,0.0,0,0.0,-1,0.0,,0.0,0,0.0,0.0157
964,0,,,260,265,240,233,,-0.07,0.04,0.96,-0,-0,-0,0.08,,0,0,0,0,0,0.0,0.0,0,0.0,0.0,0.0,0,0.0,0.0,0.0,0,0,0,0,0,,,,,,,,,,,,,,,,,,,,
984,0,,,260,266,240,233,,-0.07,0.04,0.96,-0,-0,-0,0.08,,0,0,0,0,0,0.0,0.0,0,0.0,0.0,0.0,0,0.0,0.0,0.0,0,0,0,0,0,,,,,,,,,,,,,,,,,,,,
1004,0,,,260,266,240,233,,-0.07,0.04,0.96,-0,-0,-0,0.08,,0,0,0,0,0,0.0,0.0,0,0.0,0.0,0.0,0,0.0,0.0,0.0,0,0,0,0,0,,,,,,,,,,,,,,,,,,,,
1024,0,,,260,266,240,233,,-0.06,0.04,0.96,-0,-0,-0,0.07,,0,0,0,0,0,0.0,0.0,0,0.0,0.0,0.0,0,0.0,0.0,0.0,0,0,0,0,0,,,,,,,,,,,,,,,,,,,,
1044,0,0,2,260,266,240,233,-5,-0.06,0.04,0.96,-0,-0,-0,0.07,1,0,0,0,0,0,0.0,0.0,0,0.0,0.0,0.0,0,0.0,0.0,0.0,0,0,0,0,0,0,0,0,0,0.0,0.0,0.0,0.0,0,0,0.0,0,0.0,-1,0.0,0.0,0.0,0,0.0,0.0174
1064,0,,,260,266,240,233,,-0.06,0.04,0.96,-0,-0,-0,0.07,,0,0,0,0,0,0.0,0.0,0,0.0,0.0,0.0,0,0.0,0.0,0.0,0,0,0,0,0,,,,,,,,,,,,,,,,,,,,
1084,0,,,260,266,240,233,,-0.06,0.04,0.96,-0,-0,-0,0.07,,0,0,0,0,0,0.0,0.0,0,0.0,0.0,0.0,0,0.0,0.0,0.0,0,0,0,0,0,,,,,,,,,,,,,,,,,,,,
1104,0,,,260,266,240,233,,-0.06,0.04,0.96,-0,-0,-0,0.07,,0,0,0,0,0,0.0,0.0,0,0.0,0.0,0.0,0,0.0,0.0,0.0,0,0,0,0,0,,,,,,,,,,,,,,,,,,,,
1124,0,,,260,266,240,233,,-0.06,0.04,0.96,-0,-0,-0,0.07,,0,0,0,0,0,0.0,0.0,0,0.0,0.0,0.0,0,0.0,0.0,0.0,0,0,0,0,0,,,,,,,,,,,,,,,,,,,,
1144,0,-1,3,260,266,240,233,-5,-0.06,0.04,0.96,-0,-0,-0,0.07,1,0,0,0,0,0,0.0,0.0,0,0.0,0.0,0.0,0,0.0,0.0,0.0,0,0,0,0,0,0,0,0,0,0.0,0.0,0.0,0.0,0,0,0.0,0,0.0,-1,0.0,,0.0,0,0.0,0.0191
1164,0,,,260,266,240,233,,-0.06,0.04,0.96,-0,-0,-0,0.07,,0,0,0,0,0,0.0,0.0,0,0.0,0.0,0.0,0,0.0,0.0,0.0,0,0,0,0,0,,,,,,,,,,,,,,,,,,,,
1184,0,,,260,266,240,232,,-0.06,0.04,0.96,-0,-0,-0,0.07,,0,0,0,0,0,0.0,0.0,0,0.0,0.0,0.0,0,0.0,0.0,0.0,0,0,0,0,0,,,,,,,,,,,,,,,,,,,,
1204,0,,,260,266,240,233,,-0.06,0.04,0.96,-0,-0,-0,0.07,,0,0,0,0,0,0.0,0.0,0,0.0,0.0,0.0,0,0.0,0.0,0.0,0,0,0,0,0,,,,,,,,,,,,,,,,,,,,
1224,0,,,260,266,240,233,,-0.06,0.04,0.96,-0,-0,-0,0.07,,0,0,0,0,0,0.0,0.0,0,0.0,0.0,0.0,0,0.0,0.0,0.0,0,0,0,0,0,,,,,,,,,,,,,,,,,,,,
1244,0,-1,3,260,266,240,233,-5,-0.06,0.04,0.96,-0,-0,-0,0.07,1,0,0,0,0,0,0.0,0.0,0,0.0,0.0,0.0,0,0.0,0.0,0.0,0,0,0,0,0,0,0,0,0,0.0,0.0,0.0,0.0,0,0,0.0,0,0.0,-1,0.0,0.0,0.0,0,0.0,0.0207
1264,0,,,260,265,240,233,,-0.06,0.04,0.96,-0,-0,-0,0.07,,0,0,0,0,0,0.0,0.0,0,0.0,0.0,0.0,0,0.0,0.0,0.0,0,0,0,0,0,,,,,,,,,,,,,,,,,,,,
1284,0,,,260,266,240,233,,-0.05,0.04,0.95,-0,-0,-0,0.07,,0,0,0,0,0,0.0,0.0,0,0.0,0.0,0.0,0,0.0,0.0,0.0,0,0,0,0,0,,,,,,,,,,,,,,,,,,,,
1304,0,,,260,265,240,233,,-0.05,0.04,0.95,-0,-0,-0,0.07,,0,0,0,0,0,0.0,0.0,0,0.0,0.0,0.0,0,0.0,0.0,0.0,0,0,0,0,0,,,,,,,,,,,,,,,,,,,,
1324,0,,,260,266,240,233,,-0.05,0.04,0.95,-0,-0,-0,0.06,,0,0,0,0,0,0.0,0.0,0,0.0,0.0,0.0,0,0.0,0.0,0.0,0,0,0,0,0,,,,,,,,,,,,,,,,,,,,
1344,0,1,3,260,266,240,233,-4,-0.05,0.04,0.96,-0,-0,-0,0.06,1,0,0,0,0,0,0.0,0.0,0,0.0,0.0,0.0,0,0.0,0.0,0.0,0,0,0,0,0,0,0,0,0,0.0,0.0,0.0,0.0,0,0,0.0,0,0.0,-1,0.0,,0.0,0,0.0,0.0224
1364,0,,,260,266,240,233,,-0.05,0.04,0.95,-0,-0,-0,0.06,,0,0,0,0,0,0.0,0.0,0,0.0,0.0,0.0,0,0.0,0.0,0.0,0,0,0,0,0,,,,,,,,,,,,,,,,,,,,
1384,0,,,260,265,240,233,,-0.05,0.04,0.95,-0,-0,-0,0.06,,0,0,0,0,0,0.0,0.0,0,0.0,0.0,0.0,0,0.0,0.0,0.0,0,0,0,0,0,,,,,,,,,,,,,,,,,,,,
1404,0,,,260,266,240,233,,-0.05,0.04,0.95,-0,-0,-0,0.06,,0,0,0,0,0,0.0,0.0,0,0.0,0.0,0.0,0,0.0,0.0,0.0,0,0,0,0,0,,,,,,,,,,,,,,,,,,,,
1424,0,,,260,266,240,233,,-0.05,0.04,0.95,-0,-0,-0,0.06,,0,0,0,0,0,0.0,0.0,0,0.0,0.0,0.0,0,0.0,0.0,0.0,0,0,0,0,0,,,,,,,,,,,,,,,,,,,,
1444,0,0,4,260,266,240,233,-6,-0.04,0.04,0.95,-0,-0,-0,0.06,1,0,0,0,0,0,0.0,0.0,0,0.0,0.0,0.0,0,0.0,0.0,0.0,0,0,0,0,0,0,0,0,0,0.0,0.0,0.0,0.0,0,0,0.0,0,0.0,-1,0.0,0.0,0.0,0,0.0,0.0241
1464,0,,,260,266,240,233,,-0.04,0.04,0.95,-0,-0,-0,0.06,,0,0,0,0,0,0.0,0.0,0,0.0,0.0,0.0,0,0.0,0.0,0.0,0,0,0,0,0,,,,,,,,,,,,,,,,,,,,
1484,0,,,260,265,240,233,,-0.04,0.04,0.95,-0,-0,-0,0.06,,0,0,0,0,0,0.0,0.0,0,0.0,0.0,0.0,0,0.0,0.0,0.0,0,0,0,0,0,,,,,,,,,,,,,,,,,,,,
1504,0,,,260,266,240,233,,-0.04,0.04,0.96,-0,-0,-0,0.06,,0,0,0,0,0,0.0,0.0,0,0.0,0.0,0.0,0,0.0,0.0,0.0,0,0,0,0,0,,,,,,,,,,,,,,,,,,,,
1524,0,,,260,266,240,233,,-0.04,0.04,0.96,-0,-0,-0,0.06,,0,0,0,0,0,0.0,0.0,0,0.0,0.0,0.0,0,0.0,0.0,0.0,0,0,0,0,0,,,,,,,,,,,,,,,,,,,,
1544,0,0,4,260,266,240,233,-5,-0.04,0.04,0.96,-0,-0,-0,0.06,1,0,0,0,0,0,0.0,0.0,0,0.0,0.0,0.0,0,0.0,0.0,0.0,0,0,0,0,0,0,0,0,0,0.0,0.0,0.0,0.0,0,0,0.0,0,0.0,-1,0.0,,0.0,0,0.0,0.0257
1564,0,,,260,266,240,233,,-0.04,0.04,0.96,-0,-0,-0,0.06,,0,0,0,0,0,0.0,0.0,0,0.0,0.0,0.0,0,0.0,0.0,0.0,0,0,0,0,0,,,,,,,,,,,,,,,,,,,,
1584,0,,,260,266,240,233,,-0.04,0.04,0.96,-0,-0,-0,0.06,,0,0,0,0,0,0.0,0.0,0,0.0,0.0,0.0,0,0.0,0.0,0.0,0,0,0,0,0,,,,,,,,,,,,,,,,,,,,
1604,0,,,260,266,240,233,,-0.04,0.04,0.96,-0,-0,-0,0.06,,0,0,0,0,0,0.0,0.0,0,0.0,0.0,0.0,0,0.0,0.0,0.0,0,0,0,0,0,,,,,,,,,,,,,,,,,,,,
1624,0,,,260,266,240,233,,-0.04,0.04,0.96,-0,-0,-0,0.06,,0,0,0,0,0,0.0,0.0,0,0.0,0.0,0.0,0,0.0,0.0,0.0,0,0,0,0,0,,,,,,,,,,,,,,,,,,,,
1644,0,1,2,260,265,240,233,-4,-0.04,0.04,0.96,-0,-0,-0,0.06,1,0,0,0,0,0,0.0,0.0,0,0.0,0.0,0.0,0,0.0,0.0,0.0,0,0,0,0,0,0,0,0,0,0.0,0.0,0.0,0.0,0,0,0.0,0,0.0,-1,0.0,0.0,0.0,0,0.0,0.0274
1664,0,,,260,266,240,233,,-0.04,0.04,0.96,-0,-0,-0,0.06,,0,0,0,0,0,0.0,0.0,0,0.0,0.0,0.0,0,0.0,0.0,0.0,0,0,0,0,0,,,,,,,,,,,,,,,,,,,,
1684,0,,,260,266,240,232,,-0.04,0.04,0.96,-0,-0,-0,0.06,,0,0,0,0,0,0.0,0.0,0,0.0,0.0,0.0,0,0.0,0.0,0.0,0,0,0,0,0,,,,,,,,,,,,,,,,,,,,
1704,0,,,260,266,240,233,,-0.04,0.04,0.96,-0,-0,-0,0.06,,0,0,0,0,0,0.0,0.0,0,0.0,0.0,0.0,0,0.0,0.0,0.0,0,0,0,0,0,,,,,,,,,,,,,,,,,,,,
1724,0,,,260,266,240,233,,-0.05,0.04,0.96,-0,-0,-0,0.06,,0,0,0,0,0,0.0,0.0,0,0.0,0.0,0.0,0,0.0,0.0,0.0,0,0,0,0,0,,,,,,,,,,,,,,,,,,,,
1744,0,-0,3,260,266,240,233,-6,-0.05,0.04,0.96,-0,-0,-0,0.06,1,0,0,0,0,0,0.0,0.0,0,0.0,0.0,0.0,0,0.0,0.0,0.0,0,0,0,0,0,0,0,0,0,0.0,0.0,0.0,0.0,0,0,0.0,0,0.0,-1,0.0,,0.0,0,0.0,0.0291
1764,0,,,260,265,240,233,,-0.05,0.03,0.96,-0,-0,-0,0.06,,0,0,0,0,0,0.0,0.0,0,0.0,0.0,0.0,0,0.0,0.0,0.0,0,0,0,0,0,,,,,,,,,,,,,,,,,,,,
1784,0,,,260,266,240,232,,-0.05,0.04,0.96,-0,-0,-0,0.06,,0,0,0,0,0,0.0,0.0,0,0.0,0.0,0.0,0,0.0,0.0,0.0,0,0,0,0,0,,,,,,,,,,,,,,,,,,,,
1804,0,,,260,266,240,233,,-0.05,0.04,0.96,-0,-0,-0,0.06,,0,0,0,0,0,0.0,0.0,0,0.0,0.0,0.0,0,0.0,0.0,0.0,0,0,0,0,0,,,,,,,,,,,,,,,,,,,,
1824,0,,,260,266,240,233,,-0.05,0.04,0.96,-0,-0,-0,0.06,,0,0,0,0,0,0.0,0.0,0,0.0,0.0,0.0,0,0.0,0.0,0.0,0,0,0,0,0,,,,,,,,,,,,,,,,,,,,
1844,0,1,1,260,266,240,232,-4,-0.05,0.03,0.97,-0,-0,-0,0.06,1,0,0,0,0,0,0.0,0.0,0,0.0,0.0,0.0,0,0.0,0.0,0.0,0,0,0,0,0,0,0,0,0,0.0,0.0,0.0,0.0,0,0,0.0,0,0.0,-1,0.0,0.0,0.0,0,0.0,0.0307
1864,0,,,260,266,240,233,,-0.05,0.03,0.97,-0,-0,-0,0.06,,0,0,0,0,0,0.0,0.0,0,0.0,0.0,0.0,0,0.0,0.0,0.0,0,0,0,0,0,,,,,,,,,,,,,,,,,,,,
1884,0,,,260,266,240,232,,-0.05,0.03,0.97,-0,-0,-0,0.06,,0,0,0,0,0,0.0,0.0,0,0.0,0.0,0.0,0,0.0,0.0,0.0,0,0,0,0,0,,,,,,,,,,,,,,,,,,,,
1904,0,,,260,266,240,232,,-0.05,0.04,0.97,-0,-0,-0,0.06,,0,0,0,0,0,0.0,0.0,0,0.0,0.0,0.0,0,0.0,0.0,0.0,0,0,0,0,0,,,,,,,,,,,,,,,,,,,,
1924,0,,,260,266,240,233,,-0.05,0.04,0.97,-0,-0,-0,0.06,,0,0,0,0,0,0.0,0.0,0,0.0,0.0,0.0,0,0.0,0.0,0.0,0,0,0,0,0,,,,,,,,,,,,,,,,,,,,
1944,0,-1,3,260,266,240,233,-5,-0.05,0.04,0.97,-0,-0,-0,0.06,1,0,0,0,0,0,0.0,0.0,0,0.0,0.0,0.0,0,0.0,0.0,0.0,0,0,0,0,0,0,0,0,0,0.0,0.0,0.0,0.0,0,0,0.0,0,0.0,-1,0.0,,0.0,0,0.0,0.0324
1964,0,,,260,266,240,233,,-0.05,0.04,0.97,-0,-0,-0,0.06,,0,0,0,0,0,0.0,0.0,0,0.0,0.0,0.0,0,0.0,0.0,0.0,0,0,0,0,0,,,,,,,,,,,,,,,,,,,,
1984,0,,,260,266,240,233,,-0.05,0.04,0.97,-0,-0,-0,0.06,,0,0,0,0,0,0.0,0.0,0,0.0,0.0,0.0,0,0.0,0.0,0.0,0,0,0,0,0,,,,,,,,,,,,,,,,,,,,
2004,0,,,260,266,240,233,,-0.05,0.03,0.97,-0,-0,-0,0.06,,0,0,0,0,0,0.0,0.0,0,0.0,0.0,0.0,0,0.0,0.0,0.0,0,0,0,0,0,,,,,,,,,,,,,,,,,,,,
2024,0,,,260,266,240,233,,-0.05,0.03,0.97,-0,-0,-0,0.06,,0,0,0,0,0,0.0,0.0,0,0.0,0.0,0.0,0,0.0,0.0,0.0,0,0,0,0,0,,,,,,,,,,,,,,,,,,,,
2044,0,-1,4,260,266,240,233,-4,-0.05,0.04,0.97,-0,-0,-0,0.06,1,0,0,0,0,0,0.0,0.0,0,0.0,0.0,0.0,0,0.0,0.0,0.0,0,0,0,0,0,0,0,0,0,0.0,0.0,0.0,0.0,0,0,0.0,0,0.0,-1,0.0,0.0,0.0,0,0.0,0.0341
2064,0,,,260,266,240,233,,-0.05,0.04,0.98,-0,-0,-0,0.06,,0,0,0,0,0,0.0,0.0,0,0.0,0.0,0.0,0,0.0,0.0,0.0,0,0,0,0,0,,,,,,,,,,,,,,,,,,,,
2084,0,,,260,266,240,233,,-0.05,0.04,0.98,-0,-0,-0,0.06,,0,0,0,0,0,0.0,0.0,0,0.0,0.0,0.0,0,0.0,0.0,0.0,0,0,0,0,0,,,,,,,,,,,,,,,,,,,,
2104,0,,,260,266,240,233,,-0.05,0.04,0.98,-0,-0,-0,0.06,,0,0,0,0,0,0.0,0.0,0,0.0,0.0,0.0,0,0.0,0.0,0.0,0,0,0,0,0,,,,,,,,,,,,,,,,,,,,
2124,0,,,260,266,240,232,,-0.05,0.04,0.98,-0,-0,-0,0.06,,0,0,0,0,0,0.0,0.0,0,0.0,0.0,0.0,0,0.0,0.0,0.0,0,0,0,0,0,,,,,,,,,,,,,,,,,,,,
2144,0,0,3,260,266,240,233,-6,-0.05,0.04,0.98,-0,-0,-0,0.06,1,0,0,0,0,0,0.0,0.0,0,0.0,0.0,0.0,0,0.0,0.0,0.0,0,0,0,0,0,0,0,0,0,0.0,0.0,0.0,0.0,0,0,0.0,0,0.0,-1,0.0,,0.0,0,0.0,0.0357
2164,0,,,260,266,240,233,,-0.05,0.04,0.98,-0,-0,-0,0.07,,0,0,0,0,0,0.0,0.0,0,0.0,0.0,0.0,0,0.0,0.0,0.0,0,0,0,0,0,,,,,,,,,,,,,,,,,,,,
2184,0,,,260,266,240,233,,-0.05,0.04,0.98,-0,-0,-0,0.07,,0,0,0,0,0,0.0,0.0,0,0.0,0.0,0.0,0,0.0,0.0,0.0,0,0,0,0,0,,,,,,,,,,,,,,,,,,,,
2204,0,,,260,266,240,233,,-0.05,0.04,0.98,-0,-0,-0,0.07,,74,0,3,12,97,0.5,1.5,118,4.75,12.9,0.0,1,0.0,0.0,0.0,0,0,0,1,0,,,,,,,,,,,,,,,,,,,,
2224,0,,,260,266,240,232,,-0.05,0.04,0.98,-0,-0,-0,0.07,,74,0,3,12,97,0.5,1.5,118,4.75,12.9,0.0,1,0.0,0.0,0.0,0,0,0,1,0,,,,,,,,,,,,,,,,,,,,
2244,0,0,3,260,266,240,233,-4,-0.05,0.04,0.98,-0,-0,-0,0.07,1,74,0,3,12,97,0.5,1.5,118,4.75,12.9,0.0,1,0.0,0.0,0.0,0,0,0,1,0,15,-1281,-1281,15,0.0,0.0,0.0,0.0,0,0,0.0,0,0.0,-1,0.0,0.0,0.0,0,0.0,0.0374
2264,0,,,260,266,240,233,,-0.05,0.04,0.98,-0,-0,-0,0.06,,74,0,3,12,97,0.5,1.5,118,4.75,12.9,0.0,1,0.0,0.0,0.0,0,0,0,1,0,,,,,,,,,,,,,,,,,,,,
2284,0,,,260,266,240,233,,-0.05,0.04,0.99,-0,-0,-0,0.06,,74,0,3,12,97,0.5,1.5,118,4.75,12.9,0.0,1,0.0,0.0,0.0,0,0,0,1,0,,,,,,,,,,,,,,,,,,,,
2304,0,,,260,266,240,233,,-0.05,0.04,0.99,-0,-0,-0,0.06,,74,0,3,12,97,0.5,1.5,118,4.75,12.9,0.0,1,0.0,0.0,0.0,0,0,0,1,0,,,,,,,,,,,,,,,,,,,,
2324,0,,,260,266,240,232,,-0.05,0.04,0.98,-0,-0,-0,0.07,,74,0,3,12,97,0.5,1.5,118,4.75,12.9,0.0,1,0.0,0.0,0.0,0,0,0,1,0,,,,,,,,,,,,,,,,,,,,
2344,0,-1,4,260,266,240,233,-5,-0.05,0.04,0.98,-0,-0,-0,0.06,1,74,0,3,12,97,0.5,1.5,118,4.75,12.9,0.0,1,0.0,0.0,0.0,0,0,0,1,0,15,-1281,-1281,15,0.0,0.0,0.0,0.0,0,0,0.0,0,0.0,-1,0.0,,0.0,0,0.0,0.0391
2364,0,,,260,266,240,233,,-0.04,0.04,0.98,-0,-0,-0,0.05,,74,0,3,12,97,0.5,1.5,118,4.75,12.9,0.0,1,0.0,0.0,0.0,0,0,0,1,0,,,,,,,,,,,,,,,,,,,,
2384,0,,,260,266,240,233,,-0.02,0.04,0.98,-0,-0,-0,0.05,,74,0,3,12,97,0.5,1.5,118,4.75,12.9,0.0,1,0.0,0.0,0.0,0,0,0,1,0,,,,,,,,,,,,,,,,,,,,
2404,0,,,260,266,240,233,,0.0,0.04,0.97,-0,-0,-0,0.04,,74,0,3,12,97,0.5,1.5,118,4.75,12.9,0.0,1,0.0,0.0,0.0,0,0,0,1,0,,,,,,,,,,,,,,,,,,,,
2424,0,,,261,266,239,233,,0.03,0.04,0.97,-0,-1,-0,0.05,,74,0,3,12,97,0.5,1.5,118,4.75,12.9,0.0,1,0.0,0.0,0.0,0,0,0,1,0,,,,,,,,,,,,,,,,,,,,
2444,0,-0,3,262,267,239,232,-4,0.07,0.04,0.97,-0,-1,-0,0.08,1,74,0,3,12,97,0.5,1.5,118,4.75,12.8,0.0,1,0.0,0.0,0.0,0,0,0,1,0,15,-1281,-1281,15,0.0,0.0,0.0,0.0,0,0,0.0,0,0.0,-1,0.0,0.0,0.0,0,0.0,0.0407
2464,0,,,262,268,239,232,,0.1,0.04,0.98,-0,-1,-0,0.11,,74,0,3,12,97,0.5,1.5,118,4.75,12.8,0.0,1,0.0,0.0,0.0,0,0,0,1,0,,,,,,,,,,,,,,,,,,,,
2484,0,,,263,268,238,232,,0.12,0.04,0.98,-0,-1,-0,0.13,,74,0,3,12,97,0.501,1.5,118,4.75,12.8,0.0,1,0.0,0.0,0.0,0,0,0,1,0,,,,,,,,,,,,,,,,,,,,
2504,0,,,263,268,239,232,,0.14,0.04,0.99,-0,-1,-0,0.14,,74,0,3,12,97,0.501,1.5,118,4.75,12.8,0.0,1,0.0,0.0,0.0,0,0,0,1,0,,,,,,,,,,,,,,,,,,,,
2524,0,,,263,268,239,232,,0.14,0.04,0.99,-0,-1,-0,0.15,,74,0,3,12,97,0.501,1.5,118,4.75,12.8,0.0,1,0.0,0.0,0.0,0,0,0,1,0,,,,,,,,,,,,,,,,,,,,
2544,0,-1,3,263,268,239,231,-4,0.14,0.04,0.99,-0,-1,-0,0.15,1,74,0,3,12,97,0.501,1.5,117,4.75,12.8,0.0,1,0.0,0.0,0.0,0,0,0,1,0,15,-1281,-1,15,0.0,0.0,0.0,0.0,0,0,0.0,0,0.0,-1,0.0,,0.0,0,0.0,0.0424
2564,0,,,262,268,239,232,,0.13,0.04,0.99,-0,-1,-0,0.14,,74,0,3,12,97,0.501,1.5,118,4.75,12.8,0.0,1,0.0,0.0,0.0,0,0,0,1,0,,,,,,,,,,,,,,,,,,,,
2584,0,,,263,268,239,231,,0.12,0.04,0.98,-0,-0,-0,0.13,,74,0,3,12,97,0.502,1.5,118,4.75,12.7,0.0,1,0.0,0.0,0.0,0,0,0,1,0,,,,,,,,,,,,,,,,,,,,
2604,0,,,263,268,239,232,,0.1,0.04,0.99,0,-0,-0,0.11,,74,0,3,12,97,0.502,1.5,118,4.75,12.7,0.0,1,0.0,0.0,0.0,0,0,0,1,0,,,,,,,,,,,,,,,,,,,,
2624,0,,,262,268,239,232,,0.09,0.04,0.98,0,-0,-0,0.09,,74,0,3,12,97,0.502,1.5,118,4.75,12.8,0.0,1,0.0,0.0,0.0,0,0,0,1,0,,,,,,,,,,,,,,,,,,,,
2644,0,0,2,262,268,239,232,-5,0.07,0.03,0.97,0,-0,-0,0.08,1,74,0,3,12,97,0.502,1.5,118,4.75,12.8,0.0,1,0.0,0.0,0.0,0,0,0,1,0,8,-1281,-1,10,0.0,0.0,0.0,0.0,0,0,0.0,0,0.0,-1,0.0,0.0,0.0,0,0.0,0.0441
2664,0,,,262,268,239,232,,0.06,0.03,0.97,0,-0,-0,0.07,,74,0,3,12,97,0.502,1.0,118,4.75,12.8,0.0,1,0.0,0.0,0.0,0,0,0,1,0,,,,,,,,,,,,,,,,,,,,
2684,0,,,262,268,239,232,,0.05,0.03,0.97,0,-0,-0,0.06,,74,0,3,12,97,0.502,1.0,118,4.75,12.8,0.0,1,0.0,0.0,0.0,0,0,0,1,0,,,,,,,,,,,,,,,,,,,,
2704,0,,,262,267,239,232,,0.04,0.03,0.97,0,-0,-0,0.05,,74,0,3,12,97,0.502,1.0,118,4.75,12.7,0.0,1,0.0,0.0,0.0,0,0,0,1,0,,,,,,,,,,,,,,,,,,,,
2724,0,,,262,267,239,231,,0.03,0.03,0.97,0,-0,-0,0.04,,74,0,3,12,97,0.502,1.0,118,4.75,12.7,0.0,1,0.0,0.0,0.0,0,0,0,1,0,,,,,,,,,,,,,,,,,,,,
2744,0,-2,4,262,267,239,232,-5,0.02,0.03,0.97,0,-0,-0,0.04,1,74,0,3,12,97,0.502,1.0,118,4.75,12.7,0.0,1,0.0,0.0,0.0,0,0,0,1,0,8,1018,-1,10,0.0,0.0,0.0,0.0,0,0,0.0,0,0.0,-1,0.0,,0.0,0,0.0,0.0457
2764,0,,,262,267,239,232,,0.01,0.03,0.97,0,-0,-0,0.03,,74,0,3,12,97,0.502,1.0,118,4.75,12.8,0.0,1,0.0,0.0,0.0,0,0,0,1,0,,,,,,,,,,,,,,,,,,,,
2784,0,,,262,267,238,232,,0.0,0.03,0.97,0,-0,-0,0.03,,74,0,3,12,97,0.502,1.0,118,4.75,12.8,0.0,1,0.0,0.0,0.0,0,0,0,1,0,,,,,,,,,,,,,,,,,,,,
2804,0,,,262,267,239,232,,-0.0,0.03,0.97,0,-0,-0,0.03,,74,0,3,12,97,0.502,1.0,118,4.74,12.8,0.0,1,0.0,0.0,0.0,0,0,0,1,0,,,,,,,,,,,,,,,,,,,,
2824,0,,,261,267,238,232,,-0.01,0.03,0.97,0,-0,-0,0.03,,74,0,3,12,97,0.502,1.0,118,4.75,12.8,0.0,1,0.0,0.0,0.0,0,0,0,1,0,,,,,,,,,,,,,,,,,,,,
2844,0,1,5,261,267,239,232,-5,-0.02,0.03,0.97,0,-0,-0,0.04,1,74,0,3,12,97,0.502,1.0,118,4.74,12.8,0.0,1,0.0,0.0,0.0,0,0,0,1,0,8,1018,1018,10,0.0,0.0,0.0,0.0,0,0,0.0,0,0.0,-1,0.0,0.0,0.0,0,0.0,0.0474
2864,0,,,261,266,239,232,,-0.02,0.03,0.97,0,-0,-0,0.04,,74,0,3,12,97,0.502,1.0,118,4.75,12.8,0.0,1,0.0,0.0,0.0,0,0,0,1,0,,,,,,,,,,,,,,,,,,,,
2884,0,,,261,267,239,232,,-0.02,0.03,0.97,0,-0,-0,0.04,,74,0,3,12,97,0.502,1.0,118,4.75,12.8,0.0,1,0.0,0.0,0.0,0,0,0,1,0,,,,,,,,,,,,,,,,,,,,
2904,0,,,261,267,239,232,,-0.03,0.03,0.97,0,-0,-0,0.04,,74,0,3,12,97,0.502,1.0,118,4.75,12.8,0.0,1,0.0,0.0,0.0,0,0,0,1,0,,,,,,,,,,,,,,,,,,,,
2924,0,,,261,266,239,233,,-0.03,0.03,0.97,0,-0,-0,0.05,,74,0,3,12,97,0.502,1.0,118,4.75,12.8,0.0,1,0.0,0.0,0.0,0,0,0,1,0,,,,,,,,,,,,,,,,,,,,
2944,0,1,5,261,266,239,232,-4,-0.04,0.03,0.97,0,-0,-0,0.05,1,74,0,3,12,97,0.502,1.0,118,4.75,12.8,0.0,1,0.0,0.0,0.0,0,0,0,1,0,8,1018,1018,10,0.0,0.0,0.0,0.0,0,0,0.0,0,0.0,-1,0.0,,0.0,0,0.0,0.0491
2964,0,,,261,266,239,233,,-0.04,0.03,0.97,0,-0,-0,0.05,,74,0,3,12,97,0.502,1.0,118,4.75,12.8,0.0,1,0.0,0.0,0.0,0,0,0,1,0,,,,,,,,,,,,,,,,,,,,
2984,0,,,261,266,239,233,,-0.04,0.03,0.96,0,0,-0,0.05,,74,0,3,12,97,0.502,1.0,118,4.75,12.8,0.0,1,0.0,0.0,0.0,0,0,0,1,0,,,,,,,,,,,,,,,,,,,,
3004,0,,,261,266,239,232,,-0.04,0.03,0.96,0,0,-0,0.06,,74,0,3,12,97,0.502,1.0,118,4.75,12.8,0.0,1,0.0,0.0,0.0,0,0,0,1,0,,,,,,,,,,,,,,,,,,,,
3024,0,,,261,266,239,232,,-0.05,0.03,0.96,0,0,-0,0.06,,74,0,3,12,97,0.502,1.0,118,4.75,12.8,0.0,1,0.0,0.0,0.0,0,0,0,1,0,,,,,,,,,,,,,,,,,,,,
3044,0,0,4,261,266,239,233,-5,-0.05,0.03,0.96,0,0,-0,0.06,1,74,0,3,12,97,0.503,1.0,118,4.75,12.8,0.0,1,0.0,0.0,0.0,0,0,0,1,0,5,1018,1018,10,0.0,0.0,0.0,0.0,0,0,0.0,0,0.0,-1,0.0,0.0,0.0,0,0.0,0.0507
3064,0,,,261,266,239,233,,-0.05,0.03,0.96,0,0,-0,0.06,,74,0,3,12,97,0.503,1.0,118,4.75,12.8,0.0,1,0.0,0.0,0.0,0,0,0,1,0,,,,,,,,,,,,,,,,,,,,
3084,0,,,261,266,239,233,,-0.05,0.03,0.96,0,0,-0,0.06,,74,0,3,12,97,0.503,1.0,118,4.75,12.7,0.0,1,0.0,0.0,0.0,0,0,0,1,0,,,,,,,,,,,,,,,,,,,,
3104,0,,,261,266,239,233,,-0.05,0.03,0.97,0,0,-0,0.06,,74,0,3,12,97,0.503,1.0,118,4.75,12.7,0.0,1,0.0,0.0,0.0,0,0,0,1,0,,,,,,,,,,,,,,,,,,,,
3124,0,,,261,266,239,232,,-0.06,0.03,0.97,-0,-0,-0,0.06,,74,0,3,12,97,0.504,1.0,118,4.74,12.7,0.0,1,0.0,0.0,0.0,0,0,0,1,0,,,,,,,,,,,,,,,,,,,,
3144,0,1,4,261,266,239,233,-5,-0.06,0.03,0.97,-0,-0,-0,0.07,1,74,0,3,12,97,0.504,0.8,118,4.75,12.7,0.0,1,0.0,0.0,0.0,0,0,0,1,0,5,1018,1018,0,0.0,0.0,0.0,0.0,0,0,0.0,0,0.0,-1,0.0,,0.0,0,0.0,0.0524
3164,0,,,261,266,239,233,,-0.06,0.03,0.97,-0,-0,-0,0.07,,74,0,3,12,97,0.504,0.0,118,4.75,12.7,0.0,1,0.0,0.0,0.0,0,0,0,1,0,,,,,,,,,,,,,,,,,,,,
3184,0,,,261,266,239,233,,-0.06,0.03,0.97,-0,0,-0,0.07,,74,0,3,12,97,0.504,0.0,118,4.75,12.7,0.0,1,0.0,0.0,0.0,0,0,0,1,0,,,,,,,,,,,,,,,,,,,,
3204,0,,,261,266,239,233,,-0.06,0.03,0.97,-0,-0,-0,0.07,,74,0,3,12,97,0.505,0.0,118,4.75,12.7,0.0,1,0.0,0.0,0.0,0,0,0,0,0,,,,,,,,,,,,,,,,,,,,
3224,0,,,261,266,239,233,,-0.06,0.04,0.97,-0,-0,-0,0.07,,74,0,3,12,97,0.505,0.0,118,4.66,13.0,0.0,1,0.0,0.0,0.0,0,0,0,0,0,,,,,,,,,,,,,,,,,,,,
3244,0,1,1,261,266,239,233,-5,-0.06,0.04,0.97,-0,-0,-0,0.07,1,74,0,3,12,97,0.505,0.0,118,4.14,13.0,0.0,1,0.0,0.0,0.0,0,0,0,0,0,5,250,1018,0,0.0,0.0,0.0,0.0,0,0,0.0,0,0.0,-1,0.0,0.0,0.0,0,0.0,0.0541
3264,0,,,261,265,239,233,,-0.06,0.04,0.97,-0,-0,-0,0.07,,74,0,3,12,97,0.506,0.0,118,3.62,13.0,0.0,1,0.0,0.0,0.0,0,0,0,0,0,,,,,,,,,,,,,,,,,,,,
3284,0,,,261,265,239,233,,-0.06,0.04,0.97,-0,-0,-0,0.07,,74,0,3,12,97,0.506,0.0,118,3.52,13.0,0.0,1,0.0,0.0,0.0,0,0,0,0,0,,,,,,,,,,,,,,,,,,,,
3304,0,,,261,265,239,233,,-0.06,0.04,0.97,-0,-0,-0,0.07,,74,0,3,12,97,0.506,0.0,118,3.41,13.0,0.0,1,0.0,0.0,0.0,0,0,0,0,0,,,,,,,,,,,,,,,,,,,,
3324,0,,,261,264,239,233,,-0.06,0.04,0.97,-0,-0,-0,0.07,,74,0,3,12,97,0.506,0.0,118,3.32,13.0,0.0,1,0.0,0.0,0.0,0,0,0,0,0,,,,,,,,,,,,,,,,,,,,
3344,0,0,5,261,264,239,233,-5,-0.06,0.04,0.97,-0,-0,-0,0.07,1,74,0,3,12,97,0.506,0.0,118,3.25,13.0,0.0,1,0.0,0.0,0.0,0,0,0,0,0,5,250,250,0,0.0,0.0,0.0,0.0,0,0,0.0,0,0.0,-1,0.0,,0.0,0,0.0,0.0557
3364,0,,,261,264,239,233,,-0.06,0.03,0.97,-0,-0,-0,0.07,,74,0,3,12,97,0.506,0.0,118,3.16,13.0,0.0,1,0.0,0.0,0.0,0,0,0,0,0,,,,,,,,,,,,,,,,,,,,
3384,0,,,261,264,239,234,,-0.06,0.03,0.97,-0,0,-0,0.07,,74,0,3,12,97,0.507,0.0,118,3.09,13.1,0.0,1,0.0,0.0,0.0,0,0,0,0,0,,,,,,,,,,,,,,,,,,,,
3404,0,,,261,263,239,234,,-0.05,0.03,0.97,-0,0,-0,0.06,,74,0,3,12,97,0.507,0.0,118,3.03,13.1,0.0,1,0.0,0.0,0.0,0,0,0,0,0,,,,,,,,,,,,,,,,,,,,
3424,0,,,261,263,239,235,,-0.05,0.03,0.97,-0,0,-0,0.06,,74,0,3,12,97,0.507,0.0,118,2.96,13.0,0.0,1,0.0,0.0,0.0,0,0,0,0,0,,,,,,,,,,,,,,,,,,,,
3444,0,1,2,261,263,239,234,-4,-0.05,0.03,0.97,-0,0,-1,0.06,1,74,0,3,12,97,0.507,0.0,118,2.91,13.0,0.0,1,0.0,0.0,0.0,0,0,0,0,0,5,250,250,0,0.0,0.0,0.0,0.0,0,0,0.0,0,0.0,-1,0.0,0.0,0.0,0,0.0,0.0574
3464,0,,,261,263,239,235,,-0.04,0.03,0.97,-0,0,-1,0.06,,74,0,3,12,97,0.507,0.0,117,2.86,13.0,0.0,1,0.0,0.0,0.0,0,0,0,0,0,,,,,,,,,,,,,,,,,,,,
3484,0,,,261,262,239,235,,-0.04,0.03,0.97,-0,0,-1,0.05,,74,0,3,12,97,0.507,0.0,118,2.81,13.0,0.0,1,0.0,0.0,0.0,0,0,0,0,0,,,,,,,,,,,,,,,,,,,,
3504,0,,,261,262,239,236,,-0.04,0.03,0.97,-0,0,-1,0.05,,74,0,3,12,97,0.507,0.0,118,2.76,13.0,0.0,1,0.0,0.0,0.0,0,0,0,0,0,,,,,,,,,,,,,,,,,,,,
3524,0,,,261,261,240,236,,-0.03,0.03,0.97,-0,0,-1,0.05,,74,0,3,12,97,0.507,0.0,118,2.7,13.0,0.0,1,0.0,0.0,0.0,0,0,0,0,0,,,,,,,,,,,,,,,,,,,,
3544,0,1,4,261,261,240,236,-5,-0.03,0.03,0.97,0,0,-1,0.04,1,74,0,3,12,97,0.508,0.0,118,2.67,13.1,0.0,1,0.0,0.0,0.0,0,0,0,0,0,0,250,250,0,0.0,0.0,0.0,0.0,0,0,0.0,0,0.0,-1,0.0,,0.0,0,0.0,0.0591
3564,0,,,261,261,240,237,,-0.02,0.03,0.97,0,0,-1,0.04,,74,0,3,12,97,0.508,0.0,118,2.65,13.1,0.0,1,0.0,0.0,0.0,0,0,0,0,0,,,,,,,,,,,,,,,,,,,,
3584,0,,,261,261,240,236,,-0.02,0.03,0.97,0,0,-1,0.04,,74,0,3,12,97,0.508,0.0,118,2.6,13.1,0.0,1,0.0,0.0,0.0,0,0,0,0,0,,,,,,,,,,,,,,,,,,,,
3604,0,,,260,261,240,236,,-0.02,0.03,0.97,0,0,-0,0.04,,74,0,3,12,97,0.508,0.0,118,2.57,13.0,0.0,1,0.0,0.0,0.0,0,0,0,0,0,,,,,,,,,,,,,,,,,,,,
3624,0,,,261,261,240,236,,-0.02,0.03,0.97,0,0,-0,0.04,,74,0,3,12,97,0.508,0.0,117,2.54,13.0,0.0,1,0.0,0.0,0.0,0,0,0,0,0,,,,,,,,,,,,,,,,,,,,
3644,0,0,4,260,261,240,237,-5,-0.01,0.03,0.97,0,0,-0,0.04,1,74,0,3,12,97,0.508,0.0,117,2.51,13.0,0.0,1,0.0,0.0,0.0,0,0,0,0,0,0,250,250,0,0.0,0.0,0.0,0.0,0,0,0.0,0,0.0,-1,0.0,0.0,0.0,0,0.0,0.0607
3664,0,,,260,260,240,236,,-0.01,0.03,0.97,0,0,-0,0.03,,74,0,3,12,97,0.508,0.0,117,2.47,13.0,0.0,1,0.0,0.0,0.0,0,0,0,0,0,,,,,,,,,,,,,,,,,,,,
3684,0,,,261,260,240,236,,-0.01,0.03,0.97,0,0,-0,0.03,,74,0,3,12,97,0.509,0.0,118,2.43,13.0,0.0,1,0.0,0.0,0.0,0,0,0,0,0,,,,,,,,,,,,,,,,,,,,
3704,0,,,260,260,240,237,,-0.01,0.03,0.97,0,0,-0,0.03,,74,0,3,12,97,0.509,0.0,118,2.42,13.1,0.0,1,0.0,0.0,0.0,0,0,0,0,0,,,,,,,,,,,,,,,,,,,,
3724,0,,,260,260,240,237,,-0.02,0.03,0.98,0,0,-0,0.04,,74,0,3,12,97,0.509,0.0,118,2.38,13.1,0.0,1,0.0,0.0,0.0,0,0,0,0,0,,,,,,,,,,,,,,,,,,,,
3744,0,-1,3,260,260,240,237,-5,-0.02,0.03,0.98,0,0,-0,0.04,1,74,0,3,12,97,0.509,0.0,118,2.37,13.1,0.0,1,0.0,0.0,0.0,0,0,0,0,0,0,250,250,0,0.0,0.0,0.0,0.0,0,0,0.0,0,0.0,-1,0.0,,0.0,0,0.0,0.0624
3764,0,,,260,260,240,237,,-0.03,0.03,0.98,0,0,-0,0.05,,74,0,3,12,97,0.509,0.0,118,2.35,13.1,0.0,1,0.0,0.0,0.0,0,0,0,0,0,,,,,,,,,,,,,,,,,,,,
3784,0,,,260,260,241,237,,-0.05,0.03,0.98,0,0,-0,0.06,,74,0,3,12,97,0.509,0.0,118,2.32,13.0,0.0,1,0.0,0.0,0.0,0,0,0,0,0,,,,,,,,,,,,,,,,,,,,
3804,0,,,259,259,241,238,,-0.06,0.03,0.98,0,1,-0,0.07,,74,0,3,12,97,0.509,0.0,118,2.3,13.0,0.0,1,0.0,0.0,0.0,0,0,0,0,0,,,,,,,,,,,,,,,,,,,,
3824,0,,,259,259,241,238,,-0.08,0.03,0.98,0,1,-0,0.08,,74,0,3,12,97,0.509,0.0,117,2.27,13.0,0.0,1,0.0,0.0,0.0,0,0,0,0,0,,,,,,,,,,,,,,,,,,,,
3844,0,0,3,259,258,241,238,-5,-0.09,0.03,0.98,0,1,-0,0.09,1,74,0,3,12,97,0.509,0.0,117,2.23,13.0,0.0,1,0.0,0.0,0.0,0,0,0,0,0,0,250,250,0,0.0,0.0,0.0,0.0,0,0,0.0,0,0.0,-1,0.0,0.0,0.0,0,0.0,0.0641
3864,0,,,258,258,241,238,,-0.09,0.03,0.97,0,1,-0,0.1,,74,0,3,12,97,0.509,0.0,118,2.21,13.0,0.0,1,0.0,0.0,0.0,0,0,0,0,0,,,,,,,,,,,,,,,,,,,,
3884,0,,,259,258,242,238,,-0.1,0.03,0.97,0,1,-0,0.11,,74,0,3,12,97,0.509,0.0,118,2.21,13.1,0.0,1,0.0,0.0,0.0,0,0,0,0,1,,,,,,,,,,,,,,,,,,,,
3904,0,,,259,258,241,239,,-0.11,0.03,0.97,0,1,-0,0.11,,74,0,3,12,97,0.509,0.0,118,2.19,13.1,0.0,1,0.0,0.0,0.0,0,0,0,0,1,,,,,,,,,,,,,,,,,,,,
3924,0,,,259,258,241,239,,-0.11,0.03,0.97,0,0,-0,0.11,,74,0,3,12,97,0.509,0.0,118,2.16,13.1,0.0,1,0.0,0.0,0.0,0,0,0,0,1,,,,,,,,,,,,,,,,,,,,
3944,0,0,3,258,258,241,239,-5,-0.11,0.03,0.97,0,0,-0,0.11,1,74,0,3,12,97,0.509,0.0,118,2.16,13.1,0.0,1,0.0,0.0,0.0,0,0,0,0,1,0,250,250,0,0.0,0.0,0.0,0.0,0,0,0.0,0,0.0,-1,0.0,,0.0,0,0.0,0.0657
3964,0,,,259,258,242,239,,-0.11,0.03,0.97,0,0,-0,0.11,,74,0,3,12,97,0.509,0.0,118,2.13,13.0,0.0,1,0.0,0.0,0.0,0,0,0,0,1,,,,,,,,,,,,,,,,,,,,
3984,0,,,259,259,241,239,,-0.11,0.03,0.97,0,0,-0,0.11,,74,0,3,12,97,0.509,0.0,118,2.12,13.0,0.0,1,0.0,0.0,0.0,0,0,0,0,1,,,,,,,,,,,,,,,,,,,,
4004,0,,,259,260,241,239,,-0.1,0.03,0.97,0,0,-0,0.11,,74,0,3,12,97,0.509,0.0,118,2.11,13.0,0.0,1,0.0,0.0,0.0,0,0,0,0,1,,,,,,,,,,,,,,,,,,,,
4024,0,,,259,260,242,239,,-0.1,0.03,0.97,0,0,-0,0.1,,74,0,3,12,97,0.509,0.4,118,2.1,13.0,0.0,1,0.0,0.0,0.0,0,0,0,0,1,,,,,,,,,,,,,,,,,,,,
4044,0,0,2,259,260,242,238,-4,-0.09,0.03,0.97,0,0,-0,0.1,1,74,0,3,12,97,0.509,0.4,118,2.08,13.1,0.0,1,0.0,0.0,0.0,0,0,0,0,1,0,-1,250,0,0.0,0.0,0.0,0.0,0,0,0.0,0,0.0,-1,0.0,0.0,0.0,0,0.0,0.0674
4064,0,,,259,261,242,238,,-0.08,0.03,0.96,0,-0,-0,0.09,,74,0,3,12,97,0.509,0.4,118,2.06,13.1,0.0,1,0.0,0.0,0.0,0,0,0,0,1,,,,,,,,,,,,,,,,,,,,
4084,0,,,258,261,242,239,,-0.08,0.03,0.96,0,-0,-0,0.08,,74,0,3,12,97,0.509,0.4,118,2.05,13.1,0.0,1,0.0,0.0,0.0,0,0,0,0,1,,,,,,,,,,,,,,,,,,,,
4104,0,,,259,261,242,238,,-0.07,0.03,0.96,0,-0,0,0.08,,74,0,3,12,97,0.509,0.4,118,2.05,13.0,0.0,1,0.0,0.0,0.0,0,0,0,0,1,,,,,,,,,,,,,,,,,,,,
4124,0,,,259,261,242,238,,-0.07,0.03,0.96,0,-0,0,0.07,,74,0,3,12,97,0.509,0.4,118,2.02,13.0,0.0,1,0.0,0.0,0.0,0,0,0,0,1,,,,,,,,,,,,,,,,,,,,
4144,0,-1,4,259,261,242,238,-5,-0.06,0.03,0.96,0,-0,0,0.07,1,74,0,3,12,97,0.509,0.4,118,2.02,13.0,0.0,1,0.0,0.0,0.0,0,0,0,0,1,0,-1,250,0,0.0,0.0,0.0,0.0,0,0,0.0,0,0.0,-1,0.0,,0.0,0,0.0,0.0691
4164,0,,,259,261,242,238,,-0.06,0.03,0.97,0,-0,0,0.07,,74,0,3,12,97,0.509,0.4,118,2.0,13.0,0.0,1,0.0,0.0,0.0,0,0,0,0,1,,,,,,,,,,,,,,,,,,,,
4184,0,,,259,261,242,238,,-0.06,0.03,0.97,0,-0,0,0.06,,74,0,3,12,97,0.509,0.4,118,2.0,13.0,0.0,1,0.0,0.0,0.0,0,0,0,0,1,,,,,,,,,,,,,,,,,,,,
4204,0,,,258,262,241,238,,-0.05,0.03,0.97,0,-0,0,0.06,,74,0,3,12,97,0.509,0.4,118,1.97,13.0,0.0,1,0.0,0.0,0.0,0,0,0,0,1,,,,,,,,,,,,,,,,,,,,
4224,0,,,259,262,241,238,,-0.05,0.03,0.97,0,-0,0,0.06,,74,0,3,12,97,0.509,0.4,118,1.97,13.1,0.0,1,0.0,0.0,0.0,0,0,0,0,1,,,,,,,,,,,,,,,,,,,,
4244,0,1,2,259,262,241,238,-4,-0.05,0.03,0.97,0,-0,0,0.06,1,74,0,3,12,97,0.509,0.4,118,1.97,13.1,0.0,1,0.0,0.0,0.0,0,0,0,0,1,0,-1,250,0,0.0,0.0,0.0,0.0,0,0,0.0,0,0.0,-1,0.0,0.0,0.0,0,0.0,0.0707
4264,0,,,259,262,242,237,,-0.05,0.03,0.97,0,-0,0,0.06,,74,0,3,12,97,0.509,0.4,118,1.94,13.1,0.0,1,0.0,0.0,0.0,0,0,0,0,1,,,,,,,,,,,,,,,,,,,,
4284,0,,,259,262,242,237,,-0.05,0.03,0.97,0,-0,0,0.06,,74,0,3,12,97,0.509,0.4,118,1.94,13.0,0.0,1,0.0,0.0,0.0,0,0,0,0,1,,,,,,,,,,,,,,,,,,,,
4304,0,,,259,262,242,238,,-0.05,0.03,0.97,0,-0,0,0.06,,74,0,3,12,97,0.509,0.4,118,1.94,13.0,0.0,1,0.0,0.0,0.0,0,0,0,0,1,,,,,,,,,,,,,,,,,,,,
4324,0,,,259,262,241,237,,-0.05,0.03,0.97,0,-0,0,0.06,,74,0,3,12,97,0.509,0.4,118,1.92,13.0,0.0,1,0.0,0.0,0.0,0,0,0,0,1,,,,,,,,,,,,,,,,,,,,
4344,0,0,4,258,262,241,237,-5,-0.05,0.03,0.97,0,-0,0,0.06,1,74,0,3,12,97,0.509,0.4,118,1.92,13.0,0.0,1,0.0,0.0,0.0,0,0,0,0,1,0,-1,250,0,0.0,0.0,0.0,0.0,0,0,0.0,0,0.0,-1,0.0,,0.0,0,0.0,0.0724
4364,0,,,259,262,241,237,,-0.05,0.03,0.97,0,-0,0,0.06,,74,0,3,12,97,0.509,0.4,118,1.89,13.0,0.0,1,0.0,0.0,0.0,0,0,0,0,1,,,,,,,,,,,,,,,,,,,,
4384,0,,,259,262,241,237,,-0.05,0.03,0.97,0,-0,0,0.06,,74,0,3,12,97,0.509,0.4,118,1.89,13.0,0.0,1,0.0,0.0,0.0,0,0,0,0,1,,,,,,,,,,,,,,,,,,,,
4404,0,,,259,262,242,237,,-0.05,0.03,0.97,0,-0,0,0.06,,74,0,3,12,97,0.509,0.4,118,1.88,13.1,0.0,1,0.0,0.0,0.0,0,0,0,0,1,,,,,,,,,,,,,,,,,,,,
4424,0,,,259,263,241,237,,-0.06,0.03,0.97,0,-0,0,0.07,,74,0,3,12,97,0.509,0.4,118,1.88,13.1,0.0,1,0.0,0.0,0.0,0,0,0,0,1,,,,,,,,,,,,,,,,,,,,
4444,0,0,3,258,263,241,236,-5,-0.06,0.03,0.97,0,-0,0,0.07,1,74,0,3,12,97,0.509,0.4,118,1.86,13.1,0.0,1,0.0,0.0,0.0,0,0,0,0,1,0,-1,250,0,0.0,0.0,0.0,0.0,0,0,0.0,0,0.0,-1,0.0,0.0,0.0,0,0.0,0.0741
4464,0,,,259,263,241,236,,-0.06,0.03,0.97,0,-1,0,0.07,,74,0,3,12,97,0.509,0.4,118,1.85,13.0,0.0,1,0.0,0.0,0.0,0,0,0,0,1,,,,,,,,,,,,,,,,,,,,
4484,0,,,259,263,241,236,,-0.06,0.03,0.97,0,-1,0,0.07,,74,0,3,12,97,0.509,0.4,118,1.85,13.0,0.0,1,0.0,0.0,0.0,0,0,0,0,1,,,,,,,,,,,,,,,,,,,,
4504,0,,,259,263,241,235,,-0.07,0.03,0.97,0,-1,0,0.07,,74,0,3,12,97,0.509,0.4,118,1.83,13.0,0.0,1,0.0,0.0,0.0,0,0,0,0,1,,,,,,,,,,,,,,,,,,,,
4524,0,,,258,263,241,235,,-0.07,0.03,0.97,0,-1,0,0.08,,74,0,3,12,97,0.509,0.0,118,1.83,13.0,0.0,1,0.0,0.0,0.0,0,0,0,0,1,,,,,,,,,,,,,,,,,,,,
4544,0,-1,3,259,263,241,235,-6,-0.07,0.03,0.97,-0,-1,0,0.08,1,74,0,3,12,97,0.509,0.0,118,1.83,13.0,0.0,1,0.0,0.0,0.0,0,0,0,0,1,0,250,250,0,0.0,0.0,0.0,0.0,0,0,0.0,0,0.0,-1,0.0,,0.0,0,0.0,0.0757
4564,0,,,259,263,241,235,,-0.07,0.03,0.97,0,-0,0,0.08,,74,0,3,12,97,0.509,0.0,118,1.8,13.1,0.0,1,0.0,0.0,0.0,0,0,0,0,1,,,,,,,,,,,,,,,,,,,,
4584,0,,,258,264,241,235,,-0.07,0.03,0.97,0,-0,0,0.08,,74,0,3,12,97,0.509,0.0,118,1.8,13.1,0.0,1,0.0,0.0,0.0,0,0,0,0,1,,,,,,,,,,,,,,,,,,,,
4604,0,,,259,264,242,235,,-0.07,0.03,0.97,0,-0,0,0.08,,74,0,3,12,97,0.509,0.0,118,1.8,13.1,0.0,1,0.0,0.0,0.0,0,0,0,0,1,,,,,,,,,,,,,,,,,,,,
4624,0,,,259,264,241,235,,-0.07,0.03,0.97,-0,-0,0,0.08,,74,0,3,12,97,0.509,0.0,118,1.8,13.1,0.0,1,0.0,0.0,0.0,0,0,0,0,1,,,,,,,,,,,,,,,,,,,,
4644,0,1,4,258,264,241,235,-5,-0.07,0.03,0.97,-0,-0,0,0.08,1,74,0,3,12,97,0.509,0.0,118,1.78,13.0,0.0,1,0.0,0.0,0.0,0,0,0,0,1,0,250,250,0,0.0,0.0,0.0,0.0,0,0,0.0,0,0.0,-1,0.0,0.0,0.0,0,0.0,0.0774
4664,0,,,259,264,241,235,,-0.07,0.03,0.97,-0,-0,0,0.08,,74,0,3,12,97,0.509,0.0,118,1.78,13.0,0.0,1,0.0,0.0,0.0,0,0,0,0,1,,,,,,,,,,,,,,,,,,,,
4684,0,,,259,264,241,235,,-0.07,0.03,0.97,-0,-0,0,0.08,,74,0,3,12,97,0.509,0.0,118,1.78,13.0,0.0,1,0.0,0.0,0.0,0,0,0,0,1,,,,,,,,,,,,,,,,,,,,
4704,0,,,259,264,241,235,,-0.07,0.03,0.97,-0,-0,0,0.08,,74,0,3,12,97,0.509,0.0,118,1.75,13.0,0.0,1,0.0,0.0,0.0,0,0,0,0,1,,,,,,,,,,,,,,,,,,,,
4724,0,,,259,264,242,235,,-0.07,0.03,0.97,-0,-0,0,0.08,,74,0,3,12,97,0.509,0.0,118,1.75,13.0,0.0,1,0.0,0.0,0.0,0,0,0,0,1,,,,,,,,,,,,,,,,,,,,
4744,0,0,3,259,264,241,235,-6,-0.07,0.03,0.97,-0,-0,0,0.08,1,74,0,3,12,97,0.509,0.0,118,1.75,13.1,0.0,1,0.0,0.0,0.0,0,0,0,0,1,0,250,250,0,0.0,0.0,0.0,0.0,0,0,0.0,0,0.0,-1,0.0,,0.0,0,0.0,0.0791
4764,0,,,258,264,241,235,,-0.07,0.03,0.97,-0,-0,0,0.08,,74,0,3,12,97,0.509,0.0,118,1.73,13.1,0.0,1,0.0,0.0,0.0,0,0,0,0,1,,,,,,,,,,,,,,,,,,,,
4784,0,,,258,264,242,235,,-0.07,0.03,0.97,-0,-0,0,0.07,,74,0,3,12,97,0.509,0.0,118,1.73,13.1,0.0,1,0.0,0.0,0.0,0,0,0,0,1,,,,,,,,,,,,,,,,,,,,
4804,0,,,259,264,242,235,,-0.07,0.03,0.97,-0,-0,0,0.07,,74,0,3,12,97,0.509,0.0,118,1.73,13.0,0.0,1,0.0,0.0,0.0,0,0,0,0,1,,,,,,,,,,,,,,,,,,,,
4824,0,,,259,264,241,235,,-0.06,0.03,0.97,-0,-0,0,0.07,,74,0,3,12,97,0.509,0.0,118,1.73,13.0,0.0,1,0.0,0.0,0.0,0,0,0,0,1,,,,,,,,,,,,,,,,,,,,
4844,0,-1,4,259,264,242,235,-4,-0.06,0.03,0.97,-0,-0,-0,0.07,1,74,0,3,12,97,0.509,0.0,118,1.71,13.0,0.0,1,0.0,0.0,0.0,0,0,0,0,1,0,250,250,0,0.0,0.0,0.0,0.0,0,0,0.0,0,0.0,-1,0.0,0.0,0.0,0,0.0,0.0807
4864,0,,,259,264,241,235,,-0.06,0.03,0.97,-0,-0,-0,0.07,,74,0,3,12,97,0.509,0.0,118,1.7,13.0,0.0,1,0.0,0.0,0.0,0,0,0,0,1,,,,,,,,,,,,,,,,,,,,
4884,0,,,259,264,241,235,,-0.06,0.03,0.97,-0,-0,-0,0.07,,74,0,3,12,97,0.509,0.0,118,1.7,13.0,0.0,1,0.0,0.0,0.0,0,0,0,0,1,,,,,,,,,,,,,,,,,,,,
4904,0,,,259,264,241,235,,-0.06,0.03,0.97,-0,-0,-0,0.07,,74,0,3,12,97,0.509,0.0,118,1.69,13.1,0.0,1,0.0,0.0,0.0,0,0,0,0,1,,,,,,,,,,,,,,,,,,,,
4924,0,,,259,264,241,235,,-0.06,0.03,0.97,-0,-0,-0,0.07,,74,0,3,12,97,0.509,0.0,118,1.67,13.1,0.0,1,0.0,0.0,0.0,0,0,0,0,1,,,,,,,,,,,,,,,,,,,,
4944,0,-0,4,258,264,241,235,-5,-0.06,0.03,0.97,-0,-0,-0,0.07,1,74,0,3,12,97,0.509,0.0,118,1.67,13.1,0.0,1,0.0,0.0,0.0,0,0,0,0,1,0,250,250,0,0.0,0.0,0.0,0.0,0,0,0.0,0,0.0,-1,0.0,,0.0,0,0.0,0.0824
4964,0,,,259,263,241,235,,-0.06,0.03,0.97,-0,-0,-0,0.07,,74,0,3,12,97,0.509,0.0,118,1.67,13.1,0.0,1,0.0,0.0,0.0,0,0,0,0,1,,,,,,,,,,,,,,,,,,,,
4984,0,,,259,264,241,235,,-0.06,0.03,0.97,-0,-0,-0,0.07,,74,0,3,12,97,0.509,0.0,118,1.67,13.0,0.0,1,0.0,0.0,0.0,0,0,0,0,1,,,,,,,,,,,,,,,,,,,,
5004,0,,,259,264,241,235,,-0.06,0.03,0.97,-0,-0,-0,0.07,,74,0,3,12,97,0.509,0.0,118,1.66,13.0,0.0,1,0.0,0.0,0.0,0,0,0,0,1,,,,,,,,,,,,,,,,,,,,
5024,0,,,259,264,241,235,,-0.06,0.03,0.97,-0,-0,-0,0.07,,74,0,3,12,97,0.509,0.0,119,1.64,13.0,0.0,1,0.0,0.0,0.0,0,0,0,0,1,,,,,,,,,,,,,,,,,,,,
5044,0,0,3,259,264,241,235,-5,-0.06,0.03,0.97,-0,-0,-0,0.07,1,74,0,3,12,97,0.509,0.0,118,1.64,13.0,0.0,1,0.0,0.0,0.0,0,0,0,0,1,0,250,250,0,0.0,0.0,0.0,0.0,0,0,0.0,0,0.0,-1,0.0,0.0,0.0,0,0.0,0.0841
5064,0,,,259,264,241,235,,-0.06,0.03,0.97,-0,-0,-0,0.07,,74,0,3,12,97,0.509,0.0,118,1.64,13.1,0.0,1,0.0,0.0,0.0,0,0,0,0,1,,,,,,,,,,,,,,,,,,,,
5084,0,,,259,264,241,235,,-0.06,0.03,0.97,-0,-0,-0,0.07,,74,0,3,12,97,0.509,0.0,118,1.64,13.1,0.0,1,0.0,0.0,0.0,0,0,0,0,1,,,,,,,,,,,,,,,,,,,,
5104,0,,,259,264,241,235,,-0.06,0.03,0.97,-0,-0,-0,0.07,,74,0,3,12,97,0.509,0.0,118,1.61,13.0,0.0,1,0.0,0.0,0.0,0,0,0,0,1,,,,,,,,,,,,,,,,,,,,
5124,0,,,259,264,241,235,,-0.06,0.03,0.97,-0,-0,-0,0.07,,74,0,3,12,97,0.509,0.0,118,1.61,13.0,0.0,1,0.0,0.0,0.0,0,0,0,0,1,,,,,,,,,,,,,,,,,,,,
5144,0,0,4,259,264,241,235,-5,-0.06,0.03,0.97,-0,-0,-0,0.07,1,74,0,3,12,97,0.509,0.0,118,1.61,13.0,0.0,1,0.0,0.0,0.0,0,0,0,0,1,0,250,250,0,0.0,0.0,0.0,0.0,0,0,0.0,0,0.0,-1,0.0,,0.0,0,0.0,0.0857
5164,0,,,259,264,241,235,,-0.06,0.03,0.97,-0,-0,-0,0.07,,74,0,3,12,97,0.509,0.0,118,1.61,13.0,0.0,1,0.0,0.0,0.0,0,0,0,0,1,,,,,,,,,,,,,,,,,,,,
5184,0,,,259,264,241,235,,-0.06,0.03,0.96,-0,-0,-0,0.07,,74,0,3,12,97,0.509,0.0,118,1.61,13.0,0.0,1,0.0,0.0,0.0,0,0,0,0,1,,,,,,,,,,,,,,,,,,,,
5204,0,,,259,264,241,235,,-0.06,0.03,0.96,-0,-0,-0,0.07,,74,0,3,12,97,0.509,0.0,118,1.61,13.0,0.0,1,0.0,0.0,0.0,0,0,0,0,1,,,,,,,,,,,,,,,,,,,,
5224,0,,,259,264,241,235,,-0.06,0.03,0.96,-0,-0,-0,0.07,,74,0,3,13,97,0.509,0.0,118,1.58,13.0,0.0,1,0.0,0.0,0.0,0,0,0,0,1,,,,,,,,,,,,,,,,,,,,
5244,0,1,5,259,264,241,235,-5,-0.06,0.03,0.96,-0,-0,-0,0.07,1,74,0,3,12,97,0.509,0.0,118,1.58,13.1,0.0,1,0.0,0.0,0.0,0,0,0,0,1,0,250,250,0,0.0,0.0,0.0,0.0,0,0,0.0,0,0.0,-1,0.0,0.0,0.0,0,0.0,0.0874
5264,0,,,259,264,241,235,,-0.06,0.03,0.96,-0,-0,-0,0.07,,74,0,3,13,97,0.509,0.0,118,1.58,13.1,0.0,1,0.0,0.0,0.0,0,0,0,0,1,,,,,,,,,,,,,,,,,,,,
5284,0,,,259,264,241,235,,-0.06,0.03,0.96,-0,-0,-0,0.07,,74,0,3,13,97,0.509,0.0,118,1.58,13.1,0.0,1,0.0,0.0,0.0,0,0,0,0,1,,,,,,,,,,,,,,,,,,,,
5304,0,,,259,264,241,235,,-0.06,0.03,0.96,-0,-0,-0,0.07,,74,0,3,12,97,0.509,0.0,118,1.58,13.1,0.0,1,0.0,0.0,0.0,0,0,0,0,1,,,,,,,,,,,,,,,,,,,,
5324,0,,,259,264,241,235,,-0.06,0.03,0.96,-0,-0,-0,0.07,,74,0,3,12,97,0.509,0.0,118,1.56,13.0,0.0,1,0.0,0.0,0.0,0,0,0,0,1,,,,,,,,,,,,,,,,,,,,
5344,0,-1,1,259,264,241,235,-5,-0.06,0.03,0.96,-0,-0,-0,0.07,1,74,0,3,12,97,0.509,0.0,118,1.56,13.0,0.0,1,0.0,0.0,0.0,0,0,0,0,1,0,250,250,0,0.0,0.0,0.0,0.0,0,0,0.0,0,0.0,-1,0.0,,0.0,0,0.0,0.0891
5364,0,,,259,264,241,235,,-0.06,0.03,0.96,-0,-0,-0,0.07,,74,0,3,13,97,0.509,0.0,118,1.56,13.0,0.0,1,0.0,0.0,0.0,0,0,0,0,1,,,,,,,,,,,,,,,,,,,,
5384,0,,,259,264,241,235,,-0.06,0.03,0.96,-0,-0,-0,0.07,,74,0,3,12,97,0.509,0.0,118,1.56,13.0,0.0,1,0.0,0.0,0.0,0,0,0,0,1,,,,,,,,,,,,,,,,,,,,
5404,0,,,259,264,241,235,,-0.06,0.03,0.97,-0,-0,-0,0.07,,74,0,3,12,97,0.509,0.0,118,1.56,13.0,0.0,1,0.0,0.0,0.0,0,0,0,0,1,,,,,,,,,,,,,,,,,,,,
5424,0,,,259,264,241,235,,-0.06,0.03,0.97,-0,-0,-0,0.07,,74,0,3,12,97,0.509,0.0,118,1.56,13.1,0.0,1,0.0,0.0,0.0,0,0,0,0,1,,,,,,,,,,,,,,,,,,,,
5444,0,1,4,259,264,241,235,-5,-0.05,0.03,0.97,-0,-0,-0,0.06,1,74,0,3,12,97,0.509,0.0,118,1.55,13.1,0.0,1,0.0,0.0,0.0,0,0,0,0,1,0,250,250,0,0.0,0.0,0.0,0.0,0,0,0.0,0,0.0,-1,0.0,0.0,0.0,0,0.0,0.0907
5464,0,,,259,264,241,235,,-0.05,0.03,0.97,-0,-0,-0,0.06,,74,0,3,12,97,0.509,0.0,118,1.53,13.1,0.0,1,0.0,0.0,0.0,0,0,0,0,1,,,,,,,,,,,,,,,,,,,,
5484,0,,,259,264,241,235,,-0.05,0.03,0.97,-0,-0,-0,0.06,,74,0,3,12,97,0.509,0.0,118,1.53,13.1,0.0,1,0.0,0.0,0.0,0,0,0,0,1,,,,,,,,,,,,,,,,,,,,
5504,0,,,259,264,241,235,,-0.05,0.03,0.97,-0,-0,-0,0.06,,74,0,3,13,97,0.509,0.0,118,1.53,13.0,0.0,1,0.0,0.0,0.0,0,0,0,0,1,,,,,,,,,,,,,,,,,,,,
5524,0,,,259,264,241,235,,-0.05,0.03,0.97,-0,-0,-0,0.06,,74,0,3,12,97,0.509,0.0,118,1.53,13.0,0.0,1,0.0,0.0,0.0,0,0,0,0,1,,,,,,,,,,,,,,,,,,,,
5544,0,0,5,259,264,241,235,-4,-0.05,0.03,0.97,-0,-0,-0,0.06,1,74,0,3,12,97,0.509,0.0,118,1.53,13.0,0.0,1,0.0,0.0,0.0,0,0,0,0,1,0,250,250,0,0.0,0.0,0.0,0.0,0,0,0.0,0,0.0,-1,0.0,,0.0,0,0.0,0.0924
5564,0,,,259,264,241,235,,-0.05,0.03,0.97,-0,-0,-0,0.06,,74,0,3,13,97,0.509,0.0,118,1.53,13.0,0.0,1,0.0,0.0,0.0,0,0,0,0,1,,,,,,,,,,,,,,,,,,,,
5584,0,,,259,264,241,235,,-0.05,0.03,0.97,-0,-0,-0,0.06,,74,0,3,12,97,0.509,0.0,118,1.51,13.1,0.0,1,0.0,0.0,0.0,0,0,0,0,1,,,,,,,,,,,,,,,,,,,,
5604,0,,,259,264,241,235,,-0.04,0.03,0.97,-0,-0,-0,0.06,,74,0,3,13,97,0.509,0.0,118,1.51,13.1,0.0,1,0.0,0.0,0.0,0,0,0,0,1,,,,,,,,,,,,,,,,,,,,
5624,0,,,259,264,241,235,,-0.04,0.03,0.97,-0,-0,-0,0.05,,74,0,3,13,97,0.509,0.0,118,1.51,13.1,0.0,1,0.0,0.0,0.0,0,0,0,0,1,,,,,,,,,,,,,,,,,,,,
5644,0,1,1,259,264,241,235,-5,-0.04,0.03,0.97,-0,-0,-0,0.05,1,74,0,3,13,97,0.509,0.0,118,1.51,13.1,0.0,1,0.0,0.0,0.0,0,0,0,0,1,0,250,250,0,0.0,0.0,0.0,0.0,0,0,0.0,0,0.0,-1,0.0,0.0,0.0,0,0.0,0.0941
5664,0,,,259,264,241,235,,-0.04,0.03,0.97,-0,-0,-0,0.05,,74,0,3,12,97,0.509,0.0,118,1.51,13.0,0.0,1,0.0,0.0,0.0,0,0,0,0,1,,,,,,,,,,,,,,,,,,,,
5684,0,,,259,264,241,235,,-0.04,0.03,0.97,-0,-0,-0,0.05,,74,0,3,12,97,0.51,0.0,118,1.51,13.0,0.0,1,0.0,0.0,0.0,0,0,0,0,1,,,,,,,,,,,,,,,,,,,,
5704,0,,,259,263,241,235,,-0.03,0.03,0.97,-0,-0,-0,0.05,,74,0,3,13,97,0.51,0.0,118,1.51,13.0,0.0,1,0.0,0.0,0.0,0,0,0,0,1,,,,,,,,,,,,,,,,,,,,
5724,0,,,259,264,241,235,,-0.03,0.03,0.97,-0,-0,-0,0.05,,74,0,3,13,97,0.51,0.0,118,1.51,13.0,0.0,1,0.0,0.0,0.0,0,0,0,0,1,,,,,,,,,,,,,,,,,,,,
5744,0,-1,4,259,264,241,235,-5,-0.03,0.03,0.97,-0,-0,-0,0.04,1,74,0,3,13,97,0.51,0.0,118,1.51,13.0,0.0,1,0.0,0.0,0.0,0,0,0,0,1,0,250,250,0,0.0,0.0,0.0,0.0,0,0,0.0,0,0.0,-1,0.0,,0.0,0,0.0,0.0957
5764,0,,,259,264,241,235,,-0.03,0.03,0.97,-0,-0,-0,0.04,,74,0,3,13,97,0.51,0.0,118,1.48,13.1,0.0,1,0.0,0.0,0.0,0,0,0,0,1,,,,,,,,,,,,,,,,,,,,
5784,0,,,259,264,241,235,,-0.02,0.03,0.97,-0,-0,-0,0.04,,74,0,3,13,97,0.51,0.0,118,1.48,13.1,0.0,1,0.0,0.0,0.0,0,0,0,0,1,,,,,,,,,,,,,,,,,,,,
5804,0,,,259,264,241,235,,-0.02,0.03,0.97,-0,-0,-0,0.04,,74,0,3,13,97,0.51,0.0,118,1.48,13.1,0.0,1,0.0,0.0,0.0,0,0,0,0,1,,,,,,,,,,,,,,,,,,,,
5824,0,,,259,263,241,235,,-0.01,0.03,0.97,-0,-0,-0,0.04,,74,0,3,13,97,0.51,0.0,118,1.48,13.1,0.0,1,0.0,0.0,0.0,0,0,0,0,1,,,,,,,,,,,,,,,,,,,,
5844,0,-1,3,259,263,241,235,-5,-0.01,0.03,0.97,-0,-0,-0,0.04,1,74,0,3,13,97,0.51,0.0,118,1.48,13.0,0.0,1,0.0,0.0,0.0,0,0,0,0,1,0,250,250,0,0.0,0.0,0.0,0.0,0,0,0.0,0,0.0,-1,0.0,0.0,0.0,0,0.0,0.0974
5864,0,,,259,263,241,236,,-0.0,0.03,0.97,-0,-0,-0,0.03,,74,0,3,13,97,0.51,0.0,118,1.48,13.0,0.0,1,0.0,0.0,0.0,0,0,0,0,1,,,,,,,,,,,,,,,,,,,,
5884,0,,,259,262,241,236,,0.0,0.03,0.97,-0,-0,-0,0.03,,74,0,3,13,97,0.51,0.0,118,1.48,13.0,0.0,1,0.0,0.0,0.0,0,0,0,0,1,,,,,,,,,,,,,,,,,,,,
5904,0,,,259,261,241,236,,0.0,0.03,0.97,-0,-0,-0,0.03,,74,0,3,13,97,0.51,0.0,118,1.47,13.0,0.0,1,0.0,0.0,0.0,0,0,0,0,1,,,,,,,,,,,,,,,,,,,,
5924,0,,,259,261,241,236,,0.01,0.03,0.97,-0,-0,-0,0.03,,74,0,3,13,97,0.51,0.0,118,1.45,13.1,0.0,1,0.0,0.0,0.0,0,0,0,0,1,,,,,,,,,,,,,,,,,,,,
5944,0,1,1,259,261,241,235,-4,0.01,0.03,0.97,-0,-0,-0,0.04,1,74,0,3,13,97,0.509,0.0,118,1.45,13.1,0.0,1,0.0,0.0,0.0,0,0,0,0,1,0,250,250,0,0.0,0.0,0.0,0.0,0,0,0.0,0,0.0,-1,0.0,,0.0,0,0.0,0.0991
5964,0,,,259,261,241,236,,0.01,0.03,0.97,-0,-0,-0,0.04,,74,0,3,13,97,0.509,0.0,118,1.45,13.1,0.0,1,0.0,0.0,0.0,0,0,0,0,1,,,,,,,,,,,,,,,,,,,,
5984,0,,,259,261,241,236,,0.01,0.03,0.97,-0,-0,-0,0.04,,74,0,3,13,97,0.509,0.0,118,1.45,13.1,0.0,1,0.0,0.0,0.0,0,0,0,0,1,,,,,,,,,,,,,,,,,,,,
6004,0,,,259,261,241,236,,0.02,0.03,0.97,-0,-0,-0,0.04,,74,0,3,13,97,0.509,0.0,118,1.45,13.0,0.0,1,0.0,0.0,0.0,0,0,0,0,1,,,,,,,,,,,,,,,,,,,,
6024,0,,,259,261,241,236,,0.02,0.03,0.97,-0,-0,-0,0.04,,74,0,3,13,97,0.509,0.7,118,1.45,13.0,0.0,1,0.0,0.0,0.0,0,0,0,0,1,,,,,,,,,,,,,,,,,,,,
6044,0,1,2,259,261,241,236,-5,0.02,0.03,0.97,0,-0,-0,0.04,1,74,0,3,13,97,0.509,0.7,118,1.45,13.0,0.0,1,0.0,0.0,0.0,0,0,0,0,1,0,-1281,250,0,0.0,0.0,0.0,0.0,0,0,0.0,0,0.0,-1,0.0,0.0,0.0,0,0.0,0.1007
6064,0,,,259,261,241,236,,0.02,0.03,0.97,0,-0,-0,0.04,,74,0,3,13,97,0.509,0.7,118,1.45,13.0,0.0,1,0.0,0.0,0.0,0,0,0,0,1,,,,,,,,,,,,,,,,,,,,
6084,0,,,259,261,241,236,,0.02,0.03,0.97,0,-0,-0,0.04,,74,0,3,13,97,0.509,0.7,118,1.45,13.0,0.0,1,0.0,0.0,0.0,0,0,0,0,1,,,,,,,,,,,,,,,,,,,,
6104,0,,,259,261,241,236,,0.02,0.03,0.97,0,-0,-0,0.04,,74,0,3,13,97,0.509,0.7,118,1.45,13.1,0.0,1,0.0,0.0,0.0,0,0,0,0,1,,,,,,,,,,,,,,,,,,,,
6124,0,,,259,261,241,235,,0.01,0.03,0.97,-0,-0,-0,0.04,,74,0,3,13,97,0.509,0.7,118,1.45,13.1,0.0,1,0.0,0.0,0.0,0,0,0,0,1,,,,,,,,,,,,,,,,,,,,
6144,0,1,1,259,261,241,235,-5,0.01,0.03,0.97,0,-0,-0,0.04,1,74,0,3,13,97,0.509,0.7,118,1.45,13.1,0.0,1,0.0,0.0,0.0,0,0,0,0,1,0,-1281,250,0,0.0,0.0,0.0,0.0,0,0,0.0,0,0.0,-1,0.0,,0.0,0,0.0,0.1024
6164,0,,,259,261,241,236,,0.01,0.03,0.97,0,-0,-0,0.04,,74,0,3,13,97,0.509,0.7,118,1.43,13.0,0.0,1,0.0,0.0,0.0,0,0,0,0,1,,,,,,,,,,,,,,,,,,,,
6184,0,,,259,260,241,236,,0.01,0.03,0.97,0,-0,-0,0.04,,74,0,3,13,97,0.509,0.7,118,1.42,13.0,0.0,1,0.0,0.0,0.0,0,0,0,0,1,,,,,,,,,,,,,,,,,,,,
6204,0,,,259,261,241,236,,0.01,0.03,0.97,0,-0,-0,0.04,,74,0,3,13,97,0.509,0.7,118,1.42,13.0,0.0,1,0.0,0.0,0.0,0,0,0,0,1,,,,,,,,,,,,,,,,,,,,
6224,0,,,259,261,241,236,,0.01,0.03,0.97,-0,-0,-0,0.03,,74,0,3,13,97,0.51,0.7,118,1.42,13.0,0.0,1,0.0,0.0,0.0,0,0,0,0,1,,,,,,,,,,,,,,,,,,,,
6244,0,1,1,259,261,241,236,-5,0.0,0.03,0.97,0,-0,-0,0.03,1,74,0,3,13,97,0.51,0.8,118,1.42,13.0,0.0,1,0.0,0.0,0.0,0,0,0,0,1,7,-1281,250,8,0.0,0.0,0.0,0.0,0,0,0.0,0,0.0,-1,0.0,0.0,0.0,0,0.0,0.1041
6264,0,,,259,261,241,236,,0.0,0.04,0.97,0,-0,-0,0.04,,74,0,3,13,97,0.51,0.9,118,1.42,13.1,0.0,1,0.0,0.0,0.0,0,0,0,0,1,,,,,,,,,,,,,,,,,,,,
6284,0,,,259,261,241,236,,-0.0,0.04,0.97,0,-0,-0,0.04,,74,0,3,13,97,0.509,0.9,118,1.41,13.1,0.0,1,0.0,0.0,0.0,0,0,0,0,1,,,,,,,,,,,,,,,,,,,,
6304,0,,,259,261,241,236,,-0.0,0.03,0.97,0,-0,-0,0.03,,74,0,3,13,97,0.509,0.9,118,1.41,13.1,0.0,1,0.0,0.0,0.0,0,0,0,0,1,,,,,,,,,,,,,,,,,,,,
6324,0,,,259,260,241,236,,-0.01,0.03,0.97,0,-0,-0,0.03,,74,0,3,13,97,0.509,0.9,118,1.42,13.1,0.0,1,0.0,0.0,0.0,0,0,0,0,1,,,,,,,,,,,,,,,,,,,,
6344,0,0,4,259,260,241,236,-6,-0.01,0.03,0.97,0,-0,-0,0.03,1,74,0,3,13,97,0.51,0.9,118,1.4,13.0,0.0,1,0.0,0.0,0.0,0,0,0,0,1,7,8195,5408,8,0.0,0.0,0.0,0.0,0,0,0.0,0,0.0,-1,0.0,,0.0,0,0.0,0.1057
6364,0,,,259,260,241,236,,-0.01,0.03,0.97,0,-0,-0,0.04,,74,0,3,13,97,0.509,0.9,118,1.4,13.0,0.0,1,0.0,0.0,0.0,0,0,0,0,1,,,,,,,,,,,,,,,,,,,,
6384,0,,,259,261,241,235,,-0.01,0.03,0.97,0,-0,-0,0.04,,74,0,3,13,97,0.51,0.9,118,1.4,13.0,0.0,1,0.0,0.0,0.0,0,0,0,0,1,,,,,,,,,,,,,,,,,,,,
6404,0,,,259,261,241,236,,-0.01,0.03,0.97,0,-0,-0,0.04,,74,0,3,13,97,0.51,0.9,118,1.4,13.0,0.0,1,0.0,0.0,0.0,0,0,0,0,1,,,,,,,,,,,,,,,,,,,,
6424,0,,,259,261,241,236,,-0.02,0.03,0.97,0,-0,-0,0.04,,74,0,3,13,97,0.51,0.9,118,1.4,12.9,0.0,1,0.0,0.0,0.0,0,0,0,0,1,,,,,,,,,,,,,,,,,,,,
6444,0,-1,3,259,260,241,236,-5,-0.02,0.03,0.97,0,-0,-0,0.04,1,74,0,3,13,97,0.51,1.2,118,1.4,13.0,0.0,1,0.0,0.0,0.0,0,0,0,0,1,11,8195,5408,12,0.0,0.0,0.0,0.0,0,0,0.0,0,0.0,-1,0.0,0.0,0.0,0,0.0,0.1074
6464,0,,,259,260,241,236,,-0.02,0.03,0.98,0,-0,-0,0.04,,74,0,3,13,97,0.51,1.2,118,1.4,13.0,0.0,1,0.0,0.0,0.0,0,0,0,0,1,,,,,,,,,,,,,,,,,,,,
6484,0,,,258,260,241,236,,-0.03,0.03,0.98,0,-0,-0,0.04,,74,0,3,13,97,0.51,1.2,118,1.4,13.0,0.0,1,0.0,0.0,0.0,0,0,0,0,1,,,,,,,,,,,,,,,,,,,,
6504,0,,,259,260,241,236,,-0.03,0.03,0.98,0,-0,-0,0.04,,74,0,3,13,97,0.51,1.2,118,1.4,13.0,0.0,1,0.0,0.0,0.0,0,0,0,0,1,,,,,,,,,,,,,,,,,,,,
6524,0,,,259,260,241,236,,-0.03,0.03,0.98,0,-0,-0,0.04,,74,0,3,13,97,0.51,1.2,118,1.4,12.9,0.0,1,0.0,0.0,0.0,0,0,0,0,1,,,,,,,,,,,,,,,,,,,,
6544,0,-1,4,259,260,241,236,-5,-0.03,0.03,0.98,0,-0,-0,0.04,1,74,0,3,13,97,0.511,1.2,118,1.4,12.9,0.0,1,0.0,0.0,0.0,0,0,0,0,1,11,-1,-1,12,0.0,0.0,0.0,0.0,0,0,0.0,0,0.0,-1,0.0,,0.0,0,0.0,0.1091
6564,0,,,259,260,241,236,,-0.03,0.03,0.98,0,-0,-0,0.04,,74,0,3,13,97,0.511,1.2,118,1.4,13.0,0.0,1,0.0,0.0,0.0,0,0,0,0,1,,,,,,,,,,,,,,,,,,,,
6584,0,,,259,260,242,237,,-0.03,0.03,0.98,0,-0,-0,0.04,,74,0,3,13,97,0.511,1.2,118,1.4,13.0,0.0,1,0.0,0.0,0.0,0,0,0,0,1,,,,,,,,,,,,,,,,,,,,
6604,0,,,259,260,241,237,,-0.03,0.03,0.98,0,-0,-0,0.04,,74,0,3,13,97,0.511,1.2,118,1.39,13.1,0.0,1,0.0,0.0,0.0,0,0,0,0,1,,,,,,,,,,,,,,,,,,,,
6624,0,,,259,259,241,237,,-0.03,0.03,0.97,0,-0,-0,0.04,,74,0,3,13,97,0.511,1.3,118,1.37,13.1,0.0,1,0.0,0.0,0.0,0,0,0,0,1,,,,,,,,,,,,,,,,,,,,
6644,0,0,5,258,260,242,236,-4,-0.03,0.03,0.97,0,-0,-0,0.04,1,74,0,3,13,97,0.511,1.3,118,1.37,13.1,0.0,1,0.0,0.0,0.0,0,0,0,0,1,12,-1,-1,12,0.0,0.0,0.0,0.0,0,0,0.0,0,0.0,-1,0.0,0.0,0.0,0,0.0,0.1107
6664,0,,,259,259,241,237,,-0.03,0.03,0.98,0,0,-0,0.04,,74,0,3,13,97,0.511,1.3,118,1.37,13.1,0.0,1,0.0,0.0,0.0,0,0,0,0,1,,,,,,,,,,,,,,,,,,,,
6684,0,,,259,260,242,236,,-0.04,0.03,0.97,0,0,-0,0.05,,74,0,3,13,97,0.511,1.3,118,1.37,13.0,0.0,1,0.0,0.0,0.0,0,0,0,0,1,,,,,,,,,,,,,,,,,,,,
6704,0,,,258,260,242,236,,-0.07,0.03,0.96,0,0,-0,0.07,,74,0,3,13,97,0.51,1.3,118,1.37,13.0,0.0,1,0.0,0.0,0.0,0,0,0,0,1,,,,,,,,,,,,,,,,,,,,
6724,0,,,258,259,242,237,,-0.1,0.03,0.98,0,0,-0,0.1,,74,0,3,13,97,0.51,1.3,118,1.37,13.0,0.0,1,0.0,0.0,0.0,0,0,0,0,1,,,,,,,,,,,,,,,,,,,,
6744,0,-0,3,257,259,243,237,-5,-0.13,0.03,0.97,0,0,-0,0.13,1,74,0,3,13,97,0.51,1.3,118,1.37,13.0,0.0,1,0.0,0.0,0.0,0,0,0,0,1,13,-1,-1,12,0.0,0.0,0.0,0.0,0,0,0.0,0,0.0,-1,0.0,,0.0,0,0.0,0.1124
6764,0,,,257,258,243,238,,-0.15,0.03,0.96,0,1,-0,0.15,,74,0,3,13,97,0.51,1.3,118,1.37,13.0,0.0,1,0.0,0.0,0.0,0,0,0,0,1,,,,,,,,,,,,,,,,,,,,
6784,0,,,257,258,243,238,,-0.16,0.03,0.96,0,1,-0,0.16,,74,0,3,13,97,0.51,1.3,118,1.35,13.1,0.0,1,0.0,0.0,0.0,0,0,0,0,1,,,,,,,,,,,,,,,,,,,,
6804,0,,,257,258,243,238,,-0.17,0.03,0.96,0,0,-0,0.17,,74,0,3,13,97,0.51,1.3,118,1.35,13.1,0.0,1,0.0,0.0,0.0,0,0,0,0,1,,,,,,,,,,,,,,,,,,,,
6824,0,,,256,258,243,238,,-0.18,0.03,0.96,0,0,-0,0.18,,74,0,3,13,97,0.51,1.3,118,1.35,13.1,0.0,1,0.0,0.0,0.0,0,0,0,0,1,,,,,,,,,,,,,,,,,,,,
6844,0,-1,4,257,258,243,238,-5,-0.19,0.03,0.96,0,0,-0,0.19,1,74,0,3,13,97,0.51,1.3,118,1.35,13.1,0.0,1,0.0,0.0,0.0,0,0,0,0,1,13,-1,-1,12,0.0,0.0,0.0,0.0,0,0,0.0,0,0.0,-1,0.0,0.0,0.0,0,0.0,0.1141
6864,0,,,256,257,243,238,,-0.19,0.03,0.96,0,0,-0,0.19,,74,0,3,13,97,0.51,1.3,118,1.35,13.0,0.0,1,0.0,0.0,0.0,0,0,0,0,1,,,,,,,,,,,,,,,,,,,,
6884,0,,,257,258,243,238,,-0.19,0.03,0.96,0,0,-0,0.19,,74,0,3,13,97,0.51,1.3,118,1.34,13.0,0.0,1,0.0,0.0,0.0,0,0,0,0,1,,,,,,,,,,,,,,,,,,,,
6904,0,,,256,260,243,238,,-0.18,0.03,0.96,0,0,-0,0.19,,74,0,3,13,97,0.51,1.3,118,1.34,13.0,0.0,1,0.0,0.0,0.0,0,0,0,0,1,,,,,,,,,,,,,,,,,,,,
6924,0,,,256,260,243,238,,-0.18,0.03,0.96,0,-0,-0,0.18,,74,0,3,13,97,0.51,1.2,118,1.34,13.0,0.0,1,0.0,0.0,0.0,0,0,0,0,1,,,,,,,,,,,,,,,,,,,,
6944,0,0,2,256,260,243,238,-5,-0.17,0.03,0.96,0,-0,-0,0.17,1,74,0,3,13,97,0.51,0.7,118,1.34,13.1,0.0,1,0.0,0.0,0.0,0,0,0,0,1,13,-1281,5408,7,0.0,0.0,0.0,0.0,0,0,0.0,0,0.0,-1,0.0,,0.0,0,0.0,0.1157
6964,0,,,256,260,243,238,,-0.15,0.03,0.96,0,-0,-0,0.16,,74,0,3,13,97,0.51,0.7,118,1.34,13.1,0.0,1,0.0,0.0,0.0,0,0,0,0,1,,,,,,,,,,,,,,,,,,,,
6984,0,,,257,261,243,238,,-0.14,0.03,0.96,0,-0,-0,0.15,,74,0,3,13,97,0.51,0.7,118,1.34,13.1,0.0,1,0.0,0.0,0.0,0,0,0,0,1,,,,,,,,,,,,,,,,,,,,
7004,0,,,257,261,243,238,,-0.14,0.03,0.96,0,-0,-0,0.14,,74,0,3,13,97,0.51,0.7,118,1.34,13.1,0.0,1,0.0,0.0,0.0,0,0,0,0,1,,,,,,,,,,,,,,,,,,,,
7024,0,,,257,261,243,238,,-0.13,0.03,0.96,0,-0,-0,0.13,,74,0,3,13,97,0.51,0.7,118,1.34,13.0,0.0,1,0.0,0.0,0.0,0,0,0,0,1,,,,,,,,,,,,,,,,,,,,
7044,0,1,1,257,261,243,238,-5,-0.12,0.03,0.96,-0,-0,0,0.13,1,74,0,3,13,97,0.51,0.7,118,1.34,13.0,0.0,1,0.0,0.0,0.0,0,0,0,0,1,7,-1281,5408,7,0.0,0.0,0.0,0.0,0,0,0.0,0,0.0,-1,0.0,0.0,0.0,0,0.0,0.1174
7064,0,,,257,261,243,238,,-0.12,0.03,0.96,-0,-0,0,0.12,,74,0,3,13,97,0.51,0.7,118,1.34,13.0,0.0,1,0.0,0.0,0.0,0,0,0,0,1,,,,,,,,,,,,,,,,,,,,
7084,0,,,257,261,243,237,,-0.11,0.03,0.96,-0,-0,0,0.12,,74,0,3,13,97,0.51,0.7,118,1.34,13.0,0.0,1,0.0,0.0,0.0,0,0,0,0,1,,,,,,,,,,,,,,,,,,,,
7104,0,,,257,261,242,237,,-0.11,0.03,0.96,-0,-0,0,0.11,,74,0,3,13,97,0.51,0.7,118,1.34,13.0,0.0,1,0.0,0.0,0.0,0,0,0,0,1,,,,,,,,,,,,,,,,,,,,
7124,0,,,257,261,243,237,,-0.11,0.03,0.96,-0,-0,0,0.11,,74,0,3,13,97,0.51,0.7,118,1.34,13.1,0.0,1,0.0,0.0,0.0,0,0,0,0,1,,,,,,,,,,,,,,,,,,,,
7144,0,1,1,257,261,243,237,-5,-0.1,0.03,0.96,-0,-0,0,0.11,1,74,0,3,13,97,0.51,0.7,118,1.34,13.1,0.0,1,0.0,0.0,0.0,0,0,0,0,1,7,-1281,5408,7,0.0,0.0,0.0,0.0,0,0,0.0,0,0.0,-1,0.0,,0.0,0,0.0,0.1191
7164,0,,,257,261,242,237,,-0.1,0.03,0.96,-0,-0,0,0.11,,74,0,3,13,97,0.51,0.7,118,1.34,13.1,0.0,1,0.0,0.0,0.0,0,0,0,0,1,,,,,,,,,,,,,,,,,,,,
7184,0,,,257,262,243,237,,-0.1,0.03,0.96,-0,-0,0,0.1,,74,0,3,13,97,0.51,0.7,118,1.33,13.0,0.0,1,0.0,0.0,0.0,0,0,0,0,1,,,,,,,,,,,,,,,,,,,,
7204,0,,,257,262,242,237,,-0.1,0.03,0.96,-0,-0,0,0.1,,74,0,3,13,97,0.51,0.7,118,1.33,13.0,0.0,1,0.0,0.0,0.0,0,0,0,0,1,,,,,,,,,,,,,,,,,,,,
7224,0,,,257,262,242,237,,-0.1,0.03,0.96,-0,-1,0,0.1,,74,0,3,13,97,0.51,0.7,118,1.32,13.0,0.0,1,0.0,0.0,0.0,0,0,0,0,1,,,,,,,,,,,,,,,,,,,,
7244,0,-1,4,257,262,242,236,-4,-0.1,0.03,0.97,-0,-1,0,0.1,1,74,0,3,13,97,0.51,0.7,118,1.32,13.0,0.0,1,0.0,0.0,0.0,0,0,0,0,1,7,-1281,1018,7,0.0,0.0,0.0,0.0,0,0,0.0,0,0.0,-1,0.0,0.0,0.0,0,0.0,0.1207
7264,0,,,257,262,242,236,,-0.1,0.03,0.97,-0,-1,0,0.1,,74,0,3,13,97,0.51,0.7,118,1.31,13.0,0.0,1,0.0,0.0,0.0,0,0,0,0,1,,,,,,,,,,,,,,,,,,,,
7284,0,,,258,262,242,236,,-0.1,0.03,0.97,-0,-1,0,0.1,,74,0,3,13,97,0.51,0.7,118,1.31,13.0,0.0,1,0.0,0.0,0.0,0,0,0,0,1,,,,,,,,,,,,,,,,,,,,
7304,0,,,258,262,242,236,,-0.1,0.03,0.97,-0,-1,0,0.1,,74,0,3,13,97,0.51,0.7,118,1.31,13.1,0.0,1,0.0,0.0,0.0,0,0,0,0,1,,,,,,,,,,,,,,,,,,,,
7324,0,,,258,263,242,235,,-0.1,0.03,0.97,-0,-1,0,0.1,,74,0,3,13,97,0.51,0.7,118,1.31,13.1,0.0,1,0.0,0.0,0.0,0,0,0,0,1,,,,,,,,,,,,,,,,,,,,
7344,0,-0,4,258,263,241,236,-5,-0.1,0.03,0.97,-0,-1,-0,0.1,1,74,0,3,13,97,0.51,0.5,118,1.31,13.1,0.0,1,0.0,0.0,0.0,0,0,0,0,1,7,-1,1018,5,0.0,0.0,0.0,0.0,0,0,0.0,0,0.0,-1,0.0,,0.0,0,0.0,0.1224
7364,0,,,258,263,241,236,,-0.1,0.03,0.97,-0,-1,-0,0.1,,74,0,3,13,97,0.51,0.5,118,1.31,13.0,0.0,1,0.0,0.0,0.0,0,0,0,0,1,,,,,,,,,,,,,,,,,,,,
7384,0,,,258,263,241,236,,-0.1,0.03,0.97,-0,-1,-0,0.1,,74,0,3,13,97,0.51,0.5,118,1.31,13.0,0.0,1,0.0,0.0,0.0,0,0,0,0,1,,,,,,,,,,,,,,,,,,,,
7404,0,,,258,263,241,236,,-0.09,0.03,0.97,-0,-1,-0,0.1,,74,0,3,13,97,0.51,0.5,118,1.31,13.0,0.0,1,0.0,0.0,0.0,0,0,0,0,1,,,,,,,,,,,,,,,,,,,,
7424,0,,,258,263,241,235,,-0.09,0.03,0.96,-0,-1,-0,0.09,,74,0,3,13,97,0.51,0.5,118,1.31,13.0,0.0,1,0.0,0.0,0.0,0,0,0,0,1,,,,,,,,,,,,,,,,,,,,
7444,0,1,4,258,263,241,235,-5,-0.08,0.04,0.97,-0,-1,-0,0.08,1,74,0,3,13,97,0.51,0.5,118,1.31,13.0,0.0,1,0.0,0.0,0.0,0,0,0,0,1,6,-1,1018,5,0.0,0.0,0.0,0.0,0,0,0.0,0,0.0,-1,0.0,0.0,0.0,0,0.0,0.1241
7464,0,,,259,263,241,235,,-0.06,0.03,0.96,-0,-1,-0,0.07,,74,0,3,13,97,0.51,0.5,118,1.31,13.0,0.0,1,0.0,0.0,0.0,0,0,0,0,1,,,,,,,,,,,,,,,,,,,,
7484,0,,,259,264,240,235,,-0.04,0.04,0.96,-0,-1,-0,0.06,,74,0,3,13,97,0.51,0.5,118,1.31,13.1,0.0,1,0.0,0.0,0.0,0,0,0,0,1,,,,,,,,,,,,,,,,,,,,
7504,0,,,259,264,241,235,,-0.03,0.04,0.96,-0,-1,-0,0.05,,74,0,3,13,97,0.51,0.5,118,1.31,13.1,0.0,1,0.0,0.0,0.0,0,0,0,0,1,,,,,,,,,,,,,,,,,,,,
7524,0,,,260,265,240,235,,-0.01,0.04,0.96,-0,-1,-0,0.04,,74,0,3,13,97,0.51,0.5,118,1.29,13.1,0.0,1,0.0,0.0,0.0,0,0,0,0,1,,,,,,,,,,,,,,,,,,,,
7544,0,0,3,260,264,240,234,-5,0.01,0.04,0.97,-0,-1,-0,0.04,1,74,0,3,13,97,0.51,0.5,118,1.28,13.0,0.0,1,0.0,0.0,0.0,0,0,0,0,1,6,-1,-1,5,0.0,0.0,0.0,0.0,0,0,0.0,0,0.0,-1,0.0,,0.0,0,0.0,0.1257
7564,0,,,260,265,240,234,,0.02,0.04,0.97,-0,-1,-0,0.04,,74,0,3,13,97,0.51,0.5,118,1.28,13.0,0.0,1,0.0,0.0,0.0,0,0,0,0,1,,,,,,,,,,,,,,,,,,,,
7584,0,,,260,265,240,234,,0.03,0.04,0.97,-0,-1,-0,0.05,,74,0,3,13,97,0.51,0.5,118,1.28,13.0,0.0,1,0.0,0.0,0.0,0,0,0,0,1,,,,,,,,,,,,,,,,,,,,
7604,0,,,260,265,240,234,,0.04,0.04,0.97,-0,-1,-0,0.06,,74,0,3,13,97,0.51,0.5,118,1.28,13.0,0.0,1,0.0,0.0,0.0,0,0,0,0,1,,,,,,,,,,,,,,,,,,,,
7624,0,,,260,265,240,234,,0.04,0.04,0.97,-0,-1,-0,0.06,,74,0,3,13,97,0.51,0.8,118,1.28,13.0,0.0,1,0.0,0.0,0.0,0,0,0,0,1,,,,,,,,,,,,,,,,,,,,
7644,0,-0,3,260,265,240,234,-6,0.04,0.04,0.97,-0,-1,-0,0.06,1,74,0,3,13,97,0.51,0.8,118,1.28,13.1,0.0,1,0.0,0.0,0.0,0,0,0,0,1,6,-1281,-1,8,0.0,0.0,0.0,0.0,0,0,0.0,0,0.0,-1,0.0,0.0,0.0,0,0.0,0.1274
7664,0,,,260,265,240,234,,0.03,0.04,0.97,-0,-1,-0,0.05,,74,0,3,13,97,0.51,0.8,118,1.28,13.1,0.0,1,0.0,0.0,0.0,0,0,0,0,1,,,,,,,,,,,,,,,,,,,,
7684,0,,,260,265,240,234,,0.02,0.04,0.97,-0,-1,-0,0.04,,74,0,3,13,97,0.51,0.8,118,1.28,13.1,0.0,1,0.0,0.0,0.0,0,0,0,0,1,,,,,,,,,,,,,,,,,,,,
7704,0,,,260,265,240,234,,0.02,0.04,0.97,-0,-1,-0,0.04,,74,0,3,13,97,0.51,0.8,118,1.28,13.0,0.0,1,0.0,0.0,0.0,0,0,0,0,1,,,,,,,,,,,,,,,,,,,,
7724,0,,,260,265,240,234,,0.01,0.03,0.97,-0,-0,-0,0.04,,74,0,3,13,97,0.51,0.8,118,1.28,13.0,0.0,1,0.0,0.0,0.0,0,0,0,0,1,,,,,,,,,,,,,,,,,,,,
7744,0,-1,3,260,265,240,234,-5,0.0,0.03,0.97,-0,-0,-0,0.03,1,74,0,3,13,97,0.51,0.8,118,1.28,13.0,0.0,1,0.0,0.0,0.0,0,0,0,0,1,6,-1281,-1,8,0.0,0.0,0.0,0.0,0,0,0.0,0,0.0,-1,0.0,,0.0,0,0.0,0.1291
7764,0,,,260,265,240,234,,-0.0,0.03,0.97,-0,-0,-0,0.03,,74,0,3,13,97,0.51,0.8,118,1.28,13.0,0.0,1,0.0,0.0,0.0,0,0,0,0,1,,,,,,,,,,,,,,,,,,,,
7784,0,,,260,265,240,234,,-0.01,0.03,0.97,-0,-0,-0,0.03,,74,0,3,13,97,0.51,0.8,118,1.28,13.0,0.0,1,0.0,0.0,0.0,0,0,0,0,1,,,,,,,,,,,,,,,,,,,,
7804,0,,,260,264,240,234,,-0.01,0.03,0.97,-0,-0,-0,0.04,,74,0,3,13,97,0.51,0.8,118,1.28,13.0,0.0,1,0.0,0.0,0.0,0,0,0,0,1,,,,,,,,,,,,,,,,,,,,
7824,0,,,260,264,240,234,,-0.02,0.03,0.97,0,-0,-0,0.04,,74,0,3,13,97,0.51,0.8,118,1.28,13.1,0.0,1,0.0,0.0,0.0,0,0,0,0,1,,,,,,,,,,,,,,,,,,,,
7844,0,1,1,260,265,240,234,-5,-0.02,0.03,0.97,0,-0,-0,0.04,1,74,0,3,13,97,0.51,0.8,118,1.28,13.1,0.0,1,0.0,0.0,0.0,0,0,0,0,1,6,-1281,-1,8,0.0,0.0,0.0,0.0,0,0,0.0,0,0.0,-1,0.0,0.0,0.0,0,0.0,0.1307
7864,0,,,260,264,240,234,,-0.02,0.03,0.97,0,-0,-0,0.04,,74,0,3,13,97,0.51,0.8,118,1.28,13.1,0.0,1,0.0,0.0,0.0,0,0,0,0,1,,,,,,,,,,,,,,,,,,,,
7884,0,,,260,264,240,235,,-0.03,0.03,0.97,0,-0,-0,0.04,,74,0,3,13,97,0.51,0.8,118,1.27,13.0,0.0,1,0.0,0.0,0.0,0,0,0,0,1,,,,,,,,,,,,,,,,,,,,
7904,0,,,260,263,240,235,,-0.03,0.03,0.97,0,-0,-0,0.04,,74,0,3,13,97,0.51,0.8,118,1.27,13.0,0.0,1,0.0,0.0,0.0,0,0,0,0,1,,,,,,,,,,,,,,,,,,,,
