"Interval"|"ms"|0|0|1,"Utc"|"ms"|0|0|1,"Brake_F"|"Bar"|0|2000|10,"Brake_R"|"Bar"|0|2000|10,"Height_RF"|"mm"|0|255|50,"Height_LF"|"mm"|0|255|50,"Height_LR"|"mm"|0|80|50,"Height_RR"|"mm"|0|255|50,"Steering"|"deg"|-100|100|10,"AccelX"|"G"|-3.0|3.0|50,"AccelY"|"G"|-3.0|3.0|50,"AccelZ"|"G"|-3.0|3.0|50,"Yaw"|"Deg/Sec"|-120|120|50,"Pitch"|"Deg/Sec"|-120|120|50,"Roll"|"Deg/Sec"|-120|120|50,"Gsum"|"G"|0.0|3.0|50,"Log_Button"|""|0.0|10.0|10,"WaterTemp"|"C"|0|150|50,"RPM"|"tr/min"|0|14000|50,"TPS"|"%"|0|100|50,"AirTemp"|"C"|0|150|50,"MAP"|"KPa"|0|100|50,"Lambda"|""|0.5|1.5|50,"SpeedDTA"|"kph"|0.0|250.0|50,"OilPress"|"KPa"|0|1500|50,"FuelPressur"|"Bar"|0.0|10.0|50,"Batterie"|"V"|0.0|20.0|50,"ConsoKm"|"L/100km"|0.0|200.0|50,"Gear"|""|0|6|50,"AdvIgnition"|"Deg"|-20.0|70.0|50,"Injection"|"ms"|0.0|10.0|50,"ConsoHr"|"L/Hr"|0.0|10000.0|50,"LC_But_Pres"|""|0|1|50,"LC_Active"|""|0|1|50,"TractionOn"|""|0|1|50,"TractionWet"|""|0|1|50,"FanOn"|""|0|1|50,"RD_Speed"|"km/h"|-30|250|10,"RUD_Speed"|"km/h"|-30|250|10,"LD_Speed"|"km/h"|-30|250|10,"LUD_Speed"|"km/h"|-30|250|10,"Latitude"|"Degrees"|-180.0|180.0|10,"Longitude"|"Degrees"|-180.0|180.0|10,"Speed"|"kph"|0.0|150.0|10,"Altitude"|"m"|0.0|4000.0|10,"GPSSats"|""|0|20|10,"GPSQual"|""|0|5|10,"GPSDOP"|""|0.0|20.0|10,"LapCount"|""|0|0|10,"LapTime"|"Min"|0.0|0.0|10,"Sector"|""|0|0|10,"SectorTime"|"Min"|0.0|0.0|10,"PredTime"|"Min"|0.0|0.0|5,"ElapsedTime"|"Min"|0.0|0.0|10,"CurrentLap"|""|0|0|10,"Distance"|"km"|0.0|0.0|10,"SessionTime"|"Min"|0.0|0.0|10
64,0,,,245,249,239,234,,-0.06,0.03,0.97,-0,-0,-0,0.07,,0,0,0,0,0,0.0,0.0,0,0.0,0.0,0.0,0,0.0,0.0,0.0,0,0,0,0,0,,,,,,,,,,,,,,,,,,,,
84,0,,,245,249,239,234,,-0.06,0.03,0.97,-0,-0,-0,0.07,,0,0,0,0,0,0.0,0.0,0,0.0,0.0,0.0,0,0.0,0.0,0.0,0,0,0,0,0,,,,,,,,,,,,,,,,,,,,
104,0,,,245,249,239,234,,-0.06,0.03,0.97,-0,-0,-0,0.07,,0,0,0,0,0,0.0,0.0,0,0.0,0.0,0.0,0,0.0,0.0,0.0,0,0,0,0,0,,,,,,,,,,,,,,,,,,,,
124,0,,,245,249,239,234,,-0.06,0.03,0.97,-0,-0,-0,0.07,,0,0,0,0,0,0.0,0.0,0,0.0,0.0,0.0,0,0.0,0.0,0.0,0,0,0,0,0,,,,,,,,,,,,,,,,,,,,
144,0,-0,2,245,249,239,234,-27,-0.06,0.03,0.97,-0,-0,-0,0.07,1,0,0,0,0,0,0.0,0.0,0,0.0,0.0,0.0,0,0.0,0.0,0.0,0,0,0,0,0,0,0,0,0,0.0,0.0,0.0,0.0,0,0,0.0,0,0.0,-1,0.0,,0.0,0,0.0,0.0024
164,0,,,245,249,239,234,,-0.06,0.03,0.97,-0,-0,-0,0.07,,0,0,0,0,0,0.0,0.0,0,0.0,0.0,0.0,0,0.0,0.0,0.0,0,0,0,0,0,,,,,,,,,,,,,,,,,,,,
184,0,,,245,249,239,234,,-0.06,0.03,0.97,-0,-0,-0,0.07,,0,0,0,0,0,0.0,0.0,0,0.0,0.0,0.0,0,0.0,0.0,0.0,0,0,0,0,0,,,,,,,,,,,,,,,,,,,,
204,0,,,245,249,239,234,,-0.06,0.03,0.97,-0,-0,-0,0.07,,0,0,0,0,0,0.0,0.0,0,0.0,0.0,0.0,0,0.0,0.0,0.0,0,0,0,0,0,,,,,,,,,,,,,,,,,,,,
224,0,,,245,249,239,234,,-0.06,0.03,0.97,-0,-0,-0,0.07,,0,0,0,0,0,0.0,0.0,0,0.0,0.0,0.0,0,0.0,0.0,0.0,0,0,0,0,0,,,,,,,,,,,,,,,,,,,,
244,0,0,2,245,249,239,234,-28,-0.06,0.03,0.97,-0,-0,-0,0.07,1,0,0,0,0,0,0.0,0.0,0,0.0,0.0,0.0,0,0.0,0.0,0.0,0,0,0,0,0,0,0,0,0,0.0,0.0,0.0,0.0,0,0,0.0,0,0.0,-1,0.0,0.0,0.0,0,0.0,0.0041
264,0,,,245,249,239,234,,-0.06,0.03,0.97,-0,-0,-0,0.07,,0,0,0,0,0,0.0,0.0,0,0.0,0.0,0.0,0,0.0,0.0,0.0,0,0,0,0,0,,,,,,,,,,,,,,,,,,,,
284,0,,,245,249,239,234,,-0.06,0.03,0.97,-0,-0,-0,0.07,,0,0,0,0,0,0.0,0.0,0,0.0,0.0,0.0,0,0.0,0.0,0.0,0,0,0,0,0,,,,,,,,,,,,,,,,,,,,
304,0,,,245,249,239,234,,-0.06,0.03,0.97,-0,-0,-0,0.07,,0,0,0,0,0,0.0,0.0,0,0.0,0.0,0.0,0,0.0,0.0,0.0,0,0,0,0,0,,,,,,,,,,,,,,,,,,,,
324,0,,,245,249,239,234,,-0.06,0.03,0.97,-0,-0,-0,0.07,,0,0,0,0,0,0.0,0.0,0,0.0,0.0,0.0,0,0.0,0.0,0.0,0,0,0,0,0,,,,,,,,,,,,,,,,,,,,
344,0,1,2,245,249,239,234,-27,-0.06,0.03,0.97,-0,-0,-0,0.07,1,0,0,0,0,0,0.0,0.0,0,0.0,0.0,0.0,0,0.0,0.0,0.0,0,0,0,0,0,0,0,0,0,0.0,0.0,0.0,0.0,0,0,0.0,0,0.0,-1,0.0,,0.0,0,0.0,0.0057
364,0,,,245,249,239,234,,-0.06,0.03,0.97,-0,-0,-0,0.07,,0,0,0,0,0,0.0,0.0,0,0.0,0.0,0.0,0,0.0,0.0,0.0,0,0,0,0,0,,,,,,,,,,,,,,,,,,,,
384,0,,,245,249,239,234,,-0.06,0.03,0.97,-0,-0,-0,0.07,,0,0,0,0,0,0.0,0.0,0,0.0,0.0,0.0,0,0.0,0.0,0.0,0,0,0,0,0,,,,,,,,,,,,,,,,,,,,
404,0,,,245,249,239,234,,-0.06,0.03,0.97,-0,-0,-0,0.07,,0,0,0,0,0,0.0,0.0,0,0.0,0.0,0.0,0,0.0,0.0,0.0,0,0,0,0,0,,,,,,,,,,,,,,,,,,,,
424,0,,,245,249,239,234,,-0.06,0.03,0.97,-0,-0,-0,0.07,,0,0,0,0,0,0.0,0.0,0,0.0,0.0,0.0,0,0.0,0.0,0.0,0,0,0,0,0,,,,,,,,,,,,,,,,,,,,
444,0,1,2,245,249,239,234,-27,-0.06,0.03,0.97,-0,-0,-0,0.07,1,0,0,0,0,0,0.0,0.0,0,0.0,0.0,0.0,0,0.0,0.0,0.0,0,0,0,0,0,0,0,0,0,0.0,0.0,0.0,0.0,0,0,0.0,0,0.0,-1,0.0,0.0,0.0,0,0.0,0.0074
464,0,,,245,249,239,234,,-0.06,0.03,0.97,-0,-0,-0,0.07,,0,0,0,0,0,0.0,0.0,0,0.0,0.0,0.0,0,0.0,0.0,0.0,0,0,0,0,0,,,,,,,,,,,,,,,,,,,,
484,0,,,245,249,239,234,,-0.06,0.03,0.97,-0,-0,-0,0.07,,0,0,0,0,0,0.0,0.0,0,0.0,0.0,0.0,0,0.0,0.0,0.0,0,0,0,0,0,,,,,,,,,,,,,,,,,,,,
504,0,,,245,249,239,234,,-0.06,0.03,0.96,-0,-0,-0,0.07,,0,0,0,0,0,0.0,0.0,0,0.0,0.0,0.0,0,0.0,0.0,0.0,0,0,0,0,0,,,,,,,,,,,,,,,,,,,,
524,0,,,245,249,239,234,,-0.06,0.03,0.96,-0,-0,-0,0.07,,0,0,0,0,0,0.0,0.0,0,0.0,0.0,0.0,0,0.0,0.0,0.0,0,0,0,0,0,,,,,,,,,,,,,,,,,,,,
544,0,0,2,245,249,239,234,-27,-0.06,0.03,0.96,-0,-0,-0,0.07,1,0,0,0,0,0,0.0,0.0,0,0.0,0.0,0.0,0,0.0,0.0,0.0,0,0,0,0,0,0,0,0,0,0.0,0.0,0.0,0.0,0,0,0.0,0,0.0,-1,0.0,,0.0,0,0.0,0.0091
564,0,,,245,249,239,234,,-0.06,0.03,0.96,-0,-0,-0,0.07,,0,0,0,0,0,0.0,0.0,0,0.0,0.0,0.0,0,0.0,0.0,0.0,0,0,0,0,0,,,,,,,,,,,,,,,,,,,,
584,0,,,245,249,239,234,,-0.06,0.03,0.96,-0,-0,-0,0.07,,0,0,0,0,0,0.0,0.0,0,0.0,0.0,0.0,0,0.0,0.0,0.0,0,0,0,0,0,,,,,,,,,,,,,,,,,,,,
604,0,,,245,249,239,234,,-0.06,0.03,0.96,-0,-0,-0,0.07,,0,0,0,0,0,0.0,0.0,0,0.0,0.0,0.0,0,0.0,0.0,0.0,0,0,0,0,0,,,,,,,,,,,,,,,,,,,,
624,0,,,245,249,239,234,,-0.06,0.03,0.96,-0,-0,-0,0.07,,0,0,0,0,0,0.0,0.0,0,0.0,0.0,0.0,0,0.0,0.0,0.0,0,0,0,0,0,,,,,,,,,,,,,,,,,,,,
644,0,0,2,245,249,239,234,-27,-0.06,0.03,0.97,-0,-0,-0,0.07,1,0,0,0,0,0,0.0,0.0,0,0.0,0.0,0.0,0,0.0,0.0,0.0,0,0,0,0,0,0,0,0,0,0.0,0.0,0.0,0.0,0,0,0.0,0,0.0,-1,0.0,0.0,0.0,0,0.0,0.0107
664,0,,,245,249,240,234,,-0.06,0.03,0.97,-0,-0,-0,0.07,,0,0,0,0,0,0.0,0.0,0,0.0,0.0,0.0,0,0.0,0.0,0.0,0,0,0,0,0,,,,,,,,,,,,,,,,,,,,
684,0,,,245,249,239,234,,-0.06,0.03,0.97,-0,-0,-0,0.07,,0,0,0,0,0,0.0,0.0,0,0.0,0.0,0.0,0,0.0,0.0,0.0,0,0,0,0,0,,,,,,,,,,,,,,,,,,,,
704,0,,,245,249,239,234,,-0.06,0.03,0.97,-0,-0,-0,0.07,,0,0,0,0,0,0.0,0.0,0,0.0,0.0,0.0,0,0.0,0.0,0.0,0,0,0,0,0,,,,,,,,,,,,,,,,,,,,
724,0,,,245,249,239,234,,-0.06,0.03,0.97,-0,-0,-0,0.07,,0,0,0,0,0,0.0,0.0,0,0.0,0.0,0.0,0,0.0,0.0,0.0,0,0,0,0,0,,,,,,,,,,,,,,,,,,,,
744,0,-0,2,245,249,240,234,-27,-0.06,0.03,0.97,-0,-0,-0,0.07,1,0,0,0,0,0,0.0,0.0,0,0.0,0.0,0.0,0,0.0,0.0,0.0,0,0,0,0,0,0,0,0,0,0.0,0.0,0.0,0.0,0,0,0.0,0,0.0,-1,0.0,,0.0,0,0.0,0.0124
764,0,,,245,249,239,234,,-0.06,0.03,0.97,-0,-0,-0,0.07,,0,0,0,0,0,0.0,0.0,0,0.0,0.0,0.0,0,0.0,0.0,0.0,0,0,0,0,0,,,,,,,,,,,,,,,,,,,,
784,0,,,245,249,240,234,,-0.06,0.03,0.97,-0,-0,-0,0.07,,0,0,0,0,0,0.0,0.0,0,0.0,0.0,0.0,0,0.0,0.0,0.0,0,0,0,0,0,,,,,,,,,,,,,,,,,,,,
804,0,,,245,249,240,234,,-0.06,0.03,0.98,-0,-0,-0,0.07,,0,0,0,0,0,0.0,0.0,0,0.0,0.0,0.0,0,0.0,0.0,0.0,0,0,0,0,0,,,,,,,,,,,,,,,,,,,,
824,0,,,245,249,239,234,,-0.06,0.03,0.98,-0,-0,-0,0.07,,0,0,0,0,0,0.0,0.0,0,0.0,0.0,0.0,0,0.0,0.0,0.0,0,0,0,0,0,,,,,,,,,,,,,,,,,,,,
844,0,-1,2,245,249,239,234,-27,-0.06,0.03,0.98,-0,-0,-0,0.07,1,0,0,0,0,0,0.0,0.0,0,0.0,0.0,0.0,0,0.0,0.0,0.0,0,0,0,0,0,0,0,0,0,0.0,0.0,0.0,0.0,0,0,0.0,0,0.0,-1,0.0,0.0,0.0,0,0.0,0.0141
864,0,,,245,249,239,234,,-0.06,0.03,0.98,-0,-0,-0,0.07,,0,0,0,0,0,0.0,0.0,0,0.0,0.0,0.0,0,0.0,0.0,0.0,0,0,0,0,0,,,,,,,,,,,,,,,,,,,,
884,0,,,245,249,239,234,,-0.06,0.03,0.98,-0,-0,-0,0.07,,0,0,0,0,0,0.0,0.0,0,0.0,0.0,0.0,0,0.0,0.0,0.0,0,0,0,0,0,,,,,,,,,,,,,,,,,,,,
904,0,,,245,249,240,234,,-0.06,0.03,0.98,-0,-0,-0,0.07,,0,0,0,0,0,0.0,0.0,0,0.0,0.0,0.0,0,0.0,0.0,0.0,0,0,0,0,0,,,,,,,,,,,,,,,,,,,,
924,0,,,245,249,240,234,,-0.06,0.03,0.98,-0,-0,-0,0.07,,0,0,0,0,0,0.0,0.0,0,0.0,0.0,0.0,0,0.0,0.0,0.0,0,0,0,0,0,,,,,,,,,,,,,,,,,,,,
944,0,-0,3,245,249,240,234,-27,-0.06,0.03,0.98,-0,-0,-0,0.07,1,0,0,0,0,0,0.0,0.0,0,0.0,0.0,0.0,0,0.0,0.0,0.0,0,0,0,0,0,0,0,0,0,0.0,0.0,0.0,0.0,0,0,0.0,0,0.0,-1,0.0,,0.0,0,0.0,0.0157
964,0,,,245,249,239,234,,-0.06,0.03,0.98,-0,-0,-0,0.07,,0,0,0,0,0,0.0,0.0,0,0.0,0.0,0.0,0,0.0,0.0,0.0,0,0,0,0,0,,,,,,,,,,,,,,,,,,,,
984,0,,,245,249,240,234,,-0.06,0.03,0.97,-0,-0,-0,0.07,,0,0,0,0,0,0.0,0.0,0,0.0,0.0,0.0,0,0.0,0.0,0.0,0,0,0,0,0,,,,,,,,,,,,,,,,,,,,
1004,0,,,245,249,239,234,,-0.06,0.03,0.97,-0,-0,-0,0.07,,0,0,0,0,0,0.0,0.0,0,0.0,0.0,0.0,0,0.0,0.0,0.0,0,0,0,0,0,,,,,,,,,,,,,,,,,,,,
1024,0,,,245,249,240,234,,-0.06,0.03,0.97,-0,-0,-0,0.07,,0,0,0,0,0,0.0,0.0,0,0.0,0.0,0.0,0,0.0,0.0,0.0,0,0,0,0,0,,,,,,,,,,,,,,,,,,,,
1044,0,-1,2,245,249,239,234,-27,-0.06,0.03,0.97,-0,-0,-0,0.07,1,0,0,0,0,0,0.0,0.0,0,0.0,0.0,0.0,0,0.0,0.0,0.0,0,0,0,0,0,0,0,0,0,0.0,0.0,0.0,0.0,0,0,0.0,0,0.0,-1,0.0,0.0,0.0,0,0.0,0.0174
1064,0,,,245,249,240,234,,-0.06,0.03,0.97,-0,-0,-0,0.07,,0,0,0,0,0,0.0,0.0,0,0.0,0.0,0.0,0,0.0,0.0,0.0,0,0,0,0,0,,,,,,,,,,,,,,,,,,,,
1084,0,,,245,249,239,234,,-0.06,0.03,0.97,-0,-0,-0,0.07,,0,0,0,0,0,0.0,0.0,0,0.0,0.0,0.0,0,0.0,0.0,0.0,0,0,0,0,0,,,,,,,,,,,,,,,,,,,,
1104,0,,,245,249,240,234,,-0.06,0.03,0.97,-0,-0,-0,0.07,,0,0,0,0,0,0.0,0.0,0,0.0,0.0,0.0,0,0.0,0.0,0.0,0,0,0,0,0,,,,,,,,,,,,,,,,,,,,
1124,0,,,245,249,239,234,,-0.06,0.03,0.97,-0,-0,-0,0.07,,0,0,0,0,0,0.0,0.0,0,0.0,0.0,0.0,0,0.0,0.0,0.0,0,0,0,0,0,,,,,,,,,,,,,,,,,,,,
1144,0,0,3,245,249,240,234,-27,-0.06,0.03,0.97,-0,-0,-0,0.07,1,0,0,0,0,0,0.0,0.0,0,0.0,0.0,0.0,0,0.0,0.0,0.0,0,0,0,0,0,0,0,0,0,0.0,0.0,0.0,0.0,0,0,0.0,0,0.0,-1,0.0,,0.0,0,0.0,0.0191
1164,0,,,245,249,240,234,,-0.06,0.03,0.97,-0,-0,-0,0.07,,0,0,0,0,0,0.0,0.0,0,0.0,0.0,0.0,0,0.0,0.0,0.0,0,0,0,0,0,,,,,,,,,,,,,,,,,,,,
1184,0,,,245,249,240,234,,-0.06,0.03,0.97,-0,-0,-0,0.07,,0,0,0,0,0,0.0,0.0,0,0.0,0.0,0.0,0,0.0,0.0,0.0,0,0,0,0,0,,,,,,,,,,,,,,,,,,,,
1204,0,,,245,249,240,234,,-0.06,0.03,0.97,-0,-0,-0,0.07,,0,0,0,0,0,0.0,0.0,0,0.0,0.0,0.0,0,0.0,0.0,0.0,0,0,0,0,0,,,,,,,,,,,,,,,,,,,,
1224,0,,,245,249,240,234,,-0.06,0.03,0.97,-0,-0,-0,0.07,,0,0,0,0,0,0.0,0.0,0,0.0,0.0,0.0,0,0.0,0.0,0.0,0,0,0,0,0,,,,,,,,,,,,,,,,,,,,
1244,0,1,0,245,249,240,234,-27,-0.06,0.03,0.97,-0,-0,-0,0.07,1,0,0,0,0,0,0.0,0.0,0,0.0,0.0,0.0,0,0.0,0.0,0.0,0,0,0,0,0,0,0,0,0,0.0,0.0,0.0,0.0,0,0,0.0,0,0.0,-1,0.0,0.0,0.0,0,0.0,0.0207
1264,0,,,245,249,240,234,,-0.06,0.03,0.97,-0,-0,-0,0.07,,0,0,0,0,0,0.0,0.0,0,0.0,0.0,0.0,0,0.0,0.0,0.0,0,0,0,0,0,,,,,,,,,,,,,,,,,,,,
1284,0,,,245,249,239,234,,-0.06,0.03,0.97,-0,-0,-0,0.07,,0,0,0,0,0,0.0,0.0,0,0.0,0.0,0.0,0,0.0,0.0,0.0,0,0,0,0,0,,,,,,,,,,,,,,,,,,,,
1304,0,,,245,249,239,234,,-0.06,0.03,0.97,-0,-0,-0,0.07,,0,0,0,0,0,0.0,0.0,0,0.0,0.0,0.0,0,0.0,0.0,0.0,0,0,0,0,0,,,,,,,,,,,,,,,,,,,,
1324,0,,,245,249,240,234,,-0.06,0.03,0.97,-0,-0,-0,0.07,,0,0,0,0,0,0.0,0.0,0,0.0,0.0,0.0,0,0.0,0.0,0.0,0,0,0,0,0,,,,,,,,,,,,,,,,,,,,
1344,0,-0,3,245,249,240,234,-27,-0.06,0.03,0.97,-0,-0,-0,0.07,1,0,0,0,0,0,0.0,0.0,0,0.0,0.0,0.0,0,0.0,0.0,0.0,0,0,0,0,0,0,0,0,0,0.0,0.0,0.0,0.0,0,0,0.0,0,0.0,-1,0.0,,0.0,0,0.0,0.0224
1364,0,,,245,249,239,234,,-0.06,0.03,0.97,-0,-0,-0,0.07,,0,0,0,0,0,0.0,0.0,0,0.0,0.0,0.0,0,0.0,0.0,0.0,0,0,0,0,0,,,,,,,,,,,,,,,,,,,,
1384,0,,,245,249,239,234,,-0.06,0.03,0.97,-0,-0,-0,0.07,,0,0,0,0,0,0.0,0.0,0,0.0,0.0,0.0,0,0.0,0.0,0.0,0,0,0,0,0,,,,,,,,,,,,,,,,,,,,
1404,0,,,245,249,240,234,,-0.06,0.03,0.97,-0,-0,-0,0.07,,0,0,0,0,0,0.0,0.0,0,0.0,0.0,0.0,0,0.0,0.0,0.0,0,0,0,0,0,,,,,,,,,,,,,,,,,,,,
1424,0,,,245,249,240,234,,-0.06,0.03,0.97,-0,-0,-0,0.07,,0,0,0,0,0,0.0,0.0,0,0.0,0.0,0.0,0,0.0,0.0,0.0,0,0,0,0,0,,,,,,,,,,,,,,,,,,,,
1444,0,0,1,245,249,240,234,-27,-0.06,0.03,0.97,-0,-0,-0,0.07,1,0,0,0,0,0,0.0,0.0,0,0.0,0.0,0.0,0,0.0,0.0,0.0,0,0,0,0,0,0,0,0,0,0.0,0.0,0.0,0.0,0,0,0.0,0,0.0,-1,0.0,0.0,0.0,0,0.0,0.0241
1464,0,,,245,249,239,234,,-0.06,0.03,0.97,-0,-0,-0,0.07,,0,0,0,0,0,0.0,0.0,0,0.0,0.0,0.0,0,0.0,0.0,0.0,0,0,0,0,0,,,,,,,,,,,,,,,,,,,,
1484,0,,,245,249,240,234,,-0.06,0.03,0.97,-0,-0,-0,0.07,,0,0,0,0,0,0.0,0.0,0,0.0,0.0,0.0,0,0.0,0.0,0.0,0,0,0,0,0,,,,,,,,,,,,,,,,,,,,
1504,0,,,245,249,239,234,,-0.06,0.03,0.97,-0,-0,-0,0.07,,0,0,0,0,0,0.0,0.0,0,0.0,0.0,0.0,0,0.0,0.0,0.0,0,0,0,0,0,,,,,,,,,,,,,,,,,,,,
1524,0,,,245,249,239,234,,-0.06,0.03,0.97,-0,-0,-0,0.07,,0,0,0,0,0,0.0,0.0,0,0.0,0.0,0.0,0,0.0,0.0,0.0,0,0,0,0,0,,,,,,,,,,,,,,,,,,,,
1544,0,0,2,245,249,239,234,-27,-0.06,0.03,0.97,-0,-0,-0,0.07,1,0,0,0,0,0,0.0,0.0,0,0.0,0.0,0.0,0,0.0,0.0,0.0,0,0,0,0,0,0,0,0,0,0.0,0.0,0.0,0.0,0,0,0.0,0,0.0,-1,0.0,,0.0,0,0.0,0.0257
1564,0,,,245,249,239,234,,-0.06,0.03,0.97,-0,-0,-0,0.07,,0,0,0,0,0,0.0,0.0,0,0.0,0.0,0.0,0,0.0,0.0,0.0,0,0,0,0,0,,,,,,,,,,,,,,,,,,,,
1584,0,,,245,249,239,234,,-0.06,0.03,0.97,-0,-0,-0,0.07,,0,0,0,0,0,0.0,0.0,0,0.0,0.0,0.0,0,0.0,0.0,0.0,0,0,0,0,0,,,,,,,,,,,,,,,,,,,,
1604,0,,,245,249,240,234,,-0.06,0.03,0.97,-0,-0,-0,0.07,,0,0,0,0,0,0.0,0.0,0,0.0,0.0,0.0,0,0.0,0.0,0.0,0,0,0,0,0,,,,,,,,,,,,,,,,,,,,
1624,0,,,245,249,240,234,,-0.06,0.03,0.97,-0,-0,-0,0.07,,0,0,0,0,0,0.0,0.0,0,0.0,0.0,0.0,0,0.0,0.0,0.0,0,0,0,0,0,,,,,,,,,,,,,,,,,,,,
1644,0,-1,3,245,249,239,234,-27,-0.06,0.03,0.97,-0,-0,-0,0.07,1,0,0,0,0,0,0.0,0.0,0,0.0,0.0,0.0,0,0.0,0.0,0.0,0,0,0,0,0,0,0,0,0,0.0,0.0,0.0,0.0,0,0,0.0,0,0.0,-1,0.0,0.0,0.0,0,0.0,0.0274
1664,0,,,245,249,240,234,,-0.06,0.03,0.97,-0,-0,-0,0.07,,0,0,0,0,0,0.0,0.0,0,0.0,0.0,0.0,0,0.0,0.0,0.0,0,0,0,0,0,,,,,,,,,,,,,,,,,,,,
1684,0,,,245,249,240,234,,-0.06,0.03,0.97,-0,-0,-0,0.07,,0,0,0,0,0,0.0,0.0,0,0.0,0.0,0.0,0,0.0,0.0,0.0,0,0,0,0,0,,,,,,,,,,,,,,,,,,,,
1704,0,,,245,249,240,234,,-0.06,0.03,0.97,-0,-0,-0,0.07,,0,0,0,0,0,0.0,0.0,0,0.0,0.0,0.0,0,0.0,0.0,0.0,0,0,0,0,0,,,,,,,,,,,,,,,,,,,,
1724,0,,,245,249,239,234,,-0.06,0.03,0.97,-0,-0,-0,0.07,,0,0,0,0,0,0.0,0.0,0,0.0,0.0,0.0,0,0.0,0.0,0.0,0,0,0,0,0,,,,,,,,,,,,,,,,,,,,
1744,0,-1,2,245,249,240,234,-27,-0.06,0.03,0.97,-0,-0,-0,0.07,1,0,0,0,0,0,0.0,0.0,0,0.0,0.0,0.0,0,0.0,0.0,0.0,0,0,0,0,0,0,0,0,0,0.0,0.0,0.0,0.0,0,0,0.0,0,0.0,-1,0.0,,0.0,0,0.0,0.0291
1764,0,,,245,249,239,234,,-0.06,0.03,0.97,-0,-0,-0,0.07,,0,0,0,0,0,0.0,0.0,0,0.0,0.0,0.0,0,0.0,0.0,0.0,0,0,0,0,0,,,,,,,,,,,,,,,,,,,,
1784,0,,,245,249,240,234,,-0.06,0.03,0.97,-0,-0,-0,0.07,,0,0,0,0,0,0.0,0.0,0,0.0,0.0,0.0,0,0.0,0.0,0.0,0,0,0,0,0,,,,,,,,,,,,,,,,,,,,
1804,0,,,245,249,240,234,,-0.06,0.03,0.97,-0,-0,-0,0.07,,0,0,0,0,0,0.0,0.0,0,0.0,0.0,0.0,0,0.0,0.0,0.0,0,0,0,0,0,,,,,,,,,,,,,,,,,,,,
1824,0,,,245,249,239,234,,-0.06,0.03,0.97,-0,-0,-0,0.07,,0,0,0,0,0,0.0,0.0,0,0.0,0.0,0.0,0,0.0,0.0,0.0,0,0,0,0,0,,,,,,,,,,,,,,,,,,,,
1844,0,1,1,245,249,240,234,-27,-0.06,0.03,0.97,-0,-0,-0,0.07,1,0,0,0,0,0,0.0,0.0,0,0.0,0.0,0.0,0,0.0,0.0,0.0,0,0,0,0,0,0,0,0,0,0.0,0.0,0.0,0.0,0,0,0.0,0,0.0,-1,0.0,0.0,0.0,0,0.0,0.0307
1864,0,,,245,249,240,234,,-0.06,0.03,0.97,-0,-0,-0,0.07,,0,0,0,0,0,0.0,0.0,0,0.0,0.0,0.0,0,0.0,0.0,0.0,0,0,0,0,0,,,,,,,,,,,,,,,,,,,,
1884,0,,,245,249,239,234,,-0.06,0.03,0.97,-0,-0,-0,0.07,,0,0,0,0,0,0.0,0.0,0,0.0,0.0,0.0,0,0.0,0.0,0.0,0,0,0,0,0,,,,,,,,,,,,,,,,,,,,
1904,0,,,245,249,240,234,,-0.06,0.03,0.97,-0,-0,-0,0.07,,0,0,0,0,0,0.0,0.0,0,0.0,0.0,0.0,0,0.0,0.0,0.0,0,0,0,0,0,,,,,,,,,,,,,,,,,,,,
1924,0,,,245,249,239,234,,-0.06,0.03,0.97,-0,-0,-0,0.07,,0,0,0,0,0,0.0,0.0,0,0.0,0.0,0.0,0,0.0,0.0,0.0,0,0,0,0,0,,,,,,,,,,,,,,,,,,,,
1944,0,0,3,245,249,240,234,-27,-0.06,0.03,0.97,-0,-0,-0,0.07,1,0,0,0,0,0,0.0,0.0,0,0.0,0.0,0.0,0,0.0,0.0,0.0,0,0,0,0,0,0,0,0,0,0.0,0.0,0.0,0.0,0,0,0.0,0,0.0,-1,0.0,,0.0,0,0.0,0.0324
1964,0,,,245,249,240,234,,-0.06,0.03,0.97,-0,-0,-0,0.07,,0,0,0,0,0,0.0,0.0,0,0.0,0.0,0.0,0,0.0,0.0,0.0,0,0,0,0,0,,,,,,,,,,,,,,,,,,,,
1984,0,,,245,249,239,234,,-0.06,0.03,0.97,-0,-0,-0,0.07,,0,0,0,0,0,0.0,0.0,0,0.0,0.0,0.0,0,0.0,0.0,0.0,0,0,0,0,0,,,,,,,,,,,,,,,,,,,,
2004,0,,,245,249,240,234,,-0.06,0.03,0.97,-0,-0,-0,0.07,,0,0,0,0,0,0.0,0.0,0,0.0,0.0,0.0,0,0.0,0.0,0.0,0,0,0,0,0,,,,,,,,,,,,,,,,,,,,
2024,0,,,245,249,240,234,,-0.06,0.03,0.97,-0,-0,-0,0.07,,0,0,0,0,0,0.0,0.0,0,0.0,0.0,0.0,0,0.0,0.0,0.0,0,0,0,0,0,,,,,,,,,,,,,,,,,,,,
2044,0,1,1,245,249,240,234,-26,-0.06,0.03,0.97,-0,-0,-0,0.07,1,0,0,0,0,0,0.0,0.0,0,0.0,0.0,0.0,0,0.0,0.0,0.0,0,0,0,0,0,0,0,0,0,0.0,0.0,0.0,0.0,0,0,0.0,0,0.0,-1,0.0,0.0,0.0,0,0.0,0.0341
2064,0,,,245,249,240,234,,-0.06,0.03,0.97,-0,-0,-0,0.07,,0,0,0,0,0,0.0,0.0,0,0.0,0.0,0.0,0,0.0,0.0,0.0,0,0,0,0,0,,,,,,,,,,,,,,,,,,,,
2084,0,,,245,249,240,234,,-0.06,0.03,0.97,-0,-0,-0,0.07,,0,0,0,0,0,0.0,0.0,0,0.0,0.0,0.0,0,0.0,0.0,0.0,0,0,0,0,0,,,,,,,,,,,,,,,,,,,,
2104,0,,,245,249,240,234,,-0.06,0.03,0.97,-0,-0,-0,0.07,,0,0,0,0,0,0.0,0.0,0,0.0,0.0,0.0,0,0.0,0.0,0.0,0,0,0,0,0,,,,,,,,,,,,,,,,,,,,
2124,0,,,245,249,239,234,,-0.06,0.03,0.97,-0,-0,-0,0.07,,0,0,0,0,0,0.0,0.0,0,0.0,0.0,0.0,0,0.0,0.0,0.0,0,0,0,0,0,,,,,,,,,,,,,,,,,,,,
2144,0,1,1,245,249,239,234,-27,-0.06,0.03,0.97,-0,-0,-0,0.07,1,0,0,0,0,0,0.0,0.0,0,0.0,0.0,0.0,0,0.0,0.0,0.0,0,0,0,0,0,0,0,0,0,0.0,0.0,0.0,0.0,0,0,0.0,0,0.0,-1,0.0,,0.0,0,0.0,0.0357
2164,0,,,245,249,240,234,,-0.06,0.03,0.97,-0,-0,-0,0.07,,0,0,0,0,0,0.0,0.0,0,0.0,0.0,0.0,0,0.0,0.0,0.0,0,0,0,0,0,,,,,,,,,,,,,,,,,,,,
2184,0,,,245,249,240,234,,-0.06,0.03,0.97,-0,-0,-0,0.07,,0,0,0,0,0,0.0,0.0,0,0.0,0.0,0.0,0,0.0,0.0,0.0,0,0,0,0,0,,,,,,,,,,,,,,,,,,,,
2204,0,,,245,249,239,234,,-0.06,0.03,0.97,-0,-0,-0,0.07,,77,0,3,15,97,0.5,0.0,116,4.76,12.6,0.0,1,0.0,0.0,0.0,0,0,0,1,0,,,,,,,,,,,,,,,,,,,,
2224,0,,,245,249,239,234,,-0.06,0.03,0.97,-0,-0,-0,0.07,,77,0,3,15,97,0.5,0.0,116,4.76,12.6,0.0,1,0.0,0.0,0.0,0,0,0,1,0,,,,,,,,,,,,,,,,,,,,
2244,0,0,2,245,249,240,234,-27,-0.06,0.03,0.97,-0,-0,-0,0.07,1,77,0,3,15,97,0.5,0.0,116,4.77,12.6,0.0,1,0.0,0.0,0.0,0,0,0,1,0,0,250,250,0,0.0,0.0,0.0,0.0,0,0,0.0,0,0.0,-1,0.0,0.0,0.0,0,0.0,0.0374
2264,0,,,245,249,240,234,,-0.06,0.03,0.97,-0,-0,-0,0.07,,77,0,3,15,97,0.5,0.0,116,4.76,12.7,0.0,1,0.0,0.0,0.0,0,0,0,1,0,,,,,,,,,,,,,,,,,,,,
2284,0,,,245,249,240,234,,-0.06,0.03,0.97,-0,-0,-0,0.07,,77,0,3,15,97,0.5,0.0,116,4.77,12.6,0.0,1,0.0,0.0,0.0,0,0,0,1,0,,,,,,,,,,,,,,,,,,,,
2304,0,,,245,249,240,234,,-0.06,0.03,0.97,-0,-0,-0,0.07,,77,0,3,15,97,0.5,0.0,116,4.77,12.6,0.0,1,0.0,0.0,0.0,0,0,0,1,0,,,,,,,,,,,,,,,,,,,,
2324,0,,,245,249,240,234,,-0.06,0.03,0.97,-0,-0,-0,0.07,,77,0,3,15,97,0.5,0.0,116,4.76,12.7,0.0,1,0.0,0.0,0.0,0,0,0,1,0,,,,,,,,,,,,,,,,,,,,
2344,0,-1,3,245,249,240,234,-26,-0.06,0.03,0.97,-0,-0,-0,0.07,1,77,0,3,15,97,0.5,0.0,116,4.77,12.6,0.0,1,0.0,0.0,0.0,0,0,0,1,0,0,250,250,0,0.0,0.0,0.0,0.0,0,0,0.0,0,0.0,-1,0.0,,0.0,0,0.0,0.0391
2364,0,,,245,249,240,234,,-0.06,0.03,0.97,-0,-0,-0,0.07,,77,0,3,15,97,0.5,0.0,116,4.76,12.6,0.0,1,0.0,0.0,0.0,0,0,0,1,0,,,,,,,,,,,,,,,,,,,,
2384,0,,,245,249,239,234,,-0.06,0.03,0.97,-0,-0,-0,0.07,,77,0,3,15,97,0.5,0.0,116,4.77,12.6,0.0,1,0.0,0.0,0.0,0,0,0,1,0,,,,,,,,,,,,,,,,,,,,
2404,0,,,245,249,240,234,,-0.06,0.03,0.97,-0,-0,-0,0.07,,77,0,3,15,97,0.5,0.0,116,4.77,12.6,0.0,1,0.0,0.0,0.0,0,0,0,1,0,,,,,,,,,,,,,,,,,,,,
2424,0,,,245,249,240,234,,-0.06,0.03,0.97,-0,-0,-0,0.07,,77,0,3,15,97,0.5,0.0,116,4.77,12.6,0.0,1,0.0,0.0,0.0,0,0,0,1,0,,,,,,,,,,,,,,,,,,,,
2444,0,-1,3,245,249,240,234,-27,-0.06,0.03,0.97,-0,-0,-0,0.06,1,77,0,3,15,97,0.501,0.0,116,4.77,12.7,0.0,1,0.0,0.0,0.0,0,0,0,1,0,0,250,250,0,0.0,0.0,0.0,0.0,0,0,0.0,0,0.0,-1,0.0,0.0,0.0,0,0.0,0.0407
2464,0,,,245,249,240,234,,-0.06,0.03,0.97,-0,-0,-0,0.07,,77,0,3,15,97,0.501,0.0,116,4.77,12.7,0.0,1,0.0,0.0,0.0,0,0,0,1,0,,,,,,,,,,,,,,,,,,,,
2484,0,,,245,249,240,234,,-0.06,0.03,0.97,-0,-0,-0,0.07,,77,0,3,15,97,0.501,0.0,116,4.77,12.7,0.0,1,0.0,0.0,0.0,0,0,0,1,0,,,,,,,,,,,,,,,,,,,,
2504,0,,,245,249,240,234,,-0.06,0.03,0.97,-0,-0,-0,0.07,,77,0,3,15,97,0.501,0.0,116,4.77,12.7,0.0,1,0.0,0.0,0.0,0,0,0,1,0,,,,,,,,,,,,,,,,,,,,
2524,0,,,245,249,240,234,,-0.06,0.03,0.97,-0,-0,-0,0.07,,77,0,3,15,97,0.501,0.0,116,4.76,12.7,0.0,1,0.0,0.0,0.0,0,0,0,1,0,,,,,,,,,,,,,,,,,,,,
2544,0,0,1,245,249,239,234,-27,-0.06,0.03,0.97,-0,-0,-0,0.07,1,77,0,3,15,97,0.501,0.0,116,4.76,12.7,0.0,1,0.0,0.0,0.0,0,0,0,1,0,0,250,250,0,0.0,0.0,0.0,0.0,0,0,0.0,0,0.0,-1,0.0,,0.0,0,0.0,0.0424
2564,0,,,245,249,240,234,,-0.06,0.03,0.97,-0,-0,-0,0.07,,77,0,3,15,97,0.501,0.0,116,4.77,12.7,0.0,1,0.0,0.0,0.0,0,0,0,1,0,,,,,,,,,,,,,,,,,,,,
2584,0,,,245,249,240,234,,-0.06,0.03,0.97,-0,-0,-0,0.07,,77,0,3,15,97,0.501,0.0,116,4.77,12.7,0.0,1,0.0,0.0,0.0,0,0,0,1,0,,,,,,,,,,,,,,,,,,,,
2604,0,,,245,249,239,234,,-0.06,0.03,0.97,-0,-0,-0,0.06,,77,0,3,15,97,0.501,0.0,116,4.77,12.7,0.0,1,0.0,0.0,0.0,0,0,0,1,0,,,,,,,,,,,,,,,,,,,,
2624,0,,,245,249,240,234,,-0.06,0.03,0.97,-0,-0,-0,0.07,,77,0,3,15,97,0.501,0.0,116,4.77,12.7,0.0,1,0.0,0.0,0.0,0,0,0,1,0,,,,,,,,,,,,,,,,,,,,
2644,0,-0,3,245,249,240,234,-28,-0.06,0.03,0.97,-0,-0,-0,0.07,1,77,0,3,15,97,0.501,0.0,116,4.77,12.7,0.0,1,0.0,0.0,0.0,0,0,0,1,0,0,250,250,0,0.0,0.0,0.0,0.0,0,0,0.0,0,0.0,-1,0.0,0.0,0.0,0,0.0,0.0441
2664,0,,,245,249,240,234,,-0.06,0.03,0.97,-0,-0,-0,0.07,,77,0,3,15,97,0.501,0.0,116,4.77,12.8,0.0,1,0.0,0.0,0.0,0,0,0,1,0,,,,,,,,,,,,,,,,,,,,
2684,0,,,245,249,239,234,,-0.06,0.03,0.97,-0,-0,-0,0.07,,77,0,3,15,97,0.501,0.0,116,4.77,12.8,0.0,1,0.0,0.0,0.0,0,0,0,1,0,,,,,,,,,,,,,,,,,,,,
2704,0,,,245,249,239,234,,-0.06,0.03,0.97,-0,-0,-0,0.07,,77,0,3,15,97,0.501,0.0,116,4.77,12.7,0.0,1,0.0,0.0,0.0,0,0,0,1,0,,,,,,,,,,,,,,,,,,,,
2724,0,,,245,249,240,234,,-0.06,0.03,0.97,-0,-0,-0,0.07,,77,0,3,15,97,0.501,0.0,116,4.77,12.7,0.0,1,0.0,0.0,0.0,0,0,0,1,0,,,,,,,,,,,,,,,,,,,,
2744,0,-1,3,245,249,240,234,-27,-0.06,0.03,0.97,-0,-0,-0,0.07,1,77,0,3,15,97,0.501,0.0,116,4.76,12.7,0.0,1,0.0,0.0,0.0,0,0,0,1,0,0,250,250,0,0.0,0.0,0.0,0.0,0,0,0.0,0,0.0,-1,0.0,,0.0,0,0.0,0.0457
2764,0,,,245,249,239,234,,-0.06,0.03,0.97,-0,-0,-0,0.07,,77,0,3,15,97,0.501,0.0,116,4.76,12.7,0.0,1,0.0,0.0,0.0,0,0,0,1,0,,,,,,,,,,,,,,,,,,,,
2784,0,,,245,249,240,234,,-0.06,0.03,0.97,-0,-0,-0,0.07,,77,0,3,15,97,0.501,0.0,116,4.77,12.7,0.0,1,0.0,0.0,0.0,0,0,0,1,0,,,,,,,,,,,,,,,,,,,,
2804,0,,,245,249,240,234,,-0.06,0.03,0.97,-0,-0,-0,0.07,,77,0,3,15,97,0.501,0.0,116,4.77,12.7,0.0,1,0.0,0.0,0.0,0,0,0,1,0,,,,,,,,,,,,,,,,,,,,
2824,0,,,245,249,240,234,,-0.06,0.03,0.97,-0,-0,-0,0.07,,77,0,3,15,97,0.501,0.0,116,4.77,12.7,0.0,1,0.0,0.0,0.0,0,0,0,1,0,,,,,,,,,,,,,,,,,,,,
2844,0,0,1,245,249,239,234,-27,-0.06,0.03,0.97,-0,-0,-0,0.07,1,77,0,3,15,97,0.501,0.0,116,4.76,12.8,0.0,1,0.0,0.0,0.0,0,0,0,1,0,0,250,250,0,0.0,0.0,0.0,0.0,0,0,0.0,0,0.0,-1,0.0,0.0,0.0,0,0.0,0.0474
2864,0,,,245,249,240,234,,-0.06,0.03,0.98,-0,-0,-0,0.07,,77,0,3,15,97,0.501,0.0,116,4.76,12.8,0.0,1,0.0,0.0,0.0,0,0,0,1,0,,,,,,,,,,,,,,,,,,,,
2884,0,,,245,249,240,234,,-0.06,0.03,0.98,-0,-0,-0,0.07,,77,0,3,15,97,0.501,0.0,116,4.76,12.8,0.0,1,0.0,0.0,0.0,0,0,0,1,0,,,,,,,,,,,,,,,,,,,,
2904,0,,,245,249,239,234,,-0.06,0.03,0.98,-0,-0,-0,0.07,,77,0,3,15,97,0.501,0.0,116,4.77,12.7,0.0,1,0.0,0.0,0.0,0,0,0,1,0,,,,,,,,,,,,,,,,,,,,
2924,0,,,245,249,240,234,,-0.06,0.03,0.98,-0,-0,-0,0.07,,77,0,3,15,97,0.501,0.0,116,4.77,12.7,0.0,1,0.0,0.0,0.0,0,0,0,1,0,,,,,,,,,,,,,,,,,,,,
2944,0,-0,1,245,249,239,234,-28,-0.06,0.03,0.98,-0,-0,-0,0.07,1,77,0,3,15,97,0.501,0.0,116,4.76,12.7,0.0,1,0.0,0.0,0.0,0,0,0,1,0,0,250,250,0,0.0,0.0,0.0,0.0,0,0,0.0,0,0.0,-1,0.0,,0.0,0,0.0,0.0491
2964,0,,,245,249,240,234,,-0.06,0.03,0.98,-0,-0,-0,0.07,,77,0,3,15,97,0.501,0.0,116,4.77,12.7,0.0,1,0.0,0.0,0.0,0,0,0,1,0,,,,,,,,,,,,,,,,,,,,
2984,0,,,245,249,240,234,,-0.06,0.03,0.98,-0,-0,-0,0.07,,77,0,3,15,97,0.501,0.0,116,4.76,12.8,0.0,1,0.0,0.0,0.0,0,0,0,1,0,,,,,,,,,,,,,,,,,,,,
3004,0,,,245,249,240,234,,-0.06,0.03,0.98,-0,-0,-0,0.07,,77,0,3,15,97,0.501,0.0,116,4.77,12.8,0.0,1,0.0,0.0,0.0,0,0,0,1,0,,,,,,,,,,,,,,,,,,,,
3024,0,,,245,249,239,234,,-0.06,0.03,0.98,-0,-0,-0,0.07,,77,0,3,15,97,0.501,0.0,116,4.77,12.8,0.0,1,0.0,0.0,0.0,0,0,0,1,0,,,,,,,,,,,,,,,,,,,,
3044,0,-1,3,245,249,240,234,-27,-0.06,0.03,0.97,-0,-0,-0,0.07,1,77,0,3,15,97,0.501,0.0,116,4.76,12.8,0.0,1,0.0,0.0,0.0,0,0,0,1,0,0,250,250,0,0.0,0.0,0.0,0.0,0,0,0.0,0,0.0,-1,0.0,0.0,0.0,0,0.0,0.0507
3064,0,,,245,249,239,234,,-0.06,0.03,0.97,-0,-0,-0,0.07,,77,0,3,15,97,0.501,0.0,116,4.77,12.8,0.0,1,0.0,0.0,0.0,0,0,0,1,0,,,,,,,,,,,,,,,,,,,,
3084,0,,,245,249,239,234,,-0.06,0.03,0.97,-0,-0,-0,0.07,,77,0,3,15,97,0.502,0.0,116,4.76,12.7,0.0,1,0.0,0.0,0.0,0,0,0,1,0,,,,,,,,,,,,,,,,,,,,
3104,0,,,245,249,239,234,,-0.06,0.03,0.97,-0,-0,-0,0.07,,77,0,3,15,97,0.502,0.0,116,4.77,12.7,0.0,1,0.0,0.0,0.0,0,0,0,1,0,,,,,,,,,,,,,,,,,,,,
3124,0,,,245,249,240,234,,-0.06,0.03,0.97,-0,-0,-0,0.07,,77,0,3,15,97,0.502,0.0,116,4.77,12.7,0.0,1,0.0,0.0,0.0,0,0,0,1,0,,,,,,,,,,,,,,,,,,,,
3144,0,-0,1,245,249,240,234,-27,-0.06,0.03,0.97,-0,-0,-0,0.07,1,77,0,3,15,97,0.502,0.0,116,4.77,12.8,0.0,1,0.0,0.0,0.0,0,0,0,1,0,0,250,250,0,0.0,0.0,0.0,0.0,0,0,0.0,0,0.0,-1,0.0,,0.0,0,0.0,0.0524
3164,0,,,245,249,240,234,,-0.06,0.03,0.97,-0,-0,-0,0.07,,77,0,3,15,97,0.502,0.0,116,4.77,12.8,0.0,1,0.0,0.0,0.0,0,0,0,1,0,,,,,,,,,,,,,,,,,,,,
3184,0,,,245,249,240,234,,-0.06,0.03,0.97,-0,-0,-0,0.07,,77,0,3,15,97,0.502,0.0,116,4.77,12.8,0.0,1,0.0,0.0,0.0,0,0,0,1,0,,,,,,,,,,,,,,,,,,,,
3204,0,,,245,249,240,234,,-0.06,0.03,0.97,-0,-0,-0,0.07,,77,0,3,15,97,0.502,0.0,116,4.77,12.7,0.0,1,0.0,0.0,0.0,0,0,0,0,0,,,,,,,,,,,,,,,,,,,,
3224,0,,,245,249,240,234,,-0.06,0.03,0.97,-0,-0,-0,0.07,,77,0,3,15,97,0.503,0.0,116,4.68,13.0,0.0,1,0.0,0.0,0.0,0,0,0,0,0,,,,,,,,,,,,,,,,,,,,
3244,0,-1,3,245,249,240,234,-27,-0.06,0.03,0.97,-0,-0,-0,0.07,1,77,0,3,15,97,0.503,0.0,116,4.27,12.9,0.0,1,0.0,0.0,0.0,0,0,0,0,0,0,250,250,0,0.0,0.0,0.0,0.0,0,0,0.0,0,0.0,-1,0.0,0.0,0.0,0,0.0,0.0541
3264,0,,,245,249,240,234,,-0.06,0.03,0.97,-0,-0,-0,0.07,,77,0,3,15,97,0.503,0.0,116,3.73,12.9,0.0,1,0.0,0.0,0.0,0,0,0,0,0,,,,,,,,,,,,,,,,,,,,
3284,0,,,245,249,239,234,,-0.06,0.03,0.97,-0,-0,-0,0.07,,77,0,3,15,97,0.503,0.0,116,3.55,12.9,0.0,1,0.0,0.0,0.0,0,0,0,0,0,,,,,,,,,,,,,,,,,,,,
3304,0,,,245,249,240,234,,-0.06,0.03,0.97,-0,-0,-0,0.07,,77,0,3,15,97,0.503,0.0,116,3.4,13.0,0.0,1,0.0,0.0,0.0,0,0,0,0,0,,,,,,,,,,,,,,,,,,,,
3324,0,,,245,249,240,234,,-0.06,0.03,0.97,-0,-0,-0,0.07,,77,0,3,15,97,0.504,0.0,116,3.26,13.0,0.0,1,0.0,0.0,0.0,0,0,0,0,0,,,,,,,,,,,,,,,,,,,,
3344,0,0,3,245,249,240,234,-27,-0.06,0.03,0.97,-0,-0,-0,0.07,1,77,0,3,15,97,0.504,0.0,116,3.15,13.0,0.0,1,0.0,0.0,0.0,0,0,0,0,1,0,250,250,0,0.0,0.0,0.0,0.0,0,0,0.0,0,0.0,-1,0.0,,0.0,0,0.0,0.0557
3364,0,,,245,249,240,234,,-0.06,0.03,0.97,-0,-0,-0,0.07,,77,0,3,15,97,0.504,0.0,116,3.06,13.0,0.0,1,0.0,0.0,0.0,0,0,0,0,1,,,,,,,,,,,,,,,,,,,,
3384,0,,,245,249,240,234,,-0.06,0.03,0.97,-0,-0,-0,0.07,,77,0,3,15,97,0.504,0.0,116,2.97,13.0,0.0,1,0.0,0.0,0.0,0,0,0,0,1,,,,,,,,,,,,,,,,,,,,
3404,0,,,245,249,240,234,,-0.06,0.03,0.97,-0,-0,-0,0.07,,77,0,3,15,97,0.504,0.0,116,2.88,13.0,0.0,1,0.0,0.0,0.0,0,0,0,0,1,,,,,,,,,,,,,,,,,,,,
3424,0,,,245,249,239,234,,-0.06,0.03,0.97,-0,-0,-0,0.07,,77,0,3,15,97,0.505,0.0,116,2.81,12.9,0.0,1,0.0,0.0,0.0,0,0,0,0,1,,,,,,,,,,,,,,,,,,,,
3444,0,-1,3,245,249,240,234,-27,-0.06,0.03,0.97,-0,-0,-0,0.07,1,77,0,3,15,97,0.505,0.0,116,2.75,12.9,0.0,1,0.0,0.0,0.0,0,0,0,0,1,0,250,250,0,0.0,0.0,0.0,0.0,0,0,0.0,0,0.0,-1,0.0,0.0,0.0,0,0.0,0.0574
3464,0,,,245,249,240,234,,-0.06,0.03,0.97,-0,-0,-0,0.07,,77,0,3,15,97,0.505,0.0,116,2.68,13.0,0.0,1,0.0,0.0,0.0,0,0,0,0,1,,,,,,,,,,,,,,,,,,,,
3484,0,,,245,249,240,234,,-0.06,0.03,0.97,-0,-0,-0,0.07,,77,0,3,15,97,0.505,0.0,116,2.63,13.0,0.0,1,0.0,0.0,0.0,0,0,0,0,1,,,,,,,,,,,,,,,,,,,,
3504,0,,,245,249,240,234,,-0.06,0.03,0.97,-0,-0,-0,0.07,,77,0,3,15,97,0.505,0.0,116,2.59,13.0,0.0,1,0.0,0.0,0.0,0,0,0,0,1,,,,,,,,,,,,,,,,,,,,
3524,0,,,245,249,240,234,,-0.06,0.03,0.97,-0,-0,-0,0.07,,77,0,3,15,97,0.505,0.0,116,2.54,13.0,0.0,1,0.0,0.0,0.0,0,0,0,0,1,,,,,,,,,,,,,,,,,,,,
3544,0,0,3,245,249,240,234,-27,-0.06,0.03,0.97,-0,-0,-0,0.07,1,77,0,3,15,97,0.505,0.0,116,2.48,13.0,0.0,1,0.0,0.0,0.0,0,0,0,0,1,0,250,250,0,0.0,0.0,0.0,0.0,0,0,0.0,0,0.0,-1,0.0,,0.0,0,0.0,0.0591
3564,0,,,245,249,239,234,,-0.06,0.03,0.97,-0,-0,-0,0.07,,77,0,3,15,97,0.505,0.0,116,2.45,13.0,0.0,1,0.0,0.0,0.0,0,0,0,0,1,,,,,,,,,,,,,,,,,,,,
3584,0,,,245,249,240,234,,-0.06,0.03,0.97,-0,-0,-0,0.07,,77,0,3,15,97,0.505,0.0,116,2.41,12.9,0.0,1,0.0,0.0,0.0,0,0,0,0,1,,,,,,,,,,,,,,,,,,,,
3604,0,,,245,249,240,234,,-0.06,0.03,0.97,-0,-0,-0,0.07,,77,0,3,15,97,0.506,0.0,116,2.38,12.9,0.0,1,0.0,0.0,0.0,0,0,0,0,1,,,,,,,,,,,,,,,,,,,,
3624,0,,,245,249,239,234,,-0.06,0.03,0.97,-0,-0,-0,0.07,,77,0,3,15,97,0.506,0.0,116,2.35,12.9,0.0,1,0.0,0.0,0.0,0,0,0,0,1,,,,,,,,,,,,,,,,,,,,
3644,0,-0,2,245,249,240,234,-26,-0.06,0.03,0.97,-0,-0,-0,0.07,1,77,0,3,15,97,0.506,0.0,116,2.3,13.0,0.0,1,0.0,0.0,0.0,0,0,0,0,1,0,250,250,0,0.0,0.0,0.0,0.0,0,0,0.0,0,0.0,-1,0.0,0.0,0.0,0,0.0,0.0607
3664,0,,,245,249,239,234,,-0.06,0.03,0.97,-0,-0,-0,0.07,,77,0,3,15,97,0.506,0.0,116,2.27,13.0,0.0,1,0.0,0.0,0.0,0,0,0,0,1,,,,,,,,,,,,,,,,,,,,
3684,0,,,245,249,240,234,,-0.06,0.03,0.97,-0,-0,-0,0.07,,77,0,3,15,97,0.506,0.0,116,2.24,13.0,0.0,1,0.0,0.0,0.0,0,0,0,0,1,,,,,,,,,,,,,,,,,,,,
3704,0,,,245,249,240,234,,-0.06,0.03,0.97,-0,-0,-0,0.07,,77,0,3,15,97,0.506,0.0,116,2.21,13.0,0.0,1,0.0,0.0,0.0,0,0,0,0,1,,,,,,,,,,,,,,,,,,,,
3724,0,,,245,249,240,234,,-0.06,0.03,0.97,-0,-0,-0,0.07,,77,0,3,15,97,0.506,0.0,116,2.18,13.0,0.0,1,0.0,0.0,0.0,0,0,0,0,1,,,,,,,,,,,,,,,,,,,,
3744,0,0,2,245,249,240,234,-28,-0.06,0.03,0.97,-0,-0,-0,0.07,1,77,0,3,15,97,0.506,0.0,116,2.16,12.9,0.0,1,0.0,0.0,0.0,0,0,0,0,1,0,250,250,0,0.0,0.0,0.0,0.0,0,0,0.0,0,0.0,-1,0.0,,0.0,0,0.0,0.0624
3764,0,,,245,249,240,234,,-0.06,0.03,0.97,-0,-0,-0,0.07,,77,0,3,15,97,0.506,0.0,116,2.15,12.9,0.0,1,0.0,0.0,0.0,0,0,0,0,1,,,,,,,,,,,,,,,,,,,,
3784,0,,,245,249,239,234,,-0.06,0.03,0.97,-0,-0,-0,0.07,,77,0,3,15,97,0.506,0.0,116,2.11,12.9,0.0,1,0.0,0.0,0.0,0,0,0,0,1,,,,,,,,,,,,,,,,,,,,
3804,0,,,245,249,240,234,,-0.06,0.03,0.97,-0,-0,-0,0.07,,77,0,3,15,97,0.507,0.0,116,2.11,13.0,0.0,1,0.0,0.0,0.0,0,0,0,0,1,,,,,,,,,,,,,,,,,,,,
3824,0,,,245,249,240,234,,-0.06,0.03,0.97,-0,-0,-0,0.07,,77,0,3,15,97,0.507,0.0,116,2.08,13.0,0.0,1,0.0,0.0,0.0,0,0,0,0,1,,,,,,,,,,,,,,,,,,,,
3844,0,-1,2,245,249,240,234,-27,-0.06,0.03,0.97,-0,-0,-0,0.07,1,77,0,3,15,97,0.507,0.0,116,2.05,13.0,0.0,1,0.0,0.0,0.0,0,0,0,0,1,0,250,250,0,0.0,0.0,0.0,0.0,0,0,0.0,0,0.0,-1,0.0,0.0,0.0,0,0.0,0.0641
3864,0,,,245,249,240,234,,-0.06,0.03,0.97,-0,-0,-0,0.07,,77,0,3,15,97,0.507,0.0,116,2.04,13.0,0.0,1,0.0,0.0,0.0,0,0,0,0,1,,,,,,,,,,,,,,,,,,,,
3884,0,,,245,249,239,234,,-0.06,0.03,0.97,-0,-0,-0,0.07,,77,0,3,15,97,0.507,0.0,116,2.02,13.0,0.0,1,0.0,0.0,0.0,0,0,0,0,1,,,,,,,,,,,,,,,,,,,,
3904,0,,,245,249,240,234,,-0.06,0.03,0.97,-0,-0,-0,0.07,,77,0,3,15,97,0.507,0.0,116,2.0,13.0,0.0,1,0.0,0.0,0.0,0,0,0,0,1,,,,,,,,,,,,,,,,,,,,
3924,0,,,245,249,239,234,,-0.06,0.03,0.97,-0,-0,-0,0.06,,77,0,3,15,98,0.507,0.0,116,1.97,12.9,0.0,1,0.0,0.0,0.0,0,0,0,0,1,,,,,,,,,,,,,,,,,,,,
3944,0,0,4,245,249,240,234,-27,-0.06,0.03,0.97,-0,-0,-0,0.07,1,77,0,3,15,98,0.507,0.0,116,1.96,13.0,0.0,1,0.0,0.0,0.0,0,0,0,0,1,0,250,250,0,0.0,0.0,0.0,0.0,0,0,0.0,0,0.0,-1,0.0,,0.0,0,0.0,0.0657
3964,0,,,245,249,240,234,,-0.06,0.03,0.97,-0,-0,-0,0.07,,77,0,3,15,98,0.507,0.0,116,1.94,13.0,0.0,1,0.0,0.0,0.0,0,0,0,0,1,,,,,,,,,,,,,,,,,,,,
3984,0,,,245,249,240,234,,-0.06,0.03,0.97,-0,-0,-0,0.07,,77,0,3,15,98,0.507,0.0,116,1.94,13.0,0.0,1,0.0,0.0,0.0,0,0,0,0,1,,,,,,,,,,,,,,,,,,,,
4004,0,,,245,249,240,234,,-0.06,0.03,0.97,-0,-0,-0,0.07,,77,0,3,15,98,0.507,0.0,116,1.92,13.0,0.0,1,0.0,0.0,0.0,0,0,0,0,1,,,,,,,,,,,,,,,,,,,,
4024,0,,,245,249,240,234,,-0.06,0.03,0.97,-0,-0,-0,0.07,,77,0,3,15,98,0.507,0.0,116,1.89,13.0,0.0,1,0.0,0.0,0.0,0,0,0,0,1,,,,,,,,,,,,,,,,,,,,
4044,0,0,1,245,249,240,234,-26,-0.06,0.03,0.97,-0,-0,-0,0.07,1,77,0,3,15,98,0.507,0.0,116,1.89,13.0,0.0,1,0.0,0.0,0.0,0,0,0,0,1,0,250,250,0,0.0,0.0,0.0,0.0,0,0,0.0,0,0.0,-1,0.0,0.0,0.0,0,0.0,0.0674
4064,0,,,245,249,240,234,,-0.06,0.03,0.97,-0,-0,-0,0.07,,77,0,3,15,97,0.507,0.0,116,1.87,13.0,0.0,1,0.0,0.0,0.0,0,0,0,0,1,,,,,,,,,,,,,,,,,,,,
4084,0,,,245,249,240,234,,-0.06,0.03,0.97,-0,-0,-0,0.07,,77,0,3,15,97,0.507,0.0,116,1.86,12.9,0.0,1,0.0,0.0,0.0,0,0,0,0,1,,,,,,,,,,,,,,,,,,,,
4104,0,,,245,249,240,234,,-0.06,0.03,0.97,-0,-0,-0,0.07,,77,0,3,15,97,0.507,0.0,116,1.83,12.9,0.0,1,0.0,0.0,0.0,0,0,0,0,1,,,,,,,,,,,,,,,,,,,,
4124,0,,,245,249,240,234,,-0.06,0.03,0.97,-0,-0,-0,0.07,,77,0,3,15,97,0.507,0.0,116,1.83,13.0,0.0,1,0.0,0.0,0.0,0,0,0,0,1,,,,,,,,,,,,,,,,,,,,
4144,0,-1,3,245,249,239,234,-26,-0.06,0.03,0.97,-0,-0,-0,0.07,1,77,0,3,15,97,0.507,0.0,116,1.83,13.0,0.0,1,0.0,0.0,0.0,0,0,0,0,1,0,250,250,0,0.0,0.0,0.0,0.0,0,0,0.0,0,0.0,-1,0.0,,0.0,0,0.0,0.0691
4164,0,,,245,249,240,234,,-0.06,0.03,0.97,-0,-0,-0,0.07,,77,0,3,15,97,0.507,0.0,116,1.8,13.0,0.0,1,0.0,0.0,0.0,0,0,0,0,1,,,,,,,,,,,,,,,,,,,,
4184,0,,,245,249,240,234,,-0.06,0.03,0.97,-0,-0,-0,0.07,,77,0,3,15,97,0.507,0.0,116,1.8,13.0,0.0,1,0.0,0.0,0.0,0,0,0,0,1,,,,,,,,,,,,,,,,,,,,
4204,0,,,245,249,240,234,,-0.06,0.03,0.97,-0,-0,-0,0.07,,77,0,3,15,97,0.507,0.0,116,1.78,13.0,0.0,1,0.0,0.0,0.0,0,0,0,0,1,,,,,,,,,,,,,,,,,,,,
4224,0,,,245,249,240,234,,-0.06,0.03,0.97,-0,-0,-0,0.07,,77,0,3,15,97,0.507,0.0,116,1.78,13.0,0.0,1,0.0,0.0,0.0,0,0,0,0,1,,,,,,,,,,,,,,,,,,,,
4244,0,-1,3,245,249,240,234,-26,-0.06,0.03,0.97,-0,-0,-0,0.07,1,77,0,3,15,97,0.507,0.0,116,1.78,13.0,0.0,1,0.0,0.0,0.0,0,0,0,0,1,0,250,250,0,0.0,0.0,0.0,0.0,0,0,0.0,0,0.0,-1,0.0,0.0,0.0,0,0.0,0.0707
4264,0,,,245,249,239,234,,-0.06,0.03,0.97,-0,-0,-0,0.07,,77,0,3,15,97,0.507,0.0,116,1.75,12.9,0.0,1,0.0,0.0,0.0,0,0,0,0,1,,,,,,,,,,,,,,,,,,,,
4284,0,,,245,249,239,234,,-0.06,0.03,0.97,-0,-0,-0,0.07,,77,0,3,15,97,0.507,0.0,116,1.75,13.0,0.0,1,0.0,0.0,0.0,0,0,0,0,1,,,,,,,,,,,,,,,,,,,,
4304,0,,,245,249,240,234,,-0.06,0.03,0.97,-0,-0,-0,0.07,,77,0,3,15,97,0.507,0.0,116,1.73,13.0,0.0,1,0.0,0.0,0.0,0,0,0,0,1,,,,,,,,,,,,,,,,,,,,
4324,0,,,245,249,240,234,,-0.06,0.03,0.97,-0,-0,-0,0.07,,77,0,3,15,97,0.507,0.0,116,1.73,13.0,0.0,1,0.0,0.0,0.0,0,0,0,0,1,,,,,,,,,,,,,,,,,,,,
4344,0,0,3,245,249,240,234,-26,-0.06,0.03,0.97,-0,-0,-0,0.07,1,77,0,3,15,97,0.507,0.0,116,1.73,13.0,0.0,1,0.0,0.0,0.0,0,0,0,0,1,0,250,250,0,0.0,0.0,0.0,0.0,0,0,0.0,0,0.0,-1,0.0,,0.0,0,0.0,0.0724
4364,0,,,245,249,240,234,,-0.06,0.03,0.97,-0,-0,-0,0.07,,77,0,3,15,97,0.507,0.0,116,1.71,13.0,0.0,1,0.0,0.0,0.0,0,0,0,0,1,,,,,,,,,,,,,,,,,,,,
4384,0,,,245,249,240,234,,-0.06,0.03,0.97,-0,-0,-0,0.07,,77,0,3,15,98,0.507,0.0,116,1.7,13.0,0.0,1,0.0,0.0,0.0,0,0,0,0,1,,,,,,,,,,,,,,,,,,,,
4404,0,,,245,249,240,234,,-0.06,0.03,0.97,-0,-0,-0,0.07,,77,0,3,15,98,0.507,0.0,116,1.7,13.0,0.0,1,0.0,0.0,0.0,0,0,0,0,1,,,,,,,,,,,,,,,,,,,,
4424,0,,,245,249,239,234,,-0.06,0.03,0.97,-0,-0,-0,0.07,,77,0,3,15,98,0.507,0.0,116,1.67,13.0,0.0,1,0.0,0.0,0.0,0,0,0,0,1,,,,,,,,,,,,,,,,,,,,
4444,0,-1,3,245,249,240,234,-25,-0.06,0.03,0.97,-0,-0,-0,0.07,1,77,0,3,15,98,0.507,0.0,116,1.67,12.9,0.0,1,0.0,0.0,0.0,0,0,0,0,1,0,250,250,0,0.0,0.0,0.0,0.0,0,0,0.0,0,0.0,-1,0.0,0.0,0.0,0,0.0,0.0741
4464,0,,,245,249,240,234,,-0.06,0.03,0.97,-0,-0,-0,0.07,,77,0,3,15,98,0.507,0.0,116,1.67,13.0,0.0,1,0.0,0.0,0.0,0,0,0,0,1,,,,,,,,,,,,,,,,,,,,
4484,0,,,245,249,240,234,,-0.06,0.03,0.97,-0,-0,-0,0.07,,77,0,3,15,98,0.507,0.0,116,1.67,13.0,0.0,1,0.0,0.0,0.0,0,0,0,0,1,,,,,,,,,,,,,,,,,,,,
4504,0,,,245,249,240,234,,-0.06,0.03,0.97,-0,-0,-0,0.07,,77,0,3,15,98,0.507,0.0,116,1.64,13.0,0.0,1,0.0,0.0,0.0,0,0,0,0,1,,,,,,,,,,,,,,,,,,,,
4524,0,,,245,249,240,234,,-0.06,0.03,0.97,-0,-0,-0,0.07,,77,0,3,15,98,0.507,0.0,116,1.64,13.0,0.0,1,0.0,0.0,0.0,0,0,0,0,1,,,,,,,,,,,,,,,,,,,,
4544,0,0,3,246,249,240,234,-27,-0.06,0.03,0.97,-0,-0,-0,0.07,1,77,0,3,15,98,0.507,0.0,116,1.64,13.0,0.0,1,0.0,0.0,0.0,0,0,0,0,1,0,250,250,0,0.0,0.0,0.0,0.0,0,0,0.0,0,0.0,-1,0.0,,0.0,0,0.0,0.0757
4564,0,,,245,249,240,234,,-0.06,0.03,0.97,-0,-0,-0,0.07,,77,0,3,15,98,0.507,0.0,116,1.63,13.0,0.0,1,0.0,0.0,0.0,0,0,0,0,1,,,,,,,,,,,,,,,,,,,,
4584,0,,,245,249,240,234,,-0.06,0.03,0.97,-0,-0,-0,0.07,,77,0,3,15,98,0.507,0.0,116,1.61,13.0,0.0,1,0.0,0.0,0.0,0,0,0,0,1,,,,,,,,,,,,,,,,,,,,
4604,0,,,245,249,240,234,,-0.06,0.03,0.97,-0,-0,-0,0.07,,77,0,3,15,98,0.507,0.0,116,1.61,13.0,0.0,1,0.0,0.0,0.0,0,0,0,0,1,,,,,,,,,,,,,,,,,,,,
4624,0,,,245,249,240,234,,-0.06,0.03,0.97,-0,-0,-0,0.07,,77,0,3,15,98,0.507,0.0,116,1.61,12.9,0.0,1,0.0,0.0,0.0,0,0,0,0,1,,,,,,,,,,,,,,,,,,,,
4644,0,0,4,245,249,240,234,-26,-0.06,0.03,0.97,-0,-0,-0,0.07,1,77,0,3,15,98,0.507,0.0,116,1.61,13.0,0.0,1,0.0,0.0,0.0,0,0,0,0,1,0,250,250,0,0.0,0.0,0.0,0.0,0,0,0.0,0,0.0,-1,0.0,0.0,0.0,0,0.0,0.0774
4664,0,,,245,249,240,234,,-0.06,0.03,0.97,-0,-0,-0,0.07,,77,0,3,15,98,0.507,0.0,116,1.58,13.0,0.0,1,0.0,0.0,0.0,0,0,0,0,1,,,,,,,,,,,,,,,,,,,,
4684,0,,,245,249,240,234,,-0.06,0.03,0.97,-0,-0,-0,0.07,,77,0,3,15,98,0.507,0.0,116,1.58,13.0,0.0,1,0.0,0.0,0.0,0,0,0,0,1,,,,,,,,,,,,,,,,,,,,
4704,0,,,245,249,240,234,,-0.06,0.03,0.97,-0,-0,-0,0.07,,77,0,3,15,98,0.507,0.0,116,1.58,13.0,0.0,1,0.0,0.0,0.0,0,0,0,0,1,,,,,,,,,,,,,,,,,,,,
4724,0,,,245,249,240,234,,-0.06,0.03,0.97,-0,-0,-0,0.07,,77,0,3,15,98,0.507,0.0,116,1.57,13.0,0.0,1,0.0,0.0,0.0,0,0,0,0,1,,,,,,,,,,,,,,,,,,,,
4744,0,-0,4,245,249,240,234,-27,-0.06,0.03,0.97,-0,-0,-0,0.07,1,77,0,3,15,98,0.507,0.0,116,1.56,13.0,0.0,1,0.0,0.0,0.0,0,0,0,0,1,0,250,250,0,0.0,0.0,0.0,0.0,0,0,0.0,0,0.0,-1,0.0,,0.0,0,0.0,0.0791
4764,0,,,245,249,240,234,,-0.06,0.03,0.97,-0,-0,-0,0.07,,77,0,3,15,98,0.507,0.0,116,1.56,13.0,0.0,1,0.0,0.0,0.0,0,0,0,0,1,,,,,,,,,,,,,,,,,,,,
4784,0,,,246,249,240,234,,-0.06,0.03,0.97,-0,-0,-0,0.07,,77,0,3,15,98,0.507,0.0,116,1.55,12.9,0.0,1,0.0,0.0,0.0,0,0,0,0,1,,,,,,,,,,,,,,,,,,,,
4804,0,,,245,249,240,234,,-0.06,0.03,0.97,-0,-0,-0,0.07,,77,0,3,15,98,0.507,0.0,116,1.55,13.0,0.0,1,0.0,0.0,0.0,0,0,0,0,1,,,,,,,,,,,,,,,,,,,,
4824,0,,,245,249,240,234,,-0.06,0.03,0.97,-0,-0,-0,0.07,,77,0,3,15,98,0.507,0.0,116,1.55,13.0,0.0,1,0.0,0.0,0.0,0,0,0,0,1,,,,,,,,,,,,,,,,,,,,
4844,0,0,1,246,249,240,234,-27,-0.06,0.03,0.97,-0,-0,-0,0.07,1,77,0,3,15,98,0.507,0.0,116,1.53,13.0,0.0,1,0.0,0.0,0.0,0,0,0,0,1,0,250,250,0,0.0,0.0,0.0,0.0,0,0,0.0,0,0.0,-1,0.0,0.0,0.0,0,0.0,0.0807
4864,0,,,245,249,240,234,,-0.06,0.03,0.97,-0,-0,-0,0.07,,77,0,3,15,98,0.507,0.0,116,1.52,13.0,0.0,1,0.0,0.0,0.0,0,0,0,0,1,,,,,,,,,,,,,,,,,,,,
4884,0,,,246,249,239,234,,-0.06,0.03,0.97,-0,-0,-0,0.07,,77,0,3,15,98,0.507,0.0,116,1.52,13.0,0.0,1,0.0,0.0,0.0,0,0,0,0,1,,,,,,,,,,,,,,,,,,,,
4904,0,,,245,249,240,234,,-0.06,0.03,0.97,-0,-0,-0,0.07,,77,0,3,15,98,0.507,0.0,116,1.52,13.0,0.0,1,0.0,0.0,0.0,0,0,0,0,1,,,,,,,,,,,,,,,,,,,,
4924,0,,,245,249,240,234,,-0.06,0.03,0.97,-0,-0,-0,0.07,,77,0,3,15,98,0.507,0.0,116,1.52,13.0,0.0,1,0.0,0.0,0.0,0,0,0,0,1,,,,,,,,,,,,,,,,,,,,
4944,0,-0,2,245,249,240,234,-26,-0.06,0.03,0.97,-0,-0,-0,0.07,1,77,0,3,15,98,0.507,0.0,116,1.51,13.0,0.0,1,0.0,0.0,0.0,0,0,0,0,1,0,250,250,0,0.0,0.0,0.0,0.0,0,0,0.0,0,0.0,-1,0.0,,0.0,0,0.0,0.0824
4964,0,,,245,249,239,234,,-0.06,0.03,0.97,-0,-0,-0,0.07,,77,0,3,15,98,0.507,0.0,116,1.51,13.0,0.0,1,0.0,0.0,0.0,0,0,0,0,1,,,,,,,,,,,,,,,,,,,,
4984,0,,,245,249,240,234,,-0.06,0.03,0.97,-0,-0,-0,0.07,,77,0,3,15,98,0.507,0.0,116,1.51,13.0,0.0,1,0.0,0.0,0.0,0,0,0,0,1,,,,,,,,,,,,,,,,,,,,
5004,0,,,245,249,240,234,,-0.06,0.03,0.97,-0,-0,-0,0.07,,77,0,3,15,98,0.507,0.0,116,1.51,13.0,0.0,1,0.0,0.0,0.0,0,0,0,0,1,,,,,,,,,,,,,,,,,,,,
5024,0,,,245,249,239,234,,-0.06,0.03,0.97,-0,-0,-0,0.07,,77,0,3,15,98,0.507,0.0,116,1.51,13.0,0.0,1,0.0,0.0,0.0,0,0,0,0,1,,,,,,,,,,,,,,,,,,,,
5044,0,1,1,245,249,239,234,-26,-0.06,0.03,0.97,-0,-0,-0,0.07,1,77,0,3,15,98,0.507,0.0,116,1.5,13.0,0.0,1,0.0,0.0,0.0,0,0,0,0,1,0,250,250,0,0.0,0.0,0.0,0.0,0,0,0.0,0,0.0,-1,0.0,0.0,0.0,0,0.0,0.0841
5064,0,,,246,249,240,234,,-0.06,0.03,0.97,-0,-0,-0,0.07,,77,0,3,15,98,0.507,0.0,116,1.5,13.0,0.0,1,0.0,0.0,0.0,0,0,0,0,1,,,,,,,,,,,,,,,,,,,,
5084,0,,,245,249,240,234,,-0.06,0.03,0.97,-0,-0,-0,0.07,,77,0,3,15,98,0.507,0.0,116,1.48,13.0,0.0,1,0.0,0.0,0.0,0,0,0,0,1,,,,,,,,,,,,,,,,,,,,
5104,0,,,245,249,240,234,,-0.06,0.03,0.97,-0,-0,-0,0.07,,77,0,3,15,98,0.507,0.0,116,1.48,12.9,0.0,1,0.0,0.0,0.0,0,0,0,0,1,,,,,,,,,,,,,,,,,,,,
5124,0,,,245,249,239,234,,-0.06,0.03,0.97,-0,-0,-0,0.07,,77,0,3,15,97,0.507,0.0,116,1.48,12.9,0.0,1,0.0,0.0,0.0,0,0,0,0,1,,,,,,,,,,,,,,,,,,,,
5144,0,1,0,245,249,240,234,-26,-0.06,0.04,0.96,-0,-0,-0,0.07,1,77,0,3,15,97,0.507,0.0,116,1.47,12.8,0.0,1,0.0,0.0,0.0,0,0,0,0,1,0,250,250,0,0.0,0.0,0.0,0.0,0,0,0.0,0,0.0,-1,0.0,,0.0,0,0.0,0.0857
5164,0,,,245,249,239,234,,-0.06,0.04,0.97,-0,-0,-0,0.07,,77,0,3,15,97,0.507,0.0,116,1.47,12.8,0.0,1,0.0,0.0,0.0,0,0,0,0,1,,,,,,,,,,,,,,,,,,,,
5184,0,,,245,249,240,234,,-0.06,0.04,0.97,-0,-0,-0,0.07,,77,0,3,15,97,0.507,0.0,116,1.45,12.8,0.0,1,0.0,0.0,0.0,0,0,0,0,1,,,,,,,,,,,,,,,,,,,,
5204,0,,,245,249,240,234,,-0.06,0.03,0.97,-0,-1,-0,0.07,,77,0,3,15,97,0.508,0.0,116,1.45,12.9,0.0,1,0.0,0.0,0.0,0,0,0,0,1,,,,,,,,,,,,,,,,,,,,
5224,0,,,245,249,239,234,,-0.06,0.03,0.97,-0,-1,-0,0.07,,77,0,3,15,97,0.508,0.0,116,1.45,12.9,0.0,1,0.0,0.0,0.0,0,0,0,0,1,,,,,,,,,,,,,,,,,,,,
5244,0,-0,4,245,249,240,234,-26,-0.06,0.03,0.97,-0,-1,-0,0.07,1,77,0,3,15,97,0.508,0.0,116,1.45,12.9,0.0,1,0.0,0.0,0.0,0,0,0,0,1,0,250,250,0,0.0,0.0,0.0,0.0,0,0,0.0,0,0.0,-1,0.0,0.0,0.0,0,0.0,0.0874
5264,0,,,245,249,240,234,,-0.06,0.03,0.97,-0,-1,-0,0.07,,77,0,3,15,97,0.508,0.0,116,1.45,12.8,0.0,1,0.0,0.0,0.0,0,0,0,0,1,,,,,,,,,,,,,,,,,,,,
5284,0,,,245,249,240,234,,-0.06,0.03,0.97,-0,-1,-0,0.07,,77,0,3,15,97,0.508,0.0,116,1.45,12.8,0.0,1,0.0,0.0,0.0,0,0,0,0,1,,,,,,,,,,,,,,,,,,,,
5304,0,,,245,249,240,234,,-0.06,0.03,0.96,-0,-1,-0,0.07,,77,0,3,15,97,0.508,0.0,116,1.45,12.8,0.0,1,0.0,0.0,0.0,0,0,0,0,1,,,,,,,,,,,,,,,,,,,,
5324,0,,,245,249,240,234,,-0.06,0.03,0.96,-0,-1,-0,0.07,,77,0,3,15,97,0.508,0.0,116,1.45,12.8,0.0,1,0.0,0.0,0.0,0,0,0,0,1,,,,,,,,,,,,,,,,,,,,
5344,0,0,3,245,249,240,234,-27,-0.06,0.03,0.96,-0,-0,-0,0.07,1,77,0,3,15,98,0.509,0.0,116,1.42,12.8,0.0,1,0.0,0.0,0.0,0,0,0,0,1,0,250,250,0,0.0,0.0,0.0,0.0,0,0,0.0,0,0.0,-1,0.0,,0.0,0,0.0,0.0891
5364,0,,,245,249,240,234,,-0.06,0.03,0.96,-0,-0,-0,0.07,,77,0,3,15,98,0.509,0.0,116,1.42,12.8,0.0,1,0.0,0.0,0.0,0,0,0,0,1,,,,,,,,,,,,,,,,,,,,
5384,0,,,245,249,240,234,,-0.06,0.03,0.96,-0,-0,-0,0.07,,77,0,3,15,98,0.509,0.0,116,1.42,12.9,0.0,1,0.0,0.0,0.0,0,0,0,0,1,,,,,,,,,,,,,,,,,,,,
5404,0,,,245,249,240,234,,-0.06,0.03,0.96,-0,-0,-0,0.07,,77,0,3,15,98,0.509,0.0,116,1.42,12.8,0.0,1,0.0,0.0,0.0,0,0,0,0,1,,,,,,,,,,,,,,,,,,,,
5424,0,,,245,249,239,234,,-0.06,0.03,0.96,-0,-0,-0,0.07,,77,0,3,15,98,0.509,0.0,116,1.42,12.8,0.0,1,0.0,0.0,0.0,0,0,0,0,1,,,,,,,,,,,,,,,,,,,,
5444,0,-1,3,245,249,240,234,-27,-0.06,0.03,0.96,-0,-0,-0,0.07,1,77,0,3,15,98,0.509,0.0,116,1.42,12.8,0.0,1,0.0,0.0,0.0,0,0,0,0,1,0,250,250,0,0.0,0.0,0.0,0.0,0,0,0.0,0,0.0,-1,0.0,0.0,0.0,0,0.0,0.0907
5464,0,,,245,249,240,234,,-0.06,0.03,0.96,-0,-0,-0,0.07,,77,0,3,15,97,0.509,0.0,116,1.4,12.8,0.0,1,0.0,0.0,0.0,0,0,0,0,1,,,,,,,,,,,,,,,,,,,,
5484,0,,,246,249,240,234,,-0.06,0.03,0.97,-0,-0,-0,0.07,,77,0,3,15,97,0.509,0.0,116,1.4,12.8,0.0,1,0.0,0.0,0.0,0,0,0,0,1,,,,,,,,,,,,,,,,,,,,
5504,0,,,245,249,240,234,,-0.06,0.03,0.97,-0,-0,-0,0.07,,77,0,3,15,98,0.509,0.0,116,1.4,12.8,0.0,1,0.0,0.0,0.0,0,0,0,0,1,,,,,,,,,,,,,,,,,,,,
5524,0,,,245,249,240,234,,-0.06,0.03,0.97,-0,-0,-0,0.07,,77,0,3,15,98,0.509,0.0,116,1.4,12.8,0.0,1,0.0,0.0,0.0,0,0,0,0,1,,,,,,,,,,,,,,,,,,,,
5544,0,0,3,245,249,240,234,-27,-0.06,0.03,0.97,-0,-0,-0,0.07,1,77,0,3,15,98,0.509,0.0,116,1.4,12.8,0.0,1,0.0,0.0,0.0,0,0,0,0,1,0,250,250,0,0.0,0.0,0.0,0.0,0,0,0.0,0,0.0,-1,0.0,,0.0,0,0.0,0.0924
5564,0,,,245,249,239,234,,-0.06,0.03,0.97,-0,-0,-0,0.07,,77,0,3,15,98,0.509,0.0,116,1.4,12.9,0.0,1,0.0,0.0,0.0,0,0,0,0,1,,,,,,,,,,,,,,,,,,,,
5584,0,,,245,249,239,234,,-0.06,0.03,0.97,-0,-0,-0,0.07,,77,0,3,15,98,0.509,0.0,116,1.4,12.8,0.0,1,0.0,0.0,0.0,0,0,0,0,1,,,,,,,,,,,,,,,,,,,,
5604,0,,,245,249,240,234,,-0.06,0.03,0.97,-0,-0,-0,0.07,,77,0,3,15,98,0.509,0.0,116,1.4,12.8,0.0,1,0.0,0.0,0.0,0,0,0,0,1,,,,,,,,,,,,,,,,,,,,
5624,0,,,245,249,239,234,,-0.06,0.03,0.97,-0,-0,-0,0.07,,77,0,3,15,98,0.509,0.0,116,1.4,12.8,0.0,1,0.0,0.0,0.0,0,0,0,0,1,,,,,,,,,,,,,,,,,,,,
5644,0,-0,3,245,249,240,234,-27,-0.06,0.03,0.97,-0,-0,-0,0.07,1,77,0,3,15,98,0.509,0.0,116,1.38,12.8,0.0,1,0.0,0.0,0.0,0,0,0,0,1,0,250,250,0,0.0,0.0,0.0,0.0,0,0,0.0,0,0.0,-1,0.0,0.0,0.0,0,0.0,0.0941
5664,0,,,245,249,239,234,,-0.06,0.03,0.97,-0,-0,-0,0.07,,77,0,3,15,98,0.509,0.0,116,1.37,12.8,0.0,1,0.0,0.0,0.0,0,0,0,0,1,,,,,,,,,,,,,,,,,,,,
5684,0,,,246,249,240,234,,-0.06,0.03,0.97,-0,-0,-0,0.07,,77,0,3,15,98,0.509,0.0,116,1.37,12.8,0.0,1,0.0,0.0,0.0,0,0,0,0,1,,,,,,,,,,,,,,,,,,,,
5704,0,,,245,249,240,234,,-0.06,0.03,0.97,-0,-0,-0,0.07,,77,0,3,15,98,0.509,0.0,116,1.37,12.8,0.0,1,0.0,0.0,0.0,0,0,0,0,1,,,,,,,,,,,,,,,,,,,,
5724,0,,,246,249,240,234,,-0.06,0.03,0.97,-0,-0,-0,0.07,,77,0,3,15,98,0.509,0.0,116,1.37,12.9,0.0,1,0.0,0.0,0.0,0,0,0,0,1,,,,,,,,,,,,,,,,,,,,
5744,0,-0,3,245,249,240,234,-28,-0.06,0.03,0.97,-0,-0,-0,0.07,1,77,0,3,15,98,0.509,0.0,116,1.37,12.8,0.0,1,0.0,0.0,0.0,0,0,0,0,1,0,250,250,0,0.0,0.0,0.0,0.0,0,0,0.0,0,0.0,-1,0.0,,0.0,0,0.0,0.0957
5764,0,,,245,249,239,234,,-0.06,0.03,0.97,-0,-0,-0,0.07,,77,0,3,15,98,0.509,0.0,116,1.37,12.8,0.0,1,0.0,0.0,0.0,0,0,0,0,1,,,,,,,,,,,,,,,,,,,,
5784,0,,,245,249,239,234,,-0.06,0.03,0.97,-0,-0,-0,0.07,,77,0,3,15,98,0.509,0.0,116,1.37,12.8,0.0,1,0.0,0.0,0.0,0,0,0,0,1,,,,,,,,,,,,,,,,,,,,
5804,0,,,245,249,240,234,,-0.06,0.03,0.97,-0,-0,-0,0.07,,77,0,3,15,98,0.509,0.0,116,1.36,12.8,0.0,1,0.0,0.0,0.0,0,0,0,0,1,,,,,,,,,,,,,,,,,,,,
5824,0,,,245,249,240,234,,-0.06,0.03,0.97,-0,-0,-0,0.07,,77,0,3,15,98,0.509,0.0,116,1.36,12.8,0.0,1,0.0,0.0,0.0,0,0,0,0,1,,,,,,,,,,,,,,,,,,,,
5844,0,0,1,245,249,239,234,-26,-0.06,0.03,0.97,-0,-0,-0,0.07,1,77,0,3,15,98,0.509,0.0,116,1.35,12.8,0.0,1,0.0,0.0,0.0,0,0,0,0,1,0,250,250,0,0.0,0.0,0.0,0.0,0,0,0.0,0,0.0,-1,0.0,0.0,0.0,0,0.0,0.0974
5864,0,,,246,249,240,234,,-0.06,0.03,0.97,-0,-0,-0,0.07,,77,0,3,15,98,0.509,0.0,116,1.34,12.8,0.0,1,0.0,0.0,0.0,0,0,0,0,1,,,,,,,,,,,,,,,,,,,,
5884,0,,,245,249,239,234,,-0.06,0.03,0.97,-0,-0,-0,0.07,,77,0,3,15,98,0.509,0.0,116,1.34,12.8,0.0,1,0.0,0.0,0.0,0,0,0,0,1,,,,,,,,,,,,,,,,,,,,
5904,0,,,245,249,239,234,,-0.06,0.03,0.97,-0,-0,-0,0.07,,77,0,3,15,98,0.509,0.0,116,1.34,12.9,0.0,1,0.0,0.0,0.0,0,0,0,0,1,,,,,,,,,,,,,,,,,,,,
5924,0,,,245,249,240,234,,-0.06,0.03,0.97,-0,-0,-0,0.07,,77,0,3,15,98,0.509,0.0,116,1.34,12.8,0.0,1,0.0,0.0,0.0,0,0,0,0,1,,,,,,,,,,,,,,,,,,,,
5944,0,1,1,245,249,240,234,-26,-0.06,0.03,0.97,-0,-0,-0,0.07,1,77,0,3,15,98,0.509,0.0,116,1.34,12.8,0.0,1,0.0,0.0,0.0,0,0,0,0,1,0,250,250,0,0.0,0.0,0.0,0.0,0,0,0.0,0,0.0,-1,0.0,,0.0,0,0.0,0.0991
5964,0,,,245,249,239,234,,-0.06,0.03,0.97,-0,-0,-0,0.07,,77,0,3,15,98,0.509,0.0,116,1.34,12.8,0.0,1,0.0,0.0,0.0,0,0,0,0,1,,,,,,,,,,,,,,,,,,,,
5984,0,,,245,249,239,234,,-0.06,0.03,0.97,-0,-0,-0,0.07,,77,0,3,15,98,0.509,0.0,116,1.34,12.8,0.0,1,0.0,0.0,0.0,0,0,0,0,1,,,,,,,,,,,,,,,,,,,,
6004,0,,,246,249,240,234,,-0.06,0.03,0.97,-0,-0,-0,0.07,,77,0,3,15,98,0.509,0.0,116,1.34,12.8,0.0,1,0.0,0.0,0.0,0,0,0,0,1,,,,,,,,,,,,,,,,,,,,
6024,0,,,245,249,240,234,,-0.06,0.03,0.97,-0,-0,-0,0.07,,77,0,3,15,98,0.509,0.0,116,1.34,12.8,0.0,1,0.0,0.0,0.0,0,0,0,0,1,,,,,,,,,,,,,,,,,,,,
6044,0,-1,3,245,249,240,234,-27,-0.06,0.03,0.97,-0,-0,-0,0.07,1,77,0,3,15,98,0.509,0.0,116,1.34,12.8,0.0,1,0.0,0.0,0.0,0,0,0,0,1,0,250,250,0,0.0,0.0,0.0,0.0,0,0,0.0,0,0.0,-1,0.0,0.0,0.0,0,0.0,0.1007
6064,0,,,245,249,240,234,,-0.06,0.03,0.97,-0,-0,-0,0.07,,77,0,3,15,98,0.509,0.0,116,1.33,12.8,0.0,1,0.0,0.0,0.0,0,0,0,0,1,,,,,,,,,,,,,,,,,,,,
6084,0,,,245,249,240,234,,-0.06,0.03,0.97,-0,-0,-0,0.07,,77,0,3,15,98,0.509,0.0,116,1.31,12.8,0.0,1,0.0,0.0,0.0,0,0,0,0,1,,,,,,,,,,,,,,,,,,,,
6104,0,,,245,249,240,234,,-0.06,0.03,0.97,-0,-0,-0,0.07,,77,0,3,15,98,0.509,0.0,116,1.31,12.8,0.0,1,0.0,0.0,0.0,0,0,0,0,1,,,,,,,,,,,,,,,,,,,,
6124,0,,,245,249,240,234,,-0.06,0.03,0.97,-0,-0,-0,0.07,,77,0,3,15,98,0.509,0.0,116,1.31,12.8,0.0,1,0.0,0.0,0.0,0,0,0,0,1,,,,,,,,,,,,,,,,,,,,
6144,0,1,3,245,249,240,234,-27,-0.06,0.03,0.97,-0,-0,-0,0.07,1,77,0,3,15,98,0.509,0.0,116,1.31,12.8,0.0,1,0.0,0.0,0.0,0,0,0,0,1,0,250,250,0,0.0,0.0,0.0,0.0,0,0,0.0,0,0.0,-1,0.0,,0.0,0,0.0,0.1024
6164,0,,,245,249,239,234,,-0.06,0.03,0.97,-0,-0,-0,0.07,,77,0,3,15,98,0.509,0.0,116,1.31,12.8,0.0,1,0.0,0.0,0.0,0,0,0,0,1,,,,,,,,,,,,,,,,,,,,
6184,0,,,245,249,240,234,,-0.06,0.03,0.97,-0,-0,-0,0.07,,77,0,3,15,98,0.509,0.0,116,1.31,12.8,0.0,1,0.0,0.0,0.0,0,0,0,0,1,,,,,,,,,,,,,,,,,,,,
6204,0,,,245,249,239,234,,-0.06,0.03,0.97,-0,-0,-0,0.07,,77,0,3,15,98,0.509,0.0,116,1.31,12.8,0.0,1,0.0,0.0,0.0,0,0,0,0,1,,,,,,,,,,,,,,,,,,,,
6224,0,,,245,249,239,234,,-0.06,0.03,0.97,-0,-0,-0,0.07,,77,0,3,15,98,0.509,0.0,116,1.3,12.8,0.0,1,0.0,0.0,0.0,0,0,0,0,1,,,,,,,,,,,,,,,,,,,,
6244,0,0,1,245,249,239,234,-27,-0.06,0.03,0.97,-0,-0,-0,0.07,1,77,0,3,15,98,0.509,0.0,116,1.3,12.8,0.0,1,0.0,0.0,0.0,0,0,0,0,1,0,250,250,0,0.0,0.0,0.0,0.0,0,0,0.0,0,0.0,-1,0.0,0.0,0.0,0,0.0,0.1041
6264,0,,,245,249,240,234,,-0.06,0.03,0.97,-0,-0,-0,0.07,,77,0,3,15,98,0.509,0.0,116,1.3,12.8,0.0,1,0.0,0.0,0.0,0,0,0,0,1,,,,,,,,,,,,,,,,,,,,
6284,0,,,245,249,240,234,,-0.06,0.03,0.97,-0,-0,-0,0.07,,77,0,3,15,98,0.509,0.0,116,1.29,12.8,0.0,1,0.0,0.0,0.0,0,0,0,0,1,,,,,,,,,,,,,,,,,,,,
6304,0,,,245,249,240,234,,-0.06,0.03,0.97,-0,-0,-0,0.07,,77,0,3,15,98,0.509,0.0,116,1.29,12.8,0.0,1,0.0,0.0,0.0,0,0,0,0,1,,,,,,,,,,,,,,,,,,,,
6324,0,,,245,249,240,234,,-0.06,0.03,0.97,-0,-0,-0,0.07,,77,0,3,15,98,0.509,0.0,116,1.28,12.8,0.0,1,0.0,0.0,0.0,0,0,0,0,1,,,,,,,,,,,,,,,,,,,,
6344,0,-1,2,246,249,240,234,-27,-0.06,0.03,0.97,-0,-0,-0,0.07,1,77,0,3,15,98,0.509,0.0,116,1.28,12.8,0.0,1,0.0,0.0,0.0,0,0,0,0,1,0,250,250,0,0.0,0.0,0.0,0.0,0,0,0.0,0,0.0,-1,0.0,,0.0,0,0.0,0.1057
6364,0,,,245,249,240,234,,-0.06,0.03,0.97,-0,-0,-0,0.07,,77,0,3,15,98,0.509,0.0,116,1.28,12.8,0.0,1,0.0,0.0,0.0,0,0,0,0,1,,,,,,,,,,,,,,,,,,,,
6384,0,,,245,249,240,234,,-0.06,0.03,0.97,-0,-0,-0,0.07,,77,0,3,15,98,0.509,0.0,116,1.28,12.8,0.0,1,0.0,0.0,0.0,0,0,0,0,1,,,,,,,,,,,,,,,,,,,,
6404,0,,,245,249,240,234,,-0.06,0.03,0.97,-0,-0,-0,0.07,,77,0,3,15,98,0.509,0.0,116,1.28,12.8,0.0,1,0.0,0.0,0.0,0,0,0,0,1,,,,,,,,,,,,,,,,,,,,
6424,0,,,245,249,240,234,,-0.06,0.03,0.97,-0,-0,-0,0.07,,77,0,3,15,98,0.509,0.0,116,1.28,12.8,0.0,1,0.0,0.0,0.0,0,0,0,0,1,,,,,,,,,,,,,,,,,,,,
6444,0,-1,2,245,249,240,234,-26,-0.06,0.03,0.97,-0,-0,-0,0.07,1,77,0,3,15,98,0.509,0.0,116,1.28,12.8,0.0,1,0.0,0.0,0.0,0,0,0,0,1,0,250,250,0,0.0,0.0,0.0,0.0,0,0,0.0,0,0.0,-1,0.0,0.0,0.0,0,0.0,0.1074
6464,0,,,245,249,240,234,,-0.06,0.03,0.97,-0,-0,-0,0.07,,77,0,3,15,98,0.509,0.0,116,1.28,12.8,0.0,1,0.0,0.0,0.0,0,0,0,0,1,,,,,,,,,,,,,,,,,,,,
6484,0,,,246,249,240,234,,-0.06,0.03,0.97,-0,-0,-0,0.07,,77,0,3,15,98,0.509,0.0,116,1.28,12.8,0.0,1,0.0,0.0,0.0,0,0,0,0,1,,,,,,,,,,,,,,,,,,,,
6504,0,,,245,249,239,234,,-0.06,0.03,0.97,-0,-0,-0,0.07,,77,0,3,15,98,0.509,0.0,116,1.28,12.8,0.0,1,0.0,0.0,0.0,0,0,0,0,1,,,,,,,,,,,,,,,,,,,,
6524,0,,,245,249,240,234,,-0.06,0.03,0.97,-0,-0,-0,0.07,,77,0,3,15,98,0.509,0.0,116,1.28,12.8,0.0,1,0.0,0.0,0.0,0,0,0,0,1,,,,,,,,,,,,,,,,,,,,
6544,0,-0,2,246,249,240,234,-26,-0.06,0.03,0.97,-0,-0,-0,0.07,1,77,0,3,15,98,0.509,0.0,116,1.28,12.8,0.0,1,0.0,0.0,0.0,0,0,0,0,1,0,250,250,0,0.0,0.0,0.0,0.0,0,0,0.0,0,0.0,-1,0.0,,0.0,0,0.0,0.1091
6564,0,,,246,249,240,234,,-0.06,0.03,0.97,-0,-0,-0,0.07,,77,0,3,15,98,0.509,0.0,116,1.28,12.8,0.0,1,0.0,0.0,0.0,0,0,0,0,1,,,,,,,,,,,,,,,,,,,,
6584,0,,,245,249,240,234,,-0.06,0.03,0.97,-0,-0,-0,0.07,,77,0,3,15,98,0.509,0.0,116,1.28,12.8,0.0,1,0.0,0.0,0.0,0,0,0,0,1,,,,,,,,,,,,,,,,,,,,
6604,0,,,245,249,240,234,,-0.06,0.03,0.97,-0,-0,-0,0.07,,77,0,3,15,98,0.509,0.0,116,1.26,12.8,0.0,1,0.0,0.0,0.0,0,0,0,0,1,,,,,,,,,,,,,,,,,,,,
6624,0,,,246,249,240,234,,-0.06,0.03,0.97,-0,-0,-0,0.07,,77,0,3,15,98,0.509,0.0,116,1.26,13.0,0.0,1,0.0,0.0,0.0,0,0,0,0,1,,,,,,,,,,,,,,,,,,,,
6644,0,0,3,245,249,240,234,-26,-0.06,0.03,0.97,-0,-0,-0,0.07,1,77,0,3,15,98,0.509,0.0,116,1.26,12.9,0.0,1,0.0,0.0,0.0,0,0,0,0,1,0,250,250,0,0.0,0.0,0.0,0.0,0,0,0.0,0,0.0,-1,0.0,0.0,0.0,0,0.0,0.1107
6664,0,,,246,249,240,234,,-0.06,0.03,0.97,-0,-0,-0,0.07,,77,0,3,15,98,0.509,0.0,116,1.26,12.9,0.0,1,0.0,0.0,0.0,0,0,0,0,1,,,,,,,,,,,,,,,,,,,,
6684,0,,,246,249,240,234,,-0.06,0.03,0.97,-0,-0,-0,0.07,,77,0,3,15,98,0.509,0.0,116,1.26,12.9,0.0,1,0.0,0.0,0.0,0,0,0,0,1,,,,,,,,,,,,,,,,,,,,
6704,0,,,245,249,239,234,,-0.06,0.03,0.97,-0,-0,-0,0.07,,77,0,3,15,98,0.509,0.0,116,1.26,12.9,0.0,1,0.0,0.0,0.0,0,0,0,0,1,,,,,,,,,,,,,,,,,,,,
6724,0,,,245,249,240,234,,-0.06,0.03,0.97,-0,-0,-0,0.07,,77,0,3,15,98,0.509,0.0,116,1.26,12.8,0.0,1,0.0,0.0,0.0,0,0,0,0,1,,,,,,,,,,,,,,,,,,,,
6744,0,1,2,245,249,240,234,-27,-0.06,0.03,0.97,-0,-0,-0,0.07,1,77,0,3,15,98,0.509,0.0,116,1.26,12.8,0.0,1,0.0,0.0,0.0,0,0,0,0,1,0,250,250,0,0.0,0.0,0.0,0.0,0,0,0.0,0,0.0,-1,0.0,,0.0,0,0.0,0.1124
6764,0,,,245,249,240,234,,-0.06,0.03,0.97,-0,-0,-0,0.07,,77,0,3,15,98,0.509,0.0,116,1.26,12.9,0.0,1,0.0,0.0,0.0,0,0,0,0,1,,,,,,,,,,,,,,,,,,,,
6784,0,,,245,249,239,234,,-0.06,0.03,0.97,-0,-0,-0,0.07,,77,0,3,15,98,0.509,0.0,116,1.26,12.8,0.0,1,0.0,0.0,0.0,0,0,0,0,1,,,,,,,,,,,,,,,,,,,,
6804,0,,,245,250,239,234,,-0.06,0.03,0.97,-0,-0,-0,0.07,,77,0,3,15,98,0.509,0.0,116,1.26,12.8,0.0,1,0.0,0.0,0.0,0,0,0,0,1,,,,,,,,,,,,,,,,,,,,
6824,0,,,245,249,239,234,,-0.06,0.03,0.97,-0,-0,-0,0.07,,77,0,3,15,98,0.509,0.0,116,1.25,12.8,0.0,1,0.0,0.0,0.0,0,0,0,0,1,,,,,,,,,,,,,,,,,,,,
6844,0,0,4,245,249,240,234,-26,-0.06,0.03,0.97,-0,-0,-0,0.07,1,77,0,3,15,98,0.509,0.0,116,1.25,12.8,0.0,1,0.0,0.0,0.0,0,0,0,0,1,0,250,250,0,0.0,0.0,0.0,0.0,0,0,0.0,0,0.0,-1,0.0,0.0,0.0,0,0.0,0.1141
6864,0,,,246,249,240,234,,-0.06,0.03,0.97,-0,-0,-0,0.07,,77,0,3,15,98,0.509,0.0,116,1.25,12.8,0.0,1,0.0,0.0,0.0,0,0,0,0,1,,,,,,,,,,,,,,,,,,,,
6884,0,,,246,249,239,234,,-0.06,0.03,0.97,-0,-0,-0,0.07,,77,0,3,15,98,0.509,0.0,116,1.25,12.8,0.0,1,0.0,0.0,0.0,0,0,0,0,1,,,,,,,,,,,,,,,,,,,,
6904,0,,,245,249,240,234,,-0.06,0.03,0.97,-0,-0,-0,0.07,,77,0,3,15,98,0.509,0.0,116,1.24,12.8,0.0,1,0.0,0.0,0.0,0,0,0,0,1,,,,,,,,,,,,,,,,,,,,
6924,0,,,245,249,240,234,,-0.06,0.03,0.97,-0,-0,-0,0.07,,77,0,3,15,98,0.509,0.0,116,1.24,12.8,0.0,1,0.0,0.0,0.0,0,0,0,0,1,,,,,,,,,,,,,,,,,,,,
6944,0,0,1,245,249,240,234,-27,-0.06,0.03,0.97,-0,-0,-0,0.07,1,77,0,3,15,98,0.509,0.0,116,1.23,13.0,0.0,1,0.0,0.0,0.0,0,0,0,0,1,0,250,250,0,0.0,0.0,0.0,0.0,0,0,0.0,0,0.0,-1,0.0,,0.0,0,0.0,0.1157
6964,0,,,245,249,239,234,,-0.06,0.03,0.97,-0,-0,-0,0.07,,77,0,3,15,98,0.509,0.0,116,1.23,13.0,0.0,1,0.0,0.0,0.0,0,0,0,0,1,,,,,,,,,,,,,,,,,,,,
6984,0,,,245,249,239,234,,-0.06,0.03,0.97,-0,-0,-0,0.07,,77,0,3,15,98,0.509,0.0,116,1.23,13.0,0.0,1,0.0,0.0,0.0,0,0,0,0,1,,,,,,,,,,,,,,,,,,,,
7004,0,,,245,249,239,234,,-0.06,0.03,0.97,-0,-0,-0,0.07,,77,0,3,15,98,0.509,0.0,116,1.23,12.9,0.0,1,0.0,0.0,0.0,0,0,0,0,1,,,,,,,,,,,,,,,,,,,,
7024,0,,,245,249,240,234,,-0.06,0.03,0.97,-0,-0,-0,0.07,,77,0,3,15,98,0.509,0.0,116,1.23,13.0,0.0,1,0.0,0.0,0.0,0,0,0,0,1,,,,,,,,,,,,,,,,,,,,
7044,0,0,4,246,249,240,234,-28,-0.06,0.03,0.97,-0,-0,-0,0.07,1,77,0,3,15,98,0.509,0.0,116,1.23,13.0,0.0,1,0.0,0.0,0.0,0,0,0,0,1,0,250,250,0,0.0,0.0,0.0,0.0,0,0,0.0,0,0.0,-1,0.0,0.0,0.0,0,0.0,0.1174
7064,0,,,245,249,240,234,,-0.06,0.03,0.97,-0,-0,-0,0.07,,77,0,3,15,98,0.508,0.0,116,1.23,13.0,0.0,1,0.0,0.0,0.0,0,0,0,0,1,,,,,,,,,,,,,,,,,,,,
7084,0,,,245,249,240,234,,-0.06,0.03,0.97,-0,-0,-0,0.07,,77,0,3,15,98,0.508,0.0,116,1.23,13.0,0.0,1,0.0,0.0,0.0,0,0,0,0,1,,,,,,,,,,,,,,,,,,,,
7104,0,,,245,249,239,234,,-0.06,0.03,0.97,-0,-0,-0,0.07,,77,0,3,15,98,0.508,0.0,116,1.23,13.0,0.0,1,0.0,0.0,0.0,0,0,0,0,1,,,,,,,,,,,,,,,,,,,,
7124,0,,,245,249,239,234,,-0.06,0.03,0.97,-0,-0,-0,0.07,,77,0,3,15,98,0.508,0.0,116,1.23,13.0,0.0,1,0.0,0.0,0.0,0,0,0,0,1,,,,,,,,,,,,,,,,,,,,
7144,0,0,3,245,249,240,234,-27,-0.06,0.03,0.97,-0,-0,-0,0.07,1,77,0,3,15,98,0.508,0.0,116,1.23,13.0,0.0,1,0.0,0.0,0.0,0,0,0,0,1,0,250,250,0,0.0,0.0,0.0,0.0,0,0,0.0,0,0.0,-1,0.0,,0.0,0,0.0,0.1191
7164,0,,,246,249,239,234,,-0.06,0.03,0.97,-0,-0,-0,0.07,,77,0,3,15,98,0.508,0.0,116,1.23,13.0,0.0,1,0.0,0.0,0.0,0,0,0,0,1,,,,,,,,,,,,,,,,,,,,
7184,0,,,245,249,240,234,,-0.06,0.03,0.97,-0,-0,-0,0.07,,77,0,3,15,98,0.508,0.0,116,1.23,13.0,0.0,1,0.0,0.0,0.0,0,0,0,0,1,,,,,,,,,,,,,,,,,,,,
7204,0,,,245,249,240,234,,-0.06,0.03,0.97,-0,-0,-0,0.07,,77,0,3,15,98,0.508,0.0,116,1.23,13.0,0.0,1,0.0,0.0,0.0,0,0,0,0,1,,,,,,,,,,,,,,,,,,,,
7224,0,,,245,249,240,234,,-0.06,0.03,0.97,-0,-0,-0,0.07,,77,0,3,15,98,0.508,0.0,116,1.23,13.0,0.0,1,0.0,0.0,0.0,0,0,0,0,1,,,,,,,,,,,,,,,,,,,,
7244,0,0,2,246,249,240,234,-27,-0.06,0.03,0.97,-0,-0,-0,0.07,1,77,0,3,15,98,0.508,0.0,116,1.23,13.0,0.0,1,0.0,0.0,0.0,0,0,0,0,1,0,250,250,0,0.0,0.0,0.0,0.0,0,0,0.0,0,0.0,-1,0.0,0.0,0.0,0,0.0,0.1207
7264,0,,,245,249,240,234,,-0.06,0.03,0.97,-0,-0,-0,0.07,,76,0,3,15,98,0.508,0.0,116,1.22,13.0,0.0,1,0.0,0.0,0.0,0,0,0,0,1,,,,,,,,,,,,,,,,,,,,
7284,0,,,246,249,240,234,,-0.06,0.03,0.97,-0,-0,-0,0.07,,76,0,3,15,98,0.508,0.0,116,1.21,13.0,0.0,1,0.0,0.0,0.0,0,0,0,0,1,,,,,,,,,,,,,,,,,,,,
7304,0,,,245,249,239,234,,-0.06,0.03,0.97,-0,-0,-0,0.07,,76,0,3,15,98,0.508,0.0,116,1.21,13.0,0.0,1,0.0,0.0,0.0,0,0,0,0,1,,,,,,,,,,,,,,,,,,,,
7324,0,,,246,249,240,234,,-0.06,0.03,0.97,-0,-0,-0,0.07,,76,0,3,15,98,0.508,0.0,116,1.21,13.0,0.0,1,0.0,0.0,0.0,0,0,0,0,1,,,,,,,,,,,,,,,,,,,,
7344,0,-1,3,245,249,240,234,-27,-0.06,0.03,0.97,-0,-0,-0,0.07,1,76,0,3,15,98,0.508,0.0,116,1.21,13.0,0.0,1,0.0,0.0,0.0,0,0,0,0,1,0,250,250,0,0.0,0.0,0.0,0.0,0,0,0.0,0,0.0,-1,0.0,,0.0,0,0.0,0.1224
7364,0,,,246,249,239,234,,-0.06,0.03,0.97,-0,-0,-0,0.07,,76,0,3,15,98,0.508,0.0,116,1.21,13.0,0.0,1,0.0,0.0,0.0,0,0,0,0,1,,,,,,,,,,,,,,,,,,,,
7384,0,,,245,249,240,234,,-0.06,0.03,0.97,-0,-0,-0,0.07,,76,0,3,15,98,0.508,0.0,116,1.21,13.0,0.0,1,0.0,0.0,0.0,0,0,0,0,1,,,,,,,,,,,,,,,,,,,,
7404,0,,,245,249,239,234,,-0.06,0.03,0.97,-0,-0,-0,0.07,,76,0,3,15,98,0.508,0.0,117,1.21,13.0,0.0,1,0.0,0.0,0.0,0,0,0,0,1,,,,,,,,,,,,,,,,,,,,
7424,0,,,245,249,240,234,,-0.06,0.03,0.97,-0,-0,-0,0.07,,76,0,3,15,98,0.508,0.0,117,1.21,13.0,0.0,1,0.0,0.0,0.0,0,0,0,0,1,,,,,,,,,,,,,,,,,,,,
7444,0,-0,4,245,249,240,234,-26,-0.06,0.03,0.97,-0,-0,-0,0.07,1,76,0,3,15,98,0.508,0.0,117,1.21,13.0,0.0,1,0.0,0.0,0.0,0,0,0,0,1,0,250,250,0,0.0,0.0,0.0,0.0,0,0,0.0,0,0.0,-1,0.0,0.0,0.0,0,0.0,0.1241
7464,0,,,245,249,240,234,,-0.06,0.03,0.97,-0,-0,-0,0.07,,76,0,3,15,98,0.508,0.0,117,1.2,13.0,0.0,1,0.0,0.0,0.0,0,0,0,0,1,,,,,,,,,,,,,,,,,,,,
7484,0,,,245,249,239,234,,-0.06,0.03,0.97,-0,-0,-0,0.07,,76,0,3,15,98,0.508,0.0,117,1.2,13.0,0.0,1,0.0,0.0,0.0,0,0,0,0,1,,,,,,,,,,,,,,,,,,,,
7504,0,,,245,249,240,234,,-0.06,0.03,0.97,-0,-0,-0,0.07,,76,0,3,15,98,0.508,0.0,117,1.2,13.0,0.0,1,0.0,0.0,0.0,0,0,0,0,1,,,,,,,,,,,,,,,,,,,,
7524,0,,,245,249,240,234,,-0.06,0.03,0.97,-0,-0,-0,0.07,,76,0,3,15,98,0.508,0.0,117,1.2,13.0,0.0,1,0.0,0.0,0.0,0,0,0,0,1,,,,,,,,,,,,,,,,,,,,
7544,0,0,2,245,249,240,234,-27,-0.06,0.03,0.97,-0,-0,-0,0.07,1,76,0,3,15,98,0.508,0.0,117,1.2,13.0,0.0,1,0.0,0.0,0.0,0,0,0,0,1,0,250,250,0,0.0,0.0,0.0,0.0,0,0,0.0,0,0.0,-1,0.0,,0.0,0,0.0,0.1257
7564,0,,,245,249,240,234,,-0.06,0.03,0.97,-0,-0,-0,0.07,,76,0,3,15,98,0.508,0.0,117,1.2,13.0,0.0,1,0.0,0.0,0.0,0,0,0,0,1,,,,,,,,,,,,,,,,,,,,
7584,0,,,245,249,239,234,,-0.06,0.03,0.97,-0,-0,-0,0.07,,76,0,3,15,98,0.508,0.0,117,1.2,13.0,0.0,1,0.0,0.0,0.0,0,0,0,0,1,,,,,,,,,,,,,,,,,,,,
7604,0,,,245,249,240,234,,-0.06,0.03,0.97,-0,-0,-0,0.07,,76,0,3,15,98,0.508,0.0,117,1.2,13.0,0.0,1,0.0,0.0,0.0,0,0,0,0,1,,,,,,,,,,,,,,,,,,,,
7624,0,,,245,249,240,234,,-0.06,0.03,0.97,-0,-0,-0,0.07,,76,0,3,15,98,0.508,0.0,117,1.2,13.0,0.0,1,0.0,0.0,0.0,0,0,0,0,1,,,,,,,,,,,,,,,,,,,,
7644,0,0,2,245,249,240,234,-26,-0.06,0.03,0.97,-0,-0,-0,0.07,1,76,0,3,15,98,0.508,0.0,117,1.2,13.0,0.0,1,0.0,0.0,0.0,0,0,0,0,1,0,250,250,0,0.0,0.0,0.0,0.0,0,0,0.0,0,0.0,-1,0.0,0.0,0.0,0,0.0,0.1274
7664,0,,,245,249,239,234,,-0.06,0.03,0.97,-0,-0,-0,0.07,,76,0,3,15,98,0.508,0.0,117,1.19,13.0,0.0,1,0.0,0.0,0.0,0,0,0,0,1,,,,,,,,,,,,,,,,,,,,
7684,0,,,245,249,239,234,,-0.06,0.03,0.97,-0,-0,-0,0.07,,76,0,3,15,98,0.508,0.0,116,1.19,13.0,0.0,1,0.0,0.0,0.0,0,0,0,0,1,,,,,,,,,,,,,,,,,,,,
7704,0,,,245,250,239,234,,-0.06,0.03,0.97,-0,-0,-0,0.07,,76,0,3,15,98,0.508,0.0,116,1.19,13.0,0.0,1,0.0,0.0,0.0,0,0,0,0,1,,,,,,,,,,,,,,,,,,,,
7724,0,,,246,249,240,234,,-0.06,0.03,0.97,-0,-0,-0,0.07,,76,0,3,15,98,0.508,0.0,116,1.18,13.0,0.0,1,0.0,0.0,0.0,0,0,0,0,1,,,,,,,,,,,,,,,,,,,,
7744,0,-0,3,245,249,240,234,-26,-0.06,0.03,0.97,-0,-0,-0,0.07,1,76,0,3,15,98,0.508,0.0,116,1.18,13.0,0.0,1,0.0,0.0,0.0,0,0,0,0,1,0,250,250,0,0.0,0.0,0.0,0.0,0,0,0.0,0,0.0,-1,0.0,,0.0,0,0.0,0.1291
7764,0,,,245,249,240,234,,-0.06,0.03,0.97,-0,-0,-0,0.07,,76,0,3,15,98,0.508,0.0,116,1.18,13.0,0.0,1,0.0,0.0,0.0,0,0,0,0,1,,,,,,,,,,,,,,,,,,,,
7784,0,,,245,249,240,234,,-0.06,0.03,0.97,-0,-0,-0,0.07,,76,0,3,15,98,0.508,0.0,116,1.18,13.0,0.0,1,0.0,0.0,0.0,0,0,0,0,1,,,,,,,,,,,,,,,,,,,,
7804,0,,,246,250,239,234,,-0.06,0.03,0.97,-0,-0,-0,0.07,,76,0,3,15,98,0.508,0.0,116,1.18,13.0,0.0,1,0.0,0.0,0.0,0,0,0,0,1,,,,,,,,,,,,,,,,,,,,
7824,0,,,245,249,240,234,,-0.06,0.03,0.97,-0,-0,-0,0.07,,76,0,3,15,98,0.508,0.0,116,1.18,13.0,0.0,1,0.0,0.0,0.0,0,0,0,0,1,,,,,,,,,,,,,,,,,,,,
