"Interval"|"ms"|0|0|1,"Utc"|"ms"|0|0|1,"Brake_F"|"Bar"|0|2000|10,"Brake_R"|"Bar"|0|2000|10,"Height_RF"|"mm"|0|255|10,"Height_LF"|"mm"|0|255|10,"Height_LR"|"mm"|0|80|10,"Height_RR"|"mm"|0|255|10,"Steering"|"deg"|-100|100|10,"AccelX"|"G"|-3.0|3.0|50,"AccelY"|"G"|-3.0|3.0|50,"AccelZ"|"G"|-3.0|3.0|50,"Yaw"|"Deg/Sec"|-120|120|50,"Pitch"|"Deg/Sec"|-120|120|50,"Roll"|"Deg/Sec"|-120|120|50,"Gsum"|"G"|0.0|3.0|50,"Log_Button"|""|0.0|10.0|10,"WaterTemp"|"C"|0|150|50,"RPM"|"tr/min"|0|14000|50,"TPS"|"%"|0|100|50,"AirTemp"|"C"|0|150|50,"MAP"|"KPa"|0|100|50,"Lambda"|""|0.5|1.5|50,"SpeedDTA"|"kph"|0.0|250.0|50,"OilPress"|"KPa"|0|1500|50,"FuelPressur"|"Bar"|0.0|10.0|50,"Batterie"|"V"|0.0|20.0|50,"ConsoKm"|"L/100km"|0.0|200.0|50,"Gear"|""|0|6|50,"AdvIgnition"|"Deg"|-20.0|70.0|50,"Injection"|"ms"|0.0|10.0|50,"ConsoHr"|"L/Hr"|0.0|10000.0|50,"LC_But_Pres"|""|0|1|50,"LC_Active"|""|0|1|50,"TractionOn"|""|0|1|50,"TractionWet"|""|0|1|50,"FanOn"|""|0|1|50,"RD_Speed"|"km/h"|-30|250|50,"RUD_Speed"|"km/h"|-30|250|50,"LD_Speed"|"km/h"|-30|250|50,"LUD_Speed"|"km/h"|-30|250|50,"Latitude"|"Degrees"|-180.0|180.0|10,"Longitude"|"Degrees"|-180.0|180.0|10,"Speed"|"kph"|0.0|150.0|10,"Altitude"|"m"|0.0|4000.0|10,"GPSSats"|""|0|20|10,"GPSQual"|""|0|5|10,"GPSDOP"|""|0.0|20.0|10,"LapCount"|""|0|0|10,"LapTime"|"Min"|0.0|0.0|10,"Sector"|""|0|0|10,"SectorTime"|"Min"|0.0|0.0|10,"PredTime"|"Min"|0.0|0.0|5,"ElapsedTime"|"Min"|0.0|0.0|10,"CurrentLap"|""|0|0|10,"Distance"|"km"|0.0|0.0|10,"SessionTime"|"Min"|0.0|0.0|10
65463,1622986931614,,,,,,,,0.02,-1.14,0.16,-35,1,-1,1.14,,65,11075,69,24,78,0.77,66.4,717,4.83,13.5,35.5,1,42.5,5.54,23.2,0,0,0,1,0,701,3395,204,652,,,,,,,,,,,,,,,,
65483,1622986931634,,,,,,,,0.09,-1.18,0.17,-35,-0,-4,1.19,,65,11140,73,24,80,0.772,66.1,725,4.78,13.5,43.7,1,42.5,5.62,28.5,0,0,0,1,0,649,3,-26892,654,,,,,,,,,,,,,,,,
65503,1622986931653,,,,,,,,0.05,-1.02,-0.01,-35,-0,-4,1.02,,65,11022,73,24,82,0.785,66.6,712,4.85,13.5,43.7,1,42.3,5.78,28.5,0,0,0,1,0,731,-1346,-10399,666,,,,,,,,,,,,,,,,
65523,1622986931673,,,,,,,,0.11,-1.07,-0.18,-35,-0,-3,1.08,,65,11048,74,25,83,0.798,66.4,720,4.83,13.6,43.7,1,42.2,5.72,28.5,0,0,0,1,0,744,771,11576,665,,,,,,,,,,,,,,,,
65543,1622986931693,-0,3,48,34,20,33,-27,0.11,-1.08,0.0,-35,1,-5,1.08,0,65,11295,74,25,84,0.814,65.8,725,4.82,13.6,43.7,1,42.6,5.74,28.5,0,0,0,1,0,676,17336,-10399,658,45.699558,4.910487,62.87,195.9,4,2,4.2,0,0.0,-1,0.0,,0.0,0,0.08,1.0924
65563,1622986931713,,,,,,,,0.19,-0.94,0.14,-35,2,-3,0.95,,65,11261,74,25,85,0.831,66.5,720,4.8,13.5,43.7,1,42.7,5.75,28.5,0,0,0,1,0,709,-14655,16599,665,,,,,,,,,,,,,,,,
65583,1622986931733,,,,,,,,0.2,-1.0,-0.04,-35,2,-0,1.02,,65,11200,74,25,85,0.853,66.6,717,4.82,13.6,45.6,1,42.6,5.63,30.0,0,0,0,1,0,743,19320,16118,666,,,,,,,,,,,,,,,,
65603,1622986931753,,,,,,,,0.23,-1.01,-0.2,-35,2,1,1.03,,65,11377,74,25,86,0.867,66.5,718,4.82,13.6,45.6,1,42.8,5.63,30.0,0,0,0,1,0,693,6208,1524,665,,,,,,,,,,,,,,,,
65623,1622986931773,,,,,,,,0.24,-1.0,-0.02,-35,-1,-3,1.03,,65,11460,61,25,86,0.89,67.9,724,4.83,13.6,45.6,1,42.9,5.5,30.0,0,0,0,1,0,678,-3584,204,679,,,,,,,,,,,,,,,,
65643,1622986931793,0,2,49,36,24,34,-23,0.27,-1.08,0.12,-35,-1,-5,1.12,0,65,11336,41,25,85,0.905,67.9,722,4.86,13.5,45.6,1,42.7,5.34,30.0,0,0,0,1,0,755,24,-3584,674,45.699539,4.910483,65.41,196.0,4,2,4.2,0,0.0,-1,0.0,0.0,0.0,0,0.08,1.0941
65663,1622986931813,,,,,,,,0.26,-1.01,-0.06,-35,0,-4,1.05,,65,11322,20,25,77,0.927,67.1,727,4.87,13.5,45.6,1,42.8,4.67,30.0,0,0,0,1,0,740,-2836,687,679,,,,,,,,,,,,,,,,
65683,1622986931833,,,,,,,,0.27,-1.0,-0.22,-34,2,-2,1.04,,65,11343,11,25,66,0.94,67.4,725,4.8,13.6,34.6,1,43.0,4.18,23.7,0,0,0,1,0,695,-30207,11069,674,,,,,,,,,,,,,,,,
65703,1622986931853,,,,,,,,0.23,-1.08,-0.03,-35,1,-5,1.11,,65,11154,10,25,58,0.95,68.7,729,4.83,13.6,34.6,1,41.7,3.74,23.7,0,0,0,1,0,719,-27404,-12152,692,,,,,,,,,,,,,,,,
65723,1622986931873,,,,,,,,0.32,-1.04,0.01,-35,1,-1,1.09,,65,10901,11,25,51,0.967,69.2,719,4.85,13.6,34.6,1,39.1,3.41,23.7,0,0,0,1,0,725,-3488,-31068,685,,,,,,,,,,,,,,,,
65743,1622986931893,1,1,47,34,23,34,-18,0.2,-1.04,0.12,-34,3,-2,1.06,0,65,10720,19,25,49,0.976,68.1,711,4.87,13.5,34.6,1,38.5,3.26,23.7,0,0,0,1,0,685,-10344,6208,681,45.699528,4.910477,67.16,196.0,4,2,4.2,0,0.0,-1,0.0,,0.0,0,0.08,1.0957
65763,1622986931913,,,,,,,,0.12,-1.12,0.04,-33,-0,-6,1.13,,65,10563,34,25,53,0.977,69.3,716,4.85,13.6,34.6,1,39.7,3.44,23.7,0,0,0,1,0,668,4909,-3584,676,,,,,,,,,,,,,,,,
65783,1622986931933,,,,,,,,0.04,-1.19,0.2,-32,2,-4,1.19,,65,10521,54,25,63,0.978,68.6,710,4.82,13.6,29.5,1,42.8,4.4,20.3,0,0,0,1,0,668,-27404,3543,686,,,,,,,,,,,,,,,,
65803,1622986931953,,,,,,,,0.09,-1.25,0.02,-32,0,-5,1.26,,65,10800,70,25,70,0.978,68.5,720,4.83,13.5,29.5,1,42.5,5.03,20.3,0,0,0,1,0,667,-388,24845,684,,,,,,,,,,,,,,,,
65823,1622986931973,,,,,,,,0.14,-1.13,-0.03,-32,-0,-3,1.14,,65,11281,82,25,74,0.972,68.4,715,4.83,13.5,29.5,1,42.8,5.24,20.3,0,0,0,1,0,673,-10348,3543,678,,,,,,,,,,,,,,,,
65843,1622986931993,0,2,44,31,26,38,-10,0.18,-1.05,0.14,-32,0,-3,1.07,0,65,11559,89,25,77,0.96,68.9,722,4.83,13.5,29.5,1,43.0,5.44,20.3,0,0,0,1,0,704,-3038,14342,689,45.699512,4.91047,67.68,196.2,4,2,4.2,0,0.0,-1,0.0,0.0,0.0,0,0.08,1.0974
65863,1622986932013,,,,,,,,0.13,-1.13,-0.04,-31,2,-2,1.14,,65,11638,91,25,80,0.941,68.8,726,4.83,13.5,29.5,1,43.0,5.66,20.3,0,0,0,1,0,741,-26380,-2830,688,,,,,,,,,,,,,,,,
65883,1622986932033,,,,,,,,0.07,-1.15,-0.2,-30,2,-1,1.15,,65,11617,91,25,82,0.93,69.1,630,4.8,13.5,43.8,1,43.0,5.79,30.5,0,0,0,1,0,727,8958,-12152,692,,,,,,,,,,,,,,,,
65903,1622986932053,,,,,,,,0.17,-1.04,-0.35,-29,-1,-0,1.06,,65,11588,91,25,83,0.912,69.8,566,4.81,13.5,43.8,1,43.0,5.85,30.5,0,0,0,1,0,702,-2830,-3888,698,,,,,,,,,,,,,,,,
65923,1622986932073,,,,,,,,0.27,-0.95,-0.21,-29,-4,-2,0.98,,65,11446,91,25,84,0.903,69.9,655,4.81,13.6,43.8,1,42.9,5.9,30.5,0,0,0,1,0,712,-3578,-13312,699,,,,,,,,,,,,,,,,
65943,1622986932093,0,3,45,35,21,32,-7,0.24,-1.03,-0.03,-28,-4,-3,1.06,0,65,11356,92,25,85,0.895,69.9,622,4.82,13.4,43.8,1,42.7,5.92,30.5,0,0,0,1,0,706,3543,-3888,695,45.699493,4.910463,69.11,196.2,4,2,4.2,0,0.0,-1,0.0,,0.0,0,0.08,1.0991
65963,1622986932113,,,,,,,,0.27,-1.09,-0.03,-26,-2,-2,1.12,,65,11349,92,25,85,0.883,69.9,667,4.82,13.5,43.8,1,42.7,5.8,30.5,0,0,0,1,0,708,14342,16118,704,,,,,,,,,,,,,,,,
65983,1622986932133,,,,,,,,0.22,-0.89,-0.2,-25,1,1,0.92,,65,11349,92,25,85,0.874,70.7,700,4.8,13.6,43.5,1,42.7,5.8,30.3,0,0,0,1,0,719,-2830,-3450,707,,,,,,,,,,,,,,,,
66003,1622986932155,,,,,,,,0.31,-0.92,-0.35,-25,-0,-1,0.97,,65,11405,92,25,86,0.872,71.1,719,4.82,13.5,43.5,1,42.8,5.63,30.3,0,0,0,1,0,714,24,-2358,711,,,,,,,,,,,,,,,,
66023,1622986932175,,,,,,,,0.34,-0.94,-0.15,-24,-2,-4,1.0,,65,11453,92,25,86,0.87,70.8,720,4.85,13.6,43.5,1,42.9,5.5,30.3,0,0,0,1,0,719,-3584,-3450,708,,,,,,,,,,,,,,,,
66043,1622986932195,-0,3,45,37,23,29,-6,0.34,-0.8,-0.03,-23,-2,-2,0.87,0,65,11460,92,25,86,0.869,71.0,721,4.82,13.6,43.5,1,42.9,5.5,30.3,0,0,0,1,0,719,-3584,-4091,710,45.699478,4.910453,70.68,196.3,4,2,4.2,0,0.0,-1,0.0,0.0,0.0,0,0.09,1.1007
66063,1622986932215,,,,,,,,0.41,-0.68,0.04,-22,-1,-1,0.8,,65,11503,92,25,86,0.867,71.9,719,4.81,13.5,43.5,1,43.0,5.5,30.3,0,0,0,1,0,730,24,-2830,706,,,,,,,,,,,,,,,,
66083,1622986932235,,,,,,,,0.4,-0.72,-0.05,-21,0,-1,0.82,,65,11545,92,25,86,0.875,71.9,722,4.82,13.5,41.0,1,43.0,5.51,29.3,0,0,0,1,0,731,8010,-2314,707,,,,,,,,,,,,,,,,
66103,1622986932253,,,,,,,,0.28,-0.76,-0.21,-21,1,0,0.81,,65,11602,92,25,86,0.886,72.0,716,4.81,13.5,41.0,1,43.0,5.53,29.3,0,0,0,1,0,735,204,1037,729,,,,,,,,,,,,,,,,
66123,1622986932273,,,,,,,,0.35,-0.78,-0.36,-20,-1,2,0.85,,65,11667,92,25,86,0.897,72.4,720,4.84,13.5,41.0,1,43.0,5.56,29.3,0,0,0,1,0,742,-13072,1037,724,,,,,,,,,,,,,,,,
66143,1622986932293,0,1,44,37,24,27,-4,0.49,-0.7,-0.5,-19,-5,2,0.85,0,65,11799,92,25,86,0.908,72.2,720,4.81,13.5,41.0,1,43.0,5.61,29.3,0,0,0,1,0,736,-13312,-2356,722,45.699467,4.910441,72.07,196.4,4,2,4.2,0,0.0,-1,0.0,,0.0,0,0.09,1.1024
66163,1622986932313,,,,,,,,0.53,-0.61,-0.62,-18,-7,0,0.81,,65,11852,92,25,86,0.916,71.9,725,4.83,13.5,41.0,1,43.0,5.63,29.3,0,0,0,1,0,745,-13312,6790,719,,,,,,,,,,,,,,,,
66183,1622986932333,,,,,,,,0.51,-0.54,-0.4,-18,-9,-3,0.74,,65,11844,92,25,86,0.921,73.8,724,4.81,13.6,42.2,1,43.0,5.63,30.9,0,0,0,1,0,750,31988,-3344,729,,,,,,,,,,,,,,,,
66203,1622986932353,,,,,,,,0.44,-0.51,-0.2,-18,-10,-5,0.67,,65,11844,93,25,86,0.925,73.0,707,4.83,13.5,42.2,1,43.0,5.63,30.9,0,0,0,1,0,753,-2830,-3344,734,,,,,,,,,,,,,,,,
66223,1622986932373,,,,,,,,0.37,-0.56,-0.02,-17,-10,-7,0.67,,65,11912,93,25,86,0.928,73.3,721,4.82,13.5,42.2,1,43.0,5.66,30.9,0,0,0,1,0,747,31988,-3344,740,,,,,,,,,,,,,,,,
66243,1622986932393,-0,2,44,36,23,27,-5,0.33,-0.59,0.15,-17,-11,-8,0.68,0,65,12011,93,25,85,0.928,73.6,714,4.83,13.5,42.2,1,43.0,5.55,30.9,0,0,0,1,0,752,31988,-2574,739,45.699451,4.910428,73.29,196.5,4,2,4.2,0,0.0,-1,0.0,0.0,0.0,0,0.09,1.1041
66263,1622986932413,,,,,,,,0.25,-0.59,0.3,-16,-12,-10,0.64,,65,12073,93,25,86,0.925,73.9,726,4.81,13.5,42.2,1,43.0,5.55,30.9,0,0,0,1,0,754,-4091,-3038,742,,,,,,,,,,,,,,,,
66283,1622986932433,,,,,,,,0.22,-0.63,0.44,-16,-13,-12,0.67,,65,12065,93,25,86,0.924,75.0,719,4.86,13.5,43.3,1,43.0,5.7,31.9,0,0,0,1,0,761,-2314,-10212,740,,,,,,,,,,,,,,,,
66303,1622986932453,,,,,,,,0.22,-0.65,0.57,-16,-16,-14,0.68,,65,12128,93,25,86,0.921,74.8,720,4.82,13.6,43.3,1,43.0,5.7,31.9,0,0,0,1,0,770,1037,-2344,748,,,,,,,,,,,,,,,,
66323,1622986932459,,,,,,,,0.23,-0.66,0.67,-15,-18,-14,0.7,,65,12199,93,25,87,0.915,75.1,724,4.82,13.5,43.3,1,43.0,5.84,31.9,0,0,0,1,0,771,-3344,13016,751,,,,,,,,,,,,,,,,
66343,1622986932479,-0,2,45,39,23,26,-3,0.3,-0.52,0.6,-15,-18,-14,0.6,0,65,12254,93,25,86,0.91,74.4,730,4.82,13.6,43.3,1,43.0,5.7,31.9,0,0,0,1,0,767,-4096,-10214,744,45.699432,4.910415,74.75,196.4,4,2,4.2,0,0.0,-1,0.0,,0.0,0,0.09,1.1057
66363,1622986932499,,,,,,,,0.37,-0.49,0.38,-14,-19,-12,0.62,,65,12295,93,25,86,0.903,75.1,728,4.83,13.6,43.3,1,43.0,5.7,31.9,0,0,0,1,0,773,-31066,-2570,757,,,,,,,,,,,,,,,,
66383,1622986932519,,,,,,,,0.38,-0.49,0.18,-13,-17,-8,0.61,,65,12319,93,25,85,0.897,75.5,730,4.83,13.5,43.5,1,43.0,5.55,32.5,0,0,0,1,0,786,-23308,-31066,762,,,,,,,,,,,,,,,,
66403,1622986932553,,,,,,,,0.29,-0.58,0.0,-12,-15,-6,0.64,,65,12319,93,25,86,0.888,75.9,725,4.82,13.5,43.5,1,43.0,5.7,32.5,0,0,0,1,0,777,-22795,-31066,759,,,,,,,,,,,,,,,,
66423,1622986932573,,,,,,,,0.23,-0.54,-0.07,-12,-13,-5,0.59,,66,12351,93,25,85,0.875,76.9,730,4.81,13.5,43.5,1,43.0,5.55,32.5,0,0,0,1,0,782,-2344,-2570,764,,,,,,,,,,,,,,,,
66443,1622986932593,-0,2,43,40,24,25,-0,0.28,-0.41,-0.1,-11,-11,-4,0.5,0,66,12417,93,25,86,0.862,76.1,728,4.81,13.5,43.5,1,43.0,5.7,32.5,0,0,0,1,0,781,-2766,5876,766,45.699417,4.910402,76.74,196.4,4,2,4.2,0,0.0,-1,0.0,0.0,0.0,0,0.09,1.1074
66463,1622986932613,,,,,,,,0.25,-0.23,0.07,-10,-9,-4,0.34,,66,12508,93,25,85,0.845,76.9,738,4.81,13.5,43.5,1,43.0,5.55,32.5,0,0,0,1,0,782,13016,-2426,769,,,,,,,,,,,,,,,,
66483,1622986932633,,,,,,,,0.24,-0.27,-0.03,-9,-7,-4,0.36,,66,12533,93,25,85,0.834,77.5,733,4.82,13.6,41.7,1,43.0,4.4,32.1,0,0,0,1,0,789,-23308,6389,763,,,,,,,,,,,,,,,,
66503,1622986932652,,,,,,,,0.28,-0.34,-0.19,-9,-5,-5,0.44,,66,12541,93,25,85,0.821,77.6,734,4.82,13.5,41.7,1,43.0,5.55,32.1,0,0,0,1,0,792,6900,-7436,764,,,,,,,,,,,,,,,,
66523,1622986932672,,,,,,,,0.21,-0.28,-0.34,-8,-2,-3,0.35,,66,12592,93,25,85,0.804,77.7,735,4.8,13.5,41.7,1,43.0,5.55,32.1,0,0,0,1,0,796,-31068,6905,777,,,,,,,,,,,,,,,,
66543,1622986932692,0,1,42,41,25,24,1,0.22,-0.27,-0.48,-7,0,-2,0.34,0,66,12660,93,25,85,0.791,77.6,727,4.8,13.5,41.7,1,43.0,5.55,32.1,0,0,0,1,0,796,-31066,-3888,774,45.699402,4.910387,78.33,196.4,4,2,4.2,0,0.0,-1,0.0,,0.0,0,0.1,1.1091
66563,1622986932712,,,,,,,,0.2,-0.35,-0.34,-6,2,-2,0.41,,66,12711,93,25,85,0.78,78.2,733,4.83,13.5,41.7,1,43.0,5.55,32.1,0,0,0,1,0,803,-2570,-3888,782,,,,,,,,,,,,,,,,
66583,1622986932732,,,,,,,,0.28,-0.3,-0.2,-6,-1,-5,0.41,,66,12781,93,25,85,0.774,78.9,739,4.82,13.5,41.7,1,43.0,5.55,32.8,0,0,0,1,0,803,-31066,-13312,789,,,,,,,,,,,,,,,,
66603,1622986932752,,,,,,,,0.18,-0.28,-0.35,-5,-0,-2,0.34,,66,12789,93,25,85,0.765,79.1,739,4.82,13.5,41.7,1,43.0,5.55,32.8,0,0,0,1,0,805,-2426,-31068,779,,,,,,,,,,,,,,,,
66623,1622986932772,,,,,,,,0.22,-0.24,-0.37,-4,0,-2,0.32,,66,12807,93,25,84,0.758,79.9,739,4.82,13.5,41.7,1,43.0,5.41,32.8,0,0,0,1,0,815,-8148,-388,783,,,,,,,,,,,,,,,,
66643,1622986932792,1,2,40,42,26,24,2,0.16,-0.16,-0.21,-3,1,-1,0.23,0,66,12868,93,25,84,0.752,80.1,744,4.82,13.5,41.7,1,43.0,5.41,32.8,0,0,0,1,0,811,-13072,-2830,795,45.699387,4.910373,79.4,196.4,4,2,4.2,0,0.0,-1,0.0,0.0,0.0,0,0.1,1.1107
66663,1622986932812,,,,,,,,0.25,-0.16,-0.36,-3,1,-3,0.3,,66,12939,93,25,85,0.748,79.6,742,4.82,13.5,41.7,1,43.0,5.55,32.8,0,0,0,1,0,814,-1566,-2830,796,,,,,,,,,,,,,,,,
66683,1622986932832,,,,,,,,0.2,-0.09,-0.5,-3,4,-1,0.22,,66,13011,93,25,84,0.745,79.9,736,4.82,13.6,40.8,1,43.0,5.41,32.4,0,0,0,1,0,816,-10216,-388,795,,,,,,,,,,,,,,,,
66703,1622986932852,,,,,,,,0.17,-0.15,-0.33,-2,4,-2,0.23,,66,13020,93,25,85,0.742,80.2,732,4.81,13.5,40.8,1,43.0,5.55,32.4,0,0,0,1,0,823,204,-13068,802,,,,,,,,,,,,,,,,
66723,1622986932872,,,,,,,,0.28,-0.15,-0.42,-2,1,-2,0.32,,66,13029,93,25,84,0.738,80.6,737,4.83,13.5,40.8,1,43.0,5.41,32.4,0,0,0,1,0,826,204,-2314,806,,,,,,,,,,,,,,,,
66743,1622986932892,0,3,40,41,25,23,0,0.24,-0.07,-0.51,-2,-0,-2,0.25,0,66,13029,93,25,85,0.737,80.1,739,4.81,13.4,40.8,1,43.0,5.55,32.4,0,0,0,1,0,829,-13072,-2826,801,45.699368,4.910358,80.64,196.4,4,2,4.2,0,0.0,-1,0.0,,0.0,0,0.1,1.1124
66763,1622986932912,,,,,,,,0.22,0.02,-0.32,-1,-0,-1,0.22,,66,12975,93,25,84,0.736,81.7,737,4.81,13.5,40.8,1,43.0,5.41,32.4,0,0,0,1,0,826,-388,-22796,803,,,,,,,,,,,,,,,,
66783,1622986932932,,,,,,,,0.3,-0.02,-0.46,-1,-0,-1,0.3,,66,13121,93,25,84,0.735,81.6,739,4.82,13.5,40.1,1,43.0,5.41,32.6,0,0,0,1,0,821,-2830,-2826,816,,,,,,,,,,,,,,,,
66803,1622986932954,,,,,,,,0.37,-0.05,-0.59,-1,1,-0,0.38,,66,13232,93,25,84,0.734,81.4,737,4.81,13.5,40.1,1,43.0,5.41,32.6,0,0,0,1,0,830,-4091,136,809,,,,,,,,,,,,,,,,
66823,1622986932974,,,,,,,,0.36,0.02,-0.37,-1,-2,-3,0.36,,66,13288,93,25,84,0.733,81.8,737,4.84,13.5,40.1,1,43.0,5.41,32.6,0,0,0,1,0,830,31988,-31068,819,,,,,,,,,,,,,,,,
66843,1622986932994,2,1,39,36,26,25,0,0.29,-0.02,-0.49,-1,-3,-1,0.29,0,66,13260,92,25,84,0.733,82.7,735,4.8,13.5,40.1,1,43.0,5.41,32.6,0,0,0,1,0,848,-3580,-2356,820,45.699352,4.910343,82.02,196.4,4,2,4.2,0,0.0,-1,0.0,0.0,0.0,0,0.1,1.1141
66863,1622986933014,,,,,,,,0.23,0.05,-0.28,-1,-2,-0,0.24,,66,13260,81,25,84,0.733,81.3,752,4.81,13.5,40.1,1,43.0,5.28,32.6,0,0,0,1,0,836,-388,-4096,813,,,,,,,,,,,,,,,,
66883,1622986933034,,,,,,,,0.2,0.12,-0.43,-1,0,-1,0.23,,66,13354,64,25,84,0.733,81.1,746,4.85,13.5,39.6,1,43.0,5.28,32.5,0,0,0,1,0,834,1524,6790,810,,,,,,,,,,,,,,,,
66903,1622986933052,,,,,,,,0.25,-0.03,-0.48,-1,4,-2,0.25,,66,13335,39,25,83,0.733,81.3,734,4.84,13.7,39.6,1,43.0,5.14,32.5,0,0,0,1,0,836,-30694,6790,823,,,,,,,,,,,,,,,,
66923,1622986933072,,,,,,,,0.28,-0.02,-0.32,-1,2,-2,0.28,,66,13232,15,25,74,0.732,81.2,738,4.81,13.5,39.6,1,43.0,4.65,32.5,0,0,0,1,0,851,-388,136,803,,,,,,,,,,,,,,,,
66943,1622986933092,24,13,38,36,27,28,0,0.19,0.01,-0.46,-1,3,-2,0.19,0,66,12975,4,25,62,0.732,81.5,738,4.8,13.5,39.6,1,43.0,3.91,32.5,0,0,0,1,0,840,-2830,-4096,811,45.699333,4.910328,83.5,196.3,4,2,4.2,0,0.0,-1,0.0,,0.0,0,0.1,1.1157
66963,1622986933112,,,,,,,,0.1,-0.0,-0.33,-1,4,-0,0.1,,66,12500,4,25,53,0.732,81.2,739,4.83,13.5,39.6,1,39.7,3.9,32.5,0,0,0,1,0,824,11277,-13580,812,,,,,,,,,,,,,,,,
66983,1622986933132,,,,,,,,0.04,0.09,-0.18,-1,6,-2,0.1,,66,12222,4,25,47,0.734,81.8,728,4.83,13.6,25.3,1,38.0,3.31,20.9,0,0,0,1,0,806,-2358,-31068,810,,,,,,,,,,,,,,,,
67003,1622986933152,,,,,,,,-0.13,0.18,0.0,-1,7,-1,0.22,,66,11950,4,25,42,0.736,79.8,729,4.84,13.5,25.3,1,34.8,3.12,20.9,0,0,0,1,0,801,-10212,6905,799,,,,,,,,,,,,,,,,
67023,1622986933172,,,,,,,,-0.17,0.27,0.03,-1,9,0,0.32,,66,11674,4,25,39,0.739,79.1,727,4.85,13.6,25.3,1,32.3,2.95,20.9,0,0,0,1,0,777,5876,3544,791,,,,,,,,,,,,,,,,
67043,1622986933192,59,30,23,21,32,31,2,-0.17,0.3,0.12,-1,6,0,0.35,0,66,11453,4,25,36,0.741,78.9,725,4.85,13.6,25.3,1,31.1,2.89,20.9,0,0,0,1,0,795,3544,5876,789,45.699314,4.910313,84.44,196.3,4,2,4.2,0,0.0,-1,0.0,0.0,0.0,0,0.11,1.1174
67063,1622986933212,,,,,,,,-0.33,0.3,-0.02,-1,7,-1,0.45,,66,11295,4,25,34,0.748,76.8,719,4.84,13.5,25.3,1,30.5,2.86,20.9,0,0,0,1,0,736,-22795,-31066,767,,,,,,,,,,,,,,,,
67083,1622986933232,,,,,,,,-0.34,0.23,-0.19,-1,6,2,0.41,,66,11234,4,25,32,0.756,75.6,721,4.84,13.6,19.6,1,30.0,2.83,14.9,0,0,0,1,0,675,-2826,-2314,748,,,,,,,,,,,,,,,,
67103,1622986933252,,,,,,,,-0.48,0.34,-0.0,-0,5,-1,0.58,,66,11016,4,25,31,0.764,74.2,715,4.82,13.6,19.6,1,29.5,2.81,14.9,0,0,0,1,0,664,-2314,-3038,739,,,,,,,,,,,,,,,,
67123,1622986933272,,,,,,,,-0.56,0.35,-0.07,0,8,-1,0.67,,66,10763,4,25,30,0.772,71.4,723,4.83,13.5,19.6,1,29.1,2.79,14.9,0,0,0,1,0,676,204,3395,695,,,,,,,,,,,,,,,,
67143,1622986933292,66,37,14,16,39,39,3,-0.61,0.28,-0.13,0,6,-2,0.67,0,66,10510,4,25,29,0.789,69.1,722,4.81,13.6,19.6,1,28.7,2.77,14.9,0,0,0,1,0,601,6208,-28648,655,45.699295,4.910298,84.52,196.2,4,2,4.2,0,0.0,-1,0.0,,0.0,0,0.11,1.1191
67163,1622986933312,,,,,,,,-0.68,0.23,0.05,1,7,-3,0.72,,66,10229,4,25,28,0.812,67.2,712,4.85,13.5,19.6,1,28.2,2.65,14.9,0,0,0,1,0,546,-3038,2524,656,,,,,,,,,,,,,,,,
67183,1622986933332,,,,,,,,-0.65,0.17,-0.03,1,6,-3,0.67,,66,9403,4,25,28,0.839,64.3,703,4.84,13.5,18.8,1,28.2,2.5,12.0,0,0,0,1,0,601,244,-3210,591,,,,,,,,,,,,,,,,
67203,1622986933352,,,,,,,,-0.7,0.12,-0.19,1,6,-3,0.71,,66,8720,4,24,27,0.862,60.3,693,4.76,13.5,18.8,1,27.8,2.48,12.0,0,0,0,1,0,605,-7939,-2830,540,,,,,,,,,,,,,,,,
67223,1622986933372,,,,,,,,-0.81,0.2,-0.07,1,4,-4,0.83,,66,8499,4,24,27,0.877,54.3,685,4.86,13.7,18.8,1,27.8,2.47,12.0,0,0,0,1,0,590,2088,-2830,472,,,,,,,,,,,,,,,,
67243,1622986933392,51,25,15,16,41,40,4,-0.8,0.26,-0.04,1,5,-4,0.84,0,66,8263,4,24,26,0.885,47.6,678,4.87,13.6,18.8,1,27.3,2.29,12.0,0,0,0,1,0,604,-17956,-2826,411,45.699276,4.910283,81.86,196.2,4,2,4.2,0,0.0,-1,0.0,0.0,0.0,0,0.11,1.1207
67263,1622986933412,,,,,,,,-0.85,0.21,0.08,1,5,-6,0.88,,66,8109,4,24,26,0.896,44.7,587,4.88,13.7,18.8,1,27.3,1.02,12.0,0,0,0,1,0,568,10305,8488,365,,,,,,,,,,,,,,,,
67283,1622986933432,,,,,,,,-0.86,0.2,-0.09,1,6,-5,0.88,,66,8106,4,24,26,0.908,40.9,600,4.9,13.6,22.4,1,27.3,2.22,8.2,0,0,0,1,0,561,11545,17136,332,,,,,,,,,,,,,,,,
67303,1622986933452,,,,,,,,-0.84,0.21,-0.0,1,4,-5,0.87,,66,7999,4,24,25,0.915,37.0,660,4.86,13.7,22.4,1,26.9,2.11,8.2,0,0,0,1,0,510,486,248,292,,,,,,,,,,,,,,,,
67323,1622986933458,,,,,,,,-0.86,0.11,0.08,1,4,-6,0.86,,66,7851,14,24,26,0.915,31.3,651,4.91,13.7,22.4,1,27.1,2.09,8.2,0,0,0,1,0,476,-30976,10305,272,,,,,,,,,,,,,,,,
67343,1622986933478,46,24,14,15,41,40,6,-0.93,0.04,0.24,1,3,-8,0.93,0,66,7656,29,24,33,0.916,26.6,660,4.92,13.7,22.4,1,29.2,2.01,8.2,0,0,0,1,0,475,-1484,-1923,220,45.699261,4.910269,78.28,196.2,4,2,4.2,0,0.0,-1,0.0,,0.0,0,0.11,1.1224
67363,1622986933498,,,,,,,,-0.95,-0.01,0.18,1,3,-7,0.95,,66,7437,40,24,46,0.916,19.2,647,4.86,13.6,22.4,1,34.2,1.17,8.2,0,0,0,1,0,480,250,16648,182,,,,,,,,,,,,,,,,
67383,1622986933518,,,,,,,,-0.97,-0.07,0.17,0,2,-8,0.97,,66,7446,47,24,62,0.908,15.2,661,4.88,13.6,57.2,1,38.2,2.82,8.7,0,0,0,1,0,471,13862,-1923,152,,,,,,,,,,,,,,,,
67403,1622986933552,,,,,,,,-0.94,-0.16,0.07,0,1,-8,0.95,,66,7728,48,24,73,0.896,12.2,663,4.86,13.6,57.2,1,39.6,4.45,8.7,0,0,0,1,0,451,13862,-8985,82,,,,,,,,,,,,,,,,
67423,1622986933572,,,,,,,,-0.95,-0.13,-0.11,1,1,-6,0.96,,66,7832,48,24,82,0.879,12.2,670,4.87,13.6,57.2,1,37.6,5.32,8.7,0,0,0,1,0,449,13862,-768,82,,,,,,,,,,,,,,,,
67443,1622986933592,47,23,15,15,40,39,-1,-0.93,-0.05,-0.1,0,-1,-5,0.93,0,66,8026,48,24,88,0.858,12.2,671,4.82,13.7,57.2,1,36.1,6.13,8.7,0,0,0,1,0,447,13862,-3322,82,45.699245,4.910255,74.95,196.2,4,2,4.2,0,0.0,-1,0.0,0.0,0.0,0,0.12,1.1241
67463,1622986933612,,,,,,,,-0.93,-0.14,-0.22,0,-2,-5,0.94,,66,8270,47,24,91,0.846,12.2,677,4.84,13.6,57.2,1,40.0,4.73,8.7,0,0,0,1,0,474,13862,-3210,82,,,,,,,,,,,,,,,,
67483,1622986933632,,,,,,,,-0.98,-0.08,-0.16,-0,-2,-6,0.98,,66,8557,38,24,90,0.837,12.2,678,4.86,13.6,331.7,1,43.1,5.1,27.2,0,0,0,1,0,578,13862,-28648,82,,,,,,,,,,,,,,,,
67503,1622986933651,,,,,,,,-0.99,0.03,-0.1,-0,-2,-6,0.99,,66,9182,23,24,83,0.828,12.2,688,4.96,13.6,331.7,1,38.8,6.12,27.2,0,0,0,1,0,621,13862,19320,82,,,,,,,,,,,,,,,,
67523,1622986933671,,,,,,,,-0.96,0.13,-0.26,-1,-1,-5,0.97,,66,9868,6,24,71,0.816,12.2,698,4.88,13.5,331.7,1,40.1,4.31,27.2,0,0,0,1,0,615,13862,-30139,82,,,,,,,,,,,,,,,,
67543,1622986933691,52,27,17,19,38,36,-6,-1.01,0.01,-0.07,-1,-1,-5,1.01,0,66,10302,4,24,60,0.812,12.2,704,4.82,13.6,331.7,1,41.8,3.67,27.2,0,0,0,1,0,599,13862,-768,82,45.69923,4.910243,72.01,196.2,4,2,4.2,0,0.0,-1,0.0,,0.0,0,0.12,1.1257
67563,1622986933711,,,,,,,,-0.99,-0.16,-0.02,-1,-0,-5,1.0,,66,10451,4,24,50,0.821,12.2,710,4.87,13.6,331.7,1,38.8,3.39,27.2,0,0,0,1,0,612,13862,3403,82,,,,,,,,,,,,,,,,
67583,1622986933731,,,,,,,,-0.88,-0.19,0.08,-2,-1,-4,0.9,,66,9904,5,24,45,0.826,12.2,706,4.78,13.6,190.2,1,36.5,3.02,15.6,0,0,0,1,0,619,13862,966,82,,,,,,,,,,,,,,,,
67603,1622986933753,,,,,,,,-0.92,-0.12,0.14,-2,-2,-5,0.93,,66,9309,9,24,41,0.835,12.2,696,4.9,13.6,190.2,1,33.3,2.83,15.6,0,0,0,1,0,618,13862,-18357,82,,,,,,,,,,,,,,,,
67623,1622986933773,,,,,,,,-0.94,-0.11,0.26,-2,-2,-6,0.95,,66,8873,13,24,40,0.838,12.2,688,4.81,13.6,190.2,1,32.6,3.16,15.6,0,0,0,1,0,604,13862,17740,82,,,,,,,,,,,,,,,,
67643,1622986933793,49,23,20,19,37,35,2,-0.95,0.05,0.26,-2,-2,-6,0.96,0,66,8720,16,24,41,0.836,12.2,686,4.9,13.6,190.2,1,33.2,3.16,15.6,0,0,0,1,0,590,13862,-3210,82,45.699215,4.910231,68.92,196.3,4,2,4.2,0,0.0,-1,0.0,0.0,0.0,0,0.12,1.1274
67663,1622986933813,,,,,,,,-0.94,0.06,0.07,-2,-2,-4,0.94,,66,8488,17,24,44,0.832,12.2,682,4.86,13.7,190.2,1,35.0,3.19,15.6,0,0,0,1,0,575,13862,-4035,82,,,,,,,,,,,,,,,,
67683,1622986933833,,,,,,,,-0.92,-0.07,-0.0,-2,-2,-5,0.93,,66,8374,17,24,45,0.829,12.2,681,4.88,13.6,150.0,1,35.5,3.09,12.3,0,0,0,1,0,567,13862,1760,82,,,,,,,,,,,,,,,,
67703,1622986933851,,,,,,,,-0.97,-0.12,-0.04,-1,-1,-4,0.98,,66,8274,17,24,47,0.827,12.2,682,4.88,13.6,150.0,1,36.8,3.01,12.3,0,0,0,1,0,564,13862,6273,82,,,,,,,,,,,,,,,,
67723,1622986933871,,,,,,,,-0.92,0.0,-0.2,-1,1,-1,0.92,,66,8426,15,24,47,0.831,12.2,681,4.87,13.6,150.0,1,36.9,3.17,12.3,0,0,0,1,0,525,13862,-32248,82,,,,,,,,,,,,,,,,
67743,1622986933891,56,28,18,17,38,37,7,-0.92,-0.11,-0.25,-1,-1,-3,0.93,0,66,8542,13,24,45,0.835,12.2,680,4.86,13.6,150.0,1,35.7,3.19,12.3,0,0,0,1,0,498,13862,-6441,82,45.699204,4.910218,66.14,196.3,4,2,4.2,0,0.0,-1,0.0,,0.0,0,0.12,1.1291
67763,1622986933911,,,,,,,,-0.95,-0.03,-0.06,-1,-2,-3,0.95,,66,8507,10,24,43,0.838,12.2,680,4.88,13.5,150.0,1,34.5,2.81,12.3,0,0,0,1,0,493,13862,-3210,82,,,,,,,,,,,,,,,,
67783,1622986933931,,,,,,,,-0.94,-0.0,-0.23,-1,-1,-2,0.94,,66,8430,8,24,40,0.842,12.2,683,4.88,13.6,132.9,1,32.4,1.57,10.9,0,0,0,1,0,496,13862,17628,82,,,,,,,,,,,,,,,,
67803,1622986933951,,,,,,,,-0.95,-0.03,-0.33,-1,-2,-3,0.95,,66,8259,8,24,37,0.837,12.2,677,4.88,13.7,132.9,1,30.9,2.42,10.9,0,0,0,1,0,504,13862,8488,82,,,,,,,,,,,,,,,,
67823,1622986933971,,,,,,,,-0.98,0.06,-0.47,-1,-1,-1,0.98,,66,7958,8,24,36,0.833,12.2,674,4.9,13.6,132.9,1,30.1,2.17,10.9,0,0,0,1,0,522,13862,-32248,82,,,,,,,,,,,,,,,,
67843,1622986933991,54,28,17,17,38,37,1,-0.94,0.07,-0.6,-1,-0,1,0.94,0,66,7678,8,24,35,0.827,12.2,675,4.94,13.6,132.9,1,29.8,2.11,10.9,0,0,0,1,0,518,13862,2524,82,45.699192,4.910207,63.37,196.3,4,2,4.2,0,0.0,-1,0.0,0.0,0.0,0,0.12,1.1307
67863,1622986934011,,,,,,,,-0.93,0.16,-0.72,-1,-0,1,0.94,,66,7452,8,24,35,0.819,12.2,671,4.85,13.6,132.9,1,29.8,2.11,10.9,0,0,0,1,0,509,13862,-22519,82,,,,,,,,,,,,,,,,
67883,1622986934031,,,,,,,,-0.97,0.19,-0.82,-1,-0,1,0.99,,66,7228,8,24,35,0.816,8.2,666,4.85,13.6,87.8,1,29.8,2.11,7.2,0,0,0,1,0,503,250,-6441,82,,,,,,,,,,,,,,,,
67903,1622986934051,,,,,,,,-1.01,0.11,-0.67,-1,-2,-1,1.01,,66,7054,7,24,34,0.815,0.0,661,4.89,13.8,87.8,1,29.5,2.06,7.2,0,0,0,1,0,497,250,505,0,,,,,,,,,,,,,,,,
67923,1622986934071,,,,,,,,-0.97,0.12,-0.61,-1,-1,-0,0.98,,66,6931,7,24,34,0.814,0.0,658,4.83,13.8,87.8,1,29.4,2.06,7.2,0,0,0,1,0,477,250,-17956,0,,,,,,,,,,,,,,,,
67943,1622986934091,49,26,16,17,39,39,5,-0.97,0.15,-0.73,-1,-1,-0,0.99,0,66,6952,7,24,34,0.813,0.0,661,4.85,13.6,87.8,1,29.4,2.06,7.2,0,0,0,1,0,401,250,3571,0,45.699177,4.910196,60.48,196.3,4,2,4.2,0,0.0,-1,0.0,,0.0,0,0.13,1.1324
67963,1622986934111,,,,,,,,-0.94,0.12,-0.5,-1,-2,-1,0.95,,66,6878,7,24,34,0.816,0.0,659,4.92,13.8,87.8,1,29.4,2.06,7.2,0,0,0,1,0,368,250,-3414,0,,,,,,,,,,,,,,,,
67983,1622986934131,,,,,,,,-1.01,0.16,-0.63,-1,-0,0,1.02,,66,6691,7,24,34,0.815,0.0,655,4.87,13.6,0.0,1,29.3,2.06,6.5,0,0,0,1,0,379,250,-26615,0,,,,,,,,,,,,,,,,
68003,1622986934149,,,,,,,,-0.94,0.03,-0.41,-0,-0,1,0.94,,66,6533,7,24,34,0.816,0.0,653,4.85,13.8,0.0,1,29.1,2.06,6.5,0,0,0,1,0,388,250,-4082,0,,,,,,,,,,,,,,,,
68023,1622986934169,,,,,,,,-0.9,0.06,-0.41,-0,-4,-3,0.9,,66,6388,7,24,34,0.816,0.0,648,4.86,13.7,0.0,1,29.0,0.91,6.5,0,0,0,1,0,410,250,26704,0,,,,,,,,,,,,,,,,
68043,1622986934189,45,23,16,13,39,38,6,-0.97,0.04,-0.54,-0,-3,-3,0.98,0,66,6227,7,24,34,0.823,0.0,642,4.85,13.6,0.0,1,28.9,2.06,6.5,0,0,0,1,0,416,250,-3314,0,45.699169,4.910186,56.94,196.3,4,2,4.2,0,0.0,-1,0.0,0.0,0.0,0,0.13,1.1341
68063,1622986934209,,,,,,,,-1.04,0.06,-0.66,-0,-1,-1,1.04,,66,6111,7,24,34,0.831,0.0,642,4.83,13.6,0.0,1,28.8,2.06,6.5,0,0,0,1,0,412,250,3635,0,,,,,,,,,,,,,,,,
68083,1622986934229,,,,,,,,-1.07,0.09,-0.77,0,3,3,1.08,,66,6111,8,24,35,0.84,0.0,641,4.84,13.6,0.0,1,29.0,2.11,5.9,0,0,0,1,0,381,250,-6656,0,,,,,,,,,,,,,,,,
68103,1622986934253,,,,,,,,-1.15,0.12,-0.88,0,7,6,1.16,,66,6021,8,24,35,0.849,0.0,642,4.77,13.7,0.0,1,29.0,2.11,5.9,0,0,0,1,0,360,250,6668,0,,,,,,,,,,,,,,,,
68123,1622986934273,,,,,,,,-1.2,0.14,-0.97,0,9,8,1.21,,66,5841,11,24,37,0.859,0.0,637,4.83,13.6,0.0,1,28.9,2.26,5.9,0,0,0,1,0,384,250,6668,0,,,,,,,,,,,,,,,,
68143,1622986934293,38,17,16,16,39,38,7,-1.27,0.19,-1.05,0,8,7,1.28,0,66,5719,20,24,41,0.879,0.0,632,4.83,13.8,0.0,1,29.5,2.44,5.9,0,0,0,1,0,421,250,28553,0,45.699154,4.910176,53.71,196.3,4,2,4.2,0,0.0,-1,0.0,,0.0,0,0.13,1.1357
68163,1622986934313,,,,,,,,-1.19,0.19,-0.8,-0,4,4,1.2,,66,5618,32,24,51,0.898,0.0,633,4.93,13.8,0.0,1,31.4,1.39,5.9,0,0,0,1,0,409,250,-31744,0,,,,,,,,,,,,,,,,
68183,1622986934333,,,,,,,,-1.09,0.11,-0.57,-0,3,2,1.09,,66,5835,39,24,66,0.924,0.0,637,4.94,13.8,0.0,1,35.2,3.28,7.3,0,0,0,1,0,372,250,-6656,0,,,,,,,,,,,,,,,,
68203,1622986934353,,,,,,,,-0.95,0.08,-0.35,-0,-1,0,0.95,,66,6149,39,24,79,0.94,0.0,646,4.91,13.8,0.0,1,38.4,4.85,7.3,0,0,0,1,0,350,250,-992,0,,,,,,,,,,,,,,,,
68223,1622986934373,,,,,,,,-0.92,-0.04,-0.17,-1,-5,-3,0.92,,66,6294,39,24,87,0.948,0.0,649,4.87,13.8,0.0,1,41.7,3.44,7.3,0,0,0,1,0,352,250,9517,0,,,,,,,,,,,,,,,,
68243,1622986934393,24,12,16,17,38,38,11,-0.94,0.02,-0.32,-1,-4,-2,0.94,0,66,6505,37,24,91,0.959,0.0,650,4.87,13.6,0.0,1,44.9,5.43,7.3,0,0,0,1,0,385,250,10392,0,45.699146,4.910167,50.64,196.3,4,2,4.2,0,0.0,-1,0.0,0.0,0.0,0,0.13,1.1374
68263,1622986934413,,,,,,,,-0.92,0.07,-0.13,-1,-4,-1,0.92,,66,6722,33,24,91,0.973,8.7,650,4.88,13.8,0.0,1,47.1,4.44,7.3,0,0,0,1,0,399,250,11545,87,,,,,,,,,,,,,,,,
68283,1622986934433,,,,,,,,-0.88,0.18,-0.29,-1,-2,-0,0.9,,66,7208,23,24,88,0.979,13.9,661,4.83,13.7,111.4,1,46.0,4.32,13.6,0,0,0,1,0,399,-1,6384,139,,,,,,,,,,,,,,,,
68303,1622986934453,,,,,,,,-0.78,0.21,-0.43,-0,-2,1,0.81,,66,7659,11,24,83,0.977,17.2,659,4.85,13.5,111.4,1,38.9,4.44,13.6,0,0,0,1,0,395,-1,-6656,172,,,,,,,,,,,,,,,,
68323,1622986934459,,,,,,,,-0.68,0.24,-0.3,-0,-4,-0,0.72,,66,7735,6,24,75,0.975,21.9,672,4.87,13.8,111.4,1,39.9,4.03,13.6,0,0,0,1,0,415,-1,-3414,219,,,,,,,,,,,,,,,,
68343,1622986934479,21,11,22,22,36,35,18,-0.58,0.24,-0.22,0,-5,-1,0.63,0,66,7563,4,24,68,0.972,26.4,670,4.9,13.8,111.4,1,39.4,3.5,13.6,0,0,0,1,0,422,-1,10305,264,45.699135,4.910159,47.19,196.3,4,2,4.2,0,0.0,-1,0.0,,0.0,0,0.13,1.1391
68363,1622986934499,,,,,,,,-0.47,0.34,-0.37,1,-6,1,0.58,,66,7228,4,24,62,0.973,33.6,661,4.82,13.7,111.4,1,38.4,2.77,13.6,0,0,0,1,0,415,-1,28696,336,,,,,,,,,,,,,,,,
68383,1622986934519,,,,,,,,-0.5,0.32,-0.5,2,-6,1,0.59,,66,6749,4,24,59,0.977,38.5,646,4.82,13.5,24.7,1,36.5,2.44,8.3,0,0,0,1,0,410,-1,28696,385,,,,,,,,,,,,,,,,
68403,1622986934553,,,,,,,,-0.47,0.38,-0.58,3,-2,4,0.6,,66,6438,4,24,56,0.981,38.1,645,4.82,13.7,24.7,1,34.5,2.31,8.3,0,0,0,1,0,403,-1,-8151,381,,,,,,,,,,,,,,,,
68423,1622986934573,,,,,,,,-0.38,0.35,-0.36,4,-3,3,0.52,,66,6202,4,24,54,0.985,37.8,646,4.86,13.8,24.7,1,33.2,2.28,8.3,0,0,0,1,0,404,-1,10541,378,,,,,,,,,,,,,,,,
68443,1622986934593,19,11,26,31,34,30,21,-0.26,0.31,-0.17,4,-6,1,0.41,0,66,6003,4,24,52,0.986,37.5,641,4.9,13.8,24.7,1,32.2,2.31,8.3,0,0,0,1,0,401,-1,-32702,375,45.699127,4.910152,44.13,196.2,4,2,4.2,0,0.0,-1,0.0,0.0,0.0,0,0.13,1.1407
68463,1622986934613,,,,,,,,-0.22,0.3,0.01,5,-8,-1,0.37,,66,5870,4,24,50,0.972,38.1,638,4.93,13.8,24.7,1,31.5,2.41,8.3,0,0,0,1,0,396,-1,-3866,381,,,,,,,,,,,,,,,,
68483,1622986934633,,,,,,,,-0.28,0.32,0.06,6,-4,1,0.42,,66,5678,4,24,50,0.964,37.7,633,4.87,13.8,17.4,1,31.3,2.52,6.5,0,0,0,1,0,387,-1,2278,377,,,,,,,,,,,,,,,,
68503,1622986934652,,,,,,,,-0.38,0.33,-0.11,6,-1,3,0.5,,66,5509,4,24,49,0.951,36.8,630,4.85,13.5,17.4,1,30.9,2.58,6.5,0,0,0,1,0,383,-1,3,367,,,,,,,,,,,,,,,,
68523,1622986934672,,,,,,,,-0.3,0.35,0.06,6,-6,-1,0.46,,66,5383,4,24,49,0.937,37.3,626,4.93,13.8,17.4,1,30.7,2.67,6.5,0,0,0,1,0,379,-6144,-6656,370,,,,,,,,,,,,,,,,
68543,1622986934692,23,13,24,26,38,33,15,-0.39,0.39,-0.11,7,-0,4,0.55,0,66,5211,4,24,48,0.926,36.2,621,4.84,13.6,17.4,1,30.1,2.75,6.5,0,0,0,1,0,373,250,-14707,365,45.69912,4.910144,42.73,196.2,4,2,4.2,0,0.0,-1,0.0,,0.0,0,0.13,1.1424
68563,1622986934712,,,,,,,,-0.35,0.33,0.07,7,-4,0,0.48,,66,5093,4,24,48,0.907,36.4,618,4.9,13.8,17.4,1,30.0,2.81,6.5,0,0,0,1,0,370,-1480,-6644,365,,,,,,,,,,,,,,,,
68583,1622986934732,,,,,,,,-0.41,0.3,-0.1,7,-2,2,0.51,,66,5030,4,24,49,0.896,36.3,606,4.87,13.8,18.0,1,30.2,2.84,6.6,0,0,0,1,0,359,-1494,-10554,354,,,,,,,,,,,,,,,,
68603,1622986934752,,,,,,,,-0.5,0.28,0.07,7,-1,1,0.57,,66,5041,6,24,48,0.881,35.0,602,4.89,13.8,18.0,1,29.9,2.84,6.6,0,0,0,1,0,349,23040,3327,350,,,,,,,,,,,,,,,,
68623,1622986934772,,,,,,,,-0.5,0.24,-0.01,7,-3,-1,0.55,,66,5118,10,24,49,0.855,35.3,608,4.86,13.8,18.0,1,30.3,2.81,6.6,0,0,0,1,0,337,-6644,-31222,348,,,,,,,,,,,,,,,,
68643,1622986934792,22,11,22,22,38,35,4,-0.56,0.22,-0.17,6,1,2,0.6,0,66,5180,11,24,51,0.839,34.9,607,4.87,13.6,18.0,1,31.0,2.8,6.6,0,0,0,1,0,331,6668,-6528,341,45.699112,4.910137,41.21,196.1,4,2,4.2,0,0.0,-1,0.0,0.0,0.0,0,0.14,1.144
68663,1622986934812,,,,,,,,-0.5,0.24,0.01,6,-4,-2,0.56,,66,5227,12,24,53,0.81,34.5,610,4.88,13.9,18.0,1,31.6,2.8,6.6,0,0,0,1,0,330,6870,170,340,,,,,,,,,,,,,,,,
68683,1622986934832,,,,,,,,-0.56,0.24,-0.16,6,1,2,0.61,,66,5296,12,24,55,0.793,33.7,623,4.84,13.6,19.7,1,32.2,2.75,6.7,0,0,0,1,0,322,2560,3346,337,,,,,,,,,,,,,,,,
68703,1622986934852,,,,,,,,-0.47,0.18,0.02,5,-3,-2,0.5,,66,5326,12,24,57,0.783,33.2,626,4.89,13.8,19.7,1,32.8,2.72,6.7,0,0,0,1,0,328,175,-20736,333,,,,,,,,,,,,,,,,
68723,1622986934872,,,,,,,,-0.49,0.22,-0.15,5,1,2,0.54,,66,5322,12,24,58,0.782,33.2,621,4.85,13.5,19.7,1,33.1,2.7,6.7,0,0,0,1,0,329,170,-12032,332,,,,,,,,,,,,,,,,
68743,1622986934892,8,4,23,22,36,35,1,-0.41,0.15,-0.3,4,-2,-1,0.44,0,66,5375,12,24,60,0.778,33.4,620,4.86,13.7,19.7,1,33.7,2.64,6.7,0,0,0,1,0,329,165,175,334,45.699104,4.910131,38.94,196.1,4,2,4.2,0,0.0,-1,0.0,,0.0,0,0.14,1.1457
68763,1622986934912,,,,,,,,-0.4,0.12,-0.11,4,-1,0,0.42,,66,5378,12,24,60,0.778,32.9,632,4.86,13.8,19.7,1,33.7,2.64,6.7,0,0,0,1,0,327,-22016,-22016,327,,,,,,,,,,,,,,,,
68783,1622986934932,,,,,,,,-0.45,0.05,-0.27,3,-1,1,0.45,,66,5380,12,24,62,0.794,32.8,620,4.85,13.6,19.8,1,34.2,2.72,6.5,0,0,0,1,0,328,170,-22016,328,,,,,,,,,,,,,,,,
68803,1622986934952,,,,,,,,-0.36,0.02,-0.08,3,-6,-2,0.36,,66,5401,12,24,63,0.808,32.5,623,4.96,13.8,19.8,1,34.5,2.8,6.5,0,0,0,1,0,328,160,-22016,325,,,,,,,,,,,,,,,,
68823,1622986934972,,,,,,,,-0.42,0.01,-0.24,2,1,3,0.42,,66,5441,12,24,64,0.827,32.5,625,4.88,13.7,19.8,1,34.8,2.89,6.5,0,0,0,1,0,325,160,165,325,,,,,,,,,,,,,,,,
68843,1622986934992,4,2,28,25,33,32,-9,-0.36,-0.05,-0.33,1,-3,-1,0.37,0,66,5444,12,24,65,0.849,32.8,625,4.9,13.7,19.8,1,35.0,2.99,6.5,0,0,0,1,0,324,-25856,-22016,327,45.699097,4.910125,36.92,196.0,4,2,4.2,0,0.0,-1,0.0,0.0,0.0,0,0.14,1.1474
68863,1622986935012,,,,,,,,-0.31,-0.08,-0.14,0,-4,-2,0.32,,66,5519,12,24,65,0.856,32.9,628,4.9,13.7,19.8,1,35.0,2.98,6.5,0,0,0,1,0,320,-28416,-22016,329,,,,,,,,,,,,,,,,
68883,1622986935032,,,,,,,,-0.37,-0.07,-0.29,-1,2,3,0.38,,66,5615,11,24,65,0.865,32.8,629,4.84,13.6,23.3,1,35.0,2.96,7.6,0,0,0,1,0,317,140,170,328,,,,,,,,,,,,,,,,
68903,1622986935052,,,,,,,,-0.39,-0.2,-0.44,-3,1,1,0.43,,66,5657,11,24,65,0.876,33.0,633,4.81,13.6,23.3,1,35.0,2.96,7.6,0,0,0,1,0,317,135,-20736,329,,,,,,,,,,,,,,,,
68923,1622986935072,,,,,,,,-0.26,-0.27,-0.23,-4,-4,-3,0.38,,66,5647,11,24,65,0.881,33.0,635,4.87,13.7,23.3,1,35.0,2.96,7.6,0,0,0,1,0,320,-29696,-32559,330,,,,,,,,,,,,,,,,
68943,1622986935092,3,3,35,25,30,34,-35,-0.24,-0.28,-0.05,-6,-3,-2,0.37,0,66,5431,10,24,64,0.884,33.5,621,4.93,13.8,23.3,1,34.8,2.89,7.6,0,0,0,1,0,335,125,13,335,45.699089,4.910119,35.59,195.9,4,2,4.2,0,0.0,-1,0.0,,0.0,0,0.14,1.149
68963,1622986935112,,,,,,,,-0.2,-0.38,-0.21,-8,-2,-2,0.43,,66,5219,8,24,64,0.879,33.8,618,4.85,13.8,23.3,1,34.9,2.95,7.6,0,0,0,1,0,330,-32256,13,338,,,,,,,,,,,,,,,,
68983,1622986935132,,,,,,,,-0.28,-0.39,-0.02,-11,-2,-2,0.48,,66,4960,6,24,63,0.874,34.1,602,4.85,13.6,20.7,1,34.0,2.94,7.0,0,0,0,1,0,323,-30976,-31222,341,,,,,,,,,,,,,,,,
69003,1622986935152,,,,,,,,-0.29,-0.49,0.14,-14,-3,-4,0.57,,66,4784,5,24,62,0.868,33.9,581,4.87,13.9,20.7,1,31.4,2.83,7.0,0,0,0,1,0,311,-30976,3327,344,,,,,,,,,,,,,,,,
69023,1622986935172,,,,,,,,-0.25,-0.59,0.3,-17,-5,-6,0.64,,66,4760,5,24,61,0.861,34.4,572,4.86,13.9,20.7,1,30.8,2.77,7.0,0,0,0,1,0,307,120,-31206,344,,,,,,,,,,,,,,,,
69043,1622986935192,1,2,38,24,27,38,-66,-0.23,-0.7,0.11,-21,-4,-6,0.74,0,66,4802,5,24,61,0.842,34.4,570,4.89,13.7,20.7,1,31.4,2.78,7.0,0,0,0,1,0,302,32000,6668,344,45.699081,4.910113,34.78,195.9,4,2,4.2,0,0.0,-1,0.0,0.0,0.0,0,0.14,1.1507
69063,1622986935212,,,,,,,,-0.23,-0.72,-0.07,-24,-2,-5,0.76,,66,4727,6,24,60,0.83,34.9,565,4.88,13.7,20.7,1,30.1,2.76,7.0,0,0,0,1,0,302,26880,6870,349,,,,,,,,,,,,,,,,
69083,1622986935232,,,,,,,,-0.29,-0.75,-0.23,-28,-1,-3,0.81,,66,4693,6,24,59,0.809,35.0,567,4.87,13.6,17.0,1,29.3,2.73,6.0,0,0,0,1,0,306,25600,6870,350,,,,,,,,,,,,,,,,
69103,1622986935252,,,,,,,,-0.34,-0.69,-0.15,-31,1,-3,0.76,,66,4610,6,24,59,0.8,34.8,551,4.88,13.6,17.0,1,28.2,2.69,6.0,0,0,0,1,0,309,24320,-10554,348,,,,,,,,,,,,,,,,
69123,1622986935272,,,,,,,,-0.41,-0.71,0.03,-34,2,-3,0.82,,66,4644,6,24,58,0.792,34.5,553,4.82,13.7,17.0,1,28.4,2.71,6.0,0,0,0,1,0,309,21760,6668,345,,,,,,,,,,,,,,,,
69143,1622986935292,1,1,37,24,27,42,-81,-0.47,-0.77,0.2,-37,1,-4,0.9,0,66,4676,6,24,58,0.787,34.0,551,4.84,13.7,17.0,1,28.8,2.73,6.0,0,0,0,1,0,295,0,13,340,45.699078,4.910107,34.9,195.9,4,2,4.2,0,0.0,-1,0.0,,0.0,0,0.14,1.1524
69163,1622986935312,,,,,,,,-0.47,-0.78,0.35,-40,-1,-7,0.91,,66,4774,6,24,58,0.781,33.8,555,4.9,13.9,17.0,1,30.1,2.78,6.0,0,0,0,1,0,268,41,3346,338,,,,,,,,,,,,,,,,
69183,1622986935332,,,,,,,,-0.42,-0.85,0.15,-43,-1,-7,0.95,,66,4821,7,24,58,0.778,33.7,570,4.91,13.8,18.2,1,30.7,2.81,6.2,0,0,0,1,0,249,250,2560,337,,,,,,,,,,,,,,,,
69203,1622986935353,,,,,,,,-0.43,-0.87,-0.03,-45,2,-5,0.97,,66,4827,7,24,58,0.781,34.0,565,4.85,13.6,18.2,1,30.5,2.81,6.2,0,0,0,1,0,247,41,13,340,,,,,,,,,,,,,,,,
69223,1622986935373,,,,,,,,-0.46,-0.77,-0.12,-48,4,-4,0.9,,66,4705,7,24,58,0.787,34.1,567,4.87,13.7,18.2,1,29.2,2.74,6.2,0,0,0,1,0,245,1886,2560,339,,,,,,,,,,,,,,,,
69243,1622986935393,-1,2,36,20,29,42,-81,-0.53,-0.87,0.01,-51,5,-4,1.02,0,66,4605,7,24,58,0.791,33.9,558,4.88,13.6,18.2,1,27.9,2.69,6.2,0,0,0,1,0,245,1886,13,339,45.69907,4.910099,35.58,195.9,4,2,4.2,0,0.0,-1,0.0,0.0,0.0,0,0.14,1.154
69263,1622986935413,,,,,,,,-0.53,-0.93,0.18,-53,4,-4,1.07,,66,4627,7,24,58,0.795,33.5,542,4.9,13.7,18.2,1,28.2,2.7,6.2,0,0,0,1,0,245,630,-6528,335,,,,,,,,,,,,,,,,
69283,1622986935433,,,,,,,,-0.55,-0.95,0.33,-56,3,-5,1.1,,66,4620,7,24,58,0.8,33.7,548,4.91,13.8,17.0,1,28.1,2.69,5.8,0,0,0,1,0,245,-1534,-6528,337,,,,,,,,,,,,,,,,
69303,1622986935453,,,,,,,,-0.52,-0.97,0.47,-58,2,-5,1.1,,66,4560,7,24,57,0.802,33.5,538,4.84,13.8,17.0,1,27.1,2.66,5.8,0,0,0,1,0,245,-1534,4838,335,,,,,,,,,,,,,,,,
69323,1622986935458,,,,,,,,-0.49,-1.05,0.6,-60,0,-6,1.16,,66,4591,7,24,57,0.806,33.4,535,4.86,13.9,17.0,1,27.4,2.67,5.8,0,0,0,1,0,244,250,175,336,,,,,,,,,,,,,,,,
69343,1622986935478,-0,2,37,20,30,42,-61,-0.46,-1.03,0.67,-62,-2,-7,1.13,0,66,4602,7,24,57,0.81,33.4,461,4.93,13.9,17.0,1,27.6,2.68,5.8,0,0,0,1,0,246,250,175,334,45.699062,4.910091,35.14,195.8,4,2,4.2,0,0.0,-1,0.0,,0.0,0,0.14,1.1557
69363,1622986935498,,,,,,,,-0.42,-1.0,0.64,-63,-3,-7,1.08,,66,4507,7,24,57,0.811,33.3,336,4.96,13.9,17.0,1,26.4,2.63,5.8,0,0,0,1,0,260,-1527,-20736,333,,,,,,,,,,,,,,,,
69383,1622986935518,,,,,,,,-0.39,-0.89,0.61,-64,-3,-7,0.97,,66,4506,7,24,57,0.813,33.2,288,4.86,13.9,16.1,1,26.4,2.63,5.4,0,0,0,1,0,267,28160,-22016,332,,,,,,,,,,,,,,,,
69403,1622986935552,,,,,,,,-0.35,-0.74,0.72,-63,-4,-7,0.82,,66,4464,7,24,57,0.816,32.9,275,4.87,13.9,16.1,1,25.8,2.6,5.4,0,0,0,1,0,267,1886,150,329,,,,,,,,,,,,,,,,
69423,1622986935572,,,,,,,,-0.35,-0.64,0.82,-61,-5,-7,0.73,,66,4505,7,24,57,0.818,32.3,280,4.93,13.9,16.1,1,26.4,2.63,5.4,0,0,0,1,0,276,1886,-30976,323,,,,,,,,,,,,,,,,
69443,1622986935592,-1,2,33,27,31,37,-10,-0.3,-0.53,0.83,-58,-7,-7,0.61,0,66,4588,7,24,57,0.819,31.4,288,4.84,13.8,16.1,1,27.4,2.67,5.4,0,0,0,1,0,278,250,110,314,45.699055,4.910083,35.04,195.8,4,2,4.2,0,0.0,-1,0.0,0.0,0.0,0,0.14,1.1574
69463,1622986935612,,,,,,,,-0.26,-0.45,0.6,-55,-6,-5,0.52,,66,4779,7,24,57,0.821,30.7,274,4.88,13.8,16.1,1,29.9,2.79,5.4,0,0,0,1,0,285,0,24320,307,,,,,,,,,,,,,,,,
69483,1622986935632,,,,,,,,-0.27,-0.36,0.38,-51,-3,-2,0.46,,66,4875,7,24,57,0.823,30.0,276,4.84,13.6,20.7,1,31.1,2.85,6.2,0,0,0,1,0,291,20480,21760,300,,,,,,,,,,,,,,,,
69503,1622986935651,,,,,,,,-0.34,-0.25,0.51,-46,-2,-1,0.42,,66,4851,7,24,57,0.824,29.6,286,4.91,13.8,20.7,1,30.8,2.83,6.2,0,0,0,1,0,293,20480,80,296,,,,,,,,,,,,,,,,
69523,1622986935671,,,,,,,,-0.34,-0.15,0.64,-42,-4,-2,0.37,,66,4750,7,24,58,0.822,29.5,327,4.88,13.9,20.7,1,29.8,2.78,6.2,0,0,0,1,0,296,23040,20480,291,,,,,,,,,,,,,,,,
69543,1622986935691,1,2,26,34,36,29,35,-0.31,-0.05,0.75,-37,-5,-3,0.31,0,66,4650,7,24,58,0.82,29.9,360,4.88,13.8,20.7,1,28.5,2.71,6.2,0,0,0,1,0,300,25600,0,287,45.699055,4.910073,33.62,195.8,4,2,4.2,0,0.0,-1,0.0,,0.0,0,0.14,1.159
69563,1622986935711,,,,,,,,-0.25,0.08,0.69,-31,-6,-3,0.26,,66,4600,7,24,58,0.818,30.3,384,4.93,13.9,20.7,1,27.8,2.69,6.2,0,0,0,1,0,300,28160,-1529,286,,,,,,,,,,,,,,,,
69583,1622986935731,,,,,,,,-0.2,0.14,0.59,-26,-7,-4,0.24,,66,4586,7,24,58,0.816,30.3,422,4.87,13.9,20.1,1,27.6,2.68,5.7,0,0,0,1,0,303,28160,24064,279,,,,,,,,,,,,,,,,
69603,1622986935751,,,,,,,,-0.16,0.21,0.37,-21,-8,-4,0.26,,66,4525,7,24,57,0.815,30.3,446,4.92,13.9,20.1,1,26.6,2.64,5.7,0,0,0,1,0,303,28160,250,275,,,,,,,,,,,,,,,,
69623,1622986935771,,,,,,,,-0.11,0.25,0.17,-15,-8,-3,0.27,,67,4567,7,24,57,0.813,30.2,466,4.9,13.7,20.1,1,27.1,2.66,5.7,0,0,0,1,0,303,105,2414,271,,,,,,,,,,,,,,,,
69643,1622986935791,3,2,24,34,39,28,68,-0.1,0.35,-0.01,-10,-8,-2,0.36,0,67,4515,7,24,57,0.81,30.8,486,4.89,13.8,20.1,1,26.5,2.64,5.7,0,0,0,1,0,305,120,-1,268,45.699051,4.910063,31.74,195.8,4,2,4.2,0,0.0,-1,0.0,0.0,0.0,0,0.14,1.1607
69663,1622986935811,,,,,,,,-0.06,0.37,-0.17,-4,-7,-1,0.37,,67,4488,7,24,57,0.808,30.8,498,4.88,13.8,20.1,1,26.1,2.62,5.7,0,0,0,1,0,306,-32256,-1,264,,,,,,,,,,,,,,,,
69683,1622986935831,,,,,,,,-0.04,0.33,-0.33,2,-7,-1,0.34,,67,4500,7,24,57,0.807,31.0,515,4.83,13.8,20.8,1,26.3,2.63,5.5,0,0,0,1,0,306,125,-1,263,,,,,,,,,,,,,,,,
69703,1622986935851,,,,,,,,-0.05,0.43,-0.46,7,-7,-0,0.44,,67,4427,7,24,57,0.806,30.9,520,4.91,13.8,20.8,1,25.3,2.58,5.5,0,0,0,1,0,307,120,-41,259,,,,,,,,,,,,,,,,
69723,1622986935871,,,,,,,,-0.03,0.45,-0.59,12,-7,-1,0.45,,67,4480,7,24,58,0.805,31.0,519,4.88,13.9,20.8,1,26.3,2.62,5.5,0,0,0,1,0,304,125,14337,257,,,,,,,,,,,,,,,,
69743,1622986935891,4,2,22,36,40,28,80,0.01,0.49,-0.71,17,-8,-1,0.49,0,67,4427,7,24,57,0.804,31.0,526,4.9,13.9,20.8,1,25.3,2.58,5.5,0,0,0,1,0,305,125,-1,256,45.699043,4.910055,30.72,195.7,4,2,4.2,0,0.0,-1,0.0,,0.0,0,0.15,1.1624
69763,1622986935911,,,,,,,,0.04,0.5,-0.82,22,-9,-1,0.5,,67,4384,7,24,58,0.805,30.8,518,4.88,13.9,20.8,1,25.1,2.57,5.5,0,0,0,1,0,304,120,16896,254,,,,,,,,,,,,,,,,
69783,1622986935931,,,,,,,,0.06,0.54,-0.82,27,-11,-1,0.55,,67,4430,7,24,58,0.806,31.0,509,4.9,13.9,20.6,1,25.6,2.59,5.2,0,0,0,1,0,305,125,-1494,252,,,,,,,,,,,,,,,,
69803,1622986935951,,,,,,,,0.06,0.6,-0.67,31,-12,-3,0.61,,67,4401,7,24,58,0.807,30.8,490,4.86,13.9,20.6,1,25.3,2.58,5.2,0,0,0,1,0,305,120,250,251,,,,,,,,,,,,,,,,
69823,1622986935971,,,,,,,,-0.01,0.71,-0.45,35,-11,-4,0.71,,67,4340,7,24,58,0.809,30.9,489,4.9,13.9,20.6,1,24.5,2.55,5.2,0,0,0,1,0,303,32000,-1494,246,,,,,,,,,,,,,,,,
69843,1622986935991,4,2,21,36,42,29,84,-0.06,0.79,-0.25,39,-10,-3,0.8,0,67,4369,7,24,58,0.809,30.5,491,4.87,13.8,20.6,1,24.9,2.56,5.2,0,0,0,1,0,301,120,10812,247,45.699039,4.910046,29.51,195.7,4,2,4.2,0,0.0,-1,0.0,0.0,0.0,0,0.15,1.164
69863,1622986936011,,,,,,,,-0.13,0.88,-0.06,43,-8,-3,0.89,,67,4287,7,24,58,0.808,30.8,488,4.85,13.6,20.6,1,23.8,2.52,5.2,0,0,0,1,0,300,120,250,242,,,,,,,,,,,,,,,,
69883,1622986936031,,,,,,,,-0.19,0.94,-0.21,46,-6,-1,0.96,,67,4323,9,24,58,0.806,30.3,492,4.85,13.6,20.6,1,24.3,2.56,5.0,0,0,0,1,0,300,105,250,242,,,,,,,,,,,,,,,,
69903,1622986936051,,,,,,,,-0.24,0.91,-0.36,49,-5,0,0.94,,67,4355,12,24,60,0.806,30.6,482,4.92,13.7,20.6,1,25.2,2.6,5.0,0,0,0,1,0,297,115,250,243,,,,,,,,,,,,,,,,
69923,1622986936071,,,,,,,,-0.25,0.89,-0.49,52,-5,1,0.92,,67,4284,18,24,63,0.805,30.4,487,4.92,13.8,20.6,1,25.0,1.51,5.0,0,0,0,1,0,298,29440,250,241,,,,,,,,,,,,,,,,
69943,1622986936091,1,2,20,35,42,29,87,-0.21,0.88,-0.62,55,-5,1,0.91,0,67,4397,24,24,68,0.803,30.4,483,4.89,13.8,20.6,1,27.9,4.75,5.0,0,0,0,1,0,295,110,250,239,45.699036,4.910038,28.21,195.6,4,2,4.2,0,0.0,-1,0.0,,0.0,0,0.15,1.1657
69963,1622986936111,,,,,,,,-0.18,0.92,-0.73,57,-6,-0,0.94,,67,4482,27,24,76,0.8,30.8,503,4.89,13.8,20.6,1,30.9,4.95,5.0,0,0,0,1,0,296,100,250,238,,,,,,,,,,,,,,,,
69983,1622986936131,,,,,,,,-0.15,0.91,-0.84,59,-7,-0,0.92,,67,4595,30,24,82,0.798,30.0,513,4.88,13.8,44.7,1,34.3,5.85,10.7,0,0,0,1,0,294,100,-1494,237,,,,,,,,,,,,,,,,
70003,1622986936151,,,,,,,,-0.2,0.91,-0.94,62,-5,1,0.93,,67,4893,32,24,88,0.795,30.1,523,4.88,13.7,44.7,1,40.5,6.21,10.7,0,0,0,1,0,293,26880,-1,238,,,,,,,,,,,,,,,,
70023,1622986936171,,,,,,,,-0.15,0.91,-0.69,64,-5,1,0.92,,67,5168,35,24,92,0.794,30.1,558,4.92,13.8,44.7,1,42.3,6.73,10.7,0,0,0,1,0,292,26880,14337,238,,,,,,,,,,,,,,,,
70043,1622986936191,2,2,20,35,42,29,80,-0.17,0.89,-0.8,65,-4,1,0.9,0,67,5447,37,24,94,0.791,30.0,581,4.87,13.7,44.7,1,41.2,8.13,10.7,0,0,0,1,0,294,100,-1,239,45.699032,4.910033,25.26,195.6,4,2,4.2,0,0.0,-1,0.0,0.0,0.0,0,0.15,1.1674
70063,1622986936211,,,,,,,,-0.05,0.92,-0.57,67,-9,-3,0.92,,67,5640,39,24,95,0.788,30.0,611,4.91,13.8,44.7,1,40.9,8.55,10.7,0,0,0,1,0,299,100,-6458,237,,,,,,,,,,,,,,,,
70083,1622986936231,,,,,,,,0.04,0.91,-0.35,68,-7,-1,0.91,,67,5666,39,24,95,0.786,29.7,625,4.84,13.7,95.3,1,40.8,8.61,22.4,0,0,0,1,0,310,24320,9517,241,,,,,,,,,,,,,,,,
70103,1622986936251,,,,,,,,0.02,0.9,-0.49,70,-3,2,0.9,,67,5756,39,24,95,0.788,30.6,629,4.79,13.6,95.3,1,40.5,8.85,22.4,0,0,0,1,0,314,115,-31744,242,,,,,,,,,,,,,,,,
70123,1622986936271,,,,,,,,0.01,0.92,-0.62,71,-1,3,0.92,,67,5819,39,24,95,0.79,30.6,634,4.8,13.6,95.3,1,40.3,8.99,22.4,0,0,0,1,0,318,-29696,257,244,,,,,,,,,,,,,,,,
70143,1622986936291,1,3,31,42,36,26,64,-0.07,0.91,-0.73,72,1,4,0.92,0,67,5916,39,24,94,0.791,31.9,637,4.82,13.6,95.3,1,40.0,9.14,22.4,0,0,0,1,0,325,-27136,-30438,251,45.699024,4.910028,25.44,195.6,4,2,4.2,0,0.0,-1,0.0,,0.0,0,0.15,1.169
70163,1622986936311,,,,,,,,-0.09,0.98,-0.84,72,3,5,0.98,,67,6000,38,25,94,0.793,31.2,641,4.81,13.6,95.3,1,39.7,9.1,22.4,0,0,0,1,0,329,130,26880,254,,,,,,,,,,,,,,,,
70183,1622986936331,,,,,,,,-0.12,0.95,-0.93,72,3,6,0.96,,67,6060,36,25,94,0.803,31.5,645,4.8,13.6,99.2,1,40.3,9.02,25.5,0,0,0,1,0,322,-29696,110,259,,,,,,,,,,,,,,,,
70203,1622986936353,,,,,,,,-0.15,0.99,-1.02,71,6,8,1.0,,67,6091,35,25,93,0.813,31.5,648,4.81,13.5,99.2,1,40.6,8.75,25.5,0,0,0,1,0,320,-29696,145,262,,,,,,,,,,,,,,,,
70223,1622986936373,,,,,,,,-0.13,1.04,-1.1,70,9,10,1.05,,67,6111,35,25,93,0.824,31.3,648,4.79,13.5,99.2,1,40.8,8.63,25.5,0,0,0,1,0,326,-28416,-30438,271,,,,,,,,,,,,,,,,
70243,1622986936393,0,1,37,44,34,25,34,-0.08,1.09,-1.18,69,11,12,1.09,0,67,6121,35,25,93,0.835,31.5,646,4.79,13.6,99.2,1,40.9,8.55,25.5,0,0,0,1,0,331,-29696,6668,275,45.699017,4.910024,24.97,195.6,4,2,4.2,0,0.0,-1,0.0,0.0,0.0,0,0.15,1.1707
70263,1622986936413,,,,,,,,-0.04,1.08,-1.03,67,14,13,1.08,,67,6129,32,25,92,0.844,32.1,640,4.86,13.8,99.2,1,41.0,8.32,25.5,0,0,0,1,0,336,-25856,170,281,,,,,,,,,,,,,,,,
70283,1622986936433,,,,,,,,0.02,1.03,-0.78,64,15,13,1.03,,67,6081,24,25,91,0.85,32.3,640,4.89,13.8,83.9,1,40.5,8.21,23.6,0,0,0,1,0,331,-24576,110,287,,,,,,,,,,,,,,,,
70303,1622986936453,,,,,,,,0.07,0.9,-0.55,61,16,14,0.9,,67,5924,17,25,87,0.858,32.3,641,4.9,13.8,83.9,1,39.3,7.53,23.6,0,0,0,1,0,328,-24576,140,294,,,,,,,,,,,,,,,,
70323,1622986936457,,,,,,,,0.07,0.8,-0.67,58,19,16,0.81,,67,5650,14,25,84,0.863,32.0,635,4.86,13.8,83.9,1,39.4,4.15,23.6,0,0,0,1,0,328,150,-24576,302,,,,,,,,,,,,,,,,
70343,1622986936477,-0,2,40,39,29,25,-7,0.14,0.63,-0.78,53,14,11,0.65,0,67,5341,12,25,82,0.854,31.9,610,4.79,13.6,83.9,1,39.6,3.86,23.6,0,0,0,1,0,328,-27136,-20736,312,45.699013,4.910021,26.2,195.6,4,2,4.2,0,0.0,-1,0.0,,0.0,0,0.15,1.1724
70363,1622986936497,,,,,,,,0.1,0.56,-0.55,49,16,12,0.57,,67,4866,12,25,80,0.847,32.0,600,4.91,13.7,83.9,1,37.6,3.51,23.6,0,0,0,1,0,330,150,-12032,320,,,,,,,,,,,,,,,,
70383,1622986936517,,,,,,,,0.03,0.47,-0.43,44,16,10,0.47,,67,4737,12,25,80,0.841,32.7,578,4.9,13.7,25.0,1,35.8,3.47,8.0,0,0,0,1,0,327,-27136,165,327,,,,,,,,,,,,,,,,
70403,1622986936551,,,,,,,,0.01,0.29,-0.23,39,15,8,0.29,,67,4631,12,25,79,0.835,32.7,562,4.88,13.8,25.0,1,33.9,3.35,8.0,0,0,0,1,0,321,-28416,-23296,327,,,,,,,,,,,,,,,,
70423,1622986936571,,,,,,,,0.06,0.18,-0.11,33,11,5,0.19,,67,4742,12,25,79,0.816,32.9,559,4.88,13.8,25.0,1,35.5,3.43,8.0,0,0,0,1,0,312,-32256,-20736,329,,,,,,,,,,,,,,,,
70443,1622986936591,0,2,42,33,26,34,-52,0.1,0.06,-0.27,28,11,5,0.12,0,67,4842,12,25,78,0.802,33.0,559,4.89,13.8,25.0,1,36.7,3.47,8.0,0,0,0,1,0,310,-32256,175,330,45.699005,4.910019,26.19,195.6,4,2,4.2,0,0.0,-1,0.0,0.0,0.0,0,0.15,1.174
70463,1622986936611,,,,,,,,0.06,0.08,-0.23,22,12,5,0.1,,67,5115,12,25,78,0.784,33.4,567,4.83,13.6,25.0,1,38.9,3.68,8.0,0,0,0,1,0,307,32000,-32559,334,,,,,,,,,,,,,,,,
70483,1622986936631,,,,,,,,0.08,-0.09,-0.19,17,8,1,0.12,,67,5240,13,25,77,0.759,33.4,593,4.88,13.8,26.3,1,38.3,3.74,8.8,0,0,0,1,0,305,30720,13,334,,,,,,,,,,,,,,,,
70503,1622986936650,,,,,,,,0.0,-0.16,-0.01,11,11,2,0.16,,67,5412,13,25,77,0.749,33.5,602,4.81,13.6,26.3,1,38.0,3.85,8.8,0,0,0,1,0,305,100,3346,335,,,,,,,,,,,,,,,,
70523,1622986936670,,,,,,,,-0.02,-0.2,-0.18,5,10,1,0.2,,67,5458,16,25,77,0.731,33.8,617,4.8,13.7,26.3,1,38.0,3.88,8.8,0,0,0,1,0,306,95,-122,338,,,,,,,,,,,,,,,,
70543,1622986936690,-1,3,41,26,27,38,-62,0.07,-0.32,0.01,0,5,-2,0.33,0,67,5423,19,25,77,0.718,34.1,623,4.93,13.9,26.3,1,38.0,3.85,8.8,0,0,0,1,0,333,95,-122,341,45.698998,4.910019,23.3,195.7,4,2,4.2,0,0.0,-1,0.0,,0.0,0,0.15,1.1757
70563,1622986936710,,,,,,,,-0.02,-0.36,-0.16,-5,9,2,0.36,,67,5403,24,25,80,0.708,33.9,623,4.87,13.6,26.3,1,38.8,3.92,8.8,0,0,0,1,0,355,25600,-122,343,,,,,,,,,,,,,,,,
70583,1622986936730,,,,,,,,0.05,-0.42,0.02,-10,3,-2,0.43,,67,5532,27,25,83,0.7,34.5,621,4.93,13.9,32.9,1,39.4,4.71,11.3,0,0,0,1,0,355,95,6668,345,,,,,,,,,,,,,,,,
70603,1622986936750,,,,,,,,0.12,-0.5,0.18,-14,0,-4,0.51,,67,5767,30,25,86,0.702,34.9,626,4.91,13.8,32.9,1,39.5,5.12,11.3,0,0,0,1,0,347,90,6870,349,,,,,,,,,,,,,,,,
70623,1622986936770,,,,,,,,0.17,-0.52,0.34,-19,-1,-5,0.54,,67,5984,33,25,89,0.704,34.5,636,4.87,13.8,32.9,1,39.6,5.63,11.3,0,0,0,1,0,356,24320,-1246,345,,,,,,,,,,,,,,,,
70643,1622986936790,0,2,43,27,28,37,-62,0.26,-0.59,0.47,-23,-4,-6,0.64,0,67,6121,34,25,90,0.705,35.0,640,4.86,13.8,32.9,1,40.9,5.67,11.3,0,0,0,1,0,377,90,4104,350,45.698994,4.910018,26.9,195.8,4,2,4.2,0,0.0,-1,0.0,0.0,0.0,0,0.15,1.1774
70663,1622986936810,,,,,,,,0.33,-0.64,0.6,-27,-8,-9,0.72,,67,6143,35,25,92,0.706,35.4,636,4.87,13.8,32.9,1,41.1,5.79,11.3,0,0,0,1,0,396,100,230,354,,,,,,,,,,,,,,,,
70683,1622986936830,,,,,,,,0.44,-0.75,0.72,-31,-11,-13,0.87,,67,6143,35,25,92,0.709,35.7,633,4.89,13.8,46.3,1,41.1,5.71,16.4,0,0,0,1,0,381,105,-6656,357,,,,,,,,,,,,,,,,
70703,1622986936850,,,,,,,,0.39,-0.83,0.49,-34,-12,-14,0.92,,67,6202,35,25,93,0.712,36.0,633,4.88,13.7,46.3,1,41.7,5.66,16.4,0,0,0,1,0,337,100,1,360,,,,,,,,,,,,,,,,
70723,1622986936870,,,,,,,,0.26,-0.87,0.28,-37,-9,-12,0.91,,67,6283,35,25,93,0.714,36.5,635,4.85,13.6,46.3,1,42.6,5.52,16.4,0,0,0,1,0,356,115,0,365,,,,,,,,,,,,,,,,
70743,1622986936890,0,1,46,30,23,35,-61,0.23,-0.85,0.09,-39,-4,-7,0.88,0,67,6334,35,25,93,0.722,36.5,640,4.84,13.6,46.3,1,43.1,5.39,16.4,0,0,0,1,0,405,29440,-6656,365,45.698986,4.910015,29.01,195.8,4,2,4.2,0,0.0,-1,0.0,,0.0,0,0.15,1.179
70763,1622986936910,,,,,,,,0.29,-0.95,0.25,-42,-5,-6,0.99,,67,6447,35,25,93,0.733,36.3,643,4.86,13.8,46.3,1,44.3,3.7,16.4,0,0,0,1,0,421,120,240,363,,,,,,,,,,,,,,,,
70783,1622986936930,,,,,,,,0.31,-0.98,0.21,-44,-6,-8,1.03,,67,6514,35,25,93,0.745,37.1,649,4.9,13.7,42.1,1,44.9,3.65,15.5,0,0,0,1,0,389,-32256,2524,371,,,,,,,,,,,,,,,,
70803,1622986936953,,,,,,,,0.25,-0.97,0.03,-47,-2,-4,1.0,,67,6485,35,25,93,0.759,37.8,641,4.84,13.7,42.1,1,44.6,5.01,15.5,0,0,0,1,0,381,32000,6512,378,,,,,,,,,,,,,,,,
70823,1622986936973,,,,,,,,0.27,-1.01,0.19,-49,-2,-3,1.04,,67,6490,36,25,93,0.768,38.3,643,4.9,13.7,42.1,1,44.7,4.86,15.5,0,0,0,1,0,415,-28416,505,383,,,,,,,,,,,,,,,,
70843,1622986936993,-0,2,47,34,24,34,-47,0.29,-1.06,0.19,-51,-4,-5,1.1,0,67,6604,36,25,93,0.772,38.0,655,4.87,13.7,42.1,1,46.1,4.74,15.5,0,0,0,1,0,401,-24576,10541,380,45.698978,4.910009,31.64,195.9,4,2,4.2,0,0.0,-1,0.0,0.0,0.0,0,0.15,1.1807
70863,1622986937013,,,,,,,,0.28,-1.13,0.01,-53,-2,-3,1.17,,67,6651,36,25,93,0.779,38.6,648,4.88,13.8,42.1,1,46.4,4.69,15.5,0,0,0,1,0,389,175,-8151,384,,,,,,,,,,,,,,,,
70883,1622986937033,,,,,,,,0.31,-1.14,0.17,-55,-4,-6,1.18,,67,6646,36,25,93,0.782,39.1,650,4.86,13.7,37.5,1,46.3,4.7,14.4,0,0,0,1,0,424,170,1504,392,,,,,,,,,,,,,,,,
70903,1622986937050,,,,,,,,0.32,-1.01,-0.01,-56,-2,-3,1.06,,67,6710,36,25,93,0.785,39.5,657,4.86,13.6,37.5,1,47.0,4.65,14.4,0,0,0,1,0,421,4838,7154,395,,,,,,,,,,,,,,,,
70923,1622986937070,,,,,,,,0.38,-0.98,0.16,-56,-4,-4,1.05,,67,6764,36,25,93,0.782,38.9,640,4.88,13.8,37.5,1,47.5,4.61,14.4,0,0,0,1,0,402,-14714,243,389,,,,,,,,,,,,,,,,
70943,1622986937090,0,3,45,37,24,32,-13,0.39,-0.91,-0.02,-56,-2,-2,0.99,0,67,6764,36,25,93,0.779,39.4,643,4.85,13.8,37.5,1,47.5,4.61,14.4,0,0,0,1,0,401,2811,-3414,394,45.698971,4.910003,35.3,195.9,4,2,4.2,0,0.0,-1,0.0,,0.0,0,0.15,1.1824
70963,1622986937110,,,,,,,,0.43,-0.92,0.15,-54,-4,-4,1.01,,67,6778,36,25,93,0.777,39.1,587,4.9,13.7,37.5,1,47.7,4.6,14.4,0,0,0,1,0,429,3183,1504,395,,,,,,,,,,,,,,,,
70983,1622986937130,,,,,,,,0.44,-0.81,-0.03,-53,-3,-2,0.92,,67,6848,36,25,93,0.775,39.3,640,4.85,13.7,36.4,1,48.4,4.54,14.4,0,0,0,1,0,432,-6458,-4059,393,,,,,,,,,,,,,,,,
71003,1622986937152,,,,,,,,0.48,-0.81,0.04,-51,-4,-4,0.94,,67,6870,36,25,93,0.761,39.6,608,4.85,13.6,36.4,1,48.5,4.52,14.4,0,0,0,1,0,416,3082,13040,396,,,,,,,,,,,,,,,,
71023,1622986937172,,,,,,,,0.47,-0.77,-0.07,-49,-3,-3,0.9,,67,6845,36,25,93,0.751,39.7,636,4.87,13.8,36.4,1,48.4,4.54,14.4,0,0,0,1,0,394,-6656,11560,397,,,,,,,,,,,,,,,,
71043,1622986937192,0,3,46,37,23,31,-7,0.44,-0.71,-0.23,-46,-1,-2,0.84,0,67,6845,36,25,93,0.744,40.1,648,4.85,13.6,36.4,1,48.4,4.54,14.4,0,0,0,1,0,399,19125,10392,401,45.698963,4.909995,38.12,196.0,4,2,4.2,0,0.0,-1,0.0,0.0,0.0,0,0.16,1.184
71063,1622986937212,,,,,,,,0.5,-0.66,-0.04,-43,-2,-3,0.83,,67,6833,36,25,93,0.734,39.7,652,4.88,13.8,36.4,1,48.2,4.55,14.4,0,0,0,1,0,416,-19019,-4059,397,,,,,,,,,,,,,,,,
71083,1622986937232,,,,,,,,0.46,-0.59,-0.21,-40,-1,-1,0.75,,67,6838,36,25,93,0.732,40.0,650,4.83,13.8,35.7,1,48.3,4.55,14.4,0,0,0,1,0,405,505,9517,400,,,,,,,,,,,,,,,,
71103,1622986937252,,,,,,,,0.53,-0.56,-0.02,-37,-3,-2,0.77,,67,6838,36,25,93,0.733,40.1,634,4.91,13.8,35.7,1,48.3,4.55,14.4,0,0,0,1,0,416,-1818,-3414,406,,,,,,,,,,,,,,,,
71123,1622986937272,,,,,,,,0.52,-0.42,-0.19,-34,-1,1,0.67,,67,6818,36,25,93,0.732,40.7,620,4.84,13.6,35.7,1,48.1,4.56,14.4,0,0,0,1,0,417,2524,3826,407,,,,,,,,,,,,,,,,
71143,1622986937292,0,1,43,41,26,26,6,0.56,-0.48,-0.0,-31,-3,-1,0.74,0,67,6828,36,25,93,0.732,41.0,642,4.86,13.6,35.7,1,48.2,4.56,14.4,0,0,0,1,0,422,-26615,-3414,410,45.698956,4.909985,39.83,196.0,4,2,4.2,0,0.0,-1,0.0,,0.0,0,0.16,1.1857
71163,1622986937312,,,,,,,,0.59,-0.33,-0.17,-28,-2,1,0.67,,67,6830,36,25,93,0.742,42.0,643,4.88,13.8,35.7,1,48.2,4.55,14.4,0,0,0,1,0,424,-8165,13552,412,,,,,,,,,,,,,,,,
71183,1622986937332,,,,,,,,0.58,-0.4,-0.1,-25,-2,1,0.71,,67,6798,36,25,93,0.749,41.8,648,4.88,13.7,34.9,1,47.9,4.58,14.4,0,0,0,1,0,430,-21792,-3322,418,,,,,,,,,,,,,,,,
71203,1622986937352,,,,,,,,0.6,-0.27,-0.23,-22,-3,2,0.66,,67,6815,39,25,93,0.759,42.1,656,4.84,13.8,34.9,1,48.0,4.57,14.4,0,0,0,1,0,434,-21792,-3322,422,,,,,,,,,,,,,,,,
71223,1622986937372,,,,,,,,0.56,-0.28,-0.37,-20,-2,2,0.63,,67,6890,44,25,95,0.769,42.8,653,4.89,13.6,34.9,1,48.8,5.32,14.4,0,0,0,1,0,437,13180,5600,421,,,,,,,,,,,,,,,,
71243,1622986937392,-0,2,42,43,27,24,14,0.56,-0.28,-0.18,-17,-3,1,0.63,0,67,6985,53,25,96,0.775,42.6,657,4.89,13.7,34.9,1,49.8,5.3,14.4,0,0,0,1,0,438,13552,19477,420,45.698948,4.909975,41.83,196.0,4,2,4.2,0,0.0,-1,0.0,0.0,0.0,0,0.16,1.1874
71263,1622986937412,,,,,,,,0.57,-0.17,-0.33,-14,-2,2,0.6,,67,7121,63,25,96,0.779,43.2,663,4.86,13.7,34.9,1,48.3,5.39,14.4,0,0,0,1,0,445,-3322,20625,425,,,,,,,,,,,,,,,,
71283,1622986937432,,,,,,,,0.56,-0.13,-0.47,-12,-1,4,0.58,,67,7186,71,25,97,0.783,44.1,661,4.87,13.5,41.9,1,47.4,5.51,17.8,0,0,0,1,0,449,26704,2524,429,,,,,,,,,,,,,,,,
71303,1622986937452,,,,,,,,0.55,-0.17,-0.5,-10,-1,4,0.58,,67,7214,80,25,97,0.789,44.4,665,4.86,13.5,41.9,1,47.0,5.54,17.8,0,0,0,1,0,455,21432,2524,431,,,,,,,,,,,,,,,,
71323,1622986937456,,,,,,,,0.55,-0.2,-0.29,-8,-3,1,0.59,,67,7211,88,25,97,0.788,44.4,659,4.88,13.6,41.9,1,47.0,5.54,17.8,0,0,0,1,0,458,21432,-26615,437,,,,,,,,,,,,,,,,
71343,1622986937476,-1,3,41,41,28,24,8,0.57,-0.15,-0.16,-6,-4,1,0.59,0,67,7270,94,25,96,0.785,44.8,661,4.86,13.7,41.9,1,46.1,5.55,17.8,0,0,0,1,0,461,8488,-9160,441,45.69894,4.909963,43.13,196.0,4,2,4.2,0,0.0,-1,0.0,,0.0,0,0.16,1.189
71363,1622986937496,,,,,,,,0.6,-0.1,-0.26,-4,-3,1,0.61,,67,7335,99,25,96,0.783,45.1,659,4.83,13.8,41.9,1,45.2,5.62,17.8,0,0,0,1,0,463,3571,12552,438,,,,,,,,,,,,,,,,
71383,1622986937516,,,,,,,,0.63,-0.02,-0.36,-3,-3,1,0.63,,67,7399,100,25,96,0.779,45.6,663,4.82,13.7,42.7,1,44.2,5.68,19.1,0,0,0,1,0,466,14488,8488,449,,,,,,,,,,,,,,,,
71403,1622986937552,,,,,,,,0.65,0.06,-0.49,-2,-3,1,0.66,,67,7482,100,25,96,0.775,45.3,666,4.82,13.6,42.7,1,43.0,5.78,19.1,0,0,0,1,0,470,17628,-9203,453,,,,,,,,,,,,,,,,
71423,1622986937572,,,,,,,,0.66,0.1,-0.62,-2,-3,2,0.67,,67,7584,100,25,96,0.768,45.8,663,4.81,13.6,42.7,1,41.5,5.85,19.1,0,0,0,1,0,474,17628,32033,458,,,,,,,,,,,,,,,,
71443,1622986937592,-1,2,42,39,26,24,-2,0.67,0.09,-0.67,-2,-3,1,0.67,0,67,7697,100,25,96,0.762,45.9,667,4.8,13.7,42.7,1,39.9,4.05,19.1,0,0,0,1,0,476,-18108,-17956,459,45.698933,4.909951,44.1,196.0,4,2,4.2,0,0.0,-1,0.0,0.0,0.0,0,0.16,1.1907
71463,1622986937612,,,,,,,,0.67,0.03,-0.46,-2,-4,-0,0.67,,67,7773,100,25,95,0.754,46.6,667,4.81,13.8,42.7,1,38.8,4.09,19.1,0,0,0,1,0,482,6193,3580,468,,,,,,,,,,,,,,,,
71483,1622986937632,,,,,,,,0.59,-0.03,-0.49,-2,-3,0,0.59,,67,7841,100,25,95,0.749,46.8,670,4.87,13.7,44.7,1,37.8,4.16,20.9,0,0,0,1,0,485,-16384,-10483,468,,,,,,,,,,,,,,,,
71503,1622986937651,,,,,,,,0.56,-0.06,-0.62,-2,-2,0,0.56,,67,7971,100,25,95,0.744,47.5,676,4.82,13.7,44.7,1,36.0,5.76,20.9,0,0,0,1,0,481,32033,3580,476,,,,,,,,,,,,,,,,
71523,1622986937671,,,,,,,,0.58,-0.06,-0.46,-2,-3,-1,0.58,,67,8123,100,25,94,0.74,48.0,680,4.82,13.8,44.7,1,37.4,5.96,20.9,0,0,0,1,0,493,-23367,-9216,475,,,,,,,,,,,,,,,,
71543,1622986937691,0,1,43,38,25,25,-4,0.6,-0.1,-0.59,-3,-2,0,0.61,0,67,8344,100,25,94,0.735,48.3,679,4.9,13.6,44.7,1,40.8,6.27,20.9,0,0,0,1,0,501,32033,15661,484,45.698921,4.909939,46.16,196.0,4,2,4.2,0,0.0,-1,0.0,,0.0,0,0.16,1.1924
71563,1622986937711,,,,,,,,0.56,-0.2,-0.6,-3,-1,0,0.6,,67,8549,100,25,93,0.732,48.4,682,4.85,13.7,44.7,1,42.9,6.39,20.9,0,0,0,1,0,499,8488,11560,484,,,,,,,,,,,,,,,,
71583,1622986937731,,,,,,,,0.56,-0.16,-0.52,-3,-1,-1,0.59,,67,8815,97,25,92,0.729,49.1,688,4.88,13.6,52.2,1,40.5,6.4,25.6,0,0,0,1,0,507,-10483,17136,492,,,,,,,,,,,,,,,,
71603,1622986937753,,,,,,,,0.57,-0.07,-0.52,-3,-2,-1,0.58,,67,9071,70,25,91,0.725,49.1,685,4.83,13.6,52.2,1,38.8,6.39,25.6,0,0,0,1,0,505,3580,-3414,500,,,,,,,,,,,,,,,,
71623,1622986937773,,,,,,,,0.55,-0.06,-0.57,-3,-2,-3,0.56,,67,9277,39,25,90,0.721,49.9,692,4.88,13.6,52.2,1,38.9,6.18,25.6,0,0,0,1,0,514,771,10408,497,,,,,,,,,,,,,,,,
71643,1622986937793,6,3,43,38,25,24,12,0.56,-0.04,-0.69,-2,-1,-0,0.57,0,67,9407,5,25,80,0.723,50.2,693,4.77,13.5,52.2,1,40.0,5.0,25.6,0,0,0,1,0,521,10408,-4054,502,45.698914,4.909927,47.86,196.1,4,2,4.2,0,0.0,-1,0.0,0.0,0.0,0,0.16,1.194
71663,1622986937813,,,,,,,,0.48,0.12,-0.49,-1,-0,1,0.49,,67,9403,5,25,69,0.726,49.6,701,4.86,13.6,52.2,1,41.5,3.74,25.6,0,0,0,1,0,520,771,1248,496,,,,,,,,,,,,,,,,
71683,1622986937833,,,,,,,,0.42,0.18,-0.42,0,0,3,0.46,,67,9231,4,25,60,0.731,50.4,696,4.8,13.6,31.4,1,40.3,2.29,15.7,0,0,0,1,0,528,-32248,6274,488,,,,,,,,,,,,,,,,
71703,1622986937851,,,,,,,,0.35,0.16,-0.21,2,-1,3,0.38,,67,8782,4,25,52,0.738,50.2,691,4.9,13.7,31.4,1,38.7,3.15,15.7,0,0,0,1,0,529,15661,-8962,473,,,,,,,,,,,,,,,,
71723,1622986937871,,,,,,,,0.3,0.27,-0.36,4,2,5,0.4,,67,8212,4,25,48,0.743,47.7,680,4.83,13.7,31.4,1,36.7,2.64,15.7,0,0,0,1,0,530,2212,2524,432,,,,,,,,,,,,,,,,
71743,1622986937891,34,19,36,39,32,25,29,0.25,0.31,-0.5,5,3,6,0.4,0,67,7503,4,25,44,0.752,49.3,677,4.85,13.6,31.4,1,33.5,2.32,15.7,0,0,0,1,0,521,-6528,10994,378,45.698906,4.909914,49.66,196.1,4,2,4.2,0,0.0,-1,0.0,,0.0,0,0.16,1.1957
71763,1622986937911,,,,,,,,0.12,0.35,-0.62,7,4,4,0.37,,67,7175,4,25,41,0.76,48.9,662,4.84,13.6,31.4,1,31.7,2.31,15.7,0,0,0,1,0,504,-6656,-10483,329,,,,,,,,,,,,,,,,
71783,1622986937931,,,,,,,,0.08,0.31,-0.41,8,2,3,0.32,,67,7004,4,25,40,0.766,48.4,660,4.88,13.8,23.1,1,31.3,2.32,7.6,0,0,0,1,0,499,-10483,30272,331,,,,,,,,,,,,,,,,
71803,1622986937951,,,,,,,,0.0,0.45,-0.54,10,5,6,0.45,,67,6771,4,25,39,0.773,49.1,659,4.85,13.7,23.1,1,30.7,2.32,7.6,0,0,0,1,0,496,248,14488,319,,,,,,,,,,,,,,,,
71823,1622986937971,,,,,,,,0.03,0.42,-0.33,12,3,4,0.42,,67,6595,4,25,38,0.776,48.4,652,4.9,13.8,23.1,1,30.2,2.26,7.6,0,0,0,1,0,494,-10483,13552,318,,,,,,,,,,,,,,,,
71843,1622986937991,30,15,24,33,41,33,25,-0.09,0.36,-0.47,13,3,3,0.37,0,67,6441,4,25,37,0.779,48.8,650,4.93,13.6,23.1,1,29.8,2.21,7.6,0,0,0,1,0,491,1,770,313,45.698898,4.909901,50.82,196.1,4,2,4.2,0,0.0,-1,0.0,0.0,0.0,0,0.17,1.1974
71863,1622986938011,,,,,,,,-0.19,0.47,-0.59,15,6,5,0.5,,67,6377,4,25,36,0.782,47.4,647,4.79,13.8,23.1,1,29.5,2.16,7.6,0,0,0,1,0,480,-9203,2560,291,,,,,,,,,,,,,,,,
71883,1622986938031,,,,,,,,-0.19,0.47,-0.38,17,7,7,0.5,,67,6325,4,25,35,0.789,47.4,650,4.9,13.9,21.6,1,29.1,2.11,6.3,0,0,0,1,0,477,-9203,30208,307,,,,,,,,,,,,,,,,
71903,1622986938051,,,,,,,,-0.13,0.41,-0.18,18,4,4,0.43,,67,6169,4,25,35,0.795,47.7,644,4.92,13.9,21.6,1,29.1,2.06,6.3,0,0,0,1,0,480,2212,250,325,,,,,,,,,,,,,,,,
71923,1622986938071,,,,,,,,-0.06,0.31,0.0,20,-1,1,0.31,,67,5980,4,25,34,0.803,47.5,643,4.93,13.8,21.6,1,28.7,2.07,6.3,0,0,0,1,0,477,-17956,15360,328,,,,,,,,,,,,,,,,
71943,1622986938091,28,15,18,27,43,34,29,-0.03,0.29,0.17,21,-2,1,0.3,0,67,5785,4,25,34,0.809,46.2,640,4.88,13.8,21.6,1,28.1,2.11,6.3,0,0,0,1,0,473,12552,13964,330,45.698887,4.909887,50.15,196.2,4,2,4.2,0,0.0,-1,0.0,,0.0,0,0.17,1.199
