"Interval"|"ms"|0|0|1,"Utc"|"ms"|0|0|1,"Brake_F"|"Bar"|0|2000|10,"Brake_R"|"Bar"|0|2000|10,"Height_RF"|"mm"|0|255|10,"Height_LF"|"mm"|0|255|10,"Height_LR"|"mm"|0|80|10,"Height_RR"|"mm"|0|255|10,"Steering"|"deg"|-100|100|10,"AccelX"|"G"|-3.0|3.0|50,"AccelY"|"G"|-3.0|3.0|50,"AccelZ"|"G"|-3.0|3.0|50,"Yaw"|"Deg/Sec"|-120|120|50,"Pitch"|"Deg/Sec"|-120|120|50,"Roll"|"Deg/Sec"|-120|120|50,"Gsum"|"G"|0.0|3.0|50,"Log_Button"|""|0.0|10.0|10,"WaterTemp"|"C"|0|150|50,"RPM"|"tr/min"|0|14000|50,"TPS"|"%"|0|100|50,"AirTemp"|"C"|0|150|50,"MAP"|"KPa"|0|100|50,"Lambda"|""|0.5|1.5|50,"SpeedDTA"|"kph"|0.0|250.0|50,"OilPress"|"KPa"|0|1500|50,"FuelPressur"|"Bar"|0.0|10.0|50,"Batterie"|"V"|0.0|20.0|50,"ConsoKm"|"L/100km"|0.0|200.0|50,"Gear"|""|0|6|50,"AdvIgnition"|"Deg"|-20.0|70.0|50,"Injection"|"ms"|0.0|10.0|50,"ConsoHr"|"L/Hr"|0.0|10000.0|50,"LC_But_Pres"|""|0|1|50,"LC_Active"|""|0|1|50,"TractionOn"|""|0|1|50,"TractionWet"|""|0|1|50,"FanOn"|""|0|1|50,"RD_Speed"|"km/h"|-30|250|50,"RUD_Speed"|"km/h"|-30|250|50,"LD_Speed"|"km/h"|-30|250|50,"LUD_Speed"|"km/h"|-30|250|50,"Latitude"|"Degrees"|-180.0|180.0|10,"Longitude"|"Degrees"|-180.0|180.0|10,"Speed"|"kph"|0.0|150.0|10,"Altitude"|"m"|0.0|4000.0|10,"GPSSats"|""|0|20|10,"GPSQual"|""|0|5|10,"GPSDOP"|""|0.0|20.0|10,"LapCount"|""|0|0|10,"LapTime"|"Min"|0.0|0.0|10,"Sector"|""|0|0|10,"SectorTime"|"Min"|0.0|0.0|10,"PredTime"|"Min"|0.0|0.0|5,"ElapsedTime"|"Min"|0.0|0.0|10,"CurrentLap"|""|0|0|10,"Distance"|"km"|0.0|0.0|10,"SessionTime"|"Min"|0.0|0.0|10
763863,1622993872432,,,,,,,,-0.96,0.0,-0.55,-4,1,-1,0.96,,86,8043,4,26,21,0.78,55.1,583,4.85,12.8,12.7,1,27.0,1.94,7.2,0,0,1,1,0,523,250,-8187,551,,,,,,,,,,,,,,,,
763883,1622993872452,,,,,,,,-0.93,0.05,-0.34,-4,-0,-3,0.93,,86,8023,4,26,21,0.786,55.0,586,4.94,12.8,12.7,1,27.0,1.93,7.2,0,0,1,1,0,517,250,6274,539,,,,,,,,,,,,,,,,
763903,1622993872472,,,,,,,,-0.97,-0.06,-0.45,-4,-0,-2,0.97,,86,8026,4,26,21,0.793,54.1,578,4.92,12.8,12.7,1,27.0,1.93,7.2,0,0,1,1,0,524,250,-32248,541,,,,,,,,,,,,,,,,
763923,1622993872492,,,,,,,,-0.92,-0.03,-0.44,-4,-2,-3,0.92,,86,8009,4,26,21,0.8,52.9,578,4.88,12.9,13.2,1,27.0,1.93,7.1,0,0,1,1,0,518,250,1341,539,,,,,,,,,,,,,,,,
763943,1622993872512,20,13,21,20,37,38,2,-0.9,0.02,-0.24,-4,-3,-5,0.9,0,86,8012,4,26,22,0.806,52.8,596,4.94,12.8,13.2,1,27.0,1.93,7.1,0,0,1,1,0,513,250,-28648,528,45.699181,4.910224,58.71,193.9,9,3,1.8,0,0.0,-1,0.0,,0.0,0,7.76,12.7324
763963,1622993872532,,,,,,,,-0.92,-0.08,-0.26,-3,-3,-4,0.92,,86,7999,4,26,22,0.813,52.3,586,4.92,12.8,13.2,1,26.9,1.97,7.1,0,0,1,1,0,513,250,3,523,,,,,,,,,,,,,,,,
763983,1622993872552,,,,,,,,-0.86,-0.08,-0.27,-3,-3,-4,0.86,,86,7955,4,26,21,0.82,51.7,577,4.89,12.9,13.2,1,26.9,1.93,7.1,0,0,1,1,0,498,250,248,517,,,,,,,,,,,,,,,,
764003,1622993872572,,,,,,,,-0.85,-0.02,-0.08,-3,-4,-6,0.85,,86,7888,4,26,21,0.825,50.7,580,4.92,12.9,13.2,1,26.8,1.93,7.1,0,0,1,1,0,491,250,3,514,,,,,,,,,,,,,,,,
764023,1622993872592,,,,,,,,-0.89,-0.09,-0.05,-3,-5,-6,0.89,,86,7786,4,26,22,0.83,49.9,581,4.91,12.8,13.8,1,26.7,1.93,7.1,0,0,1,1,0,493,250,-32768,499,,,,,,,,,,,,,,,,
764043,1622993872612,21,14,21,21,38,37,6,-0.87,0.04,-0.1,-2,-3,-4,0.87,0,86,7728,4,26,22,0.834,49.5,581,4.93,12.8,13.8,1,26.7,1.97,7.1,0,0,1,1,0,490,250,-6528,495,45.699169,4.910213,55.88,193.9,9,3,1.8,0,0.0,-1,0.0,0.0,0.0,0,7.76,12.734
764063,1622993872632,,,,,,,,-0.84,0.08,0.02,-1,-2,-3,0.84,,86,7703,4,26,22,0.839,49.3,566,4.95,12.8,13.8,1,26.7,1.97,7.1,0,0,1,1,0,483,250,32033,493,,,,,,,,,,,,,,,,
764083,1622993872652,,,,,,,,-0.81,0.04,0.17,-1,-2,-2,0.81,,86,7640,4,26,22,0.842,47.9,567,4.87,12.8,13.8,1,26.6,1.97,7.1,0,0,1,1,0,480,250,-3210,479,,,,,,,,,,,,,,,,
764103,1622993872672,,,,,,,,-0.8,0.11,-0.01,0,-2,-1,0.81,,86,7539,4,26,22,0.845,47.5,555,4.87,12.8,13.8,1,26.5,1.97,7.1,0,0,1,1,0,480,250,-6387,475,,,,,,,,,,,,,,,,
764123,1622993872691,,,,,,,,-0.73,0.14,0.05,1,-3,0,0.74,,86,7373,4,26,22,0.847,47.0,547,4.9,12.9,14.1,1,26.3,1.97,6.8,0,0,1,1,0,477,250,2211,470,,,,,,,,,,,,,,,,
764143,1622993872711,25,17,20,23,39,36,8,-0.69,0.2,-0.12,2,-1,2,0.72,0,86,7228,4,27,22,0.85,46.1,546,4.9,12.8,14.1,1,26.2,1.97,6.8,0,0,1,1,0,474,250,17628,461,45.699158,4.910203,52.92,193.8,9,3,1.8,0,0.0,-1,0.0,,0.0,0,7.76,12.7357
764163,1622993872731,,,,,,,,-0.72,0.15,-0.28,3,-1,1,0.74,,86,7096,4,27,22,0.851,45.8,535,4.95,12.8,14.1,1,26.0,1.97,6.8,0,0,1,1,0,464,250,15649,458,,,,,,,,,,,,,,,,
764183,1622993872751,,,,,,,,-0.75,0.14,-0.19,4,-2,-0,0.76,,86,7038,4,27,22,0.852,45.4,529,4.93,12.9,14.1,1,26.0,0.82,6.8,0,0,1,1,0,445,250,2131,454,,,,,,,,,,,,,,,,
764203,1622993872771,,,,,,,,-0.73,0.2,-0.15,4,-1,2,0.75,,86,6988,4,27,21,0.853,44.5,517,4.9,12.9,14.1,1,26.0,1.92,6.8,0,0,1,1,0,451,250,3826,445,,,,,,,,,,,,,,,,
764223,1622993872791,,,,,,,,-0.76,0.21,-0.3,5,0,2,0.79,,85,6941,4,27,21,0.854,44.7,524,4.96,12.8,13.8,1,26.0,1.92,6.2,0,0,1,1,0,443,250,-26615,438,,,,,,,,,,,,,,,,
764243,1622993872811,22,16,20,24,40,37,6,-0.74,0.14,-0.11,6,-2,0,0.75,0,86,6838,4,27,21,0.855,43.8,506,4.87,12.9,13.8,1,26.0,1.91,6.2,0,0,1,1,0,437,250,13180,438,45.69915,4.910193,50.11,193.7,9,3,1.8,0,0.0,-1,0.0,0.0,0.0,0,7.76,12.7374
764263,1622993872831,,,,,,,,-0.77,0.21,-0.27,6,0,2,0.79,,86,6756,4,27,21,0.855,42.6,514,4.93,12.8,13.8,1,26.0,1.91,6.2,0,0,1,1,0,436,250,-9166,426,,,,,,,,,,,,,,,,
764283,1622993872851,,,,,,,,-0.73,0.24,-0.08,6,-2,0,0.77,,86,6677,4,27,21,0.855,42.9,506,4.94,12.9,13.8,1,26.0,1.9,6.2,0,0,1,1,0,428,250,-26615,427,,,,,,,,,,,,,,,,
764303,1622993872871,,,,,,,,-0.81,0.25,-0.24,6,-0,1,0.85,,86,6581,4,27,22,0.855,42.5,501,4.98,12.9,13.8,1,26.1,1.95,6.2,0,0,1,1,0,425,250,7154,425,,,,,,,,,,,,,,,,
764323,1622993872891,,,,,,,,-0.77,0.29,-0.05,6,1,2,0.82,,86,6494,4,27,22,0.855,42.1,480,4.85,12.9,13.8,1,26.1,1.94,5.9,0,0,1,1,0,421,250,-4059,421,,,,,,,,,,,,,,,,
764343,1622993872911,15,10,21,24,40,37,3,-0.75,0.2,0.03,6,-2,-1,0.78,0,86,6465,4,27,22,0.854,41.5,478,4.92,12.9,13.8,1,26.1,1.94,5.9,0,0,1,1,0,413,250,1504,415,45.699135,4.910185,47.2,193.7,9,3,1.8,0,0.0,-1,0.0,,0.0,0,7.76,12.739
764363,1622993872931,,,,,,,,-0.81,0.18,-0.14,6,-1,0,0.83,,85,6423,4,27,22,0.854,41.5,487,4.93,12.8,13.8,1,26.1,1.94,5.9,0,0,1,1,0,409,250,2524,415,,,,,,,,,,,,,,,,
764383,1622993872951,,,,,,,,-0.77,0.23,-0.05,6,2,3,0.8,,85,6412,4,27,22,0.854,41.1,481,4.88,12.8,13.8,1,26.1,1.94,5.9,0,0,1,1,0,401,250,6512,408,,,,,,,,,,,,,,,,
764403,1622993872971,,,,,,,,-0.71,0.21,0.13,5,-0,1,0.74,,85,6381,4,27,22,0.853,40.4,467,4.92,12.9,13.8,1,26.1,1.94,5.9,0,0,1,1,0,399,250,6512,404,,,,,,,,,,,,,,,,
764423,1622993872991,,,,,,,,-0.74,0.19,-0.05,5,-2,-2,0.76,,86,6358,4,27,22,0.853,40.5,462,4.93,13.0,13.9,1,26.1,1.94,5.7,0,0,1,1,0,398,250,28696,405,,,,,,,,,,,,,,,,
764443,1622993873003,13,7,22,24,38,36,1,-0.77,0.24,-0.21,4,-0,-1,0.81,0,86,6313,5,27,22,0.853,39.7,475,4.92,12.8,13.9,1,26.1,1.94,5.7,0,0,1,1,0,392,250,-1818,400,45.699127,4.910177,44.42,193.7,9,3,1.8,0,0.0,-1,0.0,0.0,0.0,0,7.76,12.7407
764463,1622993873023,,,,,,,,-0.75,0.34,-0.36,4,2,2,0.82,,86,6252,5,27,22,0.854,39.6,473,4.93,12.8,13.9,1,26.2,1.93,5.7,0,0,1,1,0,388,250,1,396,,,,,,,,,,,,,,,,
764483,1622993873043,,,,,,,,-0.66,0.32,-0.17,3,3,4,0.73,,86,6190,5,27,23,0.855,39.4,467,4.86,12.8,13.9,1,26.4,1.99,5.7,0,0,1,1,0,387,250,-31744,394,,,,,,,,,,,,,,,,
764503,1622993873063,,,,,,,,-0.58,0.3,0.02,3,1,3,0.65,,86,6117,5,27,23,0.856,39.2,451,4.88,12.9,13.9,1,26.4,1.99,5.7,0,0,1,1,0,388,250,-3866,392,,,,,,,,,,,,,,,,
764523,1622993873091,,,,,,,,-0.55,0.22,0.18,3,-1,1,0.59,,86,6046,5,27,24,0.856,38.7,451,4.87,13.0,14.5,1,26.7,2.04,5.6,0,0,1,1,0,385,250,-19126,385,,,,,,,,,,,,,,,,
764543,1622993873111,11,8,23,25,36,35,2,-0.48,0.13,0.33,3,-3,-0,0.5,0,86,5978,5,27,24,0.858,38.0,443,4.93,13.0,14.5,1,26.6,2.04,5.6,0,0,1,1,0,380,250,8200,380,45.69912,4.91017,42.03,193.6,9,3,1.8,0,0.0,-1,0.0,,0.0,0,7.77,12.7424
764563,1622993873131,,,,,,,,-0.45,0.07,0.47,2,-4,-1,0.45,,86,5907,5,27,25,0.858,37.8,448,4.93,13.0,14.5,1,26.6,2.11,5.6,0,0,1,1,0,377,250,-6656,378,,,,,,,,,,,,,,,,
764583,1622993873151,,,,,,,,-0.4,0.04,0.6,2,-3,0,0.4,,86,5837,5,27,26,0.86,37.5,446,4.9,12.7,14.5,1,26.5,2.1,5.6,0,0,1,1,0,371,250,1,375,,,,,,,,,,,,,,,,
764603,1622993873171,,,,,,,,-0.41,0.03,0.44,2,0,4,0.42,,86,5803,5,27,27,0.863,37.3,436,4.87,12.8,14.5,1,26.6,2.08,5.6,0,0,1,1,0,366,250,-6405,373,,,,,,,,,,,,,,,,
764623,1622993873191,,,,,,,,-0.49,0.04,0.24,2,4,6,0.49,,85,5781,5,27,27,0.865,37.1,447,4.89,12.9,14.8,1,26.5,2.08,5.5,0,0,1,1,0,364,250,230,371,,,,,,,,,,,,,,,,
764643,1622993873211,14,8,24,25,36,35,2,-0.57,0.07,0.05,2,5,7,0.57,0,86,5781,6,27,28,0.868,36.3,448,4.9,12.8,14.8,1,26.7,2.07,5.5,0,0,1,1,0,361,250,2790,363,45.699112,4.910163,40.17,193.6,9,3,1.8,0,0.0,-1,0.0,0.0,0.0,0,7.77,12.7441
764663,1622993873231,,,,,,,,-0.58,0.11,-0.12,1,3,5,0.59,,86,5781,6,27,28,0.87,36.0,443,4.91,12.9,14.8,1,26.7,0.92,5.5,0,0,1,1,0,356,250,2060,360,,,,,,,,,,,,,,,,
764683,1622993873251,,,,,,,,-0.54,0.06,0.06,1,-1,1,0.54,,85,5719,6,27,29,0.872,35.6,431,4.97,13.0,14.8,1,26.7,2.06,5.5,0,0,1,1,0,353,250,28553,356,,,,,,,,,,,,,,,,
764703,1622993873271,,,,,,,,-0.46,0.03,0.22,1,-2,0,0.46,,86,5608,6,27,29,0.874,35.4,415,4.91,12.9,14.8,1,26.3,2.06,5.5,0,0,1,1,0,350,250,3183,354,,,,,,,,,,,,,,,,
764723,1622993873291,,,,,,,,-0.54,0.07,0.03,1,3,4,0.54,,86,5508,6,27,30,0.876,35.0,411,4.92,12.8,15.1,1,26.1,2.06,5.3,0,0,1,1,0,350,250,-30454,350,,,,,,,,,,,,,,,,
764743,1622993873311,14,8,25,26,36,35,1,-0.53,0.07,-0.14,1,-2,0,0.53,0,86,5389,6,27,31,0.878,34.7,405,4.94,13.0,15.1,1,26.1,2.07,5.3,0,0,1,1,0,346,250,-30438,348,45.6991,4.910156,38.45,193.6,9,3,1.8,0,0.0,-1,0.0,,0.0,0,7.77,12.7457
764763,1622993873331,,,,,,,,-0.49,0.05,0.04,1,1,2,0.5,,86,5301,6,27,31,0.88,34.4,403,4.91,12.8,15.1,1,25.8,2.08,5.3,0,0,1,1,0,342,250,-14714,344,,,,,,,,,,,,,,,,
764783,1622993873351,,,,,,,,-0.56,0.04,-0.13,1,3,2,0.56,,86,5277,6,27,32,0.882,34.0,396,4.92,13.0,15.1,1,26.0,2.07,5.3,0,0,1,1,0,336,250,2560,340,,,,,,,,,,,,,,,,
764803,1622993873371,,,,,,,,-0.5,0.04,0.05,1,1,1,0.5,,85,5257,6,27,33,0.884,33.5,394,4.88,12.8,15.1,1,26.2,2.15,5.3,0,0,1,1,0,332,250,-6528,335,,,,,,,,,,,,,,,,
764823,1622993873391,,,,,,,,-0.57,-0.01,-0.12,0,4,2,0.57,,85,5228,6,27,33,0.886,33.5,383,4.95,13.0,15.4,1,26.1,2.15,5.2,0,0,1,1,0,328,250,175,335,,,,,,,,,,,,,,,,
764843,1622993873411,9,7,25,24,37,35,0,-0.55,0.01,0.06,0,3,1,0.55,0,86,5186,6,27,34,0.887,33.1,387,4.92,12.8,15.4,1,26.3,2.23,5.2,0,0,1,1,0,326,250,-25856,332,45.699097,4.91015,36.51,193.5,9,3,1.8,0,0.0,-1,0.0,0.0,0.0,0,7.77,12.7474
764863,1622993873431,,,,,,,,-0.54,-0.01,-0.12,-0,3,0,0.54,,86,5136,6,27,35,0.888,32.6,394,4.97,13.0,15.4,1,26.5,2.31,5.2,0,0,1,1,0,325,250,165,326,,,,,,,,,,,,,,,,
764883,1622993873451,,,,,,,,-0.59,0.02,0.06,0,5,2,0.59,,85,5099,6,27,35,0.888,32.4,384,4.92,12.8,15.4,1,26.4,2.32,5.2,0,0,1,1,0,322,250,-25856,324,,,,,,,,,,,,,,,,
764903,1622993873471,,,,,,,,-0.5,0.0,0.21,-0,-0,-1,0.5,,86,5084,6,27,35,0.888,32.2,375,4.95,13.0,15.4,1,26.3,2.32,5.2,0,0,1,1,0,320,250,150,322,,,,,,,,,,,,,,,,
764923,1622993873493,,,,,,,,-0.49,-0.01,0.03,-0,3,2,0.49,,85,5073,6,27,36,0.889,31.8,391,4.89,13.0,17.3,1,26.6,2.4,5.6,0,0,1,1,0,317,250,145,318,,,,,,,,,,,,,,,,
764943,1622993873513,2,2,27,26,36,34,-0,-0.47,0.03,0.19,-0,2,1,0.47,0,86,5040,6,28,36,0.89,31.9,378,4.89,12.8,17.3,1,26.5,2.39,5.6,0,0,1,1,0,316,250,-29696,319,45.699089,4.910144,34.82,193.5,9,3,1.8,0,0.0,-1,0.0,,0.0,0,7.77,12.7491
764963,1622993873533,,,,,,,,-0.43,0.01,0.01,-0,-0,-1,0.43,,86,5013,6,28,37,0.89,31.9,369,4.94,13.0,17.3,1,26.7,2.47,5.6,0,0,1,1,0,314,250,-29696,321,,,,,,,,,,,,,,,,
764983,1622993873553,,,,,,,,-0.43,0.02,-0.16,-0,2,3,0.43,,86,4986,6,28,37,0.889,31.9,385,4.9,13.0,17.3,1,26.5,2.46,5.6,0,0,1,1,0,314,250,135,319,,,,,,,,,,,,,,,,
765003,1622993873573,,,,,,,,-0.42,0.05,0.02,-0,1,1,0.43,,86,4953,6,28,38,0.889,31.5,380,4.93,12.9,17.3,1,26.5,2.53,5.6,0,0,1,1,0,314,250,130,315,,,,,,,,,,,,,,,,
765023,1622993873593,,,,,,,,-0.35,0.04,-0.01,-0,-1,-1,0.36,,86,4917,6,28,38,0.888,31.4,362,4.93,13.0,18.4,1,26.1,2.51,5.8,0,0,1,1,0,312,250,130,311,,,,,,,,,,,,,,,,
765043,1622993873613,1,1,29,29,34,33,-3,-0.34,-0.01,-0.17,-0,1,1,0.34,0,85,4881,6,28,39,0.887,31.5,371,4.92,13.0,18.4,1,26.0,2.51,5.8,0,0,1,1,0,311,250,125,315,45.699078,4.910138,33.22,193.4,9,3,1.8,0,0.0,-1,0.0,0.0,0.0,0,7.77,12.7507
765063,1622993873633,,,,,,,,-0.35,0.03,-0.05,-1,2,3,0.36,,85,4856,6,28,40,0.886,31.3,364,4.93,13.0,18.4,1,25.9,2.58,5.8,0,0,1,1,0,309,250,32000,313,,,,,,,,,,,,,,,,
765083,1622993873653,,,,,,,,-0.36,0.01,0.12,-1,1,1,0.36,,86,4801,6,28,40,0.886,31.2,366,4.91,12.8,18.4,1,25.3,1.43,5.8,0,0,1,1,0,306,250,32000,312,,,,,,,,,,,,,,,,
765103,1622993873673,,,,,,,,-0.3,-0.06,0.15,-2,-2,-1,0.3,,86,4792,7,28,40,0.885,31.4,360,4.92,12.9,18.4,1,25.2,2.55,5.8,0,0,1,1,0,304,250,30720,314,,,,,,,,,,,,,,,,
765123,1622993873693,,,,,,,,-0.27,-0.11,-0.03,-3,-1,-2,0.29,,86,4821,7,28,41,0.885,31.1,351,4.9,13.0,18.1,1,25.8,2.59,5.7,0,0,1,1,0,299,250,120,311,,,,,,,,,,,,,,,,
765143,1622993873710,1,2,33,28,33,33,-21,-0.29,-0.17,-0.19,-4,1,1,0.34,0,86,4852,7,28,42,0.884,31.5,368,4.92,13.0,18.1,1,26.4,2.62,5.7,0,0,1,1,0,295,250,29440,315,45.699074,4.910132,32.54,193.4,9,3,1.8,0,0.0,-1,0.0,,0.0,0,7.77,12.7524
765163,1622993873730,,,,,,,,-0.3,-0.19,-0.01,-6,1,0,0.36,,86,4881,8,28,43,0.885,31.4,367,4.96,13.0,18.1,1,27.0,1.53,5.7,0,0,1,1,0,292,250,29440,314,,,,,,,,,,,,,,,,
765183,1622993873750,,,,,,,,-0.28,-0.23,0.16,-8,-1,-3,0.36,,86,4865,8,28,44,0.885,31.4,366,4.93,12.9,18.1,1,27.1,2.67,5.7,0,0,1,1,0,291,250,115,314,,,,,,,,,,,,,,,,
765203,1622993873770,,,,,,,,-0.23,-0.3,-0.02,-9,-2,-3,0.37,,86,4808,9,28,45,0.886,31.0,361,4.92,13.0,18.1,1,26.7,2.66,5.7,0,0,1,1,0,289,250,-32256,310,,,,,,,,,,,,,,,,
765223,1622993873792,,,,,,,,-0.22,-0.33,-0.19,-11,-0,-1,0.4,,86,4736,9,28,46,0.887,31.6,353,4.92,13.0,18.7,1,26.1,2.65,5.8,0,0,1,1,0,288,250,125,316,,,,,,,,,,,,,,,,
765243,1622993873812,1,2,36,27,31,35,-33,-0.22,-0.37,-0.34,-13,0,0,0.43,0,86,4668,9,28,47,0.889,31.5,356,4.94,13.0,18.7,1,25.6,2.63,5.8,0,0,1,1,0,284,250,-32256,315,45.699066,4.910127,31.65,193.4,9,3,1.8,0,0.0,-1,0.0,0.0,0.0,0,7.77,12.7541
765263,1622993873832,,,,,,,,-0.28,-0.37,-0.18,-15,1,1,0.47,,86,4620,9,28,47,0.891,31.3,356,4.91,13.0,18.7,1,25.0,2.6,5.8,0,0,1,1,0,282,250,120,315,,,,,,,,,,,,,,,,
765283,1622993873852,,,,,,,,-0.33,-0.36,-0.0,-17,2,1,0.49,,86,4595,9,28,48,0.893,31.2,351,4.95,12.9,18.7,1,24.9,2.59,5.8,0,0,1,1,0,280,250,115,312,,,,,,,,,,,,,,,,
765303,1622993873872,,,,,,,,-0.4,-0.42,0.17,-20,3,0,0.58,,86,4584,9,28,49,0.896,31.3,345,5.0,12.8,18.7,1,25.1,2.59,5.8,0,0,1,1,0,275,250,29440,314,,,,,,,,,,,,,,,,
765323,1622993873892,,,,,,,,-0.42,-0.48,0.32,-22,3,-2,0.64,,85,4626,9,28,49,0.899,31.8,344,4.98,12.8,17.5,1,25.6,2.61,5.5,0,0,1,1,0,272,250,30720,318,,,,,,,,,,,,,,,,
765343,1622993873912,3,2,36,25,31,37,-50,-0.44,-0.56,0.46,-25,2,-3,0.71,0,86,4669,9,28,50,0.902,31.3,343,4.92,12.8,17.5,1,26.4,1.52,5.5,0,0,1,1,0,270,250,120,313,45.699059,4.91012,31.1,193.3,9,3,1.8,0,0.0,-1,0.0,,0.0,0,7.77,12.7557
765363,1622993873932,,,,,,,,-0.41,-0.58,0.44,-28,1,-5,0.71,,86,4628,10,28,50,0.905,31.8,343,4.87,12.9,17.5,1,25.9,2.63,5.5,0,0,1,1,0,269,-1,125,315,,,,,,,,,,,,,,,,
765383,1622993873952,,,,,,,,-0.36,-0.6,0.38,-30,-0,-6,0.7,,86,4629,10,28,51,0.909,31.5,340,4.91,12.8,17.5,1,26.2,2.63,5.5,0,0,1,1,0,267,-1281,125,315,,,,,,,,,,,,,,,,
765403,1622993873972,,,,,,,,-0.32,-0.64,0.18,-33,-1,-6,0.72,,86,4592,10,28,52,0.914,31.8,333,4.89,13.0,17.5,1,26.1,2.61,5.5,0,0,1,1,0,264,-1,130,314,,,,,,,,,,,,,,,,
765423,1622993873992,,,,,,,,-0.26,-0.67,-0.0,-35,-2,-6,0.72,,86,4532,10,28,52,0.918,31.5,332,4.81,13.0,17.1,1,25.3,2.58,5.4,0,0,1,1,0,262,-1281,32000,315,,,,,,,,,,,,,,,,
765443,1622993874004,1,3,36,28,29,40,-53,-0.23,-0.71,-0.17,-37,-3,-6,0.75,0,86,4522,10,28,53,0.922,31.5,326,4.83,12.9,17.1,1,25.5,2.57,5.4,0,0,1,1,0,261,-1,120,315,45.699055,4.910114,30.92,193.2,9,3,1.8,0,0.0,-1,0.0,0.0,0.0,0,7.77,12.7574
765463,1622993874024,,,,,,,,-0.19,-0.73,-0.32,-39,-4,-6,0.75,,86,4500,10,28,54,0.927,31.2,328,4.88,12.9,17.1,1,25.5,2.57,5.4,0,0,1,1,0,259,-1,115,312,,,,,,,,,,,,,,,,
765483,1622993874044,,,,,,,,-0.15,-0.7,-0.46,-41,-5,-6,0.72,,86,4545,11,28,55,0.931,31.1,323,4.92,13.0,17.1,1,26.3,2.6,5.4,0,0,1,1,0,256,-1,115,311,,,,,,,,,,,,,,,,
765503,1622993874064,,,,,,,,-0.14,-0.75,-0.59,-42,-5,-5,0.76,,86,4541,14,28,56,0.936,31.4,328,4.96,13.0,17.1,1,26.5,2.61,5.4,0,0,1,1,0,255,-1,115,310,,,,,,,,,,,,,,,,
765523,1622993874084,,,,,,,,-0.11,-0.79,-0.71,-44,-5,-5,0.79,,86,4585,17,28,59,0.94,30.6,333,4.93,13.0,17.4,1,27.9,2.65,5.4,0,0,1,1,0,259,-1,115,306,,,,,,,,,,,,,,,,
765543,1622993874110,3,1,36,28,28,39,-51,-0.1,-0.8,-0.81,-45,-5,-4,0.8,0,86,4637,18,28,63,0.945,30.5,333,4.94,13.0,17.4,1,29.7,4.41,5.4,0,0,1,1,0,261,-1,28160,305,45.699051,4.910107,29.72,193.1,9,3,1.8,0,0.0,-1,0.0,,0.0,0,7.78,12.7591
765563,1622993874130,,,,,,,,-0.13,-0.8,-0.91,-46,-3,-2,0.81,,86,4680,19,28,67,0.938,30.4,332,4.93,13.0,17.4,1,31.5,4.75,5.4,0,0,1,1,0,260,-1,26880,304,,,,,,,,,,,,,,,,
765583,1622993874150,,,,,,,,-0.16,-0.73,-0.82,-47,-1,-2,0.75,,86,4770,19,28,70,0.93,30.3,346,4.85,12.9,17.4,1,33.5,5.09,5.4,0,0,1,1,0,259,630,25600,303,,,,,,,,,,,,,,,,
765603,1622993874170,,,,,,,,-0.2,-0.69,-0.58,-47,-1,-3,0.71,,86,4826,21,28,73,0.922,30.4,349,4.97,12.8,17.4,1,35.1,5.34,5.4,0,0,1,1,0,260,630,25600,304,,,,,,,,,,,,,,,,
765623,1622993874192,,,,,,,,-0.14,-0.66,-0.53,-47,-3,-4,0.68,,86,4976,21,28,75,0.914,30.3,351,4.94,13.0,38.9,1,37.7,5.72,11.8,0,0,1,1,0,260,630,95,303,,,,,,,,,,,,,,,,
765643,1622993874212,3,3,36,29,31,37,-36,-0.17,-0.65,-0.65,-47,-0,-1,0.67,0,86,5121,21,28,78,0.901,30.3,366,4.83,12.9,38.9,1,38.9,6.06,11.8,0,0,1,1,0,262,630,24320,303,45.699043,4.910099,29.24,193.0,9,3,1.8,0,0.0,-1,0.0,0.0,0.0,0,7.78,12.7607
765663,1622993874232,,,,,,,,-0.09,-0.59,-0.43,-47,-4,-3,0.6,,86,5191,21,28,80,0.886,29.9,367,4.93,12.9,38.9,1,39.3,6.21,11.8,0,0,1,1,0,270,630,95,299,,,,,,,,,,,,,,,,
765683,1622993874252,,,,,,,,-0.05,-0.57,-0.56,-46,-2,-2,0.57,,86,5024,21,28,82,0.871,30.1,362,4.87,12.9,38.9,1,40.2,5.96,11.8,0,0,1,1,0,284,630,100,301,,,,,,,,,,,,,,,,
765703,1622993874272,,,,,,,,-0.02,-0.5,-0.55,-44,-2,-0,0.5,,86,4764,21,28,83,0.856,30.1,351,4.85,12.8,38.9,1,37.1,5.81,11.8,0,0,1,1,0,302,630,26880,297,,,,,,,,,,,,,,,,
765723,1622993874294,,,,,,,,-0.01,-0.44,-0.62,-43,-1,1,0.44,,86,4498,21,28,84,0.843,30.0,335,4.85,12.9,41.7,1,33.3,5.57,12.4,0,0,1,1,0,290,630,105,300,,,,,,,,,,,,,,,,
765743,1622993874314,2,3,37,35,29,30,-10,-0.02,-0.35,-0.69,-41,0,2,0.35,0,86,4420,21,28,85,0.829,30.1,328,4.9,12.9,41.7,1,32.5,5.58,12.4,0,0,1,1,0,293,630,95,295,45.699039,4.91009,28.65,193.0,9,3,1.8,0,0.0,-1,0.0,,0.0,0,7.78,12.7624
765763,1622993874334,,,,,,,,-0.06,-0.29,-0.8,-38,2,4,0.3,,86,4526,20,28,86,0.815,29.9,332,4.89,12.9,41.7,1,34.3,5.65,12.4,0,0,1,1,0,291,630,95,299,,,,,,,,,,,,,,,,
765783,1622993874354,,,,,,,,-0.1,-0.2,-0.83,-36,4,4,0.22,,86,4609,20,28,86,0.801,29.4,338,4.87,13.0,41.7,1,35.6,5.63,12.4,0,0,1,1,0,291,630,23040,294,,,,,,,,,,,,,,,,
765803,1622993874374,,,,,,,,-0.15,-0.06,-0.6,-33,5,4,0.16,,86,4760,19,28,86,0.788,29.1,341,4.91,12.8,41.7,1,37.9,5.65,12.4,0,0,1,1,0,295,630,85,291,,,,,,,,,,,,,,,,
765823,1622993874392,,,,,,,,-0.12,-0.01,-0.38,-29,2,2,0.12,,86,4839,19,28,86,0.778,28.8,343,4.98,12.9,42.6,1,39.1,5.62,12.4,0,0,1,1,0,299,630,21760,288,,,,,,,,,,,,,,,,
765843,1622993874412,12,7,34,37,33,28,20,-0.07,0.0,-0.52,-26,1,2,0.07,0,86,4898,19,28,86,0.769,28.7,342,4.95,13.0,42.6,1,39.9,5.65,12.4,0,0,1,1,0,301,630,23040,285,45.699036,4.910081,30.24,192.9,9,3,1.8,0,0.0,-1,0.0,0.0,0.0,0,7.78,12.764
765863,1622993874432,,,,,,,,-0.09,0.05,-0.64,-22,4,5,0.1,,86,4919,19,28,86,0.76,28.2,347,4.87,12.9,42.6,1,40.3,2.53,12.4,0,0,1,1,0,303,630,24320,282,,,,,,,,,,,,,,,,
765883,1622993874452,,,,,,,,-0.12,0.15,-0.42,-19,4,4,0.19,,86,4857,19,29,86,0.753,27.8,361,4.83,12.8,42.6,1,39.3,5.49,12.4,0,0,1,1,0,304,630,25600,276,,,,,,,,,,,,,,,,
765903,1622993874472,,,,,,,,-0.12,0.24,-0.22,-15,2,2,0.27,,86,4707,19,29,86,0.749,27.8,351,4.9,12.8,42.6,1,37.0,5.43,12.4,0,0,1,1,0,306,630,95,275,,,,,,,,,,,,,,,,
765923,1622993874492,,,,,,,,-0.1,0.31,-0.05,-12,1,1,0.32,,86,4592,19,29,86,0.745,27.8,340,4.96,12.9,42.2,1,35.3,5.35,11.8,0,0,1,1,0,305,630,90,271,,,,,,,,,,,,,,,,
765943,1622993874512,15,9,31,37,35,28,47,-0.09,0.36,-0.03,-8,-1,-0,0.38,0,86,4570,19,29,86,0.742,27.8,335,4.96,12.8,42.2,1,35.0,5.32,11.8,0,0,1,1,0,305,630,100,271,45.699032,4.910072,30.57,192.9,9,3,1.8,0,0.0,-1,0.0,,0.0,0,7.78,12.7657
765963,1622993874532,,,,,,,,-0.06,0.4,-0.08,-4,-2,-1,0.41,,86,4629,19,29,86,0.738,27.8,329,4.92,12.9,42.2,1,35.9,5.28,11.8,0,0,1,1,0,303,630,100,268,,,,,,,,,,,,,,,,
765983,1622993874552,,,,,,,,-0.07,0.46,-0.24,-0,-2,-0,0.47,,86,4682,19,29,86,0.734,27.8,333,4.92,12.9,42.2,1,36.7,5.29,11.8,0,0,1,1,0,302,630,110,263,,,,,,,,,,,,,,,,
766003,1622993874572,,,,,,,,-0.08,0.49,-0.39,4,1,2,0.49,,86,4837,19,29,86,0.729,27.8,342,4.87,13.0,42.2,1,39.0,5.27,11.8,0,0,1,1,0,304,630,1886,264,,,,,,,,,,,,,,,,
766023,1622993874594,,,,,,,,-0.16,0.56,-0.27,8,1,3,0.58,,86,4885,19,29,86,0.725,27.8,357,4.85,12.8,45.0,1,40.2,5.25,11.9,0,0,1,1,0,305,630,24320,255,,,,,,,,,,,,,,,,
766043,1622993874614,14,8,27,36,38,29,62,-0.17,0.64,-0.08,12,-0,1,0.66,0,86,4961,19,29,86,0.721,27.8,360,4.88,12.8,45.0,1,40.9,5.26,11.9,0,0,1,1,0,303,630,-27136,257,45.699028,4.910062,30.36,192.8,9,3,1.8,0,0.0,-1,0.0,0.0,0.0,0,7.78,12.7674
766063,1622993874634,,,,,,,,-0.14,0.61,-0.24,16,0,2,0.63,,86,5029,19,29,86,0.72,27.8,353,5.0,13.0,45.0,1,41.5,2.57,11.9,0,0,1,1,0,305,630,-24576,258,,,,,,,,,,,,,,,,
766083,1622993874654,,,,,,,,-0.19,0.67,-0.28,19,1,3,0.7,,86,5070,19,29,86,0.718,25.5,364,4.85,12.8,45.0,1,41.4,5.27,11.9,0,0,1,1,0,306,250,-25856,255,,,,,,,,,,,,,,,,
766103,1622993874674,,,,,,,,-0.17,0.79,-0.09,23,-3,-0,0.8,,86,5118,19,29,86,0.717,25.2,365,4.91,12.9,45.0,1,41.3,5.33,11.9,0,0,1,1,0,306,250,140,252,,,,,,,,,,,,,,,,
766123,1622993874691,,,,,,,,-0.18,0.79,-0.25,27,1,3,0.81,,86,5125,19,29,86,0.717,25.3,367,4.86,12.9,50.6,1,41.3,5.29,12.6,0,0,1,1,0,311,250,-30976,253,,,,,,,,,,,,,,,,
766143,1622993874711,11,8,26,38,39,29,70,-0.16,0.88,-0.06,31,-2,1,0.9,0,86,5029,19,29,86,0.716,24.5,373,4.86,12.9,50.6,1,41.5,5.08,12.6,0,0,1,1,0,312,250,175,245,45.699024,4.910055,29.43,192.8,9,3,1.8,0,0.0,-1,0.0,,0.0,0,7.78,12.769
766163,1622993874731,,,,,,,,-0.12,0.85,-0.19,34,-3,0,0.86,,86,4939,19,29,86,0.715,24.8,357,4.98,13.0,50.6,1,40.5,5.01,12.6,0,0,1,1,0,314,250,3346,248,,,,,,,,,,,,,,,,
766183,1622993874751,,,,,,,,-0.11,0.92,-0.34,37,-0,2,0.93,,86,4868,19,29,86,0.715,25.0,353,4.91,13.0,50.6,1,39.5,4.91,12.6,0,0,1,1,0,314,250,110,250,,,,,,,,,,,,,,,,
766203,1622993874771,,,,,,,,-0.14,0.96,-0.32,40,1,3,0.97,,86,4775,20,29,87,0.714,25.1,353,4.83,12.9,50.6,1,38.4,4.89,12.6,0,0,1,1,0,313,250,28160,251,,,,,,,,,,,,,,,,
766223,1622993874791,,,,,,,,-0.21,1.02,-0.13,42,0,2,1.04,,86,4720,20,29,87,0.713,25.5,345,4.91,12.8,41.3,1,37.5,4.83,10.5,0,0,1,1,0,311,250,30720,253,,,,,,,,,,,,,,,,
766243,1622993874811,7,5,27,41,40,28,72,-0.21,1.06,0.05,45,-2,0,1.08,0,86,4833,21,29,87,0.712,25.2,347,4.91,12.8,41.3,1,39.3,4.79,10.5,0,0,1,1,0,311,250,-29696,251,45.699017,4.910047,28.57,192.8,9,3,1.8,0,0.0,-1,0.0,0.0,0.0,0,7.78,12.7707
766263,1622993874831,,,,,,,,-0.19,1.06,-0.12,47,-3,-1,1.08,,86,4893,24,29,88,0.711,25.4,347,4.97,12.9,41.3,1,40.5,4.78,10.5,0,0,1,1,0,310,250,-32256,252,,,,,,,,,,,,,,,,
766283,1622993874851,,,,,,,,-0.21,1.06,-0.28,50,0,2,1.08,,86,5088,25,29,89,0.709,25.2,367,4.88,12.9,41.3,1,42.2,4.86,10.5,0,0,1,1,0,309,250,90,252,,,,,,,,,,,,,,,,
766303,1622993874871,,,,,,,,-0.18,1.11,-0.09,52,-4,-1,1.12,,86,5206,25,29,90,0.709,25.4,372,4.9,12.8,41.3,1,42.2,2.77,10.5,0,0,1,1,0,312,250,150,254,,,,,,,,,,,,,,,,
766323,1622993874891,,,,,,,,-0.24,1.12,-0.25,54,-0,2,1.14,,86,5293,25,29,90,0.709,25.0,382,4.85,12.8,48.0,1,41.9,5.16,12.2,0,0,1,1,0,314,250,28553,250,,,,,,,,,,,,,,,,
766343,1622993874911,8,4,27,39,40,29,73,-0.13,1.18,-0.06,55,-5,-2,1.19,0,86,5439,25,29,90,0.708,25.5,378,4.97,13.0,48.0,1,41.5,4.19,12.2,0,0,1,1,0,317,250,-30454,255,45.699017,4.91004,28.91,192.8,9,3,1.8,0,0.0,-1,0.0,,0.0,0,7.78,12.7724
766363,1622993874931,,,,,,,,-0.16,1.18,-0.22,58,1,2,1.19,,86,5521,25,29,90,0.708,25.3,397,4.87,12.8,48.0,1,41.2,4.3,12.2,0,0,1,1,0,320,250,-122,253,,,,,,,,,,,,,,,,
766383,1622993874951,,,,,,,,-0.14,1.11,-0.37,59,1,3,1.12,,86,5524,26,29,90,0.709,25.4,389,4.99,13.0,48.0,1,41.2,4.31,12.2,0,0,1,1,0,326,250,6668,254,,,,,,,,,,,,,,,,
766403,1622993874971,,,,,,,,-0.03,1.12,-0.17,61,-6,-2,1.12,,86,5448,26,29,89,0.708,25.6,399,4.9,13.0,48.0,1,41.2,4.17,12.2,0,0,1,1,0,332,250,-31222,256,,,,,,,,,,,,,,,,
766423,1622993874991,,,,,,,,-0.1,1.12,-0.32,63,-0,3,1.13,,86,5316,26,29,90,0.708,26.0,393,4.85,12.8,40.3,1,41.9,4.03,10.3,0,0,1,1,0,342,250,3346,260,,,,,,,,,,,,,,,,
766443,1622993875003,4,3,33,44,37,27,58,-0.0,1.12,-0.13,64,-5,-1,1.12,0,86,5186,26,29,90,0.708,26.5,370,5.0,13.0,40.3,1,42.3,3.86,10.3,0,0,1,1,0,338,250,-24576,266,45.699009,4.910035,29.57,192.9,9,3,1.8,0,0.0,-1,0.0,0.0,0.0,0,7.78,12.774
766463,1622993875023,,,,,,,,0.02,1.1,-0.29,64,-1,3,1.1,,86,5075,26,29,91,0.711,26.6,370,4.9,12.9,40.3,1,42.6,3.76,10.3,0,0,1,1,0,338,250,155,266,,,,,,,,,,,,,,,,
766483,1622993875043,,,,,,,,0.06,1.05,-0.09,64,-4,1,1.05,,86,5017,26,29,91,0.715,27.3,367,4.86,12.8,40.3,1,42.8,3.68,10.3,0,0,1,1,0,334,250,145,273,,,,,,,,,,,,,,,,
766503,1622993875063,,,,,,,,0.08,1.0,-0.25,63,-4,1,1.0,,86,5052,26,29,91,0.719,27.7,354,4.99,13.0,40.3,1,42.7,2.61,10.3,0,0,1,1,0,329,250,-32559,277,,,,,,,,,,,,,,,,
766523,1622993875083,,,,,,,,0.03,1.0,-0.38,62,-1,2,1.0,,86,5185,26,29,92,0.723,28.1,371,4.83,12.7,31.7,1,42.3,3.92,8.8,0,0,1,1,0,328,250,160,281,,,,,,,,,,,,,,,,
766543,1622993875109,8,4,35,41,37,28,36,0.06,0.93,-0.18,61,-3,-1,0.93,0,86,5301,26,29,91,0.733,28.2,371,4.95,13.0,31.7,1,41.9,4.07,8.8,0,0,1,1,0,327,250,-32559,282,45.698998,4.91003,30.78,192.8,9,3,1.8,0,0.0,-1,0.0,,0.0,0,7.78,12.7757
766563,1622993875129,,,,,,,,0.04,0.92,-0.33,59,-0,0,0.92,,86,5434,26,29,91,0.745,28.8,389,4.82,12.8,31.7,1,41.5,3.14,8.8,0,0,1,1,0,327,250,-27136,288,,,,,,,,,,,,,,,,
766583,1622993875149,,,,,,,,-0.05,0.87,-0.47,57,1,1,0.87,,86,5448,26,29,91,0.757,29.0,393,4.9,12.9,31.7,1,41.5,4.26,8.8,0,0,1,1,0,333,250,-12032,290,,,,,,,,,,,,,,,,
766603,1622993875169,,,,,,,,0.09,0.8,-0.27,55,-5,-3,0.8,,86,5389,26,29,91,0.769,29.9,390,4.9,12.9,31.7,1,41.6,4.18,8.8,0,0,1,1,0,335,250,-32559,299,,,,,,,,,,,,,,,,
766623,1622993875189,,,,,,,,0.02,0.77,-0.41,53,2,2,0.77,,86,5344,26,29,91,0.781,30.5,389,4.86,12.8,34.7,1,41.8,3.01,10.3,0,0,1,1,0,333,250,165,305,,,,,,,,,,,,,,,,
766643,1622993875207,7,5,38,39,32,27,10,0.1,0.64,-0.54,50,-6,-3,0.64,0,86,5227,26,29,91,0.793,30.6,374,4.94,12.9,34.7,1,42.1,3.97,10.3,0,0,1,1,0,335,250,170,306,45.698994,4.910027,31.39,192.7,9,3,1.8,0,0.0,-1,0.0,0.0,0.0,0,7.78,12.7774
766663,1622993875227,,,,,,,,0.06,0.56,-0.52,47,0,1,0.57,,86,5141,26,29,92,0.806,31.3,372,4.92,12.9,34.7,1,42.4,3.91,10.3,0,0,1,1,0,336,250,175,313,,,,,,,,,,,,,,,,
766683,1622993875247,,,,,,,,0.14,0.47,-0.31,43,-5,-3,0.49,,86,5134,26,29,92,0.817,31.8,362,4.93,12.9,34.7,1,42.4,3.9,10.3,0,0,1,1,0,333,250,170,320,,,,,,,,,,,,,,,,
766703,1622993875267,,,,,,,,0.14,0.33,-0.45,40,-1,0,0.36,,86,5169,26,29,92,0.828,32.5,358,4.97,13.0,34.7,1,42.3,3.95,10.3,0,0,1,1,0,335,250,-6528,325,,,,,,,,,,,,,,,,
766723,1622993875291,,,,,,,,0.2,0.18,-0.25,35,-4,-3,0.27,,86,5292,26,29,91,0.837,32.5,389,4.84,12.8,29.7,1,41.9,4.06,9.6,0,0,1,1,0,332,250,13,325,,,,,,,,,,,,,,,,
766743,1622993875311,10,6,41,37,27,31,-33,0.14,0.15,-0.39,31,1,0,0.2,0,86,5406,26,29,91,0.847,32.8,388,4.86,12.8,29.7,1,41.6,4.21,9.6,0,0,1,1,0,333,-30976,6668,329,45.698986,4.910024,32.85,192.7,9,3,1.8,0,0.0,-1,0.0,,0.0,0,7.79,12.779
766763,1622993875331,,,,,,,,0.19,-0.03,-0.3,26,-4,-4,0.2,,86,5519,26,29,91,0.856,33.1,380,4.98,13.0,29.7,1,41.2,4.36,9.6,0,0,1,1,0,343,120,6870,331,,,,,,,,,,,,,,,,
766783,1622993875351,,,,,,,,0.26,-0.16,-0.11,21,-3,-4,0.31,,86,5580,26,29,90,0.862,33.4,393,4.9,12.9,29.7,1,41.1,4.38,9.6,0,0,1,1,0,352,28160,-1246,334,,,,,,,,,,,,,,,,
766803,1622993875371,,,,,,,,0.16,-0.24,-0.27,17,2,-2,0.29,,86,5656,26,29,90,0.865,34.1,402,4.82,12.8,29.7,1,40.8,4.47,9.6,0,0,1,1,0,357,85,-30454,341,,,,,,,,,,,,,,,,
766823,1622993875391,,,,,,,,0.06,-0.26,-0.41,12,1,-3,0.27,,86,5723,26,29,89,0.867,33.9,396,4.98,13.0,34.5,1,40.3,4.53,11.7,0,0,1,1,0,358,21760,3302,339,,,,,,,,,,,,,,,,
766843,1622993875411,9,6,43,33,26,35,-64,0.06,-0.31,-0.48,7,-4,-5,0.32,0,86,5781,26,29,89,0.868,34.5,401,4.94,13.0,34.5,1,40.1,4.6,11.7,0,0,1,1,0,368,0,-29302,345,45.698978,4.910021,34.46,192.8,9,3,1.8,0,0.0,-1,0.0,0.0,0.0,0,7.79,12.7807
766863,1622993875431,,,,,,,,0.11,-0.42,-0.28,2,-7,-8,0.43,,86,5872,26,29,88,0.869,34.6,408,4.9,13.0,34.5,1,39.6,4.65,11.7,0,0,1,1,0,367,-1527,-6458,346,,,,,,,,,,,,,,,,
766883,1622993875451,,,,,,,,0.19,-0.4,-0.09,-3,-10,-11,0.44,,86,5958,26,29,88,0.87,34.6,413,4.97,13.0,34.5,1,39.4,4.75,11.7,0,0,1,1,0,354,-1,230,346,,,,,,,,,,,,,,,,
766903,1622993875471,,,,,,,,0.3,-0.51,0.09,-7,-14,-14,0.59,,86,5937,28,29,88,0.871,35.1,417,4.9,12.9,34.5,1,39.5,4.73,11.7,0,0,1,1,0,366,506,257,351,,,,,,,,,,,,,,,,
766923,1622993875493,,,,,,,,0.38,-0.58,0.25,-11,-16,-14,0.7,,86,5922,30,29,88,0.872,34.9,417,4.87,13.0,36.9,1,39.5,4.71,12.9,0,0,1,1,0,388,-1281,-6656,349,,,,,,,,,,,,,,,,
766943,1622993875513,8,5,45,33,27,35,-73,0.44,-0.64,0.39,-15,-15,-15,0.78,0,86,5939,30,29,89,0.874,35.1,413,4.92,13.0,36.9,1,39.7,4.8,12.9,0,0,1,1,0,375,8704,-6656,351,45.698971,4.910018,34.2,192.7,9,3,1.8,0,0.0,-1,0.0,,0.0,0,7.79,12.7824
766963,1622993875533,,,,,,,,0.51,-0.75,0.53,-19,-15,-13,0.91,,86,5959,30,29,90,0.878,35.5,431,4.87,12.8,36.9,1,39.9,4.9,12.9,0,0,1,1,0,362,-1533,3,355,,,,,,,,,,,,,,,,
766983,1622993875553,,,,,,,,0.55,-0.8,0.65,-21,-12,-11,0.97,,86,5941,30,29,90,0.881,35.4,431,4.89,12.8,36.9,1,39.9,4.87,12.9,0,0,1,1,0,372,13874,2278,354,,,,,,,,,,,,,,,,
767003,1622993875573,,,,,,,,0.55,-0.81,0.76,-24,-8,-9,0.98,,86,5956,32,29,90,0.885,36.5,426,4.86,12.7,36.9,1,39.9,4.9,12.9,0,0,1,1,0,387,-1281,-992,365,,,,,,,,,,,,,,,,
767023,1622993875591,,,,,,,,0.53,-0.91,0.87,-26,-5,-4,1.05,,86,6052,38,29,92,0.89,36.9,432,4.86,12.8,37.8,1,40.2,5.05,13.8,0,0,1,1,0,396,250,19125,369,,,,,,,,,,,,,,,,
767043,1622993875611,6,4,46,33,26,35,-73,0.59,-0.94,0.96,-29,-4,-5,1.11,0,86,6196,42,29,93,0.896,36.1,443,4.85,12.8,37.8,1,41.7,5.0,13.8,0,0,1,1,0,380,-1,19125,361,45.698959,4.910014,35.06,192.7,9,3,1.8,0,0.0,-1,0.0,0.0,0.0,0,7.79,12.784
767063,1622993875631,,,,,,,,0.6,-1.03,1.05,-31,-6,-6,1.19,,86,6283,45,29,95,0.901,36.5,446,4.89,12.9,37.8,1,42.6,5.84,13.8,0,0,1,1,0,381,250,240,365,,,,,,,,,,,,,,,,
767083,1622993875651,,,,,,,,0.56,-1.07,0.79,-33,-10,-10,1.2,,86,6358,46,29,95,0.906,36.0,444,4.91,12.8,37.8,1,43.3,5.77,13.8,0,0,1,1,0,378,16384,-3866,360,,,,,,,,,,,,,,,,
767103,1622993875671,,,,,,,,0.43,-1.0,0.56,-35,-6,-7,1.09,,86,6447,46,29,95,0.914,36.9,448,4.89,12.8,37.8,1,44.3,5.64,13.8,0,0,1,1,0,436,250,505,369,,,,,,,,,,,,,,,,
767123,1622993875692,,,,,,,,0.48,-1.0,0.68,-37,-5,-4,1.11,,86,6572,46,29,95,0.923,36.8,463,4.9,12.8,45.3,1,45.5,5.46,16.7,0,0,1,1,0,444,12800,11545,368,,,,,,,,,,,,,,,,
767143,1622993875712,7,4,46,35,27,35,-58,0.45,-0.99,0.46,-39,-5,-7,1.09,0,86,6725,47,29,96,0.932,37.4,471,4.91,12.8,45.3,1,47.1,5.31,16.7,0,0,1,1,0,396,1088,10541,374,45.698952,4.910009,36.45,192.7,9,3,1.8,0,0.0,-1,0.0,,0.0,0,7.79,12.7857
767163,1622993875732,,,,,,,,0.51,-1.0,0.51,-40,-3,-5,1.12,,86,6686,47,29,96,0.941,38.7,481,4.88,12.8,45.3,1,46.7,5.23,16.7,0,0,1,1,0,389,1088,1504,387,,,,,,,,,,,,,,,,
767183,1622993875752,,,,,,,,0.47,-1.05,0.59,-42,-6,-8,1.15,,86,6618,47,29,96,0.949,39.0,465,4.9,12.9,45.3,1,46.0,5.23,16.7,0,0,1,1,0,418,1088,-26615,390,,,,,,,,,,,,,,,,
767203,1622993875772,,,,,,,,0.45,-0.94,0.37,-43,-2,-3,1.04,,86,6625,47,29,96,0.946,39.4,469,4.91,12.8,45.3,1,46.1,5.15,16.7,0,0,1,1,0,418,1088,2524,394,,,,,,,,,,,,,,,,
767223,1622993875792,,,,,,,,0.49,-0.85,0.51,-43,-4,-5,0.98,,86,6627,47,29,96,0.941,39.2,469,4.92,12.9,39.5,1,46.1,5.07,15.6,0,0,1,1,0,388,1088,13040,392,,,,,,,,,,,,,,,,
767243,1622993875812,2,2,45,38,26,33,-17,0.43,-0.86,0.3,-42,-3,-4,0.96,0,86,6595,47,29,96,0.937,39.7,469,4.91,12.8,39.5,1,45.8,5.0,15.6,0,0,1,1,0,407,28160,-26615,397,45.698944,4.910002,37.54,192.6,9,3,1.8,0,0.0,-1,0.0,0.0,0.0,0,7.79,12.7874
767263,1622993875832,,,,,,,,0.52,-0.77,0.44,-41,-2,-2,0.92,,86,6588,48,29,96,0.933,39.9,470,4.87,12.8,39.5,1,45.7,4.91,15.6,0,0,1,1,0,420,250,2524,398,,,,,,,,,,,,,,,,
767283,1622993875852,,,,,,,,0.48,-0.85,0.24,-41,-4,-5,0.97,,86,6637,50,29,96,0.915,40.1,453,4.93,12.9,39.5,1,46.2,4.84,15.6,0,0,1,1,0,405,250,-26615,401,,,,,,,,,,,,,,,,
767303,1622993875872,,,,,,,,0.49,-0.77,0.05,-40,-1,-3,0.91,,86,6679,50,29,96,0.898,40.6,476,4.88,12.7,39.5,1,46.6,4.81,15.6,0,0,1,1,0,408,250,2524,406,,,,,,,,,,,,,,,,
767323,1622993875892,,,,,,,,0.5,-0.87,0.21,-40,-4,-6,1.0,,86,6679,50,29,96,0.88,40.5,465,4.93,12.9,36.4,1,46.6,4.81,14.8,0,0,1,1,0,414,250,-8165,411,,,,,,,,,,,,,,,,
767343,1622993875910,5,3,47,38,23,32,-37,0.48,-0.85,0.03,-39,-1,-4,0.98,0,86,6679,50,29,96,0.863,41.1,482,4.88,12.8,36.4,1,46.6,4.81,14.8,0,0,1,1,0,444,250,3826,411,45.698936,4.909995,39.64,192.6,9,3,1.8,0,0.0,-1,0.0,,0.0,0,7.79,12.7891
767363,1622993875930,,,,,,,,0.52,-0.88,0.19,-40,-4,-5,1.03,,86,6756,51,29,96,0.846,41.0,473,4.9,12.9,36.4,1,47.4,3.64,14.8,0,0,1,1,0,432,250,-3314,410,,,,,,,,,,,,,,,,
767383,1622993875950,,,,,,,,0.48,-0.77,0.01,-39,-1,-3,0.91,,86,6860,52,29,96,0.83,41.8,480,4.91,12.8,36.4,1,48.5,4.66,14.8,0,0,1,1,0,413,250,1779,418,,,,,,,,,,,,,,,,
767403,1622993875970,,,,,,,,0.51,-0.75,0.18,-39,-3,-5,0.9,,86,6885,52,29,96,0.812,42.1,482,4.91,12.9,36.4,1,48.8,4.64,14.8,0,0,1,1,0,428,250,-7939,421,,,,,,,,,,,,,,,,
767423,1622993875990,,,,,,,,0.56,-0.63,0.16,-38,-1,-2,0.85,,86,6900,53,29,96,0.795,42.3,490,4.91,12.9,34.9,1,48.9,4.63,14.8,0,0,1,1,0,440,250,5600,423,,,,,,,,,,,,,,,,
767443,1622993876002,1,2,46,41,26,30,-7,0.51,-0.63,-0.02,-36,-1,-3,0.81,0,86,6941,53,29,96,0.782,42.4,483,4.91,12.8,34.9,1,49.5,4.59,14.8,0,0,1,1,0,424,250,19477,424,45.698929,4.909985,41.71,192.6,9,3,1.8,0,0.0,-1,0.0,0.0,0.0,0,7.79,12.7907
767463,1622993876022,,,,,,,,0.56,-0.59,0.15,-34,-2,-3,0.81,,86,6993,53,29,96,0.774,42.3,484,4.93,12.9,34.9,1,49.9,4.56,14.8,0,0,1,1,0,437,250,-28332,423,,,,,,,,,,,,,,,,
767483,1622993876042,,,,,,,,0.57,-0.48,-0.03,-32,-1,-0,0.74,,86,7030,53,29,96,0.767,43.0,494,4.88,12.9,34.9,1,49.6,4.57,14.8,0,0,1,1,0,438,250,-28332,430,,,,,,,,,,,,,,,,
767503,1622993876062,,,,,,,,0.51,-0.46,-0.2,-30,-0,-0,0.69,,86,7070,53,29,96,0.758,43.4,494,4.92,12.8,34.9,1,48.9,4.6,14.8,0,0,1,1,0,439,250,21432,434,,,,,,,,,,,,,,,,
767523,1622993876082,,,,,,,,0.52,-0.52,-0.01,-29,-2,-3,0.74,,86,7083,53,29,96,0.757,43.4,495,4.91,12.9,35.1,1,48.9,4.61,15.1,0,0,1,1,0,444,250,-3267,434,,,,,,,,,,,,,,,,
767543,1622993876108,4,3,45,42,25,27,-1,0.58,-0.42,0.16,-27,-2,-2,0.71,0,86,7104,53,29,96,0.761,43.1,500,4.88,12.9,35.1,1,48.6,4.63,15.1,0,0,1,1,0,452,250,15649,431,45.698917,4.909975,43.42,192.5,9,3,1.8,0,0.0,-1,0.0,,0.0,0,7.79,12.7924
767563,1622993876128,,,,,,,,0.58,-0.37,-0.02,-25,-1,1,0.68,,86,7153,53,29,96,0.765,44.1,503,4.87,12.7,35.1,1,47.9,4.68,15.1,0,0,1,1,0,450,250,-6387,441,,,,,,,,,,,,,,,,
767583,1622993876148,,,,,,,,0.54,-0.38,-0.19,-23,0,1,0.66,,86,7228,53,29,96,0.77,43.8,514,4.88,12.8,35.1,1,46.8,4.73,15.1,0,0,1,1,0,457,250,17628,438,,,,,,,,,,,,,,,,
767603,1622993876168,,,,,,,,0.49,-0.42,-0.21,-21,-0,0,0.65,,86,7301,53,29,96,0.773,44.7,510,4.93,12.8,35.1,1,45.2,4.81,15.1,0,0,1,1,0,460,250,2211,447,,,,,,,,,,,,,,,,
767623,1622993876188,,,,,,,,0.49,-0.47,-0.22,-19,-1,-1,0.68,,86,7416,54,29,96,0.775,44.5,513,4.89,12.9,36.8,1,44.0,4.91,16.5,0,0,1,1,0,463,250,6193,445,,,,,,,,,,,,,,,,
767643,1622993876210,5,3,44,41,27,26,-4,0.48,-0.46,-0.03,-18,-3,-3,0.66,0,86,7500,56,29,96,0.777,45.3,517,4.89,12.9,36.8,1,42.7,3.88,16.5,0,0,1,1,0,468,250,32033,453,45.698914,4.909964,45.54,192.5,9,3,1.8,0,0.0,-1,0.0,0.0,0.0,0,7.8,12.7941
767663,1622993876230,,,,,,,,0.43,-0.47,-0.12,-17,-2,-3,0.64,,86,7603,59,29,96,0.779,45.8,533,4.9,12.8,36.8,1,41.3,5.08,16.5,0,0,1,1,0,472,250,-1923,458,,,,,,,,,,,,,,,,
767683,1622993876250,,,,,,,,0.4,-0.53,-0.28,-16,-2,-2,0.66,,86,7716,59,29,96,0.781,46.1,543,4.95,12.7,36.8,1,39.6,5.13,16.5,0,0,1,1,0,473,250,3576,461,,,,,,,,,,,,,,,,
767703,1622993876270,,,,,,,,0.39,-0.53,-0.42,-15,-0,-0,0.65,,86,7763,59,29,96,0.781,46.8,545,4.92,12.8,36.8,1,38.9,5.18,16.5,0,0,1,1,0,484,250,8488,461,,,,,,,,,,,,,,,,
767723,1622993876290,,,,,,,,0.47,-0.51,-0.53,-14,-1,0,0.69,,86,7789,60,29,96,0.781,46.9,555,4.9,12.7,39.9,1,38.5,5.23,18.7,0,0,1,1,0,486,250,3580,469,,,,,,,,,,,,,,,,
767743,1622993876310,5,2,46,43,25,26,-8,0.52,-0.43,-0.38,-13,-1,-0,0.67,0,86,7799,61,29,95,0.781,46.6,554,4.86,12.9,39.9,1,38.4,5.24,18.7,0,0,1,1,0,489,250,-6441,470,45.698902,4.909952,47.05,192.5,9,3,1.8,0,0.0,-1,0.0,,0.0,0,7.8,12.7957
767763,1622993876330,,,,,,,,0.5,-0.41,-0.19,-13,-2,-3,0.65,,86,7868,62,29,95,0.78,47.5,546,4.83,12.9,39.9,1,37.4,5.28,18.7,0,0,1,1,0,492,250,248,475,,,,,,,,,,,,,,,,
767783,1622993876350,,,,,,,,0.46,-0.46,-0.34,-13,-2,-3,0.65,,86,7934,62,29,96,0.777,47.9,550,4.92,12.8,39.9,1,36.1,5.34,18.7,0,0,1,1,0,497,250,248,479,,,,,,,,,,,,,,,,
767803,1622993876370,,,,,,,,0.48,-0.45,-0.48,-12,-1,-0,0.66,,86,8057,62,29,95,0.774,48.5,566,4.97,12.7,39.9,1,36.3,5.52,18.7,0,0,1,1,0,498,250,15661,485,,,,,,,,,,,,,,,,
767823,1622993876390,,,,,,,,0.48,-0.46,-0.27,-12,-2,-3,0.66,,86,8194,62,29,95,0.771,48.4,561,4.87,12.8,43.0,1,38.4,5.78,20.9,0,0,1,1,0,513,250,-28648,484,,,,,,,,,,,,,,,,
767843,1622993876410,6,3,45,42,26,27,-4,0.51,-0.47,-0.38,-12,-2,-2,0.7,0,86,8370,63,29,94,0.768,49.1,583,4.93,12.7,43.0,1,41.2,6.12,20.9,0,0,1,1,0,507,250,-3856,491,45.698898,4.90994,48.81,192.6,9,3,1.8,0,0.0,-1,0.0,0.0,0.0,0,7.8,12.7974
767863,1622993876430,,,,,,,,0.5,-0.53,-0.46,-12,-1,-2,0.73,,86,8526,63,29,93,0.765,48.9,580,4.81,12.8,43.0,1,42.8,5.25,20.9,0,0,1,1,0,511,250,-14,489,,,,,,,,,,,,,,,,
767883,1622993876450,,,,,,,,0.45,-0.47,-0.28,-11,-2,-3,0.65,,86,8712,63,29,92,0.761,49.7,593,4.92,12.8,43.0,1,41.5,6.32,20.9,0,0,1,1,0,516,250,-14,499,,,,,,,,,,,,,,,,
767903,1622993876470,,,,,,,,0.44,-0.38,-0.09,-10,-2,-3,0.58,,86,8898,64,29,92,0.757,50.0,613,4.91,12.8,43.0,1,39.7,6.35,20.9,0,0,1,1,0,519,250,10408,500,,,,,,,,,,,,,,,,
767923,1622993876492,,,,,,,,0.44,-0.25,0.03,-10,-2,-2,0.5,,86,9049,64,29,91,0.754,50.7,615,4.92,12.8,52.2,1,38.8,6.33,26.1,0,0,1,1,0,527,250,2524,507,,,,,,,,,,,,,,,,
767943,1622993876512,4,3,46,42,25,25,-1,0.4,-0.28,0.19,-9,-2,-3,0.49,0,86,9155,64,29,91,0.756,50.6,630,4.87,12.8,52.2,1,38.8,6.33,26.1,0,0,1,1,0,530,250,-22519,506,45.698887,4.909926,50.77,192.6,9,3,1.8,0,0.0,-1,0.0,,0.0,0,7.8,12.7991
767963,1622993876532,,,,,,,,0.32,-0.25,0.16,-8,-2,-3,0.4,,86,9259,64,29,91,0.758,51.7,628,4.92,12.8,52.2,1,38.9,6.33,26.1,0,0,1,1,0,537,250,6274,517,,,,,,,,,,,,,,,,
767983,1622993876552,,,,,,,,0.38,-0.26,-0.0,-8,-1,-2,0.47,,86,9356,64,29,91,0.76,51.3,642,4.83,12.7,52.2,1,38.9,6.33,26.1,0,0,1,1,0,547,250,2104,517,,,,,,,,,,,,,,,,
768003,1622993876572,,,,,,,,0.5,-0.29,-0.07,-7,-2,-1,0.58,,86,9431,65,29,91,0.762,52.3,638,4.82,12.8,52.2,1,38.9,6.33,26.1,0,0,1,1,0,551,250,2524,523,,,,,,,,,,,,,,,,
768023,1622993876592,,,,,,,,0.5,-0.22,0.11,-7,-2,-4,0.55,,86,9469,65,29,91,0.775,52.1,638,4.94,12.8,53.2,1,38.9,6.33,27.6,0,0,1,1,0,551,250,-28648,521,,,,,,,,,,,,,,,,
768043,1622993876612,10,5,45,45,25,25,1,0.45,-0.3,-0.07,-6,-2,-3,0.54,0,86,9537,63,29,91,0.788,52.3,643,4.91,12.8,53.2,1,39.0,6.34,27.6,0,0,1,1,0,556,250,2104,523,45.698875,4.909913,52.85,192.5,9,3,1.8,0,0.0,-1,0.0,0.0,0.0,0,7.8,12.8007
768063,1622993876632,,,,,,,,0.55,-0.28,-0.23,-6,-1,-1,0.62,,86,9576,52,29,90,0.801,51.9,652,4.85,12.7,53.2,1,39.1,6.3,27.6,0,0,1,1,0,559,250,6274,519,,,,,,,,,,,,,,,,
768083,1622993876652,,,,,,,,0.49,-0.24,-0.04,-5,-1,-2,0.54,,86,9620,40,29,89,0.813,51.6,651,4.87,12.8,53.2,1,39.0,6.17,27.6,0,0,1,1,0,559,250,1267,516,,,,,,,,,,,,,,,,
768103,1622993876672,,,,,,,,0.51,-0.27,-0.21,-5,-0,-1,0.58,,86,9694,28,29,84,0.825,52.1,659,4.81,12.8,53.2,1,39.0,5.35,27.6,0,0,1,1,0,578,250,259,521,,,,,,,,,,,,,,,,
768123,1622993876691,,,,,,,,0.43,-0.17,-0.02,-4,-2,-3,0.46,,86,9664,19,29,75,0.838,51.8,643,4.93,12.8,43.9,1,41.0,4.56,22.9,0,0,1,1,0,560,250,-3210,519,,,,,,,,,,,,,,,,
768143,1622993876711,22,15,44,40,29,27,-1,0.4,-0.12,-0.19,-3,1,-3,0.42,0,86,9479,15,29,68,0.85,52.5,649,4.82,12.8,43.9,1,41.5,3.71,22.9,0,0,1,1,0,568,250,-25872,525,45.698868,4.909898,55.21,192.5,9,3,1.8,0,0.0,-1,0.0,,0.0,0,7.8,12.8024
768163,1622993876731,,,,,,,,0.47,-0.22,-0.34,-3,1,-0,0.52,,86,9245,11,29,61,0.862,52.5,647,4.85,12.7,43.9,1,40.4,3.35,22.9,0,0,1,1,0,578,250,2211,525,,,,,,,,,,,,,,,,
768183,1622993876751,,,,,,,,0.53,-0.22,-0.48,-2,2,1,0.57,,86,8903,9,29,55,0.865,52.3,646,4.84,12.7,43.9,1,39.9,3.22,22.9,0,0,1,1,0,574,250,-2934,532,,,,,,,,,,,,,,,,
768203,1622993876771,,,,,,,,0.5,-0.23,-0.6,-2,2,2,0.55,,86,8530,7,29,50,0.866,54.1,628,4.84,12.8,43.9,1,37.8,2.96,22.9,0,0,1,1,0,566,250,-18032,541,,,,,,,,,,,,,,,,
768223,1622993876791,,,,,,,,0.42,-0.23,-0.61,-2,2,2,0.48,,86,8198,5,29,45,0.868,52.2,610,4.86,12.8,21.5,1,35.3,2.52,11.4,0,0,1,1,0,558,250,2104,522,,,,,,,,,,,,,,,,
768243,1622993876811,23,16,39,37,30,30,-4,0.27,-0.33,-0.73,-2,3,3,0.43,0,86,7901,4,29,42,0.869,52.9,597,4.95,12.9,21.5,1,32.9,2.27,11.4,0,0,1,1,0,541,250,-2336,529,45.698856,4.909884,56.49,192.5,9,3,1.8,0,0.0,-1,0.0,0.0,0.0,0,7.8,12.8041
768263,1622993876831,,,,,,,,0.17,-0.36,-0.84,-2,5,4,0.4,,86,7719,4,29,39,0.858,52.8,582,4.9,12.8,21.5,1,31.0,2.3,11.4,0,0,1,1,0,532,250,-9072,528,,,,,,,,,,,,,,,,
768283,1622993876851,,,,,,,,0.07,-0.35,-0.93,-3,7,4,0.36,,86,7536,4,29,37,0.841,52.9,568,4.9,12.9,21.5,1,30.4,2.19,11.4,0,0,1,1,0,526,250,6274,529,,,,,,,,,,,,,,,,
768303,1622993876871,,,,,,,,0.06,-0.35,-1.02,-3,7,4,0.36,,86,7335,4,28,35,0.824,52.2,559,4.85,12.8,21.5,1,29.8,2.1,11.4,0,0,1,1,0,520,250,2088,525,,,,,,,,,,,,,,,,
768323,1622993876891,,,,,,,,-0.09,-0.4,-1.1,-4,8,4,0.41,,86,7261,4,28,34,0.806,52.9,548,4.96,12.8,13.0,1,29.5,2.0,6.9,0,0,1,1,0,499,250,2524,529,,,,,,,,,,,,,,,,
768343,1622993876911,22,13,31,25,34,35,-4,-0.17,-0.44,-1.11,-5,9,3,0.47,0,86,7239,4,28,32,0.793,51.7,539,4.92,12.9,13.0,1,29.0,1.95,6.9,0,0,1,1,0,489,250,2109,517,45.698849,4.909869,56.46,192.5,9,3,1.8,0,0.0,-1,0.0,,0.0,0,7.81,12.8057
768363,1622993876931,,,,,,,,-0.23,-0.39,-0.88,-5,6,2,0.45,,86,7284,4,28,31,0.782,51.2,537,4.91,12.9,13.0,1,28.6,0.84,6.9,0,0,1,1,0,488,250,-6528,518,,,,,,,,,,,,,,,,
768383,1622993876951,,,,,,,,-0.25,-0.34,-0.81,-6,6,2,0.42,,86,7298,4,28,30,0.771,50.6,551,4.92,12.9,13.0,1,28.2,2.0,6.9,0,0,1,1,0,487,250,-1562,506,,,,,,,,,,,,,,,,
768403,1622993876971,,,,,,,,-0.28,-0.28,-0.82,-6,5,3,0.4,,87,7270,5,28,29,0.76,50.5,556,4.86,12.9,13.0,1,27.8,2.0,6.9,0,0,1,1,0,477,250,16648,505,,,,,,,,,,,,,,,,
768423,1622993876991,,,,,,,,-0.35,-0.36,-0.91,-7,6,4,0.5,,87,7295,5,28,29,0.761,49.8,545,4.86,12.9,13.6,1,27.8,2.02,6.8,0,0,1,1,0,480,250,32033,498,,,,,,,,,,,,,,,,
768443,1622993877001,22,13,28,23,35,37,-4,-0.4,-0.4,-1.0,-7,6,5,0.56,0,87,7270,5,28,28,0.769,49.2,551,4.89,12.8,13.6,1,27.4,2.04,6.8,0,0,1,1,0,462,250,8488,492,45.698837,4.909854,54.38,192.5,9,3,1.8,0,0.0,-1,0.0,0.0,0.0,0,7.81,12.8074
768463,1622993877021,,,,,,,,-0.5,-0.48,-0.96,-8,6,4,0.69,,87,7261,5,28,28,0.778,48.5,543,4.93,12.9,13.6,1,27.4,2.04,6.8,0,0,1,1,0,463,250,12552,485,,,,,,,,,,,,,,,,
768483,1622993877041,,,,,,,,-0.53,-0.49,-0.8,-8,5,2,0.72,,87,7247,5,28,27,0.786,47.6,548,4.94,12.9,13.6,1,27.0,2.06,6.8,0,0,1,1,0,460,250,-26615,476,,,,,,,,,,,,,,,,
768503,1622993877061,,,,,,,,-0.53,-0.46,-0.56,-9,4,0,0.7,,87,7228,5,28,27,0.8,47.6,538,4.9,12.9,13.6,1,27.0,2.06,6.8,0,0,1,1,0,444,250,-6387,476,,,,,,,,,,,,,,,,
768523,1622993877091,,,,,,,,-0.51,-0.34,-0.62,-9,3,1,0.62,,87,7145,5,28,26,0.826,46.6,535,4.87,12.9,14.5,1,26.5,2.08,6.8,0,0,1,1,0,445,250,2524,466,,,,,,,,,,,,,,,,
768543,1622993877111,23,13,26,20,37,38,-4,-0.59,-0.42,-0.74,-10,3,2,0.72,0,87,7009,5,28,26,0.85,46.4,543,4.95,12.8,14.5,1,26.4,2.08,6.8,0,0,1,1,0,447,250,16648,464,45.698833,4.909841,51.77,192.5,9,3,1.8,0,0.0,-1,0.0,,0.0,0,7.81,12.809
768563,1622993877131,,,,,,,,-0.59,-0.48,-0.51,-10,0,-1,0.75,,87,6929,5,28,26,0.875,46.0,531,4.95,12.9,14.5,1,26.5,2.08,6.8,0,0,1,1,0,444,250,15649,458,,,,,,,,,,,,,,,,
768583,1622993877151,,,,,,,,-0.62,-0.43,-0.63,-10,2,1,0.76,,87,6878,5,28,26,0.9,45.3,515,4.92,12.9,14.5,1,26.5,2.08,6.8,0,0,1,1,0,437,250,-18341,453,,,,,,,,,,,,,,,,
768603,1622993877171,,,,,,,,-0.67,-0.46,-0.67,-10,2,1,0.81,,87,6875,5,28,25,0.921,43.8,521,4.92,12.8,14.5,1,26.2,2.1,6.8,0,0,1,1,0,429,250,-3856,438,,,,,,,,,,,,,,,,
768623,1622993877191,,,,,,,,-0.61,-0.38,-0.53,-10,1,1,0.72,,87,6845,5,28,25,0.943,43.5,511,4.93,13.0,15.0,1,26.2,2.1,6.6,0,0,1,1,0,420,250,-8165,438,,,,,,,,,,,,,,,,
768643,1622993877211,16,9,25,22,35,39,-3,-0.66,-0.4,-0.66,-9,3,3,0.77,0,87,6778,5,28,25,0.964,43.7,507,4.94,12.9,15.0,1,26.3,2.1,6.6,0,0,1,1,0,414,250,13552,437,45.698822,4.909827,48.57,192.5,9,3,1.8,0,0.0,-1,0.0,0.0,0.0,0,7.81,12.8107
768663,1622993877231,,,,,,,,-0.6,-0.32,-0.43,-9,1,2,0.68,,87,6644,6,28,25,0.984,43.3,488,4.93,13.0,15.0,1,26.4,2.1,6.6,0,0,1,1,0,416,250,13180,433,,,,,,,,,,,,,,,,
768683,1622993877251,,,,,,,,-0.64,-0.37,-0.55,-9,2,1,0.74,,87,6553,10,28,26,0.994,42.3,485,5.03,12.9,15.0,1,26.8,2.08,6.6,0,0,1,1,0,423,250,-3856,423,,,,,,,,,,,,,,,,
768703,1622993877271,,,,,,,,-0.66,-0.3,-0.67,-9,5,4,0.72,,87,6514,14,27,28,1.003,42.4,491,4.9,12.8,15.0,1,27.4,2.23,6.6,0,0,1,1,0,406,250,18584,425,,,,,,,,,,,,,,,,
768723,1622993877291,,,,,,,,-0.55,-0.22,-0.45,-9,1,2,0.6,,87,6496,17,27,32,1.013,42.1,485,4.99,12.9,15.5,1,28.6,2.12,6.6,0,0,1,1,0,411,250,-26615,421,,,,,,,,,,,,,,,,
768743,1622993877311,3,4,26,24,36,37,-3,-0.58,-0.31,-0.53,-9,0,0,0.66,0,87,6537,18,27,37,1.022,42.2,483,4.95,12.8,15.5,1,29.9,2.42,6.6,0,0,1,1,0,413,250,-9211,422,45.698818,4.909814,46.08,192.5,9,3,1.8,0,0.0,-1,0.0,,0.0,0,7.81,12.8124
768763,1622993877331,,,,,,,,-0.6,-0.23,-0.65,-9,3,3,0.64,,87,6546,19,27,41,1.026,41.7,481,4.83,12.9,15.5,1,30.9,2.55,6.6,0,0,1,1,0,412,250,-9166,417,,,,,,,,,,,,,,,,
768783,1622993877351,,,,,,,,-0.53,-0.29,-0.43,-9,0,0,0.61,,87,6602,19,27,45,1.029,41.6,480,4.86,13.0,15.5,1,32.0,2.53,6.6,0,0,1,1,0,409,250,2524,418,,,,,,,,,,,,,,,,
768803,1622993877371,,,,,,,,-0.55,-0.28,-0.56,-9,2,2,0.62,,87,6679,19,27,49,1.032,41.6,494,4.92,12.8,15.5,1,33.2,1.14,6.6,0,0,1,1,0,414,250,2524,416,,,,,,,,,,,,,,,,
768823,1622993877391,,,,,,,,-0.47,-0.24,-0.35,-9,-1,-0,0.53,,87,6788,19,27,51,1.035,41.6,489,4.93,13.0,18.4,1,34.2,1.13,7.7,0,0,1,1,0,411,250,-26615,416,,,,,,,,,,,,,,,,
768843,1622993877411,4,2,33,28,34,33,-4,-0.48,-0.25,-0.49,-8,2,3,0.54,0,87,6952,19,27,53,1.037,41.6,496,4.85,12.8,18.4,1,35.3,2.41,7.7,0,0,1,1,0,411,250,-26615,416,45.698811,4.909802,44.0,192.4,9,3,1.8,0,0.0,-1,0.0,0.0,0.0,0,7.81,12.814
768863,1622993877431,,,,,,,,-0.46,-0.3,-0.36,-8,1,1,0.55,,87,7086,19,27,56,1.038,41.7,513,4.95,12.8,18.4,1,36.6,2.43,7.7,0,0,1,1,0,411,250,-26615,413,,,,,,,,,,,,,,,,
768883,1622993877451,,,,,,,,-0.41,-0.27,-0.16,-8,-1,0,0.49,,87,7192,19,27,57,1.04,41.4,515,4.93,12.9,18.4,1,37.0,2.52,7.7,0,0,1,1,0,409,250,-9166,414,,,,,,,,,,,,,,,,
768903,1622993877471,,,,,,,,-0.35,-0.23,-0.32,-8,-1,1,0.42,,87,7259,19,27,59,1.041,41.2,535,4.9,12.9,18.4,1,37.6,2.57,7.7,0,0,1,1,0,409,250,-9166,412,,,,,,,,,,,,,,,,
768923,1622993877491,,,,,,,,-0.26,-0.17,-0.43,-8,-2,1,0.31,,87,7324,20,27,60,1.025,41.5,549,4.86,12.8,20.5,1,37.9,2.57,8.6,0,0,1,1,0,413,250,18584,417,,,,,,,,,,,,,,,,
768943,1622993877511,3,1,35,28,33,31,-4,-0.21,-0.21,-0.56,-8,-1,3,0.29,0,87,7096,21,27,62,1.008,41.9,535,4.9,12.8,20.5,1,38.6,2.71,8.6,0,0,1,1,0,421,250,31796,419,45.698803,4.90979,43.03,192.4,9,3,1.8,0,0.0,-1,0.0,,0.0,0,7.81,12.8157
768963,1622993877531,,,,,,,,-0.14,-0.22,-0.35,-8,-4,0,0.26,,87,6727,21,27,64,0.991,42.2,503,4.93,12.8,20.5,1,38.0,2.88,8.6,0,0,1,1,0,427,250,-3322,418,,,,,,,,,,,,,,,,
768983,1622993877551,,,,,,,,-0.18,-0.28,-0.48,-8,-1,3,0.33,,87,6256,21,27,66,0.976,42.6,477,4.91,12.7,20.5,1,36.3,3.12,8.6,0,0,1,1,0,424,250,-3314,426,,,,,,,,,,,,,,,,
769003,1622993877571,,,,,,,,-0.21,-0.27,-0.61,-8,2,6,0.35,,87,6159,21,27,68,0.966,42.1,449,4.88,12.8,20.5,1,36.3,3.25,8.6,0,0,1,1,0,423,250,-3414,422,,,,,,,,,,,,,,,,
769023,1622993877593,,,,,,,,-0.23,-0.21,-0.73,-8,3,8,0.31,,87,6306,21,27,70,0.956,42.2,448,4.88,12.8,22.9,1,37.4,3.59,9.7,0,0,1,1,0,417,250,-3414,422,,,,,,,,,,,,,,,,
769043,1622993877613,2,1,38,33,29,29,-7,-0.17,-0.26,-0.5,-8,0,5,0.31,0,87,6533,23,27,71,0.945,42.2,457,4.94,13.0,22.9,1,38.9,3.66,9.7,0,0,1,1,0,415,250,-3414,422,45.698795,4.909778,42.71,192.4,9,3,1.8,0,0.0,-1,0.0,0.0,0.0,0,7.81,12.8174
769063,1622993877633,,,,,,,,-0.16,-0.29,-0.62,-9,2,7,0.33,,87,6870,24,27,73,0.935,42.3,480,4.91,12.8,22.9,1,41.3,3.77,9.7,0,0,1,1,0,414,250,-21792,423,,,,,,,,,,,,,,,,
769083,1622993877653,,,,,,,,-0.15,-0.33,-0.42,-9,1,5,0.36,,87,7172,26,27,75,0.941,41.9,505,4.96,12.9,22.9,1,42.1,3.89,9.7,0,0,1,1,0,413,250,-3414,419,,,,,,,,,,,,,,,,
769103,1622993877673,,,,,,,,-0.15,-0.37,-0.49,-9,-1,3,0.4,,87,7378,26,27,76,0.951,42.2,532,4.91,12.9,22.9,1,41.6,4.04,9.7,0,0,1,1,0,420,250,3635,422,,,,,,,,,,,,,,,,
769123,1622993877692,,,,,,,,-0.11,-0.41,-0.39,-10,-2,1,0.42,,87,7309,26,27,78,0.961,42.3,526,4.94,12.9,32.7,1,42.0,4.07,13.9,0,0,1,1,0,433,250,21580,423,,,,,,,,,,,,,,,,
769143,1622993877712,2,1,39,34,29,30,-10,-0.0,-0.31,-0.19,-10,-3,2,0.31,0,87,7030,26,27,79,0.971,43.0,511,4.88,12.8,32.7,1,43.9,2.79,13.9,0,0,1,1,0,441,250,23400,430,45.698788,4.909766,43.27,192.4,9,3,1.8,0,0.0,-1,0.0,,0.0,0,7.82,12.819
769163,1622993877732,,,,,,,,-0.02,-0.35,-0.34,-10,-2,2,0.35,,87,6756,26,28,80,0.983,43.0,493,4.91,12.8,32.7,1,42.8,4.03,13.9,0,0,1,1,0,439,250,21432,429,,,,,,,,,,,,,,,,
769183,1622993877752,,,,,,,,0.05,-0.3,-0.15,-10,-1,3,0.31,,87,6569,26,28,81,1.001,43.6,471,4.87,13.0,32.7,1,41.8,4.11,13.9,0,0,1,1,0,437,250,20625,436,,,,,,,,,,,,,,,,
769203,1622993877772,,,,,,,,0.03,-0.37,-0.3,-11,-3,1,0.38,,87,6637,24,28,81,1.018,44.0,472,4.98,12.8,32.7,1,42.3,4.09,13.9,0,0,1,1,0,436,250,20625,440,,,,,,,,,,,,,,,,
769223,1622993877792,,,,,,,,0.05,-0.36,-0.14,-11,-1,2,0.37,,87,6965,24,28,80,1.037,43.7,495,4.86,12.9,28.4,1,44.2,3.94,12.5,0,0,1,1,0,431,250,20625,437,,,,,,,,,,,,,,,,
769243,1622993877812,3,3,42,32,28,30,-18,0.04,-0.34,-0.29,-12,-0,3,0.34,0,87,7264,24,28,80,1.052,44.6,516,4.86,12.8,28.4,1,42.5,4.07,12.5,0,0,1,1,0,435,250,21432,446,45.69878,4.909752,44.24,192.4,9,3,1.8,0,0.0,-1,0.0,0.0,0.0,0,7.82,12.8207
769263,1622993877832,,,,,,,,0.05,-0.33,-0.43,-14,1,2,0.33,,87,7390,24,28,80,1.065,44.1,528,4.92,12.8,28.4,1,41.7,4.14,12.5,0,0,1,1,0,446,250,15649,449,,,,,,,,,,,,,,,,
769283,1622993877852,,,,,,,,0.04,-0.35,-0.56,-15,-1,1,0.35,,87,7408,24,28,79,1.078,45.2,525,4.93,12.7,28.4,1,41.4,4.12,12.5,0,0,1,1,0,457,250,-26615,452,,,,,,,,,,,,,,,,
769303,1622993877872,,,,,,,,0.07,-0.41,-0.68,-16,-3,-1,0.42,,87,7373,24,28,79,1.092,44.9,522,4.94,12.9,28.4,1,41.6,4.1,12.5,0,0,1,1,0,451,250,-23623,449,,,,,,,,,,,,,,,,
769323,1622993877892,,,,,,,,0.06,-0.44,-0.48,-16,-4,-2,0.45,,87,7292,24,28,79,1.097,45.4,525,4.88,12.8,30.8,1,42.2,4.03,13.9,0,0,1,1,0,463,250,-23623,454,,,,,,,,,,,,,,,,
769343,1622993877910,3,3,42,35,24,30,-18,0.09,-0.45,-0.27,-17,-4,-1,0.46,0,87,7194,24,28,79,1.086,45.4,525,4.87,12.9,30.8,1,42.9,4.0,13.9,0,0,1,1,0,466,250,12552,454,45.698776,4.90974,44.81,192.3,9,3,1.8,0,0.0,-1,0.0,,0.0,0,7.82,12.8224
769363,1622993877930,,,,,,,,0.13,-0.4,-0.36,-17,-2,2,0.42,,87,7145,24,28,79,1.076,45.8,516,4.91,12.9,30.8,1,43.2,3.97,13.9,0,0,1,1,0,462,250,30272,458,,,,,,,,,,,,,,,,
769383,1622993877950,,,,,,,,0.11,-0.36,-0.5,-17,-1,3,0.37,,87,7148,24,28,79,1.065,45.3,517,4.85,12.8,30.8,1,43.1,3.97,13.9,0,0,1,1,0,461,250,6193,453,,,,,,,,,,,,,,,,
769403,1622993877970,,,,,,,,0.08,-0.41,-0.62,-17,-0,2,0.42,,87,7242,24,28,79,1.053,46.0,515,4.92,12.9,30.8,1,42.5,4.03,13.9,0,0,1,1,0,458,250,16408,460,,,,,,,,,,,,,,,,
769423,1622993877990,,,,,,,,0.01,-0.46,-0.54,-18,-2,-1,0.46,,87,7329,24,28,79,1.043,46.4,533,4.91,12.8,29.8,1,42.0,4.08,13.6,0,0,1,1,0,456,250,16408,456,,,,,,,,,,,,,,,,
769443,1622993878002,4,1,41,32,25,29,-20,-0.01,-0.52,-0.62,-18,-2,-3,0.52,0,87,7500,24,28,79,1.034,46.3,537,4.93,12.8,29.8,1,40.8,4.13,13.6,0,0,1,1,0,466,250,-3210,463,45.698772,4.909725,46.4,192.3,9,3,1.8,0,0.0,-1,0.0,0.0,0.0,0,7.82,12.824
769463,1622993878022,,,,,,,,-0.02,-0.61,-0.48,-19,-3,-4,0.61,,87,7653,24,28,78,1.025,46.6,537,4.91,12.8,29.8,1,40.0,4.21,13.6,0,0,1,1,0,485,250,-16384,466,,,,,,,,,,,,,,,,
769483,1622993878042,,,,,,,,-0.01,-0.68,-0.61,-20,-2,-4,0.68,,87,7799,23,28,77,1.017,46.9,563,4.93,12.8,29.8,1,39.5,4.22,13.6,0,0,1,1,0,479,250,16648,469,,,,,,,,,,,,,,,,
769503,1622993878062,,,,,,,,0.03,-0.63,-0.63,-20,-2,-2,0.64,,87,7815,22,28,76,1.008,46.7,562,4.88,12.8,29.8,1,39.7,4.17,13.6,0,0,1,1,0,486,250,32033,467,,,,,,,,,,,,,,,,
769523,1622993878082,,,,,,,,0.11,-0.6,-0.59,-21,-1,0,0.61,,87,7681,18,28,73,0.999,47.3,554,4.89,12.9,31.7,1,39.8,3.98,15.0,0,0,1,1,0,487,250,505,473,,,,,,,,,,,,,,,,
769543,1622993878110,4,1,43,36,25,29,-21,0.16,-0.57,-0.44,-21,-1,1,0.6,0,87,7500,11,28,70,0.991,47.0,553,4.83,12.8,31.7,1,39.8,3.57,15.0,0,0,1,1,0,481,250,-1562,470,45.698765,4.90971,47.61,192.4,9,3,1.8,0,0.0,-1,0.0,,0.0,0,7.82,12.8257
769563,1622993878130,,,,,,,,0.21,-0.53,-0.49,-21,0,2,0.57,,87,7341,6,28,66,0.98,47.8,535,4.87,12.9,31.7,1,39.3,3.15,15.0,0,0,1,1,0,479,250,-10483,476,,,,,,,,,,,,,,,,
769583,1622993878150,,,,,,,,0.21,-0.44,-0.61,-21,1,3,0.49,,87,7261,4,28,61,0.963,47.9,540,4.85,12.8,31.7,1,38.2,2.48,15.0,0,0,1,1,0,478,250,32033,480,,,,,,,,,,,,,,,,
769603,1622993878170,,,,,,,,0.18,-0.55,-0.73,-22,3,3,0.58,,87,7350,4,28,57,0.946,48.2,541,4.9,12.8,31.7,1,37.0,2.37,15.0,0,0,1,1,0,471,250,10305,485,,,,,,,,,,,,,,,,
769623,1622993878190,,,,,,,,0.13,-0.56,-0.83,-23,2,1,0.58,,87,7416,4,28,52,0.93,47.5,549,4.91,12.8,16.4,1,35.8,2.28,8.0,0,0,1,1,0,462,250,10305,487,,,,,,,,,,,,,,,,
769643,1622993878210,6,2,42,31,28,33,-23,0.1,-0.63,-0.93,-24,2,1,0.64,0,87,7461,4,28,50,0.91,48.6,551,4.96,12.9,16.4,1,35.4,2.31,8.0,0,0,1,1,0,461,250,-899,480,45.698757,4.909695,48.59,192.4,9,3,1.8,0,0.0,-1,0.0,0.0,0.0,0,7.82,12.8274
769663,1622993878230,,,,,,,,0.03,-0.74,-0.99,-26,2,2,0.74,,87,7408,5,28,47,0.892,48.0,555,4.95,12.8,16.4,1,34.7,2.29,8.0,0,0,1,1,0,459,250,3580,483,,,,,,,,,,,,,,,,
769683,1622993878250,,,,,,,,-0.02,-0.84,-1.04,-27,2,0,0.84,,87,7335,5,28,44,0.874,48.2,557,4.92,12.9,16.4,1,33.1,2.29,8.0,0,0,1,1,0,461,250,3580,481,,,,,,,,,,,,,,,,
769703,1622993878270,,,,,,,,-0.05,-0.86,-0.8,-28,0,-0,0.86,,87,7307,5,28,42,0.857,48.6,543,4.93,12.9,16.4,1,32.2,2.29,8.0,0,0,1,1,0,459,250,-10483,484,,,,,,,,,,,,,,,,
769723,1622993878290,,,,,,,,-0.05,-0.91,-0.74,-29,0,1,0.91,,87,7214,5,28,41,0.839,48.8,541,4.96,13.0,16.1,1,31.7,2.29,7.8,0,0,1,1,0,458,250,3580,481,,,,,,,,,,,,,,,,
769743,1622993878310,6,5,40,26,26,33,-24,-0.03,-0.83,-0.83,-30,0,2,0.83,0,87,7083,5,28,39,0.82,48.4,537,4.87,12.9,16.1,1,31.0,2.3,7.8,0,0,1,1,0,457,250,16648,481,45.698753,4.909679,48.92,192.4,9,3,1.8,0,0.0,-1,0.0,,0.0,0,7.82,12.8291
769763,1622993878330,,,,,,,,-0.09,-0.86,-0.93,-31,0,1,0.86,,87,6983,5,28,38,0.801,47.5,529,4.93,12.8,16.1,1,30.6,2.24,7.8,0,0,1,1,0,452,250,8488,477,,,,,,,,,,,,,,,,
769783,1622993878350,,,,,,,,-0.08,-0.89,-0.68,-32,-1,-0,0.9,,87,6921,5,28,36,0.781,47.6,526,4.91,12.9,16.1,1,30.0,2.14,7.8,0,0,1,1,0,450,250,2212,478,,,,,,,,,,,,,,,,
769803,1622993878370,,,,,,,,-0.1,-0.9,-0.79,-33,-0,2,0.91,,87,6766,5,28,36,0.762,47.8,529,4.95,12.8,16.1,1,29.8,2.1,7.8,0,0,1,1,0,449,250,-17956,478,,,,,,,,,,,,,,,,
769823,1622993878392,,,,,,,,-0.1,-0.92,-0.56,-33,-3,-1,0.93,,87,6694,5,28,35,0.754,47.6,498,4.91,13.0,13.8,1,29.5,2.1,6.5,0,0,1,1,0,442,250,8488,476,,,,,,,,,,,,,,,,
769843,1622993878412,6,4,35,27,26,37,-22,-0.17,-0.84,-0.68,-34,-1,-0,0.86,0,87,6768,5,28,34,0.75,46.9,519,4.87,12.8,13.8,1,29.3,2.05,6.5,0,0,1,1,0,430,250,2211,469,45.69875,4.909663,48.47,192.4,9,3,1.8,0,0.0,-1,0.0,0.0,0.0,0,7.82,12.8307
769863,1622993878432,,,,,,,,-0.17,-0.84,-0.45,-34,-2,-1,0.86,,87,6795,5,28,33,0.745,46.7,509,4.93,12.9,13.8,1,29.0,2.0,6.5,0,0,1,1,0,410,250,12552,467,,,,,,,,,,,,,,,,
769883,1622993878452,,,,,,,,-0.21,-0.74,-0.58,-34,-0,1,0.77,,87,6818,5,28,33,0.741,46.0,514,4.96,12.8,13.8,1,29.0,2.0,6.5,0,0,1,1,0,427,250,15649,460,,,,,,,,,,,,,,,,
769903,1622993878472,,,,,,,,-0.22,-0.78,-0.37,-34,-3,-2,0.81,,87,6858,8,28,33,0.746,46.1,506,4.93,12.9,13.8,1,29.1,2.0,6.5,0,0,1,1,0,420,250,-26615,465,,,,,,,,,,,,,,,,
769923,1622993878492,,,,,,,,-0.19,-0.7,-0.48,-34,-1,1,0.73,,87,6875,12,28,33,0.754,46.2,515,4.88,12.8,13.5,1,29.1,2.0,6.3,0,0,1,1,0,411,250,8488,462,,,,,,,,,,,,,,,,
769943,1622993878512,6,3,32,25,31,37,-12,-0.24,-0.75,-0.61,-34,-1,-2,0.79,0,87,6952,13,28,36,0.762,45.5,525,5.0,12.8,13.5,1,30.0,1.01,6.3,0,0,1,1,0,427,250,23400,455,45.698746,4.909647,47.6,192.5,9,3,1.8,0,0.0,-1,0.0,,0.0,0,7.83,12.8324
769963,1622993878532,,,,,,,,-0.22,-0.66,-0.39,-34,-2,-2,0.69,,87,6983,13,28,37,0.771,45.0,520,4.87,12.9,13.5,1,30.3,2.39,6.3,0,0,1,1,0,421,250,-18341,450,,,,,,,,,,,,,,,,
769983,1622993878552,,,,,,,,-0.22,-0.6,-0.53,-33,-1,1,0.64,,87,7059,13,28,39,0.78,45.2,527,4.84,12.8,13.5,1,31.0,2.53,6.3,0,0,1,1,0,422,250,-18341,448,,,,,,,,,,,,,,,,
770003,1622993878572,,,,,,,,-0.26,-0.6,-0.65,-33,-1,-1,0.65,,87,7022,13,27,40,0.788,44.2,534,4.91,12.8,13.5,1,31.3,2.53,6.3,0,0,1,1,0,426,250,21432,442,,,,,,,,,,,,,,,,
770023,1622993878592,,,,,,,,-0.24,-0.59,-0.43,-32,-1,-2,0.64,,87,7022,13,27,42,0.796,44.3,526,4.97,12.9,18.5,1,31.9,2.49,8.2,0,0,1,1,0,425,250,2131,443,,,,,,,,,,,,,,,,
770043,1622993878612,4,4,35,28,29,36,-13,-0.23,-0.51,-0.56,-31,-0,1,0.55,0,87,7025,13,27,42,0.805,44.0,535,4.9,12.7,18.5,1,31.9,2.46,8.2,0,0,1,1,0,425,250,-18341,444,45.698742,4.90963,45.86,192.5,9,3,1.8,0,0.0,-1,0.0,0.0,0.0,0,7.83,12.8341
770063,1622993878632,,,,,,,,-0.26,-0.6,-0.68,-30,1,0,0.65,,87,7011,13,27,43,0.812,44.1,537,4.88,12.8,18.5,1,32.2,1.14,8.2,0,0,1,1,0,424,250,20625,441,,,,,,,,,,,,,,,,
770083,1622993878652,,,,,,,,-0.25,-0.62,-0.46,-30,-1,-1,0.67,,87,7001,13,27,44,0.818,44.6,530,4.97,12.9,18.5,1,32.5,2.38,8.2,0,0,1,1,0,423,250,-28332,446,,,,,,,,,,,,,,,,
770103,1622993878672,,,,,,,,-0.2,-0.59,-0.58,-29,0,1,0.62,,87,7027,13,27,45,0.824,43.9,532,4.9,12.8,18.5,1,32.8,2.34,8.2,0,0,1,1,0,423,250,20625,441,,,,,,,,,,,,,,,,
770123,1622993878691,,,,,,,,-0.23,-0.58,-0.7,-29,1,1,0.62,,87,7070,13,27,45,0.83,44.4,542,4.9,12.8,17.0,1,32.9,2.31,7.5,0,0,1,1,0,420,250,23400,444,,,,,,,,,,,,,,,,
770143,1622993878711,4,4,35,27,30,35,-21,-0.24,-0.65,-0.57,-29,-1,-1,0.69,0,87,7113,13,27,46,0.83,43.8,526,4.96,13.0,17.0,1,33.3,1.12,7.5,0,0,1,1,0,419,250,23400,438,45.698738,4.909615,45.04,192.5,9,3,2.1,0,0.0,-1,0.0,,0.0,0,7.83,12.8357
770163,1622993878731,,,,,,,,-0.22,-0.61,-0.38,-29,-1,-1,0.65,,87,7178,13,27,46,0.828,43.8,529,4.86,12.9,17.0,1,33.5,2.28,7.5,0,0,1,1,0,420,250,20625,438,,,,,,,,,,,,,,,,
770183,1622993878751,,,,,,,,-0.22,-0.62,-0.48,-29,1,1,0.66,,87,7228,13,27,46,0.826,43.8,547,4.88,12.8,17.0,1,33.7,2.28,7.5,0,0,1,1,0,416,250,19477,438,,,,,,,,,,,,,,,,
770203,1622993878771,,,,,,,,-0.21,-0.63,-0.6,-30,1,1,0.66,,87,7278,13,27,47,0.823,44.0,545,4.87,12.8,17.0,1,34.2,2.28,7.5,0,0,1,1,0,416,250,19477,440,,,,,,,,,,,,,,,,
770223,1622993878791,,,,,,,,-0.21,-0.63,-0.72,-31,1,1,0.66,,87,7259,13,27,47,0.819,44.4,541,4.88,12.8,17.2,1,34.2,1.13,7.6,0,0,1,1,0,420,250,23400,444,,,,,,,,,,,,,,,,
770243,1622993878811,5,3,36,27,27,35,-23,-0.23,-0.64,-0.73,-31,-0,-1,0.68,0,87,7137,15,27,48,0.814,44.1,525,4.98,12.8,17.2,1,34.0,2.26,7.6,0,0,1,1,0,430,250,2131,441,45.698738,4.909599,44.54,192.4,9,3,2.1,0,0.0,-1,0.0,0.0,0.0,0,7.83,12.8374
770263,1622993878831,,,,,,,,-0.13,-0.58,-0.51,-31,-1,-1,0.6,,87,6906,15,27,49,0.809,43.9,515,4.86,13.0,17.2,1,33.7,2.26,7.6,0,0,1,1,0,458,250,21432,445,,,,,,,,,,,,,,,,
770283,1622993878851,,,,,,,,-0.19,-0.62,-0.63,-32,0,-1,0.65,,87,6749,16,27,50,0.803,44.1,505,4.96,12.9,17.2,1,33.7,2.28,7.6,0,0,1,1,0,449,250,21432,441,,,,,,,,,,,,,,,,
770303,1622993878871,,,,,,,,-0.13,-0.53,-0.41,-32,-2,-1,0.55,,87,6751,16,27,51,0.8,43.8,494,4.9,13.0,17.2,1,34.0,2.28,7.6,0,0,1,1,0,432,250,26704,438,,,,,,,,,,,,,,,,
770323,1622993878891,,,,,,,,-0.2,-0.57,-0.54,-31,-2,1,0.6,,87,6813,17,27,53,0.798,44.2,505,4.95,12.9,16.1,1,34.9,2.27,7.1,0,0,1,1,0,423,250,26704,438,,,,,,,,,,,,,,,,
770343,1622993878911,5,3,36,32,27,34,-13,-0.15,-0.63,-0.33,-31,-3,-1,0.65,0,87,6898,18,27,54,0.796,43.3,506,4.94,13.0,16.1,1,35.5,2.27,7.1,0,0,1,1,0,417,250,19477,433,45.698738,4.909583,44.08,192.4,9,3,2.1,0,0.0,-1,0.0,,0.0,0,7.83,12.8391
