"Interval"|"ms"|0|0|1,"Utc"|"ms"|0|0|1,"Brake_F"|"Bar"|0|2000|10,"Brake_R"|"Bar"|0|2000|10,"Height_RF"|"mm"|0|255|10,"Height_LF"|"mm"|0|255|10,"Height_LR"|"mm"|0|80|10,"Height_RR"|"mm"|0|255|10,"Steering"|"deg"|-100|100|10,"AccelX"|"G"|-3.0|3.0|50,"AccelY"|"G"|-3.0|3.0|50,"AccelZ"|"G"|-3.0|3.0|50,"Yaw"|"Deg/Sec"|-120|120|50,"Pitch"|"Deg/Sec"|-120|120|50,"Roll"|"Deg/Sec"|-120|120|50,"Gsum"|"G"|0.0|3.0|50,"Log_Button"|""|0.0|10.0|10,"WaterTemp"|"C"|0|150|50,"RPM"|"tr/min"|0|14000|50,"TPS"|"%"|0|100|50,"AirTemp"|"C"|0|150|50,"MAP"|"KPa"|0|100|50,"Lambda"|""|0.5|1.5|50,"SpeedDTA"|"kph"|0.0|250.0|50,"OilPress"|"KPa"|0|1500|50,"FuelPressur"|"Bar"|0.0|10.0|50,"Batterie"|"V"|0.0|20.0|50,"ConsoKm"|"L/100km"|0.0|200.0|50,"Gear"|""|0|6|50,"AdvIgnition"|"Deg"|-20.0|70.0|50,"Injection"|"ms"|0.0|10.0|50,"ConsoHr"|"L/Hr"|0.0|10000.0|50,"LC_But_Pres"|""|0|1|50,"LC_Active"|""|0|1|50,"TractionOn"|""|0|1|50,"TractionWet"|""|0|1|50,"FanOn"|""|0|1|50,"RD_Speed"|"km/h"|-30|250|50,"RUD_Speed"|"km/h"|-30|250|50,"LD_Speed"|"km/h"|-30|250|50,"LUD_Speed"|"km/h"|-30|250|50,"Latitude"|"Degrees"|-180.0|180.0|10,"Longitude"|"Degrees"|-180.0|180.0|10,"Speed"|"kph"|0.0|150.0|10,"Altitude"|"m"|0.0|4000.0|10,"GPSSats"|""|0|20|10,"GPSQual"|""|0|5|10,"GPSDOP"|""|0.0|20.0|10,"LapCount"|""|0|0|10,"LapTime"|"Min"|0.0|0.0|10,"Sector"|""|0|0|10,"SectorTime"|"Min"|0.0|0.0|10,"PredTime"|"Min"|0.0|0.0|5,"ElapsedTime"|"Min"|0.0|0.0|10,"CurrentLap"|""|0|0|10,"Distance"|"km"|0.0|0.0|10,"SessionTime"|"Min"|0.0|0.0|10
78063,1622990927488,,,,,,,,0.06,-0.02,-0.69,-0,-0,0,0.06,,78,7341,12,28,42,0.759,0.0,672,4.87,13.2,0.0,1,32.2,2.29,7.8,0,0,0,1,0,0,250,250,0,,,,,,,,,,,,,,,,
78083,1622990927507,,,,,,,,0.04,0.03,-0.8,-0,0,1,0.05,,78,7355,12,28,42,0.759,0.0,660,4.89,13.3,0.0,1,32.3,2.29,7.8,0,0,0,1,0,0,250,250,0,,,,,,,,,,,,,,,,
78103,1622990927527,,,,,,,,0.0,0.05,-0.9,-0,1,2,0.05,,78,7344,12,28,42,0.758,0.0,660,4.86,13.2,0.0,1,32.3,1.16,7.8,0,0,0,1,0,0,250,250,0,,,,,,,,,,,,,,,,
78123,1622990927547,,,,,,,,-0.04,0.05,-0.96,-0,1,2,0.06,,78,7324,12,28,42,0.759,0.0,669,4.86,13.3,0.0,1,32.2,1.16,7.8,0,0,0,1,0,0,250,250,0,,,,,,,,,,,,,,,,
78143,1622990927567,2,1,33,33,33,70,-32,-0.06,0.02,-0.87,-0,1,0,0.06,1,78,7327,12,28,42,0.759,0.0,666,4.87,13.2,0.0,1,32.2,2.29,7.8,0,0,0,1,0,0,250,250,0,45.700283,4.90968,0.0,197.7,8,2,1.5,0,0.0,-1,0.0,,0.0,0,0.01,1.3024
78163,1622990927587,,,,,,,,-0.06,-0.04,-0.63,-0,-0,-0,0.07,,78,7327,12,28,42,0.759,0.0,668,4.86,13.2,0.0,1,32.2,2.29,7.8,0,0,0,1,0,0,250,250,0,,,,,,,,,,,,,,,,
78183,1622990927607,,,,,,,,-0.03,-0.07,-0.55,-0,-0,-1,0.08,,78,7315,12,28,42,0.759,0.0,660,4.86,13.2,0.0,1,32.2,2.29,7.8,0,0,0,1,0,0,250,250,0,,,,,,,,,,,,,,,,
78203,1622990927627,,,,,,,,0.02,-0.06,-0.43,-0,-2,-1,0.06,,78,7301,12,28,42,0.759,0.0,660,4.91,13.2,0.0,1,32.2,1.16,7.7,0,0,0,1,0,0,250,250,0,,,,,,,,,,,,,,,,
78223,1622990927647,,,,,,,,0.04,-0.02,-0.56,-0,-1,-1,0.05,,78,7321,12,28,42,0.758,0.0,653,4.92,13.2,0.0,1,32.2,1.16,7.7,0,0,0,1,0,0,250,250,0,,,,,,,,,,,,,,,,
78243,1622990927667,2,2,33,33,33,70,-32,0.05,0.01,-0.68,-0,-1,0,0.06,1,78,7329,12,28,42,0.758,0.0,665,4.86,13.2,0.0,1,32.2,2.29,7.7,0,0,0,1,0,0,250,250,0,45.700283,4.90968,0.0,197.7,8,2,1.5,0,0.0,-1,0.0,0.0,0.0,0,0.01,1.304
78263,1622990927687,,,,,,,,0.03,0.09,-0.79,-0,-0,1,0.09,,78,7321,12,28,42,0.757,0.0,656,4.88,13.3,0.0,1,32.2,2.29,7.7,0,0,0,1,0,0,250,250,0,,,,,,,,,,,,,,,,
78283,1622990927707,,,,,,,,-0.0,0.09,-0.89,-0,1,1,0.09,,78,7315,12,28,42,0.757,0.0,659,4.88,13.3,0.0,1,32.2,1.16,7.7,0,0,0,1,0,0,250,250,0,,,,,,,,,,,,,,,,
78303,1622990927727,,,,,,,,-0.04,0.08,-0.8,-0,1,1,0.09,,78,7332,12,28,42,0.757,0.0,656,4.86,13.3,0.0,1,32.2,2.29,7.7,0,0,0,1,0,0,250,250,0,,,,,,,,,,,,,,,,
78323,1622990927747,,,,,,,,-0.06,0.06,-0.68,-0,1,-1,0.08,,78,7324,12,28,42,0.757,0.0,667,4.88,13.1,0.0,1,32.2,2.29,7.7,0,0,0,1,0,0,250,250,0,,,,,,,,,,,,,,,,
78343,1622990927767,1,2,33,33,33,70,-33,-0.04,0.0,-0.46,-0,-1,-1,0.04,1,78,7352,12,28,42,0.757,0.0,672,4.86,13.2,0.0,1,32.3,2.29,7.7,0,0,0,1,0,0,250,250,0,45.700283,4.90968,0.0,197.7,8,2,1.5,0,0.0,-1,0.0,,0.0,0,0.01,1.3057
78363,1622990927787,,,,,,,,-0.01,-0.03,-0.43,-0,-1,-1,0.03,,78,7329,12,28,42,0.758,0.0,667,4.87,13.1,0.0,1,32.2,2.29,7.7,0,0,0,1,0,0,250,250,0,,,,,,,,,,,,,,,,
78383,1622990927807,,,,,,,,0.04,0.01,-0.47,-0,-2,-1,0.04,,78,7332,12,28,42,0.757,0.0,666,4.85,13.1,0.0,1,32.2,1.16,7.7,0,0,0,1,0,0,250,250,0,,,,,,,,,,,,,,,,
78403,1622990927827,,,,,,,,0.06,0.05,-0.59,-0,-1,-0,0.08,,78,7332,12,28,42,0.757,0.0,656,4.88,13.2,0.0,1,32.2,1.16,7.7,0,0,0,1,0,0,250,250,0,,,,,,,,,,,,,,,,
78423,1622990927847,,,,,,,,0.05,0.07,-0.71,-0,-0,1,0.08,,78,7307,12,28,42,0.757,0.0,660,4.87,13.3,0.0,1,32.2,2.29,7.7,0,0,0,1,0,0,250,250,0,,,,,,,,,,,,,,,,
78443,1622990927867,1,0,33,33,32,70,-32,0.01,0.12,-0.82,-0,1,1,0.12,0,78,7350,12,28,42,0.757,0.0,654,4.88,13.2,0.0,1,32.3,2.29,7.7,0,0,0,1,0,0,250,250,0,45.700283,4.90968,0.0,197.7,8,2,1.5,0,0.0,-1,0.0,0.0,0.0,0,0.01,1.3074
78463,1622990927887,,,,,,,,0.01,0.16,-0.92,-0,2,1,0.16,,78,7324,12,28,42,0.757,0.0,666,4.87,13.3,0.0,1,32.2,2.29,7.7,0,0,0,1,0,0,250,250,0,,,,,,,,,,,,,,,,
78483,1622990927906,,,,,,,,-0.02,0.2,-1.01,-0,1,1,0.2,,78,7335,12,28,42,0.757,0.0,670,4.9,13.2,0.0,1,32.2,2.29,7.7,0,0,0,1,0,0,250,250,0,,,,,,,,,,,,,,,,
78503,1622990927926,,,,,,,,-0.05,0.17,-1.09,-0,1,-1,0.18,,78,7352,12,28,42,0.757,0.0,668,4.88,13.1,0.0,1,32.3,2.29,7.7,0,0,0,1,0,0,250,250,0,,,,,,,,,,,,,,,,
78523,1622990927946,,,,,,,,-0.07,0.14,-0.93,-0,-0,-1,0.16,,78,7312,12,28,42,0.757,0.0,672,4.89,13.1,0.0,1,32.2,1.16,7.7,0,0,0,1,0,0,250,250,0,,,,,,,,,,,,,,,,
78543,1622990927966,2,1,33,33,33,70,-32,-0.08,0.09,-0.86,-0,-0,-1,0.12,0,78,7318,12,28,42,0.758,0.0,663,4.85,13.1,0.0,1,32.2,2.29,7.7,0,0,0,1,0,0,250,250,0,45.700283,4.90968,0.0,197.7,8,2,1.5,0,0.0,-1,0.0,,0.0,0,0.01,1.309
78563,1622990927986,,,,,,,,-0.05,0.01,-0.62,-0,-1,-1,0.05,,78,7344,12,28,42,0.758,0.0,673,4.87,13.1,0.0,1,32.3,2.29,7.7,0,0,0,1,0,0,250,250,0,,,,,,,,,,,,,,,,
78583,1622990927996,,,,,,,,-0.01,0.01,-0.53,-0,-1,-0,0.01,,78,7344,12,28,42,0.758,0.0,661,4.92,13.2,0.0,1,32.3,1.16,7.7,0,0,0,1,0,0,250,250,0,,,,,,,,,,,,,,,,
78603,1622990928016,,,,,,,,0.03,-0.0,-0.56,-0,-0,1,0.03,,78,7355,12,28,42,0.759,0.0,676,4.87,13.2,0.0,1,32.3,2.29,7.7,0,0,0,1,0,0,250,250,0,,,,,,,,,,,,,,,,
78623,1622990928036,,,,,,,,0.05,0.04,-0.68,-0,0,1,0.07,,78,7329,12,28,42,0.759,0.0,661,4.86,13.2,0.0,1,32.2,2.29,7.7,0,0,0,1,0,0,250,250,0,,,,,,,,,,,,,,,,
78643,1622990928056,2,2,33,33,33,69,-32,0.05,0.11,-0.79,-0,2,1,0.12,0,78,7341,12,28,42,0.759,0.0,659,4.86,13.3,0.0,1,32.2,2.29,7.7,0,0,0,1,0,0,250,250,0,45.700283,4.90968,0.0,197.7,8,2,1.5,0,0.0,-1,0.0,0.0,0.0,0,0.01,1.3107
78663,1622990928076,,,,,,,,0.02,0.16,-0.89,-0,1,1,0.16,,78,7352,12,28,42,0.759,0.0,670,4.88,13.2,0.0,1,32.3,2.29,7.7,0,0,0,1,0,0,250,250,0,,,,,,,,,,,,,,,,
78683,1622990928106,,,,,,,,-0.02,0.14,-0.98,-0,2,-0,0.14,,78,7373,12,28,42,0.758,0.0,671,4.87,13.3,0.0,1,32.3,1.17,7.7,0,0,0,1,0,0,250,250,0,,,,,,,,,,,,,,,,
78703,1622990928126,,,,,,,,-0.06,0.13,-0.99,-0,0,-1,0.15,,78,7393,12,28,42,0.759,0.0,675,4.87,13.3,0.0,1,32.3,2.3,7.8,0,0,0,1,0,0,250,250,0,,,,,,,,,,,,,,,,
78723,1622990928146,,,,,,,,-0.09,0.09,-0.98,-0,0,-1,0.13,,78,7335,12,28,42,0.759,0.0,665,4.86,13.2,0.0,1,32.2,2.29,7.8,0,0,0,1,0,0,250,250,0,,,,,,,,,,,,,,,,
78743,1622990928166,2,1,33,33,33,70,-32,-0.09,0.02,-0.73,-0,-2,-2,0.09,0,78,7364,12,28,42,0.759,0.0,666,4.87,13.1,0.0,1,32.3,2.3,7.8,0,0,0,1,0,0,250,250,0,45.700283,4.90968,0.0,197.7,8,2,1.5,0,0.0,-1,0.0,,0.0,0,0.01,1.3124
78763,1622990928186,,,,,,,,-0.05,0.02,-0.57,-0,-2,-2,0.05,,78,7312,12,28,42,0.759,0.0,656,4.89,13.2,0.0,1,32.2,2.29,7.8,0,0,0,1,0,0,250,250,0,,,,,,,,,,,,,,,,
78783,1622990928208,,,,,,,,-0.0,-0.01,-0.47,-0,-2,-1,0.01,,78,7361,12,28,42,0.759,0.0,663,4.86,13.2,0.0,1,32.3,1.17,7.8,0,0,0,1,0,0,250,250,0,,,,,,,,,,,,,,,,
78803,1622990928228,,,,,,,,0.03,-0.02,-0.52,-0,-1,-0,0.04,,78,7341,12,28,42,0.758,0.0,660,4.9,13.2,0.0,1,32.2,2.29,7.8,0,0,0,1,0,0,250,250,0,,,,,,,,,,,,,,,,
78823,1622990928248,,,,,,,,0.06,0.04,-0.64,-0,0,1,0.07,,78,7358,12,28,42,0.758,0.0,662,4.86,13.2,0.0,1,32.3,2.3,7.8,0,0,0,1,0,0,250,250,0,,,,,,,,,,,,,,,,
78843,1622990928268,2,2,33,33,33,70,-32,0.05,0.09,-0.75,-0,1,2,0.1,0,78,7373,12,28,42,0.758,0.0,658,4.89,13.2,0.0,1,32.3,2.3,7.8,0,0,0,1,0,0,250,250,0,45.700283,4.90968,0.0,197.7,8,2,1.5,0,0.0,-1,0.0,0.0,0.0,0,0.01,1.314
78863,1622990928288,,,,,,,,0.03,0.09,-0.86,-0,2,1,0.1,,78,7370,12,28,42,0.757,0.0,661,4.88,13.3,0.0,1,32.3,1.17,7.8,0,0,0,1,0,0,250,250,0,,,,,,,,,,,,,,,,
78883,1622990928306,,,,,,,,-0.0,0.13,-0.91,-0,1,0,0.13,,78,7332,12,28,42,0.757,0.0,668,4.85,13.2,0.0,1,32.2,2.29,7.8,0,0,0,1,0,0,250,250,0,,,,,,,,,,,,,,,,
78903,1622990928326,,,,,,,,-0.03,0.1,-1.0,-0,1,-0,0.11,,78,7358,12,28,41,0.756,0.0,661,4.88,13.3,0.0,1,31.8,2.3,7.7,0,0,0,1,0,0,250,250,0,,,,,,,,,,,,,,,,
78923,1622990928346,,,,,,,,-0.05,0.05,-0.78,-0,-1,-1,0.08,,78,7332,12,28,42,0.756,0.0,671,4.88,13.2,0.0,1,32.2,2.29,7.7,0,0,0,1,0,0,250,250,0,,,,,,,,,,,,,,,,
78943,1622990928366,1,2,33,33,33,70,-32,-0.04,0.05,-0.62,-0,-1,-2,0.06,0,78,7332,12,28,42,0.756,0.0,669,4.89,13.1,0.0,1,32.2,2.29,7.7,0,0,0,1,0,0,250,250,0,45.700283,4.90968,0.0,197.7,8,2,1.5,0,0.0,-1,0.0,,0.0,0,0.01,1.3157
78963,1622990928386,,,,,,,,-0.01,-0.0,-0.43,-0,-2,-1,0.01,,78,7318,12,28,42,0.756,0.0,673,4.86,13.1,0.0,1,32.2,1.16,7.7,0,0,0,1,0,0,250,250,0,,,,,,,,,,,,,,,,
78983,1622990928406,,,,,,,,0.02,-0.02,-0.45,-0,-2,-1,0.03,,78,7318,12,28,42,0.757,0.0,653,4.86,13.3,0.0,1,32.2,1.16,7.7,0,0,0,1,0,0,250,250,0,,,,,,,,,,,,,,,,
79003,1622990928426,,,,,,,,0.06,0.01,-0.58,-0,-1,1,0.07,,78,7350,12,28,42,0.757,0.0,662,4.87,13.2,0.0,1,32.3,2.29,7.7,0,0,0,1,0,0,250,250,0,,,,,,,,,,,,,,,,
79023,1622990928446,,,,,,,,0.07,0.06,-0.7,-0,0,2,0.1,,78,7350,12,28,42,0.758,0.0,655,4.91,13.2,0.0,1,32.3,2.29,7.7,0,0,0,1,0,0,250,250,0,,,,,,,,,,,,,,,,
79043,1622990928466,1,0,33,33,33,70,-33,0.06,0.06,-0.8,-0,1,2,0.08,0,78,7344,12,28,42,0.758,0.0,663,4.87,13.3,0.0,1,32.3,2.29,7.7,0,0,0,1,0,0,250,250,0,45.700283,4.90968,0.0,197.7,8,2,1.5,0,0.0,-1,0.0,0.0,0.0,0,0.01,1.3174
79063,1622990928486,,,,,,,,0.02,0.1,-0.89,-0,1,1,0.1,,78,7358,12,28,42,0.759,0.0,670,4.85,13.3,0.0,1,32.3,1.17,7.7,0,0,0,1,0,0,250,250,0,,,,,,,,,,,,,,,,
79083,1622990928506,,,,,,,,-0.01,0.06,-0.98,-0,1,0,0.06,,79,7367,12,28,42,0.759,0.0,662,4.89,13.1,0.0,1,32.3,2.3,7.7,0,0,0,1,0,0,250,250,0,,,,,,,,,,,,,,,,
79103,1622990928526,,,,,,,,-0.05,0.02,-0.84,-0,-0,-1,0.06,,79,7341,12,28,42,0.76,0.0,667,4.86,13.2,0.0,1,32.2,2.29,7.8,0,0,0,1,0,0,250,250,0,,,,,,,,,,,,,,,,
79123,1622990928546,,,,,,,,-0.06,-0.01,-0.73,-0,-1,-2,0.06,,79,7364,12,28,42,0.76,0.0,663,4.88,13.2,0.0,1,32.3,2.3,7.8,0,0,0,1,0,0,250,250,0,,,,,,,,,,,,,,,,
79143,1622990928566,2,1,33,33,32,70,-32,-0.04,-0.07,-0.5,-0,-2,-1,0.08,0,79,7358,12,28,42,0.761,0.0,675,4.86,13.1,0.0,1,32.3,2.3,7.8,0,0,0,1,0,0,250,250,0,45.700283,4.90968,0.0,197.7,8,2,1.5,0,0.0,-1,0.0,,0.0,0,0.01,1.3191
79163,1622990928586,,,,,,,,-0.0,-0.11,-0.44,-0,-2,-1,0.11,,79,7370,12,28,42,0.761,0.0,668,4.9,13.2,0.0,1,32.3,1.17,7.8,0,0,0,1,0,0,250,250,0,,,,,,,,,,,,,,,,
79183,1622990928608,,,,,,,,0.05,-0.09,-0.33,-0,-2,-1,0.1,,79,7390,12,28,42,0.761,0.0,677,4.85,13.1,0.0,1,32.3,2.3,7.8,0,0,0,1,0,0,250,250,0,,,,,,,,,,,,,,,,
79203,1622990928628,,,,,,,,0.07,-0.06,-0.4,-0,-2,0,0.1,,79,7387,12,28,42,0.761,0.0,666,4.9,13.2,0.0,1,32.3,2.3,7.8,0,0,0,1,0,0,250,250,0,,,,,,,,,,,,,,,,
79223,1622990928648,,,,,,,,0.1,-0.04,-0.53,-0,-1,1,0.11,,79,7402,12,28,42,0.761,0.0,657,4.87,13.3,0.0,1,32.3,2.3,7.8,0,0,0,1,0,0,250,250,0,,,,,,,,,,,,,,,,
79243,1622990928668,1,1,33,33,33,70,-32,0.1,0.03,-0.65,-0,-0,1,0.1,0,79,7355,12,28,42,0.761,0.0,658,4.87,13.3,0.0,1,32.3,1.16,7.8,0,0,0,1,0,0,250,250,0,45.700283,4.90968,0.0,197.7,8,2,1.5,0,0.0,-1,0.0,0.0,0.0,0,0.01,1.3207
79263,1622990928688,,,,,,,,0.08,0.08,-0.77,-0,1,2,0.11,,79,7399,12,28,41,0.761,0.0,663,4.88,13.3,0.0,1,31.9,1.17,7.8,0,0,0,1,0,0,250,250,0,,,,,,,,,,,,,,,,
79283,1622990928706,,,,,,,,0.05,0.12,-0.87,-0,1,2,0.13,,79,7352,12,28,42,0.761,0.0,659,4.88,13.3,0.0,1,32.3,2.3,7.8,0,0,0,1,0,0,250,250,0,,,,,,,,,,,,,,,,
79303,1622990928726,,,,,,,,-0.0,0.09,-0.96,-0,2,1,0.09,,79,7416,12,28,42,0.76,0.0,656,4.86,13.3,0.0,1,32.3,2.3,7.8,0,0,0,1,0,0,250,250,0,,,,,,,,,,,,,,,,
79323,1622990928746,,,,,,,,-0.05,0.08,-0.98,-0,2,0,0.09,,79,7405,12,28,41,0.76,0.0,668,4.86,13.1,0.0,1,31.9,2.3,7.8,0,0,0,1,0,0,250,250,0,,,,,,,,,,,,,,,,
79343,1622990928766,2,2,33,33,33,70,-33,-0.08,0.05,-0.99,-0,1,-0,0.09,0,79,7399,12,28,41,0.76,0.0,664,4.88,13.3,0.0,1,31.9,2.3,7.8,0,0,0,1,0,0,250,250,0,45.700283,4.90968,0.0,197.7,8,2,1.5,0,0.0,-1,0.0,,0.0,0,0.01,1.3224
79363,1622990928786,,,,,,,,-0.1,-0.01,-0.76,-0,-1,-1,0.1,,79,7390,12,28,41,0.76,0.0,666,4.86,13.2,0.0,1,31.9,2.3,7.8,0,0,0,1,0,0,250,250,0,,,,,,,,,,,,,,,,
79383,1622990928808,,,,,,,,-0.09,-0.01,-0.65,-0,-1,-2,0.09,,79,7393,12,28,41,0.76,0.0,660,4.87,13.2,0.0,1,31.9,2.3,7.8,0,0,0,1,0,0,250,250,0,,,,,,,,,,,,,,,,
79403,1622990928828,,,,,,,,-0.06,-0.08,-0.43,-0,-2,-2,0.11,,79,7408,12,28,41,0.761,0.0,670,4.87,13.1,0.0,1,31.9,2.3,7.8,0,0,0,1,0,0,250,250,0,,,,,,,,,,,,,,,,
79423,1622990928848,,,,,,,,-0.03,-0.11,-0.37,-0,-2,-2,0.12,,79,7387,12,28,41,0.761,0.0,666,4.88,13.2,0.0,1,31.9,2.3,7.8,0,0,0,1,0,0,250,250,0,,,,,,,,,,,,,,,,
79443,1622990928868,1,2,33,33,33,70,-33,0.02,-0.1,-0.25,-0,-3,-2,0.1,0,79,7393,12,28,42,0.762,0.0,664,4.88,13.1,0.0,1,32.3,1.17,7.8,0,0,0,1,0,0,250,250,0,45.700283,4.90968,0.0,197.7,8,2,1.5,0,0.0,-1,0.0,0.0,0.0,0,0.01,1.324
79463,1622990928888,,,,,,,,0.05,-0.08,-0.27,-0,-3,-1,0.1,,79,7396,12,28,41,0.762,0.0,657,4.89,13.2,0.0,1,31.9,1.17,7.8,0,0,0,1,0,0,250,250,0,,,,,,,,,,,,,,,,
79483,1622990928907,,,,,,,,0.1,-0.06,-0.39,-0,-3,-1,0.11,,79,7416,12,28,42,0.761,0.0,670,4.87,13.2,0.0,1,32.3,2.3,7.9,0,0,0,1,0,0,250,250,0,,,,,,,,,,,,,,,,
79503,1622990928927,,,,,,,,0.11,0.02,-0.52,-0,-2,-0,0.11,,79,7361,12,28,41,0.762,0.0,658,4.87,13.3,0.0,1,31.8,2.3,7.9,0,0,0,1,0,0,250,250,0,,,,,,,,,,,,,,,,
79523,1622990928947,,,,,,,,0.11,0.08,-0.64,-0,-0,1,0.13,,79,7402,12,28,42,0.761,0.0,660,4.87,13.2,0.0,1,32.3,1.17,7.9,0,0,0,1,0,0,250,250,0,,,,,,,,,,,,,,,,
79543,1622990928967,1,2,33,33,33,70,-32,0.07,0.15,-0.75,-0,0,2,0.17,0,79,7373,12,28,41,0.761,0.0,663,4.88,13.3,0.0,1,31.8,1.17,7.9,0,0,0,1,0,0,250,250,0,45.700283,4.90968,0.0,197.7,8,2,1.5,0,0.0,-1,0.0,,0.0,0,0.01,1.3257
79563,1622990928987,,,,,,,,0.02,0.11,-0.86,-0,1,2,0.11,,79,7373,12,28,41,0.761,0.0,660,4.88,13.3,0.0,1,31.8,2.3,7.9,0,0,0,1,0,0,250,250,0,,,,,,,,,,,,,,,,
79583,1622990928998,,,,,,,,-0.02,0.13,-0.92,-0,1,1,0.13,,79,7378,12,28,41,0.76,0.0,667,4.9,13.3,0.0,1,31.9,2.3,7.9,0,0,0,1,0,0,250,250,0,,,,,,,,,,,,,,,,
79603,1622990929018,,,,,,,,-0.06,0.09,-0.96,-0,1,0,0.1,,79,7399,12,28,41,0.76,0.0,661,4.86,13.3,0.0,1,31.9,2.3,7.8,0,0,0,1,0,0,250,250,0,,,,,,,,,,,,,,,,
79623,1622990929038,,,,,,,,-0.07,0.04,-0.73,-0,-0,-1,0.08,,79,7361,12,28,42,0.76,0.0,672,4.87,13.1,0.0,1,32.3,2.3,7.8,0,0,0,1,0,0,250,250,0,,,,,,,,,,,,,,,,
79643,1622990929058,2,0,33,33,33,70,-32,-0.06,0.04,-0.62,-0,-0,-2,0.08,0,79,7373,12,28,41,0.761,0.0,660,4.86,13.2,0.0,1,31.8,2.3,7.8,0,0,0,1,0,0,250,250,0,45.700283,4.90968,0.0,197.7,8,2,1.5,0,0.0,-1,0.0,0.0,0.0,0,0.01,1.3274
79663,1622990929078,,,,,,,,-0.04,-0.02,-0.42,-0,-2,-2,0.04,,79,7367,12,28,41,0.761,0.0,671,4.88,13.1,0.0,1,31.8,2.3,7.8,0,0,0,1,0,0,250,250,0,,,,,,,,,,,,,,,,
79683,1622990929107,,,,,,,,-0.01,-0.04,-0.39,-0,-2,-2,0.04,,79,7370,12,28,41,0.76,0.0,665,4.87,13.1,0.0,1,31.8,1.17,7.8,0,0,0,1,0,0,250,250,0,,,,,,,,,,,,,,,,
79703,1622990929127,,,,,,,,0.04,0.01,-0.44,-0,-2,-1,0.04,,79,7327,12,28,42,0.76,0.0,674,4.87,13.1,0.0,1,32.2,2.29,7.8,0,0,0,1,0,0,250,250,0,,,,,,,,,,,,,,,,
79723,1622990929147,,,,,,,,0.06,0.03,-0.57,-0,-2,0,0.07,,79,7352,12,28,42,0.759,0.0,670,4.89,13.2,0.0,1,32.3,2.29,7.8,0,0,0,1,0,0,250,250,0,,,,,,,,,,,,,,,,
79743,1622990929167,2,0,33,33,32,70,-33,0.07,0.04,-0.69,-0,-1,1,0.08,0,79,7315,12,28,42,0.759,0.0,668,4.86,13.2,0.0,1,32.2,2.29,7.8,0,0,0,1,0,0,250,250,0,45.700283,4.90968,0.0,197.7,8,2,1.5,0,0.0,-1,0.0,,0.0,0,0.01,1.3291
79763,1622990929187,,,,,,,,0.03,0.12,-0.8,-0,0,1,0.12,,79,7338,12,28,42,0.758,0.0,665,4.87,13.3,0.0,1,32.2,1.16,7.8,0,0,0,1,0,0,250,250,0,,,,,,,,,,,,,,,,
79783,1622990929207,,,,,,,,-0.01,0.13,-0.9,-0,1,1,0.13,,79,7352,12,28,42,0.758,0.0,657,4.84,13.3,0.0,1,32.3,2.3,7.8,0,0,0,1,0,0,250,250,0,,,,,,,,,,,,,,,,
79803,1622990929227,,,,,,,,-0.06,0.1,-0.8,-0,0,-0,0.11,,79,7338,12,28,42,0.757,0.0,661,4.87,13.3,0.0,1,32.2,2.29,7.8,0,0,0,1,0,0,250,250,0,,,,,,,,,,,,,,,,
79823,1622990929247,,,,,,,,-0.08,0.07,-0.73,-0,0,-1,0.11,,79,7376,12,28,42,0.757,0.0,668,4.86,13.2,0.0,1,32.3,2.3,7.8,0,0,0,1,0,0,250,250,0,,,,,,,,,,,,,,,,
79843,1622990929267,2,1,33,33,33,70,-32,-0.07,-0.01,-0.53,-0,-1,-2,0.08,0,79,7344,12,28,42,0.756,0.0,670,4.86,13.1,0.0,1,32.3,2.29,7.8,0,0,0,1,0,0,250,250,0,45.700283,4.90968,0.0,197.7,8,2,1.5,0,0.0,-1,0.0,0.0,0.0,0,0.01,1.3307
79863,1622990929287,,,,,,,,-0.04,-0.03,-0.47,-0,-1,-2,0.05,,79,7347,12,28,42,0.755,0.0,656,4.91,13.2,0.0,1,32.3,1.16,7.8,0,0,0,1,0,0,250,250,0,,,,,,,,,,,,,,,,
79883,1622990929307,,,,,,,,0.02,-0.01,-0.38,-0,-2,-2,0.03,,79,7338,12,28,42,0.754,0.0,670,4.85,13.1,0.0,1,32.3,2.29,7.7,0,0,0,1,0,0,250,250,0,,,,,,,,,,,,,,,,
79903,1622990929327,,,,,,,,0.06,0.01,-0.46,-0,-2,-1,0.06,,79,7370,12,28,42,0.753,0.0,660,4.9,13.2,0.0,1,32.3,2.3,7.7,0,0,0,1,0,0,250,250,0,,,,,,,,,,,,,,,,
79923,1622990929347,,,,,,,,0.08,0.03,-0.59,-0,-2,-0,0.09,,79,7370,12,28,42,0.753,0.0,668,4.85,13.2,0.0,1,32.3,2.3,7.7,0,0,0,1,0,0,250,250,0,,,,,,,,,,,,,,,,
79943,1622990929367,1,2,33,33,33,70,-33,0.06,0.09,-0.71,-0,-1,0,0.11,0,79,7307,12,28,42,0.753,0.0,656,4.9,13.3,0.0,1,32.2,2.29,7.7,0,0,0,1,0,0,250,250,0,45.700283,4.90968,0.0,197.7,8,2,1.5,0,0.0,-1,0.0,,0.0,0,0.01,1.3324
79963,1622990929387,,,,,,,,0.03,0.09,-0.81,-0,0,1,0.09,,79,7355,12,28,42,0.754,0.0,656,4.86,13.3,0.0,1,32.3,1.16,7.7,0,0,0,1,0,0,250,250,0,,,,,,,,,,,,,,,,
79983,1622990929407,,,,,,,,-0.02,0.07,-0.83,-0,-0,1,0.07,,79,7307,12,28,42,0.754,0.0,657,4.88,13.3,0.0,1,32.2,2.29,7.7,0,0,0,1,0,0,250,250,0,,,,,,,,,,,,,,,,
80003,1622990929427,,,,,,,,-0.04,0.03,-0.75,-0,0,-0,0.05,,79,7341,12,28,42,0.754,0.0,660,4.87,13.3,0.0,1,32.2,2.29,7.7,0,0,0,1,0,0,250,250,0,,,,,,,,,,,,,,,,
80023,1622990929447,,,,,,,,-0.05,-0.03,-0.54,-0,-1,-1,0.06,,79,7358,12,28,42,0.754,0.0,671,4.88,13.2,0.0,1,32.3,2.3,7.7,0,0,0,1,0,0,250,250,0,,,,,,,,,,,,,,,,
80043,1622990929467,0,2,33,33,33,70,-33,-0.03,-0.06,-0.51,-0,-1,-1,0.06,0,79,7338,12,28,42,0.754,0.0,664,4.9,13.2,0.0,1,32.2,2.29,7.7,0,0,0,1,0,0,250,250,0,45.700283,4.90968,0.0,197.7,8,2,1.5,0,0.0,-1,0.0,0.0,0.0,0,0.01,1.334
80063,1622990929487,,,,,,,,0.03,-0.05,-0.34,-0,-2,-2,0.05,,79,7338,12,28,42,0.755,0.0,662,4.87,13.2,0.0,1,32.2,1.16,7.7,0,0,0,1,0,0,250,250,0,,,,,,,,,,,,,,,,
80083,1622990929507,,,,,,,,0.05,-0.02,-0.43,-0,-2,-2,0.05,,79,7341,12,28,42,0.755,0.0,661,4.89,13.1,0.0,1,32.2,2.29,7.7,0,0,0,1,0,0,250,250,0,,,,,,,,,,,,,,,,
80103,1622990929527,,,,,,,,0.08,0.0,-0.56,-0,-2,-1,0.08,,79,7332,12,28,42,0.756,0.0,656,4.84,13.3,0.0,1,32.2,2.29,7.7,0,0,0,1,0,0,250,250,0,,,,,,,,,,,,,,,,
80123,1622990929547,,,,,,,,0.06,0.08,-0.68,-0,-1,-0,0.1,,79,7338,12,28,42,0.757,0.0,659,4.9,13.3,0.0,1,32.2,2.29,7.7,0,0,0,1,0,0,250,250,0,,,,,,,,,,,,,,,,
80143,1622990929567,1,1,33,33,32,70,-32,0.04,0.08,-0.79,-0,1,1,0.09,0,79,7347,12,28,42,0.758,0.0,661,4.88,13.3,0.0,1,32.3,1.16,7.7,0,0,0,1,0,0,250,250,0,45.700283,4.90968,0.0,197.7,8,2,1.5,0,0.0,-1,0.0,,0.0,0,0.01,1.3357
80163,1622990929587,,,,,,,,-0.01,0.09,-0.88,-0,1,1,0.09,,79,7350,12,28,42,0.759,0.0,657,4.89,13.3,0.0,1,32.3,2.29,7.7,0,0,0,1,0,0,250,250,0,,,,,,,,,,,,,,,,
80183,1622990929607,,,,,,,,-0.05,0.05,-0.79,-0,1,0,0.07,,79,7327,12,28,42,0.759,0.0,656,4.85,13.3,0.0,1,32.2,2.29,7.7,0,0,0,1,0,0,250,250,0,,,,,,,,,,,,,,,,
80203,1622990929627,,,,,,,,-0.06,-0.01,-0.56,-0,-0,-1,0.06,,79,7332,12,28,42,0.759,0.0,673,4.85,13.1,0.0,1,32.2,2.29,7.7,0,0,0,1,0,0,250,250,0,,,,,,,,,,,,,,,,
80223,1622990929647,,,,,,,,-0.04,-0.04,-0.53,-0,-0,-1,0.06,,79,7318,12,28,42,0.759,0.0,659,4.87,13.2,0.0,1,32.2,2.29,7.7,0,0,0,1,0,0,250,250,0,,,,,,,,,,,,,,,,
80243,1622990929667,1,0,33,33,33,70,-32,0.02,0.01,-0.44,-0,-2,-1,0.02,0,79,7298,12,28,42,0.759,0.0,675,4.87,13.1,0.0,1,32.2,1.16,7.7,0,0,0,1,0,0,250,250,0,45.700283,4.90968,0.0,197.7,8,2,1.5,0,0.0,-1,0.0,0.0,0.0,0,0.01,1.3374
80263,1622990929687,,,,,,,,0.04,0.04,-0.57,-0,-1,-0,0.06,,79,7315,12,28,42,0.759,0.0,669,4.88,13.1,0.0,1,32.2,2.29,7.7,0,0,0,1,0,0,250,250,0,,,,,,,,,,,,,,,,
80283,1622990929707,,,,,,,,0.05,0.04,-0.69,-0,-0,1,0.07,,79,7321,12,28,42,0.759,0.0,673,4.85,13.2,0.0,1,32.2,2.29,7.7,0,0,0,1,0,0,250,250,0,,,,,,,,,,,,,,,,
80303,1622990929727,,,,,,,,0.01,0.1,-0.8,-0,1,1,0.1,,79,7324,12,28,42,0.76,0.0,660,4.89,13.3,0.0,1,32.2,1.16,7.7,0,0,0,1,0,0,250,250,0,,,,,,,,,,,,,,,,
80323,1622990929747,,,,,,,,-0.02,0.09,-0.9,-0,2,2,0.09,,79,7318,12,28,42,0.76,0.0,663,4.88,13.3,0.0,1,32.2,1.16,7.7,0,0,0,1,0,0,250,250,0,,,,,,,,,,,,,,,,
80343,1622990929767,1,2,33,33,33,70,-31,-0.07,0.07,-0.86,-0,1,1,0.1,0,79,7373,12,28,42,0.76,0.0,675,4.86,13.2,0.0,1,32.3,2.3,7.7,0,0,0,1,0,0,250,250,0,45.700283,4.90968,0.0,197.7,8,2,1.5,0,0.0,-1,0.0,,0.0,0,0.01,1.3391
80363,1622990929787,,,,,,,,-0.1,0.05,-0.78,-0,1,0,0.11,,79,7370,12,28,42,0.76,0.0,663,4.86,13.3,0.0,1,32.3,2.3,7.7,0,0,0,1,0,0,250,250,0,,,,,,,,,,,,,,,,
80383,1622990929809,,,,,,,,-0.09,-0.0,-0.54,-0,-0,-1,0.09,,79,7350,12,28,42,0.76,0.0,675,4.87,13.1,0.0,1,32.3,2.29,7.8,0,0,0,1,0,0,250,250,0,,,,,,,,,,,,,,,,
80403,1622990929829,,,,,,,,-0.12,-0.03,-0.61,-0,0,-1,0.13,,79,7361,12,28,42,0.76,0.0,660,4.87,13.2,0.0,1,32.3,2.3,7.8,0,0,0,1,0,0,250,250,0,,,,,,,,,,,,,,,,
80423,1622990929849,,,,,,,,-0.13,-0.1,-0.39,-0,-2,-2,0.16,,79,7344,12,28,42,0.76,0.0,662,4.87,13.2,0.0,1,32.3,1.16,7.8,0,0,0,1,0,0,250,250,0,,,,,,,,,,,,,,,,
80443,1622990929869,0,2,33,33,33,70,-31,-0.11,-0.1,-0.28,-0,-2,-1,0.14,0,79,7347,12,28,42,0.76,0.0,660,4.89,13.1,0.0,1,32.3,2.29,7.8,0,0,0,1,0,0,250,250,0,45.700283,4.90968,0.0,197.7,8,2,1.5,0,0.0,-1,0.0,0.0,0.0,0,0.01,1.3407
80463,1622990929889,,,,,,,,-0.07,-0.11,-0.17,-0,-2,-1,0.13,,79,7347,12,28,42,0.761,0.0,661,4.83,13.2,0.0,1,32.3,2.29,7.8,0,0,0,1,0,0,250,250,0,,,,,,,,,,,,,,,,
80483,1622990929906,,,,,,,,-0.03,-0.08,-0.28,-0,-1,-0,0.09,,79,7284,12,28,42,0.761,0.0,659,4.88,13.3,0.0,1,32.2,1.16,7.8,0,0,0,1,0,0,250,250,0,,,,,,,,,,,,,,,,
80503,1622990929926,,,,,,,,-0.0,-0.03,-0.42,-0,0,1,0.03,,79,7307,12,28,42,0.761,0.0,661,4.86,13.2,0.0,1,32.2,2.29,7.7,0,0,0,1,0,0,250,250,0,,,,,,,,,,,,,,,,
80523,1622990929946,,,,,,,,-0.02,0.03,-0.55,-0,0,0,0.04,,79,7284,12,28,42,0.762,0.0,666,4.87,13.2,0.0,1,32.2,2.29,7.7,0,0,0,1,0,0,250,250,0,,,,,,,,,,,,,,,,
80543,1622990929966,1,2,33,33,33,70,-29,-0.06,0.02,-0.67,-0,1,-1,0.06,0,79,7324,12,28,42,0.762,0.0,656,4.86,13.3,0.0,1,32.2,2.29,7.7,0,0,0,1,0,0,250,250,0,45.700283,4.90968,0.0,197.7,8,2,1.5,0,0.0,-1,0.0,,0.0,0,0.01,1.3424
80563,1622990929986,,,,,,,,-0.09,-0.0,-0.53,-0,-1,-1,0.09,,79,7270,12,28,42,0.762,0.0,677,4.86,13.1,0.0,1,32.2,2.29,7.7,0,0,0,1,0,0,250,250,0,,,,,,,,,,,,,,,,
80583,1622990929996,,,,,,,,-0.1,-0.05,-0.5,-0,-1,-1,0.11,,79,7307,12,28,42,0.762,0.0,662,4.9,13.2,0.0,1,32.2,1.16,7.7,0,0,0,1,0,0,250,250,0,,,,,,,,,,,,,,,,
80603,1622990930016,,,,,,,,-0.05,-0.08,-0.29,-0,-2,-1,0.09,,79,7329,12,28,42,0.762,0.0,675,4.86,13.1,0.0,1,32.2,2.29,7.7,0,0,0,1,0,0,250,250,0,,,,,,,,,,,,,,,,
80623,1622990930036,,,,,,,,-0.01,-0.06,-0.32,-0,-1,0,0.06,,79,7315,12,28,42,0.761,0.0,660,4.91,13.2,0.0,1,32.2,2.29,7.7,0,0,0,1,0,0,250,250,0,,,,,,,,,,,,,,,,
80643,1622990930056,1,2,33,33,33,70,-26,0.04,-0.05,-0.46,-0,-0,1,0.06,0,79,7327,12,28,42,0.761,0.0,656,4.86,13.3,0.0,1,32.2,2.29,7.7,0,0,0,1,0,0,250,250,0,45.700283,4.90968,0.0,197.7,8,2,1.5,0,0.0,-1,0.0,0.0,0.0,0,0.01,1.344
80663,1622990930076,,,,,,,,0.04,0.02,-0.59,-0,1,1,0.04,,79,7335,12,28,42,0.761,0.0,661,4.86,13.3,0.0,1,32.2,1.16,7.7,0,0,0,1,0,0,250,250,0,,,,,,,,,,,,,,,,
80683,1622990930106,,,,,,,,0.02,0.06,-0.71,-0,1,1,0.06,,79,7324,12,28,42,0.762,0.0,657,4.83,13.3,0.0,1,32.2,2.29,7.7,0,0,0,1,0,0,250,250,0,,,,,,,,,,,,,,,,
80703,1622990930126,,,,,,,,-0.03,0.06,-0.75,-0,0,-0,0.07,,79,7298,12,28,42,0.763,0.0,658,4.87,13.3,0.0,1,32.2,2.29,7.7,0,0,0,1,0,0,250,250,0,,,,,,,,,,,,,,,,
80723,1622990930146,,,,,,,,-0.07,0.04,-0.69,-0,0,-1,0.08,,79,7318,12,28,42,0.763,0.0,661,4.86,13.2,0.0,1,32.2,2.29,7.7,0,0,0,1,0,0,250,250,0,,,,,,,,,,,,,,,,
80743,1622990930166,-0,2,33,33,33,69,-22,-0.08,-0.03,-0.53,-0,-1,-1,0.08,0,79,7318,12,28,42,0.764,0.0,670,4.86,13.2,0.0,1,32.2,2.29,7.7,0,0,0,1,0,0,250,250,0,45.700283,4.90968,0.0,197.7,8,2,1.5,0,0.0,-1,0.0,,0.0,0,0.01,1.3457
80763,1622990930186,,,,,,,,-0.05,-0.06,-0.48,-0,-1,-1,0.08,,79,7347,12,28,42,0.764,0.0,664,4.89,13.1,0.0,1,32.3,2.29,7.7,0,0,0,1,0,0,250,250,0,,,,,,,,,,,,,,,,
80783,1622990930206,,,,,,,,-0.0,-0.07,-0.39,-0,-1,-0,0.07,,79,7350,12,28,42,0.765,0.0,671,4.86,13.2,0.0,1,32.3,2.29,7.8,0,0,0,1,0,0,250,250,0,,,,,,,,,,,,,,,,
80803,1622990930226,,,,,,,,0.03,-0.04,-0.48,-0,-1,1,0.05,,79,7350,12,28,42,0.765,0.0,669,4.89,13.2,0.0,1,32.3,2.29,7.8,0,0,0,1,0,0,250,250,0,,,,,,,,,,,,,,,,
80823,1622990930246,,,,,,,,0.07,-0.04,-0.61,-0,-0,1,0.08,,79,7376,12,28,42,0.765,0.0,673,4.86,13.2,0.0,1,32.3,2.3,7.8,0,0,0,1,0,0,250,250,0,,,,,,,,,,,,,,,,
80843,1622990930266,1,2,33,33,33,70,-23,0.06,0.03,-0.72,-0,0,1,0.07,0,79,7321,12,28,42,0.765,0.0,662,4.89,13.3,0.0,1,32.2,2.29,7.8,0,0,0,1,0,0,250,250,0,45.700283,4.90968,0.0,197.7,8,2,1.5,0,0.0,-1,0.0,0.0,0.0,0,0.01,1.3474
80863,1622990930286,,,,,,,,0.04,0.05,-0.83,-0,1,1,0.06,,79,7373,12,28,42,0.765,0.0,663,4.88,13.2,0.0,1,32.3,1.17,7.8,0,0,0,1,0,0,250,250,0,,,,,,,,,,,,,,,,
80883,1622990930306,,,,,,,,-0.0,0.06,-0.92,-0,0,0,0.06,,79,7307,12,28,42,0.765,0.0,658,4.86,13.3,0.0,1,32.2,2.29,7.7,0,0,0,1,0,0,250,250,0,,,,,,,,,,,,,,,,
80903,1622990930326,,,,,,,,-0.05,0.06,-0.96,-0,1,-1,0.07,,79,7367,12,28,42,0.764,0.0,667,4.86,13.2,0.0,1,32.3,2.3,7.7,0,0,0,1,0,0,250,250,0,,,,,,,,,,,,,,,,
80923,1622990930346,,,,,,,,-0.08,0.02,-0.78,-0,-0,-1,0.08,,79,7358,12,28,42,0.763,0.0,675,4.86,13.1,0.0,1,32.3,2.3,7.7,0,0,0,1,0,0,250,250,0,,,,,,,,,,,,,,,,
80943,1622990930366,-0,2,33,33,33,70,-22,-0.09,-0.01,-0.74,-0,-1,-2,0.09,0,79,7384,12,28,42,0.762,0.0,660,4.86,13.1,0.0,1,32.3,2.3,7.7,0,0,0,1,0,0,250,250,0,45.700283,4.90968,0.0,197.7,8,2,1.5,0,0.0,-1,0.0,,0.0,0,0.01,1.3491
80963,1622990930386,,,,,,,,-0.05,-0.08,-0.51,-0,-2,-2,0.1,,79,7364,11,28,42,0.761,0.0,671,4.85,13.1,0.0,1,32.3,2.3,7.7,0,0,0,1,0,0,250,250,0,,,,,,,,,,,,,,,,
80983,1622990930406,,,,,,,,-0.02,-0.08,-0.44,-0,-2,-2,0.08,,79,7384,11,28,42,0.761,0.0,655,4.9,13.2,0.0,1,32.3,2.3,7.8,0,0,0,1,0,0,250,250,0,,,,,,,,,,,,,,,,
81003,1622990930426,,,,,,,,0.03,-0.09,-0.44,-0,-2,-1,0.09,,79,7355,11,28,42,0.76,0.0,662,4.9,13.2,0.0,1,32.3,1.16,7.8,0,0,0,1,0,0,250,250,0,,,,,,,,,,,,,,,,
81023,1622990930446,,,,,,,,0.07,-0.06,-0.49,-0,-2,-0,0.09,,79,7364,11,28,42,0.759,0.0,659,4.86,13.2,0.0,1,32.3,1.17,7.8,0,0,0,1,0,0,250,250,0,,,,,,,,,,,,,,,,
81043,1622990930466,-0,2,33,33,33,70,-23,0.09,-0.02,-0.61,-0,-0,1,0.09,0,79,7329,11,28,41,0.758,0.0,653,4.87,13.3,0.0,1,31.8,2.3,7.8,0,0,0,1,0,0,250,250,0,45.700283,4.90968,0.0,197.7,8,2,1.5,0,0.0,-1,0.0,0.0,0.0,0,0.01,1.3507
81063,1622990930486,,,,,,,,0.06,0.02,-0.73,-0,1,1,0.06,,79,7347,11,28,41,0.756,0.0,657,4.88,13.3,0.0,1,31.8,2.3,7.8,0,0,0,1,0,0,250,250,0,,,,,,,,,,,,,,,,
81083,1622990930506,,,,,,,,0.01,0.0,-0.83,-0,1,1,0.01,,79,7361,11,28,41,0.757,0.0,661,4.87,13.3,0.0,1,31.8,2.3,7.8,0,0,0,1,0,0,250,250,0,,,,,,,,,,,,,,,,
81103,1622990930526,,,,,,,,-0.02,0.01,-0.77,-0,-0,-0,0.02,,80,7298,11,28,41,0.757,0.0,671,4.88,13.3,0.0,1,31.8,2.3,7.8,0,0,0,1,0,0,250,250,0,,,,,,,,,,,,,,,,
81123,1622990930546,,,,,,,,-0.04,-0.02,-0.74,-0,-0,-1,0.05,,79,7350,11,28,41,0.757,0.0,668,4.88,13.1,0.0,1,31.8,2.3,7.8,0,0,0,1,0,0,250,250,0,,,,,,,,,,,,,,,,
81143,1622990930566,-1,2,33,33,33,70,-23,-0.02,-0.08,-0.51,-0,-2,-2,0.08,0,80,7318,11,28,41,0.757,0.0,671,4.87,13.1,0.0,1,31.8,2.29,7.8,0,0,0,1,0,0,250,250,0,45.700283,4.90968,0.0,197.7,8,2,1.5,0,0.0,-1,0.0,,0.0,0,0.01,1.3524
81163,1622990930586,,,,,,,,0.01,-0.07,-0.43,-0,-2,-1,0.07,,79,7335,11,28,41,0.757,0.0,660,4.88,13.2,0.0,1,31.8,2.3,7.8,0,0,0,1,0,0,250,250,0,,,,,,,,,,,,,,,,
81183,1622990930608,,,,,,,,0.05,-0.09,-0.44,-0,-2,-1,0.1,,79,7327,11,28,41,0.757,0.0,656,4.87,13.2,0.0,1,31.8,1.17,7.8,0,0,0,1,0,0,250,250,0,,,,,,,,,,,,,,,,
81203,1622990930628,,,,,,,,0.07,-0.09,-0.51,-0,-2,-0,0.11,,79,7327,11,28,41,0.757,0.0,657,4.87,13.2,0.0,1,31.8,2.3,7.8,0,0,0,1,0,0,250,250,0,,,,,,,,,,,,,,,,
81223,1622990930648,,,,,,,,0.07,-0.05,-0.63,-0,-0,1,0.09,,79,7315,11,28,41,0.757,0.0,656,4.86,13.2,0.0,1,31.8,2.3,7.8,0,0,0,1,0,0,250,250,0,,,,,,,,,,,,,,,,
81243,1622990930668,1,1,33,33,33,70,-24,0.04,0.01,-0.74,-0,0,1,0.04,0,79,7298,11,28,41,0.757,0.0,656,4.87,13.3,0.0,1,31.8,2.3,7.8,0,0,0,1,0,0,250,250,0,45.700283,4.90968,0.0,197.7,8,2,1.5,0,0.0,-1,0.0,0.0,0.0,0,0.01,1.3541
81263,1622990930688,,,,,,,,-0.0,-0.01,-0.73,-0,0,-0,0.01,,79,7284,10,28,41,0.757,0.0,661,4.85,13.2,0.0,1,31.8,2.29,7.8,0,0,0,1,0,0,250,250,0,,,,,,,,,,,,,,,,
81283,1622990930708,,,,,,,,-0.01,-0.04,-0.52,-0,-1,-1,0.04,,80,7281,10,28,40,0.757,0.0,672,4.88,13.1,0.0,1,31.4,1.17,7.8,0,0,0,1,0,0,250,250,0,,,,,,,,,,,,,,,,
81303,1622990930728,,,,,,,,-0.0,-0.05,-0.49,-0,-1,-0,0.05,,80,7233,9,28,40,0.757,0.0,660,4.87,13.1,0.0,1,31.3,2.3,7.7,0,0,0,1,0,0,250,250,0,,,,,,,,,,,,,,,,
81323,1622990930748,,,,,,,,0.05,-0.0,-0.51,-0,-1,0,0.05,,80,7242,9,28,39,0.756,0.0,665,4.87,13.2,0.0,1,31.0,2.3,7.7,0,0,0,1,0,0,250,250,0,,,,,,,,,,,,,,,,
81343,1622990930768,1,0,33,33,33,70,-24,0.02,0.01,-0.64,-0,0,1,0.02,0,79,7131,9,28,39,0.756,0.0,657,4.88,13.2,0.0,1,31.0,2.3,7.7,0,0,0,1,0,0,250,250,0,45.700283,4.90968,0.0,197.7,8,2,1.5,0,0.0,-1,0.0,,0.0,0,0.01,1.3557
81363,1622990930788,,,,,,,,-0.02,0.01,-0.54,-0,-1,-1,0.02,,79,7094,9,28,38,0.755,0.0,660,4.87,13.2,0.0,1,30.7,2.24,7.7,0,0,0,1,0,0,250,250,0,,,,,,,,,,,,,,,,
81383,1622990930808,,,,,,,,0.01,-0.02,-0.34,-0,-2,-0,0.02,,80,7054,9,28,38,0.754,0.0,670,4.88,13.2,0.0,1,30.7,2.24,7.7,0,0,0,1,0,0,250,250,0,,,,,,,,,,,,,,,,
81403,1622990930828,,,,,,,,-0.02,0.01,-0.47,-0,-0,1,0.02,,79,6949,9,28,37,0.754,0.0,660,4.88,13.2,0.0,1,30.3,2.19,7.3,0,0,0,1,0,0,250,250,0,,,,,,,,,,,,,,,,
81423,1622990930848,,,,,,,,-0.0,-0.02,-0.27,-0,-2,-1,0.02,,79,6888,9,28,37,0.754,0.0,650,4.86,13.3,0.0,1,30.2,2.19,7.3,0,0,0,1,0,0,250,250,0,,,,,,,,,,,,,,,,
81443,1622990930868,0,1,33,33,33,70,-23,0.01,0.02,-0.41,-0,-0,1,0.03,0,80,6768,9,28,37,0.754,0.0,662,4.88,13.1,0.0,1,30.0,2.19,7.3,0,0,0,1,0,0,250,250,0,45.700283,4.90968,0.0,197.7,8,2,1.5,0,0.0,-1,0.0,0.0,0.0,0,0.01,1.3574
81463,1622990930888,,,,,,,,0.02,-0.02,-0.21,-0,-3,-2,0.03,,80,6701,8,28,37,0.755,0.0,655,4.9,13.2,0.0,1,30.0,2.19,7.3,0,0,0,1,0,0,250,250,0,,,,,,,,,,,,,,,,
81483,1622990930907,,,,,,,,-0.05,-0.01,-0.36,-0,0,0,0.05,,80,6581,8,28,37,0.756,0.0,650,4.88,13.2,0.0,1,29.9,2.19,6.6,0,0,0,1,0,0,250,250,0,,,,,,,,,,,,,,,,
81503,1622990930927,,,,,,,,-0.02,0.05,-0.25,0,1,2,0.06,,80,6438,8,28,36,0.757,0.0,655,4.88,13.1,0.0,1,29.5,2.14,6.6,0,0,0,1,0,0,250,250,0,,,,,,,,,,,,,,,,
81523,1622990930947,,,,,,,,0.03,0.03,-0.06,0,-1,-0,0.05,,80,6334,8,28,36,0.759,0.0,653,4.86,13.3,0.0,1,29.5,2.14,6.6,0,0,0,1,0,0,250,250,0,,,,,,,,,,,,,,,,
81543,1622990930967,-1,2,33,33,33,70,-23,0.07,-0.02,0.11,-0,-4,-3,0.07,0,80,6225,8,28,37,0.762,0.0,632,4.9,13.3,0.0,1,29.5,2.19,6.6,0,0,0,1,0,0,250,250,0,45.700283,4.90968,0.0,197.7,8,2,1.5,0,0.0,-1,0.0,,0.0,0,0.01,1.3591
81563,1622990930987,,,,,,,,0.1,-0.05,0.27,-0,-8,-7,0.11,,79,6062,8,28,37,0.765,0.0,623,4.88,13.3,0.0,1,29.4,2.19,6.6,0,0,0,1,0,0,250,250,0,,,,,,,,,,,,,,,,
81583,1622990930997,,,,,,,,0.17,-0.07,0.41,-1,-11,-10,0.18,,80,5892,8,28,38,0.769,0.0,620,4.87,13.3,0.0,1,29.2,1.15,6.6,0,0,0,1,0,0,250,250,0,,,,,,,,,,,,,,,,
81603,1622990931017,,,,,,,,0.23,-0.11,0.55,-1,-13,-11,0.25,,80,5716,8,28,38,0.774,0.0,612,4.88,13.4,0.0,1,28.8,2.34,6.2,0,0,0,1,0,0,250,250,0,,,,,,,,,,,,,,,,
81623,1622990931037,,,,,,,,0.13,-0.07,0.33,-0,-6,-6,0.15,,80,5537,8,28,39,0.777,0.0,605,4.87,13.1,0.0,1,28.6,2.46,6.2,0,0,0,1,0,0,250,250,0,,,,,,,,,,,,,,,,
81643,1622990931057,1,1,33,34,33,70,-24,0.16,-0.11,0.18,-0,-10,-9,0.19,0,80,5401,8,28,40,0.783,0.0,577,4.88,13.3,0.0,1,28.5,2.51,6.2,0,0,0,1,0,0,250,250,0,45.700283,4.90968,0.0,197.7,8,2,1.5,0,0.0,-1,0.0,0.0,0.0,0,0.01,1.3607
81663,1622990931077,,,,,,,,0.11,-0.13,0.33,-0,-7,-7,0.17,,80,5222,8,28,41,0.788,0.0,563,4.88,13.3,0.0,1,28.4,1.46,6.2,0,0,0,1,0,0,250,250,0,,,,,,,,,,,,,,,,
81683,1622990931107,,,,,,,,0.16,-0.16,0.15,-0,-9,-8,0.23,,80,5088,8,28,42,0.795,0.0,552,4.89,13.3,0.0,1,28.3,2.67,6.3,0,0,0,1,0,0,250,250,0,,,,,,,,,,,,,,,,
81703,1622990931127,,,,,,,,0.15,-0.15,-0.03,-0,-6,-5,0.22,,80,4901,8,28,43,0.8,0.0,526,4.91,13.2,0.0,1,27.3,2.66,6.3,0,0,0,1,0,0,250,250,0,,,,,,,,,,,,,,,,
81723,1622990931147,,,,,,,,0.08,-0.14,-0.17,-0,-4,-4,0.16,,80,4762,8,28,44,0.806,0.0,515,4.88,13.2,0.0,1,25.9,1.49,6.3,0,0,0,1,0,0,250,250,0,,,,,,,,,,,,,,,,
81743,1622990931167,1,0,33,33,32,70,-24,-0.0,-0.1,0.01,-0,-3,-3,0.1,0,80,4627,8,28,45,0.814,0.0,484,4.88,13.3,0.0,1,24.6,2.57,6.3,0,0,0,1,0,0,250,250,0,45.700283,4.90968,0.0,197.7,8,2,1.5,0,0.0,-1,0.0,,0.0,0,0.01,1.3624
81763,1622990931187,,,,,,,,-0.07,-0.08,0.12,-0,-1,-3,0.1,,80,4505,8,28,46,0.82,0.0,455,4.86,13.3,0.0,1,23.3,2.51,6.3,0,0,0,1,0,0,250,250,0,,,,,,,,,,,,,,,,
81783,1622990931207,,,,,,,,-0.13,-0.06,0.0,-0,2,-2,0.14,,80,4382,8,28,46,0.824,0.0,457,4.9,13.1,0.0,1,21.8,1.33,6.3,0,0,0,1,0,0,250,250,0,,,,,,,,,,,,,,,,
81803,1622990931227,,,,,,,,-0.14,-0.08,-0.16,-0,3,-1,0.16,,80,4239,8,28,47,0.831,0.0,443,4.92,13.1,0.0,1,20.4,2.4,4.9,0,0,0,1,0,0,250,250,0,,,,,,,,,,,,,,,,
81823,1622990931247,,,,,,,,-0.11,-0.08,-0.32,-0,2,-1,0.13,,80,4139,8,28,48,0.837,0.0,435,4.94,13.2,0.0,1,19.4,1.22,4.9,0,0,0,1,0,0,250,250,0,,,,,,,,,,,,,,,,
81843,1622990931267,1,2,33,33,33,70,-25,-0.1,-0.06,-0.17,-0,1,-1,0.12,0,80,4050,8,28,49,0.845,0.0,406,4.86,13.4,0.0,1,18.6,2.29,4.9,0,0,0,1,0,0,250,250,0,45.700283,4.90968,0.0,197.7,8,2,1.5,0,0.0,-1,0.0,0.0,0.0,0,0.01,1.3641
81863,1622990931287,,,,,,,,-0.09,-0.07,-0.32,-0,1,-1,0.11,,80,3950,8,28,49,0.851,0.0,400,4.85,13.3,0.0,1,17.7,2.26,4.9,0,0,0,1,0,0,250,250,0,,,,,,,,,,,,,,,,
81883,1622990931307,,,,,,,,-0.08,-0.06,-0.39,-0,1,-1,0.1,,80,3871,8,28,51,0.858,0.0,398,4.92,13.3,0.0,1,17.5,2.26,4.9,0,0,0,1,0,0,250,250,0,,,,,,,,,,,,,,,,
81903,1622990931327,,,,,,,,-0.04,-0.06,-0.49,-0,1,-1,0.08,,80,3726,8,28,52,0.869,0.0,372,4.81,13.3,0.0,1,16.6,2.27,4.0,0,0,0,1,0,0,250,250,0,,,,,,,,,,,,,,,,
81923,1622990931347,,,,,,,,-0.07,-0.03,-0.38,-0,1,-1,0.08,,80,3613,8,28,53,0.878,0.0,374,4.95,13.3,0.0,1,15.8,2.29,4.0,0,0,0,1,0,0,250,250,0,,,,,,,,,,,,,,,,
81943,1622990931367,1,1,33,34,33,70,-24,-0.06,-0.04,-0.51,-0,1,-1,0.07,0,80,3441,8,28,54,0.885,0.0,367,4.85,13.2,0.0,1,15.0,1.19,4.0,0,0,0,1,0,0,250,250,0,45.700283,4.90968,0.0,197.7,8,2,1.5,0,0.0,-1,0.0,,0.0,0,0.01,1.3657
81963,1622990931387,,,,,,,,0.0,-0.06,-0.64,-0,-1,-0,0.06,,80,3351,8,28,56,0.894,0.0,340,4.87,13.4,0.0,1,15.0,1.26,4.0,0,0,0,1,0,0,250,250,0,,,,,,,,,,,,,,,,
81983,1622990931408,,,,,,,,0.01,-0.06,-0.66,-0,0,0,0.06,,80,3227,8,28,57,0.908,0.0,328,4.88,13.3,0.0,1,15.0,2.42,3.6,0,0,0,1,0,0,250,250,0,,,,,,,,,,,,,,,,
82003,1622990931428,,,,,,,,-0.01,-0.05,-0.64,-0,2,-0,0.05,,80,3095,8,28,58,0.926,0.0,313,4.92,13.4,0.0,1,15.0,2.46,3.6,0,0,0,1,0,0,250,250,0,,,,,,,,,,,,,,,,
82023,1622990931448,,,,,,,,-0.03,-0.05,-0.71,-0,2,0,0.06,,80,2961,8,28,59,0.936,0.0,304,4.91,13.4,0.0,1,15.0,1.34,3.6,0,0,0,1,0,0,250,250,0,,,,,,,,,,,,,,,,
82043,1622990931468,1,1,33,33,33,70,-23,-0.01,-0.06,-0.81,-0,2,0,0.06,0,80,2846,8,28,61,0.953,0.0,293,4.9,13.4,0.0,1,15.0,2.43,3.6,0,0,0,1,0,0,250,250,0,45.700283,4.90968,0.0,197.7,8,2,1.5,0,0.0,-1,0.0,0.0,0.0,0,0.01,1.3674
82063,1622990931488,,,,,,,,0.0,-0.06,-0.82,-0,1,0,0.06,,80,2738,8,28,62,0.965,0.0,285,4.87,13.3,0.0,1,15.2,2.39,3.6,0,0,0,1,0,0,250,250,0,,,,,,,,,,,,,,,,
82083,1622990931507,,,,,,,,-0.01,-0.05,-0.83,-0,1,0,0.05,,80,2676,8,28,63,0.976,0.0,288,4.88,13.2,0.0,1,15.4,1.23,2.9,0,0,0,1,0,0,250,250,0,,,,,,,,,,,,,,,,
82103,1622990931527,,,,,,,,-0.01,-0.03,-0.84,-0,1,0,0.03,,80,2614,8,28,65,0.985,0.0,273,4.91,13.4,0.0,1,15.7,1.21,2.9,0,0,0,1,0,0,250,250,0,,,,,,,,,,,,,,,,
82123,1622990931547,,,,,,,,0.0,-0.03,-0.88,-0,1,0,0.03,,80,2487,8,28,66,0.999,0.0,261,4.88,13.4,0.0,1,15.7,2.25,2.9,0,0,0,1,0,0,250,250,0,,,,,,,,,,,,,,,,
82143,1622990931567,1,3,33,33,33,70,-24,-0.01,-0.02,-0.87,-0,1,0,0.03,0,80,2433,8,28,68,1.004,0.0,263,4.9,13.3,0.0,1,16.0,2.27,2.9,0,0,0,1,0,0,250,250,0,45.700283,4.90968,0.0,197.7,8,2,1.5,0,0.0,-1,0.0,,0.0,0,0.01,1.3691
82163,1622990931587,,,,,,,,-0.01,-0.02,-0.88,-0,1,0,0.02,,80,2330,9,28,69,1.011,0.0,250,4.91,13.3,0.0,1,15.8,1.21,2.9,0,0,0,1,0,0,250,250,0,,,,,,,,,,,,,,,,
82183,1622990931607,,,,,,,,-0.01,-0.02,-0.9,-0,1,0,0.02,,80,2152,9,28,71,1.019,0.0,243,4.93,13.2,0.0,1,15.3,1.35,2.5,0,0,0,1,0,0,250,250,0,,,,,,,,,,,,,,,,
82203,1622990931627,,,,,,,,-0.01,-0.02,-0.92,-0,1,0,0.02,,80,2053,9,28,73,1.025,0.0,231,4.91,13.3,0.0,1,14.8,2.55,2.5,0,0,0,1,0,0,250,250,0,,,,,,,,,,,,,,,,
82223,1622990931647,,,,,,,,0.0,-0.02,-0.94,-0,1,0,0.02,,80,1965,9,28,75,1.024,0.0,228,4.85,13.3,0.0,1,14.3,2.77,2.5,0,0,0,1,0,0,250,250,0,,,,,,,,,,,,,,,,
82243,1622990931667,1,2,33,34,33,70,-24,-0.0,-0.02,-0.95,-0,1,0,0.02,0,80,1890,10,28,77,1.022,0.0,221,4.92,13.3,0.0,1,13.9,1.76,2.5,0,0,0,1,0,0,250,250,0,45.700283,4.90968,0.0,197.7,8,2,1.5,0,0.0,-1,0.0,0.0,0.0,0,0.01,1.3707
82263,1622990931687,,,,,,,,-0.0,-0.03,-0.97,-0,1,0,0.03,,80,1712,11,28,79,1.019,0.0,210,4.85,13.1,0.0,1,13.6,1.85,2.5,0,0,0,1,0,0,250,250,0,,,,,,,,,,,,,,,,
82283,1622990931707,,,,,,,,-0.0,-0.03,-0.95,-0,0,0,0.03,,80,1616,12,28,81,1.016,0.0,203,4.86,13.1,0.0,1,13.3,1.94,2.2,0,0,0,1,0,0,250,250,0,,,,,,,,,,,,,,,,
82303,1622990931727,,,,,,,,-0.01,-0.03,-0.93,-0,-0,0,0.03,,80,1496,15,28,84,1.014,0.0,198,4.87,13.0,0.0,1,14.3,5.17,2.2,0,0,0,1,0,0,250,250,0,,,,,,,,,,,,,,,,
82323,1622990931747,,,,,,,,-0.0,-0.03,-0.96,-0,-0,0,0.03,,80,1496,19,28,87,1.009,0.0,191,4.92,13.2,0.0,1,18.6,5.25,2.2,0,0,0,1,0,0,250,250,0,,,,,,,,,,,,,,,,
82343,1622990931767,1,1,33,33,33,70,-25,-0.0,-0.03,-0.96,-0,-0,0,0.03,0,80,1363,21,28,92,1.005,0.0,184,4.88,13.3,0.0,1,24.6,5.13,2.2,0,0,0,1,0,0,250,250,0,45.700283,4.90968,0.0,197.7,8,2,1.5,0,0.0,-1,0.0,,0.0,0,0.01,1.3724
82363,1622990931787,,,,,,,,-0.0,-0.02,-0.96,-0,-0,-0,0.02,,80,1269,21,28,95,1.001,0.0,178,4.88,13.3,0.0,1,27.9,4.93,2.2,0,0,0,1,0,0,250,250,0,,,,,,,,,,,,,,,,
82383,1622990931807,,,,,,,,0.0,-0.01,-0.98,-0,-0,0,0.01,,80,1262,21,28,96,0.996,0.0,175,4.9,13.3,0.0,1,29.2,4.89,2.8,0,0,0,1,0,0,250,250,0,,,,,,,,,,,,,,,,
82403,1622990931827,,,,,,,,0.0,-0.01,-1.0,-0,-0,-0,0.01,,80,1322,21,28,97,0.991,0.0,175,4.86,13.3,0.0,1,31.1,1.94,2.8,0,0,0,1,0,0,250,250,0,,,,,,,,,,,,,,,,
82423,1622990931847,,,,,,,,0.01,-0.01,-1.01,-0,-0,-0,0.02,,80,1478,21,28,97,0.987,0.0,177,4.97,13.4,0.0,1,32.4,2.09,2.8,0,0,0,1,0,0,250,250,0,,,,,,,,,,,,,,,,
82443,1622990931867,1,2,33,33,33,70,-25,0.02,-0.01,-1.01,-0,-0,-0,0.02,0,80,1670,21,28,98,0.982,0.0,185,4.87,13.4,0.0,1,34.0,5.32,2.8,0,0,0,1,0,0,250,250,0,45.700283,4.90968,0.0,197.7,8,2,1.5,0,0.0,-1,0.0,0.0,0.0,0,0.01,1.3741
82463,1622990931887,,,,,,,,0.01,-0.01,-0.99,-0,-0,-0,0.01,,80,2020,21,28,98,0.978,0.0,191,4.95,13.2,0.0,1,34.0,2.24,2.8,0,0,0,1,0,0,250,250,0,,,,,,,,,,,,,,,,
82483,1622990931906,,,,,,,,0.01,-0.01,-1.05,-0,-0,0,0.02,,80,2101,21,28,97,0.975,0.0,196,4.85,13.4,0.0,1,32.6,5.39,5.2,0,0,0,1,0,0,250,250,0,,,,,,,,,,,,,,,,
82503,1622990931926,,,,,,,,0.01,-0.0,-0.96,-0,-0,0,0.01,,80,2434,21,28,97,0.972,0.0,218,4.87,13.3,0.0,1,32.6,5.45,5.2,0,0,0,1,0,0,250,250,0,,,,,,,,,,,,,,,,
82523,1622990931946,,,,,,,,-0.02,0.0,-0.96,-0,-0,0,0.02,,80,2644,21,28,97,0.969,0.0,229,4.92,13.3,0.0,1,31.9,5.57,5.2,0,0,0,1,0,0,250,250,0,,,,,,,,,,,,,,,,
82543,1622990931966,1,2,33,33,33,70,-24,-0.01,-0.01,-0.96,-0,-0,0,0.01,0,80,3042,21,28,96,0.964,0.0,252,4.92,13.3,0.0,1,29.5,2.58,5.2,0,0,0,1,0,0,250,250,0,45.700283,4.90968,0.0,197.7,8,2,1.5,0,0.0,-1,0.0,,0.0,0,0.01,1.3757
82563,1622990931986,,,,,,,,0.01,-0.01,-1.05,-0,-1,1,0.01,,80,3602,21,28,94,0.956,0.0,293,4.82,13.3,0.0,1,28.6,3.04,5.2,0,0,0,1,0,0,250,250,0,,,,,,,,,,,,,,,,
82583,1622990931996,,,,,,,,0.02,-0.01,-1.12,-0,-2,-0,0.02,,80,3902,20,28,94,0.95,0.0,330,4.92,13.3,0.0,1,30.9,3.01,11.5,0,0,0,1,0,0,250,250,0,,,,,,,,,,,,,,,,
82603,1622990932016,,,,,,,,0.08,-0.03,-1.2,-0,-4,-1,0.09,,80,4363,20,28,93,0.946,0.0,367,4.86,13.4,0.0,1,34.9,5.99,11.5,0,0,0,1,0,0,250,250,0,,,,,,,,,,,,,,,,
82623,1622990932036,,,,,,,,0.08,0.0,-1.26,-0,-3,0,0.08,,80,4792,20,28,91,0.936,0.0,428,4.86,13.3,0.0,1,39.7,5.42,11.5,0,0,0,1,0,0,250,250,0,,,,,,,,,,,,,,,,
82643,1622990932056,1,2,33,33,33,70,-25,0.09,-0.0,-0.99,-0,-3,-0,0.09,0,80,5219,20,28,90,0.917,0.0,481,4.85,13.3,0.0,1,42.2,5.57,11.5,0,0,0,1,0,0,250,250,0,45.700283,4.90968,0.0,197.7,8,2,1.5,0,0.0,-1,0.0,0.0,0.0,0,0.01,1.3774
82663,1622990932076,,,,,,,,-0.0,0.02,-1.08,0,2,3,0.02,,80,5539,20,29,89,0.905,0.0,529,4.88,13.3,0.0,1,40.9,6.01,11.5,0,0,0,1,0,0,250,250,0,,,,,,,,,,,,,,,,
82683,1622990932106,,,,,,,,-0.04,0.01,-1.15,0,3,5,0.04,,80,6042,20,29,86,0.884,0.0,592,4.86,13.2,0.0,1,40.2,6.33,17.7,0,0,0,1,0,0,250,250,0,,,,,,,,,,,,,,,,
82703,1622990932126,,,,,,,,-0.02,0.01,-0.89,0,1,4,0.03,,80,6660,20,29,83,0.872,0.0,637,4.85,13.2,0.0,1,43.1,5.39,17.7,0,0,0,1,0,0,250,250,0,,,,,,,,,,,,,,,,
82723,1622990932146,,,,,,,,-0.0,-0.02,-0.9,0,2,5,0.02,,80,7137,20,29,81,0.868,0.0,641,4.85,13.1,0.0,1,43.8,2.89,17.7,0,0,0,1,0,0,250,250,0,,,,,,,,,,,,,,,,
82743,1622990932166,0,3,33,33,33,69,-24,0.05,0.03,-0.82,0,2,5,0.05,0,80,7352,20,29,78,0.859,0.0,657,4.87,13.1,0.0,1,41.8,5.01,17.7,0,0,0,1,0,0,250,250,0,45.700283,4.90968,0.0,197.7,8,2,1.5,0,0.0,-1,0.0,,0.0,0,0.01,1.3791
82763,1622990932186,,,,,,,,0.09,0.03,-0.71,0,2,5,0.09,,80,7536,18,29,76,0.853,0.0,657,4.87,13.1,0.0,1,40.9,4.71,17.7,0,0,0,1,0,0,250,250,0,,,,,,,,,,,,,,,,
82783,1622990932208,,,,,,,,0.06,0.0,-0.56,0,0,3,0.06,,80,7961,15,29,72,0.846,0.0,675,4.88,13.1,0.0,1,38.7,2.78,15.6,0,0,0,1,0,0,250,250,0,,,,,,,,,,,,,,,,
82803,1622990932228,,,,,,,,0.05,0.02,-0.68,0,2,5,0.06,,80,8061,12,29,67,0.843,0.0,676,4.86,13.1,0.0,1,38.7,3.38,15.6,0,0,0,1,0,0,250,250,0,,,,,,,,,,,,,,,,
82823,1622990932248,,,,,,,,0.09,0.09,-0.56,0,1,4,0.13,,80,7894,11,29,61,0.839,0.0,669,4.86,13.3,0.0,1,37.8,1.4,15.6,0,0,0,1,0,0,250,250,0,,,,,,,,,,,,,,,,
82843,1622990932268,-1,2,33,33,33,70,-24,0.11,0.08,-0.37,0,0,3,0.14,0,80,7767,10,29,57,0.835,0.0,671,4.87,13.2,0.0,1,37.2,2.46,15.6,0,0,0,1,0,0,250,250,0,45.700283,4.90968,0.0,197.7,8,2,1.5,0,0.0,-1,0.0,0.0,0.0,0,0.01,1.3807
82863,1622990932288,,,,,,,,0.04,0.08,-0.5,0,0,3,0.09,,80,7871,10,29,53,0.828,0.0,680,4.87,13.2,0.0,1,36.7,2.45,15.6,0,0,0,1,0,0,250,250,0,,,,,,,,,,,,,,,,
82883,1622990932306,,,,,,,,0.03,0.09,-0.63,0,1,5,0.1,,80,7951,10,29,50,0.825,0.0,685,4.88,13.2,0.0,1,36.6,2.4,8.8,0,0,0,1,0,0,250,250,0,,,,,,,,,,,,,,,,
82903,1622990932326,,,,,,,,0.06,0.09,-0.41,0,1,4,0.11,,80,8074,10,29,47,0.822,0.0,670,4.86,13.2,0.0,1,36.6,1.32,8.8,0,0,0,1,0,0,250,250,0,,,,,,,,,,,,,,,,
82923,1622990932346,,,,,,,,0.01,0.09,-0.54,0,1,3,0.09,,80,8123,10,29,45,0.819,0.0,675,4.9,13.2,0.0,1,35.2,2.47,8.8,0,0,0,1,0,0,250,250,0,,,,,,,,,,,,,,,,
82943,1622990932366,1,1,33,33,33,70,-25,0.05,0.13,-0.56,0,2,5,0.14,0,80,8184,10,29,42,0.817,0.0,683,4.86,13.3,0.0,1,33.3,1.37,8.8,0,0,0,1,0,0,250,250,0,45.700283,4.90968,0.0,197.7,8,2,1.5,0,0.0,-1,0.0,,0.0,0,0.01,1.3824
82963,1622990932386,,,,,,,,0.03,0.05,-0.39,0,0,3,0.06,,80,8166,10,29,41,0.813,0.0,681,4.87,13.1,0.0,1,32.6,2.46,8.8,0,0,0,1,0,0,250,250,0,,,,,,,,,,,,,,,,
82983,1622990932406,,,,,,,,0.04,0.11,-0.52,0,2,5,0.12,,80,8078,10,29,39,0.809,0.0,672,4.88,13.1,0.0,1,31.1,2.37,8.8,0,0,0,1,0,0,250,250,0,,,,,,,,,,,,,,,,
83003,1622990932426,,,,,,,,0.09,0.12,-0.31,0,1,4,0.15,,80,7999,10,29,37,0.804,0.0,670,4.85,13.3,0.0,1,30.4,1.06,8.8,0,0,0,1,0,0,250,250,0,,,,,,,,,,,,,,,,
83023,1622990932446,,,,,,,,0.09,0.07,-0.12,0,-1,2,0.12,,80,7835,10,29,37,0.799,0.0,671,4.88,13.2,0.0,1,30.4,1.06,8.8,0,0,0,1,0,0,250,250,0,,,,,,,,,,,,,,,,
83043,1622990932466,1,2,33,33,33,70,-25,0.05,0.01,-0.18,0,-1,2,0.05,0,80,7600,10,29,36,0.786,0.0,664,4.88,13.1,0.0,1,30.1,2.19,8.8,0,0,0,1,0,0,250,250,0,45.700283,4.90968,0.0,197.7,8,2,1.5,0,0.0,-1,0.0,0.0,0.0,0,0.01,1.384
83063,1622990932486,,,,,,,,0.06,-0.03,0.0,0,-3,1,0.07,,80,7419,10,29,36,0.776,0.0,667,4.88,13.1,0.0,1,30.1,2.14,8.8,0,0,0,1,0,0,250,250,0,,,,,,,,,,,,,,,,
83083,1622990932508,,,,,,,,0.09,-0.0,0.09,0,-2,2,0.09,,80,7233,10,29,37,0.768,0.0,663,4.87,13.2,0.0,1,30.4,2.19,7.3,0,0,0,1,0,0,250,250,0,,,,,,,,,,,,,,,,
83103,1622990932528,,,,,,,,0.08,-0.01,-0.08,0,-1,2,0.09,,80,7121,10,29,37,0.754,0.0,668,4.88,13.2,0.0,1,30.4,2.19,7.3,0,0,0,1,0,0,250,250,0,,,,,,,,,,,,,,,,
83123,1622990932548,,,,,,,,0.06,-0.01,-0.0,0,-2,0,0.06,,80,7014,10,29,37,0.754,0.0,655,4.88,13.2,0.0,1,30.4,2.19,7.3,0,0,0,1,0,0,250,250,0,,,,,,,,,,,,,,,,
83143,1622990932568,1,1,33,33,33,70,-25,0.08,-0.03,-0.06,0,-1,2,0.09,0,80,6911,10,29,37,0.758,0.0,657,4.87,13.2,0.0,1,30.2,1.06,7.3,0,0,0,1,0,0,250,250,0,45.700283,4.90968,0.0,197.7,8,2,1.5,0,0.0,-1,0.0,,0.0,0,0.01,1.3857
83163,1622990932588,,,,,,,,0.04,-0.01,-0.22,0,-1,2,0.04,,80,6855,10,29,38,0.762,0.0,650,4.89,13.3,0.0,1,30.5,2.19,7.3,0,0,0,1,0,0,250,250,0,,,,,,,,,,,,,,,,
83183,1622990932606,,,,,,,,0.07,-0.05,-0.03,0,-2,1,0.09,,80,6761,10,29,38,0.764,0.0,667,4.88,13.2,0.0,1,30.4,2.24,7.3,0,0,0,1,0,0,250,250,0,,,,,,,,,,,,,,,,
83203,1622990932626,,,,,,,,0.01,-0.03,-0.2,0,-1,1,0.03,,80,6618,10,28,38,0.773,0.0,641,4.88,13.3,0.0,1,30.2,2.24,7.0,0,0,0,1,0,0,250,250,0,,,,,,,,,,,,,,,,
83223,1622990932646,,,,,,,,0.04,0.0,-0.21,0,0,2,0.04,,80,6613,10,28,38,0.779,0.0,660,4.87,13.1,0.0,1,30.2,2.24,7.0,0,0,0,1,0,0,250,250,0,,,,,,,,,,,,,,,,
83243,1622990932666,1,1,33,33,33,70,-25,0.08,-0.01,-0.03,0,-3,-1,0.08,0,80,6499,10,28,38,0.785,0.0,643,4.88,13.3,0.0,1,30.0,2.24,7.0,0,0,0,1,0,0,250,250,0,45.700283,4.90968,0.0,197.7,8,2,1.5,0,0.0,-1,0.0,0.0,0.0,0,0.01,1.3874
83263,1622990932686,,,,,,,,0.03,-0.06,-0.19,-0,-3,-2,0.07,,80,6371,10,28,39,0.79,0.0,640,4.9,13.3,0.0,1,30.2,1.17,7.0,0,0,0,1,0,0,250,250,0,,,,,,,,,,,,,,,,
83283,1622990932706,,,,,,,,-0.0,-0.03,-0.34,-0,0,1,0.03,,80,6325,10,28,39,0.798,0.0,637,4.88,13.3,0.0,1,30.1,2.3,6.7,0,0,0,1,0,0,250,250,0,,,,,,,,,,,,,,,,
83303,1622990932726,,,,,,,,-0.05,0.01,-0.48,-0,3,4,0.05,,80,6125,10,28,40,0.812,0.0,649,4.88,13.1,0.0,1,30.0,2.3,6.7,0,0,0,1,0,0,250,250,0,,,,,,,,,,,,,,,,
83323,1622990932746,,,,,,,,-0.09,0.02,-0.61,0,7,7,0.1,,80,5967,10,28,41,0.82,0.0,633,4.87,13.2,0.0,1,30.0,2.32,6.7,0,0,0,1,0,0,250,250,0,,,,,,,,,,,,,,,,
83343,1622990932766,1,0,33,33,33,70,-25,-0.16,0.02,-0.72,0,10,10,0.16,0,80,5842,10,28,42,0.831,0.0,611,4.88,13.2,0.0,1,29.9,1.24,6.7,0,0,0,1,0,0,250,250,0,45.700283,4.90968,0.0,197.7,8,2,1.5,0,0.0,-1,0.0,,0.0,0,0.01,1.389
83363,1622990932786,,,,,,,,-0.13,0.04,-0.83,0,7,7,0.14,,80,5669,10,28,43,0.84,0.0,601,4.87,13.3,0.0,1,29.8,2.45,6.7,0,0,0,1,0,0,250,250,0,,,,,,,,,,,,,,,,
83383,1622990932808,,,,,,,,-0.05,0.05,-0.59,0,3,5,0.07,,80,5501,10,28,44,0.843,0.0,593,4.88,13.3,0.0,1,29.7,2.53,6.7,0,0,0,1,0,0,250,250,0,,,,,,,,,,,,,,,,
83403,1622990932828,,,,,,,,-0.13,0.09,-0.71,0,9,9,0.16,,80,5357,10,28,45,0.848,0.0,577,4.9,13.1,0.0,1,29.6,2.61,6.4,0,0,0,1,0,0,250,250,0,,,,,,,,,,,,,,,,
83423,1622990932848,,,,,,,,-0.04,0.14,-0.49,0,2,4,0.14,,80,5266,10,28,46,0.852,0.0,555,4.87,13.3,0.0,1,29.7,2.67,6.4,0,0,0,1,0,0,250,250,0,,,,,,,,,,,,,,,,
83443,1622990932868,1,1,33,33,32,70,-26,-0.07,0.17,-0.61,0,5,7,0.18,0,80,5166,10,28,47,0.854,0.0,552,4.91,13.2,0.0,1,29.8,1.62,6.4,0,0,0,1,0,0,250,250,0,45.700283,4.90968,0.0,197.7,8,2,1.5,0,0.0,-1,0.0,0.0,0.0,0,0.01,1.3907
83463,1622990932888,,,,,,,,-0.09,0.17,-0.39,0,4,5,0.19,,80,5020,10,28,48,0.85,0.0,527,4.85,13.3,0.0,1,29.9,2.82,6.4,0,0,0,1,0,0,250,250,0,,,,,,,,,,,,,,,,
83483,1622990932907,,,,,,,,-0.01,0.15,-0.33,0,1,2,0.15,,80,4923,10,28,49,0.846,0.0,508,4.91,13.3,0.0,1,29.2,2.79,6.3,0,0,0,1,0,0,250,250,0,,,,,,,,,,,,,,,,
83503,1622990932927,,,,,,,,0.03,0.13,-0.47,0,2,4,0.13,,80,4854,10,28,50,0.843,0.0,517,4.87,13.2,0.0,1,28.7,1.63,6.3,0,0,0,1,0,0,250,250,0,,,,,,,,,,,,,,,,
83523,1622990932947,,,,,,,,-0.01,0.1,-0.6,0,4,5,0.1,,80,4725,10,28,51,0.841,0.0,508,4.91,13.2,0.0,1,27.4,1.57,6.3,0,0,0,1,0,0,250,250,0,,,,,,,,,,,,,,,,
83543,1622990932967,1,3,33,33,33,69,-26,-0.07,0.11,-0.6,0,5,6,0.13,0,80,4672,10,28,52,0.844,0.0,476,4.88,13.2,0.0,1,27.1,2.67,6.3,0,0,0,1,0,0,250,250,0,45.700283,4.90968,0.0,197.7,8,2,1.5,0,0.0,-1,0.0,,0.0,0,0.01,1.3924
83563,1622990932987,,,,,,,,-0.15,0.15,-0.42,0,7,5,0.22,,80,4600,10,28,53,0.846,0.0,480,4.88,13.2,0.0,1,26.5,1.5,6.3,0,0,0,1,0,0,250,250,0,,,,,,,,,,,,,,,,
83583,1622990932998,,,,,,,,-0.22,0.13,-0.22,0,8,5,0.26,,80,4569,10,28,53,0.85,0.0,452,4.87,13.3,0.0,1,26.1,2.6,5.5,0,0,0,1,0,0,250,250,0,,,,,,,,,,,,,,,,
83603,1622990933018,,,,,,,,-0.28,0.14,-0.04,0,8,4,0.31,,80,4502,10,28,54,0.854,0.0,468,4.88,13.2,0.0,1,25.5,1.44,5.5,0,0,0,1,0,0,250,250,0,,,,,,,,,,,,,,,,
83623,1622990933038,,,,,,,,-0.32,0.16,0.08,0,9,4,0.36,,80,4424,10,28,55,0.869,0.0,449,4.85,13.3,0.0,1,24.8,2.52,5.5,0,0,0,1,0,0,250,250,0,,,,,,,,,,,,,,,,
83643,1622990933058,1,1,33,34,32,70,-26,-0.37,0.19,0.06,0,11,5,0.41,0,80,4434,10,28,55,0.877,0.0,449,4.9,13.1,0.0,1,24.9,1.4,5.5,0,0,0,1,0,0,250,250,0,45.700283,4.90968,0.0,197.7,8,2,1.5,0,0.0,-1,0.0,0.0,0.0,0,0.01,1.394
83663,1622990933078,,,,,,,,-0.41,0.18,-0.08,0,12,5,0.44,,80,4449,10,28,56,0.889,0.0,469,4.93,13.1,0.0,1,25.4,2.55,5.5,0,0,0,1,0,0,250,250,0,,,,,,,,,,,,,,,,
83683,1622990933107,,,,,,,,-0.43,0.16,-0.24,0,13,5,0.46,,80,4414,10,28,57,0.903,0.0,447,4.9,13.2,0.0,1,25.2,2.54,5.2,0,0,0,1,0,0,250,250,0,,,,,,,,,,,,,,,,
83703,1622990933127,,,,,,,,-0.43,0.16,-0.38,0,14,6,0.46,,80,4462,10,28,57,0.91,0.0,457,4.94,13.1,0.0,1,25.8,1.44,5.2,0,0,0,1,0,0,250,250,0,,,,,,,,,,,,,,,,
83723,1622990933147,,,,,,,,-0.43,0.15,-0.52,0,15,7,0.46,,80,4443,10,28,58,0.921,0.0,450,4.91,13.1,0.0,1,25.8,2.57,5.2,0,0,0,1,0,0,250,250,0,,,,,,,,,,,,,,,,
83743,1622990933167,1,2,33,33,33,70,-27,-0.42,0.14,-0.64,0,15,8,0.44,0,80,4472,10,28,58,0.928,0.0,449,4.91,13.2,0.0,1,26.2,1.46,5.2,0,0,0,1,0,0,250,250,0,45.700283,4.90968,0.0,197.7,8,2,1.5,0,0.0,-1,0.0,,0.0,0,0.01,1.3957
83763,1622990933187,,,,,,,,-0.41,0.11,-0.75,0,15,9,0.42,,80,4508,10,28,59,0.936,0.0,460,4.93,13.2,0.0,1,26.9,2.62,5.2,0,0,0,1,0,0,250,250,0,,,,,,,,,,,,,,,,
83783,1622990933207,,,,,,,,-0.39,0.1,-0.86,0,14,9,0.4,,80,4481,10,28,59,0.935,0.0,444,4.92,13.2,0.0,1,26.6,1.47,5.2,0,0,0,1,0,0,250,250,0,,,,,,,,,,,,,,,,
83803,1622990933227,,,,,,,,-0.4,0.1,-0.95,0,15,10,0.41,,80,4575,10,28,59,0.931,0.0,457,4.92,13.1,0.0,1,27.8,2.66,5.3,0,0,0,1,0,0,250,250,0,,,,,,,,,,,,,,,,
83823,1622990933247,,,,,,,,-0.42,0.1,-1.04,0,16,10,0.43,,80,4567,10,28,59,0.928,0.0,458,4.9,13.1,0.0,1,27.7,2.64,5.3,0,0,0,1,0,0,250,250,0,,,,,,,,,,,,,,,,
83843,1622990933267,1,1,33,33,33,69,-27,-0.46,0.09,-1.09,0,17,11,0.47,0,80,4610,10,28,60,0.925,0.0,458,4.92,13.1,0.0,1,28.5,1.54,5.3,0,0,0,1,0,0,250,250,0,45.700283,4.90968,0.0,197.7,8,2,1.5,0,0.0,-1,0.0,0.0,0.0,0,0.01,1.3974
83863,1622990933287,,,,,,,,-0.51,0.1,-0.85,0,17,10,0.52,,80,4656,10,28,60,0.909,0.0,462,4.86,13.3,0.0,1,29.1,2.69,5.3,0,0,0,1,0,0,250,250,0,,,,,,,,,,,,,,,,
83883,1622990933307,,,,,,,,-0.54,0.12,-0.61,0,17,8,0.56,,80,4643,10,28,60,0.898,0.0,458,4.87,13.3,0.0,1,29.0,2.68,5.3,0,0,0,1,0,0,250,250,0,,,,,,,,,,,,,,,,
83903,1622990933327,,,,,,,,-0.49,0.11,-0.4,0,14,6,0.5,,80,4726,10,28,60,0.879,0.0,473,4.88,13.4,0.0,1,30.1,2.73,5.7,0,0,0,1,0,0,250,250,0,,,,,,,,,,,,,,,,
83923,1622990933347,,,,,,,,-0.37,0.11,-0.41,0,10,4,0.39,,80,4745,10,28,60,0.864,0.0,491,4.89,13.3,0.0,1,30.3,2.74,5.7,0,0,0,1,0,0,250,250,0,,,,,,,,,,,,,,,,
83943,1622990933367,-0,2,33,33,33,70,-27,-0.27,0.09,-0.54,-0,9,4,0.28,0,80,4726,10,28,61,0.855,0.0,478,4.89,13.2,0.0,1,30.4,1.59,5.7,0,0,0,1,0,0,250,250,0,45.700283,4.90968,0.0,197.7,8,2,1.5,0,0.0,-1,0.0,,0.0,0,0.01,1.399
83963,1622990933387,,,,,,,,-0.26,0.06,-0.66,0,9,6,0.27,,80,4861,10,28,60,0.84,0.0,497,4.9,13.1,0.0,1,31.8,2.78,5.7,0,0,0,1,0,0,250,250,0,,,,,,,,,,,,,,,,
83983,1622990933407,,,,,,,,-0.31,0.08,-0.49,0,10,6,0.32,,80,4795,10,28,61,0.831,0.0,490,4.86,13.2,0.0,1,31.3,1.62,5.7,0,0,0,1,0,0,250,250,0,,,,,,,,,,,,,,,,
84003,1622990933427,,,,,,,,-0.31,0.08,-0.28,0,8,3,0.32,,80,4783,10,28,61,0.819,0.0,480,4.87,13.3,0.0,1,31.1,2.74,6.1,0,0,0,1,0,0,250,250,0,,,,,,,,,,,,,,,,
84023,1622990933447,,,,,,,,-0.23,0.05,-0.15,-0,5,2,0.24,,80,4749,10,28,61,0.812,0.0,481,4.88,13.4,0.0,1,30.7,1.6,6.1,0,0,0,1,0,0,250,250,0,,,,,,,,,,,,,,,,
84043,1622990933467,1,0,33,33,32,70,-27,-0.14,0.04,-0.3,-0,5,2,0.14,0,80,4775,10,28,62,0.809,0.0,475,4.89,13.3,0.0,1,31.3,2.79,6.1,0,0,0,1,0,0,250,250,0,45.700283,4.90968,0.0,197.7,8,2,1.5,0,0.0,-1,0.0,0.0,0.0,0,0.01,1.4007
84063,1622990933487,,,,,,,,-0.12,0.03,-0.45,-0,5,4,0.13,,80,4780,10,28,61,0.806,0.0,498,4.89,13.1,0.0,1,31.1,1.61,6.1,0,0,0,1,0,0,250,250,0,,,,,,,,,,,,,,,,
84083,1622990933507,,,,,,,,-0.18,0.03,-0.44,-0,7,4,0.18,,80,4832,10,28,61,0.803,0.0,493,4.89,13.3,0.0,1,31.7,2.76,6.1,0,0,0,1,0,0,250,250,0,,,,,,,,,,,,,,,,
84103,1622990933527,,,,,,,,-0.18,0.04,-0.23,-0,4,2,0.18,,80,4860,10,28,62,0.802,0.0,489,4.86,13.4,0.0,1,32.4,2.82,6.1,0,0,0,1,0,0,250,250,0,,,,,,,,,,,,,,,,
84123,1622990933547,,,,,,,,-0.11,0.02,-0.35,-0,2,1,0.11,,80,4886,10,28,62,0.804,0.0,501,4.9,13.3,0.0,1,32.8,2.83,6.1,0,0,0,1,0,0,250,250,0,,,,,,,,,,,,,,,,
84143,1622990933567,1,2,33,33,33,70,-27,-0.08,0.0,-0.49,-0,4,3,0.08,0,80,4853,10,28,62,0.805,0.0,492,4.89,13.1,0.0,1,32.3,1.69,6.1,0,0,0,1,0,0,250,250,0,45.700283,4.90968,0.0,197.7,8,2,1.5,0,0.0,-1,0.0,,0.0,0,0.01,1.4024
84163,1622990933587,,,,,,,,-0.13,-0.01,-0.42,-0,5,3,0.13,,80,4925,10,28,62,0.806,0.0,506,4.89,13.1,0.0,1,33.3,2.85,6.1,0,0,0,1,0,0,250,250,0,,,,,,,,,,,,,,,,
84183,1622990933607,,,,,,,,-0.11,0.03,-0.22,-0,2,1,0.12,,80,4951,10,28,63,0.808,0.0,507,4.88,13.4,0.0,1,33.9,2.91,6.6,0,0,0,1,0,0,250,250,0,,,,,,,,,,,,,,,,
84203,1622990933627,,,,,,,,-0.05,0.03,-0.36,-0,2,2,0.06,,80,4973,10,28,63,0.809,0.0,506,4.87,13.2,0.0,1,34.2,1.79,6.6,0,0,0,1,0,0,250,250,0,,,,,,,,,,,,,,,,
84223,1622990933647,,,,,,,,-0.09,-0.0,-0.5,-0,4,3,0.09,,81,4973,10,28,63,0.81,0.0,514,4.89,13.1,0.0,1,34.2,1.79,6.6,0,0,0,1,0,0,250,250,0,,,,,,,,,,,,,,,,
84243,1622990933667,1,2,33,33,33,70,-28,-0.08,0.05,-0.29,-0,1,0,0.1,0,80,5030,10,28,63,0.811,0.0,521,4.85,13.3,0.0,1,34.6,2.92,6.6,0,0,0,1,0,0,250,250,0,45.700283,4.90968,0.0,197.7,8,2,1.5,0,0.0,-1,0.0,0.0,0.0,0,0.01,1.404
84263,1622990933687,,,,,,,,-0.04,0.02,-0.43,-0,2,2,0.04,,80,5055,10,28,63,0.812,0.0,519,4.91,13.2,0.0,1,34.6,2.91,6.6,0,0,0,1,0,0,250,250,0,,,,,,,,,,,,,,,,
84283,1622990933707,,,,,,,,-0.08,-0.0,-0.23,-0,2,2,0.08,,80,5104,10,28,63,0.811,0.0,528,4.87,13.2,0.0,1,34.6,1.76,6.6,0,0,0,1,0,0,250,250,0,,,,,,,,,,,,,,,,
84303,1622990933727,,,,,,,,-0.06,-0.01,-0.38,-0,1,1,0.06,,80,5188,10,28,63,0.811,0.0,539,4.89,13.4,0.0,1,34.6,2.85,6.8,0,0,0,1,0,0,250,250,0,,,,,,,,,,,,,,,,
84323,1622990933747,,,,,,,,-0.06,-0.03,-0.18,-0,3,2,0.07,,80,5277,10,28,63,0.811,0.0,537,4.88,13.1,0.0,1,34.6,1.69,6.8,0,0,0,1,0,0,250,250,0,,,,,,,,,,,,,,,,
84343,1622990933767,1,1,33,33,33,70,-28,-0.09,-0.03,-0.33,-0,3,2,0.09,0,80,5319,10,28,63,0.81,0.0,545,4.92,13.3,0.0,1,34.5,2.81,6.8,0,0,0,1,0,0,250,250,0,45.700283,4.90968,0.0,197.7,8,2,1.5,0,0.0,-1,0.0,,0.0,0,0.01,1.4057
84363,1622990933787,,,,,,,,-0.01,-0.04,-0.14,-0,-1,-0,0.04,,80,5367,10,28,62,0.811,0.0,560,4.86,13.2,0.0,1,34.2,2.78,6.8,0,0,0,1,0,0,250,250,0,,,,,,,,,,,,,,,,
84383,1622990933808,,,,,,,,-0.08,0.0,-0.29,0,4,4,0.08,,80,5408,10,28,63,0.812,0.0,564,4.89,13.2,0.0,1,34.5,2.76,6.9,0,0,0,1,0,0,250,250,0,,,,,,,,,,,,,,,,
84403,1622990933828,,,,,,,,-0.03,0.03,-0.31,0,-3,-2,0.04,,80,5430,10,29,63,0.812,0.0,557,4.88,13.4,0.0,1,34.5,2.66,6.9,0,0,0,1,0,0,250,250,0,,,,,,,,,,,,,,,,
84423,1622990933848,,,,,,,,-0.01,0.0,-0.12,0,2,2,0.01,,80,5444,10,29,62,0.813,0.0,573,4.88,13.1,0.0,1,34.2,2.65,6.9,0,0,0,1,0,0,250,250,0,,,,,,,,,,,,,,,,
84443,1622990933868,-1,2,33,33,33,70,-27,-0.1,0.03,-0.27,0,3,3,0.11,0,80,5487,10,29,62,0.812,0.0,574,4.9,13.2,0.0,1,34.2,2.63,6.9,0,0,0,1,0,0,250,250,0,45.700283,4.90968,0.0,197.7,8,2,1.5,0,0.0,-1,0.0,0.0,0.0,0,0.01,1.4074
84463,1622990933888,,,,,,,,-0.01,0.02,-0.09,-0,-3,-2,0.03,,80,5498,10,28,62,0.812,0.0,558,4.87,13.4,0.0,1,34.2,2.63,6.9,0,0,0,1,0,0,250,250,0,,,,,,,,,,,,,,,,
84483,1622990933906,,,,,,,,0.03,0.01,0.09,0,0,1,0.03,,80,5588,10,29,62,0.812,0.0,579,4.91,13.1,0.0,1,34.2,2.58,6.6,0,0,0,1,0,0,250,250,0,,,,,,,,,,,,,,,,
84503,1622990933926,,,,,,,,-0.05,0.04,-0.09,0,3,4,0.07,,81,5640,10,29,62,0.81,0.0,598,4.88,13.1,0.0,1,34.2,2.54,6.6,0,0,0,1,0,0,250,250,0,,,,,,,,,,,,,,,,
84523,1622990933946,,,,,,,,-0.08,0.05,-0.24,-0,0,1,0.09,,80,5654,10,29,61,0.809,0.0,587,4.89,13.3,0.0,1,34.0,2.42,6.6,0,0,0,1,0,0,250,250,0,,,,,,,,,,,,,,,,
84543,1622990933966,1,2,33,33,33,70,-27,-0.03,0.03,-0.06,-0,-4,-3,0.04,0,80,5749,10,29,61,0.808,0.0,586,4.88,13.4,0.0,1,34.0,1.23,6.6,0,0,0,1,0,0,250,250,0,45.700283,4.90968,0.0,197.7,8,2,1.5,0,0.0,-1,0.0,,0.0,0,0.01,1.409
84563,1622990933986,,,,,,,,0.05,0.01,0.11,-0,-6,-4,0.05,,80,5772,10,29,60,0.807,0.0,602,4.87,13.3,0.0,1,33.7,2.35,6.6,0,0,0,1,0,0,250,250,0,,,,,,,,,,,,,,,,
84583,1622990933996,,,,,,,,0.11,-0.01,0.27,-0,-5,-3,0.11,,81,5828,10,29,60,0.806,0.0,610,4.87,13.1,0.0,1,33.7,1.19,6.6,0,0,0,1,0,0,250,250,0,,,,,,,,,,,,,,,,
84603,1622990934016,,,,,,,,0.14,-0.04,0.42,0,-3,-1,0.14,,80,5870,10,29,59,0.804,0.0,618,4.87,13.2,0.0,1,33.5,2.29,6.2,0,0,0,1,0,0,250,250,0,,,,,,,,,,,,,,,,
84623,1622990934036,,,,,,,,0.12,-0.07,0.45,0,1,1,0.14,,81,5894,10,29,59,0.802,0.0,612,4.88,13.2,0.0,1,33.5,2.28,6.2,0,0,0,1,0,0,250,250,0,,,,,,,,,,,,,,,,
84643,1622990934056,1,0,33,33,33,70,-26,0.09,-0.07,0.42,0,4,4,0.12,0,80,5971,10,29,59,0.799,0.0,613,4.9,13.2,0.0,1,33.5,1.1,6.2,0,0,0,1,0,0,250,250,0,45.700283,4.90968,0.0,197.7,8,2,1.5,0,0.0,-1,0.0,0.0,0.0,0,0.01,1.4107
84663,1622990934076,,,,,,,,0.07,-0.08,0.42,1,7,7,0.1,,81,6023,10,29,58,0.796,0.0,626,4.89,13.2,0.0,1,33.4,2.22,6.2,0,0,0,1,0,0,250,250,0,,,,,,,,,,,,,,,,
84683,1622990934106,,,,,,,,0.06,-0.09,0.52,1,9,9,0.11,,81,6081,10,29,57,0.794,0.0,630,4.88,13.2,0.0,1,33.4,2.23,6.2,0,0,0,1,0,0,250,250,0,,,,,,,,,,,,,,,,
84703,1622990934126,,,,,,,,0.09,-0.13,0.65,1,10,10,0.16,,81,6147,10,29,57,0.794,0.0,637,4.86,13.3,0.0,1,33.7,2.25,6.2,0,0,0,1,0,0,5414,250,0,,,,,,,,,,,,,,,,
84723,1622990934146,,,,,,,,0.14,-0.2,0.76,1,7,8,0.24,,81,6194,10,29,56,0.793,1.8,637,4.88,13.2,0.0,1,33.6,2.25,6.2,0,0,0,1,0,0,5414,250,0,,,,,,,,,,,,,,,,
84743,1622990934166,1,2,33,33,33,70,-28,0.18,-0.25,0.86,1,4,5,0.31,0,80,6147,10,29,55,0.793,1.8,623,4.85,13.4,0.0,1,33.2,2.25,6.2,0,0,0,1,0,0,5414,250,0,45.700283,4.90968,0.0,197.7,8,2,1.5,0,0.0,-1,0.0,,0.0,0,0.01,1.4124
84763,1622990934186,,,,,,,,0.17,-0.26,0.74,0,0,2,0.31,,80,6202,10,29,54,0.796,1.8,631,4.86,13.3,0.0,1,33.2,2.25,6.2,0,0,0,1,0,0,5414,250,0,,,,,,,,,,,,,,,,
84783,1622990934206,,,,,,,,0.13,-0.21,0.51,0,-0,1,0.25,,80,6237,10,29,53,0.799,3.3,633,4.91,13.3,0.0,1,33.0,1.13,6.2,0,0,0,1,0,0,-1,250,0,,,,,,,,,,,,,,,,
84803,1622990934226,,,,,,,,0.08,-0.1,0.3,0,1,1,0.13,,80,6155,10,29,53,0.801,3.3,650,4.89,13.2,0.0,1,32.7,2.26,6.5,0,0,0,1,0,0,250,250,0,,,,,,,,,,,,,,,,
84823,1622990934246,,,,,,,,0.05,-0.02,0.11,0,3,4,0.05,,81,6200,10,29,52,0.802,7.6,652,4.89,13.1,0.0,1,32.7,2.27,6.5,0,0,0,1,0,0,250,250,0,,,,,,,,,,,,,,,,
84843,1622990934266,0,2,33,33,33,69,-27,0.05,-0.04,0.11,1,5,6,0.06,0,81,6200,10,29,51,0.802,7.6,645,4.86,13.1,0.0,1,32.5,2.27,6.5,0,0,0,1,0,0,250,250,0,45.700283,4.90968,0.0,197.7,8,2,1.5,0,0.0,-1,0.0,0.0,0.0,0,0.01,1.414
84863,1622990934286,,,,,,,,0.08,-0.09,0.27,1,4,6,0.12,,80,6216,10,28,51,0.803,7.6,643,4.9,13.3,0.0,1,32.5,2.28,6.5,0,0,0,1,0,0,250,250,0,,,,,,,,,,,,,,,,
84883,1622990934308,,,,,,,,0.12,-0.16,0.42,1,1,4,0.2,,80,6155,10,29,50,0.804,7.6,650,4.89,13.2,0.0,1,32.1,2.29,6.5,0,0,0,1,0,0,250,250,0,,,,,,,,,,,,,,,,
84903,1622990934328,,,,,,,,0.13,-0.2,0.55,0,-1,1,0.24,,80,6200,10,28,50,0.807,2.9,647,4.87,13.3,0.0,1,32.2,2.29,6.5,0,0,0,1,0,0,-1,250,0,,,,,,,,,,,,,,,,
84923,1622990934348,,,,,,,,0.11,-0.18,0.34,0,-3,-2,0.21,,80,6169,10,28,50,0.807,7.9,638,4.89,13.3,0.0,1,32.1,2.29,6.5,0,0,0,1,0,0,-1481,250,0,,,,,,,,,,,,,,,,
84943,1622990934368,-0,2,33,33,33,70,-26,0.05,-0.12,0.14,-0,-2,-2,0.13,0,80,6181,10,28,49,0.806,7.9,627,4.86,13.3,0.0,1,31.9,2.3,6.5,0,0,0,1,0,0,-1481,250,0,45.700283,4.90968,0.0,197.7,8,2,1.5,0,0.0,-1,0.0,,0.0,0,0.01,1.4157
