"Interval"|"ms"|0|0|1,"Utc"|"ms"|0|0|1,"Brake_F"|"Bar"|0|2000|10,"Brake_R"|"Bar"|0|2000|10,"Height_RF"|"mm"|0|255|10,"Height_LF"|"mm"|0|255|10,"Height_LR"|"mm"|0|80|10,"Height_RR"|"mm"|0|255|10,"Steering"|"deg"|-100|100|10,"AccelX"|"G"|-3.0|3.0|50,"AccelY"|"G"|-3.0|3.0|50,"AccelZ"|"G"|-3.0|3.0|50,"Yaw"|"Deg/Sec"|-120|120|50,"Pitch"|"Deg/Sec"|-120|120|50,"Roll"|"Deg/Sec"|-120|120|50,"Gsum"|"G"|0.0|3.0|50,"Log_Button"|""|0.0|10.0|10,"WaterTemp"|"C"|0|150|50,"RPM"|"tr/min"|0|14000|50,"TPS"|"%"|0|100|50,"AirTemp"|"C"|0|150|50,"MAP"|"KPa"|0|100|50,"Lambda"|""|0.5|1.5|50,"SpeedDTA"|"kph"|0.0|250.0|50,"OilPress"|"KPa"|0|1500|50,"FuelPressur"|"Bar"|0.0|10.0|50,"Batterie"|"V"|0.0|20.0|50,"ConsoKm"|"L/100km"|0.0|200.0|50,"Gear"|""|0|6|50,"AdvIgnition"|"Deg"|-20.0|70.0|50,"Injection"|"ms"|0.0|10.0|50,"ConsoHr"|"L/Hr"|0.0|10000.0|50,"LC_But_Pres"|""|0|1|50,"LC_Active"|""|0|1|50,"TractionOn"|""|0|1|50,"TractionWet"|""|0|1|50,"FanOn"|""|0|1|50,"RD_Speed"|"km/h"|-30|250|50,"RUD_Speed"|"km/h"|-30|250|50,"LD_Speed"|"km/h"|-30|250|50,"LUD_Speed"|"km/h"|-30|250|50,"Latitude"|"Degrees"|-180.0|180.0|10,"Longitude"|"Degrees"|-180.0|180.0|10,"Speed"|"kph"|0.0|150.0|10,"Altitude"|"m"|0.0|4000.0|10,"GPSSats"|""|0|20|10,"GPSQual"|""|0|5|10,"GPSDOP"|""|0.0|20.0|10,"LapCount"|""|0|0|10,"LapTime"|"Min"|0.0|0.0|10,"Sector"|""|0|0|10,"SectorTime"|"Min"|0.0|0.0|10,"PredTime"|"Min"|0.0|0.0|5,"ElapsedTime"|"Min"|0.0|0.0|10,"CurrentLap"|""|0|0|10,"Distance"|"km"|0.0|0.0|10,"SessionTime"|"Min"|0.0|0.0|10
285063,1622987151216,,,,,,,,-0.09,-0.75,-0.73,-35,6,-3,0.75,,86,6825,8,25,28,0.869,52.5,575,4.93,13.2,12.6,1,27.3,2.05,6.8,0,0,1,1,0,323,32033,1248,524,,,,,,,,,,,,,,,,
285083,1622987151236,,,,,,,,-0.09,-0.84,-0.5,-38,3,-5,0.84,,86,6742,13,25,30,0.883,52.1,568,4.97,13.2,12.0,1,28.0,2.01,6.3,0,0,1,1,0,313,10305,-32248,521,,,,,,,,,,,,,,,,
285103,1622987151256,,,,,,,,-0.11,-0.82,-0.63,-40,5,-1,0.83,,86,6653,19,25,34,0.897,52.5,492,4.89,13.2,12.0,1,29.2,2.06,6.3,0,0,1,1,0,310,16648,6274,525,,,,,,,,,,,,,,,,
285123,1622987151276,,,,,,,,-0.08,-0.9,-0.41,-42,3,-4,0.9,,85,6658,21,25,40,0.919,52.6,366,4.93,13.2,12.0,1,30.7,2.55,6.3,0,0,1,1,0,303,-17956,-9212,523,,,,,,,,,,,,,,,,
285143,1622987151296,1,2,42,18,31,43,-41,-0.16,-0.85,-0.54,-44,4,-2,0.86,0,85,6701,23,25,46,0.94,51.5,311,4.88,13.1,12.0,1,32.4,2.51,6.3,0,0,1,1,0,304,-23367,10408,515,45.700008,4.910049,51.96,191.4,7,3,2.4,0,0.0,-1,0.0,,0.0,0,2.88,4.7524
285163,1622987151316,,,,,,,,-0.15,-0.92,-0.33,-45,3,-2,0.93,,85,6761,23,24,52,0.962,52.0,288,5.02,13.2,12.0,1,34.4,2.51,6.3,0,0,1,1,0,303,8488,1248,520,,,,,,,,,,,,,,,,
285183,1622987151336,,,,,,,,-0.16,-0.86,-0.47,-46,4,1,0.87,,85,6929,23,24,57,0.984,51.6,325,4.91,13.2,15.2,1,36.6,2.56,8.0,0,0,1,1,0,305,-16384,2524,520,,,,,,,,,,,,,,,,
285203,1622987151356,,,,,,,,-0.18,-0.93,-0.6,-47,4,1,0.95,,85,7043,23,24,61,0.997,51.7,332,4.95,13.2,15.2,1,38.3,2.73,8.0,0,0,1,1,0,308,8488,-14,515,,,,,,,,,,,,,,,,
285223,1622987151376,,,,,,,,-0.22,-1.02,-0.38,-48,2,-2,1.04,,85,7156,24,24,64,1.009,51.0,306,4.93,13.2,15.2,1,39.2,3.2,8.0,0,0,1,1,0,311,-16384,15679,510,,,,,,,,,,,,,,,,
285243,1622987151396,-1,2,40,20,28,42,-23,-0.19,-1.08,-0.42,-49,2,-2,1.09,0,85,7148,25,24,67,1.022,51.4,289,4.88,13.2,15.2,1,40.1,3.63,8.0,0,0,1,1,0,350,8488,17136,514,45.700001,4.910064,49.94,191.3,7,3,2.4,0,0.0,-1,0.0,0.0,0.0,0,2.88,4.7541
285263,1622987151416,,,,,,,,-0.15,-1.01,-0.56,-49,3,-1,1.02,,85,7170,27,24,71,1.031,50.9,300,4.88,13.2,15.2,1,41.0,3.89,8.0,0,0,1,1,0,362,30272,-3856,509,,,,,,,,,,,,,,,,
285283,1622987151436,,,,,,,,-0.15,-0.95,-0.68,-49,3,1,0.96,,85,7292,29,24,75,1.018,51.0,293,4.9,13.1,26.6,1,41.6,4.12,13.6,0,0,1,1,0,371,-3210,17136,510,,,,,,,,,,,,,,,,
285303,1622987151456,,,,,,,,-0.16,-0.93,-0.77,-48,3,1,0.95,,85,7307,30,24,79,1.004,50.8,290,4.94,13.1,26.6,1,42.1,4.2,13.6,0,0,1,1,0,400,-16384,6274,507,,,,,,,,,,,,,,,,
285323,1622987151476,,,,,,,,-0.21,-0.92,-0.73,-47,3,2,0.95,,85,7402,30,24,81,0.991,50.2,323,4.91,13.0,26.6,1,41.5,4.29,13.6,0,0,1,1,0,426,32033,-21872,502,,,,,,,,,,,,,,,,
285343,1622987151496,0,2,39,28,30,42,-1,-0.24,-0.96,-0.83,-45,3,2,0.99,0,85,7479,30,24,83,0.977,50.2,315,4.92,13.1,26.6,1,40.7,4.4,13.6,0,0,1,1,0,456,10305,15661,502,45.699989,4.910077,49.89,191.4,7,3,2.4,0,0.0,-1,0.0,,0.0,0,2.88,4.7557
285363,1622987151516,,,,,,,,-0.26,-0.94,-0.93,-43,4,3,0.97,,85,7557,30,24,84,0.985,49.2,311,4.9,13.0,26.6,1,40.3,4.53,13.6,0,0,1,1,0,482,-17956,11560,492,,,,,,,,,,,,,,,,
285383,1622987151536,,,,,,,,-0.22,-0.82,-1.02,-39,4,5,0.85,,85,7828,30,24,84,0.99,49.3,332,4.9,13.0,33.8,1,37.3,4.76,16.7,0,0,1,1,0,485,-10483,-32768,493,,,,,,,,,,,,,,,,
285403,1622987151556,,,,,,,,-0.17,-0.77,-1.06,-36,4,5,0.79,,85,8085,30,25,84,0.997,48.6,364,4.83,13.2,33.8,1,36.6,4.97,16.7,0,0,1,1,0,490,505,-1818,486,,,,,,,,,,,,,,,,
285423,1622987151576,,,,,,,,-0.1,-0.65,-1.14,-32,4,7,0.66,,85,8303,31,25,83,1.003,48.6,414,4.95,13.1,33.8,1,40.8,5.06,16.7,0,0,1,1,0,500,8488,-32768,486,,,,,,,,,,,,,,,,
285443,1622987151596,0,2,37,34,30,32,13,-0.05,-0.6,-1.08,-29,2,5,0.6,0,85,8577,33,25,81,1.015,49.4,476,5.03,13.1,33.8,1,42.3,4.99,16.7,0,0,1,1,0,506,998,-28648,488,45.699978,4.910088,50.51,191.5,7,3,2.4,0,0.0,-1,0.0,0.0,0.0,0,2.88,4.7574
285463,1622987151616,,,,,,,,0.01,-0.51,-0.91,-25,1,6,0.51,,85,8600,34,25,80,1.027,50.3,522,4.9,13.1,33.8,1,42.2,4.87,16.7,0,0,1,1,0,516,10994,-22519,491,,,,,,,,,,,,,,,,
285483,1622987151636,,,,,,,,0.08,-0.3,-0.85,-21,1,8,0.31,,84,8569,35,25,80,1.038,51.1,572,4.82,13.0,40.7,1,42.4,4.87,19.8,0,0,1,1,0,518,-3856,-8187,488,,,,,,,,,,,,,,,,
285503,1622987151656,,,,,,,,0.11,-0.26,-0.94,-18,2,8,0.28,,84,8491,34,25,80,1.05,51.0,590,4.81,13.1,40.7,1,42.5,4.85,19.8,0,0,1,1,0,523,-4054,6274,493,,,,,,,,,,,,,,,,
285523,1622987151676,,,,,,,,0.16,-0.15,-0.9,-15,0,6,0.22,,84,8408,33,25,80,1.058,51.1,613,4.82,13.1,40.7,1,41.7,4.92,19.8,0,0,1,1,0,526,-3856,-9072,498,,,,,,,,,,,,,,,,
285543,1622987151694,0,3,37,45,30,23,24,0.19,0.0,-0.99,-12,1,6,0.19,0,84,8329,33,25,81,1.069,52.2,624,4.81,13.0,40.7,1,40.6,4.76,19.8,0,0,1,1,0,531,-9212,-28648,504,45.69997,4.910099,50.83,191.5,7,3,2.4,0,0.0,-1,0.0,,0.0,0,2.88,4.759
285563,1622987151714,,,,,,,,0.14,0.05,-0.79,-9,0,4,0.15,,84,8411,33,25,80,1.08,52.7,629,4.88,13.1,40.7,1,41.7,4.92,19.8,0,0,1,1,0,536,6274,-30064,502,,,,,,,,,,,,,,,,
285583,1622987151734,,,,,,,,0.22,0.21,-0.72,-5,-1,6,0.31,,84,8577,33,25,80,1.09,53.0,633,4.83,13.1,38.0,1,42.3,4.86,19.1,0,0,1,1,0,542,2524,-3082,497,,,,,,,,,,,,,,,,
285603,1622987151754,,,,,,,,0.26,0.26,-0.76,-2,-1,7,0.37,,84,8757,33,25,79,1.091,53.4,632,4.78,13.0,38.0,1,41.5,4.75,19.1,0,0,1,1,0,547,-32248,-28648,508,,,,,,,,,,,,,,,,
285623,1622987151774,,,,,,,,0.33,0.28,-0.86,2,-1,7,0.43,,84,8856,33,25,78,1.08,54.0,638,5.01,13.1,38.0,1,41.3,4.63,19.1,0,0,1,1,0,552,-8186,30208,514,,,,,,,,,,,,,,,,
285643,1622987151796,1,1,37,44,33,21,28,0.37,0.4,-0.96,4,-0,9,0.54,0,84,8967,33,25,78,1.068,52.7,642,4.95,13.1,38.0,1,40.8,4.64,19.1,0,0,1,1,0,552,-506,-22263,513,45.699959,4.91011,52.49,191.5,7,3,2.4,0,0.0,-1,0.0,0.0,0.0,0,2.89,4.7607
285663,1622987151816,,,,,,,,0.41,0.41,-1.05,7,-0,10,0.58,,84,8967,33,25,78,1.057,53.8,645,4.9,13.1,38.0,1,40.8,4.64,19.1,0,0,1,1,0,556,-2934,2216,518,,,,,,,,,,,,,,,,
285683,1622987151836,,,,,,,,0.45,0.51,-1.12,10,1,11,0.68,,84,8886,31,25,77,1.042,54.7,647,4.96,13.1,36.9,1,41.4,4.51,19.1,0,0,1,1,0,562,-32248,1760,517,,,,,,,,,,,,,,,,
285703,1622987151856,,,,,,,,0.44,0.47,-1.2,12,2,11,0.64,,84,8882,28,25,76,1.023,55.4,648,4.9,13.1,36.9,1,41.7,4.38,19.1,0,0,1,1,0,566,2524,2216,526,,,,,,,,,,,,,,,,
285723,1622987151876,,,,,,,,0.41,0.51,-1.26,14,3,10,0.65,,84,8898,27,25,74,1.006,55.7,642,5.01,13.1,36.9,1,41.7,4.21,19.1,0,0,1,1,0,567,-22359,2211,520,,,,,,,,,,,,,,,,
285743,1622987151897,-1,2,37,45,35,21,30,0.39,0.47,-1.33,16,3,9,0.61,0,84,8937,26,25,72,0.988,54.8,643,4.91,13.1,36.9,1,41.6,4.05,19.1,0,0,1,1,0,573,6273,2048,525,45.699947,4.910121,53.93,191.5,7,3,2.4,0,0.0,-1,0.0,,0.0,0,2.89,4.7624
285763,1622987151917,,,,,,,,0.38,0.53,-1.38,18,4,9,0.65,,84,9079,25,25,70,0.981,55.6,649,4.96,13.1,36.9,1,41.3,3.9,19.1,0,0,1,1,0,572,-22359,-22263,525,,,,,,,,,,,,,,,,
285783,1622987151937,,,,,,,,0.37,0.52,-1.43,20,4,8,0.64,,84,9159,23,25,67,0.993,56.3,653,4.9,13.1,30.1,1,41.1,3.73,15.8,0,0,1,1,0,575,-30159,259,531,,,,,,,,,,,,,,,,
285803,1622987151957,,,,,,,,0.41,0.65,-1.48,23,4,8,0.77,,84,9222,22,25,65,1.005,56.5,647,4.96,13.1,30.1,1,40.9,3.65,15.8,0,0,1,1,0,580,-30159,3472,525,,,,,,,,,,,,,,,,
285823,1622987151977,,,,,,,,0.44,0.76,-1.42,25,4,9,0.88,,84,9286,22,25,63,1.017,57.3,651,4.87,13.0,30.1,1,40.8,3.57,15.8,0,0,1,1,0,581,1760,23619,532,,,,,,,,,,,,,,,,
285843,1622987151997,1,2,32,45,38,22,31,0.38,0.87,-1.13,28,2,8,0.95,0,84,9337,22,25,62,1.025,56.2,652,4.86,13.0,30.1,1,40.9,3.49,15.8,0,0,1,1,0,582,774,-28304,534,45.699947,4.910121,53.93,191.5,7,3,2.4,0,0.0,-1,0.0,0.0,0.0,0,2.89,4.764
285863,1622987152001,,,,,,,,0.3,0.87,-0.98,30,2,7,0.92,,84,9431,22,25,61,1.029,57.1,658,4.84,13.0,30.1,1,41.1,3.45,15.8,0,0,1,1,0,587,1267,1010,536,,,,,,,,,,,,,,,,
285883,1622987152021,,,,,,,,0.31,0.97,-1.07,31,1,6,1.02,,84,9551,22,25,60,1.032,58.0,657,4.9,13.1,28.6,1,41.2,3.49,15.4,0,0,1,1,0,585,-16384,-3446,535,,,,,,,,,,,,,,,,
285903,1622987152041,,,,,,,,0.31,1.06,-0.86,33,0,5,1.1,,84,9645,22,25,58,1.036,57.8,661,4.83,13.0,28.6,1,40.7,3.54,15.4,0,0,1,1,0,589,-3210,3403,529,,,,,,,,,,,,,,,,
285923,1622987152061,,,,,,,,0.31,0.95,-0.96,35,2,8,1.0,,84,9684,22,25,57,1.037,58.1,659,4.88,13.1,28.6,1,40.5,3.55,15.4,0,0,1,1,0,599,1760,-23055,538,,,,,,,,,,,,,,,,
285943,1622987152097,0,2,30,45,38,21,26,0.35,1.04,-0.72,36,1,7,1.1,0,83,9674,22,25,57,1.034,58.5,660,4.8,13.0,28.6,1,40.5,3.55,15.4,0,0,1,1,0,595,15649,-30139,537,45.699928,4.91015,57.13,191.5,7,3,2.4,0,0.0,-1,0.0,,0.0,0,2.89,4.7657
285963,1622987152117,,,,,,,,0.27,1.03,-0.76,37,1,4,1.07,,83,9600,22,25,56,1.031,58.4,664,4.88,13.0,28.6,1,40.3,3.54,15.4,0,0,1,1,0,602,-4035,-18357,539,,,,,,,,,,,,,,,,
285983,1622987152137,,,,,,,,0.31,1.12,-0.64,39,1,4,1.16,,83,9537,22,25,55,1.028,57.8,655,4.92,13.0,28.6,1,40.2,3.54,15.6,0,0,1,1,0,606,-3210,19320,538,,,,,,,,,,,,,,,,
286003,1622987152157,,,,,,,,0.25,1.17,-0.52,40,-1,4,1.19,,83,9532,22,25,55,1.024,58.7,660,4.79,13.1,28.6,1,40.2,3.54,15.6,0,0,1,1,0,603,-12040,19621,539,,,,,,,,,,,,,,,,
286023,1622987152177,,,,,,,,0.24,1.07,-0.64,40,1,3,1.1,,83,9546,21,25,55,1.005,58.6,661,4.78,13.1,28.6,1,40.2,3.54,15.6,0,0,1,1,0,606,-1894,6273,545,,,,,,,,,,,,,,,,
286043,1622987152198,-1,2,32,46,38,23,16,0.3,1.15,-0.61,40,1,4,1.19,0,83,9527,21,25,54,0.986,58.9,657,4.77,13.0,28.6,1,40.0,3.55,15.6,0,0,1,1,0,600,-25872,5344,551,45.699917,4.910166,58.46,191.4,7,3,2.4,0,0.0,-1,0.0,0.0,0.0,0,2.89,4.7674
286063,1622987152218,,,,,,,,0.25,1.14,-0.45,40,1,3,1.17,,83,9508,20,25,53,0.967,59.1,660,4.75,13.1,28.6,1,39.7,3.55,15.6,0,0,1,1,0,603,6273,23619,553,,,,,,,,,,,,,,,,
286083,1622987152238,,,,,,,,0.26,0.99,-0.57,40,2,4,1.02,,83,9517,20,25,53,0.947,58.9,658,4.83,13.1,27.9,1,39.7,3.48,15.3,0,0,1,1,0,602,2048,19304,551,,,,,,,,,,,,,,,,
286103,1622987152258,,,,,,,,0.36,1.04,-0.36,40,-0,2,1.1,,83,9566,20,25,52,0.931,58.7,662,4.89,13.0,27.9,1,39.4,3.41,15.3,0,0,1,1,0,599,-12040,28675,553,,,,,,,,,,,,,,,,
286123,1622987152278,,,,,,,,0.28,0.98,-0.5,40,1,1,1.02,,83,9585,20,25,52,0.915,58.7,663,4.87,13.1,27.9,1,39.4,3.41,15.3,0,0,1,1,0,602,-12040,-1894,558,,,,,,,,,,,,,,,,
286143,1622987152297,-1,2,31,45,37,25,7,0.31,1.04,-0.62,39,2,1,1.09,0,83,9556,20,25,51,0.9,59.5,660,4.98,13.1,27.9,1,39.1,3.34,15.3,0,0,1,1,0,600,-16179,28675,563,45.699909,4.910184,59.83,191.5,7,3,2.4,0,0.0,-1,0.0,,0.0,0,2.89,4.7691
286163,1622987152317,,,,,,,,0.29,1.13,-0.4,37,-1,-0,1.16,,83,9532,20,25,51,0.884,59.9,660,4.82,13.0,27.9,1,39.1,3.34,15.3,0,0,1,1,0,598,208,1010,566,,,,,,,,,,,,,,,,
286183,1622987152337,,,,,,,,0.2,1.05,-0.41,36,1,-0,1.07,,83,9527,20,25,51,0.874,58.9,655,4.82,13.0,26.1,1,39.1,3.34,14.7,0,0,1,1,0,606,208,-28304,566,,,,,,,,,,,,,,,,
286203,1622987152357,,,,,,,,0.3,0.97,-0.42,35,-1,-1,1.01,,83,9556,20,25,50,0.866,58.9,666,4.87,13.1,26.1,1,38.8,3.28,14.7,0,0,1,1,0,601,6273,1010,572,,,,,,,,,,,,,,,,
286223,1622987152377,,,,,,,,0.27,0.9,-0.33,33,-1,-1,0.94,,83,9645,20,25,50,0.856,57.7,660,4.86,13.0,26.1,1,38.8,3.29,14.7,0,0,1,1,0,600,30208,-3210,575,,,,,,,,,,,,,,,,
286243,1622987152397,0,2,33,41,35,24,2,0.29,0.83,-0.47,31,1,-0,0.87,0,83,9610,20,25,50,0.848,58.1,660,4.84,13.1,26.1,1,38.8,3.22,14.7,0,0,1,1,0,593,10432,4956,572,45.699902,4.910202,60.57,191.5,7,3,2.4,0,0.0,-1,0.0,0.0,0.0,0,2.89,4.7707
286263,1622987152417,,,,,,,,0.36,0.84,-0.27,29,-0,-1,0.92,,83,9445,20,25,49,0.843,59.0,661,4.83,13.0,26.1,1,38.4,3.19,14.7,0,0,1,1,0,600,-32504,-30139,583,,,,,,,,,,,,,,,,
286283,1622987152437,,,,,,,,0.32,0.8,-0.08,27,-0,-2,0.87,,83,9356,20,25,49,0.839,58.9,659,4.84,13.1,23.3,1,38.3,3.17,13.7,0,0,1,1,0,602,2048,17344,578,,,,,,,,,,,,,,,,
286303,1622987152457,,,,,,,,0.24,0.73,-0.12,25,-0,-4,0.77,,83,9319,20,25,50,0.835,59.1,663,4.88,13.1,23.3,1,38.6,3.22,13.7,0,0,1,1,0,600,208,-13043,583,,,,,,,,,,,,,,,,
286323,1622987152477,,,,,,,,0.24,0.62,-0.27,22,1,-3,0.67,,83,9360,20,25,50,0.832,59.0,657,4.85,13.1,23.3,1,38.6,3.23,13.7,0,0,1,1,0,598,-32504,-16179,590,,,,,,,,,,,,,,,,
286343,1622987152497,-1,2,37,35,29,27,-4,0.3,0.62,-0.18,20,-0,-3,0.69,0,83,9460,20,25,50,0.829,59.3,667,4.94,13.1,23.3,1,38.8,3.26,13.7,0,0,1,1,0,596,-32504,3472,593,45.699894,4.910222,60.81,191.6,7,3,2.4,0,0.0,-1,0.0,,0.0,0,2.9,4.7724
286363,1622987152517,,,,,,,,0.21,0.58,-0.33,18,1,-4,0.61,,83,9595,21,25,50,0.828,59.4,656,4.87,13.1,23.3,1,38.8,3.28,13.7,0,0,1,1,0,598,-1894,30227,598,,,,,,,,,,,,,,,,
286383,1622987152537,,,,,,,,0.25,0.49,-0.47,16,1,-4,0.55,,83,9664,21,25,51,0.826,59.4,662,4.82,13.1,24.9,1,39.1,3.29,14.7,0,0,1,1,0,599,-32504,30227,596,,,,,,,,,,,,,,,,
286403,1622987152557,,,,,,,,0.18,0.43,-0.26,14,-1,-5,0.47,,83,9645,21,25,51,0.824,59.3,665,4.83,13.0,24.9,1,39.1,3.35,14.7,0,0,1,1,0,605,208,17740,603,,,,,,,,,,,,,,,,
286423,1622987152577,,,,,,,,0.22,0.35,-0.41,11,0,-4,0.41,,83,9615,20,25,50,0.823,60.0,660,5.01,13.1,24.9,1,38.8,3.28,14.7,0,0,1,1,0,608,-28648,1010,602,,,,,,,,,,,,,,,,
286443,1622987152597,0,2,40,33,26,30,-20,0.27,0.16,-0.29,8,-2,-4,0.31,0,82,9600,18,25,49,0.823,60.4,667,4.99,13.1,24.9,1,38.5,3.22,14.7,0,0,1,1,0,603,30227,17740,608,45.69989,4.910241,61.21,191.6,7,3,2.4,0,0.0,-1,0.0,0.0,0.0,0,2.9,4.774
286463,1622987152617,,,,,,,,0.21,0.07,-0.44,5,0,-4,0.22,,82,9610,15,25,48,0.822,60.3,659,4.76,13.1,24.9,1,38.2,3.15,14.7,0,0,1,1,0,631,-12040,28675,612,,,,,,,,,,,,,,,,
286483,1622987152637,,,,,,,,0.22,-0.06,-0.57,3,0,-4,0.23,,82,9664,12,25,44,0.822,60.5,658,4.96,13.1,22.0,1,35.7,3.02,13.4,0,0,1,1,0,599,15649,26688,606,,,,,,,,,,,,,,,,
286503,1622987152657,,,,,,,,0.11,-0.04,-0.35,-0,1,-6,0.11,,82,9674,9,25,41,0.822,59.9,670,4.78,13.1,22.0,1,33.5,2.82,13.4,0,0,1,1,0,606,1,17740,604,,,,,,,,,,,,,,,,
286523,1622987152677,,,,,,,,0.09,-0.12,-0.49,-3,1,-5,0.15,,82,9493,7,25,37,0.822,60.8,664,4.86,13.1,22.0,1,31.4,2.68,13.4,0,0,1,1,0,612,1,-3446,597,,,,,,,,,,,,,,,,
286543,1622987152697,8,4,41,31,25,35,-31,0.1,-0.19,-0.56,-6,0,-4,0.21,0,82,9282,5,25,34,0.822,60.5,660,4.91,13.1,22.0,1,30.5,2.55,13.4,0,0,1,1,0,607,-23623,17740,604,45.699879,4.910261,61.68,191.7,7,3,2.4,0,0.0,-1,0.0,,0.0,0,2.9,4.7757
286563,1622987152717,,,,,,,,0.05,-0.34,-0.68,-9,2,-2,0.34,,82,9040,5,25,32,0.821,59.7,656,4.83,13.0,22.0,1,30.0,2.43,13.4,0,0,1,1,0,586,-32504,17740,609,,,,,,,,,,,,,,,,
286583,1622987152737,,,,,,,,0.05,-0.47,-0.69,-12,2,-2,0.48,,82,8794,5,25,30,0.821,60.2,648,4.87,13.1,16.6,1,29.1,2.47,10.1,0,0,1,1,0,575,-18032,19621,603,,,,,,,,,,,,,,,,
286603,1622987152757,,,,,,,,-0.06,-0.6,-0.75,-16,3,-2,0.6,,82,8596,5,25,30,0.82,60.8,647,4.93,13.1,16.6,1,29.1,2.47,10.1,0,0,1,1,0,570,-22519,-28304,606,,,,,,,,,,,,,,,,
286623,1622987152777,,,,,,,,-0.15,-0.71,-0.66,-19,2,-3,0.73,,82,8385,5,25,29,0.819,60.8,643,4.91,13.1,16.6,1,28.5,2.37,10.1,0,0,1,1,0,567,12552,-30139,605,,,,,,,,,,,,,,,,
286643,1622987152796,6,3,41,26,29,41,-22,-0.22,-0.8,-0.77,-21,3,-1,0.83,0,82,8325,5,25,28,0.819,61.2,642,4.95,13.1,16.6,1,28.1,2.32,10.1,0,0,1,1,0,545,-22359,3472,601,45.699871,4.91028,61.27,191.8,7,3,2.4,0,0.0,-1,0.0,0.0,0.0,0,2.9,4.7774
286663,1622987152816,,,,,,,,-0.3,-0.89,-0.87,-24,5,-3,0.94,,82,8314,5,25,28,0.819,60.4,638,4.87,13.0,16.6,1,28.1,2.31,10.1,0,0,1,1,0,508,-22263,-3210,604,,,,,,,,,,,,,,,,
286683,1622987152836,,,,,,,,-0.24,-0.8,-0.92,-26,6,-2,0.83,,82,8289,5,25,27,0.82,60.6,640,4.93,13.2,14.8,1,27.7,2.3,8.8,0,0,1,1,0,484,-22263,-1894,606,,,,,,,,,,,,,,,,
286703,1622987152856,,,,,,,,-0.27,-0.83,-0.91,-27,5,-4,0.87,,82,8263,5,25,27,0.82,59.2,639,4.9,13.2,14.8,1,27.7,2.27,8.8,0,0,1,1,0,457,14504,-12040,602,,,,,,,,,,,,,,,,
286723,1622987152876,,,,,,,,-0.21,-0.79,-1.0,-28,5,-2,0.82,,82,8205,5,25,27,0.821,59.3,638,4.95,13.1,14.8,1,27.6,2.23,8.8,0,0,1,1,0,440,-18032,15649,593,,,,,,,,,,,,,,,,
286743,1622987152896,1,2,39,24,32,42,-10,-0.23,-0.86,-0.99,-29,5,-2,0.89,0,82,8145,5,25,26,0.824,59.5,637,4.88,13.2,14.8,1,27.3,2.18,8.8,0,0,1,1,0,419,6273,15649,595,45.699863,4.910299,60.31,191.9,7,3,2.4,0,0.0,-1,0.0,,0.0,0,2.9,4.779
286763,1622987152916,,,,,,,,-0.23,-0.81,-1.08,-30,5,-1,0.84,,82,8019,5,25,26,0.832,59.1,638,4.91,13.2,14.8,1,27.2,2.1,8.8,0,0,1,1,0,411,-22359,-4035,591,,,,,,,,,,,,,,,,
286783,1622987152936,,,,,,,,-0.19,-0.77,-1.14,-30,5,1,0.8,,82,7871,5,25,26,0.84,58.6,535,4.97,13.1,12.8,1,27.1,2.09,7.6,0,0,1,1,0,405,6273,-4035,590,,,,,,,,,,,,,,,,
286803,1622987152956,,,,,,,,-0.18,-0.72,-1.09,-30,5,1,0.74,,82,7681,5,25,26,0.848,59.1,410,4.91,13.1,12.8,1,26.9,2.09,7.6,0,0,1,1,0,421,-32248,-25872,581,,,,,,,,,,,,,,,,
286823,1622987152976,,,,,,,,-0.18,-0.73,-1.0,-30,4,0,0.75,,82,7618,5,25,26,0.856,58.4,350,4.87,13.1,12.8,1,26.9,2.09,7.6,0,0,1,1,0,445,2211,-8188,581,,,,,,,,,,,,,,,,
286843,1622987152996,1,0,37,23,29,41,-10,-0.13,-0.71,-0.93,-29,3,0,0.72,0,82,7584,6,24,26,0.867,57.3,316,4.9,13.0,12.8,1,26.8,2.09,7.6,0,0,1,1,0,446,-32504,1267,573,45.699863,4.910299,60.31,191.9,7,3,2.4,0,0.0,-1,0.0,0.0,0.0,0,2.9,4.7807
286863,1622987153003,,,,,,,,-0.14,-0.75,-0.78,-29,2,1,0.76,,82,7594,9,24,26,0.879,57.0,303,4.92,13.0,12.8,1,26.8,2.09,7.6,0,0,1,1,0,427,2216,-2934,570,,,,,,,,,,,,,,,,
286883,1622987153023,,,,,,,,-0.15,-0.84,-0.82,-28,2,1,0.85,,82,7584,13,24,28,0.891,57.4,355,4.9,13.2,12.7,1,27.5,2.05,7.2,0,0,1,1,0,419,-22359,2211,574,,,,,,,,,,,,,,,,
286903,1622987153043,,,,,,,,-0.21,-0.93,-0.76,-28,1,1,0.95,,82,7569,18,24,31,0.903,56.4,330,4.94,13.2,12.7,1,28.6,1.99,7.2,0,0,1,1,0,444,1779,2216,571,,,,,,,,,,,,,,,,
286923,1622987153063,,,,,,,,-0.31,-1.01,-0.79,-28,2,-1,1.06,,82,7603,21,24,37,0.913,56.8,315,4.94,13.2,12.7,1,30.4,2.37,7.2,0,0,1,1,0,480,6274,-18032,568,,,,,,,,,,,,,,,,
286943,1622987153096,1,1,35,23,30,39,-11,-0.32,-1.05,-0.87,-27,1,-2,1.1,0,82,7744,24,24,43,0.923,56.8,321,4.95,13.2,12.7,1,33.3,2.57,7.2,0,0,1,1,0,525,-8962,6274,568,45.699848,4.910333,59.16,192.0,7,3,2.4,0,0.0,-1,0.0,,0.0,0,2.91,4.7824
286963,1622987153116,,,,,,,,-0.26,-0.95,-0.63,-27,-0,-1,0.99,,82,8067,25,24,49,0.932,55.7,348,4.96,13.1,12.7,1,36.8,2.77,7.2,0,0,1,1,0,525,-2336,-22263,557,,,,,,,,,,,,,,,,
286983,1622987153136,,,,,,,,-0.3,-1.04,-0.75,-27,1,-2,1.08,,82,8404,26,24,54,0.942,56.2,383,4.91,13.2,22.1,1,38.6,3.36,12.4,0,0,1,1,0,513,1780,2104,562,,,,,,,,,,,,,,,,
287003,1622987153156,,,,,,,,-0.33,-1.0,-0.85,-27,0,-3,1.05,,82,8745,26,24,58,0.945,55.2,463,4.93,13.1,22.1,1,41.0,3.68,12.4,0,0,1,1,0,529,-28648,6274,559,,,,,,,,,,,,,,,,
287023,1622987153176,,,,,,,,-0.31,-0.94,-0.95,-27,0,-5,0.99,,82,9053,26,24,59,0.946,55.9,542,4.95,13.1,22.1,1,39.8,3.71,12.4,0,0,1,1,0,535,-2336,6273,559,,,,,,,,,,,,,,,,
287043,1622987153196,-0,2,35,25,29,37,-11,-0.24,-0.98,-1.04,-26,1,-4,1.01,0,81,9375,28,24,61,0.948,55.9,607,4.87,13.3,22.1,1,40.9,3.67,12.4,0,0,0,1,0,540,-506,-22263,559,45.699837,4.910348,57.02,191.9,7,3,2.4,0,0.0,-1,0.0,0.0,0.0,0,2.91,4.784
287063,1622987153216,,,,,,,,-0.21,-0.94,-0.82,-26,-0,-3,0.97,,81,9610,28,24,63,0.95,55.1,648,4.9,13.3,22.1,1,41.3,3.73,12.4,0,0,0,1,0,538,1780,-9072,551,,,,,,,,,,,,,,,,
287083,1622987153236,,,,,,,,-0.19,-0.87,-0.81,-26,0,-4,0.89,,81,9765,28,24,64,0.944,55.7,653,4.91,13.3,30.9,1,40.9,3.81,17.1,0,0,0,1,0,539,1780,2524,557,,,,,,,,,,,,,,,,
287103,1622987153256,,,,,,,,-0.12,-0.86,-0.58,-25,-2,-2,0.87,,81,9791,28,25,65,0.939,55.0,659,4.9,13.3,30.9,1,40.8,3.82,17.1,0,0,0,1,0,561,6274,1780,556,,,,,,,,,,,,,,,,
287123,1622987153276,,,,,,,,-0.1,-0.89,-0.7,-25,-2,-3,0.89,,81,9625,28,25,65,0.932,55.9,653,4.79,13.3,30.9,1,41.2,3.69,17.1,0,0,0,1,0,590,1779,30208,559,,,,,,,,,,,,,,,,
287143,1622987153296,1,2,38,32,27,31,-4,0.03,-0.85,-0.8,-24,-2,-3,0.85,0,81,9337,27,25,65,0.926,56.3,652,4.98,13.3,30.9,1,41.2,3.61,17.1,0,0,0,1,0,583,-22359,-16384,563,45.699829,4.910363,56.99,191.9,7,3,2.4,0,0.0,-1,0.0,,0.0,0,2.91,4.7857
287163,1622987153316,,,,,,,,0.06,-0.9,-0.9,-23,-1,-3,0.9,,81,8907,19,25,64,0.938,56.0,647,4.87,13.3,30.9,1,41.0,3.55,17.1,0,0,0,1,0,578,2216,-3210,559,,,,,,,,,,,,,,,,
287183,1622987153336,,,,,,,,0.03,-0.86,-1.0,-21,-1,-3,0.86,,81,8700,11,25,59,0.951,56.7,643,4.84,13.2,23.4,1,41.6,3.27,13.3,0,0,0,1,0,575,-28648,1,567,,,,,,,,,,,,,,,,
287203,1622987153356,,,,,,,,0.02,-0.74,-0.98,-20,-1,-3,0.74,,81,8749,6,25,53,0.964,56.7,648,4.96,13.3,23.4,1,39.0,3.13,13.3,0,0,0,1,0,570,-28648,1267,567,,,,,,,,,,,,,,,,
287223,1622987153376,,,,,,,,-0.04,-0.63,-0.83,-18,-2,-4,0.64,,81,8886,6,25,47,0.977,56.4,646,4.86,13.3,23.4,1,37.0,2.97,13.3,0,0,0,1,0,568,6273,-29984,571,,,,,,,,,,,,,,,,
287243,1622987153396,1,2,38,36,28,29,-6,0.01,-0.56,-0.64,-17,-3,-5,0.56,0,81,8984,8,25,43,0.993,56.8,648,4.81,13.2,23.4,1,34.5,2.82,13.3,0,0,0,1,0,566,1780,-2934,568,45.699814,4.910377,57.08,191.9,7,3,2.4,0,0.0,-1,0.0,0.0,0.0,0,2.91,4.7874
287263,1622987153416,,,,,,,,-0.01,-0.53,-0.51,-16,-3,-5,0.53,,81,8992,11,25,41,1.011,56.5,657,4.87,13.2,23.4,1,33.2,2.76,13.3,0,0,0,1,0,565,-30159,-29984,558,,,,,,,,,,,,,,,,
287283,1622987153436,,,,,,,,-0.04,-0.48,-0.37,-16,-4,-6,0.48,,81,8984,12,25,40,1.028,57.0,652,4.84,13.2,20.5,1,32.6,2.77,11.6,0,0,0,1,0,561,-18032,-29984,567,,,,,,,,,,,,,,,,
287303,1622987153456,,,,,,,,0.01,-0.49,-0.28,-16,-3,-5,0.49,,81,8882,12,25,38,1.046,56.9,654,4.85,13.2,20.5,1,31.7,2.72,11.6,0,0,0,1,0,562,-22263,1267,569,,,,,,,,,,,,,,,,
287323,1622987153476,,,,,,,,0.03,-0.53,-0.29,-16,-3,-3,0.53,,81,8786,12,25,38,1.051,57.8,651,4.86,13.3,20.5,1,31.7,2.72,11.6,0,0,0,1,0,557,2524,-3190,578,,,,,,,,,,,,,,,,
287343,1622987153496,1,2,38,30,27,34,-20,0.03,-0.65,-0.38,-18,-2,-4,0.65,0,81,8648,12,25,37,1.054,57.8,652,4.95,13.4,20.5,1,31.4,2.68,11.6,0,0,0,1,0,558,-32504,1267,575,45.699806,4.910391,58.11,191.8,7,3,2.4,0,0.0,-1,0.0,,0.0,0,2.91,4.7891
287363,1622987153516,,,,,,,,-0.03,-0.71,-0.32,-19,-3,-5,0.71,,81,8518,12,25,37,1.057,57.0,642,4.93,13.2,20.5,1,31.4,2.68,11.6,0,0,0,1,0,551,-22263,259,570,,,,,,,,,,,,,,,,
287383,1622987153536,,,,,,,,-0.01,-0.66,-0.36,-20,-3,-3,0.66,,81,8411,12,25,37,1.059,57.5,643,4.94,13.2,17.6,1,31.2,2.59,10.2,0,0,0,1,0,551,2524,-3210,575,,,,,,,,,,,,,,,,
287403,1622987153556,,,,,,,,-0.06,-0.77,-0.5,-22,-2,-3,0.77,,81,8270,12,25,36,1.045,57.5,638,4.92,13.4,17.6,1,30.6,2.46,10.2,0,0,0,1,0,551,-22519,1,575,,,,,,,,,,,,,,,,
287423,1622987153576,,,,,,,,-0.05,-0.65,-0.58,-23,-1,-1,0.65,,81,8127,12,25,36,1.017,58.3,637,4.95,13.4,17.6,1,30.3,2.28,10.2,0,0,0,1,0,546,2524,1760,570,,,,,,,,,,,,,,,,
287443,1622987153596,1,2,40,27,27,35,-18,-0.16,-0.68,-0.43,-24,-1,-3,0.7,0,81,8113,12,25,37,0.989,57.4,640,4.9,13.4,17.6,1,30.6,2.32,10.2,0,0,0,1,0,538,-28648,2211,574,45.699791,4.910404,58.6,191.8,7,3,2.4,0,0.0,-1,0.0,0.0,0.0,0,2.91,4.7907
287463,1622987153616,,,,,,,,-0.15,-0.64,-0.54,-25,1,-0,0.65,,81,8138,12,25,36,0.962,57.0,636,4.91,13.4,17.6,1,30.3,2.3,10.2,0,0,0,1,0,528,-2336,2211,570,,,,,,,,,,,,,,,,
287483,1622987153636,,,,,,,,-0.19,-0.59,-0.57,-26,0,-2,0.62,,81,8252,13,25,36,0.934,57.0,640,4.89,13.4,16.3,1,30.6,2.45,9.3,0,0,0,1,0,523,-8186,6273,568,,,,,,,,,,,,,,,,
287503,1622987153656,,,,,,,,-0.17,-0.57,-0.52,-26,1,-1,0.59,,81,8333,13,25,36,0.906,56.5,641,4.93,13.4,16.3,1,30.7,2.47,9.3,0,0,0,1,0,515,-30064,-22263,565,,,,,,,,,,,,,,,,
287523,1622987153676,,,,,,,,-0.19,-0.67,-0.64,-27,-0,-1,0.7,,81,8499,13,25,36,0.877,56.1,638,4.95,13.4,16.3,1,31.0,2.63,9.3,0,0,0,1,0,515,1780,6274,561,,,,,,,,,,,,,,,,
287543,1622987153696,1,1,38,24,31,37,-13,-0.24,-0.64,-0.53,-27,-1,-2,0.68,0,81,8616,14,25,36,0.849,56.1,641,4.93,13.3,16.3,1,31.1,2.64,9.3,0,0,0,1,0,529,1780,14504,564,45.699783,4.910417,58.17,191.7,7,3,2.4,0,0.0,-1,0.0,,0.0,0,2.92,4.7924
287563,1622987153716,,,,,,,,-0.18,-0.51,-0.32,-27,-1,-1,0.54,,81,8733,15,25,36,0.826,56.4,642,4.88,13.2,16.3,1,31.1,2.64,9.3,0,0,0,1,0,529,6274,-22263,564,,,,,,,,,,,,,,,,
287583,1622987153736,,,,,,,,-0.15,-0.56,-0.32,-27,-2,1,0.58,,81,8815,17,25,37,0.821,55.8,646,4.88,13.4,19.4,1,31.4,2.68,10.9,0,0,0,1,0,531,6274,6273,558,,,,,,,,,,,,,,,,
287603,1622987153756,,,,,,,,-0.12,-0.56,-0.43,-28,-0,3,0.57,,81,8827,20,25,40,0.815,55.8,647,4.87,13.3,19.4,1,32.6,2.77,10.9,0,0,0,1,0,533,14504,-22359,557,,,,,,,,,,,,,,,,
287623,1622987153776,,,,,,,,-0.1,-0.68,-0.56,-28,0,4,0.69,,81,8882,23,25,43,0.809,55.4,649,4.86,13.4,19.4,1,34.5,3.22,10.9,0,0,0,1,0,534,6274,-32504,554,,,,,,,,,,,,,,,,
287643,1622987153797,-0,2,39,24,29,36,-16,-0.08,-0.77,-0.68,-28,2,6,0.77,0,81,9005,27,25,47,0.802,55.7,650,5.03,13.4,19.4,1,37.0,3.38,10.9,0,0,0,1,0,535,6274,-9072,554,45.699772,4.910428,57.03,191.7,7,3,2.4,0,0.0,-1,0.0,0.0,0.0,0,2.92,4.7941
287663,1622987153817,,,,,,,,-0.04,-0.83,-0.79,-28,2,7,0.83,,81,9195,32,25,54,0.8,55.7,653,4.82,13.3,19.4,1,40.0,3.8,10.9,0,0,0,1,0,533,2104,-28648,557,,,,,,,,,,,,,,,,
287683,1622987153837,,,,,,,,-0.05,-0.83,-0.56,-28,2,6,0.83,,81,9445,36,25,60,0.798,55.6,652,4.85,13.2,30.7,1,41.1,3.89,17.1,0,0,0,1,0,533,-22519,-9072,549,,,,,,,,,,,,,,,,
287703,1622987153857,,,,,,,,-0.07,-0.92,-0.68,-28,1,5,0.92,,81,9654,39,25,66,0.795,55.6,663,4.87,13.3,30.7,1,41.1,4.29,17.1,0,0,0,1,0,538,2524,2216,554,,,,,,,,,,,,,,,,
287723,1622987153877,,,,,,,,-0.03,-0.83,-0.45,-29,0,5,0.83,,81,9640,40,25,71,0.794,55.4,656,4.83,13.2,30.7,1,41.1,4.77,17.1,0,0,0,1,0,570,1248,-8186,554,,,,,,,,,,,,,,,,
287743,1622987153897,0,1,40,28,27,35,-15,-0.04,-0.83,-0.46,-29,-2,3,0.83,0,81,9431,41,25,75,0.793,55.9,656,4.85,13.2,30.7,1,41.5,5.12,17.1,0,0,0,1,0,606,-30064,-3210,558,45.699757,4.910437,56.49,191.8,7,3,2.4,0,0.0,-1,0.0,,0.0,0,2.92,4.7957
287763,1622987153917,,,,,,,,-0.01,-0.92,-0.58,-29,-2,1,0.92,,81,9245,40,25,78,0.792,56.7,647,4.83,13.2,30.7,1,40.7,5.44,17.1,0,0,0,1,0,596,-30064,10432,567,,,,,,,,,,,,,,,,
287783,1622987153937,,,,,,,,0.02,-0.93,-0.7,-29,-1,1,0.93,,81,9075,36,25,79,0.792,56.6,647,4.95,13.3,40.6,1,40.3,5.59,23.0,0,0,0,1,0,572,1780,-12040,566,,,,,,,,,,,,,,,,
287803,1622987153957,,,,,,,,0.07,-1.02,-0.81,-29,-1,1,1.02,,80,8992,28,25,77,0.797,57.0,647,4.92,13.4,40.6,1,41.1,5.16,23.0,0,0,0,1,0,570,-22519,-3210,569,,,,,,,,,,,,,,,,
287823,1622987153977,,,,,,,,0.07,-1.02,-0.91,-28,0,1,1.03,,81,9075,23,25,73,0.82,56.7,647,4.94,13.3,40.6,1,41.3,4.06,23.0,0,0,0,1,0,575,-8962,-3210,567,,,,,,,,,,,,,,,,
287843,1622987153997,0,2,44,36,23,31,-18,0.12,-1.04,-1.0,-28,1,1,1.05,0,80,9177,19,25,68,0.844,56.7,651,4.9,13.4,40.6,1,41.4,3.65,23.0,0,0,0,1,0,583,2524,243,567,45.699757,4.910437,56.49,191.8,7,3,2.4,0,0.0,-1,0.0,0.0,0.0,0,2.92,4.7974
287863,1622987154001,,,,,,,,0.18,-1.01,-1.08,-27,2,3,1.03,,80,9231,18,25,63,0.868,57.3,651,4.91,13.3,40.6,1,40.6,3.45,23.0,0,0,0,1,0,584,-18032,8488,566,,,,,,,,,,,,,,,,
287883,1622987154021,,,,,,,,0.18,-0.93,-0.83,-27,0,3,0.95,,81,9291,18,25,60,0.891,57.3,655,4.86,13.2,25.1,1,40.5,3.46,14.5,0,0,0,1,0,583,-32504,-25872,580,,,,,,,,,,,,,,,,
287903,1622987154041,,,,,,,,0.15,-0.9,-0.59,-27,0,0,0.91,,80,9286,19,25,57,0.918,58.2,653,4.76,13.3,25.1,1,40.2,3.47,14.5,0,0,0,1,0,579,6273,-12040,582,,,,,,,,,,,,,,,,
287923,1622987154061,,,,,,,,0.06,-0.88,-0.56,-27,0,-0,0.89,,80,9227,19,25,56,0.946,58.4,657,4.88,13.3,25.1,1,40.1,3.44,14.5,0,0,0,1,0,595,-22359,6273,584,,,,,,,,,,,,,,,,
287943,1622987154097,0,1,44,35,25,31,-16,0.08,-0.9,-0.68,-27,1,-1,0.9,0,80,9218,19,25,55,0.974,58.7,651,4.78,13.3,25.1,1,40.0,3.43,14.5,0,0,0,1,0,592,-29984,3472,587,45.69973,4.910454,57.83,191.8,7,3,2.4,0,0.0,-1,0.0,,0.0,0,2.92,4.799
287963,1622987154117,,,,,,,,0.12,-0.99,-0.79,-27,1,0,1.0,,80,9282,19,25,54,1.001,58.4,655,4.88,13.4,25.1,1,40.0,3.46,14.5,0,0,0,1,0,587,-8188,-16179,587,,,,,,,,,,,,,,,,
287983,1622987154137,,,,,,,,0.18,-0.95,-0.82,-27,1,1,0.96,,80,9351,19,25,53,1.013,59.2,650,4.89,13.3,25.7,1,39.6,3.49,15.1,0,0,0,1,0,588,-23623,-32504,581,,,,,,,,,,,,,,,,
288003,1622987154157,,,,,,,,0.15,-0.87,-0.74,-27,-0,1,0.88,,80,9450,20,25,53,1.023,58.7,655,4.77,13.3,25.7,1,39.7,3.46,15.1,0,0,0,1,0,588,-8186,-16179,591,,,,,,,,,,,,,,,,
288023,1622987154177,,,,,,,,0.17,-0.96,-0.84,-27,1,1,0.98,,80,9517,20,25,52,1.033,58.6,654,4.87,13.4,25.7,1,39.4,3.41,15.1,0,0,0,1,0,591,-18032,17344,586,,,,,,,,,,,,,,,,
288043,1622987154197,0,1,45,34,26,31,-18,0.2,-0.99,-0.94,-26,3,2,1.01,0,80,9532,20,25,51,1.042,58.5,655,4.93,13.3,25.7,1,39.1,3.41,15.1,0,0,0,1,0,594,-3190,4956,585,45.699718,4.910463,58.41,191.7,7,3,2.4,0,0.0,-1,0.0,0.0,0.0,0,2.92,4.8007
288063,1622987154217,,,,,,,,0.11,-0.85,-0.69,-26,2,2,0.85,,80,9441,20,25,51,1.03,59.4,660,4.87,13.3,25.7,1,39.0,3.32,15.1,0,0,0,1,0,602,1267,243,594,,,,,,,,,,,,,,,,
288083,1622987154237,,,,,,,,0.08,-0.86,-0.79,-26,2,2,0.86,,80,9398,20,25,51,1.009,59.2,658,4.95,13.3,24.1,1,39.0,3.3,14.4,0,0,0,1,0,608,-8186,-3210,600,,,,,,,,,,,,,,,,
288103,1622987154257,,,,,,,,0.11,-0.94,-0.79,-27,2,2,0.95,,80,9431,20,25,51,0.988,60.0,663,4.83,13.4,24.1,1,39.0,3.32,14.4,0,0,0,1,0,591,1,-3820,605,,,,,,,,,,,,,,,,
288123,1622987154277,,,,,,,,0.06,-0.75,-0.57,-27,0,-1,0.75,,80,9508,20,25,51,0.968,60.1,653,4.9,13.2,24.1,1,39.1,3.33,14.4,0,0,0,1,0,601,-23623,5344,601,,,,,,,,,,,,,,,,
288143,1622987154297,-1,2,43,31,27,33,-19,0.03,-0.76,-0.69,-27,1,0,0.76,0,80,9590,20,25,51,0.946,59.7,661,4.88,13.4,24.1,1,39.1,3.35,14.4,0,0,0,1,0,616,1267,243,603,45.699703,4.910471,59.45,191.8,7,3,2.4,0,0.0,-1,0.0,,0.0,0,2.93,4.8024
288163,1622987154317,,,,,,,,0.09,-0.79,-0.63,-26,1,2,0.79,,80,9704,20,25,51,0.925,59.8,661,4.91,13.3,24.1,1,39.1,3.36,14.4,0,0,0,1,0,606,1,-768,595,,,,,,,,,,,,,,,,
288183,1622987154337,,,,,,,,0.1,-0.81,-0.53,-26,1,0,0.82,,80,9780,20,25,50,0.904,59.6,656,4.86,13.4,25.4,1,38.8,3.31,15.2,0,0,0,1,0,592,243,30227,598,,,,,,,,,,,,,,,,
288203,1622987154357,,,,,,,,0.15,-0.85,-0.51,-27,-2,-0,0.86,,80,9725,20,25,50,0.883,59.8,665,4.91,13.3,25.4,1,38.8,3.3,15.2,0,0,0,1,0,617,8488,17740,608,,,,,,,,,,,,,,,,
288223,1622987154377,,,,,,,,0.11,-0.87,-0.62,-27,-1,-1,0.87,,80,9645,20,25,50,0.869,60.8,653,4.88,13.3,25.4,1,38.8,3.29,15.2,0,0,0,1,0,625,10432,19304,609,,,,,,,,,,,,,,,,
288243,1622987154397,1,0,39,29,25,34,-21,0.16,-0.9,-0.73,-28,-0,1,0.92,0,80,9635,19,25,49,0.861,60.3,660,4.82,13.4,25.4,1,38.5,3.22,15.2,0,0,0,1,0,626,-16384,269,607,45.699692,4.910477,60.54,191.9,7,3,2.4,0,0.0,-1,0.0,0.0,0.0,0,2.93,4.804
288263,1622987154417,,,,,,,,0.09,-0.85,-0.51,-29,-2,-1,0.85,,80,9709,20,25,49,0.853,61.5,663,4.88,13.3,25.4,1,38.5,3.24,15.2,0,0,0,1,0,610,-4035,17336,608,,,,,,,,,,,,,,,,
288283,1622987154437,,,,,,,,0.15,-0.9,-0.63,-30,-3,0,0.91,,80,9801,20,25,49,0.846,61.5,657,4.91,13.3,23.9,1,38.5,3.25,14.7,0,0,0,1,0,593,15649,19320,616,,,,,,,,,,,,,,,,
288303,1622987154457,,,,,,,,0.08,-0.83,-0.63,-30,-2,-0,0.83,,80,9863,20,25,49,0.839,60.6,667,4.87,13.3,23.9,1,38.5,3.26,14.7,0,0,0,1,0,609,30208,28675,615,,,,,,,,,,,,,,,,
288323,1622987154477,,,,,,,,0.16,-0.92,-0.75,-30,-0,2,0.93,,80,9842,20,25,48,0.833,60.6,663,4.92,13.3,23.9,1,38.2,3.2,14.7,0,0,0,1,0,634,-4035,-28304,606,,,,,,,,,,,,,,,,
288343,1622987154497,-1,2,41,27,22,33,-21,0.14,-0.77,-0.52,-30,-0,1,0.78,0,80,9770,20,25,48,0.828,61.3,661,4.78,13.4,23.9,1,38.2,3.19,14.7,0,0,0,1,0,636,2048,269,607,45.699673,4.910482,60.9,191.9,7,3,2.4,0,0.0,-1,0.0,,0.0,0,2.93,4.8057
288363,1622987154517,,,,,,,,0.16,-0.87,-0.44,-31,-2,1,0.88,,80,9786,21,25,48,0.822,61.5,662,4.87,13.3,23.9,1,38.2,3.19,14.7,0,0,0,1,0,625,8488,3403,615,,,,,,,,,,,,,,,,
288383,1622987154537,,,,,,,,0.15,-0.89,-0.57,-31,-1,1,0.91,,80,9852,20,25,48,0.817,62.1,660,4.88,13.4,24.1,1,38.2,3.2,14.8,0,0,0,1,0,607,2048,30721,612,,,,,,,,,,,,,,,,
288403,1622987154557,,,,,,,,0.14,-0.96,-0.36,-31,-1,-1,0.97,,80,9858,20,25,48,0.815,61.5,654,4.91,13.2,24.1,1,38.2,3.2,14.8,0,0,0,1,0,616,-4035,17336,615,,,,,,,,,,,,,,,,
288423,1622987154577,,,,,,,,0.11,-0.98,-0.42,-32,-2,-1,0.99,,80,9858,20,25,48,0.813,61.2,667,4.87,13.4,24.1,1,38.2,3.2,14.8,0,0,0,1,0,631,208,17336,612,,,,,,,,,,,,,,,,
288443,1622987154598,0,2,40,31,21,35,-19,0.07,-1.04,-0.45,-32,-0,-2,1.04,0,80,9899,20,25,48,0.811,61.9,658,4.91,13.3,24.1,1,38.2,3.21,14.8,0,0,0,1,0,627,23619,17336,619,45.699657,4.910486,61.95,191.9,7,3,2.4,0,0.0,-1,0.0,0.0,0.0,0,2.93,4.8074
288463,1622987154618,,,,,,,,0.13,-1.08,-0.58,-32,-0,-0,1.09,,80,9931,20,25,48,0.809,61.7,660,4.88,13.4,24.1,1,38.2,3.22,14.8,0,0,0,1,0,628,-25872,3395,617,,,,,,,,,,,,,,,,
288483,1622987154638,,,,,,,,0.08,-1.01,-0.46,-32,0,-1,1.02,,80,9925,21,25,48,0.805,61.1,666,4.88,13.4,23.7,1,38.2,3.22,14.7,0,0,0,1,0,633,-12040,-1346,611,,,,,,,,,,,,,,,,
288503,1622987154658,,,,,,,,0.09,-1.06,-0.49,-32,0,-2,1.06,,80,9925,21,25,48,0.802,61.2,662,4.82,13.3,23.7,1,38.2,3.22,14.7,0,0,0,1,0,620,-12040,20993,612,,,,,,,,,,,,,,,,
288523,1622987154678,,,,,,,,0.11,-0.97,-0.61,-33,2,-1,0.98,,80,9899,21,25,48,0.799,62.3,666,4.84,13.3,23.7,1,38.2,3.21,14.7,0,0,0,1,0,618,-16179,-16046,619,,,,,,,,,,,,,,,,
288543,1622987154697,0,0,43,29,25,33,-19,0.06,-0.93,-0.4,-32,1,-2,0.93,0,80,9858,21,25,48,0.796,62.2,665,4.86,13.3,23.7,1,38.2,3.2,14.7,0,0,0,1,0,617,-16179,20993,625,45.699642,4.910489,62.92,192.1,7,3,2.4,0,0.0,-1,0.0,,0.0,0,2.93,4.8091
288563,1622987154717,,,,,,,,0.11,-1.0,-0.51,-33,0,-1,1.01,,80,9868,22,25,48,0.795,62.6,662,4.95,13.3,23.7,1,38.2,3.2,14.7,0,0,0,1,0,623,6273,3395,619,,,,,,,,,,,,,,,,
288583,1622987154737,,,,,,,,0.08,-0.92,-0.63,-33,1,-1,0.92,,80,9931,23,25,49,0.795,62.5,666,4.9,13.3,23.9,1,38.5,3.27,15.0,0,0,0,1,0,630,23619,-16046,622,,,,,,,,,,,,,,,,
288603,1622987154757,,,,,,,,0.09,-0.97,-0.51,-33,-0,-0,0.98,,80,9968,26,25,52,0.794,62.0,663,4.88,13.3,23.9,1,39.4,3.44,15.0,0,0,0,1,0,634,23619,3,620,,,,,,,,,,,,,,,,
288623,1622987154777,,,,,,,,0.16,-0.87,-0.56,-33,-0,-1,0.88,,80,10016,28,25,54,0.793,62.6,659,4.94,13.3,23.9,1,40.0,3.55,15.0,0,0,0,1,0,626,23619,3,626,,,,,,,,,,,,,,,,
288643,1622987154796,-0,2,42,28,23,35,-29,0.17,-0.83,-0.68,-33,1,-0,0.85,0,80,10102,29,25,57,0.793,62.5,665,4.87,13.4,23.9,1,40.5,3.63,15.0,0,0,0,1,0,627,6273,-5120,625,45.699627,4.91049,63.19,192.2,7,3,2.4,0,0.0,-1,0.0,0.0,0.0,0,2.93,4.8107
288663,1622987154816,,,,,,,,0.01,-0.93,-0.59,-33,1,0,0.93,,80,10173,29,25,59,0.793,61.9,661,5.01,13.3,23.9,1,41.1,3.68,15.0,0,0,0,1,0,645,30227,-2836,627,,,,,,,,,,,,,,,,
288683,1622987154836,,,,,,,,0.03,-0.98,-0.37,-34,1,-2,0.98,,80,10240,30,25,61,0.793,62.1,661,4.9,13.3,28.3,1,41.9,3.74,17.7,0,0,0,1,0,656,3472,-5120,620,,,,,,,,,,,,,,,,
288703,1622987154856,,,,,,,,0.04,-1.03,-0.38,-35,-0,-2,1.03,,80,10370,30,25,62,0.794,62.6,671,4.93,13.3,28.3,1,42.4,3.83,17.7,0,0,0,1,0,686,4956,244,626,,,,,,,,,,,,,,,,
288723,1622987154876,,,,,,,,0.04,-1.07,-0.18,-36,-1,-3,1.07,,80,10557,30,25,63,0.801,63.1,672,4.87,13.3,28.3,1,42.9,3.94,17.7,0,0,0,1,0,664,5344,244,631,,,,,,,,,,,,,,,,
288743,1622987154896,1,1,43,30,23,36,-29,-0.07,-1.02,0.0,-36,-2,-4,1.02,0,80,10659,30,25,64,0.807,62.9,667,4.85,13.3,28.3,1,42.8,3.96,17.7,0,0,0,1,0,642,-768,2024,629,45.699612,4.910491,62.89,192.2,7,3,2.4,0,0.0,-1,0.0,,0.0,0,2.94,4.8124
288763,1622987154916,,,,,,,,-0.11,-1.1,0.15,-37,-2,-6,1.1,,80,10545,30,25,64,0.814,63.6,667,4.97,13.2,28.3,1,42.7,4.02,17.7,0,0,0,1,0,685,243,-388,638,,,,,,,,,,,,,,,,
288783,1622987154936,,,,,,,,-0.16,-1.17,0.3,-38,-2,-5,1.18,,80,10469,30,25,64,0.82,63.1,665,4.91,13.2,30.3,1,42.5,4.01,19.5,0,0,0,1,0,663,23619,-27404,638,,,,,,,,,,,,,,,,
288803,1622987154956,,,,,,,,-0.18,-1.24,0.44,-38,-2,-6,1.25,,80,10451,30,25,64,0.829,63.2,671,4.93,13.3,30.3,1,42.4,4.01,19.5,0,0,0,1,0,640,-3210,-3038,632,,,,,,,,,,,,,,,,
288823,1622987154976,,,,,,,,-0.21,-1.17,0.41,-38,-1,-5,1.19,,80,10428,30,25,65,0.838,64.1,668,4.86,13.4,30.3,1,42.2,4.07,19.5,0,0,0,1,0,666,17344,-388,641,,,,,,,,,,,,,,,,
288843,1622987154996,1,2,46,33,21,36,-24,-0.14,-1.1,0.54,-38,-3,-7,1.11,0,80,10480,30,25,64,0.847,64.6,662,4.98,13.3,30.3,1,42.6,4.09,19.5,0,0,0,1,0,686,-23055,-2345,641,45.699612,4.910491,62.89,192.2,7,3,2.4,0,0.0,-1,0.0,0.0,0.0,0,2.94,4.8141
288863,1622987155002,,,,,,,,-0.11,-1.04,0.49,-38,-3,-7,1.04,,80,10575,30,25,65,0.857,65.1,665,4.91,13.3,30.3,1,42.7,4.1,19.5,0,0,0,1,0,691,26688,-2826,651,,,,,,,,,,,,,,,,
288883,1622987155022,,,,,,,,-0.1,-1.07,0.62,-39,-6,-7,1.07,,80,10714,30,25,65,0.865,64.4,670,4.88,13.3,31.5,1,42.8,4.11,20.3,0,0,0,1,0,686,16529,-3578,644,,,,,,,,,,,,,,,,
288903,1622987155042,,,,,,,,-0.12,-1.08,0.59,-40,-5,-7,1.09,,80,10844,30,25,65,0.873,64.9,667,4.89,13.3,31.5,1,42.9,4.12,20.3,0,0,0,1,0,695,3403,-2345,650,,,,,,,,,,,,,,,,
288923,1622987155062,,,,,,,,-0.02,-1.15,0.37,-40,-1,-5,1.15,,80,10971,32,25,65,0.881,65.8,672,4.86,13.3,31.5,1,43.0,4.13,20.3,0,0,0,1,0,650,-28304,-3038,651,,,,,,,,,,,,,,,,
288943,1622987155094,1,2,48,31,22,34,-17,-0.04,-1.09,0.51,-40,-3,-7,1.09,0,80,10907,34,25,67,0.889,65.1,663,4.91,13.3,31.5,1,42.9,4.27,20.3,0,0,0,1,0,669,269,31988,645,45.699577,4.910487,65.41,192.3,7,3,2.4,0,0.0,-1,0.0,,0.0,0,2.94,4.8157
288963,1622987155114,,,,,,,,0.03,-1.08,0.62,-40,-3,-6,1.08,,80,10782,35,25,69,0.895,65.8,665,4.91,13.2,31.5,1,42.5,4.39,20.3,0,0,0,1,0,747,-28304,16118,657,,,,,,,,,,,,,,,,
288983,1622987155134,,,,,,,,0.08,-1.03,0.4,-40,-2,-4,1.03,,80,10907,37,25,71,0.9,65.8,678,4.85,13.3,33.7,1,42.6,4.43,22.3,0,0,0,1,0,730,17336,-3038,658,,,,,,,,,,,,,,,,
289003,1622987155154,,,,,,,,-0.01,-0.96,0.53,-39,-4,-6,0.96,,80,11075,39,25,72,0.905,64.9,672,4.87,13.4,33.7,1,42.7,4.51,22.3,0,0,0,1,0,670,3403,-3038,657,,,,,,,,,,,,,,,,
289023,1622987155174,,,,,,,,0.09,-1.04,0.66,-38,-3,-4,1.05,,80,11042,41,25,74,0.909,65.4,670,4.85,13.3,33.7,1,42.6,4.59,22.3,0,0,0,1,0,711,-28304,16118,654,,,,,,,,,,,,,,,,
289043,1622987155196,0,2,49,35,25,35,-14,0.16,-1.0,0.43,-38,-1,-2,1.01,0,80,10984,42,25,76,0.916,65.6,670,4.9,13.3,33.7,1,42.3,4.69,22.3,0,0,0,1,0,724,30721,14342,658,45.699562,4.910482,65.61,192.4,7,3,2.4,0,0.0,-1,0.0,0.0,0.0,0,2.94,4.8174
289063,1622987155216,,,,,,,,0.11,-1.02,0.56,-38,0,-4,1.03,,80,11068,42,25,77,0.923,65.3,666,4.87,13.3,33.7,1,42.4,4.73,22.3,0,0,0,1,0,669,-10251,11576,663,,,,,,,,,,,,,,,,
289083,1622987155236,,,,,,,,0.24,-0.8,0.61,-37,-1,-3,0.83,,80,11107,43,25,78,0.929,67.5,671,4.91,13.3,36.8,1,42.5,4.78,24.6,0,0,0,1,0,687,-3584,6208,675,,,,,,,,,,,,,,,,
289103,1622987155256,,,,,,,,0.15,-0.9,0.4,-37,-1,-2,0.91,,80,11016,46,25,79,0.935,67.0,674,4.89,13.3,36.8,1,42.4,4.83,24.6,0,0,0,1,0,741,3,-3584,667,,,,,,,,,,,,,,,,
289123,1622987155276,,,,,,,,0.14,-0.93,0.53,-36,-4,-4,0.94,,80,11009,50,25,80,0.944,66.4,678,4.83,13.3,36.8,1,42.3,5.62,24.6,0,0,0,1,0,686,24,-10448,664,,,,,,,,,,,,,,,,
289143,1622987155296,0,2,48,34,21,34,-8,0.28,-1.01,0.5,-35,-2,-5,1.05,0,80,11055,54,25,82,0.956,66.8,672,4.86,13.2,36.8,1,42.3,5.68,24.6,0,0,0,1,0,678,-3584,24,668,45.699547,4.910476,66.78,192.4,7,3,2.4,0,0.0,-1,0.0,,0.0,0,2.94,4.819
289163,1622987155316,,,,,,,,0.2,-0.8,0.29,-34,0,-1,0.82,,80,11094,59,25,83,0.968,67.9,664,4.86,13.3,36.8,1,42.3,5.8,24.6,0,0,0,1,0,711,-3488,24,679,,,,,,,,,,,,,,,,
289183,1622987155336,,,,,,,,0.33,-0.89,0.1,-33,-2,-3,0.95,,80,11160,69,25,84,0.979,67.8,668,4.88,13.3,45.6,1,42.4,5.98,30.8,0,0,0,1,0,708,8958,687,678,,,,,,,,,,,,,,,,
289203,1622987155356,,,,,,,,0.28,-0.82,0.21,-32,-1,-2,0.87,,80,11268,73,25,85,0.99,68.5,669,4.88,13.3,45.6,1,42.7,6.17,30.8,0,0,0,1,0,680,-2345,12333,674,,,,,,,,,,,,,,,,
289223,1622987155376,,,,,,,,0.36,-0.69,0.19,-31,-0,-2,0.78,,80,11288,75,25,86,0.998,68.5,671,4.88,13.2,45.6,1,42.7,6.32,30.8,0,0,0,1,0,700,-26380,15647,685,,,,,,,,,,,,,,,,
289243,1622987155398,0,1,48,37,20,31,-9,0.28,-0.8,0.0,-29,1,-0,0.84,0,80,11247,77,25,86,1.007,68.4,672,4.86,13.2,45.6,1,42.7,6.37,30.8,0,0,0,1,0,717,-26380,-20693,686,45.699532,4.910469,68.6,192.4,7,3,2.4,0,0.0,-1,0.0,0.0,0.0,0,2.94,4.8207
289263,1622987155418,,,,,,,,0.42,-0.69,-0.16,-28,-2,-1,0.81,,80,11261,79,25,87,1.015,69.0,672,4.88,13.3,45.6,1,42.8,6.55,30.8,0,0,0,1,0,707,31988,-30694,687,,,,,,,,,,,,,,,,
289283,1622987155438,,,,,,,,0.34,-0.64,0.02,-27,-2,-2,0.73,,80,11288,80,25,87,1.018,69.7,674,4.86,13.2,49.0,1,42.8,6.41,33.7,0,0,0,1,0,705,-10346,204,697,,,,,,,,,,,,,,,,
289303,1622987155458,,,,,,,,0.45,-0.68,0.1,-26,-1,-1,0.82,,80,11343,82,25,87,1.011,70.0,669,4.86,13.3,49.0,1,42.8,6.23,33.7,0,0,0,1,0,711,-2826,-3450,700,,,,,,,,,,,,,,,,
289323,1622987155478,,,,,,,,0.3,-0.54,-0.08,-25,2,1,0.62,,80,11446,83,25,88,1.005,69.9,674,4.88,13.3,49.0,1,42.9,6.27,33.7,0,0,0,1,0,717,-10399,-31068,703,,,,,,,,,,,,,,,,
289343,1622987155498,-1,2,46,39,21,30,-5,0.3,-0.54,-0.24,-24,2,1,0.62,0,80,11474,83,25,88,0.998,70.7,675,4.87,13.2,49.0,1,42.9,6.08,33.7,0,0,0,1,0,720,24,-3344,703,45.699512,4.91046,70.11,192.5,7,3,2.4,0,0.0,-1,0.0,,0.0,0,2.95,4.8224
289363,1622987155518,,,,,,,,0.44,-0.66,-0.34,-23,0,-2,0.8,,80,11467,83,25,88,0.991,71.0,672,4.87,13.3,49.0,1,42.9,5.9,33.7,0,0,0,1,0,719,11576,-2918,710,,,,,,,,,,,,,,,,
289383,1622987155538,,,,,,,,0.33,-0.62,-0.15,-22,-1,-3,0.7,,80,11496,83,25,88,0.979,71.2,678,4.88,13.2,43.7,1,42.9,5.81,30.9,0,0,0,1,0,725,19188,1524,712,,,,,,,,,,,,,,,,
289403,1622987155558,,,,,,,,0.38,-0.54,-0.07,-21,-0,-1,0.66,,80,11538,83,25,88,0.966,71.4,675,4.87,13.3,43.7,1,43.0,5.82,30.9,0,0,0,1,0,726,11069,-13580,714,,,,,,,,,,,,,,,,
289423,1622987155578,,,,,,,,0.51,-0.43,-0.01,-20,0,-1,0.67,,80,11609,83,25,88,0.954,72.1,676,4.88,13.2,43.7,1,43.0,5.85,30.9,0,0,0,1,0,734,-31068,-22796,721,,,,,,,,,,,,,,,,
289443,1622987155598,-1,0,45,40,22,27,-3,0.47,-0.44,-0.08,-19,1,-1,0.65,0,80,11689,83,25,88,0.942,72.5,674,4.87,13.3,43.7,1,43.0,5.87,30.9,0,0,0,1,0,733,-13072,-2826,710,45.699493,4.91045,72.14,192.5,7,3,2.4,0,0.0,-1,0.0,0.0,0.0,0,2.95,4.824
289463,1622987155618,,,,,,,,0.32,-0.52,-0.1,-18,1,-1,0.61,,80,11726,83,25,88,0.931,71.7,681,4.85,13.2,43.7,1,43.0,5.88,30.9,0,0,0,1,0,741,-12152,-31066,717,,,,,,,,,,,,,,,,
289483,1622987155638,,,,,,,,0.18,-0.54,-0.26,-17,1,1,0.57,,80,11770,83,25,88,0.919,73.4,677,4.88,13.3,44.1,1,43.0,5.9,32.1,0,0,0,1,0,740,-2560,-30694,734,,,,,,,,,,,,,,,,
289503,1622987155658,,,,,,,,0.23,-0.55,-0.4,-16,0,3,0.6,,80,11799,83,25,88,0.908,73.2,677,4.9,13.3,44.1,1,43.0,5.91,32.1,0,0,0,1,0,748,-2830,-2830,726,,,,,,,,,,,,,,,,
289523,1622987155678,,,,,,,,0.37,-0.57,-0.53,-15,-1,5,0.68,,80,11867,83,25,88,0.896,72.5,683,4.88,13.3,44.1,1,43.0,5.94,32.1,0,0,0,1,0,748,31988,-22796,731,,,,,,,,,,,,,,,,
289543,1622987155698,0,1,45,36,22,26,-4,0.5,-0.53,-0.66,-15,-2,6,0.73,0,80,11957,83,25,87,0.895,73.8,681,4.85,13.2,44.1,1,43.0,5.82,32.1,0,0,0,1,0,749,-2918,-4096,738,45.699474,4.91044,73.65,192.5,7,3,2.4,0,0.0,-1,0.0,,0.0,0,2.95,4.8257
289563,1622987155718,,,,,,,,0.63,-0.48,-0.77,-14,-5,7,0.79,,80,12026,83,25,87,0.893,73.3,682,4.87,13.2,44.1,1,43.0,5.84,32.1,0,0,0,1,0,754,1037,8838,733,,,,,,,,,,,,,,,,
289583,1622987155738,,,,,,,,0.73,-0.48,-0.87,-14,-6,7,0.87,,80,12057,83,25,87,0.892,74.7,680,4.86,13.2,43.9,1,43.0,5.84,32.6,0,0,0,1,0,768,3462,-10216,747,,,,,,,,,,,,,,,,
289603,1622987155758,,,,,,,,0.71,-0.52,-0.97,-13,-6,8,0.88,,80,12128,83,25,87,0.891,74.8,685,4.84,13.2,43.9,1,43.0,5.84,32.6,0,0,0,1,0,761,-3580,-2766,748,,,,,,,,,,,,,,,,
289623,1622987155778,,,,,,,,0.6,-0.52,-1.05,-12,-5,10,0.8,,80,12175,83,25,87,0.885,74.7,685,4.85,13.2,43.9,1,43.0,5.84,32.6,0,0,0,1,0,759,1037,-10214,747,,,,,,,,,,,,,,,,
289643,1622987155797,-1,2,45,40,22,25,-4,0.47,-0.57,-1.13,-12,-3,10,0.74,0,80,12207,83,25,88,0.88,75.2,686,4.85,13.3,43.9,1,43.0,5.99,32.6,0,0,0,1,0,767,3462,-10212,746,45.699459,4.910429,75.46,192.5,7,3,2.4,0,0.0,-1,0.0,0.0,0.0,0,2.95,4.8274
289663,1622987155817,,,,,,,,0.38,-0.62,-1.12,-12,-3,9,0.72,,80,12270,83,25,87,0.875,74.8,688,4.83,13.2,43.9,1,43.0,5.84,32.6,0,0,0,1,0,770,-22796,-10214,744,,,,,,,,,,,,,,,,
289683,1622987155837,,,,,,,,0.45,-0.63,-0.99,-12,-4,9,0.77,,80,12295,83,25,87,0.87,75.7,683,4.85,13.3,43.8,1,43.0,5.84,33.3,0,0,0,1,0,786,-23308,-22795,757,,,,,,,,,,,,,,,,
289703,1622987155857,,,,,,,,0.58,-0.49,-0.78,-11,-6,9,0.76,,80,12327,84,25,87,0.863,75.9,683,4.88,13.2,43.8,1,43.0,5.84,33.3,0,0,0,1,0,782,-3580,-2344,759,,,,,,,,,,,,,,,,
289723,1622987155877,,,,,,,,0.6,-0.32,-0.55,-11,-7,9,0.68,,80,12409,83,25,87,0.855,76.8,684,4.87,13.2,43.8,1,43.0,5.84,33.3,0,0,0,1,0,776,-2344,11277,766,,,,,,,,,,,,,,,,
289743,1622987155897,-1,2,45,39,24,25,-4,0.54,-0.18,-0.35,-11,-6,9,0.57,0,80,12057,84,25,88,0.85,77.4,683,4.96,13.6,43.8,1,43.0,5.84,33.3,0,0,0,1,0,783,8838,-10218,759,45.69944,4.910417,77.28,192.6,7,3,2.4,0,0.0,-1,0.0,,0.0,0,2.95,4.8291
289763,1622987155917,,,,,,,,0.59,-0.21,-0.33,-11,-4,11,0.62,,80,11559,84,25,90,0.845,76.2,682,4.97,13.5,43.8,1,43.0,6.14,33.3,0,0,0,1,0,771,-10218,7413,762,,,,,,,,,,,,,,,,
289783,1622987155937,,,,,,,,0.49,-0.18,-0.28,-10,-1,9,0.52,,80,11336,84,25,90,0.838,77.4,680,4.96,13.5,42.6,1,43.0,6.13,32.6,0,0,0,1,0,762,13016,-2344,762,,,,,,,,,,,,,,,,
289803,1622987155957,,,,,,,,0.5,-0.31,-0.42,-10,-1,11,0.59,,80,11107,84,25,91,0.831,77.0,676,4.93,13.5,42.6,1,43.0,6.17,32.6,0,0,0,1,0,761,13016,-2826,770,,,,,,,,,,,,,,,,
289823,1622987155977,,,,,,,,0.35,-0.29,-0.22,-10,-1,8,0.46,,80,10894,84,25,91,0.822,76.8,675,4.85,13.2,42.6,1,42.7,6.26,32.6,0,0,0,1,0,757,5876,6900,768,,,,,,,,,,,,,,,,
289843,1622987155997,0,2,41,36,27,29,-2,0.28,-0.16,-0.15,-10,1,9,0.32,0,80,10800,83,25,90,0.813,76.8,663,4.85,13.4,42.6,1,42.4,6.29,32.6,0,0,0,1,0,793,-31066,-3888,768,45.69944,4.910417,77.28,192.6,7,3,2.4,0,0.0,-1,0.0,0.0,0.0,0,2.96,4.8307
289863,1622987156003,,,,,,,,0.35,-0.31,-0.12,-10,-2,5,0.47,,80,10683,83,25,89,0.848,77.9,667,4.88,13.3,42.6,1,41.9,6.23,32.6,0,0,0,1,0,802,7413,-12152,772,,,,,,,,,,,,,,,,
289883,1622987156023,,,,,,,,0.43,-0.32,0.05,-10,-3,5,0.54,,80,10629,80,25,88,0.901,77.2,665,4.88,13.3,38.6,1,41.7,6.11,30.1,0,0,0,1,0,796,-2344,-1566,772,,,,,,,,,,,,,,,,
289903,1622987156043,,,,,,,,0.51,-0.36,-0.12,-9,-4,5,0.62,,80,10533,75,25,88,0.955,78.0,665,4.87,13.3,38.6,1,41.4,6.19,30.1,0,0,0,1,0,798,-2570,5344,786,,,,,,,,,,,,,,,,
289923,1622987156063,,,,,,,,0.52,-0.43,0.06,-9,-3,4,0.68,,80,10474,74,25,87,1.008,78.3,658,4.88,13.3,38.6,1,41.2,5.9,30.1,0,0,0,1,0,806,-31068,-12152,783,,,,,,,,,,,,,,,,
289943,1622987156097,-0,2,43,39,22,25,-3,0.56,-0.54,-0.11,-8,-2,3,0.77,0,80,10416,73,25,87,1.041,78.4,656,4.92,13.3,38.6,1,41.0,5.9,30.1,0,0,0,1,0,806,-2570,-3450,784,45.699406,4.910389,79.85,192.6,7,3,2.4,0,0.0,-1,0.0,,0.0,0,2.96,4.8324
289963,1622987156117,,,,,,,,0.52,-0.55,0.06,-8,-2,3,0.76,,80,10364,73,25,87,1.067,78.6,665,4.88,13.4,38.6,1,40.8,5.9,30.1,0,0,0,1,0,807,-31066,1524,786,,,,,,,,,,,,,,,,
289983,1622987156137,,,,,,,,0.49,-0.52,0.12,-8,-4,1,0.71,,80,10336,73,25,87,1.093,79.1,666,4.9,13.3,37.0,1,40.7,6.05,29.0,0,0,0,1,0,820,-2570,-13580,795,,,,,,,,,,,,,,,,
290003,1622987156157,,,,,,,,0.42,-0.41,0.27,-7,-4,2,0.59,,80,10307,73,25,87,1.117,79.7,656,4.85,13.4,37.0,1,40.6,6.05,29.0,0,0,0,1,0,822,5876,-22796,797,,,,,,,,,,,,,,,,
290023,1622987156177,,,,,,,,0.47,-0.33,0.34,-7,-4,2,0.57,,80,10262,73,25,87,1.131,79.9,658,4.91,13.4,37.0,1,40.4,6.05,29.0,0,0,0,1,0,824,-12152,-2826,793,,,,,,,,,,,,,,,,
290043,1622987156198,0,0,43,38,23,25,-2,0.54,-0.28,0.15,-7,-3,3,0.6,0,80,10251,73,25,87,1.136,80.2,662,4.86,13.4,37.0,1,40.4,6.05,29.0,0,0,0,1,0,828,-13072,-22796,802,45.699387,4.910376,81.22,192.7,7,3,2.4,0,0.0,-1,0.0,0.0,0.0,0,2.96,4.8341
290063,1622987156218,,,,,,,,0.58,-0.32,0.15,-7,-4,2,0.67,,80,10229,73,25,87,1.141,80.9,668,4.85,13.4,37.0,1,40.3,6.05,29.0,0,0,0,1,0,836,6389,-31066,809,,,,,,,,,,,,,,,,
290083,1622987156238,,,,,,,,0.57,-0.42,-0.03,-7,-2,0,0.71,,80,10223,73,25,87,1.148,80.8,656,4.86,13.3,35.7,1,40.3,6.05,28.6,0,0,0,1,0,831,-25858,136,810,,,,,,,,,,,,,,,,
290103,1622987156258,,,,,,,,0.52,-0.45,0.14,-7,-3,-1,0.68,,80,10206,73,25,87,1.14,81.4,657,4.87,13.4,35.7,1,40.2,6.05,28.6,0,0,0,1,0,833,204,-2830,814,,,,,,,,,,,,,,,,
290123,1622987156278,,,,,,,,0.52,-0.46,0.26,-6,-5,-1,0.69,,80,10179,71,25,87,1.089,82.0,658,4.86,13.4,35.7,1,40.2,6.05,28.6,0,0,0,1,0,840,16118,-3344,819,,,,,,,,,,,,,,,,
290143,1622987156297,1,2,43,37,23,23,-2,0.6,-0.47,0.07,-6,-3,1,0.76,0,80,10190,68,25,87,1.038,82.3,658,4.87,13.4,35.7,1,40.2,6.05,28.6,0,0,0,1,0,843,-2314,-3038,815,45.699368,4.910361,83.17,192.7,7,3,2.4,0,0.0,-1,0.0,,0.0,0,2.96,4.8357
290163,1622987156317,,,,,,,,0.66,-0.34,0.05,-6,-3,1,0.74,,80,10146,64,25,87,0.987,82.5,650,4.85,13.4,35.7,1,40.1,6.05,28.6,0,0,0,1,0,846,-2918,-1578,829,,,,,,,,,,,,,,,,
290183,1622987156337,,,,,,,,0.6,-0.28,-0.12,-6,-4,1,0.67,,80,10113,58,25,87,0.942,82.8,661,4.9,13.3,33.4,1,40.0,5.9,27.7,0,0,0,1,0,852,-2314,8838,828,,,,,,,,,,,,,,,,
290203,1622987156357,,,,,,,,0.54,-0.21,0.06,-5,-3,2,0.58,,80,10124,52,25,87,0.921,83.5,653,4.86,13.4,33.4,1,40.0,5.9,27.7,0,0,0,1,0,857,1037,-11532,835,,,,,,,,,,,,,,,,
290223,1622987156377,,,,,,,,0.61,-0.26,-0.11,-5,-2,3,0.66,,80,10102,45,25,86,0.899,83.4,657,4.86,13.3,33.4,1,39.8,5.75,27.7,0,0,0,1,0,856,-31066,-2311,830,,,,,,,,,,,,,,,,
290243,1622987156397,4,3,43,41,24,24,0,0.59,-0.27,-0.27,-5,-1,4,0.65,0,80,10059,40,25,85,0.877,83.5,660,4.82,13.3,33.4,1,39.7,5.6,27.7,0,0,0,1,0,860,-30694,-2570,832,45.699352,4.910346,84.64,192.8,7,3,2.4,0,0.0,-1,0.0,0.0,0.0,0,2.97,4.8374
290263,1622987156417,,,,,,,,0.51,-0.16,-0.08,-4,-2,3,0.53,,80,10053,36,25,82,0.856,84.0,660,4.96,13.4,33.4,1,39.7,5.22,27.7,0,0,0,1,0,866,-2830,-2311,838,,,,,,,,,,,,,,,,
290283,1622987156437,,,,,,,,0.51,-0.13,-0.16,-3,-1,5,0.53,,80,10037,32,25,79,0.856,83.5,655,4.9,13.3,28.0,1,39.7,5.02,23.6,0,0,0,1,0,882,-3344,-2570,838,,,,,,,,,,,,,,,,
290303,1622987156457,,,,,,,,0.52,-0.09,-0.31,-3,-0,4,0.52,,80,10010,29,25,76,0.856,83.5,655,4.9,13.3,28.0,1,39.6,4.81,23.6,0,0,0,1,0,856,6790,-2426,829,,,,,,,,,,,,,,,,
290323,1622987156477,,,,,,,,0.41,0.0,-0.12,-3,-0,3,0.41,,80,9889,23,25,71,0.857,83.7,651,4.88,13.3,28.0,1,40.0,4.3,23.6,0,0,0,1,0,868,136,-3450,824,,,,,,,,,,,,,,,,
290343,1622987156493,17,6,41,38,25,25,3,0.45,0.01,-0.28,-2,1,5,0.45,0,80,9821,11,25,64,0.857,83.9,651,4.86,13.4,28.0,1,40.8,3.71,23.6,0,0,0,1,0,867,-2830,-2570,839,45.699333,4.91033,86.61,192.8,7,3,2.4,0,0.0,-1,0.0,,0.0,0,2.97,4.839
290363,1622987156513,,,,,,,,0.37,-0.01,-0.18,-2,-0,3,0.37,,80,9765,4,25,55,0.856,84.0,655,4.94,13.3,28.0,1,40.1,3.47,23.6,0,0,0,1,0,860,-23308,-2311,816,,,,,,,,,,,,,,,,
290383,1622987156533,,,,,,,,0.35,-0.13,-0.33,-1,2,4,0.38,,80,9760,4,25,48,0.855,82.8,657,4.85,13.4,17.9,1,38.2,3.12,14.9,0,0,0,1,0,853,-2830,-2311,838,,,,,,,,,,,,,,,,
290403,1622987156553,,,,,,,,0.3,-0.09,-0.13,-1,0,3,0.31,,80,9522,4,25,42,0.855,83.4,655,4.89,13.3,17.9,1,34.2,2.89,14.9,0,0,0,1,0,848,-3450,-3038,839,,,,,,,,,,,,,,,,
290423,1622987156573,,,,,,,,0.1,0.02,0.04,-1,-0,2,0.11,,80,9272,4,25,38,0.854,83.1,658,4.92,13.4,17.9,1,31.7,2.75,14.9,0,0,0,1,0,839,-3580,-31066,829,,,,,,,,,,,,,,,,
290443,1622987156597,34,16,31,27,32,30,-0,-0.01,0.07,0.08,-1,0,1,0.07,0,80,9057,4,25,35,0.849,82.4,650,4.85,13.4,17.9,1,30.8,2.6,14.9,0,0,0,1,0,822,-22796,3462,824,45.699314,4.910315,87.55,192.8,7,3,2.4,0,0.0,-1,0.0,0.0,0.0,0,2.97,4.8407
290463,1622987156617,,,,,,,,-0.12,0.07,0.0,-0,0,1,0.14,,80,8831,4,25,33,0.843,81.9,648,4.78,13.3,17.9,1,30.2,2.51,14.9,0,0,0,1,0,829,-2314,1037,818,,,,,,,,,,,,,,,,
290483,1622987156637,,,,,,,,-0.14,0.17,0.14,-0,-1,-0,0.22,,80,8616,4,25,32,0.838,82.0,645,4.87,13.3,12.1,1,30.0,2.47,9.9,0,0,0,1,0,815,-30694,-2918,817,,,,,,,,,,,,,,,,
290503,1622987156657,,,,,,,,-0.16,0.09,-0.04,-0,-0,1,0.18,,80,8530,4,25,31,0.833,80.8,638,4.89,13.4,12.1,1,29.5,2.47,9.9,0,0,0,1,0,795,-13312,-1566,797,,,,,,,,,,,,,,,,
290523,1622987156677,,,,,,,,-0.24,0.03,-0.07,-1,1,0,0.24,,80,8546,4,25,30,0.825,79.4,641,4.92,13.5,12.1,1,29.1,2.47,9.9,0,0,0,1,0,788,-2826,-3368,788,,,,,,,,,,,,,,,,
290543,1622987156697,33,18,22,23,33,33,1,-0.26,0.16,-0.21,-0,2,1,0.3,0,80,8507,4,25,29,0.816,79.0,645,4.9,13.3,12.1,1,28.7,2.47,9.9,0,0,0,1,0,786,-10218,-2830,776,45.699295,4.910298,86.51,192.8,7,3,2.4,0,0.0,-1,0.0,,0.0,0,2.97,4.8424
290563,1622987156717,,,,,,,,-0.29,0.04,-0.36,-0,2,2,0.29,,80,8488,4,25,28,0.807,78.8,641,4.9,13.4,12.1,1,28.2,2.46,9.9,0,0,0,1,0,736,5344,-2826,784,,,,,,,,,,,,,,,,
290583,1622987156737,,,,,,,,-0.34,-0.02,-0.19,-0,1,-0,0.34,,80,8472,4,25,28,0.798,78.1,641,4.9,13.5,12.2,1,28.2,2.44,9.6,0,0,0,1,0,743,-22795,16118,781,,,,,,,,,,,,,,,,
290603,1622987156757,,,,,,,,-0.36,0.06,-0.34,-1,2,1,0.37,,80,8393,4,25,28,0.802,77.0,644,4.93,13.3,12.2,1,28.1,2.41,9.6,0,0,0,1,0,737,6389,24,772,,,,,,,,,,,,,,,,
290623,1622987156777,,,,,,,,-0.43,-0.11,-0.44,-0,2,1,0.45,,80,8241,4,25,27,0.809,77.1,641,4.91,13.4,12.2,1,27.6,2.26,9.6,0,0,0,1,0,716,7413,1780,754,,,,,,,,,,,,,,,,
290643,1622987156796,33,18,21,22,38,37,4,-0.51,-0.01,-0.55,-0,3,3,0.51,0,80,8009,4,25,27,0.815,75.1,633,4.92,13.3,12.2,1,27.5,2.09,9.6,0,0,0,1,0,751,-23308,-2356,755,45.699276,4.910283,83.45,192.8,7,3,2.4,0,0.0,-1,0.0,0.0,0.0,0,2.98,4.844
290663,1622987156816,,,,,,,,-0.5,0.15,-0.46,1,2,3,0.52,,80,7908,4,25,26,0.821,75.2,627,4.91,13.3,12.2,1,27.2,2.09,9.6,0,0,0,1,0,740,-2574,-4091,747,,,,,,,,,,,,,,,,
290683,1622987156836,,,,,,,,-0.57,0.09,-0.59,1,2,3,0.58,,80,7938,4,25,26,0.83,74.6,628,4.96,13.5,10.2,1,27.2,2.09,7.7,0,0,0,1,0,722,-31066,6658,745,,,,,,,,,,,,,,,,
290703,1622987156856,,,,,,,,-0.65,-0.0,-0.7,1,3,3,0.65,,80,7911,8,25,26,0.841,74.0,630,4.93,13.5,10.2,1,27.2,2.09,7.7,0,0,0,1,0,724,-4096,24,735,,,,,,,,,,,,,,,,
290723,1622987156876,,,,,,,,-0.67,0.1,-0.65,2,2,2,0.67,,80,7884,22,25,30,0.851,73.4,624,4.9,13.4,10.2,1,28.3,2.2,7.7,0,0,0,1,0,718,3462,16599,728,,,,,,,,,,,,,,,,
290743,1622987156896,33,16,19,21,39,37,2,-0.67,0.13,-0.54,2,2,2,0.68,0,80,7894,37,25,40,0.862,73.0,619,4.8,13.3,10.2,1,31.6,2.55,7.7,0,0,0,1,0,707,1524,24,709,45.699253,4.910269,80.16,192.9,7,3,2.4,0,0.0,-1,0.0,,0.0,0,2.98,4.8457
290763,1622987156916,,,,,,,,-0.75,0.07,-0.66,2,3,3,0.75,,80,8029,49,24,55,0.873,71.5,612,4.97,13.4,10.2,1,37.3,2.81,7.7,0,0,0,1,0,699,-23490,11576,720,,,,,,,,,,,,,,,,
290783,1622987156936,,,,,,,,-0.74,0.13,-0.77,3,4,3,0.75,,80,8177,53,24,67,0.887,71.4,616,4.95,13.6,19.4,1,40.1,4.0,13.8,0,0,0,1,0,703,-3450,24,708,,,,,,,,,,,,,,,,
290803,1622987156956,,,,,,,,-0.8,0.05,-0.87,3,3,3,0.8,,80,8067,53,24,78,0.901,71.2,620,4.95,13.6,19.4,1,38.5,5.15,13.8,0,0,0,1,0,694,6208,16599,697,,,,,,,,,,,,,,,,
290823,1622987156976,,,,,,,,-0.83,0.03,-0.91,2,3,3,0.83,,80,7901,53,24,86,0.915,69.8,610,4.97,13.6,19.4,1,36.8,5.71,13.8,0,0,0,1,0,691,24,-10346,689,,,,,,,,,,,,,,,,
290843,1622987156996,33,16,19,20,39,37,-1,-0.87,-0.01,-1.01,2,5,5,0.87,0,80,7747,48,24,92,0.921,70.0,597,4.98,13.4,19.4,1,39.5,5.83,13.8,0,0,0,1,0,676,14342,-2345,700,45.699253,4.910269,80.16,192.9,7,3,2.4,0,0.0,-1,0.0,0.0,0.0,0,2.98,4.8474
290863,1622987157003,,,,,,,,-0.87,-0.01,-1.09,2,5,6,0.87,,80,7594,38,24,92,0.918,68.7,592,4.93,13.2,19.4,1,41.6,5.56,13.8,0,0,0,1,0,680,-3584,-10399,687,,,,,,,,,,,,,,,,
290883,1622987157023,,,,,,,,-0.97,0.0,-1.12,1,5,5,0.97,,80,7425,30,24,91,0.914,67.7,576,4.88,13.2,24.2,1,44.1,4.69,16.4,0,0,0,1,0,681,-2826,-26892,677,,,,,,,,,,,,,,,,
290903,1622987157043,,,,,,,,-0.96,0.08,-1.19,1,8,7,0.97,,80,7443,23,24,87,0.911,67.8,570,4.91,13.3,24.2,1,42.6,4.48,16.4,0,0,0,1,0,643,-3578,4909,669,,,,,,,,,,,,,,,,
290923,1622987157063,,,,,,,,-0.89,0.03,-1.26,0,6,8,0.89,,80,7878,21,24,82,0.932,67.3,576,4.92,13.4,24.2,1,37.1,4.62,16.4,0,0,0,1,0,600,24583,269,673,,,,,,,,,,,,,,,,
290943,1622987157096,31,18,19,18,38,38,0,-0.97,0.09,-1.21,-0,5,8,0.97,0,80,8289,20,24,77,0.978,66.0,610,4.86,13.4,24.2,1,40.8,4.37,16.4,0,0,0,1,0,596,-26380,19320,660,45.699223,4.910243,73.32,192.9,7,3,2.4,0,0.0,-1,0.0,,0.0,0,2.98,4.849
290963,1622987157116,,,,,,,,-1.01,0.07,-1.28,-1,7,7,1.02,,80,9018,19,24,71,1.022,66.0,628,4.92,13.4,24.2,1,41.3,3.9,16.4,0,0,0,1,0,601,-2830,17344,660,,,,,,,,,,,,,,,,
290983,1622987157136,,,,,,,,-0.94,-0.07,-1.3,-1,7,6,0.94,,80,9659,18,24,66,1.068,64.8,648,4.9,13.4,25.7,1,41.1,3.79,16.7,0,0,0,1,0,589,-3584,-28304,648,,,,,,,,,,,,,,,,
291003,1622987157156,,,,,,,,-0.9,-0.03,-1.21,-2,4,5,0.9,,80,10140,18,25,60,1.114,64.2,655,4.89,13.4,25.7,1,41.2,3.72,16.7,0,0,0,1,0,615,771,771,644,,,,,,,,,,,,,,,,
291023,1622987157176,,,,,,,,-0.84,-0.09,-1.27,-2,5,6,0.84,,80,10515,18,25,55,1.16,63.1,651,4.97,13.4,25.7,1,40.4,3.67,16.7,0,0,0,1,0,625,966,269,628,,,,,,,,,,,,,,,,
291043,1622987157198,32,18,19,17,38,38,3,-0.79,-0.05,-1.0,-2,5,5,0.79,0,80,10831,18,25,52,1.206,63.0,672,4.9,13.3,25.7,1,39.4,3.56,16.7,0,0,0,1,0,616,26688,506,623,45.699207,4.910231,69.94,192.9,7,3,2.4,0,0.0,-1,0.0,0.0,0.0,0,2.98,4.8507
291063,1622987157218,,,,,,,,-0.89,0.06,-1.04,-2,6,4,0.89,,80,10977,18,25,51,1.252,61.8,671,4.89,13.4,25.7,1,39.1,3.5,16.7,0,0,0,1,0,608,-3210,3395,618,,,,,,,,,,,,,,,,
291083,1622987157238,,,,,,,,-0.86,0.04,-0.99,-2,2,4,0.86,,80,10825,18,25,49,1.285,61.1,670,4.91,13.3,28.5,1,38.5,3.34,17.3,0,0,0,1,0,632,-3446,-5120,611,,,,,,,,,,,,,,,,
291103,1622987157258,,,,,,,,-0.9,-0.01,-0.74,-1,1,3,0.9,,80,10370,16,25,48,1.289,61.7,670,4.88,13.3,28.5,1,38.2,3.25,17.3,0,0,0,1,0,646,-3446,11776,605,,,,,,,,,,,,,,,,
291123,1622987157278,,,,,,,,-0.84,0.01,-0.69,-1,2,2,0.84,,80,9894,6,25,45,1.296,60.7,662,4.9,13.4,28.5,1,36.5,3.0,17.3,0,0,0,1,0,642,4956,-3584,607,,,,,,,,,,,,,,,,
291143,1622987157296,31,18,23,22,35,34,5,-0.92,0.06,-0.53,-0,1,3,0.92,0,80,9479,4,25,39,1.302,60.7,656,4.87,13.3,28.5,1,32.0,2.77,17.3,0,0,0,1,0,632,10432,966,607,45.699192,4.910219,66.7,192.9,7,3,2.4,0,0.0,-1,0.0,,0.0,0,2.99,4.8524
291163,1622987157316,,,,,,,,-0.99,0.06,-0.63,0,2,2,0.99,,80,9200,4,25,35,1.304,59.9,653,4.94,13.4,28.5,1,30.8,2.57,17.3,0,0,0,1,0,617,23619,-3446,597,,,,,,,,,,,,,,,,
291183,1622987157336,,,,,,,,-0.99,0.0,-0.75,1,3,2,0.99,,80,9057,4,25,32,1.244,59.4,645,4.97,13.4,17.0,1,30.0,2.44,10.2,0,0,0,1,0,606,-13043,30227,594,,,,,,,,,,,,,,,,
291203,1622987157356,,,,,,,,-1.01,0.05,-0.85,1,3,1,1.01,,80,8831,4,25,30,1.183,59.0,646,4.9,13.5,17.0,1,29.1,2.43,10.2,0,0,0,1,0,598,-32504,-32504,586,,,,,,,,,,,,,,,,
291223,1622987157376,,,,,,,,-0.97,0.16,-0.82,2,3,1,0.99,,80,8600,4,25,29,1.123,59.6,642,4.94,13.4,17.0,1,28.7,2.47,10.2,0,0,0,1,0,589,17344,1267,580,,,,,,,,,,,,,,,,
291243,1622987157396,35,19,20,23,39,35,4,-0.99,0.13,-0.91,2,4,2,1.0,0,80,8396,4,25,28,1.062,58.4,637,4.92,13.4,17.0,1,28.1,2.38,10.2,0,0,0,1,0,590,-4035,2104,576,45.699177,4.910208,64.57,192.8,7,3,2.4,0,0.0,-1,0.0,0.0,0.0,0,2.99,4.8541
291263,1622987157416,,,,,,,,-0.99,0.23,-0.75,3,2,1,1.02,,80,8191,4,25,27,0.999,57.8,633,4.92,13.5,17.0,1,27.6,2.22,10.2,0,0,0,1,0,574,-16384,-22519,570,,,,,,,,,,,,,,,,
291283,1622987157436,,,,,,,,-0.99,0.37,-0.85,4,3,3,1.05,,80,8152,4,25,26,0.937,56.7,632,4.87,13.5,14.7,1,27.3,2.2,8.3,0,0,0,1,0,553,1780,-30064,566,,,,,,,,,,,,,,,,
291303,1622987157456,,,,,,,,-0.97,0.35,-0.63,4,2,1,1.03,,80,8155,4,25,26,0.874,56.4,640,4.9,13.4,14.7,1,27.3,2.21,8.3,0,0,0,1,0,512,12552,2088,551,,,,,,,,,,,,,,,,
291323,1622987157476,,,,,,,,-1.0,0.26,-0.71,5,2,0,1.03,,80,8088,4,25,26,0.811,56.4,641,4.88,13.5,14.7,1,27.3,2.16,8.3,0,0,0,1,0,509,12552,2524,551,,,,,,,,,,,,,,,,
291343,1622987157496,35,20,17,19,40,38,1,-0.92,0.32,-0.65,5,1,0,0.98,0,80,8033,4,25,25,0.791,55.1,636,4.9,13.4,14.7,1,27.0,2.13,8.3,0,0,0,1,0,512,6274,-17956,540,45.699165,4.910197,61.49,192.8,7,3,2.4,0,0.0,-1,0.0,,0.0,0,2.99,4.8557
291363,1622987157516,,,,,,,,-0.94,0.34,-0.43,5,2,0,1.0,,80,7891,4,25,25,0.78,54.2,631,4.85,13.3,14.7,1,26.8,2.11,8.3,0,0,0,1,0,515,-506,32033,537,,,,,,,,,,,,,,,,
291383,1622987157536,,,,,,,,-0.98,0.27,-0.44,5,1,-1,1.01,,80,7757,4,24,24,0.769,53.6,626,4.92,13.5,14.2,1,26.7,2.06,7.6,0,0,0,1,0,510,2104,-23623,532,,,,,,,,,,,,,,,,
291403,1622987157556,,,,,,,,-1.03,0.23,-0.52,5,-1,-2,1.06,,80,7637,4,24,24,0.758,53.0,614,4.95,13.5,14.2,1,26.6,2.06,7.6,0,0,0,1,0,505,2088,12552,523,,,,,,,,,,,,,,,,
291423,1622987157576,,,,,,,,-1.1,0.23,-0.48,5,1,-2,1.12,,80,7527,4,24,24,0.767,51.8,609,4.97,13.5,14.2,1,26.5,2.06,7.6,0,0,0,1,0,504,1248,-16384,518,,,,,,,,,,,,,,,,
291443,1622987157598,34,19,17,18,41,38,-3,-1.1,0.2,-0.61,4,-0,-4,1.12,0,80,7470,4,24,24,0.781,51.1,603,4.97,13.5,14.2,1,26.4,2.06,7.6,0,0,0,1,0,481,-32248,-18108,511,45.699154,4.910187,58.23,192.8,7,3,2.4,0,0.0,-1,0.0,0.0,0.0,0,2.99,4.8574
291463,1622987157618,,,,,,,,-1.13,0.18,-0.39,4,-2,-4,1.15,,80,7387,4,24,24,0.795,50.6,604,4.88,13.5,14.2,1,26.3,2.02,7.6,0,0,0,1,0,484,2109,-18108,506,,,,,,,,,,,,,,,,
