"Interval"|"ms"|0|0|1,"Utc"|"ms"|0|0|1,"Brake_F"|"Bar"|0|2000|10,"Brake_R"|"Bar"|0|2000|10,"Height_RF"|"mm"|0|255|10,"Height_LF"|"mm"|0|255|10,"Height_LR"|"mm"|0|80|10,"Height_RR"|"mm"|0|255|10,"Steering"|"deg"|-100|100|10,"AccelX"|"G"|-3.0|3.0|50,"AccelY"|"G"|-3.0|3.0|50,"AccelZ"|"G"|-3.0|3.0|50,"Yaw"|"Deg/Sec"|-120|120|50,"Pitch"|"Deg/Sec"|-120|120|50,"Roll"|"Deg/Sec"|-120|120|50,"Gsum"|"G"|0.0|3.0|50,"Log_Button"|""|0.0|10.0|10,"WaterTemp"|"C"|0|150|50,"RPM"|"tr/min"|0|14000|50,"TPS"|"%"|0|100|50,"AirTemp"|"C"|0|150|50,"MAP"|"KPa"|0|100|50,"Lambda"|""|0.5|1.5|50,"SpeedDTA"|"kph"|0.0|250.0|50,"OilPress"|"KPa"|0|1500|50,"FuelPressur"|"Bar"|0.0|10.0|50,"Batterie"|"V"|0.0|20.0|50,"ConsoKm"|"L/100km"|0.0|200.0|50,"Gear"|""|0|6|50,"AdvIgnition"|"Deg"|-20.0|70.0|50,"Injection"|"ms"|0.0|10.0|50,"ConsoHr"|"L/Hr"|0.0|10000.0|50,"LC_But_Pres"|""|0|1|50,"LC_Active"|""|0|1|50,"TractionOn"|""|0|1|50,"TractionWet"|""|0|1|50,"FanOn"|""|0|1|50,"RD_Speed"|"km/h"|-30|250|50,"RUD_Speed"|"km/h"|-30|250|50,"LD_Speed"|"km/h"|-30|250|50,"LUD_Speed"|"km/h"|-30|250|50,"Latitude"|"Degrees"|-180.0|180.0|10,"Longitude"|"Degrees"|-180.0|180.0|10,"Speed"|"kph"|0.0|150.0|10,"Altitude"|"m"|0.0|4000.0|10,"GPSSats"|""|0|20|10,"GPSQual"|""|0|5|10,"GPSDOP"|""|0.0|20.0|10,"LapCount"|""|0|0|10,"LapTime"|"Min"|0.0|0.0|10,"Sector"|""|0|0|10,"SectorTime"|"Min"|0.0|0.0|10,"PredTime"|"Min"|0.0|0.0|5,"ElapsedTime"|"Min"|0.0|0.0|10,"CurrentLap"|""|0|0|10,"Distance"|"km"|0.0|0.0|10,"SessionTime"|"Min"|0.0|0.0|10
33063,0,,,,,,,,0.13,-0.06,-0.52,-0,-2,0,0.14,,54,3950,8,30,60,0.502,0.0,577,4.89,13.2,0.0,1,20.0,1.31,4.4,0,0,0,1,0,0,250,250,0,,,,,,,,,,,,,,,,
33083,0,,,,,,,,0.1,-0.06,-0.42,-0,-2,-0,0.12,,54,3806,8,30,60,0.502,0.0,549,4.88,13.2,0.0,1,18.4,1.34,4.4,0,0,0,1,0,0,250,250,0,,,,,,,,,,,,,,,,
33103,0,,,,,,,,0.1,-0.06,-0.48,-0,-2,-0,0.11,,54,3795,8,30,61,0.502,0.0,555,4.89,13.2,0.0,1,18.4,1.38,4.3,0,0,0,1,0,0,250,250,0,,,,,,,,,,,,,,,,
33123,0,,,,,,,,0.07,-0.03,-0.5,-0,-1,-1,0.08,,54,3621,8,30,61,0.502,0.0,515,4.93,13.2,0.0,1,16.4,1.42,4.3,0,0,0,1,0,0,250,250,0,,,,,,,,,,,,,,,,
33143,0,0,3,34,34,32,31,1,0.1,-0.06,-0.62,-0,-2,-0,0.12,1,54,3503,8,30,63,0.502,0.0,502,4.9,13.3,0.0,1,15.7,2.58,4.3,0,0,0,1,0,0,250,250,0,0.0,0.0,0.0,0.0,0,0,0.0,0,0.0,-1,0.0,,0.0,0,0.0,0.5524
33163,0,,,,,,,,0.09,-0.05,-0.6,-0,-2,0,0.1,,54,3399,8,30,64,0.502,0.0,462,4.88,13.2,0.0,1,16.0,1.51,4.3,0,0,0,1,0,0,250,250,0,,,,,,,,,,,,,,,,
33183,0,,,,,,,,0.04,-0.04,-0.52,-0,-0,-0,0.06,,54,3294,8,30,64,0.502,0.0,460,4.87,13.1,0.0,1,16.0,1.51,4.3,0,0,0,1,0,0,250,250,0,,,,,,,,,,,,,,,,
33203,0,,,,,,,,0.02,-0.04,-0.54,-0,1,-0,0.04,,54,3194,8,30,65,0.502,0.0,440,4.87,13.1,0.0,1,16.4,2.64,3.9,0,0,0,1,0,0,250,250,0,,,,,,,,,,,,,,,,
33223,0,,,,,,,,0.01,-0.05,-0.59,-0,0,-0,0.05,,54,3099,8,30,66,0.502,0.0,422,4.92,13.3,0.0,1,16.7,2.64,3.9,0,0,0,1,0,0,250,250,0,,,,,,,,,,,,,,,,
33243,0,0,2,34,33,32,31,2,0.01,-0.05,-0.63,-0,-1,-0,0.05,0,54,3087,8,30,66,0.502,0.0,423,4.92,13.3,0.0,1,16.7,2.67,3.9,0,0,0,1,0,0,250,250,0,0.0,0.0,0.0,0.0,0,0,0.0,0,0.0,-1,0.0,0.0,0.0,0,0.0,0.5541
33263,0,,,,,,,,0.01,-0.03,-0.7,-0,-1,-0,0.04,,54,3031,8,30,67,0.502,0.0,405,4.96,13.3,0.0,1,17.1,2.69,3.9,0,0,0,1,0,0,250,250,0,,,,,,,,,,,,,,,,
33283,0,,,,,,,,0.0,-0.02,-0.76,-0,-1,0,0.02,,54,2936,8,30,67,0.502,0.0,401,4.92,13.2,0.0,1,16.9,2.63,3.9,0,0,0,1,0,0,250,250,0,,,,,,,,,,,,,,,,
33303,0,,,,,,,,-0.01,-0.04,-0.81,-0,-1,-0,0.04,,54,2906,8,30,68,0.502,0.0,390,4.88,13.3,0.0,1,17.2,2.63,3.6,0,0,0,1,0,0,250,250,0,,,,,,,,,,,,,,,,
33323,0,,,,,,,,-0.03,-0.05,-0.81,-0,-1,-0,0.06,,54,2904,8,30,69,0.502,0.0,388,4.85,13.1,0.0,1,17.4,2.66,3.6,0,0,0,1,0,0,250,250,0,,,,,,,,,,,,,,,,
33343,0,-1,2,34,32,32,31,1,-0.04,-0.04,-0.77,-0,-1,-0,0.06,0,54,2792,8,30,70,0.502,0.0,385,4.85,13.0,0.0,1,16.9,1.49,3.6,0,0,0,1,0,0,250,250,0,0.0,0.0,0.0,0.0,0,0,0.0,0,0.0,-1,0.0,,0.0,0,0.0,0.5557
33363,0,,,,,,,,-0.04,-0.04,-0.8,-0,-1,0,0.06,,54,2746,8,30,71,0.503,0.0,365,4.9,13.2,0.0,1,16.7,1.51,3.6,0,0,0,1,0,0,250,250,0,,,,,,,,,,,,,,,,
33383,0,,,,,,,,-0.03,-0.04,-0.9,-0,-1,0,0.05,,54,2706,8,30,72,0.503,0.0,370,4.9,13.3,0.0,1,16.5,2.65,3.6,0,0,0,1,0,0,250,250,0,,,,,,,,,,,,,,,,
33403,0,,,,,,,,-0.01,-0.04,-0.87,-0,-1,0,0.04,,54,2702,8,30,72,0.503,0.0,364,4.92,13.3,0.0,1,16.5,2.65,3.3,0,0,0,1,0,0,250,250,0,,,,,,,,,,,,,,,,
33423,0,,,,,,,,-0.01,-0.02,-0.89,-0,-1,0,0.03,,54,2727,8,30,72,0.503,0.0,358,4.92,13.2,0.0,1,16.6,2.66,3.3,0,0,0,1,0,0,250,250,0,,,,,,,,,,,,,,,,
33443,0,0,0,34,32,31,31,2,-0.02,-0.02,-0.86,-0,-1,0,0.03,0,54,2704,8,30,73,0.503,0.0,359,4.87,13.1,0.0,1,16.5,2.7,3.3,0,0,0,1,0,0,250,250,0,0.0,0.0,0.0,0.0,0,0,0.0,0,0.0,-1,0.0,0.0,0.0,0,0.0,0.5574
33463,0,,,,,,,,-0.02,-0.02,-0.84,-0,-1,0,0.03,,54,2711,8,30,74,0.503,0.0,367,4.9,13.3,0.0,1,16.6,2.76,3.3,0,0,0,1,0,0,250,250,0,,,,,,,,,,,,,,,,
33483,0,,,,,,,,-0.01,-0.02,-0.94,-0,-1,1,0.03,,54,2706,8,30,74,0.503,0.0,358,4.9,13.3,0.0,1,16.5,1.65,3.3,0,0,0,1,0,0,250,250,0,,,,,,,,,,,,,,,,
33503,0,,,,,,,,0.01,-0.04,-0.92,-0,-1,0,0.04,,54,2738,8,30,74,0.503,0.0,366,4.91,13.3,0.0,1,16.7,2.77,3.5,0,0,0,1,0,0,250,250,0,,,,,,,,,,,,,,,,
33523,0,,,,,,,,0.01,-0.02,-0.91,-0,-1,0,0.02,,54,2761,8,30,74,0.503,0.0,365,4.9,13.2,0.0,1,17.0,2.77,3.5,0,0,0,1,0,0,250,250,0,,,,,,,,,,,,,,,,
33543,0,-1,2,34,32,31,31,2,-0.01,-0.02,-0.93,-0,-1,0,0.02,0,54,2748,8,30,74,0.503,0.0,358,4.95,13.2,0.0,1,16.8,2.77,3.5,0,0,0,1,0,0,250,250,0,0.0,0.0,0.0,0.0,0,0,0.0,0,0.0,-1,0.0,,0.0,0,0.0,0.559
33563,0,,,,,,,,-0.01,-0.0,-0.87,-0,-1,0,0.01,,54,2710,8,30,75,0.503,0.0,370,4.9,13.1,0.0,1,16.6,1.7,3.5,0,0,0,1,0,0,250,250,0,,,,,,,,,,,,,,,,
33583,0,,,,,,,,-0.01,-0.0,-0.91,-0,-0,0,0.01,,54,2729,8,30,75,0.503,0.0,364,4.91,13.2,0.0,1,16.6,1.71,3.5,0,0,0,1,0,0,250,250,0,,,,,,,,,,,,,,,,
33603,0,,,,,,,,-0.0,-0.0,-0.99,-0,-0,0,0.0,,54,2808,8,30,75,0.503,0.0,371,4.9,13.3,0.0,1,17.5,1.71,3.6,0,0,0,1,0,0,250,250,0,,,,,,,,,,,,,,,,
33623,0,,,,,,,,0.03,-0.02,-1.01,-0,-1,0,0.03,,54,2828,8,30,75,0.503,0.0,378,4.93,13.3,0.0,1,17.7,1.72,3.6,0,0,0,1,0,0,250,250,0,,,,,,,,,,,,,,,,
33643,0,-0,2,34,32,32,30,2,0.04,-0.02,-0.98,-0,-1,0,0.04,0,54,2759,8,30,76,0.503,0.0,365,4.91,13.3,0.0,1,17.1,2.87,3.6,0,0,0,1,0,0,250,250,0,0.0,0.0,0.0,0.0,0,0,0.0,0,0.0,-1,0.0,0.0,0.0,0,0.0,0.5607
33663,0,,,,,,,,0.03,-0.03,-1.0,-0,-1,0,0.04,,54,2775,8,30,75,0.503,0.0,367,4.93,13.2,0.0,1,17.2,2.82,3.6,0,0,0,1,0,0,250,250,0,,,,,,,,,,,,,,,,
33683,0,,,,,,,,0.01,-0.03,-0.97,-0,-1,0,0.03,,54,2891,8,30,76,0.503,0.0,379,4.93,13.2,0.0,1,18.6,2.84,3.6,0,0,0,1,0,0,250,250,0,,,,,,,,,,,,,,,,
33703,0,,,,,,,,-0.01,-0.01,-0.92,-0,-1,0,0.01,,54,2863,8,30,76,0.503,0.0,382,4.85,13.0,0.0,1,18.3,2.88,3.8,0,0,0,1,0,0,250,250,0,,,,,,,,,,,,,,,,
33723,0,,,,,,,,-0.02,-0.02,-0.86,-0,-1,0,0.03,,54,2820,8,30,76,0.503,0.0,385,4.85,13.0,0.0,1,17.8,1.76,3.8,0,0,0,1,0,0,250,250,0,,,,,,,,,,,,,,,,
33743,0,-1,2,34,32,32,31,1,-0.03,-0.02,-0.87,-0,-0,0,0.04,0,54,2912,8,30,76,0.503,0.0,383,4.91,13.2,0.0,1,18.9,2.88,3.8,0,0,0,1,0,0,250,250,0,0.0,0.0,0.0,0.0,0,0,0.0,0,0.0,-1,0.0,,0.0,0,0.0,0.5624
33763,0,,,,,,,,-0.04,-0.02,-0.85,-0,1,0,0.05,,54,2958,8,30,76,0.503,0.0,390,4.91,13.3,0.0,1,19.4,1.77,3.8,0,0,0,1,0,0,250,250,0,,,,,,,,,,,,,,,,
33783,0,,,,,,,,-0.05,-0.02,-0.89,-0,1,0,0.05,,54,2957,8,30,76,0.503,0.0,401,4.91,13.2,0.0,1,19.1,1.77,3.8,0,0,0,1,0,0,250,250,0,,,,,,,,,,,,,,,,
33803,0,,,,,,,,-0.05,-0.03,-0.91,-0,2,1,0.06,,54,2935,8,30,76,0.503,0.0,386,4.91,13.2,0.0,1,19.2,1.77,3.9,0,0,0,1,0,0,250,250,0,,,,,,,,,,,,,,,,
33823,0,,,,,,,,-0.06,-0.04,-0.95,-0,2,1,0.07,,54,3001,8,30,76,0.503,0.0,405,4.9,13.2,0.0,1,20.0,1.78,3.9,0,0,0,1,0,0,250,250,0,,,,,,,,,,,,,,,,
33843,0,0,1,34,32,32,31,1,-0.07,-0.05,-0.92,-0,3,1,0.09,0,54,3067,8,30,76,0.503,0.0,406,4.9,13.2,0.0,1,20.0,1.77,3.9,0,0,0,1,0,0,250,250,0,0.0,0.0,0.0,0.0,0,0,0.0,0,0.0,-1,0.0,0.0,0.0,0,0.0,0.564
33863,0,,,,,,,,-0.09,-0.05,-0.91,-0,4,1,0.11,,54,3069,8,30,76,0.503,0.0,411,4.9,13.1,0.0,1,20.0,1.77,3.9,0,0,0,1,0,0,250,250,0,,,,,,,,,,,,,,,,
33883,0,,,,,,,,-0.11,-0.05,-0.83,-0,4,1,0.12,,54,3091,8,30,75,0.503,0.0,417,4.87,13.0,0.0,1,19.6,1.75,3.9,0,0,0,1,0,0,250,250,0,,,,,,,,,,,,,,,,
33903,0,,,,,,,,-0.13,-0.04,-0.77,-0,4,0,0.14,,54,3175,8,30,75,0.503,0.0,417,4.9,13.1,0.0,1,19.6,1.73,4.1,0,0,0,1,0,0,250,250,0,,,,,,,,,,,,,,,,
33923,0,,,,,,,,-0.14,-0.03,-0.81,-0,4,0,0.14,,54,3233,8,30,75,0.503,0.0,433,4.91,13.2,0.0,1,19.6,2.83,4.1,0,0,0,1,0,0,250,250,0,,,,,,,,,,,,,,,,
33943,0,0,1,34,33,32,30,1,-0.1,-0.04,-0.86,-0,2,0,0.1,0,54,3247,8,30,75,0.503,0.0,435,4.91,13.2,0.0,1,19.6,2.83,4.1,0,0,0,1,0,0,250,250,0,0.0,0.0,0.0,0.0,0,0,0.0,0,0.0,-1,0.0,,0.0,0,0.0,0.5657
33963,0,,,,,,,,-0.05,-0.02,-0.92,-0,1,-0,0.06,,54,3265,8,30,75,0.503,0.0,442,4.91,13.2,0.0,1,19.6,2.83,4.1,0,0,0,1,0,0,250,250,0,,,,,,,,,,,,,,,,
33983,0,,,,,,,,-0.07,-0.01,-0.93,-0,2,1,0.07,,54,3348,8,30,75,0.503,0.0,452,4.92,13.2,0.0,1,19.6,1.69,4.1,0,0,0,1,0,0,250,250,0,,,,,,,,,,,,,,,,
34003,0,,,,,,,,-0.1,-0.02,-0.79,-0,3,-0,0.1,,54,3429,8,30,74,0.503,0.0,458,4.87,13.2,0.0,1,19.3,2.8,4.4,0,0,0,1,0,0,250,250,0,,,,,,,,,,,,,,,,
34023,0,,,,,,,,-0.07,-0.02,-0.89,-0,2,0,0.07,,54,3407,8,30,75,0.503,0.0,467,4.93,13.2,0.0,1,19.6,2.8,4.4,0,0,0,1,0,0,250,250,0,,,,,,,,,,,,,,,,
34043,0,-1,2,34,33,32,31,2,-0.02,0.0,-0.96,-0,0,0,0.02,0,54,3385,8,30,75,0.503,0.0,458,4.9,13.3,0.0,1,19.6,2.81,4.4,0,0,0,1,0,0,250,250,0,0.0,0.0,0.0,0.0,0,0,0.0,0,0.0,-1,0.0,0.0,0.0,0,0.0,0.5674
34063,0,,,,,,,,-0.06,0.03,-0.82,-0,1,-0,0.06,,54,3483,8,30,75,0.503,0.0,476,4.91,13.2,0.0,1,19.6,2.79,4.4,0,0,0,1,0,0,250,250,0,,,,,,,,,,,,,,,,
34083,0,,,,,,,,-0.06,0.02,-0.85,-0,2,-0,0.07,,55,3502,8,30,74,0.502,0.0,470,4.91,13.2,0.0,1,19.3,2.78,4.4,0,0,0,1,0,0,250,250,0,,,,,,,,,,,,,,,,
34103,0,,,,,,,,-0.0,-0.0,-0.95,-0,-0,-0,0.01,,55,3454,8,30,74,0.502,0.0,483,4.91,13.3,0.0,1,19.3,1.67,4.4,0,0,0,1,0,0,250,250,0,,,,,,,,,,,,,,,,
34123,0,,,,,,,,-0.04,0.02,-0.82,-0,0,0,0.04,,55,3533,8,30,74,0.502,0.0,476,4.91,13.1,0.0,1,19.6,1.66,4.4,0,0,0,1,0,0,250,250,0,,,,,,,,,,,,,,,,
34143,0,-1,2,34,32,32,31,2,-0.04,-0.01,-0.85,-0,1,-0,0.04,0,55,3570,8,30,74,0.502,0.0,488,4.92,13.2,0.0,1,19.9,1.65,4.4,0,0,0,1,0,0,250,250,0,0.0,0.0,0.0,0.0,0,0,0.0,0,0.0,-1,0.0,,0.0,0,0.0,0.569
34163,0,,,,,,,,0.03,-0.02,-0.95,-0,-1,0,0.04,,55,3513,8,30,74,0.502,0.0,483,4.91,13.3,0.0,1,19.4,1.67,4.4,0,0,0,1,0,0,250,250,0,,,,,,,,,,,,,,,,
34183,0,,,,,,,,-0.01,0.0,-0.75,-0,-0,-0,0.01,,55,3584,8,30,74,0.502,0.0,500,4.88,13.0,0.0,1,20.0,1.64,4.4,0,0,0,1,0,0,250,250,0,,,,,,,,,,,,,,,,
34203,0,,,,,,,,-0.0,-0.01,-0.86,-0,1,0,0.01,,55,3638,8,30,74,0.502,0.0,498,4.92,13.3,0.0,1,20.5,2.73,4.5,0,0,0,1,0,0,250,250,0,,,,,,,,,,,,,,,,
34223,0,,,,,,,,-0.0,-0.02,-0.87,-0,-0,1,0.02,,55,3594,8,30,74,0.502,0.0,512,4.87,13.1,0.0,1,20.0,1.64,4.5,0,0,0,1,0,0,250,250,0,,,,,,,,,,,,,,,,
34243,0,0,2,34,31,32,30,2,-0.02,-0.0,-0.74,-0,0,-0,0.02,0,55,3638,8,30,73,0.502,0.0,505,4.87,13.2,0.0,1,20.2,2.73,4.5,0,0,0,1,0,0,250,250,0,0.0,0.0,0.0,0.0,0,0,0.0,0,0.0,-1,0.0,0.0,0.0,0,0.0,0.5707
34263,0,,,,,,,,0.02,-0.02,-0.84,-0,-1,0,0.03,,55,3696,8,30,74,0.502,0.0,515,4.88,13.2,0.0,1,21.0,1.6,4.5,0,0,0,1,0,0,250,250,0,,,,,,,,,,,,,,,,
34283,0,,,,,,,,-0.02,0.0,-0.69,-0,0,-0,0.02,,55,3649,8,30,73,0.502,0.0,520,4.89,13.2,0.0,1,20.3,2.73,4.5,0,0,0,1,0,0,250,250,0,,,,,,,,,,,,,,,,
34303,0,,,,,,,,0.01,-0.02,-0.8,-0,-0,0,0.02,,55,3680,8,30,73,0.502,0.0,507,4.91,13.3,0.0,1,20.6,2.72,4.6,0,0,0,1,0,0,250,250,0,,,,,,,,,,,,,,,,
34323,0,,,,,,,,-0.01,-0.03,-0.63,-0,0,0,0.03,,55,3735,8,30,73,0.502,0.0,539,4.9,13.2,0.0,1,21.1,2.7,4.6,0,0,0,1,0,0,250,250,0,,,,,,,,,,,,,,,,
34343,0,1,1,34,32,31,31,2,0.01,-0.03,-0.75,-0,-0,0,0.03,0,55,3715,8,30,73,0.502,0.0,516,4.91,13.3,0.0,1,20.9,2.7,4.6,0,0,0,1,0,0,250,250,0,0.0,0.0,0.0,0.0,0,0,0.0,0,0.0,-1,0.0,,0.0,0,0.0,0.5724
34363,0,,,,,,,,-0.0,-0.04,-0.56,-0,-1,-0,0.04,,55,3758,8,30,73,0.502,0.0,538,4.85,13.0,0.0,1,21.3,2.69,4.6,0,0,0,1,0,0,250,250,0,,,,,,,,,,,,,,,,
34383,0,,,,,,,,0.03,-0.05,-0.68,-0,-1,-0,0.06,,55,3759,8,30,73,0.502,0.0,526,4.92,13.3,0.0,1,21.3,2.69,4.6,0,0,0,1,0,0,250,250,0,,,,,,,,,,,,,,,,
34403,0,,,,,,,,-0.0,-0.06,-0.57,-0,-0,-0,0.06,,55,3739,8,30,72,0.502,0.0,541,4.84,13.1,0.0,1,20.8,2.7,4.6,0,0,0,1,0,0,250,250,0,,,,,,,,,,,,,,,,
34423,0,,,,,,,,0.02,-0.07,-0.69,-0,-0,-0,0.07,,55,3794,8,30,72,0.502,0.0,525,4.91,13.2,0.0,1,21.4,1.58,4.6,0,0,0,1,0,0,250,250,0,,,,,,,,,,,,,,,,
34443,0,0,2,34,32,32,31,1,-0.01,-0.06,-0.54,-0,-0,-0,0.06,0,55,3797,8,30,72,0.502,0.0,552,4.91,13.2,0.0,1,21.4,2.69,4.6,0,0,0,1,0,0,250,250,0,0.0,0.0,0.0,0.0,0,0,0.0,0,0.0,-1,0.0,0.0,0.0,0,0.0,0.574
34463,0,,,,,,,,0.01,-0.06,-0.66,-0,1,0,0.07,,55,3835,8,30,72,0.502,0.0,535,4.91,13.3,0.0,1,21.7,2.68,4.6,0,0,0,1,0,0,250,250,0,,,,,,,,,,,,,,,,
34483,0,,,,,,,,-0.0,-0.06,-0.59,-0,0,-0,0.06,,55,3852,8,30,71,0.502,0.0,558,4.9,13.2,0.0,1,21.6,2.69,4.6,0,0,0,1,0,0,250,250,0,,,,,,,,,,,,,,,,
34503,0,,,,,,,,0.0,-0.07,-0.71,-0,1,1,0.07,,55,3834,8,30,71,0.502,0.0,540,4.9,13.2,0.0,1,21.5,2.69,4.7,0,0,0,1,0,0,250,250,0,,,,,,,,,,,,,,,,
34523,0,,,,,,,,0.02,-0.06,-0.82,-0,0,1,0.06,,55,3934,8,30,71,0.502,0.0,557,4.9,13.3,0.0,1,22.4,2.67,4.7,0,0,0,1,0,0,250,250,0,,,,,,,,,,,,,,,,
34543,0,0,0,34,32,31,30,2,-0.01,-0.06,-0.58,-0,-0,0,0.06,0,55,3927,8,30,71,0.502,0.0,558,4.88,13.1,0.0,1,22.3,2.67,4.7,0,0,0,1,0,0,250,250,0,0.0,0.0,0.0,0.0,0,0,0.0,0,0.0,-1,0.0,,0.0,0,0.0,0.5757
34563,0,,,,,,,,-0.0,-0.06,-0.7,-0,1,1,0.06,,55,3975,8,30,70,0.502,0.0,567,4.9,13.2,0.0,1,22.6,1.58,4.7,0,0,0,1,0,0,250,250,0,,,,,,,,,,,,,,,,
34583,0,,,,,,,,0.03,-0.1,-0.81,-0,-0,1,0.11,,55,4073,8,30,70,0.502,0.0,569,4.91,13.3,0.0,1,23.9,2.71,4.7,0,0,0,1,0,0,250,250,0,,,,,,,,,,,,,,,,
34603,0,,,,,,,,0.03,-0.11,-0.58,-0,-1,-0,0.12,,55,4155,8,30,69,0.502,0.0,585,4.9,13.2,0.0,1,24.8,2.78,5.2,0,0,0,1,0,0,250,250,0,,,,,,,,,,,,,,,,
34623,0,,,,,,,,-0.01,-0.1,-0.36,-0,-1,-1,0.1,,55,4239,8,30,68,0.502,0.0,598,4.87,13.0,0.0,1,25.7,2.82,5.2,0,0,0,1,0,0,250,250,0,,,,,,,,,,,,,,,,
34643,0,0,3,34,34,32,31,2,-0.06,-0.07,-0.5,-0,2,0,0.09,0,55,4234,8,30,67,0.502,0.0,601,4.89,13.1,0.0,1,25.5,2.77,5.2,0,0,0,1,0,0,250,250,0,0.0,0.0,0.0,0.0,0,0,0.0,0,0.0,-1,0.0,0.0,0.0,0,0.0,0.5774
34663,0,,,,,,,,-0.08,-0.08,-0.62,-0,3,1,0.12,,55,4307,8,30,67,0.502,0.0,610,4.88,13.2,0.0,1,26.4,1.7,5.2,0,0,0,1,0,0,250,250,0,,,,,,,,,,,,,,,,
34683,0,,,,,,,,-0.06,-0.09,-0.74,-0,4,3,0.11,,55,4388,8,30,66,0.502,0.0,611,4.91,13.3,0.0,1,27.2,1.69,5.2,0,0,0,1,0,0,250,250,0,,,,,,,,,,,,,,,,
34703,0,,,,,,,,0.01,-0.11,-0.84,-0,1,2,0.11,,55,4321,8,30,65,0.502,0.0,616,4.9,13.3,0.0,1,26.0,2.72,5.4,0,0,0,1,0,0,250,250,0,,,,,,,,,,,,,,,,
34723,0,,,,,,,,0.09,-0.12,-0.87,-0,-2,2,0.15,,55,4424,8,30,65,0.502,0.0,611,4.91,13.3,0.0,1,27.4,2.77,5.4,0,0,0,1,0,0,250,250,0,,,,,,,,,,,,,,,,
34743,0,0,1,34,34,32,30,2,0.15,-0.12,-0.84,-0,-4,1,0.19,0,55,4436,8,30,64,0.502,0.0,617,4.91,13.3,0.0,1,27.3,2.73,5.4,0,0,0,1,0,0,250,250,0,0.0,0.0,0.0,0.0,0,0,0.0,0,0.0,-1,0.0,,0.0,0,0.0,0.579
34763,0,,,,,,,,0.23,-0.13,-0.65,-0,-6,-0,0.27,,55,4452,8,30,64,0.502,0.0,622,4.94,13.3,0.0,1,27.5,2.73,5.4,0,0,0,1,0,0,250,250,0,,,,,,,,,,,,,,,,
34783,0,,,,,,,,0.3,-0.13,-0.64,-0,-8,-1,0.33,,55,4573,8,30,63,0.502,0.0,621,4.93,13.3,0.0,1,28.9,2.74,5.4,0,0,0,1,0,0,250,250,0,,,,,,,,,,,,,,,,
34803,0,,,,,,,,0.37,-0.18,-0.73,-0,-10,-2,0.41,,55,4535,8,30,62,0.502,0.0,626,4.89,13.3,0.0,1,28.1,2.67,5.7,0,0,0,1,0,0,250,250,0,,,,,,,,,,,,,,,,
34823,0,,,,,,,,0.43,-0.2,-0.84,-0,-11,-2,0.47,,55,4613,8,30,62,0.502,0.0,625,4.93,13.3,0.0,1,29.1,2.7,5.7,0,0,0,1,0,0,250,250,0,,,,,,,,,,,,,,,,
34843,0,-1,2,34,34,32,31,2,0.46,-0.24,-0.93,-0,-10,-0,0.52,0,55,4637,8,30,61,0.501,0.0,626,4.96,13.3,0.0,1,29.2,1.56,5.7,0,0,0,1,0,0,250,250,0,0.0,0.0,0.0,0.0,0,0,0.0,0,0.0,-1,0.0,0.0,0.0,0,0.0,0.5807
34863,0,,,,,,,,0.46,-0.26,-1.02,-0,-9,2,0.53,,55,4642,8,30,61,0.501,0.0,631,4.94,13.3,0.0,1,29.3,2.67,5.7,0,0,0,1,0,0,250,250,0,,,,,,,,,,,,,,,,
34883,0,,,,,,,,0.37,-0.22,-1.1,-0,-6,4,0.43,,55,4675,8,30,60,0.501,0.0,629,4.88,13.1,0.0,1,29.4,1.56,5.7,0,0,0,1,0,0,250,250,0,,,,,,,,,,,,,,,,
34903,0,,,,,,,,0.25,-0.18,-1.06,-0,-3,4,0.31,,55,4614,8,30,60,0.501,0.0,635,4.92,13.1,0.0,1,28.6,1.54,5.7,0,0,0,1,0,0,250,250,0,,,,,,,,,,,,,,,,
34923,0,,,,,,,,0.12,-0.14,-0.86,-0,-1,3,0.19,,55,4569,8,30,60,0.501,0.0,628,4.89,13.0,0.0,1,28.0,1.53,5.7,0,0,0,1,0,0,250,250,0,,,,,,,,,,,,,,,,
34943,0,1,2,34,34,32,31,1,0.01,-0.09,-0.7,-0,1,3,0.09,0,55,4519,8,30,59,0.501,0.0,627,4.89,13.0,0.0,1,27.0,2.62,5.7,0,0,0,1,0,0,250,250,0,0.0,0.0,0.0,0.0,0,0,0.0,0,0.0,-1,0.0,,0.0,0,0.0,0.5824
34963,0,,,,,,,,-0.09,-0.06,-0.51,-0,4,2,0.11,,55,4515,8,30,59,0.501,0.0,626,5.0,13.1,0.0,1,27.0,1.5,5.7,0,0,0,1,0,0,250,250,0,,,,,,,,,,,,,,,,
34983,0,,,,,,,,-0.17,-0.06,-0.41,-0,5,2,0.18,,55,4433,8,30,59,0.501,0.0,614,4.96,13.1,0.0,1,25.9,2.58,5.7,0,0,0,1,0,0,250,250,0,,,,,,,,,,,,,,,,
35003,0,,,,,,,,-0.24,-0.04,-0.38,-0,6,2,0.24,,55,4478,8,30,59,0.501,0.0,622,4.92,13.2,0.0,1,26.5,2.59,5.3,0,0,0,1,0,0,250,250,0,,,,,,,,,,,,,,,,
35023,0,,,,,,,,-0.29,-0.02,-0.51,-0,8,2,0.29,,55,4408,8,30,58,0.501,0.0,617,4.87,13.1,0.0,1,25.4,1.43,5.3,0,0,0,1,0,0,250,250,0,,,,,,,,,,,,,,,,
35043,0,-1,1,34,34,32,31,2,-0.32,-0.0,-0.63,-0,10,3,0.32,0,55,4404,8,30,59,0.501,0.0,616,4.97,13.2,0.0,1,25.5,1.44,5.3,0,0,0,1,0,0,250,250,0,0.0,0.0,0.0,0.0,0,0,0.0,0,0.0,-1,0.0,0.0,0.0,0,0.0,0.584
35063,0,,,,,,,,-0.32,-0.02,-0.75,-0,11,3,0.32,,55,4372,8,30,59,0.501,0.0,617,4.95,13.2,0.0,1,25.1,1.42,5.3,0,0,0,1,0,0,250,250,0,,,,,,,,,,,,,,,,
35083,0,,,,,,,,-0.31,-0.04,-0.85,-0,11,4,0.31,,55,4294,8,30,59,0.501,0.0,611,4.92,13.3,0.0,1,24.1,1.39,5.3,0,0,0,1,0,0,250,250,0,,,,,,,,,,,,,,,,
35103,0,,,,,,,,-0.25,-0.06,-0.95,-0,8,3,0.26,,55,4276,8,30,59,0.501,0.0,609,4.91,13.3,0.0,1,23.9,2.48,4.9,0,0,0,1,0,0,250,250,0,,,,,,,,,,,,,,,,
35123,0,,,,,,,,-0.17,-0.07,-0.94,-0,5,2,0.18,,55,4241,8,30,59,0.501,0.0,601,4.9,13.2,0.0,1,23.5,2.48,4.9,0,0,0,1,0,0,250,250,0,,,,,,,,,,,,,,,,
35143,0,0,1,34,34,32,31,2,-0.14,-0.07,-0.7,-0,3,1,0.16,0,55,4245,8,30,58,0.501,0.0,611,4.86,13.0,0.0,1,23.3,2.46,4.9,0,0,0,1,0,0,250,250,0,0.0,0.0,0.0,0.0,0,0,0.0,0,0.0,-1,0.0,,0.0,0,0.0,0.5857
35163,0,,,,,,,,-0.15,-0.05,-0.47,-0,4,1,0.16,,55,4186,8,30,58,0.501,0.0,598,4.87,13.0,0.0,1,22.5,1.31,4.9,0,0,0,1,0,0,250,250,0,,,,,,,,,,,,,,,,
35183,0,,,,,,,,-0.16,-0.04,-0.6,-0,6,2,0.17,,55,4154,8,30,59,0.501,0.0,601,4.92,13.2,0.0,1,22.4,1.32,4.9,0,0,0,1,0,0,250,250,0,,,,,,,,,,,,,,,,
35203,0,,,,,,,,-0.13,-0.06,-0.72,-0,5,2,0.15,,55,4159,8,30,59,0.501,0.0,585,4.91,13.3,0.0,1,22.4,2.44,4.6,0,0,0,1,0,0,250,250,0,,,,,,,,,,,,,,,,
35223,0,,,,,,,,-0.1,-0.07,-0.65,-0,4,1,0.12,,55,4106,8,30,59,0.501,0.0,585,4.88,13.2,0.0,1,21.7,2.42,4.6,0,0,0,1,0,0,250,250,0,,,,,,,,,,,,,,,,
35243,0,-1,2,34,34,32,31,2,-0.12,-0.08,-0.45,-0,4,1,0.14,0,55,4075,8,30,59,0.501,0.0,590,4.88,13.0,0.0,1,21.3,1.28,4.6,0,0,0,1,0,0,250,250,0,0.0,0.0,0.0,0.0,0,0,0.0,0,0.0,-1,0.0,0.0,0.0,0,0.0,0.5874
35263,0,,,,,,,,-0.11,-0.08,-0.58,-0,4,2,0.14,,55,4110,8,30,59,0.501,0.0,586,4.93,13.3,0.0,1,21.8,2.42,4.6,0,0,0,1,0,0,250,250,0,,,,,,,,,,,,,,,,
35283,0,,,,,,,,-0.08,-0.06,-0.69,-0,3,1,0.1,,55,4101,8,30,59,0.501,0.0,579,4.91,13.3,0.0,1,21.7,2.42,4.6,0,0,0,1,0,0,250,250,0,,,,,,,,,,,,,,,,
35303,0,,,,,,,,-0.08,-0.04,-0.55,-0,2,1,0.09,,55,4012,8,30,58,0.501,0.0,581,4.87,13.0,0.0,1,20.3,1.22,4.3,0,0,0,1,0,0,250,250,0,,,,,,,,,,,,,,,,
35323,0,,,,,,,,-0.09,-0.04,-0.48,-0,3,1,0.1,,55,4111,8,30,59,0.501,0.0,585,4.93,13.2,0.0,1,21.8,1.3,4.3,0,0,0,1,0,0,250,250,0,,,,,,,,,,,,,,,,
35343,0,-0,2,34,34,32,30,1,-0.07,-0.05,-0.6,-0,3,1,0.09,0,55,4029,8,30,59,0.502,0.0,571,4.91,13.3,0.0,1,20.7,2.39,4.3,0,0,0,1,0,0,250,250,0,0.0,0.0,0.0,0.0,0,0,0.0,0,0.0,-1,0.0,,0.0,0,0.0,0.589
35363,0,,,,,,,,-0.07,-0.03,-0.51,-0,2,0,0.08,,55,3997,8,30,59,0.501,0.0,578,4.87,13.2,0.0,1,20.3,2.38,4.3,0,0,0,1,0,0,250,250,0,,,,,,,,,,,,,,,,
35383,0,,,,,,,,-0.08,-0.03,-0.48,-0,2,1,0.08,,55,4002,8,30,59,0.501,0.0,565,4.91,13.2,0.0,1,20.4,1.25,4.3,0,0,0,1,0,0,250,250,0,,,,,,,,,,,,,,,,
35403,0,,,,,,,,-0.05,-0.02,-0.6,-0,2,0,0.06,,55,3929,8,30,60,0.502,0.0,569,4.92,13.3,0.0,1,19.8,2.43,4.4,0,0,0,1,0,0,250,250,0,,,,,,,,,,,,,,,,
35423,0,,,,,,,,-0.07,-0.01,-0.48,-0,1,0,0.07,,55,3878,8,30,60,0.502,0.0,557,4.83,13.1,0.0,1,19.2,1.32,4.4,0,0,0,1,0,0,250,250,0,,,,,,,,,,,,,,,,
35443,0,-0,2,34,34,32,31,2,-0.03,-0.03,-0.61,-0,1,0,0.05,0,55,3821,8,30,61,0.502,0.0,555,4.91,13.3,0.0,1,18.7,2.49,4.4,0,0,0,1,0,0,250,250,0,0.0,0.0,0.0,0.0,0,0,0.0,0,0.0,-1,0.0,0.0,0.0,0,0.0,0.5907
35463,0,,,,,,,,-0.05,-0.02,-0.5,-0,1,0,0.06,,55,3715,8,30,61,0.502,0.0,531,4.86,13.0,0.0,1,17.5,2.55,4.4,0,0,0,1,0,0,250,250,0,,,,,,,,,,,,,,,,
35483,0,,,,,,,,-0.02,-0.03,-0.62,-0,1,0,0.04,,55,3598,8,30,62,0.502,0.0,527,4.91,13.3,0.0,1,16.4,2.56,4.4,0,0,0,1,0,0,250,250,0,,,,,,,,,,,,,,,,
35503,0,,,,,,,,-0.01,-0.04,-0.68,-0,-0,1,0.04,,55,3480,8,30,63,0.502,0.0,477,4.9,13.3,0.0,1,15.7,1.48,4.1,0,0,0,1,0,0,250,250,0,,,,,,,,,,,,,,,,
35523,0,,,,,,,,-0.06,-0.01,-0.51,-0,1,0,0.06,,55,3348,8,30,64,0.502,0.0,465,4.82,13.1,0.0,1,16.0,1.51,4.1,0,0,0,1,0,0,250,250,0,,,,,,,,,,,,,,,,
35543,0,0,1,34,34,32,31,2,-0.06,0.02,-0.63,-0,2,0,0.07,0,55,3319,8,30,65,0.502,0.0,448,4.92,13.3,0.0,1,16.4,2.64,4.1,0,0,0,1,0,0,250,250,0,0.0,0.0,0.0,0.0,0,0,0.0,0,0.0,-1,0.0,,0.0,0,0.0,0.5924
35563,0,,,,,,,,-0.03,0.01,-0.72,-0,1,0,0.04,,55,3200,8,30,66,0.502,0.0,436,4.88,13.3,0.0,1,16.7,2.64,4.1,0,0,0,1,0,0,250,250,0,,,,,,,,,,,,,,,,
35583,0,,,,,,,,0.0,0.0,-0.72,-0,-1,1,0.0,,55,3099,8,30,66,0.502,0.0,432,4.91,13.3,0.0,1,16.7,1.56,4.1,0,0,0,1,0,0,250,250,0,,,,,,,,,,,,,,,,
35603,0,,,,,,,,0.04,-0.01,-0.72,-0,-1,0,0.04,,55,3097,8,30,67,0.502,0.0,414,4.88,13.3,0.0,1,17.1,2.69,3.8,0,0,0,1,0,0,250,250,0,,,,,,,,,,,,,,,,
35623,0,,,,,,,,0.06,-0.02,-0.79,-0,-2,0,0.06,,55,3055,8,30,68,0.502,0.0,417,4.88,13.3,0.0,1,17.5,2.72,3.8,0,0,0,1,0,0,250,250,0,,,,,,,,,,,,,,,,
35643,0,0,2,34,32,32,31,1,0.08,-0.01,-0.78,-0,-3,-0,0.08,0,55,2951,8,30,68,0.502,0.0,398,4.84,13.3,0.0,1,17.3,2.67,3.8,0,0,0,1,0,0,250,250,0,0.0,0.0,0.0,0.0,0,0,0.0,0,0.0,-1,0.0,0.0,0.0,0,0.0,0.594
35663,0,,,,,,,,0.11,-0.01,-0.82,-0,-3,-0,0.11,,55,2970,8,30,69,0.502,0.0,397,4.88,13.3,0.0,1,17.6,1.6,3.8,0,0,0,1,0,0,250,250,0,,,,,,,,,,,,,,,,
35683,0,,,,,,,,0.11,0.0,-0.81,-0,-4,-0,0.11,,55,2883,8,30,70,0.502,0.0,392,4.9,13.3,0.0,1,17.4,2.64,3.8,0,0,0,1,0,0,250,250,0,,,,,,,,,,,,,,,,
35703,0,,,,,,,,0.1,0.02,-0.84,-0,-3,0,0.1,,55,2800,8,30,70,0.502,0.0,369,4.91,13.3,0.0,1,17.0,2.62,3.4,0,0,0,1,0,0,250,250,0,,,,,,,,,,,,,,,,
35723,0,,,,,,,,0.08,0.01,-0.85,-0,-3,-0,0.08,,55,2830,8,30,71,0.502,0.0,373,4.85,13.1,0.0,1,17.2,2.67,3.4,0,0,0,1,0,0,250,250,0,,,,,,,,,,,,,,,,
35743,0,0,0,34,32,31,31,2,0.06,0.02,-0.81,-0,-3,-0,0.06,0,55,2787,8,30,72,0.502,0.0,372,4.86,13.0,0.0,1,17.1,1.58,3.4,0,0,0,1,0,0,250,250,0,0.0,0.0,0.0,0.0,0,0,0.0,0,0.0,-1,0.0,,0.0,0,0.0,0.5957
35763,0,,,,,,,,0.06,0.02,-0.8,-0,-3,0,0.06,,55,2734,8,30,72,0.502,0.0,367,4.89,13.2,0.0,1,16.6,2.72,3.4,0,0,0,1,0,0,250,250,0,,,,,,,,,,,,,,,,
35783,0,,,,,,,,0.06,0.01,-0.88,-0,-3,0,0.06,,55,2740,8,30,73,0.502,0.0,372,4.91,13.3,0.0,1,16.7,2.72,3.4,0,0,0,1,0,0,250,250,0,,,,,,,,,,,,,,,,
35803,0,,,,,,,,0.08,0.0,-0.9,-0,-3,-0,0.08,,55,2780,8,30,73,0.502,0.0,368,4.9,13.3,0.0,1,17.1,2.73,3.5,0,0,0,1,0,0,250,250,0,,,,,,,,,,,,,,,,
35823,0,,,,,,,,0.08,0.01,-0.9,-0,-3,-0,0.08,,55,2774,8,30,74,0.502,0.0,364,4.9,13.3,0.0,1,17.1,2.78,3.5,0,0,0,1,0,0,250,250,0,,,,,,,,,,,,,,,,
35843,0,0,2,34,33,32,30,2,0.07,-0.0,-0.92,-0,-3,-0,0.07,0,55,2725,8,30,74,0.502,0.0,365,4.93,13.2,0.0,1,16.6,2.76,3.5,0,0,0,1,0,0,250,250,0,0.0,0.0,0.0,0.0,0,0,0.0,0,0.0,-1,0.0,0.0,0.0,0,0.0,0.5974
35863,0,,,,,,,,0.05,0.01,-0.86,-0,-3,-0,0.05,,55,2726,8,30,74,0.503,0.0,362,4.86,13.1,0.0,1,16.6,2.76,3.5,0,0,0,1,0,0,250,250,0,,,,,,,,,,,,,,,,
35883,0,,,,,,,,0.03,0.02,-0.83,-0,-2,-0,0.04,,55,2792,8,30,75,0.503,0.0,370,4.92,13.3,0.0,1,17.9,2.84,3.5,0,0,0,1,0,0,250,250,0,,,,,,,,,,,,,,,,
35903,0,,,,,,,,0.03,0.01,-0.89,-0,-1,-0,0.03,,55,2884,8,30,75,0.503,0.0,383,4.88,13.3,0.0,1,18.4,1.73,3.7,0,0,0,1,0,0,250,250,0,,,,,,,,,,,,,,,,
35923,0,,,,,,,,0.04,-0.01,-0.95,-0,-1,0,0.04,,55,2861,8,30,75,0.503,0.0,375,4.92,13.3,0.0,1,18.1,1.73,3.7,0,0,0,1,0,0,250,250,0,,,,,,,,,,,,,,,,
35943,0,-1,2,34,33,32,30,2,0.06,-0.03,-0.98,-0,-1,-0,0.07,0,55,2805,8,30,76,0.503,0.0,376,4.91,13.3,0.0,1,17.6,1.76,3.7,0,0,0,1,0,0,250,250,0,0.0,0.0,0.0,0.0,0,0,0.0,0,0.0,-1,0.0,,0.0,0,0.0,0.599
35963,0,,,,,,,,0.08,-0.04,-0.98,-0,-2,-0,0.09,,55,2881,8,30,76,0.503,0.0,376,4.9,13.3,0.0,1,18.5,2.88,3.7,0,0,0,1,0,0,250,250,0,,,,,,,,,,,,,,,,
35983,0,,,,,,,,0.1,-0.04,-0.98,-0,-2,-0,0.11,,55,2936,8,30,75,0.503,0.0,381,4.86,13.3,0.0,1,18.9,1.74,3.7,0,0,0,1,0,0,250,250,0,,,,,,,,,,,,,,,,
36003,0,,,,,,,,0.11,-0.02,-0.97,-0,-3,-0,0.11,,55,2902,8,30,76,0.503,0.0,389,4.91,13.3,0.0,1,18.8,2.88,3.8,0,0,0,1,0,0,250,250,0,,,,,,,,,,,,,,,,
36023,0,,,,,,,,0.09,0.0,-1.0,-0,-2,-0,0.09,,55,2885,8,30,76,0.503,0.0,384,4.91,13.3,0.0,1,18.6,2.88,3.8,0,0,0,1,0,0,250,250,0,,,,,,,,,,,,,,,,
36043,0,1,3,34,33,32,31,0,0.08,0.01,-1.04,-0,-2,0,0.08,0,55,2945,8,30,76,0.503,0.0,387,4.91,13.3,0.0,1,19.3,2.88,3.8,0,0,0,1,0,0,250,250,0,0.0,0.0,0.0,0.0,0,0,0.0,0,0.0,-1,0.0,0.0,0.0,0,0.0,0.6007
36063,0,,,,,,,,0.06,0.02,-1.05,-0,-2,0,0.06,,55,2954,8,30,75,0.503,0.0,397,4.88,13.3,0.0,1,19.1,1.74,3.8,0,0,0,1,0,0,250,250,0,,,,,,,,,,,,,,,,
36083,0,,,,,,,,0.05,0.03,-1.03,-0,-3,-0,0.06,,55,2950,8,30,76,0.503,0.0,386,4.95,13.3,0.0,1,19.4,1.77,3.8,0,0,0,1,0,0,250,250,0,,,,,,,,,,,,,,,,
36103,0,,,,,,,,0.03,0.01,-1.01,-0,-3,-0,0.03,,55,2991,8,30,75,0.503,0.0,399,4.87,13.3,0.0,1,19.5,2.88,3.9,0,0,0,1,0,0,250,250,0,,,,,,,,,,,,,,,,
36123,0,,,,,,,,0.02,0.02,-1.03,-0,-3,-0,0.03,,55,3060,8,30,76,0.503,0.0,398,4.93,13.3,0.0,1,20.0,1.77,3.9,0,0,0,1,0,0,250,250,0,,,,,,,,,,,,,,,,
36143,0,0,2,34,33,32,31,0,0.01,0.01,-1.06,-0,-3,0,0.02,0,55,3078,8,30,75,0.503,0.0,407,4.91,13.2,0.0,1,19.6,2.86,3.9,0,0,0,1,0,0,250,250,0,0.0,0.0,0.0,0.0,0,0,0.0,0,0.0,-1,0.0,,0.0,0,0.0,0.6024
36163,0,,,,,,,,0.01,0.02,-1.09,-0,-4,0,0.03,,55,3082,8,30,75,0.503,0.0,411,4.93,13.3,0.0,1,19.6,1.75,3.9,0,0,0,1,0,0,250,250,0,,,,,,,,,,,,,,,,
36183,0,,,,,,,,0.02,0.03,-1.11,-0,-4,1,0.04,,55,3116,8,30,75,0.503,0.0,413,4.91,13.3,0.0,1,19.6,2.85,3.9,0,0,0,1,0,0,250,250,0,,,,,,,,,,,,,,,,
36203,0,,,,,,,,0.06,0.02,-1.1,-0,-5,0,0.06,,55,3194,8,30,75,0.503,0.0,431,4.89,13.3,0.0,1,19.6,2.84,4.2,0,0,0,1,0,0,250,250,0,,,,,,,,,,,,,,,,
36223,0,,,,,,,,0.08,0.01,-1.18,-0,-5,1,0.08,,55,3246,8,30,75,0.503,0.0,435,4.9,13.3,0.0,1,19.6,2.83,4.2,0,0,0,1,0,0,250,250,0,,,,,,,,,,,,,,,,
36243,0,-0,2,34,32,32,31,1,0.05,0.03,-1.12,-0,-3,1,0.06,0,55,3256,8,30,75,0.503,0.0,436,4.87,13.2,0.0,1,19.6,1.72,4.2,0,0,0,1,0,0,250,250,0,0.0,0.0,0.0,0.0,0,0,0.0,0,0.0,-1,0.0,0.0,0.0,0,0.0,0.604
36263,0,,,,,,,,0.01,0.04,-1.0,-0,-2,0,0.04,,55,3296,8,30,74,0.503,0.0,441,4.86,13.1,0.0,1,19.3,2.81,4.2,0,0,0,1,0,0,250,250,0,,,,,,,,,,,,,,,,
36283,0,,,,,,,,0.01,0.05,-1.03,-0,-2,0,0.05,,55,3372,8,30,75,0.503,0.0,444,4.88,13.2,0.0,1,19.6,2.8,4.2,0,0,0,1,0,0,250,250,0,,,,,,,,,,,,,,,,
36303,0,,,,,,,,0.06,0.02,-1.11,-0,-3,0,0.06,,55,3394,8,30,75,0.502,0.0,466,4.91,13.3,0.0,1,19.6,1.69,4.3,0,0,0,1,0,0,250,250,0,,,,,,,,,,,,,,,,
36323,0,,,,,,,,0.05,0.02,-1.1,-0,-3,1,0.06,,55,3427,8,30,75,0.502,0.0,458,4.9,13.2,0.0,1,19.6,1.69,4.3,0,0,0,1,0,0,250,250,0,,,,,,,,,,,,,,,,
36343,0,-1,2,34,33,32,30,2,0.01,0.02,-0.98,-0,-1,0,0.03,0,55,3447,8,30,74,0.502,0.0,471,4.85,13.1,0.0,1,19.3,2.78,4.3,0,0,0,1,0,0,250,250,0,0.0,0.0,0.0,0.0,0,0,0.0,0,0.0,-1,0.0,,0.0,0,0.0,0.6057
36363,0,,,,,,,,0.05,-0.01,-1.06,-0,-2,0,0.05,,55,3443,8,30,75,0.502,0.0,462,4.91,13.3,0.0,1,19.6,1.69,4.3,0,0,0,1,0,0,250,250,0,,,,,,,,,,,,,,,,
36383,0,,,,,,,,0.06,-0.01,-1.13,-0,-3,1,0.06,,55,3492,8,30,74,0.502,0.0,491,4.91,13.2,0.0,1,19.3,1.67,4.3,0,0,0,1,0,0,250,250,0,,,,,,,,,,,,,,,,
36403,0,,,,,,,,0.01,0.03,-0.93,-0,-1,-0,0.03,,56,3552,8,30,74,0.502,0.0,487,4.92,13.2,0.0,1,19.8,2.76,4.5,0,0,0,1,0,0,250,250,0,,,,,,,,,,,,,,,,
36423,0,,,,,,,,0.04,0.0,-1.01,-0,-2,0,0.04,,56,3537,8,30,74,0.502,0.0,490,4.9,13.3,0.0,1,19.6,2.76,4.5,0,0,0,1,0,0,250,250,0,,,,,,,,,,,,,,,,
36443,0,1,0,34,34,32,30,2,0.03,0.01,-0.98,-0,-2,1,0.03,0,56,3588,8,30,74,0.502,0.0,496,4.87,13.1,0.0,1,20.1,1.64,4.5,0,0,0,1,0,0,250,250,0,0.0,0.0,0.0,0.0,0,0,0.0,0,0.0,-1,0.0,0.0,0.0,0,0.0,0.6074
36463,0,,,,,,,,0.01,0.01,-0.94,-0,-1,0,0.01,,56,3606,8,30,74,0.502,0.0,497,4.9,13.2,0.0,1,20.2,2.74,4.5,0,0,0,1,0,0,250,250,0,,,,,,,,,,,,,,,,
36483,0,,,,,,,,0.06,0.0,-1.03,-0,-2,0,0.06,,56,3599,8,30,74,0.502,0.0,499,4.9,13.3,0.0,1,20.2,1.63,4.5,0,0,0,1,0,0,250,250,0,,,,,,,,,,,,,,,,
36503,0,,,,,,,,0.01,0.03,-0.82,-0,-1,0,0.03,,56,3654,8,30,73,0.502,0.0,512,4.87,13.2,0.0,1,20.3,2.73,4.5,0,0,0,1,0,0,250,250,0,,,,,,,,,,,,,,,,
36523,0,,,,,,,,0.03,0.02,-0.92,-0,-1,0,0.04,,56,3667,8,30,74,0.502,0.0,509,4.87,13.3,0.0,1,20.7,2.72,4.5,0,0,0,1,0,0,250,250,0,,,,,,,,,,,,,,,,
36543,0,-1,2,34,34,32,30,2,0.01,0.0,-0.77,-0,-1,0,0.01,0,56,3621,8,30,73,0.502,0.0,516,4.86,13.0,0.0,1,20.0,2.73,4.5,0,0,0,1,0,0,250,250,0,0.0,0.0,0.0,0.0,0,0,0.0,0,0.0,-1,0.0,,0.0,0,0.0,0.609
36563,0,,,,,,,,0.03,-0.01,-0.85,-0,-1,0,0.03,,56,3664,8,30,73,0.502,0.0,511,4.93,13.3,0.0,1,20.4,2.72,4.5,0,0,0,1,0,0,250,250,0,,,,,,,,,,,,,,,,
36583,0,,,,,,,,0.02,0.0,-0.83,-0,-1,0,0.02,,56,3725,8,30,73,0.502,0.0,524,4.86,13.1,0.0,1,21.0,1.59,4.5,0,0,0,1,0,0,250,250,0,,,,,,,,,,,,,,,,
36603,0,,,,,,,,0.02,0.0,-0.86,-0,-1,0,0.02,,56,3683,8,30,73,0.502,0.0,524,4.93,13.3,0.0,1,20.6,1.61,4.6,0,0,0,1,0,0,250,250,0,,,,,,,,,,,,,,,,
36623,0,,,,,,,,0.03,0.02,-0.94,-0,-1,1,0.03,,56,3677,8,30,73,0.502,0.0,514,4.9,13.2,0.0,1,20.5,1.59,4.6,0,0,0,1,0,0,250,250,0,,,,,,,,,,,,,,,,
36643,0,0,1,34,34,32,30,2,0.01,0.03,-0.89,-0,-0,0,0.03,0,56,3770,8,30,72,0.502,0.0,537,4.89,13.3,0.0,1,21.2,2.69,4.6,0,0,0,1,0,0,250,250,0,0.0,0.0,0.0,0.0,0,0,0.0,0,0.0,-1,0.0,0.0,0.0,0,0.0,0.6107
36663,0,,,,,,,,0.02,0.03,-0.96,-0,-1,1,0.03,,56,3768,8,30,73,0.502,0.0,535,4.91,13.1,0.0,1,21.3,1.57,4.6,0,0,0,1,0,0,250,250,0,,,,,,,,,,,,,,,,
36683,0,,,,,,,,0.01,0.03,-0.98,-0,-0,1,0.03,,56,3738,8,30,72,0.502,0.0,534,4.93,13.3,0.0,1,20.8,2.7,4.6,0,0,0,1,0,0,250,250,0,,,,,,,,,,,,,,,,
36703,0,,,,,,,,0.01,0.03,-0.97,-0,-0,1,0.03,,56,3802,8,30,72,0.502,0.0,529,4.88,13.1,0.0,1,21.4,1.58,4.7,0,0,0,1,0,0,250,250,0,,,,,,,,,,,,,,,,
36723,0,,,,,,,,0.02,-0.01,-1.0,-0,-1,1,0.02,,56,3837,8,30,72,0.502,0.0,551,4.92,13.3,0.0,1,21.7,2.68,4.7,0,0,0,1,0,0,250,250,0,,,,,,,,,,,,,,,,
36743,0,-1,2,34,34,32,30,2,0.01,0.01,-0.88,-0,-1,1,0.01,0,56,3819,8,30,72,0.502,0.0,538,4.87,13.0,0.0,1,21.6,1.57,4.7,0,0,0,1,0,0,250,250,0,0.0,0.0,0.0,0.0,0,0,0.0,0,0.0,-1,0.0,,0.0,0,0.0,0.6124
36763,0,,,,,,,,0.03,0.0,-0.97,-0,-0,1,0.03,,56,3834,8,30,72,0.502,0.0,556,4.94,13.3,0.0,1,21.7,2.68,4.7,0,0,0,1,0,0,250,250,0,,,,,,,,,,,,,,,,
36783,0,,,,,,,,0.01,0.0,-0.77,-0,-1,0,0.01,,56,3877,8,30,71,0.502,0.0,543,4.85,13.2,0.0,1,21.8,2.68,4.7,0,0,0,1,0,0,250,250,0,,,,,,,,,,,,,,,,
36803,0,,,,,,,,0.03,-0.01,-0.88,-0,-0,1,0.03,,56,3899,8,30,71,0.502,0.0,557,4.89,13.3,0.0,1,22.0,1.57,4.8,0,0,0,1,0,0,250,250,0,,,,,,,,,,,,,,,,
36823,0,,,,,,,,0.04,0.02,-0.83,-0,-1,0,0.04,,56,3937,8,30,71,0.502,0.0,555,4.93,13.3,0.0,1,22.4,2.67,4.8,0,0,0,1,0,0,250,250,0,,,,,,,,,,,,,,,,
36843,0,0,2,34,33,32,31,0,0.02,0.03,-0.68,-0,-1,-0,0.04,0,56,3987,8,30,70,0.502,0.0,565,4.85,13.0,0.0,1,22.7,2.68,4.8,0,0,0,1,0,0,250,250,0,0.0,0.0,0.0,0.0,0,0,0.0,0,0.0,-1,0.0,0.0,0.0,0,0.0,0.614
36863,0,,,,,,,,0.03,0.01,-0.79,-0,0,1,0.03,,56,4038,8,30,70,0.502,0.0,568,4.91,13.2,0.0,1,23.4,1.58,4.8,0,0,0,1,0,0,250,250,0,,,,,,,,,,,,,,,,
36883,0,,,,,,,,0.06,0.0,-0.82,-0,-1,0,0.06,,56,4091,8,30,69,0.502,0.0,578,4.88,13.3,0.0,1,23.9,2.75,4.8,0,0,0,1,0,0,250,250,0,,,,,,,,,,,,,,,,
36903,0,,,,,,,,0.06,0.01,-0.59,-0,-3,-1,0.06,,56,4201,8,30,68,0.502,0.0,585,4.86,13.1,0.0,1,25.2,2.81,5.3,0,0,0,1,0,0,250,250,0,,,,,,,,,,,,,,,,
36923,0,,,,,,,,0.03,0.01,-0.37,-0,-2,-1,0.03,,56,4238,8,30,67,0.502,0.0,601,4.86,13.1,0.0,1,25.4,1.66,5.3,0,0,0,1,0,0,250,250,0,,,,,,,,,,,,,,,,
36943,0,1,0,34,34,31,31,1,-0.01,0.03,-0.51,-0,-0,-1,0.03,0,56,4238,8,30,67,0.502,0.0,612,4.92,13.1,0.0,1,25.4,1.66,5.3,0,0,0,1,0,0,250,250,0,0.0,0.0,0.0,0.0,0,0,0.0,0,0.0,-1,0.0,,0.0,0,0.0,0.6157
36963,0,,,,,,,,-0.02,-0.01,-0.63,-0,1,1,0.02,,56,4281,8,30,66,0.502,0.0,598,4.92,13.2,0.0,1,25.7,2.75,5.3,0,0,0,1,0,0,250,250,0,,,,,,,,,,,,,,,,
36983,0,,,,,,,,0.01,-0.02,-0.75,-0,2,2,0.03,,56,4352,8,30,65,0.502,0.0,615,4.89,13.3,0.0,1,26.5,1.63,5.3,0,0,0,1,0,0,250,250,0,,,,,,,,,,,,,,,,
37003,0,,,,,,,,0.06,-0.02,-0.85,-0,1,2,0.07,,56,4353,8,30,65,0.502,0.0,612,4.88,13.3,0.0,1,26.5,2.74,5.5,0,0,0,1,0,0,250,250,0,,,,,,,,,,,,,,,,
37023,0,,,,,,,,0.14,-0.03,-0.83,-0,-1,1,0.14,,56,4390,8,30,64,0.502,0.0,617,4.89,13.3,0.0,1,26.7,2.71,5.5,0,0,0,1,0,0,250,250,0,,,,,,,,,,,,,,,,
37043,0,0,1,34,34,32,30,2,0.19,-0.05,-0.93,-0,-4,0,0.2,0,56,4436,8,30,64,0.502,0.0,617,4.92,13.3,0.0,1,27.3,2.73,5.5,0,0,0,1,0,0,250,250,0,0.0,0.0,0.0,0.0,0,0,0.0,0,0.0,-1,0.0,0.0,0.0,0,0.0,0.6174
37063,0,,,,,,,,0.25,-0.06,-0.73,-0,-7,-1,0.26,,56,4463,8,30,63,0.501,0.0,618,4.89,13.3,0.0,1,27.4,2.7,5.5,0,0,0,1,0,0,250,250,0,,,,,,,,,,,,,,,,
37083,0,,,,,,,,0.31,-0.08,-0.84,-0,-9,-2,0.32,,56,4507,8,30,63,0.501,0.0,633,4.94,13.3,0.0,1,28.0,2.71,5.5,0,0,0,1,0,0,250,250,0,,,,,,,,,,,,,,,,
37103,0,,,,,,,,0.36,-0.1,-0.94,-0,-10,-3,0.38,,56,4536,8,30,62,0.501,0.0,625,4.89,13.3,0.0,1,28.1,2.67,5.7,0,0,0,1,0,0,250,250,0,,,,,,,,,,,,,,,,
37123,0,,,,,,,,0.4,-0.15,-1.02,-0,-12,-3,0.43,,56,4558,8,30,62,0.501,0.0,626,4.88,13.3,0.0,1,28.4,2.68,5.7,0,0,0,1,0,0,250,250,0,,,,,,,,,,,,,,,,
37143,0,1,2,34,34,32,31,1,0.43,-0.16,-1.11,-0,-13,-2,0.46,0,56,4595,8,30,61,0.501,0.0,629,4.92,13.3,0.0,1,28.6,2.66,5.7,0,0,0,1,0,0,250,250,0,0.0,0.0,0.0,0.0,0,0,0.0,0,0.0,-1,0.0,,0.0,0,0.0,0.6191
37163,0,,,,,,,,0.4,-0.15,-1.18,-0,-12,-1,0.43,,56,4615,8,30,61,0.501,0.0,626,4.92,13.3,0.0,1,28.9,1.55,5.7,0,0,0,1,0,0,250,250,0,,,,,,,,,,,,,,,,
37183,0,,,,,,,,0.35,-0.15,-1.25,-0,-11,1,0.38,,56,4586,8,30,61,0.501,0.0,632,4.96,13.3,0.0,1,28.5,1.54,5.7,0,0,0,1,0,0,250,250,0,,,,,,,,,,,,,,,,
37203,0,,,,,,,,0.27,-0.11,-1.31,-0,-10,2,0.29,,56,4634,8,30,60,0.501,0.0,623,4.87,13.2,0.0,1,28.9,1.55,5.6,0,0,0,1,0,0,250,250,0,,,,,,,,,,,,,,,,
37223,0,,,,,,,,0.14,-0.07,-1.31,-0,-7,4,0.16,,56,4587,8,30,60,0.501,0.0,622,4.88,13.3,0.0,1,28.2,2.64,5.6,0,0,0,1,0,0,250,250,0,,,,,,,,,,,,,,,,
37243,0,1,2,34,34,32,31,1,0.03,-0.05,-1.14,-0,-4,5,0.06,0,56,4553,8,30,59,0.501,0.0,620,4.91,13.2,0.0,1,27.5,2.62,5.6,0,0,0,1,0,0,250,250,0,0.0,0.0,0.0,0.0,0,0,0.0,0,0.0,-1,0.0,0.0,0.0,0,0.0,0.6207
37263,0,,,,,,,,-0.07,-0.01,-0.97,-0,-1,6,0.07,,56,4538,8,30,59,0.501,0.0,618,4.95,13.1,0.0,1,27.3,1.5,5.6,0,0,0,1,0,0,250,250,0,,,,,,,,,,,,,,,,
37283,0,,,,,,,,-0.16,-0.0,-0.87,-0,1,6,0.16,,56,4492,8,30,59,0.501,0.0,618,4.93,13.1,0.0,1,26.7,1.47,5.6,0,0,0,1,0,0,250,250,0,,,,,,,,,,,,,,,,
37303,0,,,,,,,,-0.23,0.01,-0.85,-0,3,7,0.23,,56,4447,8,30,59,0.501,0.0,615,4.95,13.2,0.0,1,26.1,1.46,5.2,0,0,0,1,0,0,250,250,0,,,,,,,,,,,,,,,,
37323,0,,,,,,,,-0.28,0.02,-0.91,-0,5,7,0.28,,56,4468,8,30,59,0.501,0.0,622,4.92,13.2,0.0,1,26.4,1.47,5.2,0,0,0,1,0,0,250,250,0,,,,,,,,,,,,,,,,
37343,0,1,2,34,34,32,31,1,-0.29,0.01,-1.0,-0,5,8,0.29,0,56,4361,8,30,59,0.501,0.0,619,4.92,13.2,0.0,1,25.0,1.42,5.2,0,0,0,1,0,0,250,250,0,0.0,0.0,0.0,0.0,0,0,0.0,0,0.0,-1,0.0,,0.0,0,0.0,0.6224
37363,0,,,,,,,,-0.26,0.0,-1.08,-0,4,7,0.26,,56,4320,8,30,59,0.501,0.0,609,4.9,13.3,0.0,1,24.5,2.52,5.2,0,0,0,1,0,0,250,250,0,,,,,,,,,,,,,,,,
37383,0,,,,,,,,-0.19,0.01,-1.16,-0,2,7,0.19,,56,4329,8,30,59,0.501,0.0,616,4.88,13.3,0.0,1,24.6,2.53,5.2,0,0,0,1,0,0,250,250,0,,,,,,,,,,,,,,,,
37403,0,,,,,,,,-0.12,-0.0,-1.17,-0,-0,5,0.12,,56,4286,8,30,58,0.501,0.0,604,4.9,13.2,0.0,1,23.8,1.36,4.9,0,0,0,1,0,0,250,250,0,,,,,,,,,,,,,,,,
37423,0,,,,,,,,-0.09,-0.0,-0.9,-0,-1,4,0.09,,56,4263,8,30,59,0.501,0.0,610,4.88,13.2,0.0,1,23.7,1.37,4.9,0,0,0,1,0,0,250,250,0,,,,,,,,,,,,,,,,
37443,0,0,3,34,34,32,31,1,-0.1,0.02,-0.66,-0,-0,4,0.1,0,56,4235,8,30,59,0.501,0.0,605,4.87,13.0,0.0,1,23.4,1.36,4.9,0,0,0,1,0,0,250,250,0,0.0,0.0,0.0,0.0,0,0,0.0,0,0.0,-1,0.0,0.0,0.0,0,0.0,0.624
37463,0,,,,,,,,-0.13,0.04,-0.65,-0,2,4,0.13,,56,4243,8,30,59,0.501,0.0,613,4.89,13.2,0.0,1,23.5,2.48,4.9,0,0,0,1,0,0,250,250,0,,,,,,,,,,,,,,,,
37483,0,,,,,,,,-0.12,0.03,-0.76,-0,2,4,0.13,,56,4162,8,30,59,0.501,0.0,591,4.88,13.3,0.0,1,22.5,2.44,4.9,0,0,0,1,0,0,250,250,0,,,,,,,,,,,,,,,,
37503,0,,,,,,,,-0.07,0.03,-0.86,-0,-0,3,0.08,,56,4171,8,30,59,0.501,0.0,591,4.88,13.3,0.0,1,22.6,2.45,4.6,0,0,0,1,0,0,250,250,0,,,,,,,,,,,,,,,,
37523,0,,,,,,,,-0.03,0.04,-0.66,-0,-2,2,0.05,,56,4250,8,30,59,0.501,0.0,606,4.85,13.1,0.0,1,23.6,2.49,4.6,0,0,0,1,0,0,250,250,0,,,,,,,,,,,,,,,,
37543,0,1,2,34,34,32,31,2,-0.05,0.04,-0.44,-0,-1,2,0.07,0,56,4113,8,30,59,0.501,0.0,595,4.85,13.0,0.0,1,21.8,1.31,4.6,0,0,0,1,0,0,250,250,0,0.0,0.0,0.0,0.0,0,0,0.0,0,0.0,-1,0.0,,0.0,0,0.0,0.6257
37563,0,,,,,,,,-0.06,0.05,-0.57,-0,0,3,0.08,,56,4112,8,30,59,0.501,0.0,584,4.9,13.2,0.0,1,21.8,1.31,4.6,0,0,0,1,0,0,250,250,0,,,,,,,,,,,,,,,,
37583,0,,,,,,,,-0.03,0.01,-0.69,-0,0,3,0.03,,56,4183,8,30,59,0.501,0.0,588,4.93,13.3,0.0,1,22.7,2.45,4.6,0,0,0,1,0,0,250,250,0,,,,,,,,,,,,,,,,
37603,0,,,,,,,,-0.01,-0.01,-0.64,-0,-1,2,0.02,,56,4129,8,30,59,0.501,0.0,591,4.9,13.3,0.0,1,22.0,2.43,4.7,0,0,0,1,0,0,250,250,0,,,,,,,,,,,,,,,,
37623,0,,,,,,,,-0.04,-0.02,-0.43,-0,-0,2,0.04,,56,4097,8,30,59,0.501,0.0,580,4.88,13.0,0.0,1,21.6,1.29,4.7,0,0,0,1,0,0,250,250,0,,,,,,,,,,,,,,,,
37643,0,1,0,34,34,32,30,2,-0.07,0.01,-0.56,-0,1,3,0.07,0,56,4146,8,30,59,0.502,0.0,591,4.9,13.2,0.0,1,22.3,2.44,4.7,0,0,0,1,0,0,250,250,0,0.0,0.0,0.0,0.0,0,0,0.0,0,0.0,-1,0.0,0.0,0.0,0,0.0,0.6274
37663,0,,,,,,,,-0.04,0.01,-0.68,-0,0,2,0.04,,56,4072,8,30,59,0.502,0.0,577,4.91,13.3,0.0,1,21.3,2.4,4.7,0,0,0,1,0,0,250,250,0,,,,,,,,,,,,,,,,
37683,0,,,,,,,,-0.02,0.01,-0.53,-0,-1,1,0.02,,56,4092,8,30,59,0.501,0.0,584,4.86,13.2,0.0,1,21.6,2.41,4.7,0,0,0,1,0,0,250,250,0,,,,,,,,,,,,,,,,
37703,0,,,,,,,,-0.04,0.01,-0.33,-0,0,1,0.05,,56,4135,8,30,59,0.501,0.0,580,4.9,13.1,0.0,1,22.0,2.43,4.5,0,0,0,1,0,0,250,250,0,,,,,,,,,,,,,,,,
37723,0,,,,,,,,-0.04,-0.0,-0.47,-0,1,2,0.04,,56,4078,8,30,59,0.502,0.0,588,4.91,13.2,0.0,1,21.4,1.28,4.5,0,0,0,1,0,0,250,250,0,,,,,,,,,,,,,,,,
37743,0,-1,2,34,34,32,30,2,-0.01,-0.0,-0.58,-0,-0,1,0.01,0,56,4027,8,30,58,0.502,0.0,572,4.88,13.3,0.0,1,20.5,2.34,4.5,0,0,0,1,0,0,250,250,0,0.0,0.0,0.0,0.0,0,0,0.0,0,0.0,-1,0.0,,0.0,0,0.0,0.629
37763,0,,,,,,,,-0.02,-0.0,-0.39,-0,-1,1,0.02,,56,3979,8,30,59,0.502,0.0,577,4.86,13.0,0.0,1,20.1,2.38,4.5,0,0,0,1,0,0,250,250,0,,,,,,,,,,,,,,,,
37783,0,,,,,,,,-0.0,-0.04,-0.52,-0,-0,1,0.04,,56,3959,8,30,59,0.502,0.0,568,4.91,13.3,0.0,1,19.9,2.38,4.5,0,0,0,1,0,0,250,250,0,,,,,,,,,,,,,,,,
37803,0,,,,,,,,0.0,-0.04,-0.55,-0,-0,1,0.04,,56,3897,8,30,59,0.502,0.0,562,4.86,13.2,0.0,1,19.2,2.4,4.3,0,0,0,1,0,0,250,250,0,,,,,,,,,,,,,,,,
37823,0,,,,,,,,0.0,-0.02,-0.5,-0,-0,1,0.02,,56,3850,8,30,60,0.502,0.0,560,4.9,13.1,0.0,1,18.9,1.33,4.3,0,0,0,1,0,0,250,250,0,,,,,,,,,,,,,,,,
37843,0,0,1,34,34,32,30,2,-0.0,0.01,-0.61,-0,0,1,0.01,0,56,3753,8,30,61,0.502,0.0,533,4.9,13.3,0.0,1,17.9,2.51,4.3,0,0,0,1,0,0,250,250,0,0.0,0.0,0.0,0.0,0,0,0.0,0,0.0,-1,0.0,0.0,0.0,0,0.0,0.6307
37863,0,,,,,,,,0.02,-0.01,-0.71,-0,-1,1,0.02,,56,3637,8,30,62,0.502,0.0,526,4.91,13.2,0.0,1,16.9,1.44,4.3,0,0,0,1,0,0,250,250,0,,,,,,,,,,,,,,,,
37883,0,,,,,,,,-0.03,-0.02,-0.55,-0,0,0,0.04,,56,3473,8,30,62,0.502,0.0,498,4.85,13.1,0.0,1,15.3,2.58,4.3,0,0,0,1,0,0,250,250,0,,,,,,,,,,,,,,,,
37903,0,,,,,,,,-0.01,-0.02,-0.67,-0,0,0,0.03,,56,3446,8,30,64,0.502,0.0,463,4.92,13.3,0.0,1,16.0,2.62,4.1,0,0,0,1,0,0,250,250,0,,,,,,,,,,,,,,,,
37923,0,,,,,,,,0.04,-0.02,-0.76,-0,-2,1,0.05,,56,3417,8,30,65,0.502,0.0,482,4.89,13.3,0.0,1,16.4,1.53,4.1,0,0,0,1,0,0,250,250,0,,,,,,,,,,,,,,,,
37943,0,0,1,34,34,32,31,0,0.02,-0.01,-0.74,-0,-1,1,0.02,0,56,3295,8,30,65,0.502,0.0,451,4.92,13.2,0.0,1,16.4,2.64,4.1,0,0,0,1,0,0,250,250,0,0.0,0.0,0.0,0.0,0,0,0.0,0,0.0,-1,0.0,,0.0,0,0.0,0.6324
37963,0,,,,,,,,-0.01,-0.01,-0.72,-0,1,1,0.02,,56,3104,8,30,66,0.502,0.0,442,4.86,13.0,0.0,1,16.7,1.56,4.1,0,0,0,1,0,0,250,250,0,,,,,,,,,,,,,,,,
37983,0,,,,,,,,-0.03,-0.03,-0.71,-0,2,1,0.04,,56,3011,8,30,67,0.502,0.0,414,4.88,13.1,0.0,1,17.1,2.69,4.1,0,0,0,1,0,0,250,250,0,,,,,,,,,,,,,,,,
38003,0,,,,,,,,-0.04,-0.01,-0.68,-0,2,0,0.04,,56,3008,8,30,67,0.502,0.0,410,4.89,13.1,0.0,1,17.1,2.69,3.6,0,0,0,1,0,0,250,250,0,,,,,,,,,,,,,,,,
38023,0,,,,,,,,-0.06,-0.01,-0.66,-0,3,0,0.06,,56,2988,8,30,68,0.502,0.0,407,4.9,13.1,0.0,1,17.4,1.59,3.6,0,0,0,1,0,0,250,250,0,,,,,,,,,,,,,,,,
38043,0,-1,2,34,33,31,31,2,-0.07,-0.02,-0.64,-0,3,0,0.07,0,56,2950,8,30,69,0.502,0.0,394,4.87,13.1,0.0,1,17.4,2.69,3.6,0,0,0,1,0,0,250,250,0,0.0,0.0,0.0,0.0,0,0,0.0,0,0.0,-1,0.0,0.0,0.0,0,0.0,0.634
38063,0,,,,,,,,-0.06,-0.05,-0.7,-0,3,0,0.08,,56,2859,8,30,70,0.502,0.0,391,4.9,13.2,0.0,1,17.3,1.55,3.6,0,0,0,1,0,0,250,250,0,,,,,,,,,,,,,,,,
38083,0,,,,,,,,-0.03,-0.06,-0.79,-0,3,0,0.07,,56,2765,8,30,70,0.502,0.0,374,4.9,13.3,0.0,1,16.8,1.48,3.6,0,0,0,1,0,0,250,250,0,,,,,,,,,,,,,,,,
38103,0,,,,,,,,-0.02,-0.05,-0.75,-0,3,0,0.06,,56,2724,8,30,71,0.502,0.0,358,4.89,13.3,0.0,1,16.6,2.62,3.3,0,0,0,1,0,0,250,250,0,,,,,,,,,,,,,,,,
38123,0,,,,,,,,-0.02,-0.04,-0.78,-0,3,0,0.05,,56,2782,8,30,72,0.502,0.0,368,4.91,13.3,0.0,1,17.0,2.69,3.3,0,0,0,1,0,0,250,250,0,,,,,,,,,,,,,,,,
38143,0,1,0,34,34,31,31,1,-0.04,-0.05,-0.78,-0,2,0,0.06,0,56,2770,8,30,72,0.502,0.0,369,4.9,13.2,0.0,1,17.0,2.68,3.3,0,0,0,1,0,0,250,250,0,0.0,0.0,0.0,0.0,0,0,0.0,0,0.0,-1,0.0,,0.0,0,0.0,0.6357
38163,0,,,,,,,,-0.04,-0.04,-0.76,-0,2,0,0.06,,56,2687,8,30,73,0.502,0.0,364,4.88,13.2,0.0,1,16.4,1.59,3.3,0,0,0,1,0,0,250,250,0,,,,,,,,,,,,,,,,
38183,0,,,,,,,,-0.04,-0.04,-0.86,-0,2,1,0.06,,56,2678,8,30,74,0.503,0.0,362,4.92,13.3,0.0,1,16.2,1.64,3.3,0,0,0,1,0,0,250,250,0,,,,,,,,,,,,,,,,
38203,0,,,,,,,,-0.01,-0.04,-0.89,-0,2,0,0.05,,56,2772,8,30,74,0.503,0.0,357,4.91,13.3,0.0,1,17.1,2.78,3.5,0,0,0,1,0,0,250,250,0,,,,,,,,,,,,,,,,
38223,0,,,,,,,,0.01,-0.03,-0.88,-0,1,0,0.03,,56,2826,8,30,74,0.503,0.0,371,4.89,13.3,0.0,1,17.6,2.79,3.5,0,0,0,1,0,0,250,250,0,,,,,,,,,,,,,,,,
38243,0,0,1,34,34,32,30,2,0.01,-0.02,-0.91,-0,1,0,0.02,0,56,2771,8,30,74,0.503,0.0,370,4.91,13.3,0.0,1,17.1,2.77,3.5,0,0,0,1,0,0,250,250,0,0.0,0.0,0.0,0.0,0,0,0.0,0,0.0,-1,0.0,0.0,0.0,0,0.0,0.6374
38263,0,,,,,,,,-0.0,-0.02,-0.91,-0,1,0,0.02,,56,2720,8,30,74,0.503,0.0,358,4.92,13.2,0.0,1,16.6,1.65,3.5,0,0,0,1,0,0,250,250,0,,,,,,,,,,,,,,,,
38283,0,,,,,,,,-0.02,-0.0,-0.85,-0,1,-0,0.02,,56,2832,8,30,75,0.503,0.0,369,4.88,13.1,0.0,1,17.7,2.83,3.5,0,0,0,1,0,0,250,250,0,,,,,,,,,,,,,,,,
38303,0,,,,,,,,-0.03,0.01,-0.83,-0,1,-0,0.03,,56,2885,8,30,75,0.503,0.0,378,4.87,13.1,0.0,1,18.4,1.73,3.7,0,0,0,1,0,0,250,250,0,,,,,,,,,,,,,,,,
38323,0,,,,,,,,-0.03,0.01,-0.85,-0,2,-0,0.03,,56,2865,8,30,75,0.503,0.0,374,4.9,13.2,0.0,1,17.8,1.73,3.7,0,0,0,1,0,0,250,250,0,,,,,,,,,,,,,,,,
38343,0,0,1,34,33,32,31,0,-0.02,-0.01,-0.93,-0,2,0,0.02,0,56,2836,8,30,76,0.503,0.0,380,4.91,13.3,0.0,1,18.0,2.88,3.7,0,0,0,1,0,0,250,250,0,0.0,0.0,0.0,0.0,0,0,0.0,0,0.0,-1,0.0,,0.0,0,0.0,0.639
38363,0,,,,,,,,-0.0,-0.02,-0.97,-0,2,0,0.02,,56,2913,8,30,76,0.503,0.0,382,4.87,13.3,0.0,1,18.9,1.77,3.7,0,0,0,1,0,0,250,250,0,,,,,,,,,,,,,,,,
38383,0,,,,,,,,0.02,-0.03,-1.03,-0,2,0,0.03,,56,2951,8,30,76,0.503,0.0,392,4.95,13.3,0.0,1,19.4,1.77,3.7,0,0,0,1,0,0,250,250,0,,,,,,,,,,,,,,,,
38403,0,,,,,,,,0.04,-0.04,-1.06,-0,2,0,0.06,,56,2910,8,30,76,0.503,0.0,393,4.91,13.3,0.0,1,18.9,1.77,3.8,0,0,0,1,0,0,250,250,0,,,,,,,,,,,,,,,,
38423,0,,,,,,,,0.06,-0.04,-1.08,-0,1,0,0.07,,56,2966,8,30,76,0.503,0.0,389,4.88,13.3,0.0,1,19.5,1.77,3.8,0,0,0,1,0,0,250,250,0,,,,,,,,,,,,,,,,
38443,0,-1,2,34,33,32,31,2,0.08,-0.04,-1.11,-0,1,0,0.09,0,56,3063,8,30,76,0.503,0.0,412,4.93,13.3,0.0,1,20.0,1.77,3.8,0,0,0,1,0,0,250,250,0,0.0,0.0,0.0,0.0,0,0,0.0,0,0.0,-1,0.0,0.0,0.0,0,0.0,0.6407
38463,0,,,,,,,,0.09,-0.04,-1.18,-0,1,0,0.1,,56,3094,8,30,76,0.503,0.0,411,4.92,13.3,0.0,1,20.0,2.88,3.8,0,0,0,1,0,0,250,250,0,,,,,,,,,,,,,,,,
38483,0,,,,,,,,0.09,-0.05,-1.22,-0,2,0,0.1,,56,3073,8,30,75,0.503,0.0,413,4.92,13.3,0.0,1,19.6,1.75,3.8,0,0,0,1,0,0,250,250,0,,,,,,,,,,,,,,,,
38503,0,,,,,,,,0.07,-0.05,-1.23,-0,3,0,0.08,,56,3114,8,30,75,0.503,0.0,421,4.89,13.2,0.0,1,19.6,1.74,4.1,0,0,0,1,0,0,250,250,0,,,,,,,,,,,,,,,,
38523,0,,,,,,,,0.03,-0.05,-1.11,-0,4,0,0.06,,56,3283,8,30,75,0.503,0.0,425,4.9,13.2,0.0,1,19.6,2.82,4.1,0,0,0,1,0,0,250,250,0,,,,,,,,,,,,,,,,
38543,0,0,1,34,34,31,31,1,0.01,-0.05,-1.05,-0,4,-0,0.05,0,56,3290,8,30,75,0.503,0.0,440,4.88,13.2,0.0,1,19.6,2.82,4.1,0,0,0,1,0,0,250,250,0,0.0,0.0,0.0,0.0,0,0,0.0,0,0.0,-1,0.0,,0.0,0,0.0,0.6424
38563,0,,,,,,,,0.03,-0.07,-1.1,-0,2,0,0.07,,56,3270,8,30,75,0.503,0.0,430,4.91,13.3,0.0,1,19.6,2.83,4.1,0,0,0,1,0,0,250,250,0,,,,,,,,,,,,,,,,
38583,0,,,,,,,,0.07,-0.05,-1.17,-0,1,0,0.08,,56,3320,8,30,75,0.502,0.0,448,4.9,13.3,0.0,1,19.6,2.82,4.1,0,0,0,1,0,0,250,250,0,,,,,,,,,,,,,,,,
38603,0,,,,,,,,0.05,-0.03,-1.1,-0,1,0,0.06,,56,3405,8,30,75,0.502,0.0,455,4.92,13.3,0.0,1,19.6,2.8,4.3,0,0,0,1,0,0,250,250,0,,,,,,,,,,,,,,,,
38623,0,,,,,,,,0.01,-0.02,-0.98,-0,3,-0,0.02,,56,3394,8,30,74,0.502,0.0,461,4.9,13.2,0.0,1,19.3,2.79,4.3,0,0,0,1,0,0,250,250,0,,,,,,,,,,,,,,,,
38643,0,0,2,34,34,32,30,2,0.03,-0.02,-1.06,-0,2,0,0.03,0,56,3404,8,30,75,0.502,0.0,455,4.91,13.3,0.0,1,19.6,2.79,4.3,0,0,0,1,0,0,250,250,0,0.0,0.0,0.0,0.0,0,0,0.0,0,0.0,-1,0.0,0.0,0.0,0,0.0,0.644
38663,0,,,,,,,,0.05,-0.02,-1.14,-0,0,1,0.06,,56,3456,8,30,75,0.502,0.0,466,4.9,13.3,0.0,1,19.6,2.78,4.3,0,0,0,1,0,0,250,250,0,,,,,,,,,,,,,,,,
38683,0,,,,,,,,-0.01,0.01,-0.98,-0,2,-0,0.02,,56,3474,8,30,74,0.502,0.0,483,4.83,13.1,0.0,1,19.3,1.67,4.3,0,0,0,1,0,0,250,250,0,,,,,,,,,,,,,,,,
38703,0,,,,,,,,-0.01,0.02,-1.07,-0,2,0,0.02,,56,3474,8,30,74,0.502,0.0,460,4.92,13.3,0.0,1,19.3,2.78,4.4,0,0,0,1,0,0,250,250,0,,,,,,,,,,,,,,,,
38723,0,,,,,,,,0.03,-0.0,-1.14,-0,1,1,0.03,,56,3519,8,30,74,0.502,0.0,486,4.88,13.3,0.0,1,19.4,2.77,4.4,0,0,0,1,0,0,250,250,0,,,,,,,,,,,,,,,,
38743,0,1,2,34,34,32,31,2,-0.01,0.02,-0.94,-0,2,0,0.02,0,56,3524,8,30,74,0.502,0.0,477,4.85,13.1,0.0,1,19.5,1.66,4.4,0,0,0,1,0,0,250,250,0,0.0,0.0,0.0,0.0,0,0,0.0,0,0.0,-1,0.0,,0.0,0,0.0,0.6457
38763,0,,,,,,,,-0.0,0.01,-1.03,-0,2,0,0.01,,56,3525,8,30,74,0.502,0.0,494,4.92,13.3,0.0,1,19.5,2.77,4.4,0,0,0,1,0,0,250,250,0,,,,,,,,,,,,,,,,
38783,0,,,,,,,,0.02,0.01,-1.11,-0,1,1,0.03,,56,3551,8,30,74,0.502,0.0,472,4.91,13.2,0.0,1,19.8,1.65,4.4,0,0,0,1,0,0,250,250,0,,,,,,,,,,,,,,,,
38803,0,,,,,,,,-0.03,0.03,-0.88,-0,2,-0,0.04,,56,3582,8,30,74,0.502,0.0,504,4.88,13.3,0.0,1,20.0,2.75,4.5,0,0,0,1,0,0,250,250,0,,,,,,,,,,,,,,,,
38823,0,,,,,,,,-0.0,0.01,-0.97,-0,1,0,0.01,,56,3553,8,30,74,0.502,0.0,479,4.9,13.3,0.0,1,19.8,2.76,4.5,0,0,0,1,0,0,250,250,0,,,,,,,,,,,,,,,,
38843,0,-0,3,34,34,31,31,2,-0.0,-0.0,-0.93,-0,0,0,0.01,0,56,3611,8,30,74,0.502,0.0,497,4.88,13.1,0.0,1,20.3,1.62,4.5,0,0,0,1,0,0,250,250,0,0.0,0.0,0.0,0.0,0,0,0.0,0,0.0,-1,0.0,0.0,0.0,0,0.0,0.6474
38863,0,,,,,,,,-0.01,-0.01,-0.96,-0,1,0,0.01,,56,3667,8,30,73,0.502,0.0,511,4.93,13.3,0.0,1,20.4,2.72,4.5,0,0,0,1,0,0,250,250,0,,,,,,,,,,,,,,,,
38883,0,,,,,,,,0.03,-0.0,-1.04,-0,0,0,0.03,,56,3637,8,30,73,0.502,0.0,505,4.9,13.2,0.0,1,20.2,1.62,4.5,0,0,0,1,0,0,250,250,0,,,,,,,,,,,,,,,,
38903,0,,,,,,,,-0.02,0.0,-0.86,-0,1,-0,0.02,,57,3604,8,30,73,0.502,0.0,499,4.86,13.1,0.0,1,19.9,1.63,4.5,0,0,0,1,0,0,250,250,0,,,,,,,,,,,,,,,,
38923,0,,,,,,,,0.01,-0.01,-0.95,-0,0,0,0.01,,56,3669,8,30,73,0.502,0.0,508,4.9,13.3,0.0,1,20.4,1.61,4.5,0,0,0,1,0,0,250,250,0,,,,,,,,,,,,,,,,
38943,0,-0,2,34,34,32,30,2,-0.01,-0.03,-0.76,-0,0,-0,0.03,0,57,3675,8,30,73,0.502,0.0,509,4.85,13.2,0.0,1,20.5,2.72,4.5,0,0,0,1,0,0,250,250,0,0.0,0.0,0.0,0.0,0,0,0.0,0,0.0,-1,0.0,,0.0,0,0.0,0.649
38963,0,,,,,,,,0.02,-0.01,-0.86,-0,0,-0,0.02,,56,3662,8,30,73,0.502,0.0,521,4.91,13.3,0.0,1,20.4,2.72,4.5,0,0,0,1,0,0,250,250,0,,,,,,,,,,,,,,,,
38983,0,,,,,,,,0.01,-0.02,-0.77,-0,-0,-0,0.02,,57,3687,8,30,73,0.502,0.0,506,4.83,13.0,0.0,1,20.6,1.61,4.5,0,0,0,1,0,0,250,250,0,,,,,,,,,,,,,,,,
39003,0,,,,,,,,0.01,0.01,-0.88,-0,0,-0,0.01,,57,3710,8,30,73,0.502,0.0,518,4.91,13.3,0.0,1,20.9,1.6,4.6,0,0,0,1,0,0,250,250,0,,,,,,,,,,,,,,,,
39023,0,,,,,,,,0.01,-0.0,-0.84,-0,0,0,0.01,,57,3707,8,30,73,0.502,0.0,529,4.86,13.1,0.0,1,20.8,1.6,4.6,0,0,0,1,0,0,250,250,0,,,,,,,,,,,,,,,,
39043,0,1,2,34,34,32,31,2,0.01,0.02,-0.9,-0,1,0,0.02,0,57,3696,8,30,73,0.502,0.0,509,4.92,13.3,0.0,1,20.7,2.72,4.6,0,0,0,1,0,0,250,250,0,0.0,0.0,0.0,0.0,0,0,0.0,0,0.0,-1,0.0,0.0,0.0,0,0.0,0.6507
39063,0,,,,,,,,-0.02,0.01,-0.75,-0,0,0,0.02,,57,3732,8,30,72,0.502,0.0,538,4.91,13.2,0.0,1,21.1,1.59,4.6,0,0,0,1,0,0,250,250,0,,,,,,,,,,,,,,,,
39083,0,,,,,,,,-0.0,-0.01,-0.85,-0,0,0,0.01,,57,3756,8,30,72,0.502,0.0,515,4.92,13.3,0.0,1,21.0,2.7,4.6,0,0,0,1,0,0,250,250,0,,,,,,,,,,,,,,,,
39103,0,,,,,,,,-0.01,-0.01,-0.73,-0,-0,0,0.01,,57,3732,8,30,72,0.502,0.0,540,4.91,13.2,0.0,1,20.8,1.6,4.6,0,0,0,1,0,0,250,250,0,,,,,,,,,,,,,,,,
39123,0,,,,,,,,0.01,-0.01,-0.83,-0,0,0,0.02,,57,3781,8,30,72,0.502,0.0,524,4.92,13.3,0.0,1,21.3,2.69,4.6,0,0,0,1,0,0,250,250,0,,,,,,,,,,,,,,,,
39143,0,-0,2,34,34,32,30,2,-0.0,-0.02,-0.7,-0,-0,0,0.02,0,57,3792,8,30,72,0.502,0.0,538,4.86,13.1,0.0,1,21.3,1.58,4.6,0,0,0,1,0,0,250,250,0,0.0,0.0,0.0,0.0,0,0,0.0,0,0.0,-1,0.0,,0.0,0,0.0,0.6524
39163,0,,,,,,,,0.02,-0.04,-0.81,-0,0,0,0.04,,57,3762,8,30,72,0.502,0.0,523,4.91,13.3,0.0,1,21.1,2.7,4.6,0,0,0,1,0,0,250,250,0,,,,,,,,,,,,,,,,
39183,0,,,,,,,,-0.0,-0.02,-0.62,-0,-0,0,0.02,,57,3821,8,30,72,0.502,0.0,544,4.85,13.0,0.0,1,21.6,1.57,4.6,0,0,0,1,0,0,250,250,0,,,,,,,,,,,,,,,,
39203,0,,,,,,,,0.02,-0.04,-0.74,-0,0,1,0.04,,57,3843,8,30,72,0.502,0.0,533,4.9,13.3,0.0,1,21.8,2.67,4.7,0,0,0,1,0,0,250,250,0,,,,,,,,,,,,,,,,
39223,0,,,,,,,,-0.0,-0.03,-0.61,-0,-0,0,0.03,,57,3844,8,30,71,0.502,0.0,548,4.87,13.2,0.0,1,21.6,1.58,4.7,0,0,0,1,0,0,250,250,0,,,,,,,,,,,,,,,,
39243,0,1,1,34,34,31,31,2,0.0,-0.03,-0.73,-0,0,1,0.03,0,57,3869,8,30,71,0.502,0.0,538,4.9,13.3,0.0,1,21.8,2.69,4.7,0,0,0,1,0,0,250,250,0,0.0,0.0,0.0,0.0,0,0,0.0,0,0.0,-1,0.0,0.0,0.0,0,0.0,0.654
39263,0,,,,,,,,0.02,-0.05,-0.73,-0,-0,0,0.05,,57,3854,8,30,71,0.502,0.0,548,4.87,13.2,0.0,1,21.7,2.69,4.7,0,0,0,1,0,0,250,250,0,,,,,,,,,,,,,,,,
39283,0,,,,,,,,-0.0,-0.05,-0.6,-0,-0,0,0.05,,57,3933,8,30,71,0.502,0.0,555,4.88,13.1,0.0,1,22.4,1.56,4.7,0,0,0,1,0,0,250,250,0,,,,,,,,,,,,,,,,
39303,0,,,,,,,,0.01,-0.06,-0.72,-0,-0,0,0.06,,57,3944,8,30,70,0.502,0.0,552,4.93,13.3,0.0,1,22.3,2.69,4.8,0,0,0,1,0,0,250,250,0,,,,,,,,,,,,,,,,
39323,0,,,,,,,,0.01,-0.07,-0.55,-0,-1,-0,0.07,,57,3993,8,30,70,0.502,0.0,562,4.87,13.0,0.0,1,22.8,2.68,4.8,0,0,0,1,0,0,250,250,0,,,,,,,,,,,,,,,,
39343,0,1,2,34,34,32,31,2,-0.02,-0.05,-0.43,-0,-0,-0,0.05,0,57,4043,8,30,69,0.502,0.0,573,4.89,13.1,0.0,1,23.3,2.69,4.8,0,0,0,1,0,0,250,250,0,0.0,0.0,0.0,0.0,0,0,0.0,0,0.0,-1,0.0,,0.0,0,0.0,0.6557
39363,0,,,,,,,,-0.01,-0.06,-0.56,-0,0,0,0.06,,57,4067,8,30,69,0.502,0.0,568,4.93,13.3,0.0,1,23.6,2.73,4.8,0,0,0,1,0,0,250,250,0,,,,,,,,,,,,,,,,
39383,0,,,,,,,,0.04,-0.09,-0.68,-0,-1,-0,0.1,,57,4185,8,30,68,0.501,0.0,579,4.91,13.3,0.0,1,25.0,2.8,4.8,0,0,0,1,0,0,250,250,0,,,,,,,,,,,,,,,,
39403,0,,,,,,,,0.05,-0.1,-0.49,-0,-2,-1,0.12,,57,4184,8,30,67,0.502,0.0,598,4.83,13.0,0.0,1,24.7,1.64,5.3,0,0,0,1,0,0,250,250,0,,,,,,,,,,,,,,,,
39423,0,,,,,,,,0.02,-0.1,-0.3,-0,-1,-0,0.1,,57,4169,8,30,66,0.501,0.0,583,4.88,13.1,0.0,1,24.5,1.6,5.3,0,0,0,1,0,0,250,250,0,,,,,,,,,,,,,,,,
39443,0,1,1,34,34,32,31,2,-0.04,-0.07,-0.37,-0,2,1,0.08,0,57,4290,8,30,66,0.501,0.0,600,4.9,13.1,0.0,1,25.8,1.65,5.3,0,0,0,1,0,0,250,250,0,0.0,0.0,0.0,0.0,0,0,0.0,0,0.0,-1,0.0,0.0,0.0,0,0.0,0.6574
39463,0,,,,,,,,-0.06,-0.08,-0.5,-0,3,2,0.1,,57,4252,8,30,65,0.501,0.0,597,4.93,13.3,0.0,1,25.1,1.59,5.3,0,0,0,1,0,0,250,250,0,,,,,,,,,,,,,,,,
39483,0,,,,,,,,-0.02,-0.11,-0.63,-0,1,1,0.11,,57,4253,8,30,65,0.501,0.0,606,4.9,13.3,0.0,1,25.1,2.7,5.3,0,0,0,1,0,0,250,250,0,,,,,,,,,,,,,,,,
39503,0,,,,,,,,0.05,-0.12,-0.74,-0,-2,0,0.13,,57,4367,8,30,64,0.501,0.0,603,4.93,13.3,0.0,1,26.4,2.7,5.5,0,0,0,1,0,0,250,250,0,,,,,,,,,,,,,,,,
39523,0,,,,,,,,0.11,-0.12,-0.66,-0,-4,-1,0.16,,57,4327,8,30,64,0.501,0.0,607,4.91,13.3,0.0,1,25.8,2.69,5.5,0,0,0,1,0,0,250,250,0,,,,,,,,,,,,,,,,
39543,0,-1,2,34,34,32,31,2,0.14,-0.12,-0.44,-0,-6,-2,0.19,0,57,4402,8,30,63,0.501,0.0,618,4.88,13.2,0.0,1,26.6,2.67,5.5,0,0,0,1,0,0,250,250,0,0.0,0.0,0.0,0.0,0,0,0.0,0,0.0,-1,0.0,,0.0,0,0.0,0.659
39563,0,,,,,,,,0.16,-0.09,-0.24,-0,-5,-3,0.19,,57,4422,8,30,63,0.501,0.0,614,4.85,13.0,0.0,1,26.9,2.68,5.5,0,0,0,1,0,0,250,250,0,,,,,,,,,,,,,,,,
39583,0,,,,,,,,0.14,-0.07,-0.05,-0,-4,-3,0.16,,57,4425,8,30,63,0.501,0.0,623,4.84,13.1,0.0,1,26.9,2.68,5.5,0,0,0,1,0,0,250,250,0,,,,,,,,,,,,,,,,
39603,0,,,,,,,,0.12,-0.07,0.12,-0,-3,-3,0.14,,57,4492,8,30,62,0.501,0.0,621,4.9,13.1,0.0,1,27.5,2.66,5.5,0,0,0,1,0,0,250,250,0,,,,,,,,,,,,,,,,
39623,0,,,,,,,,0.09,-0.06,0.28,-0,-2,-4,0.1,,57,4465,8,30,62,0.501,0.0,626,4.91,13.1,0.0,1,27.1,2.65,5.5,0,0,0,1,0,0,250,250,0,,,,,,,,,,,,,,,,
39643,0,-1,2,34,34,32,31,1,0.04,-0.03,0.42,-0,-0,-3,0.05,0,57,4487,8,30,62,0.501,0.0,625,4.92,13.1,0.0,1,27.4,2.66,5.5,0,0,0,1,0,0,250,250,0,0.0,0.0,0.0,0.0,0,0,0.0,0,0.0,-1,0.0,0.0,0.0,0,0.0,0.6607
39663,0,,,,,,,,-0.0,0.01,0.55,-0,1,-4,0.01,,57,4514,8,30,61,0.501,0.0,623,4.84,13.1,0.0,1,27.6,1.52,5.5,0,0,0,1,0,0,250,250,0,,,,,,,,,,,,,,,,
39683,0,,,,,,,,-0.03,0.02,0.67,-0,2,-5,0.03,,57,4505,8,30,61,0.501,0.0,632,4.95,13.1,0.0,1,27.5,1.51,5.5,0,0,0,1,0,0,250,250,0,,,,,,,,,,,,,,,,
39703,0,,,,,,,,-0.04,0.05,0.78,-0,2,-5,0.06,,57,4537,8,30,60,0.501,0.0,627,4.85,13.1,0.0,1,27.6,2.63,5.4,0,0,0,1,0,0,250,250,0,,,,,,,,,,,,,,,,
39723,0,,,,,,,,-0.07,0.08,0.89,-0,3,-6,0.11,,57,4502,8,30,60,0.501,0.0,631,4.95,13.1,0.0,1,27.1,1.5,5.4,0,0,0,1,0,0,250,250,0,,,,,,,,,,,,,,,,
39743,0,1,2,34,34,32,31,1,-0.09,0.1,0.98,-0,4,-6,0.13,0,57,4500,8,30,60,0.501,0.0,631,4.95,13.1,0.0,1,27.1,2.62,5.4,0,0,0,1,0,0,250,250,0,0.0,0.0,0.0,0.0,0,0,0.0,0,0.0,-1,0.0,,0.0,0,0.0,0.6624
39763,0,,,,,,,,-0.1,0.09,1.06,-0,4,-7,0.14,,57,4489,8,30,60,0.501,0.0,628,4.83,13.1,0.0,1,27.0,2.61,5.4,0,0,0,1,0,0,250,250,0,,,,,,,,,,,,,,,,
39783,0,,,,,,,,-0.11,0.12,1.14,-0,4,-7,0.17,,57,4503,8,30,60,0.501,0.0,633,4.91,13.1,0.0,1,27.1,2.62,5.4,0,0,0,1,0,0,250,250,0,,,,,,,,,,,,,,,,
39803,0,,,,,,,,-0.13,0.14,1.21,-0,5,-7,0.19,,57,4497,8,30,59,0.5,0.0,624,4.89,13.1,0.0,1,26.8,2.6,5.4,0,0,0,1,0,0,250,250,0,,,,,,,,,,,,,,,,
39823,0,,,,,,,,-0.16,0.18,1.28,-0,6,-7,0.24,,57,4445,8,30,59,0.5,0.0,628,4.82,13.1,0.0,1,26.1,2.58,5.4,0,0,0,1,0,0,250,250,0,,,,,,,,,,,,,,,,
39843,0,1,0,34,34,31,30,2,-0.18,0.18,1.34,-0,6,-7,0.25,0,57,4439,8,30,59,0.5,0.0,619,4.92,13.1,0.0,1,26.0,1.46,5.4,0,0,0,1,0,0,250,250,0,0.0,0.0,0.0,0.0,0,0,0.0,0,0.0,-1,0.0,0.0,0.0,0,0.0,0.664
39863,0,,,,,,,,-0.23,0.22,1.39,-0,7,-7,0.31,,57,4434,8,30,59,0.5,0.0,623,4.85,13.1,0.0,1,25.9,1.46,5.4,0,0,0,1,0,0,250,250,0,,,,,,,,,,,,,,,,
39883,0,,,,,,,,-0.29,0.23,1.22,-0,9,-6,0.37,,57,4371,8,30,59,0.5,0.0,613,4.96,13.2,0.0,1,25.1,1.42,5.4,0,0,0,1,0,0,250,250,0,,,,,,,,,,,,,,,,
39903,0,,,,,,,,-0.32,0.22,0.95,-0,11,-5,0.39,,57,4351,8,30,59,0.5,0.0,610,4.92,13.2,0.0,1,24.8,1.41,5.1,0,0,0,1,0,0,250,250,0,,,,,,,,,,,,,,,,
39923,0,,,,,,,,-0.32,0.16,0.71,-0,11,-3,0.36,,57,4326,8,30,59,0.5,0.0,611,4.92,13.3,0.0,1,24.5,1.41,5.1,0,0,0,1,0,0,250,250,0,,,,,,,,,,,,,,,,
39943,0,0,3,34,34,32,31,2,-0.26,0.12,0.48,-0,9,-2,0.29,0,57,4315,8,30,59,0.5,0.0,605,4.88,13.3,0.0,1,24.4,2.52,5.1,0,0,0,1,0,0,250,250,0,0.0,0.0,0.0,0.0,0,0,0.0,0,0.0,-1,0.0,,0.0,0,0.0,0.6657
39963,0,,,,,,,,-0.18,0.11,0.35,-0,6,-3,0.21,,57,4240,8,30,59,0.5,0.0,612,4.85,13.4,0.0,1,23.5,2.48,5.1,0,0,0,1,0,0,250,250,0,,,,,,,,,,,,,,,,
39983,0,,,,,,,,-0.13,0.1,0.49,-0,3,-4,0.17,,57,4244,8,30,59,0.5,0.0,600,4.87,13.1,0.0,1,23.5,2.49,5.1,0,0,0,1,0,0,250,250,0,,,,,,,,,,,,,,,,
40003,0,,,,,,,,-0.15,0.1,0.61,-0,3,-4,0.18,,57,4201,8,30,59,0.5,0.0,601,4.85,13.0,0.0,1,23.0,1.34,4.7,0,0,0,1,0,0,250,250,0,,,,,,,,,,,,,,,,
40023,0,,,,,,,,-0.16,0.11,0.4,-0,5,-3,0.19,,57,4157,8,30,59,0.5,0.0,595,4.9,13.2,0.0,1,22.4,1.32,4.7,0,0,0,1,0,0,250,250,0,,,,,,,,,,,,,,,,
40043,0,0,2,34,34,32,31,1,-0.14,0.09,0.2,-0,5,-2,0.17,0,57,4171,8,30,59,0.5,0.0,592,4.9,13.3,0.0,1,22.6,1.33,4.7,0,0,0,1,0,0,250,250,0,0.0,0.0,0.0,0.0,0,0,0.0,0,0.0,-1,0.0,0.0,0.0,0,0.0,0.6674
40063,0,,,,,,,,-0.11,0.09,0.1,-0,4,-2,0.14,,57,4125,8,30,59,0.5,0.0,584,4.9,13.3,0.0,1,22.0,2.43,4.7,0,0,0,1,0,0,250,250,0,,,,,,,,,,,,,,,,
40083,0,,,,,,,,-0.11,0.08,0.26,-0,3,-2,0.14,,57,4101,8,30,59,0.5,0.0,579,4.86,13.1,0.0,1,21.7,1.3,4.7,0,0,0,1,0,0,250,250,0,,,,,,,,,,,,,,,,
40103,0,,,,,,,,-0.13,0.09,0.09,-0,4,-1,0.16,,57,4119,8,30,59,0.5,0.0,590,4.92,13.2,0.0,1,21.9,1.31,4.6,0,0,0,1,0,0,250,250,0,,,,,,,,,,,,,,,,
40123,0,,,,,,,,-0.11,0.09,-0.08,-0,4,-1,0.14,,57,4028,8,30,59,0.5,0.0,571,4.91,13.3,0.0,1,20.7,2.39,4.6,0,0,0,1,0,0,250,250,0,,,,,,,,,,,,,,,,
40143,0,-0,2,34,34,32,31,2,-0.11,0.09,0.06,-0,3,-1,0.14,0,57,4018,8,30,59,0.5,0.0,569,4.86,13.2,0.0,1,20.6,2.38,4.6,0,0,0,1,0,0,250,250,0,0.0,0.0,0.0,0.0,0,0,0.0,0,0.0,-1,0.0,,0.0,0,0.0,0.669
40163,0,,,,,,,,-0.11,0.08,0.02,-0,3,-1,0.14,,57,4054,8,30,60,0.5,0.0,571,4.91,13.2,0.0,1,21.3,1.3,4.6,0,0,0,1,0,0,250,250,0,,,,,,,,,,,,,,,,
40183,0,,,,,,,,-0.09,0.09,-0.15,-0,3,-1,0.13,,57,3902,8,30,59,0.5,0.0,559,4.93,13.3,0.0,1,19.3,2.4,4.6,0,0,0,1,0,0,250,250,0,,,,,,,,,,,,,,,,
40203,1622993148751,,,,,,,,-0.09,0.1,-0.02,-0,2,-1,0.14,,57,3871,8,30,60,0.5,0.0,552,4.84,13.1,0.0,1,19.1,1.32,4.4,0,0,0,1,0,0,250,250,0,,,,,,,,,,,,,,,,
40223,1622993148771,,,,,,,,-0.07,0.09,-0.18,-0,2,-1,0.11,,57,3794,8,30,61,0.5,0.0,549,4.92,13.3,0.0,1,18.4,2.5,4.4,0,0,0,1,0,0,250,250,0,,,,,,,,,,,,,,,,
40243,1622993148791,0,2,34,34,32,31,1,-0.09,0.07,-0.13,-0,2,-1,0.11,0,57,3635,8,30,62,0.5,0.0,517,4.86,13.1,0.0,1,16.8,1.44,4.4,0,0,0,1,0,0,250,250,0,45.700371,4.90952,0.0,204.8,4,2,3.8,0,0.0,-1,0.0,0.0,0.0,0,0.0,0.6707
40263,1622993148811,,,,,,,,-0.09,0.05,-0.22,-0,2,-1,0.1,,57,3534,8,30,63,0.5,0.0,505,4.9,13.4,0.0,1,16.0,2.58,4.4,0,0,0,1,0,0,250,250,0,,,,,,,,,,,,,,,,
40283,1622993148831,,,,,,,,-0.03,0.05,-0.37,-0,1,-1,0.06,,57,3463,8,30,64,0.5,0.0,468,4.89,13.3,0.0,1,16.0,1.51,4.4,0,0,0,1,0,0,250,250,0,,,,,,,,,,,,,,,,
40303,1622993148851,,,,,,,,-0.07,0.06,-0.33,-0,2,-1,0.09,,57,3363,8,30,64,0.5,0.0,473,4.86,13.1,0.0,1,16.0,1.51,4.1,0,0,0,1,0,0,250,250,0,,,,,,,,,,,,,,,,
40323,1622993148851,,,,,,,,-0.1,0.02,-0.29,-0,3,-1,0.1,,57,3252,8,30,65,0.5,0.0,447,4.85,13.1,0.0,1,16.4,2.64,4.1,0,0,0,1,0,0,250,250,0,,,,,,,,,,,,,,,,
40343,1622993148871,0,2,34,34,32,31,2,-0.1,-0.03,-0.36,-0,2,-1,0.1,0,57,3139,8,30,66,0.5,0.0,432,4.91,13.2,0.0,1,16.7,2.67,4.1,0,0,0,1,0,0,250,250,0,45.700371,4.909518,0.0,203.0,4,2,3.8,0,0.0,-1,0.0,,0.0,0,0.0,0.6724
40363,1622993148891,,,,,,,,-0.09,-0.01,-0.46,-0,2,-1,0.09,,57,3059,8,30,67,0.5,0.0,420,4.92,13.3,0.0,1,17.1,2.67,4.1,0,0,0,1,0,0,250,250,0,,,,,,,,,,,,,,,,
40383,1622993148911,,,,,,,,-0.1,-0.02,-0.54,-0,1,-1,0.1,,57,3052,8,30,67,0.5,0.0,406,4.92,13.3,0.0,1,17.1,2.69,4.1,0,0,0,1,0,0,250,250,0,,,,,,,,,,,,,,,,
40403,1622993148955,,,,,,,,-0.09,-0.01,-0.61,-0,0,-0,0.09,,57,3002,8,30,68,0.5,0.0,407,4.94,13.3,0.0,1,17.5,2.72,3.8,0,0,0,1,0,0,250,250,0,,,,,,,,,,,,,,,,
40423,1622993148975,,,,,,,,-0.09,-0.01,-0.64,-0,-0,-0,0.09,,57,2934,8,30,68,0.5,0.0,394,4.94,13.3,0.0,1,17.3,2.65,3.8,0,0,0,1,0,0,250,250,0,,,,,,,,,,,,,,,,
40443,1622993148995,1,2,34,34,32,31,1,-0.1,-0.02,-0.7,-0,-0,-0,0.1,0,57,2900,8,30,69,0.5,0.0,388,4.92,13.3,0.0,1,17.4,2.65,3.8,0,0,0,1,0,0,250,250,0,45.700371,4.909515,0.0,197.1,4,2,3.8,0,0.0,-1,0.0,0.0,0.0,0,0.0,0.674
40463,1622993149015,,,,,,,,-0.11,-0.0,-0.68,-0,-0,-0,0.11,,57,2843,8,30,70,0.5,0.0,387,4.83,13.1,0.0,1,17.2,2.64,3.8,0,0,0,1,0,0,250,250,0,,,,,,,,,,,,,,,,
40483,1622993149035,,,,,,,,-0.12,0.01,-0.65,-0,-0,-0,0.12,,57,2794,8,30,71,0.5,0.0,369,4.88,13.2,0.0,1,17.0,1.54,3.8,0,0,0,1,0,0,250,250,0,,,,,,,,,,,,,,,,
40503,1622993149054,,,,,,,,-0.11,-0.0,-0.71,-0,0,-0,0.11,,57,2796,8,30,71,0.5,0.0,373,4.9,13.2,0.0,1,17.0,1.52,3.4,0,0,0,1,0,0,250,250,0,,,,,,,,,,,,,,,,
40523,1622993149074,,,,,,,,-0.09,-0.02,-0.8,-0,0,0,0.09,,57,2748,8,30,72,0.5,0.0,369,4.9,13.3,0.0,1,16.8,2.67,3.4,0,0,0,1,0,0,250,250,0,,,,,,,,,,,,,,,,
40543,1622993149094,0,2,34,34,32,30,1,-0.06,-0.02,-0.79,-0,-0,-0,0.07,0,57,2702,8,30,73,0.5,0.0,358,4.9,13.3,0.0,1,16.5,1.59,3.4,0,0,0,1,0,0,250,250,0,45.700371,4.909514,0.0,196.1,4,2,3.8,0,0.0,-1,0.0,,0.0,0,0.0,0.6757
40563,1622993149114,,,,,,,,-0.07,-0.0,-0.83,-0,-0,0,0.07,,57,2719,8,30,73,0.5,0.0,359,4.93,13.3,0.0,1,16.6,2.71,3.4,0,0,0,1,0,0,250,250,0,,,,,,,,,,,,,,,,
40583,1622993149134,,,,,,,,-0.08,-0.0,-0.81,-0,-0,-0,0.08,,57,2794,8,30,73,0.5,0.0,361,4.89,13.2,0.0,1,17.2,1.63,3.4,0,0,0,1,0,0,250,250,0,,,,,,,,,,,,,,,,
40603,1622993149154,,,,,,,,-0.08,0.01,-0.76,-0,-0,-0,0.09,,57,2784,8,30,74,0.5,0.0,362,4.87,13.1,0.0,1,17.2,1.67,3.5,0,0,0,1,0,0,250,250,0,,,,,,,,,,,,,,,,
40623,1622993149174,,,,,,,,-0.08,0.0,-0.84,-0,0,-0,0.08,,57,2751,8,30,74,0.5,0.0,366,4.92,13.3,0.0,1,16.9,1.66,3.5,0,0,0,1,0,0,250,250,0,,,,,,,,,,,,,,,,
