"Interval"|"ms"|0|0|1,"Utc"|"ms"|0|0|1,"Brake_F"|"Bar"|0|2000|10,"Brake_R"|"Bar"|0|2000|10,"Height_RF"|"mm"|0|255|10,"Height_LF"|"mm"|0|255|10,"Height_LR"|"mm"|0|80|10,"Height_RR"|"mm"|0|255|10,"Steering"|"deg"|-100|100|10,"AccelX"|"G"|-3.0|3.0|50,"AccelY"|"G"|-3.0|3.0|50,"AccelZ"|"G"|-3.0|3.0|50,"Yaw"|"Deg/Sec"|-120|120|50,"Pitch"|"Deg/Sec"|-120|120|50,"Roll"|"Deg/Sec"|-120|120|50,"Gsum"|"G"|0.0|3.0|50,"Log_Button"|""|0.0|10.0|10,"WaterTemp"|"C"|0|150|50,"RPM"|"tr/min"|0|14000|50,"TPS"|"%"|0|100|50,"AirTemp"|"C"|0|150|50,"MAP"|"KPa"|0|100|50,"Lambda"|""|0.5|1.5|50,"SpeedDTA"|"kph"|0.0|250.0|50,"OilPress"|"KPa"|0|1500|50,"FuelPressur"|"Bar"|0.0|10.0|50,"Batterie"|"V"|0.0|20.0|50,"ConsoKm"|"L/100km"|0.0|200.0|50,"Gear"|""|0|6|50,"AdvIgnition"|"Deg"|-20.0|70.0|50,"Injection"|"ms"|0.0|10.0|50,"ConsoHr"|"L/Hr"|0.0|10000.0|50,"LC_But_Pres"|""|0|1|50,"LC_Active"|""|0|1|50,"TractionOn"|""|0|1|50,"TractionWet"|""|0|1|50,"FanOn"|""|0|1|50,"RD_Speed"|"km/h"|-30|250|50,"RUD_Speed"|"km/h"|-30|250|50,"LD_Speed"|"km/h"|-30|250|50,"LUD_Speed"|"km/h"|-30|250|50,"Latitude"|"Degrees"|-180.0|180.0|10,"Longitude"|"Degrees"|-180.0|180.0|10,"Speed"|"kph"|0.0|150.0|10,"Altitude"|"m"|0.0|4000.0|10,"GPSSats"|""|0|20|10,"GPSQual"|""|0|5|10,"GPSDOP"|""|0.0|20.0|10,"LapCount"|""|0|0|10,"LapTime"|"Min"|0.0|0.0|10,"Sector"|""|0|0|10,"SectorTime"|"Min"|0.0|0.0|10,"PredTime"|"Min"|0.0|0.0|5,"ElapsedTime"|"Min"|0.0|0.0|10,"CurrentLap"|""|0|0|10,"Distance"|"km"|0.0|0.0|10,"SessionTime"|"Min"|0.0|0.0|10
1025963,1622994134538,,,,,,,,0.16,-0.84,-0.51,-29,-1,-2,0.85,,83,9770,22,27,56,0.944,58.7,653,4.84,12.8,26.3,1,40.3,3.55,15.5,0,0,1,1,0,612,250,3403,587,,,,,,,,,,,,,,,,
1025983,1622994134558,,,,,,,,0.25,-0.92,-0.59,-29,-2,0,0.95,,83,9709,21,27,55,0.94,59.6,648,4.83,12.8,26.3,1,40.1,3.55,15.5,0,0,1,1,0,609,250,-28304,599,,,,,,,,,,,,,,,,
1026003,1622994134578,,,,,,,,0.2,-0.82,-0.53,-29,-2,-2,0.85,,83,9610,21,27,54,0.936,60.2,660,4.83,12.8,26.5,1,40.0,3.55,15.9,0,0,1,1,0,617,250,30721,602,,,,,,,,,,,,,,,,
1026023,1622994134598,,,,,,,,0.23,-0.92,-0.65,-29,-2,-2,0.95,,83,9585,21,27,53,0.932,60.6,662,4.86,12.8,26.5,1,39.7,3.48,15.9,0,0,1,1,0,602,250,28675,610,,,,,,,,,,,,,,,,
1026043,1622994134618,8,5,45,31,25,34,-21,0.17,-0.93,-0.43,-30,-0,-0,0.95,0,83,9635,22,27,53,0.928,60.8,661,4.91,12.8,26.5,1,39.7,3.48,15.9,0,0,1,1,0,619,250,1010,608,45.699623,4.910494,60.7,198.3,9,3,1.8,0,0.0,-1,0.0,0.0,0.0,0,10.72,17.1007
1026063,1622994134638,,,,,,,,0.14,-1.0,-0.56,-30,-1,-2,1.01,,83,9740,23,27,53,0.927,60.1,647,4.86,12.8,26.5,1,39.7,3.48,15.9,0,0,1,1,0,606,250,19304,614,,,,,,,,,,,,,,,,
1026083,1622994134658,,,,,,,,0.09,-1.08,-0.56,-31,-1,0,1.09,,83,9837,23,27,53,0.925,60.6,658,4.91,12.8,26.5,1,39.7,3.49,15.9,0,0,1,1,0,615,250,26688,605,,,,,,,,,,,,,,,,
1026103,1622994134678,,,,,,,,0.13,-1.03,-0.68,-31,0,0,1.03,,83,9873,24,27,54,0.923,60.3,653,4.87,12.7,26.2,1,40.0,3.55,15.9,0,0,1,1,0,608,250,269,603,,,,,,,,,,,,,,,,
1026123,1622994134698,,,,,,,,0.03,-0.92,-0.45,-31,-2,-2,0.92,,83,9842,25,27,54,0.916,60.5,652,4.92,12.8,26.2,1,40.0,3.56,15.9,0,0,1,1,0,633,250,-18357,610,,,,,,,,,,,,,,,,
1026143,1622994134718,9,4,44,31,23,35,-24,0.09,-1.01,-0.58,-32,-0,1,1.01,0,83,9852,26,27,56,0.907,60.6,667,4.96,12.8,26.2,1,40.3,3.57,15.9,0,0,1,1,0,642,250,3403,606,45.699608,4.910495,61.47,198.3,9,3,2.4,0,0.0,-1,0.0,,0.0,0,10.72,17.1024
1026163,1622994134738,,,,,,,,-0.0,-0.87,-0.7,-32,-1,0,0.87,,83,9910,28,27,58,0.898,60.0,663,4.9,12.8,26.2,1,40.5,3.6,15.9,0,0,1,1,0,632,250,-18357,604,,,,,,,,,,,,,,,,
1026183,1622994134758,,,,,,,,0.03,-0.9,-0.57,-33,-1,0,0.9,,83,10032,30,27,60,0.889,60.9,663,4.91,12.8,27.9,1,40.8,3.67,17.0,0,0,1,1,0,638,250,-1346,599,,,,,,,,,,,,,,,,
1026203,1622994134778,,,,,,,,0.1,-0.79,-0.42,-34,-1,1,0.8,,83,10157,31,27,62,0.88,60.9,660,4.84,12.7,27.9,1,41.4,3.79,17.0,0,0,1,1,0,599,250,-1346,609,,,,,,,,,,,,,,,,
1026223,1622994134798,,,,,,,,0.13,-0.72,-0.55,-35,0,1,0.74,,83,10162,32,27,64,0.872,61.4,661,4.87,12.8,27.9,1,41.1,3.94,17.0,0,0,1,1,0,627,250,-16046,614,,,,,,,,,,,,,,,,
1026243,1622994134818,9,6,46,30,25,37,-22,0.07,-0.76,-0.42,-36,-0,1,0.76,0,83,10102,32,27,65,0.863,60.8,663,4.87,12.8,27.9,1,40.6,4.0,17.0,0,0,1,1,0,693,250,24,608,45.699593,4.910495,61.48,198.3,9,3,1.8,0,0.0,-1,0.0,0.0,0.0,0,10.72,17.104
1026263,1622994134838,,,,,,,,0.12,-0.84,-0.22,-36,-1,2,0.85,,83,10179,34,27,67,0.855,61.6,655,4.86,12.8,27.9,1,40.7,4.17,17.0,0,0,1,1,0,658,250,-5120,617,,,,,,,,,,,,,,,,
1026283,1622994134858,,,,,,,,0.17,-0.93,-0.36,-37,-1,2,0.95,,83,10273,35,27,69,0.85,61.3,663,4.85,12.8,33.7,1,41.0,4.35,20.7,0,0,1,1,0,614,250,-2580,613,,,,,,,,,,,,,,,,
1026303,1622994134878,,,,,,,,0.18,-1.02,-0.33,-37,-1,2,1.03,,83,10296,37,27,70,0.851,60.5,656,4.88,12.8,33.7,1,41.0,4.44,20.7,0,0,1,1,0,650,250,16599,605,,,,,,,,,,,,,,,,
1026323,1622994134898,,,,,,,,0.22,-1.03,-0.47,-38,1,1,1.06,,83,10296,38,27,71,0.851,61.4,661,4.86,12.8,33.7,1,40.9,4.52,20.7,0,0,1,1,0,693,250,244,614,,,,,,,,,,,,,,,,
1026343,1622994134918,6,5,46,34,24,38,-18,0.19,-1.03,-0.46,-38,3,2,1.04,0,83,10457,42,27,74,0.852,61.5,651,4.86,12.8,33.7,1,41.2,4.7,20.7,0,0,1,1,0,676,250,-4876,615,45.699574,4.910494,61.41,198.3,9,3,1.8,0,0.0,-1,0.0,,0.0,0,10.72,17.1057
1026363,1622994134938,,,,,,,,0.26,-0.97,-0.59,-38,2,3,1.01,,83,10599,47,27,76,0.854,62.2,670,4.88,12.8,33.7,1,41.3,4.82,20.7,0,0,1,1,0,667,250,244,622,,,,,,,,,,,,,,,,
1026383,1622994134958,,,,,,,,0.27,-1.06,-0.69,-39,2,4,1.09,,83,10647,49,27,76,0.861,62.4,668,4.85,12.7,33.7,1,41.4,5.6,20.7,0,0,1,1,0,701,250,3543,624,,,,,,,,,,,,,,,,
1026403,1622994134978,,,,,,,,0.29,-1.04,-0.8,-40,5,5,1.08,,83,10782,51,27,78,0.868,62.4,671,4.91,12.8,44.2,1,41.8,5.66,27.6,0,0,1,1,0,687,250,-27404,633,,,,,,,,,,,,,,,,
1026423,1622994134998,,,,,,,,0.16,-1.1,-0.57,-40,2,1,1.11,,83,10888,51,27,79,0.875,62.3,665,4.86,12.8,44.2,1,42.1,5.57,27.6,0,0,1,1,0,625,250,-388,623,,,,,,,,,,,,,,,,
1026443,1622994135009,5,4,49,33,24,35,-12,0.19,-1.17,-0.43,-39,2,2,1.19,0,83,10945,51,27,80,0.883,63.2,671,4.87,12.7,44.2,1,42.1,5.48,27.6,0,0,1,1,0,688,250,11566,632,45.699562,4.910491,62.57,198.2,9,3,1.8,0,0.0,-1,0.0,0.0,0.0,0,10.73,17.1074
1026463,1622994135029,,,,,,,,0.26,-1.15,-0.56,-39,3,4,1.18,,83,11029,52,27,81,0.893,63.2,666,4.83,12.7,44.2,1,42.3,5.34,27.6,0,0,1,1,0,697,250,-3488,632,,,,,,,,,,,,,,,,
1026483,1622994135049,,,,,,,,0.29,-1.16,-0.34,-39,1,2,1.19,,83,11075,53,27,82,0.904,62.9,658,4.87,12.8,44.2,1,42.4,5.28,27.6,0,0,1,1,0,674,250,-2830,629,,,,,,,,,,,,,,,,
1026503,1622994135069,,,,,,,,0.38,-1.23,-0.23,-38,1,3,1.28,,83,11061,54,27,82,0.914,63.4,665,4.86,12.7,42.6,1,42.3,5.13,26.8,0,0,1,1,0,680,250,-26380,638,,,,,,,,,,,,,,,,
1026523,1622994135097,,,,,,,,0.37,-1.15,-0.37,-38,3,7,1.21,,83,11048,54,27,83,0.923,63.3,668,4.88,12.8,42.6,1,42.2,5.03,26.8,0,0,1,1,0,673,250,-2826,634,,,,,,,,,,,,,,,,
1026543,1622994135117,-5,2,49,39,27,35,-12,0.35,-1.2,-0.18,-38,2,2,1.25,0,83,11042,54,27,84,0.926,63.1,676,4.88,12.7,42.6,1,42.3,5.18,26.8,0,0,1,1,0,677,250,-13072,631,45.699547,4.910486,63.58,198.2,9,3,1.8,0,0.0,-1,0.0,,0.0,0,10.73,17.1091
1026563,1622994135137,,,,,,,,0.46,-1.08,-0.24,-37,2,3,1.17,,83,11061,57,27,84,0.928,64.7,656,4.87,12.8,42.6,1,42.3,5.18,26.8,0,0,1,1,0,671,250,-10399,648,,,,,,,,,,,,,,,,
1026583,1622994135157,,,,,,,,0.37,-1.15,-0.39,-37,3,3,1.21,,83,10990,58,27,85,0.93,64.8,676,4.86,12.7,41.9,1,42.4,5.35,27.2,0,0,1,1,0,717,250,-10348,653,,,,,,,,,,,,,,,,
1026603,1622994135177,,,,,,,,0.37,-1.13,-0.19,-36,-0,1,1.19,,83,11022,58,27,85,0.933,65.4,667,4.95,12.7,41.9,1,42.4,5.34,27.2,0,0,1,1,0,733,250,8958,654,,,,,,,,,,,,,,,,
1026623,1622994135197,,,,,,,,0.46,-1.2,-0.14,-36,1,1,1.28,,83,11107,58,27,85,0.939,64.9,656,4.9,12.8,41.9,1,42.5,5.34,27.2,0,0,1,1,0,689,250,-10346,656,,,,,,,,,,,,,,,,
1026643,1622994135217,5,5,49,37,22,35,-8,0.38,-1.03,-0.3,-35,3,3,1.1,0,83,11107,59,27,85,0.946,65.9,667,4.9,12.7,41.9,1,42.5,5.34,27.2,0,0,1,1,0,682,250,-3584,659,45.699532,4.91048,65.2,198.0,9,3,1.8,0,0.0,-1,0.0,0.0,0.0,0,10.73,17.1107
1026663,1622994135237,,,,,,,,0.48,-1.11,-0.3,-35,1,-0,1.21,,83,11101,61,27,86,0.953,65.8,671,4.86,12.7,41.9,1,42.6,5.5,27.2,0,0,1,1,0,683,250,1780,658,,,,,,,,,,,,,,,,
1026683,1622994135257,,,,,,,,0.46,-0.93,-0.15,-34,1,0,1.04,,83,11160,64,27,86,0.959,65.4,662,4.86,12.8,43.4,1,42.6,5.5,28.4,0,0,1,1,0,678,250,1780,655,,,,,,,,,,,,,,,,
1026703,1622994135277,,,,,,,,0.41,-0.96,-0.14,-33,2,-1,1.05,,83,11154,65,27,86,0.964,66.5,667,4.86,12.7,43.4,1,42.6,5.5,28.4,0,0,1,1,0,690,250,3543,665,,,,,,,,,,,,,,,,
1026723,1622994135297,,,,,,,,0.51,-0.93,-0.3,-31,1,-0,1.06,,83,11107,65,27,86,0.967,66.7,666,4.88,12.7,43.4,1,42.6,5.5,28.4,0,0,1,1,0,692,250,-3584,667,,,,,,,,,,,,,,,,
1026743,1622994135317,5,3,49,40,22,33,-6,0.45,-0.88,-0.11,-30,-1,-2,0.99,0,83,11114,65,27,86,0.971,67.3,656,4.87,12.7,43.4,1,42.6,5.5,28.4,0,0,1,1,0,696,250,11576,673,45.699512,4.910473,66.64,197.9,9,3,1.8,0,0.0,-1,0.0,,0.0,0,10.73,17.1124
1026763,1622994135337,,,,,,,,0.57,-0.96,-0.07,-28,-1,-1,1.12,,83,11154,65,27,86,0.974,66.6,671,4.84,12.7,43.4,1,42.6,5.5,28.4,0,0,1,1,0,686,250,16599,666,,,,,,,,,,,,,,,,
1026783,1622994135357,,,,,,,,0.47,-0.87,-0.23,-27,1,2,0.99,,83,11160,66,27,86,0.977,67.4,667,4.9,12.7,42.1,1,42.6,5.5,28.4,0,0,1,1,0,697,250,-2830,674,,,,,,,,,,,,,,,,
1026803,1622994135377,,,,,,,,0.57,-0.96,-0.19,-26,-1,-2,1.12,,83,11174,66,27,87,0.981,67.4,672,4.87,12.7,42.1,1,42.7,5.65,28.4,0,0,1,1,0,696,250,687,674,,,,,,,,,,,,,,,,
1026823,1622994135399,,,,,,,,0.53,-0.83,-0.01,-25,-1,-1,0.98,,83,11247,66,27,86,0.985,67.7,663,4.86,12.7,42.1,1,42.7,5.5,28.4,0,0,1,1,0,701,250,-13072,677,,,,,,,,,,,,,,,,
1026843,1622994135419,3,3,47,41,24,30,-2,0.57,-0.8,-0.11,-23,-1,-1,0.99,0,83,11315,66,27,87,0.988,68.3,670,4.86,12.7,42.1,1,42.8,5.65,28.4,0,0,1,1,0,701,250,687,683,45.699497,4.910464,68.33,197.7,9,3,1.8,0,0.0,-1,0.0,0.0,0.0,0,10.73,17.114
1026863,1622994135439,,,,,,,,0.43,-0.84,-0.26,-22,1,0,0.95,,83,11295,66,27,87,0.988,68.9,667,4.86,12.8,42.1,1,42.8,5.65,28.4,0,0,1,1,0,710,250,-3888,689,,,,,,,,,,,,,,,,
1026883,1622994135459,,,,,,,,0.55,-0.71,-0.41,-21,-2,2,0.9,,83,11301,66,27,87,0.983,69.0,668,4.89,12.7,42.8,1,42.8,5.65,29.6,0,0,1,1,0,708,250,204,690,,,,,,,,,,,,,,,,
1026903,1622994135479,,,,,,,,0.43,-0.66,-0.21,-19,-3,-2,0.79,,83,11349,66,27,87,0.979,68.5,664,4.88,12.7,42.8,1,42.8,5.65,29.6,0,0,1,1,0,712,250,-3450,685,,,,,,,,,,,,,,,,
1026923,1622994135499,,,,,,,,0.51,-0.74,-0.19,-18,-3,-1,0.9,,83,11412,66,27,87,0.975,69.6,658,4.87,12.8,42.8,1,42.9,5.65,29.6,0,0,1,1,0,717,250,-3450,696,,,,,,,,,,,,,,,,
1026943,1622994135519,3,3,45,41,24,27,-1,0.42,-0.56,-0.34,-17,-0,2,0.7,0,83,11510,66,27,87,0.97,69.7,671,4.89,12.7,42.8,1,43.0,5.65,29.6,0,0,1,1,0,724,250,-31068,696,45.699482,4.910454,70.31,197.6,9,3,1.8,0,0.0,-1,0.0,,0.0,0,10.73,17.1157
1026963,1622994135539,,,,,,,,0.27,-0.53,-0.48,-15,2,3,0.6,,83,11602,66,27,87,0.966,69.9,673,4.87,12.7,42.8,1,43.0,5.68,29.6,0,0,1,1,0,718,250,-3344,699,,,,,,,,,,,,,,,,
1026983,1622994135559,,,,,,,,0.35,-0.6,-0.61,-15,4,2,0.7,,83,11624,66,27,87,0.961,69.7,677,4.85,12.7,42.8,1,43.0,5.69,29.6,0,0,1,1,0,726,250,-2826,697,,,,,,,,,,,,,,,,
1027003,1622994135579,,,,,,,,0.48,-0.62,-0.64,-14,3,1,0.79,,83,11617,66,27,87,0.957,71.2,678,4.85,12.7,43.9,1,43.0,5.69,30.6,0,0,1,1,0,730,250,-13580,712,,,,,,,,,,,,,,,,
1027023,1622994135597,,,,,,,,0.47,-0.56,-0.42,-13,2,-1,0.73,,83,11682,66,27,87,0.952,71.0,676,4.86,12.7,43.9,1,43.0,5.72,30.6,0,0,1,1,0,736,250,-2826,712,,,,,,,,,,,,,,,,
1027043,1622994135617,4,3,45,41,24,25,-1,0.38,-0.46,-0.22,-12,2,-2,0.59,0,83,11755,66,27,87,0.947,71.7,671,4.88,12.7,43.9,1,43.0,5.75,30.6,0,0,1,1,0,734,250,3462,712,45.699467,4.910442,72.5,197.4,9,3,1.8,0,0.0,-1,0.0,0.0,0.0,0,10.74,17.1174
1027063,1622994135637,,,,,,,,0.36,-0.29,-0.06,-12,3,-1,0.46,,83,11822,66,27,87,0.943,71.5,669,4.86,12.7,43.9,1,43.0,5.77,30.6,0,0,1,1,0,744,250,-2830,721,,,,,,,,,,,,,,,,
1027083,1622994135657,,,,,,,,0.41,-0.2,-0.01,-11,3,-1,0.46,,83,11882,66,27,87,0.938,72.1,671,4.86,12.7,43.9,1,43.0,5.79,30.6,0,0,1,1,0,753,250,-4096,714,,,,,,,,,,,,,,,,
1027103,1622994135677,,,,,,,,0.5,-0.13,0.11,-10,2,1,0.51,,83,11912,66,27,87,0.933,72.2,676,4.87,12.7,44.2,1,43.0,5.8,31.9,0,0,1,1,0,750,250,-23308,725,,,,,,,,,,,,,,,,
1027123,1622994135697,,,,,,,,0.61,-0.02,0.16,-10,2,1,0.61,,83,11942,66,27,87,0.929,72.6,672,4.85,12.7,44.2,1,43.0,5.82,31.9,0,0,1,1,0,746,250,8838,731,,,,,,,,,,,,,,,,
1027143,1622994135717,4,2,45,41,24,25,-1,0.65,0.08,0.1,-9,3,3,0.65,0,83,11957,66,27,87,0.925,73.4,675,4.86,12.6,44.2,1,43.0,5.82,31.9,0,0,1,1,0,756,250,-3344,724,45.699451,4.910431,73.69,197.3,9,3,1.8,0,0.0,-1,0.0,,0.0,0,10.74,17.119
1027163,1622994135737,,,,,,,,0.72,0.14,0.09,-9,4,4,0.73,,83,12042,66,27,87,0.921,72.5,675,4.85,12.6,44.2,1,43.0,5.84,31.9,0,0,1,1,0,751,250,-22795,725,,,,,,,,,,,,,,,,
1027183,1622994135757,,,,,,,,0.78,0.13,0.21,-9,3,5,0.79,,83,12143,66,27,87,0.915,73.6,673,4.86,12.7,44.5,1,43.0,5.84,32.8,0,0,1,1,0,759,250,5876,733,,,,,,,,,,,,,,,,
1027203,1622994135777,,,,,,,,0.76,0.28,0.36,-8,3,5,0.81,,83,12199,66,27,87,0.907,74.0,675,4.84,12.7,44.5,1,43.0,5.84,32.8,0,0,1,1,0,768,250,-10212,740,,,,,,,,,,,,,,,,
1027223,1622994135797,,,,,,,,0.7,0.34,0.49,-8,2,4,0.77,,83,12207,67,27,86,0.899,73.5,672,4.85,12.7,44.5,1,43.0,5.7,32.8,0,0,1,1,0,767,250,-2766,747,,,,,,,,,,,,,,,,
1027243,1622994135817,2,1,45,42,25,26,-1,0.65,0.3,0.62,-7,1,2,0.72,0,83,12262,68,27,86,0.891,75.0,681,4.87,12.6,44.5,1,43.0,5.7,32.8,0,0,1,1,0,768,250,7413,750,45.699432,4.910419,75.56,197.2,9,3,1.8,0,0.0,-1,0.0,0.0,0.0,0,10.74,17.1207
1027263,1622994135837,,,,,,,,0.67,0.21,0.58,-7,-1,0,0.7,,83,12327,68,27,86,0.882,75.4,677,4.86,12.7,44.5,1,43.0,5.7,32.8,0,0,1,1,0,769,250,-2570,754,,,,,,,,,,,,,,,,
1027283,1622994135857,,,,,,,,0.74,0.15,0.36,-7,-1,-1,0.76,,83,12384,68,27,86,0.872,75.2,676,4.87,12.7,43.4,1,43.0,5.7,32.7,0,0,1,1,0,774,250,-2830,752,,,,,,,,,,,,,,,,
1027303,1622994135877,,,,,,,,0.66,0.06,0.17,-6,2,0,0.66,,83,12433,68,27,86,0.862,75.3,678,4.88,12.7,43.4,1,43.0,5.7,32.7,0,0,1,1,0,780,250,5876,753,,,,,,,,,,,,,,,,
1027323,1622994135897,,,,,,,,0.51,0.16,-0.01,-6,4,2,0.53,,83,12441,68,27,86,0.852,75.7,680,4.88,12.7,43.4,1,43.0,5.7,32.7,0,0,1,1,0,783,250,-2344,757,,,,,,,,,,,,,,,,
1027343,1622994135917,1,2,45,39,25,26,-1,0.54,0.22,-0.18,-6,5,3,0.58,0,83,12475,68,27,86,0.842,76.1,675,4.87,12.7,43.4,1,43.0,5.7,32.7,0,0,1,1,0,787,250,6389,761,45.699413,4.910407,77.23,197.1,9,3,1.8,0,0.0,-1,0.0,,0.0,0,10.74,17.1224
1027363,1622994135937,,,,,,,,0.51,0.06,-0.16,-6,5,2,0.51,,83,12525,68,27,86,0.833,76.3,670,4.83,12.7,43.4,1,43.0,5.7,32.7,0,0,1,1,0,789,250,6389,763,,,,,,,,,,,,,,,,
1027383,1622994135957,,,,,,,,0.47,0.02,0.02,-6,2,-0,0.47,,83,12575,68,27,85,0.824,76.8,685,4.87,12.6,42.0,1,43.0,5.55,32.3,0,0,1,1,0,788,250,6389,762,,,,,,,,,,,,,,,,
1027403,1622994135977,,,,,,,,0.51,0.03,-0.12,-5,1,0,0.51,,83,12660,68,27,85,0.815,77.5,685,4.86,12.6,42.0,1,43.0,5.55,32.3,0,0,1,1,0,789,250,-8148,775,,,,,,,,,,,,,,,,
1027423,1622994135997,,,,,,,,0.38,-0.06,-0.28,-5,3,2,0.38,,83,12677,68,27,85,0.805,77.4,678,4.87,12.7,42.0,1,43.0,5.55,32.3,0,0,1,1,0,798,250,-12152,774,,,,,,,,,,,,,,,,
1027443,1622994136008,3,2,44,42,25,26,-1,0.5,-0.04,-0.28,-5,4,2,0.5,0,83,12694,69,27,85,0.798,77.2,689,4.87,12.6,42.0,1,43.0,5.55,32.3,0,0,1,1,0,804,250,-2560,778,45.699398,4.910393,78.54,197.0,9,3,1.8,0,0.0,-1,0.0,0.0,0.0,0,10.74,17.1241
1027463,1622994136028,,,,,,,,0.43,0.03,-0.09,-5,3,1,0.43,,83,12703,69,27,85,0.791,78.3,681,4.86,12.7,42.0,1,43.0,5.55,32.3,0,0,1,1,0,801,250,16118,783,,,,,,,,,,,,,,,,
1027483,1622994136048,,,,,,,,0.52,-0.08,-0.08,-5,4,-1,0.53,,83,12816,69,27,85,0.784,78.4,685,4.87,12.7,41.9,1,43.0,5.55,32.9,0,0,1,1,0,802,250,204,772,,,,,,,,,,,,,,,,
1027503,1622994136068,,,,,,,,0.36,-0.03,-0.24,-5,8,0,0.36,,83,12895,69,27,85,0.778,79.4,686,4.85,12.7,41.9,1,43.0,5.55,32.9,0,0,1,1,0,808,250,204,794,,,,,,,,,,,,,,,,
1027523,1622994136096,,,,,,,,0.46,-0.08,-0.26,-4,7,-0,0.47,,83,12922,69,27,85,0.773,78.7,686,4.83,12.7,41.9,1,43.0,5.55,32.9,0,0,1,1,0,813,250,-388,784,,,,,,,,,,,,,,,,
1027543,1622994136116,3,3,44,39,26,27,0,0.45,-0.05,-0.07,-4,3,-2,0.45,0,83,12851,69,27,85,0.769,79.3,683,4.84,12.7,41.9,1,43.0,5.55,32.9,0,0,1,1,0,808,250,-4091,793,45.699379,4.910379,80.3,196.8,9,3,1.8,0,0.0,-1,0.0,,0.0,0,10.75,17.1257
1027563,1622994136136,,,,,,,,0.45,-0.08,-0.23,-4,3,0,0.46,,83,12860,69,27,85,0.765,79.2,677,4.88,12.7,41.9,1,43.0,5.55,32.9,0,0,1,1,0,815,250,-4091,794,,,,,,,,,,,,,,,,
1027583,1622994136156,,,,,,,,0.49,-0.02,-0.25,-4,1,0,0.49,,83,12966,69,27,84,0.762,79.2,684,4.88,12.7,41.9,1,43.0,5.41,32.9,0,0,1,1,0,813,250,-2358,792,,,,,,,,,,,,,,,,
1027603,1622994136176,,,,,,,,0.42,-0.09,-0.09,-4,-0,-1,0.43,,83,13084,69,27,84,0.759,79.0,695,4.85,12.6,41.0,1,43.0,5.41,32.5,0,0,1,1,0,816,250,-388,804,,,,,,,,,,,,,,,,
1027623,1622994136198,,,,,,,,0.36,-0.04,-0.25,-3,2,0,0.37,,84,13111,69,27,85,0.757,80.5,694,4.86,12.6,41.0,1,43.0,5.55,32.5,0,0,1,1,0,820,250,-2826,805,,,,,,,,,,,,,,,,
1027643,1622994136218,6,2,43,37,25,25,-0,0.5,-0.09,-0.39,-3,2,1,0.51,0,83,13130,69,27,84,0.755,81.7,690,4.83,12.7,41.0,1,43.0,5.41,32.5,0,0,1,1,0,829,250,-3580,817,45.69936,4.910365,81.86,196.8,9,3,1.8,0,0.0,-1,0.0,0.0,0.0,0,10.75,17.1274
1027663,1622994136238,,,,,,,,0.49,-0.02,-0.31,-3,-2,-0,0.49,,83,13084,69,27,85,0.753,80.8,688,4.86,12.6,41.0,1,43.0,5.55,32.5,0,0,1,1,0,827,250,1037,807,,,,,,,,,,,,,,,,
1027683,1622994136258,,,,,,,,0.4,-0.19,-0.45,-2,-2,2,0.44,,83,13121,69,27,84,0.752,80.6,683,4.85,12.6,40.8,1,43.0,5.41,32.9,0,0,1,1,0,828,250,-13068,806,,,,,,,,,,,,,,,,
1027703,1622994136278,,,,,,,,0.39,-0.02,-0.37,-2,-2,2,0.39,,83,13157,69,27,84,0.75,80.7,678,4.87,12.7,40.8,1,43.0,5.41,32.9,0,0,1,1,0,830,250,-2830,806,,,,,,,,,,,,,,,,
1027723,1622994136298,,,,,,,,0.46,-0.08,-0.51,-2,-1,2,0.47,,83,13232,69,27,84,0.748,80.6,688,4.88,12.7,40.8,1,43.0,5.41,32.9,0,0,1,1,0,829,250,-13068,815,,,,,,,,,,,,,,,,
1027743,1622994136318,12,7,42,41,26,26,-3,0.49,-0.1,-0.54,-2,0,2,0.5,0,83,13297,66,27,84,0.747,81.2,696,4.86,12.6,40.8,1,43.0,5.41,32.9,0,0,1,1,0,835,250,-31066,812,45.699345,4.91035,83.25,196.7,9,3,1.8,0,0.0,-1,0.0,,0.0,0,10.75,17.129
1027763,1622994136338,,,,,,,,0.42,-0.03,-0.47,-3,-0,0,0.42,,83,13307,54,27,84,0.746,82.0,690,4.87,12.7,40.8,1,43.0,5.41,32.9,0,0,1,1,0,837,250,8838,807,,,,,,,,,,,,,,,,
1027783,1622994136358,,,,,,,,0.31,-0.11,-0.59,-3,-0,2,0.33,,83,13279,43,27,83,0.746,82.0,688,4.88,12.7,38.5,1,43.0,5.14,31.6,0,0,1,1,0,859,250,-31066,806,,,,,,,,,,,,,,,,
1027803,1622994136378,,,,,,,,0.26,-0.16,-0.38,-3,-1,-0,0.31,,83,13316,35,26,80,0.747,81.4,699,4.85,12.7,38.5,1,43.0,5.02,31.6,0,0,1,1,0,828,250,-3344,814,,,,,,,,,,,,,,,,
1027823,1622994136398,,,,,,,,0.11,-0.04,-0.51,-3,2,-0,0.12,,83,13269,30,26,76,0.747,79.3,683,4.91,12.7,38.5,1,43.0,4.7,31.6,0,0,1,1,0,834,250,6790,786,,,,,,,,,,,,,,,,
1027843,1622994136418,31,24,41,36,27,28,-0,0.14,-0.08,-0.47,-3,3,-1,0.16,0,83,13176,22,26,70,0.748,80.6,686,4.88,12.7,38.5,1,43.0,4.36,31.6,0,0,1,1,0,834,250,-3580,813,45.699326,4.910336,84.47,196.6,9,3,1.8,0,0.0,-1,0.0,0.0,0.0,0,10.75,17.1307
1027863,1622994136438,,,,,,,,0.15,-0.04,-0.36,-3,1,-1,0.15,,83,12895,13,26,61,0.749,80.0,682,4.87,12.7,38.5,1,43.0,3.86,31.6,0,0,1,1,0,840,250,1037,800,,,,,,,,,,,,,,,,
1027883,1622994136458,,,,,,,,0.1,-0.2,-0.5,-3,2,1,0.22,,83,12550,5,26,53,0.75,79.5,684,4.9,12.7,38.5,1,39.7,3.73,31.6,0,0,1,1,0,817,250,-2918,787,,,,,,,,,,,,,,,,
1027903,1622994136478,,,,,,,,-0.03,-0.35,-0.63,-3,2,0,0.35,,83,12238,4,26,47,0.751,79.1,693,4.9,12.7,27.1,1,38.0,3.24,21.6,0,0,1,1,0,792,250,-12152,791,,,,,,,,,,,,,,,,
1027923,1622994136498,,,,,,,,-0.2,-0.44,-0.74,-3,3,1,0.49,,83,12011,4,26,42,0.751,80.7,683,4.88,12.7,27.1,1,34.8,3.02,21.6,0,0,1,1,0,782,250,-31066,791,,,,,,,,,,,,,,,,
1027943,1622994136518,46,31,30,25,35,34,0,-0.35,-0.45,-0.85,-4,3,0,0.57,0,83,11792,4,26,39,0.75,78.8,682,4.87,12.8,27.1,1,32.5,2.89,21.6,0,0,1,1,0,773,250,-10214,788,45.699306,4.910321,84.97,196.5,9,3,1.8,0,0.0,-1,0.0,,0.0,0,10.76,17.1324
1027963,1622994136538,,,,,,,,-0.42,-0.57,-0.94,-4,5,2,0.71,,83,11552,4,26,36,0.75,78.7,682,4.87,12.8,27.1,1,31.1,2.83,21.6,0,0,1,1,0,756,250,-31068,785,,,,,,,,,,,,,,,,
1027983,1622994136558,,,,,,,,-0.32,-0.43,-0.96,-4,2,3,0.54,,83,11315,4,26,34,0.75,77.8,692,4.89,12.7,27.1,1,30.5,2.86,21.6,0,0,1,1,0,789,250,-2830,778,,,,,,,,,,,,,,,,
1028003,1622994136578,,,,,,,,-0.36,-0.55,-0.92,-3,1,1,0.66,,83,11180,4,26,32,0.755,76.8,677,4.88,12.8,19.2,1,30.0,2.83,15.0,0,0,1,1,0,733,250,-10216,771,,,,,,,,,,,,,,,,
1028023,1622994136598,,,,,,,,-0.47,-0.44,-1.01,-3,1,2,0.65,,83,11127,4,26,30,0.765,75.0,664,4.87,12.8,19.2,1,29.1,2.79,15.0,0,0,1,1,0,729,250,-2830,759,,,,,,,,,,,,,,,,
1028043,1622994136618,44,31,22,21,35,35,4,-0.48,-0.39,-1.09,-3,4,3,0.62,0,83,11081,4,26,29,0.774,75.1,668,4.87,12.8,19.2,1,28.7,2.77,15.0,0,0,1,1,0,742,250,-3584,751,45.699291,4.910306,83.12,196.4,9,3,1.8,0,0.0,-1,0.0,0.0,0.0,0,10.76,17.1341
1028063,1622994136638,,,,,,,,-0.5,-0.25,-0.83,-2,2,-1,0.55,,83,11022,4,26,28,0.783,72.9,676,4.9,12.8,19.2,1,28.2,2.76,15.0,0,0,1,1,0,705,250,16599,729,,,,,,,,,,,,,,,,
1028083,1622994136658,,,,,,,,-0.46,-0.21,-0.81,-1,3,4,0.51,,83,10939,4,26,27,0.795,73.2,668,4.85,12.8,18.8,1,27.8,2.74,13.8,0,0,1,1,0,650,250,-2830,732,,,,,,,,,,,,,,,,
1028103,1622994136678,,,,,,,,-0.56,-0.3,-0.91,-0,4,6,0.63,,83,10726,4,26,27,0.809,71.9,678,4.87,12.8,18.8,1,27.8,2.74,13.8,0,0,1,1,0,654,250,-2580,719,,,,,,,,,,,,,,,,
1028123,1622994136698,,,,,,,,-0.56,-0.16,-0.67,-0,4,4,0.58,,83,10510,4,26,26,0.823,71.8,663,4.97,12.8,18.8,1,27.4,2.72,13.8,0,0,1,1,0,671,250,30208,709,,,,,,,,,,,,,,,,
1028143,1622994136718,45,29,21,22,41,40,3,-0.58,-0.05,-0.78,0,5,6,0.59,0,83,10257,4,26,26,0.836,71.3,681,4.82,12.8,18.8,1,27.4,2.61,13.8,0,0,1,1,0,630,250,-506,717,45.699272,4.910292,79.88,196.3,9,3,1.8,0,0.0,-1,0.0,,0.0,0,10.76,17.1357
1028163,1622994136738,,,,,,,,-0.66,0.03,-0.86,1,4,5,0.66,,83,10021,4,26,26,0.849,70.1,651,4.86,12.8,18.8,1,27.4,2.51,13.8,0,0,1,1,0,639,250,-22519,704,,,,,,,,,,,,,,,,
1028183,1622994136758,,,,,,,,-0.65,0.03,-0.62,1,4,5,0.65,,83,9709,4,26,25,0.859,68.6,650,4.85,12.8,16.1,1,27.0,2.47,11.1,0,0,1,1,0,697,250,-32248,686,,,,,,,,,,,,,,,,
1028203,1622994136778,,,,,,,,-0.75,0.1,-0.73,2,3,3,0.76,,83,9370,4,26,24,0.869,68.4,656,4.87,12.8,16.1,1,27.0,2.38,11.1,0,0,1,1,0,685,250,-1894,684,,,,,,,,,,,,,,,,
1028223,1622994136798,,,,,,,,-0.79,-0.01,-0.84,2,2,2,0.79,,83,9146,5,26,23,0.879,69.3,647,4.86,12.8,16.1,1,27.0,2.29,11.1,0,0,1,1,0,686,250,1,693,,,,,,,,,,,,,,,,
1028243,1622994136818,46,30,21,22,40,38,-1,-0.89,-0.07,-0.85,2,3,1,0.89,0,83,8920,5,26,23,0.888,67.6,645,4.98,12.9,16.1,1,27.0,2.29,11.1,0,0,1,1,0,670,250,1780,676,45.699253,4.910278,76.5,196.3,9,3,1.8,0,0.0,-1,0.0,0.0,0.0,0,10.76,17.1374
1028263,1622994136838,,,,,,,,-0.98,-0.2,-0.95,2,2,1,1.01,,83,8745,5,26,23,0.884,66.6,632,4.84,12.8,16.1,1,27.0,2.29,11.1,0,0,1,1,0,651,250,-28648,666,,,,,,,,,,,,,,,,
1028283,1622994136858,,,,,,,,-0.98,-0.15,-0.75,2,2,0,1.0,,83,8668,5,26,23,0.881,65.9,613,4.91,12.8,16.1,1,27.0,2.29,11.1,0,0,1,1,0,602,250,2104,659,,,,,,,,,,,,,,,,
1028303,1622994136878,,,,,,,,-0.96,-0.14,-0.61,1,2,-0,0.97,,83,8632,5,26,22,0.877,65.9,612,4.91,12.9,13.8,1,27.0,2.2,9.1,0,0,1,1,0,577,250,-8187,658,,,,,,,,,,,,,,,,
1028323,1622994136898,,,,,,,,-1.01,-0.18,-0.73,1,2,-1,1.03,,83,8507,5,26,22,0.873,65.1,605,4.87,12.9,13.8,1,27.0,2.2,9.1,0,0,1,1,0,536,250,15661,651,,,,,,,,,,,,,,,,
1028343,1622994136918,43,30,21,20,40,39,-2,-1.03,-0.06,-0.66,1,2,-0,1.03,0,83,8292,5,25,22,0.862,63.7,610,4.92,12.8,13.8,1,27.0,2.1,9.1,0,0,1,1,0,524,250,2524,642,45.699238,4.910265,72.65,196.2,9,3,1.8,0,0.0,-1,0.0,,0.0,0,10.77,17.139
1028363,1622994136938,,,,,,,,-1.06,-0.08,-0.76,0,2,-1,1.07,,83,8092,5,25,22,0.849,63.4,581,4.86,12.8,13.8,1,27.0,2.01,9.1,0,0,1,1,0,524,250,11560,631,,,,,,,,,,,,,,,,
1028383,1622994136958,,,,,,,,-1.05,-0.04,-0.86,-0,4,2,1.05,,83,7908,5,25,22,0.837,62.8,579,4.96,12.8,11.4,1,26.9,1.97,7.2,0,0,1,1,0,512,250,-1562,628,,,,,,,,,,,,,,,,
1028403,1622994136978,,,,,,,,-1.06,0.03,-0.79,-1,4,4,1.06,,83,7674,5,25,23,0.825,62.1,560,4.98,12.8,11.4,1,26.6,2.02,7.2,0,0,1,1,0,489,250,-6528,621,,,,,,,,,,,,,,,,
1028423,1622994136998,,,,,,,,-1.08,0.05,-0.76,-1,5,4,1.08,,83,7518,5,25,23,0.817,61.7,539,4.9,12.8,11.4,1,26.4,2.02,7.2,0,0,1,1,0,490,250,6274,617,,,,,,,,,,,,,,,,
1028443,1622994137009,44,30,20,19,40,40,-3,-1.06,0.13,-0.83,-2,5,4,1.07,0,83,7411,5,25,23,0.812,60.4,527,4.9,12.8,11.4,1,26.4,2.02,7.2,0,0,1,1,0,458,250,3576,604,45.699223,4.910254,69.44,196.1,9,3,1.8,0,0.0,-1,0.0,0.0,0.0,0,10.77,17.1407
1028463,1622994137029,,,,,,,,-1.1,0.15,-0.93,-3,6,5,1.11,,83,7344,5,25,23,0.806,59.8,533,4.92,12.8,11.4,1,26.3,2.02,7.2,0,0,1,1,0,444,250,-6387,598,,,,,,,,,,,,,,,,
1028483,1622994137049,,,,,,,,-1.15,0.09,-1.02,-3,6,5,1.15,,83,7172,5,25,23,0.8,58.7,520,4.91,12.9,11.4,1,26.1,2.02,7.2,0,0,1,1,0,431,250,8488,587,,,,,,,,,,,,,,,,
1028503,1622994137069,,,,,,,,-1.13,0.08,-0.77,-4,4,4,1.13,,83,6967,5,25,23,0.8,57.4,500,4.86,12.9,11.4,1,26.0,2.01,6.7,0,0,1,1,0,423,250,21432,584,,,,,,,,,,,,,,,,
1028523,1622994137097,,,,,,,,-1.17,0.12,-0.87,-4,7,6,1.18,,83,6756,5,25,23,0.8,57.4,501,4.97,12.8,11.4,1,26.1,2.01,6.7,0,0,1,1,0,398,250,6193,574,,,,,,,,,,,,,,,,
1028543,1622994137117,38,26,20,18,39,40,-1,-1.1,-0.01,-0.63,-5,5,4,1.1,0,83,6592,5,25,23,0.8,57.2,473,4.9,12.9,11.4,1,26.2,2.0,6.7,0,0,1,1,0,370,250,505,572,45.699211,4.910242,65.26,196.0,9,3,1.8,0,0.0,-1,0.0,,0.0,0,10.77,17.1424
1028563,1622994137137,,,,,,,,-1.15,-0.13,-0.75,-6,3,3,1.15,,83,6438,5,25,23,0.8,56.8,470,4.91,13.0,11.4,1,26.3,2.0,6.7,0,0,1,1,0,371,250,-21872,568,,,,,,,,,,,,,,,,
1028583,1622994137157,,,,,,,,-1.19,-0.03,-0.85,-6,6,5,1.19,,83,6401,5,25,23,0.803,55.7,478,4.93,12.9,10.5,1,26.3,2.0,5.9,0,0,1,1,0,347,250,-8985,560,,,,,,,,,,,,,,,,
1028603,1622994137177,,,,,,,,-1.09,0.04,-0.61,-7,5,5,1.09,,83,6338,5,25,23,0.809,55.5,468,4.89,12.8,10.5,1,26.3,1.99,5.9,0,0,1,1,0,309,250,-3414,555,,,,,,,,,,,,,,,,
1028623,1622994137197,,,,,,,,-1.08,-0.08,-0.39,-7,3,3,1.08,,83,6169,5,25,24,0.815,54.2,458,4.87,12.8,10.5,1,26.6,2.05,5.9,0,0,1,1,0,287,250,-3210,538,,,,,,,,,,,,,,,,
1028643,1622994137217,39,26,21,18,39,41,1,-1.02,-0.11,-0.19,-8,2,2,1.02,0,83,5990,5,25,24,0.82,53.2,436,4.91,13.0,10.5,1,26.6,2.04,5.9,0,0,1,1,0,280,250,1248,532,45.699196,4.910231,61.25,195.9,9,3,1.8,0,0.0,-1,0.0,0.0,0.0,0,10.77,17.1441
1028663,1622994137237,,,,,,,,-0.96,-0.11,-0.01,-8,1,2,0.97,,83,5826,5,25,25,0.826,52.4,433,4.84,12.8,10.5,1,26.3,2.11,5.9,0,0,1,1,0,270,250,-9212,524,,,,,,,,,,,,,,,,
1028683,1622994137257,,,,,,,,-0.95,-0.05,-0.05,-8,4,4,0.95,,83,5753,5,25,26,0.831,52.4,427,4.88,12.8,10.6,1,26.2,2.1,5.6,0,0,1,1,0,226,250,2109,522,,,,,,,,,,,,,,,,
1028703,1622994137277,,,,,,,,-1.0,-0.08,-0.22,-8,6,7,1.0,,83,5695,5,25,26,0.837,51.0,419,4.91,12.8,10.6,1,25.8,2.09,5.6,0,0,1,1,0,209,250,-17956,510,,,,,,,,,,,,,,,,
1028723,1622994137297,,,,,,,,-1.03,-0.02,-0.36,-8,2,3,1.03,,83,5547,5,25,27,0.843,50.9,403,5.0,13.0,10.6,1,25.6,2.09,5.6,0,0,1,1,0,208,250,14488,509,,,,,,,,,,,,,,,,
1028743,1622994137317,39,25,20,17,40,41,7,-0.97,-0.06,-0.17,-8,2,3,0.97,0,83,5369,5,25,28,0.847,49.5,400,4.91,12.8,10.6,1,25.2,2.09,5.6,0,0,1,1,0,178,250,-18108,495,45.699184,4.910221,57.37,195.8,9,3,1.8,0,0.0,-1,0.0,,0.0,0,10.77,17.1457
1028763,1622994137337,,,,,,,,-1.06,-0.11,-0.32,-8,3,3,1.06,,83,5231,5,25,29,0.851,48.9,395,4.9,12.9,10.6,1,25.0,2.1,5.6,0,0,1,1,0,171,250,3580,489,,,,,,,,,,,,,,,,
1028783,1622994137357,,,,,,,,-1.05,-0.14,-0.13,-7,2,2,1.06,,83,5037,5,25,30,0.854,48.3,376,4.91,12.8,10.6,1,24.6,2.11,5.6,0,0,1,1,0,170,250,-1562,483,,,,,,,,,,,,,,,,
1028803,1622994137377,,,,,,,,-1.03,-0.07,-0.28,-6,-0,0,1.03,,83,4891,5,25,30,0.857,48.1,364,4.93,12.9,10.1,1,23.5,2.1,4.9,0,0,1,1,0,160,250,-1923,481,,,,,,,,,,,,,,,,
1028823,1622994137397,,,,,,,,-0.98,-0.08,-0.43,-6,1,1,0.99,,83,4743,5,25,31,0.862,47.0,367,4.91,13.0,10.1,1,22.5,2.1,4.9,0,0,1,1,0,145,250,2211,470,,,,,,,,,,,,,,,,
1028843,1622994137417,32,19,20,17,40,40,7,-0.97,-0.09,-0.56,-5,1,2,0.97,0,83,4595,5,25,32,0.864,46.0,347,4.92,13.0,10.1,1,21.4,0.96,4.9,0,0,1,1,0,129,250,26704,460,45.699173,4.910211,53.71,195.7,9,3,1.8,0,0.0,-1,0.0,0.0,0.0,0,10.77,17.1474
1028863,1622994137437,,,,,,,,-0.93,-0.16,-0.68,-4,1,2,0.94,,83,4442,5,25,33,0.867,44.8,342,4.96,13.0,10.1,1,20.1,2.15,4.9,0,0,1,1,0,137,250,8488,448,,,,,,,,,,,,,,,,
1028883,1622994137457,,,,,,,,-0.92,-0.17,-0.79,-3,1,2,0.94,,83,4308,5,25,34,0.869,45.3,325,4.92,13.0,9.2,1,19.0,2.14,4.2,0,0,1,1,0,151,250,-18341,452,,,,,,,,,,,,,,,,
1028903,1622994137477,,,,,,,,-0.88,-0.08,-0.89,-3,1,1,0.89,,83,4296,5,25,34,0.873,44.2,321,4.93,13.0,9.2,1,18.8,2.17,4.2,0,0,1,1,0,169,250,9517,442,,,,,,,,,,,,,,,,
1028923,1622994137497,,,,,,,,-0.92,-0.06,-0.65,-2,1,-0,0.92,,83,4332,5,25,35,0.875,44.0,317,4.88,13.0,9.2,1,19.3,2.18,4.2,0,0,1,1,0,155,250,11560,440,,,,,,,,,,,,,,,,
1028943,1622994137517,24,13,20,19,39,39,6,-0.95,-0.01,-0.43,-1,-1,-1,0.95,0,83,4314,5,25,35,0.878,42.7,322,4.9,12.8,9.2,1,19.1,2.21,4.2,0,0,1,1,0,148,250,10392,427,45.699162,4.910202,50.14,195.6,9,3,1.8,0,0.0,-1,0.0,,0.0,0,10.78,17.149
1028963,1622994137537,,,,,,,,-0.98,0.02,-0.22,0,-2,-2,0.98,,83,4342,5,25,36,0.88,42.5,322,4.89,12.8,9.2,1,19.5,2.25,4.2,0,0,1,1,0,160,250,-1818,425,,,,,,,,,,,,,,,,
1028983,1622994137557,,,,,,,,-1.0,0.03,-0.05,1,-1,-0,1.0,,83,4357,5,25,37,0.883,42.3,323,4.96,12.9,9.2,1,19.7,1.14,4.2,0,0,1,1,0,174,250,3,423,,,,,,,,,,,,,,,,
1029003,1622994137577,,,,,,,,-1.0,0.05,-0.21,2,-0,1,1.0,,83,4385,6,25,37,0.886,41.4,332,4.95,13.0,10.8,1,20.0,2.31,4.6,0,0,1,1,0,218,250,0,414,,,,,,,,,,,,,,,,
1029023,1622994137597,,,,,,,,-0.97,0.09,-0.36,3,1,2,0.97,,83,4394,6,25,37,0.889,40.5,327,4.95,12.9,10.8,1,20.1,2.31,4.6,0,0,1,1,0,271,250,-14707,405,,,,,,,,,,,,,,,,
1029043,1622994137617,15,8,20,22,39,37,6,-0.92,0.05,-0.5,4,2,3,0.92,0,83,4427,6,25,38,0.891,40.5,333,4.87,13.0,10.8,1,20.6,2.35,4.6,0,0,1,1,0,328,250,-6405,402,45.69915,4.910193,46.93,195.5,9,3,1.8,0,0.0,-1,0.0,0.0,0.0,0,10.78,17.1507
1029063,1622994137637,,,,,,,,-0.9,0.02,-0.62,4,3,5,0.9,,83,4435,6,25,39,0.895,39.4,331,4.91,13.0,10.8,1,20.9,2.41,4.6,0,0,1,1,0,400,250,-29302,394,,,,,,,,,,,,,,,,
1029083,1622994137657,,,,,,,,-0.84,0.02,-0.74,5,3,6,0.84,,83,4449,6,25,39,0.896,39.4,335,4.91,13.0,12.4,1,21.1,2.41,4.9,0,0,1,1,0,395,250,230,394,,,,,,,,,,,,,,,,
1029103,1622994137677,,,,,,,,-0.83,0.01,-0.84,5,4,7,0.83,,83,4530,6,26,40,0.898,38.9,331,4.91,13.0,12.4,1,22.2,1.31,4.9,0,0,1,1,0,388,250,0,389,,,,,,,,,,,,,,,,
1029123,1622994137697,,,,,,,,-0.83,-0.01,-0.94,5,6,7,0.83,,83,4552,6,26,40,0.899,38.7,340,4.93,13.0,12.4,1,22.4,2.47,4.9,0,0,1,1,0,387,250,2060,387,,,,,,,,,,,,,,,,
1029143,1622994137717,16,11,20,24,40,36,6,-0.82,-0.06,-1.03,5,7,9,0.82,0,83,4619,6,26,40,0.9,37.9,338,4.95,13.0,12.4,1,23.2,2.49,4.9,0,0,1,1,0,372,250,-29978,379,45.699142,4.910184,43.94,195.5,9,3,1.8,0,0.0,-1,0.0,,0.0,0,10.78,17.1524
1029163,1622994137737,,,,,,,,-0.88,-0.04,-1.11,5,9,10,0.88,,83,4661,7,26,41,0.9,37.9,345,4.94,12.9,12.4,1,24.3,2.53,4.9,0,0,1,1,0,371,250,230,370,,,,,,,,,,,,,,,,
1029183,1622994137757,,,,,,,,-0.9,-0.02,-0.85,6,10,11,0.9,,83,4700,7,26,41,0.899,37.1,345,4.89,12.9,12.4,1,24.4,2.55,4.9,0,0,1,1,0,370,250,-6405,368,,,,,,,,,,,,,,,,
1029203,1622994137777,,,,,,,,-0.89,0.02,-0.61,5,8,9,0.89,,83,4789,7,26,42,0.899,36.5,354,4.92,12.9,14.9,1,25.6,2.61,5.5,0,0,1,1,0,353,250,3302,366,,,,,,,,,,,,,,,,
1029223,1622994137799,,,,,,,,-0.83,0.05,-0.42,5,4,6,0.83,,83,4816,7,26,42,0.899,36.1,352,4.9,13.0,14.9,1,26.0,2.63,5.5,0,0,1,1,0,344,250,-1246,354,,,,,,,,,,,,,,,,
1029243,1622994137819,20,13,20,24,39,37,4,-0.81,-0.01,-0.56,5,4,5,0.81,0,83,4872,7,26,43,0.897,35.5,352,4.89,13.0,14.9,1,26.9,2.67,5.5,0,0,1,1,0,338,250,-31222,352,45.699135,4.910177,42.3,195.4,9,3,1.8,0,0.0,-1,0.0,0.0,0.0,0,10.78,17.1541
1029263,1622994137839,,,,,,,,-0.82,-0.02,-0.68,5,5,7,0.82,,83,4940,7,26,43,0.895,34.8,367,4.88,12.8,14.9,1,27.7,2.71,5.5,0,0,1,1,0,344,250,-31222,347,,,,,,,,,,,,,,,,
1029283,1622994137859,,,,,,,,-0.8,0.02,-0.45,5,3,5,0.8,,83,4944,7,26,44,0.892,34.0,360,4.9,12.8,14.9,1,28.0,2.73,5.5,0,0,1,1,0,336,250,165,340,,,,,,,,,,,,,,,,
1029303,1622994137879,,,,,,,,-0.77,-0.0,-0.58,5,2,3,0.77,,83,5014,7,26,44,0.89,33.9,364,4.94,13.0,18.2,1,28.7,2.76,6.2,0,0,1,1,0,330,250,2560,339,,,,,,,,,,,,,,,,
1029323,1622994137897,,,,,,,,-0.78,-0.02,-0.7,5,5,5,0.78,,83,5036,7,26,45,0.888,33.1,379,4.88,12.8,18.2,1,29.0,2.77,6.2,0,0,1,1,0,329,250,165,331,,,,,,,,,,,,,,,,
1029343,1622994137917,10,6,21,23,39,37,4,-0.7,0.01,-0.47,5,0,3,0.7,0,83,5102,7,26,45,0.886,33.1,371,4.88,13.0,18.2,1,29.1,2.74,6.2,0,0,1,1,0,323,250,-22016,332,45.699123,4.91017,38.58,195.4,9,3,1.8,0,0.0,-1,0.0,,0.0,0,10.78,17.1557
1029363,1622994137937,,,,,,,,-0.68,-0.0,-0.6,5,2,4,0.68,,83,5144,7,26,45,0.884,33.2,384,4.9,12.9,18.2,1,29.2,2.73,6.2,0,0,1,1,0,323,250,-25856,332,,,,,,,,,,,,,,,,
1029383,1622994137957,,,,,,,,-0.67,0.01,-0.38,4,1,3,0.67,,83,5176,7,26,45,0.882,32.7,386,4.88,12.8,18.2,1,29.3,2.71,6.2,0,0,1,1,0,323,250,-27136,327,,,,,,,,,,,,,,,,
1029403,1622994137977,,,,,,,,-0.68,-0.0,-0.52,4,0,2,0.68,,83,5180,7,26,45,0.883,32.7,385,4.9,13.0,19.8,1,29.3,2.71,6.5,0,0,1,1,0,322,250,-24576,322,,,,,,,,,,,,,,,,
1029423,1622994137997,,,,,,,,-0.69,-0.01,-0.31,4,3,4,0.69,,83,5145,7,26,45,0.884,32.4,384,4.87,12.8,19.8,1,29.2,2.73,6.5,0,0,1,1,0,321,250,-27136,324,,,,,,,,,,,,,,,,
1029443,1622994138008,5,4,23,24,36,35,2,-0.62,-0.01,-0.25,4,-1,0,0.62,0,83,5093,7,26,46,0.885,32.1,375,4.95,13.0,19.8,1,29.4,2.76,6.5,0,0,1,1,0,319,250,-27136,321,45.699116,4.910163,36.11,195.3,9,3,1.8,0,0.0,-1,0.0,0.0,0.0,0,10.78,17.1574
1029463,1622994138028,,,,,,,,-0.58,-0.01,-0.4,3,2,3,0.58,,83,5029,7,26,46,0.887,31.9,386,4.9,12.9,19.8,1,29.3,2.79,6.5,0,0,1,1,0,320,250,-28416,319,,,,,,,,,,,,,,,,
1029483,1622994138048,,,,,,,,-0.59,0.01,-0.2,3,0,1,0.59,,83,4940,8,26,46,0.891,31.7,367,4.92,12.9,19.8,1,28.5,2.76,6.3,0,0,1,1,0,318,250,-28416,317,,,,,,,,,,,,,,,,
1029503,1622994138068,,,,,,,,-0.53,0.01,-0.02,3,-2,-1,0.53,,83,4896,8,26,47,0.897,31.8,359,4.93,13.0,19.8,1,28.3,2.77,6.3,0,0,1,1,0,316,250,-29696,318,,,,,,,,,,,,,,,,
1029523,1622994138098,,,,,,,,-0.48,0.0,-0.18,3,-2,-0,0.48,,83,4890,9,26,48,0.903,31.6,357,4.86,13.0,19.8,1,28.5,1.63,6.3,0,0,1,1,0,314,250,135,316,,,,,,,,,,,,,,,,
1029543,1622994138118,2,0,28,29,34,33,2,-0.5,-0.0,-0.29,3,0,2,0.5,0,83,4910,11,26,49,0.909,31.7,362,4.88,12.8,19.8,1,29.1,2.8,6.3,0,0,1,1,0,311,250,32000,317,45.699108,4.910158,34.04,195.3,9,3,1.8,0,0.0,-1,0.0,,0.0,0,10.78,17.159
1029563,1622994138138,,,,,,,,-0.49,0.03,-0.1,3,-1,0,0.49,,83,4938,12,26,51,0.917,31.6,360,4.93,12.9,19.8,1,30.0,2.85,6.3,0,0,1,1,0,309,250,32000,309,,,,,,,,,,,,,,,,
1029583,1622994138158,,,,,,,,-0.43,0.03,-0.25,2,-2,-2,0.43,,83,4989,13,26,53,0.926,31.0,361,4.95,13.0,19.8,1,31.2,2.92,6.3,0,0,1,1,0,310,250,32000,310,,,,,,,,,,,,,,,,
1029603,1622994138178,,,,,,,,-0.43,0.05,-0.4,2,0,1,0.43,,83,4980,13,26,55,0.935,31.0,369,4.9,13.0,21.6,1,31.8,1.77,6.7,0,0,1,1,0,307,250,30720,307,,,,,,,,,,,,,,,,
1029623,1622994138198,,,,,,,,-0.43,0.03,-0.2,2,-1,-0,0.43,,83,5013,14,26,57,0.944,31.0,365,4.87,12.9,21.6,1,32.7,2.91,6.7,0,0,1,1,0,307,250,30720,310,,,,,,,,,,,,,,,,
1029643,1622994138218,2,1,30,30,34,32,2,-0.35,0.04,-0.35,2,-3,-2,0.36,0,83,4969,14,26,59,0.953,31.0,361,4.92,13.0,21.6,1,32.9,2.86,6.7,0,0,1,1,0,309,250,30720,310,45.6991,4.910152,32.97,195.3,9,3,1.8,0,0.0,-1,0.0,0.0,0.0,0,10.78,17.1607
1029663,1622994138238,,,,,,,,-0.36,0.02,-0.49,2,0,1,0.36,,83,5030,14,26,60,0.962,30.7,367,4.9,13.0,21.6,1,33.6,1.71,6.7,0,0,1,1,0,311,250,120,307,,,,,,,,,,,,,,,,
1029683,1622994138258,,,,,,,,-0.33,0.04,-0.28,2,-2,-1,0.33,,83,5047,14,26,62,0.97,31.0,368,4.87,12.8,21.6,1,34.3,2.87,6.7,0,0,1,1,0,309,250,120,310,,,,,,,,,,,,,,,,
1029703,1622994138278,,,,,,,,-0.28,0.0,-0.42,2,-2,-1,0.28,,83,5102,14,26,63,0.979,30.7,363,4.95,13.0,21.6,1,34.6,2.91,6.7,0,0,1,1,0,310,250,120,307,,,,,,,,,,,,,,,,
1029723,1622994138298,,,,,,,,-0.31,0.02,-0.22,1,-0,0,0.31,,83,5132,14,26,64,0.985,30.9,378,4.88,12.8,21.6,1,34.9,1.82,6.7,0,0,1,1,0,308,250,115,309,,,,,,,,,,,,,,,,
1029743,1622994138318,2,0,32,31,33,31,-3,-0.24,-0.03,-0.04,1,-3,-3,0.24,0,83,5162,14,26,66,0.986,30.8,371,4.94,13.0,21.6,1,35.5,3.03,6.7,0,0,1,1,0,306,250,115,305,45.699097,4.910146,31.83,195.2,9,3,1.8,0,0.0,-1,0.0,,0.0,0,10.78,17.1624
1029763,1622994138338,,,,,,,,-0.28,0.0,-0.2,1,2,1,0.28,,83,5250,14,26,67,0.988,30.8,382,4.89,12.9,21.6,1,35.8,3.17,6.7,0,0,1,1,0,306,250,30720,308,,,,,,,,,,,,,,,,
1029783,1622994138358,,,,,,,,-0.19,0.01,-0.02,0,-4,-3,0.19,,83,5374,14,26,68,0.99,31.0,387,4.96,13.0,25.4,1,36.0,3.19,7.9,0,0,1,1,0,304,250,120,306,,,,,,,,,,,,,,,,
1029803,1622994138378,,,,,,,,-0.16,-0.02,0.15,-0,-2,-1,0.16,,83,5472,14,26,68,0.986,31.1,398,4.86,12.8,25.4,1,35.9,3.3,7.9,0,0,1,1,0,305,250,120,311,,,,,,,,,,,,,,,,
1029823,1622994138398,,,,,,,,-0.18,-0.03,-0.03,-1,0,0,0.18,,83,5500,15,26,69,0.972,30.9,397,4.94,13.0,25.4,1,36.1,3.38,7.9,0,0,1,1,0,309,250,-32256,309,,,,,,,,,,,,,,,,
1029843,1622994138418,2,2,34,33,30,31,-14,-0.05,-0.04,0.14,-2,-6,-5,0.06,0,83,5316,15,26,69,0.956,31.0,383,4.99,13.0,25.4,1,36.2,3.34,7.9,0,0,1,1,0,318,250,-28416,310,45.699089,4.910141,31.47,195.2,9,3,1.8,0,0.0,-1,0.0,0.0,0.0,0,10.79,17.164
1029863,1622994138438,,,,,,,,-0.05,-0.09,-0.04,-2,-1,0,0.11,,83,5037,15,26,71,0.941,31.6,378,4.87,12.9,25.4,1,37.0,3.31,7.9,0,0,1,1,0,317,250,-24576,316,,,,,,,,,,,,,,,,
1029883,1622994138458,,,,,,,,-0.08,-0.12,-0.04,-4,-0,0,0.14,,83,4749,15,26,71,0.925,31.9,355,4.88,12.8,25.4,1,32.2,3.18,7.9,0,0,1,1,0,318,250,-24576,319,,,,,,,,,,,,,,,,
1029903,1622994138478,,,,,,,,-0.12,-0.1,0.13,-5,1,-0,0.15,,83,4664,15,26,72,0.904,32.5,343,4.9,12.8,21.0,1,32.5,3.11,6.7,0,0,1,1,0,314,250,155,325,,,,,,,,,,,,,,,,
1029923,1622994138498,,,,,,,,-0.14,-0.16,0.28,-7,-1,-2,0.21,,83,4836,15,26,73,0.883,32.1,343,4.88,13.0,21.0,1,35.2,3.3,6.7,0,0,1,1,0,306,250,-24576,321,,,,,,,,,,,,,,,,
1029943,1622994138518,3,3,39,32,28,33,-37,-0.1,-0.23,0.09,-9,-1,-3,0.25,0,83,4947,15,26,73,0.862,32.5,346,4.91,13.0,21.0,1,36.7,3.39,6.7,0,0,1,1,0,304,250,160,324,45.699081,4.910135,32.01,195.1,9,3,1.8,0,0.0,-1,0.0,,0.0,0,10.79,17.1657
1029963,1622994138538,,,,,,,,-0.14,-0.26,-0.08,-12,2,-1,0.3,,83,5122,15,26,74,0.842,32.3,369,4.82,12.8,21.0,1,37.7,3.52,6.7,0,0,1,1,0,300,250,160,323,,,,,,,,,,,,,,,,
1029983,1622994138558,,,,,,,,-0.06,-0.29,0.09,-15,-2,-5,0.3,,83,5222,15,26,75,0.827,32.8,366,5.03,13.0,26.2,1,37.8,3.59,8.6,0,0,1,1,0,298,250,-22016,328,,,,,,,,,,,,,,,,
1030003,1622994138578,,,,,,,,-0.09,-0.29,-0.08,-17,3,0,0.3,,83,5298,15,26,75,0.813,33.2,374,4.89,12.9,26.2,1,37.7,2.54,8.6,0,0,1,1,0,308,250,-20736,331,,,,,,,,,,,,,,,,
1030023,1622994138598,,,,,,,,-0.01,-0.35,0.09,-19,-1,-4,0.35,,83,5293,15,26,75,0.797,33.3,374,4.87,13.0,26.2,1,37.7,3.69,8.6,0,0,1,1,0,313,250,-12032,333,,,,,,,,,,,,,,,,
1030043,1622994138618,4,3,41,30,28,35,-40,-0.05,-0.35,-0.08,-21,4,0,0.35,0,83,5218,15,27,75,0.783,33.1,382,4.83,12.8,26.2,1,37.8,3.66,8.6,0,0,1,1,0,328,250,-32559,331,45.699078,4.910129,32.66,195.1,9,3,1.8,0,0.0,-1,0.0,0.0,0.0,0,10.79,17.1674
1030063,1622994138638,,,,,,,,0.0,-0.39,0.09,-23,-1,-3,0.39,,83,5146,15,27,75,0.779,33.5,367,5.0,13.0,26.2,1,37.9,3.6,8.6,0,0,1,1,0,341,250,-32559,335,,,,,,,,,,,,,,,,
1030083,1622994138658,,,,,,,,-0.05,-0.45,-0.08,-24,4,1,0.46,,83,5127,14,27,76,0.777,33.2,371,4.86,12.8,25.9,1,38.3,3.65,8.6,0,0,1,1,0,325,250,-6528,336,,,,,,,,,,,,,,,,
1030103,1622994138678,,,,,,,,-0.05,-0.54,0.09,-26,0,-1,0.54,,83,5145,12,27,75,0.776,33.4,365,4.95,13.0,25.9,1,37.9,3.6,8.6,0,0,1,1,0,314,250,-32559,334,,,,,,,,,,,,,,,,
1030123,1622994138698,,,,,,,,-0.03,-0.62,-0.08,-28,2,-1,0.62,,83,5122,11,27,74,0.775,33.8,362,4.97,13.0,25.9,1,37.7,3.54,8.6,0,0,1,1,0,312,250,3346,338,,,,,,,,,,,,,,,,
1030143,1622994138718,7,4,40,30,28,36,-46,-0.08,-0.58,0.09,-30,3,-1,0.58,0,83,5077,10,27,73,0.778,34.2,370,4.87,12.8,25.9,1,37.5,3.47,8.6,0,0,1,1,0,314,250,2560,342,45.699066,4.910122,32.67,195.0,9,3,2.0,0,0.0,-1,0.0,,0.0,0,10.79,17.1691
1030163,1622994138738,,,,,,,,-0.06,-0.6,0.25,-32,1,-4,0.6,,83,5089,10,27,72,0.781,34.1,366,4.96,13.0,25.9,1,37.2,3.43,8.6,0,0,1,1,0,323,250,-31222,341,,,,,,,,,,,,,,,,
1030183,1622994138758,,,,,,,,-0.1,-0.63,0.06,-34,5,-1,0.64,,83,5104,10,27,71,0.786,33.9,375,4.86,12.9,23.8,1,36.9,3.43,8.1,0,0,1,1,0,302,250,2560,341,,,,,,,,,,,,,,,,
1030203,1622994138778,,,,,,,,-0.08,-0.64,0.22,-36,-0,-4,0.64,,83,5185,10,27,70,0.789,34.0,366,4.96,13.0,23.8,1,36.6,3.35,8.1,0,0,1,1,0,306,250,-31222,340,,,,,,,,,,,,,,,,
1030223,1622994138796,,,,,,,,-0.11,-0.67,0.04,-37,3,-1,0.68,,83,5185,10,27,70,0.792,33.9,375,4.92,13.0,23.8,1,36.6,2.2,8.1,0,0,1,1,0,319,250,13,339,,,,,,,,,,,,,,,,
1030243,1622994138816,8,4,38,31,28,39,-44,-0.11,-0.7,0.2,-39,1,-2,0.71,0,83,5230,10,27,69,0.793,33.4,376,4.92,12.9,23.8,1,36.3,2.16,8.1,0,0,1,1,0,311,250,13,334,45.699059,4.910115,32.68,194.9,9,3,1.8,0,0.0,-1,0.0,0.0,0.0,0,10.79,17.1707
1030263,1622994138836,,,,,,,,-0.12,-0.76,0.02,-40,3,-0,0.77,,83,5208,10,27,69,0.794,33.6,370,4.96,13.0,23.8,1,36.3,3.3,8.1,0,0,1,1,0,335,250,3346,336,,,,,,,,,,,,,,,,
1030283,1622994138856,,,,,,,,-0.13,-0.72,0.18,-41,1,-1,0.73,,83,5178,10,27,68,0.795,33.4,379,4.9,12.9,23.3,1,36.1,3.25,7.8,0,0,1,1,0,354,250,-6528,334,,,,,,,,,,,,,,,,
1030303,1622994138876,,,,,,,,-0.14,-0.75,0.0,-42,1,-2,0.77,,83,5191,10,27,68,0.795,33.1,374,4.94,13.0,23.3,1,36.1,3.25,7.8,0,0,1,1,0,296,250,175,331,,,,,,,,,,,,,,,,
1030323,1622994138898,,,,,,,,-0.21,-0.74,-0.03,-43,3,-1,0.77,,83,5144,10,27,68,0.795,33.0,379,4.86,12.8,23.3,1,36.1,3.24,7.8,0,0,1,1,0,296,250,175,330,,,,,,,,,,,,,,,,
1030343,1622994138918,7,3,37,30,27,37,-42,-0.16,-0.75,0.14,-43,-0,-4,0.77,0,83,5106,10,27,67,0.795,33.2,367,4.98,13.0,23.3,1,35.8,3.17,7.8,0,0,1,1,0,306,250,-12032,329,45.699055,4.910107,32.51,194.9,9,3,1.8,0,0.0,-1,0.0,,0.0,0,10.79,17.1724
1030363,1622994138938,,,,,,,,-0.17,-0.79,-0.04,-44,3,-2,0.81,,83,4965,10,27,67,0.795,32.7,357,4.91,13.0,23.3,1,35.3,3.14,7.8,0,0,1,1,0,300,250,175,327,,,,,,,,,,,,,,,,
1030383,1622994138958,,,,,,,,-0.2,-0.69,0.09,-44,3,-2,0.72,,83,4846,10,27,67,0.793,32.9,362,4.89,12.8,20.9,1,33.7,3.09,6.9,0,0,1,1,0,301,250,170,329,,,,,,,,,,,,,,,,
1030403,1622994138978,,,,,,,,-0.21,-0.64,0.25,-45,1,-3,0.68,,83,4802,10,27,67,0.788,33.3,356,4.9,12.8,20.9,1,33.1,3.07,6.9,0,0,1,1,0,300,250,170,333,,,,,,,,,,,,,,,,
1030423,1622994138998,,,,,,,,-0.17,-0.65,0.35,-45,-0,-3,0.68,,83,4820,10,27,67,0.785,32.9,348,4.91,13.0,20.9,1,33.4,3.08,6.9,0,0,1,1,0,293,250,165,325,,,,,,,,,,,,,,,,
1030443,1622994139009,-5,4,37,30,30,36,-25,-0.14,-0.64,0.15,-44,0,-2,0.65,0,83,4807,10,27,67,0.781,32.5,348,4.9,13.0,20.9,1,33.2,3.07,6.9,0,0,1,1,0,293,250,-24576,325,45.699051,4.910099,32.31,194.8,9,3,1.8,0,0.0,-1,0.0,0.0,0.0,0,10.79,17.174
1030463,1622994139029,,,,,,,,-0.16,-0.59,-0.03,-43,2,0,0.61,,83,4836,10,27,67,0.777,31.8,352,4.95,13.0,20.9,1,33.6,1.93,6.9,0,0,1,1,0,294,250,150,318,,,,,,,,,,,,,,,,
1030483,1622994139049,,,,,,,,-0.21,-0.48,0.14,-42,2,-0,0.53,,83,4841,10,27,67,0.774,31.9,357,4.88,12.8,20.9,1,33.7,3.09,6.9,0,0,1,1,0,293,250,145,319,,,,,,,,,,,,,,,,
1030503,1622994139069,,,,,,,,-0.17,-0.47,0.3,-40,-1,-2,0.5,,83,4838,10,27,67,0.77,31.4,351,4.93,13.0,21.6,1,33.6,3.09,6.9,0,0,1,1,0,296,250,135,314,,,,,,,,,,,,,,,,
1030523,1622994139099,,,,,,,,-0.12,-0.43,0.11,-38,-1,-1,0.45,,83,4867,10,27,67,0.767,31.0,353,4.92,13.0,21.6,1,34.0,3.1,6.9,0,0,1,1,0,298,250,125,311,,,,,,,,,,,,,,,,
1030543,1622994139119,8,5,35,33,33,33,-1,-0.16,-0.37,-0.07,-36,2,2,0.41,0,83,4918,10,27,67,0.764,30.6,362,4.88,12.8,21.6,1,34.8,3.12,6.9,0,0,1,1,0,299,250,30720,306,45.699043,4.910089,32.16,194.7,9,3,1.8,0,0.0,-1,0.0,,0.0,0,10.79,17.1757
1030563,1622994139139,,,,,,,,-0.2,-0.28,0.1,-33,0,1,0.34,,83,4927,10,27,67,0.763,30.3,361,4.92,12.9,21.6,1,34.8,3.12,6.9,0,0,1,1,0,301,250,115,303,,,,,,,,,,,,,,,,
1030583,1622994139159,,,,,,,,-0.16,-0.22,-0.07,-30,-2,-1,0.27,,83,4872,10,27,67,0.762,30.4,352,4.96,13.0,23.0,1,34.1,3.1,7.0,0,0,1,1,0,302,250,28160,304,,,,,,,,,,,,,,,,
1030603,1622994139179,,,,,,,,-0.13,-0.19,-0.23,-27,-1,0,0.23,,83,4805,10,27,67,0.762,30.1,353,4.93,13.0,23.0,1,33.2,3.02,7.0,0,0,1,1,0,304,250,26880,295,,,,,,,,,,,,,,,,
1030623,1622994139193,,,,,,,,-0.16,-0.14,-0.38,-24,0,3,0.22,,83,4696,10,27,67,0.761,29.4,350,4.92,12.9,23.0,1,31.7,3.03,7.0,0,0,1,1,0,305,250,95,294,,,,,,,,,,,,,,,,
1030643,1622994139213,16,12,31,34,34,30,26,-0.23,-0.1,-0.31,-21,2,4,0.25,0,83,4693,11,27,67,0.763,28.9,352,4.89,12.8,23.0,1,31.4,3.02,7.0,0,0,1,1,0,304,250,21760,289,45.699039,4.91008,31.54,194.7,9,3,1.8,0,0.0,-1,0.0,0.0,0.0,0,10.79,17.1774
1030663,1622994139233,,,,,,,,-0.29,0.04,-0.12,-17,3,4,0.29,,83,4638,11,27,67,0.765,28.1,348,4.92,12.8,23.0,1,30.9,3.0,7.0,0,0,1,1,0,302,250,0,281,,,,,,,,,,,,,,,,
1030683,1622994139253,,,,,,,,-0.34,0.13,0.06,-13,4,4,0.36,,83,4652,11,27,66,0.767,27.6,345,4.92,12.8,22.8,1,30.8,2.95,6.3,0,0,1,1,0,300,250,-1529,276,,,,,,,,,,,,,,,,
1030703,1622994139273,,,,,,,,-0.3,0.22,0.22,-10,2,3,0.37,,83,4707,12,27,66,0.769,27.4,336,4.91,13.0,22.8,1,31.5,3.03,6.3,0,0,1,1,0,299,250,-1534,274,,,,,,,,,,,,,,,,
1030723,1622994139297,,,,,,,,-0.27,0.3,0.19,-5,0,1,0.4,,83,4646,12,27,67,0.771,26.6,335,4.89,13.0,22.8,1,31.0,3.0,6.3,0,0,1,1,0,299,250,10686,266,,,,,,,,,,,,,,,,
1030743,1622994139317,18,11,25,35,40,31,55,-0.24,0.36,0.01,-1,-2,-0,0.43,0,83,4661,14,27,68,0.772,26.5,331,4.92,13.0,22.8,1,31.5,3.06,6.3,0,0,1,1,0,298,250,10686,260,45.699036,4.91007,31.31,194.7,9,3,1.8,0,0.0,-1,0.0,,0.0,0,10.79,17.1791
1030763,1622994139337,,,,,,,,-0.23,0.4,-0.16,3,-2,-1,0.46,,83,4621,15,27,69,0.775,26.0,332,4.95,13.0,22.8,1,31.2,3.05,6.3,0,0,1,1,0,298,250,-1527,260,,,,,,,,,,,,,,,,
1030783,1622994139357,,,,,,,,-0.23,0.41,-0.31,7,-3,-0,0.47,,83,4565,17,27,71,0.777,25.4,335,4.93,13.0,25.1,1,30.9,3.05,6.4,0,0,1,1,0,297,250,-1,254,,,,,,,,,,,,,,,,
1030803,1622994139377,,,,,,,,-0.23,0.42,-0.45,11,-2,0,0.48,,83,4647,18,27,73,0.779,24.6,334,4.93,13.0,25.1,1,32.5,3.15,6.4,0,0,1,1,0,297,250,-1529,246,,,,,,,,,,,,,,,,
1030823,1622994139399,,,,,,,,-0.25,0.45,-0.58,15,-2,2,0.52,,83,4530,18,27,75,0.781,25.0,337,4.9,13.0,25.1,1,31.3,3.08,6.4,0,0,1,1,0,295,250,20480,250,,,,,,,,,,,,,,,,
1030843,1622994139419,16,10,23,35,41,31,66,-0.29,0.51,-0.7,19,1,4,0.58,0,83,4646,18,27,77,0.783,24.1,332,4.91,12.9,25.1,1,33.5,3.26,6.4,0,0,1,1,0,292,250,29440,241,45.699032,4.910061,29.95,194.7,9,3,1.8,0,0.0,-1,0.0,0.0,0.0,0,10.79,17.1807
1030863,1622994139439,,,,,,,,-0.34,0.57,-0.47,23,3,5,0.66,,83,4781,18,27,78,0.785,24.0,347,4.89,12.9,25.1,1,35.8,3.42,6.4,0,0,1,1,0,291,250,125,240,,,,,,,,,,,,,,,,
1030883,1622994139459,,,,,,,,-0.32,0.57,-0.27,26,1,4,0.65,,83,4879,20,27,79,0.784,24.2,352,4.9,12.8,33.0,1,37.5,3.54,8.0,0,0,1,1,0,293,250,105,242,,,,,,,,,,,,,,,,
1030903,1622994139479,,,,,,,,-0.29,0.57,-0.41,29,-1,2,0.64,,83,4925,22,27,81,0.783,23.8,348,4.97,13.0,33.0,1,38.8,3.63,8.0,0,0,1,1,0,293,250,21760,238,,,,,,,,,,,,,,,,
1030923,1622994139497,,,,,,,,-0.26,0.6,-0.54,32,0,4,0.65,,83,4853,23,27,84,0.783,23.6,352,4.9,13.0,33.0,1,38.7,3.66,8.0,0,0,1,1,0,294,250,29440,236,,,,,,,,,,,,,,,,
1030943,1622994139517,12,8,25,35,40,31,67,-0.29,0.65,-0.66,35,2,5,0.72,0,83,4784,23,27,86,0.782,23.6,355,4.86,12.9,33.0,1,38.2,2.5,8.0,0,0,1,1,0,295,250,29440,236,45.699028,4.910053,28.56,194.7,9,3,1.8,0,0.0,-1,0.0,,0.0,0,10.8,17.1824
1030963,1622994139537,,,,,,,,-0.29,0.68,-0.44,38,3,5,0.74,,83,4721,23,27,87,0.781,23.9,351,4.88,12.8,33.0,1,37.6,3.65,8.0,0,0,1,1,0,295,250,100,239,,,,,,,,,,,,,,,,
1030983,1622994139557,,,,,,,,-0.25,0.75,-0.24,40,1,4,0.79,,83,4726,23,27,88,0.78,23.9,346,4.91,12.8,33.0,1,37.9,3.66,8.0,0,0,1,1,0,295,250,250,239,,,,,,,,,,,,,,,,
1031003,1622994139577,,,,,,,,-0.2,0.78,-0.05,42,-1,2,0.81,,83,4702,24,27,89,0.78,24.4,337,4.92,13.0,33.4,1,37.9,3.68,8.0,0,0,1,1,0,296,250,20480,243,,,,,,,,,,,,,,,,
1031023,1622994139599,,,,,,,,-0.14,0.78,-0.21,44,-3,1,0.79,,83,4669,24,27,89,0.78,24.5,331,4.94,13.0,33.4,1,37.4,3.68,8.0,0,0,1,1,0,298,250,120,241,,,,,,,,,,,,,,,,
1031043,1622994139619,7,6,27,40,39,29,68,-0.1,0.76,-0.36,45,-5,1,0.77,0,83,4668,24,27,90,0.784,24.4,336,4.93,13.0,33.4,1,37.6,3.7,8.0,0,0,1,1,0,299,250,0,244,45.69902,4.910046,28.24,194.7,9,3,1.8,0,0.0,-1,0.0,0.0,0.0,0,10.8,17.184
1031063,1622994139639,,,,,,,,-0.09,0.74,-0.5,47,-3,2,0.75,,83,4702,24,27,90,0.789,24.2,338,4.92,12.9,33.4,1,38.2,3.7,8.0,0,0,1,1,0,297,250,-16896,242,,,,,,,,,,,,,,,,
1031083,1622994139659,,,,,,,,-0.11,0.77,-0.62,48,-2,3,0.78,,83,4653,24,27,91,0.794,24.8,336,4.9,13.0,33.4,1,37.7,3.77,8.0,0,0,1,1,0,297,250,23040,248,,,,,,,,,,,,,,,,
1031103,1622994139679,,,,,,,,-0.15,0.84,-0.67,50,1,5,0.85,,83,4736,25,27,91,0.799,24.3,345,4.9,12.8,32.6,1,38.9,3.76,8.1,0,0,1,1,0,298,250,-28416,243,,,,,,,,,,,,,,,,
1031123,1622994139699,,,,,,,,-0.17,0.83,-0.44,51,2,5,0.84,,84,4719,26,27,91,0.807,24.3,343,4.92,12.9,32.6,1,38.7,3.76,8.1,0,0,1,1,0,298,250,130,243,,,,,,,,,,,,,,,,
1031143,1622994139719,8,5,28,37,39,29,67,-0.16,0.86,-0.24,53,-0,4,0.88,0,84,4760,27,27,92,0.817,24.8,350,4.92,12.9,32.6,1,39.6,3.81,8.1,0,0,1,1,0,301,250,41,248,45.699017,4.910039,27.71,194.7,9,3,1.8,0,0.0,-1,0.0,,0.0,0,10.8,17.1857
1031163,1622994139739,,,,,,,,-0.13,0.8,-0.39,54,-3,1,0.81,,84,4828,28,27,93,0.828,24.6,341,4.97,13.0,32.6,1,40.6,3.8,8.1,0,0,1,1,0,302,250,20480,246,,,,,,,,,,,,,,,,
1031183,1622994139759,,,,,,,,-0.09,0.77,-0.52,55,-2,1,0.78,,84,4748,29,27,93,0.838,24.4,340,4.91,13.0,34.8,1,39.7,3.88,8.5,0,0,1,1,0,301,250,115,244,,,,,,,,,,,,,,,,
1031203,1622994139779,,,,,,,,-0.09,0.79,-0.64,56,0,3,0.8,,84,4699,29,27,94,0.853,24.7,340,4.88,13.0,34.8,1,39.4,3.96,8.5,0,0,1,1,0,301,250,20480,247,,,,,,,,,,,,,,,,
1031223,1622994139797,,,,,,,,-0.13,0.77,-0.59,56,2,4,0.78,,84,4764,29,27,94,0.869,25.0,342,4.87,12.8,34.8,1,40.1,3.94,8.5,0,0,1,1,0,301,250,85,250,,,,,,,,,,,,,,,,
1031243,1622994139817,8,6,30,37,38,29,51,-0.11,0.73,-0.37,56,2,3,0.74,0,84,4763,29,27,94,0.886,25.4,352,4.9,12.8,34.8,1,40.1,3.94,8.5,0,0,1,1,0,299,250,-28416,254,45.699013,4.910035,27.3,194.7,9,3,1.8,0,0.0,-1,0.0,0.0,0.0,0,10.8,17.1874
1031263,1622994139837,,,,,,,,-0.04,0.67,-0.17,55,-2,1,0.67,,84,4822,30,27,94,0.902,25.7,346,4.96,12.9,34.8,1,40.8,3.93,8.5,0,0,1,1,0,299,250,21760,257,,,,,,,,,,,,,,,,
1031283,1622994139857,,,,,,,,0.01,0.6,-0.33,54,-2,1,0.6,,84,4877,30,27,94,0.919,25.8,343,4.94,13.0,34.8,1,41.4,2.76,8.5,0,0,1,1,0,299,250,630,258,,,,,,,,,,,,,,,,
1031303,1622994139877,,,,,,,,0.03,0.63,-0.46,53,0,2,0.63,,84,4764,30,27,95,0.935,25.9,346,4.9,13.0,34.1,1,40.4,2.85,8.8,0,0,1,1,0,298,250,23040,259,,,,,,,,,,,,,,,,
1031323,1622994139899,,,,,,,,0.02,0.6,-0.5,51,2,4,0.6,,84,4742,30,27,95,0.949,26.0,345,4.86,12.8,34.1,1,40.1,4.01,8.8,0,0,1,1,0,299,250,95,261,,,,,,,,,,,,,,,,
1031343,1622994139919,10,5,34,36,33,28,28,0.01,0.61,-0.3,49,2,2,0.61,0,84,4745,30,27,95,0.964,26.3,345,4.92,12.9,34.1,1,40.2,4.01,8.8,0,0,1,1,0,298,250,80,263,45.699005,4.91003,28.43,194.7,9,3,1.8,0,0.0,-1,0.0,,0.0,0,10.8,17.1891
1031363,1622994139939,,,,,,,,0.06,0.55,-0.1,47,-1,1,0.56,,84,4703,30,27,95,0.978,27.3,338,4.97,13.0,34.1,1,39.8,4.02,8.8,0,0,1,1,0,299,250,0,273,,,,,,,,,,,,,,,,
1031383,1622994139959,,,,,,,,0.1,0.49,0.05,45,-3,-2,0.5,,84,4679,30,27,95,0.991,27.1,333,4.95,13.0,32.1,1,39.5,4.03,8.7,0,0,1,1,0,297,250,85,271,,,,,,,,,,,,,,,,
1031403,1622994139979,,,,,,,,0.14,0.4,-0.12,42,-5,-3,0.42,,84,4661,30,27,95,1.003,27.4,328,4.94,13.0,32.1,1,39.3,4.04,8.7,0,0,1,1,0,298,250,24320,278,,,,,,,,,,,,,,,,
1031423,1622994139999,,,,,,,,0.16,0.32,-0.28,40,-5,-3,0.35,,84,4654,30,27,95,1.016,28.1,332,4.9,13.0,32.1,1,39.2,4.04,8.7,0,0,1,1,0,299,250,105,281,,,,,,,,,,,,,,,,
1031443,1622994140008,10,6,37,38,31,29,4,0.16,0.24,-0.42,37,-3,-1,0.29,0,84,4660,31,27,95,1.025,28.4,331,4.92,13.0,32.1,1,39.3,2.89,8.7,0,0,1,1,0,299,250,25600,284,45.698998,4.910027,28.59,194.7,9,3,1.8,0,0.0,-1,0.0,0.0,0.0,0,10.8,17.1907
1031463,1622994140028,,,,,,,,0.14,0.24,-0.55,34,-1,0,0.27,,84,4728,31,27,95,1.027,28.4,338,4.92,13.0,32.1,1,40.0,4.02,8.7,0,0,1,1,0,297,250,100,287,,,,,,,,,,,,,,,,
1031483,1622994140048,,,,,,,,0.1,0.26,-0.45,31,1,1,0.28,,84,4711,32,27,95,1.028,29.0,341,4.9,12.8,30.6,1,39.8,4.09,8.9,0,0,1,1,0,297,250,25600,290,,,,,,,,,,,,,,,,
1031503,1622994140068,,,,,,,,0.08,0.18,-0.24,28,-0,-0,0.19,,84,4764,33,27,96,1.029,29.0,341,4.88,12.8,30.6,1,40.6,4.07,8.9,0,0,1,1,0,299,250,105,290,,,,,,,,,,,,,,,,
1031523,1622994140096,,,,,,,,0.11,0.15,-0.06,25,-2,-2,0.19,,84,4808,35,27,96,1.03,29.0,345,4.97,13.0,30.6,1,41.0,4.06,8.9,0,0,1,1,0,298,250,28160,290,,,,,,,,,,,,,,,,
1031543,1622994140116,9,6,37,36,29,30,-9,0.17,0.05,-0.22,23,-3,-3,0.17,0,84,4846,36,27,96,1.027,29.3,336,4.92,13.0,30.6,1,41.4,4.04,8.9,0,0,1,1,0,300,250,28160,293,45.69899,4.910024,29.66,194.7,9,3,1.8,0,0.0,-1,0.0,,0.0,0,10.8,17.1924
1031563,1622994140136,,,,,,,,0.13,0.02,-0.37,20,-1,-1,0.13,,84,4880,37,27,96,1.024,29.7,347,4.85,12.8,30.6,1,41.7,4.09,8.9,0,0,1,1,0,302,250,29440,297,,,,,,,,,,,,,,,,
1031583,1622994140156,,,,,,,,0.1,-0.02,-0.17,17,1,-1,0.1,,84,4926,37,27,97,1.02,29.9,354,4.85,12.8,31.1,1,42.2,4.08,9.3,0,0,1,1,0,305,250,120,299,,,,,,,,,,,,,,,,
1031603,1622994140176,,,,,,,,0.17,-0.08,0.01,15,-3,-3,0.18,,84,4960,37,27,96,1.017,30.1,352,4.96,13.0,31.1,1,42.4,4.07,9.3,0,0,1,1,0,306,250,32000,303,,,,,,,,,,,,,,,,
1031623,1622994140198,,,,,,,,0.16,-0.19,-0.16,12,-0,-1,0.25,,84,5017,37,27,97,1.014,30.6,350,4.85,12.9,31.1,1,42.8,4.07,9.3,0,0,1,1,0,307,250,130,306,,,,,,,,,,,,,,,,
1031643,1622994140218,8,5,39,35,28,31,-33,0.12,-0.22,0.02,9,0,-2,0.25,0,84,5089,37,27,96,1.012,31.1,365,4.83,12.8,31.1,1,42.6,2.96,9.3,0,0,1,1,0,312,250,-28416,308,45.698982,4.91002,30.41,194.7,9,3,1.8,0,0.0,-1,0.0,0.0,0.0,0,10.8,17.194
1031663,1622994140238,,,,,,,,0.16,-0.3,-0.15,5,-3,-5,0.33,,84,5118,37,27,96,1.01,31.0,356,4.97,13.0,31.1,1,42.5,4.15,9.3,0,0,1,1,0,311,250,-25856,310,,,,,,,,,,,,,,,,
1031683,1622994140258,,,,,,,,0.14,-0.26,-0.27,2,0,-3,0.3,,84,5134,37,27,96,1.007,31.5,369,4.83,12.8,31.4,1,42.4,4.17,9.9,0,0,1,1,0,323,250,165,315,,,,,,,,,,,,,,,,
1031703,1622994140278,,,,,,,,0.18,-0.3,-0.08,-1,-3,-7,0.35,,84,5138,37,27,96,1.008,31.5,369,4.92,13.0,31.4,1,42.4,4.18,9.9,0,0,1,1,0,335,250,-22016,315,,,,,,,,,,,,,,,,
1031723,1622994140298,,,,,,,,0.13,-0.35,-0.24,-4,1,-3,0.37,,84,5172,37,27,96,1.009,31.7,364,4.92,12.9,31.4,1,42.3,4.23,9.9,0,0,1,1,0,340,250,-20736,317,,,,,,,,,,,,,,,,
1031743,1622994140318,9,5,42,34,26,33,-43,0.21,-0.47,-0.06,-7,-3,-6,0.51,0,84,5289,37,27,96,1.01,32.5,373,4.9,12.9,31.4,1,42.0,4.39,9.9,0,0,1,1,0,331,250,-32559,325,45.698978,4.910018,31.12,194.6,9,3,1.8,0,0.0,-1,0.0,,0.0,0,10.8,17.1957
1031763,1622994140338,,,,,,,,0.1,-0.46,-0.22,-10,2,-1,0.47,,84,5375,39,27,96,1.011,33.0,373,4.87,12.9,31.4,1,41.7,4.51,9.9,0,0,1,1,0,332,250,4838,330,,,,,,,,,,,,,,,,
1031783,1622994140358,,,,,,,,0.16,-0.49,-0.03,-14,-3,-5,0.51,,84,5477,40,27,96,1.01,33.0,379,4.97,13.0,35.7,1,41.4,4.65,11.8,0,0,1,1,0,355,250,-122,330,,,,,,,,,,,,,,,,
1031803,1622994140378,,,,,,,,0.22,-0.47,0.14,-16,-2,-5,0.52,,84,5598,41,27,96,1.008,33.2,397,4.86,12.8,35.7,1,41.0,3.67,11.8,0,0,1,1,0,328,250,6668,332,,,,,,,,,,,,,,,,
1031823,1622994140398,,,,,,,,0.18,-0.43,-0.04,-19,4,-0,0.47,,84,5650,41,27,96,1.006,33.2,403,4.86,12.8,35.7,1,40.8,3.74,11.8,0,0,1,1,0,339,250,6668,338,,,,,,,,,,,,,,,,
1031843,1622994140418,7,5,43,35,26,33,-35,0.1,-0.44,-0.2,-21,7,2,0.45,0,84,5695,42,27,96,1.005,33.9,401,4.91,12.9,35.7,1,40.7,4.95,11.8,0,0,1,1,0,344,250,6870,339,45.698971,4.910013,31.65,194.6,9,3,1.8,0,0.0,-1,0.0,0.0,0.0,0,10.8,17.1974
1031863,1622994140438,,,,,,,,0.17,-0.46,-0.19,-23,2,-1,0.49,,84,5693,42,27,96,1.001,34.1,396,4.97,13.0,35.7,1,40.7,3.8,11.8,0,0,1,1,0,349,250,2811,341,,,,,,,,,,,,,,,,
1031883,1622994140458,,,,,,,,0.3,-0.51,-0.01,-24,-2,-3,0.59,,84,5685,42,27,96,0.996,34.3,398,4.98,13.0,37.9,1,40.7,4.94,13.0,0,0,1,1,0,359,250,28553,343,,,,,,,,,,,,,,,,
1031903,1622994140478,,,,,,,,0.28,-0.49,0.11,-25,0,-2,0.57,,84,5642,42,27,96,0.991,34.3,410,4.9,12.9,37.9,1,40.9,4.88,13.0,0,0,1,1,0,351,250,-6644,343,,,,,,,,,,,,,,,,
1031923,1622994140498,,,,,,,,0.18,-0.43,-0.06,-26,5,2,0.47,,84,5623,42,27,96,0.987,34.6,406,4.82,12.8,37.9,1,40.9,4.85,13.0,0,0,1,1,0,336,250,28553,346,,,,,,,,,,,,,,,,
1031943,1622994140518,6,4,42,36,26,31,-21,0.17,-0.43,-0.13,-26,1,-1,0.47,0,84,5618,42,27,96,0.988,34.6,389,4.91,12.9,37.9,1,40.9,4.85,13.0,0,0,1,1,0,346,250,-6644,347,45.698959,4.910008,32.96,194.6,9,3,1.8,0,0.0,-1,0.0,,0.0,0,10.8,17.1991
1031963,1622994140538,,,,,,,,0.25,-0.45,0.05,-26,-2,-3,0.52,,84,5637,42,27,96,0.989,34.8,392,4.97,13.0,37.9,1,40.9,4.87,13.0,0,0,1,1,0,347,250,-6644,347,,,,,,,,,,,,,,,,
1031983,1622994140558,,,,,,,,0.27,-0.44,0.07,-26,1,-1,0.51,,84,5676,43,27,96,0.989,34.6,405,4.9,12.9,37.2,1,40.8,4.93,12.9,0,0,1,1,0,350,250,3302,346,,,,,,,,,,,,,,,,
1032003,1622994140578,,,,,,,,0.22,-0.41,-0.11,-25,4,2,0.46,,84,5664,44,27,96,0.992,35.2,396,4.84,12.8,37.2,1,40.8,4.91,12.9,0,0,1,1,0,352,250,-6640,352,,,,,,,,,,,,,,,,
1032023,1622994140598,,,,,,,,0.2,-0.35,-0.26,-25,2,0,0.4,,84,5605,44,27,96,1.0,35.4,392,4.95,13.0,37.2,1,41.0,4.83,12.9,0,0,1,1,0,355,250,-29302,354,,,,,,,,,,,,,,,,
1032043,1622994140618,4,4,43,37,27,29,-22,0.26,-0.39,-0.08,-25,-3,-3,0.47,0,84,5674,44,27,96,1.011,35.8,395,4.96,13.0,37.2,1,40.8,4.93,12.9,0,0,1,1,0,359,250,-29302,358,45.698956,4.910002,34.68,194.6,9,3,1.8,0,0.0,-1,0.0,0.0,0.0,0,10.8,17.2007
1032063,1622994140638,,,,,,,,0.33,-0.45,0.1,-24,-4,-4,0.56,,84,5795,44,27,96,1.022,35.9,405,4.96,13.0,37.2,1,40.4,5.1,12.9,0,0,1,1,0,362,250,2790,359,,,,,,,,,,,,,,,,
1032083,1622994140658,,,,,,,,0.37,-0.49,0.26,-24,-5,-4,0.61,,84,5912,44,27,96,1.033,36.0,409,4.92,12.9,40.0,1,40.0,5.26,14.4,0,0,1,1,0,368,250,-6405,360,,,,,,,,,,,,,,,,
1032103,1622994140678,,,,,,,,0.43,-0.51,0.4,-24,-5,-5,0.66,,84,5992,44,27,96,1.043,36.5,416,4.9,12.9,40.0,1,39.8,5.37,14.4,0,0,1,1,0,370,250,-6656,365,,,,,,,,,,,,,,,,
1032123,1622994140698,,,,,,,,0.5,-0.54,0.54,-24,-7,-6,0.74,,84,6121,45,27,96,1.055,36.8,423,4.92,12.9,40.0,1,40.9,5.3,14.4,0,0,1,1,0,372,250,742,368,,,,,,,,,,,,,,,,
1032143,1622994140718,6,2,43,37,26,30,-31,0.53,-0.63,0.66,-25,-11,-8,0.83,0,84,6233,48,27,96,1.066,37.2,435,4.88,12.9,40.0,1,42.0,5.2,14.4,0,0,1,1,0,392,250,2278,372,45.698948,4.909996,36.05,194.5,9,3,1.8,0,0.0,-1,0.0,,0.0,0,10.81,17.2024
1032163,1622994140738,,,,,,,,0.53,-0.67,0.59,-26,-12,-10,0.85,,84,6364,49,27,96,1.076,37.6,438,4.91,13.0,40.0,1,43.4,3.95,14.4,0,0,1,1,0,386,250,-6475,376,,,,,,,,,,,,,,,,
1032183,1622994140758,,,,,,,,0.44,-0.6,0.37,-26,-7,-6,0.74,,84,6567,50,27,96,1.081,37.5,456,4.89,12.8,40.0,1,45.5,4.94,15.0,0,0,1,1,0,377,250,-3866,375,,,,,,,,,,,,,,,,
1032203,1622994140778,,,,,,,,0.48,-0.7,0.51,-26,-9,-8,0.85,,84,6656,50,27,96,1.08,37.7,463,4.9,13.0,40.0,1,46.4,4.87,15.0,0,0,1,1,0,389,250,-1562,377,,,,,,,,,,,,,,,,
1032223,1622994140798,,,,,,,,0.42,-0.68,0.3,-27,-5,-5,0.8,,84,6703,51,27,96,1.08,38.4,472,4.88,12.8,40.0,1,47.1,4.83,15.0,0,0,1,1,0,418,250,17144,385,,,,,,,,,,,,,,,,
1032243,1622994140818,4,4,45,38,25,30,-26,0.48,-0.72,0.44,-28,-8,-7,0.87,0,84,6786,51,27,96,1.079,39.0,487,4.87,12.9,40.0,1,47.7,4.76,15.0,0,0,1,1,0,392,250,-3968,390,45.698936,4.909989,37.45,194.4,9,3,1.8,0,0.0,-1,0.0,0.0,0.0,0,10.81,17.2041
1032263,1622994140838,,,,,,,,0.4,-0.67,0.24,-28,-5,-4,0.78,,84,6848,51,27,96,1.066,39.2,481,4.92,12.8,40.0,1,48.4,4.71,15.0,0,0,1,1,0,391,250,-8151,392,,,,,,,,,,,,,,,,
1032283,1622994140858,,,,,,,,0.4,-0.65,0.39,-29,-6,-6,0.77,,84,6936,51,27,96,1.04,39.3,493,4.9,12.9,40.0,1,49.3,4.64,15.0,0,0,1,1,0,396,250,6512,393,,,,,,,,,,,,,,,,
1032303,1622994140878,,,,,,,,0.47,-0.6,0.42,-28,-5,-5,0.76,,84,6991,51,27,96,1.015,39.5,497,4.86,12.9,37.9,1,49.9,4.6,14.9,0,0,1,1,0,405,250,10392,398,,,,,,,,,,,,,,,,
1032323,1622994140898,,,,,,,,0.45,-0.62,0.22,-28,-4,-3,0.77,,84,7067,52,27,96,0.99,39.5,496,4.92,12.9,37.9,1,49.1,3.49,14.9,0,0,1,1,0,402,250,-8151,395,,,,,,,,,,,,,,,,
1032343,1622994140918,4,3,44,39,25,30,-13,0.43,-0.62,0.22,-27,-4,-4,0.76,0,84,7107,52,27,96,0.962,39.4,501,4.92,12.9,37.9,1,48.6,4.68,14.9,0,0,1,1,0,411,250,-4059,394,45.698933,4.90998,38.89,194.4,9,3,1.8,0,0.0,-1,0.0,,0.0,0,10.81,17.2057
1032363,1622994140938,,,,,,,,0.43,-0.6,0.37,-26,-6,-6,0.74,,84,7186,52,27,96,0.93,40.4,512,4.9,12.9,37.9,1,47.4,4.74,14.9,0,0,1,1,0,416,250,9517,404,,,,,,,,,,,,,,,,
1032383,1622994140958,,,,,,,,0.51,-0.54,0.43,-26,-6,-5,0.74,,84,7231,52,27,96,0.899,40.6,523,4.87,12.9,39.4,1,46.7,4.79,16.0,0,0,1,1,0,410,250,-8165,406,,,,,,,,,,,,,,,,
1032403,1622994140978,,,,,,,,0.51,-0.46,0.23,-25,-5,-3,0.69,,84,7329,52,27,96,0.868,40.8,525,4.87,12.8,39.4,1,45.2,4.87,16.0,0,0,1,1,0,414,250,-26615,408,,,,,,,,,,,,,,,,
1032423,1622994140998,,,,,,,,0.52,-0.38,0.04,-24,-4,-2,0.65,,84,7381,52,27,96,0.839,40.7,522,4.93,12.8,39.4,1,44.5,4.92,16.0,0,0,1,1,0,417,250,-3414,413,,,,,,,,,,,,,,,,
