"Interval"|"ms"|0|0|1,"Utc"|"ms"|0|0|1,"Brake_F"|"Bar"|0|2000|10,"Brake_R"|"Bar"|0|2000|10,"Height_RF"|"mm"|0|255|10,"Height_LF"|"mm"|0|255|10,"Height_LR"|"mm"|0|80|10,"Height_RR"|"mm"|0|255|10,"Steering"|"deg"|-100|100|10,"AccelX"|"G"|-3.0|3.0|50,"AccelY"|"G"|-3.0|3.0|50,"AccelZ"|"G"|-3.0|3.0|50,"Yaw"|"Deg/Sec"|-120|120|50,"Pitch"|"Deg/Sec"|-120|120|50,"Roll"|"Deg/Sec"|-120|120|50,"Gsum"|"G"|0.0|3.0|50,"Log_Button"|""|0.0|10.0|10,"WaterTemp"|"C"|0|150|50,"RPM"|"tr/min"|0|14000|50,"TPS"|"%"|0|100|50,"AirTemp"|"C"|0|150|50,"MAP"|"KPa"|0|100|50,"Lambda"|""|0.5|1.5|50,"SpeedDTA"|"kph"|0.0|250.0|50,"OilPress"|"KPa"|0|1500|50,"FuelPressur"|"Bar"|0.0|10.0|50,"Batterie"|"V"|0.0|20.0|50,"ConsoKm"|"L/100km"|0.0|200.0|50,"Gear"|""|0|6|50,"AdvIgnition"|"Deg"|-20.0|70.0|50,"Injection"|"ms"|0.0|10.0|50,"ConsoHr"|"L/Hr"|0.0|10000.0|50,"LC_But_Pres"|""|0|1|50,"LC_Active"|""|0|1|50,"TractionOn"|""|0|1|50,"TractionWet"|""|0|1|50,"FanOn"|""|0|1|50,"RD_Speed"|"km/h"|-30|250|50,"RUD_Speed"|"km/h"|-30|250|50,"LD_Speed"|"km/h"|-30|250|50,"LUD_Speed"|"km/h"|-30|250|50,"Latitude"|"Degrees"|-180.0|180.0|10,"Longitude"|"Degrees"|-180.0|180.0|10,"Speed"|"kph"|0.0|150.0|10,"Altitude"|"m"|0.0|4000.0|10,"GPSSats"|""|0|20|10,"GPSQual"|""|0|5|10,"GPSDOP"|""|0.0|20.0|10,"LapCount"|""|0|0|10,"LapTime"|"Min"|0.0|0.0|10,"Sector"|""|0|0|10,"SectorTime"|"Min"|0.0|0.0|10,"PredTime"|"Min"|0.0|0.0|5,"ElapsedTime"|"Min"|0.0|0.0|10,"CurrentLap"|""|0|0|10,"Distance"|"km"|0.0|0.0|10,"SessionTime"|"Min"|0.0|0.0|10
439963,1622993548525,,,,,,,,-0.98,-0.06,-0.28,-2,-3,-4,0.99,,82,7569,7,26,27,0.931,59.3,580,4.87,13.1,13.8,1,27.2,2.07,8.6,0,0,0,1,0,486,250,-506,593,,,,,,,,,,,,,,,,
439983,1622993548545,,,,,,,,-0.97,-0.12,-0.09,-3,-5,-5,0.98,,82,7515,7,26,27,0.939,58.2,566,4.92,13.1,12.3,1,27.2,2.07,7.2,0,0,0,1,0,481,250,3576,582,,,,,,,,,,,,,,,,
440003,1622993548565,,,,,,,,-0.95,-0.2,-0.09,-3,-4,-3,0.97,,82,7419,7,26,27,0.946,57.7,561,4.9,13.1,12.3,1,27.1,2.07,7.2,0,0,0,1,0,459,250,10305,580,,,,,,,,,,,,,,,,
440023,1622993548585,,,,,,,,-0.91,-0.2,0.04,-4,-4,-2,0.93,,82,7253,7,26,27,0.954,57.6,560,4.89,13.1,12.3,1,27.0,2.07,7.2,0,0,0,1,0,443,250,771,576,,,,,,,,,,,,,,,,
440043,1622993548603,26,16,22,20,37,39,-2,-0.93,-0.18,-0.13,-4,-3,-0,0.95,0,82,7189,7,26,27,0.961,56.5,548,4.95,13.1,12.3,1,26.9,2.07,7.2,0,0,0,1,0,456,250,2524,565,45.699192,4.910226,62.36,199.2,9,3,1.8,0,0.0,-1,0.0,0.0,0.0,0,3.96,7.3341
440063,1622993548623,,,,,,,,-1.0,-0.21,-0.28,-4,-2,-1,1.02,,82,7121,7,26,27,0.965,56.7,539,4.91,13.2,12.3,1,26.9,2.07,7.2,0,0,0,1,0,464,250,-2336,555,,,,,,,,,,,,,,,,
440083,1622993548643,,,,,,,,-0.97,-0.24,-0.09,-5,-4,-2,1.0,,82,7102,7,26,27,0.969,55.6,544,4.88,13.2,12.0,1,26.9,2.07,6.8,0,0,0,1,0,474,250,2524,556,,,,,,,,,,,,,,,,
440103,1622993548663,,,,,,,,-0.89,-0.11,-0.23,-5,-2,0,0.9,,82,7123,7,26,27,0.972,54.4,544,4.9,13.1,12.0,1,26.9,2.07,6.8,0,0,0,1,0,518,250,2109,544,,,,,,,,,,,,,,,,
440123,1622993548683,,,,,,,,-0.89,-0.0,-0.37,-5,-0,3,0.89,,82,7051,7,26,27,0.976,54.3,543,4.93,13.1,12.0,1,26.8,2.07,6.8,0,0,0,1,0,489,250,32033,543,,,,,,,,,,,,,,,,
440143,1622993548703,24,14,21,19,39,39,4,-0.96,-0.02,-0.43,-5,-2,0,0.96,0,82,7094,7,26,27,0.975,53.9,537,4.95,13.2,12.0,1,26.8,2.07,6.8,0,0,0,1,0,476,250,-1818,536,45.699177,4.910215,58.64,199.2,9,3,1.8,0,0.0,-1,0.0,,0.0,0,3.96,7.3357
440163,1622993548723,,,,,,,,-0.93,0.03,-0.29,-5,-1,1,0.93,,82,7048,7,26,27,0.974,53.3,543,4.9,13.2,12.0,1,26.8,2.07,6.8,0,0,0,1,0,495,250,-9216,533,,,,,,,,,,,,,,,,
440183,1622993548743,,,,,,,,-0.89,0.03,-0.43,-4,-0,2,0.89,,82,7025,7,26,27,0.972,51.8,552,4.92,13.1,12.8,1,26.8,2.07,6.7,0,0,0,1,0,496,250,15661,518,,,,,,,,,,,,,,,,
440203,1622993548763,,,,,,,,-0.95,0.07,-0.52,-4,-1,1,0.95,,82,7088,7,26,28,0.971,51.7,549,4.98,13.2,12.8,1,27.2,2.05,6.7,0,0,0,1,0,496,250,-32768,508,,,,,,,,,,,,,,,,
440223,1622993548783,,,,,,,,-0.96,0.01,-0.34,-3,-1,-0,0.96,,82,7051,7,26,28,0.97,50.8,542,4.93,13.2,12.8,1,27.2,2.05,6.7,0,0,0,1,0,486,250,16408,504,,,,,,,,,,,,,,,,
440243,1622993548801,22,12,21,20,39,38,6,-0.95,0.05,-0.32,-2,-1,1,0.95,0,82,7094,7,26,28,0.968,49.7,550,4.91,13.1,12.8,1,27.2,2.05,6.7,0,0,0,1,0,486,250,8488,497,45.699169,4.910205,55.46,199.1,9,3,1.8,0,0.0,-1,0.0,0.0,0.0,0,3.96,7.3374
440263,1622993548821,,,,,,,,-0.97,0.06,-0.46,-1,-1,2,0.97,,82,7070,7,26,28,0.967,49.8,561,4.96,13.1,12.8,1,27.2,2.05,6.7,0,0,0,1,0,479,250,16648,498,,,,,,,,,,,,,,,,
440283,1622993548841,,,,,,,,-0.96,-0.0,-0.57,-1,-2,1,0.96,,82,7080,7,26,28,0.966,49.1,546,4.9,13.2,13.7,1,27.2,2.05,6.7,0,0,0,1,0,474,250,3576,491,,,,,,,,,,,,,,,,
440303,1622993548861,,,,,,,,-0.92,0.0,-0.36,-0,-2,1,0.92,,82,7118,7,26,28,0.969,47.9,543,4.89,13.2,13.7,1,27.3,2.05,6.7,0,0,0,1,0,465,250,2212,479,,,,,,,,,,,,,,,,
440323,1622993548881,,,,,,,,-0.88,0.12,-0.49,0,-0,2,0.89,,82,7086,7,26,28,0.972,47.7,555,4.95,13.2,13.7,1,27.2,2.05,6.7,0,0,0,1,0,473,250,-9160,477,,,,,,,,,,,,,,,,
440343,1622993548905,11,7,21,22,38,37,5,-0.88,0.11,-0.62,1,-0,2,0.89,0,82,7113,7,26,28,0.976,47.6,556,4.96,13.2,13.7,1,27.3,2.05,6.7,0,0,0,1,0,466,250,12552,476,45.699154,4.910195,52.34,199.1,9,3,1.8,0,0.0,-1,0.0,,0.0,0,3.96,7.339
440363,1622993548925,,,,,,,,-0.88,0.09,-0.41,1,-1,-0,0.88,,83,7099,7,26,28,0.98,47.2,550,4.88,13.2,13.7,1,27.2,2.05,6.7,0,0,0,1,0,461,250,12552,472,,,,,,,,,,,,,,,,
440383,1622993548945,,,,,,,,-0.79,0.13,-0.27,1,-2,0,0.8,,83,7123,7,26,28,0.985,47.3,559,4.88,13.0,14.2,1,27.3,2.05,6.7,0,0,0,1,0,464,250,-18108,465,,,,,,,,,,,,,,,,
440403,1622993548965,,,,,,,,-0.74,0.14,-0.41,1,-1,1,0.75,,83,7151,7,26,28,0.991,46.5,558,4.91,13.0,14.2,1,27.3,2.05,6.7,0,0,0,1,0,453,250,17628,468,,,,,,,,,,,,,,,,
440423,1622993548985,,,,,,,,-0.78,0.11,-0.54,2,-1,0,0.78,,83,7164,7,26,28,0.997,45.8,563,4.95,13.2,14.2,1,27.3,2.05,6.7,0,0,0,1,0,457,250,-9160,458,,,,,,,,,,,,,,,,
440443,1622993548997,16,9,23,25,38,35,4,-0.79,0.07,-0.59,2,-1,-0,0.79,0,83,7167,7,26,28,1.003,45.4,559,4.94,13.2,14.2,1,27.3,2.05,6.7,0,0,0,1,0,451,250,10305,454,45.699146,4.910186,49.86,199.1,9,3,1.8,0,0.0,-1,0.0,0.0,0.0,0,3.97,7.3407
440463,1622993549017,,,,,,,,-0.75,0.05,-0.39,2,-2,-1,0.75,,83,7140,7,26,28,1.008,45.0,558,4.9,13.1,14.2,1,27.3,2.05,6.7,0,0,0,1,0,444,250,2131,450,,,,,,,,,,,,,,,,
440483,1622993549037,,,,,,,,-0.7,0.09,-0.52,2,-1,1,0.71,,83,7064,7,26,28,1.012,44.6,563,4.94,13.0,15.0,1,27.2,0.9,6.7,0,0,0,1,0,447,250,21580,443,,,,,,,,,,,,,,,,
440503,1622993549057,,,,,,,,-0.75,0.09,-0.63,2,-1,-0,0.75,,83,6972,7,26,28,1.016,44.5,544,4.92,13.2,15.0,1,27.3,0.9,6.7,0,0,0,1,0,441,250,243,445,,,,,,,,,,,,,,,,
440523,1622993549077,,,,,,,,-0.7,0.08,-0.41,3,-0,1,0.7,,83,6875,7,26,28,1.021,43.6,539,4.88,13.2,15.0,1,27.3,2.05,6.7,0,0,0,1,0,435,250,19477,436,,,,,,,,,,,,,,,,
440543,1622993549103,30,21,23,25,37,36,4,-0.74,0.07,-0.54,2,-1,-0,0.74,0,83,6808,7,26,28,1.023,43.3,535,4.97,13.2,15.0,1,27.3,0.9,6.7,0,0,0,1,0,431,250,3826,433,45.699135,4.910178,47.77,199.1,9,3,1.8,0,0.0,-1,0.0,,0.0,0,3.97,7.3424
440563,1622993549123,,,,,,,,-0.69,0.09,-0.33,3,0,2,0.7,,83,6715,7,26,28,1.022,41.6,515,4.91,13.2,15.0,1,27.3,2.05,6.7,0,0,0,1,0,413,250,9517,416,,,,,,,,,,,,,,,,
440583,1622993549143,,,,,,,,-0.71,0.06,-0.47,3,-2,-1,0.72,,83,6606,7,26,29,1.021,41.7,517,4.96,13.2,15.0,1,27.7,2.03,6.3,0,0,0,1,0,405,250,10541,417,,,,,,,,,,,,,,,,
440603,1622993549163,,,,,,,,-0.78,0.1,-0.6,3,0,1,0.79,,83,6445,7,26,29,1.02,40.8,514,4.9,13.0,15.0,1,27.7,2.03,6.3,0,0,0,1,0,409,250,6384,410,,,,,,,,,,,,,,,,
440623,1622993549183,,,,,,,,-0.8,0.21,-0.62,4,2,3,0.82,,83,6315,7,26,29,1.018,40.4,506,4.89,13.1,15.0,1,27.7,2.03,6.3,0,0,0,1,0,410,250,-3866,404,,,,,,,,,,,,,,,,
440643,1622993549205,32,21,22,23,39,37,4,-0.77,0.18,-0.4,4,2,4,0.79,0,83,6163,7,26,29,1.014,39.3,492,4.97,13.2,15.0,1,27.7,2.03,6.3,0,0,0,1,0,403,250,-1818,393,45.699123,4.910169,45.34,199.0,9,3,1.8,0,0.0,-1,0.0,0.0,0.0,0,3.97,7.344
440663,1622993549225,,,,,,,,-0.78,0.17,-0.2,4,3,5,0.8,,83,6017,7,26,30,1.009,39.5,465,4.99,13.3,15.0,1,28.0,2.01,6.3,0,0,0,1,0,392,250,240,396,,,,,,,,,,,,,,,,
440683,1622993549245,,,,,,,,-0.8,0.14,-0.26,4,5,6,0.81,,83,5916,7,26,31,1.005,38.6,461,4.95,13.3,13.8,1,27.8,2.0,5.5,0,0,0,1,0,385,250,486,386,,,,,,,,,,,,,,,,
440703,1622993549265,,,,,,,,-0.85,0.2,-0.41,4,7,8,0.87,,83,5806,7,26,32,1.001,38.1,453,4.93,13.2,13.8,1,27.7,1.99,5.5,0,0,0,1,0,377,250,8841,381,,,,,,,,,,,,,,,,
440723,1622993549285,,,,,,,,-0.91,0.19,-0.54,4,6,7,0.93,,83,5688,7,26,33,0.998,37.8,458,4.92,13.1,13.8,1,27.6,2.07,5.5,0,0,0,1,0,369,250,-1268,378,,,,,,,,,,,,,,,,
440743,1622993549305,29,19,21,21,39,38,0,-0.87,0.23,-0.33,3,2,3,0.9,0,83,5627,7,26,34,0.994,36.9,447,4.9,13.1,13.8,1,27.6,2.14,5.5,0,0,0,1,0,364,250,-1268,369,45.699116,4.910162,42.38,199.0,9,3,1.8,0,0.0,-1,0.0,,0.0,0,3.97,7.3457
440763,1622993549325,,,,,,,,-0.84,0.22,-0.13,3,4,4,0.87,,83,5622,7,26,35,0.99,36.6,435,4.98,13.3,13.8,1,27.8,2.2,5.5,0,0,0,1,0,347,250,-10554,366,,,,,,,,,,,,,,,,
440783,1622993549345,,,,,,,,-0.93,0.19,-0.29,3,8,7,0.95,,83,5602,7,26,35,0.986,36.3,435,4.88,13.2,15.6,1,27.8,2.2,5.7,0,0,0,1,0,336,250,3346,363,,,,,,,,,,,,,,,,
440803,1622993549365,,,,,,,,-0.88,0.23,-0.3,2,2,2,0.91,,83,5482,7,26,36,0.986,35.1,443,4.84,13.1,15.6,1,27.7,2.3,5.7,0,0,0,1,0,339,250,6870,351,,,,,,,,,,,,,,,,
440823,1622993549385,,,,,,,,-0.86,0.25,-0.1,2,3,4,0.89,,83,5378,7,26,37,0.985,35.1,427,4.96,13.3,15.6,1,27.7,1.24,5.7,0,0,0,1,0,340,250,-30438,351,,,,,,,,,,,,,,,,
440843,1622993549404,17,10,22,22,38,38,-2,-0.88,0.19,-0.26,2,3,2,0.9,0,83,5277,7,26,38,0.984,34.4,417,4.94,13.2,15.6,1,27.7,2.49,5.7,0,0,0,1,0,341,250,6668,344,45.699108,4.910155,38.79,199.0,9,3,1.8,0,0.0,-1,0.0,0.0,0.0,0,3.97,7.3474
440863,1622993549424,,,,,,,,-0.84,0.21,-0.07,1,2,2,0.86,,83,5240,7,26,39,0.984,34.2,420,4.92,13.2,15.6,1,27.9,2.58,5.7,0,0,0,1,0,336,250,3327,342,,,,,,,,,,,,,,,,
440883,1622993549444,,,,,,,,-0.87,0.13,-0.23,1,4,3,0.88,,83,5237,7,26,40,0.985,34.0,409,4.91,13.0,18.1,1,28.1,2.59,6.2,0,0,0,1,0,331,250,-6528,337,,,,,,,,,,,,,,,,
440903,1622993549464,,,,,,,,-0.84,0.15,-0.05,0,4,3,0.86,,83,5237,7,26,40,0.987,33.3,403,4.93,13.2,18.1,1,28.1,1.44,6.2,0,0,0,1,0,326,250,-20736,333,,,,,,,,,,,,,,,,
440923,1622993549484,,,,,,,,-0.81,0.13,-0.21,-0,3,2,0.82,,83,5214,7,26,41,0.99,33.4,415,4.9,13.0,18.1,1,28.4,2.61,6.2,0,0,0,1,0,326,250,165,334,,,,,,,,,,,,,,,,
440943,1622993549504,3,2,24,23,37,36,-2,-0.81,0.18,-0.03,-1,4,4,0.83,0,83,5172,7,26,42,0.992,33.7,407,4.91,13.2,18.1,1,28.5,2.65,6.2,0,0,0,1,0,328,250,170,337,45.699097,4.910149,36.0,198.9,9,3,1.8,0,0.0,-1,0.0,,0.0,0,3.97,7.3491
440963,1622993549524,,,,,,,,-0.72,0.14,-0.18,-1,-0,1,0.73,,83,5108,7,26,42,0.994,33.5,406,4.92,13.0,18.1,1,28.3,2.68,6.2,0,0,0,1,0,327,250,-20736,330,,,,,,,,,,,,,,,,
440983,1622993549544,,,,,,,,-0.7,0.11,-0.33,-1,3,3,0.71,,83,5102,7,26,43,0.995,33.0,394,4.96,13.3,19.0,1,28.6,2.7,6.3,0,0,0,1,0,325,250,160,330,,,,,,,,,,,,,,,,
441003,1622993549564,,,,,,,,-0.62,0.13,-0.14,-1,-1,-0,0.63,,83,5114,7,26,43,0.997,32.2,394,4.92,13.1,19.0,1,28.6,1.55,6.3,0,0,0,1,0,323,250,155,322,,,,,,,,,,,,,,,,
441023,1622993549584,,,,,,,,-0.62,0.08,-0.29,-2,2,2,0.63,,83,5134,7,26,44,0.999,32.3,398,4.88,13.1,19.0,1,29.0,2.71,6.3,0,0,0,1,0,319,250,-25856,323,,,,,,,,,,,,,,,,
441043,1622993549604,-1,2,28,26,35,34,-2,-0.62,0.08,-0.1,-2,1,2,0.62,0,83,5141,7,26,44,1.001,32.4,409,4.93,13.2,19.0,1,29.0,2.71,6.3,0,0,0,1,0,319,250,-28416,324,45.699093,4.910143,34.32,198.9,9,3,1.8,0,0.0,-1,0.0,0.0,0.0,0,3.97,7.3507
441063,1622993549624,,,,,,,,-0.55,0.01,-0.26,-2,-1,0,0.55,,83,5107,7,26,44,1.002,32.4,404,4.91,13.1,19.0,1,28.9,2.72,6.3,0,0,0,1,0,318,250,-27136,324,,,,,,,,,,,,,,,,
441083,1622993549644,,,,,,,,-0.54,0.01,-0.4,-2,2,3,0.54,,83,5068,8,26,45,1.003,32.1,391,4.94,13.3,19.7,1,29.1,2.75,6.4,0,0,0,1,0,317,250,-27136,321,,,,,,,,,,,,,,,,
441103,1622993549664,,,,,,,,-0.5,0.02,-0.2,-2,-1,1,0.5,,83,5029,9,26,46,1.004,31.9,402,4.9,13.2,19.7,1,29.3,2.77,6.4,0,0,0,1,0,316,250,140,319,,,,,,,,,,,,,,,,
441123,1622993549684,,,,,,,,-0.48,-0.01,-0.35,-2,-1,1,0.48,,83,4994,9,26,46,1.006,31.7,386,4.96,13.2,19.7,1,29.2,2.79,6.4,0,0,0,1,0,315,250,140,317,,,,,,,,,,,,,,,,
441143,1622993549704,1,2,31,30,34,33,-6,-0.46,0.01,-0.49,-2,2,4,0.46,0,83,4974,9,26,48,1.006,31.4,383,4.94,13.3,19.7,1,29.5,2.81,6.4,0,0,0,1,0,313,250,135,319,45.699085,4.910137,33.27,198.8,9,3,1.8,0,0.0,-1,0.0,,0.0,0,3.97,7.3524
441163,1622993549724,,,,,,,,-0.43,-0.01,-0.28,-2,-1,1,0.43,,83,4956,9,26,49,1.008,31.7,403,4.88,13.3,19.7,1,29.6,2.83,6.4,0,0,0,1,0,313,250,135,317,,,,,,,,,,,,,,,,
441183,1622993549744,,,,,,,,-0.4,-0.07,-0.42,-3,-2,-0,0.4,,83,4926,9,26,49,1.008,31.4,387,4.89,13.1,20.0,1,29.3,2.81,6.4,0,0,0,1,0,312,250,-30976,314,,,,,,,,,,,,,,,,
441203,1622993549764,,,,,,,,-0.38,-0.16,-0.56,-4,0,2,0.42,,83,4910,9,26,50,1.01,31.4,375,4.95,13.2,20.0,1,29.4,2.82,6.4,0,0,0,1,0,312,250,135,314,,,,,,,,,,,,,,,,
441223,1622993549784,,,,,,,,-0.41,-0.21,-0.34,-5,0,1,0.46,,83,4887,9,26,51,1.012,31.7,389,4.92,13.3,20.0,1,29.4,2.82,6.4,0,0,0,1,0,308,250,135,317,,,,,,,,,,,,,,,,
441243,1622993549804,1,1,34,28,32,34,-26,-0.4,-0.24,-0.15,-6,-1,-1,0.47,0,83,4877,9,26,52,1.015,31.9,381,4.95,13.2,20.0,1,29.6,1.68,6.4,0,0,0,1,0,305,250,135,315,45.699078,4.910131,32.89,198.8,9,3,1.8,0,0.0,-1,0.0,0.0,0.0,0,3.98,7.3541
441263,1622993549824,,,,,,,,-0.36,-0.35,-0.3,-8,-1,-2,0.5,,83,4893,10,26,52,1.017,32.0,375,4.93,13.2,20.0,1,29.8,2.84,6.4,0,0,0,1,0,298,250,-30976,320,,,,,,,,,,,,,,,,
441283,1622993549844,,,,,,,,-0.36,-0.39,-0.44,-10,1,0,0.53,,83,4919,10,26,53,1.02,32.2,377,4.93,13.3,20.0,1,30.4,2.87,6.4,0,0,0,1,0,297,250,140,322,,,,,,,,,,,,,,,,
441303,1622993549864,,,,,,,,-0.39,-0.37,-0.24,-13,1,-1,0.54,,83,4940,10,26,54,1.024,32.0,378,4.94,13.2,20.0,1,31.0,1.75,6.4,0,0,0,1,0,293,250,140,322,,,,,,,,,,,,,,,,
441323,1622993549884,,,,,,,,-0.33,-0.4,-0.15,-15,-1,-2,0.52,,83,4922,10,26,54,1.027,32.4,391,4.9,13.0,20.0,1,30.8,1.74,6.4,0,0,0,1,0,290,250,145,324,,,,,,,,,,,,,,,,
441343,1622993549904,1,2,38,27,31,36,-33,-0.3,-0.43,-0.3,-17,0,-1,0.52,0,83,4865,10,26,55,1.03,32.3,382,4.93,13.3,20.0,1,30.4,2.85,6.4,0,0,0,1,0,289,250,-27136,323,45.699074,4.910126,31.85,198.7,9,3,1.8,0,0.0,-1,0.0,,0.0,0,3.98,7.3557
441363,1622993549924,,,,,,,,-0.3,-0.47,-0.44,-19,2,1,0.56,,83,4795,10,26,56,1.032,31.9,360,4.93,13.3,20.0,1,29.8,2.8,6.4,0,0,0,1,0,289,250,-28416,322,,,,,,,,,,,,,,,,
441383,1622993549944,,,,,,,,-0.33,-0.49,-0.39,-21,3,2,0.59,,83,4803,10,26,56,1.031,32.0,373,4.96,13.3,19.2,1,29.9,2.8,6.2,0,0,0,1,0,288,250,140,320,,,,,,,,,,,,,,,,
441403,1622993549964,,,,,,,,-0.36,-0.49,-0.2,-23,2,-0,0.61,,83,4769,11,26,57,1.03,32.1,368,4.95,13.2,19.2,1,29.7,1.63,6.2,0,0,0,1,0,286,250,-28416,321,,,,,,,,,,,,,,,,
441423,1622993549984,,,,,,,,-0.32,-0.53,-0.05,-24,0,-1,0.62,,83,4730,12,26,58,1.03,31.9,373,4.91,13.1,19.2,1,29.5,1.6,6.2,0,0,0,1,0,287,250,145,319,,,,,,,,,,,,,,,,
441443,1622993549996,1,1,35,27,29,36,-37,-0.27,-0.53,-0.21,-26,-1,-3,0.59,0,83,4727,14,26,59,1.025,32.2,367,4.95,13.0,19.2,1,29.8,2.75,6.2,0,0,0,1,0,286,250,145,322,45.699066,4.910119,31.52,198.7,9,3,1.8,0,0.0,-1,0.0,0.0,0.0,0,3.98,7.3574
441463,1622993550016,,,,,,,,-0.24,-0.6,-0.36,-27,0,-1,0.65,,83,4750,15,26,61,1.016,32.3,353,4.91,13.3,19.2,1,30.7,2.75,6.2,0,0,0,1,0,285,250,140,323,,,,,,,,,,,,,,,,
441483,1622993550036,,,,,,,,-0.28,-0.58,-0.2,-29,1,-1,0.64,,83,4889,15,27,63,1.008,32.2,358,4.91,13.3,18.8,1,33.1,2.9,6.1,0,0,0,1,0,283,250,-28416,322,,,,,,,,,,,,,,,,
441503,1622993550056,,,,,,,,-0.27,-0.64,-0.01,-30,-1,-3,0.7,,83,4961,15,27,65,1.0,32.1,373,4.93,13.1,18.8,1,34.6,1.89,6.1,0,0,0,1,0,283,250,-28416,321,,,,,,,,,,,,,,,,
441523,1622993550076,,,,,,,,-0.27,-0.68,-0.18,-32,0,-1,0.73,,83,5074,16,27,67,0.989,32.1,377,4.9,13.3,18.8,1,35.8,3.17,6.1,0,0,0,1,0,282,250,140,316,,,,,,,,,,,,,,,,
441543,1622993550104,1,1,36,30,28,39,-46,-0.28,-0.72,0.0,-33,-0,-2,0.77,0,83,5141,16,27,69,0.974,32.1,384,4.96,13.3,18.8,1,36.4,3.29,6.1,0,0,0,1,0,281,250,140,321,45.699059,4.910112,31.66,198.5,9,3,1.8,0,0.0,-1,0.0,,0.0,0,3.98,7.359
441563,1622993550124,,,,,,,,-0.27,-0.78,-0.16,-35,0,-2,0.82,,83,5244,16,27,70,0.959,32.1,391,4.92,13.2,18.8,1,36.6,3.37,6.1,0,0,0,1,0,279,250,145,321,,,,,,,,,,,,,,,,
441583,1622993550144,,,,,,,,-0.21,-0.74,0.02,-37,-2,-4,0.77,,83,5331,16,27,71,0.943,32.0,394,4.97,13.3,25.5,1,36.7,2.31,8.2,0,0,0,1,0,278,250,145,323,,,,,,,,,,,,,,,,
441603,1622993550164,,,,,,,,-0.26,-0.76,-0.15,-38,2,0,0.8,,83,5452,16,27,71,0.925,32.1,402,4.9,13.1,25.5,1,36.6,3.57,8.2,0,0,0,1,0,277,250,145,321,,,,,,,,,,,,,,,,
441623,1622993550184,,,,,,,,-0.12,-0.74,0.03,-39,-4,-5,0.75,,83,5513,16,27,72,0.908,32.1,421,4.92,13.0,25.5,1,36.8,3.59,8.2,0,0,0,1,0,286,250,-27136,321,,,,,,,,,,,,,,,,
441643,1622993550204,1,1,37,29,27,36,-46,-0.15,-0.71,-0.14,-40,1,-2,0.73,0,83,5314,16,27,73,0.889,32.5,410,4.92,13.2,25.5,1,37.2,3.57,8.2,0,0,0,1,0,318,250,-24576,321,45.699055,4.910105,31.61,198.5,9,3,1.8,0,0.0,-1,0.0,0.0,0.0,0,3.98,7.3607
441663,1622993550224,,,,,,,,-0.12,-0.71,0.04,-41,-2,-5,0.72,,83,4992,16,27,74,0.871,32.3,394,4.83,13.0,25.5,1,37.6,3.52,8.2,0,0,0,1,0,343,250,165,323,,,,,,,,,,,,,,,,
441683,1622993550244,,,,,,,,-0.07,-0.75,-0.13,-42,-3,-4,0.75,,83,4800,15,27,74,0.852,32.6,367,4.96,13.2,24.5,1,34.9,3.3,8.0,0,0,0,1,0,338,250,-23296,326,,,,,,,,,,,,,,,,
441703,1622993550264,,,,,,,,-0.04,-0.77,-0.29,-43,-1,-2,0.77,,83,4811,15,27,75,0.84,32.6,355,4.98,13.2,24.5,1,35.3,3.34,8.0,0,0,0,1,0,311,250,-24576,323,,,,,,,,,,,,,,,,
441723,1622993550284,,,,,,,,-0.07,-0.68,-0.1,-43,-1,-2,0.68,,83,4956,15,27,75,0.828,32.4,359,4.92,13.3,24.5,1,37.4,3.48,8.0,0,0,0,1,0,292,250,160,324,,,,,,,,,,,,,,,,
441743,1622993550304,2,2,40,31,28,35,-32,-0.03,-0.7,0.01,-43,-3,-4,0.7,0,83,5029,15,27,76,0.816,32.5,380,4.89,13.1,24.5,1,38.4,2.44,8.0,0,0,0,1,0,294,250,155,325,45.699047,4.910097,30.69,198.4,9,3,1.8,0,0.0,-1,0.0,,0.0,0,3.98,7.3624
441763,1622993550324,,,,,,,,-0.01,-0.66,-0.16,-43,-1,-1,0.66,,83,4992,15,27,76,0.804,32.6,370,4.9,13.3,24.5,1,38.2,3.57,8.0,0,0,0,1,0,305,250,160,322,,,,,,,,,,,,,,,,
441783,1622993550344,,,,,,,,-0.02,-0.61,0.02,-42,-0,-1,0.61,,83,4956,14,27,76,0.8,32.4,366,4.97,13.2,25.4,1,37.7,2.38,8.2,0,0,0,1,0,304,250,-24576,324,,,,,,,,,,,,,,,,
441803,1622993550364,,,,,,,,0.01,-0.56,0.19,-41,-3,-3,0.56,,83,4952,13,27,76,0.797,32.4,382,4.92,13.1,25.4,1,37.7,3.53,8.2,0,0,0,1,0,306,250,-25856,324,,,,,,,,,,,,,,,,
441823,1622993550384,,,,,,,,0.03,-0.53,0.0,-39,-1,-1,0.53,,83,4948,12,27,76,0.793,32.3,366,4.97,13.2,25.4,1,37.6,3.52,8.2,0,0,0,1,0,307,250,-24576,323,,,,,,,,,,,,,,,,
441843,1622993550403,1,2,38,36,29,30,-3,0.0,-0.42,-0.16,-37,1,1,0.42,0,83,4917,10,27,75,0.79,32.1,365,4.92,13.3,25.4,1,36.9,3.45,8.2,0,0,0,1,0,310,250,150,321,45.699039,4.910088,31.74,198.4,9,3,1.8,0,0.0,-1,0.0,0.0,0.0,0,3.98,7.364
441863,1622993550423,,,,,,,,-0.03,-0.3,0.02,-34,-1,1,0.3,,83,4901,7,27,74,0.79,31.9,369,4.93,13.2,25.4,1,36.3,3.39,8.2,0,0,0,1,0,311,250,-28416,319,,,,,,,,,,,,,,,,
441883,1622993550443,,,,,,,,0.03,-0.24,0.01,-31,-2,-1,0.24,,83,4904,7,27,72,0.792,31.3,366,4.92,13.1,23.8,1,35.9,3.32,7.6,0,0,0,1,0,313,250,140,316,,,,,,,,,,,,,,,,
441903,1622993550463,,,,,,,,0.02,-0.19,-0.16,-28,0,2,0.19,,83,4918,7,27,70,0.795,31.2,364,4.98,13.3,23.8,1,35.5,3.25,7.6,0,0,0,1,0,314,250,-32256,312,,,,,,,,,,,,,,,,
441923,1622993550483,,,,,,,,-0.06,-0.11,0.02,-25,1,2,0.12,,83,4956,7,27,69,0.797,31.3,382,4.92,13.2,23.8,1,35.7,3.23,7.6,0,0,0,1,0,315,-30976,32000,308,,,,,,,,,,,,,,,,
441943,1622993550503,11,4,33,36,33,29,21,-0.04,-0.0,0.19,-22,-1,-0,0.04,0,83,4994,7,27,68,0.8,31.3,379,4.9,13.0,23.8,1,36.1,3.2,7.6,0,0,0,1,0,316,-30976,120,302,45.699036,4.910078,32.45,198.4,9,3,1.8,0,0.0,-1,0.0,,0.0,0,3.98,7.3657
441963,1622993550523,,,,,,,,-0.03,-0.0,0.01,-18,0,2,0.03,,83,4976,7,27,66,0.803,31.3,367,5.01,13.2,23.8,1,35.1,3.09,7.6,0,0,0,1,0,316,-30976,115,302,,,,,,,,,,,,,,,,
441983,1622993550543,,,,,,,,-0.09,0.09,-0.11,-15,2,3,0.12,,83,4921,7,27,65,0.807,31.3,370,4.93,13.3,23.1,1,34.1,3.02,7.0,0,0,0,1,0,316,-30976,110,298,,,,,,,,,,,,,,,,
442003,1622993550563,,,,,,,,-0.12,0.17,0.06,-12,1,2,0.21,,83,4877,7,27,65,0.81,31.3,374,4.92,13.2,23.1,1,33.5,3.0,7.0,0,0,0,1,0,316,-30976,115,298,,,,,,,,,,,,,,,,
442023,1622993550583,,,,,,,,-0.11,0.22,0.22,-8,-2,0,0.24,,83,4821,7,27,63,0.811,31.3,376,4.92,13.1,23.1,1,32.2,2.93,7.0,0,0,0,1,0,317,-30976,105,295,,,,,,,,,,,,,,,,
442043,1622993550603,11,3,29,34,36,29,43,-0.09,0.26,0.03,-4,-2,1,0.27,0,83,4750,7,27,63,0.811,31.3,361,4.97,13.2,23.1,1,31.2,2.85,7.0,0,0,0,1,0,316,-30976,24320,291,45.699036,4.910068,32.19,198.4,9,3,1.8,0,0.0,-1,0.0,0.0,0.0,0,3.98,7.3674
442063,1622993550623,,,,,,,,-0.08,0.31,-0.14,-1,-1,2,0.32,,83,4720,7,27,62,0.81,31.3,356,4.9,13.3,23.1,1,30.5,2.79,7.0,0,0,0,1,0,317,-30976,80,284,,,,,,,,,,,,,,,,
442083,1622993550643,,,,,,,,-0.1,0.37,-0.29,3,1,4,0.39,,83,4659,7,27,62,0.809,31.3,362,4.92,13.3,21.1,1,29.7,2.76,6.0,0,0,0,1,0,317,-30976,0,280,,,,,,,,,,,,,,,,
442103,1622993550663,,,,,,,,-0.14,0.41,-0.43,7,2,5,0.43,,83,4605,7,27,61,0.808,28.1,345,4.93,13.3,21.1,1,28.8,2.7,6.0,0,0,0,1,0,316,-1,24064,281,,,,,,,,,,,,,,,,
442123,1622993550683,,,,,,,,-0.18,0.45,-0.56,11,4,6,0.49,,83,4563,7,27,60,0.806,27.8,350,4.98,13.3,21.1,1,27.9,2.67,6.0,0,0,0,1,0,317,14242,30208,278,,,,,,,,,,,,,,,,
442143,1622993550703,9,3,25,35,40,29,67,-0.23,0.47,-0.68,15,6,8,0.53,0,83,4491,8,27,60,0.804,27.5,355,4.94,13.3,21.1,1,27.0,2.64,6.0,0,0,0,1,0,316,14242,250,275,45.699028,4.910058,32.33,198.5,9,3,1.8,0,0.0,-1,0.0,,0.0,0,3.98,7.3691
442163,1622993550723,,,,,,,,-0.24,0.47,-0.79,20,6,9,0.53,,83,4418,9,27,60,0.802,27.0,346,4.92,13.3,21.1,1,26.0,2.61,6.0,0,0,0,1,0,316,140,-1,270,,,,,,,,,,,,,,,,
442183,1622993550743,,,,,,,,-0.25,0.46,-0.89,24,7,11,0.52,,83,4429,10,27,60,0.8,31.8,336,4.91,13.3,19.2,1,26.2,2.61,5.2,0,0,0,1,0,315,145,-1,267,,,,,,,,,,,,,,,,
442203,1622993550763,,,,,,,,-0.24,0.5,-0.99,28,9,13,0.55,,83,4444,10,27,61,0.797,31.7,336,4.96,13.3,19.2,1,26.7,2.64,5.2,0,0,0,1,0,314,-28416,-1,261,,,,,,,,,,,,,,,,
442223,1622993550783,,,,,,,,-0.25,0.51,-1.07,32,9,13,0.57,,83,4389,11,27,62,0.794,31.7,334,4.98,13.3,19.2,1,26.1,2.66,5.2,0,0,0,1,0,313,-28416,506,259,,,,,,,,,,,,,,,,
442243,1622993550805,10,4,22,37,42,30,87,-0.23,0.48,-1.15,35,9,14,0.54,0,83,4463,11,27,62,0.791,24.7,334,4.9,13.2,19.2,1,27.1,2.69,5.2,0,0,0,1,0,311,-1,10818,247,45.69902,4.910049,30.46,198.5,9,3,1.8,0,0.0,-1,0.0,0.0,0.0,0,3.98,7.3707
442263,1622993550825,,,,,,,,-0.21,0.53,-1.22,39,9,14,0.57,,83,4501,12,27,64,0.79,30.6,338,4.97,13.3,19.2,1,28.2,2.75,5.2,0,0,0,1,0,310,115,10812,246,,,,,,,,,,,,,,,,
442283,1622993550845,,,,,,,,-0.18,0.45,-1.28,42,9,15,0.49,,83,4477,15,27,65,0.792,31.0,342,4.9,13.2,23.1,1,28.1,2.83,5.7,0,0,0,1,0,308,125,23482,246,,,,,,,,,,,,,,,,
442303,1622993550865,,,,,,,,-0.2,0.48,-1.34,45,10,16,0.52,,83,4641,16,27,67,0.794,24.1,342,4.94,13.3,23.1,1,30.9,3.0,5.7,0,0,0,1,0,308,-1482,13468,241,,,,,,,,,,,,,,,,
442323,1622993550885,,,,,,,,-0.26,0.52,-1.4,49,12,17,0.58,,83,4695,18,27,70,0.796,30.8,355,4.95,13.3,23.1,1,32.5,3.11,5.7,0,0,0,1,0,304,120,8704,241,,,,,,,,,,,,,,,,
442343,1622993550905,9,5,21,37,42,31,90,-0.32,0.56,-1.11,52,12,15,0.64,0,83,4786,20,27,73,0.798,30.6,362,4.9,13.2,23.1,1,34.5,3.27,5.7,0,0,0,1,0,303,110,18432,235,45.699017,4.910042,28.39,198.6,9,3,1.8,0,0.0,-1,0.0,,0.0,0,3.98,7.3724
442363,1622993550925,,,,,,,,-0.32,0.67,-0.85,54,8,12,0.74,,83,4849,23,27,76,0.799,23.2,369,4.93,13.0,23.1,1,36.2,2.27,5.7,0,0,0,1,0,303,-30064,-1281,235,,,,,,,,,,,,,,,,
442383,1622993550945,,,,,,,,-0.29,0.72,-0.84,57,6,10,0.78,,83,4780,26,27,80,0.801,53.7,361,4.96,13.2,32.7,1,36.4,3.5,7.7,0,0,0,1,0,303,-30064,155,236,,,,,,,,,,,,,,,,
442403,1622993550965,,,,,,,,-0.29,0.68,-0.93,60,8,12,0.73,,83,4886,29,27,85,0.802,53.7,357,4.94,13.3,32.7,1,39.5,6.19,7.7,0,0,0,1,0,302,-30064,-6405,236,,,,,,,,,,,,,,,,
442423,1622993550985,,,,,,,,-0.23,0.7,-0.69,62,2,8,0.74,,83,5093,31,27,89,0.803,53.7,379,4.89,13.2,32.7,1,42.2,6.36,7.7,0,0,0,1,0,299,1018,-6458,236,,,,,,,,,,,,,,,,
442443,1622993550997,5,3,25,36,42,32,60,-0.29,0.69,-0.8,63,6,11,0.75,0,83,5437,31,27,91,0.801,23.8,392,4.9,13.3,32.7,1,41.5,7.43,7.7,0,0,0,1,0,296,1018,-6644,236,45.699013,4.910036,27.89,198.6,9,3,1.8,0,0.0,-1,0.0,0.0,0.0,0,3.99,7.3741
442463,1622993551017,,,,,,,,-0.3,0.69,-0.9,63,7,11,0.75,,83,5857,31,27,92,0.8,23.9,419,4.87,13.2,32.7,1,40.2,8.65,7.7,0,0,0,1,0,297,1018,-6640,239,,,,,,,,,,,,,,,,
442483,1622993551037,,,,,,,,-0.27,0.66,-0.99,63,8,12,0.72,,83,6077,31,27,91,0.798,24.0,452,4.85,13.0,99.5,1,40.4,8.75,23.9,0,0,0,1,0,309,1018,2811,240,,,,,,,,,,,,,,,,
442503,1622993551057,,,,,,,,-0.22,0.67,-1.04,63,10,14,0.71,,83,6143,31,27,90,0.798,24.5,462,4.83,13.1,99.5,1,41.1,8.46,23.9,0,0,0,1,0,316,1018,90,245,,,,,,,,,,,,,,,,
442523,1622993551077,,,,,,,,-0.15,0.68,-0.78,61,11,14,0.7,,83,6161,31,27,90,0.797,25.6,459,4.94,13.2,99.5,1,41.3,3.74,23.9,0,0,0,1,0,303,1018,-1,253,,,,,,,,,,,,,,,,
442543,1622993551103,2,3,34,42,33,26,43,-0.04,0.66,-0.55,59,9,13,0.66,0,83,6175,31,27,90,0.796,26.1,461,4.9,13.2,99.5,1,41.5,8.27,23.9,0,0,0,1,0,298,1018,250,261,45.699005,4.910032,27.19,198.6,9,3,1.8,0,0.0,-1,0.0,,0.0,0,3.99,7.3757
442563,1622993551123,,,,,,,,0.03,0.58,-0.34,57,5,9,0.58,,83,6184,31,27,90,0.795,26.5,457,4.96,13.2,99.5,1,41.5,8.18,23.9,0,0,0,1,0,300,1018,24320,265,,,,,,,,,,,,,,,,
442583,1622993551143,,,,,,,,0.11,0.5,-0.23,55,1,6,0.51,,83,6184,31,27,90,0.793,26.7,456,4.96,13.2,87.9,1,41.5,8.06,23.3,0,0,0,1,0,304,1018,25600,267,,,,,,,,,,,,,,,,
442603,1622993551163,,,,,,,,0.09,0.47,-0.38,53,-1,4,0.48,,84,6192,33,27,90,0.794,27.1,462,4.94,13.1,87.9,1,41.6,3.71,23.3,0,0,0,1,0,308,1018,140,271,,,,,,,,,,,,,,,,
442623,1622993551183,,,,,,,,0.05,0.49,-0.52,52,-0,4,0.49,,84,6190,36,27,91,0.794,27.8,475,4.84,13.1,87.9,1,41.6,8.01,23.3,0,0,0,1,0,312,1018,130,278,,,,,,,,,,,,,,,,
442643,1622993551205,3,1,38,43,31,25,38,0.03,0.56,-0.64,51,2,7,0.56,0,84,6214,37,27,92,0.795,28.0,475,4.83,13.0,87.9,1,41.9,8.02,23.3,0,0,0,1,0,316,1018,-32256,280,45.698998,4.910028,28.21,198.6,9,3,1.8,0,0.0,-1,0.0,0.0,0.0,0,3.99,7.3774
442663,1622993551225,,,,,,,,0.12,0.59,-0.49,50,5,9,0.6,,84,6231,37,27,92,0.797,28.2,475,4.83,13.1,87.9,1,42.0,7.91,23.3,0,0,0,1,0,320,1018,25600,282,,,,,,,,,,,,,,,,
442683,1622993551245,,,,,,,,0.23,0.57,-0.28,48,5,8,0.61,,84,6268,37,27,93,0.792,28.6,463,4.87,13.2,80.4,1,42.4,7.9,23.1,0,0,0,1,0,319,1018,-24576,286,,,,,,,,,,,,,,,,
442703,1622993551265,,,,,,,,0.36,0.48,-0.09,47,-0,4,0.6,,84,6287,37,27,93,0.787,28.8,466,4.92,13.2,80.4,1,42.6,3.82,23.1,0,0,0,1,0,324,1018,-6644,288,,,,,,,,,,,,,,,,
442723,1622993551285,,,,,,,,0.4,0.37,-0.16,45,-3,0,0.55,,84,6196,37,27,93,0.782,29.5,466,4.95,13.2,80.4,1,41.7,7.84,23.1,0,0,0,1,0,333,1018,-30454,293,,,,,,,,,,,,,,,,
442743,1622993551305,3,1,40,43,30,25,4,0.35,0.28,-0.31,43,-4,-1,0.45,0,84,6231,37,27,93,0.777,30.3,475,4.86,13.0,80.4,1,42.0,7.72,23.1,0,0,0,1,0,334,-1281,-6528,303,45.698994,4.910026,30.02,198.5,9,3,1.8,0,0.0,-1,0.0,,0.0,0,3.99,7.379
442763,1622993551325,,,,,,,,0.26,0.22,-0.45,40,-1,-0,0.34,,84,6218,36,27,93,0.766,32.4,470,4.83,13.1,80.4,1,41.9,7.66,23.1,0,0,0,1,0,334,160,155,309,,,,,,,,,,,,,,,,
442783,1622993551345,,,,,,,,0.28,0.2,-0.56,37,3,3,0.34,,84,6264,31,27,92,0.754,32.0,461,4.85,13.2,70.8,1,42.4,7.42,21.9,0,0,0,1,0,334,150,165,315,,,,,,,,,,,,,,,,
442803,1622993551365,,,,,,,,0.34,0.09,-0.35,34,3,2,0.36,,84,6277,30,27,91,0.742,32.0,460,4.91,13.2,70.8,1,42.5,7.23,21.9,0,0,0,1,0,335,-29696,3346,320,,,,,,,,,,,,,,,,
442823,1622993551385,,,,,,,,0.39,-0.04,-0.15,29,-1,-1,0.39,,84,6277,30,27,90,0.73,32.8,462,4.92,13.2,70.8,1,42.5,7.06,21.9,0,0,0,1,0,335,-28416,-122,328,,,,,,,,,,,,,,,,
442843,1622993551404,4,4,45,40,25,30,-42,0.41,-0.18,-0.0,25,-6,-6,0.45,0,84,6208,30,27,89,0.717,32.7,467,4.95,13.1,70.8,1,41.5,6.95,21.9,0,0,0,1,0,341,125,6668,327,45.698982,4.910023,32.09,198.5,9,3,1.8,0,0.0,-1,0.0,0.0,0.0,0,3.99,7.3807
442863,1622993551424,,,,,,,,0.43,-0.22,0.04,20,-9,-9,0.48,,84,6062,29,28,89,0.704,33.3,456,4.96,13.2,70.8,1,40.0,6.94,21.9,0,0,0,1,0,355,130,28553,333,,,,,,,,,,,,,,,,
442883,1622993551444,,,,,,,,0.44,-0.28,0.04,16,-13,-13,0.52,,84,5998,28,28,89,0.691,33.6,447,4.93,13.2,58.5,1,39.6,6.85,19.5,0,0,0,1,0,367,-32256,-30454,336,,,,,,,,,,,,,,,,
442903,1622993551464,,,,,,,,0.51,-0.34,0.2,11,-18,-17,0.61,,84,5907,25,28,89,0.677,34.1,438,4.93,13.2,58.5,1,39.8,6.67,19.5,0,0,0,1,0,353,29440,-29978,341,,,,,,,,,,,,,,,,
442923,1622993551484,,,,,,,,0.55,-0.43,0.35,7,-19,-17,0.69,,84,5781,23,28,87,0.668,34.9,431,4.94,13.2,58.5,1,39.7,6.19,19.5,0,0,0,1,0,362,26880,2790,349,,,,,,,,,,,,,,,,
442943,1622993551504,8,4,46,35,25,33,-73,0.49,-0.45,0.28,3,-13,-12,0.66,0,84,5671,21,28,86,0.663,34.5,432,4.93,13.2,58.5,1,39.8,5.9,19.5,0,0,0,1,0,363,0,-1268,345,45.698978,4.91002,33.72,198.5,9,3,1.8,0,0.0,-1,0.0,,0.0,0,3.99,7.3824
442963,1622993551524,,,,,,,,0.36,-0.51,0.09,-1,-9,-9,0.62,,84,5645,20,28,85,0.66,34.9,426,4.97,13.1,58.5,1,39.6,5.73,19.5,0,0,0,1,0,370,24064,-6405,349,,,,,,,,,,,,,,,,
442983,1622993551544,,,,,,,,0.28,-0.55,-0.08,-5,-10,-10,0.62,,84,5704,20,28,84,0.656,35.4,417,4.87,13.1,42.6,1,39.2,5.67,14.9,0,0,0,1,0,344,630,0,354,,,,,,,,,,,,,,,,
443003,1622993551564,,,,,,,,0.27,-0.56,0.09,-9,-12,-13,0.62,,84,5767,20,28,83,0.654,34.4,421,4.87,13.2,42.6,1,38.9,3.15,14.9,0,0,0,1,0,360,-1281,230,344,,,,,,,,,,,,,,,,
443023,1622993551584,,,,,,,,0.32,-0.58,0.25,-12,-14,-15,0.67,,84,5848,20,28,83,0.653,34.1,434,4.91,13.2,42.6,1,38.7,3.21,14.9,0,0,0,1,0,372,-1,-6656,341,,,,,,,,,,,,,,,,
443043,1622993551604,7,3,45,33,28,35,-90,0.36,-0.64,0.4,-15,-16,-16,0.73,0,84,5892,20,28,82,0.651,33.6,435,4.89,13.2,42.6,1,38.3,4.3,14.9,0,0,0,1,0,371,-1,-6656,333,45.698967,4.910017,35.02,198.5,9,3,1.8,0,0.0,-1,0.0,0.0,0.0,0,3.99,7.384
443063,1622993551624,,,,,,,,0.41,-0.62,0.53,-19,-14,-15,0.74,,84,5874,20,28,81,0.65,33.9,435,4.97,13.2,42.6,1,38.1,4.25,14.9,0,0,0,1,0,368,14337,1,339,,,,,,,,,,,,,,,,
443083,1622993551644,,,,,,,,0.43,-0.6,0.65,-21,-11,-12,0.74,,84,5842,22,28,81,0.652,34.5,427,5.01,13.3,33.3,1,38.2,4.23,11.4,0,0,0,1,0,383,16896,-6656,345,,,,,,,,,,,,,,,,
443103,1622993551664,,,,,,,,0.39,-0.68,0.74,-24,-6,-7,0.79,,84,5907,27,28,83,0.655,34.2,440,4.96,13.3,33.3,1,38.6,5.01,11.4,0,0,0,1,0,380,-1494,257,342,,,,,,,,,,,,,,,,
443123,1622993551684,,,,,,,,0.4,-0.68,0.84,-26,-2,-4,0.79,,84,6054,28,28,85,0.659,34.3,453,4.96,13.2,33.3,1,39.0,5.24,11.4,0,0,0,1,0,360,16896,742,343,,,,,,,,,,,,,,,,
443143,1622993551704,7,4,44,32,26,35,-87,0.37,-0.78,0.94,-28,1,-1,0.87,0,84,6137,28,28,86,0.662,35.1,458,4.92,13.2,33.3,1,40.0,5.26,11.4,0,0,0,1,0,355,-41,742,351,45.698956,4.910013,35.76,198.4,9,3,1.8,0,0.0,-1,0.0,,0.0,0,3.99,7.3857
443163,1622993551724,,,,,,,,0.45,-0.82,1.03,-30,-1,-1,0.94,,84,6145,28,28,87,0.665,35.1,450,4.95,13.2,33.3,1,40.3,5.19,11.4,0,0,0,1,0,442,-10440,742,349,,,,,,,,,,,,,,,,
443183,1622993551744,,,,,,,,0.42,-0.9,0.92,-33,-3,-4,1.0,,84,6283,32,28,87,0.668,35.0,458,4.92,13.1,42.1,1,41.6,5.1,14.7,0,0,0,1,0,435,16896,2278,349,,,,,,,,,,,,,,,,
443203,1622993551764,,,,,,,,0.37,-0.97,0.68,-35,0,-2,1.04,,84,6597,35,28,89,0.672,34.7,487,4.9,13.1,42.1,1,45.3,5.12,14.7,0,0,0,1,0,385,506,-19019,347,,,,,,,,,,,,,,,,
443223,1622993551784,,,,,,,,0.36,-0.99,0.79,-37,-4,-4,1.05,,84,6703,35,28,91,0.675,35.7,490,4.93,13.2,42.1,1,46.9,5.09,14.7,0,0,0,1,0,373,250,-31744,357,,,,,,,,,,,,,,,,
443243,1622993551804,4,4,44,33,26,36,-77,0.31,-0.9,0.56,-39,-2,-4,0.95,0,84,6727,35,28,92,0.681,36.7,502,4.91,13.1,42.1,1,47.1,5.21,14.7,0,0,0,1,0,406,250,-19019,367,45.698952,4.910008,36.21,198.4,9,3,1.8,0,0.0,-1,0.0,0.0,0.0,0,3.99,7.3874
443263,1622993551824,,,,,,,,0.33,-0.97,0.68,-41,-3,-5,1.03,,84,6749,36,27,92,0.692,36.5,497,4.93,13.2,42.1,1,47.4,5.17,14.7,0,0,0,1,0,393,250,-6656,370,,,,,,,,,,,,,,,,
443283,1622993551844,,,,,,,,0.29,-0.87,0.45,-42,-0,-4,0.92,,84,6732,36,27,93,0.703,37.0,502,4.88,13.1,43.5,1,47.2,5.18,16.1,0,0,0,1,0,392,41,-6656,374,,,,,,,,,,,,,,,,
443303,1622993551864,,,,,,,,0.33,-0.82,0.58,-44,-2,-7,0.88,,84,6576,36,27,93,0.715,37.7,493,4.93,13.1,43.5,1,45.6,3.6,16.1,0,0,0,1,0,387,630,-1562,375,,,,,,,,,,,,,,,,
443323,1622993551884,,,,,,,,0.25,-0.8,0.37,-46,-2,-7,0.84,,84,6644,39,27,93,0.724,37.7,488,4.93,13.1,43.5,1,46.4,5.07,16.1,0,0,0,1,0,416,2414,28696,377,,,,,,,,,,,,,,,,
443343,1622993551904,5,4,46,34,26,37,-64,0.32,-0.86,0.5,-48,-0,-6,0.92,0,84,6674,43,27,94,0.728,38.1,497,4.88,13.2,43.5,1,46.6,5.06,16.1,0,0,0,1,0,433,24064,-4059,381,45.698944,4.910001,36.58,198.4,9,3,1.8,0,0.0,-1,0.0,,0.0,0,3.99,7.389
443363,1622993551924,,,,,,,,0.25,-0.89,0.3,-49,-0,-6,0.93,,84,6737,44,27,95,0.73,38.8,498,4.91,13.1,43.5,1,47.2,5.45,16.1,0,0,0,1,0,406,1886,10392,388,,,,,,,,,,,,,,,,
443383,1622993551944,,,,,,,,0.29,-0.97,0.44,-50,0,-5,1.01,,84,6800,44,27,95,0.733,39.4,497,4.9,13.2,44.2,1,47.9,5.39,17.0,0,0,0,1,0,388,80,9517,394,,,,,,,,,,,,,,,,
443403,1622993551964,,,,,,,,0.25,-0.94,0.23,-51,1,-6,0.97,,84,6855,44,27,96,0.736,39.7,513,4.92,13.1,44.2,1,48.5,5.37,17.0,0,0,0,1,0,383,80,11560,393,,,,,,,,,,,,,,,,
443423,1622993551984,,,,,,,,0.28,-0.97,0.38,-51,-0,-6,1.01,,84,6838,44,27,95,0.739,40.0,515,4.9,13.2,44.2,1,48.3,5.25,17.0,0,0,0,1,0,425,80,10392,400,,,,,,,,,,,,,,,,
443443,1622993551996,5,2,46,36,26,35,-21,0.34,-0.95,0.18,-50,1,-3,1.01,0,84,6868,44,27,96,0.742,40.3,510,4.92,13.0,44.2,1,48.6,5.23,17.0,0,0,0,1,0,433,80,-26615,403,45.698936,4.909993,39.04,198.3,9,3,1.8,0,0.0,-1,0.0,0.0,0.0,0,3.99,7.3907
443463,1622993552016,,,,,,,,0.31,-0.98,0.23,-49,-1,-5,1.03,,84,6903,44,27,95,0.744,39.4,502,4.89,13.2,44.2,1,49.0,5.05,17.0,0,0,0,1,0,393,80,-8165,394,,,,,,,,,,,,,,,,
443483,1622993552036,,,,,,,,0.34,-0.9,0.37,-48,-0,-3,0.96,,84,6967,44,27,95,0.746,40.4,516,4.9,13.1,39.8,1,49.6,4.9,16.0,0,0,0,1,0,394,80,9517,404,,,,,,,,,,,,,,,,
443503,1622993552056,,,,,,,,0.33,-0.79,0.18,-46,1,-1,0.86,,84,6985,44,27,96,0.742,40.3,512,4.91,13.1,39.8,1,49.9,4.87,16.0,0,0,0,1,0,407,80,2524,403,,,,,,,,,,,,,,,,
443523,1622993552076,,,,,,,,0.33,-0.74,0.25,-44,-1,-3,0.81,,84,7022,44,27,95,0.738,40.2,517,4.92,13.2,39.8,1,49.7,4.74,16.0,0,0,0,1,0,413,80,18584,402,,,,,,,,,,,,,,,,
443543,1622993552104,3,4,44,37,26,30,4,0.39,-0.65,0.39,-41,-1,-2,0.76,0,84,7059,45,27,95,0.733,40.3,522,4.89,13.2,39.8,1,49.2,4.68,16.0,0,0,0,1,0,401,80,-4059,397,45.698929,4.909984,39.97,198.3,9,3,1.8,0,0.0,-1,0.0,,0.0,0,4.0,7.3924
443563,1622993552124,,,,,,,,0.42,-0.5,0.19,-37,-0,1,0.65,,84,7075,44,27,95,0.729,40.3,520,4.92,13.1,39.8,1,49.0,4.62,16.0,0,0,0,1,0,419,80,18584,403,,,,,,,,,,,,,,,,
443583,1622993552144,,,,,,,,0.39,-0.45,0.01,-34,-1,1,0.6,,84,7118,44,27,96,0.73,40.7,529,4.92,13.1,37.4,1,48.4,4.64,15.1,0,0,0,1,0,412,80,18584,407,,,,,,,,,,,,,,,,
443603,1622993552164,,,,,,,,0.37,-0.44,0.1,-31,-2,-2,0.58,,84,7129,44,28,95,0.733,39.6,529,4.93,13.2,37.4,1,48.2,4.61,15.1,0,0,0,1,0,421,80,-3414,400,,,,,,,,,,,,,,,,
443623,1622993552184,,,,,,,,0.4,-0.41,0.26,-27,-3,-2,0.57,,84,7156,44,28,95,0.736,40.1,537,4.89,13.1,37.4,1,47.8,4.63,15.1,0,0,0,1,0,424,80,3635,401,,,,,,,,,,,,,,,,
443643,1622993552204,5,3,42,44,29,26,7,0.44,-0.3,0.07,-24,-1,0,0.53,0,84,7159,44,28,95,0.738,40.5,534,4.93,13.1,37.4,1,47.8,4.63,15.1,0,0,0,1,0,427,80,-4082,405,45.698921,4.909973,41.72,198.4,9,3,1.8,0,0.0,-1,0.0,0.0,0.0,0,4.0,7.3941
443663,1622993552224,,,,,,,,0.42,-0.24,-0.1,-21,0,1,0.49,,84,7148,44,27,95,0.741,40.8,535,4.93,13.1,37.4,1,47.9,4.66,15.1,0,0,0,1,0,432,80,-18341,409,,,,,,,,,,,,,,,,
443683,1622993552244,,,,,,,,0.38,-0.34,-0.17,-19,-1,-0,0.52,,84,7178,45,27,95,0.745,41.1,534,4.91,13.2,38.1,1,47.5,4.69,15.6,0,0,0,1,0,435,80,13552,411,,,,,,,,,,,,,,,,
443703,1622993552264,,,,,,,,0.38,-0.38,-0.03,-17,-2,-2,0.54,,84,7194,44,27,95,0.748,41.6,539,4.89,13.2,38.1,1,47.3,4.71,15.6,0,0,0,1,0,437,80,5600,416,,,,,,,,,,,,,,,,
443723,1622993552284,,,,,,,,0.42,-0.36,0.14,-16,-2,-2,0.55,,84,7244,45,27,95,0.751,42.0,539,4.88,13.2,38.1,1,46.5,4.75,15.6,0,0,0,1,0,437,80,-7939,420,,,,,,,,,,,,,,,,
443743,1622993552304,5,4,43,38,28,27,-8,0.47,-0.27,-0.04,-15,-1,-1,0.54,0,84,7284,42,27,95,0.751,42.8,550,4.9,13.1,38.1,1,46.0,4.79,15.6,0,0,0,1,0,442,80,2131,428,45.698914,4.909962,42.82,198.4,9,3,1.8,0,0.0,-1,0.0,,0.0,0,4.0,7.3957
443763,1622993552324,,,,,,,,0.46,-0.19,-0.2,-14,-0,-0,0.5,,84,7332,41,28,94,0.751,42.9,549,4.93,13.0,38.1,1,45.3,4.77,15.6,0,0,0,1,0,441,80,16648,429,,,,,,,,,,,,,,,,
443783,1622993552344,,,,,,,,0.47,-0.12,-0.35,-14,1,1,0.49,,84,7352,41,28,94,0.751,43.2,537,4.92,13.2,37.3,1,45.0,4.78,16.1,0,0,0,1,0,449,80,10305,432,,,,,,,,,,,,,,,,
443803,1622993552364,,,,,,,,0.43,-0.13,-0.49,-13,2,2,0.45,,84,7402,41,28,94,0.75,43.7,538,4.92,13.1,37.3,1,44.3,4.82,16.1,0,0,0,1,0,451,80,-8985,437,,,,,,,,,,,,,,,,
443823,1622993552384,,,,,,,,0.39,-0.1,-0.62,-13,2,2,0.4,,84,7437,41,28,94,0.749,44.1,537,4.95,13.1,37.3,1,43.7,4.85,16.1,0,0,0,1,0,456,80,-6387,443,,,,,,,,,,,,,,,,
443843,1622993552403,5,4,44,40,26,27,-4,0.39,-0.11,-0.73,-13,3,3,0.4,0,84,7470,41,28,94,0.748,44.4,544,4.93,13.1,37.3,1,43.3,4.89,16.1,0,0,0,1,0,461,80,-23623,444,45.698906,4.90995,44.43,198.4,9,3,1.8,0,0.0,-1,0.0,0.0,0.0,0,4.0,7.3974
443863,1622993552423,,,,,,,,0.35,-0.05,-0.84,-12,4,4,0.36,,84,7512,41,27,94,0.746,44.4,546,4.87,13.2,37.3,1,42.7,4.97,16.1,0,0,0,1,0,462,80,-23623,444,,,,,,,,,,,,,,,,
443883,1622993552443,,,,,,,,0.33,-0.04,-0.93,-11,6,6,0.34,,84,7551,41,27,94,0.744,44.9,546,4.95,13.1,38.5,1,42.1,5.01,17.3,0,0,0,1,0,461,250,6193,449,,,,,,,,,,,,,,,,
443903,1622993552463,,,,,,,,0.35,0.01,-1.02,-10,6,7,0.35,,84,7566,41,27,94,0.743,45.4,559,4.95,13.1,38.5,1,41.9,4.99,17.3,0,0,0,1,0,469,250,-16384,454,,,,,,,,,,,,,,,,
443923,1622993552483,,,,,,,,0.39,0.07,-1.01,-9,6,8,0.39,,84,7594,41,27,94,0.741,45.8,561,4.95,13.1,38.5,1,41.5,5.05,17.3,0,0,0,1,0,472,250,3576,458,,,,,,,,,,,,,,,,
443943,1622993552505,6,4,42,41,28,26,2,0.43,0.2,-0.94,-8,5,7,0.48,0,84,7668,41,27,94,0.74,46.1,566,4.95,13.1,38.5,1,40.4,5.11,17.3,0,0,0,1,0,472,250,-9203,461,45.698898,4.909939,45.78,198.4,9,3,1.8,0,0.0,-1,0.0,,0.0,0,4.0,7.399
443963,1622993552525,,,,,,,,0.46,0.19,-0.69,-8,3,5,0.5,,84,7751,41,27,93,0.738,46.0,570,4.93,13.1,38.5,1,39.3,5.16,17.3,0,0,0,1,0,481,250,-899,460,,,,,,,,,,,,,,,,
443983,1622993552545,,,,,,,,0.43,0.18,-0.74,-7,3,5,0.47,,84,7841,41,27,93,0.737,46.1,585,4.95,13.0,40.6,1,38.0,5.27,18.7,0,0,0,1,0,484,250,-899,459,,,,,,,,,,,,,,,,
444003,1622993552565,,,,,,,,0.43,0.2,-0.84,-6,4,7,0.47,,84,7965,41,27,92,0.736,46.5,591,4.88,13.2,40.6,1,36.3,5.38,18.7,0,0,0,1,0,480,250,-6656,465,,,,,,,,,,,,,,,,
444023,1622993552585,,,,,,,,0.42,0.2,-0.62,-5,4,6,0.46,,84,8081,41,27,92,0.736,47.0,590,4.87,13.1,40.6,1,37.5,5.63,18.7,0,0,0,1,0,490,250,505,470,,,,,,,,,,,,,,,,
444043,1622993552605,7,3,43,41,27,25,3,0.4,0.16,-0.74,-4,5,8,0.43,0,84,8296,41,27,91,0.736,47.6,602,4.85,13.1,40.6,1,40.3,5.92,18.7,0,0,0,1,0,488,250,-1562,476,45.698891,4.909926,47.98,198.5,9,3,1.8,0,0.0,-1,0.0,0.0,0.0,0,4.0,7.4007
444063,1622993552625,,,,,,,,0.4,0.04,-0.84,-3,5,6,0.4,,84,8511,41,27,90,0.736,47.2,606,4.81,13.1,40.6,1,43.2,6.09,18.7,0,0,0,1,0,493,250,-1818,472,,,,,,,,,,,,,,,,
444083,1622993552645,,,,,,,,0.36,0.01,-0.92,-3,4,5,0.36,,84,8786,41,27,88,0.736,47.9,630,4.83,13.1,51.1,1,40.8,5.99,24.3,0,0,0,1,0,501,250,2109,479,,,,,,,,,,,,,,,,
444103,1622993552665,,,,,,,,0.34,-0.04,-0.99,-2,4,3,0.35,,84,9066,40,27,87,0.736,47.1,636,4.96,13.1,51.1,1,38.8,5.89,24.3,0,0,0,1,0,505,250,2109,471,,,,,,,,,,,,,,,,
444123,1622993552685,,,,,,,,0.41,-0.03,-1.07,-1,5,4,0.41,,84,9323,40,27,86,0.737,47.8,651,4.88,13.0,51.1,1,38.8,5.62,24.3,0,0,0,1,0,505,250,-28648,478,,,,,,,,,,,,,,,,
444143,1622993552705,9,6,41,43,28,26,0,0.42,0.11,-1.0,-1,3,4,0.43,0,84,9508,40,27,85,0.738,47.7,652,4.9,13.0,51.1,1,38.8,5.64,24.3,0,0,0,1,0,506,250,-28648,477,45.698879,4.909914,49.16,198.5,9,3,1.8,0,0.0,-1,0.0,,0.0,0,4.0,7.4024
444163,1622993552725,,,,,,,,0.4,0.1,-0.89,-0,3,5,0.41,,84,9645,39,27,84,0.741,48.5,647,4.91,13.1,51.1,1,39.0,5.66,24.3,0,0,0,1,0,512,250,-3414,484,,,,,,,,,,,,,,,,
444183,1622993552745,,,,,,,,0.4,0.05,-0.65,-0,1,2,0.4,,84,9816,37,27,83,0.743,48.7,653,4.89,13.1,50.6,1,39.2,5.55,24.8,0,0,0,1,0,515,250,-3414,485,,,,,,,,,,,,,,,,
444203,1622993552765,,,,,,,,0.48,-0.1,-0.76,-0,2,3,0.5,,84,9925,35,27,81,0.746,49.1,661,4.96,13.1,50.6,1,39.6,5.26,24.8,0,0,0,1,0,515,250,-3482,491,,,,,,,,,,,,,,,,
444223,1622993552785,,,,,,,,0.39,-0.18,-0.53,-0,2,3,0.43,,84,10037,32,27,78,0.75,49.9,677,4.93,13.0,50.6,1,39.7,5.07,24.8,0,0,0,1,0,523,250,-22519,499,,,,,,,,,,,,,,,,
444243,1622993552803,9,4,43,43,28,26,-6,0.37,-0.22,-0.32,-0,-1,-0,0.43,0,85,10140,30,27,75,0.76,49.1,670,4.9,13.1,50.6,1,40.1,4.84,24.8,0,0,0,1,0,525,250,1248,491,45.698875,4.909901,50.88,198.5,9,3,1.8,0,0.0,-1,0.0,0.0,0.0,0,4.0,7.404
444263,1622993552823,,,,,,,,0.44,-0.19,-0.46,-1,1,1,0.48,,85,10162,28,27,72,0.77,49.6,673,4.91,13.0,50.6,1,40.2,4.58,24.8,0,0,0,1,0,526,250,14504,496,,,,,,,,,,,,,,,,
444283,1622993552843,,,,,,,,0.48,-0.2,-0.57,-1,1,3,0.52,,85,10157,26,27,69,0.78,50.8,669,4.94,13.1,42.0,1,40.3,4.32,21.2,0,0,0,1,0,527,250,-9212,508,,,,,,,,,,,,,,,,
444303,1622993552863,,,,,,,,0.4,-0.18,-0.64,-2,0,2,0.44,,85,10107,22,27,64,0.79,51.0,665,4.88,13.1,42.0,1,40.8,3.83,21.2,0,0,0,1,0,535,250,2524,510,,,,,,,,,,,,,,,,
444323,1622993552883,,,,,,,,0.44,-0.17,-0.75,-2,0,3,0.48,,85,9952,20,27,59,0.793,51.2,655,4.92,13.1,42.0,1,40.7,3.67,21.2,0,0,0,1,0,535,250,-32248,519,,,,,,,,,,,,,,,,
444343,1622993552905,10,8,44,40,27,28,-8,0.42,-0.2,-0.72,-3,0,4,0.46,0,85,9801,17,27,55,0.795,51.3,655,4.91,13.1,42.0,1,40.1,3.48,21.2,0,0,0,1,0,541,250,6274,513,45.698864,4.909888,52.3,198.5,9,3,1.8,0,0.0,-1,0.0,,0.0,0,4.01,7.4057
444363,1622993552925,,,,,,,,0.52,-0.29,-0.83,-3,-0,4,0.59,,85,9508,14,27,51,0.798,52.0,665,4.87,13.1,42.0,1,39.1,3.27,21.2,0,0,0,1,0,537,250,-30064,520,,,,,,,,,,,,,,,,
444383,1622993552945,,,,,,,,0.53,-0.19,-0.92,-4,-1,5,0.56,,85,9057,10,27,48,0.801,51.6,655,4.92,13.1,27.7,1,37.5,3.0,14.2,0,0,0,1,0,538,250,-2336,516,,,,,,,,,,,,,,,,
444403,1622993552965,,,,,,,,0.45,-0.22,-0.69,-4,-1,2,0.5,,85,8542,4,27,43,0.797,51.9,649,4.88,13.1,27.7,1,34.5,2.8,14.2,0,0,0,1,0,537,250,-28648,519,,,,,,,,,,,,,,,,
444423,1622993552985,,,,,,,,0.33,-0.21,-0.8,-5,1,4,0.39,,85,8036,4,27,39,0.792,51.9,626,4.87,13.2,27.7,1,31.0,1.21,14.2,0,0,0,1,0,534,250,6274,521,,,,,,,,,,,,,,,,
444443,1622993552997,24,17,40,34,29,31,-6,0.2,-0.25,-0.9,-5,4,5,0.32,0,85,7628,4,27,37,0.787,52.1,606,4.97,13.2,27.7,1,30.4,2.17,14.2,0,0,0,1,0,525,250,2524,521,45.698856,4.909874,53.47,198.5,9,3,1.8,0,0.0,-1,0.0,0.0,0.0,0,4.01,7.4074
444463,1622993553017,,,,,,,,0.06,-0.29,-0.99,-6,6,5,0.29,,85,7396,4,27,35,0.783,50.9,593,4.96,13.2,27.7,1,29.8,2.06,14.2,0,0,0,1,0,505,250,-8187,509,,,,,,,,,,,,,,,,
444483,1622993553037,,,,,,,,-0.04,-0.33,-0.74,-7,4,3,0.33,,85,7211,4,27,33,0.773,50.4,585,4.95,13.2,13.5,1,29.2,2.01,6.9,0,0,0,1,0,495,250,-21872,505,,,,,,,,,,,,,,,,
444503,1622993553057,,,,,,,,-0.13,-0.28,-0.84,-7,6,4,0.31,,85,7014,4,27,32,0.761,50.4,561,4.9,13.2,13.5,1,29.0,1.96,6.9,0,0,0,1,0,484,250,-32768,499,,,,,,,,,,,,,,,,
444523,1622993553077,,,,,,,,-0.23,-0.22,-0.94,-8,7,4,0.32,,85,6860,4,27,31,0.75,49.4,544,4.98,13.1,13.5,1,28.5,1.99,6.9,0,0,0,1,0,455,250,10305,494,,,,,,,,,,,,,,,,
444543,1622993553105,43,29,29,26,37,38,-7,-0.27,-0.21,-0.69,-9,6,2,0.34,0,85,6833,4,27,30,0.739,48.6,533,4.97,13.3,13.5,1,28.0,2.01,6.9,0,0,0,1,0,420,250,31796,490,45.698845,4.90986,53.49,198.5,9,3,1.8,0,0.0,-1,0.0,,0.0,0,4.01,7.409
444563,1622993553125,,,,,,,,-0.37,-0.28,-0.8,-10,7,4,0.47,,85,6768,4,27,30,0.736,48.4,530,4.97,13.2,13.5,1,28.0,2.01,6.9,0,0,0,1,0,425,250,17144,481,,,,,,,,,,,,,,,,
444583,1622993553145,,,,,,,,-0.41,-0.25,-0.7,-11,8,4,0.48,,85,6574,4,27,29,0.737,48.3,519,4.93,13.2,12.8,1,27.7,2.03,6.2,0,0,0,1,0,392,250,-26615,483,,,,,,,,,,,,,,,,
444603,1622993553165,,,,,,,,-0.42,-0.29,-0.48,-12,4,1,0.51,,85,6405,4,27,29,0.738,47.6,501,4.97,13.2,12.8,1,27.7,2.03,6.2,0,0,0,1,0,389,250,20625,476,,,,,,,,,,,,,,,,
444623,1622993553185,,,,,,,,-0.45,-0.31,-0.33,-13,2,-1,0.55,,85,6254,4,27,29,0.737,46.5,497,4.9,13.1,12.8,1,27.7,0.88,6.2,0,0,0,1,0,420,250,2524,467,,,,,,,,,,,,,,,,
444643,1622993553205,18,10,25,18,37,40,-5,-0.49,-0.39,-0.47,-14,2,-1,0.63,0,85,6202,4,27,28,0.747,46.5,497,4.92,13.1,12.8,1,27.5,2.05,6.2,0,0,0,1,0,395,250,21580,463,45.698837,4.909846,51.43,198.6,9,3,1.8,0,0.0,-1,0.0,0.0,0.0,0,4.01,7.4107
444663,1622993553225,,,,,,,,-0.59,-0.39,-0.6,-14,4,2,0.71,,85,6220,4,27,28,0.762,46.4,496,4.9,13.1,12.8,1,27.5,2.05,6.2,0,0,0,1,0,375,250,10305,464,,,,,,,,,,,,,,,,
444683,1622993553245,,,,,,,,-0.63,-0.35,-0.72,-15,5,4,0.72,,85,6202,4,27,28,0.777,45.7,488,4.86,13.2,12.9,1,27.5,2.05,5.9,0,0,0,1,0,374,250,1779,457,,,,,,,,,,,,,,,,
444703,1622993553265,,,,,,,,-0.67,-0.3,-0.82,-15,6,7,0.74,,85,6210,4,27,28,0.793,45.2,494,4.86,13.3,12.9,1,27.5,2.05,5.9,0,0,0,1,0,392,250,-18341,454,,,,,,,,,,,,,,,,
444723,1622993553285,,,,,,,,-0.62,-0.31,-0.59,-15,4,6,0.69,,85,6169,4,27,28,0.813,44.7,494,4.97,13.3,12.9,1,27.5,2.05,5.9,0,0,0,1,0,418,250,20625,444,,,,,,,,,,,,,,,,
444743,1622993553305,12,7,28,21,35,39,-3,-0.54,-0.33,-0.37,-14,-1,2,0.63,0,85,6175,4,27,27,0.835,43.3,483,4.94,13.3,12.9,1,27.3,2.07,5.9,0,0,0,1,0,420,250,3635,433,45.69883,4.909833,48.55,198.6,9,3,1.8,0,0.0,-1,0.0,,0.0,0,4.01,7.4124
444763,1622993553325,,,,,,,,-0.47,-0.34,-0.17,-14,-5,-1,0.58,,85,6163,4,27,27,0.857,43.4,493,4.96,13.2,12.9,1,27.3,2.07,5.9,0,0,0,1,0,418,250,3826,433,,,,,,,,,,,,,,,,
444783,1622993553345,,,,,,,,-0.41,-0.35,0.01,-13,-7,-4,0.54,,85,6157,4,27,27,0.879,42.7,487,4.95,13.2,13.3,1,27.3,2.07,5.8,0,0,0,1,0,412,250,-8165,427,,,,,,,,,,,,,,,,
444803,1622993553365,,,,,,,,-0.45,-0.35,-0.01,-13,-7,-4,0.57,,85,6171,4,26,27,0.902,42.7,497,4.89,13.1,13.3,1,27.3,2.07,5.8,0,0,0,1,0,414,250,-3414,429,,,,,,,,,,,,,,,,
444823,1622993553385,,,,,,,,-0.5,-0.33,-0.18,-12,-5,-3,0.59,,85,6129,4,26,27,0.923,42.2,496,4.83,13.1,13.3,1,27.3,2.07,5.8,0,0,0,1,0,419,250,-4059,422,,,,,,,,,,,,,,,,
444843,1622993553404,2,3,27,27,34,35,2,-0.56,-0.27,-0.33,-11,-1,0,0.62,0,85,6171,4,26,27,0.943,42.0,493,4.88,13.1,13.3,1,27.3,2.07,5.8,0,0,0,1,0,417,250,-9166,420,45.698822,4.90982,46.32,198.7,9,3,1.8,0,0.0,-1,0.0,0.0,0.0,0,4.01,7.4141
444863,1622993553424,,,,,,,,-0.65,-0.17,-0.47,-10,3,4,0.67,,85,6149,4,26,27,0.965,41.8,492,4.88,13.1,13.3,1,27.3,2.07,5.8,0,0,0,1,0,412,250,2524,418,,,,,,,,,,,,,,,,
444883,1622993553444,,,,,,,,-0.65,-0.09,-0.6,-9,6,6,0.65,,85,6175,4,26,27,0.984,41.7,489,4.88,13.2,14.0,1,27.3,2.07,5.9,0,0,0,1,0,408,250,-8151,415,,,,,,,,,,,,,,,,
444903,1622993553464,,,,,,,,-0.6,-0.03,-0.5,-8,6,6,0.6,,85,6167,5,26,27,0.994,41.3,478,4.99,13.3,14.0,1,27.3,2.07,5.9,0,0,0,1,0,412,250,10541,413,,,,,,,,,,,,,,,,
444923,1622993553484,,,,,,,,-0.51,-0.02,-0.29,-7,3,4,0.51,,85,6175,5,26,27,1.002,41.1,486,5.0,13.3,14.0,1,27.3,2.07,5.9,0,0,0,1,0,404,250,-8151,411,,,,,,,,,,,,,,,,
444943,1622993553504,2,2,30,30,36,33,4,-0.42,-0.08,-0.1,-7,-0,1,0.43,0,85,6188,5,26,27,1.011,40.7,486,4.96,13.3,14.0,1,27.3,2.07,5.9,0,0,0,1,0,401,250,11545,407,45.698818,4.909807,44.23,198.7,9,3,1.8,0,0.0,-1,0.0,,0.0,0,4.01,7.4157
444963,1622993553524,,,,,,,,-0.36,-0.18,0.07,-6,-2,-2,0.4,,85,6179,5,26,27,1.018,40.2,486,5.01,13.2,14.0,1,27.3,0.92,5.9,0,0,0,1,0,400,250,505,402,,,,,,,,,,,,,,,,
444983,1622993553544,,,,,,,,-0.37,-0.23,-0.1,-6,-1,-2,0.43,,85,6184,5,26,27,1.019,40.4,491,4.89,13.1,14.4,1,27.3,2.07,5.9,0,0,0,1,0,402,250,-3968,404,,,,,,,,,,,,,,,,
445003,1622993553564,,,,,,,,-0.44,-0.17,-0.26,-5,1,1,0.48,,85,6179,5,26,27,1.021,40.4,495,4.84,13.1,14.4,1,27.3,2.07,5.9,0,0,0,1,0,398,250,-3968,404,,,,,,,,,,,,,,,,
445023,1622993553584,,,,,,,,-0.51,-0.11,-0.4,-4,4,5,0.52,,85,6198,5,26,27,1.024,40.1,500,4.89,13.1,14.4,1,27.3,2.07,5.9,0,0,0,1,0,399,250,17144,401,,,,,,,,,,,,,,,,
445043,1622993553600,3,2,31,24,37,32,0,-0.5,-0.02,-0.53,-4,6,6,0.5,0,85,6192,6,26,27,1.025,39.9,495,4.9,13.3,14.4,1,27.3,2.07,5.9,0,0,0,1,0,393,250,505,399,45.698811,4.909795,42.38,198.7,9,3,1.8,0,0.0,-1,0.0,0.0,0.0,0,4.02,7.4174
445063,1622993553620,,,,,,,,-0.47,0.07,-0.38,-4,4,6,0.47,,85,6202,6,26,28,1.021,39.7,486,4.92,13.2,14.4,1,27.5,2.05,5.9,0,0,0,1,0,391,250,-6524,397,,,,,,,,,,,,,,,,
445083,1622993553640,,,,,,,,-0.42,0.07,-0.18,-4,1,4,0.42,,85,6186,6,26,28,1.016,39.8,480,4.96,13.3,14.6,1,27.5,2.05,5.8,0,0,0,1,0,388,250,1,398,,,,,,,,,,,,,,,,
445103,1622993553660,,,,,,,,-0.41,-0.05,-0.22,-4,-3,1,0.41,,85,6190,7,26,29,1.01,39.4,485,4.97,13.3,14.6,1,27.8,2.03,5.8,0,0,0,1,0,387,250,1,394,,,,,,,,,,,,,,,,
445123,1622993553680,,,,,,,,-0.45,-0.06,-0.37,-5,-5,-1,0.46,,85,6192,8,26,29,1.004,39.4,503,4.95,13.1,14.6,1,27.8,2.03,5.8,0,0,0,1,0,386,250,1,395,,,,,,,,,,,,,,,,
445143,1622993553704,3,1,32,27,34,31,-2,-0.52,-0.02,-0.5,-5,-4,-1,0.52,0,85,6161,9,26,30,0.998,39.4,497,4.93,13.1,14.6,1,27.9,0.86,5.8,0,0,0,1,0,386,250,-6524,394,45.698803,4.909783,41.51,198.7,9,3,1.8,0,0.0,-1,0.0,,0.0,0,4.02,7.4191
445163,1622993553724,,,,,,,,-0.56,0.05,-0.63,-5,-1,1,0.56,,85,6107,9,26,31,0.993,39.2,488,4.86,13.1,14.6,1,28.1,1.99,5.8,0,0,0,1,0,385,250,-31744,392,,,,,,,,,,,,,,,,
445183,1622993553744,,,,,,,,-0.59,0.08,-0.74,-5,1,3,0.6,,85,6054,9,26,33,0.989,39.1,481,4.92,13.1,14.3,1,28.6,2.01,5.6,0,0,0,1,0,383,250,-3866,391,,,,,,,,,,,,,,,,
445203,1622993553764,,,,,,,,-0.62,0.12,-0.85,-5,4,5,0.64,,85,6000,9,26,34,0.985,39.1,481,4.9,13.1,14.3,1,28.8,2.06,5.6,0,0,0,1,0,382,250,-19126,391,,,,,,,,,,,,,,,,
445223,1622993553784,,,,,,,,-0.67,0.15,-0.94,-5,6,7,0.69,,85,5978,9,26,35,0.982,38.7,486,4.85,13.1,14.3,1,28.9,2.12,5.6,0,0,0,1,0,379,250,2278,386,,,,,,,,,,,,,,,,
445243,1622993553804,3,2,31,28,33,31,-3,-0.72,0.21,-1.03,-5,8,8,0.75,0,85,5990,10,26,36,0.978,38.1,486,4.89,13.1,14.3,1,29.1,2.17,5.6,0,0,0,1,0,377,250,742,381,45.698799,4.909771,40.46,198.7,9,3,1.8,0,0.0,-1,0.0,0.0,0.0,0,4.02,7.4207
445263,1622993553824,,,,,,,,-0.76,0.24,-1.11,-5,10,9,0.8,,85,6007,10,26,37,0.974,38.3,482,4.86,13.1,14.3,1,29.4,2.21,5.6,0,0,0,1,0,375,250,3,383,,,,,,,,,,,,,,,,
445283,1622993553844,,,,,,,,-0.75,0.32,-1.18,-5,12,11,0.82,,85,6050,10,26,38,0.97,38.0,483,4.9,13.2,16.4,1,29.6,2.26,6.3,0,0,0,1,0,376,250,742,380,,,,,,,,,,,,,,,,
445303,1622993553864,,,,,,,,-0.76,0.35,-1.25,-5,14,13,0.84,,85,6021,10,26,39,0.968,38.0,487,4.9,13.1,16.4,1,29.8,2.32,6.3,0,0,0,1,0,375,250,742,380,,,,,,,,,,,,,,,,
445323,1622993553884,,,,,,,,-0.75,0.36,-1.31,-6,15,14,0.83,,86,5965,10,26,40,0.966,37.9,487,4.9,12.4,16.4,1,29.8,2.34,6.3,0,0,1,1,0,374,250,770,379,,,,,,,,,,,,,,,,
445343,1622993553904,2,1,32,29,33,32,-7,-0.78,0.32,-1.37,-6,15,14,0.85,0,86,5916,10,26,41,0.965,37.8,480,4.88,12.5,16.4,1,29.8,2.36,6.3,0,0,1,1,0,372,250,770,378,45.698792,4.90976,39.62,198.8,9,3,1.8,0,0.0,-1,0.0,,0.0,0,4.02,7.4224
445363,1622993553924,,,,,,,,-0.78,0.27,-1.42,-6,14,13,0.82,,86,5888,10,26,41,0.965,38.0,473,4.89,12.5,16.4,1,29.8,2.37,6.3,0,0,1,1,0,372,250,770,380,,,,,,,,,,,,,,,,
445383,1622993553944,,,,,,,,-0.74,0.2,-1.47,-7,11,9,0.77,,86,5863,10,26,42,0.966,37.8,470,4.89,12.5,16.8,1,29.9,2.39,6.4,0,0,1,1,0,369,250,770,372,,,,,,,,,,,,,,,,
445403,1622993553964,,,,,,,,-0.7,0.11,-1.47,-8,7,6,0.71,,86,5855,10,26,43,0.966,37.2,475,4.97,12.6,16.8,1,30.1,2.39,6.4,0,0,1,1,0,367,250,1,372,,,,,,,,,,,,,,,,
445423,1622993553984,,,,,,,,-0.6,0.05,-1.18,-8,2,2,0.61,,86,5821,10,26,44,0.966,37.6,474,4.94,12.6,16.8,1,30.3,2.41,6.4,0,0,1,1,0,367,250,742,376,,,,,,,,,,,,,,,,
445443,1622993553996,2,2,32,27,33,32,-10,-0.49,-0.02,-0.91,-9,-0,1,0.49,0,86,5781,11,26,45,0.965,37.2,450,4.98,12.8,16.8,1,30.4,2.44,6.4,0,0,1,1,0,366,250,486,372,45.698784,4.909749,39.14,198.8,9,3,1.8,0,0.0,-1,0.0,0.0,0.0,0,4.02,7.424
445463,1622993554016,,,,,,,,-0.44,-0.09,-0.67,-9,1,3,0.45,,86,5808,14,26,47,0.966,37.5,448,4.97,12.8,16.8,1,30.8,2.44,6.4,0,0,1,1,0,364,250,-6656,375,,,,,,,,,,,,,,,,
445483,1622993554036,,,,,,,,-0.43,-0.09,-0.77,-9,3,5,0.44,,86,5801,16,26,49,0.969,37.7,457,4.9,12.7,17.2,1,31.2,2.44,6.5,0,0,1,1,0,362,250,-6656,377,,,,,,,,,,,,,,,,
445503,1622993554056,,,,,,,,-0.43,-0.06,-0.87,-9,5,8,0.44,,86,5927,20,26,54,0.972,37.1,462,4.97,12.8,17.2,1,32.5,2.56,6.5,0,0,1,1,0,362,250,230,371,,,,,,,,,,,,,,,,
445523,1622993554076,,,,,,,,-0.43,-0.02,-0.89,-10,7,11,0.43,,86,6042,22,26,59,0.975,37.0,467,4.88,12.6,17.2,1,33.7,2.45,6.5,0,0,1,1,0,361,250,486,370,,,,,,,,,,,,,,,,
445543,1622993554104,3,2,32,30,31,33,-13,-0.38,-0.04,-0.69,-10,8,12,0.38,0,86,6149,24,26,64,0.976,36.8,470,4.87,12.7,17.2,1,35.3,3.07,6.5,0,0,1,1,0,359,250,257,368,45.698776,4.909737,38.24,198.8,9,3,1.8,0,0.0,-1,0.0,,0.0,0,4.02,7.4257
445563,1622993554124,,,,,,,,-0.31,-0.13,-0.47,-11,5,11,0.34,,86,6229,24,26,69,0.975,37.1,476,4.91,12.8,17.2,1,36.8,2.36,6.5,0,0,1,1,0,359,250,257,371,,,,,,,,,,,,,,,,
445583,1622993554144,,,,,,,,-0.28,-0.23,-0.36,-12,2,8,0.36,,86,6294,25,26,72,0.974,36.8,477,5.0,12.8,30.9,1,37.8,4.2,11.5,0,0,1,1,0,359,250,257,368,,,,,,,,,,,,,,,,
445603,1622993554164,,,,,,,,-0.3,-0.23,-0.49,-12,3,8,0.37,,86,6496,26,26,75,0.974,37.0,488,4.89,12.6,30.9,1,39.6,2.81,11.5,0,0,1,1,0,356,250,0,370,,,,,,,,,,,,,,,,
445623,1622993554184,,,,,,,,-0.19,-0.27,-0.29,-13,2,6,0.33,,86,6730,28,26,77,0.968,37.0,510,4.87,12.8,30.9,1,41.7,4.33,11.5,0,0,1,1,0,357,250,486,372,,,,,,,,,,,,,,,,
445643,1622993554204,1,2,34,30,29,30,-17,-0.13,-0.16,-0.43,-14,3,7,0.21,0,86,6863,30,26,80,0.957,36.9,517,4.87,12.7,30.9,1,43.5,4.27,11.5,0,0,1,1,0,371,250,-992,373,45.698776,4.909726,37.97,198.8,9,3,1.8,0,0.0,-1,0.0,0.0,0.0,0,4.02,7.4274
445663,1622993554224,,,,,,,,-0.08,-0.16,-0.23,-14,-0,4,0.18,,86,6803,30,26,83,0.948,37.7,509,4.92,12.8,30.9,1,44.1,2.93,11.5,0,0,1,1,0,388,250,-6524,378,,,,,,,,,,,,,,,,
445683,1622993554244,,,,,,,,-0.09,-0.21,-0.37,-14,2,7,0.23,,86,6698,30,26,84,0.938,37.8,507,4.88,12.7,35.7,1,43.8,4.32,13.5,0,0,1,1,0,383,250,-3866,378,,,,,,,,,,,,,,,,
445703,1622993554264,,,,,,,,0.03,-0.24,-0.18,-15,1,6,0.24,,86,6567,30,26,85,0.934,37.7,488,4.93,12.8,35.7,1,43.2,3.16,13.5,0,0,1,1,0,394,250,-32702,377,,,,,,,,,,,,,,,,
445723,1622993554284,,,,,,,,0.02,-0.32,-0.28,-15,-1,3,0.32,,86,6505,30,26,86,0.932,38.6,487,4.95,12.8,35.7,1,43.1,4.43,13.5,0,0,1,1,0,397,250,-1818,386,,,,,,,,,,,,,,,,
445743,1622993554304,-0,2,42,37,25,29,-24,0.0,-0.3,-0.43,-16,1,5,0.3,0,86,6438,28,27,86,0.931,38.3,496,4.89,12.7,35.7,1,42.6,4.44,13.5,0,0,1,1,0,395,250,6384,383,45.698769,4.909714,38.38,198.8,9,3,1.8,0,0.0,-1,0.0,,0.0,0,4.02,7.429
445763,1622993554324,,,,,,,,0.05,-0.25,-0.25,-16,1,6,0.26,,86,6360,28,27,86,0.93,39.1,486,4.87,12.8,35.7,1,41.9,4.48,13.5,0,0,1,1,0,401,250,11545,393,,,,,,,,,,,,,,,,
445783,1622993554344,,,,,,,,0.15,-0.39,-0.06,-17,-1,3,0.42,,86,6353,27,27,85,0.93,39.3,467,4.97,12.8,33.0,1,41.5,4.43,13.0,0,0,1,1,0,404,250,10541,393,,,,,,,,,,,,,,,,
445803,1622993554364,,,,,,,,0.15,-0.5,-0.2,-18,-3,1,0.53,,86,6366,27,27,85,0.935,40.2,477,4.91,12.8,33.0,1,41.6,4.42,13.0,0,0,1,1,0,401,250,10392,402,,,,,,,,,,,,,,,,
445823,1622993554384,,,,,,,,0.09,-0.48,-0.35,-18,-2,2,0.49,,86,6368,27,27,85,0.941,40.5,483,4.91,12.8,33.0,1,41.6,4.42,13.0,0,0,1,1,0,408,250,9517,401,,,,,,,,,,,,,,,,
445843,1622993554403,1,2,44,38,25,29,-26,0.14,-0.46,-0.16,-19,-1,3,0.48,0,86,6465,27,27,84,0.948,40.2,475,4.96,13.0,33.0,1,42.0,4.3,13.0,0,0,1,1,0,409,250,2524,402,45.698761,4.909701,40.35,198.8,9,3,1.8,0,0.0,-1,0.0,0.0,0.0,0,4.02,7.4307
445863,1622993554423,,,,,,,,0.11,-0.55,-0.31,-20,-2,1,0.56,,86,6599,27,27,84,0.954,40.9,480,4.97,12.9,33.0,1,43.0,3.09,13.0,0,0,1,1,0,418,250,2524,409,,,,,,,,,,,,,,,,
445883,1622993554443,,,,,,,,0.17,-0.52,-0.15,-21,-2,2,0.54,,86,6761,27,27,84,0.973,40.8,506,4.83,12.7,31.3,1,44.3,4.14,12.9,0,0,1,1,0,418,250,-3414,415,,,,,,,,,,,,,,,,
445903,1622993554463,,,,,,,,0.12,-0.55,-0.31,-22,-3,1,0.56,,86,6830,27,27,85,0.992,41.7,514,4.93,12.8,31.3,1,45.5,4.16,12.9,0,0,1,1,0,431,250,-3856,417,,,,,,,,,,,,,,,,
445923,1622993554483,,,,,,,,0.16,-0.57,-0.12,-22,-3,1,0.59,,86,6880,27,27,85,1.011,42.0,528,4.87,12.8,31.3,1,45.8,4.12,12.9,0,0,1,1,0,444,250,-3314,423,,,,,,,,,,,,,,,,
445943,1622993554503,2,1,46,36,24,29,-28,0.1,-0.63,-0.27,-23,-1,2,0.64,0,86,6885,25,27,85,1.028,42.4,514,4.94,12.8,31.3,1,45.8,4.12,12.9,0,0,1,1,0,418,250,1779,424,45.698757,4.909688,41.69,198.9,9,3,1.8,0,0.0,-1,0.0,,0.0,0,4.03,7.4324
445963,1622993554523,,,,,,,,0.12,-0.63,-0.08,-24,-3,-0,0.64,,86,6803,20,27,83,1.033,42.2,508,4.98,12.9,31.3,1,44.1,2.93,12.9,0,0,1,1,0,434,250,-3322,423,,,,,,,,,,,,,,,,
445983,1622993554543,,,,,,,,0.09,-0.58,-0.24,-25,-1,1,0.59,,86,6786,18,27,80,1.037,43.1,513,4.9,12.8,30.2,1,43.0,4.05,12.8,0,0,1,1,0,427,250,5600,431,,,,,,,,,,,,,,,,
446003,1622993554563,,,,,,,,0.09,-0.64,-0.06,-26,-3,-1,0.65,,86,6843,17,27,78,1.041,43.2,508,4.96,12.9,30.2,1,42.7,2.82,12.8,0,0,1,1,0,436,250,5600,435,,,,,,,,,,,,,,,,
446023,1622993554583,,,,,,,,0.13,-0.63,-0.22,-27,-2,1,0.64,,86,6949,17,27,76,1.044,43.6,525,4.85,12.9,30.2,1,42.7,3.82,12.8,0,0,1,1,0,439,250,21580,436,,,,,,,,,,,,,,,,
446043,1622993554603,2,2,43,34,23,30,-27,0.09,-0.6,-0.37,-28,-1,1,0.61,0,86,7009,17,27,74,1.045,44.2,532,4.91,12.8,30.2,1,42.5,3.79,12.8,0,0,1,1,0,442,250,26704,442,45.698757,4.909674,42.92,198.9,9,3,1.8,0,0.0,-1,0.0,0.0,0.0,0,4.03,7.4341
446063,1622993554623,,,,,,,,0.08,-0.71,-0.19,-29,-4,-0,0.71,,86,6998,17,27,73,1.047,43.5,532,4.94,13.0,30.2,1,42.1,2.59,12.8,0,0,1,1,0,465,250,-18341,435,,,,,,,,,,,,,,,,
446083,1622993554643,,,,,,,,0.12,-0.71,-0.01,-30,-4,-1,0.72,,86,7088,17,27,72,1.046,44.0,540,4.86,12.9,27.3,1,41.6,3.71,12.1,0,0,1,1,0,486,250,2131,440,,,,,,,,,,,,,,,,
446103,1622993554663,,,,,,,,0.16,-0.67,-0.18,-31,-4,-0,0.69,,86,7233,17,27,71,1.047,44.1,553,4.91,12.8,27.3,1,40.9,3.69,12.1,0,0,1,1,0,423,250,8488,439,,,,,,,,,,,,,,,,
446123,1622993554683,,,,,,,,0.14,-0.58,-0.33,-31,-3,1,0.6,,86,7231,17,27,69,1.042,44.3,542,4.95,12.9,27.3,1,40.4,3.57,12.1,0,0,1,1,0,445,250,10305,443,,,,,,,,,,,,,,,,
446143,1622993554705,2,1,42,35,23,33,-26,0.12,-0.69,-0.42,-32,-3,-1,0.7,0,86,7231,17,27,69,1.035,44.5,547,4.91,12.9,27.3,1,40.4,3.52,12.1,0,0,1,1,0,465,250,8488,445,45.69875,4.909659,44.06,198.9,9,3,1.8,0,0.0,-1,0.0,,0.0,0,4.03,7.4357
446163,1622993554725,,,,,,,,0.11,-0.69,-0.32,-32,-3,-3,0.7,,86,7189,17,27,68,1.029,44.6,553,4.91,13.0,27.3,1,40.3,3.52,12.1,0,0,1,1,0,449,250,-8985,446,,,,,,,,,,,,,,,,
446183,1622993554745,,,,,,,,0.16,-0.64,-0.13,-33,-3,-3,0.66,,86,7167,17,27,67,1.022,45.0,557,4.85,12.8,26.2,1,40.0,3.37,11.7,0,0,1,1,0,436,250,2524,450,,,,,,,,,,,,,,,,
446203,1622993554765,,,,,,,,0.18,-0.6,-0.28,-33,-2,-0,0.63,,86,7091,17,27,67,1.01,45.1,538,4.92,12.8,26.2,1,40.1,3.37,11.7,0,0,1,1,0,471,250,14488,451,,,,,,,,,,,,,,,,
446223,1622993554785,,,,,,,,0.13,-0.6,-0.42,-34,-1,-1,0.61,,86,7115,17,27,67,1.0,45.5,531,4.94,12.9,26.2,1,40.1,3.37,11.7,0,0,1,1,0,449,250,-18108,455,,,,,,,,,,,,,,,,
446243,1622993554805,2,1,42,33,25,32,-24,0.13,-0.7,-0.22,-34,-3,-3,0.71,0,86,7153,17,27,66,0.988,45.3,543,4.93,13.0,26.2,1,39.8,3.23,11.7,0,0,1,1,0,444,250,17628,453,45.698746,4.909644,44.97,198.9,9,3,1.8,0,0.0,-1,0.0,0.0,0.0,0,4.03,7.4374
446263,1622993554825,,,,,,,,0.17,-0.7,-0.16,-34,-3,-3,0.72,,86,7164,17,27,66,0.978,45.1,550,4.87,12.8,26.2,1,39.8,3.23,11.7,0,0,1,1,0,454,250,17628,451,,,,,,,,,,,,,,,,
446283,1622993554845,,,,,,,,0.21,-0.61,-0.23,-34,-3,-2,0.64,,86,7217,17,27,66,0.961,45.5,549,4.9,12.8,23.5,1,39.6,3.24,10.7,0,0,1,1,0,469,250,-9160,455,,,,,,,,,,,,,,,,
446303,1622993554865,,,,,,,,0.22,-0.55,-0.34,-34,-2,-1,0.6,,86,7281,17,27,65,0.943,45.7,557,4.96,12.8,23.5,1,39.2,3.11,10.7,0,0,1,1,0,444,250,14488,457,,,,,,,,,,,,,,,,
446323,1622993554885,,,,,,,,0.18,-0.59,-0.48,-33,0,-0,0.62,,86,7309,17,27,65,0.925,45.1,550,4.92,12.9,23.5,1,39.2,3.11,10.7,0,0,1,1,0,452,250,-9160,453,,,,,,,,,,,,,,,,
446343,1622993554905,2,2,42,35,25,33,-19,0.09,-0.66,-0.57,-33,1,-1,0.67,0,86,7304,17,27,65,0.906,44.9,557,4.98,13.0,23.5,1,39.2,3.11,10.7,0,0,1,1,0,466,250,17628,449,45.698746,4.909628,45.89,199.0,9,3,1.8,0,0.0,-1,0.0,,0.0,0,4.03,7.4391
446363,1622993554925,,,,,,,,0.08,-0.68,-0.66,-33,1,-1,0.68,,86,7335,17,27,65,0.891,45.7,563,4.95,13.0,23.5,1,39.1,1.96,10.7,0,0,1,1,0,462,250,17628,457,,,,,,,,,,,,,,,,
446383,1622993554945,,,,,,,,0.06,-0.72,-0.55,-33,-1,-2,0.73,,86,7381,17,27,64,0.879,45.8,558,4.94,13.0,23.2,1,38.8,2.97,10.6,0,0,1,1,0,450,250,-23623,453,,,,,,,,,,,,,,,,
446403,1622993554965,,,,,,,,0.08,-0.75,-0.51,-32,-1,-3,0.75,,86,7335,17,27,64,0.867,46.0,561,4.93,13.0,23.2,1,38.8,3.11,10.6,0,0,1,1,0,469,250,16408,462,,,,,,,,,,,,,,,,
446423,1622993554985,,,,,,,,0.14,-0.71,-0.3,-32,-3,-4,0.72,,86,7295,17,27,64,0.854,45.8,570,4.9,12.8,23.2,1,38.9,3.11,10.6,0,0,1,1,0,475,250,30272,458,,,,,,,,,,,,,,,,
446443,1622993554997,1,2,44,36,26,32,-23,0.18,-0.65,-0.34,-31,-3,-3,0.68,0,86,7287,18,27,64,0.845,46.3,570,4.86,12.8,23.2,1,39.0,2.97,10.6,0,0,1,1,0,460,250,-16384,463,45.698742,4.909612,46.25,199.0,9,3,1.8,0,0.0,-1,0.0,0.0,0.0,0,4.03,7.4407
446463,1622993555017,,,,,,,,0.18,-0.6,-0.48,-31,-1,-2,0.63,,86,7292,17,27,64,0.841,45.6,561,4.9,12.8,23.2,1,38.9,2.97,10.6,0,0,1,1,0,455,250,243,456,,,,,,,,,,,,,,,,
