"Interval"|"ms"|0|0|1,"Utc"|"ms"|0|0|1,"Brake_F"|"Bar"|0|2000|10,"Brake_R"|"Bar"|0|2000|10,"Height_RF"|"mm"|0|255|10,"Height_LF"|"mm"|0|255|10,"Height_LR"|"mm"|0|80|10,"Height_RR"|"mm"|0|255|10,"Steering"|"deg"|-100|100|10,"AccelX"|"G"|-3.0|3.0|50,"AccelY"|"G"|-3.0|3.0|50,"AccelZ"|"G"|-3.0|3.0|50,"Yaw"|"Deg/Sec"|-120|120|50,"Pitch"|"Deg/Sec"|-120|120|50,"Roll"|"Deg/Sec"|-120|120|50,"Gsum"|"G"|0.0|3.0|50,"Log_Button"|""|0.0|10.0|10,"WaterTemp"|"C"|0|150|50,"RPM"|"tr/min"|0|14000|50,"TPS"|"%"|0|100|50,"AirTemp"|"C"|0|150|50,"MAP"|"KPa"|0|100|50,"Lambda"|""|0.5|1.5|50,"SpeedDTA"|"kph"|0.0|250.0|50,"OilPress"|"KPa"|0|1500|50,"FuelPressur"|"Bar"|0.0|10.0|50,"Batterie"|"V"|0.0|20.0|50,"ConsoKm"|"L/100km"|0.0|200.0|50,"Gear"|""|0|6|50,"AdvIgnition"|"Deg"|-20.0|70.0|50,"Injection"|"ms"|0.0|10.0|50,"ConsoHr"|"L/Hr"|0.0|10000.0|50,"LC_But_Pres"|""|0|1|50,"LC_Active"|""|0|1|50,"TractionOn"|""|0|1|50,"TractionWet"|""|0|1|50,"FanOn"|""|0|1|50,"RD_Speed"|"km/h"|-30|250|50,"RUD_Speed"|"km/h"|-30|250|50,"LD_Speed"|"km/h"|-30|250|50,"LUD_Speed"|"km/h"|-30|250|50,"Latitude"|"Degrees"|-180.0|180.0|10,"Longitude"|"Degrees"|-180.0|180.0|10,"Speed"|"kph"|0.0|150.0|10,"Altitude"|"m"|0.0|4000.0|10,"GPSSats"|""|0|20|10,"GPSQual"|""|0|5|10,"GPSDOP"|""|0.0|20.0|10,"LapCount"|""|0|0|10,"LapTime"|"Min"|0.0|0.0|10,"Sector"|""|0|0|10,"SectorTime"|"Min"|0.0|0.0|10,"PredTime"|"Min"|0.0|0.0|5,"ElapsedTime"|"Min"|0.0|0.0|10,"CurrentLap"|""|0|0|10,"Distance"|"km"|0.0|0.0|10,"SessionTime"|"Min"|0.0|0.0|10
367763,1622993476325,,,,,,,,0.36,-0.76,-0.32,-23,-2,3,0.84,,83,9393,40,27,83,0.922,56.9,656,4.9,13.2,43.6,1,38.8,5.35,24.3,0,0,0,1,0,595,-1281,17344,574,,,,,,,,,,,,,,,,
367783,1622993476345,,,,,,,,0.29,-0.86,-0.46,-24,-1,-1,0.91,,83,9512,40,27,84,0.965,58.0,655,4.87,13.1,40.6,1,38.8,5.37,23.4,0,0,0,1,0,607,-9072,17336,586,,,,,,,,,,,,,,,,
367803,1622993476365,,,,,,,,0.39,-0.92,-0.59,-24,-1,1,1.0,,83,9684,40,27,84,0.988,58.5,666,4.85,13.2,40.6,1,39.0,5.53,23.4,0,0,0,1,0,593,-9072,2048,585,,,,,,,,,,,,,,,,
367823,1622993476385,,,,,,,,0.31,-0.86,-0.58,-24,-1,0,0.91,,83,9858,40,27,83,1.014,58.1,658,4.82,13.1,40.6,1,39.3,5.4,23.4,0,0,0,1,0,592,-1,-3210,581,,,,,,,,,,,,,,,,
367843,1622993476407,4,2,47,36,19,28,-30,0.29,-0.95,-0.43,-24,-1,1,1.0,0,83,9984,39,27,82,1.047,58.4,650,4.94,13.2,40.6,1,39.5,5.34,23.4,0,0,0,1,0,614,-1,23619,584,45.699665,4.910489,58.02,198.8,9,3,1.8,0,0.0,-1,0.0,0.0,0.0,0,3.42,6.1307
367863,1622993476427,,,,,,,,0.32,-0.96,-0.56,-25,1,3,1.01,,83,10124,39,27,81,1.067,58.7,666,4.9,13.1,40.6,1,39.9,5.28,23.4,0,0,0,1,0,613,-1,19621,587,,,,,,,,,,,,,,,,
367883,1622993476447,,,,,,,,0.41,-0.91,-0.68,-26,-0,1,1.0,,83,10285,39,27,80,1.086,59.5,659,5.0,13.1,42.4,1,40.3,5.21,24.9,0,0,0,1,0,633,-1,-3446,590,,,,,,,,,,,,,,,,
367903,1622993476467,,,,,,,,0.47,-1.0,-0.79,-27,1,1,1.11,,83,10399,38,27,79,1.074,60.0,671,4.86,13.1,42.4,1,40.7,5.14,24.9,0,0,0,1,0,634,-1,19304,596,,,,,,,,,,,,,,,,
367923,1622993476487,,,,,,,,0.48,-0.85,-0.78,-29,2,1,0.98,,83,10527,38,27,78,1.066,60.6,671,4.91,13.1,42.4,1,41.1,5.07,24.9,0,0,0,1,0,622,-1,-16046,606,,,,,,,,,,,,,,,,
367943,1622993476505,4,1,47,37,22,32,-29,0.55,-0.89,-0.88,-30,2,2,1.04,0,83,10635,38,27,77,1.054,60.0,675,4.88,13.1,42.4,1,41.4,4.93,24.9,0,0,0,1,0,615,-1,-1346,606,45.699654,4.910493,59.87,198.8,9,3,1.8,0,0.0,-1,0.0,,0.0,0,3.42,6.1324
367963,1622993476525,,,,,,,,0.52,-0.95,-0.64,-31,2,1,1.09,,83,10720,38,27,77,1.038,60.7,675,4.88,13.2,42.4,1,41.6,4.88,24.9,0,0,0,1,0,653,-1,20993,606,,,,,,,,,,,,,,,,
367983,1622993476545,,,,,,,,0.46,-0.84,-0.75,-32,3,3,0.95,,83,10757,38,27,77,1.021,61.4,677,4.9,13.1,39.4,1,41.7,4.87,24.2,0,0,0,1,0,655,-1,-14655,614,,,,,,,,,,,,,,,,
368003,1622993476565,,,,,,,,0.44,-0.93,-0.52,-33,2,0,1.03,,83,10806,38,27,76,0.997,61.3,666,4.88,13.2,39.4,1,41.8,3.63,24.2,0,0,0,1,0,653,-1,-8429,613,,,,,,,,,,,,,,,,
368023,1622993476585,,,,,,,,0.48,-0.98,-0.5,-34,1,0,1.09,,83,10831,38,27,76,0.974,61.3,673,4.86,13.2,39.4,1,41.9,4.76,24.2,0,0,0,1,0,646,-1,2024,615,,,,,,,,,,,,,,,,
368043,1622993476609,4,3,48,36,24,33,-27,0.54,-0.99,-0.62,-35,0,1,1.13,0,83,10875,38,27,77,0.946,61.2,660,4.87,13.1,39.4,1,42.0,4.8,24.2,0,0,0,1,0,626,12552,-26380,623,45.699635,4.910496,61.0,198.8,9,3,1.8,0,0.0,-1,0.0,0.0,0.0,0,3.42,6.134
368063,1622993476629,,,,,,,,0.45,-0.96,-0.41,-36,0,-1,1.06,,83,10913,38,27,76,0.928,62.5,665,4.87,13.2,39.4,1,42.1,4.73,24.2,0,0,0,1,0,655,1780,11776,635,,,,,,,,,,,,,,,,
368083,1622993476649,,,,,,,,0.35,-0.92,-0.34,-36,2,0,0.98,,83,10888,38,27,76,0.915,62.9,668,4.88,13.1,38.3,1,42.1,4.74,24.1,0,0,0,1,0,643,-1,-2830,629,,,,,,,,,,,,,,,,
368103,1622993476669,,,,,,,,0.44,-1.0,-0.48,-37,1,-2,1.09,,83,10882,38,27,76,0.892,63.1,665,4.93,13.1,38.3,1,42.0,4.74,24.1,0,0,0,1,0,698,250,-30207,631,,,,,,,,,,,,,,,,
368123,1622993476689,,,,,,,,0.45,-0.75,-0.33,-37,1,0,0.88,,83,10939,38,27,76,0.879,62.8,678,4.9,13.1,38.3,1,42.2,4.78,24.1,0,0,0,1,0,668,250,-26380,628,,,,,,,,,,,,,,,,
368143,1622993476709,5,2,50,36,22,34,-28,0.4,-0.85,-0.45,-38,1,2,0.94,0,83,10913,38,27,76,0.875,63.1,680,4.92,13.2,38.3,1,42.1,4.73,24.1,0,0,0,1,0,666,250,-3038,631,45.699619,4.910498,62.58,198.9,9,3,1.8,0,0.0,-1,0.0,,0.0,0,3.43,6.1357
368163,1622993476729,,,,,,,,0.35,-0.95,-0.46,-38,-2,0,1.01,,83,10901,38,27,76,0.874,62.2,674,4.88,13.2,38.3,1,42.1,4.73,24.1,0,0,0,1,0,660,250,-10344,622,,,,,,,,,,,,,,,,
368183,1622993476749,,,,,,,,0.37,-1.03,-0.3,-38,0,-1,1.1,,83,10850,38,27,76,0.873,63.1,673,4.88,13.1,37.8,1,42.0,4.76,23.9,0,0,0,1,0,656,-1,31988,628,,,,,,,,,,,,,,,,
368203,1622993476769,,,,,,,,0.36,-1.02,-0.44,-37,2,0,1.08,,83,10838,38,27,76,0.872,63.7,676,4.83,13.1,37.8,1,41.9,4.77,23.9,0,0,0,1,0,667,-1,-3038,637,,,,,,,,,,,,,,,,
368223,1622993476789,,,,,,,,0.32,-0.77,-0.24,-38,2,0,0.83,,83,10850,38,27,76,0.881,63.9,668,4.85,13.1,37.8,1,42.0,4.76,23.9,0,0,0,1,0,709,-1,-2830,639,,,,,,,,,,,,,,,,
368243,1622993476809,6,2,49,36,22,37,-25,0.31,-0.81,-0.23,-38,4,-0,0.87,0,83,10932,38,27,76,0.887,64.6,678,4.87,13.2,37.8,1,42.2,4.72,23.9,0,0,0,1,0,720,-1,-3038,637,45.699604,4.910499,63.69,198.9,9,3,1.8,0,0.0,-1,0.0,0.0,0.0,0,3.43,6.1374
368263,1622993476829,,,,,,,,0.35,-0.84,-0.38,-38,3,1,0.91,,83,11101,39,27,76,0.897,63.9,684,4.93,13.1,37.8,1,42.5,4.68,23.9,0,0,0,1,0,667,-1,-2345,639,,,,,,,,,,,,,,,,
368283,1622993476849,,,,,,,,0.3,-0.78,-0.18,-39,1,-1,0.84,,83,11094,39,27,77,0.904,64.0,667,4.92,13.1,38.1,1,42.5,4.73,24.4,0,0,0,1,0,677,0,-26562,640,,,,,,,,,,,,,,,,
368303,1622993476869,,,,,,,,0.33,-0.88,-0.17,-38,2,-0,0.94,,83,11035,39,27,78,0.91,65.4,686,4.85,13.2,38.1,1,42.4,4.78,24.4,0,0,0,1,0,693,-32504,-2826,646,,,,,,,,,,,,,,,,
368323,1622993476889,,,,,,,,0.36,-0.91,-0.32,-38,4,1,0.98,,83,11003,39,27,78,0.915,64.9,672,4.92,13.1,38.1,1,42.4,4.78,24.4,0,0,0,1,0,664,250,24845,649,,,,,,,,,,,,,,,,
368343,1622993476907,6,4,51,37,22,35,-21,0.31,-0.9,-0.13,-38,4,-1,0.95,0,83,10945,39,27,77,0.921,67.6,675,4.91,13.1,38.1,1,42.2,4.81,24.4,0,0,0,1,0,692,-2826,-10344,649,45.699589,4.910498,64.93,198.9,9,3,1.8,0,0.0,-1,0.0,,0.0,0,3.43,6.1391
368363,1622993476927,,,,,,,,0.29,-0.96,0.01,-37,4,0,1.0,,83,10952,39,27,78,0.926,67.6,687,4.93,13.2,38.1,1,42.2,4.81,24.4,0,0,0,1,0,721,-2826,-26562,658,,,,,,,,,,,,,,,,
368383,1622993476947,,,,,,,,0.26,-0.91,-0.16,-37,4,2,0.95,,83,11061,39,27,78,0.934,65.4,678,4.92,13.1,37.4,1,42.4,4.78,24.4,0,0,0,1,0,724,-1,-26562,654,,,,,,,,,,,,,,,,
368403,1622993476967,,,,,,,,0.26,-0.84,0.02,-37,0,-1,0.88,,83,11200,41,27,78,0.937,65.8,675,4.94,13.1,37.4,1,42.6,4.78,24.4,0,0,0,1,0,699,-1,14342,654,,,,,,,,,,,,,,,,
368423,1622993476987,,,,,,,,0.34,-0.94,0.11,-38,0,-1,1.0,,83,11261,44,27,79,0.943,65.5,673,4.87,13.0,37.4,1,42.7,4.83,24.4,0,0,0,1,0,718,-1,-23490,655,,,,,,,,,,,,,,,,
368443,1622993477005,5,4,49,35,24,31,-13,0.23,-0.83,-0.04,-38,2,-1,0.86,0,83,11281,47,27,80,0.948,66.7,682,4.86,13.1,37.4,1,42.7,4.88,24.4,0,0,0,1,0,663,250,-12152,669,45.699574,4.910495,66.74,199.0,9,3,1.8,0,0.0,-1,0.0,0.0,0.0,0,3.43,6.1407
368463,1622993477025,,,,,,,,0.23,-0.8,-0.2,-38,2,-2,0.83,,83,11247,47,27,81,0.95,67.1,675,4.92,13.1,37.4,1,42.6,4.93,24.4,0,0,0,1,0,711,-16883,24845,671,,,,,,,,,,,,,,,,
368483,1622993477045,,,,,,,,0.24,-0.85,-0.02,-38,0,-4,0.88,,83,11254,48,27,82,0.951,67.1,676,4.9,13.1,38.0,1,42.7,4.98,25.6,0,0,0,1,0,756,105,-2830,671,,,,,,,,,,,,,,,,
368503,1622993477065,,,,,,,,0.18,-0.76,0.15,-37,3,-3,0.78,,83,11467,53,27,82,0.953,67.4,682,4.88,13.1,38.0,1,42.9,4.98,25.6,0,0,0,1,0,742,250,-10399,674,,,,,,,,,,,,,,,,
368523,1622993477085,,,,,,,,0.33,-0.71,-0.02,-36,3,-1,0.79,,83,11566,53,27,83,0.954,66.4,693,4.88,13.1,38.0,1,43.0,5.84,25.6,0,0,0,1,0,691,-22528,14342,664,,,,,,,,,,,,,,,,
368543,1622993477105,5,4,50,36,24,36,-18,0.3,-0.82,-0.03,-36,3,0,0.87,0,83,11488,53,27,84,0.958,66.2,689,4.88,13.1,38.0,1,42.9,5.98,25.6,0,0,0,1,0,744,-22528,-12152,669,45.699554,4.910491,67.36,199.0,9,3,1.8,0,0.0,-1,0.0,,0.0,0,3.43,6.1424
368563,1622993477125,,,,,,,,0.24,-0.91,-0.19,-35,3,2,0.94,,83,11559,53,27,84,0.969,66.8,687,4.87,13.1,38.0,1,43.0,5.92,25.6,0,0,0,1,0,745,-2336,6658,668,,,,,,,,,,,,,,,,
368583,1622993477145,,,,,,,,0.33,-0.91,-0.34,-35,1,3,0.97,,83,11653,53,27,85,0.975,67.3,676,4.88,13.1,48.8,1,43.0,6.03,32.5,0,0,0,1,0,687,-1,-25858,663,,,,,,,,,,,,,,,,
368603,1622993477165,,,,,,,,0.44,-0.74,-0.44,-35,-2,3,0.86,,83,11645,53,27,85,0.983,67.6,683,4.89,13.1,48.8,1,43.0,5.81,32.5,0,0,0,1,0,717,-1,204,682,,,,,,,,,,,,,,,,
368623,1622993477185,,,,,,,,0.37,-0.73,-0.23,-35,-4,-1,0.81,,83,11624,53,27,85,0.987,67.4,676,4.87,13.1,48.8,1,43.0,5.67,32.5,0,0,0,1,0,746,250,15647,674,,,,,,,,,,,,,,,,
368643,1622993477209,-5,2,50,36,22,35,-16,0.23,-0.83,-0.05,-35,-4,-4,0.86,0,83,11667,54,27,85,0.987,67.4,676,4.87,13.1,48.8,1,43.0,5.53,32.5,0,0,0,1,0,707,-1481,-31068,680,45.699539,4.910486,68.73,199.0,9,3,1.8,0,0.0,-1,0.0,0.0,0.0,0,3.44,6.1441
368663,1622993477229,,,,,,,,0.33,-0.93,0.12,-35,-5,-3,0.98,,83,11660,54,27,86,0.986,69.2,677,4.87,13.2,48.8,1,43.0,5.55,32.5,0,0,0,1,0,713,-1,-12152,692,,,,,,,,,,,,,,,,
368683,1622993477249,,,,,,,,0.46,-0.89,-0.05,-34,-4,-1,1.0,,83,11631,54,27,86,0.985,68.7,670,4.87,13.1,44.0,1,43.0,5.54,29.9,0,0,0,1,0,714,208,16118,687,,,,,,,,,,,,,,,,
368703,1622993477269,,,,,,,,0.39,-0.78,-0.16,-34,-3,0,0.87,,83,11631,54,27,86,0.981,68.3,685,4.9,13.1,44.0,1,43.0,5.39,29.9,0,0,0,1,0,722,8192,-31066,687,,,,,,,,,,,,,,,,
368723,1622993477289,,,,,,,,0.24,-0.79,-0.31,-33,1,2,0.82,,83,11624,54,27,86,0.975,68.4,670,4.89,13.1,44.0,1,43.0,5.54,29.9,0,0,0,1,0,709,8192,204,684,,,,,,,,,,,,,,,,
368743,1622993477308,5,3,50,38,22,33,-10,0.29,-0.89,-0.45,-32,2,1,0.93,0,83,11617,54,27,86,0.968,70.2,665,4.86,13.1,44.0,1,43.0,5.54,29.9,0,0,0,1,0,718,8192,16118,702,45.69952,4.910479,69.79,199.0,9,3,1.8,0,0.0,-1,0.0,,0.0,0,3.44,6.1457
368763,1622993477328,,,,,,,,0.43,-0.94,-0.58,-32,2,-0,1.04,,83,11602,54,27,86,0.962,69.6,673,4.84,13.2,44.0,1,43.0,5.53,29.9,0,0,0,1,0,741,8192,-2830,693,,,,,,,,,,,,,,,,
368783,1622993477348,,,,,,,,0.37,-0.98,-0.37,-31,1,-2,1.05,,83,11602,54,27,86,0.953,69.1,671,4.86,13.2,43.1,1,43.0,5.53,29.8,0,0,0,1,0,727,-1,-2358,694,,,,,,,,,,,,,,,,
368803,1622993477368,,,,,,,,0.3,-0.91,-0.21,-30,0,-2,0.96,,83,11602,54,27,86,0.945,69.6,680,4.88,13.1,43.1,1,43.0,5.53,29.8,0,0,0,1,0,719,-1,-25858,696,,,,,,,,,,,,,,,,
368823,1622993477388,,,,,,,,0.39,-0.84,-0.13,-30,-1,-0,0.93,,83,11609,54,27,86,0.934,71.2,681,4.89,13.1,43.1,1,43.0,5.54,29.8,0,0,0,1,0,722,-1,-2826,712,,,,,,,,,,,,,,,,
368843,1622993477406,5,3,48,38,23,33,-6,0.49,-0.8,-0.2,-29,-0,0,0.94,0,83,11638,54,27,86,0.921,70.3,672,4.9,13.1,43.1,1,43.0,5.55,29.8,0,0,0,1,0,729,-388,-2358,703,45.699505,4.910471,70.88,199.0,9,3,1.8,0,0.0,-1,0.0,0.0,0.0,0,3.44,6.1474
368863,1622993477426,,,,,,,,0.39,-0.89,-0.25,-28,0,-1,0.97,,83,11660,55,27,86,0.912,70.7,694,4.87,13.1,43.1,1,43.0,5.55,29.8,0,0,0,1,0,730,250,-2314,707,,,,,,,,,,,,,,,,
368883,1622993477446,,,,,,,,0.19,-0.94,-0.36,-27,1,-1,0.96,,83,11682,56,27,86,0.906,70.0,671,4.87,13.1,42.6,1,43.0,5.56,30.1,0,0,0,1,0,724,-31206,-2314,713,,,,,,,,,,,,,,,,
368903,1622993477466,,,,,,,,0.18,-1.01,-0.49,-26,1,2,1.03,,83,11674,56,27,86,0.897,72.2,692,4.87,13.0,42.6,1,43.0,5.56,30.1,0,0,0,1,0,734,-31206,-13580,706,,,,,,,,,,,,,,,,
368923,1622993477486,,,,,,,,0.34,-0.9,-0.62,-24,-1,4,0.96,,83,11696,56,27,86,0.892,71.5,673,4.88,13.1,42.6,1,43.0,5.57,30.1,0,0,0,1,0,729,-31206,-3580,715,,,,,,,,,,,,,,,,
368943,1622993477506,3,3,47,39,23,30,-6,0.38,-0.72,-0.68,-23,-3,3,0.82,0,83,11704,56,27,86,0.885,71.7,680,4.9,13.1,42.6,1,43.0,5.57,30.1,0,0,0,1,0,736,-235,-13068,717,45.69949,4.910461,72.38,199.0,9,3,1.8,0,0.0,-1,0.0,,0.0,0,3.44,6.149
368963,1622993477526,,,,,,,,0.33,-0.69,-0.46,-23,-5,1,0.77,,83,11777,56,27,86,0.885,72.2,673,4.88,13.1,42.6,1,43.0,5.61,30.1,0,0,0,1,0,731,5120,-2826,722,,,,,,,,,,,,,,,,
368983,1622993477546,,,,,,,,0.22,-0.72,-0.25,-22,-7,-3,0.75,,83,11837,56,27,86,0.885,71.9,682,4.87,13.1,42.6,1,43.0,5.63,30.7,0,0,0,1,0,734,3584,6790,719,,,,,,,,,,,,,,,,
369003,1622993477566,,,,,,,,0.11,-0.75,-0.06,-21,-7,-5,0.76,,83,11889,56,27,86,0.886,72.8,670,4.87,13.1,42.6,1,43.0,5.65,30.7,0,0,0,1,0,743,3584,136,728,,,,,,,,,,,,,,,,
369023,1622993477586,,,,,,,,0.06,-0.8,0.11,-20,-7,-6,0.8,,83,11889,56,27,86,0.886,73.0,670,4.89,13.1,42.6,1,43.0,5.65,30.7,0,0,0,1,0,752,3584,6790,730,,,,,,,,,,,,,,,,
369043,1622993477608,4,3,46,39,23,28,-5,0.1,-0.87,0.27,-19,-8,-8,0.88,0,83,11935,57,27,86,0.885,73.0,670,4.87,13.2,42.6,1,43.0,5.67,30.7,0,0,0,1,0,748,3584,-3450,730,45.69947,4.91045,74.27,199.0,9,3,1.8,0,0.0,-1,0.0,0.0,0.0,0,3.44,6.1507
369063,1622993477628,,,,,,,,0.16,-0.97,0.41,-19,-9,-9,0.98,,83,11996,57,27,86,0.884,73.8,675,4.85,13.2,42.6,1,43.0,5.69,30.7,0,0,0,1,0,746,3584,-22795,738,,,,,,,,,,,,,,,,
369083,1622993477648,,,,,,,,0.19,-1.05,0.54,-18,-10,-10,1.07,,83,12057,57,27,86,0.882,72.8,677,4.88,13.2,43.2,1,43.0,5.7,31.8,0,0,0,1,0,758,2790,5876,728,,,,,,,,,,,,,,,,
369103,1622993477668,,,,,,,,0.2,-1.11,0.66,-18,-10,-11,1.12,,83,12135,58,27,86,0.88,74.1,676,4.87,13.1,43.2,1,43.0,5.7,31.8,0,0,0,1,0,760,2790,8838,741,,,,,,,,,,,,,,,,
369123,1622993477688,,,,,,,,0.13,-1.12,0.78,-17,-11,-12,1.13,,83,12183,59,27,86,0.877,74.4,677,4.88,13.1,43.2,1,43.0,5.7,31.8,0,0,0,1,0,761,-2830,6389,744,,,,,,,,,,,,,,,,
369143,1622993477708,1,2,46,39,23,27,-3,0.12,-1.03,0.88,-16,-13,-12,1.04,0,83,12199,59,27,86,0.873,73.8,687,4.86,13.0,43.2,1,43.0,5.7,31.8,0,0,0,1,0,758,-1,-10216,748,45.699451,4.910438,75.55,199.0,9,3,1.8,0,0.0,-1,0.0,,0.0,0,3.45,6.1524
369163,1622993477728,,,,,,,,0.16,-0.89,0.85,-16,-13,-11,0.91,,83,12207,59,27,86,0.869,73.8,680,4.87,13.1,43.2,1,43.0,5.7,31.8,0,0,0,1,0,768,-1,6900,746,,,,,,,,,,,,,,,,
369183,1622993477748,,,,,,,,0.26,-0.76,0.61,-15,-13,-8,0.8,,83,12262,59,27,86,0.864,75.5,683,4.87,13.1,43.0,1,43.0,5.7,32.3,0,0,0,1,0,765,-1,-10214,755,,,,,,,,,,,,,,,,
369203,1622993477768,,,,,,,,0.3,-0.77,0.4,-14,-10,-5,0.83,,83,12343,59,27,86,0.858,75.8,689,4.87,13.1,43.0,1,43.0,5.7,32.3,0,0,0,1,0,778,-1,-2830,758,,,,,,,,,,,,,,,,
369223,1622993477788,,,,,,,,0.22,-0.83,0.2,-13,-9,-4,0.86,,83,12392,59,27,86,0.85,75.8,682,4.87,13.1,43.0,1,43.0,5.7,32.3,0,0,0,1,0,775,-235,-2826,758,,,,,,,,,,,,,,,,
369243,1622993477804,0,2,46,41,24,26,-2,0.19,-0.73,0.27,-13,-9,-4,0.76,0,83,12384,60,27,86,0.841,75.2,688,4.86,13.1,43.0,1,43.0,5.7,32.3,0,0,0,1,0,781,-1,-2826,757,45.699436,4.910425,76.87,199.0,9,3,1.8,0,0.0,-1,0.0,0.0,0.0,0,3.45,6.154
369263,1622993477824,,,,,,,,0.29,-0.59,0.34,-12,-9,-3,0.66,,83,12433,60,27,85,0.83,75.3,684,4.9,13.2,43.0,1,43.0,5.55,32.3,0,0,0,1,0,783,-1,-2574,761,,,,,,,,,,,,,,,,
369283,1622993477844,,,,,,,,0.31,-0.43,0.48,-11,-8,-4,0.53,,83,12500,60,27,86,0.82,75.7,687,4.87,13.1,42.1,1,43.0,5.7,32.1,0,0,0,1,0,783,-1,-10218,757,,,,,,,,,,,,,,,,
369303,1622993477864,,,,,,,,0.34,-0.45,0.52,-11,-8,-6,0.56,,83,12533,60,27,86,0.809,76.5,682,4.86,13.1,42.1,1,43.0,5.7,32.1,0,0,0,1,0,787,-1,-10218,757,,,,,,,,,,,,,,,,
369323,1622993477884,,,,,,,,0.35,-0.45,0.31,-11,-5,-4,0.57,,83,12583,60,27,85,0.802,76.1,677,4.82,13.1,42.1,1,43.0,5.55,32.1,0,0,0,1,0,789,-1281,-2540,768,,,,,,,,,,,,,,,,
369343,1622993477906,10,4,45,39,25,26,-1,0.28,-0.33,0.12,-10,-3,-3,0.43,0,83,12609,60,27,85,0.788,77.0,691,4.88,13.1,42.1,1,43.0,5.55,32.1,0,0,0,1,0,795,8200,-2826,770,45.699417,4.910411,78.44,198.9,9,3,1.8,0,0.0,-1,0.0,,0.0,0,3.45,6.1557
369363,1622993477926,,,,,,,,0.31,-0.3,0.02,-9,-3,-2,0.43,,83,12617,60,27,85,0.781,75.8,685,4.88,13.2,42.1,1,43.0,5.55,32.1,0,0,0,1,0,796,8200,-7436,767,,,,,,,,,,,,,,,,
369383,1622993477946,,,,,,,,0.29,-0.36,0.16,-9,-3,-4,0.46,,83,12626,60,27,85,0.776,76.4,683,4.86,13.1,42.3,1,43.0,5.55,32.4,0,0,0,1,0,793,-992,-1566,771,,,,,,,,,,,,,,,,
369403,1622993477966,,,,,,,,0.29,-0.3,0.12,-8,-4,-4,0.42,,83,12677,61,27,85,0.769,76.5,684,4.86,13.1,42.3,1,43.0,5.55,32.4,0,0,0,1,0,795,-1,11277,765,,,,,,,,,,,,,,,,
369423,1622993477986,,,,,,,,0.25,-0.33,-0.06,-8,-3,-1,0.41,,83,12711,61,27,85,0.764,77.3,677,4.87,13.1,42.3,1,43.0,5.55,32.4,0,0,0,1,0,797,-23552,-30694,773,,,,,,,,,,,,,,,,
369443,1622993478002,13,6,43,38,26,27,-0,0.27,-0.33,-0.14,-7,-3,-0,0.43,0,83,12720,61,27,84,0.759,76.7,681,4.86,13.1,42.3,1,43.0,5.41,32.4,0,0,0,1,0,801,-1,-30694,768,45.699402,4.910397,80.33,198.9,9,3,1.8,0,0.0,-1,0.0,0.0,0.0,0,3.45,6.1574
369463,1622993478022,,,,,,,,0.27,-0.18,0.04,-7,-3,-1,0.32,,83,12729,61,27,84,0.756,77.0,681,4.91,13.1,42.3,1,43.0,5.41,32.4,0,0,0,1,0,801,-1,204,770,,,,,,,,,,,,,,,,
369483,1622993478042,,,,,,,,0.32,-0.24,0.0,-7,-3,-2,0.4,,83,12763,61,27,84,0.753,77.2,686,4.84,13.2,41.2,1,43.0,5.41,31.9,0,0,0,1,0,802,-2574,-3888,768,,,,,,,,,,,,,,,,
369503,1622993478062,,,,,,,,0.27,-0.22,-0.16,-6,-0,-1,0.35,,83,12781,61,27,84,0.75,77.7,687,4.85,13.2,41.2,1,43.0,5.41,31.9,0,0,0,1,0,805,-3450,-2560,771,,,,,,,,,,,,,,,,
369523,1622993478082,,,,,,,,0.26,-0.2,-0.32,-5,2,0,0.33,,83,12824,61,27,84,0.748,76.8,688,4.87,13.2,41.2,1,43.0,5.41,31.9,0,0,0,1,0,802,-23552,-13072,768,,,,,,,,,,,,,,,,
369543,1622993478108,11,7,40,37,27,28,0,0.23,-0.19,-0.12,-5,0,-2,0.3,0,83,12851,61,27,84,0.748,77.7,688,4.87,13.1,41.2,1,43.0,5.41,31.9,0,0,0,1,0,806,14228,204,777,45.699387,4.910382,80.72,198.9,9,3,1.8,0,0.0,-1,0.0,,0.0,0,3.45,6.159
369563,1622993478128,,,,,,,,0.36,-0.11,-0.17,-4,-1,-1,0.37,,83,12824,61,27,84,0.748,78.3,692,4.85,13.2,41.2,1,43.0,5.41,31.9,0,0,0,1,0,812,-41,-3450,784,,,,,,,,,,,,,,,,
369583,1622993478148,,,,,,,,0.24,-0.17,-0.32,-4,-1,-0,0.29,,83,12816,61,27,84,0.748,77.7,693,4.84,13.1,41.5,1,43.0,5.41,32.1,0,0,0,1,0,811,-41,-2830,777,,,,,,,,,,,,,,,,
369603,1622993478168,,,,,,,,0.28,-0.02,-0.25,-3,-2,0,0.28,,83,12851,61,27,84,0.748,79.0,695,4.87,13.1,41.5,1,43.0,5.41,32.1,0,0,0,1,0,805,-31066,-2830,779,,,,,,,,,,,,,,,,
369623,1622993478188,,,,,,,,0.26,-0.07,-0.12,-3,-2,-1,0.27,,83,12939,61,27,84,0.747,78.0,686,4.88,13.2,41.5,1,43.0,5.41,32.1,0,0,0,1,0,810,-31066,16118,775,,,,,,,,,,,,,,,,
369643,1622993478204,6,3,40,36,27,26,-1,0.2,-0.07,-0.28,-3,1,0,0.21,0,83,12948,61,27,84,0.747,79.6,685,4.87,13.1,41.5,1,43.0,5.41,32.1,0,0,0,1,0,813,-1,-2314,790,45.699368,4.910368,81.69,198.9,9,3,1.8,0,0.0,-1,0.0,0.0,0.0,0,3.46,6.1607
369663,1622993478224,,,,,,,,0.26,-0.14,-0.42,-2,2,1,0.29,,83,12913,61,27,84,0.746,79.3,691,4.88,13.2,41.5,1,43.0,5.41,32.1,0,0,0,1,0,814,-1,-25858,793,,,,,,,,,,,,,,,,
369683,1622993478244,,,,,,,,0.2,-0.08,-0.22,-2,-1,-2,0.21,,83,12931,61,27,84,0.746,79.6,692,4.87,13.1,40.5,1,43.0,5.41,32.4,0,0,0,1,0,819,-1,-2830,794,,,,,,,,,,,,,,,,
369703,1622993478264,,,,,,,,0.2,-0.13,-0.37,-2,0,1,0.24,,83,12966,61,27,84,0.746,79.5,690,4.86,13.2,40.5,1,43.0,5.41,32.4,0,0,0,1,0,818,-1,-2830,795,,,,,,,,,,,,,,,,
369723,1622993478284,,,,,,,,0.23,0.02,-0.45,-2,-1,1,0.24,,83,12966,61,27,84,0.746,79.2,697,4.89,13.2,40.5,1,43.0,5.41,32.4,0,0,0,1,0,817,-1,-4091,799,,,,,,,,,,,,,,,,
369743,1622993478305,6,3,42,40,27,26,-2,0.18,0.02,-0.3,-2,-1,-0,0.18,0,83,13038,61,27,84,0.746,80.4,698,4.9,13.2,40.5,1,43.0,5.41,32.4,0,0,0,1,0,818,-1,-2314,804,45.699352,4.910353,82.21,198.8,9,3,1.8,0,0.0,-1,0.0,,0.0,0,3.46,6.1624
369763,1622993478325,,,,,,,,0.2,-0.05,-0.44,-2,1,-1,0.21,,83,13093,61,27,84,0.747,79.7,684,4.82,13.1,40.5,1,43.0,5.41,32.4,0,0,0,1,0,823,-1,-22796,787,,,,,,,,,,,,,,,,
369783,1622993478345,,,,,,,,0.27,-0.07,-0.45,-2,2,-0,0.28,,83,13111,61,27,84,0.747,80.9,689,4.88,13.2,40.7,1,43.0,5.41,32.8,0,0,0,1,0,825,-1,-13068,802,,,,,,,,,,,,,,,,
369803,1622993478365,,,,,,,,0.29,-0.0,-0.24,-2,-2,-0,0.29,,83,13176,61,27,84,0.747,80.0,687,4.86,13.1,40.7,1,43.0,5.41,32.8,0,0,0,1,0,838,-1,-2358,800,,,,,,,,,,,,,,,,
369823,1622993478385,,,,,,,,0.28,0.17,-0.19,-2,-1,0,0.33,,83,13250,61,27,84,0.748,80.4,701,4.85,13.2,40.7,1,43.0,5.41,32.8,0,0,0,1,0,821,-1,-13068,802,,,,,,,,,,,,,,,,
369843,1622993478407,15,11,41,37,27,26,1,0.26,0.21,-0.06,-2,-1,-1,0.33,0,83,13279,61,27,84,0.748,78.6,686,4.88,13.1,40.7,1,43.0,5.41,32.8,0,0,0,1,0,830,-1,-3580,786,45.699333,4.910338,83.38,198.8,9,3,1.8,0,0.0,-1,0.0,0.0,0.0,0,3.46,6.1641
369863,1622993478427,,,,,,,,0.24,0.25,-0.22,-2,-0,0,0.34,,83,13222,53,27,84,0.748,79.7,690,4.87,13.2,40.7,1,43.0,5.41,32.8,0,0,0,1,0,833,-2344,-31066,801,,,,,,,,,,,,,,,,
369883,1622993478447,,,,,,,,0.17,0.18,-0.04,-1,1,-0,0.25,,83,13130,40,27,83,0.748,79.7,690,4.89,13.1,40.5,1,43.0,5.27,32.1,0,0,0,1,0,836,-1,1037,797,,,,,,,,,,,,,,,,
369903,1622993478467,,,,,,,,0.13,0.15,-0.2,-1,1,-0,0.2,,83,13084,29,27,78,0.748,79.1,688,4.88,13.2,40.5,1,43.0,4.94,32.1,0,0,0,1,0,825,-1,-31066,779,,,,,,,,,,,,,,,,
369923,1622993478487,,,,,,,,0.12,0.2,-0.31,-1,2,2,0.23,,83,12948,22,27,71,0.747,80.5,691,4.88,13.1,40.5,1,43.0,4.41,32.1,0,0,0,1,0,827,-1481,-4091,792,,,,,,,,,,,,,,,,
369943,1622993478509,36,22,35,34,31,29,3,0.09,0.15,-0.11,-1,2,3,0.17,0,83,12668,16,27,63,0.747,79.7,688,4.89,13.2,40.5,1,43.0,4.02,32.1,0,0,0,1,0,814,250,-3344,795,45.699314,4.910324,84.05,198.9,9,3,1.8,0,0.0,-1,0.0,,0.0,0,3.46,6.1657
369963,1622993478529,,,,,,,,0.04,0.3,-0.17,-1,1,4,0.31,,83,12287,12,27,57,0.747,79.2,687,4.9,13.2,40.5,1,41.2,3.81,32.1,0,0,0,1,0,808,250,-2560,784,,,,,,,,,,,,,,,,
369983,1622993478549,,,,,,,,-0.07,0.3,-0.13,-1,1,4,0.31,,83,11957,12,27,52,0.746,78.3,689,4.88,13.2,26.8,1,39.4,3.68,21.1,0,0,0,1,0,783,250,-10216,782,,,,,,,,,,,,,,,,
370003,1622993478569,,,,,,,,-0.04,0.28,-0.08,-1,1,4,0.28,,83,11733,12,27,48,0.745,77.7,686,4.9,13.2,26.8,1,38.2,3.32,21.1,0,0,0,1,0,791,-1,-3450,784,,,,,,,,,,,,,,,,
370023,1622993478589,,,,,,,,-0.1,0.35,-0.13,-1,2,3,0.36,,83,11503,12,27,46,0.746,80.6,692,4.91,13.2,26.8,1,37.2,3.19,21.1,0,0,0,1,0,750,16118,-23308,777,,,,,,,,,,,,,,,,
370043,1622993478605,44,31,26,26,33,33,0,-0.25,0.16,-0.28,-1,1,5,0.29,0,83,11268,12,27,44,0.746,80.6,678,4.9,13.2,26.8,1,35.7,3.1,21.1,0,0,0,1,0,765,16118,5876,766,45.699295,4.910309,83.07,198.9,9,3,1.8,0,0.0,-1,0.0,0.0,0.0,0,3.47,6.1674
370063,1622993478625,,,,,,,,-0.35,0.27,-0.09,-1,1,3,0.44,,83,11127,12,27,43,0.746,80.6,675,4.92,13.2,26.8,1,35.0,3.07,21.1,0,0,0,1,0,759,16118,-13580,760,,,,,,,,,,,,,,,,
370083,1622993478645,,,,,,,,-0.29,0.08,0.02,-1,2,2,0.3,,83,11035,12,27,42,0.746,74.6,677,4.87,13.2,20.6,1,34.2,3.04,15.6,0,0,0,1,0,707,770,-388,742,,,,,,,,,,,,,,,,
370103,1622993478665,,,,,,,,-0.39,0.2,-0.15,-1,2,4,0.44,,83,10971,12,27,41,0.758,74.5,679,4.87,13.2,20.6,1,33.5,3.0,15.6,0,0,0,1,0,646,770,-2830,747,,,,,,,,,,,,,,,,
370123,1622993478685,,,,,,,,-0.41,0.29,0.03,-1,1,2,0.51,,83,10794,12,27,41,0.775,73.6,678,4.85,13.1,20.6,1,33.5,2.97,15.6,0,0,0,1,0,651,770,-2830,738,,,,,,,,,,,,,,,,
370143,1622993478705,36,26,24,24,39,39,1,-0.55,0.33,0.1,-1,4,1,0.64,0,83,10557,12,27,40,0.797,72.8,679,4.91,13.2,20.6,1,32.7,2.88,15.6,0,0,0,1,0,640,24067,-28304,728,45.699276,4.910294,80.69,198.9,9,3,1.8,0,0.0,-1,0.0,,0.0,0,3.47,6.1691
370163,1622993478725,,,,,,,,-0.64,0.34,0.26,-1,0,-1,0.73,,83,10347,12,27,39,0.814,72.8,671,4.89,13.2,20.6,1,32.0,2.83,15.6,0,0,0,1,0,626,-13580,-23055,728,,,,,,,,,,,,,,,,
370183,1622993478745,,,,,,,,-0.64,0.33,0.1,-1,-0,1,0.72,,83,10091,12,27,39,0.828,72.1,673,4.85,13.2,18.4,1,32.0,2.83,13.4,0,0,0,1,0,665,204,17336,719,,,,,,,,,,,,,,,,
370203,1622993478765,,,,,,,,-0.71,0.28,-0.08,-1,3,1,0.76,,83,9884,12,27,38,0.846,72.2,662,4.86,13.3,18.4,1,31.7,2.8,13.4,0,0,0,1,0,696,-388,-2830,705,,,,,,,,,,,,,,,,
370223,1622993478785,,,,,,,,-0.68,0.25,-0.04,-0,1,1,0.72,,83,9650,12,27,36,0.869,72.2,657,4.86,13.3,18.4,1,31.1,2.72,13.4,0,0,0,1,0,689,-388,244,708,,,,,,,,,,,,,,,,
370243,1622993478807,42,30,21,22,39,38,4,-0.69,0.39,0.13,0,-1,0,0.79,0,83,9512,12,27,36,0.884,69.8,651,4.92,13.3,18.4,1,31.1,2.71,13.4,0,0,0,1,0,664,250,3395,698,45.699261,4.91028,77.36,198.9,9,3,1.8,0,0.0,-1,0.0,0.0,0.0,0,3.47,6.1707
370263,1622993478827,,,,,,,,-0.8,0.36,-0.05,1,-0,-0,0.87,,83,9441,12,27,35,0.901,69.0,657,4.96,13.2,18.4,1,30.8,2.66,13.4,0,0,0,1,0,629,250,5344,690,,,,,,,,,,,,,,,,
370283,1622993478847,,,,,,,,-0.81,0.17,-0.21,1,1,-2,0.82,,83,9370,12,27,35,0.916,68.1,661,4.73,13.2,16.8,1,30.8,2.65,11.6,0,0,0,1,0,639,250,-30159,672,,,,,,,,,,,,,,,,
370303,1622993478867,,,,,,,,-0.8,0.14,-0.32,1,3,-0,0.81,,83,9319,12,27,34,0.936,66.6,652,4.95,13.3,16.8,1,30.5,2.61,11.6,0,0,0,1,0,593,-1,-30064,666,,,,,,,,,,,,,,,,
370323,1622993478887,,,,,,,,-0.81,0.15,-0.31,2,2,0,0.82,,83,9155,12,27,34,0.951,66.2,651,5.02,13.2,16.8,1,30.5,2.58,11.6,0,0,0,1,0,598,-1,2524,666,,,,,,,,,,,,,,,,
370343,1622993478907,45,32,20,22,40,38,3,-0.83,0.24,-0.45,2,4,3,0.87,0,83,8954,12,27,34,0.96,65.6,652,4.81,13.2,16.8,1,30.5,2.55,11.6,0,0,0,1,0,601,-1,-23367,656,45.699245,4.910267,73.57,198.9,9,3,1.8,0,0.0,-1,0.0,,0.0,0,3.47,6.1724
370363,1622993478927,,,,,,,,-0.84,0.12,-0.58,2,4,1,0.85,,83,8741,12,26,34,0.963,64.3,646,4.92,13.3,16.8,1,30.5,2.55,11.6,0,0,0,1,0,614,-1,-18341,648,,,,,,,,,,,,,,,,
370383,1622993478947,,,,,,,,-0.9,0.2,-0.7,3,4,2,0.92,,83,8507,12,26,35,0.964,64.8,650,4.93,13.2,16.0,1,30.8,2.59,10.3,0,0,0,1,0,625,-1,505,648,,,,,,,,,,,,,,,,
370403,1622993478967,,,,,,,,-0.93,0.19,-0.81,3,5,3,0.95,,83,8311,12,26,35,0.967,63.6,623,4.86,13.3,16.0,1,30.4,2.41,10.3,0,0,0,1,0,614,-1,-1268,636,,,,,,,,,,,,,,,,
370423,1622993478987,,,,,,,,-0.89,0.27,-0.57,3,5,4,0.93,,83,8033,12,26,36,0.972,63.1,614,4.85,13.3,16.0,1,30.1,2.19,10.3,0,0,0,1,0,623,-1,2811,631,,,,,,,,,,,,,,,,
370443,1622993479001,44,29,20,21,40,38,-1,-0.92,0.22,-0.56,3,4,3,0.95,0,83,7751,12,26,36,0.977,61.9,611,4.94,13.4,16.0,1,30.1,2.16,10.3,0,0,0,1,0,622,-1,4104,619,45.69923,4.910254,69.69,198.9,9,3,1.8,0,0.0,-1,0.0,0.0,0.0,0,3.47,6.174
370463,1622993479021,,,,,,,,-0.91,0.23,-0.36,3,2,1,0.94,,83,7594,12,26,37,0.984,61.6,586,4.94,13.3,16.0,1,30.4,2.21,10.3,0,0,0,1,0,616,-1,-29302,616,,,,,,,,,,,,,,,,
370483,1622993479041,,,,,,,,-0.92,0.18,-0.16,3,1,0,0.94,,83,7455,12,26,37,0.991,61.4,581,4.94,13.3,12.2,1,30.4,2.21,7.6,0,0,0,1,0,598,-1,2790,607,,,,,,,,,,,,,,,,
370503,1622993479061,,,,,,,,-0.87,0.15,0.02,3,0,1,0.89,,83,7376,12,26,38,0.998,60.1,578,4.96,13.4,12.2,1,30.7,2.26,7.6,0,0,0,1,0,593,-1,-14707,595,,,,,,,,,,,,,,,,
370523,1622993479081,,,,,,,,-0.86,0.11,-0.01,2,0,2,0.86,,83,7341,12,26,39,1.002,60.1,575,4.87,13.4,12.2,1,31.0,2.32,7.6,0,0,0,1,0,587,-1,-29302,601,,,,,,,,,,,,,,,,
370543,1622993479107,25,15,21,20,40,38,-1,-0.84,0.07,-0.18,2,0,3,0.85,0,83,7307,12,26,39,1.009,58.9,565,4.9,13.4,12.2,1,31.0,2.32,7.6,0,0,0,1,0,573,-1,-6458,589,45.699215,4.910243,66.04,198.8,9,3,1.8,0,0.0,-1,0.0,,0.0,0,3.48,6.1757
370563,1622993479127,,,,,,,,-0.85,0.07,-0.33,1,1,3,0.85,,83,7233,12,26,40,1.013,59.5,563,4.95,13.2,12.2,1,31.3,2.32,7.6,0,0,0,1,0,587,-1,-6656,595,,,,,,,,,,,,,,,,
370583,1622993479147,,,,,,,,-0.88,0.07,-0.47,0,1,2,0.88,,83,7236,12,26,41,1.017,58.7,555,4.97,13.3,13.0,1,31.8,2.31,7.7,0,0,0,1,0,581,-1,-768,587,,,,,,,,,,,,,,,,
370603,1622993479167,,,,,,,,-0.97,0.06,-0.26,-0,0,0,0.97,,83,7253,12,26,41,1.01,58.2,562,4.93,13.3,13.0,1,31.7,2.31,7.7,0,0,0,1,0,569,-1,-23623,582,,,,,,,,,,,,,,,,
370623,1622993479187,,,,,,,,-0.97,0.05,-0.19,-1,-0,0,0.97,,83,7338,12,26,42,1.006,57.6,559,4.92,13.3,13.0,1,32.2,2.31,7.7,0,0,0,1,0,537,-1,-8187,572,,,,,,,,,,,,,,,,
370643,1622993479207,26,17,22,20,37,38,-1,-0.99,0.05,-0.19,-1,-2,-1,1.0,0,83,7560,12,26,42,0.999,56.8,549,4.97,13.3,13.0,1,32.5,2.32,7.7,0,0,0,1,0,523,-1,-22263,565,45.6992,4.910232,62.37,198.8,9,3,1.8,0,0.0,-1,0.0,0.0,0.0,0,3.48,6.1774
370663,1622993479227,,,,,,,,-1.03,-0.04,-0.34,-2,-1,-1,1.03,,83,7706,12,26,42,0.994,56.9,569,4.93,13.4,13.0,1,32.7,2.32,7.7,0,0,0,1,0,534,-1,-30064,569,,,,,,,,,,,,,,,,
370683,1622993479247,,,,,,,,-0.96,-0.03,-0.38,-2,-1,-1,0.96,,83,7992,12,26,42,0.967,55.8,600,4.92,13.2,14.9,1,33.0,2.34,8.4,0,0,0,1,0,528,-1,-506,559,,,,,,,,,,,,,,,,
370703,1622993479267,,,,,,,,-0.95,-0.09,-0.26,-3,-2,-2,0.95,,83,8169,13,26,41,0.944,54.3,603,4.87,13.4,14.9,1,32.6,2.49,8.4,0,0,0,1,0,534,-1,-14,543,,,,,,,,,,,,,,,,
370723,1622993479287,,,,,,,,-0.97,-0.09,-0.4,-3,-1,-1,0.98,,83,8348,13,26,41,0.927,54.5,619,5.01,13.3,14.9,1,33.0,2.66,8.4,0,0,0,1,0,512,-1,17136,539,,,,,,,,,,,,,,,,
370743,1622993479302,27,16,22,20,38,38,3,-1.02,-0.1,-0.54,-3,0,1,1.03,0,83,8461,13,26,40,0.897,54.1,634,4.93,13.3,14.9,1,32.5,2.75,8.4,0,0,0,1,0,517,8195,10408,541,45.699188,4.910221,59.36,198.8,9,3,1.8,0,0.0,-1,0.0,,0.0,0,3.48,6.179
370763,1622993479322,,,,,,,,-1.05,0.02,-0.36,-3,-0,-1,1.05,,83,8499,13,26,39,0.876,53.2,640,4.9,13.3,14.9,1,31.9,2.76,8.4,0,0,0,1,0,525,-1,6274,537,,,,,,,,,,,,,,,,
370783,1622993479342,,,,,,,,-1.0,0.01,-0.41,-3,-1,-1,1.0,,83,8518,14,26,39,0.861,52.2,641,4.95,13.3,20.6,1,32.0,2.77,10.9,0,0,0,1,0,523,-1,-32248,527,,,,,,,,,,,,,,,,
370803,1622993479362,,,,,,,,-0.98,-0.02,-0.55,-3,-0,0,0.98,,83,8542,15,26,39,0.835,51.5,637,4.92,13.3,20.6,1,32.0,2.77,10.9,0,0,0,1,0,519,-1281,-8187,515,,,,,,,,,,,,,,,,
370823,1622993479382,,,,,,,,-1.0,0.06,-0.41,-2,-1,-0,1.0,,83,8468,15,26,39,0.819,51.1,632,4.95,13.2,20.6,1,31.9,2.74,10.9,0,0,0,1,0,516,-1281,10994,511,,,,,,,,,,,,,,,,
370843,1622993479408,23,16,22,22,38,36,2,-0.95,0.09,-0.31,-2,-1,0,0.96,0,83,8526,15,26,40,0.8,51.2,632,4.96,13.2,20.6,1,32.6,2.77,10.9,0,0,0,1,0,514,250,-32248,502,45.699177,4.910211,56.2,198.8,9,3,1.8,0,0.0,-1,0.0,0.0,0.0,0,3.48,6.1807
370863,1622993479428,,,,,,,,-0.9,-0.02,-0.45,-1,-1,1,0.9,,83,8522,16,26,40,0.786,50.6,638,4.94,13.3,20.6,1,32.6,2.79,10.9,0,0,0,1,0,507,250,10408,504,,,,,,,,,,,,,,,,
370883,1622993479448,,,,,,,,-0.89,0.03,-0.58,-1,-1,1,0.89,,83,8561,16,26,40,0.772,50.2,642,4.91,13.4,21.9,1,32.6,2.81,11.0,0,0,0,1,0,504,250,-22519,502,,,,,,,,,,,,,,,,
370903,1622993479468,,,,,,,,-0.8,0.1,-0.58,-1,-0,2,0.81,,83,8472,16,26,41,0.761,49.4,640,4.91,13.3,21.9,1,33.1,2.78,11.0,0,0,0,1,0,503,24067,2109,494,,,,,,,,,,,,,,,,
370923,1622993479488,,,,,,,,-0.79,0.07,-0.51,-0,-2,0,0.79,,83,8230,16,26,41,0.752,49.4,622,4.85,13.3,21.9,1,32.7,2.57,11.0,0,0,0,1,0,510,11264,-21872,494,,,,,,,,,,,,,,,,
370943,1622993479506,25,17,23,25,36,35,2,-0.77,0.17,-0.63,-0,-0,1,0.79,0,83,7934,16,26,43,0.747,48.7,613,5.0,13.2,21.9,1,33.6,2.35,11.0,0,0,0,1,0,505,11264,-28648,487,45.699165,4.910202,53.57,198.8,9,3,1.8,0,0.0,-1,0.0,,0.0,0,3.48,6.1824
370963,1622993479526,,,,,,,,-0.73,0.25,-0.74,0,1,2,0.77,,83,7754,16,26,44,0.744,48.5,607,4.93,13.2,21.9,1,34.0,2.33,11.0,0,0,0,1,0,499,11264,2524,485,,,,,,,,,,,,,,,,
370983,1622993479546,,,,,,,,-0.68,0.24,-0.74,0,1,3,0.72,,83,7600,16,26,46,0.739,48.0,593,4.89,13.3,17.2,1,34.7,2.32,8.3,0,0,0,1,0,495,11264,-6528,480,,,,,,,,,,,,,,,,
371003,1622993479566,,,,,,,,-0.64,0.31,-0.63,0,1,3,0.71,,83,7560,16,26,47,0.735,47.9,588,4.9,13.4,17.2,1,35.1,2.32,8.3,0,0,0,1,0,485,11264,-10483,479,,,,,,,,,,,,,,,,
371023,1622993479586,,,,,,,,-0.55,0.32,-0.41,0,0,3,0.64,,83,7588,16,26,48,0.732,47.7,583,4.83,13.4,17.2,1,35.4,2.34,8.3,0,0,0,1,0,480,11264,3580,477,,,,,,,,,,,,,,,,
371043,1622993479606,25,14,26,26,36,35,-0,-0.53,0.36,-0.24,0,-1,2,0.64,0,83,7628,16,26,49,0.727,46.8,588,4.94,13.4,17.2,1,35.7,2.35,8.3,0,0,0,1,0,478,11264,-23367,468,45.699154,4.910192,51.77,198.7,9,3,1.8,0,0.0,-1,0.0,0.0,0.0,0,3.48,6.1841
371063,1622993479626,,,,,,,,-0.53,0.29,-0.09,0,-2,1,0.6,,83,7662,16,26,49,0.724,46.5,591,4.88,13.4,17.2,1,35.8,2.36,8.3,0,0,0,1,0,476,11264,10305,465,,,,,,,,,,,,,,,,
371083,1622993479646,,,,,,,,-0.52,0.2,-0.04,0,-2,-0,0.56,,83,7628,16,26,50,0.721,46.7,590,4.96,13.3,17.6,1,35.9,2.36,8.3,0,0,0,1,0,474,11264,-17956,466,,,,,,,,,,,,,,,,
371103,1622993479666,,,,,,,,-0.55,0.15,0.01,-0,-3,-2,0.57,,83,7566,16,26,50,0.719,46.6,591,4.96,13.3,17.6,1,35.7,2.35,8.3,0,0,0,1,0,471,11264,-1923,470,,,,,,,,,,,,,,,,
371123,1622993479686,,,,,,,,-0.56,0.04,0.06,-0,-3,-4,0.56,,83,7482,16,26,51,0.717,46.1,587,4.97,13.4,17.6,1,35.7,2.35,8.3,0,0,0,1,0,469,11264,32033,461,,,,,,,,,,,,,,,,
371143,1622993479708,25,14,26,26,35,35,0,-0.53,0.01,0.22,-0,-5,-4,0.53,0,83,7399,16,26,51,0.716,45.7,580,4.92,13.4,17.6,1,35.5,2.33,8.3,0,0,0,1,0,463,11264,30272,457,45.699142,4.910183,49.91,198.7,9,3,1.8,0,0.0,-1,0.0,,0.0,0,3.49,6.1857
371163,1622993479728,,,,,,,,-0.49,0.03,0.21,-0,-5,-3,0.49,,83,7327,16,26,52,0.717,45.5,569,4.9,13.4,17.6,1,35.6,2.32,8.3,0,0,0,1,0,463,11264,30272,449,,,,,,,,,,,,,,,,
371183,1622993479748,,,,,,,,-0.48,0.09,0.07,-0,-4,-1,0.49,,83,7239,16,26,53,0.724,45.3,563,4.93,13.4,17.2,1,35.8,2.31,7.8,0,0,0,1,0,460,11264,-23623,450,,,,,,,,,,,,,,,,
371203,1622993479768,,,,,,,,-0.56,0.09,-0.1,0,-3,-1,0.57,,83,7107,16,26,54,0.728,44.2,568,4.93,13.3,17.2,1,36.0,2.29,7.8,0,0,0,1,0,456,11264,-8985,442,,,,,,,,,,,,,,,,
371223,1622993479788,,,,,,,,-0.56,0.08,0.07,-0,-4,-3,0.56,,83,6988,16,26,54,0.735,44.2,555,4.95,13.2,17.2,1,35.8,2.27,7.8,0,0,0,1,0,452,11264,15649,439,,,,,,,,,,,,,,,,
371243,1622993479808,32,20,26,26,36,35,0,-0.55,0.07,-0.1,0,-2,0,0.55,0,83,6959,16,26,55,0.743,43.7,543,4.87,13.4,17.2,1,36.0,2.3,7.8,0,0,0,1,0,441,11264,26704,437,45.699131,4.910175,48.25,198.7,9,3,1.8,0,0.0,-1,0.0,0.0,0.0,0,3.49,6.1874
371263,1622993479828,,,,,,,,-0.59,0.04,-0.23,-0,-2,-2,0.59,,83,6888,16,26,55,0.759,43.0,544,4.9,13.3,17.2,1,35.8,2.33,7.8,0,0,0,1,0,435,11264,243,430,,,,,,,,,,,,,,,,
371283,1622993479848,,,,,,,,-0.56,0.11,-0.11,0,-2,-1,0.57,,83,6895,16,26,56,0.77,42.7,536,4.95,13.4,17.2,1,36.1,2.33,7.4,0,0,0,1,0,429,11264,13180,427,,,,,,,,,,,,,,,,
371303,1622993479868,,,,,,,,-0.58,0.1,-0.27,0,-1,0,0.59,,83,6875,16,26,56,0.786,42.4,534,4.9,13.4,17.2,1,36.0,2.33,7.4,0,0,0,1,0,430,11264,-3314,424,,,,,,,,,,,,,,,,
371323,1622993479888,,,,,,,,-0.57,0.08,-0.08,0,-3,-2,0.57,,83,6890,16,26,57,0.799,42.2,535,4.97,13.3,17.2,1,36.4,2.37,7.4,0,0,0,1,0,427,11264,-4082,422,,,,,,,,,,,,,,,,
371343,1622993479908,31,21,25,26,37,36,1,-0.61,0.13,-0.24,0,0,1,0.63,0,83,6828,16,26,57,0.826,40.6,527,4.95,13.4,17.2,1,36.2,2.36,7.4,0,0,0,1,0,422,11264,-21792,406,45.69912,4.910166,45.99,198.7,9,3,1.8,0,0.0,-1,0.0,,0.0,0,3.49,6.1891
371363,1622993479928,,,,,,,,-0.57,0.16,-0.05,0,-2,-2,0.59,,83,6727,16,26,58,0.843,41.4,525,4.9,13.2,17.2,1,36.1,2.37,7.4,0,0,0,1,0,418,11264,-21792,414,,,,,,,,,,,,,,,,
371383,1622993479948,,,,,,,,-0.65,0.04,-0.22,0,-0,-1,0.65,,83,6583,16,27,58,0.87,40.6,515,4.9,13.4,17.5,1,35.6,2.34,7.2,0,0,0,1,0,419,11264,-21792,410,,,,,,,,,,,,,,,,
371403,1622993479968,,,,,,,,-0.63,0.13,-0.37,0,1,1,0.65,,83,6430,16,27,58,0.89,40.9,511,4.96,13.4,17.5,1,35.0,2.31,7.2,0,0,0,1,0,417,11264,18584,409,,,,,,,,,,,,,,,,
371423,1622993479988,,,,,,,,-0.55,0.12,-0.17,0,-2,-1,0.56,,84,6469,16,27,59,0.923,40.7,504,4.91,13.2,17.5,1,35.4,2.33,7.2,0,0,0,1,0,413,250,-9166,407,,,,,,,,,,,,,,,,
371443,1622993480004,9,6,27,26,35,34,1,-0.57,0.04,-0.32,0,-2,-1,0.57,0,83,6505,16,27,59,0.943,40.8,503,4.95,13.4,17.5,1,35.6,2.34,7.2,0,0,0,1,0,411,250,9517,407,45.699112,4.910159,43.94,198.7,9,3,1.8,0,0.0,-1,0.0,0.0,0.0,0,3.49,6.1907
371463,1622993480024,,,,,,,,-0.5,0.1,-0.46,0,-1,1,0.51,,83,6558,16,27,59,0.971,40.1,502,4.94,13.4,17.5,1,35.8,2.35,7.2,0,0,0,1,0,409,250,11560,401,,,,,,,,,,,,,,,,
371483,1622993480044,,,,,,,,-0.44,0.02,-0.26,-0,-3,-2,0.44,,83,6618,16,27,59,0.998,40.5,510,4.95,13.3,17.7,1,36.0,2.37,7.2,0,0,0,1,0,412,250,-9166,405,,,,,,,,,,,,,,,,
371503,1622993480064,,,,,,,,-0.46,0.07,-0.4,-0,-1,1,0.46,,83,6576,16,27,59,1.024,40.9,507,4.9,13.4,17.7,1,35.9,2.36,7.2,0,0,0,1,0,410,250,11560,403,,,,,,,,,,,,,,,,
371523,1622993480084,,,,,,,,-0.39,0.13,-0.2,-0,-3,-0,0.41,,83,6535,16,27,59,1.04,40.5,504,4.93,13.3,17.7,1,35.7,2.35,7.2,0,0,0,1,0,409,250,10392,405,,,,,,,,,,,,,,,,
371543,1622993480106,8,6,31,29,34,32,-1,-0.38,0.02,-0.26,-0,-4,-2,0.38,0,83,6503,16,27,59,1.067,40.2,504,4.9,13.3,17.7,1,35.6,2.34,7.2,0,0,0,1,0,409,250,10392,402,45.6991,4.910151,42.46,198.6,9,3,1.8,0,0.0,-1,0.0,,0.0,0,3.49,6.1924
371563,1622993480126,,,,,,,,-0.41,0.04,-0.4,-1,-1,2,0.41,,83,6447,16,27,59,1.083,40.5,500,4.91,13.4,17.7,1,35.3,2.33,7.2,0,0,0,1,0,407,250,9517,400,,,,,,,,,,,,,,,,
371583,1622993480146,,,,,,,,-0.33,0.1,-0.2,-1,-1,2,0.35,,83,6436,16,27,60,1.09,40.3,493,4.97,13.4,17.2,1,35.6,1.18,6.9,0,0,0,1,0,409,250,10392,403,,,,,,,,,,,,,,,,
371603,1622993480166,,,,,,,,-0.24,0.04,-0.02,-1,-4,-2,0.24,,84,6379,16,27,60,1.093,39.6,486,4.95,13.3,17.2,1,35.3,2.32,6.9,0,0,0,1,0,408,250,2524,396,,,,,,,,,,,,,,,,
371623,1622993480186,,,,,,,,-0.34,0.0,-0.19,-2,-3,-3,0.34,,84,6384,16,27,60,1.098,39.9,490,4.84,13.4,17.2,1,35.4,2.33,6.9,0,0,0,1,0,407,250,-9211,403,,,,,,,,,,,,,,,,
371643,1622993480208,18,12,34,29,32,33,-8,-0.39,-0.02,-0.34,-2,1,1,0.39,0,84,6401,16,27,60,1.102,39.4,499,4.98,13.4,17.2,1,35.4,2.33,6.9,0,0,0,1,0,400,250,1504,394,45.699093,4.910143,41.89,198.6,9,3,1.8,0,0.0,-1,0.0,0.0,0.0,0,3.49,6.194
371663,1622993480228,,,,,,,,-0.33,-0.03,-0.14,-3,-0,1,0.33,,84,6432,16,27,60,1.099,40.0,506,5.0,13.4,17.2,1,35.6,2.33,6.9,0,0,0,1,0,399,250,10541,400,,,,,,,,,,,,,,,,
371683,1622993480248,,,,,,,,-0.26,-0.16,0.04,-4,-3,-2,0.31,,84,6423,16,27,60,1.093,39.6,509,4.87,13.2,17.7,1,35.5,2.33,7.0,0,0,0,1,0,398,250,11545,396,,,,,,,,,,,,,,,,
371703,1622993480268,,,,,,,,-0.32,-0.17,-0.13,-5,-1,-2,0.36,,84,6412,16,27,60,1.088,39.6,500,4.92,13.4,17.7,1,35.5,2.35,7.0,0,0,0,1,0,394,250,-8151,391,,,,,,,,,,,,,,,,
371723,1622993480288,,,,,,,,-0.39,-0.16,-0.29,-6,3,1,0.42,,84,6364,16,27,61,1.084,39.3,491,4.97,13.4,17.7,1,35.6,2.33,7.0,0,0,0,1,0,394,250,28696,393,,,,,,,,,,,,,,,,
371743,1622993480307,38,27,34,27,34,36,-21,-0.39,-0.21,-0.1,-7,5,3,0.45,0,84,6260,16,27,61,1.078,38.4,484,5.01,13.4,17.7,1,35.1,2.29,7.0,0,0,0,1,0,388,250,17144,384,45.699081,4.910136,41.49,198.6,9,3,1.8,0,0.0,-1,0.0,,0.0,0,3.49,6.1957
371763,1622993480327,,,,,,,,-0.37,-0.32,0.08,-8,3,1,0.49,,84,6149,16,27,62,1.068,38.6,482,4.88,13.2,17.7,1,34.9,2.43,7.0,0,0,0,1,0,388,250,1,386,,,,,,,,,,,,,,,,
371783,1622993480347,,,,,,,,-0.31,-0.33,0.24,-9,0,-1,0.45,,84,5988,16,27,63,1.061,38.5,473,4.87,13.2,17.5,1,34.4,2.55,6.7,0,0,0,1,0,384,250,-19126,385,,,,,,,,,,,,,,,,
371803,1622993480367,,,,,,,,-0.35,-0.33,0.38,-11,1,-0,0.48,,84,5883,16,27,64,1.056,37.6,451,4.94,13.4,17.5,1,34.6,1.6,6.7,0,0,0,1,0,382,250,-992,380,,,,,,,,,,,,,,,,
371823,1622993480387,,,,,,,,-0.43,-0.35,0.19,-12,4,2,0.55,,84,5771,16,27,65,1.052,37.2,435,4.98,13.4,17.5,1,34.9,2.93,6.7,0,0,0,1,0,368,250,-6656,373,,,,,,,,,,,,,,,,
371843,1622993480405,55,39,29,21,36,40,-34,-0.56,-0.39,0.0,-14,8,4,0.68,0,84,5721,16,27,67,1.056,36.7,430,4.97,13.4,17.5,1,35.4,3.21,6.7,0,0,0,1,0,354,250,-1268,372,45.699078,4.910128,40.45,198.5,9,3,1.8,0,0.0,-1,0.0,0.0,0.0,0,3.49,6.1974
371863,1622993480425,,,,,,,,-0.62,-0.37,-0.09,-15,6,2,0.72,,84,5642,16,27,68,1.059,36.3,442,4.96,13.4,17.5,1,35.8,3.34,6.7,0,0,0,1,0,348,250,-29978,359,,,,,,,,,,,,,,,,
371883,1622993480445,,,,,,,,-0.59,-0.48,0.09,-17,2,-1,0.76,,84,5583,16,27,69,1.061,34.6,432,4.86,13.3,24.9,1,36.0,3.4,8.8,0,0,0,1,0,339,250,-6640,342,,,,,,,,,,,,,,,,
371903,1622993480465,,,,,,,,-0.7,-0.43,-0.09,-18,7,3,0.82,,84,5488,16,27,71,1.062,34.2,417,5.01,13.4,24.9,1,36.5,3.51,8.8,0,0,0,1,0,330,250,-31206,342,,,,,,,,,,,,,,,,
371923,1622993480485,,,,,,,,-0.68,-0.31,0.09,-19,2,-1,0.75,,84,5316,16,27,72,1.066,33.4,405,5.01,13.5,24.9,1,37.0,3.46,8.8,0,0,0,1,0,344,250,-10554,334,,,,,,,,,,,,,,,,
371943,1622993480509,55,39,24,18,37,43,-47,-0.79,-0.2,-0.09,-19,6,4,0.81,0,84,5252,16,27,73,1.067,31.4,397,4.83,13.3,24.9,1,37.3,3.54,8.8,0,0,0,1,0,334,250,2560,300,45.699066,4.91012,38.1,198.5,9,3,1.8,0,0.0,-1,0.0,,0.0,0,3.5,6.199
371963,1622993480529,,,,,,,,-0.79,-0.16,0.09,-20,2,2,0.81,,84,5189,16,27,74,1.068,27.2,392,4.95,13.4,24.9,1,37.6,3.58,8.8,0,0,0,1,0,322,250,-22016,272,,,,,,,,,,,,,,,,
371983,1622993480549,,,,,,,,-0.82,-0.18,-0.09,-20,5,6,0.84,,84,5163,16,27,75,1.065,24.9,390,4.92,13.3,31.9,1,37.9,3.61,8.5,0,0,0,1,0,302,250,-29696,249,,,,,,,,,,,,,,,,
372003,1622993480569,,,,,,,,-0.82,-0.12,0.09,-19,2,3,0.83,,84,5026,16,27,75,1.058,22.2,389,4.94,13.4,31.9,1,38.1,3.59,8.5,0,0,0,1,0,312,250,-28416,222,,,,,,,,,,,,,,,,
372023,1622993480589,,,,,,,,-0.77,-0.11,-0.09,-18,1,3,0.77,,84,4905,15,27,76,1.05,20.4,375,4.98,13.4,31.9,1,37.0,3.48,8.5,0,0,0,1,0,309,250,130,204,,,,,,,,,,,,,,,,
372043,1622993480607,37,24,21,22,36,38,-67,-0.71,-0.12,-0.25,-18,1,3,0.73,0,84,4755,14,27,77,1.043,17.6,363,4.93,13.5,31.9,1,35.1,3.33,8.5,0,0,0,1,0,307,250,115,176,45.699059,4.910113,34.43,198.4,9,3,1.8,0,0.0,-1,0.0,0.0,0.0,0,3.5,6.2007
372063,1622993480627,,,,,,,,-0.69,-0.16,-0.39,-17,3,4,0.71,,84,4598,13,27,76,1.033,16.8,351,4.91,13.4,31.9,1,32.6,2.01,8.5,0,0,0,1,0,302,250,25600,168,,,,,,,,,,,,,,,,
372083,1622993480647,,,,,,,,-0.69,-0.18,-0.53,-16,3,6,0.72,,84,4629,12,27,76,1.018,16.4,348,4.95,13.4,41.4,1,33.0,3.2,6.8,0,0,0,1,0,297,250,85,171,,,,,,,,,,,,,,,,
372103,1622993480667,,,,,,,,-0.74,-0.18,-0.65,-15,6,7,0.76,,84,4639,10,27,75,1.003,19.4,357,4.92,13.3,41.4,1,32.9,2.04,6.8,0,0,0,1,0,295,250,0,194,,,,,,,,,,,,,,,,
372123,1622993480687,,,,,,,,-0.75,-0.18,-0.76,-15,6,7,0.78,,84,4626,9,27,74,0.988,23.5,351,4.91,13.2,41.4,1,32.3,3.15,6.8,0,0,0,1,0,295,250,41,235,,,,,,,,,,,,,,,,
372143,1622993480707,24,15,25,22,36,37,-70,-0.8,-0.15,-0.61,-15,6,6,0.81,0,84,4567,9,27,72,0.971,24.6,346,4.95,13.2,41.4,1,31.2,1.92,6.8,0,0,0,1,0,286,250,0,246,45.699055,4.910106,31.76,198.4,9,3,1.8,0,0.0,-1,0.0,,0.0,0,3.5,6.2024
372163,1622993480727,,,,,,,,-0.81,-0.13,-0.51,-15,7,6,0.82,,84,4500,8,27,71,0.947,24.2,343,4.93,13.2,41.4,1,30.0,3.02,6.8,0,0,0,1,0,280,250,-16896,242,,,,,,,,,,,,,,,,
372183,1622993480747,,,,,,,,-0.83,-0.1,-0.57,-15,8,6,0.84,,84,4412,7,27,69,0.926,23.4,336,4.93,13.2,25.6,1,28.3,2.95,6.1,0,0,0,1,0,278,250,24064,234,,,,,,,,,,,,,,,,
372203,1622993480767,,,,,,,,-0.84,-0.08,-0.69,-15,8,6,0.85,,84,4358,7,27,68,0.906,22.4,335,4.94,13.2,25.6,1,27.4,2.93,6.1,0,0,0,1,0,275,250,-1527,224,,,,,,,,,,,,,,,,
372223,1622993480787,,,,,,,,-0.8,-0.11,-0.8,-15,9,6,0.81,,84,4288,7,27,68,0.888,21.6,327,4.93,13.4,25.6,1,26.4,2.89,6.1,0,0,0,1,0,270,250,-1,216,,,,,,,,,,,,,,,,
372243,1622993480809,33,21,26,24,35,38,-72,-0.75,-0.16,-0.9,-15,7,6,0.77,0,84,4208,7,27,67,0.879,21.9,325,4.96,13.5,25.6,1,25.0,2.8,6.1,0,0,0,1,0,267,250,-1,219,45.699047,4.910099,29.5,198.3,9,3,1.8,0,0.0,-1,0.0,0.0,0.0,0,3.5,6.2041
372263,1622993480829,,,,,,,,-0.78,-0.19,-0.7,-15,7,4,0.8,,84,4160,7,27,65,0.872,21.6,321,4.93,13.5,25.6,1,23.8,2.7,6.1,0,0,0,1,0,259,250,-1,216,,,,,,,,,,,,,,,,
372283,1622993480849,,,,,,,,-0.81,-0.15,-0.55,-15,7,4,0.82,,84,4109,7,27,65,0.862,20.0,319,4.92,13.2,24.1,1,23.2,2.68,5.1,0,0,0,1,0,252,250,14337,200,,,,,,,,,,,,,,,,
372303,1622993480869,,,,,,,,-0.77,-0.12,-0.67,-15,6,3,0.78,,84,4051,7,27,64,0.853,18.2,311,4.97,13.5,24.1,1,22.1,2.61,5.1,0,0,0,1,0,250,250,-1,182,,,,,,,,,,,,,,,,
372323,1622993480889,,,,,,,,-0.82,-0.08,-0.59,-15,6,3,0.82,,84,3906,7,27,63,0.851,17.1,304,4.94,13.5,24.1,1,20.2,2.58,5.1,0,0,0,1,0,245,250,-1494,171,,,,,,,,,,,,,,,,
372343,1622993480909,38,26,24,23,36,38,-63,-0.8,-0.08,-0.71,-14,6,3,0.8,0,84,3828,7,27,63,0.85,16.8,297,4.94,13.2,24.1,1,18.6,2.59,5.1,0,0,0,1,0,241,250,250,168,45.699043,4.910092,27.56,198.3,9,3,1.8,0,0.0,-1,0.0,,0.0,0,3.5,6.2057
372363,1622993480929,,,,,,,,-0.83,-0.06,-0.53,-14,6,2,0.83,,84,3617,7,27,64,0.847,18.2,288,4.98,13.5,24.1,1,17.2,2.62,5.1,0,0,0,1,0,236,250,250,182,,,,,,,,,,,,,,,,
372383,1622993480949,,,,,,,,-0.83,-0.07,-0.54,-14,5,2,0.83,,84,3393,7,27,64,0.846,18.4,278,4.93,13.5,23.3,1,16.0,2.66,4.3,0,0,0,1,0,228,250,18432,184,,,,,,,,,,,,,,,,
372403,1622993480969,,,,,,,,-0.85,-0.08,-0.61,-14,5,2,0.85,,84,3174,7,27,65,0.848,18.2,267,4.96,13.4,23.3,1,16.4,2.68,4.3,0,0,0,1,0,215,250,-1530,182,,,,,,,,,,,,,,,,
372423,1622993480989,,,,,,,,-0.87,-0.11,-0.67,-14,4,2,0.87,,84,3123,7,27,65,0.849,18.2,257,4.97,13.4,23.3,1,16.4,2.68,4.3,0,0,0,1,0,208,250,1088,182,,,,,,,,,,,,,,,,
372443,1622993481003,40,24,24,21,37,40,-56,-0.88,-0.15,-0.7,-15,3,1,0.89,0,84,3022,7,27,66,0.851,18.6,254,4.95,13.4,23.3,1,16.7,2.71,4.3,0,0,0,1,0,198,250,-29696,186,45.699036,4.910086,24.84,198.2,9,3,1.8,0,0.0,-1,0.0,0.0,0.0,0,3.5,6.2074
372463,1622993481023,,,,,,,,-0.88,-0.21,-0.75,-16,3,1,0.9,,84,2956,7,27,66,0.853,19.5,246,4.98,13.5,23.3,1,16.6,2.66,4.3,0,0,0,1,0,184,-1,-1482,195,,,,,,,,,,,,,,,,
372483,1622993481043,,,,,,,,-0.87,-0.19,-0.74,-17,3,1,0.89,,84,2946,7,27,67,0.854,19.6,243,5.02,13.5,18.9,1,16.9,2.68,3.7,0,0,0,1,0,176,-1,-1481,196,,,,,,,,,,,,,,,,
372503,1622993481063,,,,,,,,-0.89,-0.17,-0.74,-18,3,1,0.91,,84,2900,7,27,68,0.856,19.1,241,4.97,13.5,18.9,1,17.2,2.66,3.7,0,0,0,1,0,163,-1,14326,191,,,,,,,,,,,,,,,,
372523,1622993481083,,,,,,,,-0.92,-0.15,-0.73,-19,3,0,0.93,,84,2825,8,27,69,0.858,19.0,234,4.96,13.5,18.9,1,17.0,2.63,3.7,0,0,0,1,0,140,-1,-1,190,,,,,,,,,,,,,,,,
372543,1622993481109,40,28,23,19,38,42,-22,-0.93,-0.13,-0.73,-20,3,1,0.94,0,84,2736,8,27,69,0.859,18.5,231,4.96,13.5,18.9,1,16.7,2.56,3.7,0,0,0,1,0,131,-1,-1,185,45.699036,4.91008,21.39,198.2,9,3,1.8,0,0.0,-1,0.0,,0.0,0,3.5,6.2091
372563,1622993481129,,,,,,,,-0.93,-0.09,-0.79,-20,3,1,0.94,,84,2535,8,27,70,0.859,18.1,226,4.95,13.3,18.9,1,15.7,2.47,3.7,0,0,0,1,0,149,-1,3584,181,,,,,,,,,,,,,,,,
372583,1622993481149,,,,,,,,-0.94,-0.07,-0.72,-20,3,2,0.94,,84,2465,8,27,72,0.859,16.8,221,4.95,13.5,16.4,1,15.0,2.59,2.9,0,0,0,1,0,152,-1,-1,168,,,,,,,,,,,,,,,,
372603,1622993481169,,,,,,,,-0.94,0.1,-0.62,-19,2,3,0.95,,84,2424,8,27,73,0.858,16.0,216,4.97,13.5,16.4,1,14.8,2.66,2.9,0,0,0,1,0,151,-1,-1,160,,,,,,,,,,,,,,,,
372623,1622993481189,,,,,,,,-0.94,0.14,-0.56,-18,2,4,0.95,,84,2402,8,27,75,0.858,15.2,216,4.93,13.4,16.4,1,14.3,2.81,2.9,0,0,0,1,0,147,-1,-1,152,,,,,,,,,,,,,,,,
372643,1622993481207,35,22,20,22,39,38,16,-0.94,0.17,-0.68,-17,2,4,0.96,0,84,2210,8,27,76,0.857,14.2,205,4.95,13.5,16.4,1,14.0,2.8,2.9,0,0,0,1,0,142,-1,-1,142,45.699032,4.910075,18.23,198.2,9,3,1.8,0,0.0,-1,0.0,0.0,0.0,0,3.5,6.2107
372663,1622993481227,,,,,,,,-0.95,0.2,-0.67,-15,2,3,0.97,,84,2102,9,27,77,0.857,13.7,202,4.95,13.5,16.4,1,13.9,2.93,2.9,0,0,0,1,0,137,-1,-1,137,,,,,,,,,,,,,,,,
372683,1622993481247,,,,,,,,-0.98,0.22,-0.67,-14,2,3,1.0,,84,1904,11,27,79,0.856,13.1,196,4.9,13.2,20.6,1,13.6,3.02,2.7,0,0,0,1,0,132,-1,-1,128,,,,,,,,,,,,,,,,
372703,1622993481267,,,,,,,,-0.97,0.22,-0.7,-12,2,3,0.99,,84,1799,15,27,81,0.855,12.8,187,4.97,13.4,20.6,1,13.3,3.11,2.7,0,0,0,1,0,125,-1,250,120,,,,,,,,,,,,,,,,
372723,1622993481287,,,,,,,,-0.95,0.2,-0.73,-10,1,2,0.97,,84,1702,21,27,86,0.856,12.0,180,4.95,13.4,20.6,1,17.2,5.29,2.7,0,0,0,1,0,119,250,250,120,,,,,,,,,,,,,,,,
372743,1622993481308,25,16,19,22,40,38,20,-0.93,0.18,-0.76,-9,1,2,0.95,0,84,1622,22,27,90,0.856,11.6,176,4.96,13.5,20.6,1,23.0,5.43,2.7,0,0,0,1,0,114,250,13838,115,45.699028,4.910071,14.64,198.2,9,3,1.8,0,0.0,-1,0.0,,0.0,0,3.5,6.2124
372763,1622993481328,,,,,,,,-0.92,0.17,-0.76,-8,0,2,0.93,,84,1596,23,27,94,0.856,11.1,173,4.96,13.5,20.6,1,28.5,5.43,2.7,0,0,0,1,0,110,-1482,3584,108,,,,,,,,,,,,,,,,
372783,1622993481348,,,,,,,,-0.91,0.18,-0.76,-7,0,1,0.93,,84,1586,23,27,96,0.856,10.5,173,4.96,13.5,37.8,1,31.2,5.43,3.9,0,0,0,1,0,110,3584,3584,103,,,,,,,,,,,,,,,,
372803,1622993481368,,,,,,,,-0.89,0.18,-0.78,-5,0,1,0.91,,84,1646,23,27,97,0.857,10.5,173,4.94,13.5,37.8,1,32.6,5.42,3.9,0,0,0,1,0,105,-1483,250,97,,,,,,,,,,,,,,,,
372823,1622993481388,,,,,,,,-0.87,0.15,-0.74,-4,1,1,0.88,,84,1687,29,27,98,0.859,9.9,173,4.96,13.5,37.8,1,34.0,5.4,3.9,0,0,0,1,0,99,-1483,14312,91,,,,,,,,,,,,,,,,
372843,1622993481406,21,12,20,22,38,37,27,-0.79,0.15,-0.85,-3,0,1,0.8,0,84,1993,35,27,98,0.86,9.4,175,4.92,13.4,37.8,1,34.0,5.56,3.9,0,0,0,1,0,93,14312,-1481,91,45.699024,4.910067,11.69,198.2,9,3,1.8,0,0.0,-1,0.0,0.0,0.0,0,3.5,6.214
372863,1622993481426,,,,,,,,-0.68,0.13,-0.83,-3,-1,1,0.69,,84,2095,39,27,98,0.861,8.8,183,4.95,13.5,37.8,1,34.0,5.65,3.9,0,0,0,1,0,91,250,-1481,84,,,,,,,,,,,,,,,,
372883,1622993481446,,,,,,,,-0.61,0.14,-0.78,-2,-2,1,0.63,,84,2107,39,27,98,0.861,8.8,185,4.92,13.3,65.4,1,34.0,5.67,5.5,0,0,0,1,0,91,250,-9728,84,,,,,,,,,,,,,,,,
372903,1622993481466,,,,,,,,-0.56,0.13,-0.88,-1,-2,0,0.57,,84,1814,39,27,98,0.862,8.8,181,4.94,13.4,65.4,1,34.0,5.51,5.5,0,0,0,1,0,94,250,250,84,,,,,,,,,,,,,,,,
372923,1622993481486,,,,,,,,-0.51,0.12,-0.83,-0,-3,0,0.52,,84,1637,39,27,98,0.863,9.4,178,4.97,13.4,65.4,1,34.0,5.4,5.5,0,0,0,1,0,97,14312,-6144,90,,,,,,,,,,,,,,,,
372943,1622993481510,8,5,31,32,32,31,30,-0.49,0.12,-0.91,0,-2,1,0.5,0,84,1438,39,27,98,0.863,9.5,171,4.95,13.4,65.4,1,33.5,5.2,5.5,0,0,0,1,0,98,-1481,14312,90,45.699024,4.910065,9.52,198.2,9,3,1.8,0,0.0,-1,0.0,,0.0,0,3.5,6.2157
372963,1622993481530,,,,,,,,-0.47,0.11,-0.93,1,-2,1,0.49,,84,1438,37,27,98,0.863,9.5,163,4.9,13.1,65.4,1,33.5,5.18,5.5,0,0,0,1,0,98,-1481,14312,91,,,,,,,,,,,,,,,,
372983,1622993481550,,,,,,,,-0.47,0.11,-0.96,2,-1,1,0.48,,84,1208,31,27,99,0.861,9.5,162,4.96,13.4,28.5,1,31.6,2.13,2.6,0,0,0,1,0,98,-1481,250,91,,,,,,,,,,,,,,,,
373003,1622993481570,,,,,,,,-0.46,0.12,-0.92,2,-2,1,0.48,,84,1103,26,27,98,0.859,9.5,155,4.95,13.4,28.5,1,30.8,4.53,2.6,0,0,0,1,0,96,-1481,-9728,89,,,,,,,,,,,,,,,,
373023,1622993481590,,,,,,,,-0.47,0.09,-0.85,3,-3,0,0.48,,84,1249,25,27,98,0.857,9.2,153,5.0,13.4,28.5,1,31.9,4.79,2.6,0,0,0,1,0,94,250,-9728,86,,,,,,,,,,,,,,,,
373043,1622993481608,27,19,31,31,34,32,30,-0.43,0.06,-0.93,3,-4,0,0.43,0,84,1540,25,27,98,0.853,8.7,159,4.95,13.5,28.5,1,34.0,5.32,2.6,0,0,0,1,0,89,-1481,-13312,81,45.69902,4.910062,9.18,198.2,9,3,1.8,0,0.0,-1,0.0,0.0,0.0,0,3.5,6.2174
373063,1622993481628,,,,,,,,-0.38,0.03,-0.95,3,-4,0,0.38,,84,1832,25,27,98,0.846,8.7,169,4.96,13.4,28.5,1,34.0,5.44,2.6,0,0,0,1,0,89,-1481,14270,81,,,,,,,,,,,,,,,,
373083,1622993481648,,,,,,,,-0.36,0.03,-0.93,4,-4,-0,0.36,,84,1928,24,27,98,0.841,8.4,173,4.89,13.2,62.9,1,34.0,2.21,5.1,0,0,0,1,0,87,250,14284,77,,,,,,,,,,,,,,,,
373103,1622993481668,,,,,,,,-0.35,0.04,-0.96,4,-3,-0,0.35,,84,1771,24,27,98,0.833,8.4,173,4.95,13.4,62.9,1,34.0,5.38,5.1,0,0,0,1,0,87,250,14284,77,,,,,,,,,,,,,,,,
373123,1622993481688,,,,,,,,-0.33,0.04,-0.98,4,-3,-0,0.33,,84,1626,22,27,98,0.827,8.4,173,4.96,13.4,62.9,1,34.0,5.3,5.1,0,0,0,1,0,86,250,-1481,78,,,,,,,,,,,,,,,,
373143,1622993481702,29,21,31,32,33,32,30,-0.34,0.06,-0.99,5,-2,-0,0.35,0,84,1435,19,27,98,0.817,8.2,166,4.96,13.4,62.9,1,33.4,5.1,5.1,0,0,0,1,0,86,14270,14270,76,45.69902,4.91006,8.82,198.2,9,3,1.8,0,0.0,-1,0.0,,0.0,0,3.5,6.219
373163,1622993481722,,,,,,,,-0.36,0.06,-1.01,5,-2,-0,0.36,,84,1435,17,27,98,0.811,8.0,162,4.92,13.1,62.9,1,33.4,2.04,5.1,0,0,0,1,0,84,250,14270,76,,,,,,,,,,,,,,,,
373183,1622993481742,,,,,,,,-0.39,0.06,-1.01,5,-1,0,0.4,,84,1121,16,27,98,0.803,8.0,156,4.95,13.2,31.5,1,30.9,1.73,2.3,0,0,0,1,0,79,250,14256,73,,,,,,,,,,,,,,,,
373203,1622993481762,,,,,,,,-0.43,0.06,-0.99,5,-0,-0,0.43,,84,1121,16,28,98,0.796,7.6,140,4.9,13.0,31.5,1,30.9,4.45,2.3,0,0,0,1,0,79,250,14256,73,,,,,,,,,,,,,,,,
373223,1622993481782,,,,,,,,-0.45,0.07,-0.99,5,1,-0,0.46,,84,698,16,28,98,0.793,7.0,145,4.97,13.2,31.5,1,30.0,4.21,2.3,0,0,0,1,0,71,14228,250,68,,,,,,,,,,,,,,,,
373243,1622993481802,45,31,28,28,38,37,31,-0.5,0.04,-0.97,5,1,-0,0.5,0,84,698,16,28,99,0.789,7.0,136,4.95,13.2,31.5,1,30.0,1.96,2.3,0,0,0,1,0,71,14228,250,68,45.699017,4.910058,8.32,198.2,9,3,1.8,0,0.0,-1,0.0,0.0,0.0,0,3.5,6.2207
373263,1622993481822,,,,,,,,-0.58,0.01,-1.04,5,2,-0,0.58,,84,598,16,28,98,0.786,7.0,137,4.91,13.2,31.5,1,30.0,1.61,2.3,0,0,0,1,0,61,-1,-1,58,,,,,,,,,,,,,,,,
373283,1622993481842,,,,,,,,-0.65,0.03,-0.99,5,3,-0,0.65,,84,598,16,28,99,0.783,5.8,136,4.96,13.2,18.9,1,30.0,4.87,1.1,0,0,0,1,0,61,-1,-1,58,,,,,,,,,,,,,,,,
373303,1622993481862,,,,,,,,-0.71,0.02,-0.95,5,3,-0,0.71,,84,598,16,28,99,0.787,5.8,126,4.94,13.2,18.9,1,30.0,1.96,1.1,0,0,0,1,0,61,-1,-1,43,,,,,,,,,,,,,,,,
373323,1622993481882,,,,,,,,-0.76,0.02,-0.98,5,3,-0,0.76,,84,598,17,28,99,0.79,5.8,123,4.95,13.2,18.9,1,30.0,4.87,1.1,0,0,0,1,0,61,-1,-1,43,,,,,,,,,,,,,,,,
373343,1622993481902,72,47,19,19,41,42,34,-0.83,-0.04,-1.03,4,3,-0,0.83,0,84,598,19,28,99,0.794,4.3,118,4.96,13.2,18.9,1,30.0,4.87,1.1,0,0,0,1,0,61,-1,-1,43,45.699017,4.910057,5.63,198.2,9,3,1.8,0,0.0,-1,0.0,,0.0,0,3.5,6.2224
373363,1622993481922,,,,,,,,-0.9,-0.2,-1.11,4,4,2,0.92,,84,598,20,28,99,0.798,4.3,118,4.94,13.2,18.9,1,30.0,4.87,1.1,0,0,0,1,0,61,-1,-1,43,,,,,,,,,,,,,,,,
373383,1622993481942,,,,,,,,-0.87,-0.16,-0.99,3,3,1,0.88,,84,598,24,28,98,0.802,4.3,114,4.93,12.8,25.5,1,30.0,4.2,1.1,0,0,0,1,0,61,-1,-1,43,,,,,,,,,,,,,,,,
373403,1622993481962,,,,,,,,-0.78,-0.12,-1.06,3,2,1,0.79,,84,598,27,28,98,0.806,4.3,114,4.93,12.9,25.5,1,30.0,4.2,1.1,0,0,0,1,0,61,-1,-1,43,,,,,,,,,,,,,,,,
373423,1622993481982,,,,,,,,-0.7,-0.13,-1.04,3,0,1,0.71,,85,598,27,28,98,0.812,4.3,116,4.92,12.9,25.5,1,30.0,1.61,1.1,0,0,0,1,0,61,-1,-1,43,,,,,,,,,,,,,,,,
373443,1622993481994,38,23,22,22,38,38,34,-0.63,-0.11,-1.03,3,-1,1,0.64,0,85,598,27,28,98,0.815,4.3,115,4.94,12.9,25.5,1,30.0,4.33,1.1,0,0,0,1,0,61,-1,-1,43,45.699017,4.910055,2.29,198.2,9,3,1.8,0,0.0,-1,0.0,0.0,0.0,0,3.5,6.2241
373463,1622993482014,,,,,,,,-0.58,-0.07,-0.99,2,-2,1,0.58,,85,598,23,28,98,0.818,4.3,115,4.92,12.9,25.5,1,30.0,1.61,1.1,0,0,0,1,0,61,-1,-1,43,,,,,,,,,,,,,,,,
373483,1622993482034,,,,,,,,-0.53,-0.08,-0.99,2,-2,1,0.54,,85,598,15,28,98,0.818,4.3,115,4.93,12.9,25.5,1,30.0,4.33,1.1,0,0,0,1,0,61,-1,-1,43,,,,,,,,,,,,,,,,
373503,1622993482054,,,,,,,,-0.46,-0.07,-1.01,2,-2,1,0.47,,85,598,10,28,98,0.819,4.3,115,4.93,12.9,25.5,1,30.0,4.33,1.1,0,0,0,1,0,61,-1,-1,43,,,,,,,,,,,,,,,,
373523,1622993482074,,,,,,,,-0.4,-0.06,-1.0,2,-3,1,0.4,,85,598,8,28,98,0.821,4.3,115,4.92,12.9,25.5,1,30.0,4.33,1.1,0,0,0,1,0,61,-1,-1,43,,,,,,,,,,,,,,,,
373543,1622993482102,32,18,33,33,32,31,33,-0.36,-0.06,-0.97,2,-3,1,0.36,0,85,598,8,28,98,0.82,4.3,115,4.91,12.9,25.5,1,30.0,1.61,1.1,0,0,0,1,0,61,-1,-1,43,45.699017,4.910055,0.0,198.2,9,3,1.8,0,0.0,-1,0.0,,0.0,0,3.5,6.2257
373563,1622993482122,,,,,,,,-0.33,-0.06,-0.95,1,-3,1,0.34,,85,598,8,28,98,0.819,4.3,115,4.92,12.9,25.5,1,30.0,4.33,1.1,0,0,0,1,0,61,-1,-1,43,,,,,,,,,,,,,,,,
373583,1622993482142,,,,,,,,-0.31,-0.05,-0.95,1,-2,1,0.32,,85,598,8,28,98,0.818,4.3,116,4.95,12.9,25.5,1,30.0,4.33,1.1,0,0,0,1,0,61,-1,-1,43,,,,,,,,,,,,,,,,
373603,1622993482162,,,,,,,,-0.29,-0.05,-0.96,1,-2,1,0.29,,85,598,8,28,98,0.817,4.3,115,4.91,12.9,25.5,1,30.0,4.33,1.1,0,0,0,1,0,61,-1,-1,43,,,,,,,,,,,,,,,,
373623,1622993482182,,,,,,,,-0.27,-0.04,-0.96,1,-2,1,0.27,,85,0,7,28,98,0.506,0.0,117,4.93,13.2,0.0,1,0.0,0.0,0.0,0,0,0,1,0,0,250,250,0,,,,,,,,,,,,,,,,
373643,1622993482204,31,18,33,34,33,32,34,-0.25,-0.04,-0.98,1,-2,1,0.25,0,84,0,7,28,100,0.534,0.0,118,4.96,13.2,0.0,1,0.0,0.0,0.0,0,0,0,1,0,0,250,250,0,45.699017,4.910055,0.0,198.2,9,3,1.8,0,0.0,-1,0.0,0.0,0.0,0,3.5,6.2274
373663,1622993482224,,,,,,,,-0.23,-0.03,-0.98,1,-1,0,0.24,,84,0,7,28,109,0.562,0.0,118,4.96,13.2,0.0,1,0.0,0.0,0.0,0,0,0,1,0,0,250,250,0,,,,,,,,,,,,,,,,
373683,1622993482244,,,,,,,,-0.21,-0.03,-0.98,1,-1,0,0.21,,84,0,7,28,102,0.589,0.0,118,4.95,13.2,0.0,1,0.0,0.0,0.0,0,0,0,1,0,0,250,250,0,,,,,,,,,,,,,,,,
373703,1622993482264,,,,,,,,-0.19,-0.03,-0.99,1,-1,0,0.19,,84,0,7,28,99,0.617,0.0,118,4.96,13.2,0.0,1,0.0,0.0,0.0,0,0,0,1,0,0,250,250,0,,,,,,,,,,,,,,,,
373723,1622993482284,,,,,,,,-0.18,-0.03,-0.99,1,-1,0,0.18,,84,0,6,28,99,0.646,0.0,118,4.97,13.2,0.0,1,0.0,0.0,0.0,0,0,0,1,0,0,250,250,0,,,,,,,,,,,,,,,,
373743,1622993482303,32,18,33,34,33,32,33,-0.16,-0.03,-0.99,1,-1,0,0.17,0,84,0,4,28,99,0.674,0.0,118,4.94,13.2,0.0,1,0.0,0.0,0.0,0,0,0,1,0,0,250,250,0,45.699017,4.910055,0.0,198.1,9,3,1.8,0,0.0,-1,0.0,,0.0,0,3.5,6.2291
373763,1622993482323,,,,,,,,-0.15,-0.03,-0.98,0,-1,0,0.15,,84,0,4,28,99,0.702,0.0,118,4.95,13.2,0.0,1,0.0,0.0,0.0,0,0,0,1,0,0,250,250,0,,,,,,,,,,,,,,,,
373783,1622993482343,,,,,,,,-0.13,-0.03,-0.97,0,-1,0,0.14,,84,0,4,28,99,0.73,0.0,118,4.95,13.2,0.0,1,0.0,0.0,0.0,0,0,0,1,0,0,250,250,0,,,,,,,,,,,,,,,,
373803,1622993482363,,,,,,,,-0.12,-0.02,-0.98,0,-1,0,0.12,,84,0,4,28,99,0.758,0.0,118,4.95,13.2,0.0,1,0.0,0.0,0.0,0,0,0,1,0,0,250,250,0,,,,,,,,,,,,,,,,
373823,1622993482383,,,,,,,,-0.12,-0.02,-0.99,0,-1,0,0.12,,84,0,4,29,99,0.786,0.0,118,4.97,13.2,0.0,1,0.0,0.0,0.0,0,0,0,1,0,0,250,250,0,,,,,,,,,,,,,,,,
373843,1622993482403,32,20,33,34,33,32,34,-0.11,-0.02,-1.0,0,-1,0,0.12,0,84,0,4,29,99,0.815,0.0,118,4.96,13.2,0.0,1,0.0,0.0,0.0,0,0,0,1,0,0,250,250,0,45.699017,4.910055,0.0,198.1,9,3,1.8,0,0.0,-1,0.0,0.0,0.0,0,3.5,6.2307
373863,1622993482423,,,,,,,,-0.11,-0.03,-1.0,0,-1,0,0.11,,84,0,4,29,99,0.843,0.0,118,4.95,13.2,0.0,1,0.0,0.0,0.0,0,0,0,1,0,0,250,250,0,,,,,,,,,,,,,,,,
373883,1622993482443,,,,,,,,-0.09,-0.02,-1.0,0,-1,0,0.09,,84,0,4,29,99,0.85,0.0,118,4.96,13.2,0.0,1,0.0,0.0,0.0,0,0,0,1,0,0,250,250,0,,,,,,,,,,,,,,,,
373903,1622993482463,,,,,,,,-0.08,-0.02,-0.99,0,-1,0,0.08,,84,0,4,30,99,0.851,0.0,118,4.96,13.2,0.0,1,0.0,0.0,0.0,0,0,0,1,0,0,250,250,0,,,,,,,,,,,,,,,,
373923,1622993482483,,,,,,,,-0.08,-0.01,-0.99,0,-1,0,0.08,,84,0,4,30,99,0.851,0.0,118,4.94,13.2,0.0,1,0.0,0.0,0.0,0,0,0,1,0,0,250,250,0,,,,,,,,,,,,,,,,
373943,1622993482503,32,21,33,34,33,32,34,-0.07,-0.01,-1.0,0,-1,0,0.07,0,84,0,4,30,99,0.851,0.0,118,4.96,13.2,0.0,1,0.0,0.0,0.0,0,0,0,1,0,0,250,250,0,45.699017,4.910055,0.0,198.1,9,3,1.8,0,0.0,-1,0.0,,0.0,0,3.5,6.2324
373963,1622993482523,,,,,,,,-0.06,-0.01,-1.0,0,-1,0,0.06,,84,0,4,30,99,0.852,0.0,118,4.95,13.2,0.0,1,0.0,0.0,0.0,0,0,0,1,0,0,250,250,0,,,,,,,,,,,,,,,,
373983,1622993482543,,,,,,,,-0.06,-0.01,-1.0,0,-1,0,0.06,,84,0,4,31,99,0.852,0.0,118,4.95,13.2,0.0,1,0.0,0.0,0.0,0,0,0,1,0,0,250,250,0,,,,,,,,,,,,,,,,
374003,1622993482563,,,,,,,,-0.06,-0.01,-0.99,0,-1,0,0.06,,84,0,4,31,99,0.852,0.0,118,4.95,13.2,0.0,1,0.0,0.0,0.0,0,0,0,1,0,0,250,250,0,,,,,,,,,,,,,,,,
374023,1622993482583,,,,,,,,-0.06,-0.01,-0.99,0,-0,0,0.06,,84,0,4,31,99,0.853,0.0,118,4.96,13.2,0.0,1,0.0,0.0,0.0,0,0,0,1,0,0,250,250,0,,,,,,,,,,,,,,,,
374043,1622993482603,31,18,33,34,33,32,34,-0.06,-0.01,-1.0,0,-1,-0,0.06,0,84,0,4,31,99,0.853,0.0,118,4.94,13.1,0.0,1,0.0,0.0,0.0,0,0,0,1,0,0,250,250,0,45.699017,4.910055,0.0,198.0,9,3,1.8,0,0.0,-1,0.0,0.0,0.0,0,3.5,6.234
374063,1622993482623,,,,,,,,-0.05,-0.01,-1.0,0,-1,-0,0.05,,84,0,4,31,99,0.853,0.0,118,4.96,13.2,0.0,1,0.0,0.0,0.0,0,0,0,1,0,0,250,250,0,,,,,,,,,,,,,,,,
374083,1622993482643,,,,,,,,-0.05,-0.01,-1.0,-0,-0,-0,0.05,,84,0,4,31,99,0.853,0.0,118,4.95,13.2,0.0,1,0.0,0.0,0.0,0,0,0,1,0,0,250,250,0,,,,,,,,,,,,,,,,
374103,1622993482663,,,,,,,,-0.05,-0.01,-1.0,-0,-0,0,0.05,,85,0,4,32,99,0.853,0.0,118,4.95,13.2,0.0,1,0.0,0.0,0.0,0,0,0,1,0,0,250,250,0,,,,,,,,,,,,,,,,
374123,1622993482683,,,,,,,,-0.04,-0.01,-1.0,-0,-0,0,0.04,,85,0,4,32,99,0.854,0.0,118,4.96,13.2,0.0,1,0.0,0.0,0.0,0,0,0,1,0,0,250,250,0,,,,,,,,,,,,,,,,
374143,1622993482703,29,18,33,34,33,32,34,-0.04,-0.01,-0.99,-0,-0,0,0.04,0,85,0,4,32,99,0.854,0.0,118,4.96,13.2,0.0,1,0.0,0.0,0.0,0,0,0,1,0,0,250,250,0,45.699017,4.910055,0.0,198.0,9,3,1.8,0,0.0,-1,0.0,,0.0,0,3.5,6.2357
374163,1622993482723,,,,,,,,-0.03,-0.01,-0.99,-0,-0,0,0.03,,85,0,4,32,99,0.854,0.0,118,4.93,13.2,0.0,1,0.0,0.0,0.0,0,0,0,1,0,0,250,250,0,,,,,,,,,,,,,,,,
374183,1622993482743,,,,,,,,-0.03,-0.01,-1.0,-0,-0,0,0.03,,85,0,4,32,99,0.855,0.0,118,4.97,13.2,0.0,1,0.0,0.0,0.0,0,0,0,1,0,0,250,250,0,,,,,,,,,,,,,,,,
374203,1622993482763,,,,,,,,-0.03,-0.01,-1.0,-0,-0,0,0.03,,85,0,4,32,99,0.855,0.0,118,4.95,13.2,0.0,1,0.0,0.0,0.0,0,0,0,1,0,0,250,250,0,,,,,,,,,,,,,,,,
374223,1622993482783,,,,,,,,-0.03,-0.01,-1.0,-0,-0,0,0.03,,85,0,5,32,99,0.855,0.0,118,4.95,13.1,0.0,1,0.0,0.0,0.0,0,0,0,1,0,0,250,250,0,,,,,,,,,,,,,,,,
374243,1622993482803,25,13,34,34,33,32,34,-0.03,-0.01,-1.0,-0,-0,0,0.03,0,85,0,8,32,99,0.855,0.0,118,4.95,13.1,0.0,1,0.0,0.0,0.0,0,0,0,1,0,0,250,250,0,45.699017,4.910055,0.0,197.9,9,3,1.8,0,0.0,-1,0.0,0.0,0.0,0,3.5,6.2374
374263,1622993482823,,,,,,,,-0.03,-0.0,-1.0,-0,-0,0,0.03,,85,0,11,32,99,0.855,0.0,118,4.96,13.2,0.0,1,0.0,0.0,0.0,0,0,0,1,0,0,250,250,0,,,,,,,,,,,,,,,,
374283,1622993482843,,,,,,,,-0.03,-0.0,-1.0,-0,-0,0,0.03,,85,0,13,33,99,0.855,0.0,118,4.93,13.2,0.0,1,0.0,0.0,0.0,0,0,0,1,0,0,250,250,0,,,,,,,,,,,,,,,,
374303,1622993482863,,,,,,,,-0.03,-0.01,-1.0,-0,-0,0,0.03,,85,0,16,33,99,0.856,0.0,118,4.97,13.2,0.0,1,0.0,0.0,0.0,0,0,0,1,0,0,250,250,0,,,,,,,,,,,,,,,,
