"Interval"|"ms"|0|0|1,"Utc"|"ms"|0|0|1,"Brake_F"|"Bar"|0|2000|10,"Brake_R"|"Bar"|0|2000|10,"Height_RF"|"mm"|0|255|10,"Height_LF"|"mm"|0|255|10,"Height_LR"|"mm"|0|80|10,"Height_RR"|"mm"|0|255|10,"Steering"|"deg"|-100|100|10,"AccelX"|"G"|-3.0|3.0|50,"AccelY"|"G"|-3.0|3.0|50,"AccelZ"|"G"|-3.0|3.0|50,"Yaw"|"Deg/Sec"|-120|120|50,"Pitch"|"Deg/Sec"|-120|120|50,"Roll"|"Deg/Sec"|-120|120|50,"Gsum"|"G"|0.0|3.0|50,"Log_Button"|""|0.0|10.0|10,"WaterTemp"|"C"|0|150|50,"RPM"|"tr/min"|0|14000|50,"TPS"|"%"|0|100|50,"AirTemp"|"C"|0|150|50,"MAP"|"KPa"|0|100|50,"Lambda"|""|0.5|1.5|50,"SpeedDTA"|"kph"|0.0|250.0|50,"OilPress"|"KPa"|0|1500|50,"FuelPressur"|"Bar"|0.0|10.0|50,"Batterie"|"V"|0.0|20.0|50,"ConsoKm"|"L/100km"|0.0|200.0|50,"Gear"|""|0|6|50,"AdvIgnition"|"Deg"|-20.0|70.0|50,"Injection"|"ms"|0.0|10.0|50,"ConsoHr"|"L/Hr"|0.0|10000.0|50,"LC_But_Pres"|""|0|1|50,"LC_Active"|""|0|1|50,"TractionOn"|""|0|1|50,"TractionWet"|""|0|1|50,"FanOn"|""|0|1|50,"RD_Speed"|"km/h"|-30|250|50,"RUD_Speed"|"km/h"|-30|250|50,"LD_Speed"|"km/h"|-30|250|50,"LUD_Speed"|"km/h"|-30|250|50,"Latitude"|"Degrees"|-180.0|180.0|10,"Longitude"|"Degrees"|-180.0|180.0|10,"Speed"|"kph"|0.0|150.0|10,"Altitude"|"m"|0.0|4000.0|10,"GPSSats"|""|0|20|10,"GPSQual"|""|0|5|10,"GPSDOP"|""|0.0|20.0|10,"LapCount"|""|0|0|10,"LapTime"|"Min"|0.0|0.0|10,"Sector"|""|0|0|10,"SectorTime"|"Min"|0.0|0.0|10,"PredTime"|"Min"|0.0|0.0|5,"ElapsedTime"|"Min"|0.0|0.0|10,"CurrentLap"|""|0|0|10,"Distance"|"km"|0.0|0.0|10,"SessionTime"|"Min"|0.0|0.0|10
466163,1622987332321,,,,,,,,-0.0,-0.67,-1.17,-32,6,0,0.67,,85,7884,23,25,44,0.5,56.4,567,4.86,13.1,11.9,1,34.2,2.59,6.9,0,0,1,1,0,388,2524,2524,564,,,,,,,,,,,,,,,,
466183,1622987332341,,,,,,,,-0.02,-0.72,-1.24,-32,6,1,0.72,,85,8023,24,25,49,0.5,55.7,526,4.9,13.1,11.9,1,36.7,1.29,6.9,0,0,1,1,0,379,-22519,-23623,561,,,,,,,,,,,,,,,,
466203,1622987332361,,,,,,,,0.0,-0.63,-1.09,-31,5,3,0.63,,85,8127,24,25,54,0.5,56.7,369,4.89,13.0,11.9,1,37.5,2.96,6.9,0,0,1,1,0,383,2524,2211,567,,,,,,,,,,,,,,,,
466223,1622987332381,,,,,,,,-0.02,-0.63,-1.16,-30,5,4,0.63,,85,8263,24,25,57,0.5,56.2,315,4.96,13.1,20.5,1,39.4,1.74,11.6,0,0,1,1,0,385,2524,-28648,563,,,,,,,,,,,,,,,,
466243,1622987332401,-1,2,40,28,30,41,-8,-0.11,-0.66,-1.15,-29,4,3,0.67,0,85,8438,24,25,60,0.5,56.4,292,4.96,13.0,20.5,1,42.9,3.55,11.6,0,0,1,1,0,395,2524,2211,558,45.699863,4.91029,57.77,192.8,7,3,2.4,0,0.0,-1,0.0,0.0,0.0,0,5.28,7.7707
466263,1622987332421,,,,,,,,-0.07,-0.6,-1.05,-28,3,1,0.61,,85,8708,25,25,61,0.5,56.2,280,4.97,13.0,20.5,1,42.6,3.66,11.6,0,0,1,1,0,519,-8962,-23623,562,,,,,,,,,,,,,,,,
466283,1622987332441,,,,,,,,-0.05,-0.6,-0.99,-27,3,2,0.6,,85,8967,28,25,62,0.5,55.4,290,4.9,13.0,20.5,1,40.2,2.33,11.6,0,0,1,1,0,559,-2934,-18032,558,,,,,,,,,,,,,,,,
466303,1622987332461,,,,,,,,-0.06,-0.49,-0.78,-26,1,1,0.49,,85,9186,31,25,64,0.5,55.9,329,4.81,13.0,20.5,1,40.7,3.73,11.6,0,0,1,1,0,567,-8962,-32504,559,,,,,,,,,,,,,,,,
466323,1622987332481,,,,,,,,-0.1,-0.39,-0.7,-25,0,-1,0.4,,85,9124,35,25,68,0.5,56.0,366,4.83,13.0,28.9,1,41.3,4.24,16.2,0,0,1,1,0,567,2104,12552,560,,,,,,,,,,,,,,,,
466343,1622987332501,0,2,39,31,27,35,-8,-0.03,-0.33,-0.67,-24,-1,-1,0.33,0,85,8941,38,25,73,0.5,56.2,413,4.88,13.0,28.9,1,41.6,4.63,16.2,0,0,1,1,0,570,-32248,-29984,557,45.699852,4.910306,56.77,192.8,7,3,2.4,0,0.0,-1,0.0,,0.0,0,5.28,7.7724
466363,1622987332521,,,,,,,,-0.01,-0.24,-0.68,-23,-1,-0,0.24,,85,8932,41,25,76,0.5,56.4,479,4.87,12.9,28.9,1,41.5,5.02,16.2,0,0,1,1,0,563,-8186,-8186,564,,,,,,,,,,,,,,,,
466383,1622987332541,,,,,,,,-0.06,-0.17,-0.54,-22,-3,-1,0.18,,85,9084,44,25,80,0.5,56.0,535,4.85,12.9,28.9,1,39.9,5.53,16.2,0,0,1,1,0,563,-22519,-30159,560,,,,,,,,,,,,,,,,
466403,1622987332561,,,,,,,,-0.13,-0.14,-0.62,-21,-2,-4,0.19,,85,9204,45,25,82,0.5,56.6,562,4.9,13.0,28.9,1,39.2,5.82,16.2,0,0,1,1,0,565,-22359,1267,566,,,,,,,,,,,,,,,,
466423,1622987332581,,,,,,,,-0.04,-0.18,-0.73,-21,-1,-3,0.18,,85,9314,46,25,84,0.5,56.6,597,4.88,12.9,47.0,1,38.8,6.13,26.5,0,0,1,1,0,576,2216,-3210,566,,,,,,,,,,,,,,,,
466443,1622987332601,-1,2,39,33,26,31,-11,0.04,-0.17,-0.84,-20,-1,-1,0.17,0,85,9351,46,25,85,0.5,56.7,617,4.95,13.0,47.0,1,38.8,6.34,26.5,0,0,1,1,0,592,-32504,15649,567,45.699844,4.910322,56.25,192.8,7,3,2.4,0,0.0,-1,0.0,0.0,0.0,0,5.28,7.774
466463,1622987332621,,,,,,,,0.03,-0.06,-0.6,-20,-2,-3,0.07,,85,9384,46,25,86,0.5,57.3,633,4.92,13.0,47.0,1,38.8,6.37,26.5,0,0,1,1,0,587,14504,-12040,568,,,,,,,,,,,,,,,,
466483,1622987332641,,,,,,,,-0.02,-0.07,-0.41,-20,-2,-4,0.07,,85,9417,43,25,86,0.5,57.3,627,4.91,12.9,47.0,1,38.8,6.24,26.5,0,0,1,1,0,589,2216,6273,573,,,,,,,,,,,,,,,,
466503,1622987332661,,,,,,,,0.08,-0.15,-0.54,-19,-1,-3,0.17,,85,9450,36,25,85,0.5,57.5,626,4.88,13.0,47.0,1,38.8,5.95,26.5,0,0,1,1,0,591,12552,-13043,575,,,,,,,,,,,,,,,,
466523,1622987332681,,,,,,,,0.07,-0.06,-0.33,-19,-3,-5,0.1,,86,9551,27,25,80,0.5,58.3,637,4.91,13.0,43.0,1,40.0,5.03,25.1,0,0,1,1,0,597,1780,17344,583,,,,,,,,,,,,,,,,
466543,1622987332703,0,2,43,37,23,28,-13,0.07,-0.15,-0.47,-19,-2,-5,0.17,0,86,9615,21,25,74,0.5,58.1,643,4.91,13.0,43.0,1,41.2,4.36,25.1,0,0,1,1,0,608,1760,-7939,589,45.699833,4.910336,57.73,192.8,7,3,2.4,0,0.0,-1,0.0,,0.0,0,5.28,7.7757
466563,1622987332723,,,,,,,,0.15,-0.22,-0.6,-19,-2,-3,0.27,,86,9605,19,25,69,0.5,58.6,648,4.9,13.0,43.0,1,41.2,2.77,25.1,0,0,1,1,0,611,-30159,-3446,585,,,,,,,,,,,,,,,,
466583,1622987332743,,,,,,,,0.12,-0.13,-0.38,-19,-3,-3,0.18,,86,9551,18,25,63,0.5,59.4,640,4.84,12.9,43.0,1,41.4,3.47,25.1,0,0,1,1,0,612,-8188,1010,594,,,,,,,,,,,,,,,,
466603,1622987332763,,,,,,,,0.18,-0.29,-0.46,-19,-2,-3,0.34,,86,9503,17,25,59,0.5,59.9,638,4.88,13.0,43.0,1,41.0,3.41,25.1,0,0,1,1,0,606,-16384,-30139,599,,,,,,,,,,,,,,,,
466623,1622987332783,,,,,,,,0.28,-0.4,-0.55,-19,-3,-2,0.49,,86,9474,17,25,55,0.5,60.6,642,4.96,13.0,25.0,1,40.1,3.51,15.0,0,0,1,1,0,610,-25872,-3446,606,,,,,,,,,,,,,,,,
466643,1622987332803,1,2,43,36,23,29,-15,0.23,-0.33,-0.42,-19,-2,-3,0.4,0,86,9469,16,26,53,0.5,60.3,640,4.8,12.9,25.0,1,39.7,3.46,15.0,0,0,1,1,0,605,-1894,-30139,603,45.699822,4.91035,59.46,192.8,7,3,2.4,0,0.0,-1,0.0,0.0,0.0,0,5.28,7.7774
466663,1622987332823,,,,,,,,0.23,-0.42,-0.55,-20,-1,-2,0.48,,86,9537,16,26,50,0.5,60.8,647,4.92,13.0,25.0,1,38.8,3.27,15.0,0,0,1,1,0,603,-32504,1010,608,,,,,,,,,,,,,,,,
466683,1622987332843,,,,,,,,0.26,-0.5,-0.66,-20,-0,-1,0.56,,86,9620,16,26,48,0.5,60.6,646,4.79,13.0,25.0,1,38.2,3.15,15.0,0,0,1,1,0,606,-28648,-30139,606,,,,,,,,,,,,,,,,
466703,1622987332863,,,,,,,,0.2,-0.42,-0.44,-21,-2,-3,0.46,,86,9709,16,26,46,0.5,60.8,642,4.92,13.0,25.0,1,37.2,3.08,15.0,0,0,1,1,0,605,15649,28675,608,,,,,,,,,,,,,,,,
466723,1622987332883,,,,,,,,0.25,-0.55,-0.54,-21,-2,-3,0.6,,86,9650,16,26,45,0.5,61.6,636,4.88,13.0,22.4,1,36.5,3.02,13.8,0,0,1,1,0,623,-12040,26688,616,,,,,,,,,,,,,,,,
466743,1622987332903,-0,2,42,32,24,32,-18,0.21,-0.44,-0.45,-22,-2,-4,0.49,0,86,9561,16,26,43,0.5,61.5,637,5.03,13.0,22.4,1,35.0,2.94,13.8,0,0,1,1,0,612,-1894,16529,615,45.69981,4.910365,60.77,192.8,7,3,2.4,0,0.0,-1,0.0,,0.0,0,5.28,7.779
466763,1622987332923,,,,,,,,0.2,-0.52,-0.58,-23,-0,-2,0.56,,86,9546,17,26,43,0.5,61.1,647,4.88,13.0,22.4,1,35.0,2.94,13.8,0,0,1,1,0,622,208,-28304,615,,,,,,,,,,,,,,,,
466783,1622987332943,,,,,,,,0.15,-0.55,-0.54,-23,-1,-3,0.57,,86,9674,18,26,43,0.5,60.7,646,4.93,13.0,22.4,1,35.0,2.96,13.8,0,0,1,1,0,606,-16179,-28304,607,,,,,,,,,,,,,,,,
466803,1622987332963,,,,,,,,0.11,-0.47,-0.52,-24,0,-2,0.48,,86,9832,19,25,43,0.5,61.1,646,4.88,13.0,22.4,1,35.0,2.98,13.8,0,0,1,1,0,590,-13043,28675,611,,,,,,,,,,,,,,,,
466823,1622987332983,,,,,,,,0.1,-0.53,-0.46,-25,-0,-2,0.54,,86,9915,20,25,44,0.5,61.4,646,4.87,13.0,22.5,1,35.7,3.03,13.8,0,0,1,1,0,607,6273,-28304,617,,,,,,,,,,,,,,,,
466843,1622987333003,-1,2,43,29,25,35,-19,0.16,-0.6,-0.59,-25,-1,-1,0.63,0,86,9894,21,25,45,0.5,61.0,657,4.87,13.0,22.5,1,36.5,3.07,13.8,0,0,1,1,0,617,8488,3403,619,45.69981,4.910365,60.77,192.8,7,3,2.4,0,0.0,-1,0.0,0.0,0.0,0,5.29,7.7807
466863,1622987333009,,,,,,,,0.11,-0.51,-0.37,-26,-1,-2,0.52,,86,9842,22,25,46,0.5,61.4,656,4.81,12.9,22.5,1,37.2,3.1,13.8,0,0,1,1,0,632,-28648,-18357,616,,,,,,,,,,,,,,,,
466883,1622987333029,,,,,,,,0.18,-0.63,-0.51,-26,-3,-1,0.65,,86,9842,22,25,47,0.5,61.6,645,4.91,13.0,22.5,1,38.0,3.15,13.8,0,0,1,1,0,616,-32504,3395,618,,,,,,,,,,,,,,,,
466903,1622987333049,,,,,,,,0.11,-0.52,-0.63,-26,-1,-3,0.53,,86,9821,22,25,48,0.5,61.2,643,4.87,13.0,22.5,1,38.2,3.2,13.8,0,0,1,1,0,619,3472,-18357,619,,,,,,,,,,,,,,,,
466923,1622987333069,,,,,,,,0.14,-0.63,-0.63,-27,-1,-1,0.64,,86,9816,22,25,49,0.5,61.7,648,4.97,13.0,23.5,1,38.5,3.25,14.5,0,0,1,1,0,623,3472,269,617,,,,,,,,,,,,,,,,
466943,1622987333098,-0,2,44,31,25,34,-22,0.12,-0.6,-0.59,-27,-1,-2,0.61,0,86,9858,22,25,49,0.5,61.4,641,4.83,13.0,23.5,1,38.5,3.26,14.5,0,0,1,1,0,622,-16384,19304,614,45.699787,4.910393,62.63,192.7,7,3,2.4,0,0.0,-1,0.0,,0.0,0,5.29,7.7824
466963,1622987333118,,,,,,,,0.07,-0.67,-0.58,-27,-0,-3,0.68,,86,9925,22,25,50,0.5,61.0,646,4.93,13.0,23.5,1,38.8,3.33,14.5,0,0,1,1,0,621,-13043,-18357,610,,,,,,,,,,,,,,,,
466983,1622987333138,,,,,,,,0.13,-0.78,-0.7,-28,1,-1,0.79,,86,9962,22,25,50,0.5,62.3,655,4.87,13.0,23.5,1,38.8,3.33,14.5,0,0,1,1,0,623,-16179,20993,623,,,,,,,,,,,,,,,,
467003,1622987333158,,,,,,,,0.07,-0.66,-0.68,-29,1,-2,0.66,,86,9968,22,25,50,0.5,62.8,658,4.81,13.0,23.5,1,38.8,3.33,14.5,0,0,1,1,0,640,-16179,506,628,,,,,,,,,,,,,,,,
467023,1622987333178,,,,,,,,0.05,-0.77,-0.68,-29,1,-2,0.77,,86,9962,22,25,50,0.5,61.7,652,4.93,13.0,24.5,1,38.8,3.33,15.3,0,0,1,1,0,621,2048,-14655,629,,,,,,,,,,,,,,,,
467043,1622987333200,-1,2,45,29,25,34,-25,0.11,-0.74,-0.79,-30,2,-1,0.75,0,86,9952,22,25,51,0.5,62.3,661,4.9,13.0,24.5,1,39.1,3.33,15.3,0,0,1,1,0,623,-16179,3,623,45.699772,4.910405,62.71,192.8,7,3,2.4,0,0.0,-1,0.0,0.0,0.0,0,5.29,7.784
467063,1622987333220,,,,,,,,0.02,-0.69,-0.56,-30,1,-2,0.69,,86,9968,21,25,50,0.5,62.7,653,4.82,12.9,24.5,1,38.8,3.33,15.3,0,0,1,1,0,634,-3210,771,626,,,,,,,,,,,,,,,,
467083,1622987333240,,,,,,,,0.03,-0.79,-0.54,-30,2,-2,0.79,,86,10032,21,25,50,0.5,62.2,647,4.86,13.0,24.5,1,38.8,3.34,15.3,0,0,1,1,0,629,30227,966,630,,,,,,,,,,,,,,,,
467103,1622987333260,,,,,,,,0.06,-0.76,-0.66,-30,3,-1,0.76,,86,10048,20,25,49,0.5,62.3,658,4.92,13.0,24.5,1,38.5,3.29,15.3,0,0,1,1,0,627,-13043,-16046,623,,,,,,,,,,,,,,,,
467123,1622987333280,,,,,,,,0.0,-0.8,-0.58,-31,3,-2,0.8,,86,10005,19,25,47,0.5,61.9,647,4.8,13.0,24.1,1,38.0,3.19,15.0,0,0,1,1,0,650,-32504,-2836,619,,,,,,,,,,,,,,,,
467143,1622987333300,0,1,45,29,25,35,-28,0.0,-0.89,-0.51,-32,3,-2,0.89,0,86,10010,18,25,46,0.5,61.9,646,4.82,13.0,24.1,1,37.2,3.14,15.0,0,0,1,1,0,653,-16179,3,619,45.699757,4.910417,63.4,192.8,7,3,2.4,0,0.0,-1,0.0,,0.0,0,5.29,7.7857
467163,1622987333320,,,,,,,,0.07,-0.94,-0.63,-33,2,-0,0.94,,86,10053,18,25,45,0.5,63.1,659,4.91,13.0,24.1,1,36.5,3.1,15.0,0,0,1,1,0,637,17344,16599,636,,,,,,,,,,,,,,,,
467183,1622987333340,,,,,,,,0.02,-0.93,-0.61,-34,2,-2,0.93,,86,10075,18,25,44,0.5,63.5,660,4.82,13.0,24.1,1,35.7,3.05,15.0,0,0,1,1,0,622,-16179,-2580,633,,,,,,,,,,,,,,,,
467203,1622987333360,,,,,,,,-0.03,-1.01,-0.45,-35,2,-3,1.01,,86,10048,19,25,43,0.5,64.1,650,4.91,13.0,24.1,1,35.0,3.01,15.0,0,0,1,1,0,627,23619,-2580,641,,,,,,,,,,,,,,,,
467223,1622987333380,,,,,,,,-0.02,-1.01,-0.58,-35,3,-3,1.01,,86,10069,19,25,43,0.5,62.9,661,4.91,13.0,22.1,1,35.0,3.01,14.0,0,0,1,1,0,635,-1894,6208,629,,,,,,,,,,,,,,,,
467243,1622987333400,0,1,45,31,24,37,-20,0.02,-1.06,-0.56,-35,2,-4,1.06,0,86,10102,20,25,43,0.5,63.1,648,4.88,13.0,22.1,1,35.0,3.01,14.0,0,0,1,1,0,631,-13043,-5120,631,45.699745,4.910428,63.76,192.8,7,3,2.4,0,0.0,-1,0.0,0.0,0.0,0,5.29,7.7874
467263,1622987333420,,,,,,,,-0.06,-1.08,-0.68,-35,4,-4,1.08,,86,10075,20,25,44,0.5,63.3,652,4.91,12.9,22.1,1,35.7,3.05,14.0,0,0,1,1,0,652,30227,-5120,623,,,,,,,,,,,,,,,,
467283,1622987333440,,,,,,,,-0.04,-1.16,-0.65,-35,4,-3,1.16,,87,10086,21,25,44,0.5,63.2,655,4.92,13.0,22.1,1,35.7,3.05,14.0,0,0,1,1,0,639,-7939,-2580,623,,,,,,,,,,,,,,,,
467303,1622987333460,,,,,,,,0.03,-1.19,-0.64,-35,2,-3,1.19,,87,10091,21,25,45,0.5,63.3,656,4.79,13.0,22.1,1,36.5,3.1,14.0,0,0,1,1,0,635,-7939,24,633,,,,,,,,,,,,,,,,
467323,1622987333480,,,,,,,,0.06,-1.15,-0.75,-35,3,-2,1.15,,87,10107,22,25,46,0.5,63.0,650,4.89,13.0,23.1,1,37.2,3.14,14.6,0,0,1,1,0,631,-23055,3,630,,,,,,,,,,,,,,,,
467343,1622987333500,-1,2,43,30,26,37,-9,0.13,-0.98,-0.7,-34,2,-2,0.99,0,87,10151,22,25,47,0.5,63.5,651,4.86,12.9,23.1,1,38.0,3.19,14.6,0,0,1,1,0,635,28675,-4876,635,45.69973,4.910438,63.31,192.7,7,3,2.4,0,0.0,-1,0.0,,0.0,0,5.29,7.7891
467363,1622987333520,,,,,,,,0.07,-0.91,-0.81,-33,0,-1,0.91,,87,10184,22,25,47,0.5,63.3,645,4.85,13.0,23.1,1,38.0,3.24,14.6,0,0,1,1,0,632,-30139,-10251,628,,,,,,,,,,,,,,,,
467383,1622987333540,,,,,,,,0.02,-0.99,-0.58,-32,1,1,0.99,,87,10146,23,25,48,0.5,62.5,646,4.87,13.0,23.1,1,38.2,3.24,14.6,0,0,1,1,0,637,-30139,-2836,625,,,,,,,,,,,,,,,,
467403,1622987333560,,,,,,,,0.12,-0.95,-0.52,-31,0,2,0.96,,87,10091,23,25,49,0.5,63.1,651,4.92,12.9,23.1,1,38.5,3.29,14.6,0,0,1,1,0,638,-3446,16599,631,,,,,,,,,,,,,,,,
467423,1622987333580,,,,,,,,0.13,-0.88,-0.65,-29,0,2,0.89,,87,10053,23,25,49,0.5,63.4,656,4.91,13.0,24.1,1,38.5,3.29,15.3,0,0,1,1,0,640,269,-10251,634,,,,,,,,,,,,,,,,
467443,1622987333600,0,3,45,33,26,32,-15,0.05,-0.8,-0.43,-28,0,2,0.8,0,87,10037,23,25,50,0.5,62.5,652,4.85,13.0,24.1,1,38.8,3.34,15.3,0,0,1,1,0,632,269,-4876,625,45.699711,4.910447,64.06,192.8,7,3,2.4,0,0.0,-1,0.0,0.0,0.0,0,5.3,7.7907
467463,1622987333620,,,,,,,,0.05,-0.75,-0.3,-27,-1,3,0.75,,87,10048,23,25,50,0.5,62.5,652,4.85,13.0,24.1,1,38.8,3.34,15.3,0,0,1,1,0,637,3403,-10251,628,,,,,,,,,,,,,,,,
467483,1622987333640,,,,,,,,0.11,-0.71,-0.44,-27,-1,3,0.71,,87,10129,23,25,50,0.5,63.3,651,4.93,13.0,24.1,1,38.8,3.35,15.3,0,0,1,1,0,630,3403,24,633,,,,,,,,,,,,,,,,
467503,1622987333660,,,,,,,,0.08,-0.77,-0.41,-27,-2,1,0.77,,87,10223,23,25,51,0.5,64.0,650,4.92,13.0,24.1,1,39.1,3.41,15.3,0,0,1,1,0,631,19320,-3584,640,,,,,,,,,,,,,,,,
467523,1622987333680,,,,,,,,0.03,-0.78,-0.54,-27,-2,-1,0.78,,87,10245,23,25,51,0.5,63.9,645,4.92,13.0,25.0,1,39.1,3.41,16.1,0,0,1,1,0,656,-1346,-8429,639,,,,,,,,,,,,,,,,
467543,1622987333700,-0,2,43,35,23,33,-26,-0.05,-0.86,-0.33,-27,-1,-1,0.86,0,87,10273,23,25,50,0.5,64.1,653,4.82,13.0,25.0,1,38.8,2.21,16.1,0,0,1,1,0,655,-16883,-30207,641,45.699699,4.910454,64.27,192.7,7,3,2.4,0,0.0,-1,0.0,,0.0,0,5.3,7.7924
467563,1622987333720,,,,,,,,-0.06,-0.95,-0.2,-27,-3,-4,0.96,,87,10330,23,25,51,0.5,63.5,647,4.86,13.0,25.0,1,39.1,3.43,16.1,0,0,1,1,0,638,3403,-8429,635,,,,,,,,,,,,,,,,
467583,1622987333740,,,,,,,,-0.03,-0.92,-0.3,-28,-0,-3,0.92,,87,10319,23,25,50,0.5,63.6,651,4.86,13.0,25.0,1,38.8,3.37,16.1,0,0,1,1,0,640,16529,479,636,,,,,,,,,,,,,,,,
467603,1622987333760,,,,,,,,-0.0,-0.83,-0.41,-30,-0,-2,0.83,,87,10324,22,25,50,0.5,65.1,655,4.88,13.0,25.0,1,38.8,3.37,16.1,0,0,1,1,0,663,-16883,-2830,656,,,,,,,,,,,,,,,,
467623,1622987333780,,,,,,,,0.04,-0.8,-0.54,-31,1,-0,0.8,,87,10387,22,25,50,0.5,65.1,659,4.89,13.0,24.6,1,38.8,3.37,16.1,0,0,1,1,0,680,16529,-2830,651,,,,,,,,,,,,,,,,
467643,1622987333801,0,0,41,27,26,34,-22,0.06,-0.86,-0.54,-33,-0,-2,0.86,0,87,10480,22,25,50,0.5,65.6,661,4.93,13.0,24.6,1,38.8,3.38,16.1,0,0,1,1,0,660,19320,-2826,656,45.69968,4.91046,65.27,192.7,7,3,2.4,0,0.0,-1,0.0,0.0,0.0,0,5.3,7.7941
467663,1622987333821,,,,,,,,0.07,-0.77,-0.67,-33,1,-1,0.77,,87,10557,23,25,50,0.5,65.3,658,4.9,13.0,24.6,1,38.8,3.39,16.1,0,0,1,1,0,631,3403,-10344,659,,,,,,,,,,,,,,,,
467683,1622987333841,,,,,,,,0.15,-0.67,-0.71,-34,0,0,0.69,,87,10480,23,25,50,0.5,65.4,666,4.87,13.0,24.6,1,38.8,3.38,16.1,0,0,1,1,0,654,19304,8958,654,,,,,,,,,,,,,,,,
467703,1622987333861,,,,,,,,0.14,-0.75,-0.82,-34,2,1,0.76,,87,10393,23,25,51,0.5,64.7,656,4.88,12.9,24.6,1,39.1,3.43,16.1,0,0,1,1,0,685,-18357,8958,652,,,,,,,,,,,,,,,,
467723,1622987333881,,,,,,,,0.16,-0.82,-0.79,-34,1,1,0.83,,87,10416,23,25,51,0.5,64.2,654,4.91,13.0,25.4,1,39.1,3.44,16.5,0,0,1,1,0,667,3395,-3038,642,,,,,,,,,,,,,,,,
467743,1622987333900,0,1,42,26,22,34,-19,0.18,-0.76,-0.89,-35,3,1,0.78,0,87,10498,23,25,51,0.5,65.3,647,4.92,12.9,25.4,1,39.1,3.44,16.5,0,0,1,1,0,653,-16883,-2345,653,45.699665,4.910465,66.01,192.8,7,3,2.4,0,0.0,-1,0.0,,0.0,0,5.3,7.7957
467763,1622987333920,,,,,,,,0.21,-0.8,-0.79,-35,3,2,0.83,,87,10581,24,25,51,0.5,65.3,653,4.88,12.9,25.4,1,39.1,3.45,16.5,0,0,1,1,0,646,19320,-10348,654,,,,,,,,,,,,,,,,
467783,1622987333940,,,,,,,,0.24,-0.84,-0.89,-35,3,3,0.88,,87,10510,24,25,52,0.5,65.9,658,4.88,13.0,25.4,1,39.4,3.51,16.5,0,0,1,1,0,677,-16046,-10344,659,,,,,,,,,,,,,,,,
467803,1622987333960,,,,,,,,0.24,-0.94,-0.94,-35,2,2,0.97,,87,10492,24,25,52,0.5,65.6,656,4.91,12.9,25.4,1,39.4,3.51,16.5,0,0,1,1,0,671,20993,3543,656,,,,,,,,,,,,,,,,
467823,1622987333980,,,,,,,,0.26,-0.95,-1.02,-36,4,2,0.99,,87,10504,24,25,52,0.5,65.5,652,4.91,13.0,25.8,1,39.4,2.36,17.0,0,0,1,1,0,679,20993,-2826,653,,,,,,,,,,,,,,,,
467843,1622987334000,-1,2,42,30,22,36,-20,0.3,-0.83,-1.11,-35,3,3,0.88,0,87,10587,24,25,52,0.5,65.7,663,4.91,12.9,25.8,1,39.4,3.52,17.0,0,0,1,1,0,660,-18357,-10348,657,45.699665,4.910465,66.01,192.8,7,3,2.4,0,0.0,-1,0.0,0.0,0.0,0,5.3,7.7974
467863,1622987334005,,,,,,,,0.3,-0.81,-1.18,-35,3,3,0.86,,87,10641,24,25,53,0.5,66.0,665,4.88,13.0,25.8,1,39.7,3.6,17.0,0,0,1,1,0,654,-16046,-2826,660,,,,,,,,,,,,,,,,
467883,1622987334025,,,,,,,,0.29,-0.82,-0.91,-35,2,1,0.87,,87,10635,24,25,53,0.5,65.1,664,4.91,13.0,25.8,1,39.7,3.6,17.0,0,0,1,1,0,653,771,-2830,651,,,,,,,,,,,,,,,,
467903,1622987334045,,,,,,,,0.26,-0.68,-1.01,-35,3,3,0.73,,87,10551,24,25,53,0.5,65.2,648,4.91,12.9,25.8,1,39.7,3.59,17.0,0,0,1,1,0,673,-5120,31988,652,,,,,,,,,,,,,,,,
467923,1622987334065,,,,,,,,0.26,-0.68,-0.87,-35,3,3,0.73,,87,10521,24,25,54,0.5,66.3,655,4.88,13.0,27.0,1,40.0,3.58,17.8,0,0,1,1,0,676,771,-388,652,,,,,,,,,,,,,,,,
467943,1622987334097,-0,3,44,27,24,35,-19,0.24,-0.7,-0.83,-35,3,3,0.74,0,87,10527,25,25,54,0.5,66.3,647,4.96,13.0,27.0,1,40.0,3.65,17.8,0,0,1,1,0,682,20993,8958,663,45.699631,4.910471,66.6,192.8,7,3,2.4,0,0.0,-1,0.0,,0.0,0,5.31,7.799
467963,1622987334117,,,,,,,,0.17,-0.79,-0.59,-35,1,2,0.8,,87,10623,27,25,55,0.5,67.2,657,4.87,13.0,27.0,1,40.4,3.68,17.8,0,0,1,1,0,664,506,-2830,665,,,,,,,,,,,,,,,,
467983,1622987334137,,,,,,,,0.12,-0.83,-0.38,-35,1,1,0.84,,87,10702,30,25,57,0.5,66.5,655,4.84,13.0,27.0,1,41.2,3.74,17.8,0,0,1,1,0,657,-2580,-388,665,,,,,,,,,,,,,,,,
468003,1622987334157,,,,,,,,0.09,-0.92,-0.51,-35,2,-2,0.93,,87,10813,33,25,60,0.5,65.9,657,4.91,13.0,27.0,1,42.5,3.82,17.8,0,0,1,1,0,670,-2836,-2830,669,,,,,,,,,,,,,,,,
468023,1622987334177,,,,,,,,0.14,-0.79,-0.43,-35,2,-0,0.8,,87,10838,34,25,63,0.5,66.1,661,4.91,12.9,29.0,1,43.0,2.83,19.3,0,0,1,1,0,688,966,-2826,664,,,,,,,,,,,,,,,,
468043,1622987334201,1,2,43,29,21,36,-26,0.11,-0.83,-0.56,-35,1,1,0.84,0,87,10844,37,25,65,0.5,65.7,666,4.88,12.9,29.0,1,42.9,4.71,19.3,0,0,1,1,0,730,-2580,16118,667,45.699616,4.910472,66.97,192.9,7,3,2.4,0,0.0,-1,0.0,0.0,0.0,0,5.31,7.8007
468063,1622987334221,,,,,,,,0.08,-0.74,-0.49,-35,-0,-2,0.75,,87,10990,41,25,68,0.5,65.8,659,4.93,12.9,29.0,1,42.9,3.19,19.3,0,0,1,1,0,714,-8429,-26562,664,,,,,,,,,,,,,,,,
468083,1622987334241,,,,,,,,0.21,-0.84,-0.28,-36,-1,-4,0.87,,87,11140,42,25,71,0.5,66.7,662,4.83,13.0,29.0,1,42.9,5.12,19.3,0,0,1,1,0,661,16599,24845,667,,,,,,,,,,,,,,,,
468103,1622987334261,,,,,,,,0.08,-0.72,-0.43,-36,1,1,0.72,,87,11160,43,25,73,0.5,66.9,665,4.84,12.9,29.0,1,42.7,5.23,19.3,0,0,1,1,0,707,-2580,24,669,,,,,,,,,,,,,,,,
468123,1622987334281,,,,,,,,0.21,-0.82,-0.56,-37,0,-1,0.85,,87,11174,44,25,76,0.5,68.1,662,4.85,13.0,41.0,1,42.6,5.29,27.5,0,0,1,1,0,738,6208,16599,681,,,,,,,,,,,,,,,,
468143,1622987334301,1,1,48,32,22,33,-27,0.15,-0.72,-0.34,-36,-0,-2,0.74,0,87,11234,45,26,77,0.5,67.1,665,4.85,12.9,41.0,1,42.6,5.26,27.5,0,0,1,1,0,683,-3584,-2830,671,45.699596,4.910472,67.22,193.0,7,3,2.4,0,0.0,-1,0.0,,0.0,0,5.31,7.8024
468163,1622987334321,,,,,,,,0.21,-0.83,-0.22,-37,0,-1,0.85,,87,11214,46,26,79,0.5,67.8,666,4.88,12.9,41.0,1,42.6,5.23,27.5,0,0,1,1,0,691,-5120,8010,673,,,,,,,,,,,,,,,,
468183,1622987334341,,,,,,,,0.12,-0.92,-0.37,-37,2,1,0.93,,87,11114,46,26,80,0.5,67.8,664,4.9,12.9,41.0,1,42.4,5.14,27.5,0,0,1,1,0,758,-8429,15647,678,,,,,,,,,,,,,,,,
468203,1622987334361,,,,,,,,0.13,-0.84,-0.3,-37,-2,-1,0.85,,87,11194,46,26,81,0.5,68.1,662,4.9,12.9,41.0,1,42.6,5.08,27.5,0,0,1,1,0,756,244,12333,690,,,,,,,,,,,,,,,,
468223,1622987334381,,,,,,,,0.08,-0.94,-0.11,-37,-4,-3,0.94,,87,11446,49,26,81,0.5,68.2,663,4.85,12.9,38.1,1,42.9,4.93,26.2,0,0,1,1,0,725,31988,24,678,,,,,,,,,,,,,,,,
468243,1622987334401,-4,2,46,33,25,38,-12,0.22,-1.02,-0.09,-38,-2,-3,1.05,0,87,11559,56,26,83,0.5,68.6,667,4.91,12.9,38.1,1,43.0,5.05,26.2,0,0,1,1,0,731,31988,-30694,686,45.699581,4.910471,68.84,193.0,7,3,2.4,0,0.0,-1,0.0,0.0,0.0,0,5.31,7.804
468263,1622987334421,,,,,,,,0.24,-0.97,-0.04,-37,-1,-2,1.0,,87,11588,60,26,84,0.5,69.0,670,4.87,12.9,38.1,1,43.0,5.22,26.2,0,0,1,1,0,682,-388,-13072,691,,,,,,,,,,,,,,,,
468283,1622987334441,,,,,,,,0.11,-0.77,-0.21,-37,2,0,0.78,,87,11419,63,26,85,0.5,68.6,678,4.86,12.9,38.1,1,42.8,6.13,26.2,0,0,1,1,0,713,-388,-13072,696,,,,,,,,,,,,,,,,
468303,1622987334461,,,,,,,,0.27,-0.84,-0.36,-36,1,-1,0.88,,87,11349,65,26,86,0.5,69.5,665,4.88,12.9,38.1,1,42.8,6.37,26.2,0,0,1,1,0,780,-388,-388,695,,,,,,,,,,,,,,,,
468323,1622987334481,,,,,,,,0.24,-0.94,-0.19,-36,1,-3,0.96,,87,11552,66,26,86,0.5,69.4,662,4.87,12.9,48.4,1,43.0,6.33,33.7,0,0,1,1,0,714,-2830,-30694,694,,,,,,,,,,,,,,,,
468343,1622987334501,1,3,49,34,20,34,-15,0.13,-0.95,-0.0,-35,1,-4,0.96,0,87,11660,66,26,87,0.5,69.1,666,4.88,12.9,48.4,1,43.0,4.56,33.7,0,0,1,1,0,710,-3038,-13072,695,45.699562,4.910468,69.39,193.0,7,3,2.4,0,0.0,-1,0.0,,0.0,0,5.31,7.8057
468363,1622987334521,,,,,,,,0.18,-0.75,0.07,-34,2,-0,0.77,,87,11631,66,26,87,0.5,69.2,668,4.88,12.9,48.4,1,43.0,4.55,33.7,0,0,1,1,0,755,-3038,-13580,692,,,,,,,,,,,,,,,,
468383,1622987334541,,,,,,,,0.33,-0.74,0.01,-34,1,-0,0.81,,87,11631,67,26,87,0.5,70.0,670,4.86,12.9,48.4,1,43.0,4.55,33.7,0,0,1,1,0,761,-26380,-2826,700,,,,,,,,,,,,,,,,
468403,1622987334561,,,,,,,,0.4,-0.81,0.16,-33,-0,-2,0.9,,87,11733,67,26,87,0.5,70.5,673,4.87,12.9,48.4,1,43.0,5.87,33.7,0,0,1,1,0,703,-26562,-2356,705,,,,,,,,,,,,,,,,
468423,1622987334581,,,,,,,,0.24,-0.9,0.16,-33,-1,-2,0.93,,87,11674,68,26,87,0.5,70.5,660,4.87,12.9,44.4,1,43.0,5.72,31.3,0,0,1,1,0,745,-26892,-2830,707,,,,,,,,,,,,,,,,
468443,1622987334603,-0,4,49,37,21,32,-14,0.12,-0.99,-0.02,-32,0,-1,1.0,0,87,11624,68,26,87,0.5,70.7,665,4.86,12.8,44.4,1,43.0,5.69,31.3,0,0,1,1,0,750,-2345,1037,713,45.699547,4.910462,70.47,193.0,7,3,2.4,0,0.0,-1,0.0,0.0,0.0,0,5.31,7.8074
468463,1622987334623,,,,,,,,0.24,-1.02,-0.19,-31,0,0,1.05,,87,11689,70,26,87,0.5,71.6,663,4.87,12.9,44.4,1,43.0,5.87,31.3,0,0,1,1,0,713,16599,-2826,716,,,,,,,,,,,,,,,,
468483,1622987334643,,,,,,,,0.39,-0.93,-0.34,-31,-1,2,1.01,,87,11733,72,26,88,0.5,71.8,665,4.87,12.9,44.4,1,43.0,5.74,31.3,0,0,1,1,0,741,19188,-3580,718,,,,,,,,,,,,,,,,
468503,1622987334663,,,,,,,,0.43,-0.82,-0.38,-31,-4,1,0.93,,87,11718,77,26,88,0.5,72.3,663,4.87,12.8,44.4,1,43.0,5.88,31.3,0,0,1,1,0,765,14342,-30694,723,,,,,,,,,,,,,,,,
468523,1622987334683,,,,,,,,0.3,-0.82,-0.18,-30,-5,-2,0.87,,87,11814,78,26,88,0.5,72.5,660,4.86,12.8,44.4,1,43.0,6.87,32.1,0,0,1,1,0,723,6208,6790,725,,,,,,,,,,,,,,,,
468543,1622987334703,1,2,49,37,20,31,-11,0.18,-0.8,0.0,-30,-6,-5,0.82,0,87,11844,78,26,88,0.5,72.1,660,4.85,12.9,44.4,1,43.0,6.88,32.1,0,0,1,1,0,737,-2830,-31066,721,45.699528,4.910455,72.03,193.0,7,3,2.4,0,0.0,-1,0.0,,0.0,0,5.32,7.8091
468563,1622987334723,,,,,,,,0.09,-0.79,0.17,-29,-7,-6,0.79,,86,11874,79,26,88,0.5,72.5,674,4.85,12.9,44.4,1,43.0,6.89,32.1,0,0,1,1,0,767,-13072,-31066,725,,,,,,,,,,,,,,,,
468583,1622987334743,,,,,,,,0.05,-0.85,0.32,-28,-8,-8,0.85,,86,11973,79,26,88,0.5,73.1,671,4.84,12.9,44.4,1,43.0,6.78,32.1,0,0,1,1,0,751,-20693,-31068,731,,,,,,,,,,,,,,,,
468603,1622987334763,,,,,,,,0.01,-0.86,0.46,-28,-8,-9,0.86,,86,12042,79,26,88,0.5,72.9,675,4.86,12.9,44.4,1,43.0,6.61,32.1,0,0,1,1,0,747,204,-22795,729,,,,,,,,,,,,,,,,
468623,1622987334783,,,,,,,,-0.06,-0.87,0.59,-27,-8,-11,0.88,,86,12034,79,26,87,0.5,73.3,674,4.87,12.9,48.2,1,43.0,6.26,35.4,0,0,1,1,0,757,-3450,5876,733,,,,,,,,,,,,,,,,
468643,1622987334803,1,2,47,38,21,31,-8,-0.13,-0.89,0.71,-27,-8,-13,0.9,0,86,12042,79,26,87,0.5,74.1,671,4.86,12.8,48.2,1,43.0,6.07,35.4,0,0,1,1,0,767,-2830,13016,744,45.699512,4.910448,73.94,193.0,7,3,2.4,0,0.0,-1,0.0,0.0,0.0,0,5.32,7.8107
468663,1622987334823,,,,,,,,-0.26,-0.86,0.82,-26,-8,-15,0.9,,86,12050,79,26,87,0.5,74.5,673,4.85,12.9,48.2,1,43.0,5.88,35.4,0,0,1,1,0,755,31988,-2344,744,,,,,,,,,,,,,,,,
468683,1622987334843,,,,,,,,-0.32,-0.82,0.91,-25,-9,-16,0.88,,86,12096,79,26,88,0.5,75.1,667,4.85,12.9,48.2,1,43.0,5.99,35.4,0,0,1,1,0,760,-2826,6389,751,,,,,,,,,,,,,,,,
468703,1622987334863,,,,,,,,-0.29,-0.78,1.01,-24,-12,-17,0.83,,86,12159,79,26,88,0.5,75.2,660,4.86,12.8,48.2,1,43.0,5.99,35.4,0,0,1,1,0,764,-13580,-2826,742,,,,,,,,,,,,,,,,
468723,1622987334883,,,,,,,,-0.21,-0.69,1.05,-23,-14,-17,0.72,,86,12191,79,26,88,0.5,74.8,671,4.85,12.9,44.9,1,43.0,5.99,33.8,0,0,1,1,0,772,-4096,-10214,747,,,,,,,,,,,,,,,,
468743,1622987334903,-0,1,46,38,21,30,-6,-0.03,-0.52,0.91,-23,-17,-16,0.52,0,86,12191,79,26,87,0.5,76.1,675,4.85,12.8,44.9,1,43.0,5.84,33.8,0,0,1,1,0,774,-2314,-31068,761,45.699493,4.910439,75.75,193.0,7,3,2.4,0,0.0,-1,0.0,,0.0,0,5.32,7.8124
468763,1622987334923,,,,,,,,0.12,-0.44,0.67,-22,-17,-14,0.45,,86,12214,79,26,88,0.5,75.9,672,4.87,12.9,44.9,1,43.0,5.99,33.8,0,0,1,1,0,773,6790,-22795,758,,,,,,,,,,,,,,,,
468783,1622987334943,,,,,,,,0.13,-0.5,0.44,-21,-16,-12,0.52,,86,12295,79,26,88,0.5,76.0,673,4.87,12.9,44.9,1,43.0,5.99,33.8,0,0,1,1,0,769,-23308,-31068,760,,,,,,,,,,,,,,,,
468803,1622987334963,,,,,,,,0.02,-0.63,0.24,-20,-14,-10,0.63,,86,12392,80,26,87,0.5,76.4,675,4.84,12.9,44.9,1,43.0,5.84,33.8,0,0,1,1,0,775,-3344,-2574,761,,,,,,,,,,,,,,,,
468823,1622987334983,,,,,,,,0.07,-0.65,0.07,-20,-14,-8,0.66,,86,12450,80,26,87,0.5,77.1,677,4.87,12.9,43.8,1,43.0,5.84,33.6,0,0,1,1,0,787,-23308,-2826,771,,,,,,,,,,,,,,,,
468843,1622987335003,0,3,46,38,22,27,-7,0.18,-0.57,0.23,-19,-15,-7,0.6,0,86,12491,80,26,87,0.5,76.5,680,4.87,12.8,43.8,1,43.0,5.84,33.6,0,0,1,1,0,783,-30694,3544,761,45.699493,4.910439,75.75,193.0,7,3,2.4,0,0.0,-1,0.0,0.0,0.0,0,5.32,7.8141
468863,1622987335006,,,,,,,,0.14,-0.51,0.38,-18,-15,-8,0.52,,86,12483,80,26,87,0.5,77.0,672,4.87,12.8,43.8,1,43.0,5.84,33.6,0,0,1,1,0,795,6389,-2826,770,,,,,,,,,,,,,,,,
468883,1622987335026,,,,,,,,0.22,-0.63,0.18,-18,-15,-8,0.66,,86,12516,80,26,87,0.5,77.6,671,4.87,12.8,43.8,1,43.0,5.84,33.6,0,0,1,1,0,795,-2826,5344,776,,,,,,,,,,,,,,,,
468903,1622987335046,,,,,,,,0.24,-0.59,-0.0,-18,-12,-7,0.64,,86,12609,80,26,86,0.5,77.8,681,4.85,12.8,43.8,1,43.0,5.7,33.6,0,0,1,1,0,791,-2826,-7436,780,,,,,,,,,,,,,,,,
468923,1622987335066,,,,,,,,0.22,-0.49,-0.17,-17,-7,-5,0.54,,85,12183,80,26,87,0.5,77.6,683,4.93,13.2,44.2,1,43.0,5.84,34.1,0,0,1,1,0,790,-3368,6905,776,,,,,,,,,,,,,,,,
468943,1622987335100,1,2,45,38,22,27,-7,0.29,-0.58,-0.32,-17,-5,-5,0.65,0,85,11660,80,26,90,0.5,77.5,668,4.96,13.2,44.2,1,43.0,6.19,34.1,0,0,1,1,0,781,-22795,6389,779,45.699455,4.910416,79.06,193.0,7,3,2.4,0,0.0,-1,0.0,,0.0,0,5.33,7.8157
468963,1622987335120,,,,,,,,0.24,-0.57,-0.17,-16,-4,-7,0.62,,85,11425,80,26,90,0.501,78.7,673,4.93,13.2,44.2,1,43.0,6.13,34.1,0,0,1,1,0,774,-23308,-2826,773,,,,,,,,,,,,,,,,
468983,1622987335140,,,,,,,,0.27,-0.52,-0.1,-16,-4,-5,0.59,,85,11180,81,26,91,0.501,77.8,668,4.95,13.2,44.2,1,43.0,6.17,34.1,0,0,1,1,0,773,-2826,-31068,778,,,,,,,,,,,,,,,,
469003,1622987335160,,,,,,,,0.11,-0.48,-0.17,-16,-2,-5,0.49,,85,10977,82,26,91,0.501,77.8,665,4.86,12.9,44.2,1,42.9,6.19,34.1,0,0,1,1,0,769,7413,-31068,778,,,,,,,,,,,,,,,,
469023,1622987335180,,,,,,,,0.15,-0.48,-0.32,-16,-1,-3,0.51,,85,11220,84,26,90,0.501,77.7,650,4.87,13.0,40.9,1,43.0,6.13,31.5,0,0,1,1,0,750,-2830,-23308,777,,,,,,,,,,,,,,,,
469043,1622987335200,0,2,41,29,28,32,-4,0.22,-0.53,-0.46,-16,-1,-1,0.58,0,85,12143,86,26,89,0.501,77.2,671,4.85,12.9,40.9,1,43.0,6.13,31.5,0,0,1,1,0,754,-2344,-2826,776,45.699436,4.910404,80.15,193.0,7,3,2.4,0,0.0,-1,0.0,0.0,0.0,0,5.33,7.8174
469063,1622987335220,,,,,,,,0.09,-0.55,-0.59,-16,2,1,0.56,,85,12755,88,26,87,0.501,77.8,685,4.88,12.8,40.9,1,43.0,5.84,31.5,0,0,1,1,0,764,-23308,-2830,778,,,,,,,,,,,,,,,,
469083,1622987335240,,,,,,,,0.06,-0.67,-0.37,-16,2,-1,0.67,,85,13241,89,26,86,0.501,77.5,681,4.87,12.8,40.9,1,43.0,6.61,31.5,0,0,1,1,0,772,-2344,-2570,768,,,,,,,,,,,,,,,,
469103,1622987335260,,,,,,,,-0.01,-0.54,-0.51,-15,2,1,0.54,,85,13596,89,26,86,0.501,78.1,688,4.83,12.9,40.9,1,43.0,6.56,31.5,0,0,1,1,0,765,6389,-10212,781,,,,,,,,,,,,,,,,
469123,1622987335280,,,,,,,,-0.02,-0.5,-0.35,-15,-1,-1,0.5,,85,13460,89,26,85,0.501,77.0,682,4.9,12.8,54.5,1,43.0,6.38,41.7,0,0,1,1,0,783,-3038,-2826,770,,,,,,,,,,,,,,,,
469143,1622987335300,0,2,39,32,26,31,-4,0.01,-0.53,-0.49,-14,-0,0,0.53,0,85,13260,89,26,84,0.501,77.6,687,4.85,12.8,54.5,1,43.0,6.21,41.7,0,0,1,1,0,811,-10214,-30694,774,45.699417,4.910391,80.16,193.0,7,3,2.4,0,0.0,-1,0.0,,0.0,0,5.33,7.819
469163,1622987335320,,,,,,,,0.16,-0.35,-0.43,-14,-2,1,0.38,,85,12939,89,26,85,0.501,78.3,675,4.86,12.8,54.5,1,43.0,5.99,41.7,0,0,1,1,0,825,-2826,-25858,783,,,,,,,,,,,,,,,,
469183,1622987335340,,,,,,,,0.09,-0.37,-0.23,-13,-3,-1,0.38,,85,12737,89,26,85,0.501,78.8,677,4.89,12.9,54.5,1,43.0,5.81,41.7,0,0,1,1,0,805,7413,204,778,,,,,,,,,,,,,,,,
469203,1622987335360,,,,,,,,0.19,-0.5,-0.29,-13,-3,-3,0.53,,85,12600,90,26,85,0.5,77.9,673,4.85,12.9,54.5,1,43.0,5.63,41.7,0,0,1,1,0,803,-31068,-23490,779,,,,,,,,,,,,,,,,
469223,1622987335380,,,,,,,,0.14,-0.52,-0.43,-12,-1,-1,0.54,,85,12583,90,26,85,0.5,78.6,672,4.84,12.9,41.2,1,43.0,5.55,32.3,0,0,1,1,0,809,-10218,-3888,786,,,,,,,,,,,,,,,,
469243,1622987335401,1,2,43,38,23,27,-4,0.16,-0.44,-0.56,-12,0,1,0.47,0,85,12686,90,26,85,0.5,79.0,676,4.87,12.8,41.2,1,43.0,5.55,32.3,0,0,1,1,0,809,-31068,-23490,790,45.699402,4.910377,80.34,193.0,7,3,2.4,0,0.0,-1,0.0,0.0,0.0,0,5.33,7.8207
469263,1622987335421,,,,,,,,0.17,-0.51,-0.46,-11,0,-1,0.54,,85,12842,90,26,85,0.5,79.1,678,4.87,12.8,41.2,1,43.0,5.55,32.3,0,0,1,1,0,808,-10216,-25858,790,,,,,,,,,,,,,,,,
469283,1622987335441,,,,,,,,0.31,-0.45,-0.43,-11,-1,-1,0.54,,85,12975,89,26,85,0.5,78.4,666,4.85,12.8,41.2,1,43.0,5.55,32.3,0,0,1,1,0,816,-8148,1524,795,,,,,,,,,,,,,,,,
469303,1622987335461,,,,,,,,0.18,-0.48,-0.56,-11,-2,-0,0.51,,85,13002,89,26,85,0.5,80.0,678,4.85,12.8,41.2,1,43.0,5.55,32.3,0,0,1,1,0,818,-12152,-2830,798,,,,,,,,,,,,,,,,
469323,1622987335481,,,,,,,,0.18,-0.39,-0.4,-10,-3,-0,0.43,,85,13048,90,26,85,0.5,80.6,692,4.88,12.9,41.8,1,43.0,5.55,33.5,0,0,1,1,0,822,-30694,-2358,806,,,,,,,,,,,,,,,,
469343,1622987335500,-0,2,43,39,24,27,-1,0.26,-0.39,-0.53,-10,-1,0,0.47,0,85,13148,89,26,85,0.5,79.7,678,4.84,12.9,41.8,1,43.0,5.55,33.5,0,0,1,1,0,820,-30694,3462,803,45.699383,4.910363,81.83,193.0,7,3,2.4,0,0.0,-1,0.0,,0.0,0,5.33,7.8224
469363,1622987335520,,,,,,,,0.3,-0.37,-0.62,-10,1,1,0.48,,85,13139,89,26,85,0.5,80.2,676,4.83,12.8,41.8,1,43.0,5.55,33.5,0,0,1,1,0,833,-2560,-13068,802,,,,,,,,,,,,,,,,
469383,1622987335540,,,,,,,,0.25,-0.38,-0.45,-9,-1,-1,0.46,,85,13057,89,26,85,0.5,80.9,672,4.88,12.8,41.8,1,43.0,5.55,33.5,0,0,1,1,0,825,-30694,-13068,808,,,,,,,,,,,,,,,,
469403,1622987335560,,,,,,,,0.23,-0.46,-0.58,-9,0,1,0.51,,85,13075,89,26,85,0.5,81.3,689,4.83,12.8,41.8,1,43.0,5.55,33.5,0,0,1,1,0,826,-23490,-3580,818,,,,,,,,,,,,,,,,
469423,1622987335580,,,,,,,,0.3,-0.28,-0.53,-8,-0,2,0.41,,85,13130,89,26,85,0.5,81.3,690,4.88,12.8,41.7,1,43.0,5.55,33.7,0,0,1,1,0,833,1524,136,819,,,,,,,,,,,,,,,,
469443,1622987335600,0,2,41,38,23,25,1,0.32,-0.42,-0.55,-8,-0,1,0.53,0,85,13260,89,26,85,0.5,82.0,693,4.89,12.8,41.7,1,43.0,5.55,33.7,0,0,1,1,0,832,-2358,-22796,813,45.699364,4.910348,83.12,193.0,7,3,2.4,0,0.0,-1,0.0,0.0,0.0,0,5.34,7.824
469463,1622987335620,,,,,,,,0.26,-0.4,-0.67,-8,0,2,0.48,,84,13345,88,26,84,0.5,82.3,690,4.82,12.8,41.7,1,43.0,5.41,33.7,0,0,1,1,0,834,-22796,-3344,811,,,,,,,,,,,,,,,,
469483,1622987335640,,,,,,,,0.2,-0.36,-0.59,-7,-2,1,0.41,,84,13297,85,26,85,0.5,81.2,676,4.88,12.8,41.7,1,43.0,5.55,33.7,0,0,1,1,0,841,-388,136,828,,,,,,,,,,,,,,,,
469503,1622987335660,,,,,,,,0.19,-0.46,-0.7,-6,-2,4,0.49,,84,13232,80,26,84,0.5,82.9,678,4.85,12.8,41.7,1,43.0,5.41,33.7,0,0,1,1,0,848,-25858,-31068,816,,,,,,,,,,,,,,,,
469523,1622987335680,,,,,,,,0.23,-0.27,-0.62,-6,-2,4,0.35,,84,13307,75,26,84,0.5,83.2,693,4.89,12.9,40.2,1,43.0,5.28,33.2,0,0,1,1,0,842,-22796,-3450,832,,,,,,,,,,,,,,,,
469543,1622987335700,1,1,41,40,26,25,3,0.27,-0.23,-0.73,-5,1,5,0.36,0,84,13373,71,26,85,0.5,82.8,687,4.87,12.8,40.2,1,43.0,5.41,33.2,0,0,1,1,0,842,-2356,-9995,826,45.699348,4.910333,84.29,193.0,7,3,2.4,0,0.0,-1,0.0,,0.0,0,5.34,7.8257
469563,1622987335720,,,,,,,,0.36,-0.35,-0.77,-5,2,5,0.5,,84,13345,67,26,85,0.5,82.9,676,4.87,12.8,40.2,1,43.0,5.41,33.2,0,0,1,1,0,845,-13068,-23308,828,,,,,,,,,,,,,,,,
469583,1622987335740,,,,,,,,0.44,-0.25,-0.69,-4,1,6,0.5,,84,13269,62,26,85,0.5,82.9,676,4.86,12.8,40.2,1,43.0,5.41,33.2,0,0,1,1,0,849,1037,-2574,828,,,,,,,,,,,,,,,,
469603,1622987335760,,,,,,,,0.4,-0.19,-0.76,-3,1,5,0.45,,84,13392,55,26,85,0.5,83.4,693,4.87,13.0,40.2,1,43.0,5.41,33.2,0,0,1,1,0,844,-13068,-1578,829,,,,,,,,,,,,,,,,
469623,1622987335780,,,,,,,,0.4,-0.32,-0.7,-3,1,3,0.52,,84,13392,44,26,84,0.5,82.8,688,4.9,12.8,40.8,1,43.0,5.28,33.6,0,0,1,1,0,848,-3344,-2574,829,,,,,,,,,,,,,,,,
469643,1622987335800,11,3,40,40,27,27,2,0.29,-0.18,-0.81,-3,1,4,0.34,0,84,13316,27,26,80,0.5,83.8,693,4.85,12.9,40.8,1,43.0,4.95,33.6,0,0,1,1,0,848,-23308,-2574,831,45.699329,4.910317,85.89,192.9,7,3,2.4,0,0.0,-1,0.0,0.0,0.0,0,5.34,7.8274
469663,1622987335820,,,,,,,,0.19,-0.16,-0.57,-2,-2,1,0.25,,84,13288,10,26,69,0.5,82.6,681,4.88,12.8,40.8,1,43.0,4.36,33.6,0,0,1,1,0,843,-13068,-31068,826,,,,,,,,,,,,,,,,
469683,1622987335840,,,,,,,,0.05,-0.26,-0.69,-2,-1,2,0.27,,84,13111,4,26,57,0.5,81.6,687,4.87,12.9,40.8,1,41.2,3.86,33.6,0,0,1,1,0,835,-2830,-31066,816,,,,,,,,,,,,,,,,
469703,1622987335860,,,,,,,,-0.06,-0.23,-0.8,-2,-0,2,0.24,,84,12686,4,26,50,0.5,83.2,690,4.88,12.9,40.8,1,38.8,3.48,33.6,0,0,1,1,0,826,-2826,-13068,824,,,,,,,,,,,,,,,,
469723,1622987335880,,,,,,,,-0.18,-0.06,-0.67,-2,-0,3,0.19,,84,12417,4,26,45,0.5,81.7,682,4.89,12.9,22.9,1,36.7,3.22,18.8,0,0,1,1,0,814,3544,-31068,822,,,,,,,,,,,,,,,,
469743,1622987335900,43,25,28,24,32,32,0,-0.33,-0.03,-0.44,-2,1,5,0.33,0,84,12183,4,26,40,0.5,80.7,677,4.89,12.9,22.9,1,33.6,2.99,18.8,0,0,1,1,0,798,16118,31988,807,45.69931,4.910302,86.45,192.9,7,3,2.4,0,0.0,-1,0.0,,0.0,0,5.34,7.8291
469763,1622987335920,,,,,,,,-0.46,0.14,-0.29,-2,2,5,0.48,,84,11935,4,26,37,0.5,80.2,672,4.92,12.9,22.9,1,32.2,2.93,18.8,0,0,1,1,0,802,204,-1566,799,,,,,,,,,,,,,,,,
469783,1622987335940,,,,,,,,-0.44,0.2,-0.22,-1,2,6,0.48,,84,11696,4,26,34,0.5,79.8,677,4.93,13.0,22.9,1,30.8,2.89,18.8,0,0,1,1,0,788,204,-2344,795,,,,,,,,,,,,,,,,
469803,1622987335960,,,,,,,,-0.43,0.35,-0.2,-2,2,4,0.55,,84,11503,4,26,33,0.5,79.4,665,4.91,12.9,22.9,1,30.2,2.84,18.8,0,0,1,1,0,758,-22795,-22795,784,,,,,,,,,,,,,,,,
469823,1622987335980,,,,,,,,-0.56,0.17,-0.33,-2,3,6,0.58,,84,11460,4,26,31,0.5,77.3,665,4.82,13.0,19.1,1,29.5,2.81,15.0,0,0,1,1,0,746,-3368,-3450,766,,,,,,,,,,,,,,,,
469843,1622987336000,33,20,20,20,35,34,1,-0.5,0.04,-0.47,-1,2,7,0.5,0,84,11496,4,25,30,0.5,76.7,672,4.87,13.0,19.1,1,29.1,2.79,15.0,0,0,1,1,0,764,-10214,-13072,767,45.69931,4.910302,86.45,192.9,7,3,2.4,0,0.0,-1,0.0,0.0,0.0,0,5.35,7.8307
469863,1622987336007,,,,,,,,-0.53,0.21,-0.6,-1,1,5,0.57,,84,11467,4,25,28,0.5,76.0,676,4.9,13.0,19.1,1,28.2,2.76,15.0,0,0,1,1,0,691,6389,1524,760,,,,,,,,,,,,,,,,
469883,1622987336027,,,,,,,,-0.6,0.07,-0.38,-2,2,3,0.61,,84,11336,4,25,27,0.5,76.8,682,4.91,13.0,19.1,1,27.8,2.74,15.0,0,0,1,1,0,644,-31068,-23490,760,,,,,,,,,,,,,,,,
469903,1622987336047,,,,,,,,-0.63,0.11,-0.3,-1,3,6,0.64,,84,11088,4,25,27,0.5,74.8,670,4.92,13.0,19.1,1,27.8,2.74,15.0,0,0,1,1,0,690,-2358,11576,748,,,,,,,,,,,,,,,,
469923,1622987336067,,,,,,,,-0.61,0.08,-0.44,-2,1,1,0.61,,84,10869,4,25,26,0.5,73.5,666,4.83,13.0,18.6,1,27.4,2.72,13.9,0,0,1,1,0,700,3462,3543,731,,,,,,,,,,,,,,,,
469943,1622987336099,30,18,20,22,40,38,6,-0.56,0.03,-0.24,-1,0,3,0.56,0,84,10605,4,25,26,0.5,74.3,663,4.95,13.0,18.6,1,27.4,2.72,13.9,0,0,1,1,0,723,-2830,6658,733,45.699276,4.91027,81.94,193.0,7,3,2.7,0,0.0,-1,0.0,,0.0,0,5.35,7.8324
469963,1622987336119,,,,,,,,-0.58,-0.04,-0.38,-1,2,5,0.58,,84,10515,4,25,26,0.5,73.5,651,4.91,13.0,18.6,1,27.4,2.72,13.9,0,0,1,1,0,717,-31066,19188,727,,,,,,,,,,,,,,,,
469983,1622987336139,,,,,,,,-0.54,-0.18,-0.34,-0,-0,3,0.56,,84,10545,4,25,25,0.5,72.1,657,4.91,13.0,18.6,1,27.0,2.71,13.9,0,0,1,1,0,688,-2826,-3584,724,,,,,,,,,,,,,,,,
470003,1622987336159,,,,,,,,-0.54,-0.19,-0.48,-0,2,3,0.57,,84,10510,5,25,25,0.5,72.5,652,4.92,13.0,18.6,1,27.0,2.71,13.9,0,0,1,1,0,692,-4091,-388,718,,,,,,,,,,,,,,,,
470023,1622987336179,,,,,,,,-0.49,-0.1,-0.55,1,1,4,0.5,,84,10492,15,25,26,0.5,71.7,660,4.9,13.0,18.5,1,27.4,3.02,13.2,0,0,1,1,0,662,6658,-2830,701,,,,,,,,,,,,,,,,
470043,1622987336202,34,18,18,20,40,38,3,-0.49,-0.17,-0.67,1,0,5,0.51,0,84,10410,26,25,32,0.5,70.7,652,4.95,13.0,18.5,1,30.0,3.13,13.2,0,0,1,1,0,654,19188,-27404,707,45.699253,4.910255,78.71,192.9,7,3,2.4,0,0.0,-1,0.0,0.0,0.0,0,5.35,7.8341
470063,1622987336222,,,,,,,,-0.6,-0.19,-0.53,1,-2,4,0.63,,84,10347,39,25,42,0.5,69.7,660,4.8,13.0,18.5,1,34.2,3.32,13.2,0,0,1,1,0,668,6208,31988,688,,,,,,,,,,,,,,,,
470083,1622987336242,,,,,,,,-0.57,-0.34,-0.65,1,-0,1,0.66,,84,10581,48,25,53,0.5,68.8,649,4.9,13.0,18.5,1,39.7,4.07,13.2,0,0,1,1,0,658,14342,31988,684,,,,,,,,,,,,,,,,
470103,1622987336262,,,,,,,,-0.58,-0.29,-0.47,2,1,4,0.65,,84,10984,52,25,61,0.5,68.9,667,4.86,13.0,18.5,1,43.0,4.37,13.2,0,0,1,1,0,640,-3584,-8429,680,,,,,,,,,,,,,,,,
470123,1622987336282,,,,,,,,-0.5,-0.14,-0.6,2,1,3,0.52,,84,11384,52,25,66,0.5,67.6,671,4.88,13.0,35.2,1,43.0,4.76,23.7,0,0,1,1,0,650,-2826,-26380,673,,,,,,,,,,,,,,,,
470143,1622987336301,35,18,18,18,40,38,-1,-0.5,-0.04,-0.59,2,-0,1,0.51,0,84,11770,52,25,69,0.5,66.6,654,4.89,12.9,35.2,1,43.0,4.99,23.7,0,0,1,1,0,668,-3578,244,666,45.699238,4.910241,74.87,192.9,7,3,2.4,0,0.0,-1,0.0,,0.0,0,5.35,7.8357
470163,1622987336321,,,,,,,,-0.5,-0.19,-0.39,2,0,2,0.53,,84,11927,42,25,72,0.5,65.7,667,4.87,12.9,35.2,1,43.0,5.14,23.7,0,0,1,1,0,681,-2826,16118,660,,,,,,,,,,,,,,,,
470183,1622987336341,,,,,,,,-0.62,-0.29,-0.52,2,-0,4,0.68,,84,11609,24,25,71,0.5,66.8,660,4.88,12.8,35.2,1,43.0,4.36,23.7,0,0,1,1,0,700,-8429,-13312,668,,,,,,,,,,,,,,,,
470203,1622987336361,,,,,,,,-0.45,-0.17,-0.65,2,-4,2,0.49,,84,11247,4,25,61,0.5,65.8,660,4.91,12.9,35.2,1,43.0,3.87,23.7,0,0,1,1,0,708,11566,16118,652,,,,,,,,,,,,,,,,
470223,1622987336381,,,,,,,,-0.33,-0.26,-0.43,1,-5,1,0.42,,84,10806,4,25,51,0.5,65.6,660,4.89,12.9,29.0,1,39.1,3.41,18.9,0,0,1,1,0,693,-2830,14342,656,,,,,,,,,,,,,,,,
470243,1622987336401,20,12,26,26,31,31,-1,-0.35,-0.4,-0.56,1,-4,-1,0.53,0,84,10324,4,25,45,0.5,66.4,651,4.93,13.0,29.0,1,36.5,3.1,18.9,0,0,1,1,0,691,31988,3543,664,45.699223,4.910226,71.49,192.9,7,3,2.4,0,0.0,-1,0.0,0.0,0.0,0,5.35,7.8374
470263,1622987336421,,,,,,,,-0.4,-0.33,-0.42,1,-3,0,0.52,,84,9811,4,25,40,0.5,65.8,659,4.88,13.0,29.0,1,32.7,2.8,18.9,0,0,1,1,0,678,-3488,-2345,659,,,,,,,,,,,,,,,,
470283,1622987336441,,,,,,,,-0.5,-0.17,-0.22,1,-3,-0,0.53,,84,9532,4,25,37,0.5,66.3,638,4.92,12.9,29.0,1,31.4,2.75,18.9,0,0,1,1,0,663,-8429,3543,663,,,,,,,,,,,,,,,,
470303,1622987336461,,,,,,,,-0.61,-0.22,-0.26,1,-4,-0,0.64,,84,9314,4,25,34,0.5,64.7,629,4.78,13.0,29.0,1,30.5,2.61,18.9,0,0,1,1,0,657,-2830,24583,655,,,,,,,,,,,,,,,,
470323,1622987336481,,,,,,,,-0.66,-0.28,-0.4,0,-2,-1,0.72,,84,9110,4,25,32,0.5,64.0,625,4.81,12.8,16.5,1,30.0,2.49,10.7,0,0,1,1,0,646,24,16599,640,,,,,,,,,,,,,,,,
470343,1622987336501,43,26,25,22,37,36,2,-0.67,-0.25,-0.53,0,-1,-1,0.71,0,84,9057,4,25,30,0.5,64.1,625,4.86,13.0,16.5,1,29.1,2.47,10.7,0,0,1,1,0,601,-3584,-30159,631,45.699207,4.910214,70.17,192.9,7,3,2.4,0,0.0,-1,0.0,,0.0,0,5.36,7.839
470363,1622987336521,,,,,,,,-0.69,-0.27,-0.45,0,-1,-1,0.74,,84,9049,4,25,29,0.5,63.4,631,4.75,13.0,16.5,1,28.7,2.47,10.7,0,0,1,1,0,558,30721,-22359,634,,,,,,,,,,,,,,,,
470383,1622987336541,,,,,,,,-0.74,-0.24,-0.55,0,-0,-1,0.78,,84,8882,5,25,27,0.5,62.0,633,4.75,12.9,16.5,1,27.8,2.47,10.7,0,0,1,1,0,514,30721,-18032,620,,,,,,,,,,,,,,,,
470403,1622987336561,,,,,,,,-0.85,-0.12,-0.42,0,1,-2,0.86,,83,8660,5,25,27,0.5,61.4,622,4.91,13.0,16.5,1,27.8,2.47,10.7,0,0,1,1,0,545,-768,-9072,618,,,,,,,,,,,,,,,,
470423,1622987336581,,,,,,,,-0.79,-0.08,-0.35,0,2,-0,0.79,,83,8449,5,25,26,0.5,60.2,615,4.91,13.0,15.7,1,27.4,2.44,9.7,0,0,1,1,0,580,-768,2524,605,,,,,,,,,,,,,,,,
470443,1622987336601,45,25,17,18,40,38,3,-0.85,-0.18,-0.39,0,0,-1,0.87,0,83,8344,5,25,26,0.5,60.3,611,4.92,13.1,15.7,1,27.3,2.35,9.7,0,0,1,1,0,567,17344,6274,600,45.699192,4.910202,67.69,192.9,7,3,2.4,0,0.0,-1,0.0,0.0,0.0,0,5.36,7.8407
470463,1622987336621,,,,,,,,-0.87,-0.15,-0.52,0,0,-2,0.88,,83,8337,5,25,26,0.5,59.3,603,4.95,13.0,15.7,1,27.3,2.36,9.7,0,0,1,1,0,494,-25872,-899,593,,,,,,,,,,,,,,,,
470483,1622987336641,,,,,,,,-0.93,-0.26,-0.62,0,-0,-3,0.96,,83,8173,4,25,26,0.5,58.2,592,4.91,13.1,15.7,1,27.3,2.22,9.7,0,0,1,1,0,471,8488,-6387,579,,,,,,,,,,,,,,,,
470503,1622987336661,,,,,,,,-0.99,-0.25,-0.73,1,-0,-2,1.02,,83,7958,4,24,25,0.5,57.9,583,4.97,13.1,15.7,1,26.9,2.11,9.7,0,0,1,1,0,483,1,-18108,579,,,,,,,,,,,,,,,,
470523,1622987336681,,,,,,,,-1.02,-0.27,-0.84,0,2,-1,1.06,,83,7712,4,24,25,0.5,56.9,567,4.86,13.0,13.2,1,26.7,2.11,7.6,0,0,1,1,0,494,-30159,998,568,,,,,,,,,,,,,,,,
470543,1622987336701,44,25,15,16,41,39,3,-1.04,-0.14,-0.93,1,1,0,1.05,0,83,7512,4,24,25,0.5,55.9,552,4.93,13.0,13.2,1,26.5,2.11,7.6,0,0,1,1,0,521,-22263,-3856,559,45.699177,4.910191,64.31,192.9,7,3,2.4,0,0.0,-1,0.0,,0.0,0,5.36,7.8424
470563,1622987336721,,,,,,,,-1.06,-0.11,-1.02,1,1,0,1.06,,83,7301,4,24,25,0.5,55.1,549,4.93,12.9,13.2,1,26.3,2.11,7.6,0,0,1,1,0,544,-32248,1,551,,,,,,,,,,,,,,,,
470583,1622987336741,,,,,,,,-1.12,-0.15,-1.04,1,1,-1,1.13,,83,7200,4,24,24,0.5,54.8,524,4.95,13.0,13.2,1,26.2,2.06,7.6,0,0,1,1,0,513,14504,-23367,539,,,,,,,,,,,,,,,,
470603,1622987336761,,,,,,,,-1.09,-0.11,-0.78,1,-1,-2,1.09,,83,7203,4,24,24,0.5,53.9,517,4.92,13.1,13.2,1,26.2,2.06,7.6,0,0,1,1,0,459,14504,17628,537,,,,,,,,,,,,,,,,
470623,1622987336781,,,,,,,,-1.02,-0.1,-0.83,2,-1,-0,1.02,,83,7192,4,24,24,0.5,53.3,523,4.9,13.1,12.7,1,26.1,2.06,6.8,0,0,1,1,0,408,2104,-26615,530,,,,,,,,,,,,,,,,
470643,1622987336801,41,22,15,16,41,40,4,-1.09,-0.03,-0.93,2,-0,1,1.1,0,83,7022,8,24,24,0.5,53.1,519,4.91,13.0,12.7,1,26.0,2.06,6.8,0,0,1,1,0,390,-22519,-8985,523,45.699165,4.910179,60.15,192.8,7,3,2.4,0,0.0,-1,0.0,0.0,0.0,0,5.36,7.844
470663,1622987336821,,,,,,,,-1.08,-0.08,-0.68,3,-2,-1,1.09,,83,6860,17,24,26,0.5,51.6,505,4.96,13.1,12.7,1,26.5,2.09,6.8,0,0,1,1,0,420,-3482,26704,512,,,,,,,,,,,,,,,,
470683,1622987336841,,,,,,,,-1.16,-0.01,-0.79,3,-0,-0,1.16,,83,6653,24,24,33,0.5,50.7,498,4.86,13.1,12.7,1,28.9,2.18,6.8,0,0,1,1,0,436,-21872,8488,495,,,,,,,,,,,,,,,,
470703,1622987336861,,,,,,,,-1.1,0.06,-0.56,4,-0,1,1.1,,83,6663,28,24,43,0.5,49.7,485,4.92,13.1,12.7,1,31.5,1.16,6.8,0,0,1,1,0,458,248,13552,497,,,,,,,,,,,,,,,,
470723,1622987336881,,,,,,,,-1.13,0.07,-0.68,4,1,2,1.13,,83,6954,28,24,52,0.5,49.6,498,4.9,13.1,15.6,1,34.9,2.49,7.8,0,0,1,1,0,411,3,28696,492,,,,,,,,,,,,,,,,
470743,1622987336901,40,21,15,15,41,40,2,-1.16,-0.01,-0.67,4,1,2,1.16,0,83,7123,28,24,60,0.5,49.2,503,4.96,13.0,15.6,1,37.9,2.73,7.8,0,0,1,1,0,412,-32768,-6656,482,45.69915,4.910168,56.0,192.8,7,3,2.4,0,0.0,-1,0.0,,0.0,0,5.36,7.8457
470763,1622987336921,,,,,,,,-1.18,-0.05,-0.73,4,0,1,1.18,,83,7321,25,24,65,0.5,47.4,512,4.95,13.1,15.6,1,39.2,3.51,7.8,0,0,1,1,0,421,-9203,-1562,471,,,,,,,,,,,,,,,,
470783,1622987336941,,,,,,,,-1.18,-0.03,-0.51,4,-1,-1,1.18,,83,7405,20,24,67,0.5,46.7,525,4.93,13.0,15.6,1,39.5,3.81,7.8,0,0,1,1,0,464,243,-6656,463,,,,,,,,,,,,,,,,
470803,1622987336961,,,,,,,,-1.21,-0.01,-0.6,4,-1,-2,1.21,,83,7524,20,24,67,0.5,46.6,534,4.92,13.0,15.6,1,39.2,3.76,7.8,0,0,1,1,0,467,2211,-6656,458,,,,,,,,,,,,,,,,
470823,1622987336981,,,,,,,,-1.18,-0.02,-0.52,4,-3,-4,1.18,,83,7572,20,24,66,0.5,45.4,536,5.0,13.1,28.2,1,39.0,3.56,13.1,0,0,1,1,0,465,-6387,-23623,454,,,,,,,,,,,,,,,,
470843,1622987337001,33,17,15,18,40,38,2,-1.14,-0.06,-0.49,3,-3,-4,1.14,0,83,7491,27,24,69,0.5,45.6,528,4.88,13.0,28.2,1,39.7,3.81,13.1,0,0,1,1,0,468,-3267,3580,456,45.69915,4.910168,56.0,192.8,7,3,2.4,0,0.0,-1,0.0,0.0,0.0,0,5.37,7.8474
470863,1622987337008,,,,,,,,-1.16,-0.1,-0.5,3,-3,-5,1.16,,83,7479,30,24,74,0.5,45.5,525,4.9,13.0,28.2,1,40.9,4.12,13.1,0,0,1,1,0,463,-26615,3576,443,,,,,,,,,,,,,,,,
470883,1622987337028,,,,,,,,-1.1,-0.16,-0.51,3,-4,-6,1.11,,83,7428,31,24,78,0.5,44.9,526,4.91,13.1,28.2,1,41.4,2.98,13.1,0,0,1,1,0,461,-18341,2211,449,,,,,,,,,,,,,,,,
470903,1622987337048,,,,,,,,-1.06,-0.13,-0.35,3,-6,-8,1.07,,83,7393,31,24,81,0.5,44.5,525,4.96,13.1,28.2,1,41.5,4.87,13.1,0,0,1,1,0,461,23400,6193,445,,,,,,,,,,,,,,,,
470923,1622987337068,,,,,,,,-1.0,-0.19,-0.17,3,-7,-8,1.02,,84,7408,31,24,84,0.5,44.1,523,4.93,13.0,38.7,1,41.9,4.94,16.8,0,0,1,1,0,459,26704,-18108,431,,,,,,,,,,,,,,,,
470943,1622987337098,29,16,21,22,36,34,1,-0.93,-0.13,0.01,3,-8,-9,0.94,0,84,7376,25,24,84,0.5,43.2,512,4.95,13.1,38.7,1,42.2,4.91,16.8,0,0,1,1,0,457,13552,-18108,432,45.699127,4.910149,49.03,192.8,7,3,2.4,0,0.0,-1,0.0,,0.0,0,5.37,7.849
470963,1622987337118,,,,,,,,-0.83,-0.05,-0.01,2,-7,-8,0.83,,84,7327,16,24,81,0.5,43.5,516,4.9,13.1,38.7,1,42.1,4.63,16.8,0,0,1,1,0,459,13180,17628,435,,,,,,,,,,,,,,,,
470983,1622987337138,,,,,,,,-0.76,0.02,-0.17,2,-7,-6,0.76,,84,7222,8,24,76,0.5,43.3,511,4.89,13.1,38.7,1,42.2,3.9,16.8,0,0,1,1,0,457,3635,6193,434,,,,,,,,,,,,,,,,
471003,1622987337158,,,,,,,,-0.74,-0.0,-0.29,2,-7,-6,0.74,,84,7107,5,24,70,0.5,43.5,511,4.86,13.0,38.7,1,41.0,3.55,16.8,0,0,1,1,0,456,243,-6387,435,,,,,,,,,,,,,,,,
471023,1622987337178,,,,,,,,-0.7,-0.02,-0.1,2,-7,-7,0.7,,84,6985,5,24,66,0.5,43.4,493,5.02,13.1,26.0,1,39.9,3.16,11.2,0,0,1,1,0,452,-4082,10305,429,,,,,,,,,,,,,,,,
471043,1622987337202,30,16,25,25,34,33,-2,-0.72,0.02,-0.26,2,-4,-4,0.72,0,84,6880,5,24,61,0.5,42.4,490,4.85,13.0,26.0,1,37.7,2.46,11.2,0,0,1,1,0,445,-21944,26704,424,45.699116,4.910139,47.03,192.7,7,3,2.4,0,0.0,-1,0.0,0.0,0.0,0,5.37,7.8507
471063,1622987337222,,,,,,,,-0.73,-0.06,-0.07,1,-5,-6,0.73,,84,6828,5,24,58,0.5,41.8,482,4.94,13.0,26.0,1,36.5,2.36,11.2,0,0,1,1,0,436,-3414,-7939,425,,,,,,,,,,,,,,,,
471083,1622987337242,,,,,,,,-0.71,0.03,-0.23,1,-2,-3,0.71,,84,6833,5,25,55,0.5,42.3,493,4.86,13.1,26.0,1,35.6,2.3,11.2,0,0,1,1,0,431,11560,-3314,423,,,,,,,,,,,,,,,,
471103,1622987337262,,,,,,,,-0.67,-0.07,-0.04,0,-5,-6,0.67,,84,6776,5,25,52,0.5,42.1,487,4.95,13.0,26.0,1,34.4,2.28,11.2,0,0,1,1,0,424,-3414,13180,413,,,,,,,,,,,,,,,,
471123,1622987337282,,,,,,,,-0.67,-0.09,-0.21,-0,-2,-3,0.68,,84,6718,5,25,50,0.5,41.6,486,4.87,13.1,16.9,1,33.6,2.28,7.1,0,0,1,1,0,425,2524,-3856,416,,,,,,,,,,,,,,,,
471143,1622987337302,33,18,25,23,35,35,-6,-0.62,-0.06,-0.02,-1,-5,-5,0.62,0,84,6519,5,25,49,0.5,41.4,487,4.97,13.0,16.9,1,32.8,2.3,7.1,0,0,1,1,0,419,10541,-8165,409,45.699108,4.910131,45.82,192.7,7,3,2.4,0,0.0,-1,0.0,,0.0,0,5.37,7.8524
471163,1622987337322,,,,,,,,-0.67,-0.11,-0.02,-1,-5,-7,0.68,,84,6421,5,25,47,0.5,41.1,477,4.9,13.1,16.9,1,32.1,2.31,7.1,0,0,1,1,0,408,1,18584,411,,,,,,,,,,,,,,,,
471183,1622987337342,,,,,,,,-0.74,-0.09,-0.18,-2,-2,-5,0.75,,84,6289,5,25,45,0.5,40.5,471,4.85,13.1,16.9,1,31.3,2.32,7.1,0,0,1,1,0,403,-6656,10392,405,,,,,,,,,,,,,,,,
471203,1622987337362,,,,,,,,-0.83,-0.06,-0.33,-3,2,-1,0.83,,84,6173,4,25,44,0.5,40.3,451,4.98,13.2,16.9,1,30.9,2.33,7.1,0,0,1,1,0,396,-1562,11545,403,,,,,,,,,,,,,,,,
471223,1622987337382,,,,,,,,-0.93,-0.04,-0.47,-4,7,2,0.93,,84,6021,4,25,43,0.5,39.8,450,4.95,13.2,16.3,1,30.5,2.33,6.5,0,0,1,1,0,388,19125,-6656,396,,,,,,,,,,,,,,,,
471243,1622987337400,35,18,25,20,37,38,-7,-1.01,-0.05,-0.6,-5,10,5,1.01,0,84,5885,4,25,42,0.5,38.5,448,4.97,13.2,16.3,1,30.0,2.37,6.5,0,0,1,1,0,377,742,-1562,385,45.699097,4.910122,44.46,192.6,7,3,2.4,0,0.0,-1,0.0,0.0,0.0,0,5.37,7.8541
471263,1622987337420,,,,,,,,-1.01,-0.1,-0.72,-6,10,3,1.02,,84,5735,4,25,41,0.5,38.7,443,4.9,13.1,16.3,1,29.5,2.42,6.5,0,0,1,1,0,364,3,-19126,387,,,,,,,,,,,,,,,,
471283,1622987337440,,,,,,,,-0.92,-0.11,-0.49,-6,4,1,0.93,,84,5580,5,25,41,0.5,38.5,427,4.86,13.0,16.3,1,29.1,2.48,6.5,0,0,1,1,0,365,0,3,385,,,,,,,,,,,,,,,,
471303,1622987337460,,,,,,,,-1.0,-0.05,-0.61,-7,9,4,1.0,,84,5461,5,25,42,0.5,37.3,413,4.92,13.1,16.3,1,29.1,2.54,6.5,0,0,1,1,0,351,-6640,1,373,,,,,,,,,,,,,,,,
471323,1622987337480,,,,,,,,-0.96,-0.06,-0.65,-7,5,1,0.96,,84,5299,5,25,41,0.5,36.4,397,4.89,13.1,17.0,1,28.5,2.6,6.3,0,0,1,1,0,342,-6644,-6656,364,,,,,,,,,,,,,,,,
471343,1622987337502,25,11,23,19,37,39,-8,-0.98,-0.08,-0.59,-8,7,3,0.98,0,84,5176,5,25,42,0.5,36.1,381,4.91,13.1,17.0,1,28.5,2.65,6.3,0,0,1,1,0,342,-30454,2790,361,45.699089,4.910115,41.62,192.6,7,3,2.4,0,0.0,-1,0.0,,0.0,0,5.37,7.8557
471363,1622987337522,,,,,,,,-0.87,-0.08,-0.38,-9,3,1,0.88,,84,5012,5,25,42,0.5,35.8,382,4.91,13.0,17.0,1,28.2,2.71,6.3,0,0,1,1,0,345,6668,-6644,358,,,,,,,,,,,,,,,,
471383,1622987337542,,,,,,,,-0.83,-0.13,-0.51,-9,3,1,0.84,,84,4903,5,25,43,0.5,35.9,369,4.95,13.2,17.0,1,27.3,2.68,6.3,0,0,1,1,0,338,-30438,3302,359,,,,,,,,,,,,,,,,
471403,1622987337562,,,,,,,,-0.85,-0.15,-0.63,-9,6,4,0.86,,84,4907,5,25,44,0.5,36.1,359,4.92,13.2,17.0,1,27.6,2.71,6.3,0,0,1,1,0,340,2811,-31206,361,,,,,,,,,,,,,,,,
471423,1622987337582,,,,,,,,-0.81,-0.14,-0.42,-9,2,2,0.83,,84,4993,5,25,44,0.5,35.6,365,4.93,13.1,17.5,1,28.6,2.73,6.2,0,0,1,1,0,340,-1246,-10554,356,,,,,,,,,,,,,,,,
471443,1622987337602,1,2,25,21,35,36,-7,-0.78,-0.14,-0.55,-9,3,2,0.8,0,84,5115,5,25,44,0.5,35.1,365,4.96,13.2,17.5,1,28.9,2.72,6.2,0,0,1,1,0,340,-30438,3327,351,45.699078,4.910107,38.88,192.5,7,3,2.4,0,0.0,-1,0.0,0.0,0.0,0,5.37,7.8574
471463,1622987337622,,,,,,,,-0.76,-0.1,-0.33,-9,4,3,0.77,,84,5186,5,24,44,0.5,35.1,370,4.85,13.1,17.5,1,29.0,1.54,6.2,0,0,1,1,0,339,-122,13,351,,,,,,,,,,,,,,,,
471483,1622987337642,,,,,,,,-0.76,-0.13,-0.47,-9,4,2,0.77,,84,5289,5,24,44,0.5,34.7,390,4.88,13.1,17.5,1,29.2,2.65,6.2,0,0,1,1,0,335,2560,2560,347,,,,,,,,,,,,,,,,
471503,1622987337662,,,,,,,,-0.7,-0.19,-0.27,-10,1,1,0.73,,84,5354,5,24,44,0.5,34.1,394,4.9,13.1,17.5,1,29.3,2.62,6.2,0,0,1,1,0,334,13,3346,347,,,,,,,,,,,,,,,,
471523,1622987337682,,,,,,,,-0.75,-0.2,-0.41,-10,5,5,0.78,,84,5412,5,24,44,0.5,34.4,392,4.97,13.2,19.0,1,29.4,2.6,6.5,0,0,1,1,0,333,4838,4838,343,,,,,,,,,,,,,,,,
471543,1622987337702,1,2,29,22,34,35,-25,-0.62,-0.26,-0.21,-11,-1,-1,0.67,0,84,5406,5,24,44,0.5,34.2,393,4.92,13.1,19.0,1,29.4,2.6,6.5,0,0,1,1,0,330,-6528,-31222,342,45.699074,4.910099,37.29,192.4,7,3,2.4,0,0.0,-1,0.0,,0.0,0,5.37,7.859
471563,1622987337722,,,,,,,,-0.64,-0.34,-0.36,-12,3,2,0.72,,84,5370,5,24,44,0.5,34.4,395,4.94,13.1,19.0,1,29.3,2.62,6.5,0,0,1,1,0,326,-20736,-122,344,,,,,,,,,,,,,,,,
471583,1622987337742,,,,,,,,-0.57,-0.4,-0.16,-14,-1,-2,0.7,,84,5299,5,24,44,0.5,34.8,400,4.88,13.0,19.0,1,29.2,2.65,6.5,0,0,1,1,0,325,-23296,-10554,348,,,,,,,,,,,,,,,,
471603,1622987337762,,,,,,,,-0.61,-0.49,-0.32,-16,3,-0,0.79,,84,5237,6,24,44,0.5,34.8,387,4.92,13.2,19.0,1,29.1,2.67,6.5,0,0,1,1,0,319,150,-1246,348,,,,,,,,,,,,,,,,
471623,1622987337782,,,,,,,,-0.56,-0.56,-0.12,-19,-0,-4,0.79,,84,5141,7,24,44,0.5,35.3,386,4.88,13.0,18.2,1,29.0,2.72,6.4,0,0,1,1,0,313,150,-30438,353,,,,,,,,,,,,,,,,
471643,1622987337802,1,1,31,20,28,38,-45,-0.57,-0.63,-0.28,-21,4,-1,0.85,0,84,5099,8,24,45,0.5,35.2,380,4.93,13.2,18.2,1,29.1,2.75,6.4,0,0,1,1,0,310,140,-10554,352,45.699066,4.910091,35.63,192.4,7,3,2.4,0,0.0,-1,0.0,0.0,0.0,0,5.38,7.8607
471663,1622987337822,,,,,,,,-0.52,-0.64,-0.09,-24,0,-3,0.82,,84,5081,9,24,46,0.5,35.0,378,4.91,13.0,18.2,1,29.4,2.78,6.4,0,0,1,1,0,296,130,-30438,354,,,,,,,,,,,,,,,,
471683,1622987337842,,,,,,,,-0.49,-0.68,-0.25,-27,-0,-3,0.84,,84,5070,10,24,48,0.5,35.1,372,4.98,13.2,18.2,1,30.0,2.81,6.4,0,0,1,1,0,284,-32256,6870,350,,,,,,,,,,,,,,,,
471703,1622987337862,,,,,,,,-0.51,-0.73,-0.39,-29,3,-1,0.89,,84,5049,11,24,49,0.5,34.8,369,4.93,13.2,18.2,1,30.2,2.85,6.4,0,0,1,1,0,277,29440,6870,348,,,,,,,,,,,,,,,,
471723,1622987337882,,,,,,,,-0.48,-0.74,-0.19,-32,-0,-2,0.88,,84,4984,11,24,51,0.5,34.9,371,4.91,13.0,19.3,1,30.6,2.89,6.7,0,0,1,1,0,271,120,8841,349,,,,,,,,,,,,,,,,
471743,1622987337902,0,2,33,23,28,41,-45,-0.43,-0.78,-0.34,-34,-1,-3,0.89,0,84,4932,12,24,53,0.5,35.1,362,4.95,13.2,19.3,1,30.5,2.87,6.7,0,0,1,1,0,269,120,-30438,351,45.699059,4.910084,34.17,192.4,7,3,2.4,0,0.0,-1,0.0,,0.0,0,5.38,7.8624
471763,1622987337922,,,,,,,,-0.46,-0.79,-0.48,-36,2,-1,0.91,,84,4921,14,24,55,0.5,34.8,356,4.95,13.1,19.3,1,31.1,2.9,6.7,0,0,1,1,0,285,115,8841,348,,,,,,,,,,,,,,,,
471783,1622987337942,,,,,,,,-0.49,-0.78,-0.28,-37,2,-1,0.93,,84,4925,16,24,58,0.5,34.8,358,4.9,13.0,19.3,1,32.0,2.85,6.7,0,0,1,1,0,295,110,-122,348,,,,,,,,,,,,,,,,
471803,1622987337962,,,,,,,,-0.44,-0.84,-0.27,-38,0,-2,0.95,,84,5021,18,24,61,0.5,34.5,358,4.94,13.0,19.3,1,34.0,2.85,6.7,0,0,1,1,0,293,100,3346,345,,,,,,,,,,,,,,,,
471823,1622987337982,,,,,,,,-0.43,-0.81,-0.42,-40,4,0,0.92,,84,5151,18,24,65,0.5,33.7,362,4.91,13.1,20.2,1,35.2,3.04,6.9,0,0,1,1,0,293,26880,3346,344,,,,,,,,,,,,,,,,
471843,1622987338002,1,0,33,23,30,38,-35,-0.31,-0.76,-0.22,-41,-1,-3,0.82,0,84,5310,18,24,68,0.5,34.2,376,4.92,13.0,20.2,1,36.0,3.29,6.9,0,0,1,1,0,295,100,13,342,45.699059,4.910084,34.17,192.4,7,3,2.4,0,0.0,-1,0.0,0.0,0.0,0,5.38,7.864
471863,1622987338007,,,,,,,,-0.32,-0.73,-0.17,-41,0,-1,0.8,,84,5395,18,24,71,0.5,34.0,383,4.9,13.1,20.2,1,36.7,3.5,6.9,0,0,1,1,0,297,28160,2560,340,,,,,,,,,,,,,,,,
471883,1622987338027,,,,,,,,-0.38,-0.72,-0.32,-41,4,2,0.81,,84,5553,18,24,73,0.5,34.1,387,5.03,13.2,20.2,1,36.9,3.7,6.9,0,0,1,1,0,299,26880,2560,341,,,,,,,,,,,,,,,,
471903,1622987338047,,,,,,,,-0.34,-0.69,-0.13,-41,1,-1,0.77,,84,5744,18,24,74,0.5,33.6,396,4.95,13.2,20.2,1,36.9,3.86,6.9,0,0,1,1,0,302,28160,-6528,336,,,,,,,,,,,,,,,,
471923,1622987338067,,,,,,,,-0.28,-0.7,-0.12,-41,0,-2,0.76,,84,5944,18,24,75,0.5,33.7,411,4.87,13.1,31.4,1,36.8,4.05,10.6,0,0,1,1,0,303,26880,4838,333,,,,,,,,,,,,,,,,
471943,1622987338101,1,0,34,28,29,35,-21,-0.18,-0.7,-0.16,-41,-2,-3,0.72,0,84,6032,18,24,75,0.5,32.9,428,4.85,13.0,31.4,1,36.8,4.09,10.6,0,0,1,1,0,309,29440,3346,329,45.699047,4.910067,33.06,192.3,7,3,2.4,0,0.0,-1,0.0,,0.0,0,5.38,7.8657
471963,1622987338121,,,,,,,,-0.01,-0.74,0.02,-40,-6,-6,0.74,,84,5828,18,24,75,0.5,33.4,425,4.86,13.0,31.4,1,37.0,3.99,10.6,0,0,1,1,0,338,130,-31206,334,,,,,,,,,,,,,,,,
471983,1622987338141,,,,,,,,-0.04,-0.62,0.19,-38,-5,-5,0.62,,84,5548,15,24,75,0.5,33.4,400,4.84,12.9,31.4,1,37.5,3.92,10.6,0,0,1,1,0,353,-29696,-1246,334,,,,,,,,,,,,,,,,
472003,1622987338161,,,,,,,,0.01,-0.55,0.0,-36,-5,-6,0.55,,84,5161,11,24,75,0.5,33.7,379,5.05,13.1,31.4,1,37.9,3.63,10.6,0,0,1,1,0,336,160,-30438,340,,,,,,,,,,,,,,,,
472023,1622987338181,,,,,,,,0.01,-0.47,-0.16,-34,-4,-4,0.47,,84,4923,9,24,74,0.5,34.0,361,4.94,13.1,23.4,1,36.6,3.44,8.0,0,0,1,1,0,336,-22016,3327,339,,,,,,,,,,,,,,,,
472043,1622987338201,0,3,37,36,27,27,0,-0.06,-0.38,-0.05,-32,-2,-2,0.39,0,84,4817,9,24,73,0.5,33.3,349,4.87,13.0,23.4,1,34.7,3.31,8.0,0,0,1,1,0,334,-20736,-31222,333,45.699039,4.910058,32.9,192.3,7,3,2.4,0,0.0,-1,0.0,0.0,0.0,0,5.38,7.8674
472063,1622987338221,,,,,,,,-0.06,-0.32,0.12,-29,-4,-4,0.33,,84,4875,8,24,72,0.5,33.5,353,4.94,13.1,23.4,1,35.5,3.32,8.0,0,0,1,1,0,330,170,3346,335,,,,,,,,,,,,,,,,
472083,1622987338241,,,,,,,,-0.02,-0.28,-0.05,-27,-2,-3,0.28,,84,4986,8,24,71,0.5,33.6,360,4.9,13.2,23.4,1,36.7,3.36,8.0,0,0,1,1,0,330,-32559,-12032,336,,,,,,,,,,,,,,,,
472103,1622987338261,,,,,,,,-0.04,-0.19,0.12,-24,0,-1,0.19,,84,5057,8,24,70,0.5,33.5,358,4.88,13.1,23.4,1,36.7,3.34,8.0,0,0,1,1,0,333,3346,175,329,,,,,,,,,,,,,,,,
472123,1622987338281,,,,,,,,-0.02,-0.15,-0.06,-21,-3,-4,0.15,,84,5096,8,25,69,0.5,34.0,366,4.89,13.0,22.7,1,36.4,3.28,7.6,0,0,1,1,0,336,3327,-12032,332,,,,,,,,,,,,,,,,
472143,1622987338301,1,2,32,34,34,29,20,-0.09,-0.06,-0.22,-18,1,0,0.1,0,84,5138,8,25,68,0.5,34.0,365,4.94,13.2,22.7,1,36.2,3.24,7.6,0,0,1,1,0,338,3327,-20736,326,45.699036,4.910049,33.97,192.3,7,3,2.4,0,0.0,-1,0.0,,0.0,0,5.38,7.869
472163,1622987338321,,,,,,,,-0.02,-0.01,-0.06,-15,-3,-4,0.02,,84,5298,8,25,67,0.5,33.9,371,4.9,13.1,22.7,1,35.7,3.18,7.6,0,0,1,1,0,338,-122,170,325,,,,,,,,,,,,,,,,
472183,1622987338341,,,,,,,,-0.07,0.06,-0.03,-12,3,1,0.09,,84,5347,8,25,66,0.5,34.1,380,4.91,13.2,22.7,1,35.4,3.09,7.6,0,0,1,1,0,341,3327,-22016,327,,,,,,,,,,,,,,,,
472203,1622987338361,,,,,,,,-0.07,0.15,-0.19,-8,-3,-3,0.16,,84,5354,8,25,66,0.5,34.2,395,4.96,13.1,22.7,1,35.4,3.09,7.6,0,0,1,1,0,342,-31206,-23296,327,,,,,,,,,,,,,,,,
472223,1622987338381,,,,,,,,-0.05,0.19,-0.01,-5,1,0,0.2,,84,5329,8,25,65,0.5,34.1,384,4.94,13.2,23.7,1,35.1,3.0,7.6,0,0,1,1,0,343,6668,155,324,,,,,,,,,,,,,,,,
472243,1622987338401,1,1,29,34,35,27,42,-0.12,0.25,-0.17,-2,0,-1,0.27,0,84,5347,8,25,65,0.5,34.7,385,4.9,13.2,23.7,1,35.1,3.0,7.6,0,0,1,1,0,344,8841,-27136,322,45.699032,4.91004,34.35,192.3,7,3,2.4,0,0.0,-1,0.0,0.0,0.0,0,5.38,7.8707
472263,1622987338421,,,,,,,,-0.05,0.33,0.01,2,-1,-1,0.34,,84,5378,8,25,64,0.5,34.7,384,4.91,13.0,23.7,1,34.8,2.9,7.6,0,0,1,1,0,345,8841,-25856,317,,,,,,,,,,,,,,,,
472283,1622987338441,,,,,,,,-0.15,0.41,-0.16,5,3,2,0.44,,84,5355,8,25,63,0.5,35.1,391,5.0,13.2,23.7,1,34.5,2.81,7.6,0,0,1,1,0,344,28553,140,317,,,,,,,,,,,,,,,,
472303,1622987338461,,,,,,,,-0.06,0.54,0.02,9,-3,-1,0.54,,84,5329,8,25,63,0.5,34.9,389,4.92,13.0,23.7,1,34.5,2.82,7.6,0,0,1,1,0,347,-30454,130,315,,,,,,,,,,,,,,,,
472323,1622987338481,,,,,,,,-0.13,0.63,-0.15,13,2,4,0.64,,84,5340,8,25,63,0.5,35.3,386,4.93,13.2,21.9,1,34.5,2.73,6.9,0,0,1,1,0,348,28553,-32256,308,,,,,,,,,,,,,,,,
472343,1622987338501,1,2,25,40,38,27,66,-0.05,0.67,-0.06,17,-4,-0,0.67,0,84,5323,8,25,62,0.5,35.4,387,4.9,13.0,21.9,1,34.2,2.74,6.9,0,0,1,1,0,350,3302,32000,307,45.699024,4.910031,34.46,192.3,7,3,2.4,0,0.0,-1,0.0,,0.0,0,5.38,7.8724
472363,1622987338521,,,,,,,,-0.14,0.7,0.11,21,2,3,0.71,,84,5305,8,25,62,0.5,35.2,382,4.91,13.1,21.9,1,34.2,2.74,6.9,0,0,1,1,0,350,3183,30720,306,,,,,,,,,,,,,,,,
472383,1622987338541,,,,,,,,-0.11,0.75,-0.06,25,-2,0,0.76,,84,5287,8,25,61,0.5,35.2,393,4.89,13.1,21.9,1,34.0,2.75,6.9,0,0,1,1,0,352,3183,125,305,,,,,,,,,,,,,,,,
472403,1622987338561,,,,,,,,-0.18,0.82,0.11,29,1,4,0.84,,84,5192,8,25,61,0.5,35.6,390,4.96,13.2,21.9,1,34.0,2.73,6.9,0,0,1,1,0,352,4104,-28416,302,,,,,,,,,,,,,,,,
472423,1622987338581,,,,,,,,-0.16,0.88,0.03,33,-3,-0,0.89,,84,5155,8,25,61,0.5,35.4,387,4.95,13.1,21.5,1,34.0,2.76,6.5,0,0,1,1,0,350,3302,-24576,301,,,,,,,,,,,,,,,,
472443,1622987338602,-0,2,23,37,41,27,85,-0.23,0.98,-0.14,36,1,3,1.0,0,84,5108,8,25,61,0.5,35.6,380,4.93,13.2,21.5,1,34.0,2.79,6.5,0,0,1,1,0,351,4104,-23296,295,45.699017,4.910022,34.1,192.4,7,3,2.4,0,0.0,-1,0.0,0.0,0.0,0,5.38,7.8741
472463,1622987338622,,,,,,,,-0.21,1.03,0.04,39,-1,2,1.06,,84,5052,8,25,61,0.5,35.4,379,4.9,13.1,21.5,1,34.0,2.82,6.5,0,0,1,1,0,350,3302,165,293,,,,,,,,,,,,,,,,
472483,1622987338642,,,,,,,,-0.19,1.0,-0.13,43,-2,2,1.02,,84,5004,8,25,61,0.5,35.1,367,4.99,13.2,21.5,1,34.0,2.85,6.5,0,0,1,1,0,348,28553,170,292,,,,,,,,,,,,,,,,
472503,1622987338662,,,,,,,,-0.22,1.02,-0.28,46,0,4,1.04,,84,4956,8,25,61,0.5,35.0,360,4.9,13.2,21.5,1,33.4,2.83,6.5,0,0,1,1,0,349,-30454,175,289,,,,,,,,,,,,,,,,
472523,1622987338682,,,,,,,,-0.25,1.09,-0.09,49,1,3,1.12,,84,4931,8,25,61,0.5,35.0,367,4.91,13.0,22.1,1,33.0,2.82,6.4,0,0,1,1,0,347,-30454,-32559,286,,,,,,,,,,,,,,,,
472543,1622987338701,1,1,20,41,41,29,89,-0.23,1.1,-0.09,51,-2,1,1.12,0,84,4949,8,25,61,0.5,34.7,362,4.95,13.2,22.1,1,33.3,2.83,6.4,0,0,1,1,0,346,8841,-12032,288,45.699013,4.910016,34.13,192.2,7,3,2.4,0,0.0,-1,0.0,,0.0,0,5.38,7.8757
472563,1622987338721,,,,,,,,-0.29,1.17,-0.24,54,2,4,1.2,,84,5017,8,25,61,0.5,34.9,360,4.96,13.2,22.1,1,34.0,2.84,6.4,0,0,1,1,0,342,2811,140,285,,,,,,,,,,,,,,,,
472583,1622987338741,,,,,,,,-0.27,1.23,-0.06,56,-0,2,1.26,,84,5120,8,25,61,0.5,34.5,376,4.88,13.0,22.1,1,34.0,2.78,6.4,0,0,1,1,0,337,6870,25600,283,,,,,,,,,,,,,,,,
472603,1622987338761,,,,,,,,-0.27,1.2,-0.22,58,0,3,1.23,,84,5202,8,25,61,0.5,34.7,370,4.98,13.2,22.1,1,34.0,2.73,6.4,0,0,1,1,0,339,8841,-1529,280,,,,,,,,,,,,,,,,
