"Interval"|"ms"|0|0|1,"Utc"|"ms"|0|0|1,"Brake_F"|"Bar"|0|2000|10,"Brake_R"|"Bar"|0|2000|10,"Height_RF"|"mm"|0|255|10,"Height_LF"|"mm"|0|255|10,"Height_LR"|"mm"|0|80|10,"Height_RR"|"mm"|0|255|10,"Steering"|"deg"|-100|100|10,"AccelX"|"G"|-3.0|3.0|50,"AccelY"|"G"|-3.0|3.0|50,"AccelZ"|"G"|-3.0|3.0|50,"Yaw"|"Deg/Sec"|-120|120|50,"Pitch"|"Deg/Sec"|-120|120|50,"Roll"|"Deg/Sec"|-120|120|50,"Gsum"|"G"|0.0|3.0|50,"Log_Button"|""|0.0|10.0|10,"WaterTemp"|"C"|0|150|50,"RPM"|"tr/min"|0|14000|50,"TPS"|"%"|0|100|50,"AirTemp"|"C"|0|150|50,"MAP"|"KPa"|0|100|50,"Lambda"|""|0.5|1.5|50,"SpeedDTA"|"kph"|0.0|250.0|50,"OilPress"|"KPa"|0|1500|50,"FuelPressur"|"Bar"|0.0|10.0|50,"Batterie"|"V"|0.0|20.0|50,"ConsoKm"|"L/100km"|0.0|200.0|50,"Gear"|""|0|6|50,"AdvIgnition"|"Deg"|-20.0|70.0|50,"Injection"|"ms"|0.0|10.0|50,"ConsoHr"|"L/Hr"|0.0|10000.0|50,"LC_But_Pres"|""|0|1|50,"LC_Active"|""|0|1|50,"TractionOn"|""|0|1|50,"TractionWet"|""|0|1|50,"FanOn"|""|0|1|50,"RD_Speed"|"km/h"|-30|250|50,"RUD_Speed"|"km/h"|-30|250|50,"LD_Speed"|"km/h"|-30|250|50,"LUD_Speed"|"km/h"|-30|250|50,"Latitude"|"Degrees"|-180.0|180.0|10,"Longitude"|"Degrees"|-180.0|180.0|10,"Speed"|"kph"|0.0|150.0|10,"Altitude"|"m"|0.0|4000.0|10,"GPSSats"|""|0|20|10,"GPSQual"|""|0|5|10,"GPSDOP"|""|0.0|20.0|10,"LapCount"|""|0|0|10,"LapTime"|"Min"|0.0|0.0|10,"Sector"|""|0|0|10,"SectorTime"|"Min"|0.0|0.0|10,"PredTime"|"Min"|0.0|0.0|5,"ElapsedTime"|"Min"|0.0|0.0|10,"CurrentLap"|""|0|0|10,"Distance"|"km"|0.0|0.0|10,"SessionTime"|"Min"|0.0|0.0|10
526763,1622987392921,,,,,,,,-0.65,0.58,-0.66,15,12,8,0.87,,87,5661,4,26,36,0.5,37.3,422,4.95,13.1,15.0,1,28.2,2.26,5.8,0,0,1,1,0,387,250,3346,373,,,,,,,,,,,,,,,,
526783,1622987392941,,,,,,,,-0.61,0.56,-0.44,16,8,4,0.83,,87,5657,4,26,36,0.5,36.7,422,4.88,12.9,15.0,1,28.2,2.26,5.8,0,0,1,1,0,382,250,6668,367,,,,,,,,,,,,,,,,
526803,1622987392961,,,,,,,,-0.53,0.53,-0.23,16,4,1,0.75,,87,5674,4,26,36,0.5,35.8,418,4.94,13.0,15.0,1,28.2,1.1,5.8,0,0,1,1,0,374,250,3346,358,,,,,,,,,,,,,,,,
526823,1622987392981,,,,,,,,-0.58,0.53,-0.38,17,6,4,0.79,,87,5666,4,26,36,0.5,35.5,419,4.92,13.0,15.0,1,28.2,2.26,5.8,0,0,1,1,0,375,250,150,355,,,,,,,,,,,,,,,,
526843,1622987393001,20,11,20,27,40,34,18,-0.68,0.58,-0.52,17,10,6,0.9,0,87,5620,4,26,36,0.5,34.9,419,4.97,13.1,16.7,1,28.0,2.26,5.9,0,0,1,1,0,369,250,-31222,349,45.699413,4.908752,42.19,193.1,7,3,2.3,0,0.0,-1,0.0,0.0,0.0,0,6.02,8.7807
526863,1622987393008,,,,,,,,-0.64,0.52,-0.31,18,7,3,0.82,,87,5572,4,26,36,0.5,34.3,426,4.91,12.9,16.7,1,27.9,2.28,5.9,0,0,1,1,0,365,250,4838,343,,,,,,,,,,,,,,,,
526883,1622987393028,,,,,,,,-0.58,0.49,-0.11,18,3,2,0.75,,87,5526,4,26,36,0.5,34.3,424,4.93,13.0,16.7,1,27.8,2.29,5.9,0,0,1,1,0,359,250,2560,343,,,,,,,,,,,,,,,,
526903,1622987393048,,,,,,,,-0.66,0.54,-0.27,19,8,6,0.85,,87,5472,4,26,36,0.5,34.1,413,4.95,13.1,16.7,1,27.7,2.3,5.9,0,0,1,1,0,356,250,175,343,,,,,,,,,,,,,,,,
526923,1622987393068,,,,,,,,-0.54,0.51,-0.08,18,4,2,0.74,,87,5422,4,26,36,0.5,33.9,408,4.91,12.9,16.7,1,27.5,2.31,5.9,0,0,1,1,0,353,250,170,334,,,,,,,,,,,,,,,,
526943,1622987393098,3,3,19,28,39,33,27,-0.53,0.57,-0.24,19,5,4,0.78,0,87,5391,4,26,36,0.5,33.4,407,4.93,13.0,17.0,1,27.4,2.32,5.7,0,0,1,1,0,352,250,-20736,334,45.699432,4.908746,38.09,193.2,7,3,2.3,0,0.0,-1,0.0,,0.0,0,6.02,8.7824
526963,1622987393118,,,,,,,,-0.61,0.58,-0.39,20,5,5,0.84,,87,5364,4,26,36,0.5,33.3,412,4.89,12.9,17.0,1,27.3,2.32,5.7,0,0,1,1,0,351,250,170,333,,,,,,,,,,,,,,,,
526983,1622987393138,,,,,,,,-0.53,0.57,-0.19,21,-0,2,0.78,,87,5347,4,26,37,0.5,32.9,408,4.92,13.0,17.0,1,27.6,2.4,5.7,0,0,1,1,0,350,250,170,329,,,,,,,,,,,,,,,,
527003,1622987393158,,,,,,,,-0.56,0.59,-0.34,22,5,7,0.82,,87,5326,4,26,37,0.5,33.1,406,4.93,13.0,17.0,1,27.5,2.41,5.7,0,0,1,1,0,351,3302,160,331,,,,,,,,,,,,,,,,
527023,1622987393178,,,,,,,,-0.45,0.66,-0.14,23,-2,1,0.8,,87,5272,4,26,37,0.5,35.4,400,4.92,12.9,17.0,1,27.4,2.42,5.7,0,0,1,1,0,351,3302,-25856,330,,,,,,,,,,,,,,,,
527043,1622987393200,0,2,20,34,39,29,55,-0.49,0.77,-0.3,25,3,7,0.91,0,87,5241,4,26,37,0.5,35.2,398,4.98,13.0,18.2,1,27.3,2.43,5.9,0,0,1,1,0,350,3183,-27136,325,45.69944,4.908743,36.13,193.2,7,3,2.3,0,0.0,-1,0.0,0.0,0.0,0,6.02,8.784
527063,1622987393220,,,,,,,,-0.4,0.82,-0.11,27,-3,3,0.92,,87,5221,4,26,37,0.5,35.3,398,4.9,12.9,18.2,1,27.3,2.43,5.9,0,0,1,1,0,349,-6644,-30976,322,,,,,,,,,,,,,,,,
527083,1622987393240,,,,,,,,-0.45,0.92,-0.26,30,2,6,1.02,,87,5218,4,26,37,0.5,35.3,398,4.98,13.0,18.2,1,27.3,2.5,5.9,0,0,1,1,0,348,-6644,30720,315,,,,,,,,,,,,,,,,
527103,1622987393260,,,,,,,,-0.39,0.93,-0.08,32,-2,3,1.01,,87,5224,5,26,38,0.5,34.9,392,4.91,13.0,18.2,1,27.6,2.5,5.9,0,0,1,1,0,349,2811,0,313,,,,,,,,,,,,,,,,
527123,1622987393280,,,,,,,,-0.4,0.97,-0.24,35,0,5,1.04,,87,5162,5,26,38,0.5,34.9,396,4.97,13.1,18.2,1,27.4,2.52,5.9,0,0,1,1,0,349,2811,1886,306,,,,,,,,,,,,,,,,
527143,1622987393302,2,2,18,37,41,28,81,-0.43,1.0,-0.05,38,-0,5,1.09,0,87,5068,5,26,39,0.5,30.0,389,4.92,13.0,19.4,1,27.5,2.55,6.0,0,0,1,1,0,350,-1495,-16896,300,45.699448,4.908739,34.78,193.2,7,3,2.3,0,0.0,-1,0.0,,0.0,0,6.02,8.7857
527163,1622987393322,,,,,,,,-0.37,1.07,-0.07,41,-3,3,1.13,,87,4943,5,25,39,0.5,35.0,374,4.91,12.9,19.4,1,26.7,1.47,6.0,0,0,1,1,0,350,-30454,24064,296,,,,,,,,,,,,,,,,
527183,1622987393342,,,,,,,,-0.36,1.04,-0.23,43,-2,3,1.1,,87,4863,5,25,39,0.5,35.1,376,4.91,13.0,19.4,1,25.8,2.59,6.0,0,0,1,1,0,348,28553,2414,295,,,,,,,,,,,,,,,,
527203,1622987393362,,,,,,,,-0.37,1.07,-0.38,46,-0,5,1.13,,87,4795,5,25,39,0.5,34.8,370,4.91,13.1,19.4,1,25.0,2.56,6.0,0,0,1,1,0,345,10620,-1,295,,,,,,,,,,,,,,,,
527223,1622987393382,,,,,,,,-0.44,1.1,-0.18,49,0,5,1.19,,87,4743,5,25,40,0.5,34.9,358,4.94,13.1,19.4,1,24.6,2.55,6.0,0,0,1,1,0,345,-30438,-1,290,,,,,,,,,,,,,,,,
527243,1622987393402,1,2,18,39,42,29,76,-0.49,1.18,0.0,51,1,4,1.28,0,87,4680,5,25,40,0.5,34.4,361,4.95,13.0,18.9,1,23.9,2.52,5.5,0,0,1,1,0,343,-10554,-1445,290,45.699455,4.908735,32.84,193.3,7,3,2.3,0,0.0,-1,0.0,0.0,0.0,0,6.02,8.7874
527263,1622987393422,,,,,,,,-0.55,1.24,0.17,53,1,3,1.36,,87,4609,6,25,41,0.5,34.1,347,5.01,13.1,18.9,1,23.4,2.51,5.5,0,0,1,1,0,343,6668,13602,290,,,,,,,,,,,,,,,,
527283,1622987393442,,,,,,,,-0.57,1.24,0.32,55,1,2,1.37,,87,4503,6,25,41,0.5,34.4,345,4.95,13.0,18.9,1,22.1,2.47,5.5,0,0,1,1,0,342,-10554,-1496,284,,,,,,,,,,,,,,,,
527303,1622987393462,,,,,,,,-0.6,1.28,0.46,57,1,1,1.42,,87,4397,7,25,42,0.5,34.4,332,4.94,13.0,18.9,1,21.1,2.43,5.5,0,0,1,1,0,341,-10554,-1530,287,,,,,,,,,,,,,,,,
527323,1622987393482,,,,,,,,-0.61,1.25,0.44,58,1,1,1.39,,87,4310,8,25,43,0.5,28.6,331,4.98,13.1,18.9,1,20.4,2.41,5.5,0,0,1,1,0,339,250,16384,286,,,,,,,,,,,,,,,,
527343,1622987393500,1,2,21,35,42,30,44,-0.57,1.16,0.23,58,1,0,1.3,0,87,4248,10,25,44,0.5,28.4,327,4.96,13.1,16.6,1,19.8,2.39,4.7,0,0,1,1,0,336,6668,-1482,287,45.699463,4.90873,31.81,193.3,7,3,2.3,0,0.0,-1,0.0,,0.0,0,6.02,8.7891
527363,1622987393520,,,,,,,,-0.54,1.05,0.05,58,1,-0,1.18,,87,4193,11,25,46,0.501,33.5,321,4.91,13.0,16.6,1,19.6,2.38,4.7,0,0,1,1,0,330,3346,-1480,288,,,,,,,,,,,,,,,,
527383,1622987393540,,,,,,,,-0.51,0.96,-0.03,57,0,-1,1.09,,87,4262,14,25,48,0.501,33.0,322,4.87,12.9,16.6,1,20.9,2.43,4.7,0,0,1,1,0,324,175,250,287,,,,,,,,,,,,,,,,
527403,1622987393560,,,,,,,,-0.49,0.9,0.12,56,-1,-3,1.03,,87,4365,17,25,52,0.501,31.9,321,4.95,13.0,16.6,1,23.2,2.49,4.7,0,0,1,1,0,315,-27136,-41,285,,,,,,,,,,,,,,,,
527423,1622987393580,,,,,,,,-0.44,0.82,0.25,53,-2,-4,0.94,,87,4580,19,25,57,0.501,31.4,328,4.93,12.9,16.6,1,27.3,4.17,4.7,0,0,1,1,0,310,135,-1534,288,,,,,,,,,,,,,,,,
527443,1622987393602,1,1,26,28,39,31,22,-0.4,0.7,0.06,51,-4,-4,0.81,0,86,4817,20,25,61,0.5,31.4,338,4.92,13.0,30.5,1,31.6,4.41,8.8,0,0,1,1,0,308,135,-1534,288,45.69947,4.908723,33.34,193.3,7,3,2.3,0,0.0,-1,0.0,0.0,0.0,0,6.02,8.7907
527463,1622987393622,,,,,,,,-0.42,0.67,-0.05,49,-0,-2,0.79,,86,5030,20,25,66,0.501,31.4,351,4.92,13.1,30.5,1,35.5,4.95,8.8,0,0,1,1,0,308,135,-16896,288,,,,,,,,,,,,,,,,
527483,1622987393642,,,,,,,,-0.32,0.57,0.12,46,-5,-5,0.65,,86,5149,21,25,69,0.5,31.4,367,4.86,13.0,30.5,1,36.3,5.38,8.8,0,0,1,1,0,308,135,0,288,,,,,,,,,,,,,,,,
527503,1622987393662,,,,,,,,-0.37,0.53,-0.05,44,0,-1,0.65,,86,5292,21,25,73,0.5,31.4,378,4.98,13.1,30.5,1,37.2,5.91,8.8,0,0,1,1,0,306,135,0,292,,,,,,,,,,,,,,,,
527523,1622987393682,,,,,,,,-0.34,0.39,-0.21,40,-5,-5,0.52,,86,5426,25,25,76,0.5,31.4,382,4.9,12.9,30.5,1,37.8,6.31,8.8,0,0,1,1,0,304,135,21760,291,,,,,,,,,,,,,,,,
527543,1622987393702,0,2,31,24,33,30,-2,-0.23,0.32,-0.03,37,-7,-6,0.39,0,86,5583,31,25,81,0.5,31.4,388,4.9,13.0,56.0,1,38.8,6.82,16.3,0,0,1,1,0,301,135,23040,292,45.699474,4.908716,32.22,193.2,7,3,2.3,0,0.0,-1,0.0,,0.0,0,6.02,8.7924
527563,1622987393722,,,,,,,,-0.06,0.21,0.14,34,-7,-5,0.22,,86,5864,36,26,87,0.5,31.4,406,4.91,13.0,56.0,1,39.5,7.77,16.3,0,0,1,1,0,303,135,25600,297,,,,,,,,,,,,,,,,
527583,1622987393742,,,,,,,,0.06,0.12,0.29,31,-5,-3,0.13,,86,5888,38,26,91,0.5,31.4,419,4.97,13.0,56.0,1,40.1,8.65,16.3,0,0,1,1,0,313,135,155,305,,,,,,,,,,,,,,,,
527603,1622987393762,,,,,,,,0.04,0.03,0.1,27,-0,1,0.05,,86,5735,38,26,93,0.5,31.4,410,4.96,13.1,56.0,1,40.6,8.49,16.3,0,0,1,1,0,320,135,-23296,311,,,,,,,,,,,,,,,,
527623,1622987393782,,,,,,,,0.05,-0.11,-0.07,23,-3,-0,0.12,,86,5570,38,26,94,0.5,31.8,400,4.85,12.8,56.0,1,41.1,8.13,16.3,0,0,1,1,0,330,135,160,318,,,,,,,,,,,,,,,,
527643,1622987393804,-0,2,41,33,23,27,-43,0.2,-0.12,0.1,20,-7,-2,0.23,0,86,5445,38,26,95,0.5,32.6,389,4.94,13.0,64.1,1,41.5,7.82,20.4,0,0,1,1,0,326,135,175,326,45.699482,4.908708,32.34,193.1,7,3,2.3,0,0.0,-1,0.0,0.0,0.0,0,6.02,8.7941
527663,1622987393824,,,,,,,,0.14,-0.17,-0.07,17,-3,2,0.23,,86,5265,38,26,95,0.5,32.5,380,4.88,13.0,64.1,1,42.0,7.44,20.4,0,0,1,1,0,326,135,-6528,325,,,,,,,,,,,,,,,,
527683,1622987393844,,,,,,,,0.2,-0.19,0.1,13,-5,-1,0.28,,86,5173,38,26,96,0.5,33.0,366,4.88,12.9,64.1,1,42.3,7.12,20.4,0,0,1,1,0,329,135,2560,330,,,,,,,,,,,,,,,,
527703,1622987393864,,,,,,,,0.16,-0.25,-0.08,10,-3,-0,0.3,,86,5128,38,26,96,0.5,32.7,373,4.9,12.9,64.1,1,42.5,6.94,20.4,0,0,1,1,0,334,125,-122,329,,,,,,,,,,,,,,,,
527723,1622987393884,,,,,,,,0.18,-0.32,0.1,7,-3,-2,0.36,,86,5221,38,26,96,0.5,32.9,371,4.95,13.1,64.1,1,42.2,7.16,20.4,0,0,1,1,0,335,32000,-31222,329,,,,,,,,,,,,,,,,
527743,1622987393902,-0,2,44,38,24,31,-80,0.06,-0.36,-0.08,4,2,1,0.36,0,86,5453,38,26,96,0.5,33.0,378,4.88,12.9,53.6,1,41.4,7.68,17.7,0,0,1,1,0,344,115,-31206,330,45.69949,4.9087,33.16,193.1,7,3,2.3,0,0.0,-1,0.0,,0.0,0,6.02,8.7957
527763,1622987393922,,,,,,,,0.05,-0.44,-0.12,-0,-2,-3,0.44,,86,5704,38,26,95,0.5,32.9,387,4.91,12.9,53.6,1,40.7,8.03,17.7,0,0,1,1,0,342,29440,8841,329,,,,,,,,,,,,,,,,
527783,1622987393942,,,,,,,,0.14,-0.57,-0.02,-4,-6,-7,0.58,,86,5848,38,26,95,0.5,33.4,404,4.95,13.0,53.6,1,40.2,3.95,17.7,0,0,1,1,0,359,28160,3183,336,,,,,,,,,,,,,,,,
527803,1622987393962,,,,,,,,0.22,-0.68,0.15,-7,-9,-10,0.72,,86,5903,38,26,95,0.5,34.0,413,4.96,12.9,53.6,1,40.1,4.03,17.7,0,0,1,1,0,381,29440,-14707,340,,,,,,,,,,,,,,,,
527823,1622987393982,,,,,,,,0.36,-0.72,0.3,-11,-13,-14,0.81,,86,5959,38,26,94,0.5,34.9,416,4.96,13.0,53.6,1,39.9,8.48,17.7,0,0,1,1,0,391,125,230,349,,,,,,,,,,,,,,,,
527843,1622987394002,-1,2,45,35,23,32,-70,0.41,-0.81,0.45,-15,-16,-17,0.91,0,86,6028,38,26,94,0.5,35.5,418,4.97,13.0,67.4,1,39.9,8.47,23.4,0,0,1,1,0,382,-32256,1,355,45.69949,4.9087,33.16,193.1,7,3,2.3,0,0.0,-1,0.0,0.0,0.0,0,6.03,8.7974
527863,1622987394008,,,,,,,,0.48,-0.86,0.58,-19,-20,-21,0.98,,86,6065,38,26,94,0.5,35.8,422,4.88,12.9,67.4,1,40.1,8.33,23.4,0,0,1,1,0,381,-30976,-6656,358,,,,,,,,,,,,,,,,
527883,1622987394028,,,,,,,,0.47,-0.9,0.69,-23,-22,-24,1.01,,86,6069,38,26,94,0.5,36.4,425,4.85,12.8,67.4,1,40.3,8.25,23.4,0,0,1,1,0,381,-27136,19125,364,,,,,,,,,,,,,,,,
527903,1622987394048,,,,,,,,0.45,-0.93,0.47,-27,-22,-25,1.04,,86,6079,37,26,94,0.5,37.3,424,4.91,12.9,67.4,1,40.5,8.15,23.4,0,0,1,1,0,386,145,-6524,373,,,,,,,,,,,,,,,,
527923,1622987394068,,,,,,,,0.36,-0.94,0.26,-30,-21,-25,1.01,,86,6105,35,26,94,0.5,37.2,426,4.91,12.9,67.4,1,40.7,8.04,23.4,0,0,1,1,0,377,155,-31744,372,,,,,,,,,,,,,,,,
527943,1622987394101,-1,2,47,35,24,34,-66,0.24,-0.93,0.08,-33,-17,-22,0.96,0,86,6133,34,26,93,0.5,37.9,428,4.89,12.8,59.6,1,41.0,7.82,22.6,0,0,1,1,0,404,-27136,-1562,379,45.699501,4.908683,35.0,193.2,7,3,2.3,0,0.0,-1,0.0,,0.0,0,6.03,8.7991
527963,1622987394121,,,,,,,,0.16,-0.79,-0.1,-35,-10,-16,0.81,,86,6258,34,26,93,0.5,38.3,435,4.86,12.8,59.6,1,42.3,7.56,22.6,0,0,1,1,0,404,150,-32702,380,,,,,,,,,,,,,,,,
527983,1622987394141,,,,,,,,0.22,-0.78,0.08,-38,-9,-15,0.82,,86,6405,34,26,92,0.5,38.1,450,4.86,13.0,59.6,1,43.8,7.22,22.6,0,0,1,1,0,383,170,-32702,386,,,,,,,,,,,,,,,,
528003,1622987394161,,,,,,,,0.27,-0.85,0.24,-40,-12,-18,0.89,,86,6427,34,26,92,0.5,39.0,456,4.92,13.0,59.6,1,44.0,3.66,22.6,0,0,1,1,0,403,-22016,11545,390,,,,,,,,,,,,,,,,
528023,1622987394181,,,,,,,,0.27,-0.91,0.05,-42,-14,-19,0.95,,86,6206,34,26,92,0.5,39.6,452,4.91,12.8,59.6,1,41.8,3.82,22.6,0,0,1,1,0,418,-253,-8151,396,,,,,,,,,,,,,,,,
528043,1622987394201,0,3,48,34,24,35,-63,0.15,-0.98,-0.12,-44,-11,-17,0.99,0,86,6223,34,26,92,0.5,39.3,437,4.84,12.9,53.6,1,41.9,7.16,20.8,0,0,1,1,0,407,13,1504,393,45.699509,4.908677,36.68,193.0,7,3,2.3,0,0.0,-1,0.0,0.0,0.0,0,6.03,8.8007
528063,1622987394221,,,,,,,,0.11,-0.99,-0.28,-46,-6,-12,1.0,,86,6368,34,26,92,0.5,39.6,445,4.85,13.0,53.6,1,43.4,6.92,20.8,0,0,1,1,0,372,3346,-8151,391,,,,,,,,,,,,,,,,
528083,1622987394241,,,,,,,,0.18,-1.04,-0.09,-47,-5,-11,1.06,,86,6381,34,26,92,0.5,39.9,458,4.87,13.0,53.6,1,43.6,6.83,20.8,0,0,1,1,0,414,3327,2524,399,,,,,,,,,,,,,,,,
528103,1622987394261,,,,,,,,0.21,-1.09,0.09,-49,-8,-14,1.11,,86,6360,34,27,92,0.5,40.2,453,4.93,13.0,53.6,1,43.4,6.78,20.8,0,0,1,1,0,437,3327,2524,402,,,,,,,,,,,,,,,,
528123,1622987394281,,,,,,,,0.19,-1.0,-0.09,-50,-6,-11,1.01,,85,6639,34,27,92,0.5,39.7,467,4.94,12.9,53.6,1,46.2,6.38,20.8,0,0,1,1,0,411,3327,10392,403,,,,,,,,,,,,,,,,
528143,1622987394301,-1,2,47,31,24,37,-53,0.21,-1.05,0.09,-52,-6,-12,1.07,0,85,6644,34,27,92,0.5,40.5,477,4.89,13.0,48.3,1,46.3,6.31,19.5,0,0,1,1,0,399,3327,13040,405,45.699516,4.90867,38.43,192.9,7,3,2.3,0,0.0,-1,0.0,,0.0,0,6.03,8.8024
528163,1622987394321,,,,,,,,0.16,-1.03,-0.09,-53,-4,-9,1.04,,85,6742,34,27,92,0.5,41.0,468,4.93,12.9,48.3,1,47.3,6.1,19.5,0,0,1,1,0,423,3327,-26615,410,,,,,,,,,,,,,,,,
528183,1622987394341,,,,,,,,0.18,-1.11,0.09,-55,-6,-10,1.12,,85,6875,34,27,92,0.5,41.1,486,4.88,13.0,48.3,1,48.7,5.89,19.5,0,0,1,1,0,430,3327,-3414,410,,,,,,,,,,,,,,,,
528203,1622987394361,,,,,,,,0.21,-1.12,-0.09,-56,-4,-7,1.14,,85,6895,34,27,92,0.5,40.9,493,4.92,12.8,48.3,1,48.9,5.8,19.5,0,0,1,1,0,423,3327,-4082,409,,,,,,,,,,,,,,,,
528223,1622987394381,,,,,,,,0.25,-1.13,-0.1,-57,-6,-8,1.16,,85,6873,34,27,92,0.5,41.6,492,4.97,13.0,48.3,1,48.6,4.47,19.5,0,0,1,1,0,432,3327,1779,416,,,,,,,,,,,,,,,,
528243,1622987394401,0,1,47,34,24,35,-24,0.29,-1.07,-0.2,-57,-3,-5,1.11,0,85,6810,34,27,92,0.5,41.5,491,4.91,13.0,34.2,1,48.0,4.52,14.2,0,0,1,1,0,435,3327,243,415,45.699528,4.908663,40.63,192.7,7,3,2.3,0,0.0,-1,0.0,0.0,0.0,0,6.03,8.8041
528263,1622987394421,,,,,,,,0.29,-1.01,-0.35,-56,-3,-6,1.05,,85,6815,34,27,92,0.5,42.0,484,4.94,12.9,34.2,1,48.0,4.51,14.2,0,0,1,1,0,417,3327,-768,420,,,,,,,,,,,,,,,,
528283,1622987394441,,,,,,,,0.34,-0.98,-0.16,-55,-3,-5,1.04,,85,6808,34,27,92,0.5,41.6,492,4.88,13.0,34.2,1,48.0,4.52,14.2,0,0,1,1,0,423,3327,-3322,416,,,,,,,,,,,,,,,,
528303,1622987394461,,,,,,,,0.29,-0.95,-0.31,-53,-2,-4,1.0,,85,6781,34,27,93,0.5,41.7,485,4.9,12.8,34.2,1,47.7,4.59,14.2,0,0,1,1,0,439,3327,3635,417,,,,,,,,,,,,,,,,
528323,1622987394481,,,,,,,,0.34,-0.92,-0.12,-51,-3,-5,0.98,,85,6810,34,27,92,0.5,42.0,486,4.89,13.0,34.2,1,48.0,4.52,14.2,0,0,1,1,0,422,3327,1779,418,,,,,,,,,,,,,,,,
528343,1622987394501,1,1,46,37,24,32,-14,0.3,-0.83,-0.27,-49,-1,-2,0.88,0,85,6840,34,27,93,0.5,42.2,478,4.91,12.9,33.9,1,48.3,4.55,14.2,0,0,1,1,0,428,8195,-3314,422,45.699535,4.90866,40.94,192.7,7,3,2.3,0,0.0,-1,0.0,,0.0,0,6.03,8.8057
528363,1622987394521,,,,,,,,0.32,-0.82,-0.08,-47,-3,-5,0.88,,85,6873,36,27,92,0.5,42.5,487,4.93,13.0,33.9,1,48.6,4.47,14.2,0,0,1,1,0,429,8195,-768,425,,,,,,,,,,,,,,,,
528383,1622987394541,,,,,,,,0.34,-0.71,-0.24,-44,-1,-2,0.78,,85,6906,40,27,93,0.5,42.8,499,4.88,13.0,33.9,1,49.0,4.49,14.2,0,0,1,1,0,427,-235,-768,428,,,,,,,,,,,,,,,,
528403,1622987394561,,,,,,,,0.33,-0.72,-0.32,-42,-1,-3,0.79,,85,6921,43,27,95,0.5,42.8,495,4.95,13.0,33.9,1,49.1,4.54,14.2,0,0,1,1,0,431,-235,19477,428,,,,,,,,,,,,,,,,
528423,1622987394581,,,,,,,,0.34,-0.7,-0.13,-40,-2,-3,0.78,,85,6929,46,27,95,0.5,42.8,498,4.86,13.0,33.9,1,49.2,5.27,14.2,0,0,1,1,0,441,-235,20625,428,,,,,,,,,,,,,,,,
528443,1622987394603,-0,2,44,40,24,28,-12,0.35,-0.54,-0.28,-37,0,-0,0.65,0,85,6965,47,27,96,0.5,43.4,499,4.93,12.9,38.8,1,49.6,5.31,16.9,0,0,1,1,0,437,-235,16648,434,45.699547,4.908658,42.4,192.7,7,3,2.3,0,0.0,-1,0.0,0.0,0.0,0,6.03,8.8074
528463,1622987394623,,,,,,,,0.34,-0.64,-0.3,-36,-1,-2,0.72,,85,7022,48,27,96,0.5,43.9,503,4.91,13.0,38.8,1,49.7,5.29,16.9,0,0,1,1,0,443,-235,16648,439,,,,,,,,,,,,,,,,
528483,1622987394643,,,,,,,,0.38,-0.62,-0.11,-34,-2,-2,0.73,,85,7006,49,27,96,0.5,44.3,514,4.9,13.0,38.8,1,50.0,5.2,16.9,0,0,1,1,0,446,-235,-3267,443,,,,,,,,,,,,,,,,
528503,1622987394663,,,,,,,,0.39,-0.52,-0.27,-32,-0,-1,0.65,,85,7064,50,27,96,0.5,44.6,502,4.91,12.9,38.8,1,49.2,5.14,16.9,0,0,1,1,0,447,-235,3571,442,,,,,,,,,,,,,,,,
528523,1622987394683,,,,,,,,0.39,-0.51,-0.41,-31,1,1,0.64,,85,7170,51,27,96,0.5,49.1,505,4.92,13.0,38.8,1,47.6,5.19,16.9,0,0,1,1,0,453,248,17628,450,,,,,,,,,,,,,,,,
528543,1622987394701,0,0,44,40,24,28,-12,0.37,-0.53,-0.55,-30,1,1,0.65,0,85,7335,53,27,96,0.5,49.1,518,4.89,13.0,38.9,1,45.2,5.29,17.5,0,0,1,1,0,457,248,14488,447,45.699554,4.908656,44.11,192.7,7,3,2.3,0,0.0,-1,0.0,,0.0,0,6.03,8.809
528563,1622987394721,,,,,,,,0.33,-0.54,-0.67,-28,2,1,0.63,,85,7467,55,27,96,0.5,49.1,526,4.91,13.0,38.9,1,43.2,5.3,17.5,0,0,1,1,0,457,248,6193,452,,,,,,,,,,,,,,,,
528583,1622987394741,,,,,,,,0.34,-0.54,-0.78,-27,2,1,0.64,,85,7545,56,27,96,0.5,49.1,534,4.9,13.0,38.9,1,42.1,5.29,17.5,0,0,1,1,0,465,248,16408,459,,,,,,,,,,,,,,,,
528603,1622987394761,,,,,,,,0.36,-0.57,-0.88,-26,3,1,0.67,,85,7539,58,27,96,0.5,49.1,533,4.89,13.0,38.9,1,42.2,3.91,17.5,0,0,1,1,0,475,248,32033,458,,,,,,,,,,,,,,,,
528623,1622987394781,,,,,,,,0.35,-0.51,-0.94,-25,3,1,0.62,,85,7521,60,27,96,0.5,49.1,537,4.95,12.9,38.9,1,42.5,5.07,17.5,0,0,1,1,0,475,248,3576,467,,,,,,,,,,,,,,,,
528643,1622987394803,-0,2,44,41,22,26,-13,0.34,-0.53,-1.03,-24,5,2,0.63,0,85,7515,62,27,96,0.5,49.1,535,4.91,13.0,37.8,1,42.5,5.04,17.5,0,0,1,1,0,478,248,8488,469,45.69957,4.908654,45.75,192.6,7,3,2.3,0,0.0,-1,0.0,0.0,0.0,0,6.03,8.8107
528663,1622987394823,,,,,,,,0.38,-0.55,-1.11,-23,5,2,0.67,,85,7554,66,27,96,0.5,49.1,539,4.93,13.0,37.8,1,42.0,5.07,17.5,0,0,1,1,0,482,248,32033,468,,,,,,,,,,,,,,,,
528683,1622987394843,,,,,,,,0.47,-0.49,-1.1,-23,4,1,0.67,,85,7671,71,27,96,0.5,49.1,539,4.97,12.8,37.8,1,39.7,5.97,17.5,0,0,1,1,0,487,248,-1562,473,,,,,,,,,,,,,,,,
528703,1622987394863,,,,,,,,0.5,-0.44,-0.88,-23,2,-1,0.66,,85,7838,75,27,96,0.5,49.1,555,4.95,12.9,37.8,1,37.8,6.16,17.5,0,0,1,1,0,490,248,-6656,482,,,,,,,,,,,,,,,,
528723,1622987394883,,,,,,,,0.45,-0.47,-0.91,-22,2,-1,0.65,,84,7961,80,27,95,0.5,49.1,565,4.85,13.0,37.8,1,36.1,6.28,17.5,0,0,1,1,0,501,248,998,485,,,,,,,,,,,,,,,,
528743,1622987394903,-1,2,43,39,22,28,-14,0.51,-0.46,-0.96,-22,1,-0,0.68,0,84,8109,84,27,95,0.5,49.3,566,4.89,12.9,47.8,1,37.1,6.58,23.2,0,0,1,1,0,500,248,-22519,487,45.699581,4.908652,47.51,192.6,7,3,2.3,0,0.0,-1,0.0,,0.0,0,6.04,8.8124
528763,1622987394923,,,,,,,,0.45,-0.55,-0.98,-22,1,-2,0.71,,84,8263,87,27,94,0.5,49.6,578,4.93,12.9,47.8,1,39.5,6.93,23.2,0,0,1,1,0,497,248,-32248,496,,,,,,,,,,,,,,,,
528783,1622987394943,,,,,,,,0.52,-0.52,-0.93,-21,-0,-1,0.74,,84,8340,89,27,94,0.5,49.5,581,4.84,12.9,47.8,1,40.7,7.06,23.2,0,0,1,1,0,512,248,-3414,495,,,,,,,,,,,,,,,,
528803,1622987394963,,,,,,,,0.49,-0.44,-1.02,-21,0,1,0.66,,84,8442,90,27,93,0.5,50.2,587,4.93,13.0,47.8,1,42.4,7.29,23.2,0,0,1,1,0,508,248,26178,502,,,,,,,,,,,,,,,,
528823,1622987394983,,,,,,,,0.45,-0.46,-0.83,-21,0,-1,0.64,,84,8511,92,27,92,0.5,50.0,585,4.83,12.9,47.8,1,43.2,7.32,23.2,0,0,1,1,0,514,1018,16383,500,,,,,,,,,,,,,,,,
528843,1622987395003,-0,2,49,40,21,23,-14,0.5,-0.36,-0.66,-20,-0,-2,0.61,0,84,8612,93,27,92,0.5,50.9,599,4.95,12.9,57.1,1,42.4,7.19,29.0,0,0,1,1,0,521,-6441,1248,509,45.699581,4.908652,47.51,192.6,7,3,2.3,0,0.0,-1,0.0,0.0,0.0,0,6.04,8.814
528863,1622987395007,,,,,,,,0.55,-0.22,-0.71,-19,-0,-0,0.6,,84,8724,95,27,92,0.5,51.5,606,4.92,12.9,57.1,1,41.4,7.05,29.0,0,0,1,1,0,526,90,2524,506,,,,,,,,,,,,,,,,
528883,1622987395027,,,,,,,,0.6,-0.16,-0.82,-19,0,2,0.62,,84,8823,95,27,91,0.5,51.7,617,4.84,12.8,57.1,1,40.5,6.87,29.0,0,0,1,1,0,536,90,2104,517,,,,,,,,,,,,,,,,
528903,1622987395047,,,,,,,,0.66,-0.18,-0.92,-18,0,4,0.68,,84,8941,96,27,91,0.5,52.0,618,4.81,12.8,57.1,1,39.4,6.73,29.0,0,0,1,1,0,548,14256,-3082,520,,,,,,,,,,,,,,,,
528923,1622987395067,,,,,,,,0.69,-0.11,-0.97,-18,1,5,0.7,,84,9040,96,27,90,0.5,52.7,635,4.84,12.8,57.1,1,38.8,6.54,29.0,0,0,1,1,0,555,14256,14504,527,,,,,,,,,,,,,,,,
528943,1622987395102,0,1,49,41,23,25,-13,0.72,-0.09,-0.95,-18,0,6,0.73,0,84,9132,96,27,91,0.5,53.1,632,4.82,12.8,51.3,1,38.8,6.44,27.2,0,0,1,1,0,554,14256,-9072,531,45.699608,4.908649,52.41,192.5,7,3,2.3,0,0.0,-1,0.0,,0.0,0,6.04,8.8157
528963,1622987395122,,,,,,,,0.71,-0.04,-0.7,-18,-0,5,0.71,,84,9218,97,27,90,0.5,53.5,634,4.92,12.9,51.3,1,38.8,6.39,27.2,0,0,1,1,0,560,14256,-32504,535,,,,,,,,,,,,,,,,
528983,1622987395142,,,,,,,,0.62,-0.08,-0.48,-18,-1,3,0.63,,84,9295,97,27,90,0.5,54.2,634,4.88,12.9,51.3,1,38.9,6.34,27.2,0,0,1,1,0,552,14256,-28648,543,,,,,,,,,,,,,,,,
529003,1622987395162,,,,,,,,0.62,-0.21,-0.55,-18,-1,3,0.66,,84,9314,97,27,90,0.5,55.2,637,4.93,12.9,51.3,1,38.9,6.34,27.2,0,0,1,1,0,560,14256,-8186,552,,,,,,,,,,,,,,,,
529023,1622987395182,,,,,,,,0.68,-0.24,-0.67,-18,0,3,0.72,,84,9356,97,27,91,0.5,55.0,642,4.84,12.8,51.3,1,38.9,6.34,27.2,0,0,1,1,0,578,14256,-8186,550,,,,,,,,,,,,,,,,
529043,1622987395202,-1,2,49,42,21,25,-14,0.72,-0.12,-0.56,-18,-1,3,0.73,0,84,9393,97,27,91,0.5,55.7,638,4.86,12.8,49.4,1,38.9,6.39,27.5,0,0,1,1,0,581,14256,1,557,45.699619,4.908649,54.57,192.4,7,3,2.3,0,0.0,-1,0.0,0.0,0.0,0,6.04,8.8174
529063,1622987395222,,,,,,,,0.67,-0.14,-0.48,-18,-1,2,0.68,,84,9436,97,27,90,0.5,55.7,641,4.93,12.9,49.4,1,38.9,6.39,27.5,0,0,1,1,0,595,14256,-1894,557,,,,,,,,,,,,,,,,
529083,1622987395242,,,,,,,,0.73,-0.29,-0.61,-18,0,3,0.79,,84,9488,97,27,90,0.5,57.0,637,4.94,12.9,49.4,1,38.9,6.34,27.5,0,0,1,1,0,587,14256,-12040,566,,,,,,,,,,,,,,,,
529103,1622987395262,,,,,,,,0.75,-0.22,-0.54,-18,1,2,0.78,,84,9522,97,27,90,0.5,57.4,647,4.86,12.9,49.4,1,39.0,6.34,27.5,0,0,1,1,0,585,14256,-16179,574,,,,,,,,,,,,,,,,
529123,1622987395282,,,,,,,,0.64,-0.14,-0.33,-18,0,1,0.66,,84,9585,97,27,90,0.5,57.6,643,4.85,12.9,49.4,1,39.1,5.22,27.5,0,0,1,1,0,599,14256,-13043,576,,,,,,,,,,,,,,,,
529143,1622987395302,-1,2,49,42,21,25,-18,0.71,-0.23,-0.47,-18,0,1,0.75,0,84,9645,97,27,90,0.5,58.1,645,4.85,12.8,48.7,1,39.2,6.39,28.3,0,0,1,1,0,609,14256,-3210,581,45.699635,4.908649,56.6,192.4,7,3,2.3,0,0.0,-1,0.0,,0.0,0,6.04,8.819
529163,1622987395322,,,,,,,,0.66,-0.18,-0.32,-19,-1,0,0.68,,84,9730,97,27,90,0.5,58.1,652,4.84,12.9,48.7,1,39.3,6.42,28.3,0,0,1,1,0,598,14256,-3820,592,,,,,,,,,,,,,,,,
529183,1622987395342,,,,,,,,0.72,-0.21,-0.46,-19,1,2,0.75,,84,9821,97,27,89,0.5,59.0,653,4.86,12.8,48.7,1,39.4,6.3,28.3,0,0,1,1,0,615,14256,-23055,595,,,,,,,,,,,,,,,,
529203,1622987395362,,,,,,,,0.68,-0.14,-0.26,-19,1,2,0.69,,84,9915,97,27,89,0.5,59.3,653,4.88,12.9,48.7,1,39.5,6.33,28.3,0,0,1,1,0,619,14256,16529,593,,,,,,,,,,,,,,,,
529223,1622987395382,,,,,,,,0.67,-0.29,-0.19,-20,-0,2,0.73,,84,10000,97,27,89,0.5,60.5,653,4.87,12.8,48.7,1,39.7,6.37,28.3,0,0,1,1,0,631,14256,17336,605,,,,,,,,,,,,,,,,
529243,1622987395403,0,1,50,41,20,26,-23,0.75,-0.36,-0.34,-20,1,4,0.83,0,84,10053,97,27,88,0.5,60.7,648,4.92,12.8,48.0,1,39.8,6.21,28.8,0,0,1,1,0,621,14256,20993,607,45.699654,4.908651,60.39,192.4,7,3,2.3,0,0.0,-1,0.0,0.0,0.0,0,6.04,8.8207
529263,1622987395423,,,,,,,,0.76,-0.31,-0.23,-21,0,3,0.82,,84,10118,97,27,88,0.5,60.7,656,4.89,12.9,48.0,1,40.0,6.21,28.8,0,0,1,1,0,623,14256,-5120,607,,,,,,,,,,,,,,,,
529283,1622987395443,,,,,,,,0.69,-0.28,-0.2,-22,1,2,0.75,,84,10179,97,27,87,0.5,61.5,653,4.85,12.9,48.0,1,40.2,6.05,28.8,0,0,1,1,0,631,14256,3,612,,,,,,,,,,,,,,,,
529303,1622987395463,,,,,,,,0.55,-0.29,-0.02,-22,1,2,0.62,,84,10234,97,27,87,0.5,62.2,651,4.87,12.9,48.0,1,40.3,6.05,28.8,0,0,1,1,0,664,14256,6208,625,,,,,,,,,,,,,,,,
529323,1622987395483,,,,,,,,0.49,-0.38,0.15,-23,1,-0,0.62,,84,10393,97,27,86,0.5,62.7,652,4.86,12.9,48.0,1,40.8,5.9,28.8,0,0,1,1,0,662,14256,11776,627,,,,,,,,,,,,,,,,
529343,1622987395502,-1,2,50,40,19,27,-22,0.42,-0.44,0.3,-23,1,-1,0.61,0,84,10551,97,27,86,0.5,62.6,661,4.89,12.8,45.8,1,41.3,5.86,28.6,0,0,1,1,0,640,14256,-3488,626,45.699665,4.908652,61.7,192.4,7,3,2.3,0,0.0,-1,0.0,,0.0,0,6.04,8.8224
529363,1622987395522,,,,,,,,0.38,-0.39,0.44,-24,-1,-2,0.55,,84,10605,97,26,86,0.5,63.4,653,4.93,12.8,45.8,1,41.4,5.82,28.6,0,0,1,1,0,646,14256,8958,634,,,,,,,,,,,,,,,,
529383,1622987395542,,,,,,,,0.49,-0.51,0.45,-24,0,-3,0.71,,84,10599,97,26,86,0.5,63.1,664,4.85,12.9,45.8,1,41.4,5.83,28.6,0,0,1,1,0,660,14256,-2830,640,,,,,,,,,,,,,,,,
529403,1622987395562,,,,,,,,0.62,-0.56,0.24,-25,2,-3,0.83,,84,10599,97,26,86,0.5,64.1,660,4.88,12.8,45.8,1,41.4,5.83,28.6,0,0,1,1,0,673,250,-27404,641,,,,,,,,,,,,,,,,
529423,1622987395582,,,,,,,,0.67,-0.45,0.27,-25,2,-1,0.81,,84,10641,97,26,86,0.5,65.2,665,4.88,12.9,45.8,1,41.5,5.79,28.6,0,0,1,1,0,681,250,31988,652,,,,,,,,,,,,,,,,
529443,1622987395602,-1,3,50,39,19,28,-18,0.62,-0.58,0.08,-26,3,0,0.85,0,84,10738,97,26,86,0.5,65.5,665,4.88,12.8,43.5,1,41.8,5.71,28.5,0,0,1,1,0,657,250,-26380,655,45.69968,4.908656,64.27,192.3,7,3,2.3,0,0.0,-1,0.0,0.0,0.0,0,6.05,8.824
529463,1622987395622,,,,,,,,0.56,-0.47,0.24,-26,1,-2,0.73,,84,10806,97,26,86,0.5,65.3,663,4.88,12.8,43.5,1,41.9,5.66,28.5,0,0,1,1,0,675,250,-2345,661,,,,,,,,,,,,,,,,
529483,1622987395642,,,,,,,,0.57,-0.58,0.39,-26,2,-0,0.81,,84,10825,97,26,86,0.5,65.8,671,4.88,12.8,43.5,1,42.0,5.64,28.5,0,0,1,1,0,701,250,-26562,658,,,,,,,,,,,,,,,,
529503,1622987395662,,,,,,,,0.68,-0.7,0.19,-26,-0,-3,0.98,,84,10869,97,26,86,0.5,66.5,658,4.88,12.8,43.5,1,42.1,5.61,28.5,0,0,1,1,0,687,250,6208,664,,,,,,,,,,,,,,,,
529523,1622987395682,,,,,,,,0.69,-0.57,0.23,-26,0,-1,0.89,,84,10901,97,26,86,0.5,66.3,662,4.91,12.9,43.5,1,42.2,5.58,28.5,0,0,1,1,0,675,250,24845,663,,,,,,,,,,,,,,,,
529543,1622987395702,0,3,49,38,18,27,-14,0.58,-0.64,0.07,-26,2,-1,0.86,0,84,10907,97,26,86,0.5,66.5,658,4.85,12.9,42.2,1,42.2,5.58,28.2,0,0,1,1,0,689,250,-3584,665,45.699696,4.90866,66.02,192.3,7,3,2.3,0,0.0,-1,0.0,,0.0,0,6.05,8.8257
529563,1622987395722,,,,,,,,0.64,-0.63,0.03,-26,-1,-3,0.89,,84,10945,97,26,87,0.5,67.8,657,4.88,12.8,42.2,1,42.4,5.72,28.2,0,0,1,1,0,681,24583,11576,678,,,,,,,,,,,,,,,,
529583,1622987395742,,,,,,,,0.7,-0.74,0.19,-26,-2,-3,1.02,,84,10997,97,26,87,0.5,67.8,670,4.86,12.9,42.2,1,42.5,5.66,28.2,0,0,1,1,0,698,11776,16599,678,,,,,,,,,,,,,,,,
529603,1622987395762,,,,,,,,0.52,-0.66,0.01,-25,1,1,0.85,,84,11068,97,26,86,0.5,68.5,667,4.91,12.8,42.2,1,42.6,5.5,28.2,0,0,1,1,0,700,-10344,6208,675,,,,,,,,,,,,,,,,
529623,1622987395782,,,,,,,,0.65,-0.77,-0.16,-25,-1,-2,1.01,,84,11134,97,26,87,0.5,67.8,666,4.9,12.8,42.2,1,42.7,5.65,28.2,0,0,1,1,0,691,-10344,-2830,678,,,,,,,,,,,,,,,,
529643,1622987395802,0,3,48,39,18,27,-13,0.56,-0.73,0.02,-24,-1,-1,0.92,0,84,11154,97,26,87,0.5,68.7,664,4.88,12.8,41.7,1,42.7,5.65,28.4,0,0,1,1,0,701,-10344,687,687,45.699715,4.908666,68.87,192.2,7,3,2.3,0,0.0,-1,0.0,0.0,0.0,0,6.05,8.8274
529663,1622987395822,,,,,,,,0.61,-0.63,0.12,-24,-1,-2,0.88,,84,11134,97,26,87,0.5,69.2,668,4.86,12.8,41.7,1,42.7,5.65,28.4,0,0,1,1,0,711,1549,-13312,693,,,,,,,,,,,,,,,,
529683,1622987395842,,,,,,,,0.5,-0.72,-0.06,-24,1,-0,0.87,,84,11247,97,26,87,0.5,70.0,667,4.89,12.9,41.7,1,42.7,5.65,28.4,0,0,1,1,0,715,1549,687,700,,,,,,,,,,,,,,,,
529703,1622987395862,,,,,,,,0.63,-0.62,-0.22,-24,-2,0,0.88,,84,11405,97,26,87,0.5,69.5,667,4.9,12.8,41.7,1,42.9,5.65,28.4,0,0,1,1,0,705,-26562,204,695,,,,,,,,,,,,,,,,
529723,1622987395882,,,,,,,,0.51,-0.61,-0.03,-24,-3,-3,0.8,,84,11446,97,26,87,0.5,70.0,660,4.87,12.8,41.7,1,42.9,5.65,28.4,0,0,1,1,0,715,16118,-31068,700,,,,,,,,,,,,,,,,
529743,1622987395900,0,1,47,39,19,26,-14,0.58,-0.73,0.1,-23,-4,-3,0.93,0,84,11432,97,26,86,0.5,70.3,663,4.9,12.8,42.9,1,42.8,5.5,30.0,0,0,1,1,0,716,-10344,-25858,707,45.69973,4.908672,70.3,192.1,7,3,2.3,0,0.0,-1,0.0,,0.0,0,6.05,8.8291
529763,1622987395920,,,,,,,,0.6,-0.71,0.05,-23,-1,-2,0.92,,84,11419,97,26,87,0.5,71.1,668,4.9,12.8,42.9,1,42.9,5.65,30.0,0,0,1,1,0,721,250,-25858,704,,,,,,,,,,,,,,,,
529783,1622987395940,,,,,,,,0.41,-0.58,-0.12,-23,2,2,0.71,,84,11398,97,26,87,0.5,70.2,667,4.88,12.8,42.9,1,42.9,5.65,30.0,0,0,1,1,0,731,11576,-4091,702,,,,,,,,,,,,,,,,
529803,1622987395960,,,,,,,,0.54,-0.69,-0.27,-23,1,-1,0.88,,84,11496,97,26,87,0.5,71.4,672,4.89,12.8,42.9,1,42.9,5.65,30.0,0,0,1,1,0,742,31744,-4091,714,,,,,,,,,,,,,,,,
529823,1622987395980,,,,,,,,0.64,-0.8,-0.29,-23,-0,-3,1.02,,84,11638,97,26,87,0.5,71.6,683,4.89,12.8,42.9,1,43.0,5.71,30.0,0,0,1,1,0,717,31744,-2314,716,,,,,,,,,,,,,,,,
529843,1622987396000,0,2,47,37,19,27,-14,0.55,-0.9,-0.1,-23,-1,-4,1.06,0,84,11755,97,26,87,0.5,71.2,673,4.88,12.8,43.3,1,43.0,5.75,30.9,0,0,1,1,0,740,-1,1037,712,45.69973,4.908672,70.3,192.1,7,3,2.3,0,0.0,-1,0.0,0.0,0.0,0,6.05,8.8307
529863,1622987396006,,,,,,,,0.41,-0.93,0.03,-23,-1,-4,1.02,,84,11748,97,26,87,0.5,72.1,686,4.87,12.8,43.3,1,43.0,5.74,30.9,0,0,1,1,0,732,-1,-13068,721,,,,,,,,,,,,,,,,
529883,1622987396026,,,,,,,,0.4,-0.87,0.19,-23,-2,-4,0.95,,84,11740,97,26,87,0.5,72.8,676,4.88,12.7,43.3,1,43.0,5.74,30.9,0,0,1,1,0,750,-1,-2356,727,,,,,,,,,,,,,,,,
529903,1622987396046,,,,,,,,0.5,-0.77,0.22,-23,-2,-2,0.92,,84,11762,97,26,87,0.5,73.3,680,4.86,12.8,43.3,1,43.0,5.75,30.9,0,0,1,1,0,745,-12152,6790,733,,,,,,,,,,,,,,,,
529923,1622987396066,,,,,,,,0.63,-0.69,0.15,-23,-2,-1,0.94,,84,11844,97,26,87,0.5,73.5,678,4.87,12.8,43.3,1,43.0,5.78,30.9,0,0,1,1,0,737,-12152,6790,735,,,,,,,,,,,,,,,,
529943,1622987396099,-1,2,47,35,17,27,-15,0.74,-0.56,0.23,-23,-3,-1,0.93,0,84,11935,97,26,87,0.5,73.9,673,4.88,12.8,43.0,1,43.0,5.81,31.8,0,0,1,1,0,742,-12152,136,739,45.699768,4.908687,73.02,192.0,7,3,2.3,0,0.0,-1,0.0,,0.0,0,6.06,8.8324
529963,1622987396119,,,,,,,,0.85,-0.45,0.37,-24,-5,-1,0.96,,84,11965,97,26,87,0.5,74.1,671,4.86,12.8,43.0,1,43.0,5.82,31.8,0,0,1,1,0,756,1018,-3450,741,,,,,,,,,,,,,,,,
529983,1622987396139,,,,,,,,0.94,-0.37,0.51,-23,-6,-1,1.01,,84,11942,97,26,87,0.5,74.3,676,4.88,12.8,43.0,1,43.0,5.82,31.8,0,0,1,1,0,753,1018,8838,743,,,,,,,,,,,,,,,,
530003,1622987396159,,,,,,,,1.0,-0.29,0.44,-23,-6,-1,1.04,,84,11942,97,26,87,0.5,74.4,670,4.86,12.8,43.0,1,43.0,5.67,31.8,0,0,1,1,0,758,1018,8838,744,,,,,,,,,,,,,,,,
530023,1622987396179,,,,,,,,1.02,-0.21,0.39,-23,-7,-1,1.04,,84,12011,97,26,86,0.5,74.0,667,4.87,12.8,43.0,1,43.0,5.69,31.8,0,0,1,1,0,766,-1,5876,747,,,,,,,,,,,,,,,,
530043,1622987396202,-1,2,46,36,18,27,-14,1.1,-0.18,0.46,-24,-8,-1,1.11,0,84,12151,97,26,86,0.5,74.4,672,4.87,12.8,42.6,1,43.0,5.7,31.8,0,0,1,1,0,759,-1268,-2826,749,45.699787,4.908694,75.59,191.9,7,2,2.3,0,0.0,-1,0.0,0.0,0.0,0,6.06,8.8341
530063,1622987396222,,,,,,,,1.17,-0.06,0.59,-24,-9,-1,1.18,,84,12254,97,26,87,0.5,76.7,686,4.87,12.8,42.6,1,43.0,5.84,31.8,0,0,1,1,0,759,-1268,-10214,743,,,,,,,,,,,,,,,,
530083,1622987396242,,,,,,,,1.13,0.02,0.71,-23,-9,-1,1.13,,84,12254,97,26,86,0.5,75.6,681,4.87,12.8,42.6,1,43.0,5.7,31.8,0,0,1,1,0,770,-1268,-2344,756,,,,,,,,,,,,,,,,
530103,1622987396262,,,,,,,,1.11,0.07,0.65,-22,-9,1,1.12,,83,11867,97,26,87,0.5,75.2,681,4.96,13.1,42.6,1,43.0,5.79,31.8,0,0,1,1,0,775,-1268,-2570,752,,,,,,,,,,,,,,,,
530123,1622987396282,,,,,,,,0.94,0.01,0.57,-22,-6,1,0.94,,83,11207,97,26,89,0.5,75.3,675,4.93,13.1,42.6,1,42.9,5.97,31.8,0,0,1,1,0,763,-1268,5876,753,,,,,,,,,,,,,,,,
530143,1622987396303,0,2,43,40,19,30,-14,0.91,-0.15,0.36,-21,-7,1,0.92,0,83,10939,97,26,89,0.5,75.9,670,4.96,13.1,40.9,1,42.6,6.02,30.8,0,0,1,1,0,744,-1281,-31066,747,45.699802,4.908703,76.28,191.7,7,3,2.3,0,0.0,-1,0.0,,0.0,0,6.06,8.8357
530163,1622987396323,,,,,,,,0.87,-0.3,0.33,-22,-6,1,0.92,,83,10695,97,26,90,0.5,74.9,679,4.96,13.1,40.9,1,42.2,6.38,30.8,0,0,1,1,0,742,-1281,-3038,748,,,,,,,,,,,,,,,,
530183,1622987396343,,,,,,,,0.91,-0.35,0.14,-22,-3,-0,0.98,,83,10521,97,26,89,0.5,75.4,662,4.88,12.9,40.9,1,41.5,6.36,30.8,0,0,1,1,0,736,-1281,5876,754,,,,,,,,,,,,,,,,
530203,1622987396363,,,,,,,,1.0,-0.25,0.07,-23,-3,1,1.03,,84,10599,97,26,88,0.5,75.9,666,4.87,12.9,40.9,1,41.6,6.14,30.8,0,0,1,1,0,786,-1281,6389,759,,,,,,,,,,,,,,,,
530223,1622987396383,,,,,,,,1.04,-0.21,-0.1,-23,-4,0,1.06,,84,10439,97,26,87,0.5,77.2,651,4.85,12.9,40.9,1,41.1,6.05,30.8,0,0,1,1,0,813,-235,-22795,765,,,,,,,,,,,,,,,,
530243,1622987396401,-1,2,44,34,19,28,-9,1.01,-0.27,-0.17,-23,-4,-1,1.04,0,84,10302,97,26,87,0.5,76.5,647,4.89,12.9,37.8,1,40.6,6.05,29.1,0,0,1,1,0,786,-235,-2344,765,45.699822,4.908714,77.3,191.6,7,3,2.3,0,0.0,-1,0.0,0.0,0.0,0,6.06,8.8374
530263,1622987396421,,,,,,,,0.94,-0.3,-0.22,-22,-4,-3,0.99,,84,10140,97,26,87,0.5,76.5,646,4.83,12.9,37.8,1,40.0,6.05,29.1,0,0,1,1,0,782,-31068,-10218,765,,,,,,,,,,,,,,,,
530283,1622987396441,,,,,,,,0.88,-0.3,-0.24,-21,-3,-1,0.93,,84,10021,95,26,86,0.5,77.8,652,4.89,12.8,37.8,1,39.6,5.9,29.1,0,0,1,1,0,791,-31068,-10216,763,,,,,,,,,,,,,,,,
530303,1622987396461,,,,,,,,0.84,-0.24,-0.33,-20,-3,-3,0.88,,84,9868,95,26,87,0.5,77.2,648,4.85,12.9,37.8,1,39.4,6.01,29.1,0,0,1,1,0,793,-31068,-8148,772,,,,,,,,,,,,,,,,
530323,1622987396481,,,,,,,,0.84,-0.22,-0.28,-20,-3,-2,0.86,,84,9694,95,26,88,0.5,77.7,646,4.88,12.9,37.8,1,39.2,6.12,29.1,0,0,1,1,0,795,6389,-30694,777,,,,,,,,,,,,,,,,
530343,1622987396497,-1,2,45,40,21,27,-9,0.77,-0.2,-0.37,-19,-4,-4,0.79,0,84,9561,94,26,88,0.5,77.6,643,4.93,12.9,35.5,1,38.9,6.07,27.4,0,0,1,1,0,803,-2766,-3450,780,45.699837,4.908729,78.87,191.6,7,3,2.3,0,0.0,-1,0.0,,0.0,0,6.06,8.8391
530363,1622987396517,,,,,,,,0.76,-0.35,-0.51,-20,-3,-3,0.83,,84,9407,94,26,89,0.5,78.1,627,4.96,12.9,35.5,1,38.8,6.19,27.4,0,0,1,1,0,813,-13312,31988,781,,,,,,,,,,,,,,,,
530383,1622987396537,,,,,,,,0.81,-0.36,-0.63,-20,-2,-2,0.88,,84,9277,94,26,89,0.5,78.4,636,4.9,12.9,35.5,1,38.8,6.19,27.4,0,0,1,1,0,808,250,-31068,797,,,,,,,,,,,,,,,,
530403,1622987396557,,,,,,,,0.79,-0.36,-0.58,-20,-3,-1,0.87,,84,9231,94,26,90,0.5,80.1,633,4.87,12.8,35.5,1,38.8,6.34,27.4,0,0,1,1,0,798,250,-31068,801,,,,,,,,,,,,,,,,
530423,1622987396577,,,,,,,,0.72,-0.25,-0.37,-19,-3,-1,0.76,,84,9259,94,26,90,0.5,80.5,636,4.89,13.0,35.5,1,38.9,6.34,27.4,0,0,1,1,0,798,250,-3450,805,,,,,,,,,,,,,,,,
530443,1622987396601,-1,1,45,34,17,24,-8,0.61,-0.28,-0.17,-19,-4,-2,0.68,0,84,9351,94,26,90,0.5,79.8,635,4.83,12.9,34.3,1,38.9,6.34,27.2,0,0,1,1,0,809,250,-3450,800,45.699856,4.908744,80.8,191.5,7,3,2.3,0,0.0,-1,0.0,0.0,0.0,0,6.07,8.8407
530463,1622987396621,,,,,,,,0.64,-0.42,-0.32,-18,-3,-1,0.77,,84,9412,94,26,90,0.5,80.1,632,4.91,12.9,34.3,1,38.9,6.34,27.2,0,0,1,1,0,813,250,-2918,798,,,,,,,,,,,,,,,,
530483,1622987396641,,,,,,,,0.65,-0.4,-0.23,-18,-4,-1,0.76,,84,9522,94,26,90,0.5,79.7,641,4.89,12.9,34.3,1,39.0,6.34,27.2,0,0,1,1,0,815,250,-25858,799,,,,,,,,,,,,,,,,
530503,1622987396661,,,,,,,,0.56,-0.36,-0.16,-18,-3,-3,0.67,,84,9488,94,26,90,0.5,79.5,638,4.96,12.9,34.3,1,38.9,6.34,27.2,0,0,1,1,0,816,250,-2826,795,,,,,,,,,,,,,,,,
530523,1622987396681,,,,,,,,0.6,-0.5,-0.31,-17,-2,-0,0.78,,84,9474,93,26,90,0.5,80.8,642,4.93,12.9,34.3,1,38.9,6.34,27.2,0,0,1,1,0,835,250,-2358,808,,,,,,,,,,,,,,,,
530543,1622987396699,1,2,46,37,21,25,-12,0.6,-0.37,-0.42,-17,-2,2,0.7,0,84,9503,90,26,90,0.5,81.6,642,4.82,12.9,34.7,1,39.0,6.34,27.8,0,0,1,1,0,825,250,-2830,802,45.699871,4.908759,82.12,191.5,7,3,2.3,0,0.0,-1,0.0,,0.0,0,6.07,8.8424
530563,1622987396719,,,,,,,,0.51,-0.22,-0.21,-17,-3,-1,0.56,,84,9610,84,26,90,0.5,81.3,648,4.84,12.9,34.7,1,39.1,6.38,27.8,0,0,1,1,0,820,250,-2314,813,,,,,,,,,,,,,,,,
530583,1622987396739,,,,,,,,0.58,-0.25,-0.14,-16,-4,-2,0.64,,84,9765,77,26,90,0.5,81.3,645,4.87,12.8,34.7,1,39.4,6.28,27.8,0,0,1,1,0,826,250,-31066,813,,,,,,,,,,,,,,,,
530603,1622987396759,,,,,,,,0.49,-0.38,-0.29,-16,-2,-2,0.62,,84,9745,72,26,90,0.5,80.9,640,4.85,12.9,34.7,1,39.3,5.28,27.8,0,0,1,1,0,845,250,-4096,809,,,,,,,,,,,,,,,,
530623,1622987396779,,,,,,,,0.62,-0.47,-0.36,-17,1,-1,0.77,,84,9755,65,26,90,0.5,81.0,638,4.91,12.9,34.7,1,39.4,6.27,27.8,0,0,1,1,0,875,250,-23308,810,,,,,,,,,,,,,,,,
530643,1622987396801,1,2,48,44,25,29,-13,0.53,-0.47,-0.32,-17,-0,-3,0.71,0,84,9899,62,26,90,0.5,82.1,638,4.9,12.9,34.5,1,39.6,6.32,28.3,0,0,1,1,0,839,8195,-3450,821,45.69989,4.908776,83.85,191.6,7,3,2.8,0,0.0,-1,0.0,0.0,0.0,0,6.07,8.8441
530663,1622987396821,,,,,,,,0.47,-0.45,-0.21,-18,1,-6,0.65,,84,10000,60,26,89,0.5,82.0,650,4.86,12.9,34.5,1,39.7,6.21,28.3,0,0,1,1,0,844,8195,-10508,812,,,,,,,,,,,,,,,,
530683,1622987396841,,,,,,,,0.52,-0.54,-0.32,-19,-0,-5,0.75,,84,10086,58,26,89,0.5,82.1,649,4.9,12.9,34.5,1,40.0,6.21,28.3,0,0,1,1,0,887,8195,-31066,821,,,,,,,,,,,,,,,,
530703,1622987396861,,,,,,,,0.55,-0.62,-0.43,-19,-1,-6,0.83,,84,10113,57,26,88,0.5,82.8,648,4.86,12.9,34.5,1,40.0,6.05,28.3,0,0,1,1,0,879,8195,-2570,828,,,,,,,,,,,,,,,,
530723,1622987396881,,,,,,,,0.49,-0.66,-0.55,-19,-0,-9,0.82,,84,10091,53,26,88,0.5,82.6,647,4.87,12.9,34.5,1,39.9,6.21,28.3,0,0,1,1,0,844,8195,-3335,826,,,,,,,,,,,,,,,,
530743,1622987396901,5,1,48,39,19,28,-3,0.42,-0.66,-0.34,-18,-0,-8,0.78,0,84,10053,45,26,87,0.5,83.4,657,4.9,12.9,34.0,1,39.8,6.05,28.2,0,0,1,1,0,850,8195,-9995,831,45.699909,4.908793,85.32,191.5,7,3,2.8,0,0.0,-1,0.0,,0.0,0,6.07,8.8457
530763,1622987396921,,,,,,,,0.47,-0.77,-0.38,-17,-1,-7,0.9,,84,10010,33,26,83,0.5,83.1,650,4.88,12.8,34.0,1,39.5,5.58,28.2,0,0,1,1,0,857,8195,-1578,836,,,,,,,,,,,,,,,,
530783,1622987396941,,,,,,,,0.44,-0.83,-0.4,-16,-0,-8,0.94,,84,9925,20,26,76,0.5,83.6,643,4.9,12.9,34.0,1,39.9,4.83,28.2,0,0,1,1,0,857,8195,-11532,835,,,,,,,,,,,,,,,,
530803,1622987396961,,,,,,,,0.49,-0.86,-0.53,-16,1,-5,0.99,,84,9760,6,26,66,0.5,83.5,637,4.94,12.9,34.0,1,40.8,3.76,28.2,0,0,1,1,0,859,8195,-2426,840,,,,,,,,,,,,,,,,
530823,1622987396981,,,,,,,,0.35,-0.69,-0.32,-15,0,-4,0.78,,84,9620,4,26,57,0.5,84.0,651,4.76,12.9,34.0,1,40.5,3.46,28.2,0,0,1,1,0,858,8195,-2830,838,,,,,,,,,,,,,,,,
530843,1622987397001,16,5,44,39,24,27,-3,0.23,-0.69,-0.44,-14,1,-3,0.73,0,84,9493,4,26,49,0.5,82.8,639,4.93,12.9,18.1,1,38.5,3.2,15.3,0,0,1,1,0,847,8195,13049,832,45.699909,4.908793,85.32,191.5,7,3,2.8,0,0.0,-1,0.0,0.0,0.0,0,6.08,8.8474
530863,1622987397008,,,,,,,,0.23,-0.7,-0.51,-13,1,-3,0.74,,83,9407,4,26,44,0.5,84.0,640,5.01,12.9,18.1,1,35.6,2.89,15.3,0,0,1,1,0,838,8195,-22795,840,,,,,,,,,,,,,,,,
530883,1622987397028,,,,,,,,0.21,-0.64,-0.44,-13,0,-2,0.68,,83,9282,4,26,39,0.5,82.9,645,4.86,12.9,18.1,1,32.0,2.82,15.3,0,0,1,1,0,831,8195,6790,820,,,,,,,,,,,,,,,,
530903,1622987397048,,,,,,,,0.17,-0.66,-0.38,-12,-0,-3,0.69,,83,9040,4,26,36,0.5,83.0,641,4.74,12.9,18.1,1,31.1,2.64,15.3,0,0,1,1,0,823,8195,-31066,815,,,,,,,,,,,,,,,,
530923,1622987397068,,,,,,,,0.12,-0.64,-0.51,-12,1,-2,0.65,,83,8798,4,26,34,0.5,80.5,635,4.95,13.0,18.1,1,30.5,2.55,15.3,0,0,1,1,0,819,8195,-2826,793,,,,,,,,,,,,,,,,
530943,1622987397100,31,16,34,27,29,31,-1,-0.02,-0.59,-0.48,-11,3,-2,0.59,0,83,8581,4,26,32,0.5,81.3,630,4.92,12.9,12.7,1,30.0,2.47,10.1,0,0,1,1,0,809,8195,-25858,813,45.699944,4.908831,87.36,191.5,7,3,2.3,0,0.0,-1,0.0,,0.0,0,6.08,8.849
530963,1622987397120,,,,,,,,-0.07,-0.58,-0.46,-11,2,-2,0.59,,83,8495,4,26,31,0.5,79.4,632,4.92,12.9,12.7,1,29.4,2.46,10.1,0,0,1,1,0,786,8195,3544,792,,,,,,,,,,,,,,,,
530983,1622987397140,,,,,,,,-0.09,-0.55,-0.59,-10,3,-0,0.55,,83,8522,4,26,30,0.5,79.6,628,4.93,13.0,12.7,1,29.1,2.47,10.1,0,0,1,1,0,781,-1281,7413,796,,,,,,,,,,,,,,,,
531003,1622987397160,,,,,,,,-0.17,-0.61,-0.71,-10,4,0,0.64,,83,8499,4,26,30,0.5,78.2,628,4.95,13.0,12.7,1,29.0,2.46,10.1,0,0,1,1,0,757,-1,-4096,782,,,,,,,,,,,,,,,,
531023,1622987397180,,,,,,,,-0.27,-0.48,-0.58,-10,2,-1,0.54,,83,8465,4,26,28,0.5,78.6,618,4.92,13.0,12.7,1,28.2,2.44,10.1,0,0,1,1,0,750,-1,-10218,790,,,,,,,,,,,,,,,,
531043,1622987397202,30,17,26,21,34,35,-2,-0.31,-0.53,-0.68,-10,2,-1,0.61,0,83,8453,4,26,28,0.5,78.8,608,4.91,13.0,12.0,1,28.2,2.43,9.5,0,0,1,1,0,758,-1,-23308,769,45.699959,4.908851,85.28,191.5,7,3,2.3,0,0.0,-1,0.0,0.0,0.0,0,6.08,8.8507
531063,1622987397222,,,,,,,,-0.45,-0.52,-0.5,-11,3,-3,0.69,,83,8438,4,26,27,0.5,77.9,611,4.93,13.0,12.0,1,27.8,2.42,9.5,0,0,1,1,0,738,-1,-4096,779,,,,,,,,,,,,,,,,
531083,1622987397242,,,,,,,,-0.46,-0.47,-0.63,-10,3,-1,0.65,,83,8389,4,26,26,0.5,77.2,618,4.92,13.0,12.0,1,27.3,1.24,9.5,0,0,1,1,0,718,16899,-3450,769,,,,,,,,,,,,,,,,
531103,1622987397262,,,,,,,,-0.52,-0.51,-0.74,-10,5,-0,0.73,,83,8363,4,25,26,0.5,76.2,616,4.96,12.9,12.0,1,27.3,2.37,9.5,0,0,1,1,0,717,16899,-30694,754,,,,,,,,,,,,,,,,
531123,1622987397282,,,,,,,,-0.51,-0.4,-0.66,-10,4,-0,0.65,,83,8337,4,25,25,0.5,74.9,621,4.93,13.0,12.0,1,27.0,2.35,9.5,0,0,1,1,0,717,16899,-2314,749,,,,,,,,,,,,,,,,
531143,1622987397302,30,17,24,19,35,38,3,-0.58,-0.46,-0.74,-10,4,0,0.74,0,83,8241,4,25,25,0.5,74.1,605,4.87,13.0,11.6,1,27.0,2.28,8.9,0,0,1,1,0,712,-1,-3580,741,45.699974,4.90887,82.2,191.5,7,3,2.3,0,0.0,-1,0.0,,0.0,0,6.08,8.8524
531163,1622987397322,,,,,,,,-0.56,-0.37,-0.65,-9,3,-1,0.67,,83,8194,4,25,25,0.5,74.3,607,4.93,13.0,11.6,1,27.0,2.24,8.9,0,0,1,1,0,719,-1,-25858,743,,,,,,,,,,,,,,,,
531183,1622987397342,,,,,,,,-0.64,-0.36,-0.67,-8,3,-2,0.73,,83,8155,4,25,25,0.5,72.6,606,4.94,12.9,11.6,1,27.0,2.22,8.9,0,0,1,1,0,717,-1,-2830,726,,,,,,,,,,,,,,,,
531203,1622987397362,,,,,,,,-0.67,-0.27,-0.76,-7,3,-1,0.72,,83,8113,4,25,25,0.5,72.1,598,4.94,13.0,11.6,1,27.0,2.19,8.9,0,0,1,1,0,704,-1,-23490,718,,,,,,,,,,,,,,,,
531223,1622987397382,,,,,,,,-0.72,-0.21,-0.61,-6,1,-3,0.75,,83,8081,4,25,25,0.5,71.1,588,4.9,12.9,11.6,1,27.0,2.16,8.9,0,0,1,1,0,707,5442,-20693,711,,,,,,,,,,,,,,,,
531243,1622987397402,31,17,20,22,36,36,5,-0.77,-0.25,-0.73,-5,3,-2,0.81,0,83,8033,4,25,25,0.5,69.9,575,4.96,13.1,11.4,1,27.0,2.13,8.0,0,0,1,1,0,707,5442,19188,699,45.699989,4.908889,78.61,191.5,7,3,2.3,0,0.0,-1,0.0,0.0,0.0,0,6.08,8.854
531263,1622987397422,,,,,,,,-0.75,-0.2,-0.83,-3,4,-1,0.77,,83,7965,4,25,24,0.5,69.8,560,4.93,13.1,11.4,1,26.9,2.06,8.0,0,0,1,1,0,691,5442,-26892,696,,,,,,,,,,,,,,,,
531283,1622987397442,,,,,,,,-0.74,-0.13,-0.79,-2,3,-0,0.75,,83,7845,4,25,24,0.5,69.0,552,4.92,12.9,11.4,1,26.8,2.06,8.0,0,0,1,1,0,674,5442,8958,687,,,,,,,,,,,,,,,,
531303,1622987397462,,,,,,,,-0.76,-0.1,-0.71,-1,2,-1,0.77,,83,7716,7,25,24,0.5,68.7,558,4.87,13.0,11.4,1,26.7,2.06,8.0,0,0,1,1,0,666,5442,31988,687,,,,,,,,,,,,,,,,
531323,1622987397482,,,,,,,,-0.79,-0.05,-0.49,0,1,-2,0.79,,83,7572,16,25,27,0.5,67.3,551,4.91,12.9,11.4,1,27.2,2.25,8.0,0,0,1,1,0,690,5442,-3488,677,,,,,,,,,,,,,,,,
531343,1622987397502,29,16,18,21,37,35,2,-0.77,-0.05,-0.51,1,0,-2,0.77,0,83,7524,30,25,34,0.5,67.2,560,4.89,12.9,11.7,1,29.5,2.24,7.8,0,0,1,1,0,676,5442,-10344,672,45.700008,4.908907,75.46,191.4,7,3,2.3,0,0.0,-1,0.0,,0.0,0,6.09,8.8557
531363,1622987397522,,,,,,,,-0.79,-0.08,-0.45,1,-1,-3,0.79,,83,7560,41,25,48,0.5,66.0,554,4.88,13.1,11.7,1,35.3,2.56,7.8,0,0,1,1,0,667,5442,-3038,673,,,,,,,,,,,,,,,,
531383,1622987397542,,,,,,,,-0.81,-0.17,-0.43,1,-1,-4,0.83,,83,7802,46,25,61,0.5,65.6,563,4.95,13.1,11.7,1,37.9,2.8,7.8,0,0,1,1,0,667,5442,-3488,656,,,,,,,,,,,,,,,,
531403,1622987397562,,,,,,,,-0.85,-0.22,-0.55,1,-1,-4,0.88,,83,7656,46,25,73,0.5,66.1,570,4.97,13.1,11.7,1,39.9,4.4,7.8,0,0,1,1,0,664,5442,-2830,654,,,,,,,,,,,,,,,,
531423,1622987397582,,,,,,,,-0.88,-0.25,-0.48,1,-2,-5,0.91,,83,7494,46,25,82,0.5,65.7,547,4.96,13.1,11.7,1,40.7,4.94,7.8,0,0,1,1,0,656,5442,-3488,657,,,,,,,,,,,,,,,,
531443,1622987397602,27,14,18,18,36,34,-5,-0.9,-0.32,-0.39,0,-2,-4,0.95,0,83,7373,46,25,89,0.5,64.7,538,4.95,12.9,26.2,1,44.3,5.13,17.3,0,0,1,1,0,647,5442,-6006,647,45.70002,4.908925,72.12,191.4,7,3,2.3,0,0.0,-1,0.0,0.0,0.0,0,6.09,8.8574
531463,1622987397622,,,,,,,,-0.91,-0.35,-0.35,-1,-1,-6,0.98,,83,7344,44,25,92,0.5,64.8,536,4.93,13.1,26.2,1,45.2,5.23,17.3,0,0,1,1,0,640,5442,11776,638,,,,,,,,,,,,,,,,
531483,1622987397642,,,,,,,,-0.87,-0.31,-0.15,-2,-3,-7,0.92,,83,7364,37,25,92,0.5,64.2,528,4.86,12.9,26.2,1,44.9,5.18,17.3,0,0,1,1,0,620,5442,-2836,642,,,,,,,,,,,,,,,,
531503,1622987397662,,,,,,,,-0.85,-0.32,-0.3,-3,-1,-6,0.91,,83,7301,25,25,89,0.5,63.9,537,4.9,12.8,26.2,1,45.3,4.84,17.3,0,0,1,1,0,624,5442,-2836,639,,,,,,,,,,,,,,,,
531523,1622987397682,,,,,,,,-0.93,-0.2,-0.27,-4,-0,-6,0.95,,83,7425,17,25,84,0.5,63.6,528,4.89,12.8,26.2,1,41.7,4.28,17.3,0,0,1,1,0,620,5442,-5120,628,,,,,,,,,,,,,,,,
531543,1622987397702,23,13,23,17,35,37,-6,-0.97,-0.21,-0.35,-5,-1,-7,1.0,0,83,7709,7,25,77,0.5,62.9,540,4.9,12.7,22.9,1,40.0,4.12,14.5,0,0,1,1,0,609,5442,-16046,627,45.700031,4.908942,68.78,191.4,7,3,2.3,0,0.0,-1,0.0,,0.0,0,6.09,8.859
531563,1622987397722,,,,,,,,-1.06,-0.19,-0.16,-7,1,-7,1.08,,83,8127,4,25,70,0.5,61.8,561,4.87,13.0,22.9,1,39.5,3.72,14.5,0,0,1,1,0,607,5442,-1346,618,,,,,,,,,,,,,,,,
531583,1622987397742,,,,,,,,-1.09,-0.32,-0.31,-8,3,-4,1.14,,83,8652,4,25,61,0.5,62.7,565,4.98,13.0,22.9,1,43.1,3.31,14.5,0,0,1,1,0,596,5442,26688,627,,,,,,,,,,,,,,,,
531603,1622987397762,,,,,,,,-1.03,-0.4,-0.22,-9,2,-3,1.1,,83,9231,4,25,53,0.5,60.9,598,4.91,13.0,22.9,1,39.6,3.37,14.5,0,0,1,1,0,577,5442,17344,609,,,,,,,,,,,,,,,,
531623,1622987397782,,,,,,,,-1.07,-0.26,-0.28,-9,2,-5,1.1,,83,9704,8,25,47,0.5,60.3,633,4.96,13.0,22.9,1,38.0,3.11,14.5,0,0,1,1,0,579,5442,-16179,603,,,,,,,,,,,,,,,,
531643,1622987397803,22,11,24,17,35,38,-2,-1.02,-0.39,-0.42,-10,4,-3,1.09,0,83,9978,11,25,43,0.5,59.6,658,4.83,12.9,23.1,1,35.0,3.0,14.1,0,0,1,1,0,575,5442,-768,596,45.700047,4.908958,65.75,191.4,7,3,2.3,0,0.0,-1,0.0,0.0,0.0,0,6.09,8.8607
531663,1622987397823,,,,,,,,-0.97,-0.33,-0.42,-10,2,-3,1.02,,83,10059,11,25,40,0.5,59.8,653,4.96,12.9,23.1,1,32.7,2.87,14.1,0,0,1,1,0,576,5442,-768,598,,,,,,,,,,,,,,,,
531683,1622987397843,,,,,,,,-0.97,-0.33,-0.55,-10,3,-4,1.03,,83,9957,11,25,38,0.5,58.7,652,4.87,12.9,23.1,1,31.7,2.8,14.1,0,0,1,1,0,584,-1,4956,593,,,,,,,,,,,,,,,,
531703,1622987397863,,,,,,,,-0.9,-0.41,-0.67,-10,4,-2,0.99,,83,9780,11,25,36,0.5,58.7,664,4.9,12.9,23.1,1,31.1,2.74,14.1,0,0,1,1,0,579,-1,-4035,589,,,,,,,,,,,,,,,,
531723,1622987397883,,,,,,,,-0.89,-0.29,-0.45,-10,3,-3,0.93,,83,9522,11,25,36,0.5,58.1,641,4.94,13.0,23.1,1,31.1,2.71,14.1,0,0,1,1,0,582,-1,-12040,583,,,,,,,,,,,,,,,,
531743,1622987397902,23,10,24,19,34,37,2,-0.89,-0.32,-0.52,-10,2,-3,0.94,0,83,9241,10,25,35,0.5,57.4,637,4.9,13.0,20.0,1,30.8,2.63,11.7,0,0,1,1,0,581,-32248,-16384,574,45.700058,4.908974,63.21,191.5,7,3,2.3,0,0.0,-1,0.0,,0.0,0,6.09,8.8624
531763,1622987397922,,,,,,,,-0.88,-0.24,-0.42,-9,1,-2,0.91,,83,8945,9,25,34,0.5,57.1,631,4.83,12.9,20.0,1,30.5,2.55,11.7,0,0,1,1,0,578,-22263,1760,571,,,,,,,,,,,,,,,,
531783,1622987397942,,,,,,,,-0.86,-0.2,-0.22,-8,0,-3,0.88,,83,8688,9,25,34,0.5,57.0,632,4.96,13.0,20.0,1,30.5,2.55,11.7,0,0,1,1,0,572,-23623,-29984,565,,,,,,,,,,,,,,,,
531803,1622987397962,,,,,,,,-0.8,-0.23,-0.35,-7,0,-3,0.83,,83,8442,8,25,33,0.5,56.8,622,4.92,13.0,20.0,1,30.0,2.45,11.7,0,0,1,1,0,565,250,-30159,568,,,,,,,,,,,,,,,,
531823,1622987397982,,,,,,,,-0.79,-0.16,-0.4,-6,0,-2,0.8,,83,8245,8,25,33,0.5,55.9,600,4.91,13.0,20.0,1,29.6,2.2,11.7,0,0,1,1,0,563,630,6273,559,,,,,,,,,,,,,,,,
531843,1622987398002,20,10,23,22,35,35,4,-0.84,-0.18,-0.42,-5,-1,-3,0.86,0,83,8009,8,25,32,0.5,102.6,592,4.92,12.9,14.8,1,29.0,1.96,8.2,0,0,1,1,0,557,1037,2524,545,45.700058,4.908974,63.21,191.5,7,3,2.3,0,0.0,-1,0.0,0.0,0.0,0,6.1,8.864
531863,1622987398008,,,,,,,,-0.86,-0.22,-0.55,-5,-0,-2,0.89,,83,7835,7,25,32,0.5,55.0,579,4.95,13.0,14.8,1,29.0,1.96,8.2,0,0,1,1,0,551,250,2524,550,,,,,,,,,,,,,,,,
531883,1622987398028,,,,,,,,-0.84,-0.21,-0.67,-4,-0,-2,0.86,,83,7832,6,25,31,0.5,55.0,582,4.93,13.0,14.8,1,28.6,1.99,8.2,0,0,1,1,0,539,-32248,6274,540,,,,,,,,,,,,,,,,
531903,1622987398048,,,,,,,,-0.82,-0.14,-0.49,-3,-0,-2,0.84,,83,7861,5,25,30,0.5,55.0,575,4.97,13.0,14.8,1,28.3,2.01,8.2,0,0,1,1,0,539,-32248,2088,539,,,,,,,,,,,,,,,,
531923,1622987398068,,,,,,,,-0.86,-0.14,-0.55,-2,0,-2,0.87,,83,7841,5,25,29,0.5,55.0,584,4.91,13.0,14.8,1,28.0,2.03,8.2,0,0,1,1,0,513,-32248,-3482,535,,,,,,,,,,,,,,,,
531943,1622987398097,25,12,21,22,37,34,4,-0.9,-0.21,-0.67,-2,-0,-3,0.93,0,83,7861,5,25,28,0.5,55.0,576,4.93,13.1,13.9,1,27.7,2.05,7.4,0,0,1,1,0,518,-32248,-21872,520,45.700081,4.909006,60.67,191.5,7,3,2.3,0,0.0,-1,0.0,,0.0,0,6.1,8.8657
531963,1622987398117,,,,,,,,-0.85,-0.14,-0.64,-1,-1,-2,0.86,,83,7851,5,25,27,0.5,51.8,581,4.9,13.1,13.9,1,27.4,2.07,7.4,0,0,1,1,0,497,5442,3,518,,,,,,,,,,,,,,,,
531983,1622987398137,,,,,,,,-0.84,-0.05,-0.51,-1,-0,-2,0.84,,83,7851,5,25,27,0.5,50.8,584,4.98,13.0,13.9,1,27.4,2.07,7.4,0,0,1,1,0,507,5442,10408,508,,,,,,,,,,,,,,,,
532003,1622987398157,,,,,,,,-0.87,-0.08,-0.3,-0,-1,-2,0.88,,83,7841,5,25,26,0.5,50.7,576,4.93,13.0,13.9,1,27.1,2.09,7.4,0,0,1,1,0,496,5442,-1562,507,,,,,,,,,,,,,,,,
532023,1622987398177,,,,,,,,-0.91,-0.18,-0.39,-0,-1,-2,0.93,,83,7773,5,25,26,0.5,50.0,580,4.92,13.1,13.9,1,27.0,2.09,7.4,0,0,1,1,0,496,5442,-32768,495,,,,,,,,,,,,,,,,
532043,1622987398203,23,13,20,19,38,35,-0,-0.92,-0.19,-0.52,-0,-0,-2,0.94,0,83,7725,5,25,25,0.5,49.4,566,4.92,13.1,15.3,1,26.7,2.11,7.6,0,0,1,1,0,485,-1,10305,496,45.700088,4.90902,56.36,191.6,7,3,2.3,0,0.0,-1,0.0,0.0,0.0,0,6.1,8.8674
532063,1622987398223,,,,,,,,-0.93,-0.17,-0.65,-1,0,-2,0.94,,83,7643,5,25,25,0.5,49.4,563,4.89,13.0,15.3,1,26.6,2.11,7.6,0,0,1,1,0,474,-1,2212,485,,,,,,,,,,,,,,,,
532083,1622987398243,,,,,,,,-0.96,-0.18,-0.76,-1,1,-2,0.98,,83,7545,5,25,25,0.5,48.7,550,4.91,13.1,15.3,1,26.5,2.11,7.6,0,0,1,1,0,475,-1,32033,488,,,,,,,,,,,,,,,,
532103,1622987398263,,,,,,,,-0.94,-0.19,-0.86,-1,1,-2,0.96,,83,7449,4,25,24,0.5,48.2,535,4.96,13.0,15.3,1,26.4,2.06,7.6,0,0,1,1,0,473,-1,2212,480,,,,,,,,,,,,,,,,
532123,1622987398283,,,,,,,,-0.98,-0.24,-0.89,-1,0,-3,1.01,,83,7355,4,25,24,0.5,47.9,538,4.96,13.0,15.3,1,26.3,2.06,7.6,0,0,1,1,0,470,-1,243,482,,,,,,,,,,,,,,,,
532143,1622987398299,16,9,20,20,37,35,-1,-0.99,-0.25,-0.77,-1,-1,-4,1.03,0,83,7270,4,25,24,0.5,47.3,538,4.91,13.0,14.5,1,26.2,2.06,7.0,0,0,1,1,0,465,-1,-16384,474,45.7001,4.909034,53.27,191.6,7,3,2.3,0,0.0,-1,0.0,,0.0,0,6.1,8.869
532163,1622987398319,,,,,,,,-0.96,-0.18,-0.56,-2,-1,-4,0.98,,83,7244,4,25,23,0.5,47.2,536,4.85,12.9,14.5,1,26.2,2.06,7.0,0,0,1,1,0,459,-1,12552,472,,,,,,,,,,,,,,,,
532183,1622987398339,,,,,,,,-0.89,-0.07,-0.6,-1,-1,-2,0.9,,83,7256,4,25,23,0.5,46.0,540,4.92,12.9,14.5,1,26.2,2.06,7.0,0,0,1,1,0,455,-1,15649,460,,,,,,,,,,,,,,,,
532203,1622987398359,,,,,,,,-0.85,0.05,-0.72,-1,-0,-2,0.85,,83,7247,4,25,23,0.5,45.9,541,4.95,13.0,14.5,1,26.2,2.02,7.0,0,0,1,1,0,449,-1,2524,459,,,,,,,,,,,,,,,,
532223,1622987398379,,,,,,,,-0.89,0.02,-0.83,-2,0,-1,0.89,,83,7192,4,25,23,0.5,45.6,534,4.97,13.0,14.5,1,26.1,2.02,7.0,0,0,1,1,0,449,-1,15649,455,,,,,,,,,,,,,,,,
532243,1622987398401,20,10,20,21,35,35,0,-0.9,-0.04,-0.59,-2,-0,-3,0.9,0,83,7096,4,25,23,0.5,44.8,531,4.86,13.1,14.7,1,26.0,2.02,6.7,0,0,1,1,0,446,-1,21432,452,45.700108,4.909048,52.27,191.7,7,3,2.3,0,0.0,-1,0.0,0.0,0.0,0,6.1,8.8707
532263,1622987398421,,,,,,,,-0.86,0.03,-0.58,-1,1,-0,0.86,,83,6996,4,25,23,0.5,44.1,530,4.89,13.0,14.7,1,26.0,2.01,6.7,0,0,1,1,0,442,-1,23400,441,,,,,,,,,,,,,,,,
532283,1622987398441,,,,,,,,-0.89,-0.02,-0.7,-1,0,-2,0.89,,83,6911,4,25,23,0.5,43.7,520,4.94,13.0,14.7,1,26.0,2.01,6.7,0,0,1,1,0,436,-1,-768,439,,,,,,,,,,,,,,,,
532303,1622987398461,,,,,,,,-0.82,-0.06,-0.47,-1,2,-0,0.82,,83,6800,4,25,23,0.5,43.2,509,4.91,13.1,14.7,1,26.1,2.01,6.7,0,0,1,1,0,434,-1,-3314,432,,,,,,,,,,,,,,,,
532323,1622987398481,,,,,,,,-0.85,-0.03,-0.6,-1,-0,-2,0.85,,83,6703,4,25,23,0.5,43.0,493,4.92,13.0,14.7,1,26.1,2.01,6.7,0,0,1,1,0,427,-1,13552,430,,,,,,,,,,,,,,,,
532343,1622987398501,18,10,20,21,36,34,5,-0.8,0.06,-0.59,-0,2,1,0.8,0,83,6623,4,25,23,0.5,42.1,494,4.93,13.0,14.1,1,26.2,2.0,6.1,0,0,1,1,0,422,-1,3826,421,45.700119,4.90906,48.43,191.8,7,3,2.3,0,0.0,-1,0.0,,0.0,0,6.1,8.8724
532363,1622987398521,,,,,,,,-0.77,-0.03,-0.38,-0,-1,-2,0.77,,83,6588,4,25,23,0.5,42.2,492,4.95,13.1,14.1,1,26.2,2.0,6.1,0,0,1,1,0,415,-1,-4059,423,,,,,,,,,,,,,,,,
532383,1622987398541,,,,,,,,-0.83,0.03,-0.51,0,1,-1,0.83,,83,6553,4,25,23,0.5,41.5,496,4.92,12.9,14.1,1,26.2,2.0,6.1,0,0,1,1,0,415,-1281,2524,415,,,,,,,,,,,,,,,,
532403,1622987398561,,,,,,,,-0.74,0.1,-0.32,1,1,1,0.75,,83,6517,4,25,23,0.5,41.1,498,4.9,13.0,14.1,1,26.2,2.0,6.1,0,0,1,1,0,406,-1281,-9211,411,,,,,,,,,,,,,,,,
532423,1622987398581,,,,,,,,-0.68,0.04,-0.13,1,-3,-1,0.68,,83,6472,4,25,23,0.5,40.7,491,5.0,13.1,14.1,1,26.3,2.0,6.1,0,0,1,1,0,406,-1281,-8151,407,,,,,,,,,,,,,,,,
532443,1622987398601,9,5,20,24,36,33,13,-0.72,0.07,-0.28,2,-3,-1,0.72,0,83,6412,4,25,23,0.5,40.2,491,4.92,12.9,14.5,1,26.3,2.0,5.9,0,0,1,1,0,408,-3856,6512,402,45.700127,4.909073,46.36,191.7,7,3,2.3,0,0.0,-1,0.0,0.0,0.0,0,6.11,8.8741
532463,1622987398621,,,,,,,,-0.73,0.2,-0.43,3,0,2,0.76,,83,6373,4,25,23,0.5,42.5,488,4.9,12.8,14.5,1,26.3,1.99,5.9,0,0,1,1,0,407,-3856,-32702,399,,,,,,,,,,,,,,,,
532483,1622987398641,,,,,,,,-0.64,0.23,-0.22,4,1,4,0.68,,83,6332,4,25,23,0.5,42.5,480,4.93,13.1,14.5,1,26.3,1.99,5.9,0,0,1,1,0,403,-3856,-32702,396,,,,,,,,,,,,,,,,
532503,1622987398661,,,,,,,,-0.57,0.24,-0.04,6,-2,1,0.62,,83,6281,4,25,24,0.5,40.4,476,4.98,13.1,14.5,1,26.6,2.05,5.9,0,0,1,1,0,403,10541,-3866,391,,,,,,,,,,,,,,,,
532523,1622987398681,,,,,,,,-0.54,0.24,0.13,7,-6,-1,0.59,,83,6188,4,25,24,0.5,38.3,473,4.91,13.0,14.5,1,26.6,2.05,5.9,0,0,1,1,0,400,-1,8200,383,,,,,,,,,,,,,,,,
532543,1622987398703,10,6,20,27,38,31,20,-0.53,0.19,0.14,8,-9,-4,0.56,0,83,6075,4,25,24,0.5,40.2,473,4.94,13.0,14.9,1,26.7,2.05,5.8,0,0,1,1,0,397,10541,-6656,382,45.700134,4.909085,44.28,191.8,7,3,2.3,0,0.0,-1,0.0,,0.0,0,6.11,8.8757
532563,1622987398723,,,,,,,,-0.53,0.2,0.12,10,-12,-6,0.56,,83,6030,4,25,25,0.5,38.1,465,4.91,13.0,14.9,1,27.0,2.11,5.8,0,0,1,1,0,397,250,-6656,373,,,,,,,,,,,,,,,,
532583,1622987398743,,,,,,,,-0.54,0.22,-0.05,11,-13,-8,0.58,,83,6030,4,25,25,0.5,39.3,452,4.89,13.1,14.9,1,27.0,2.11,5.8,0,0,1,1,0,390,1,486,371,,,,,,,,,,,,,,,,
532603,1622987398763,,,,,,,,-0.55,0.23,-0.21,12,-15,-9,0.59,,83,6042,4,25,25,0.5,37.0,452,4.91,13.0,14.9,1,27.0,2.09,5.8,0,0,1,1,0,387,-1481,2060,370,,,,,,,,,,,,,,,,
532623,1622987398783,,,,,,,,-0.55,0.25,-0.36,13,-17,-11,0.61,,83,5980,4,25,26,0.5,38.9,454,4.94,13.0,14.9,1,27.1,2.09,5.8,0,0,1,1,0,386,-6524,-29978,364,,,,,,,,,,,,,,,,
532643,1622987398799,11,7,20,29,39,31,26,-0.52,0.27,-0.19,14,-19,-13,0.59,0,83,5916,4,25,27,0.5,38.8,453,4.96,13.0,15.6,1,27.0,2.1,5.7,0,0,1,1,0,386,-31744,-29978,364,45.700142,4.909096,42.32,191.8,7,3,2.3,0,0.0,-1,0.0,0.0,0.0,0,6.11,8.8774
532663,1622987398819,,,,,,,,-0.45,0.33,-0.01,16,-22,-14,0.56,,83,5828,4,25,27,0.5,38.4,443,4.94,13.0,15.6,1,26.7,2.08,5.7,0,0,1,1,0,384,-6475,-6644,363,,,,,,,,,,,,,,,,
532683,1622987398839,,,,,,,,-0.39,0.3,0.16,17,-20,-12,0.49,,83,5753,4,25,27,0.5,38.1,431,4.92,13.1,15.6,1,26.4,2.08,5.7,0,0,1,1,0,380,-19126,4104,353,,,,,,,,,,,,,,,,
532703,1622987398859,,,,,,,,-0.45,0.37,-0.02,19,-14,-9,0.58,,83,5702,4,25,28,0.5,37.7,426,4.97,13.1,15.6,1,26.4,2.07,5.7,0,0,1,1,0,377,-6656,-14714,349,,,,,,,,,,,,,,,,
532723,1622987398879,,,,,,,,-0.52,0.42,-0.19,21,-11,-7,0.67,,83,5662,4,25,28,0.5,37.7,428,4.9,12.9,15.6,1,26.3,2.08,5.7,0,0,1,1,0,374,-6656,-22016,342,,,,,,,,,,,,,,,,
532743,1622987398903,12,7,18,31,40,30,41,-0.44,0.47,-0.0,23,-15,-10,0.65,0,83,5567,4,25,29,0.5,37.7,422,4.86,12.9,15.7,1,26.2,2.07,5.4,0,0,1,1,0,371,-6656,170,338,45.70015,4.909106,40.45,191.8,7,3,2.3,0,0.0,-1,0.0,,0.0,0,6.11,8.8791
532763,1622987398923,,,,,,,,-0.43,0.53,0.16,25,-11,-6,0.68,,83,5482,4,25,29,0.5,37.7,411,4.97,13.1,15.7,1,25.9,2.07,5.4,0,0,1,1,0,372,-6656,150,337,,,,,,,,,,,,,,,,
532783,1622987398943,,,,,,,,-0.48,0.56,-0.02,27,-10,-6,0.74,,83,5377,4,25,30,0.5,37.7,415,4.91,12.9,15.7,1,25.8,2.08,5.4,0,0,1,1,0,371,-6656,130,327,,,,,,,,,,,,,,,,
532803,1622987398963,,,,,,,,-0.39,0.61,0.15,29,-12,-8,0.72,,83,5308,4,25,30,0.5,37.7,407,4.91,13.0,15.7,1,25.5,2.09,5.4,0,0,1,1,0,367,-6656,105,331,,,,,,,,,,,,,,,,
532823,1622987398983,,,,,,,,-0.44,0.6,-0.03,30,-9,-4,0.74,,83,5233,4,25,31,0.5,37.7,394,4.92,13.0,15.7,1,25.6,2.09,5.4,0,0,1,1,0,365,-6656,0,327,,,,,,,,,,,,,,,,
532843,1622987399003,5,3,18,32,41,30,42,-0.44,0.66,0.14,32,-9,-5,0.8,0,83,5165,5,25,32,0.5,37.7,390,4.92,13.1,15.2,1,25.7,2.09,5.0,0,0,1,1,0,364,-6656,630,325,45.70015,4.909106,40.45,191.8,7,3,2.3,0,0.0,-1,0.0,0.0,0.0,0,6.11,8.8807
532863,1622987399008,,,,,,,,-0.4,0.67,-0.04,33,-9,-5,0.78,,83,5049,5,25,32,0.5,37.7,389,4.92,12.9,15.2,1,25.3,2.11,5.0,0,0,1,1,0,361,-6656,250,324,,,,,,,,,,,,,,,,
532883,1622987399028,,,,,,,,-0.42,0.64,-0.2,35,-6,-3,0.76,,83,4974,6,25,33,0.5,37.7,374,4.93,13.1,15.2,1,25.2,2.18,5.0,0,0,1,1,0,358,-6656,-16896,325,,,,,,,,,,,,,,,,
532903,1622987399048,,,,,,,,-0.42,0.75,-0.02,36,-7,-4,0.86,,83,4959,6,25,34,0.5,37.7,371,4.91,13.1,15.2,1,25.4,2.25,5.0,0,0,1,1,0,353,-6656,95,325,,,,,,,,,,,,,,,,
532923,1622987399068,,,,,,,,-0.41,0.71,-0.18,37,-8,-4,0.82,,83,5045,6,25,35,0.5,32.0,379,4.92,13.0,15.2,1,26.2,2.33,5.0,0,0,1,1,0,348,5408,80,321,,,,,,,,,,,,,,,,
532943,1622987399100,1,2,19,31,41,30,45,-0.46,0.72,-0.33,38,-4,-1,0.85,0,83,5106,7,25,35,0.5,43.9,374,4.98,13.1,16.8,1,26.4,2.32,5.4,0,0,1,1,0,346,-28332,20480,314,45.700165,4.909123,36.43,191.8,7,3,2.3,0,0.0,-1,0.0,,0.0,0,6.11,8.8824
532963,1622987399120,,,,,,,,-0.41,0.71,-0.14,39,-8,-4,0.82,,83,5120,7,25,36,0.5,43.9,381,4.91,13.0,16.8,1,26.7,2.39,5.4,0,0,1,1,0,346,-28332,0,314,,,,,,,,,,,,,,,,
532983,1622987399140,,,,,,,,-0.4,0.74,-0.29,40,-4,-2,0.85,,83,5086,7,25,37,0.5,43.9,391,4.94,13.0,16.8,1,26.9,2.47,5.4,0,0,1,1,0,349,-28332,25600,312,,,,,,,,,,,,,,,,
533003,1622987399160,,,,,,,,-0.45,0.81,-0.1,41,-4,-2,0.92,,83,5028,7,25,38,0.5,31.4,376,4.93,13.1,16.8,1,27.0,2.57,5.4,0,0,1,1,0,345,-1,100,314,,,,,,,,,,,,,,,,
533023,1622987399180,,,,,,,,-0.42,0.8,0.07,42,-6,-4,0.9,,83,4985,7,25,38,0.5,60.3,374,4.92,12.9,16.8,1,26.8,2.56,5.4,0,0,1,1,0,344,-7939,23040,309,,,,,,,,,,,,,,,,
533043,1622987399202,4,1,19,32,41,29,49,-0.41,0.77,-0.1,43,-3,-2,0.87,0,83,4973,7,25,39,0.5,60.3,375,4.96,13.1,20.1,1,27.0,2.63,6.1,0,0,1,1,0,340,-7939,1886,305,45.700172,4.90913,35.28,191.8,7,3,2.3,0,0.0,-1,0.0,0.0,0.0,0,6.11,8.8841
533063,1622987399222,,,,,,,,-0.43,0.79,0.08,44,-2,-1,0.9,,83,4959,7,25,40,0.5,30.4,370,4.93,13.1,20.1,1,27.1,2.65,6.1,0,0,1,1,0,337,-1,0,300,,,,,,,,,,,,,,,,
533083,1622987399242,,,,,,,,-0.39,0.84,0.24,44,-5,-4,0.92,,83,4970,7,25,40,0.5,30.2,371,4.91,12.9,20.1,1,27.2,2.65,6.1,0,0,1,1,0,334,-1,630,302,,,,,,,,,,,,,,,,
533103,1622987399262,,,,,,,,-0.36,0.76,0.05,45,-5,-3,0.84,,83,4947,7,25,41,0.5,29.8,376,4.96,13.1,20.1,1,27.2,2.66,6.1,0,0,1,1,0,333,-1,250,298,,,,,,,,,,,,,,,,
533123,1622987399282,,,,,,,,-0.37,0.71,-0.12,46,-2,-1,0.8,,83,4900,7,25,41,0.5,33.6,366,4.97,13.1,20.1,1,26.7,2.64,6.1,0,0,1,1,0,332,13,0,295,,,,,,,,,,,,,,,,
533143,1622987399300,4,1,20,36,39,30,34,-0.41,0.74,0.06,46,-2,-3,0.85,0,83,4868,7,25,42,0.5,33.6,367,4.96,13.1,20.0,1,26.6,2.65,5.9,0,0,1,1,0,329,13,41,292,45.70018,4.909135,34.0,192.0,7,3,2.3,0,0.0,-1,0.0,,0.0,0,6.11,8.8857
533163,1622987399320,,,,,,,,-0.36,0.66,0.22,45,-3,-5,0.75,,84,4843,7,25,43,0.5,33.6,369,4.96,13.0,20.0,1,26.6,2.66,5.9,0,0,1,1,0,327,13,41,293,,,,,,,,,,,,,,,,
533183,1622987399340,,,,,,,,-0.31,0.51,0.03,44,-3,-6,0.6,,83,4832,7,25,43,0.5,33.6,361,4.92,13.1,20.0,1,26.4,2.65,5.9,0,0,1,1,0,320,13,0,292,,,,,,,,,,,,,,,,
533203,1622987399360,,,,,,,,-0.31,0.39,-0.14,43,0,-4,0.5,,83,4829,7,25,44,0.5,33.6,362,4.95,13.1,20.0,1,26.7,2.67,5.9,0,0,1,1,0,316,13,20480,294,,,,,,,,,,,,,,,,
533223,1622987399380,,,,,,,,-0.33,0.33,0.04,40,1,-4,0.47,,83,4817,7,25,44,0.5,33.6,361,4.93,13.1,20.0,1,26.6,2.67,5.9,0,0,1,1,0,310,13,85,297,,,,,,,,,,,,,,,,
533243,1622987399401,3,3,23,32,31,36,-12,-0.37,0.24,0.21,37,-1,-6,0.44,0,83,4803,7,25,45,0.5,33.6,356,4.96,13.1,19.8,1,26.6,2.68,5.9,0,0,1,1,0,297,13,25600,297,45.700188,4.909138,32.67,192.0,7,3,2.3,0,0.0,-1,0.0,0.0,0.0,0,6.11,8.8874
533263,1622987399421,,,,,,,,-0.34,0.14,0.32,33,-1,-8,0.37,,83,4745,7,25,45,0.5,33.6,366,4.95,13.0,19.8,1,25.9,2.66,5.9,0,0,1,1,0,298,13,26880,297,,,,,,,,,,,,,,,,
