"Interval"|"ms"|0|0|1,"Utc"|"ms"|0|0|1,"Brake_F"|"Bar"|0|2000|10,"Brake_R"|"Bar"|0|2000|10,"Height_RF"|"mm"|0|255|10,"Height_LF"|"mm"|0|255|10,"Height_LR"|"mm"|0|80|10,"Height_RR"|"mm"|0|255|10,"Steering"|"deg"|-100|100|10,"AccelX"|"G"|-3.0|3.0|50,"AccelY"|"G"|-3.0|3.0|50,"AccelZ"|"G"|-3.0|3.0|50,"Yaw"|"Deg/Sec"|-120|120|50,"Pitch"|"Deg/Sec"|-120|120|50,"Roll"|"Deg/Sec"|-120|120|50,"Gsum"|"G"|0.0|3.0|50,"Log_Button"|""|0.0|10.0|10,"WaterTemp"|"C"|0|150|50,"RPM"|"tr/min"|0|14000|50,"TPS"|"%"|0|100|50,"AirTemp"|"C"|0|150|50,"MAP"|"KPa"|0|100|50,"Lambda"|""|0.5|1.5|50,"SpeedDTA"|"kph"|0.0|250.0|50,"OilPress"|"KPa"|0|1500|50,"FuelPressur"|"Bar"|0.0|10.0|50,"Batterie"|"V"|0.0|20.0|50,"ConsoKm"|"L/100km"|0.0|200.0|50,"Gear"|""|0|6|50,"AdvIgnition"|"Deg"|-20.0|70.0|50,"Injection"|"ms"|0.0|10.0|50,"ConsoHr"|"L/Hr"|0.0|10000.0|50,"LC_But_Pres"|""|0|1|50,"LC_Active"|""|0|1|50,"TractionOn"|""|0|1|50,"TractionWet"|""|0|1|50,"FanOn"|""|0|1|50,"RD_Speed"|"km/h"|-30|250|50,"RUD_Speed"|"km/h"|-30|250|50,"LD_Speed"|"km/h"|-30|250|50,"LUD_Speed"|"km/h"|-30|250|50,"Latitude"|"Degrees"|-180.0|180.0|10,"Longitude"|"Degrees"|-180.0|180.0|10,"Speed"|"kph"|0.0|150.0|10,"Altitude"|"m"|0.0|4000.0|10,"GPSSats"|""|0|20|10,"GPSQual"|""|0|5|10,"GPSDOP"|""|0.0|20.0|10,"LapCount"|""|0|0|10,"LapTime"|"Min"|0.0|0.0|10,"Sector"|""|0|0|10,"SectorTime"|"Min"|0.0|0.0|10,"PredTime"|"Min"|0.0|0.0|5,"ElapsedTime"|"Min"|0.0|0.0|10,"CurrentLap"|""|0|0|10,"Distance"|"km"|0.0|0.0|10,"SessionTime"|"Min"|0.0|0.0|10
758963,1622987625127,,,,,,,,-0.28,0.18,-0.21,4,-6,-6,0.33,,90,5933,6,26,37,0.5,42.1,447,4.87,12.8,15.1,1,29.1,2.24,6.4,0,0,1,1,0,431,-17920,-4082,423,,,,,,,,,,,,,,,,
758983,1622987625147,,,,,,,,-0.28,0.18,-0.14,4,-8,-7,0.34,,89,5877,6,26,37,0.5,42.7,422,4.9,12.8,15.1,1,29.0,2.26,6.4,0,0,1,1,0,416,31796,13040,415,,,,,,,,,,,,,,,,
759003,1622987625167,,,,,,,,-0.24,0.17,0.04,4,-11,-10,0.29,,89,5885,6,26,37,0.5,41.4,417,4.9,12.9,14.7,1,29.0,2.25,6.1,0,0,1,1,0,416,31796,13040,415,,,,,,,,,,,,,,,,
759023,1622987625187,,,,,,,,-0.19,0.1,0.2,4,-14,-11,0.22,,89,5954,6,26,38,0.5,41.5,417,4.92,12.9,14.7,1,29.5,2.28,6.1,0,0,1,1,0,403,-26615,6512,408,,,,,,,,,,,,,,,,
759043,1622987625207,12,6,23,25,37,33,11,-0.13,0.06,0.35,4,-17,-13,0.14,0,89,5984,6,26,38,0.5,40.6,427,4.94,13.0,14.7,1,29.5,2.27,6.1,0,0,1,1,0,404,-1,-3968,405,45.699402,4.908752,44.58,194.5,7,3,2.3,0,0.0,-1,0.0,0.0,0.0,0,9.33,12.6507
759063,1622987625227,,,,,,,,-0.09,-0.0,0.49,4,-20,-15,0.09,,90,6085,6,26,38,0.5,40.8,432,4.92,12.8,14.7,1,29.6,2.26,6.1,0,0,1,1,0,404,-1,-3968,405,,,,,,,,,,,,,,,,
759083,1622987625247,,,,,,,,-0.08,-0.02,0.61,5,-21,-17,0.08,,90,6135,6,26,38,0.5,40.6,436,4.96,12.9,14.7,1,29.6,2.26,6.1,0,0,1,1,0,402,2524,-31744,393,,,,,,,,,,,,,,,,
759103,1622987625267,,,,,,,,-0.1,-0.02,0.73,6,-22,-17,0.11,,90,6151,6,26,37,0.5,40.5,437,4.93,12.9,14.7,1,29.4,2.21,6.1,0,0,1,1,0,397,-9211,19125,388,,,,,,,,,,,,,,,,
759123,1622987625287,,,,,,,,-0.18,0.03,0.5,7,-20,-16,0.18,,90,6175,6,26,37,0.5,40.1,442,4.85,12.9,16.2,1,29.5,2.21,6.3,0,0,1,1,0,397,-9211,19125,388,,,,,,,,,,,,,,,,
759143,1622987625306,15,6,22,29,38,31,26,-0.32,0.11,0.29,8,-15,-12,0.33,0,89,6202,6,26,37,0.5,39.9,449,4.87,12.9,16.2,1,29.5,2.21,6.3,0,0,1,1,0,396,28696,-6656,371,45.699413,4.90875,43.33,194.5,7,3,2.3,0,0.0,-1,0.0,,0.0,0,9.34,12.6524
759163,1622987625326,,,,,,,,-0.41,0.27,0.1,10,-10,-8,0.49,,90,6184,6,26,36,0.5,39.6,455,4.87,13.0,16.2,1,29.3,2.16,6.3,0,0,1,1,0,393,-32702,-1268,370,,,,,,,,,,,,,,,,
759183,1622987625346,,,,,,,,-0.42,0.42,-0.07,12,-6,-4,0.59,,89,6099,6,26,36,0.5,39.4,455,4.99,13.0,16.2,1,29.2,2.16,6.3,0,0,1,1,0,393,-32702,-1268,370,,,,,,,,,,,,,,,,
759203,1622987625366,,,,,,,,-0.48,0.52,-0.23,15,-3,-2,0.71,,90,5984,6,26,36,0.5,39.1,448,4.91,13.0,16.2,1,29.1,2.17,6.3,0,0,1,1,0,395,240,2811,361,,,,,,,,,,,,,,,,
759223,1622987625386,,,,,,,,-0.52,0.62,-0.38,17,1,1,0.81,,90,5839,6,26,36,0.5,39.4,432,4.94,13.0,16.6,1,28.7,2.21,6.0,0,0,1,1,0,395,-1818,-30454,350,,,,,,,,,,,,,,,,
759243,1622987625408,14,8,19,29,40,30,44,-0.61,0.7,-0.51,19,5,4,0.93,0,90,5686,6,26,37,0.5,39.0,425,4.91,13.0,16.6,1,28.5,2.31,6.0,0,0,1,1,0,390,-1562,8841,354,45.699425,4.908747,41.76,194.4,7,3,2.3,0,0.0,-1,0.0,0.0,0.0,0,9.34,12.654
759263,1622987625428,,,,,,,,-0.63,0.75,-0.59,22,3,2,0.98,,90,5573,6,26,37,0.5,38.7,414,4.9,12.9,16.6,1,28.2,2.33,6.0,0,0,1,1,0,387,240,-122,343,,,,,,,,,,,,,,,,
759283,1622987625448,,,,,,,,-0.57,0.75,-0.37,24,-2,0,0.94,,90,5519,6,26,38,0.5,38.7,404,4.95,13.0,16.6,1,28.3,2.35,6.0,0,0,1,1,0,387,240,-122,343,,,,,,,,,,,,,,,,
759303,1622987625468,,,,,,,,-0.63,0.77,-0.51,27,5,4,1.0,,90,5469,6,26,38,0.5,38.4,405,4.91,12.9,16.6,1,28.2,2.43,6.0,0,0,1,1,0,382,-19126,20480,330,,,,,,,,,,,,,,,,
759323,1622987625488,,,,,,,,-0.62,0.81,-0.63,29,4,3,1.02,,90,5369,6,26,38,0.5,38.1,397,4.88,12.8,18.4,1,27.9,2.53,6.1,0,0,1,1,0,382,-19126,20480,330,,,,,,,,,,,,,,,,
759343,1622987625508,6,4,18,37,42,31,61,-0.6,0.89,-0.41,32,2,2,1.08,0,90,5249,6,26,39,0.5,37.5,384,4.93,13.1,18.4,1,27.9,2.57,6.1,0,0,1,1,0,381,770,-10440,324,45.699432,4.908744,40.13,194.4,7,3,2.3,0,0.0,-1,0.0,,0.0,0,9.34,12.6557
759363,1622987625528,,,,,,,,-0.57,0.85,-0.55,34,3,3,1.03,,90,5124,6,26,40,0.5,38.3,371,4.95,13.0,18.4,1,27.7,2.65,6.1,0,0,1,1,0,381,770,-10440,324,,,,,,,,,,,,,,,,
759383,1622987625548,,,,,,,,-0.59,0.92,-0.33,37,3,3,1.1,,90,4951,7,26,40,0.5,33.4,371,4.96,13.0,18.4,1,27.0,2.64,6.1,0,0,1,1,0,384,-19126,-1,329,,,,,,,,,,,,,,,,
759403,1622987625568,,,,,,,,-0.55,1.0,-0.14,39,1,0,1.15,,90,4813,7,26,41,0.5,33.4,362,4.93,13.0,17.3,1,25.7,2.61,5.8,0,0,1,1,0,380,250,-214,326,,,,,,,,,,,,,,,,
759423,1622987625588,,,,,,,,-0.49,1.07,-0.19,42,-0,-1,1.18,,90,4709,9,26,43,0.5,37.9,348,4.97,13.0,17.3,1,25.0,2.59,5.8,0,0,1,1,0,380,250,-214,326,,,,,,,,,,,,,,,,
759443,1622987625608,0,2,18,39,43,29,63,-0.44,1.04,-0.34,44,-1,-1,1.13,0,90,4668,12,26,45,0.5,37.8,346,4.96,13.0,17.3,1,25.1,2.61,5.8,0,0,1,1,0,374,-6656,-1494,325,45.699444,4.908741,37.97,194.4,7,3,2.3,0,0.0,-1,0.0,0.0,0.0,0,9.34,12.6574
759463,1622987625628,,,,,,,,-0.43,1.04,-0.48,46,1,0,1.12,,90,4679,17,26,48,0.5,37.5,335,4.95,13.0,17.3,1,25.9,2.65,5.8,0,0,1,1,0,371,770,966,322,,,,,,,,,,,,,,,,
759483,1622987625648,,,,,,,,-0.4,1.03,-0.6,47,1,2,1.1,,90,4667,26,26,55,0.5,37.3,342,4.93,13.0,17.3,1,27.8,4.27,5.8,0,0,1,1,0,372,-6656,12800,324,,,,,,,,,,,,,,,,
759503,1622987625668,,,,,,,,-0.44,1.04,-0.72,49,3,3,1.13,,90,4758,31,26,65,0.5,32.5,336,4.95,12.8,32.0,1,31.9,4.75,10.4,0,0,1,1,0,372,-1,-1481,325,,,,,,,,,,,,,,,,
759523,1622987625688,,,,,,,,-0.46,1.1,-0.49,51,2,1,1.2,,90,4939,33,26,76,0.5,32.0,340,4.96,13.0,32.0,1,37.5,5.87,10.4,0,0,1,1,0,372,-1,-1481,325,,,,,,,,,,,,,,,,
759543,1622987625706,-0,2,18,38,43,30,58,-0.4,1.15,-0.45,53,0,-0,1.22,0,90,5111,33,26,84,0.5,37.5,353,4.86,12.9,32.0,1,40.7,6.47,10.4,0,0,1,1,0,373,11264,-1481,321,45.699451,4.908736,34.65,194.5,7,2,2.3,0,0.0,-1,0.0,,0.0,0,9.34,12.659
759563,1622987625726,,,,,,,,-0.45,1.19,-0.58,54,3,2,1.28,,90,5492,33,26,89,0.5,37.5,362,4.91,12.9,32.0,1,41.0,7.39,10.4,0,0,1,1,0,369,770,250,316,,,,,,,,,,,,,,,,
759583,1622987625746,,,,,,,,-0.47,1.18,-0.7,55,4,3,1.27,,90,5883,33,26,91,0.5,31.6,383,4.87,12.9,32.0,1,40.1,8.65,10.4,0,0,1,1,0,369,14242,10824,318,,,,,,,,,,,,,,,,
759603,1622987625766,,,,,,,,-0.44,1.12,-0.65,56,4,2,1.21,,90,6046,33,26,91,0.5,31.6,404,4.86,12.8,78.1,1,40.1,8.83,24.7,0,0,1,1,0,366,14242,-32559,316,,,,,,,,,,,,,,,,
759623,1622987625786,,,,,,,,-0.44,1.07,-0.76,56,4,3,1.16,,90,6163,33,26,91,0.5,31.7,421,4.84,13.0,78.1,1,41.3,8.57,24.7,0,0,1,1,0,373,-1,17628,317,,,,,,,,,,,,,,,,
759643,1622987625808,-1,2,24,40,40,28,38,-0.48,1.09,-0.86,56,7,5,1.19,0,90,6463,33,26,91,0.5,36.5,437,4.87,13.0,78.1,1,44.4,8.07,24.7,0,0,1,1,0,372,-6405,-7939,322,45.699459,4.908728,36.0,194.6,7,3,2.3,0,0.0,-1,0.0,0.0,0.0,0,9.34,12.6607
759663,1622987625828,,,,,,,,-0.34,1.11,-0.62,56,4,2,1.16,,90,6754,30,26,90,0.5,36.5,455,4.94,12.8,78.1,1,47.9,7.45,24.7,0,0,1,1,0,379,-6405,-3968,329,,,,,,,,,,,,,,,,
759683,1622987625848,,,,,,,,-0.29,1.04,-0.74,55,5,4,1.08,,90,6798,24,26,88,0.5,37.1,467,4.87,13.0,78.1,1,46.8,7.12,24.7,0,0,1,1,0,387,257,1,329,,,,,,,,,,,,,,,,
759703,1622987625868,,,,,,,,-0.15,1.03,-0.51,54,1,1,1.04,,90,6560,18,26,85,0.5,33.9,458,4.95,12.8,78.1,1,42.6,7.05,24.7,0,0,1,1,0,389,-1,-31744,341,,,,,,,,,,,,,,,,
759723,1622987625888,,,,,,,,-0.08,0.88,-0.36,52,-1,-0,0.88,,90,6247,13,26,81,0.5,34.5,440,4.91,12.9,62.7,1,39.6,6.94,21.4,0,0,1,1,0,384,-1,-6640,351,,,,,,,,,,,,,,,,
759743,1622987625908,1,1,39,40,32,25,2,-0.07,0.75,-0.5,50,0,1,0.75,0,90,6003,12,26,77,0.5,35.6,425,4.95,12.9,62.7,1,37.1,4.11,21.4,0,0,1,1,0,383,-1,1,356,45.699467,4.90872,37.12,194.5,7,3,2.3,0,0.0,-1,0.0,,0.0,0,9.34,12.6624
759763,1622987625928,,,,,,,,-0.0,0.63,-0.62,46,-1,-1,0.63,,90,5568,12,26,74,0.5,36.2,407,4.94,12.9,62.7,1,37.1,3.75,21.4,0,0,1,1,0,381,-1,19125,362,,,,,,,,,,,,,,,,
759783,1622987625948,,,,,,,,0.07,0.54,-0.4,43,-6,-5,0.55,,90,5281,12,26,73,0.5,36.6,376,5.0,13.0,62.7,1,37.2,3.48,21.4,0,0,1,1,0,377,-1,-6656,366,,,,,,,,,,,,,,,,
759803,1622987625968,,,,,,,,0.01,0.33,-0.54,38,-1,-2,0.33,,90,5134,12,26,73,0.5,36.8,360,4.86,12.8,22.5,1,37.4,3.49,8.3,0,0,1,1,0,377,-1,-6656,366,,,,,,,,,,,,,,,,
759823,1622987625988,,,,,,,,0.07,0.2,-0.32,33,-6,-6,0.21,,90,5292,12,26,73,0.5,37.5,369,4.98,13.0,22.5,1,37.2,3.57,8.3,0,0,1,1,0,363,-1,-6656,377,,,,,,,,,,,,,,,,
759843,1622987625994,-5,0,43,31,28,33,-40,-0.03,0.02,-0.46,28,-0,-2,0.04,0,90,5492,16,26,73,0.5,38.3,373,4.92,13.0,22.5,1,37.0,3.66,8.3,0,0,1,1,0,358,-1,8200,383,45.699474,4.908711,38.16,194.6,7,3,2.3,0,0.0,-1,0.0,0.0,0.0,0,9.34,12.6641
759863,1622987626014,,,,,,,,0.03,-0.09,-0.26,22,-5,-6,0.09,,90,5685,21,26,75,0.5,38.4,383,4.86,12.9,22.5,1,37.2,3.87,8.3,0,0,1,1,0,358,-1,8200,383,,,,,,,,,,,,,,,,
759883,1622987626034,,,,,,,,0.1,-0.15,-0.07,16,-9,-9,0.17,,90,5835,31,26,79,0.5,38.6,395,4.89,12.9,22.5,1,37.8,4.79,8.3,0,0,1,1,0,354,-1,19125,384,,,,,,,,,,,,,,,,
759903,1622987626054,,,,,,,,0.12,-0.27,0.1,11,-10,-10,0.3,,90,6181,42,26,87,0.5,38.7,415,4.93,12.9,39.5,1,40.6,5.36,15.3,0,0,1,1,0,347,-30454,-6475,387,,,,,,,,,,,,,,,,
759923,1622987626074,,,,,,,,0.06,-0.33,-0.07,6,-11,-12,0.34,,90,6679,49,26,93,0.5,38.7,445,4.92,12.8,39.5,1,46.6,5.37,15.3,0,0,1,1,0,349,-1246,-19126,382,,,,,,,,,,,,,,,,
759943,1622987626108,-0,2,42,28,25,38,-55,0.05,-0.37,0.09,1,-10,-11,0.37,0,90,7153,51,26,95,0.5,38.3,480,4.92,12.9,39.5,1,47.9,5.47,15.3,0,0,1,1,0,350,-10554,-31744,383,45.699482,4.908701,37.44,194.5,7,3,2.3,0,0.0,-1,0.0,,0.0,0,9.34,12.6657
759963,1622987626128,,,,,,,,0.11,-0.46,0.01,-4,-9,-9,0.47,,90,7364,51,26,96,0.5,38.8,498,4.92,12.8,39.5,1,44.7,5.61,15.3,0,0,1,1,0,435,-10554,11545,388,,,,,,,,,,,,,,,,
759983,1622987626148,,,,,,,,0.16,-0.41,-0.15,-8,-7,-7,0.45,,90,7292,52,26,96,0.5,38.9,500,4.91,13.0,39.5,1,45.8,3.69,15.3,0,0,1,1,0,485,-30454,2524,389,,,,,,,,,,,,,,,,
760003,1622987626168,,,,,,,,0.21,-0.42,-0.31,-13,-6,-7,0.47,,90,7217,52,26,96,0.5,39.6,501,4.88,13.0,39.5,1,46.9,5.38,15.3,0,0,1,1,0,449,-30454,-9166,396,,,,,,,,,,,,,,,,
760023,1622987626188,,,,,,,,0.2,-0.52,-0.27,-17,-6,-8,0.55,,90,7131,52,26,96,0.5,40.1,499,4.89,13.0,45.4,1,48.2,5.23,18.0,0,0,1,1,0,449,-30454,-9166,396,,,,,,,,,,,,,,,,
760043,1622987626208,0,2,46,34,22,33,-52,0.16,-0.64,-0.08,-21,-5,-8,0.66,0,90,7056,52,27,96,0.5,41.0,488,4.9,12.8,45.4,1,49.3,5.04,18.0,0,0,1,1,0,418,-30454,13180,401,45.69949,4.908692,37.71,194.5,7,3,2.3,0,0.0,-1,0.0,0.0,0.0,0,9.35,12.6674
760063,1622987626228,,,,,,,,0.19,-0.6,-0.21,-25,-4,-6,0.63,,90,6993,52,27,96,0.5,41.2,476,4.92,12.9,45.4,1,49.9,4.94,18.0,0,0,1,1,0,420,-1481,3826,412,,,,,,,,,,,,,,,,
760083,1622987626248,,,,,,,,0.2,-0.64,-0.36,-28,-5,-7,0.67,,90,6913,52,27,96,0.5,41.1,473,4.9,12.9,45.4,1,49.1,4.94,18.0,0,0,1,1,0,457,-1481,5600,411,,,,,,,,,,,,,,,,
760103,1622987626268,,,,,,,,0.24,-0.68,-0.16,-31,-3,-5,0.72,,90,6929,53,27,96,0.5,42.0,474,4.93,12.9,36.6,1,49.2,4.81,15.4,0,0,1,1,0,451,-1481,5600,420,,,,,,,,,,,,,,,,
760123,1622987626288,,,,,,,,0.29,-0.68,-0.32,-34,-2,-4,0.73,,89,7001,56,27,96,0.5,42.1,481,4.92,13.0,36.6,1,50.0,4.69,15.4,0,0,1,1,0,428,-1481,21432,421,,,,,,,,,,,,,,,,
760143,1622987626307,0,1,50,37,24,34,-44,0.26,-0.71,-0.34,-36,-2,-5,0.75,0,89,7006,59,27,97,0.5,42.6,478,4.89,12.8,36.6,1,50.0,5.33,15.4,0,0,1,1,0,442,-1481,16648,426,45.699493,4.908684,39.68,194.5,7,3,2.3,0,0.0,-1,0.0,,0.0,0,9.35,12.6691
760163,1622987626327,,,,,,,,0.24,-0.82,-0.25,-39,-1,-5,0.85,,90,7030,60,27,97,0.5,43.0,483,4.92,12.9,36.6,1,49.6,5.36,15.4,0,0,1,1,0,451,-1481,21432,430,,,,,,,,,,,,,,,,
760183,1622987626347,,,,,,,,0.28,-0.81,-0.39,-40,-0,-3,0.85,,89,7107,61,27,97,0.5,43.1,491,4.91,13.0,36.6,1,48.6,5.38,15.4,0,0,1,1,0,435,-1481,2131,431,,,,,,,,,,,,,,,,
760203,1622987626367,,,,,,,,0.26,-0.81,-0.53,-42,-0,-4,0.85,,90,7123,61,27,96,0.5,42.8,496,4.88,12.9,36.6,1,48.3,5.38,15.4,0,0,1,1,0,458,-1481,-3267,428,,,,,,,,,,,,,,,,
760223,1622987626387,,,,,,,,0.25,-0.85,-0.31,-43,-0,-5,0.88,,90,7186,62,27,97,0.5,43.6,486,4.91,12.8,40.8,1,47.4,5.33,17.5,0,0,1,1,0,461,-1481,2524,436,,,,,,,,,,,,,,,,
760243,1622987626407,1,1,50,36,23,34,-30,0.25,-0.92,-0.13,-44,-0,-4,0.95,0,90,7278,65,27,96,0.5,44.0,480,4.92,12.8,40.8,1,46.0,5.35,17.5,0,0,1,1,0,461,-1481,2524,436,45.699505,4.908675,40.82,194.4,7,3,2.3,0,0.0,-1,0.0,0.0,0.0,0,9.35,12.6707
760263,1622987626427,,,,,,,,0.3,-0.95,-0.17,-45,0,-3,0.99,,90,7318,70,27,97,0.5,44.2,483,4.93,12.9,40.8,1,45.3,5.28,17.5,0,0,1,1,0,455,-1481,-9160,442,,,,,,,,,,,,,,,,
760283,1622987626447,,,,,,,,0.37,-0.85,-0.25,-45,-0,-1,0.93,,89,7367,75,27,97,0.5,44.9,410,4.92,12.8,40.8,1,44.7,5.71,17.5,0,0,1,1,0,465,-1481,17628,449,,,,,,,,,,,,,,,,
760303,1622987626467,,,,,,,,0.44,-0.81,-0.4,-45,1,-0,0.92,,89,7416,79,27,96,0.5,45.0,463,4.95,12.8,43.5,1,44.0,5.71,19.6,0,0,1,1,0,457,-1481,16408,450,,,,,,,,,,,,,,,,
760323,1622987626487,,,,,,,,0.51,-0.85,-0.53,-45,1,1,0.99,,89,7422,82,27,96,0.5,44.6,483,4.87,13.0,43.5,1,43.9,5.71,19.6,0,0,1,1,0,474,-1481,243,446,,,,,,,,,,,,,,,,
760343,1622987626507,-0,2,49,36,23,33,-22,0.56,-0.76,-0.63,-45,1,1,0.94,0,89,7440,84,27,96,0.5,44.9,382,4.87,13.0,43.5,1,43.6,5.73,19.6,0,0,1,1,0,465,-1481,-16384,449,45.699512,4.908669,43.16,194.4,7,3,2.3,0,0.0,-1,0.0,,0.0,0,9.35,12.6724
760363,1622987626527,,,,,,,,0.57,-0.77,-0.74,-44,2,2,0.96,,89,7431,86,27,97,0.5,45.4,440,4.93,12.9,43.5,1,43.7,5.72,19.6,0,0,1,1,0,461,-1481,8488,454,,,,,,,,,,,,,,,,
760383,1622987626547,,,,,,,,0.56,-0.77,-0.85,-43,2,2,0.95,,89,7402,88,27,96,0.5,45.8,454,4.85,12.9,43.5,1,44.2,5.69,19.6,0,0,1,1,0,475,-1481,32033,458,,,,,,,,,,,,,,,,
760403,1622987626567,,,,,,,,0.56,-0.78,-0.94,-42,3,2,0.95,,89,7419,90,27,96,0.5,46.8,468,4.86,12.9,41.0,1,43.9,5.59,19.2,0,0,1,1,0,471,-1481,32033,468,,,,,,,,,,,,,,,,
760423,1622987626587,,,,,,,,0.51,-0.77,-1.03,-41,4,1,0.93,,89,7491,92,27,96,0.5,46.1,486,4.86,12.9,41.0,1,42.9,5.6,19.2,0,0,1,1,0,462,-1481,3576,465,,,,,,,,,,,,,,,,
760443,1622987626609,1,2,48,37,22,32,-20,0.47,-0.82,-1.11,-40,4,1,0.94,0,89,7560,93,27,96,0.5,46.7,506,4.88,12.9,41.0,1,41.9,5.54,19.2,0,0,1,1,0,474,-1481,-23367,467,45.699524,4.908664,44.78,194.4,7,3,2.3,0,0.0,-1,0.0,0.0,0.0,0,9.35,12.6741
760463,1622987626629,,,,,,,,0.46,-0.8,-1.19,-39,4,2,0.93,,89,7649,94,27,95,0.5,46.2,520,4.85,12.9,41.0,1,40.7,5.55,19.2,0,0,1,1,0,469,-1481,32033,462,,,,,,,,,,,,,,,,
760483,1622987626649,,,,,,,,0.54,-0.71,-1.25,-38,4,2,0.9,,89,7712,94,27,96,0.5,47.0,517,4.85,13.0,41.0,1,39.6,4.06,19.2,0,0,1,1,0,478,-1481,-899,470,,,,,,,,,,,,,,,,
760503,1622987626669,,,,,,,,0.62,-0.65,-1.09,-37,3,1,0.9,,89,7725,94,27,96,0.5,47.8,521,4.87,12.9,41.0,1,39.4,5.43,19.2,0,0,1,1,0,493,-1,505,478,,,,,,,,,,,,,,,,
760523,1622987626689,,,,,,,,0.65,-0.62,-0.83,-36,1,0,0.9,,89,7728,95,27,96,0.5,48.3,520,4.92,12.8,40.3,1,39.2,5.31,19.3,0,0,1,1,0,490,-1,248,483,,,,,,,,,,,,,,,,
760543,1622987626707,1,2,47,40,22,29,-21,0.59,-0.58,-0.9,-35,2,0,0.83,0,89,7786,95,27,96,0.5,48.2,527,4.97,12.8,40.3,1,38.5,5.27,19.3,0,0,1,1,0,486,-1,-6528,482,45.699535,4.908659,46.8,194.3,7,3,2.3,0,0.0,-1,0.0,,0.0,0,9.35,12.6757
760563,1622987626727,,,,,,,,0.5,-0.63,-0.99,-34,3,0,0.81,,89,7851,95,27,95,0.5,48.3,534,4.93,12.8,40.3,1,37.7,5.32,19.3,0,0,1,1,0,493,-1,-9216,483,,,,,,,,,,,,,,,,
760583,1622987626747,,,,,,,,0.51,-0.62,-1.07,-34,5,2,0.8,,89,7941,95,27,95,0.5,48.9,537,4.86,12.9,40.3,1,36.4,5.4,19.3,0,0,1,1,0,498,-1,-22519,489,,,,,,,,,,,,,,,,
760603,1622987626767,,,,,,,,0.52,-0.59,-1.04,-33,4,1,0.79,,89,8088,95,27,95,0.5,49.5,544,4.95,12.8,42.0,1,36.8,5.64,20.8,0,0,1,1,0,503,-1,10994,495,,,,,,,,,,,,,,,,
760623,1622987626787,,,,,,,,0.45,-0.61,-1.12,-32,3,1,0.76,,89,8252,95,27,94,0.5,49.7,555,4.82,12.9,42.0,1,39.4,5.94,20.8,0,0,1,1,0,516,-25600,-4054,497,,,,,,,,,,,,,,,,
760643,1622987626809,0,1,47,39,22,29,-20,0.46,-0.62,-0.86,-32,2,1,0.77,0,89,8461,96,27,94,0.5,49.9,563,4.86,12.8,42.0,1,42.6,6.23,20.8,0,0,1,1,0,527,32033,16383,499,45.699551,4.908656,48.35,194.3,7,3,2.3,0,0.0,-1,0.0,0.0,0.0,0,9.35,12.6774
760663,1622987626829,,,,,,,,0.53,-0.52,-0.9,-31,2,3,0.74,,89,8604,96,27,92,0.5,50.7,577,4.91,12.9,42.0,1,42.5,6.36,20.8,0,0,1,1,0,527,-1481,-22519,505,,,,,,,,,,,,,,,,
760683,1622987626849,,,,,,,,0.52,-0.62,-0.99,-31,3,2,0.81,,89,8786,97,27,92,0.5,50.6,583,4.92,12.9,42.0,1,40.8,6.39,20.8,0,0,1,1,0,511,-22263,10408,514,,,,,,,,,,,,,,,,
760703,1622987626869,,,,,,,,0.53,-0.61,-1.07,-30,4,1,0.81,,89,8954,97,27,91,0.5,55.5,596,4.87,12.9,51.5,1,39.3,6.38,26.4,0,0,1,1,0,534,-22263,-32248,512,,,,,,,,,,,,,,,,
760723,1622987626889,,,,,,,,0.54,-0.73,-1.15,-29,4,-0,0.9,,89,9110,98,27,91,0.5,55.5,603,4.83,12.8,51.5,1,38.8,6.39,26.4,0,0,1,1,0,528,-22263,-22519,515,,,,,,,,,,,,,,,,
760743,1622987626903,0,0,47,41,20,27,-18,0.59,-0.74,-1.22,-29,6,0,0.95,0,89,9191,98,27,90,0.5,51.8,626,4.88,12.9,51.5,1,38.8,6.34,26.4,0,0,1,1,0,538,10818,-32248,518,45.699562,4.908653,50.32,194.2,7,3,2.3,0,0.0,-1,0.0,,0.0,0,9.35,12.6791
760763,1622987626923,,,,,,,,0.67,-0.66,-1.29,-29,6,1,0.94,,89,9263,98,27,90,0.5,52.8,618,4.91,12.8,51.5,1,38.9,6.34,26.4,0,0,1,1,0,565,10818,1779,528,,,,,,,,,,,,,,,,
760783,1622987626943,,,,,,,,0.74,-0.62,-1.01,-29,5,1,0.97,,89,9277,98,27,90,0.5,52.8,618,4.92,12.8,51.5,1,38.9,6.39,26.4,0,0,1,1,0,555,-21872,2524,528,,,,,,,,,,,,,,,,
760803,1622987626963,,,,,,,,0.67,-0.61,-0.76,-28,4,0,0.91,,89,9309,98,27,91,0.5,54.0,627,4.82,12.9,50.5,1,38.9,6.34,27.3,0,0,1,1,0,550,26178,-9072,539,,,,,,,,,,,,,,,,
760823,1622987626983,,,,,,,,0.67,-0.69,-0.69,-28,2,-0,0.96,,89,9337,99,27,91,0.5,53.9,620,4.83,12.8,50.5,1,38.9,6.34,27.3,0,0,1,1,0,548,-9212,2211,539,,,,,,,,,,,,,,,,
760843,1622987626995,-0,2,46,40,20,27,-14,0.7,-0.79,-0.8,-28,2,-0,1.06,0,89,9379,99,27,90,0.5,54.8,618,4.93,12.8,50.5,1,38.9,6.39,27.3,0,0,1,1,0,551,-1,12552,550,45.699574,4.908651,52.97,194.2,7,3,2.3,0,0.0,-1,0.0,0.0,0.0,0,9.36,12.6807
760863,1622987627015,,,,,,,,0.75,-0.66,-0.79,-27,2,1,1.0,,89,9469,99,27,90,0.5,54.7,618,4.95,12.8,50.5,1,38.9,6.34,27.3,0,0,1,1,0,557,-1,-23623,547,,,,,,,,,,,,,,,,
760883,1622987627035,,,,,,,,0.71,-0.54,-0.62,-27,0,0,0.9,,89,9537,99,27,90,0.5,55.3,626,4.88,12.8,50.5,1,39.0,6.35,27.3,0,0,1,1,0,567,-28648,1760,548,,,,,,,,,,,,,,,,
760903,1622987627055,,,,,,,,0.74,-0.66,-0.73,-26,2,1,1.0,,89,9635,99,27,90,0.5,55.5,616,4.92,12.8,51.3,1,39.2,6.39,28.5,0,0,1,1,0,567,-28648,1760,548,,,,,,,,,,,,,,,,
760923,1622987627075,,,,,,,,0.75,-0.55,-0.51,-25,2,1,0.93,,89,9654,99,27,90,0.5,55.5,629,4.89,12.8,51.3,1,39.2,6.39,28.5,0,0,1,1,0,580,6274,-3210,555,,,,,,,,,,,,,,,,
760943,1622987627107,0,2,51,40,20,24,-16,0.68,-0.53,-0.42,-24,1,-0,0.86,0,89,9709,99,27,90,0.5,56.5,640,4.92,12.8,51.3,1,39.3,6.41,28.5,0,0,1,1,0,580,6274,-3210,555,45.699589,4.908649,55.18,194.2,7,3,2.3,0,0.0,-1,0.0,,0.0,0,9.36,12.6824
760963,1622987627127,,,,,,,,0.69,-0.57,-0.47,-24,2,1,0.89,,89,9770,99,27,89,0.5,56.2,634,4.92,12.8,51.3,1,39.3,6.29,28.5,0,0,1,1,0,585,-28648,208,562,,,,,,,,,,,,,,,,
760983,1622987627147,,,,,,,,0.7,-0.59,-0.6,-23,2,2,0.92,,89,9806,99,27,89,0.5,56.8,637,4.89,12.8,51.3,1,39.3,6.45,28.5,0,0,1,1,0,585,-28648,208,562,,,,,,,,,,,,,,,,
761003,1622987627167,,,,,,,,0.69,-0.53,-0.38,-23,2,3,0.88,,89,9878,99,27,89,0.5,57.6,640,4.88,12.8,50.1,1,39.5,6.32,28.9,0,0,1,1,0,607,-23623,23619,579,,,,,,,,,,,,,,,,
761023,1622987627187,,,,,,,,0.73,-0.49,-0.52,-23,2,4,0.88,,89,9904,99,27,89,0.5,57.9,638,4.91,12.8,50.1,1,39.5,6.33,28.9,0,0,1,1,0,615,5120,-3446,579,,,,,,,,,,,,,,,,
761043,1622987627209,-1,2,50,41,21,25,-18,0.65,-0.39,-0.54,-22,0,2,0.76,0,89,9973,99,27,89,0.5,59.0,644,4.9,12.8,50.1,1,39.6,6.35,28.9,0,0,1,1,0,599,5120,-30139,590,45.6996,4.908648,57.79,194.2,7,3,2.3,0,0.0,-1,0.0,0.0,0.0,0,9.36,12.684
761063,1622987627229,,,,,,,,0.69,-0.4,-0.66,-22,1,4,0.8,,89,10032,99,27,88,0.5,59.6,637,4.91,12.8,50.1,1,39.7,6.37,28.9,0,0,1,1,0,609,-1,28675,596,,,,,,,,,,,,,,,,
761083,1622987627249,,,,,,,,0.76,-0.32,-0.7,-22,1,4,0.82,,88,10048,99,27,88,0.5,59.2,637,4.9,12.8,50.1,1,39.8,6.21,28.9,0,0,1,1,0,609,-1,28675,596,,,,,,,,,,,,,,,,
761103,1622987627269,,,,,,,,0.67,-0.31,-0.64,-22,1,4,0.73,,88,10107,99,27,88,0.5,60.4,652,4.88,12.8,48.1,1,40.0,6.21,29.1,0,0,1,1,0,628,-2560,-1346,604,,,,,,,,,,,,,,,,
761123,1622987627289,,,,,,,,0.64,-0.17,-0.58,-22,2,6,0.66,,88,10151,99,27,88,0.5,60.6,642,4.89,12.8,48.1,1,40.1,6.21,29.1,0,0,1,1,0,633,-12040,3,606,,,,,,,,,,,,,,,,
761143,1622987627308,-0,2,50,42,20,26,-23,0.72,-0.17,-0.56,-22,1,6,0.74,0,88,10184,99,27,87,0.5,60.7,645,4.92,12.8,48.1,1,40.2,6.05,29.1,0,0,1,1,0,631,-16384,-4876,607,45.699616,4.908647,59.5,194.2,7,3,2.3,0,0.0,-1,0.0,,0.0,0,9.36,12.6857
761163,1622987627328,,,,,,,,0.73,-0.17,-0.68,-22,2,7,0.75,,88,10212,99,27,87,0.5,61.5,646,4.88,12.8,48.1,1,40.3,6.21,29.1,0,0,1,1,0,631,-16384,-4876,607,,,,,,,,,,,,,,,,
761183,1622987627348,,,,,,,,0.68,-0.18,-0.45,-23,2,4,0.7,,88,10285,99,27,87,0.5,61.6,648,4.83,12.8,48.1,1,40.5,6.05,29.1,0,0,1,1,0,650,-16384,-8429,616,,,,,,,,,,,,,,,,
761203,1622987627368,,,,,,,,0.62,-0.32,-0.41,-23,1,1,0.7,,88,10359,99,27,87,0.5,63.2,649,4.88,12.8,48.1,1,40.8,6.05,29.1,0,0,1,1,0,652,95,-2830,632,,,,,,,,,,,,,,,,
761223,1622987627388,,,,,,,,0.52,-0.46,-0.21,-24,2,1,0.69,,88,10457,99,27,86,0.5,62.9,653,4.87,12.8,45.8,1,41.0,5.9,29.0,0,0,1,1,0,656,95,-3488,632,,,,,,,,,,,,,,,,
761243,1622987627409,-1,2,50,41,19,28,-28,0.52,-0.52,-0.02,-25,-1,-0,0.73,0,88,10521,99,27,86,0.5,64.0,662,4.88,12.8,45.8,1,41.2,5.89,29.0,0,0,1,1,0,666,26880,-26380,640,45.699631,4.908649,62.66,194.2,7,3,2.3,0,0.0,-1,0.0,0.0,0.0,0,9.36,12.6874
761263,1622987627429,,,,,,,,0.46,-0.6,0.15,-25,-0,-0,0.76,,88,10575,100,27,86,0.5,63.4,652,4.85,12.8,45.8,1,41.3,5.84,29.0,0,0,1,1,0,674,3472,3543,634,,,,,,,,,,,,,,,,
761283,1622987627449,,,,,,,,0.47,-0.72,0.3,-26,-2,-3,0.86,,88,10617,100,27,86,0.5,64.0,652,4.88,12.8,45.8,1,41.5,5.81,29.0,0,0,1,1,0,659,-1,-26380,640,,,,,,,,,,,,,,,,
761303,1622987627469,,,,,,,,0.48,-0.79,0.44,-27,-2,-3,0.93,,88,10647,100,27,86,0.5,64.8,650,4.88,12.8,44.1,1,41.5,5.79,28.6,0,0,1,1,0,657,12800,-3038,653,,,,,,,,,,,,,,,,
761323,1622987627489,,,,,,,,0.55,-0.67,0.24,-27,-2,-3,0.87,,88,10665,99,27,86,0.5,65.6,653,4.89,12.8,44.1,1,41.6,5.77,28.6,0,0,1,1,0,675,17740,-2345,656,,,,,,,,,,,,,,,,
761343,1622987627508,0,1,51,39,18,27,-21,0.64,-0.77,0.39,-28,-3,-4,1.0,0,88,10763,100,27,86,0.5,65.8,658,4.88,12.7,44.1,1,41.8,5.69,28.6,0,0,1,1,0,686,-23552,-10344,658,45.69965,4.90865,64.63,194.2,7,3,2.3,0,0.0,-1,0.0,,0.0,0,9.36,12.689
761363,1622987627528,,,,,,,,0.67,-0.65,0.19,-28,0,0,0.94,,88,10869,100,27,86,0.5,65.9,652,4.92,12.8,44.1,1,42.1,5.61,28.6,0,0,1,1,0,697,16529,3543,667,,,,,,,,,,,,,,,,
761383,1622987627548,,,,,,,,0.6,-0.68,0.32,-28,-1,-2,0.91,,88,10939,100,27,86,0.5,66.5,658,4.86,12.8,44.1,1,42.3,5.55,28.6,0,0,1,1,0,697,16529,3543,667,,,,,,,,,,,,,,,,
761403,1622987627568,,,,,,,,0.6,-0.79,0.46,-28,-2,-2,0.99,,88,10958,100,27,86,0.5,66.5,658,4.91,12.8,42.2,1,42.3,5.54,28.1,0,0,1,1,0,681,-14848,-2830,665,,,,,,,,,,,,,,,,
761423,1622987627588,,,,,,,,0.7,-0.85,0.26,-28,-1,-0,1.1,,88,10901,100,27,87,0.5,67.2,656,4.89,12.8,42.2,1,42.3,5.73,28.1,0,0,1,1,0,701,-10251,1780,672,,,,,,,,,,,,,,,,
761443,1622987627608,-0,2,51,39,19,28,-16,0.69,-0.91,0.31,-28,-2,-1,1.15,0,88,10920,100,27,87,0.5,67.0,667,4.88,12.7,42.2,1,42.3,5.72,28.1,0,0,1,1,0,704,506,-10448,674,45.699665,4.908654,66.49,194.1,7,3,2.3,0,0.0,-1,0.0,0.0,0.0,0,9.37,12.6907
761463,1622987627628,,,,,,,,0.53,-0.75,0.26,-28,-1,-1,0.92,,88,11088,100,27,87,0.5,67.3,660,4.87,12.8,42.2,1,42.7,5.5,28.1,0,0,1,1,0,682,-6006,-2830,679,,,,,,,,,,,,,,,,
761483,1622987627648,,,,,,,,0.64,-0.85,0.07,-28,1,-0,1.06,,88,11200,100,27,87,0.5,68.9,654,4.87,12.8,42.2,1,42.7,5.65,28.1,0,0,1,1,0,694,-8429,-3584,689,,,,,,,,,,,,,,,,
761503,1622987627668,,,,,,,,0.52,-0.77,0.23,-28,-1,-3,0.93,,88,11174,100,27,87,0.5,69.1,661,4.87,12.8,42.2,1,42.7,5.65,28.1,0,0,1,1,0,723,31988,-20693,685,,,,,,,,,,,,,,,,
761523,1622987627688,,,,,,,,0.62,-0.65,0.3,-28,-2,-1,0.9,,88,11234,100,27,87,0.5,68.5,661,4.9,12.8,42.6,1,42.7,5.65,29.2,0,0,1,1,0,718,-1,-30694,685,,,,,,,,,,,,,,,,
761543,1622987627708,1,2,49,39,18,28,-19,0.47,-0.76,0.11,-28,-0,-1,0.89,0,88,11295,100,26,87,0.5,68.4,657,4.89,12.8,42.6,1,42.8,5.65,29.2,0,0,1,1,0,718,-1,-30694,685,45.69968,4.908657,68.44,194.1,7,3,2.3,0,0.0,-1,0.0,,0.0,0,9.37,12.6924
761563,1622987627728,,,,,,,,0.6,-0.76,-0.07,-28,-1,-0,0.97,,88,11288,100,26,87,0.5,70.1,663,4.85,12.8,42.6,1,42.8,5.65,29.2,0,0,1,1,0,709,-1,-13072,701,,,,,,,,,,,,,,,,
761583,1622987627748,,,,,,,,0.47,-0.73,0.1,-28,-3,-3,0.87,,88,11322,100,26,88,0.5,69.8,662,4.9,12.8,42.6,1,42.9,5.65,29.2,0,0,1,1,0,705,2560,16118,701,,,,,,,,,,,,,,,,
761603,1622987627768,,,,,,,,0.56,-0.84,0.26,-28,-3,-3,1.01,,88,11343,100,26,87,0.5,69.5,665,4.87,12.7,42.7,1,42.8,5.65,29.7,0,0,1,1,0,732,-10346,-23490,695,,,,,,,,,,,,,,,,
761623,1622987627788,,,,,,,,0.43,-0.69,0.07,-28,-1,-1,0.81,,88,11419,100,26,87,0.5,70.1,661,4.88,12.8,42.7,1,42.9,5.65,29.7,0,0,1,1,0,727,-10346,-23490,695,,,,,,,,,,,,,,,,
761643,1622987627806,-0,2,48,37,18,28,-18,0.36,-0.64,-0.1,-27,2,1,0.73,0,87,11538,100,26,87,0.5,71.5,666,4.89,12.7,42.7,1,43.0,5.66,29.7,0,0,1,1,0,712,-10344,-4091,715,45.699699,4.908662,70.44,194.0,7,3,2.3,0,0.0,-1,0.0,0.0,0.0,0,9.37,12.694
761663,1622987627826,,,,,,,,0.49,-0.75,-0.26,-27,2,0,0.9,,87,11581,100,26,87,0.5,71.2,667,4.89,12.7,42.7,1,43.0,5.68,29.7,0,0,1,1,0,712,-10344,-4091,715,,,,,,,,,,,,,,,,
761683,1622987627846,,,,,,,,0.48,-0.83,-0.07,-28,1,-3,0.96,,87,11595,100,26,87,0.5,71.0,665,4.9,12.7,42.7,1,43.0,5.67,29.7,0,0,1,1,0,742,-10554,-2358,713,,,,,,,,,,,,,,,,
761703,1622987627866,,,,,,,,0.36,-0.78,0.1,-27,-1,-5,0.86,,87,11653,100,26,87,0.5,71.9,663,4.9,12.8,43.3,1,43.0,5.71,30.8,0,0,1,1,0,735,-30438,-22796,719,,,,,,,,,,,,,,,,
761723,1622987627886,,,,,,,,0.42,-0.74,0.09,-27,-1,-4,0.85,,87,11748,100,26,87,0.5,72.7,681,4.9,12.7,43.3,1,43.0,5.74,30.8,0,0,1,1,0,734,24,-2826,716,,,,,,,,,,,,,,,,
761743,1622987627906,0,1,48,38,18,28,-16,0.55,-0.69,0.04,-27,-1,-2,0.88,0,87,11755,100,26,87,0.5,72.1,660,4.89,12.8,43.3,1,43.0,5.75,30.8,0,0,1,1,0,741,-10448,-2314,722,45.699715,4.908667,70.64,194.0,7,3,2.3,0,0.0,-1,0.0,,0.0,0,9.37,12.6957
761763,1622987627926,,,,,,,,0.67,-0.62,0.11,-27,-2,-1,0.91,,87,11755,100,26,87,0.5,72.1,668,4.88,12.8,43.3,1,43.0,5.75,30.8,0,0,1,1,0,741,15647,-2826,728,,,,,,,,,,,,,,,,
761783,1622987627946,,,,,,,,0.54,-0.61,0.26,-26,-3,-1,0.81,,87,11740,100,26,87,0.5,72.9,666,4.88,12.7,43.3,1,43.0,5.74,30.8,0,0,1,1,0,738,-3584,-22796,729,,,,,,,,,,,,,,,,
761803,1622987627966,,,,,,,,0.35,-0.64,0.07,-26,-2,-1,0.73,,87,11799,100,26,87,0.5,72.5,663,4.88,12.7,43.3,1,43.0,5.76,31.4,0,0,1,1,0,738,-3584,-22796,729,,,,,,,,,,,,,,,,
761823,1622987627986,,,,,,,,0.18,-0.7,-0.1,-26,-0,-0,0.72,,87,11912,100,26,87,0.5,73.7,666,4.85,12.8,43.3,1,43.0,5.8,31.4,0,0,1,1,0,757,204,-4096,728,,,,,,,,,,,,,,,,
761843,1622987628006,-0,2,48,37,19,28,-13,0.1,-0.81,-0.26,-26,2,0,0.81,0,87,12019,100,26,87,0.5,73.9,667,4.85,12.8,43.3,1,43.0,5.84,31.4,0,0,1,1,0,740,-2560,-31066,735,45.699715,4.908667,70.64,194.0,7,3,2.3,0,0.0,-1,0.0,0.0,0.0,0,9.37,12.6974
761863,1622987628010,,,,,,,,-0.03,-0.84,-0.41,-26,3,1,0.85,,87,12057,100,26,87,0.5,73.6,670,4.89,12.7,43.3,1,43.0,5.84,31.4,0,0,1,1,0,763,-3450,8838,743,,,,,,,,,,,,,,,,
761883,1622987628030,,,,,,,,-0.18,-0.91,-0.54,-25,4,1,0.93,,87,12050,100,26,87,0.5,73.7,669,4.87,12.8,43.3,1,43.0,5.84,31.4,0,0,1,1,0,753,-3344,5876,737,,,,,,,,,,,,,,,,
761903,1622987628050,,,,,,,,-0.29,-0.96,-0.66,-25,4,1,1.01,,87,12011,100,26,86,0.5,74.1,668,4.88,12.7,43.8,1,43.0,5.84,32.5,0,0,1,1,0,753,-3344,5876,737,,,,,,,,,,,,,,,,
761923,1622987628070,,,,,,,,-0.4,-1.05,-0.77,-24,4,1,1.12,,87,12096,100,26,86,0.5,74.9,670,4.88,12.8,43.8,1,43.0,5.7,32.5,0,0,1,1,0,755,-388,13016,741,,,,,,,,,,,,,,,,
761943,1622987628106,1,0,47,36,18,26,-10,-0.46,-1.13,-0.86,-24,4,1,1.22,0,87,12183,100,26,87,0.5,75.0,661,4.91,12.7,43.8,1,43.0,5.84,32.5,0,0,1,1,0,759,-13580,-2344,750,45.699753,4.908683,71.12,193.9,7,3,2.3,0,0.0,-1,0.0,,0.0,0,9.37,12.699
761963,1622987628126,,,,,,,,-0.5,-1.18,-0.76,-23,3,1,1.28,,87,12199,100,26,87,0.5,75.2,667,4.88,12.8,43.8,1,43.0,5.84,32.5,0,0,1,1,0,770,-13580,-10214,755,,,,,,,,,,,,,,,,
761983,1622987628146,,,,,,,,-0.42,-1.1,-0.69,-23,2,2,1.18,,87,12183,100,26,87,0.5,75.6,671,4.88,12.7,43.8,1,43.0,5.84,32.5,0,0,1,1,0,773,10812,-2570,749,,,,,,,,,,,,,,,,
762003,1622987628166,,,,,,,,-0.22,-0.92,-0.51,-22,1,2,0.94,,87,12207,100,26,86,0.5,75.2,662,4.88,12.7,42.8,1,43.0,5.7,32.2,0,0,1,1,0,773,10812,-2570,749,,,,,,,,,,,,,,,,
762023,1622987628186,,,,,,,,-0.03,-0.79,-0.38,-22,1,3,0.79,,87,12254,100,26,87,0.5,76.7,673,4.9,12.7,42.8,1,43.0,5.84,32.2,0,0,1,1,0,776,-4096,-10212,767,,,,,,,,,,,,,,,,
762043,1622987628210,-0,2,45,37,18,26,-11,0.03,-0.62,-0.31,-21,1,2,0.62,0,87,12376,100,26,86,0.5,76.1,668,4.89,12.7,42.8,1,43.0,5.7,32.2,0,0,1,1,0,779,16896,-22795,762,45.699768,4.908694,75.76,193.8,7,3,2.3,0,0.0,-1,0.0,0.0,0.0,0,9.38,12.7007
762063,1622987628230,,,,,,,,0.0,-0.68,-0.12,-21,-1,-0,0.68,,87,12433,100,26,87,0.5,77.1,685,4.88,12.7,42.8,1,43.0,5.84,32.2,0,0,1,1,0,779,16896,-22795,762,,,,,,,,,,,,,,,,
762083,1622987628250,,,,,,,,0.13,-0.77,-0.11,-21,-2,-2,0.78,,87,12458,100,26,87,0.5,76.7,662,4.87,12.7,42.8,1,43.0,5.84,32.2,0,0,1,1,0,781,-3038,6389,767,,,,,,,,,,,,,,,,
762103,1622987628270,,,,,,,,0.25,-0.82,-0.27,-20,0,-2,0.85,,87,12433,100,26,86,0.5,77.7,668,4.86,12.7,42.8,1,43.0,5.7,32.2,0,0,1,1,0,787,6900,5344,763,,,,,,,,,,,,,,,,
762123,1622987628290,,,,,,,,0.15,-0.68,-0.41,-19,3,-1,0.7,,87,12475,100,26,86,0.5,76.5,676,4.88,12.7,42.2,1,43.0,5.7,32.8,0,0,1,1,0,792,-2574,3544,768,,,,,,,,,,,,,,,,
762143,1622987628309,0,1,45,41,18,26,-11,0.1,-0.64,-0.54,-19,5,1,0.65,0,87,12575,100,26,86,0.5,77.6,674,4.88,12.7,42.2,1,43.0,5.7,32.8,0,0,1,1,0,792,-2574,3544,768,45.699787,4.908705,77.67,193.8,7,3,2.3,0,0.0,-1,0.0,,0.0,0,9.38,12.7024
762163,1622987628329,,,,,,,,0.19,-0.76,-0.54,-18,4,-0,0.78,,87,12686,100,26,86,0.5,77.6,675,4.88,12.7,42.2,1,43.0,5.7,32.8,0,0,1,1,0,795,-2826,-7436,775,,,,,,,,,,,,,,,,
762183,1622987628349,,,,,,,,0.33,-0.63,-0.54,-18,1,-3,0.71,,86,12207,100,26,87,0.5,78.6,685,4.96,13.1,42.2,1,43.0,5.84,32.8,0,0,1,1,0,802,7413,-12152,786,,,,,,,,,,,,,,,,
762203,1622987628369,,,,,,,,0.26,-0.65,-0.33,-18,-2,-4,0.7,,86,11726,100,26,88,0.5,77.7,673,4.98,13.0,42.2,1,43.0,5.88,32.8,0,0,1,1,0,783,-2830,-8148,782,,,,,,,,,,,,,,,,
762223,1622987628389,,,,,,,,0.2,-0.76,-0.13,-19,-3,-7,0.79,,86,11446,100,26,90,0.501,78.6,670,4.97,13.0,40.9,1,43.0,6.13,31.8,0,0,1,1,0,773,6389,-10216,786,,,,,,,,,,,,,,,,
762243,1622987628409,-1,2,43,32,22,29,-11,0.22,-0.8,-0.19,-19,-3,-7,0.83,0,86,11207,100,26,90,0.501,77.8,660,4.91,13.0,40.9,1,43.0,6.13,31.8,0,0,1,1,0,773,-10212,-2570,790,45.699802,4.908717,79.83,193.8,7,3,2.3,0,0.0,-1,0.0,0.0,0.0,0,9.38,12.7041
762263,1622987628429,,,,,,,,0.13,-0.72,-0.34,-19,-2,-5,0.73,,86,11003,100,26,90,0.502,77.5,667,4.96,12.9,40.9,1,43.0,6.13,31.8,0,0,1,1,0,771,6389,-10216,775,,,,,,,,,,,,,,,,
762283,1622987628449,,,,,,,,0.29,-0.82,-0.48,-20,-2,-9,0.87,,86,10769,100,26,90,0.502,78.3,655,4.86,12.8,40.9,1,42.3,6.32,31.8,0,0,1,1,0,784,6900,-1566,783,,,,,,,,,,,,,,,,
762303,1622987628469,,,,,,,,0.43,-0.72,-0.59,-20,-1,-7,0.83,,86,10689,100,26,89,0.502,78.5,647,4.88,12.8,40.9,1,41.9,6.22,31.8,0,0,1,1,0,858,-2830,-3450,786,,,,,,,,,,,,,,,,
762323,1622987628489,,,,,,,,0.47,-0.69,-0.71,-20,-0,-5,0.83,,86,10569,100,26,88,0.502,79.0,645,4.88,12.7,39.1,1,41.5,6.15,30.8,0,0,1,1,0,829,-10212,-2830,790,,,,,,,,,,,,,,,,
762343,1622987628509,0,1,43,36,19,29,-9,0.45,-0.71,-0.79,-20,-0,-5,0.84,0,86,10504,100,26,87,0.502,79.4,638,4.88,12.7,39.1,1,41.3,6.04,30.8,0,0,1,1,0,803,-31066,-2358,787,45.699822,4.90873,80.53,193.8,7,3,2.3,0,0.0,-1,0.0,,0.0,0,9.38,12.7057
762363,1622987628529,,,,,,,,0.49,-0.6,-0.89,-20,2,-3,0.78,,86,10451,100,26,87,0.502,79.0,641,4.9,12.8,39.1,1,41.1,6.05,30.8,0,0,1,1,0,818,-3368,-2314,790,,,,,,,,,,,,,,,,
762383,1622987628549,,,,,,,,0.54,-0.41,-0.98,-20,1,-2,0.68,,86,10364,100,26,87,0.502,79.6,643,4.88,12.8,39.1,1,40.8,6.05,30.8,0,0,1,1,0,819,-2570,-13580,796,,,,,,,,,,,,,,,,
762403,1622987628569,,,,,,,,0.63,-0.39,-1.07,-20,0,-1,0.74,,86,10319,100,26,87,0.502,80.6,644,4.89,12.8,35.8,1,40.7,6.05,28.9,0,0,1,1,0,817,-6524,-2830,792,,,,,,,,,,,,,,,,
762423,1622987628589,,,,,,,,0.63,-0.47,-1.01,-20,-1,-2,0.79,,86,10268,100,26,87,0.502,80.5,639,4.85,12.8,35.8,1,40.5,6.05,28.9,0,0,1,1,0,817,3544,-31066,805,,,,,,,,,,,,,,,,
762443,1622987628609,-1,2,45,35,17,26,-7,0.59,-0.6,-1.06,-19,-1,-3,0.84,0,86,10212,100,26,87,0.501,80.9,636,4.9,12.8,35.8,1,40.3,6.05,28.9,0,0,1,1,0,826,-10212,-22796,809,45.699841,4.908745,81.34,193.8,7,3,2.3,0,0.0,-1,0.0,0.0,0.0,0,9.39,12.7074
762463,1622987628629,,,,,,,,0.49,-0.67,-0.81,-19,-2,-1,0.83,,86,10140,100,26,87,0.501,81.4,646,4.88,12.8,35.8,1,40.0,6.05,28.9,0,0,1,1,0,837,-7436,-13068,815,,,,,,,,,,,,,,,,
762483,1622987628649,,,,,,,,0.52,-0.78,-0.7,-18,-1,-1,0.93,,86,10086,100,26,87,0.5,80.3,652,4.9,12.7,35.8,1,39.9,6.05,28.9,0,0,1,1,0,837,-7436,-13068,815,,,,,,,,,,,,,,,,
762503,1622987628669,,,,,,,,0.64,-0.85,-0.8,-18,-2,-2,1.07,,86,10016,100,26,88,0.5,81.1,632,4.86,12.8,35.5,1,39.7,6.21,28.8,0,0,1,1,0,831,-1480,-3344,811,,,,,,,,,,,,,,,,
762523,1622987628689,,,,,,,,0.54,-0.76,-0.57,-18,-2,-2,0.94,,86,9931,100,26,88,0.5,81.9,629,4.86,12.8,35.5,1,39.5,6.19,28.8,0,0,1,1,0,840,28696,-4096,819,,,,,,,,,,,,,,,,
762543,1622987628707,-1,2,46,37,19,25,-9,0.59,-0.83,-0.63,-17,-2,-2,1.02,0,86,9894,100,26,89,0.5,81.7,631,4.91,12.8,35.5,1,39.5,6.32,28.8,0,0,1,1,0,848,3072,-1578,817,45.699856,4.90876,82.97,193.7,7,3,2.3,0,0.0,-1,0.0,,0.0,0,9.39,12.7091
762563,1622987628727,,,,,,,,0.6,-0.9,-0.75,-17,-2,-2,1.08,,86,9868,100,26,89,0.5,82.0,633,4.87,12.8,35.5,1,39.4,6.31,28.8,0,0,1,1,0,842,-1,-2766,820,,,,,,,,,,,,,,,,
762583,1622987628747,,,,,,,,0.55,-0.83,-0.52,-16,-1,-0,1.0,,86,9801,100,26,89,0.5,82.2,632,4.91,12.8,35.5,1,39.3,6.3,28.8,0,0,1,1,0,845,-1,-1576,825,,,,,,,,,,,,,,,,
762603,1622987628767,,,,,,,,0.5,-0.93,-0.36,-16,-0,-2,1.05,,86,9765,100,26,89,0.5,82.1,633,4.91,12.8,34.5,1,39.3,6.29,28.4,0,0,1,1,0,860,-1,-3038,824,,,,,,,,,,,,,,,,
762623,1622987628787,,,,,,,,0.45,-0.81,-0.24,-16,0,-1,0.93,,86,9842,100,26,89,0.5,82.3,642,4.91,12.8,34.5,1,39.4,6.3,28.4,0,0,1,1,0,898,-1,-11532,830,,,,,,,,,,,,,,,,
762643,1622987628809,-0,2,49,45,24,29,-12,0.46,-0.77,-0.39,-16,-1,1,0.9,0,86,10086,100,26,89,0.5,82.9,636,4.89,12.8,34.5,1,40.1,6.37,28.4,0,0,1,1,0,839,-1,-1576,829,45.699875,4.908776,84.77,193.7,7,3,2.3,0,0.0,-1,0.0,0.0,0.0,0,9.39,12.7107
762663,1622987628829,,,,,,,,0.42,-0.79,-0.49,-16,1,-1,0.9,,86,10279,100,26,89,0.5,82.5,649,4.85,12.8,34.5,1,40.7,6.21,28.4,0,0,1,1,0,864,3462,-2570,822,,,,,,,,,,,,,,,,
762683,1622987628849,,,,,,,,0.43,-0.84,-0.37,-16,-1,-5,0.94,,86,10251,100,26,87,0.5,84.8,640,4.88,12.8,34.5,1,40.4,6.05,28.4,0,0,1,1,0,905,-4059,-31068,848,,,,,,,,,,,,,,,,
762703,1622987628869,,,,,,,,0.36,-0.82,-0.18,-17,-2,-4,0.9,,86,10268,100,26,88,0.5,84.3,642,4.88,12.8,34.5,1,40.6,6.21,28.4,0,0,1,1,0,874,-4059,-10508,843,,,,,,,,,,,,,,,,
762723,1622987628889,,,,,,,,0.34,-0.8,0.01,-17,-3,-6,0.87,,86,10251,98,26,87,0.5,84.5,651,4.89,12.8,34.9,1,40.4,6.05,29.5,0,0,1,1,0,874,-4059,-10508,843,,,,,,,,,,,,,,,,
762743,1622987628909,-1,2,49,42,19,27,-7,0.42,-0.79,-0.16,-17,-1,-4,0.89,0,86,10257,94,26,87,0.5,84.5,637,4.91,12.8,34.9,1,40.4,6.05,29.5,0,0,1,1,0,864,-8165,-3450,845,45.699894,4.908793,86.13,193.7,7,3,2.3,0,0.0,-1,0.0,,0.0,0,9.39,12.7124
762763,1622987628929,,,,,,,,0.51,-0.62,-0.28,-16,-0,-4,0.8,,86,10223,89,26,86,0.5,85.3,639,4.86,12.8,34.9,1,40.3,5.9,29.5,0,0,1,1,0,877,30208,-3450,853,,,,,,,,,,,,,,,,
762783,1622987628949,,,,,,,,0.51,-0.58,-0.42,-15,-1,-3,0.77,,86,10201,83,26,87,0.5,85.2,647,4.86,12.8,34.9,1,40.2,6.05,29.5,0,0,1,1,0,871,-1534,-10508,852,,,,,,,,,,,,,,,,
762803,1622987628969,,,,,,,,0.41,-0.5,-0.22,-14,-0,-2,0.65,,86,10223,75,26,87,0.5,85.9,643,4.87,12.8,31.8,1,40.3,5.75,27.2,0,0,1,1,0,877,-2311,3,854,,,,,,,,,,,,,,,,
762823,1622987628989,,,,,,,,0.43,-0.5,-0.04,-14,-1,-1,0.66,,86,10257,71,26,87,0.5,86.3,649,4.91,12.8,31.8,1,40.4,6.05,27.2,0,0,1,1,0,889,-1576,236,863,,,,,,,,,,,,,,,,
762843,1622987628997,1,2,46,41,20,25,-6,0.4,-0.55,-0.17,-14,-0,0,0.68,0,86,10341,67,26,86,0.5,86.0,641,4.9,12.8,31.8,1,40.6,5.75,27.2,0,0,1,1,0,880,13552,16,863,45.699909,4.908813,87.12,193.7,7,3,2.3,0,0.0,-1,0.0,0.0,0.0,0,9.39,12.7141
762863,1622987629017,,,,,,,,0.44,-0.55,-0.26,-14,-1,-0,0.7,,86,10399,63,26,87,0.5,86.6,647,4.88,12.8,31.8,1,40.9,6.05,27.2,0,0,1,1,0,893,8838,771,865,,,,,,,,,,,,,,,,
762883,1622987629037,,,,,,,,0.55,-0.45,-0.41,-13,-0,1,0.71,,86,10359,58,26,86,0.5,86.9,640,4.9,12.8,31.8,1,40.7,5.75,27.2,0,0,1,1,0,895,13049,-5120,869,,,,,,,,,,,,,,,,
762903,1622987629057,,,,,,,,0.6,-0.38,-0.54,-13,0,2,0.72,,86,10319,50,26,86,0.5,86.8,643,4.95,12.8,32.4,1,40.6,5.9,28.2,0,0,1,1,0,895,13049,-5120,869,,,,,,,,,,,,,,,,
762923,1622987629091,,,,,,,,0.59,-0.35,-0.66,-12,0,2,0.68,,86,10324,41,26,85,0.5,86.3,641,4.86,12.8,32.4,1,40.5,5.6,28.2,0,0,1,1,0,899,10686,966,859,,,,,,,,,,,,,,,,
762943,1622987629111,6,2,46,41,19,23,-4,0.53,-0.34,-0.44,-11,-0,2,0.63,0,85,10387,32,26,80,0.5,87.4,642,4.86,12.8,32.4,1,40.6,5.15,28.2,0,0,1,1,0,899,10686,966,859,45.699928,4.908833,89.34,193.7,7,3,2.3,0,0.0,-1,0.0,,0.0,0,9.4,12.7157
762963,1622987629131,,,,,,,,0.5,-0.46,-0.45,-11,-1,-1,0.68,,86,10387,24,26,74,0.5,85.8,635,4.91,12.8,32.4,1,41.0,4.66,28.2,0,0,1,1,0,899,31744,-3092,872,,,,,,,,,,,,,,,,
762983,1622987629151,,,,,,,,0.44,-0.47,-0.25,-10,-1,-3,0.64,,86,10296,19,26,67,0.5,86.5,645,4.88,12.8,32.4,1,41.3,4.1,28.2,0,0,1,1,0,903,-1532,-2068,874,,,,,,,,,,,,,,,,
763003,1622987629171,,,,,,,,0.4,-0.45,-0.06,-10,-2,-3,0.6,,86,10245,13,26,59,0.5,86.1,653,4.9,12.8,19.9,1,41.3,3.63,17.2,0,0,1,1,0,899,10305,-5120,865,,,,,,,,,,,,,,,,
763023,1622987629191,,,,,,,,0.35,-0.38,-0.17,-10,-1,-2,0.51,,86,10184,10,26,53,0.5,85.8,661,4.88,12.8,19.9,1,39.7,3.44,17.2,0,0,1,1,0,890,10686,-14712,865,,,,,,,,,,,,,,,,
763043,1622987629211,23,16,42,37,25,27,-4,0.31,-0.29,-0.32,-9,1,-0,0.42,0,85,10037,5,26,47,0.5,86.7,658,4.95,12.8,19.9,1,38.0,3.19,17.2,0,0,1,1,0,890,10686,-14712,865,45.699947,4.908853,90.34,193.7,7,3,2.3,0,0.0,-1,0.0,0.0,0.0,0,9.4,12.7174
763063,1622987629231,,,,,,,,0.2,-0.27,-0.33,-9,0,-0,0.34,,85,9735,4,26,41,0.5,86.1,653,4.93,12.9,19.9,1,33.5,2.82,17.2,0,0,1,1,0,872,-3368,-31066,861,,,,,,,,,,,,,,,,
763083,1622987629251,,,,,,,,0.18,-0.41,-0.47,-9,3,-0,0.45,,85,9484,4,26,38,0.5,84.1,647,4.93,12.8,19.9,1,31.7,2.71,17.2,0,0,1,1,0,850,-3368,-1576,841,,,,,,,,,,,,,,,,
763103,1622987629271,,,,,,,,0.11,-0.41,-0.44,-9,4,1,0.43,,85,9236,4,26,35,0.5,85.3,636,4.81,12.8,19.9,1,30.8,2.64,17.2,0,0,1,1,0,840,-3368,-3038,851,,,,,,,,,,,,,,,,
763123,1622987629291,,,,,,,,0.0,-0.37,-0.24,-9,4,2,0.37,,85,9014,4,26,32,0.5,84.7,630,4.85,12.8,13.1,1,30.0,2.47,11.2,0,0,1,1,0,824,-1,-2830,842,,,,,,,,,,,,,,,,
763143,1622987629308,41,25,30,24,33,35,-0,0.0,-0.28,-0.08,-9,3,2,0.28,0,85,8819,4,26,31,0.5,83.6,617,4.87,12.9,13.1,1,29.5,2.47,11.2,0,0,1,1,0,819,-1482,-13580,838,45.699966,4.908874,90.99,193.7,7,3,2.3,0,0.0,-1,0.0,,0.0,0,9.4,12.7191
763163,1622987629328,,,,,,,,-0.06,-0.31,-0.14,-8,2,2,0.32,,85,8684,4,26,29,0.5,82.9,610,4.89,12.9,13.1,1,28.7,2.47,11.2,0,0,1,1,0,819,-1482,-13580,838,,,,,,,,,,,,,,,,
763183,1622987629348,,,,,,,,-0.15,-0.45,-0.3,-8,4,3,0.48,,85,8664,4,26,28,0.5,82.2,616,4.9,12.9,13.1,1,28.2,2.47,11.2,0,0,1,1,0,779,2131,-2918,805,,,,,,,,,,,,,,,,
763203,1622987629368,,,,,,,,-0.3,-0.39,-0.37,-8,6,3,0.5,,85,8620,4,26,28,0.5,81.2,624,4.9,12.8,12.2,1,28.2,2.47,9.8,0,0,1,1,0,795,-388,-1566,801,,,,,,,,,,,,,,,,
763223,1622987629388,,,,,,,,-0.35,-0.28,-0.51,-7,5,2,0.45,,85,8616,4,26,27,0.5,81.2,628,4.86,12.8,12.2,1,27.8,2.47,9.8,0,0,1,1,0,777,-9211,-2766,813,,,,,,,,,,,,,,,,
763243,1622987629408,40,22,21,18,36,38,1,-0.3,-0.2,-0.48,-6,3,3,0.36,0,85,8620,4,26,27,0.5,80.1,616,4.91,12.9,12.2,1,27.8,2.47,9.8,0,0,1,1,0,725,-13072,-4096,804,45.699982,4.908896,89.26,193.7,7,3,2.3,0,0.0,-1,0.0,0.0,0.0,0,9.4,12.7207
763263,1622987629428,,,,,,,,-0.42,-0.31,-0.54,-5,3,3,0.52,,85,8499,4,26,26,0.5,80.1,610,4.91,12.9,12.2,1,27.4,2.46,9.8,0,0,1,1,0,725,-13072,-4096,804,,,,,,,,,,,,,,,,
763283,1622987629448,,,,,,,,-0.48,-0.15,-0.48,-5,2,2,0.51,,85,8238,4,26,26,0.5,77.2,597,4.93,12.8,12.2,1,27.3,2.27,9.8,0,0,1,1,0,774,-1481,-2918,772,,,,,,,,,,,,,,,,
763303,1622987629468,,,,,,,,-0.59,-0.21,-0.61,-4,1,2,0.62,,85,8106,4,25,25,0.5,78.1,578,4.85,12.9,10.4,1,27.0,2.18,8.1,0,0,1,1,0,756,-10212,-2766,781,,,,,,,,,,,,,,,,
763323,1622987629488,,,,,,,,-0.61,-0.2,-0.67,-3,1,2,0.64,,85,8113,4,25,25,0.5,77.0,583,4.98,12.9,10.4,1,27.0,2.19,8.1,0,0,1,1,0,755,-10214,-31066,770,,,,,,,,,,,,,,,,
763343,1622987629508,45,27,17,14,37,36,4,-0.69,-0.28,-0.6,-3,0,2,0.75,0,85,8061,4,25,25,0.5,77.2,573,4.9,12.9,10.4,1,27.0,2.15,8.1,0,0,1,1,0,755,-10214,-31066,770,45.699997,4.908916,85.52,193.7,7,3,2.3,0,0.0,-1,0.0,,0.0,0,9.41,12.7224
763363,1622987629528,,,,,,,,-0.76,-0.39,-0.71,-2,2,2,0.85,,85,8016,11,25,26,0.5,76.6,565,4.97,12.9,10.4,1,27.2,2.1,8.1,0,0,1,1,0,722,-2826,-2826,745,,,,,,,,,,,,,,,,
763383,1622987629548,,,,,,,,-0.82,-0.35,-0.72,-2,1,2,0.89,,85,7985,20,25,30,0.5,75.2,567,4.94,13.1,10.4,1,28.4,2.18,8.1,0,0,1,1,0,714,-31068,6658,741,,,,,,,,,,,,,,,,
763403,1622987629568,,,,,,,,-0.9,-0.31,-0.69,-1,1,1,0.95,,85,7968,29,25,38,0.5,72.3,546,4.96,13.0,10.4,1,30.7,2.48,8.1,0,0,1,1,0,724,-1,14342,730,,,,,,,,,,,,,,,,
763423,1622987629588,,,,,,,,-0.93,-0.33,-0.79,-1,3,1,0.99,,85,7941,32,25,49,0.501,70.9,553,4.94,13.0,12.4,1,36.5,2.65,9.1,0,0,1,1,0,711,-1481,-3038,716,,,,,,,,,,,,,,,,
763443,1622987629608,48,28,16,16,38,36,3,-0.93,-0.24,-0.85,-0,3,2,0.96,0,85,7901,32,25,59,0.501,71.4,552,4.96,13.0,12.4,1,37.5,2.79,9.1,0,0,1,1,0,711,-1481,-3038,716,45.700012,4.908935,81.55,193.7,7,3,2.3,0,0.0,-1,0.0,0.0,0.0,0,9.41,12.724
763463,1622987629628,,,,,,,,-0.94,-0.13,-0.73,0,1,1,0.95,,85,7786,32,25,67,0.502,70.4,536,4.9,12.8,12.4,1,38.7,3.88,9.1,0,0,1,1,0,676,-6644,24,706,,,,,,,,,,,,,,,,
763483,1622987629648,,,,,,,,-0.98,-0.2,-0.61,0,1,-1,1.0,,85,7603,28,25,72,0.502,70.6,540,4.9,12.9,12.4,1,39.9,4.37,9.1,0,0,1,1,0,680,14342,3403,689,,,,,,,,,,,,,,,,
763503,1622987629668,,,,,,,,-0.97,-0.27,-0.4,1,-2,-3,1.01,,85,7581,22,25,73,0.502,69.6,529,4.87,12.6,22.1,1,40.2,4.4,15.4,0,0,1,1,0,682,16599,8488,696,,,,,,,,,,,,,,,,
763523,1622987629688,,,,,,,,-0.97,-0.13,-0.42,1,-1,-3,0.98,,85,7835,20,25,72,0.502,66.3,525,4.88,13.0,22.1,1,39.1,4.31,15.4,0,0,1,1,0,682,16599,8488,696,,,,,,,,,,,,,,,,
763543,1622987629710,52,31,15,17,40,38,-0,-0.94,-0.13,-0.55,1,-1,-1,0.95,0,85,8256,18,25,69,0.502,68.1,551,4.87,12.9,22.1,1,40.8,3.67,15.4,0,0,1,1,0,613,-26562,2524,663,45.700027,4.908955,77.37,193.9,7,3,2.3,0,0.0,-1,0.0,,0.0,0,9.41,12.7257
763563,1622987629730,,,,,,,,-1.03,-0.14,-0.67,1,-0,-1,1.04,,85,8937,18,25,65,0.502,66.3,582,4.93,12.9,22.1,1,41.0,3.6,15.4,0,0,1,1,0,584,-27404,-10483,654,,,,,,,,,,,,,,,,
763583,1622987629750,,,,,,,,-1.02,-0.14,-0.72,1,1,-1,1.03,,85,9309,17,25,59,0.502,66.3,604,4.92,12.8,22.1,1,40.5,3.46,15.4,0,0,1,1,0,584,-27404,-10483,654,,,,,,,,,,,,,,,,
763603,1622987629770,,,,,,,,-1.0,-0.13,-0.5,1,-2,-3,1.01,,85,9615,17,25,56,0.502,64.1,620,4.86,12.8,24.4,1,40.3,3.54,15.7,0,0,1,1,0,631,14054,-16384,641,,,,,,,,,,,,,,,,
763623,1622987629791,,,,,,,,-1.04,-0.05,-0.62,1,-1,-3,1.04,,85,9821,16,25,52,0.501,63.9,635,4.95,12.9,24.4,1,39.4,3.43,15.7,0,0,1,1,0,627,-1482,3826,639,,,,,,,,,,,,,,,,
763643,1622987629811,52,30,15,15,41,38,-3,-1.07,-0.19,-0.74,1,0,-1,1.08,0,85,9806,15,25,49,0.501,62.8,632,4.84,12.9,24.4,1,38.5,3.25,15.7,0,0,1,1,0,624,-16046,11560,630,45.700043,4.908972,72.89,193.9,7,3,2.3,0,0.0,-1,0.0,0.0,0.0,0,9.41,12.7274
763663,1622987629831,,,,,,,,-1.08,-0.17,-0.69,0,0,-2,1.1,,85,9460,14,25,46,0.501,62.4,623,4.84,12.9,24.4,1,37.1,3.02,15.7,0,0,1,1,0,635,-16883,-10344,624,,,,,,,,,,,,,,,,
763683,1622987629851,,,,,,,,-1.0,-0.21,-0.8,-1,1,-1,1.02,,85,9417,13,25,43,0.5,61.2,628,4.92,12.8,24.4,1,34.9,2.92,15.7,0,0,1,1,0,635,-16883,-10344,624,,,,,,,,,,,,,,,,
763703,1622987629871,,,,,,,,-1.02,-0.27,-0.6,-1,-0,-2,1.05,,85,9561,10,25,41,0.5,60.8,629,4.85,12.9,20.8,1,33.5,2.87,12.7,0,0,1,1,0,628,17740,771,612,,,,,,,,,,,,,,,,
763723,1622987629891,,,,,,,,-1.06,-0.36,-0.72,-2,0,-3,1.12,,85,9664,10,25,38,0.5,61.0,633,4.93,12.9,20.8,1,31.7,2.78,12.7,0,0,1,1,0,582,21760,23619,610,,,,,,,,,,,,,,,,
763743,1622987629908,51,29,17,14,39,38,-7,-1.03,-0.49,-0.83,-3,0,-2,1.14,0,85,9537,10,25,35,0.5,60.6,636,4.92,12.9,20.8,1,30.8,2.68,12.7,0,0,1,1,0,588,208,-4035,606,45.700054,4.908988,68.71,193.9,7,3,2.3,0,0.0,-1,0.0,,0.0,0,9.42,12.729
763763,1622987629928,,,,,,,,-1.08,-0.28,-0.6,-4,-1,-4,1.11,,85,9218,10,25,33,0.5,59.5,638,4.8,12.9,20.8,1,30.2,2.55,12.7,0,0,1,1,0,585,208,23619,590,,,,,,,,,,,,,,,,
763783,1622987629948,,,,,,,,-1.13,-0.16,-0.39,-5,-3,-5,1.14,,85,9018,10,25,32,0.5,59.1,621,4.83,12.8,20.8,1,30.0,2.51,12.7,0,0,1,1,0,569,-24064,-32504,588,,,,,,,,,,,,,,,,
763803,1622987629968,,,,,,,,-1.13,-0.05,-0.36,-6,-3,-4,1.13,,85,8815,10,25,32,0.5,59.0,602,4.91,12.9,16.9,1,30.0,2.47,10.0,0,0,1,1,0,548,-24064,-25872,582,,,,,,,,,,,,,,,,
763823,1622987629988,,,,,,,,-1.12,-0.04,-0.33,-8,-3,-3,1.12,,85,8589,9,25,31,0.5,58.4,588,4.81,12.9,16.9,1,29.5,2.47,10.0,0,0,1,1,0,530,-24064,-8186,584,,,,,,,,,,,,,,,,
763843,1622987630008,50,30,18,13,38,40,-8,-1.13,-0.2,-0.43,-10,-2,-3,1.15,0,85,8322,9,25,31,0.5,57.0,562,4.94,12.9,16.9,1,29.2,2.29,10.0,0,0,1,1,0,530,-24064,-8186,584,45.700054,4.908988,68.71,193.9,7,3,2.3,0,0.0,-1,0.0,0.0,0.0,0,9.42,12.7307
763863,1622987630010,,,,,,,,-1.09,-0.18,-0.43,-11,-3,-2,1.1,,85,8085,9,25,31,0.5,56.2,567,4.91,12.8,16.9,1,28.8,2.06,10.0,0,0,1,1,0,459,14504,6274,568,,,,,,,,,,,,,,,,
763883,1622987630030,,,,,,,,-1.11,-0.27,-0.43,-13,-3,-3,1.15,,85,7918,9,25,31,0.5,55.9,547,4.93,13.0,16.9,1,28.7,1.99,10.0,0,0,1,1,0,439,-3856,2104,559,,,,,,,,,,,,,,,,
763903,1622987630050,,,,,,,,-1.11,-0.41,-0.56,-14,-0,-1,1.18,,85,7690,9,25,31,0.5,55.0,535,4.9,13.0,16.9,1,28.6,1.99,10.0,0,0,1,1,0,397,-1562,-506,550,,,,,,,,,,,,,,,,
763923,1622987630070,,,,,,,,-1.16,-0.41,-0.68,-16,-0,-1,1.24,,85,7452,9,25,31,0.5,55.0,526,4.96,12.9,12.9,1,28.6,1.99,7.1,0,0,1,1,0,397,-1562,-506,550,,,,,,,,,,,,,,,,
763943,1622987630108,48,28,20,14,39,42,-0,-1.16,-0.48,-0.75,-17,0,-1,1.26,0,85,7170,9,25,32,0.5,53.7,509,4.88,12.9,12.9,1,29.0,1.96,7.1,0,0,1,1,0,371,-1,14504,537,45.700081,4.909018,61.16,193.8,7,3,2.3,0,0.0,-1,0.0,,0.0,0,9.42,12.7324
763963,1622987630128,,,,,,,,-1.17,-0.5,-0.52,-18,-2,-2,1.27,,85,6954,9,25,32,0.5,52.3,493,4.9,12.8,12.9,1,28.9,1.96,7.1,0,0,1,1,0,371,-1,14504,537,,,,,,,,,,,,,,,,
763983,1622987630148,,,,,,,,-1.17,-0.42,-0.65,-19,1,1,1.25,,85,6761,9,25,33,0.5,52.1,481,4.95,13.0,12.9,1,29.0,2.01,7.1,0,0,1,1,0,372,-1562,-4054,519,,,,,,,,,,,,,,,,
764003,1622987630168,,,,,,,,-1.13,-0.45,-0.43,-19,-2,-1,1.21,,85,6574,9,25,33,0.5,50.7,487,4.92,12.8,12.9,1,28.9,2.01,7.1,0,0,1,1,0,338,10305,2524,508,,,,,,,,,,,,,,,,
764023,1622987630188,,,,,,,,-1.18,-0.48,-0.56,-19,0,-0,1.27,,85,6472,9,25,34,0.5,50.1,460,4.92,13.0,12.0,1,29.0,2.06,6.1,0,0,1,1,0,338,10305,2524,508,,,,,,,,,,,,,,,,
764043,1622987630208,44,27,19,14,40,42,10,-1.2,-0.42,-0.68,-19,2,3,1.27,0,85,6283,9,25,34,0.5,48.9,446,4.93,13.0,12.0,1,28.9,2.06,6.1,0,0,1,1,0,296,-25600,1,489,45.700088,4.909033,57.37,193.8,7,3,2.3,0,0.0,-1,0.0,0.0,0.0,0,9.42,12.734
764063,1622987630228,,,,,,,,-1.14,-0.37,-0.45,-18,1,3,1.2,,85,6067,9,25,35,0.5,48.3,427,4.96,13.0,12.0,1,29.0,2.11,6.1,0,0,1,1,0,296,-25600,1,489,,,,,,,,,,,,,,,,
764083,1622987630248,,,,,,,,-1.08,-0.28,-0.25,-17,1,2,1.11,,85,5819,9,25,37,0.5,46.8,410,4.98,13.0,12.0,1,28.8,2.26,6.1,0,0,1,1,0,283,12552,16648,468,,,,,,,,,,,,,,,,
764103,1622987630268,,,,,,,,-1.15,-0.25,-0.39,-15,4,4,1.18,,85,5612,9,25,38,0.5,47.0,407,4.94,13.0,12.0,1,28.5,2.38,6.1,0,0,1,1,0,268,-26615,-3210,463,,,,,,,,,,,,,,,,
764123,1622987630288,,,,,,,,-1.17,-0.25,-0.53,-14,7,7,1.19,,85,5419,9,25,40,0.5,46.2,394,4.88,12.8,13.1,1,28.6,2.53,6.1,0,0,1,1,0,268,-26615,-3210,463,,,,,,,,,,,,,,,,
764143,1622987630307,43,23,18,14,40,42,14,-1.09,-0.25,-0.32,-13,1,3,1.12,0,85,5275,9,25,41,0.5,45.2,370,5.0,13.0,13.1,1,28.5,2.59,6.1,0,0,1,1,0,215,-6387,-28332,450,45.7001,4.909047,54.0,193.8,7,3,2.3,0,0.0,-1,0.0,,0.0,0,9.42,12.7357
764163,1622987630327,,,,,,,,-1.14,-0.22,-0.46,-11,5,7,1.16,,85,5075,9,25,43,0.5,44.3,371,4.9,12.8,13.1,1,28.6,2.69,6.1,0,0,1,1,0,208,-18341,13180,437,,,,,,,,,,,,,,,,
764183,1622987630347,,,,,,,,-1.14,-0.14,-0.25,-9,3,4,1.15,,85,4923,9,25,44,0.5,43.9,358,4.95,12.9,13.1,1,27.8,2.71,6.1,0,0,1,1,0,206,-28332,3826,435,,,,,,,,,,,,,,,,
764203,1622987630367,,,,,,,,-1.13,-0.09,-0.06,-8,0,2,1.13,,85,4768,9,25,46,0.5,43.1,343,4.93,13.1,13.4,1,26.5,2.66,5.8,0,0,1,1,0,203,-3314,-3414,431,,,,,,,,,,,,,,,,
764223,1622987630387,,,,,,,,-1.06,-0.06,-0.23,-7,-0,1,1.06,,85,4627,9,25,47,0.5,43.1,330,4.95,13.1,13.4,1,25.1,2.63,5.8,0,0,1,1,0,205,-3414,18584,418,,,,,,,,,,,,,,,,
764243,1622987630407,38,21,17,15,40,40,9,-1.01,-0.05,-0.37,-5,-1,1,1.01,0,85,4520,9,25,48,0.5,41.2,319,4.95,13.1,13.4,1,24.0,2.57,5.8,0,0,1,1,0,219,13040,-26615,407,45.700108,4.909059,49.84,193.8,7,3,2.3,0,0.0,-1,0.0,0.0,0.0,0,9.42,12.7374
764263,1622987630427,,,,,,,,-0.98,-0.02,-0.51,-4,-1,1,0.98,,85,4411,9,25,49,0.5,41.2,312,4.93,13.1,13.4,1,23.0,2.51,5.8,0,0,1,1,0,211,13040,-26615,407,,,,,,,,,,,,,,,,
764283,1622987630447,,,,,,,,-0.94,0.03,-0.58,-3,-2,1,0.94,,85,4331,9,25,49,0.5,41.1,307,4.95,13.1,13.4,1,22.0,2.47,5.8,0,0,1,1,0,211,13040,-32702,409,,,,,,,,,,,,,,,,
764303,1622987630467,,,,,,,,-0.96,0.07,-0.36,-2,-4,-1,0.96,,85,4288,9,25,50,0.501,39.6,303,4.91,13.0,12.1,1,21.8,2.45,4.8,0,0,1,1,0,263,-32702,-6475,394,,,,,,,,,,,,,,,,
764323,1622987630487,,,,,,,,-1.02,0.1,-0.17,-1,-5,-1,1.02,,85,4381,9,25,51,0.501,38.3,308,4.87,13.0,12.1,1,23.1,2.5,4.8,0,0,1,1,0,263,-32702,-6475,394,,,,,,,,,,,,,,,,
764343,1622987630507,21,12,16,17,40,38,11,-1.06,0.16,0.01,1,-6,-2,1.08,0,85,4570,9,25,52,0.501,38.7,316,4.89,12.8,12.1,1,25.8,2.62,4.8,0,0,1,1,0,332,240,-20736,385,45.700115,4.909071,46.09,193.8,7,3,2.3,0,0.0,-1,0.0,,0.0,0,9.43,12.739
764363,1622987630527,,,,,,,,-1.09,0.24,0.18,1,-7,-3,1.12,,85,4642,9,25,52,0.501,39.1,323,4.88,12.9,12.1,1,26.7,2.67,4.8,0,0,1,1,0,365,-3866,25600,380,,,,,,,,,,,,,,,,
764383,1622987630547,,,,,,,,-1.03,0.25,0.33,2,-8,-5,1.06,,85,4853,9,25,53,0.501,37.9,325,4.95,13.1,12.1,1,29.6,2.82,4.8,0,0,1,1,0,368,250,95,379,,,,,,,,,,,,,,,,
764403,1622987630567,,,,,,,,-1.02,0.2,0.14,3,-8,-3,1.04,,85,4973,9,25,54,0.501,37.9,344,4.97,13.0,12.1,1,31.4,2.91,4.8,0,0,1,1,0,372,8200,170,371,,,,,,,,,,,,,,,,
764423,1622987630587,,,,,,,,-1.04,0.25,0.15,4,-6,-2,1.07,,85,5172,9,25,54,0.501,37.4,360,4.88,12.8,18.0,1,31.9,2.84,6.7,0,0,1,1,0,373,742,-14707,363,,,,,,,,,,,,,,,,
764443,1622987630607,9,4,16,21,39,34,22,-0.92,0.34,0.3,5,-8,-4,0.98,0,85,5296,10,25,55,0.501,37.1,366,4.93,13.0,18.0,1,32.2,2.74,6.7,0,0,1,1,0,373,742,-14707,363,45.700127,4.909083,42.55,193.8,7,3,2.3,0,0.0,-1,0.0,0.0,0.0,0,9.43,12.7407
764463,1622987630627,,,,,,,,-0.95,0.4,0.11,6,-6,-2,1.04,,85,5472,10,25,55,0.501,37.1,380,4.93,13.0,18.0,1,32.3,2.62,6.7,0,0,1,1,0,364,257,2811,357,,,,,,,,,,,,,,,,
764483,1622987630647,,,,,,,,-0.98,0.4,-0.06,8,-4,0,1.06,,85,5681,10,25,56,0.501,37.1,394,4.9,12.9,18.0,1,32.7,2.47,6.7,0,0,1,1,0,365,257,-122,347,,,,,,,,,,,,,,,,
764503,1622987630667,,,,,,,,-0.85,0.41,0.11,10,-8,-3,0.95,,85,5749,10,25,56,0.501,37.1,410,4.88,12.9,18.8,1,32.7,2.43,6.4,0,0,1,1,0,365,257,-122,347,,,,,,,,,,,,,,,,
764523,1622987630687,,,,,,,,-0.72,0.43,0.27,13,-11,-3,0.84,,85,5779,10,25,56,0.501,33.8,398,4.96,13.0,18.8,1,32.8,2.41,6.4,0,0,1,1,0,371,-1,13,338,,,,,,,,,,,,,,,,
764543,1622987630707,5,2,16,30,40,30,52,-0.66,0.46,0.37,16,-12,-3,0.8,0,85,5839,10,25,56,0.501,33.6,407,4.97,13.0,18.8,1,32.8,2.37,6.4,0,0,1,1,0,371,-1,13,338,45.70013,4.909093,39.49,193.8,7,3,2.3,0,0.0,-1,0.0,,0.0,0,9.43,12.7424
764563,1622987630727,,,,,,,,-0.66,0.56,0.17,19,-9,-1,0.87,,85,5850,10,25,56,0.501,33.2,407,4.96,13.0,18.8,1,32.8,2.36,6.4,0,0,1,1,0,371,-1,-20736,332,,,,,,,,,,,,,,,,
764583,1622987630747,,,,,,,,-0.7,0.64,-0.01,22,-5,1,0.95,,85,5874,10,25,56,0.5,32.9,409,4.92,13.0,18.8,1,32.8,2.35,6.4,0,0,1,1,0,371,-1,175,329,,,,,,,,,,,,,,,,
764603,1622987630767,,,,,,,,-0.74,0.75,-0.18,25,-2,3,1.06,,85,5850,10,25,56,0.501,32.8,408,4.98,13.0,19.5,1,32.8,2.37,6.4,0,0,1,1,0,371,-1,175,329,,,,,,,,,,,,,,,,
764623,1622987630787,,,,,,,,-0.77,0.78,-0.33,28,1,4,1.09,,85,5866,10,25,56,0.5,36.2,412,4.96,13.0,19.5,1,32.8,2.35,6.4,0,0,1,1,0,371,2790,170,328,,,,,,,,,,,,,,,,
764643,1622987630807,1,1,19,36,41,28,60,-0.74,0.86,-0.47,31,3,5,1.14,0,85,5885,10,25,56,0.5,36.2,415,4.9,13.0,19.5,1,32.9,2.34,6.4,0,0,1,1,0,371,2790,-20736,324,45.700138,4.909102,36.68,193.8,7,3,2.3,0,0.0,-1,0.0,0.0,0.0,0,9.43,12.7441
764663,1622987630827,,,,,,,,-0.78,0.96,-0.59,34,3,5,1.24,,85,5896,10,25,56,0.5,36.2,426,4.87,12.9,19.5,1,32.9,2.33,6.4,0,0,1,1,0,370,2790,175,324,,,,,,,,,,,,,,,,
764683,1622987630847,,,,,,,,-0.78,1.04,-0.71,36,2,3,1.3,,85,5883,10,25,56,0.5,36.2,429,4.92,12.9,19.5,1,32.9,2.34,6.4,0,0,1,1,0,368,2790,-6528,319,,,,,,,,,,,,,,,,
764703,1622987630867,,,,,,,,-0.75,1.1,-0.82,39,-1,2,1.33,,85,5846,10,25,56,0.5,36.2,426,4.88,12.8,20.1,1,32.8,2.36,6.4,0,0,1,1,0,369,2790,-122,318,,,,,,,,,,,,,,,,
764723,1622987630887,,,,,,,,-0.68,1.11,-0.67,41,-4,-1,1.3,,85,5813,10,25,56,0.5,36.2,415,4.88,13.0,20.1,1,32.8,2.38,6.4,0,0,1,1,0,367,2790,-29978,319,,,,,,,,,,,,,,,,
764743,1622987630907,0,2,20,35,42,28,56,-0.57,1.0,-0.44,43,-7,-2,1.15,0,85,5732,10,25,57,0.5,36.2,408,4.98,13.1,20.1,1,33.0,2.43,6.4,0,0,1,1,0,367,2790,-992,317,45.700146,4.909111,35.08,193.7,7,3,2.3,0,0.0,-1,0.0,,0.0,0,9.43,12.7457
764763,1622987630927,,,,,,,,-0.5,0.95,-0.24,46,-4,0,1.07,,85,5714,10,25,57,0.5,32.0,407,4.99,13.1,20.1,1,33.0,2.44,6.4,0,0,1,1,0,367,2790,-992,317,,,,,,,,,,,,,,,,
764783,1622987630947,,,,,,,,-0.53,0.95,-0.39,47,0,3,1.09,,85,5742,10,25,57,0.5,31.7,415,4.98,13.0,20.1,1,33.0,2.42,6.4,0,0,1,1,0,362,-1281,-6656,313,,,,,,,,,,,,,,,,
764803,1622987630967,,,,,,,,-0.59,0.98,-0.52,48,1,4,1.15,,85,5746,10,25,58,0.5,36.9,411,4.91,12.9,20.0,1,33.2,2.41,6.4,0,0,1,1,0,362,-6656,-30454,319,,,,,,,,,,,,,,,,
764823,1622987630987,,,,,,,,-0.59,1.0,-0.64,49,-2,0,1.16,,86,5781,10,26,58,0.5,36.8,412,4.9,13.0,20.0,1,33.3,2.39,6.4,0,0,1,1,0,362,0,4838,315,,,,,,,,,,,,,,,,
764843,1622987630991,1,1,22,35,41,28,43,-0.53,1.06,-0.42,49,-5,-3,1.19,0,86,5742,10,26,58,0.5,36.8,409,4.93,12.9,20.0,1,33.2,2.41,6.4,0,0,1,1,0,359,0,4838,320,45.700153,4.909118,34.36,193.6,7,3,2.3,0,0.0,-1,0.0,0.0,0.0,0,9.43,12.7474
764863,1622987631011,,,,,,,,-0.39,1.04,-0.22,49,-7,-3,1.11,,85,5659,10,26,58,0.5,36.8,398,4.96,13.0,20.0,1,33.2,2.47,6.4,0,0,1,1,0,359,0,4838,320,,,,,,,,,,,,,,,,
764883,1622987631031,,,,,,,,-0.35,0.98,-0.35,49,-2,0,1.04,,86,5547,10,26,58,0.5,36.8,396,4.9,13.0,20.0,1,33.2,2.54,6.4,0,0,1,1,0,356,0,-30438,323,,,,,,,,,,,,,,,,
764903,1622987631051,,,,,,,,-0.35,0.91,-0.48,48,-3,-1,0.97,,86,5434,10,26,59,0.5,36.8,391,4.89,12.8,20.0,1,33.4,2.6,6.5,0,0,1,1,0,356,0,3346,325,,,,,,,,,,,,,,,,
764923,1622987631071,,,,,,,,-0.24,0.88,-0.28,47,-7,-4,0.92,,86,5361,10,26,59,0.5,32.7,377,5.01,13.1,20.0,1,33.4,2.65,6.5,0,0,1,1,0,355,-1281,-12032,327,,,,,,,,,,,,,,,,
764943,1622987631105,1,1,28,38,37,28,24,-0.26,0.85,-0.42,47,-2,-0,0.89,0,86,5266,9,26,60,0.5,32.4,376,4.9,12.9,20.0,1,33.7,2.7,6.5,0,0,1,1,0,351,-1281,175,324,45.700161,4.909124,34.84,193.7,7,3,2.3,0,0.0,-1,0.0,,0.0,0,9.43,12.7491
764963,1622987631125,,,,,,,,-0.12,0.81,-0.22,45,-8,-6,0.82,,86,5214,9,26,60,0.5,35.5,367,5.01,13.1,20.0,1,33.7,2.74,6.5,0,0,1,1,0,350,2060,170,323,,,,,,,,,,,,,,,,
764983,1622987631145,,,,,,,,-0.17,0.77,-0.37,43,-2,-2,0.79,,86,5189,9,26,60,0.5,35.5,373,4.88,12.9,20.0,1,33.7,2.75,6.5,0,0,1,1,0,349,2060,-20736,328,,,,,,,,,,,,,,,,
765003,1622987631165,,,,,,,,-0.1,0.74,-0.17,41,-6,-5,0.75,,86,5191,9,26,60,0.5,35.5,362,5.01,13.1,20.0,1,33.7,2.75,6.5,0,0,1,1,0,346,2060,-20736,327,,,,,,,,,,,,,,,,
765023,1622987631185,,,,,,,,-0.13,0.66,-0.32,40,-2,-2,0.67,,86,5152,9,26,60,0.5,35.5,371,4.89,12.9,20.1,1,33.7,2.77,6.6,0,0,1,1,0,343,2060,-12032,330,,,,,,,,,,,,,,,,
765043,1622987631207,-0,2,28,34,31,32,8,-0.08,0.6,-0.13,37,-4,-4,0.6,0,86,5198,9,26,60,0.5,35.5,360,5.0,13.1,20.1,1,33.7,2.75,6.6,0,0,1,1,0,343,2060,-12032,330,45.700169,4.90913,34.51,193.5,7,3,2.3,0,0.0,-1,0.0,0.0,0.0,0,9.43,12.7507
765063,1622987631227,,,,,,,,-0.1,0.51,-0.28,35,-2,-3,0.52,,86,5214,9,26,60,0.5,35.5,359,4.93,13.0,20.1,1,33.7,2.74,6.6,0,0,1,1,0,341,2060,-32559,329,,,,,,,,,,,,,,,,
765083,1622987631247,,,,,,,,-0.07,0.46,-0.09,33,-2,-4,0.46,,86,5234,9,26,60,0.5,35.5,370,4.95,13.0,20.1,1,33.7,2.73,6.6,0,0,1,1,0,341,2060,-6528,332,,,,,,,,,,,,,,,,
765103,1622987631267,,,,,,,,-0.09,0.34,-0.25,31,-2,-5,0.35,,86,5250,9,26,60,0.5,35.5,380,4.88,12.9,19.8,1,33.7,2.71,6.6,0,0,1,1,0,338,2060,3346,335,,,,,,,,,,,,,,,,
765123,1622987631287,,,,,,,,-0.07,0.26,-0.06,28,-2,-5,0.27,,86,5271,9,26,60,0.5,35.5,375,5.0,13.0,19.8,1,33.7,2.7,6.6,0,0,1,1,0,335,2060,13,334,,,,,,,,,,,,,,,,
765143,1622987631304,-0,2,29,36,27,35,-25,-0.13,0.12,-0.23,25,-0,-6,0.18,0,86,5286,9,26,60,0.5,35.5,372,4.91,12.9,19.8,1,33.7,2.67,6.6,0,0,1,1,0,333,2060,-122,337,45.700176,4.909134,34.64,193.5,7,3,2.3,0,0.0,-1,0.0,,0.0,0,9.43,12.7524
765163,1622987631324,,,,,,,,-0.06,0.03,-0.04,22,-2,-8,0.07,,86,5296,9,26,60,0.5,33.8,370,4.96,13.0,19.8,1,33.7,2.69,6.6,0,0,1,1,0,330,-31222,-122,337,,,,,,,,,,,,,,,,
765183,1622987631344,,,,,,,,-0.13,-0.09,-0.2,17,0,-7,0.16,,86,5281,7,26,60,0.5,34.1,366,4.89,13.0,19.8,1,33.7,2.7,6.6,0,0,1,1,0,325,-31222,6870,341,,,,,,,,,,,,,,,,
765203,1622987631364,,,,,,,,-0.08,-0.18,-0.02,13,-3,-10,0.2,,86,5290,7,26,60,0.5,34.5,367,4.96,13.1,19.8,1,33.7,2.69,6.6,0,0,1,1,0,320,-27136,6870,345,,,,,,,,,,,,,,,,
765223,1622987631384,,,,,,,,-0.15,-0.26,-0.18,8,2,-7,0.31,,86,5263,7,26,59,0.5,34.6,366,4.93,13.0,18.8,1,33.4,2.72,6.5,0,0,1,1,0,317,-30976,6870,346,,,,,,,,,,,,,,,,
765243,1622987631408,1,2,36,29,26,41,-77,-0.11,-0.27,-0.0,3,-3,-11,0.3,0,86,5221,7,26,59,0.5,34.5,368,4.99,13.1,18.8,1,33.4,2.74,6.5,0,0,1,1,0,317,28160,-30438,345,45.700184,4.909139,31.89,193.3,7,3,2.3,0,0.0,-1,0.0,0.0,0.0,0,9.44,12.7541
765263,1622987631428,,,,,,,,-0.17,-0.35,-0.17,-2,1,-7,0.39,,86,5186,7,26,59,0.5,34.2,366,4.9,13.0,18.8,1,33.4,2.77,6.5,0,0,1,1,0,319,26880,6870,342,,,,,,,,,,,,,,,,
765283,1622987631448,,,,,,,,-0.17,-0.48,0.01,-7,-0,-9,0.51,,86,5115,7,26,58,0.5,34.3,362,5.01,13.1,18.8,1,33.0,2.83,6.5,0,0,1,1,0,319,26880,6870,342,,,,,,,,,,,,,,,,
765303,1622987631468,,,,,,,,-0.16,-0.6,-0.16,-12,1,-8,0.62,,86,5088,7,26,58,0.5,34.2,355,4.93,13.1,19.7,1,33.0,2.85,6.7,0,0,1,1,0,323,24320,6870,342,,,,,,,,,,,,,,,,
765323,1622987631488,,,,,,,,-0.21,-0.65,0.02,-16,2,-7,0.68,,86,4998,7,26,57,0.5,34.1,357,4.9,12.9,19.7,1,32.6,2.9,6.7,0,0,1,1,0,324,0,-14714,341,,,,,,,,,,,,,,,,
765343,1622987631508,-0,2,37,21,29,41,-90,-0.21,-0.72,0.19,-21,0,-9,0.75,0,86,4952,7,26,57,0.5,33.8,353,4.97,13.1,19.7,1,32.1,2.88,6.7,0,0,1,1,0,324,-1529,-14714,338,45.700192,4.909143,33.44,193.3,7,3,2.3,0,0.0,-1,0.0,,0.0,0,9.44,12.7557
765363,1622987631528,,,,,,,,-0.2,-0.71,0.01,-25,1,-10,0.74,,86,4951,7,26,57,0.5,33.5,347,4.93,13.1,19.7,1,32.0,2.88,6.7,0,0,1,1,0,322,250,3327,335,,,,,,,,,,,,,,,,
765383,1622987631548,,,,,,,,-0.29,-0.72,-0.13,-29,3,-7,0.78,,86,5005,7,26,57,0.5,33.3,353,4.93,12.9,19.7,1,32.7,2.9,6.7,0,0,1,1,0,313,2414,3346,337,,,,,,,,,,,,,,,,
765403,1622987631568,,,,,,,,-0.3,-0.74,0.05,-33,2,-8,0.8,,86,5070,7,26,56,0.5,33.4,356,4.91,13.1,19.7,1,32.4,2.89,6.7,0,0,1,1,0,295,250,-32559,334,,,,,,,,,,,,,,,,
765423,1622987631588,,,,,,,,-0.31,-0.77,-0.12,-37,2,-8,0.83,,86,5096,7,26,56,0.5,33.3,357,4.9,13.0,20.0,1,32.4,2.87,6.7,0,0,1,1,0,287,-1,-32559,333,,,,,,,,,,,,,,,,
