"Interval"|"ms"|0|0|1,"Utc"|"ms"|0|0|1,"Brake_F"|"Bar"|0|2000|10,"Brake_R"|"Bar"|0|2000|10,"Height_RF"|"mm"|0|255|10,"Height_LF"|"mm"|0|255|10,"Height_LR"|"mm"|0|80|10,"Height_RR"|"mm"|0|255|10,"Steering"|"deg"|-100|100|10,"AccelX"|"G"|-3.0|3.0|50,"AccelY"|"G"|-3.0|3.0|50,"AccelZ"|"G"|-3.0|3.0|50,"Yaw"|"Deg/Sec"|-120|120|50,"Pitch"|"Deg/Sec"|-120|120|50,"Roll"|"Deg/Sec"|-120|120|50,"Gsum"|"G"|0.0|3.0|50,"Log_Button"|""|0.0|10.0|10,"WaterTemp"|"C"|0|150|50,"RPM"|"tr/min"|0|14000|50,"TPS"|"%"|0|100|50,"AirTemp"|"C"|0|150|50,"MAP"|"KPa"|0|100|50,"Lambda"|""|0.5|1.5|50,"SpeedDTA"|"kph"|0.0|250.0|50,"OilPress"|"KPa"|0|1500|50,"FuelPressur"|"Bar"|0.0|10.0|50,"Batterie"|"V"|0.0|20.0|50,"ConsoKm"|"L/100km"|0.0|200.0|50,"Gear"|""|0|6|50,"AdvIgnition"|"Deg"|-20.0|70.0|50,"Injection"|"ms"|0.0|10.0|50,"ConsoHr"|"L/Hr"|0.0|10000.0|50,"LC_But_Pres"|""|0|1|50,"LC_Active"|""|0|1|50,"TractionOn"|""|0|1|50,"TractionWet"|""|0|1|50,"FanOn"|""|0|1|50,"RD_Speed"|"km/h"|-30|250|50,"RUD_Speed"|"km/h"|-30|250|50,"LD_Speed"|"km/h"|-30|250|50,"LUD_Speed"|"km/h"|-30|250|50,"Latitude"|"Degrees"|-180.0|180.0|10,"Longitude"|"Degrees"|-180.0|180.0|10,"Speed"|"kph"|0.0|150.0|10,"Altitude"|"m"|0.0|4000.0|10,"GPSSats"|""|0|20|10,"GPSQual"|""|0|5|10,"GPSDOP"|""|0.0|20.0|10,"LapCount"|""|0|0|10,"LapTime"|"Min"|0.0|0.0|10,"Sector"|""|0|0|10,"SectorTime"|"Min"|0.0|0.0|10,"PredTime"|"Min"|0.0|0.0|5,"ElapsedTime"|"Min"|0.0|0.0|10,"CurrentLap"|""|0|0|10,"Distance"|"km"|0.0|0.0|10,"SessionTime"|"Min"|0.0|0.0|10
45063,1622988173698,,,,,,,,-0.01,0.0,-1.01,-0,-0,-0,0.01,,84,0,21,31,99,0.5,0.0,123,1.0,12.8,0.0,1,0.0,0.0,0.0,0,0,1,0,0,0,250,250,0,,,,,,,,,,,,,,,,
45083,1622988173718,,,,,,,,-0.01,0.0,-1.01,0,-0,-0,0.01,,84,0,21,31,99,0.5,0.0,123,1.0,12.8,0.0,1,0.0,0.0,0.0,0,0,1,0,0,0,250,250,0,,,,,,,,,,,,,,,,
45103,1622988173738,,,,,,,,-0.01,0.0,-1.01,-0,-0,-0,0.01,,83,0,21,31,99,0.5,0.0,123,1.0,12.8,0.0,1,0.0,0.0,0.0,0,0,1,0,0,0,250,250,0,,,,,,,,,,,,,,,,
45123,1622988173758,,,,,,,,-0.01,0.0,-1.01,-0,-0,-0,0.01,,84,0,21,31,99,0.5,0.0,123,1.0,12.8,0.0,1,0.0,0.0,0.0,0,0,1,0,0,0,250,250,0,,,,,,,,,,,,,,,,
45143,1622988173778,0,0,32,31,32,30,2,-0.01,0.0,-1.01,-0,-0,-0,0.01,1,84,0,21,31,99,0.5,0.0,124,1.0,12.8,0.0,1,0.0,0.0,0.0,0,0,1,0,0,0,250,250,0,45.700325,4.909545,0.0,194.2,7,3,3.8,0,0.0,-1,0.0,,0.0,0,0.0,0.7524
45163,1622988173798,,,,,,,,-0.01,0.0,-1.01,-0,-0,-0,0.01,,84,0,21,31,99,0.5,0.0,123,1.0,12.8,0.0,1,0.0,0.0,0.0,0,0,1,0,0,0,250,250,0,,,,,,,,,,,,,,,,
45183,1622988173818,,,,,,,,-0.01,0.0,-1.01,-0,-0,-0,0.01,,83,0,21,31,99,0.5,0.0,123,1.0,12.8,0.0,1,0.0,0.0,0.0,0,0,1,0,0,0,250,250,0,,,,,,,,,,,,,,,,
45203,1622988173838,,,,,,,,-0.01,0.0,-1.01,-0,-0,-0,0.01,,83,0,21,31,99,0.5,0.0,124,1.0,12.8,0.0,1,0.0,0.0,0.0,0,0,1,0,0,0,250,250,0,,,,,,,,,,,,,,,,
45223,1622988173858,,,,,,,,-0.01,0.0,-1.01,-0,-0,-0,0.01,,83,0,21,31,99,0.5,0.0,124,1.0,12.8,0.0,1,0.0,0.0,0.0,0,0,1,0,0,0,250,250,0,,,,,,,,,,,,,,,,
45243,1622988173878,1,1,32,30,32,31,2,-0.01,0.0,-1.01,-0,-0,-0,0.01,1,83,0,21,31,99,0.5,0.0,124,1.0,12.8,0.0,1,0.0,0.0,0.0,0,0,1,0,0,0,250,250,0,45.700325,4.909545,0.0,194.2,7,3,3.8,0,0.0,-1,0.0,0.0,0.0,0,0.0,0.754
45263,1622988173898,,,,,,,,-0.01,0.0,-1.01,-0,-0,-0,0.01,,83,0,21,31,99,0.5,0.0,123,1.0,12.8,0.0,1,0.0,0.0,0.0,0,0,1,0,0,0,250,250,0,,,,,,,,,,,,,,,,
45283,1622988173918,,,,,,,,-0.01,0.0,-1.01,-0,-0,-0,0.01,,83,0,21,31,99,0.5,0.0,124,1.0,12.8,0.0,1,0.0,0.0,0.0,0,0,1,0,0,0,250,250,0,,,,,,,,,,,,,,,,
45303,1622988173938,,,,,,,,-0.01,0.0,-1.01,-0,-0,-0,0.01,,83,0,21,31,99,0.5,0.0,124,1.0,12.8,0.0,1,0.0,0.0,0.0,0,0,1,0,0,0,250,250,0,,,,,,,,,,,,,,,,
45323,1622988173958,,,,,,,,-0.01,0.0,-1.01,-0,-0,-0,0.01,,83,0,21,31,99,0.5,0.0,124,1.0,12.8,0.0,1,0.0,0.0,0.0,0,0,1,0,0,0,250,250,0,,,,,,,,,,,,,,,,
45343,1622988173978,0,2,32,31,32,31,2,-0.01,0.0,-1.01,-0,-0,-0,0.01,1,83,0,21,31,99,0.5,0.0,124,1.0,12.8,0.0,1,0.0,0.0,0.0,0,0,1,0,0,0,250,250,0,45.700325,4.909545,0.0,194.2,7,3,3.8,0,0.0,-1,0.0,,0.0,0,0.0,0.7557
45363,1622988173998,,,,,,,,-0.01,0.0,-1.01,-0,-0,-0,0.01,,83,0,21,31,99,0.5,0.0,124,1.0,12.8,0.0,1,0.0,0.0,0.0,0,0,1,0,0,0,250,250,0,,,,,,,,,,,,,,,,
45383,1622988174002,,,,,,,,-0.01,0.0,-1.01,-0,-0,-0,0.01,,83,0,21,31,99,0.5,0.0,123,1.0,12.8,0.0,1,0.0,0.0,0.0,0,0,1,0,0,0,250,250,0,,,,,,,,,,,,,,,,
45403,1622988174022,,,,,,,,-0.01,0.0,-1.01,-0,-0,-0,0.01,,83,0,21,31,99,0.5,0.0,123,0.99,12.8,0.0,1,0.0,0.0,0.0,0,0,1,0,0,0,250,250,0,,,,,,,,,,,,,,,,
45423,1622988174042,,,,,,,,-0.01,0.0,-1.01,-0,-0,-0,0.01,,83,0,21,31,99,0.5,0.0,123,1.0,12.8,0.0,1,0.0,0.0,0.0,0,0,1,0,0,0,250,250,0,,,,,,,,,,,,,,,,
45443,1622988174062,-1,2,32,30,32,30,3,-0.01,0.0,-1.01,-0,-0,-0,0.01,1,83,0,21,31,99,0.5,0.0,123,1.0,12.8,0.0,1,0.0,0.0,0.0,0,0,1,0,0,0,250,250,0,45.700325,4.909545,0.0,194.2,7,3,3.8,0,0.0,-1,0.0,0.0,0.0,0,0.0,0.7574
45463,1622988174099,,,,,,,,-0.01,0.0,-1.01,-0,-0,-0,0.01,,83,0,21,31,99,0.5,0.0,123,1.0,12.8,0.0,1,0.0,0.0,0.0,0,0,1,0,0,0,250,250,0,,,,,,,,,,,,,,,,
45483,1622988174119,,,,,,,,-0.01,0.0,-1.01,-0,-0,-0,0.01,,83,0,21,31,99,0.5,0.0,124,1.0,12.8,0.0,1,0.0,0.0,0.0,0,0,1,0,0,0,250,250,0,,,,,,,,,,,,,,,,
45503,1622988174139,,,,,,,,-0.01,0.0,-1.01,-0,-0,-0,0.01,,83,0,21,31,99,0.5,0.0,124,1.0,12.8,0.0,1,0.0,0.0,0.0,0,0,1,0,0,0,250,250,0,,,,,,,,,,,,,,,,
45523,1622988174159,,,,,,,,-0.01,0.0,-1.01,-0,-0,-0,0.01,,83,0,21,31,99,0.5,0.0,123,1.0,12.8,0.0,1,0.0,0.0,0.0,0,0,1,0,0,0,250,250,0,,,,,,,,,,,,,,,,
45543,1622988174179,-0,2,32,30,32,31,2,-0.01,0.0,-1.01,-0,-0,-0,0.01,0,83,0,21,31,99,0.5,0.0,123,1.0,12.8,0.0,1,0.0,0.0,0.0,0,0,1,0,0,0,250,250,0,45.700325,4.909545,0.0,194.2,7,3,3.8,0,0.0,-1,0.0,,0.0,0,0.0,0.759
45563,1622988174199,,,,,,,,-0.01,0.0,-1.01,-0,-0,-0,0.01,,83,0,21,31,99,0.5,0.0,124,1.0,12.8,0.0,1,0.0,0.0,0.0,0,0,1,0,0,0,250,250,0,,,,,,,,,,,,,,,,
45583,1622988174219,,,,,,,,-0.01,0.0,-1.01,-0,-0,-0,0.01,,83,0,21,31,99,0.5,0.0,123,1.0,12.8,0.0,1,0.0,0.0,0.0,0,0,1,0,0,0,250,250,0,,,,,,,,,,,,,,,,
45603,1622988174239,,,,,,,,-0.01,0.0,-1.01,-0,-0,0,0.01,,83,0,21,31,99,0.5,0.0,124,1.0,12.8,0.0,1,0.0,0.0,0.0,0,0,1,0,0,0,250,250,0,,,,,,,,,,,,,,,,
45623,1622988174259,,,,,,,,-0.01,0.0,-1.01,0,-0,0,0.01,,83,0,21,31,99,0.5,0.0,124,1.0,12.8,0.0,1,0.0,0.0,0.0,0,0,1,0,0,0,250,250,0,,,,,,,,,,,,,,,,
45643,1622988174279,0,2,32,30,32,30,3,-0.01,0.0,-1.01,0,-0,-0,0.01,0,83,0,21,31,99,0.5,0.0,123,1.0,12.8,0.0,1,0.0,0.0,0.0,0,0,1,0,0,0,250,250,0,45.700325,4.909545,0.0,194.2,7,3,3.8,0,0.0,-1,0.0,0.0,0.0,0,0.0,0.7607
45663,1622988174299,,,,,,,,-0.01,0.0,-1.01,0,-0,-0,0.01,,83,0,21,31,99,0.5,0.0,124,1.0,12.8,0.0,1,0.0,0.0,0.0,0,0,1,0,0,0,250,250,0,,,,,,,,,,,,,,,,
45683,1622988174319,,,,,,,,-0.01,0.0,-1.01,-0,-0,-0,0.01,,83,0,21,31,99,0.5,0.0,123,1.0,12.8,0.0,1,0.0,0.0,0.0,0,0,1,0,0,0,250,250,0,,,,,,,,,,,,,,,,
45703,1622988174339,,,,,,,,-0.01,0.0,-1.01,-0,-0,-0,0.01,,83,0,21,31,99,0.5,0.0,124,1.0,12.8,0.0,1,0.0,0.0,0.0,0,0,1,0,0,0,250,250,0,,,,,,,,,,,,,,,,
45723,1622988174359,,,,,,,,-0.01,0.0,-1.01,-0,-0,-0,0.01,,83,0,21,31,99,0.5,0.0,123,1.0,12.8,0.0,1,0.0,0.0,0.0,0,0,1,0,0,0,250,250,0,,,,,,,,,,,,,,,,
45743,1622988174379,0,2,32,31,32,31,2,-0.01,0.0,-1.01,-0,-0,-0,0.01,0,83,0,21,31,99,0.5,0.0,124,1.0,12.8,0.0,1,0.0,0.0,0.0,0,0,1,0,0,0,250,250,0,45.700325,4.909545,0.0,194.2,7,3,3.8,0,0.0,-1,0.0,,0.0,0,0.0,0.7624
45763,1622988174399,,,,,,,,-0.01,0.0,-1.01,-0,-0,-0,0.01,,83,0,21,31,99,0.5,0.0,123,1.0,12.8,0.0,1,0.0,0.0,0.0,0,0,1,0,0,0,250,250,0,,,,,,,,,,,,,,,,
45783,1622988174419,,,,,,,,-0.01,0.0,-1.01,-0,-0,-0,0.01,,83,0,21,31,99,0.5,0.0,124,1.0,12.8,0.0,1,0.0,0.0,0.0,0,0,1,0,0,0,250,250,0,,,,,,,,,,,,,,,,
45803,1622988174439,,,,,,,,-0.01,0.0,-1.01,-0,-0,-0,0.01,,83,0,21,31,99,0.5,0.0,123,1.0,12.8,0.0,1,0.0,0.0,0.0,0,0,1,0,0,0,250,250,0,,,,,,,,,,,,,,,,
45823,1622988174459,,,,,,,,-0.01,0.0,-1.01,-0,-0,-0,0.01,,83,0,21,31,99,0.5,0.0,123,1.0,12.8,0.0,1,0.0,0.0,0.0,0,0,1,0,0,0,250,250,0,,,,,,,,,,,,,,,,
45843,1622988174479,0,1,33,30,32,30,1,-0.01,0.0,-1.0,-0,-0,-0,0.01,0,83,0,21,31,99,0.5,0.0,123,1.0,12.8,0.0,1,0.0,0.0,0.0,0,0,1,0,0,0,250,250,0,45.700325,4.909545,0.0,194.2,7,3,3.8,0,0.0,-1,0.0,0.0,0.0,0,0.0,0.764
45863,1622988174499,,,,,,,,-0.01,0.0,-1.01,-0,-0,-0,0.01,,83,0,21,31,99,0.5,0.0,123,1.0,12.8,0.0,1,0.0,0.0,0.0,0,0,1,0,0,0,250,250,0,,,,,,,,,,,,,,,,
45883,1622988174519,,,,,,,,-0.01,0.0,-1.01,-0,-0,-0,0.01,,83,0,21,31,99,0.5,0.0,124,1.0,12.8,0.0,1,0.0,0.0,0.0,0,0,1,0,0,0,250,250,0,,,,,,,,,,,,,,,,
45903,1622988174539,,,,,,,,-0.01,0.0,-1.01,-0,-0,-0,0.01,,83,0,21,31,99,0.5,0.0,123,1.0,12.8,0.0,1,0.0,0.0,0.0,0,0,1,0,0,0,250,250,0,,,,,,,,,,,,,,,,
45923,1622988174559,,,,,,,,-0.01,0.0,-1.01,-0,-0,-0,0.01,,83,0,21,31,99,0.5,0.0,123,1.0,12.8,0.0,1,0.0,0.0,0.0,0,0,1,0,0,0,250,250,0,,,,,,,,,,,,,,,,
45943,1622988174579,-1,2,32,30,32,31,2,-0.01,0.0,-1.01,-0,-0,-0,0.01,0,83,0,21,31,99,0.5,0.0,124,1.0,12.8,0.0,1,0.0,0.0,0.0,0,0,1,0,0,0,250,250,0,45.700325,4.909545,0.0,194.2,7,3,3.8,0,0.0,-1,0.0,,0.0,0,0.0,0.7657
45963,1622988174600,,,,,,,,-0.01,0.0,-1.01,-0,-0,0,0.01,,83,0,21,31,99,0.5,0.0,124,1.0,12.8,0.0,1,0.0,0.0,0.0,0,0,1,0,0,0,250,250,0,,,,,,,,,,,,,,,,
45983,1622988174620,,,,,,,,-0.01,0.0,-1.0,-0,-0,0,0.01,,83,0,21,31,99,0.5,0.0,123,1.0,12.8,0.0,1,0.0,0.0,0.0,0,0,1,0,0,0,250,250,0,,,,,,,,,,,,,,,,
46003,1622988174640,,,,,,,,-0.01,0.0,-1.0,-0,-0,0,0.01,,83,0,21,31,99,0.5,0.0,123,1.0,12.8,0.0,1,0.0,0.0,0.0,0,0,1,0,0,0,250,250,0,,,,,,,,,,,,,,,,
46023,1622988174660,,,,,,,,-0.01,0.0,-1.0,-0,-0,0,0.01,,83,0,21,31,99,0.5,0.0,124,1.0,12.8,0.0,1,0.0,0.0,0.0,0,0,1,0,0,0,250,250,0,,,,,,,,,,,,,,,,
46043,1622988174680,-1,2,33,31,32,31,2,-0.01,0.0,-1.0,-0,-0,0,0.01,0,83,0,21,31,99,0.5,0.0,123,1.0,12.8,0.0,1,0.0,0.0,0.0,0,0,1,0,0,0,250,250,0,45.700325,4.909545,0.0,194.2,7,3,3.8,0,0.0,-1,0.0,0.0,0.0,0,0.0,0.7674
46063,1622988174699,,,,,,,,-0.01,0.0,-1.0,-0,-0,0,0.01,,83,0,21,31,99,0.5,0.0,124,1.0,12.8,0.0,1,0.0,0.0,0.0,0,0,1,0,0,0,250,250,0,,,,,,,,,,,,,,,,
46083,1622988174719,,,,,,,,-0.01,0.0,-1.0,-0,-0,0,0.01,,83,0,21,31,99,0.5,0.0,123,1.0,12.8,0.0,1,0.0,0.0,0.0,0,0,1,0,0,0,250,250,0,,,,,,,,,,,,,,,,
46103,1622988174739,,,,,,,,-0.01,0.0,-1.0,-0,-0,0,0.01,,83,0,21,31,99,0.5,0.0,124,1.0,12.8,0.0,1,0.0,0.0,0.0,0,0,1,0,0,0,250,250,0,,,,,,,,,,,,,,,,
46123,1622988174759,,,,,,,,-0.01,0.0,-1.0,-0,-0,0,0.01,,83,0,21,31,99,0.5,0.0,123,1.0,12.8,0.0,1,0.0,0.0,0.0,0,0,1,0,0,0,250,250,0,,,,,,,,,,,,,,,,
46143,1622988174779,-1,2,32,32,32,31,2,-0.01,0.0,-1.0,-0,-0,0,0.01,0,83,0,21,31,99,0.5,0.0,123,1.0,12.8,0.0,1,0.0,0.0,0.0,0,0,1,0,0,0,250,250,0,45.700325,4.909545,0.0,194.2,7,3,3.8,0,0.0,-1,0.0,,0.0,0,0.0,0.769
46163,1622988174799,,,,,,,,-0.01,0.0,-1.0,-0,-0,-0,0.01,,83,0,21,31,99,0.509,0.0,124,1.0,12.8,0.0,1,0.0,0.0,0.0,0,0,1,0,0,0,250,250,0,,,,,,,,,,,,,,,,
46183,1622988174819,,,,,,,,-0.01,0.0,-1.0,-0,-0,-0,0.01,,83,0,21,31,99,0.545,0.0,124,1.0,12.8,0.0,1,0.0,0.0,0.0,0,0,1,0,0,0,250,250,0,,,,,,,,,,,,,,,,
46203,1622988174839,,,,,,,,-0.01,0.0,-1.0,-0,-0,-0,0.01,,83,0,21,31,99,0.581,0.0,124,1.0,12.8,0.0,1,0.0,0.0,0.0,0,0,1,0,0,0,250,250,0,,,,,,,,,,,,,,,,
46223,1622988174859,,,,,,,,-0.01,0.0,-1.0,-0,-0,-0,0.01,,83,0,21,31,99,0.617,0.0,124,1.0,12.8,0.0,1,0.0,0.0,0.0,0,0,1,0,0,0,250,250,0,,,,,,,,,,,,,,,,
46243,1622988174879,0,1,33,31,33,31,2,-0.01,0.0,-1.0,-0,-0,-0,0.01,0,83,0,21,31,99,0.653,0.0,123,1.0,12.8,0.0,1,0.0,0.0,0.0,0,0,1,0,0,0,250,250,0,45.700325,4.909545,0.0,194.2,7,3,3.8,0,0.0,-1,0.0,0.0,0.0,0,0.0,0.7707
46263,1622988174899,,,,,,,,-0.01,0.0,-1.0,-0,-0,-0,0.01,,83,0,21,31,99,0.689,0.0,124,1.0,12.8,0.0,1,0.0,0.0,0.0,0,0,1,0,0,0,250,250,0,,,,,,,,,,,,,,,,
46283,1622988174919,,,,,,,,-0.01,0.0,-1.0,-0,-0,-0,0.01,,83,0,21,31,99,0.725,0.0,124,1.0,12.8,0.0,1,0.0,0.0,0.0,0,0,1,0,0,0,250,250,0,,,,,,,,,,,,,,,,
46303,1622988174939,,,,,,,,-0.01,0.0,-1.0,-0,-0,-0,0.01,,83,0,21,31,99,0.761,0.0,124,1.0,12.8,0.0,1,0.0,0.0,0.0,0,0,1,0,0,0,250,250,0,,,,,,,,,,,,,,,,
46323,1622988174959,,,,,,,,-0.01,0.0,-1.0,-0,-0,-0,0.01,,83,0,21,31,99,0.797,0.0,124,1.0,12.8,0.0,1,0.0,0.0,0.0,0,0,1,0,0,0,250,250,0,,,,,,,,,,,,,,,,
46343,1622988174979,-1,2,32,31,32,30,2,-0.01,0.0,-1.0,-0,-0,-0,0.01,0,83,0,21,31,99,0.833,0.0,124,1.0,12.8,0.0,1,0.0,0.0,0.0,0,0,1,0,0,0,250,250,0,45.700325,4.909545,0.0,194.2,7,3,3.8,0,0.0,-1,0.0,,0.0,0,0.0,0.7724
46363,1622988174999,,,,,,,,-0.01,0.0,-1.01,-0,-0,-0,0.01,,83,0,21,31,99,0.869,0.0,124,1.0,12.8,0.0,1,0.0,0.0,0.0,0,0,1,0,0,0,250,250,0,,,,,,,,,,,,,,,,
46383,1622988175001,,,,,,,,-0.01,0.0,-1.0,-0,-0,-0,0.01,,83,0,21,31,99,0.905,0.0,123,1.0,12.8,0.0,1,0.0,0.0,0.0,0,0,1,0,0,0,250,250,0,,,,,,,,,,,,,,,,
46403,1622988175021,,,,,,,,-0.01,0.0,-1.0,-0,-0,-0,0.01,,83,0,21,31,99,0.941,0.0,124,1.0,12.8,0.0,1,0.0,0.0,0.0,0,0,1,0,0,0,250,250,0,,,,,,,,,,,,,,,,
46423,1622988175041,,,,,,,,-0.01,0.0,-1.0,-0,-0,-0,0.01,,83,0,21,31,99,0.95,0.0,124,1.0,12.8,0.0,1,0.0,0.0,0.0,0,0,1,0,0,0,250,250,0,,,,,,,,,,,,,,,,
46443,1622988175061,0,0,33,32,32,31,1,-0.01,0.0,-1.01,-0,-0,-0,0.01,0,83,0,21,31,99,0.95,0.0,124,1.0,12.8,0.0,1,0.0,0.0,0.0,0,0,1,0,0,0,250,250,0,45.700325,4.909545,0.0,194.2,7,3,3.8,0,0.0,-1,0.0,0.0,0.0,0,0.0,0.774
46463,1622988175098,,,,,,,,-0.01,0.0,-1.01,-0,-0,0,0.01,,83,0,21,31,99,0.95,0.0,124,0.99,12.8,0.0,1,0.0,0.0,0.0,0,0,1,0,0,0,250,250,0,,,,,,,,,,,,,,,,
46483,1622988175118,,,,,,,,-0.01,0.0,-1.01,-0,-0,-0,0.01,,83,0,21,31,99,0.95,0.0,123,1.0,12.8,0.0,1,0.0,0.0,0.0,0,0,1,0,0,0,250,250,0,,,,,,,,,,,,,,,,
46503,1622988175138,,,,,,,,-0.01,0.0,-1.01,-0,-0,-0,0.01,,83,0,21,31,99,0.951,0.0,124,1.0,12.8,0.0,1,0.0,0.0,0.0,0,0,1,0,0,0,250,250,0,,,,,,,,,,,,,,,,
46523,1622988175158,,,,,,,,-0.01,0.0,-1.01,-0,-0,-0,0.01,,83,0,21,31,99,0.951,0.0,124,1.0,12.8,0.0,1,0.0,0.0,0.0,0,0,1,0,0,0,250,250,0,,,,,,,,,,,,,,,,
46543,1622988175178,1,2,32,32,32,31,1,-0.01,0.0,-1.01,-0,-0,-0,0.01,0,83,0,21,31,99,0.951,0.0,124,1.0,12.8,0.0,1,0.0,0.0,0.0,0,0,1,0,0,0,250,250,0,45.700325,4.909545,0.0,194.2,7,3,3.8,0,0.0,-1,0.0,,0.0,0,0.0,0.7757
46563,1622988175198,,,,,,,,-0.0,0.0,-1.01,-0,-0,-0,0.01,,83,0,21,31,99,0.952,0.0,124,1.0,12.8,0.0,1,0.0,0.0,0.0,0,0,1,0,0,0,250,250,0,,,,,,,,,,,,,,,,
46583,1622988175218,,,,,,,,-0.01,0.0,-1.01,-0,-0,-0,0.01,,83,0,21,31,99,0.952,0.0,123,1.0,12.8,0.0,1,0.0,0.0,0.0,0,0,1,0,0,0,250,250,0,,,,,,,,,,,,,,,,
46603,1622988175238,,,,,,,,-0.0,0.0,-1.01,-0,-0,0,0.01,,83,0,21,31,99,0.952,0.0,123,1.0,12.8,0.0,1,0.0,0.0,0.0,0,0,1,0,0,0,250,250,0,,,,,,,,,,,,,,,,
46623,1622988175258,,,,,,,,-0.0,0.0,-1.01,-0,-0,0,0.01,,83,0,21,31,99,0.953,0.0,123,1.0,12.8,0.0,1,0.0,0.0,0.0,0,0,1,0,0,0,250,250,0,,,,,,,,,,,,,,,,
46643,1622988175278,1,1,33,32,33,31,2,-0.01,0.0,-1.01,-0,-0,-0,0.01,0,83,0,21,31,99,0.953,0.0,123,1.0,12.8,0.0,1,0.0,0.0,0.0,0,0,1,0,0,0,250,250,0,45.700325,4.909545,0.0,194.2,7,3,3.8,0,0.0,-1,0.0,0.0,0.0,0,0.0,0.7774
46663,1622988175298,,,,,,,,-0.01,0.0,-1.01,-0,-0,0,0.01,,83,0,21,31,99,0.954,0.0,124,1.0,12.8,0.0,1,0.0,0.0,0.0,0,0,1,0,0,0,250,250,0,,,,,,,,,,,,,,,,
46683,1622988175318,,,,,,,,-0.01,0.0,-1.01,-0,-0,-0,0.01,,83,0,21,31,99,0.954,0.0,123,1.0,12.8,0.0,1,0.0,0.0,0.0,0,0,1,0,0,0,250,250,0,,,,,,,,,,,,,,,,
46703,1622988175338,,,,,,,,-0.01,0.0,-1.0,-0,-0,-0,0.01,,83,0,21,31,99,0.954,0.0,123,1.0,12.8,0.0,1,0.0,0.0,0.0,0,0,1,0,0,0,250,250,0,,,,,,,,,,,,,,,,
46723,1622988175358,,,,,,,,-0.01,0.0,-1.0,-0,-0,-0,0.01,,83,0,21,31,99,0.955,0.0,123,1.0,12.8,0.0,1,0.0,0.0,0.0,0,0,1,0,0,0,250,250,0,,,,,,,,,,,,,,,,
46743,1622988175378,1,1,32,32,32,31,2,-0.01,0.0,-1.01,-0,-0,-0,0.01,0,83,0,21,31,99,0.955,0.0,123,0.99,12.8,0.0,1,0.0,0.0,0.0,0,0,1,0,0,0,250,250,0,45.700325,4.909545,0.0,194.2,7,3,3.8,0,0.0,-1,0.0,,0.0,0,0.0,0.779
46763,1622988175400,,,,,,,,-0.01,0.0,-1.01,-0,-0,0,0.01,,83,0,21,31,99,0.956,0.0,124,1.0,12.8,0.0,1,0.0,0.0,0.0,0,0,1,0,0,0,250,250,0,,,,,,,,,,,,,,,,
46783,1622988175420,,,,,,,,-0.01,0.0,-1.01,-0,-0,-0,0.01,,83,0,21,31,99,0.956,0.0,124,1.0,12.8,0.0,1,0.0,0.0,0.0,0,0,1,0,0,0,250,250,0,,,,,,,,,,,,,,,,
46803,1622988175440,,,,,,,,-0.01,0.0,-1.01,-0,-0,-0,0.01,,83,0,21,31,99,0.957,0.0,123,1.0,12.8,0.0,1,0.0,0.0,0.0,0,0,1,0,0,0,250,250,0,,,,,,,,,,,,,,,,
46823,1622988175460,,,,,,,,-0.01,0.0,-1.01,-0,-0,-0,0.01,,83,0,21,31,99,0.957,0.0,124,1.0,12.8,0.0,1,0.0,0.0,0.0,0,0,1,0,0,0,250,250,0,,,,,,,,,,,,,,,,
46843,1622988175480,-1,0,33,32,32,30,2,-0.01,0.0,-1.01,-0,-0,0,0.01,0,83,0,21,31,99,0.958,0.0,123,1.0,12.8,0.0,1,0.0,0.0,0.0,0,0,1,0,0,0,250,250,0,45.700325,4.909545,0.0,194.2,7,3,3.8,0,0.0,-1,0.0,0.0,0.0,0,0.0,0.7807
46863,1622988175498,,,,,,,,-0.01,0.0,-1.01,-0,-0,-0,0.01,,83,0,21,31,99,0.958,0.0,123,1.0,12.8,0.0,1,0.0,0.0,0.0,0,0,1,0,0,0,250,250,0,,,,,,,,,,,,,,,,
46883,1622988175518,,,,,,,,-0.01,0.0,-1.01,-0,-0,-0,0.01,,83,0,21,31,99,0.958,0.0,124,1.0,12.8,0.0,1,0.0,0.0,0.0,0,0,1,0,0,0,250,250,0,,,,,,,,,,,,,,,,
46903,1622988175538,,,,,,,,-0.01,0.0,-1.01,-0,-0,-0,0.01,,83,0,21,31,99,0.959,0.0,124,1.0,12.8,0.0,1,0.0,0.0,0.0,0,0,1,0,0,0,250,250,0,,,,,,,,,,,,,,,,
46923,1622988175558,,,,,,,,-0.01,0.0,-1.01,-0,-0,-0,0.01,,83,0,21,31,99,0.959,0.0,124,1.0,12.8,0.0,1,0.0,0.0,0.0,0,0,1,0,0,0,250,250,0,,,,,,,,,,,,,,,,
46943,1622988175578,-1,2,32,32,32,31,2,-0.01,0.0,-1.01,-0,-0,-0,0.01,0,83,0,21,31,99,0.959,0.0,124,1.0,12.8,0.0,1,0.0,0.0,0.0,0,0,1,0,0,0,250,250,0,45.700325,4.909545,0.0,194.2,7,3,3.8,0,0.0,-1,0.0,,0.0,0,0.0,0.7824
46963,1622988175598,,,,,,,,-0.01,0.0,-1.01,-0,-0,-0,0.01,,83,0,21,31,99,0.96,0.0,124,1.0,12.8,0.0,1,0.0,0.0,0.0,0,0,1,0,0,0,250,250,0,,,,,,,,,,,,,,,,
46983,1622988175618,,,,,,,,-0.01,0.0,-1.0,-0,-0,-0,0.01,,83,0,21,31,99,0.96,0.0,124,1.0,12.8,0.0,1,0.0,0.0,0.0,0,0,1,0,0,0,250,250,0,,,,,,,,,,,,,,,,
47003,1622988175638,,,,,,,,-0.01,0.0,-1.0,-0,-0,0,0.01,,83,0,21,31,99,0.96,0.0,124,1.0,12.8,0.0,1,0.0,0.0,0.0,0,0,1,0,0,0,250,250,0,,,,,,,,,,,,,,,,
47023,1622988175658,,,,,,,,-0.01,0.0,-1.0,-0,-0,-0,0.01,,83,0,21,31,99,0.961,0.0,124,1.0,12.8,0.0,1,0.0,0.0,0.0,0,0,1,0,0,0,250,250,0,,,,,,,,,,,,,,,,
47043,1622988175678,-0,0,33,32,32,31,2,-0.01,0.0,-1.0,-0,-0,-0,0.01,0,83,0,21,31,99,0.961,0.0,123,1.0,12.8,0.0,1,0.0,0.0,0.0,0,0,1,0,0,0,250,250,0,45.700325,4.909545,0.0,194.2,7,3,3.8,0,0.0,-1,0.0,0.0,0.0,0,0.0,0.784
47063,1622988175698,,,,,,,,-0.01,0.0,-1.01,-0,-0,0,0.01,,83,0,21,31,99,0.962,0.0,123,1.0,12.8,0.0,1,0.0,0.0,0.0,0,0,1,0,0,0,250,250,0,,,,,,,,,,,,,,,,
47083,1622988175718,,,,,,,,-0.01,0.0,-1.01,-0,-0,0,0.01,,83,0,21,31,99,0.962,0.0,124,1.0,12.8,0.0,1,0.0,0.0,0.0,0,0,1,0,0,0,250,250,0,,,,,,,,,,,,,,,,
47103,1622988175738,,,,,,,,-0.01,0.0,-1.01,-0,-0,0,0.01,,83,0,21,31,99,0.963,0.0,124,1.0,12.8,0.0,1,0.0,0.0,0.0,0,0,1,0,0,0,250,250,0,,,,,,,,,,,,,,,,
47123,1622988175758,,,,,,,,-0.01,0.0,-1.01,-0,-0,0,0.01,,83,0,21,31,99,0.963,0.0,123,0.99,12.8,0.0,1,0.0,0.0,0.0,0,0,1,0,0,0,250,250,0,,,,,,,,,,,,,,,,
47143,1622988175778,0,1,33,32,32,30,3,-0.01,0.0,-1.01,-0,-0,0,0.01,0,83,0,21,31,99,0.964,0.0,124,1.0,12.8,0.0,1,0.0,0.0,0.0,0,0,1,0,0,0,250,250,0,45.700325,4.909545,0.0,194.2,7,3,3.8,0,0.0,-1,0.0,,0.0,0,0.0,0.7857
47163,1622988175798,,,,,,,,-0.01,0.0,-1.01,-0,-0,0,0.01,,83,0,21,31,99,0.964,0.0,124,1.0,12.8,0.0,1,0.0,0.0,0.0,0,0,1,0,0,0,250,250,0,,,,,,,,,,,,,,,,
47183,1622988175818,,,,,,,,-0.01,0.0,-1.01,-0,-0,0,0.01,,83,0,21,31,99,0.964,0.0,123,1.0,12.8,0.0,1,0.0,0.0,0.0,0,0,1,0,0,0,250,250,0,,,,,,,,,,,,,,,,
47203,1622988175838,,,,,,,,-0.01,0.0,-1.01,-0,-0,0,0.01,,83,0,21,31,99,0.965,0.0,124,1.0,12.8,0.0,1,0.0,0.0,0.0,0,0,1,0,0,0,250,250,0,,,,,,,,,,,,,,,,
47223,1622988175858,,,,,,,,-0.01,0.0,-1.01,-0,-0,0,0.01,,83,0,21,31,99,0.965,0.0,124,1.0,12.8,0.0,1,0.0,0.0,0.0,0,0,1,0,0,0,250,250,0,,,,,,,,,,,,,,,,
47243,1622988175878,-0,0,33,32,32,30,2,-0.01,0.0,-1.01,-0,-0,0,0.01,0,83,0,21,31,99,0.965,0.0,123,1.0,12.8,0.0,1,0.0,0.0,0.0,0,0,1,0,0,0,250,250,0,45.700325,4.909545,0.0,194.2,7,3,3.8,0,0.0,-1,0.0,0.0,0.0,0,0.0,0.7874
47263,1622988175898,,,,,,,,-0.01,0.0,-1.01,-0,-0,-0,0.01,,83,0,21,31,99,0.966,0.0,123,1.0,12.8,0.0,1,0.0,0.0,0.0,0,0,1,0,0,0,250,250,0,,,,,,,,,,,,,,,,
47283,1622988175918,,,,,,,,-0.01,0.0,-1.01,-0,-0,-0,0.01,,83,0,21,31,99,0.966,0.0,124,1.0,12.8,0.0,1,0.0,0.0,0.0,0,0,1,0,0,0,250,250,0,,,,,,,,,,,,,,,,
47303,1622988175938,,,,,,,,-0.01,0.0,-1.01,-0,-0,-0,0.01,,83,0,21,31,99,0.967,0.0,124,1.0,12.8,0.0,1,0.0,0.0,0.0,0,0,1,0,0,0,250,250,0,,,,,,,,,,,,,,,,
47323,1622988175958,,,,,,,,-0.01,0.0,-1.01,-0,-0,-0,0.01,,83,0,21,31,99,0.967,0.0,123,1.0,12.8,0.0,1,0.0,0.0,0.0,0,0,1,0,0,0,250,250,0,,,,,,,,,,,,,,,,
47343,1622988175978,0,0,33,32,32,30,3,-0.01,0.0,-1.01,-0,-0,-0,0.01,0,83,0,21,31,99,0.968,0.0,124,1.0,12.8,0.0,1,0.0,0.0,0.0,0,0,1,0,0,0,250,250,0,45.700325,4.909545,0.0,194.2,7,3,3.8,0,0.0,-1,0.0,,0.0,0,0.0,0.789
47363,1622988175998,,,,,,,,-0.01,0.0,-1.01,-0,-0,-0,0.01,,83,0,21,31,99,0.968,0.0,123,1.0,12.8,0.0,1,0.0,0.0,0.0,0,0,1,0,0,0,250,250,0,,,,,,,,,,,,,,,,
47383,1622988176002,,,,,,,,-0.01,0.0,-1.01,-0,-0,-0,0.01,,83,0,21,31,99,0.968,0.0,123,1.0,12.8,0.0,1,0.0,0.0,0.0,0,0,1,0,0,0,250,250,0,,,,,,,,,,,,,,,,
47403,1622988176022,,,,,,,,-0.01,0.0,-1.01,-0,-0,-0,0.01,,83,0,21,31,99,0.969,0.0,123,1.0,12.8,0.0,1,0.0,0.0,0.0,0,0,1,0,0,0,250,250,0,,,,,,,,,,,,,,,,
47423,1622988176042,,,,,,,,-0.01,0.0,-1.01,-0,-0,-0,0.01,,83,0,21,31,99,0.969,0.0,123,1.0,12.8,0.0,1,0.0,0.0,0.0,0,0,1,0,0,0,250,250,0,,,,,,,,,,,,,,,,
47443,1622988176062,-0,2,32,32,32,30,3,-0.01,0.0,-1.01,-0,-0,-0,0.01,0,83,0,21,31,99,0.97,0.0,124,1.0,12.8,0.0,1,0.0,0.0,0.0,0,0,1,0,0,0,250,250,0,45.700325,4.909545,0.0,194.2,7,3,3.8,0,0.0,-1,0.0,0.0,0.0,0,0.0,0.7907
47463,1622988176099,,,,,,,,-0.01,0.0,-1.01,-0,-0,-0,0.01,,83,0,21,31,99,0.971,0.0,123,1.0,12.8,0.0,1,0.0,0.0,0.0,0,0,1,0,0,0,250,250,0,,,,,,,,,,,,,,,,
47483,1622988176119,,,,,,,,-0.01,0.0,-1.01,-0,-0,-0,0.01,,83,0,21,31,99,0.971,0.0,124,1.0,12.8,0.0,1,0.0,0.0,0.0,0,0,1,0,0,0,250,250,0,,,,,,,,,,,,,,,,
47503,1622988176139,,,,,,,,-0.01,0.0,-1.01,-0,-0,-0,0.01,,83,0,21,31,99,0.971,0.0,123,1.0,12.8,0.0,1,0.0,0.0,0.0,0,0,1,0,0,0,250,250,0,,,,,,,,,,,,,,,,
47523,1622988176159,,,,,,,,-0.01,0.0,-1.01,-0,-0,-0,0.01,,83,0,21,31,99,0.972,0.0,123,1.0,12.8,0.0,1,0.0,0.0,0.0,0,0,1,0,0,0,250,250,0,,,,,,,,,,,,,,,,
47543,1622988176179,0,0,32,32,32,31,3,-0.01,0.0,-1.01,-0,-0,-0,0.01,0,83,0,21,31,99,0.972,0.0,123,1.0,12.8,0.0,1,0.0,0.0,0.0,0,0,1,0,0,0,250,250,0,45.700325,4.909545,0.0,194.2,7,3,3.8,0,0.0,-1,0.0,,0.0,0,0.0,0.7924
47563,1622988176196,,,,,,,,-0.01,0.0,-1.01,-0,-0,-0,0.01,,83,0,21,31,99,0.973,0.0,123,1.0,12.8,0.0,1,0.0,0.0,0.0,0,0,1,0,0,0,250,250,0,,,,,,,,,,,,,,,,
47583,1622988176216,,,,,,,,-0.01,0.0,-1.01,-0,-0,-0,0.01,,83,0,21,31,99,0.973,0.0,124,1.0,12.8,0.0,1,0.0,0.0,0.0,0,0,1,0,0,0,250,250,0,,,,,,,,,,,,,,,,
47603,1622988176236,,,,,,,,-0.01,0.0,-1.01,-0,-0,-0,0.01,,83,0,21,31,99,0.974,0.0,123,1.0,12.8,0.0,1,0.0,0.0,0.0,0,0,1,0,0,0,250,250,0,,,,,,,,,,,,,,,,
47623,1622988176256,,,,,,,,-0.01,0.0,-1.01,-0,-0,-0,0.01,,83,0,21,31,99,0.974,0.0,123,0.99,12.8,0.0,1,0.0,0.0,0.0,0,0,1,0,0,0,250,250,0,,,,,,,,,,,,,,,,
47643,1622988176276,-1,1,32,32,32,31,2,-0.01,0.0,-1.01,-0,-0,-0,0.01,0,83,0,21,31,99,0.974,0.0,124,1.0,12.8,0.0,1,0.0,0.0,0.0,0,0,1,0,0,0,250,250,0,45.700325,4.909545,0.0,194.2,7,3,3.8,0,0.0,-1,0.0,0.0,0.0,0,0.0,0.794
47663,1622988176299,,,,,,,,-0.01,0.0,-1.01,-0,-0,-0,0.01,,83,0,21,31,99,0.974,0.0,124,1.0,12.8,0.0,1,0.0,0.0,0.0,0,0,1,0,0,0,250,250,0,,,,,,,,,,,,,,,,
47683,1622988176319,,,,,,,,-0.01,0.0,-1.01,-0,-0,-0,0.01,,83,0,21,31,99,0.975,0.0,124,1.0,12.8,0.0,1,0.0,0.0,0.0,0,0,1,0,0,0,250,250,0,,,,,,,,,,,,,,,,
47703,1622988176339,,,,,,,,-0.01,0.0,-1.01,-0,-0,-0,0.01,,83,0,21,31,99,0.975,0.0,124,1.0,12.8,0.0,1,0.0,0.0,0.0,0,0,1,0,0,0,250,250,0,,,,,,,,,,,,,,,,
47723,1622988176359,,,,,,,,-0.01,0.0,-1.01,-0,-0,-0,0.01,,83,0,21,31,99,0.975,0.0,123,1.0,12.8,0.0,1,0.0,0.0,0.0,0,0,1,0,0,0,250,250,0,,,,,,,,,,,,,,,,
47743,1622988176379,-1,2,32,32,32,31,2,-0.01,0.0,-1.01,-0,-0,-0,0.01,0,83,0,21,31,99,0.975,0.0,124,1.0,12.8,0.0,1,0.0,0.0,0.0,0,0,1,0,0,0,250,250,0,45.700325,4.909545,0.0,194.2,7,3,3.8,0,0.0,-1,0.0,,0.0,0,0.0,0.7957
47763,1622988176399,,,,,,,,-0.01,0.0,-1.01,-0,-0,-0,0.01,,83,0,21,31,99,0.976,0.0,123,1.0,12.8,0.0,1,0.0,0.0,0.0,0,0,1,0,0,0,250,250,0,,,,,,,,,,,,,,,,
47783,1622988176419,,,,,,,,-0.01,0.0,-1.01,-0,-0,-0,0.01,,83,0,21,31,99,0.976,0.0,123,1.0,12.8,0.0,1,0.0,0.0,0.0,0,0,1,0,0,0,250,250,0,,,,,,,,,,,,,,,,
47803,1622988176439,,,,,,,,-0.01,0.0,-1.01,-0,-0,-0,0.01,,83,0,21,31,99,0.977,0.0,123,1.0,12.8,0.0,1,0.0,0.0,0.0,0,0,1,0,0,0,250,250,0,,,,,,,,,,,,,,,,
47823,1622988176459,,,,,,,,-0.01,0.0,-1.01,-0,-0,-0,0.01,,83,0,21,31,99,0.977,0.0,123,1.0,12.8,0.0,1,0.0,0.0,0.0,0,0,1,0,0,0,250,250,0,,,,,,,,,,,,,,,,
47843,1622988176479,1,0,32,32,33,30,3,-0.01,0.0,-1.01,-0,-0,-0,0.01,0,83,0,21,31,99,0.977,0.0,124,1.0,12.8,0.0,1,0.0,0.0,0.0,0,0,1,0,0,0,250,250,0,45.700325,4.909545,0.0,194.2,7,3,3.8,0,0.0,-1,0.0,0.0,0.0,0,0.0,0.7974
47863,1622988176499,,,,,,,,-0.01,0.0,-1.01,-0,-0,-0,0.01,,83,0,21,31,99,0.978,0.0,123,1.0,12.8,0.0,1,0.0,0.0,0.0,0,0,1,0,0,0,250,250,0,,,,,,,,,,,,,,,,
47883,1622988176519,,,,,,,,-0.01,0.0,-1.01,-0,-0,-0,0.01,,83,0,21,31,99,0.978,0.0,124,1.0,12.8,0.0,1,0.0,0.0,0.0,0,0,1,0,0,0,250,250,0,,,,,,,,,,,,,,,,
47903,1622988176539,,,,,,,,-0.01,0.0,-1.01,-0,-0,-0,0.01,,83,0,21,31,99,0.979,0.0,123,1.0,12.8,0.0,1,0.0,0.0,0.0,0,0,1,0,0,0,250,250,0,,,,,,,,,,,,,,,,
47923,1622988176559,,,,,,,,-0.01,0.0,-1.01,-0,-0,-0,0.01,,83,0,21,31,99,0.979,0.0,123,1.0,12.8,0.0,1,0.0,0.0,0.0,0,0,1,0,0,0,250,250,0,,,,,,,,,,,,,,,,
47943,1622988176579,-1,2,32,32,32,31,2,-0.01,0.0,-1.01,-0,-0,-0,0.01,0,83,0,21,31,99,0.979,0.0,124,1.0,12.8,0.0,1,0.0,0.0,0.0,0,0,1,0,0,0,250,250,0,45.700325,4.909545,0.0,194.2,7,3,3.8,0,0.0,-1,0.0,,0.0,0,0.0,0.799
47963,1622988176599,,,,,,,,-0.01,0.0,-1.01,-0,-0,-0,0.01,,83,0,21,31,99,0.98,0.0,124,1.0,12.8,0.0,1,0.0,0.0,0.0,0,0,1,0,0,0,250,250,0,,,,,,,,,,,,,,,,
47983,1622988176619,,,,,,,,-0.01,0.0,-1.01,-0,-0,-0,0.01,,83,0,21,31,99,0.98,0.0,123,1.0,12.8,0.0,1,0.0,0.0,0.0,0,0,1,0,0,0,250,250,0,,,,,,,,,,,,,,,,
48003,1622988176639,,,,,,,,-0.01,0.0,-1.01,-0,-0,-0,0.01,,83,0,21,31,99,0.98,0.0,123,1.0,12.8,0.0,1,0.0,0.0,0.0,0,0,1,0,0,0,250,250,0,,,,,,,,,,,,,,,,
48023,1622988176659,,,,,,,,-0.01,0.0,-1.0,-0,-0,-0,0.01,,83,0,21,31,99,0.981,0.0,123,1.0,12.8,0.0,1,0.0,0.0,0.0,0,0,1,0,0,0,250,250,0,,,,,,,,,,,,,,,,
48043,1622988176679,1,0,32,32,32,30,3,-0.01,0.0,-1.0,-0,-0,-0,0.01,0,83,0,21,31,99,0.981,0.0,123,1.0,12.8,0.0,1,0.0,0.0,0.0,0,0,1,0,0,0,250,250,0,45.700325,4.909545,0.0,194.2,7,3,3.8,0,0.0,-1,0.0,0.0,0.0,0,0.0,0.8007
48063,1622988176701,,,,,,,,-0.01,0.0,-1.01,-0,-0,-0,0.01,,83,0,21,31,99,0.981,0.0,123,1.0,12.8,0.0,1,0.0,0.0,0.0,0,0,1,0,0,0,250,250,0,,,,,,,,,,,,,,,,
48083,1622988176721,,,,,,,,-0.01,0.0,-1.0,-0,-0,-0,0.01,,83,0,21,31,99,0.982,0.0,123,1.0,12.8,0.0,1,0.0,0.0,0.0,0,0,1,0,0,0,250,250,0,,,,,,,,,,,,,,,,
48103,1622988176741,,,,,,,,-0.01,0.0,-1.0,-0,-0,-0,0.01,,83,0,21,31,99,0.982,0.0,123,1.0,12.8,0.0,1,0.0,0.0,0.0,0,0,1,0,0,0,250,250,0,,,,,,,,,,,,,,,,
48123,1622988176761,,,,,,,,-0.01,0.0,-1.01,-0,-0,-0,0.01,,83,0,21,31,99,0.983,0.0,124,1.0,12.8,0.0,1,0.0,0.0,0.0,0,0,1,0,0,0,250,250,0,,,,,,,,,,,,,,,,
48143,1622988176781,-1,2,32,32,32,30,3,-0.01,0.0,-1.01,-0,-0,-0,0.01,0,83,0,21,31,99,0.983,0.0,123,1.0,12.8,0.0,1,0.0,0.0,0.0,0,0,1,0,0,0,250,250,0,45.700325,4.909545,0.0,194.2,7,3,3.8,0,0.0,-1,0.0,,0.0,0,0.0,0.8024
48163,1622988176801,,,,,,,,-0.01,0.0,-1.01,-0,-0,-0,0.01,,83,0,21,31,99,0.983,0.0,123,1.0,12.8,0.0,1,0.0,0.0,0.0,0,0,1,0,0,0,250,250,0,,,,,,,,,,,,,,,,
48183,1622988176821,,,,,,,,-0.01,0.0,-1.01,-0,-0,-0,0.01,,83,0,21,31,99,0.984,0.0,123,1.0,12.8,0.0,1,0.0,0.0,0.0,0,0,1,0,0,0,250,250,0,,,,,,,,,,,,,,,,
48203,1622988176841,,,,,,,,-0.01,0.0,-1.0,-0,-0,-0,0.01,,83,0,21,31,99,0.984,0.0,124,1.0,12.8,0.0,1,0.0,0.0,0.0,0,0,1,0,0,0,250,250,0,,,,,,,,,,,,,,,,
48223,1622988176861,,,,,,,,-0.01,0.0,-1.0,-0,-0,-0,0.01,,83,0,21,31,99,0.985,0.0,123,1.0,12.8,0.0,1,0.0,0.0,0.0,0,0,1,0,0,0,250,250,0,,,,,,,,,,,,,,,,
48243,1622988176881,0,1,32,32,32,30,3,-0.01,0.0,-1.0,-0,-0,-0,0.01,0,83,0,21,31,99,0.985,0.0,123,1.0,12.8,0.0,1,0.0,0.0,0.0,0,0,1,0,0,0,250,250,0,45.700325,4.909545,0.0,194.2,7,3,3.8,0,0.0,-1,0.0,0.0,0.0,0,0.0,0.8041
48263,1622988176901,,,,,,,,-0.01,0.0,-1.0,-0,-0,-0,0.01,,83,0,21,31,99,0.985,0.0,124,1.0,12.8,0.0,1,0.0,0.0,0.0,0,0,1,0,0,0,250,250,0,,,,,,,,,,,,,,,,
48283,1622988176921,,,,,,,,-0.01,0.0,-1.0,-0,-0,-0,0.01,,83,0,21,31,99,0.986,0.0,123,1.0,12.8,0.0,1,0.0,0.0,0.0,0,0,1,0,0,0,250,250,0,,,,,,,,,,,,,,,,
48303,1622988176941,,,,,,,,-0.01,0.0,-1.0,-0,-0,0,0.01,,83,0,21,31,99,0.986,0.0,123,1.0,12.8,0.0,1,0.0,0.0,0.0,0,0,1,0,0,0,250,250,0,,,,,,,,,,,,,,,,
48323,1622988176961,,,,,,,,-0.01,0.0,-1.0,-0,-0,-0,0.01,,83,0,21,31,99,0.987,0.0,123,1.0,12.8,0.0,1,0.0,0.0,0.0,0,0,1,0,0,0,250,250,0,,,,,,,,,,,,,,,,
48343,1622988176981,0,0,32,32,32,30,2,-0.01,0.0,-1.0,0,-0,-0,0.01,0,83,0,21,31,99,0.987,0.0,124,1.0,12.8,0.0,1,0.0,0.0,0.0,0,0,1,0,0,0,250,250,0,45.700325,4.909545,0.0,194.2,7,3,3.8,0,0.0,-1,0.0,,0.0,0,0.0,0.8057
48363,1622988177001,,,,,,,,-0.01,0.0,-1.0,0,-0,-0,0.01,,83,0,21,31,99,0.987,0.0,123,1.0,12.8,0.0,1,0.0,0.0,0.0,0,0,1,0,0,0,250,250,0,,,,,,,,,,,,,,,,
48383,1622988177007,,,,,,,,-0.01,0.0,-1.0,0,-0,-0,0.01,,83,0,21,31,99,0.988,0.0,124,1.0,12.8,0.0,1,0.0,0.0,0.0,0,0,1,0,0,0,250,250,0,,,,,,,,,,,,,,,,
48403,1622988177027,,,,,,,,-0.01,0.0,-1.0,0,-0,-0,0.01,,83,0,21,31,99,0.988,0.0,124,0.99,12.8,0.0,1,0.0,0.0,0.0,0,0,1,0,0,0,250,250,0,,,,,,,,,,,,,,,,
48423,1622988177047,,,,,,,,-0.01,0.0,-1.01,-0,-0,-0,0.01,,83,0,21,31,99,0.989,0.0,123,1.0,12.8,0.0,1,0.0,0.0,0.0,0,0,1,0,0,0,250,250,0,,,,,,,,,,,,,,,,
48443,1622988177067,-1,2,32,32,32,31,2,-0.01,0.0,-1.01,-0,-0,-0,0.01,0,83,0,21,31,99,0.989,0.0,123,1.0,12.8,0.0,1,0.0,0.0,0.0,0,0,1,0,0,0,250,250,0,45.700325,4.909545,0.0,194.2,7,3,3.8,0,0.0,-1,0.0,0.0,0.0,0,0.0,0.8074
48463,1622988177100,,,,,,,,-0.01,0.0,-1.01,-0,-0,-0,0.01,,83,0,21,31,99,0.99,0.0,123,1.0,12.8,0.0,1,0.0,0.0,0.0,0,0,1,0,0,0,250,250,0,,,,,,,,,,,,,,,,
48483,1622988177120,,,,,,,,-0.01,0.0,-1.01,-0,-0,-0,0.01,,83,0,21,31,99,0.99,0.0,124,1.0,12.8,0.0,1,0.0,0.0,0.0,0,0,1,0,0,0,250,250,0,,,,,,,,,,,,,,,,
48503,1622988177140,,,,,,,,-0.01,0.0,-1.01,-0,-0,-0,0.01,,83,0,21,31,99,0.991,0.0,123,1.0,12.8,0.0,1,0.0,0.0,0.0,0,0,1,0,0,0,250,250,0,,,,,,,,,,,,,,,,
48523,1622988177160,,,,,,,,-0.01,0.0,-1.01,-0,-0,-0,0.01,,83,0,21,31,99,0.991,0.0,123,1.0,12.8,0.0,1,0.0,0.0,0.0,0,0,1,0,0,0,250,250,0,,,,,,,,,,,,,,,,
48543,1622988177180,0,1,32,32,32,31,2,-0.01,0.0,-1.01,-0,-0,-0,0.01,0,83,0,21,31,99,0.992,0.0,123,1.0,12.8,0.0,1,0.0,0.0,0.0,0,0,1,0,0,0,250,250,0,45.700325,4.909545,0.0,194.2,7,3,3.8,0,0.0,-1,0.0,,0.0,0,0.0,0.809
48563,1622988177202,,,,,,,,-0.01,0.0,-1.01,-0,-0,-0,0.01,,83,0,21,31,99,0.992,0.0,123,1.0,12.8,0.0,1,0.0,0.0,0.0,0,0,1,0,0,0,250,250,0,,,,,,,,,,,,,,,,
48583,1622988177222,,,,,,,,-0.01,0.0,-1.01,-0,-0,-0,0.01,,83,0,21,31,99,0.993,0.0,123,1.0,12.8,0.0,1,0.0,0.0,0.0,0,0,1,0,0,0,250,250,0,,,,,,,,,,,,,,,,
48603,1622988177242,,,,,,,,-0.01,0.0,-1.01,-0,-0,-0,0.01,,83,0,21,31,99,0.993,0.0,124,1.0,12.8,0.0,1,0.0,0.0,0.0,0,0,1,0,0,0,250,250,0,,,,,,,,,,,,,,,,
48623,1622988177262,,,,,,,,-0.01,0.0,-1.01,-0,-0,-0,0.01,,83,0,21,31,99,0.993,0.0,124,1.0,12.8,0.0,1,0.0,0.0,0.0,0,0,1,0,0,0,250,250,0,,,,,,,,,,,,,,,,
48643,1622988177282,1,0,32,32,33,30,2,-0.01,0.0,-1.01,-0,-0,-0,0.01,0,83,0,21,31,99,0.993,0.0,123,1.0,12.8,0.0,1,0.0,0.0,0.0,0,0,1,0,0,0,250,250,0,45.700325,4.909545,0.0,194.2,7,3,3.8,0,0.0,-1,0.0,0.0,0.0,0,0.0,0.8107
48663,1622988177302,,,,,,,,-0.01,0.0,-1.01,-0,-0,-0,0.01,,83,0,21,31,99,0.994,0.0,123,1.0,12.8,0.0,1,0.0,0.0,0.0,0,0,1,0,0,0,250,250,0,,,,,,,,,,,,,,,,
48683,1622988177322,,,,,,,,-0.01,0.0,-1.01,-0,-0,-0,0.01,,83,0,21,31,99,0.994,0.0,123,1.0,12.8,0.0,1,0.0,0.0,0.0,0,0,1,0,0,0,250,250,0,,,,,,,,,,,,,,,,
48703,1622988177342,,,,,,,,-0.01,0.0,-1.01,-0,-0,-0,0.01,,83,0,21,31,99,0.994,0.0,124,1.0,12.8,0.0,1,0.0,0.0,0.0,0,0,1,0,0,0,250,250,0,,,,,,,,,,,,,,,,
48723,1622988177362,,,,,,,,-0.01,0.0,-1.01,-0,-0,-0,0.01,,83,0,21,31,99,0.994,0.0,123,1.0,12.8,0.0,1,0.0,0.0,0.0,0,0,1,0,0,0,250,250,0,,,,,,,,,,,,,,,,
48743,1622988177382,-0,2,33,32,32,31,2,-0.01,0.0,-1.01,-0,-0,-0,0.01,0,83,0,21,31,99,0.995,0.0,124,1.0,12.8,0.0,1,0.0,0.0,0.0,0,0,1,0,0,0,250,250,0,45.700325,4.909545,0.0,194.2,7,3,3.8,0,0.0,-1,0.0,,0.0,0,0.0,0.8124
48763,1622988177402,,,,,,,,-0.01,0.0,-1.01,-0,-0,-0,0.01,,83,0,21,31,99,0.995,0.0,123,1.0,12.8,0.0,1,0.0,0.0,0.0,0,0,1,0,0,0,250,250,0,,,,,,,,,,,,,,,,
48783,1622988177422,,,,,,,,-0.01,0.0,-1.01,-0,-0,-0,0.01,,83,0,21,31,99,0.995,0.0,124,1.0,12.8,0.0,1,0.0,0.0,0.0,0,0,1,0,0,0,250,250,0,,,,,,,,,,,,,,,,
48803,1622988177442,,,,,,,,-0.01,0.0,-1.01,-0,-0,-0,0.01,,83,0,21,31,99,0.996,0.0,123,1.0,12.8,0.0,1,0.0,0.0,0.0,0,0,1,0,0,0,250,250,0,,,,,,,,,,,,,,,,
48823,1622988177462,,,,,,,,-0.01,0.0,-1.01,-0,-0,-0,0.01,,83,0,21,31,99,0.996,0.0,123,0.99,12.8,0.0,1,0.0,0.0,0.0,0,0,1,0,0,0,250,250,0,,,,,,,,,,,,,,,,
48843,1622988177482,-1,2,32,32,32,31,2,-0.01,0.0,-1.01,-0,-0,-0,0.01,0,83,0,21,31,99,0.996,0.0,123,1.0,12.8,0.0,1,0.0,0.0,0.0,0,0,1,0,0,0,250,250,0,45.700325,4.909545,0.0,194.2,7,3,3.8,0,0.0,-1,0.0,0.0,0.0,0,0.0,0.814
48863,1622988177502,,,,,,,,-0.01,0.0,-1.01,-0,-0,-0,0.01,,83,0,21,31,99,0.997,0.0,124,1.0,12.8,0.0,1,0.0,0.0,0.0,0,0,1,0,0,0,250,250,0,,,,,,,,,,,,,,,,
48883,1622988177522,,,,,,,,-0.01,0.0,-1.01,-0,-0,-0,0.01,,83,0,21,31,99,0.997,0.0,124,1.0,12.8,0.0,1,0.0,0.0,0.0,0,0,1,0,0,0,250,250,0,,,,,,,,,,,,,,,,
48903,1622988177542,,,,,,,,-0.01,0.0,-1.01,-0,-0,-0,0.01,,83,0,21,31,99,0.998,0.0,123,1.0,12.8,0.0,1,0.0,0.0,0.0,0,0,1,0,0,0,250,250,0,,,,,,,,,,,,,,,,
48923,1622988177562,,,,,,,,-0.01,0.0,-1.01,-0,-0,-0,0.01,,83,0,21,31,99,0.998,0.0,123,1.0,12.8,0.0,1,0.0,0.0,0.0,0,0,1,0,0,0,250,250,0,,,,,,,,,,,,,,,,
48943,1622988177582,1,1,32,32,32,31,2,-0.01,0.0,-1.01,-0,-0,0,0.01,0,83,0,21,31,99,0.999,0.0,124,1.0,12.8,0.0,1,0.0,0.0,0.0,0,0,1,0,0,0,250,250,0,45.700325,4.909545,0.0,194.2,7,3,3.8,0,0.0,-1,0.0,,0.0,0,0.0,0.8157
48963,1622988177602,,,,,,,,-0.01,0.0,-1.01,-0,-0,-0,0.01,,83,0,21,31,99,0.999,0.0,123,0.99,12.8,0.0,1,0.0,0.0,0.0,0,0,1,0,0,0,250,250,0,,,,,,,,,,,,,,,,
48983,1622988177622,,,,,,,,-0.01,0.0,-1.01,-0,-0,-0,0.01,,83,0,21,31,99,0.999,0.0,123,1.0,12.8,0.0,1,0.0,0.0,0.0,0,0,1,0,0,0,250,250,0,,,,,,,,,,,,,,,,
49003,1622988177642,,,,,,,,-0.01,0.0,-1.01,-0,-0,-0,0.01,,83,0,21,31,99,1.0,0.0,124,1.0,12.8,0.0,1,0.0,0.0,0.0,0,0,1,0,0,0,250,250,0,,,,,,,,,,,,,,,,
49023,1622988177662,,,,,,,,-0.01,0.0,-1.01,-0,-0,-0,0.01,,83,0,21,31,99,1.0,0.0,123,1.0,12.8,0.0,1,0.0,0.0,0.0,0,0,1,0,0,0,250,250,0,,,,,,,,,,,,,,,,
49043,1622988177682,1,1,32,32,32,31,2,-0.01,0.0,-1.01,-0,-0,-0,0.01,0,83,0,21,31,99,1.0,0.0,123,1.0,12.8,0.0,1,0.0,0.0,0.0,0,0,1,0,0,0,250,250,0,45.700325,4.909545,0.0,194.2,7,3,3.8,0,0.0,-1,0.0,0.0,0.0,0,0.0,0.8174
49063,1622988177700,,,,,,,,-0.01,0.0,-1.01,-0,-0,-0,0.01,,83,0,21,31,99,1.0,0.0,123,1.0,12.8,0.0,1,0.0,0.0,0.0,0,0,1,0,0,0,250,250,0,,,,,,,,,,,,,,,,
49083,1622988177720,,,,,,,,-0.01,0.0,-1.01,-0,-0,-0,0.01,,83,0,21,31,99,1.001,0.0,123,1.0,12.8,0.0,1,0.0,0.0,0.0,0,0,1,0,0,0,250,250,0,,,,,,,,,,,,,,,,
49103,1622988177740,,,,,,,,-0.01,0.0,-1.01,-0,-0,-0,0.01,,83,0,21,31,99,1.001,0.0,123,1.0,12.8,0.0,1,0.0,0.0,0.0,0,0,1,0,0,0,250,250,0,,,,,,,,,,,,,,,,
49123,1622988177760,,,,,,,,-0.01,0.0,-1.01,-0,-0,-0,0.01,,83,0,21,31,99,1.001,0.0,123,1.0,12.8,0.0,1,0.0,0.0,0.0,0,0,1,0,0,0,250,250,0,,,,,,,,,,,,,,,,
49143,1622988177780,0,2,32,32,32,30,3,-0.01,0.0,-1.01,-0,-0,-0,0.01,0,83,0,21,31,99,1.001,0.0,123,1.0,12.8,0.0,1,0.0,0.0,0.0,0,0,1,0,0,0,250,250,0,45.700325,4.909545,0.0,194.2,7,3,3.8,0,0.0,-1,0.0,,0.0,0,0.0,0.819
49163,1622988177802,,,,,,,,-0.01,0.0,-1.01,-0,-0,-0,0.01,,83,0,21,31,99,1.002,0.0,124,1.0,12.8,0.0,1,0.0,0.0,0.0,0,0,1,0,0,0,250,250,0,,,,,,,,,,,,,,,,
49183,1622988177822,,,,,,,,-0.01,0.0,-1.01,-0,-0,-0,0.01,,83,0,21,31,99,1.002,0.0,124,1.0,12.8,0.0,1,0.0,0.0,0.0,0,0,1,0,0,0,250,250,0,,,,,,,,,,,,,,,,
49203,1622988177842,,,,,,,,-0.01,0.0,-1.01,-0,-0,-0,0.01,,83,0,21,31,99,1.002,0.0,123,1.0,12.8,0.0,1,0.0,0.0,0.0,0,0,1,0,0,0,250,250,0,,,,,,,,,,,,,,,,
49223,1622988177862,,,,,,,,-0.01,0.0,-1.01,-0,-0,-0,0.01,,83,0,21,31,99,1.002,0.0,123,1.0,12.8,0.0,1,0.0,0.0,0.0,0,0,1,0,0,0,250,250,0,,,,,,,,,,,,,,,,
49243,1622988177882,-0,2,32,32,32,31,2,-0.01,0.0,-1.01,-0,-0,-0,0.01,0,83,0,21,31,99,1.003,0.0,123,1.0,12.8,0.0,1,0.0,0.0,0.0,0,0,1,0,0,0,250,250,0,45.700325,4.909545,0.0,194.2,7,3,3.8,0,0.0,-1,0.0,0.0,0.0,0,0.0,0.8207
49263,1622988177902,,,,,,,,-0.01,0.0,-1.01,-0,-0,-0,0.01,,83,0,21,31,99,1.003,0.0,123,1.0,12.8,0.0,1,0.0,0.0,0.0,0,0,1,0,0,0,250,250,0,,,,,,,,,,,,,,,,
49283,1622988177922,,,,,,,,-0.01,0.0,-1.01,-0,-0,-0,0.01,,83,0,21,31,99,1.003,0.0,123,1.0,12.8,0.0,1,0.0,0.0,0.0,0,0,1,0,0,0,250,250,0,,,,,,,,,,,,,,,,
49303,1622988177942,,,,,,,,-0.01,0.0,-1.01,-0,-0,-0,0.01,,83,0,21,31,99,1.004,0.0,123,1.0,12.8,0.0,1,0.0,0.0,0.0,0,0,1,0,0,0,250,250,0,,,,,,,,,,,,,,,,
49323,1622988177962,,,,,,,,-0.01,0.0,-1.01,-0,-0,-0,0.01,,83,0,21,31,99,1.004,0.0,123,1.0,12.8,0.0,1,0.0,0.0,0.0,0,0,1,0,0,0,250,250,0,,,,,,,,,,,,,,,,
49343,1622988177982,0,1,33,32,32,31,2,-0.01,0.0,-1.01,-0,-0,-0,0.01,0,83,0,21,31,99,1.004,0.0,123,1.0,12.8,0.0,1,0.0,0.0,0.0,0,0,1,0,0,0,250,250,0,45.700325,4.909545,0.0,194.2,7,3,3.8,0,0.0,-1,0.0,,0.0,0,0.0,0.8224
49363,1622988178002,,,,,,,,-0.01,0.0,-1.01,-0,-0,-0,0.01,,83,0,21,31,99,1.005,0.0,123,1.0,12.8,0.0,1,0.0,0.0,0.0,0,0,1,0,0,0,250,250,0,,,,,,,,,,,,,,,,
49383,1622988178006,,,,,,,,-0.01,0.0,-1.01,-0,-0,-0,0.01,,83,0,21,31,99,1.005,0.0,123,1.0,12.8,0.0,1,0.0,0.0,0.0,0,0,1,0,0,0,250,250,0,,,,,,,,,,,,,,,,
49403,1622988178026,,,,,,,,-0.01,0.0,-1.01,-0,-0,-0,0.01,,83,0,21,31,99,1.006,0.0,123,1.0,12.8,0.0,1,0.0,0.0,0.0,0,0,1,0,0,0,250,250,0,,,,,,,,,,,,,,,,
49423,1622988178046,,,,,,,,-0.01,0.0,-1.01,-0,-0,-0,0.01,,83,0,21,31,99,1.006,0.0,123,1.0,12.8,0.0,1,0.0,0.0,0.0,0,0,1,0,0,0,250,250,0,,,,,,,,,,,,,,,,
49443,1622988178066,-0,2,33,32,32,31,2,-0.01,0.0,-1.01,-0,-0,-0,0.01,0,83,0,21,31,99,1.007,0.0,123,1.0,12.8,0.0,1,0.0,0.0,0.0,0,0,1,0,0,0,250,250,0,45.700325,4.909545,0.0,194.2,7,3,3.8,0,0.0,-1,0.0,0.0,0.0,0,0.0,0.824
49463,1622988178101,,,,,,,,-0.01,0.0,-1.01,-0,-0,-0,0.01,,83,0,21,31,99,1.007,0.0,123,1.0,12.8,0.0,1,0.0,0.0,0.0,0,0,1,0,0,0,250,250,0,,,,,,,,,,,,,,,,
49483,1622988178121,,,,,,,,-0.01,0.0,-1.01,-0,-0,-0,0.01,,83,0,21,31,99,1.007,0.0,124,1.0,12.8,0.0,1,0.0,0.0,0.0,0,0,1,0,0,0,250,250,0,,,,,,,,,,,,,,,,
49503,1622988178141,,,,,,,,-0.01,0.0,-1.01,-0,-0,-0,0.01,,83,0,21,31,99,1.008,0.0,123,1.0,12.8,0.0,1,0.0,0.0,0.0,0,0,1,0,0,0,250,250,0,,,,,,,,,,,,,,,,
49523,1622988178161,,,,,,,,-0.01,0.0,-1.01,-0,-0,-0,0.01,,83,0,21,31,99,1.008,0.0,123,1.0,12.8,0.0,1,0.0,0.0,0.0,0,0,1,0,0,0,250,250,0,,,,,,,,,,,,,,,,
49543,1622988178181,-1,2,32,32,32,30,3,-0.01,0.0,-1.01,0,-0,-0,0.01,0,83,0,21,31,99,1.008,0.0,123,1.0,12.8,0.0,1,0.0,0.0,0.0,0,0,1,0,0,0,250,250,0,45.700325,4.909545,0.0,194.2,7,3,3.8,0,0.0,-1,0.0,,0.0,0,0.0,0.8257
49563,1622988178201,,,,,,,,-0.01,0.0,-1.01,0,-0,-0,0.01,,83,0,21,31,99,1.009,0.0,124,1.0,12.8,0.0,1,0.0,0.0,0.0,0,0,1,0,0,0,250,250,0,,,,,,,,,,,,,,,,
49583,1622988178221,,,,,,,,-0.01,0.0,-1.01,0,-0,-0,0.01,,83,0,21,31,99,1.009,0.0,124,1.0,12.8,0.0,1,0.0,0.0,0.0,0,0,1,0,0,0,250,250,0,,,,,,,,,,,,,,,,
49603,1622988178241,,,,,,,,-0.01,0.0,-1.01,-0,-0,-0,0.01,,83,0,21,31,99,1.009,0.0,124,1.0,12.8,0.0,1,0.0,0.0,0.0,0,0,1,0,0,0,250,250,0,,,,,,,,,,,,,,,,
49623,1622988178261,,,,,,,,-0.01,0.0,-1.01,0,-0,-0,0.01,,83,0,21,31,99,1.009,0.0,123,1.0,12.8,0.0,1,0.0,0.0,0.0,0,0,1,0,0,0,250,250,0,,,,,,,,,,,,,,,,
49643,1622988178281,-1,2,32,32,32,31,2,-0.01,0.0,-1.01,0,-0,0,0.01,0,83,0,21,31,99,1.01,0.0,123,1.0,12.8,0.0,1,0.0,0.0,0.0,0,0,1,0,0,0,250,250,0,45.700325,4.909545,0.0,194.2,7,3,3.8,0,0.0,-1,0.0,0.0,0.0,0,0.0,0.8274
49663,1622988178301,,,,,,,,-0.01,0.0,-1.01,0,-0,0,0.01,,83,0,21,31,99,1.01,0.0,123,1.0,12.8,0.0,1,0.0,0.0,0.0,0,0,1,0,0,0,250,250,0,,,,,,,,,,,,,,,,
49683,1622988178321,,,,,,,,-0.01,0.0,-1.01,0,-0,0,0.01,,83,0,21,31,99,1.01,0.0,123,1.0,12.8,0.0,1,0.0,0.0,0.0,0,0,1,0,0,0,250,250,0,,,,,,,,,,,,,,,,
49703,1622988178341,,,,,,,,-0.01,0.0,-1.01,0,-0,0,0.01,,83,0,21,31,99,1.01,0.0,124,1.0,12.8,0.0,1,0.0,0.0,0.0,0,0,1,0,0,0,250,250,0,,,,,,,,,,,,,,,,
49723,1622988178361,,,,,,,,-0.01,0.0,-1.01,0,-0,-0,0.01,,83,0,21,31,99,1.01,0.0,123,1.0,12.8,0.0,1,0.0,0.0,0.0,0,0,1,0,0,0,250,250,0,,,,,,,,,,,,,,,,
49743,1622988178381,0,1,32,32,32,31,2,-0.01,0.0,-1.01,0,-0,0,0.01,0,83,0,21,31,99,1.01,0.0,124,1.0,12.8,0.0,1,0.0,0.0,0.0,0,0,1,0,0,0,250,250,0,45.700325,4.909545,0.0,194.2,7,3,3.8,0,0.0,-1,0.0,,0.0,0,0.0,0.829
49763,1622988178401,,,,,,,,-0.01,0.0,-1.01,0,-0,0,0.01,,83,0,21,31,99,1.01,0.0,123,1.0,12.8,0.0,1,0.0,0.0,0.0,0,0,1,0,0,0,250,250,0,,,,,,,,,,,,,,,,
49783,1622988178421,,,,,,,,-0.01,0.0,-1.01,0,-0,0,0.01,,83,0,21,31,99,1.011,0.0,123,1.0,12.8,0.0,1,0.0,0.0,0.0,0,0,1,0,0,0,250,250,0,,,,,,,,,,,,,,,,
49803,1622988178441,,,,,,,,-0.01,0.0,-1.01,0,-0,0,0.01,,83,0,21,31,99,1.011,0.0,123,1.0,12.8,0.0,1,0.0,0.0,0.0,0,0,1,0,0,0,250,250,0,,,,,,,,,,,,,,,,
49823,1622988178461,,,,,,,,-0.01,0.0,-1.01,0,-0,0,0.01,,83,0,21,31,99,1.011,0.0,124,1.0,12.8,0.0,1,0.0,0.0,0.0,0,0,1,0,0,0,250,250,0,,,,,,,,,,,,,,,,
49843,1622988178481,-0,2,33,32,32,30,3,-0.01,0.0,-1.01,0,-0,0,0.01,0,83,0,21,31,99,1.012,0.0,123,1.0,12.8,0.0,1,0.0,0.0,0.0,0,0,1,0,0,0,250,250,0,45.700325,4.909545,0.0,194.2,7,3,3.8,0,0.0,-1,0.0,0.0,0.0,0,0.0,0.8307
49863,1622988178501,,,,,,,,-0.01,0.0,-1.01,0,-0,0,0.01,,83,0,21,31,99,1.012,0.0,123,1.0,12.8,0.0,1,0.0,0.0,0.0,0,0,1,0,0,0,250,250,0,,,,,,,,,,,,,,,,
49883,1622988178521,,,,,,,,-0.01,0.0,-1.01,0,-0,0,0.01,,83,0,21,31,99,1.012,0.0,124,1.0,12.8,0.0,1,0.0,0.0,0.0,0,0,1,0,0,0,250,250,0,,,,,,,,,,,,,,,,
49903,1622988178541,,,,,,,,-0.01,0.0,-1.01,0,-0,0,0.01,,83,0,21,31,99,1.012,0.0,124,1.0,12.8,0.0,1,0.0,0.0,0.0,0,0,1,0,0,0,250,250,0,,,,,,,,,,,,,,,,
49923,1622988178561,,,,,,,,-0.01,0.0,-1.01,0,-0,0,0.01,,83,0,21,31,99,1.012,0.0,123,1.0,12.8,0.0,1,0.0,0.0,0.0,0,0,1,0,0,0,250,250,0,,,,,,,,,,,,,,,,
49943,1622988178581,-1,2,32,32,32,31,2,-0.01,0.0,-1.01,0,-0,0,0.01,0,83,0,21,31,99,1.012,0.0,124,1.0,12.8,0.0,1,0.0,0.0,0.0,0,0,1,0,0,0,250,250,0,45.700325,4.909545,0.0,194.2,7,3,3.8,0,0.0,-1,0.0,,0.0,0,0.0,0.8324
49963,1622988178603,,,,,,,,-0.01,0.0,-1.01,0,-0,0,0.01,,83,0,21,31,99,1.013,0.0,123,1.0,12.8,0.0,1,0.0,0.0,0.0,0,0,1,0,0,0,250,250,0,,,,,,,,,,,,,,,,
49983,1622988178623,,,,,,,,-0.01,0.0,-1.01,-0,-0,0,0.01,,83,0,21,31,99,1.013,0.0,123,1.0,12.8,0.0,1,0.0,0.0,0.0,0,0,1,0,0,0,250,250,0,,,,,,,,,,,,,,,,
50003,1622988178643,,,,,,,,-0.01,0.0,-1.01,-0,-0,0,0.01,,83,0,21,31,99,1.013,0.0,123,1.0,12.8,0.0,1,0.0,0.0,0.0,0,0,1,0,0,0,250,250,0,,,,,,,,,,,,,,,,
50023,1622988178663,,,,,,,,-0.01,0.0,-1.01,0,-0,-0,0.01,,83,0,21,31,99,1.013,0.0,123,1.0,12.8,0.0,1,0.0,0.0,0.0,0,0,1,0,0,0,250,250,0,,,,,,,,,,,,,,,,
50043,1622988178683,0,2,32,32,32,31,2,-0.01,0.0,-1.01,0,-0,-0,0.01,0,83,0,21,31,99,1.013,0.0,123,1.0,12.8,0.0,1,0.0,0.0,0.0,0,0,1,0,0,0,250,250,0,45.700325,4.909545,0.0,194.2,7,3,3.8,0,0.0,-1,0.0,0.0,0.0,0,0.0,0.834
50063,1622988178701,,,,,,,,-0.01,0.0,-1.01,0,-0,-0,0.01,,83,0,21,31,99,1.014,0.0,123,1.0,12.8,0.0,1,0.0,0.0,0.0,0,0,1,0,0,0,250,250,0,,,,,,,,,,,,,,,,
50083,1622988178721,,,,,,,,-0.01,0.0,-1.01,0,-0,-0,0.01,,83,0,21,31,99,1.014,0.0,124,1.0,12.8,0.0,1,0.0,0.0,0.0,0,0,1,0,0,0,250,250,0,,,,,,,,,,,,,,,,
50103,1622988178741,,,,,,,,-0.01,0.0,-1.01,-0,-0,0,0.01,,83,0,21,31,99,1.014,0.0,124,1.0,12.8,0.0,1,0.0,0.0,0.0,0,0,1,0,0,0,250,250,0,,,,,,,,,,,,,,,,
50123,1622988178761,,,,,,,,-0.01,0.0,-1.01,0,-0,0,0.01,,83,0,21,31,99,1.014,0.0,123,1.0,12.8,0.0,1,0.0,0.0,0.0,0,0,1,0,0,0,250,250,0,,,,,,,,,,,,,,,,
50143,1622988178781,-0,1,33,32,33,31,2,-0.01,0.0,-1.01,-0,-0,0,0.01,0,83,0,21,31,99,1.014,0.0,124,1.0,12.8,0.0,1,0.0,0.0,0.0,0,0,1,0,0,0,250,250,0,45.700325,4.909545,0.0,194.2,7,3,3.8,0,0.0,-1,0.0,,0.0,0,0.0,0.8357
50163,1622988178801,,,,,,,,-0.01,0.0,-1.01,-0,-0,0,0.01,,83,0,21,31,99,1.015,0.0,123,1.0,12.8,0.0,1,0.0,0.0,0.0,0,0,1,0,0,0,250,250,0,,,,,,,,,,,,,,,,
50183,1622988178821,,,,,,,,-0.01,0.0,-1.01,-0,-0,0,0.01,,83,0,21,31,99,1.015,0.0,123,1.0,12.8,0.0,1,0.0,0.0,0.0,0,0,1,0,0,0,250,250,0,,,,,,,,,,,,,,,,
50203,1622988178841,,,,,,,,-0.01,0.0,-1.01,-0,-0,-0,0.01,,83,0,21,31,99,1.015,0.0,123,1.0,12.8,0.0,1,0.0,0.0,0.0,0,0,1,0,0,0,250,250,0,,,,,,,,,,,,,,,,
50223,1622988178861,,,,,,,,-0.01,0.0,-1.01,-0,-0,-0,0.01,,83,0,21,31,99,1.015,0.0,124,1.0,12.8,0.0,1,0.0,0.0,0.0,0,0,1,0,0,0,250,250,0,,,,,,,,,,,,,,,,
50243,1622988178881,0,0,33,32,32,30,3,-0.01,0.0,-1.01,-0,-0,-0,0.01,0,83,0,21,31,99,1.015,0.0,124,1.0,12.8,0.0,1,0.0,0.0,0.0,0,0,1,0,0,0,250,250,0,45.700325,4.909545,0.0,194.2,7,3,3.8,0,0.0,-1,0.0,0.0,0.0,0,0.0,0.8374
50263,1622988178901,,,,,,,,-0.01,0.0,-1.01,-0,-0,-0,0.01,,83,0,21,31,99,1.015,0.0,124,1.0,12.8,0.0,1,0.0,0.0,0.0,0,0,1,0,0,0,250,250,0,,,,,,,,,,,,,,,,
50283,1622988178921,,,,,,,,-0.01,0.0,-1.01,-0,-0,-0,0.01,,83,0,21,31,99,1.015,0.0,123,1.0,12.8,0.0,1,0.0,0.0,0.0,0,0,1,0,0,0,250,250,0,,,,,,,,,,,,,,,,
50303,1622988178941,,,,,,,,-0.01,0.0,-1.01,-0,-0,-0,0.01,,83,0,21,31,99,1.015,0.0,123,1.0,12.8,0.0,1,0.0,0.0,0.0,0,0,1,0,0,0,250,250,0,,,,,,,,,,,,,,,,
50323,1622988178961,,,,,,,,-0.01,0.0,-1.01,-0,-0,-0,0.01,,83,0,21,31,99,1.015,0.0,123,1.0,12.8,0.0,1,0.0,0.0,0.0,0,0,1,0,0,0,250,250,0,,,,,,,,,,,,,,,,
50343,1622988178981,0,0,33,32,32,31,2,-0.01,0.0,-1.01,-0,-0,-0,0.01,0,83,0,21,31,99,1.015,0.0,123,1.0,12.8,0.0,1,0.0,0.0,0.0,0,0,1,0,0,0,250,250,0,45.700325,4.909545,0.0,194.2,7,3,3.8,0,0.0,-1,0.0,,0.0,0,0.0,0.839
50363,1622988179001,,,,,,,,-0.01,0.0,-1.01,-0,-0,0,0.01,,83,0,21,31,99,1.015,0.0,123,1.0,12.8,0.0,1,0.0,0.0,0.0,0,0,1,0,0,0,250,250,0,,,,,,,,,,,,,,,,
50383,1622988179003,,,,,,,,-0.01,0.0,-1.01,-0,-0,-0,0.01,,83,0,21,31,99,1.015,0.0,123,1.0,12.8,0.0,1,0.0,0.0,0.0,0,0,1,0,0,0,250,250,0,,,,,,,,,,,,,,,,
50403,1622988179023,,,,,,,,-0.01,0.0,-1.01,-0,-0,-0,0.01,,83,0,21,31,99,1.015,0.0,124,1.0,12.8,0.0,1,0.0,0.0,0.0,0,0,1,0,0,0,250,250,0,,,,,,,,,,,,,,,,
50423,1622988179043,,,,,,,,-0.01,0.0,-1.01,-0,-0,-0,0.01,,83,0,21,31,99,1.015,0.0,123,1.0,12.8,0.0,1,0.0,0.0,0.0,0,0,1,0,0,0,250,250,0,,,,,,,,,,,,,,,,
50443,1622988179063,1,1,32,32,32,31,2,-0.01,0.0,-1.01,-0,-0,-0,0.01,0,83,0,21,31,99,1.016,0.0,124,0.99,12.8,0.0,1,0.0,0.0,0.0,0,0,1,0,0,0,250,250,0,45.700325,4.909545,0.0,194.2,7,3,3.8,0,0.0,-1,0.0,0.0,0.0,0,0.0,0.8407
50463,1622988179098,,,,,,,,-0.01,0.0,-1.01,-0,-0,-0,0.01,,83,0,21,31,99,1.016,0.0,124,1.0,12.8,0.0,1,0.0,0.0,0.0,0,0,1,0,0,0,250,250,0,,,,,,,,,,,,,,,,
50483,1622988179118,,,,,,,,-0.01,0.0,-1.01,-0,-0,-0,0.01,,83,0,21,31,99,1.016,0.0,123,1.0,12.8,0.0,1,0.0,0.0,0.0,0,0,1,0,0,0,250,250,0,,,,,,,,,,,,,,,,
50503,1622988179138,,,,,,,,-0.01,0.0,-1.01,-0,-0,-0,0.01,,83,0,21,31,99,1.016,0.0,123,1.0,12.8,0.0,1,0.0,0.0,0.0,0,0,1,0,0,0,250,250,0,,,,,,,,,,,,,,,,
50523,1622988179158,,,,,,,,-0.01,0.0,-1.01,0,-0,-0,0.01,,83,0,21,31,99,1.016,0.0,123,1.0,12.8,0.0,1,0.0,0.0,0.0,0,0,1,0,0,0,250,250,0,,,,,,,,,,,,,,,,
50543,1622988179178,-0,2,33,32,32,31,2,-0.01,0.0,-1.0,0,-0,-0,0.01,0,83,0,21,31,99,1.016,0.0,123,1.0,12.8,0.0,1,0.0,0.0,0.0,0,0,1,0,0,0,250,250,0,45.700325,4.909545,0.0,194.2,7,3,3.8,0,0.0,-1,0.0,,0.0,0,0.0,0.8424
50563,1622988179200,,,,,,,,-0.01,0.0,-1.0,0,-0,-0,0.01,,83,0,21,31,99,1.016,0.0,123,1.0,12.8,0.0,1,0.0,0.0,0.0,0,0,1,0,0,0,250,250,0,,,,,,,,,,,,,,,,
50583,1622988179220,,,,,,,,-0.01,0.0,-1.0,0,-0,-0,0.01,,83,0,21,31,99,1.016,0.0,124,1.0,12.8,0.0,1,0.0,0.0,0.0,0,0,1,0,0,0,250,250,0,,,,,,,,,,,,,,,,
50603,1622988179240,,,,,,,,-0.01,0.0,-1.0,0,-0,-0,0.01,,83,0,21,31,99,1.017,0.0,123,1.0,12.8,0.0,1,0.0,0.0,0.0,0,0,1,0,0,0,250,250,0,,,,,,,,,,,,,,,,
50623,1622988179260,,,,,,,,-0.01,0.0,-1.0,0,-0,-0,0.01,,83,0,21,31,99,1.017,0.0,124,1.0,12.7,0.0,1,0.0,0.0,0.0,0,0,1,0,0,0,250,250,0,,,,,,,,,,,,,,,,
50643,1622988179280,1,1,32,32,32,31,2,-0.01,0.0,-1.0,0,-0,-0,0.01,0,83,0,21,31,99,1.017,0.0,123,1.0,12.8,0.0,1,0.0,0.0,0.0,0,0,1,0,0,0,250,250,0,45.700325,4.909545,0.0,194.2,7,3,3.8,0,0.0,-1,0.0,0.0,0.0,0,0.0,0.844
50663,1622988179300,,,,,,,,-0.01,0.0,-1.01,0,-0,-0,0.01,,83,0,21,31,99,1.017,0.0,124,1.0,12.8,0.0,1,0.0,0.0,0.0,0,0,1,0,0,0,250,250,0,,,,,,,,,,,,,,,,
50683,1622988179320,,,,,,,,-0.01,0.0,-1.01,-0,-0,-0,0.01,,83,0,21,31,99,1.017,0.0,123,1.0,12.8,0.0,1,0.0,0.0,0.0,0,0,1,0,0,0,250,250,0,,,,,,,,,,,,,,,,
50703,1622988179340,,,,,,,,-0.01,0.0,-1.01,-0,-0,-0,0.01,,83,0,21,31,99,1.017,0.0,124,1.0,12.8,0.0,1,0.0,0.0,0.0,0,0,1,0,0,0,250,250,0,,,,,,,,,,,,,,,,
50723,1622988179360,,,,,,,,-0.01,0.0,-1.01,-0,-0,-0,0.01,,83,0,21,31,99,1.017,0.0,123,1.0,12.8,0.0,1,0.0,0.0,0.0,0,0,1,0,0,0,250,250,0,,,,,,,,,,,,,,,,
50743,1622988179380,-0,2,33,32,33,31,2,-0.01,0.0,-1.01,-0,-0,-0,0.01,0,83,0,21,31,99,1.017,0.0,123,1.0,12.8,0.0,1,0.0,0.0,0.0,0,0,1,0,0,0,250,250,0,45.700325,4.909545,0.0,194.2,7,3,3.8,0,0.0,-1,0.0,,0.0,0,0.0,0.8457
50763,1622988179401,,,,,,,,-0.01,0.0,-1.01,-0,-0,-0,0.01,,83,0,21,31,99,1.017,0.0,123,1.0,12.8,0.0,1,0.0,0.0,0.0,0,0,1,0,0,0,250,250,0,,,,,,,,,,,,,,,,
50783,1622988179421,,,,,,,,-0.01,0.0,-1.01,-0,-0,-0,0.01,,83,0,21,31,99,1.017,0.0,123,1.0,12.8,0.0,1,0.0,0.0,0.0,0,0,1,0,0,0,250,250,0,,,,,,,,,,,,,,,,
50803,1622988179441,,,,,,,,-0.01,0.0,-1.01,-0,-0,-0,0.01,,83,0,21,31,99,1.017,0.0,123,1.0,12.8,0.0,1,0.0,0.0,0.0,0,0,1,0,0,0,250,250,0,,,,,,,,,,,,,,,,
50823,1622988179461,,,,,,,,-0.0,0.0,-1.01,-0,-0,-0,0.0,,83,0,21,31,99,1.017,0.0,123,1.0,12.8,0.0,1,0.0,0.0,0.0,0,0,1,0,0,0,250,250,0,,,,,,,,,,,,,,,,
50843,1622988179481,-0,3,32,32,32,30,1,-0.0,0.0,-1.01,-0,-0,-0,0.01,0,83,0,21,31,99,1.017,0.0,123,1.0,12.8,0.0,1,0.0,0.0,0.0,0,0,1,0,0,0,250,250,0,45.700325,4.909545,0.0,194.2,7,3,3.8,0,0.0,-1,0.0,0.0,0.0,0,0.0,0.8474
50863,1622988179500,,,,,,,,-0.0,0.0,-1.01,-0,-0,-0,0.01,,83,0,21,31,99,1.017,0.0,123,1.0,12.8,0.0,1,0.0,0.0,0.0,0,0,1,0,0,0,250,250,0,,,,,,,,,,,,,,,,
50883,1622988179520,,,,,,,,-0.01,0.0,-1.01,-0,-0,-0,0.01,,83,0,21,31,99,1.017,0.0,123,1.0,12.8,0.0,1,0.0,0.0,0.0,0,0,1,0,0,0,250,250,0,,,,,,,,,,,,,,,,
50903,1622988179540,,,,,,,,-0.01,0.0,-1.01,-0,-0,-0,0.01,,83,0,21,31,99,1.017,0.0,123,1.0,12.8,0.0,1,0.0,0.0,0.0,0,0,1,0,0,0,250,250,0,,,,,,,,,,,,,,,,
50923,1622988179560,,,,,,,,-0.01,0.0,-1.01,-0,-0,-0,0.01,,83,0,21,31,99,1.017,0.0,123,1.0,12.8,0.0,1,0.0,0.0,0.0,0,0,1,0,0,0,250,250,0,,,,,,,,,,,,,,,,
50943,1622988179580,1,1,32,32,32,31,2,-0.01,0.0,-1.01,-0,-0,-0,0.01,0,83,0,21,31,99,1.017,0.0,124,1.0,12.8,0.0,1,0.0,0.0,0.0,0,0,1,0,0,0,250,250,0,45.700325,4.909545,0.0,194.2,7,3,3.8,0,0.0,-1,0.0,,0.0,0,0.0,0.849
50963,1622988179600,,,,,,,,-0.01,0.0,-1.01,-0,-0,-0,0.01,,83,0,21,31,99,1.016,0.0,124,1.0,12.8,0.0,1,0.0,0.0,0.0,0,0,1,0,0,0,250,250,0,,,,,,,,,,,,,,,,
50983,1622988179620,,,,,,,,-0.01,0.0,-1.01,-0,-0,-0,0.01,,83,0,21,31,99,1.016,0.0,123,1.0,12.8,0.0,1,0.0,0.0,0.0,0,0,1,0,0,0,250,250,0,,,,,,,,,,,,,,,,
51003,1622988179640,,,,,,,,-0.01,0.0,-1.01,-0,-0,-0,0.01,,83,0,21,31,99,1.016,0.0,123,1.0,12.8,0.0,1,0.0,0.0,0.0,0,0,1,0,0,0,250,250,0,,,,,,,,,,,,,,,,
51023,1622988179660,,,,,,,,-0.01,0.0,-1.01,-0,-0,-0,0.01,,83,0,21,31,99,1.016,0.0,123,1.0,12.8,0.0,1,0.0,0.0,0.0,0,0,1,0,0,0,250,250,0,,,,,,,,,,,,,,,,
51043,1622988179680,0,2,32,32,32,31,2,-0.01,0.0,-1.01,-0,-0,-0,0.01,0,83,0,21,31,99,1.016,0.0,123,1.0,12.8,0.0,1,0.0,0.0,0.0,0,0,1,0,0,0,250,250,0,45.700325,4.909545,0.0,194.2,7,3,3.8,0,0.0,-1,0.0,0.0,0.0,0,0.0,0.8507
51063,1622988179700,,,,,,,,-0.01,0.0,-1.01,-0,-0,-0,0.01,,83,0,21,31,99,1.016,0.0,123,1.0,12.8,0.0,1,0.0,0.0,0.0,0,0,1,0,0,0,250,250,0,,,,,,,,,,,,,,,,
51083,1622988179720,,,,,,,,-0.01,0.0,-1.01,-0,-0,-0,0.01,,83,0,21,31,99,1.016,0.0,124,1.0,12.8,0.0,1,0.0,0.0,0.0,0,0,1,0,0,0,250,250,0,,,,,,,,,,,,,,,,
51103,1622988179740,,,,,,,,-0.01,0.0,-1.01,-0,-0,-0,0.01,,83,0,21,31,99,1.016,0.0,123,1.0,12.8,0.0,1,0.0,0.0,0.0,0,0,1,0,0,0,250,250,0,,,,,,,,,,,,,,,,
51123,1622988179760,,,,,,,,-0.01,0.0,-1.01,-0,-0,-0,0.01,,83,0,21,31,99,1.016,0.0,123,1.0,12.8,0.0,1,0.0,0.0,0.0,0,0,1,0,0,0,250,250,0,,,,,,,,,,,,,,,,
51143,1622988179780,-1,2,32,32,32,30,3,-0.01,0.0,-1.01,-0,-0,0,0.01,0,83,0,21,31,99,1.016,0.0,123,1.0,12.8,0.0,1,0.0,0.0,0.0,0,0,1,0,0,0,250,250,0,45.700325,4.909545,0.0,194.2,7,3,3.8,0,0.0,-1,0.0,,0.0,0,0.0,0.8524
51163,1622988179800,,,,,,,,-0.01,0.0,-1.01,-0,-0,0,0.01,,83,0,21,31,99,1.016,0.0,123,1.0,12.8,0.0,1,0.0,0.0,0.0,0,0,1,0,0,0,250,250,0,,,,,,,,,,,,,,,,
51183,1622988179820,,,,,,,,-0.01,0.0,-1.01,-0,-0,0,0.01,,83,0,21,31,99,1.016,0.0,123,1.0,12.8,0.0,1,0.0,0.0,0.0,0,0,1,0,0,0,250,250,0,,,,,,,,,,,,,,,,
51203,1622988179840,,,,,,,,-0.01,0.0,-1.01,-0,-0,0,0.01,,83,0,21,31,99,1.016,0.0,123,1.0,12.8,0.0,1,0.0,0.0,0.0,0,0,1,0,0,0,250,250,0,,,,,,,,,,,,,,,,
51223,1622988179860,,,,,,,,-0.01,0.0,-1.01,-0,-0,0,0.01,,83,0,21,31,99,1.016,0.0,124,1.0,12.8,0.0,1,0.0,0.0,0.0,0,0,1,0,0,0,250,250,0,,,,,,,,,,,,,,,,
51243,1622988179880,0,0,32,32,32,30,2,-0.01,0.0,-1.01,0,-0,-0,0.01,0,83,0,21,31,99,1.016,0.0,123,1.0,12.8,0.0,1,0.0,0.0,0.0,0,0,1,0,0,0,250,250,0,45.700325,4.909545,0.0,194.2,7,3,3.8,0,0.0,-1,0.0,0.0,0.0,0,0.0,0.854
51263,1622988179900,,,,,,,,-0.01,0.0,-1.01,-0,-0,-0,0.01,,83,0,21,31,99,1.016,0.0,123,1.0,12.8,0.0,1,0.0,0.0,0.0,0,0,1,0,0,0,250,250,0,,,,,,,,,,,,,,,,
51283,1622988179920,,,,,,,,-0.01,0.0,-1.01,-0,-0,-0,0.01,,83,0,22,31,99,1.016,0.0,123,0.99,12.4,0.0,1,0.0,0.0,0.0,0,0,1,0,0,0,250,250,0,,,,,,,,,,,,,,,,
51303,1622988179940,,,,,,,,-0.01,0.0,-1.01,-0,-0,-0,0.01,,83,0,27,31,99,1.016,0.0,124,1.0,9.3,0.0,1,0.0,0.0,0.0,0,0,1,0,0,0,250,250,0,,,,,,,,,,,,,,,,
51323,1622988179960,,,,,,,,-0.01,0.0,-1.0,0,-0,-0,0.01,,83,0,28,31,99,1.016,0.0,124,1.0,10.1,0.0,1,0.0,0.0,0.0,0,0,1,0,0,0,250,250,0,,,,,,,,,,,,,,,,
51343,1622988179980,0,0,32,32,32,31,2,-0.01,0.0,-1.0,-0,-0,-0,0.01,0,83,0,31,31,99,1.015,0.0,125,1.0,10.5,0.0,1,0.0,0.0,0.0,0,0,1,0,0,0,250,250,0,45.700325,4.909545,0.0,194.2,7,3,3.8,0,0.0,-1,0.0,,0.0,0,0.0,0.8557
51363,1622988180000,,,,,,,,-0.01,0.0,-1.01,-0,-0,-0,0.01,,83,0,32,31,99,1.015,0.0,126,1.0,10.6,0.0,1,0.0,0.0,0.0,0,0,1,0,0,0,250,250,0,,,,,,,,,,,,,,,,
51383,1622988180008,,,,,,,,-0.0,0.0,-1.0,-0,-0,-0,0.0,,83,0,32,31,99,1.015,0.0,126,1.0,10.6,0.0,1,0.0,0.0,0.0,0,0,1,0,0,0,250,250,0,,,,,,,,,,,,,,,,
51403,1622988180028,,,,,,,,-0.0,0.0,-1.0,-0,-0,-0,0.01,,83,0,33,31,99,1.005,0.0,126,1.0,11.0,0.0,1,0.0,0.0,0.0,0,0,1,0,0,0,250,250,0,,,,,,,,,,,,,,,,
51423,1622988180048,,,,,,,,-0.0,0.0,-1.01,-0,-0,-0,0.0,,83,0,33,31,99,0.965,0.0,126,1.0,11.3,0.0,1,0.0,0.0,0.0,0,0,1,0,0,0,250,250,0,,,,,,,,,,,,,,,,
51443,1622988180068,-0,2,32,32,32,30,2,-0.0,0.01,-1.02,-0,-0,0,0.01,0,83,0,35,31,99,0.923,0.0,126,1.0,11.4,0.0,1,0.0,0.0,0.0,0,0,1,0,0,0,250,250,0,45.700325,4.909545,0.0,194.2,7,3,3.8,0,0.0,-1,0.0,0.0,0.0,0,0.0,0.8574
51463,1622988180103,,,,,,,,-0.01,0.01,-1.02,0,-0,0,0.02,,83,0,37,31,99,0.881,0.0,126,1.0,11.3,0.0,1,0.0,0.0,0.0,0,0,1,0,0,0,250,250,0,,,,,,,,,,,,,,,,
51483,1622988180123,,,,,,,,-0.01,0.01,-1.03,0,-1,0,0.02,,83,0,39,31,99,0.84,0.0,126,1.0,11.3,0.0,1,0.0,0.0,0.0,0,0,1,0,0,0,250,250,0,,,,,,,,,,,,,,,,
51503,1622988180143,,,,,,,,-0.01,0.01,-1.03,-0,-0,0,0.02,,83,0,41,31,99,0.799,0.0,126,1.0,11.6,0.0,1,0.0,0.0,0.0,0,0,1,0,0,0,250,250,0,,,,,,,,,,,,,,,,
51523,1622988180163,,,,,,,,-0.01,0.01,-1.03,-0,-0,0,0.01,,83,0,42,31,99,0.758,0.0,129,1.0,11.6,0.0,1,0.0,0.0,0.0,0,0,1,0,0,0,250,250,0,,,,,,,,,,,,,,,,
51543,1622988180183,1,0,32,32,32,30,2,-0.01,0.01,-1.02,-0,-0,-0,0.01,0,83,0,42,31,99,0.717,0.0,129,1.0,11.4,0.0,1,0.0,0.0,0.0,0,0,1,0,0,0,250,250,0,45.700325,4.909545,0.0,194.2,7,3,3.8,0,0.0,-1,0.0,,0.0,0,0.0,0.859
51563,1622988180204,,,,,,,,-0.01,0.01,-1.02,-0,-0,-0,0.01,,83,0,42,31,99,0.676,0.0,129,1.0,11.5,0.0,1,0.0,0.0,0.0,0,0,1,0,0,0,250,250,0,,,,,,,,,,,,,,,,
51583,1622988180224,,,,,,,,-0.01,0.01,-1.03,-0,-0,-0,0.01,,83,0,42,31,99,0.635,0.0,129,1.0,11.7,0.0,1,0.0,0.0,0.0,0,0,1,0,0,0,250,250,0,,,,,,,,,,,,,,,,
51603,1622988180244,,,,,,,,-0.01,0.01,-1.02,-0,-0,0,0.02,,83,0,42,31,99,0.594,0.0,129,1.0,11.6,0.0,1,0.0,0.0,0.0,0,0,1,0,0,0,250,250,0,,,,,,,,,,,,,,,,
51623,1622988180264,,,,,,,,-0.01,0.02,-1.02,-0,-0,-0,0.02,,83,0,42,31,99,0.554,0.0,130,1.0,11.5,0.0,1,0.0,0.0,0.0,0,0,1,0,0,0,250,250,0,,,,,,,,,,,,,,,,
51643,1622988180284,-0,2,33,32,33,30,3,-0.01,0.01,-1.02,-0,-0,-0,0.02,0,83,0,42,31,99,0.513,0.0,132,1.0,11.7,0.0,1,0.0,0.0,0.0,0,0,1,0,0,0,250,250,0,45.700325,4.909545,0.0,194.2,7,3,3.8,0,0.0,-1,0.0,0.0,0.0,0,0.0,0.8607
51663,1622988180303,,,,,,,,-0.01,0.01,-1.01,-0,-0,-0,0.01,,83,0,42,31,99,0.502,0.0,131,1.0,11.7,0.0,1,0.0,0.0,0.0,0,0,1,0,0,0,250,250,0,,,,,,,,,,,,,,,,
51683,1622988180323,,,,,,,,-0.0,0.01,-1.0,-0,-0,-0,0.01,,83,0,42,31,99,0.502,0.0,131,1.0,11.5,0.0,1,0.0,0.0,0.0,0,0,1,0,0,0,250,250,0,,,,,,,,,,,,,,,,
51703,1622988180343,,,,,,,,-0.01,0.01,-1.0,-0,-0,-0,0.01,,83,0,42,31,99,0.501,0.0,132,1.0,11.7,0.0,1,0.0,0.0,0.0,0,0,1,0,0,0,250,250,0,,,,,,,,,,,,,,,,
51723,1622988180363,,,,,,,,-0.0,0.01,-0.98,-0,-0,-0,0.01,,83,0,42,31,99,0.501,0.0,132,1.0,11.8,0.0,1,0.0,0.0,0.0,0,0,1,0,0,0,250,250,0,,,,,,,,,,,,,,,,
51743,1622988180383,-0,2,33,32,32,31,2,-0.01,0.01,-1.0,-0,-1,-0,0.01,0,83,0,42,31,99,0.501,0.0,131,1.0,11.5,0.0,1,0.0,0.0,0.0,0,0,1,0,0,0,250,250,0,45.700325,4.909545,0.0,194.2,7,3,3.8,0,0.0,-1,0.0,,0.0,0,0.0,0.8624
51763,1622988180403,,,,,,,,-0.0,0.01,-1.0,-0,-0,-0,0.01,,83,0,42,31,99,0.501,0.0,132,0.99,11.7,0.0,1,0.0,0.0,0.0,0,0,1,0,0,0,250,250,0,,,,,,,,,,,,,,,,
51783,1622988180423,,,,,,,,-0.0,0.01,-1.01,-0,-0,-0,0.01,,83,0,42,31,99,0.501,0.0,132,1.0,11.8,0.0,1,0.0,0.0,0.0,0,0,1,0,0,0,250,250,0,,,,,,,,,,,,,,,,
51803,1622988180443,,,,,,,,-0.01,0.01,-1.0,0,-0,-0,0.02,,83,0,43,31,99,0.501,0.0,132,1.0,11.6,0.0,1,0.0,0.0,0.0,0,0,1,0,0,0,250,250,0,,,,,,,,,,,,,,,,
51823,1622988180463,,,,,,,,-0.0,0.01,-1.01,0,0,-0,0.01,,83,0,50,31,99,0.5,0.0,131,1.0,11.7,0.0,1,0.0,0.0,0.0,0,0,1,0,0,0,250,250,0,,,,,,,,,,,,,,,,
51843,1622988180483,0,2,32,32,32,31,2,-0.0,0.01,-1.01,-0,0,-0,0.01,0,83,0,54,31,99,0.5,0.0,132,1.0,11.8,0.0,1,0.0,0.0,0.0,0,0,1,0,0,0,250,250,0,45.700325,4.909545,0.0,194.2,7,3,3.8,0,0.0,-1,0.0,0.0,0.0,0,0.0,0.864
51863,1622988180503,,,,,,,,-0.01,0.01,-1.01,0,-0,0,0.01,,83,0,58,31,99,0.5,0.0,131,0.99,11.6,0.0,1,0.0,0.0,0.0,0,0,1,0,0,0,250,250,0,,,,,,,,,,,,,,,,
51883,1622988180523,,,,,,,,-0.01,0.01,-1.01,0,-0,0,0.02,,83,0,59,31,99,0.5,0.0,132,1.0,11.7,0.0,1,0.0,0.0,0.0,0,0,1,0,0,0,250,250,0,,,,,,,,,,,,,,,,
51903,1622988180543,,,,,,,,-0.01,0.01,-1.01,0,-0,0,0.01,,83,151,59,31,99,0.5,0.0,138,1.0,11.6,0.0,1,30.0,1.96,0.0,0,0,1,1,0,0,250,250,0,,,,,,,,,,,,,,,,
51923,1622988180563,,,,,,,,-0.01,0.01,-1.03,0,0,0,0.01,,83,1105,59,31,98,0.5,0.0,140,1.74,11.6,0.0,1,30.8,6.56,0.0,0,0,1,1,0,0,250,250,0,,,,,,,,,,,,,,,,
51943,1622988180583,-1,0,32,32,32,31,2,-0.01,0.01,-1.02,-0,0,0,0.01,0,83,1240,59,31,98,0.5,0.0,147,3.21,11.7,0.0,1,31.9,1.85,0.0,0,0,1,1,0,0,250,250,0,45.700325,4.909545,0.0,194.2,7,3,3.8,0,0.0,-1,0.0,,0.0,0,0.0,0.8657
51963,1622988180603,,,,,,,,-0.01,0.01,-1.01,-0,-0,0,0.01,,84,1240,58,31,98,0.5,0.0,145,4.79,11.6,0.0,1,31.9,7.01,0.0,0,0,1,1,0,0,250,250,0,,,,,,,,,,,,,,,,
51983,1622988180623,,,,,,,,-0.01,0.01,-1.01,0,-0,0,0.02,,84,1049,52,31,98,0.5,0.0,140,4.8,11.3,0.0,1,30.3,1.65,0.0,0,0,1,1,0,0,250,250,0,,,,,,,,,,,,,,,,
52003,1622988180643,,,,,,,,-0.01,0.01,-1.01,-0,-0,0,0.02,,84,1049,45,31,97,0.5,0.0,137,4.81,11.4,0.0,1,28.9,6.35,3.0,0,0,1,1,0,0,250,250,0,,,,,,,,,,,,,,,,
52023,1622988180663,,,,,,,,-0.01,0.0,-1.0,-0,-0,0,0.01,,84,808,42,31,97,0.5,0.0,130,4.79,11.1,0.0,1,28.6,6.22,3.0,0,0,1,1,0,0,250,250,0,,,,,,,,,,,,,,,,
52043,1622988180683,0,1,32,32,32,30,2,-0.01,0.01,-1.0,-0,-0,0,0.01,0,84,808,42,31,97,0.5,0.0,126,4.8,11.0,0.0,1,28.6,6.22,3.0,0,0,1,1,0,0,250,250,0,45.700325,4.909545,0.0,194.2,7,3,3.8,0,0.0,-1,0.0,0.0,0.0,0,0.0,0.8674
52063,1622988180703,,,,,,,,-0.01,0.0,-1.01,-0,-0,0,0.01,,84,637,43,31,98,0.5,0.0,128,4.82,11.3,0.0,1,30.0,6.07,3.0,0,0,1,1,0,0,250,250,0,,,,,,,,,,,,,,,,
52083,1622988180723,,,,,,,,-0.01,0.01,-1.0,0,-0,0,0.01,,84,637,43,31,98,0.5,0.0,128,4.81,10.9,0.0,1,30.0,6.07,3.0,0,0,1,1,0,0,250,250,0,,,,,,,,,,,,,,,,
52103,1622988180743,,,,,,,,-0.01,0.01,-0.95,-0,-0,-0,0.02,,84,785,43,31,98,0.5,0.0,136,4.85,11.2,0.0,1,30.0,6.07,1.7,0,0,1,1,0,0,250,250,0,,,,,,,,,,,,,,,,
52123,1622988180763,,,,,,,,-0.02,0.03,-0.93,0,-1,0,0.03,,84,1334,45,31,98,0.5,0.0,144,4.82,11.4,0.0,1,32.6,7.01,1.7,0,0,1,1,0,0,250,250,0,,,,,,,,,,,,,,,,
52143,1622988180783,-0,0,32,32,32,31,1,-0.01,0.03,-0.92,0,-1,0,0.03,0,84,1791,45,31,98,0.5,0.0,160,4.81,11.4,0.0,1,34.0,7.72,1.7,0,0,1,1,0,0,250,250,0,45.700325,4.909545,0.0,194.2,7,3,3.8,0,0.0,-1,0.0,,0.0,0,0.0,0.869
52163,1622988180803,,,,,,,,-0.01,0.02,-0.96,0,-1,0,0.03,,84,2330,45,31,97,0.5,0.0,171,4.8,11.4,0.0,1,32.6,7.97,1.7,0,0,1,1,0,0,250,250,0,,,,,,,,,,,,,,,,
52183,1622988180823,,,,,,,,0.0,0.02,-1.0,0,-1,0,0.02,,84,2271,45,31,98,0.5,0.0,187,4.8,11.4,0.0,1,34.0,7.39,1.7,0,0,1,1,0,0,250,250,0,,,,,,,,,,,,,,,,
52203,1622988180843,,,,,,,,-0.01,0.01,-0.91,0,-1,0,0.01,,84,2602,44,31,97,0.5,0.0,200,4.79,11.3,0.0,1,32.1,7.52,7.8,0,0,1,1,0,0,250,250,0,,,,,,,,,,,,,,,,
