"Interval"|"ms"|0|0|1,"Utc"|"ms"|0|0|1,"Brake_F"|"Bar"|0|2000|10,"Brake_R"|"Bar"|0|2000|10,"Height_RF"|"mm"|0|255|10,"Height_LF"|"mm"|0|255|10,"Height_LR"|"mm"|0|80|10,"Height_RR"|"mm"|0|255|10,"Steering"|"deg"|-100|100|10,"AccelX"|"G"|-3.0|3.0|50,"AccelY"|"G"|-3.0|3.0|50,"AccelZ"|"G"|-3.0|3.0|50,"Yaw"|"Deg/Sec"|-120|120|50,"Pitch"|"Deg/Sec"|-120|120|50,"Roll"|"Deg/Sec"|-120|120|50,"Gsum"|"G"|0.0|3.0|50,"Log_Button"|""|0.0|10.0|10,"WaterTemp"|"C"|0|150|50,"RPM"|"tr/min"|0|14000|50,"TPS"|"%"|0|100|50,"AirTemp"|"C"|0|150|50,"MAP"|"KPa"|0|100|50,"Lambda"|""|0.5|1.5|50,"SpeedDTA"|"kph"|0.0|250.0|50,"OilPress"|"KPa"|0|1500|50,"FuelPressur"|"Bar"|0.0|10.0|50,"Batterie"|"V"|0.0|20.0|50,"ConsoKm"|"L/100km"|0.0|200.0|50,"Gear"|""|0|6|50,"AdvIgnition"|"Deg"|-20.0|70.0|50,"Injection"|"ms"|0.0|10.0|50,"ConsoHr"|"L/Hr"|0.0|10000.0|50,"LC_But_Pres"|""|0|1|50,"LC_Active"|""|0|1|50,"TractionOn"|""|0|1|50,"TractionWet"|""|0|1|50,"FanOn"|""|0|1|50,"RD_Speed"|"km/h"|-30|250|50,"RUD_Speed"|"km/h"|-30|250|50,"LD_Speed"|"km/h"|-30|250|50,"LUD_Speed"|"km/h"|-30|250|50,"Latitude"|"Degrees"|-180.0|180.0|10,"Longitude"|"Degrees"|-180.0|180.0|10,"Speed"|"kph"|0.0|150.0|10,"Altitude"|"m"|0.0|4000.0|10,"GPSSats"|""|0|20|10,"GPSQual"|""|0|5|10,"GPSDOP"|""|0.0|20.0|10,"LapCount"|""|0|0|10,"LapTime"|"Min"|0.0|0.0|10,"Sector"|""|0|0|10,"SectorTime"|"Min"|0.0|0.0|10,"PredTime"|"Min"|0.0|0.0|5,"ElapsedTime"|"Min"|0.0|0.0|10,"CurrentLap"|""|0|0|10,"Distance"|"km"|0.0|0.0|10,"SessionTime"|"Min"|0.0|0.0|10
277463,1622988406108,,,,,,,,-0.08,0.36,-0.35,14,3,4,0.37,,83,6768,4,26,56,0.939,44.1,528,4.81,12.9,29.8,1,35.7,2.28,12.6,0,0,1,1,0,444,26704,-768,409,,,,,,,,,,,,,,,,
277483,1622988406128,,,,,,,,-0.09,0.42,-0.16,14,2,3,0.43,,83,6672,4,26,53,0.94,43.5,518,4.88,12.9,29.8,1,34.4,2.28,12.6,0,0,1,1,0,438,3635,1779,404,,,,,,,,,,,,,,,,
277503,1622988406148,,,,,,,,-0.16,0.29,-0.2,15,2,3,0.33,,83,6585,4,26,51,0.934,42.5,505,4.82,12.8,17.3,1,33.6,2.29,7.0,0,0,1,1,0,433,-3856,-3414,402,,,,,,,,,,,,,,,,
277523,1622988406168,,,,,,,,-0.24,0.4,-0.35,16,5,5,0.47,,83,6551,4,26,49,0.931,42.3,496,4.85,12.9,17.3,1,32.9,2.3,7.0,0,0,1,1,0,425,3826,13040,397,,,,,,,,,,,,,,,,
277543,1622988406188,37,22,27,32,38,33,19,-0.22,0.44,-0.15,16,2,2,0.5,0,83,6469,4,26,47,0.928,41.9,497,4.91,12.8,17.3,1,32.1,2.31,7.0,0,0,1,1,0,419,7154,11545,392,45.699383,4.908746,44.65,198.4,9,3,1.9,0,0.0,-1,0.0,,0.0,0,2.71,4.6257
277563,1622988406208,,,,,,,,-0.27,0.39,0.03,17,1,-1,0.47,,83,6392,4,26,45,0.924,41.5,498,4.87,12.8,17.3,1,31.5,2.32,7.0,0,0,1,1,0,414,-9166,-31744,381,,,,,,,,,,,,,,,,
277583,1622988406228,,,,,,,,-0.42,0.32,-0.14,18,4,2,0.53,,83,6289,4,26,44,0.912,40.3,498,4.78,12.8,17.3,1,31.1,2.32,7.0,0,0,1,1,0,408,-8151,3,371,,,,,,,,,,,,,,,,
277603,1622988406248,,,,,,,,-0.53,0.35,-0.3,19,7,6,0.64,,83,6139,4,26,42,0.899,40.8,491,4.85,13.0,18.0,1,30.5,2.32,6.7,0,0,1,1,0,402,10392,-6656,364,,,,,,,,,,,,,,,,
277623,1622988406268,,,,,,,,-0.66,0.39,-0.44,20,11,9,0.77,,83,5939,4,26,41,0.883,39.4,477,4.88,13.0,18.0,1,29.9,2.35,6.7,0,0,1,1,0,398,-3968,-30438,354,,,,,,,,,,,,,,,,
277643,1622988406288,41,24,19,27,42,35,31,-0.72,0.46,-0.57,21,11,8,0.86,0,83,5697,4,26,41,0.873,39.1,471,4.82,12.8,18.0,1,29.4,2.44,6.7,0,0,1,1,0,393,17144,130,346,45.699394,4.908744,45.34,198.3,9,3,1.9,0,0.0,-1,0.0,0.0,0.0,0,2.71,4.6274
277663,1622988406309,,,,,,,,-0.66,0.55,-0.35,22,4,4,0.86,,83,5395,4,26,41,0.85,37.7,452,4.84,12.8,18.0,1,28.7,2.52,6.7,0,0,1,1,0,389,-6656,105,324,,,,,,,,,,,,,,,,
277683,1622988406329,,,,,,,,-0.74,0.55,-0.49,24,10,8,0.93,,83,5159,4,26,41,0.833,37.6,428,4.89,12.9,18.0,1,28.2,2.64,6.7,0,0,1,1,0,380,3,630,304,,,,,,,,,,,,,,,,
277703,1622988406349,,,,,,,,-0.79,0.62,-0.28,25,6,5,1.0,,83,4927,4,26,41,0.811,37.3,404,4.84,13.0,20.3,1,27.0,2.65,6.2,0,0,1,1,0,377,-6656,506,310,,,,,,,,,,,,,,,,
277723,1622988406369,,,,,,,,-0.82,0.65,-0.14,26,5,4,1.05,,83,4712,4,26,42,0.783,37.1,394,4.91,12.8,20.3,1,24.8,2.57,6.2,0,0,1,1,0,371,257,-1496,320,,,,,,,,,,,,,,,,
277743,1622988406389,18,9,16,26,43,35,35,-0.82,0.76,0.04,28,3,2,1.12,0,83,4518,4,25,42,0.775,36.9,371,4.93,12.9,20.3,1,22.6,2.48,6.2,0,0,1,1,0,366,-6656,966,318,45.699406,4.908743,44.17,198.2,9,3,1.9,0,0.0,-1,0.0,,0.0,0,2.71,4.6291
277763,1622988406409,,,,,,,,-0.83,0.77,0.2,29,2,1,1.13,,83,4319,4,25,42,0.768,36.7,360,4.88,13.0,20.3,1,20.2,2.39,6.2,0,0,1,1,0,366,0,-1,328,,,,,,,,,,,,,,,,
277783,1622988406429,,,,,,,,-0.82,0.81,0.06,30,2,2,1.15,,83,4138,4,25,42,0.761,36.5,347,4.91,13.0,20.3,1,18.1,2.31,6.2,0,0,1,1,0,365,-6405,-1,334,,,,,,,,,,,,,,,,
277803,1622988406449,,,,,,,,-0.75,0.8,-0.05,32,0,2,1.1,,83,3953,4,25,43,0.754,36.4,330,4.88,12.9,12.8,1,16.6,2.25,4.3,0,0,1,1,0,365,-1268,250,333,,,,,,,,,,,,,,,,
277823,1622988406469,,,,,,,,-0.77,0.83,-0.11,33,1,3,1.13,,83,3840,4,25,43,0.754,36.3,320,4.92,13.0,12.8,1,16.1,2.26,4.3,0,0,1,1,0,364,3082,250,328,,,,,,,,,,,,,,,,
277843,1622988406489,1,2,21,35,42,31,53,-0.73,0.83,-0.27,34,0,2,1.11,0,83,3690,5,25,44,0.76,35.9,306,4.88,12.9,12.8,1,15.6,2.26,4.3,0,0,1,1,0,361,-29302,30208,324,45.699417,4.908741,41.78,198.1,9,3,1.9,0,0.0,-1,0.0,0.0,0.0,0,2.72,4.6307
277863,1622988406507,,,,,,,,-0.67,0.93,-0.41,35,1,2,1.14,,83,3660,7,25,45,0.763,35.7,300,4.92,13.0,12.8,1,15.6,2.26,4.3,0,0,1,1,0,348,-6640,41,321,,,,,,,,,,,,,,,,
277883,1622988406527,,,,,,,,-0.65,0.98,-0.54,37,0,2,1.18,,83,3780,10,25,47,0.768,35.4,297,4.9,12.8,12.8,1,16.4,2.29,4.3,0,0,1,1,0,352,3302,0,320,,,,,,,,,,,,,,,,
277903,1622988406547,,,,,,,,-0.62,1.01,-0.5,39,1,2,1.18,,83,3784,11,25,49,0.774,35.9,297,4.93,13.0,12.5,1,16.6,2.29,4.0,0,0,1,1,0,349,-29302,250,317,,,,,,,,,,,,,,,,
277923,1622988406567,,,,,,,,-0.58,0.98,-0.62,40,1,3,1.14,,83,3932,13,25,52,0.786,35.5,299,4.88,12.9,12.5,1,18.2,2.27,4.0,0,0,1,1,0,344,2060,-1281,308,,,,,,,,,,,,,,,,
277943,1622988406587,3,1,20,36,43,31,68,-0.62,1.02,-0.45,42,1,2,1.2,0,83,3929,13,25,55,0.793,35.3,301,4.91,13.0,12.5,1,18.8,2.28,4.0,0,0,1,1,0,353,-6644,10318,308,45.699429,4.908738,37.74,198.0,9,3,1.9,0,0.0,-1,0.0,,0.0,0,2.72,4.6324
277963,1622988406608,,,,,,,,-0.65,1.11,-0.39,44,1,2,1.28,,83,4100,13,25,57,0.805,35.2,305,4.95,13.0,12.5,1,21.2,2.39,4.0,0,0,1,1,0,349,3183,13964,299,,,,,,,,,,,,,,,,
277983,1622988406628,,,,,,,,-0.64,1.1,-0.52,46,3,3,1.28,,83,4327,13,25,59,0.813,35.0,311,4.91,13.0,12.5,1,24.5,2.56,4.0,0,0,1,1,0,345,-1246,250,300,,,,,,,,,,,,,,,,
278003,1622988406648,,,,,,,,-0.65,1.13,-0.65,48,3,3,1.3,,83,4545,13,25,60,0.828,34.6,319,4.9,13.0,17.6,1,27.7,2.67,5.3,0,0,1,1,0,348,-122,5134,295,,,,,,,,,,,,,,,,
278023,1622988406668,,,,,,,,-0.68,1.15,-0.42,50,4,4,1.34,,83,4550,13,25,62,0.836,34.9,331,4.97,13.0,17.6,1,28.3,2.68,5.3,0,0,1,1,0,345,2811,-1,294,,,,,,,,,,,,,,,,
278043,1622988406688,1,2,21,37,43,30,71,-0.71,1.18,-0.22,52,4,4,1.37,0,83,4656,13,25,63,0.847,34.3,335,4.95,13.0,17.6,1,29.9,2.81,5.3,0,0,1,1,0,344,-14714,-1,288,45.699432,4.908735,35.7,198.1,9,3,1.9,0,0.0,-1,0.0,0.0,0.0,0,2.72,4.634
278063,1622988406707,,,,,,,,-0.67,1.2,-0.04,54,2,2,1.37,,83,4752,14,25,64,0.862,35.1,342,4.89,12.9,17.6,1,31.6,2.9,5.3,0,0,1,1,0,344,28553,-1,290,,,,,,,,,,,,,,,,
278083,1622988406727,,,,,,,,-0.59,1.17,-0.2,55,-1,-1,1.31,,83,4847,14,25,65,0.871,34.2,352,4.96,12.8,17.6,1,33.1,1.84,5.3,0,0,1,1,0,344,-31206,14326,288,,,,,,,,,,,,,,,,
278103,1622988406747,,,,,,,,-0.61,1.22,-0.35,57,2,1,1.36,,83,4939,14,25,66,0.886,34.3,357,4.96,13.0,23.1,1,34.7,3.08,6.7,0,0,1,1,0,342,-14714,1596,288,,,,,,,,,,,,,,,,
278123,1622988406767,,,,,,,,-0.59,1.28,-0.15,58,2,1,1.41,,83,4988,14,25,67,0.894,34.1,363,4.92,13.0,23.1,1,35.6,3.15,6.7,0,0,1,1,0,337,-14714,-1,285,,,,,,,,,,,,,,,,
278143,1622988406791,2,2,21,38,42,30,63,-0.52,1.24,-0.31,60,-1,-2,1.34,0,83,5041,14,25,69,0.903,34.0,371,4.86,12.8,23.1,1,36.4,3.26,6.7,0,0,1,1,0,339,3327,24064,282,45.699451,4.908725,34.43,197.9,9,3,1.9,0,0.0,-1,0.0,,0.0,0,2.72,4.6357
278163,1622988406811,,,,,,,,-0.56,1.21,-0.45,61,3,1,1.34,,83,5127,14,25,70,0.896,33.9,371,4.97,13.0,23.1,1,36.7,3.29,6.7,0,0,1,1,0,338,-122,41,280,,,,,,,,,,,,,,,,
278183,1622988406831,,,,,,,,-0.44,1.18,-0.24,61,-1,-2,1.26,,83,5172,14,25,71,0.892,34.1,377,4.92,12.9,23.1,1,36.8,3.41,6.7,0,0,1,1,0,336,6668,100,279,,,,,,,,,,,,,,,,
278203,1622988406851,,,,,,,,-0.47,1.09,-0.39,62,1,1,1.19,,83,5230,15,25,71,0.885,33.6,383,4.96,13.0,29.0,1,36.8,3.42,8.1,0,0,1,1,0,336,13,28160,284,,,,,,,,,,,,,,,,
278223,1622988406871,,,,,,,,-0.33,1.05,-0.19,61,-4,-3,1.11,,83,5268,15,25,72,0.881,34.1,385,4.91,12.8,29.0,1,37.0,3.5,8.1,0,0,1,1,0,334,-122,115,286,,,,,,,,,,,,,,,,
278243,1622988406891,1,2,28,37,39,30,36,-0.33,0.99,-0.34,60,-0,-0,1.05,0,83,5218,15,25,73,0.872,33.4,380,4.96,13.0,29.0,1,37.3,3.53,8.1,0,0,1,1,0,333,4838,155,290,45.699455,4.908718,34.17,197.8,9,3,1.9,0,0.0,-1,0.0,0.0,0.0,0,2.72,4.6374
278263,1622988406911,,,,,,,,-0.22,0.93,-0.15,58,-3,-3,0.96,,83,5149,16,25,74,0.864,33.0,382,4.87,12.8,29.0,1,37.6,3.55,8.1,0,0,1,1,0,330,175,-22016,294,,,,,,,,,,,,,,,,
278283,1622988406931,,,,,,,,-0.2,0.79,-0.3,56,-3,-3,0.81,,83,5115,16,25,74,0.859,32.5,378,4.85,12.7,29.0,1,37.7,3.54,8.1,0,0,1,1,0,328,-23296,-27136,302,,,,,,,,,,,,,,,,
278303,1622988406951,,,,,,,,-0.22,0.75,-0.11,53,-1,-2,0.78,,83,5068,16,25,75,0.85,32.1,375,4.94,13.0,27.8,1,38.0,3.57,8.4,0,0,1,1,0,327,-24576,130,305,,,,,,,,,,,,,,,,
278323,1622988406971,,,,,,,,-0.15,0.61,-0.1,49,-5,-5,0.63,,83,5063,16,25,76,0.842,31.7,375,4.85,12.8,27.8,1,38.4,3.61,8.4,0,0,1,1,0,323,-28416,-29696,310,,,,,,,,,,,,,,,,
278343,1622988406991,1,1,39,34,32,30,-9,-0.15,0.5,-0.26,45,-1,-3,0.52,0,83,5055,18,25,77,0.837,31.4,374,4.91,12.8,27.8,1,38.7,3.63,8.4,0,0,1,1,0,321,140,150,314,45.699455,4.908718,34.17,197.8,9,3,1.9,0,0.0,-1,0.0,,0.0,0,2.72,4.639
278363,1622988406999,,,,,,,,-0.12,0.42,-0.07,41,-3,-5,0.44,,83,5047,20,25,79,0.829,32.1,371,4.95,13.0,27.8,1,39.3,3.66,8.4,0,0,1,1,0,320,135,-24576,321,,,,,,,,,,,,,,,,
278383,1622988407019,,,,,,,,-0.11,0.24,-0.23,36,-3,-6,0.26,,83,5062,24,25,81,0.822,31.8,374,4.82,12.8,27.8,1,39.9,3.72,8.4,0,0,1,1,0,317,135,160,324,,,,,,,,,,,,,,,,
278403,1622988407039,,,,,,,,-0.15,0.21,-0.05,32,-0,-3,0.25,,83,5149,27,25,84,0.826,32.4,371,4.95,13.0,26.8,1,40.6,3.84,8.7,0,0,1,1,0,315,135,-22016,324,,,,,,,,,,,,,,,,
278423,1622988407059,,,,,,,,-0.12,0.03,-0.21,27,-5,-6,0.12,,83,5286,30,25,88,0.835,32.9,376,4.81,12.8,26.8,1,41.4,4.52,8.7,0,0,1,1,0,317,135,175,329,,,,,,,,,,,,,,,,
278443,1622988407079,0,2,41,29,27,33,-39,-0.14,-0.03,-0.03,22,0,-3,0.14,0,83,5299,34,25,91,0.842,33.3,383,4.96,13.0,26.8,1,41.9,4.69,8.7,0,0,1,1,0,316,135,-6528,333,45.699463,4.90871,33.49,197.7,9,3,1.9,0,0.0,-1,0.0,0.0,0.0,0,2.72,4.6407
278463,1622988407109,,,,,,,,-0.1,-0.13,-0.19,17,-5,-6,0.17,,83,5317,37,25,93,0.848,33.8,387,4.83,12.8,26.8,1,41.9,4.87,8.7,0,0,1,1,0,316,16899,3346,333,,,,,,,,,,,,,,,,
278483,1622988407129,,,,,,,,-0.08,-0.2,-0.01,13,-2,-3,0.22,,83,5366,39,25,95,0.854,33.3,385,5.01,12.9,26.8,1,41.7,5.08,8.7,0,0,1,1,0,334,115,13,333,,,,,,,,,,,,,,,,
278503,1622988407149,,,,,,,,-0.11,-0.29,-0.18,8,-2,-2,0.31,,83,5450,39,25,96,0.859,33.5,390,4.83,12.7,36.8,1,41.5,5.3,12.5,0,0,1,1,0,347,26880,2560,335,,,,,,,,,,,,,,,,
278523,1622988407169,,,,,,,,-0.0,-0.37,0.01,4,-8,-6,0.37,,83,5534,39,25,96,0.865,33.4,396,4.92,12.8,36.8,1,41.2,5.41,12.5,0,0,1,1,0,338,110,-14714,334,,,,,,,,,,,,,,,,
278543,1622988407189,1,1,42,33,25,33,-51,0.01,-0.44,0.17,-0,-2,-2,0.44,0,83,5642,39,25,95,0.87,33.8,400,4.94,12.9,36.8,1,40.9,5.44,12.5,0,0,1,1,0,337,28160,8841,343,45.69947,4.908701,33.26,197.6,9,3,2.8,0,0.0,-1,0.0,,0.0,0,2.72,4.6424
278563,1622988407209,,,,,,,,-0.07,-0.42,-0.01,-4,2,1,0.42,,83,5695,39,25,95,0.889,34.4,403,4.95,12.9,36.8,1,40.7,5.45,12.5,0,0,1,1,0,360,115,28553,344,,,,,,,,,,,,,,,,
278583,1622988407229,,,,,,,,-0.1,-0.44,-0.17,-7,1,0,0.45,,83,5657,39,25,95,0.907,34.2,407,4.9,12.9,36.8,1,40.8,5.31,12.5,0,0,1,1,0,360,135,-6644,342,,,,,,,,,,,,,,,,
278603,1622988407249,,,,,,,,0.03,-0.54,0.01,-11,-4,-3,0.54,,83,5587,39,25,95,0.924,35.0,406,4.83,12.8,39.8,1,41.0,5.16,13.9,0,0,1,1,0,345,30720,2060,350,,,,,,,,,,,,,,,,
278623,1622988407269,,,,,,,,0.09,-0.61,0.17,-13,-0,-1,0.61,,83,5488,39,25,95,0.937,35.6,401,4.96,13.0,39.8,1,41.3,4.91,13.9,0,0,1,1,0,350,32000,-29978,356,,,,,,,,,,,,,,,,
278643,1622988407289,0,2,44,35,24,32,-52,0.02,-0.57,-0.01,-16,1,-0,0.57,0,83,5469,39,25,95,0.954,35.2,398,4.88,12.8,39.8,1,41.4,4.88,13.9,0,0,1,1,0,366,130,-29978,352,45.699474,4.908694,33.23,197.6,9,3,1.9,0,0.0,-1,0.0,0.0,0.0,0,2.72,4.6441
278663,1622988407310,,,,,,,,0.06,-0.67,0.16,-19,-4,-5,0.67,,83,5557,39,25,96,0.97,35.6,405,4.87,12.8,39.8,1,41.1,4.87,13.9,0,0,1,1,0,364,135,-29302,356,,,,,,,,,,,,,,,,
278683,1622988407330,,,,,,,,0.14,-0.78,0.31,-22,-3,-5,0.79,,83,5769,39,25,95,0.985,35.7,408,4.95,12.9,39.8,1,40.5,5.1,13.9,0,0,1,1,0,359,-30976,-14707,357,,,,,,,,,,,,,,,,
278703,1622988407350,,,,,,,,0.25,-0.8,0.45,-25,-3,-5,0.83,,83,5967,39,25,95,1.0,36.2,417,4.96,12.9,38.1,1,39.9,4.12,13.9,0,0,1,1,0,363,150,230,362,,,,,,,,,,,,,,,,
278723,1622988407370,,,,,,,,0.27,-0.82,0.58,-28,-2,-6,0.87,,83,5961,39,26,95,1.018,36.4,425,4.95,12.9,38.1,1,39.9,4.11,13.9,0,0,1,1,0,377,145,486,364,,,,,,,,,,,,,,,,
278743,1622988407390,1,2,45,33,27,35,-52,0.33,-0.86,0.7,-30,0,-3,0.92,0,83,5973,39,26,95,1.037,36.9,431,4.96,12.8,38.1,1,39.8,5.28,13.9,0,0,1,1,0,397,-27136,1,369,45.699482,4.908687,32.52,197.4,9,3,1.9,0,0.0,-1,0.0,,0.0,0,2.72,4.6457
278763,1622988407410,,,,,,,,0.36,-0.88,0.81,-33,0,-4,0.95,,83,6067,39,26,95,1.057,37.0,437,4.88,12.8,38.1,1,40.3,5.21,13.9,0,0,1,1,0,385,155,770,370,,,,,,,,,,,,,,,,
278783,1622988407430,,,,,,,,0.41,-0.97,0.91,-35,-1,-5,1.06,,83,6149,39,26,95,1.082,37.1,449,4.89,12.8,38.1,1,41.2,5.14,13.9,0,0,1,1,0,361,-28416,-6656,371,,,,,,,,,,,,,,,,
278803,1622988407450,,,,,,,,0.47,-1.06,1.0,-37,-5,-8,1.16,,83,6163,39,26,94,1.096,37.7,446,4.91,12.8,39.4,1,41.3,3.98,14.8,0,0,1,1,0,389,150,-992,377,,,,,,,,,,,,,,,,
278823,1622988407470,,,,,,,,0.51,-1.13,0.93,-39,-9,-11,1.24,,83,6127,39,26,94,1.107,37.9,449,4.85,12.8,39.4,1,41.0,5.16,14.8,0,0,1,1,0,406,150,-31744,379,,,,,,,,,,,,,,,,
278843,1622988407490,-3,2,45,34,26,35,-50,0.45,-1.17,0.69,-41,-9,-11,1.25,0,83,6256,39,26,94,1.119,38.4,453,4.8,12.7,39.4,1,42.3,5.07,14.8,0,0,1,1,0,393,160,-31744,378,45.69949,4.908679,33.81,197.4,9,3,1.9,0,0.0,-1,0.0,0.0,0.0,0,2.72,4.6474
278863,1622988407508,,,,,,,,0.4,-1.04,0.47,-43,-5,-7,1.11,,83,6405,39,26,94,1.133,38.3,464,4.82,12.8,39.4,1,43.8,4.95,14.8,0,0,1,1,0,377,-25856,-6656,383,,,,,,,,,,,,,,,,
278883,1622988407528,,,,,,,,0.46,-1.07,0.59,-44,-5,-7,1.17,,83,6494,39,26,94,1.143,38.3,467,4.87,12.8,39.4,1,44.7,4.88,14.8,0,0,1,1,0,389,165,-3968,383,,,,,,,,,,,,,,,,
278903,1622988407548,,,,,,,,0.45,-1.08,0.38,-46,-7,-9,1.17,,83,6528,39,26,94,1.145,39.0,472,4.84,12.8,37.7,1,45.1,4.86,14.6,0,0,1,1,0,424,175,10541,390,,,,,,,,,,,,,,,,
278923,1622988407568,,,,,,,,0.46,-1.05,0.18,-46,-4,-6,1.15,,83,6583,39,26,94,1.149,39.8,477,4.83,12.9,37.7,1,45.7,4.81,14.6,0,0,1,1,0,412,-32559,-9211,398,,,,,,,,,,,,,,,,
278943,1622988407588,1,2,47,36,25,33,-37,0.53,-1.07,0.33,-47,-6,-7,1.19,0,83,6592,39,26,94,1.153,39.4,483,4.83,12.8,37.7,1,45.7,4.8,14.6,0,0,1,1,0,394,6668,-4059,398,45.699493,4.908672,35.34,197.5,9,3,1.9,0,0.0,-1,0.0,,0.0,0,2.73,4.649
278963,1622988407610,,,,,,,,0.43,-1.07,0.14,-48,-4,-6,1.15,,83,6562,39,26,94,1.149,40.2,485,4.82,12.9,37.7,1,45.4,4.82,14.6,0,0,1,1,0,402,6870,-9166,402,,,,,,,,,,,,,,,,
278983,1622988407630,,,,,,,,0.45,-1.01,0.29,-48,-2,-3,1.1,,83,6565,39,26,94,1.138,50.7,485,4.82,12.9,37.7,1,45.5,4.82,14.6,0,0,1,1,0,411,-21872,13040,407,,,,,,,,,,,,,,,,
279003,1622988407650,,,,,,,,0.44,-1.06,0.18,-47,-4,-6,1.14,,83,6653,39,26,94,1.118,40.5,485,4.83,12.8,36.5,1,46.4,4.76,14.6,0,0,1,1,0,404,-1482,-26615,406,,,,,,,,,,,,,,,,
279023,1622988407670,,,,,,,,0.41,-0.96,-0.0,-47,-0,-2,1.05,,83,6670,39,26,94,1.103,40.4,491,4.87,12.9,36.5,1,46.6,4.74,14.6,0,0,1,1,0,423,3082,-3414,404,,,,,,,,,,,,,,,,
279043,1622988407690,1,2,47,37,24,32,-24,0.43,-0.96,0.16,-46,-4,-5,1.05,0,83,6672,39,26,94,1.09,41.1,497,4.87,12.8,36.5,1,46.6,4.74,14.6,0,0,1,1,0,430,486,-3414,411,45.699505,4.908666,37.39,197.3,9,3,1.9,0,0.0,-1,0.0,0.0,0.0,0,2.73,4.6507
279063,1622988407710,,,,,,,,0.42,-0.86,-0.02,-45,-1,-1,0.96,,83,6734,39,26,94,1.059,41.0,493,4.83,12.8,36.5,1,47.2,4.69,14.6,0,0,1,1,0,411,2278,3826,410,,,,,,,,,,,,,,,,
279083,1622988407730,,,,,,,,0.44,-0.87,0.15,-44,-3,-3,0.98,,83,6776,39,26,94,1.019,41.5,499,4.84,12.7,36.5,1,47.6,4.66,14.6,0,0,1,1,0,417,1,-3414,415,,,,,,,,,,,,,,,,
279103,1622988407750,,,,,,,,0.45,-0.79,-0.03,-43,-0,1,0.91,,83,6773,39,26,94,0.995,41.8,500,4.84,12.9,34.8,1,47.6,4.66,14.6,0,0,1,1,0,426,-1562,31796,416,,,,,,,,,,,,,,,,
279123,1622988407770,,,,,,,,0.46,-0.81,0.14,-41,-2,-2,0.93,,83,6805,39,26,95,0.956,41.7,508,4.85,12.7,34.8,1,47.9,4.69,14.6,0,0,1,1,0,424,-3968,-3314,417,,,,,,,,,,,,,,,,
279143,1622988407790,-0,2,46,39,24,30,-18,0.45,-0.73,-0.02,-39,-0,1,0.86,0,83,6808,39,26,94,0.934,42.3,508,4.88,12.9,34.8,1,48.0,4.63,14.6,0,0,1,1,0,427,11545,-3322,424,45.699512,4.90866,39.26,197.2,9,3,1.9,0,0.0,-1,0.0,,0.0,0,2.73,4.6524
279163,1622988407810,,,,,,,,0.45,-0.8,0.0,-38,-2,-1,0.92,,83,6828,39,26,95,0.916,42.7,511,4.89,12.8,34.8,1,48.2,4.67,14.6,0,0,1,1,0,433,1504,-768,427,,,,,,,,,,,,,,,,
279183,1622988407830,,,,,,,,0.48,-0.75,0.04,-36,-0,0,0.89,,83,6848,39,26,94,0.887,43.0,507,4.9,12.9,34.8,1,48.4,4.6,14.6,0,0,1,1,0,437,-4059,21580,431,,,,,,,,,,,,,,,,
279203,1622988407850,,,,,,,,0.46,-0.73,-0.13,-35,0,-0,0.86,,83,6916,39,26,95,0.87,43.3,515,4.87,12.7,33.6,1,49.1,4.6,14.5,0,0,1,1,0,436,-4059,26704,433,,,,,,,,,,,,,,,,
279223,1622988407870,,,,,,,,0.46,-0.8,0.04,-34,-1,-2,0.93,,83,6996,39,26,94,0.859,43.4,514,4.9,12.8,33.6,1,49.9,4.49,14.5,0,0,1,1,0,443,-3414,16648,434,,,,,,,,,,,,,,,,
279243,1622988407890,0,3,46,41,24,29,-20,0.48,-0.72,0.01,-33,-1,-1,0.87,0,83,7080,39,26,94,0.85,43.5,520,4.89,12.9,33.6,1,48.9,4.55,14.5,0,0,1,1,0,450,-21792,8488,435,45.699524,4.908655,41.3,197.1,9,3,1.9,0,0.0,-1,0.0,0.0,0.0,0,2.73,4.654
279263,1622988407910,,,,,,,,0.49,-0.67,-0.15,-32,0,1,0.83,,83,7189,39,26,94,0.845,44.6,524,4.85,12.9,33.6,1,47.3,4.66,14.5,0,0,1,1,0,448,13552,-6387,446,,,,,,,,,,,,,,,,
279283,1622988407930,,,,,,,,0.46,-0.59,-0.31,-31,1,1,0.75,,83,7301,39,26,94,0.836,44.8,532,4.83,12.8,33.6,1,45.7,4.77,14.5,0,0,1,1,0,454,-3856,2524,444,,,,,,,,,,,,,,,,
279303,1622988407950,,,,,,,,0.46,-0.59,-0.45,-31,2,1,0.75,,83,7405,39,26,94,0.837,44.9,540,4.89,12.8,36.2,1,44.2,4.87,16.1,0,0,1,1,0,459,-4082,-23623,449,,,,,,,,,,,,,,,,
279323,1622988407970,,,,,,,,0.42,-0.59,-0.51,-30,2,0,0.72,,83,7467,40,26,93,0.838,45.0,546,4.85,12.7,36.2,1,43.4,4.93,16.1,0,0,1,1,0,466,243,30272,450,,,,,,,,,,,,,,,,
279343,1622988407990,0,2,46,41,24,29,-20,0.43,-0.64,-0.64,-30,3,1,0.77,0,83,7494,40,26,93,0.84,45.8,550,4.89,12.8,36.2,1,43.1,4.92,16.1,0,0,1,1,0,475,5600,10432,458,45.699532,4.908652,42.43,197.2,9,3,1.9,0,0.0,-1,0.0,,0.0,0,2.73,4.6557
279363,1622988407998,,,,,,,,0.4,-0.65,-0.75,-29,3,1,0.76,,83,7509,40,26,93,0.841,45.6,551,4.9,12.8,36.2,1,42.8,4.93,16.1,0,0,1,1,0,480,-18341,-9203,459,,,,,,,,,,,,,,,,
279383,1622988408018,,,,,,,,0.38,-0.65,-0.84,-29,3,-0,0.75,,83,7521,40,26,93,0.838,46.5,553,4.88,12.7,36.2,1,42.7,4.94,16.1,0,0,1,1,0,464,23400,2212,465,,,,,,,,,,,,,,,,
279403,1622988408038,,,,,,,,0.33,-0.63,-0.94,-28,5,-0,0.72,,83,7545,40,26,93,0.835,47.1,555,4.88,12.7,36.9,1,42.3,4.96,17.2,0,0,1,1,0,481,8488,2212,471,,,,,,,,,,,,,,,,
279423,1622988408058,,,,,,,,0.32,-0.65,-1.03,-28,7,1,0.72,,83,7600,40,26,93,0.831,47.1,556,4.86,12.8,36.9,1,41.5,5.03,17.2,0,0,1,1,0,479,8488,-899,471,,,,,,,,,,,,,,,,
279443,1622988408078,-1,2,46,42,23,28,-17,0.36,-0.64,-1.11,-27,6,1,0.73,0,83,7719,40,26,93,0.828,46.9,557,4.83,12.8,36.9,1,39.8,5.14,17.2,0,0,1,1,0,484,14488,3580,469,45.699547,4.908649,44.22,197.2,9,3,1.9,0,0.0,-1,0.0,0.0,0.0,0,2.73,4.6574
279463,1622988408110,,,,,,,,0.45,-0.58,-0.85,-27,4,-0,0.74,,83,7845,40,26,92,0.823,48.0,567,4.88,12.8,36.9,1,38.1,5.25,17.2,0,0,1,1,0,492,-26615,-6656,480,,,,,,,,,,,,,,,,
279483,1622988408130,,,,,,,,0.43,-0.64,-0.89,-26,4,-2,0.77,,83,7995,40,26,92,0.816,47.7,572,4.77,12.9,36.9,1,35.9,5.41,17.2,0,0,1,1,0,503,16408,771,477,,,,,,,,,,,,,,,,
279503,1622988408150,,,,,,,,0.48,-0.67,-0.98,-26,4,-0,0.82,,83,8155,41,26,91,0.808,48.7,585,4.9,12.8,41.9,1,38.2,5.68,20.4,0,0,1,1,0,495,-16384,-22519,487,,,,,,,,,,,,,,,,
279523,1622988408170,,,,,,,,0.48,-0.7,-0.93,-26,3,-1,0.85,,83,8249,42,26,90,0.799,48.9,591,4.8,12.8,41.9,1,39.7,5.81,20.4,0,0,1,1,0,513,2212,-21872,489,,,,,,,,,,,,,,,,
279543,1622988408191,-0,2,45,40,22,28,-15,0.54,-0.62,-0.95,-25,1,0,0.83,0,83,8419,43,26,90,0.794,49.9,607,4.85,12.8,41.9,1,42.3,6.1,20.4,0,0,1,1,0,504,-9203,-28648,499,45.69957,4.908644,47.62,197.2,9,3,1.9,0,0.0,-1,0.0,,0.0,0,2.73,4.659
279563,1622988408211,,,,,,,,0.56,-0.63,-1.03,-25,2,0,0.84,,83,8557,45,26,90,0.786,50.3,612,4.78,12.7,41.9,1,43.0,6.1,20.4,0,0,1,1,0,511,3580,15679,503,,,,,,,,,,,,,,,,
279583,1622988408231,,,,,,,,0.53,-0.73,-1.11,-25,1,-1,0.9,,83,8729,45,26,89,0.782,50.3,626,4.88,12.8,41.9,1,41.4,6.13,20.4,0,0,1,1,0,517,-6441,-3482,506,,,,,,,,,,,,,,,,
279603,1622988408251,,,,,,,,0.51,-0.69,-1.18,-24,1,-2,0.86,,83,8882,45,26,89,0.776,50.9,630,4.81,12.8,49.4,1,39.9,6.16,25.0,0,0,1,1,0,515,-32768,-22519,506,,,,,,,,,,,,,,,,
279623,1622988408271,,,,,,,,0.46,-0.75,-1.11,-24,2,-3,0.88,,83,9010,44,26,88,0.772,51.0,637,4.9,12.8,49.4,1,38.8,6.04,25.0,0,0,1,1,0,526,-32768,-9212,510,,,,,,,,,,,,,,,,
279643,1622988408291,1,2,48,41,21,25,-14,0.46,-0.82,-1.18,-23,2,-3,0.94,0,83,9119,39,26,87,0.773,51.5,640,4.81,12.8,49.4,1,38.8,5.9,25.0,0,0,1,1,0,519,-6528,-28648,515,45.69957,4.908644,47.62,197.2,9,3,1.9,0,0.0,-1,0.0,0.0,0.0,0,2.73,4.6607
279663,1622988408309,,,,,,,,0.43,-0.91,-1.25,-22,4,-3,1.01,,83,9173,36,26,85,0.774,52.4,647,4.91,12.8,49.4,1,38.8,5.47,25.0,0,0,1,1,0,533,998,14504,524,,,,,,,,,,,,,,,,
279683,1622988408329,,,,,,,,0.47,-0.88,-1.31,-22,5,-1,1.0,,83,9200,35,26,83,0.775,52.2,645,4.84,12.8,49.4,1,38.8,5.2,25.0,0,0,1,1,0,538,-32248,-28648,523,,,,,,,,,,,,,,,,
279703,1622988408349,,,,,,,,0.55,-0.91,-1.37,-21,6,1,1.06,,83,9236,35,26,82,0.783,52.4,645,4.87,12.7,42.2,1,39.2,5.07,22.1,0,0,1,1,0,551,-14,-506,524,,,,,,,,,,,,,,,,
279723,1622988408369,,,,,,,,0.57,-0.82,-1.09,-21,4,1,1.0,,83,9263,35,26,81,0.793,53.3,636,4.96,12.8,42.2,1,39.6,5.09,22.1,0,0,1,1,0,556,-8187,-32248,533,,,,,,,,,,,,,,,,
279743,1622988408389,0,2,48,42,24,27,-16,0.57,-0.72,-0.83,-21,3,1,0.92,0,83,9254,35,26,81,0.805,53.8,650,4.86,12.7,42.2,1,39.6,5.09,22.1,0,0,1,1,0,561,-8187,2211,538,45.699581,4.908643,50.33,197.2,9,3,1.9,0,0.0,-1,0.0,,0.0,0,2.74,4.6624
279763,1622988408407,,,,,,,,0.53,-0.69,-0.59,-20,2,-0,0.87,,83,9241,35,26,81,0.817,54.4,646,4.73,12.7,42.2,1,39.6,5.09,22.1,0,0,1,1,0,563,-8187,-23623,544,,,,,,,,,,,,,,,,
279783,1622988408427,,,,,,,,0.48,-0.72,-0.65,-21,2,-1,0.87,,83,9231,35,26,80,0.831,54.3,647,4.88,12.8,42.2,1,40.0,5.08,22.1,0,0,1,1,0,555,-32248,12552,548,,,,,,,,,,,,,,,,
279803,1622988408447,,,,,,,,0.52,-0.8,-0.76,-21,3,-1,0.95,,83,9236,35,26,80,0.842,54.7,640,4.86,12.8,39.5,1,40.0,5.08,21.7,0,0,1,1,0,567,-9072,-3190,547,,,,,,,,,,,,,,,,
279823,1622988408467,,,,,,,,0.6,-0.87,-0.86,-21,2,-0,1.06,,84,9191,35,26,80,0.851,55.2,648,4.88,12.7,39.5,1,40.0,3.8,21.7,0,0,1,1,0,577,14504,-8188,557,,,,,,,,,,,,,,,,
279843,1622988408487,0,2,50,41,23,26,-30,0.62,-0.86,-0.95,-21,1,2,1.06,0,84,9164,35,26,81,0.864,55.0,640,4.83,12.7,39.5,1,39.6,4.94,21.7,0,0,1,1,0,579,-9072,8488,560,45.699593,4.908642,52.81,197.2,9,3,1.9,0,0.0,-1,0.0,0.0,0.0,0,2.74,4.6641
279863,1622988408507,,,,,,,,0.62,-0.82,-0.7,-21,-0,1,1.03,,84,9177,35,26,80,0.873,56.6,649,4.83,12.7,39.5,1,40.0,4.95,21.7,0,0,1,1,0,584,-22519,-3210,566,,,,,,,,,,,,,,,,
279883,1622988408527,,,,,,,,0.61,-0.81,-0.48,-21,-1,-1,1.01,,84,9200,35,26,80,0.882,56.2,640,4.85,12.8,39.5,1,40.0,4.96,21.7,0,0,1,1,0,586,-22519,-4035,569,,,,,,,,,,,,,,,,
279903,1622988408547,,,,,,,,0.58,-0.84,-0.53,-22,-1,-1,1.02,,84,9286,36,26,80,0.892,56.8,640,4.93,12.8,36.8,1,40.0,4.98,21.1,0,0,1,1,0,585,-28648,-13043,569,,,,,,,,,,,,,,,,
279923,1622988408567,,,,,,,,0.61,-0.88,-0.65,-23,0,-1,1.07,,84,9407,36,26,80,0.898,57.5,647,4.92,12.8,36.8,1,40.0,5.01,21.1,0,0,1,1,0,593,250,208,575,,,,,,,,,,,,,,,,
279943,1622988408587,-1,2,50,41,23,29,-28,0.67,-0.93,-0.77,-24,-0,-1,1.15,0,84,9600,36,26,81,0.908,58.1,650,4.83,12.7,36.8,1,39.6,5.06,21.1,0,0,1,1,0,603,28160,-13043,581,45.699608,4.908642,54.88,197.3,9,3,1.9,0,0.0,-1,0.0,,0.0,0,2.74,4.6657
279963,1622988408603,,,,,,,,0.53,-0.8,-0.57,-25,1,-3,0.96,,84,9720,37,26,81,0.91,58.4,662,4.82,12.8,36.8,1,39.6,5.2,21.1,0,0,1,1,0,601,250,30227,592,,,,,,,,,,,,,,,,
279983,1622988408623,,,,,,,,0.57,-0.77,-0.54,-25,0,-2,0.96,,84,9770,38,26,80,0.912,59.0,648,4.9,12.8,36.8,1,39.8,3.98,21.1,0,0,1,1,0,632,-22519,-23055,592,,,,,,,,,,,,,,,,
280003,1622988408643,,,,,,,,0.58,-0.72,-0.66,-26,0,-2,0.93,,84,9821,39,26,81,0.914,58.7,649,4.85,12.8,39.9,1,39.6,5.23,23.6,0,0,1,1,0,628,-9072,28675,600,,,,,,,,,,,,,,,,
280023,1622988408663,,,,,,,,0.57,-0.73,-0.54,-27,0,-1,0.93,,84,9899,40,26,81,0.915,59.8,655,4.98,12.7,39.9,1,39.6,5.25,23.6,0,0,1,1,0,600,-30159,3395,598,,,,,,,,,,,,,,,,
280043,1622988408683,0,1,51,41,22,29,-19,0.57,-0.66,-0.59,-27,0,-1,0.88,0,84,9915,40,26,81,0.913,60.3,650,4.91,12.7,39.9,1,39.5,5.25,23.6,0,0,1,1,0,615,12552,269,603,45.699623,4.908642,58.91,197.3,9,3,1.9,0,0.0,-1,0.0,0.0,0.0,0,2.74,4.6674
280063,1622988408707,,,,,,,,0.54,-0.61,-0.46,-27,-1,-2,0.81,,84,9936,40,26,81,0.911,60.2,657,4.84,12.7,39.9,1,39.6,5.26,23.6,0,0,1,1,0,620,-29984,3395,610,,,,,,,,,,,,,,,,
280083,1622988408727,,,,,,,,0.57,-0.65,-0.58,-27,0,-0,0.86,,84,9978,40,26,81,0.91,60.7,664,4.87,12.7,39.9,1,39.5,5.34,23.6,0,0,1,1,0,632,2211,3395,607,,,,,,,,,,,,,,,,
280103,1622988408747,,,,,,,,0.56,-0.63,-0.45,-28,1,0,0.85,,84,10010,40,26,81,0.908,61.0,658,4.95,13.0,39.8,1,39.6,5.35,24.4,0,0,1,1,0,638,1760,966,614,,,,,,,,,,,,,,,,
280123,1622988408767,,,,,,,,0.6,-0.7,-0.53,-28,-1,1,0.92,,84,9254,40,26,83,0.907,62.0,656,4.9,13.0,39.8,1,38.8,5.23,24.4,0,0,1,1,0,622,15649,-2836,612,,,,,,,,,,,,,,,,
280143,1622988408787,-0,2,50,40,22,30,-20,0.52,-0.74,-0.65,-28,1,1,0.9,0,84,8836,40,26,85,0.906,61.9,643,4.98,12.9,39.8,1,40.2,5.57,24.4,0,0,1,1,0,604,-25872,269,619,45.699638,4.908643,60.54,197.3,9,3,1.9,0,0.0,-1,0.0,,0.0,0,2.74,4.6691
280163,1622988408809,,,,,,,,0.4,-0.79,-0.52,-28,2,-0,0.89,,84,8596,42,26,86,0.905,61.8,642,4.98,13.0,39.8,1,42.3,5.67,24.4,0,0,1,1,0,596,6273,3403,618,,,,,,,,,,,,,,,,
280183,1622988408829,,,,,,,,0.38,-0.72,-0.42,-28,1,-0,0.82,,84,8359,44,26,88,0.904,60.9,636,4.97,13.0,39.8,1,41.2,5.87,24.4,0,0,1,1,0,596,3472,26688,609,,,,,,,,,,,,,,,,
280203,1622988408849,,,,,,,,0.33,-0.79,-0.55,-28,3,-1,0.85,,84,8177,47,26,91,0.92,61.7,625,4.93,12.7,35.6,1,37.7,5.69,22.0,0,0,1,1,0,596,-13043,269,617,,,,,,,,,,,,,,,,
280223,1622988408869,,,,,,,,0.35,-0.85,-0.67,-28,3,0,0.91,,84,7835,49,26,93,0.932,61.8,590,4.95,12.7,35.6,1,38.1,6.08,22.0,0,0,1,1,0,646,-28648,-2580,618,,,,,,,,,,,,,,,,
280243,1622988408889,1,1,45,35,24,32,-13,0.37,-0.84,-0.67,-28,2,1,0.91,0,84,7597,50,26,94,0.948,62.3,570,4.9,12.7,35.6,1,41.5,5.83,22.0,0,0,1,1,0,667,30227,-2830,623,45.699654,4.908645,60.94,197.4,9,3,1.9,0,0.0,-1,0.0,0.0,0.0,0,2.74,4.6707
280263,1622988408909,,,,,,,,0.32,-0.8,-0.78,-28,2,2,0.86,,84,7384,50,26,95,0.968,62.6,558,4.81,12.8,35.6,1,44.5,5.62,22.0,0,0,1,1,0,637,-1480,11566,626,,,,,,,,,,,,,,,,
280283,1622988408929,,,,,,,,0.3,-0.86,-0.78,-28,2,1,0.91,,84,7231,49,26,95,1.015,62.4,548,4.87,12.8,35.6,1,46.7,5.4,22.0,0,0,1,1,0,633,19621,16599,630,,,,,,,,,,,,,,,,
280303,1622988408949,,,,,,,,0.25,-0.87,-0.55,-27,1,-1,0.91,,84,7194,49,26,96,1.065,63.2,534,4.9,12.7,28.3,1,47.0,5.29,17.9,0,0,1,1,0,636,19304,-10251,625,,,,,,,,,,,,,,,,
280323,1622988408969,,,,,,,,0.3,-0.9,-0.4,-27,1,-2,0.95,,84,7278,49,26,96,1.115,63.0,535,4.89,12.8,28.3,1,46.0,5.25,17.9,0,0,1,1,0,629,19621,-10251,630,,,,,,,,,,,,,,,,
280343,1622988408989,0,1,45,35,22,31,-17,0.27,-0.83,-0.48,-26,1,-1,0.87,0,84,7408,49,26,95,1.152,63.6,545,4.86,12.9,28.3,1,44.2,5.27,17.9,0,0,1,1,0,635,28675,16599,636,45.699669,4.908647,62.11,197.4,9,3,1.9,0,0.0,-1,0.0,,0.0,0,2.75,4.6724
280363,1622988408999,,,,,,,,0.34,-0.83,-0.53,-26,-0,-3,0.9,,84,7521,49,26,95,1.177,62.8,555,4.84,12.9,28.3,1,42.5,5.31,17.9,0,0,1,1,0,638,-768,244,628,,,,,,,,,,,,,,,,
280383,1622988409019,,,,,,,,0.38,-0.9,-0.41,-26,-2,-3,0.98,,84,7548,49,26,95,1.189,63.7,558,4.85,12.9,28.3,1,42.1,5.22,17.9,0,0,1,1,0,644,28675,24583,637,,,,,,,,,,,,,,,,
280403,1622988409039,,,,,,,,0.41,-0.86,-0.36,-26,-3,-3,0.95,,84,7500,50,26,95,1.202,64.0,551,4.84,12.9,28.4,1,42.8,5.1,18.1,0,0,1,1,0,656,19320,-30207,642,,,,,,,,,,,,,,,,
280423,1622988409059,,,,,,,,0.41,-0.78,-0.24,-26,-3,-3,0.88,,84,7467,51,26,96,1.219,64.7,550,4.9,12.8,28.4,1,43.2,4.96,18.1,0,0,1,1,0,651,17336,24583,647,,,,,,,,,,,,,,,,
280443,1622988409079,0,1,45,37,21,29,-17,0.47,-0.8,-0.18,-26,-3,-4,0.93,0,84,7458,51,26,96,1.216,64.7,551,4.91,12.8,28.4,1,43.3,4.95,18.1,0,0,1,1,0,650,3403,-3488,637,45.699684,4.908651,63.73,197.5,9,3,1.9,0,0.0,-1,0.0,0.0,0.0,0,2.75,4.674
280463,1622988409109,,,,,,,,0.43,-0.75,-0.1,-25,-3,-4,0.87,,84,7518,51,26,96,1.203,64.1,552,4.88,12.8,28.4,1,42.5,5.01,18.1,0,0,1,1,0,649,3395,24583,646,,,,,,,,,,,,,,,,
280483,1622988409129,,,,,,,,0.37,-0.86,-0.17,-25,-2,-5,0.93,,84,7631,51,26,95,1.192,64.5,552,4.86,12.9,28.4,1,40.9,5.11,18.1,0,0,1,1,0,657,-5120,31988,645,,,,,,,,,,,,,,,,
280503,1622988409149,,,,,,,,0.35,-0.92,-0.33,-26,-2,-4,0.99,,84,7735,51,26,95,1.175,65.5,563,4.94,12.8,27.9,1,39.4,5.2,18.1,0,0,1,1,0,669,-14655,-2345,655,,,,,,,,,,,,,,,,
280523,1622988409169,,,,,,,,0.36,-0.91,-0.47,-26,-2,-4,0.98,,84,7773,51,26,95,1.145,65.3,572,4.92,12.7,27.9,1,38.8,5.24,18.1,0,0,1,1,0,685,771,-388,653,,,,,,,,,,,,,,,,
280543,1622988409189,-1,2,46,37,22,31,-20,0.4,-0.83,-0.56,-26,-2,-3,0.93,0,84,7832,52,26,95,1.111,65.0,569,4.95,12.7,27.9,1,38.0,5.3,18.1,0,0,1,1,0,669,130,-388,650,45.699699,4.908657,64.84,197.4,9,3,2.0,0,0.0,-1,0.0,,0.0,0,2.75,4.6757
280563,1622988409209,,,,,,,,0.4,-0.8,-0.35,-26,-3,-4,0.89,,84,7825,53,26,95,1.066,66.3,569,4.89,12.8,27.9,1,38.1,5.3,18.1,0,0,1,1,0,664,-2580,-388,652,,,,,,,,,,,,,,,,
280583,1622988409229,,,,,,,,0.35,-0.83,-0.41,-26,-4,-6,0.9,,84,7789,54,26,95,1.02,66.1,575,4.81,12.9,27.9,1,38.6,5.26,18.1,0,0,1,1,0,672,-14655,-26892,661,,,,,,,,,,,,,,,,
280603,1622988409249,,,,,,,,0.29,-0.82,-0.46,-26,-5,-6,0.87,,84,7786,54,26,95,0.98,66.7,574,4.85,12.8,28.2,1,38.6,4.1,18.9,0,0,1,1,0,671,-1,-2345,664,,,,,,,,,,,,,,,,
280623,1622988409269,,,,,,,,0.3,-0.77,-0.59,-27,-2,-4,0.83,,84,7822,54,26,95,0.965,67.0,568,4.88,12.8,28.2,1,38.1,5.29,18.9,0,0,1,1,0,692,-4876,-2826,670,,,,,,,,,,,,,,,,
280643,1622988409289,-2,3,47,37,21,30,-23,0.35,-0.64,-0.47,-27,-3,-3,0.73,0,84,7911,54,26,95,0.95,66.6,572,4.91,12.7,28.2,1,36.8,5.37,18.9,0,0,1,1,0,686,244,3543,675,45.699715,4.908663,64.59,197.3,9,3,1.9,0,0.0,-1,0.0,0.0,0.0,0,2.75,4.6774
280663,1622988409310,,,,,,,,0.32,-0.62,-0.38,-27,-3,-3,0.7,,84,7961,54,26,94,0.935,67.5,587,4.85,12.9,28.2,1,36.2,5.4,18.9,0,0,1,1,0,682,-8429,6208,675,,,,,,,,,,,,,,,,
280683,1622988409330,,,,,,,,0.32,-0.73,-0.51,-27,-2,-2,0.8,,84,7978,54,26,95,0.919,67.2,578,4.85,12.7,28.2,1,35.9,4.28,18.9,0,0,1,1,0,698,11776,24,680,,,,,,,,,,,,,,,,
280703,1622988409350,,,,,,,,0.39,-0.66,-0.44,-27,-2,-1,0.77,,84,8029,54,26,95,0.908,67.2,582,4.95,12.7,29.6,1,35.9,5.51,20.1,0,0,1,1,0,684,479,14342,672,,,,,,,,,,,,,,,,
280723,1622988409370,,,,,,,,0.33,-0.66,-0.45,-28,-2,-2,0.74,,84,8092,54,26,94,0.895,68.1,585,4.8,12.8,29.6,1,36.9,5.63,20.1,0,0,1,1,0,695,-2830,12333,680,,,,,,,,,,,,,,,,
280743,1622988409390,-0,2,47,36,20,29,-17,0.4,-0.76,-0.5,-28,-1,-1,0.85,0,84,8148,54,26,94,0.883,68.4,587,4.95,12.7,29.6,1,37.8,5.74,20.1,0,0,1,1,0,701,-26380,-3584,685,45.69973,4.90867,66.88,197.3,9,3,1.9,0,0.0,-1,0.0,,0.0,0,2.75,4.679
280763,1622988409410,,,,,,,,0.36,-0.73,-0.45,-28,-3,-2,0.82,,84,8177,54,26,94,0.875,68.1,593,4.88,12.8,29.6,1,38.2,5.79,20.1,0,0,1,1,0,703,-10344,-2830,681,,,,,,,,,,,,,,,,
280783,1622988409430,,,,,,,,0.44,-0.76,-0.58,-28,-2,-2,0.88,,84,8227,54,26,94,0.865,68.3,586,4.92,12.7,29.6,1,39.0,5.86,20.1,0,0,1,1,0,695,-2345,-3584,685,,,,,,,,,,,,,,,,
280803,1622988409450,,,,,,,,0.4,-0.8,-0.42,-28,-4,-4,0.89,,84,8245,54,26,93,0.86,69.2,593,4.93,12.8,32.3,1,39.4,5.93,22.5,0,0,1,1,0,705,3543,11069,689,,,,,,,,,,,,,,,,
280823,1622988409470,,,,,,,,0.44,-0.76,-0.55,-27,-3,-1,0.87,,84,8263,54,26,93,0.852,69.3,595,4.83,12.8,32.3,1,39.6,5.93,22.5,0,0,1,1,0,708,-26380,-30694,693,,,,,,,,,,,,,,,,
280843,1622988409490,0,2,46,37,20,29,-16,0.4,-0.8,-0.66,-27,-3,-4,0.89,0,84,8303,54,26,93,0.845,69.1,597,4.93,12.8,32.3,1,40.3,6.0,22.5,0,0,1,1,0,713,16118,-3888,691,45.699749,4.908679,68.06,197.2,9,3,1.9,0,0.0,-1,0.0,0.0,0.0,0,2.75,4.6807
280863,1622988409510,,,,,,,,0.48,-0.71,-0.73,-26,-2,-1,0.86,,84,8344,54,26,93,0.842,69.2,600,4.92,12.7,32.3,1,40.9,6.09,22.5,0,0,1,1,0,727,-26892,204,693,,,,,,,,,,,,,,,,
280883,1622988409530,,,,,,,,0.43,-0.75,-0.67,-27,-4,-3,0.86,,84,8374,54,26,92,0.842,69.9,609,4.9,12.8,32.3,1,41.4,6.14,22.5,0,0,1,1,0,725,-3038,-25858,704,,,,,,,,,,,,,,,,
280903,1622988409550,,,,,,,,0.46,-0.7,-0.45,-26,-3,-2,0.84,,84,8389,54,26,93,0.84,70.8,607,4.86,12.7,33.8,1,41.6,6.17,23.9,0,0,1,1,0,716,16599,1524,708,,,,,,,,,,,,,,,,
280923,1622988409570,,,,,,,,0.45,-0.69,-0.58,-26,-2,-3,0.83,,84,8400,54,26,93,0.84,70.2,610,4.81,12.7,33.8,1,41.7,6.15,23.9,0,0,1,1,0,719,-10344,-4091,702,,,,,,,,,,,,,,,,
280943,1622988409590,1,2,46,39,20,28,-13,0.45,-0.8,-0.52,-26,-4,-5,0.92,0,84,8461,54,26,92,0.844,70.5,596,4.9,12.8,33.8,1,42.8,6.31,23.9,0,0,1,1,0,732,1780,-2830,705,45.699764,4.908689,70.4,197.2,9,3,1.9,0,0.0,-1,0.0,,0.0,0,2.76,4.6824
280963,1622988409610,,,,,,,,0.47,-0.66,-0.44,-25,-2,-1,0.81,,84,8538,54,26,92,0.847,71.1,606,4.83,12.8,33.8,1,43.1,6.34,23.9,0,0,1,1,0,728,-10346,-4091,711,,,,,,,,,,,,,,,,
280983,1622988409630,,,,,,,,0.47,-0.62,-0.48,-25,-2,-2,0.78,,84,8589,55,26,92,0.851,71.6,617,4.9,12.8,33.8,1,42.6,6.35,23.9,0,0,1,1,0,739,-10399,-31066,718,,,,,,,,,,,,,,,,
281003,1622988409650,,,,,,,,0.42,-0.73,-0.57,-24,-1,-3,0.85,,84,8640,55,26,92,0.855,72.2,611,4.9,12.8,35.2,1,42.2,6.36,25.3,0,0,1,1,0,741,-10448,-2830,722,,,,,,,,,,,,,,,,
281023,1622988409670,,,,,,,,0.37,-0.73,-0.4,-23,-2,-4,0.82,,84,8676,55,26,91,0.861,71.5,626,4.94,12.8,35.2,1,42.0,6.37,25.3,0,0,1,1,0,741,-20693,-2826,724,,,,,,,,,,,,,,,,
281043,1622988409690,-0,2,46,41,20,29,-13,0.39,-0.7,-0.2,-23,-2,-3,0.8,0,84,8712,55,26,91,0.865,72.7,622,4.83,12.7,35.2,1,41.6,6.33,25.3,0,0,1,1,0,750,-3584,6790,730,45.69978,4.908701,71.82,197.2,9,3,1.9,0,0.0,-1,0.0,0.0,0.0,0,2.76,4.6841
281063,1622988409710,,,,,,,,0.44,-0.61,-0.33,-23,-2,-2,0.75,,84,8761,55,26,91,0.87,73.4,628,4.88,12.8,35.2,1,41.0,6.34,25.3,0,0,1,1,0,750,204,-23308,733,,,,,,,,,,,,,,,,
281083,1622988409730,,,,,,,,0.51,-0.62,-0.47,-23,-1,-1,0.8,,84,8823,55,26,90,0.875,73.8,627,4.92,12.8,35.2,1,40.5,6.35,25.3,0,0,1,1,0,739,6658,-22795,739,,,,,,,,,,,,,,,,
281103,1622988409750,,,,,,,,0.56,-0.74,-0.59,-24,-1,-3,0.92,,84,8844,55,26,91,0.879,73.4,635,4.89,12.8,35.2,1,40.3,6.35,25.9,0,0,1,1,0,751,-23490,8838,734,,,,,,,,,,,,,,,,
281123,1622988409770,,,,,,,,0.58,-0.79,-0.71,-23,-0,-3,0.98,,84,8856,55,26,91,0.882,73.7,630,4.9,12.8,35.2,1,40.2,6.36,25.9,0,0,1,1,0,757,8010,-10218,737,,,,,,,,,,,,,,,,
281143,1622988409790,-0,2,47,41,19,26,-10,0.55,-0.88,-0.82,-22,0,-4,1.04,0,84,8856,55,26,90,0.887,74.6,630,4.91,12.8,35.2,1,40.2,6.36,25.9,0,0,1,1,0,756,1524,-3450,746,45.699795,4.908713,72.91,197.2,9,3,1.9,0,0.0,-1,0.0,,0.0,0,2.76,4.6857
281163,1622988409810,,,,,,,,0.48,-0.95,-0.92,-21,1,-3,1.06,,84,8877,55,26,91,0.889,74.1,631,4.8,12.8,35.2,1,40.0,6.36,25.9,0,0,1,1,0,767,-2358,-3038,741,,,,,,,,,,,,,,,,
281183,1622988409830,,,,,,,,0.46,-0.98,-0.92,-21,0,-4,1.09,,84,8920,55,26,91,0.894,74.6,631,4.9,12.8,35.2,1,39.6,6.37,25.9,0,0,1,1,0,771,-2358,-10216,746,,,,,,,,,,,,,,,,
281203,1622988409850,,,,,,,,0.41,-1.02,-1.01,-20,-0,-5,1.1,,84,8975,55,26,91,0.896,74.6,633,4.81,12.7,34.9,1,39.1,6.38,26.1,0,0,1,1,0,764,-2830,-22795,746,,,,,,,,,,,,,,,,
281223,1622988409870,,,,,,,,0.38,-0.96,-0.88,-20,-1,-6,1.03,,84,8971,55,26,91,0.9,75.2,629,4.87,12.8,34.9,1,39.1,6.38,26.1,0,0,1,1,0,773,-4096,-22795,758,,,,,,,,,,,,,,,,
281243,1622988409890,-0,2,45,38,22,27,-7,0.35,-0.91,-0.97,-19,-2,-6,0.97,0,84,8984,55,26,91,0.903,75.2,636,4.86,12.8,34.9,1,39.0,6.38,26.1,0,0,1,1,0,772,-30694,-2830,752,45.69981,4.908727,74.89,197.2,9,3,2.0,0,0.0,-1,0.0,0.0,0.0,0,2.76,4.6874
281263,1622988409906,,,,,,,,0.3,-0.94,-0.97,-19,-2,-7,0.98,,84,9044,55,26,91,0.907,76.1,634,4.87,12.8,34.9,1,38.8,6.39,26.1,0,0,1,1,0,773,-31066,-2426,761,,,,,,,,,,,,,,,,
281283,1622988409926,,,,,,,,0.25,-0.93,-1.05,-18,-2,-7,0.97,,84,9031,55,26,90,0.911,76.5,637,4.89,12.8,34.9,1,38.8,6.39,26.1,0,0,1,1,0,774,-3344,-3450,765,,,,,,,,,,,,,,,,
281303,1622988409946,,,,,,,,0.24,-0.94,-1.13,-18,-2,-7,0.97,,84,9075,55,26,90,0.915,75.9,642,4.87,12.8,34.5,1,38.8,6.39,26.6,0,0,1,1,0,779,-3344,-22795,771,,,,,,,,,,,,,,,,
281323,1622988409966,,,,,,,,0.28,-0.98,-1.2,-17,-2,-7,1.02,,84,9084,55,26,90,0.918,77.4,637,4.79,12.8,34.5,1,38.8,6.34,26.6,0,0,1,1,0,789,-22795,-10218,774,,,,,,,,,,,,,,,,
281343,1622988409986,1,0,46,39,21,24,-7,0.3,-1.03,-1.27,-17,-1,-7,1.08,0,84,9066,55,26,90,0.922,77.5,639,4.81,12.8,34.5,1,38.8,6.34,26.6,0,0,1,1,0,788,-2574,-10216,760,45.699829,4.908741,76.0,197.2,9,3,2.0,0,0.0,-1,0.0,,0.0,0,2.76,4.6891
281363,1622988409996,,,,,,,,0.31,-1.0,-1.33,-16,-0,-5,1.05,,84,9124,55,26,91,0.925,77.4,639,4.83,12.8,34.5,1,38.8,6.39,26.6,0,0,1,1,0,788,-3038,-2540,781,,,,,,,,,,,,,,,,
281383,1622988410016,,,,,,,,0.33,-1.04,-1.39,-16,1,-5,1.09,,84,9168,55,26,90,0.929,77.2,641,4.91,12.8,34.5,1,38.8,6.34,26.6,0,0,1,1,0,790,-31066,-2826,772,,,,,,,,,,,,,,,,
281403,1622988410036,,,,,,,,0.38,-0.98,-1.44,-15,3,-2,1.05,,84,9245,55,26,90,0.931,77.4,633,4.91,12.8,34.7,1,38.8,6.34,27.0,0,0,1,1,0,799,6389,-2826,782,,,,,,,,,,,,,,,,
281423,1622988410056,,,,,,,,0.35,-0.87,-1.15,-14,3,-2,0.94,,84,9328,55,26,90,0.934,77.5,650,4.84,12.7,34.7,1,38.9,6.34,27.0,0,0,1,1,0,801,6900,-13072,775,,,,,,,,,,,,,,,,
281443,1622988410076,0,1,49,44,24,25,-10,0.25,-0.8,-0.89,-13,4,-2,0.84,0,84,9342,55,26,90,0.936,78.6,643,4.86,12.7,34.7,1,38.9,6.34,27.0,0,0,1,1,0,806,-2570,-2560,786,45.699848,4.908756,77.18,197.1,9,3,2.1,0,0.0,-1,0.0,0.0,0.0,0,2.77,4.6907
281463,1622988410108,,,,,,,,0.25,-0.86,-0.92,-13,4,-2,0.9,,84,9356,54,26,90,0.938,77.5,653,4.89,12.8,34.7,1,38.9,6.39,27.0,0,0,1,1,0,804,7413,16118,775,,,,,,,,,,,,,,,,
281483,1622988410128,,,,,,,,0.25,-0.81,-1.01,-13,5,-1,0.85,,84,9389,49,26,90,0.939,78.6,645,4.86,12.8,34.7,1,38.9,6.34,27.0,0,0,1,1,0,818,-2344,-3344,786,,,,,,,,,,,,,,,,
281503,1622988410148,,,,,,,,0.32,-0.67,-0.76,-13,-0,-1,0.74,,84,9464,45,26,89,0.939,79.0,650,4.9,12.8,35.2,1,38.8,6.2,27.6,0,0,1,1,0,871,-22795,-2358,795,,,,,,,,,,,,,,,,
281523,1622988410168,,,,,,,,0.35,-0.68,-0.86,-13,2,-2,0.76,,84,9775,44,26,88,0.935,79.6,656,4.82,12.8,35.2,1,39.3,5.99,27.6,0,0,1,1,0,792,-2570,-22796,796,,,,,,,,,,,,,,,,
281543,1622988410188,4,3,46,41,24,27,-4,0.29,-0.64,-0.7,-13,2,-2,0.7,0,84,9811,42,26,87,0.929,79.2,654,4.87,12.7,35.2,1,39.3,5.7,27.6,0,0,1,1,0,815,-2826,-4091,792,45.699863,4.908773,79.39,197.0,9,3,2.1,0,0.0,-1,0.0,,0.0,0,2.77,4.6924
281563,1622988410208,,,,,,,,0.34,-0.73,-0.81,-13,2,-2,0.8,,84,9816,35,26,84,0.925,80.1,670,4.83,12.8,35.2,1,39.2,5.56,27.6,0,0,1,1,0,812,-10212,-3344,805,,,,,,,,,,,,,,,,
281583,1622988410228,,,,,,,,0.3,-0.57,-0.58,-13,1,-3,0.65,,84,9786,23,26,79,0.918,80.3,653,4.86,12.7,35.2,1,40.0,4.93,27.6,0,0,1,1,0,823,1,-2314,803,,,,,,,,,,,,,,,,
281603,1622988410248,,,,,,,,0.32,-0.56,-0.69,-12,1,-3,0.65,,84,9679,10,26,70,0.912,79.6,646,4.85,12.8,26.9,1,40.9,4.0,21.4,0,0,1,1,0,818,3544,-2826,794,,,,,,,,,,,,,,,,
281623,1622988410268,,,,,,,,0.36,-0.58,-0.8,-12,2,-1,0.68,,84,9356,4,26,60,0.903,80.0,650,4.95,12.8,26.9,1,40.6,3.39,21.4,0,0,1,1,0,821,-2826,-2314,800,,,,,,,,,,,,,,,,
281643,1622988410288,7,5,45,42,23,26,-4,0.33,-0.45,-0.74,-11,4,0,0.56,0,84,8962,4,26,52,0.893,80.1,651,4.82,12.7,26.9,1,39.0,3.16,21.4,0,0,1,1,0,820,-10216,-3344,801,45.699879,4.908791,81.09,197.0,9,3,1.9,0,0.0,-1,0.0,0.0,0.0,0,2.77,4.694
281663,1622988410307,,,,,,,,0.32,-0.57,-0.84,-11,4,1,0.65,,84,8794,4,26,47,0.886,80.0,638,4.82,12.8,26.9,1,37.0,2.92,21.4,0,0,1,1,0,804,6905,-25858,799,,,,,,,,,,,,,,,,
281683,1622988410327,,,,,,,,0.25,-0.6,-0.94,-10,7,2,0.65,,84,8684,4,25,43,0.871,79.5,636,4.96,12.9,26.9,1,34.5,2.87,21.4,0,0,1,1,0,802,-7436,-13072,795,,,,,,,,,,,,,,,,
281703,1622988410347,,,,,,,,0.2,-0.46,-0.81,-10,6,1,0.5,,84,8449,4,25,40,0.856,79.7,636,4.9,12.8,14.0,1,32.4,2.74,11.3,0,0,1,1,0,795,-2570,-30694,796,,,,,,,,,,,,,,,,
281723,1622988410367,,,,,,,,0.09,-0.53,-0.85,-10,5,-0,0.53,,84,8227,4,25,37,0.838,79.8,632,4.9,12.8,14.0,1,30.8,2.44,11.3,0,0,1,1,0,793,-8148,11277,798,,,,,,,,,,,,,,,,
281743,1622988410387,20,14,37,32,31,32,-0,0.03,-0.42,-0.63,-9,4,-0,0.42,0,84,8123,4,25,35,0.827,79.0,621,4.9,12.9,14.0,1,30.0,2.23,11.3,0,0,1,1,0,775,11277,-22795,777,45.699894,4.908809,82.26,197.0,9,3,1.9,0,0.0,-1,0.0,,0.0,0,2.77,4.6957
281763,1622988410407,,,,,,,,-0.07,-0.46,-0.75,-9,5,-1,0.46,,84,8159,4,25,34,0.814,78.1,623,4.86,12.9,14.0,1,29.8,2.21,11.3,0,0,1,1,0,765,-2826,-10212,779,,,,,,,,,,,,,,,,
281783,1622988410427,,,,,,,,-0.09,-0.42,-0.69,-8,4,-2,0.43,,84,8145,4,25,32,0.801,77.6,628,5.03,12.8,14.0,1,29.2,2.1,11.3,0,0,1,1,0,770,-2570,6389,776,,,,,,,,,,,,,,,,
281803,1622988410447,,,,,,,,-0.16,-0.44,-0.64,-8,3,-3,0.47,,84,8102,4,25,31,0.785,77.5,625,4.92,12.8,10.0,1,28.8,2.08,7.8,0,0,1,1,0,761,-10214,6389,773,,,,,,,,,,,,,,,,
281823,1622988410467,,,,,,,,-0.18,-0.46,-0.69,-7,4,-1,0.5,,84,8085,4,25,31,0.776,76.3,628,4.92,12.8,10.0,1,28.8,2.06,7.8,0,0,1,1,0,746,6389,-30694,760,,,,,,,,,,,,,,,,
281843,1622988410487,23,14,29,26,34,34,-1,-0.21,-0.42,-0.69,-7,3,-1,0.47,0,84,8109,4,25,30,0.779,75.7,625,4.9,12.8,10.0,1,28.5,2.11,7.8,0,0,1,1,0,746,8838,-31066,755,45.699909,4.908828,83.03,196.9,9,3,1.9,0,0.0,-1,0.0,0.0,0.0,0,2.78,4.6974
281863,1622988410507,,,,,,,,-0.36,-0.41,-0.8,-7,5,-0,0.55,,84,8078,4,25,29,0.785,76.2,623,4.93,12.8,10.0,1,28.2,2.09,7.8,0,0,1,1,0,730,-22795,-2830,750,,,,,,,,,,,,,,,,
281883,1622988410527,,,,,,,,-0.33,-0.39,-0.9,-6,4,1,0.52,,84,8029,4,25,28,0.79,74.9,625,4.89,12.8,10.0,1,27.8,2.05,7.8,0,0,1,1,0,732,-4096,1037,749,,,,,,,,,,,,,,,,
281903,1622988410547,,,,,,,,-0.38,-0.34,-0.89,-6,3,-0,0.51,,84,8012,4,25,28,0.795,74.4,611,4.88,12.9,10.4,1,27.8,2.05,7.7,0,0,1,1,0,727,-3580,1524,744,,,,,,,,,,,,,,,,
281923,1622988410567,,,,,,,,-0.47,-0.32,-0.89,-6,3,-0,0.57,,84,7968,4,25,28,0.805,73.3,616,4.9,12.8,10.4,1,27.8,2.05,7.7,0,0,1,1,0,718,31988,-2918,733,,,,,,,,,,,,,,,,
281943,1622988410587,24,15,26,27,35,35,-1,-0.49,-0.33,-0.99,-5,3,2,0.59,0,84,7914,4,25,27,0.821,73.2,611,4.92,12.8,10.4,1,27.5,2.07,7.7,0,0,1,1,0,716,-2358,-13072,732,45.699928,4.908848,81.81,196.9,9,3,1.9,0,0.0,-1,0.0,,0.0,0,2.78,4.699
281963,1622988410608,,,,,,,,-0.48,-0.28,-0.93,-5,4,2,0.56,,84,7898,4,25,27,0.84,71.8,603,4.9,12.9,10.4,1,27.4,2.07,7.7,0,0,1,1,0,716,-2918,15647,718,,,,,,,,,,,,,,,,
281983,1622988410628,,,,,,,,-0.52,-0.32,-0.77,-5,2,-0,0.61,,84,7851,4,25,26,0.855,71.9,602,4.95,12.9,10.4,1,27.1,2.09,7.7,0,0,1,1,0,693,-13312,-30694,719,,,,,,,,,,,,,,,,
282003,1622988410648,,,,,,,,-0.59,-0.39,-0.87,-5,3,-1,0.71,,84,7815,4,25,26,0.868,71.2,601,4.91,13.0,10.5,1,27.0,2.09,7.5,0,0,1,1,0,694,14342,16599,712,,,,,,,,,,,,,,,,
282023,1622988410668,,,,,,,,-0.65,-0.39,-0.97,-4,3,-2,0.76,,84,7773,4,25,26,0.886,70.9,599,4.93,13.0,10.5,1,27.0,2.09,7.5,0,0,1,1,0,695,-12152,-3584,692,,,,,,,,,,,,,,,,
282043,1622988410688,23,14,24,21,35,36,0,-0.63,-0.29,-1.05,-4,2,-0,0.69,0,84,7725,4,25,25,0.904,69.5,600,4.93,13.0,10.5,1,26.7,2.11,7.5,0,0,1,1,0,687,-2830,24845,695,45.699944,4.908867,79.8,197.0,9,3,1.9,0,0.0,-1,0.0,0.0,0.0,0,2.78,4.7007
282063,1622988410707,,,,,,,,-0.62,-0.23,-1.02,-4,3,1,0.66,,84,7687,4,25,25,0.927,69.6,588,4.91,12.9,10.5,1,26.6,2.11,7.5,0,0,1,1,0,667,-10448,-2345,696,,,,,,,,,,,,,,,,
282083,1622988410727,,,,,,,,-0.59,-0.12,-0.82,-4,1,1,0.6,,84,7643,4,25,25,0.934,68.9,589,4.91,12.9,10.5,1,26.6,2.11,7.5,0,0,1,1,0,661,-26380,31988,689,,,,,,,,,,,,,,,,
282103,1622988410747,,,,,,,,-0.64,-0.07,-0.85,-3,1,0,0.65,,84,7603,4,25,25,0.94,68.5,579,4.91,12.8,10.7,1,26.6,2.11,7.4,0,0,1,1,0,675,-10344,-27404,676,,,,,,,,,,,,,,,,
282123,1622988410767,,,,,,,,-0.66,-0.07,-0.61,-3,-1,-1,0.67,,84,7563,4,25,24,0.943,67.0,584,4.87,12.8,10.7,1,26.5,2.06,7.4,0,0,1,1,0,665,-2345,-2345,667,,,,,,,,,,,,,,,,
282143,1622988410787,21,14,23,24,35,35,0,-0.67,0.0,-0.57,-3,-0,-2,0.67,0,84,7539,4,25,24,0.948,66.6,571,4.92,12.8,10.7,1,26.5,2.06,7.4,0,0,1,1,0,654,1549,8958,665,45.699959,4.908885,76.87,197.0,9,3,2.0,0,0.0,-1,0.0,,0.0,0,2.78,4.7024
282163,1622988410807,,,,,,,,-0.69,0.05,-0.36,-3,-2,-4,0.69,,84,7494,4,25,24,0.95,66.3,575,4.91,12.8,10.7,1,26.4,2.06,7.4,0,0,1,1,0,651,24583,11776,663,,,,,,,,,,,,,,,,
282183,1622988410827,,,,,,,,-0.64,0.06,-0.28,-2,-2,-4,0.64,,84,7470,4,24,24,0.948,65.2,568,4.93,12.8,10.7,1,26.4,2.02,7.4,0,0,1,1,0,650,24583,244,658,,,,,,,,,,,,,,,,
282203,1622988410847,,,,,,,,-0.66,0.13,-0.2,-2,-2,-4,0.67,,84,7413,4,24,23,0.948,65.6,571,4.86,12.8,10.6,1,26.4,2.02,6.9,0,0,1,1,0,637,-388,-5120,655,,,,,,,,,,,,,,,,
282223,1622988410867,,,,,,,,-0.62,0.18,-0.35,-2,-2,-3,0.64,,84,7301,4,24,23,0.946,65.1,561,4.9,12.8,10.6,1,26.3,2.02,6.9,0,0,1,1,0,641,479,-2836,641,,,,,,,,,,,,,,,,
282243,1622988410887,24,14,23,24,36,35,0,-0.68,0.15,-0.49,-1,-1,-2,0.7,0,84,7189,4,24,23,0.946,64.0,560,4.9,12.8,10.6,1,26.1,2.02,6.9,0,0,1,1,0,636,24,-16046,641,45.69997,4.908903,74.58,196.9,9,3,1.9,0,0.0,-1,0.0,0.0,0.0,0,2.78,4.7041
282263,1622988410909,,,,,,,,-0.74,0.05,-0.33,-2,-2,-3,0.74,,84,7131,4,24,23,0.946,63.6,552,4.86,12.7,10.6,1,26.1,2.02,6.9,0,0,1,1,0,620,966,20993,636,,,,,,,,,,,,,,,,
282283,1622988410929,,,,,,,,-0.74,-0.05,-0.18,-2,-2,-4,0.74,,84,7123,4,24,23,0.946,63.8,551,4.95,12.8,10.6,1,26.1,2.02,6.9,0,0,1,1,0,622,20993,1010,631,,,,,,,,,,,,,,,,
282303,1622988410949,,,,,,,,-0.74,-0.01,-0.33,-2,-1,-3,0.74,,84,7107,4,24,23,0.946,62.8,550,4.93,12.8,10.4,1,26.1,2.02,6.6,0,0,1,1,0,614,3395,-3446,628,,,,,,,,,,,,,,,,
282323,1622988410969,,,,,,,,-0.79,-0.05,-0.47,-2,-0,-1,0.79,,84,7051,4,24,22,0.947,62.1,552,4.85,12.7,10.4,1,26.0,1.97,6.6,0,0,1,1,0,605,19304,-30139,621,,,,,,,,,,,,,,,,
282343,1622988410989,24,15,24,23,36,36,-2,-0.77,-0.04,-0.26,-2,-2,-3,0.77,0,84,6947,4,24,22,0.95,61.6,553,4.91,12.7,10.4,1,26.0,1.97,6.6,0,0,1,1,0,599,17740,-23055,616,45.699986,4.90892,70.74,197.0,9,3,1.9,0,0.0,-1,0.0,,0.0,0,2.79,4.7057
282363,1622988410997,,,,,,,,-0.73,-0.1,-0.41,-3,-0,-1,0.74,,83,6858,4,24,22,0.953,60.9,544,4.93,12.8,10.4,1,26.0,1.96,6.6,0,0,1,1,0,598,-7939,4956,609,,,,,,,,,,,,,,,,
282383,1622988411017,,,,,,,,-0.74,-0.22,-0.29,-3,-1,-3,0.78,,83,6766,4,24,23,0.956,60.1,530,4.93,12.7,10.4,1,26.1,2.01,6.6,0,0,1,1,0,593,6273,17344,601,,,,,,,,,,,,,,,,
282403,1622988411037,,,,,,,,-0.77,-0.17,-0.43,-3,1,0,0.79,,83,6708,4,24,22,0.961,59.1,523,4.92,12.8,10.4,1,26.0,1.96,6.2,0,0,1,1,0,585,208,-1894,591,,,,,,,,,,,,,,,,
282423,1622988411057,,,,,,,,-0.78,-0.19,-0.23,-3,-1,-2,0.81,,83,6691,4,24,23,0.964,58.1,521,4.95,12.7,10.4,1,26.2,1.95,6.2,0,0,1,1,0,567,-3190,-2934,581,,,,,,,,,,,,,,,,
282443,1622988411077,34,20,23,22,37,37,1,-0.84,-0.14,-0.37,-3,2,0,0.86,0,83,6606,4,24,23,0.97,57.8,515,4.86,12.8,10.4,1,26.2,2.0,6.2,0,0,1,1,0,550,1,6273,578,45.700001,4.908937,68.56,196.9,9,3,1.9,0,0.0,-1,0.0,0.0,0.0,0,2.79,4.7074
282463,1622988411109,,,,,,,,-0.84,-0.07,-0.18,-3,0,-1,0.85,,83,6461,4,24,23,0.974,57.0,500,4.99,12.8,10.4,1,26.3,2.0,6.2,0,0,1,1,0,564,259,-22359,573,,,,,,,,,,,,,,,,
282483,1622988411129,,,,,,,,-0.78,-0.13,0.0,-3,-4,-4,0.79,,83,6283,4,24,23,0.978,56.0,495,4.98,12.6,10.4,1,26.4,0.84,6.2,0,0,1,1,0,557,-28648,-9072,559,,,,,,,,,,,,,,,,
282503,1622988411149,,,,,,,,-0.8,-0.18,0.17,-3,-8,-7,0.82,,83,6083,4,24,23,0.982,55.9,485,4.88,12.7,10.2,1,26.5,1.99,5.7,0,0,1,1,0,554,6273,-22519,556,,,,,,,,,,,,,,,,
282523,1622988411169,,,,,,,,-0.74,-0.19,0.32,-3,-11,-10,0.76,,83,5994,4,24,24,0.984,54.4,473,4.91,12.8,10.2,1,26.5,2.04,5.7,0,0,1,1,0,499,-506,-1562,542,,,,,,,,,,,,,,,,
282543,1622988411191,38,22,20,21,39,37,4,-0.76,-0.29,0.22,-2,-11,-11,0.82,0,83,6139,4,24,24,0.989,54.4,473,4.85,12.8,10.2,1,26.6,2.05,5.7,0,0,1,1,0,496,-506,2211,539,45.700024,4.908968,61.21,197.0,9,3,1.9,0,0.0,-1,0.0,,0.0,0,2.79,4.7091
282563,1622988411211,,,,,,,,-0.81,-0.29,0.03,-2,-9,-10,0.86,,83,6067,4,24,25,0.991,53.9,471,4.9,12.8,10.2,1,27.0,2.11,5.7,0,0,1,1,0,435,1780,11560,528,,,,,,,,,,,,,,,,
282583,1622988411231,,,,,,,,-0.89,-0.28,-0.14,-1,-8,-8,0.93,,83,6103,4,24,25,0.994,53.3,486,4.86,12.7,10.2,1,26.9,2.11,5.7,0,0,1,1,0,419,-28648,770,524,,,,,,,,,,,,,,,,
282603,1622988411251,,,,,,,,-0.98,-0.18,-0.29,-1,-3,-6,0.99,,83,6069,4,24,25,0.998,52.5,482,4.88,12.9,11.4,1,27.0,2.11,5.9,0,0,1,1,0,418,2088,2060,513,,,,,,,,,,,,,,,,
282623,1622988411271,,,,,,,,-1.04,-0.09,-0.44,0,1,-2,1.04,,83,6058,4,24,25,1.0,51.6,478,4.95,13.0,11.4,1,27.0,2.11,5.9,0,0,1,1,0,406,-3856,6668,509,,,,,,,,,,,,,,,,
282643,1622988411291,35,23,19,19,40,38,4,-1.12,-0.04,-0.57,1,3,0,1.12,0,83,5967,4,24,26,1.005,50.5,467,4.92,12.9,11.4,1,27.0,2.09,5.9,0,0,1,1,0,384,-3414,-32559,505,45.700024,4.908968,61.21,197.0,9,3,1.9,0,0.0,-1,0.0,0.0,0.0,0,2.79,4.7107
282663,1622988411310,,,,,,,,-1.15,-0.03,-0.68,1,5,1,1.15,,83,5799,4,24,26,1.006,49.6,458,4.89,12.7,11.4,1,26.3,2.1,5.9,0,0,1,1,0,399,3,3346,490,,,,,,,,,,,,,,,,
282683,1622988411330,,,,,,,,-1.07,-0.04,-0.46,2,2,-2,1.07,,83,5642,4,24,27,1.009,49.3,445,4.88,12.9,11.4,1,25.9,2.09,5.9,0,0,1,1,0,417,-6528,150,486,,,,,,,,,,,,,,,,
282703,1622988411350,,,,,,,,-1.03,-0.05,-0.26,2,-1,-2,1.04,,83,5578,4,24,27,1.009,48.3,432,4.91,13.0,11.2,1,25.7,2.09,5.4,0,0,1,1,0,416,3580,30720,472,,,,,,,,,,,,,,,,
282723,1622988411370,,,,,,,,-1.12,-0.03,-0.4,3,4,2,1.12,,83,5542,4,24,28,1.012,48.2,427,4.94,13.0,11.2,1,25.8,2.08,5.4,0,0,1,1,0,408,-899,-1534,473,,,,,,,,,,,,,,,,
282743,1622988411390,37,23,18,20,40,38,2,-1.05,-0.06,-0.2,3,-1,-2,1.05,0,83,5420,4,24,28,1.013,47.1,426,4.9,12.8,11.2,1,25.4,2.09,5.4,0,0,1,1,0,407,8488,-214,461,45.700031,4.908981,57.37,197.0,9,3,1.9,0,0.0,-1,0.0,,0.0,0,2.79,4.7124
282763,1622988411409,,,,,,,,-1.1,-0.03,-0.35,4,2,1,1.1,,83,5289,4,24,29,1.014,46.9,410,4.9,13.0,11.2,1,25.2,2.09,5.4,0,0,1,1,0,446,-3210,-1484,454,,,,,,,,,,,,,,,,
282783,1622988411429,,,,,,,,-1.05,-0.02,-0.48,4,0,-1,1.05,,83,5114,4,24,30,1.016,45.1,400,4.9,12.8,11.2,1,24.9,2.11,5.4,0,0,1,1,0,454,3571,19968,449,,,,,,,,,,,,,,,,
282803,1622988411449,,,,,,,,-1.08,-0.04,-0.6,4,3,2,1.08,,83,5033,4,24,30,1.016,44.5,396,4.9,13.0,11.1,1,24.6,2.11,5.0,0,0,1,1,0,435,2131,250,441,,,,,,,,,,,,,,,,
282823,1622988411469,,,,,,,,-1.11,0.02,-0.39,3,0,-1,1.11,,83,4955,4,24,31,1.016,44.0,392,4.91,12.9,11.1,1,24.4,2.1,5.0,0,0,1,1,0,425,20625,250,434,,,,,,,,,,,,,,,,
282843,1622988411489,32,21,18,19,40,38,-0,-1.04,0.09,-0.28,3,-2,-2,1.05,0,83,4789,4,24,32,1.015,43.2,374,4.91,12.9,11.1,1,23.2,2.11,5.0,0,0,1,1,0,431,-3322,-1,427,45.700043,4.908995,53.54,196.9,9,3,1.9,0,0.0,-1,0.0,0.0,0.0,0,2.79,4.714
282863,1622988411510,,,,,,,,-0.98,0.11,-0.42,3,-3,-3,0.99,,83,4652,4,24,32,1.014,42.7,367,4.91,12.8,11.1,1,21.9,2.11,5.0,0,0,1,1,0,425,-3856,-23552,427,,,,,,,,,,,,,,,,
282883,1622988411530,,,,,,,,-0.92,0.1,-0.55,3,-3,-3,0.92,,83,4510,4,24,33,1.013,41.8,357,4.85,12.8,11.1,1,20.7,2.16,5.0,0,0,1,1,0,420,-26615,-1,418,,,,,,,,,,,,,,,,
282903,1622988411550,,,,,,,,-0.87,0.02,-0.62,3,-4,-3,0.87,,83,4392,4,24,33,1.011,41.3,350,4.86,12.8,10.7,1,19.7,2.16,4.5,0,0,1,1,0,408,-9166,888,413,,,,,,,,,,,,,,,,
282923,1622988411570,,,,,,,,-0.85,-0.03,-0.56,2,-4,-4,0.85,,83,4325,4,24,34,1.01,41.1,340,4.86,12.8,10.7,1,19.1,2.19,4.5,0,0,1,1,0,400,-4059,250,403,,,,,,,,,,,,,,,,
282943,1622988411590,25,13,19,19,40,38,-2,-0.87,-0.01,-0.35,2,-5,-5,0.87,0,83,4301,4,24,34,1.008,40.1,336,4.92,12.9,10.7,1,18.9,2.18,4.5,0,0,1,1,0,382,6384,-1,400,45.70005,4.909007,49.51,196.8,9,3,1.9,0,0.0,-1,0.0,,0.0,0,2.8,4.7157
282963,1622988411608,,,,,,,,-0.91,0.07,-0.15,1,-5,-5,0.91,,83,4216,4,24,35,1.007,39.4,336,4.91,13.0,10.7,1,18.1,2.21,4.5,0,0,1,1,0,386,-6656,-1,400,,,,,,,,,,,,,,,,
282983,1622988411628,,,,,,,,-0.94,0.05,-0.06,1,-6,-4,0.94,,83,4078,4,24,35,1.005,39.4,322,4.91,13.0,10.7,1,16.7,2.18,4.5,0,0,1,1,0,389,-31744,-1,394,,,,,,,,,,,,,,,,
283003,1622988411648,,,,,,,,-0.9,0.03,-0.23,0,-5,-4,0.9,,83,4065,4,24,35,1.004,38.6,321,4.87,12.8,10.1,1,16.5,2.18,4.0,0,0,1,1,0,375,2278,-1,386,,,,,,,,,,,,,,,,
283023,1622988411668,,,,,,,,-0.92,0.06,-0.3,-0,-5,-4,0.92,,82,4092,4,24,36,1.003,37.9,318,4.92,12.9,10.1,1,16.9,2.2,4.0,0,0,1,1,0,356,230,250,379,,,,,,,,,,,,,,,,
283043,1622988411688,23,15,19,19,39,37,-2,-0.98,0.03,-0.1,-1,-5,-4,0.98,0,82,4162,4,24,36,1.001,37.2,318,4.93,13.0,10.1,1,17.6,2.22,4.0,0,0,1,1,0,333,-6656,-1482,372,45.700062,4.909017,45.82,196.8,9,3,1.9,0,0.0,-1,0.0,0.0,0.0,0,2.8,4.7174
283063,1622988411710,,,,,,,,-0.98,0.04,-0.13,-1,-4,-2,0.98,,82,4213,4,24,36,1.0,37.0,320,4.9,13.0,10.1,1,18.1,2.23,4.0,0,0,1,1,0,326,-1268,-14848,370,,,,,,,,,,,,,,,,
283083,1622988411730,,,,,,,,-0.95,0.03,-0.29,-2,-3,-2,0.95,,82,4242,4,24,37,0.998,36.3,321,4.88,12.9,10.1,1,18.5,2.24,4.0,0,0,1,1,0,312,3302,1210,363,,,,,,,,,,,,,,,,
283103,1622988411750,,,,,,,,-0.92,0.04,-0.43,-3,-3,-1,0.92,,82,4274,4,24,37,0.997,35.4,331,4.91,12.8,12.2,1,18.9,2.28,4.4,0,0,1,1,0,291,2811,-17920,354,,,,,,,,,,,,,,,,
283123,1622988411770,,,,,,,,-0.93,0.02,-0.56,-3,-3,-2,0.93,,82,4285,6,24,37,0.994,34.1,328,4.93,12.8,12.2,1,19.0,2.28,4.4,0,0,1,1,0,270,-122,1886,341,,,,,,,,,,,,,,,,
283143,1622988411790,22,12,19,19,38,38,-3,-0.92,-0.01,-0.4,-4,-4,-3,0.92,0,82,4329,8,24,38,0.992,33.8,333,4.93,12.9,12.2,1,19.6,2.33,4.4,0,0,1,1,0,274,-12032,30720,338,45.700069,4.909028,42.59,196.7,9,3,2.0,0,0.0,-1,0.0,,0.0,0,2.8,4.719
283163,1622988411810,,,,,,,,-0.94,-0.05,-0.2,-4,-5,-4,0.94,,82,4384,10,25,40,0.989,33.7,333,4.94,13.0,12.2,1,20.5,2.4,4.4,0,0,1,1,0,282,-24576,24320,331,,,,,,,,,,,,,,,,
283183,1622988411830,,,,,,,,-0.95,-0.05,-0.02,-5,-6,-4,0.95,,82,4444,11,25,42,0.987,33.0,335,4.95,13.0,12.2,1,21.7,2.45,4.4,0,0,1,1,0,291,-28416,30208,330,,,,,,,,,,,,,,,,
283203,1622988411850,,,,,,,,-1.0,-0.06,0.15,-5,-7,-5,1.0,,82,4509,11,25,44,0.984,32.4,338,4.9,13.0,15.1,1,22.9,2.51,5.0,0,0,1,1,0,301,-29696,-1,324,,,,,,,,,,,,,,,,
283223,1622988411870,,,,,,,,-0.99,-0.06,0.31,-5,-6,-5,0.99,,82,4580,11,25,46,0.981,31.6,345,4.93,13.0,15.1,1,24.2,2.58,5.0,0,0,1,1,0,291,30720,105,317,,,,,,,,,,,,,,,,
283243,1622988411890,18,11,20,19,38,38,-2,-0.95,-0.09,0.45,-5,-8,-7,0.95,0,82,4659,11,25,47,0.976,31.4,353,4.92,12.9,15.1,1,25.5,2.64,5.0,0,0,1,1,0,288,30720,26880,314,45.700077,4.909037,39.13,196.7,9,3,2.0,0,0.0,-1,0.0,0.0,0.0,0,2.8,4.7207
283263,1622988411910,,,,,,,,-0.89,-0.09,0.24,-5,-8,-7,0.89,,82,4822,11,25,48,0.972,30.4,364,4.92,12.8,15.1,1,27.7,2.74,5.0,0,0,1,1,0,295,26880,25600,304,,,,,,,,,,,,,,,,
283283,1622988411930,,,,,,,,-0.88,-0.11,0.06,-5,-6,-4,0.89,,82,4838,11,25,49,0.968,29.7,364,4.95,13.0,15.1,1,28.2,2.76,5.0,0,0,1,1,0,293,23040,80,297,,,,,,,,,,,,,,,,
283303,1622988411950,,,,,,,,-0.91,-0.07,0.22,-5,-4,-3,0.91,,82,4801,11,25,51,0.965,29.2,365,4.9,13.0,20.7,1,28.4,2.76,6.2,0,0,1,1,0,292,80,90,293,,,,,,,,,,,,,,,,
283323,1622988411970,,,,,,,,-0.91,-0.03,0.37,-4,-4,-3,0.91,,82,4713,11,25,52,0.96,29.4,358,4.96,13.0,20.7,1,27.6,2.72,6.2,0,0,1,1,0,292,0,85,294,,,,,,,,,,,,,,,,
283343,1622988411990,7,5,22,23,36,35,7,-0.86,0.03,0.5,-4,-5,-4,0.86,0,82,4675,11,25,53,0.957,29.2,357,4.94,13.0,20.7,1,27.4,2.7,6.2,0,0,1,1,0,292,0,20480,292,45.700085,4.909046,35.69,196.7,9,3,2.0,0,0.0,-1,0.0,,0.0,0,2.8,4.7224
283363,1622988411998,,,,,,,,-0.76,0.06,0.45,-3,-6,-5,0.77,,82,4703,11,25,54,0.952,28.7,360,4.91,12.8,20.7,1,27.7,2.73,6.2,0,0,1,1,0,292,-16896,0,287,,,,,,,,,,,,,,,,
283383,1622988412018,,,,,,,,-0.65,0.06,0.25,-2,-8,-6,0.65,,82,4610,11,25,55,0.949,28.8,352,4.91,12.9,20.7,1,27.2,2.66,6.2,0,0,1,1,0,290,0,250,285,,,,,,,,,,,,,,,,
283403,1622988412038,,,,,,,,-0.57,0.06,0.06,-1,-8,-5,0.57,,82,4705,11,25,56,0.946,28.8,358,4.97,12.8,20.1,1,28.6,2.73,5.7,0,0,1,1,0,290,0,-1529,282,,,,,,,,,,,,,,,,
283423,1622988412058,,,,,,,,-0.51,0.06,-0.11,-1,-8,-4,0.52,,82,4665,11,25,56,0.943,28.8,354,4.9,12.9,20.1,1,28.1,2.7,5.7,0,0,1,1,0,289,0,24064,279,,,,,,,,,,,,,,,,
283443,1622988412078,2,3,26,30,35,32,12,-0.51,0.07,-0.27,0,-6,-2,0.52,0,82,4714,11,25,57,0.941,29.0,360,4.9,12.9,20.1,1,29.0,2.74,5.7,0,0,1,1,0,288,41,250,279,45.700088,4.909054,32.39,196.7,9,3,2.0,0,0.0,-1,0.0,0.0,0.0,0,2.8,4.7241
283463,1622988412108,,,,,,,,-0.53,0.12,-0.09,1,-4,-1,0.55,,82,4746,11,25,58,0.935,28.4,355,4.93,13.0,20.1,1,29.7,2.76,5.7,0,0,1,1,0,288,250,-1534,278,,,,,,,,,,,,,,,,
283483,1622988412128,,,,,,,,-0.53,0.16,0.09,2,-4,-1,0.56,,82,4755,11,25,58,0.929,28.3,354,4.98,13.0,20.1,1,29.8,2.76,5.7,0,0,1,1,0,287,-1529,30208,279,,,,,,,,,,,,,,,,
283503,1622988412148,,,,,,,,-0.47,0.16,0.1,3,-5,-3,0.5,,82,4813,11,25,59,0.917,28.5,369,4.87,12.8,21.8,1,30.9,2.79,6.1,0,0,1,1,0,286,-16896,30208,276,,,,,,,,,,,,,,,,
283523,1622988412168,,,,,,,,-0.4,0.15,-0.07,4,-5,-3,0.43,,82,4857,11,25,59,0.911,28.4,365,4.89,12.8,21.8,1,31.5,2.81,6.1,0,0,1,1,0,284,250,-1527,276,,,,,,,,,,,,,,,,
283543,1622988412191,1,0,28,32,34,30,14,-0.42,0.14,-0.23,5,-3,-0,0.44,0,82,4829,12,25,60,0.899,28.3,366,4.95,13.0,21.8,1,31.4,2.79,6.1,0,0,1,1,0,285,-1529,-1527,273,45.700104,4.909068,29.34,196.6,9,3,2.0,0,0.0,-1,0.0,,0.0,0,2.8,4.7257
283563,1622988412211,,,,,,,,-0.41,0.17,-0.05,5,-2,0,0.44,,82,4817,12,25,61,0.889,28.2,362,4.92,13.0,21.8,1,31.6,2.78,6.1,0,0,1,1,0,285,630,-1527,275,,,,,,,,,,,,,,,,
283583,1622988412231,,,,,,,,-0.36,0.2,0.12,6,-4,-1,0.41,,82,4808,13,25,63,0.874,28.5,359,4.93,12.9,21.8,1,32.0,2.87,6.1,0,0,1,1,0,287,-16896,1886,276,,,,,,,,,,,,,,,,
283603,1622988412251,,,,,,,,-0.29,0.21,0.14,6,-5,-2,0.36,,82,4676,13,25,64,0.865,28.6,356,4.91,12.9,22.8,1,30.5,2.87,6.3,0,0,1,1,0,289,10686,250,279,,,,,,,,,,,,,,,,
283623,1622988412271,,,,,,,,-0.21,0.21,0.19,7,-6,-3,0.3,,82,4570,14,25,65,0.853,29.1,348,4.9,12.8,22.8,1,29.4,2.87,6.3,0,0,1,1,0,290,20480,41,277,,,,,,,,,,,,,,,,
283643,1622988412291,-1,2,32,35,33,29,16,-0.15,0.21,0.23,7,-7,-4,0.26,0,82,4479,14,25,66,0.84,28.8,342,4.91,12.9,22.8,1,28.4,2.86,6.3,0,0,1,1,0,292,0,0,280,45.700104,4.909068,29.34,196.6,9,3,2.0,0,0.0,-1,0.0,0.0,0.0,0,2.8,4.7274
283663,1622988412309,,,,,,,,-0.1,0.18,0.38,7,-8,-4,0.21,,82,4415,14,25,67,0.823,28.7,340,4.92,12.8,22.8,1,27.5,2.9,6.3,0,0,1,1,0,291,20480,41,284,,,,,,,,,,,,,,,,
283683,1622988412329,,,,,,,,-0.09,0.19,0.52,8,-8,-5,0.21,,82,4384,14,25,69,0.814,29.1,331,4.9,13.0,22.8,1,27.9,2.93,6.3,0,0,1,1,0,291,20480,-16896,283,,,,,,,,,,,,,,,,
283703,1622988412349,,,,,,,,-0.1,0.19,0.64,9,-8,-5,0.21,,82,4473,16,25,70,0.797,28.9,334,4.95,12.9,21.2,1,29.3,2.98,6.0,0,0,1,1,0,291,0,1886,279,,,,,,,,,,,,,,,,
283723,1622988412369,,,,,,,,-0.1,0.19,0.75,9,-8,-5,0.21,,82,4482,18,25,72,0.792,29.0,334,4.9,13.0,21.2,1,30.0,3.01,6.0,0,0,1,1,0,291,0,250,279,,,,,,,,,,,,,,,,
283743,1622988412389,-1,2,33,36,32,28,21,-0.08,0.23,0.86,10,-8,-6,0.24,0,82,4556,20,25,75,0.787,29.0,338,4.93,12.9,21.2,1,31.7,3.1,6.0,0,0,1,1,0,292,0,-1534,274,45.700108,4.909074,28.89,196.5,9,3,2.0,0,0.0,-1,0.0,,0.0,0,2.8,4.7291
283763,1622988412409,,,,,,,,-0.03,0.24,0.87,11,-9,-7,0.24,,82,4649,21,25,78,0.783,28.5,348,4.9,13.0,21.2,1,33.9,3.31,6.0,0,0,1,1,0,293,80,-1534,279,,,,,,,,,,,,,,,,
283783,1622988412429,,,,,,,,0.02,0.23,0.77,11,-10,-7,0.23,,82,4614,21,25,80,0.779,29.2,345,4.95,12.9,21.2,1,34.1,3.39,6.0,0,0,1,1,0,295,80,1886,278,,,,,,,,,,,,,,,,
283803,1622988412449,,,,,,,,0.06,0.22,0.54,12,-10,-7,0.23,,82,4649,21,25,82,0.779,29.0,353,4.89,12.8,26.2,1,35.1,3.51,7.3,0,0,1,1,0,293,0,1886,281,,,,,,,,,,,,,,,,
283823,1622988412469,,,,,,,,0.09,0.22,0.33,13,-10,-7,0.24,,82,4600,21,25,83,0.783,29.8,350,4.9,12.9,26.2,1,34.6,3.54,7.3,0,0,1,1,0,295,95,1886,275,,,,,,,,,,,,,,,,
283843,1622988412489,-1,2,32,36,33,28,33,0.12,0.24,0.13,14,-10,-6,0.26,0,82,4575,19,25,84,0.786,29.6,345,4.88,12.9,26.2,1,34.5,3.55,7.3,0,0,1,1,0,295,90,24064,279,45.700115,4.90908,29.11,196.4,9,3,1.9,0,0.0,-1,0.0,0.0,0.0,0,2.81,4.7307
283863,1622988412507,,,,,,,,0.13,0.25,-0.04,15,-8,-4,0.28,,82,4602,12,25,84,0.789,29.6,346,4.89,13.0,26.2,1,34.9,3.56,7.3,0,0,1,1,0,296,90,1886,276,,,,,,,,,,,,,,,,
283883,1622988412527,,,,,,,,0.12,0.23,-0.21,17,-6,-2,0.26,,82,4592,5,25,82,0.798,29.8,347,4.91,13.0,26.2,1,34.2,3.48,7.3,0,0,1,1,0,298,95,1886,277,,,,,,,,,,,,,,,,
283903,1622988412547,,,,,,,,0.08,0.28,-0.36,18,-3,0,0.3,,81,4641,4,25,78,0.818,29.9,348,4.92,13.2,26.3,1,33.7,3.31,7.3,0,0,0,1,0,297,24320,250,274,,,,,,,,,,,,,,,,
