"Interval"|"ms"|0|0|1,"Utc"|"ms"|0|0|1,"Brake_F"|"Bar"|0|2000|10,"Brake_R"|"Bar"|0|2000|10,"Height_RF"|"mm"|0|255|10,"Height_LF"|"mm"|0|255|10,"Height_LR"|"mm"|0|80|10,"Height_RR"|"mm"|0|255|10,"Steering"|"deg"|-100|100|10,"AccelX"|"G"|-3.0|3.0|50,"AccelY"|"G"|-3.0|3.0|50,"AccelZ"|"G"|-3.0|3.0|50,"Yaw"|"Deg/Sec"|-120|120|50,"Pitch"|"Deg/Sec"|-120|120|50,"Roll"|"Deg/Sec"|-120|120|50,"Gsum"|"G"|0.0|3.0|50,"Log_Button"|""|0.0|10.0|10,"WaterTemp"|"C"|0|150|50,"RPM"|"tr/min"|0|14000|50,"TPS"|"%"|0|100|50,"AirTemp"|"C"|0|150|50,"MAP"|"KPa"|0|100|50,"Lambda"|""|0.5|1.5|50,"SpeedDTA"|"kph"|0.0|250.0|50,"OilPress"|"KPa"|0|1500|50,"FuelPressur"|"Bar"|0.0|10.0|50,"Batterie"|"V"|0.0|20.0|50,"ConsoKm"|"L/100km"|0.0|200.0|50,"Gear"|""|0|6|50,"AdvIgnition"|"Deg"|-20.0|70.0|50,"Injection"|"ms"|0.0|10.0|50,"ConsoHr"|"L/Hr"|0.0|10000.0|50,"LC_But_Pres"|""|0|1|50,"LC_Active"|""|0|1|50,"TractionOn"|""|0|1|50,"TractionWet"|""|0|1|50,"FanOn"|""|0|1|50,"RD_Speed"|"km/h"|-30|250|50,"RUD_Speed"|"km/h"|-30|250|50,"LD_Speed"|"km/h"|-30|250|50,"LUD_Speed"|"km/h"|-30|250|50,"Latitude"|"Degrees"|-180.0|180.0|10,"Longitude"|"Degrees"|-180.0|180.0|10,"Speed"|"kph"|0.0|150.0|10,"Altitude"|"m"|0.0|4000.0|10,"GPSSats"|""|0|20|10,"GPSQual"|""|0|5|10,"GPSDOP"|""|0.0|20.0|10,"LapCount"|""|0|0|10,"LapTime"|"Min"|0.0|0.0|10,"Sector"|""|0|0|10,"SectorTime"|"Min"|0.0|0.0|10,"PredTime"|"Min"|0.0|0.0|5,"ElapsedTime"|"Min"|0.0|0.0|10,"CurrentLap"|""|0|0|10,"Distance"|"km"|0.0|0.0|10,"SessionTime"|"Min"|0.0|0.0|10
520163,1622988648815,,,,,,,,0.02,-1.03,-0.31,-34,2,-4,1.03,,89,9679,13,26,34,0.839,65.1,666,4.9,12.9,19.2,1,30.5,2.68,12.5,0,0,1,1,0,616,30720,11566,651,,,,,,,,,,,,,,,,
520183,1622988648835,,,,,,,,0.07,-1.11,-0.45,-35,4,-3,1.11,,89,9546,13,26,33,0.831,64.6,658,4.93,12.8,19.2,1,30.2,2.63,12.5,0,0,1,1,0,616,26688,-30207,649,,,,,,,,,,,,,,,,
520203,1622988648855,,,,,,,,0.05,-1.06,-0.24,-36,5,-2,1.06,,89,9479,12,26,33,0.818,64.7,652,4.81,13.0,19.2,1,30.2,2.61,12.5,0,0,1,1,0,616,26688,4909,641,,,,,,,,,,,,,,,,
520223,1622988648875,,,,,,,,-0.04,-1.02,-0.18,-36,4,-2,1.02,,89,9417,9,26,32,0.804,64.8,652,4.95,12.9,17.1,1,30.0,2.56,11.1,0,0,1,1,0,612,-28304,-8429,648,,,,,,,,,,,,,,,,
520243,1622988648895,-4,2,44,27,27,38,-28,-0.09,-1.06,-0.33,-37,4,-1,1.06,0,89,9342,4,26,29,0.789,64.9,658,4.98,12.9,17.1,1,28.7,2.51,11.1,0,0,1,1,0,602,-30139,-2580,649,45.699638,4.910479,66.21,200.0,9,3,2.0,0,0.0,-1,0.0,0.0,0.0,0,5.81,8.6707
520263,1622988648915,,,,,,,,-0.01,-1.04,-0.38,-38,4,-1,1.04,,89,9295,4,26,27,0.775,63.9,640,4.82,12.9,17.1,1,27.8,2.44,11.1,0,0,1,1,0,580,-30139,-16883,629,,,,,,,,,,,,,,,,
520283,1622988648935,,,,,,,,0.01,-1.1,-0.33,-38,3,0,1.1,,89,9236,4,26,25,0.762,63.6,643,4.86,12.9,17.1,1,27.0,2.43,11.1,0,0,1,1,0,567,-1480,20993,636,,,,,,,,,,,,,,,,
520303,1622988648955,,,,,,,,0.01,-1.07,-0.13,-39,2,-1,1.07,,89,9141,5,26,25,0.752,63.3,648,4.9,13.0,17.1,1,27.0,2.34,11.1,0,0,1,1,0,557,-7939,20993,633,,,,,,,,,,,,,,,,
520323,1622988648975,,,,,,,,-0.01,-0.97,-0.02,-39,1,-1,0.97,,89,9079,14,26,25,0.741,63.8,658,4.85,12.9,17.1,1,27.0,2.47,11.1,0,0,1,1,0,538,-7939,-16046,638,,,,,,,,,,,,,,,,
520343,1622988648995,-1,2,41,23,27,41,-24,0.0,-1.0,0.06,-40,1,0,1.0,0,89,9001,24,26,32,0.731,63.1,634,4.88,12.9,16.3,1,30.0,2.47,10.4,0,0,1,1,0,519,-1,-16883,629,45.699638,4.910479,66.21,200.0,9,3,2.0,0,0.0,-1,0.0,,0.0,0,5.81,8.6724
520363,1622988649002,,,,,,,,-0.03,-0.98,0.07,-40,1,1,0.98,,89,8945,32,26,42,0.723,63.3,633,4.9,12.9,16.3,1,33.8,3.15,10.4,0,0,1,1,0,493,25600,30721,622,,,,,,,,,,,,,,,,
520383,1622988649022,,,,,,,,-0.05,-0.86,0.24,-41,-0,0,0.86,,89,9146,37,26,52,0.723,63.0,647,4.85,12.9,16.3,1,39.2,3.64,10.4,0,0,1,1,0,483,-13043,269,630,,,,,,,,,,,,,,,,
520403,1622988649042,,,,,,,,-0.1,-0.72,0.07,-42,-0,-2,0.72,,89,9379,40,26,60,0.722,62.8,643,4.84,12.8,16.3,1,40.7,3.89,10.4,0,0,1,1,0,479,-13043,-1346,628,,,,,,,,,,,,,,,,
520423,1622988649062,,,,,,,,-0.07,-0.82,-0.1,-43,1,-0,0.82,,89,9640,42,26,66,0.722,61.8,653,4.87,12.9,16.3,1,41.2,4.25,10.4,0,0,1,1,0,482,-1,20993,618,,,,,,,,,,,,,,,,
520443,1622988649093,-1,2,45,27,31,40,-25,-0.17,-0.76,-0.13,-43,2,-2,0.78,0,89,9791,44,26,71,0.725,61.8,647,4.83,12.9,30.9,1,40.4,4.91,19.1,0,0,1,1,0,544,-1,-18357,618,45.699608,4.910479,64.65,200.0,9,3,1.9,0,0.0,-1,0.0,0.0,0.0,0,5.81,8.6741
520463,1622988649113,,,,,,,,-0.18,-0.86,-0.15,-43,0,-5,0.88,,89,10135,45,26,75,0.735,61.9,648,4.81,12.9,30.9,1,40.1,5.5,19.1,0,0,1,1,0,573,-1,3403,618,,,,,,,,,,,,,,,,
520483,1622988649133,,,,,,,,-0.21,-0.88,0.03,-43,-0,-6,0.91,,89,10474,45,26,77,0.745,62.2,674,4.9,12.8,30.9,1,41.0,5.53,19.1,0,0,1,1,0,603,-1,-1346,620,,,,,,,,,,,,,,,,
520503,1622988649153,,,,,,,,-0.22,-0.82,0.2,-43,-1,-7,0.85,,89,10617,46,26,78,0.754,61.5,670,4.91,12.8,30.9,1,41.4,5.43,19.1,0,0,1,1,0,704,-4035,771,615,,,,,,,,,,,,,,,,
520523,1622988649173,,,,,,,,-0.23,-0.84,0.24,-43,-1,-5,0.88,,89,10769,48,26,78,0.77,62.0,663,4.82,12.8,41.6,1,41.7,5.18,25.8,0,0,1,1,0,746,208,-2830,616,,,,,,,,,,,,,,,,
520543,1622988649195,0,0,44,27,28,41,-12,-0.15,-0.94,0.05,-44,-2,-3,0.95,0,89,11055,49,26,79,0.795,61.7,667,4.86,12.8,41.6,1,42.5,4.94,25.8,0,0,1,1,0,757,-4035,16599,617,45.699593,4.910477,63.96,200.1,9,3,1.9,0,0.0,-1,0.0,,0.0,0,5.81,8.6757
520563,1622988649215,,,,,,,,-0.18,-0.96,0.22,-43,-2,-4,0.97,,89,10875,49,26,81,0.822,62.7,676,4.95,13.0,41.6,1,41.9,5.02,25.8,0,0,1,1,0,766,259,6208,627,,,,,,,,,,,,,,,,
520583,1622988649235,,,,,,,,-0.13,-1.04,0.03,-43,-0,-3,1.05,,89,10387,49,26,83,0.85,62.2,674,4.94,13.0,41.6,1,40.5,5.43,25.8,0,0,1,1,0,630,-16384,-5120,622,,,,,,,,,,,,,,,,
520603,1622988649255,,,,,,,,-0.25,-0.88,0.07,-41,-2,-5,0.91,,89,9847,49,26,85,0.875,61.3,652,4.94,12.9,41.6,1,39.2,5.86,25.8,0,0,1,1,0,650,3472,-5120,613,,,,,,,,,,,,,,,,
520623,1622988649275,,,,,,,,-0.24,-0.93,-0.1,-40,-0,-4,0.96,,89,9384,50,26,87,0.895,61.5,643,4.91,13.0,41.6,1,38.8,5.91,25.8,0,0,1,1,0,657,15649,30721,615,,,,,,,,,,,,,,,,
520643,1622988649295,0,1,47,31,25,38,-13,-0.2,-0.98,-0.18,-38,1,-3,1.0,0,89,9146,52,26,90,0.913,61.7,641,4.81,12.8,41.7,1,38.8,6.34,25.7,0,0,1,1,0,612,8488,269,617,45.699574,4.910473,63.67,200.0,9,3,1.9,0,0.0,-1,0.0,0.0,0.0,0,5.81,8.6774
520663,1622988649315,,,,,,,,-0.18,-1.01,-0.33,-37,1,-2,1.03,,89,8924,55,26,91,0.931,61.2,634,4.79,12.7,41.7,1,39.6,6.37,25.7,0,0,1,1,0,606,8488,-28304,612,,,,,,,,,,,,,,,,
520683,1622988649335,,,,,,,,-0.02,-1.03,-0.47,-36,2,-2,1.03,,89,8992,59,26,91,0.956,61.8,620,4.86,12.9,41.7,1,38.9,6.38,25.7,0,0,1,1,0,604,-3210,1010,609,,,,,,,,,,,,,,,,
520703,1622988649355,,,,,,,,0.07,-0.98,-0.46,-36,2,-2,0.98,,89,8997,64,26,90,1.01,62.1,633,4.81,12.9,41.7,1,38.9,6.33,25.7,0,0,1,1,0,641,-768,-30207,616,,,,,,,,,,,,,,,,
520723,1622988649375,,,,,,,,0.1,-0.94,-0.56,-34,-0,-3,0.95,,89,8553,67,26,91,1.063,62.8,622,4.82,12.8,41.7,1,43.1,7.28,25.7,0,0,1,1,0,677,-768,-5120,619,,,,,,,,,,,,,,,,
520743,1622988649395,0,1,46,35,25,35,-10,0.09,-0.81,-0.34,-33,-0,-2,0.82,0,89,8488,67,26,92,1.118,62.9,589,4.8,12.8,46.8,1,43.4,7.28,29.0,0,0,1,1,0,674,30227,2024,629,45.699558,4.910467,63.2,200.0,9,3,1.9,0,0.0,-1,0.0,,0.0,0,5.82,8.6791
520763,1622988649415,,,,,,,,0.12,-0.9,-0.48,-32,1,-1,0.91,,89,8476,68,26,92,1.171,62.5,573,4.86,12.9,46.8,1,43.0,7.21,29.0,0,0,1,1,0,646,30227,24,625,,,,,,,,,,,,,,,,
520783,1622988649435,,,,,,,,0.1,-0.89,-0.6,-31,0,-1,0.89,,89,8468,68,26,93,1.211,62.2,591,4.81,12.8,46.8,1,42.8,7.03,29.0,0,0,1,1,0,647,30227,-30207,622,,,,,,,,,,,,,,,,
520803,1622988649455,,,,,,,,0.19,-0.79,-0.7,-29,-1,1,0.81,,89,8472,68,26,93,1.246,62.9,581,4.8,12.8,46.8,1,42.8,6.94,29.0,0,0,1,1,0,638,3403,-30207,624,,,,,,,,,,,,,,,,
520823,1622988649475,,,,,,,,0.18,-0.84,-0.68,-28,-1,0,0.86,,89,8445,68,26,93,1.28,63.8,581,4.9,12.9,41.6,1,42.4,6.79,26.5,0,0,1,1,0,662,125,-3578,638,,,,,,,,,,,,,,,,
520843,1622988649495,0,2,45,39,25,32,-9,0.25,-0.83,-0.46,-28,-3,-1,0.87,0,89,8442,68,27,93,1.314,64.1,570,4.89,12.8,41.6,1,42.4,6.62,26.5,0,0,1,1,0,658,20993,-26380,641,45.699543,4.910459,64.36,199.9,9,3,1.9,0,0.0,-1,0.0,0.0,0.0,0,5.82,8.6807
520863,1622988649515,,,,,,,,0.3,-0.74,-0.59,-26,-1,1,0.79,,89,8453,68,27,93,1.314,64.0,566,4.89,12.9,41.6,1,42.5,6.5,26.5,0,0,1,1,0,659,-16046,-2830,640,,,,,,,,,,,,,,,,
520883,1622988649535,,,,,,,,0.22,-0.72,-0.7,-25,-1,-0,0.75,,89,8453,68,27,92,1.315,64.5,568,4.9,12.9,41.6,1,42.6,6.35,26.5,0,0,1,1,0,670,-16883,-2830,648,,,,,,,,,,,,,,,,
520903,1622988649555,,,,,,,,0.29,-0.62,-0.5,-24,-1,-1,0.68,,89,8495,68,27,93,1.317,64.5,572,4.81,12.9,41.6,1,43.0,6.33,26.5,0,0,1,1,0,659,-29696,-2826,644,,,,,,,,,,,,,,,,
520923,1622988649575,,,,,,,,0.27,-0.55,-0.56,-24,-1,-1,0.62,,89,8499,68,27,92,1.319,64.9,577,4.9,12.9,38.3,1,43.3,6.33,24.9,0,0,1,1,0,687,-2580,-2345,649,,,,,,,,,,,,,,,,
520943,1622988649594,-0,2,46,40,23,29,-9,0.3,-0.65,-0.58,-23,-1,-2,0.72,0,89,8538,68,27,93,1.287,66.4,588,4.85,12.8,38.3,1,43.0,6.39,24.9,0,0,1,1,0,671,244,-2345,664,45.699528,4.910451,65.94,199.9,9,3,1.9,0,0.0,-1,0.0,,0.0,0,5.82,8.6824
520963,1622988649614,,,,,,,,0.33,-0.65,-0.53,-23,-2,-1,0.73,,89,8569,68,27,93,1.241,66.7,595,4.85,12.8,38.3,1,42.7,6.4,24.9,0,0,1,1,0,677,11566,-10346,667,,,,,,,,,,,,,,,,
520983,1622988649634,,,,,,,,0.35,-0.53,-0.43,-22,-2,-0,0.63,,89,8589,68,27,92,1.195,66.6,586,4.9,12.9,38.3,1,42.6,6.35,24.9,0,0,1,1,0,687,-8429,24,663,,,,,,,,,,,,,,,,
521003,1622988649654,,,,,,,,0.38,-0.52,-0.57,-21,-1,0,0.65,,89,8640,68,27,92,1.149,67.1,590,4.88,12.8,38.3,1,42.2,6.41,24.9,0,0,1,1,0,691,-30207,3543,671,,,,,,,,,,,,,,,,
521023,1622988649674,,,,,,,,0.35,-0.53,-0.68,-21,0,0,0.63,,89,8684,68,27,92,1.102,67.0,602,4.8,12.7,38.3,1,41.8,6.37,24.9,0,0,1,1,0,690,-26380,14342,672,,,,,,,,,,,,,,,,
521043,1622988649694,1,1,46,41,22,28,-4,0.36,-0.56,-0.69,-20,-1,-2,0.67,0,89,8753,68,27,92,1.054,67.7,596,4.83,12.8,38.2,1,41.1,6.39,25.6,0,0,1,1,0,682,-388,24,677,45.699512,4.910442,67.48,199.8,9,3,1.9,0,0.0,-1,0.0,0.0,0.0,0,5.82,8.684
521063,1622988649714,,,,,,,,0.4,-0.57,-0.71,-19,-1,-2,0.69,,89,8765,68,27,92,1.006,67.2,608,4.81,12.8,38.2,1,41.0,6.39,25.6,0,0,1,1,0,708,-2830,19188,681,,,,,,,,,,,,,,,,
521083,1622988649734,,,,,,,,0.46,-0.41,-0.59,-18,-1,-1,0.61,,89,8806,68,27,91,0.959,68.0,604,4.93,12.9,38.2,1,40.7,6.4,25.6,0,0,1,1,0,694,-26892,19188,680,,,,,,,,,,,,,,,,
521103,1622988649754,,,,,,,,0.48,-0.36,-0.38,-17,-3,-1,0.6,,89,8831,68,27,92,0.931,68.5,604,4.89,12.9,38.2,1,40.4,6.4,25.6,0,0,1,1,0,707,-26892,15647,685,,,,,,,,,,,,,,,,
521123,1622988649774,,,,,,,,0.53,-0.26,-0.44,-16,-2,1,0.59,,89,8882,68,27,91,0.923,69.1,606,4.91,12.9,38.3,1,40.0,6.36,26.2,0,0,1,1,0,713,1780,-13312,690,,,,,,,,,,,,,,,,
521143,1622988649794,-1,2,45,41,24,27,-4,0.57,-0.26,-0.43,-15,-2,0,0.62,0,89,8911,68,27,91,0.916,68.8,608,4.82,12.9,38.3,1,39.7,6.37,26.2,0,0,1,1,0,707,24845,-13072,688,45.699493,4.910432,69.67,199.8,9,3,1.9,0,0.0,-1,0.0,,0.0,0,5.82,8.6857
521163,1622988649814,,,,,,,,0.53,-0.21,-0.56,-15,-1,1,0.57,,88,8894,68,27,91,0.909,69.0,615,4.96,12.9,38.3,1,39.9,6.36,26.2,0,0,1,1,0,716,-2830,-2830,690,,,,,,,,,,,,,,,,
521183,1622988649834,,,,,,,,0.53,-0.34,-0.61,-14,0,1,0.63,,88,8911,68,27,91,0.905,70.0,610,4.89,12.9,38.3,1,39.7,6.37,26.2,0,0,1,1,0,714,-3584,-13072,700,,,,,,,,,,,,,,,,
521203,1622988649854,,,,,,,,0.52,-0.41,-0.72,-14,1,2,0.66,,88,8932,68,27,91,0.905,69.7,616,4.76,12.7,38.3,1,39.5,6.37,26.2,0,0,1,1,0,733,19188,-4091,706,,,,,,,,,,,,,,,,
521223,1622988649874,,,,,,,,0.5,-0.5,-0.83,-13,2,2,0.71,,88,8958,68,27,91,0.906,70.3,620,4.82,12.8,37.6,1,39.3,6.38,26.5,0,0,1,1,0,719,-2830,-2918,703,,,,,,,,,,,,,,,,
521243,1622988649894,-0,0,45,39,24,26,-4,0.48,-0.54,-0.93,-13,2,2,0.72,0,88,9001,68,27,91,0.906,70.8,608,4.83,12.9,37.6,1,38.8,6.39,26.5,0,0,1,1,0,739,8010,1037,708,45.699478,4.910422,71.62,199.7,9,3,1.9,0,0.0,-1,0.0,0.0,0.0,0,5.82,8.6874
521263,1622988649914,,,,,,,,0.53,-0.62,-1.02,-13,2,2,0.82,,88,9027,68,27,91,0.908,71.5,619,4.83,12.7,37.6,1,38.8,6.39,26.5,0,0,1,1,0,734,-13072,-2314,715,,,,,,,,,,,,,,,,
521283,1622988649934,,,,,,,,0.52,-0.62,-1.1,-13,2,2,0.81,,88,9018,68,27,92,0.912,72.3,615,4.86,12.9,37.6,1,38.7,6.44,26.5,0,0,1,1,0,743,-3450,-13068,723,,,,,,,,,,,,,,,,
521303,1622988649954,,,,,,,,0.52,-0.64,-1.11,-12,3,1,0.82,,88,9031,68,27,91,0.915,72.2,614,4.84,12.8,37.6,1,38.8,6.39,26.5,0,0,1,1,0,740,-3888,6790,722,,,,,,,,,,,,,,,,
521323,1622988649974,,,,,,,,0.54,-0.56,-1.18,-12,3,2,0.78,,88,9066,68,27,92,0.919,72.4,621,4.8,12.9,37.6,1,38.7,6.39,26.5,0,0,1,1,0,737,16118,-2314,726,,,,,,,,,,,,,,,,
521343,1622988649994,0,0,46,42,23,26,-4,0.58,-0.57,-1.23,-12,3,2,0.82,0,88,9053,68,27,91,0.923,72.7,633,4.81,12.8,37.1,1,38.8,6.39,27.0,0,0,1,1,0,745,16118,-23308,727,45.699478,4.910422,71.62,199.7,9,3,1.9,0,0.0,-1,0.0,,0.0,0,5.83,8.689
521363,1622988650002,,,,,,,,0.61,-0.54,-1.3,-11,4,3,0.82,,88,9093,69,27,91,0.927,73.2,624,4.91,12.9,37.1,1,38.8,6.39,27.0,0,0,1,1,0,754,-2826,-31066,732,,,,,,,,,,,,,,,,
521383,1622988650022,,,,,,,,0.65,-0.48,-1.14,-11,2,2,0.81,,88,9132,68,27,91,0.931,72.6,623,4.8,12.8,37.1,1,38.8,6.39,27.0,0,0,1,1,0,762,-25858,-2766,726,,,,,,,,,,,,,,,,
521403,1622988650042,,,,,,,,0.67,-0.33,-0.91,-10,1,2,0.74,,88,9159,68,27,91,0.935,73.7,628,4.85,12.8,37.1,1,38.8,6.39,27.0,0,0,1,1,0,756,-2826,6900,737,,,,,,,,,,,,,,,,
521423,1622988650062,,,,,,,,0.64,-0.23,-0.67,-10,-1,2,0.69,,88,9155,68,27,91,0.938,75.0,632,4.87,12.9,36.1,1,38.8,6.39,27.1,0,0,1,1,0,768,-2826,7413,750,,,,,,,,,,,,,,,,
521443,1622988650094,0,2,46,40,24,26,-3,0.62,-0.15,-0.49,-9,-1,0,0.64,0,88,9173,68,27,91,0.939,74.5,629,4.92,12.9,36.1,1,38.8,6.39,27.1,0,0,1,1,0,767,-2314,13016,744,45.699448,4.910398,75.17,199.5,9,3,1.9,0,0.0,-1,0.0,0.0,0.0,0,5.83,8.6907
521463,1622988650114,,,,,,,,0.54,-0.22,-0.61,-9,-1,-0,0.59,,88,9168,68,27,91,0.94,74.4,644,4.86,12.7,36.1,1,38.8,6.39,27.1,0,0,1,1,0,773,-13068,-3368,753,,,,,,,,,,,,,,,,
521483,1622988650134,,,,,,,,0.54,-0.32,-0.73,-9,0,-1,0.63,,88,9209,68,27,91,0.941,74.9,632,4.9,12.8,36.1,1,38.8,6.39,27.1,0,0,1,1,0,769,-31066,-2570,749,,,,,,,,,,,,,,,,
521503,1622988650154,,,,,,,,0.57,-0.39,-0.83,-9,1,1,0.69,,88,9218,69,27,91,0.942,75.3,638,4.79,12.9,36.1,1,38.8,6.39,27.1,0,0,1,1,0,784,-3450,5876,760,,,,,,,,,,,,,,,,
521523,1622988650174,,,,,,,,0.62,-0.44,-0.93,-9,2,2,0.76,,88,9227,68,27,91,0.939,75.7,627,4.85,12.9,36.2,1,38.8,6.39,27.3,0,0,1,1,0,783,8838,-2826,753,,,,,,,,,,,,,,,,
521543,1622988650194,0,1,45,42,25,26,-2,0.66,-0.35,-0.84,-8,1,2,0.75,0,88,9236,68,27,91,0.937,76.4,632,4.9,12.9,36.2,1,38.8,6.39,27.3,0,0,1,1,0,784,-22795,-2570,761,45.699429,4.910386,76.74,199.4,9,3,1.9,0,0.0,-1,0.0,,0.0,0,5.83,8.6924
521563,1622988650214,,,,,,,,0.66,-0.23,-0.6,-7,-0,2,0.7,,88,9241,68,27,91,0.935,76.4,627,4.87,12.9,36.2,1,38.8,6.39,27.3,0,0,1,1,0,784,-4096,-2570,765,,,,,,,,,,,,,,,,
521583,1622988650234,,,,,,,,0.61,-0.2,-0.39,-7,-1,1,0.65,,88,9236,69,27,91,0.932,77.3,638,4.86,12.8,36.2,1,38.8,6.39,27.3,0,0,1,1,0,790,-2344,-10216,773,,,,,,,,,,,,,,,,
521603,1622988650254,,,,,,,,0.53,-0.22,-0.31,-7,-1,-0,0.57,,88,9272,68,27,91,0.929,77.4,642,4.91,12.8,36.2,1,38.9,6.39,27.3,0,0,1,1,0,792,-10214,-2540,774,,,,,,,,,,,,,,,,
521623,1622988650274,,,,,,,,0.59,-0.28,-0.45,-7,0,1,0.66,,88,9295,68,27,91,0.925,77.5,645,4.85,12.8,35.4,1,38.9,6.39,27.5,0,0,1,1,0,798,-3866,-2826,770,,,,,,,,,,,,,,,,
521643,1622988650292,0,2,45,41,25,25,-2,0.64,-0.28,-0.46,-6,-1,0,0.7,0,88,9319,68,27,91,0.922,78.5,636,4.85,12.9,35.4,1,38.9,6.39,27.5,0,0,1,1,0,805,-3450,-23490,785,45.699413,4.910373,78.94,199.3,9,3,1.9,0,0.0,-1,0.0,0.0,0.0,0,5.83,8.694
521663,1622988650312,,,,,,,,0.63,-0.11,-0.28,-6,-1,-1,0.64,,88,9314,68,27,91,0.918,79.1,633,4.93,12.9,35.4,1,38.9,6.39,27.5,0,0,1,1,0,807,-8148,-23490,785,,,,,,,,,,,,,,,,
521683,1622988650332,,,,,,,,0.52,-0.06,-0.19,-5,-2,-1,0.52,,88,9342,68,26,91,0.914,79.0,646,4.86,12.8,35.4,1,38.9,6.39,27.5,0,0,1,1,0,814,-31066,31988,790,,,,,,,,,,,,,,,,
521703,1622988650352,,,,,,,,0.54,-0.14,-0.34,-5,-1,-1,0.56,,88,9403,68,26,91,0.91,78.4,637,4.9,12.8,35.4,1,38.9,6.39,27.5,0,0,1,1,0,814,-1,-31068,784,,,,,,,,,,,,,,,,
521723,1622988650372,,,,,,,,0.62,-0.12,-0.48,-5,-1,-1,0.63,,88,9503,68,26,91,0.906,79.7,649,4.83,12.8,35.5,1,39.0,6.39,28.1,0,0,1,1,0,812,-10218,-388,791,,,,,,,,,,,,,,,,
521743,1622988650392,0,1,44,43,25,26,-1,0.56,-0.03,-0.27,-5,-2,-2,0.56,0,88,9576,68,26,91,0.902,79.4,642,4.89,12.8,35.5,1,39.1,6.41,28.1,0,0,1,1,0,825,-2826,-13580,802,45.699394,4.910359,80.92,199.1,9,3,1.9,0,0.0,-1,0.0,,0.0,0,5.83,8.6957
521763,1622988650412,,,,,,,,0.57,-0.08,-0.42,-4,-2,-0,0.58,,88,9580,68,26,91,0.897,80.3,643,4.81,12.8,35.5,1,39.1,6.42,28.1,0,0,1,1,0,829,-2540,-30694,803,,,,,,,,,,,,,,,,
521783,1622988650432,,,,,,,,0.56,-0.06,-0.25,-4,-3,-1,0.56,,88,9630,68,26,90,0.892,80.3,652,4.87,12.8,35.5,1,39.2,6.43,28.1,0,0,1,1,0,824,-3888,-13580,812,,,,,,,,,,,,,,,,
521803,1622988650452,,,,,,,,0.55,-0.08,-0.39,-4,-2,-2,0.56,,88,9654,67,26,90,0.888,80.9,643,4.9,12.8,35.5,1,39.2,6.39,28.1,0,0,1,1,0,827,-7436,-3580,809,,,,,,,,,,,,,,,,
521823,1622988650472,,,,,,,,0.57,-0.14,-0.48,-4,-2,-1,0.58,,88,9689,66,26,91,0.883,81.3,645,4.87,12.9,35.6,1,39.3,6.46,29.0,0,0,1,1,0,833,-13312,-31066,813,,,,,,,,,,,,,,,,
521843,1622988650492,1,2,44,42,24,25,-2,0.49,-0.09,-0.29,-4,-2,-2,0.5,0,88,9755,65,26,90,0.877,81.4,650,4.89,12.9,35.6,1,39.4,6.43,29.0,0,0,1,1,0,839,-2830,-4096,815,45.699375,4.910345,82.52,199.1,9,3,1.9,0,0.0,-1,0.0,0.0,0.0,0,5.84,8.6974
521863,1622988650512,,,,,,,,0.5,-0.02,-0.37,-4,-2,-2,0.51,,88,9755,65,26,90,0.87,81.7,640,4.88,12.8,35.6,1,39.4,6.43,29.0,0,0,1,1,0,839,-2560,-3450,821,,,,,,,,,,,,,,,,
521883,1622988650532,,,,,,,,0.51,-0.03,-0.51,-4,-2,-0,0.51,,88,9780,64,26,90,0.864,82.4,648,4.9,12.8,35.6,1,39.4,6.44,29.0,0,0,1,1,0,846,-2358,-31068,824,,,,,,,,,,,,,,,,
521903,1622988650552,,,,,,,,0.49,-0.01,-0.52,-4,-2,1,0.49,,88,9811,61,26,90,0.857,81.8,642,4.85,12.8,35.6,1,39.4,6.45,29.0,0,0,1,1,0,847,-2830,-10508,816,,,,,,,,,,,,,,,,
521923,1622988650572,,,,,,,,0.54,0.02,-0.52,-4,-1,1,0.54,,88,9889,52,26,89,0.849,83.3,643,4.86,12.8,35.6,1,39.5,6.32,29.0,0,0,1,1,0,847,-3580,-9995,820,,,,,,,,,,,,,,,,
521943,1622988650593,1,2,45,39,25,25,-1,0.47,0.1,-0.41,-4,-3,0,0.48,0,88,9968,42,26,87,0.841,83.4,650,4.9,12.8,35.2,1,39.5,6.19,28.9,0,0,1,1,0,851,-31066,-1580,826,45.699356,4.910331,84.51,198.9,9,3,1.9,0,0.0,-1,0.0,,0.0,0,5.84,8.699
521963,1622988650613,,,,,,,,0.49,0.06,-0.54,-3,-1,3,0.49,,88,9968,30,26,83,0.833,83.4,646,4.79,12.9,35.2,1,39.4,5.43,28.9,0,0,1,1,0,877,-13068,-2311,832,,,,,,,,,,,,,,,,
521983,1622988650633,,,,,,,,0.49,0.11,-0.47,-3,-1,2,0.5,,88,9973,17,26,75,0.824,84.0,652,4.91,12.8,35.2,1,39.7,4.79,28.9,0,0,1,1,0,858,31988,-1580,840,,,,,,,,,,,,,,,,
522003,1622988650653,,,,,,,,0.5,0.07,-0.27,-3,-3,0,0.5,,88,9889,4,26,64,0.816,83.8,663,4.88,12.9,35.2,1,40.7,3.74,28.9,0,0,1,1,0,862,-3450,-2311,830,,,,,,,,,,,,,,,,
522023,1622988650673,,,,,,,,0.38,0.04,-0.41,-3,1,0,0.38,,88,9576,4,26,54,0.809,83.6,661,4.85,12.8,18.4,1,40.0,3.47,15.4,0,0,1,1,0,854,-2314,-9995,836,,,,,,,,,,,,,,,,
522043,1622988650693,9,5,43,43,26,28,-1,0.34,-0.01,-0.54,-3,2,2,0.35,0,88,9268,4,26,48,0.802,83.8,665,4.83,12.8,18.4,1,37.8,3.03,15.4,0,0,1,1,0,848,1037,8838,838,45.699337,4.910316,86.31,198.8,9,3,1.9,0,0.0,-1,0.0,0.0,0.0,0,5.84,8.7007
522063,1622988650713,,,,,,,,0.31,-0.15,-0.66,-3,3,2,0.34,,88,9071,4,26,43,0.796,83.9,662,4.67,12.9,18.4,1,34.5,2.89,15.4,0,0,1,1,0,839,-31066,-30694,828,,,,,,,,,,,,,,,,
522083,1622988650733,,,,,,,,0.28,-0.17,-0.77,-4,4,2,0.33,,88,8856,4,26,39,0.787,83.1,656,4.71,12.8,18.4,1,32.0,2.77,15.4,0,0,1,1,0,834,-2314,6790,836,,,,,,,,,,,,,,,,
522103,1622988650753,,,,,,,,0.14,-0.13,-0.65,-4,4,1,0.19,,88,8636,4,26,37,0.779,83.6,633,4.87,12.8,18.4,1,31.4,2.68,15.4,0,0,1,1,0,829,-22796,-2830,825,,,,,,,,,,,,,,,,
522123,1622988650773,,,,,,,,0.12,-0.08,-0.67,-4,2,1,0.14,,88,8546,4,26,35,0.771,83.4,631,4.86,12.8,18.4,1,30.8,2.59,15.4,0,0,1,1,0,810,-1482,16118,819,,,,,,,,,,,,,,,,
522143,1622988650793,24,16,30,24,30,31,-0,0.03,-0.08,-0.78,-4,3,2,0.09,0,88,8569,4,26,34,0.763,83.2,618,4.9,13.0,12.2,1,30.5,2.55,10.2,0,0,1,1,0,793,-2826,-25858,824,45.699318,4.9103,87.03,198.7,9,3,1.9,0,0.0,-1,0.0,,0.0,0,5.84,8.7024
522163,1622988650813,,,,,,,,-0.08,-0.01,-0.63,-4,3,0,0.08,,88,8526,4,26,32,0.761,81.3,616,4.9,12.9,12.2,1,30.0,2.47,10.2,0,0,1,1,0,814,31988,204,813,,,,,,,,,,,,,,,,
522183,1622988650833,,,,,,,,-0.09,0.03,-0.42,-3,2,-0,0.09,,88,8518,4,26,31,0.767,81.5,627,4.87,12.8,12.2,1,29.5,2.47,10.2,0,0,1,1,0,779,-3888,-30694,809,,,,,,,,,,,,,,,,
522203,1622988650853,,,,,,,,-0.12,-0.01,-0.55,-3,2,1,0.12,,88,8518,4,26,30,0.773,80.1,633,4.87,13.0,12.2,1,29.1,2.47,10.2,0,0,1,1,0,791,11277,-2570,801,,,,,,,,,,,,,,,,
522223,1622988650873,,,,,,,,-0.22,-0.07,-0.66,-3,4,0,0.23,,88,8518,4,26,29,0.779,80.0,630,4.91,12.8,12.2,1,28.7,2.47,10.2,0,0,1,1,0,792,-30694,-2570,782,,,,,,,,,,,,,,,,
522243,1622988650893,26,17,27,25,33,35,-0,-0.21,0.02,-0.74,-3,4,1,0.21,0,88,8495,4,26,28,0.789,77.2,628,4.87,12.8,12.4,1,28.2,2.46,9.7,0,0,1,1,0,769,1,7413,786,45.699303,4.910285,84.79,198.7,9,3,1.9,0,0.0,-1,0.0,0.0,0.0,0,5.85,8.7041
522263,1622988650913,,,,,,,,-0.2,-0.15,-0.73,-3,4,1,0.25,,88,8488,4,26,27,0.806,79.4,635,4.88,12.9,12.4,1,27.8,2.46,9.7,0,0,1,1,0,725,-22795,-3344,779,,,,,,,,,,,,,,,,
522283,1622988650933,,,,,,,,-0.28,-0.09,-0.64,-3,3,1,0.29,,88,8419,4,26,26,0.824,79.3,620,4.9,13.0,12.4,1,27.4,2.41,9.7,0,0,1,1,0,749,-2540,19188,777,,,,,,,,,,,,,,,,
522303,1622988650953,,,,,,,,-0.32,-0.15,-0.75,-3,3,2,0.35,,88,8285,4,26,26,0.841,77.6,616,4.91,13.0,12.4,1,27.3,2.31,9.7,0,0,1,1,0,722,-2570,-2830,776,,,,,,,,,,,,,,,,
522323,1622988650973,,,,,,,,-0.37,-0.14,-0.72,-3,2,1,0.4,,88,8095,4,26,26,0.857,76.6,608,4.89,13.0,10.5,1,27.3,2.16,8.1,0,0,1,1,0,716,8838,204,766,,,,,,,,,,,,,,,,
522343,1622988650993,33,22,26,25,38,38,1,-0.46,-0.11,-0.81,-3,3,1,0.47,0,88,8023,4,26,26,0.876,74.8,596,4.86,13.0,10.5,1,27.2,2.1,8.1,0,0,1,1,0,736,2278,-2358,748,45.699303,4.910285,84.79,198.7,9,3,1.9,0,0.0,-1,0.0,,0.0,0,5.85,8.7057
522363,1622988651001,,,,,,,,-0.51,-0.15,-0.91,-3,4,2,0.53,,88,7988,4,26,25,0.895,75.2,600,4.95,12.9,10.5,1,26.9,2.11,8.1,0,0,1,1,0,713,-31068,-2358,755,,,,,,,,,,,,,,,,
522383,1622988651021,,,,,,,,-0.56,-0.16,-0.75,-3,3,1,0.59,,88,7931,4,25,25,0.913,74.5,592,4.85,13.0,10.5,1,26.9,2.11,8.1,0,0,1,1,0,712,6790,8010,750,,,,,,,,,,,,,,,,
522403,1622988651041,,,,,,,,-0.66,-0.15,-0.85,-2,3,1,0.67,,88,7901,4,25,25,0.931,74.0,585,4.89,13.0,10.5,1,26.9,2.11,8.1,0,0,1,1,0,697,1524,16599,738,,,,,,,,,,,,,,,,
522423,1622988651061,,,,,,,,-0.69,-0.12,-0.95,-2,4,2,0.71,,88,7841,4,25,25,0.936,73.9,586,4.92,12.9,10.5,1,26.8,2.11,8.1,0,0,1,1,0,673,1037,11576,737,,,,,,,,,,,,,,,,
522443,1622988651093,36,25,24,22,38,38,0,-0.69,-0.09,-0.8,-2,4,3,0.69,0,88,7828,4,25,25,0.941,72.3,583,4.95,13.1,10.3,1,26.8,2.06,7.6,0,0,1,1,0,667,204,-26892,717,45.699268,4.910255,79.77,198.5,9,3,1.9,0,0.0,-1,0.0,0.0,0.0,0,5.85,8.7074
522463,1622988651113,,,,,,,,-0.74,-0.11,-0.66,-2,4,3,0.75,,88,7763,4,25,24,0.947,71.7,570,4.9,13.1,10.3,1,26.7,2.11,7.6,0,0,1,1,0,677,-2560,-3578,708,,,,,,,,,,,,,,,,
522483,1622988651133,,,,,,,,-0.76,-0.1,-0.62,-2,3,3,0.77,,88,7662,4,25,24,0.953,71.2,568,4.93,13.0,10.3,1,26.6,2.06,7.6,0,0,1,1,0,659,-3584,8958,717,,,,,,,,,,,,,,,,
522503,1622988651153,,,,,,,,-0.77,-0.19,-0.4,-1,2,4,0.8,,88,7521,4,25,24,0.949,70.3,566,4.92,12.9,10.3,1,26.5,2.06,7.6,0,0,1,1,0,657,15647,3543,697,,,,,,,,,,,,,,,,
522523,1622988651173,,,,,,,,-0.75,-0.14,-0.32,-1,2,5,0.76,,88,7393,4,25,24,0.942,69.6,557,4.91,13.0,10.3,1,26.3,2.06,7.6,0,0,1,1,0,646,6208,-10251,696,,,,,,,,,,,,,,,,
522543,1622988651195,38,26,22,21,39,39,2,-0.82,-0.02,-0.46,-1,4,7,0.82,0,88,7267,4,25,23,0.935,68.7,540,4.88,12.8,10.0,1,26.2,2.02,7.0,0,0,1,1,0,619,24,20993,679,45.699253,4.910241,76.36,198.4,9,3,1.9,0,0.0,-1,0.0,,0.0,0,5.85,8.7091
522563,1622988651215,,,,,,,,-0.89,-0.0,-0.59,-1,6,7,0.89,,88,7096,4,25,23,0.928,68.1,539,4.95,12.8,10.0,1,26.0,2.02,7.0,0,0,1,1,0,609,8958,244,688,,,,,,,,,,,,,,,,
522583,1622988651235,,,,,,,,-0.93,-0.05,-0.5,-1,3,4,0.93,,88,7040,4,25,23,0.923,66.8,532,4.91,12.9,10.0,1,26.0,2.02,7.0,0,0,1,1,0,623,-26892,-23055,668,,,,,,,,,,,,,,,,
522603,1622988651255,,,,,,,,-0.95,0.03,-0.62,-1,4,5,0.95,,88,7019,4,25,23,0.918,66.6,524,4.85,12.8,10.0,1,26.0,2.02,7.0,0,0,1,1,0,622,-3038,-28648,659,,,,,,,,,,,,,,,,
522623,1622988651275,,,,,,,,-1.03,0.04,-0.73,-0,4,2,1.03,,88,6967,4,25,23,0.914,65.8,521,4.89,12.7,9.8,1,26.0,2.01,6.4,0,0,1,1,0,585,-388,23619,653,,,,,,,,,,,,,,,,
522643,1622988651293,40,27,21,19,39,39,2,-0.95,0.02,-0.5,0,4,2,0.95,0,88,6820,4,25,23,0.91,65.1,504,4.88,13.0,9.8,1,26.1,2.01,6.4,0,0,1,1,0,572,-2580,8488,651,45.699234,4.910228,72.84,198.3,9,3,1.9,0,0.0,-1,0.0,0.0,0.0,0,5.86,8.7107
522663,1622988651313,,,,,,,,-1.0,0.07,-0.63,0,1,2,1.01,,88,6602,4,25,23,0.908,64.5,499,4.85,12.7,9.8,1,26.2,2.0,6.4,0,0,1,1,0,568,11566,-16179,641,,,,,,,,,,,,,,,,
522683,1622988651333,,,,,,,,-1.09,-0.01,-0.74,0,3,4,1.09,,88,6423,4,25,23,0.906,63.3,480,4.88,13.0,9.8,1,26.3,2.0,6.4,0,0,1,1,0,559,-5120,17344,628,,,,,,,,,,,,,,,,
522703,1622988651353,,,,,,,,-1.0,0.16,-0.51,1,5,5,1.01,,88,6287,4,25,23,0.904,62.6,467,4.88,13.0,9.8,1,26.4,1.99,6.4,0,0,1,1,0,530,771,-22519,626,,,,,,,,,,,,,,,,
522723,1622988651373,,,,,,,,-0.96,0.11,-0.3,1,2,3,0.96,,88,6362,4,25,23,0.902,62.6,471,4.96,13.0,9.2,1,26.3,1.99,5.8,0,0,1,1,0,481,269,13180,626,,,,,,,,,,,,,,,,
522743,1622988651391,43,26,19,19,40,40,3,-1.04,-0.04,-0.44,1,-1,0,1.04,0,88,6281,4,25,23,0.902,61.3,466,4.87,12.9,9.2,1,26.4,1.99,5.8,0,0,1,1,0,432,1010,13040,608,45.699219,4.910215,68.85,198.2,9,3,1.9,0,0.0,-1,0.0,,0.0,0,5.86,8.7124
522763,1622988651411,,,,,,,,-1.11,0.07,-0.57,1,-1,0,1.11,,88,6235,4,25,23,0.902,61.2,466,4.85,13.0,9.2,1,26.4,1.99,5.8,0,0,1,1,0,375,28675,1,600,,,,,,,,,,,,,,,,
522783,1622988651431,,,,,,,,-1.18,0.1,-0.69,1,1,1,1.18,,88,6135,4,25,23,0.903,59.5,458,4.9,13.0,9.2,1,26.4,1.99,5.8,0,0,1,1,0,372,5344,-1268,591,,,,,,,,,,,,,,,,
522803,1622988651451,,,,,,,,-1.25,0.08,-0.8,1,3,2,1.25,,88,5961,4,25,24,0.905,59.5,450,4.92,13.0,9.2,1,26.5,2.04,5.8,0,0,1,1,0,359,3472,-30454,592,,,,,,,,,,,,,,,,
522823,1622988651471,,,,,,,,-1.2,0.02,-0.9,2,0,-0,1.2,,88,5783,4,25,24,0.909,58.4,435,4.83,13.0,9.2,1,25.8,2.04,5.4,0,0,1,1,0,359,1,-22016,581,,,,,,,,,,,,,,,,
522843,1622988651495,44,27,18,19,41,39,2,-1.07,-0.02,-0.66,2,-4,-2,1.07,0,88,5602,4,25,25,0.912,57.5,433,4.91,13.0,9.2,1,25.4,2.11,5.4,0,0,1,1,0,320,259,-1,564,45.699207,4.910203,64.96,198.2,9,3,1.9,0,0.0,-1,0.0,0.0,0.0,0,5.86,8.7141
522863,1622988651515,,,,,,,,-1.11,0.07,-0.77,3,1,3,1.11,,88,5458,4,25,26,0.917,58.2,415,4.92,13.0,9.2,1,25.0,2.11,5.4,0,0,1,1,0,302,8488,18432,569,,,,,,,,,,,,,,,,
522883,1622988651535,,,,,,,,-1.07,0.14,-0.54,4,-4,-2,1.07,,88,5030,4,25,27,0.923,57.1,397,4.88,12.9,9.2,1,23.7,2.11,5.4,0,0,1,1,0,294,1780,250,558,,,,,,,,,,,,,,,,
522903,1622988651555,,,,,,,,-1.03,0.14,-0.33,4,-5,-2,1.04,,88,4530,4,25,28,0.928,55.5,354,4.9,12.8,9.2,1,20.1,2.04,5.4,0,0,1,1,0,327,-22263,28696,555,,,,,,,,,,,,,,,,
522923,1622988651575,,,,,,,,-1.05,0.15,-0.13,5,-5,-2,1.06,,88,4334,4,25,28,0.934,54.0,331,4.83,12.9,7.4,1,18.6,2.01,4.0,0,0,1,1,0,334,-8186,-1818,534,,,,,,,,,,,,,,,,
522943,1622988651594,47,30,17,18,41,39,2,-1.08,0.25,0.04,6,-6,-2,1.1,0,88,4184,4,25,29,0.94,54.5,322,4.91,12.9,7.4,1,17.4,2.03,4.0,0,0,1,1,0,330,-22519,-1246,535,45.699196,4.910192,61.4,198.1,9,3,1.9,0,0.0,-1,0.0,,0.0,0,5.86,8.7157
522963,1622988651614,,,,,,,,-1.07,0.28,-0.13,7,-4,-1,1.1,,88,4147,4,25,30,0.946,55.0,315,4.92,13.1,7.4,1,17.2,2.05,4.0,0,0,1,1,0,306,-32248,26880,526,,,,,,,,,,,,,,,,
522983,1622988651634,,,,,,,,-1.02,0.32,-0.28,9,-3,-0,1.07,,88,4187,4,25,31,0.952,53.1,310,4.89,13.1,7.4,1,17.6,2.08,4.0,0,0,1,1,0,242,-22519,-1532,510,,,,,,,,,,,,,,,,
523003,1622988651654,,,,,,,,-1.08,0.32,-0.36,10,-3,-0,1.13,,88,4038,4,25,31,0.957,53.0,304,4.88,13.0,7.4,1,16.2,2.07,4.0,0,0,1,1,0,188,-32248,5134,510,,,,,,,,,,,,,,,,
523023,1622988651674,,,,,,,,-1.04,0.29,-0.4,11,-5,-1,1.08,,88,3925,4,25,32,0.962,51.9,306,4.89,13.0,7.6,1,15.8,2.11,3.8,0,0,1,1,0,154,-8187,250,500,,,,,,,,,,,,,,,,
523043,1622988651692,48,30,16,20,41,38,-2,-1.09,0.29,-0.28,13,-5,-0,1.12,0,88,3324,4,25,33,0.967,51.3,282,4.83,13.0,7.6,1,0.0,2.12,3.8,0,0,1,1,0,152,26178,250,494,45.699181,4.910182,57.53,198.0,9,3,1.9,0,0.0,-1,0.0,0.0,0.0,0,5.86,8.7174
523063,1622988651712,,,,,,,,-1.1,0.31,-0.33,14,-5,-2,1.14,,88,2949,4,25,34,0.972,50.6,249,4.9,12.8,7.6,1,15.0,2.12,3.8,0,0,1,1,0,241,-28648,-28416,477,,,,,,,,,,,,,,,,
523083,1622988651732,,,,,,,,-1.08,0.38,-0.47,16,-2,-2,1.15,,88,2534,4,25,36,0.976,49.3,227,4.92,13.1,7.6,1,0.0,2.01,3.8,0,0,1,1,0,273,-6528,115,462,,,,,,,,,,,,,,,,
523103,1622988651752,,,,,,,,-1.06,0.35,-0.58,17,-2,-2,1.12,,88,2399,4,25,37,0.979,49.4,211,4.87,13.0,7.6,1,0.0,2.02,3.8,0,0,1,1,0,228,998,-214,470,,,,,,,,,,,,,,,,
523123,1622988651772,,,,,,,,-1.06,0.29,-0.56,19,-1,-1,1.1,,88,2385,4,25,39,0.982,48.9,208,4.92,13.1,4.7,1,15.0,2.05,2.2,0,0,1,1,0,177,-6441,-1281,461,,,,,,,,,,,,,,,,
523143,1622988651792,45,28,16,19,43,40,-12,-1.06,0.24,-0.5,20,-2,-2,1.09,0,88,2360,4,25,40,0.986,47.2,204,4.96,13.1,4.7,1,15.0,2.05,2.2,0,0,1,1,0,123,-1923,8192,457,45.699169,4.910172,53.76,197.9,9,3,1.9,0,0.0,-1,0.0,,0.0,0,5.86,8.7191
523163,1622988651812,,,,,,,,-1.04,0.32,-0.38,22,-4,-2,1.09,,88,2268,4,25,42,0.987,47.1,203,4.92,13.1,4.7,1,0.0,2.07,2.2,0,0,1,1,0,93,32033,8192,443,,,,,,,,,,,,,,,,
523183,1622988651832,,,,,,,,-1.08,0.31,-0.5,24,-5,-1,1.12,,88,2005,4,25,43,0.988,43.8,192,4.9,13.0,4.7,1,0.0,2.08,2.2,0,0,1,1,0,93,-1,8192,438,,,,,,,,,,,,,,,,
523203,1622988651852,,,,,,,,-1.1,0.29,-0.62,25,-3,-0,1.13,,88,1588,4,25,45,0.99,43.1,176,4.93,13.0,4.7,1,15.0,2.08,2.2,0,0,1,1,0,93,-1,-1,422,,,,,,,,,,,,,,,,
523223,1622988651872,,,,,,,,-1.09,0.25,-0.71,27,-2,-0,1.12,,88,1588,4,25,47,0.991,45.6,167,4.85,12.8,4.7,1,15.0,2.11,2.2,0,0,1,1,0,147,14488,-1,412,,,,,,,,,,,,,,,,
523243,1622988651892,40,27,16,19,42,39,-30,-1.07,0.24,-0.82,28,-2,-1,1.09,0,88,1088,4,25,51,0.991,41.6,158,4.93,12.9,3.6,1,15.0,2.11,1.5,0,0,1,1,0,151,-18341,-165,416,45.699154,4.910164,49.74,197.9,9,3,1.9,0,0.0,-1,0.0,0.0,0.0,0,5.87,8.7207
523263,1622988651912,,,,,,,,-1.06,0.22,-0.82,29,-3,-0,1.08,,88,803,4,25,51,0.991,43.6,145,4.9,12.6,3.6,1,11.3,2.12,1.5,0,0,1,1,0,147,5600,13850,407,,,,,,,,,,,,,,,,
523283,1622988651932,,,,,,,,-1.05,0.21,-0.92,31,-2,0,1.07,,88,803,8,25,56,0.991,42.9,142,4.93,12.8,3.6,1,15.0,2.15,1.5,0,0,1,1,0,96,3635,13850,403,,,,,,,,,,,,,,,,
523303,1622988651952,,,,,,,,-1.05,0.16,-0.9,32,-2,0,1.06,,88,803,11,25,58,0.991,43.2,137,4.87,12.6,3.6,1,15.0,3.17,1.5,0,0,1,1,0,96,-3322,13850,394,,,,,,,,,,,,,,,,
523323,1622988651972,,,,,,,,-1.07,0.2,-0.86,33,-2,-0,1.08,,88,715,16,25,65,0.99,42.2,137,4.92,12.8,2.5,1,13.3,3.27,1.0,0,0,1,1,0,96,-3414,13850,391,,,,,,,,,,,,,,,,
523343,1622988651992,37,22,17,20,41,38,-49,-1.05,0.17,-0.88,34,-1,0,1.06,0,88,715,17,25,73,0.988,40.7,134,4.93,12.8,2.5,1,10.8,4.01,1.0,0,0,1,1,0,96,-26615,13850,372,45.699154,4.910164,49.74,197.9,9,3,1.9,0,0.0,-1,0.0,,0.0,0,5.87,8.7224
523363,1622988652000,,,,,,,,-1.02,0.15,-0.94,35,-1,0,1.03,,88,564,17,25,76,0.986,40.6,130,4.9,12.7,2.5,1,10.0,1.64,1.0,0,0,1,1,0,96,-26615,13850,371,,,,,,,,,,,,,,,,
523383,1622988652020,,,,,,,,-1.01,0.13,-0.93,35,-1,0,1.02,,88,564,18,25,85,0.985,39.8,131,4.92,12.8,2.5,1,11.8,4.57,1.0,0,0,1,1,0,96,6384,13850,369,,,,,,,,,,,,,,,,
523403,1622988652040,,,,,,,,-1.03,0.13,-0.97,36,-2,0,1.04,,88,564,18,25,90,0.983,38.8,128,4.91,12.8,2.5,1,19.0,4.67,1.0,0,0,1,1,0,96,-31744,13850,358,,,,,,,,,,,,,,,,
523423,1622988652060,,,,,,,,-1.03,0.11,-1.03,36,-2,0,1.04,,88,564,18,25,92,0.982,38.1,131,4.91,12.8,2.5,1,21.7,1.73,1.0,0,0,1,1,0,17,-18948,13850,357,,,,,,,,,,,,,,,,
523443,1622988652092,35,22,17,19,40,37,-68,-1.02,0.12,-0.98,36,-1,0,1.03,0,88,441,18,25,95,0.979,37.6,129,4.92,12.8,3.0,1,25.8,1.67,1.1,0,0,1,1,0,17,3,13850,352,45.699135,4.910149,43.04,197.8,9,3,1.9,0,0.0,-1,0.0,0.0,0.0,0,5.87,8.724
523463,1622988652112,,,,,,,,-0.99,0.12,-1.05,35,-2,0,1.0,,88,441,18,25,98,0.978,36.8,126,4.92,12.8,3.0,1,30.0,1.61,1.1,0,0,1,1,0,17,0,13850,348,,,,,,,,,,,,,,,,
523483,1622988652132,,,,,,,,-0.99,0.11,-1.03,35,-2,-0,1.0,,88,441,18,25,98,0.978,36.5,122,4.93,12.8,3.0,1,30.0,1.61,1.1,0,0,1,1,0,37,-6405,13850,343,,,,,,,,,,,,,,,,
523503,1622988652152,,,,,,,,-1.0,0.09,-1.04,34,-2,-0,1.0,,88,441,18,25,98,0.978,35.7,121,4.92,12.8,3.0,1,30.0,4.32,1.1,0,0,1,1,0,37,-6640,13850,332,,,,,,,,,,,,,,,,
523523,1622988652172,,,,,,,,-1.0,0.13,-1.01,33,-1,-1,1.01,,88,441,18,26,99,0.979,35.0,121,4.92,12.8,3.0,1,30.0,5.01,1.0,0,0,1,1,0,37,-30454,13850,324,,,,,,,,,,,,,,,,
523543,1622988652193,34,20,17,19,41,37,-84,-1.0,0.14,-1.03,31,-2,-0,1.01,0,88,441,18,26,99,0.978,33.6,122,4.92,12.8,3.0,1,30.0,5.01,1.0,0,0,1,1,0,44,13,13850,326,45.699131,4.910141,39.5,197.7,9,3,1.9,0,0.0,-1,0.0,,0.0,0,5.87,8.7257
523563,1622988652213,,,,,,,,-0.98,0.15,-1.09,30,-2,-0,0.99,,88,441,18,26,99,0.983,33.3,122,4.93,12.8,3.0,1,30.0,5.01,1.0,0,0,1,1,0,44,-6528,13850,321,,,,,,,,,,,,,,,,
523583,1622988652233,,,,,,,,-0.96,0.13,-1.14,28,-1,-0,0.97,,88,441,18,26,99,0.987,32.6,122,4.92,12.8,3.0,1,30.0,5.01,1.0,0,0,1,1,0,44,165,13850,317,,,,,,,,,,,,,,,,
523603,1622988652253,,,,,,,,-0.95,0.19,-1.09,27,-2,-1,0.97,,88,441,18,26,99,0.992,32.2,122,4.91,12.8,3.0,1,30.0,1.96,1.0,0,0,1,1,0,44,155,13850,313,,,,,,,,,,,,,,,,
523623,1622988652273,,,,,,,,-0.94,0.17,-1.12,25,-2,-1,0.96,,88,441,18,26,99,0.997,31.6,122,4.93,12.8,3.3,1,30.0,5.01,1.0,0,0,1,1,0,44,140,13850,303,,,,,,,,,,,,,,,,
523643,1622988652294,35,19,16,20,41,37,-89,-0.95,0.25,-1.03,23,-2,-1,0.98,0,88,441,18,26,99,1.001,30.9,121,4.94,12.8,3.3,1,30.0,5.01,1.0,0,0,1,1,0,44,32000,13850,300,45.69912,4.910135,36.12,197.7,9,3,1.9,0,0.0,-1,0.0,0.0,0.0,0,5.87,8.7274
523663,1622988652314,,,,,,,,-0.92,0.22,-0.91,22,-3,-1,0.95,,88,441,18,26,99,1.005,30.1,122,4.94,12.8,3.3,1,30.0,5.01,1.0,0,0,1,1,0,44,26880,13850,293,,,,,,,,,,,,,,,,
523683,1622988652334,,,,,,,,-0.94,0.25,-0.94,20,-2,-1,0.97,,88,441,18,26,99,1.01,29.3,122,4.93,12.8,3.3,1,30.0,5.01,1.0,0,0,1,1,0,44,21760,13850,287,,,,,,,,,,,,,,,,
523703,1622988652354,,,,,,,,-0.95,0.25,-0.89,18,-2,-1,0.98,,88,441,18,26,99,1.013,28.9,122,4.92,12.8,3.3,1,30.0,3.86,1.0,0,0,1,1,0,44,-16896,13850,284,,,,,,,,,,,,,,,,
523723,1622988652374,,,,,,,,-0.95,0.21,-0.97,17,-1,-1,0.97,,88,441,18,26,99,1.016,27.8,122,4.92,12.8,3.3,1,30.0,3.86,1.0,0,0,1,1,0,44,630,13850,280,,,,,,,,,,,,,,,,
523743,1622988652394,27,17,16,20,41,37,-90,-0.92,0.22,-1.06,15,-1,-1,0.95,0,88,441,18,26,99,1.018,27.2,122,4.92,12.8,3.5,1,30.0,5.01,1.0,0,0,1,1,0,44,-1281,13850,272,45.699116,4.910129,32.52,197.7,9,3,1.9,0,0.0,-1,0.0,,0.0,0,5.87,8.729
523763,1622988652414,,,,,,,,-0.92,0.2,-1.01,13,-2,-1,0.94,,88,441,18,26,99,1.021,27.2,122,4.93,12.8,3.5,1,30.0,5.01,1.0,0,0,1,1,0,44,250,250,272,,,,,,,,,,,,,,,,
523783,1622988652434,,,,,,,,-0.93,0.21,-0.96,11,-2,-1,0.96,,88,441,18,27,99,1.023,26.9,122,4.92,12.8,3.5,1,30.0,3.86,1.0,0,0,1,1,0,44,-1,250,269,,,,,,,,,,,,,,,,
523803,1622988652454,,,,,,,,-0.92,0.19,-0.95,9,-2,-1,0.93,,88,441,18,27,99,0.145,26.2,122,4.92,12.8,3.5,1,0.0,0.0,1.0,0,0,1,1,0,0,250,250,0,,,,,,,,,,,,,,,,
523823,1622988652474,,,,,,,,-0.91,0.22,-0.96,8,-1,-0,0.93,,88,0,18,27,99,0.541,25.2,122,4.92,12.8,0.0,1,0.0,0.0,0.0,0,0,1,1,0,0,16896,250,252,,,,,,,,,,,,,,,,
523843,1622988652494,26,16,16,21,41,36,-90,-0.91,0.22,-0.96,6,-1,-0,0.93,0,88,0,18,27,99,0.581,25.0,122,4.94,12.8,0.0,1,0.0,0.0,0.0,0,0,1,1,0,0,23482,250,250,45.699108,4.910124,29.27,197.7,9,3,1.9,0,0.0,-1,0.0,0.0,0.0,0,5.87,8.7307
523863,1622988652514,,,,,,,,-0.89,0.22,-0.96,4,-1,-0,0.92,,88,0,18,27,99,0.622,24.5,122,4.93,12.8,0.0,1,0.0,0.0,0.0,0,0,1,1,0,0,-1484,250,245,,,,,,,,,,,,,,,,
523883,1622988652534,,,,,,,,-0.88,0.24,-0.91,2,-2,-0,0.92,,88,0,21,27,99,0.663,24.4,122,4.92,12.8,0.0,1,0.0,0.0,0.0,0,0,1,1,0,0,13602,250,244,,,,,,,,,,,,,,,,
523903,1622988652554,,,,,,,,-0.88,0.25,-0.96,0,-1,0,0.92,,88,0,28,27,99,0.704,23.7,122,4.9,12.8,0.0,1,0.0,0.0,0.0,0,0,1,1,0,0,250,250,237,,,,,,,,,,,,,,,,
523923,1622988652574,,,,,,,,-0.88,0.23,-0.99,-2,-1,0,0.91,,88,0,33,27,99,0.745,23.1,122,4.91,12.8,0.0,1,0.0,0.0,0.0,0,0,1,1,0,0,1596,250,231,,,,,,,,,,,,,,,,
523943,1622988652593,22,11,17,21,41,36,-90,-0.85,0.21,-0.95,-4,-1,-0,0.88,0,88,0,35,27,99,0.786,23.0,122,4.93,12.8,0.0,1,0.0,0.0,0.0,0,0,1,1,0,0,16384,250,229,45.6991,4.910119,26.19,197.7,9,3,1.9,0,0.0,-1,0.0,,0.0,0,5.87,8.7324
523963,1622988652613,,,,,,,,-0.84,0.2,-0.93,-5,-1,-0,0.86,,88,0,36,27,99,0.827,22.8,122,4.92,12.8,0.0,1,0.0,0.0,0.0,0,0,1,1,0,0,250,250,228,,,,,,,,,,,,,,,,
523983,1622988652633,,,,,,,,-0.83,0.18,-0.94,-8,-1,-0,0.85,,88,0,36,27,99,0.868,22.7,122,4.91,12.8,0.0,1,0.0,0.0,0.0,0,0,1,1,0,0,250,250,227,,,,,,,,,,,,,,,,
524003,1622988652653,,,,,,,,-0.82,0.16,-0.9,-10,-1,-0,0.84,,88,0,36,27,99,0.91,22.3,122,4.92,12.8,0.0,1,0.0,0.0,0.0,0,0,1,1,0,0,12800,250,223,,,,,,,,,,,,,,,,
524023,1622988652673,,,,,,,,-0.8,0.14,-0.92,-12,-1,-0,0.81,,88,0,36,27,99,0.952,21.8,122,4.93,12.8,0.0,1,0.0,0.0,0.0,0,0,1,1,0,0,-1481,250,218,,,,,,,,,,,,,,,,
524043,1622988652693,9,5,20,21,40,36,-90,-0.78,0.12,-0.89,-14,-1,-0,0.79,0,88,0,36,27,99,0.993,21.5,122,4.92,12.8,0.0,1,0.0,0.0,0.0,0,0,1,1,0,0,-1,250,215,45.699097,4.910115,23.1,197.7,9,3,1.9,0,0.0,-1,0.0,0.0,0.0,0,5.87,8.734
524063,1622988652713,,,,,,,,-0.76,0.13,-0.94,-17,-1,-0,0.77,,88,0,36,27,99,1.013,21.7,122,4.92,12.8,0.0,1,0.0,0.0,0.0,0,0,1,1,0,0,-1,250,214,,,,,,,,,,,,,,,,
524083,1622988652733,,,,,,,,-0.76,0.1,-0.94,-19,-1,-0,0.77,,88,0,36,27,99,1.014,21.5,121,4.92,12.8,0.0,1,0.0,0.0,0.0,0,0,1,1,0,0,-1,250,215,,,,,,,,,,,,,,,,
524103,1622988652753,,,,,,,,-0.75,0.08,-0.95,-22,-1,-0,0.76,,88,0,36,27,99,1.015,21.2,121,4.91,12.8,0.0,1,0.0,0.0,0.0,0,0,1,1,0,0,-236,250,212,,,,,,,,,,,,,,,,
524123,1622988652773,,,,,,,,-0.73,0.07,-0.98,-24,-1,-0,0.74,,88,0,36,27,99,1.015,20.8,121,4.92,12.8,0.0,1,0.0,0.0,0.0,0,0,1,1,0,0,-1495,250,208,,,,,,,,,,,,,,,,
524143,1622988652793,1,2,22,21,38,36,-90,-0.73,0.06,-0.97,-28,-1,-0,0.73,0,88,0,36,27,99,1.016,20.7,121,4.92,12.8,0.0,1,0.0,0.0,0.0,0,0,1,1,0,27,-1,-1,207,45.699093,4.910112,20.34,197.7,9,3,1.9,0,0.0,-1,0.0,,0.0,0,5.87,8.7357
524163,1622988652813,,,,,,,,-0.7,0.06,-0.94,-31,-1,1,0.7,,88,0,36,27,99,1.017,20.4,121,4.91,12.8,0.0,1,0.0,0.0,0.0,0,0,1,1,0,118,888,-1,204,,,,,,,,,,,,,,,,
524183,1622988652833,,,,,,,,-0.71,0.04,-0.96,-35,-0,0,0.71,,88,0,36,27,99,1.018,20.3,121,4.92,12.8,0.0,1,0.0,0.0,0.0,0,0,1,1,0,141,3072,250,203,,,,,,,,,,,,,,,,
524203,1622988652853,,,,,,,,-0.69,0.01,-0.95,-38,0,-0,0.69,,88,0,36,28,99,1.019,20.3,121,4.91,12.8,0.0,1,0.0,0.0,0.0,0,0,1,1,0,134,-165,9728,203,,,,,,,,,,,,,,,,
524223,1622988652873,,,,,,,,-0.69,-0.0,-0.98,-41,-0,-1,0.69,,88,0,36,28,99,1.02,20.3,121,4.92,12.8,0.0,1,0.0,0.0,0.0,0,0,1,1,0,136,-1,10764,203,,,,,,,,,,,,,,,,
524243,1622988652893,2,3,27,23,37,36,-90,-0.7,-0.04,-0.96,-43,-0,-2,0.7,0,88,0,36,28,99,1.02,20.0,121,4.92,12.8,0.0,1,0.0,0.0,0.0,0,0,1,1,0,129,-1,-1,200,45.699089,4.910109,18.36,197.7,9,3,1.9,0,0.0,-1,0.0,0.0,0.0,0,5.88,8.7374
524263,1622988652913,,,,,,,,-0.67,-0.06,-0.98,-45,-0,-2,0.67,,88,0,36,28,99,1.021,19.6,121,4.91,12.8,0.0,1,0.0,0.0,0.0,0,0,1,1,0,133,-1,-236,196,,,,,,,,,,,,,,,,
524283,1622988652933,,,,,,,,-0.68,-0.09,-0.95,-47,-0,-2,0.69,,88,0,36,28,99,1.022,19.4,121,4.91,12.8,0.0,1,0.0,0.0,0.0,0,0,1,1,0,127,5140,-1495,194,,,,,,,,,,,,,,,,
524303,1622988652953,,,,,,,,-0.64,-0.12,-0.92,-48,-0,-2,0.65,,88,0,36,28,99,1.023,19.0,121,4.92,12.8,0.0,1,0.0,0.0,0.0,0,0,1,1,0,128,250,-1,190,,,,,,,,,,,,,,,,
524323,1622988652973,,,,,,,,-0.65,-0.14,-0.93,-49,-0,-2,0.67,,88,0,36,28,99,1.024,18.5,121,4.91,12.8,0.0,1,0.0,0.0,0.0,0,0,1,1,0,122,250,250,185,,,,,,,,,,,,,,,,
524343,1622988652993,3,2,29,24,34,38,-90,-0.62,-0.16,-0.97,-50,0,-2,0.64,0,88,0,38,28,99,1.025,18.1,121,4.92,12.8,0.0,1,0.0,0.0,0.0,0,0,1,1,0,125,250,-253,181,45.699089,4.910109,18.36,197.7,9,3,1.9,0,0.0,-1,0.0,,0.0,0,5.88,8.739
524363,1622988652999,,,,,,,,-0.62,-0.16,-0.95,-51,0,-2,0.64,,88,0,41,28,99,1.026,18.0,121,4.91,12.8,0.0,1,0.0,0.0,0.0,0,0,1,1,0,122,-1,-253,180,,,,,,,,,,,,,,,,
524383,1622988653019,,,,,,,,-0.61,-0.13,-0.93,-52,-0,-2,0.63,,88,0,42,28,99,1.028,17.7,121,4.93,12.8,0.0,1,0.0,0.0,0.0,0,0,1,1,0,119,-1,-1281,177,,,,,,,,,,,,,,,,
524403,1622988653039,,,,,,,,-0.58,-0.15,-0.94,-52,-1,-2,0.59,,88,0,42,28,99,1.029,17.5,121,4.93,12.8,0.0,1,0.0,0.0,0.0,0,0,1,1,0,120,-1,250,175,,,,,,,,,,,,,,,,
524423,1622988653059,,,,,,,,-0.6,-0.13,-0.9,-52,-0,-2,0.61,,88,0,42,28,99,1.03,17.2,121,4.93,12.8,0.0,1,0.0,0.0,0.0,0,0,1,1,0,116,-1,-1,172,,,,,,,,,,,,,,,,
524443,1622988653095,1,2,28,26,33,37,-85,-0.55,-0.15,-0.87,-52,-1,-2,0.57,0,88,0,42,28,99,1.031,16.7,121,4.92,12.8,0.0,1,0.0,0.0,0.0,0,0,1,1,0,117,-1,-165,167,45.699081,4.910103,15.77,197.7,9,3,1.9,0,0.0,-1,0.0,0.0,0.0,0,5.88,8.7407
524463,1622988653115,,,,,,,,-0.57,-0.14,-0.88,-52,-1,-2,0.59,,88,0,42,28,99,1.032,16.2,121,4.91,12.8,0.0,1,0.0,0.0,0.0,0,0,1,1,0,115,13868,-1,162,,,,,,,,,,,,,,,,
524483,1622988653135,,,,,,,,-0.53,-0.17,-0.86,-52,-1,-2,0.55,,88,0,42,28,99,1.034,16.4,121,4.93,12.8,0.0,1,0.0,0.0,0.0,0,0,1,1,0,112,11264,-23552,164,,,,,,,,,,,,,,,,
524503,1622988653155,,,,,,,,-0.53,-0.16,-0.85,-52,-1,-2,0.56,,88,0,42,28,99,1.036,15.8,121,4.92,12.8,0.0,1,0.0,0.0,0.0,0,0,1,1,0,113,9728,-1,158,,,,,,,,,,,,,,,,
524523,1622988653175,,,,,,,,-0.52,-0.16,-0.85,-51,-1,-2,0.55,,88,0,42,28,99,1.037,15.8,121,4.91,12.8,0.0,1,0.0,0.0,0.0,0,0,1,1,0,107,9728,250,158,,,,,,,,,,,,,,,,
524543,1622988653193,1,1,27,28,33,38,-84,-0.49,-0.16,-0.84,-51,-1,-2,0.52,0,88,0,42,28,99,1.039,15.5,121,4.92,12.8,0.0,1,0.0,0.0,0.0,0,0,1,1,0,109,-1482,-1,155,45.699078,4.9101,14.49,197.6,9,3,1.9,0,0.0,-1,0.0,,0.0,0,5.88,8.7424
524563,1622988653213,,,,,,,,-0.5,-0.17,-0.82,-51,-1,-2,0.53,,88,0,42,28,99,1.041,15.1,121,4.93,12.8,0.0,1,0.0,0.0,0.0,0,0,1,1,0,106,250,-1,151,,,,,,,,,,,,,,,,
524583,1622988653233,,,,,,,,-0.46,-0.17,-0.84,-50,-1,-1,0.49,,88,0,42,28,99,1.042,14.8,121,4.94,12.8,0.0,1,0.0,0.0,0.0,0,0,1,1,0,106,250,5140,148,,,,,,,,,,,,,,,,
524603,1622988653253,,,,,,,,-0.49,-0.17,-0.89,-50,-1,-1,0.52,,88,0,42,28,99,1.044,14.6,121,4.93,12.8,0.0,1,0.0,0.0,0.0,0,0,1,1,0,102,250,-1,146,,,,,,,,,,,,,,,,
524623,1622988653273,,,,,,,,-0.45,-0.16,-0.89,-49,-1,-1,0.47,,88,0,42,28,99,1.045,14.4,121,4.94,12.8,0.0,1,0.0,0.0,0.0,0,0,1,1,0,102,6656,-1,144,,,,,,,,,,,,,,,,
524643,1622988653293,2,2,27,30,32,37,-80,-0.46,-0.14,-0.88,-48,-1,-1,0.48,0,88,0,42,28,99,1.047,14.2,123,4.93,12.8,0.0,1,0.0,0.0,0.0,0,0,1,1,0,101,250,-1,142,45.699078,4.910097,13.14,197.6,9,3,1.9,0,0.0,-1,0.0,0.0,0.0,0,5.88,8.7441
524663,1622988653313,,,,,,,,-0.46,-0.13,-0.87,-48,-1,-1,0.47,,88,0,42,28,99,1.049,14.0,125,4.95,12.8,0.0,1,0.0,0.0,0.0,0,0,1,1,0,98,13844,13868,137,,,,,,,,,,,,,,,,
524683,1622988653333,,,,,,,,-0.45,-0.12,-0.88,-47,-0,-1,0.47,,88,0,42,28,99,1.051,13.5,125,4.94,12.8,0.0,1,0.0,0.0,0.0,0,0,1,1,0,97,-1482,-1,135,,,,,,,,,,,,,,,,
524703,1622988653353,,,,,,,,-0.46,-0.11,-0.86,-46,-0,-2,0.47,,88,0,40,28,99,1.053,12.9,125,4.91,12.8,0.0,1,0.0,0.0,0.0,0,0,1,1,0,97,-1482,-1482,129,,,,,,,,,,,,,,,,
524723,1622988653373,,,,,,,,-0.45,-0.09,-0.88,-45,-0,-2,0.46,,88,0,32,28,99,1.055,12.6,123,4.89,12.8,0.0,1,0.0,0.0,0.0,0,0,1,1,0,94,250,13856,126,,,,,,,,,,,,,,,,
524743,1622988653393,12,6,26,29,34,37,-75,-0.49,-0.09,-0.89,-44,0,-2,0.5,0,88,0,22,28,99,1.057,12.2,123,4.88,12.8,0.0,1,0.0,0.0,0.0,0,0,1,1,0,89,250,13844,122,45.699074,4.910093,12.23,197.6,9,3,1.9,0,0.0,-1,0.0,,0.0,0,5.88,8.7457
524763,1622988653413,,,,,,,,-0.45,-0.08,-0.89,-43,-1,-2,0.46,,88,0,20,28,99,1.059,11.9,123,4.91,12.8,0.0,1,0.0,0.0,0.0,0,0,1,1,0,86,250,13844,119,,,,,,,,,,,,,,,,
524783,1622988653433,,,,,,,,-0.47,-0.06,-0.92,-42,-1,-2,0.48,,88,0,19,28,99,1.062,11.4,121,4.88,12.8,0.0,1,0.0,0.0,0.0,0,0,1,1,0,86,13736,13838,114,,,,,,,,,,,,,,,,
524803,1622988653453,,,,,,,,-0.45,-0.07,-0.91,-41,-0,-2,0.46,,88,0,19,28,99,1.064,11.0,122,4.87,12.8,0.0,1,0.0,0.0,0.0,0,0,1,1,0,85,13736,3584,110,,,,,,,,,,,,,,,,
524823,1622988653473,,,,,,,,-0.47,-0.06,-0.9,-40,-1,-2,0.48,,88,0,19,28,99,1.067,11.0,121,4.9,12.8,0.0,1,0.0,0.0,0.0,0,0,1,1,0,81,13736,-1483,110,,,,,,,,,,,,,,,,
524843,1622988653493,8,5,27,29,35,36,-69,-0.47,-0.06,-0.9,-38,-0,-1,0.47,0,88,0,19,28,99,1.069,10.5,121,4.87,12.8,0.0,1,0.0,0.0,0.0,0,0,1,1,0,81,13736,-6144,105,45.699074,4.91009,9.91,197.4,9,3,2.1,0,0.0,-1,0.0,0.0,0.0,0,5.88,8.7474
524863,1622988653513,,,,,,,,-0.46,-0.06,-0.96,-37,-0,-1,0.46,,88,0,18,28,99,1.072,10.0,121,4.88,12.8,0.0,1,0.0,0.0,0.0,0,0,1,1,0,77,13736,-6144,100,,,,,,,,,,,,,,,,
524883,1622988653533,,,,,,,,-0.47,-0.03,-0.93,-36,0,-2,0.47,,88,0,17,28,99,1.074,9.8,121,4.88,12.8,0.0,1,0.0,0.0,0.0,0,0,1,1,0,77,13736,-1481,95,,,,,,,,,,,,,,,,
524903,1622988653553,,,,,,,,-0.46,-0.01,-0.92,-35,0,-2,0.46,,88,0,17,28,99,1.077,9.8,121,4.9,12.8,0.0,1,0.0,0.0,0.0,0,0,1,1,0,72,13736,250,91,,,,,,,,,,,,,,,,
524923,1622988653573,,,,,,,,-0.48,-0.02,-0.93,-34,0,-2,0.48,,88,0,17,28,99,1.08,9.8,121,4.88,12.8,0.0,1,0.0,0.0,0.0,0,0,1,1,0,68,13736,250,91,,,,,,,,,,,,,,,,
524943,1622988653592,7,5,27,28,35,35,-65,-0.46,-0.0,-0.97,-32,1,-2,0.46,0,88,0,17,28,99,1.082,9.8,121,4.88,12.8,0.0,1,0.0,0.0,0.0,0,0,1,1,0,68,13736,-1481,85,45.69907,4.910087,8.88,197.4,9,3,2.1,0,0.0,-1,0.0,,0.0,0,5.88,8.7491
524963,1622988653612,,,,,,,,-0.49,-0.01,-0.97,-31,0,-2,0.49,,88,0,17,28,99,1.085,9.8,121,4.9,12.8,0.0,1,0.0,0.0,0.0,0,0,1,1,0,63,13736,-1481,81,,,,,,,,,,,,,,,,
524983,1622988653632,,,,,,,,-0.46,-0.02,-1.01,-30,1,-1,0.46,,88,0,17,28,99,1.087,9.8,121,4.9,12.8,0.0,1,0.0,0.0,0.0,0,0,1,1,0,63,13736,-1481,81,,,,,,,,,,,,,,,,
525003,1622988653652,,,,,,,,-0.49,0.0,-1.02,-29,1,-1,0.49,,88,0,17,28,99,1.089,9.8,121,4.89,12.8,0.0,1,0.0,0.0,0.0,0,0,1,1,0,58,13736,250,76,,,,,,,,,,,,,,,,
525023,1622988653672,,,,,,,,-0.46,-0.01,-1.03,-28,0,-1,0.46,,88,0,18,28,99,1.092,9.8,121,4.9,12.8,0.0,1,0.0,0.0,0.0,0,0,1,1,0,58,13736,250,76,,,,,,,,,,,,,,,,
525043,1622988653692,9,5,27,25,36,35,-62,-0.48,-0.0,-1.04,-27,0,-1,0.48,0,88,0,21,28,99,1.094,9.8,121,4.91,12.8,0.0,1,0.0,0.0,0.0,0,0,1,1,0,58,13736,250,70,45.69907,4.910085,7.44,197.4,9,3,2.1,0,0.0,-1,0.0,0.0,0.0,0,5.88,8.7507
525063,1622988653712,,,,,,,,-0.46,-0.01,-1.04,-26,0,-1,0.46,,88,0,23,28,99,1.096,9.8,121,4.9,12.8,0.0,1,0.0,0.0,0.0,0,0,1,1,0,53,13736,250,64,,,,,,,,,,,,,,,,
525083,1622988653732,,,,,,,,-0.47,0.02,-1.04,-25,0,-1,0.47,,88,0,26,28,99,1.098,9.8,121,4.89,12.8,0.0,1,0.0,0.0,0.0,0,0,1,1,0,53,13736,-1,64,,,,,,,,,,,,,,,,
525103,1622988653752,,,,,,,,-0.47,0.02,-1.05,-23,0,-1,0.47,,88,0,30,28,99,1.101,9.8,121,4.9,12.8,0.0,1,0.0,0.0,0.0,0,0,1,1,0,46,13736,-1,64,,,,,,,,,,,,,,,,
525123,1622988653772,,,,,,,,-0.47,0.04,-1.08,-22,0,-1,0.47,,88,0,35,28,99,1.103,9.8,121,4.91,12.8,0.0,1,0.0,0.0,0.0,0,0,1,1,0,46,13736,-1,57,,,,,,,,,,,,,,,,
525143,1622988653794,7,5,27,28,36,35,-60,-0.47,0.03,-1.08,-21,0,-1,0.47,0,88,0,35,28,99,1.106,9.8,121,4.9,12.8,0.0,1,0.0,0.0,0.0,0,0,1,1,0,46,13736,-1,57,45.69907,4.910083,6.0,197.4,9,3,1.9,0,0.0,-1,0.0,,0.0,0,5.88,8.7524
525163,1622988653814,,,,,,,,-0.48,0.05,-1.07,-20,0,-1,0.48,,88,0,35,28,99,1.108,9.8,121,4.88,12.8,0.0,1,0.0,0.0,0.0,0,0,1,1,0,40,13736,-1,50,,,,,,,,,,,,,,,,
525183,1622988653834,,,,,,,,-0.48,0.03,-1.08,-19,0,-0,0.48,,88,0,35,28,99,1.11,9.8,121,4.89,12.8,0.0,1,0.0,0.0,0.0,0,0,1,1,0,40,13736,5470,50,,,,,,,,,,,,,,,,
525203,1622988653854,,,,,,,,-0.48,0.05,-1.08,-18,-0,-0,0.48,,88,0,35,28,99,1.113,9.8,121,4.89,12.8,0.0,1,0.0,0.0,0.0,0,0,1,1,0,40,13736,5470,50,,,,,,,,,,,,,,,,
525223,1622988653874,,,,,,,,-0.46,0.05,-1.08,-18,-0,-0,0.47,,88,0,35,28,99,1.116,9.8,121,4.92,12.8,0.0,1,0.0,0.0,0.0,0,0,1,1,0,40,13736,5470,41,,,,,,,,,,,,,,,,
525243,1622988653892,7,4,27,26,36,35,-59,-0.47,0.05,-1.1,-17,-0,-0,0.47,0,88,0,35,28,99,1.118,9.8,121,4.91,12.8,0.0,1,0.0,0.0,0.0,0,0,1,1,0,32,13736,5470,41,45.699066,4.910082,4.86,197.3,9,3,1.9,0,0.0,-1,0.0,0.0,0.0,0,5.88,8.7541
525263,1622988653912,,,,,,,,-0.46,0.05,-1.09,-16,-0,-0,0.46,,88,0,35,28,99,1.121,9.8,121,4.92,12.8,0.0,1,0.0,0.0,0.0,0,0,1,1,0,32,13736,-1,41,,,,,,,,,,,,,,,,
525283,1622988653932,,,,,,,,-0.47,0.06,-1.08,-15,-0,-0,0.47,,88,0,35,29,99,1.124,4.1,121,4.91,12.8,0.0,1,0.0,0.0,0.0,0,0,1,1,0,32,250,-1,41,,,,,,,,,,,,,,,,
525303,1622988653952,,,,,,,,-0.45,0.06,-1.07,-14,-0,-0,0.46,,88,0,35,29,99,1.126,3.2,121,4.9,12.8,0.0,1,0.0,0.0,0.0,0,0,1,1,0,32,250,-1,32,,,,,,,,,,,,,,,,
525323,1622988653972,,,,,,,,-0.46,0.06,-1.07,-13,-0,-0,0.46,,88,0,35,29,99,1.129,3.2,121,4.9,12.8,0.0,1,0.0,0.0,0.0,0,0,1,1,0,32,250,-1,32,,,,,,,,,,,,,,,,
525343,1622988653992,7,3,27,28,36,35,-58,-0.45,0.06,-1.06,-12,-0,-0,0.45,0,88,0,34,29,99,1.131,3.2,121,4.91,12.8,0.0,1,0.0,0.0,0.0,0,0,1,1,0,32,250,-1,32,45.699066,4.910082,4.86,197.3,9,3,1.9,0,0.0,-1,0.0,,0.0,0,5.88,8.7557
525363,1622988654000,,,,,,,,-0.45,0.07,-1.04,-11,-0,0,0.46,,88,0,33,29,99,1.134,3.2,121,4.92,12.8,0.0,1,0.0,0.0,0.0,0,0,1,1,0,20,250,-1,32,,,,,,,,,,,,,,,,
525383,1622988654020,,,,,,,,-0.45,0.08,-1.05,-11,-0,0,0.46,,88,0,32,29,99,1.136,3.2,121,4.9,12.8,0.0,1,0.0,0.0,0.0,0,0,1,1,0,20,250,-1,32,,,,,,,,,,,,,,,,
525403,1622988654040,,,,,,,,-0.45,0.08,-1.05,-10,-0,0,0.45,,88,0,32,29,99,1.139,3.2,121,4.9,12.8,0.0,1,0.0,0.0,0.0,0,0,1,1,0,20,250,-1,32,,,,,,,,,,,,,,,,
525423,1622988654060,,,,,,,,-0.45,0.08,-1.04,-9,-0,-0,0.45,,88,0,32,29,99,1.141,3.2,121,4.91,12.8,0.0,1,0.0,0.0,0.0,0,0,1,1,0,20,250,-1,32,,,,,,,,,,,,,,,,
525443,1622988654094,5,4,27,28,36,35,-58,-0.44,0.08,-1.04,-8,-0,-0,0.45,0,88,0,32,29,99,1.144,3.2,121,4.91,12.8,0.0,1,0.0,0.0,0.0,0,0,1,1,0,20,250,-1,32,45.699066,4.91008,1.82,197.2,9,3,1.9,0,0.0,-1,0.0,0.0,0.0,0,5.88,8.7574
525463,1622988654114,,,,,,,,-0.42,0.07,-1.04,-8,-0,-0,0.43,,88,0,32,29,99,1.147,3.2,121,4.92,12.8,0.0,1,0.0,0.0,0.0,0,0,1,1,0,20,250,-1,32,,,,,,,,,,,,,,,,
525483,1622988654134,,,,,,,,-0.4,0.06,-1.04,-7,-1,-0,0.41,,88,0,32,29,99,1.149,3.2,121,4.91,12.8,0.0,1,0.0,0.0,0.0,0,0,1,1,0,20,250,-1,32,,,,,,,,,,,,,,,,
525503,1622988654154,,,,,,,,-0.37,0.06,-1.04,-6,-1,-0,0.37,,88,0,32,29,99,1.152,3.2,121,4.9,12.8,0.0,1,0.0,0.0,0.0,0,0,1,1,0,20,250,-1,32,,,,,,,,,,,,,,,,
525523,1622988654174,,,,,,,,-0.34,0.05,-1.03,-6,-1,0,0.35,,88,0,32,29,99,1.154,3.2,121,4.92,12.8,0.0,1,0.0,0.0,0.0,0,0,1,1,0,20,250,-1,32,,,,,,,,,,,,,,,,
525543,1622988654192,4,3,28,29,35,34,-58,-0.32,0.05,-1.03,-5,-1,-0,0.32,0,88,0,32,29,99,1.157,3.2,121,4.92,12.8,0.0,1,0.0,0.0,0.0,0,0,1,1,0,20,250,-1,32,45.699066,4.910078,0.0,197.2,9,3,1.9,0,0.0,-1,0.0,,0.0,0,5.88,8.7591
525563,1622988654212,,,,,,,,-0.3,0.04,-1.03,-5,-1,-0,0.3,,88,0,32,29,99,1.16,3.2,121,4.92,12.8,0.0,1,0.0,0.0,0.0,0,0,1,1,0,20,250,-1,32,,,,,,,,,,,,,,,,
525583,1622988654232,,,,,,,,-0.27,0.04,-1.03,-4,-1,-0,0.27,,88,0,32,29,99,1.163,3.2,121,4.91,12.8,0.0,1,0.0,0.0,0.0,0,0,1,1,0,20,250,-1,32,,,,,,,,,,,,,,,,
525603,1622988654252,,,,,,,,-0.24,0.04,-1.02,-4,-1,-0,0.24,,88,0,32,29,99,1.166,0.7,121,4.91,12.8,0.0,1,0.0,0.0,0.0,0,0,1,1,0,20,250,-1,7,,,,,,,,,,,,,,,,
525623,1622988654272,,,,,,,,-0.21,0.03,-1.02,-3,-1,-0,0.21,,88,0,32,29,99,1.169,0.7,121,4.92,12.8,0.0,1,0.0,0.0,0.0,0,0,1,1,0,20,250,-1,7,,,,,,,,,,,,,,,,
525643,1622988654294,4,2,30,30,34,33,-58,-0.19,0.02,-1.02,-3,-1,-0,0.19,0,88,0,32,29,99,1.172,0.7,121,4.92,12.8,0.0,1,0.0,0.0,0.0,0,0,1,1,0,20,250,-1,7,45.699066,4.910078,0.0,197.2,9,3,1.9,0,0.0,-1,0.0,0.0,0.0,0,5.88,8.7607
525663,1622988654314,,,,,,,,-0.17,0.02,-1.02,-3,-1,-0,0.17,,88,0,32,29,99,1.175,0.7,121,4.92,12.8,0.0,1,0.0,0.0,0.0,0,0,1,1,0,20,250,-1,7,,,,,,,,,,,,,,,,
525683,1622988654334,,,,,,,,-0.15,0.02,-1.01,-3,-1,-0,0.15,,88,0,32,29,99,1.178,0.7,121,4.91,12.8,0.0,1,0.0,0.0,0.0,0,0,1,1,0,20,250,-1,7,,,,,,,,,,,,,,,,
525703,1622988654354,,,,,,,,-0.13,0.02,-1.01,-2,-1,-0,0.14,,88,0,32,29,99,1.18,0.7,121,4.92,12.8,0.0,1,0.0,0.0,0.0,0,0,1,1,0,20,250,-1,7,,,,,,,,,,,,,,,,
525723,1622988654374,,,,,,,,-0.12,0.02,-1.01,-2,-1,-0,0.12,,88,0,32,29,99,1.183,0.7,121,4.93,12.8,0.0,1,0.0,0.0,0.0,0,0,1,1,0,20,250,-1,7,,,,,,,,,,,,,,,,
525743,1622988654394,4,2,32,32,32,32,-58,-0.1,0.01,-1.01,-2,-1,-0,0.1,0,88,0,32,29,99,1.185,0.7,121,4.92,12.8,0.0,1,0.0,0.0,0.0,0,0,1,1,0,20,250,-1,7,45.699066,4.910078,0.0,197.2,9,3,1.9,0,0.0,-1,0.0,,0.0,0,5.88,8.7624
525763,1622988654414,,,,,,,,-0.09,0.01,-1.0,-2,-1,-0,0.09,,88,0,32,29,99,1.188,0.7,121,4.9,12.8,0.0,1,0.0,0.0,0.0,0,0,1,1,0,20,250,-1,7,,,,,,,,,,,,,,,,
525783,1622988654434,,,,,,,,-0.09,0.01,-1.0,-2,-1,-0,0.09,,88,0,32,29,99,1.191,0.7,121,4.91,12.8,0.0,1,0.0,0.0,0.0,0,0,1,1,0,20,250,-1,7,,,,,,,,,,,,,,,,
525803,1622988654454,,,,,,,,-0.08,0.01,-1.01,-2,-1,-0,0.08,,88,0,32,29,99,1.194,0.7,121,4.91,12.8,0.0,1,0.0,0.0,0.0,0,0,1,1,0,20,250,-1,7,,,,,,,,,,,,,,,,
525823,1622988654474,,,,,,,,-0.07,0.01,-1.01,-1,-1,-0,0.07,,88,0,32,29,99,1.197,0.7,121,4.91,12.8,0.0,1,0.0,0.0,0.0,0,0,1,1,0,20,250,-1,7,,,,,,,,,,,,,,,,
525843,1622988654496,4,3,32,32,33,32,-58,-0.07,0.01,-1.01,-1,-1,-0,0.07,0,88,0,32,29,99,1.2,0.7,121,4.93,12.8,0.0,1,0.0,0.0,0.0,0,0,1,1,0,20,250,-1,7,45.699066,4.910078,0.0,197.3,9,3,1.9,0,0.0,-1,0.0,0.0,0.0,0,5.88,8.764
525863,1622988654516,,,,,,,,-0.07,0.01,-1.01,-1,-1,-0,0.07,,88,0,32,29,99,1.203,0.7,121,4.91,12.8,0.0,1,0.0,0.0,0.0,0,0,1,1,0,0,250,250,7,,,,,,,,,,,,,,,,
525883,1622988654536,,,,,,,,-0.07,0.01,-1.01,-1,-1,-0,0.07,,88,0,32,29,99,1.205,0.7,121,4.91,12.8,0.0,1,0.0,0.0,0.0,0,0,1,1,0,0,250,250,7,,,,,,,,,,,,,,,,
525903,1622988654556,,,,,,,,-0.06,0.01,-1.01,-1,-1,-0,0.06,,88,0,32,29,99,1.208,0.7,121,4.92,12.8,0.0,1,0.0,0.0,0.0,0,0,1,1,0,0,250,250,7,,,,,,,,,,,,,,,,
525923,1622988654576,,,,,,,,-0.06,0.0,-1.01,-1,-1,-0,0.06,,88,0,32,29,99,1.211,0.7,121,4.93,12.8,0.0,1,0.0,0.0,0.0,0,0,1,1,0,0,250,250,7,,,,,,,,,,,,,,,,
525943,1622988654595,4,1,32,32,33,32,-58,-0.06,0.0,-1.0,-1,-1,-0,0.06,0,88,0,32,29,99,1.215,0.7,121,4.93,12.8,0.0,1,0.0,0.0,0.0,0,0,1,1,0,0,250,250,7,45.699066,4.910078,0.0,197.4,9,3,1.9,0,0.0,-1,0.0,,0.0,0,5.88,8.7657
525963,1622988654615,,,,,,,,-0.05,0.01,-0.99,-1,-1,-0,0.05,,88,0,32,29,99,1.218,0.7,121,4.91,12.8,0.0,1,0.0,0.0,0.0,0,0,1,1,0,0,250,250,7,,,,,,,,,,,,,,,,
525983,1622988654635,,,,,,,,-0.05,0.01,-1.0,-1,-1,-0,0.05,,88,0,32,29,99,1.221,0.7,121,4.92,12.8,0.0,1,0.0,0.0,0.0,0,0,1,1,0,0,250,250,7,,,,,,,,,,,,,,,,
526003,1622988654655,,,,,,,,-0.04,0.01,-1.0,-1,-1,-0,0.04,,88,0,32,29,99,1.224,0.7,121,4.92,12.8,0.0,1,0.0,0.0,0.0,0,0,1,1,0,0,250,250,7,,,,,,,,,,,,,,,,
526023,1622988654675,,,,,,,,-0.04,0.0,-1.0,-1,-1,-0,0.04,,88,0,32,29,99,1.228,0.7,121,4.92,12.8,0.0,1,0.0,0.0,0.0,0,0,1,1,0,0,250,250,7,,,,,,,,,,,,,,,,
526043,1622988654695,2,1,32,32,33,31,-58,-0.04,0.0,-1.0,-1,-1,-0,0.04,0,88,0,32,29,99,1.23,0.7,121,4.92,12.8,0.0,1,0.0,0.0,0.0,0,0,1,1,0,0,250,250,7,45.699066,4.910078,0.0,197.6,9,3,1.9,0,0.0,-1,0.0,0.0,0.0,0,5.88,8.7674
526063,1622988654715,,,,,,,,-0.04,0.0,-1.0,-1,-1,-0,0.04,,89,0,32,29,99,1.233,0.7,121,4.92,12.8,0.0,1,0.0,0.0,0.0,0,0,1,1,0,0,250,250,7,,,,,,,,,,,,,,,,
526083,1622988654735,,,,,,,,-0.03,0.0,-1.0,-1,-1,-0,0.03,,89,0,32,29,99,1.236,0.7,121,4.91,12.8,0.0,1,0.0,0.0,0.0,0,0,1,1,0,0,250,250,7,,,,,,,,,,,,,,,,
526103,1622988654755,,,,,,,,-0.03,0.0,-1.0,-0,-1,-0,0.03,,89,0,32,29,99,1.239,0.7,121,4.92,12.8,0.0,1,0.0,0.0,0.0,0,0,1,1,0,0,250,250,7,,,,,,,,,,,,,,,,
526123,1622988654775,,,,,,,,-0.03,0.0,-1.0,-0,-1,-0,0.03,,89,0,32,29,99,1.242,0.7,121,4.92,11.0,0.0,1,0.0,0.0,0.0,0,0,1,1,0,0,250,250,7,,,,,,,,,,,,,,,,
526143,1622988654795,2,2,31,32,33,32,-58,-0.03,0.0,-1.0,-0,-0,-0,0.03,0,89,0,32,29,99,1.245,0.7,121,4.88,9.7,0.0,1,0.0,0.0,0.0,0,0,1,1,0,0,250,250,7,45.699066,4.910078,0.0,197.7,9,3,1.9,0,0.0,-1,0.0,,0.0,0,5.88,8.769
526163,1622988654815,,,,,,,,-0.02,-0.0,-1.0,-0,-1,-0,0.02,,89,0,32,29,99,1.249,0.7,123,4.87,10.2,0.0,1,0.0,0.0,0.0,0,0,1,1,0,0,250,250,7,,,,,,,,,,,,,,,,
526183,1622988654835,,,,,,,,-0.02,-0.0,-1.0,-0,-1,-0,0.02,,89,0,32,29,99,1.252,0.7,124,4.88,10.7,0.0,1,0.0,0.0,0.0,0,0,1,1,0,0,250,250,7,,,,,,,,,,,,,,,,
526203,1622988654855,,,,,,,,-0.02,0.0,-1.0,-0,-0,-0,0.02,,89,0,32,29,99,1.255,0.7,124,4.9,11.0,0.0,1,0.0,0.0,0.0,0,0,1,1,0,0,250,250,7,,,,,,,,,,,,,,,,
526223,1622988654875,,,,,,,,-0.02,0.0,-0.99,-0,-1,-0,0.02,,89,0,32,29,99,1.258,0.7,126,4.9,11.1,0.0,1,0.0,0.0,0.0,0,0,1,1,0,0,250,250,7,,,,,,,,,,,,,,,,
526243,1622988654895,-0,2,32,32,33,32,-58,-0.02,-0.0,-0.99,-0,-0,-0,0.02,0,89,0,33,29,99,1.262,0.7,126,4.91,11.1,0.0,1,0.0,0.0,0.0,0,0,1,1,0,0,250,250,7,45.699066,4.910078,0.0,197.9,9,3,1.9,0,0.0,-1,0.0,0.0,0.0,0,5.88,8.7707
526263,1622988654915,,,,,,,,-0.02,-0.0,-0.99,-0,-0,-0,0.02,,89,0,33,29,99,1.265,0.7,126,4.9,11.0,0.0,1,0.0,0.0,0.0,0,0,1,1,0,0,250,250,7,,,,,,,,,,,,,,,,
526283,1622988654935,,,,,,,,-0.02,-0.0,-0.99,-0,-0,-0,0.02,,89,0,33,29,99,1.268,0.7,126,4.91,11.2,0.0,1,0.0,0.0,0.0,0,0,1,1,0,0,250,250,7,,,,,,,,,,,,,,,,
526303,1622988654955,,,,,,,,-0.02,-0.0,-0.99,-0,-0,-0,0.02,,89,0,33,29,99,1.272,0.7,126,4.91,11.5,0.0,1,0.0,0.0,0.0,0,0,1,1,0,0,250,250,7,,,,,,,,,,,,,,,,
526323,1622988654975,,,,,,,,-0.02,-0.01,-0.99,-0,-0,-0,0.02,,89,0,33,29,99,1.275,0.7,126,4.92,11.5,0.0,1,0.0,0.0,0.0,0,0,1,1,0,0,250,250,7,,,,,,,,,,,,,,,,
526343,1622988654995,1,2,32,32,33,32,-58,-0.02,-0.01,-1.01,-0,-1,-0,0.02,0,89,0,33,29,99,1.279,0.7,126,4.91,11.4,0.0,1,0.0,0.0,0.0,0,0,1,1,0,0,250,250,7,45.699066,4.910078,0.0,197.9,9,3,1.9,0,0.0,-1,0.0,,0.0,0,5.88,8.7724
526363,1622988655003,,,,,,,,-0.02,-0.01,-1.01,-0,-0,-0,0.03,,89,0,35,29,99,1.283,0.7,126,4.91,11.4,0.0,1,0.0,0.0,0.0,0,0,1,1,0,0,250,250,7,,,,,,,,,,,,,,,,
526383,1622988655023,,,,,,,,-0.02,-0.01,-1.0,-0,-0,-0,0.02,,89,0,35,29,99,1.287,0.7,126,4.91,11.6,0.0,1,0.0,0.0,0.0,0,0,1,1,0,0,250,250,7,,,,,,,,,,,,,,,,
526403,1622988655043,,,,,,,,-0.02,-0.01,-1.0,-0,-0,-0,0.03,,89,0,35,29,99,1.291,0.7,126,4.92,11.6,0.0,1,0.0,0.0,0.0,0,0,1,1,0,0,250,250,7,,,,,,,,,,,,,,,,
526423,1622988655063,,,,,,,,-0.02,-0.01,-1.0,-0,-0,-0,0.02,,89,0,35,29,99,1.296,0.7,126,4.91,11.5,0.0,1,0.0,0.0,0.0,0,0,1,1,0,0,250,250,7,,,,,,,,,,,,,,,,
526443,1622988655093,1,2,31,32,33,32,-59,-0.02,-0.01,-1.0,-0,-0,-0,0.03,0,89,0,35,29,99,1.302,0.7,126,4.91,11.7,0.0,1,0.0,0.0,0.0,0,0,1,1,0,0,250,250,7,45.699066,4.910078,0.0,198.0,9,3,2.3,0,0.0,-1,0.0,0.0,0.0,0,5.88,8.774
526463,1622988655113,,,,,,,,-0.02,-0.0,-1.01,-0,-1,-0,0.02,,89,0,35,29,99,1.308,0.7,128,4.94,11.7,0.0,1,0.0,0.0,0.0,0,0,1,1,0,0,250,250,7,,,,,,,,,,,,,,,,
526483,1622988655133,,,,,,,,-0.02,-0.0,-0.99,-0,-0,-0,0.02,,89,0,35,29,99,1.313,0.7,128,4.92,11.5,0.0,1,0.0,0.0,0.0,0,0,1,1,0,0,250,250,7,,,,,,,,,,,,,,,,
526503,1622988655153,,,,,,,,-0.02,-0.0,-0.98,-0,-0,-0,0.02,,89,0,35,29,99,1.32,0.7,128,4.91,11.6,0.0,1,0.0,0.0,0.0,0,0,1,1,0,0,250,250,7,,,,,,,,,,,,,,,,
526523,1622988655173,,,,,,,,-0.02,-0.0,-0.99,-0,-0,-0,0.02,,89,0,35,29,99,1.33,0.7,129,4.91,11.8,0.0,1,0.0,0.0,0.0,0,0,1,1,0,0,250,250,7,,,,,,,,,,,,,,,,
526543,1622988655195,1,2,32,32,33,32,-58,-0.02,-0.0,-1.01,-0,-1,-0,0.02,0,89,0,35,29,99,1.339,0.7,128,4.92,11.6,0.0,1,0.0,0.0,0.0,0,0,1,1,0,0,250,250,7,45.699066,4.910078,0.0,198.0,9,3,2.3,0,0.0,-1,0.0,,0.0,0,5.88,8.7757
526563,1622988655215,,,,,,,,-0.02,-0.01,-1.01,-0,-0,-0,0.02,,89,0,35,29,99,1.349,0.7,129,4.92,11.5,0.0,1,0.0,0.0,0.0,0,0,1,1,0,0,250,250,7,,,,,,,,,,,,,,,,
526583,1622988655235,,,,,,,,-0.02,-0.01,-1.02,-0,-1,-0,0.02,,89,0,39,29,99,1.358,0.7,129,4.91,11.7,0.0,1,0.0,0.0,0.0,0,0,1,1,0,0,250,250,7,,,,,,,,,,,,,,,,
526603,1622988655255,,,,,,,,-0.02,-0.01,-1.01,-0,-0,0,0.02,,89,0,41,29,99,1.371,0.0,128,4.92,11.6,0.0,1,0.0,0.0,0.0,0,0,1,1,0,0,250,250,0,,,,,,,,,,,,,,,,
526623,1622988655275,,,,,,,,-0.02,-0.0,-1.0,-0,-0,-0,0.02,,89,0,44,29,99,1.384,0.0,128,4.92,11.5,0.0,1,0.0,0.0,0.0,0,0,1,1,0,0,250,250,0,,,,,,,,,,,,,,,,
526643,1622988655295,1,2,32,32,33,32,-58,-0.02,-0.0,-1.01,-0,-0,0,0.02,0,89,0,45,29,99,1.397,0.0,129,4.92,11.7,0.0,1,0.0,0.0,0.0,0,0,1,1,0,0,250,250,0,45.699066,4.910078,0.0,198.0,9,3,2.3,0,0.0,-1,0.0,0.0,0.0,0,5.88,8.7774
526663,1622988655315,,,,,,,,-0.02,-0.0,-1.0,-0,-0,0,0.02,,89,0,47,29,99,1.41,0.0,127,4.9,11.5,0.0,1,0.0,0.0,0.0,0,0,1,1,0,0,250,250,0,,,,,,,,,,,,,,,,
526683,1622988655335,,,,,,,,-0.02,-0.0,-0.99,-0,-1,-0,0.02,,89,0,47,29,99,1.418,0.0,126,4.91,11.5,0.0,1,0.0,0.0,0.0,0,0,1,1,0,0,250,250,0,,,,,,,,,,,,,,,,
526703,1622988655355,,,,,,,,-0.02,0.0,-1.01,-0,-1,0,0.02,,89,151,47,29,98,1.427,0.0,129,4.91,11.7,0.0,1,30.0,6.3,0.0,0,0,1,1,0,0,250,250,0,,,,,,,,,,,,,,,,
526723,1622988655375,,,,,,,,-0.02,-0.0,-0.97,-0,-1,-0,0.02,,89,1292,47,29,98,1.437,0.0,137,4.92,12.0,0.0,1,32.3,1.9,0.0,0,0,1,1,0,0,250,250,0,,,,,,,,,,,,,,,,
526743,1622988655395,1,2,32,32,33,32,-57,-0.02,0.0,-0.95,-0,-1,-0,0.02,0,89,1292,47,29,98,1.442,0.0,142,4.9,11.8,0.0,1,33.7,2.08,0.0,0,0,1,1,0,0,250,250,0,45.699066,4.910078,0.0,198.0,9,3,2.3,0,0.0,-1,0.0,,0.0,0,5.88,8.779
526763,1622988655415,,,,,,,,-0.02,0.01,-0.97,-0,-1,-0,0.02,,89,1474,47,29,98,1.431,0.0,141,4.89,11.7,0.0,1,33.7,7.58,0.0,0,0,1,1,0,0,250,250,0,,,,,,,,,,,,,,,,
526783,1622988655435,,,,,,,,-0.02,0.01,-0.98,-0,-1,0,0.02,,89,1318,47,29,98,1.421,0.0,141,4.85,11.5,0.0,1,32.5,7.11,0.0,0,0,1,1,0,0,250,250,0,,,,,,,,,,,,,,,,
