"Interval"|"ms"|0|0|1,"Utc"|"ms"|0|0|1,"Brake_F"|"Bar"|0|2000|10,"Brake_R"|"Bar"|0|2000|10,"Height_RF"|"mm"|0|255|10,"Height_LF"|"mm"|0|255|10,"Height_LR"|"mm"|0|80|10,"Height_RR"|"mm"|0|255|10,"Steering"|"deg"|-100|100|10,"AccelX"|"G"|-3.0|3.0|50,"AccelY"|"G"|-3.0|3.0|50,"AccelZ"|"G"|-3.0|3.0|50,"Yaw"|"Deg/Sec"|-120|120|50,"Pitch"|"Deg/Sec"|-120|120|50,"Roll"|"Deg/Sec"|-120|120|50,"Gsum"|"G"|0.0|3.0|50,"Log_Button"|""|0.0|10.0|10,"WaterTemp"|"C"|0|150|50,"RPM"|"tr/min"|0|14000|50,"TPS"|"%"|0|100|50,"AirTemp"|"C"|0|150|50,"MAP"|"KPa"|0|100|50,"Lambda"|""|0.5|1.5|50,"SpeedDTA"|"kph"|0.0|250.0|50,"OilPress"|"KPa"|0|1500|50,"FuelPressur"|"Bar"|0.0|10.0|50,"Batterie"|"V"|0.0|20.0|50,"ConsoKm"|"L/100km"|0.0|200.0|50,"Gear"|""|0|6|50,"AdvIgnition"|"Deg"|-20.0|70.0|50,"Injection"|"ms"|0.0|10.0|50,"ConsoHr"|"L/Hr"|0.0|10000.0|50,"LC_But_Pres"|""|0|1|50,"LC_Active"|""|0|1|50,"TractionOn"|""|0|1|50,"TractionWet"|""|0|1|50,"FanOn"|""|0|1|50,"RD_Speed"|"km/h"|-30|250|50,"RUD_Speed"|"km/h"|-30|250|50,"LD_Speed"|"km/h"|-30|250|50,"LUD_Speed"|"km/h"|-30|250|50,"Latitude"|"Degrees"|-180.0|180.0|10,"Longitude"|"Degrees"|-180.0|180.0|10,"Speed"|"kph"|0.0|150.0|10,"Altitude"|"m"|0.0|4000.0|10,"GPSSats"|""|0|20|10,"GPSQual"|""|0|5|10,"GPSDOP"|""|0.0|20.0|10,"LapCount"|""|0|0|10,"LapTime"|"Min"|0.0|0.0|10,"Sector"|""|0|0|10,"SectorTime"|"Min"|0.0|0.0|10,"PredTime"|"Min"|0.0|0.0|5,"ElapsedTime"|"Min"|0.0|0.0|10,"CurrentLap"|""|0|0|10,"Distance"|"km"|0.0|0.0|10,"SessionTime"|"Min"|0.0|0.0|10
608263,1622988736919,,,,,,,,0.04,-0.51,-0.37,-25,0,3,0.51,,86,7569,16,27,50,0.807,49.2,550,4.98,12.8,16.4,1,35.7,2.35,8.2,0,0,1,1,0,481,16648,3,492,,,,,,,,,,,,,,,,
608283,1622988736939,,,,,,,,0.0,-0.6,-0.19,-25,-0,2,0.6,,86,7603,17,27,51,0.813,49.7,547,4.92,12.8,16.4,1,36.0,2.37,8.2,0,0,1,1,0,478,8488,-22519,497,,,,,,,,,,,,,,,,
608303,1622988736959,,,,,,,,-0.04,-0.66,-0.34,-25,0,2,0.66,,86,7681,18,27,52,0.818,50.1,557,4.91,12.8,16.4,1,36.3,2.39,8.2,0,0,1,1,0,480,-16384,3,494,,,,,,,,,,,,,,,,
608323,1622988736979,,,,,,,,-0.07,-0.71,-0.48,-26,1,3,0.71,,86,7763,20,27,54,0.823,49.9,558,4.88,12.9,16.4,1,36.8,2.44,8.2,0,0,1,1,0,480,-899,-9216,500,,,,,,,,,,,,,,,,
608343,1622988736999,1,0,40,31,30,34,-15,-0.05,-0.65,-0.57,-26,3,4,0.65,0,86,7828,20,27,56,0.831,49.6,559,4.86,12.9,17.9,1,37.1,2.48,9.0,0,0,1,1,0,477,-6441,3,496,45.699806,4.910418,46.52,198.1,9,3,2.0,0,0.0,-1,0.0,,0.0,0,6.75,10.139
608363,1622988737005,,,,,,,,-0.02,-0.6,-0.44,-26,1,3,0.6,,86,7884,21,27,58,0.839,50.0,569,4.84,12.9,17.9,1,37.4,2.51,9.0,0,0,1,1,0,481,8488,10408,500,,,,,,,,,,,,,,,,
608383,1622988737025,,,,,,,,-0.08,-0.67,-0.5,-26,-0,1,0.67,,86,7898,21,27,60,0.847,50.0,577,4.96,12.8,17.9,1,37.6,2.53,9.0,0,0,1,1,0,479,-17956,-9216,500,,,,,,,,,,,,,,,,
608403,1622988737045,,,,,,,,-0.09,-0.78,-0.62,-26,1,1,0.78,,86,7845,21,27,60,0.856,50.4,572,4.86,12.9,17.9,1,37.6,2.55,9.0,0,0,1,1,0,483,3576,-9216,504,,,,,,,,,,,,,,,,
608423,1622988737065,,,,,,,,-0.07,-0.76,-0.72,-27,2,2,0.76,,86,7751,21,27,62,0.868,50.3,572,4.91,12.9,17.9,1,38.0,2.69,9.0,0,0,1,1,0,487,16648,-22519,503,,,,,,,,,,,,,,,,
608443,1622988737095,1,2,40,29,30,34,-18,-0.05,-0.62,-0.74,-27,2,3,0.62,0,86,7659,21,27,63,0.881,49.6,559,4.88,12.9,18.9,1,38.3,2.84,9.5,0,0,1,1,0,482,32033,2524,496,45.699787,4.910437,48.46,198.0,9,3,1.9,0,0.0,-1,0.0,0.0,0.0,0,6.75,10.1407
608463,1622988737115,,,,,,,,-0.03,-0.52,-0.79,-27,2,3,0.52,,86,7554,21,27,64,0.895,49.9,558,4.92,12.9,18.9,1,38.6,2.98,9.5,0,0,1,1,0,478,-10483,2524,500,,,,,,,,,,,,,,,,
608483,1622988737135,,,,,,,,-0.04,-0.53,-0.89,-27,3,4,0.53,,86,7431,21,27,65,0.908,50.1,541,4.9,12.9,18.9,1,39.0,2.97,9.5,0,0,1,1,0,478,2212,-22519,494,,,,,,,,,,,,,,,,
608503,1622988737155,,,,,,,,-0.07,-0.55,-0.96,-28,3,3,0.55,,86,7324,21,27,65,0.93,49.6,539,4.88,12.9,18.9,1,39.2,3.11,9.5,0,0,1,1,0,475,3576,-22519,498,,,,,,,,,,,,,,,,
608523,1622988737175,,,,,,,,-0.07,-0.62,-0.83,-28,3,2,0.62,,86,7214,21,27,66,0.96,49.5,532,4.82,13.0,18.9,1,39.6,3.24,9.5,0,0,1,1,0,476,8488,-9216,500,,,,,,,,,,,,,,,,
608543,1622988737197,-0,2,39,29,30,35,-11,-0.04,-0.59,-0.62,-28,2,2,0.59,0,86,7140,21,27,67,0.99,49.9,518,4.85,12.8,22.2,1,40.1,3.37,11.1,0,0,1,1,0,475,-17956,3,499,45.699776,4.910446,47.02,197.9,9,2,1.9,0,0.0,-1,0.0,,0.0,0,6.75,10.1424
608563,1622988737217,,,,,,,,-0.05,-0.49,-0.74,-28,3,4,0.5,,86,7088,21,27,67,1.02,50.2,512,4.92,12.8,22.2,1,40.1,3.36,11.1,0,0,1,1,0,475,32033,3,502,,,,,,,,,,,,,,,,
608583,1622988737237,,,,,,,,-0.11,-0.55,-0.84,-27,4,4,0.56,,86,7086,21,27,68,1.058,49.6,511,4.82,12.9,22.2,1,40.5,3.5,11.1,0,0,1,1,0,472,16648,248,496,,,,,,,,,,,,,,,,
608603,1622988737257,,,,,,,,-0.16,-0.6,-0.89,-27,4,3,0.62,,86,7364,21,27,69,1.107,49.3,528,4.85,12.8,22.2,1,40.1,3.6,11.1,0,0,1,1,0,466,-1923,16648,493,,,,,,,,,,,,,,,,
608623,1622988737277,,,,,,,,-0.14,-0.48,-0.92,-26,4,4,0.5,,86,7716,21,27,69,1.155,49.0,547,4.82,12.9,22.2,1,39.1,3.64,11.1,0,0,1,1,0,470,-23367,10305,490,,,,,,,,,,,,,,,,
608643,1622988737295,-1,2,36,30,31,35,-7,-0.13,-0.37,-0.87,-25,3,2,0.4,0,86,8071,23,27,69,1.204,48.4,572,4.91,12.8,27.5,1,38.9,3.7,13.6,0,0,1,1,0,472,3576,3580,484,45.699768,4.910455,47.89,197.8,9,3,1.9,0,0.0,-1,0.0,0.0,0.0,0,6.75,10.144
608663,1622988737315,,,,,,,,-0.1,-0.39,-0.79,-25,2,2,0.4,,86,8461,25,27,69,1.253,49.0,594,4.91,12.8,27.5,1,42.8,3.72,13.6,0,0,1,1,0,474,-17956,505,490,,,,,,,,,,,,,,,,
608683,1622988737335,,,,,,,,-0.08,-0.3,-0.65,-23,1,2,0.31,,86,8915,27,27,67,1.293,48.1,615,4.67,12.8,27.5,1,41.5,3.68,13.6,0,0,1,1,0,476,10432,-6441,481,,,,,,,,,,,,,,,,
608703,1622988737355,,,,,,,,-0.02,-0.22,-0.43,-23,-0,1,0.22,,86,9333,32,27,69,1.332,48.3,649,4.76,12.8,27.5,1,41.4,3.73,13.6,0,0,1,1,0,476,-9203,1,483,,,,,,,,,,,,,,,,
608723,1622988737375,,,,,,,,0.07,-0.24,-0.27,-22,-2,-0,0.25,,86,9014,35,27,72,1.372,48.9,650,4.81,12.8,27.5,1,41.3,4.53,13.6,0,0,1,1,0,510,-23367,-3856,489,,,,,,,,,,,,,,,,
608743,1622988737395,0,1,38,34,26,30,-12,0.11,-0.26,-0.39,-21,-3,1,0.28,0,86,8534,35,27,74,1.403,50.2,625,4.79,12.8,39.0,1,42.8,4.82,19.3,0,0,1,1,0,522,-1562,-3856,502,45.699753,4.910461,46.76,197.6,9,3,1.9,0,0.0,-1,0.0,,0.0,0,6.75,10.1457
608763,1622988737415,,,,,,,,0.17,-0.36,-0.19,-21,-4,-1,0.4,,86,8184,35,27,77,1.385,50.1,581,4.81,12.8,39.0,1,39.9,5.06,19.3,0,0,1,1,0,506,-6441,-8187,499,,,,,,,,,,,,,,,,
608783,1622988737435,,,,,,,,0.14,-0.38,-0.34,-20,-3,-0,0.4,,86,8036,36,27,81,1.367,49.6,573,4.9,12.8,39.0,1,36.9,5.2,19.3,0,0,1,1,0,518,-1818,16383,499,,,,,,,,,,,,,,,,
608803,1622988737455,,,,,,,,0.17,-0.42,-0.47,-20,-2,1,0.45,,86,8036,36,27,84,1.348,50.6,573,4.82,12.8,39.0,1,35.9,5.48,19.3,0,0,1,1,0,516,771,1248,506,,,,,,,,,,,,,,,,
608823,1622988737475,,,,,,,,0.16,-0.36,-0.26,-20,-3,-1,0.4,,86,8102,36,27,86,1.33,50.4,566,4.96,12.8,39.0,1,37.1,5.55,19.3,0,0,1,1,0,519,2524,1248,504,,,,,,,,,,,,,,,,
608843,1622988737497,0,2,44,39,25,29,-16,0.17,-0.33,-0.41,-19,-2,1,0.37,0,86,8318,36,27,86,1.312,51.4,567,4.85,12.9,42.6,1,40.4,5.81,21.9,0,0,1,1,0,519,-9216,-8187,514,45.699745,4.910469,48.21,197.6,9,3,1.9,0,0.0,-1,0.0,0.0,0.0,0,6.75,10.1474
608863,1622988737517,,,,,,,,0.19,-0.38,-0.54,-19,-0,2,0.43,,86,8538,36,27,85,1.291,51.8,591,4.9,12.7,42.6,1,42.4,5.77,21.9,0,0,1,1,0,520,2109,-22519,509,,,,,,,,,,,,,,,,
608883,1622988737537,,,,,,,,0.21,-0.48,-0.66,-20,-0,0,0.52,,86,8724,36,27,83,1.271,52.1,608,4.82,12.8,42.6,1,41.1,5.42,21.9,0,0,1,1,0,534,-6528,-2934,521,,,,,,,,,,,,,,,,
608903,1622988737557,,,,,,,,0.23,-0.53,-0.65,-20,-1,0,0.58,,86,8794,36,27,82,1.251,52.0,614,4.89,12.8,42.6,1,40.7,5.31,21.9,0,0,1,1,0,563,-4054,-2336,520,,,,,,,,,,,,,,,,
608923,1622988737577,,,,,,,,0.25,-0.57,-0.43,-19,-2,-3,0.62,,86,8806,36,27,82,1.205,52.7,617,4.92,12.8,42.6,1,40.7,5.14,21.9,0,0,1,1,0,536,-14,-32248,527,,,,,,,,,,,,,,,,
608943,1622988737595,-0,2,48,36,25,27,-15,0.31,-0.51,-0.38,-19,-3,-1,0.59,0,86,8737,35,27,82,1.159,53.1,607,4.87,12.8,39.2,1,41.2,5.13,20.8,0,0,1,1,0,543,-4054,2104,531,45.69973,4.910475,48.87,197.7,9,3,1.9,0,0.0,-1,0.0,,0.0,0,6.75,10.149
608963,1622988737615,,,,,,,,0.35,-0.52,-0.43,-19,-2,2,0.62,,86,8716,32,27,81,1.114,53.7,610,4.77,12.8,39.2,1,41.4,5.0,20.8,0,0,1,1,0,566,17136,-32248,537,,,,,,,,,,,,,,,,
608983,1622988737635,,,,,,,,0.39,-0.49,-0.56,-20,-2,2,0.63,,86,8778,26,27,77,1.067,54.3,616,4.79,12.7,39.2,1,41.8,4.39,20.8,0,0,1,1,0,547,1341,-28648,543,,,,,,,,,,,,,,,,
609003,1622988737655,,,,,,,,0.36,-0.52,-0.68,-20,-1,2,0.63,,86,8844,23,27,73,1.055,55.2,612,4.92,12.8,39.2,1,41.9,4.04,20.8,0,0,1,1,0,557,2524,-23623,552,,,,,,,,,,,,,,,,
609023,1622988737675,,,,,,,,0.39,-0.58,-0.72,-20,-0,1,0.7,,86,8915,23,27,69,1.054,55.1,623,4.79,12.8,39.2,1,41.7,3.73,20.8,0,0,1,1,0,582,-28648,2211,553,,,,,,,,,,,,,,,,
609043,1622988737694,0,1,48,42,25,29,-26,0.4,-0.7,-0.83,-21,0,3,0.81,0,86,9010,24,27,66,1.054,55.2,626,4.88,12.8,27.1,1,40.8,3.61,15.0,0,0,1,1,0,563,2524,1760,552,45.699718,4.910482,50.67,197.7,9,3,1.9,0,0.0,-1,0.0,0.0,0.0,0,6.76,10.1507
609063,1622988737714,,,,,,,,0.4,-0.75,-0.9,-21,1,2,0.85,,86,9057,24,27,65,1.053,54.9,628,4.86,12.8,27.1,1,40.6,3.53,15.0,0,0,1,1,0,570,-22519,12552,549,,,,,,,,,,,,,,,,
609083,1622988737734,,,,,,,,0.37,-0.8,-0.99,-22,2,2,0.88,,86,9014,24,27,64,1.043,55.6,631,4.84,12.8,27.1,1,40.3,3.57,15.0,0,0,1,1,0,566,-32248,-8188,557,,,,,,,,,,,,,,,,
609103,1622988737754,,,,,,,,0.36,-0.84,-1.02,-23,3,0,0.91,,86,8945,23,27,64,1.023,56.8,636,4.78,12.8,27.1,1,40.8,3.56,15.0,0,0,1,1,0,570,-8186,1760,568,,,,,,,,,,,,,,,,
609123,1622988737774,,,,,,,,0.33,-0.93,-1.1,-25,3,0,0.99,,86,8958,20,27,61,1.003,56.9,631,4.82,12.8,27.1,1,39.9,3.48,15.0,0,0,1,1,0,582,-506,243,569,,,,,,,,,,,,,,,,
609143,1622988737793,0,1,43,34,27,33,-22,0.31,-1.0,-1.06,-26,2,-1,1.05,0,86,9062,22,27,60,0.983,57.4,627,5.0,12.9,24.9,1,39.9,3.43,14.3,0,0,1,1,0,591,-506,8488,574,45.699707,4.910489,51.59,197.8,9,3,1.9,0,0.0,-1,0.0,,0.0,0,6.76,10.1524
609163,1622988737813,,,,,,,,0.35,-0.93,-1.12,-27,1,-1,0.99,,86,9282,26,27,59,0.977,57.4,637,4.96,12.8,24.9,1,40.5,3.46,14.3,0,0,1,1,0,571,-22519,8488,574,,,,,,,,,,,,,,,,
609183,1622988737833,,,,,,,,0.28,-0.78,-0.86,-28,-1,-3,0.83,,86,9503,26,27,62,0.985,57.6,645,4.86,12.8,24.9,1,41.4,3.91,14.3,0,0,1,1,0,562,-22519,-4035,576,,,,,,,,,,,,,,,,
609203,1622988737853,,,,,,,,0.25,-0.86,-0.95,-28,0,-3,0.89,,86,9522,25,27,62,0.992,57.6,645,4.82,12.8,24.9,1,41.4,3.97,14.3,0,0,1,1,0,587,2524,-1894,576,,,,,,,,,,,,,,,,
609223,1622988737873,,,,,,,,0.28,-0.86,-1.04,-29,1,-1,0.9,,86,9412,19,27,60,1.0,57.4,648,4.86,12.8,24.9,1,40.8,3.89,14.3,0,0,1,1,0,610,-2934,208,580,,,,,,,,,,,,,,,,
609243,1622988737896,-1,2,45,33,21,32,-22,0.23,-0.69,-0.84,-29,1,-2,0.73,0,86,9300,14,27,56,1.002,57.8,635,4.88,12.8,28.8,1,40.1,3.85,16.7,0,0,1,1,0,607,-9072,3472,578,45.699692,4.910491,51.25,197.7,9,3,1.9,0,0.0,-1,0.0,0.0,0.0,0,6.76,10.154
609263,1622988737916,,,,,,,,0.21,-0.7,-0.6,-29,-0,-3,0.73,,86,9213,12,27,51,1.0,58.7,640,4.87,12.8,28.8,1,38.8,3.52,16.7,0,0,1,1,0,611,2524,-13043,587,,,,,,,,,,,,,,,,
609283,1622988737936,,,,,,,,0.14,-0.61,-0.41,-30,0,-2,0.63,,86,9119,12,27,47,0.997,58.8,646,4.8,12.9,28.8,1,37.2,2.96,16.7,0,0,1,1,0,587,-18032,-16179,588,,,,,,,,,,,,,,,,
609303,1622988737956,,,,,,,,0.13,-0.69,-0.21,-30,-0,-3,0.71,,86,9128,12,27,44,0.994,58.2,641,4.91,12.9,28.8,1,35.2,2.9,16.7,0,0,1,1,0,569,-18032,6273,582,,,,,,,,,,,,,,,,
609323,1622988737976,,,,,,,,0.05,-0.69,-0.09,-31,-1,-5,0.69,,86,9088,12,27,42,0.988,58.9,637,4.89,12.8,28.8,1,33.9,2.86,16.7,0,0,1,1,0,574,-22359,2048,581,,,,,,,,,,,,,,,,
609343,1622988737996,-1,3,43,34,24,36,-18,-0.03,-0.68,-0.16,-31,0,-6,0.68,0,86,9119,12,27,41,0.979,58.4,638,4.8,12.9,20.3,1,33.3,2.83,11.9,0,0,1,1,0,572,-23623,-25872,584,45.699692,4.910491,51.25,197.7,9,3,1.9,0,0.0,-1,0.0,,0.0,0,6.76,10.1557
609363,1622988738004,,,,,,,,-0.09,-0.67,-0.06,-32,1,-6,0.68,,87,9075,12,27,39,0.97,58.0,641,4.9,12.9,20.3,1,32.0,2.77,11.9,0,0,1,1,0,571,-23623,2048,580,,,,,,,,,,,,,,,,
609383,1622988738024,,,,,,,,-0.12,-0.69,0.05,-32,1,-7,0.7,,87,8975,13,27,38,0.96,58.4,634,4.88,12.9,20.3,1,31.7,2.72,11.9,0,0,1,1,0,570,-18032,15649,584,,,,,,,,,,,,,,,,
609403,1622988738044,,,,,,,,-0.16,-0.66,0.13,-32,1,-6,0.68,,87,8856,13,27,38,0.945,58.8,632,4.91,12.9,20.3,1,31.7,2.72,11.9,0,0,1,1,0,567,2211,-25872,588,,,,,,,,,,,,,,,,
609423,1622988738064,,,,,,,,-0.12,-0.62,0.29,-32,-1,-7,0.63,,87,8652,13,27,38,0.922,57.8,628,4.9,12.9,20.3,1,31.7,2.72,11.9,0,0,1,1,0,563,-22359,-25872,587,,,,,,,,,,,,,,,,
609443,1622988738094,1,0,42,30,29,35,-13,-0.11,-0.73,0.1,-31,-1,-5,0.74,0,87,8457,13,27,37,0.899,58.4,628,4.83,12.8,18.2,1,31.3,2.64,10.7,0,0,1,1,0,562,-30159,15649,595,45.699665,4.910497,56.94,197.7,9,3,1.9,0,0.0,-1,0.0,0.0,0.0,0,6.76,10.1574
609463,1622988738114,,,,,,,,-0.1,-0.68,0.1,-31,-0,-5,0.68,,87,8270,14,27,38,0.876,58.9,608,4.85,12.9,18.2,1,31.2,2.51,10.7,0,0,1,1,0,564,-28648,8488,589,,,,,,,,,,,,,,,,
609483,1622988738134,,,,,,,,-0.19,-0.74,-0.07,-31,0,-3,0.77,,87,8109,16,27,39,0.854,57.8,600,4.88,12.8,18.2,1,31.2,2.42,10.7,0,0,1,1,0,556,-23623,-3210,578,,,,,,,,,,,,,,,,
609503,1622988738154,,,,,,,,-0.17,-0.75,-0.08,-31,-0,-1,0.77,,87,8102,16,27,40,0.838,58.2,590,4.82,12.9,18.2,1,31.8,2.42,10.7,0,0,1,1,0,539,6273,-23623,582,,,,,,,,,,,,,,,,
609523,1622988738174,,,,,,,,-0.19,-0.83,-0.24,-31,2,0,0.85,,87,8303,18,27,42,0.821,57.7,607,4.99,12.8,18.2,1,33.5,2.63,10.7,0,0,1,1,0,535,-32248,1,580,,,,,,,,,,,,,,,,
609543,1622988738196,0,1,39,27,29,37,-18,-0.28,-0.81,-0.3,-31,2,-1,0.86,0,87,8549,21,27,44,0.804,58.1,611,4.87,12.9,19.3,1,35.1,2.88,11.2,0,0,1,1,0,535,2524,2524,573,45.699654,4.9105,58.06,197.6,9,3,2.0,0,0.0,-1,0.0,,0.0,0,6.76,10.159
609563,1622988738216,,,,,,,,-0.29,-0.84,-0.27,-32,2,-3,0.89,,87,8873,25,27,48,0.789,57.8,632,4.89,12.9,19.3,1,37.3,3.03,11.2,0,0,1,1,0,536,-28648,12552,578,,,,,,,,,,,,,,,,
609583,1622988738236,,,,,,,,-0.33,-0.94,-0.42,-32,3,-4,1.0,,87,9195,31,27,53,0.788,57.7,650,4.84,12.8,19.3,1,39.6,3.8,11.2,0,0,1,1,0,538,-28648,1760,577,,,,,,,,,,,,,,,,
609603,1622988738256,,,,,,,,-0.26,-1.01,-0.55,-32,4,-1,1.04,,87,9450,36,27,60,0.787,57.2,662,4.8,12.8,19.3,1,41.1,3.92,11.2,0,0,1,1,0,547,-8186,1760,572,,,,,,,,,,,,,,,,
609623,1622988738276,,,,,,,,-0.33,-0.88,-0.36,-32,3,-1,0.94,,87,9704,38,27,65,0.786,57.4,660,4.87,12.8,19.3,1,41.0,4.25,11.2,0,0,1,1,0,545,1779,1760,575,,,,,,,,,,,,,,,,
609643,1622988738296,-0,2,38,29,28,39,-15,-0.29,-0.86,-0.27,-32,2,-2,0.91,0,87,9962,38,27,70,0.784,57.0,649,4.85,12.8,38.1,1,39.7,4.97,22.1,0,0,1,1,0,548,14504,1267,570,45.699635,4.9105,58.62,197.7,9,3,2.0,0,0.0,-1,0.0,0.0,0.0,0,6.76,10.1607
609663,1622988738316,,,,,,,,-0.14,-0.89,-0.42,-32,2,-1,0.9,,87,10296,39,27,72,0.791,57.2,651,4.84,12.8,38.1,1,40.8,5.29,22.1,0,0,1,1,0,567,2104,243,572,,,,,,,,,,,,,,,,
609683,1622988738336,,,,,,,,-0.04,-0.81,-0.55,-32,1,-1,0.81,,87,10245,39,27,73,0.797,57.5,661,4.85,12.8,38.1,1,40.5,5.26,22.1,0,0,1,1,0,623,6274,4956,570,,,,,,,,,,,,,,,,
609703,1622988738356,,,,,,,,0.04,-0.86,-0.49,-32,0,-3,0.86,,87,10096,39,27,75,0.803,57.5,645,4.82,12.8,38.1,1,39.9,5.35,22.1,0,0,1,1,0,667,1780,-7939,583,,,,,,,,,,,,,,,,
609723,1622988738376,,,,,,,,0.03,-0.88,-0.44,-32,-0,-4,0.88,,87,10026,39,27,76,0.81,58.0,651,4.93,12.8,38.1,1,39.6,5.34,22.1,0,0,1,1,0,585,-22519,26688,580,,,,,,,,,,,,,,,,
609743,1622988738396,-0,2,46,35,24,31,-18,0.06,-0.97,-0.52,-32,0,-4,0.97,0,87,9873,39,27,77,0.831,58.9,646,4.93,12.8,41.0,1,40.1,5.18,23.9,0,0,1,1,0,601,-28648,1010,589,45.699619,4.9105,58.02,197.8,9,3,2.0,0,0.0,-1,0.0,,0.0,0,6.77,10.1624
609763,1622988738416,,,,,,,,0.0,-0.96,-0.31,-32,-0,-6,0.96,,87,9775,39,27,79,0.851,59.0,653,4.82,12.7,41.0,1,39.9,5.1,23.9,0,0,1,1,0,623,6274,-3446,590,,,,,,,,,,,,,,,,
609783,1622988738436,,,,,,,,0.1,-1.02,-0.45,-32,0,-2,1.02,,87,9740,39,27,80,0.872,58.7,647,4.77,12.8,41.0,1,39.8,5.15,23.9,0,0,1,1,0,625,1780,30721,587,,,,,,,,,,,,,,,,
609803,1622988738456,,,,,,,,0.11,-0.96,-0.4,-31,0,-2,0.97,,87,9730,39,27,81,0.893,59.9,661,4.86,12.7,41.0,1,39.6,5.11,23.9,0,0,1,1,0,613,-30159,3395,595,,,,,,,,,,,,,,,,
609823,1622988738476,,,,,,,,0.14,-0.91,-0.51,-32,1,-1,0.92,,87,9760,39,27,81,0.904,59.8,651,4.79,12.8,41.0,1,39.6,5.22,23.9,0,0,1,1,0,629,-29984,-18357,600,,,,,,,,,,,,,,,,
609843,1622988738496,0,0,46,39,25,35,-20,0.09,-1.0,-0.3,-32,-0,-2,1.01,0,87,9884,39,27,81,0.911,59.6,656,4.8,12.7,39.4,1,39.6,5.25,23.8,0,0,1,1,0,636,-4035,-3584,608,45.699604,4.910498,59.33,197.9,9,3,1.9,0,0.0,-1,0.0,0.0,0.0,0,6.77,10.1641
609863,1622988738516,,,,,,,,0.13,-0.92,-0.44,-32,1,-4,0.93,,87,10086,40,27,81,0.919,60.5,661,4.91,12.8,39.4,1,39.8,5.28,23.8,0,0,1,1,0,594,10432,3,605,,,,,,,,,,,,,,,,
609883,1622988738536,,,,,,,,0.25,-0.83,-0.46,-33,-1,-3,0.87,,87,10245,40,27,80,0.927,61.3,656,4.85,12.8,39.4,1,40.2,5.21,23.8,0,0,1,1,0,621,-4035,17336,611,,,,,,,,,,,,,,,,
609903,1622988738556,,,,,,,,0.3,-0.67,-0.59,-33,1,-1,0.73,,87,10313,41,27,80,0.939,61.5,653,4.82,12.8,39.4,1,40.4,5.21,23.8,0,0,1,1,0,705,8488,-5120,616,,,,,,,,,,,,,,,,
609923,1622988738576,,,,,,,,0.37,-0.6,-0.57,-34,2,-3,0.7,,87,10451,42,27,79,0.954,62.5,667,4.86,12.7,39.4,1,40.9,5.21,23.8,0,0,1,1,0,679,8488,479,616,,,,,,,,,,,,,,,,
609943,1622988738597,0,1,51,38,22,32,-18,0.51,-0.68,-0.69,-33,3,0,0.85,0,87,10593,43,27,80,0.968,62.0,653,4.81,12.8,40.1,1,41.2,5.15,25.0,0,0,1,1,0,630,259,4909,620,45.699589,4.910496,61.14,198.0,9,3,1.9,0,0.0,-1,0.0,,0.0,0,6.77,10.1657
609963,1622988738617,,,,,,,,0.63,-0.58,-0.8,-34,3,2,0.86,,87,10581,44,27,80,0.983,61.7,668,4.84,12.8,40.1,1,41.2,5.16,25.0,0,0,1,1,0,664,243,-3488,617,,,,,,,,,,,,,,,,
609983,1622988738637,,,,,,,,0.69,-0.67,-0.9,-34,5,4,0.97,,87,10551,44,27,80,0.984,63.2,666,4.87,12.7,40.1,1,41.1,5.18,25.0,0,0,1,1,0,692,30208,1549,632,,,,,,,,,,,,,,,,
610003,1622988738657,,,,,,,,0.66,-0.78,-0.74,-34,1,1,1.03,,87,10653,44,27,80,0.975,63.2,647,4.82,12.8,40.1,1,41.3,5.11,25.0,0,0,1,1,0,638,4956,-3038,632,,,,,,,,,,,,,,,,
610023,1622988738677,,,,,,,,0.57,-0.87,-0.58,-34,3,2,1.04,,87,10714,44,27,80,0.966,63.3,660,4.82,12.7,40.1,1,41.5,5.07,25.0,0,0,1,1,0,660,-28304,3543,641,,,,,,,,,,,,,,,,
610043,1622988738695,0,0,51,40,24,33,-13,0.54,-0.81,-0.37,-34,3,1,0.97,0,87,10399,44,27,81,0.958,63.5,641,4.9,13.0,39.2,1,40.7,5.28,25.3,0,0,1,1,0,709,-30139,31988,635,45.699574,4.910493,63.14,198.1,9,3,1.9,0,0.0,-1,0.0,0.0,0.0,0,6.77,10.1674
610063,1622988738715,,,,,,,,0.5,-0.9,-0.5,-33,4,-0,1.03,,87,9699,46,27,83,0.954,64.0,660,4.91,13.0,39.2,1,39.0,5.29,25.3,0,0,1,1,0,659,-3820,31988,640,,,,,,,,,,,,,,,,
610083,1622988738735,,,,,,,,0.52,-0.99,-0.63,-33,5,-1,1.12,,87,9360,50,27,86,0.951,64.0,638,4.93,13.0,39.2,1,38.8,5.77,25.3,0,0,1,1,0,628,243,6208,641,,,,,,,,,,,,,,,,
610103,1622988738755,,,,,,,,0.47,-0.91,-0.74,-32,6,1,1.02,,87,9146,53,27,89,0.949,63.4,638,4.92,13.0,39.2,1,38.8,6.19,25.3,0,0,1,1,0,623,17336,24,643,,,,,,,,,,,,,,,,
610123,1622988738775,,,,,,,,0.46,-0.99,-0.85,-32,8,1,1.09,,87,8924,58,27,90,0.947,64.0,625,4.98,12.8,39.2,1,39.6,7.41,25.3,0,0,1,1,0,622,3395,-10251,640,,,,,,,,,,,,,,,,
610143,1622988738797,0,2,44,34,29,37,-7,0.38,-0.97,-0.94,-31,7,2,1.04,0,87,8684,65,27,91,0.966,63.9,602,4.91,12.8,46.6,1,41.9,7.3,29.7,0,0,1,1,0,619,17336,16599,639,45.699554,4.910489,64.25,197.9,9,3,1.9,0,0.0,-1,0.0,,0.0,0,6.77,10.1691
610163,1622988738817,,,,,,,,0.42,-1.03,-1.03,-31,6,1,1.11,,87,9124,70,27,91,1.005,63.7,597,4.86,12.8,46.6,1,38.8,7.49,29.7,0,0,1,1,0,631,506,2024,641,,,,,,,,,,,,,,,,
610183,1622988738837,,,,,,,,0.4,-1.08,-1.11,-29,7,0,1.15,,87,8924,72,27,91,1.045,65.1,609,4.83,12.8,46.6,1,39.6,7.41,29.7,0,0,1,1,0,706,506,-2826,651,,,,,,,,,,,,,,,,
610203,1622988738857,,,,,,,,0.38,-1.14,-1.08,-28,5,-1,1.2,,87,8724,72,27,91,1.085,64.7,594,4.83,12.8,46.6,1,41.5,5.18,29.7,0,0,1,1,0,677,-2580,-3578,647,,,,,,,,,,,,,,,,
610223,1622988738877,,,,,,,,0.45,-1.05,-0.93,-27,3,0,1.15,,87,8596,72,27,91,1.127,65.1,586,4.89,12.8,46.6,1,42.7,7.33,29.7,0,0,1,1,0,675,-5120,1549,646,,,,,,,,,,,,,,,,
610243,1622988738897,0,1,46,38,23,31,-7,0.47,-0.96,-1.01,-26,3,1,1.07,0,87,8526,72,27,92,1.174,65.5,585,4.8,12.7,44.0,1,43.2,7.17,28.6,0,0,1,1,0,667,-10251,-10344,655,45.699539,4.910482,64.81,198.1,9,3,1.9,0,0.0,-1,0.0,0.0,0.0,0,6.77,10.1707
610263,1622988738917,,,,,,,,0.46,-0.97,-0.82,-25,2,1,1.08,,87,8449,72,27,92,1.222,65.9,567,4.9,12.8,44.0,1,42.6,6.9,28.6,0,0,1,1,0,672,-10251,16118,659,,,,,,,,,,,,,,,,
610283,1622988738937,,,,,,,,0.54,-0.84,-0.72,-24,2,3,1.0,,87,8378,72,27,93,1.269,66.3,574,4.85,12.7,44.0,1,41.4,6.65,28.6,0,0,1,1,0,676,-2830,3543,663,,,,,,,,,,,,,,,,
610303,1622988738957,,,,,,,,0.51,-0.9,-0.83,-24,1,-1,1.03,,87,8329,72,27,93,1.301,65.8,555,4.83,12.8,44.0,1,40.7,6.4,28.6,0,0,1,1,0,680,-388,-10399,658,,,,,,,,,,,,,,,,
610323,1622988738977,,,,,,,,0.56,-0.9,-0.76,-23,1,1,1.06,,87,8249,72,27,94,1.308,66.8,564,4.91,12.7,44.0,1,39.3,6.17,28.6,0,0,1,1,0,688,8958,6208,667,,,,,,,,,,,,,,,,
610343,1622988738997,-0,2,46,41,23,29,-8,0.48,-0.9,-0.74,-22,1,-1,1.02,0,87,8194,72,27,94,1.316,67.2,553,4.8,12.8,34.0,1,38.5,5.92,22.8,0,0,1,1,0,688,-2830,14342,672,45.699539,4.910482,64.81,198.1,9,3,1.9,0,0.0,-1,0.0,,0.0,0,6.78,10.1724
610363,1622988739003,,,,,,,,0.49,-0.87,-0.85,-21,2,1,1.0,,87,8130,72,27,94,1.323,67.9,551,4.93,12.7,34.0,1,37.5,5.7,22.8,0,0,1,1,0,694,-2345,24,671,,,,,,,,,,,,,,,,
610383,1622988739023,,,,,,,,0.54,-0.9,-0.82,-21,1,-0,1.04,,87,8102,72,27,94,1.329,67.6,559,4.79,12.8,34.0,1,37.1,5.65,22.8,0,0,1,1,0,691,-2830,16599,674,,,,,,,,,,,,,,,,
610403,1622988739043,,,,,,,,0.48,-0.88,-0.92,-20,1,0,1.0,,87,8113,72,27,95,1.281,68.3,550,4.82,12.8,34.0,1,37.4,5.66,22.8,0,0,1,1,0,703,8958,8010,683,,,,,,,,,,,,,,,,
610423,1622988739063,,,,,,,,0.48,-0.77,-0.67,-20,1,1,0.91,,87,8145,72,27,94,1.233,68.8,548,4.92,12.8,34.0,1,37.8,5.73,22.8,0,0,1,1,0,702,31988,-20693,688,,,,,,,,,,,,,,,,
610443,1622988739097,1,2,45,40,23,28,-9,0.42,-0.71,-0.78,-19,1,0,0.82,0,87,8162,72,27,94,1.184,69.4,561,4.8,12.8,31.7,1,38.1,5.77,21.8,0,0,1,1,0,705,-2345,-12152,686,45.699505,4.910464,69.13,198.2,9,3,1.9,0,0.0,-1,0.0,0.0,0.0,0,6.78,10.1741
610463,1622988739117,,,,,,,,0.49,-0.6,-0.74,-19,1,2,0.77,,87,8223,72,27,94,1.136,68.8,552,4.86,12.9,31.7,1,38.9,5.92,21.8,0,0,1,1,0,704,6208,-3888,688,,,,,,,,,,,,,,,,
610483,1622988739137,,,,,,,,0.41,-0.65,-0.75,-18,1,0,0.77,,87,8259,72,27,94,1.085,69.7,555,4.8,12.8,31.7,1,39.5,5.96,21.8,0,0,1,1,0,715,3543,-13312,697,,,,,,,,,,,,,,,,
610503,1622988739157,,,,,,,,0.48,-0.61,-0.52,-18,0,0,0.77,,87,8340,72,27,94,1.034,70.2,572,4.94,12.8,31.7,1,40.7,6.12,21.8,0,0,1,1,0,718,-1,16118,702,,,,,,,,,,,,,,,,
610523,1622988739177,,,,,,,,0.47,-0.58,-0.65,-18,1,1,0.75,,87,8453,72,27,94,0.984,70.8,575,4.87,12.7,31.7,1,42.4,6.35,21.8,0,0,1,1,0,725,24,-388,699,,,,,,,,,,,,,,,,
610543,1622988739195,1,1,46,40,24,28,-7,0.44,-0.57,-0.76,-17,1,-1,0.72,0,87,8522,72,27,93,0.933,70.2,572,4.89,12.9,35.5,1,43.2,6.39,25.2,0,0,1,1,0,731,11069,-3344,702,45.69949,4.910453,70.93,198.2,9,3,1.9,0,0.0,-1,0.0,,0.0,0,6.78,10.1757
610563,1622988739215,,,,,,,,0.47,-0.45,-0.72,-17,-0,0,0.65,,87,8569,72,27,93,0.916,71.3,583,4.86,12.8,35.5,1,42.7,6.4,25.2,0,0,1,1,0,728,14342,-2358,713,,,,,,,,,,,,,,,,
610583,1622988739235,,,,,,,,0.49,-0.4,-0.66,-17,0,1,0.63,,87,8585,72,27,93,0.905,71.5,587,4.86,12.8,35.5,1,42.6,6.4,25.2,0,0,1,1,0,730,16599,-2830,715,,,,,,,,,,,,,,,,
610603,1622988739255,,,,,,,,0.46,-0.47,-0.77,-16,1,0,0.65,,87,8616,72,27,92,0.893,71.5,582,4.88,12.8,35.5,1,42.4,6.36,25.2,0,0,1,1,0,732,687,-3580,715,,,,,,,,,,,,,,,,
610623,1622988739275,,,,,,,,0.41,-0.46,-0.71,-16,1,-1,0.62,,87,8688,72,27,92,0.882,72.0,582,4.9,12.8,35.5,1,41.7,6.37,25.2,0,0,1,1,0,738,-2830,-2826,712,,,,,,,,,,,,,,,,
610643,1622988739295,0,1,46,41,23,26,-4,0.4,-0.46,-0.5,-15,0,-1,0.61,0,87,8745,73,27,92,0.879,72.2,592,4.92,12.8,35.5,1,41.2,6.38,25.8,0,0,1,1,0,745,16118,-31066,722,45.69947,4.910441,72.7,198.1,9,3,1.9,0,0.0,-1,0.0,0.0,0.0,0,6.78,10.1774
610663,1622988739315,,,,,,,,0.39,-0.35,-0.39,-14,1,1,0.52,,87,8757,73,27,92,0.879,72.8,585,4.86,12.8,35.5,1,41.1,6.39,25.8,0,0,1,1,0,746,-13312,-30694,728,,,,,,,,,,,,,,,,
610683,1622988739335,,,,,,,,0.42,-0.26,-0.34,-13,1,3,0.49,,87,8765,73,27,91,0.879,73.6,609,4.84,12.8,35.5,1,41.1,6.34,25.8,0,0,1,1,0,751,2790,-3450,736,,,,,,,,,,,,,,,,
610703,1622988739355,,,,,,,,0.44,-0.25,-0.48,-13,2,3,0.5,,87,8819,73,27,92,0.88,74.3,604,4.8,12.7,35.5,1,40.5,6.4,25.8,0,0,1,1,0,757,-1,-2826,743,,,,,,,,,,,,,,,,
610723,1622988739375,,,,,,,,0.46,-0.3,-0.6,-13,3,4,0.55,,87,8861,73,27,91,0.883,74.2,590,4.9,12.8,35.5,1,40.2,5.21,25.8,0,0,1,1,0,757,250,-10218,742,,,,,,,,,,,,,,,,
610743,1622988739397,-1,0,46,41,25,26,-5,0.51,-0.37,-0.72,-13,3,4,0.63,0,87,8945,73,27,91,0.886,74.4,598,4.91,12.8,35.6,1,39.4,6.37,26.6,0,0,1,1,0,765,250,-10218,744,45.699451,4.910429,74.54,198.1,9,3,1.9,0,0.0,-1,0.0,,0.0,0,6.78,10.1791
610763,1622988739417,,,,,,,,0.56,-0.36,-0.83,-12,4,5,0.67,,87,8979,73,27,91,0.89,74.9,605,4.87,12.8,35.6,1,39.0,6.38,26.6,0,0,1,1,0,766,-2918,-10214,749,,,,,,,,,,,,,,,,
610783,1622988739437,,,,,,,,0.59,-0.42,-0.92,-12,5,5,0.73,,87,9001,73,27,91,0.894,74.3,595,4.93,12.8,35.6,1,38.8,6.39,26.6,0,0,1,1,0,771,-2918,-2570,745,,,,,,,,,,,,,,,,
610803,1622988739457,,,,,,,,0.65,-0.41,-1.01,-12,5,6,0.77,,87,8984,73,27,91,0.898,74.2,605,4.87,12.7,35.6,1,38.8,6.38,26.6,0,0,1,1,0,776,-2918,-3368,755,,,,,,,,,,,,,,,,
610823,1622988739477,,,,,,,,0.7,-0.44,-1.1,-12,5,5,0.83,,87,9044,73,27,91,0.902,75.7,610,4.88,12.8,35.6,1,38.8,6.39,26.6,0,0,1,1,0,779,-2918,-2574,757,,,,,,,,,,,,,,,,
610843,1622988739497,1,2,45,42,25,27,-3,0.75,-0.39,-1.12,-11,5,6,0.85,0,87,9115,73,27,91,0.906,76.0,619,4.92,12.8,35.4,1,38.8,6.39,26.9,0,0,1,1,0,777,-2918,-2826,760,45.699432,4.910415,76.6,197.9,9,3,1.9,0,0.0,-1,0.0,0.0,0.0,0,6.79,10.1807
610863,1622988739517,,,,,,,,0.75,-0.26,-1.05,-11,5,7,0.79,,88,9182,73,27,91,0.909,76.8,629,4.9,12.8,35.4,1,38.8,6.39,26.9,0,0,1,1,0,782,-2918,6389,768,,,,,,,,,,,,,,,,
610883,1622988739537,,,,,,,,0.7,-0.17,-0.79,-10,4,6,0.72,,88,9195,73,27,91,0.914,77.0,636,4.82,12.7,35.4,1,38.8,6.39,26.9,0,0,1,1,0,790,-2918,-2426,764,,,,,,,,,,,,,,,,
610903,1622988739557,,,,,,,,0.63,-0.08,-0.56,-9,3,6,0.63,,88,9168,73,27,91,0.918,76.6,637,4.86,12.8,35.4,1,38.8,6.39,26.9,0,0,1,1,0,787,-2918,-10216,766,,,,,,,,,,,,,,,,
610923,1622988739577,,,,,,,,0.57,-0.13,-0.37,-9,2,4,0.58,,88,9191,73,27,91,0.923,77.0,638,4.82,12.7,35.4,1,38.8,6.39,26.9,0,0,1,1,0,799,-2918,-2540,775,,,,,,,,,,,,,,,,
610943,1622988739597,-1,2,45,43,24,26,-2,0.51,-0.19,-0.38,-9,2,4,0.55,0,88,9231,73,27,91,0.927,78.2,627,4.88,12.8,35.0,1,38.8,6.39,27.2,0,0,1,1,0,801,-2918,-13072,782,45.699417,4.9104,78.77,197.9,9,3,2.0,0,0.0,-1,0.0,,0.0,0,6.79,10.1824
610963,1622988739617,,,,,,,,0.57,-0.19,-0.51,-8,2,5,0.6,,88,9333,73,27,91,0.931,77.8,630,4.83,12.8,35.0,1,38.9,6.39,27.2,0,0,1,1,0,800,-2918,204,778,,,,,,,,,,,,,,,,
610983,1622988739637,,,,,,,,0.6,-0.11,-0.3,-8,1,3,0.61,,88,9422,73,27,91,0.933,78.2,637,4.87,12.7,35.0,1,38.9,6.39,27.2,0,0,1,1,0,805,-2918,-388,783,,,,,,,,,,,,,,,,
611003,1622988739657,,,,,,,,0.54,-0.16,-0.22,-8,0,2,0.56,,88,9403,73,27,91,0.935,78.4,635,4.84,12.7,35.0,1,38.9,6.39,27.2,0,0,1,1,0,813,-2918,-23490,784,,,,,,,,,,,,,,,,
611023,1622988739677,,,,,,,,0.56,-0.2,-0.37,-7,1,3,0.59,,88,9412,73,27,91,0.938,79.4,635,4.86,12.8,35.0,1,38.9,6.39,27.2,0,0,1,1,0,814,-2918,-2358,791,,,,,,,,,,,,,,,,
611043,1622988739696,0,2,45,43,25,26,-2,0.58,-0.15,-0.5,-7,1,4,0.6,0,88,9464,73,27,91,0.939,80.1,632,4.88,12.7,34.6,1,38.9,6.39,28.0,0,0,1,1,0,813,1018,-4091,801,45.699398,4.910386,80.26,197.7,9,3,2.0,0,0.0,-1,0.0,0.0,0.0,0,6.79,10.184
611063,1622988739716,,,,,,,,0.51,-0.17,-0.29,-7,0,2,0.54,,88,9561,73,27,91,0.94,82.6,642,4.82,12.8,34.6,1,39.0,6.41,28.0,0,0,1,1,0,825,1037,-2830,790,,,,,,,,,,,,,,,,
611083,1622988739736,,,,,,,,0.54,-0.27,-0.44,-7,-1,2,0.61,,88,9630,73,27,91,0.94,80.2,640,4.82,12.8,34.6,1,39.2,6.43,28.0,0,0,1,1,0,819,-7436,1037,806,,,,,,,,,,,,,,,,
611103,1622988739756,,,,,,,,0.51,-0.17,-0.23,-6,-1,2,0.54,,88,9640,72,27,90,0.94,80.7,651,4.83,12.7,34.6,1,39.2,6.39,28.0,0,0,1,1,0,829,204,3462,807,,,,,,,,,,,,,,,,
611123,1622988739776,,,,,,,,0.49,-0.22,-0.38,-6,-1,3,0.54,,88,9664,65,27,91,0.938,80.7,655,4.82,12.7,34.6,1,39.2,6.45,28.0,0,0,1,1,0,840,-13312,-2830,807,,,,,,,,,,,,,,,,
611143,1622988739796,2,1,44,42,24,25,-2,0.51,-0.16,-0.31,-6,-0,3,0.53,0,88,9689,53,27,90,0.932,80.7,645,4.89,12.8,35.3,1,39.3,6.41,28.7,0,0,1,1,0,829,-4059,-2356,817,45.699379,4.91037,82.16,197.6,9,3,2.0,0,0.0,-1,0.0,,0.0,0,6.79,10.1857
611163,1622988739816,,,,,,,,0.54,-0.19,-0.29,-6,-1,3,0.57,,88,9755,39,27,88,0.925,81.6,664,4.85,12.8,35.3,1,39.3,6.13,28.7,0,0,1,1,0,834,31988,-30694,816,,,,,,,,,,,,,,,,
611183,1622988739836,,,,,,,,0.59,-0.18,-0.1,-5,-3,2,0.62,,88,9786,23,27,82,0.918,80.8,644,4.88,12.8,35.3,1,39.4,5.18,28.7,0,0,1,1,0,841,-12152,-3344,808,,,,,,,,,,,,,,,,
611203,1622988739856,,,,,,,,0.53,-0.27,-0.26,-5,-2,2,0.59,,88,9635,7,27,71,0.911,82.3,642,4.89,12.8,35.3,1,41.1,4.06,28.7,0,0,1,1,0,855,-22796,-22795,827,,,,,,,,,,,,,,,,
611223,1622988739876,,,,,,,,0.52,-0.28,-0.4,-5,-0,3,0.59,,88,9417,4,27,61,0.9,82.4,642,4.91,12.8,35.3,1,41.1,3.38,28.7,0,0,1,1,0,839,-4091,-23308,824,,,,,,,,,,,,,,,,
611243,1622988739898,11,7,43,41,28,26,1,0.48,-0.32,-0.53,-5,1,4,0.58,0,88,9245,4,27,53,0.89,81.7,639,4.87,12.8,17.7,1,39.6,3.38,14.5,0,0,1,1,0,829,-1,-30694,817,45.69936,4.910355,84.09,197.6,9,3,1.9,0,0.0,-1,0.0,0.0,0.0,0,6.8,10.1874
611263,1622988739918,,,,,,,,0.44,-0.23,-0.5,-4,3,6,0.49,,88,9227,4,27,47,0.879,81.3,654,4.88,12.8,17.7,1,37.4,3.03,14.5,0,0,1,1,0,822,-3344,-2358,820,,,,,,,,,,,,,,,,
611283,1622988739938,,,,,,,,0.36,-0.32,-0.55,-4,2,7,0.48,,88,9010,4,27,42,0.867,81.3,653,4.8,12.8,17.7,1,33.8,2.86,14.5,0,0,1,1,0,815,16118,1524,803,,,,,,,,,,,,,,,,
611303,1622988739958,,,,,,,,0.32,-0.37,-0.6,-3,3,7,0.49,,88,8798,4,27,39,0.851,80.8,644,4.81,12.7,17.7,1,32.0,2.77,14.5,0,0,1,1,0,814,-2560,204,804,,,,,,,,,,,,,,,,
611323,1622988739978,,,,,,,,0.23,-0.38,-0.72,-3,4,5,0.45,,88,8620,4,27,36,0.835,80.6,638,4.8,12.8,17.7,1,31.1,2.64,14.5,0,0,1,1,0,803,16118,-2826,799,,,,,,,,,,,,,,,,
611343,1622988739998,22,14,35,32,33,33,1,0.18,-0.3,-0.72,-3,4,5,0.35,0,88,8419,4,27,35,0.818,80.7,626,4.88,12.9,12.3,1,30.6,2.51,9.8,0,0,1,1,0,789,-23490,5344,807,45.69936,4.910355,84.09,197.6,9,3,1.9,0,0.0,-1,0.0,,0.0,0,6.8,10.189
611363,1622988740006,,,,,,,,0.1,-0.38,-0.78,-2,3,5,0.39,,88,8366,4,27,33,0.803,79.8,621,4.9,12.7,12.3,1,29.9,2.35,9.8,0,0,1,1,0,774,-30694,-23308,781,,,,,,,,,,,,,,,,
611383,1622988740026,,,,,,,,-0.01,-0.28,-0.77,-2,2,4,0.28,,88,8363,4,26,32,0.797,80.1,609,4.88,12.9,12.3,1,29.7,2.33,9.8,0,0,1,1,0,770,-2540,-3038,801,,,,,,,,,,,,,,,,
611403,1622988740046,,,,,,,,0.02,-0.24,-0.87,-2,2,4,0.24,,88,8389,4,26,30,0.791,79.5,617,4.91,12.8,12.3,1,28.9,2.37,9.8,0,0,1,1,0,766,-2540,7413,795,,,,,,,,,,,,,,,,
611423,1622988740066,,,,,,,,-0.11,-0.23,-0.93,-3,1,2,0.26,,88,8393,4,26,30,0.785,78.6,629,4.9,12.8,12.3,1,28.9,2.37,9.8,0,0,1,1,0,768,-10214,8838,789,,,,,,,,,,,,,,,,
611443,1622988740096,25,16,25,23,35,35,-0,-0.1,-0.18,-0.99,-3,0,3,0.21,0,88,8363,4,26,29,0.779,78.3,621,4.88,12.9,11.5,1,28.5,2.35,9.0,0,0,1,1,0,748,-2426,-10216,780,45.699326,4.910323,83.94,197.5,9,3,2.0,0,0.0,-1,0.0,0.0,0.0,0,6.8,10.1907
611463,1622988740116,,,,,,,,-0.19,-0.31,-1.04,-3,-0,2,0.36,,88,8366,4,26,28,0.79,76.7,617,4.88,12.8,11.5,1,28.1,2.36,9.0,0,0,1,1,0,734,-22795,-10218,776,,,,,,,,,,,,,,,,
611483,1622988740136,,,,,,,,-0.22,-0.23,-0.96,-2,-1,2,0.32,,88,8333,4,26,28,0.802,76.8,606,4.87,12.9,11.5,1,28.1,2.32,9.0,0,0,1,1,0,766,-2570,-31068,760,,,,,,,,,,,,,,,,
611503,1622988740156,,,,,,,,-0.29,-0.15,-1.05,-2,0,4,0.33,,87,8337,4,26,27,0.814,76.0,618,4.9,12.8,11.5,1,27.7,2.34,9.0,0,0,1,1,0,723,8838,-22796,761,,,,,,,,,,,,,,,,
611523,1622988740176,,,,,,,,-0.34,-0.01,-0.89,-2,0,3,0.34,,87,8325,4,26,26,0.826,74.8,603,4.86,12.9,11.5,1,27.3,2.34,9.0,0,0,1,1,0,731,-4096,-13580,741,,,,,,,,,,,,,,,,
611543,1622988740199,25,17,23,23,35,34,1,-0.42,-0.04,-0.95,-2,1,2,0.43,0,87,8285,4,26,26,0.842,74.0,602,4.92,12.8,12.2,1,27.3,2.31,8.9,0,0,1,1,0,739,-2356,19188,737,45.699306,4.910308,81.14,197.5,9,3,2.0,0,0.0,-1,0.0,,0.0,0,6.8,10.1924
611563,1622988740219,,,,,,,,-0.42,0.08,-0.71,-1,0,1,0.43,,87,8241,4,26,25,0.859,74.1,610,4.9,12.9,12.2,1,27.0,2.28,8.9,0,0,1,1,0,713,-2314,8010,723,,,,,,,,,,,,,,,,
611583,1622988740239,,,,,,,,-0.47,-0.08,-0.82,-1,1,2,0.47,,87,8155,4,26,25,0.876,72.6,606,4.87,12.8,12.2,1,27.0,2.22,8.9,0,0,1,1,0,661,-4091,-13312,718,,,,,,,,,,,,,,,,
611603,1622988740259,,,,,,,,-0.45,0.01,-0.91,-1,1,3,0.45,,87,7982,4,26,25,0.893,72.6,605,4.91,12.9,12.2,1,26.9,2.11,8.9,0,0,1,1,0,691,-2918,-2345,726,,,,,,,,,,,,,,,,
611623,1622988740279,,,,,,,,-0.45,0.07,-0.79,-1,-1,2,0.45,,87,7760,4,26,25,0.905,71.5,591,4.91,12.9,12.2,1,26.7,2.11,8.9,0,0,1,1,0,712,-2560,-2830,711,,,,,,,,,,,,,,,,
611643,1622988740298,31,19,23,25,39,38,4,-0.48,0.16,-0.68,-0,-0,1,0.5,0,87,7612,4,26,25,0.915,71.2,575,4.95,12.9,10.4,1,26.6,2.11,7.4,0,0,1,1,0,687,204,-2826,703,45.699291,4.910293,78.64,197.5,9,3,2.0,0,0.0,-1,0.0,0.0,0.0,0,6.8,10.194
611663,1622988740318,,,,,,,,-0.48,0.22,-0.56,0,-1,1,0.53,,87,7524,4,26,24,0.924,69.7,562,4.9,12.9,10.4,1,26.5,2.06,7.4,0,0,1,1,0,681,-3584,31988,701,,,,,,,,,,,,,,,,
611683,1622988740338,,,,,,,,-0.53,0.24,-0.58,1,-0,2,0.58,,87,7509,4,26,24,0.934,69.8,551,4.92,12.9,10.4,1,26.5,2.06,7.4,0,0,1,1,0,677,-10448,-2830,697,,,,,,,,,,,,,,,,
611703,1622988740358,,,,,,,,-0.57,0.29,-0.52,1,-2,1,0.64,,87,7518,4,26,24,0.937,69.1,552,4.9,12.8,10.4,1,26.5,2.06,7.4,0,0,1,1,0,651,6208,-30207,685,,,,,,,,,,,,,,,,
611723,1622988740378,,,,,,,,-0.58,0.34,-0.63,1,-1,2,0.68,,87,7476,4,25,23,0.933,68.8,556,4.92,12.8,10.4,1,26.4,2.06,7.4,0,0,1,1,0,661,24,-1346,679,,,,,,,,,,,,,,,,
611743,1622988740400,35,21,20,22,40,38,1,-0.59,0.36,-0.74,2,-0,3,0.69,0,87,7381,4,25,24,0.929,67.3,538,4.98,13.0,10.1,1,26.3,2.06,6.9,0,0,1,1,0,639,-10346,-28304,667,45.699276,4.910278,75.25,197.5,9,3,2.0,0,0.0,-1,0.0,,0.0,0,6.81,10.1957
611763,1622988740420,,,,,,,,-0.68,0.39,-0.79,2,-0,3,0.78,,87,7214,4,25,23,0.926,67.3,530,4.91,12.9,10.1,1,26.2,2.02,6.9,0,0,1,1,0,645,1549,17336,675,,,,,,,,,,,,,,,,
611783,1622988740440,,,,,,,,-0.72,0.38,-0.73,2,1,2,0.81,,87,7070,4,25,23,0.923,66.6,518,4.85,12.8,10.1,1,26.0,2.02,6.9,0,0,1,1,0,653,31988,3395,654,,,,,,,,,,,,,,,,
611803,1622988740460,,,,,,,,-0.72,0.47,-0.68,2,1,2,0.86,,87,7046,4,25,23,0.92,65.9,515,4.91,12.8,10.1,1,26.0,2.02,6.9,0,0,1,1,0,618,-3038,269,659,,,,,,,,,,,,,,,,
611823,1622988740480,,,,,,,,-0.77,0.45,-0.79,2,3,3,0.9,,87,7048,4,25,23,0.917,64.6,527,4.94,12.9,10.1,1,26.0,2.02,6.9,0,0,1,1,0,595,-8429,-3820,652,,,,,,,,,,,,,,,,
611843,1622988740498,35,23,20,21,40,38,-1,-0.77,0.48,-0.59,1,1,1,0.91,0,87,6949,4,25,22,0.915,64.0,510,4.84,12.8,10.1,1,26.0,1.97,6.5,0,0,1,1,0,573,-2830,-12040,640,45.699257,4.910264,72.21,197.3,9,3,2.0,0,0.0,-1,0.0,0.0,0.0,0,6.81,10.1974
611863,1622988740518,,,,,,,,-0.81,0.46,-0.71,1,3,4,0.93,,87,6734,4,25,22,0.912,62.6,498,4.88,12.8,10.1,1,26.0,2.01,6.5,0,0,1,1,0,589,135,-29984,626,,,,,,,,,,,,,,,,
611883,1622988740538,,,,,,,,-0.83,0.49,-0.48,1,0,1,0.96,,87,6562,4,25,23,0.911,62.0,488,4.91,13.0,10.1,1,26.2,2.0,6.5,0,0,1,1,0,595,130,12552,621,,,,,,,,,,,,,,,,
611903,1622988740558,,,,,,,,-0.85,0.46,-0.39,1,-3,-1,0.97,,87,6414,4,25,23,0.911,62.0,485,4.93,13.0,10.1,1,26.3,2.0,6.5,0,0,1,1,0,588,26688,15649,617,,,,,,,,,,,,,,,,
611923,1622988740578,,,,,,,,-0.94,0.48,-0.52,1,1,1,1.06,,87,6392,4,25,23,0.911,61.3,479,4.91,13.0,10.1,1,26.3,2.0,6.5,0,0,1,1,0,587,-3446,1760,612,,,,,,,,,,,,,,,,
611943,1622988740600,35,25,20,20,40,39,-0,-0.97,0.52,-0.64,1,4,3,1.1,0,87,6392,4,25,23,0.91,61.0,463,4.87,12.8,9.7,1,26.3,2.0,5.9,0,0,1,1,0,560,-768,-506,600,45.699242,4.910251,68.37,197.2,9,3,2.0,0,0.0,-1,0.0,,0.0,0,6.81,10.199
611963,1622988740620,,,,,,,,-0.89,0.5,-0.42,1,0,-0,1.02,,87,6334,4,25,23,0.909,60.0,455,4.93,12.9,9.7,1,26.3,1.99,5.9,0,0,1,1,0,540,17344,-32248,599,,,,,,,,,,,,,,,,
611983,1622988740640,,,,,,,,-0.87,0.37,-0.22,0,-2,-4,0.95,,87,6281,4,25,23,0.907,59.5,452,4.92,12.8,9.7,1,26.4,1.99,5.9,0,0,1,1,0,525,-16179,-28648,578,,,,,,,,,,,,,,,,
612003,1622988740660,,,,,,,,-0.85,0.29,-0.24,0,-5,-4,0.9,,87,6165,4,25,23,0.904,58.2,448,4.96,12.8,9.7,1,26.4,1.99,5.9,0,0,1,1,0,531,1,2104,580,,,,,,,,,,,,,,,,
612023,1622988740680,,,,,,,,-0.82,0.22,-0.06,-0,-7,-6,0.85,,87,5996,4,25,24,0.902,57.6,439,4.91,12.8,9.7,1,26.6,2.04,5.9,0,0,1,1,0,521,-8186,6274,576,,,,,,,,,,,,,,,,
612043,1622988740697,38,24,20,19,40,39,0,-0.61,0.26,0.11,-1,-13,-8,0.66,0,87,5821,4,25,24,0.9,56.6,415,4.97,12.9,9.5,1,25.9,2.04,5.5,0,0,1,1,0,499,-28648,-30064,573,45.69923,4.910239,64.63,197.1,9,3,2.0,0,0.0,-1,0.0,0.0,0.0,0,6.81,10.2007
612063,1622988740717,,,,,,,,-0.6,0.18,0.27,-1,-10,-6,0.62,,87,5673,4,25,25,0.899,56.3,409,4.93,13.0,9.5,1,25.6,2.11,5.5,0,0,1,1,0,511,2211,10408,561,,,,,,,,,,,,,,,,
612083,1622988740737,,,,,,,,-0.7,0.22,0.08,-1,-4,-3,0.73,,87,5592,4,25,25,0.898,55.7,415,4.86,12.8,9.5,1,25.3,2.11,5.5,0,0,1,1,0,454,2216,17144,549,,,,,,,,,,,,,,,,
612103,1622988740757,,,,,,,,-0.76,0.18,-0.09,-1,-3,-3,0.78,,87,5688,4,25,26,0.898,55.1,431,4.81,12.8,9.5,1,25.9,2.1,5.5,0,0,1,1,0,407,-2336,486,550,,,,,,,,,,,,,,,,
612123,1622988740777,,,,,,,,-0.69,0.15,0.08,-2,-8,-6,0.7,,87,5640,4,25,27,0.899,54.1,423,4.92,13.0,9.5,1,25.9,2.09,5.5,0,0,1,1,0,355,-32248,2790,541,,,,,,,,,,,,,,,,
612143,1622988740795,38,24,19,18,40,40,2,-0.71,0.04,0.24,-2,-8,-6,0.71,0,87,5602,4,25,27,0.898,52.6,420,4.96,13.0,10.0,1,25.8,2.09,5.4,0,0,1,1,0,320,6274,2560,532,45.699215,4.910227,60.98,197.1,9,3,2.0,0,0.0,-1,0.0,,0.0,0,6.81,10.2024
612163,1622988740815,,,,,,,,-0.8,0.01,0.06,-2,-3,-2,0.8,,87,5442,4,25,27,0.898,53.1,407,4.9,12.9,10.0,1,25.2,2.1,5.4,0,0,1,1,0,301,-22519,3346,525,,,,,,,,,,,,,,,,
612183,1622988740835,,,,,,,,-0.73,0.04,0.22,-2,-9,-7,0.73,,87,5302,4,25,28,0.899,52.7,406,4.85,13.0,10.0,1,25.0,2.1,5.4,0,0,1,1,0,298,2088,-25856,527,,,,,,,,,,,,,,,,
612203,1622988740855,,,,,,,,-0.76,-0.09,0.03,-2,-4,-2,0.77,,87,5114,4,25,29,0.901,51.4,378,4.9,12.9,10.0,1,24.6,2.11,5.4,0,0,1,1,0,292,-3856,26880,514,,,,,,,,,,,,,,,,
612223,1622988740875,,,,,,,,-0.84,-0.03,0.2,-2,-4,-2,0.84,,87,4973,4,25,30,0.904,50.8,372,4.91,13.0,10.0,1,24.3,2.1,5.4,0,0,1,1,0,280,11560,250,503,,,,,,,,,,,,,,,,
612243,1622988740899,36,24,18,19,41,40,7,-0.91,0.05,0.35,-1,-5,-3,0.91,0,87,4828,4,25,30,0.907,50.1,367,4.9,12.9,9.4,1,23.0,2.09,4.7,0,0,1,1,0,260,248,-1281,503,45.6992,4.910214,62.02,196.7,9,3,2.0,0,0.0,-1,0.0,0.0,0.0,0,6.82,10.2041
612263,1622988740919,,,,,,,,-0.94,0.09,0.49,-1,-7,-4,0.94,,87,4664,4,25,31,0.911,48.6,355,4.91,13.0,9.4,1,21.8,2.09,4.7,0,0,1,1,0,258,-32768,-1494,494,,,,,,,,,,,,,,,,
612283,1622988740939,,,,,,,,-1.01,0.13,0.61,-0,-7,-3,1.01,,87,4400,4,25,32,0.916,48.5,338,4.96,12.9,9.4,1,19.6,2.11,4.7,0,0,1,1,0,296,8488,250,477,,,,,,,,,,,,,,,,
612303,1622988740959,,,,,,,,-0.99,0.14,0.45,1,-7,-3,1.0,,87,4161,4,25,32,0.921,47.4,321,4.87,13.0,9.4,1,17.4,2.11,4.7,0,0,1,1,0,321,-9203,120,470,,,,,,,,,,,,,,,,
612323,1622988740979,,,,,,,,-0.95,0.18,0.25,2,-5,-2,0.97,,87,4001,4,25,33,0.925,47.3,306,4.89,13.0,9.4,1,16.0,2.12,4.7,0,0,1,1,0,337,8488,105,462,,,,,,,,,,,,,,,,
612343,1622988740999,36,22,17,17,41,39,10,-1.02,0.21,0.12,3,-4,-2,1.04,0,87,3886,4,25,33,0.928,46.6,301,4.9,13.0,8.2,1,15.7,2.12,3.8,0,0,1,1,0,326,-3210,-1281,462,45.6992,4.910214,62.02,196.7,9,3,2.0,0,0.0,-1,0.0,,0.0,0,6.82,10.2057
612363,1622988741006,,,,,,,,-0.99,0.2,-0.02,4,-4,-2,1.01,,87,3742,4,25,34,0.932,45.9,283,4.91,13.0,8.2,1,15.4,2.14,3.8,0,0,1,1,0,317,2211,250,457,,,,,,,,,,,,,,,,
612383,1622988741026,,,,,,,,-1.03,0.15,0.07,5,-5,-2,1.04,,87,3709,4,25,35,0.937,45.6,287,4.91,12.9,8.2,1,15.4,2.16,3.8,0,0,1,1,0,280,14488,-1,446,,,,,,,,,,,,,,,,
612403,1622988741046,,,,,,,,-1.02,0.14,0.01,6,-5,-2,1.03,,87,3649,4,25,36,0.941,44.2,276,4.92,13.0,8.2,1,15.2,2.17,3.8,0,0,1,1,0,257,23400,-1,436,,,,,,,,,,,,,,,,
612423,1622988741066,,,,,,,,-1.0,0.13,-0.15,7,-5,-2,1.01,,87,3542,4,25,37,0.944,44.8,273,4.88,13.0,8.2,1,15.0,2.19,3.8,0,0,1,1,0,239,23400,-1281,423,,,,,,,,,,,,,,,,
612443,1622988741097,27,16,17,20,41,39,8,-1.03,0.15,-0.23,8,-4,-1,1.04,0,87,3419,4,25,38,0.948,44.0,273,4.93,13.0,8.0,1,15.0,2.21,3.4,0,0,1,1,0,230,20625,-1,426,45.699177,4.910191,52.67,196.5,9,3,1.9,0,0.0,-1,0.0,0.0,0.0,0,6.82,10.2074
612463,1622988741117,,,,,,,,-1.05,0.22,-0.18,10,-4,-1,1.07,,87,3220,4,25,38,0.949,43.6,257,4.9,12.8,8.0,1,15.0,2.23,3.4,0,0,1,1,0,253,-3314,-1,416,,,,,,,,,,,,,,,,
612483,1622988741137,,,,,,,,-1.09,0.24,-0.16,11,-3,-1,1.12,,87,3081,4,25,39,0.952,43.3,255,4.93,12.8,8.0,1,0.0,2.23,3.4,0,0,1,1,0,278,243,-236,411,,,,,,,,,,,,,,,,
612503,1622988741157,,,,,,,,-1.09,0.33,-0.12,12,-2,-1,1.14,,87,2951,4,25,40,0.955,41.6,245,4.94,12.8,8.0,1,0.0,2.21,3.4,0,0,1,1,0,362,18584,-1495,405,,,,,,,,,,,,,,,,
612523,1622988741177,,,,,,,,-1.07,0.34,-0.15,12,-2,-1,1.12,,87,2887,4,25,41,0.956,41.4,238,4.84,12.8,8.0,1,15.0,2.19,3.4,0,0,1,1,0,365,2524,-1,402,,,,,,,,,,,,,,,,
612543,1622988741197,6,4,17,22,41,37,3,-1.04,0.31,-0.13,13,-2,-1,1.09,0,87,3069,4,25,42,0.957,41.7,241,4.85,12.8,7.4,1,15.0,2.24,3.0,0,0,1,1,0,389,-3414,-1281,396,45.699169,4.910182,47.75,196.4,9,3,1.9,0,0.0,-1,0.0,,0.0,0,6.82,10.2091
612563,1622988741217,,,,,,,,-1.03,0.32,-0.06,13,-1,-1,1.08,,87,3053,4,25,43,0.958,41.1,239,4.9,12.9,7.4,1,0.0,2.25,3.0,0,0,1,1,0,404,-4059,250,395,,,,,,,,,,,,,,,,
612583,1622988741237,,,,,,,,-0.99,0.31,-0.19,12,-1,-1,1.04,,87,3228,5,25,43,0.959,40.3,242,4.96,12.9,7.4,1,0.0,2.25,3.0,0,0,1,1,0,389,-8151,-23552,395,,,,,,,,,,,,,,,,
612603,1622988741257,,,,,,,,-0.93,0.28,-0.34,12,-2,-2,0.97,,87,3259,5,25,44,0.959,40.0,246,5.03,13.0,7.4,1,0.0,2.26,3.0,0,0,1,1,0,402,11545,-1,394,,,,,,,,,,,,,,,,
612623,1622988741277,,,,,,,,-0.88,0.23,-0.47,11,-1,-1,0.91,,87,3388,5,25,45,0.959,39.3,262,4.89,13.0,7.4,1,15.0,2.26,3.0,0,0,1,1,0,383,1,-165,393,,,,,,,,,,,,,,,,
612643,1622988741297,3,2,21,26,40,35,-0,-0.88,0.26,-0.44,10,-1,-2,0.91,0,87,3519,5,25,46,0.958,38.8,261,4.9,12.9,8.8,1,15.0,2.27,3.5,0,0,1,1,0,382,-6475,3584,388,45.699158,4.910174,44.29,196.3,9,3,1.9,0,0.0,-1,0.0,0.0,0.0,0,6.82,10.2107
612663,1622988741317,,,,,,,,-0.82,0.22,-0.57,10,-2,-2,0.85,,87,3533,5,26,46,0.958,39.0,262,4.95,13.0,8.8,1,15.0,2.27,3.5,0,0,1,1,0,378,-6524,-1,388,,,,,,,,,,,,,,,,
612683,1622988741337,,,,,,,,-0.84,0.24,-0.54,9,-1,-1,0.87,,87,3633,5,26,47,0.956,38.7,280,4.92,13.0,8.8,1,15.6,2.28,3.5,0,0,1,1,0,368,240,41,378,,,,,,,,,,,,,,,,
612703,1622988741357,,,,,,,,-0.81,0.25,-0.58,8,-1,-2,0.84,,87,3681,5,26,47,0.956,38.0,270,4.9,12.9,8.8,1,15.9,2.28,3.5,0,0,1,1,0,372,-992,-27136,377,,,,,,,,,,,,,,,,
612723,1622988741377,,,,,,,,-0.77,0.21,-0.52,7,-1,-1,0.8,,87,3788,5,26,47,0.954,37.8,292,4.9,13.0,8.8,1,16.4,2.29,3.5,0,0,1,1,0,351,3,230,378,,,,,,,,,,,,,,,,
612743,1622988741397,0,2,24,27,36,35,0,-0.69,0.17,-0.65,7,-1,-1,0.71,0,87,3926,5,26,47,0.953,37.7,280,4.86,13.0,10.5,1,17.2,2.29,4.0,0,0,1,1,0,368,-6656,-6656,372,45.69915,4.910166,42.65,196.3,9,3,1.9,0,0.0,-1,0.0,,0.0,0,6.82,10.2124
612763,1622988741417,,,,,,,,-0.7,0.17,-0.58,6,-1,-2,0.72,,87,3955,5,26,48,0.951,37.3,292,4.91,12.8,10.5,1,17.5,2.29,4.0,0,0,1,1,0,367,-6656,-1268,372,,,,,,,,,,,,,,,,
612783,1622988741437,,,,,,,,-0.7,0.18,-0.37,5,-1,-2,0.72,,87,4118,5,26,48,0.949,37.6,300,4.93,13.0,10.5,1,19.2,2.36,4.0,0,0,1,1,0,358,0,3082,376,,,,,,,,,,,,,,,,
612803,1622988741457,,,,,,,,-0.7,0.18,-0.41,5,-1,-1,0.72,,87,4174,5,26,47,0.947,36.8,303,4.92,13.0,10.5,1,19.6,2.39,4.0,0,0,1,1,0,362,0,-6405,365,,,,,,,,,,,,,,,,
612823,1622988741477,,,,,,,,-0.65,0.16,-0.54,5,1,0,0.67,,87,4321,5,26,47,0.944,36.5,307,4.91,13.0,10.5,1,21.4,2.47,4.0,0,0,1,1,0,352,3082,-6644,365,,,,,,,,,,,,,,,,
612843,1622988741495,3,1,26,28,35,34,0,-0.66,0.13,-0.66,4,3,2,0.67,0,87,4487,5,26,46,0.942,37.0,317,4.82,12.8,14.1,1,23.1,2.53,5.1,0,0,1,1,0,356,486,-29978,361,45.699139,4.910155,43.6,195.9,9,3,1.9,0,0.0,-1,0.0,0.0,0.0,0,6.82,10.2141
612863,1622988741515,,,,,,,,-0.63,0.13,-0.77,4,4,4,0.65,,87,4528,6,26,46,0.939,36.0,328,4.83,12.9,14.1,1,23.6,2.55,5.1,0,0,1,1,0,355,-6640,-10554,360,,,,,,,,,,,,,,,,
612883,1622988741535,,,,,,,,-0.63,0.15,-0.57,4,6,5,0.65,,87,4726,6,26,46,0.935,36.1,330,4.93,13.0,14.1,1,26.0,2.66,5.1,0,0,1,1,0,351,-6458,28553,359,,,,,,,,,,,,,,,,
612903,1622988741555,,,,,,,,-0.59,0.17,-0.36,3,3,3,0.62,,87,4789,6,26,46,0.933,35.7,350,4.92,13.0,14.1,1,26.7,2.69,5.1,0,0,1,1,0,352,2060,-6644,357,,,,,,,,,,,,,,,,
612923,1622988741575,,,,,,,,-0.55,0.15,-0.49,3,1,1,0.57,,87,4966,5,26,46,0.929,35.4,358,4.92,12.9,14.1,1,28.8,2.78,5.1,0,0,1,1,0,345,28553,6870,354,,,,,,,,,,,,,,,,
612943,1622988741597,3,1,27,28,36,33,-0,-0.59,0.18,-0.56,3,5,4,0.62,0,87,5079,5,26,46,0.924,35.0,362,4.89,12.9,18.3,1,29.4,2.77,6.5,0,0,1,1,0,346,-30438,6870,350,45.699135,4.910146,42.58,195.6,9,3,1.9,0,0.0,-1,0.0,,0.0,0,6.83,10.2157
612963,1622988741617,,,,,,,,-0.51,0.17,-0.34,3,-0,0,0.54,,87,5138,5,26,46,0.92,35.2,385,4.87,13.0,18.3,1,29.5,2.75,6.5,0,0,1,1,0,337,-1246,-31222,352,,,,,,,,,,,,,,,,
612983,1622988741637,,,,,,,,-0.55,0.15,-0.48,2,3,4,0.57,,87,5246,5,26,45,0.915,34.8,382,4.87,12.8,18.3,1,29.4,2.68,6.5,0,0,1,1,0,339,-30438,-31206,348,,,,,,,,,,,,,,,,
613003,1622988741657,,,,,,,,-0.46,0.14,-0.27,2,-2,-2,0.48,,86,5314,5,26,45,0.91,34.8,383,4.92,13.0,18.3,1,29.6,2.64,6.5,0,0,1,1,0,337,-1246,2560,347,,,,,,,,,,,,,,,,
613023,1622988741677,,,,,,,,-0.49,0.11,-0.29,2,3,3,0.5,,87,5423,5,26,45,0.907,34.2,397,4.85,12.9,18.3,1,29.7,2.6,6.5,0,0,1,1,0,334,-122,13,342,,,,,,,,,,,,,,,,
613043,1622988741696,4,2,28,28,33,34,-5,-0.52,0.07,-0.43,1,1,1,0.52,0,87,5466,5,26,44,0.904,33.9,408,4.78,12.8,19.0,1,29.6,2.56,6.5,0,0,1,1,0,334,-31222,13,339,45.699123,4.910138,41.28,195.5,9,3,1.9,0,0.0,-1,0.0,0.0,0.0,0,6.83,10.2174
613063,1622988741716,,,,,,,,-0.43,0.07,-0.23,0,-1,-1,0.44,,86,5450,5,26,44,0.9,34.1,401,4.93,13.0,19.0,1,29.5,2.57,6.5,0,0,1,1,0,334,13,-31222,341,,,,,,,,,,,,,,,,
613083,1622988741736,,,,,,,,-0.48,0.04,-0.38,0,4,4,0.48,,86,5397,5,26,43,0.897,33.9,399,4.91,12.9,19.0,1,29.2,2.58,6.5,0,0,1,1,0,332,3346,-31222,339,,,,,,,,,,,,,,,,
613103,1622988741756,,,,,,,,-0.4,0.07,-0.18,-1,-3,-2,0.4,,86,5332,5,26,43,0.897,33.5,405,4.89,12.9,19.0,1,29.1,2.61,6.5,0,0,1,1,0,331,170,3346,335,,,,,,,,,,,,,,,,
613123,1622988741776,,,,,,,,-0.45,0.01,-0.33,-1,3,3,0.45,,86,5230,4,26,43,0.897,33.5,390,4.87,13.0,19.0,1,28.9,2.65,6.5,0,0,1,1,0,330,-12032,-31222,335,,,,,,,,,,,,,,,,
613143,1622988741797,5,2,29,29,32,34,-12,-0.4,0.05,-0.14,-2,-2,-1,0.4,0,86,5155,4,26,43,0.897,33.8,393,4.88,12.9,18.8,1,28.7,2.68,6.4,0,0,1,1,0,328,-6528,3346,338,45.699116,4.910129,39.8,195.4,9,3,1.9,0,0.0,-1,0.0,,0.0,0,6.83,10.2191
613163,1622988741817,,,,,,,,-0.4,-0.01,-0.29,-3,0,1,0.4,,86,5089,4,26,42,0.897,33.3,384,4.88,12.9,18.8,1,28.3,2.71,6.4,0,0,1,1,0,326,175,-32559,333,,,,,,,,,,,,,,,,
613183,1622988741837,,,,,,,,-0.43,0.01,-0.1,-4,1,0,0.43,,86,5079,4,26,42,0.901,33.2,371,4.95,13.0,18.8,1,28.3,2.69,6.4,0,0,1,1,0,322,-23296,175,331,,,,,,,,,,,,,,,,
613203,1622988741857,,,,,,,,-0.41,-0.05,-0.26,-4,-1,-2,0.41,,86,5070,4,26,42,0.906,33.1,382,4.87,12.8,18.8,1,28.3,2.71,6.4,0,0,1,1,0,317,145,-23296,328,,,,,,,,,,,,,,,,
613223,1622988741877,,,,,,,,-0.45,-0.12,-0.4,-5,3,1,0.47,,86,5086,4,26,42,0.911,32.5,378,4.88,12.8,18.8,1,28.3,2.69,6.4,0,0,1,1,0,312,-27136,155,325,,,,,,,,,,,,,,,,
613243,1622988741896,7,4,29,27,32,37,-18,-0.41,-0.09,-0.2,-7,-1,-1,0.42,0,86,5093,4,26,42,0.915,33.0,381,4.87,13.0,19.0,1,28.3,2.68,6.3,0,0,1,1,0,309,-29696,-24576,330,45.699108,4.910121,38.87,195.3,9,3,1.9,0,0.0,-1,0.0,0.0,0.0,0,6.83,10.2207
613263,1622988741916,,,,,,,,-0.4,-0.17,-0.35,-8,-0,-1,0.43,,86,5075,4,26,42,0.924,32.7,380,4.84,12.8,19.0,1,28.3,2.69,6.3,0,0,1,1,0,309,-29696,-24576,331,,,,,,,,,,,,,,,,
613283,1622988741936,,,,,,,,-0.43,-0.2,-0.16,-9,1,-0,0.47,,86,5059,4,26,42,0.931,32.7,370,4.91,13.0,19.0,1,28.2,2.7,6.3,0,0,1,1,0,308,-29696,-25856,327,,,,,,,,,,,,,,,,
613303,1622988741956,,,,,,,,-0.38,-0.27,-0.02,-10,-0,-2,0.47,,86,5025,4,26,42,0.939,32.4,379,4.88,12.9,19.0,1,28.2,2.71,6.3,0,0,1,1,0,307,-29696,150,324,,,,,,,,,,,,,,,,
613323,1622988741976,,,,,,,,-0.36,-0.32,-0.19,-12,0,-2,0.48,,86,4948,4,26,41,0.948,32.4,373,4.85,12.8,19.0,1,27.3,2.68,6.3,0,0,1,1,0,303,-29696,150,319,,,,,,,,,,,,,,,,
613343,1622988741996,2,3,31,25,33,37,-32,-0.38,-0.35,-0.3,-13,2,0,0.51,0,86,4882,4,26,41,0.956,32.6,365,4.89,13.0,18.7,1,26.5,2.64,6.0,0,0,1,1,0,301,115,145,326,45.699108,4.910121,38.87,195.3,9,3,1.9,0,0.0,-1,0.0,,0.0,0,6.83,10.2224
613363,1622988742004,,,,,,,,-0.41,-0.33,-0.11,-15,1,-0,0.53,,86,4831,4,26,42,0.965,32.5,358,4.89,13.0,18.7,1,26.1,2.63,6.0,0,0,1,1,0,297,25600,-28416,325,,,,,,,,,,,,,,,,
613383,1622988742024,,,,,,,,-0.39,-0.37,0.05,-17,-0,-2,0.54,,86,4792,4,26,42,0.974,32.3,361,4.93,13.0,18.7,1,25.7,2.61,6.0,0,0,1,1,0,292,85,150,325,,,,,,,,,,,,,,,,
613403,1622988742044,,,,,,,,-0.36,-0.4,-0.13,-19,-1,-4,0.54,,86,4773,4,26,42,0.983,32.3,357,4.87,12.8,18.7,1,25.5,2.61,6.0,0,0,1,1,0,289,80,140,323,,,,,,,,,,,,,,,,
613423,1622988742064,,,,,,,,-0.32,-0.45,-0.28,-21,-0,-2,0.56,,86,4768,4,26,42,0.991,32.2,354,4.87,12.8,18.7,1,25.4,2.6,6.0,0,0,1,1,0,287,80,-29696,322,,,,,,,,,,,,,,,,
613443,1622988742096,1,1,36,24,32,37,-38,-0.33,-0.49,-0.42,-23,1,-0,0.58,0,86,4755,4,26,42,0.999,32.4,352,4.86,13.0,17.5,1,25.3,2.6,5.7,0,0,1,1,0,284,41,130,321,45.699093,4.910106,36.19,194.8,9,3,2.0,0,0.0,-1,0.0,0.0,0.0,0,6.83,10.224
613463,1622988742116,,,,,,,,-0.37,-0.46,-0.22,-25,2,1,0.59,,86,4719,4,26,42,1.007,32.0,355,4.86,13.0,17.5,1,24.8,2.58,5.7,0,0,1,1,0,282,-16896,-29696,320,,,,,,,,,,,,,,,,
613483,1622988742136,,,,,,,,-0.43,-0.48,-0.04,-27,2,1,0.64,,86,4654,4,26,42,1.015,32.0,352,4.93,13.0,17.5,1,24.1,2.55,5.7,0,0,1,1,0,281,250,135,320,,,,,,,,,,,,,,,,
613503,1622988742156,,,,,,,,-0.47,-0.48,0.13,-28,3,0,0.67,,86,4625,4,26,42,1.021,31.8,346,4.9,13.0,17.5,1,23.8,2.54,5.7,0,0,1,1,0,278,10686,-30976,316,,,,,,,,,,,,,,,,
613523,1622988742176,,,,,,,,-0.5,-0.5,0.29,-30,2,-1,0.71,,86,4613,4,26,42,1.024,31.5,347,4.96,13.0,17.5,1,23.6,2.53,5.7,0,0,1,1,0,271,-1529,120,315,,,,,,,,,,,,,,,,
613543,1622988742196,1,0,38,24,32,38,-49,-0.49,-0.56,0.41,-32,1,-2,0.74,0,86,4609,4,26,42,1.028,31.9,348,4.92,13.0,16.9,1,23.6,2.53,5.4,0,0,1,1,0,270,-1534,120,319,45.699085,4.910098,34.64,194.5,9,3,1.9,0,0.0,-1,0.0,,0.0,0,6.83,10.2257
613563,1622988742216,,,,,,,,-0.46,-0.58,0.4,-34,1,-2,0.74,,86,4612,4,26,42,1.032,31.8,353,4.9,13.0,16.9,1,23.6,1.38,5.4,0,0,1,1,0,266,2414,30720,318,,,,,,,,,,,,,,,,
613583,1622988742236,,,,,,,,-0.4,-0.66,0.2,-36,-0,-3,0.77,,86,4591,4,26,42,1.034,31.6,342,4.94,12.8,16.9,1,23.4,2.52,5.4,0,0,1,1,0,262,2414,30720,316,,,,,,,,,,,,,,,,
613603,1622988742256,,,,,,,,-0.34,-0.69,0.03,-38,-2,-4,0.77,,86,4546,4,26,42,1.033,31.7,350,4.9,12.8,16.9,1,22.9,2.5,5.4,0,0,1,1,0,263,-1527,120,317,,,,,,,,,,,,,,,,
613623,1622988742276,,,,,,,,-0.34,-0.66,-0.07,-40,-3,-5,0.75,,86,4497,4,26,41,1.032,31.6,336,4.89,12.8,16.9,1,22.0,2.47,5.4,0,0,1,1,0,262,250,120,316,,,,,,,,,,,,,,,,
613643,1622988742296,0,1,35,24,30,39,-50,-0.31,-0.67,-0.23,-41,-3,-6,0.73,0,86,4469,4,26,41,1.032,31.7,338,4.86,12.8,16.2,1,21.7,2.47,5.1,0,0,1,1,0,259,-1,115,317,45.699081,4.91009,32.91,194.5,9,3,1.9,0,0.0,-1,0.0,0.0,0.0,0,6.83,10.2274
613663,1622988742316,,,,,,,,-0.3,-0.68,-0.2,-43,-4,-7,0.75,,86,4442,4,26,41,1.03,31.5,332,4.88,12.8,16.2,1,21.4,2.44,5.1,0,0,1,1,0,255,-1,29440,313,,,,,,,,,,,,,,,,
613683,1622988742336,,,,,,,,-0.32,-0.72,-0.02,-44,-5,-8,0.79,,86,4411,4,26,41,1.025,30.9,332,4.96,12.9,16.2,1,21.0,2.43,5.1,0,0,1,1,0,252,-1,110,309,,,,,,,,,,,,,,,,
613703,1622988742356,,,,,,,,-0.36,-0.69,0.15,-45,-4,-8,0.78,,86,4379,4,26,41,1.021,30.8,333,4.92,12.9,16.2,1,20.7,2.41,5.1,0,0,1,1,0,255,-1,26880,309,,,,,,,,,,,,,,,,
613723,1622988742376,,,,,,,,-0.41,-0.67,0.3,-46,-4,-7,0.78,,86,4336,4,26,41,1.017,30.6,332,4.95,13.0,16.2,1,20.2,2.39,5.1,0,0,1,1,0,256,-1,25600,306,,,,,,,,,,,,,,,,
613743,1622988742396,1,2,34,28,30,41,-49,-0.44,-0.61,0.37,-46,-3,-6,0.75,0,86,4322,4,26,41,1.013,30.8,318,4.86,13.0,15.2,1,20.0,2.38,4.7,0,0,1,1,0,250,-1,24320,301,45.699078,4.910083,31.16,194.3,9,3,1.9,0,0.0,-1,0.0,,0.0,0,6.83,10.229
613763,1622988742416,,,,,,,,-0.42,-0.62,0.17,-47,-2,-5,0.74,,86,4291,4,26,41,1.008,30.4,320,4.91,13.0,15.2,1,19.7,2.37,4.7,0,0,1,1,0,240,-1,24320,304,,,,,,,,,,,,,,,,
613783,1622988742436,,,,,,,,-0.37,-0.65,-0.01,-48,-3,-4,0.75,,86,4228,4,26,41,1.004,30.4,312,4.9,13.0,15.2,1,18.9,2.34,4.7,0,0,1,1,0,231,-1,24320,305,,,,,,,,,,,,,,,,
613803,1622988742456,,,,,,,,-0.37,-0.62,-0.12,-48,-3,-5,0.72,,86,4161,4,26,41,1.0,29.9,312,4.85,12.8,15.2,1,18.2,2.31,4.7,0,0,1,1,0,245,-1,85,299,,,,,,,,,,,,,,,,
613823,1622988742476,,,,,,,,-0.41,-0.62,0.05,-48,-3,-5,0.74,,86,4161,4,26,41,0.996,29.7,316,4.91,12.9,15.2,1,18.2,2.32,4.7,0,0,1,1,0,254,-1,20480,298,,,,,,,,,,,,,,,,
613843,1622988742496,0,1,33,28,29,37,-39,-0.44,-0.58,0.15,-47,-2,-5,0.73,0,86,4231,4,26,41,0.992,29.3,318,4.93,13.0,15.2,1,19.0,2.34,4.5,0,0,1,1,0,249,-41,41,293,45.69907,4.910076,30.06,194.3,9,3,1.9,0,0.0,-1,0.0,0.0,0.0,0,6.84,10.2307
613863,1622988742516,,,,,,,,-0.42,-0.52,0.12,-47,-1,-4,0.67,,86,4307,4,26,41,0.987,28.6,316,4.9,13.0,15.2,1,19.8,2.37,4.5,0,0,1,1,0,248,506,630,286,,,,,,,,,,,,,,,,
613883,1622988742536,,,,,,,,-0.39,-0.46,-0.06,-46,-0,-3,0.61,,86,4340,4,26,41,0.984,28.5,316,4.9,13.0,15.2,1,20.2,2.39,4.5,0,0,1,1,0,250,-1,630,285,,,,,,,,,,,,,,,,
613903,1622988742556,,,,,,,,-0.35,-0.47,-0.22,-45,0,-2,0.58,,86,4302,4,26,41,0.979,29.0,317,4.9,13.0,15.2,1,19.8,2.37,4.5,0,0,1,1,0,252,0,630,287,,,,,,,,,,,,,,,,
613923,1622988742576,,,,,,,,-0.3,-0.4,-0.37,-44,-0,-1,0.5,,86,4232,4,26,41,0.976,29.0,317,4.81,12.8,15.2,1,19.0,2.34,4.5,0,0,1,1,0,253,0,-1534,283,,,,,,,,,,,,,,,,
613943,1622988742592,0,2,33,30,32,34,-13,-0.33,-0.35,-0.27,-42,-0,-1,0.48,0,86,4159,4,26,41,0.972,28.0,313,4.88,12.8,16.1,1,18.2,2.32,4.5,0,0,1,1,0,257,-1,2414,280,45.699066,4.910067,29.48,194.2,9,3,1.9,0,0.0,-1,0.0,,0.0,0,6.84,10.2324
613963,1622988742612,,,,,,,,-0.35,-0.23,-0.11,-39,-0,-0,0.41,,86,4129,4,26,42,0.969,27.5,315,4.91,13.0,16.1,1,18.0,2.3,4.5,0,0,1,1,0,256,-1,250,275,,,,,,,,,,,,,,,,
613983,1622988742632,,,,,,,,-0.31,-0.22,-0.27,-37,-0,1,0.38,,86,4112,6,26,42,0.965,27.2,309,4.9,13.0,16.1,1,17.8,2.29,4.5,0,0,1,1,0,257,-10440,-1,272,,,,,,,,,,,,,,,,
614003,1622988742652,,,,,,,,-0.26,-0.2,-0.41,-34,-1,1,0.33,,86,4102,9,26,43,0.963,26.7,305,4.88,12.9,16.1,1,17.9,2.31,4.5,0,0,1,1,0,259,-41,-1,268,,,,,,,,,,,,,,,,
614023,1622988742672,,,,,,,,-0.28,-0.15,-0.21,-31,-2,-0,0.31,,86,4097,14,26,45,0.96,26.4,313,4.9,12.9,16.1,1,18.3,3.51,4.5,0,0,1,1,0,260,-1,-1281,264,,,,,,,,,,,,,,,,
614043,1622988742697,0,2,31,32,34,31,13,-0.3,-0.08,-0.13,-28,-1,0,0.31,0,86,4104,16,26,49,0.958,26.1,307,4.92,13.0,25.3,1,19.3,3.53,6.7,0,0,1,1,0,260,-1,-1281,260,45.699062,4.910059,28.27,194.1,9,3,1.9,0,0.0,-1,0.0,0.0,0.0,0,6.84,10.234
614063,1622988742717,,,,,,,,-0.27,-0.03,-0.28,-25,-0,1,0.27,,86,4244,18,26,54,0.956,26.3,307,4.9,13.0,25.3,1,22.3,3.67,6.7,0,0,1,1,0,262,-1,-1281,256,,,,,,,,,,,,,,,,
614083,1622988742737,,,,,,,,-0.21,0.01,-0.43,-22,-1,2,0.21,,86,4162,18,26,57,0.957,26.1,304,4.88,13.0,25.3,1,22.0,3.67,6.7,0,0,1,1,0,263,-1,-1281,259,,,,,,,,,,,,,,,,
614103,1622988742757,,,,,,,,-0.22,0.06,-0.29,-18,-2,1,0.22,,86,4105,18,26,61,0.959,25.9,313,4.92,12.8,25.3,1,22.2,1.36,6.7,0,0,1,1,0,263,-41,-1,255,,,,,,,,,,,,,,,,
614123,1622988742777,,,,,,,,-0.26,0.12,-0.1,-15,-2,0,0.29,,86,4182,18,26,65,0.961,26.4,307,4.88,12.9,25.3,1,24.1,1.56,6.7,0,0,1,1,0,265,-1,-1,253,,,,,,,,,,,,,,,,
614143,1622988742799,0,1,31,33,34,29,34,-0.29,0.21,-0.03,-12,-0,1,0.36,0,86,4271,18,26,68,0.962,25.2,305,4.93,13.0,34.5,1,26.2,4.42,8.7,0,0,1,1,0,265,14054,10818,252,45.699059,4.910051,27.8,194.1,9,3,1.9,0,0.0,-1,0.0,,0.0,0,6.84,10.2357
614163,1622988742819,,,,,,,,-0.33,0.26,0.03,-9,1,1,0.41,,86,4418,18,26,70,0.967,27.0,312,4.91,13.0,34.5,1,28.6,1.8,8.7,0,0,1,1,0,268,-1,250,250,,,,,,,,,,,,,,,,
614183,1622988742839,,,,,,,,-0.37,0.3,0.19,-5,2,2,0.48,,86,4542,18,26,72,0.972,26.7,317,4.88,13.0,34.5,1,30.8,4.79,8.7,0,0,1,1,0,268,-1,250,248,,,,,,,,,,,,,,,,
614203,1622988742859,,,,,,,,-0.38,0.33,0.34,-2,2,1,0.51,,86,4623,18,26,74,0.977,26.7,331,4.87,13.0,34.5,1,32.5,2.0,8.7,0,0,1,1,0,268,-1281,10812,249,,,,,,,,,,,,,,,,
614223,1622988742879,,,,,,,,-0.34,0.36,0.48,1,-0,-1,0.5,,86,4719,18,27,76,0.983,27.0,335,4.87,12.9,34.5,1,34.3,5.13,8.7,0,0,1,1,0,268,-1,15360,247,,,,,,,,,,,,,,,,
614243,1622988742899,-0,2,31,38,35,29,43,-0.25,0.34,0.27,4,-1,-1,0.42,0,86,4868,18,27,77,0.977,27.0,350,4.88,12.8,49.1,1,36.8,5.43,12.0,0,0,1,1,0,270,-1,250,246,45.699055,4.910043,27.17,194.0,9,3,1.9,0,0.0,-1,0.0,0.0,0.0,0,6.84,10.2374
614263,1622988742919,,,,,,,,-0.19,0.32,0.08,6,0,1,0.37,,86,4862,18,27,77,0.966,27.1,352,4.92,12.9,49.1,1,36.7,5.5,12.0,0,0,1,1,0,272,-1281,-1,246,,,,,,,,,,,,,,,,
614283,1622988742939,,,,,,,,-0.12,0.36,-0.09,9,1,2,0.38,,86,4666,18,27,79,0.956,27.2,336,4.9,13.0,49.1,1,34.4,5.23,12.0,0,0,1,1,0,277,2414,250,247,,,,,,,,,,,,,,,,
614303,1622988742959,,,,,,,,-0.05,0.34,-0.25,11,1,4,0.34,,86,4395,18,27,80,0.946,27.4,328,4.92,13.0,49.1,1,30.7,4.97,12.0,0,0,1,1,0,281,2414,80,253,,,,,,,,,,,,,,,,
614323,1622988742979,,,,,,,,0.02,0.33,-0.39,14,-0,4,0.33,,86,4243,16,27,80,0.929,28.2,319,4.87,13.0,49.1,1,28.5,4.73,12.0,0,0,1,1,0,283,1886,250,254,,,,,,,,,,,,,,,,
614343,1622988742999,0,1,32,42,33,26,61,0.02,0.41,-0.3,16,-1,3,0.41,0,86,4210,13,27,80,0.908,28.7,313,4.9,12.8,35.1,1,28.1,1.95,9.0,0,0,1,1,0,284,41,-1,254,45.699055,4.910043,27.17,194.0,9,3,1.9,0,0.0,-1,0.0,,0.0,0,6.84,10.239
614363,1622988743005,,,,,,,,-0.02,0.5,-0.11,19,-2,2,0.5,,86,4236,13,27,79,0.887,28.7,307,4.87,12.9,35.1,1,28.1,1.89,9.0,0,0,1,1,0,287,41,-1,255,,,,,,,,,,,,,,,,
614383,1622988743025,,,,,,,,-0.07,0.55,0.07,21,-1,2,0.55,,86,4316,13,27,78,0.866,28.9,313,4.91,13.0,35.1,1,29.1,4.47,9.0,0,0,1,1,0,288,0,30208,255,,,,,,,,,,,,,,,,
614403,1622988743045,,,,,,,,-0.14,0.63,0.23,24,-0,1,0.64,,86,4410,13,27,77,0.845,28.9,323,4.91,13.0,35.1,1,30.1,4.45,9.0,0,0,1,1,0,289,0,1886,253,,,,,,,,,,,,,,,,
614423,1622988743065,,,,,,,,-0.19,0.7,0.25,27,1,2,0.72,,86,4455,13,27,77,0.821,28.9,324,4.87,13.0,35.1,1,30.8,4.5,9.0,0,0,1,1,0,291,0,-1529,253,,,,,,,,,,,,,,,,
614443,1622988743097,0,2,31,40,36,26,67,-0.22,0.77,0.33,30,2,2,0.8,0,86,4500,13,27,77,0.798,25.1,333,4.88,13.0,37.4,1,31.4,4.47,9.4,0,0,1,1,0,293,24067,-1281,251,45.699047,4.910029,27.38,194.0,9,3,1.9,0,0.0,-1,0.0,0.0,0.0,0,6.84,10.2407
614463,1622988743117,,,,,,,,-0.29,0.79,0.47,32,3,1,0.84,,86,4558,13,27,76,0.774,29.8,328,4.92,13.0,37.4,1,32.0,4.51,9.4,0,0,1,1,0,296,95,-1,252,,,,,,,,,,,,,,,,
614483,1622988743137,,,,,,,,-0.31,0.84,0.59,35,3,1,0.9,,86,4532,13,27,76,0.755,29.9,337,4.86,13.0,37.4,1,31.7,4.46,9.4,0,0,1,1,0,295,25600,-1,252,,,,,,,,,,,,,,,,
614503,1622988743157,,,,,,,,-0.36,0.9,0.71,37,4,1,0.97,,86,4442,12,27,75,0.746,30.1,326,4.92,13.0,37.4,1,30.1,4.25,9.4,0,0,1,1,0,296,26880,-1534,252,,,,,,,,,,,,,,,,
614523,1622988743177,,,,,,,,-0.42,0.93,0.82,39,4,1,1.02,,86,4544,11,27,75,0.737,30.2,326,4.88,13.0,37.4,1,31.5,4.38,9.4,0,0,1,1,0,297,105,-1,255,,,,,,,,,,,,,,,,
614543,1622988743197,-0,2,30,39,37,27,71,-0.45,1.01,0.83,41,5,1,1.11,0,86,4478,11,27,74,0.729,30.2,334,4.88,13.0,34.6,1,30.4,1.87,8.7,0,0,1,1,0,296,105,-1527,252,45.699039,4.910022,27.92,194.1,9,3,1.9,0,0.0,-1,0.0,,0.0,0,6.84,10.2424
614563,1622988743217,,,,,,,,-0.47,1.04,0.92,44,6,-0,1.14,,86,4511,10,27,73,0.723,30.6,328,4.9,13.0,34.6,1,30.6,1.89,8.7,0,0,1,1,0,297,115,-1,254,,,,,,,,,,,,,,,,
614583,1622988743237,,,,,,,,-0.49,1.1,1.01,46,5,-0,1.2,,86,4552,10,27,72,0.725,30.6,337,4.87,12.9,34.6,1,30.9,4.24,8.7,0,0,1,1,0,298,115,-1527,253,,,,,,,,,,,,,,,,
614603,1622988743257,,,,,,,,-0.51,1.09,1.05,48,5,-0,1.21,,86,4439,9,27,72,0.727,30.4,332,4.87,13.0,34.6,1,29.4,4.08,8.7,0,0,1,1,0,300,110,28160,253,,,,,,,,,,,,,,,,
614623,1622988743277,,,,,,,,-0.55,1.09,1.06,49,6,-0,1.22,,86,4487,8,27,70,0.729,30.5,325,4.88,13.0,34.6,1,29.5,1.84,8.7,0,0,1,1,0,301,29440,-10440,252,,,,,,,,,,,,,,,,
614643,1622988743297,1,2,29,40,38,27,71,-0.53,1.05,0.92,51,6,-0,1.18,0,86,4416,7,27,69,0.73,30.5,332,4.89,13.0,33.3,1,28.3,3.99,8.4,0,0,1,1,0,299,29440,-1,252,45.699036,4.910016,27.85,194.1,9,3,1.9,0,0.0,-1,0.0,0.0,0.0,0,6.84,10.2441
614663,1622988743317,,,,,,,,-0.5,1.0,0.68,52,7,1,1.12,,86,4249,6,27,67,0.731,30.4,310,4.91,13.0,33.3,1,25.6,3.75,8.4,0,0,1,1,0,298,110,-1,251,,,,,,,,,,,,,,,,
614683,1622988743337,,,,,,,,-0.43,0.95,0.46,54,7,1,1.04,,86,4335,6,27,66,0.732,30.0,315,4.93,13.0,33.3,1,26.4,3.73,8.4,0,0,1,1,0,300,100,-1,251,,,,,,,,,,,,,,,,
614703,1622988743357,,,,,,,,-0.36,0.93,0.29,55,4,2,1.0,,86,4208,6,27,65,0.733,30.5,316,4.9,12.9,33.3,1,24.5,3.55,8.4,0,0,1,1,0,300,29440,-214,253,,,,,,,,,,,,,,,,
614723,1622988743377,,,,,,,,-0.38,0.95,0.43,57,3,1,1.03,,86,4148,6,27,64,0.735,30.4,315,4.85,12.8,33.3,1,23.5,3.43,8.4,0,0,1,1,0,299,110,250,250,,,,,,,,,,,,,,,,
