"Interval"|"ms"|0|0|1,"Utc"|"ms"|0|0|1,"Brake_F"|"Bar"|0|2000|10,"Brake_R"|"Bar"|0|2000|10,"Height_RF"|"mm"|0|255|10,"Height_LF"|"mm"|0|255|10,"Height_LR"|"mm"|0|80|10,"Height_RR"|"mm"|0|255|10,"Steering"|"deg"|-100|100|10,"AccelX"|"G"|-3.0|3.0|50,"AccelY"|"G"|-3.0|3.0|50,"AccelZ"|"G"|-3.0|3.0|50,"Yaw"|"Deg/Sec"|-120|120|50,"Pitch"|"Deg/Sec"|-120|120|50,"Roll"|"Deg/Sec"|-120|120|50,"Gsum"|"G"|0.0|3.0|50,"Log_Button"|""|0.0|10.0|10,"WaterTemp"|"C"|0|150|50,"RPM"|"tr/min"|0|14000|50,"TPS"|"%"|0|100|50,"AirTemp"|"C"|0|150|50,"MAP"|"KPa"|0|100|50,"Lambda"|""|0.5|1.5|50,"SpeedDTA"|"kph"|0.0|250.0|50,"OilPress"|"KPa"|0|1500|50,"FuelPressur"|"Bar"|0.0|10.0|50,"Batterie"|"V"|0.0|20.0|50,"ConsoKm"|"L/100km"|0.0|200.0|50,"Gear"|""|0|6|50,"AdvIgnition"|"Deg"|-20.0|70.0|50,"Injection"|"ms"|0.0|10.0|50,"ConsoHr"|"L/Hr"|0.0|10000.0|50,"LC_But_Pres"|""|0|1|50,"LC_Active"|""|0|1|50,"TractionOn"|""|0|1|50,"TractionWet"|""|0|1|50,"FanOn"|""|0|1|50,"RD_Speed"|"km/h"|-30|250|50,"RUD_Speed"|"km/h"|-30|250|50,"LD_Speed"|"km/h"|-30|250|50,"LUD_Speed"|"km/h"|-30|250|50,"Latitude"|"Degrees"|-180.0|180.0|10,"Longitude"|"Degrees"|-180.0|180.0|10,"Speed"|"kph"|0.0|150.0|10,"Altitude"|"m"|0.0|4000.0|10,"GPSSats"|""|0|20|10,"GPSQual"|""|0|5|10,"GPSDOP"|""|0.0|20.0|10,"LapCount"|""|0|0|10,"LapTime"|"Min"|0.0|0.0|10,"Sector"|""|0|0|10,"SectorTime"|"Min"|0.0|0.0|10,"PredTime"|"Min"|0.0|0.0|5,"ElapsedTime"|"Min"|0.0|0.0|10,"CurrentLap"|""|0|0|10,"Distance"|"km"|0.0|0.0|10,"SessionTime"|"Min"|0.0|0.0|10
162063,1622989307806,,,,,,,,0.31,-0.66,-0.54,-23,-0,-2,0.73,,83,9842,22,27,52,0.862,61.3,643,4.33,12.8,25.4,1,39.4,3.43,15.6,0,0,1,1,0,625,23619,506,613,,,,,,,,,,,,,,,,
162083,1622989307826,,,,,,,,0.25,-0.53,-0.33,-23,-1,-3,0.59,,83,9863,22,27,52,0.858,61.9,645,4.18,12.9,25.4,1,39.4,3.43,15.6,0,0,1,1,0,624,-7939,-1346,619,,,,,,,,,,,,,,,,
162103,1622989307845,,,,,,,,0.26,-0.65,-0.21,-24,-2,-3,0.7,,83,9910,22,27,52,0.856,61.2,646,4.08,12.9,25.4,1,39.4,3.43,15.6,0,0,1,1,0,620,4956,-14655,612,,,,,,,,,,,,,,,,
162123,1622989307865,,,,,,,,0.32,-0.6,-0.35,-24,-0,-3,0.68,,83,10042,22,27,51,0.853,62.1,648,4.07,12.9,25.4,1,39.1,3.44,15.6,0,0,1,1,0,627,-3210,17336,621,,,,,,,,,,,,,,,,
162143,1622989307885,-0,2,43,34,25,69,-16,0.29,-0.54,-0.16,-24,-1,-4,0.61,0,83,10042,22,27,51,0.852,62.4,648,4.0,12.9,25.4,1,39.1,3.39,15.6,0,0,1,1,0,624,4956,966,624,45.699783,4.910365,59.15,208.4,4,3,7.0,0,0.0,-1,0.0,,0.0,0,0.08,2.7024
162163,1622989307905,,,,,,,,0.27,-0.64,0.02,-24,-2,-4,0.69,,83,10010,22,27,51,0.85,61.7,658,3.97,12.8,25.4,1,39.1,3.39,15.7,0,0,1,1,0,640,243,771,630,,,,,,,,,,,,,,,,
162183,1622989307925,,,,,,,,0.35,-0.66,-0.15,-25,-1,-4,0.74,,83,10000,22,27,50,0.849,62.1,651,3.9,12.8,25.4,1,38.8,3.34,15.7,0,0,1,1,0,632,28675,-2580,619,,,,,,,,,,,,,,,,
162203,1622989307945,,,,,,,,0.29,-0.6,-0.04,-25,0,-4,0.66,,83,10026,20,27,49,0.848,62.5,656,3.76,12.9,25.4,1,38.8,3.34,15.7,0,0,1,1,0,632,30227,-5120,627,,,,,,,,,,,,,,,,
162223,1622989307965,,,,,,,,0.24,-0.71,0.07,-25,-1,-4,0.75,,83,10026,20,27,49,0.848,62.5,656,3.69,12.8,25.4,1,38.5,3.34,15.7,0,0,1,1,0,627,-3820,-5120,625,,,,,,,,,,,,,,,,
162243,1622989307985,-1,2,44,34,26,70,-18,0.29,-0.75,-0.1,-25,0,-4,0.81,0,83,10059,19,27,48,0.847,62.4,652,3.78,12.8,25.4,1,38.2,3.24,15.7,0,0,1,1,0,635,4956,-4876,624,45.699772,4.91038,59.15,208.4,4,3,7.0,0,0.0,-1,0.0,0.0,0.0,0,0.08,2.7041
162263,1622989308005,,,,,,,,0.29,-0.75,-0.17,-26,1,-3,0.8,,83,10096,19,27,46,0.846,63.2,650,3.79,12.9,23.2,1,37.2,3.14,14.7,0,0,1,1,0,644,243,-2836,632,,,,,,,,,,,,,,,,
162283,1622989308025,,,,,,,,0.18,-0.77,-0.15,-27,-2,-4,0.79,,83,10129,19,27,45,0.843,64.0,651,3.7,12.8,23.2,1,36.5,3.1,14.7,0,0,1,1,0,640,-28304,24,634,,,,,,,,,,,,,,,,
162303,1622989308045,,,,,,,,0.18,-0.8,-0.11,-27,-2,-2,0.82,,83,10162,19,27,45,0.843,64.0,651,3.62,12.9,23.2,1,36.5,3.1,14.7,0,0,1,1,0,652,28675,11776,630,,,,,,,,,,,,,,,,
162323,1622989308047,,,,,,,,0.2,-0.72,-0.09,-28,-2,-1,0.75,,83,10151,19,27,43,0.838,63.9,651,3.54,12.9,23.2,1,35.7,3.05,14.7,0,0,1,1,0,644,5344,-3584,639,,,,,,,,,,,,,,,,
162343,1622989308067,0,1,44,33,24,71,-21,0.24,-0.71,-0.25,-28,-1,-1,0.75,0,83,10151,19,27,43,0.838,64.0,652,3.5,12.8,23.2,1,35.0,3.01,14.7,0,0,1,1,0,629,1010,-3584,640,45.699757,4.910395,59.16,208.3,4,3,7.0,0,0.0,-1,0.0,,0.0,0,0.08,2.7057
162363,1622989308087,,,,,,,,0.12,-0.62,-0.06,-28,-1,-1,0.64,,83,10124,19,26,43,0.835,63.1,650,3.42,12.9,22.3,1,35.0,3.01,14.1,0,0,1,1,0,635,269,-2830,642,,,,,,,,,,,,,,,,
162383,1622989308107,,,,,,,,0.11,-0.74,-0.07,-28,-1,-1,0.75,,83,10113,19,26,43,0.832,63.2,658,3.41,12.9,22.3,1,35.0,3.01,14.1,0,0,1,1,0,646,28675,16599,632,,,,,,,,,,,,,,,,
162403,1622989308145,,,,,,,,0.15,-0.75,-0.23,-29,0,-0,0.76,,83,10135,19,26,42,0.828,63.5,662,3.42,12.8,22.3,1,34.2,2.96,14.1,0,0,1,1,0,634,17740,-2830,635,,,,,,,,,,,,,,,,
162423,1622989308165,,,,,,,,0.14,-0.74,-0.17,-29,0,-1,0.76,,83,10151,19,26,42,0.821,64.1,653,3.37,12.9,22.3,1,34.2,2.96,14.1,0,0,1,1,0,649,-3210,-2830,632,,,,,,,,,,,,,,,,
162443,1622989308185,1,2,45,32,27,71,-23,0.08,-0.75,-0.32,-30,0,-2,0.76,0,83,10129,19,26,42,0.807,63.8,652,3.34,12.8,22.3,1,34.2,2.96,14.1,0,0,1,1,0,636,28675,11776,634,45.699745,4.910409,59.27,208.2,4,3,7.0,0,0.0,-1,0.0,0.0,0.0,0,0.08,2.7074
162463,1622989308205,,,,,,,,0.01,-0.86,-0.18,-31,1,-0,0.86,,83,10129,19,26,42,0.807,63.8,652,3.32,12.9,22.3,1,34.2,2.96,14.1,0,0,1,1,0,639,17740,-3584,641,,,,,,,,,,,,,,,,
162483,1622989308225,,,,,,,,0.06,-0.95,-0.12,-31,1,-1,0.95,,83,10140,19,26,41,0.8,63.7,652,3.29,12.9,21.6,1,33.5,2.92,13.9,0,0,1,1,0,637,28675,244,637,,,,,,,,,,,,,,,,
162503,1622989308245,,,,,,,,0.08,-0.91,-0.27,-32,2,-2,0.91,,83,10168,19,26,42,0.794,64.5,652,3.26,12.9,21.6,1,34.2,2.96,13.9,0,0,1,1,0,638,5344,11776,635,,,,,,,,,,,,,,,,
162523,1622989308265,,,,,,,,0.05,-0.77,-0.28,-33,2,-1,0.77,,83,10212,19,26,42,0.789,64.1,648,3.22,12.9,21.6,1,34.2,2.96,13.9,0,0,1,1,0,643,-30139,6208,640,,,,,,,,,,,,,,,,
162543,1622989308285,-1,2,46,29,28,72,-24,0.01,-0.79,-0.31,-33,1,-1,0.79,0,83,10212,19,26,41,0.784,63.5,658,3.17,12.9,21.6,1,33.5,2.92,13.9,0,0,1,1,0,646,16529,244,635,45.69973,4.910422,58.16,208.2,4,2,7.0,0,0.0,-1,0.0,,0.0,0,0.08,2.709
162563,1622989308305,,,,,,,,-0.0,-0.89,-0.29,-33,1,0,0.89,,83,10184,19,26,42,0.779,64.6,655,3.15,12.8,21.6,1,34.2,2.96,14.0,0,0,1,1,0,638,-3446,4909,646,,,,,,,,,,,,,,,,
162583,1622989308325,,,,,,,,0.07,-0.98,-0.25,-34,1,1,0.98,,83,10113,19,26,41,0.779,64.1,653,3.14,12.9,21.6,1,33.5,2.92,14.0,0,0,1,1,0,637,17740,244,644,,,,,,,,,,,,,,,,
162603,1622989308344,,,,,,,,0.07,-0.77,-0.4,-34,1,0,0.77,,83,10113,19,26,42,0.78,63.5,660,3.07,12.9,21.6,1,34.2,2.92,14.0,0,0,1,1,0,644,-3210,-2830,642,,,,,,,,,,,,,,,,
162623,1622989308364,,,,,,,,-0.03,-0.81,-0.36,-34,2,1,0.81,,83,10140,19,26,41,0.783,63.8,656,3.07,12.9,21.6,1,34.2,1.81,14.0,0,0,1,1,0,644,-30139,-3584,634,,,,,,,,,,,,,,,,
162643,1622989308384,0,0,45,29,27,73,-24,-0.05,-0.9,-0.29,-34,3,1,0.9,0,83,10212,19,26,41,0.787,63.8,662,3.06,12.9,21.6,1,33.5,2.96,14.0,0,0,1,1,0,648,19621,-3584,638,45.699715,4.910434,57.98,208.2,4,3,7.0,0,0.0,-1,0.0,0.0,0.0,0,0.09,2.7107
162663,1622989308404,,,,,,,,-0.02,-0.99,-0.39,-35,3,2,0.99,,83,10212,19,26,41,0.787,63.8,662,3.06,12.9,21.6,1,33.5,2.92,14.0,0,0,1,1,0,650,-3446,11776,640,,,,,,,,,,,,,,,,
162683,1622989308424,,,,,,,,0.04,-1.07,-0.24,-36,1,1,1.07,,83,10290,19,26,42,0.794,64.4,656,3.05,12.8,21.6,1,34.2,2.96,13.8,0,0,1,1,0,646,-3446,244,644,,,,,,,,,,,,,,,,
162703,1622989308444,,,,,,,,0.05,-0.96,-0.38,-36,3,1,0.97,,83,10285,19,26,42,0.801,64.1,657,3.03,12.9,21.6,1,34.2,2.96,13.8,0,0,1,1,0,631,-30139,-8429,641,,,,,,,,,,,,,,,,
162723,1622989308464,,,,,,,,0.02,-0.92,-0.42,-36,4,1,0.92,,83,10251,20,26,42,0.808,63.7,648,3.01,12.9,21.6,1,34.2,2.96,13.8,0,0,1,1,0,641,17740,11776,640,,,,,,,,,,,,,,,,
162743,1622989308484,1,2,44,31,26,74,-17,-0.02,-0.99,-0.45,-36,1,1,0.99,0,83,10229,20,26,42,0.816,63.8,648,3.02,12.8,21.6,1,34.2,2.96,13.8,0,0,1,1,0,657,-3210,11776,638,45.699699,4.910444,57.42,208.2,4,3,7.0,0,0.0,-1,0.0,,0.0,0,0.09,2.7124
162763,1622989308504,,,,,,,,-0.05,-1.01,-0.45,-36,2,2,1.01,,83,10257,20,26,42,0.833,63.7,657,3.0,12.8,21.6,1,35.0,3.01,13.8,0,0,1,1,0,647,28675,244,645,,,,,,,,,,,,,,,,
162783,1622989308524,,,,,,,,-0.01,-0.97,-0.25,-35,1,2,0.97,,83,10257,20,26,42,0.833,63.7,657,3.01,12.9,22.0,1,34.2,2.96,14.2,0,0,1,1,0,642,28675,4909,637,,,,,,,,,,,,,,,,
162803,1622989308546,,,,,,,,0.05,-1.0,-0.4,-35,1,2,1.0,,83,10257,21,26,43,0.849,63.6,653,3.0,12.9,22.0,1,35.0,3.01,14.2,0,0,1,1,0,640,17740,11566,633,,,,,,,,,,,,,,,,
162823,1622989308566,,,,,,,,0.03,-0.94,-0.48,-35,1,1,0.94,,83,10257,21,26,43,0.849,63.6,653,2.99,12.9,22.0,1,35.0,1.86,14.2,0,0,1,1,0,645,-1346,-6006,643,,,,,,,,,,,,,,,,
162843,1622989308586,0,1,45,31,25,74,-15,-0.02,-1.03,-0.61,-34,2,0,1.03,0,83,10190,21,26,44,0.853,64.1,662,2.97,12.9,22.0,1,35.7,3.05,14.2,0,0,1,1,0,641,1010,11776,641,45.699684,4.910453,56.52,208.2,4,3,7.0,0,0.0,-1,0.0,0.0,0.0,0,0.09,2.7141
162863,1622989308606,,,,,,,,-0.06,-1.11,-0.51,-34,3,1,1.11,,83,10140,21,26,44,0.858,63.0,649,2.97,12.9,22.6,1,35.7,3.05,14.3,0,0,1,1,0,638,28675,244,642,,,,,,,,,,,,,,,,
162883,1622989308626,,,,,,,,-0.01,-1.18,-0.42,-33,2,2,1.18,,83,10118,22,26,45,0.863,63.2,647,2.95,12.8,22.6,1,36.5,3.1,14.3,0,0,1,1,0,646,-30139,-3584,635,,,,,,,,,,,,,,,,
162903,1622989308644,,,,,,,,0.01,-1.17,-0.55,-32,3,2,1.17,,83,10184,23,26,46,0.868,64.0,652,2.93,12.9,22.6,1,37.2,3.14,14.3,0,0,1,1,0,640,28675,11776,640,,,,,,,,,,,,,,,,
162923,1622989308664,,,,,,,,-0.04,-1.03,-0.51,-32,4,2,1.03,,83,10212,24,26,47,0.875,63.9,650,2.92,12.9,22.6,1,38.0,3.19,14.3,0,0,1,1,0,630,3395,24,639,,,,,,,,,,,,,,,,
162943,1622989308684,-0,2,45,28,27,74,-13,-0.04,-1.11,-0.47,-31,1,3,1.11,0,83,10212,24,26,48,0.882,63.7,649,2.93,12.9,22.6,1,38.2,3.24,14.3,0,0,1,1,0,635,3395,11566,637,45.699669,4.91046,56.12,208.1,4,3,7.0,0,0.0,-1,0.0,,0.0,0,0.09,2.7157
162963,1622989308704,,,,,,,,-0.06,-1.12,-0.48,-30,2,4,1.13,,83,10190,24,26,50,0.889,63.7,652,2.9,12.8,24.4,1,38.8,3.3,15.6,0,0,1,1,0,638,269,244,642,,,,,,,,,,,,,,,,
162983,1622989308724,,,,,,,,0.06,-1.12,-0.54,-30,1,6,1.12,,83,10168,24,26,50,0.897,64.0,652,2.9,12.9,24.4,1,38.8,3.35,15.6,0,0,1,1,0,652,-18357,-3584,640,,,,,,,,,,,,,,,,
163003,1622989308744,,,,,,,,0.07,-0.94,-0.66,-29,1,6,0.95,,83,10206,24,26,51,0.907,64.1,651,2.9,12.9,24.4,1,39.1,3.41,15.6,0,0,1,1,0,677,-2580,4909,641,,,,,,,,,,,,,,,,
163023,1622989308764,,,,,,,,0.05,-0.96,-0.71,-29,3,6,0.96,,83,10330,24,26,52,0.918,64.1,652,2.87,12.9,24.4,1,39.4,3.49,15.6,0,0,1,1,0,631,19320,-6006,641,,,,,,,,,,,,,,,,
163043,1622989308784,-1,1,42,34,25,75,-22,0.05,-1.05,-0.82,-29,3,5,1.05,0,83,10405,24,26,52,0.928,64.0,660,2.85,12.9,24.4,1,39.4,3.5,15.6,0,0,1,1,0,643,-18357,11776,640,45.69965,4.910467,55.52,208.0,4,3,7.0,0,0.0,-1,0.0,0.0,0.0,0,0.09,2.7174
163063,1622989308804,,,,,,,,0.04,-1.12,-0.62,-29,0,3,1.12,,83,10428,24,26,52,0.939,64.6,652,2.9,12.8,26.1,1,39.4,3.5,16.9,0,0,1,1,0,668,-30139,-6006,646,,,,,,,,,,,,,,,,
163083,1622989308824,,,,,,,,0.03,-1.19,-0.7,-30,-1,3,1.2,,83,10382,24,26,53,0.953,64.3,651,2.86,12.9,26.1,1,39.7,3.5,16.9,0,0,1,1,0,638,-18357,-10344,643,,,,,,,,,,,,,,,,
163103,1622989308844,,,,,,,,0.01,-1.23,-0.48,-31,-2,3,1.23,,83,10439,24,26,52,0.967,65.2,650,2.88,12.9,26.1,1,39.4,3.55,16.9,0,0,1,1,0,691,20993,-3038,653,,,,,,,,,,,,,,,,
163123,1622989308864,,,,,,,,-0.02,-1.29,-0.44,-32,-3,0,1.29,,83,10659,24,26,52,0.981,64.6,659,2.9,12.9,26.1,1,39.4,3.5,16.9,0,0,1,1,0,716,3395,-2345,646,,,,,,,,,,,,,,,,
163143,1622989308884,-1,2,42,28,23,75,-23,-0.05,-1.33,-0.23,-33,-3,0,1.33,0,83,10659,24,26,53,0.994,65.0,652,2.87,12.9,26.1,1,39.7,3.6,16.9,0,0,1,1,0,634,3403,-2345,647,45.699631,4.910471,55.17,207.8,4,3,7.0,0,0.0,-1,0.0,,0.0,0,0.09,2.719
163163,1622989308904,,,,,,,,-0.01,-1.3,-0.38,-33,-2,2,1.3,,83,10732,24,26,53,1.004,65.5,652,2.85,12.9,27.3,1,39.7,3.61,17.9,0,0,1,1,0,643,16529,31988,655,,,,,,,,,,,,,,,,
163183,1622989308924,,,,,,,,0.06,-1.3,-0.22,-33,-3,1,1.3,,83,10689,24,26,53,1.014,65.2,651,2.83,12.9,27.3,1,39.7,3.61,17.9,0,0,1,1,0,675,-16046,-10344,652,,,,,,,,,,,,,,,,
163203,1622989308944,,,,,,,,0.11,-1.27,-0.37,-34,-1,2,1.27,,83,10569,25,26,54,1.023,64.6,654,2.84,12.9,27.3,1,40.0,3.66,17.9,0,0,1,1,0,697,16529,-10348,656,,,,,,,,,,,,,,,,
163223,1622989308964,,,,,,,,0.17,-1.09,-0.42,-34,-1,3,1.1,,83,10539,25,26,54,1.037,65.1,655,2.83,12.9,27.3,1,40.0,3.58,17.9,0,0,1,1,0,685,269,1549,658,,,,,,,,,,,,,,,,
163243,1622989308984,-0,2,44,31,23,76,-21,0.23,-1.16,-0.55,-35,1,5,1.19,0,83,10539,25,26,54,1.037,65.1,655,2.84,12.9,27.3,1,40.0,3.65,17.9,0,0,1,1,0,656,17740,1549,651,45.699619,4.910479,54.84,207.8,4,3,7.0,0,0.0,-1,0.0,0.0,0.0,0,0.1,2.7207
163263,1622989309004,,,,,,,,0.27,-1.23,-0.41,-35,-0,4,1.26,,83,10563,25,26,54,1.039,65.5,654,2.84,12.9,26.7,1,40.0,3.59,17.5,0,0,1,1,0,662,19320,-3578,655,,,,,,,,,,,,,,,,
163283,1622989309024,,,,,,,,0.3,-1.16,-0.55,-35,1,3,1.2,,83,10581,25,26,54,1.044,65.7,642,2.86,12.9,26.7,1,40.0,3.65,17.5,0,0,1,1,0,663,20993,-10348,659,,,,,,,,,,,,,,,,
163303,1622989309044,,,,,,,,0.33,-0.96,-0.61,-35,2,4,1.01,,83,10575,25,26,54,1.043,64.9,659,2.86,12.9,26.7,1,40.0,3.66,17.5,0,0,1,1,0,666,-14655,-3578,652,,,,,,,,,,,,,,,,
163323,1622989309048,,,,,,,,0.31,-0.97,-0.73,-35,3,5,1.02,,83,10575,25,26,54,1.043,64.9,659,2.84,12.9,26.7,1,40.0,3.66,17.5,0,0,1,1,0,679,3395,-27404,649,,,,,,,,,,,,,,,,
163343,1622989309068,1,2,44,31,27,76,-15,0.28,-1.05,-0.5,-35,-0,3,1.09,0,83,10677,25,26,54,1.041,66.0,650,2.85,12.8,26.7,1,40.0,3.67,17.5,0,0,1,1,0,687,20993,-10344,652,45.699608,4.910486,53.56,207.7,4,3,7.0,0,0.0,-1,0.0,,0.0,0,0.1,2.7224
163363,1622989309088,,,,,,,,0.19,-1.0,-0.5,-35,0,3,1.02,,83,10677,25,26,54,1.039,66.3,661,2.87,12.9,26.7,1,40.0,3.68,17.5,0,0,1,1,0,650,-4876,-10344,663,,,,,,,,,,,,,,,,
163383,1622989309108,,,,,,,,0.13,-1.08,-0.38,-35,-0,2,1.09,,83,10659,25,26,54,1.037,66.3,665,2.86,12.8,27.4,1,40.0,3.68,18.2,0,0,1,1,0,652,-14655,-388,663,,,,,,,,,,,,,,,,
163403,1622989309144,,,,,,,,0.11,-1.16,-0.18,-34,-1,1,1.16,,83,10611,25,26,54,1.037,66.5,661,2.81,12.8,27.4,1,40.0,3.67,18.2,0,0,1,1,0,673,-16046,-3578,665,,,,,,,,,,,,,,,,
163423,1622989309164,,,,,,,,0.1,-1.16,-0.26,-34,-2,3,1.16,,83,10647,25,26,54,1.041,66.1,661,2.83,12.8,27.4,1,40.0,3.67,18.2,0,0,1,1,0,682,-5120,1549,658,,,,,,,,,,,,,,,,
163443,1622989309184,1,2,46,31,24,76,-18,0.07,-1.22,-0.19,-33,-0,4,1.23,0,83,10647,25,26,54,1.041,66.1,661,2.84,12.8,27.4,1,40.0,3.67,18.2,0,0,1,1,0,676,-5120,-388,658,45.699589,4.910488,56.71,207.5,4,3,7.0,0,0.0,-1,0.0,0.0,0.0,0,0.1,2.7241
163463,1622989309204,,,,,,,,0.13,-1.29,-0.34,-33,0,3,1.29,,83,10647,25,26,54,1.043,65.1,663,2.85,12.9,27.8,1,40.0,3.67,18.1,0,0,1,1,0,669,771,-388,651,,,,,,,,,,,,,,,,
163483,1622989309224,,,,,,,,0.15,-1.28,-0.28,-32,1,5,1.29,,83,10647,25,26,54,1.046,65.6,662,2.85,12.9,27.8,1,40.0,3.69,18.1,0,0,1,1,0,673,24,-10344,655,,,,,,,,,,,,,,,,
163503,1622989309245,,,,,,,,0.19,-1.3,-0.42,-32,2,5,1.31,,83,10629,25,26,55,1.049,66.2,646,2.79,12.9,27.8,1,40.4,3.69,18.1,0,0,1,1,0,662,-10251,8958,662,,,,,,,,,,,,,,,,
163523,1622989309265,,,,,,,,0.2,-1.32,-0.27,-32,-0,3,1.33,,83,10647,25,26,55,1.052,66.4,656,2.81,12.9,27.8,1,40.4,3.67,18.1,0,0,1,1,0,681,-8429,-388,665,,,,,,,,,,,,,,,,
163543,1622989309285,-1,2,43,33,23,77,-21,0.15,-1.15,-0.42,-32,2,5,1.16,0,83,10806,25,27,55,1.059,66.6,658,2.87,12.9,27.8,1,40.4,3.7,18.1,0,0,1,1,0,696,11566,-10344,673,45.699574,4.91049,58.75,207.4,4,3,7.0,0,0.0,-1,0.0,,0.0,0,0.1,2.7257
163563,1622989309305,,,,,,,,0.13,-1.14,-0.22,-32,1,1,1.15,,83,10806,25,27,55,1.059,66.6,658,2.83,12.9,27.8,1,40.4,3.72,18.1,0,0,1,1,0,663,244,-2826,658,,,,,,,,,,,,,,,,
163583,1622989309325,,,,,,,,0.13,-1.21,-0.03,-32,1,2,1.22,,83,10763,25,27,55,1.062,67.0,666,2.82,12.8,27.7,1,40.4,3.72,18.5,0,0,1,1,0,671,-2580,-26562,670,,,,,,,,,,,,,,,,
163603,1622989309346,,,,,,,,0.19,-1.08,-0.2,-32,1,3,1.1,,83,10720,25,27,55,1.066,66.7,656,2.82,12.9,27.7,1,40.4,3.71,18.5,0,0,1,1,0,672,6208,-2345,668,,,,,,,,,,,,,,,,
163623,1622989309366,,,,,,,,0.24,-1.16,-0.07,-32,1,1,1.18,,83,10653,25,27,56,1.073,66.7,667,2.82,12.9,27.7,1,40.8,3.72,18.5,0,0,1,1,0,675,11566,16118,661,,,,,,,,,,,,,,,,
163643,1622989309386,1,2,46,33,25,77,-21,0.23,-1.22,-0.23,-32,3,2,1.25,0,83,10653,25,27,56,1.073,66.7,667,2.81,12.9,27.7,1,40.8,3.71,18.5,0,0,1,1,0,689,16599,16118,667,45.699558,4.910493,59.61,207.3,4,3,7.0,0,0.0,-1,0.0,0.0,0.0,0,0.1,2.7274
163663,1622989309406,,,,,,,,0.17,-1.13,-0.1,-33,3,1,1.14,,83,10869,26,27,56,1.073,66.7,653,2.77,12.8,27.7,1,40.8,3.72,18.5,0,0,1,1,0,696,24,-2826,667,,,,,,,,,,,,,,,,
163683,1622989309426,,,,,,,,0.08,-1.04,0.01,-33,2,2,1.04,,83,10869,26,27,56,1.074,66.7,648,2.78,12.8,27.7,1,40.8,3.75,18.5,0,0,1,1,0,690,16599,-2826,677,,,,,,,,,,,,,,,,
163703,1622989309445,,,,,,,,0.13,-1.11,-0.15,-34,2,3,1.12,,83,10958,30,27,57,1.074,67.9,655,2.77,12.9,27.7,1,41.2,3.79,18.5,0,0,1,1,0,698,-30207,-26562,679,,,,,,,,,,,,,,,,
163723,1622989309465,,,,,,,,0.15,-1.19,0.02,-35,-1,-0,1.2,,83,11009,31,27,60,1.075,67.3,652,2.78,12.9,27.7,1,42.5,3.85,18.5,0,0,1,1,0,708,16599,24,673,,,,,,,,,,,,,,,,
163743,1622989309485,1,2,44,29,24,77,-19,-0.02,-1.08,-0.14,-35,1,-1,1.08,0,83,10850,32,27,64,1.077,67.8,663,2.81,12.8,27.7,1,43.0,3.92,18.5,0,0,1,1,0,654,-8429,6208,672,45.699543,4.910493,60.22,207.2,4,3,7.0,0,0.0,-1,0.0,,0.0,0,0.1,2.729
163763,1622989309505,,,,,,,,-0.03,-1.13,-0.16,-35,1,-3,1.13,,83,10850,32,27,64,1.077,67.8,663,2.75,12.8,27.7,1,42.9,4.06,18.5,0,0,1,1,0,683,16599,3543,667,,,,,,,,,,,,,,,,
163783,1622989309525,,,,,,,,0.06,-1.0,-0.13,-36,2,-0,1.01,,83,10844,35,27,65,1.077,67.7,649,2.79,12.9,30.4,1,42.9,4.12,20.3,0,0,1,1,0,727,244,-10399,680,,,,,,,,,,,,,,,,
163803,1622989309545,,,,,,,,0.07,-1.06,-0.28,-35,3,1,1.06,,83,10958,38,27,66,1.081,67.6,658,2.79,12.9,30.4,1,42.8,4.19,20.3,0,0,1,1,0,726,24,-26380,676,,,,,,,,,,,,,,,,
163823,1622989309565,,,,,,,,0.01,-1.07,-0.09,-35,-0,-2,1.07,,83,10958,38,27,68,1.091,67.1,652,2.78,12.8,30.4,1,42.9,4.34,20.3,0,0,1,1,0,676,16599,-10344,663,,,,,,,,,,,,,,,,
163843,1622989309585,-0,2,46,30,28,78,-20,-0.04,-1.13,-0.06,-35,0,-1,1.13,0,83,10800,39,27,71,1.102,67.2,653,2.78,12.9,30.4,1,42.7,4.43,20.3,0,0,1,1,0,678,3,-2345,672,45.699528,4.910493,60.13,207.1,4,3,7.0,0,0.0,-1,0.0,0.0,0.0,0,0.1,2.7307
163863,1622989309605,,,,,,,,0.05,-1.2,-0.22,-36,2,0,1.2,,83,10800,39,27,72,1.113,67.3,649,2.76,12.9,30.4,1,42.3,4.56,20.3,0,0,1,1,0,692,244,24845,673,,,,,,,,,,,,,,,,
163883,1622989309625,,,,,,,,0.11,-1.08,-0.08,-36,1,-0,1.08,,84,10732,40,27,74,1.126,67.8,655,2.72,12.9,33.8,1,42.0,4.7,22.8,0,0,1,1,0,687,-6006,-10399,678,,,,,,,,,,,,,,,,
163903,1622989309645,,,,,,,,0.05,-1.15,-0.24,-36,2,-1,1.15,,84,10769,46,27,75,1.154,67.0,661,2.72,12.9,33.8,1,41.9,4.76,22.8,0,0,1,1,0,666,-4876,16118,677,,,,,,,,,,,,,,,,
163923,1622989309665,,,,,,,,-0.01,-1.07,-0.05,-36,-0,-2,1.07,,84,10769,46,27,77,1.182,67.3,648,2.71,12.8,33.8,1,41.7,4.86,22.8,0,0,1,1,0,666,244,-26892,673,,,,,,,,,,,,,,,,
163943,1622989309685,1,1,46,30,26,78,-14,-0.06,-1.11,-0.16,-36,1,-1,1.11,0,84,10617,47,27,78,1.21,67.2,652,2.67,12.8,33.8,1,41.4,5.01,22.8,0,0,1,1,0,672,-16046,-2826,672,45.699512,4.91049,62.6,207.1,4,3,7.0,0,0.0,-1,0.0,,0.0,0,0.11,2.7324
163963,1622989309705,,,,,,,,-0.07,-1.18,0.02,-35,1,-3,1.18,,84,10629,49,27,80,1.238,66.3,653,2.67,12.9,38.1,1,41.1,5.16,25.3,0,0,1,1,0,682,-10251,-26380,663,,,,,,,,,,,,,,,,
163983,1622989309725,,,,,,,,-0.07,-1.25,0.19,-35,1,-2,1.25,,84,10629,49,27,80,1.271,66.5,655,2.66,12.9,38.1,1,41.3,5.16,25.3,0,0,1,1,0,676,16599,-3038,665,,,,,,,,,,,,,,,,
164003,1622989309745,,,,,,,,-0.07,-1.28,0.34,-34,-0,-3,1.28,,83,10370,51,27,82,1.304,66.9,664,2.68,13.1,38.1,1,40.6,5.35,25.3,0,0,1,1,0,678,11776,-388,669,,,,,,,,,,,,,,,,
164023,1622989309765,,,,,,,,-0.02,-1.25,0.14,-33,-0,-2,1.25,,83,9863,55,27,86,1.37,67.0,638,2.67,13.1,38.1,1,39.7,5.58,25.3,0,0,1,1,0,663,11776,8958,668,,,,,,,,,,,,,,,,
164043,1622989309785,1,1,44,31,27,78,-10,-0.08,-1.12,0.3,-32,-1,-3,1.13,0,83,9590,56,27,88,1.396,66.6,640,2.68,13.1,38.1,1,39.3,5.86,25.3,0,0,1,1,0,653,2024,-3578,670,45.699497,4.910486,62.33,207.0,4,3,7.0,0,0.0,-1,0.0,0.0,0.0,0,0.11,2.7341
164063,1622989309805,,,,,,,,-0.05,-1.19,0.21,-31,1,-2,1.2,,84,9360,56,27,90,1.419,66.3,650,2.65,13.1,38.1,1,39.0,6.24,25.3,0,0,1,1,0,647,244,-27404,655,,,,,,,,,,,,,,,,
164083,1622989309825,,,,,,,,-0.05,-1.1,0.12,-30,-0,-1,1.1,,84,9119,58,27,90,1.419,66.3,650,2.67,12.7,41.2,1,38.9,6.34,27.0,0,0,1,1,0,648,4909,-10348,663,,,,,,,,,,,,,,,,
164103,1622989309845,,,,,,,,0.02,-1.05,0.2,-30,-2,-1,1.05,,84,9119,58,27,91,1.442,66.3,628,2.65,12.9,41.2,1,38.8,6.39,27.0,0,0,1,1,0,650,24,-10348,660,,,,,,,,,,,,,,,,
164123,1622989309865,,,,,,,,0.02,-0.97,0.35,-29,-3,-3,0.97,,84,7690,61,27,93,1.476,66.4,556,2.62,12.9,41.2,1,42.1,6.19,27.0,0,0,1,1,0,712,-30207,-10399,662,,,,,,,,,,,,,,,,
164143,1622989309885,1,0,42,33,26,79,-8,-0.0,-0.92,0.28,-28,-3,-4,0.92,0,84,7324,62,27,93,1.476,66.4,556,2.67,13.0,41.2,1,40.2,5.11,27.0,0,0,1,1,0,683,-3038,-2345,670,45.699486,4.910481,62.83,206.9,4,3,7.0,0,0.0,-1,0.0,,0.0,0,0.11,2.7357
164163,1622989309905,,,,,,,,-0.0,-0.89,0.21,-26,-3,-3,0.89,,84,7153,62,27,96,1.489,65.8,521,2.61,12.9,41.2,1,45.3,3.71,27.0,0,0,1,1,0,661,-30207,1549,663,,,,,,,,,,,,,,,,
164183,1622989309925,,,,,,,,-0.01,-0.88,0.03,-26,-2,-2,0.88,,84,7153,62,27,96,1.489,65.8,506,2.63,13.0,24.8,1,47.9,4.72,16.5,0,0,1,1,0,653,2024,3543,667,,,,,,,,,,,,,,,,
164203,1622989309943,,,,,,,,0.0,-0.91,0.14,-25,-2,-3,0.91,,84,6959,62,27,96,1.495,67.2,497,2.69,12.9,24.8,1,49.5,4.63,16.5,0,0,1,1,0,654,2024,1549,672,,,,,,,,,,,,,,,,
164223,1622989309963,,,,,,,,-0.0,-0.81,-0.04,-24,-0,-1,0.81,,84,6810,62,27,96,1.498,66.4,473,2.65,13.0,24.8,1,48.0,4.74,16.5,0,0,1,1,0,653,31988,3543,662,,,,,,,,,,,,,,,,
164243,1622989309983,-0,2,39,28,28,79,-5,0.03,-0.86,0.13,-23,-2,-3,0.86,0,84,6670,62,27,96,1.498,66.0,473,2.69,12.9,24.8,1,46.6,4.86,16.5,0,0,1,1,0,646,-30207,-26380,660,45.69947,4.910474,63.44,206.8,4,3,7.0,0,0.0,-1,0.0,0.0,0.0,0,0.11,2.7374
164263,1622989310003,,,,,,,,-0.04,-0.82,-0.04,-23,0,0,0.82,,84,6667,62,27,96,1.498,66.2,468,2.69,13.0,22.5,1,46.1,4.89,15.0,0,0,1,1,0,640,-30207,-388,656,,,,,,,,,,,,,,,,
164283,1622989310023,,,,,,,,-0.04,-0.74,0.13,-22,-2,-3,0.74,,84,6698,62,27,96,1.498,66.2,468,2.65,12.9,22.5,1,46.5,3.71,15.0,0,0,1,1,0,641,244,4909,662,,,,,,,,,,,,,,,,
164303,1622989310043,,,,,,,,-0.1,-0.78,-0.05,-22,-0,-2,0.78,,84,6698,62,27,96,1.498,66.5,473,2.66,13.0,22.5,1,46.8,3.68,15.0,0,0,1,1,0,645,-3488,-30207,665,,,,,,,,,,,,,,,,
164323,1622989310049,,,,,,,,-0.07,-0.71,0.09,-21,-2,-2,0.72,,84,6677,62,27,96,1.498,66.1,463,2.68,12.9,22.5,1,46.6,4.85,15.0,0,0,1,1,0,646,479,31988,661,,,,,,,,,,,,,,,,
164343,1622989310069,-0,2,37,30,28,79,-6,-0.16,-0.72,-0.06,-20,-1,-1,0.74,0,84,6751,62,27,96,1.498,65.2,473,2.64,13.0,22.5,1,46.8,4.84,15.0,0,0,1,1,0,640,-2830,479,655,45.699455,4.910467,63.42,206.7,4,3,7.0,0,0.0,-1,0.0,,0.0,0,0.11,2.739
164363,1622989310089,,,,,,,,-0.11,-0.66,-0.2,-19,0,-1,0.67,,84,6761,62,27,96,1.498,64.6,483,2.65,13.0,22.5,1,47.4,4.79,15.0,0,0,1,1,0,637,6208,11776,653,,,,,,,,,,,,,,,,
164383,1622989310109,,,,,,,,-0.11,-0.69,-0.3,-19,0,-1,0.7,,84,6761,62,27,96,1.498,64.6,483,2.62,12.9,23.0,1,47.5,4.78,15.0,0,0,1,1,0,640,6208,11566,646,,,,,,,,,,,,,,,,
164403,1622989310146,,,,,,,,-0.09,-0.63,-0.23,-19,-0,-2,0.63,,84,6727,62,27,96,1.498,64.6,472,2.63,13.0,23.0,1,47.1,4.81,15.0,0,0,1,1,0,636,4909,16599,645,,,,,,,,,,,,,,,,
164423,1622989310166,,,,,,,,-0.12,-0.71,-0.37,-18,0,-0,0.72,,84,6805,63,27,96,1.498,64.8,480,2.65,13.0,23.0,1,47.6,4.77,15.0,0,0,1,1,0,629,-2836,6208,649,,,,,,,,,,,,,,,,
164443,1622989310186,1,1,36,29,30,78,-6,-0.12,-0.74,-0.18,-18,-1,-2,0.75,0,84,6805,63,27,96,1.498,64.8,480,2.59,13.0,23.0,1,47.9,4.74,15.0,0,0,1,1,0,633,-2836,-3584,648,45.699444,4.910457,63.8,206.6,4,3,7.0,0,0.0,-1,0.0,0.0,0.0,0,0.12,2.7407
164463,1622989310206,,,,,,,,-0.15,-0.62,-0.33,-18,1,-0,0.64,,84,6788,63,27,96,1.498,64.1,487,2.63,13.0,23.2,1,47.8,4.76,14.9,0,0,1,1,0,633,-4876,6208,641,,,,,,,,,,,,,,,,
164483,1622989310226,,,,,,,,-0.2,-0.66,-0.13,-17,-1,-2,0.69,,84,6791,64,27,96,1.498,64.8,481,2.59,13.0,23.2,1,47.8,4.76,14.9,0,0,1,1,0,627,-2836,-10251,648,,,,,,,,,,,,,,,,
164503,1622989310245,,,,,,,,-0.16,-0.6,-0.29,-17,0,-0,0.62,,84,6833,64,27,96,1.498,64.0,480,2.56,13.0,23.2,1,48.2,4.72,14.9,0,0,1,1,0,623,-14655,-4876,640,,,,,,,,,,,,,,,,
164523,1622989310265,,,,,,,,-0.18,-0.65,-0.35,-16,-1,-2,0.67,,84,6840,64,27,96,1.498,63.8,483,2.62,12.9,23.2,1,48.4,4.71,14.9,0,0,1,1,0,627,-5120,-5120,634,,,,,,,,,,,,,,,,
164543,1622989310285,1,2,36,29,29,79,-5,-0.15,-0.55,-0.15,-16,-0,-1,0.57,0,84,6840,64,27,96,1.498,63.8,483,2.55,13.1,23.2,1,48.3,4.72,14.9,0,0,1,1,0,629,3395,771,644,45.699429,4.910447,64.73,206.6,4,2,7.0,0,0.0,-1,0.0,,0.0,0,0.12,2.7424
164563,1622989310305,,,,,,,,-0.21,-0.56,-0.3,-16,-0,-1,0.6,,84,6875,64,27,96,1.498,64.0,486,2.56,13.0,23.3,1,48.4,4.71,14.9,0,0,1,1,0,625,771,-16046,637,,,,,,,,,,,,,,,,
164583,1622989310325,,,,,,,,-0.18,-0.54,-0.11,-15,-0,-1,0.57,,84,6875,64,27,96,1.498,64.0,486,2.61,13.0,23.3,1,48.7,3.54,14.9,0,0,1,1,0,622,-16883,17336,640,,,,,,,,,,,,,,,,
164603,1622989310342,,,,,,,,-0.19,-0.49,-0.27,-15,1,0,0.52,,84,6875,64,27,96,1.498,63.0,498,2.54,13.0,23.3,1,48.7,4.69,14.9,0,0,1,1,0,622,3395,17336,630,,,,,,,,,,,,,,,,
164623,1622989310362,,,,,,,,-0.2,-0.5,-0.08,-15,-2,-1,0.53,,84,6878,64,27,96,1.498,63.4,493,2.55,12.9,23.3,1,48.7,4.7,14.9,0,0,1,1,0,620,-1346,17336,634,,,,,,,,,,,,,,,,
164643,1622989310382,-0,2,36,30,31,78,-3,-0.2,-0.43,-0.24,-14,-0,0,0.47,0,84,6903,64,27,96,1.498,62.9,497,2.55,13.0,23.3,1,48.7,4.69,14.9,0,0,1,1,0,619,-16883,19320,623,45.699413,4.910437,65.19,206.6,4,2,7.0,0,0.0,-1,0.0,0.0,0.0,0,0.12,2.7441
164663,1622989310402,,,,,,,,-0.2,-0.47,-0.39,-14,-1,-0,0.51,,84,6903,64,27,96,1.498,62.9,497,2.51,12.9,23.3,1,49.0,4.66,14.9,0,0,1,1,0,616,19320,26688,623,,,,,,,,,,,,,,,,
164683,1622989310422,,,,,,,,-0.19,-0.47,-0.19,-14,-1,-0,0.5,,84,6918,64,27,96,1.498,62.7,485,2.57,13.0,23.9,1,49.1,4.66,14.9,0,0,1,1,0,616,26688,19320,627,,,,,,,,,,,,,,,,
164703,1622989310442,,,,,,,,-0.23,-0.41,-0.34,-13,1,2,0.47,,84,6906,64,27,96,1.498,62.1,488,2.5,12.9,23.9,1,49.0,4.66,14.9,0,0,1,1,0,612,269,-28304,621,,,,,,,,,,,,,,,,
164723,1622989310462,,,,,,,,-0.23,-0.42,-0.14,-12,-1,-1,0.48,,84,6913,64,27,96,1.498,61.9,497,2.5,12.9,23.9,1,49.0,4.66,14.9,0,0,1,1,0,616,26688,1010,626,,,,,,,,,,,,,,,,
164743,1622989310482,1,0,34,31,31,78,-0,-0.16,-0.31,-0.28,-12,0,1,0.35,0,84,6926,64,27,96,1.498,62.3,498,2.53,13.0,23.9,1,49.1,4.66,14.9,0,0,1,1,0,615,-18357,28675,619,45.699398,4.910426,65.18,206.5,4,2,7.0,0,0.0,-1,0.0,,0.0,0,0.12,2.7457
164763,1622989310502,,,,,,,,-0.19,-0.31,-0.42,-11,-1,0,0.36,,84,6926,64,27,96,1.498,62.3,498,2.48,12.9,23.9,1,49.2,4.66,14.9,0,0,1,1,0,612,269,-30139,621,,,,,,,,,,,,,,,,
164783,1622989310522,,,,,,,,-0.19,-0.33,-0.22,-10,-2,-1,0.38,,84,6939,64,27,96,1.498,61.8,499,2.52,13.0,23.9,1,49.3,4.64,14.9,0,0,1,1,0,609,269,-30139,621,,,,,,,,,,,,,,,,
164803,1622989310542,,,,,,,,-0.21,-0.21,-0.37,-9,0,1,0.29,,84,6941,64,27,96,1.498,61.5,510,2.51,13.0,23.9,1,49.3,4.64,14.9,0,0,1,1,0,607,1010,17740,613,,,,,,,,,,,,,,,,
164823,1622989310562,,,,,,,,-0.21,-0.28,-0.51,-9,-1,-1,0.36,,84,6947,63,27,96,1.498,61.2,497,2.46,12.9,23.9,1,49.4,4.63,14.9,0,0,1,1,0,606,26688,-30139,605,,,,,,,,,,,,,,,,
164843,1622989310582,-0,2,33,32,31,78,1,-0.14,-0.22,-0.3,-8,-1,-0,0.26,0,84,6939,61,27,96,1.498,60.7,505,2.56,13.1,23.9,1,49.4,4.63,14.9,0,0,1,1,0,607,-28304,-3820,605,45.699387,4.910415,65.23,206.4,4,2,7.0,0,0.0,-1,0.0,0.0,0.0,0,0.12,2.7474
164863,1622989310602,,,,,,,,-0.15,-0.18,-0.44,-7,0,1,0.23,,84,6939,61,27,96,1.498,60.7,505,2.49,12.9,23.9,1,49.3,4.64,14.9,0,0,1,1,0,605,-3820,-3210,612,,,,,,,,,,,,,,,,
164883,1622989310622,,,,,,,,-0.17,-0.18,-0.29,-7,-2,-1,0.25,,84,7001,56,27,96,1.498,60.9,497,2.52,13.0,24.3,1,50.0,4.6,14.9,0,0,1,1,0,604,-3820,-7939,609,,,,,,,,,,,,,,,,
164903,1622989310644,,,,,,,,-0.19,-0.05,-0.1,-6,-1,-0,0.2,,84,6975,53,27,96,1.498,61.2,500,2.5,13.0,24.3,1,49.7,4.5,14.9,0,0,1,1,0,607,-23055,-3820,612,,,,,,,,,,,,,,,,
164923,1622989310664,,,,,,,,-0.25,-0.04,-0.25,-5,-0,0,0.26,,84,6883,52,27,96,1.498,60.8,500,2.48,13.0,24.3,1,48.7,4.57,14.9,0,0,1,1,0,604,-3820,5344,608,,,,,,,,,,,,,,,,
164943,1622989310684,-1,2,34,32,32,78,1,-0.23,-0.04,-0.07,-5,-1,-1,0.23,0,84,6853,52,27,96,1.498,61.1,486,2.55,13.0,24.3,1,48.4,4.6,14.9,0,0,1,1,0,598,1010,23619,610,45.699375,4.910404,64.7,206.2,4,3,7.0,0,0.0,-1,0.0,,0.0,0,0.12,2.7491
164963,1622989310704,,,,,,,,-0.25,-0.02,-0.23,-5,1,1,0.25,,84,6870,52,27,96,1.498,60.0,489,2.48,13.0,24.6,1,48.6,4.69,14.9,0,0,1,1,0,600,-3210,-16179,600,,,,,,,,,,,,,,,,
164983,1622989310724,,,,,,,,-0.25,-0.03,-0.12,-4,-1,-2,0.25,,84,6870,52,27,96,1.498,60.2,498,2.56,12.8,24.6,1,48.6,4.69,14.9,0,0,1,1,0,593,243,3472,600,,,,,,,,,,,,,,,,
165003,1622989310744,,,,,,,,-0.22,0.05,-0.27,-4,1,1,0.22,,84,6855,52,27,96,1.498,59.8,492,2.6,13.0,24.6,1,48.5,4.7,14.9,0,0,1,1,0,596,-32504,3472,606,,,,,,,,,,,,,,,,
165023,1622989310764,,,,,,,,-0.21,-0.04,-0.34,-4,-1,-1,0.22,,84,6830,52,27,96,1.498,60.1,495,2.54,12.9,24.6,1,48.2,4.72,14.9,0,0,1,1,0,596,-28648,17344,605,,,,,,,,,,,,,,,,
165043,1622989310784,-0,2,32,32,32,77,1,-0.15,-0.04,-0.38,-3,-1,0,0.15,0,84,6818,52,27,96,1.498,60.0,496,2.65,13.0,24.6,1,48.1,4.73,14.9,0,0,1,1,0,596,-3210,-13043,595,45.699364,4.910392,64.0,206.0,4,3,7.0,0,0.0,-1,0.0,0.0,0.0,0,0.13,2.7507
165063,1622989310804,,,,,,,,-0.19,-0.07,-0.52,-3,-0,0,0.2,,84,6868,50,27,96,1.498,60.0,500,2.6,13.0,24.7,1,48.7,4.69,14.9,0,0,1,1,0,592,243,-13043,591,,,,,,,,,,,,,,,,
165083,1622989310824,,,,,,,,-0.15,-0.05,-0.31,-3,-2,-2,0.16,,84,6870,44,27,95,1.498,59.6,497,2.62,13.0,24.7,1,48.6,3.54,14.9,0,0,1,1,0,593,-1894,3472,597,,,,,,,,,,,,,,,,
165103,1622989310844,,,,,,,,-0.14,-0.02,-0.45,-2,0,2,0.14,,84,6870,44,27,95,1.498,59.6,497,2.66,13.0,24.7,1,48.6,4.64,14.9,0,0,1,1,0,591,17344,6273,590,,,,,,,,,,,,,,,,
165123,1622989310864,,,,,,,,-0.09,-0.11,-0.24,-2,-2,-1,0.14,,84,6756,35,27,93,1.498,59.4,488,2.6,12.9,24.7,1,48.3,4.5,14.9,0,0,1,1,0,587,-28648,-32504,588,,,,,,,,,,,,,,,,
165143,1622989310884,-1,2,32,29,32,77,1,-0.11,-0.03,-0.39,-2,0,2,0.11,0,84,6756,35,27,93,1.498,59.4,488,2.63,13.0,24.7,1,47.4,3.47,14.9,0,0,1,1,0,590,-25872,2048,594,45.699352,4.910381,63.59,205.8,4,3,7.0,0,0.0,-1,0.0,,0.0,0,0.13,2.7524
165163,1622989310904,,,,,,,,-0.11,-0.04,-0.19,-2,-2,-1,0.12,,84,6703,33,27,92,1.498,59.0,486,2.62,12.8,23.5,1,46.9,4.48,13.9,0,0,1,1,0,588,2048,208,590,,,,,,,,,,,,,,,,
165183,1622989310924,,,,,,,,-0.16,-0.04,-0.34,-2,0,0,0.17,,84,6696,30,27,90,1.498,59.6,479,2.66,13.1,23.5,1,46.8,4.38,13.9,0,0,1,1,0,586,2048,208,596,,,,,,,,,,,,,,,,
165203,1622989310944,,,,,,,,-0.15,-0.03,-0.15,-2,-0,-1,0.16,,84,6718,27,27,89,1.498,59.0,486,2.6,12.9,23.5,1,46.5,4.32,13.9,0,0,1,1,0,582,-1894,15649,588,,,,,,,,,,,,,,,,
165223,1622989310964,,,,,,,,-0.19,0.03,-0.3,-1,2,2,0.19,,84,6788,26,27,87,1.498,59.4,485,2.65,13.1,23.5,1,46.1,4.17,13.9,0,0,1,1,0,578,3472,8488,592,,,,,,,,,,,,,,,,
165243,1622989310984,0,2,33,32,32,77,-0,-0.19,-0.01,-0.11,-2,-1,-1,0.19,0,84,6873,26,27,85,1.498,59.0,493,2.6,13.0,23.5,1,45.8,4.03,13.9,0,0,1,1,0,581,15649,208,587,45.699341,4.91037,63.11,205.5,4,3,7.0,0,0.0,-1,0.0,0.0,0.0,0,0.13,2.754
165263,1622989311004,,,,,,,,-0.16,0.09,-0.27,-1,1,2,0.19,,84,6848,26,27,85,1.498,58.5,500,2.64,13.0,22.4,1,45.5,4.15,13.1,0,0,1,1,0,585,-25872,8488,584,,,,,,,,,,,,,,,,
165283,1622989311024,,,,,,,,-0.15,-0.01,-0.41,-1,0,0,0.15,,84,6888,26,27,84,1.498,58.2,502,2.58,12.9,22.4,1,45.2,4.08,13.1,0,0,1,1,0,584,243,15649,582,,,,,,,,,,,,,,,,
165303,1622989311044,,,,,,,,-0.11,-0.02,-0.21,-1,-1,-0,0.11,,84,6863,26,27,84,1.498,59.0,497,2.61,12.9,22.4,1,45.5,4.07,13.1,0,0,1,1,0,589,-32504,-25872,584,,,,,,,,,,,,,,,,
165323,1622989311046,,,,,,,,-0.16,-0.06,-0.36,-1,0,1,0.17,,84,6863,26,27,83,1.498,59.1,497,2.58,13.0,22.4,1,44.5,4.05,13.1,0,0,1,1,0,586,-1894,15649,579,,,,,,,,,,,,,,,,
165343,1622989311066,1,2,33,33,30,76,1,-0.12,-0.07,-0.16,-1,-1,1,0.14,0,84,6783,26,27,83,1.498,58.3,500,2.59,12.9,22.4,1,44.0,4.09,13.1,0,0,1,1,0,584,8488,8488,584,45.699329,4.910358,62.44,205.4,4,3,7.0,0,0.0,-1,0.0,,0.0,0,0.13,2.7557
165363,1622989311086,,,,,,,,-0.16,-0.02,-0.31,-1,1,3,0.16,,84,6732,28,27,83,1.498,58.2,487,2.63,13.0,21.9,1,43.6,4.12,12.8,0,0,1,1,0,582,-4035,-3210,582,,,,,,,,,,,,,,,,
165383,1622989311106,,,,,,,,-0.12,-0.03,-0.12,-0,-1,0,0.12,,84,6818,37,27,88,1.498,57.9,491,2.65,13.0,21.9,1,44.8,4.19,12.8,0,0,1,1,0,584,1267,-3210,585,,,,,,,,,,,,,,,,
165403,1622989311144,,,,,,,,-0.13,-0.03,-0.28,-0,1,3,0.13,,84,6764,40,27,91,1.498,57.9,491,2.65,13.0,21.9,1,46.9,4.3,12.8,0,0,1,1,0,583,1760,-3210,584,,,,,,,,,,,,,,,,
165423,1622989311164,,,,,,,,-0.1,-0.05,-0.09,0,-0,-1,0.11,,84,6929,47,27,93,1.498,58.2,496,2.6,12.9,21.9,1,47.5,3.34,12.8,0,0,1,1,0,587,-25872,-3210,578,,,,,,,,,,,,,,,,
165443,1622989311184,0,0,33,35,31,76,4,-0.1,-0.03,-0.25,1,2,2,0.1,0,84,6929,47,27,93,1.498,58.2,496,2.65,13.0,21.9,1,49.2,5.14,12.8,0,0,1,1,0,581,8488,-3210,582,45.699314,4.910347,62.44,205.4,4,3,7.0,0,0.0,-1,0.0,0.0,0.0,0,0.13,2.7574
165463,1622989311204,,,,,,,,-0.09,-0.08,-0.39,1,2,3,0.12,,84,7140,54,27,95,1.498,58.4,506,2.6,13.0,30.6,1,48.1,5.36,17.7,0,0,1,1,0,583,-4035,-3210,577,,,,,,,,,,,,,,,,
165483,1622989311224,,,,,,,,-0.06,-0.11,-0.53,1,2,5,0.12,,84,7387,59,27,96,1.498,58.4,519,2.63,12.9,30.6,1,44.4,5.67,17.7,0,0,1,1,0,583,-4035,-3210,574,,,,,,,,,,,,,,,,
165503,1622989311246,,,,,,,,0.0,-0.09,-0.65,1,1,3,0.09,,84,7361,61,27,96,1.498,58.3,525,2.57,12.9,30.6,1,44.8,5.65,17.7,0,0,1,1,0,590,15649,23619,575,,,,,,,,,,,,,,,,
165523,1622989311266,,,,,,,,0.03,-0.11,-0.43,1,-2,-0,0.12,,84,7225,62,27,96,1.498,58.5,517,2.62,13.0,30.6,1,46.8,5.46,17.7,0,0,1,1,0,596,15649,19621,586,,,,,,,,,,,,,,,,
165543,1622989311286,-0,2,35,35,30,76,3,0.14,-0.11,-0.41,1,-2,2,0.18,0,84,6873,62,27,97,1.498,58.7,488,2.56,13.0,30.6,1,50.0,5.27,17.7,0,0,1,1,0,603,-12040,30227,582,45.699303,4.910339,58.8,205.4,4,3,7.0,0,0.0,-1,0.0,,0.0,0,0.13,2.759
165563,1622989311306,,,,,,,,0.16,-0.18,-0.54,1,-3,1,0.24,,84,6873,62,27,97,1.498,58.7,488,2.61,12.9,30.6,1,48.6,5.43,17.7,0,0,1,1,0,600,-12040,-768,587,,,,,,,,,,,,,,,,
165583,1622989311326,,,,,,,,0.19,-0.09,-0.65,1,-2,4,0.21,,84,6708,62,27,97,1.498,59.5,476,2.62,13.0,29.4,1,46.9,5.51,17.3,0,0,1,1,0,601,-32504,-3210,595,,,,,,,,,,,,,,,,
165603,1622989311343,,,,,,,,0.18,-0.1,-0.75,2,-3,1,0.21,,84,6727,62,27,97,1.494,59.8,476,2.64,12.9,29.4,1,47.1,5.39,17.3,0,0,1,1,0,602,4956,4956,587,,,,,,,,,,,,,,,,
165623,1622989311363,,,,,,,,0.25,-0.06,-0.52,2,-4,1,0.26,,84,6875,62,27,96,1.473,59.7,481,2.67,13.0,29.4,1,48.7,5.11,17.3,0,0,1,1,0,597,23619,4956,590,,,,,,,,,,,,,,,,
165643,1622989311383,-0,2,36,36,29,75,-0,0.27,-0.04,-0.59,2,-3,2,0.27,0,84,7295,62,27,97,1.432,59.8,515,2.65,13.0,29.4,1,47.5,5.15,17.3,0,0,1,1,0,602,-13043,-3210,593,45.699291,4.910328,59.34,205.3,4,3,7.0,0,0.0,-1,0.0,0.0,0.0,0,0.14,2.7607
165663,1622989311403,,,,,,,,0.28,-0.02,-0.71,2,-2,3,0.28,,84,7295,62,27,97,1.432,59.8,515,2.68,12.9,29.4,1,45.8,5.14,17.3,0,0,1,1,0,605,6273,28675,590,,,,,,,,,,,,,,,,
165683,1622989311423,,,,,,,,0.29,-0.1,-0.81,2,-2,3,0.31,,84,7140,63,27,97,1.412,59.8,515,2.68,12.9,28.9,1,48.1,4.94,17.3,0,0,1,1,0,615,4956,30721,596,,,,,,,,,,,,,,,,
165703,1622989311443,,,,,,,,0.28,-0.13,-0.58,1,-2,0,0.31,,84,7113,56,27,97,1.392,60.0,505,2.67,13.0,28.9,1,48.5,4.73,17.3,0,0,1,1,0,613,-3210,-3446,600,,,,,,,,,,,,,,,,
165723,1622989311463,,,,,,,,0.28,-0.03,-0.64,1,-1,2,0.28,,84,7019,37,27,95,1.372,59.7,497,2.68,13.0,28.9,1,49.8,4.43,17.3,0,0,1,1,0,613,23619,19304,597,,,,,,,,,,,,,,,,
165743,1622989311483,1,2,39,40,28,74,0,0.2,-0.1,-0.75,1,-1,-0,0.22,0,84,6900,14,27,91,1.353,60.1,494,2.69,13.0,28.9,1,48.9,4.35,17.3,0,0,1,1,0,618,-23055,3403,601,45.69928,4.910318,59.54,205.3,4,3,7.0,0,0.0,-1,0.0,,0.0,0,0.14,2.7624
165763,1622989311503,,,,,,,,0.2,-0.0,-0.52,1,-1,-2,0.2,,84,6860,4,27,85,1.333,60.7,483,2.72,12.9,21.0,1,45.6,4.05,12.8,0,0,1,1,0,613,19621,-28304,607,,,,,,,,,,,,,,,,
165783,1622989311523,,,,,,,,0.23,0.04,-0.64,1,-0,1,0.23,,84,7035,4,27,78,1.299,60.8,492,2.73,13.1,21.0,1,43.6,3.83,12.8,0,0,1,1,0,613,-23055,1010,608,,,,,,,,,,,,,,,,
165803,1622989311545,,,,,,,,0.21,0.05,-0.76,1,1,2,0.21,,84,7228,4,27,72,1.264,60.7,511,2.76,12.9,21.0,1,41.2,3.67,12.8,0,0,1,1,0,612,243,26688,606,,,,,,,,,,,,,,,,
165823,1622989311565,,,,,,,,0.14,0.09,-0.84,1,1,2,0.17,,84,7181,4,27,62,1.195,60.3,517,2.78,12.8,21.0,1,39.4,3.39,12.8,0,0,1,1,0,616,-3820,3403,599,,,,,,,,,,,,,,,,
165843,1622989311585,9,5,39,37,30,74,2,0.2,0.08,-0.6,1,-2,-1,0.22,0,84,7181,4,27,62,1.195,60.3,517,2.8,13.0,21.0,1,38.5,2.68,12.8,0,0,1,1,0,622,19621,3403,603,45.699264,4.910307,60.4,205.3,4,3,7.0,0,0.0,-1,0.0,0.0,0.0,0,0.14,2.764
165863,1622989311605,,,,,,,,0.15,0.11,-0.72,1,2,4,0.19,,84,6888,4,27,58,1.174,60.6,507,2.82,13.0,12.5,1,36.8,2.4,7.6,0,0,1,1,0,619,-7939,26688,606,,,,,,,,,,,,,,,,
165883,1622989311625,,,,,,,,0.12,0.02,-0.49,1,-0,1,0.12,,84,6860,4,27,53,1.147,60.4,498,2.87,12.9,12.5,1,35.5,2.3,7.6,0,0,1,1,0,615,-3446,-30139,596,,,,,,,,,,,,,,,,
165903,1622989311645,,,,,,,,0.09,0.08,-0.62,2,2,3,0.12,,84,6939,4,27,50,1.133,60.4,512,2.91,13.1,12.5,1,35.0,2.27,7.6,0,0,1,1,0,610,243,243,597,,,,,,,,,,,,,,,,
165923,1622989311665,,,,,,,,0.01,-0.01,-0.73,2,2,3,0.02,,84,6939,4,27,50,1.133,60.4,512,2.95,12.9,12.5,1,34.2,2.26,7.6,0,0,1,1,0,602,3472,-3210,596,,,,,,,,,,,,,,,,
165943,1622989311685,20,10,34,31,33,74,0,0.01,-0.06,-0.5,1,1,1,0.06,0,84,6952,4,27,48,1.103,59.0,522,3.02,13.0,12.5,1,33.5,2.26,7.6,0,0,1,1,0,600,15649,17344,584,45.699253,4.910296,60.99,205.2,4,3,7.0,0,0.0,-1,0.0,,0.0,0,0.14,2.7657
165963,1622989311705,,,,,,,,-0.09,0.05,-0.63,2,4,4,0.1,,84,6926,4,27,45,1.068,59.4,517,3.06,13.0,12.3,1,32.6,2.28,7.3,0,0,1,1,0,595,2048,-28648,589,,,,,,,,,,,,,,,,
165983,1622989311725,,,,,,,,-0.12,0.03,-0.41,1,2,0,0.12,,84,6793,4,27,42,0.998,58.4,500,3.12,12.9,12.3,1,32.1,2.29,7.3,0,0,1,1,0,591,-1894,208,578,,,,,,,,,,,,,,,,
166003,1622989311746,,,,,,,,-0.18,0.1,-0.54,1,4,3,0.2,,84,6793,4,27,42,0.998,58.4,500,3.22,13.0,12.3,1,31.5,2.31,7.3,0,0,1,1,0,590,-4035,2048,583,,,,,,,,,,,,,,,,
166023,1622989311766,,,,,,,,-0.13,0.07,-0.33,1,1,-1,0.15,,84,6521,4,27,39,0.944,58.2,488,3.31,12.8,12.3,1,30.7,2.32,7.3,0,0,1,1,0,586,-4035,15649,582,,,,,,,,,,,,,,,,
166043,1622989311786,15,10,31,31,34,74,0,-0.22,-0.03,-0.47,1,2,-0,0.22,0,84,6521,4,27,39,0.944,58.2,488,3.4,12.9,12.3,1,30.4,2.32,7.3,0,0,1,1,0,582,-16384,10432,582,45.699238,4.910286,61.21,205.2,4,3,7.0,0,0.0,-1,0.0,0.0,0.0,0,0.14,2.7674
166063,1622989311806,,,,,,,,-0.29,-0.01,-0.6,1,6,3,0.29,,84,6408,4,27,38,0.919,57.4,473,3.51,13.1,11.6,1,29.9,2.26,6.7,0,0,1,1,0,581,-3190,259,574,,,,,,,,,,,,,,,,
166083,1622989311826,,,,,,,,-0.34,0.06,-0.57,1,8,4,0.34,,84,6260,4,26,37,0.895,57.3,465,3.67,13.1,11.6,1,29.5,2.21,6.7,0,0,1,1,0,573,1760,1,572,,,,,,,,,,,,,,,,
166103,1622989311845,,,,,,,,-0.38,0.1,-0.36,1,9,5,0.4,,84,6065,4,26,36,0.873,56.9,455,3.77,13.1,11.6,1,29.2,2.16,6.7,0,0,1,1,0,568,12552,-8186,569,,,,,,,,,,,,,,,,
166123,1622989311865,,,,,,,,-0.47,0.1,-0.5,1,11,6,0.48,,84,5935,4,26,36,0.852,56.1,440,3.91,13.0,11.6,1,28.9,2.19,6.7,0,0,1,1,0,564,-18032,6273,558,,,,,,,,,,,,,,,,
166143,1622989311885,29,19,29,28,36,74,-1,-0.59,0.13,-0.62,1,15,10,0.61,0,84,5794,4,26,36,0.831,56.0,428,4.06,12.9,11.6,1,28.6,2.22,6.7,0,0,1,1,0,549,2524,-22519,560,45.699226,4.910275,61.08,205.2,4,3,7.0,0,0.0,-1,0.0,,0.0,0,0.14,2.7691
166163,1622989311905,,,,,,,,-0.7,0.06,-0.74,0,16,11,0.71,,84,5772,4,26,36,0.809,54.9,425,4.18,13.0,10.5,1,28.5,2.17,5.8,0,0,1,1,0,535,2524,-9072,549,,,,,,,,,,,,,,,,
166183,1622989311925,,,,,,,,-0.74,-0.05,-0.84,-0,15,9,0.74,,84,5909,4,26,35,0.792,54.2,426,4.31,13.0,10.5,1,28.3,2.16,5.8,0,0,1,1,0,522,-3082,14504,539,,,,,,,,,,,,,,,,
166203,1622989311945,,,,,,,,-0.74,-0.01,-0.88,-1,12,6,0.74,,84,5846,4,26,35,0.79,53.2,436,4.43,13.0,10.5,1,28.7,2.14,5.8,0,0,1,1,0,505,2524,-3856,533,,,,,,,,,,,,,,,,
166223,1622989311965,,,,,,,,-0.69,-0.04,-0.64,-1,7,1,0.69,,84,5772,4,26,35,0.787,51.7,432,4.34,12.7,10.5,1,28.5,2.15,5.8,0,0,1,1,0,504,-9212,771,526,,,,,,,,,,,,,,,,
166243,1622989311985,39,26,24,22,38,74,-2,-0.65,-0.07,-0.42,-2,4,-2,0.66,0,84,5772,4,26,35,0.787,51.7,432,4.34,12.7,10.5,1,28.2,2.17,5.8,0,0,1,1,0,478,-32248,15661,517,45.699215,4.910264,60.5,205.1,4,3,7.0,0,0.0,-1,0.0,0.0,0.0,0,0.15,2.7707
166263,1622989312005,,,,,,,,-0.75,0.04,-0.55,-2,7,2,0.75,,84,5484,4,26,35,0.799,51.1,415,4.27,12.8,11.0,1,27.8,2.2,5.7,0,0,1,1,0,458,6274,1,518,,,,,,,,,,,,,,,,
166283,1622989312025,,,,,,,,-0.77,0.04,-0.67,-3,7,1,0.77,,84,5484,4,26,35,0.799,51.1,415,4.27,12.9,11.0,1,27.4,2.23,5.7,0,0,1,1,0,463,10994,8488,511,,,,,,,,,,,,,,,,
166303,1622989312045,,,,,,,,-0.77,0.14,-0.45,-3,4,-1,0.79,,84,5304,4,26,35,0.807,50.2,395,4.31,13.0,11.0,1,26.9,2.27,5.7,0,0,1,1,0,472,771,2212,502,,,,,,,,,,,,,,,,
166323,1622989312047,,,,,,,,-0.83,0.09,-0.58,-3,4,1,0.83,,84,5351,4,26,36,0.816,49.2,389,4.43,12.9,11.0,1,27.0,2.36,5.7,0,0,1,1,0,424,32033,1504,492,,,,,,,,,,,,,,,,
166343,1622989312067,38,26,21,19,40,74,1,-0.85,0.09,-0.36,-4,1,-1,0.85,0,84,5351,4,26,36,0.826,48.8,396,4.54,13.0,11.0,1,27.3,2.33,5.7,0,0,1,1,0,377,16648,2278,488,45.699204,4.910254,59.78,205.1,4,3,7.0,0,0.0,-1,0.0,,0.0,0,0.15,2.7724
166363,1622989312087,,,,,,,,-0.94,0.01,-0.5,-4,5,2,0.94,,84,5263,4,26,37,0.856,46.7,389,4.51,12.9,12.4,1,27.4,2.42,5.9,0,0,1,1,0,331,-16384,-29302,475,,,,,,,,,,,,,,,,
166383,1622989312107,,,,,,,,-0.94,0.08,-0.29,-4,-1,-1,0.94,,84,5263,4,26,37,0.856,46.7,389,4.43,13.0,12.4,1,27.4,2.43,5.9,0,0,1,1,0,297,-18108,165,467,,,,,,,,,,,,,,,,
166403,1622989312145,,,,,,,,-0.95,0.03,-0.43,-5,1,1,0.95,,84,5155,4,26,37,0.872,46.0,383,4.32,13.0,12.4,1,27.1,2.45,5.9,0,0,1,1,0,291,14488,-25856,460,,,,,,,,,,,,,,,,
166423,1622989312165,,,,,,,,-1.0,-0.0,-0.44,-5,2,3,1.0,,84,4837,4,26,38,0.91,44.9,365,4.28,12.9,12.4,1,26.4,2.56,5.9,0,0,1,1,0,286,15649,-12032,454,,,,,,,,,,,,,,,,
166443,1622989312185,38,26,19,18,40,74,5,-1.07,0.05,-0.24,-5,2,2,1.07,0,84,4837,4,26,38,0.91,44.9,365,4.17,13.0,12.4,1,25.2,2.51,5.9,0,0,1,1,0,291,26704,-27136,449,45.699196,4.910246,58.04,205.0,4,3,7.0,0,0.0,-1,0.0,0.0,0.0,0,0.15,2.774
166463,1622989312205,,,,,,,,-1.07,0.08,-0.05,-5,1,0,1.07,,84,4557,4,26,39,0.954,43.2,343,4.11,13.1,12.0,1,23.6,2.46,5.3,0,0,1,1,0,303,13180,26880,441,,,,,,,,,,,,,,,,
166483,1622989312225,,,,,,,,-1.1,0.07,0.12,-5,-0,-0,1.1,,84,4557,4,26,39,0.954,43.2,343,4.1,13.0,12.0,1,22.3,2.41,5.3,0,0,1,1,0,275,-26615,10686,427,,,,,,,,,,,,,,,,
166503,1622989312241,,,,,,,,-1.15,0.12,0.28,-5,-1,-1,1.16,,84,4247,5,25,39,0.991,42.0,322,4.1,13.1,12.0,1,20.6,2.4,5.3,0,0,1,1,0,264,-21792,2414,426,,,,,,,,,,,,,,,,
166523,1622989312261,,,,,,,,-1.19,0.15,0.28,-5,-2,-1,1.2,,84,4247,5,25,39,0.991,42.0,322,4.01,13.0,12.0,1,18.8,2.33,5.3,0,0,1,1,0,262,-8165,-1281,422,,,,,,,,,,,,,,,,
166543,1622989312281,37,25,19,19,40,74,11,-1.15,0.18,0.09,-4,-2,0,1.16,0,84,4087,5,25,39,1.007,41.0,315,3.93,12.8,12.0,1,16.9,2.26,5.3,0,0,1,1,0,273,-9211,-1,409,45.699184,4.910237,55.89,204.9,4,3,7.0,0,0.0,-1,0.0,,0.0,0,0.15,2.7757
166563,1622989312301,,,,,,,,-1.21,0.19,0.01,-4,0,1,1.22,,84,3972,5,25,40,1.024,40.1,298,3.92,13.0,10.2,1,16.0,2.23,4.1,0,0,1,1,0,283,17144,-1,401,,,,,,,,,,,,,,,,
166583,1622989312321,,,,,,,,-1.17,0.19,-0.16,-4,-0,1,1.18,,84,3849,5,25,41,1.049,38.7,292,3.82,13.1,10.2,1,15.8,2.23,4.1,0,0,1,1,0,276,505,-1281,389,,,,,,,,,,,,,,,,
166603,1622989312344,,,,,,,,-1.17,0.17,-0.16,-3,-1,1,1.18,,84,3849,5,25,41,1.049,38.7,292,3.79,13.0,10.2,1,15.9,2.24,4.1,0,0,1,1,0,228,-19019,1088,392,,,,,,,,,,,,,,,,
166623,1622989312364,,,,,,,,-1.12,0.16,-0.22,-3,-3,1,1.14,,84,3734,5,25,41,1.056,37.9,285,3.69,13.1,10.2,1,15.6,2.24,4.1,0,0,1,1,0,210,-18948,-2560,379,,,,,,,,,,,,,,,,
166643,1622989312384,32,20,18,19,41,74,16,-1.19,0.17,-0.27,-2,-2,0,1.2,0,84,3615,5,25,42,1.062,37.7,281,3.69,13.1,10.2,1,15.3,2.24,4.1,0,0,1,1,0,202,2278,-1,372,45.699177,4.91023,53.66,204.9,4,3,7.0,0,0.0,-1,0.0,0.0,0.0,0,0.15,2.7774
166663,1622989312404,,,,,,,,-1.19,0.13,-0.25,-1,-1,0,1.19,,84,3421,5,25,43,1.069,37.1,272,3.65,12.9,9.6,1,0.0,2.25,3.5,0,0,1,1,0,233,486,-1,362,,,,,,,,,,,,,,,,
166683,1622989312424,,,,,,,,-1.16,0.08,-0.37,-0,-1,0,1.16,,84,3290,5,25,44,1.069,36.2,260,3.61,13.0,9.6,1,0.0,2.25,3.5,0,0,1,1,0,261,-29302,250,353,,,,,,,,,,,,,,,,
166703,1622989312444,,,,,,,,-1.1,0.12,-0.5,0,-1,1,1.11,,84,3068,5,25,45,1.065,35.1,242,3.64,13.1,9.6,1,0.0,2.26,3.5,0,0,1,1,0,277,3183,18432,347,,,,,,,,,,,,,,,,
166723,1622989312464,,,,,,,,-1.02,0.1,-0.49,1,-3,1,1.02,,84,3058,5,25,46,1.064,34.5,241,3.66,13.1,9.6,1,0.0,2.26,3.5,0,0,1,1,0,260,28553,13468,343,,,,,,,,,,,,,,,,
166743,1622989312484,14,6,19,20,40,74,16,-0.98,0.12,-0.52,2,-4,0,0.99,0,84,3070,5,25,47,1.06,34.2,242,3.63,13.1,9.6,1,15.0,2.27,3.5,0,0,1,1,0,211,6870,-29696,338,45.699169,4.910222,51.05,204.8,4,3,7.0,0,0.0,-1,0.0,,0.0,0,0.15,2.779
166763,1622989312504,,,,,,,,-0.94,0.12,-0.64,3,-4,1,0.95,,84,3070,5,25,47,1.06,34.2,242,3.62,13.1,9.6,1,15.0,2.28,3.5,0,0,1,1,0,213,-31206,250,338,,,,,,,,,,,,,,,,
166783,1622989312524,,,,,,,,-0.96,0.07,-0.75,4,-4,1,0.96,,84,3079,5,25,48,1.056,33.9,242,3.65,13.1,9.4,1,15.0,2.28,3.2,0,0,1,1,0,215,-122,250,329,,,,,,,,,,,,,,,,
166803,1622989312545,,,,,,,,-0.94,0.1,-0.85,5,-4,1,0.94,,84,3083,7,25,49,1.048,32.9,242,3.62,13.1,9.4,1,0.0,2.28,3.2,0,0,1,1,0,255,13,14337,325,,,,,,,,,,,,,,,,
166823,1622989312565,,,,,,,,-0.91,0.13,-0.83,5,-4,1,0.92,,84,3083,7,25,49,1.048,32.9,242,3.64,13.1,9.4,1,15.0,2.29,3.2,0,0,1,1,0,316,-20736,23040,316,,,,,,,,,,,,,,,,
166843,1622989312585,8,5,20,22,39,74,16,-0.89,0.15,-0.88,6,-3,1,0.9,0,84,3156,8,25,52,1.038,32.0,245,3.66,13.1,9.4,1,15.0,2.31,3.2,0,0,1,1,0,317,-23296,135,314,45.699162,4.910216,48.24,204.7,4,3,7.0,0,0.0,-1,0.0,0.0,0.0,0,0.16,2.7807
166863,1622989312605,,,,,,,,-0.87,0.16,-0.85,7,-3,1,0.88,,84,3156,8,25,52,1.038,32.0,245,3.66,13.1,9.4,1,15.0,2.32,3.2,0,0,1,1,0,319,-24576,110,313,,,,,,,,,,,,,,,,
166883,1622989312625,,,,,,,,-0.81,0.17,-0.9,7,-4,0,0.83,,84,3252,8,25,53,1.033,32.1,248,3.65,13.0,10.5,1,15.0,2.33,3.3,0,0,1,1,0,316,-25856,110,310,,,,,,,,,,,,,,,,
166903,1622989312644,,,,,,,,-0.76,0.18,-0.92,8,-4,1,0.78,,84,3363,9,25,56,1.024,31.2,249,3.63,13.1,10.5,1,15.0,2.37,3.3,0,0,1,1,0,314,135,28160,303,,,,,,,,,,,,,,,,
166923,1622989312664,,,,,,,,-0.72,0.18,-1.01,8,-4,1,0.74,,84,3399,10,25,56,1.024,31.2,249,3.63,13.1,10.5,1,15.0,2.41,3.3,0,0,1,1,0,304,130,23040,303,,,,,,,,,,,,,,,,
166943,1622989312684,5,4,23,26,38,74,14,-0.76,0.18,-0.78,8,-3,1,0.78,0,84,3399,10,25,58,1.02,30.5,256,3.66,13.1,10.5,1,15.0,2.48,3.3,0,0,1,1,0,304,29440,85,302,45.699154,4.910211,45.65,204.8,4,3,7.0,0,0.0,-1,0.0,,0.0,0,0.16,2.7824
166963,1622989312704,,,,,,,,-0.68,0.18,-0.88,9,-4,0,0.7,,84,3647,13,25,62,1.013,30.4,267,3.66,12.9,13.9,1,15.3,2.55,4.1,0,0,1,1,0,299,29440,41,293,,,,,,,,,,,,,,,,
166983,1622989312724,,,,,,,,-0.69,0.15,-0.68,9,-3,-0,0.7,,84,3647,13,25,62,1.013,30.4,267,3.67,13.1,13.9,1,17.0,2.59,4.1,0,0,1,1,0,298,110,20480,295,,,,,,,,,,,,,,,,
167003,1622989312744,,,,,,,,-0.63,0.13,-0.79,9,-3,-0,0.65,,84,3947,14,25,66,1.006,29.6,283,3.68,13.1,13.9,1,19.0,2.63,4.1,0,0,1,1,0,293,105,250,289,,,,,,,,,,,,,,,,
167023,1622989312764,,,,,,,,-0.61,0.14,-0.67,9,-3,-1,0.63,,84,4142,14,25,66,1.006,29.6,283,3.68,13.1,13.9,1,21.4,2.69,4.1,0,0,1,1,0,292,90,41,290,,,,,,,,,,,,,,,,
167043,1622989312784,5,3,23,26,37,74,14,-0.65,0.15,-0.45,9,-2,-1,0.67,0,84,4142,14,25,68,1.003,29.2,290,3.69,13.1,13.9,1,24.4,2.82,4.1,0,0,1,1,0,288,80,1886,285,45.69915,4.910205,43.02,204.7,4,3,7.0,0,0.0,-1,0.0,0.0,0.0,0,0.16,2.784
167063,1622989312804,,,,,,,,-0.66,0.19,-0.24,9,-1,-1,0.68,,84,4482,14,25,68,1.0,29.0,304,3.72,13.1,21.7,1,29.1,2.98,6.1,0,0,1,1,0,289,0,250,281,,,,,,,,,,,,,,,,
167083,1622989312824,,,,,,,,-0.59,0.19,-0.06,10,-3,-2,0.62,,84,4808,14,26,70,0.994,28.8,333,3.75,13.1,21.7,1,32.7,3.11,6.1,0,0,1,1,0,285,0,-1534,279,,,,,,,,,,,,,,,,
167103,1622989312844,,,,,,,,-0.51,0.15,-0.22,10,-4,-2,0.54,,84,4808,14,26,70,0.994,28.8,333,3.78,13.1,21.7,1,34.0,3.16,6.1,0,0,1,1,0,289,0,-1534,281,,,,,,,,,,,,,,,,
167123,1622989312864,,,,,,,,-0.53,0.19,-0.24,10,-1,1,0.56,,84,5017,15,26,71,0.988,28.4,352,3.94,13.0,21.7,1,36.4,3.28,6.1,0,0,1,1,0,290,41,-1534,280,,,,,,,,,,,,,,,,
167143,1622989312884,-1,2,27,30,35,74,12,-0.44,0.21,-0.05,10,-4,-1,0.49,0,84,5017,15,26,71,0.988,28.4,352,3.94,13.0,21.7,1,37.0,3.35,6.1,0,0,1,1,0,290,250,-1534,278,45.699142,4.910201,40.72,204.7,4,3,7.0,0,0.0,-1,0.0,,0.0,0,0.16,2.7857
167163,1622989312904,,,,,,,,-0.44,0.21,-0.22,10,-4,-1,0.49,,84,5111,15,26,72,0.982,28.8,357,3.96,13.1,29.2,1,37.2,3.44,8.1,0,0,1,1,0,289,0,250,277,,,,,,,,,,,,,,,,
167183,1622989312924,,,,,,,,-0.35,0.19,-0.03,10,-4,-2,0.4,,84,5218,15,26,72,0.966,28.4,369,3.96,13.0,29.2,1,37.1,3.48,8.1,0,0,1,1,0,288,250,-1534,279,,,,,,,,,,,,,,,,
167203,1622989312944,,,,,,,,-0.32,0.16,-0.19,10,-3,-0,0.36,,84,5299,15,26,73,0.951,28.8,370,3.99,13.0,29.2,1,37.2,3.57,8.1,0,0,1,1,0,287,0,250,275,,,,,,,,,,,,,,,,
167223,1622989312964,,,,,,,,-0.24,0.19,-0.01,10,-3,-1,0.3,,84,5169,14,26,73,0.935,29.0,373,4.01,12.8,29.2,1,37.4,3.51,8.1,0,0,1,1,0,294,0,0,281,,,,,,,,,,,,,,,,
167243,1622989312984,-1,2,33,35,32,74,8,-0.19,0.16,0.01,9,-4,-2,0.25,0,84,4600,4,26,71,0.912,29.4,337,4.02,13.1,29.2,1,36.6,3.39,8.1,0,0,1,1,0,299,21760,25600,286,45.699135,4.910196,38.87,204.7,4,3,7.0,0,0.0,-1,0.0,0.0,0.0,0,0.16,2.7874
167263,1622989313004,,,,,,,,-0.15,0.15,0.18,9,-6,-4,0.21,,84,4428,4,26,71,0.912,29.4,337,4.05,13.1,29.2,1,31.4,3.08,8.1,0,0,1,1,0,302,90,95,290,,,,,,,,,,,,,,,,
167283,1622989313024,,,,,,,,-0.13,0.14,0.33,9,-6,-5,0.19,,84,4428,4,26,68,0.903,29.6,325,4.03,13.1,22.4,1,28.3,2.95,6.5,0,0,1,1,0,300,90,90,289,,,,,,,,,,,,,,,,
167303,1622989313044,,,,,,,,-0.16,0.12,0.47,8,-6,-6,0.2,,84,4385,4,26,64,0.886,29.3,311,4.0,13.1,22.4,1,27.1,2.84,6.5,0,0,1,1,0,298,23040,85,292,,,,,,,,,,,,,,,,
167323,1622989313046,,,,,,,,-0.19,0.12,0.6,8,-5,-6,0.23,,84,4385,4,26,64,0.886,29.3,311,3.98,13.0,22.4,1,26.6,2.75,6.5,0,0,1,1,0,294,21760,21760,292,,,,,,,,,,,,,,,,
167343,1622989313066,-1,2,36,36,31,74,2,-0.22,0.13,0.71,8,-4,-6,0.25,0,84,4470,4,26,63,0.882,29.5,316,3.91,13.0,22.4,1,27.5,2.74,6.5,0,0,1,1,0,295,23040,0,294,45.699131,4.910191,37.02,204.6,4,3,7.0,0,0.0,-1,0.0,,0.0,0,0.16,2.7891
167363,1622989313086,,,,,,,,-0.25,0.11,0.82,7,-3,-7,0.27,,84,4535,5,26,60,0.874,29.5,325,3.89,13.1,19.1,1,27.7,2.67,5.6,0,0,1,1,0,294,90,80,293,,,,,,,,,,,,,,,,
167383,1622989313106,,,,,,,,-0.25,0.09,0.92,7,-3,-7,0.26,,84,4535,5,26,60,0.874,29.5,325,3.88,13.0,19.1,1,27.6,2.66,5.6,0,0,1,1,0,294,23040,80,295,,,,,,,,,,,,,,,,
167403,1622989313144,,,,,,,,-0.22,0.08,1.01,6,-4,-8,0.24,,84,4613,5,26,59,0.87,29.4,326,3.91,13.1,19.1,1,28.3,2.68,5.6,0,0,1,1,0,295,85,80,293,,,,,,,,,,,,,,,,
167423,1622989313164,,,,,,,,-0.17,0.04,1.09,5,-5,-9,0.17,,84,4591,5,26,57,0.877,29.3,329,3.96,13.1,19.1,1,27.4,2.66,5.6,0,0,1,1,0,294,80,21760,293,,,,,,,,,,,,,,,,
167443,1622989313184,-1,2,35,36,31,74,-5,-0.13,-0.01,0.96,4,-6,-10,0.13,0,84,4584,5,26,55,0.896,29.8,329,3.96,13.1,19.1,1,26.8,2.64,5.6,0,0,1,1,0,293,80,85,295,45.699123,4.910187,36.66,204.6,4,3,7.0,0,0.0,-1,0.0,0.0,0.0,0,0.16,2.7907
167463,1622989313204,,,,,,,,-0.07,-0.05,0.78,4,-7,-10,0.09,,84,4584,5,26,55,0.896,29.8,329,3.96,13.1,19.1,1,26.8,2.65,5.6,0,0,1,1,0,292,80,85,298,,,,,,,,,,,,,,,,
167483,1622989313224,,,,,,,,-0.04,-0.08,0.66,3,-7,-10,0.09,,84,4476,5,26,54,0.905,29.6,330,3.95,13.1,18.7,1,25.2,2.57,5.6,0,0,1,1,0,291,80,23040,296,,,,,,,,,,,,,,,,
167503,1622989313244,,,,,,,,-0.02,-0.11,0.6,2,-7,-10,0.11,,84,4430,5,26,53,0.909,29.7,330,3.95,13.1,18.7,1,24.3,2.52,5.6,0,0,1,1,0,291,0,23040,297,,,,,,,,,,,,,,,,
167523,1622989313264,,,,,,,,-0.07,-0.15,0.72,1,-6,-11,0.16,,84,4275,5,26,52,0.913,29.4,318,3.96,13.1,18.7,1,23.2,2.48,5.6,0,0,1,1,0,290,-16896,85,294,,,,,,,,,,,,,,,,
167543,1622989313284,1,1,35,36,30,74,-12,-0.12,-0.17,0.83,1,-5,-10,0.2,0,84,4275,5,26,52,0.913,29.4,318,3.96,13.0,18.7,1,22.1,2.43,5.6,0,0,1,1,0,289,0,23040,294,45.699116,4.910183,35.91,204.6,4,3,7.0,0,0.0,-1,0.0,,0.0,0,0.16,2.7924
167563,1622989313304,,,,,,,,-0.14,-0.18,0.74,-0,-3,-9,0.22,,84,4177,5,26,51,0.912,29.7,311,3.97,13.0,16.1,1,22.2,2.44,4.8,0,0,1,1,0,289,41,23040,297,,,,,,,,,,,,,,,,
167583,1622989313324,,,,,,,,-0.08,-0.22,0.52,-1,-3,-9,0.23,,84,4177,5,26,51,0.912,29.7,311,3.99,13.0,16.1,1,20.7,2.4,4.8,0,0,1,1,0,287,20480,23040,297,,,,,,,,,,,,,,,,
167603,1622989313345,,,,,,,,-0.07,-0.22,0.31,-2,-3,-9,0.23,,84,4144,5,26,51,0.908,30.1,308,4.01,13.0,16.1,1,20.3,2.35,4.8,0,0,1,1,0,283,0,85,301,,,,,,,,,,,,,,,,
167623,1622989313365,,,,,,,,-0.07,-0.2,0.28,-2,-3,-10,0.21,,84,4281,5,26,50,0.904,30.2,310,4.02,13.1,16.1,1,21.7,2.44,4.8,0,0,1,1,0,278,0,20480,302,,,,,,,,,,,,,,,,
167643,1622989313385,-1,2,30,37,29,74,-15,-0.11,-0.24,0.36,-3,-3,-11,0.26,0,84,4462,5,26,50,0.899,29.7,316,4.02,13.1,16.1,1,22.7,2.49,4.8,0,0,1,1,0,274,10686,-16896,297,45.699112,4.910179,35.26,204.5,4,3,7.0,0,0.0,-1,0.0,0.0,0.0,0,0.16,2.794
167663,1622989313405,,,,,,,,-0.1,-0.22,0.5,-3,-3,-11,0.24,,84,4462,5,26,49,0.894,28.8,322,4.05,13.1,16.1,1,23.6,2.54,4.8,0,0,1,1,0,269,250,-16896,288,,,,,,,,,,,,,,,,
167683,1622989313425,,,,,,,,-0.12,-0.22,0.63,-4,-4,-11,0.25,,84,4519,5,26,49,0.888,28.9,332,4.07,13.0,18.0,1,24.3,2.57,5.2,0,0,1,1,0,271,1886,250,289,,,,,,,,,,,,,,,,
167703,1622989313443,,,,,,,,-0.07,-0.21,0.67,-5,-5,-11,0.23,,84,4569,5,26,49,0.883,28.6,329,4.1,13.1,18.0,1,24.9,2.6,5.2,0,0,1,1,0,275,250,10686,290,,,,,,,,,,,,,,,,
167723,1622989313463,,,,,,,,-0.05,-0.23,0.62,-6,-6,-12,0.24,,84,4585,5,26,48,0.878,29.8,339,4.12,13.1,18.0,1,24.8,2.61,5.2,0,0,1,1,0,276,250,0,298,,,,,,,,,,,,,,,,
167743,1622989313483,0,2,28,35,29,74,-26,-0.05,-0.24,0.61,-7,-6,-13,0.24,0,84,4445,4,26,48,0.871,28.7,330,4.21,13.1,18.0,1,24.0,2.57,5.2,0,0,1,1,0,276,630,0,291,45.699108,4.910175,34.01,204.3,4,3,7.0,0,0.0,-1,0.0,,0.0,0,0.17,2.7957
167763,1622989313503,,,,,,,,-0.06,-0.25,0.64,-8,-7,-13,0.26,,84,4445,4,26,48,0.871,28.7,330,4.32,13.1,18.0,1,23.1,2.53,5.2,0,0,1,1,0,275,250,41,287,,,,,,,,,,,,,,,,
167783,1622989313523,,,,,,,,-0.1,-0.28,0.72,-10,-6,-12,0.3,,84,4396,4,26,47,0.868,28.3,322,4.51,13.1,18.1,1,22.3,2.5,5.2,0,0,1,1,0,270,30208,41,283,,,,,,,,,,,,,,,,
167803,1622989313545,,,,,,,,-0.16,-0.3,0.82,-11,-5,-12,0.34,,84,4287,4,26,46,0.861,28.8,324,4.46,13.1,18.1,1,21.5,2.47,5.2,0,0,1,1,0,269,28160,0,285,,,,,,,,,,,,,,,,
167823,1622989313565,,,,,,,,-0.19,-0.28,0.76,-13,-4,-10,0.34,,84,4287,4,26,46,0.861,28.8,324,4.47,13.0,18.1,1,20.7,2.43,5.2,0,0,1,1,0,265,-1281,41,288,,,,,,,,,,,,,,,,
167843,1622989313585,1,1,29,26,30,74,-40,-0.19,-0.4,0.53,-15,-4,-7,0.45,0,84,4295,4,26,46,0.855,29.3,319,4.55,12.9,18.1,1,20.5,2.42,5.2,0,0,1,1,0,260,-1,250,291,45.6991,4.910171,33.34,204.2,4,3,7.0,0,0.0,-1,0.0,0.0,0.0,0,0.17,2.7974
167863,1622989313605,,,,,,,,-0.15,-0.43,0.32,-17,-4,-6,0.45,,84,4295,4,26,46,0.855,29.3,319,4.58,13.0,18.1,1,20.8,2.43,5.2,0,0,1,1,0,259,-1,-16896,295,,,,,,,,,,,,,,,,
167883,1622989313625,,,,,,,,-0.14,-0.43,0.13,-19,-4,-5,0.45,,84,4253,4,26,46,0.85,29.3,316,4.5,13.1,16.3,1,20.6,2.42,4.8,0,0,1,1,0,260,-1,0,296,,,,,,,,,,,,,,,,
167903,1622989313645,,,,,,,,-0.16,-0.48,-0.01,-21,-4,-5,0.51,,84,4253,4,26,46,0.85,29.3,316,4.5,13.1,16.3,1,20.3,2.4,4.8,0,0,1,1,0,258,-1,250,293,,,,,,,,,,,,,,,,
167923,1622989313665,,,,,,,,-0.23,-0.57,0.16,-22,-5,-5,0.62,,84,4300,4,26,45,0.85,28.3,312,4.55,13.1,16.3,1,20.5,2.42,4.8,0,0,1,1,0,253,-1,1886,283,,,,,,,,,,,,,,,,
167943,1622989313685,1,2,37,23,32,74,-74,-0.28,-0.65,0.31,-25,-4,-3,0.71,0,84,4300,4,26,45,0.851,28.1,316,4.58,13.1,16.3,1,20.7,2.42,4.8,0,0,1,1,0,249,-1,250,281,45.699097,4.910166,32.74,204.2,4,3,7.0,0,0.0,-1,0.0,,0.0,0,0.17,2.799
167963,1622989313705,,,,,,,,-0.3,-0.67,0.27,-27,-3,-3,0.73,,84,4268,4,26,45,0.851,28.3,318,4.56,13.0,16.6,1,20.3,2.41,4.7,0,0,1,1,0,245,-1,250,283,,,,,,,,,,,,,,,,
167983,1622989313725,,,,,,,,-0.26,-0.63,0.08,-30,-3,-2,0.69,,84,4226,4,26,45,0.852,28.3,314,4.6,12.9,16.6,1,19.8,2.38,4.7,0,0,1,1,0,243,-1494,-1534,283,,,,,,,,,,,,,,,,
168003,1622989313745,,,,,,,,-0.22,-0.59,-0.09,-32,-3,-3,0.63,,84,4181,4,26,45,0.853,27.7,315,4.62,12.9,16.6,1,18.9,2.36,4.7,0,0,1,1,0,239,10812,24064,277,,,,,,,,,,,,,,,,
168023,1622989313765,,,,,,,,-0.3,-0.61,0.04,-35,-2,-2,0.68,,84,3991,4,26,44,0.854,27.8,304,4.67,13.1,16.6,1,18.1,2.32,4.7,0,0,1,1,0,238,-25600,-1534,278,,,,,,,,,,,,,,,,
168043,1622989313785,-0,2,39,24,32,74,-90,-0.31,-0.61,-0.13,-38,-1,-3,0.68,0,84,3991,4,26,44,0.854,27.8,304,4.65,12.9,16.6,1,16.9,2.26,4.7,0,0,1,1,0,232,250,30208,278,45.699093,4.910162,32.15,204.1,4,3,7.0,0,0.0,-1,0.0,0.0,0.0,0,0.17,2.8007
168063,1622989313805,,,,,,,,-0.32,-0.67,-0.28,-40,-0,-1,0.74,,84,3899,4,26,44,0.864,28.2,295,4.58,12.9,14.5,1,16.6,2.26,4.1,0,0,1,1,0,227,18432,-1527,281,,,,,,,,,,,,,,,,
168083,1622989313825,,,,,,,,-0.32,-0.49,-0.38,-43,2,-1,0.58,,84,3899,4,26,44,0.864,28.2,295,4.51,13.1,14.5,1,16.5,2.26,4.1,0,0,1,1,0,219,-1496,2414,282,,,,,,,,,,,,,,,,
168103,1622989313843,,,,,,,,-0.34,-0.56,-0.51,-45,2,-2,0.66,,84,3797,4,26,44,0.872,27.6,290,4.41,12.8,14.5,1,16.2,2.27,4.1,0,0,1,1,0,217,250,-1281,276,,,,,,,,,,,,,,,,
168123,1622989313863,,,,,,,,-0.39,-0.68,-0.34,-48,3,-2,0.78,,84,3797,4,26,45,0.881,27.5,291,4.38,13.1,14.5,1,16.2,2.27,4.1,0,0,1,1,0,216,10318,-1,275,,,,,,,,,,,,,,,,
168143,1622989313883,1,2,37,22,33,74,-69,-0.37,-0.72,-0.44,-50,2,-2,0.81,0,84,3743,4,26,46,0.895,28.3,282,4.38,12.9,14.5,1,16.1,2.27,4.1,0,0,1,1,0,213,15360,-1,281,45.699089,4.910156,31.26,203.9,4,2,7.0,0,0.0,-1,0.0,,0.0,0,0.17,2.8024
168163,1622989313903,,,,,,,,-0.41,-0.69,-0.56,-53,2,-2,0.8,,84,3743,4,26,46,0.895,28.3,282,4.34,13.1,14.5,1,16.1,2.27,4.1,0,0,1,1,0,195,1596,250,278,,,,,,,,,,,,,,,,
168183,1622989313923,,,,,,,,-0.36,-0.63,-0.62,-54,1,-2,0.73,,84,3636,4,26,46,0.907,27.8,277,4.27,12.8,13.7,1,15.8,2.27,3.9,0,0,1,1,0,190,-1530,-1,283,,,,,,,,,,,,,,,,
168203,1622989313945,,,,,,,,-0.37,-0.59,-0.67,-55,0,-1,0.69,,84,3636,4,26,46,0.907,27.8,277,4.23,13.1,13.7,1,15.6,2.27,3.9,0,0,1,1,0,188,10318,-1281,278,,,,,,,,,,,,,,,,
168223,1622989313965,,,,,,,,-0.41,-0.5,-0.61,-55,0,-2,0.65,,84,3561,4,26,47,0.918,26.9,275,4.18,12.9,13.7,1,15.2,2.28,3.9,0,0,1,1,0,197,10318,-1,273,,,,,,,,,,,,,,,,
168243,1622989313985,1,0,33,30,32,74,-43,-0.34,-0.5,-0.65,-54,-0,-1,0.61,0,84,3568,4,26,48,0.922,25.9,268,4.18,12.9,13.7,1,15.3,2.28,3.9,0,0,1,1,0,219,-1494,14337,263,45.699081,4.91015,31.35,203.9,4,3,7.0,0,0.0,-1,0.0,0.0,0.0,0,0.17,2.804
168263,1622989314005,,,,,,,,-0.39,-0.48,-0.71,-53,1,-0,0.61,,84,3568,4,26,48,0.922,25.9,268,4.16,13.1,13.7,1,15.3,2.28,3.9,0,0,1,1,0,215,-1496,-1281,259,,,,,,,,,,,,,,,,
168283,1622989314025,,,,,,,,-0.36,-0.42,-0.71,-51,0,-1,0.55,,84,3598,4,26,48,0.926,25.8,276,4.17,13.0,14.2,1,15.5,2.28,3.7,0,0,1,1,0,221,19968,-214,258,,,,,,,,,,,,,,,,
168303,1622989314045,,,,,,,,-0.35,-0.37,-0.8,-50,-0,0,0.51,,84,3623,4,26,48,0.929,25.6,271,4.27,13.1,14.2,1,15.6,2.28,3.7,0,0,1,1,0,219,10318,15360,256,,,,,,,,,,,,,,,,
168323,1622989314047,,,,,,,,-0.36,-0.34,-0.86,-48,-0,0,0.5,,84,3642,4,26,48,0.931,25.3,277,4.4,13.1,14.2,1,15.7,2.28,3.7,0,0,1,1,0,219,19968,23482,253,,,,,,,,,,,,,,,,
168343,1622989314067,1,0,31,33,32,74,-26,-0.34,-0.34,-0.93,-46,-1,0,0.48,0,84,3677,4,26,48,0.93,24.9,272,4.4,13.1,14.2,1,15.9,2.28,3.7,0,0,1,1,0,219,10318,250,249,45.699078,4.910144,30.79,203.7,4,2,7.0,0,0.0,-1,0.0,,0.0,0,0.17,2.8057
168363,1622989314087,,,,,,,,-0.39,-0.32,-0.83,-44,-0,0,0.5,,84,3702,5,26,49,0.931,24.0,277,4.36,13.0,15.9,1,16.1,2.28,3.9,0,0,1,1,0,222,10318,-1484,245,,,,,,,,,,,,,,,,
168383,1622989314107,,,,,,,,-0.35,-0.3,-0.92,-42,-1,-0,0.46,,84,3702,5,26,49,0.931,24.0,277,4.35,12.9,15.9,1,16.2,2.28,3.9,0,0,1,1,0,224,250,-1484,240,,,,,,,,,,,,,,,,
168403,1622989314145,,,,,,,,-0.38,-0.3,-0.72,-40,-0,-1,0.48,,84,3696,5,26,49,0.932,24.1,279,4.31,13.1,15.9,1,16.1,2.28,3.9,0,0,1,1,0,222,-1530,-1483,241,,,,,,,,,,,,,,,,
168423,1622989314165,,,,,,,,-0.32,-0.29,-0.81,-38,-1,-1,0.43,,84,3682,5,26,49,0.933,23.6,278,4.28,13.0,15.9,1,16.0,2.28,3.9,0,0,1,1,0,220,-1530,13602,236,,,,,,,,,,,,,,,,
168443,1622989314185,0,2,31,31,32,74,-14,-0.32,-0.23,-0.85,-36,-0,-1,0.4,0,84,3649,5,26,50,0.934,34.0,275,4.27,13.1,15.9,1,15.9,2.29,3.9,0,0,1,1,0,220,3327,-1494,233,45.699078,4.910138,29.72,203.7,4,2,7.0,0,0.0,-1,0.0,0.0,0.0,0,0.17,2.8074
168463,1622989314205,,,,,,,,-0.3,-0.16,-0.75,-34,-0,-2,0.34,,84,3515,5,26,50,0.938,34.0,270,4.26,12.9,15.7,1,15.3,2.3,3.7,0,0,1,1,0,221,3327,10824,235,,,,,,,,,,,,,,,,
168483,1622989314225,,,,,,,,-0.26,-0.18,-0.85,-32,-1,-1,0.31,,84,3515,5,26,50,0.938,34.0,270,4.25,13.0,15.7,1,15.0,2.3,3.7,0,0,1,1,0,222,3327,250,232,,,,,,,,,,,,,,,,
