"Interval"|"ms"|0|0|1,"Utc"|"ms"|0|0|1,"Brake_F"|"Bar"|0|2000|10,"Brake_R"|"Bar"|0|2000|10,"Height_RF"|"mm"|0|255|50,"Height_LF"|"mm"|0|255|50,"Height_LR"|"mm"|0|80|50,"Height_RR"|"mm"|0|255|50,"Steering"|"deg"|-100|100|10,"AccelX"|"G"|-3.0|3.0|50,"AccelY"|"G"|-3.0|3.0|50,"AccelZ"|"G"|-3.0|3.0|50,"Yaw"|"Deg/Sec"|-120|120|50,"Pitch"|"Deg/Sec"|-120|120|50,"Roll"|"Deg/Sec"|-120|120|50,"Gsum"|"G"|0.0|3.0|50,"Log_Button"|""|0.0|10.0|10,"WaterTemp"|"C"|0|150|50,"RPM"|"tr/min"|0|14000|50,"TPS"|"%"|0|100|50,"AirTemp"|"C"|0|150|50,"MAP"|"KPa"|0|100|50,"Lambda"|""|0.5|1.5|50,"SpeedDTA"|"kph"|0.0|250.0|50,"OilPress"|"KPa"|0|1500|50,"FuelPressur"|"Bar"|0.0|10.0|50,"Batterie"|"V"|0.0|20.0|50,"ConsoKm"|"L/100km"|0.0|200.0|50,"Gear"|""|0|6|50,"AdvIgnition"|"Deg"|-20.0|70.0|50,"Injection"|"ms"|0.0|10.0|50,"ConsoHr"|"L/Hr"|0.0|10000.0|50,"LC_But_Pres"|""|0|1|50,"LC_Active"|""|0|1|50,"TractionOn"|""|0|1|50,"TractionWet"|""|0|1|50,"FanOn"|""|0|1|50,"RD_Speed"|"km/h"|-30|250|10,"RUD_Speed"|"km/h"|-30|250|10,"LD_Speed"|"km/h"|-30|250|10,"LUD_Speed"|"km/h"|-30|250|10,"Latitude"|"Degrees"|-180.0|180.0|10,"Longitude"|"Degrees"|-180.0|180.0|10,"Speed"|"kph"|0.0|150.0|10,"Altitude"|"m"|0.0|4000.0|10,"GPSSats"|""|0|20|10,"GPSQual"|""|0|5|10,"GPSDOP"|""|0.0|20.0|10,"LapCount"|""|0|0|10,"LapTime"|"Min"|0.0|0.0|10,"Sector"|""|0|0|10,"SectorTime"|"Min"|0.0|0.0|10,"PredTime"|"Min"|0.0|0.0|5,"ElapsedTime"|"Min"|0.0|0.0|10,"CurrentLap"|""|0|0|10,"Distance"|"km"|0.0|0.0|10,"SessionTime"|"Min"|0.0|0.0|10
525064,1626787098245,,,251,253,238,233,,0.07,-0.0,1.53,0,-0,-1,0.07,,84,7744,11,38,42,0.915,0.0,647,4.91,13.2,0.0,1,32.7,1.18,8.1,0,0,0,1,0,,,,,,,,,,,,,,,,,,,,
525084,1626787098265,,,251,254,238,233,,0.09,-0.04,1.44,0,-1,-1,0.09,,84,7783,11,38,42,0.915,0.0,645,4.93,13.1,0.0,1,32.8,1.18,8.1,0,0,0,1,0,,,,,,,,,,,,,,,,,,,,
525104,1626787098285,,,251,254,238,233,,0.07,-0.05,1.33,0,-0,0,0.09,,84,7763,11,38,42,0.916,0.0,647,4.92,13.1,0.0,1,32.8,1.18,8.1,0,0,0,1,0,,,,,,,,,,,,,,,,,,,,
525124,1626787098305,,,251,254,238,233,,0.03,-0.04,1.23,0,1,2,0.05,,84,7757,11,38,42,0.916,0.0,646,4.9,12.9,0.0,1,32.8,2.28,8.1,0,0,0,1,0,,,,,,,,,,,,,,,,,,,,
525144,1626787098325,1,1,251,254,238,233,2,0.01,-0.05,1.17,0,1,2,0.05,0,84,7786,11,38,42,0.916,0.0,643,4.84,13.1,0.0,1,32.8,2.28,8.1,0,0,0,1,0,0,250,250,0,45.930717,5.258142,0.0,234.7,10,3,1.5,0,0.0,-1,0.0,,0.0,0,2.9,8.7524
525164,1626787098345,,,251,254,238,233,,0.03,-0.04,1.39,0,-0,-1,0.05,,84,7780,11,38,42,0.916,0.0,646,4.83,13.0,0.0,1,32.8,2.28,8.2,0,0,0,1,0,,,,,,,,,,,,,,,,,,,,
525184,1626787098365,,,251,253,238,233,,0.07,0.0,1.58,0,-2,-3,0.07,,84,7799,11,38,42,0.916,0.0,645,4.95,13.1,0.0,1,32.8,2.28,8.2,0,0,0,1,0,,,,,,,,,,,,,,,,,,,,
525204,1626787098385,,,251,254,238,233,,0.07,0.03,1.6,0,-2,-3,0.07,,84,7770,11,38,42,0.917,0.0,645,4.9,13.0,0.0,1,32.8,1.18,8.2,0,0,0,1,0,,,,,,,,,,,,,,,,,,,,
525224,1626787098406,,,251,253,238,233,,0.02,0.08,1.47,0,-0,-0,0.08,,84,7780,11,38,42,0.917,0.0,643,5.0,13.0,0.0,1,32.8,1.18,8.2,0,0,0,1,0,,,,,,,,,,,,,,,,,,,,
525244,1626787098426,-1,1,251,254,238,233,2,-0.01,0.07,1.36,0,1,1,0.07,0,84,7767,11,38,42,0.918,0.0,642,4.86,13.1,0.0,1,32.8,2.28,8.2,0,0,0,1,0,0,250,250,0,45.930717,5.258142,0.0,234.7,10,3,1.5,0,0.0,-1,0.0,0.0,0.0,0,2.9,8.7541
525264,1626787098446,,,251,254,238,233,,0.01,-0.01,1.43,0,0,1,0.02,,84,7770,11,38,42,0.918,0.0,646,4.88,13.2,0.0,1,32.8,2.28,8.2,0,0,0,1,0,,,,,,,,,,,,,,,,,,,,
525284,1626787098466,,,251,254,238,233,,0.08,-0.08,1.51,0,-0,-0,0.11,,84,7747,11,38,42,0.919,0.0,643,4.91,13.1,0.0,1,32.7,2.28,8.2,0,0,0,1,0,,,,,,,,,,,,,,,,,,,,
525304,1626787098486,,,251,254,238,233,,0.11,-0.08,1.6,0,-1,-1,0.13,,84,7747,11,38,42,0.919,0.0,640,4.93,13.1,0.0,1,32.7,2.28,8.2,0,0,0,1,0,,,,,,,,,,,,,,,,,,,,
525324,1626787098505,,,251,254,238,233,,0.08,-0.04,1.47,0,-1,-1,0.09,,84,7776,11,38,42,0.919,0.0,642,4.96,13.0,0.0,1,32.8,2.28,8.2,0,0,0,1,0,,,,,,,,,,,,,,,,,,,,
525344,1626787098525,0,1,251,254,238,233,2,0.04,-0.0,1.36,0,0,0,0.04,0,84,7770,11,38,42,0.919,0.0,641,4.97,12.9,0.0,1,32.8,1.18,8.2,0,0,0,1,0,0,250,250,0,45.930717,5.258142,0.0,234.7,10,3,1.5,0,0.0,-1,0.0,,0.0,0,2.9,8.7557
525364,1626787098545,,,251,254,238,233,,0.02,0.02,1.35,0,0,0,0.03,,84,7767,11,38,42,0.918,0.0,647,4.87,13.1,0.0,1,32.8,2.28,8.2,0,0,0,1,0,,,,,,,,,,,,,,,,,,,,
525384,1626787098565,,,251,254,238,233,,0.06,0.03,1.44,0,-0,-1,0.07,,84,7783,11,38,42,0.919,0.0,643,4.88,13.0,0.0,1,32.8,2.28,8.2,0,0,0,1,0,,,,,,,,,,,,,,,,,,,,
525404,1626787098585,,,251,254,238,233,,0.09,0.01,1.63,0,-1,-2,0.09,,84,7776,11,38,42,0.919,0.0,647,4.8,13.1,0.0,1,32.8,1.18,8.2,0,0,0,1,0,,,,,,,,,,,,,,,,,,,,
525424,1626787098607,,,251,254,238,233,,0.08,0.0,1.5,0,-1,-1,0.08,,84,7793,11,38,42,0.921,0.0,641,4.98,13.0,0.0,1,32.8,2.28,8.2,0,0,0,1,0,,,,,,,,,,,,,,,,,,,,
525444,1626787098627,1,1,251,254,238,233,1,0.05,-0.02,1.39,0,1,2,0.05,0,84,7796,11,38,42,0.921,0.0,642,4.89,12.9,0.0,1,32.8,2.28,8.2,0,0,0,1,0,0,250,250,0,45.930717,5.258142,0.0,234.7,10,3,1.5,0,0.0,-1,0.0,0.0,0.0,0,2.9,8.7574
525464,1626787098647,,,251,254,238,233,,0.03,-0.06,1.28,0,2,3,0.07,,84,7763,11,38,42,0.922,0.0,642,4.94,13.0,0.0,1,32.8,2.28,8.2,0,0,0,1,0,,,,,,,,,,,,,,,,,,,,
525484,1626787098667,,,251,254,238,233,,0.04,-0.09,1.28,0,1,2,0.1,,84,7763,11,38,42,0.921,0.0,645,4.83,13.1,0.0,1,32.8,2.28,8.2,0,0,0,1,0,,,,,,,,,,,,,,,,,,,,
525504,1626787098687,,,251,254,238,233,,0.07,-0.08,1.49,0,-0,-0,0.1,,84,7757,11,38,42,0.921,0.0,648,4.83,13.1,0.0,1,32.8,2.28,8.2,0,0,0,1,0,,,,,,,,,,,,,,,,,,,,
525524,1626787098705,,,251,254,238,233,,0.09,-0.03,1.59,0,-2,-2,0.09,,84,7760,11,38,42,0.921,0.0,641,4.95,13.1,0.0,1,32.8,1.18,8.2,0,0,0,1,0,,,,,,,,,,,,,,,,,,,,
525544,1626787098725,1,1,251,254,238,233,2,0.08,0.01,1.57,0,-2,-2,0.08,0,84,7741,11,38,42,0.922,0.0,645,4.93,13.1,0.0,1,32.7,1.18,8.2,0,0,0,1,0,0,250,250,0,45.930717,5.258142,0.0,234.7,10,3,1.5,0,0.0,-1,0.0,,0.0,0,2.9,8.7591
525564,1626787098745,,,251,253,238,233,,0.04,0.06,1.44,0,-0,0,0.07,,84,7754,11,38,42,0.923,0.0,647,4.9,12.9,0.0,1,32.8,2.28,8.1,0,0,0,1,0,,,,,,,,,,,,,,,,,,,,
525584,1626787098765,,,251,253,238,233,,0.01,0.06,1.33,0,1,1,0.06,,84,7757,11,38,42,0.925,0.0,641,4.93,12.9,0.0,1,32.8,1.18,8.1,0,0,0,1,0,,,,,,,,,,,,,,,,,,,,
525604,1626787098785,,,251,254,238,233,,0.03,-0.02,1.38,0,0,1,0.03,,85,7757,11,38,42,0.925,0.0,649,4.83,13.2,0.0,1,32.8,2.28,8.1,0,0,0,1,0,,,,,,,,,,,,,,,,,,,,
525624,1626787098805,,,251,254,238,233,,0.08,-0.07,1.45,0,-0,0,0.11,,84,7754,11,38,42,0.927,0.0,645,4.91,13.1,0.0,1,32.8,1.18,8.1,0,0,0,1,0,,,,,,,,,,,,,,,,,,,,
525644,1626787098825,-0,2,251,254,238,233,2,0.12,-0.06,1.59,0,-1,-1,0.14,0,85,7728,11,38,42,0.928,0.0,641,4.88,13.1,0.0,1,32.7,2.28,8.1,0,0,0,1,0,0,250,250,0,45.930717,5.258142,0.0,234.7,10,3,1.5,0,0.0,-1,0.0,0.0,0.0,0,2.9,8.7607
525664,1626787098845,,,251,254,238,233,,0.1,-0.01,1.48,0,-1,-1,0.1,,85,7747,11,38,42,0.929,0.0,642,5.01,13.1,0.0,1,32.7,1.18,8.1,0,0,0,1,0,,,,,,,,,,,,,,,,,,,,
525684,1626787098865,,,251,254,238,233,,0.05,0.03,1.37,0,-0,-0,0.06,,85,7735,11,38,42,0.931,0.0,639,4.98,13.0,0.0,1,32.7,1.18,8.1,0,0,0,1,0,,,,,,,,,,,,,,,,,,,,
525704,1626787098885,,,251,254,238,233,,0.01,0.06,1.26,0,1,1,0.06,,85,7731,11,38,42,0.931,0.0,645,4.84,13.0,0.0,1,32.7,2.28,8.1,0,0,0,1,0,,,,,,,,,,,,,,,,,,,,
525724,1626787098905,,,251,254,238,233,,0.03,0.05,1.21,0,1,1,0.06,,85,7725,11,38,42,0.931,0.0,645,4.85,13.1,0.0,1,32.7,2.28,8.1,0,0,0,1,0,,,,,,,,,,,,,,,,,,,,
525744,1626787098925,1,1,251,254,238,233,2,0.06,0.0,1.37,0,0,0,0.06,0,85,7728,11,38,42,0.932,0.0,648,4.91,13.2,0.0,1,32.7,2.28,8.1,0,0,0,1,0,0,250,250,0,45.930717,5.258142,0.0,234.7,10,3,1.5,0,0.0,-1,0.0,,0.0,0,2.9,8.7624
525764,1626787098945,,,251,254,238,233,,0.11,-0.06,1.38,0,-0,-0,0.12,,85,7716,11,38,42,0.932,0.0,646,4.95,13.1,0.0,1,32.7,1.18,8.1,0,0,0,1,0,,,,,,,,,,,,,,,,,,,,
525784,1626787098965,,,251,254,238,233,,0.13,-0.06,1.44,0,-1,-0,0.14,,85,7719,11,38,42,0.932,0.0,645,4.89,13.1,0.0,1,32.7,2.28,8.1,0,0,0,1,0,,,,,,,,,,,,,,,,,,,,
525804,1626787098985,,,251,254,238,233,,0.1,-0.04,1.33,0,-1,0,0.11,,85,7738,11,38,42,0.932,0.0,640,4.88,12.9,0.0,1,32.7,1.18,8.1,0,0,0,1,0,,,,,,,,,,,,,,,,,,,,
525824,1626787098999,,,251,254,238,233,,0.07,0.01,1.22,0,0,1,0.07,,85,7728,11,38,43,0.931,0.0,644,4.96,13.0,0.0,1,33.3,1.18,8.1,0,0,0,1,0,,,,,,,,,,,,,,,,,,,,
525844,1626787099019,1,0,251,254,238,233,1,0.04,0.03,1.18,0,1,1,0.05,0,85,7735,11,38,42,0.929,0.0,650,4.82,13.1,0.0,1,32.7,2.28,8.1,0,0,0,1,0,0,250,250,0,45.930717,5.258142,0.0,234.7,10,3,1.5,0,0.0,-1,0.0,0.0,0.0,0,2.9,8.7641
525864,1626787099039,,,251,254,238,233,,0.05,0.05,1.21,0,0,-0,0.07,,85,7744,11,38,42,0.928,0.0,645,4.85,13.1,0.0,1,32.7,2.28,8.1,0,0,0,1,0,,,,,,,,,,,,,,,,,,,,
525884,1626787099059,,,251,254,238,233,,0.08,0.01,1.4,0,-1,-1,0.08,,85,7741,11,38,42,0.928,0.0,649,4.95,13.1,0.0,1,32.7,1.18,8.1,0,0,0,1,0,,,,,,,,,,,,,,,,,,,,
525904,1626787099079,,,251,253,238,233,,0.13,-0.03,1.39,0,-1,-1,0.13,,85,7722,11,38,42,0.927,0.0,645,4.93,13.1,0.0,1,32.7,1.18,8.1,0,0,0,1,0,,,,,,,,,,,,,,,,,,,,
525924,1626787099100,,,251,254,238,233,,0.13,-0.05,1.33,0,-1,0,0.14,,85,7735,11,38,43,0.927,0.0,645,4.92,13.1,0.0,1,33.3,2.28,8.1,0,0,0,1,0,,,,,,,,,,,,,,,,,,,,
525944,1626787099120,-1,2,251,254,238,233,2,0.07,-0.04,1.22,0,1,2,0.09,0,85,7731,11,38,43,0.927,0.0,641,4.99,12.9,0.0,1,33.3,2.28,8.1,0,0,0,1,0,0,250,250,0,45.930717,5.258142,0.0,234.7,10,3,1.5,0,0.0,-1,0.0,,0.0,0,2.9,8.7657
525964,1626787099140,,,251,254,238,233,,0.03,-0.02,1.13,0,1,2,0.04,,85,7751,11,38,42,0.927,0.0,646,4.81,13.1,0.0,1,32.8,2.28,8.1,0,0,0,1,0,,,,,,,,,,,,,,,,,,,,
525984,1626787099160,,,251,254,238,233,,0.03,0.01,1.25,0,0,1,0.03,,85,7735,11,38,42,0.926,0.0,649,4.73,13.1,0.0,1,32.7,2.28,8.1,0,0,0,1,0,,,,,,,,,,,,,,,,,,,,
526004,1626787099180,,,251,254,238,233,,0.07,0.03,1.4,0,-1,-1,0.07,,85,7747,11,38,42,0.926,0.0,648,4.78,13.1,0.0,1,32.7,2.28,8.1,0,0,0,1,0,,,,,,,,,,,,,,,,,,,,
526024,1626787099206,,,251,254,238,233,,0.1,0.03,1.55,0,-1,-2,0.11,,85,7757,11,38,42,0.926,0.0,646,4.82,13.2,0.0,1,32.8,1.18,8.1,0,0,0,1,0,,,,,,,,,,,,,,,,,,,,
526044,1626787099226,-0,2,251,254,238,233,2,0.08,0.03,1.43,0,-0,-0,0.09,0,85,7770,11,38,42,0.927,0.0,646,4.95,13.0,0.0,1,32.8,1.18,8.1,0,0,0,1,0,0,250,250,0,45.930717,5.258142,0.0,234.7,10,3,1.5,0,0.0,-1,0.0,0.0,0.0,0,2.9,8.7674
526064,1626787099246,,,251,254,238,233,,0.04,0.01,1.32,0,1,2,0.04,,85,7799,11,38,42,0.928,0.0,647,4.9,12.9,0.0,1,32.8,2.28,8.2,0,0,0,1,0,,,,,,,,,,,,,,,,,,,,
526084,1626787099266,,,251,254,238,233,,0.03,-0.05,1.22,0,2,3,0.06,,85,7786,11,38,42,0.928,0.0,648,4.86,13.1,0.0,1,32.8,2.28,8.2,0,0,0,1,0,,,,,,,,,,,,,,,,,,,,
526104,1626787099286,,,251,254,238,233,,0.06,-0.09,1.27,0,1,2,0.11,,85,7793,11,38,42,0.927,0.0,645,4.82,13.0,0.0,1,32.8,2.28,8.2,0,0,0,1,0,,,,,,,,,,,,,,,,,,,,
526124,1626787099302,,,251,254,238,233,,0.08,-0.09,1.48,0,-1,-0,0.12,,85,7770,11,38,42,0.926,0.0,649,4.84,13.1,0.0,1,32.8,1.18,8.2,0,0,0,1,0,,,,,,,,,,,,,,,,,,,,
526144,1626787099322,0,3,251,254,238,233,2,0.09,-0.04,1.47,0,-1,-1,0.1,0,85,7776,11,38,42,0.926,0.0,645,4.88,13.1,0.0,1,32.8,1.18,8.2,0,0,0,1,0,0,250,250,0,45.930717,5.258142,0.0,234.7,10,3,1.5,0,0.0,-1,0.0,,0.0,0,2.9,8.7691
526164,1626787099342,,,251,253,238,233,,0.06,-0.01,1.36,0,-1,0,0.06,,85,7789,11,38,42,0.925,0.0,642,4.96,12.9,0.0,1,32.8,2.28,8.2,0,0,0,1,0,,,,,,,,,,,,,,,,,,,,
526184,1626787099362,,,251,253,238,233,,0.02,0.04,1.26,0,0,0,0.05,,85,7793,11,38,42,0.924,0.0,642,4.95,13.0,0.0,1,32.8,2.28,8.2,0,0,0,1,0,,,,,,,,,,,,,,,,,,,,
526204,1626787099382,,,251,254,238,233,,0.04,0.04,1.32,0,-0,-1,0.06,,85,7822,11,38,42,0.922,0.0,646,4.9,13.0,0.0,1,32.8,2.28,8.2,0,0,0,1,0,,,,,,,,,,,,,,,,,,,,
526224,1626787099406,,,251,254,238,233,,0.07,0.03,1.52,0,-1,-2,0.08,,85,7783,11,38,42,0.92,0.0,646,4.96,13.1,0.0,1,32.8,2.28,8.2,0,0,0,1,0,,,,,,,,,,,,,,,,,,,,
526244,1626787099426,0,1,251,254,238,233,2,0.08,-0.01,1.4,0,-1,-1,0.08,0,85,7799,11,38,42,0.919,0.0,646,4.91,13.1,0.0,1,32.8,2.28,8.2,0,0,0,1,0,0,250,250,0,45.930717,5.258142,0.0,234.7,10,3,1.5,0,0.0,-1,0.0,0.0,0.0,0,2.9,8.7707
526264,1626787099446,,,251,254,238,233,,0.06,-0.01,1.29,0,1,2,0.06,,85,7793,11,38,42,0.917,0.0,641,5.05,13.1,0.0,1,32.8,1.18,8.2,0,0,0,1,0,,,,,,,,,,,,,,,,,,,,
526284,1626787099466,,,251,254,238,233,,0.02,-0.05,1.19,0,2,3,0.05,,85,7789,11,38,42,0.915,0.0,645,4.86,13.1,0.0,1,32.8,2.28,8.2,0,0,0,1,0,,,,,,,,,,,,,,,,,,,,
526304,1626787099486,,,251,254,238,233,,0.03,-0.07,1.17,0,1,1,0.07,,85,7796,11,38,42,0.913,0.0,642,4.87,13.1,0.0,1,32.8,2.28,8.2,0,0,0,1,0,,,,,,,,,,,,,,,,,,,,
526324,1626787099506,,,251,254,238,233,,0.04,-0.07,1.14,0,-1,-1,0.08,,85,7770,11,38,42,0.91,0.0,647,4.81,13.1,0.0,1,32.8,1.18,8.2,0,0,0,1,0,,,,,,,,,,,,,,,,,,,,
526344,1626787099526,1,0,251,254,238,233,2,0.07,-0.01,1.3,0,-2,-2,0.07,0,85,7773,11,38,42,0.908,0.0,640,4.93,13.0,0.0,1,32.8,2.28,8.2,0,0,0,1,0,0,250,250,0,45.930717,5.258142,0.0,234.7,10,3,1.5,0,0.0,-1,0.0,,0.0,0,2.9,8.7724
526364,1626787099546,,,251,254,238,233,,0.04,0.03,1.2,0,-1,-2,0.05,,85,7776,11,38,42,0.908,0.0,639,4.95,12.9,0.0,1,32.8,2.28,8.2,0,0,0,1,0,,,,,,,,,,,,,,,,,,,,
526384,1626787099566,,,251,254,238,233,,0.02,0.04,1.34,0,-0,-0,0.05,,85,7741,11,38,42,0.907,0.0,642,4.98,13.0,0.0,1,32.7,2.28,8.2,0,0,0,1,0,,,,,,,,,,,,,,,,,,,,
526404,1626787099586,,,251,253,238,233,,0.05,0.06,1.53,0,1,0,0.08,,85,7767,11,38,42,0.906,0.0,644,4.87,13.1,0.0,1,32.8,2.28,8.2,0,0,0,1,0,,,,,,,,,,,,,,,,,,,,
526424,1626787099604,,,251,254,238,233,,0.09,0.04,1.72,0,0,-1,0.1,,85,7744,11,38,42,0.906,0.0,642,4.91,13.2,0.0,1,32.7,2.28,8.2,0,0,0,1,0,,,,,,,,,,,,,,,,,,,,
526444,1626787099624,0,2,251,254,238,233,2,0.1,0.03,1.59,0,-0,-1,0.11,0,85,7751,11,38,42,0.906,0.0,642,4.89,13.1,0.0,1,32.8,2.28,8.2,0,0,0,1,0,0,250,250,0,45.930717,5.258142,0.0,234.7,10,3,1.5,0,0.0,-1,0.0,0.0,0.0,0,2.9,8.7741
526464,1626787099644,,,251,253,238,233,,0.07,0.01,1.46,0,-1,-1,0.07,,85,7725,11,38,42,0.905,0.0,640,4.95,13.0,0.0,1,32.7,1.18,8.2,0,0,0,1,0,,,,,,,,,,,,,,,,,,,,
526484,1626787099664,,,251,254,238,233,,0.01,-0.02,1.35,0,-0,-1,0.02,,85,7728,11,38,42,0.905,0.0,639,4.94,13.0,0.0,1,32.7,1.18,8.1,0,0,0,1,0,,,,,,,,,,,,,,,,,,,,
526504,1626787099684,,,251,254,238,233,,-0.0,-0.02,1.25,0,0,0,0.02,,85,7741,11,38,43,0.905,0.0,638,4.91,13.0,0.0,1,33.3,2.28,8.1,0,0,0,1,0,,,,,,,,,,,,,,,,,,,,
526524,1626787099706,,,251,254,238,233,,0.03,-0.0,1.46,0,1,0,0.03,,85,7760,11,38,42,0.906,0.0,646,4.85,12.9,0.0,1,32.8,2.28,8.1,0,0,0,1,0,,,,,,,,,,,,,,,,,,,,
526544,1626787099726,0,2,251,254,238,233,1,0.07,0.01,1.65,0,0,-1,0.07,0,85,7763,11,38,42,0.907,0.0,643,4.86,13.1,0.0,1,32.8,2.28,8.1,0,0,0,1,0,0,250,250,0,45.930717,5.258142,0.0,234.7,10,3,1.5,0,0.0,-1,0.0,,0.0,0,2.9,8.7757
526564,1626787099746,,,251,254,238,233,,0.07,0.04,1.7,0,-1,-2,0.08,,85,7747,11,38,42,0.908,0.0,646,4.95,13.1,0.0,1,32.7,2.28,8.1,0,0,0,1,0,,,,,,,,,,,,,,,,,,,,
526584,1626787099766,,,251,254,238,233,,0.03,0.05,1.57,0,-1,-1,0.05,,85,7747,11,38,42,0.911,0.0,641,4.98,13.1,0.0,1,32.7,2.28,8.1,0,0,0,1,0,,,,,,,,,,,,,,,,,,,,
526604,1626787099786,,,251,254,238,233,,0.0,0.04,1.45,0,-0,0,0.04,,85,7716,11,38,42,0.913,0.0,640,4.96,13.0,0.0,1,32.7,1.18,8.1,0,0,0,1,0,,,,,,,,,,,,,,,,,,,,
526624,1626787099806,,,251,254,238,233,,-0.01,-0.02,1.34,0,1,1,0.02,,85,7700,11,38,43,0.915,0.0,646,4.92,12.9,0.0,1,33.3,2.28,8.1,0,0,0,1,0,,,,,,,,,,,,,,,,,,,,
526644,1626787099826,0,2,251,254,238,233,1,0.01,-0.05,1.33,0,2,2,0.05,0,85,7731,11,38,42,0.917,0.0,641,4.9,12.9,0.0,1,32.7,2.28,8.1,0,0,0,1,0,0,250,250,0,45.930717,5.258142,0.0,234.7,10,3,1.5,0,0.0,-1,0.0,0.0,0.0,0,2.9,8.7774
526664,1626787099846,,,251,254,238,233,,0.03,-0.04,1.53,0,1,0,0.05,,85,7728,11,38,42,0.919,0.0,642,4.77,13.1,0.0,1,32.7,1.18,8.1,0,0,0,1,0,,,,,,,,,,,,,,,,,,,,
526684,1626787099866,,,251,254,238,233,,0.06,0.01,1.64,0,-0,-1,0.06,,85,7744,11,38,42,0.921,0.0,640,4.93,13.1,0.0,1,32.7,1.18,8.1,0,0,0,1,0,,,,,,,,,,,,,,,,,,,,
526704,1626787099886,,,251,254,238,233,,0.05,0.02,1.64,0,-1,-2,0.06,,85,7747,11,38,42,0.923,0.0,646,4.87,13.2,0.0,1,32.7,1.18,8.1,0,0,0,1,0,,,,,,,,,,,,,,,,,,,,
526724,1626787099906,,,251,254,238,233,,0.01,0.06,1.51,0,-1,-1,0.07,,85,7757,11,38,43,0.926,0.0,642,4.98,13.0,0.0,1,33.4,2.28,8.1,0,0,0,1,0,,,,,,,,,,,,,,,,,,,,
526744,1626787099926,0,1,251,254,238,233,1,-0.02,0.06,1.4,0,1,1,0.06,0,85,7754,11,38,42,0.928,0.0,638,4.9,12.9,0.0,1,32.8,2.28,8.1,0,0,0,1,0,0,250,250,0,45.930717,5.258142,0.0,234.7,10,3,1.5,0,0.0,-1,0.0,,0.0,0,2.9,8.7791
526764,1626787099946,,,251,254,238,233,,-0.0,-0.02,1.42,0,2,3,0.02,,85,7751,11,38,42,0.928,0.0,645,4.82,13.1,0.0,1,32.8,2.28,8.1,0,0,0,1,0,,,,,,,,,,,,,,,,,,,,
526784,1626787099966,,,251,254,238,233,,0.05,-0.06,1.46,0,2,2,0.08,,85,7744,11,38,42,0.928,0.0,647,4.81,13.2,0.0,1,32.7,2.28,8.1,0,0,0,1,0,,,,,,,,,,,,,,,,,,,,
526804,1626787099986,,,251,254,238,233,,0.09,-0.07,1.57,0,0,-0,0.11,,85,7738,11,38,42,0.927,0.0,645,4.87,13.2,0.0,1,32.7,2.28,8.1,0,0,0,1,0,,,,,,,,,,,,,,,,,,,,
526824,1626787099999,,,251,254,238,233,,0.08,-0.03,1.46,0,-1,-2,0.08,,85,7747,11,38,42,0.927,0.0,642,4.89,13.1,0.0,1,32.7,2.28,8.1,0,0,0,1,0,,,,,,,,,,,,,,,,,,,,
526844,1626787100019,0,2,251,254,238,233,1,0.04,-0.0,1.34,0,-1,-2,0.04,0,85,7731,11,38,43,0.927,0.0,647,4.96,13.1,0.0,1,33.3,1.18,8.1,0,0,0,1,0,0,250,250,0,45.930717,5.258142,0.0,234.7,10,3,1.5,0,0.0,-1,0.0,0.0,0.0,0,2.9,8.7807
526864,1626787100039,,,251,254,238,233,,0.0,0.04,1.27,0,-0,-0,0.04,,86,7747,11,38,42,0.927,0.0,647,4.92,12.3,0.0,1,32.7,2.28,8.1,0,0,1,1,0,,,,,,,,,,,,,,,,,,,,
526884,1626787100059,,,251,254,238,233,,0.02,0.04,1.26,0,1,2,0.04,,86,7757,11,38,42,0.927,0.0,642,4.93,12.3,0.0,1,32.8,2.28,8.1,0,0,1,1,0,,,,,,,,,,,,,,,,,,,,
526904,1626787100079,,,251,254,238,233,,0.05,-0.02,1.44,0,1,2,0.06,,86,7725,11,38,42,0.926,0.0,646,4.9,12.3,0.0,1,32.7,1.18,8.1,0,0,1,1,0,,,,,,,,,,,,,,,,,,,,
526924,1626787100105,,,251,254,238,233,,0.09,-0.08,1.4,0,1,1,0.12,,85,7747,11,38,42,0.924,0.0,646,4.88,12.5,0.0,1,32.7,2.28,8.1,0,0,1,1,0,,,,,,,,,,,,,,,,,,,,
526944,1626787100125,0,2,251,254,238,233,2,0.1,-0.09,1.32,0,-1,-1,0.13,0,86,7728,11,38,42,0.922,0.0,648,4.86,12.5,0.0,1,32.7,2.28,8.1,0,0,1,1,0,0,250,250,0,45.930717,5.258142,0.0,234.7,10,3,1.5,0,0.0,-1,0.0,,0.0,0,2.9,8.7824
526964,1626787100145,,,251,252,238,233,,0.07,-0.06,1.22,0,-1,-2,0.09,,86,7722,11,38,42,0.921,0.0,642,4.95,12.4,0.0,1,32.7,1.18,8.1,0,0,1,1,0,,,,,,,,,,,,,,,,,,,,
526984,1626787100165,,,251,254,238,233,,0.03,-0.0,1.12,0,-1,-2,0.03,,86,7700,11,38,42,0.919,0.0,641,4.89,12.3,0.0,1,32.7,1.18,8.1,0,0,1,1,0,,,,,,,,,,,,,,,,,,,,
527004,1626787100185,,,251,254,238,233,,0.01,0.02,1.17,0,0,0,0.03,,86,7719,11,38,42,0.919,0.0,642,4.96,12.4,0.0,1,32.7,2.28,8.1,0,0,1,1,0,,,,,,,,,,,,,,,,,,,,
527024,1626787100205,,,251,254,238,233,,0.04,0.03,1.25,0,1,1,0.05,,86,7751,11,38,42,0.919,0.0,647,4.83,12.5,0.0,1,32.8,2.28,8.1,0,0,1,1,0,,,,,,,,,,,,,,,,,,,,
527044,1626787100225,-1,2,251,254,238,233,2,0.08,-0.01,1.45,0,1,1,0.08,0,86,7754,11,38,42,0.919,0.0,646,4.83,12.6,0.0,1,32.8,2.28,8.1,0,0,1,1,0,0,250,250,0,45.930717,5.258142,0.0,234.7,10,3,1.5,0,0.0,-1,0.0,0.0,0.0,0,2.9,8.7841
527064,1626787100245,,,251,254,238,233,,0.1,-0.03,1.36,0,0,-0,0.11,,86,7757,11,38,42,0.919,0.0,646,4.95,12.6,0.0,1,32.8,1.18,8.1,0,0,1,1,0,,,,,,,,,,,,,,,,,,,,
527084,1626787100265,,,251,254,238,233,,0.09,-0.03,1.25,0,-1,-1,0.09,,86,7731,11,38,42,0.919,0.0,647,4.85,12.6,0.0,1,32.7,2.28,8.1,0,0,1,1,0,,,,,,,,,,,,,,,,,,,,
527104,1626787100285,,,251,254,238,233,,0.03,-0.02,1.16,0,-1,-1,0.04,,86,7744,11,38,42,0.919,0.0,642,4.9,12.5,0.0,1,32.7,1.18,8.1,0,0,1,1,0,,,,,,,,,,,,,,,,,,,,
527124,1626787100305,,,251,254,238,233,,0.01,-0.01,1.07,0,0,0,0.01,,86,7709,11,38,42,0.919,0.0,642,4.96,12.6,0.0,1,32.7,1.18,8.1,0,0,1,1,0,,,,,,,,,,,,,,,,,,,,
527144,1626787100325,-0,2,251,254,238,233,2,0.01,0.01,1.24,0,1,1,0.01,0,86,7725,11,38,42,0.919,0.0,647,4.81,12.6,0.0,1,32.7,2.28,8.1,0,0,1,1,0,0,250,250,0,45.930717,5.258142,0.0,234.7,10,3,1.5,0,0.0,-1,0.0,,0.0,0,2.9,8.7857
527164,1626787100345,,,251,254,238,233,,0.05,0.01,1.4,0,1,1,0.05,,86,7722,11,38,42,0.92,0.0,648,4.87,12.5,0.0,1,32.7,2.28,8.1,0,0,1,1,0,,,,,,,,,,,,,,,,,,,,
527184,1626787100365,,,251,254,238,233,,0.09,-0.01,1.57,0,0,-0,0.09,,86,7706,11,38,42,0.922,0.0,645,4.87,12.7,0.0,1,32.7,2.27,8.1,0,0,1,1,0,,,,,,,,,,,,,,,,,,,,
527204,1626787100385,,,251,253,238,233,,0.09,-0.02,1.45,0,-0,-1,0.09,,86,7716,11,38,42,0.924,0.0,645,4.88,12.7,0.0,1,32.7,2.28,8.1,0,0,1,1,0,,,,,,,,,,,,,,,,,,,,
527224,1626787100405,,,251,254,238,233,,0.06,-0.02,1.34,0,-1,-1,0.07,,86,7703,11,38,42,0.926,0.0,645,4.91,12.6,0.0,1,32.7,1.17,8.1,0,0,1,1,0,,,,,,,,,,,,,,,,,,,,
527244,1626787100425,0,1,251,254,238,233,2,0.03,-0.05,1.23,0,-1,-1,0.06,0,86,7700,11,38,42,0.927,0.0,641,4.92,12.6,0.0,1,32.7,1.17,8.1,0,0,1,1,0,0,250,250,0,45.930717,5.258142,0.0,234.7,10,3,1.5,0,0.0,-1,0.0,0.0,0.0,0,2.9,8.7874
527264,1626787100445,,,251,253,238,233,,0.0,-0.03,1.14,0,-0,-0,0.03,,86,7716,11,38,42,0.928,0.0,641,4.86,12.5,0.0,1,32.7,2.28,8.1,0,0,1,1,0,,,,,,,,,,,,,,,,,,,,
527284,1626787100465,,,251,254,238,233,,0.0,-0.01,1.28,0,1,1,0.01,,86,7687,11,38,42,0.929,0.0,644,4.81,12.7,0.0,1,32.6,2.27,8.1,0,0,1,1,0,,,,,,,,,,,,,,,,,,,,
527304,1626787100485,,,251,254,238,233,,0.03,0.01,1.4,0,1,1,0.03,,86,7700,11,38,42,0.931,0.0,645,4.8,12.7,0.0,1,32.7,2.27,8.1,0,0,1,1,0,,,,,,,,,,,,,,,,,,,,
527324,1626787100505,,,251,254,238,233,,0.07,-0.01,1.57,0,1,1,0.07,,86,7687,11,38,42,0.932,0.0,644,4.83,12.7,0.0,1,32.6,2.27,8.1,0,0,1,1,0,,,,,,,,,,,,,,,,,,,,
527344,1626787100525,1,0,251,254,238,233,2,0.11,-0.03,1.54,0,-0,-0,0.11,0,86,7722,11,38,42,0.933,0.0,644,4.81,12.7,0.0,1,32.7,1.18,8.1,0,0,1,1,0,0,250,250,0,45.930717,5.258142,0.0,234.7,10,3,1.5,0,0.0,-1,0.0,,0.0,0,2.9,8.7891
527364,1626787100545,,,251,254,238,233,,0.11,-0.04,1.47,0,-1,-2,0.12,,86,7687,11,38,42,0.934,0.0,642,4.82,12.8,0.0,1,32.6,2.27,8.1,0,0,1,1,0,,,,,,,,,,,,,,,,,,,,
527384,1626787100565,,,251,254,238,233,,0.06,-0.02,1.36,0,-2,-2,0.06,,86,7693,11,38,42,0.935,0.0,643,4.91,12.7,0.0,1,32.7,1.17,8.0,0,0,1,1,0,,,,,,,,,,,,,,,,,,,,
527404,1626787100585,,,251,253,238,233,,0.02,0.0,1.25,0,-1,-2,0.02,,86,7684,11,38,42,0.935,0.0,640,4.97,12.7,0.0,1,32.7,1.17,8.0,0,0,1,1,0,,,,,,,,,,,,,,,,,,,,
527424,1626787100605,,,251,254,238,233,,-0.0,0.02,1.23,0,-0,0,0.02,,86,7693,11,38,42,0.936,0.0,643,4.86,12.6,0.0,1,32.7,2.27,8.0,0,0,1,1,0,,,,,,,,,,,,,,,,,,,,
527444,1626787100625,0,2,251,254,238,233,1,0.02,0.02,1.21,0,2,2,0.03,0,86,7703,11,38,42,0.937,0.0,641,4.81,12.7,0.0,1,32.7,2.27,8.0,0,0,1,1,0,0,250,250,0,45.930717,5.258142,0.0,234.7,10,3,1.5,0,0.0,-1,0.0,0.0,0.0,0,2.9,8.7907
527464,1626787100645,,,251,254,238,233,,0.05,-0.03,1.39,0,1,2,0.06,,86,7687,11,38,42,0.938,0.0,644,4.87,12.8,0.0,1,32.6,2.27,8.0,0,0,1,1,0,,,,,,,,,,,,,,,,,,,,
527484,1626787100665,,,251,254,238,233,,0.09,-0.06,1.41,0,1,0,0.11,,86,7709,11,38,42,0.939,0.0,643,4.79,12.7,0.0,1,32.7,2.27,8.0,0,0,1,1,0,,,,,,,,,,,,,,,,,,,,
527504,1626787100685,,,251,254,238,233,,0.12,-0.06,1.51,0,-1,-2,0.13,,86,7665,11,38,42,0.94,0.0,640,4.94,12.8,0.0,1,32.6,1.17,8.0,0,0,1,1,0,,,,,,,,,,,,,,,,,,,,
527524,1626787100705,,,251,254,238,233,,0.1,-0.02,1.43,0,-2,-3,0.11,,86,7690,11,38,42,0.94,0.0,640,4.91,12.8,0.0,1,32.7,1.17,8.0,0,0,1,1,0,,,,,,,,,,,,,,,,,,,,
527544,1626787100725,0,0,251,254,238,233,1,0.06,0.04,1.32,0,-2,-3,0.07,0,86,7697,11,38,42,0.94,0.0,638,4.95,12.7,0.0,1,32.7,2.27,8.0,0,0,1,1,0,0,250,250,0,45.930717,5.258142,0.0,234.7,10,3,1.5,0,0.0,-1,0.0,,0.0,0,2.9,8.7924
527564,1626787100745,,,251,253,238,233,,0.02,0.06,1.22,0,-1,-1,0.06,,86,7716,11,38,42,0.94,0.0,645,4.88,12.6,0.0,1,32.7,2.28,8.1,0,0,1,1,0,,,,,,,,,,,,,,,,,,,,
527584,1626787100765,,,251,254,238,233,,0.01,0.04,1.13,0,1,1,0.04,,86,7722,11,38,42,0.939,0.0,638,4.85,12.7,0.0,1,32.7,2.28,8.1,0,0,1,1,0,,,,,,,,,,,,,,,,,,,,
527604,1626787100785,,,251,254,238,233,,0.04,-0.02,1.26,0,1,1,0.05,,86,7716,11,38,42,0.939,0.0,643,4.88,12.6,0.0,1,32.7,2.28,8.1,0,0,1,1,0,,,,,,,,,,,,,,,,,,,,
527624,1626787100806,,,251,254,238,233,,0.1,-0.07,1.34,0,0,1,0.13,,86,7703,11,38,42,0.938,0.0,639,4.8,12.9,0.0,1,32.7,2.27,8.1,0,0,1,1,0,,,,,,,,,,,,,,,,,,,,
527644,1626787100826,1,1,251,254,238,233,1,0.14,-0.08,1.46,0,-1,-2,0.16,0,86,7693,11,38,42,0.939,0.0,642,4.9,12.8,0.0,1,32.7,2.27,8.1,0,0,1,1,0,0,250,250,0,45.930717,5.258142,0.0,234.7,10,3,1.5,0,0.0,-1,0.0,0.0,0.0,0,2.9,8.7941
527664,1626787100846,,,251,254,238,233,,0.12,-0.03,1.39,0,-2,-3,0.13,,86,7712,10,38,41,0.937,0.0,639,4.91,12.8,0.0,1,32.1,1.17,8.1,0,0,1,1,0,,,,,,,,,,,,,,,,,,,,
527684,1626787100866,,,251,253,238,233,,0.08,0.0,1.28,0,-3,-3,0.08,,86,7693,9,38,41,0.934,0.0,643,5.02,12.8,0.0,1,32.1,1.17,8.1,0,0,1,1,0,,,,,,,,,,,,,,,,,,,,
527704,1626787100886,,,251,253,238,233,,0.04,0.02,1.18,0,-2,-2,0.04,,86,7662,7,38,40,0.932,0.0,640,4.9,12.7,0.0,1,31.5,1.17,8.1,0,0,1,1,0,,,,,,,,,,,,,,,,,,,,
527724,1626787100905,,,251,254,238,233,,-0.0,0.01,1.09,0,-0,0,0.01,,86,7603,7,38,39,0.93,0.0,635,4.92,12.7,0.0,1,31.0,2.27,8.1,0,0,1,1,0,,,,,,,,,,,,,,,,,,,,
527744,1626787100925,0,2,251,254,238,233,2,-0.04,-0.05,1.01,1,1,1,0.06,0,86,7575,7,38,38,0.928,0.0,636,4.97,12.7,0.0,1,30.7,1.11,8.1,0,0,1,1,0,0,250,250,0,45.930717,5.258142,0.0,234.7,10,3,1.5,0,0.0,-1,0.0,,0.0,0,2.9,8.7957
527764,1626787100945,,,251,254,238,233,,-0.07,-0.06,0.93,1,1,2,0.09,,86,7482,7,38,37,0.927,0.0,634,4.83,12.7,0.0,1,30.4,2.16,7.4,0,0,1,1,0,,,,,,,,,,,,,,,,,,,,
527784,1626787100965,,,251,254,238,233,,-0.11,-0.03,0.86,1,1,2,0.11,,86,7411,7,38,36,0.927,0.0,635,4.85,12.7,0.0,1,30.1,2.16,7.4,0,0,1,1,0,,,,,,,,,,,,,,,,,,,,
527804,1626787100985,,,251,254,238,233,,-0.11,-0.05,0.79,1,1,2,0.12,,86,7344,7,38,36,0.926,0.0,627,4.91,12.7,0.0,1,30.1,1.01,7.4,0,0,1,1,0,,,,,,,,,,,,,,,,,,,,
527824,1626787100999,,,251,254,238,233,,-0.07,-0.04,0.97,0,-1,-0,0.08,,86,7298,7,38,36,0.924,0.0,627,4.9,12.8,0.0,1,30.1,2.11,7.4,0,0,1,1,0,,,,,,,,,,,,,,,,,,,,
527844,1626787101019,-0,2,251,254,238,233,2,-0.02,-0.03,1.2,0,-0,0,0.03,0,86,7194,7,38,36,0.922,0.0,626,4.96,12.9,0.0,1,30.1,1.01,7.4,0,0,1,1,0,0,250,250,0,45.930717,5.258142,0.0,234.7,10,3,1.5,0,0.0,-1,0.0,0.0,0.0,0,2.9,8.7974
527864,1626787101039,,,251,254,238,233,,-0.05,-0.05,1.11,0,2,2,0.07,,86,7131,7,38,36,0.921,0.0,621,4.91,12.9,0.0,1,30.1,2.11,6.9,0,0,1,1,0,,,,,,,,,,,,,,,,,,,,
527884,1626787101059,,,251,254,238,233,,-0.05,-0.03,1.19,0,-0,0,0.06,,86,7027,7,38,36,0.919,0.0,625,4.88,12.8,0.0,1,30.1,2.11,6.9,0,0,1,1,0,,,,,,,,,,,,,,,,,,,,
527904,1626787101079,,,251,254,238,233,,0.0,-0.04,1.39,0,0,0,0.04,,86,6952,7,38,36,0.916,0.0,618,4.93,12.9,0.0,1,30.0,2.11,6.9,0,0,1,1,0,,,,,,,,,,,,,,,,,,,,
527924,1626787101104,,,251,253,238,233,,-0.05,-0.07,1.28,0,0,1,0.08,,86,6848,7,38,36,0.913,0.0,605,4.83,12.8,0.0,1,29.9,2.11,6.9,0,0,1,1,0,,,,,,,,,,,,,,,,,,,,
527944,1626787101124,0,0,251,254,238,233,2,0.02,-0.04,1.49,0,0,0,0.05,0,86,6764,7,38,35,0.911,0.0,597,4.9,12.7,0.0,1,29.6,0.96,6.9,0,0,1,1,0,0,250,250,0,45.930717,5.258142,0.0,234.7,10,3,1.5,0,0.0,-1,0.0,,0.0,0,2.9,8.7991
527964,1626787101144,,,251,254,238,233,,-0.04,-0.08,1.38,0,-0,-0,0.09,,86,6708,7,38,36,0.907,0.0,591,4.92,13.0,0.0,1,29.8,2.11,6.9,0,0,1,1,0,,,,,,,,,,,,,,,,,,,,
527984,1626787101164,,,251,254,238,233,,-0.01,-0.06,1.46,0,2,2,0.06,,86,6611,7,38,36,0.903,0.0,581,4.92,12.9,0.0,1,29.7,2.11,6.5,0,0,1,1,0,,,,,,,,,,,,,,,,,,,,
528004,1626787101184,,,251,253,238,233,,0.08,-0.03,1.66,0,-2,-2,0.08,,86,6505,7,38,36,0.898,0.0,571,4.86,12.7,0.0,1,29.6,1.01,6.5,0,0,1,1,0,,,,,,,,,,,,,,,,,,,,
528024,1626787101206,,,251,254,238,233,,0.01,-0.08,1.53,0,-4,-3,0.08,,86,6414,7,38,36,0.891,0.0,564,4.91,13.0,0.0,1,29.5,2.11,6.5,0,0,1,1,0,,,,,,,,,,,,,,,,,,,,
528044,1626787101226,1,2,251,254,238,233,1,-0.1,-0.1,1.41,0,-1,0,0.15,0,86,6266,7,38,36,0.886,0.0,560,4.91,13.0,0.0,1,29.4,2.11,6.5,0,0,1,1,0,0,250,250,0,45.930717,5.258142,0.0,234.7,10,3,1.5,0,0.0,-1,0.0,0.0,0.0,0,2.9,8.8007
528064,1626787101246,,,251,254,238,233,,-0.21,-0.13,1.3,0,3,4,0.25,,86,6105,7,38,37,0.882,0.0,548,4.94,12.8,0.0,1,29.4,1.06,6.5,0,0,1,1,0,,,,,,,,,,,,,,,,,,,,
528084,1626787101266,,,251,254,238,233,,-0.29,-0.18,1.2,1,3,6,0.35,,86,5933,7,38,38,0.879,0.0,534,4.91,13.0,0.0,1,29.3,2.24,6.1,0,0,1,1,0,,,,,,,,,,,,,,,,,,,,
528104,1626787101286,,,251,254,238,233,,-0.19,-0.23,1.11,-0,0,1,0.3,,86,5749,7,38,39,0.875,0.0,519,4.95,13.0,0.0,1,29.1,2.35,6.1,0,0,1,1,0,,,,,,,,,,,,,,,,,,,,
528124,1626787101306,,,251,254,238,233,,-0.09,-0.12,1.33,-0,-5,-3,0.15,,86,5563,7,38,40,0.871,0.0,506,4.87,12.8,0.0,1,28.9,1.33,6.1,0,0,1,1,0,,,,,,,,,,,,,,,,,,,,
528144,1626787101326,1,0,251,254,238,233,2,-0.23,-0.16,1.23,0,2,5,0.28,0,86,5380,7,38,41,0.868,0.0,484,4.86,12.7,0.0,1,28.7,1.41,6.1,0,0,1,1,0,0,250,250,0,45.930717,5.258142,0.0,234.7,10,3,1.5,0,0.0,-1,0.0,,0.0,0,2.9,8.8024
528164,1626787101346,,,251,254,238,233,,-0.1,-0.06,1.44,-0,-7,-4,0.12,,86,5237,7,38,42,0.867,0.0,470,4.95,13.0,0.0,1,28.6,2.57,6.2,0,0,1,1,0,,,,,,,,,,,,,,,,,,,,
528184,1626787101366,,,251,254,238,233,,-0.14,-0.14,1.33,0,-0,3,0.2,,86,5053,7,38,43,0.865,0.0,456,4.83,12.7,0.0,1,28.5,1.57,6.2,0,0,1,1,0,,,,,,,,,,,,,,,,,,,,
528204,1626787101386,,,251,254,238,233,,-0.17,-0.08,1.53,0,-2,2,0.19,,86,4918,7,38,44,0.863,0.0,442,4.88,12.7,0.0,1,27.7,2.64,6.2,0,0,1,1,0,,,,,,,,,,,,,,,,,,,,
528224,1626787101406,,,251,254,238,233,,-0.19,-0.03,1.72,-0,-4,-1,0.19,,86,4778,7,38,45,0.864,0.0,425,4.95,12.9,0.0,1,26.3,1.52,6.2,0,0,1,1,0,,,,,,,,,,,,,,,,,,,,
528244,1626787101426,0,2,251,254,238,233,1,-0.17,-0.02,1.87,-0,-4,-2,0.17,0,86,4656,8,38,46,0.866,0.0,413,4.91,13.0,0.0,1,25.1,2.56,6.2,0,0,1,1,0,0,250,250,0,45.930717,5.258142,0.0,234.7,10,3,1.5,0,0.0,-1,0.0,0.0,0.0,0,2.9,8.8041
528264,1626787101446,,,251,254,238,233,,-0.17,-0.01,2.03,-0,-5,-3,0.17,,86,4564,8,38,47,0.868,0.0,392,4.92,13.0,0.0,1,24.3,2.53,5.3,0,0,1,1,0,,,,,,,,,,,,,,,,,,,,
528284,1626787101466,,,251,254,238,233,,-0.18,0.01,2.18,-0,-6,-4,0.18,,86,4465,8,38,48,0.871,0.0,389,4.92,13.0,0.0,1,23.3,2.48,5.3,0,0,1,1,0,,,,,,,,,,,,,,,,,,,,
528304,1626787101486,,,251,254,238,233,,-0.22,0.04,2.32,-0,-6,-4,0.22,,86,4343,8,38,49,0.874,0.0,384,4.91,13.0,0.0,1,22.2,2.42,5.3,0,0,1,1,0,,,,,,,,,,,,,,,,,,,,
528324,1626787101506,,,251,254,238,233,,-0.24,0.07,2.31,-0,-6,-3,0.25,,86,4228,11,38,50,0.879,0.0,369,4.88,12.9,0.0,1,21.0,2.35,5.3,0,0,1,1,0,,,,,,,,,,,,,,,,,,,,
528344,1626787101526,1,2,251,254,238,233,2,-0.19,0.07,2.14,0,-5,-2,0.21,0,86,4260,12,38,53,0.885,0.0,366,4.87,12.8,0.0,1,22.2,2.36,5.3,0,0,1,1,0,0,250,250,0,45.930717,5.258142,0.0,234.7,10,3,1.5,0,0.0,-1,0.0,,0.0,0,2.9,8.8057
528364,1626787101546,,,251,254,238,233,,-0.11,0.05,1.97,0,-5,-2,0.12,,86,4267,14,38,55,0.891,0.0,359,4.88,12.9,0.0,1,22.4,2.38,5.3,0,0,1,1,0,,,,,,,,,,,,,,,,,,,,
528384,1626787101566,,,251,254,238,233,,-0.07,0.03,1.83,0,-4,-2,0.07,,86,4190,17,38,59,0.901,0.0,360,4.96,13.0,0.0,1,22.8,1.34,4.6,0,0,1,1,0,,,,,,,,,,,,,,,,,,,,
528404,1626787101586,,,251,254,238,233,,-0.06,0.05,1.9,0,-4,-3,0.08,,86,4329,22,38,64,0.914,0.0,354,4.91,13.0,0.0,1,25.9,2.66,4.6,0,0,1,1,0,,,,,,,,,,,,,,,,,,,,
528424,1626787101606,,,251,253,238,233,,-0.05,0.08,2.05,-0,-5,-5,0.09,,86,4456,25,38,71,0.928,0.0,366,4.9,13.0,0.0,1,29.4,4.65,4.6,0,0,1,1,0,,,,,,,,,,,,,,,,,,,,
528444,1626787101626,0,1,251,254,238,233,2,-0.0,0.05,1.89,-0,-5,-6,0.05,0,86,4631,27,38,77,0.94,0.0,379,4.9,13.0,0.0,1,33.3,5.17,4.6,0,0,1,1,0,0,250,250,0,45.930717,5.258142,0.0,234.7,10,3,1.5,0,0.0,-1,0.0,0.0,0.0,0,2.9,8.8074
528464,1626787101646,,,251,254,238,233,,-0.02,-0.01,1.74,0,-1,-1,0.02,,86,4829,27,38,82,0.953,0.0,392,4.84,12.8,0.0,1,38.5,5.84,13.0,0,0,1,1,0,,,,,,,,,,,,,,,,,,,,
528484,1626787101666,,,251,254,238,233,,-0.04,0.08,1.92,0,-4,-3,0.09,,86,5099,27,38,85,0.962,0.0,411,4.95,13.0,0.0,1,41.0,6.17,13.0,0,0,1,1,0,,,,,,,,,,,,,,,,,,,,
528504,1626787101686,,,251,254,238,233,,-0.17,-0.05,1.77,0,-0,-0,0.18,,86,5375,27,38,88,0.973,0.0,431,4.85,12.8,0.0,1,41.1,2.96,13.0,0,0,1,1,0,,,,,,,,,,,,,,,,,,,,
528524,1626787101706,,,251,254,238,233,,-0.2,-0.08,1.63,0,-2,-2,0.22,,86,5828,27,38,88,0.982,0.0,464,4.87,12.9,0.0,1,39.8,7.64,13.0,0,0,1,1,0,,,,,,,,,,,,,,,,,,,,
528544,1626787101726,-0,2,251,254,238,233,2,-0.2,-0.08,1.51,1,1,2,0.22,0,87,6294,25,38,87,0.991,0.0,513,4.9,12.9,0.0,1,41.7,3.44,13.0,0,0,1,1,0,0,250,250,0,45.930717,5.258142,0.0,234.7,10,3,1.5,0,0.0,-1,0.0,,0.0,0,2.9,8.8091
528564,1626787101746,,,251,254,238,233,,-0.21,-0.06,1.41,1,0,0,0.22,,87,6868,21,38,84,0.986,0.0,552,4.85,12.8,0.0,1,45.1,6.58,13.0,0,0,1,1,0,,,,,,,,,,,,,,,,,,,,
528584,1626787101766,,,251,254,238,233,,-0.22,-0.04,1.38,1,1,1,0.22,,87,7361,17,38,81,0.979,0.0,597,4.83,12.7,0.0,1,41.8,6.61,20.6,0,0,1,1,0,,,,,,,,,,,,,,,,,,,,
528604,1626787101786,,,251,254,238,233,,-0.22,-0.07,1.28,1,1,1,0.23,,87,7419,14,38,77,0.973,0.0,623,4.95,12.7,0.0,1,41.4,2.94,20.6,0,0,1,1,0,,,,,,,,,,,,,,,,,,,,
528624,1626787101804,,,251,254,238,233,,-0.23,-0.09,1.18,1,0,0,0.25,,87,7494,13,38,73,0.966,0.0,628,4.9,12.7,0.0,1,40.3,2.74,20.6,0,0,1,1,0,,,,,,,,,,,,,,,,,,,,
528644,1626787101824,0,2,251,254,238,233,1,-0.24,-0.02,1.12,1,0,0,0.24,0,87,7557,12,38,69,0.957,0.0,636,4.91,12.7,0.0,1,39.5,2.47,20.6,0,0,1,1,0,0,250,250,0,45.930717,5.258142,0.0,234.7,10,3,1.5,0,0.0,-1,0.0,0.0,0.0,0,2.9,8.8107
528664,1626787101844,,,251,254,238,233,,-0.27,0.02,1.03,1,2,2,0.27,,87,7643,11,38,65,0.945,0.0,641,4.85,12.8,0.0,1,38.6,4.51,15.9,0,0,1,1,0,,,,,,,,,,,,,,,,,,,,
528684,1626787101864,,,251,254,238,233,,-0.26,0.02,0.97,1,3,3,0.26,,87,7725,11,38,61,0.934,0.0,642,4.9,12.9,0.0,1,37.9,1.4,15.9,0,0,1,1,0,,,,,,,,,,,,,,,,,,,,
528704,1626787101884,,,251,254,238,233,,-0.25,-0.02,0.99,1,4,4,0.25,,87,7581,10,38,58,0.923,0.0,643,4.88,12.9,0.0,1,37.3,3.36,15.9,0,0,1,1,0,,,,,,,,,,,,,,,,,,,,
528724,1626787101906,,,251,254,238,233,,-0.2,-0.05,1.02,1,4,4,0.21,,87,7600,9,39,55,0.909,0.0,639,4.82,12.9,0.0,1,36.8,3.24,15.9,0,0,1,1,0,,,,,,,,,,,,,,,,,,,,
528744,1626787101926,0,0,251,254,238,233,1,-0.15,-0.05,1.25,0,2,2,0.15,0,87,7674,8,39,53,0.897,0.0,644,4.81,12.8,0.0,1,36.5,3.15,15.9,0,0,1,1,0,0,250,250,0,45.930717,5.258142,0.0,234.7,10,3,1.5,0,0.0,-1,0.0,,0.0,0,2.9,8.8124
528764,1626787101946,,,251,254,238,233,,-0.09,-0.01,1.4,0,1,0,0.09,,87,7588,8,39,50,0.883,0.0,638,4.9,12.9,0.0,1,35.8,1.21,10.7,0,0,1,1,0,,,,,,,,,,,,,,,,,,,,
528784,1626787101966,,,251,254,238,233,,-0.05,-0.02,1.55,0,1,-0,0.05,,87,7488,8,39,49,0.871,0.0,644,4.88,12.9,0.0,1,35.3,2.98,10.7,0,0,1,1,0,,,,,,,,,,,,,,,,,,,,
528804,1626787101986,,,251,254,238,233,,-0.02,-0.05,1.54,0,1,-0,0.05,,87,7413,8,39,47,0.864,0.0,633,4.93,12.9,0.0,1,34.7,1.15,10.7,0,0,1,1,0,,,,,,,,,,,,,,,,,,,,
528824,1626787101998,,,251,254,238,233,,-0.02,-0.01,1.45,0,2,1,0.03,,87,7367,8,39,45,0.863,0.0,636,4.8,12.8,0.0,1,33.6,2.89,10.7,0,0,1,1,0,,,,,,,,,,,,,,,,,,,,
528844,1626787102018,0,1,251,254,238,233,2,-0.06,0.01,1.34,0,3,3,0.06,0,87,7253,7,39,44,0.862,0.0,628,4.91,12.9,0.0,1,33.0,2.85,10.7,0,0,1,1,0,0,250,250,0,45.930717,5.258142,0.0,234.7,10,3,1.5,0,0.0,-1,0.0,0.0,0.0,0,2.9,8.8141
528864,1626787102038,,,251,254,238,233,,-0.05,0.01,1.33,0,2,1,0.05,,87,7161,7,39,43,0.861,0.0,630,4.85,12.7,0.0,1,32.4,2.82,9.3,0,0,1,1,0,,,,,,,,,,,,,,,,,,,,
528884,1626787102058,,,251,254,238,233,,0.02,0.04,1.54,0,1,0,0.04,,87,7086,7,39,42,0.859,0.0,628,4.93,12.9,0.0,1,31.9,2.8,9.3,0,0,1,1,0,,,,,,,,,,,,,,,,,,,,
528904,1626787102078,,,251,253,238,233,,-0.05,0.01,1.42,0,3,3,0.05,,87,6985,7,39,41,0.855,0.0,618,4.93,12.9,0.0,1,31.5,2.79,9.3,0,0,1,1,0,,,,,,,,,,,,,,,,,,,,
528924,1626787102103,,,251,254,238,233,,-0.0,0.01,1.62,0,0,0,0.01,,87,6895,7,39,41,0.852,0.0,612,4.87,12.8,0.0,1,31.3,2.75,9.3,0,0,1,1,0,,,,,,,,,,,,,,,,,,,,
528944,1626787102123,-0,2,251,253,238,233,2,-0.05,0.01,1.49,0,3,3,0.05,0,87,6798,7,39,41,0.848,0.0,595,4.95,12.9,0.0,1,31.2,1.16,9.3,0,0,1,1,0,0,250,250,0,45.930717,5.258142,0.0,234.7,10,3,1.5,0,0.0,-1,0.0,,0.0,0,2.9,8.8157
528964,1626787102143,,,251,254,238,233,,0.02,0.02,1.69,0,-1,-1,0.03,,87,6653,7,39,40,0.847,0.0,586,4.82,12.8,0.0,1,30.7,2.72,8.3,0,0,1,1,0,,,,,,,,,,,,,,,,,,,,
528984,1626787102163,,,251,254,238,233,,-0.06,-0.03,1.56,0,1,1,0.07,,87,6583,7,39,40,0.848,0.0,578,4.93,13.0,0.0,1,30.6,2.27,8.3,0,0,1,1,0,,,,,,,,,,,,,,,,,,,,
529004,1626787102183,,,251,254,238,233,,-0.05,0.03,1.45,0,4,3,0.06,,87,6517,7,39,40,0.85,0.0,570,4.94,12.9,0.0,1,30.6,2.27,8.3,0,0,1,1,0,,,,,,,,,,,,,,,,,,,,
529024,1626787102205,,,251,254,238,233,,0.02,0.06,1.65,0,1,0,0.06,,87,6334,7,39,40,0.852,0.0,565,4.85,12.7,0.0,1,30.4,1.17,8.3,0,0,1,1,0,,,,,,,,,,,,,,,,,,,,
529044,1626787102225,-0,2,251,254,238,233,2,0.12,0.07,1.83,0,-4,-4,0.14,0,87,6202,7,39,40,0.852,0.0,557,4.95,13.0,0.0,1,30.2,2.27,8.3,0,0,1,1,0,0,250,250,0,45.930717,5.258142,0.0,234.7,10,3,1.5,0,0.0,-1,0.0,0.0,0.0,0,2.9,8.8174
529064,1626787102245,,,251,253,238,233,,0.21,0.1,2.0,0,-10,-9,0.23,,87,6025,7,38,40,0.853,0.0,545,4.89,13.0,0.0,1,29.9,2.27,6.3,0,0,1,1,0,,,,,,,,,,,,,,,,,,,,
529084,1626787102265,,,251,254,238,233,,0.28,0.16,2.15,-0,-13,-12,0.32,,87,5846,7,38,41,0.853,0.0,529,4.81,12.8,0.0,1,29.7,2.34,6.3,0,0,1,1,0,,,,,,,,,,,,,,,,,,,,
529104,1626787102285,,,251,254,238,233,,0.19,0.19,2.15,0,-7,-8,0.27,,87,5666,7,38,41,0.854,0.0,515,4.83,12.7,0.0,1,29.3,2.4,6.3,0,0,1,1,0,,,,,,,,,,,,,,,,,,,,
529124,1626787102305,,,251,254,238,233,,0.13,0.08,1.99,0,-3,-5,0.15,,87,5537,7,38,43,0.858,0.0,505,4.86,12.8,0.0,1,29.5,2.47,6.3,0,0,1,1,0,,,,,,,,,,,,,,,,,,,,
529144,1626787102325,0,1,251,254,238,233,2,0.21,0.2,2.14,0,-12,-12,0.29,0,87,5352,8,38,43,0.862,0.0,481,4.92,13.0,0.0,1,29.1,2.54,6.3,0,0,1,1,0,0,250,250,0,45.930717,5.258142,0.0,234.7,10,3,1.5,0,0.0,-1,0.0,,0.0,0,2.9,8.8191
529164,1626787102345,,,251,254,238,233,,0.15,0.07,1.98,0,-6,-5,0.17,,87,5208,9,38,45,0.866,0.0,456,4.84,12.8,0.0,1,29.3,2.63,6.3,0,0,1,1,0,,,,,,,,,,,,,,,,,,,,
529184,1626787102365,,,251,254,238,233,,0.1,0.13,2.13,0,-8,-7,0.16,,87,5025,9,38,46,0.87,0.0,454,4.95,13.0,0.0,1,29.3,2.72,6.3,0,0,1,1,0,,,,,,,,,,,,,,,,,,,,
529204,1626787102385,,,251,254,238,233,,0.13,0.12,1.97,0,-10,-9,0.18,,87,4891,10,38,48,0.874,0.0,439,4.95,13.0,0.0,1,28.5,1.63,6.3,0,0,1,1,0,,,,,,,,,,,,,,,,,,,,
529224,1626787102406,,,251,253,238,233,,0.17,0.07,1.82,0,-8,-8,0.18,,87,4764,11,38,50,0.878,0.0,418,4.91,13.0,0.0,1,27.6,2.66,6.3,0,0,1,1,0,,,,,,,,,,,,,,,,,,,,
529244,1626787102426,-0,2,251,254,238,233,2,0.2,0.01,1.68,0,-6,-6,0.2,0,87,4688,12,38,52,0.882,0.0,412,4.92,12.8,0.0,1,26.7,1.52,6.3,0,0,1,1,0,0,250,250,0,45.930717,5.258142,0.0,234.7,10,3,1.5,0,0.0,-1,0.0,0.0,0.0,0,2.9,8.8207
529264,1626787102446,,,251,253,238,233,,0.22,-0.04,1.55,0,-5,-5,0.22,,87,4643,13,38,54,0.886,0.0,392,4.93,12.7,0.0,1,27.1,1.53,6.3,0,0,1,1,0,,,,,,,,,,,,,,,,,,,,
529284,1626787102466,,,251,254,238,233,,0.24,-0.07,1.43,0,-3,-3,0.25,,87,4543,14,38,57,0.891,0.0,396,4.96,12.8,0.0,1,26.8,1.49,5.5,0,0,1,1,0,,,,,,,,,,,,,,,,,,,,
529304,1626787102486,,,251,254,238,233,,0.24,-0.08,1.32,0,-2,-1,0.25,,87,4556,14,38,60,0.901,0.0,386,4.96,12.8,0.0,1,27.8,2.6,5.5,0,0,1,1,0,,,,,,,,,,,,,,,,,,,,
529324,1626787102505,,,251,254,238,233,,0.22,-0.06,1.22,1,-0,1,0.23,,87,4614,14,38,62,0.91,0.0,391,4.91,12.8,0.0,1,29.1,2.67,5.5,0,0,1,1,0,,,,,,,,,,,,,,,,,,,,
529344,1626787102525,1,1,251,254,238,233,2,0.17,0.0,1.41,1,0,2,0.17,0,87,4681,14,38,64,0.92,0.0,392,4.93,12.7,0.0,1,30.6,1.72,5.5,0,0,1,1,0,0,250,250,0,45.930717,5.258142,0.0,234.7,10,3,1.5,0,0.0,-1,0.0,,0.0,0,2.9,8.8224
529364,1626787102545,,,251,253,238,233,,0.12,0.04,1.61,0,-2,-1,0.13,,87,4762,14,38,66,0.929,0.0,397,4.92,13.0,0.0,1,32.3,2.93,6.4,0,0,1,1,0,,,,,,,,,,,,,,,,,,,,
529384,1626787102565,,,251,254,238,233,,0.19,0.04,1.73,0,-4,-4,0.19,,87,4823,14,38,68,0.94,0.0,403,4.9,13.0,0.0,1,33.7,3.0,6.4,0,0,1,1,0,,,,,,,,,,,,,,,,,,,,
529404,1626787102585,,,251,254,238,233,,0.16,-0.06,1.6,0,-0,1,0.17,,87,4936,15,38,69,0.952,0.0,407,4.86,12.8,0.0,1,36.1,3.14,6.4,0,0,1,1,0,,,,,,,,,,,,,,,,,,,,
529424,1626787102605,,,251,254,238,233,,0.09,0.03,1.78,0,-1,-1,0.1,,87,5090,15,38,70,0.962,0.0,421,4.93,13.0,0.0,1,36.7,2.18,6.4,0,0,1,1,0,,,,,,,,,,,,,,,,,,,,
529444,1626787102625,0,1,251,254,238,233,2,0.15,-0.1,1.64,1,-3,-3,0.18,0,87,5249,15,38,71,0.975,0.0,434,4.96,12.9,0.0,1,36.8,2.28,6.4,0,0,1,1,0,0,250,250,0,45.930717,5.258142,0.0,234.7,10,3,1.5,0,0.0,-1,0.0,0.0,0.0,0,2.9,8.8241
529464,1626787102645,,,251,254,238,233,,0.16,-0.02,1.83,0,-5,-5,0.16,,87,5387,15,38,72,0.972,0.0,452,4.84,12.8,0.0,1,36.9,3.44,8.5,0,0,1,1,0,,,,,,,,,,,,,,,,,,,,
529484,1626787102665,,,251,254,238,233,,0.02,-0.05,1.68,1,2,2,0.05,,87,5500,15,38,73,0.968,0.0,462,4.91,12.7,0.0,1,36.9,2.53,8.5,0,0,1,1,0,,,,,,,,,,,,,,,,,,,,
529504,1626787102685,,,251,254,238,233,,0.01,-0.12,1.55,0,2,2,0.13,,87,5683,15,38,73,0.965,0.0,479,4.91,12.9,0.0,1,36.8,2.59,8.5,0,0,1,1,0,,,,,,,,,,,,,,,,,,,,
529524,1626787102705,,,251,254,238,233,,0.0,-0.15,1.44,1,1,1,0.15,,87,5901,15,38,73,0.963,0.0,508,4.97,13.0,0.0,1,36.5,2.69,8.5,0,0,1,1,0,,,,,,,,,,,,,,,,,,,,
529544,1626787102725,1,2,251,254,238,233,2,-0.08,-0.16,1.32,1,2,3,0.17,0,87,6083,15,38,72,0.958,0.0,529,4.97,13.0,0.0,1,36.6,3.67,8.5,0,0,1,1,0,0,250,250,0,45.930717,5.258142,0.0,234.7,10,3,1.5,0,0.0,-1,0.0,,0.0,0,2.9,8.8257
529564,1626787102745,,,251,254,238,233,,-0.13,-0.13,1.22,1,6,6,0.19,,87,6270,15,38,72,0.952,0.0,541,4.91,12.8,0.0,1,37.7,3.65,10.6,0,0,1,1,0,,,,,,,,,,,,,,,,,,,,
529584,1626787102765,,,251,253,238,233,,-0.08,-0.12,1.44,1,3,3,0.15,,87,6553,14,38,70,0.946,0.0,550,4.88,12.7,0.0,1,38.8,3.49,10.6,0,0,1,1,0,,,,,,,,,,,,,,,,,,,,
529604,1626787102785,,,251,254,238,233,,-0.08,-0.11,1.33,0,3,3,0.14,,87,6868,14,38,68,0.938,0.0,567,4.95,12.9,0.0,1,40.0,2.33,10.6,0,0,1,1,0,,,,,,,,,,,,,,,,,,,,
529624,1626787102805,,,251,254,238,233,,-0.09,-0.13,1.25,0,4,4,0.16,,87,7236,13,38,66,0.932,0.0,599,4.93,13.0,0.0,1,39.6,3.15,10.6,0,0,1,1,0,,,,,,,,,,,,,,,,,,,,
529644,1626787102825,0,1,251,254,238,233,2,-0.08,-0.13,1.17,0,4,4,0.15,0,87,7476,13,38,64,0.923,0.0,627,4.85,12.9,0.0,1,38.7,2.89,10.6,0,0,1,1,0,0,250,250,0,45.930717,5.258142,0.0,234.7,10,3,1.5,0,0.0,-1,0.0,0.0,0.0,0,2.9,8.8274
529664,1626787102845,,,251,254,238,233,,-0.04,-0.09,1.39,0,2,1,0.1,,87,7687,13,38,62,0.915,0.0,641,4.81,12.8,0.0,1,38.0,2.62,9.3,0,0,1,1,0,,,,,,,,,,,,,,,,,,,,
529684,1626787102865,,,251,253,238,233,,-0.03,-0.03,1.31,0,2,0,0.05,,87,7931,13,38,60,0.907,0.0,640,4.92,12.9,0.0,1,37.6,1.39,9.3,0,0,1,1,0,,,,,,,,,,,,,,,,,,,,
529704,1626787102885,,,251,254,238,233,,-0.02,-0.03,1.3,0,2,-0,0.04,,87,8194,12,39,58,0.906,0.0,645,4.98,12.7,0.0,1,39.2,1.65,9.3,0,0,1,1,0,,,,,,,,,,,,,,,,,,,,
529724,1626787102905,,,251,254,238,233,,-0.05,0.02,1.2,0,2,2,0.05,,87,8404,12,39,54,0.914,0.0,655,4.82,12.9,0.0,1,38.6,1.87,9.3,0,0,1,1,0,,,,,,,,,,,,,,,,,,,,
529744,1626787102925,1,2,251,254,238,233,2,-0.05,0.02,1.39,0,1,-3,0.05,0,87,8656,10,39,51,0.921,0.0,658,4.92,12.7,0.0,1,38.3,3.02,9.3,0,0,1,1,0,0,250,250,0,45.930717,5.258142,0.0,234.7,10,3,1.5,0,0.0,-1,0.0,,0.0,0,2.9,8.8291
529764,1626787102945,,,251,253,238,233,,-0.06,-0.12,1.59,-0,-2,-10,0.13,,87,8848,9,39,47,0.928,0.0,663,4.79,12.7,0.0,1,37.0,2.9,9.3,0,0,1,1,0,,,,,,,,,,,,,,,,,,,,
529784,1626787102965,,,251,254,238,233,,-0.06,-0.21,1.78,-1,-4,-14,0.21,,87,8992,9,39,44,0.929,0.0,662,4.84,12.8,0.0,1,35.1,2.83,11.9,0,0,1,1,0,,,,,,,,,,,,,,,,,,,,
529804,1626787102985,,,251,254,238,233,,-0.07,-0.26,1.95,-1,-5,-18,0.26,,87,9088,9,39,41,0.925,0.0,663,4.79,12.8,0.0,1,33.2,2.76,11.9,0,0,1,1,0,,,,,,,,,,,,,,,,,,,,
529824,1626787102999,,,251,254,238,233,,-0.08,-0.28,1.9,-1,-5,-21,0.29,,87,9110,9,39,39,0.922,0.0,668,4.82,12.8,0.0,1,32.0,2.7,11.9,0,0,1,1,0,,,,,,,,,,,,,,,,,,,,
529844,1626787103019,0,1,251,254,238,233,2,-0.08,-0.32,2.01,-2,-6,-24,0.33,0,87,9079,9,39,37,0.92,0.0,672,4.85,12.9,0.0,1,31.4,2.61,11.9,0,0,1,1,0,0,250,250,0,45.930717,5.258142,0.0,234.7,10,3,1.5,0,0.0,-1,0.0,0.0,0.0,0,2.9,8.8307
529864,1626787103039,,,251,254,238,233,,-0.1,-0.34,2.07,-2,-6,-27,0.35,,87,8958,9,39,35,0.914,0.0,668,4.84,12.9,0.0,1,30.8,2.53,10.5,0,0,1,1,0,,,,,,,,,,,,,,,,,,,,
529884,1626787103059,,,251,254,237,233,,-0.06,-0.42,2.22,-2,-9,-32,0.43,,87,8753,9,39,35,0.903,0.0,664,4.85,12.8,0.0,1,30.8,2.53,10.5,0,0,1,1,0,,,,,,,,,,,,,,,,,,,,
529904,1626787103079,,,251,254,238,233,,-0.05,-0.44,2.05,-2,-7,-27,0.44,,87,8511,9,39,34,0.891,0.0,656,4.81,12.7,0.0,1,30.5,2.49,10.5,0,0,1,1,0,,,,,,,,,,,,,,,,,,,,
529924,1626787103104,,,251,253,238,233,,-0.04,-0.43,1.89,-2,-7,-24,0.43,,87,8314,9,39,33,0.88,0.0,653,4.83,12.9,0.0,1,29.8,2.27,10.5,0,0,1,1,0,,,,,,,,,,,,,,,,,,,,
529944,1626787103124,-1,2,251,253,238,233,2,-0.06,-0.41,1.74,-1,-4,-19,0.42,0,87,8064,9,39,33,0.87,0.0,646,4.86,12.8,0.0,1,29.3,2.03,10.5,0,0,1,1,0,0,250,250,0,45.930717,5.258142,0.0,234.7,10,3,1.5,0,0.0,-1,0.0,,0.0,0,2.9,8.8324
529964,1626787103144,,,251,254,238,233,,-0.07,-0.45,1.62,-1,-3,-17,0.45,,87,7819,9,39,33,0.858,0.0,646,4.82,12.9,0.0,1,29.2,2.02,10.5,0,0,1,1,0,,,,,,,,,,,,,,,,,,,,
529984,1626787103164,,,251,254,238,233,,-0.08,-0.44,1.49,-1,-2,-15,0.45,,87,7600,9,38,34,0.847,0.0,639,4.86,12.7,0.0,1,29.5,2.02,7.1,0,0,1,1,0,,,,,,,,,,,,,,,,,,,,
530004,1626787103184,,,251,253,238,233,,-0.11,-0.36,1.38,-1,-1,-13,0.38,,87,7396,9,38,34,0.836,0.0,636,4.92,12.9,0.0,1,29.5,0.91,7.1,0,0,1,1,0,,,,,,,,,,,,,,,,,,,,
530024,1626787103206,,,251,254,238,233,,-0.13,-0.35,1.27,-1,-0,-11,0.38,,87,7292,9,38,34,0.829,0.0,628,4.85,12.9,0.0,1,29.5,2.02,7.1,0,0,1,1,0,,,,,,,,,,,,,,,,,,,,
530044,1626787103226,-1,2,251,254,238,233,2,-0.1,-0.33,1.41,-1,-2,-12,0.35,0,87,7200,9,38,34,0.835,0.0,627,4.9,12.7,0.0,1,29.5,0.91,7.1,0,0,1,1,0,0,250,250,0,45.930717,5.258142,0.0,234.7,10,3,1.5,0,0.0,-1,0.0,0.0,0.0,0,2.9,8.8341
530064,1626787103246,,,251,254,238,233,,-0.05,-0.3,1.6,-1,-2,-12,0.3,,87,7110,9,38,35,0.84,0.0,620,4.91,12.8,0.0,1,29.8,0.96,7.1,0,0,1,1,0,,,,,,,,,,,,,,,,,,,,
530084,1626787103266,,,251,254,238,233,,-0.1,-0.31,1.48,-1,0,-8,0.32,,87,7059,9,38,35,0.846,0.0,618,4.88,12.9,0.0,1,29.8,2.07,6.8,0,0,1,1,0,,,,,,,,,,,,,,,,,,,,
530104,1626787103286,,,251,254,238,233,,-0.05,-0.29,1.67,-0,-2,-10,0.3,,87,6923,9,38,35,0.854,0.0,615,4.87,12.7,0.0,1,29.7,0.96,6.8,0,0,1,1,0,,,,,,,,,,,,,,,,,,,,
530124,1626787103306,,,251,254,238,233,,-0.07,-0.27,1.55,-0,0,-8,0.28,,87,6870,9,38,36,0.873,0.0,603,4.93,12.8,0.0,1,29.9,1.01,6.8,0,0,1,1,0,,,,,,,,,,,,,,,,,,,,
530144,1626787103326,0,0,251,254,238,233,2,-0.02,-0.24,1.73,-0,-2,-9,0.24,0,87,6771,9,38,36,0.892,0.0,596,4.9,12.9,0.0,1,29.8,2.11,6.8,0,0,1,1,0,0,250,250,0,45.930717,5.258142,0.0,234.7,10,3,1.5,0,0.0,-1,0.0,,0.0,0,2.9,8.8357
530164,1626787103346,,,251,254,238,233,,-0.07,-0.22,1.6,-0,1,-6,0.23,,87,6727,9,38,37,0.911,0.0,592,4.98,12.8,0.0,1,30.0,1.06,6.7,0,0,1,1,0,,,,,,,,,,,,,,,,,,,,
530184,1626787103366,,,251,254,238,233,,0.0,-0.16,1.78,-0,-3,-9,0.16,,87,6592,9,38,37,0.93,0.0,587,4.85,12.7,0.0,1,29.9,2.16,6.7,0,0,1,1,0,,,,,,,,,,,,,,,,,,,,
530204,1626787103386,,,251,254,238,233,,-0.05,-0.2,1.65,-0,-1,-7,0.2,,87,6499,9,38,37,0.939,0.0,575,4.9,13.0,0.0,1,29.8,2.16,6.7,0,0,1,1,0,,,,,,,,,,,,,,,,,,,,
530224,1626787103406,,,251,254,238,233,,-0.13,-0.21,1.52,-0,3,-3,0.25,,87,6401,9,38,38,0.951,0.0,558,4.92,12.8,0.0,1,29.9,2.21,6.7,0,0,1,1,0,,,,,,,,,,,,,,,,,,,,
530244,1626787103426,-0,2,251,253,238,233,2,-0.12,-0.17,1.46,-0,5,-2,0.21,0,87,6235,9,38,38,0.961,0.0,555,4.92,12.7,0.0,1,29.7,1.11,6.7,0,0,1,1,0,0,250,250,0,45.930717,5.258142,0.0,234.7,10,3,1.5,0,0.0,-1,0.0,0.0,0.0,0,2.9,8.8374
530264,1626787103446,,,251,254,238,233,,-0.11,-0.15,1.66,-0,6,-2,0.18,,87,6077,9,38,39,0.971,0.0,548,4.77,12.8,0.0,1,29.8,2.27,6.3,0,0,1,1,0,,,,,,,,,,,,,,,,,,,,
530284,1626787103466,,,251,254,238,233,,-0.16,-0.15,1.53,-0,10,1,0.21,,87,5905,9,38,40,0.967,0.0,533,4.81,12.7,0.0,1,29.6,2.31,6.3,0,0,1,1,0,,,,,,,,,,,,,,,,,,,,
530304,1626787103486,,,251,254,238,233,,-0.26,-0.2,1.41,0,15,8,0.33,,87,5762,9,38,41,0.963,0.0,514,4.88,12.7,0.0,1,29.5,1.28,6.3,0,0,1,1,0,,,,,,,,,,,,,,,,,,,,
530324,1626787103506,,,251,254,238,233,,-0.13,-0.26,1.3,0,13,6,0.29,,87,5592,9,38,43,0.958,0.0,499,4.92,12.9,0.0,1,29.6,2.44,6.3,0,0,1,1,0,,,,,,,,,,,,,,,,,,,,
530344,1626787103526,0,2,251,254,238,233,2,-0.1,-0.13,1.51,-0,8,1,0.16,0,88,5444,9,38,44,0.953,0.0,495,4.87,12.9,0.0,1,29.5,2.51,6.3,0,0,1,1,0,0,250,250,0,45.930717,5.258142,0.0,234.7,10,3,1.5,0,0.0,-1,0.0,,0.0,0,2.9,8.8391
530364,1626787103546,,,251,254,238,233,,-0.15,-0.22,1.39,0,14,8,0.27,,87,5352,9,38,45,0.942,0.0,477,4.89,12.9,0.0,1,29.6,2.57,6.3,0,0,1,1,0,,,,,,,,,,,,,,,,,,,,
530384,1626787103566,,,251,254,238,233,,-0.11,-0.09,1.59,0,3,-0,0.14,,88,5195,9,38,46,0.929,0.0,463,4.95,13.0,0.0,1,29.6,2.65,6.3,0,0,1,1,0,,,,,,,,,,,,,,,,,,,,
530404,1626787103586,,,251,254,238,233,,-0.07,-0.22,1.47,0,7,2,0.23,,88,5081,9,38,47,0.916,0.0,454,4.9,13.0,0.0,1,29.7,2.73,6.3,0,0,1,1,0,,,,,,,,,,,,,,,,,,,,
530424,1626787103606,,,251,254,238,233,,-0.09,-0.16,1.43,-0,9,4,0.18,,88,4927,9,38,48,0.903,0.0,441,4.86,12.7,0.0,1,29.0,2.73,6.3,0,0,1,1,0,,,,,,,,,,,,,,,,,,,,
530444,1626787103626,0,1,251,254,238,233,2,-0.12,-0.09,1.63,-0,4,-0,0.15,0,88,4852,9,38,49,0.898,0.0,427,4.97,13.0,0.0,1,28.4,2.7,6.3,0,0,1,1,0,0,250,250,0,45.930717,5.258142,0.0,234.7,10,3,1.5,0,0.0,-1,0.0,0.0,0.0,0,2.9,8.8407
530464,1626787103646,,,251,254,238,233,,-0.11,-0.05,1.81,-0,2,-2,0.12,,88,4777,9,38,50,0.894,0.0,418,4.92,13.0,0.0,1,27.8,2.67,6.3,0,0,1,1,0,,,,,,,,,,,,,,,,,,,,
530484,1626787103666,,,251,254,238,233,,-0.06,-0.06,1.77,-0,2,-2,0.08,,88,4672,9,38,51,0.888,0.0,407,4.88,13.0,0.0,1,26.8,1.53,5.9,0,0,1,1,0,,,,,,,,,,,,,,,,,,,,
530504,1626787103686,,,251,254,238,233,,-0.03,-0.06,1.63,-0,3,-2,0.06,,88,4634,9,38,52,0.884,0.0,397,4.88,12.9,0.0,1,26.6,1.51,5.9,0,0,1,1,0,,,,,,,,,,,,,,,,,,,,
530524,1626787103706,,,251,254,238,233,,0.0,-0.07,1.51,-0,3,-2,0.07,,88,4563,9,38,53,0.889,0.0,400,4.9,13.0,0.0,1,26.0,2.56,5.9,0,0,1,1,0,,,,,,,,,,,,,,,,,,,,
530544,1626787103726,0,1,251,254,238,233,1,0.03,-0.07,1.4,-0,3,-2,0.08,0,88,4472,9,38,53,0.9,0.0,380,4.9,12.9,0.0,1,24.9,1.4,5.9,0,0,1,1,0,0,250,250,0,45.930717,5.258142,0.0,234.7,10,3,1.5,0,0.0,-1,0.0,,0.0,0,2.9,8.8424
530564,1626787103746,,,251,254,238,233,,0.05,-0.05,1.4,0,3,-2,0.07,,88,4446,9,38,54,0.909,0.0,382,4.95,13.0,0.0,1,24.8,1.4,5.9,0,0,1,1,0,,,,,,,,,,,,,,,,,,,,
530584,1626787103766,,,251,254,238,233,,0.04,-0.02,1.31,0,3,-2,0.04,,88,4477,9,38,55,0.918,0.0,373,4.92,13.0,0.0,1,25.4,1.43,5.1,0,0,1,1,0,,,,,,,,,,,,,,,,,,,,
530604,1626787103786,,,251,254,238,233,,0.04,-0.01,1.41,0,3,-3,0.04,,88,4483,9,38,55,0.932,0.0,385,4.92,13.0,0.0,1,25.5,1.43,5.1,0,0,1,1,0,,,,,,,,,,,,,,,,,,,,
530624,1626787103804,,,251,254,238,233,,0.04,0.01,1.58,0,2,-3,0.04,,88,4467,9,38,56,0.944,0.0,376,4.9,13.0,0.0,1,25.6,1.43,5.1,0,0,1,1,0,,,,,,,,,,,,,,,,,,,,
530644,1626787103824,-0,1,251,254,238,233,2,0.04,0.04,1.67,0,2,-4,0.06,0,88,4505,9,38,57,0.959,0.0,381,4.91,13.0,0.0,1,26.4,2.56,5.1,0,0,1,1,0,0,250,250,0,45.930717,5.258142,0.0,234.7,10,3,1.5,0,0.0,-1,0.0,0.0,0.0,0,2.9,8.8441
530664,1626787103844,,,251,254,238,233,,0.02,0.06,1.76,0,2,-4,0.06,,88,4471,9,38,57,0.971,0.0,383,4.92,13.0,0.0,1,25.9,1.44,5.1,0,0,1,1,0,,,,,,,,,,,,,,,,,,,,
530684,1626787103864,,,251,254,238,233,,0.03,0.06,1.85,0,2,-5,0.07,,88,4506,10,38,58,0.979,0.0,380,4.91,13.0,0.0,1,26.6,2.57,5.2,0,0,1,1,0,,,,,,,,,,,,,,,,,,,,
530704,1626787103884,,,251,254,238,233,,0.03,0.06,1.95,0,1,-5,0.07,,88,4512,11,38,59,0.982,0.0,384,4.93,13.0,0.0,1,27.0,1.49,5.2,0,0,1,1,0,,,,,,,,,,,,,,,,,,,,
530724,1626787103906,,,251,254,238,233,,0.06,0.08,1.92,0,1,-5,0.1,,88,4534,12,38,60,0.986,0.0,379,4.9,13.0,0.0,1,27.5,2.59,5.2,0,0,1,1,0,,,,,,,,,,,,,,,,,,,,
530744,1626787103926,0,2,251,254,238,233,2,0.08,0.08,1.77,0,1,-4,0.12,0,88,4596,12,38,62,0.989,0.0,384,4.91,12.9,0.0,1,28.9,1.59,5.2,0,0,1,1,0,0,250,250,0,45.930717,5.258142,0.0,234.7,10,3,1.5,0,0.0,-1,0.0,,0.0,0,2.9,8.8457
530764,1626787103946,,,251,254,238,233,,0.13,0.04,1.63,0,3,-3,0.14,,88,4621,13,38,63,0.987,0.0,395,4.9,13.0,0.0,1,29.5,1.64,5.2,0,0,1,1,0,,,,,,,,,,,,,,,,,,,,
530784,1626787103966,,,251,254,238,233,,0.15,-0.0,1.51,0,4,0,0.15,,88,4703,13,38,64,0.978,0.0,389,4.92,12.7,0.0,1,30.9,1.73,5.8,0,0,1,1,0,,,,,,,,,,,,,,,,,,,,
530804,1626787103986,,,251,254,238,233,,0.1,0.02,1.39,0,6,1,0.1,,88,4744,13,38,65,0.968,0.0,401,4.92,12.7,0.0,1,31.7,2.92,5.8,0,0,1,1,0,,,,,,,,,,,,,,,,,,,,
530824,1626787103998,,,251,254,238,233,,0.04,0.09,1.59,0,3,-2,0.09,,88,4811,13,38,66,0.959,0.0,401,4.93,12.9,0.0,1,33.0,2.95,5.8,0,0,1,1,0,,,,,,,,,,,,,,,,,,,,
530844,1626787104018,-0,1,251,254,238,233,2,0.1,0.12,1.78,0,1,-4,0.15,0,88,4908,13,38,67,0.949,0.0,407,4.91,13.0,0.0,1,34.5,3.03,5.8,0,0,1,1,0,0,250,250,0,45.930717,5.258142,0.0,234.7,10,3,1.5,0,0.0,-1,0.0,0.0,0.0,0,2.9,8.8474
530864,1626787104038,,,251,254,238,233,,0.09,-0.0,1.64,0,7,3,0.09,,88,4982,13,38,68,0.936,0.0,422,4.86,12.8,0.0,1,35.9,2.06,5.8,0,0,1,1,0,,,,,,,,,,,,,,,,,,,,
530884,1626787104058,,,251,254,238,233,,0.06,0.07,1.82,0,-1,-3,0.09,,88,5153,13,38,69,0.923,0.0,427,4.97,13.0,0.0,1,36.3,3.2,7.2,0,0,1,1,0,,,,,,,,,,,,,,,,,,,,
530904,1626787104078,,,251,253,238,233,,0.07,-0.05,1.68,0,2,-1,0.09,,88,5209,13,38,70,0.911,0.0,438,4.94,13.0,0.0,1,36.6,3.27,7.2,0,0,1,1,0,,,,,,,,,,,,,,,,,,,,
530924,1626787104099,,,251,253,238,233,,0.06,0.05,1.86,0,-3,-5,0.08,,88,5308,13,38,70,0.899,0.0,453,4.93,13.0,0.0,1,36.5,3.3,7.2,0,0,1,1,0,,,,,,,,,,,,,,,,,,,,
530944,1626787104119,-0,2,251,254,238,233,2,-0.04,-0.05,1.72,0,4,2,0.06,0,88,5431,13,38,70,0.898,0.0,460,4.85,12.7,0.0,1,36.3,2.28,7.2,0,0,1,1,0,0,250,250,0,45.930717,5.258142,0.0,234.7,10,3,1.5,0,0.0,-1,0.0,,0.0,0,2.9,8.8491
530964,1626787104139,,,251,254,238,233,,0.12,-0.02,1.89,-0,-1,-3,0.12,,88,5553,13,38,70,0.898,0.0,467,4.89,13.0,0.0,1,36.3,2.31,7.2,0,0,1,1,0,,,,,,,,,,,,,,,,,,,,
530984,1626787104159,,,251,253,238,233,,0.17,0.03,2.05,-0,-6,-7,0.17,,88,5683,13,38,70,0.897,0.0,485,4.89,12.9,0.0,1,36.2,2.35,8.6,0,0,1,1,0,,,,,,,,,,,,,,,,,,,,
531004,1626787104179,,,251,254,238,233,,0.17,0.06,2.2,-0,-7,-8,0.18,,88,5848,13,38,70,0.894,0.0,503,4.76,12.7,0.0,1,36.0,3.45,8.6,0,0,1,1,0,,,,,,,,,,,,,,,,,,,,
531024,1626787104207,,,251,254,238,233,,0.25,0.07,2.34,-0,-9,-10,0.26,,88,6005,12,38,69,0.898,0.0,518,4.85,12.9,0.0,1,35.6,3.4,8.6,0,0,1,1,0,,,,,,,,,,,,,,,,,,,,
531044,1626787104227,0,1,251,254,238,233,2,0.31,0.06,2.47,-0,-13,-13,0.31,0,88,6163,12,39,68,0.902,0.0,525,4.79,12.7,0.0,1,36.3,3.4,8.6,0,0,1,1,0,0,250,250,0,45.930717,5.258142,0.0,234.7,10,3,1.5,0,0.0,-1,0.0,0.0,0.0,0,2.9,8.8507
531064,1626787104247,,,251,254,238,233,,0.34,0.05,2.59,-0,-13,-14,0.34,,88,6334,12,39,67,0.906,0.0,538,4.88,13.0,0.0,1,36.9,3.19,9.3,0,0,1,1,0,,,,,,,,,,,,,,,,,,,,
531084,1626787104267,,,251,254,238,233,,0.39,0.11,2.66,-0,-11,-11,0.4,,88,6551,11,39,65,0.912,0.0,553,4.96,12.8,0.0,1,37.4,1.84,9.3,0,0,1,1,0,,,,,,,,,,,,,,,,,,,,
531104,1626787104287,,,251,254,238,233,,0.31,0.06,2.45,-0,-9,-9,0.32,,88,6875,11,39,63,0.916,0.0,575,4.8,12.7,0.0,1,38.3,2.71,9.3,0,0,1,1,0,,,,,,,,,,,,,,,,,,,,
531124,1626787104305,,,251,254,238,233,,0.27,0.06,2.27,-0,-9,-10,0.28,,88,7170,11,39,61,0.919,0.0,597,4.86,12.7,0.0,1,38.2,1.4,9.3,0,0,1,1,0,,,,,,,,,,,,,,,,,,,,
531144,1626787104325,-1,1,251,254,238,233,2,0.23,0.06,2.18,-0,-9,-10,0.24,0,88,7295,11,39,60,0.923,0.0,617,4.95,12.9,0.0,1,37.9,1.36,9.3,0,0,1,1,0,0,250,250,0,45.930717,5.258142,0.0,234.7,10,3,1.5,0,0.0,-1,0.0,,0.0,0,2.9,8.8524
531164,1626787104345,,,251,254,238,233,,0.19,0.03,2.01,-0,-9,-9,0.19,,88,7455,11,39,58,0.925,0.0,629,4.96,12.8,0.0,1,37.3,2.41,8.3,0,0,1,1,0,,,,,,,,,,,,,,,,,,,,
531184,1626787104365,,,251,254,238,233,,0.14,-0.0,1.86,-0,-8,-9,0.14,,88,7662,11,39,56,0.931,0.0,640,4.94,12.8,0.0,1,37.0,1.3,8.3,0,0,1,1,0,,,,,,,,,,,,,,,,,,,,
531204,1626787104385,,,251,254,238,233,,0.13,-0.01,1.78,0,-7,-7,0.13,,88,7832,11,39,55,0.934,0.0,643,4.94,12.8,0.0,1,36.9,2.41,8.3,0,0,1,1,0,,,,,,,,,,,,,,,,,,,,
531224,1626787104405,,,251,254,238,233,,0.12,-0.01,1.95,-0,-8,-10,0.12,,88,7982,11,39,53,0.937,0.0,650,4.94,12.7,0.0,1,36.9,2.41,8.3,0,0,1,1,0,,,,,,,,,,,,,,,,,,,,
531244,1626787104425,0,1,251,254,238,233,2,0.09,-0.02,1.8,0,-7,-7,0.09,0,88,8145,11,39,51,0.943,0.0,647,4.85,12.8,0.0,1,37.2,1.47,8.3,0,0,1,1,0,0,250,250,0,45.930717,5.258142,0.0,234.7,10,3,1.5,0,0.0,-1,0.0,0.0,0.0,0,2.9,8.8541
531264,1626787104445,,,251,254,238,233,,0.12,-0.08,1.79,0,-8,-10,0.15,,88,8292,11,39,49,0.946,0.0,652,4.87,12.8,0.0,1,37.2,2.68,10.3,0,0,1,1,0,,,,,,,,,,,,,,,,,,,,
531284,1626787104465,,,251,253,238,233,,0.12,-0.08,1.66,0,-5,-4,0.15,,88,8400,11,39,47,0.949,0.0,649,4.85,12.8,0.0,1,36.9,2.76,10.3,0,0,1,1,0,,,,,,,,,,,,,,,,,,,,
531304,1626787104485,,,251,254,238,233,,0.08,-0.01,1.53,0,-5,-5,0.08,,88,8503,11,39,45,0.952,0.0,654,4.92,12.8,0.0,1,35.7,2.83,10.3,0,0,1,1,0,,,,,,,,,,,,,,,,,,,,
531324,1626787104505,,,251,254,238,233,,0.07,0.0,1.72,-0,-7,-10,0.07,,88,8573,11,39,43,0.955,0.0,654,4.81,12.8,0.0,1,34.5,2.79,10.3,0,0,1,1,0,,,,,,,,,,,,,,,,,,,,
531344,1626787104525,1,2,251,254,238,233,1,0.1,-0.12,1.89,0,-6,-6,0.16,0,88,8620,11,39,41,0.952,0.0,658,4.93,12.9,0.0,1,33.2,2.77,10.3,0,0,1,1,0,0,250,250,0,45.930717,5.258142,0.0,234.7,10,3,1.5,0,0.0,-1,0.0,,0.0,0,2.9,8.8557
531364,1626787104545,,,251,254,238,233,,0.09,-0.04,1.75,1,-4,1,0.1,,88,8664,11,39,40,0.949,0.0,657,4.88,12.8,0.0,1,32.6,2.72,10.9,0,0,1,1,0,,,,,,,,,,,,,,,,,,,,
531384,1626787104565,,,251,254,238,233,,0.06,0.05,1.61,0,-3,-1,0.08,,88,8716,11,39,39,0.946,0.0,660,4.81,12.8,0.0,1,32.0,2.7,10.9,0,0,1,1,0,,,,,,,,,,,,,,,,,,,,
531404,1626787104585,,,251,254,238,233,,0.04,0.04,1.49,-0,-4,-7,0.05,,88,8741,11,39,38,0.943,0.0,661,4.88,12.8,0.0,1,31.7,2.65,10.9,0,0,1,1,0,,,,,,,,,,,,,,,,,,,,
531424,1626787104605,,,251,254,238,233,,0.07,-0.04,1.63,-0,-5,-9,0.08,,88,8716,11,39,37,0.933,0.0,660,4.82,12.7,0.0,1,31.4,2.61,10.9,0,0,1,1,0,,,,,,,,,,,,,,,,,,,,
531444,1626787104625,-0,2,251,254,238,233,2,0.11,-0.13,1.72,0,-2,-4,0.17,0,88,8668,11,39,36,0.919,0.0,658,4.89,12.8,0.0,1,31.1,2.58,10.9,0,0,1,1,0,0,250,250,0,45.930717,5.258142,0.0,234.7,10,3,1.5,0,0.0,-1,0.0,0.0,0.0,0,2.9,8.8574
531464,1626787104645,,,251,254,238,233,,0.08,-0.03,1.59,1,-1,1,0.09,,88,8636,11,39,36,0.904,0.0,662,4.92,12.8,0.0,1,31.1,1.49,10.9,0,0,1,1,0,,,,,,,,,,,,,,,,,,,,
531484,1626787104665,,,251,254,238,233,,0.07,0.05,1.49,0,-2,-3,0.09,,88,8577,11,39,35,0.889,0.0,661,4.86,12.7,0.0,1,30.8,2.53,10.3,0,0,1,1,0,,,,,,,,,,,,,,,,,,,,
531504,1626787104685,,,251,254,238,233,,0.09,-0.04,1.68,0,-3,-5,0.1,,88,8480,11,39,35,0.876,0.0,655,4.85,12.8,0.0,1,30.7,2.51,10.3,0,0,1,1,0,,,,,,,,,,,,,,,,,,,,
531524,1626787104707,,,251,254,238,233,,0.05,-0.07,1.55,0,-3,-3,0.09,,88,8370,11,39,34,0.863,0.0,655,4.88,12.8,0.0,1,30.2,1.27,10.3,0,0,1,1,0,,,,,,,,,,,,,,,,,,,,
531544,1626787104727,1,2,251,254,238,233,1,0.09,-0.07,1.65,0,-2,-3,0.11,0,88,8169,11,39,35,0.851,0.0,651,4.95,12.8,0.0,1,30.1,1.12,10.3,0,0,1,1,0,0,250,250,0,45.930717,5.258142,0.0,234.7,10,3,1.5,0,0.0,-1,0.0,,0.0,0,2.9,8.8591
531564,1626787104747,,,251,254,238,233,,0.11,-0.07,1.69,0,-4,-6,0.13,,88,7992,11,38,35,0.839,0.0,649,4.84,12.9,0.0,1,29.8,2.07,7.6,0,0,1,1,0,,,,,,,,,,,,,,,,,,,,
531584,1626787104767,,,251,254,238,233,,0.07,-0.06,1.56,0,-5,-6,0.09,,88,7858,11,38,35,0.829,0.0,646,4.79,12.9,0.0,1,29.8,2.07,7.6,0,0,1,1,0,,,,,,,,,,,,,,,,,,,,
531604,1626787104787,,,251,253,238,233,,0.03,-0.04,1.44,0,-4,-6,0.05,,88,7716,11,38,36,0.823,0.0,641,4.94,12.7,0.0,1,30.1,1.01,7.6,0,0,1,1,0,,,,,,,,,,,,,,,,,,,,
531624,1626787104807,,,251,254,238,233,,-0.01,-0.0,1.33,0,-4,-4,0.01,,88,7588,11,38,37,0.818,0.0,643,4.9,12.7,0.0,1,30.4,1.06,7.6,0,0,1,1,0,,,,,,,,,,,,,,,,,,,,
531644,1626787104827,1,1,251,254,238,233,2,-0.05,-0.01,1.22,0,-2,-2,0.05,0,88,7545,11,38,37,0.812,0.0,641,4.85,12.7,0.0,1,30.4,1.06,7.6,0,0,1,1,0,0,250,250,0,45.930717,5.258142,0.0,234.7,10,3,1.5,0,0.0,-1,0.0,0.0,0.0,0,2.9,8.8607
531664,1626787104847,,,251,254,238,233,,-0.1,-0.05,1.13,0,-2,-1,0.11,,88,7509,11,38,38,0.811,0.0,641,4.88,12.7,0.0,1,30.7,1.11,7.6,0,0,1,1,0,,,,,,,,,,,,,,,,,,,,
531684,1626787104867,,,251,254,238,233,,-0.13,-0.06,1.04,0,-1,-1,0.14,,88,7482,11,38,39,0.817,0.0,637,4.85,12.7,0.0,1,31.0,2.27,7.6,0,0,1,1,0,,,,,,,,,,,,,,,,,,,,
531704,1626787104887,,,251,254,238,233,,-0.16,-0.03,0.96,0,-1,-0,0.16,,88,7443,11,38,39,0.824,0.0,639,4.96,12.7,0.0,1,31.0,1.17,7.6,0,0,1,1,0,,,,,,,,,,,,,,,,,,,,
531724,1626787104907,,,251,254,238,233,,-0.18,-0.05,0.89,0,-1,0,0.18,,88,7422,11,38,40,0.831,0.0,632,4.9,12.7,0.0,1,31.4,1.17,7.6,0,0,1,1,0,,,,,,,,,,,,,,,,,,,,
531744,1626787104927,-1,2,251,254,238,233,2,-0.18,-0.05,0.82,0,-2,-1,0.19,0,88,7419,11,38,40,0.838,0.0,633,4.99,12.9,0.0,1,31.4,1.17,7.6,0,0,1,1,0,0,250,250,0,45.930717,5.258142,0.0,234.7,10,3,1.5,0,0.0,-1,0.0,,0.0,0,2.9,8.8624
531764,1626787104947,,,251,254,238,233,,-0.16,0.0,0.94,0,-3,-3,0.16,,88,7396,11,38,41,0.844,0.0,633,4.92,12.8,0.0,1,31.9,2.27,7.7,0,0,1,1,0,,,,,,,,,,,,,,,,,,,,
531784,1626787104967,,,251,254,238,233,,-0.14,-0.01,0.93,0,-3,-3,0.14,,88,7393,11,38,41,0.851,0.0,637,4.97,12.8,0.0,1,31.9,2.27,7.7,0,0,1,1,0,,,,,,,,,,,,,,,,,,,,
531804,1626787104987,,,251,254,238,233,,-0.11,-0.04,1.02,0,-4,-4,0.11,,88,7381,11,38,42,0.857,0.0,633,4.95,12.8,0.0,1,32.3,1.17,7.7,0,0,1,1,0,,,,,,,,,,,,,,,,,,,,
