"Interval"|"ms"|0|0|1,"Utc"|"ms"|0|0|1,"Brake_F"|"Bar"|0|2000|10,"Brake_R"|"Bar"|0|2000|10,"Height_RF"|"mm"|0|255|50,"Height_LF"|"mm"|0|255|50,"Height_LR"|"mm"|0|80|50,"Height_RR"|"mm"|0|255|50,"Steering"|"deg"|-100|100|10,"AccelX"|"G"|-3.0|3.0|50,"AccelY"|"G"|-3.0|3.0|50,"AccelZ"|"G"|-3.0|3.0|50,"Yaw"|"Deg/Sec"|-120|120|50,"Pitch"|"Deg/Sec"|-120|120|50,"Roll"|"Deg/Sec"|-120|120|50,"Gsum"|"G"|0.0|3.0|50,"Log_Button"|""|0.0|10.0|10,"WaterTemp"|"C"|0|150|50,"RPM"|"tr/min"|0|14000|50,"TPS"|"%"|0|100|50,"AirTemp"|"C"|0|150|50,"MAP"|"KPa"|0|100|50,"Lambda"|""|0.5|1.5|50,"SpeedDTA"|"kph"|0.0|250.0|50,"OilPress"|"KPa"|0|1500|50,"FuelPressur"|"Bar"|0.0|10.0|50,"Batterie"|"V"|0.0|20.0|50,"ConsoKm"|"L/100km"|0.0|200.0|50,"Gear"|""|0|6|50,"AdvIgnition"|"Deg"|-20.0|70.0|50,"Injection"|"ms"|0.0|10.0|50,"ConsoHr"|"L/Hr"|0.0|10000.0|50,"LC_But_Pres"|""|0|1|50,"LC_Active"|""|0|1|50,"TractionOn"|""|0|1|50,"TractionWet"|""|0|1|50,"FanOn"|""|0|1|50,"RD_Speed"|"km/h"|-30|250|10,"RUD_Speed"|"km/h"|-30|250|10,"LD_Speed"|"km/h"|-30|250|10,"LUD_Speed"|"km/h"|-30|250|10,"Latitude"|"Degrees"|-180.0|180.0|10,"Longitude"|"Degrees"|-180.0|180.0|10,"Speed"|"kph"|0.0|150.0|10,"Altitude"|"m"|0.0|4000.0|10,"GPSSats"|""|0|20|10,"GPSQual"|""|0|5|10,"GPSDOP"|""|0.0|20.0|10,"LapCount"|""|0|0|10,"LapTime"|"Min"|0.0|0.0|10,"Sector"|""|0|0|10,"SectorTime"|"Min"|0.0|0.0|10,"PredTime"|"Min"|0.0|0.0|5,"ElapsedTime"|"Min"|0.0|0.0|10,"CurrentLap"|""|0|0|10,"Distance"|"km"|0.0|0.0|10,"SessionTime"|"Min"|0.0|0.0|10
305064,1626793433061,,,249,251,238,232,,0.06,0.02,1.91,0,-2,-2,0.07,,82,4711,8,40,56,0.9,0.0,386,4.87,13.0,0.0,1,28.7,2.66,5.7,0,0,1,1,0,,,,,,,,,,,,,,,,,,,,
305084,1626793433091,,,249,252,238,232,,0.07,-0.05,1.76,0,0,-0,0.09,,82,4715,7,40,56,0.899,0.0,393,4.87,13.0,0.0,1,28.7,2.66,5.7,0,0,1,1,0,,,,,,,,,,,,,,,,,,,,
305104,1626793433111,,,249,252,238,232,,0.06,-0.03,1.63,0,2,2,0.07,,82,4760,7,40,56,0.898,0.0,389,4.86,12.8,0.0,1,29.3,2.68,5.7,0,0,1,1,0,,,,,,,,,,,,,,,,,,,,
305124,1626793433131,,,249,252,238,232,,0.03,-0.0,1.81,0,1,1,0.03,,82,4754,7,40,55,0.897,0.0,395,4.9,12.8,0.0,1,28.9,2.68,5.7,0,0,1,1,0,,,,,,,,,,,,,,,,,,,,
305144,1626793433151,0,1,249,252,238,232,16,0.01,0.03,1.98,0,-1,-1,0.03,1,82,4724,7,40,55,0.897,0.0,403,4.9,12.9,0.0,1,28.5,2.67,5.7,0,0,1,1,0,0,250,250,0,45.930386,5.258159,0.0,219.6,9,3,1.8,0,0.0,-1,0.0,,0.0,0,0.6,5.0857
305164,1626793433171,,,249,252,238,232,,0.02,0.04,2.03,0,-3,-3,0.04,,82,4757,7,40,56,0.896,0.0,398,4.88,13.0,0.0,1,29.3,2.68,5.8,0,0,1,1,0,,,,,,,,,,,,,,,,,,,,
305184,1626793433191,,,249,251,238,232,,0.05,0.03,1.87,0,-2,-2,0.05,,82,4689,7,40,55,0.896,0.0,400,4.88,13.0,0.0,1,28.1,2.64,5.8,0,0,1,1,0,,,,,,,,,,,,,,,,,,,,
305204,1626793433209,,,249,252,238,232,,0.07,-0.0,1.73,0,-0,-1,0.07,,82,4672,7,40,55,0.896,0.0,391,4.86,12.9,0.0,1,27.9,2.63,5.8,0,0,1,1,0,,,,,,,,,,,,,,,,,,,,
305224,1626793433229,,,249,252,238,232,,0.09,-0.03,1.6,0,1,0,0.09,,82,4612,7,40,55,0.897,0.0,388,4.85,12.8,0.0,1,27.1,1.52,5.8,0,0,1,1,0,,,,,,,,,,,,,,,,,,,,
305244,1626793433249,0,2,249,252,238,232,15,0.1,-0.04,1.47,0,2,1,0.11,1,82,4605,7,40,55,0.898,0.0,392,4.9,12.8,0.0,1,27.0,1.51,5.8,0,0,1,1,0,0,250,250,0,45.930386,5.258159,0.0,219.6,9,3,1.8,0,0.0,-1,0.0,0.0,0.0,0,0.6,5.0874
305264,1626793433269,,,249,252,238,232,,0.11,-0.05,1.36,0,3,3,0.12,,82,4602,8,40,56,0.899,0.0,381,4.89,12.7,0.0,1,27.3,1.52,5.5,0,0,1,1,0,,,,,,,,,,,,,,,,,,,,
305284,1626793433291,,,249,252,238,232,,0.1,-0.04,1.3,0,4,4,0.11,,82,4633,8,40,56,0.899,0.0,383,4.87,12.8,0.0,1,27.7,1.53,5.5,0,0,1,1,0,,,,,,,,,,,,,,,,,,,,
305304,1626793433311,,,249,252,238,232,,0.08,-0.01,1.42,0,4,4,0.08,,82,4611,8,40,55,0.901,0.0,382,4.9,12.7,0.0,1,27.1,2.59,5.5,0,0,1,1,0,,,,,,,,,,,,,,,,,,,,
305324,1626793433331,,,249,252,238,232,,0.06,0.02,1.62,0,3,3,0.06,,82,4663,7,40,55,0.901,0.0,384,4.86,12.9,0.0,1,27.7,2.62,5.5,0,0,1,1,0,,,,,,,,,,,,,,,,,,,,
305344,1626793433351,0,1,249,252,238,232,16,0.03,0.03,1.8,0,0,1,0.05,1,82,4665,7,40,55,0.903,0.0,388,4.88,12.8,0.0,1,27.8,1.55,5.5,0,0,1,1,0,0,250,250,0,45.930386,5.258159,0.0,219.6,9,3,1.8,0,0.0,-1,0.0,,0.0,0,0.6,5.0891
305364,1626793433371,,,249,252,238,232,,0.03,0.05,1.97,0,-1,-1,0.06,,82,4668,7,40,56,0.904,0.0,390,4.87,12.9,0.0,1,28.1,2.63,5.6,0,0,1,1,0,,,,,,,,,,,,,,,,,,,,
305384,1626793433391,,,249,252,238,232,,0.05,0.06,1.87,0,-2,-2,0.08,,82,4702,7,40,56,0.906,0.0,388,4.88,13.0,0.0,1,28.5,2.65,5.6,0,0,1,1,0,,,,,,,,,,,,,,,,,,,,
305404,1626793433409,,,249,252,238,232,,0.07,0.01,1.72,0,-1,-1,0.07,,82,4691,7,40,56,0.907,0.0,396,4.88,13.0,0.0,1,28.4,2.64,5.6,0,0,1,1,0,,,,,,,,,,,,,,,,,,,,
305424,1626793433429,,,249,252,238,232,,0.08,-0.04,1.59,0,1,-0,0.09,,82,4678,7,40,56,0.909,0.0,387,4.85,12.9,0.0,1,28.2,1.56,5.6,0,0,1,1,0,,,,,,,,,,,,,,,,,,,,
305444,1626793433449,-1,2,249,252,238,232,16,0.09,-0.05,1.47,0,2,2,0.1,1,82,4700,8,40,56,0.909,0.0,389,4.85,12.9,0.0,1,28.5,1.58,5.6,0,0,1,1,0,0,250,250,0,45.930386,5.258159,0.0,219.6,9,3,1.8,0,0.0,-1,0.0,0.0,0.0,0,0.6,5.0907
305464,1626793433469,,,249,252,238,232,,0.07,-0.03,1.47,0,2,3,0.08,,82,4659,7,40,56,0.91,0.0,388,4.86,12.8,0.0,1,28.0,2.62,5.7,0,0,1,1,0,,,,,,,,,,,,,,,,,,,,
305484,1626793433491,,,249,252,238,232,,0.05,-0.02,1.67,0,2,2,0.05,,82,4646,7,40,55,0.91,0.0,385,4.91,12.8,0.0,1,27.5,2.61,5.7,0,0,1,1,0,,,,,,,,,,,,,,,,,,,,
305504,1626793433511,,,249,252,238,232,,0.03,0.0,1.85,0,0,2,0.03,,82,4595,7,40,55,0.91,0.0,393,4.9,12.9,0.0,1,26.9,2.58,5.7,0,0,1,1,0,,,,,,,,,,,,,,,,,,,,
305524,1626793433531,,,249,252,238,232,,0.01,0.01,2.01,0,-1,0,0.01,,82,4620,7,40,56,0.91,0.0,385,4.86,12.9,0.0,1,27.5,2.59,5.7,0,0,1,1,0,,,,,,,,,,,,,,,,,,,,
305544,1626793433551,0,1,249,252,238,232,16,-0.01,0.03,2.16,0,-3,-1,0.03,1,82,4582,7,40,56,0.91,0.0,390,4.88,13.0,0.0,1,27.0,2.56,5.4,0,0,1,1,0,0,250,250,0,45.930386,5.258159,0.0,219.6,9,3,1.8,0,0.0,-1,0.0,,0.0,0,0.6,5.0924
305564,1626793433571,,,249,252,238,232,,-0.02,0.05,2.31,0,-4,-3,0.06,,82,4594,7,40,56,0.909,0.0,384,4.87,12.9,0.0,1,27.2,2.58,5.4,0,0,1,1,0,,,,,,,,,,,,,,,,,,,,
305584,1626793433591,,,249,252,238,232,,-0.02,0.07,2.41,0,-4,-4,0.07,,82,4600,7,40,56,0.909,0.0,387,4.92,13.0,0.0,1,27.3,2.59,5.4,0,0,1,1,0,,,,,,,,,,,,,,,,,,,,
305604,1626793433611,,,249,251,238,232,,-0.02,0.07,2.27,0,-4,-4,0.07,,82,4604,7,40,56,0.909,0.0,386,4.92,13.0,0.0,1,27.3,2.59,5.4,0,0,1,1,0,,,,,,,,,,,,,,,,,,,,
305624,1626793433631,,,249,251,238,232,,0.01,0.04,2.09,0,-3,-5,0.05,,82,4613,7,40,56,0.907,0.0,383,4.88,13.0,0.0,1,27.4,2.59,5.4,0,0,1,1,0,,,,,,,,,,,,,,,,,,,,
305644,1626793433651,-0,1,249,252,238,232,16,0.04,-0.0,1.93,0,-2,-4,0.04,1,82,4608,7,40,56,0.907,0.0,385,4.88,12.9,0.0,1,27.4,2.59,5.5,0,0,1,1,0,0,250,250,0,45.930386,5.258159,0.0,219.6,9,3,1.8,0,0.0,-1,0.0,0.0,0.0,0,0.6,5.0941
305664,1626793433671,,,249,252,238,232,,0.06,-0.04,1.78,0,-0,-2,0.07,,82,4612,7,40,56,0.906,0.0,388,4.88,13.0,0.0,1,27.4,2.59,5.5,0,0,1,1,0,,,,,,,,,,,,,,,,,,,,
305684,1626793433691,,,249,252,238,232,,0.07,-0.04,1.64,0,1,-0,0.08,,82,4679,7,40,56,0.905,0.0,384,4.87,12.8,0.0,1,28.5,1.58,5.5,0,0,1,1,0,,,,,,,,,,,,,,,,,,,,
305704,1626793433710,,,249,252,238,232,,0.06,-0.02,1.55,0,2,1,0.07,,82,4671,7,40,56,0.904,0.0,388,4.86,12.8,0.0,1,28.1,1.56,5.5,0,0,1,1,0,,,,,,,,,,,,,,,,,,,,
305724,1626793433730,,,249,252,238,232,,0.03,0.01,1.74,0,1,1,0.03,,82,4718,7,40,56,0.904,0.0,387,4.88,12.7,0.0,1,28.8,2.66,5.5,0,0,1,1,0,,,,,,,,,,,,,,,,,,,,
305744,1626793433750,0,1,249,252,238,232,15,0.01,0.04,1.92,0,-1,-1,0.04,1,82,4708,7,40,56,0.904,0.0,391,4.9,12.9,0.0,1,28.6,2.65,5.7,0,0,1,1,0,0,250,250,0,45.930386,5.258159,0.0,219.6,9,3,1.8,0,0.0,-1,0.0,,0.0,0,0.6,5.0957
305764,1626793433770,,,249,252,238,232,,0.02,0.05,2.08,0,-2,-3,0.06,,82,4707,7,40,56,0.905,0.0,397,4.89,13.0,0.0,1,28.6,2.65,5.7,0,0,1,1,0,,,,,,,,,,,,,,,,,,,,
305784,1626793433790,,,249,251,238,232,,0.04,0.05,1.92,0,-2,-2,0.07,,82,4740,7,40,56,0.905,0.0,391,4.87,13.0,0.0,1,29.0,2.67,5.7,0,0,1,1,0,,,,,,,,,,,,,,,,,,,,
305804,1626793433810,,,249,252,238,232,,0.07,0.01,1.77,0,-1,-2,0.07,,82,4725,7,40,56,0.906,0.0,396,4.88,13.0,0.0,1,28.8,1.6,5.7,0,0,1,1,0,,,,,,,,,,,,,,,,,,,,
305824,1626793433830,,,249,252,238,232,,0.08,-0.02,1.63,0,0,0,0.08,,82,4743,8,40,56,0.906,0.0,394,4.86,12.9,0.0,1,29.1,2.68,5.7,0,0,1,1,0,,,,,,,,,,,,,,,,,,,,
305844,1626793433850,0,1,249,252,238,232,16,0.05,-0.02,1.67,0,1,1,0.05,0,82,4731,7,40,55,0.906,0.0,392,4.86,12.7,0.0,1,28.6,2.67,5.8,0,0,1,1,0,0,250,250,0,45.930386,5.258159,0.0,219.6,9,3,1.8,0,0.0,-1,0.0,0.0,0.0,0,0.6,5.0974
305864,1626793433870,,,249,252,238,232,,0.02,0.01,1.85,0,0,1,0.02,,82,4701,7,40,55,0.906,0.0,398,4.88,12.7,0.0,1,28.2,2.65,5.8,0,0,1,1,0,,,,,,,,,,,,,,,,,,,,
305884,1626793433890,,,249,252,238,232,,-0.01,0.02,2.01,0,-2,-1,0.02,,82,4689,7,40,55,0.905,0.0,390,4.91,13.0,0.0,1,28.1,2.64,5.8,0,0,1,1,0,,,,,,,,,,,,,,,,,,,,
305904,1626793433910,,,249,251,238,232,,0.0,0.03,2.16,0,-3,-2,0.03,,82,4645,7,40,55,0.905,0.0,394,4.87,13.0,0.0,1,27.5,2.61,5.8,0,0,1,1,0,,,,,,,,,,,,,,,,,,,,
305924,1626793433930,,,249,252,238,232,,0.03,0.04,2.16,0,-3,-3,0.05,,82,4683,7,40,55,0.905,0.0,392,4.89,13.0,0.0,1,28.0,2.64,5.8,0,0,1,1,0,,,,,,,,,,,,,,,,,,,,
305944,1626793433950,-0,2,249,251,238,232,16,0.05,0.0,1.99,0,-2,-3,0.05,0,82,4694,7,40,56,0.905,0.0,392,4.9,13.0,0.0,1,28.4,2.64,5.8,0,0,1,1,0,0,250,250,0,45.930386,5.258159,0.0,219.6,9,3,1.8,0,0.0,-1,0.0,,0.0,0,0.6,5.0991
305964,1626793433970,,,249,252,238,232,,0.07,-0.05,1.84,0,-2,-3,0.09,,82,4649,8,40,55,0.906,0.0,391,4.88,13.0,0.0,1,27.6,2.61,5.7,0,0,1,1,0,,,,,,,,,,,,,,,,,,,,
305984,1626793433990,,,249,252,238,232,,0.09,-0.11,1.7,0,0,-1,0.14,,82,4651,8,40,55,0.907,0.0,382,4.87,12.8,0.0,1,27.7,1.55,5.7,0,0,1,1,0,,,,,,,,,,,,,,,,,,,,
306004,1626793434000,,,249,252,238,232,,0.08,-0.13,1.57,0,1,1,0.15,,82,4633,8,40,55,0.907,0.0,388,4.85,12.8,0.0,1,27.2,2.6,5.7,0,0,1,1,0,,,,,,,,,,,,,,,,,,,,
306024,1626793434020,,,249,252,238,232,,0.06,-0.11,1.45,0,3,2,0.12,,82,4641,7,40,55,0.908,0.0,389,4.9,12.7,0.0,1,27.5,2.61,5.7,0,0,1,1,0,,,,,,,,,,,,,,,,,,,,
306044,1626793434040,0,1,249,252,238,232,15,0.04,-0.08,1.5,0,3,3,0.09,0,82,4650,8,40,56,0.908,0.0,387,4.91,12.7,0.0,1,27.9,2.61,5.7,0,0,1,1,0,0,250,250,0,45.930386,5.258159,0.0,219.6,9,3,1.8,0,0.0,-1,0.0,0.0,0.0,0,0.6,5.1007
306064,1626793434060,,,249,252,238,232,,0.01,-0.03,1.69,0,2,2,0.04,,82,4621,7,40,56,0.908,0.0,391,4.85,12.9,0.0,1,27.5,2.59,5.6,0,0,1,1,0,,,,,,,,,,,,,,,,,,,,
306084,1626793434080,,,249,252,238,232,,-0.01,0.0,1.87,0,0,1,0.01,,82,4665,7,40,56,0.909,0.0,391,4.89,12.8,0.0,1,28.1,2.62,5.6,0,0,1,1,0,,,,,,,,,,,,,,,,,,,,
306104,1626793434106,,,249,252,238,232,,-0.02,0.07,2.03,0,-2,-1,0.07,,82,4633,7,40,56,0.91,0.0,387,4.89,12.9,0.0,1,27.7,2.6,5.6,0,0,1,1,0,,,,,,,,,,,,,,,,,,,,
306124,1626793434126,,,249,252,238,232,,0.0,0.11,2.18,0,-3,-2,0.11,,82,4613,7,40,56,0.911,0.0,391,4.89,13.0,0.0,1,27.4,2.59,5.6,0,0,1,1,0,,,,,,,,,,,,,,,,,,,,
306144,1626793434146,0,2,249,251,238,232,16,0.03,0.11,2.09,0,-3,-3,0.12,0,82,4654,7,40,56,0.913,0.0,385,4.85,13.0,0.0,1,27.9,2.62,5.6,0,0,1,1,0,0,250,250,0,45.930386,5.258159,0.0,219.6,9,3,1.8,0,0.0,-1,0.0,,0.0,0,0.6,5.1024
306164,1626793434166,,,249,252,238,232,,0.07,0.07,1.93,0,-2,-3,0.1,,82,4630,7,40,56,0.912,0.0,389,4.85,12.9,0.0,1,27.6,2.6,5.6,0,0,1,1,0,,,,,,,,,,,,,,,,,,,,
306184,1626793434186,,,249,252,238,232,,0.09,0.01,1.78,0,-1,-1,0.09,,82,4646,7,40,56,0.91,0.0,388,4.88,12.8,0.0,1,27.8,2.61,5.6,0,0,1,1,0,,,,,,,,,,,,,,,,,,,,
306204,1626793434210,,,249,252,238,232,,0.1,-0.03,1.64,0,1,0,0.11,,82,4687,7,40,56,0.908,0.0,384,4.83,12.8,0.0,1,28.0,1.55,5.6,0,0,1,1,0,,,,,,,,,,,,,,,,,,,,
306224,1626793434230,,,249,252,238,232,,0.1,-0.04,1.52,0,2,2,0.1,,82,4644,7,40,56,0.906,0.0,388,4.9,12.7,0.0,1,27.8,1.54,5.6,0,0,1,1,0,,,,,,,,,,,,,,,,,,,,
306244,1626793434250,-0,3,249,252,238,232,15,0.06,0.0,1.61,0,2,2,0.06,0,82,4718,8,40,56,0.905,0.0,383,4.87,12.8,0.0,1,28.8,2.66,5.6,0,0,1,1,0,0,250,250,0,45.930386,5.258159,0.0,219.6,9,3,1.8,0,0.0,-1,0.0,0.0,0.0,0,0.6,5.1041
306264,1626793434270,,,249,252,238,232,,0.03,0.03,1.77,0,1,1,0.04,,82,4651,7,40,56,0.904,0.0,394,4.9,12.9,0.0,1,27.9,2.61,5.8,0,0,1,1,0,,,,,,,,,,,,,,,,,,,,
306284,1626793434290,,,249,252,238,232,,0.0,0.07,1.94,0,0,0,0.07,,82,4642,7,40,56,0.904,0.0,388,4.88,12.8,0.0,1,27.8,2.61,5.8,0,0,1,1,0,,,,,,,,,,,,,,,,,,,,
306304,1626793434310,,,249,252,238,232,,0.01,0.12,2.1,0,-1,-1,0.12,,82,4700,7,40,56,0.904,0.0,391,4.9,13.0,0.0,1,28.5,2.65,5.8,0,0,1,1,0,,,,,,,,,,,,,,,,,,,,
306324,1626793434330,,,249,251,238,232,,0.01,0.15,2.23,0,-2,-2,0.15,,82,4600,7,40,56,0.904,0.0,391,4.88,13.0,0.0,1,27.3,2.59,5.8,0,0,1,1,0,,,,,,,,,,,,,,,,,,,,
306344,1626793434350,-1,2,249,252,238,232,16,0.06,0.14,2.11,0,-2,-3,0.15,0,82,4637,8,40,56,0.903,0.0,385,4.9,13.0,0.0,1,27.7,2.6,5.5,0,0,1,1,0,0,250,250,0,45.930386,5.258159,0.0,219.6,9,3,1.8,0,0.0,-1,0.0,,0.0,0,0.6,5.1057
306364,1626793434370,,,249,252,238,232,,0.09,0.1,1.95,0,-2,-2,0.13,,82,4668,7,40,56,0.902,0.0,387,4.87,12.9,0.0,1,28.1,2.63,5.5,0,0,1,1,0,,,,,,,,,,,,,,,,,,,,
306384,1626793434390,,,249,251,238,232,,0.11,0.03,1.8,0,0,-1,0.12,,82,4614,7,40,56,0.902,0.0,386,4.88,12.8,0.0,1,27.4,1.52,5.5,0,0,1,1,0,,,,,,,,,,,,,,,,,,,,
306404,1626793434410,,,249,252,238,232,,0.1,0.02,1.66,0,1,1,0.1,,82,4742,7,40,56,0.901,0.0,387,4.89,12.7,0.0,1,29.1,1.61,5.5,0,0,1,1,0,,,,,,,,,,,,,,,,,,,,
306424,1626793434430,,,249,252,238,232,,0.08,0.04,1.57,0,2,2,0.09,,82,4660,7,40,56,0.9,0.0,394,4.87,12.7,0.0,1,28.0,2.62,5.5,0,0,1,1,0,,,,,,,,,,,,,,,,,,,,
306444,1626793434450,-1,2,249,252,238,232,15,0.04,0.05,1.75,0,1,1,0.06,0,82,4746,7,40,56,0.9,0.0,397,4.9,12.9,0.0,1,29.1,2.67,5.8,0,0,1,1,0,0,250,250,0,45.930386,5.258159,0.0,219.6,9,3,1.8,0,0.0,-1,0.0,0.0,0.0,0,0.6,5.1074
306464,1626793434470,,,249,252,238,232,,0.02,0.09,1.91,0,-0,-0,0.1,,82,4757,7,40,56,0.9,0.0,394,4.92,12.9,0.0,1,29.3,2.68,5.8,0,0,1,1,0,,,,,,,,,,,,,,,,,,,,
306484,1626793434490,,,249,252,238,232,,0.06,0.12,1.96,0,-1,-1,0.14,,82,4682,7,40,56,0.9,0.0,400,4.88,13.0,0.0,1,28.3,2.64,5.8,0,0,1,1,0,,,,,,,,,,,,,,,,,,,,
306504,1626793434510,,,249,252,238,232,,0.08,0.08,1.81,0,0,-0,0.12,,82,4762,7,40,56,0.9,0.0,391,4.87,12.9,0.0,1,29.3,2.68,5.8,0,0,1,1,0,,,,,,,,,,,,,,,,,,,,
306524,1626793434530,,,249,252,238,232,,0.11,0.03,1.67,0,1,-0,0.11,,82,4700,7,40,56,0.9,0.0,398,4.88,12.8,0.0,1,28.5,1.58,5.8,0,0,1,1,0,,,,,,,,,,,,,,,,,,,,
306544,1626793434550,0,0,249,252,238,232,16,0.1,0.01,1.54,0,2,1,0.1,0,82,4665,8,40,55,0.9,0.0,395,4.87,12.7,0.0,1,27.8,1.55,5.6,0,0,1,1,0,0,250,250,0,45.930386,5.258159,0.0,219.6,9,3,1.8,0,0.0,-1,0.0,,0.0,0,0.6,5.1091
306564,1626793434570,,,249,251,238,232,,0.08,-0.01,1.51,0,2,2,0.08,,82,4680,7,40,55,0.9,0.0,389,4.9,12.7,0.0,1,28.0,2.63,5.6,0,0,1,1,0,,,,,,,,,,,,,,,,,,,,
306584,1626793434590,,,249,252,238,232,,0.06,-0.01,1.45,0,2,3,0.06,,82,4612,7,40,55,0.899,0.0,393,4.9,12.7,0.0,1,27.1,2.59,5.6,0,0,1,1,0,,,,,,,,,,,,,,,,,,,,
306604,1626793434610,,,249,252,238,232,,0.03,0.01,1.65,0,2,2,0.03,,82,4646,7,40,55,0.899,0.0,387,4.86,12.9,0.0,1,27.5,2.61,5.6,0,0,1,1,0,,,,,,,,,,,,,,,,,,,,
306624,1626793434630,,,249,251,238,232,,-0.0,0.05,1.83,0,1,1,0.05,,82,4579,7,40,55,0.899,0.0,388,4.88,12.9,0.0,1,26.7,2.56,5.6,0,0,1,1,0,,,,,,,,,,,,,,,,,,,,
306644,1626793434650,0,2,249,252,238,232,15,-0.02,0.1,2.0,0,-1,-1,0.11,0,82,4594,7,40,56,0.898,0.0,381,4.86,12.9,0.0,1,27.2,2.58,5.4,0,0,1,1,0,0,250,250,0,45.930386,5.258159,0.0,219.6,9,3,1.8,0,0.0,-1,0.0,0.0,0.0,0,0.6,5.1107
306664,1626793434670,,,249,252,238,232,,-0.03,0.14,2.15,0,-3,-3,0.15,,82,4580,7,40,56,0.899,0.0,384,4.9,13.0,0.0,1,27.0,2.57,5.4,0,0,1,1,0,,,,,,,,,,,,,,,,,,,,
306684,1626793434690,,,249,250,238,232,,-0.04,0.16,2.29,0,-4,-4,0.17,,82,4552,7,40,56,0.9,0.0,384,4.89,13.0,0.0,1,26.7,2.55,5.4,0,0,1,1,0,,,,,,,,,,,,,,,,,,,,
306704,1626793434707,,,249,252,238,232,,-0.03,0.16,2.42,0,-5,-6,0.16,,82,4580,7,40,56,0.901,0.0,382,4.9,13.0,0.0,1,27.0,2.57,5.4,0,0,1,1,0,,,,,,,,,,,,,,,,,,,,
306724,1626793434727,,,249,252,238,232,,-0.01,0.14,2.44,0,-6,-6,0.14,,82,4565,7,40,56,0.901,0.0,380,4.88,13.0,0.0,1,26.8,2.56,5.4,0,0,1,1,0,,,,,,,,,,,,,,,,,,,,
306744,1626793434747,-0,2,249,250,238,232,15,0.03,0.12,2.25,0,-5,-6,0.12,0,82,4593,7,40,56,0.901,0.0,383,4.9,13.0,0.0,1,27.2,2.58,5.4,0,0,1,1,0,0,250,250,0,45.930386,5.258159,0.0,219.6,9,3,1.8,0,0.0,-1,0.0,,0.0,0,0.6,5.1124
306764,1626793434767,,,249,252,238,232,,0.05,0.08,2.08,0,-4,-5,0.09,,82,4643,7,40,56,0.899,0.0,380,4.88,12.9,0.0,1,27.8,2.61,5.4,0,0,1,1,0,,,,,,,,,,,,,,,,,,,,
306784,1626793434787,,,249,252,238,232,,0.06,0.01,1.92,0,-2,-3,0.07,,82,4635,7,40,56,0.898,0.0,387,4.87,12.8,0.0,1,27.7,1.53,5.4,0,0,1,1,0,,,,,,,,,,,,,,,,,,,,
306804,1626793434809,,,249,252,238,232,,0.06,-0.02,1.77,0,-0,-1,0.07,,82,4702,7,40,56,0.898,0.0,389,4.9,12.7,0.0,1,28.5,1.58,5.4,0,0,1,1,0,,,,,,,,,,,,,,,,,,,,
306824,1626793434829,,,249,252,238,232,,0.04,-0.02,1.67,0,0,-1,0.05,,82,4679,7,40,56,0.897,0.0,388,4.85,12.7,0.0,1,28.2,2.66,5.4,0,0,1,1,0,,,,,,,,,,,,,,,,,,,,
306844,1626793434849,-0,2,249,252,238,232,16,0.02,-0.01,1.75,0,-0,-0,0.02,0,82,4665,7,40,56,0.897,0.0,393,4.9,12.7,0.0,1,28.1,2.62,5.6,0,0,1,1,0,0,250,250,0,45.930386,5.258159,0.0,219.6,9,3,1.8,0,0.0,-1,0.0,0.0,0.0,0,0.6,5.1141
306864,1626793434869,,,249,252,238,232,,-0.01,0.01,1.93,0,-1,-2,0.01,,82,4727,7,40,56,0.896,0.0,391,4.89,13.0,0.0,1,28.9,2.67,5.6,0,0,1,1,0,,,,,,,,,,,,,,,,,,,,
306884,1626793434889,,,249,250,238,232,,0.0,0.04,2.09,0,-2,-3,0.04,,82,4691,7,40,56,0.895,0.0,398,4.9,13.0,0.0,1,28.4,2.64,5.6,0,0,1,1,0,,,,,,,,,,,,,,,,,,,,
306904,1626793434909,,,249,252,238,232,,0.03,0.06,2.04,0,-2,-3,0.07,,82,4705,7,40,56,0.895,0.0,392,4.87,13.0,0.0,1,28.6,2.65,5.6,0,0,1,1,0,,,,,,,,,,,,,,,,,,,,
306924,1626793434929,,,249,252,238,232,,0.07,0.02,1.88,0,-2,-2,0.07,,82,4709,7,40,56,0.894,0.0,393,4.9,13.0,0.0,1,28.6,2.66,5.6,0,0,1,1,0,,,,,,,,,,,,,,,,,,,,
306944,1626793434949,0,2,249,252,238,232,15,0.08,-0.02,1.74,0,-1,-2,0.09,0,82,4701,7,40,56,0.893,0.0,397,4.86,12.8,0.0,1,28.5,1.57,5.7,0,0,1,1,0,0,250,250,0,45.930386,5.258159,0.0,219.6,9,3,1.8,0,0.0,-1,0.0,,0.0,0,0.6,5.1157
306964,1626793434969,,,249,252,238,232,,0.09,-0.05,1.6,0,0,-0,0.11,,82,4651,7,40,55,0.893,0.0,389,4.88,12.7,0.0,1,27.6,1.54,5.7,0,0,1,1,0,,,,,,,,,,,,,,,,,,,,
306984,1626793434989,,,249,252,238,232,,0.07,-0.05,1.48,0,1,1,0.08,,82,4695,7,40,56,0.894,0.0,389,4.87,12.8,0.0,1,28.5,2.65,5.7,0,0,1,1,0,,,,,,,,,,,,,,,,,,,,
307004,1626793435001,,,249,252,238,232,,0.03,-0.04,1.59,0,1,1,0.05,,82,4669,7,40,55,0.896,0.0,394,4.9,12.9,0.0,1,27.8,2.63,5.7,0,0,1,1,0,,,,,,,,,,,,,,,,,,,,
307024,1626793435021,,,249,252,238,232,,0.01,-0.02,1.78,0,0,-0,0.02,,82,4641,7,40,55,0.898,0.0,390,4.87,12.8,0.0,1,27.5,2.61,5.7,0,0,1,1,0,,,,,,,,,,,,,,,,,,,,
307044,1626793435041,0,2,249,252,238,232,15,-0.02,0.03,1.95,0,-1,-2,0.03,0,82,4657,7,40,56,0.899,0.0,392,4.9,13.0,0.0,1,28.0,2.62,5.6,0,0,1,1,0,0,250,250,0,45.930386,5.258159,0.0,219.6,9,3,1.8,0,0.0,-1,0.0,0.0,0.0,0,0.6,5.1174
307064,1626793435061,,,249,250,238,232,,-0.02,0.07,2.11,0,-3,-3,0.07,,82,4585,7,40,56,0.901,0.0,389,4.88,13.0,0.0,1,27.1,2.58,5.6,0,0,1,1,0,,,,,,,,,,,,,,,,,,,,
307084,1626793435081,,,249,252,238,232,,-0.01,0.1,2.25,0,-4,-4,0.1,,82,4586,7,40,56,0.902,0.0,384,4.87,13.0,0.0,1,27.1,2.58,5.6,0,0,1,1,0,,,,,,,,,,,,,,,,,,,,
307104,1626793435109,,,249,252,238,232,,0.02,0.1,2.3,0,-4,-5,0.1,,82,4585,7,40,56,0.904,0.0,387,4.89,13.0,0.0,1,27.1,2.58,5.6,0,0,1,1,0,,,,,,,,,,,,,,,,,,,,
307124,1626793435129,,,249,251,238,232,,0.04,0.09,2.22,0,-4,-5,0.1,,82,4557,7,40,56,0.905,0.0,378,4.84,13.0,0.0,1,26.7,2.56,5.6,0,0,1,1,0,,,,,,,,,,,,,,,,,,,,
307144,1626793435149,0,0,249,252,238,232,15,0.06,0.04,2.05,0,-2,-4,0.07,0,82,4620,7,40,56,0.906,0.0,382,4.87,13.0,0.0,1,27.5,2.59,5.5,0,0,1,1,0,0,250,250,0,45.930386,5.258159,0.0,219.6,9,3,1.8,0,0.0,-1,0.0,,0.0,0,0.6,5.1191
307164,1626793435169,,,249,252,238,232,,0.08,-0.01,1.89,0,-1,-3,0.08,,82,4633,7,40,56,0.906,0.0,380,4.88,12.9,0.0,1,27.7,2.6,5.5,0,0,1,1,0,,,,,,,,,,,,,,,,,,,,
307184,1626793435189,,,249,252,238,232,,0.1,-0.05,1.74,0,1,-1,0.11,,82,4634,7,40,56,0.907,0.0,382,4.86,12.8,0.0,1,27.7,1.53,5.5,0,0,1,1,0,,,,,,,,,,,,,,,,,,,,
307204,1626793435209,,,249,252,238,232,,0.1,-0.08,1.61,0,2,0,0.13,,82,4642,8,40,56,0.907,0.0,388,4.88,12.8,0.0,1,27.5,2.61,5.5,0,0,1,1,0,,,,,,,,,,,,,,,,,,,,
307224,1626793435229,,,249,252,238,232,,0.09,-0.06,1.49,0,3,2,0.11,,82,4623,7,40,56,0.907,0.0,381,4.88,12.7,0.0,1,27.5,2.59,5.5,0,0,1,1,0,,,,,,,,,,,,,,,,,,,,
307244,1626793435249,0,0,249,252,238,232,16,0.06,-0.05,1.53,0,3,2,0.08,0,82,4653,7,40,56,0.906,0.0,390,4.9,12.8,0.0,1,27.9,2.62,5.6,0,0,1,1,0,0,250,250,0,45.930386,5.258159,0.0,219.6,9,3,1.8,0,0.0,-1,0.0,0.0,0.0,0,0.6,5.1207
307264,1626793435269,,,249,252,238,232,,0.03,-0.02,1.71,0,2,1,0.04,,82,4642,7,40,56,0.905,0.0,387,4.91,12.7,0.0,1,27.8,2.61,5.6,0,0,1,1,0,,,,,,,,,,,,,,,,,,,,
307284,1626793435289,,,249,252,238,232,,0.03,0.02,1.88,0,1,0,0.04,,82,4630,7,40,56,0.904,0.0,389,4.87,12.9,0.0,1,27.6,2.6,5.6,0,0,1,1,0,,,,,,,,,,,,,,,,,,,,
307304,1626793435309,,,249,252,238,232,,0.01,0.06,2.05,0,-1,-2,0.06,,82,4661,7,40,56,0.903,0.0,390,4.87,13.0,0.0,1,28.0,2.62,5.6,0,0,1,1,0,,,,,,,,,,,,,,,,,,,,
307324,1626793435329,,,249,251,238,232,,0.02,0.1,2.2,0,-2,-3,0.1,,82,4628,7,40,56,0.902,0.0,390,4.88,13.0,0.0,1,27.6,2.6,5.6,0,0,1,1,0,,,,,,,,,,,,,,,,,,,,
307344,1626793435349,-0,2,249,252,238,232,15,0.05,0.04,2.03,0,-3,-3,0.06,0,82,4644,7,40,56,0.901,0.0,389,4.86,13.0,0.0,1,27.8,2.61,5.6,0,0,1,1,0,0,250,250,0,45.930386,5.258159,0.0,219.6,9,3,1.8,0,0.0,-1,0.0,,0.0,0,0.6,5.1224
307364,1626793435369,,,249,251,238,232,,0.06,-0.0,1.87,0,-1,-2,0.06,,82,4665,7,40,56,0.9,0.0,394,4.91,13.0,0.0,1,28.1,2.62,5.6,0,0,1,1,0,,,,,,,,,,,,,,,,,,,,
307384,1626793435389,,,249,252,238,232,,0.07,-0.04,1.73,0,-0,-2,0.07,,82,4629,8,40,56,0.899,0.0,385,4.86,13.0,0.0,1,27.6,2.6,5.6,0,0,1,1,0,,,,,,,,,,,,,,,,,,,,
307404,1626793435409,,,249,252,238,232,,0.04,0.0,1.64,0,1,1,0.04,,82,4703,8,40,56,0.898,0.0,389,4.88,12.7,0.0,1,28.6,1.58,5.6,0,0,1,1,0,,,,,,,,,,,,,,,,,,,,
307424,1626793435429,,,249,252,238,232,,0.01,0.02,1.74,0,2,2,0.02,,82,4659,7,40,56,0.898,0.0,387,4.89,12.7,0.0,1,28.0,2.62,5.6,0,0,1,1,0,,,,,,,,,,,,,,,,,,,,
307444,1626793435449,0,1,249,252,238,232,16,-0.02,0.06,1.91,0,2,2,0.07,0,82,4679,7,40,56,0.898,0.0,388,4.9,12.9,0.0,1,28.2,2.63,5.7,0,0,1,1,0,0,250,250,0,45.930386,5.258159,0.0,219.6,9,3,1.8,0,0.0,-1,0.0,0.0,0.0,0,0.6,5.1241
307464,1626793435469,,,249,252,238,232,,-0.01,0.11,2.07,0,0,0,0.11,,82,4696,7,40,56,0.898,0.0,396,4.9,12.8,0.0,1,28.5,2.65,5.7,0,0,1,1,0,,,,,,,,,,,,,,,,,,,,
307484,1626793435489,,,249,252,238,232,,0.01,0.14,2.12,0,-1,-1,0.14,,82,4664,7,40,56,0.899,0.0,390,4.89,13.0,0.0,1,28.1,2.62,5.7,0,0,1,1,0,,,,,,,,,,,,,,,,,,,,
307504,1626793435509,,,249,251,238,232,,0.05,0.11,1.97,0,-1,-2,0.12,,82,4652,7,40,56,0.9,0.0,396,4.91,13.0,0.0,1,27.9,2.61,5.7,0,0,1,1,0,,,,,,,,,,,,,,,,,,,,
307524,1626793435529,,,249,252,238,232,,0.09,0.06,1.81,0,-2,-3,0.1,,82,4600,7,40,56,0.901,0.0,385,4.86,13.0,0.0,1,27.3,2.59,5.7,0,0,1,1,0,,,,,,,,,,,,,,,,,,,,
307544,1626793435549,-1,2,249,252,238,232,16,0.11,0.01,1.67,0,-1,-3,0.11,0,82,4617,7,40,56,0.901,0.0,385,4.9,12.9,0.0,1,27.5,2.59,5.5,0,0,1,1,0,0,250,250,0,45.930386,5.258159,0.0,219.6,9,3,1.8,0,0.0,-1,0.0,,0.0,0,0.6,5.1257
307564,1626793435569,,,249,252,238,232,,0.12,-0.03,1.55,0,-0,-2,0.13,,82,4569,7,40,56,0.903,0.0,384,4.86,12.9,0.0,1,26.9,1.49,5.5,0,0,1,1,0,,,,,,,,,,,,,,,,,,,,
307584,1626793435589,,,249,252,238,232,,0.14,-0.09,1.43,0,1,-1,0.16,,82,4565,7,40,56,0.904,0.0,377,4.88,12.9,0.0,1,26.8,1.49,5.5,0,0,1,1,0,,,,,,,,,,,,,,,,,,,,
307604,1626793435605,,,249,252,238,232,,0.13,-0.1,1.32,0,3,1,0.16,,82,4611,7,40,56,0.905,0.0,385,4.87,13.0,0.0,1,27.4,1.52,5.5,0,0,1,1,0,,,,,,,,,,,,,,,,,,,,
307624,1626793435625,,,249,252,238,232,,0.11,-0.08,1.21,0,4,2,0.14,,82,4578,7,40,56,0.906,0.0,385,4.91,12.8,0.0,1,27.0,2.57,5.5,0,0,1,1,0,,,,,,,,,,,,,,,,,,,,
307644,1626793435645,0,1,249,252,238,232,15,0.09,-0.05,1.24,0,5,4,0.1,0,82,4659,7,40,56,0.906,0.0,383,4.9,12.7,0.0,1,28.0,1.55,5.6,0,0,1,1,0,0,250,250,0,45.930386,5.258159,0.0,219.6,9,3,1.8,0,0.0,-1,0.0,0.0,0.0,0,0.6,5.1274
307664,1626793435665,,,249,252,238,232,,0.06,0.0,1.45,0,6,5,0.06,,82,4635,7,40,56,0.907,0.0,385,4.88,12.8,0.0,1,27.7,2.61,5.6,0,0,1,1,0,,,,,,,,,,,,,,,,,,,,
307684,1626793435685,,,249,252,238,232,,0.04,0.03,1.65,0,4,3,0.05,,82,4681,7,40,56,0.908,0.0,385,4.87,12.9,0.0,1,28.3,2.64,5.6,0,0,1,1,0,,,,,,,,,,,,,,,,,,,,
307704,1626793435710,,,249,252,238,232,,0.04,0.07,1.83,0,2,2,0.08,,82,4720,7,40,56,0.91,0.0,393,4.9,12.9,0.0,1,28.8,2.66,5.6,0,0,1,1,0,,,,,,,,,,,,,,,,,,,,
307724,1626793435730,,,249,252,238,232,,0.08,0.07,1.71,0,1,0,0.1,,82,4705,7,40,56,0.91,0.0,398,4.88,13.0,0.0,1,28.6,2.65,5.6,0,0,1,1,0,,,,,,,,,,,,,,,,,,,,
307744,1626793435750,-0,2,249,250,238,232,16,0.1,0.02,1.58,0,2,1,0.1,0,82,4745,7,40,56,0.91,0.0,390,4.87,13.0,0.0,1,29.1,2.67,5.8,0,0,1,1,0,0,250,250,0,45.930386,5.258159,0.0,219.6,9,3,1.8,0,0.0,-1,0.0,,0.0,0,0.6,5.1291
307764,1626793435770,,,249,252,238,232,,0.1,-0.02,1.46,0,3,2,0.1,,82,4768,7,40,56,0.909,0.0,400,4.86,12.8,0.0,1,29.4,1.63,5.8,0,0,1,1,0,,,,,,,,,,,,,,,,,,,,
307784,1626793435790,,,249,252,238,232,,0.08,-0.02,1.39,0,3,3,0.08,,82,4673,7,40,56,0.909,0.0,395,4.86,12.7,0.0,1,28.2,1.56,5.8,0,0,1,1,0,,,,,,,,,,,,,,,,,,,,
307804,1626793435808,,,249,252,238,232,,0.05,-0.01,1.51,0,3,3,0.05,,82,4678,7,40,56,0.908,0.0,390,4.9,12.7,0.0,1,28.2,2.63,5.8,0,0,1,1,0,,,,,,,,,,,,,,,,,,,,
307824,1626793435828,,,249,252,238,232,,0.02,0.01,1.7,0,3,3,0.02,,82,4672,7,40,55,0.907,0.0,391,4.9,12.9,0.0,1,27.9,2.63,5.8,0,0,1,1,0,,,,,,,,,,,,,,,,,,,,
307844,1626793435848,-0,2,249,252,238,232,16,-0.01,0.05,1.88,0,2,2,0.05,0,82,4637,7,40,56,0.906,0.0,389,4.87,13.0,0.0,1,27.7,2.6,5.5,0,0,1,1,0,0,250,250,0,45.930386,5.258159,0.0,219.6,9,3,1.8,0,0.0,-1,0.0,0.0,0.0,0,0.6,5.1307
307864,1626793435868,,,249,251,238,232,,-0.0,0.08,2.04,0,0,1,0.08,,82,4621,7,40,56,0.906,0.0,398,4.86,12.9,0.0,1,27.5,2.59,5.5,0,0,1,1,0,,,,,,,,,,,,,,,,,,,,
307884,1626793435888,,,249,252,238,232,,0.01,0.11,2.18,0,-1,-1,0.11,,82,4610,7,40,56,0.905,0.0,390,4.88,13.0,0.0,1,27.4,2.59,5.5,0,0,1,1,0,,,,,,,,,,,,,,,,,,,,
307904,1626793435908,,,249,252,238,232,,0.04,0.1,2.23,0,-3,-3,0.11,,82,4569,7,40,56,0.905,0.0,385,4.87,13.0,0.0,1,26.9,2.56,5.5,0,0,1,1,0,,,,,,,,,,,,,,,,,,,,
307924,1626793435928,,,249,252,238,232,,0.07,0.08,2.06,0,-4,-4,0.11,,82,4608,7,40,56,0.905,0.0,383,4.9,13.0,0.0,1,27.4,2.59,5.5,0,0,1,1,0,,,,,,,,,,,,,,,,,,,,
307944,1626793435948,0,2,249,252,238,232,15,0.1,0.03,1.9,0,-4,-4,0.1,0,82,4595,7,40,56,0.905,0.0,381,4.88,13.0,0.0,1,27.2,2.58,5.5,0,0,1,1,0,0,250,250,0,45.930386,5.258159,0.0,219.6,9,3,1.8,0,0.0,-1,0.0,,0.0,0,0.6,5.1324
307964,1626793435968,,,249,252,238,232,,0.11,-0.02,1.75,0,-3,-3,0.11,,82,4618,7,40,56,0.905,0.0,385,4.89,13.0,0.0,1,27.5,2.59,5.5,0,0,1,1,0,,,,,,,,,,,,,,,,,,,,
307984,1626793435988,,,249,252,238,232,,0.12,-0.05,1.62,0,-1,-2,0.13,,82,4627,7,40,56,0.905,0.0,387,4.89,13.0,0.0,1,27.6,2.6,5.5,0,0,1,1,0,,,,,,,,,,,,,,,,,,,,
308004,1626793436000,,,249,252,238,232,,0.12,-0.08,1.49,0,0,-1,0.14,,82,4604,7,40,56,0.905,0.0,382,4.88,12.8,0.0,1,27.2,1.51,5.5,0,0,1,1,0,,,,,,,,,,,,,,,,,,,,
308024,1626793436020,,,249,252,238,232,,0.11,-0.06,1.38,0,2,1,0.12,,82,4645,7,40,56,0.905,0.0,387,4.9,12.7,0.0,1,27.8,2.61,5.5,0,0,1,1,0,,,,,,,,,,,,,,,,,,,,
308044,1626793436040,-1,2,249,252,238,232,16,0.08,-0.03,1.4,0,3,3,0.09,0,82,4618,7,40,56,0.905,0.0,385,4.9,12.7,0.0,1,27.5,1.52,5.5,0,0,1,1,0,0,250,250,0,45.930386,5.258159,0.0,219.6,9,3,1.8,0,0.0,-1,0.0,0.0,0.0,0,0.6,5.1341
308064,1626793436060,,,249,252,238,232,,0.05,-0.0,1.6,0,3,3,0.05,,82,4665,7,40,56,0.905,0.0,383,4.91,12.7,0.0,1,28.1,2.62,5.5,0,0,1,1,0,,,,,,,,,,,,,,,,,,,,
308084,1626793436080,,,249,252,238,232,,0.03,0.03,1.78,0,2,2,0.05,,82,4726,7,40,56,0.905,0.0,391,4.86,12.9,0.0,1,28.9,2.67,5.5,0,0,1,1,0,,,,,,,,,,,,,,,,,,,,
308104,1626793436110,,,249,252,238,232,,0.02,0.08,1.93,0,1,0,0.09,,82,4669,7,40,56,0.905,0.0,389,4.86,13.0,0.0,1,28.1,2.63,5.5,0,0,1,1,0,,,,,,,,,,,,,,,,,,,,
308124,1626793436130,,,249,250,238,232,,0.06,0.1,1.82,0,-1,-1,0.12,,82,4720,7,40,56,0.904,0.0,401,4.91,13.0,0.0,1,28.8,2.66,5.5,0,0,1,1,0,,,,,,,,,,,,,,,,,,,,
308144,1626793436150,-1,2,249,252,238,232,16,0.1,0.06,1.68,0,-1,-1,0.11,0,82,4694,7,40,56,0.903,0.0,392,4.87,13.0,0.0,1,28.4,2.64,5.7,0,0,1,1,0,0,250,250,0,45.930386,5.258159,0.0,219.6,9,3,1.8,0,0.0,-1,0.0,,0.0,0,0.6,5.1357
308164,1626793436170,,,249,252,238,232,,0.11,-0.0,1.55,0,0,-1,0.11,,82,4657,7,40,56,0.902,0.0,391,4.86,12.9,0.0,1,28.0,1.55,5.7,0,0,1,1,0,,,,,,,,,,,,,,,,,,,,
308184,1626793436190,,,249,252,238,232,,0.11,-0.01,1.43,0,1,0,0.11,,82,4696,7,40,56,0.901,0.0,392,4.86,12.8,0.0,1,28.5,1.58,5.7,0,0,1,1,0,,,,,,,,,,,,,,,,,,,,
308204,1626793436210,,,249,252,238,232,,0.09,0.0,1.32,0,2,2,0.09,,82,4629,7,40,56,0.901,0.0,387,4.83,12.7,0.0,1,27.5,2.6,5.7,0,0,1,1,0,,,,,,,,,,,,,,,,,,,,
308224,1626793436230,,,249,252,238,232,,0.06,0.01,1.37,0,2,3,0.06,,82,4619,7,40,56,0.899,0.0,391,4.85,12.8,0.0,1,27.5,2.59,5.7,0,0,1,1,0,,,,,,,,,,,,,,,,,,,,
308244,1626793436250,-0,2,249,252,238,232,16,0.02,0.02,1.58,0,3,4,0.03,0,82,4592,7,40,56,0.898,0.0,386,4.9,12.8,0.0,1,27.2,2.58,5.4,0,0,1,1,0,0,250,250,0,45.930386,5.258159,0.0,219.6,9,3,1.8,0,0.0,-1,0.0,0.0,0.0,0,0.6,5.1374
308264,1626793436270,,,249,252,238,232,,0.01,0.05,1.76,0,2,4,0.05,,82,4602,7,40,56,0.897,0.0,387,4.85,12.9,0.0,1,27.3,2.59,5.4,0,0,1,1,0,,,,,,,,,,,,,,,,,,,,
308284,1626793436290,,,249,252,238,232,,-0.03,0.07,1.93,0,1,2,0.08,,82,4592,7,40,56,0.897,0.0,389,4.86,12.9,0.0,1,27.2,2.58,5.4,0,0,1,1,0,,,,,,,,,,,,,,,,,,,,
308304,1626793436308,,,249,252,238,232,,-0.02,0.1,2.09,0,-1,0,0.11,,82,4636,7,40,56,0.897,0.0,388,4.84,12.9,0.0,1,27.7,2.6,5.4,0,0,1,1,0,,,,,,,,,,,,,,,,,,,,
308324,1626793436328,,,249,252,238,232,,-0.01,0.13,2.24,0,-3,-1,0.13,,82,4628,7,40,56,0.897,0.0,390,4.88,13.0,0.0,1,27.6,2.6,5.4,0,0,1,1,0,,,,,,,,,,,,,,,,,,,,
308344,1626793436348,-1,2,249,252,238,232,16,0.03,0.12,2.22,0,-4,-3,0.12,0,82,4642,7,40,56,0.898,0.0,388,4.88,13.0,0.0,1,27.8,2.61,5.4,0,0,1,1,0,0,250,250,0,45.930386,5.258159,0.0,219.6,9,3,1.8,0,0.0,-1,0.0,,0.0,0,0.6,5.1391
308364,1626793436368,,,249,252,238,232,,0.06,0.07,2.05,0,-4,-3,0.09,,82,4676,7,40,56,0.899,0.0,386,4.88,13.0,0.0,1,28.2,2.63,5.6,0,0,1,1,0,,,,,,,,,,,,,,,,,,,,
308384,1626793436388,,,249,252,238,232,,0.08,-0.01,1.89,0,-3,-3,0.08,,82,4647,7,40,56,0.9,0.0,394,4.88,13.0,0.0,1,27.8,2.61,5.6,0,0,1,1,0,,,,,,,,,,,,,,,,,,,,
308404,1626793436410,,,249,252,238,232,,0.08,-0.04,1.74,0,-1,-1,0.09,,82,4666,7,40,56,0.901,0.0,388,4.87,12.8,0.0,1,28.1,1.55,5.6,0,0,1,1,0,,,,,,,,,,,,,,,,,,,,
308424,1626793436430,,,249,252,238,232,,0.06,-0.05,1.62,0,0,0,0.07,,82,4665,7,40,56,0.902,0.0,388,4.85,12.7,0.0,1,28.1,1.55,5.6,0,0,1,1,0,,,,,,,,,,,,,,,,,,,,
308444,1626793436450,0,2,249,252,238,232,15,0.03,-0.03,1.62,0,1,2,0.04,0,82,4669,7,40,56,0.902,0.0,388,4.87,12.8,0.0,1,28.1,2.63,5.6,0,0,1,1,0,0,250,250,0,45.930386,5.258159,0.0,219.6,9,3,1.8,0,0.0,-1,0.0,0.0,0.0,0,0.6,5.1407
308464,1626793436470,,,249,252,238,232,,0.0,-0.01,1.81,0,1,1,0.01,,82,4680,7,40,56,0.902,0.0,388,4.9,12.7,0.0,1,28.3,2.63,5.6,0,0,1,1,0,,,,,,,,,,,,,,,,,,,,
308484,1626793436490,,,249,252,238,232,,-0.01,0.03,1.97,0,-0,0,0.03,,82,4626,7,40,56,0.901,0.0,394,4.86,13.0,0.0,1,27.6,2.6,5.6,0,0,1,1,0,,,,,,,,,,,,,,,,,,,,
308504,1626793436510,,,249,252,238,232,,-0.01,0.07,2.13,0,-2,-1,0.07,,82,4654,7,40,56,0.9,0.0,384,4.88,13.0,0.0,1,27.9,2.62,5.6,0,0,1,1,0,,,,,,,,,,,,,,,,,,,,
308524,1626793436530,,,249,252,238,232,,0.02,0.1,2.2,0,-3,-2,0.1,,82,4609,7,40,56,0.899,0.0,391,4.9,13.0,0.0,1,27.4,2.59,5.6,0,0,1,1,0,,,,,,,,,,,,,,,,,,,,
308544,1626793436550,-0,2,249,251,238,232,16,0.05,0.09,2.12,0,-4,-3,0.1,0,82,4608,7,40,56,0.9,0.0,388,4.87,13.0,0.0,1,27.4,2.59,5.6,0,0,1,1,0,0,250,250,0,45.930386,5.258159,0.0,219.6,9,3,1.8,0,0.0,-1,0.0,,0.0,0,0.6,5.1424
308564,1626793436570,,,249,252,238,232,,0.08,0.03,1.96,0,-4,-4,0.09,,82,4647,7,40,56,0.901,0.0,386,4.86,13.0,0.0,1,27.8,2.61,5.5,0,0,1,1,0,,,,,,,,,,,,,,,,,,,,
308584,1626793436590,,,249,252,238,232,,0.1,-0.03,1.81,0,-3,-3,0.11,,82,4617,7,40,56,0.901,0.0,387,4.87,13.0,0.0,1,27.5,2.59,5.5,0,0,1,1,0,,,,,,,,,,,,,,,,,,,,
308604,1626793436610,,,249,251,238,232,,0.12,-0.07,1.67,0,-1,-2,0.14,,82,4617,7,40,56,0.902,0.0,383,4.87,13.0,0.0,1,27.5,2.59,5.5,0,0,1,1,0,,,,,,,,,,,,,,,,,,,,
308624,1626793436630,,,249,252,238,232,,0.12,-0.11,1.54,0,0,-1,0.16,,82,4593,7,40,56,0.902,0.0,384,4.88,12.8,0.0,1,27.1,1.51,5.5,0,0,1,1,0,,,,,,,,,,,,,,,,,,,,
308644,1626793436650,0,2,249,252,238,232,16,0.11,-0.11,1.42,0,2,2,0.16,0,82,4591,7,40,56,0.902,0.0,385,4.91,12.8,0.0,1,27.1,2.58,5.5,0,0,1,1,0,0,250,250,0,45.930386,5.258159,0.0,219.6,9,3,1.8,0,0.0,-1,0.0,0.0,0.0,0,0.6,5.1441
308664,1626793436670,,,249,252,238,232,,0.09,-0.09,1.33,0,3,3,0.13,,82,4646,7,40,56,0.902,0.0,387,4.91,12.7,0.0,1,27.8,1.54,5.5,0,0,1,1,0,,,,,,,,,,,,,,,,,,,,
308684,1626793436690,,,249,252,238,232,,0.05,-0.06,1.48,0,4,4,0.08,,82,4628,7,40,56,0.904,0.0,388,4.88,12.7,0.0,1,27.6,2.6,5.5,0,0,1,1,0,,,,,,,,,,,,,,,,,,,,
308704,1626793436709,,,249,252,238,232,,0.03,-0.03,1.67,0,3,3,0.04,,82,4661,7,40,56,0.905,0.0,387,4.91,12.7,0.0,1,28.0,2.62,5.5,0,0,1,1,0,,,,,,,,,,,,,,,,,,,,
308724,1626793436729,,,249,252,238,232,,0.0,-0.0,1.85,0,1,2,0.0,,82,4641,7,40,56,0.908,0.0,389,4.88,12.9,0.0,1,27.8,2.61,5.5,0,0,1,1,0,,,,,,,,,,,,,,,,,,,,
308744,1626793436749,0,2,249,252,238,232,16,0.02,0.03,2.01,0,-1,-0,0.04,0,82,4651,7,40,56,0.91,0.0,389,4.89,13.1,0.0,1,27.9,2.61,5.5,0,0,0,1,0,0,250,250,0,45.930386,5.258159,0.0,219.6,9,3,1.8,0,0.0,-1,0.0,,0.0,0,0.6,5.1457
308764,1626793436769,,,249,252,238,232,,0.06,0.03,1.88,0,-2,-1,0.07,,82,4712,7,40,56,0.912,0.0,388,4.88,13.1,0.0,1,28.7,2.66,5.6,0,0,0,1,0,,,,,,,,,,,,,,,,,,,,
308784,1626793436789,,,249,252,238,232,,0.09,-0.01,1.74,0,-1,-2,0.09,,82,4671,7,40,56,0.913,0.0,400,4.86,13.1,0.0,1,28.1,2.63,5.6,0,0,0,1,0,,,,,,,,,,,,,,,,,,,,
308804,1626793436809,,,249,252,238,232,,0.11,-0.07,1.61,0,-1,-1,0.13,,82,4680,7,40,56,0.913,0.0,392,4.86,13.1,0.0,1,28.3,1.56,5.6,0,0,0,1,0,,,,,,,,,,,,,,,,,,,,
308824,1626793436829,,,249,252,238,232,,0.11,-0.08,1.48,0,1,0,0.14,,81,4689,7,40,56,0.913,0.0,388,4.84,13.1,0.0,1,28.4,1.57,5.6,0,0,0,1,0,,,,,,,,,,,,,,,,,,,,
308844,1626793436849,-1,1,249,252,238,232,15,0.08,-0.08,1.37,0,2,2,0.11,0,82,4638,7,40,56,0.913,0.0,390,4.85,13.0,0.0,1,27.7,2.6,5.6,0,0,0,1,0,0,250,250,0,45.930386,5.258159,0.0,219.6,9,3,1.8,0,0.0,-1,0.0,0.0,0.0,0,0.6,5.1474
308864,1626793436869,,,249,252,238,232,,0.05,-0.07,1.46,0,2,3,0.08,,82,4647,7,40,56,0.913,0.0,383,4.91,12.9,0.0,1,27.8,2.61,5.6,0,0,0,1,0,,,,,,,,,,,,,,,,,,,,
308884,1626793436889,,,249,252,238,232,,0.02,-0.03,1.65,0,2,2,0.04,,82,4627,7,40,56,0.912,0.0,389,4.91,12.8,0.0,1,27.6,2.6,5.6,0,0,0,1,0,,,,,,,,,,,,,,,,,,,,
308904,1626793436909,,,249,252,238,232,,-0.01,0.0,1.83,0,1,1,0.01,,82,4642,7,40,56,0.912,0.0,389,4.86,13.1,0.0,1,27.8,2.61,5.6,0,0,0,1,0,,,,,,,,,,,,,,,,,,,,
308924,1626793436929,,,249,251,238,232,,-0.01,0.03,2.0,0,-0,-0,0.03,,82,4644,7,40,56,0.91,0.0,391,4.88,13.1,0.0,1,27.8,2.61,5.6,0,0,0,1,0,,,,,,,,,,,,,,,,,,,,
308944,1626793436949,0,2,249,252,238,232,16,-0.01,0.07,2.15,0,-2,-2,0.07,0,82,4595,7,40,56,0.91,0.0,390,4.87,13.1,0.0,1,27.2,2.58,5.5,0,0,0,1,0,0,250,250,0,45.930386,5.258159,0.0,219.6,9,3,1.8,0,0.0,-1,0.0,,0.0,0,0.6,5.1491
308964,1626793436969,,,249,252,238,232,,0.02,0.07,2.21,0,-4,-3,0.08,,82,4621,7,40,56,0.909,0.0,385,4.89,13.2,0.0,1,27.5,2.59,5.5,0,0,0,1,0,,,,,,,,,,,,,,,,,,,,
308984,1626793436989,,,249,251,238,232,,0.05,0.05,2.04,0,-4,-4,0.07,,82,4597,7,40,56,0.909,0.0,385,4.88,13.2,0.0,1,27.2,2.58,5.5,0,0,0,1,0,,,,,,,,,,,,,,,,,,,,
309004,1626793436999,,,249,252,238,232,,0.08,-0.02,1.88,0,-3,-4,0.09,,82,4612,7,40,56,0.908,0.0,383,4.87,13.2,0.0,1,27.4,2.59,5.5,0,0,0,1,0,,,,,,,,,,,,,,,,,,,,
309024,1626793437019,,,249,252,238,232,,0.1,-0.06,1.73,0,-2,-3,0.11,,82,4649,7,40,56,0.908,0.0,382,4.87,13.2,0.0,1,27.9,2.61,5.5,0,0,0,1,0,,,,,,,,,,,,,,,,,,,,
309044,1626793437039,0,0,249,252,238,232,16,0.1,-0.08,1.6,0,-0,-1,0.12,0,82,4631,7,40,56,0.907,0.0,389,4.87,13.0,0.0,1,27.8,1.54,5.5,0,0,0,1,0,0,250,250,0,45.930386,5.258159,0.0,219.6,9,3,1.8,0,0.0,-1,0.0,0.0,0.0,0,0.6,5.1507
309064,1626793437059,,,249,252,238,232,,0.08,-0.06,1.48,0,1,1,0.1,,82,4706,7,40,56,0.908,0.0,390,4.9,12.9,0.0,1,28.6,1.58,5.5,0,0,0,1,0,,,,,,,,,,,,,,,,,,,,
309084,1626793437079,,,249,252,238,232,,0.04,-0.02,1.6,0,2,1,0.05,,82,4660,7,40,56,0.908,0.0,392,4.9,12.9,0.0,1,28.0,2.62,5.5,0,0,0,1,0,,,,,,,,,,,,,,,,,,,,
309104,1626793437109,,,249,252,238,232,,0.01,0.0,1.79,0,1,1,0.01,,82,4643,7,40,56,0.907,0.0,392,4.88,12.9,0.0,1,27.8,2.61,5.5,0,0,0,1,0,,,,,,,,,,,,,,,,,,,,
309124,1626793437129,,,249,252,238,232,,-0.01,0.05,1.96,0,0,-0,0.05,,82,4637,7,40,56,0.908,0.0,386,4.89,13.0,0.0,1,27.7,2.6,5.5,0,0,0,1,0,,,,,,,,,,,,,,,,,,,,
309144,1626793437149,0,2,249,252,238,232,16,-0.01,0.09,2.11,0,-1,-2,0.09,0,81,4626,7,40,56,0.908,0.0,396,4.88,13.2,0.0,1,27.6,2.6,5.5,0,0,0,1,0,0,250,250,0,45.930386,5.258159,0.0,219.6,9,3,1.8,0,0.0,-1,0.0,,0.0,0,0.6,5.1524
309164,1626793437169,,,249,252,238,232,,-0.0,0.11,2.26,0,-3,-3,0.11,,82,4594,7,40,56,0.908,0.0,389,4.9,13.2,0.0,1,27.2,2.58,5.5,0,0,0,1,0,,,,,,,,,,,,,,,,,,,,
309184,1626793437189,,,249,252,238,232,,0.03,0.11,2.33,0,-4,-4,0.11,,81,4592,7,40,56,0.908,0.0,387,4.9,13.2,0.0,1,27.2,2.58,5.5,0,0,0,1,0,,,,,,,,,,,,,,,,,,,,
309204,1626793437209,,,249,252,238,232,,0.06,0.08,2.16,0,-5,-5,0.1,,82,4566,7,40,57,0.908,0.0,388,4.88,13.2,0.0,1,27.1,2.56,5.5,0,0,0,1,0,,,,,,,,,,,,,,,,,,,,
309224,1626793437229,,,249,252,238,232,,0.09,0.05,1.99,0,-5,-6,0.11,,82,4536,7,40,56,0.908,0.0,382,4.87,13.2,0.0,1,26.5,2.54,5.5,0,0,0,1,0,,,,,,,,,,,,,,,,,,,,
309244,1626793437249,0,1,249,252,238,232,16,0.11,0.02,1.84,0,-4,-5,0.11,0,82,4600,7,40,57,0.907,0.0,382,4.87,13.1,0.0,1,27.6,2.59,5.5,0,0,0,1,0,0,250,250,0,45.930386,5.258159,0.0,219.6,9,3,1.8,0,0.0,-1,0.0,0.0,0.0,0,0.6,5.1541
309264,1626793437269,,,249,252,238,232,,0.14,-0.03,1.7,0,-3,-5,0.14,,82,4549,7,40,56,0.907,0.0,382,4.88,13.2,0.0,1,26.6,2.55,5.5,0,0,0,1,0,,,,,,,,,,,,,,,,,,,,
309284,1626793437289,,,249,252,238,232,,0.15,-0.07,1.57,0,-1,-3,0.17,,82,4604,7,40,57,0.907,0.0,379,4.88,13.1,0.0,1,27.6,2.59,5.5,0,0,0,1,0,,,,,,,,,,,,,,,,,,,,
309304,1626793437309,,,249,252,238,232,,0.16,-0.08,1.45,0,0,-2,0.18,,81,4606,7,40,57,0.908,0.0,389,4.88,13.0,0.0,1,27.6,1.52,5.5,0,0,0,1,0,,,,,,,,,,,,,,,,,,,,
309324,1626793437329,,,249,252,238,232,,0.15,-0.1,1.34,0,2,-0,0.18,,82,4594,7,40,57,0.908,0.0,381,4.9,13.0,0.0,1,27.9,1.54,5.5,0,0,0,1,0,,,,,,,,,,,,,,,,,,,,
309344,1626793437349,0,2,249,252,238,232,16,0.12,-0.07,1.26,0,3,1,0.14,0,81,4660,7,40,57,0.908,0.0,386,4.9,12.9,0.0,1,28.3,1.55,5.6,0,0,0,1,0,0,250,250,0,45.930386,5.258159,0.0,219.6,9,3,1.8,0,0.0,-1,0.0,,0.0,0,0.6,5.1557
309364,1626793437369,,,249,252,238,232,,0.09,-0.04,1.24,0,4,2,0.1,,81,4602,7,40,56,0.909,0.0,387,4.88,12.9,0.0,1,27.3,2.59,5.6,0,0,0,1,0,,,,,,,,,,,,,,,,,,,,
309384,1626793437389,,,249,252,238,232,,0.05,-0.01,1.46,0,3,2,0.06,,81,4706,7,40,56,0.909,0.0,385,4.9,13.1,0.0,1,28.6,2.65,5.6,0,0,0,1,0,,,,,,,,,,,,,,,,,,,,
309404,1626793437409,,,249,252,238,232,,0.03,0.02,1.65,0,3,1,0.04,,81,4649,7,40,56,0.91,0.0,395,4.88,13.0,0.0,1,27.9,2.61,5.6,0,0,0,1,0,,,,,,,,,,,,,,,,,,,,
309424,1626793437429,,,249,252,238,232,,0.04,0.05,1.83,0,1,-1,0.06,,81,4691,7,40,56,0.91,0.0,387,4.88,13.1,0.0,1,28.4,2.64,5.6,0,0,0,1,0,,,,,,,,,,,,,,,,,,,,
309444,1626793437449,-1,2,249,252,238,232,15,0.07,0.04,1.83,0,-0,-1,0.08,0,81,4657,7,40,56,0.908,0.0,395,4.9,13.2,0.0,1,28.0,2.62,5.6,0,0,0,1,0,0,250,250,0,45.930386,5.258159,0.0,219.6,9,3,1.8,0,0.0,-1,0.0,0.0,0.0,0,0.6,5.1574
309464,1626793437469,,,249,252,238,232,,0.11,0.0,1.69,0,-1,-2,0.11,,81,4641,7,40,56,0.907,0.0,392,4.9,13.2,0.0,1,27.8,2.61,5.6,0,0,0,1,0,,,,,,,,,,,,,,,,,,,,
309484,1626793437489,,,249,252,238,232,,0.12,-0.04,1.56,0,-0,-2,0.13,,81,4676,7,40,56,0.906,0.0,388,4.88,13.1,0.0,1,28.2,2.63,5.6,0,0,0,1,0,,,,,,,,,,,,,,,,,,,,
309504,1626793437509,,,249,252,238,232,,0.14,-0.09,1.44,0,0,-1,0.16,,81,4580,7,40,56,0.905,0.0,389,4.89,13.0,0.0,1,27.0,2.57,5.6,0,0,0,1,0,,,,,,,,,,,,,,,,,,,,
309524,1626793437529,,,249,252,238,232,,0.13,-0.12,1.33,0,2,1,0.18,,81,4618,7,40,56,0.904,0.0,379,4.87,13.0,0.0,1,27.9,1.55,5.6,0,0,0,1,0,,,,,,,,,,,,,,,,,,,,
309544,1626793437549,-0,2,249,252,238,232,16,0.12,-0.12,1.23,0,3,2,0.17,0,81,4644,7,40,57,0.903,0.0,388,4.85,12.9,0.0,1,27.6,1.52,5.6,0,0,0,1,0,0,250,250,0,45.930386,5.258159,0.0,219.6,9,3,1.8,0,0.0,-1,0.0,,0.0,0,0.6,5.1591
309564,1626793437569,,,249,252,238,232,,0.08,-0.09,1.13,0,5,4,0.12,,81,4621,7,40,56,0.902,0.0,387,4.9,12.8,0.0,1,27.5,1.52,5.5,0,0,0,1,0,,,,,,,,,,,,,,,,,,,,
309584,1626793437589,,,249,252,238,232,,0.06,-0.05,1.34,0,5,4,0.08,,81,4676,7,40,56,0.902,0.0,387,4.9,12.9,0.0,1,28.2,1.56,5.5,0,0,0,1,0,,,,,,,,,,,,,,,,,,,,
309604,1626793437609,,,249,252,238,232,,0.02,-0.01,1.55,0,4,3,0.03,,81,4600,7,40,56,0.902,0.0,390,4.87,13.1,0.0,1,27.3,2.59,5.5,0,0,0,1,0,,,,,,,,,,,,,,,,,,,,
309624,1626793437629,,,249,252,238,232,,0.02,0.0,1.74,0,2,1,0.02,,81,4683,7,40,56,0.903,0.0,389,4.87,13.1,0.0,1,28.3,2.64,5.5,0,0,0,1,0,,,,,,,,,,,,,,,,,,,,
309644,1626793437649,0,1,249,252,238,232,15,0.02,0.03,1.91,0,0,-0,0.03,0,81,4647,7,40,56,0.903,0.0,389,4.9,13.1,0.0,1,27.8,2.61,5.5,0,0,0,1,0,0,250,250,0,45.930386,5.258159,0.0,219.6,9,3,1.8,0,0.0,-1,0.0,0.0,0.0,0,0.6,5.1607
309664,1626793437669,,,249,252,238,232,,0.06,0.04,1.99,0,-1,-2,0.08,,81,4665,7,40,56,0.904,0.0,393,4.88,13.2,0.0,1,28.1,2.62,5.6,0,0,0,1,0,,,,,,,,,,,,,,,,,,,,
309684,1626793437689,,,249,252,238,232,,0.09,-0.0,1.83,0,-1,-2,0.09,,81,4714,7,40,57,0.904,0.0,389,4.86,13.2,0.0,1,29.0,2.66,5.6,0,0,0,1,0,,,,,,,,,,,,,,,,,,,,
309704,1626793437708,,,249,252,238,232,,0.12,-0.08,1.69,0,-0,-1,0.14,,81,4644,7,40,57,0.904,0.0,396,4.87,13.1,0.0,1,28.1,2.61,5.6,0,0,0,1,0,,,,,,,,,,,,,,,,,,,,
309724,1626793437728,,,249,252,238,232,,0.1,-0.08,1.56,0,1,1,0.13,,81,4688,8,40,56,0.904,0.0,392,4.86,13.0,0.0,1,28.8,1.59,5.6,0,0,0,1,0,,,,,,,,,,,,,,,,,,,,
309744,1626793437748,1,1,249,252,238,232,15,0.08,-0.06,1.49,0,2,2,0.1,0,81,4668,8,40,56,0.905,0.0,391,4.87,12.8,0.0,1,28.1,1.56,5.6,0,0,0,1,0,0,250,250,0,45.930386,5.258159,0.0,219.6,9,3,1.8,0,0.0,-1,0.0,,0.0,0,0.6,5.1624
309764,1626793437768,,,249,252,238,232,,0.06,-0.03,1.49,0,3,2,0.07,,81,4647,8,40,56,0.905,0.0,392,4.86,13.0,0.0,1,27.8,2.61,5.6,0,0,0,1,0,,,,,,,,,,,,,,,,,,,,
309784,1626793437788,,,249,252,238,232,,0.02,-0.0,1.68,0,2,2,0.03,,81,4668,7,40,56,0.904,0.0,387,4.88,13.1,0.0,1,28.1,2.63,5.6,0,0,0,1,0,,,,,,,,,,,,,,,,,,,,
309804,1626793437808,,,249,252,238,232,,0.01,0.02,1.86,0,1,0,0.03,,81,4614,8,40,56,0.903,0.0,394,4.88,13.1,0.0,1,27.4,2.59,5.6,0,0,0,1,0,,,,,,,,,,,,,,,,,,,,
309824,1626793437828,,,249,252,238,232,,0.01,0.06,2.02,0,-1,-1,0.06,,81,4650,7,40,56,0.901,0.0,389,4.9,13.1,0.0,1,27.9,2.61,5.6,0,0,0,1,0,,,,,,,,,,,,,,,,,,,,
309844,1626793437848,0,2,249,252,238,232,15,0.05,0.07,2.11,0,-3,-3,0.08,0,81,4635,7,40,56,0.9,0.0,389,4.92,13.2,0.0,1,27.7,2.6,5.5,0,0,0,1,0,0,250,250,0,45.930386,5.258159,0.0,219.6,9,3,1.8,0,0.0,-1,0.0,0.0,0.0,0,0.6,5.1641
309864,1626793437868,,,249,252,238,232,,0.08,0.05,1.95,0,-3,-3,0.09,,81,4658,7,40,57,0.899,0.0,388,4.89,13.2,0.0,1,28.3,2.62,5.5,0,0,0,1,0,,,,,,,,,,,,,,,,,,,,
309884,1626793437888,,,249,252,238,232,,0.1,-0.0,1.8,0,-2,-2,0.1,,81,4668,8,40,57,0.898,0.0,389,4.87,13.1,0.0,1,28.4,2.63,5.5,0,0,0,1,0,,,,,,,,,,,,,,,,,,,,
309904,1626793437908,,,249,252,238,232,,0.12,-0.04,1.66,0,-1,-2,0.12,,81,4602,8,40,56,0.896,0.0,388,4.88,13.1,0.0,1,27.3,2.59,5.5,0,0,0,1,0,,,,,,,,,,,,,,,,,,,,
309924,1626793437928,,,249,252,238,232,,0.11,-0.05,1.53,0,1,0,0.12,,81,4636,8,40,56,0.896,0.0,383,4.85,13.0,0.0,1,27.8,1.54,5.5,0,0,0,1,0,,,,,,,,,,,,,,,,,,,,
309944,1626793437948,-1,2,249,252,238,232,15,0.1,-0.06,1.41,0,2,2,0.12,0,81,4631,8,40,56,0.897,0.0,382,4.84,12.9,0.0,1,27.7,2.6,5.5,0,0,0,1,0,0,250,250,0,45.930386,5.258159,0.0,219.6,9,3,1.8,0,0.0,-1,0.0,,0.0,0,0.6,5.1657
309964,1626793437968,,,249,252,238,232,,0.08,-0.01,1.31,0,3,3,0.08,,81,4620,8,40,56,0.897,0.0,391,4.91,12.8,0.0,1,27.5,2.59,5.5,0,0,0,1,0,,,,,,,,,,,,,,,,,,,,
309984,1626793437988,,,249,252,238,232,,0.04,0.01,1.33,0,4,3,0.04,,81,4621,8,40,56,0.897,0.0,389,4.88,12.9,0.0,1,27.5,2.59,5.5,0,0,0,1,0,,,,,,,,,,,,,,,,,,,,
310004,1626793437996,,,249,252,238,232,,0.01,0.03,1.54,0,3,3,0.03,,81,4663,8,40,57,0.898,0.0,385,4.86,13.1,0.0,1,28.3,2.62,5.5,0,0,0,1,0,,,,,,,,,,,,,,,,,,,,
310024,1626793438016,,,249,252,238,232,,-0.01,0.06,1.73,0,2,2,0.06,,81,4606,8,40,56,0.898,0.0,393,4.89,13.2,0.0,1,27.3,2.59,5.5,0,0,0,1,0,,,,,,,,,,,,,,,,,,,,
310044,1626793438036,1,2,249,252,238,232,15,-0.0,0.08,1.9,0,-0,0,0.08,0,81,4634,8,40,56,0.898,0.0,385,4.85,13.1,0.0,1,27.7,2.6,5.5,0,0,0,1,0,0,250,250,0,45.930386,5.258159,0.0,219.6,9,3,1.8,0,0.0,-1,0.0,0.0,0.0,0,0.6,5.1674
310064,1626793438056,,,249,252,238,232,,0.04,0.08,2.01,0,-2,-1,0.09,,81,4651,7,40,57,0.898,0.0,392,4.91,13.2,0.0,1,28.2,2.62,5.5,0,0,0,1,0,,,,,,,,,,,,,,,,,,,,
310084,1626793438076,,,249,252,238,232,,0.07,0.06,2.02,0,-3,-2,0.09,,81,4611,7,40,57,0.899,0.0,391,4.89,13.2,0.0,1,27.7,2.59,5.5,0,0,0,1,0,,,,,,,,,,,,,,,,,,,,
310104,1626793438108,,,249,252,238,232,,0.1,0.02,1.87,0,-3,-2,0.1,,81,4625,8,40,57,0.899,0.0,388,4.9,13.2,0.0,1,27.9,2.61,5.5,0,0,0,1,0,,,,,,,,,,,,,,,,,,,,
310124,1626793438128,,,249,252,238,232,,0.12,-0.01,1.72,0,-3,-2,0.12,,81,4618,8,40,57,0.899,0.0,392,4.86,13.1,0.0,1,27.8,2.6,5.5,0,0,0,1,0,,,,,,,,,,,,,,,,,,,,
310144,1626793438148,0,2,249,252,238,232,15,0.13,-0.07,1.59,0,-1,-1,0.14,0,81,4575,8,40,57,0.899,0.0,385,4.88,13.1,0.0,1,27.2,2.58,5.5,0,0,0,1,0,0,250,250,0,45.930386,5.258159,0.0,219.6,9,3,1.8,0,0.0,-1,0.0,,0.0,0,0.6,5.1691
310164,1626793438168,,,249,252,238,232,,0.12,-0.08,1.47,0,0,0,0.14,,81,4615,8,40,57,0.899,0.0,384,4.86,13.0,0.0,1,27.7,1.51,5.4,0,0,0,1,0,,,,,,,,,,,,,,,,,,,,
310184,1626793438188,,,249,252,238,232,,0.11,-0.08,1.36,0,3,2,0.14,,81,4538,8,40,57,0.899,0.0,380,4.85,13.1,0.0,1,26.8,1.48,5.4,0,0,0,1,0,,,,,,,,,,,,,,,,,,,,
310204,1626793438210,,,249,252,238,232,,0.09,-0.07,1.25,0,4,3,0.12,,81,4637,8,40,57,0.898,0.0,379,4.91,12.9,0.0,1,28.0,1.54,5.4,0,0,0,1,0,,,,,,,,,,,,,,,,,,,,
310224,1626793438230,,,249,252,238,232,,0.08,-0.05,1.15,0,5,5,0.09,,81,4543,8,40,57,0.898,0.0,386,4.9,12.9,0.0,1,26.8,1.49,5.4,0,0,0,1,0,,,,,,,,,,,,,,,,,,,,
310244,1626793438250,0,2,249,252,238,232,15,0.05,-0.03,1.07,0,6,6,0.06,0,81,4586,8,40,57,0.897,0.0,380,4.89,12.9,0.0,1,27.4,1.51,5.4,0,0,0,1,0,0,250,250,0,45.930386,5.258159,0.0,219.6,9,3,1.8,0,0.0,-1,0.0,0.0,0.0,0,0.6,5.1707
310264,1626793438270,,,249,252,238,232,,0.02,-0.02,1.14,0,7,6,0.03,,81,4582,8,40,57,0.9,0.0,383,4.92,13.0,0.0,1,27.3,2.58,5.4,0,0,0,1,0,,,,,,,,,,,,,,,,,,,,
310284,1626793438290,,,249,252,238,232,,0.0,-0.01,1.22,0,7,6,0.01,,81,4542,8,40,57,0.901,0.0,382,4.85,13.0,0.0,1,26.8,2.56,5.4,0,0,0,1,0,,,,,,,,,,,,,,,,,,,,
310304,1626793438308,,,249,252,238,232,,-0.02,0.02,1.43,0,6,4,0.03,,81,4651,8,40,57,0.903,0.0,380,4.84,13.1,0.0,1,28.2,2.62,5.4,0,0,0,1,0,,,,,,,,,,,,,,,,,,,,
310324,1626793438328,,,249,252,238,232,,-0.03,0.03,1.63,0,4,3,0.04,,81,4584,7,40,57,0.904,0.0,392,4.88,13.1,0.0,1,27.4,2.58,5.4,0,0,0,1,0,,,,,,,,,,,,,,,,,,,,
310344,1626793438348,0,2,249,252,238,232,15,-0.02,0.07,1.81,0,2,2,0.07,0,81,4574,8,40,57,0.904,0.0,380,4.92,13.2,0.0,1,27.2,2.58,5.4,0,0,0,1,0,0,250,250,0,45.930386,5.258159,0.0,219.6,9,3,1.8,0,0.0,-1,0.0,,0.0,0,0.6,5.1724
310364,1626793438368,,,249,252,238,232,,-0.0,0.08,1.98,0,0,0,0.08,,81,4623,7,40,57,0.903,0.0,388,4.89,13.2,0.0,1,27.8,2.6,5.4,0,0,0,1,0,,,,,,,,,,,,,,,,,,,,
310384,1626793438388,,,249,252,238,232,,0.0,0.09,2.13,0,-2,-1,0.09,,81,4505,7,40,57,0.903,0.0,385,4.89,13.2,0.0,1,26.4,2.54,5.4,0,0,0,1,0,,,,,,,,,,,,,,,,,,,,
310404,1626793438408,,,249,252,238,232,,0.03,0.07,2.28,0,-5,-3,0.08,,81,4545,8,40,57,0.903,0.0,380,4.9,13.2,0.0,1,26.9,2.56,5.4,0,0,0,1,0,,,,,,,,,,,,,,,,,,,,
310424,1626793438428,,,249,252,238,232,,0.04,0.06,2.41,0,-6,-4,0.08,,81,4545,8,40,58,0.903,0.0,384,4.87,13.2,0.0,1,27.1,2.57,5.4,0,0,0,1,0,,,,,,,,,,,,,,,,,,,,
310444,1626793438448,0,1,249,252,238,232,15,0.07,0.08,2.53,0,-8,-6,0.11,0,81,4486,7,40,58,0.904,0.0,376,4.89,13.2,0.0,1,26.3,2.52,5.4,0,0,0,1,0,0,250,250,0,45.930386,5.258159,0.0,219.6,9,3,1.8,0,0.0,-1,0.0,0.0,0.0,0,0.6,5.1741
310464,1626793438468,,,249,252,238,232,,0.08,0.09,2.54,0,-8,-6,0.12,,81,4564,8,40,58,0.904,0.0,379,4.87,13.2,0.0,1,27.3,2.57,5.2,0,0,0,1,0,,,,,,,,,,,,,,,,,,,,
310484,1626793438488,,,249,252,238,232,,0.09,0.08,2.63,0,-9,-7,0.12,,81,4486,7,40,58,0.904,0.0,383,4.89,13.2,0.0,1,26.3,2.52,5.2,0,0,0,1,0,,,,,,,,,,,,,,,,,,,,
310504,1626793438508,,,249,252,238,232,,0.11,0.07,2.73,0,-10,-8,0.13,,81,4485,8,40,58,0.904,0.0,375,4.88,13.2,0.0,1,26.3,2.53,5.2,0,0,0,1,0,,,,,,,,,,,,,,,,,,,,
310524,1626793438528,,,249,252,238,232,,0.12,0.07,2.78,-0,-10,-9,0.14,,81,4524,7,40,58,0.904,0.0,382,4.9,13.2,0.0,1,26.8,2.56,5.2,0,0,0,1,0,,,,,,,,,,,,,,,,,,,,
310544,1626793438548,-1,2,249,252,238,232,15,0.12,0.08,2.85,-0,-11,-9,0.14,0,81,4446,7,40,58,0.904,0.0,371,4.9,13.2,0.0,1,25.8,2.52,5.2,0,0,0,1,0,0,250,250,0,45.930386,5.258159,0.0,219.6,9,3,1.8,0,0.0,-1,0.0,,0.0,0,0.6,5.1757
310564,1626793438568,,,249,252,238,232,,0.13,0.08,2.88,-0,-11,-10,0.15,,81,4550,8,40,58,0.905,0.0,376,4.89,13.2,0.0,1,27.2,2.57,5.1,0,0,0,1,0,,,,,,,,,,,,,,,,,,,,
310584,1626793438588,,,249,252,238,232,,0.13,0.06,2.96,-0,-12,-11,0.15,,81,4445,7,40,58,0.905,0.0,371,4.89,13.2,0.0,1,25.8,2.52,5.1,0,0,0,1,0,,,,,,,,,,,,,,,,,,,,
310604,1626793438608,,,249,252,238,232,,0.13,0.08,3.04,-0,-12,-11,0.15,,81,4464,8,40,58,0.907,0.0,373,4.86,13.1,0.0,1,26.1,2.53,5.1,0,0,0,1,0,,,,,,,,,,,,,,,,,,,,
310624,1626793438628,,,249,252,238,232,,0.11,0.07,3.09,-0,-12,-11,0.13,,81,4464,8,40,58,0.909,0.0,376,4.9,13.2,0.0,1,26.1,2.53,5.1,0,0,0,1,0,,,,,,,,,,,,,,,,,,,,
310644,1626793438648,1,1,249,252,238,232,15,0.1,0.06,3.16,-0,-13,-12,0.11,0,81,4364,8,40,58,0.91,0.0,369,4.87,13.1,0.0,1,24.8,2.48,5.1,0,0,0,1,0,0,250,250,0,45.930386,5.258159,0.0,219.6,9,3,1.8,0,0.0,-1,0.0,0.0,0.0,0,0.6,5.1774
310664,1626793438668,,,249,252,238,232,,0.07,0.08,3.22,-0,-13,-11,0.11,,81,4470,8,40,58,0.91,0.0,369,4.9,13.1,0.0,1,26.1,2.53,5.0,0,0,0,1,0,,,,,,,,,,,,,,,,,,,,
310684,1626793438688,,,249,252,238,232,,0.06,0.09,3.15,-0,-12,-10,0.11,,81,4385,8,40,58,0.91,0.0,369,4.88,13.1,0.0,1,25.1,2.48,5.0,0,0,0,1,0,,,,,,,,,,,,,,,,,,,,
310704,1626793438709,,,249,252,238,232,,0.06,0.12,3.16,0,-12,-9,0.13,,81,4384,8,40,58,0.91,0.0,364,4.85,12.9,0.0,1,25.1,2.48,5.0,0,0,0,1,0,,,,,,,,,,,,,,,,,,,,
310724,1626793438729,,,249,252,238,232,,0.05,0.14,3.01,0,-11,-8,0.15,,81,4479,8,40,58,0.91,0.0,365,4.83,12.9,0.0,1,26.2,2.53,5.0,0,0,0,1,0,,,,,,,,,,,,,,,,,,,,
310744,1626793438749,-1,2,249,252,238,232,15,0.06,0.13,2.78,0,-10,-6,0.14,0,81,4365,8,40,58,0.911,0.0,365,4.86,13.0,0.0,1,24.8,2.48,5.0,0,0,0,1,0,0,250,250,0,45.930386,5.258159,0.0,219.6,9,3,1.8,0,0.0,-1,0.0,,0.0,0,0.6,5.1791
310764,1626793438769,,,249,252,238,232,,0.07,0.08,2.6,0,-9,-5,0.11,,81,4429,8,40,59,0.912,0.0,366,4.9,12.8,0.0,1,25.9,1.45,5.0,0,0,0,1,0,,,,,,,,,,,,,,,,,,,,
310784,1626793438789,,,249,252,238,232,,0.09,0.04,2.4,0,-7,-4,0.1,,81,4402,8,40,59,0.914,0.0,365,4.92,12.9,0.0,1,25.5,1.43,5.0,0,0,0,1,0,,,,,,,,,,,,,,,,,,,,
310804,1626793438809,,,249,252,238,232,,0.11,-0.0,2.21,0,-6,-4,0.11,,81,4339,8,40,59,0.915,0.0,366,4.91,13.1,0.0,1,24.7,2.48,5.0,0,0,0,1,0,,,,,,,,,,,,,,,,,,,,
310824,1626793438829,,,249,252,238,232,,0.14,-0.0,2.07,0,-5,-4,0.14,,81,4390,8,40,59,0.916,0.0,362,4.87,13.2,0.0,1,25.4,2.5,5.0,0,0,0,1,0,,,,,,,,,,,,,,,,,,,,
310844,1626793438849,-1,2,249,252,238,232,15,0.14,0.04,1.95,0,-5,-3,0.15,0,81,4317,8,40,59,0.917,0.0,360,4.88,13.2,0.0,1,24.4,2.48,4.9,0,0,0,1,0,0,250,250,0,45.930386,5.258159,0.0,219.6,9,3,1.8,0,0.0,-1,0.0,0.0,0.0,0,0.6,5.1807
310864,1626793438869,,,249,252,238,232,,0.14,0.07,1.95,0,-5,-3,0.15,,81,4257,8,40,59,0.918,0.0,358,4.86,13.2,0.0,1,23.7,2.45,4.9,0,0,0,1,0,,,,,,,,,,,,,,,,,,,,
310884,1626793438889,,,249,252,238,232,,0.12,0.07,1.94,0,-4,-3,0.14,,81,4252,8,40,59,0.919,0.0,355,4.9,13.2,0.0,1,23.6,2.45,4.9,0,0,0,1,0,,,,,,,,,,,,,,,,,,,,
310904,1626793438909,,,249,252,238,232,,0.12,0.06,1.8,0,-4,-2,0.13,,81,4124,8,40,59,0.921,0.0,353,4.84,12.9,0.0,1,22.0,2.39,4.9,0,0,0,1,0,,,,,,,,,,,,,,,,,,,,
310924,1626793438929,,,249,252,238,232,,0.15,0.04,1.75,1,-4,-3,0.16,,81,4079,8,40,59,0.922,0.0,342,4.92,13.1,0.0,1,21.4,1.28,4.9,0,0,0,1,0,,,,,,,,,,,,,,,,,,,,
310944,1626793438949,-1,2,249,252,238,232,15,0.15,0.07,1.76,0,-4,-2,0.16,0,81,4092,8,40,60,0.924,0.0,345,4.93,13.2,0.0,1,21.8,2.4,4.5,0,0,0,1,0,7,250,250,0,45.930386,5.258159,0.0,219.6,9,3,1.8,0,0.0,-1,0.0,,0.0,0,0.6,5.1824
310964,1626793438969,,,249,251,238,232,,0.16,0.06,1.64,1,-4,-2,0.17,,81,3839,8,40,60,0.926,0.0,336,4.84,13.1,0.0,1,0.0,2.41,4.5,0,0,0,1,0,,,,,,,,,,,,,,,,,,,,
310984,1626793438989,,,249,252,238,232,,0.16,0.05,1.66,1,-3,-2,0.17,,81,3678,8,40,61,0.928,0.0,327,4.89,13.2,0.0,1,0.0,2.48,4.5,0,0,0,1,0,,,,,,,,,,,,,,,,,,,,
311004,1626793438999,,,249,252,238,232,,0.16,0.07,1.59,1,-4,-2,0.18,,81,3525,8,40,62,0.928,1.2,310,4.9,13.1,0.0,1,0.0,2.53,4.5,0,0,0,1,0,,,,,,,,,,,,,,,,,,,,
311024,1626793439019,,,249,252,238,232,,0.16,0.06,1.56,1,-2,-2,0.18,,81,3164,8,40,63,0.927,1.2,296,4.83,12.9,0.0,1,0.0,2.55,4.5,0,0,0,1,0,,,,,,,,,,,,,,,,,,,,
311044,1626793439039,0,2,249,252,238,232,13,0.17,0.06,1.55,1,-1,-2,0.18,0,81,2919,8,40,64,0.925,1.2,280,4.83,13.0,0.0,1,0.0,2.57,4.5,0,0,0,1,0,7,-1,-1,10,45.930386,5.258159,0.0,219.6,9,3,1.8,0,0.0,-1,0.0,0.0,0.0,0,0.6,5.1841
311064,1626793439059,,,249,252,238,232,,0.17,0.07,1.51,1,1,-2,0.18,,81,2778,8,40,66,0.925,1.2,262,4.88,13.1,0.0,1,-0.4,2.61,3.4,0,0,0,1,0,,,,,,,,,,,,,,,,,,,,
311084,1626793439079,,,249,252,238,232,,0.19,0.06,1.49,1,-0,-2,0.2,,81,2493,9,40,68,0.923,1.2,254,4.88,13.2,0.0,1,-0.4,2.65,3.4,0,0,0,1,0,,,,,,,,,,,,,,,,,,,,
311104,1626793439109,,,249,252,238,232,,0.17,0.07,1.45,1,-1,-2,0.19,,81,2251,10,40,70,0.921,1.9,237,4.85,12.9,0.0,1,-0.4,2.68,3.4,0,0,0,1,0,,,,,,,,,,,,,,,,,,,,
311124,1626793439129,,,249,252,238,232,,0.17,0.05,1.41,1,-1,-2,0.17,,81,2154,11,40,73,0.919,2.1,225,4.89,13.2,0.0,1,-0.4,2.75,3.4,0,0,0,1,0,,,,,,,,,,,,,,,,,,,,
311144,1626793439149,-1,2,249,252,238,232,13,0.18,0.05,1.38,1,-0,-1,0.18,0,81,2024,13,40,76,0.917,2.1,217,4.91,13.1,0.0,1,14.0,2.83,2.6,0,0,0,1,0,17,-1,-1,19,45.930386,5.258159,0.0,219.6,9,3,1.8,0,0.0,-1,0.0,,0.0,0,0.6,5.1857
311164,1626793439169,,,249,252,238,232,,0.18,0.05,1.34,1,-0,-1,0.18,,81,1840,17,40,80,0.914,2.1,208,4.92,13.1,0.0,1,13.5,2.91,2.6,0,0,0,1,0,,,,,,,,,,,,,,,,,,,,
311184,1626793439189,,,249,252,238,232,,0.17,0.05,1.32,1,-0,-1,0.18,,81,1632,21,40,85,0.912,2.1,194,4.91,13.1,0.0,1,15.8,4.89,2.6,0,0,0,1,0,,,,,,,,,,,,,,,,,,,,
311204,1626793439209,,,249,252,238,232,,0.17,0.05,1.29,1,-0,-1,0.18,,81,1396,26,40,91,0.908,2.6,183,4.91,13.1,0.0,1,23.4,5.11,2.6,0,0,0,1,0,,,,,,,,,,,,,,,,,,,,
311224,1626793439229,,,249,252,238,232,,0.16,0.05,1.26,1,-0,-1,0.17,,81,1168,30,40,95,0.905,2.6,175,4.9,13.0,0.0,1,27.1,5.11,2.6,0,0,0,1,0,,,,,,,,,,,,,,,,,,,,
311244,1626793439249,0,1,249,252,238,232,10,0.16,0.05,1.23,1,-0,-1,0.17,0,81,1168,33,40,97,0.902,2.6,164,4.9,12.7,0.0,1,29.9,2.09,2.6,0,0,0,1,0,27,5442,5442,25,45.930386,5.258159,2.06,218.8,9,3,1.8,0,0.0,-1,0.0,0.0,0.0,0,0.6,5.1874
311264,1626793439269,,,249,252,238,232,,0.16,0.05,1.2,1,-0,-1,0.17,,81,948,36,40,98,0.901,2.6,160,4.89,13.0,108.0,1,30.0,5.11,2.7,0,0,0,1,0,,,,,,,,,,,,,,,,,,,,
311284,1626793439289,,,249,252,238,232,,0.15,0.05,1.2,1,-0,-1,0.16,,81,776,37,40,97,0.9,2.8,150,4.84,12.7,108.0,1,28.6,2.09,2.7,0,0,0,1,0,,,,,,,,,,,,,,,,,,,,
311304,1626793439309,,,249,252,238,232,,0.15,0.04,1.2,1,0,-1,0.16,,81,776,38,40,98,0.9,2.8,151,4.91,12.9,108.0,1,30.0,2.09,2.7,0,0,0,1,0,,,,,,,,,,,,,,,,,,,,
311324,1626793439329,,,249,252,238,232,,0.15,0.04,1.18,1,0,-1,0.16,,81,776,38,40,97,0.899,2.8,142,4.9,12.9,108.0,1,28.6,5.11,2.7,0,0,0,1,0,,,,,,,,,,,,,,,,,,,,
311344,1626793439349,0,1,249,252,238,232,10,0.14,0.02,1.2,1,-0,-1,0.14,0,81,695,38,40,98,0.899,2.8,142,4.91,13.0,108.0,1,30.0,2.09,2.7,0,0,0,1,0,30,-1,-1,27,45.930386,5.258159,2.41,218.7,9,3,1.8,0,0.0,-1,0.0,,0.0,0,0.6,5.1891
311364,1626793439369,,,249,252,238,232,,0.14,0.02,1.18,1,-0,-1,0.14,,81,695,38,40,98,0.899,3.0,135,4.9,12.9,59.2,1,30.0,2.09,1.6,0,0,0,1,0,,,,,,,,,,,,,,,,,,,,
311384,1626793439389,,,249,252,238,232,,0.12,0.01,1.12,1,-0,-1,0.12,,81,544,38,40,97,0.9,3.0,131,4.83,12.9,59.2,1,28.6,5.09,1.6,0,0,0,1,0,,,,,,,,,,,,,,,,,,,,
311404,1626793439409,,,249,252,238,232,,0.13,0.01,1.15,1,-1,-1,0.13,,81,544,38,40,98,0.901,3.0,136,4.91,13.0,59.2,1,30.0,2.09,1.6,0,0,0,1,0,,,,,,,,,,,,,,,,,,,,
311424,1626793439429,,,249,252,238,232,,0.12,0.01,1.14,1,0,-1,0.12,,81,544,38,40,98,0.904,3.1,126,4.89,13.0,59.2,1,30.0,2.09,1.6,0,0,0,1,0,,,,,,,,,,,,,,,,,,,,
311444,1626793439449,-1,2,249,252,238,232,9,0.11,0.0,1.13,1,-0,-1,0.11,0,81,544,38,40,98,0.906,3.1,123,4.9,12.9,40.0,1,30.0,5.09,1.2,0,0,0,1,0,31,-1,-1,30,45.930386,5.25816,2.79,218.7,9,3,1.8,0,0.0,-1,0.0,0.0,0.0,0,0.6,5.1907
311464,1626793439469,,,249,252,238,232,,0.08,0.01,1.05,1,0,-0,0.08,,81,544,38,40,98,0.909,3.1,123,4.91,12.9,40.0,1,30.0,5.09,1.2,0,0,0,1,0,,,,,,,,,,,,,,,,,,,,
311484,1626793439489,,,249,252,238,232,,0.07,0.01,1.03,1,0,-0,0.07,,81,544,38,40,98,0.911,3.1,120,4.88,12.8,40.0,1,30.0,5.09,1.2,0,0,0,1,0,,,,,,,,,,,,,,,,,,,,
311504,1626793439509,,,248,252,238,232,,0.07,0.01,1.0,1,1,0,0.07,,81,544,38,41,97,0.911,3.0,112,4.85,12.6,40.0,1,28.6,5.09,1.2,0,0,0,1,0,,,,,,,,,,,,,,,,,,,,
311524,1626793439529,,,249,252,238,232,,0.05,0.01,1.02,1,0,-0,0.05,,81,544,38,41,97,0.909,3.0,112,4.85,12.6,40.0,1,28.6,5.09,1.2,0,0,0,1,0,,,,,,,,,,,,,,,,,,,,
311544,1626793439549,-1,2,249,252,238,232,7,0.04,0.01,1.03,1,0,-0,0.04,0,81,544,38,41,97,0.909,3.0,112,4.84,12.6,41.3,1,28.6,5.09,1.2,0,0,0,1,0,28,-1,-1,29,45.930386,5.258161,2.86,218.7,9,3,1.8,0,0.0,-1,0.0,,0.0,0,0.6,5.1924
311564,1626793439569,,,249,252,238,232,,0.03,0.01,1.04,1,0,-0,0.04,,81,544,39,41,97,0.907,3.0,112,4.85,12.6,41.3,1,28.6,5.09,1.2,0,0,0,1,0,,,,,,,,,,,,,,,,,,,,
311584,1626793439589,,,249,252,238,232,,0.03,0.01,1.05,1,0,-0,0.03,,81,544,44,41,97,0.906,2.9,112,4.85,12.6,41.3,1,28.6,5.09,1.2,0,0,0,1,0,,,,,,,,,,,,,,,,,,,,
311604,1626793439609,,,249,252,238,232,,0.02,0.01,1.05,1,0,-0,0.02,,81,544,45,41,97,0.904,2.7,112,4.84,12.5,41.3,1,28.6,5.09,1.2,0,0,0,1,0,,,,,,,,,,,,,,,,,,,,
311624,1626793439629,,,249,252,238,232,,0.01,0.01,1.05,1,0,-0,0.02,,81,544,46,41,97,0.902,2.7,112,4.85,12.5,41.3,1,28.6,2.09,1.2,0,0,0,1,0,,,,,,,,,,,,,,,,,,,,
311644,1626793439649,0,2,248,252,238,232,4,0.01,0.01,1.04,1,0,-0,0.01,0,81,544,46,41,97,0.901,2.7,112,4.85,12.5,46.1,1,28.6,5.09,1.2,0,0,0,1,0,25,-235,16899,26,45.930386,5.258162,2.82,218.7,9,3,1.8,0,0.0,-1,0.0,0.0,0.0,0,0.6,5.1941
311664,1626793439669,,,248,252,238,232,,0.0,0.01,1.04,1,0,-0,0.01,,81,544,46,41,97,0.899,2.7,112,4.85,12.6,46.1,1,28.6,1.98,1.2,0,0,0,1,0,,,,,,,,,,,,,,,,,,,,
311684,1626793439689,,,248,252,238,232,,0.0,0.01,1.03,1,0,-0,0.01,,81,544,46,41,97,0.896,2.6,112,4.84,12.6,46.1,1,28.6,5.09,1.2,0,0,0,1,0,,,,,,,,,,,,,,,,,,,,
311704,1626793439710,,,248,252,238,232,,-0.0,0.01,1.03,1,0,-0,0.01,,81,544,46,41,97,0.893,2.3,112,4.85,12.6,46.1,1,28.6,5.09,1.2,0,0,0,1,0,,,,,,,,,,,,,,,,,,,,
311724,1626793439730,,,249,252,238,232,,-0.01,0.01,1.03,1,0,-0,0.01,,81,544,42,41,97,0.89,2.3,112,4.85,12.6,46.1,1,28.6,2.09,1.2,0,0,0,1,0,,,,,,,,,,,,,,,,,,,,
311744,1626793439750,0,0,249,252,238,232,4,-0.01,0.01,1.03,1,0,-0,0.02,0,81,0,35,41,98,0.516,0.0,116,4.87,12.9,0.0,1,0.0,0.0,0.0,0,0,0,1,0,0,250,250,0,45.930386,5.258162,2.22,218.7,9,2,1.8,0,0.0,-1,0.0,,0.0,0,0.6,5.1957
311764,1626793439770,,,248,252,238,232,,-0.02,0.01,1.02,1,0,-0,0.02,,81,0,26,41,103,0.552,0.0,117,4.88,12.9,0.0,1,0.0,0.0,0.0,0,0,0,1,0,,,,,,,,,,,,,,,,,,,,
311784,1626793439790,,,249,252,238,232,,-0.04,0.01,1.02,1,0,-0,0.04,,81,0,21,41,110,0.587,0.0,117,4.91,12.9,0.0,1,0.0,0.0,0.0,0,0,0,1,0,,,,,,,,,,,,,,,,,,,,
311804,1626793439808,,,248,252,238,232,,-0.04,0.01,1.02,1,1,-0,0.04,,81,0,19,41,103,0.622,0.0,118,4.88,12.9,0.0,1,0.0,0.0,0.0,0,0,0,1,0,,,,,,,,,,,,,,,,,,,,
311824,1626793439828,,,248,252,238,232,,-0.06,0.01,1.01,1,0,-0,0.06,,81,0,19,41,98,0.656,0.0,118,4.89,12.9,0.0,1,0.0,0.0,0.0,0,0,0,1,0,,,,,,,,,,,,,,,,,,,,
311844,1626793439848,0,1,248,251,239,233,2,-0.08,0.01,1.01,1,0,0,0.08,0,81,0,19,41,98,0.69,0.0,118,4.88,12.9,0.0,1,0.0,0.0,0.0,0,0,0,1,0,0,250,250,0,45.930389,5.258163,1.89,218.7,9,3,1.8,0,0.0,-1,0.0,0.0,0.0,0,0.6,5.1974
311864,1626793439868,,,248,250,238,233,,-0.09,0.01,1.01,1,0,-0,0.09,,81,0,19,41,98,0.725,0.0,118,4.9,12.9,0.0,1,0.0,0.0,0.0,0,0,0,1,0,,,,,,,,,,,,,,,,,,,,
