"Interval"|"ms"|0|0|1,"Utc"|"ms"|0|0|1,"Brake_F"|"Bar"|0|2000|10,"Brake_R"|"Bar"|0|2000|10,"Height_RF"|"mm"|0|255|50,"Height_LF"|"mm"|0|255|50,"Height_LR"|"mm"|0|80|50,"Height_RR"|"mm"|0|255|50,"Steering"|"deg"|-100|100|10,"AccelX"|"G"|-3.0|3.0|50,"AccelY"|"G"|-3.0|3.0|50,"AccelZ"|"G"|-3.0|3.0|50,"Yaw"|"Deg/Sec"|-120|120|50,"Pitch"|"Deg/Sec"|-120|120|50,"Roll"|"Deg/Sec"|-120|120|50,"Gsum"|"G"|0.0|3.0|50,"Log_Button"|""|0.0|10.0|10,"WaterTemp"|"C"|0|150|50,"RPM"|"tr/min"|0|14000|50,"TPS"|"%"|0|100|50,"AirTemp"|"C"|0|150|50,"MAP"|"KPa"|0|100|50,"Lambda"|""|0.5|1.5|50,"SpeedDTA"|"kph"|0.0|250.0|50,"OilPress"|"KPa"|0|1500|50,"FuelPressur"|"Bar"|0.0|10.0|50,"Batterie"|"V"|0.0|20.0|50,"ConsoKm"|"L/100km"|0.0|200.0|50,"Gear"|""|0|6|50,"AdvIgnition"|"Deg"|-20.0|70.0|50,"Injection"|"ms"|0.0|10.0|50,"ConsoHr"|"L/Hr"|0.0|10000.0|50,"LC_But_Pres"|""|0|1|50,"LC_Active"|""|0|1|50,"TractionOn"|""|0|1|50,"TractionWet"|""|0|1|50,"FanOn"|""|0|1|50,"RD_Speed"|"km/h"|-30|250|10,"RUD_Speed"|"km/h"|-30|250|10,"LD_Speed"|"km/h"|-30|250|10,"LUD_Speed"|"km/h"|-30|250|10,"Latitude"|"Degrees"|-180.0|180.0|10,"Longitude"|"Degrees"|-180.0|180.0|10,"Speed"|"kph"|0.0|150.0|10,"Altitude"|"m"|0.0|4000.0|10,"GPSSats"|""|0|20|10,"GPSQual"|""|0|5|10,"GPSDOP"|""|0.0|20.0|10,"LapCount"|""|0|0|10,"LapTime"|"Min"|0.0|0.0|10,"Sector"|""|0|0|10,"SectorTime"|"Min"|0.0|0.0|10,"PredTime"|"Min"|0.0|0.0|5,"ElapsedTime"|"Min"|0.0|0.0|10,"CurrentLap"|""|0|0|10,"Distance"|"km"|0.0|0.0|10,"SessionTime"|"Min"|0.0|0.0|10
89064,1626794293813,,,249,252,239,234,,0.32,-0.25,1.06,0,-2,-5,0.41,,77,4543,7,39,58,0.884,0.0,404,4.84,13.2,0.0,1,27.1,2.58,5.2,0,0,0,1,0,,,,,,,,,,,,,,,,,,,,
89084,1626794293833,,,249,251,239,234,,0.35,-0.33,0.97,0,-1,-5,0.48,,77,4521,7,39,58,0.884,0.0,403,4.83,13.3,0.0,1,26.8,2.57,5.2,0,0,0,1,0,,,,,,,,,,,,,,,,,,,,
89104,1626794293853,,,249,253,238,235,,0.36,-0.36,0.9,0,-1,-4,0.51,,77,4541,7,39,57,0.885,0.0,405,4.83,13.2,0.0,1,26.8,2.58,5.2,0,0,0,1,0,,,,,,,,,,,,,,,,,,,,
89124,1626794293873,,,249,253,239,235,,0.38,-0.4,0.83,0,0,-4,0.55,,77,4533,7,39,57,0.886,0.0,407,4.85,13.2,0.0,1,26.7,2.57,5.2,0,0,0,1,0,,,,,,,,,,,,,,,,,,,,
89144,1626794293893,4,1,249,252,239,235,-4,0.38,-0.44,0.77,0,1,-4,0.58,1,77,4541,7,39,58,0.887,0.0,404,4.86,13.3,0.0,1,27.0,2.58,5.4,0,0,0,1,0,0,250,250,0,45.930679,5.258157,0.0,230.7,8,2,2.2,0,0.0,-1,0.0,,0.0,0,0.16,1.4857
89164,1626794293913,,,249,252,238,234,,0.38,-0.47,0.71,0,2,-3,0.6,,77,4555,7,39,58,0.888,0.0,407,4.81,13.3,0.0,1,27.2,2.58,5.4,0,0,0,1,0,,,,,,,,,,,,,,,,,,,,
89184,1626794293933,,,249,252,239,234,,0.36,-0.45,0.65,0,3,-1,0.58,,77,4544,7,39,58,0.887,0.0,408,4.85,13.3,0.0,1,27.1,2.59,5.4,0,0,0,1,0,,,,,,,,,,,,,,,,,,,,
89204,1626794293953,,,249,252,239,235,,0.34,-0.39,0.6,0,5,0,0.52,,77,4575,7,39,58,0.887,0.0,406,4.85,13.3,0.0,1,27.5,2.59,5.4,0,0,0,1,0,,,,,,,,,,,,,,,,,,,,
89224,1626794293973,,,249,252,239,235,,0.32,-0.34,0.55,0,5,1,0.47,,77,4530,7,39,58,0.887,0.0,415,4.86,13.3,0.0,1,26.9,2.58,5.4,0,0,0,1,0,,,,,,,,,,,,,,,,,,,,
89244,1626794293993,3,2,249,252,239,235,-3,0.3,-0.29,0.51,0,6,3,0.42,1,77,4524,7,40,58,0.886,0.0,406,4.86,13.3,0.0,1,26.8,2.56,5.4,0,0,0,1,0,0,250,250,0,45.930679,5.258157,0.0,230.7,8,2,2.2,0,0.0,-1,0.0,0.0,0.0,0,0.16,1.4874
89264,1626794294005,,,249,252,239,235,,0.27,-0.24,0.47,0,7,5,0.36,,77,4547,7,39,58,0.886,0.0,411,4.86,13.3,0.0,1,27.1,2.59,5.4,0,0,0,1,0,,,,,,,,,,,,,,,,,,,,
89284,1626794294025,,,249,253,239,234,,0.24,-0.2,0.44,1,8,7,0.31,,77,4509,7,39,58,0.885,0.0,405,4.87,13.3,0.0,1,26.6,2.57,5.4,0,0,0,1,0,,,,,,,,,,,,,,,,,,,,
89304,1626794294045,,,249,252,239,235,,0.22,-0.15,0.4,1,8,8,0.26,,77,4544,7,39,58,0.885,0.0,405,4.84,13.3,0.0,1,27.1,2.59,5.4,0,0,0,1,0,,,,,,,,,,,,,,,,,,,,
89324,1626794294065,,,249,252,239,234,,0.19,-0.08,0.52,1,8,10,0.2,,77,4545,7,39,58,0.885,0.0,406,4.83,13.3,0.0,1,27.1,2.59,5.4,0,0,0,1,0,,,,,,,,,,,,,,,,,,,,
89344,1626794294093,4,2,249,253,239,235,-3,0.14,-0.04,0.65,1,9,11,0.15,1,77,4543,7,39,58,0.886,0.0,403,4.85,13.3,0.0,1,27.1,2.59,5.4,0,0,0,1,0,0,250,250,0,45.930679,5.258157,0.0,230.7,8,2,2.6,0,0.0,-1,0.0,,0.0,0,0.16,1.4891
89364,1626794294113,,,249,252,239,234,,0.1,-0.04,0.81,1,9,12,0.11,,77,4536,7,39,58,0.886,0.0,406,4.85,13.2,0.0,1,27.0,2.58,5.4,0,0,0,1,0,,,,,,,,,,,,,,,,,,,,
89384,1626794294133,,,249,252,239,234,,0.06,-0.05,1.04,1,9,12,0.08,,77,4546,7,39,58,0.887,0.0,408,4.86,13.3,0.0,1,27.1,2.59,5.4,0,0,0,1,0,,,,,,,,,,,,,,,,,,,,
89404,1626794294153,,,249,253,239,235,,0.02,-0.04,1.27,1,8,11,0.04,,77,4519,7,39,58,0.887,0.0,402,4.86,13.2,0.0,1,26.7,1.49,5.4,0,0,0,1,0,,,,,,,,,,,,,,,,,,,,
89424,1626794294173,,,249,252,239,234,,-0.03,-0.04,1.48,1,8,11,0.04,,77,4568,7,39,58,0.888,0.0,407,4.85,13.2,0.0,1,27.4,1.51,5.4,0,0,0,1,0,,,,,,,,,,,,,,,,,,,,
89444,1626794294192,4,2,249,252,239,235,-3,-0.07,-0.06,1.67,1,7,9,0.09,0,77,4562,7,39,58,0.888,0.0,402,4.83,13.3,0.0,1,27.3,2.59,5.4,0,0,0,1,0,0,250,250,0,45.930679,5.258157,0.0,230.7,8,2,2.6,0,0.0,-1,0.0,0.0,0.0,0,0.16,1.4907
89464,1626794294212,,,249,253,239,235,,-0.11,-0.08,1.85,1,6,8,0.13,,77,4563,7,39,58,0.888,0.0,407,4.84,13.1,0.0,1,27.3,2.59,5.4,0,0,0,1,0,,,,,,,,,,,,,,,,,,,,
89484,1626794294232,,,249,252,239,235,,-0.14,-0.08,2.02,0,5,6,0.16,,77,4568,7,39,58,0.889,0.0,407,4.87,13.1,0.0,1,27.4,1.51,5.4,0,0,0,1,0,,,,,,,,,,,,,,,,,,,,
89504,1626794294252,,,249,253,239,235,,-0.14,-0.07,2.17,0,3,4,0.16,,77,4562,7,39,58,0.89,0.0,406,4.85,13.1,0.0,1,27.4,2.59,5.4,0,0,0,1,0,,,,,,,,,,,,,,,,,,,,
89524,1626794294272,,,249,253,239,234,,-0.14,-0.02,2.31,0,1,2,0.14,,77,4583,7,39,58,0.891,0.0,411,4.86,13.1,0.0,1,27.6,2.59,5.4,0,0,0,1,0,,,,,,,,,,,,,,,,,,,,
89544,1626794294292,4,2,249,252,239,234,-3,-0.12,0.04,2.44,0,-0,0,0.12,0,77,4587,7,39,58,0.892,0.0,407,4.88,13.0,0.0,1,27.6,2.6,5.5,0,0,0,1,0,0,250,250,0,45.930679,5.258157,0.0,230.7,8,2,2.6,0,0.0,-1,0.0,,0.0,0,0.16,1.4924
89564,1626794294312,,,249,251,238,235,,-0.09,0.1,2.36,0,-1,-0,0.14,,77,4600,7,39,58,0.892,0.0,410,4.88,13.0,0.0,1,27.8,2.61,5.5,0,0,0,1,0,,,,,,,,,,,,,,,,,,,,
89584,1626794294332,,,249,252,239,234,,-0.04,0.11,2.18,0,-2,-1,0.11,,77,4584,7,39,58,0.892,0.0,408,4.85,13.2,0.0,1,27.6,2.6,5.5,0,0,0,1,0,,,,,,,,,,,,,,,,,,,,
89604,1626794294352,,,249,252,239,234,,0.02,0.06,2.01,0,-2,-2,0.07,,77,4585,7,40,57,0.892,0.0,411,4.86,13.2,0.0,1,27.4,2.59,5.5,0,0,0,1,0,,,,,,,,,,,,,,,,,,,,
89624,1626794294372,,,249,253,238,235,,0.07,0.02,1.85,0,-2,-2,0.07,,77,4572,7,39,58,0.892,0.0,415,4.87,13.3,0.0,1,27.4,2.59,5.5,0,0,0,1,0,,,,,,,,,,,,,,,,,,,,
89644,1626794294392,4,0,249,252,238,235,-3,0.11,-0.05,1.71,0,-2,-2,0.12,0,77,4605,7,39,58,0.892,0.0,413,4.86,13.3,0.0,1,27.9,2.6,5.5,0,0,0,1,0,0,250,250,0,45.930679,5.258157,0.0,230.7,8,2,2.6,0,0.0,-1,0.0,0.0,0.0,0,0.16,1.4941
89664,1626794294412,,,249,252,239,235,,0.14,-0.12,1.58,0,-1,-1,0.18,,77,4580,7,39,58,0.891,0.0,411,4.88,13.3,0.0,1,27.5,2.59,5.5,0,0,0,1,0,,,,,,,,,,,,,,,,,,,,
89684,1626794294432,,,249,253,239,234,,0.14,-0.14,1.46,0,1,-0,0.2,,77,4585,7,39,58,0.891,0.0,413,4.85,13.2,0.0,1,27.6,2.59,5.5,0,0,0,1,0,,,,,,,,,,,,,,,,,,,,
89704,1626794294452,,,249,252,239,235,,0.13,-0.12,1.35,0,2,1,0.18,,77,4559,7,39,58,0.891,0.0,409,4.86,13.3,0.0,1,27.3,2.59,5.5,0,0,0,1,0,,,,,,,,,,,,,,,,,,,,
89724,1626794294472,,,249,252,238,235,,0.12,-0.1,1.24,0,3,3,0.16,,77,4582,7,39,58,0.89,0.0,413,4.87,13.3,0.0,1,27.6,2.59,5.5,0,0,0,1,0,,,,,,,,,,,,,,,,,,,,
89744,1626794294492,4,2,249,252,239,235,-3,0.1,-0.06,1.15,0,4,5,0.12,0,77,4573,7,39,58,0.889,0.0,406,4.87,13.3,0.0,1,27.5,2.59,5.4,0,0,0,1,0,0,250,250,0,45.930679,5.258157,0.0,230.7,8,2,2.6,0,0.0,-1,0.0,,0.0,0,0.16,1.4957
89764,1626794294512,,,249,252,239,235,,0.07,-0.04,1.24,0,5,6,0.07,,77,4601,7,39,58,0.888,0.0,412,4.83,13.2,0.0,1,27.8,2.61,5.4,0,0,0,1,0,,,,,,,,,,,,,,,,,,,,
89784,1626794294532,,,249,253,238,234,,0.02,-0.03,1.36,1,5,7,0.04,,77,4575,7,39,58,0.887,0.0,413,4.87,13.2,0.0,1,27.5,2.59,5.4,0,0,0,1,0,,,,,,,,,,,,,,,,,,,,
89804,1626794294552,,,249,253,239,234,,-0.01,-0.03,1.55,0,5,7,0.03,,77,4564,7,39,58,0.886,0.0,406,4.83,13.2,0.0,1,27.3,1.5,5.4,0,0,0,1,0,,,,,,,,,,,,,,,,,,,,
89824,1626794294572,,,249,253,239,235,,-0.05,-0.04,1.74,0,4,6,0.07,,77,4609,7,39,58,0.886,0.0,408,4.81,13.2,0.0,1,27.9,1.53,5.4,0,0,0,1,0,,,,,,,,,,,,,,,,,,,,
89844,1626794294592,4,2,249,253,239,235,-4,-0.08,-0.04,1.92,0,3,4,0.09,0,77,4567,7,39,58,0.886,0.0,405,4.82,13.2,0.0,1,27.4,2.59,5.4,0,0,0,1,0,0,250,250,0,45.930679,5.258157,0.0,230.7,8,2,2.6,0,0.0,-1,0.0,0.0,0.0,0,0.16,1.4974
89864,1626794294612,,,249,253,239,235,,-0.1,-0.02,2.08,0,2,2,0.1,,77,4615,7,39,57,0.885,0.0,410,4.89,13.0,0.0,1,27.7,1.53,5.4,0,0,0,1,0,,,,,,,,,,,,,,,,,,,,
89884,1626794294632,,,249,252,239,235,,-0.1,0.02,2.22,0,1,1,0.1,,77,4575,7,39,57,0.885,0.0,409,4.9,12.9,0.0,1,27.2,2.59,5.4,0,0,0,1,0,,,,,,,,,,,,,,,,,,,,
89904,1626794294652,,,249,251,239,234,,-0.09,0.08,2.3,0,-1,-1,0.12,,77,4625,7,39,57,0.884,0.0,407,4.92,13.0,0.0,1,27.9,2.62,5.4,0,0,0,1,0,,,,,,,,,,,,,,,,,,,,
89924,1626794294672,,,249,252,239,235,,-0.05,0.09,2.24,0,-2,-2,0.1,,77,4585,7,39,57,0.884,0.0,414,4.88,12.9,0.0,1,27.4,2.59,5.4,0,0,0,1,0,,,,,,,,,,,,,,,,,,,,
89944,1626794294694,4,1,249,252,239,235,-4,0.01,0.08,2.1,0,-3,-3,0.08,0,77,4586,7,39,57,0.883,0.0,409,4.86,13.2,0.0,1,27.4,2.59,5.4,0,0,0,1,0,0,250,250,0,45.930679,5.258157,0.0,230.7,8,2,2.6,0,0.0,-1,0.0,,0.0,0,0.16,1.4991
89964,1626794294714,,,249,252,238,235,,0.05,0.03,1.94,0,-3,-3,0.06,,77,4667,7,39,57,0.883,0.0,412,4.88,13.1,0.0,1,28.4,2.64,5.4,0,0,0,1,0,,,,,,,,,,,,,,,,,,,,
89984,1626794294734,,,249,252,239,235,,0.1,-0.04,1.79,0,-3,-3,0.11,,77,4564,7,39,58,0.883,0.0,412,4.88,13.3,0.0,1,27.3,2.59,5.4,0,0,0,1,0,,,,,,,,,,,,,,,,,,,,
90004,1626794294754,,,249,253,239,235,,0.13,-0.11,1.65,0,-2,-2,0.17,,77,4608,7,39,58,0.882,0.0,408,4.84,13.3,0.0,1,27.9,2.6,5.4,0,0,0,1,0,,,,,,,,,,,,,,,,,,,,
90024,1626794294774,,,249,253,239,234,,0.13,-0.11,1.52,0,-1,-1,0.17,,77,4601,7,39,58,0.882,0.0,416,4.86,13.3,0.0,1,27.8,2.61,5.4,0,0,0,1,0,,,,,,,,,,,,,,,,,,,,
90044,1626794294794,4,2,249,252,239,235,-3,0.11,-0.09,1.4,0,1,1,0.14,0,77,4552,7,39,58,0.881,0.0,408,4.86,13.3,0.0,1,27.2,2.58,5.4,0,0,0,1,0,0,250,250,0,45.930679,5.258157,0.0,230.7,8,2,2.6,0,0.0,-1,0.0,0.0,0.0,0,0.16,1.5007
90064,1626794294814,,,249,252,239,234,,0.1,-0.05,1.3,0,2,3,0.11,,77,4568,7,39,57,0.88,0.0,408,4.81,13.3,0.0,1,27.2,2.59,5.4,0,0,0,1,0,,,,,,,,,,,,,,,,,,,,
90084,1626794294834,,,249,253,239,235,,0.08,0.0,1.26,0,3,4,0.08,,77,4598,7,39,58,0.878,0.0,409,4.86,13.3,0.0,1,27.8,2.61,5.4,0,0,0,1,0,,,,,,,,,,,,,,,,,,,,
90104,1626794294854,,,249,253,239,235,,0.04,0.03,1.28,1,4,5,0.05,,77,4568,7,39,58,0.876,0.0,410,4.84,13.3,0.0,1,27.4,2.59,5.4,0,0,0,1,0,,,,,,,,,,,,,,,,,,,,
90124,1626794294874,,,249,252,239,234,,0.0,0.03,1.48,1,4,6,0.03,,77,4593,7,39,58,0.874,0.0,410,4.82,13.2,0.0,1,27.7,1.52,5.4,0,0,0,1,0,,,,,,,,,,,,,,,,,,,,
90144,1626794294894,5,2,249,252,239,235,-4,-0.03,0.01,1.67,1,4,6,0.03,0,77,4548,7,39,58,0.872,0.0,407,4.83,13.3,0.0,1,27.1,2.59,5.4,0,0,0,1,0,0,250,250,0,45.930679,5.258157,0.0,230.7,8,2,2.6,0,0.0,-1,0.0,,0.0,0,0.16,1.5024
90164,1626794294914,,,249,253,238,235,,-0.07,0.0,1.85,0,3,5,0.07,,77,4546,7,39,58,0.871,0.0,407,4.83,13.2,0.0,1,27.1,2.59,5.4,0,0,0,1,0,,,,,,,,,,,,,,,,,,,,
90184,1626794294934,,,249,253,239,235,,-0.1,-0.0,2.01,0,2,3,0.1,,77,4573,7,39,58,0.87,0.0,410,4.86,13.1,0.0,1,27.5,1.51,5.4,0,0,0,1,0,,,,,,,,,,,,,,,,,,,,
90204,1626794294954,,,249,253,239,235,,-0.13,-0.01,2.16,0,1,1,0.13,,77,4522,7,39,58,0.869,0.0,404,4.87,13.0,0.0,1,26.9,1.49,5.4,0,0,0,1,0,,,,,,,,,,,,,,,,,,,,
90224,1626794294974,,,249,253,239,235,,-0.16,-0.03,2.3,0,-1,-0,0.16,,77,4558,7,39,58,0.867,0.0,406,4.84,13.2,0.0,1,27.3,2.59,5.4,0,0,0,1,0,,,,,,,,,,,,,,,,,,,,
90244,1626794294994,4,1,249,252,238,235,-3,-0.19,-0.03,2.43,0,-2,-2,0.19,0,77,4525,7,39,58,0.867,0.0,402,4.87,13.1,0.0,1,26.8,2.58,5.4,0,0,0,1,0,0,250,250,0,45.930679,5.258157,0.0,230.7,8,2,2.6,0,0.0,-1,0.0,0.0,0.0,0,0.16,1.5041
90264,1626794295004,,,249,252,239,234,,-0.19,-0.02,2.56,0,-3,-4,0.19,,77,4554,7,39,58,0.866,0.0,405,4.87,13.0,0.0,1,27.2,2.59,5.4,0,0,0,1,0,,,,,,,,,,,,,,,,,,,,
90284,1626794295024,,,249,253,239,235,,-0.18,0.03,2.67,0,-5,-5,0.19,,77,4568,7,39,58,0.866,0.0,406,4.86,13.1,0.0,1,27.4,2.59,5.4,0,0,0,1,0,,,,,,,,,,,,,,,,,,,,
90304,1626794295044,,,249,253,238,235,,-0.16,0.1,2.77,0,-6,-6,0.19,,77,4546,7,39,58,0.865,0.0,402,4.87,13.0,0.0,1,27.1,2.59,5.4,0,0,0,1,0,,,,,,,,,,,,,,,,,,,,
90324,1626794295064,,,249,251,239,235,,-0.14,0.16,2.76,0,-6,-6,0.21,,77,4578,7,39,58,0.867,0.0,407,4.83,13.1,0.0,1,27.5,2.59,5.4,0,0,0,1,0,,,,,,,,,,,,,,,,,,,,
90344,1626794295094,4,1,249,252,239,234,-3,-0.1,0.18,2.66,0,-6,-6,0.2,0,77,4550,7,39,58,0.868,0.0,405,4.85,13.2,0.0,1,27.2,2.59,5.4,0,0,0,1,0,0,250,250,0,45.930679,5.258157,0.0,230.7,8,2,2.6,0,0.0,-1,0.0,,0.0,0,0.16,1.5057
90364,1626794295114,,,249,252,239,235,,-0.06,0.19,2.57,0,-7,-7,0.2,,77,4572,7,39,58,0.87,0.0,408,4.86,13.0,0.0,1,27.4,2.59,5.4,0,0,0,1,0,,,,,,,,,,,,,,,,,,,,
90384,1626794295134,,,249,252,238,235,,-0.01,0.19,2.37,0,-7,-6,0.19,,77,4556,7,39,58,0.871,0.0,404,4.86,13.2,0.0,1,27.2,2.59,5.4,0,0,0,1,0,,,,,,,,,,,,,,,,,,,,
90404,1626794295154,,,249,253,238,235,,0.03,0.17,2.19,0,-6,-6,0.17,,77,4544,7,39,58,0.872,0.0,405,4.83,13.2,0.0,1,27.1,2.59,5.4,0,0,0,1,0,,,,,,,,,,,,,,,,,,,,
90424,1626794295174,,,249,253,238,235,,0.08,0.1,2.02,0,-5,-6,0.13,,77,4556,7,39,58,0.873,0.0,410,4.85,13.1,0.0,1,27.2,2.59,5.4,0,0,0,1,0,,,,,,,,,,,,,,,,,,,,
90444,1626794295193,4,1,249,253,239,235,-3,0.12,0.03,1.86,0,-5,-6,0.13,0,77,4565,7,39,58,0.874,0.0,408,4.86,13.3,0.0,1,27.4,2.59,5.4,0,0,0,1,0,0,250,250,0,45.930679,5.258157,0.0,230.7,8,2,2.6,0,0.0,-1,0.0,0.0,0.0,0,0.16,1.5074
90464,1626794295213,,,249,251,239,235,,0.16,-0.02,1.72,0,-3,-5,0.16,,77,4617,7,39,58,0.875,0.0,407,4.88,13.3,0.0,1,28.0,2.61,5.4,0,0,0,1,0,,,,,,,,,,,,,,,,,,,,
90484,1626794295233,,,249,253,238,235,,0.17,-0.07,1.59,0,-2,-4,0.19,,77,4620,7,39,58,0.875,0.0,411,4.88,13.3,0.0,1,28.1,2.61,5.4,0,0,0,1,0,,,,,,,,,,,,,,,,,,,,
90504,1626794295253,,,249,253,239,235,,0.16,-0.07,1.47,0,-1,-2,0.18,,77,4610,7,39,58,0.876,0.0,408,4.85,13.3,0.0,1,27.9,2.61,5.4,0,0,0,1,0,,,,,,,,,,,,,,,,,,,,
90524,1626794295273,,,249,253,239,235,,0.13,-0.05,1.35,0,1,0,0.14,,77,4614,7,39,58,0.877,0.0,412,4.83,13.3,0.0,1,28.0,2.61,5.4,0,0,0,1,0,,,,,,,,,,,,,,,,,,,,
90544,1626794295293,5,0,249,252,239,235,-3,0.08,-0.04,1.39,0,2,2,0.09,0,77,4614,7,39,58,0.878,0.0,408,4.85,13.3,0.0,1,28.0,2.61,5.5,0,0,0,1,0,0,250,250,0,45.930679,5.258157,0.0,230.7,8,2,2.6,0,0.0,-1,0.0,,0.0,0,0.16,1.5091
90564,1626794295313,,,249,253,238,235,,0.05,-0.05,1.59,0,1,1,0.07,,77,4630,7,39,58,0.879,0.0,415,4.85,13.1,0.0,1,28.2,1.54,5.5,0,0,0,1,0,,,,,,,,,,,,,,,,,,,,
90584,1626794295333,,,249,252,239,235,,-0.0,-0.06,1.77,0,1,0,0.06,,77,4583,7,39,57,0.88,0.0,413,4.82,13.2,0.0,1,27.3,1.51,5.5,0,0,0,1,0,,,,,,,,,,,,,,,,,,,,
90604,1626794295353,,,249,253,238,235,,-0.03,-0.05,1.94,0,-1,-1,0.06,,77,4575,7,39,58,0.88,0.0,406,4.83,13.2,0.0,1,27.5,2.59,5.5,0,0,0,1,0,,,,,,,,,,,,,,,,,,,,
90624,1626794295373,,,249,252,239,235,,-0.06,-0.03,2.1,0,-2,-3,0.07,,77,4574,7,39,57,0.881,0.0,412,4.86,13.0,0.0,1,27.2,1.51,5.5,0,0,0,1,0,,,,,,,,,,,,,,,,,,,,
90644,1626794295393,4,1,249,253,239,235,-4,-0.07,-0.01,2.25,0,-3,-4,0.07,0,77,4556,7,39,58,0.881,0.0,403,4.83,13.1,0.0,1,27.2,1.5,5.4,0,0,0,1,0,0,250,250,0,45.930679,5.258157,0.0,230.7,8,2,2.6,0,0.0,-1,0.0,0.0,0.0,0,0.16,1.5107
90664,1626794295413,,,249,251,239,234,,-0.09,0.03,2.38,0,-4,-5,0.09,,77,4533,7,39,58,0.882,0.0,404,4.89,13.0,0.0,1,26.9,2.58,5.4,0,0,0,1,0,,,,,,,,,,,,,,,,,,,,
90684,1626794295433,,,249,253,239,235,,-0.07,0.07,2.51,0,-5,-6,0.1,,77,4532,7,39,57,0.883,0.0,404,4.88,13.0,0.0,1,26.7,2.58,5.4,0,0,0,1,0,,,,,,,,,,,,,,,,,,,,
90704,1626794295453,,,249,253,238,235,,-0.05,0.12,2.62,0,-7,-7,0.13,,77,4576,7,39,57,0.883,0.0,402,4.88,13.0,0.0,1,27.3,2.59,5.4,0,0,0,1,0,,,,,,,,,,,,,,,,,,,,
90724,1626794295473,,,249,253,239,235,,-0.03,0.17,2.6,0,-7,-7,0.18,,77,4556,7,39,57,0.884,0.0,408,4.86,13.1,0.0,1,27.0,2.59,5.4,0,0,0,1,0,,,,,,,,,,,,,,,,,,,,
90744,1626794295493,4,2,249,251,239,234,-3,-0.0,0.23,2.54,0,-7,-7,0.23,0,77,4564,7,39,57,0.885,0.0,403,4.9,13.0,0.0,1,27.1,2.59,5.4,0,0,0,1,0,0,250,250,0,45.930679,5.258157,0.0,230.7,8,2,2.6,0,0.0,-1,0.0,,0.0,0,0.16,1.5124
90764,1626794295513,,,249,251,239,235,,0.04,0.22,2.34,0,-6,-6,0.22,,77,4593,7,39,57,0.885,0.0,406,4.87,13.0,0.0,1,27.5,2.59,5.4,0,0,0,1,0,,,,,,,,,,,,,,,,,,,,
90784,1626794295533,,,249,253,238,235,,0.09,0.18,2.16,0,-6,-6,0.2,,77,4568,7,39,57,0.885,0.0,407,4.87,13.1,0.0,1,27.2,2.59,5.4,0,0,0,1,0,,,,,,,,,,,,,,,,,,,,
90804,1626794295553,,,249,251,239,234,,0.13,0.11,1.99,0,-5,-6,0.17,,77,4600,7,39,58,0.885,0.0,403,4.88,13.3,0.0,1,27.8,2.6,5.4,0,0,0,1,0,,,,,,,,,,,,,,,,,,,,
90824,1626794295573,,,249,252,239,235,,0.16,0.03,1.84,0,-4,-5,0.16,,77,4619,7,39,58,0.884,0.0,415,4.88,13.3,0.0,1,28.1,2.61,5.4,0,0,0,1,0,,,,,,,,,,,,,,,,,,,,
90844,1626794295594,3,2,249,252,239,234,-3,0.17,-0.01,1.7,0,-3,-4,0.17,0,77,4593,7,39,57,0.884,0.0,410,4.87,13.3,0.0,1,27.5,2.59,5.5,0,0,0,1,0,0,250,250,0,45.930679,5.258157,0.0,230.7,8,2,2.6,0,0.0,-1,0.0,0.0,0.0,0,0.16,1.5141
90864,1626794295614,,,249,252,239,235,,0.15,-0.02,1.57,0,-1,-1,0.15,,77,4620,7,39,58,0.883,0.0,411,4.85,13.3,0.0,1,28.1,2.61,5.5,0,0,0,1,0,,,,,,,,,,,,,,,,,,,,
90884,1626794295634,,,249,252,239,235,,0.12,-0.01,1.45,0,0,0,0.12,,77,4608,7,39,58,0.883,0.0,409,4.85,13.3,0.0,1,27.9,2.61,5.5,0,0,0,1,0,,,,,,,,,,,,,,,,,,,,
90904,1626794295654,,,249,253,238,234,,0.09,0.02,1.38,1,1,2,0.1,,77,4608,7,39,58,0.882,0.0,408,4.85,13.3,0.0,1,27.9,2.61,5.5,0,0,0,1,0,,,,,,,,,,,,,,,,,,,,
90924,1626794295674,,,249,252,239,234,,0.05,0.04,1.57,0,1,2,0.06,,77,4626,7,39,58,0.881,0.0,413,4.85,13.1,0.0,1,28.2,1.54,5.5,0,0,0,1,0,,,,,,,,,,,,,,,,,,,,
90944,1626794295693,4,0,249,251,239,235,-3,0.01,0.05,1.76,0,0,1,0.05,0,77,4658,7,39,57,0.881,0.0,411,4.85,13.0,0.0,1,28.3,1.55,5.5,0,0,0,1,0,0,250,250,0,45.930679,5.258157,0.0,230.7,8,2,2.6,0,0.0,-1,0.0,,0.0,0,0.16,1.5157
90964,1626794295713,,,249,253,239,235,,-0.01,0.06,1.93,0,-1,-1,0.06,,77,4668,7,39,57,0.88,0.0,412,4.8,13.0,0.0,1,28.4,1.56,5.5,0,0,0,1,0,,,,,,,,,,,,,,,,,,,,
90984,1626794295733,,,249,252,239,234,,0.01,0.1,2.07,0,-2,-2,0.1,,77,4631,7,39,57,0.879,0.0,420,4.86,13.1,0.0,1,27.9,2.62,5.5,0,0,0,1,0,,,,,,,,,,,,,,,,,,,,
91004,1626794295753,,,249,251,239,235,,0.02,0.16,2.08,0,-2,-2,0.16,,77,4583,7,39,57,0.878,0.0,413,4.87,13.2,0.0,1,27.3,2.59,5.5,0,0,0,1,0,,,,,,,,,,,,,,,,,,,,
91024,1626794295773,,,249,252,238,235,,0.06,0.16,2.0,0,-3,-3,0.17,,77,4592,7,39,57,0.877,0.0,415,4.85,13.2,0.0,1,27.5,2.59,5.5,0,0,0,1,0,,,,,,,,,,,,,,,,,,,,
91044,1626794295793,4,2,249,253,239,235,-3,0.11,0.12,1.85,0,-3,-3,0.16,0,77,4575,7,39,57,0.876,0.0,411,4.86,13.1,0.0,1,27.2,2.59,5.5,0,0,0,1,0,0,250,250,0,45.930679,5.258157,0.0,230.7,8,2,2.6,0,0.0,-1,0.0,0.0,0.0,0,0.16,1.5174
91064,1626794295813,,,249,253,239,235,,0.15,0.09,1.71,0,-3,-3,0.18,,77,4528,7,39,57,0.876,0.0,408,4.86,13.1,0.0,1,26.7,2.57,5.5,0,0,0,1,0,,,,,,,,,,,,,,,,,,,,
91084,1626794295833,,,249,252,239,235,,0.19,0.04,1.58,0,-2,-3,0.2,,77,4555,7,39,57,0.876,0.0,415,4.77,13.2,0.0,1,27.0,2.58,5.5,0,0,0,1,0,,,,,,,,,,,,,,,,,,,,
91104,1626794295853,,,249,253,239,234,,0.22,-0.03,1.45,0,-1,-3,0.23,,77,4547,7,39,57,0.875,0.0,407,4.83,13.2,0.0,1,26.9,2.58,5.5,0,0,0,1,0,,,,,,,,,,,,,,,,,,,,
91124,1626794295873,,,249,253,239,235,,0.25,-0.08,1.34,0,0,-2,0.26,,77,4553,7,39,58,0.875,0.0,411,4.86,13.3,0.0,1,27.2,2.58,5.5,0,0,0,1,0,,,,,,,,,,,,,,,,,,,,
91144,1626794295893,4,1,249,252,239,234,-4,0.28,-0.13,1.24,0,2,-1,0.31,0,77,4523,7,39,58,0.875,0.0,405,4.85,13.3,0.0,1,26.8,2.57,5.4,0,0,0,1,0,0,250,250,0,45.930679,5.258157,0.0,230.7,8,2,2.6,0,0.0,-1,0.0,,0.0,0,0.16,1.5191
91164,1626794295913,,,249,252,239,234,,0.3,-0.18,1.14,0,2,-1,0.35,,77,4528,7,39,58,0.874,0.0,404,4.85,13.3,0.0,1,26.9,2.58,5.4,0,0,0,1,0,,,,,,,,,,,,,,,,,,,,
91184,1626794295933,,,249,252,239,235,,0.3,-0.23,1.06,0,4,1,0.38,,77,4550,7,39,57,0.875,0.0,404,4.86,13.3,0.0,1,26.9,2.58,5.4,0,0,0,1,0,,,,,,,,,,,,,,,,,,,,
91204,1626794295953,,,249,253,238,235,,0.3,-0.24,0.97,0,5,3,0.38,,77,4537,7,39,58,0.875,0.0,403,4.86,13.3,0.0,1,27.0,2.58,5.4,0,0,0,1,0,,,,,,,,,,,,,,,,,,,,
91224,1626794295973,,,249,252,239,235,,0.29,-0.23,0.9,0,6,4,0.37,,77,4570,7,39,58,0.876,0.0,408,4.87,13.3,0.0,1,27.4,2.59,5.4,0,0,0,1,0,,,,,,,,,,,,,,,,,,,,
91244,1626794295993,4,1,249,253,239,235,-3,0.27,-0.21,0.83,1,6,6,0.34,0,77,4592,7,39,58,0.877,0.0,410,4.87,13.3,0.0,1,27.7,2.6,5.5,0,0,0,1,0,0,250,250,0,45.930679,5.258157,0.0,230.7,8,2,2.6,0,0.0,-1,0.0,0.0,0.0,0,0.16,1.5207
91264,1626794296005,,,249,253,239,235,,0.23,-0.15,0.77,1,7,7,0.28,,77,4591,7,39,58,0.878,0.0,405,4.83,13.2,0.0,1,27.7,2.6,5.5,0,0,0,1,0,,,,,,,,,,,,,,,,,,,,
91284,1626794296025,,,249,252,239,234,,0.19,-0.12,0.81,1,7,8,0.22,,77,4579,7,39,58,0.879,0.0,408,4.82,13.2,0.0,1,27.5,2.59,5.5,0,0,0,1,0,,,,,,,,,,,,,,,,,,,,
91304,1626794296045,,,249,253,238,235,,0.14,-0.11,1.04,1,7,7,0.18,,77,4611,7,39,58,0.879,0.0,406,4.85,13.3,0.0,1,28.0,2.61,5.5,0,0,0,1,0,,,,,,,,,,,,,,,,,,,,
91324,1626794296065,,,249,252,239,234,,0.09,-0.11,1.27,1,6,6,0.14,,77,4603,7,39,57,0.879,0.0,412,4.87,13.1,0.0,1,27.6,2.61,5.5,0,0,0,1,0,,,,,,,,,,,,,,,,,,,,
91344,1626794296093,4,1,249,251,239,235,-3,0.05,-0.1,1.48,0,4,4,0.11,0,77,4651,7,39,57,0.879,0.0,411,4.87,13.0,0.0,1,28.2,1.55,5.6,0,0,0,1,0,0,250,250,0,45.930679,5.258157,0.0,230.7,8,2,2.6,0,0.0,-1,0.0,,0.0,0,0.16,1.5224
91364,1626794296113,,,249,251,239,234,,0.04,-0.07,1.67,0,2,2,0.08,,77,4614,7,39,57,0.879,0.0,412,4.84,13.0,0.0,1,27.7,2.63,5.6,0,0,0,1,0,,,,,,,,,,,,,,,,,,,,
91384,1626794296133,,,249,253,239,235,,0.06,-0.03,1.85,0,1,1,0.07,,77,4625,7,39,57,0.88,0.0,418,4.88,13.2,0.0,1,27.9,2.62,5.6,0,0,0,1,0,,,,,,,,,,,,,,,,,,,,
91404,1626794296153,,,249,252,239,235,,0.1,-0.01,1.86,0,-0,-0,0.1,,77,4620,7,39,57,0.881,0.0,412,4.87,13.0,0.0,1,27.8,2.61,5.6,0,0,0,1,0,,,,,,,,,,,,,,,,,,,,
91424,1626794296173,,,249,252,239,235,,0.14,-0.04,1.72,0,-1,-0,0.15,,77,4659,7,39,57,0.882,0.0,417,4.85,13.2,0.0,1,28.3,2.63,5.6,0,0,0,1,0,,,,,,,,,,,,,,,,,,,,
91444,1626794296192,4,2,249,253,238,235,-3,0.18,-0.11,1.59,0,0,0,0.21,0,77,4657,7,39,57,0.882,0.0,414,4.88,13.3,0.0,1,28.3,2.63,5.6,0,0,0,1,0,0,250,250,0,45.930679,5.258157,0.0,230.7,8,2,2.6,0,0.0,-1,0.0,0.0,0.0,0,0.16,1.5241
91464,1626794296212,,,249,253,239,234,,0.19,-0.14,1.46,0,1,1,0.23,,77,4621,7,39,57,0.883,0.0,418,4.86,13.3,0.0,1,27.8,2.61,5.6,0,0,0,1,0,,,,,,,,,,,,,,,,,,,,
91484,1626794296232,,,249,251,239,235,,0.17,-0.13,1.35,0,3,3,0.22,,77,4621,7,39,57,0.884,0.0,421,4.86,13.3,0.0,1,27.8,2.61,5.6,0,0,0,1,0,,,,,,,,,,,,,,,,,,,,
91504,1626794296252,,,249,252,239,235,,0.15,-0.12,1.25,1,4,5,0.19,,77,4557,7,39,57,0.884,0.0,415,4.87,13.3,0.0,1,27.0,2.59,5.6,0,0,0,1,0,,,,,,,,,,,,,,,,,,,,
91524,1626794296272,,,249,252,239,234,,0.13,-0.07,1.15,1,4,6,0.14,,77,4574,7,39,57,0.886,0.0,410,4.82,13.3,0.0,1,27.2,2.59,5.6,0,0,0,1,0,,,,,,,,,,,,,,,,,,,,
91544,1626794296292,4,2,249,253,239,234,-3,0.09,-0.04,1.19,1,4,6,0.1,0,77,4559,7,39,57,0.886,0.0,410,4.83,13.2,0.0,1,27.0,2.59,5.4,0,0,0,1,0,0,250,250,0,45.930679,5.258157,0.0,230.7,8,2,2.6,0,0.0,-1,0.0,,0.0,0,0.16,1.5257
91564,1626794296312,,,249,253,239,234,,0.06,-0.02,1.23,1,5,7,0.06,,77,4554,7,39,57,0.887,0.0,406,4.82,13.2,0.0,1,27.0,1.49,5.4,0,0,0,1,0,,,,,,,,,,,,,,,,,,,,
91584,1626794296332,,,249,253,238,235,,0.02,-0.01,1.4,1,4,6,0.02,,77,4574,7,39,57,0.888,0.0,411,4.82,13.2,0.0,1,27.2,2.59,5.4,0,0,0,1,0,,,,,,,,,,,,,,,,,,,,
91604,1626794296352,,,249,253,238,235,,-0.02,0.01,1.6,0,3,4,0.02,,77,4549,7,39,57,0.889,0.0,402,4.85,13.1,0.0,1,26.7,2.58,5.4,0,0,0,1,0,,,,,,,,,,,,,,,,,,,,
91624,1626794296372,,,249,253,239,234,,-0.06,0.0,1.78,0,2,3,0.06,,77,4545,7,39,57,0.89,0.0,410,4.83,13.1,0.0,1,26.9,1.49,5.4,0,0,0,1,0,,,,,,,,,,,,,,,,,,,,
91644,1626794296394,4,0,249,253,238,235,-3,-0.11,-0.02,1.95,0,1,1,0.11,0,77,4521,7,39,57,0.89,0.0,406,4.85,13.2,0.0,1,26.6,2.57,5.3,0,0,0,1,0,0,250,250,0,45.930679,5.258157,0.0,230.7,8,2,2.6,0,0.0,-1,0.0,0.0,0.0,0,0.16,1.5274
91664,1626794296414,,,249,253,239,234,,-0.14,-0.04,2.11,0,-0,-1,0.14,,77,4572,7,39,57,0.889,0.0,402,4.87,13.0,0.0,1,27.2,1.51,5.3,0,0,0,1,0,,,,,,,,,,,,,,,,,,,,
91684,1626794296434,,,249,253,238,235,,-0.17,-0.05,2.25,0,-2,-2,0.18,,77,4516,7,39,57,0.889,0.0,406,4.88,13.0,0.0,1,26.5,1.48,5.3,0,0,0,1,0,,,,,,,,,,,,,,,,,,,,
91704,1626794296454,,,249,252,239,235,,-0.19,-0.04,2.39,0,-3,-4,0.19,,77,4550,7,39,57,0.89,0.0,399,4.9,13.0,0.0,1,26.9,1.49,5.3,0,0,0,1,0,,,,,,,,,,,,,,,,,,,,
91724,1626794296474,,,249,253,239,235,,-0.2,-0.01,2.51,0,-5,-5,0.2,,77,4522,7,39,58,0.888,0.0,406,4.87,12.9,0.0,1,26.8,1.49,5.3,0,0,0,1,0,,,,,,,,,,,,,,,,,,,,
91744,1626794296492,4,1,249,252,239,235,-3,-0.22,-0.0,2.63,0,-6,-6,0.22,0,77,4468,7,39,57,0.888,0.0,402,4.88,13.0,0.0,1,25.9,1.44,5.2,0,0,0,1,0,0,250,250,0,45.930679,5.258157,0.0,230.7,8,2,2.6,0,0.0,-1,0.0,,0.0,0,0.16,1.5291
91764,1626794296512,,,249,252,239,235,,-0.23,0.01,2.73,-0,-7,-7,0.23,,77,4577,7,39,58,0.886,0.0,400,4.88,13.0,0.0,1,27.5,2.59,5.2,0,0,0,1,0,,,,,,,,,,,,,,,,,,,,
91784,1626794296532,,,249,253,239,235,,-0.22,0.03,2.83,0,-8,-8,0.22,,77,4543,7,39,58,0.885,0.0,410,4.86,13.0,0.0,1,27.1,2.59,5.2,0,0,0,1,0,,,,,,,,,,,,,,,,,,,,
91804,1626794296552,,,249,253,239,235,,-0.21,0.07,2.92,0,-10,-9,0.22,,77,4568,7,39,58,0.884,0.0,404,4.88,13.0,0.0,1,27.4,2.59,5.2,0,0,0,1,0,,,,,,,,,,,,,,,,,,,,
91824,1626794296572,,,249,252,239,235,,-0.17,0.11,2.95,0,-10,-9,0.2,,77,4638,7,39,58,0.884,0.0,408,4.88,13.0,0.0,1,28.3,2.62,5.2,0,0,0,1,0,,,,,,,,,,,,,,,,,,,,
91844,1626794296592,2,2,249,251,239,234,-3,-0.13,0.16,2.83,0,-10,-9,0.21,0,77,4556,7,39,58,0.883,0.0,410,4.83,13.2,0.0,1,27.2,2.59,5.4,0,0,0,1,0,0,250,250,0,45.930679,5.258157,0.0,230.7,8,2,2.6,0,0.0,-1,0.0,0.0,0.0,0,0.16,1.5307
91864,1626794296612,,,249,251,239,235,,-0.07,0.15,2.61,0,-9,-9,0.16,,77,4619,7,39,57,0.882,0.0,409,4.85,13.1,0.0,1,27.8,2.61,5.4,0,0,0,1,0,,,,,,,,,,,,,,,,,,,,
91884,1626794296632,,,249,253,238,235,,-0.02,0.1,2.41,0,-7,-7,0.1,,77,4642,7,39,58,0.881,0.0,422,4.88,13.3,0.0,1,28.4,2.62,5.4,0,0,0,1,0,,,,,,,,,,,,,,,,,,,,
91904,1626794296652,,,249,252,239,234,,0.03,0.03,2.22,0,-6,-7,0.04,,77,4595,7,39,57,0.881,0.0,412,4.86,13.3,0.0,1,27.5,2.6,5.4,0,0,0,1,0,,,,,,,,,,,,,,,,,,,,
91924,1626794296672,,,249,253,239,235,,0.03,0.0,2.05,0,-4,-5,0.03,,77,4701,7,39,58,0.879,0.0,415,4.87,13.3,0.0,1,29.1,2.66,5.4,0,0,0,1,0,,,,,,,,,,,,,,,,,,,,
91944,1626794296694,4,1,249,252,239,235,-3,0.01,0.03,1.89,0,-3,-3,0.04,0,77,4653,7,39,57,0.878,0.0,416,4.85,13.2,0.0,1,28.2,1.55,5.6,0,0,0,1,0,0,250,250,0,45.930679,5.258157,0.0,230.7,8,2,2.6,0,0.0,-1,0.0,,0.0,0,0.16,1.5324
91964,1626794296714,,,249,252,239,234,,-0.03,0.05,1.91,0,-2,-3,0.06,,77,4669,7,39,57,0.877,0.0,411,4.83,13.1,0.0,1,28.4,1.56,5.6,0,0,0,1,0,,,,,,,,,,,,,,,,,,,,
91984,1626794296734,,,249,252,239,235,,-0.06,0.05,2.07,0,-2,-3,0.08,,77,4681,7,39,57,0.876,0.0,418,4.83,13.2,0.0,1,28.6,2.63,5.6,0,0,0,1,0,,,,,,,,,,,,,,,,,,,,
92004,1626794296754,,,249,252,239,234,,-0.09,0.05,2.22,0,-3,-4,0.1,,77,4598,7,39,57,0.876,0.0,411,4.85,13.0,0.0,1,27.5,1.52,5.6,0,0,0,1,0,,,,,,,,,,,,,,,,,,,,
92024,1626794296774,,,249,251,239,234,,-0.11,0.08,2.36,0,-4,-5,0.14,,77,4650,7,39,57,0.875,0.0,412,4.85,13.0,0.0,1,28.2,2.63,5.6,0,0,0,1,0,,,,,,,,,,,,,,,,,,,,
92044,1626794296794,4,1,249,252,238,235,-3,-0.08,0.09,2.48,0,-5,-6,0.12,0,77,4610,7,39,57,0.875,0.0,416,4.86,13.1,0.0,1,27.7,2.6,5.6,0,0,0,1,0,0,250,250,0,45.930679,5.258157,0.0,230.7,8,2,2.6,0,0.0,-1,0.0,0.0,0.0,0,0.16,1.5341
92064,1626794296814,,,249,253,239,235,,-0.04,0.1,2.57,0,-6,-6,0.1,,78,4569,7,39,57,0.875,0.0,409,4.87,13.0,0.0,1,27.2,2.59,5.6,0,0,0,1,0,,,,,,,,,,,,,,,,,,,,
92084,1626794296834,,,249,252,238,235,,0.0,0.09,2.45,0,-5,-6,0.09,,77,4565,7,39,57,0.875,0.0,410,4.86,13.2,0.0,1,27.1,2.59,5.6,0,0,0,1,0,,,,,,,,,,,,,,,,,,,,
92104,1626794296854,,,249,251,239,235,,0.03,0.11,2.38,0,-5,-6,0.12,,78,4457,7,39,57,0.875,0.0,400,4.82,13.1,0.0,1,25.7,2.52,5.6,0,0,0,1,0,,,,,,,,,,,,,,,,,,,,
92124,1626794296874,,,249,251,238,235,,0.05,0.12,2.26,0,-5,-6,0.13,,78,4439,7,39,57,0.874,0.0,398,4.83,13.0,0.0,1,25.5,2.52,5.6,0,0,0,1,0,,,,,,,,,,,,,,,,,,,,
92144,1626794296894,3,1,249,252,239,235,-3,0.08,0.13,2.27,0,-5,-6,0.15,0,78,4483,7,39,57,0.873,0.0,402,4.82,13.2,0.0,1,26.1,2.54,5.2,0,0,0,1,0,0,250,250,0,45.930679,5.258157,0.0,230.7,8,2,2.6,0,0.0,-1,0.0,,0.0,0,0.16,1.5357
92164,1626794296914,,,249,252,239,235,,0.08,0.17,2.31,0,-5,-6,0.19,,78,4448,7,39,57,0.873,0.0,398,4.89,12.9,0.0,1,25.6,2.52,5.2,0,0,0,1,0,,,,,,,,,,,,,,,,,,,,
92184,1626794296934,,,249,252,238,235,,0.06,0.2,2.44,0,-5,-6,0.21,,78,4448,7,39,57,0.872,0.0,400,4.82,13.1,0.0,1,25.6,2.52,5.2,0,0,0,1,0,,,,,,,,,,,,,,,,,,,,
92204,1626794296954,,,249,251,239,234,,0.05,0.21,2.56,1,-5,-6,0.22,,77,4510,7,39,58,0.871,0.0,396,4.87,13.1,0.0,1,26.6,2.57,5.2,0,0,0,1,0,,,,,,,,,,,,,,,,,,,,
92224,1626794296974,,,249,253,239,234,,0.03,0.23,2.67,0,-6,-7,0.23,,78,4423,7,39,58,0.87,0.0,400,4.86,13.0,0.0,1,25.5,2.52,5.2,0,0,0,1,0,,,,,,,,,,,,,,,,,,,,
92244,1626794296994,3,2,249,252,239,235,-3,0.0,0.25,2.77,0,-7,-7,0.25,0,78,4518,7,39,58,0.87,0.0,394,4.86,13.0,0.0,1,26.7,2.58,5.2,0,0,0,1,0,0,250,250,0,45.930679,5.258157,0.0,230.7,8,2,2.6,0,0.0,-1,0.0,0.0,0.0,0,0.16,1.5374
92264,1626794297004,,,249,253,238,234,,-0.02,0.27,2.86,1,-7,-7,0.27,,77,4531,7,39,58,0.87,0.0,401,4.83,13.0,0.0,1,26.9,2.58,5.2,0,0,0,1,0,,,,,,,,,,,,,,,,,,,,
92284,1626794297024,,,249,253,239,235,,-0.03,0.27,2.95,1,-7,-8,0.27,,78,4489,7,39,58,0.87,0.0,405,4.88,13.0,0.0,1,26.4,2.56,5.2,0,0,0,1,0,,,,,,,,,,,,,,,,,,,,
92304,1626794297044,,,249,253,239,234,,-0.02,0.3,3.03,1,-8,-8,0.3,,78,4615,7,39,58,0.872,0.0,403,4.88,13.0,0.0,1,28.0,2.61,5.2,0,0,0,1,0,,,,,,,,,,,,,,,,,,,,
92324,1626794297064,,,249,252,239,234,,0.0,0.32,2.98,1,-7,-8,0.32,,78,4555,7,39,58,0.873,0.0,411,4.87,13.2,0.0,1,27.2,2.59,5.2,0,0,0,1,0,,,,,,,,,,,,,,,,,,,,
92344,1626794297094,3,2,249,251,239,235,-4,0.04,0.34,2.86,1,-7,-8,0.34,0,78,4611,7,39,58,0.874,0.0,406,4.87,13.1,0.0,1,28.0,2.61,5.4,0,0,0,1,0,0,250,250,0,45.930679,5.258157,0.0,230.7,8,2,2.6,0,0.0,-1,0.0,,0.0,0,0.16,1.5391
92364,1626794297114,,,249,253,239,234,,0.08,0.28,2.64,1,-6,-7,0.29,,78,4660,7,39,58,0.875,0.0,413,4.87,13.2,0.0,1,28.6,2.64,5.4,0,0,0,1,0,,,,,,,,,,,,,,,,,,,,
92384,1626794297134,,,249,253,239,234,,0.12,0.21,2.43,1,-5,-6,0.24,,78,4625,7,39,58,0.876,0.0,420,4.83,13.2,0.0,1,28.1,2.62,5.4,0,0,0,1,0,,,,,,,,,,,,,,,,,,,,
92404,1626794297154,,,249,251,239,234,,0.13,0.14,2.24,0,-3,-4,0.19,,78,4645,7,39,58,0.876,0.0,411,4.87,13.3,0.0,1,28.4,2.63,5.4,0,0,0,1,0,,,,,,,,,,,,,,,,,,,,
92424,1626794297174,,,249,253,239,234,,0.12,0.14,2.07,1,-1,-2,0.19,,78,4630,7,39,58,0.877,0.0,421,4.88,13.3,0.0,1,28.2,2.62,5.4,0,0,0,1,0,,,,,,,,,,,,,,,,,,,,
92444,1626794297194,4,0,249,253,239,235,-4,0.1,0.17,1.91,1,-0,-1,0.19,0,78,4676,7,39,57,0.878,0.0,415,4.86,13.3,0.0,1,28.5,2.64,5.6,0,0,0,1,0,0,250,250,0,45.930679,5.258157,0.0,230.7,8,2,2.6,0,0.0,-1,0.0,0.0,0.0,0,0.16,1.5407
92464,1626794297214,,,249,251,239,235,,0.05,0.17,2.0,1,-0,-1,0.18,,78,4688,7,39,57,0.879,0.0,413,4.81,13.1,0.0,1,28.3,2.65,5.6,0,0,0,1,0,,,,,,,,,,,,,,,,,,,,
92484,1626794297234,,,249,253,239,235,,0.03,0.2,2.15,0,-1,-2,0.2,,78,4613,7,39,57,0.88,0.0,415,4.86,13.0,0.0,1,27.7,1.53,5.6,0,0,0,1,0,,,,,,,,,,,,,,,,,,,,
92504,1626794297254,,,249,253,239,235,,0.05,0.23,2.29,0,-2,-4,0.24,,78,4627,7,39,57,0.881,0.0,406,4.83,13.1,0.0,1,27.9,1.54,5.6,0,0,0,1,0,,,,,,,,,,,,,,,,,,,,
92524,1626794297274,,,249,251,239,235,,0.07,0.25,2.27,0,-3,-4,0.26,,78,4594,7,39,57,0.881,0.0,412,4.83,13.1,0.0,1,27.5,2.59,5.6,0,0,0,1,0,,,,,,,,,,,,,,,,,,,,
92544,1626794297293,2,2,249,252,238,235,-4,0.11,0.23,2.1,0,-4,-5,0.26,0,78,4569,7,39,57,0.881,0.0,412,4.85,13.2,0.0,1,27.2,2.59,5.5,0,0,0,1,0,0,250,250,0,45.930679,5.258157,0.0,230.7,8,2,2.6,0,0.0,-1,0.0,,0.0,0,0.16,1.5424
92564,1626794297313,,,249,252,239,235,,0.16,0.18,1.94,0,-5,-5,0.24,,78,4574,7,39,57,0.881,0.0,408,4.88,13.0,0.0,1,27.2,2.59,5.5,0,0,0,1,0,,,,,,,,,,,,,,,,,,,,
92584,1626794297333,,,249,251,239,234,,0.2,0.11,1.79,1,-5,-6,0.22,,78,4545,7,39,57,0.88,0.0,409,4.87,13.2,0.0,1,26.9,2.58,5.5,0,0,0,1,0,,,,,,,,,,,,,,,,,,,,
92604,1626794297353,,,249,251,239,235,,0.23,0.03,1.65,1,-4,-6,0.23,,78,4532,7,39,57,0.88,0.0,405,4.86,13.1,0.0,1,26.7,2.57,5.5,0,0,0,1,0,,,,,,,,,,,,,,,,,,,,
92624,1626794297373,,,249,251,239,235,,0.26,-0.04,1.52,1,-3,-5,0.26,,78,4556,7,39,57,0.881,0.0,403,4.86,13.1,0.0,1,27.0,2.59,5.5,0,0,0,1,0,,,,,,,,,,,,,,,,,,,,
92644,1626794297393,-0,2,249,252,239,235,-3,0.27,-0.06,1.41,0,-3,-5,0.28,0,78,4542,7,39,57,0.882,0.0,405,4.85,13.3,0.0,1,26.8,2.58,5.4,0,0,0,1,0,0,250,250,0,45.930679,5.258157,0.0,230.7,8,2,2.6,0,0.0,-1,0.0,0.0,0.0,0,0.16,1.5441
92664,1626794297413,,,249,253,239,235,,0.29,-0.11,1.3,0,-2,-5,0.32,,78,4530,7,39,57,0.882,0.0,401,4.83,13.2,0.0,1,26.7,2.57,5.4,0,0,0,1,0,,,,,,,,,,,,,,,,,,,,
92684,1626794297433,,,249,253,239,235,,0.3,-0.17,1.2,0,-1,-5,0.34,,78,4591,7,39,58,0.882,0.0,413,4.87,13.3,0.0,1,27.7,2.59,5.4,0,0,0,1,0,,,,,,,,,,,,,,,,,,,,
92704,1626794297453,,,249,252,239,234,,0.29,-0.2,1.11,0,0,-4,0.35,,78,4541,7,39,57,0.882,0.0,406,4.88,13.3,0.0,1,26.8,2.58,5.4,0,0,0,1,0,,,,,,,,,,,,,,,,,,,,
92724,1626794297473,,,249,252,238,235,,0.28,-0.19,1.02,0,1,-3,0.33,,78,4542,7,39,58,0.882,0.0,407,4.87,13.3,0.0,1,27.1,2.59,5.4,0,0,0,1,0,,,,,,,,,,,,,,,,,,,,
92744,1626794297493,1,0,249,252,239,234,-3,0.26,-0.15,0.94,0,3,-2,0.3,0,78,4568,7,39,58,0.882,0.0,406,4.85,13.2,0.0,1,27.4,2.59,5.4,0,0,0,1,0,0,250,250,0,45.930679,5.258157,0.0,230.7,8,2,2.6,0,0.0,-1,0.0,,0.0,0,0.16,1.5457
92764,1626794297513,,,249,252,239,235,,0.24,-0.11,0.87,0,4,0,0.27,,78,4568,7,39,58,0.883,0.0,405,4.85,13.3,0.0,1,27.4,2.59,5.4,0,0,0,1,0,,,,,,,,,,,,,,,,,,,,
92784,1626794297533,,,249,253,239,235,,0.22,-0.06,0.86,0,5,3,0.23,,78,4580,7,39,58,0.882,0.0,411,4.86,13.3,0.0,1,27.5,2.59,5.4,0,0,0,1,0,,,,,,,,,,,,,,,,,,,,
92804,1626794297553,,,249,252,239,235,,0.18,-0.02,0.93,0,6,5,0.18,,78,4584,7,39,58,0.881,0.0,410,4.86,13.3,0.0,1,27.6,2.6,5.4,0,0,0,1,0,,,,,,,,,,,,,,,,,,,,
92824,1626794297573,,,249,253,239,235,,0.13,-0.02,1.17,1,6,6,0.13,,78,4600,7,39,58,0.881,0.0,409,4.83,13.2,0.0,1,27.8,2.61,5.4,0,0,0,1,0,,,,,,,,,,,,,,,,,,,,
92844,1626794297593,1,1,249,253,239,235,-3,0.09,-0.03,1.39,1,6,6,0.09,0,78,4584,7,39,58,0.88,0.0,413,4.86,13.3,0.0,1,27.6,2.6,5.5,0,0,0,1,0,0,250,250,0,45.930679,5.258157,0.0,230.7,8,2,2.6,0,0.0,-1,0.0,0.0,0.0,0,0.16,1.5474
92864,1626794297613,,,249,253,239,235,,0.04,-0.03,1.59,0,5,5,0.05,,78,4601,7,39,58,0.879,0.0,405,4.85,13.1,0.0,1,27.8,1.53,5.5,0,0,0,1,0,,,,,,,,,,,,,,,,,,,,
92884,1626794297633,,,249,253,239,234,,0.02,-0.01,1.77,0,3,3,0.03,,78,4626,7,39,57,0.878,0.0,411,4.86,13.0,0.0,1,27.8,2.62,5.5,0,0,0,1,0,,,,,,,,,,,,,,,,,,,,
92904,1626794297653,,,249,253,239,234,,0.03,0.02,1.94,0,2,1,0.03,,78,4645,7,39,57,0.878,0.0,407,4.86,13.0,0.0,1,28.1,1.54,5.5,0,0,0,1,0,,,,,,,,,,,,,,,,,,,,
92924,1626794297673,,,249,253,239,235,,0.07,0.03,1.95,0,0,-0,0.07,,78,4645,7,39,57,0.877,0.0,411,4.88,13.1,0.0,1,28.1,2.62,5.5,0,0,0,1,0,,,,,,,,,,,,,,,,,,,,
92944,1626794297693,1,1,249,251,239,235,-3,0.11,0.0,1.8,0,-1,-1,0.11,0,78,4635,7,39,57,0.878,0.0,413,4.87,13.0,0.0,1,28.0,2.62,5.6,0,0,0,1,0,0,250,250,0,45.930679,5.258157,0.0,230.7,8,2,2.6,0,0.0,-1,0.0,,0.0,0,0.16,1.5491
92964,1626794297713,,,249,252,239,234,,0.15,-0.06,1.66,0,-0,-1,0.16,,78,4666,7,39,57,0.878,0.0,411,4.86,13.2,0.0,1,28.4,2.63,5.6,0,0,0,1,0,,,,,,,,,,,,,,,,,,,,
92984,1626794297733,,,249,253,238,234,,0.16,-0.08,1.54,0,1,0,0.18,,78,4671,7,39,57,0.878,0.0,419,4.86,13.3,0.0,1,28.4,2.64,5.6,0,0,0,1,0,,,,,,,,,,,,,,,,,,,,
93004,1626794297753,,,249,251,239,235,,0.14,-0.09,1.42,0,2,1,0.16,,78,4635,7,39,57,0.878,0.0,414,4.87,13.3,0.0,1,28.0,2.62,5.6,0,0,0,1,0,,,,,,,,,,,,,,,,,,,,
93024,1626794297773,,,249,253,238,235,,0.12,-0.06,1.31,0,3,3,0.14,,78,4595,7,39,57,0.879,0.0,415,4.83,13.3,0.0,1,27.5,2.6,5.6,0,0,0,1,0,,,,,,,,,,,,,,,,,,,,
93044,1626794297793,1,0,249,253,238,235,-3,0.09,-0.0,1.28,0,4,4,0.09,0,78,4584,7,39,57,0.879,0.0,411,4.85,13.3,0.0,1,27.4,2.59,5.5,0,0,0,1,0,0,250,250,0,45.930683,5.258156,1.51,230.7,8,2,2.6,0,0.0,-1,0.0,0.0,0.0,0,0.16,1.5507
93064,1626794297813,,,249,252,239,235,,0.06,0.03,1.33,1,4,6,0.06,,78,4532,7,39,57,0.881,0.0,407,4.86,13.3,0.0,1,26.7,2.57,5.5,0,0,0,1,0,,,,,,,,,,,,,,,,,,,,
93084,1626794297833,,,249,253,239,235,,0.02,0.03,1.49,1,5,7,0.04,,78,4516,7,39,57,0.882,0.0,410,4.82,13.2,0.0,1,26.5,2.57,5.5,0,0,0,1,0,,,,,,,,,,,,,,,,,,,,
93104,1626794297853,,,249,253,239,235,,0.0,0.02,1.64,1,5,8,0.02,,78,4512,7,39,57,0.883,0.0,405,4.83,13.2,0.0,1,26.5,1.47,5.5,0,0,0,1,0,,,,,,,,,,,,,,,,,,,,
93124,1626794297873,,,249,253,239,235,,-0.03,0.05,1.8,1,5,8,0.06,,78,4478,7,39,57,0.884,0.0,400,4.83,13.2,0.0,1,26.0,2.54,5.5,0,0,0,1,0,,,,,,,,,,,,,,,,,,,,
93144,1626794297893,0,2,249,253,239,235,-3,-0.06,0.06,1.96,1,5,8,0.08,0,78,4500,7,39,58,0.884,0.0,402,4.85,13.3,0.0,1,26.5,2.56,5.3,0,0,0,1,0,0,250,250,0,45.930683,5.258156,0.0,230.7,8,2,2.6,0,0.0,-1,0.0,,0.0,0,0.16,1.5524
93164,1626794297913,,,249,252,239,234,,-0.08,0.04,2.06,1,5,9,0.09,,78,4501,7,39,58,0.885,0.0,398,4.83,13.2,0.0,1,26.5,2.57,5.3,0,0,0,1,0,,,,,,,,,,,,,,,,,,,,
93184,1626794297933,,,249,253,239,234,,-0.1,0.04,2.17,1,5,9,0.11,,78,4518,7,39,58,0.885,0.0,403,4.86,13.3,0.0,1,26.7,2.58,5.3,0,0,0,1,0,,,,,,,,,,,,,,,,,,,,
93204,1626794297953,,,249,252,239,235,,-0.12,0.07,2.31,1,4,9,0.14,,78,4523,7,39,58,0.886,0.0,398,4.84,13.2,0.0,1,26.8,2.58,5.3,0,0,0,1,0,,,,,,,,,,,,,,,,,,,,
93224,1626794297973,,,249,252,239,234,,-0.15,0.08,2.44,1,4,9,0.17,,78,4512,7,39,58,0.887,0.0,402,4.85,13.2,0.0,1,26.7,1.48,5.3,0,0,0,1,0,,,,,,,,,,,,,,,,,,,,
93244,1626794297993,-0,2,249,253,239,234,-3,-0.18,0.06,2.56,1,4,9,0.19,0,78,4537,7,39,58,0.888,0.0,404,4.85,13.3,0.0,1,27.0,1.49,5.4,0,0,0,1,0,0,250,250,0,45.930683,5.258156,0.0,230.7,8,2,2.6,0,0.0,-1,0.0,0.0,0.0,0,0.16,1.5541
93264,1626794298005,,,249,253,239,235,,-0.2,0.04,2.67,1,3,8,0.2,,78,4515,7,39,58,0.888,0.0,403,4.85,13.3,0.0,1,26.7,2.58,5.4,0,0,0,1,0,,,,,,,,,,,,,,,,,,,,
93284,1626794298025,,,249,252,239,235,,-0.23,0.02,2.77,1,3,7,0.23,,78,4572,7,39,58,0.888,0.0,403,4.82,13.3,0.0,1,27.4,2.59,5.4,0,0,0,1,0,,,,,,,,,,,,,,,,,,,,
93304,1626794298045,,,249,253,239,235,,-0.24,0.02,2.87,1,2,5,0.24,,78,4575,7,39,58,0.887,0.0,405,4.82,13.2,0.0,1,27.5,2.59,5.4,0,0,0,1,0,,,,,,,,,,,,,,,,,,,,
93324,1626794298065,,,249,252,239,235,,-0.26,0.04,2.95,1,1,4,0.27,,78,4578,7,39,58,0.886,0.0,405,4.86,13.1,0.0,1,27.5,1.51,5.4,0,0,0,1,0,,,,,,,,,,,,,,,,,,,,
93344,1626794298093,0,1,249,252,239,234,-3,-0.25,0.06,3.03,0,-0,2,0.26,0,78,4628,7,39,58,0.886,0.0,407,4.78,13.0,0.0,1,27.9,2.62,5.6,0,0,0,1,0,0,250,250,0,45.930683,5.258156,0.0,230.7,8,2,2.6,0,0.0,-1,0.0,,0.0,0,0.16,1.5557
93364,1626794298113,,,249,252,239,235,,-0.24,0.1,3.11,0,-2,0,0.26,,78,4574,7,39,57,0.886,0.0,404,4.87,13.0,0.0,1,27.2,2.59,5.6,0,0,0,1,0,,,,,,,,,,,,,,,,,,,,
93384,1626794298133,,,249,252,239,235,,-0.19,0.12,3.06,0,-3,-1,0.22,,78,4657,7,39,58,0.885,0.0,410,4.86,13.0,0.0,1,28.6,2.64,5.6,0,0,0,1,0,,,,,,,,,,,,,,,,,,,,
93404,1626794298153,,,249,252,239,235,,-0.13,0.11,2.86,0,-4,-2,0.17,,78,4588,7,39,57,0.885,0.0,411,4.87,13.2,0.0,1,27.4,2.59,5.6,0,0,0,1,0,,,,,,,,,,,,,,,,,,,,
93424,1626794298173,,,249,252,239,235,,-0.06,0.06,2.64,0,-5,-3,0.09,,78,4633,7,39,58,0.885,0.0,407,4.87,13.2,0.0,1,28.2,2.62,5.6,0,0,0,1,0,,,,,,,,,,,,,,,,,,,,
93444,1626794298193,-1,2,249,252,239,234,-3,-0.01,-0.01,2.44,0,-4,-2,0.02,0,78,4666,7,39,57,0.884,0.0,413,4.87,13.2,0.0,1,28.4,2.63,5.7,0,0,0,1,0,0,250,250,0,45.930683,5.258156,0.0,230.7,8,2,2.6,0,0.0,-1,0.0,0.0,0.0,0,0.16,1.5574
93464,1626794298213,,,249,252,239,235,,0.01,-0.06,2.25,0,-3,-1,0.06,,78,4623,7,39,57,0.883,0.0,408,4.87,13.3,0.0,1,27.8,2.61,5.7,0,0,0,1,0,,,,,,,,,,,,,,,,,,,,
93484,1626794298200,,,249,253,239,235,,-0.01,-0.05,2.08,0,-1,1,0.06,,78,4722,7,39,57,0.882,0.0,421,4.85,13.3,0.0,1,29.1,2.67,5.7,0,0,0,1,0,,,,,,,,,,,,,,,,,,,,
93504,1626794298220,,,249,253,239,235,,-0.05,-0.04,2.07,0,-0,1,0.06,,78,4680,7,39,57,0.881,0.0,417,4.86,13.3,0.0,1,28.6,1.56,5.7,0,0,0,1,0,,,,,,,,,,,,,,,,,,,,
93524,1626794298240,,,249,253,239,235,,-0.08,-0.03,2.22,0,0,2,0.08,,78,4663,7,39,57,0.88,0.0,417,4.82,13.1,0.0,1,28.3,1.55,5.7,0,0,0,1,0,,,,,,,,,,,,,,,,,,,,
93544,1626794298292,0,1,249,251,239,234,-3,-0.1,0.01,2.35,0,-1,0,0.1,0,78,4700,7,39,57,0.88,0.0,420,4.82,13.0,0.0,1,28.8,1.58,5.8,0,0,0,1,0,0,250,250,0,45.930683,5.258156,0.0,230.7,8,2,2.6,0,0.0,-1,0.0,,0.0,0,0.16,1.5591
93564,1626794298312,,,249,251,239,235,,-0.08,0.03,2.43,0,-2,-1,0.08,,78,4627,7,39,57,0.879,0.0,413,4.85,13.0,0.0,1,27.9,2.62,5.8,0,0,0,1,0,,,,,,,,,,,,,,,,,,,,
93584,1626794298332,,,249,252,239,235,,-0.03,0.04,2.43,0,-3,-2,0.05,,78,4636,7,39,56,0.88,0.0,420,4.87,13.2,0.0,1,27.7,2.62,5.8,0,0,0,1,0,,,,,,,,,,,,,,,,,,,,
93604,1626794298352,,,249,251,239,235,,0.02,0.02,2.37,0,-4,-3,0.03,,78,4559,7,39,56,0.88,0.0,415,4.88,13.0,0.0,1,26.7,2.59,5.8,0,0,0,1,0,,,,,,,,,,,,,,,,,,,,
93624,1626794298372,,,249,251,239,234,,0.05,0.01,2.19,0,-4,-3,0.05,,78,4549,7,39,57,0.881,0.0,411,4.87,13.0,0.0,1,26.9,2.58,5.8,0,0,0,1,0,,,,,,,,,,,,,,,,,,,,
93644,1626794298392,1,1,249,251,238,235,-3,0.09,-0.01,2.02,0,-3,-3,0.09,0,78,4477,7,39,57,0.881,0.0,412,4.83,13.2,0.0,1,26.0,2.54,5.3,0,0,0,1,0,0,250,250,0,45.930683,5.258156,0.0,230.7,8,2,2.6,0,0.0,-1,0.0,0.0,0.0,0,0.16,1.5607
93664,1626794298412,,,249,252,239,235,,0.13,-0.03,1.86,0,-3,-3,0.13,,78,4454,7,39,57,0.882,0.0,403,4.85,13.0,0.0,1,25.7,2.52,5.3,0,0,0,1,0,,,,,,,,,,,,,,,,,,,,
93684,1626794298432,,,249,251,239,234,,0.16,-0.05,1.72,0,-3,-4,0.17,,78,4481,7,39,57,0.882,0.0,402,4.83,13.2,0.0,1,26.1,2.54,5.3,0,0,0,1,0,,,,,,,,,,,,,,,,,,,,
93704,1626794298452,,,249,252,238,235,,0.18,-0.03,1.59,1,-3,-3,0.18,,78,4447,7,39,57,0.883,0.0,396,4.87,13.2,0.0,1,25.6,2.52,5.3,0,0,0,1,0,,,,,,,,,,,,,,,,,,,,
93724,1626794298472,,,249,252,239,235,,0.21,-0.02,1.47,1,-3,-4,0.21,,78,4511,7,39,57,0.883,0.0,397,4.8,13.1,0.0,1,26.4,2.56,5.3,0,0,0,1,0,,,,,,,,,,,,,,,,,,,,
93744,1626794298492,0,1,249,252,239,234,-3,0.22,-0.01,1.41,1,-3,-4,0.22,0,78,4470,7,39,57,0.883,0.0,403,4.85,13.0,0.0,1,25.9,2.55,5.3,0,0,0,1,0,0,250,250,0,45.930683,5.258156,0.0,230.7,8,2,2.6,0,0.0,-1,0.0,,0.0,0,0.16,1.5624
93764,1626794298512,,,249,252,239,234,,0.22,0.03,1.45,1,-3,-4,0.22,,78,4452,7,39,57,0.884,0.0,395,4.88,13.0,0.0,1,25.7,2.52,5.3,0,0,0,1,0,,,,,,,,,,,,,,,,,,,,
93784,1626794298532,,,249,253,239,234,,0.2,0.08,1.46,1,-3,-4,0.22,,78,4452,7,39,58,0.885,0.0,398,4.91,13.0,0.0,1,25.9,2.54,5.3,0,0,0,1,0,,,,,,,,,,,,,,,,,,,,
93804,1626794298552,,,249,253,239,235,,0.19,0.11,1.55,1,-4,-4,0.22,,78,4463,7,39,58,0.885,0.0,392,4.9,13.1,0.0,1,26.0,2.55,5.3,0,0,0,1,0,,,,,,,,,,,,,,,,,,,,
93824,1626794298572,,,249,253,239,235,,0.17,0.15,1.74,1,-5,-5,0.23,,78,4486,7,39,58,0.886,0.0,396,4.86,13.0,0.0,1,26.3,1.46,5.3,0,0,0,1,0,,,,,,,,,,,,,,,,,,,,
93844,1626794298594,0,2,249,252,239,235,-3,0.15,0.2,1.91,1,-5,-5,0.25,0,78,4466,7,39,58,0.886,0.0,392,4.85,12.9,0.0,1,26.1,1.46,5.2,0,0,0,1,0,0,250,250,0,45.930683,5.258156,0.0,230.7,8,2,2.6,0,0.0,-1,0.0,0.0,0.0,0,0.16,1.5641
93864,1626794298614,,,249,253,239,235,,0.12,0.24,2.07,1,-6,-6,0.27,,78,4512,7,39,58,0.887,0.0,394,4.88,13.0,0.0,1,26.7,2.57,5.2,0,0,0,1,0,,,,,,,,,,,,,,,,,,,,
93884,1626794298634,,,249,252,239,235,,0.11,0.25,2.21,1,-7,-7,0.27,,78,4539,7,39,58,0.886,0.0,403,4.83,13.0,0.0,1,27.0,1.49,5.2,0,0,0,1,0,,,,,,,,,,,,,,,,,,,,
93904,1626794298654,,,249,253,239,235,,0.1,0.27,2.35,1,-8,-7,0.29,,78,4516,7,39,58,0.886,0.0,401,4.87,13.0,0.0,1,26.7,1.49,5.2,0,0,0,1,0,,,,,,,,,,,,,,,,,,,,
93924,1626794298674,,,249,253,238,235,,0.1,0.33,2.46,1,-8,-8,0.34,,78,4553,7,39,58,0.886,0.0,402,4.88,13.0,0.0,1,27.2,2.59,5.2,0,0,0,1,0,,,,,,,,,,,,,,,,,,,,
93944,1626794298694,0,1,249,253,239,235,-3,0.1,0.36,2.39,1,-8,-7,0.37,0,78,4543,7,39,58,0.885,0.0,403,4.89,13.0,0.0,1,27.1,2.59,5.4,0,0,0,1,0,0,250,250,0,45.930683,5.258156,0.0,230.7,8,2,2.6,0,0.0,-1,0.0,,0.0,0,0.16,1.5657
93964,1626794298714,,,249,253,239,235,,0.12,0.35,2.32,1,-8,-8,0.37,,78,4555,7,39,58,0.885,0.0,401,4.89,13.1,0.0,1,27.2,2.59,5.4,0,0,0,1,0,,,,,,,,,,,,,,,,,,,,
93984,1626794298734,,,249,253,238,235,,0.16,0.32,2.15,1,-8,-8,0.36,,78,4585,7,39,58,0.884,0.0,407,4.88,13.0,0.0,1,27.6,2.6,5.4,0,0,0,1,0,,,,,,,,,,,,,,,,,,,,
94004,1626794298754,,,249,251,238,235,,0.2,0.28,1.98,1,-8,-7,0.34,,78,4577,7,39,58,0.884,0.0,404,4.86,13.2,0.0,1,27.5,2.59,5.4,0,0,0,1,0,,,,,,,,,,,,,,,,,,,,
94024,1626794298774,,,249,251,239,235,,0.23,0.21,1.83,1,-7,-7,0.31,,78,4615,7,39,58,0.883,0.0,412,4.85,13.2,0.0,1,28.0,2.61,5.4,0,0,0,1,0,,,,,,,,,,,,,,,,,,,,
94044,1626794298795,0,0,249,253,238,235,-3,0.25,0.12,1.69,1,-5,-6,0.27,0,78,4614,7,39,58,0.882,0.0,413,4.85,13.2,0.0,1,28.0,2.61,5.5,0,0,0,1,0,0,250,250,0,45.930683,5.258156,0.0,230.7,8,2,2.6,0,0.0,-1,0.0,0.0,0.0,0,0.16,1.5674
94064,1626794298815,,,249,253,239,235,,0.24,0.07,1.56,1,-3,-4,0.25,,78,4626,7,39,58,0.88,0.0,411,4.87,13.3,0.0,1,28.2,2.62,5.5,0,0,0,1,0,,,,,,,,,,,,,,,,,,,,
94084,1626794298835,,,249,252,238,235,,0.22,0.08,1.44,1,-2,-2,0.23,,78,4601,7,39,58,0.879,0.0,412,4.86,13.3,0.0,1,27.8,2.61,5.5,0,0,0,1,0,,,,,,,,,,,,,,,,,,,,
94104,1626794298855,,,249,253,238,235,,0.19,0.09,1.33,1,-1,-1,0.21,,78,4610,7,39,58,0.879,0.0,407,4.84,13.3,0.0,1,27.9,2.61,5.5,0,0,0,1,0,,,,,,,,,,,,,,,,,,,,
94124,1626794298875,,,249,253,239,234,,0.15,0.11,1.37,1,0,1,0.19,,78,4612,7,39,58,0.879,0.0,412,4.82,13.2,0.0,1,28.0,1.53,5.5,0,0,0,1,0,,,,,,,,,,,,,,,,,,,,
94144,1626794298894,1,0,249,253,239,234,-1,0.11,0.12,1.57,1,0,1,0.16,0,78,4610,7,39,58,0.879,0.0,412,4.83,13.2,0.0,1,27.9,1.53,5.5,0,0,0,1,0,0,250,250,0,45.930683,5.258156,0.0,230.7,8,2,2.6,0,0.0,-1,0.0,,0.0,0,0.16,1.5691
94164,1626794298914,,,249,252,239,235,,0.07,0.12,1.76,1,0,1,0.14,,78,4583,7,39,58,0.879,0.0,409,4.8,13.3,0.0,1,27.6,1.51,5.5,0,0,0,1,0,,,,,,,,,,,,,,,,,,,,
94184,1626794298934,,,249,253,239,235,,0.03,0.1,1.93,1,-0,-0,0.1,,78,4605,7,39,57,0.88,0.0,411,4.85,13.0,0.0,1,27.6,1.52,5.5,0,0,0,1,0,,,,,,,,,,,,,,,,,,,,
94204,1626794298954,,,249,253,238,235,,0.01,0.11,2.09,0,-2,-2,0.11,,78,4615,7,39,57,0.881,0.0,408,4.88,13.0,0.0,1,27.7,1.53,5.5,0,0,0,1,0,,,,,,,,,,,,,,,,,,,,
94224,1626794298974,,,249,253,239,235,,0.02,0.12,2.23,0,-3,-3,0.12,,78,4619,7,39,57,0.883,0.0,408,4.89,13.0,0.0,1,27.8,2.61,5.5,0,0,0,1,0,,,,,,,,,,,,,,,,,,,,
94244,1626794298994,0,2,249,252,239,235,-2,0.06,0.12,2.25,0,-5,-4,0.13,0,78,4642,7,39,57,0.883,0.0,412,4.87,13.1,0.0,1,28.1,2.62,5.5,0,0,0,1,0,0,250,250,0,45.930683,5.258156,0.0,230.7,8,2,2.6,0,0.0,-1,0.0,0.0,0.0,0,0.16,1.5707
94264,1626794299004,,,249,252,239,235,,0.09,0.1,2.19,0,-5,-4,0.14,,78,4594,7,39,57,0.885,0.0,408,4.86,13.2,0.0,1,27.5,2.59,5.5,0,0,0,1,0,,,,,,,,,,,,,,,,,,,,
94284,1626794299024,,,249,251,239,235,,0.13,0.07,2.02,0,-5,-5,0.14,,78,4620,7,39,57,0.886,0.0,415,4.86,13.3,0.0,1,27.8,2.61,5.5,0,0,0,1,0,,,,,,,,,,,,,,,,,,,,
94304,1626794299044,,,249,252,239,235,,0.15,0.02,1.87,1,-4,-4,0.16,,78,4598,7,39,57,0.887,0.0,412,4.87,13.3,0.0,1,27.5,2.6,5.5,0,0,0,1,0,,,,,,,,,,,,,,,,,,,,
94324,1626794299064,,,249,253,238,235,,0.17,-0.01,1.72,0,-2,-3,0.17,,78,4598,7,39,57,0.888,0.0,411,4.84,13.2,0.0,1,27.5,2.6,5.5,0,0,0,1,0,,,,,,,,,,,,,,,,,,,,
94344,1626794299092,0,1,249,252,239,234,-1,0.17,-0.04,1.59,0,-1,-2,0.18,0,78,4593,7,39,57,0.888,0.0,408,4.88,13.3,0.0,1,27.5,2.59,5.5,0,0,0,1,0,0,250,250,0,45.930683,5.258156,0.0,230.7,8,2,2.6,0,0.0,-1,0.0,,0.0,0,0.16,1.5724
94364,1626794299112,,,249,253,239,234,,0.17,-0.05,1.47,0,0,-0,0.18,,78,4553,7,39,57,0.888,0.0,406,4.87,13.3,0.0,1,27.0,2.58,5.5,0,0,0,1,0,,,,,,,,,,,,,,,,,,,,
94384,1626794299132,,,249,253,239,235,,0.15,-0.02,1.35,1,2,2,0.15,,78,4633,7,39,57,0.887,0.0,409,4.87,13.3,0.0,1,28.0,2.62,5.5,0,0,0,1,0,,,,,,,,,,,,,,,,,,,,
94404,1626794299152,,,249,253,239,235,,0.13,0.01,1.27,1,3,3,0.13,,78,4562,7,39,57,0.887,0.0,411,4.83,13.3,0.0,1,27.1,2.59,5.5,0,0,0,1,0,,,,,,,,,,,,,,,,,,,,
94424,1626794299172,,,249,253,239,235,,0.1,0.02,1.23,1,4,5,0.1,,78,4547,7,39,58,0.886,0.0,405,4.83,13.3,0.0,1,27.1,1.5,5.5,0,0,0,1,0,,,,,,,,,,,,,,,,,,,,
94444,1626794299193,-0,1,249,253,238,235,-2,0.07,0.03,1.39,1,4,5,0.08,0,78,4614,7,39,58,0.886,0.0,411,4.8,13.2,0.0,1,28.0,1.53,5.5,0,0,0,1,0,0,250,250,0,45.930683,5.258156,0.0,230.7,8,2,2.6,0,0.0,-1,0.0,0.0,0.0,0,0.16,1.5741
94464,1626794299213,,,249,252,239,235,,0.03,0.04,1.58,1,3,5,0.05,,78,4527,7,39,58,0.885,0.0,403,4.83,13.3,0.0,1,26.9,2.58,5.5,0,0,0,1,0,,,,,,,,,,,,,,,,,,,,
94484,1626794299233,,,249,253,239,234,,-0.0,0.04,1.77,1,2,3,0.04,,78,4610,7,39,58,0.885,0.0,407,4.85,13.1,0.0,1,28.3,2.61,5.5,0,0,0,1,0,,,,,,,,,,,,,,,,,,,,
94504,1626794299253,,,249,252,239,234,,-0.04,0.04,1.94,0,1,1,0.06,,78,4609,7,39,57,0.883,0.0,405,4.83,13.2,0.0,1,27.4,2.6,5.5,0,0,0,1,0,,,,,,,,,,,,,,,,,,,,
94524,1626794299273,,,249,253,239,234,,-0.05,0.05,2.1,0,-0,-0,0.07,,78,4603,7,39,57,0.882,0.0,407,4.83,13.1,0.0,1,27.6,2.6,5.5,0,0,0,1,0,,,,,,,,,,,,,,,,,,,,
94544,1626794299293,1,1,249,253,239,235,-2,-0.04,0.08,2.17,0,-2,-1,0.09,0,78,4658,7,39,57,0.88,0.0,415,4.85,13.0,0.0,1,28.3,1.55,5.7,0,0,0,1,0,0,250,250,0,45.930683,5.258156,0.0,230.7,8,2,2.6,0,0.0,-1,0.0,,0.0,0,0.16,1.5757
94564,1626794299313,,,249,251,239,234,,0.0,0.09,2.21,0,-2,-2,0.09,,78,4586,7,39,57,0.879,0.0,411,4.82,13.2,0.0,1,27.4,2.59,5.7,0,0,0,1,0,,,,,,,,,,,,,,,,,,,,
94584,1626794299333,,,249,252,239,235,,0.06,0.05,2.04,0,-3,-2,0.08,,78,4701,7,39,57,0.878,0.0,417,4.85,13.1,0.0,1,28.8,2.66,5.7,0,0,0,1,0,,,,,,,,,,,,,,,,,,,,
94604,1626794299353,,,249,252,239,235,,0.1,0.0,1.88,0,-2,-2,0.1,,78,4642,7,39,57,0.877,0.0,419,4.88,13.2,0.0,1,28.1,2.62,5.7,0,0,0,1,0,,,,,,,,,,,,,,,,,,,,
94624,1626794299373,,,249,253,239,234,,0.12,-0.06,1.74,0,-1,-1,0.13,,78,4643,7,39,57,0.876,0.0,417,4.87,13.3,0.0,1,28.1,2.62,5.7,0,0,0,1,0,,,,,,,,,,,,,,,,,,,,
94644,1626794299393,-1,1,249,253,238,235,-3,0.11,-0.05,1.61,0,-0,1,0.12,0,78,4698,7,39,57,0.876,0.0,419,4.85,13.3,0.0,1,28.8,2.66,5.7,0,0,0,1,0,0,250,250,0,45.930683,5.258156,0.0,230.7,8,2,2.6,0,0.0,-1,0.0,0.0,0.0,0,0.16,1.5774
94664,1626794299413,,,249,253,239,235,,0.08,-0.03,1.5,0,0,2,0.08,,78,4620,7,39,57,0.875,0.0,414,4.82,13.2,0.0,1,27.8,1.53,5.7,0,0,0,1,0,,,,,,,,,,,,,,,,,,,,
94684,1626794299433,,,249,252,239,235,,0.04,-0.01,1.48,1,2,3,0.04,,78,4587,7,39,57,0.874,0.0,416,4.87,13.2,0.0,1,27.4,2.59,5.7,0,0,0,1,0,,,,,,,,,,,,,,,,,,,,
94704,1626794299453,,,249,253,238,235,,0.0,-0.0,1.65,1,2,3,0.0,,78,4594,7,39,57,0.873,0.0,412,4.83,13.1,0.0,1,27.5,1.51,5.7,0,0,0,1,0,,,,,,,,,,,,,,,,,,,,
94724,1626794299473,,,249,252,239,235,,-0.04,0.0,1.83,0,1,2,0.04,,78,4602,7,39,57,0.873,0.0,407,4.8,13.2,0.0,1,27.6,1.52,5.7,0,0,0,1,0,,,,,,,,,,,,,,,,,,,,
94744,1626794299491,0,0,249,253,238,235,-2,-0.07,0.01,1.99,0,-0,0,0.07,0,78,4577,7,39,57,0.872,0.0,411,4.82,13.2,0.0,1,27.3,2.59,5.5,0,0,0,1,0,0,250,250,0,45.930683,5.258156,0.0,230.7,8,2,2.6,0,0.0,-1,0.0,,0.0,0,0.16,1.5791
94764,1626794299511,,,249,253,238,235,,-0.09,0.04,2.15,0,-2,-2,0.1,,78,4573,7,39,57,0.873,0.0,405,4.88,13.0,0.0,1,27.2,2.59,5.5,0,0,0,1,0,,,,,,,,,,,,,,,,,,,,
94784,1626794299531,,,249,253,239,235,,-0.09,0.07,2.29,0,-3,-3,0.11,,78,4580,7,39,57,0.873,0.0,407,4.88,13.0,0.0,1,27.3,2.59,5.5,0,0,0,1,0,,,,,,,,,,,,,,,,,,,,
94804,1626794299551,,,249,252,238,235,,-0.08,0.11,2.4,0,-4,-4,0.14,,78,4580,7,39,57,0.874,0.0,407,4.88,13.0,0.0,1,27.3,2.59,5.5,0,0,0,1,0,,,,,,,,,,,,,,,,,,,,
94824,1626794299571,,,249,252,238,235,,-0.05,0.12,2.42,0,-5,-5,0.13,,78,4578,7,39,57,0.875,0.0,406,4.82,13.1,0.0,1,27.3,2.59,5.5,0,0,0,1,0,,,,,,,,,,,,,,,,,,,,
94844,1626794299592,0,2,249,252,239,235,-2,-0.0,0.12,2.39,0,-6,-5,0.12,0,78,4575,7,39,57,0.876,0.0,412,4.83,13.2,0.0,1,27.2,2.59,5.4,0,0,0,1,0,0,250,250,0,45.930683,5.258156,0.0,230.7,8,2,2.6,0,0.0,-1,0.0,0.0,0.0,0,0.16,1.5807
94864,1626794299612,,,249,253,238,235,,0.04,0.11,2.21,0,-6,-5,0.12,,78,4589,7,39,57,0.878,0.0,406,4.89,13.0,0.0,1,27.4,2.59,5.4,0,0,0,1,0,,,,,,,,,,,,,,,,,,,,
94884,1626794299632,,,249,252,239,235,,0.09,0.09,2.04,0,-6,-5,0.12,,78,4543,7,39,57,0.879,0.0,408,4.85,13.2,0.0,1,26.8,2.58,5.4,0,0,0,1,0,,,,,,,,,,,,,,,,,,,,
94904,1626794299652,,,249,252,239,234,,0.13,0.03,1.88,0,-4,-5,0.13,,78,4578,7,39,57,0.879,0.0,406,4.85,13.2,0.0,1,27.3,2.59,5.4,0,0,0,1,0,,,,,,,,,,,,,,,,,,,,
94924,1626794299672,,,249,253,239,235,,0.16,-0.03,1.73,0,-3,-4,0.16,,78,4565,7,39,57,0.879,0.0,409,4.85,13.2,0.0,1,27.1,2.59,5.4,0,0,0,1,0,,,,,,,,,,,,,,,,,,,,
94944,1626794299691,0,1,249,252,239,235,-2,0.19,-0.08,1.6,0,-2,-3,0.2,0,78,4586,7,39,57,0.879,0.0,411,4.86,13.2,0.0,1,27.4,2.59,5.4,0,0,0,1,0,0,250,250,0,45.930683,5.258156,0.0,230.7,8,2,2.6,0,0.0,-1,0.0,,0.0,0,0.16,1.5824
94964,1626794299711,,,249,253,239,235,,0.19,-0.13,1.48,0,-1,-2,0.23,,78,4601,7,39,57,0.879,0.0,410,4.87,13.3,0.0,1,27.6,2.6,5.4,0,0,0,1,0,,,,,,,,,,,,,,,,,,,,
94984,1626794299731,,,249,252,239,235,,0.19,-0.15,1.36,0,1,0,0.24,,78,4577,7,39,57,0.88,0.0,411,4.86,13.3,0.0,1,27.3,2.59,5.4,0,0,0,1,0,,,,,,,,,,,,,,,,,,,,
95004,1626794299751,,,249,252,239,235,,0.17,-0.13,1.26,0,2,2,0.21,,78,4585,7,39,57,0.88,0.0,412,4.88,13.3,0.0,1,27.4,2.59,5.4,0,0,0,1,0,,,,,,,,,,,,,,,,,,,,
95024,1626794299771,,,249,253,239,234,,0.13,-0.1,1.16,0,3,4,0.16,,78,4548,7,39,57,0.88,0.0,404,4.84,13.3,0.0,1,26.9,2.58,5.4,0,0,0,1,0,,,,,,,,,,,,,,,,,,,,
95044,1626794299791,1,2,249,252,239,234,-2,0.12,-0.06,1.07,1,4,5,0.13,0,78,4558,7,39,57,0.88,0.0,409,4.86,13.2,0.0,1,27.0,1.5,5.4,0,0,0,1,0,0,250,250,0,45.930683,5.258156,0.0,230.7,8,2,2.6,0,0.0,-1,0.0,0.0,0.0,0,0.16,1.5841
95064,1626794299809,,,249,253,239,235,,0.08,-0.01,1.2,1,4,5,0.08,,78,4579,7,39,57,0.881,0.0,403,4.84,13.2,0.0,1,27.3,1.51,5.4,0,0,0,1,0,,,,,,,,,,,,,,,,,,,,
95084,1626794299829,,,249,252,239,235,,0.04,0.01,1.41,1,3,4,0.04,,78,4554,7,39,57,0.881,0.0,410,4.8,13.3,0.0,1,27.0,2.58,5.4,0,0,0,1,0,,,,,,,,,,,,,,,,,,,,
95104,1626794299849,,,249,252,239,235,,-0.0,0.02,1.61,1,3,4,0.02,,78,4559,7,39,58,0.88,0.0,409,4.82,13.3,0.0,1,27.3,2.59,5.4,0,0,0,1,0,,,,,,,,,,,,,,,,,,,,
95124,1626794299869,,,249,252,239,235,,-0.04,-0.0,1.8,0,2,3,0.04,,78,4574,7,39,57,0.88,0.0,405,4.85,13.1,0.0,1,26.9,1.49,5.4,0,0,0,1,0,,,,,,,,,,,,,,,,,,,,
95144,1626794299893,-0,2,249,253,239,234,-2,-0.08,-0.01,1.97,0,1,1,0.08,0,78,4556,7,39,58,0.88,0.0,405,4.81,13.1,0.0,1,27.2,1.5,5.4,0,0,0,1,0,0,250,250,0,45.930683,5.258156,0.0,230.7,8,2,2.6,0,0.0,-1,0.0,,0.0,0,0.16,1.5857
95164,1626794299913,,,249,252,239,235,,-0.11,-0.01,2.12,0,-1,-1,0.11,,78,4563,7,39,57,0.881,0.0,400,4.88,13.0,0.0,1,27.1,1.5,5.4,0,0,0,1,0,,,,,,,,,,,,,,,,,,,,
95184,1626794299933,,,249,252,239,234,,-0.13,0.02,2.27,0,-3,-3,0.14,,78,4556,7,39,57,0.881,0.0,406,4.82,13.0,0.0,1,27.0,1.5,5.4,0,0,0,1,0,,,,,,,,,,,,,,,,,,,,
95204,1626794299953,,,249,253,238,235,,-0.14,0.04,2.4,0,-4,-4,0.15,,78,4569,7,39,57,0.882,0.0,404,4.87,12.9,0.0,1,27.2,1.5,5.4,0,0,0,1,0,,,,,,,,,,,,,,,,,,,,
95224,1626794299973,,,249,252,239,235,,-0.15,0.08,2.52,0,-5,-5,0.17,,78,4592,7,39,57,0.882,0.0,401,4.88,13.1,0.0,1,27.5,2.6,5.4,0,0,0,1,0,,,,,,,,,,,,,,,,,,,,
95244,1626794299993,0,1,249,252,239,235,-3,-0.11,0.1,2.64,0,-6,-5,0.15,0,78,4593,7,39,57,0.882,0.0,411,4.87,13.0,0.0,1,27.5,2.59,5.5,0,0,0,1,0,0,250,250,0,45.930683,5.258156,0.0,230.7,8,2,2.6,0,0.0,-1,0.0,0.0,0.0,0,0.16,1.5874
95264,1626794300005,,,249,253,239,235,,-0.07,0.11,2.62,0,-6,-6,0.13,,78,4574,7,39,57,0.882,0.0,408,4.83,13.2,0.0,1,27.2,2.59,5.5,0,0,0,1,0,,,,,,,,,,,,,,,,,,,,
95284,1626794300025,,,249,252,239,234,,-0.03,0.11,2.47,0,-6,-6,0.12,,78,4589,7,39,57,0.882,0.0,406,4.87,13.1,0.0,1,27.4,2.59,5.5,0,0,0,1,0,,,,,,,,,,,,,,,,,,,,
95304,1626794300045,,,249,251,239,234,,0.02,0.09,2.28,0,-6,-6,0.1,,78,4591,7,39,57,0.883,0.0,408,4.86,13.3,0.0,1,27.4,2.59,5.5,0,0,0,1,0,,,,,,,,,,,,,,,,,,,,
95324,1626794300065,,,249,253,239,235,,0.07,0.02,2.11,0,-5,-5,0.07,,78,4606,7,39,57,0.882,0.0,406,4.88,13.3,0.0,1,27.6,2.6,5.5,0,0,0,1,0,,,,,,,,,,,,,,,,,,,,
95344,1626794300093,-0,2,249,252,239,235,-2,0.1,-0.02,1.94,0,-3,-4,0.1,0,78,4629,7,39,58,0.882,0.0,417,4.87,13.3,0.0,1,28.2,2.62,5.5,0,0,0,1,0,0,250,250,0,45.930683,5.258156,0.0,230.7,8,2,2.6,0,0.0,-1,0.0,,0.0,0,0.16,1.5891
95364,1626794300113,,,249,252,239,235,,0.1,-0.04,1.79,0,-1,-2,0.11,,78,4621,7,39,57,0.882,0.0,409,4.87,13.3,0.0,1,27.8,2.61,5.5,0,0,0,1,0,,,,,,,,,,,,,,,,,,,,
95384,1626794300133,,,249,253,239,235,,0.09,-0.02,1.66,0,-0,0,0.09,,78,4672,7,39,57,0.882,0.0,412,4.86,13.3,0.0,1,28.5,2.64,5.5,0,0,0,1,0,,,,,,,,,,,,,,,,,,,,
95404,1626794300153,,,249,253,239,235,,0.05,0.02,1.65,0,0,1,0.05,,78,4637,7,39,57,0.882,0.0,413,4.85,13.2,0.0,1,28.0,2.62,5.5,0,0,0,1,0,,,,,,,,,,,,,,,,,,,,
95424,1626794300173,,,249,251,239,234,,0.01,0.04,1.8,0,0,0,0.04,,78,4600,7,39,57,0.881,0.0,408,4.83,13.1,0.0,1,27.6,1.52,5.5,0,0,0,1,0,,,,,,,,,,,,,,,,,,,,
95444,1626794300193,-1,2,249,253,238,235,-2,-0.03,0.06,1.97,0,-0,-1,0.07,0,78,4641,7,39,57,0.88,0.0,417,4.84,13.1,0.0,1,28.1,1.54,5.6,0,0,0,1,0,0,250,250,0,45.930683,5.258156,0.0,230.7,8,2,2.6,0,0.0,-1,0.0,0.0,0.0,0,0.16,1.5907
95464,1626794300213,,,249,253,238,235,,-0.06,0.08,2.12,0,-2,-2,0.09,,78,4597,7,39,57,0.88,0.0,412,4.86,13.0,0.0,1,27.5,1.52,5.6,0,0,0,1,0,,,,,,,,,,,,,,,,,,,,
95484,1626794300233,,,249,252,238,235,,-0.08,0.08,2.27,0,-3,-3,0.12,,78,4567,7,39,57,0.879,0.0,408,4.86,13.1,0.0,1,27.1,1.5,5.6,0,0,0,1,0,,,,,,,,,,,,,,,,,,,,
95504,1626794300253,,,249,252,239,234,,-0.08,0.08,2.4,0,-4,-5,0.11,,79,4536,7,39,57,0.88,0.0,411,4.86,13.0,0.0,1,26.8,2.57,5.6,0,0,0,1,0,,,,,,,,,,,,,,,,,,,,
95524,1626794300273,,,249,253,239,235,,-0.08,0.11,2.52,0,-6,-6,0.14,,79,4513,7,39,57,0.879,0.0,406,4.87,13.0,0.0,1,26.5,2.56,5.6,0,0,0,1,0,,,,,,,,,,,,,,,,,,,,
95544,1626794300292,-1,2,249,253,239,234,-2,-0.07,0.15,2.64,0,-7,-7,0.16,0,78,4509,7,39,57,0.879,0.0,403,4.87,13.0,0.0,1,26.4,2.56,5.3,0,0,0,1,0,0,250,250,0,45.930683,5.258156,0.0,230.7,8,2,2.6,0,0.0,-1,0.0,,0.0,0,0.16,1.5924
95564,1626794300312,,,249,253,239,235,,-0.08,0.18,2.74,0,-7,-7,0.2,,79,4511,7,39,57,0.878,0.0,396,4.91,13.0,0.0,1,26.4,2.56,5.3,0,0,0,1,0,,,,,,,,,,,,,,,,,,,,
95584,1626794300332,,,249,253,239,235,,-0.07,0.2,2.84,0,-7,-7,0.21,,78,4507,7,39,57,0.878,0.0,400,4.89,13.0,0.0,1,26.4,2.57,5.3,0,0,0,1,0,,,,,,,,,,,,,,,,,,,,
95604,1626794300352,,,249,252,239,235,,-0.07,0.22,2.93,0,-8,-8,0.23,,79,4507,7,39,57,0.878,0.0,402,4.89,13.0,0.0,1,26.4,2.56,5.3,0,0,0,1,0,,,,,,,,,,,,,,,,,,,,
95624,1626794300372,,,249,253,239,234,,-0.07,0.27,3.01,0,-8,-8,0.28,,79,4544,7,39,57,0.877,0.0,398,4.88,13.1,0.0,1,26.9,2.58,5.3,0,0,0,1,0,,,,,,,,,,,,,,,,,,,,
95644,1626794300394,1,0,249,252,239,235,-2,-0.07,0.29,2.99,0,-8,-8,0.3,0,79,4503,7,39,58,0.877,0.0,403,4.82,13.1,0.0,1,26.5,2.57,5.3,0,0,0,1,0,0,250,250,0,45.930683,5.258156,0.0,230.7,8,2,2.6,0,0.0,-1,0.0,0.0,0.0,0,0.16,1.5941
95664,1626794300414,,,249,253,239,234,,-0.05,0.3,3.07,0,-8,-8,0.3,,78,4527,7,39,57,0.878,0.0,398,4.83,13.1,0.0,1,26.6,2.57,5.3,0,0,0,1,0,,,,,,,,,,,,,,,,,,,,
95684,1626794300434,,,249,253,238,235,,-0.02,0.31,3.05,1,-8,-8,0.31,,79,4539,7,39,58,0.878,0.0,403,4.82,13.2,0.0,1,27.0,2.58,5.3,0,0,0,1,0,,,,,,,,,,,,,,,,,,,,
95704,1626794300454,,,249,252,239,234,,0.01,0.33,2.98,1,-8,-8,0.33,,79,4570,7,39,57,0.879,0.0,401,4.85,13.2,0.0,1,27.2,2.59,5.3,0,0,0,1,0,,,,,,,,,,,,,,,,,,,,
95724,1626794300474,,,249,251,239,235,,0.04,0.34,2.75,1,-7,-8,0.34,,79,4574,7,39,57,0.879,0.0,405,4.86,13.1,0.0,1,27.2,2.59,5.3,0,0,0,1,0,,,,,,,,,,,,,,,,,,,,
95744,1626794300492,1,0,249,252,238,235,-2,0.07,0.31,2.54,1,-6,-8,0.32,0,79,4545,7,39,57,0.88,0.0,409,4.85,13.1,0.0,1,26.9,2.58,5.4,0,0,0,1,0,0,250,250,0,45.930683,5.258156,0.0,230.7,8,2,2.6,0,0.0,-1,0.0,,0.0,0,0.16,1.5957
95764,1626794300512,,,249,253,239,235,,0.12,0.27,2.34,1,-5,-7,0.29,,79,4570,7,39,58,0.88,0.0,407,4.85,13.3,0.0,1,27.4,2.59,5.4,0,0,0,1,0,,,,,,,,,,,,,,,,,,,,
95784,1626794300532,,,249,251,239,235,,0.16,0.19,2.16,0,-4,-7,0.25,,79,4559,7,39,58,0.88,0.0,407,4.85,13.2,0.0,1,27.3,2.59,5.4,0,0,0,1,0,,,,,,,,,,,,,,,,,,,,
95804,1626794300552,,,249,252,239,235,,0.19,0.1,1.99,0,-3,-6,0.22,,79,4559,7,39,58,0.881,0.0,405,4.87,13.3,0.0,1,27.3,2.59,5.4,0,0,0,1,0,,,,,,,,,,,,,,,,,,,,
95824,1626794300572,,,249,252,239,234,,0.22,0.01,1.84,0,-1,-4,0.22,,79,4596,7,39,58,0.881,0.0,404,4.85,13.2,0.0,1,27.8,2.6,5.4,0,0,0,1,0,,,,,,,,,,,,,,,,,,,,
95844,1626794300594,1,1,249,252,239,235,-3,0.22,-0.02,1.7,0,0,-2,0.22,0,78,4579,7,39,58,0.882,0.0,413,4.87,13.3,0.0,1,27.5,2.59,5.4,0,0,0,1,0,0,250,250,0,45.930683,5.258156,0.0,230.7,8,2,2.6,0,0.0,-1,0.0,0.0,0.0,0,0.16,1.5974
95864,1626794300614,,,249,252,239,235,,0.2,-0.02,1.57,1,2,-0,0.21,,79,4603,7,39,58,0.882,0.0,404,4.84,13.3,0.0,1,27.8,2.61,5.4,0,0,0,1,0,,,,,,,,,,,,,,,,,,,,
95884,1626794300634,,,249,253,239,234,,0.19,-0.01,1.45,1,2,2,0.19,,79,4588,7,39,58,0.882,0.0,413,4.87,13.3,0.0,1,27.7,2.6,5.4,0,0,0,1,0,,,,,,,,,,,,,,,,,,,,
