"Interval"|"ms"|0|0|1,"Utc"|"ms"|0|0|1,"Brake_F"|"Bar"|0|2000|10,"Brake_R"|"Bar"|0|2000|10,"Height_RF"|"mm"|0|255|50,"Height_LF"|"mm"|0|255|50,"Height_LR"|"mm"|0|80|50,"Height_RR"|"mm"|0|255|50,"Steering"|"deg"|-100|100|10,"AccelX"|"G"|-3.0|3.0|50,"AccelY"|"G"|-3.0|3.0|50,"AccelZ"|"G"|-3.0|3.0|50,"Yaw"|"Deg/Sec"|-120|120|50,"Pitch"|"Deg/Sec"|-120|120|50,"Roll"|"Deg/Sec"|-120|120|50,"Gsum"|"G"|0.0|3.0|50,"Log_Button"|""|0.0|10.0|10,"WaterTemp"|"C"|0|150|50,"RPM"|"tr/min"|0|14000|50,"TPS"|"%"|0|100|50,"AirTemp"|"C"|0|150|50,"MAP"|"KPa"|0|100|50,"Lambda"|""|0.5|1.5|50,"SpeedDTA"|"kph"|0.0|250.0|50,"OilPress"|"KPa"|0|1500|50,"FuelPressur"|"Bar"|0.0|10.0|50,"Batterie"|"V"|0.0|20.0|50,"ConsoKm"|"L/100km"|0.0|200.0|50,"Gear"|""|0|6|50,"AdvIgnition"|"Deg"|-20.0|70.0|50,"Injection"|"ms"|0.0|10.0|50,"ConsoHr"|"L/Hr"|0.0|10000.0|50,"LC_But_Pres"|""|0|1|50,"LC_Active"|""|0|1|50,"TractionOn"|""|0|1|50,"TractionWet"|""|0|1|50,"FanOn"|""|0|1|50,"RD_Speed"|"km/h"|-30|250|10,"RUD_Speed"|"km/h"|-30|250|10,"LD_Speed"|"km/h"|-30|250|10,"LUD_Speed"|"km/h"|-30|250|10,"Latitude"|"Degrees"|-180.0|180.0|10,"Longitude"|"Degrees"|-180.0|180.0|10,"Speed"|"kph"|0.0|150.0|10,"Altitude"|"m"|0.0|4000.0|10,"GPSSats"|""|0|20|10,"GPSQual"|""|0|5|10,"GPSDOP"|""|0.0|20.0|10,"LapCount"|""|0|0|10,"LapTime"|"Min"|0.0|0.0|10,"Sector"|""|0|0|10,"SectorTime"|"Min"|0.0|0.0|10,"PredTime"|"Min"|0.0|0.0|5,"ElapsedTime"|"Min"|0.0|0.0|10,"CurrentLap"|""|0|0|10,"Distance"|"km"|0.0|0.0|10,"SessionTime"|"Min"|0.0|0.0|10
345064,1626790950143,,,250,253,238,233,,-0.08,0.05,2.78,0,-5,-2,0.09,,89,4525,7,39,57,0.887,0.0,369,4.83,13.0,0.0,1,26.6,2.57,5.3,0,0,1,1,0,,,,,,,,,,,,,,,,,,,,
345084,1626790950163,,,250,253,239,233,,-0.09,0.05,2.87,0,-6,-4,0.1,,89,4546,7,39,57,0.887,0.0,369,4.86,12.8,0.0,1,26.9,2.58,5.3,0,0,1,1,0,,,,,,,,,,,,,,,,,,,,
345104,1626790950183,,,250,253,239,233,,-0.08,0.04,2.96,0,-7,-5,0.09,,89,4559,7,39,57,0.886,0.0,375,4.85,13.1,0.0,1,27.0,2.59,5.3,0,0,1,1,0,,,,,,,,,,,,,,,,,,,,
345124,1626790950205,,,250,253,239,233,,-0.08,0.05,3.0,-0,-8,-6,0.1,,89,4533,7,39,57,0.886,0.0,370,4.86,12.9,0.0,1,26.7,2.57,5.3,0,0,1,1,0,,,,,,,,,,,,,,,,,,,,
345144,1626790950225,0,2,250,253,239,233,-6,-0.06,0.05,2.95,-0,-9,-7,0.08,1,89,4550,7,39,57,0.886,0.0,378,4.82,13.1,0.0,1,26.9,2.58,5.3,0,0,1,1,0,0,250,250,0,45.930698,5.258139,0.0,230.7,11,3,1.2,0,0.0,-1,0.0,,0.0,0,1.87,5.7524
345164,1626790950245,,,250,253,238,233,,-0.06,0.07,2.85,-0,-9,-8,0.09,,89,4506,7,39,57,0.887,0.0,370,4.84,13.1,0.0,1,26.4,1.47,5.3,0,0,1,1,0,,,,,,,,,,,,,,,,,,,,
345184,1626790950265,,,250,253,238,233,,-0.04,0.07,2.76,-0,-9,-8,0.08,,89,4498,7,39,57,0.888,0.0,373,4.87,13.1,0.0,1,26.3,2.55,5.3,0,0,1,1,0,,,,,,,,,,,,,,,,,,,,
345204,1626790950285,,,250,253,238,233,,-0.02,0.07,2.64,-0,-9,-9,0.07,,89,4533,7,39,57,0.889,0.0,365,4.86,13.1,0.0,1,26.7,1.48,5.3,0,0,1,1,0,,,,,,,,,,,,,,,,,,,,
345224,1626790950305,,,250,253,239,233,,-0.01,0.08,2.58,-0,-10,-9,0.08,,89,4479,7,39,57,0.89,0.0,370,4.86,13.1,0.0,1,26.0,2.54,5.3,0,0,1,1,0,,,,,,,,,,,,,,,,,,,,
345244,1626790950325,-0,2,250,253,239,233,-6,-0.01,0.1,2.42,-0,-9,-9,0.1,1,89,4533,7,39,57,0.891,0.0,369,4.81,13.0,0.0,1,26.7,1.48,5.3,0,0,1,1,0,0,250,250,0,45.930698,5.258139,0.0,230.7,11,3,1.2,0,0.0,-1,0.0,0.0,0.0,0,1.87,5.7541
345264,1626790950345,,,250,253,238,233,,0.0,0.09,2.28,-0,-9,-9,0.09,,89,4523,7,39,57,0.892,0.0,372,4.87,13.1,0.0,1,26.6,2.57,5.3,0,0,1,1,0,,,,,,,,,,,,,,,,,,,,
345284,1626790950365,,,250,253,239,233,,0.01,0.09,2.26,-0,-9,-10,0.1,,89,4463,7,39,57,0.893,0.0,369,4.8,13.0,0.0,1,25.8,1.44,5.2,0,0,1,1,0,,,,,,,,,,,,,,,,,,,,
345304,1626790950385,,,250,253,239,233,,0.02,0.12,2.27,-0,-9,-10,0.12,,89,4498,7,39,57,0.894,0.0,366,4.86,13.1,0.0,1,26.3,2.55,5.2,0,0,1,1,0,,,,,,,,,,,,,,,,,,,,
345324,1626790950405,,,250,253,238,233,,0.01,0.14,2.2,-0,-9,-10,0.14,,89,4476,7,39,57,0.894,0.0,364,4.83,13.0,0.0,1,26.0,2.54,5.2,0,0,1,1,0,,,,,,,,,,,,,,,,,,,,
345344,1626790950425,0,2,250,253,239,233,-5,0.01,0.15,2.25,-0,-9,-11,0.15,1,89,4460,7,39,57,0.894,0.0,364,4.83,13.0,0.0,1,25.8,2.53,5.2,0,0,1,1,0,0,250,250,0,45.930698,5.258139,0.0,230.7,11,3,1.2,0,0.0,-1,0.0,,0.0,0,1.87,5.7557
345364,1626790950445,,,250,253,239,233,,0.02,0.15,2.24,-0,-9,-11,0.15,,89,4530,7,39,57,0.895,0.0,361,4.85,13.1,0.0,1,26.7,2.57,5.2,0,0,1,1,0,,,,,,,,,,,,,,,,,,,,
345384,1626790950465,,,250,253,238,233,,0.02,0.17,2.27,-0,-9,-12,0.17,,89,4498,7,39,57,0.894,0.0,372,4.83,13.1,0.0,1,26.3,1.46,5.4,0,0,1,1,0,,,,,,,,,,,,,,,,,,,,
345404,1626790950485,,,250,253,239,233,,0.02,0.18,2.24,-0,-9,-12,0.18,,89,4503,7,39,57,0.894,0.0,365,4.85,13.1,0.0,1,26.3,2.56,5.4,0,0,1,1,0,,,,,,,,,,,,,,,,,,,,
345424,1626790950505,,,250,253,239,233,,0.02,0.17,2.19,-0,-9,-12,0.17,,89,4522,7,39,57,0.894,0.0,371,4.83,13.0,0.0,1,26.6,1.48,5.4,0,0,1,1,0,,,,,,,,,,,,,,,,,,,,
345444,1626790950525,-1,2,250,253,239,233,-6,0.02,0.19,2.23,-0,-9,-13,0.19,1,89,4472,7,39,57,0.894,0.0,366,4.85,13.0,0.0,1,25.9,2.53,5.4,0,0,1,1,0,0,250,250,0,45.930698,5.258139,0.0,230.7,11,3,1.2,0,0.0,-1,0.0,0.0,0.0,0,1.87,5.7574
345464,1626790950545,,,250,253,239,233,,0.02,0.2,2.25,-0,-10,-13,0.2,,89,4511,7,39,58,0.894,0.0,366,4.85,13.1,0.0,1,26.6,2.56,5.4,0,0,1,1,0,,,,,,,,,,,,,,,,,,,,
345484,1626790950565,,,250,253,239,233,,0.01,0.21,2.28,-0,-10,-13,0.21,,89,4464,7,39,57,0.894,0.0,366,4.83,12.9,0.0,1,25.8,2.53,5.3,0,0,1,1,0,,,,,,,,,,,,,,,,,,,,
345504,1626790950585,,,250,253,239,233,,0.01,0.2,2.31,-0,-10,-13,0.2,,89,4497,7,39,58,0.895,0.0,365,4.83,13.1,0.0,1,26.5,2.55,5.3,0,0,1,1,0,,,,,,,,,,,,,,,,,,,,
345524,1626790950605,,,250,253,239,233,,0.01,0.19,2.3,-0,-10,-13,0.2,,89,4516,7,39,57,0.894,0.0,367,4.85,13.0,0.0,1,26.5,2.57,5.3,0,0,1,1,0,,,,,,,,,,,,,,,,,,,,
345544,1626790950625,-1,2,250,253,238,233,-6,0.02,0.21,2.42,-0,-11,-14,0.21,1,89,4453,7,39,57,0.894,0.0,371,4.82,13.0,0.0,1,25.7,2.52,5.3,0,0,1,1,0,0,250,250,0,45.930698,5.258139,0.0,230.7,11,3,1.2,0,0.0,-1,0.0,,0.0,0,1.87,5.7591
345564,1626790950645,,,250,253,239,233,,0.01,0.23,2.46,-0,-11,-14,0.23,,89,4516,7,39,58,0.895,0.0,364,4.82,13.1,0.0,1,26.7,2.57,5.3,0,0,1,1,0,,,,,,,,,,,,,,,,,,,,
345584,1626790950665,,,250,253,239,233,,0.01,0.21,2.49,-0,-11,-14,0.21,,89,4497,7,39,57,0.895,0.0,373,4.86,13.1,0.0,1,26.3,2.55,5.4,0,0,1,1,0,,,,,,,,,,,,,,,,,,,,
345604,1626790950685,,,250,253,239,233,,0.0,0.22,2.6,-0,-12,-15,0.22,,89,4488,7,39,58,0.896,0.0,362,4.85,13.1,0.0,1,26.4,2.55,5.4,0,0,1,1,0,,,,,,,,,,,,,,,,,,,,
345624,1626790950705,,,250,253,239,233,,0.02,0.23,2.46,-0,-11,-15,0.23,,89,4595,7,39,57,0.897,0.0,373,4.83,13.0,0.0,1,27.5,1.52,5.4,0,0,1,1,0,,,,,,,,,,,,,,,,,,,,
345644,1626790950725,0,2,250,253,238,233,-6,0.02,0.23,2.38,-0,-11,-15,0.23,1,89,4491,7,39,57,0.897,0.0,371,4.84,13.0,0.0,1,26.2,2.55,5.4,0,0,1,1,0,0,250,250,0,45.930698,5.258139,0.0,230.7,11,3,1.2,0,0.0,-1,0.0,0.0,0.0,0,1.87,5.7607
345664,1626790950745,,,250,253,239,233,,0.03,0.22,2.2,-0,-11,-15,0.22,,89,4562,7,39,58,0.898,0.0,371,4.88,13.1,0.0,1,27.3,2.59,5.4,0,0,1,1,0,,,,,,,,,,,,,,,,,,,,
345684,1626790950765,,,250,253,239,233,,0.06,0.18,2.03,-0,-10,-14,0.18,,89,4574,7,39,57,0.898,0.0,375,4.86,13.1,0.0,1,27.2,2.59,5.5,0,0,1,1,0,,,,,,,,,,,,,,,,,,,,
345704,1626790950785,,,250,253,239,233,,0.08,0.15,1.87,-0,-9,-13,0.17,,89,4544,7,39,57,0.899,0.0,372,4.89,13.1,0.0,1,26.9,2.58,5.5,0,0,1,1,0,,,,,,,,,,,,,,,,,,,,
345724,1626790950804,,,250,253,239,233,,0.1,0.11,1.73,-0,-7,-12,0.14,,89,4643,7,39,58,0.897,0.0,373,4.89,13.1,0.0,1,28.4,2.63,5.5,0,0,1,1,0,,,,,,,,,,,,,,,,,,,,
345744,1626790950824,0,0,250,253,239,233,-5,0.12,0.06,1.6,-0,-5,-10,0.13,0,89,4569,7,39,57,0.897,0.0,374,4.88,13.1,0.0,1,27.2,2.59,5.5,0,0,1,1,0,0,250,250,0,45.930698,5.258139,0.0,230.7,11,3,1.2,0,0.0,-1,0.0,,0.0,0,1.87,5.7624
345764,1626790950844,,,250,253,239,233,,0.11,0.03,1.47,-0,-3,-8,0.12,,89,4598,7,39,57,0.896,0.0,370,4.85,13.1,0.0,1,27.5,2.6,5.5,0,0,1,1,0,,,,,,,,,,,,,,,,,,,,
345784,1626790950864,,,250,253,239,233,,0.12,0.02,1.36,0,-1,-6,0.12,,89,4593,7,39,57,0.895,0.0,380,4.85,13.0,0.0,1,27.5,2.59,5.6,0,0,1,1,0,,,,,,,,,,,,,,,,,,,,
345804,1626790950884,,,250,253,238,233,,0.11,0.01,1.26,0,0,-4,0.11,,89,4527,7,39,57,0.894,0.0,368,4.87,13.0,0.0,1,26.6,2.57,5.6,0,0,1,1,0,,,,,,,,,,,,,,,,,,,,
345824,1626790950904,,,250,253,239,233,,0.1,0.04,1.27,0,2,-2,0.11,,89,4645,7,39,57,0.894,0.0,375,4.85,13.1,0.0,1,28.1,1.54,5.6,0,0,1,1,0,,,,,,,,,,,,,,,,,,,,
345844,1626790950924,0,1,250,253,239,233,-6,0.08,0.07,1.3,0,2,-1,0.11,0,89,4564,7,39,57,0.894,0.0,374,4.85,13.0,0.0,1,27.1,2.57,5.6,0,0,1,1,0,0,250,250,0,45.930698,5.258139,0.0,230.7,11,3,1.2,0,0.0,-1,0.0,0.0,0.0,0,1.87,5.7641
345864,1626790950944,,,250,253,239,233,,0.05,0.08,1.51,0,2,-1,0.09,,89,4626,7,39,57,0.893,0.0,370,4.88,12.8,0.0,1,27.9,1.54,5.6,0,0,1,1,0,,,,,,,,,,,,,,,,,,,,
345884,1626790950964,,,250,253,239,233,,0.03,0.08,1.7,0,1,-1,0.09,,89,4582,7,39,57,0.893,0.0,375,4.91,12.9,0.0,1,27.3,2.59,5.6,0,0,1,1,0,,,,,,,,,,,,,,,,,,,,
345904,1626790950984,,,250,253,239,233,,-0.0,0.08,1.88,0,-0,-2,0.08,,89,4595,7,39,57,0.893,0.0,370,4.89,12.8,0.0,1,27.5,2.6,5.6,0,0,1,1,0,,,,,,,,,,,,,,,,,,,,
345924,1626790950998,,,250,253,238,233,,0.0,0.09,2.04,0,-2,-4,0.09,,89,4652,7,39,57,0.892,0.0,379,4.88,13.0,0.0,1,28.2,1.55,5.6,0,0,1,1,0,,,,,,,,,,,,,,,,,,,,
345944,1626790951018,-0,2,250,253,239,233,-6,-0.0,0.1,2.19,0,-4,-4,0.1,0,89,4564,7,39,57,0.892,0.0,378,4.88,13.0,0.0,1,27.1,2.59,5.6,0,0,1,1,0,0,250,250,0,45.930698,5.258139,0.0,230.7,11,3,1.2,0,0.0,-1,0.0,,0.0,0,1.87,5.7657
345964,1626790951038,,,250,253,238,233,,0.02,0.1,2.19,-0,-5,-6,0.1,,89,4633,7,39,57,0.892,0.0,375,4.86,12.9,0.0,1,28.0,2.62,5.6,0,0,1,1,0,,,,,,,,,,,,,,,,,,,,
345984,1626790951058,,,250,253,238,233,,0.02,0.1,2.09,-0,-5,-6,0.1,,89,4554,7,39,57,0.892,0.0,377,4.85,13.0,0.0,1,27.0,2.58,5.6,0,0,1,1,0,,,,,,,,,,,,,,,,,,,,
346004,1626790951078,,,250,253,239,233,,0.04,0.08,1.98,-0,-5,-6,0.09,,89,4548,7,39,57,0.894,0.0,374,4.88,13.1,0.0,1,26.9,2.58,5.6,0,0,1,1,0,,,,,,,,,,,,,,,,,,,,
346024,1626790951104,,,250,253,239,233,,0.06,0.05,1.83,-0,-5,-6,0.08,,89,4557,7,39,57,0.894,0.0,375,4.86,13.1,0.0,1,27.0,2.59,5.6,0,0,1,1,0,,,,,,,,,,,,,,,,,,,,
346044,1626790951124,-1,2,250,253,239,233,-5,0.09,0.04,1.69,-0,-4,-6,0.09,0,89,4521,7,39,57,0.895,0.0,375,4.83,13.1,0.0,1,26.6,2.57,5.6,0,0,1,1,0,0,250,250,0,45.930698,5.258139,0.0,230.7,11,3,1.2,0,0.0,-1,0.0,0.0,0.0,0,1.87,5.7674
346064,1626790951144,,,250,253,239,233,,0.11,0.02,1.56,-0,-3,-5,0.11,,89,4577,7,39,57,0.894,0.0,369,4.88,13.1,0.0,1,27.3,2.59,5.6,0,0,1,1,0,,,,,,,,,,,,,,,,,,,,
346084,1626790951164,,,250,253,239,233,,0.13,-0.03,1.44,0,-1,-4,0.13,,89,4536,7,39,57,0.892,0.0,378,4.88,13.1,0.0,1,26.8,1.48,5.4,0,0,1,1,0,,,,,,,,,,,,,,,,,,,,
346104,1626790951184,,,250,253,239,233,,0.14,-0.05,1.33,0,-0,-3,0.15,,89,4552,7,39,57,0.891,0.0,370,4.87,13.1,0.0,1,27.0,2.58,5.4,0,0,1,1,0,,,,,,,,,,,,,,,,,,,,
346124,1626790951206,,,250,253,239,233,,0.15,-0.08,1.22,0,2,-2,0.17,,89,4548,7,39,57,0.89,0.0,374,4.87,13.1,0.0,1,26.9,2.58,5.4,0,0,1,1,0,,,,,,,,,,,,,,,,,,,,
346144,1626790951226,-1,2,250,253,238,233,-6,0.17,-0.12,1.13,0,3,-1,0.21,0,89,4492,7,39,57,0.891,0.0,369,4.88,13.1,0.0,1,26.2,2.55,5.4,0,0,1,1,0,0,250,250,0,45.930698,5.258139,0.0,230.7,11,3,1.2,0,0.0,-1,0.0,,0.0,0,1.87,5.7691
346164,1626790951246,,,250,253,239,233,,0.18,-0.16,1.04,0,4,-0,0.24,,89,4537,7,39,57,0.89,0.0,370,4.87,13.1,0.0,1,26.8,2.57,5.4,0,0,1,1,0,,,,,,,,,,,,,,,,,,,,
346184,1626790951266,,,250,253,238,233,,0.19,-0.17,0.96,0,5,1,0.25,,89,4502,7,39,57,0.889,0.0,373,4.87,13.1,0.0,1,26.3,2.56,5.3,0,0,1,1,0,,,,,,,,,,,,,,,,,,,,
346204,1626790951286,,,250,253,239,233,,0.2,-0.18,0.89,0,7,2,0.27,,89,4503,7,39,57,0.889,0.0,367,4.89,13.1,0.0,1,26.3,2.56,5.3,0,0,1,1,0,,,,,,,,,,,,,,,,,,,,
346224,1626790951306,,,250,253,239,233,,0.2,-0.21,0.82,0,7,3,0.29,,89,4533,7,39,57,0.887,0.0,367,4.93,13.1,0.0,1,26.7,2.57,5.3,0,0,1,1,0,,,,,,,,,,,,,,,,,,,,
346244,1626790951326,0,0,250,253,238,233,-6,0.21,-0.24,0.76,0,8,4,0.32,0,89,4513,7,39,57,0.884,0.0,368,4.9,13.1,0.0,1,26.5,2.56,5.3,0,0,1,1,0,0,250,250,0,45.930698,5.258139,0.0,230.7,11,3,1.2,0,0.0,-1,0.0,0.0,0.0,0,1.87,5.7707
346264,1626790951346,,,250,253,239,233,,0.21,-0.24,0.7,0,9,5,0.32,,89,4524,7,39,57,0.883,0.0,366,4.86,13.1,0.0,1,26.6,2.57,5.3,0,0,1,1,0,,,,,,,,,,,,,,,,,,,,
346284,1626790951366,,,250,253,239,233,,0.22,-0.23,0.64,0,10,5,0.32,,89,4525,7,39,57,0.881,0.0,370,4.85,13.1,0.0,1,26.6,1.48,5.3,0,0,1,1,0,,,,,,,,,,,,,,,,,,,,
346304,1626790951386,,,250,253,239,233,,0.21,-0.25,0.59,0,11,6,0.33,,89,4496,7,38,57,0.881,0.0,362,4.86,13.1,0.0,1,26.2,2.55,5.3,0,0,1,1,0,,,,,,,,,,,,,,,,,,,,
346324,1626790951406,,,250,253,238,233,,0.21,-0.26,0.55,0,12,7,0.33,,89,4552,7,38,57,0.881,0.0,374,4.88,13.1,0.0,1,27.0,1.49,5.3,0,0,1,1,0,,,,,,,,,,,,,,,,,,,,
346344,1626790951426,1,1,250,253,239,233,-6,0.2,-0.23,0.51,0,12,7,0.31,0,89,4505,7,39,57,0.883,0.0,369,4.87,13.0,0.0,1,26.4,2.56,5.3,0,0,1,1,0,0,250,250,0,45.930698,5.258139,0.0,230.7,11,3,1.2,0,0.0,-1,0.0,,0.0,0,1.87,5.7724
346364,1626790951446,,,250,253,239,233,,0.2,-0.22,0.47,0,13,8,0.3,,89,4541,7,38,58,0.883,0.0,368,4.89,13.1,0.0,1,27.0,1.5,5.3,0,0,1,1,0,,,,,,,,,,,,,,,,,,,,
346384,1626790951466,,,250,253,238,233,,0.2,-0.2,0.43,0,13,8,0.28,,89,4560,7,38,57,0.884,0.0,367,4.87,13.1,0.0,1,27.1,2.59,5.5,0,0,1,1,0,,,,,,,,,,,,,,,,,,,,
346404,1626790951486,,,250,253,239,233,,0.19,-0.17,0.4,0,13,9,0.25,,89,4516,7,39,57,0.885,0.0,366,4.87,13.0,0.0,1,26.5,1.48,5.5,0,0,1,1,0,,,,,,,,,,,,,,,,,,,,
346424,1626790951504,,,250,253,239,233,,0.18,-0.14,0.37,0,13,10,0.23,,89,4569,7,39,57,0.886,0.0,371,4.85,12.9,0.0,1,27.2,1.5,5.5,0,0,1,1,0,,,,,,,,,,,,,,,,,,,,
346444,1626790951524,-0,2,250,253,239,233,-5,0.16,-0.12,0.4,0,12,9,0.2,0,89,4556,7,39,57,0.888,0.0,369,4.88,12.9,0.0,1,26.6,2.59,5.5,0,0,1,1,0,0,250,250,0,45.930698,5.258139,0.0,230.7,11,3,1.2,0,0.0,-1,0.0,0.0,0.0,0,1.87,5.7741
346464,1626790951544,,,250,253,238,233,,0.15,-0.09,0.49,0,12,10,0.17,,89,4541,7,38,57,0.889,0.0,367,4.87,13.0,0.0,1,26.8,1.49,5.5,0,0,1,1,0,,,,,,,,,,,,,,,,,,,,
346484,1626790951564,,,250,253,239,233,,0.13,-0.04,0.76,0,11,9,0.14,,89,4586,7,39,57,0.891,0.0,375,4.87,12.9,0.0,1,27.4,2.59,5.5,0,0,1,1,0,,,,,,,,,,,,,,,,,,,,
346504,1626790951584,,,250,253,239,233,,0.1,-0.02,1.0,0,9,8,0.1,,89,4563,7,39,57,0.893,0.0,373,4.89,12.7,0.0,1,27.1,2.59,5.5,0,0,1,1,0,,,,,,,,,,,,,,,,,,,,
346524,1626790951604,,,250,253,239,233,,0.07,0.0,1.23,0,7,6,0.07,,89,4635,7,39,57,0.895,0.0,370,4.88,12.8,0.0,1,28.0,2.62,5.5,0,0,1,1,0,,,,,,,,,,,,,,,,,,,,
346544,1626790951624,0,1,250,253,238,233,-6,0.06,0.01,1.45,0,5,4,0.06,0,89,4661,7,38,57,0.897,0.0,376,4.88,13.0,0.0,1,28.3,2.63,5.5,0,0,1,1,0,0,250,250,0,45.930698,5.258139,0.0,230.7,11,3,1.2,0,0.0,-1,0.0,,0.0,0,1.87,5.7757
346564,1626790951644,,,250,253,239,233,,0.05,0.02,1.61,0,3,2,0.05,,89,4641,7,38,57,0.897,0.0,379,4.87,13.0,0.0,1,28.1,2.62,5.5,0,0,1,1,0,,,,,,,,,,,,,,,,,,,,
346584,1626790951664,,,250,253,238,233,,0.07,-0.01,1.5,0,2,1,0.07,,89,4685,7,38,57,0.896,0.0,387,4.87,13.0,0.0,1,28.6,2.65,5.6,0,0,1,1,0,,,,,,,,,,,,,,,,,,,,
346604,1626790951684,,,250,253,238,233,,0.1,-0.08,1.38,0,2,1,0.13,,89,4645,7,38,57,0.897,0.0,380,4.87,13.1,0.0,1,28.1,2.62,5.6,0,0,1,1,0,,,,,,,,,,,,,,,,,,,,
346624,1626790951704,,,250,253,238,233,,0.12,-0.11,1.28,0,4,2,0.17,,89,4617,7,39,56,0.897,0.0,383,4.88,13.1,0.0,1,27.5,2.6,5.6,0,0,1,1,0,,,,,,,,,,,,,,,,,,,,
346644,1626790951724,1,1,250,253,238,233,-6,0.13,-0.13,1.18,0,4,3,0.19,0,89,4609,7,39,57,0.896,0.0,376,4.85,13.1,0.0,1,27.7,2.6,5.6,0,0,1,1,0,0,250,250,0,45.930698,5.258139,0.0,230.7,11,3,1.2,0,0.0,-1,0.0,0.0,0.0,0,1.87,5.7774
346664,1626790951744,,,250,253,238,233,,0.13,-0.15,1.09,0,5,4,0.2,,89,4575,7,39,57,0.896,0.0,376,4.87,13.1,0.0,1,27.2,1.51,5.6,0,0,1,1,0,,,,,,,,,,,,,,,,,,,,
346684,1626790951764,,,250,253,238,233,,0.13,-0.13,1.0,0,6,5,0.19,,89,4554,7,38,57,0.895,0.0,373,4.86,13.0,0.0,1,27.0,2.58,5.4,0,0,1,1,0,,,,,,,,,,,,,,,,,,,,
346704,1626790951784,,,250,252,239,233,,0.14,-0.12,0.93,0,7,6,0.18,,89,4511,7,38,57,0.895,0.0,370,4.88,13.0,0.0,1,26.4,1.47,5.4,0,0,1,1,0,,,,,,,,,,,,,,,,,,,,
346724,1626790951803,,,250,253,238,233,,0.14,-0.13,0.85,0,8,6,0.19,,89,4468,7,38,57,0.895,0.0,369,4.87,13.0,0.0,1,25.9,2.53,5.4,0,0,1,1,0,,,,,,,,,,,,,,,,,,,,
346744,1626790951823,1,1,250,253,238,233,-6,0.15,-0.16,0.79,0,9,7,0.22,0,89,4478,7,38,57,0.896,0.0,367,4.89,13.1,0.0,1,26.0,1.45,5.4,0,0,1,1,0,0,250,250,0,45.930698,5.258139,0.0,230.7,11,3,1.2,0,0.0,-1,0.0,,0.0,0,1.87,5.7791
346764,1626790951843,,,250,253,238,233,,0.16,-0.15,0.73,0,10,8,0.22,,89,4460,7,38,57,0.896,0.0,362,4.86,13.1,0.0,1,25.8,2.53,5.4,0,0,1,1,0,,,,,,,,,,,,,,,,,,,,
346784,1626790951863,,,250,253,239,233,,0.17,-0.16,0.67,0,11,8,0.24,,89,4431,7,38,57,0.897,0.0,362,4.86,13.1,0.0,1,25.4,2.51,5.1,0,0,1,1,0,,,,,,,,,,,,,,,,,,,,
346804,1626790951883,,,250,253,238,233,,0.18,-0.19,0.62,0,11,8,0.26,,89,4464,7,38,57,0.898,0.0,359,4.92,13.1,0.0,1,25.8,2.53,5.1,0,0,1,1,0,,,,,,,,,,,,,,,,,,,,
346824,1626790951903,,,250,253,239,233,,0.2,-0.21,0.57,0,11,8,0.28,,89,4420,7,38,57,0.899,0.0,367,4.9,13.1,0.0,1,25.3,2.51,5.1,0,0,1,1,0,,,,,,,,,,,,,,,,,,,,
346844,1626790951923,0,0,250,253,238,233,-6,0.21,-0.22,0.53,0,12,8,0.3,0,89,4441,7,38,57,0.9,0.0,359,4.88,13.1,0.0,1,25.5,2.52,5.1,0,0,1,1,0,0,250,250,0,45.930698,5.258139,0.0,230.7,11,3,1.2,0,0.0,-1,0.0,0.0,0.0,0,1.87,5.7807
346864,1626790951943,,,250,253,239,233,,0.21,-0.23,0.49,0,12,8,0.31,,89,4479,7,38,57,0.9,0.0,367,4.87,13.1,0.0,1,26.0,1.45,5.1,0,0,1,1,0,,,,,,,,,,,,,,,,,,,,
346884,1626790951963,,,250,253,238,233,,0.21,-0.2,0.45,0,12,7,0.29,,89,4421,7,38,57,0.9,0.0,365,4.89,13.1,0.0,1,25.3,2.51,5.1,0,0,1,1,0,,,,,,,,,,,,,,,,,,,,
346904,1626790951983,,,250,253,238,233,,0.2,-0.2,0.41,0,11,6,0.29,,89,4479,7,38,57,0.899,0.0,366,4.84,13.1,0.0,1,26.0,2.54,5.1,0,0,1,1,0,,,,,,,,,,,,,,,,,,,,
346924,1626790951997,,,250,253,239,233,,0.2,-0.2,0.54,0,10,5,0.28,,89,4411,7,38,57,0.898,0.0,365,4.85,13.0,0.0,1,25.1,2.5,5.1,0,0,1,1,0,,,,,,,,,,,,,,,,,,,,
346944,1626790952017,0,1,250,253,238,233,-6,0.19,-0.16,0.66,0,9,4,0.25,0,89,4471,7,38,58,0.898,0.0,361,4.87,13.1,0.0,1,26.1,2.53,5.1,0,0,1,1,0,0,250,250,0,45.930698,5.258139,0.0,230.7,11,3,1.2,0,0.0,-1,0.0,,0.0,0,1.87,5.7824
346964,1626790952037,,,250,253,239,233,,0.16,-0.12,0.76,0,8,3,0.2,,89,4451,7,38,57,0.896,0.0,367,4.83,13.1,0.0,1,25.7,1.43,5.1,0,0,1,1,0,,,,,,,,,,,,,,,,,,,,
346984,1626790952057,,,250,253,239,233,,0.14,-0.1,1.01,0,6,1,0.18,,89,4415,7,38,57,0.894,0.0,366,4.85,13.1,0.0,1,25.2,2.5,5.1,0,0,1,1,0,,,,,,,,,,,,,,,,,,,,
347004,1626790952077,,,250,253,238,233,,0.11,-0.07,1.24,0,4,-1,0.13,,89,4523,7,39,57,0.892,0.0,361,4.86,12.9,0.0,1,26.6,2.57,5.1,0,0,1,1,0,,,,,,,,,,,,,,,,,,,,
347024,1626790952103,,,250,253,238,233,,0.09,-0.05,1.45,0,3,-2,0.1,,89,4444,7,38,57,0.89,0.0,371,4.84,12.9,0.0,1,25.6,2.52,5.1,0,0,1,1,0,,,,,,,,,,,,,,,,,,,,
347044,1626790952123,0,1,250,253,239,233,-6,0.07,-0.02,1.65,0,1,-3,0.07,0,89,4498,7,38,58,0.887,0.0,362,4.83,13.0,0.0,1,26.5,2.55,5.1,0,0,1,1,0,0,250,250,0,45.930698,5.258139,0.0,230.7,11,3,1.2,0,0.0,-1,0.0,0.0,0.0,0,1.87,5.7841
347064,1626790952143,,,250,253,239,233,,0.06,-0.02,1.83,0,-1,-4,0.06,,89,4509,7,39,57,0.885,0.0,368,4.87,13.0,0.0,1,26.4,2.56,5.1,0,0,1,1,0,,,,,,,,,,,,,,,,,,,,
347084,1626790952163,,,250,253,239,233,,0.04,0.01,1.99,0,-3,-6,0.04,,89,4460,7,38,57,0.883,0.0,361,4.85,13.0,0.0,1,25.8,2.53,5.2,0,0,1,1,0,,,,,,,,,,,,,,,,,,,,
347104,1626790952183,,,250,253,239,233,,0.04,0.04,2.15,-0,-4,-7,0.05,,89,4578,7,39,57,0.88,0.0,365,4.87,12.8,0.0,1,27.3,2.59,5.2,0,0,1,1,0,,,,,,,,,,,,,,,,,,,,
347124,1626790952205,,,250,253,239,233,,0.02,0.05,2.23,-0,-5,-8,0.05,,89,4530,7,38,57,0.879,0.0,371,4.87,12.9,0.0,1,26.7,2.57,5.2,0,0,1,1,0,,,,,,,,,,,,,,,,,,,,
347144,1626790952225,-1,2,250,253,239,233,-6,0.02,0.06,2.32,-0,-6,-8,0.06,0,89,4575,7,38,57,0.879,0.0,370,4.83,13.1,0.0,1,27.2,2.59,5.2,0,0,1,1,0,0,250,250,0,45.930698,5.258139,0.0,230.7,11,3,1.2,0,0.0,-1,0.0,,0.0,0,1.87,5.7857
347164,1626790952245,,,250,253,238,233,,0.04,0.02,2.15,-0,-5,-8,0.04,,89,4634,7,38,57,0.879,0.0,372,4.86,13.0,0.0,1,28.0,1.54,5.2,0,0,1,1,0,,,,,,,,,,,,,,,,,,,,
347184,1626790952265,,,250,253,238,233,,0.06,0.01,1.99,-0,-4,-8,0.06,,89,4538,7,38,57,0.879,0.0,375,4.9,13.1,0.0,1,26.8,2.57,5.5,0,0,1,1,0,,,,,,,,,,,,,,,,,,,,
347204,1626790952285,,,250,253,239,233,,0.08,-0.02,1.84,-0,-3,-7,0.08,,89,4617,7,38,57,0.879,0.0,370,4.87,13.1,0.0,1,27.8,1.53,5.5,0,0,1,1,0,,,,,,,,,,,,,,,,,,,,
347224,1626790952305,,,250,253,238,233,,0.1,-0.06,1.7,0,-1,-5,0.11,,89,4626,7,38,57,0.88,0.0,376,4.89,13.1,0.0,1,27.9,2.62,5.5,0,0,1,1,0,,,,,,,,,,,,,,,,,,,,
347244,1626790952325,0,2,250,253,239,233,-5,0.1,-0.08,1.57,0,1,-3,0.13,0,89,4555,7,38,57,0.882,0.0,371,4.86,13.1,0.0,1,27.0,2.58,5.5,0,0,1,1,0,0,250,250,0,45.930698,5.258139,0.0,230.7,11,3,1.2,0,0.0,-1,0.0,0.0,0.0,0,1.87,5.7874
347264,1626790952345,,,250,253,238,233,,0.1,-0.07,1.45,0,3,-1,0.13,,89,4627,7,38,57,0.882,0.0,378,4.84,13.0,0.0,1,27.9,2.62,5.5,0,0,1,1,0,,,,,,,,,,,,,,,,,,,,
347284,1626790952365,,,250,253,239,233,,0.1,-0.06,1.33,0,3,-0,0.12,,89,4580,7,38,57,0.885,0.0,375,4.86,13.0,0.0,1,27.3,1.51,5.5,0,0,1,1,0,,,,,,,,,,,,,,,,,,,,
347304,1626790952385,,,250,253,238,233,,0.09,-0.01,1.23,0,5,2,0.09,,89,4587,7,38,57,0.887,0.0,371,4.82,13.0,0.0,1,27.4,1.51,5.5,0,0,1,1,0,,,,,,,,,,,,,,,,,,,,
347324,1626790952405,,,250,253,239,233,,0.07,0.02,1.44,0,3,1,0.08,,89,4641,7,38,57,0.889,0.0,378,4.85,13.0,0.0,1,28.1,2.62,5.5,0,0,1,1,0,,,,,,,,,,,,,,,,,,,,
347344,1626790952425,-0,2,250,253,238,233,-6,0.04,0.03,1.64,0,3,1,0.05,0,89,4569,7,38,57,0.891,0.0,373,4.88,12.7,0.0,1,27.2,2.59,5.5,0,0,1,1,0,0,250,250,0,45.930698,5.258139,0.0,230.7,11,3,1.2,0,0.0,-1,0.0,,0.0,0,1.87,5.7891
347364,1626790952445,,,250,253,239,233,,0.03,0.05,1.82,0,1,-1,0.06,,89,4666,7,38,57,0.894,0.0,376,4.9,12.8,0.0,1,28.4,2.63,5.5,0,0,1,1,0,,,,,,,,,,,,,,,,,,,,
347384,1626790952465,,,250,253,239,233,,0.01,0.05,1.99,0,-1,-2,0.05,,89,4602,7,38,57,0.895,0.0,377,4.9,12.7,0.0,1,27.6,2.6,5.7,0,0,1,1,0,,,,,,,,,,,,,,,,,,,,
347404,1626790952485,,,250,253,238,233,,0.02,0.04,2.14,0,-3,-3,0.05,,89,4622,7,38,57,0.898,0.0,380,4.84,13.0,0.0,1,27.8,2.61,5.7,0,0,1,1,0,,,,,,,,,,,,,,,,,,,,
347424,1626790952505,,,250,253,239,233,,0.02,0.05,2.12,0,-3,-4,0.05,,89,4637,7,38,57,0.898,0.0,383,4.85,13.1,0.0,1,28.0,1.54,5.7,0,0,1,1,0,,,,,,,,,,,,,,,,,,,,
347444,1626790952525,0,0,250,253,238,233,-6,0.05,0.03,2.02,-0,-3,-4,0.05,0,89,4574,7,38,57,0.901,0.0,382,4.88,13.1,0.0,1,27.2,2.59,5.7,0,0,1,1,0,0,250,250,0,45.930698,5.258139,0.0,230.7,11,3,1.2,0,0.0,-1,0.0,0.0,0.0,0,1.87,5.7907
347464,1626790952545,,,250,253,239,233,,0.06,0.01,1.86,0,-3,-4,0.07,,89,4591,7,38,57,0.901,0.0,377,4.86,13.1,0.0,1,27.4,2.59,5.7,0,0,1,1,0,,,,,,,,,,,,,,,,,,,,
347484,1626790952565,,,250,253,238,233,,0.09,-0.03,1.72,0,-1,-3,0.09,,89,4568,7,38,57,0.901,0.0,378,4.88,13.1,0.0,1,27.2,2.59,5.5,0,0,1,1,0,,,,,,,,,,,,,,,,,,,,
347504,1626790952585,,,250,253,239,233,,0.11,-0.05,1.59,0,-0,-2,0.12,,89,4511,7,38,57,0.902,0.0,373,4.87,13.1,0.0,1,26.4,2.56,5.5,0,0,1,1,0,,,,,,,,,,,,,,,,,,,,
347524,1626790952605,,,250,253,239,233,,0.12,-0.09,1.46,0,2,-1,0.15,,89,4552,7,38,57,0.903,0.0,376,4.87,13.1,0.0,1,27.0,2.58,5.5,0,0,1,1,0,,,,,,,,,,,,,,,,,,,,
347544,1626790952625,0,1,250,253,238,233,-6,0.14,-0.1,1.35,0,2,-1,0.17,0,89,4527,7,38,57,0.902,0.0,370,4.88,13.1,0.0,1,26.6,2.57,5.5,0,0,1,1,0,0,250,250,0,45.930698,5.258139,0.0,230.7,11,3,1.2,0,0.0,-1,0.0,,0.0,0,1.87,5.7924
347564,1626790952645,,,250,253,238,233,,0.16,-0.15,1.25,0,4,0,0.22,,89,4508,7,38,57,0.901,0.0,373,4.87,13.1,0.0,1,26.4,2.56,5.5,0,0,1,1,0,,,,,,,,,,,,,,,,,,,,
347584,1626790952665,,,250,253,239,233,,0.16,-0.17,1.15,0,6,2,0.24,,89,4556,7,38,57,0.899,0.0,367,4.88,13.1,0.0,1,27.0,2.59,5.4,0,0,1,1,0,,,,,,,,,,,,,,,,,,,,
347604,1626790952685,,,250,253,238,233,,0.18,-0.18,1.06,0,7,3,0.25,,89,4538,7,38,57,0.898,0.0,369,4.87,13.1,0.0,1,26.8,2.57,5.4,0,0,1,1,0,,,,,,,,,,,,,,,,,,,,
347624,1626790952705,,,250,253,238,233,,0.18,-0.22,0.98,0,8,4,0.28,,89,4539,7,38,57,0.897,0.0,367,4.9,13.1,0.0,1,26.8,1.48,5.4,0,0,1,1,0,,,,,,,,,,,,,,,,,,,,
347644,1626790952725,-0,1,250,253,238,233,-6,0.18,-0.23,0.9,0,9,5,0.3,0,89,4586,7,38,57,0.895,0.0,370,4.85,13.0,0.0,1,27.4,2.59,5.4,0,0,1,1,0,0,250,250,0,45.930698,5.258139,0.0,230.7,11,3,1.2,0,0.0,-1,0.0,0.0,0.0,0,1.87,5.7941
347664,1626790952745,,,250,253,239,233,,0.17,-0.23,0.83,0,9,6,0.29,,89,4539,7,38,57,0.894,0.0,373,4.87,13.1,0.0,1,26.8,2.57,5.4,0,0,1,1,0,,,,,,,,,,,,,,,,,,,,
347684,1626790952765,,,250,253,238,233,,0.17,-0.19,0.77,0,10,7,0.25,,89,4588,7,38,57,0.892,0.0,374,4.86,12.9,0.0,1,27.4,1.51,5.4,0,0,1,1,0,,,,,,,,,,,,,,,,,,,,
347704,1626790952785,,,250,253,239,233,,0.17,-0.17,0.72,0,9,7,0.24,,89,4580,7,38,57,0.892,0.0,372,4.86,13.0,0.0,1,27.3,1.51,5.4,0,0,1,1,0,,,,,,,,,,,,,,,,,,,,
347724,1626790952804,,,250,253,238,233,,0.15,-0.11,0.7,0,9,8,0.19,,89,4554,7,38,57,0.891,0.0,373,4.86,13.0,0.0,1,27.0,2.59,5.4,0,0,1,1,0,,,,,,,,,,,,,,,,,,,,
347744,1626790952824,1,1,250,253,239,233,-5,0.14,-0.08,0.95,0,7,7,0.16,0,89,4583,7,38,57,0.891,0.0,370,4.91,12.8,0.0,1,27.3,1.51,5.4,0,0,1,1,0,0,250,250,0,45.930698,5.258139,0.0,230.7,11,3,1.2,0,0.0,-1,0.0,,0.0,0,1.87,5.7957
347764,1626790952844,,,250,253,239,233,,0.11,-0.06,1.17,0,7,6,0.12,,89,4537,7,38,57,0.89,0.0,373,4.87,12.9,0.0,1,26.8,2.57,5.4,0,0,1,1,0,,,,,,,,,,,,,,,,,,,,
347784,1626790952864,,,250,253,239,233,,0.09,-0.03,1.39,0,4,5,0.1,,89,4619,7,38,57,0.889,0.0,373,4.89,12.8,0.0,1,27.8,2.61,5.4,0,0,1,1,0,,,,,,,,,,,,,,,,,,,,
347804,1626790952884,,,250,253,239,233,,0.05,-0.02,1.59,0,3,4,0.06,,89,4556,7,38,57,0.888,0.0,374,4.9,12.8,0.0,1,27.0,2.59,5.4,0,0,1,1,0,,,,,,,,,,,,,,,,,,,,
347824,1626790952904,,,250,253,239,233,,0.03,0.01,1.77,0,1,2,0.03,,89,4535,7,38,57,0.888,0.0,379,4.86,12.9,0.0,1,26.7,2.57,5.4,0,0,1,1,0,,,,,,,,,,,,,,,,,,,,
347844,1626790952924,0,1,250,253,238,233,-6,0.0,0.04,1.95,0,-1,0,0.04,0,89,4612,7,38,57,0.888,0.0,371,4.91,12.7,0.0,1,27.7,1.53,5.4,0,0,1,1,0,0,250,250,0,45.930698,5.258139,0.0,230.7,11,3,1.2,0,0.0,-1,0.0,0.0,0.0,0,1.87,5.7974
347864,1626790952944,,,250,253,239,233,,-0.02,0.04,2.1,0,-2,-1,0.04,,89,4515,7,38,57,0.888,0.0,376,4.88,12.8,0.0,1,26.5,2.57,5.4,0,0,1,1,0,,,,,,,,,,,,,,,,,,,,
347884,1626790952964,,,250,252,239,233,,-0.02,0.06,2.25,0,-4,-3,0.07,,89,4594,7,38,57,0.889,0.0,370,4.85,13.0,0.0,1,27.5,2.59,5.3,0,0,1,1,0,,,,,,,,,,,,,,,,,,,,
347904,1626790952984,,,250,253,239,233,,-0.01,0.06,2.24,0,-4,-3,0.06,,89,4601,7,38,57,0.889,0.0,378,4.87,13.0,0.0,1,27.6,1.52,5.3,0,0,1,1,0,,,,,,,,,,,,,,,,,,,,
347924,1626790952998,,,250,253,239,233,,0.01,0.08,2.37,0,-5,-5,0.08,,89,4521,7,38,57,0.89,0.0,379,4.87,13.1,0.0,1,26.6,2.57,5.3,0,0,1,1,0,,,,,,,,,,,,,,,,,,,,
347944,1626790953018,0,2,250,253,239,233,-6,0.03,0.07,2.19,0,-4,-4,0.08,0,89,4621,7,38,57,0.891,0.0,375,4.83,13.1,0.0,1,27.8,2.61,5.3,0,0,1,1,0,0,250,250,0,45.930698,5.258139,0.0,230.7,11,3,1.2,0,0.0,-1,0.0,,0.0,0,1.87,5.7991
347964,1626790953038,,,250,253,239,233,,0.05,0.06,2.02,0,-4,-4,0.08,,89,4556,7,38,57,0.892,0.0,376,4.86,13.1,0.0,1,27.0,2.59,5.3,0,0,1,1,0,,,,,,,,,,,,,,,,,,,,
347984,1626790953058,,,250,253,238,233,,0.07,0.02,1.87,0,-2,-3,0.07,,89,4579,7,38,57,0.893,0.0,374,4.88,13.1,0.0,1,27.3,2.59,5.4,0,0,1,1,0,,,,,,,,,,,,,,,,,,,,
348004,1626790953078,,,250,253,239,233,,0.09,-0.01,1.72,0,-1,-2,0.09,,89,4625,7,38,57,0.894,0.0,372,4.87,13.1,0.0,1,27.9,2.62,5.4,0,0,1,1,0,,,,,,,,,,,,,,,,,,,,
348024,1626790953102,,,250,253,239,233,,0.11,-0.05,1.59,0,1,-0,0.12,,89,4550,7,38,57,0.896,0.0,375,4.87,13.1,0.0,1,26.9,2.58,5.4,0,0,1,1,0,,,,,,,,,,,,,,,,,,,,
348044,1626790953122,0,2,250,253,239,233,-5,0.11,-0.09,1.47,0,3,2,0.14,0,89,4601,7,38,57,0.898,0.0,371,4.86,13.0,0.0,1,27.6,2.6,5.4,0,0,1,1,0,0,250,250,0,45.930698,5.258139,0.0,230.7,11,3,1.2,0,0.0,-1,0.0,0.0,0.0,0,1.87,5.8007
348064,1626790953142,,,250,253,239,233,,0.12,-0.1,1.35,0,4,3,0.15,,89,4597,7,38,57,0.9,0.0,377,4.86,13.0,0.0,1,27.5,2.6,5.4,0,0,1,1,0,,,,,,,,,,,,,,,,,,,,
348084,1626790953162,,,250,253,238,233,,0.1,-0.07,1.25,0,5,4,0.13,,89,4566,7,38,57,0.901,0.0,374,4.87,13.1,0.0,1,27.1,1.5,5.4,0,0,1,1,0,,,,,,,,,,,,,,,,,,,,
348104,1626790953182,,,250,253,239,233,,0.1,-0.05,1.25,0,5,4,0.11,,89,4594,7,38,57,0.903,0.0,374,4.86,13.0,0.0,1,27.5,2.6,5.4,0,0,1,1,0,,,,,,,,,,,,,,,,,,,,
348124,1626790953204,,,250,253,238,233,,0.09,-0.01,1.24,0,4,4,0.09,,89,4572,7,38,57,0.904,0.0,374,4.92,12.8,0.0,1,27.2,1.51,5.4,0,0,1,1,0,,,,,,,,,,,,,,,,,,,,
348144,1626790953224,-0,2,250,253,239,233,-6,0.07,0.04,1.45,0,3,4,0.08,0,89,4582,7,38,57,0.905,0.0,370,4.9,12.8,0.0,1,27.3,1.51,5.4,0,0,1,1,0,0,250,250,0,45.930698,5.258139,0.0,230.7,11,3,1.2,0,0.0,-1,0.0,,0.0,0,1.87,5.8024
348164,1626790953244,,,250,253,239,233,,0.05,0.05,1.65,0,2,3,0.07,,89,4549,7,38,57,0.906,0.0,376,4.88,12.8,0.0,1,26.9,2.58,5.4,0,0,1,1,0,,,,,,,,,,,,,,,,,,,,
348184,1626790953264,,,250,253,239,233,,0.02,0.05,1.83,0,1,2,0.05,,89,4547,7,38,57,0.906,0.0,370,4.88,12.8,0.0,1,26.9,1.49,5.4,0,0,1,1,0,,,,,,,,,,,,,,,,,,,,
348204,1626790953284,,,250,253,239,233,,0.0,0.05,2.0,0,-1,1,0.05,,89,4563,7,39,57,0.905,0.0,371,4.92,12.8,0.0,1,27.1,2.59,5.4,0,0,1,1,0,,,,,,,,,,,,,,,,,,,,
348224,1626790953304,,,250,253,239,233,,-0.03,0.05,2.15,0,-2,-1,0.06,,89,4544,7,38,57,0.904,0.0,374,4.86,12.9,0.0,1,26.9,2.58,5.4,0,0,1,1,0,,,,,,,,,,,,,,,,,,,,
348244,1626790953324,1,2,250,253,239,233,-5,-0.04,0.06,2.29,0,-4,-2,0.07,0,89,4567,7,38,57,0.903,0.0,374,4.91,12.8,0.0,1,27.1,1.5,5.4,0,0,1,1,0,0,250,250,0,45.930698,5.258139,0.0,230.7,11,3,1.2,0,0.0,-1,0.0,0.0,0.0,0,1.87,5.8041
348264,1626790953344,,,250,253,239,233,,-0.05,0.08,2.42,0,-6,-3,0.09,,89,4512,7,38,57,0.901,0.0,374,4.9,12.8,0.0,1,26.5,2.56,5.4,0,0,1,1,0,,,,,,,,,,,,,,,,,,,,
348284,1626790953364,,,250,253,238,233,,-0.07,0.08,2.54,0,-7,-5,0.1,,89,4554,7,38,57,0.9,0.0,369,4.91,12.8,0.0,1,27.0,1.49,5.3,0,0,1,1,0,,,,,,,,,,,,,,,,,,,,
348304,1626790953384,,,250,253,239,233,,-0.08,0.09,2.66,-0,-8,-6,0.11,,89,4570,7,38,57,0.898,0.0,371,4.88,12.9,0.0,1,27.2,2.59,5.3,0,0,1,1,0,,,,,,,,,,,,,,,,,,,,
348324,1626790953404,,,250,253,239,233,,-0.06,0.08,2.76,-0,-9,-7,0.1,,89,4539,7,38,57,0.896,0.0,380,4.85,13.1,0.0,1,26.8,2.57,5.3,0,0,1,1,0,,,,,,,,,,,,,,,,,,,,
348344,1626790953424,-0,2,250,253,239,233,-6,-0.03,0.08,2.82,-0,-9,-7,0.09,0,89,4610,7,38,57,0.895,0.0,372,4.86,13.0,0.0,1,27.7,2.6,5.3,0,0,1,1,0,0,250,250,0,45.930698,5.258139,0.0,230.7,11,3,1.2,0,0.0,-1,0.0,,0.0,0,1.87,5.8057
348364,1626790953444,,,250,253,238,233,,-0.0,0.09,2.81,-0,-9,-8,0.09,,89,4548,7,38,57,0.893,0.0,379,4.9,13.1,0.0,1,26.9,2.58,5.3,0,0,1,1,0,,,,,,,,,,,,,,,,,,,,
348384,1626790953464,,,250,252,239,233,,0.02,0.09,2.6,-0,-9,-7,0.09,,89,4569,7,38,57,0.892,0.0,371,4.86,13.1,0.0,1,27.2,2.59,5.4,0,0,1,1,0,,,,,,,,,,,,,,,,,,,,
348404,1626790953484,,,250,253,238,233,,0.04,0.06,2.4,0,-7,-6,0.08,,89,4575,7,38,57,0.889,0.0,376,4.88,13.1,0.0,1,27.2,2.59,5.4,0,0,1,1,0,,,,,,,,,,,,,,,,,,,,
348424,1626790953504,,,250,253,239,233,,0.07,0.01,2.22,0,-6,-6,0.07,,89,4502,7,38,57,0.888,0.0,371,4.88,13.1,0.0,1,26.3,2.56,5.4,0,0,1,1,0,,,,,,,,,,,,,,,,,,,,
348444,1626790953524,-0,2,250,253,238,233,-6,0.09,-0.0,2.05,0,-5,-5,0.09,0,89,4515,7,38,57,0.887,0.0,367,4.86,13.1,0.0,1,26.5,2.57,5.4,0,0,1,1,0,0,250,250,0,45.930698,5.258139,0.0,230.7,11,3,1.2,0,0.0,-1,0.0,0.0,0.0,0,1.87,5.8074
348464,1626790953544,,,250,253,239,233,,0.1,0.01,1.89,0,-4,-5,0.1,,89,4498,7,38,57,0.887,0.0,371,4.89,13.1,0.0,1,26.3,2.55,5.4,0,0,1,1,0,,,,,,,,,,,,,,,,,,,,
348484,1626790953564,,,250,253,238,233,,0.12,-0.01,1.74,0,-2,-4,0.12,,89,4474,7,38,57,0.886,0.0,369,4.87,13.1,0.0,1,26.0,2.54,5.2,0,0,1,1,0,,,,,,,,,,,,,,,,,,,,
348504,1626790953584,,,250,253,239,233,,0.13,-0.03,1.61,0,-1,-3,0.13,,89,4531,7,38,57,0.885,0.0,366,4.89,13.1,0.0,1,26.7,2.57,5.2,0,0,1,1,0,,,,,,,,,,,,,,,,,,,,
348524,1626790953604,,,250,253,239,233,,0.14,-0.03,1.48,0,-0,-3,0.15,,89,4469,7,38,57,0.885,0.0,369,4.87,13.1,0.0,1,25.9,1.44,5.2,0,0,1,1,0,,,,,,,,,,,,,,,,,,,,
348544,1626790953624,1,0,250,253,238,233,-5,0.15,-0.01,1.37,0,1,-2,0.15,0,89,4501,7,38,57,0.884,0.0,361,4.88,13.1,0.0,1,26.3,2.56,5.2,0,0,1,1,0,0,250,250,0,45.930698,5.258139,0.0,230.7,11,3,1.2,0,0.0,-1,0.0,,0.0,0,1.87,5.8091
348564,1626790953644,,,250,253,239,233,,0.16,-0.03,1.26,0,2,-1,0.16,,89,4554,7,38,57,0.884,0.0,372,4.9,13.1,0.0,1,27.0,2.58,5.2,0,0,1,1,0,,,,,,,,,,,,,,,,,,,,
348584,1626790953664,,,250,253,239,233,,0.18,-0.05,1.17,0,3,-1,0.18,,89,4461,7,38,57,0.882,0.0,365,4.86,13.1,0.0,1,25.8,2.53,5.2,0,0,1,1,0,,,,,,,,,,,,,,,,,,,,
348604,1626790953684,,,250,253,239,233,,0.18,-0.06,1.08,0,4,-0,0.19,,89,4543,7,38,57,0.883,0.0,366,4.9,13.1,0.0,1,26.8,2.58,5.2,0,0,1,1,0,,,,,,,,,,,,,,,,,,,,
348624,1626790953704,,,250,253,238,233,,0.18,-0.05,0.99,0,4,-0,0.19,,89,4488,7,38,57,0.881,0.0,371,4.89,13.1,0.0,1,26.1,2.55,5.2,0,0,1,1,0,,,,,,,,,,,,,,,,,,,,
348644,1626790953724,-1,2,250,253,238,233,-6,0.19,-0.06,0.92,0,5,0,0.2,0,89,4493,7,38,57,0.881,0.0,366,4.88,13.1,0.0,1,26.2,2.55,5.2,0,0,1,1,0,0,250,250,0,45.930698,5.258139,0.0,230.7,11,3,1.2,0,0.0,-1,0.0,0.0,0.0,0,1.87,5.8107
348664,1626790953744,,,250,253,239,233,,0.2,-0.07,0.85,0,6,1,0.21,,89,4565,7,38,57,0.882,0.0,367,4.87,13.1,0.0,1,27.1,2.59,5.2,0,0,1,1,0,,,,,,,,,,,,,,,,,,,,
348684,1626790953764,,,250,253,239,233,,0.21,-0.08,0.78,0,6,1,0.23,,89,4464,7,38,57,0.88,0.0,369,4.86,13.1,0.0,1,25.8,2.53,5.3,0,0,1,1,0,,,,,,,,,,,,,,,,,,,,
348704,1626790953784,,,250,253,239,233,,0.21,-0.1,0.72,0,7,2,0.24,,89,4564,7,38,57,0.879,0.0,367,4.88,13.1,0.0,1,27.1,2.59,5.3,0,0,1,1,0,,,,,,,,,,,,,,,,,,,,
348724,1626790953803,,,250,253,239,233,,0.22,-0.13,0.66,0,8,2,0.25,,89,4567,7,38,57,0.878,0.0,375,4.88,13.1,0.0,1,27.1,2.59,5.3,0,0,1,1,0,,,,,,,,,,,,,,,,,,,,
348744,1626790953823,-1,2,250,253,239,233,-5,0.21,-0.15,0.61,0,10,4,0.26,0,89,4537,7,38,57,0.877,0.0,370,4.88,13.1,0.0,1,26.8,2.57,5.3,0,0,1,1,0,0,250,250,0,45.930698,5.258139,0.0,230.7,11,3,1.2,0,0.0,-1,0.0,,0.0,0,1.87,5.8124
348764,1626790953843,,,250,253,238,233,,0.2,-0.15,0.57,0,11,5,0.26,,89,4651,7,38,57,0.877,0.0,377,4.86,13.0,0.0,1,28.2,2.63,5.3,0,0,1,1,0,,,,,,,,,,,,,,,,,,,,
348784,1626790953863,,,250,253,239,233,,0.19,-0.15,0.52,0,11,6,0.24,,89,4585,7,38,57,0.877,0.0,374,4.88,13.0,0.0,1,27.4,1.51,5.5,0,0,1,1,0,,,,,,,,,,,,,,,,,,,,
348804,1626790953883,,,250,253,239,233,,0.16,-0.11,0.48,0,11,6,0.2,,89,4625,7,38,57,0.878,0.0,372,4.89,12.9,0.0,1,28.3,2.62,5.5,0,0,1,1,0,,,,,,,,,,,,,,,,,,,,
348824,1626790953905,,,250,253,238,233,,0.13,-0.09,0.64,0,10,6,0.16,,89,4672,7,38,57,0.878,0.0,377,4.85,12.9,0.0,1,28.0,1.54,5.5,0,0,1,1,0,,,,,,,,,,,,,,,,,,,,
348844,1626790953925,0,2,250,253,239,233,-5,0.09,-0.06,0.85,0,9,5,0.11,0,89,4587,7,38,57,0.879,0.0,374,4.86,12.8,0.0,1,27.4,2.59,5.5,0,0,1,1,0,0,250,250,0,45.930698,5.258139,0.0,230.7,11,3,1.2,0,0.0,-1,0.0,0.0,0.0,0,1.87,5.8141
348864,1626790953945,,,250,253,239,233,,0.07,-0.04,1.09,0,7,3,0.08,,89,4664,7,38,57,0.881,0.0,381,4.86,12.9,0.0,1,28.4,2.63,5.5,0,0,1,1,0,,,,,,,,,,,,,,,,,,,,
348884,1626790953965,,,250,253,238,233,,0.04,-0.03,1.31,0,5,2,0.05,,89,4631,7,38,56,0.882,0.0,380,4.88,13.0,0.0,1,27.6,2.62,5.7,0,0,1,1,0,,,,,,,,,,,,,,,,,,,,
348904,1626790953985,,,250,253,239,233,,0.05,-0.03,1.52,0,3,-0,0.06,,89,4619,7,38,57,0.885,0.0,381,4.89,13.1,0.0,1,27.8,2.6,5.7,0,0,1,1,0,,,,,,,,,,,,,,,,,,,,
348924,1626790953997,,,250,253,239,233,,0.08,-0.02,1.61,0,2,-1,0.08,,89,4635,7,38,56,0.886,0.0,376,4.87,13.0,0.0,1,27.7,1.53,5.7,0,0,1,1,0,,,,,,,,,,,,,,,,,,,,
348944,1626790954017,-1,2,250,253,239,233,-5,0.11,-0.04,1.61,0,1,-1,0.12,0,89,4593,7,38,57,0.889,0.0,376,4.89,13.1,0.0,1,27.5,2.59,5.7,0,0,1,1,0,0,250,250,0,45.930698,5.258139,0.0,230.7,11,3,1.2,0,0.0,-1,0.0,,0.0,0,1.87,5.8157
348964,1626790954037,,,250,253,238,233,,0.13,-0.07,1.48,0,1,-1,0.15,,89,4597,7,38,57,0.89,0.0,376,4.87,13.1,0.0,1,27.5,2.59,5.7,0,0,1,1,0,,,,,,,,,,,,,,,,,,,,
348984,1626790954057,,,250,253,239,233,,0.16,-0.09,1.37,0,2,-0,0.18,,89,4553,7,38,57,0.892,0.0,377,4.88,13.1,0.0,1,27.0,2.58,5.5,0,0,1,1,0,,,,,,,,,,,,,,,,,,,,
349004,1626790954077,,,250,253,239,233,,0.17,-0.11,1.26,0,4,1,0.2,,89,4538,7,38,57,0.896,0.0,370,4.88,13.1,0.0,1,26.8,2.57,5.5,0,0,1,1,0,,,,,,,,,,,,,,,,,,,,
349024,1626790954105,,,250,253,239,233,,0.17,-0.09,1.16,0,5,2,0.19,,89,4538,7,38,57,0.897,0.0,378,4.83,13.1,0.0,1,26.8,2.57,5.5,0,0,1,1,0,,,,,,,,,,,,,,,,,,,,
349044,1626790954125,-0,2,250,253,238,233,-6,0.18,-0.1,1.07,0,6,2,0.21,0,89,4480,7,38,57,0.899,0.0,365,4.86,13.1,0.0,1,26.0,2.54,5.5,0,0,1,1,0,0,250,250,0,45.930698,5.258139,0.0,230.7,11,3,1.2,0,0.0,-1,0.0,0.0,0.0,0,1.87,5.8174
349064,1626790954145,,,250,253,238,233,,0.19,-0.14,0.99,0,7,3,0.24,,89,4515,7,38,57,0.9,0.0,370,4.9,13.1,0.0,1,26.5,2.57,5.5,0,0,1,1,0,,,,,,,,,,,,,,,,,,,,
349084,1626790954165,,,250,253,238,233,,0.18,-0.14,0.92,0,8,4,0.23,,89,4528,7,38,57,0.901,0.0,365,4.88,13.1,0.0,1,26.7,2.57,5.3,0,0,1,1,0,,,,,,,,,,,,,,,,,,,,
349104,1626790954185,,,250,253,239,233,,0.17,-0.13,0.84,0,10,5,0.21,,89,4507,7,38,57,0.901,0.0,370,4.88,13.1,0.0,1,26.4,2.56,5.3,0,0,1,1,0,,,,,,,,,,,,,,,,,,,,
349124,1626790954205,,,250,253,238,233,,0.17,-0.14,0.78,0,10,5,0.21,,89,4543,7,38,57,0.9,0.0,372,4.89,13.1,0.0,1,26.8,2.58,5.3,0,0,1,1,0,,,,,,,,,,,,,,,,,,,,
349144,1626790954225,-0,2,250,253,239,233,-6,0.16,-0.15,0.72,0,11,6,0.23,0,89,4472,7,38,57,0.9,0.0,368,4.86,13.1,0.0,1,25.9,2.53,5.3,0,0,1,1,0,0,250,250,0,45.930698,5.258139,0.0,230.7,11,3,1.2,0,0.0,-1,0.0,,0.0,0,1.87,5.8191
349164,1626790954245,,,250,253,239,233,,0.16,-0.16,0.66,0,12,7,0.22,,89,4502,7,38,57,0.898,0.0,371,4.9,13.1,0.0,1,26.3,2.56,5.3,0,0,1,1,0,,,,,,,,,,,,,,,,,,,,
349184,1626790954265,,,250,253,238,233,,0.15,-0.14,0.61,0,13,8,0.21,,89,4509,7,38,57,0.898,0.0,370,4.87,13.1,0.0,1,26.4,2.56,5.3,0,0,1,1,0,,,,,,,,,,,,,,,,,,,,
349204,1626790954285,,,250,253,239,233,,0.15,-0.15,0.57,1,14,8,0.21,,89,4469,7,38,57,0.898,0.0,366,4.86,13.1,0.0,1,25.9,2.53,5.3,0,0,1,1,0,,,,,,,,,,,,,,,,,,,,
349224,1626790954305,,,250,253,239,233,,0.14,-0.14,0.52,1,14,9,0.2,,89,4580,7,38,57,0.898,0.0,369,4.86,13.1,0.0,1,27.3,2.59,5.3,0,0,1,1,0,,,,,,,,,,,,,,,,,,,,
349244,1626790954325,0,2,250,253,238,233,-6,0.13,-0.13,0.48,1,14,9,0.19,0,89,4518,7,38,57,0.896,0.0,369,4.87,13.0,0.0,1,26.5,2.57,5.3,0,0,1,1,0,0,250,250,0,45.930698,5.258139,0.0,230.7,11,3,1.2,0,0.0,-1,0.0,0.0,0.0,0,1.87,5.8207
349264,1626790954345,,,250,252,239,233,,0.12,-0.1,0.44,1,15,10,0.16,,89,4524,7,38,57,0.895,0.0,376,4.89,13.0,0.0,1,26.6,1.48,5.3,0,0,1,1,0,,,,,,,,,,,,,,,,,,,,
349284,1626790954365,,,250,253,239,233,,0.12,-0.08,0.41,1,15,11,0.14,,89,4587,7,38,57,0.893,0.0,371,4.87,13.0,0.0,1,27.4,1.51,5.5,0,0,1,1,0,,,,,,,,,,,,,,,,,,,,
349304,1626790954385,,,250,253,238,233,,0.11,-0.04,0.38,1,16,11,0.11,,89,4489,7,38,57,0.891,0.0,370,4.87,13.0,0.0,1,26.2,1.46,5.5,0,0,1,1,0,,,,,,,,,,,,,,,,,,,,
349324,1626790954405,,,250,253,239,233,,0.09,-0.01,0.54,1,16,12,0.09,,89,4563,7,38,57,0.889,0.0,369,4.9,13.0,0.0,1,27.1,1.5,5.5,0,0,1,1,0,,,,,,,,,,,,,,,,,,,,
349344,1626790954425,-1,2,250,253,239,233,-5,0.07,-0.0,0.71,1,15,12,0.07,0,89,4575,7,38,57,0.888,0.0,369,4.87,12.9,0.0,1,26.9,2.59,5.5,0,0,1,1,0,0,250,250,0,45.930698,5.258139,0.0,230.7,11,3,1.2,0,0.0,-1,0.0,,0.0,0,1.87,5.8224
349364,1626790954445,,,250,253,239,233,,0.04,0.02,0.96,1,15,13,0.05,,89,4512,7,38,57,0.887,0.0,368,4.86,13.0,0.0,1,26.5,1.47,5.5,0,0,1,1,0,,,,,,,,,,,,,,,,,,,,
349384,1626790954465,,,250,253,239,233,,0.02,0.03,1.19,1,14,11,0.03,,89,4634,7,38,57,0.887,0.0,370,4.87,12.9,0.0,1,28.0,2.62,5.5,0,0,1,1,0,,,,,,,,,,,,,,,,,,,,
349404,1626790954485,,,250,253,239,233,,0.01,0.03,1.41,1,13,10,0.03,,89,4539,7,38,57,0.886,0.0,376,4.87,12.9,0.0,1,26.8,1.48,5.5,0,0,1,1,0,,,,,,,,,,,,,,,,,,,,
349424,1626790954505,,,250,253,238,233,,-0.0,0.06,1.61,0,10,9,0.06,,89,4597,7,38,57,0.885,0.0,373,4.88,12.8,0.0,1,27.5,2.6,5.5,0,0,1,1,0,,,,,,,,,,,,,,,,,,,,
349444,1626790954525,1,2,250,253,239,233,-6,0.0,0.07,1.79,0,8,7,0.07,0,89,4622,7,38,57,0.885,0.0,376,4.87,12.9,0.0,1,27.8,2.61,5.5,0,0,1,1,0,0,250,250,0,45.930698,5.258139,0.0,230.7,11,3,1.2,0,0.0,-1,0.0,0.0,0.0,0,1.87,5.8241
349464,1626790954545,,,250,253,238,233,,0.01,0.09,1.96,0,5,5,0.09,,89,4555,7,38,57,0.884,0.0,374,4.85,13.0,0.0,1,27.0,2.58,5.5,0,0,1,1,0,,,,,,,,,,,,,,,,,,,,
349484,1626790954565,,,250,253,239,233,,0.04,0.08,1.86,0,3,3,0.09,,89,4664,7,38,57,0.883,0.0,375,4.87,12.9,0.0,1,28.4,2.63,5.5,0,0,1,1,0,,,,,,,,,,,,,,,,,,,,
349504,1626790954585,,,250,253,239,233,,0.07,0.03,1.71,0,1,1,0.08,,89,4587,7,38,57,0.885,0.0,378,4.9,13.1,0.0,1,27.4,2.59,5.5,0,0,1,1,0,,,,,,,,,,,,,,,,,,,,
349524,1626790954605,,,250,253,238,233,,0.09,-0.01,1.58,0,1,1,0.09,,89,4629,7,38,57,0.886,0.0,378,4.86,13.1,0.0,1,27.9,2.61,5.5,0,0,1,1,0,,,,,,,,,,,,,,,,,,,,
349544,1626790954625,-0,2,250,253,239,233,-5,0.1,-0.04,1.46,0,2,1,0.1,0,89,4641,7,38,57,0.887,0.0,376,4.88,13.1,0.0,1,28.1,2.62,5.5,0,0,1,1,0,0,250,250,0,45.930698,5.258139,0.0,230.7,11,3,1.2,0,0.0,-1,0.0,,0.0,0,1.87,5.8257
349564,1626790954645,,,250,253,238,233,,0.1,-0.07,1.35,0,3,2,0.13,,89,4572,7,38,57,0.889,0.0,381,4.87,13.1,0.0,1,27.2,2.59,5.5,0,0,1,1,0,,,,,,,,,,,,,,,,,,,,
349584,1626790954665,,,250,253,238,233,,0.09,-0.06,1.24,0,4,4,0.11,,89,4628,7,38,57,0.89,0.0,375,4.88,13.1,0.0,1,27.9,2.62,5.5,0,0,1,1,0,,,,,,,,,,,,,,,,,,,,
349604,1626790954685,,,250,253,238,233,,0.08,-0.04,1.15,0,6,5,0.09,,89,4566,7,38,57,0.891,0.0,378,4.85,13.0,0.0,1,27.1,2.59,5.5,0,0,1,1,0,,,,,,,,,,,,,,,,,,,,
349624,1626790954705,,,250,253,239,233,,0.07,-0.03,1.06,0,7,6,0.08,,89,4533,7,38,57,0.893,0.0,371,4.88,13.0,0.0,1,26.7,2.57,5.5,0,0,1,1,0,,,,,,,,,,,,,,,,,,,,
349644,1626790954725,0,2,250,253,238,233,-6,0.06,0.01,1.05,0,8,7,0.06,0,89,4593,7,38,57,0.895,0.0,371,4.86,13.0,0.0,1,27.5,1.51,5.5,0,0,1,1,0,0,250,250,0,45.930698,5.258139,0.0,230.7,11,3,1.2,0,0.0,-1,0.0,0.0,0.0,0,1.87,5.8274
349664,1626790954745,,,250,253,238,233,,0.05,0.01,0.97,0,8,7,0.05,,89,4501,7,38,57,0.895,0.0,378,4.86,13.1,0.0,1,26.3,1.47,5.5,0,0,1,1,0,,,,,,,,,,,,,,,,,,,,
349684,1626790954765,,,250,253,239,233,,0.03,0.01,1.05,0,9,8,0.03,,89,4539,7,38,57,0.894,0.0,370,4.9,13.0,0.0,1,26.8,1.48,5.3,0,0,1,1,0,,,,,,,,,,,,,,,,,,,,
349704,1626790954785,,,250,253,239,233,,0.02,0.02,1.14,0,9,8,0.03,,89,4576,7,38,57,0.895,0.0,375,4.83,13.0,0.0,1,27.3,1.51,5.3,0,0,1,1,0,,,,,,,,,,,,,,,,,,,,
349724,1626790954804,,,250,253,239,233,,-0.0,0.04,1.33,0,10,9,0.04,,89,4506,7,38,57,0.895,0.0,371,4.86,13.0,0.0,1,26.4,2.56,5.3,0,0,1,1,0,,,,,,,,,,,,,,,,,,,,
349744,1626790954824,1,1,250,253,238,233,-5,-0.02,0.06,1.53,0,9,9,0.06,0,89,4602,7,38,57,0.894,0.0,370,4.89,12.8,0.0,1,27.6,1.52,5.3,0,0,1,1,0,0,250,250,0,45.930698,5.258139,0.0,230.7,11,3,1.2,0,0.0,-1,0.0,,0.0,0,1.87,5.8291
349764,1626790954844,,,250,253,239,233,,-0.04,0.06,1.72,0,9,9,0.08,,89,4515,7,38,57,0.894,0.0,373,4.87,12.7,0.0,1,26.5,1.48,5.3,0,0,1,1,0,,,,,,,,,,,,,,,,,,,,
349784,1626790954864,,,250,253,238,233,,-0.05,0.06,1.9,0,7,8,0.08,,89,4594,7,38,57,0.894,0.0,367,4.92,12.7,0.0,1,27.5,2.59,5.3,0,0,1,1,0,,,,,,,,,,,,,,,,,,,,
349804,1626790954884,,,250,253,239,233,,-0.06,0.07,2.06,0,5,6,0.1,,89,4589,7,38,57,0.893,0.0,373,4.92,12.8,0.0,1,27.4,2.59,5.3,0,0,1,1,0,,,,,,,,,,,,,,,,,,,,
349824,1626790954904,,,250,253,238,233,,-0.06,0.07,2.21,0,3,4,0.09,,89,4552,7,38,57,0.892,0.0,376,4.9,12.8,0.0,1,27.0,2.58,5.3,0,0,1,1,0,,,,,,,,,,,,,,,,,,,,
349844,1626790954924,1,0,250,253,239,233,-5,-0.04,0.08,2.35,0,1,2,0.09,0,89,4629,7,38,57,0.891,0.0,371,4.87,13.0,0.0,1,27.9,2.62,5.3,0,0,1,1,0,0,250,250,0,45.930698,5.258139,0.0,230.7,11,3,1.2,0,0.0,-1,0.0,0.0,0.0,0,1.87,5.8307
349864,1626790954944,,,250,253,239,233,,-0.02,0.09,2.47,0,-1,1,0.09,,89,4525,7,38,57,0.891,0.0,378,4.87,12.8,0.0,1,26.6,2.57,5.3,0,0,1,1,0,,,,,,,,,,,,,,,,,,,,
349884,1626790954964,,,250,253,238,233,,-0.0,0.09,2.42,0,-3,-1,0.09,,89,4579,7,38,57,0.889,0.0,367,4.86,13.1,0.0,1,27.3,2.59,5.3,0,0,1,1,0,,,,,,,,,,,,,,,,,,,,
349904,1626790954984,,,250,253,239,233,,0.03,0.07,2.26,0,-4,-2,0.07,,89,4578,7,38,57,0.889,0.0,376,4.88,13.1,0.0,1,27.3,1.51,5.3,0,0,1,1,0,,,,,,,,,,,,,,,,,,,,
349924,1626790954998,,,250,253,239,233,,0.06,0.03,2.08,0,-5,-3,0.06,,89,4518,7,38,57,0.888,0.0,373,4.87,13.1,0.0,1,26.5,2.57,5.3,0,0,1,1,0,,,,,,,,,,,,,,,,,,,,
349944,1626790955018,0,2,250,253,239,233,-6,0.07,-0.0,1.92,0,-4,-3,0.07,0,89,4623,7,38,57,0.889,0.0,373,4.84,13.1,0.0,1,27.8,2.61,5.3,0,0,1,1,0,0,250,250,0,45.930698,5.258139,0.0,230.7,11,3,1.2,0,0.0,-1,0.0,,0.0,0,1.87,5.8324
349964,1626790955038,,,250,253,238,233,,0.09,-0.02,1.78,0,-4,-3,0.09,,89,4554,7,38,57,0.888,0.0,377,4.86,13.1,0.0,1,27.0,2.58,5.3,0,0,1,1,0,,,,,,,,,,,,,,,,,,,,
349984,1626790955058,,,250,253,239,233,,0.11,-0.07,1.64,0,-3,-2,0.13,,89,4556,7,38,57,0.888,0.0,373,4.89,13.1,0.0,1,27.0,2.59,5.3,0,0,1,1,0,,,,,,,,,,,,,,,,,,,,
350004,1626790955078,,,250,253,239,233,,0.11,-0.07,1.51,0,-1,-1,0.13,,89,4610,7,38,57,0.887,0.0,373,4.89,13.1,0.0,1,27.7,2.6,5.3,0,0,1,1,0,,,,,,,,,,,,,,,,,,,,
350024,1626790955104,,,250,253,238,233,,0.12,-0.08,1.4,0,0,-0,0.15,,89,4526,7,38,57,0.886,0.0,373,4.87,13.1,0.0,1,26.6,2.57,5.3,0,0,1,1,0,,,,,,,,,,,,,,,,,,,,
350044,1626790955124,1,1,250,253,239,233,-5,0.11,-0.09,1.29,0,2,1,0.14,0,89,4591,7,38,57,0.886,0.0,370,4.9,13.1,0.0,1,27.4,2.59,5.3,0,0,1,1,0,0,250,250,0,45.930698,5.258139,0.0,230.7,11,3,1.2,0,0.0,-1,0.0,0.0,0.0,0,1.87,5.8341
350064,1626790955144,,,250,253,239,233,,0.11,-0.08,1.19,0,3,2,0.13,,89,4577,7,38,57,0.885,0.0,382,4.9,13.1,0.0,1,27.3,2.59,5.3,0,0,1,1,0,,,,,,,,,,,,,,,,,,,,
350084,1626790955164,,,250,253,238,233,,0.09,-0.07,1.1,0,5,4,0.11,,89,4560,7,38,57,0.886,0.0,371,4.85,13.0,0.0,1,27.1,2.59,5.3,0,0,1,1,0,,,,,,,,,,,,,,,,,,,,
350104,1626790955184,,,250,253,239,233,,0.07,-0.06,1.01,0,6,5,0.09,,89,4580,7,38,57,0.887,0.0,376,4.87,12.9,0.0,1,27.3,1.51,5.3,0,0,1,1,0,,,,,,,,,,,,,,,,,,,,
350124,1626790955204,,,250,253,238,233,,0.07,-0.04,0.93,0,7,6,0.08,,89,4499,7,38,57,0.888,0.0,370,4.88,12.9,0.0,1,26.3,1.46,5.3,0,0,1,1,0,,,,,,,,,,,,,,,,,,,,
350144,1626790955224,-0,2,250,253,239,233,-5,0.05,0.0,0.98,0,8,7,0.05,0,89,4543,7,38,57,0.888,0.0,366,4.89,12.9,0.0,1,27.1,2.58,5.3,0,0,1,1,0,0,250,250,0,45.930698,5.258139,0.0,230.7,11,3,1.2,0,0.0,-1,0.0,,0.0,0,1.87,5.8357
350164,1626790955244,,,250,253,239,233,,0.03,0.02,1.07,0,8,8,0.04,,89,4546,7,38,57,0.889,0.0,372,4.89,12.9,0.0,1,26.9,1.49,5.3,0,0,1,1,0,,,,,,,,,,,,,,,,,,,,
350184,1626790955264,,,250,253,239,233,,0.01,0.03,1.2,0,9,9,0.03,,89,4512,7,38,57,0.891,0.0,367,4.89,12.9,0.0,1,26.8,2.56,5.3,0,0,1,1,0,,,,,,,,,,,,,,,,,,,,
350204,1626790955284,,,250,253,238,233,,-0.0,0.02,1.4,0,9,8,0.02,,89,4574,7,38,57,0.891,0.0,373,4.86,12.8,0.0,1,27.2,1.5,5.3,0,0,1,1,0,,,,,,,,,,,,,,,,,,,,
350224,1626790955306,,,250,253,239,233,,-0.02,0.05,1.52,0,8,9,0.05,,89,4476,7,38,57,0.892,0.0,373,4.86,13.0,0.0,1,25.6,2.52,5.3,0,0,1,1,0,,,,,,,,,,,,,,,,,,,,
350244,1626790955326,0,2,250,253,239,233,-5,-0.03,0.07,1.65,0,8,9,0.07,0,89,4471,7,38,57,0.893,0.0,365,4.88,13.0,0.0,1,25.9,1.44,5.3,0,0,1,1,0,0,250,250,0,45.930698,5.258139,0.0,230.7,11,3,1.2,0,0.0,-1,0.0,0.0,0.0,0,1.87,5.8374
350264,1626790955346,,,250,253,239,233,,-0.03,0.05,1.74,0,8,9,0.06,,89,4488,7,38,57,0.894,0.0,367,4.85,13.0,0.0,1,26.1,2.55,5.3,0,0,1,1,0,,,,,,,,,,,,,,,,,,,,
350284,1626790955366,,,250,253,239,233,,-0.02,0.04,1.61,0,9,10,0.05,,89,4409,7,38,57,0.894,0.0,359,4.88,13.1,0.0,1,25.1,1.41,5.1,0,0,1,1,0,,,,,,,,,,,,,,,,,,,,
350304,1626790955386,,,250,253,239,233,,-0.02,0.06,1.57,0,9,10,0.06,,89,4489,7,38,58,0.895,0.0,364,4.89,13.1,0.0,1,26.4,2.56,5.1,0,0,1,1,0,,,,,,,,,,,,,,,,,,,,
350324,1626790955406,,,250,253,239,233,,-0.01,0.05,1.46,0,9,10,0.05,,89,4483,7,38,57,0.893,0.0,366,4.9,13.0,0.0,1,26.1,1.45,5.1,0,0,1,1,0,,,,,,,,,,,,,,,,,,,,
350344,1626790955426,1,1,250,253,239,233,-6,-0.01,0.06,1.34,0,10,11,0.06,0,89,4448,7,38,57,0.892,0.0,363,4.86,13.1,0.0,1,25.6,1.43,5.1,0,0,1,1,0,0,250,250,0,45.930698,5.258139,0.0,230.7,11,3,1.2,0,0.0,-1,0.0,,0.0,0,1.87,5.8391
350364,1626790955446,,,250,253,239,233,,-0.0,0.07,1.25,1,11,11,0.07,,89,4554,7,38,57,0.891,0.0,366,4.87,13.1,0.0,1,27.0,2.58,5.1,0,0,1,1,0,,,,,,,,,,,,,,,,,,,,
350384,1626790955466,,,250,252,238,233,,0.0,0.08,1.15,1,11,12,0.08,,89,4485,7,38,57,0.889,0.0,365,4.89,13.0,0.0,1,26.1,1.45,5.3,0,0,1,1,0,,,,,,,,,,,,,,,,,,,,
350404,1626790955486,,,250,253,239,233,,0.0,0.08,1.06,1,11,12,0.08,,89,4493,7,38,58,0.888,0.0,365,4.85,13.0,0.0,1,26.4,1.47,5.3,0,0,1,1,0,,,,,,,,,,,,,,,,,,,,
350424,1626790955506,,,250,253,239,233,,0.0,0.07,1.06,1,12,12,0.07,,89,4545,7,38,57,0.885,0.0,365,4.86,13.0,0.0,1,26.9,1.49,5.3,0,0,1,1,0,,,,,,,,,,,,,,,,,,,,
350444,1626790955526,1,2,250,253,239,233,-6,0.01,0.07,0.98,1,12,13,0.07,0,89,4467,7,38,57,0.885,0.0,364,4.84,13.0,0.0,1,25.9,1.44,5.3,0,0,1,1,0,0,250,250,0,45.930698,5.258139,0.0,230.7,11,3,1.2,0,0.0,-1,0.0,0.0,0.0,0,1.87,5.8407
350464,1626790955546,,,250,253,238,233,,-0.0,0.1,1.06,1,13,13,0.1,,89,4565,7,38,58,0.882,0.0,369,4.9,12.9,0.0,1,27.4,1.5,5.3,0,0,1,1,0,,,,,,,,,,,,,,,,,,,,
350484,1626790955566,,,250,253,239,233,,-0.01,0.11,1.15,1,12,13,0.11,,89,4567,7,38,57,0.882,0.0,369,4.83,13.0,0.0,1,27.1,1.5,5.5,0,0,1,1,0,,,,,,,,,,,,,,,,,,,,
350504,1626790955586,,,250,253,238,233,,-0.04,0.1,1.29,1,12,13,0.11,,89,4508,7,38,57,0.881,0.0,371,4.91,12.8,0.0,1,26.7,1.48,5.5,0,0,1,1,0,,,,,,,,,,,,,,,,,,,,
350524,1626790955606,,,250,253,238,233,,-0.04,0.09,1.5,1,12,13,0.1,,89,4567,7,38,57,0.88,0.0,369,4.87,13.0,0.0,1,27.1,2.59,5.5,0,0,1,1,0,,,,,,,,,,,,,,,,,,,,
350544,1626790955626,-1,2,250,253,239,233,-5,-0.05,0.11,1.66,1,11,13,0.12,0,89,4473,7,38,57,0.88,0.0,370,4.9,13.0,0.0,1,25.9,2.54,5.5,0,0,1,1,0,0,250,250,0,45.930698,5.258139,0.0,230.7,11,3,1.2,0,0.0,-1,0.0,,0.0,0,1.87,5.8424
350564,1626790955646,,,250,253,238,233,,-0.06,0.12,1.84,1,10,12,0.14,,89,4537,7,38,57,0.879,0.0,367,4.9,12.8,0.0,1,26.8,1.48,5.5,0,0,1,1,0,,,,,,,,,,,,,,,,,,,,
350584,1626790955666,,,250,253,239,233,,-0.08,0.11,2.01,1,9,11,0.14,,89,4556,7,38,57,0.881,0.0,368,4.9,12.9,0.0,1,27.0,2.59,5.4,0,0,1,1,0,,,,,,,,,,,,,,,,,,,,
350604,1626790955686,,,250,253,239,233,,-0.09,0.11,2.16,1,8,11,0.14,,89,4507,7,38,57,0.881,0.0,374,4.89,12.7,0.0,1,26.4,2.56,5.4,0,0,1,1,0,,,,,,,,,,,,,,,,,,,,
350624,1626790955706,,,250,253,239,233,,-0.1,0.09,2.3,0,6,9,0.14,,89,4628,7,38,57,0.882,0.0,368,4.87,12.7,0.0,1,27.9,1.54,5.4,0,0,1,1,0,,,,,,,,,,,,,,,,,,,,
350644,1626790955726,0,2,250,253,238,233,-6,-0.1,0.08,2.43,0,4,7,0.13,0,89,4560,7,38,57,0.883,0.0,378,4.88,12.9,0.0,1,27.1,2.59,5.4,0,0,1,1,0,0,250,250,0,45.930698,5.258139,0.0,230.7,11,3,1.2,0,0.0,-1,0.0,0.0,0.0,0,1.87,5.8441
350664,1626790955746,,,250,253,239,233,,-0.09,0.11,2.55,0,2,5,0.14,,89,4576,7,38,57,0.884,0.0,371,4.91,12.8,0.0,1,27.3,1.51,5.4,0,0,1,1,0,,,,,,,,,,,,,,,,,,,,
350684,1626790955766,,,250,253,239,233,,-0.07,0.12,2.66,0,-0,3,0.14,,89,4629,7,38,57,0.885,0.0,374,4.85,13.0,0.0,1,27.9,2.62,5.5,0,0,1,1,0,,,,,,,,,,,,,,,,,,,,
350704,1626790955786,,,250,253,238,233,,-0.06,0.12,2.73,0,-2,1,0.13,,89,4522,7,38,57,0.885,0.0,374,4.88,12.9,0.0,1,26.6,2.57,5.5,0,0,1,1,0,,,,,,,,,,,,,,,,,,,,
350724,1626790955805,,,250,253,239,233,,-0.03,0.1,2.71,0,-4,-1,0.11,,89,4583,7,38,57,0.887,0.0,371,4.86,12.9,0.0,1,27.3,2.59,5.5,0,0,1,1,0,,,,,,,,,,,,,,,,,,,,
350744,1626790955825,0,2,250,253,239,233,-5,-0.0,0.06,2.59,0,-5,-2,0.06,0,89,4554,7,38,57,0.888,0.0,373,4.86,13.1,0.0,1,27.0,2.58,5.5,0,0,1,1,0,0,250,250,0,45.930698,5.258139,0.0,230.7,11,3,1.2,0,0.0,-1,0.0,,0.0,0,1.87,5.8457
350764,1626790955845,,,250,253,238,233,,0.02,0.06,2.48,0,-5,-3,0.06,,89,4514,7,38,57,0.889,0.0,375,4.92,13.1,0.0,1,26.5,1.48,5.5,0,0,1,1,0,,,,,,,,,,,,,,,,,,,,
350784,1626790955865,,,250,253,238,233,,0.03,0.06,2.29,0,-5,-3,0.07,,89,4558,7,38,57,0.89,0.0,368,4.88,13.1,0.0,1,27.0,2.59,5.4,0,0,1,1,0,,,,,,,,,,,,,,,,,,,,
350804,1626790955885,,,250,253,239,233,,0.06,0.04,2.11,0,-5,-3,0.07,,89,4488,7,38,57,0.891,0.0,374,4.84,13.1,0.0,1,26.1,1.46,5.4,0,0,1,1,0,,,,,,,,,,,,,,,,,,,,
350824,1626790955905,,,250,253,239,233,,0.08,0.01,1.95,0,-5,-4,0.08,,89,4545,7,38,57,0.891,0.0,365,4.87,13.1,0.0,1,26.9,2.58,5.4,0,0,1,1,0,,,,,,,,,,,,,,,,,,,,
350844,1626790955925,0,1,250,253,239,233,-5,0.1,-0.01,1.8,0,-5,-4,0.1,0,89,4532,7,38,57,0.891,0.0,373,4.89,13.1,0.0,1,26.7,2.57,5.4,0,0,1,1,0,0,250,250,0,45.930698,5.258139,0.0,230.7,11,3,1.2,0,0.0,-1,0.0,0.0,0.0,0,1.87,5.8474
350864,1626790955945,,,250,253,239,233,,0.11,-0.01,1.66,0,-5,-4,0.11,,89,4495,7,38,57,0.891,0.0,369,4.85,13.1,0.0,1,26.2,2.55,5.4,0,0,1,1,0,,,,,,,,,,,,,,,,,,,,
350884,1626790955965,,,250,253,239,233,,0.13,-0.06,1.53,0,-3,-3,0.14,,89,4585,7,38,57,0.891,0.0,371,4.88,13.1,0.0,1,27.4,2.59,5.4,0,0,1,1,0,,,,,,,,,,,,,,,,,,,,
350904,1626790955985,,,250,253,239,233,,0.14,-0.06,1.41,0,-2,-3,0.15,,89,4526,7,38,57,0.891,0.0,376,4.88,13.1,0.0,1,26.6,2.57,5.4,0,0,1,1,0,,,,,,,,,,,,,,,,,,,,
350924,1626790955997,,,250,253,238,233,,0.15,-0.1,1.31,0,-1,-2,0.18,,89,4538,7,38,57,0.892,0.0,370,4.9,13.1,0.0,1,26.8,2.57,5.4,0,0,1,1,0,,,,,,,,,,,,,,,,,,,,
350944,1626790956017,0,2,250,253,239,233,-5,0.15,-0.12,1.21,0,0,-1,0.2,0,89,4597,7,38,57,0.892,0.0,374,4.89,13.1,0.0,1,27.5,2.6,5.4,0,0,1,1,0,0,250,250,0,45.930698,5.258139,0.0,230.7,11,3,1.2,0,0.0,-1,0.0,,0.0,0,1.87,5.8491
350964,1626790956037,,,250,253,239,233,,0.16,-0.16,1.11,0,2,-0,0.23,,89,4506,7,38,57,0.892,0.0,373,4.87,13.1,0.0,1,26.4,2.56,5.4,0,0,1,1,0,,,,,,,,,,,,,,,,,,,,
350984,1626790956057,,,250,253,239,233,,0.14,-0.15,1.03,0,4,2,0.21,,89,4600,7,38,57,0.89,0.0,371,4.89,13.1,0.0,1,27.6,1.52,5.4,0,0,1,1,0,,,,,,,,,,,,,,,,,,,,
351004,1626790956077,,,250,253,239,233,,0.13,-0.13,0.95,0,5,3,0.18,,89,4610,7,38,57,0.889,0.0,380,4.86,13.0,0.0,1,27.7,2.6,5.4,0,0,1,1,0,,,,,,,,,,,,,,,,,,,,
351024,1626790956103,,,250,253,238,233,,0.12,-0.11,0.87,0,7,5,0.16,,89,4549,7,38,57,0.888,0.0,373,4.86,13.1,0.0,1,26.9,2.58,5.4,0,0,1,1,0,,,,,,,,,,,,,,,,,,,,
351044,1626790956123,-0,2,250,253,238,233,-6,0.09,-0.06,1.02,0,7,6,0.1,0,89,4654,7,38,57,0.886,0.0,377,4.89,12.9,0.0,1,28.2,1.55,5.4,0,0,1,1,0,0,250,250,0,45.930698,5.258139,0.0,230.7,11,3,1.2,0,0.0,-1,0.0,0.0,0.0,0,1.87,5.8507
351064,1626790956143,,,250,253,239,233,,0.05,-0.03,1.16,0,7,6,0.06,,89,4566,7,38,57,0.886,0.0,378,4.88,12.8,0.0,1,27.1,1.5,5.4,0,0,1,1,0,,,,,,,,,,,,,,,,,,,,
351084,1626790956163,,,250,253,238,233,,0.02,-0.01,1.38,0,7,5,0.02,,89,4636,7,38,57,0.886,0.0,371,4.88,12.9,0.0,1,28.0,1.54,5.4,0,0,1,1,0,,,,,,,,,,,,,,,,,,,,
351104,1626790956183,,,250,253,238,233,,0.01,0.0,1.58,0,5,4,0.01,,89,4615,7,38,57,0.886,0.0,379,4.91,12.8,0.0,1,27.7,2.61,5.4,0,0,1,1,0,,,,,,,,,,,,,,,,,,,,
351124,1626790956205,,,250,253,238,233,,0.0,0.02,1.76,0,3,2,0.02,,89,4573,7,38,57,0.886,0.0,374,4.87,12.9,0.0,1,27.2,2.59,5.4,0,0,1,1,0,,,,,,,,,,,,,,,,,,,,
351144,1626790956225,0,1,250,253,238,233,-6,0.02,0.01,1.94,0,1,0,0.03,0,89,4646,7,38,56,0.885,0.0,378,4.89,12.8,0.0,1,27.8,1.54,5.4,0,0,1,1,0,0,250,250,0,45.930698,5.258139,0.0,230.7,11,3,1.2,0,0.0,-1,0.0,,0.0,0,1.87,5.8524
351164,1626790956245,,,250,253,239,233,,0.04,-0.01,2.0,0,-1,-1,0.04,,89,4606,7,38,57,0.885,0.0,380,4.89,13.1,0.0,1,27.6,2.6,5.4,0,0,1,1,0,,,,,,,,,,,,,,,,,,,,
351184,1626790956265,,,250,253,239,233,,0.07,-0.0,2.05,0,-2,-2,0.07,,89,4543,7,38,57,0.886,0.0,377,4.85,13.1,0.0,1,26.8,2.57,5.4,0,0,1,1,0,,,,,,,,,,,,,,,,,,,,
351204,1626790956285,,,250,253,239,233,,0.08,0.01,1.89,0,-3,-3,0.08,,89,4557,7,38,57,0.884,0.0,375,4.84,13.1,0.0,1,27.0,2.58,5.4,0,0,1,1,0,,,,,,,,,,,,,,,,,,,,
351224,1626790956303,,,250,253,239,233,,0.1,-0.01,1.77,0,-3,-4,0.1,,89,4499,7,38,57,0.886,0.0,370,4.86,13.1,0.0,1,26.3,2.55,5.4,0,0,1,1,0,,,,,,,,,,,,,,,,,,,,
351244,1626790956323,0,2,250,253,239,233,-5,0.12,-0.03,1.63,0,-4,-5,0.13,0,89,4472,7,38,57,0.886,0.0,367,4.86,13.1,0.0,1,25.9,2.53,5.4,0,0,1,1,0,0,250,250,0,45.930698,5.258139,0.0,230.7,11,3,1.2,0,0.0,-1,0.0,0.0,0.0,0,1.87,5.8541
351264,1626790956343,,,250,253,239,233,,0.13,-0.04,1.51,0,-5,-5,0.14,,89,4501,7,38,57,0.887,0.0,372,4.91,13.1,0.0,1,26.3,1.47,5.4,0,0,1,1,0,,,,,,,,,,,,,,,,,,,,
351284,1626790956363,,,250,253,239,233,,0.13,-0.02,1.43,0,-5,-6,0.13,,89,4476,7,38,57,0.888,0.0,364,4.88,13.1,0.0,1,26.0,2.54,5.3,0,0,1,1,0,,,,,,,,,,,,,,,,,,,,
351304,1626790956383,,,250,253,238,233,,0.14,-0.03,1.32,0,-5,-6,0.14,,89,4511,7,38,57,0.889,0.0,373,4.85,13.0,0.0,1,26.4,1.47,5.3,0,0,1,1,0,,,,,,,,,,,,,,,,,,,,
351324,1626790956405,,,250,253,239,233,,0.15,-0.04,1.22,0,-5,-6,0.15,,89,4520,7,38,57,0.89,0.0,367,4.86,13.0,0.0,1,26.6,2.57,5.3,0,0,1,1,0,,,,,,,,,,,,,,,,,,,,
351344,1626790956425,-1,2,250,253,239,233,-5,0.16,-0.03,1.17,0,-6,-7,0.16,0,89,4507,7,38,57,0.89,0.0,370,4.87,13.1,0.0,1,26.4,2.56,5.3,0,0,1,1,0,0,250,250,0,45.930698,5.258139,0.0,230.7,11,3,1.2,0,0.0,-1,0.0,,0.0,0,1.87,5.8557
351364,1626790956445,,,250,253,238,233,,0.16,-0.03,1.08,0,-5,-7,0.16,,89,4547,7,38,57,0.89,0.0,368,4.83,13.1,0.0,1,26.9,2.58,5.3,0,0,1,1,0,,,,,,,,,,,,,,,,,,,,
351384,1626790956465,,,250,253,239,233,,0.17,-0.04,1.0,0,-5,-7,0.18,,89,4513,7,38,57,0.891,0.0,371,4.89,13.1,0.0,1,26.5,2.56,5.4,0,0,1,1,0,,,,,,,,,,,,,,,,,,,,
351404,1626790956485,,,250,253,239,233,,0.19,-0.07,0.92,0,-5,-7,0.2,,89,4519,7,38,57,0.89,0.0,374,4.83,13.0,0.0,1,26.5,2.57,5.4,0,0,1,1,0,,,,,,,,,,,,,,,,,,,,
351424,1626790956507,,,250,253,239,233,,0.2,-0.09,0.85,0,-4,-6,0.21,,89,4552,7,38,57,0.89,0.0,374,4.84,13.1,0.0,1,27.0,2.58,5.4,0,0,1,1,0,,,,,,,,,,,,,,,,,,,,
351444,1626790956527,-1,2,250,253,238,233,-6,0.2,-0.1,0.79,0,-3,-6,0.22,0,89,4538,7,38,57,0.89,0.0,372,4.89,13.1,0.0,1,26.8,2.57,5.4,0,0,1,1,0,0,250,250,0,45.930698,5.258139,0.0,230.7,11,3,1.2,0,0.0,-1,0.0,0.0,0.0,0,1.87,5.8574
351464,1626790956547,,,250,253,238,233,,0.21,-0.15,0.73,0,-1,-4,0.26,,89,4595,7,38,57,0.89,0.0,375,4.89,13.1,0.0,1,27.5,2.6,5.4,0,0,1,1,0,,,,,,,,,,,,,,,,,,,,
351484,1626790956567,,,250,253,239,233,,0.21,-0.16,0.67,0,0,-3,0.26,,89,4621,7,38,57,0.89,0.0,373,4.87,13.1,0.0,1,27.8,2.61,5.5,0,0,1,1,0,,,,,,,,,,,,,,,,,,,,
351504,1626790956587,,,250,253,239,233,,0.18,-0.15,0.62,0,2,-0,0.24,,89,4610,7,38,57,0.889,0.0,380,4.84,13.0,0.0,1,27.7,1.52,5.5,0,0,1,1,0,,,,,,,,,,,,,,,,,,,,
351524,1626790956605,,,250,253,239,233,,0.17,-0.11,0.57,0,3,1,0.2,,89,4667,7,38,57,0.889,0.0,376,4.85,13.0,0.0,1,28.4,1.56,5.5,0,0,1,1,0,,,,,,,,,,,,,,,,,,,,
351544,1626790956625,-1,2,250,253,239,233,-5,0.14,-0.06,0.61,0,4,2,0.15,0,89,4620,7,38,57,0.889,0.0,382,4.84,13.0,0.0,1,27.8,1.53,5.5,0,0,1,1,0,0,250,250,0,45.930698,5.258139,0.0,230.7,11,3,1.2,0,0.0,-1,0.0,,0.0,0,1.87,5.8591
351564,1626790956645,,,250,253,238,233,,0.1,-0.03,0.87,0,4,2,0.1,,89,4649,7,38,57,0.89,0.0,382,4.87,12.9,0.0,1,28.2,2.63,5.5,0,0,1,1,0,,,,,,,,,,,,,,,,,,,,
351584,1626790956665,,,250,253,239,233,,0.06,-0.01,1.11,0,3,1,0.06,,89,4596,7,38,56,0.89,0.0,376,4.91,12.8,0.0,1,27.2,2.6,5.6,0,0,1,1,0,,,,,,,,,,,,,,,,,,,,
351604,1626790956685,,,250,253,238,233,,0.05,-0.0,1.34,0,2,0,0.05,,89,4579,7,38,57,0.891,0.0,374,4.9,12.9,0.0,1,27.3,2.59,5.6,0,0,1,1,0,,,,,,,,,,,,,,,,,,,,
351624,1626790956699,,,250,253,239,233,,0.03,-0.01,1.54,0,-0,-1,0.03,,89,4548,7,38,56,0.892,0.0,371,4.86,12.9,0.0,1,26.6,2.57,5.6,0,0,1,1,0,,,,,,,,,,,,,,,,,,,,
351644,1626790956719,-1,2,250,253,238,233,-6,0.03,-0.01,1.73,0,-2,-3,0.03,0,89,4547,7,38,56,0.892,0.0,375,4.88,12.7,0.0,1,26.6,1.48,5.6,0,0,1,1,0,0,250,250,0,45.930698,5.258139,0.0,230.7,11,3,1.2,0,0.0,-1,0.0,0.0,0.0,0,1.87,5.8607
351664,1626790956739,,,250,253,239,233,,0.04,0.01,1.9,0,-5,-4,0.04,,89,4555,7,38,57,0.892,0.0,373,4.9,12.8,0.0,1,27.0,2.58,5.6,0,0,1,1,0,,,,,,,,,,,,,,,,,,,,
351684,1626790956759,,,250,253,239,233,,0.05,0.03,2.07,0,-6,-5,0.06,,89,4541,7,38,56,0.892,0.0,373,4.88,12.9,0.0,1,26.5,2.58,5.4,0,0,1,1,0,,,,,,,,,,,,,,,,,,,,
351704,1626790956779,,,250,253,239,233,,0.04,0.06,2.19,0,-7,-6,0.07,,89,4541,7,38,56,0.892,0.0,374,4.86,12.9,0.0,1,26.5,2.57,5.4,0,0,1,1,0,,,,,,,,,,,,,,,,,,,,
351724,1626790956804,,,250,253,238,233,,0.06,0.05,2.27,0,-8,-7,0.08,,89,4550,7,38,57,0.894,0.0,374,4.86,13.1,0.0,1,26.9,2.57,5.4,0,0,1,1,0,,,,,,,,,,,,,,,,,,,,
351744,1626790956824,-0,2,250,253,239,233,-5,0.08,0.04,2.31,0,-9,-8,0.09,0,89,4521,7,38,57,0.895,0.0,371,4.85,13.0,0.0,1,26.6,1.48,5.4,0,0,1,1,0,0,250,250,0,45.930698,5.258139,0.0,230.7,11,3,1.2,0,0.0,-1,0.0,,0.0,0,1.87,5.8624
351764,1626790956844,,,250,253,238,233,,0.1,0.04,2.22,-0,-9,-9,0.1,,89,4560,7,38,57,0.897,0.0,371,4.87,13.1,0.0,1,27.1,2.59,5.4,0,0,1,1,0,,,,,,,,,,,,,,,,,,,,
351784,1626790956864,,,250,253,238,233,,0.1,0.05,2.05,0,-9,-9,0.11,,89,4519,7,38,57,0.898,0.0,370,4.82,13.0,0.0,1,26.5,2.57,5.4,0,0,1,1,0,,,,,,,,,,,,,,,,,,,,
351804,1626790956884,,,250,253,239,233,,0.12,0.03,1.9,0,-9,-9,0.13,,89,4520,7,38,57,0.898,0.0,377,4.84,13.0,0.0,1,26.6,2.57,5.4,0,0,1,1,0,,,,,,,,,,,,,,,,,,,,
351824,1626790956904,,,250,253,239,233,,0.14,0.01,1.75,0,-8,-8,0.14,,89,4567,7,38,57,0.898,0.0,370,4.89,13.1,0.0,1,27.1,2.59,5.4,0,0,1,1,0,,,,,,,,,,,,,,,,,,,,
