"Interval"|"ms"|0|0|1,"Utc"|"ms"|0|0|1,"Brake_F"|"Bar"|0|2000|10,"Brake_R"|"Bar"|0|2000|10,"Height_RF"|"mm"|0|255|50,"Height_LF"|"mm"|0|255|50,"Height_LR"|"mm"|0|80|50,"Height_RR"|"mm"|0|255|50,"Steering"|"deg"|-100|100|10,"AccelX"|"G"|-3.0|3.0|50,"AccelY"|"G"|-3.0|3.0|50,"AccelZ"|"G"|-3.0|3.0|50,"Yaw"|"Deg/Sec"|-120|120|50,"Pitch"|"Deg/Sec"|-120|120|50,"Roll"|"Deg/Sec"|-120|120|50,"Gsum"|"G"|0.0|3.0|50,"Log_Button"|""|0.0|10.0|10,"WaterTemp"|"C"|0|150|50,"RPM"|"tr/min"|0|14000|50,"TPS"|"%"|0|100|50,"AirTemp"|"C"|0|150|50,"MAP"|"KPa"|0|100|50,"Lambda"|""|0.5|1.5|50,"SpeedDTA"|"kph"|0.0|250.0|50,"OilPress"|"KPa"|0|1500|50,"FuelPressur"|"Bar"|0.0|10.0|50,"Batterie"|"V"|0.0|20.0|50,"ConsoKm"|"L/100km"|0.0|200.0|50,"Gear"|""|0|6|50,"AdvIgnition"|"Deg"|-20.0|70.0|50,"Injection"|"ms"|0.0|10.0|50,"ConsoHr"|"L/Hr"|0.0|10000.0|50,"LC_But_Pres"|""|0|1|50,"LC_Active"|""|0|1|50,"TractionOn"|""|0|1|50,"TractionWet"|""|0|1|50,"FanOn"|""|0|1|50,"RD_Speed"|"km/h"|-30|250|10,"RUD_Speed"|"km/h"|-30|250|10,"LD_Speed"|"km/h"|-30|250|10,"LUD_Speed"|"km/h"|-30|250|10,"Latitude"|"Degrees"|-180.0|180.0|10,"Longitude"|"Degrees"|-180.0|180.0|10,"Speed"|"kph"|0.0|150.0|10,"Altitude"|"m"|0.0|4000.0|10,"GPSSats"|""|0|20|10,"GPSQual"|""|0|5|10,"GPSDOP"|""|0.0|20.0|10,"LapCount"|""|0|0|10,"LapTime"|"Min"|0.0|0.0|10,"Sector"|""|0|0|10,"SectorTime"|"Min"|0.0|0.0|10,"PredTime"|"Min"|0.0|0.0|5,"ElapsedTime"|"Min"|0.0|0.0|10,"CurrentLap"|""|0|0|10,"Distance"|"km"|0.0|0.0|10,"SessionTime"|"Min"|0.0|0.0|10
142064,1648987620930,,,250,251,233,230,,0.01,0.04,1.38,-0,-2,-2,0.04,,62,4583,14,11,90,0.778,0.0,594,4.71,13.0,0.0,1,36.3,2.56,11.8,0,0,0,1,1,,,,,,,,,,,,,,,,,,,,
142084,1648987620950,,,250,252,233,230,,0.04,0.02,1.27,-0,-2,-2,0.04,,62,4936,14,11,89,0.776,0.0,603,4.73,12.8,0.0,1,41.4,5.63,11.8,0,0,0,1,1,,,,,,,,,,,,,,,,,,,,
142104,1648987620970,,,250,253,233,230,,-0.01,0.06,1.48,-0,-2,-1,0.06,,62,5247,13,11,88,0.772,0.0,608,4.68,13.1,0.0,1,41.5,2.8,11.8,0,0,0,1,1,,,,,,,,,,,,,,,,,,,,
142124,1648987620990,,,250,252,233,230,,-0.02,-0.02,1.37,-0,-0,0,0.02,,62,5598,13,11,85,0.77,0.0,613,4.73,13.0,0.0,1,39.7,6.54,16.0,0,0,0,1,1,,,,,,,,,,,,,,,,,,,,
142144,1648987621004,-1,4,250,253,233,230,-1,0.02,-0.09,1.26,-0,-2,-2,0.09,1,62,5874,12,11,83,0.766,0.0,620,4.7,13.0,0.0,1,38.6,6.7,16.0,0,0,0,1,1,0,250,250,0,45.700455,4.909369,0.0,207.0,10,3,1.5,0,0.0,-1,0.0,,0.0,0,0.0,2.3691
142164,1648987621024,,,250,252,233,230,,-0.0,-0.15,1.17,-0,-3,-2,0.15,,62,6218,12,11,80,0.762,0.0,623,4.68,13.0,0.0,1,39.1,6.43,16.0,0,0,0,1,1,,,,,,,,,,,,,,,,,,,,
142184,1648987621044,,,250,252,233,230,,-0.06,-0.18,1.08,-0,-1,-0,0.19,,62,6220,11,11,78,0.757,0.0,626,4.72,13.1,0.0,1,38.6,6.23,16.0,0,0,0,1,1,,,,,,,,,,,,,,,,,,,,
142204,1648987621064,,,250,252,233,230,,-0.11,-0.21,0.99,-0,0,2,0.23,,62,6048,11,11,76,0.752,0.0,622,4.74,13.1,0.0,1,37.1,6.14,16.0,0,0,0,1,1,,,,,,,,,,,,,,,,,,,,
142224,1648987621084,,,250,253,233,230,,-0.16,-0.24,0.92,-0,2,4,0.28,,62,5899,11,11,75,0.747,0.0,621,4.73,13.1,0.0,1,36.9,5.84,16.3,0,0,0,1,1,,,,,,,,,,,,,,,,,,,,
142244,1648987621098,0,4,250,253,233,230,-1,-0.17,-0.29,0.84,-0,2,4,0.33,1,62,5822,11,11,74,0.744,0.0,623,4.72,13.0,0.0,1,36.8,2.73,16.3,0,0,0,1,1,0,250,250,0,45.700455,4.909369,0.0,207.0,10,3,1.5,0,0.0,-1,0.0,0.0,0.0,0,0.0,2.3707
142264,1648987621118,,,249,252,233,230,,-0.11,-0.34,0.78,-0,1,2,0.36,,62,5719,11,11,73,0.74,0.0,621,4.7,12.8,0.0,1,36.7,2.6,16.3,0,0,0,1,1,,,,,,,,,,,,,,,,,,,,
142284,1648987621138,,,250,252,233,230,,-0.08,-0.27,1.03,-0,-2,-1,0.29,,62,5582,11,11,73,0.736,0.0,616,4.66,12.9,0.0,1,36.9,2.53,16.3,0,0,0,1,1,,,,,,,,,,,,,,,,,,,,
142304,1648987621158,,,250,253,233,230,,-0.14,-0.24,0.95,-0,-0,2,0.28,,62,5415,11,11,73,0.731,0.0,619,4.73,13.1,0.0,1,37.1,2.47,16.3,0,0,0,1,1,,,,,,,,,,,,,,,,,,,,
142324,1648987621178,,,250,250,233,230,,-0.08,-0.29,0.87,-0,-0,1,0.3,,62,5431,11,11,74,0.729,0.0,618,4.72,12.7,0.0,1,37.3,2.54,12.6,0,0,0,1,1,,,,,,,,,,,,,,,,,,,,
142344,1648987621194,-2,5,250,253,233,230,-1,-0.09,-0.18,1.11,-0,-2,0,0.2,1,62,5434,11,11,75,0.734,0.0,620,4.67,13.1,0.0,1,37.5,2.61,12.6,0,0,0,1,1,0,250,250,0,45.700455,4.909369,0.0,207.0,10,3,1.5,0,0.0,-1,0.0,,0.0,0,0.0,2.3724
142364,1648987621214,,,250,253,233,230,,-0.1,-0.21,1.03,-0,1,3,0.24,,62,5405,11,11,76,0.743,0.0,617,4.73,13.1,0.0,1,37.8,5.13,12.6,0,0,0,1,1,,,,,,,,,,,,,,,,,,,,
142384,1648987621234,,,250,251,233,230,,-0.07,-0.19,1.26,-0,-2,-0,0.2,,62,5367,11,11,76,0.749,0.0,615,4.72,12.7,0.0,1,37.9,2.64,12.6,0,0,0,1,1,,,,,,,,,,,,,,,,,,,,
142404,1648987621254,,,249,253,233,230,,-0.12,-0.16,1.16,-0,0,3,0.2,,62,5319,11,11,77,0.754,0.0,619,4.75,13.1,0.0,1,38.2,3.91,12.6,0,0,0,1,1,,,,,,,,,,,,,,,,,,,,
142424,1648987621292,,,250,252,233,230,,-0.06,-0.19,1.14,-0,-0,0,0.2,,62,5364,11,11,77,0.766,0.0,617,4.73,13.0,0.0,1,38.1,3.95,9.8,0,0,0,1,1,,,,,,,,,,,,,,,,,,,,
142444,1648987621312,0,4,250,253,233,230,-0,-0.1,-0.15,1.32,-0,0,2,0.18,1,62,5277,11,11,78,0.774,0.0,611,4.7,13.1,0.0,1,38.5,3.92,9.8,0,0,0,1,1,0,250,250,0,45.700455,4.909369,0.0,207.0,10,3,1.5,0,0.0,-1,0.0,0.0,0.0,0,0.0,2.3741
142464,1648987621332,,,250,252,233,230,,-0.05,-0.2,1.22,-0,1,1,0.21,,62,5442,11,11,78,0.783,0.0,613,4.72,13.1,0.0,1,38.3,4.03,9.8,0,0,0,1,1,,,,,,,,,,,,,,,,,,,,
142484,1648987621352,,,250,252,233,230,,-0.04,-0.11,1.43,-0,-2,-2,0.12,,62,5503,11,11,78,0.794,0.0,613,4.67,12.8,0.0,1,38.2,4.04,9.8,0,0,0,1,1,,,,,,,,,,,,,,,,,,,,
142504,1648987621372,,,250,253,233,230,,-0.09,-0.09,1.32,-0,0,1,0.13,,62,5602,11,11,78,0.798,0.0,622,4.75,13.1,0.0,1,38.0,2.85,9.8,0,0,0,1,1,,,,,,,,,,,,,,,,,,,,
142524,1648987621392,,,250,252,233,230,,-0.12,-0.13,1.22,-0,3,4,0.18,,62,5737,11,11,77,0.807,0.0,624,4.75,13.0,0.0,1,37.5,4.18,10.9,0,0,0,1,1,,,,,,,,,,,,,,,,,,,,
142544,1648987621407,1,7,250,253,233,230,-1,-0.13,-0.19,1.13,-0,4,4,0.23,1,62,5971,11,11,77,0.821,0.0,628,4.78,13.1,0.0,1,37.2,4.34,10.9,0,0,0,1,1,0,250,250,0,45.700455,4.909369,0.0,207.0,10,3,1.5,0,0.0,-1,0.0,,0.0,0,0.0,2.3757
142564,1648987621427,,,250,253,233,230,,-0.19,-0.2,1.04,-0,7,6,0.28,,62,6225,11,11,76,0.83,0.0,632,4.79,13.1,0.0,1,38.2,4.25,10.9,0,0,0,1,1,,,,,,,,,,,,,,,,,,,,
142584,1648987621447,,,250,252,233,230,,-0.21,-0.12,0.98,-0,7,7,0.25,,62,6315,11,11,74,0.828,0.0,631,4.78,13.1,0.0,1,38.3,4.05,10.9,0,0,0,1,1,,,,,,,,,,,,,,,,,,,,
142604,1648987621467,,,250,251,233,230,,-0.19,-0.02,1.22,-0,6,6,0.19,,62,6190,11,11,72,0.817,0.0,625,4.66,12.9,0.0,1,37.1,3.98,10.9,0,0,0,1,1,,,,,,,,,,,,,,,,,,,,
142624,1648987621487,,,250,251,233,230,,-0.14,-0.02,1.43,-0,4,3,0.15,,62,6368,11,11,72,0.809,0.0,627,4.61,12.9,0.0,1,38.2,2.6,11.2,0,0,0,1,1,,,,,,,,,,,,,,,,,,,,
142644,1648987621499,-0,5,250,252,233,230,-1,-0.1,-0.08,1.4,-0,2,2,0.13,1,62,6210,11,11,71,0.801,0.0,627,4.71,13.1,0.0,1,37.1,2.53,11.2,0,0,0,1,1,0,250,250,0,45.700455,4.909369,0.0,207.0,10,3,1.5,0,0.0,-1,0.0,0.0,0.0,0,0.0,2.3774
142664,1648987621519,,,250,253,233,230,,-0.12,-0.13,1.29,-0,3,3,0.17,,62,6353,11,11,70,0.789,0.0,627,4.76,13.2,0.0,1,37.7,3.72,11.2,0,0,0,1,1,,,,,,,,,,,,,,,,,,,,
142684,1648987621539,,,250,252,233,230,,-0.15,-0.08,1.19,-0,3,4,0.17,,62,6449,11,11,70,0.78,0.0,627,4.63,13.0,0.0,1,38.2,2.45,11.2,0,0,0,1,1,,,,,,,,,,,,,,,,,,,,
142704,1648987621559,,,250,253,233,230,,-0.1,-0.01,1.41,-0,1,2,0.1,,62,6438,11,11,69,0.764,0.0,623,4.65,12.8,0.0,1,37.9,2.36,11.2,0,0,0,1,1,,,,,,,,,,,,,,,,,,,,
142724,1648987621579,,,249,252,233,230,,-0.12,-0.09,1.3,-0,3,3,0.15,,62,6689,11,11,69,0.751,0.0,634,4.72,13.1,0.0,1,39.2,3.64,11.1,0,0,0,1,1,,,,,,,,,,,,,,,,,,,,
142744,1648987621593,0,3,250,253,233,230,-1,-0.12,-0.03,1.27,-0,3,3,0.12,1,62,6588,10,11,69,0.746,0.0,628,4.66,12.9,0.0,1,38.7,2.37,11.1,0,0,0,1,1,0,250,250,0,45.700455,4.909369,0.0,207.0,10,3,1.5,0,0.0,-1,0.0,,0.0,0,0.0,2.3791
142764,1648987621613,,,249,252,233,230,,-0.12,-0.09,1.18,-0,3,3,0.14,,62,6848,10,11,68,0.74,0.0,633,4.7,13.1,0.0,1,39.9,3.59,11.1,0,0,0,1,1,,,,,,,,,,,,,,,,,,,,
142784,1648987621633,,,250,250,233,230,,-0.09,-0.02,1.29,-0,2,2,0.09,,62,6813,9,11,67,0.736,0.0,636,4.68,12.8,0.0,1,39.3,2.18,11.1,0,0,0,1,1,,,,,,,,,,,,,,,,,,,,
142804,1648987621653,,,249,253,233,230,,-0.11,-0.06,1.19,-0,4,4,0.13,,62,6906,8,11,66,0.728,0.0,638,4.74,13.1,0.0,1,39.5,3.31,11.1,0,0,0,1,1,,,,,,,,,,,,,,,,,,,,
142824,1648987621673,,,250,252,233,230,,-0.07,-0.02,1.41,-0,2,1,0.07,,62,6913,8,11,65,0.724,0.0,637,4.71,12.9,0.0,1,39.2,3.16,10.1,0,0,0,1,1,,,,,,,,,,,,,,,,,,,,
142844,1648987621709,0,6,249,251,233,230,-1,-0.11,-0.06,1.3,-0,3,3,0.13,1,62,6908,8,11,64,0.724,0.0,634,4.76,13.1,0.0,1,38.8,3.01,10.1,0,0,0,1,1,0,250,250,0,45.700455,4.909369,0.0,207.0,10,3,1.5,0,0.0,-1,0.0,0.0,0.0,0,0.0,2.3807
142864,1648987621729,,,250,253,233,230,,-0.07,-0.07,1.51,-0,2,2,0.1,,62,6923,8,11,63,0.725,0.0,636,4.68,12.8,0.0,1,38.5,1.64,10.1,0,0,0,1,1,,,,,,,,,,,,,,,,,,,,
142884,1648987621749,,,250,252,233,230,,-0.07,-0.03,1.49,-0,2,1,0.07,,62,6954,8,11,62,0.726,0.0,638,4.72,12.8,0.0,1,38.4,2.73,10.1,0,0,0,1,1,,,,,,,,,,,,,,,,,,,,
142904,1648987621769,,,250,251,233,230,,-0.07,0.0,1.38,-0,2,3,0.07,,62,6947,8,11,61,0.725,0.0,640,4.76,13.1,0.0,1,38.0,1.38,10.1,0,0,0,1,1,,,,,,,,,,,,,,,,,,,,
142924,1648987621789,,,250,252,233,230,,-0.08,-0.03,1.27,-0,1,2,0.09,,62,7025,8,11,60,0.723,0.0,633,4.69,12.8,0.0,1,37.9,2.57,8.2,0,0,0,1,1,,,,,,,,,,,,,,,,,,,,
142944,1648987621803,-1,6,250,252,233,230,-1,-0.04,-0.0,1.47,-0,1,0,0.04,1,62,7040,7,11,59,0.724,0.0,633,4.71,12.9,0.0,1,37.6,2.53,8.2,0,0,0,1,1,0,250,250,0,45.700455,4.909369,0.0,207.0,10,3,1.5,0,0.0,-1,0.0,,0.0,0,0.0,2.3824
142964,1648987621823,,,250,253,233,230,,-0.05,0.01,1.39,-0,2,3,0.05,,62,6983,7,11,59,0.726,0.0,636,4.74,13.1,0.0,1,37.5,1.31,8.2,0,0,0,1,1,,,,,,,,,,,,,,,,,,,,
142984,1648987621843,,,249,251,233,230,,-0.08,-0.02,1.28,-0,2,2,0.08,,62,7115,8,11,58,0.724,0.0,637,4.68,13.1,0.0,1,37.3,2.49,8.2,0,0,0,1,1,,,,,,,,,,,,,,,,,,,,
143004,1648987621863,,,250,251,233,230,,-0.05,-0.06,1.49,-0,1,0,0.07,,62,7033,8,11,57,0.723,0.0,636,4.75,13.0,0.0,1,36.9,2.45,8.2,0,0,0,1,1,,,,,,,,,,,,,,,,,,,,
143024,1648987621883,,,250,251,233,230,,-0.02,-0.02,1.53,-0,1,0,0.03,,62,7123,8,11,57,0.718,0.0,640,4.75,13.0,0.0,1,36.9,2.46,8.0,0,0,0,1,1,,,,,,,,,,,,,,,,,,,,
143044,1648987621899,0,5,250,253,233,230,-1,-0.04,0.03,1.41,-0,2,2,0.05,1,62,7142,8,10,56,0.716,0.0,641,4.7,13.0,0.0,1,36.6,1.22,8.0,0,0,0,1,1,0,250,250,0,45.700455,4.909369,0.0,207.0,10,3,1.6,0,0.0,-1,0.0,0.0,0.0,0,0.0,2.3841
143064,1648987621919,,,250,252,233,230,,-0.07,-0.02,1.3,-0,2,1,0.07,,62,7151,8,11,56,0.712,0.0,640,4.74,13.0,0.0,1,36.6,1.22,8.0,0,0,0,1,1,,,,,,,,,,,,,,,,,,,,
143084,1648987621939,,,250,250,233,230,,-0.06,-0.03,1.33,-0,1,-0,0.06,,62,7261,8,10,56,0.711,0.0,638,4.69,12.8,0.0,1,36.7,2.45,8.0,0,0,0,1,1,,,,,,,,,,,,,,,,,,,,
143104,1648987621959,,,250,253,233,230,,-0.04,-0.07,1.48,-0,0,-1,0.08,,62,7253,8,10,55,0.711,0.0,638,4.7,12.9,0.0,1,36.4,1.2,8.0,0,0,0,1,1,,,,,,,,,,,,,,,,,,,,
143124,1648987621979,,,250,253,233,230,,-0.01,-0.05,1.6,-0,-0,-1,0.05,,62,7261,8,10,55,0.71,0.0,642,4.74,13.0,0.0,1,36.4,2.42,8.0,0,0,0,1,1,,,,,,,,,,,,,,,,,,,,
143144,1648987621999,-0,7,250,252,233,230,-2,-0.01,0.02,1.66,-0,1,-1,0.02,1,62,7324,8,10,55,0.71,0.0,641,4.75,13.1,0.0,1,36.4,2.39,8.0,0,0,0,1,1,0,250,250,0,45.700455,4.909369,0.0,207.0,10,3,1.6,0,0.0,-1,0.0,,0.0,0,0.0,2.3857
143164,1648987622009,,,250,253,233,230,,-0.01,0.02,1.53,-0,1,1,0.02,,62,7381,8,10,54,0.709,0.0,646,4.71,13.0,0.0,1,36.3,1.2,8.0,0,0,0,1,1,,,,,,,,,,,,,,,,,,,,
143184,1648987622029,,,250,251,233,230,,-0.03,0.05,1.41,-0,2,2,0.06,,62,7329,8,10,54,0.709,0.0,639,4.73,13.1,0.0,1,36.2,2.39,8.0,0,0,0,1,1,,,,,,,,,,,,,,,,,,,,
143204,1648987622049,,,250,253,233,230,,-0.04,0.09,1.3,-0,2,3,0.1,,62,7413,8,10,54,0.709,0.0,641,4.76,13.1,0.0,1,36.3,2.42,8.0,0,0,0,1,1,,,,,,,,,,,,,,,,,,,,
143224,1648987622069,,,250,251,233,230,,-0.07,0.1,1.2,-0,3,4,0.12,,62,7515,8,10,53,0.71,0.0,645,4.7,13.1,0.0,1,36.2,2.43,8.4,0,0,0,1,1,,,,,,,,,,,,,,,,,,,,
143244,1648987622109,-1,6,250,252,233,230,-2,-0.08,0.09,1.11,-0,4,5,0.12,1,62,7597,8,10,53,0.709,0.0,643,4.67,12.9,0.0,1,36.4,2.45,8.4,0,0,0,1,1,0,250,250,0,45.700455,4.909369,0.0,207.0,10,3,1.5,0,0.0,-1,0.0,0.0,0.0,0,0.0,2.3874
143264,1648987622129,,,250,253,233,230,,-0.08,0.11,1.02,-0,4,6,0.14,,62,7649,8,10,52,0.709,0.0,642,4.67,13.0,0.0,1,36.2,2.45,8.4,0,0,0,1,1,,,,,,,,,,,,,,,,,,,,
143284,1648987622149,,,250,253,233,230,,-0.06,0.14,1.1,-0,3,5,0.15,,62,7744,8,10,51,0.708,0.0,645,4.77,13.1,0.0,1,36.2,1.25,8.4,0,0,0,1,1,,,,,,,,,,,,,,,,,,,,
143304,1648987622169,,,250,252,233,230,,-0.04,0.16,1.29,-0,3,3,0.16,,62,7786,8,10,50,0.707,0.0,644,4.73,13.0,0.0,1,36.3,2.45,8.4,0,0,0,1,1,,,,,,,,,,,,,,,,,,,,
143324,1648987622189,,,249,252,233,230,,-0.05,0.14,1.31,-0,2,2,0.15,,62,7995,8,10,49,0.706,0.0,646,4.7,12.9,0.0,1,36.6,2.47,9.0,0,0,0,1,1,,,,,,,,,,,,,,,,,,,,
143344,1648987622201,0,7,250,252,233,230,-2,-0.03,0.18,1.38,-0,2,2,0.18,1,62,8138,8,10,48,0.704,0.0,650,4.65,12.9,0.0,1,36.8,2.62,9.0,0,0,0,1,1,0,250,250,0,45.700455,4.909369,0.0,207.0,10,3,1.5,0,0.0,-1,0.0,,0.0,0,0.0,2.3891
143364,1648987622221,,,249,253,233,230,,-0.03,0.15,1.29,-0,2,1,0.15,,62,8337,8,10,47,0.702,0.0,651,4.75,13.0,0.0,1,36.8,2.84,9.0,0,0,0,1,1,,,,,,,,,,,,,,,,,,,,
143384,1648987622241,,,249,253,233,230,,-0.03,0.11,1.28,-0,2,0,0.11,,62,8491,8,10,45,0.7,0.0,656,4.66,13.0,0.0,1,35.6,2.96,9.0,0,0,0,1,1,,,,,,,,,,,,,,,,,,,,
143404,1648987622261,,,250,253,233,230,,-0.01,0.14,1.2,-0,2,2,0.14,,62,8644,8,10,44,0.698,0.0,652,4.72,13.0,0.0,1,35.1,2.96,9.0,0,0,0,1,1,,,,,,,,,,,,,,,,,,,,
143424,1648987622281,,,249,252,233,230,,-0.01,0.18,1.18,-0,2,3,0.18,,62,8769,8,10,43,0.696,0.0,653,4.7,12.8,0.0,1,34.5,2.95,11.9,0,0,0,1,1,,,,,,,,,,,,,,,,,,,,
143444,1648987622297,0,4,250,253,233,230,-1,-0.03,0.2,1.09,0,2,5,0.2,1,62,8865,8,10,42,0.693,0.0,654,4.7,12.7,0.0,1,33.8,2.93,11.9,0,0,0,1,1,0,250,250,0,45.700455,4.909369,0.0,207.0,10,3,1.5,0,0.0,-1,0.0,0.0,0.0,0,0.0,2.3907
143464,1648987622317,,,250,253,233,230,,-0.02,0.2,1.09,0,2,6,0.2,,62,8937,8,10,41,0.692,0.0,655,4.7,12.8,0.0,1,33.2,1.67,11.9,0,0,0,1,1,,,,,,,,,,,,,,,,,,,,
143484,1648987622337,,,250,253,233,230,,-0.05,0.18,1.01,0,2,7,0.19,,62,8984,8,10,40,0.69,0.0,662,4.71,13.0,0.0,1,32.6,2.87,11.9,0,0,0,1,1,,,,,,,,,,,,,,,,,,,,
143504,1648987622357,,,250,253,233,230,,-0.05,0.17,1.07,0,2,7,0.18,,62,8962,8,10,40,0.689,0.0,660,4.7,13.0,0.0,1,32.6,1.64,11.9,0,0,0,1,1,,,,,,,,,,,,,,,,,,,,
143524,1648987622393,,,249,253,233,230,,-0.06,0.12,1.08,0,2,7,0.14,,62,8890,8,10,39,0.688,0.0,654,4.71,12.8,0.0,1,32.0,2.85,11.8,0,0,0,1,1,,,,,,,,,,,,,,,,,,,,
143544,1648987622413,-1,6,250,253,233,230,-1,-0.08,0.09,1.24,-0,2,5,0.12,1,62,8745,8,10,39,0.687,0.0,656,4.7,13.0,0.0,1,32.0,1.62,11.8,0,0,0,1,1,0,250,250,0,45.700455,4.909369,0.0,207.0,10,3,1.5,0,0.0,-1,0.0,,0.0,0,0.0,2.3924
143564,1648987622433,,,250,253,233,230,,-0.06,0.1,1.34,-0,1,3,0.12,,62,8546,8,10,39,0.687,0.0,647,4.69,12.9,0.0,1,32.0,2.85,11.8,0,0,0,1,1,,,,,,,,,,,,,,,,,,,,
143584,1648987622453,,,250,253,233,230,,-0.06,0.07,1.23,-0,2,4,0.09,,62,8311,8,10,40,0.687,0.0,652,4.72,12.8,0.0,1,32.2,2.7,11.8,0,0,0,1,1,,,,,,,,,,,,,,,,,,,,
143604,1648987622473,,,249,252,233,230,,-0.05,0.05,1.14,-0,2,4,0.07,,62,8095,8,10,40,0.688,0.0,646,4.73,13.0,0.0,1,31.7,1.27,11.8,0,0,0,1,1,,,,,,,,,,,,,,,,,,,,
143624,1648987622493,,,250,253,233,230,,-0.04,0.05,1.3,-0,1,2,0.07,,62,7874,8,10,41,0.689,0.0,644,4.83,13.0,0.0,1,32.2,1.18,8.8,0,0,0,1,1,,,,,,,,,,,,,,,,,,,,
143644,1648987622508,0,7,249,253,233,230,-1,-0.02,0.07,1.47,-0,0,0,0.07,1,62,7581,8,10,42,0.692,0.0,639,4.66,12.8,0.0,1,32.5,2.37,8.8,0,0,0,1,1,0,250,250,0,45.700455,4.909369,0.0,207.0,10,3,1.5,0,0.0,-1,0.0,0.0,0.0,0,0.0,2.3941
143664,1648987622528,,,250,252,233,230,,0.01,0.1,1.66,-0,-1,-1,0.1,,62,7376,8,10,43,0.696,0.0,631,4.67,12.8,0.0,1,32.8,1.16,8.8,0,0,0,1,1,,,,,,,,,,,,,,,,,,,,
143684,1648987622548,,,249,253,233,230,,0.0,0.09,1.66,-0,-0,-1,0.09,,62,7214,8,10,44,0.701,0.0,637,4.72,13.2,0.0,1,32.8,2.34,8.8,0,0,0,1,1,,,,,,,,,,,,,,,,,,,,
143704,1648987622568,,,250,252,233,230,,-0.04,0.08,1.53,-0,0,1,0.09,,62,7033,8,10,45,0.709,0.0,639,4.77,13.2,0.0,1,32.8,1.12,8.8,0,0,0,1,1,,,,,,,,,,,,,,,,,,,,
143724,1648987622588,,,250,250,233,230,,0.03,0.07,1.72,-0,-2,-2,0.08,,62,6766,7,10,46,0.72,0.0,628,4.75,13.2,0.0,1,32.5,1.14,7.4,0,0,0,1,1,,,,,,,,,,,,,,,,,,,,
143744,1648987622600,-2,6,250,253,233,230,-1,-0.03,0.06,1.61,-0,3,-0,0.07,1,62,6555,7,10,46,0.737,0.0,630,4.73,13.1,0.0,1,32.1,2.36,7.4,0,0,0,1,1,0,250,250,0,45.700455,4.909369,0.0,207.0,10,3,1.5,0,0.0,-1,0.0,,0.0,0,0.0,2.3957
143764,1648987622620,,,251,254,232,229,,-0.04,0.06,1.49,-0,5,1,0.07,,62,6334,7,10,47,0.754,0.0,630,4.76,12.9,0.0,1,31.9,1.17,7.4,0,0,0,1,1,,,,,,,,,,,,,,,,,,,,
143784,1648987622640,,,252,254,231,228,,-0.19,0.16,1.68,0,2,-1,0.25,,62,6275,1,10,47,0.771,0.0,622,4.73,12.8,0.0,1,31.7,2.38,7.4,0,0,0,1,1,,,,,,,,,,,,,,,,,,,,
143804,1648987622660,,,250,252,233,230,,-0.11,0.18,1.86,-0,1,-3,0.22,,62,6375,1,10,46,0.787,0.0,628,4.65,12.9,0.0,1,31.7,2.37,7.4,0,0,0,1,1,,,,,,,,,,,,,,,,,,,,
143824,1648987622680,,,250,253,235,231,,-0.12,0.14,1.72,0,2,-2,0.19,,62,6254,1,10,45,0.803,0.0,624,4.65,12.9,0.0,1,31.3,2.33,6.8,0,0,0,1,1,,,,,,,,,,,,,,,,,,,,
143844,1648987622696,0,3,251,254,234,232,-1,-0.1,0.08,1.58,0,3,-1,0.12,1,62,6216,1,10,44,0.831,0.0,623,4.82,13.1,0.0,1,31.0,1.17,6.8,0,0,0,1,1,0,250,250,0,45.700455,4.909369,0.0,207.0,10,3,1.5,0,0.0,-1,0.0,0.0,0.0,0,0.0,2.3974
143864,1648987622716,,,251,254,234,231,,-0.12,0.05,1.46,0,4,1,0.13,,62,6105,1,10,44,0.852,0.0,623,4.8,13.0,0.0,1,30.8,2.34,6.8,0,0,0,1,1,,,,,,,,,,,,,,,,,,,,
143884,1648987622736,,,250,253,234,231,,-0.22,0.03,1.35,0,5,3,0.22,,62,5984,1,10,43,0.875,0.0,618,4.77,13.1,0.0,1,30.4,2.39,6.8,0,0,0,1,1,,,,,,,,,,,,,,,,,,,,
143904,1648987622756,,,250,252,235,232,,-0.21,-0.03,1.24,0,7,5,0.22,,62,5852,1,10,43,0.897,0.0,617,4.75,13.0,0.0,1,30.1,2.46,6.8,0,0,0,1,1,,,,,,,,,,,,,,,,,,,,
143924,1648987622792,,,250,251,235,232,,-0.15,-0.09,1.15,0,6,4,0.18,,62,5649,1,10,44,0.931,0.0,609,4.77,13.0,0.0,1,29.9,2.55,6.6,0,0,0,1,1,,,,,,,,,,,,,,,,,,,,
143944,1648987622812,-1,12,250,250,234,232,-1,-0.11,0.02,1.37,-0,4,2,0.11,1,62,5480,1,10,44,0.95,0.0,610,4.71,12.6,0.0,1,29.5,1.43,6.6,0,0,0,1,1,0,250,250,0,45.700455,4.909369,0.0,207.0,10,3,1.5,0,0.0,-1,0.0,,0.0,0,0.0,2.3991
143964,1648987622832,,,250,253,234,231,,-0.16,0.04,1.26,0,6,4,0.16,,62,5265,1,10,45,0.976,0.0,608,4.75,13.0,0.0,1,29.5,2.74,6.6,0,0,0,1,1,,,,,,,,,,,,,,,,,,,,
143984,1648987622852,,,250,253,234,231,,-0.12,0.07,1.41,-0,5,2,0.14,,62,5110,1,10,46,0.979,0.0,606,4.71,12.8,0.0,1,29.4,2.86,6.6,0,0,0,1,1,,,,,,,,,,,,,,,,,,,,
144004,1648987622872,,,250,251,234,231,,-0.1,0.02,1.3,0,3,2,0.1,,62,4918,1,10,47,0.983,0.0,602,4.73,12.9,0.0,1,0.0,2.86,6.6,0,0,0,1,1,,,,,,,,,,,,,,,,,,,,
144024,1648987622892,,,250,251,235,231,,-0.1,0.0,1.21,0,3,2,0.1,,62,4756,1,10,48,0.987,0.0,603,4.71,13.0,0.0,1,26.9,2.77,6.3,0,0,0,1,1,,,,,,,,,,,,,,,,,,,,
144044,1648987622908,-0,8,250,251,235,232,-1,-0.11,-0.02,1.13,-0,3,3,0.11,1,62,4580,1,10,48,0.996,0.0,596,4.76,12.8,0.0,1,0.0,2.67,6.3,0,0,0,1,1,0,250,250,0,45.700455,4.909369,0.0,207.0,10,3,1.5,0,0.0,-1,0.0,0.0,0.0,0,0.0,2.4007
144064,1648987622928,,,250,253,234,232,,-0.11,-0.03,1.05,0,3,3,0.12,,62,4399,1,10,49,0.993,0.0,596,4.7,12.9,0.0,1,0.0,2.57,6.3,0,0,0,1,1,,,,,,,,,,,,,,,,,,,,
144084,1648987622948,,,250,253,234,232,,-0.07,-0.06,1.03,-0,2,2,0.09,,62,4232,1,10,50,0.983,0.0,584,4.75,12.7,0.0,1,21.1,2.47,6.3,0,0,0,1,1,,,,,,,,,,,,,,,,,,,,
144104,1648987622968,,,250,253,234,232,,-0.07,-0.03,1.06,-0,3,2,0.08,,62,4111,1,10,51,0.978,0.0,562,4.73,13.1,0.0,1,0.0,1.18,6.3,0,0,0,1,1,,,,,,,,,,,,,,,,,,,,
144124,1648987622988,,,250,253,234,231,,-0.07,-0.02,1.16,-0,2,2,0.07,,62,4003,1,10,52,0.971,0.0,547,4.73,13.2,0.0,1,0.0,2.3,4.4,0,0,0,1,1,,,,,,,,,,,,,,,,,,,,
144144,1648987623000,-2,8,250,253,234,232,-1,-0.06,-0.01,1.15,-0,2,1,0.06,1,62,3832,1,10,52,0.958,0.0,523,4.71,12.8,0.0,1,0.0,2.33,4.4,0,0,0,1,1,0,250,250,0,45.700455,4.909369,0.0,207.0,10,3,1.5,0,0.0,-1,0.0,,0.0,0,0.0,2.4024
144164,1648987623020,,,250,252,234,231,,-0.06,-0.01,1.19,-0,1,1,0.06,,62,3737,1,10,54,0.94,0.0,492,4.75,13.2,0.0,1,0.0,2.34,4.4,0,0,0,1,1,,,,,,,,,,,,,,,,,,,,
144184,1648987623040,,,250,252,234,231,,-0.07,-0.0,1.19,-0,2,1,0.07,,62,3559,1,10,55,0.918,0.0,485,4.74,12.7,0.0,1,0.0,2.42,4.4,0,0,0,1,1,,,,,,,,,,,,,,,,,,,,
144204,1648987623060,,,250,253,234,232,,-0.07,-0.03,1.14,-0,2,1,0.08,,62,3421,1,10,57,0.904,0.0,454,4.75,13.2,0.0,1,0.0,2.47,4.4,0,0,0,1,1,,,,,,,,,,,,,,,,,,,,
144224,1648987623080,,,250,252,234,232,,-0.05,-0.02,1.09,-0,1,1,0.05,,62,3281,4,10,58,0.9,0.0,438,4.73,13.2,0.0,1,0.0,2.54,3.8,0,0,0,1,1,,,,,,,,,,,,,,,,,,,,
144244,1648987623096,-2,7,250,251,234,232,-1,-0.04,-0.0,1.07,-0,0,1,0.04,1,62,3151,10,10,62,0.903,0.0,404,4.76,13.2,0.0,1,15.3,2.68,3.8,0,0,0,1,1,0,250,250,0,45.700455,4.909369,0.0,207.0,10,3,1.5,0,0.0,-1,0.0,0.0,0.0,0,0.0,2.4041
144264,1648987623116,,,250,252,234,232,,-0.03,0.0,1.08,-0,1,1,0.03,,62,3005,19,10,68,0.904,0.0,399,4.76,13.2,0.0,1,17.5,4.53,3.8,0,0,0,1,1,,,,,,,,,,,,,,,,,,,,
144284,1648987623136,,,250,253,234,231,,-0.02,0.01,1.04,-0,0,1,0.02,,62,2875,26,10,77,0.905,0.0,375,4.76,13.2,0.0,1,18.7,4.93,3.8,0,0,0,1,1,,,,,,,,,,,,,,,,,,,,
144304,1648987623156,,,250,253,234,232,,-0.01,-0.0,1.02,-0,-0,1,0.01,,62,3036,30,10,87,0.915,0.0,380,4.75,13.2,0.0,1,23.9,2.17,3.8,0,0,0,1,1,,,,,,,,,,,,,,,,,,,,
144324,1648987623193,,,250,253,234,232,,-0.02,-0.0,1.05,-0,-1,1,0.02,,62,3481,31,10,93,0.924,0.0,406,4.7,13.2,0.0,1,27.2,7.33,9.2,0,0,0,1,1,,,,,,,,,,,,,,,,,,,,
144344,1648987623213,-1,6,250,253,234,232,-1,-0.03,-0.03,0.97,-0,-1,1,0.04,1,62,3682,31,10,95,0.935,0.0,442,4.72,13.2,0.0,1,30.1,3.1,9.2,0,0,0,1,1,0,250,250,0,45.700455,4.909369,0.0,207.0,10,3,1.5,0,0.0,-1,0.0,,0.0,0,0.0,2.4057
144364,1648987623233,,,250,253,234,232,,-0.04,-0.02,1.05,-0,-1,1,0.05,,62,3800,31,10,96,0.945,0.0,483,4.72,13.1,0.0,1,33.0,7.77,9.2,0,0,0,1,1,,,,,,,,,,,,,,,,,,,,
144384,1648987623253,,,250,253,234,232,,-0.06,-0.01,1.11,-0,-0,1,0.06,,62,4222,32,10,96,0.952,0.0,526,4.72,13.2,0.0,1,35.7,7.59,9.2,0,0,0,1,1,,,,,,,,,,,,,,,,,,,,
144404,1648987623273,,,250,253,234,231,,-0.07,0.02,1.26,-0,0,1,0.07,,62,4673,29,10,96,0.957,0.0,583,4.71,13.1,0.0,1,39.8,2.95,9.2,0,0,0,1,1,,,,,,,,,,,,,,,,,,,,
144424,1648987623293,,,250,253,234,232,,-0.02,-0.03,1.17,-0,-1,0,0.03,,62,5179,20,10,94,0.962,0.0,603,4.72,12.8,0.0,1,42.3,7.21,15.5,0,0,0,1,1,,,,,,,,,,,,,,,,,,,,
144444,1648987623308,-0,6,250,253,234,231,-1,-0.02,0.04,1.38,-0,-2,-1,0.05,1,62,5420,9,10,90,0.966,0.0,615,4.7,13.1,0.0,1,41.5,7.34,15.5,0,0,0,1,1,0,250,250,0,45.700455,4.909369,0.0,207.0,10,3,1.5,0,0.0,-1,0.0,0.0,0.0,0,0.0,2.4074
144464,1648987623328,,,250,253,234,231,,-0.05,0.09,1.28,-0,-0,2,0.1,,62,5905,1,10,84,0.965,0.0,622,4.72,13.0,0.0,1,38.8,4.58,15.5,0,0,0,1,1,,,,,,,,,,,,,,,,,,,,
144484,1648987623348,,,250,253,234,232,,-0.02,0.13,1.49,-0,-1,0,0.13,,62,6421,1,10,78,0.961,0.0,631,4.75,12.9,0.0,1,40.0,2.97,15.5,0,0,0,1,1,,,,,,,,,,,,,,,,,,,,
144504,1648987623368,,,250,253,234,232,,-0.06,0.07,1.37,-0,0,2,0.09,,62,6949,1,10,73,0.955,0.0,638,4.71,13.1,0.0,1,41.8,3.79,15.5,0,0,0,1,1,,,,,,,,,,,,,,,,,,,,
144524,1648987623388,,,250,253,234,231,,-0.02,0.07,1.51,-0,-1,0,0.08,,62,6926,1,10,68,0.948,0.0,631,4.69,12.8,0.0,1,40.3,3.6,11.8,0,0,0,1,1,,,,,,,,,,,,,,,,,,,,
144544,1648987623399,-1,6,250,253,234,231,-1,-0.02,0.07,1.64,-0,-2,-0,0.07,1,62,7110,1,10,64,0.94,0.0,635,4.72,12.9,0.0,1,39.2,3.05,11.8,0,0,0,1,1,0,250,250,0,45.700455,4.909369,0.0,207.0,10,3,1.5,0,0.0,-1,0.0,,0.0,0,0.0,2.4091
144564,1648987623419,,,250,252,234,232,,-0.0,0.11,1.61,-0,-2,-1,0.11,,62,7344,1,10,60,0.933,0.0,638,4.77,13.0,0.0,1,37.8,2.58,11.8,0,0,0,1,1,,,,,,,,,,,,,,,,,,,,
144584,1648987623439,,,250,253,234,231,,0.01,0.17,1.63,-0,-1,-1,0.17,,62,7452,1,10,57,0.926,0.0,641,4.75,13.0,0.0,1,37.1,2.5,11.8,0,0,0,1,1,,,,,,,,,,,,,,,,,,,,
144604,1648987623459,,,250,253,234,231,,0.02,0.18,1.55,-0,-1,-0,0.18,,62,7524,1,10,53,0.919,0.0,640,4.75,13.0,0.0,1,36.2,1.23,11.8,0,0,0,1,1,,,,,,,,,,,,,,,,,,,,
144624,1648987623479,,,250,253,234,232,,0.02,0.19,1.46,-0,-0,-0,0.19,,62,7597,1,10,50,0.911,0.0,638,4.73,13.0,0.0,1,35.8,1.21,8.5,0,0,0,1,1,,,,,,,,,,,,,,,,,,,,
144644,1648987623495,-0,4,250,253,234,232,-2,0.03,0.19,1.58,-0,-1,-2,0.19,1,62,7662,1,10,47,0.894,0.0,647,4.74,13.0,0.0,1,35.5,2.39,8.5,0,0,0,1,1,0,250,250,0,45.700455,4.909369,0.0,207.0,10,3,1.5,0,0.0,-1,0.0,0.0,0.0,0,0.0,2.4107
144664,1648987623515,,,250,253,234,232,,0.04,0.18,1.64,-0,-1,-3,0.19,,62,7751,2,10,45,0.885,0.0,648,4.77,12.8,0.0,1,34.6,1.19,8.5,0,0,0,1,1,,,,,,,,,,,,,,,,,,,,
144684,1648987623535,,,250,253,234,231,,0.02,0.15,1.68,-0,-2,-2,0.15,,62,7851,3,10,43,0.872,0.0,647,4.73,12.9,0.0,1,33.5,2.39,8.5,0,0,0,1,1,,,,,,,,,,,,,,,,,,,,
144704,1648987623555,,,250,253,234,231,,0.02,0.17,1.65,-0,-2,-1,0.17,,62,7878,4,10,42,0.858,0.0,645,4.68,13.1,0.0,1,32.9,2.38,8.5,0,0,0,1,1,,,,,,,,,,,,,,,,,,,,
144724,1648987623591,,,250,253,234,231,,0.04,0.2,1.81,-0,-2,-3,0.2,,62,7858,4,10,41,0.847,0.0,647,4.73,13.1,0.0,1,32.2,2.38,8.6,0,0,0,1,1,,,,,,,,,,,,,,,,,,,,
144744,1648987623611,-1,5,250,253,234,231,-1,0.04,0.21,1.97,-0,-3,-3,0.21,1,62,7855,5,10,40,0.831,0.0,643,4.72,12.8,0.0,1,31.6,1.17,8.6,0,0,0,1,1,0,250,250,0,45.700455,4.909369,0.0,207.0,10,3,1.5,0,0.0,-1,0.0,,0.0,0,0.0,2.4124
144764,1648987623631,,,250,252,234,232,,0.03,0.13,1.89,-0,-3,-3,0.13,,62,7783,5,10,40,0.82,0.0,643,4.68,12.8,0.0,1,31.6,1.17,8.6,0,0,0,1,1,,,,,,,,,,,,,,,,,,,,
144784,1648987623651,,,250,253,234,231,,0.0,0.08,1.75,-0,-2,-1,0.08,,62,7690,5,10,39,0.806,0.0,645,4.67,12.8,0.0,1,31.0,1.17,8.6,0,0,0,1,1,,,,,,,,,,,,,,,,,,,,
144804,1648987623671,,,250,253,234,232,,-0.02,0.03,1.61,-0,-1,0,0.04,,62,7665,5,10,39,0.788,0.0,646,4.76,13.1,0.0,1,31.0,2.37,8.6,0,0,0,1,1,,,,,,,,,,,,,,,,,,,,
144824,1648987623691,,,250,253,234,232,,-0.03,0.05,1.49,-0,0,1,0.06,,62,7659,5,10,39,0.765,0.0,643,4.75,13.1,0.0,1,31.0,2.37,8.4,0,0,0,1,1,,,,,,,,,,,,,,,,,,,,
144844,1648987623707,-1,5,250,253,234,231,-1,-0.03,0.13,1.43,-0,-0,0,0.14,1,62,7606,5,10,39,0.751,0.0,648,4.73,13.1,0.0,1,31.0,1.17,8.4,0,0,0,1,1,0,250,250,0,45.700455,4.909369,0.0,207.0,10,3,1.5,0,0.0,-1,0.0,0.0,0.0,0,0.0,2.4141
144864,1648987623727,,,250,253,234,232,,-0.03,0.19,1.37,-0,-0,0,0.19,,62,7536,5,10,39,0.733,0.0,647,4.73,13.1,0.0,1,31.0,1.17,8.4,0,0,0,1,1,,,,,,,,,,,,,,,,,,,,
144884,1648987623747,,,250,252,234,231,,-0.04,0.17,1.27,-0,0,1,0.18,,62,7479,5,10,39,0.724,0.0,640,4.75,13.1,0.0,1,31.0,2.37,8.4,0,0,0,1,1,,,,,,,,,,,,,,,,,,,,
144904,1648987623767,,,250,252,234,231,,-0.05,0.18,1.17,-0,1,1,0.18,,62,7373,5,10,40,0.72,0.0,643,4.72,13.0,0.0,1,31.4,1.17,8.4,0,0,0,1,1,,,,,,,,,,,,,,,,,,,,
144924,1648987623787,,,250,253,234,231,,-0.06,0.18,1.08,-0,1,2,0.19,,62,7253,5,10,40,0.714,0.0,632,4.68,12.9,0.0,1,31.4,1.17,8.0,0,0,0,1,1,,,,,,,,,,,,,,,,,,,,
144944,1648987623801,-2,4,250,253,234,232,-1,-0.05,0.14,1.08,-0,1,2,0.14,1,62,7183,5,10,40,0.709,0.0,637,4.72,13.0,0.0,1,31.3,1.17,8.0,0,0,0,1,1,0,250,250,0,45.700455,4.909369,0.0,207.0,10,3,1.5,0,0.0,-1,0.0,,0.0,0,0.0,2.4157
144964,1648987623821,,,250,253,234,232,,-0.03,0.16,1.3,-0,0,1,0.16,,62,7113,5,10,41,0.709,0.0,635,4.71,12.8,0.0,1,31.6,2.36,8.0,0,0,0,1,1,,,,,,,,,,,,,,,,,,,,
144984,1648987623841,,,250,253,234,232,,-0.05,0.14,1.2,-0,0,2,0.15,,62,7113,5,10,41,0.71,0.0,633,4.74,13.0,0.0,1,31.6,2.36,8.0,0,0,0,1,1,,,,,,,,,,,,,,,,,,,,
145004,1648987623861,,,250,253,234,232,,-0.06,0.11,1.11,-0,1,2,0.12,,62,7048,5,10,42,0.71,0.0,633,4.68,13.1,0.0,1,31.9,2.35,8.0,0,0,0,1,1,,,,,,,,,,,,,,,,,,,,
145024,1648987623881,,,250,253,234,231,,-0.03,0.08,1.33,-0,-0,1,0.08,,62,6998,5,10,42,0.711,0.0,633,4.7,12.8,0.0,1,31.8,2.35,7.6,0,0,0,1,1,,,,,,,,,,,,,,,,,,,,
145044,1648987623899,-2,4,250,251,234,232,-2,-0.04,0.1,1.23,-0,0,1,0.1,1,62,6978,5,10,43,0.714,0.0,635,4.73,13.2,0.0,1,32.1,1.14,7.6,0,0,0,1,1,0,250,250,0,45.700455,4.909369,0.0,207.0,10,3,1.5,0,0.0,-1,0.0,0.0,0.0,0,0.0,2.4174
145064,1648987623919,,,250,253,234,231,,-0.07,0.1,1.13,-0,1,2,0.12,,62,6962,5,10,43,0.718,0.0,630,4.78,13.2,0.0,1,32.1,1.14,7.6,0,0,0,1,1,,,,,,,,,,,,,,,,,,,,
145084,1648987623939,,,250,252,234,231,,-0.05,0.07,1.12,-0,0,0,0.09,,62,6965,5,10,44,0.723,0.0,632,4.68,12.8,0.0,1,32.4,1.14,7.6,0,0,0,1,1,,,,,,,,,,,,,,,,,,,,
145104,1648987623959,,,250,252,234,232,,-0.03,0.11,1.31,-0,0,1,0.12,,62,6949,5,10,44,0.729,0.0,630,4.74,13.1,0.0,1,32.3,2.34,7.6,0,0,0,1,1,,,,,,,,,,,,,,,,,,,,
145124,1648987623979,,,250,253,234,231,,-0.07,0.08,1.21,-0,1,1,0.11,,62,6947,5,10,44,0.73,0.0,629,4.76,13.1,0.0,1,32.3,2.34,7.5,0,0,0,1,1,,,,,,,,,,,,,,,,,,,,
145144,1648987623999,0,2,250,253,234,231,-1,-0.04,0.06,1.42,-0,-0,-0,0.07,1,62,6983,6,10,45,0.735,0.0,630,4.73,12.9,0.0,1,32.7,2.33,7.5,0,0,0,1,1,0,250,250,0,45.700455,4.909369,0.0,207.0,10,3,1.5,0,0.0,-1,0.0,,0.0,0,0.0,2.4191
145164,1648987624009,,,250,253,234,232,,-0.04,0.1,1.31,-0,1,1,0.1,,62,6978,8,10,45,0.737,0.0,629,4.77,13.1,0.0,1,32.7,1.13,7.5,0,0,0,1,1,,,,,,,,,,,,,,,,,,,,
145184,1648987624029,,,250,253,234,232,,-0.06,0.07,1.21,-0,0,1,0.09,,62,7014,10,10,47,0.741,0.0,633,4.7,13.0,0.0,1,33.4,2.3,7.5,0,0,0,1,1,,,,,,,,,,,,,,,,,,,,
145204,1648987624049,,,250,253,234,231,,-0.03,0.06,1.35,-0,-0,0,0.06,,62,7040,14,10,50,0.742,0.0,637,4.73,13.1,0.0,1,34.5,2.31,7.5,0,0,0,1,1,,,,,,,,,,,,,,,,,,,,
145224,1648987624069,,,250,253,234,232,,-0.02,0.08,1.43,-0,0,1,0.08,,62,7096,17,10,54,0.744,0.0,631,4.75,13.1,0.0,1,36.0,1.14,8.3,0,0,0,1,1,,,,,,,,,,,,,,,,,,,,
145244,1648987624107,-0,4,250,253,234,231,-1,-0.04,0.08,1.32,-0,1,2,0.09,1,62,7134,18,10,58,0.745,0.0,633,4.68,13.0,0.0,1,37.3,2.77,8.3,0,0,0,1,1,0,250,250,0,45.700455,4.909369,0.0,207.0,10,3,1.5,0,0.0,-1,0.0,0.0,0.0,0,0.0,2.4207
145264,1648987624127,,,250,253,234,232,,-0.04,0.07,1.25,-0,1,1,0.08,,62,7137,18,10,62,0.745,0.0,633,4.73,13.0,0.0,1,38.6,1.53,8.3,0,0,0,1,1,,,,,,,,,,,,,,,,,,,,
145284,1648987624147,,,250,251,234,231,,-0.02,0.06,1.41,-0,-0,-0,0.06,,62,7096,19,10,66,0.747,0.0,634,4.68,12.8,0.0,1,39.9,3.72,8.3,0,0,0,1,1,,,,,,,,,,,,,,,,,,,,
145304,1648987624167,,,250,253,234,231,,-0.02,0.12,1.43,-0,1,1,0.12,,62,7004,19,10,68,0.749,0.0,631,4.72,13.0,0.0,1,40.7,2.35,8.3,0,0,0,1,1,,,,,,,,,,,,,,,,,,,,
145324,1648987624187,,,250,253,234,232,,-0.05,0.05,1.32,-0,1,1,0.07,,62,7035,19,10,70,0.748,0.0,633,4.72,13.1,0.0,1,41.2,4.05,12.9,0,0,0,1,1,,,,,,,,,,,,,,,,,,,,
145344,1648987624201,-2,3,250,251,234,231,-2,-0.03,0.04,1.51,-0,-1,-1,0.05,1,62,7142,18,10,72,0.749,0.0,630,4.67,12.9,0.0,1,41.3,2.58,12.9,0,0,0,1,1,0,250,250,0,45.700455,4.909369,0.0,207.0,10,3,1.5,0,0.0,-1,0.0,,0.0,0,0.0,2.4224
145364,1648987624221,,,250,252,234,231,,-0.02,0.01,1.62,-0,-0,-1,0.03,,62,7211,13,10,72,0.756,0.0,633,4.71,13.1,0.0,1,41.2,2.59,12.9,0,0,0,1,1,,,,,,,,,,,,,,,,,,,,
145384,1648987624241,,,250,253,234,232,,-0.0,0.02,1.56,-0,-0,-1,0.02,,62,7364,8,10,70,0.773,0.0,639,4.75,13.1,0.0,1,40.3,3.7,12.9,0,0,0,1,1,,,,,,,,,,,,,,,,,,,,
145404,1648987624261,,,250,253,234,232,,0.01,0.06,1.72,-0,-1,-2,0.07,,62,7640,4,10,66,0.794,0.0,636,4.72,13.0,0.0,1,38.8,2.12,12.9,0,0,0,1,1,,,,,,,,,,,,,,,,,,,,
145424,1648987624281,,,250,252,234,232,,-0.01,0.04,1.72,-0,-1,-2,0.04,,62,8050,4,10,61,0.811,0.0,640,4.72,12.8,0.0,1,38.3,2.57,10.4,0,0,0,1,1,,,,,,,,,,,,,,,,,,,,
145444,1648987624295,-1,2,250,253,234,232,-3,0.01,0.06,1.83,-0,-2,-3,0.06,1,62,8396,4,10,56,0.828,0.0,647,4.64,13.0,0.0,1,39.8,1.99,10.4,0,0,0,1,1,0,250,250,0,45.700455,4.909369,0.0,207.0,10,3,1.5,0,0.0,-1,0.0,0.0,0.0,0,0.0,2.4241
145464,1648987624315,,,250,253,234,232,,0.02,0.01,1.69,-0,-1,-2,0.03,,62,8790,5,10,51,0.865,0.0,653,4.71,12.8,0.0,1,38.4,3.16,10.4,0,0,0,1,1,,,,,,,,,,,,,,,,,,,,
145484,1648987624335,,,250,253,234,232,,0.02,0.03,1.65,-0,-1,-0,0.04,,62,9062,8,10,48,0.901,0.0,654,4.7,12.9,0.0,1,37.5,3.15,10.4,0,0,0,1,1,,,,,,,,,,,,,,,,,,,,
145504,1648987624355,,,250,253,234,232,,0.03,-0.05,1.7,-0,-1,-0,0.05,,62,9305,11,10,46,0.948,0.0,656,4.72,13.0,0.0,1,36.9,3.09,10.4,0,0,0,1,1,,,,,,,,,,,,,,,,,,,,
145524,1648987624375,,,250,252,234,231,,-0.01,-0.14,1.73,-0,-1,-3,0.14,,62,9541,15,10,46,0.97,0.0,657,4.65,12.9,0.0,1,37.2,3.5,15.2,0,0,0,1,1,,,,,,,,,,,,,,,,,,,,
145544,1648987624392,-1,2,250,253,234,231,-3,0.02,-0.03,1.71,-0,-1,-2,0.03,1,62,9811,19,10,47,0.976,0.0,656,4.64,12.8,0.0,1,38.0,1.79,15.2,0,0,0,1,1,0,250,250,0,45.700455,4.909369,0.0,207.0,10,3,1.5,0,0.0,-1,0.0,,0.0,0,0.0,2.4257
145564,1648987624412,,,250,253,234,232,,0.02,-0.08,1.58,-0,-1,-3,0.08,,62,10064,23,10,51,0.982,0.0,666,4.75,12.9,0.0,1,39.1,3.77,15.2,0,0,0,1,1,,,,,,,,,,,,,,,,,,,,
145584,1648987624432,,,250,252,234,232,,0.02,-0.2,1.61,-1,-1,-3,0.2,,62,10399,26,10,54,0.987,0.0,663,4.63,12.8,0.0,1,40.0,2.47,15.2,0,0,0,1,1,,,,,,,,,,,,,,,,,,,,
145604,1648987624452,,,250,253,234,231,,0.06,-0.21,1.49,-1,-0,-2,0.21,,62,10757,28,10,57,0.992,0.0,675,4.68,12.8,0.0,1,42.1,4.67,15.2,0,0,0,1,1,,,,,,,,,,,,,,,,,,,,
145624,1648987624472,,,250,253,234,231,,0.02,-0.09,1.68,-0,-1,-3,0.1,,62,11154,29,10,60,0.984,0.0,681,4.71,12.8,0.0,1,44.0,3.14,25.1,0,0,0,1,1,,,,,,,,,,,,,,,,,,,,
145644,1648987624508,0,0,250,253,234,231,-4,0.02,-0.13,1.86,-0,-2,-4,0.13,1,62,11446,30,10,63,0.972,0.0,676,4.67,12.8,0.0,1,43.9,3.26,25.1,0,0,0,1,1,0,250,250,0,45.700455,4.909369,0.0,207.0,10,3,1.5,0,0.0,-1,0.0,0.0,0.0,0,0.0,2.4274
145664,1648987624528,,,250,253,234,231,,0.0,-0.08,1.76,-0,-1,-3,0.08,,62,11792,30,10,65,0.957,0.0,688,4.68,12.8,0.0,1,43.5,5.23,25.1,0,0,0,1,1,,,,,,,,,,,,,,,,,,,,
145684,1648987624548,,,250,253,234,231,,-0.0,0.0,1.62,-0,-0,-2,0.0,,62,12151,30,10,67,0.948,0.0,686,4.63,12.7,0.0,1,43.2,5.04,25.1,0,0,0,1,1,,,,,,,,,,,,,,,,,,,,
145704,1648987624568,,,250,252,234,231,,0.05,0.04,1.66,-0,-0,-3,0.06,,62,12483,29,10,68,0.919,0.0,685,4.68,12.7,0.0,1,43.0,4.89,25.1,0,0,0,1,1,,,,,,,,,,,,,,,,,,,,
145724,1648987624588,,,250,253,234,231,,0.05,0.01,1.7,-0,-1,-3,0.05,,62,12824,27,10,68,0.898,0.0,686,4.58,12.7,0.0,1,43.0,3.19,28.0,0,0,0,1,1,,,,,,,,,,,,,,,,,,,,
145744,1648987624604,-0,3,250,253,234,231,-6,0.04,-0.02,1.62,-0,-0,-3,0.05,1,62,13111,25,10,67,0.864,0.0,686,4.68,12.7,0.0,1,43.0,4.52,28.0,0,0,0,1,1,0,250,250,0,45.700455,4.909369,0.0,207.0,10,3,1.5,0,0.0,-1,0.0,,0.0,0,0.0,2.4291
145764,1648987624624,,,250,253,234,231,,0.09,0.08,1.71,-0,-0,-3,0.12,,62,13335,24,10,65,0.844,0.0,692,4.64,12.7,0.0,1,43.0,4.32,28.0,0,0,0,1,1,,,,,,,,,,,,,,,,,,,,
145784,1648987624644,,,250,253,234,231,,0.11,-0.0,1.58,-0,1,-2,0.11,,62,13402,24,10,64,0.837,0.0,696,4.7,13.0,0.0,1,43.0,4.25,28.0,0,0,0,1,1,,,,,,,,,,,,,,,,,,,,
145804,1648987624664,,,250,253,234,231,,0.14,-0.03,1.45,-0,1,-2,0.14,,62,13392,24,10,63,0.838,0.0,700,4.68,12.7,0.0,1,43.0,4.2,28.0,0,0,0,1,1,,,,,,,,,,,,,,,,,,,,
145824,1648987624684,,,250,253,234,231,,0.17,-0.02,1.42,-0,0,-1,0.17,,62,13335,24,10,63,0.839,0.0,690,4.67,12.7,0.0,1,43.0,2.91,25.9,0,0,0,1,1,,,,,,,,,,,,,,,,,,,,
145844,1648987624698,-1,3,250,253,234,231,-5,0.17,0.03,1.44,-0,1,-1,0.17,1,62,13392,24,10,62,0.84,0.0,692,4.68,13.0,0.0,1,43.0,2.85,25.9,0,0,0,1,1,0,250,250,0,45.700455,4.909369,0.0,207.0,10,3,1.5,0,0.0,-1,0.0,0.0,0.0,0,0.0,2.4307
145864,1648987624718,,,250,253,234,231,,0.16,-0.01,1.43,-1,1,-2,0.16,,62,13335,24,10,62,0.838,0.0,684,4.58,12.7,0.0,1,43.0,2.85,25.9,0,0,0,1,1,,,,,,,,,,,,,,,,,,,,
145884,1648987624738,,,250,253,234,231,,0.11,0.04,1.32,-0,1,-0,0.11,,62,13307,23,10,61,0.835,0.0,687,4.64,12.7,0.0,1,43.0,4.09,25.9,0,0,0,1,1,,,,,,,,,,,,,,,,,,,,
145904,1648987624758,,,250,253,234,231,,0.09,0.0,1.49,-0,-1,-2,0.09,,62,13345,19,10,60,0.833,0.0,691,4.67,12.7,0.0,1,42.5,4.09,25.9,0,0,0,1,1,,,,,,,,,,,,,,,,,,,,
145924,1648987624778,,,250,253,234,231,,0.11,-0.04,1.46,-0,-1,-1,0.11,,62,13260,16,10,57,0.829,0.0,686,4.69,12.7,0.0,1,41.2,4.09,24.6,0,0,0,1,1,,,,,,,,,,,,,,,,,,,,
145944,1648987624795,0,1,250,253,234,231,-6,0.16,0.06,1.44,-0,-1,-1,0.17,1,62,13111,15,10,54,0.825,0.0,691,4.65,12.7,0.0,1,40.0,2.8,24.6,0,0,0,1,1,0,250,250,0,45.700455,4.909369,0.0,207.0,10,3,1.5,0,0.0,-1,0.0,,0.0,0,0.0,2.4324
145964,1648987624815,,,250,253,234,231,,0.16,-0.01,1.45,-1,-1,-2,0.16,,62,12842,15,10,51,0.816,0.0,686,4.65,12.7,0.0,1,39.1,3.67,24.6,0,0,0,1,1,,,,,,,,,,,,,,,,,,,,
145984,1648987624835,,,250,253,234,231,,0.23,-0.03,1.34,-0,-1,-1,0.23,,62,12592,15,10,50,0.811,0.0,682,4.66,12.7,0.0,1,38.8,2.32,24.6,0,0,0,1,1,,,,,,,,,,,,,,,,,,,,
146004,1648987624855,,,250,253,234,231,,0.21,-0.01,1.24,-0,1,1,0.21,,62,12270,15,10,49,0.803,0.0,680,4.72,12.7,0.0,1,38.5,2.12,24.6,0,0,0,1,1,,,,,,,,,,,,,,,,,,,,
146024,1648987624875,,,250,253,234,231,,0.21,-0.0,1.14,-0,2,2,0.21,,62,11935,15,10,49,0.792,0.0,677,4.67,12.7,0.0,1,38.5,3.28,18.7,0,0,0,1,1,,,,,,,,,,,,,,,,,,,,
146044,1648987624910,0,1,250,253,234,231,-9,0.26,-0.09,1.05,-0,3,3,0.28,1,62,11552,15,10,49,0.78,0.0,672,4.65,12.7,0.0,1,38.5,3.2,18.7,0,0,0,1,1,0,250,250,0,45.700455,4.909369,0.0,207.0,10,3,1.5,0,0.0,-1,0.0,0.0,0.0,0,0.0,2.4341
146064,1648987624930,,,250,253,234,231,,0.27,-0.12,1.09,-0,2,2,0.29,,62,11412,15,10,49,0.771,0.0,673,4.71,12.9,0.0,1,38.5,1.95,18.7,0,0,0,1,1,,,,,,,,,,,,,,,,,,,,
146084,1648987624950,,,250,253,233,231,,0.26,0.04,1.29,-0,0,1,0.27,,62,11301,15,10,49,0.762,0.0,670,4.7,12.7,0.0,1,38.5,1.95,18.7,0,0,0,1,1,,,,,,,,,,,,,,,,,,,,
146104,1648987624970,,,250,253,234,231,,0.24,-0.06,1.34,-0,0,2,0.24,,62,11220,15,10,49,0.752,0.0,672,4.67,12.8,0.0,1,38.5,1.95,18.7,0,0,0,1,1,,,,,,,,,,,,,,,,,,,,
146124,1648987624990,,,250,253,234,231,,0.19,-0.03,1.31,-0,1,2,0.19,,62,11120,15,10,48,0.747,0.0,672,4.65,12.7,0.0,1,38.2,3.06,16.5,0,0,0,1,1,,,,,,,,,,,,,,,,,,,,
146144,1648987625004,0,1,250,253,234,231,-17,0.21,-0.13,1.21,-0,0,1,0.25,1,62,11042,15,10,48,0.743,0.0,673,4.66,12.7,0.0,1,38.2,3.06,16.5,0,0,0,1,1,0,250,250,0,45.700455,4.909369,0.0,207.0,10,3,1.5,0,0.0,-1,0.0,,0.0,0,0.0,2.4357
146164,1648987625024,,,250,253,234,231,,0.21,-0.07,1.43,-0,-1,0,0.22,,62,10964,15,10,48,0.738,0.0,669,4.69,12.8,0.0,1,38.2,3.06,16.5,0,0,0,1,1,,,,,,,,,,,,,,,,,,,,
146184,1648987625044,,,250,253,234,231,,0.17,0.04,1.32,-0,0,2,0.17,,62,10882,15,10,48,0.738,1.4,666,4.71,12.7,0.0,1,38.2,3.06,16.5,0,0,0,1,1,,,,,,,,,,,,,,,,,,,,
146204,1648987625064,,,250,252,234,231,,0.19,-0.04,1.27,-0,0,1,0.19,,62,10813,15,10,48,0.738,1.4,666,4.59,12.8,0.0,1,38.2,1.82,16.5,0,0,0,1,1,,,,,,,,,,,,,,,,,,,,
146224,1648987625084,,,250,253,234,231,,0.19,-0.17,1.38,-1,0,1,0.25,,62,10757,15,10,49,0.737,1.4,662,4.66,12.7,0.0,1,38.5,3.18,15.2,0,0,0,1,1,,,,,,,,,,,,,,,,,,,,
146244,1648987625098,1,0,250,252,234,231,-28,0.2,-0.26,1.27,-1,1,0,0.32,1,62,10695,15,10,49,0.737,1.4,666,4.72,12.9,0.0,1,38.5,3.17,15.2,0,0,0,1,1,19,-1,250,14,45.700455,4.909371,1.75,202.4,10,3,1.5,0,0.0,-1,0.0,0.0,0.0,0,0.0,2.4374
146264,1648987625118,,,250,253,234,231,,0.2,-0.22,1.48,-1,-0,-0,0.3,,62,10653,16,10,48,0.739,1.4,670,4.71,12.8,0.0,1,38.2,3.05,15.2,0,0,0,1,1,,,,,,,,,,,,,,,,,,,,
146284,1648987625138,,,250,252,234,231,,0.21,-0.16,1.37,-1,-0,-0,0.26,,62,10617,16,10,49,0.744,2.3,665,4.73,12.8,0.0,1,38.5,3.17,15.2,0,0,0,1,1,,,,,,,,,,,,,,,,,,,,
146304,1648987625158,,,250,251,234,231,,0.2,0.0,1.43,-1,-0,-0,0.2,,62,10599,17,10,49,0.749,2.3,666,4.68,12.8,0.0,1,38.5,3.17,15.2,0,0,0,1,1,,,,,,,,,,,,,,,,,,,,
146324,1648987625178,,,250,251,234,231,,0.19,0.16,1.32,-1,1,1,0.25,,62,10605,19,10,50,0.753,2.3,665,4.61,12.8,700.0,1,38.8,3.3,16.1,0,0,0,1,1,,,,,,,,,,,,,,,,,,,,
146344,1648987625196,-2,3,250,250,235,231,-37,0.22,0.31,1.49,-2,-0,-0,0.38,1,62,10635,21,10,52,0.758,2.3,666,4.66,12.7,700.0,1,39.4,3.54,16.1,0,0,0,1,1,25,-1,250,23,45.700455,4.909372,2.34,202.4,10,3,1.5,0,0.0,-1,0.0,,0.0,0,0.0,2.4391
146364,1648987625216,,,250,250,235,231,,0.16,0.42,1.37,-2,-0,1,0.45,,62,10708,22,10,54,0.761,2.8,665,4.69,12.8,700.0,1,40.0,3.8,16.1,0,0,0,1,1,,,,,,,,,,,,,,,,,,,,
146384,1648987625236,,,250,250,235,231,,0.16,0.32,1.27,-2,0,-0,0.36,,62,10794,22,10,56,0.766,2.8,665,4.7,12.8,700.0,1,41.4,3.91,16.1,0,0,0,1,1,,,,,,,,,,,,,,,,,,,,
146404,1648987625256,,,250,250,234,232,,0.18,0.16,1.41,-2,0,0,0.24,,62,10913,23,10,57,0.768,2.8,668,4.68,12.8,700.0,1,42.1,2.83,16.1,0,0,0,1,1,,,,,,,,,,,,,,,,,,,,
146424,1648987625292,,,250,250,235,231,,0.17,0.18,1.3,-2,1,1,0.25,,62,11009,23,10,58,0.773,3.3,671,4.71,12.8,750.0,1,42.8,4.23,21.0,0,0,0,1,1,,,,,,,,,,,,,,,,,,,,
146444,1648987625312,-1,2,250,249,235,232,-43,0.17,0.18,1.35,-2,0,0,0.24,1,62,11114,23,10,59,0.779,3.3,666,4.67,12.8,750.0,1,43.4,4.34,21.0,0,0,0,1,1,30,-1,250,33,45.700455,4.909373,2.97,202.3,10,3,1.5,0,0.0,-1,0.0,0.0,0.0,0,0.0,2.4407
146464,1648987625332,,,250,250,235,232,,0.17,0.13,1.53,-3,-0,-1,0.22,,62,11180,22,10,59,0.782,3.3,671,4.7,12.8,750.0,1,43.3,4.35,21.0,0,0,0,1,1,,,,,,,,,,,,,,,,,,,,
146484,1648987625352,,,250,250,235,232,,0.13,0.19,1.41,-3,1,0,0.23,,62,11288,20,10,59,0.786,3.7,670,4.73,12.8,750.0,1,43.2,4.36,21.0,0,0,0,1,1,,,,,,,,,,,,,,,,,,,,
146504,1648987625372,,,250,250,234,232,,0.16,0.1,1.3,-3,1,1,0.19,,62,11363,18,10,58,0.791,3.7,671,4.7,12.8,750.0,1,42.4,4.27,21.0,0,0,0,1,1,,,,,,,,,,,,,,,,,,,,
146524,1648987625392,,,250,251,235,232,,0.17,0.04,1.31,-3,1,-1,0.18,,62,11405,17,10,56,0.804,3.7,675,4.68,12.8,594.5,1,41.2,4.07,22.0,0,0,0,1,1,,,,,,,,,,,,,,,,,,,,
146544,1648987625407,0,0,250,250,234,232,-46,0.16,0.19,1.51,-3,1,-1,0.25,1,62,11412,15,10,54,0.813,4.1,673,4.71,12.8,594.5,1,40.0,3.88,22.0,0,0,0,1,1,39,-1,250,41,45.700455,4.909374,3.5,202.3,10,3,1.5,0,0.0,-1,0.0,,0.0,0,0.0,2.4424
146564,1648987625427,,,250,250,234,232,,0.18,0.1,1.58,-4,1,-0,0.21,,62,11384,15,10,52,0.823,4.1,673,4.67,12.7,594.5,1,39.4,3.6,22.0,0,0,0,1,1,,,,,,,,,,,,,,,,,,,,
146584,1648987625447,,,250,250,235,232,,0.15,0.17,1.45,-4,1,-0,0.22,,62,11336,14,10,51,0.834,4.1,671,4.67,12.7,594.5,1,39.1,3.47,22.0,0,0,0,1,1,,,,,,,,,,,,,,,,,,,,
146604,1648987625467,,,250,250,235,232,,0.17,0.06,1.34,-4,0,0,0.18,,62,11261,14,10,50,0.841,4.4,673,4.62,12.8,594.5,1,38.8,3.33,22.0,0,0,0,1,1,,,,,,,,,,,,,,,,,,,,
146624,1648987625487,,,250,250,235,232,,0.15,0.15,1.55,-4,-1,-1,0.22,,62,11167,14,10,49,0.848,4.4,670,4.73,12.8,375.0,1,38.5,3.19,16.5,0,0,0,1,1,,,,,,,,,,,,,,,,,,,,
146644,1648987625501,-1,2,250,251,235,232,-49,0.12,0.04,1.61,-5,0,-1,0.13,1,62,11068,14,10,48,0.856,4.7,670,4.79,12.9,375.0,1,38.2,3.19,16.5,0,0,0,1,1,43,24067,250,47,45.700451,4.909376,4.48,202.2,10,3,1.5,0,0.0,-1,0.0,0.0,0.0,0,0.0,2.4441
146664,1648987625521,,,250,250,235,232,,0.15,-0.05,1.49,-5,1,-0,0.16,,62,10939,14,10,48,0.862,4.7,667,4.7,12.8,375.0,1,38.2,3.06,16.5,0,0,0,1,1,,,,,,,,,,,,,,,,,,,,
146684,1648987625541,,,250,250,235,232,,0.19,0.11,1.58,-5,1,-0,0.22,,62,10800,14,10,48,0.86,5.0,666,4.65,12.7,375.0,1,38.2,3.06,16.5,0,0,0,1,1,,,,,,,,,,,,,,,,,,,,
146704,1648987625561,,,250,250,235,232,,0.19,0.2,1.55,-5,1,1,0.28,,62,10665,14,10,48,0.857,5.0,664,4.67,12.8,375.0,1,38.2,3.05,16.5,0,0,0,1,1,,,,,,,,,,,,,,,,,,,,
146724,1648987625581,,,250,251,235,232,,0.21,0.23,1.64,-5,0,0,0.31,,62,10563,14,10,48,0.854,5.3,662,4.67,12.8,300.0,1,38.2,3.05,15.0,0,0,0,1,1,,,,,,,,,,,,,,,,,,,,
146744,1648987625600,-0,4,250,251,235,232,-50,0.2,0.29,1.59,-5,-0,2,0.35,1,62,10480,14,10,48,0.85,5.3,662,4.69,12.8,300.0,1,38.2,3.05,15.0,0,0,0,1,1,50,-1,250,53,45.700451,4.909378,4.75,202.2,10,3,1.5,0,0.0,-1,0.0,,0.0,0,0.0,2.4457
146764,1648987625620,,,250,251,235,232,,0.23,0.37,1.61,-5,-1,2,0.44,,62,10416,14,10,47,0.839,5.6,658,4.72,12.8,300.0,1,38.0,2.93,15.0,0,0,0,1,1,,,,,,,,,,,,,,,,,,,,
146784,1648987625640,,,250,250,235,232,,0.25,0.49,1.56,-5,-0,3,0.55,,62,10353,15,10,47,0.828,5.6,661,4.67,12.8,300.0,1,38.0,2.93,15.0,0,0,0,1,1,,,,,,,,,,,,,,,,,,,,
146804,1648987625660,,,250,251,235,232,,0.25,0.6,1.66,-6,-0,2,0.66,,62,10307,16,10,48,0.811,5.8,662,4.66,12.7,300.0,1,38.2,3.04,15.0,0,0,0,1,1,,,,,,,,,,,,,,,,,,,,
146824,1648987625680,,,250,249,235,232,,0.22,0.61,1.53,-6,-0,3,0.65,,62,10285,18,10,49,0.8,5.8,662,4.55,12.7,250.0,1,38.5,3.04,14.5,0,0,0,1,1,,,,,,,,,,,,,,,,,,,,
146844,1648987625695,-1,3,250,249,235,232,-48,0.19,0.5,1.57,-6,-0,2,0.53,1,62,10296,20,10,50,0.784,6.2,662,4.73,12.8,250.0,1,38.8,3.27,14.5,0,0,0,1,1,53,-1,250,62,45.700451,4.90938,5.31,202.2,10,3,1.5,0,0.0,-1,0.0,0.0,0.0,0,0.0,2.4474
146864,1648987625715,,,250,249,235,232,,0.17,0.31,1.45,-7,1,1,0.35,,62,10347,22,10,52,0.776,6.2,660,4.71,12.9,250.0,1,39.4,3.5,14.5,0,0,0,1,1,,,,,,,,,,,,,,,,,,,,
146884,1648987625735,,,250,250,235,232,,0.15,0.16,1.59,-7,1,1,0.22,,62,10422,22,10,54,0.762,6.3,660,4.75,12.9,250.0,1,40.0,3.75,14.5,0,0,0,1,1,,,,,,,,,,,,,,,,,,,,
146904,1648987625755,,,250,250,235,232,,0.16,-0.0,1.47,-7,0,-0,0.16,,62,10515,23,10,56,0.753,6.3,665,4.75,12.8,250.0,1,41.4,3.85,14.5,0,0,0,1,1,,,,,,,,,,,,,,,,,,,,
146924,1648987625775,,,250,249,235,232,,0.14,-0.15,1.58,-8,1,-1,0.21,,62,10599,23,10,57,0.746,6.5,666,4.65,12.8,298.4,1,42.1,4.04,19.4,0,0,0,1,1,,,,,,,,,,,,,,,,,,,,
146944,1648987625793,0,1,251,252,234,231,-49,0.15,-0.29,1.46,-8,2,-1,0.33,1,62,10605,23,10,58,0.744,6.9,661,4.7,12.8,298.4,1,42.8,4.15,19.4,0,0,0,1,1,62,-1,250,69,45.700447,4.909382,6.23,202.2,10,3,1.5,0,0.0,-1,0.0,,0.0,0,0.0,2.4491
146964,1648987625813,,,251,252,234,231,,0.16,-0.35,1.58,-8,1,-2,0.38,,62,10545,23,10,59,0.742,6.9,665,4.68,12.8,298.4,1,43.5,4.21,19.4,0,0,0,1,1,,,,,,,,,,,,,,,,,,,,
146984,1648987625833,,,251,252,234,230,,0.13,-0.47,1.46,-9,1,-2,0.49,,62,10451,22,10,59,0.741,7.0,660,4.72,12.8,298.4,1,43.2,4.2,19.4,0,0,0,1,1,,,,,,,,,,,,,,,,,,,,
147004,1648987625853,,,251,253,233,230,,0.11,-0.59,1.55,-9,1,-2,0.6,,62,10330,20,10,59,0.744,7.6,656,4.7,12.8,298.4,1,42.5,4.17,19.4,0,0,0,1,1,,,,,,,,,,,,,,,,,,,,
147024,1648987625873,,,251,253,232,230,,0.11,-0.63,1.54,-9,1,-3,0.64,,62,10212,19,10,57,0.752,7.6,665,4.67,12.9,253.9,1,41.1,3.97,19.3,0,0,0,1,1,,,,,,,,,,,,,,,,,,,,
147044,1648987625909,-0,3,251,253,233,230,-48,0.14,-0.5,1.46,-10,0,-0,0.52,1,62,10080,19,10,56,0.764,7.8,658,4.68,12.8,253.9,1,40.4,3.85,19.3,0,0,0,1,1,249,-27648,250,78,45.700447,4.909384,6.72,202.1,10,3,1.5,0,0.0,-1,0.0,0.0,0.0,0,0.0,2.4507
147064,1648987625929,,,251,253,232,229,,0.16,-0.51,1.48,-10,0,-1,0.53,,62,9915,19,10,55,0.77,8.1,656,4.62,12.7,253.9,1,40.1,3.73,19.3,0,0,0,1,1,,,,,,,,,,,,,,,,,,,,
147084,1648987625949,,,251,253,232,229,,0.18,-0.45,1.46,-11,1,-1,0.48,,62,9664,19,10,55,0.779,8.1,657,4.72,12.7,253.9,1,40.1,3.68,19.3,0,0,0,1,1,,,,,,,,,,,,,,,,,,,,
147104,1648987625969,,,251,253,232,229,,0.17,-0.5,1.42,-11,1,-4,0.53,,62,9398,19,10,55,0.79,8.4,653,4.72,12.8,253.9,1,40.1,3.61,19.3,0,0,0,1,1,,,,,,,,,,,,,,,,,,,,
147124,1648987625989,,,251,253,231,229,,0.16,-0.5,1.41,-12,2,-3,0.53,,62,9079,19,10,56,0.803,8.7,646,4.66,12.8,174.7,1,39.9,3.51,15.2,0,0,0,1,1,,,,,,,,,,,,,,,,,,,,
147144,1648987626005,0,1,251,254,231,229,-48,0.14,-0.48,1.45,-13,1,-5,0.5,1,62,8815,19,10,57,0.814,8.8,643,4.69,12.8,174.7,1,40.4,3.46,15.2,0,0,0,1,1,584,14242,250,88,45.700447,4.909387,7.34,202.0,10,3,1.5,0,0.0,-1,0.0,,0.0,0,0.0,2.4524
147164,1648987626025,,,251,253,231,229,,0.15,-0.53,1.5,-14,1,-6,0.55,,62,8903,19,10,58,0.822,8.8,648,4.72,12.9,174.7,1,40.2,3.48,15.2,0,0,0,1,1,,,,,,,,,,,,,,,,,,,,
147184,1648987626045,,,251,253,232,230,,0.14,-0.54,1.49,-15,1,-8,0.56,,62,9164,19,10,58,0.829,9.1,651,4.69,12.9,174.7,1,40.0,2.4,15.2,0,0,0,1,1,,,,,,,,,,,,,,,,,,,,
147204,1648987626065,,,250,251,233,230,,0.18,-0.37,1.38,-15,0,-5,0.41,,62,9512,19,10,59,0.833,9.3,653,4.65,12.9,174.7,1,41.0,3.6,15.2,0,0,0,1,1,,,,,,,,,,,,,,,,,,,,
147224,1648987626085,,,250,253,233,230,,0.14,-0.43,1.43,-16,-0,-4,0.45,,62,9620,19,10,58,0.839,9.4,653,4.71,12.7,174.4,1,40.7,3.7,16.4,0,0,0,1,1,,,,,,,,,,,,,,,,,,,,
147244,1648987626099,0,2,251,252,233,230,-47,0.17,-0.33,1.42,-17,-1,-6,0.37,1,62,9527,19,10,57,0.846,9.7,655,4.66,12.8,174.4,1,40.6,3.63,16.4,0,0,0,1,1,538,-1481,250,97,45.700447,4.90939,8.56,202.0,10,3,1.5,0,0.0,-1,0.0,0.0,0.0,0,0.0,2.4541
147264,1648987626119,,,251,253,232,229,,0.17,-0.22,1.45,-17,-0,-4,0.28,,62,9541,19,10,57,0.853,9.9,653,4.71,12.8,174.4,1,40.6,3.64,16.4,0,0,0,1,1,,,,,,,,,,,,,,,,,,,,
147284,1648987626139,,,250,253,232,229,,0.17,-0.35,1.41,-19,0,-6,0.39,,62,9765,19,10,57,0.858,10.1,655,4.7,12.9,174.4,1,40.5,2.51,16.4,0,0,0,1,1,,,,,,,,,,,,,,,,,,,,
147304,1648987626159,,,250,250,233,230,,0.18,-0.31,1.47,-19,0,-4,0.35,,62,10042,19,10,56,0.866,10.1,662,4.71,12.8,174.4,1,40.3,3.84,16.4,0,0,0,1,1,,,,,,,,,,,,,,,,,,,,
147324,1648987626179,,,250,251,233,229,,0.21,-0.2,1.58,-20,-1,-5,0.29,,62,10140,19,10,55,0.871,10.1,656,4.6,12.7,179.2,1,40.2,3.77,18.1,0,0,0,1,1,,,,,,,,,,,,,,,,,,,,
147344,1648987626197,0,1,251,251,232,229,-36,0.18,-0.21,1.46,-21,-1,-6,0.27,1,62,10157,19,10,55,0.875,10.4,660,4.82,12.8,179.2,1,40.3,3.78,18.1,0,0,0,1,1,584,250,250,104,45.700443,4.909393,9.78,202.0,10,3,1.5,0,0.0,-1,0.0,,0.0,0,0.0,2.4557
147364,1648987626217,,,250,253,232,229,,0.17,-0.34,1.56,-22,-0,-6,0.37,,62,10290,19,10,54,0.88,10.4,663,4.63,12.8,179.2,1,40.0,3.72,18.1,0,0,0,1,1,,,,,,,,,,,,,,,,,,,,
147384,1648987626237,,,250,253,233,229,,0.18,-0.43,1.44,-23,0,-7,0.47,,62,10480,19,10,54,0.885,10.8,660,4.65,12.7,179.2,1,40.0,3.76,18.1,0,0,0,1,1,,,,,,,,,,,,,,,,,,,,
147404,1648987626257,,,250,253,233,229,,0.18,-0.46,1.51,-23,-0,-6,0.49,,62,10521,16,10,53,0.89,10.7,661,4.64,12.7,179.2,1,39.7,3.64,18.1,0,0,0,1,1,,,,,,,,,,,,,,,,,,,,
147424,1648987626293,,,251,253,233,229,,0.17,-0.55,1.39,-24,0,-6,0.57,,62,10428,12,10,51,0.889,10.9,662,4.56,12.7,156.8,1,39.1,3.51,17.1,0,0,0,1,1,,,,,,,,,,,,,,,,,,,,
147444,1648987626313,0,3,251,253,233,229,-16,0.15,-0.61,1.51,-24,1,-5,0.63,1,62,10393,11,10,49,0.888,11.0,658,4.7,12.9,156.8,1,38.5,3.16,17.1,0,0,0,1,1,610,14298,250,110,45.700443,4.909396,10.34,202.1,10,3,1.5,0,0.0,-1,0.0,0.0,0.0,0,0.0,2.4574
147464,1648987626333,,,250,252,233,229,,0.17,-0.67,1.4,-24,1,-5,0.69,,62,10463,10,10,46,0.887,11.0,662,4.63,12.7,156.8,1,37.2,2.93,17.1,0,0,0,1,1,,,,,,,,,,,,,,,,,,,,
147484,1648987626353,,,250,253,233,229,,0.16,-0.61,1.37,-24,1,-3,0.63,,62,10457,10,10,45,0.886,11.0,662,4.7,12.9,156.8,1,36.5,2.85,17.1,0,0,0,1,1,,,,,,,,,,,,,,,,,,,,
147504,1648987626373,,,250,250,233,229,,0.19,-0.47,1.32,-24,1,-2,0.51,,62,10268,10,10,44,0.876,11.5,660,4.71,12.8,156.8,1,35.7,2.8,17.1,0,0,0,1,1,,,,,,,,,,,,,,,,,,,,
147524,1648987626393,,,250,250,233,229,,0.2,-0.35,1.25,-24,2,-2,0.41,,62,10080,10,10,43,0.861,11.2,652,4.66,12.7,113.0,1,35.0,2.77,13.0,0,0,0,1,1,,,,,,,,,,,,,,,,,,,,
147544,1648987626410,0,1,251,250,233,229,-7,0.17,-0.41,1.45,-24,1,-4,0.45,1,62,9978,10,10,42,0.851,11.5,656,4.73,12.9,113.0,1,34.2,2.74,13.0,0,0,0,1,1,570,-1483,250,115,45.700439,4.909399,11.18,202.1,10,3,1.5,0,0.0,-1,0.0,,0.0,0,0.0,2.4591
147564,1648987626430,,,250,249,233,229,,0.23,-0.29,1.42,-24,0,-2,0.37,,62,9868,10,10,40,0.84,11.7,650,4.55,12.8,113.0,1,32.7,2.72,13.0,0,0,0,1,1,,,,,,,,,,,,,,,,,,,,
147584,1648987626450,,,250,250,233,229,,0.2,-0.29,1.31,-24,1,-3,0.35,,62,9760,10,10,40,0.821,11.8,653,4.66,12.9,113.0,1,32.7,2.78,13.0,0,0,0,1,1,,,,,,,,,,,,,,,,,,,,
147604,1648987626470,,,250,252,233,229,,0.2,-0.15,1.31,-24,1,-0,0.25,,62,9645,10,10,39,0.809,11.8,648,4.69,12.9,113.0,1,32.0,2.81,13.0,0,0,0,1,1,,,,,,,,,,,,,,,,,,,,
147624,1648987626490,,,250,250,233,229,,0.2,-0.27,1.41,-24,0,-3,0.34,,62,9479,8,10,38,0.79,12.2,650,4.7,13.0,103.2,1,31.7,2.84,12.6,0,0,0,1,1,,,,,,,,,,,,,,,,,,,,
147644,1648987626504,-1,1,251,250,233,229,-2,0.2,-0.25,1.51,-24,-0,-4,0.32,1,62,9245,6,10,37,0.774,12.1,650,4.7,12.8,103.2,1,31.4,2.78,12.6,0,0,0,1,1,515,3584,250,121,45.700436,4.909402,12.14,202.1,10,3,1.5,0,0.0,-1,0.0,0.0,0.0,0,0.01,2.4607
147664,1648987626524,,,251,252,232,229,,0.17,-0.17,1.48,-24,1,-3,0.24,,62,9023,6,10,35,0.763,12.3,643,4.7,12.8,103.2,1,30.8,2.67,12.6,0,0,0,1,1,,,,,,,,,,,,,,,,,,,,
147684,1648987626544,,,251,250,233,229,,0.16,-0.18,1.55,-24,1,-4,0.24,,62,8761,6,10,35,0.756,12.6,641,4.72,12.9,103.2,1,30.8,1.44,12.6,0,0,0,1,1,,,,,,,,,,,,,,,,,,,,
147704,1648987626564,,,250,250,232,229,,0.19,-0.16,1.62,-24,1,-4,0.25,,62,8400,6,10,35,0.745,12.9,639,4.71,13.0,103.2,1,30.6,2.55,12.6,0,0,0,1,1,,,,,,,,,,,,,,,,,,,,
147724,1648987626584,,,250,249,232,229,,0.19,-0.18,1.55,-24,0,-5,0.27,,62,8099,7,10,35,0.738,13.0,637,4.68,12.8,69.7,1,29.8,2.26,9.0,0,0,0,1,1,,,,,,,,,,,,,,,,,,,,
147744,1648987626596,0,1,250,252,232,230,3,0.17,-0.21,1.49,-24,1,-4,0.27,1,62,7838,8,10,36,0.728,13.3,633,4.66,13.0,69.7,1,30.1,2.21,9.0,0,0,0,1,1,438,13850,250,133,45.700432,4.909406,13.13,202.1,10,3,1.5,0,0.0,-1,0.0,,0.0,0,0.01,2.4624
147764,1648987626616,,,250,252,232,229,,0.17,-0.19,1.37,-24,2,-3,0.26,,62,7563,10,10,37,0.722,13.3,631,4.7,13.1,69.7,1,30.4,2.26,9.0,0,0,0,1,1,,,,,,,,,,,,,,,,,,,,
147784,1648987626636,,,250,252,232,230,,0.15,-0.22,1.28,-24,2,-2,0.27,,62,7239,12,10,40,0.717,13.5,632,4.71,12.7,69.7,1,31.3,2.37,9.0,0,0,0,1,1,,,,,,,,,,,,,,,,,,,,
147804,1648987626656,,,250,252,232,229,,0.2,-0.23,1.49,-24,1,-4,0.3,,62,6975,14,10,44,0.709,13.5,623,4.71,12.8,69.7,1,32.4,2.33,9.0,0,0,0,1,1,,,,,,,,,,,,,,,,,,,,
147824,1648987626676,,,250,252,232,229,,0.18,-0.24,1.38,-24,2,-2,0.3,,62,6863,15,10,48,0.708,13.9,620,4.71,13.1,53.6,1,33.3,1.12,7.4,0,0,0,1,1,,,,,,,,,,,,,,,,,,,,
147844,1648987626694,0,3,250,250,232,229,8,0.23,-0.23,1.58,-24,0,-4,0.33,1,62,6708,16,10,53,0.709,13.9,620,4.74,12.8,53.6,1,34.5,1.13,7.4,0,0,0,1,1,369,250,250,139,45.700428,4.909409,13.67,202.1,10,3,1.5,0,0.0,-1,0.0,0.0,0.0,0,0.01,2.4641
147864,1648987626714,,,250,252,232,230,,0.19,-0.3,1.46,-24,2,-2,0.36,,62,6512,17,10,57,0.712,14.2,620,4.78,13.2,53.6,1,35.0,2.36,7.4,0,0,0,1,1,,,,,,,,,,,,,,,,,,,,
147884,1648987626734,,,250,252,232,229,,0.15,-0.22,1.34,-24,4,-1,0.27,,62,6302,19,10,62,0.716,14.1,617,4.76,13.0,53.6,1,35.5,2.36,7.4,0,0,0,1,1,,,,,,,,,,,,,,,,,,,,
147904,1648987626754,,,250,252,232,229,,0.16,-0.13,1.48,-24,4,-2,0.2,,62,6155,24,10,68,0.717,14.7,613,4.72,12.9,53.6,1,36.3,3.35,7.4,0,0,0,1,1,,,,,,,,,,,,,,,,,,,,
147924,1648987626774,,,250,252,232,229,,0.15,-0.05,1.6,-24,3,-2,0.15,,62,5988,30,10,76,0.719,14.6,607,4.65,12.8,82.3,1,37.0,4.77,12.1,0,0,0,1,1,,,,,,,,,,,,,,,,,,,,
147944,1648987626810,0,3,250,252,232,229,14,0.11,0.01,1.48,-23,4,-1,0.11,1,62,5794,32,10,83,0.719,14.8,605,4.72,13.1,82.3,1,38.8,5.1,12.1,0,0,0,1,1,323,-1,250,148,45.700428,4.909412,14.76,202.2,10,3,1.5,0,0.0,-1,0.0,,0.0,0,0.01,2.4657
147964,1648987626830,,,250,252,232,229,,0.07,-0.03,1.36,-23,7,1,0.07,,62,5627,34,10,89,0.722,15.1,606,4.8,13.1,82.3,1,40.6,5.29,12.1,0,0,0,1,1,,,,,,,,,,,,,,,,,,,,
147984,1648987626850,,,250,252,232,229,,0.15,-0.06,1.54,-22,5,-1,0.16,,62,5431,35,10,92,0.729,15.1,600,4.72,12.7,82.3,1,41.5,3.19,12.1,0,0,0,1,1,,,,,,,,,,,,,,,,,,,,
148004,1648987626870,,,250,250,232,229,,0.14,0.02,1.47,-22,5,-1,0.14,,62,5317,35,10,94,0.74,15.5,599,4.67,13.1,82.3,1,41.9,5.12,12.1,0,0,0,1,1,,,,,,,,,,,,,,,,,,,,
148024,1648987626890,,,251,251,232,229,,0.19,-0.02,1.51,-21,4,-1,0.19,,62,5092,35,10,95,0.756,15.6,596,4.75,13.1,76.6,1,42.6,4.76,11.8,0,0,0,1,1,,,,,,,,,,,,,,,,,,,,
148044,1648987626906,0,3,251,252,232,229,20,0.2,-0.07,1.4,-20,5,-0,0.21,1,62,4818,35,10,95,0.764,15.7,593,4.75,13.2,76.6,1,40.9,4.66,11.8,0,0,0,1,1,277,-1,250,157,45.700424,4.909416,15.65,202.2,10,3,1.5,0,0.0,-1,0.0,0.0,0.0,0,0.01,2.4674
148064,1648987626926,,,252,252,232,229,,0.2,-0.06,1.29,-19,5,0,0.21,,62,4720,30,10,95,0.783,15.9,582,4.73,13.2,76.6,1,39.9,2.87,11.8,0,0,0,1,1,,,,,,,,,,,,,,,,,,,,
148084,1648987626946,,,252,252,232,229,,0.22,-0.06,1.19,-18,4,1,0.23,,62,4611,22,10,94,0.823,16.0,577,4.71,13.1,76.6,1,38.4,4.57,11.8,0,0,0,1,1,,,,,,,,,,,,,,,,,,,,
148104,1648987626966,,,252,250,232,229,,0.24,-0.06,1.1,-16,4,1,0.25,,62,4419,13,10,92,0.855,16.4,560,4.73,13.2,76.6,1,35.0,4.39,11.8,0,0,0,1,1,,,,,,,,,,,,,,,,,,,,
148124,1648987626986,,,252,249,231,229,,0.28,-0.09,1.01,-15,3,1,0.29,,62,4196,7,10,90,0.878,16.5,537,4.76,13.2,47.2,1,30.4,3.83,7.7,0,0,0,1,1,,,,,,,,,,,,,,,,,,,,
148144,1648987626998,0,0,252,251,231,229,18,0.3,-0.08,1.05,-13,3,1,0.31,1,62,4156,5,10,87,0.915,16.7,512,4.7,12.8,47.2,1,0.0,3.64,7.7,0,0,0,1,1,254,-253,250,165,45.70042,4.909419,16.79,202.2,10,3,1.5,0,0.0,-1,0.0,,0.0,0,0.01,2.4691
148164,1648987627018,,,252,252,231,229,,0.29,-0.07,1.17,-12,3,1,0.3,,62,4110,5,10,85,0.991,17.1,503,4.68,12.8,47.2,1,0.0,3.56,7.7,0,0,0,1,1,,,,,,,,,,,,,,,,,,,,
148184,1648987627038,,,252,253,231,228,,0.33,-0.13,1.08,-10,2,0,0.35,,62,3939,7,10,84,1.053,17.6,490,4.74,13.2,47.2,1,25.5,3.47,7.7,0,0,0,1,1,,,,,,,,,,,,,,,,,,,,
148204,1648987627058,,,252,253,230,229,,0.33,-0.12,1.19,-9,2,-0,0.35,,62,3589,10,10,84,1.114,17.8,443,4.69,12.9,47.2,1,22.8,3.55,7.7,0,0,0,1,1,,,,,,,,,,,,,,,,,,,,
148224,1648987627078,,,252,253,231,230,,0.32,-0.15,1.21,-6,4,0,0.36,,62,3165,14,10,86,1.158,18.2,403,4.68,12.7,49.7,1,23.5,5.83,8.5,0,0,0,1,1,,,,,,,,,,,,,,,,,,,,
148244,1648987627096,-1,4,252,253,231,231,8,0.32,-0.12,1.23,-4,4,1,0.34,1,62,3233,22,10,88,1.209,18.8,392,4.72,12.8,49.7,1,24.2,6.13,8.5,0,0,0,1,1,188,-1,250,172,45.700413,4.909423,18.02,202.3,10,3,1.5,0,0.0,-1,0.0,0.0,0.0,0,0.01,2.4707
148264,1648987627116,,,252,253,232,231,,0.31,-0.11,1.21,-3,4,1,0.33,,62,3250,30,11,92,1.26,18.9,387,4.76,13.2,49.7,1,26.5,6.65,8.5,0,0,0,1,1,,,,,,,,,,,,,,,,,,,,
148284,1648987627136,,,252,254,233,231,,0.29,-0.15,1.12,-2,3,1,0.33,,62,3278,36,11,96,1.32,18.9,384,4.72,13.2,49.7,1,29.5,7.23,8.5,0,0,0,1,1,,,,,,,,,,,,,,,,,,,,
148304,1648987627156,,,251,254,234,231,,0.3,-0.13,1.21,-1,2,1,0.33,,62,3403,43,11,97,1.357,19.0,389,4.72,13.2,49.7,1,30.2,7.69,8.5,0,0,0,1,1,,,,,,,,,,,,,,,,,,,,
148324,1648987627191,,,251,255,234,231,,0.31,-0.13,1.24,-0,1,1,0.33,,62,3570,47,11,97,1.367,19.1,409,4.72,12.9,70.3,1,30.8,7.97,12.8,0,0,0,1,1,,,,,,,,,,,,,,,,,,,,
148344,1648987627211,0,0,251,255,234,231,9,0.32,-0.12,1.14,1,1,1,0.34,1,62,3723,49,11,98,1.37,19.1,421,4.72,13.2,70.3,1,33.1,3.32,12.8,0,0,0,1,1,196,-1281,250,185,45.700409,4.909426,19.19,202.3,10,3,1.5,0,0.0,-1,0.0,,0.0,0,0.01,2.4724
148364,1648987627231,,,251,256,234,230,,0.37,-0.1,1.12,2,0,2,0.38,,62,3871,50,11,97,1.374,19.5,446,4.71,13.0,70.3,1,33.6,7.95,12.8,0,0,0,1,1,,,,,,,,,,,,,,,,,,,,
148384,1648987627251,,,251,257,233,231,,0.35,-0.08,1.2,2,0,2,0.36,,62,3837,50,11,98,1.376,20.0,451,4.73,13.1,70.3,1,34.3,8.07,12.8,0,0,0,1,1,,,,,,,,,,,,,,,,,,,,
148404,1648987627271,,,251,258,233,230,,0.38,-0.08,1.11,3,1,2,0.39,,62,3934,50,11,97,1.357,20.2,462,4.71,13.2,70.3,1,34.1,7.88,12.8,0,0,0,1,1,,,,,,,,,,,,,,,,,,,,
148424,1648987627291,,,251,258,233,229,,0.39,-0.08,1.06,3,2,1,0.4,,62,4160,50,11,97,1.319,20.5,478,4.73,13.0,77.6,1,36.1,7.73,14.9,0,0,0,1,1,,,,,,,,,,,,,,,,,,,,
148444,1648987627308,0,2,253,256,232,229,7,0.37,-0.05,1.14,4,2,1,0.37,1,62,4204,50,11,98,1.296,20.8,490,4.72,13.0,77.6,1,37.3,7.81,14.9,0,0,0,1,1,250,250,250,197,45.700405,4.909429,20.57,202.4,10,3,1.5,0,0.0,-1,0.0,0.0,0.0,0,0.01,2.4741
148464,1648987627328,,,253,255,232,228,,0.35,-0.01,1.25,5,2,1,0.35,,62,4187,50,11,98,1.265,21.5,491,4.72,13.2,77.6,1,37.2,3.27,14.9,0,0,0,1,1,,,,,,,,,,,,,,,,,,,,
148484,1648987627348,,,253,258,232,228,,0.34,0.0,1.18,6,2,2,0.34,,62,4215,50,11,97,1.231,21.5,506,4.7,13.2,77.6,1,36.5,3.18,14.9,0,0,0,1,1,,,,,,,,,,,,,,,,,,,,
148504,1648987627368,,,252,258,234,228,,0.36,0.0,1.09,7,3,2,0.36,,62,4336,50,11,97,1.197,21.8,519,4.72,13.1,77.6,1,37.4,3.13,14.9,0,0,0,1,1,,,,,,,,,,,,,,,,,,,,
148524,1648987627388,,,252,256,234,229,,0.4,0.0,1.01,7,3,2,0.4,,62,4573,50,11,97,1.163,22.0,550,4.72,13.1,73.0,1,39.4,7.19,15.2,0,0,0,1,1,,,,,,,,,,,,,,,,,,,,
148544,1648987627401,-1,2,253,255,235,229,11,0.42,-0.01,0.93,8,3,3,0.42,1,62,4644,50,11,97,1.121,22.5,568,4.72,13.1,73.0,1,40.0,7.12,15.2,0,0,0,1,1,235,19968,250,211,45.700398,4.909433,21.94,202.4,10,3,1.5,0,0.0,-1,0.0,,0.0,0,0.01,2.4757
148564,1648987627421,,,253,258,234,229,,0.45,-0.03,0.89,9,2,4,0.46,,62,4577,50,11,98,1.095,22.8,566,4.71,13.1,73.0,1,39.9,7.1,15.2,0,0,0,1,1,,,,,,,,,,,,,,,,,,,,
148584,1648987627441,,,253,258,233,228,,0.37,0.02,0.93,10,2,4,0.37,,62,4541,50,11,97,1.079,23.2,570,4.71,13.2,73.0,1,39.1,7.08,15.2,0,0,0,1,1,,,,,,,,,,,,,,,,,,,,
148604,1648987627461,,,253,257,234,227,,0.33,0.11,1.03,11,3,5,0.35,,62,4608,50,11,98,1.058,23.5,566,4.71,13.2,73.0,1,40.1,3.11,15.2,0,0,0,1,1,,,,,,,,,,,,,,,,,,,,
148624,1648987627481,,,252,256,235,227,,0.34,0.17,1.26,11,3,4,0.38,,62,4811,50,11,97,1.039,23.7,582,4.71,13.0,68.4,1,41.2,6.76,15.0,0,0,0,1,1,,,,,,,,,,,,,,,,,,,,
148644,1648987627497,-1,3,252,256,236,228,15,0.36,0.21,1.16,12,3,4,0.42,1,62,5146,50,11,97,1.018,23.9,595,4.73,13.0,68.4,1,42.4,7.0,15.0,0,0,0,1,1,246,-1484,250,223,45.70039,4.909437,23.7,202.5,10,3,1.5,0,0.0,-1,0.0,0.0,0.0,0,0.01,2.4774
148664,1648987627517,,,253,256,236,227,,0.39,0.22,1.38,13,3,3,0.44,,62,5253,50,11,97,1.0,24.0,600,4.68,13.1,68.4,1,42.1,7.21,15.0,0,0,0,1,1,,,,,,,,,,,,,,,,,,,,
148684,1648987627537,,,254,258,235,227,,0.39,0.2,1.27,14,4,3,0.44,,62,5185,50,11,97,0.978,25.0,600,4.73,13.1,68.4,1,42.3,6.97,15.0,0,0,0,1,1,,,,,,,,,,,,,,,,,,,,
148704,1648987627557,,,254,258,234,227,,0.36,0.25,1.48,15,3,3,0.44,,62,5198,50,11,97,0.965,24.9,601,4.69,13.1,68.4,1,42.2,6.96,15.0,0,0,0,1,1,,,,,,,,,,,,,,,,,,,,
