"Interval"|"ms"|0|0|1,"Utc"|"ms"|0|0|1,"Brake_F"|"Bar"|0|2000|10,"Brake_R"|"Bar"|0|2000|10,"Height_RF"|"mm"|0|255|50,"Height_LF"|"mm"|0|255|50,"Height_LR"|"mm"|0|80|50,"Height_RR"|"mm"|0|255|50,"Steering"|"deg"|-100|100|10,"AccelX"|"G"|-3.0|3.0|50,"AccelY"|"G"|-3.0|3.0|50,"AccelZ"|"G"|-3.0|3.0|50,"Yaw"|"Deg/Sec"|-120|120|50,"Pitch"|"Deg/Sec"|-120|120|50,"Roll"|"Deg/Sec"|-120|120|50,"Gsum"|"G"|0.0|3.0|50,"Log_Button"|""|0.0|10.0|10,"WaterTemp"|"C"|0|150|50,"RPM"|"tr/min"|0|14000|50,"TPS"|"%"|0|100|50,"AirTemp"|"C"|0|150|50,"MAP"|"KPa"|0|100|50,"Lambda"|""|0.5|1.5|50,"SpeedDTA"|"kph"|0.0|250.0|50,"OilPress"|"KPa"|0|1500|50,"FuelPressur"|"Bar"|0.0|10.0|50,"Batterie"|"V"|0.0|20.0|50,"ConsoKm"|"L/100km"|0.0|200.0|50,"Gear"|""|0|6|50,"AdvIgnition"|"Deg"|-20.0|70.0|50,"Injection"|"ms"|0.0|10.0|50,"ConsoHr"|"L/Hr"|0.0|10000.0|50,"LC_But_Pres"|""|0|1|50,"LC_Active"|""|0|1|50,"TractionOn"|""|0|1|50,"TractionWet"|""|0|1|50,"FanOn"|""|0|1|50,"RD_Speed"|"km/h"|-30|250|10,"RUD_Speed"|"km/h"|-30|250|10,"LD_Speed"|"km/h"|-30|250|10,"LUD_Speed"|"km/h"|-30|250|10,"Latitude"|"Degrees"|-180.0|180.0|10,"Longitude"|"Degrees"|-180.0|180.0|10,"Speed"|"kph"|0.0|150.0|10,"Altitude"|"m"|0.0|4000.0|10,"GPSSats"|""|0|20|10,"GPSQual"|""|0|5|10,"GPSDOP"|""|0.0|20.0|10,"LapCount"|""|0|0|10,"LapTime"|"Min"|0.0|0.0|10,"Sector"|""|0|0|10,"SectorTime"|"Min"|0.0|0.0|10,"PredTime"|"Min"|0.0|0.0|5,"ElapsedTime"|"Min"|0.0|0.0|10,"CurrentLap"|""|0|0|10,"Distance"|"km"|0.0|0.0|10,"SessionTime"|"Min"|0.0|0.0|10
6063,0,,,249,250,237,232,,-0.05,0.03,0.96,-0,-0,-0,0.06,,60,0,11,11,98,0.512,0.0,110,1.42,12.9,0.0,1,0.0,0.0,0.0,0,0,0,0,1,,,,,,,,,,,,,,,,,,,,
6083,0,,,249,250,237,232,,-0.05,0.03,0.96,-0,-0,-0,0.06,,60,0,11,11,98,0.512,0.0,111,1.42,12.9,0.0,1,0.0,0.0,0.0,0,0,0,0,1,,,,,,,,,,,,,,,,,,,,
6103,0,,,249,250,237,232,,-0.05,0.03,0.96,-0,-0,-0,0.05,,60,0,11,11,98,0.512,0.0,111,1.42,12.9,0.0,1,0.0,0.0,0.0,0,0,0,0,1,,,,,,,,,,,,,,,,,,,,
6123,0,,,249,250,237,232,,-0.04,0.03,0.96,-0,-0,-0,0.05,,60,0,11,11,98,0.512,0.0,111,1.42,12.9,0.0,1,0.0,0.0,0.0,0,0,0,0,1,,,,,,,,,,,,,,,,,,,,
6143,0,-2,8,249,250,237,232,-14,-0.04,0.03,0.96,-0,-0,-0,0.05,1,60,0,11,11,98,0.512,0.0,111,1.42,12.9,0.0,1,0.0,0.0,0.0,0,0,0,0,1,0,250,250,0,0.0,0.0,0.0,0.0,0,0,0.0,0,0.0,-1,0.0,,0.0,0,0.0,0.1024
6163,0,,,249,250,237,232,,-0.04,0.03,0.96,-0,-0,-0,0.05,,60,0,11,11,98,0.512,0.0,111,1.42,12.9,0.0,1,0.0,0.0,0.0,0,0,0,0,1,,,,,,,,,,,,,,,,,,,,
6183,0,,,249,250,237,232,,-0.05,0.03,0.97,-0,-0,-0,0.05,,60,0,11,11,98,0.512,0.0,111,1.42,12.9,0.0,1,0.0,0.0,0.0,0,0,0,0,1,,,,,,,,,,,,,,,,,,,,
6203,0,,,249,250,237,232,,-0.05,0.03,0.97,-0,-0,-0,0.06,,60,0,11,11,98,0.512,0.0,111,1.42,13.0,0.0,1,0.0,0.0,0.0,0,0,0,0,1,,,,,,,,,,,,,,,,,,,,
6223,0,,,249,250,237,232,,-0.05,0.03,0.97,-0,-0,-0,0.06,,60,0,11,11,98,0.512,0.0,111,1.42,12.9,0.0,1,0.0,0.0,0.0,0,0,0,0,1,,,,,,,,,,,,,,,,,,,,
6243,0,-0,6,249,250,237,232,-14,-0.05,0.03,0.97,-0,-0,-0,0.06,1,60,0,11,11,98,0.512,0.0,111,1.42,12.9,0.0,1,0.0,0.0,0.0,0,0,0,0,1,0,250,250,0,0.0,0.0,0.0,0.0,0,0,0.0,0,0.0,-1,0.0,0.0,0.0,0,0.0,0.104
6263,0,,,249,250,237,232,,-0.05,0.03,0.97,-0,-0,-0,0.06,,60,0,11,11,98,0.512,0.0,111,1.41,12.9,0.0,1,0.0,0.0,0.0,0,0,0,0,1,,,,,,,,,,,,,,,,,,,,
6283,0,,,249,250,237,232,,-0.05,0.03,0.97,-0,-0,-0,0.06,,60,0,11,11,98,0.512,0.0,111,1.4,12.9,0.0,1,0.0,0.0,0.0,0,0,0,0,1,,,,,,,,,,,,,,,,,,,,
6303,0,,,249,250,237,232,,-0.05,0.03,0.97,-0,-0,-0,0.06,,60,0,11,11,98,0.512,0.0,111,1.4,12.8,0.0,1,0.0,0.0,0.0,0,0,0,0,1,,,,,,,,,,,,,,,,,,,,
6323,0,,,249,250,237,232,,-0.04,0.03,0.97,-0,-0,-0,0.06,,60,0,11,11,98,0.512,0.0,111,1.4,12.8,0.0,1,0.0,0.0,0.0,0,0,0,0,1,,,,,,,,,,,,,,,,,,,,
6343,0,0,4,249,250,237,232,-15,-0.04,0.03,0.97,-0,-0,-0,0.05,1,60,0,11,11,98,0.512,0.0,111,1.4,12.8,0.0,1,0.0,0.0,0.0,0,0,0,0,1,0,250,250,0,0.0,0.0,0.0,0.0,0,0,0.0,0,0.0,-1,0.0,,0.0,0,0.0,0.1057
6363,0,,,249,250,237,232,,-0.04,0.03,0.97,-0,-0,-0,0.05,,60,0,11,11,98,0.513,0.0,111,1.4,12.8,0.0,1,0.0,0.0,0.0,0,0,0,0,1,,,,,,,,,,,,,,,,,,,,
6383,0,,,249,250,237,232,,-0.04,0.03,0.97,-0,-0,-0,0.05,,60,0,11,11,98,0.513,0.0,111,1.39,12.8,0.0,1,0.0,0.0,0.0,0,0,0,0,1,,,,,,,,,,,,,,,,,,,,
6403,0,,,249,250,237,232,,-0.04,0.03,0.97,-0,-0,-0,0.05,,60,0,11,11,98,0.513,0.0,111,1.39,12.8,0.0,1,0.0,0.0,0.0,0,0,0,0,1,,,,,,,,,,,,,,,,,,,,
6423,0,,,249,250,237,232,,-0.04,0.03,0.97,-0,-0,-0,0.05,,60,0,11,11,98,0.513,0.0,111,1.38,12.8,0.0,1,0.0,0.0,0.0,0,0,0,0,1,,,,,,,,,,,,,,,,,,,,
6443,0,0,8,249,250,237,232,-15,-0.04,0.03,0.97,-0,-0,-0,0.05,1,60,0,11,11,98,0.513,0.0,111,1.37,12.8,0.0,1,0.0,0.0,0.0,0,0,0,0,1,0,250,250,0,0.0,0.0,0.0,0.0,0,0,0.0,0,0.0,-1,0.0,0.0,0.0,0,0.0,0.1074
6463,0,,,249,250,237,232,,-0.04,0.03,0.97,-0,-0,-0,0.05,,60,0,11,11,98,0.513,0.0,111,1.37,12.8,0.0,1,0.0,0.0,0.0,0,0,0,0,1,,,,,,,,,,,,,,,,,,,,
6483,0,,,249,250,237,232,,-0.04,0.03,0.97,-0,-0,-0,0.05,,60,0,11,11,98,0.513,0.0,111,1.36,12.8,0.0,1,0.0,0.0,0.0,0,0,0,0,1,,,,,,,,,,,,,,,,,,,,
6503,0,,,249,250,237,232,,-0.04,0.03,0.97,-0,-0,-0,0.05,,60,0,11,11,98,0.514,0.0,111,1.36,12.8,0.0,1,0.0,0.0,0.0,0,0,0,0,1,,,,,,,,,,,,,,,,,,,,
6523,0,,,249,250,237,232,,-0.04,0.03,0.97,-0,-0,-0,0.05,,60,0,11,11,98,0.514,0.0,111,1.36,12.8,0.0,1,0.0,0.0,0.0,0,0,0,0,1,,,,,,,,,,,,,,,,,,,,
6543,0,-0,6,249,250,237,232,-16,-0.04,0.03,0.97,-0,-0,-0,0.05,1,60,0,11,11,98,0.514,0.0,111,1.36,12.8,0.0,1,0.0,0.0,0.0,0,0,0,0,1,0,250,250,0,0.0,0.0,0.0,0.0,0,0,0.0,0,0.0,-1,0.0,,0.0,0,0.0,0.109
6563,0,,,249,250,237,232,,-0.04,0.03,0.97,-0,-0,-0,0.05,,60,0,11,11,98,0.514,0.0,111,1.36,12.8,0.0,1,0.0,0.0,0.0,0,0,0,0,1,,,,,,,,,,,,,,,,,,,,
6583,0,,,249,250,237,232,,-0.04,0.03,0.97,-0,-0,-0,0.05,,60,0,11,11,98,0.514,0.0,111,1.34,12.8,0.0,1,0.0,0.0,0.0,0,0,0,0,1,,,,,,,,,,,,,,,,,,,,
6603,0,,,249,250,237,232,,-0.04,0.03,0.97,-0,-0,-0,0.05,,60,0,11,11,98,0.514,0.0,111,1.34,12.8,0.0,1,0.0,0.0,0.0,0,0,0,0,1,,,,,,,,,,,,,,,,,,,,
6623,0,,,249,250,237,232,,-0.04,0.03,0.96,-0,-0,-0,0.05,,60,0,11,11,98,0.514,0.0,111,1.34,12.8,0.0,1,0.0,0.0,0.0,0,0,0,0,1,,,,,,,,,,,,,,,,,,,,
6643,0,0,9,249,250,237,232,-15,-0.04,0.03,0.96,-0,-0,-0,0.05,1,60,0,11,11,98,0.514,0.0,111,1.34,12.8,0.0,1,0.0,0.0,0.0,0,0,0,0,1,0,250,250,0,0.0,0.0,0.0,0.0,0,0,0.0,0,0.0,-1,0.0,0.0,0.0,0,0.0,0.1107
6663,0,,,249,250,237,232,,-0.04,0.03,0.97,-0,-0,-0,0.05,,60,0,11,11,98,0.514,0.0,111,1.34,12.8,0.0,1,0.0,0.0,0.0,0,0,0,0,1,,,,,,,,,,,,,,,,,,,,
6683,0,,,249,250,237,232,,-0.04,0.03,0.97,-0,-0,-0,0.05,,60,0,11,11,98,0.514,0.0,110,1.34,12.8,0.0,1,0.0,0.0,0.0,0,0,0,0,1,,,,,,,,,,,,,,,,,,,,
6703,0,,,248,250,237,232,,-0.04,0.03,0.97,-0,-0,-0,0.05,,60,0,11,11,98,0.514,0.0,110,1.33,12.8,0.0,1,0.0,0.0,0.0,0,0,0,0,1,,,,,,,,,,,,,,,,,,,,
6723,0,,,249,250,237,232,,-0.04,0.03,0.96,-0,-0,0,0.05,,60,0,11,11,98,0.514,0.0,110,1.33,12.8,0.0,1,0.0,0.0,0.0,0,0,0,0,1,,,,,,,,,,,,,,,,,,,,
6743,0,0,4,249,250,237,232,-15,-0.04,0.03,0.96,-0,-0,-0,0.05,1,60,0,11,11,98,0.514,0.0,111,1.33,12.8,0.0,1,0.0,0.0,0.0,0,0,0,0,1,0,250,250,0,0.0,0.0,0.0,0.0,0,0,0.0,0,0.0,-1,0.0,,0.0,0,0.0,0.1124
6763,0,,,249,250,237,232,,-0.04,0.03,0.96,-0,-0,-0,0.05,,60,0,11,11,98,0.514,0.0,111,1.33,12.8,0.0,1,0.0,0.0,0.0,0,0,0,0,1,,,,,,,,,,,,,,,,,,,,
6783,0,,,249,250,237,232,,-0.04,0.03,0.96,-0,-0,-0,0.05,,60,0,11,11,98,0.514,0.0,111,1.33,12.8,0.0,1,0.0,0.0,0.0,0,0,0,0,1,,,,,,,,,,,,,,,,,,,,
6803,0,,,249,250,237,232,,-0.04,0.03,0.96,-0,-0,-0,0.06,,60,0,11,11,98,0.514,0.0,110,1.33,12.7,0.0,1,0.0,0.0,0.0,0,0,0,0,1,,,,,,,,,,,,,,,,,,,,
6823,0,,,249,250,237,232,,-0.04,0.03,0.96,-0,-0,-0,0.06,,60,0,11,11,98,0.514,0.0,110,1.33,12.8,0.0,1,0.0,0.0,0.0,0,0,0,0,1,,,,,,,,,,,,,,,,,,,,
6843,0,-1,8,249,250,237,232,-15,-0.05,0.03,0.96,-0,-0,-0,0.06,1,60,0,11,11,98,0.514,0.0,110,1.33,12.8,0.0,1,0.0,0.0,0.0,0,0,0,0,1,0,250,250,0,0.0,0.0,0.0,0.0,0,0,0.0,0,0.0,-1,0.0,0.0,0.0,0,0.0,0.114
6863,0,,,249,250,237,232,,-0.04,0.03,0.96,-0,-0,-0,0.06,,60,0,11,11,98,0.514,0.0,111,1.33,12.8,0.0,1,0.0,0.0,0.0,0,0,0,0,1,,,,,,,,,,,,,,,,,,,,
6883,0,,,249,250,237,232,,-0.04,0.03,0.96,-0,-0,-0,0.06,,60,0,11,11,98,0.514,0.0,111,1.33,12.8,0.0,1,0.0,0.0,0.0,0,0,0,0,1,,,,,,,,,,,,,,,,,,,,
6903,0,,,249,250,237,232,,-0.04,0.03,0.96,-0,-0,-0,0.06,,60,0,11,11,98,0.514,0.0,111,1.33,12.8,0.0,1,0.0,0.0,0.0,0,0,0,0,1,,,,,,,,,,,,,,,,,,,,
6923,0,,,249,250,237,232,,-0.04,0.03,0.96,-0,-0,-0,0.06,,60,0,11,11,98,0.514,0.0,111,1.34,12.8,0.0,1,0.0,0.0,0.0,0,0,0,0,1,,,,,,,,,,,,,,,,,,,,
6943,0,-0,8,249,250,237,232,-15,-0.05,0.03,0.96,-0,-0,-0,0.06,1,60,0,11,11,98,0.514,0.0,111,1.35,12.8,0.0,1,0.0,0.0,0.0,0,0,0,0,1,0,250,250,0,0.0,0.0,0.0,0.0,0,0,0.0,0,0.0,-1,0.0,,0.0,0,0.0,0.1157
6963,0,,,249,250,237,232,,-0.05,0.03,0.96,-0,-0,-0,0.06,,60,0,11,11,98,0.514,0.0,111,1.35,12.8,0.0,1,0.0,0.0,0.0,0,0,0,0,1,,,,,,,,,,,,,,,,,,,,
6983,0,,,249,250,237,232,,-0.05,0.03,0.96,-0,-0,-0,0.06,,60,0,11,11,98,0.514,0.0,110,1.35,12.8,0.0,1,0.0,0.0,0.0,0,0,0,0,1,,,,,,,,,,,,,,,,,,,,
7003,0,,,249,250,237,232,,-0.05,0.03,0.96,-0,-0,-0,0.06,,60,0,11,11,98,0.514,0.0,110,1.35,12.8,0.0,1,0.0,0.0,0.0,0,0,0,0,1,,,,,,,,,,,,,,,,,,,,
7023,0,,,249,250,237,232,,-0.05,0.03,0.96,-0,-0,-0,0.06,,60,0,11,11,98,0.514,0.0,110,1.35,12.8,0.0,1,0.0,0.0,0.0,0,0,0,0,1,,,,,,,,,,,,,,,,,,,,
7043,0,0,7,249,250,237,232,-15,-0.05,0.03,0.96,-0,-0,0,0.06,1,60,0,11,11,98,0.514,0.0,110,1.35,12.8,0.0,1,0.0,0.0,0.0,0,0,0,0,1,0,250,250,0,0.0,0.0,0.0,0.0,0,0,0.0,0,0.0,-1,0.0,0.0,0.0,0,0.0,0.1174
7063,0,,,249,250,237,232,,-0.05,0.03,0.96,-0,-0,0,0.06,,60,0,11,11,98,0.514,0.0,110,1.35,12.8,0.0,1,0.0,0.0,0.0,0,0,0,0,1,,,,,,,,,,,,,,,,,,,,
7083,0,,,249,250,237,232,,-0.05,0.03,0.96,-0,-0,0,0.06,,60,0,11,11,98,0.514,0.0,110,1.35,12.8,0.0,1,0.0,0.0,0.0,0,0,0,0,1,,,,,,,,,,,,,,,,,,,,
7103,0,,,249,250,237,232,,-0.05,0.03,0.96,-0,-0,-0,0.06,,60,0,11,11,98,0.514,0.0,110,1.35,12.8,0.0,1,0.0,0.0,0.0,0,0,0,0,1,,,,,,,,,,,,,,,,,,,,
7123,0,,,249,250,237,232,,-0.05,0.03,0.96,-0,-0,0,0.06,,60,0,11,11,98,0.514,0.0,110,1.35,12.8,0.0,1,0.0,0.0,0.0,0,0,0,0,1,,,,,,,,,,,,,,,,,,,,
7143,0,-2,7,249,250,237,232,-15,-0.05,0.03,0.97,-0,-0,-0,0.06,1,60,0,11,11,98,0.514,0.0,110,1.35,12.7,0.0,1,0.0,0.0,0.0,0,0,0,0,1,0,250,250,0,0.0,0.0,0.0,0.0,0,0,0.0,0,0.0,-1,0.0,,0.0,0,0.0,0.119
7163,0,,,249,250,237,232,,-0.05,0.03,0.97,-0,-0,-0,0.06,,60,0,11,11,98,0.514,0.0,110,1.34,12.7,0.0,1,0.0,0.0,0.0,0,0,0,0,1,,,,,,,,,,,,,,,,,,,,
7183,0,,,249,250,237,232,,-0.05,0.03,0.97,-0,-0,0,0.06,,60,0,11,11,98,0.514,0.0,110,1.34,12.8,0.0,1,0.0,0.0,0.0,0,0,0,0,1,,,,,,,,,,,,,,,,,,,,
7203,0,,,249,250,237,232,,-0.05,0.03,0.97,-0,-0,0,0.06,,60,0,11,11,98,0.514,0.0,110,1.34,12.8,0.0,1,0.0,0.0,0.0,0,0,0,0,1,,,,,,,,,,,,,,,,,,,,
7223,0,,,249,250,237,232,,-0.05,0.03,0.97,-0,-0,0,0.06,,60,0,11,11,98,0.514,0.0,110,1.34,12.8,0.0,1,0.0,0.0,0.0,0,0,0,0,1,,,,,,,,,,,,,,,,,,,,
7243,0,0,2,249,250,237,232,-14,-0.05,0.03,0.97,-0,-0,0,0.06,1,60,0,11,11,98,0.514,0.0,110,1.33,12.8,0.0,1,0.0,0.0,0.0,0,0,0,0,1,0,250,250,0,0.0,0.0,0.0,0.0,0,0,0.0,0,0.0,-1,0.0,0.0,0.0,0,0.0,0.1207
7263,0,,,249,250,237,232,,-0.05,0.03,0.97,-0,-0,0,0.06,,60,0,11,11,98,0.514,0.0,110,1.33,12.8,0.0,1,0.0,0.0,0.0,0,0,0,0,1,,,,,,,,,,,,,,,,,,,,
7283,0,,,249,250,237,232,,-0.05,0.03,0.97,-0,-0,0,0.06,,60,0,11,11,98,0.514,0.0,110,1.33,12.7,0.0,1,0.0,0.0,0.0,0,0,0,0,1,,,,,,,,,,,,,,,,,,,,
7303,0,,,249,250,237,232,,-0.05,0.03,0.97,-0,-0,0,0.06,,60,0,11,11,98,0.514,0.0,110,1.33,12.7,0.0,1,0.0,0.0,0.0,0,0,0,0,1,,,,,,,,,,,,,,,,,,,,
7323,0,,,249,250,237,232,,-0.05,0.03,0.97,-0,-0,0,0.06,,60,0,11,11,98,0.514,0.0,110,1.32,12.7,0.0,1,0.0,0.0,0.0,0,0,0,0,1,,,,,,,,,,,,,,,,,,,,
7343,0,-1,3,249,250,237,232,-16,-0.05,0.03,0.97,-0,-0,0,0.06,1,60,0,11,11,98,0.514,0.0,110,1.32,12.7,0.0,1,0.0,0.0,0.0,0,0,0,0,1,0,250,250,0,0.0,0.0,0.0,0.0,0,0,0.0,0,0.0,-1,0.0,,0.0,0,0.0,0.1224
7363,0,,,249,250,237,232,,-0.05,0.03,0.97,-0,-0,0,0.06,,60,0,11,11,98,0.514,0.0,111,1.31,12.7,0.0,1,0.0,0.0,0.0,0,0,0,0,1,,,,,,,,,,,,,,,,,,,,
7383,0,,,249,250,237,232,,-0.05,0.03,0.97,-0,-0,0,0.06,,60,0,11,11,98,0.514,0.0,111,1.31,12.8,0.0,1,0.0,0.0,0.0,0,0,0,0,1,,,,,,,,,,,,,,,,,,,,
7403,0,,,249,250,237,232,,-0.05,0.03,0.97,-0,-0,0,0.06,,60,0,11,11,98,0.514,0.0,111,1.31,12.8,0.0,1,0.0,0.0,0.0,0,0,0,0,1,,,,,,,,,,,,,,,,,,,,
7423,0,,,249,250,237,232,,-0.05,0.03,0.97,-0,-0,0,0.06,,60,0,11,11,98,0.514,0.0,111,1.31,12.8,0.0,1,0.0,0.0,0.0,0,0,0,0,1,,,,,,,,,,,,,,,,,,,,
7443,0,-2,3,249,250,237,232,-15,-0.05,0.03,0.97,-0,-0,0,0.06,1,60,0,11,11,98,0.514,0.0,111,1.31,12.8,0.0,1,0.0,0.0,0.0,0,0,0,0,1,0,250,250,0,0.0,0.0,0.0,0.0,0,0,0.0,0,0.0,-1,0.0,0.0,0.0,0,0.0,0.124
7463,0,,,249,250,237,232,,-0.05,0.03,0.97,-0,-0,-0,0.06,,60,0,11,11,98,0.514,0.0,111,1.31,12.7,0.0,1,0.0,0.0,0.0,0,0,0,0,1,,,,,,,,,,,,,,,,,,,,
7483,0,,,249,250,237,232,,-0.05,0.03,0.97,-0,-0,-0,0.06,,60,0,11,11,98,0.514,0.0,111,1.31,12.7,0.0,1,0.0,0.0,0.0,0,0,0,0,1,,,,,,,,,,,,,,,,,,,,
7503,0,,,249,250,237,232,,-0.05,0.03,0.97,-0,-0,-0,0.06,,60,0,11,11,98,0.514,0.0,111,1.31,12.7,0.0,1,0.0,0.0,0.0,0,0,0,0,1,,,,,,,,,,,,,,,,,,,,
7523,0,,,249,250,237,232,,-0.05,0.03,0.97,-0,-0,-0,0.06,,60,0,11,11,98,0.514,0.0,111,1.31,12.8,0.0,1,0.0,0.0,0.0,0,0,0,0,1,,,,,,,,,,,,,,,,,,,,
7543,0,0,2,249,250,237,232,-16,-0.05,0.03,0.97,-0,-0,-0,0.05,1,60,0,11,11,98,0.514,0.0,111,1.31,12.8,0.0,1,0.0,0.0,0.0,0,0,0,0,1,0,250,250,0,0.0,0.0,0.0,0.0,0,0,0.0,0,0.0,-1,0.0,,0.0,0,0.0,0.1257
7563,0,,,249,250,237,232,,-0.04,0.03,0.97,-0,-0,-0,0.05,,60,0,11,11,98,0.514,0.0,111,1.29,12.8,0.0,1,0.0,0.0,0.0,0,0,0,0,1,,,,,,,,,,,,,,,,,,,,
7583,0,,,249,250,237,232,,-0.04,0.03,0.97,-0,-0,-0,0.05,,60,0,11,11,98,0.514,0.0,111,1.29,12.8,0.0,1,0.0,0.0,0.0,0,0,0,0,1,,,,,,,,,,,,,,,,,,,,
7603,0,,,249,250,237,232,,-0.04,0.03,0.97,-0,-0,-0,0.05,,60,0,11,11,98,0.514,0.0,111,1.28,12.8,0.0,1,0.0,0.0,0.0,0,0,0,0,1,,,,,,,,,,,,,,,,,,,,
7623,0,,,249,250,237,232,,-0.04,0.03,0.97,-0,-0,-0,0.05,,60,0,11,11,98,0.514,0.0,110,1.28,12.8,0.0,1,0.0,0.0,0.0,0,0,0,0,1,,,,,,,,,,,,,,,,,,,,
7643,0,-1,4,249,250,237,232,-16,-0.04,0.03,0.97,-0,-0,-0,0.05,1,60,0,11,11,98,0.514,0.0,110,1.28,12.7,0.0,1,0.0,0.0,0.0,0,0,0,0,1,0,250,250,0,0.0,0.0,0.0,0.0,0,0,0.0,0,0.0,-1,0.0,0.0,0.0,0,0.0,0.1274
7663,0,,,249,250,237,232,,-0.04,0.03,0.97,-0,-0,-0,0.05,,60,0,11,11,98,0.514,0.0,110,1.28,12.7,0.0,1,0.0,0.0,0.0,0,0,0,0,1,,,,,,,,,,,,,,,,,,,,
7683,0,,,249,250,237,232,,-0.04,0.03,0.97,-0,-0,-0,0.05,,60,0,11,11,98,0.514,0.0,110,1.28,12.8,0.0,1,0.0,0.0,0.0,0,0,0,0,1,,,,,,,,,,,,,,,,,,,,
7703,0,,,249,250,237,232,,-0.04,0.03,0.97,-0,-0,-0,0.05,,60,0,11,11,98,0.514,0.0,110,1.28,12.8,0.0,1,0.0,0.0,0.0,0,0,0,0,1,,,,,,,,,,,,,,,,,,,,
7723,0,,,249,250,237,232,,-0.04,0.03,0.97,-0,-0,-0,0.05,,60,0,11,11,98,0.514,0.0,110,1.28,12.8,0.0,1,0.0,0.0,0.0,0,0,0,0,1,,,,,,,,,,,,,,,,,,,,
7743,0,-1,5,249,250,237,232,-14,-0.04,0.03,0.97,-0,-0,-0,0.05,1,60,0,11,11,98,0.514,0.0,110,1.28,12.8,0.0,1,0.0,0.0,0.0,0,0,0,0,1,0,250,250,0,0.0,0.0,0.0,0.0,0,0,0.0,0,0.0,-1,0.0,,0.0,0,0.0,0.129
7763,0,,,249,250,237,232,,-0.04,0.03,0.97,-0,-0,-0,0.05,,60,0,11,11,98,0.514,0.0,110,1.28,12.8,0.0,1,0.0,0.0,0.0,0,0,0,0,1,,,,,,,,,,,,,,,,,,,,
7783,0,,,249,250,237,232,,-0.04,0.03,0.97,-0,-0,-0,0.05,,60,0,11,11,98,0.514,0.0,110,1.28,12.8,0.0,1,0.0,0.0,0.0,0,0,0,0,1,,,,,,,,,,,,,,,,,,,,
7803,0,,,249,250,237,232,,-0.04,0.03,0.97,-0,-0,-0,0.05,,60,0,11,11,98,0.514,0.0,110,1.28,12.7,0.0,1,0.0,0.0,0.0,0,0,0,0,1,,,,,,,,,,,,,,,,,,,,
7823,0,,,249,250,237,232,,-0.04,0.03,0.97,-0,-0,-0,0.05,,60,0,11,12,98,0.514,0.0,110,1.27,12.7,0.0,1,0.0,0.0,0.0,0,0,0,0,1,,,,,,,,,,,,,,,,,,,,
7843,0,0,1,249,250,237,232,-14,-0.04,0.03,0.97,-0,-0,-0,0.05,1,60,0,11,12,98,0.514,0.0,111,1.26,12.7,0.0,1,0.0,0.0,0.0,0,0,0,0,1,0,250,250,0,0.0,0.0,0.0,0.0,0,0,0.0,0,0.0,-1,0.0,0.0,0.0,0,0.0,0.1307
7863,0,,,248,250,237,232,,-0.04,0.03,0.96,-0,-0,-0,0.05,,60,0,11,12,98,0.514,0.0,111,1.26,12.8,0.0,1,0.0,0.0,0.0,0,0,0,0,1,,,,,,,,,,,,,,,,,,,,
7883,0,,,249,250,237,232,,-0.04,0.03,0.97,-0,-0,-0,0.05,,60,0,11,12,98,0.514,0.0,111,1.26,12.8,0.0,1,0.0,0.0,0.0,0,0,0,0,1,,,,,,,,,,,,,,,,,,,,
7903,0,,,249,250,237,232,,-0.04,0.03,0.97,-0,-0,-0,0.05,,60,0,11,12,98,0.514,0.0,111,1.26,12.8,0.0,1,0.0,0.0,0.0,0,0,0,0,1,,,,,,,,,,,,,,,,,,,,
7923,0,,,249,250,237,232,,-0.04,0.03,0.97,-0,-0,-0,0.05,,60,0,11,12,98,0.514,0.0,111,1.26,12.8,0.0,1,0.0,0.0,0.0,0,0,0,0,1,,,,,,,,,,,,,,,,,,,,
7943,0,-2,4,249,250,237,232,-15,-0.04,0.03,0.97,-0,-0,-0,0.05,1,60,0,11,12,98,0.514,0.0,111,1.26,12.8,0.0,1,0.0,0.0,0.0,0,0,0,0,1,0,250,250,0,0.0,0.0,0.0,0.0,0,0,0.0,0,0.0,-1,0.0,,0.0,0,0.0,0.1324
7963,0,,,249,250,237,232,,-0.04,0.03,0.97,-0,-0,0,0.05,,60,0,11,12,98,0.514,0.0,111,1.26,12.7,0.0,1,0.0,0.0,0.0,0,0,0,0,1,,,,,,,,,,,,,,,,,,,,
7983,0,,,248,250,237,232,,-0.05,0.03,0.97,-0,-0,-0,0.06,,60,0,11,12,98,0.514,0.0,110,1.26,12.7,0.0,1,0.0,0.0,0.0,0,0,0,0,1,,,,,,,,,,,,,,,,,,,,
8003,0,,,249,250,237,232,,-0.05,0.03,0.97,-0,-0,0,0.06,,60,0,11,12,98,0.514,0.0,110,1.26,12.7,0.0,1,0.0,0.0,0.0,0,0,0,0,1,,,,,,,,,,,,,,,,,,,,
8023,0,,,249,250,237,232,,-0.04,0.03,0.96,-0,-0,0,0.05,,60,0,11,12,98,0.514,0.0,110,1.26,12.7,0.0,1,0.0,0.0,0.0,0,0,0,0,1,,,,,,,,,,,,,,,,,,,,
8043,0,0,1,249,250,237,232,-15,-0.04,0.03,0.96,-0,-0,0,0.05,1,60,0,11,12,98,0.514,0.0,110,1.26,12.8,0.0,1,0.0,0.0,0.0,0,0,0,0,1,0,250,250,0,0.0,0.0,0.0,0.0,0,0,0.0,0,0.0,-1,0.0,0.0,0.0,0,0.0,0.134
8063,0,,,249,250,237,232,,-0.04,0.03,0.96,-0,-0,-0,0.05,,60,0,11,12,98,0.514,0.0,110,1.24,12.8,0.0,1,0.0,0.0,0.0,0,0,0,0,1,,,,,,,,,,,,,,,,,,,,
8083,0,,,249,250,237,232,,-0.04,0.03,0.97,-0,-0,-0,0.05,,60,0,11,12,98,0.514,0.0,110,1.24,12.8,0.0,1,0.0,0.0,0.0,0,0,0,0,1,,,,,,,,,,,,,,,,,,,,
8103,0,,,249,250,237,232,,-0.05,0.03,0.97,-0,-0,-0,0.05,,60,0,11,12,98,0.514,0.0,110,1.23,12.8,0.0,1,0.0,0.0,0.0,0,0,0,0,1,,,,,,,,,,,,,,,,,,,,
8123,0,,,249,250,237,232,,-0.05,0.03,0.97,-0,-0,-0,0.06,,60,0,11,12,98,0.514,0.0,110,1.23,12.8,0.0,1,0.0,0.0,0.0,0,0,0,0,1,,,,,,,,,,,,,,,,,,,,
8143,0,-1,3,249,250,237,232,-16,-0.05,0.03,0.96,-0,-0,-0,0.05,1,60,0,11,12,98,0.514,0.0,110,1.23,12.7,0.0,1,0.0,0.0,0.0,0,0,0,0,1,0,250,250,0,0.0,0.0,0.0,0.0,0,0,0.0,0,0.0,-1,0.0,,0.0,0,0.0,0.1357
8163,0,,,249,250,237,232,,-0.05,0.03,0.96,-0,-0,-0,0.06,,60,0,11,12,98,0.514,0.0,110,1.23,12.7,0.0,1,0.0,0.0,0.0,0,0,0,0,1,,,,,,,,,,,,,,,,,,,,
8183,0,,,249,250,237,232,,-0.05,0.03,0.96,-0,-0,-0,0.06,,60,0,11,12,98,0.514,0.0,110,1.23,12.7,0.0,1,0.0,0.0,0.0,0,0,0,0,1,,,,,,,,,,,,,,,,,,,,
8203,0,,,249,250,237,232,,-0.05,0.03,0.96,-0,-0,-0,0.06,,60,0,11,12,98,0.514,0.0,110,1.23,12.7,0.0,1,0.0,0.0,0.0,0,0,0,0,1,,,,,,,,,,,,,,,,,,,,
8223,0,,,249,250,237,232,,-0.05,0.03,0.97,-0,-0,-0,0.06,,60,0,11,12,98,0.514,0.0,110,1.23,12.8,0.0,1,0.0,0.0,0.0,0,0,0,0,1,,,,,,,,,,,,,,,,,,,,
8243,0,-1,4,249,250,237,232,-15,-0.05,0.03,0.97,-0,-0,-0,0.06,1,60,0,11,12,98,0.514,0.0,110,1.23,12.8,0.0,1,0.0,0.0,0.0,0,0,0,0,1,0,250,250,0,0.0,0.0,0.0,0.0,0,0,0.0,0,0.0,-1,0.0,0.0,0.0,0,0.0,0.1374
8263,0,,,249,250,237,232,,-0.05,0.03,0.97,-0,-0,-0,0.06,,60,0,11,12,98,0.514,0.0,110,1.23,12.8,0.0,1,0.0,0.0,0.0,0,0,0,0,1,,,,,,,,,,,,,,,,,,,,
8283,0,,,249,250,237,232,,-0.05,0.03,0.96,-0,-0,-0,0.05,,60,0,11,12,98,0.514,0.0,111,1.23,12.8,0.0,1,0.0,0.0,0.0,0,0,0,0,1,,,,,,,,,,,,,,,,,,,,
8303,0,,,249,250,237,232,,-0.05,0.03,0.96,-0,-0,-0,0.06,,60,0,11,12,98,0.514,0.0,111,1.23,12.8,0.0,1,0.0,0.0,0.0,0,0,0,0,1,,,,,,,,,,,,,,,,,,,,
8323,0,,,249,250,237,232,,-0.05,0.03,0.96,-0,-0,-0,0.06,,60,0,11,12,98,0.514,0.0,111,1.23,12.7,0.0,1,0.0,0.0,0.0,0,0,0,0,1,,,,,,,,,,,,,,,,,,,,
8343,0,0,2,249,250,237,232,-15,-0.05,0.03,0.96,-0,-0,-0,0.06,1,60,0,11,12,98,0.514,0.0,111,1.23,12.7,0.0,1,0.0,0.0,0.0,0,0,0,0,1,0,250,250,0,0.0,0.0,0.0,0.0,0,0,0.0,0,0.0,-1,0.0,,0.0,0,0.0,0.1391
8363,0,,,249,250,237,232,,-0.05,0.03,0.96,-0,-0,-0,0.06,,60,0,11,12,98,0.514,0.0,111,1.23,12.7,0.0,1,0.0,0.0,0.0,0,0,0,0,1,,,,,,,,,,,,,,,,,,,,
8383,0,,,249,250,237,232,,-0.05,0.03,0.96,-0,-0,-0,0.06,,60,0,11,12,98,0.514,0.0,111,1.22,12.8,0.0,1,0.0,0.0,0.0,0,0,0,0,1,,,,,,,,,,,,,,,,,,,,
8403,0,,,249,250,237,232,,-0.05,0.03,0.96,-0,-0,-0,0.06,,60,0,11,12,98,0.514,0.0,111,1.22,12.8,0.0,1,0.0,0.0,0.0,0,0,0,0,1,,,,,,,,,,,,,,,,,,,,
8423,0,,,249,250,237,232,,-0.05,0.03,0.96,-0,-0,-0,0.06,,60,0,11,12,98,0.514,0.0,111,1.22,12.8,0.0,1,0.0,0.0,0.0,0,0,0,0,1,,,,,,,,,,,,,,,,,,,,
8443,0,-1,4,249,250,237,232,-15,-0.05,0.03,0.96,-0,-0,-0,0.06,1,60,0,11,12,98,0.514,0.0,111,1.22,12.8,0.0,1,0.0,0.0,0.0,0,0,0,0,1,0,250,250,0,0.0,0.0,0.0,0.0,0,0,0.0,0,0.0,-1,0.0,0.0,0.0,0,0.0,0.1407
8463,0,,,249,250,237,232,,-0.05,0.03,0.96,-0,-0,-0,0.06,,60,0,11,12,98,0.513,0.0,111,1.22,12.8,0.0,1,0.0,0.0,0.0,0,0,0,0,1,,,,,,,,,,,,,,,,,,,,
8483,0,,,249,250,237,232,,-0.05,0.03,0.96,-0,-0,-0,0.06,,60,0,11,12,98,0.513,0.0,111,1.22,12.8,0.0,1,0.0,0.0,0.0,0,0,0,0,1,,,,,,,,,,,,,,,,,,,,
8503,0,,,249,250,237,232,,-0.05,0.03,0.96,-0,-0,-0,0.06,,60,0,11,12,98,0.513,0.0,111,1.21,12.8,0.0,1,0.0,0.0,0.0,0,0,0,0,1,,,,,,,,,,,,,,,,,,,,
8523,0,,,249,250,237,232,,-0.05,0.03,0.96,-0,-0,-0,0.06,,60,0,11,12,98,0.513,0.0,111,1.21,12.8,0.0,1,0.0,0.0,0.0,0,0,0,0,1,,,,,,,,,,,,,,,,,,,,
8543,0,0,5,249,250,237,232,-14,-0.05,0.03,0.96,-0,-0,-0,0.06,1,60,0,11,12,98,0.513,0.0,111,1.21,12.8,0.0,1,0.0,0.0,0.0,0,0,0,0,1,0,250,250,0,0.0,0.0,0.0,0.0,0,0,0.0,0,0.0,-1,0.0,,0.0,0,0.0,0.1424
8563,0,,,249,250,237,232,,-0.05,0.03,0.96,-0,-0,-0,0.06,,60,0,11,12,98,0.513,0.0,111,1.21,12.8,0.0,1,0.0,0.0,0.0,0,0,0,0,1,,,,,,,,,,,,,,,,,,,,
8583,0,,,249,250,237,232,,-0.05,0.03,0.96,-0,-0,-0,0.06,,60,0,11,12,98,0.513,0.0,111,1.21,12.8,0.0,1,0.0,0.0,0.0,0,0,0,0,1,,,,,,,,,,,,,,,,,,,,
8603,0,,,249,250,237,232,,-0.05,0.03,0.96,-0,-0,-0,0.06,,60,0,11,12,98,0.513,0.0,111,1.21,12.8,0.0,1,0.0,0.0,0.0,0,0,0,0,1,,,,,,,,,,,,,,,,,,,,
8623,0,,,249,250,237,232,,-0.05,0.03,0.96,-0,-0,-0,0.06,,60,0,11,12,98,0.513,0.0,111,1.21,12.8,0.0,1,0.0,0.0,0.0,0,0,0,0,1,,,,,,,,,,,,,,,,,,,,
8643,0,0,1,249,250,237,232,-15,-0.05,0.03,0.96,-0,-0,-0,0.06,1,60,0,11,12,98,0.513,0.0,111,1.21,12.8,0.0,1,0.0,0.0,0.0,0,0,0,0,1,0,250,250,0,0.0,0.0,0.0,0.0,0,0,0.0,0,0.0,-1,0.0,0.0,0.0,0,0.0,0.144
8663,0,,,249,250,237,232,,-0.05,0.03,0.96,-0,-0,-0,0.06,,60,0,11,12,98,0.513,0.0,111,1.21,12.8,0.0,1,0.0,0.0,0.0,0,0,0,0,1,,,,,,,,,,,,,,,,,,,,
8683,0,,,249,250,237,232,,-0.05,0.03,0.96,-0,-0,0,0.06,,60,0,11,12,98,0.513,0.0,111,1.21,12.8,0.0,1,0.0,0.0,0.0,0,0,0,0,1,,,,,,,,,,,,,,,,,,,,
8703,0,,,249,250,237,232,,-0.05,0.03,0.96,-0,-0,-0,0.06,,60,0,11,12,98,0.513,0.0,111,1.21,12.8,0.0,1,0.0,0.0,0.0,0,0,0,0,1,,,,,,,,,,,,,,,,,,,,
8723,0,,,249,250,237,232,,-0.05,0.03,0.96,-0,-0,-0,0.06,,60,0,11,12,98,0.513,0.0,111,1.21,12.8,0.0,1,0.0,0.0,0.0,0,0,0,0,1,,,,,,,,,,,,,,,,,,,,
8743,0,-2,4,249,250,237,232,-14,-0.05,0.03,0.96,-0,-0,-0,0.06,1,60,0,11,12,98,0.513,0.0,111,1.21,12.8,0.0,1,0.0,0.0,0.0,0,0,0,0,1,0,250,250,0,0.0,0.0,0.0,0.0,0,0,0.0,0,0.0,-1,0.0,,0.0,0,0.0,0.1457
8763,0,,,249,250,237,232,,-0.05,0.03,0.96,-0,-0,-0,0.06,,60,0,11,12,98,0.513,0.0,111,1.21,12.8,0.0,1,0.0,0.0,0.0,0,0,0,0,1,,,,,,,,,,,,,,,,,,,,
8783,0,,,249,250,237,232,,-0.05,0.03,0.96,-0,-0,-0,0.06,,60,0,11,12,98,0.513,0.0,111,1.21,12.8,0.0,1,0.0,0.0,0.0,0,0,0,0,1,,,,,,,,,,,,,,,,,,,,
8803,0,,,249,250,237,232,,-0.05,0.03,0.96,-0,-0,-0,0.06,,60,0,11,12,98,0.513,0.0,111,1.21,12.8,0.0,1,0.0,0.0,0.0,0,0,0,0,1,,,,,,,,,,,,,,,,,,,,
8823,0,,,249,250,237,232,,-0.05,0.03,0.96,-0,-0,-0,0.06,,60,0,11,12,98,0.513,0.0,111,1.21,12.8,0.0,1,0.0,0.0,0.0,0,0,0,0,1,,,,,,,,,,,,,,,,,,,,
8843,0,-2,4,249,250,237,232,-15,-0.05,0.03,0.96,-0,-0,-0,0.06,1,60,0,11,12,98,0.513,0.0,111,1.21,12.8,0.0,1,0.0,0.0,0.0,0,0,0,0,1,0,250,250,0,0.0,0.0,0.0,0.0,0,0,0.0,0,0.0,-1,0.0,0.0,0.0,0,0.0,0.1474
8863,0,,,249,250,237,232,,-0.05,0.03,0.96,-0,-0,-0,0.06,,60,0,11,12,98,0.513,0.0,111,1.21,12.8,0.0,1,0.0,0.0,0.0,0,0,0,0,1,,,,,,,,,,,,,,,,,,,,
8883,0,,,249,250,237,232,,-0.05,0.03,0.96,-0,-0,-0,0.05,,60,0,11,12,98,0.513,0.0,111,1.21,12.8,0.0,1,0.0,0.0,0.0,0,0,0,0,1,,,,,,,,,,,,,,,,,,,,
8903,0,,,249,250,237,232,,-0.05,0.03,0.97,-0,-0,-0,0.06,,60,0,11,12,98,0.513,0.0,111,1.21,12.8,0.0,1,0.0,0.0,0.0,0,0,0,0,1,,,,,,,,,,,,,,,,,,,,
8923,0,,,249,250,237,232,,-0.05,0.03,0.97,-0,-0,-0,0.06,,60,0,11,12,98,0.513,0.0,111,1.21,12.8,0.0,1,0.0,0.0,0.0,0,0,0,0,1,,,,,,,,,,,,,,,,,,,,
8943,0,0,1,249,250,237,232,-15,-0.05,0.03,0.96,-0,-0,-0,0.06,1,60,0,11,12,98,0.513,0.0,111,1.21,12.9,0.0,1,0.0,0.0,0.0,0,0,0,0,1,0,250,250,0,0.0,0.0,0.0,0.0,0,0,0.0,0,0.0,-1,0.0,,0.0,0,0.0,0.149
8963,0,,,249,250,237,232,,-0.05,0.03,0.96,-0,-0,-0,0.06,,60,0,11,12,98,0.513,0.0,111,1.21,12.9,0.0,1,0.0,0.0,0.0,0,0,0,0,1,,,,,,,,,,,,,,,,,,,,
8983,0,,,248,250,237,232,,-0.05,0.03,0.96,-0,-0,-0,0.05,,60,0,11,12,98,0.513,0.0,111,1.21,12.8,0.0,1,0.0,0.0,0.0,0,0,0,0,1,,,,,,,,,,,,,,,,,,,,
9003,0,,,249,250,237,232,,-0.05,0.03,0.96,-0,-0,-0,0.05,,60,0,11,12,98,0.513,0.0,111,1.21,12.8,0.0,1,0.0,0.0,0.0,0,0,0,0,1,,,,,,,,,,,,,,,,,,,,
9023,0,,,249,250,237,232,,-0.05,0.03,0.97,-0,-0,-0,0.05,,60,0,11,12,98,0.513,0.0,111,1.21,12.8,0.0,1,0.0,0.0,0.0,0,0,0,0,1,,,,,,,,,,,,,,,,,,,,
9043,0,1,5,249,250,237,232,-15,-0.04,0.03,0.97,-0,-0,0,0.05,1,60,0,11,12,98,0.513,0.0,111,1.21,12.8,0.0,1,0.0,0.0,0.0,0,0,0,0,1,0,250,250,0,0.0,0.0,0.0,0.0,0,0,0.0,0,0.0,-1,0.0,0.0,0.0,0,0.0,0.1507
9063,0,,,249,250,237,232,,-0.04,0.03,0.97,-0,-0,0,0.05,,60,0,11,12,98,0.513,0.0,111,1.21,12.8,0.0,1,0.0,0.0,0.0,0,0,0,0,1,,,,,,,,,,,,,,,,,,,,
9083,0,,,249,250,237,232,,-0.05,0.03,0.97,-0,-0,-0,0.05,,60,0,11,12,98,0.513,0.0,111,1.21,12.9,0.0,1,0.0,0.0,0.0,0,0,0,0,1,,,,,,,,,,,,,,,,,,,,
9103,0,,,249,250,237,232,,-0.05,0.03,0.97,-0,-0,0,0.05,,60,0,11,12,98,0.512,0.0,111,1.2,12.9,0.0,1,0.0,0.0,0.0,0,0,0,0,1,,,,,,,,,,,,,,,,,,,,
9123,0,,,249,250,237,232,,-0.04,0.03,0.97,-0,-0,0,0.05,,60,0,11,12,98,0.512,0.0,111,1.21,12.9,0.0,1,0.0,0.0,0.0,0,0,0,0,1,,,,,,,,,,,,,,,,,,,,
9143,0,1,1,249,250,237,232,-15,-0.05,0.03,0.97,-0,-0,-0,0.06,1,60,0,11,12,98,0.512,0.0,111,1.21,12.9,0.0,1,0.0,0.0,0.0,0,0,0,0,1,0,250,250,0,0.0,0.0,0.0,0.0,0,0,0.0,0,0.0,-1,0.0,,0.0,0,0.0,0.1524
9163,0,,,249,250,237,232,,-0.05,0.03,0.97,-0,-0,-0,0.06,,60,0,11,12,98,0.512,0.0,111,1.21,12.8,0.0,1,0.0,0.0,0.0,0,0,0,0,1,,,,,,,,,,,,,,,,,,,,
9183,0,,,249,250,237,232,,-0.05,0.03,0.97,-0,-0,-0,0.06,,60,0,11,12,98,0.512,0.0,111,1.2,12.8,0.0,1,0.0,0.0,0.0,0,0,0,0,1,,,,,,,,,,,,,,,,,,,,
9203,0,,,249,250,237,232,,-0.05,0.03,0.97,-0,-0,-0,0.06,,60,0,11,12,98,0.512,0.0,111,1.2,12.8,0.0,1,0.0,0.0,0.0,0,0,0,0,1,,,,,,,,,,,,,,,,,,,,
9223,0,,,249,250,237,232,,-0.05,0.03,0.97,-0,-0,-0,0.06,,60,0,11,12,98,0.512,0.0,111,1.2,12.8,0.0,1,0.0,0.0,0.0,0,0,0,0,1,,,,,,,,,,,,,,,,,,,,
9243,0,0,2,249,250,237,232,-14,-0.05,0.03,0.97,-0,-0,-0,0.05,1,60,0,11,12,98,0.512,0.0,111,1.2,12.9,0.0,1,0.0,0.0,0.0,0,0,0,0,1,0,250,250,0,0.0,0.0,0.0,0.0,0,0,0.0,0,0.0,-1,0.0,0.0,0.0,0,0.0,0.154
9263,0,,,249,250,237,232,,-0.05,0.03,0.97,-0,-0,-0,0.05,,60,0,11,12,98,0.512,0.0,111,1.2,12.9,0.0,1,0.0,0.0,0.0,0,0,0,0,1,,,,,,,,,,,,,,,,,,,,
9283,0,,,249,250,237,232,,-0.05,0.03,0.97,-0,-0,-0,0.05,,60,0,11,12,98,0.512,0.0,111,1.2,12.9,0.0,1,0.0,0.0,0.0,0,0,0,0,1,,,,,,,,,,,,,,,,,,,,
9303,0,,,249,250,237,232,,-0.05,0.03,0.97,-0,-0,-0,0.05,,60,0,11,12,98,0.512,0.0,111,1.2,12.9,0.0,1,0.0,0.0,0.0,0,0,0,0,1,,,,,,,,,,,,,,,,,,,,
9323,0,,,249,250,237,232,,-0.05,0.03,0.97,-0,-0,-0,0.06,,60,0,11,12,98,0.512,0.0,111,1.2,12.9,0.0,1,0.0,0.0,0.0,0,0,0,0,1,,,,,,,,,,,,,,,,,,,,
9343,0,-2,4,249,250,237,232,-15,-0.05,0.03,0.97,-0,-0,-0,0.05,1,60,0,11,12,98,0.512,0.0,111,1.2,12.8,0.0,1,0.0,0.0,0.0,0,0,0,0,1,0,250,250,0,0.0,0.0,0.0,0.0,0,0,0.0,0,0.0,-1,0.0,,0.0,0,0.0,0.1557
9363,0,,,249,250,237,232,,-0.05,0.03,0.97,-0,-0,-0,0.06,,60,0,11,12,98,0.512,0.0,111,1.2,12.8,0.0,1,0.0,0.0,0.0,0,0,0,0,1,,,,,,,,,,,,,,,,,,,,
9383,0,,,249,250,237,232,,-0.05,0.03,0.97,-0,-0,-0,0.06,,60,0,11,12,98,0.512,0.0,111,1.2,12.8,0.0,1,0.0,0.0,0.0,0,0,0,0,1,,,,,,,,,,,,,,,,,,,,
9403,0,,,249,250,237,232,,-0.05,0.03,0.97,-0,-0,-0,0.06,,60,0,11,12,98,0.512,0.0,111,1.2,12.9,0.0,1,0.0,0.0,0.0,0,0,0,0,1,,,,,,,,,,,,,,,,,,,,
9423,0,,,249,250,237,232,,-0.05,0.03,0.97,-0,-0,-0,0.06,,60,0,11,12,98,0.512,0.0,111,1.2,12.9,0.0,1,0.0,0.0,0.0,0,0,0,0,1,,,,,,,,,,,,,,,,,,,,
9443,0,-1,4,249,250,237,232,-15,-0.05,0.03,0.97,-0,-0,-0,0.05,1,60,0,11,12,98,0.512,0.0,111,1.2,12.9,0.0,1,0.0,0.0,0.0,0,0,0,0,1,0,250,250,0,0.0,0.0,0.0,0.0,0,0,0.0,0,0.0,-1,0.0,0.0,0.0,0,0.0,0.1574
9463,0,,,249,250,237,232,,-0.05,0.03,0.97,-0,-0,-0,0.06,,60,0,11,12,98,0.512,0.0,111,1.2,12.9,0.0,1,0.0,0.0,0.0,0,0,0,0,1,,,,,,,,,,,,,,,,,,,,
9483,0,,,249,250,237,232,,-0.05,0.03,0.97,-0,-0,-0,0.06,,60,0,11,12,98,0.512,0.0,111,1.19,12.9,0.0,1,0.0,0.0,0.0,0,0,0,0,1,,,,,,,,,,,,,,,,,,,,
9503,0,,,249,250,237,232,,-0.05,0.03,0.97,-0,-0,-0,0.06,,60,0,11,12,98,0.512,0.0,111,1.18,12.9,0.0,1,0.0,0.0,0.0,0,0,0,0,1,,,,,,,,,,,,,,,,,,,,
9523,0,,,249,250,237,232,,-0.05,0.03,0.96,-0,-0,-0,0.06,,60,0,11,12,98,0.512,0.0,111,1.18,12.8,0.0,1,0.0,0.0,0.0,0,0,0,0,1,,,,,,,,,,,,,,,,,,,,
9543,0,-1,5,249,250,237,232,-14,-0.05,0.03,0.96,-0,-0,-0,0.06,1,60,0,11,12,98,0.512,0.0,111,1.18,12.9,0.0,1,0.0,0.0,0.0,0,0,0,0,1,0,250,250,0,0.0,0.0,0.0,0.0,0,0,0.0,0,0.0,-1,0.0,,0.0,0,0.0,0.159
9563,0,,,249,250,237,232,,-0.05,0.03,0.96,-0,-0,-0,0.06,,60,0,11,12,98,0.512,0.0,111,1.18,12.9,0.0,1,0.0,0.0,0.0,0,0,0,0,1,,,,,,,,,,,,,,,,,,,,
9583,0,,,249,250,237,232,,-0.05,0.03,0.96,-0,-0,0,0.06,,60,0,11,12,98,0.512,0.0,111,1.18,12.9,0.0,1,0.0,0.0,0.0,0,0,0,0,1,,,,,,,,,,,,,,,,,,,,
9603,0,,,249,250,237,232,,-0.05,0.03,0.96,-0,-0,0,0.06,,60,0,11,12,98,0.512,0.0,111,1.18,12.9,0.0,1,0.0,0.0,0.0,0,0,0,0,1,,,,,,,,,,,,,,,,,,,,
9623,0,,,249,250,237,232,,-0.05,0.03,0.96,-0,-0,0,0.06,,60,0,11,12,98,0.512,0.0,111,1.18,12.9,0.0,1,0.0,0.0,0.0,0,0,0,0,1,,,,,,,,,,,,,,,,,,,,
9643,0,1,2,249,250,237,232,-14,-0.05,0.03,0.96,-0,-0,0,0.06,1,60,0,11,12,98,0.512,0.0,111,1.18,12.9,0.0,1,0.0,0.0,0.0,0,0,0,0,1,0,250,250,0,0.0,0.0,0.0,0.0,0,0,0.0,0,0.0,-1,0.0,0.0,0.0,0,0.0,0.1607
9663,0,,,249,250,237,232,,-0.05,0.03,0.96,-0,-0,0,0.06,,60,0,11,12,98,0.512,0.0,111,1.18,12.8,0.0,1,0.0,0.0,0.0,0,0,0,0,1,,,,,,,,,,,,,,,,,,,,
9683,0,,,249,250,237,232,,-0.05,0.03,0.96,-0,-0,0,0.06,,60,0,11,12,98,0.512,0.0,111,1.17,12.9,0.0,1,0.0,0.0,0.0,0,0,0,0,1,,,,,,,,,,,,,,,,,,,,
9703,0,,,249,250,237,232,,-0.05,0.03,0.96,-0,-0,0,0.06,,60,0,11,12,98,0.512,0.0,111,1.17,12.9,0.0,1,0.0,0.0,0.0,0,0,0,0,1,,,,,,,,,,,,,,,,,,,,
9723,0,,,249,250,237,232,,-0.05,0.03,0.96,-0,-0,0,0.06,,60,0,11,12,98,0.512,0.0,111,1.17,12.9,0.0,1,0.0,0.0,0.0,0,0,0,0,1,,,,,,,,,,,,,,,,,,,,
9743,0,-0,4,249,250,237,232,-16,-0.05,0.03,0.96,-0,-0,0,0.06,1,60,0,11,12,98,0.512,0.0,111,1.17,12.9,0.0,1,0.0,0.0,0.0,0,0,0,0,1,0,250,250,0,0.0,0.0,0.0,0.0,0,0,0.0,0,0.0,-1,0.0,,0.0,0,0.0,0.1624
9763,0,,,249,250,237,232,,-0.05,0.03,0.96,-0,-0,0,0.06,,60,0,11,12,98,0.512,0.0,111,1.16,12.9,0.0,1,0.0,0.0,0.0,0,0,0,0,1,,,,,,,,,,,,,,,,,,,,
9783,0,,,249,250,237,232,,-0.05,0.03,0.96,-0,-0,0,0.06,,60,0,11,12,98,0.512,0.0,111,1.16,12.9,0.0,1,0.0,0.0,0.0,0,0,0,0,1,,,,,,,,,,,,,,,,,,,,
9803,0,,,249,250,237,232,,-0.05,0.03,0.96,-0,-0,0,0.06,,60,0,11,12,98,0.512,0.0,111,1.16,12.9,0.0,1,0.0,0.0,0.0,0,0,0,0,1,,,,,,,,,,,,,,,,,,,,
9823,0,,,249,250,237,232,,-0.05,0.03,0.96,-0,-0,0,0.06,,60,0,11,12,98,0.512,0.0,111,1.16,12.9,0.0,1,0.0,0.0,0.0,0,0,0,0,1,,,,,,,,,,,,,,,,,,,,
9843,0,-2,5,249,250,237,232,-15,-0.05,0.03,0.96,-0,-0,0,0.06,1,60,0,11,12,98,0.512,0.0,111,1.16,12.9,0.0,1,0.0,0.0,0.0,0,0,0,0,1,0,250,250,0,0.0,0.0,0.0,0.0,0,0,0.0,0,0.0,-1,0.0,0.0,0.0,0,0.0,0.164
9863,0,,,249,250,237,232,,-0.05,0.03,0.96,-0,-0,0,0.06,,60,0,11,12,98,0.512,0.0,111,1.16,12.9,0.0,1,0.0,0.0,0.0,0,0,0,0,1,,,,,,,,,,,,,,,,,,,,
9883,0,,,249,250,237,232,,-0.05,0.03,0.96,-0,-0,0,0.06,,60,0,11,12,98,0.512,0.0,111,1.16,12.9,0.0,1,0.0,0.0,0.0,0,0,0,0,1,,,,,,,,,,,,,,,,,,,,
9903,0,,,248,250,236,232,,-0.05,0.03,0.96,-0,-0,0,0.06,,60,0,11,12,98,0.512,0.0,110,1.16,12.9,0.0,1,0.0,0.0,0.0,0,0,0,0,1,,,,,,,,,,,,,,,,,,,,
9923,0,,,249,250,237,232,,-0.05,0.03,0.96,-0,-0,-0,0.06,,60,0,11,12,98,0.512,0.0,110,1.16,12.9,0.0,1,0.0,0.0,0.0,0,0,0,0,1,,,,,,,,,,,,,,,,,,,,
9943,0,-1,4,249,250,237,232,-15,-0.05,0.03,0.96,-0,-0,0,0.06,1,60,0,11,12,98,0.512,0.0,110,1.15,12.9,0.0,1,0.0,0.0,0.0,0,0,0,0,1,0,250,250,0,0.0,0.0,0.0,0.0,0,0,0.0,0,0.0,-1,0.0,,0.0,0,0.0,0.1657
9963,0,,,249,250,237,232,,-0.05,0.03,0.96,-0,-0,0,0.06,,60,0,11,12,98,0.512,0.0,110,1.15,12.9,0.0,1,0.0,0.0,0.0,0,0,0,0,1,,,,,,,,,,,,,,,,,,,,
9983,0,,,249,250,237,232,,-0.05,0.03,0.96,-0,-0,0,0.06,,60,0,11,12,98,0.512,0.0,110,1.16,12.9,0.0,1,0.0,0.0,0.0,0,0,0,0,1,,,,,,,,,,,,,,,,,,,,
10003,0,,,249,250,237,232,,-0.05,0.03,0.96,-0,-0,0,0.06,,60,0,11,12,98,0.512,0.0,110,1.15,12.9,0.0,1,0.0,0.0,0.0,0,0,0,0,1,,,,,,,,,,,,,,,,,,,,
10023,0,,,249,250,237,232,,-0.05,0.03,0.96,-0,-0,0,0.06,,60,0,11,12,98,0.512,0.0,110,1.15,12.9,0.0,1,0.0,0.0,0.0,0,0,0,0,1,,,,,,,,,,,,,,,,,,,,
10043,0,-2,4,249,250,237,232,-15,-0.05,0.03,0.96,-0,-0,0,0.06,1,60,0,11,12,98,0.512,0.0,110,1.15,12.9,0.0,1,0.0,0.0,0.0,0,0,0,0,1,0,250,250,0,0.0,0.0,0.0,0.0,0,0,0.0,0,0.0,-1,0.0,0.0,0.0,0,0.0,0.1674
10063,0,,,249,250,237,232,,-0.05,0.03,0.96,-0,-0,0,0.06,,60,0,11,12,98,0.512,0.0,110,1.15,12.9,0.0,1,0.0,0.0,0.0,0,0,0,0,1,,,,,,,,,,,,,,,,,,,,
10083,0,,,249,250,237,232,,-0.05,0.03,0.96,-0,-0,-0,0.06,,60,0,11,12,98,0.512,0.0,110,1.15,12.9,0.0,1,0.0,0.0,0.0,0,0,0,0,1,,,,,,,,,,,,,,,,,,,,
10103,0,,,249,250,237,232,,-0.05,0.03,0.96,-0,-0,-0,0.06,,60,0,11,12,98,0.512,0.0,110,1.15,12.9,0.0,1,0.0,0.0,0.0,0,0,0,0,1,,,,,,,,,,,,,,,,,,,,
10123,0,,,249,250,237,232,,-0.05,0.03,0.96,-0,-0,-0,0.06,,60,0,11,12,98,0.512,0.0,110,1.15,12.9,0.0,1,0.0,0.0,0.0,0,0,0,0,1,,,,,,,,,,,,,,,,,,,,
10143,0,0,3,249,250,237,232,-15,-0.05,0.03,0.97,-0,-0,-0,0.06,1,60,0,11,12,98,0.512,0.0,110,1.14,9.9,0.0,1,0.0,0.0,0.0,0,0,0,0,1,0,250,250,0,0.0,0.0,0.0,0.0,0,0,0.0,0,0.0,-1,0.0,,0.0,0,0.0,0.169
10163,0,,,249,250,237,232,,-0.05,0.03,0.96,-0,-0,-0,0.06,,60,0,11,12,98,0.512,0.0,110,1.14,9.3,0.0,1,0.0,0.0,0.0,0,0,0,0,1,,,,,,,,,,,,,,,,,,,,
10183,0,,,249,250,237,232,,-0.05,0.03,0.95,-0,-0,-0,0.06,,60,0,11,12,98,0.511,0.0,111,1.14,10.0,0.0,1,0.0,0.0,0.0,0,0,0,0,1,,,,,,,,,,,,,,,,,,,,
10203,0,,,249,250,237,232,,-0.05,0.03,0.95,-0,-0,-0,0.06,,60,0,11,12,98,0.51,0.0,111,1.14,10.5,0.0,1,0.0,0.0,0.0,0,0,0,0,1,,,,,,,,,,,,,,,,,,,,
10223,0,,,249,250,237,232,,-0.05,0.03,0.95,-0,-0,-0,0.06,,60,0,11,12,98,0.509,0.0,112,1.13,10.6,0.0,1,0.0,0.0,0.0,0,0,0,0,1,,,,,,,,,,,,,,,,,,,,
10243,0,-0,3,249,250,237,232,-15,-0.05,0.03,0.95,-0,-0,-0,0.06,1,60,0,11,12,98,0.508,0.0,113,1.13,10.7,0.0,1,0.0,0.0,0.0,0,0,0,0,1,0,250,250,0,0.0,0.0,0.0,0.0,0,0,0.0,0,0.0,-1,0.0,0.0,0.0,0,0.0,0.1707
10263,0,,,248,250,237,232,,-0.05,0.03,0.95,-0,-0,-0,0.06,,60,0,11,12,98,0.507,0.0,112,1.13,10.6,0.0,1,0.0,0.0,0.0,0,0,0,0,1,,,,,,,,,,,,,,,,,,,,
10283,0,,,249,250,237,232,,-0.05,0.03,0.95,-0,-0,-0,0.06,,60,0,11,12,98,0.506,0.0,112,1.13,10.4,0.0,1,0.0,0.0,0.0,0,0,0,0,1,,,,,,,,,,,,,,,,,,,,
10303,0,,,249,250,237,232,,-0.05,0.03,0.95,-0,-0,-0,0.05,,60,0,11,12,98,0.505,0.0,113,1.13,10.8,0.0,1,0.0,0.0,0.0,0,0,0,0,1,,,,,,,,,,,,,,,,,,,,
10323,0,,,249,250,237,232,,-0.05,0.03,0.96,-0,-0,-0,0.05,,60,0,11,12,98,0.504,0.0,113,1.13,11.2,0.0,1,0.0,0.0,0.0,0,0,0,0,1,,,,,,,,,,,,,,,,,,,,
10343,0,-1,3,249,250,237,232,-16,-0.04,0.03,0.95,-0,-0,0,0.05,1,60,0,11,12,98,0.503,0.0,113,1.13,11.2,0.0,1,0.0,0.0,0.0,0,0,0,0,1,0,250,250,0,0.0,0.0,0.0,0.0,0,0,0.0,0,0.0,-1,0.0,,0.0,0,0.0,0.1724
10363,0,,,249,250,237,232,,-0.05,0.03,0.96,-0,-0,-0,0.06,,60,0,11,12,98,0.502,0.0,113,1.13,11.0,0.0,1,0.0,0.0,0.0,0,0,0,0,1,,,,,,,,,,,,,,,,,,,,
10383,0,,,249,250,237,232,,-0.05,0.03,0.96,-0,-0,-0,0.06,,60,0,11,12,98,0.501,0.0,113,1.13,11.0,0.0,1,0.0,0.0,0.0,0,0,0,0,1,,,,,,,,,,,,,,,,,,,,
10403,0,,,249,250,237,232,,-0.05,0.03,0.96,-0,-0,-0,0.06,,60,0,11,12,98,0.501,0.0,113,1.13,11.3,0.0,1,0.0,0.0,0.0,0,0,0,0,1,,,,,,,,,,,,,,,,,,,,
10423,0,,,249,250,237,232,,-0.05,0.03,0.95,-0,-0,-0,0.06,,60,0,11,12,98,0.501,0.0,113,1.12,11.4,0.0,1,0.0,0.0,0.0,0,0,0,0,1,,,,,,,,,,,,,,,,,,,,
10443,0,-1,6,249,250,237,232,-16,-0.04,0.03,0.95,-0,-0,-0,0.05,1,60,0,11,12,98,0.501,0.0,113,1.13,11.0,0.0,1,0.0,0.0,0.0,0,0,0,0,1,0,250,250,0,0.0,0.0,0.0,0.0,0,0,0.0,0,0.0,-1,0.0,0.0,0.0,0,0.0,0.174
10463,0,,,248,250,237,232,,-0.05,0.03,0.95,-0,-0,-0,0.05,,60,0,11,12,98,0.501,0.0,113,1.12,11.3,0.0,1,0.0,0.0,0.0,0,0,0,0,1,,,,,,,,,,,,,,,,,,,,
10483,0,,,249,250,237,232,,-0.04,0.03,0.95,-0,-0,-0,0.05,,60,0,11,12,98,0.501,0.0,116,1.13,11.5,0.0,1,0.0,0.0,0.0,0,0,0,0,1,,,,,,,,,,,,,,,,,,,,
10503,0,,,249,250,236,232,,-0.05,0.03,0.95,-0,-0,0,0.05,,60,0,11,12,98,0.502,0.0,115,1.12,11.2,0.0,1,0.0,0.0,0.0,0,0,0,0,1,,,,,,,,,,,,,,,,,,,,
10523,0,,,249,250,237,232,,-0.05,0.03,0.96,-0,-0,0,0.05,,60,0,11,12,98,0.502,0.0,115,1.12,11.2,0.0,1,0.0,0.0,0.0,0,0,0,0,1,,,,,,,,,,,,,,,,,,,,
10543,0,0,5,249,250,237,232,-15,-0.04,0.03,0.96,-0,-0,0,0.05,1,60,0,11,12,98,0.502,0.0,116,1.12,11.4,0.0,1,0.0,0.0,0.0,0,0,0,0,1,0,250,250,0,0.0,0.0,0.0,0.0,0,0,0.0,0,0.0,-1,0.0,,0.0,0,0.0,0.1757
10563,0,,,249,250,237,232,,-0.04,0.03,0.96,-0,-0,0,0.05,,60,0,11,12,98,0.502,0.0,115,1.12,11.4,0.0,1,0.0,0.0,0.0,0,0,0,0,1,,,,,,,,,,,,,,,,,,,,
10583,0,,,249,250,237,232,,-0.04,0.03,0.95,-0,-0,0,0.05,,60,0,11,12,98,0.502,0.0,115,1.12,11.1,0.0,1,0.0,0.0,0.0,0,0,0,0,1,,,,,,,,,,,,,,,,,,,,
10603,0,,,249,250,237,232,,-0.04,0.03,0.96,-0,-0,0,0.05,,60,0,11,12,98,0.502,0.0,116,1.12,11.4,0.0,1,0.0,0.0,0.0,0,0,0,0,1,,,,,,,,,,,,,,,,,,,,
10623,0,,,249,250,237,232,,-0.04,0.03,0.96,-0,0,0,0.05,,60,0,11,12,98,0.502,0.0,116,1.12,11.6,0.0,1,0.0,0.0,0.0,0,0,0,0,1,,,,,,,,,,,,,,,,,,,,
10643,0,-2,4,249,250,237,232,-15,-0.05,0.03,0.96,-0,-0,-0,0.05,1,60,0,11,12,98,0.502,0.0,115,1.13,11.3,0.0,1,0.0,0.0,0.0,0,0,0,0,1,0,250,250,0,0.0,0.0,0.0,0.0,0,0,0.0,0,0.0,-1,0.0,0.0,0.0,0,0.0,0.1774
10663,0,,,249,250,237,232,,-0.05,0.03,0.96,-0,-0,0,0.05,,60,0,11,12,98,0.502,0.0,116,1.12,11.3,0.0,1,0.0,0.0,0.0,0,0,0,0,1,,,,,,,,,,,,,,,,,,,,
10683,0,,,249,250,237,232,,-0.04,0.03,0.96,-0,-0,0,0.05,,60,0,11,12,98,0.502,0.0,116,1.13,11.5,0.0,1,0.0,0.0,0.0,0,0,0,0,1,,,,,,,,,,,,,,,,,,,,
10703,0,,,249,250,237,232,,-0.04,0.03,0.97,-0,-0,-0,0.05,,60,129,11,12,98,0.502,0.0,112,1.09,10.6,0.0,1,30.0,4.87,0.0,0,0,0,1,1,,,,,,,,,,,,,,,,,,,,
10723,0,,,249,250,237,232,,-0.04,0.03,0.97,-0,0,-0,0.05,,60,129,11,12,98,0.502,0.0,116,1.74,11.1,0.0,1,30.0,2.19,0.0,0,0,0,1,1,,,,,,,,,,,,,,,,,,,,
10743,0,-0,5,249,250,237,232,-15,-0.04,0.03,0.97,-0,0,-0,0.05,1,60,671,11,12,98,0.502,0.0,121,3.7,11.4,0.0,1,30.0,4.87,0.0,0,0,0,1,1,0,250,250,0,0.0,0.0,0.0,0.0,0,0,0.0,0,0.0,-1,0.0,,0.0,0,0.0,0.179
10763,0,,,249,250,237,232,,-0.04,0.03,1.0,-0,0,-0,0.05,,60,1250,11,12,97,0.502,0.0,122,4.7,11.3,0.0,1,30.6,2.09,0.0,0,0,0,1,1,,,,,,,,,,,,,,,,,,,,
10783,0,,,249,250,237,232,,-0.04,0.03,1.02,-0,0,-0,0.05,,60,1452,11,12,97,0.501,0.0,124,4.71,11.4,0.0,1,32.2,2.09,0.0,0,0,0,1,1,,,,,,,,,,,,,,,,,,,,
10803,0,,,249,250,237,232,,-0.04,0.03,1.01,-0,0,-0,0.05,,60,1307,11,12,96,0.501,0.0,118,4.67,11.1,0.0,1,29.6,4.87,3.2,0,0,0,1,1,,,,,,,,,,,,,,,,,,,,
10823,0,,,249,250,237,232,,-0.04,0.03,1.01,-0,0,-0,0.05,,60,1307,10,12,96,0.501,0.0,112,4.63,10.8,0.0,1,29.6,4.87,3.2,0,0,0,1,1,,,,,,,,,,,,,,,,,,,,
10843,0,0,4,249,250,237,232,-15,-0.04,0.03,1.01,-0,0,-0,0.05,1,60,1144,10,12,96,0.501,0.0,107,4.61,10.5,0.0,1,28.3,2.09,3.2,0,0,0,1,1,0,250,250,0,0.0,0.0,0.0,0.0,0,0,0.0,0,0.0,-1,0.0,0.0,0.0,0,0.0,0.1807
10863,0,,,249,250,237,232,,-0.05,0.03,0.95,-0,0,0,0.05,,60,951,10,12,96,0.501,0.0,107,4.62,10.5,0.0,1,27.2,2.09,3.2,0,0,0,1,1,,,,,,,,,,,,,,,,,,,,
10883,0,,,248,250,237,232,,-0.06,0.02,0.94,-0,-0,-0,0.06,,60,951,10,12,97,0.5,0.0,107,4.61,9.7,0.0,1,28.6,2.09,3.2,0,0,0,1,1,,,,,,,,,,,,,,,,,,,,
10903,0,,,248,250,237,232,,-0.07,0.02,1.0,-0,0,-0,0.07,,60,845,10,12,96,0.5,0.0,112,4.61,10.0,0.0,1,27.2,2.09,2.1,0,0,0,1,1,,,,,,,,,,,,,,,,,,,,
10923,0,,,249,250,237,232,,-0.07,0.02,0.97,-0,1,-0,0.08,,60,1487,10,12,96,0.5,0.0,125,4.62,10.3,0.0,1,31.0,4.87,2.1,0,0,0,1,1,,,,,,,,,,,,,,,,,,,,
10943,0,-0,2,249,250,237,232,-15,-0.07,0.02,0.96,-0,1,-0,0.08,1,60,2344,10,12,95,0.5,0.0,138,4.61,10.3,0.0,1,29.8,4.87,2.1,0,0,0,1,1,0,250,250,0,0.0,0.0,0.0,0.0,0,0,0.0,0,0.0,-1,0.0,,0.0,0,0.0,0.1824
10963,0,,,249,250,236,232,,-0.06,0.02,0.95,-0,1,-0,0.06,,60,2515,11,12,94,0.5,0.0,164,4.64,11.0,0.0,1,28.5,4.21,2.1,0,0,0,1,1,,,,,,,,,,,,,,,,,,,,
10983,0,,,249,250,237,232,,-0.04,0.03,1.02,-0,0,-0,0.05,,60,2609,11,12,94,0.5,0.0,184,4.7,11.4,0.0,1,28.4,4.31,2.1,0,0,0,1,1,,,,,,,,,,,,,,,,,,,,
11003,0,,,248,250,237,232,,-0.02,0.02,0.96,-0,-1,-0,0.03,,60,3239,10,12,93,0.5,0.0,216,4.67,11.2,0.0,1,27.2,4.51,5.2,0,0,0,1,1,,,,,,,,,,,,,,,,,,,,
11023,0,,,249,250,237,232,,-0.05,0.04,1.06,-0,0,-0,0.06,,60,3829,12,12,93,0.5,0.0,266,4.71,11.9,0.0,1,29.3,4.87,5.2,0,0,0,1,1,,,,,,,,,,,,,,,,,,,,
11043,0,0,3,249,250,237,232,-14,-0.08,0.04,1.05,-0,0,-0,0.09,1,60,4125,18,12,93,0.5,0.0,327,4.72,12.1,0.0,1,32.0,4.78,5.2,0,0,0,1,1,0,250,250,0,0.0,0.0,0.0,0.0,0,0,0.0,0,0.0,-1,0.0,0.0,0.0,0,0.0,0.184
11063,0,,,249,250,237,232,,-0.13,0.05,1.25,-0,-0,-1,0.14,,60,4620,23,12,93,0.5,0.0,382,4.72,12.0,0.0,1,38.1,4.61,5.2,0,0,0,1,1,,,,,,,,,,,,,,,,,,,,
11083,0,,,249,250,237,232,,-0.06,0.05,1.19,-0,-1,-1,0.08,,60,5215,27,12,94,0.5,0.0,441,4.72,11.9,0.0,1,42.2,8.75,5.2,0,0,0,1,1,,,,,,,,,,,,,,,,,,,,
11103,0,,,249,250,237,232,,-0.05,0.11,1.41,-1,-4,-5,0.12,,60,5901,29,12,94,0.5,0.0,528,4.65,11.9,0.0,1,40.1,10.46,23.2,0,0,0,1,1,,,,,,,,,,,,,,,,,,,,
11123,0,,,249,250,237,232,,-0.01,0.1,1.61,-1,-7,-8,0.1,,60,6581,30,12,93,0.5,0.0,595,4.7,11.9,0.0,1,45.6,10.22,23.2,0,0,0,1,1,,,,,,,,,,,,,,,,,,,,
11143,0,-2,4,249,250,236,232,-15,-0.03,0.1,1.5,-1,-6,-7,0.11,1,60,6978,30,12,93,0.5,0.0,621,4.68,11.9,0.0,1,49.7,9.15,23.2,0,0,0,1,1,0,250,250,0,0.0,0.0,0.0,0.0,0,0,0.0,0,0.0,-1,0.0,,0.0,0,0.0,0.1857
11163,0,,,249,250,237,232,,-0.05,0.09,1.43,-1,-4,-5,0.11,,60,7186,30,12,92,0.5,0.0,632,4.72,12.5,0.0,1,47.4,9.16,23.2,0,0,0,1,1,,,,,,,,,,,,,,,,,,,,
11183,0,,,248,250,237,232,,-0.04,0.05,1.5,-1,-4,-5,0.06,,60,7751,28,12,90,0.5,0.0,641,4.66,12.6,0.0,1,39.5,9.81,23.2,0,0,0,1,1,,,,,,,,,,,,,,,,,,,,
11203,0,,,249,250,237,232,,-0.03,0.04,1.47,-1,-5,-6,0.05,,60,8180,23,12,87,0.5,0.0,651,4.7,12.4,0.0,1,38.4,4.23,36.0,0,0,0,1,1,,,,,,,,,,,,,,,,,,,,
11223,0,,,249,250,237,232,,-0.03,-0.0,1.54,-1,-5,-7,0.03,,60,8453,14,12,82,0.5,0.0,656,4.72,12.6,0.0,1,42.2,3.92,36.0,0,0,0,1,1,,,,,,,,,,,,,,,,,,,,
11243,0,-1,5,249,250,237,232,-15,-0.02,0.04,1.47,-1,-4,-6,0.05,1,60,8737,6,12,75,0.5,0.0,654,4.76,12.6,0.0,1,42.1,3.14,36.0,0,0,0,1,1,0,250,250,0,0.0,0.0,0.0,0.0,0,0,0.0,0,0.0,-1,0.0,0.0,0.0,0,0.0,0.1874
11263,0,,,249,250,237,232,,-0.02,0.02,1.56,-0,-3,-5,0.03,,60,9137,0,12,67,0.5,0.0,667,4.76,12.6,0.0,1,41.1,2.54,36.0,0,0,0,1,1,,,,,,,,,,,,,,,,,,,,
11283,0,,,249,250,237,232,,-0.03,-0.12,1.57,-1,-4,-7,0.12,,60,9546,0,12,57,0.5,0.0,667,4.74,12.7,0.0,1,40.6,3.56,36.0,0,0,0,1,1,,,,,,,,,,,,,,,,,,,,
11303,0,,,249,250,237,232,,-0.02,0.05,1.49,-1,-3,-5,0.05,,60,9868,0,12,50,0.5,0.0,675,4.7,12.6,0.0,1,38.8,2.03,16.1,0,0,0,1,1,,,,,,,,,,,,,,,,,,,,
11323,0,,,249,250,237,232,,-0.03,-0.09,1.56,-1,-3,-6,0.1,,60,9765,0,12,45,0.5,0.0,676,4.72,12.6,0.0,1,36.5,1.74,16.1,0,0,0,1,1,,,,,,,,,,,,,,,,,,,,
11343,0,0,5,249,250,237,232,-16,-0.03,0.07,1.44,-1,-3,-5,0.08,1,60,9484,0,12,43,0.5,0.0,666,4.68,12.5,0.0,1,34.9,1.78,16.1,0,0,0,1,1,0,250,250,0,0.0,0.0,0.0,0.0,0,0,0.0,0,0.0,-1,0.0,,0.0,0,0.0,0.189
11363,0,,,249,250,237,232,,-0.04,0.11,1.41,-0,-2,-1,0.12,,60,9231,0,12,41,0.5,0.0,660,4.66,12.5,0.0,1,33.3,2.92,16.1,0,0,0,1,1,,,,,,,,,,,,,,,,,,,,
11383,1648995793873,,,249,250,237,232,,-0.02,0.14,1.31,-0,-1,1,0.14,,60,8984,0,12,38,0.5,0.0,663,4.71,12.7,0.0,1,31.7,2.79,16.1,0,0,0,1,1,,,,,,,,,,,,,,,,,,,,
11403,1648995793893,,,249,250,237,232,,-0.03,0.19,1.31,-0,-1,2,0.2,,60,8737,0,12,37,0.5,0.0,657,4.7,12.6,0.0,1,31.4,2.75,11.5,0,0,0,1,1,,,,,,,,,,,,,,,,,,,,
11423,1648995793913,,,249,250,237,232,,-0.05,0.14,1.29,-0,-1,1,0.15,,60,8484,0,12,35,0.5,0.0,655,4.73,12.6,0.0,1,30.7,1.42,11.5,0,0,0,1,1,,,,,,,,,,,,,,,,,,,,
11443,1648995793933,0,5,249,250,237,232,-15,-0.03,0.14,1.19,-0,-0,2,0.15,1,60,8270,0,11,35,0.5,0.0,648,4.75,12.8,0.0,1,30.3,1.22,11.5,0,0,0,1,1,0,250,250,0,45.700142,4.909436,0.0,219.9,4,2,3.3,0,0.0,-1,0.0,0.0,0.0,0,0.0,0.1907
11463,1648995793953,,,249,250,237,232,,-0.02,0.06,1.22,-0,-1,1,0.06,,60,8019,0,11,34,0.5,0.0,646,4.76,12.6,0.0,1,29.5,0.92,11.5,0,0,0,1,1,,,,,,,,,,,,,,,,,,,,
11483,1648995793971,,,249,250,237,232,,-0.04,0.05,1.12,-0,-1,1,0.06,,60,7802,0,11,34,0.5,0.0,643,4.68,12.6,0.0,1,29.5,2.1,11.5,0,0,0,1,1,,,,,,,,,,,,,,,,,,,,
11503,1648995793991,,,249,250,237,232,,-0.05,0.04,1.04,-0,-0,1,0.07,,60,7578,0,11,34,0.5,0.0,636,4.7,12.7,0.0,1,29.5,2.1,7.5,0,0,0,1,1,,,,,,,,,,,,,,,,,,,,
11523,1648995794011,,,249,249,237,232,,-0.05,0.05,1.03,-0,-1,0,0.07,,60,7358,0,11,34,0.5,0.0,632,4.71,12.5,0.0,1,29.5,2.1,7.5,0,0,0,1,1,,,,,,,,,,,,,,,,,,,,
11543,1648995794031,-1,4,249,249,237,232,-15,-0.02,0.03,1.21,-0,-2,-1,0.03,1,60,7129,0,11,34,0.5,0.0,631,4.71,12.5,0.0,1,29.5,0.91,7.5,0,0,0,1,1,0,250,250,0,45.700146,4.909438,0.0,211.2,4,2,3.3,0,0.0,-1,0.0,,0.0,0,0.0,0.1924
11563,1648995794051,,,249,249,237,232,,-0.04,0.04,1.12,-0,-1,0,0.06,,60,6944,0,11,35,0.5,0.0,629,4.77,12.7,0.0,1,29.7,2.1,7.5,0,0,0,1,1,,,,,,,,,,,,,,,,,,,,
11583,1648995794071,,,249,250,237,232,,-0.01,0.04,1.25,-0,-3,-2,0.05,,60,6706,0,11,35,0.5,0.0,626,4.74,12.6,0.0,1,29.5,2.15,7.5,0,0,0,1,1,,,,,,,,,,,,,,,,,,,,
11603,1648995794091,,,249,250,237,232,,-0.08,0.04,1.15,-0,1,2,0.09,,60,6510,0,11,35,0.5,0.0,620,4.78,12.8,0.0,1,29.4,0.96,6.6,0,0,0,1,1,,,,,,,,,,,,,,,,,,,,
11623,1648995794111,,,249,250,237,232,,-0.08,0.11,1.37,-0,2,3,0.14,,60,6308,0,11,36,0.5,0.0,616,4.73,12.8,0.0,1,29.4,1.01,6.6,0,0,0,1,1,,,,,,,,,,,,,,,,,,,,
11643,1648995794131,-2,4,249,249,237,232,-16,-0.07,0.17,1.57,-0,-0,1,0.18,1,60,6101,0,11,36,0.5,0.0,606,4.73,12.6,0.0,1,29.2,1.01,6.6,0,0,0,1,1,0,250,250,0,45.70015,4.909439,0.0,210.9,4,2,3.3,0,0.0,-1,0.0,0.0,0.0,0,0.0,0.194
11663,1648995794151,,,249,250,237,232,,-0.08,0.22,1.76,-0,-1,0,0.23,,60,5888,0,11,38,0.5,0.0,598,4.73,12.7,0.0,1,29.2,1.15,6.6,0,0,0,1,1,,,,,,,,,,,,,,,,,,,,
11683,1648995794171,,,248,250,237,232,,-0.15,0.23,1.78,-0,1,3,0.27,,60,5669,0,11,39,0.5,0.0,601,4.79,12.9,0.0,1,29.0,1.28,6.6,0,0,0,1,1,,,,,,,,,,,,,,,,,,,,
11703,1648995794191,,,249,250,237,232,,-0.11,0.11,1.64,-0,5,7,0.16,,60,5447,0,11,40,0.5,0.0,578,4.74,12.6,0.0,1,28.6,2.58,6.5,0,0,0,1,1,,,,,,,,,,,,,,,,,,,,
11723,1648995794211,,,249,250,237,232,,-0.12,0.16,1.82,-0,4,4,0.2,,60,5278,0,11,41,0.5,0.0,555,4.73,12.7,0.0,1,28.5,1.46,6.5,0,0,0,1,1,,,,,,,,,,,,,,,,,,,,
11743,1648995794231,-0,6,249,250,237,232,-16,-0.07,0.11,1.68,-0,3,4,0.13,1,60,5055,0,11,42,0.5,0.0,547,4.73,12.6,0.0,1,28.2,2.77,6.5,0,0,0,1,1,0,250,250,0,45.70015,4.909439,0.0,211.1,4,2,3.3,0,0.0,-1,0.0,,0.0,0,0.0,0.1957
11763,1648995794251,,,249,250,237,232,,-0.07,0.11,1.61,-0,2,4,0.13,,60,4889,0,11,43,0.5,0.0,517,4.75,12.9,0.0,1,0.0,2.73,6.5,0,0,0,1,1,,,,,,,,,,,,,,,,,,,,
11783,1648995794271,,,249,250,237,232,,-0.12,0.12,1.6,-0,2,4,0.17,,60,4721,0,11,43,0.5,0.0,498,4.77,12.9,0.0,1,0.0,2.67,6.5,0,0,0,1,1,,,,,,,,,,,,,,,,,,,,
11803,1648995794291,,,249,250,237,232,,-0.16,0.12,1.64,-0,2,4,0.2,,60,4553,0,10,44,0.5,0.0,493,4.77,13.0,0.0,1,0.0,2.58,5.7,0,0,0,1,1,,,,,,,,,,,,,,,,,,,,
11823,1648995794311,,,249,250,237,232,,-0.17,0.11,1.55,-0,2,4,0.2,,60,4388,0,10,44,0.5,0.0,456,4.72,13.0,0.0,1,0.0,2.51,5.7,0,0,0,1,1,,,,,,,,,,,,,,,,,,,,
11843,1648995794331,0,3,249,250,237,232,-15,-0.13,0.1,1.43,-0,1,4,0.16,1,60,4238,0,10,44,0.5,0.0,447,4.76,12.8,0.0,1,0.0,2.44,5.7,0,0,0,1,1,0,250,250,0,45.70015,4.90944,0.0,210.4,4,2,3.3,0,0.0,-1,0.0,0.0,0.0,0,0.0,0.1974
11863,1648995794351,,,249,250,237,232,,-0.1,0.09,1.34,-0,1,3,0.13,,60,4139,0,10,45,0.5,0.0,431,4.77,12.7,0.0,1,0.0,2.39,5.7,0,0,0,1,1,,,,,,,,,,,,,,,,,,,,
11883,1648995794371,,,249,250,237,232,,-0.13,0.09,1.44,-0,2,3,0.16,,60,4028,0,10,46,0.5,0.0,421,4.77,12.9,0.0,1,0.0,2.35,5.7,0,0,0,1,1,,,,,,,,,,,,,,,,,,,,
11903,1648995794391,,,249,250,237,232,,-0.09,0.06,1.33,-0,2,3,0.11,,60,3893,0,10,46,0.501,0.0,400,4.76,12.9,0.0,1,0.0,2.33,4.2,0,0,0,1,1,,,,,,,,,,,,,,,,,,,,
11923,1648995794411,,,249,250,236,232,,-0.11,0.08,1.47,-0,3,3,0.13,,60,3720,0,10,47,0.501,0.0,394,4.74,12.8,0.0,1,0.0,2.33,4.2,0,0,0,1,1,,,,,,,,,,,,,,,,,,,,
11943,1648995794431,-1,4,249,250,237,232,-16,-0.07,0.06,1.36,-0,2,3,0.09,1,60,3610,0,10,49,0.501,0.0,383,4.77,12.9,0.0,1,0.0,2.33,4.2,0,0,0,1,1,0,250,250,0,45.70015,4.909441,0.0,210.4,4,2,3.3,0,0.0,-1,0.0,,0.0,0,0.0,0.199
11963,1648995794451,,,249,250,237,232,,-0.07,0.06,1.41,-0,2,3,0.09,,60,3486,0,10,51,0.501,0.0,365,4.77,13.0,0.0,1,0.0,2.35,4.2,0,0,0,1,1,,,,,,,,,,,,,,,,,,,,
11983,1648995794471,,,249,250,237,232,,-0.09,0.07,1.49,-0,2,2,0.11,,60,3291,1,10,53,0.501,0.0,346,4.71,12.7,0.0,1,0.0,2.38,4.2,0,0,0,1,1,,,,,,,,,,,,,,,,,,,,
12003,1648995794489,,,249,250,237,232,,-0.1,0.06,1.42,-0,3,2,0.11,,60,3157,4,10,56,0.502,0.0,340,4.72,12.6,0.0,1,0.0,2.47,3.6,0,0,0,1,1,,,,,,,,,,,,,,,,,,,,
12023,1648995794509,,,249,250,237,232,,-0.11,0.06,1.32,-0,4,2,0.13,,60,3016,5,10,61,0.502,0.0,320,4.76,12.5,0.0,1,0.0,1.44,3.6,0,0,0,1,1,,,,,,,,,,,,,,,,,,,,
12043,1648995794529,-2,4,249,250,237,232,-15,-0.13,0.05,1.24,-0,4,2,0.14,1,60,2874,6,10,65,0.502,0.0,306,4.72,12.7,0.0,1,16.2,2.74,3.6,0,0,0,1,1,0,250,250,0,45.70015,4.909442,0.0,210.5,4,2,3.3,0,0.0,-1,0.0,0.0,0.0,0,0.0,0.2007
12063,1648995794549,,,249,249,237,232,,-0.13,0.04,1.23,-0,5,2,0.14,,60,2816,6,10,69,0.502,0.0,302,4.72,12.8,0.0,1,17.0,1.61,3.6,0,0,0,1,1,,,,,,,,,,,,,,,,,,,,
12083,1648995794569,,,249,250,237,232,,-0.12,0.05,1.28,-0,5,2,0.13,,60,2806,6,10,73,0.503,0.0,290,4.75,12.9,0.0,1,17.3,1.7,3.6,0,0,0,1,1,,,,,,,,,,,,,,,,,,,,
12103,1648995794589,,,249,250,237,232,,-0.1,0.06,1.32,-0,5,1,0.12,,60,2949,5,10,76,0.503,0.0,307,4.76,12.9,0.0,1,-0.3,1.77,3.8,0,0,0,1,1,,,,,,,,,,,,,,,,,,,,
12123,1648995794609,,,249,250,237,232,,-0.09,0.06,1.38,-0,5,1,0.11,,60,2951,3,10,78,0.503,0.0,303,4.8,13.0,0.0,1,-0.3,3.08,3.8,0,0,0,1,1,,,,,,,,,,,,,,,,,,,,
12143,1648995794629,0,2,249,250,237,232,-15,-0.09,0.07,1.46,-0,5,1,0.12,1,60,3004,0,10,79,0.503,0.0,306,4.78,13.0,0.0,1,-0.3,3.13,3.8,0,0,0,1,1,0,250,250,0,45.70015,4.909442,0.0,210.5,4,2,3.3,0,0.0,-1,0.0,,0.0,0,0.0,0.2024
12163,1648995794649,,,249,250,237,232,,-0.1,0.07,1.47,-0,6,1,0.12,,60,3161,0,10,78,0.503,0.0,317,4.78,12.9,0.0,1,-0.3,1.85,3.8,0,0,0,1,1,,,,,,,,,,,,,,,,,,,,
12183,1648995794671,,,249,250,237,232,,-0.11,0.07,1.46,-0,6,1,0.13,,60,3130,0,10,77,0.503,0.0,310,4.75,12.9,0.0,1,-0.3,3.04,3.8,0,0,0,1,1,,,,,,,,,,,,,,,,,,,,
12203,1648995794691,,,249,250,237,232,,-0.12,0.06,1.4,-0,7,1,0.14,,60,3147,0,10,76,0.503,0.0,322,4.72,12.7,0.0,1,-0.3,1.76,4.4,0,0,0,1,1,,,,,,,,,,,,,,,,,,,,
12223,1648995794711,,,249,250,237,232,,-0.11,0.07,1.33,-0,6,1,0.13,,61,3164,0,10,75,0.503,0.0,322,4.78,12.6,0.0,1,-0.3,1.74,4.4,0,0,0,1,1,,,,,,,,,,,,,,,,,,,,
12243,1648995794731,0,2,249,248,237,232,-15,-0.1,0.05,1.3,-0,5,1,0.11,1,61,3157,0,10,75,0.503,0.0,319,4.78,12.8,0.0,1,-0.3,1.74,4.4,0,0,0,1,1,0,250,250,0,45.70015,4.909442,0.0,210.5,4,2,3.3,0,0.0,-1,0.0,0.0,0.0,0,0.0,0.204
12263,1648995794751,,,249,248,237,232,,-0.08,0.04,1.27,-0,4,0,0.09,,61,3114,0,10,75,0.503,0.0,320,4.79,12.8,0.0,1,-0.3,2.97,4.4,0,0,0,1,1,,,,,,,,,,,,,,,,,,,,
12283,1648995794771,,,249,248,237,232,,-0.06,0.03,1.19,-0,2,0,0.07,,61,3131,0,10,74,0.503,0.0,316,4.77,13.0,0.0,1,-0.3,1.72,4.4,0,0,0,1,1,,,,,,,,,,,,,,,,,,,,
12303,1648995794785,,,249,248,237,232,,-0.05,0.02,1.15,-0,1,0,0.06,,61,3128,0,10,74,0.503,0.0,327,4.75,13.0,0.0,1,0.0,2.95,4.2,0,0,0,1,1,,,,,,,,,,,,,,,,,,,,
12323,1648995794805,,,249,250,237,232,,-0.04,0.04,1.1,-0,0,0,0.06,,61,3087,0,10,74,0.503,0.0,311,4.76,13.0,0.0,1,0.0,1.73,4.2,0,0,0,1,1,,,,,,,,,,,,,,,,,,,,
12343,1648995794825,0,2,249,250,237,232,-15,-0.04,0.03,1.07,-0,-0,0,0.05,1,61,3071,0,10,74,0.503,0.0,324,4.76,13.0,0.0,1,0.0,2.96,4.2,0,0,0,1,1,0,250,250,0,45.70015,4.909442,0.0,210.4,4,2,3.3,0,0.0,-1,0.0,,0.0,0,0.0,0.2057
12363,1648995794845,,,249,250,237,232,,-0.04,0.05,1.09,-0,-0,1,0.06,,61,3094,0,11,73,0.503,0.0,313,4.75,12.9,0.0,1,0.0,2.94,4.2,0,0,0,1,1,,,,,,,,,,,,,,,,,,,,
12383,1648995794865,,,249,250,237,232,,-0.04,0.05,1.12,-0,0,1,0.06,,61,3050,0,11,73,0.503,0.0,312,4.77,13.0,0.0,1,0.0,2.94,4.2,0,0,0,1,1,,,,,,,,,,,,,,,,,,,,
12403,1648995794888,,,249,250,236,232,,-0.04,0.05,1.17,-0,1,1,0.06,,61,3000,0,11,73,0.503,0.0,310,4.77,13.0,0.0,1,0.0,2.94,4.1,0,0,0,1,1,,,,,,,,,,,,,,,,,,,,
12423,1648995794908,,,249,250,237,232,,-0.04,0.05,1.2,-0,1,1,0.06,,61,3026,0,11,73,0.503,0.0,307,4.78,13.0,0.0,1,0.0,2.94,4.1,0,0,0,1,1,,,,,,,,,,,,,,,,,,,,
12443,1648995794928,1,4,249,250,237,232,-15,-0.03,0.06,1.23,-0,2,1,0.07,1,61,3038,0,11,73,0.503,0.0,312,4.77,13.0,0.0,1,0.0,2.94,4.1,0,0,0,1,1,0,250,250,0,45.70015,4.909442,0.0,210.4,4,2,3.3,0,0.0,-1,0.0,0.0,0.0,0,0.0,0.2074
12463,1648995794948,,,249,250,237,232,,-0.04,0.07,1.26,-0,2,1,0.08,,61,2971,0,11,73,0.503,0.0,307,4.75,13.0,0.0,1,0.0,2.93,4.1,0,0,0,1,1,,,,,,,,,,,,,,,,,,,,
12483,1648995794968,,,249,250,236,232,,-0.03,0.08,1.27,-0,2,1,0.09,,61,2950,0,11,73,0.503,0.0,301,4.77,13.0,0.0,1,0.0,2.93,4.1,0,0,0,1,1,,,,,,,,,,,,,,,,,,,,
12503,1648995794988,,,249,250,236,232,,-0.03,0.08,1.27,-0,3,1,0.09,,61,2958,0,11,73,0.503,0.0,310,4.78,13.0,0.0,1,0.0,2.93,4.0,0,0,0,1,1,,,,,,,,,,,,,,,,,,,,
12523,1648995795008,,,249,250,236,232,,-0.03,0.08,1.25,-0,2,1,0.09,,61,2953,0,11,73,0.503,0.0,298,4.78,13.0,0.0,1,0.0,2.93,4.0,0,0,0,1,1,,,,,,,,,,,,,,,,,,,,
12543,1648995795028,0,1,249,250,237,232,-15,-0.02,0.07,1.2,-0,2,1,0.07,1,61,2927,0,11,74,0.503,0.0,307,4.78,13.0,0.0,1,0.0,2.95,4.0,0,0,0,1,1,0,250,250,0,45.70015,4.909442,0.0,210.4,4,2,3.3,0,0.0,-1,0.0,,0.0,0,0.0,0.209
12563,1648995795048,,,249,250,237,232,,-0.01,0.06,1.11,-0,1,2,0.06,,61,2907,0,11,75,0.503,0.0,301,4.78,13.0,0.0,1,-0.4,2.95,4.0,0,0,0,1,1,,,,,,,,,,,,,,,,,,,,
12583,1648995795068,,,249,250,237,232,,0.01,0.06,1.02,-0,0,1,0.06,,61,2878,0,11,76,0.503,0.0,305,4.75,13.0,0.0,1,-0.4,1.77,4.0,0,0,0,1,1,,,,,,,,,,,,,,,,,,,,
12603,1648995795088,,,249,249,237,232,,0.02,0.06,0.99,-0,-1,1,0.06,,61,2866,0,11,76,0.503,0.0,303,4.76,12.9,0.0,1,-0.4,1.77,3.9,0,0,0,1,1,,,,,,,,,,,,,,,,,,,,
12623,1648995795108,,,249,249,237,232,,0.01,0.05,1.04,-0,-2,1,0.05,,61,2846,0,11,77,0.503,0.0,301,4.78,12.7,0.0,1,-0.4,3.04,3.9,0,0,0,1,1,,,,,,,,,,,,,,,,,,,,
12643,1648995795128,-0,3,249,250,237,232,-16,-0.01,0.06,1.07,-0,-2,1,0.06,1,61,2796,0,11,78,0.503,0.0,293,4.72,12.7,0.0,1,-0.4,1.83,3.9,0,0,0,1,1,0,250,250,0,45.70015,4.909442,0.0,210.4,4,2,3.3,0,0.0,-1,0.0,0.0,0.0,0,0.0,0.2107
12663,1648995795148,,,249,250,237,232,,-0.03,0.05,1.04,-0,-1,1,0.06,,61,2780,0,11,79,0.503,0.0,291,4.71,12.7,0.0,1,-0.4,1.86,3.9,0,0,0,1,1,,,,,,,,,,,,,,,,,,,,
12683,1648995795168,,,249,250,237,232,,-0.04,0.04,1.04,-0,-0,1,0.06,,61,2803,0,11,80,0.503,0.0,287,4.76,13.0,0.0,1,-0.4,1.9,3.9,0,0,0,1,1,,,,,,,,,,,,,,,,,,,,
12703,1648995795188,,,249,250,237,232,,-0.03,0.05,1.09,-0,-0,1,0.06,,61,2782,0,11,80,0.503,0.0,290,4.78,13.0,0.0,1,-0.4,1.89,4.0,0,0,0,1,1,,,,,,,,,,,,,,,,,,,,
12723,1648995795208,,,249,250,237,232,,-0.01,0.04,1.06,-0,-0,1,0.05,,61,2740,0,11,80,0.503,0.0,291,4.77,13.0,0.0,1,-0.4,3.13,4.0,0,0,0,1,1,,,,,,,,,,,,,,,,,,,,
12743,1648995795228,0,2,249,250,237,232,-15,-0.01,0.04,1.06,-0,-1,0,0.04,1,61,2713,0,11,80,0.503,0.0,286,4.76,12.9,0.0,1,-0.7,1.89,4.0,0,0,0,1,1,0,250,250,0,45.70015,4.909442,0.0,210.4,4,2,3.3,0,0.0,-1,0.0,,0.0,0,0.0,0.2124
12763,1648995795248,,,249,250,237,232,,-0.03,0.05,1.08,-0,-1,0,0.06,,61,2744,0,11,79,0.503,0.0,284,4.73,12.7,0.0,1,-0.7,3.1,4.0,0,0,0,1,1,,,,,,,,,,,,,,,,,,,,
12783,1648995795268,,,249,250,237,232,,-0.05,0.04,1.05,-0,-1,0,0.06,,61,2730,0,11,79,0.503,0.0,281,4.71,12.7,0.0,1,-0.7,1.86,4.0,0,0,0,1,1,,,,,,,,,,,,,,,,,,,,
12803,1648995795288,,,249,250,237,232,,-0.04,0.04,1.03,-0,0,0,0.06,,61,2730,0,11,79,0.504,0.0,280,4.77,13.0,0.0,1,-0.7,3.1,3.9,0,0,0,1,1,,,,,,,,,,,,,,,,,,,,
12823,1648995795308,,,249,250,237,232,,-0.02,0.04,1.04,-0,0,0,0.05,,61,2661,0,11,79,0.504,0.0,283,4.77,13.0,0.0,1,-0.7,3.09,3.9,0,0,0,1,1,,,,,,,,,,,,,,,,,,,,
12843,1648995795328,-2,4,249,250,237,232,-16,-0.02,0.04,1.03,-0,-0,0,0.04,1,61,2617,0,11,79,0.504,0.0,280,4.77,13.0,0.0,1,-0.7,1.84,3.9,0,0,0,1,1,0,250,250,0,45.70015,4.909442,0.0,210.4,4,2,3.3,0,0.0,-1,0.0,0.0,0.0,0,0.0,0.214
12863,1648995795348,,,249,250,237,232,,-0.04,0.04,1.07,-0,-0,0,0.06,,61,2693,0,11,78,0.504,0.0,277,4.77,12.6,0.0,1,-0.7,1.82,3.9,0,0,0,1,1,,,,,,,,,,,,,,,,,,,,
12883,1648995795368,,,249,250,237,232,,-0.05,0.04,1.05,-0,0,0,0.07,,61,2692,0,11,79,0.504,0.0,287,4.73,12.9,0.0,1,-0.7,1.85,3.9,0,0,0,1,1,,,,,,,,,,,,,,,,,,,,
12903,1648995795390,,,249,250,237,232,,-0.04,0.04,1.06,-0,1,0,0.06,,61,2659,0,11,79,0.504,0.0,277,4.78,13.0,0.0,1,-0.7,3.09,3.8,0,0,0,1,1,,,,,,,,,,,,,,,,,,,,
12923,1648995795410,,,249,250,237,232,,-0.02,0.03,1.04,-0,0,0,0.04,,61,2648,0,11,79,0.504,0.0,275,4.76,13.0,0.0,1,-0.7,1.85,3.8,0,0,0,1,1,,,,,,,,,,,,,,,,,,,,
12943,1648995795430,0,2,249,250,237,232,-15,-0.04,0.03,1.07,-0,-0,0,0.05,1,61,2665,0,11,78,0.504,0.0,279,4.77,12.8,0.0,1,-1.0,3.06,3.8,0,0,0,1,1,0,250,250,0,45.70015,4.909442,0.0,210.4,4,2,3.3,0,0.0,-1,0.0,,0.0,0,0.0,0.2157
12963,1648995795450,,,249,250,237,232,,-0.06,0.04,1.06,-0,0,-0,0.07,,61,2660,0,11,79,0.504,0.0,274,4.71,12.8,0.0,1,-1.0,1.85,3.8,0,0,0,1,1,,,,,,,,,,,,,,,,,,,,
12983,1648995795470,,,249,250,237,232,,-0.05,0.04,1.06,-0,1,-0,0.06,,61,2652,0,11,79,0.504,0.0,275,4.75,13.0,0.0,1,-1.0,1.85,3.8,0,0,0,1,1,,,,,,,,,,,,,,,,,,,,
13003,1648995795490,,,249,250,237,232,,-0.03,0.03,1.06,-0,0,-0,0.05,,61,2593,0,11,80,0.504,0.0,278,4.75,13.0,0.0,1,-1.0,1.87,3.7,0,0,0,1,1,,,,,,,,,,,,,,,,,,,,
13023,1648995795510,,,249,250,237,232,,-0.04,0.04,1.08,-0,0,-0,0.06,,61,2581,1,11,81,0.504,0.0,275,4.77,12.8,0.0,1,-1.0,3.13,3.7,0,0,0,1,1,,,,,,,,,,,,,,,,,,,,
13043,1648995795530,0,2,249,250,237,232,-15,-0.06,0.04,1.05,-0,0,-0,0.07,1,61,2673,1,11,82,0.504,0.0,279,4.71,12.8,0.0,1,-1.0,1.94,3.7,0,0,0,1,1,0,250,250,0,45.70015,4.909442,0.0,210.4,4,2,3.3,0,0.0,-1,0.0,0.0,0.0,0,0.0,0.2174
13063,1648995795550,,,249,250,237,232,,-0.05,0.05,1.04,-0,1,-0,0.07,,61,2620,1,11,83,0.504,0.0,278,4.77,13.0,0.0,1,-1.0,3.19,3.7,0,0,0,1,1,,,,,,,,,,,,,,,,,,,,
13083,1648995795570,,,249,250,237,232,,-0.04,0.04,1.02,-0,0,-0,0.06,,61,2527,1,11,83,0.504,0.0,266,4.76,13.0,0.0,1,-1.0,3.17,3.7,0,0,0,1,1,,,,,,,,,,,,,,,,,,,,
13103,1648995795590,,,249,250,237,232,,-0.05,0.05,1.02,-0,0,-0,0.07,,61,2455,1,11,84,0.504,0.0,265,4.73,12.7,0.0,1,-1.0,1.95,3.7,0,0,0,1,1,,,,,,,,,,,,,,,,,,,,
13123,1648995795610,,,249,250,237,232,,-0.05,0.05,1.01,-0,0,-0,0.07,,61,2429,1,11,85,0.504,0.0,263,4.78,13.0,0.0,1,-1.0,1.97,3.7,0,0,0,1,1,,,,,,,,,,,,,,,,,,,,
13143,1648995795630,-1,4,249,250,237,232,-15,-0.05,0.05,1.02,-0,0,-0,0.07,1,61,2398,1,11,86,0.504,0.0,257,4.77,12.8,0.0,1,-1.3,3.23,3.7,0,0,0,1,1,0,250,250,0,45.70015,4.909442,0.0,210.4,4,2,3.3,0,0.0,-1,0.0,,0.0,0,0.0,0.219
13163,1648995795650,,,249,250,237,232,,-0.06,0.05,0.99,-0,0,0,0.08,,61,2394,1,11,87,0.504,0.0,256,4.77,13.0,0.0,1,-1.3,2.02,3.7,0,0,0,1,1,,,,,,,,,,,,,,,,,,,,
13183,1648995795670,,,249,250,237,232,,-0.04,0.04,0.98,-0,0,-0,0.06,,61,2503,1,11,88,0.503,0.0,265,4.76,13.0,0.0,1,-1.3,3.29,3.7,0,0,0,1,1,,,,,,,,,,,,,,,,,,,,
13203,1648995795690,,,249,250,237,232,,-0.04,0.04,1.01,-0,-0,-0,0.06,,61,2502,1,11,87,0.504,0.0,266,4.77,12.6,0.0,1,-1.3,2.02,3.8,0,0,0,1,1,,,,,,,,,,,,,,,,,,,,
13223,1648995795710,,,249,250,237,232,,-0.05,0.04,1.0,-0,0,-0,0.06,,61,2448,1,11,88,0.504,0.0,260,4.77,13.0,0.0,1,-1.3,2.04,3.8,0,0,0,1,1,,,,,,,,,,,,,,,,,,,,
13243,1648995795730,-2,3,249,250,237,232,-15,-0.04,0.03,1.01,-0,0,-0,0.05,1,61,2352,1,11,88,0.504,0.0,260,4.76,12.9,0.0,1,-1.3,3.29,3.8,0,0,0,1,1,0,250,250,0,45.70015,4.909442,0.0,210.4,4,2,3.3,0,0.0,-1,0.0,0.0,0.0,0,0.0,0.2207
13263,1648995795750,,,249,250,237,232,,-0.05,0.03,0.99,-0,0,-0,0.06,,61,2320,1,11,89,0.504,0.0,252,4.72,12.8,0.0,1,-1.3,2.06,3.8,0,0,0,1,1,,,,,,,,,,,,,,,,,,,,
13283,1648995795770,,,249,250,236,232,,-0.04,0.02,0.98,-0,0,-0,0.05,,61,2364,1,11,89,0.504,0.0,250,4.76,13.0,0.0,1,-1.3,2.06,3.8,0,0,0,1,1,,,,,,,,,,,,,,,,,,,,
13303,1648995795784,,,249,250,237,232,,-0.05,0.03,0.99,-0,0,-0,0.05,,61,2394,1,11,89,0.504,0.0,258,4.73,12.8,0.0,1,-1.3,3.31,3.6,0,0,0,1,1,,,,,,,,,,,,,,,,,,,,
13323,1648995795804,,,249,250,237,232,,-0.05,0.03,0.96,-0,1,-0,0.06,,61,2394,1,11,90,0.504,0.0,256,4.77,13.0,0.0,1,-1.3,3.34,3.6,0,0,0,1,1,,,,,,,,,,,,,,,,,,,,
13343,1648995795824,0,3,249,250,237,232,-15,-0.05,0.03,0.96,-0,1,-0,0.06,1,61,2297,1,11,89,0.504,0.0,249,4.76,12.9,0.0,1,-1.5,2.06,3.6,0,0,0,1,1,0,250,250,0,45.70015,4.909442,0.0,210.4,4,2,3.3,0,0.0,-1,0.0,,0.0,0,0.0,0.2224
13363,1648995795844,,,249,250,237,232,,-0.05,0.03,0.97,-0,0,-0,0.06,,61,2289,1,11,90,0.504,0.0,250,4.76,13.0,0.0,1,-1.5,3.34,3.6,0,0,0,1,1,,,,,,,,,,,,,,,,,,,,
13383,1648995795864,,,249,250,237,232,,-0.04,0.04,0.96,-0,0,-0,0.06,,61,2410,1,11,90,0.504,0.0,252,4.77,12.9,0.0,1,-1.5,2.09,3.6,0,0,0,1,1,,,,,,,,,,,,,,,,,,,,
13403,1648995795889,,,249,250,237,232,,-0.05,0.04,0.95,-0,0,-0,0.06,,61,2388,1,11,90,0.504,0.0,252,4.76,12.9,0.0,1,-1.5,3.34,3.7,0,0,0,1,1,,,,,,,,,,,,,,,,,,,,
