"Interval"|"ms"|0|0|1,"Utc"|"ms"|0|0|1,"Brake_F"|"Bar"|0|2000|10,"Brake_R"|"Bar"|0|2000|10,"Height_RF"|"mm"|0|255|50,"Height_LF"|"mm"|0|255|50,"Height_LR"|"mm"|0|80|50,"Height_RR"|"mm"|0|255|50,"Steering"|"deg"|-100|100|10,"AccelX"|"G"|-3.0|3.0|50,"AccelY"|"G"|-3.0|3.0|50,"AccelZ"|"G"|-3.0|3.0|50,"Yaw"|"Deg/Sec"|-120|120|50,"Pitch"|"Deg/Sec"|-120|120|50,"Roll"|"Deg/Sec"|-120|120|50,"Gsum"|"G"|0.0|3.0|50,"Log_Button"|""|0.0|10.0|10,"WaterTemp"|"C"|0|150|50,"RPM"|"tr/min"|0|14000|50,"TPS"|"%"|0|100|50,"AirTemp"|"C"|0|150|50,"MAP"|"KPa"|0|100|50,"Lambda"|""|0.5|1.5|50,"SpeedDTA"|"kph"|0.0|250.0|50,"OilPress"|"KPa"|0|1500|50,"FuelPressur"|"Bar"|0.0|10.0|50,"Batterie"|"V"|0.0|20.0|50,"ConsoKm"|"L/100km"|0.0|200.0|50,"Gear"|""|0|6|50,"AdvIgnition"|"Deg"|-20.0|70.0|50,"Injection"|"ms"|0.0|10.0|50,"ConsoHr"|"L/Hr"|0.0|10000.0|50,"LC_But_Pres"|""|0|1|50,"LC_Active"|""|0|1|50,"TractionOn"|""|0|1|50,"TractionWet"|""|0|1|50,"FanOn"|""|0|1|50,"RD_Speed"|"km/h"|-30|250|10,"RUD_Speed"|"km/h"|-30|250|10,"LD_Speed"|"km/h"|-30|250|10,"LUD_Speed"|"km/h"|-30|250|10,"Latitude"|"Degrees"|-180.0|180.0|10,"Longitude"|"Degrees"|-180.0|180.0|10,"Speed"|"kph"|0.0|150.0|10,"Altitude"|"m"|0.0|4000.0|10,"GPSSats"|""|0|20|10,"GPSQual"|""|0|5|10,"GPSDOP"|""|0.0|20.0|10,"LapCount"|""|0|0|10,"LapTime"|"Min"|0.0|0.0|10,"Sector"|""|0|0|10,"SectorTime"|"Min"|0.0|0.0|10,"PredTime"|"Min"|0.0|0.0|5,"ElapsedTime"|"Min"|0.0|0.0|10,"CurrentLap"|""|0|0|10,"Distance"|"km"|0.0|0.0|10,"SessionTime"|"Min"|0.0|0.0|10
63,0,,,248,250,238,232,,-0.05,0.01,1.0,0,-0,-0,0.06,,0,0,0,0,0,0.0,0.0,0,0.0,0.0,0.0,0,0.0,0.0,0.0,0,0,0,0,0,,,,,,,,,,,,,,,,,,,,
83,0,,,248,250,238,232,,-0.06,-0.0,0.99,0,-0,-0,0.06,,0,0,0,0,0,0.0,0.0,0,0.0,0.0,0.0,0,0.0,0.0,0.0,0,0,0,0,0,,,,,,,,,,,,,,,,,,,,
103,0,,,248,251,238,232,,-0.05,0.0,0.99,0,-0,-0,0.05,,0,0,0,0,0,0.0,0.0,0,0.0,0.0,0.0,0,0.0,0.0,0.0,0,0,0,0,0,,,,,,,,,,,,,,,,,,,,
123,0,,,248,250,238,233,,-0.05,-0.0,0.97,0,0,-0,0.05,,0,0,0,0,0,0.0,0.0,0,0.0,0.0,0.0,0,0.0,0.0,0.0,0,0,0,0,0,,,,,,,,,,,,,,,,,,,,
143,0,-1,2,248,251,238,232,-6,-0.05,-0.0,0.98,0,-0,-0,0.05,1,0,0,0,0,0,0.0,0.0,0,0.0,0.0,0.0,0,0.0,0.0,0.0,0,0,0,0,0,0,0,0,0,0.0,0.0,0.0,0.0,0,0,0.0,0,0.0,-1,0.0,,0.0,0,0.0,0.0024
163,0,,,248,251,238,232,,-0.05,-0.0,0.99,0,-0,-0,0.05,,0,0,0,0,0,0.0,0.0,0,0.0,0.0,0.0,0,0.0,0.0,0.0,0,0,0,0,0,,,,,,,,,,,,,,,,,,,,
183,0,,,248,250,238,232,,-0.05,-0.0,0.98,0,0,-0,0.05,,0,0,0,0,0,0.0,0.0,0,0.0,0.0,0.0,0,0.0,0.0,0.0,0,0,0,0,0,,,,,,,,,,,,,,,,,,,,
203,0,,,248,250,238,232,,-0.05,-0.0,0.98,0,-0,-0,0.05,,0,0,0,0,0,0.0,0.0,0,0.0,0.0,0.0,0,0.0,0.0,0.0,0,0,0,0,0,,,,,,,,,,,,,,,,,,,,
223,0,,,248,251,238,232,,-0.05,0.0,0.99,0,-0,-0,0.05,,0,0,0,0,0,0.0,0.0,0,0.0,0.0,0.0,0,0.0,0.0,0.0,0,0,0,0,0,,,,,,,,,,,,,,,,,,,,
243,0,1,1,248,251,237,232,-6,-0.05,0.0,0.98,0,-0,-0,0.05,1,0,0,0,0,0,0.0,0.0,0,0.0,0.0,0.0,0,0.0,0.0,0.0,0,0,0,0,0,0,0,0,0,0.0,0.0,0.0,0.0,0,0,0.0,0,0.0,-1,0.0,0.0,0.0,0,0.0,0.004
263,0,,,248,251,237,232,,-0.05,0.0,0.99,0,-0,-0,0.05,,0,0,0,0,0,0.0,0.0,0,0.0,0.0,0.0,0,0.0,0.0,0.0,0,0,0,0,0,,,,,,,,,,,,,,,,,,,,
283,0,,,248,251,238,232,,-0.05,0.0,0.99,0,-0,-0,0.05,,0,0,0,0,0,0.0,0.0,0,0.0,0.0,0.0,0,0.0,0.0,0.0,0,0,0,0,0,,,,,,,,,,,,,,,,,,,,
303,0,,,248,251,238,232,,-0.05,0.0,0.99,0,-0,-0,0.05,,0,0,0,0,0,0.0,0.0,0,0.0,0.0,0.0,0,0.0,0.0,0.0,0,0,0,0,0,,,,,,,,,,,,,,,,,,,,
323,0,,,248,251,237,232,,-0.05,0.0,0.99,0,-0,-0,0.05,,0,0,0,0,0,0.0,0.0,0,0.0,0.0,0.0,0,0.0,0.0,0.0,0,0,0,0,0,,,,,,,,,,,,,,,,,,,,
343,0,0,1,248,250,238,232,-7,-0.05,0.0,0.99,0,-0,-0,0.05,1,0,0,0,0,0,0.0,0.0,0,0.0,0.0,0.0,0,0.0,0.0,0.0,0,0,0,0,0,0,0,0,0,0.0,0.0,0.0,0.0,0,0,0.0,0,0.0,-1,0.0,,0.0,0,0.0,0.0057
363,0,,,248,251,238,233,,-0.05,0.0,0.99,0,-0,-0,0.05,,0,0,0,0,0,0.0,0.0,0,0.0,0.0,0.0,0,0.0,0.0,0.0,0,0,0,0,0,,,,,,,,,,,,,,,,,,,,
383,0,,,248,251,237,232,,-0.05,0.0,0.99,0,-0,-0,0.05,,0,0,0,0,0,0.0,0.0,0,0.0,0.0,0.0,0,0.0,0.0,0.0,0,0,0,0,0,,,,,,,,,,,,,,,,,,,,
403,0,,,248,251,238,233,,-0.05,0.0,0.99,0,-0,-0,0.05,,0,0,0,0,0,0.0,0.0,0,0.0,0.0,0.0,0,0.0,0.0,0.0,0,0,0,0,0,,,,,,,,,,,,,,,,,,,,
423,0,,,248,251,238,232,,-0.05,0.0,0.99,0,-0,-0,0.05,,0,0,0,0,0,0.0,0.0,0,0.0,0.0,0.0,0,0.0,0.0,0.0,0,0,0,0,0,,,,,,,,,,,,,,,,,,,,
443,0,-1,2,248,251,238,232,-7,-0.05,0.0,0.99,0,-0,-0,0.05,1,0,0,0,0,0,0.0,0.0,0,0.0,0.0,0.0,0,0.0,0.0,0.0,0,0,0,0,0,0,0,0,0,0.0,0.0,0.0,0.0,0,0,0.0,0,0.0,-1,0.0,0.0,0.0,0,0.0,0.0074
463,0,,,248,251,237,233,,-0.05,0.0,0.99,0,-0,-0,0.05,,0,0,0,0,0,0.0,0.0,0,0.0,0.0,0.0,0,0.0,0.0,0.0,0,0,0,0,0,,,,,,,,,,,,,,,,,,,,
483,0,,,248,251,238,233,,-0.05,0.0,0.99,0,-0,-0,0.05,,0,0,0,0,0,0.0,0.0,0,0.0,0.0,0.0,0,0.0,0.0,0.0,0,0,0,0,0,,,,,,,,,,,,,,,,,,,,
503,0,,,248,251,237,233,,-0.05,0.0,0.99,0,-0,-0,0.05,,0,0,0,0,0,0.0,0.0,0,0.0,0.0,0.0,0,0.0,0.0,0.0,0,0,0,0,0,,,,,,,,,,,,,,,,,,,,
523,0,,,248,250,237,232,,-0.05,0.0,0.99,0,-0,-0,0.05,,0,0,0,0,0,0.0,0.0,0,0.0,0.0,0.0,0,0.0,0.0,0.0,0,0,0,0,0,,,,,,,,,,,,,,,,,,,,
543,0,0,3,248,251,238,233,-8,-0.05,0.0,0.99,0,-0,-0,0.05,1,0,0,0,0,0,0.0,0.0,0,0.0,0.0,0.0,0,0.0,0.0,0.0,0,0,0,0,0,0,0,0,0,0.0,0.0,0.0,0.0,0,0,0.0,0,0.0,-1,0.0,,0.0,0,0.0,0.0091
563,0,,,248,251,238,232,,-0.05,0.0,0.99,0,-0,-0,0.05,,0,0,0,0,0,0.0,0.0,0,0.0,0.0,0.0,0,0.0,0.0,0.0,0,0,0,0,0,,,,,,,,,,,,,,,,,,,,
583,0,,,248,251,238,232,,-0.05,0.0,0.99,0,-0,-0,0.05,,0,0,0,0,0,0.0,0.0,0,0.0,0.0,0.0,0,0.0,0.0,0.0,0,0,0,0,0,,,,,,,,,,,,,,,,,,,,
603,0,,,248,251,238,233,,-0.05,0.0,0.99,0,-0,-0,0.05,,0,0,0,0,0,0.0,0.0,0,0.0,0.0,0.0,0,0.0,0.0,0.0,0,0,0,0,0,,,,,,,,,,,,,,,,,,,,
623,0,,,248,251,237,233,,-0.05,0.0,0.99,0,-0,-0,0.05,,0,0,0,0,0,0.0,0.0,0,0.0,0.0,0.0,0,0.0,0.0,0.0,0,0,0,0,0,,,,,,,,,,,,,,,,,,,,
643,0,0,1,248,251,237,232,-7,-0.05,0.0,0.99,0,-0,-0,0.05,1,0,0,0,0,0,0.0,0.0,0,0.0,0.0,0.0,0,0.0,0.0,0.0,0,0,0,0,0,0,0,0,0,0.0,0.0,0.0,0.0,0,0,0.0,0,0.0,-1,0.0,0.0,0.0,0,0.0,0.0107
663,0,,,248,250,238,232,,-0.05,0.0,0.99,0,-0,-0,0.05,,0,0,0,0,0,0.0,0.0,0,0.0,0.0,0.0,0,0.0,0.0,0.0,0,0,0,0,0,,,,,,,,,,,,,,,,,,,,
683,0,,,248,251,238,233,,-0.05,0.0,0.99,0,-0,-0,0.05,,0,0,0,0,0,0.0,0.0,0,0.0,0.0,0.0,0,0.0,0.0,0.0,0,0,0,0,0,,,,,,,,,,,,,,,,,,,,
703,0,,,248,251,238,232,,-0.05,0.0,0.99,0,-0,-0,0.05,,0,0,0,0,0,0.0,0.0,0,0.0,0.0,0.0,0,0.0,0.0,0.0,0,0,0,0,0,,,,,,,,,,,,,,,,,,,,
723,0,,,248,250,238,232,,-0.05,0.0,0.99,0,-0,-0,0.05,,0,0,0,0,0,0.0,0.0,0,0.0,0.0,0.0,0,0.0,0.0,0.0,0,0,0,0,0,,,,,,,,,,,,,,,,,,,,
743,0,0,3,248,251,238,233,-8,-0.05,0.0,0.99,0,-0,-0,0.05,1,0,0,0,0,0,0.0,0.0,0,0.0,0.0,0.0,0,0.0,0.0,0.0,0,0,0,0,0,0,0,0,0,0.0,0.0,0.0,0.0,0,0,0.0,0,0.0,-1,0.0,,0.0,0,0.0,0.0124
763,0,,,248,251,237,232,,-0.05,0.0,0.99,0,-0,-0,0.05,,0,0,0,0,0,0.0,0.0,0,0.0,0.0,0.0,0,0.0,0.0,0.0,0,0,0,0,0,,,,,,,,,,,,,,,,,,,,
783,0,,,248,251,238,232,,-0.05,0.0,0.99,0,-0,-0,0.05,,0,0,0,0,0,0.0,0.0,0,0.0,0.0,0.0,0,0.0,0.0,0.0,0,0,0,0,0,,,,,,,,,,,,,,,,,,,,
803,0,,,248,250,238,232,,-0.05,0.0,0.99,0,-0,-0,0.05,,0,0,0,0,0,0.0,0.0,0,0.0,0.0,0.0,0,0.0,0.0,0.0,0,0,0,0,0,,,,,,,,,,,,,,,,,,,,
823,0,,,248,251,238,233,,-0.05,0.0,0.99,0,-0,-0,0.05,,0,0,0,0,0,0.0,0.0,0,0.0,0.0,0.0,0,0.0,0.0,0.0,0,0,0,0,0,,,,,,,,,,,,,,,,,,,,
843,0,0,1,248,251,238,232,-8,-0.05,0.0,0.99,0,-0,-0,0.05,1,0,0,0,0,0,0.0,0.0,0,0.0,0.0,0.0,0,0.0,0.0,0.0,0,0,0,0,0,0,0,0,0,0.0,0.0,0.0,0.0,0,0,0.0,0,0.0,-1,0.0,0.0,0.0,0,0.0,0.014
863,0,,,248,251,238,232,,-0.05,0.0,0.99,0,-0,-0,0.05,,0,0,0,0,0,0.0,0.0,0,0.0,0.0,0.0,0,0.0,0.0,0.0,0,0,0,0,0,,,,,,,,,,,,,,,,,,,,
883,0,,,248,251,238,232,,-0.05,0.0,0.99,0,-0,-0,0.05,,0,0,0,0,0,0.0,0.0,0,0.0,0.0,0.0,0,0.0,0.0,0.0,0,0,0,0,0,,,,,,,,,,,,,,,,,,,,
903,0,,,248,251,238,233,,-0.05,0.0,0.99,0,-0,-0,0.05,,0,0,0,0,0,0.0,0.0,0,0.0,0.0,0.0,0,0.0,0.0,0.0,0,0,0,0,0,,,,,,,,,,,,,,,,,,,,
923,0,,,248,251,238,232,,-0.05,0.0,0.99,0,-0,-0,0.05,,0,0,0,0,0,0.0,0.0,0,0.0,0.0,0.0,0,0.0,0.0,0.0,0,0,0,0,0,,,,,,,,,,,,,,,,,,,,
943,0,-1,2,248,251,237,232,-7,-0.05,0.0,0.99,0,-0,-0,0.05,1,0,0,0,0,0,0.0,0.0,0,0.0,0.0,0.0,0,0.0,0.0,0.0,0,0,0,0,0,0,0,0,0,0.0,0.0,0.0,0.0,0,0,0.0,0,0.0,-1,0.0,,0.0,0,0.0,0.0157
963,0,,,248,251,238,232,,-0.05,0.0,0.99,0,-0,-0,0.05,,0,0,0,0,0,0.0,0.0,0,0.0,0.0,0.0,0,0.0,0.0,0.0,0,0,0,0,0,,,,,,,,,,,,,,,,,,,,
983,0,,,248,251,238,232,,-0.05,0.0,0.99,0,-0,-0,0.05,,0,0,0,0,0,0.0,0.0,0,0.0,0.0,0.0,0,0.0,0.0,0.0,0,0,0,0,0,,,,,,,,,,,,,,,,,,,,
1003,0,,,248,251,238,232,,-0.05,0.0,0.99,0,-0,-0,0.05,,0,0,0,0,0,0.0,0.0,0,0.0,0.0,0.0,0,0.0,0.0,0.0,0,0,0,0,0,,,,,,,,,,,,,,,,,,,,
1023,0,,,248,250,238,232,,-0.05,0.0,0.99,0,-0,-0,0.05,,0,0,0,0,0,0.0,0.0,0,0.0,0.0,0.0,0,0.0,0.0,0.0,0,0,0,0,0,,,,,,,,,,,,,,,,,,,,
1043,0,0,1,248,251,238,232,-7,-0.05,0.0,0.99,0,-0,-0,0.05,1,0,0,0,0,0,0.0,0.0,0,0.0,0.0,0.0,0,0.0,0.0,0.0,0,0,0,0,0,0,0,0,0,0.0,0.0,0.0,0.0,0,0,0.0,0,0.0,-1,0.0,0.0,0.0,0,0.0,0.0174
1063,0,,,248,251,237,232,,-0.05,0.0,0.99,0,-0,-0,0.05,,0,0,0,0,0,0.0,0.0,0,0.0,0.0,0.0,0,0.0,0.0,0.0,0,0,0,0,0,,,,,,,,,,,,,,,,,,,,
1083,0,,,248,251,238,232,,-0.05,0.0,0.99,0,-0,-0,0.05,,0,0,0,0,0,0.0,0.0,0,0.0,0.0,0.0,0,0.0,0.0,0.0,0,0,0,0,0,,,,,,,,,,,,,,,,,,,,
1103,0,,,248,251,238,233,,-0.05,0.0,0.99,0,-0,-0,0.05,,0,0,0,0,0,0.0,0.0,0,0.0,0.0,0.0,0,0.0,0.0,0.0,0,0,0,0,0,,,,,,,,,,,,,,,,,,,,
1123,0,,,248,251,238,233,,-0.05,0.0,0.99,0,-0,-0,0.05,,0,0,0,0,0,0.0,0.0,0,0.0,0.0,0.0,0,0.0,0.0,0.0,0,0,0,0,0,,,,,,,,,,,,,,,,,,,,
1143,0,0,2,248,251,238,233,-8,-0.05,0.0,0.99,0,-0,-0,0.05,1,0,0,0,0,0,0.0,0.0,0,0.0,0.0,0.0,0,0.0,0.0,0.0,0,0,0,0,0,0,0,0,0,0.0,0.0,0.0,0.0,0,0,0.0,0,0.0,-1,0.0,,0.0,0,0.0,0.019
1163,0,,,248,251,238,232,,-0.05,0.0,0.99,0,-0,-0,0.05,,0,0,0,0,0,0.0,0.0,0,0.0,0.0,0.0,0,0.0,0.0,0.0,0,0,0,0,0,,,,,,,,,,,,,,,,,,,,
1183,0,,,248,251,238,233,,-0.05,0.0,0.99,0,-0,-0,0.05,,0,0,0,0,0,0.0,0.0,0,0.0,0.0,0.0,0,0.0,0.0,0.0,0,0,0,0,0,,,,,,,,,,,,,,,,,,,,
1203,0,,,248,251,238,233,,-0.05,0.0,1.0,0,-0,-0,0.05,,0,0,0,0,0,0.0,0.0,0,0.0,0.0,0.0,0,0.0,0.0,0.0,0,0,0,0,0,,,,,,,,,,,,,,,,,,,,
1223,0,,,248,251,238,232,,-0.05,0.0,0.99,0,-0,-0,0.05,,0,0,0,0,0,0.0,0.0,0,0.0,0.0,0.0,0,0.0,0.0,0.0,0,0,0,0,0,,,,,,,,,,,,,,,,,,,,
1243,0,-1,2,248,251,238,232,-7,-0.05,0.0,0.99,0,-0,-0,0.05,1,0,0,0,0,0,0.0,0.0,0,0.0,0.0,0.0,0,0.0,0.0,0.0,0,0,0,0,0,0,0,0,0,0.0,0.0,0.0,0.0,0,0,0.0,0,0.0,-1,0.0,0.0,0.0,0,0.0,0.0207
1263,0,,,248,251,238,232,,-0.05,0.0,0.99,0,-0,-0,0.05,,0,0,0,0,0,0.0,0.0,0,0.0,0.0,0.0,0,0.0,0.0,0.0,0,0,0,0,0,,,,,,,,,,,,,,,,,,,,
1283,0,,,248,251,237,232,,-0.05,-0.0,0.99,0,-0,-0,0.05,,0,0,0,0,0,0.0,0.0,0,0.0,0.0,0.0,0,0.0,0.0,0.0,0,0,0,0,0,,,,,,,,,,,,,,,,,,,,
1303,0,,,248,251,238,232,,-0.05,-0.0,0.99,0,-0,-0,0.05,,0,0,0,0,0,0.0,0.0,0,0.0,0.0,0.0,0,0.0,0.0,0.0,0,0,0,0,0,,,,,,,,,,,,,,,,,,,,
1323,0,,,248,251,237,232,,-0.05,-0.0,0.99,0,-0,-0,0.05,,0,0,0,0,0,0.0,0.0,0,0.0,0.0,0.0,0,0.0,0.0,0.0,0,0,0,0,0,,,,,,,,,,,,,,,,,,,,
1343,0,1,1,248,250,237,232,-7,-0.05,-0.0,0.99,0,-0,-0,0.05,1,0,0,0,0,0,0.0,0.0,0,0.0,0.0,0.0,0,0.0,0.0,0.0,0,0,0,0,0,0,0,0,0,0.0,0.0,0.0,0.0,0,0,0.0,0,0.0,-1,0.0,,0.0,0,0.0,0.0224
1363,0,,,248,251,238,232,,-0.05,-0.0,0.99,0,-0,-0,0.05,,0,0,0,0,0,0.0,0.0,0,0.0,0.0,0.0,0,0.0,0.0,0.0,0,0,0,0,0,,,,,,,,,,,,,,,,,,,,
1383,0,,,248,251,237,232,,-0.05,-0.0,0.99,0,-0,-0,0.05,,0,0,0,0,0,0.0,0.0,0,0.0,0.0,0.0,0,0.0,0.0,0.0,0,0,0,0,0,,,,,,,,,,,,,,,,,,,,
1403,0,,,248,250,238,232,,-0.05,-0.0,0.99,0,-0,-0,0.05,,0,0,0,0,0,0.0,0.0,0,0.0,0.0,0.0,0,0.0,0.0,0.0,0,0,0,0,0,,,,,,,,,,,,,,,,,,,,
1423,0,,,248,251,238,232,,-0.05,-0.0,0.99,0,-0,-0,0.05,,0,0,0,0,0,0.0,0.0,0,0.0,0.0,0.0,0,0.0,0.0,0.0,0,0,0,0,0,,,,,,,,,,,,,,,,,,,,
1443,0,1,1,248,251,237,232,-7,-0.05,-0.0,0.99,0,-0,-0,0.05,1,0,0,0,0,0,0.0,0.0,0,0.0,0.0,0.0,0,0.0,0.0,0.0,0,0,0,0,0,0,0,0,0,0.0,0.0,0.0,0.0,0,0,0.0,0,0.0,-1,0.0,0.0,0.0,0,0.0,0.024
1463,0,,,248,250,237,233,,-0.05,-0.0,0.99,0,-0,-0,0.05,,0,0,0,0,0,0.0,0.0,0,0.0,0.0,0.0,0,0.0,0.0,0.0,0,0,0,0,0,,,,,,,,,,,,,,,,,,,,
1483,0,,,248,251,237,233,,-0.05,-0.0,0.99,0,-0,-0,0.05,,0,0,0,0,0,0.0,0.0,0,0.0,0.0,0.0,0,0.0,0.0,0.0,0,0,0,0,0,,,,,,,,,,,,,,,,,,,,
1503,0,,,248,251,238,232,,-0.05,-0.0,0.99,0,-0,-0,0.05,,0,0,0,0,0,0.0,0.0,0,0.0,0.0,0.0,0,0.0,0.0,0.0,0,0,0,0,0,,,,,,,,,,,,,,,,,,,,
1523,0,,,248,251,238,233,,-0.05,0.0,0.99,0,-0,-0,0.05,,0,0,0,0,0,0.0,0.0,0,0.0,0.0,0.0,0,0.0,0.0,0.0,0,0,0,0,0,,,,,,,,,,,,,,,,,,,,
1543,0,0,1,248,250,238,232,-7,-0.05,0.0,0.99,0,-0,-0,0.05,1,0,0,0,0,0,0.0,0.0,0,0.0,0.0,0.0,0,0.0,0.0,0.0,0,0,0,0,0,0,0,0,0,0.0,0.0,0.0,0.0,0,0,0.0,0,0.0,-1,0.0,,0.0,0,0.0,0.0257
1563,0,,,248,250,238,232,,-0.05,0.0,0.99,0,-0,-0,0.05,,0,0,0,0,0,0.0,0.0,0,0.0,0.0,0.0,0,0.0,0.0,0.0,0,0,0,0,0,,,,,,,,,,,,,,,,,,,,
1583,0,,,248,251,238,233,,-0.05,0.0,0.99,0,-0,-0,0.05,,0,0,0,0,0,0.0,0.0,0,0.0,0.0,0.0,0,0.0,0.0,0.0,0,0,0,0,0,,,,,,,,,,,,,,,,,,,,
1603,0,,,248,251,238,232,,-0.05,0.0,0.99,0,-0,-0,0.05,,0,0,0,0,0,0.0,0.0,0,0.0,0.0,0.0,0,0.0,0.0,0.0,0,0,0,0,0,,,,,,,,,,,,,,,,,,,,
1623,0,,,248,251,238,232,,-0.05,0.0,0.99,0,-0,-0,0.05,,0,0,0,0,0,0.0,0.0,0,0.0,0.0,0.0,0,0.0,0.0,0.0,0,0,0,0,0,,,,,,,,,,,,,,,,,,,,
1643,0,0,2,248,251,238,232,-7,-0.05,0.0,0.99,0,-0,-0,0.05,1,0,0,0,0,0,0.0,0.0,0,0.0,0.0,0.0,0,0.0,0.0,0.0,0,0,0,0,0,0,0,0,0,0.0,0.0,0.0,0.0,0,0,0.0,0,0.0,-1,0.0,0.0,0.0,0,0.0,0.0274
1663,0,,,248,251,238,232,,-0.05,0.0,0.99,0,-0,-0,0.05,,0,0,0,0,0,0.0,0.0,0,0.0,0.0,0.0,0,0.0,0.0,0.0,0,0,0,0,0,,,,,,,,,,,,,,,,,,,,
1683,0,,,248,251,238,233,,-0.05,0.0,0.99,0,-0,-0,0.05,,0,0,0,0,0,0.0,0.0,0,0.0,0.0,0.0,0,0.0,0.0,0.0,0,0,0,0,0,,,,,,,,,,,,,,,,,,,,
1703,0,,,248,251,237,233,,-0.05,0.0,0.99,0,-0,-0,0.05,,0,0,0,0,0,0.0,0.0,0,0.0,0.0,0.0,0,0.0,0.0,0.0,0,0,0,0,0,,,,,,,,,,,,,,,,,,,,
1723,0,,,248,251,238,233,,-0.05,0.0,0.99,0,-0,-0,0.05,,0,0,0,0,0,0.0,0.0,0,0.0,0.0,0.0,0,0.0,0.0,0.0,0,0,0,0,0,,,,,,,,,,,,,,,,,,,,
1743,0,0,1,248,251,238,232,-7,-0.05,0.0,0.99,0,-0,-0,0.05,1,0,0,0,0,0,0.0,0.0,0,0.0,0.0,0.0,0,0.0,0.0,0.0,0,0,0,0,0,0,0,0,0,0.0,0.0,0.0,0.0,0,0,0.0,0,0.0,-1,0.0,,0.0,0,0.0,0.029
1763,0,,,248,251,237,233,,-0.05,0.0,0.99,0,-0,-0,0.05,,0,0,0,0,0,0.0,0.0,0,0.0,0.0,0.0,0,0.0,0.0,0.0,0,0,0,0,0,,,,,,,,,,,,,,,,,,,,
1783,0,,,248,251,237,232,,-0.05,0.0,0.99,0,-0,-0,0.05,,0,0,0,0,0,0.0,0.0,0,0.0,0.0,0.0,0,0.0,0.0,0.0,0,0,0,0,0,,,,,,,,,,,,,,,,,,,,
1803,0,,,248,251,238,233,,-0.05,0.0,0.99,0,-0,-0,0.05,,0,0,0,0,0,0.0,0.0,0,0.0,0.0,0.0,0,0.0,0.0,0.0,0,0,0,0,0,,,,,,,,,,,,,,,,,,,,
1823,0,,,248,251,238,233,,-0.05,0.0,0.99,0,-0,-0,0.05,,0,0,0,0,0,0.0,0.0,0,0.0,0.0,0.0,0,0.0,0.0,0.0,0,0,0,0,0,,,,,,,,,,,,,,,,,,,,
1843,0,1,1,248,251,237,232,-7,-0.05,0.0,0.99,0,-0,-0,0.05,1,0,0,0,0,0,0.0,0.0,0,0.0,0.0,0.0,0,0.0,0.0,0.0,0,0,0,0,0,0,0,0,0,0.0,0.0,0.0,0.0,0,0,0.0,0,0.0,-1,0.0,0.0,0.0,0,0.0,0.0307
1863,0,,,248,251,237,232,,-0.05,0.0,0.99,0,-0,-0,0.05,,0,0,0,0,0,0.0,0.0,0,0.0,0.0,0.0,0,0.0,0.0,0.0,0,0,0,0,0,,,,,,,,,,,,,,,,,,,,
1883,0,,,248,251,238,232,,-0.05,0.0,0.99,0,-0,-0,0.05,,0,0,0,0,0,0.0,0.0,0,0.0,0.0,0.0,0,0.0,0.0,0.0,0,0,0,0,0,,,,,,,,,,,,,,,,,,,,
1903,0,,,248,251,238,232,,-0.05,0.0,0.99,0,-0,-0,0.05,,0,0,0,0,0,0.0,0.0,0,0.0,0.0,0.0,0,0.0,0.0,0.0,0,0,0,0,0,,,,,,,,,,,,,,,,,,,,
1923,0,,,248,250,238,232,,-0.05,0.0,0.99,0,-0,-0,0.05,,0,0,0,0,0,0.0,0.0,0,0.0,0.0,0.0,0,0.0,0.0,0.0,0,0,0,0,0,,,,,,,,,,,,,,,,,,,,
1943,0,-0,1,248,251,238,232,-7,-0.05,0.0,0.99,0,-0,-0,0.05,1,0,0,0,0,0,0.0,0.0,0,0.0,0.0,0.0,0,0.0,0.0,0.0,0,0,0,0,0,0,0,0,0,0.0,0.0,0.0,0.0,0,0,0.0,0,0.0,-1,0.0,,0.0,0,0.0,0.0324
1963,0,,,248,251,238,232,,-0.05,0.0,0.99,0,-0,-0,0.05,,0,0,0,0,0,0.0,0.0,0,0.0,0.0,0.0,0,0.0,0.0,0.0,0,0,0,0,0,,,,,,,,,,,,,,,,,,,,
1983,0,,,248,251,237,232,,-0.05,0.0,0.99,0,-0,-0,0.05,,0,0,0,0,0,0.0,0.0,0,0.0,0.0,0.0,0,0.0,0.0,0.0,0,0,0,0,0,,,,,,,,,,,,,,,,,,,,
2003,0,,,248,251,238,232,,-0.05,0.0,0.99,0,-0,-0,0.05,,0,0,0,0,0,0.0,0.0,0,0.0,0.0,0.0,0,0.0,0.0,0.0,0,0,0,0,0,,,,,,,,,,,,,,,,,,,,
2023,0,,,248,251,238,232,,-0.05,0.0,0.99,0,-0,-0,0.05,,0,0,0,0,0,0.0,0.0,0,0.0,0.0,0.0,0,0.0,0.0,0.0,0,0,0,0,0,,,,,,,,,,,,,,,,,,,,
2043,0,1,1,248,251,237,233,-7,-0.05,0.0,0.99,0,-0,-0,0.05,1,0,0,0,0,0,0.0,0.0,0,0.0,0.0,0.0,0,0.0,0.0,0.0,0,0,0,0,0,0,0,0,0,0.0,0.0,0.0,0.0,0,0,0.0,0,0.0,-1,0.0,0.0,0.0,0,0.0,0.034
2063,0,,,248,251,238,232,,-0.05,0.0,0.99,0,-0,-0,0.05,,0,0,0,0,0,0.0,0.0,0,0.0,0.0,0.0,0,0.0,0.0,0.0,0,0,0,0,0,,,,,,,,,,,,,,,,,,,,
2083,0,,,248,251,238,232,,-0.05,0.0,0.99,0,-0,-0,0.05,,0,0,0,0,0,0.0,0.0,0,0.0,0.0,0.0,0,0.0,0.0,0.0,0,0,0,0,0,,,,,,,,,,,,,,,,,,,,
2103,0,,,248,251,238,233,,-0.05,0.0,0.99,0,-0,-0,0.05,,0,0,0,0,0,0.0,0.0,0,0.0,0.0,0.0,0,0.0,0.0,0.0,0,0,0,0,0,,,,,,,,,,,,,,,,,,,,
2123,0,,,248,251,238,232,,-0.05,0.0,0.99,0,-0,-0,0.05,,0,0,0,0,0,0.0,0.0,0,0.0,0.0,0.0,0,0.0,0.0,0.0,0,0,0,0,0,,,,,,,,,,,,,,,,,,,,
2143,0,-0,2,248,251,238,232,-6,-0.05,0.0,0.99,0,0,-0,0.05,1,0,0,0,0,0,0.0,0.0,0,0.0,0.0,0.0,0,0.0,0.0,0.0,0,0,0,0,0,0,0,0,0,0.0,0.0,0.0,0.0,0,0,0.0,0,0.0,-1,0.0,,0.0,0,0.0,0.0357
2163,0,,,248,251,237,232,,-0.05,0.0,0.99,0,0,-0,0.05,,75,0,4,36,99,0.505,0.0,116,4.92,12.9,0.0,1,0.0,0.0,0.0,0,0,0,1,0,,,,,,,,,,,,,,,,,,,,
2183,0,,,248,251,238,232,,-0.05,0.0,0.99,0,-0,-0,0.05,,75,0,4,36,99,0.508,0.0,116,4.93,12.9,0.0,1,0.0,0.0,0.0,0,0,0,1,0,,,,,,,,,,,,,,,,,,,,
2203,0,,,248,251,238,233,,-0.05,0.0,0.99,0,-0,-0,0.05,,75,0,4,36,99,0.51,0.0,116,4.93,12.9,0.0,1,0.0,0.0,0.0,0,0,0,1,0,,,,,,,,,,,,,,,,,,,,
2223,0,,,248,251,238,232,,-0.05,0.0,0.99,0,-0,-0,0.05,,75,0,4,36,99,0.512,0.0,116,4.93,12.9,0.0,1,0.0,0.0,0.0,0,0,0,1,0,,,,,,,,,,,,,,,,,,,,
2243,0,-0,2,248,251,238,232,-7,-0.05,0.0,0.99,0,-0,-0,0.05,1,75,0,4,36,99,0.514,0.0,116,4.92,12.9,0.0,1,0.0,0.0,0.0,0,0,0,1,0,0,250,250,0,0.0,0.0,0.0,0.0,0,0,0.0,0,0.0,-1,0.0,0.0,0.0,0,0.0,0.0374
2263,0,,,248,251,238,232,,-0.05,0.0,0.99,0,-0,-0,0.05,,75,0,4,36,99,0.516,0.0,116,4.93,12.9,0.0,1,0.0,0.0,0.0,0,0,0,1,0,,,,,,,,,,,,,,,,,,,,
2283,0,,,248,251,237,233,,-0.05,0.0,0.99,0,-0,-0,0.05,,75,0,4,36,99,0.518,0.0,116,4.92,12.9,0.0,1,0.0,0.0,0.0,0,0,0,1,0,,,,,,,,,,,,,,,,,,,,
2303,0,,,248,251,238,232,,-0.05,0.0,0.99,0,-0,-0,0.05,,75,0,4,36,99,0.521,0.0,116,4.91,12.9,0.0,1,0.0,0.0,0.0,0,0,0,1,0,,,,,,,,,,,,,,,,,,,,
2323,0,,,248,251,238,232,,-0.05,0.0,0.99,0,0,-0,0.05,,75,0,4,36,99,0.523,0.0,116,4.92,12.9,0.0,1,0.0,0.0,0.0,0,0,0,1,0,,,,,,,,,,,,,,,,,,,,
2343,0,0,1,248,251,238,232,-7,-0.05,0.0,0.99,0,-0,-0,0.05,1,75,0,4,36,99,0.525,0.0,116,4.91,13.0,0.0,1,0.0,0.0,0.0,0,0,0,1,0,0,250,250,0,0.0,0.0,0.0,0.0,0,0,0.0,0,0.0,-1,0.0,,0.0,0,0.0,0.0391
2363,0,,,248,251,238,232,,-0.05,0.0,0.99,0,0,-0,0.05,,75,0,4,36,99,0.528,0.0,116,4.91,13.0,0.0,1,0.0,0.0,0.0,0,0,0,1,0,,,,,,,,,,,,,,,,,,,,
2383,0,,,248,251,238,233,,-0.05,-0.0,0.99,0,0,-0,0.05,,75,0,4,36,99,0.531,0.0,116,4.92,13.0,0.0,1,0.0,0.0,0.0,0,0,0,1,0,,,,,,,,,,,,,,,,,,,,
2403,0,,,248,251,238,232,,-0.05,-0.0,0.99,0,0,-0,0.05,,75,0,4,36,99,0.533,0.0,116,4.93,13.0,0.0,1,0.0,0.0,0.0,0,0,0,1,0,,,,,,,,,,,,,,,,,,,,
2423,0,,,248,251,238,232,,-0.05,-0.0,0.99,0,0,-0,0.05,,75,0,4,36,99,0.533,0.0,116,4.92,13.1,0.0,1,0.0,0.0,0.0,0,0,0,1,0,,,,,,,,,,,,,,,,,,,,
2443,0,0,2,248,251,238,233,-7,-0.05,-0.0,0.99,0,0,-0,0.05,1,75,0,4,36,99,0.534,0.0,116,4.92,13.1,0.0,1,0.0,0.0,0.0,0,0,0,1,0,0,250,250,0,0.0,0.0,0.0,0.0,0,0,0.0,0,0.0,-1,0.0,0.0,0.0,0,0.0,0.0407
2463,0,,,248,250,238,232,,-0.05,-0.0,0.99,0,0,-0,0.05,,75,0,4,36,99,0.536,0.0,116,4.91,13.0,0.0,1,0.0,0.0,0.0,0,0,0,1,0,,,,,,,,,,,,,,,,,,,,
2483,0,,,248,251,238,233,,-0.05,-0.0,0.99,0,0,-0,0.05,,75,0,4,36,99,0.537,0.0,116,4.93,13.0,0.0,1,0.0,0.0,0.0,0,0,0,1,0,,,,,,,,,,,,,,,,,,,,
2503,0,,,248,250,238,233,,-0.05,-0.0,0.99,0,0,-0,0.05,,75,0,4,36,99,0.539,0.0,116,4.93,13.0,0.0,1,0.0,0.0,0.0,0,0,0,1,0,,,,,,,,,,,,,,,,,,,,
2523,0,,,248,251,238,232,,-0.05,-0.0,0.99,0,0,-0,0.05,,75,0,4,36,99,0.54,0.0,116,4.93,13.0,0.0,1,0.0,0.0,0.0,0,0,0,1,0,,,,,,,,,,,,,,,,,,,,
2543,0,-1,2,248,251,238,232,-7,-0.05,0.0,0.99,0,0,-0,0.05,1,75,0,4,36,99,0.542,0.0,116,4.92,13.0,0.0,1,0.0,0.0,0.0,0,0,0,1,0,0,250,250,0,0.0,0.0,0.0,0.0,0,0,0.0,0,0.0,-1,0.0,,0.0,0,0.0,0.0424
2563,0,,,248,251,238,232,,-0.05,0.0,0.99,0,0,-0,0.05,,75,0,4,37,99,0.543,0.0,116,4.92,13.0,0.0,1,0.0,0.0,0.0,0,0,0,1,0,,,,,,,,,,,,,,,,,,,,
2583,0,,,248,251,238,232,,-0.05,0.0,0.99,0,-0,-0,0.05,,75,0,4,37,99,0.543,0.0,116,4.91,13.0,0.0,1,0.0,0.0,0.0,0,0,0,1,0,,,,,,,,,,,,,,,,,,,,
2603,0,,,248,251,238,232,,-0.05,0.0,0.99,0,-0,-0,0.05,,75,0,4,37,99,0.544,0.0,116,4.92,13.1,0.0,1,0.0,0.0,0.0,0,0,0,1,0,,,,,,,,,,,,,,,,,,,,
2623,0,,,248,251,238,232,,-0.05,0.0,0.99,0,-0,-0,0.05,,75,0,4,37,99,0.543,0.0,116,4.93,13.0,0.0,1,0.0,0.0,0.0,0,0,0,1,0,,,,,,,,,,,,,,,,,,,,
2643,0,1,1,248,251,237,232,-7,-0.05,0.0,0.99,0,-0,-0,0.05,1,75,0,4,37,99,0.544,0.0,116,4.92,13.0,0.0,1,0.0,0.0,0.0,0,0,0,1,0,0,250,250,0,0.0,0.0,0.0,0.0,0,0,0.0,0,0.0,-1,0.0,0.0,0.0,0,0.0,0.044
2663,0,,,248,251,238,232,,-0.05,0.0,0.99,0,-0,-0,0.05,,75,0,4,37,99,0.543,0.0,116,4.92,13.0,0.0,1,0.0,0.0,0.0,0,0,0,1,0,,,,,,,,,,,,,,,,,,,,
2683,0,,,248,251,238,233,,-0.05,0.0,0.99,0,-0,-0,0.05,,75,0,4,37,99,0.543,0.0,116,4.92,13.0,0.0,1,0.0,0.0,0.0,0,0,0,1,0,,,,,,,,,,,,,,,,,,,,
2703,0,,,248,251,237,233,,-0.05,0.0,0.99,0,-0,-0,0.05,,75,0,4,37,99,0.543,0.0,116,4.93,13.0,0.0,1,0.0,0.0,0.0,0,0,0,1,0,,,,,,,,,,,,,,,,,,,,
2723,0,,,248,251,237,232,,-0.05,0.0,0.99,0,-0,-0,0.05,,75,0,4,37,99,0.543,0.0,116,4.93,13.0,0.0,1,0.0,0.0,0.0,0,0,0,1,0,,,,,,,,,,,,,,,,,,,,
2743,0,-1,2,248,251,237,232,-7,-0.05,0.0,0.99,0,-0,-0,0.05,1,75,0,4,37,99,0.543,0.0,116,4.91,13.0,0.0,1,0.0,0.0,0.0,0,0,0,1,0,0,250,250,0,0.0,0.0,0.0,0.0,0,0,0.0,0,0.0,-1,0.0,,0.0,0,0.0,0.0457
2763,0,,,248,251,237,233,,-0.05,0.0,0.99,0,-0,-0,0.05,,75,0,4,37,99,0.544,0.0,116,4.92,13.0,0.0,1,0.0,0.0,0.0,0,0,0,1,0,,,,,,,,,,,,,,,,,,,,
2783,0,,,248,251,237,232,,-0.05,0.0,0.99,0,-0,-0,0.05,,75,0,4,37,99,0.543,0.0,116,4.93,13.0,0.0,1,0.0,0.0,0.0,0,0,0,1,0,,,,,,,,,,,,,,,,,,,,
2803,0,,,248,251,237,232,,-0.05,0.0,0.99,0,-0,-0,0.05,,75,0,4,37,99,0.543,0.0,116,4.93,13.0,0.0,1,0.0,0.0,0.0,0,0,0,1,0,,,,,,,,,,,,,,,,,,,,
2823,0,,,248,251,238,232,,-0.05,0.0,0.99,0,-0,-0,0.05,,75,0,4,37,99,0.544,0.0,116,4.91,13.0,0.0,1,0.0,0.0,0.0,0,0,0,1,0,,,,,,,,,,,,,,,,,,,,
2843,0,0,0,248,251,237,232,-7,-0.05,0.01,0.99,0,-0,-0,0.05,1,75,0,4,37,99,0.544,0.0,116,4.92,13.0,0.0,1,0.0,0.0,0.0,0,0,0,1,0,0,250,250,0,0.0,0.0,0.0,0.0,0,0,0.0,0,0.0,-1,0.0,0.0,0.0,0,0.0,0.0474
2863,0,,,248,250,238,232,,-0.05,0.01,0.99,0,-0,-0,0.05,,75,0,4,37,99,0.546,0.0,116,4.92,13.0,0.0,1,0.0,0.0,0.0,0,0,0,1,0,,,,,,,,,,,,,,,,,,,,
2883,0,,,248,251,238,232,,-0.05,0.01,0.99,0,-0,-0,0.05,,75,0,4,37,99,0.546,0.0,116,4.9,13.0,0.0,1,0.0,0.0,0.0,0,0,0,1,0,,,,,,,,,,,,,,,,,,,,
2903,0,,,248,250,238,232,,-0.05,0.01,0.99,0,-0,-0,0.05,,75,0,4,37,99,0.547,0.0,116,4.91,13.0,0.0,1,0.0,0.0,0.0,0,0,0,1,0,,,,,,,,,,,,,,,,,,,,
2923,0,,,248,251,237,232,,-0.05,0.0,0.99,0,-0,-0,0.05,,75,0,4,37,99,0.548,0.0,116,4.93,13.0,0.0,1,0.0,0.0,0.0,0,0,0,1,0,,,,,,,,,,,,,,,,,,,,
2943,0,0,2,248,251,238,233,-7,-0.05,0.0,0.99,0,-0,-0,0.05,1,75,0,4,37,99,0.55,0.0,116,4.92,13.0,0.0,1,0.0,0.0,0.0,0,0,0,1,0,0,250,250,0,0.0,0.0,0.0,0.0,0,0,0.0,0,0.0,-1,0.0,,0.0,0,0.0,0.049
2963,0,,,248,250,238,233,,-0.05,0.0,0.99,0,-0,-0,0.05,,75,0,4,37,99,0.552,0.0,116,4.91,13.0,0.0,1,0.0,0.0,0.0,0,0,0,1,0,,,,,,,,,,,,,,,,,,,,
2983,0,,,248,251,238,232,,-0.05,0.0,0.99,0,-0,-0,0.05,,75,0,4,37,99,0.554,0.0,116,4.92,13.0,0.0,1,0.0,0.0,0.0,0,0,0,1,0,,,,,,,,,,,,,,,,,,,,
3003,0,,,248,251,238,232,,-0.05,0.0,0.99,0,-0,-0,0.05,,75,0,4,37,99,0.556,0.0,116,4.92,13.0,0.0,1,0.0,0.0,0.0,0,0,0,1,0,,,,,,,,,,,,,,,,,,,,
3023,0,,,248,251,238,233,,-0.05,0.0,0.99,0,-0,-0,0.05,,75,0,4,37,99,0.559,0.0,116,4.91,13.0,0.0,1,0.0,0.0,0.0,0,0,0,1,0,,,,,,,,,,,,,,,,,,,,
3043,0,-1,2,248,250,238,232,-7,-0.05,0.0,0.99,0,-0,-0,0.05,1,75,0,4,37,99,0.561,0.0,116,4.92,13.0,0.0,1,0.0,0.0,0.0,0,0,0,1,0,0,250,250,0,0.0,0.0,0.0,0.0,0,0,0.0,0,0.0,-1,0.0,0.0,0.0,0,0.0,0.0507
3063,0,,,248,251,238,233,,-0.05,0.0,0.99,0,-0,-0,0.05,,75,0,4,37,99,0.563,0.0,116,4.91,13.0,0.0,1,0.0,0.0,0.0,0,0,0,1,0,,,,,,,,,,,,,,,,,,,,
3083,0,,,248,250,238,232,,-0.05,0.0,0.99,0,-0,-0,0.05,,75,0,4,37,99,0.565,0.0,116,4.91,13.0,0.0,1,0.0,0.0,0.0,0,0,0,1,0,,,,,,,,,,,,,,,,,,,,
3103,0,,,248,250,238,232,,-0.05,0.0,0.99,0,-0,-0,0.05,,75,0,4,37,99,0.567,0.0,116,4.9,13.0,0.0,1,0.0,0.0,0.0,0,0,0,1,0,,,,,,,,,,,,,,,,,,,,
3123,0,,,248,251,237,232,,-0.05,-0.0,0.99,0,-0,-0,0.05,,75,0,4,37,99,0.57,0.0,116,4.92,13.0,0.0,1,0.0,0.0,0.0,0,0,0,1,0,,,,,,,,,,,,,,,,,,,,
3143,0,-1,2,248,251,237,232,-7,-0.05,-0.0,0.99,0,-0,-0,0.05,1,75,0,4,37,99,0.572,0.0,116,4.92,13.0,0.0,1,0.0,0.0,0.0,0,0,0,1,0,0,250,250,0,0.0,0.0,0.0,0.0,0,0,0.0,0,0.0,-1,0.0,,0.0,0,0.0,0.0524
3163,0,,,248,251,238,233,,-0.05,-0.0,0.99,0,-0,-0,0.05,,75,0,4,37,99,0.576,0.0,116,4.92,13.0,0.0,1,0.0,0.0,0.0,0,0,0,0,0,,,,,,,,,,,,,,,,,,,,
3183,0,,,248,251,238,232,,-0.05,-0.0,0.99,0,-0,-0,0.05,,75,0,4,37,99,0.579,0.0,116,4.86,13.2,0.0,1,0.0,0.0,0.0,0,0,0,0,0,,,,,,,,,,,,,,,,,,,,
3203,0,,,248,251,238,232,,-0.05,0.0,0.99,0,-0,-0,0.05,,75,0,4,37,99,0.582,0.0,116,4.66,13.2,0.0,1,0.0,0.0,0.0,0,0,0,0,0,,,,,,,,,,,,,,,,,,,,
3223,0,,,248,251,238,232,,-0.05,0.0,0.99,0,-0,-0,0.05,,75,0,4,37,99,0.585,0.0,116,3.78,13.2,0.0,1,0.0,0.0,0.0,0,0,0,0,0,,,,,,,,,,,,,,,,,,,,
3243,0,0,1,248,251,237,233,-7,-0.05,0.0,0.99,0,-0,-0,0.05,1,75,0,4,37,99,0.587,0.0,116,3.35,13.3,0.0,1,0.0,0.0,0.0,0,0,0,0,0,0,250,250,0,0.0,0.0,0.0,0.0,0,0,0.0,0,0.0,-1,0.0,0.0,0.0,0,0.0,0.054
3263,0,,,248,251,238,233,,-0.05,0.0,0.99,0,-0,-0,0.05,,75,0,4,37,99,0.589,0.0,116,3.16,13.3,0.0,1,0.0,0.0,0.0,0,0,0,0,0,,,,,,,,,,,,,,,,,,,,
3283,0,,,248,250,238,232,,-0.05,0.0,0.99,0,-0,-0,0.05,,75,0,4,37,99,0.592,0.0,116,3.02,13.3,0.0,1,0.0,0.0,0.0,0,0,0,0,0,,,,,,,,,,,,,,,,,,,,
3303,0,,,248,251,238,232,,-0.05,0.0,0.99,0,-0,-0,0.05,,75,0,4,37,99,0.595,0.0,116,2.91,13.3,0.0,1,0.0,0.0,0.0,0,0,0,0,0,,,,,,,,,,,,,,,,,,,,
3323,0,,,248,251,238,232,,-0.05,0.0,0.99,0,-0,-0,0.05,,75,0,4,37,99,0.598,0.0,116,2.81,13.3,0.0,1,0.0,0.0,0.0,0,0,0,0,0,,,,,,,,,,,,,,,,,,,,
3343,0,0,1,248,251,238,232,-7,-0.05,0.0,0.99,0,-0,-0,0.05,1,75,0,4,37,99,0.601,0.0,116,2.72,13.3,0.0,1,0.0,0.0,0.0,0,0,0,0,0,0,250,250,0,0.0,0.0,0.0,0.0,0,0,0.0,0,0.0,-1,0.0,,0.0,0,0.0,0.0557
3363,0,,,248,251,237,233,,-0.05,0.0,0.99,0,-0,-0,0.05,,75,0,4,37,99,0.603,0.0,116,2.65,13.2,0.0,1,0.0,0.0,0.0,0,0,0,0,1,,,,,,,,,,,,,,,,,,,,
3383,0,,,248,251,238,233,,-0.05,0.0,0.99,0,-0,-0,0.05,,75,0,4,37,99,0.605,0.0,116,2.57,13.2,0.0,1,0.0,0.0,0.0,0,0,0,0,1,,,,,,,,,,,,,,,,,,,,
3403,0,,,248,251,238,232,,-0.05,0.0,0.99,0,-0,-0,0.05,,75,0,4,37,99,0.607,0.0,116,2.51,13.2,0.0,1,0.0,0.0,0.0,0,0,0,0,1,,,,,,,,,,,,,,,,,,,,
3423,0,,,248,251,237,233,,-0.05,0.0,0.99,0,-0,-0,0.05,,75,0,4,37,99,0.609,0.0,116,2.43,13.3,0.0,1,0.0,0.0,0.0,0,0,0,0,1,,,,,,,,,,,,,,,,,,,,
3443,0,-0,2,248,251,238,232,-8,-0.05,0.0,0.99,0,-0,-0,0.05,1,75,0,4,37,99,0.612,0.0,116,2.39,13.3,0.0,1,0.0,0.0,0.0,0,0,0,0,1,0,250,250,0,0.0,0.0,0.0,0.0,0,0,0.0,0,0.0,-1,0.0,0.0,0.0,0,0.0,0.0574
3463,0,,,248,251,238,232,,-0.05,0.0,0.99,0,-0,-0,0.05,,75,0,4,37,99,0.614,0.0,116,2.35,13.3,0.0,1,0.0,0.0,0.0,0,0,0,0,1,,,,,,,,,,,,,,,,,,,,
3483,0,,,248,251,238,232,,-0.05,0.0,0.99,0,-0,-0,0.05,,75,0,4,37,99,0.616,0.0,116,2.3,13.3,0.0,1,0.0,0.0,0.0,0,0,0,0,1,,,,,,,,,,,,,,,,,,,,
3503,0,,,248,251,238,232,,-0.05,0.0,0.99,0,-0,-0,0.05,,75,0,4,37,99,0.619,0.0,116,2.26,13.3,0.0,1,0.0,0.0,0.0,0,0,0,0,1,,,,,,,,,,,,,,,,,,,,
3523,0,,,248,250,238,232,,-0.05,0.0,0.99,0,-0,-0,0.05,,75,0,4,37,99,0.621,0.0,116,2.21,13.2,0.0,1,0.0,0.0,0.0,0,0,0,0,1,,,,,,,,,,,,,,,,,,,,
3543,0,0,1,248,251,238,232,-6,-0.05,0.0,0.99,0,-0,-0,0.05,1,75,0,4,37,99,0.623,0.0,116,2.19,13.2,0.0,1,0.0,0.0,0.0,0,0,0,0,1,0,250,250,0,0.0,0.0,0.0,0.0,0,0,0.0,0,0.0,-1,0.0,,0.0,0,0.0,0.059
3563,0,,,248,251,237,232,,-0.05,0.0,0.99,0,-0,-0,0.05,,75,0,4,37,99,0.624,0.0,116,2.15,13.2,0.0,1,0.0,0.0,0.0,0,0,0,0,1,,,,,,,,,,,,,,,,,,,,
3583,0,,,248,250,238,233,,-0.05,0.0,0.99,0,0,-0,0.05,,75,0,4,37,99,0.627,0.0,116,2.11,13.2,0.0,1,0.0,0.0,0.0,0,0,0,0,1,,,,,,,,,,,,,,,,,,,,
3603,0,,,248,251,238,232,,-0.05,0.0,0.99,0,-0,-0,0.05,,75,0,4,37,99,0.629,0.0,116,2.08,13.3,0.0,1,0.0,0.0,0.0,0,0,0,0,1,,,,,,,,,,,,,,,,,,,,
3623,0,,,248,251,237,233,,-0.05,0.0,0.99,0,0,-0,0.05,,75,0,4,37,99,0.632,0.0,116,2.05,13.3,0.0,1,0.0,0.0,0.0,0,0,0,0,1,,,,,,,,,,,,,,,,,,,,
3643,0,-1,2,248,250,238,232,-7,-0.05,0.0,0.99,0,-0,-0,0.05,1,75,0,4,37,99,0.634,0.0,116,2.02,13.3,0.0,1,0.0,0.0,0.0,0,0,0,0,1,0,250,250,0,0.0,0.0,0.0,0.0,0,0,0.0,0,0.0,-1,0.0,0.0,0.0,0,0.0,0.0607
3663,0,,,248,251,237,232,,-0.05,0.0,0.99,0,-0,-0,0.05,,75,0,4,37,99,0.636,0.0,116,2.0,13.3,0.0,1,0.0,0.0,0.0,0,0,0,0,1,,,,,,,,,,,,,,,,,,,,
3683,0,,,248,251,238,232,,-0.05,0.0,0.99,0,-0,-0,0.05,,75,0,4,37,99,0.637,0.0,116,1.97,13.2,0.0,1,0.0,0.0,0.0,0,0,0,0,1,,,,,,,,,,,,,,,,,,,,
3703,0,,,248,251,238,232,,-0.05,0.0,0.99,0,-0,-0,0.05,,75,0,4,37,99,0.639,0.0,116,1.94,13.2,0.0,1,0.0,0.0,0.0,0,0,0,0,1,,,,,,,,,,,,,,,,,,,,
3723,0,,,248,251,238,232,,-0.05,0.0,0.99,0,-0,-0,0.05,,75,0,4,37,99,0.64,0.0,116,1.92,13.2,0.0,1,0.0,0.0,0.0,0,0,0,0,1,,,,,,,,,,,,,,,,,,,,
3743,0,0,1,248,251,237,232,-7,-0.05,0.0,0.99,0,-0,-0,0.05,1,75,0,4,37,99,0.641,0.0,116,1.89,13.2,0.0,1,0.0,0.0,0.0,0,0,0,0,1,0,250,250,0,0.0,0.0,0.0,0.0,0,0,0.0,0,0.0,-1,0.0,,0.0,0,0.0,0.0624
3763,0,,,248,251,238,233,,-0.05,0.0,0.99,0,-0,-0,0.05,,75,0,4,37,99,0.642,0.0,116,1.88,13.3,0.0,1,0.0,0.0,0.0,0,0,0,0,1,,,,,,,,,,,,,,,,,,,,
3783,0,,,248,251,238,232,,-0.05,0.0,0.99,0,-0,-0,0.05,,75,0,4,37,99,0.642,0.0,116,1.86,13.3,0.0,1,0.0,0.0,0.0,0,0,0,0,1,,,,,,,,,,,,,,,,,,,,
3803,0,,,248,250,238,232,,-0.05,0.0,0.99,0,0,-0,0.05,,75,0,4,37,99,0.643,0.0,116,1.83,13.3,0.0,1,0.0,0.0,0.0,0,0,0,0,1,,,,,,,,,,,,,,,,,,,,
3823,0,,,248,251,238,232,,-0.05,0.0,0.99,0,-0,-0,0.05,,75,0,4,37,99,0.643,0.0,116,1.81,13.3,0.0,1,0.0,0.0,0.0,0,0,0,0,1,,,,,,,,,,,,,,,,,,,,
3843,0,0,1,248,251,237,232,-7,-0.05,0.0,0.99,0,-0,-0,0.05,1,75,0,4,37,99,0.644,0.0,116,1.8,13.2,0.0,1,0.0,0.0,0.0,0,0,0,0,1,0,250,250,0,0.0,0.0,0.0,0.0,0,0,0.0,0,0.0,-1,0.0,0.0,0.0,0,0.0,0.064
3863,0,,,248,250,238,232,,-0.05,0.0,0.99,0,-0,-0,0.05,,75,0,4,37,99,0.644,0.0,116,1.77,13.2,0.0,1,0.0,0.0,0.0,0,0,0,0,1,,,,,,,,,,,,,,,,,,,,
3883,0,,,248,251,238,232,,-0.05,0.0,0.99,0,-0,-0,0.05,,75,0,4,37,99,0.644,0.0,116,1.77,13.2,0.0,1,0.0,0.0,0.0,0,0,0,0,1,,,,,,,,,,,,,,,,,,,,
3903,0,,,248,251,238,232,,-0.05,0.0,0.99,0,-0,-0,0.05,,75,0,4,37,99,0.644,0.0,116,1.75,13.2,0.0,1,0.0,0.0,0.0,0,0,0,0,1,,,,,,,,,,,,,,,,,,,,
3923,0,,,248,251,237,232,,-0.05,0.0,0.99,0,-0,-0,0.05,,75,0,4,37,99,0.645,0.0,116,1.73,13.3,0.0,1,0.0,0.0,0.0,0,0,0,0,1,,,,,,,,,,,,,,,,,,,,
3943,0,-1,2,248,250,238,233,-7,-0.05,0.0,0.99,0,-0,-0,0.05,1,75,0,4,37,99,0.645,0.0,116,1.73,13.3,0.0,1,0.0,0.0,0.0,0,0,0,0,1,0,250,250,0,0.0,0.0,0.0,0.0,0,0,0.0,0,0.0,-1,0.0,,0.0,0,0.0,0.0657
3963,0,,,248,251,237,233,,-0.05,0.0,0.99,0,-0,-0,0.05,,75,0,4,37,99,0.645,0.0,116,1.7,13.3,0.0,1,0.0,0.0,0.0,0,0,0,0,1,,,,,,,,,,,,,,,,,,,,
3983,0,,,248,250,238,232,,-0.05,0.0,0.99,0,-0,-0,0.05,,75,0,4,37,99,0.645,0.0,116,1.7,13.3,0.0,1,0.0,0.0,0.0,0,0,0,0,1,,,,,,,,,,,,,,,,,,,,
4003,0,,,248,251,237,232,,-0.05,0.0,0.99,0,-0,-0,0.05,,75,0,4,37,99,0.645,0.0,116,1.67,13.3,0.0,1,0.0,0.0,0.0,0,0,0,0,1,,,,,,,,,,,,,,,,,,,,
4023,0,,,248,250,238,232,,-0.05,0.0,0.99,0,-0,-0,0.05,,75,0,4,37,99,0.646,0.0,116,1.67,13.2,0.0,1,0.0,0.0,0.0,0,0,0,0,1,,,,,,,,,,,,,,,,,,,,
4043,0,-1,2,248,251,238,232,-6,-0.05,0.0,0.99,0,-0,-0,0.05,1,75,0,4,37,99,0.646,0.0,116,1.66,13.2,0.0,1,0.0,0.0,0.0,0,0,0,0,1,0,250,250,0,0.0,0.0,0.0,0.0,0,0,0.0,0,0.0,-1,0.0,0.0,0.0,0,0.0,0.0674
4063,0,,,248,251,237,233,,-0.05,0.0,0.99,0,-0,-0,0.05,,75,0,4,37,99,0.647,0.0,116,1.64,13.2,0.0,1,0.0,0.0,0.0,0,0,0,0,1,,,,,,,,,,,,,,,,,,,,
4083,0,,,248,250,238,233,,-0.05,0.0,0.99,0,-0,-0,0.05,,75,0,4,37,99,0.647,0.0,116,1.63,13.2,0.0,1,0.0,0.0,0.0,0,0,0,0,1,,,,,,,,,,,,,,,,,,,,
4103,0,,,248,250,238,233,,-0.05,0.0,0.99,0,-0,-0,0.05,,75,0,4,37,99,0.647,0.0,116,1.61,13.3,0.0,1,0.0,0.0,0.0,0,0,0,0,1,,,,,,,,,,,,,,,,,,,,
4123,0,,,248,251,238,233,,-0.05,0.0,0.99,0,-0,-0,0.05,,75,0,4,37,99,0.648,0.0,116,1.61,13.3,0.0,1,0.0,0.0,0.0,0,0,0,0,1,,,,,,,,,,,,,,,,,,,,
4143,0,-0,2,248,251,238,232,-7,-0.05,0.0,0.99,0,-0,-0,0.05,1,75,0,4,37,99,0.647,0.0,116,1.58,13.3,0.0,1,0.0,0.0,0.0,0,0,0,0,1,0,250,250,0,0.0,0.0,0.0,0.0,0,0,0.0,0,0.0,-1,0.0,,0.0,0,0.0,0.069
4163,0,,,248,251,238,232,,-0.05,0.0,0.99,0,-0,-0,0.05,,75,0,4,37,99,0.647,0.0,116,1.58,13.3,0.0,1,0.0,0.0,0.0,0,0,0,0,1,,,,,,,,,,,,,,,,,,,,
4183,0,,,248,251,238,233,,-0.05,0.0,0.99,0,-0,-0,0.05,,75,0,4,37,99,0.647,0.0,116,1.58,13.2,0.0,1,0.0,0.0,0.0,0,0,0,0,1,,,,,,,,,,,,,,,,,,,,
4203,0,,,248,251,238,232,,-0.05,0.0,0.99,0,-0,-0,0.05,,75,0,4,37,99,0.647,0.0,116,1.56,13.2,0.0,1,0.0,0.0,0.0,0,0,0,0,1,,,,,,,,,,,,,,,,,,,,
4223,0,,,248,251,237,232,,-0.05,0.0,0.99,0,-0,-0,0.05,,75,0,4,37,99,0.647,0.0,116,1.56,13.2,0.0,1,0.0,0.0,0.0,0,0,0,0,1,,,,,,,,,,,,,,,,,,,,
4243,0,0,1,248,251,238,232,-8,-0.05,0.0,0.99,0,-0,-0,0.05,1,75,0,4,37,99,0.647,0.0,116,1.56,13.2,0.0,1,0.0,0.0,0.0,0,0,0,0,1,0,250,250,0,0.0,0.0,0.0,0.0,0,0,0.0,0,0.0,-1,0.0,0.0,0.0,0,0.0,0.0707
4263,0,,,248,251,238,232,,-0.05,0.0,0.99,0,-0,-0,0.05,,75,0,4,37,99,0.647,0.0,116,1.53,13.2,0.0,1,0.0,0.0,0.0,0,0,0,0,1,,,,,,,,,,,,,,,,,,,,
4283,0,,,248,250,237,233,,-0.05,0.0,0.99,0,-0,-0,0.05,,75,0,4,37,99,0.647,0.0,116,1.53,13.3,0.0,1,0.0,0.0,0.0,0,0,0,0,1,,,,,,,,,,,,,,,,,,,,
4303,0,,,248,251,237,232,,-0.05,0.0,0.99,0,-0,-0,0.05,,75,0,4,37,99,0.647,0.0,116,1.52,13.3,0.0,1,0.0,0.0,0.0,0,0,0,0,1,,,,,,,,,,,,,,,,,,,,
4323,0,,,248,251,237,233,,-0.05,0.0,0.99,0,-0,-0,0.05,,75,0,4,37,99,0.647,0.0,116,1.51,13.3,0.0,1,0.0,0.0,0.0,0,0,0,0,1,,,,,,,,,,,,,,,,,,,,
4343,0,0,1,248,251,238,232,-7,-0.05,0.0,0.99,0,-0,-0,0.05,1,75,0,4,37,99,0.647,0.0,116,1.51,13.3,0.0,1,0.0,0.0,0.0,0,0,0,0,1,0,250,250,0,0.0,0.0,0.0,0.0,0,0,0.0,0,0.0,-1,0.0,,0.0,0,0.0,0.0724
4363,0,,,248,251,238,232,,-0.05,0.0,0.99,0,-0,-0,0.05,,75,0,4,37,99,0.648,0.0,116,1.51,13.2,0.0,1,0.0,0.0,0.0,0,0,0,0,1,,,,,,,,,,,,,,,,,,,,
4383,0,,,248,250,238,232,,-0.05,0.0,0.99,0,-0,-0,0.05,,75,0,4,37,99,0.647,0.0,116,1.5,13.2,0.0,1,0.0,0.0,0.0,0,0,0,0,1,,,,,,,,,,,,,,,,,,,,
4403,0,,,248,251,237,232,,-0.05,0.0,0.99,0,-0,-0,0.05,,75,0,4,37,99,0.648,0.0,116,1.5,13.2,0.0,1,0.0,0.0,0.0,0,0,0,0,1,,,,,,,,,,,,,,,,,,,,
4423,0,,,248,251,238,233,,-0.05,0.0,0.99,0,-0,-0,0.05,,75,0,4,37,99,0.649,0.0,116,1.48,13.2,0.0,1,0.0,0.0,0.0,0,0,0,0,1,,,,,,,,,,,,,,,,,,,,
4443,0,-1,2,248,250,238,232,-7,-0.05,0.0,0.99,0,-0,-0,0.05,1,75,0,4,37,99,0.649,0.0,116,1.48,13.3,0.0,1,0.0,0.0,0.0,0,0,0,0,1,0,250,250,0,0.0,0.0,0.0,0.0,0,0,0.0,0,0.0,-1,0.0,0.0,0.0,0,0.0,0.074
4463,0,,,248,250,238,233,,-0.05,0.0,0.99,0,-0,-0,0.05,,75,0,4,37,99,0.649,0.0,116,1.47,13.3,0.0,1,0.0,0.0,0.0,0,0,0,0,1,,,,,,,,,,,,,,,,,,,,
4483,0,,,248,251,238,232,,-0.05,0.0,0.99,0,-0,-0,0.05,,75,0,4,37,99,0.649,0.0,116,1.47,13.3,0.0,1,0.0,0.0,0.0,0,0,0,0,1,,,,,,,,,,,,,,,,,,,,
4503,0,,,248,251,237,232,,-0.05,0.0,0.99,0,-0,-0,0.05,,75,0,4,37,99,0.649,0.0,116,1.47,13.3,0.0,1,0.0,0.0,0.0,0,0,0,0,1,,,,,,,,,,,,,,,,,,,,
4523,0,,,248,251,238,232,,-0.05,0.0,0.99,0,-0,-0,0.05,,75,0,4,37,99,0.649,0.0,116,1.45,13.3,0.0,1,0.0,0.0,0.0,0,0,0,0,1,,,,,,,,,,,,,,,,,,,,
4543,0,-0,2,248,251,238,232,-7,-0.05,0.0,0.99,0,-0,-0,0.05,1,75,0,4,37,99,0.649,0.0,116,1.45,13.2,0.0,1,0.0,0.0,0.0,0,0,0,0,1,0,250,250,0,0.0,0.0,0.0,0.0,0,0,0.0,0,0.0,-1,0.0,,0.0,0,0.0,0.0757
4563,0,,,248,251,238,232,,-0.05,0.0,0.99,0,-0,-0,0.05,,75,0,4,37,99,0.65,0.0,116,1.45,13.2,0.0,1,0.0,0.0,0.0,0,0,0,0,1,,,,,,,,,,,,,,,,,,,,
4583,0,,,248,250,238,232,,-0.05,0.0,0.99,0,-0,-0,0.05,,75,0,4,37,99,0.65,0.0,116,1.45,13.2,0.0,1,0.0,0.0,0.0,0,0,0,0,1,,,,,,,,,,,,,,,,,,,,
4603,0,,,248,250,238,232,,-0.05,0.0,0.99,0,-0,-0,0.05,,75,0,4,37,99,0.65,0.0,116,1.45,13.2,0.0,1,0.0,0.0,0.0,0,0,0,0,1,,,,,,,,,,,,,,,,,,,,
4623,0,,,248,251,238,232,,-0.05,0.0,0.99,0,-0,-0,0.05,,75,0,4,37,99,0.65,0.0,116,1.45,13.3,0.0,1,0.0,0.0,0.0,0,0,0,0,1,,,,,,,,,,,,,,,,,,,,
4643,0,-0,3,248,251,238,232,-7,-0.05,0.0,0.99,0,-0,-0,0.05,1,75,0,4,37,99,0.65,0.0,116,1.43,13.3,0.0,1,0.0,0.0,0.0,0,0,0,0,1,0,250,250,0,0.0,0.0,0.0,0.0,0,0,0.0,0,0.0,-1,0.0,0.0,0.0,0,0.0,0.0774
4663,0,,,248,251,238,232,,-0.05,0.0,0.99,0,-0,-0,0.05,,75,0,4,37,99,0.65,0.0,116,1.42,13.3,0.0,1,0.0,0.0,0.0,0,0,0,0,1,,,,,,,,,,,,,,,,,,,,
4683,0,,,248,251,237,233,,-0.05,0.0,0.99,0,-0,-0,0.05,,75,0,4,37,99,0.65,0.0,116,1.42,13.3,0.0,1,0.0,0.0,0.0,0,0,0,0,1,,,,,,,,,,,,,,,,,,,,
4703,0,,,248,251,237,233,,-0.05,0.0,0.99,0,-0,-0,0.05,,75,0,4,37,99,0.651,0.0,116,1.42,13.2,0.0,1,0.0,0.0,0.0,0,0,0,0,1,,,,,,,,,,,,,,,,,,,,
4723,0,,,248,251,238,232,,-0.05,0.0,0.99,0,-0,-0,0.05,,75,0,4,37,99,0.65,0.0,116,1.42,13.2,0.0,1,0.0,0.0,0.0,0,0,0,0,1,,,,,,,,,,,,,,,,,,,,
4743,0,0,1,248,251,237,232,-6,-0.05,0.0,0.99,0,-0,-0,0.05,1,75,0,4,37,99,0.651,0.0,116,1.4,13.2,0.0,1,0.0,0.0,0.0,0,0,0,0,1,0,250,250,0,0.0,0.0,0.0,0.0,0,0,0.0,0,0.0,-1,0.0,,0.0,0,0.0,0.079
4763,0,,,248,250,238,232,,-0.05,0.0,0.99,0,-0,-0,0.05,,75,0,4,37,99,0.651,0.0,116,1.4,13.2,0.0,1,0.0,0.0,0.0,0,0,0,0,1,,,,,,,,,,,,,,,,,,,,
4783,0,,,248,251,238,232,,-0.05,0.0,0.99,0,-0,-0,0.05,,75,0,4,37,99,0.651,0.0,116,1.4,13.2,0.0,1,0.0,0.0,0.0,0,0,0,0,1,,,,,,,,,,,,,,,,,,,,
4803,0,,,248,251,237,233,,-0.05,0.0,0.99,0,-0,-0,0.05,,75,0,4,37,99,0.652,0.0,116,1.4,13.3,0.0,1,0.0,0.0,0.0,0,0,0,0,1,,,,,,,,,,,,,,,,,,,,
4823,0,,,248,251,238,232,,-0.05,0.0,0.99,0,-0,-0,0.05,,75,0,4,37,99,0.652,0.0,116,1.4,13.3,0.0,1,0.0,0.0,0.0,0,0,0,0,1,,,,,,,,,,,,,,,,,,,,
4843,0,-1,1,248,251,237,233,-7,-0.05,0.0,0.99,0,-0,-0,0.05,1,75,0,4,37,99,0.652,0.0,116,1.39,13.3,0.0,1,0.0,0.0,0.0,0,0,0,0,1,0,250,250,0,0.0,0.0,0.0,0.0,0,0,0.0,0,0.0,-1,0.0,0.0,0.0,0,0.0,0.0807
4863,0,,,248,251,238,233,,-0.05,0.0,0.99,0,-0,-0,0.05,,75,0,4,37,99,0.652,0.0,116,1.38,13.2,0.0,1,0.0,0.0,0.0,0,0,0,0,1,,,,,,,,,,,,,,,,,,,,
4883,0,,,248,250,238,233,,-0.05,0.0,0.99,0,-0,-0,0.05,,75,0,4,37,99,0.653,0.0,116,1.37,13.2,0.0,1,0.0,0.0,0.0,0,0,0,0,1,,,,,,,,,,,,,,,,,,,,
4903,0,,,248,251,238,232,,-0.05,0.0,0.99,0,-0,-0,0.05,,75,0,4,37,99,0.653,0.0,116,1.37,13.2,0.0,1,0.0,0.0,0.0,0,0,0,0,1,,,,,,,,,,,,,,,,,,,,
4923,0,,,248,251,237,233,,-0.05,0.0,0.99,0,-0,-0,0.05,,75,0,4,37,99,0.653,0.0,116,1.37,13.2,0.0,1,0.0,0.0,0.0,0,0,0,0,1,,,,,,,,,,,,,,,,,,,,
4943,0,-1,2,248,251,238,232,-7,-0.05,0.0,0.99,0,-0,-0,0.05,1,75,0,4,37,99,0.653,0.0,116,1.37,13.2,0.0,1,0.0,0.0,0.0,0,0,0,0,1,0,250,250,0,0.0,0.0,0.0,0.0,0,0,0.0,0,0.0,-1,0.0,,0.0,0,0.0,0.0824
4963,0,,,248,250,238,232,,-0.05,0.0,0.99,0,-0,-0,0.05,,75,0,4,37,99,0.653,0.0,116,1.36,13.3,0.0,1,0.0,0.0,0.0,0,0,0,0,1,,,,,,,,,,,,,,,,,,,,
4983,0,,,248,251,237,232,,-0.05,0.0,0.99,0,-0,-0,0.05,,75,0,4,37,99,0.653,0.0,116,1.36,13.3,0.0,1,0.0,0.0,0.0,0,0,0,0,1,,,,,,,,,,,,,,,,,,,,
5003,0,,,248,251,237,232,,-0.05,0.0,0.99,0,-0,-0,0.05,,75,0,4,37,99,0.653,0.0,116,1.36,13.3,0.0,1,0.0,0.0,0.0,0,0,0,0,1,,,,,,,,,,,,,,,,,,,,
5023,0,,,248,251,238,232,,-0.05,0.0,0.99,0,-0,-0,0.05,,75,0,4,37,99,0.652,0.0,116,1.35,13.3,0.0,1,0.0,0.0,0.0,0,0,0,0,1,,,,,,,,,,,,,,,,,,,,
5043,0,0,2,248,251,238,232,-6,-0.05,0.0,0.99,0,-0,-0,0.05,1,75,0,4,37,99,0.653,0.0,116,1.34,13.2,0.0,1,0.0,0.0,0.0,0,0,0,0,1,0,250,250,0,0.0,0.0,0.0,0.0,0,0,0.0,0,0.0,-1,0.0,0.0,0.0,0,0.0,0.084
5063,0,,,248,251,238,232,,-0.05,0.0,0.99,0,-0,-0,0.05,,75,0,4,37,99,0.652,0.0,116,1.34,13.2,0.0,1,0.0,0.0,0.0,0,0,0,0,1,,,,,,,,,,,,,,,,,,,,
5083,0,,,248,251,237,232,,-0.05,0.0,0.99,0,-0,-0,0.05,,75,0,4,37,99,0.653,0.0,116,1.34,13.2,0.0,1,0.0,0.0,0.0,0,0,0,0,1,,,,,,,,,,,,,,,,,,,,
5103,0,,,248,251,237,232,,-0.05,0.0,0.99,0,-0,-0,0.05,,75,0,4,37,99,0.653,0.0,116,1.34,13.2,0.0,1,0.0,0.0,0.0,0,0,0,0,1,,,,,,,,,,,,,,,,,,,,
5123,0,,,248,251,237,232,,-0.05,0.0,0.99,0,-0,-0,0.05,,75,0,4,37,99,0.652,0.0,116,1.34,13.3,0.0,1,0.0,0.0,0.0,0,0,0,0,1,,,,,,,,,,,,,,,,,,,,
5143,0,0,2,248,251,237,233,-7,-0.05,0.0,0.99,0,-0,-0,0.05,1,75,0,4,37,99,0.652,0.0,116,1.34,13.3,0.0,1,0.0,0.0,0.0,0,0,0,0,1,0,250,250,0,0.0,0.0,0.0,0.0,0,0,0.0,0,0.0,-1,0.0,,0.0,0,0.0,0.0857
5163,0,,,248,251,238,232,,-0.05,0.0,0.99,0,-0,-0,0.05,,75,0,4,37,99,0.652,0.0,116,1.33,13.3,0.0,1,0.0,0.0,0.0,0,0,0,0,1,,,,,,,,,,,,,,,,,,,,
5183,0,,,248,251,238,232,,-0.05,0.0,0.99,0,-0,-0,0.05,,75,0,4,37,99,0.652,0.0,116,1.33,13.3,0.0,1,0.0,0.0,0.0,0,0,0,0,1,,,,,,,,,,,,,,,,,,,,
5203,0,,,248,251,238,233,,-0.05,0.0,0.99,0,-0,-0,0.05,,75,0,4,37,99,0.652,0.0,116,1.32,13.3,0.0,1,0.0,0.0,0.0,0,0,0,0,1,,,,,,,,,,,,,,,,,,,,
5223,0,,,248,250,238,233,,-0.05,0.0,0.99,0,-0,-0,0.05,,75,0,4,37,99,0.652,0.0,116,1.32,13.2,0.0,1,0.0,0.0,0.0,0,0,0,0,1,,,,,,,,,,,,,,,,,,,,
5243,0,-0,2,248,251,238,232,-7,-0.05,0.0,0.99,0,-0,-0,0.05,1,75,0,4,37,99,0.652,0.0,116,1.32,13.2,0.0,1,0.0,0.0,0.0,0,0,0,0,1,0,250,250,0,0.0,0.0,0.0,0.0,0,0,0.0,0,0.0,-1,0.0,0.0,0.0,0,0.0,0.0874
5263,0,,,248,251,237,233,,-0.05,0.0,0.99,0,-0,-0,0.05,,75,0,4,37,99,0.653,0.0,116,1.31,13.2,0.0,1,0.0,0.0,0.0,0,0,0,0,1,,,,,,,,,,,,,,,,,,,,
5283,0,,,248,251,238,232,,-0.05,0.0,0.99,0,-0,-0,0.05,,75,0,4,37,99,0.653,0.0,116,1.31,13.2,0.0,1,0.0,0.0,0.0,0,0,0,0,1,,,,,,,,,,,,,,,,,,,,
5303,0,,,248,250,237,232,,-0.05,0.0,0.99,0,-0,-0,0.05,,75,0,4,37,99,0.652,0.0,116,1.31,13.3,0.0,1,0.0,0.0,0.0,0,0,0,0,1,,,,,,,,,,,,,,,,,,,,
5323,0,,,248,250,238,232,,-0.05,0.0,0.99,0,-0,-0,0.05,,75,0,4,37,99,0.652,0.0,116,1.31,13.3,0.0,1,0.0,0.0,0.0,0,0,0,0,1,,,,,,,,,,,,,,,,,,,,
5343,0,-1,2,248,250,238,233,-7,-0.05,0.0,0.99,0,-0,-0,0.05,1,75,0,4,37,99,0.652,0.0,116,1.31,13.3,0.0,1,0.0,0.0,0.0,0,0,0,0,1,0,250,250,0,0.0,0.0,0.0,0.0,0,0,0.0,0,0.0,-1,0.0,,0.0,0,0.0,0.089
5363,0,,,248,251,238,232,,-0.05,0.0,0.99,0,-0,-0,0.05,,75,0,4,37,99,0.652,0.0,116,1.31,13.3,0.0,1,0.0,0.0,0.0,0,0,0,0,1,,,,,,,,,,,,,,,,,,,,
5383,0,,,248,251,238,232,,-0.05,0.0,0.99,0,-0,-0,0.05,,75,0,4,37,99,0.652,0.0,116,1.31,13.2,0.0,1,0.0,0.0,0.0,0,0,0,0,1,,,,,,,,,,,,,,,,,,,,
5403,0,,,248,251,237,232,,-0.05,0.0,0.99,0,-0,-0,0.05,,75,0,4,37,99,0.652,0.0,116,1.31,13.2,0.0,1,0.0,0.0,0.0,0,0,0,0,1,,,,,,,,,,,,,,,,,,,,
5423,0,,,248,251,237,232,,-0.05,0.0,0.99,0,-0,-0,0.05,,75,0,4,37,99,0.653,0.0,116,1.3,13.2,0.0,1,0.0,0.0,0.0,0,0,0,0,1,,,,,,,,,,,,,,,,,,,,
5443,0,-1,1,248,251,237,232,-7,-0.05,0.0,0.99,0,-0,-0,0.05,1,75,0,4,37,99,0.653,0.0,116,1.28,13.2,0.0,1,0.0,0.0,0.0,0,0,0,0,1,0,250,250,0,0.0,0.0,0.0,0.0,0,0,0.0,0,0.0,-1,0.0,0.0,0.0,0,0.0,0.0907
5463,0,,,248,251,238,232,,-0.05,0.0,0.99,0,-0,-0,0.05,,75,0,4,37,99,0.653,0.0,116,1.28,13.2,0.0,1,0.0,0.0,0.0,0,0,0,0,1,,,,,,,,,,,,,,,,,,,,
5483,0,,,248,250,238,233,,-0.05,0.0,0.99,0,-0,-0,0.05,,75,0,4,37,99,0.653,0.0,116,1.28,13.3,0.0,1,0.0,0.0,0.0,0,0,0,0,1,,,,,,,,,,,,,,,,,,,,
5503,0,,,248,251,238,232,,-0.05,0.0,0.99,0,-0,-0,0.05,,75,0,4,37,99,0.653,0.0,116,1.28,13.3,0.0,1,0.0,0.0,0.0,0,0,0,0,1,,,,,,,,,,,,,,,,,,,,
5523,0,,,248,251,238,232,,-0.05,0.0,0.99,0,-0,-0,0.05,,75,0,4,37,99,0.653,0.0,116,1.28,13.3,0.0,1,0.0,0.0,0.0,0,0,0,0,1,,,,,,,,,,,,,,,,,,,,
5543,0,0,1,248,251,237,233,-7,-0.05,0.0,0.99,0,-0,-0,0.05,1,75,0,4,37,99,0.653,0.0,116,1.28,13.3,0.0,1,0.0,0.0,0.0,0,0,0,0,1,0,250,250,0,0.0,0.0,0.0,0.0,0,0,0.0,0,0.0,-1,0.0,,0.0,0,0.0,0.0924
5563,0,,,248,251,237,233,,-0.05,0.0,0.99,0,-0,-0,0.05,,75,0,4,37,99,0.654,0.0,116,1.28,13.2,0.0,1,0.0,0.0,0.0,0,0,0,0,1,,,,,,,,,,,,,,,,,,,,
5583,0,,,248,251,237,232,,-0.05,0.0,0.99,0,-0,-0,0.05,,75,0,4,37,99,0.653,0.0,116,1.28,13.2,0.0,1,0.0,0.0,0.0,0,0,0,0,1,,,,,,,,,,,,,,,,,,,,
5603,0,,,248,251,238,233,,-0.05,0.0,0.99,0,-0,-0,0.05,,75,0,4,37,99,0.654,0.0,116,1.27,13.2,0.0,1,0.0,0.0,0.0,0,0,0,0,1,,,,,,,,,,,,,,,,,,,,
5623,0,,,248,251,238,232,,-0.05,0.0,0.99,0,-0,-0,0.05,,75,0,4,37,99,0.655,0.0,116,1.27,13.2,0.0,1,0.0,0.0,0.0,0,0,0,0,1,,,,,,,,,,,,,,,,,,,,
5643,0,0,2,248,251,238,232,-7,-0.05,0.0,0.99,0,-0,-0,0.05,1,75,0,4,37,99,0.655,0.0,116,1.27,13.3,0.0,1,0.0,0.0,0.0,0,0,0,0,1,0,250,250,0,0.0,0.0,0.0,0.0,0,0,0.0,0,0.0,-1,0.0,0.0,0.0,0,0.0,0.094
5663,0,,,248,251,237,233,,-0.05,0.0,0.99,0,-0,-0,0.05,,75,0,4,37,99,0.655,0.0,116,1.27,13.3,0.0,1,0.0,0.0,0.0,0,0,0,0,1,,,,,,,,,,,,,,,,,,,,
5683,0,,,248,251,238,232,,-0.05,0.0,0.99,0,-0,-0,0.05,,75,0,4,37,99,0.655,0.0,116,1.26,13.3,0.0,1,0.0,0.0,0.0,0,0,0,0,1,,,,,,,,,,,,,,,,,,,,
5703,0,,,248,251,238,232,,-0.05,0.0,0.99,0,-0,-0,0.05,,75,0,4,37,99,0.655,0.0,116,1.26,13.3,0.0,1,0.0,0.0,0.0,0,0,0,0,1,,,,,,,,,,,,,,,,,,,,
5723,0,,,248,251,238,232,,-0.05,0.0,0.99,0,-0,-0,0.05,,75,0,4,37,99,0.656,0.0,116,1.26,13.2,0.0,1,0.0,0.0,0.0,0,0,0,0,1,,,,,,,,,,,,,,,,,,,,
5743,0,-0,1,248,251,238,232,-7,-0.05,0.0,0.99,0,-0,-0,0.05,1,75,0,4,37,99,0.656,0.0,116,1.26,13.2,0.0,1,0.0,0.0,0.0,0,0,0,0,1,0,250,250,0,0.0,0.0,0.0,0.0,0,0,0.0,0,0.0,-1,0.0,,0.0,0,0.0,0.0957
5763,0,,,248,251,238,232,,-0.05,0.0,0.99,0,-0,-0,0.05,,75,0,4,37,99,0.656,0.0,116,1.26,13.2,0.0,1,0.0,0.0,0.0,0,0,0,0,1,,,,,,,,,,,,,,,,,,,,
5783,0,,,248,251,238,232,,-0.05,0.0,0.99,0,-0,-0,0.05,,75,0,4,37,99,0.657,0.0,116,1.26,13.2,0.0,1,0.0,0.0,0.0,0,0,0,0,1,,,,,,,,,,,,,,,,,,,,
5803,0,,,248,251,237,232,,-0.05,0.0,0.99,0,-0,-0,0.05,,75,0,4,37,99,0.657,0.0,116,1.26,13.2,0.0,1,0.0,0.0,0.0,0,0,0,0,1,,,,,,,,,,,,,,,,,,,,
5823,0,,,248,250,238,233,,-0.05,0.0,0.99,0,-0,-0,0.05,,75,0,4,37,99,0.658,0.0,116,1.26,13.3,0.0,1,0.0,0.0,0.0,0,0,0,0,1,,,,,,,,,,,,,,,,,,,,
5843,0,0,1,248,250,238,232,-7,-0.05,0.0,0.99,0,-0,-0,0.05,1,75,0,4,37,99,0.658,0.0,116,1.26,13.3,0.0,1,0.0,0.0,0.0,0,0,0,0,1,0,250,250,0,0.0,0.0,0.0,0.0,0,0,0.0,0,0.0,-1,0.0,0.0,0.0,0,0.0,0.0974
5863,0,,,248,251,238,232,,-0.05,0.0,0.99,0,-0,-0,0.05,,75,0,4,37,99,0.658,0.0,116,1.26,13.3,0.0,1,0.0,0.0,0.0,0,0,0,0,1,,,,,,,,,,,,,,,,,,,,
5883,0,,,248,251,237,232,,-0.05,0.0,0.99,0,-0,-0,0.05,,75,0,4,37,99,0.657,0.0,116,1.26,13.3,0.0,1,0.0,0.0,0.0,0,0,0,0,1,,,,,,,,,,,,,,,,,,,,
5903,0,,,248,250,238,232,,-0.05,0.0,0.99,0,-0,-0,0.05,,75,0,4,37,99,0.658,0.0,116,1.26,13.2,0.0,1,0.0,0.0,0.0,0,0,0,0,1,,,,,,,,,,,,,,,,,,,,
5923,0,,,248,250,238,232,,-0.05,0.0,0.99,0,0,-0,0.05,,75,0,4,37,99,0.658,0.0,116,1.26,13.2,0.0,1,0.0,0.0,0.0,0,0,0,0,1,,,,,,,,,,,,,,,,,,,,
5943,0,-1,2,248,250,238,232,-7,-0.05,0.0,0.99,0,-0,-0,0.05,1,75,0,4,37,99,0.659,0.0,116,1.25,13.2,0.0,1,0.0,0.0,0.0,0,0,0,0,1,0,250,250,0,0.0,0.0,0.0,0.0,0,0,0.0,0,0.0,-1,0.0,,0.0,0,0.0,0.099
5963,0,,,248,251,237,233,,-0.05,0.0,0.99,0,-0,-0,0.05,,75,0,4,37,99,0.659,0.0,116,1.25,13.2,0.0,1,0.0,0.0,0.0,0,0,0,0,1,,,,,,,,,,,,,,,,,,,,
5983,0,,,248,251,238,233,,-0.05,0.0,0.99,0,-0,-0,0.05,,75,0,4,37,99,0.659,0.0,116,1.25,13.3,0.0,1,0.0,0.0,0.0,0,0,0,0,1,,,,,,,,,,,,,,,,,,,,
6003,0,,,248,251,238,232,,-0.05,0.0,0.99,0,-0,-0,0.05,,75,0,4,37,99,0.66,0.0,116,1.24,13.3,0.0,1,0.0,0.0,0.0,0,0,0,0,1,,,,,,,,,,,,,,,,,,,,
6023,0,,,248,251,238,232,,-0.05,0.0,0.99,0,-0,-0,0.05,,75,0,4,37,99,0.66,0.0,116,1.24,13.3,0.0,1,0.0,0.0,0.0,0,0,0,0,1,,,,,,,,,,,,,,,,,,,,
6043,0,1,2,248,251,238,232,-7,-0.05,0.0,0.99,0,-0,-0,0.05,1,75,0,4,37,99,0.66,0.0,116,1.23,13.3,0.0,1,0.0,0.0,0.0,0,0,0,0,1,0,250,250,0,0.0,0.0,0.0,0.0,0,0,0.0,0,0.0,-1,0.0,0.0,0.0,0,0.0,0.1007
6063,0,,,248,251,238,232,,-0.05,0.0,0.99,0,-0,-0,0.05,,75,0,4,37,99,0.66,0.0,116,1.23,13.2,0.0,1,0.0,0.0,0.0,0,0,0,0,1,,,,,,,,,,,,,,,,,,,,
6083,0,,,248,251,238,232,,-0.05,0.0,0.99,0,0,-0,0.05,,75,0,4,37,99,0.66,0.0,116,1.23,13.2,0.0,1,0.0,0.0,0.0,0,0,0,0,1,,,,,,,,,,,,,,,,,,,,
6103,0,,,248,251,237,233,,-0.05,0.0,0.99,0,-0,-0,0.05,,75,0,4,37,99,0.661,0.0,116,1.23,13.2,0.0,1,0.0,0.0,0.0,0,0,0,0,1,,,,,,,,,,,,,,,,,,,,
6123,0,,,248,251,238,232,,-0.05,0.0,0.99,0,0,-0,0.05,,75,0,4,37,99,0.661,0.0,116,1.23,13.2,0.0,1,0.0,0.0,0.0,0,0,0,0,1,,,,,,,,,,,,,,,,,,,,
6143,0,-1,2,248,250,238,233,-6,-0.05,0.0,0.99,0,-0,-0,0.05,1,75,0,4,37,99,0.661,0.0,116,1.23,13.2,0.0,1,0.0,0.0,0.0,0,0,0,0,1,0,250,250,0,0.0,0.0,0.0,0.0,0,0,0.0,0,0.0,-1,0.0,,0.0,0,0.0,0.1024
6163,0,,,248,251,238,232,,-0.05,0.0,0.99,0,-0,-0,0.05,,75,0,4,37,99,0.661,0.0,116,1.23,13.3,0.0,1,0.0,0.0,0.0,0,0,0,0,1,,,,,,,,,,,,,,,,,,,,
6183,0,,,248,251,238,232,,-0.05,0.0,0.99,0,-0,-0,0.05,,75,0,4,37,99,0.661,0.0,116,1.23,13.3,0.0,1,0.0,0.0,0.0,0,0,0,0,1,,,,,,,,,,,,,,,,,,,,
6203,0,,,248,251,238,233,,-0.05,0.0,0.99,0,-0,-0,0.05,,75,0,4,37,99,0.661,0.0,116,1.23,13.3,0.0,1,0.0,0.0,0.0,0,0,0,0,1,,,,,,,,,,,,,,,,,,,,
6223,0,,,248,251,237,233,,-0.05,0.0,0.99,0,-0,-0,0.05,,75,0,4,37,99,0.661,0.0,116,1.23,13.2,0.0,1,0.0,0.0,0.0,0,0,0,0,1,,,,,,,,,,,,,,,,,,,,
6243,0,-0,2,248,251,238,232,-6,-0.05,0.0,0.99,0,-0,-0,0.05,1,75,0,4,37,99,0.661,0.0,116,1.23,13.2,0.0,1,0.0,0.0,0.0,0,0,0,0,1,0,250,250,0,0.0,0.0,0.0,0.0,0,0,0.0,0,0.0,-1,0.0,0.0,0.0,0,0.0,0.104
6263,0,,,248,251,238,233,,-0.05,0.0,0.99,0,-0,-0,0.05,,75,0,4,37,99,0.661,0.0,116,1.23,13.2,0.0,1,0.0,0.0,0.0,0,0,0,0,1,,,,,,,,,,,,,,,,,,,,
6283,0,,,248,251,237,233,,-0.05,0.0,0.99,0,-0,-0,0.05,,75,0,4,37,99,0.662,0.0,116,1.23,13.2,0.0,1,0.0,0.0,0.0,0,0,0,0,1,,,,,,,,,,,,,,,,,,,,
6303,0,,,248,251,238,233,,-0.05,0.0,0.99,0,-0,-0,0.05,,75,0,4,37,99,0.662,0.0,116,1.23,13.2,0.0,1,0.0,0.0,0.0,0,0,0,0,1,,,,,,,,,,,,,,,,,,,,
6323,0,,,248,251,237,232,,-0.05,0.0,0.99,0,-0,-0,0.05,,75,0,4,37,99,0.662,0.0,116,1.23,13.2,0.0,1,0.0,0.0,0.0,0,0,0,0,1,,,,,,,,,,,,,,,,,,,,
6343,0,0,0,248,251,237,232,-7,-0.05,0.0,0.99,0,-0,-0,0.05,1,75,0,4,37,99,0.662,0.0,116,1.23,13.3,0.0,1,0.0,0.0,0.0,0,0,0,0,1,0,250,250,0,0.0,0.0,0.0,0.0,0,0,0.0,0,0.0,-1,0.0,,0.0,0,0.0,0.1057
6363,0,,,248,251,237,233,,-0.05,0.0,0.99,0,-0,-0,0.05,,75,0,4,37,99,0.662,0.0,116,1.23,13.3,0.0,1,0.0,0.0,0.0,0,0,0,0,1,,,,,,,,,,,,,,,,,,,,
6383,0,,,248,251,237,233,,-0.05,0.0,0.99,0,-0,-0,0.05,,75,0,4,37,99,0.662,0.0,116,1.23,13.3,0.0,1,0.0,0.0,0.0,0,0,0,0,1,,,,,,,,,,,,,,,,,,,,
6403,0,,,248,251,238,232,,-0.05,0.0,0.99,0,-0,-0,0.05,,75,0,4,37,99,0.662,0.0,116,1.23,13.2,0.0,1,0.0,0.0,0.0,0,0,0,0,1,,,,,,,,,,,,,,,,,,,,
6423,0,,,248,251,238,232,,-0.05,0.0,0.99,0,-0,-0,0.05,,75,0,4,37,99,0.662,0.0,116,1.23,13.2,0.0,1,0.0,0.0,0.0,0,0,0,0,1,,,,,,,,,,,,,,,,,,,,
6443,0,0,0,248,251,238,232,-7,-0.05,0.0,0.99,0,-0,-0,0.05,1,75,0,4,37,99,0.663,0.0,116,1.22,13.2,0.0,1,0.0,0.0,0.0,0,0,0,0,1,0,250,250,0,0.0,0.0,0.0,0.0,0,0,0.0,0,0.0,-1,0.0,0.0,0.0,0,0.0,0.1074
6463,0,,,248,251,237,233,,-0.05,0.0,0.99,0,-0,-0,0.05,,75,0,4,37,99,0.663,0.0,116,1.21,13.2,0.0,1,0.0,0.0,0.0,0,0,0,0,1,,,,,,,,,,,,,,,,,,,,
6483,0,,,248,251,238,232,,-0.05,0.0,0.99,0,-0,-0,0.05,,75,0,4,37,99,0.664,0.0,116,1.21,13.2,0.0,1,0.0,0.0,0.0,0,0,0,0,1,,,,,,,,,,,,,,,,,,,,
6503,0,,,248,251,237,233,,-0.05,0.0,0.99,0,-0,-0,0.05,,75,0,4,37,99,0.664,0.0,116,1.21,13.3,0.0,1,0.0,0.0,0.0,0,0,0,0,1,,,,,,,,,,,,,,,,,,,,
6523,0,,,248,251,238,233,,-0.05,0.0,0.99,0,-0,-0,0.05,,75,0,4,37,99,0.664,0.0,116,1.21,13.3,0.0,1,0.0,0.0,0.0,0,0,0,0,1,,,,,,,,,,,,,,,,,,,,
6543,0,0,1,248,251,237,233,-7,-0.05,0.0,0.99,0,0,-0,0.05,1,75,0,4,37,99,0.664,0.0,116,1.21,13.3,0.0,1,0.0,0.0,0.0,0,0,0,0,1,0,250,250,0,0.0,0.0,0.0,0.0,0,0,0.0,0,0.0,-1,0.0,,0.0,0,0.0,0.109
6563,0,,,248,251,238,233,,-0.05,0.0,0.99,0,-0,-0,0.05,,75,0,4,37,100,0.663,0.0,116,1.21,13.3,0.0,1,0.0,0.0,0.0,0,0,0,0,1,,,,,,,,,,,,,,,,,,,,
6583,0,,,248,251,238,233,,-0.05,0.0,0.99,0,-0,-0,0.05,,75,0,4,37,100,0.664,0.0,116,1.21,13.2,0.0,1,0.0,0.0,0.0,0,0,0,0,1,,,,,,,,,,,,,,,,,,,,
6603,0,,,248,250,238,232,,-0.05,0.0,0.99,0,-0,-0,0.05,,75,0,4,37,100,0.663,0.0,116,1.21,13.2,0.0,1,0.0,0.0,0.0,0,0,0,0,1,,,,,,,,,,,,,,,,,,,,
6623,0,,,248,251,237,232,,-0.05,0.0,0.99,0,-0,-0,0.05,,75,0,4,37,100,0.664,0.0,116,1.2,13.2,0.0,1,0.0,0.0,0.0,0,0,0,0,1,,,,,,,,,,,,,,,,,,,,
6643,0,1,2,248,251,238,232,-8,-0.05,0.0,0.99,0,-0,-0,0.05,1,75,0,4,37,100,0.664,0.0,116,1.2,13.2,0.0,1,0.0,0.0,0.0,0,0,0,0,1,0,250,250,0,0.0,0.0,0.0,0.0,0,0,0.0,0,0.0,-1,0.0,0.0,0.0,0,0.0,0.1107
6663,0,,,248,251,238,232,,-0.05,0.0,0.99,0,-0,-0,0.05,,75,0,4,37,100,0.664,0.0,116,1.2,13.2,0.0,1,0.0,0.0,0.0,0,0,0,0,1,,,,,,,,,,,,,,,,,,,,
6683,0,,,248,250,238,232,,-0.05,0.0,0.99,0,-0,-0,0.05,,75,0,4,37,100,0.663,0.0,116,1.2,13.3,0.0,1,0.0,0.0,0.0,0,0,0,0,1,,,,,,,,,,,,,,,,,,,,
6703,0,,,248,251,237,233,,-0.05,0.0,0.99,0,-0,-0,0.05,,75,0,4,37,100,0.663,0.0,116,1.2,13.3,0.0,1,0.0,0.0,0.0,0,0,0,0,1,,,,,,,,,,,,,,,,,,,,
6723,0,,,248,250,238,233,,-0.05,0.0,0.99,0,-0,-0,0.05,,75,0,4,37,100,0.662,0.0,116,1.19,13.3,0.0,1,0.0,0.0,0.0,0,0,0,0,1,,,,,,,,,,,,,,,,,,,,
6743,0,0,1,248,251,237,233,-7,-0.05,0.0,0.99,0,-0,-0,0.05,1,75,0,4,37,100,0.662,0.0,116,1.19,13.2,0.0,1,0.0,0.0,0.0,0,0,0,0,1,0,250,250,0,0.0,0.0,0.0,0.0,0,0,0.0,0,0.0,-1,0.0,,0.0,0,0.0,0.1124
6763,0,,,248,250,238,233,,-0.05,0.0,0.99,0,-0,-0,0.05,,75,0,4,37,100,0.662,0.0,116,1.18,13.2,0.0,1,0.0,0.0,0.0,0,0,0,0,1,,,,,,,,,,,,,,,,,,,,
6783,0,,,248,251,237,232,,-0.05,0.0,0.99,0,-0,-0,0.05,,75,0,4,37,100,0.662,0.0,116,1.18,13.2,0.0,1,0.0,0.0,0.0,0,0,0,0,1,,,,,,,,,,,,,,,,,,,,
6803,0,,,248,251,238,233,,-0.05,0.0,0.99,0,-0,-0,0.05,,75,0,4,37,100,0.663,0.0,116,1.18,13.2,0.0,1,0.0,0.0,0.0,0,0,0,0,1,,,,,,,,,,,,,,,,,,,,
6823,0,,,248,251,238,232,,-0.05,0.0,0.99,0,-0,-0,0.05,,75,0,4,37,100,0.663,0.0,116,1.18,13.2,0.0,1,0.0,0.0,0.0,0,0,0,0,1,,,,,,,,,,,,,,,,,,,,
6843,0,-1,2,248,251,238,232,-7,-0.05,0.0,0.99,0,-0,-0,0.05,1,75,0,4,37,100,0.663,0.0,116,1.18,13.3,0.0,1,0.0,0.0,0.0,0,0,0,0,1,0,250,250,0,0.0,0.0,0.0,0.0,0,0,0.0,0,0.0,-1,0.0,0.0,0.0,0,0.0,0.114
6863,0,,,248,250,238,232,,-0.05,0.0,0.99,0,-0,-0,0.05,,75,0,4,37,100,0.663,0.0,116,1.18,13.3,0.0,1,0.0,0.0,0.0,0,0,0,0,1,,,,,,,,,,,,,,,,,,,,
6883,0,,,248,251,237,232,,-0.05,0.0,0.99,0,-0,-0,0.05,,75,0,4,37,100,0.663,0.0,116,1.18,13.3,0.0,1,0.0,0.0,0.0,0,0,0,0,1,,,,,,,,,,,,,,,,,,,,
6903,0,,,248,251,238,233,,-0.05,0.0,0.99,0,-0,-0,0.05,,75,0,4,37,100,0.663,0.0,116,1.18,13.3,0.0,1,0.0,0.0,0.0,0,0,0,0,1,,,,,,,,,,,,,,,,,,,,
6923,0,,,248,251,238,233,,-0.05,0.0,0.99,0,-0,-0,0.05,,75,0,4,37,100,0.663,0.0,116,1.18,13.2,0.0,1,0.0,0.0,0.0,0,0,0,0,1,,,,,,,,,,,,,,,,,,,,
6943,0,-0,2,248,251,238,232,-7,-0.05,0.0,0.99,0,-0,-0,0.05,1,75,0,4,37,100,0.663,0.0,116,1.18,13.2,0.0,1,0.0,0.0,0.0,0,0,0,0,1,0,250,250,0,0.0,0.0,0.0,0.0,0,0,0.0,0,0.0,-1,0.0,,0.0,0,0.0,0.1157
6963,0,,,248,251,237,232,,-0.05,0.0,0.99,0,-0,-0,0.05,,75,0,4,37,100,0.663,0.0,116,1.18,13.2,0.0,1,0.0,0.0,0.0,0,0,0,0,1,,,,,,,,,,,,,,,,,,,,
6983,0,,,248,251,238,233,,-0.05,0.0,0.99,0,-0,-0,0.05,,75,0,4,37,100,0.663,0.0,116,1.17,13.2,0.0,1,0.0,0.0,0.0,0,0,0,0,1,,,,,,,,,,,,,,,,,,,,
7003,0,,,248,251,238,232,,-0.05,0.0,0.99,0,-0,-0,0.05,,75,0,4,37,100,0.663,0.0,116,1.17,13.3,0.0,1,0.0,0.0,0.0,0,0,0,0,1,,,,,,,,,,,,,,,,,,,,
7023,0,,,248,251,237,233,,-0.05,0.0,0.99,0,-0,-0,0.05,,75,0,4,37,100,0.663,0.0,116,1.17,13.3,0.0,1,0.0,0.0,0.0,0,0,0,0,1,,,,,,,,,,,,,,,,,,,,
7043,0,0,2,248,251,238,232,-8,-0.05,0.0,0.99,0,-0,-0,0.05,1,75,0,4,37,100,0.663,0.0,116,1.17,13.3,0.0,1,0.0,0.0,0.0,0,0,0,0,1,0,250,250,0,0.0,0.0,0.0,0.0,0,0,0.0,0,0.0,-1,0.0,0.0,0.0,0,0.0,0.1174
7063,0,,,248,251,238,232,,-0.05,0.0,0.99,0,-0,-0,0.05,,75,0,4,37,100,0.663,0.0,116,1.17,13.2,0.0,1,0.0,0.0,0.0,0,0,0,0,1,,,,,,,,,,,,,,,,,,,,
7083,0,,,248,251,238,233,,-0.05,0.0,0.99,0,-0,-0,0.05,,75,0,4,37,100,0.663,0.0,116,1.17,13.2,0.0,1,0.0,0.0,0.0,0,0,0,0,1,,,,,,,,,,,,,,,,,,,,
7103,0,,,248,250,237,233,,-0.05,0.0,0.99,0,-0,-0,0.05,,75,0,4,37,100,0.663,0.0,116,1.17,13.2,0.0,1,0.0,0.0,0.0,0,0,0,0,1,,,,,,,,,,,,,,,,,,,,
7123,0,,,248,251,238,233,,-0.05,0.0,0.99,0,-0,-0,0.05,,75,0,4,37,100,0.664,0.0,116,1.17,13.2,0.0,1,0.0,0.0,0.0,0,0,0,0,1,,,,,,,,,,,,,,,,,,,,
7143,0,-1,2,248,250,238,232,-7,-0.05,0.0,0.99,0,-0,-0,0.05,1,75,0,4,37,100,0.664,0.0,116,1.17,13.2,0.0,1,0.0,0.0,0.0,0,0,0,0,1,0,250,250,0,0.0,0.0,0.0,0.0,0,0,0.0,0,0.0,-1,0.0,,0.0,0,0.0,0.119
7163,0,,,248,251,238,232,,-0.05,0.0,0.99,0,-0,-0,0.05,,75,0,4,37,100,0.664,0.0,116,1.17,13.2,0.0,1,0.0,0.0,0.0,0,0,0,0,1,,,,,,,,,,,,,,,,,,,,
7183,0,,,248,251,238,232,,-0.05,0.0,0.99,0,-0,-0,0.05,,75,0,4,37,100,0.665,0.0,116,1.17,13.2,0.0,1,0.0,0.0,0.0,0,0,0,0,1,,,,,,,,,,,,,,,,,,,,
7203,0,,,248,250,238,232,,-0.05,0.0,0.99,0,-0,-0,0.05,,75,0,4,37,100,0.665,0.0,116,1.17,13.3,0.0,1,0.0,0.0,0.0,0,0,0,0,1,,,,,,,,,,,,,,,,,,,,
7223,0,,,248,251,237,233,,-0.05,0.0,0.99,0,-0,-0,0.05,,75,0,4,37,100,0.666,0.0,116,1.17,13.3,0.0,1,0.0,0.0,0.0,0,0,0,0,1,,,,,,,,,,,,,,,,,,,,
7243,0,0,1,248,251,238,232,-7,-0.05,0.0,0.99,0,-0,-0,0.05,1,75,0,4,37,100,0.665,0.0,116,1.16,13.3,0.0,1,0.0,0.0,0.0,0,0,0,0,1,0,250,250,0,0.0,0.0,0.0,0.0,0,0,0.0,0,0.0,-1,0.0,0.0,0.0,0,0.0,0.1207
7263,0,,,248,251,238,232,,-0.05,0.0,0.99,0,-0,-0,0.05,,75,0,4,37,100,0.666,0.0,116,1.16,13.2,0.0,1,0.0,0.0,0.0,0,0,0,0,1,,,,,,,,,,,,,,,,,,,,
7283,0,,,248,250,238,233,,-0.05,0.0,0.99,0,-0,-0,0.05,,75,0,4,37,100,0.666,0.0,116,1.16,13.2,0.0,1,0.0,0.0,0.0,0,0,0,0,0,,,,,,,,,,,,,,,,,,,,
7303,0,,,248,251,238,232,,-0.05,0.0,0.99,0,-0,-0,0.05,,75,0,4,37,100,0.667,0.0,116,1.16,13.2,0.0,1,0.0,0.0,0.0,0,0,0,0,0,,,,,,,,,,,,,,,,,,,,
7323,0,,,248,251,238,233,,-0.05,0.0,0.99,0,-0,-0,0.05,,75,0,4,37,100,0.668,0.0,116,1.16,13.2,0.0,1,0.0,0.0,0.0,0,0,0,0,0,,,,,,,,,,,,,,,,,,,,
7343,0,0,1,248,251,238,233,-8,-0.05,0.0,0.99,0,-0,-0,0.05,1,75,0,4,37,100,0.668,0.0,116,1.15,13.2,0.0,1,0.0,0.0,0.0,0,0,0,0,0,0,250,250,0,0.0,0.0,0.0,0.0,0,0,0.0,0,0.0,-1,0.0,,0.0,0,0.0,0.1224
7363,0,,,248,251,238,233,,-0.05,0.0,0.99,0,-0,-0,0.05,,75,0,4,37,100,0.668,0.0,116,1.16,13.3,0.0,1,0.0,0.0,0.0,0,0,0,0,0,,,,,,,,,,,,,,,,,,,,
7383,0,,,248,251,237,233,,-0.05,0.0,0.99,0,-0,-0,0.05,,75,0,4,37,100,0.668,0.0,116,1.16,13.3,0.0,1,0.0,0.0,0.0,0,0,0,0,0,,,,,,,,,,,,,,,,,,,,
7403,0,,,248,250,238,232,,-0.05,0.0,0.99,0,-0,-0,0.05,,75,0,4,37,100,0.668,0.0,116,1.15,13.3,0.0,1,0.0,0.0,0.0,0,0,0,0,0,,,,,,,,,,,,,,,,,,,,
7423,0,,,248,251,238,232,,-0.05,0.0,0.99,0,-0,-0,0.05,,75,0,4,37,100,0.668,0.0,116,1.15,13.2,0.0,1,0.0,0.0,0.0,0,0,0,0,0,,,,,,,,,,,,,,,,,,,,
7443,0,-0,3,248,251,237,232,-7,-0.05,0.0,0.99,0,-0,-0,0.05,1,75,0,4,37,100,0.668,0.0,116,1.15,13.2,0.0,1,0.0,0.0,0.0,0,0,0,0,0,0,250,250,0,0.0,0.0,0.0,0.0,0,0,0.0,0,0.0,-1,0.0,0.0,0.0,0,0.0,0.124
7463,0,,,248,250,238,232,,-0.05,0.0,0.99,0,-0,-0,0.05,,75,0,4,37,100,0.668,0.0,116,1.15,13.2,0.0,1,0.0,0.0,0.0,0,0,0,0,0,,,,,,,,,,,,,,,,,,,,
7483,0,,,248,251,238,232,,-0.05,0.0,0.99,0,-0,-0,0.05,,75,0,4,37,100,0.669,0.0,116,1.15,13.2,0.0,1,0.0,0.0,0.0,0,0,0,0,0,,,,,,,,,,,,,,,,,,,,
7503,0,,,248,251,237,232,,-0.05,0.0,0.99,0,-0,-0,0.05,,75,0,4,37,100,0.669,0.0,116,1.15,13.2,0.0,1,0.0,0.0,0.0,0,0,0,0,0,,,,,,,,,,,,,,,,,,,,
7523,0,,,248,251,237,233,,-0.05,0.0,0.99,0,-0,-0,0.05,,75,0,4,37,100,0.669,0.0,116,1.15,13.3,0.0,1,0.0,0.0,0.0,0,0,0,0,0,,,,,,,,,,,,,,,,,,,,
7543,0,0,1,248,251,237,233,-7,-0.05,0.0,0.99,0,-0,-0,0.05,1,75,0,4,37,99,0.668,0.0,116,1.15,13.3,0.0,1,0.0,0.0,0.0,0,0,0,0,0,0,250,250,0,0.0,0.0,0.0,0.0,0,0,0.0,0,0.0,-1,0.0,,0.0,0,0.0,0.1257
7563,0,,,248,251,237,232,,-0.05,0.0,0.99,0,-0,-0,0.05,,75,0,4,37,99,0.669,0.0,116,1.15,13.3,0.0,1,0.0,0.0,0.0,0,0,0,0,0,,,,,,,,,,,,,,,,,,,,
7583,0,,,248,251,237,233,,-0.05,0.0,0.99,0,-0,-0,0.05,,75,0,4,37,99,0.668,0.0,116,1.15,13.3,0.0,1,0.0,0.0,0.0,0,0,0,0,0,,,,,,,,,,,,,,,,,,,,
7603,0,,,248,251,238,232,,-0.05,0.0,0.99,0,-0,-0,0.05,,75,0,4,37,99,0.668,0.0,116,1.15,13.2,0.0,1,0.0,0.0,0.0,0,0,0,0,0,,,,,,,,,,,,,,,,,,,,
7623,0,,,248,251,238,232,,-0.05,0.0,0.99,0,-0,-0,0.05,,75,0,4,37,99,0.669,0.0,116,1.15,13.2,0.0,1,0.0,0.0,0.0,0,0,0,0,0,,,,,,,,,,,,,,,,,,,,
7643,0,-1,2,248,251,237,232,-7,-0.05,0.0,0.99,0,-0,-0,0.05,1,75,0,4,37,99,0.669,0.0,116,1.15,13.2,0.0,1,0.0,0.0,0.0,0,0,0,0,0,0,250,250,0,0.0,0.0,0.0,0.0,0,0,0.0,0,0.0,-1,0.0,0.0,0.0,0,0.0,0.1274
7663,0,,,248,251,237,233,,-0.05,0.0,0.99,0,0,-0,0.05,,75,0,4,37,99,0.669,0.0,115,1.15,13.2,0.0,1,0.0,0.0,0.0,0,0,0,0,0,,,,,,,,,,,,,,,,,,,,
7683,0,,,248,251,238,233,,-0.05,0.0,0.99,0,0,-0,0.05,,75,0,4,37,99,0.669,0.0,116,1.15,13.2,0.0,1,0.0,0.0,0.0,0,0,0,0,0,,,,,,,,,,,,,,,,,,,,
7703,0,,,248,251,238,233,,-0.05,0.0,0.99,0,0,-0,0.05,,75,0,4,37,99,0.669,0.0,116,1.14,13.3,0.0,1,0.0,0.0,0.0,0,0,0,0,0,,,,,,,,,,,,,,,,,,,,
7723,0,,,248,251,238,232,,-0.05,0.0,0.99,0,0,-0,0.05,,75,0,4,37,99,0.669,0.0,116,1.14,13.3,0.0,1,0.0,0.0,0.0,0,0,0,0,0,,,,,,,,,,,,,,,,,,,,
7743,0,0,0,248,251,237,232,-7,-0.05,0.0,0.99,0,0,-0,0.05,1,75,0,4,37,99,0.669,0.0,116,1.14,13.3,0.0,1,0.0,0.0,0.0,0,0,0,0,0,0,250,250,0,0.0,0.0,0.0,0.0,0,0,0.0,0,0.0,-1,0.0,,0.0,0,0.0,0.129
7763,0,,,248,251,237,232,,-0.05,0.0,0.99,0,-0,-0,0.05,,75,0,4,37,99,0.669,0.0,116,1.14,13.2,0.0,1,0.0,0.0,0.0,0,0,0,0,0,,,,,,,,,,,,,,,,,,,,
7783,0,,,248,251,238,232,,-0.05,0.0,0.99,0,-0,-0,0.05,,75,0,4,37,99,0.67,0.0,116,1.14,13.2,0.0,1,0.0,0.0,0.0,0,0,0,0,0,,,,,,,,,,,,,,,,,,,,
7803,0,,,248,251,237,233,,-0.05,0.0,0.99,0,-0,-0,0.05,,75,0,4,37,99,0.67,0.0,116,1.14,13.2,0.0,1,0.0,0.0,0.0,0,0,0,0,0,,,,,,,,,,,,,,,,,,,,
7823,0,,,248,251,238,232,,-0.05,0.0,0.99,0,-0,-0,0.05,,75,0,4,37,99,0.67,0.0,116,1.13,13.2,0.0,1,0.0,0.0,0.0,0,0,0,0,0,,,,,,,,,,,,,,,,,,,,
7843,0,-1,2,248,250,238,233,-7,-0.05,0.0,0.99,0,-0,-0,0.05,1,75,0,4,37,99,0.67,0.0,116,1.13,13.2,0.0,1,0.0,0.0,0.0,0,0,0,0,0,0,250,250,0,0.0,0.0,0.0,0.0,0,0,0.0,0,0.0,-1,0.0,0.0,0.0,0,0.0,0.1307
7863,0,,,248,250,238,232,,-0.05,0.0,0.99,0,-0,-0,0.05,,75,0,4,37,99,0.671,0.0,116,1.13,13.2,0.0,1,0.0,0.0,0.0,0,0,0,0,0,,,,,,,,,,,,,,,,,,,,
7883,0,,,248,251,238,232,,-0.05,0.0,0.99,0,-0,-0,0.05,,75,0,4,37,99,0.671,0.0,116,1.13,13.3,0.0,1,0.0,0.0,0.0,0,0,0,0,0,,,,,,,,,,,,,,,,,,,,
7903,0,,,248,251,238,232,,-0.05,0.0,0.99,0,-0,-0,0.05,,75,0,4,37,99,0.671,0.0,116,1.13,13.3,0.0,1,0.0,0.0,0.0,0,0,0,0,0,,,,,,,,,,,,,,,,,,,,
7923,0,,,248,251,238,233,,-0.05,0.0,0.99,0,-0,-0,0.05,,75,0,4,37,99,0.671,0.0,116,1.13,13.2,0.0,1,0.0,0.0,0.0,0,0,0,0,0,,,,,,,,,,,,,,,,,,,,
7943,0,1,2,248,251,238,233,-7,-0.05,0.0,0.99,0,-0,-0,0.05,1,75,0,4,37,100,0.671,0.0,116,1.13,13.2,0.0,1,0.0,0.0,0.0,0,0,0,0,0,0,250,250,0,0.0,0.0,0.0,0.0,0,0,0.0,0,0.0,-1,0.0,,0.0,0,0.0,0.1324
