"Interval"|"ms"|0|0|1,"Utc"|"ms"|0|0|1,"Brake_F"|"Bar"|0|2000|10,"Brake_R"|"Bar"|0|2000|10,"Height_RF"|"mm"|0|255|50,"Height_LF"|"mm"|0|255|50,"Height_LR"|"mm"|0|80|50,"Height_RR"|"mm"|0|255|50,"Steering"|"deg"|-100|100|10,"AccelX"|"G"|-3.0|3.0|50,"AccelY"|"G"|-3.0|3.0|50,"AccelZ"|"G"|-3.0|3.0|50,"Yaw"|"Deg/Sec"|-120|120|50,"Pitch"|"Deg/Sec"|-120|120|50,"Roll"|"Deg/Sec"|-120|120|50,"Gsum"|"G"|0.0|3.0|50,"Log_Button"|""|0.0|10.0|10,"WaterTemp"|"C"|0|150|50,"RPM"|"tr/min"|0|14000|50,"TPS"|"%"|0|100|50,"AirTemp"|"C"|0|150|50,"MAP"|"KPa"|0|100|50,"Lambda"|""|0.5|1.5|50,"SpeedDTA"|"kph"|0.0|250.0|50,"OilPress"|"KPa"|0|1500|50,"FuelPressur"|"Bar"|0.0|10.0|50,"Batterie"|"V"|0.0|20.0|50,"ConsoKm"|"L/100km"|0.0|200.0|50,"Gear"|""|0|6|50,"AdvIgnition"|"Deg"|-20.0|70.0|50,"Injection"|"ms"|0.0|10.0|50,"ConsoHr"|"L/Hr"|0.0|10000.0|50,"LC_But_Pres"|""|0|1|50,"LC_Active"|""|0|1|50,"TractionOn"|""|0|1|50,"TractionWet"|""|0|1|50,"FanOn"|""|0|1|50,"RD_Speed"|"km/h"|-30|250|10,"RUD_Speed"|"km/h"|-30|250|10,"LD_Speed"|"km/h"|-30|250|10,"LUD_Speed"|"km/h"|-30|250|10,"Latitude"|"Degrees"|-180.0|180.0|10,"Longitude"|"Degrees"|-180.0|180.0|10,"Speed"|"kph"|0.0|150.0|10,"Altitude"|"m"|0.0|4000.0|10,"GPSSats"|""|0|20|10,"GPSQual"|""|0|5|10,"GPSDOP"|""|0.0|20.0|10,"LapCount"|""|0|0|10,"LapTime"|"Min"|0.0|0.0|10,"Sector"|""|0|0|10,"SectorTime"|"Min"|0.0|0.0|10,"PredTime"|"Min"|0.0|0.0|5,"ElapsedTime"|"Min"|0.0|0.0|10,"CurrentLap"|""|0|0|10,"Distance"|"km"|0.0|0.0|10,"SessionTime"|"Min"|0.0|0.0|10
1064,0,,,247,251,237,233,,-0.04,0.03,0.98,-0,-0,-0,0.05,,0,0,0,0,0,0.0,0.0,0,0.0,0.0,0.0,0,0.0,0.0,0.0,0,0,0,0,0,,,,,,,,,,,,,,,,,,,,
1084,0,,,247,251,237,233,,-0.04,0.03,0.97,-0,-0,-0,0.05,,0,0,0,0,0,0.0,0.0,0,0.0,0.0,0.0,0,0.0,0.0,0.0,0,0,0,0,0,,,,,,,,,,,,,,,,,,,,
1104,0,,,247,251,237,232,,-0.04,0.03,0.98,-0,-0,-0,0.05,,0,0,0,0,0,0.0,0.0,0,0.0,0.0,0.0,0,0.0,0.0,0.0,0,0,0,0,0,,,,,,,,,,,,,,,,,,,,
1124,0,,,247,251,237,233,,-0.04,0.03,0.98,-0,-0,-0,0.05,,0,0,0,0,0,0.0,0.0,0,0.0,0.0,0.0,0,0.0,0.0,0.0,0,0,0,0,0,,,,,,,,,,,,,,,,,,,,
1144,0,4,4,247,251,237,233,4,-0.04,0.03,0.98,-0,-0,-0,0.05,1,0,0,0,0,0,0.0,0.0,0,0.0,0.0,0.0,0,0.0,0.0,0.0,0,0,0,0,0,0,0,0,0,0.0,0.0,0.0,0.0,0,0,0.0,0,0.0,-1,0.0,,0.0,0,0.0,0.0191
1164,0,,,247,251,237,232,,-0.04,0.03,0.98,-0,-0,-0,0.05,,0,0,0,0,0,0.0,0.0,0,0.0,0.0,0.0,0,0.0,0.0,0.0,0,0,0,0,0,,,,,,,,,,,,,,,,,,,,
1184,0,,,247,251,237,232,,-0.04,0.03,0.98,-0,-0,-0,0.05,,0,0,0,0,0,0.0,0.0,0,0.0,0.0,0.0,0,0.0,0.0,0.0,0,0,0,0,0,,,,,,,,,,,,,,,,,,,,
1204,0,,,247,251,237,233,,-0.04,0.03,0.98,-0,-0,-0,0.05,,0,0,0,0,0,0.0,0.0,0,0.0,0.0,0.0,0,0.0,0.0,0.0,0,0,0,0,0,,,,,,,,,,,,,,,,,,,,
1224,0,,,247,251,237,233,,-0.04,0.03,0.98,-0,-0,-0,0.05,,0,0,0,0,0,0.0,0.0,0,0.0,0.0,0.0,0,0.0,0.0,0.0,0,0,0,0,0,,,,,,,,,,,,,,,,,,,,
1244,0,5,3,247,251,237,232,4,-0.04,0.03,0.98,-0,-0,-0,0.05,1,0,0,0,0,0,0.0,0.0,0,0.0,0.0,0.0,0,0.0,0.0,0.0,0,0,0,0,0,0,0,0,0,0.0,0.0,0.0,0.0,0,0,0.0,0,0.0,-1,0.0,0.0,0.0,0,0.0,0.0207
1264,0,,,247,251,237,232,,-0.04,0.03,0.98,-0,-0,-0,0.05,,0,0,0,0,0,0.0,0.0,0,0.0,0.0,0.0,0,0.0,0.0,0.0,0,0,0,0,0,,,,,,,,,,,,,,,,,,,,
1284,0,,,247,251,237,232,,-0.04,0.03,0.98,-0,-0,-0,0.04,,0,0,0,0,0,0.0,0.0,0,0.0,0.0,0.0,0,0.0,0.0,0.0,0,0,0,0,0,,,,,,,,,,,,,,,,,,,,
1304,0,,,247,251,237,233,,-0.04,0.03,0.98,-0,-0,-0,0.04,,0,0,0,0,0,0.0,0.0,0,0.0,0.0,0.0,0,0.0,0.0,0.0,0,0,0,0,0,,,,,,,,,,,,,,,,,,,,
1324,0,,,247,251,237,232,,-0.04,0.03,0.98,-0,-0,-0,0.05,,0,0,0,0,0,0.0,0.0,0,0.0,0.0,0.0,0,0.0,0.0,0.0,0,0,0,0,0,,,,,,,,,,,,,,,,,,,,
1344,0,5,5,247,251,237,232,4,-0.04,0.02,0.98,-0,-0,-0,0.05,1,0,0,0,0,0,0.0,0.0,0,0.0,0.0,0.0,0,0.0,0.0,0.0,0,0,0,0,0,0,0,0,0,0.0,0.0,0.0,0.0,0,0,0.0,0,0.0,-1,0.0,,0.0,0,0.0,0.0224
1364,0,,,247,251,237,232,,-0.04,0.02,0.98,-0,-0,-0,0.05,,0,0,0,0,0,0.0,0.0,0,0.0,0.0,0.0,0,0.0,0.0,0.0,0,0,0,0,0,,,,,,,,,,,,,,,,,,,,
1384,0,,,247,251,237,232,,-0.04,0.03,0.98,-0,-0,-0,0.05,,0,0,0,0,0,0.0,0.0,0,0.0,0.0,0.0,0,0.0,0.0,0.0,0,0,0,0,0,,,,,,,,,,,,,,,,,,,,
1404,0,,,247,251,237,233,,-0.04,0.03,0.98,-0,-0,-0,0.05,,0,0,0,0,0,0.0,0.0,0,0.0,0.0,0.0,0,0.0,0.0,0.0,0,0,0,0,0,,,,,,,,,,,,,,,,,,,,
1424,0,,,247,251,237,232,,-0.04,0.03,0.97,-0,-0,-0,0.05,,0,0,0,0,0,0.0,0.0,0,0.0,0.0,0.0,0,0.0,0.0,0.0,0,0,0,0,0,,,,,,,,,,,,,,,,,,,,
1444,0,5,4,247,251,237,233,4,-0.04,0.03,0.97,-0,-0,-0,0.05,1,0,0,0,0,0,0.0,0.0,0,0.0,0.0,0.0,0,0.0,0.0,0.0,0,0,0,0,0,0,0,0,0,0.0,0.0,0.0,0.0,0,0,0.0,0,0.0,-1,0.0,0.0,0.0,0,0.0,0.0241
1464,0,,,247,251,237,232,,-0.04,0.03,0.97,-0,-0,-0,0.05,,0,0,0,0,0,0.0,0.0,0,0.0,0.0,0.0,0,0.0,0.0,0.0,0,0,0,0,0,,,,,,,,,,,,,,,,,,,,
1484,0,,,247,251,237,233,,-0.04,0.03,0.97,-0,-0,-0,0.05,,0,0,0,0,0,0.0,0.0,0,0.0,0.0,0.0,0,0.0,0.0,0.0,0,0,0,0,0,,,,,,,,,,,,,,,,,,,,
1504,0,,,247,251,237,233,,-0.04,0.03,0.97,-0,-0,-0,0.05,,0,0,0,0,0,0.0,0.0,0,0.0,0.0,0.0,0,0.0,0.0,0.0,0,0,0,0,0,,,,,,,,,,,,,,,,,,,,
1524,0,,,247,251,237,233,,-0.04,0.03,0.98,-0,-0,-0,0.05,,0,0,0,0,0,0.0,0.0,0,0.0,0.0,0.0,0,0.0,0.0,0.0,0,0,0,0,0,,,,,,,,,,,,,,,,,,,,
1544,0,5,3,247,251,237,233,3,-0.04,0.03,0.98,-0,-0,-0,0.05,1,0,0,0,0,0,0.0,0.0,0,0.0,0.0,0.0,0,0.0,0.0,0.0,0,0,0,0,0,0,0,0,0,0.0,0.0,0.0,0.0,0,0,0.0,0,0.0,-1,0.0,,0.0,0,0.0,0.0257
1564,0,,,247,251,237,233,,-0.04,0.03,0.97,-0,-0,-0,0.05,,0,0,0,0,0,0.0,0.0,0,0.0,0.0,0.0,0,0.0,0.0,0.0,0,0,0,0,0,,,,,,,,,,,,,,,,,,,,
1584,0,,,247,251,237,232,,-0.04,0.03,0.97,-0,-0,-0,0.05,,0,0,0,0,0,0.0,0.0,0,0.0,0.0,0.0,0,0.0,0.0,0.0,0,0,0,0,0,,,,,,,,,,,,,,,,,,,,
1604,0,,,247,251,237,232,,-0.04,0.03,0.97,-0,-0,-0,0.05,,0,0,0,0,0,0.0,0.0,0,0.0,0.0,0.0,0,0.0,0.0,0.0,0,0,0,0,0,,,,,,,,,,,,,,,,,,,,
1624,0,,,247,251,237,232,,-0.04,0.03,0.97,-0,-0,-0,0.05,,0,0,0,0,0,0.0,0.0,0,0.0,0.0,0.0,0,0.0,0.0,0.0,0,0,0,0,0,,,,,,,,,,,,,,,,,,,,
1644,0,5,4,247,251,237,233,4,-0.04,0.03,0.97,-0,-0,-0,0.05,1,0,0,0,0,0,0.0,0.0,0,0.0,0.0,0.0,0,0.0,0.0,0.0,0,0,0,0,0,0,0,0,0,0.0,0.0,0.0,0.0,0,0,0.0,0,0.0,-1,0.0,0.0,0.0,0,0.0,0.0274
1664,0,,,247,251,237,232,,-0.04,0.03,0.97,-0,-0,-0,0.05,,0,0,0,0,0,0.0,0.0,0,0.0,0.0,0.0,0,0.0,0.0,0.0,0,0,0,0,0,,,,,,,,,,,,,,,,,,,,
1684,0,,,247,251,237,233,,-0.04,0.03,0.98,-0,-0,-0,0.05,,0,0,0,0,0,0.0,0.0,0,0.0,0.0,0.0,0,0.0,0.0,0.0,0,0,0,0,0,,,,,,,,,,,,,,,,,,,,
1704,0,,,247,251,237,233,,-0.04,0.03,0.97,-0,-0,-0,0.05,,0,0,0,0,0,0.0,0.0,0,0.0,0.0,0.0,0,0.0,0.0,0.0,0,0,0,0,0,,,,,,,,,,,,,,,,,,,,
1724,0,,,247,251,237,233,,-0.04,0.03,0.98,-0,-0,-0,0.05,,0,0,0,0,0,0.0,0.0,0,0.0,0.0,0.0,0,0.0,0.0,0.0,0,0,0,0,0,,,,,,,,,,,,,,,,,,,,
1744,0,5,3,247,251,237,232,4,-0.04,0.03,0.97,-0,-0,-0,0.05,1,0,0,0,0,0,0.0,0.0,0,0.0,0.0,0.0,0,0.0,0.0,0.0,0,0,0,0,0,0,0,0,0,0.0,0.0,0.0,0.0,0,0,0.0,0,0.0,-1,0.0,,0.0,0,0.0,0.0291
1764,0,,,247,251,237,233,,-0.04,0.03,0.98,-0,-0,-0,0.05,,0,0,0,0,0,0.0,0.0,0,0.0,0.0,0.0,0,0.0,0.0,0.0,0,0,0,0,0,,,,,,,,,,,,,,,,,,,,
1784,0,,,247,251,237,233,,-0.04,0.03,0.98,-0,-0,-0,0.05,,0,0,0,0,0,0.0,0.0,0,0.0,0.0,0.0,0,0.0,0.0,0.0,0,0,0,0,0,,,,,,,,,,,,,,,,,,,,
1804,0,,,247,251,237,233,,-0.04,0.03,0.98,-0,-0,-0,0.05,,0,0,0,0,0,0.0,0.0,0,0.0,0.0,0.0,0,0.0,0.0,0.0,0,0,0,0,0,,,,,,,,,,,,,,,,,,,,
1824,0,,,247,251,237,233,,-0.04,0.03,0.98,-0,-0,-0,0.05,,0,0,0,0,0,0.0,0.0,0,0.0,0.0,0.0,0,0.0,0.0,0.0,0,0,0,0,0,,,,,,,,,,,,,,,,,,,,
1844,0,4,5,247,251,237,233,4,-0.04,0.03,0.98,-0,-0,-0,0.05,1,0,0,0,0,0,0.0,0.0,0,0.0,0.0,0.0,0,0.0,0.0,0.0,0,0,0,0,0,0,0,0,0,0.0,0.0,0.0,0.0,0,0,0.0,0,0.0,-1,0.0,0.0,0.0,0,0.0,0.0307
1864,0,,,247,251,237,232,,-0.04,0.03,0.98,-0,-0,-0,0.05,,0,0,0,0,0,0.0,0.0,0,0.0,0.0,0.0,0,0.0,0.0,0.0,0,0,0,0,0,,,,,,,,,,,,,,,,,,,,
1884,0,,,247,251,237,233,,-0.04,0.03,0.98,-0,-0,-0,0.05,,0,0,0,0,0,0.0,0.0,0,0.0,0.0,0.0,0,0.0,0.0,0.0,0,0,0,0,0,,,,,,,,,,,,,,,,,,,,
1904,0,,,247,251,237,233,,-0.04,0.03,0.98,-0,-0,-0,0.05,,0,0,0,0,0,0.0,0.0,0,0.0,0.0,0.0,0,0.0,0.0,0.0,0,0,0,0,0,,,,,,,,,,,,,,,,,,,,
1924,0,,,247,251,237,233,,-0.04,0.03,0.97,-0,-0,-0,0.05,,0,0,0,0,0,0.0,0.0,0,0.0,0.0,0.0,0,0.0,0.0,0.0,0,0,0,0,0,,,,,,,,,,,,,,,,,,,,
1944,0,5,5,247,251,237,233,3,-0.04,0.03,0.97,-0,-0,-0,0.05,1,0,0,0,0,0,0.0,0.0,0,0.0,0.0,0.0,0,0.0,0.0,0.0,0,0,0,0,0,0,0,0,0,0.0,0.0,0.0,0.0,0,0,0.0,0,0.0,-1,0.0,,0.0,0,0.0,0.0324
1964,0,,,247,251,237,232,,-0.04,0.03,0.97,-0,-0,-0,0.05,,0,0,0,0,0,0.0,0.0,0,0.0,0.0,0.0,0,0.0,0.0,0.0,0,0,0,0,0,,,,,,,,,,,,,,,,,,,,
1984,0,,,247,251,237,233,,-0.04,0.03,0.97,-0,-0,-0,0.05,,0,0,0,0,0,0.0,0.0,0,0.0,0.0,0.0,0,0.0,0.0,0.0,0,0,0,0,0,,,,,,,,,,,,,,,,,,,,
2004,0,,,247,251,237,233,,-0.04,0.03,0.97,-0,-0,-0,0.05,,0,0,0,0,0,0.0,0.0,0,0.0,0.0,0.0,0,0.0,0.0,0.0,0,0,0,0,0,,,,,,,,,,,,,,,,,,,,
2024,0,,,247,251,237,233,,-0.04,0.03,0.97,-0,-0,-0,0.05,,0,0,0,0,0,0.0,0.0,0,0.0,0.0,0.0,0,0.0,0.0,0.0,0,0,0,0,0,,,,,,,,,,,,,,,,,,,,
2044,0,4,5,247,251,237,233,4,-0.04,0.03,0.97,-0,-0,-0,0.05,1,0,0,0,0,0,0.0,0.0,0,0.0,0.0,0.0,0,0.0,0.0,0.0,0,0,0,0,0,0,0,0,0,0.0,0.0,0.0,0.0,0,0,0.0,0,0.0,-1,0.0,0.0,0.0,0,0.0,0.0341
2064,0,,,247,251,237,232,,-0.04,0.03,0.97,-0,-0,-0,0.05,,0,0,0,0,0,0.0,0.0,0,0.0,0.0,0.0,0,0.0,0.0,0.0,0,0,0,0,0,,,,,,,,,,,,,,,,,,,,
2084,0,,,247,251,237,232,,-0.04,0.03,0.98,-0,-0,-0,0.05,,0,0,0,0,0,0.0,0.0,0,0.0,0.0,0.0,0,0.0,0.0,0.0,0,0,0,0,0,,,,,,,,,,,,,,,,,,,,
2104,0,,,247,251,237,233,,-0.04,0.03,0.98,-0,-0,-0,0.05,,0,0,0,0,0,0.0,0.0,0,0.0,0.0,0.0,0,0.0,0.0,0.0,0,0,0,0,0,,,,,,,,,,,,,,,,,,,,
2124,0,,,247,251,237,233,,-0.04,0.03,0.98,-0,-0,-0,0.05,,0,0,0,0,0,0.0,0.0,0,0.0,0.0,0.0,0,0.0,0.0,0.0,0,0,0,0,0,,,,,,,,,,,,,,,,,,,,
2144,0,5,4,247,251,237,233,4,-0.04,0.03,0.98,-0,-0,-0,0.05,1,0,0,0,0,0,0.0,0.0,0,0.0,0.0,0.0,0,0.0,0.0,0.0,0,0,0,0,0,0,0,0,0,0.0,0.0,0.0,0.0,0,0,0.0,0,0.0,-1,0.0,,0.0,0,0.0,0.0357
2164,0,,,247,251,237,232,,-0.04,0.02,0.98,-0,-0,-0,0.05,,46,0,4,24,99,0.5,0.0,110,4.88,13.0,0.0,1,0.0,0.0,0.0,0,0,0,1,0,,,,,,,,,,,,,,,,,,,,
2184,0,,,247,251,237,232,,-0.04,0.02,0.98,-0,-0,-0,0.05,,46,0,4,24,99,0.5,0.0,110,4.88,12.9,0.0,1,0.0,0.0,0.0,0,0,0,1,0,,,,,,,,,,,,,,,,,,,,
2204,0,,,247,251,237,233,,-0.04,0.03,0.98,-0,-0,-0,0.05,,46,0,4,24,99,0.5,0.0,110,4.88,12.9,0.0,1,0.0,0.0,0.0,0,0,0,1,0,,,,,,,,,,,,,,,,,,,,
2224,0,,,247,251,237,233,,-0.04,0.02,0.98,-0,-0,-0,0.05,,46,0,4,24,99,0.5,0.0,110,4.88,12.9,0.0,1,0.0,0.0,0.0,0,0,0,1,0,,,,,,,,,,,,,,,,,,,,
2244,0,4,5,247,251,237,233,4,-0.04,0.02,0.98,-0,-0,-0,0.05,1,46,0,4,24,99,0.5,0.0,110,4.88,12.9,0.0,1,0.0,0.0,0.0,0,0,0,1,0,0,250,250,0,0.0,0.0,0.0,0.0,0,0,0.0,0,0.0,-1,0.0,0.0,0.0,0,0.0,0.0374
2264,0,,,247,251,237,233,,-0.04,0.03,0.97,-0,-0,-0,0.05,,46,0,4,24,99,0.5,0.0,110,4.87,12.9,0.0,1,0.0,0.0,0.0,0,0,0,1,0,,,,,,,,,,,,,,,,,,,,
2284,0,,,247,251,237,233,,-0.04,0.03,0.97,-0,-0,-0,0.05,,46,0,4,24,99,0.501,0.0,110,4.87,12.9,0.0,1,0.0,0.0,0.0,0,0,0,1,0,,,,,,,,,,,,,,,,,,,,
2304,0,,,247,251,237,232,,-0.04,0.03,0.98,-0,-0,-0,0.05,,46,0,4,24,99,0.501,0.0,110,4.87,12.9,0.0,1,0.0,0.0,0.0,0,0,0,1,0,,,,,,,,,,,,,,,,,,,,
2324,0,,,247,251,237,233,,-0.04,0.03,0.97,-0,-0,-0,0.05,,46,0,4,24,99,0.502,0.0,110,4.86,12.8,0.0,1,0.0,0.0,0.0,0,0,0,1,0,,,,,,,,,,,,,,,,,,,,
2344,0,5,3,247,251,237,233,4,-0.04,0.03,0.98,-0,-0,-0,0.05,1,46,0,4,24,99,0.506,0.0,110,4.87,12.8,0.0,1,0.0,0.0,0.0,0,0,0,1,0,0,250,250,0,0.0,0.0,0.0,0.0,0,0,0.0,0,0.0,-1,0.0,,0.0,0,0.0,0.0391
2364,0,,,247,251,237,233,,-0.04,0.03,0.97,-0,-0,-0,0.05,,46,0,4,24,99,0.511,0.0,110,4.88,12.8,0.0,1,0.0,0.0,0.0,0,0,0,1,0,,,,,,,,,,,,,,,,,,,,
2384,0,,,247,251,237,233,,-0.04,0.03,0.97,-0,-0,-0,0.05,,46,0,4,24,99,0.515,0.0,110,4.87,12.8,0.0,1,0.0,0.0,0.0,0,0,0,1,0,,,,,,,,,,,,,,,,,,,,
2404,0,,,247,251,237,232,,-0.04,0.03,0.97,-0,-0,-0,0.05,,46,0,4,24,99,0.52,0.0,110,4.88,12.8,0.0,1,0.0,0.0,0.0,0,0,0,1,0,,,,,,,,,,,,,,,,,,,,
2424,0,,,247,251,237,232,,-0.04,0.03,0.97,-0,-0,-0,0.05,,46,0,4,24,99,0.523,0.0,110,4.88,12.8,0.0,1,0.0,0.0,0.0,0,0,0,1,0,,,,,,,,,,,,,,,,,,,,
2444,0,5,4,247,251,237,233,4,-0.04,0.03,0.98,-0,-0,-0,0.05,1,46,0,4,24,99,0.528,0.0,110,4.88,12.8,0.0,1,0.0,0.0,0.0,0,0,0,1,0,0,250,250,0,0.0,0.0,0.0,0.0,0,0,0.0,0,0.0,-1,0.0,0.0,0.0,0,0.0,0.0407
2464,0,,,247,251,237,232,,-0.04,0.03,0.97,-0,-0,-0,0.05,,46,0,4,24,99,0.534,0.0,110,4.88,12.8,0.0,1,0.0,0.0,0.0,0,0,0,1,0,,,,,,,,,,,,,,,,,,,,
2484,0,,,247,251,237,233,,-0.04,0.03,0.97,-0,-0,-0,0.05,,46,0,4,24,99,0.539,0.0,110,4.87,12.8,0.0,1,0.0,0.0,0.0,0,0,0,1,0,,,,,,,,,,,,,,,,,,,,
2504,0,,,247,251,237,233,,-0.04,0.03,0.98,-0,-0,-0,0.05,,46,0,4,24,99,0.544,0.0,110,4.88,12.8,0.0,1,0.0,0.0,0.0,0,0,0,1,0,,,,,,,,,,,,,,,,,,,,
2524,0,,,247,251,237,233,,-0.04,0.03,0.98,-0,-0,-0,0.05,,46,0,4,24,99,0.549,0.0,110,4.88,12.8,0.0,1,0.0,0.0,0.0,0,0,0,1,0,,,,,,,,,,,,,,,,,,,,
2544,0,5,3,247,251,237,233,4,-0.04,0.03,0.98,-0,-0,-0,0.04,1,46,0,4,24,99,0.552,0.0,110,4.87,12.9,0.0,1,0.0,0.0,0.0,0,0,0,1,0,0,250,250,0,0.0,0.0,0.0,0.0,0,0,0.0,0,0.0,-1,0.0,,0.0,0,0.0,0.0424
2564,0,,,247,251,237,233,,-0.04,0.03,0.98,-0,-0,-0,0.05,,46,0,4,24,99,0.555,0.0,110,4.88,12.9,0.0,1,0.0,0.0,0.0,0,0,0,1,0,,,,,,,,,,,,,,,,,,,,
2584,0,,,247,251,237,233,,-0.04,0.03,0.98,-0,-0,-0,0.05,,46,0,4,24,99,0.556,0.0,110,4.87,12.9,0.0,1,0.0,0.0,0.0,0,0,0,1,0,,,,,,,,,,,,,,,,,,,,
2604,0,,,247,251,237,232,,-0.04,0.03,0.97,-0,-0,-0,0.05,,46,0,4,24,99,0.556,0.0,110,4.88,12.9,0.0,1,0.0,0.0,0.0,0,0,0,1,0,,,,,,,,,,,,,,,,,,,,
2624,0,,,247,251,237,233,,-0.04,0.03,0.97,-0,-0,-0,0.05,,46,0,4,24,99,0.555,0.0,110,4.87,12.9,0.0,1,0.0,0.0,0.0,0,0,0,1,0,,,,,,,,,,,,,,,,,,,,
2644,0,5,3,247,251,237,233,4,-0.04,0.03,0.97,-0,-0,-0,0.05,1,46,0,4,24,99,0.554,0.0,110,4.88,12.9,0.0,1,0.0,0.0,0.0,0,0,0,1,0,0,250,250,0,0.0,0.0,0.0,0.0,0,0,0.0,0,0.0,-1,0.0,0.0,0.0,0,0.0,0.0441
2664,0,,,247,251,237,233,,-0.04,0.03,0.97,-0,-0,-0,0.05,,46,0,4,24,99,0.553,0.0,110,4.87,12.9,0.0,1,0.0,0.0,0.0,0,0,0,1,0,,,,,,,,,,,,,,,,,,,,
2684,0,,,247,251,237,233,,-0.04,0.03,0.98,-0,-0,-0,0.05,,46,0,4,24,99,0.551,0.0,110,4.88,12.9,0.0,1,0.0,0.0,0.0,0,0,0,1,0,,,,,,,,,,,,,,,,,,,,
2704,0,,,247,251,237,233,,-0.04,0.03,0.97,-0,-0,-0,0.05,,46,0,4,24,99,0.55,0.0,110,4.88,12.9,0.0,1,0.0,0.0,0.0,0,0,0,1,0,,,,,,,,,,,,,,,,,,,,
2724,0,,,247,251,237,232,,-0.04,0.03,0.98,-0,-0,-0,0.05,,46,0,4,24,99,0.549,0.0,110,4.88,12.9,0.0,1,0.0,0.0,0.0,0,0,0,1,0,,,,,,,,,,,,,,,,,,,,
2744,0,3,5,247,251,237,232,5,-0.04,0.03,0.97,-0,-0,-0,0.05,1,46,0,4,24,99,0.548,0.0,110,4.88,12.9,0.0,1,0.0,0.0,0.0,0,0,0,1,0,0,250,250,0,0.0,0.0,0.0,0.0,0,0,0.0,0,0.0,-1,0.0,,0.0,0,0.0,0.0457
2764,0,,,247,251,237,233,,-0.04,0.03,0.98,-0,-0,-0,0.05,,46,0,4,24,99,0.546,0.0,110,4.88,12.9,0.0,1,0.0,0.0,0.0,0,0,0,1,0,,,,,,,,,,,,,,,,,,,,
2784,0,,,247,251,237,233,,-0.04,0.03,0.97,-0,-0,-0,0.05,,46,0,4,24,99,0.545,0.0,110,4.88,12.9,0.0,1,0.0,0.0,0.0,0,0,0,1,0,,,,,,,,,,,,,,,,,,,,
2804,0,,,247,251,237,233,,-0.04,0.03,0.98,-0,-0,-0,0.05,,46,0,4,24,99,0.545,0.0,110,4.88,12.9,0.0,1,0.0,0.0,0.0,0,0,0,1,0,,,,,,,,,,,,,,,,,,,,
2824,0,,,247,251,237,233,,-0.04,0.03,0.98,-0,-0,-0,0.05,,46,0,4,24,99,0.544,0.0,110,4.88,12.9,0.0,1,0.0,0.0,0.0,0,0,0,1,0,,,,,,,,,,,,,,,,,,,,
2844,0,5,3,247,251,237,232,5,-0.04,0.03,0.97,-0,-0,-0,0.05,1,46,0,4,24,99,0.546,0.0,110,4.88,12.9,0.0,1,0.0,0.0,0.0,0,0,0,1,0,0,250,250,0,0.0,0.0,0.0,0.0,0,0,0.0,0,0.0,-1,0.0,0.0,0.0,0,0.0,0.0474
2864,0,,,247,251,237,233,,-0.04,0.03,0.98,-0,-0,-0,0.05,,46,0,4,24,99,0.546,0.0,110,4.88,12.9,0.0,1,0.0,0.0,0.0,0,0,0,1,0,,,,,,,,,,,,,,,,,,,,
2884,0,,,247,251,237,233,,-0.04,0.03,0.98,-0,-0,-0,0.05,,46,0,4,24,99,0.547,0.0,110,4.88,12.9,0.0,1,0.0,0.0,0.0,0,0,0,1,0,,,,,,,,,,,,,,,,,,,,
2904,0,,,247,251,237,233,,-0.04,0.03,0.98,-0,-0,-0,0.05,,46,0,4,24,99,0.548,0.0,110,4.87,12.9,0.0,1,0.0,0.0,0.0,0,0,0,1,0,,,,,,,,,,,,,,,,,,,,
2924,0,,,247,251,237,233,,-0.04,0.03,0.98,-0,-0,-0,0.05,,46,0,4,24,99,0.549,0.0,110,4.87,12.9,0.0,1,0.0,0.0,0.0,0,0,0,1,0,,,,,,,,,,,,,,,,,,,,
2944,0,6,3,247,251,237,232,4,-0.04,0.03,0.98,-0,-0,-0,0.05,1,46,0,4,24,99,0.55,0.0,110,4.87,12.9,0.0,1,0.0,0.0,0.0,0,0,0,1,0,0,250,250,0,0.0,0.0,0.0,0.0,0,0,0.0,0,0.0,-1,0.0,,0.0,0,0.0,0.0491
2964,0,,,247,251,237,232,,-0.04,0.03,0.98,-0,-0,-0,0.05,,46,0,4,24,99,0.551,0.0,110,4.87,12.9,0.0,1,0.0,0.0,0.0,0,0,0,1,0,,,,,,,,,,,,,,,,,,,,
2984,0,,,247,251,237,233,,-0.04,0.03,0.98,-0,-0,-0,0.05,,46,0,4,24,99,0.553,0.0,110,4.88,12.9,0.0,1,0.0,0.0,0.0,0,0,0,1,0,,,,,,,,,,,,,,,,,,,,
3004,0,,,247,251,237,232,,-0.04,0.03,0.98,-0,-0,-0,0.05,,46,0,4,24,99,0.555,0.0,110,4.88,12.9,0.0,1,0.0,0.0,0.0,0,0,0,1,0,,,,,,,,,,,,,,,,,,,,
3024,0,,,247,251,237,233,,-0.04,0.03,0.97,-0,-0,-0,0.05,,46,0,4,24,99,0.558,0.0,110,4.87,12.9,0.0,1,0.0,0.0,0.0,0,0,0,1,0,,,,,,,,,,,,,,,,,,,,
3044,0,5,3,247,251,237,233,4,-0.04,0.03,0.98,0,-0,-0,0.05,1,46,0,4,24,99,0.56,0.0,110,4.88,12.9,0.0,1,0.0,0.0,0.0,0,0,0,1,0,0,250,250,0,0.0,0.0,0.0,0.0,0,0,0.0,0,0.0,-1,0.0,0.0,0.0,0,0.0,0.0507
3064,0,,,247,251,237,232,,-0.04,0.03,0.98,0,-0,-0,0.05,,46,0,4,24,99,0.562,0.0,110,4.88,12.9,0.0,1,0.0,0.0,0.0,0,0,0,1,0,,,,,,,,,,,,,,,,,,,,
3084,0,,,247,251,237,232,,-0.04,0.03,0.98,-0,-0,-0,0.05,,46,0,4,24,99,0.564,0.0,110,4.88,12.9,0.0,1,0.0,0.0,0.0,0,0,0,1,0,,,,,,,,,,,,,,,,,,,,
3104,0,,,247,251,237,232,,-0.04,0.03,0.97,0,-0,-0,0.05,,46,0,4,24,99,0.566,0.0,110,4.88,12.9,0.0,1,0.0,0.0,0.0,0,0,0,1,0,,,,,,,,,,,,,,,,,,,,
3124,0,,,247,251,237,232,,-0.04,0.03,0.98,0,-0,-0,0.05,,46,0,4,24,99,0.567,0.0,110,4.88,12.9,0.0,1,0.0,0.0,0.0,0,0,0,1,0,,,,,,,,,,,,,,,,,,,,
3144,0,5,3,247,251,237,233,3,-0.04,0.03,0.98,0,-0,-0,0.05,1,46,0,4,24,99,0.57,0.0,110,4.87,12.9,0.0,1,0.0,0.0,0.0,0,0,0,1,0,0,250,250,0,0.0,0.0,0.0,0.0,0,0,0.0,0,0.0,-1,0.0,,0.0,0,0.0,0.0524
3164,0,,,247,251,237,232,,-0.04,0.03,0.98,0,-0,-0,0.05,,46,0,4,24,99,0.572,0.0,110,4.88,12.9,0.0,1,0.0,0.0,0.0,0,0,0,0,0,,,,,,,,,,,,,,,,,,,,
3184,0,,,247,251,237,233,,-0.04,0.03,0.98,0,-0,-0,0.05,,46,0,4,24,99,0.575,0.0,110,4.8,13.1,0.0,1,0.0,0.0,0.0,0,0,0,0,0,,,,,,,,,,,,,,,,,,,,
3204,0,,,247,251,237,232,,-0.04,0.03,0.98,-0,-0,-0,0.05,,46,0,4,24,99,0.577,0.0,110,4.46,13.1,0.0,1,0.0,0.0,0.0,0,0,0,0,0,,,,,,,,,,,,,,,,,,,,
3224,0,,,247,251,237,232,,-0.04,0.03,0.98,-0,-0,-0,0.05,,46,0,4,24,99,0.579,0.0,110,3.57,13.1,0.0,1,0.0,0.0,0.0,0,0,0,0,0,,,,,,,,,,,,,,,,,,,,
3244,0,4,5,247,251,237,233,4,-0.04,0.03,0.98,-0,-0,-0,0.05,1,46,0,4,24,99,0.581,0.0,110,3.28,13.1,0.0,1,0.0,0.0,0.0,0,0,0,0,0,0,250,250,0,0.0,0.0,0.0,0.0,0,0,0.0,0,0.0,-1,0.0,0.0,0.0,0,0.0,0.0541
3264,0,,,247,251,237,233,,-0.04,0.03,0.98,-0,-0,-0,0.05,,46,0,4,24,99,0.584,0.0,110,3.11,13.1,0.0,1,0.0,0.0,0.0,0,0,0,0,0,,,,,,,,,,,,,,,,,,,,
3284,0,,,247,251,237,233,,-0.04,0.03,0.98,-0,-0,-0,0.05,,46,0,4,24,99,0.585,0.0,110,2.96,13.1,0.0,1,0.0,0.0,0.0,0,0,0,0,0,,,,,,,,,,,,,,,,,,,,
3304,0,,,247,251,237,232,,-0.04,0.03,0.98,-0,-0,-0,0.05,,46,0,4,24,99,0.587,0.0,110,2.83,13.1,0.0,1,0.0,0.0,0.0,0,0,0,0,0,,,,,,,,,,,,,,,,,,,,
3324,0,,,247,251,237,233,,-0.04,0.03,0.97,-0,-0,-0,0.05,,46,0,4,24,99,0.589,0.0,110,2.73,13.1,0.0,1,0.0,0.0,0.0,0,0,0,0,0,,,,,,,,,,,,,,,,,,,,
3344,0,5,5,247,251,237,233,4,-0.04,0.03,0.97,-0,-0,-0,0.05,1,46,0,4,24,99,0.592,0.0,110,2.65,13.1,0.0,1,0.0,0.0,0.0,0,0,0,0,0,0,250,250,0,0.0,0.0,0.0,0.0,0,0,0.0,0,0.0,-1,0.0,,0.0,0,0.0,0.0557
3364,0,,,247,251,237,233,,-0.04,0.03,0.97,-0,-0,-0,0.05,,46,0,4,25,99,0.594,0.0,110,2.56,13.1,0.0,1,0.0,0.0,0.0,0,0,0,0,0,,,,,,,,,,,,,,,,,,,,
3384,0,,,247,251,237,233,,-0.04,0.03,0.98,-0,-0,-0,0.05,,46,0,4,25,99,0.596,0.0,110,2.48,13.1,0.0,1,0.0,0.0,0.0,0,0,0,0,0,,,,,,,,,,,,,,,,,,,,
3404,0,,,247,251,237,232,,-0.04,0.03,0.98,-0,-0,-0,0.05,,46,0,4,25,99,0.598,0.0,110,2.43,13.1,0.0,1,0.0,0.0,0.0,0,0,0,0,0,,,,,,,,,,,,,,,,,,,,
3424,0,,,247,251,237,232,,-0.04,0.03,0.98,-0,-0,-0,0.05,,46,0,4,25,99,0.601,0.0,110,2.37,13.1,0.0,1,0.0,0.0,0.0,0,0,0,0,0,,,,,,,,,,,,,,,,,,,,
3444,0,5,4,247,251,237,233,4,-0.04,0.03,0.98,-0,-0,-0,0.05,1,46,0,4,25,99,0.603,0.0,110,2.3,13.1,0.0,1,0.0,0.0,0.0,0,0,0,0,0,0,250,250,0,0.0,0.0,0.0,0.0,0,0,0.0,0,0.0,-1,0.0,0.0,0.0,0,0.0,0.0574
3464,0,,,247,251,237,233,,-0.04,0.03,0.98,-0,-0,-0,0.05,,46,0,4,25,99,0.605,0.0,110,2.26,13.1,0.0,1,0.0,0.0,0.0,0,0,0,0,0,,,,,,,,,,,,,,,,,,,,
3484,0,,,247,251,237,233,,-0.04,0.03,0.98,-0,-0,-0,0.05,,46,0,4,25,99,0.607,0.0,110,2.21,13.1,0.0,1,0.0,0.0,0.0,0,0,0,0,0,,,,,,,,,,,,,,,,,,,,
3504,0,,,247,251,237,233,,-0.04,0.03,0.98,-0,-0,-0,0.05,,46,0,4,25,99,0.609,0.0,110,2.18,13.1,0.0,1,0.0,0.0,0.0,0,0,0,0,0,,,,,,,,,,,,,,,,,,,,
3524,0,,,247,251,237,233,,-0.04,0.03,0.98,-0,-0,-0,0.05,,46,0,4,25,99,0.611,0.0,110,2.13,13.1,0.0,1,0.0,0.0,0.0,0,0,0,0,0,,,,,,,,,,,,,,,,,,,,
3544,0,5,3,247,251,237,233,3,-0.04,0.03,0.98,-0,-0,-0,0.05,1,46,0,4,25,99,0.612,0.0,110,2.11,13.1,0.0,1,0.0,0.0,0.0,0,0,0,0,0,0,250,250,0,0.0,0.0,0.0,0.0,0,0,0.0,0,0.0,-1,0.0,,0.0,0,0.0,0.0591
3564,0,,,247,251,237,232,,-0.04,0.03,0.98,-0,-0,-0,0.05,,46,0,4,25,99,0.614,0.0,110,2.07,13.1,0.0,1,0.0,0.0,0.0,0,0,0,0,0,,,,,,,,,,,,,,,,,,,,
3584,0,,,247,251,237,232,,-0.04,0.03,0.98,-0,-0,-0,0.05,,46,0,4,25,99,0.615,0.0,110,2.05,13.1,0.0,1,0.0,0.0,0.0,0,0,0,0,0,,,,,,,,,,,,,,,,,,,,
3604,0,,,247,251,237,233,,-0.04,0.03,0.98,-0,-0,-0,0.05,,46,0,4,25,99,0.617,0.0,110,2.01,13.1,0.0,1,0.0,0.0,0.0,0,0,0,0,0,,,,,,,,,,,,,,,,,,,,
3624,0,,,247,251,237,233,,-0.04,0.03,0.98,-0,-0,-0,0.05,,46,0,4,25,99,0.619,0.0,110,1.98,13.1,0.0,1,0.0,0.0,0.0,0,0,0,0,0,,,,,,,,,,,,,,,,,,,,
3644,0,4,5,247,251,237,233,4,-0.04,0.03,0.98,-0,-0,-0,0.05,1,46,0,4,25,99,0.62,0.0,110,1.95,13.1,0.0,1,0.0,0.0,0.0,0,0,0,0,0,0,250,250,0,0.0,0.0,0.0,0.0,0,0,0.0,0,0.0,-1,0.0,0.0,0.0,0,0.0,0.0607
3664,0,,,247,251,237,233,,-0.04,0.03,0.97,-0,-0,-0,0.05,,46,0,4,25,99,0.621,0.0,110,1.94,13.1,0.0,1,0.0,0.0,0.0,0,0,0,0,0,,,,,,,,,,,,,,,,,,,,
3684,0,,,247,251,237,232,,-0.04,0.03,0.98,-0,-0,-0,0.05,,46,0,4,25,99,0.622,0.0,110,1.91,13.1,0.0,1,0.0,0.0,0.0,0,0,0,0,0,,,,,,,,,,,,,,,,,,,,
3704,0,,,247,251,237,233,,-0.04,0.03,0.97,-0,-0,-0,0.05,,46,0,4,25,99,0.623,0.0,110,1.89,13.0,0.0,1,0.0,0.0,0.0,0,0,0,0,0,,,,,,,,,,,,,,,,,,,,
3724,0,,,247,251,237,232,,-0.04,0.03,0.97,-0,-0,-0,0.05,,46,0,4,25,99,0.624,0.0,110,1.86,13.1,0.0,1,0.0,0.0,0.0,0,0,0,0,0,,,,,,,,,,,,,,,,,,,,
3744,0,4,5,247,251,237,233,4,-0.04,0.03,0.98,-0,-0,-0,0.05,1,46,0,4,25,99,0.625,0.0,110,1.83,13.1,0.0,1,0.0,0.0,0.0,0,0,0,0,0,0,250,250,0,0.0,0.0,0.0,0.0,0,0,0.0,0,0.0,-1,0.0,,0.0,0,0.0,0.0624
3764,0,,,247,251,237,233,,-0.04,0.03,0.98,-0,-0,-0,0.05,,46,0,4,25,99,0.626,0.0,110,1.8,13.1,0.0,1,0.0,0.0,0.0,0,0,0,0,0,,,,,,,,,,,,,,,,,,,,
3784,0,,,247,251,237,233,,-0.04,0.03,0.98,-0,-0,-0,0.05,,46,0,4,25,99,0.627,0.0,110,1.78,13.1,0.0,1,0.0,0.0,0.0,0,0,0,0,0,,,,,,,,,,,,,,,,,,,,
3804,0,,,247,251,237,233,,-0.04,0.03,0.98,-0,-0,-0,0.05,,46,0,4,25,99,0.627,0.0,110,1.78,13.1,0.0,1,0.0,0.0,0.0,0,0,0,0,0,,,,,,,,,,,,,,,,,,,,
3824,0,,,247,251,237,232,,-0.04,0.03,0.98,-0,-0,-0,0.05,,46,0,4,25,99,0.628,0.0,110,1.75,13.1,0.0,1,0.0,0.0,0.0,0,0,0,0,0,,,,,,,,,,,,,,,,,,,,
3844,0,4,5,247,251,237,233,4,-0.04,0.03,0.98,-0,-0,-0,0.05,1,46,0,4,25,99,0.629,0.0,110,1.73,13.1,0.0,1,0.0,0.0,0.0,0,0,0,0,0,0,250,250,0,0.0,0.0,0.0,0.0,0,0,0.0,0,0.0,-1,0.0,0.0,0.0,0,0.0,0.0641
3864,0,,,247,251,237,233,,-0.04,0.03,0.98,-0,-0,-0,0.05,,46,0,4,25,99,0.629,0.0,110,1.73,13.1,0.0,1,0.0,0.0,0.0,0,0,0,0,0,,,,,,,,,,,,,,,,,,,,
3884,0,,,247,251,237,233,,-0.04,0.03,0.97,-0,-0,-0,0.05,,46,0,4,25,99,0.63,0.0,110,1.7,13.1,0.0,1,0.0,0.0,0.0,0,0,0,0,0,,,,,,,,,,,,,,,,,,,,
3904,0,,,247,251,237,233,,-0.04,0.03,0.98,-0,-0,-0,0.05,,46,0,4,25,99,0.63,0.0,110,1.69,13.1,0.0,1,0.0,0.0,0.0,0,0,0,0,0,,,,,,,,,,,,,,,,,,,,
3924,0,,,247,251,237,233,,-0.04,0.03,0.98,-0,-0,-0,0.05,,46,0,4,25,99,0.629,0.0,110,1.67,13.1,0.0,1,0.0,0.0,0.0,0,0,0,0,0,,,,,,,,,,,,,,,,,,,,
3944,0,5,5,247,251,237,233,4,-0.04,0.03,0.98,-0,-0,-0,0.05,1,46,0,4,25,99,0.629,0.0,110,1.65,13.1,0.0,1,0.0,0.0,0.0,0,0,0,0,0,0,250,250,0,0.0,0.0,0.0,0.0,0,0,0.0,0,0.0,-1,0.0,,0.0,0,0.0,0.0657
3964,0,,,247,251,237,233,,-0.04,0.03,0.98,-0,-0,-0,0.05,,46,0,4,25,99,0.629,0.0,110,1.64,13.1,0.0,1,0.0,0.0,0.0,0,0,0,0,0,,,,,,,,,,,,,,,,,,,,
3984,0,,,247,251,237,232,,-0.04,0.03,0.98,-0,-0,-0,0.05,,46,0,4,25,99,0.628,0.0,110,1.61,13.1,0.0,1,0.0,0.0,0.0,0,0,0,0,0,,,,,,,,,,,,,,,,,,,,
4004,0,,,247,251,237,232,,-0.04,0.03,0.98,-0,-0,-0,0.05,,46,0,4,25,99,0.629,0.0,110,1.61,13.1,0.0,1,0.0,0.0,0.0,0,0,0,0,0,,,,,,,,,,,,,,,,,,,,
4024,0,,,247,251,237,232,,-0.04,0.03,0.98,-0,-0,-0,0.05,,46,0,4,25,99,0.629,0.0,110,1.58,13.1,0.0,1,0.0,0.0,0.0,0,0,0,0,0,,,,,,,,,,,,,,,,,,,,
4044,0,5,3,247,251,237,232,4,-0.04,0.03,0.98,-0,-0,-0,0.05,1,46,0,4,25,99,0.629,0.0,110,1.58,13.1,0.0,1,0.0,0.0,0.0,0,0,0,0,0,0,250,250,0,0.0,0.0,0.0,0.0,0,0,0.0,0,0.0,-1,0.0,0.0,0.0,0,0.0,0.0674
4064,0,,,247,251,237,233,,-0.04,0.03,0.98,-0,-0,-0,0.05,,46,0,4,25,99,0.629,0.0,110,1.56,13.1,0.0,1,0.0,0.0,0.0,0,0,0,0,0,,,,,,,,,,,,,,,,,,,,
4084,0,,,247,251,237,233,,-0.04,0.03,0.98,-0,-0,-0,0.05,,46,0,4,25,99,0.629,0.0,110,1.56,13.1,0.0,1,0.0,0.0,0.0,0,0,0,0,0,,,,,,,,,,,,,,,,,,,,
4104,0,,,247,251,237,233,,-0.04,0.03,0.98,-0,-0,-0,0.05,,46,0,4,25,99,0.628,0.0,110,1.56,13.1,0.0,1,0.0,0.0,0.0,0,0,0,0,0,,,,,,,,,,,,,,,,,,,,
4124,0,,,247,251,237,233,,-0.04,0.03,0.98,-0,-0,-0,0.05,,46,0,4,25,99,0.628,0.0,110,1.53,13.1,0.0,1,0.0,0.0,0.0,0,0,0,0,0,,,,,,,,,,,,,,,,,,,,
4144,0,3,5,247,251,237,232,5,-0.04,0.03,0.98,-0,-0,-0,0.05,1,46,0,4,25,99,0.628,0.0,110,1.53,13.1,0.0,1,0.0,0.0,0.0,0,0,0,0,0,0,250,250,0,0.0,0.0,0.0,0.0,0,0,0.0,0,0.0,-1,0.0,,0.0,0,0.0,0.0691
4164,0,,,247,251,237,232,,-0.04,0.03,0.98,-0,-0,-0,0.05,,46,0,4,25,99,0.628,0.0,110,1.51,13.1,0.0,1,0.0,0.0,0.0,0,0,0,0,0,,,,,,,,,,,,,,,,,,,,
4184,0,,,247,251,237,233,,-0.04,0.03,0.98,-0,-0,-0,0.05,,46,0,4,25,99,0.628,0.0,110,1.51,13.1,0.0,1,0.0,0.0,0.0,0,0,0,0,0,,,,,,,,,,,,,,,,,,,,
4204,0,,,247,251,237,233,,-0.04,0.03,0.98,-0,-0,-0,0.05,,46,0,4,25,99,0.628,0.0,110,1.51,13.1,0.0,1,0.0,0.0,0.0,0,0,0,0,0,,,,,,,,,,,,,,,,,,,,
4224,0,,,247,251,237,232,,-0.04,0.03,0.98,-0,-0,-0,0.05,,46,0,4,25,99,0.629,0.0,110,1.5,13.1,0.0,1,0.0,0.0,0.0,0,0,0,0,0,,,,,,,,,,,,,,,,,,,,
4244,0,4,5,247,251,237,233,4,-0.04,0.03,0.98,-0,-0,-0,0.05,1,46,0,4,25,99,0.629,0.0,110,1.48,13.1,0.0,1,0.0,0.0,0.0,0,0,0,0,0,0,250,250,0,0.0,0.0,0.0,0.0,0,0,0.0,0,0.0,-1,0.0,0.0,0.0,0,0.0,0.0707
4264,0,,,247,251,237,233,,-0.04,0.03,0.98,-0,-0,-0,0.05,,46,0,4,25,99,0.629,0.0,110,1.48,13.1,0.0,1,0.0,0.0,0.0,0,0,0,0,0,,,,,,,,,,,,,,,,,,,,
4284,0,,,247,251,237,232,,-0.04,0.03,0.98,-0,-0,-0,0.05,,46,0,4,25,99,0.629,0.0,110,1.46,13.1,0.0,1,0.0,0.0,0.0,0,0,0,0,0,,,,,,,,,,,,,,,,,,,,
4304,0,,,247,251,237,233,,-0.04,0.03,0.98,-0,-0,-0,0.05,,46,0,4,25,99,0.629,0.0,110,1.45,13.1,0.0,1,0.0,0.0,0.0,0,0,0,0,0,,,,,,,,,,,,,,,,,,,,
4324,0,,,247,251,237,233,,-0.04,0.03,0.98,-0,-0,-0,0.05,,46,0,4,25,99,0.629,0.0,110,1.45,13.1,0.0,1,0.0,0.0,0.0,0,0,0,0,0,,,,,,,,,,,,,,,,,,,,
4344,0,5,5,247,251,237,232,4,-0.04,0.03,0.98,-0,-0,-0,0.05,1,46,0,4,25,99,0.629,0.0,110,1.45,13.1,0.0,1,0.0,0.0,0.0,0,0,0,0,0,0,250,250,0,0.0,0.0,0.0,0.0,0,0,0.0,0,0.0,-1,0.0,,0.0,0,0.0,0.0724
4364,0,,,247,251,237,232,,-0.04,0.03,0.98,-0,-0,-0,0.05,,46,0,4,25,99,0.629,0.0,110,1.45,13.1,0.0,1,0.0,0.0,0.0,0,0,0,0,0,,,,,,,,,,,,,,,,,,,,
4384,0,,,247,251,237,232,,-0.04,0.03,0.98,-0,-0,-0,0.05,,46,0,4,25,99,0.63,0.0,110,1.42,13.1,0.0,1,0.0,0.0,0.0,0,0,0,0,0,,,,,,,,,,,,,,,,,,,,
4404,0,,,247,251,237,232,,-0.04,0.03,0.98,-0,-0,-0,0.05,,46,0,4,25,99,0.63,0.0,110,1.42,13.1,0.0,1,0.0,0.0,0.0,0,0,0,0,0,,,,,,,,,,,,,,,,,,,,
4424,0,,,247,251,237,232,,-0.04,0.03,0.98,-0,-0,-0,0.05,,46,0,4,25,99,0.63,0.0,110,1.42,13.1,0.0,1,0.0,0.0,0.0,0,0,0,0,0,,,,,,,,,,,,,,,,,,,,
4444,0,4,4,247,251,237,233,4,-0.04,0.03,0.98,-0,-0,-0,0.05,1,46,0,4,25,99,0.629,0.0,110,1.42,13.1,0.0,1,0.0,0.0,0.0,0,0,0,0,0,0,250,250,0,0.0,0.0,0.0,0.0,0,0,0.0,0,0.0,-1,0.0,0.0,0.0,0,0.0,0.0741
4464,0,,,247,251,237,233,,-0.04,0.03,0.98,-0,-0,-0,0.05,,46,0,4,25,99,0.629,0.0,110,1.4,13.1,0.0,1,0.0,0.0,0.0,0,0,0,0,0,,,,,,,,,,,,,,,,,,,,
4484,0,,,247,251,237,233,,-0.04,0.03,0.98,-0,-0,-0,0.05,,46,0,4,25,99,0.629,0.0,110,1.4,13.1,0.0,1,0.0,0.0,0.0,0,0,0,0,0,,,,,,,,,,,,,,,,,,,,
4504,0,,,247,251,237,232,,-0.04,0.03,0.98,-0,-0,-0,0.05,,46,0,4,25,99,0.63,0.0,110,1.4,13.0,0.0,1,0.0,0.0,0.0,0,0,0,0,0,,,,,,,,,,,,,,,,,,,,
4524,0,,,247,251,237,233,,-0.04,0.03,0.98,-0,-0,-0,0.05,,46,0,4,25,99,0.631,0.0,110,1.4,13.0,0.0,1,0.0,0.0,0.0,0,0,0,0,0,,,,,,,,,,,,,,,,,,,,
4544,0,5,3,247,251,237,233,4,-0.04,0.02,0.98,-0,-0,-0,0.05,1,46,0,4,25,99,0.632,0.0,110,1.39,13.0,0.0,1,0.0,0.0,0.0,0,0,0,0,0,0,250,250,0,0.0,0.0,0.0,0.0,0,0,0.0,0,0.0,-1,0.0,,0.0,0,0.0,0.0757
4564,0,,,247,251,237,232,,-0.04,0.02,0.98,-0,-0,-0,0.05,,46,0,4,25,99,0.633,0.0,110,1.39,13.0,0.0,1,0.0,0.0,0.0,0,0,0,0,0,,,,,,,,,,,,,,,,,,,,
4584,0,,,247,251,237,232,,-0.04,0.02,0.98,-0,-0,-0,0.05,,46,0,4,25,99,0.634,0.0,110,1.38,13.0,0.0,1,0.0,0.0,0.0,0,0,0,0,0,,,,,,,,,,,,,,,,,,,,
4604,0,,,247,251,237,232,,-0.04,0.02,0.98,-0,-0,-0,0.05,,46,0,4,25,99,0.635,0.0,110,1.37,13.0,0.0,1,0.0,0.0,0.0,0,0,0,0,0,,,,,,,,,,,,,,,,,,,,
4624,0,,,247,251,237,232,,-0.04,0.02,0.98,-0,-0,-0,0.05,,46,0,4,25,99,0.636,0.0,110,1.37,13.0,0.0,1,0.0,0.0,0.0,0,0,0,0,0,,,,,,,,,,,,,,,,,,,,
4644,0,3,5,247,251,237,233,4,-0.04,0.02,0.97,-0,-0,-0,0.05,1,46,0,4,25,99,0.637,0.0,110,1.37,13.0,0.0,1,0.0,0.0,0.0,0,0,0,0,0,0,250,250,0,0.0,0.0,0.0,0.0,0,0,0.0,0,0.0,-1,0.0,0.0,0.0,0,0.0,0.0774
4664,0,,,247,251,237,232,,-0.04,0.03,0.97,-0,-0,-0,0.05,,46,0,4,25,99,0.638,0.0,110,1.37,13.0,0.0,1,0.0,0.0,0.0,0,0,0,0,0,,,,,,,,,,,,,,,,,,,,
4684,0,,,247,251,237,233,,-0.04,0.03,0.97,-0,-0,-0,0.05,,46,0,4,25,99,0.639,0.0,110,1.37,13.0,0.0,1,0.0,0.0,0.0,0,0,0,0,0,,,,,,,,,,,,,,,,,,,,
4704,0,,,247,251,237,232,,-0.04,0.03,0.97,-0,-0,-0,0.05,,46,0,4,25,99,0.641,0.0,110,1.34,13.0,0.0,1,0.0,0.0,0.0,0,0,0,0,0,,,,,,,,,,,,,,,,,,,,
4724,0,,,247,251,237,233,,-0.04,0.03,0.97,-0,-0,-0,0.05,,46,0,4,25,99,0.642,0.0,110,1.34,13.0,0.0,1,0.0,0.0,0.0,0,0,0,0,0,,,,,,,,,,,,,,,,,,,,
4744,0,5,6,247,251,237,232,4,-0.04,0.03,0.97,-0,-0,-0,0.05,1,46,0,4,25,99,0.643,0.0,110,1.34,13.0,0.0,1,0.0,0.0,0.0,0,0,0,0,0,0,250,250,0,0.0,0.0,0.0,0.0,0,0,0.0,0,0.0,-1,0.0,,0.0,0,0.0,0.0791
4764,0,,,247,251,237,232,,-0.04,0.03,0.97,-0,-0,-0,0.05,,46,0,4,25,99,0.642,0.0,110,1.34,13.0,0.0,1,0.0,0.0,0.0,0,0,0,0,0,,,,,,,,,,,,,,,,,,,,
4784,0,,,247,251,237,232,,-0.04,0.03,0.97,-0,-0,-0,0.05,,46,0,4,25,99,0.643,0.0,110,1.34,13.0,0.0,1,0.0,0.0,0.0,0,0,0,0,0,,,,,,,,,,,,,,,,,,,,
4804,0,,,247,251,237,233,,-0.04,0.03,0.98,-0,-0,-0,0.05,,46,0,4,25,99,0.643,0.0,110,1.33,13.0,0.0,1,0.0,0.0,0.0,0,0,0,0,0,,,,,,,,,,,,,,,,,,,,
4824,0,,,247,251,237,233,,-0.04,0.03,0.98,-0,-0,-0,0.05,,46,0,4,25,99,0.642,0.0,110,1.33,13.0,0.0,1,0.0,0.0,0.0,0,0,0,0,0,,,,,,,,,,,,,,,,,,,,
4844,0,3,5,247,251,237,233,4,-0.04,0.03,0.98,-0,-0,-0,0.05,1,46,0,4,25,99,0.642,0.0,110,1.31,13.0,0.0,1,0.0,0.0,0.0,0,0,0,0,0,0,250,250,0,0.0,0.0,0.0,0.0,0,0,0.0,0,0.0,-1,0.0,0.0,0.0,0,0.0,0.0807
4864,0,,,247,251,237,233,,-0.04,0.03,0.98,-0,-0,-0,0.05,,46,0,4,25,99,0.642,0.0,110,1.31,13.0,0.0,1,0.0,0.0,0.0,0,0,0,0,0,,,,,,,,,,,,,,,,,,,,
4884,0,,,247,251,237,233,,-0.04,0.03,0.98,-0,-0,-0,0.05,,46,0,4,25,99,0.641,0.0,110,1.31,13.0,0.0,1,0.0,0.0,0.0,0,0,0,0,0,,,,,,,,,,,,,,,,,,,,
4904,0,,,247,251,237,232,,-0.04,0.03,0.98,-0,-0,-0,0.05,,46,0,4,25,99,0.641,0.0,110,1.31,13.0,0.0,1,0.0,0.0,0.0,0,0,0,0,0,,,,,,,,,,,,,,,,,,,,
4924,0,,,247,251,237,232,,-0.04,0.03,0.97,-0,-0,-0,0.05,,46,0,4,25,99,0.641,0.0,110,1.31,13.0,0.0,1,0.0,0.0,0.0,0,0,0,0,0,,,,,,,,,,,,,,,,,,,,
4944,0,5,6,247,251,237,232,4,-0.04,0.03,0.98,-0,-0,-0,0.05,1,46,0,4,25,99,0.641,0.0,110,1.31,13.0,0.0,1,0.0,0.0,0.0,0,0,0,0,0,0,250,250,0,0.0,0.0,0.0,0.0,0,0,0.0,0,0.0,-1,0.0,,0.0,0,0.0,0.0824
4964,0,,,247,251,237,233,,-0.04,0.03,0.98,-0,-0,-0,0.05,,46,0,4,25,99,0.64,0.0,110,1.31,13.0,0.0,1,0.0,0.0,0.0,0,0,0,0,0,,,,,,,,,,,,,,,,,,,,
4984,0,,,247,251,237,232,,-0.04,0.03,0.98,-0,-0,-0,0.05,,46,0,4,25,99,0.639,0.0,110,1.28,13.0,0.0,1,0.0,0.0,0.0,0,0,0,0,0,,,,,,,,,,,,,,,,,,,,
5004,0,,,247,251,237,232,,-0.04,0.03,0.98,-0,-0,-0,0.05,,46,0,4,25,99,0.638,0.0,110,1.28,13.0,0.0,1,0.0,0.0,0.0,0,0,0,0,0,,,,,,,,,,,,,,,,,,,,
5024,0,,,247,251,237,232,,-0.04,0.03,0.98,-0,-0,-0,0.05,,46,0,4,25,99,0.637,0.0,110,1.28,13.0,0.0,1,0.0,0.0,0.0,0,0,0,0,0,,,,,,,,,,,,,,,,,,,,
5044,0,4,4,247,251,237,233,4,-0.04,0.03,0.98,-0,-0,-0,0.05,1,46,0,4,25,99,0.637,0.0,110,1.28,13.0,0.0,1,0.0,0.0,0.0,0,0,0,0,0,0,250,250,0,0.0,0.0,0.0,0.0,0,0,0.0,0,0.0,-1,0.0,0.0,0.0,0,0.0,0.0841
5064,0,,,247,251,237,233,,-0.04,0.03,0.98,-0,-0,-0,0.05,,46,0,4,25,99,0.636,0.0,110,1.28,13.0,0.0,1,0.0,0.0,0.0,0,0,0,0,0,,,,,,,,,,,,,,,,,,,,
5084,0,,,247,251,237,233,,-0.04,0.03,0.98,-0,-0,-0,0.05,,46,0,4,25,99,0.636,0.0,110,1.28,13.0,0.0,1,0.0,0.0,0.0,0,0,0,0,0,,,,,,,,,,,,,,,,,,,,
5104,0,,,247,251,237,232,,-0.04,0.03,0.98,-0,-0,-0,0.05,,46,0,4,25,99,0.636,0.0,110,1.28,13.0,0.0,1,0.0,0.0,0.0,0,0,0,0,0,,,,,,,,,,,,,,,,,,,,
5124,0,,,247,251,237,232,,-0.04,0.03,0.98,-0,-0,-0,0.05,,46,0,4,25,99,0.636,0.0,110,1.28,13.0,0.0,1,0.0,0.0,0.0,0,0,0,0,0,,,,,,,,,,,,,,,,,,,,
5144,0,4,4,247,251,237,233,4,-0.04,0.03,0.98,-0,-0,-0,0.05,1,46,0,4,25,99,0.636,0.0,110,1.27,13.0,0.0,1,0.0,0.0,0.0,0,0,0,0,0,0,250,250,0,0.0,0.0,0.0,0.0,0,0,0.0,0,0.0,-1,0.0,,0.0,0,0.0,0.0857
5164,0,,,247,251,237,233,,-0.04,0.03,0.98,-0,-0,-0,0.05,,46,0,4,25,99,0.636,0.0,110,1.27,13.0,0.0,1,0.0,0.0,0.0,0,0,0,0,0,,,,,,,,,,,,,,,,,,,,
5184,0,,,247,251,237,232,,-0.04,0.03,0.97,-0,-0,-0,0.05,,46,0,4,25,99,0.636,0.0,110,1.26,13.0,0.0,1,0.0,0.0,0.0,0,0,0,0,0,,,,,,,,,,,,,,,,,,,,
5204,0,,,247,251,237,233,,-0.04,0.03,0.97,-0,-0,-0,0.05,,46,0,4,25,99,0.636,0.0,110,1.26,13.0,0.0,1,0.0,0.0,0.0,0,0,0,0,0,,,,,,,,,,,,,,,,,,,,
5224,0,,,247,251,237,232,,-0.04,0.03,0.97,-0,-0,-0,0.05,,46,0,4,25,99,0.637,0.0,110,1.26,13.0,0.0,1,0.0,0.0,0.0,0,0,0,0,0,,,,,,,,,,,,,,,,,,,,
5244,0,3,5,247,251,237,232,4,-0.04,0.03,0.97,-0,-0,-0,0.05,1,46,0,4,25,99,0.638,0.0,110,1.26,13.0,0.0,1,0.0,0.0,0.0,0,0,0,0,0,0,250,250,0,0.0,0.0,0.0,0.0,0,0,0.0,0,0.0,-1,0.0,0.0,0.0,0,0.0,0.0874
5264,0,,,247,251,237,233,,-0.04,0.03,0.97,-0,-0,-0,0.05,,46,0,4,25,99,0.638,0.0,110,1.26,13.0,0.0,1,0.0,0.0,0.0,0,0,0,0,0,,,,,,,,,,,,,,,,,,,,
5284,0,,,247,251,237,233,,-0.04,0.03,0.97,-0,-0,-0,0.05,,46,0,4,25,99,0.639,0.0,110,1.26,13.0,0.0,1,0.0,0.0,0.0,0,0,0,0,0,,,,,,,,,,,,,,,,,,,,
5304,0,,,247,251,237,233,,-0.04,0.03,0.97,-0,-0,-0,0.05,,46,0,4,25,99,0.639,0.0,110,1.26,13.0,0.0,1,0.0,0.0,0.0,0,0,0,0,0,,,,,,,,,,,,,,,,,,,,
5324,0,,,247,251,237,232,,-0.04,0.03,0.97,-0,-0,-0,0.05,,46,0,4,25,99,0.639,0.0,110,1.26,13.0,0.0,1,0.0,0.0,0.0,0,0,0,0,0,,,,,,,,,,,,,,,,,,,,
5344,0,5,6,247,251,237,232,4,-0.04,0.03,0.97,-0,-0,-0,0.05,1,46,0,4,25,99,0.639,0.0,110,1.26,13.0,0.0,1,0.0,0.0,0.0,0,0,0,0,0,0,250,250,0,0.0,0.0,0.0,0.0,0,0,0.0,0,0.0,-1,0.0,,0.0,0,0.0,0.0891
5364,0,,,247,251,237,232,,-0.04,0.03,0.98,-0,-0,-0,0.05,,46,0,4,25,99,0.639,0.0,110,1.24,13.0,0.0,1,0.0,0.0,0.0,0,0,0,0,0,,,,,,,,,,,,,,,,,,,,
5384,0,,,247,251,237,233,,-0.04,0.03,0.97,-0,-0,-0,0.05,,46,0,4,25,99,0.639,0.0,110,1.23,13.0,0.0,1,0.0,0.0,0.0,0,0,0,0,0,,,,,,,,,,,,,,,,,,,,
5404,0,,,247,251,237,232,,-0.04,0.03,0.98,-0,-0,-0,0.05,,46,0,4,25,99,0.639,0.0,110,1.23,13.0,0.0,1,0.0,0.0,0.0,0,0,0,0,0,,,,,,,,,,,,,,,,,,,,
5424,0,,,247,251,237,233,,-0.04,0.03,0.98,-0,-0,-0,0.05,,46,0,4,25,99,0.64,0.0,110,1.23,13.0,0.0,1,0.0,0.0,0.0,0,0,0,0,0,,,,,,,,,,,,,,,,,,,,
5444,0,5,4,247,251,237,233,4,-0.04,0.03,0.98,-0,-0,-0,0.05,1,46,0,4,25,99,0.64,0.0,110,1.23,13.0,0.0,1,0.0,0.0,0.0,0,0,0,0,0,0,250,250,0,0.0,0.0,0.0,0.0,0,0,0.0,0,0.0,-1,0.0,0.0,0.0,0,0.0,0.0907
5464,0,,,247,251,237,233,,-0.04,0.03,0.97,-0,-0,-0,0.05,,46,0,4,25,99,0.641,0.0,110,1.23,13.0,0.0,1,0.0,0.0,0.0,0,0,0,0,0,,,,,,,,,,,,,,,,,,,,
5484,0,,,247,251,237,233,,-0.04,0.03,0.97,-0,-0,-0,0.05,,46,0,4,25,99,0.64,0.0,110,1.23,13.0,0.0,1,0.0,0.0,0.0,0,0,0,0,0,,,,,,,,,,,,,,,,,,,,
5504,0,,,247,251,237,232,,-0.04,0.03,0.97,-0,-0,-0,0.05,,46,0,4,25,99,0.64,0.0,110,1.23,13.0,0.0,1,0.0,0.0,0.0,0,0,0,0,0,,,,,,,,,,,,,,,,,,,,
5524,0,,,247,251,237,232,,-0.04,0.03,0.97,-0,-0,-0,0.05,,46,0,4,25,99,0.64,0.0,110,1.23,13.0,0.0,1,0.0,0.0,0.0,0,0,0,0,0,,,,,,,,,,,,,,,,,,,,
5544,0,4,3,247,251,237,233,4,-0.04,0.03,0.97,-0,-0,-0,0.05,1,46,0,4,25,99,0.64,0.0,110,1.23,13.0,0.0,1,0.0,0.0,0.0,0,0,0,0,0,0,250,250,0,0.0,0.0,0.0,0.0,0,0,0.0,0,0.0,-1,0.0,,0.0,0,0.0,0.0924
5564,0,,,247,251,237,233,,-0.04,0.03,0.98,-0,-0,-0,0.05,,46,0,4,25,99,0.64,0.0,110,1.22,13.0,0.0,1,0.0,0.0,0.0,0,0,0,0,0,,,,,,,,,,,,,,,,,,,,
5584,0,,,247,251,237,233,,-0.04,0.03,0.98,-0,-0,-0,0.05,,46,0,4,25,99,0.64,0.0,110,1.22,13.0,0.0,1,0.0,0.0,0.0,0,0,0,0,0,,,,,,,,,,,,,,,,,,,,
5604,0,,,247,251,237,233,,-0.04,0.03,0.98,-0,-0,-0,0.05,,46,0,4,25,99,0.64,0.0,110,1.22,13.0,0.0,1,0.0,0.0,0.0,0,0,0,0,0,,,,,,,,,,,,,,,,,,,,
5624,0,,,247,251,237,233,,-0.04,0.03,0.98,-0,-0,-0,0.05,,46,0,4,25,99,0.64,0.0,110,1.21,13.0,0.0,1,0.0,0.0,0.0,0,0,0,0,0,,,,,,,,,,,,,,,,,,,,
5644,0,6,6,247,251,237,232,4,-0.04,0.03,0.98,-0,-0,-0,0.05,1,46,0,4,25,99,0.64,0.0,110,1.21,13.0,0.0,1,0.0,0.0,0.0,0,0,0,0,0,0,250,250,0,0.0,0.0,0.0,0.0,0,0,0.0,0,0.0,-1,0.0,0.0,0.0,0,0.0,0.0941
5664,0,,,247,251,237,233,,-0.04,0.03,0.98,-0,-0,-0,0.05,,46,0,4,25,99,0.64,0.0,110,1.21,13.0,0.0,1,0.0,0.0,0.0,0,0,0,0,0,,,,,,,,,,,,,,,,,,,,
5684,0,,,247,251,237,233,,-0.04,0.03,0.98,-0,-0,-0,0.05,,46,0,4,25,99,0.64,0.0,111,1.21,13.0,0.0,1,0.0,0.0,0.0,0,0,0,0,0,,,,,,,,,,,,,,,,,,,,
5704,0,,,247,251,237,232,,-0.04,0.03,0.98,-0,-0,-0,0.05,,46,0,4,25,99,0.64,0.0,111,1.21,13.0,0.0,1,0.0,0.0,0.0,0,0,0,0,0,,,,,,,,,,,,,,,,,,,,
5724,0,,,247,251,237,232,,-0.04,0.03,0.98,-0,-0,-0,0.05,,46,0,4,25,99,0.64,0.0,111,1.21,13.0,0.0,1,0.0,0.0,0.0,0,0,0,0,0,,,,,,,,,,,,,,,,,,,,
5744,0,7,4,247,251,237,233,3,-0.04,0.03,0.98,-0,-0,-0,0.05,1,46,0,4,25,99,0.64,0.0,111,1.21,13.0,0.0,1,0.0,0.0,0.0,0,0,0,0,0,0,250,250,0,0.0,0.0,0.0,0.0,0,0,0.0,0,0.0,-1,0.0,,0.0,0,0.0,0.0957
5764,0,,,247,251,237,232,,-0.04,0.03,0.98,-0,-0,-0,0.05,,46,0,4,25,99,0.641,0.0,111,1.21,13.0,0.0,1,0.0,0.0,0.0,0,0,0,0,0,,,,,,,,,,,,,,,,,,,,
5784,0,,,247,251,237,232,,-0.04,0.03,0.98,-0,-0,-0,0.05,,46,0,4,25,99,0.641,0.0,111,1.21,13.0,0.0,1,0.0,0.0,0.0,0,0,0,0,0,,,,,,,,,,,,,,,,,,,,
5804,0,,,247,251,237,232,,-0.04,0.03,0.98,-0,-0,-0,0.05,,46,0,4,25,99,0.642,0.0,111,1.21,13.0,0.0,1,0.0,0.0,0.0,0,0,0,0,0,,,,,,,,,,,,,,,,,,,,
5824,0,,,247,251,237,233,,-0.04,0.03,0.98,-0,-0,-0,0.05,,46,0,4,25,99,0.642,0.0,111,1.21,13.0,0.0,1,0.0,0.0,0.0,0,0,0,0,0,,,,,,,,,,,,,,,,,,,,
5844,0,6,6,247,251,237,232,4,-0.04,0.03,0.97,-0,-0,-0,0.05,1,46,0,4,25,99,0.642,0.0,111,1.21,13.0,0.0,1,0.0,0.0,0.0,0,0,0,0,0,0,250,250,0,0.0,0.0,0.0,0.0,0,0,0.0,0,0.0,-1,0.0,0.0,0.0,0,0.0,0.0974
5864,0,,,247,251,237,233,,-0.04,0.03,0.97,-0,-0,-0,0.05,,46,0,4,25,99,0.641,0.0,111,1.21,13.0,0.0,1,0.0,0.0,0.0,0,0,0,0,0,,,,,,,,,,,,,,,,,,,,
5884,0,,,247,251,237,233,,-0.04,0.03,0.98,-0,-0,-0,0.05,,46,0,4,25,99,0.642,0.0,111,1.2,13.0,0.0,1,0.0,0.0,0.0,0,0,0,0,0,,,,,,,,,,,,,,,,,,,,
5904,0,,,247,251,237,233,,-0.04,0.03,0.98,-0,-0,-0,0.05,,46,0,4,25,99,0.641,0.0,111,1.18,13.0,0.0,1,0.0,0.0,0.0,0,0,0,0,0,,,,,,,,,,,,,,,,,,,,
5924,0,,,247,251,237,233,,-0.04,0.03,0.98,-0,-0,-0,0.05,,46,0,4,25,99,0.642,0.0,110,1.18,13.0,0.0,1,0.0,0.0,0.0,0,0,0,0,0,,,,,,,,,,,,,,,,,,,,
5944,0,6,6,247,251,237,232,4,-0.04,0.03,0.98,-0,-0,-0,0.05,1,46,0,4,25,99,0.642,0.0,110,1.18,13.0,0.0,1,0.0,0.0,0.0,0,0,0,0,0,0,250,250,0,0.0,0.0,0.0,0.0,0,0,0.0,0,0.0,-1,0.0,,0.0,0,0.0,0.0991
5964,0,,,247,251,237,232,,-0.04,0.03,0.98,-0,-0,-0,0.05,,46,0,4,25,99,0.643,0.0,110,1.18,13.0,0.0,1,0.0,0.0,0.0,0,0,0,0,0,,,,,,,,,,,,,,,,,,,,
5984,0,,,247,251,237,233,,-0.04,0.03,0.98,-0,-0,-0,0.05,,46,0,4,25,99,0.643,0.0,110,1.18,13.0,0.0,1,0.0,0.0,0.0,0,0,0,0,0,,,,,,,,,,,,,,,,,,,,
6004,0,,,247,251,237,232,,-0.04,0.03,0.98,-0,-0,-0,0.05,,46,0,4,25,99,0.643,0.0,110,1.18,13.0,0.0,1,0.0,0.0,0.0,0,0,0,0,0,,,,,,,,,,,,,,,,,,,,
6024,0,,,247,251,237,232,,-0.04,0.03,0.97,-0,-0,-0,0.05,,46,0,4,25,99,0.643,0.0,110,1.18,13.0,0.0,1,0.0,0.0,0.0,0,0,0,0,0,,,,,,,,,,,,,,,,,,,,
6044,0,6,6,247,251,237,233,4,-0.04,0.03,0.97,-0,-0,-0,0.05,1,46,0,4,25,99,0.642,0.0,110,1.17,13.0,0.0,1,0.0,0.0,0.0,0,0,0,0,0,0,250,250,0,0.0,0.0,0.0,0.0,0,0,0.0,0,0.0,-1,0.0,0.0,0.0,0,0.0,0.1007
6064,0,,,247,251,237,233,,-0.04,0.03,0.98,-0,-0,-0,0.05,,46,0,4,25,99,0.643,0.0,110,1.17,13.0,0.0,1,0.0,0.0,0.0,0,0,0,0,0,,,,,,,,,,,,,,,,,,,,
6084,0,,,247,251,237,233,,-0.04,0.03,0.98,-0,-0,-0,0.05,,46,0,4,25,99,0.643,0.0,110,1.17,13.0,0.0,1,0.0,0.0,0.0,0,0,0,0,0,,,,,,,,,,,,,,,,,,,,
6104,0,,,247,251,237,233,,-0.04,0.03,0.98,-0,-0,-0,0.05,,46,0,4,25,99,0.644,0.0,110,1.17,13.0,0.0,1,0.0,0.0,0.0,0,0,0,0,0,,,,,,,,,,,,,,,,,,,,
6124,0,,,247,251,237,233,,-0.04,0.03,0.98,-0,-0,-0,0.05,,46,0,4,25,99,0.644,0.0,110,1.17,13.0,0.0,1,0.0,0.0,0.0,0,0,0,0,0,,,,,,,,,,,,,,,,,,,,
6144,0,7,6,247,251,237,232,4,-0.04,0.03,0.97,-0,-0,-0,0.05,1,46,0,4,25,99,0.644,0.0,110,1.17,13.0,0.0,1,0.0,0.0,0.0,0,0,0,0,0,0,250,250,0,0.0,0.0,0.0,0.0,0,0,0.0,0,0.0,-1,0.0,,0.0,0,0.0,0.1024
6164,0,,,247,251,237,233,,-0.04,0.03,0.97,-0,-0,-0,0.05,,46,0,4,25,99,0.644,0.0,110,1.17,13.0,0.0,1,0.0,0.0,0.0,0,0,0,0,0,,,,,,,,,,,,,,,,,,,,
6184,0,,,247,251,237,233,,-0.04,0.03,0.97,-0,-0,-0,0.05,,46,0,4,25,99,0.644,0.0,110,1.16,13.0,0.0,1,0.0,0.0,0.0,0,0,0,0,0,,,,,,,,,,,,,,,,,,,,
6204,0,,,247,251,237,232,,-0.04,0.03,0.97,-0,-0,-0,0.05,,46,0,4,25,99,0.644,0.0,110,1.16,12.9,0.0,1,0.0,0.0,0.0,0,0,0,0,0,,,,,,,,,,,,,,,,,,,,
6224,0,,,247,251,237,232,,-0.04,0.03,0.96,-0,-0,-0,0.05,,46,0,4,25,99,0.64,0.0,110,1.16,9.1,0.0,1,0.0,0.0,0.0,0,0,0,0,0,,,,,,,,,,,,,,,,,,,,
6244,0,7,5,247,251,237,233,3,-0.04,0.03,0.96,-0,-0,-0,0.05,1,46,0,4,25,99,0.638,0.0,110,1.16,10.3,0.0,1,0.0,0.0,0.0,0,0,0,0,0,0,250,250,0,0.0,0.0,0.0,0.0,0,0,0.0,0,0.0,-1,0.0,0.0,0.0,0,0.0,0.1041
6264,0,,,247,251,237,233,,-0.04,0.03,0.96,-0,-0,-0,0.05,,46,0,4,25,99,0.636,0.0,110,1.16,11.0,0.0,1,0.0,0.0,0.0,0,0,0,0,0,,,,,,,,,,,,,,,,,,,,
6284,0,,,247,251,237,232,,-0.04,0.03,0.96,-0,-0,-0,0.05,,46,0,4,25,99,0.635,0.0,110,1.16,11.4,0.0,1,0.0,0.0,0.0,0,0,0,0,0,,,,,,,,,,,,,,,,,,,,
6304,0,,,247,251,237,233,,-0.04,0.03,0.97,-0,-0,-0,0.05,,46,0,4,25,99,0.635,0.0,110,1.16,11.5,0.0,1,0.0,0.0,0.0,0,0,0,0,0,,,,,,,,,,,,,,,,,,,,
6324,0,,,247,251,237,233,,-0.04,0.03,0.96,-0,-0,-0,0.05,,46,0,4,25,99,0.634,0.0,110,1.16,11.5,0.0,1,0.0,0.0,0.0,0,0,0,0,0,,,,,,,,,,,,,,,,,,,,
6344,0,7,5,247,251,237,232,4,-0.04,0.03,0.96,-0,-0,-0,0.05,1,46,0,4,25,99,0.633,0.0,110,1.15,11.5,0.0,1,0.0,0.0,0.0,0,0,0,0,0,0,250,250,0,0.0,0.0,0.0,0.0,0,0,0.0,0,0.0,-1,0.0,,0.0,0,0.0,0.1057
6364,0,,,247,251,237,233,,-0.04,0.03,0.96,-0,0,-0,0.05,,46,0,4,25,99,0.632,0.0,110,1.15,11.6,0.0,1,0.0,0.0,0.0,0,0,0,0,0,,,,,,,,,,,,,,,,,,,,
6384,0,,,247,251,237,232,,-0.04,0.02,0.97,-0,0,-0,0.05,,46,0,4,25,99,0.631,0.0,110,1.15,11.8,0.0,1,0.0,0.0,0.0,0,0,0,0,0,,,,,,,,,,,,,,,,,,,,
6404,0,,,247,251,237,233,,-0.04,0.02,0.96,-0,0,-0,0.05,,46,0,4,25,99,0.63,0.0,112,1.15,12.0,0.0,1,0.0,0.0,0.0,0,0,0,0,0,,,,,,,,,,,,,,,,,,,,
6424,0,,,247,251,237,233,,-0.04,0.02,0.97,-0,-0,-0,0.05,,46,0,4,25,99,0.629,0.0,112,1.15,11.7,0.0,1,0.0,0.0,0.0,0,0,0,0,0,,,,,,,,,,,,,,,,,,,,
6444,0,6,6,247,251,237,232,4,-0.04,0.02,0.96,-0,0,-0,0.05,1,46,0,4,25,99,0.628,0.0,112,1.15,11.8,0.0,1,0.0,0.0,0.0,0,0,0,0,0,0,250,250,0,0.0,0.0,0.0,0.0,0,0,0.0,0,0.0,-1,0.0,0.0,0.0,0,0.0,0.1074
6464,0,,,247,251,237,233,,-0.04,0.02,0.96,-0,0,-0,0.05,,46,0,4,25,99,0.629,0.0,113,1.15,12.0,0.0,1,0.0,0.0,0.0,0,0,0,0,0,,,,,,,,,,,,,,,,,,,,
6484,0,,,247,251,237,233,,-0.04,0.02,0.95,-0,0,-0,0.05,,46,0,4,25,98,0.63,0.0,113,1.15,11.9,0.0,1,0.0,0.0,0.0,0,0,0,0,0,,,,,,,,,,,,,,,,,,,,
6504,0,,,247,251,237,233,,-0.04,0.02,0.95,-0,0,-0,0.05,,46,0,4,25,99,0.631,0.0,113,1.15,11.8,0.0,1,0.0,0.0,0.0,0,0,0,0,0,,,,,,,,,,,,,,,,,,,,
6524,0,,,247,251,237,233,,-0.04,0.02,0.96,-0,0,-0,0.05,,46,0,4,25,99,0.631,0.0,113,1.15,12.0,0.0,1,0.0,0.0,0.0,0,0,0,0,0,,,,,,,,,,,,,,,,,,,,
6544,0,6,6,247,251,237,233,4,-0.04,0.02,0.97,-0,0,-0,0.05,1,46,0,4,25,98,0.63,0.0,113,1.15,12.1,0.0,1,0.0,0.0,0.0,0,0,0,0,0,0,250,250,0,0.0,0.0,0.0,0.0,0,0,0.0,0,0.0,-1,0.0,,0.0,0,0.0,0.1091
6564,0,,,247,251,237,233,,-0.04,0.02,0.97,-0,0,-0,0.05,,46,0,4,25,99,0.629,0.0,113,1.15,11.8,0.0,1,0.0,0.0,0.0,0,0,0,0,0,,,,,,,,,,,,,,,,,,,,
6584,0,,,247,251,237,233,,-0.04,0.02,0.97,-0,0,-0,0.05,,46,0,4,25,99,0.628,0.0,113,1.15,12.0,0.0,1,0.0,0.0,0.0,0,0,0,0,0,,,,,,,,,,,,,,,,,,,,
6604,0,,,247,251,237,233,,-0.04,0.02,0.97,-0,-0,-0,0.05,,46,0,4,25,98,0.628,0.0,113,1.15,12.1,0.0,1,0.0,0.0,0.0,0,0,0,0,0,,,,,,,,,,,,,,,,,,,,
6624,0,,,247,251,237,232,,-0.04,0.03,0.98,-0,-0,-0,0.05,,46,0,4,25,99,0.627,0.0,113,1.15,11.9,0.0,1,0.0,0.0,0.0,0,0,0,0,0,,,,,,,,,,,,,,,,,,,,
6644,0,5,6,247,251,237,232,4,-0.04,0.03,0.98,-0,-0,-0,0.05,1,46,0,4,25,99,0.625,0.0,113,1.15,12.0,0.0,1,0.0,0.0,0.0,0,0,0,0,0,0,250,250,0,0.0,0.0,0.0,0.0,0,0,0.0,0,0.0,-1,0.0,0.0,0.0,0,0.0,0.1107
6664,0,,,247,251,237,233,,-0.04,0.03,0.97,-0,-0,-0,0.05,,46,0,4,25,98,0.624,0.0,113,1.15,12.1,0.0,1,0.0,0.0,0.0,0,0,0,0,0,,,,,,,,,,,,,,,,,,,,
6684,0,,,247,251,237,233,,-0.04,0.03,0.98,-0,0,-0,0.05,,46,0,4,25,99,0.622,0.0,114,1.13,11.9,0.0,1,0.0,0.0,0.0,0,0,0,0,0,,,,,,,,,,,,,,,,,,,,
6704,0,,,247,251,237,233,,-0.04,0.03,0.98,-0,0,-0,0.05,,46,0,4,25,99,0.621,0.0,114,1.13,12.0,0.0,1,0.0,0.0,0.0,0,0,0,0,0,,,,,,,,,,,,,,,,,,,,
6724,0,,,247,251,237,232,,-0.04,0.03,0.98,-0,0,-0,0.05,,46,0,4,25,98,0.62,0.0,116,1.13,12.1,0.0,1,0.0,0.0,0.0,0,0,0,0,0,,,,,,,,,,,,,,,,,,,,
6744,0,5,5,247,251,237,233,4,-0.04,0.03,0.96,-0,-0,-0,0.05,1,46,0,4,25,98,0.618,0.0,111,1.08,11.8,0.0,1,0.0,0.0,0.0,0,0,0,0,0,0,250,250,0,0.0,0.0,0.0,0.0,0,0,0.0,0,0.0,-1,0.0,,0.0,0,0.0,0.1124
6764,0,,,247,251,237,233,,-0.04,0.03,0.96,-0,-0,-0,0.05,,46,0,4,25,99,0.617,0.0,114,1.12,11.9,0.0,1,0.0,0.0,0.0,0,0,0,0,0,,,,,,,,,,,,,,,,,,,,
6784,0,,,247,251,237,233,,-0.04,0.03,0.97,-0,-0,-0,0.05,,46,0,4,25,99,0.617,0.0,116,1.12,12.1,0.0,1,0.0,0.0,0.0,0,0,0,0,0,,,,,,,,,,,,,,,,,,,,
6804,0,,,247,251,237,233,,-0.04,0.03,0.97,-0,-0,-0,0.05,,46,0,4,25,98,0.615,0.0,110,1.07,11.6,0.0,1,0.0,0.0,0.0,0,0,0,0,0,,,,,,,,,,,,,,,,,,,,
6824,0,,,247,251,237,232,,-0.04,0.03,0.98,-0,-0,-0,0.05,,46,0,4,25,99,0.615,0.0,115,1.11,11.9,0.0,1,0.0,0.0,0.0,0,0,0,0,0,,,,,,,,,,,,,,,,,,,,
6844,0,5,6,247,251,237,232,3,-0.04,0.03,0.98,-0,-0,-0,0.05,1,46,0,11,25,99,0.614,0.0,116,1.12,12.0,0.0,1,0.0,0.0,0.0,0,0,0,0,0,0,250,250,0,0.0,0.0,0.0,0.0,0,0,0.0,0,0.0,-1,0.0,0.0,0.0,0,0.0,0.1141
6864,0,,,247,251,237,233,,-0.04,0.03,0.99,-0,-0,-0,0.05,,46,137,25,25,99,0.613,0.0,112,1.07,11.6,0.0,1,30.0,4.18,0.0,0,0,0,1,0,,,,,,,,,,,,,,,,,,,,
6884,0,,,247,251,237,233,,-0.04,0.03,0.98,-0,0,-0,0.05,,46,137,39,25,99,0.611,0.0,116,1.6,11.7,0.0,1,30.0,12.1,0.0,0,0,0,1,0,,,,,,,,,,,,,,,,,,,,
6904,0,,,247,251,237,233,,-0.04,0.03,0.99,-0,0,-0,0.05,,46,137,46,25,99,0.611,0.0,116,4.2,11.9,0.0,1,30.0,12.1,0.0,0,0,0,1,0,,,,,,,,,,,,,,,,,,,,
6924,0,,,247,251,237,233,,-0.04,0.03,1.0,-0,0,-0,0.05,,46,457,49,25,99,0.611,0.0,115,4.81,11.8,0.0,1,30.0,12.1,0.0,0,0,0,1,0,,,,,,,,,,,,,,,,,,,,
6944,0,5,5,247,251,237,233,4,-0.04,0.03,1.0,-0,-0,-0,0.05,1,46,457,51,25,99,0.609,0.0,116,4.86,11.7,0.0,1,30.0,12.1,0.0,0,0,0,1,0,0,250,250,0,0.0,0.0,0.0,0.0,0,0,0.0,0,0.0,-1,0.0,,0.0,0,0.0,0.1157
6964,0,,,247,251,237,233,,-0.04,0.03,1.0,-0,-0,-0,0.05,,46,457,52,25,99,0.609,0.0,116,4.85,11.8,0.0,1,30.0,2.09,2.5,0,0,0,1,0,,,,,,,,,,,,,,,,,,,,
6984,0,,,247,251,237,233,,-0.04,0.03,0.99,-0,-0,-0,0.05,,46,488,51,25,99,0.609,0.0,115,4.82,11.8,0.0,1,30.0,12.1,2.5,0,0,0,1,0,,,,,,,,,,,,,,,,,,,,
7004,0,,,247,251,237,232,,-0.04,0.03,0.99,-0,-0,-0,0.05,,46,488,52,25,99,0.608,0.0,115,4.86,11.7,0.0,1,30.0,12.1,2.5,0,0,0,1,0,,,,,,,,,,,,,,,,,,,,
7024,0,,,247,251,237,233,,-0.04,0.03,0.98,-0,0,-0,0.05,,46,488,50,25,99,0.607,0.0,116,4.86,11.9,0.0,1,30.0,12.1,2.5,0,0,0,1,0,,,,,,,,,,,,,,,,,,,,
7044,0,5,4,247,251,237,233,3,-0.04,0.02,0.97,-0,0,-0,0.05,1,46,488,37,25,99,0.607,0.0,116,4.83,11.9,0.0,1,30.0,11.91,2.5,0,0,0,1,0,0,250,250,0,0.0,0.0,0.0,0.0,0,0,0.0,0,0.0,-1,0.0,0.0,0.0,0,0.0,0.1174
7064,0,,,247,251,237,233,,-0.04,0.03,0.98,-0,0,-0,0.05,,46,462,21,25,99,0.607,0.0,115,4.85,11.7,0.0,1,30.0,11.91,2.5,0,0,0,1,0,,,,,,,,,,,,,,,,,,,,
7084,0,,,247,251,237,233,,-0.04,0.03,0.98,0,0,-0,0.05,,46,462,5,25,99,0.607,0.0,116,4.86,11.8,0.0,1,5.3,11.91,2.5,0,0,0,1,0,,,,,,,,,,,,,,,,,,,,
7104,0,,,247,251,237,233,,-0.04,0.03,0.98,-0,0,-0,0.05,,46,462,4,25,98,0.606,0.0,116,4.84,11.9,0.0,1,5.3,11.91,2.5,0,0,0,1,0,,,,,,,,,,,,,,,,,,,,
7124,0,,,247,251,237,233,,-0.04,0.03,0.96,-0,-0,-0,0.05,,46,477,4,25,98,0.607,0.0,113,4.82,11.5,0.0,1,5.3,11.91,2.5,0,0,0,1,0,,,,,,,,,,,,,,,,,,,,
7144,0,5,5,247,251,237,233,3,-0.04,0.03,0.98,-0,-0,-0,0.05,1,46,477,4,25,99,0.607,0.0,116,4.86,11.8,0.0,1,5.3,4.11,2.5,0,0,0,1,0,0,250,250,0,0.0,0.0,0.0,0.0,0,0,0.0,0,0.0,-1,0.0,,0.0,0,0.0,0.1191
7164,0,,,247,251,237,232,,-0.04,0.03,0.98,-0,-0,-0,0.05,,46,477,4,25,99,0.607,0.0,116,4.86,11.9,0.0,1,5.3,2.09,2.6,0,0,0,1,0,,,,,,,,,,,,,,,,,,,,
7184,0,,,247,251,237,232,,-0.04,0.03,0.97,-0,-0,-0,0.05,,46,477,5,25,98,0.607,0.0,112,4.82,11.4,0.0,1,5.3,2.09,2.6,0,0,0,1,0,,,,,,,,,,,,,,,,,,,,
7204,0,,,247,251,237,233,,-0.04,0.03,1.0,-0,-1,-0,0.05,,46,477,18,25,99,0.608,0.0,116,4.85,11.9,0.0,1,30.0,11.76,2.6,0,0,0,1,0,,,,,,,,,,,,,,,,,,,,
7224,0,,,247,251,237,233,,-0.05,0.04,1.0,-0,-0,-0,0.06,,46,723,36,25,99,0.606,0.0,116,4.82,12.0,0.0,1,30.0,12.1,2.6,0,0,0,1,0,,,,,,,,,,,,,,,,,,,,
7244,0,5,4,247,251,237,233,4,-0.05,0.04,1.03,-0,-0,-0,0.06,1,46,1437,51,25,99,0.607,0.0,120,4.81,11.8,0.0,1,33.4,12.1,2.6,0,0,0,1,0,0,250,250,0,0.0,0.0,0.0,0.0,0,0,0.0,0,0.0,-1,0.0,0.0,0.0,0,0.0,0.1207
7264,0,,,247,251,237,233,,-0.05,0.03,1.04,-0,-1,-0,0.06,,46,1707,59,25,98,0.601,0.0,118,4.77,11.5,0.0,1,34.0,12.1,9.5,0,0,0,1,0,,,,,,,,,,,,,,,,,,,,
7284,0,,,247,251,237,232,,-0.05,0.03,1.04,-0,-1,-0,0.05,,46,1589,63,25,98,0.593,0.0,120,4.76,11.3,0.0,1,34.0,12.1,9.5,0,0,0,1,0,,,,,,,,,,,,,,,,,,,,
7304,0,,,247,251,237,232,,-0.05,0.02,1.03,-0,-0,-0,0.05,,46,1456,64,25,98,0.586,0.0,118,4.7,11.0,0.0,1,33.6,2.09,9.5,0,0,0,1,0,,,,,,,,,,,,,,,,,,,,
7324,0,,,247,251,237,233,,-0.04,0.04,1.04,-0,-0,-0,0.06,,46,1317,64,25,98,0.578,0.0,126,4.75,11.3,0.0,1,32.5,11.34,9.5,0,0,0,1,0,,,,,,,,,,,,,,,,,,,,
7344,0,5,4,247,251,237,233,4,-0.04,0.06,1.1,-0,-1,-0,0.07,1,46,1307,64,25,98,0.57,0.0,132,4.77,11.6,0.0,1,32.4,2.09,9.5,0,0,0,1,0,0,250,250,0,0.0,0.0,0.0,0.0,0,0,0.0,0,0.0,-1,0.0,,0.0,0,0.0,0.1224
7364,0,,,247,251,237,233,,-0.04,0.04,1.01,-0,-2,-0,0.06,,46,1791,63,25,98,0.564,0.0,139,4.81,11.7,0.0,1,34.0,10.51,6.3,0,0,0,1,0,,,,,,,,,,,,,,,,,,,,
7384,0,,,247,251,237,232,,-0.05,0.05,1.04,-0,-1,-1,0.07,,46,2536,51,25,98,0.559,0.0,150,4.75,11.6,0.0,1,33.8,9.19,6.3,0,0,0,1,0,,,,,,,,,,,,,,,,,,,,
7404,0,,,247,251,237,232,,-0.04,0.04,1.06,-0,-0,-1,0.06,,46,2718,31,25,97,0.551,0.0,165,4.76,11.7,0.0,1,31.5,9.61,6.3,0,0,0,1,0,,,,,,,,,,,,,,,,,,,,
7424,0,,,247,251,237,233,,-0.04,0.05,1.09,-0,-1,-1,0.06,,46,3296,13,25,97,0.549,0.0,193,4.82,12.4,0.0,1,30.2,6.52,6.3,0,0,0,1,0,,,,,,,,,,,,,,,,,,,,
7444,0,5,3,247,251,237,233,3,-0.03,0.03,1.09,-0,-1,-0,0.04,1,46,3718,4,25,94,0.55,0.0,218,4.85,12.4,0.0,1,29.5,6.48,6.3,0,0,0,1,0,0,250,250,0,0.0,0.0,0.0,0.0,0,0,0.0,0,0.0,-1,0.0,0.0,0.0,0,0.0,0.1241
7464,0,,,247,251,237,233,,-0.02,0.04,1.04,-0,-1,-0,0.05,,46,3990,4,25,90,0.55,0.0,250,4.86,12.5,0.0,1,27.3,5.78,11.0,0,0,0,1,0,,,,,,,,,,,,,,,,,,,,
7484,0,,,247,251,237,232,,-0.05,0.05,1.12,-0,-1,-0,0.07,,46,4046,4,25,87,0.55,0.0,281,4.85,12.3,0.0,1,27.3,5.2,11.0,0,0,0,1,0,,,,,,,,,,,,,,,,,,,,
7504,0,,,247,251,237,233,,-0.04,0.04,1.09,-0,-2,-0,0.06,,46,4136,4,25,84,0.552,0.0,338,4.85,12.4,0.0,1,28.0,4.91,11.0,0,0,0,1,0,,,,,,,,,,,,,,,,,,,,
7524,0,,,247,250,237,233,,-0.02,-0.01,1.01,-0,-1,-0,0.02,,46,4170,4,25,82,0.558,0.0,403,4.85,12.5,0.0,1,28.0,4.43,11.0,0,0,0,1,0,,,,,,,,,,,,,,,,,,,,
7544,0,4,3,247,251,237,232,4,0.01,-0.03,0.93,-0,-1,-1,0.03,1,46,4508,7,25,80,0.565,0.0,472,4.83,12.7,0.0,1,32.4,4.43,11.0,0,0,0,1,0,0,250,250,0,0.0,0.0,0.0,0.0,0,0,0.0,0,0.0,-1,0.0,,0.0,0,0.0,0.1257
7564,0,,,247,251,237,233,,0.02,-0.07,0.86,-0,-0,-0,0.07,,46,4646,15,25,80,0.573,0.0,558,4.82,13.0,0.0,1,34.4,7.97,9.4,0,0,0,1,0,,,,,,,,,,,,,,,,,,,,
7584,0,,,247,251,237,232,,-0.02,-0.05,0.89,-0,0,1,0.05,,46,5034,25,25,83,0.581,0.0,612,4.81,12.7,0.0,1,40.6,8.89,9.4,0,0,0,1,0,,,,,,,,,,,,,,,,,,,,
7604,0,,,247,251,237,232,,0.02,-0.06,1.06,-0,-2,-2,0.06,,46,5369,29,25,87,0.587,0.0,635,4.87,13.0,0.0,1,40.8,9.7,9.4,0,0,0,1,0,,,,,,,,,,,,,,,,,,,,
7624,0,,,247,250,237,232,,0.01,-0.01,1.28,-0,-1,-3,0.01,,46,5903,30,25,90,0.592,0.0,646,4.8,12.8,0.0,1,40.1,11.83,9.4,0,0,0,1,0,,,,,,,,,,,,,,,,,,,,
7644,0,5,3,247,251,237,233,4,0.03,-0.06,1.49,-0,-2,-4,0.06,1,46,6438,30,25,90,0.598,0.0,658,4.78,12.8,0.0,1,44.2,11.34,9.4,0,0,0,1,0,0,250,250,0,0.0,0.0,0.0,0.0,0,0,0.0,0,0.0,-1,0.0,0.0,0.0,0,0.0,0.1274
7664,0,,,247,249,237,233,,-0.02,-0.0,1.38,-0,-1,-2,0.02,,46,6967,30,25,90,0.6,0.0,666,4.8,12.7,0.0,1,49.6,10.08,33.0,0,0,0,1,0,,,,,,,,,,,,,,,,,,,,
7684,0,,,247,249,237,233,,0.0,-0.03,1.44,0,-2,-3,0.03,,46,6828,27,25,90,0.599,0.0,669,4.81,12.9,0.0,1,48.2,10.12,33.0,0,0,0,1,0,,,,,,,,,,,,,,,,,,,,
7704,0,,,247,250,237,232,,0.01,-0.01,1.61,-0,-3,-4,0.01,,46,7361,15,25,85,0.597,0.0,673,4.79,12.9,0.0,1,42.8,9.95,33.0,0,0,0,1,0,,,,,,,,,,,,,,,,,,,,
7724,0,,,247,249,237,232,,0.02,-0.04,1.79,-0,-4,-4,0.05,,46,7938,4,25,77,0.596,0.0,687,4.76,13.0,0.0,1,38.8,5.56,33.0,0,0,0,1,0,,,,,,,,,,,,,,,,,,,,
7744,0,5,5,247,251,237,233,3,0.02,0.03,1.72,-0,-3,-3,0.04,1,46,8071,4,25,68,0.594,0.0,690,4.82,12.7,0.0,1,38.9,4.49,33.0,0,0,0,1,0,0,250,250,0,0.0,0.0,0.0,0.0,0,0,0.0,0,0.0,-1,0.0,,0.0,0,0.0,0.1291
7764,0,,,247,250,237,233,,0.03,0.0,1.9,-0,-4,-5,0.03,,46,8029,4,25,60,0.594,0.0,688,4.81,13.0,0.0,1,37.9,3.08,14.0,0,0,0,1,0,,,,,,,,,,,,,,,,,,,,
7784,0,,,247,249,237,233,,0.04,-0.04,2.03,-0,-4,-5,0.06,,46,7874,4,25,55,0.594,0.0,684,4.84,12.9,0.0,1,37.0,3.01,14.0,0,0,0,1,0,,,,,,,,,,,,,,,,,,,,
7804,0,,,247,249,237,233,,0.03,-0.04,1.95,-0,-4,-3,0.05,,46,7631,4,25,53,0.593,0.0,680,4.86,12.8,0.0,1,36.4,2.88,14.0,0,0,0,1,0,,,,,,,,,,,,,,,,,,,,
7824,0,,,247,249,237,233,,0.01,-0.05,1.8,-0,-3,-1,0.05,,46,7431,4,25,50,0.593,0.0,676,4.92,12.8,0.0,1,35.4,2.8,14.0,0,0,0,1,0,,,,,,,,,,,,,,,,,,,,
7844,0,5,5,247,249,237,233,4,0.03,-0.06,1.76,-0,-3,-2,0.06,1,46,7186,4,25,49,0.593,0.0,675,4.95,12.9,0.0,1,34.5,2.68,14.0,0,0,0,1,0,0,250,250,0,0.0,0.0,0.0,0.0,0,0,0.0,0,0.0,-1,0.0,0.0,0.0,0,0.0,0.1307
7864,0,,,247,248,237,233,,0.03,-0.03,1.89,-0,-3,-1,0.04,,46,6934,4,25,48,0.592,0.0,672,4.85,13.0,0.0,1,33.5,2.63,8.6,0,0,0,1,0,,,,,,,,,,,,,,,,,,,,
7884,0,,,247,251,237,232,,0.01,-0.04,1.74,-0,-3,-1,0.04,,46,6754,4,25,47,0.594,0.0,665,4.81,12.8,0.0,1,32.7,2.64,8.6,0,0,0,1,0,,,,,,,,,,,,,,,,,,,,
7904,0,,,247,250,237,233,,0.01,0.0,1.68,-0,-1,-0,0.01,,46,6597,4,25,47,0.593,0.0,667,4.84,13.0,0.0,1,32.5,2.64,8.6,0,0,0,1,0,,,,,,,,,,,,,,,,,,,,
7924,0,,,247,249,237,232,,0.04,-0.03,1.86,-0,-3,-3,0.05,,46,6436,4,25,47,0.596,0.0,662,4.87,13.1,0.0,1,32.1,2.63,8.6,0,0,0,1,0,,,,,,,,,,,,,,,,,,,,
7944,0,5,5,247,250,237,233,3,0.04,-0.09,1.73,-0,-4,-4,0.1,1,46,6239,4,25,47,0.599,0.0,654,4.9,13.0,0.0,1,31.7,2.63,8.6,0,0,0,1,0,0,250,250,0,0.0,0.0,0.0,0.0,0,0,0.0,0,0.0,-1,0.0,,0.0,0,0.0,0.1324
7964,0,,,247,251,237,233,,0.02,-0.13,1.6,-0,-4,-4,0.13,,46,6036,4,25,47,0.601,0.0,651,4.82,12.8,0.0,1,31.1,2.63,7.4,0,0,0,1,0,,,,,,,,,,,,,,,,,,,,
7984,0,,,247,250,237,233,,0.03,-0.17,1.55,-0,-5,-5,0.18,,46,5824,4,25,48,0.603,0.0,649,4.97,13.1,0.0,1,31.1,2.72,7.4,0,0,0,1,0,,,,,,,,,,,,,,,,,,,,
8004,0,,,247,249,237,232,,0.07,-0.11,1.73,-0,-9,-9,0.13,,46,5595,4,25,48,0.605,0.0,645,4.93,13.1,0.0,1,30.7,2.83,7.4,0,0,0,1,0,,,,,,,,,,,,,,,,,,,,
8024,0,,,247,251,237,233,,-0.0,-0.07,1.64,-0,-4,-7,0.07,,46,5360,4,25,49,0.606,0.0,641,4.81,12.9,0.0,1,30.6,2.97,7.4,0,0,0,1,0,,,,,,,,,,,,,,,,,,,,
8044,0,5,3,247,250,237,233,4,0.04,-0.1,1.51,-0,-4,-7,0.11,1,46,5183,4,25,49,0.607,0.0,635,4.82,13.1,0.0,1,30.4,3.09,7.4,0,0,0,1,0,0,250,250,0,0.0,0.0,0.0,0.0,0,0,0.0,0,0.0,-1,0.0,0.0,0.0,0,0.0,0.1341
8064,0,,,247,251,237,232,,-0.0,-0.09,1.4,-0,-3,-5,0.09,,46,5018,4,25,50,0.608,0.0,632,4.81,12.8,0.0,1,30.0,3.21,7.4,0,0,0,1,0,,,,,,,,,,,,,,,,,,,,
8084,0,,,247,250,237,233,,-0.04,-0.05,1.6,-0,-4,-6,0.06,,46,4846,4,25,50,0.609,0.0,627,4.87,13.1,0.0,1,28.6,3.09,7.4,0,0,0,1,0,,,,,,,,,,,,,,,,,,,,
8104,0,,,247,250,237,232,,-0.01,-0.03,1.65,-0,-3,-6,0.03,,46,4774,4,24,51,0.609,0.0,629,4.83,13.1,0.0,1,28.0,3.08,7.4,0,0,0,1,0,,,,,,,,,,,,,,,,,,,,
8124,0,,,247,250,237,232,,0.01,-0.03,1.52,-0,-3,-6,0.03,,46,4725,4,24,52,0.61,0.0,628,4.88,13.2,0.0,1,27.7,3.05,7.4,0,0,0,1,0,,,,,,,,,,,,,,,,,,,,
8144,0,5,4,247,249,237,233,4,0.03,-0.03,1.4,-0,-3,-5,0.04,1,46,4568,4,24,53,0.611,0.0,618,4.91,13.1,0.0,1,26.1,2.92,7.4,0,0,0,1,0,0,250,250,0,0.0,0.0,0.0,0.0,0,0,0.0,0,0.0,-1,0.0,,0.0,0,0.0,0.1357
8164,0,,,247,249,237,232,,0.05,-0.03,1.29,-0,-3,-6,0.06,,46,4480,4,24,53,0.612,0.0,618,4.84,13.1,0.0,1,25.0,2.85,5.9,0,0,0,1,0,,,,,,,,,,,,,,,,,,,,
8184,0,,,247,250,237,232,,0.07,-0.04,1.22,-0,-2,-6,0.08,,46,4465,5,24,53,0.61,0.0,617,4.82,13.1,0.0,1,24.8,2.84,5.9,0,0,0,1,0,,,,,,,,,,,,,,,,,,,,
8204,0,,,247,251,237,233,,0.07,-0.03,1.2,-0,-3,-6,0.07,,46,4422,6,24,54,0.61,0.0,621,4.95,13.2,0.0,1,24.5,2.81,5.9,0,0,0,1,0,,,,,,,,,,,,,,,,,,,,
8224,0,,,247,250,237,233,,0.06,0.0,1.26,-0,-3,-6,0.06,,46,4311,9,24,55,0.61,0.0,612,4.87,13.1,0.0,1,23.3,2.74,5.9,0,0,0,1,0,,,,,,,,,,,,,,,,,,,,
8244,0,5,4,247,250,237,233,4,0.03,0.03,1.46,-0,-3,-6,0.05,1,46,4293,14,24,59,0.609,0.0,609,4.87,13.1,0.0,1,24.1,2.8,5.9,0,0,0,1,0,0,250,250,0,0.0,0.0,0.0,0.0,0,0,0.0,0,0.0,-1,0.0,0.0,0.0,0,0.0,0.1374
8264,0,,,247,250,237,233,,0.0,0.06,1.59,-0,-2,-6,0.06,,46,4370,20,24,64,0.607,0.0,610,4.81,13.0,0.0,1,26.4,4.99,5.7,0,0,0,1,0,,,,,,,,,,,,,,,,,,,,
8284,0,,,247,251,237,233,,-0.04,0.08,1.7,-0,-2,-6,0.08,,46,4530,23,24,71,0.608,0.0,615,4.84,13.0,0.0,1,30.4,5.68,5.7,0,0,0,1,0,,,,,,,,,,,,,,,,,,,,
8304,0,,,247,250,237,233,,-0.06,0.08,1.88,-0,-2,-6,0.1,,46,4617,24,24,78,0.608,0.0,623,4.85,13.1,0.0,1,33.4,6.19,5.7,0,0,0,1,0,,,,,,,,,,,,,,,,,,,,
8324,0,,,247,250,237,233,,-0.04,0.1,2.04,-0,-3,-7,0.11,,46,4829,25,24,83,0.608,0.0,628,4.83,13.1,0.0,1,38.0,7.06,5.7,0,0,0,1,0,,,,,,,,,,,,,,,,,,,,
8344,0,3,4,247,251,237,233,4,-0.01,0.05,1.89,-0,-1,-5,0.05,1,46,4982,25,24,86,0.608,0.0,630,4.81,13.0,0.0,1,41.2,7.22,5.7,0,0,0,1,0,0,250,250,0,0.0,0.0,0.0,0.0,0,0,0.0,0,0.0,-1,0.0,,0.0,0,0.0,0.1391
8364,0,,,247,251,237,233,,-0.05,0.11,2.05,-0,-3,-6,0.12,,46,5296,25,24,87,0.607,0.0,636,4.81,13.0,0.0,1,41.0,7.89,17.9,0,0,0,1,0,,,,,,,,,,,,,,,,,,,,
8384,0,,,247,251,237,232,,-0.11,0.09,1.89,-0,1,-1,0.14,,46,5572,22,24,88,0.605,0.0,643,4.86,13.0,0.0,1,40.5,8.61,17.9,0,0,0,1,0,,,,,,,,,,,,,,,,,,,,
8404,0,,,247,250,237,232,,-0.16,0.09,1.75,-0,1,-0,0.19,,46,6015,13,24,85,0.605,0.0,647,4.8,12.8,0.0,1,39.8,9.37,17.9,0,0,0,1,0,,,,,,,,,,,,,,,,,,,,
8424,0,,,247,250,237,233,,-0.13,0.11,1.7,-0,2,1,0.17,,46,6583,4,24,80,0.603,0.0,660,4.77,12.9,0.0,1,41.6,4.61,17.9,0,0,0,1,0,,,,,,,,,,,,,,,,,,,,
8444,0,5,2,247,250,237,233,4,-0.13,0.1,1.57,-0,1,1,0.16,1,46,6947,4,24,74,0.604,0.0,671,4.87,13.1,0.0,1,42.1,4.35,17.9,0,0,0,1,0,0,250,250,0,0.0,0.0,0.0,0.0,0,0,0.0,0,0.0,-1,0.0,0.0,0.0,0,0.0,0.1407
8464,0,,,247,249,237,232,,-0.09,0.12,1.75,-0,1,0,0.15,,46,6843,4,24,69,0.603,0.0,671,4.78,12.9,0.0,1,40.0,3.93,12.9,0,0,0,1,0,,,,,,,,,,,,,,,,,,,,
8484,0,,,247,251,237,232,,-0.1,0.12,1.62,-0,3,2,0.16,,46,7264,4,24,64,0.603,0.0,672,4.77,12.8,0.0,1,39.0,3.5,12.9,0,0,0,1,0,,,,,,,,,,,,,,,,,,,,
8504,0,,,247,251,237,233,,-0.1,0.14,1.49,-0,3,3,0.17,,46,7578,4,24,60,0.603,0.0,675,4.82,12.8,0.0,1,37.7,2.8,12.9,0,0,0,1,0,,,,,,,,,,,,,,,,,,,,
8524,0,,,247,251,237,233,,-0.08,0.12,1.69,-0,2,2,0.15,,46,7786,4,24,55,0.602,0.0,680,4.83,12.9,0.0,1,36.9,2.74,12.9,0,0,0,1,0,,,,,,,,,,,,,,,,,,,,
8544,0,5,5,247,249,237,233,3,-0.06,0.1,1.86,-0,1,0,0.12,1,46,7931,4,24,51,0.602,0.0,687,4.9,13.0,0.0,1,36.7,2.72,12.9,0,0,0,1,0,0,250,250,0,0.0,0.0,0.0,0.0,0,0,0.0,0,0.0,-1,0.0,,0.0,0,0.0,0.1424
8564,0,,,247,251,237,233,,-0.06,0.14,1.82,-0,1,1,0.15,,46,8050,4,24,48,0.601,0.0,683,4.83,12.9,0.0,1,36.6,2.72,9.9,0,0,0,1,0,,,,,,,,,,,,,,,,,,,,
8584,0,,,247,251,237,233,,-0.05,0.09,1.96,-0,0,-1,0.1,,46,8184,4,24,44,0.601,0.0,687,4.77,13.0,0.0,1,34.6,2.85,9.9,0,0,0,1,0,,,,,,,,,,,,,,,,,,,,
8604,0,,,247,250,237,233,,-0.06,0.11,1.81,-0,-0,-1,0.12,,46,8234,4,24,41,0.601,0.0,692,4.85,13.0,0.0,1,32.7,2.85,9.9,0,0,0,1,0,,,,,,,,,,,,,,,,,,,,
8624,0,,,247,251,237,233,,-0.07,0.1,1.76,-0,0,-1,0.12,,46,8134,4,24,39,0.603,0.0,687,4.89,12.8,0.0,1,31.2,2.74,9.9,0,0,0,1,0,,,,,,,,,,,,,,,,,,,,
8644,0,4,4,247,251,237,233,4,-0.06,0.04,1.8,-0,-1,-3,0.07,1,46,7958,4,24,38,0.603,0.0,687,4.78,12.9,0.0,1,30.7,2.49,9.9,0,0,0,1,0,0,250,250,0,0.0,0.0,0.0,0.0,0,0,0.0,0,0.0,-1,0.0,0.0,0.0,0,0.0,0.1441
8664,0,,,247,249,237,232,,-0.06,0.02,1.73,-0,-3,-4,0.07,,46,7700,4,24,38,0.604,0.0,681,4.86,13.0,0.0,1,30.7,2.43,9.0,0,0,0,1,0,,,,,,,,,,,,,,,,,,,,
8684,0,,,247,250,237,233,,-0.06,0.04,1.79,-0,-4,-5,0.07,,46,7440,4,24,38,0.605,0.0,673,4.89,13.0,0.0,1,30.7,2.43,9.0,0,0,0,1,0,,,,,,,,,,,,,,,,,,,,
8704,0,,,247,249,237,233,,-0.03,-0.01,1.77,-0,-4,-6,0.03,,46,7181,4,24,38,0.607,0.0,675,4.82,12.9,0.0,1,30.7,2.49,9.0,0,0,0,1,0,,,,,,,,,,,,,,,,,,,,
8724,0,,,247,249,237,232,,-0.04,0.05,1.73,-0,-3,-4,0.06,,46,6918,4,24,38,0.609,0.0,669,4.76,12.8,0.0,1,30.6,2.49,9.0,0,0,0,1,0,,,,,,,,,,,,,,,,,,,,
