"Interval"|"ms"|0|0|1,"Utc"|"ms"|0|0|1,"Brake_F"|"Bar"|0|2000|10,"Brake_R"|"Bar"|0|2000|10,"Height_RF"|"mm"|0|255|50,"Height_LF"|"mm"|0|255|50,"Height_LR"|"mm"|0|80|50,"Height_RR"|"mm"|0|255|50,"Steering"|"deg"|-100|100|10,"AccelX"|"G"|-3.0|3.0|50,"AccelY"|"G"|-3.0|3.0|50,"AccelZ"|"G"|-3.0|3.0|50,"Yaw"|"Deg/Sec"|-120|120|50,"Pitch"|"Deg/Sec"|-120|120|50,"Roll"|"Deg/Sec"|-120|120|50,"Gsum"|"G"|0.0|3.0|50,"Log_Button"|""|0.0|10.0|10,"WaterTemp"|"C"|0|150|50,"RPM"|"tr/min"|0|14000|50,"TPS"|"%"|0|100|50,"AirTemp"|"C"|0|150|50,"MAP"|"KPa"|0|100|50,"Lambda"|""|0.5|1.5|50,"SpeedDTA"|"kph"|0.0|250.0|50,"OilPress"|"KPa"|0|1500|50,"FuelPressur"|"Bar"|0.0|10.0|50,"Batterie"|"V"|0.0|20.0|50,"ConsoKm"|"L/100km"|0.0|200.0|50,"Gear"|""|0|6|50,"AdvIgnition"|"Deg"|-20.0|70.0|50,"Injection"|"ms"|0.0|10.0|50,"ConsoHr"|"L/Hr"|0.0|10000.0|50,"LC_But_Pres"|""|0|1|50,"LC_Active"|""|0|1|50,"TractionOn"|""|0|1|50,"TractionWet"|""|0|1|50,"FanOn"|""|0|1|50,"RD_Speed"|"km/h"|-30|250|10,"RUD_Speed"|"km/h"|-30|250|10,"LD_Speed"|"km/h"|-30|250|10,"LUD_Speed"|"km/h"|-30|250|10,"Latitude"|"Degrees"|-180.0|180.0|10,"Longitude"|"Degrees"|-180.0|180.0|10,"Speed"|"kph"|0.0|150.0|10,"Altitude"|"m"|0.0|4000.0|10,"GPSSats"|""|0|20|10,"GPSQual"|""|0|5|10,"GPSDOP"|""|0.0|20.0|10,"LapCount"|""|0|0|10,"LapTime"|"Min"|0.0|0.0|10,"Sector"|""|0|0|10,"SectorTime"|"Min"|0.0|0.0|10,"PredTime"|"Min"|0.0|0.0|5,"ElapsedTime"|"Min"|0.0|0.0|10,"CurrentLap"|""|0|0|10,"Distance"|"km"|0.0|0.0|10,"SessionTime"|"Min"|0.0|0.0|10
22064,1629466702092,,,245,250,236,233,,-0.09,-0.06,1.75,1,-6,-4,0.11,,64,5690,4,34,58,0.694,0.0,623,4.94,13.2,0.0,1,33.2,2.42,6.3,0,0,0,1,0,,,,,,,,,,,,,,,,,,,,
22084,1629466702112,,,245,250,236,233,,-0.07,-0.04,1.92,1,-1,-0,0.08,,64,5697,4,34,58,0.695,0.0,633,4.86,13.1,0.0,1,33.2,2.41,6.3,0,0,0,1,0,,,,,,,,,,,,,,,,,,,,
22104,1629466702132,,,245,251,236,233,,-0.06,-0.02,2.08,1,3,4,0.06,,64,5718,4,34,58,0.694,0.0,629,4.86,13.1,0.0,1,33.2,2.4,6.3,0,0,0,1,0,,,,,,,,,,,,,,,,,,,,
22124,1629466702152,,,245,250,236,233,,-0.13,0.01,1.92,1,7,9,0.13,,64,5711,4,34,58,0.691,0.0,619,4.86,13.0,0.0,1,33.2,1.28,6.3,0,0,0,1,0,,,,,,,,,,,,,,,,,,,,
22144,1629466702172,2,2,245,251,236,233,-10,-0.2,-0.04,1.77,0,8,9,0.2,1,64,5723,4,34,58,0.691,0.0,630,4.93,13.1,0.0,1,33.2,2.39,6.3,0,0,0,1,0,0,250,250,0,49.330502,8.566808,0.0,99.2,10,2,1.7,0,0.0,-1,0.0,,0.0,0,0.0,0.3691
22164,1629466702192,,,245,251,235,232,,-0.14,-0.08,1.76,0,1,2,0.16,,64,5707,4,34,58,0.692,0.0,631,4.92,13.1,0.0,1,33.2,1.28,6.3,0,0,0,1,0,,,,,,,,,,,,,,,,,,,,
22184,1629466702212,,,245,250,236,232,,-0.11,-0.04,1.94,0,5,4,0.12,,64,5714,4,34,58,0.695,0.0,629,4.88,13.2,0.0,1,33.2,2.4,6.3,0,0,0,1,0,,,,,,,,,,,,,,,,,,,,
22204,1629466702232,,,245,251,236,233,,-0.09,-0.01,2.09,0,9,7,0.09,,64,5700,4,34,58,0.695,0.0,625,4.87,13.1,0.0,1,33.2,2.41,6.3,0,0,0,1,0,,,,,,,,,,,,,,,,,,,,
22224,1629466702252,,,245,251,236,233,,-0.15,-0.02,1.93,1,14,12,0.15,,64,5699,4,34,58,0.693,0.0,627,4.88,12.9,0.0,1,33.2,2.4,6.3,0,0,0,1,0,,,,,,,,,,,,,,,,,,,,
22244,1629466702272,0,4,245,250,235,233,-10,-0.24,-0.06,1.78,0,15,12,0.24,1,64,5674,4,34,58,0.692,0.0,627,4.88,13.0,0.0,1,33.2,1.3,6.3,0,0,0,1,0,0,250,250,0,49.330502,8.566808,0.0,99.2,10,2,1.7,0,0.0,-1,0.0,0.0,0.0,0,0.0,0.3707
22264,1629466702292,,,245,250,236,233,,-0.15,-0.07,1.8,0,5,5,0.17,,64,5709,4,34,58,0.695,0.0,620,4.92,13.1,0.0,1,33.2,2.4,6.3,0,0,0,1,0,,,,,,,,,,,,,,,,,,,,
22284,1629466702312,,,245,250,236,232,,-0.05,-0.02,1.97,0,0,2,0.05,,64,5700,4,34,58,0.697,0.0,623,4.87,13.1,0.0,1,33.2,2.41,6.3,0,0,0,1,0,,,,,,,,,,,,,,,,,,,,
22304,1629466702332,,,245,251,236,233,,-0.03,0.0,2.13,0,4,4,0.04,,64,5704,4,34,58,0.697,0.0,627,4.88,13.1,0.0,1,33.2,2.41,6.3,0,0,0,1,0,,,,,,,,,,,,,,,,,,,,
22324,1629466702352,,,245,249,236,232,,-0.11,-0.01,1.96,1,8,9,0.11,,64,5711,4,34,58,0.694,0.0,625,4.88,13.0,0.0,1,33.2,2.4,6.3,0,0,0,1,0,,,,,,,,,,,,,,,,,,,,
22344,1629466702372,2,2,245,251,236,233,-10,-0.19,-0.07,1.81,0,8,9,0.2,1,64,5692,4,34,58,0.694,0.0,620,4.87,13.0,0.0,1,33.2,1.29,6.3,0,0,0,1,0,0,250,250,0,49.330502,8.566808,0.0,99.2,10,2,1.7,0,0.0,-1,0.0,,0.0,0,0.0,0.3724
22364,1629466702392,,,245,250,236,233,,-0.14,-0.09,1.67,1,2,3,0.16,,64,5725,4,34,58,0.697,0.0,623,4.94,13.2,0.0,1,33.2,2.39,6.3,0,0,0,1,0,,,,,,,,,,,,,,,,,,,,
22384,1629466702412,,,245,250,236,233,,-0.05,-0.03,1.85,0,-2,-0,0.06,,64,5707,4,34,58,0.699,0.0,634,4.9,13.1,0.0,1,33.2,2.4,6.3,0,0,0,1,0,,,,,,,,,,,,,,,,,,,,
22404,1629466702432,,,245,250,236,233,,-0.01,0.02,2.02,0,1,1,0.02,,64,5712,4,34,58,0.699,0.0,637,4.87,13.1,0.0,1,33.2,2.4,6.3,0,0,0,1,0,,,,,,,,,,,,,,,,,,,,
22424,1629466702452,,,245,251,236,233,,-0.07,0.05,1.86,1,7,7,0.09,,64,5711,4,34,58,0.695,0.0,621,4.85,13.0,0.0,1,33.2,2.4,6.3,0,0,0,1,0,,,,,,,,,,,,,,,,,,,,
22444,1629466702472,1,2,245,250,236,233,-10,-0.17,-0.0,1.72,1,7,7,0.17,1,64,5714,4,34,58,0.694,0.0,622,4.85,13.0,0.0,1,33.2,1.28,6.3,0,0,0,1,0,0,250,250,0,49.330502,8.566808,0.0,99.2,10,2,1.7,0,0.0,-1,0.0,0.0,0.0,0,0.0,0.3741
22464,1629466702491,,,245,250,236,232,,-0.15,-0.06,1.58,1,2,3,0.16,,64,5718,4,34,58,0.695,0.0,628,4.88,13.1,0.0,1,33.2,1.28,6.3,0,0,0,1,0,,,,,,,,,,,,,,,,,,,,
22484,1629466702511,,,245,250,236,233,,-0.04,-0.02,1.77,0,-4,-2,0.04,,64,5704,4,34,58,0.698,0.0,630,4.96,13.2,0.0,1,33.2,2.41,6.3,0,0,0,1,0,,,,,,,,,,,,,,,,,,,,
22504,1629466702531,,,245,250,236,233,,0.01,0.03,1.94,0,-3,-2,0.03,,64,5685,4,34,58,0.699,0.0,624,4.87,13.0,0.0,1,33.2,2.42,6.3,0,0,0,1,0,,,,,,,,,,,,,,,,,,,,
22524,1629466702551,,,245,250,236,233,,-0.05,0.05,1.79,0,2,4,0.08,,64,5685,4,34,58,0.697,0.0,617,4.86,12.9,0.0,1,33.2,2.42,6.3,0,0,0,1,0,,,,,,,,,,,,,,,,,,,,
22544,1629466702571,1,3,245,250,236,232,-10,-0.14,0.01,1.65,1,3,5,0.14,1,64,5664,4,34,58,0.697,0.0,621,4.83,13.0,0.0,1,33.2,1.32,6.3,0,0,0,1,0,0,250,250,0,49.330502,8.566808,0.0,99.2,10,2,1.7,0,0.0,-1,0.0,,0.0,0,0.0,0.3757
22564,1629466702591,,,245,249,236,233,,-0.08,-0.06,1.68,1,-4,-1,0.1,,64,5664,4,34,58,0.699,0.0,623,4.96,13.2,0.0,1,33.2,2.43,6.3,0,0,0,1,0,,,,,,,,,,,,,,,,,,,,
22584,1629466702611,,,245,250,236,233,,-0.0,0.01,1.86,1,-6,-4,0.01,,64,5645,4,34,58,0.702,0.0,620,4.96,13.2,0.0,1,33.2,2.45,6.3,0,0,0,1,0,,,,,,,,,,,,,,,,,,,,
22604,1629466702631,,,245,250,236,233,,-0.03,0.03,1.93,1,-0,1,0.04,,64,5668,4,34,58,0.701,0.0,620,4.85,12.8,0.0,1,33.2,2.43,6.3,0,0,0,1,0,,,,,,,,,,,,,,,,,,,,
22624,1629466702651,,,245,250,235,233,,-0.13,0.01,1.78,1,4,5,0.13,,64,5645,5,34,58,0.698,0.0,623,4.9,13.1,0.0,1,33.2,2.45,6.3,0,0,0,1,0,,,,,,,,,,,,,,,,,,,,
22644,1629466702671,0,3,245,249,236,233,-10,-0.13,-0.04,1.65,1,-1,1,0.13,1,64,5662,4,34,58,0.697,0.0,621,4.9,13.1,0.0,1,33.2,1.31,6.3,0,0,0,1,0,0,250,250,0,49.330502,8.566808,0.0,99.2,10,2,1.7,0,0.0,-1,0.0,0.0,0.0,0,0.0,0.3774
22664,1629466702693,,,245,250,236,232,,-0.01,-0.01,1.83,1,-7,-4,0.01,,64,5702,4,34,58,0.7,0.0,618,4.88,13.2,0.0,1,33.2,2.41,6.3,0,0,0,1,0,,,,,,,,,,,,,,,,,,,,
22684,1629466702713,,,245,251,236,233,,0.02,0.02,1.99,1,-6,-4,0.03,,64,5706,5,34,58,0.702,0.0,622,4.9,13.2,0.0,1,33.2,2.4,6.3,0,0,0,1,0,,,,,,,,,,,,,,,,,,,,
22704,1629466702733,,,245,251,236,233,,-0.04,0.02,1.84,1,-0,2,0.04,,64,5709,4,34,58,0.701,0.0,629,4.86,12.9,0.0,1,33.2,2.4,6.3,0,0,0,1,0,,,,,,,,,,,,,,,,,,,,
22724,1629466702753,,,245,251,236,233,,-0.15,-0.03,1.7,1,4,5,0.15,,64,5718,4,34,58,0.699,0.0,628,4.85,12.9,0.0,1,33.2,1.28,6.3,0,0,0,1,0,,,,,,,,,,,,,,,,,,,,
22744,1629466702773,2,2,245,251,236,233,-10,-0.14,-0.09,1.57,1,-2,1,0.17,1,64,5728,5,34,58,0.698,0.0,623,4.92,13.2,0.0,1,33.2,2.39,6.3,0,0,0,1,0,0,250,250,0,49.330502,8.566808,0.0,99.2,10,2,1.7,0,0.0,-1,0.0,,0.0,0,0.0,0.3791
22764,1629466702793,,,245,251,236,233,,-0.05,-0.07,1.75,1,-7,-4,0.09,,64,5742,4,34,58,0.699,0.0,631,4.95,13.2,0.0,1,33.2,2.38,6.3,0,0,0,1,0,,,,,,,,,,,,,,,,,,,,
22784,1629466702813,,,245,250,236,233,,0.01,-0.01,1.93,1,-9,-7,0.01,,64,5746,4,34,58,0.702,0.0,639,4.92,13.1,0.0,1,33.2,2.38,6.3,0,0,0,1,0,,,,,,,,,,,,,,,,,,,,
22804,1629466702833,,,245,251,236,233,,0.0,0.03,2.09,1,-3,-3,0.03,,64,5733,4,34,58,0.701,0.0,639,4.83,13.1,0.0,1,33.2,2.39,6.3,0,0,0,1,0,,,,,,,,,,,,,,,,,,,,
22824,1629466702853,,,245,251,236,232,,-0.07,0.02,1.92,1,2,3,0.08,,64,5748,4,34,58,0.698,0.0,622,4.88,13.0,0.0,1,33.2,1.26,6.3,0,0,0,1,0,,,,,,,,,,,,,,,,,,,,
22844,1629466702873,1,3,245,250,236,233,-11,-0.16,-0.03,1.78,1,3,4,0.16,1,64,5742,4,34,58,0.696,0.0,622,4.92,13.1,0.0,1,33.2,2.38,6.3,0,0,0,1,0,0,250,250,0,49.330502,8.566808,0.0,99.2,10,2,1.7,0,0.0,-1,0.0,0.0,0.0,0,0.0,0.3807
22864,1629466702893,,,245,250,236,232,,-0.12,-0.09,1.64,1,1,2,0.15,,64,5748,4,34,58,0.699,0.0,625,4.9,13.1,0.0,1,33.2,1.26,6.3,0,0,0,1,0,,,,,,,,,,,,,,,,,,,,
22884,1629466702913,,,245,250,236,232,,-0.02,-0.04,1.82,1,-5,-3,0.05,,64,5718,4,34,58,0.701,0.0,629,4.92,13.2,0.0,1,33.2,2.4,6.3,0,0,0,1,0,,,,,,,,,,,,,,,,,,,,
22904,1629466702933,,,245,250,236,232,,0.03,0.01,1.99,0,-5,-4,0.04,,64,5730,4,34,58,0.701,0.0,623,4.92,13.2,0.0,1,33.2,2.39,6.3,0,0,0,1,0,,,,,,,,,,,,,,,,,,,,
22924,1629466702953,,,245,250,236,232,,0.0,0.04,1.84,0,-0,1,0.04,,64,5726,4,34,58,0.7,0.0,622,4.84,12.9,0.0,1,33.2,2.39,6.3,0,0,0,1,0,,,,,,,,,,,,,,,,,,,,
22944,1629466702973,-0,2,245,250,236,232,-10,-0.09,0.03,1.69,0,4,5,0.1,1,64,5723,4,34,58,0.699,0.0,626,4.86,13.0,0.0,1,33.2,2.39,6.3,0,0,0,1,0,0,250,250,0,49.330502,8.566808,0.0,99.2,10,2,1.7,0,0.0,-1,0.0,,0.0,0,0.0,0.3824
22964,1629466702993,,,245,250,236,232,,-0.13,-0.05,1.56,1,1,4,0.13,,64,5721,4,34,58,0.7,0.0,625,4.88,13.0,0.0,1,33.2,2.39,6.3,0,0,0,1,0,,,,,,,,,,,,,,,,,,,,
22984,1629466703005,,,245,250,236,232,,-0.04,-0.06,1.75,1,-4,-2,0.07,,64,5723,4,34,58,0.702,0.0,620,4.93,13.1,0.0,1,33.2,1.27,6.3,0,0,0,1,0,,,,,,,,,,,,,,,,,,,,
23004,1629466703025,,,245,250,236,233,,0.02,-0.01,1.92,0,-6,-5,0.02,,64,5711,4,35,58,0.702,0.0,629,4.86,13.1,0.0,1,33.2,2.39,6.3,0,0,0,1,0,,,,,,,,,,,,,,,,,,,,
23024,1629466703045,,,245,251,236,233,,-0.0,-0.01,2.08,0,-1,-2,0.01,,64,5730,4,35,58,0.7,0.0,631,4.92,13.1,0.0,1,33.2,2.38,6.3,0,0,0,1,0,,,,,,,,,,,,,,,,,,,,
23044,1629466703065,-0,2,245,250,236,233,-10,-0.08,-0.02,1.92,0,4,4,0.08,1,64,5721,4,35,58,0.698,0.0,635,4.82,12.9,0.0,1,33.2,2.38,6.3,0,0,0,1,0,0,250,250,0,49.330502,8.566808,0.0,99.2,10,2,1.7,0,0.0,-1,0.0,0.0,0.0,0,0.0,0.3841
23064,1629466703093,,,245,250,236,233,,-0.14,-0.04,1.77,-0,6,5,0.14,,64,5693,4,34,58,0.698,0.0,616,4.92,13.1,0.0,1,33.2,1.29,6.3,0,0,0,1,0,,,,,,,,,,,,,,,,,,,,
23084,1629466703113,,,245,251,236,233,,-0.05,-0.05,1.89,0,-1,-1,0.07,,64,5744,4,34,58,0.701,0.0,617,4.94,13.1,0.0,1,33.2,2.38,6.3,0,0,0,1,0,,,,,,,,,,,,,,,,,,,,
23104,1629466703133,,,245,250,236,233,,0.03,-0.01,2.06,0,-7,-5,0.03,,64,5711,4,35,58,0.702,0.0,633,4.89,13.2,0.0,1,33.2,2.39,6.3,0,0,0,1,0,,,,,,,,,,,,,,,,,,,,
23124,1629466703153,,,245,250,236,233,,0.04,0.02,2.21,0,-4,-4,0.05,,64,5739,4,35,58,0.702,0.0,636,4.88,13.2,0.0,1,33.2,2.37,6.3,0,0,0,1,0,,,,,,,,,,,,,,,,,,,,
23144,1629466703173,1,3,245,250,236,232,-10,-0.02,-0.0,2.04,0,1,1,0.02,1,64,5711,4,35,58,0.699,0.0,630,4.85,13.0,0.0,1,33.2,2.39,6.3,0,0,0,1,0,0,250,250,0,49.330502,8.566808,0.0,99.2,10,2,1.7,0,0.0,-1,0.0,,0.0,0,0.0,0.3857
23164,1629466703191,,,245,250,236,232,,-0.13,-0.05,1.88,0,5,5,0.14,,64,5699,4,34,58,0.698,0.0,617,4.88,13.1,0.0,1,33.2,2.41,6.3,0,0,0,1,0,,,,,,,,,,,,,,,,,,,,
23184,1629466703211,,,245,250,236,233,,-0.11,-0.1,1.73,0,2,2,0.15,,64,5733,5,34,58,0.7,0.0,622,4.91,13.1,0.0,1,33.2,1.27,6.3,0,0,0,1,0,,,,,,,,,,,,,,,,,,,,
23204,1629466703231,,,245,250,236,233,,-0.02,-0.06,1.91,0,-4,-4,0.07,,64,5704,4,35,58,0.703,0.0,633,4.99,13.2,0.0,1,33.2,1.29,6.3,0,0,0,1,0,,,,,,,,,,,,,,,,,,,,
23224,1629466703251,,,245,250,236,232,,0.02,-0.01,2.07,0,-5,-5,0.02,,64,5751,4,35,58,0.705,0.0,626,4.87,13.1,0.0,1,33.3,2.36,6.3,0,0,0,1,0,,,,,,,,,,,,,,,,,,,,
23244,1629466703271,-0,2,245,251,235,233,-10,0.0,0.03,2.12,-0,0,-2,0.03,1,64,5751,4,35,58,0.704,0.0,627,4.86,13.1,0.0,1,33.3,2.36,6.3,0,0,0,1,0,0,250,250,0,49.330502,8.566808,0.0,99.2,10,2,1.7,0,0.0,-1,0.0,0.0,0.0,0,0.0,0.3874
23264,1629466703291,,,245,250,236,232,,-0.09,0.02,1.96,0,5,3,0.09,,64,5776,4,35,58,0.703,0.0,626,4.87,13.0,0.0,1,33.3,2.35,6.3,0,0,0,1,0,,,,,,,,,,,,,,,,,,,,
23284,1629466703311,,,245,250,236,233,,-0.16,-0.02,1.81,-0,8,6,0.16,,64,5781,4,34,58,0.703,0.0,630,4.84,12.9,0.0,1,33.3,1.24,6.3,0,0,0,1,0,,,,,,,,,,,,,,,,,,,,
23304,1629466703331,,,245,249,236,233,,-0.14,-0.06,1.67,0,4,3,0.15,,64,5787,5,34,58,0.705,0.0,626,4.88,13.0,0.0,1,33.3,2.35,6.2,0,0,0,1,0,,,,,,,,,,,,,,,,,,,,
23324,1629466703351,,,245,250,235,232,,-0.05,-0.06,1.85,0,-2,-2,0.08,,64,5803,4,34,58,0.706,0.0,624,4.95,13.1,0.0,1,33.3,1.22,6.2,0,0,0,1,0,,,,,,,,,,,,,,,,,,,,
23344,1629466703371,0,3,245,250,236,232,-10,0.03,-0.02,2.01,0,-6,-5,0.03,1,64,5774,4,34,58,0.707,0.0,625,4.93,13.2,0.0,1,33.3,2.36,6.2,0,0,0,1,0,0,250,250,0,49.330502,8.566808,0.0,99.2,10,2,1.7,0,0.0,-1,0.0,,0.0,0,0.0,0.3891
23364,1629466703391,,,245,250,236,233,,0.04,0.01,2.17,0,-6,-5,0.04,,64,5778,5,35,58,0.707,0.0,633,4.85,13.2,0.0,1,33.3,2.35,6.2,0,0,0,1,0,,,,,,,,,,,,,,,,,,,,
23384,1629466703410,,,245,250,236,232,,0.01,0.02,2.0,0,-2,-1,0.02,,64,5762,5,35,58,0.707,0.0,631,4.87,13.1,0.0,1,33.3,2.36,6.2,0,0,0,1,0,,,,,,,,,,,,,,,,,,,,
23404,1629466703430,,,245,250,236,233,,-0.08,0.02,1.84,0,2,3,0.08,,64,5749,5,35,58,0.707,0.0,621,4.88,13.0,0.0,1,33.2,2.37,6.3,0,0,0,1,0,,,,,,,,,,,,,,,,,,,,
23424,1629466703450,,,245,251,236,233,,-0.13,-0.02,1.7,0,3,4,0.13,,64,5758,4,35,58,0.707,0.0,623,4.86,13.0,0.0,1,33.2,1.26,6.3,0,0,0,1,0,,,,,,,,,,,,,,,,,,,,
23444,1629466703470,-1,2,245,250,236,233,-10,-0.05,-0.05,1.86,-0,-1,-0,0.08,1,64,5707,5,35,58,0.707,0.0,630,4.96,13.1,0.0,1,33.2,1.28,6.3,0,0,0,1,0,0,250,250,0,49.330502,8.566808,0.0,99.2,10,2,1.7,0,0.0,-1,0.0,0.0,0.0,0,0.0,0.3907
23464,1629466703492,,,245,251,236,233,,0.02,-0.02,2.02,-0,-5,-4,0.03,,64,5723,5,35,58,0.707,0.0,627,4.96,13.2,0.0,1,33.2,2.38,6.3,0,0,0,1,0,,,,,,,,,,,,,,,,,,,,
23484,1629466703512,,,245,250,236,233,,-0.0,-0.0,2.17,-0,-2,-3,0.0,,64,5662,5,35,58,0.706,0.0,625,4.92,13.2,0.0,1,33.2,2.42,6.3,0,0,0,1,0,,,,,,,,,,,,,,,,,,,,
23504,1629466703532,,,245,250,236,232,,-0.09,-0.01,2.01,0,3,2,0.09,,64,5673,5,35,58,0.706,0.0,627,4.83,12.9,0.0,1,33.2,2.42,6.3,0,0,0,1,0,,,,,,,,,,,,,,,,,,,,
23524,1629466703552,,,245,250,236,233,,-0.11,-0.06,1.85,-0,4,3,0.13,,64,5654,5,35,58,0.706,0.0,620,4.87,13.1,0.0,1,33.2,1.32,6.3,0,0,0,1,0,,,,,,,,,,,,,,,,,,,,
23544,1629466703572,0,0,245,251,235,233,-10,-0.02,-0.05,2.02,-0,-2,-2,0.05,1,64,5654,5,35,59,0.708,0.0,619,4.96,13.2,0.0,1,33.5,1.31,6.3,0,0,0,1,0,0,250,250,0,49.330502,8.566808,0.0,99.2,10,2,1.7,0,0.0,-1,0.0,,0.0,0,0.0,0.3924
23564,1629466703592,,,245,250,236,233,,-0.0,0.01,2.17,-0,-3,-4,0.01,,64,5593,5,35,59,0.709,0.0,616,4.93,13.2,0.0,1,33.4,2.45,6.3,0,0,0,1,0,,,,,,,,,,,,,,,,,,,,
23584,1629466703610,,,245,250,236,233,,-0.08,-0.0,2.0,-0,2,2,0.08,,64,5602,5,35,59,0.706,0.0,612,4.85,13.0,0.0,1,33.4,1.35,6.3,0,0,0,1,0,,,,,,,,,,,,,,,,,,,,
23604,1629466703630,,,245,250,236,233,,-0.08,-0.1,1.85,-0,2,1,0.12,,64,5582,6,35,60,0.704,0.0,613,4.86,13.0,0.0,1,33.7,1.35,6.3,0,0,0,1,0,,,,,,,,,,,,,,,,,,,,
23624,1629466703650,,,245,250,236,233,,-0.02,-0.03,2.01,-0,-3,-3,0.04,,64,5592,5,35,60,0.705,0.0,611,4.88,13.2,0.0,1,33.7,2.44,6.3,0,0,0,1,0,,,,,,,,,,,,,,,,,,,,
23644,1629466703670,0,2,245,250,236,233,-11,-0.03,0.03,2.15,-0,-0,-2,0.04,1,64,5565,6,35,60,0.707,0.0,611,4.87,13.1,0.0,1,33.7,2.46,6.3,0,0,0,1,0,0,250,250,0,49.330502,8.566808,0.0,99.2,10,2,1.7,0,0.0,-1,0.0,0.0,0.0,0,0.0,0.3941
23664,1629466703690,,,245,250,236,233,,-0.09,-0.02,1.99,-0,3,2,0.09,,64,5555,6,35,61,0.706,0.0,615,4.93,13.1,0.0,1,34.0,2.45,6.3,0,0,0,1,0,,,,,,,,,,,,,,,,,,,,
23684,1629466703710,,,245,250,236,233,,-0.02,-0.05,2.14,-0,-1,-2,0.06,,64,5539,5,35,61,0.706,0.0,610,4.86,13.1,0.0,1,34.0,2.48,6.3,0,0,0,1,0,,,,,,,,,,,,,,,,,,,,
23704,1629466703730,,,245,250,236,232,,-0.01,0.02,2.28,-0,-2,-3,0.02,,64,5539,6,35,61,0.706,0.0,605,4.91,13.2,0.0,1,34.0,2.46,6.3,0,0,0,1,0,,,,,,,,,,,,,,,,,,,,
23724,1629466703750,,,245,250,236,233,,-0.07,0.02,2.11,-0,2,1,0.07,,64,5508,6,35,61,0.703,0.0,607,4.86,12.9,0.0,1,34.0,1.38,6.3,0,0,0,1,0,,,,,,,,,,,,,,,,,,,,
23744,1629466703770,-0,1,245,250,236,233,-11,-0.03,-0.06,2.04,-0,-1,-1,0.07,1,64,5530,6,35,61,0.704,0.0,611,4.88,13.1,0.0,1,34.0,1.37,6.3,0,0,0,1,0,0,250,250,0,49.330502,8.566808,0.0,99.2,10,2,1.7,0,0.0,-1,0.0,,0.0,0,0.0,0.3957
23764,1629466703790,,,245,250,236,233,,-0.02,0.0,2.19,-0,-2,-3,0.02,,64,5517,6,35,61,0.706,0.0,610,4.94,13.2,0.0,1,34.0,2.47,6.3,0,0,0,1,0,,,,,,,,,,,,,,,,,,,,
23784,1629466703810,,,245,250,236,232,,-0.08,0.0,2.02,-0,3,1,0.08,,64,5544,6,35,62,0.705,0.0,603,4.89,13.0,0.0,1,34.2,2.57,6.3,0,0,0,1,0,,,,,,,,,,,,,,,,,,,,
23804,1629466703830,,,245,251,236,233,,-0.05,-0.08,1.86,-0,2,1,0.09,,64,5521,6,35,62,0.703,0.0,601,4.89,13.1,0.0,1,34.2,1.48,6.6,0,0,0,1,0,,,,,,,,,,,,,,,,,,,,
23824,1629466703850,,,245,251,236,233,,-0.01,-0.0,2.03,-0,-3,-3,0.01,,64,5534,7,35,62,0.704,0.0,613,4.89,13.2,0.0,1,34.2,2.57,6.6,0,0,0,1,0,,,,,,,,,,,,,,,,,,,,
23844,1629466703870,-1,2,245,250,236,233,-10,-0.06,0.0,1.87,-0,1,1,0.06,1,64,5519,9,35,63,0.705,0.0,602,4.85,12.9,0.0,1,34.5,2.69,6.6,0,0,0,1,0,0,250,250,0,49.330502,8.566808,0.0,99.2,10,2,1.7,0,0.0,-1,0.0,0.0,0.0,0,0.0,0.3974
23864,1629466703890,,,245,251,236,233,,-0.07,-0.08,1.73,-0,2,2,0.11,,64,5519,11,35,65,0.703,0.0,600,4.88,13.0,0.0,1,35.0,2.91,6.6,0,0,0,1,0,,,,,,,,,,,,,,,,,,,,
23884,1629466703910,,,245,250,236,232,,-0.01,-0.0,1.9,-0,-3,-3,0.01,,64,5560,13,35,66,0.703,0.0,617,4.92,13.2,0.0,1,35.3,3.02,6.6,0,0,0,1,0,,,,,,,,,,,,,,,,,,,,
23904,1629466703930,,,245,250,236,233,,-0.03,0.05,1.88,-0,-1,-1,0.06,,64,5628,15,35,69,0.704,0.0,618,4.9,13.1,0.0,1,36.0,3.33,8.4,0,0,0,1,0,,,,,,,,,,,,,,,,,,,,
23924,1629466703950,,,245,250,236,232,,-0.1,0.02,1.74,-0,3,3,0.1,,64,5716,15,35,72,0.702,0.0,609,4.87,13.0,0.0,1,36.5,2.52,8.4,0,0,0,1,0,,,,,,,,,,,,,,,,,,,,
23944,1629466703970,-1,2,245,250,236,233,-10,-0.12,-0.03,1.6,-0,5,5,0.13,1,64,5813,16,35,74,0.699,0.0,620,4.9,13.1,0.0,1,36.8,3.8,8.4,0,0,0,1,0,0,250,250,0,49.330502,8.566808,0.0,99.2,10,2,1.7,0,0.0,-1,0.0,,0.0,0,0.0,0.3991
23964,1629466703990,,,245,250,236,232,,-0.13,-0.07,1.48,-0,4,4,0.14,,64,5948,16,35,75,0.7,0.0,633,4.92,13.1,0.0,1,36.8,2.88,8.4,0,0,0,1,0,,,,,,,,,,,,,,,,,,,,
23984,1629466704004,,,245,250,236,233,,-0.16,-0.07,1.37,-0,4,5,0.17,,64,6169,16,35,76,0.7,0.0,641,4.87,12.9,0.0,1,37.9,2.98,8.4,0,0,0,1,0,,,,,,,,,,,,,,,,,,,,
24004,1629466704024,,,245,250,236,233,,-0.21,-0.04,1.26,-0,6,6,0.21,,65,6343,17,35,76,0.696,0.0,641,4.8,13.0,0.0,1,39.0,3.99,11.6,0,0,0,1,0,,,,,,,,,,,,,,,,,,,,
24024,1629466704044,,,245,251,236,233,,-0.16,0.0,1.45,-0,5,4,0.16,,64,6583,18,35,77,0.694,0.0,647,4.85,13.1,0.0,1,40.7,3.94,11.6,0,0,0,1,0,,,,,,,,,,,,,,,,,,,,
24044,1629466704064,0,1,245,251,236,233,-10,-0.2,-0.03,1.34,-0,7,6,0.21,1,64,6991,19,35,77,0.694,0.0,644,4.94,13.0,0.0,1,43.3,3.82,11.6,0,0,0,1,0,0,250,250,0,49.330502,8.566808,0.0,99.2,10,2,1.7,0,0.0,-1,0.0,0.0,0.0,0,0.0,0.4007
24064,1629466704084,,,245,250,236,233,,-0.19,-0.06,1.52,-0,4,4,0.2,,64,7329,19,35,77,0.692,0.0,648,4.9,13.0,0.0,1,41.5,3.93,11.6,0,0,0,1,0,,,,,,,,,,,,,,,,,,,,
24084,1629466704110,,,245,248,236,233,,-0.19,-0.08,1.41,-0,5,6,0.21,,64,7625,19,35,76,0.69,0.0,655,4.9,12.9,0.0,1,40.3,4.05,11.6,0,0,0,1,0,,,,,,,,,,,,,,,,,,,,
24104,1629466704130,,,245,249,236,233,,-0.18,-0.01,1.3,0,6,8,0.18,,65,7971,19,35,75,0.69,0.0,665,4.9,13.0,0.0,1,39.0,4.06,14.7,0,0,0,1,0,,,,,,,,,,,,,,,,,,,,
24124,1629466704150,,,245,251,236,233,,-0.2,-0.05,1.33,-0,6,6,0.2,,65,8314,19,35,73,0.689,0.0,670,4.86,13.1,0.0,1,41.3,2.94,14.7,0,0,0,1,0,,,,,,,,,,,,,,,,,,,,
24144,1629466704170,1,2,245,250,236,233,-10,-0.19,-0.15,1.35,-0,5,2,0.25,1,65,8823,19,35,70,0.687,0.0,672,4.88,13.1,0.0,1,42.0,3.8,14.7,0,0,0,1,0,0,250,250,0,49.330502,8.566808,0.0,99.2,10,2,1.7,0,0.0,-1,0.0,,0.0,0,0.0,0.4024
24164,1629466704192,,,245,250,236,233,,-0.19,-0.28,1.39,-1,5,-1,0.33,,65,9333,19,35,66,0.688,0.0,692,4.92,13.0,0.0,1,41.2,3.57,14.7,0,0,0,1,0,,,,,,,,,,,,,,,,,,,,
24184,1629466704212,,,245,250,236,233,,-0.16,-0.21,1.33,-1,4,-0,0.26,,65,9725,20,35,64,0.688,0.0,697,4.89,13.0,0.0,1,41.0,2.68,14.7,0,0,0,1,0,,,,,,,,,,,,,,,,,,,,
24204,1629466704232,,,245,250,236,233,,-0.16,-0.34,1.35,-1,4,-0,0.38,,65,10107,19,35,62,0.688,0.0,704,4.83,13.0,0.0,1,41.5,3.02,18.5,0,0,0,1,0,,,,,,,,,,,,,,,,,,,,
24224,1629466704252,,,245,251,236,233,,-0.17,-0.37,1.39,-1,3,-1,0.41,,65,10439,18,35,59,0.687,0.0,709,4.86,13.0,0.0,1,43.1,3.96,18.5,0,0,0,1,0,,,,,,,,,,,,,,,,,,,,
24244,1629466704272,0,2,245,250,236,233,-11,-0.17,-0.41,1.45,-1,2,-3,0.44,1,65,10683,17,35,56,0.688,0.0,710,4.89,12.9,0.0,1,41.4,3.76,18.5,0,0,0,1,0,0,250,250,0,49.330502,8.566808,0.0,99.2,10,2,1.7,0,0.0,-1,0.0,0.0,0.0,0,0.0,0.4041
24264,1629466704292,,,246,249,236,232,,-0.13,-0.49,1.52,-1,2,-1,0.5,,65,10850,17,35,54,0.69,0.0,712,4.84,12.9,0.0,1,40.0,3.64,18.5,0,0,0,1,0,,,,,,,,,,,,,,,,,,,,
24284,1629466704312,,,246,249,236,232,,-0.09,-0.5,1.4,-1,2,0,0.51,,65,10945,17,35,53,0.69,0.0,712,4.87,12.8,0.0,1,39.7,3.52,18.5,0,0,0,1,0,,,,,,,,,,,,,,,,,,,,
24304,1629466704332,,,246,251,235,232,,-0.09,-0.38,1.6,-1,-0,-1,0.39,,65,10990,17,35,52,0.692,0.0,705,4.9,12.9,0.0,1,39.4,3.41,17.3,0,0,0,1,0,,,,,,,,,,,,,,,,,,,,
24324,1629466704352,,,246,250,236,232,,-0.1,-0.41,1.5,-1,2,-2,0.43,,65,11009,17,35,51,0.693,0.0,710,4.87,13.0,0.0,1,39.1,3.29,17.3,0,0,0,1,0,,,,,,,,,,,,,,,,,,,,
24344,1629466704372,0,3,246,250,236,232,-9,-0.05,-0.42,1.38,-1,3,1,0.42,1,65,11016,17,35,50,0.693,0.0,707,4.86,12.9,0.0,1,38.8,2.08,17.3,0,0,0,1,0,0,250,250,0,49.330502,8.566808,0.0,99.2,10,2,1.7,0,0.0,-1,0.0,,0.0,0,0.0,0.4057
24364,1629466704392,,,246,251,235,232,,-0.05,-0.24,1.58,-1,-0,-3,0.25,,65,11009,17,35,50,0.695,0.0,710,4.87,12.9,0.0,1,38.8,3.16,17.3,0,0,0,1,0,,,,,,,,,,,,,,,,,,,,
24384,1629466704412,,,246,250,236,232,,-0.05,-0.28,1.5,-1,0,-1,0.29,,65,11016,17,35,50,0.697,0.0,713,4.85,12.9,0.0,1,38.8,3.16,17.3,0,0,0,1,0,,,,,,,,,,,,,,,,,,,,
24404,1629466704432,,,246,251,236,232,,-0.02,-0.31,1.38,-1,2,0,0.31,,65,10990,17,35,49,0.698,0.0,712,4.88,12.8,0.0,1,38.5,1.95,15.5,0,0,0,1,0,,,,,,,,,,,,,,,,,,,,
24424,1629466704452,,,246,250,236,232,,0.01,-0.18,1.58,-0,-0,-1,0.18,,65,10971,17,35,49,0.7,0.0,713,4.85,12.9,0.0,1,38.5,3.04,15.5,0,0,0,1,0,,,,,,,,,,,,,,,,,,,,
24444,1629466704472,-1,2,246,251,236,232,-9,0.05,-0.24,1.77,-1,-0,-2,0.24,1,65,10958,17,35,49,0.702,1.0,715,4.88,13.0,0.0,1,38.5,3.04,15.5,0,0,0,1,0,0,8195,250,10,49.330502,8.566808,0.0,99.2,10,2,1.7,0,0.0,-1,0.0,0.0,0.0,0,0.0,0.4074
24464,1629466704491,,,246,251,236,232,,0.07,-0.36,1.63,-1,1,-1,0.37,,65,10913,17,35,49,0.703,1.0,710,4.87,12.9,0.0,1,38.5,3.04,15.5,0,0,0,1,0,,,,,,,,,,,,,,,,,,,,
24484,1629466704511,,,246,251,236,232,,0.1,-0.18,1.81,-0,1,-2,0.2,,65,10894,17,35,49,0.704,1.0,704,4.85,12.9,0.0,1,38.5,2.91,15.5,0,0,0,1,0,,,,,,,,,,,,,,,,,,,,
24504,1629466704531,,,246,251,236,232,,0.13,-0.26,1.83,-0,0,-1,0.29,,65,10888,17,35,48,0.705,1.0,706,4.86,13.0,0.0,1,38.2,2.91,14.7,0,0,0,1,0,,,,,,,,,,,,,,,,,,,,
24524,1629466704551,,,247,250,236,232,,0.12,-0.31,1.69,-0,-1,-1,0.33,,65,10856,17,35,48,0.706,1.0,707,4.88,13.0,0.0,1,38.2,2.91,14.7,0,0,0,1,0,,,,,,,,,,,,,,,,,,,,
24544,1629466704571,-1,2,246,251,236,232,-9,0.12,-0.17,1.87,-0,-1,-2,0.21,1,65,10844,16,35,48,0.707,1.0,713,4.85,13.0,0.0,1,38.2,2.91,14.7,0,0,0,1,0,17,8195,-1,10,49.330502,8.566808,0.0,99.2,10,2,1.7,0,0.0,-1,0.0,,0.0,0,0.0,0.4091
24564,1629466704591,,,247,251,236,232,,0.1,-0.1,1.72,-0,2,1,0.14,,65,10838,16,35,47,0.709,2.0,716,4.87,12.8,0.0,1,38.0,2.91,14.7,0,0,0,1,0,,,,,,,,,,,,,,,,,,,,
24584,1629466704611,,,247,250,236,232,,0.1,-0.24,1.72,-0,-1,-2,0.26,,65,10819,15,35,47,0.71,2.0,712,4.87,13.0,0.0,1,38.0,2.79,14.7,0,0,0,1,0,,,,,,,,,,,,,,,,,,,,
24604,1629466704631,,,247,249,236,232,,0.11,-0.31,1.85,-0,-1,-1,0.33,,65,10757,14,35,46,0.711,2.0,712,4.91,12.9,0.0,1,37.2,2.76,13.8,0,0,0,1,0,,,,,,,,,,,,,,,,,,,,
24624,1629466704651,,,247,251,236,231,,0.12,-0.31,1.71,-1,-0,-1,0.33,,65,10708,14,35,45,0.712,2.0,706,4.9,13.0,0.0,1,36.5,2.73,13.8,0,0,0,1,0,,,,,,,,,,,,,,,,,,,,
24644,1629466704671,0,2,247,251,236,232,-9,0.14,-0.16,1.89,-1,-2,-2,0.21,1,65,10659,14,35,45,0.713,2.6,713,4.84,12.9,0.0,1,36.5,2.73,13.8,0,0,0,1,0,24,5442,-1,26,49.330505,8.566808,1.59,103.5,10,2,1.7,0,0.0,-1,0.0,0.0,0.0,0,0.0,0.4107
24664,1629466704691,,,247,251,236,232,,0.13,0.01,1.74,-0,-0,0,0.13,,65,10593,14,35,44,0.713,2.6,702,4.87,13.0,0.0,1,35.7,2.69,13.8,0,0,0,1,0,,,,,,,,,,,,,,,,,,,,
24684,1629466704711,,,247,251,236,231,,0.15,0.17,1.74,-0,0,1,0.22,,65,10539,14,35,43,0.714,2.6,700,4.91,12.9,0.0,1,35.0,2.65,13.8,0,0,0,1,0,,,,,,,,,,,,,,,,,,,,
24704,1629466704731,,,247,251,236,231,,0.18,0.31,1.61,-0,1,2,0.36,,65,10439,13,35,43,0.715,2.6,701,4.92,12.9,496.1,1,35.0,2.65,12.9,0,0,0,1,0,,,,,,,,,,,,,,,,,,,,
24724,1629466704751,,,247,251,236,232,,0.19,0.45,1.61,-0,-1,0,0.49,,65,10370,13,35,42,0.715,3.1,707,4.85,13.0,496.1,1,34.2,2.61,12.9,0,0,0,1,0,,,,,,,,,,,,,,,,,,,,
24744,1629466704771,0,1,247,251,236,232,-9,0.19,0.53,1.49,-0,0,-0,0.56,1,65,10302,12,35,41,0.716,3.1,704,4.85,13.0,496.1,1,33.5,2.57,12.9,0,0,0,1,0,34,-1,-1,31,49.330505,8.566808,2.25,103.6,10,2,1.7,0,0.0,-1,0.0,,0.0,0,0.0,0.4124
24764,1629466704791,,,247,250,236,231,,0.19,0.44,1.66,-1,-1,-0,0.48,,65,10206,12,35,40,0.718,3.1,706,4.85,13.0,496.1,1,32.7,2.53,12.9,0,0,0,1,0,,,,,,,,,,,,,,,,,,,,
24784,1629466704811,,,247,251,236,232,,0.14,0.26,1.65,-0,-2,0,0.3,,65,10069,11,35,39,0.718,3.6,698,4.81,13.0,496.1,1,32.0,2.5,12.9,0,0,0,1,0,,,,,,,,,,,,,,,,,,,,
24804,1629466704831,,,248,251,236,232,,0.18,0.39,1.52,-0,-1,2,0.43,,65,9936,11,35,39,0.718,3.6,694,4.92,12.9,322.2,1,32.0,2.53,11.6,0,0,0,1,0,,,,,,,,,,,,,,,,,,,,
24824,1629466704851,,,247,251,236,232,,0.15,0.3,1.57,-0,-1,1,0.33,,65,9801,11,35,38,0.719,3.6,697,4.83,13.0,322.2,1,31.7,2.58,11.6,0,0,0,1,0,,,,,,,,,,,,,,,,,,,,
24844,1629466704871,0,1,247,251,236,232,-9,0.2,0.35,1.58,-0,-1,1,0.4,1,65,9684,11,35,38,0.719,3.9,687,4.81,12.9,322.2,1,31.7,2.64,11.6,0,0,0,1,0,38,-1281,1018,39,49.330505,8.566808,2.73,103.6,10,2,1.7,0,0.0,-1,0.0,0.0,0.0,0,0.0,0.4141
24864,1629466704891,,,247,251,236,232,,0.14,0.2,1.52,-0,-1,1,0.24,,65,9522,11,35,38,0.72,3.9,688,4.78,13.0,322.2,1,31.7,2.72,11.6,0,0,0,1,0,,,,,,,,,,,,,,,,,,,,
24884,1629466704911,,,247,251,236,231,,0.16,0.18,1.4,-1,-1,-1,0.24,,65,9375,11,35,39,0.721,4.3,685,4.8,13.0,322.2,1,32.0,2.75,11.6,0,0,0,1,0,,,,,,,,,,,,,,,,,,,,
24904,1629466704931,,,247,251,236,232,,0.17,0.29,1.29,-1,-1,-2,0.33,,65,9209,11,35,39,0.721,4.3,687,4.83,13.0,274.4,1,32.0,2.73,11.8,0,0,0,1,0,,,,,,,,,,,,,,,,,,,,
24924,1629466704951,,,248,251,236,232,,0.21,0.42,1.19,-1,-0,-0,0.47,,65,9023,11,34,40,0.722,4.3,686,4.91,13.1,274.4,1,32.6,2.76,11.8,0,0,0,1,0,,,,,,,,,,,,,,,,,,,,
24944,1629466704971,0,2,247,251,236,232,-8,0.22,0.5,1.1,-1,-1,-1,0.54,1,65,8886,11,34,40,0.724,4.6,685,4.88,13.1,274.4,1,32.6,2.75,11.8,0,0,0,1,0,45,-1,-1,45,49.330509,8.566808,3.09,103.6,10,2,1.7,0,0.0,-1,0.0,,0.0,0,0.0,0.4157
24964,1629466704991,,,247,251,236,232,,0.22,0.51,1.02,-1,-2,-4,0.55,,65,8778,11,34,41,0.726,4.6,681,4.92,13.0,274.4,1,33.2,2.78,11.8,0,0,0,1,0,,,,,,,,,,,,,,,,,,,,
24984,1629466705003,,,247,250,236,232,,0.17,0.39,1.18,-2,-3,-11,0.43,,65,8668,11,34,41,0.728,4.8,680,4.92,13.1,274.4,1,33.2,2.78,11.8,0,0,0,1,0,,,,,,,,,,,,,,,,,,,,
25004,1629466705023,,,247,251,236,232,,0.16,0.26,1.36,-1,-2,-10,0.31,,65,8577,11,34,41,0.729,4.8,673,4.86,12.9,229.1,1,33.2,2.77,11.0,0,0,0,1,0,,,,,,,,,,,,,,,,,,,,
25024,1629466705043,,,247,252,236,232,,0.19,0.37,1.26,-1,-2,-4,0.42,,65,8476,11,34,41,0.729,5.1,677,4.88,13.1,229.1,1,33.1,2.74,11.0,0,0,0,1,0,,,,,,,,,,,,,,,,,,,,
25044,1629466705063,-0,2,247,251,236,232,-6,0.16,0.3,1.38,-1,-2,-7,0.33,1,65,8363,10,34,41,0.73,5.1,675,4.85,13.1,229.1,1,32.9,2.63,11.0,0,0,0,1,0,53,-1,-1,51,49.330509,8.566811,4.11,103.7,10,2,1.7,0,0.0,-1,0.0,0.0,0.0,0,0.0,0.4174
25064,1629466705092,,,247,252,236,232,,0.16,0.33,1.27,-1,-1,-3,0.36,,65,8230,10,34,41,0.731,5.1,673,4.9,12.9,229.1,1,32.7,2.52,11.0,0,0,0,1,0,,,,,,,,,,,,,,,,,,,,
25084,1629466705112,,,247,252,236,232,,0.16,0.28,1.48,-1,-1,-6,0.32,,65,8061,9,34,41,0.731,5.4,673,4.87,12.9,229.1,1,32.4,2.36,11.0,0,0,0,1,0,,,,,,,,,,,,,,,,,,,,
25104,1629466705132,,,247,252,236,232,,0.16,0.27,1.46,-1,-2,-5,0.31,,65,7978,9,34,41,0.732,5.4,670,4.89,13.1,160.3,1,32.3,2.3,8.5,0,0,0,1,0,,,,,,,,,,,,,,,,,,,,
25124,1629466705152,,,247,252,236,232,,0.14,0.35,1.35,-1,0,-1,0.38,,65,7855,9,34,42,0.732,5.6,661,4.92,12.9,160.3,1,32.9,2.3,8.5,0,0,0,1,0,,,,,,,,,,,,,,,,,,,,
25144,1629466705172,0,0,247,252,236,232,1,0.15,0.38,1.38,-0,1,-0,0.4,1,65,7728,9,34,42,0.732,5.8,658,4.92,13.0,160.3,1,32.7,2.3,8.5,0,0,0,1,0,58,-1,-1,56,49.330509,8.566812,4.57,103.8,10,2,1.7,0,0.0,-1,0.0,,0.0,0,0.0,0.4191
25164,1629466705193,,,247,252,236,232,,0.15,0.35,1.35,-0,2,-1,0.38,,65,7628,9,34,43,0.732,5.8,660,4.88,12.9,160.3,1,33.2,2.29,8.5,0,0,0,1,0,,,,,,,,,,,,,,,,,,,,
25184,1629466705213,,,247,252,236,232,,0.16,0.28,1.3,-0,2,-3,0.32,,65,7536,9,34,44,0.733,5.9,662,4.84,13.1,160.3,1,33.5,2.29,8.5,0,0,0,1,0,,,,,,,,,,,,,,,,,,,,
25204,1629466705233,,,247,252,236,232,,0.17,0.24,1.45,0,0,-5,0.29,,65,7479,9,34,44,0.734,5.9,656,4.87,12.9,136.2,1,33.4,2.29,7.9,0,0,0,1,0,,,,,,,,,,,,,,,,,,,,
25224,1629466705253,,,247,253,236,232,,0.18,0.27,1.58,0,0,-6,0.32,,65,7434,9,34,45,0.734,6.2,659,4.86,12.9,136.2,1,33.7,2.29,7.9,0,0,0,1,0,,,,,,,,,,,,,,,,,,,,
25244,1629466705273,-1,2,247,252,236,232,5,0.17,0.27,1.46,1,1,-5,0.32,1,65,7390,9,34,46,0.734,6.2,660,4.81,13.0,136.2,1,34.1,2.28,7.9,0,0,0,1,0,62,-1,-1,60,49.330509,8.566814,5.18,103.8,10,2,1.7,0,0.0,-1,0.0,0.0,0.0,0,0.0,0.4207
25264,1629466705291,,,247,252,236,232,,0.16,0.3,1.35,1,2,-4,0.34,,65,7338,9,34,46,0.734,6.3,659,4.87,13.0,136.2,1,33.9,2.26,7.9,0,0,0,1,0,,,,,,,,,,,,,,,,,,,,
25284,1629466705311,,,247,252,236,232,,0.14,0.34,1.29,1,2,-3,0.37,,65,7292,9,34,47,0.736,6.3,660,4.93,13.1,136.2,1,34.3,2.26,7.9,0,0,0,1,0,,,,,,,,,,,,,,,,,,,,
25304,1629466705331,,,247,252,236,232,,0.11,0.31,1.19,1,2,-1,0.33,,65,7267,9,34,48,0.737,6.4,656,4.93,13.0,125.0,1,34.4,2.25,7.5,0,0,0,1,0,,,,,,,,,,,,,,,,,,,,
25324,1629466705351,,,247,252,236,232,,0.11,0.22,1.24,1,1,-2,0.25,,65,7219,9,34,48,0.738,6.4,660,4.83,13.2,125.0,1,34.3,2.25,7.5,0,0,0,1,0,,,,,,,,,,,,,,,,,,,,
25344,1629466705371,-1,2,247,252,236,232,11,0.13,0.17,1.42,2,1,-3,0.22,1,65,7156,9,34,49,0.74,6.5,658,4.83,13.0,125.0,1,34.4,2.24,7.5,0,0,0,1,0,65,-6656,-1281,62,49.330509,8.566816,5.69,103.8,10,2,1.7,0,0.0,-1,0.0,,0.0,0,0.0,0.4224
25364,1629466705491,,,247,252,236,232,,0.12,0.18,1.31,2,1,-2,0.22,,65,7134,9,34,50,0.742,6.5,659,4.9,13.1,125.0,1,34.7,2.24,7.5,0,0,0,1,0,,,,,,,,,,,,,,,,,,,,
25384,1629466705411,,,247,249,237,232,,0.08,0.24,1.21,2,2,-1,0.25,,65,7099,9,34,50,0.744,6.5,650,4.9,12.9,125.0,1,34.6,2.24,7.5,0,0,0,1,0,,,,,,,,,,,,,,,,,,,,
25404,1629466705431,,,247,250,237,232,,0.08,0.16,1.12,3,1,-1,0.18,,65,7096,9,34,51,0.745,6.7,651,4.92,13.1,115.8,1,35.0,2.24,7.3,0,0,0,1,0,,,,,,,,,,,,,,,,,,,,
25424,1629466705451,,,247,249,238,232,,0.11,0.17,1.34,3,0,-3,0.2,,65,7022,9,34,51,0.745,6.7,651,4.85,13.2,115.8,1,34.8,2.23,7.3,0,0,0,1,0,,,,,,,,,,,,,,,,,,,,
25444,1629466705471,0,2,248,250,238,232,17,0.06,0.2,1.24,3,2,-1,0.21,1,65,7011,9,34,52,0.745,6.9,649,4.86,12.9,115.8,1,35.1,2.23,7.3,0,0,0,1,0,68,-27648,-6656,64,49.330509,8.566817,6.4,103.9,10,2,1.7,0,0.0,-1,0.0,0.0,0.0,0,0.0,0.4241
25464,1629466705491,,,248,249,238,232,,0.08,0.18,1.39,3,0,-2,0.19,,65,6975,9,34,52,0.744,7.0,651,5.01,13.1,115.8,1,35.0,2.23,7.3,0,0,0,1,0,,,,,,,,,,,,,,,,,,,,
25484,1629466705510,,,248,249,238,232,,0.09,0.13,1.36,4,1,-2,0.16,,65,6931,9,34,52,0.744,7.0,648,4.88,13.0,115.8,1,34.9,2.23,7.3,0,0,0,1,0,,,,,,,,,,,,,,,,,,,,
25504,1629466705530,,,248,249,238,232,,0.05,0.17,1.27,4,2,-1,0.18,,65,6931,9,34,53,0.744,7.0,645,4.88,13.0,110.9,1,35.2,2.23,7.1,0,0,0,1,0,,,,,,,,,,,,,,,,,,,,
25524,1629466705550,,,248,248,238,231,,0.07,0.11,1.28,4,1,-2,0.13,,65,6888,9,34,53,0.744,7.0,651,4.9,13.2,110.9,1,35.1,2.24,7.1,0,0,0,1,0,,,,,,,,,,,,,,,,,,,,
25544,1629466705570,-0,2,248,248,238,231,22,0.05,0.18,1.26,4,1,-1,0.19,1,65,6858,9,35,53,0.744,7.1,651,4.87,13.0,110.9,1,35.0,2.23,7.1,0,0,0,1,0,71,-1481,14054,65,49.330513,8.566819,6.45,103.9,10,2,1.7,0,0.0,-1,0.0,,0.0,0,0.0,0.4257
25564,1629466705590,,,248,247,238,231,,0.06,0.12,1.2,5,1,-2,0.13,,65,6830,9,34,53,0.745,7.1,649,4.91,13.1,110.9,1,34.9,2.24,7.1,0,0,0,1,0,,,,,,,,,,,,,,,,,,,,
25584,1629466705610,,,248,247,238,231,,0.05,0.14,1.18,5,2,-1,0.15,,65,6805,9,35,53,0.743,7.1,650,4.8,12.9,110.9,1,34.8,2.23,7.1,0,0,0,1,0,,,,,,,,,,,,,,,,,,,,
25604,1629466705630,,,248,247,238,231,,0.05,0.11,1.24,5,0,-1,0.12,,65,6781,9,34,53,0.744,7.3,646,4.92,13.2,106.0,1,34.7,2.25,7.0,0,0,0,1,0,,,,,,,,,,,,,,,,,,,,
25624,1629466705650,,,248,250,238,231,,0.07,0.09,1.2,5,1,-1,0.11,,65,6808,9,35,54,0.744,7.4,651,4.85,13.0,106.0,1,35.2,2.23,7.0,0,0,0,1,0,,,,,,,,,,,,,,,,,,,,
25644,1629466705670,0,2,248,250,238,232,26,0.03,0.09,1.13,6,1,-0,0.1,1,65,6830,9,35,54,0.745,7.4,645,4.92,13.0,106.0,1,35.3,2.23,7.0,0,0,0,1,0,74,14242,-1482,66,49.330513,8.566821,6.72,103.9,10,2,1.7,0,0.0,-1,0.0,0.0,0.0,0,0.0,0.4274
25664,1629466705692,,,248,250,238,232,,0.05,0.09,1.24,6,1,-1,0.11,,65,6810,9,35,54,0.744,7.5,647,4.92,13.2,106.0,1,35.2,2.23,7.0,0,0,0,1,0,,,,,,,,,,,,,,,,,,,,
25684,1629466705712,,,248,251,238,232,,0.03,0.13,1.14,6,1,1,0.13,,65,6783,9,35,54,0.745,7.5,645,4.87,13.0,106.0,1,35.1,2.23,7.0,0,0,0,1,0,,,,,,,,,,,,,,,,,,,,
25704,1629466705732,,,247,251,238,232,,0.08,0.12,1.36,6,-0,-1,0.14,,65,6761,9,35,54,0.745,7.5,646,4.93,13.2,100.0,1,35.1,2.23,6.9,0,0,0,1,0,,,,,,,,,,,,,,,,,,,,
25724,1629466705752,,,247,252,237,232,,0.03,0.11,1.26,7,1,1,0.11,,65,6720,9,35,54,0.746,7.6,638,4.92,13.0,100.0,1,34.9,2.23,6.9,0,0,0,1,0,,,,,,,,,,,,,,,,,,,,
25744,1629466705772,0,1,247,251,237,232,28,0.07,0.12,1.46,7,1,0,0.14,1,65,6682,9,35,54,0.746,7.7,647,4.82,13.1,100.0,1,34.8,2.23,6.9,0,0,0,1,0,76,-20480,-27648,69,49.330513,8.566822,6.62,103.8,10,2,1.7,0,0.0,-1,0.0,,0.0,0,0.0,0.4291
25764,1629466705792,,,247,251,237,232,,0.04,0.11,1.38,7,-0,0,0.12,,65,6694,9,35,54,0.747,7.7,643,4.89,13.0,100.0,1,34.8,2.23,6.9,0,0,0,1,0,,,,,,,,,,,,,,,,,,,,
25784,1629466705810,,,247,251,237,232,,0.07,0.11,1.34,7,1,0,0.12,,65,6718,9,35,54,0.746,7.8,646,4.87,13.0,100.0,1,34.9,2.23,6.9,0,0,0,1,0,,,,,,,,,,,,,,,,,,,,
25804,1629466705830,,,247,252,237,232,,0.04,0.07,1.29,8,0,0,0.08,,65,6727,9,35,55,0.749,7.9,645,4.92,13.1,101.4,1,35.2,2.25,7.0,0,0,0,1,0,,,,,,,,,,,,,,,,,,,,
25824,1629466705850,,,247,251,237,232,,0.05,0.11,1.26,8,0,0,0.12,,65,6720,9,35,55,0.748,7.9,647,4.82,13.2,101.4,1,35.2,2.25,7.0,0,0,0,1,0,,,,,,,,,,,,,,,,,,,,
25844,1629466705870,0,2,247,252,237,232,28,0.05,0.07,1.24,8,-1,1,0.08,1,65,6730,9,35,55,0.75,7.8,646,4.91,13.1,101.4,1,35.3,2.25,7.0,0,0,0,1,0,78,14256,-1481,72,49.330517,8.566822,7.13,103.7,10,2,1.7,0,0.0,-1,0.0,0.0,0.0,0,0.0,0.4307
25864,1629466705892,,,247,252,237,232,,0.06,0.13,1.25,8,0,1,0.14,,65,6715,9,35,55,0.749,7.9,648,4.86,13.1,101.4,1,35.2,2.25,7.0,0,0,0,1,0,,,,,,,,,,,,,,,,,,,,
25884,1629466705912,,,247,252,237,232,,0.05,0.06,1.24,8,-1,-0,0.08,,65,6720,9,35,55,0.749,8.0,647,4.91,13.2,101.4,1,35.2,2.25,7.0,0,0,0,1,0,,,,,,,,,,,,,,,,,,,,
25904,1629466705932,,,247,252,237,232,,0.04,0.1,1.14,8,1,1,0.1,,65,6715,9,35,55,0.75,8.0,647,4.81,13.1,97.2,1,35.2,2.25,7.0,0,0,0,1,0,,,,,,,,,,,,,,,,,,,,
25924,1629466705952,,,247,252,237,232,,0.06,0.05,1.36,8,-1,-1,0.08,,65,6708,9,35,55,0.75,7.9,647,4.9,13.1,97.2,1,35.2,2.25,7.0,0,0,0,1,0,,,,,,,,,,,,,,,,,,,,
25944,1629466705972,-1,2,247,252,237,232,28,0.02,0.1,1.25,9,1,1,0.11,1,65,6689,9,35,54,0.751,8.2,651,4.88,13.0,97.2,1,34.8,2.25,7.0,0,0,0,1,0,80,14270,-24064,72,49.330517,8.566822,7.14,103.6,10,2,1.7,0,0.0,-1,0.0,,0.0,0,0.0,0.4324
25964,1629466705992,,,247,252,237,232,,0.06,0.03,1.47,9,-1,-1,0.07,,65,6691,9,35,55,0.751,8.2,647,4.91,13.2,97.2,1,35.1,2.23,7.0,0,0,0,1,0,,,,,,,,,,,,,,,,,,,,
25984,1629466706004,,,247,252,237,232,,0.01,0.08,1.35,9,1,1,0.08,,65,6691,9,35,55,0.752,8.2,646,4.86,12.9,97.2,1,35.1,2.25,7.0,0,0,0,1,0,,,,,,,,,,,,,,,,,,,,
26004,1629466706024,,,247,252,237,232,,0.05,0.05,1.55,9,-1,-1,0.07,,65,6660,9,35,54,0.751,8.3,647,4.85,13.2,94.5,1,34.7,2.25,6.9,0,0,0,1,0,,,,,,,,,,,,,,,,,,,,
26024,1629466706044,,,247,252,237,232,,0.02,0.1,1.43,9,-0,1,0.1,,65,6658,9,35,55,0.752,8.4,645,4.91,13.1,94.5,1,35.0,2.25,6.9,0,0,0,1,0,,,,,,,,,,,,,,,,,,,,
26044,1629466706064,-1,2,247,252,237,232,30,0.06,0.13,1.55,9,-0,-0,0.15,1,65,6599,9,35,54,0.75,8.4,648,4.87,13.2,94.5,1,34.5,2.23,6.9,0,0,0,1,0,83,250,250,74,49.330521,8.566823,7.42,103.5,10,2,1.7,0,0.0,-1,0.0,0.0,0.0,0,0.0,0.4341
26064,1629466706084,,,247,252,237,232,,0.06,0.07,1.47,9,-1,-1,0.09,,65,6616,9,35,55,0.751,8.3,648,4.92,13.2,94.5,1,34.8,2.23,6.9,0,0,0,1,0,,,,,,,,,,,,,,,,,,,,
26084,1629466706110,,,247,252,237,232,,0.03,0.12,1.36,9,1,1,0.12,,65,6604,9,35,54,0.75,8.5,645,4.87,13.1,94.5,1,34.5,2.25,6.9,0,0,0,1,0,,,,,,,,,,,,,,,,,,,,
26104,1629466706130,,,247,252,237,232,,0.08,0.09,1.56,9,-1,-1,0.12,,65,6613,8,35,54,0.75,8.5,648,4.93,13.2,89.4,1,34.6,2.23,6.8,0,0,0,1,0,,,,,,,,,,,,,,,,,,,,
26124,1629466706150,,,247,252,237,232,,0.02,0.11,1.44,10,-0,0,0.11,,65,6597,8,35,54,0.751,8.7,641,4.95,13.1,89.4,1,34.5,2.23,6.8,0,0,0,1,0,,,,,,,,,,,,,,,,,,,,
26144,1629466706170,0,1,247,251,237,232,32,0.05,0.12,1.46,10,0,0,0.13,1,65,6572,8,35,54,0.75,8.8,647,4.87,13.2,89.4,1,34.4,2.23,6.8,0,0,0,1,0,86,250,-20480,77,49.330521,8.566825,7.67,103.2,10,2,1.7,0,0.0,-1,0.0,,0.0,0,0.0,0.4357
26164,1629466706192,,,247,252,237,232,,0.04,0.06,1.52,10,-1,-0,0.07,,65,6565,8,35,54,0.752,8.8,645,4.99,13.2,89.4,1,34.4,2.23,6.8,0,0,0,1,0,,,,,,,,,,,,,,,,,,,,
26184,1629466706212,,,247,250,237,232,,0.0,0.13,1.4,10,0,1,0.13,,65,6544,8,35,54,0.75,8.8,638,4.87,13.0,89.4,1,34.3,2.23,6.8,0,0,0,1,0,,,,,,,,,,,,,,,,,,,,
26204,1629466706232,,,247,249,237,232,,0.04,0.08,1.54,10,-1,-0,0.09,,65,6585,8,35,53,0.75,8.8,643,4.84,13.2,84.8,1,34.2,2.23,6.7,0,0,0,1,0,,,,,,,,,,,,,,,,,,,,
26224,1629466706252,,,247,250,237,232,,0.02,0.08,1.42,10,-1,1,0.08,,65,6572,8,35,53,0.75,8.8,643,4.91,13.0,84.8,1,34.1,2.24,6.7,0,0,0,1,0,,,,,,,,,,,,,,,,,,,,
26244,1629466706272,0,1,247,249,237,232,32,0.03,0.15,1.4,11,-0,0,0.15,1,65,6590,8,35,53,0.751,9.0,648,4.88,13.2,84.8,1,34.2,2.24,6.7,0,0,0,1,0,88,14298,250,80,49.330521,8.566827,7.56,103.1,10,2,1.7,0,0.0,-1,0.0,0.0,0.0,0,0.0,0.4374
26264,1629466706292,,,247,249,237,232,,0.05,0.07,1.52,11,-1,-1,0.09,,65,6544,8,35,53,0.75,9.0,644,4.94,13.2,84.8,1,34.0,2.24,6.7,0,0,0,1,0,,,,,,,,,,,,,,,,,,,,
26284,1629466706312,,,248,249,238,232,,-0.01,0.08,1.4,11,1,1,0.08,,65,6590,8,35,53,0.751,9.1,645,4.87,12.9,84.8,1,34.2,2.24,6.7,0,0,0,1,0,,,,,,,,,,,,,,,,,,,,
26304,1629466706332,,,248,249,238,232,,0.02,0.09,1.55,11,0,0,0.09,,65,6551,8,35,53,0.751,9.1,641,4.93,13.2,83.9,1,34.1,2.24,6.8,0,0,0,1,0,,,,,,,,,,,,,,,,,,,,
26324,1629466706352,,,248,249,239,232,,0.02,0.03,1.55,11,-1,0,0.04,,65,6606,8,35,53,0.751,9.2,641,4.97,13.2,83.9,1,34.2,2.24,6.8,0,0,0,1,0,,,,,,,,,,,,,,,,,,,,
26344,1629466706372,0,1,248,249,239,232,31,-0.0,0.09,1.43,11,1,1,0.09,1,65,6606,8,35,53,0.752,9.2,645,4.82,13.1,83.9,1,34.2,2.24,6.8,0,0,0,1,0,91,250,14270,81,49.330521,8.566828,8.34,103.0,10,2,1.7,0,0.0,-1,0.0,,0.0,0,0.0,0.4391
26364,1629466706391,,,248,249,239,231,,0.04,0.02,1.63,11,-0,0,0.04,,65,6581,8,35,52,0.751,9.2,641,4.93,13.2,83.9,1,33.9,2.24,6.8,0,0,0,1,0,,,,,,,,,,,,,,,,,,,,
26384,1629466706411,,,248,249,239,231,,-0.02,0.04,1.5,11,1,2,0.04,,65,6578,8,35,52,0.752,9.2,642,4.9,13.1,83.9,1,33.8,2.24,6.8,0,0,0,1,0,,,,,,,,,,,,,,,,,,,,
26404,1629466706431,,,248,248,239,231,,-0.0,0.09,1.55,11,1,1,0.09,,65,6546,8,35,52,0.751,9.2,645,4.83,13.2,79.7,1,33.8,2.24,6.7,0,0,0,1,0,,,,,,,,,,,,,,,,,,,,
26424,1629466706451,,,248,248,239,231,,0.02,0.03,1.6,11,-1,0,0.04,,65,6544,8,35,52,0.752,9.3,643,4.89,13.1,79.7,1,33.7,2.24,6.7,0,0,0,1,0,,,,,,,,,,,,,,,,,,,,
26444,1629466706471,-0,2,248,248,239,231,30,-0.01,0.08,1.48,12,1,2,0.08,1,65,6569,8,35,52,0.753,9.3,642,4.86,13.0,79.7,1,33.8,2.24,6.7,0,0,0,1,0,93,-6144,250,84,49.330524,8.566829,8.22,102.9,10,2,1.7,0,0.0,-1,0.0,0.0,0.0,0,0.0,0.4407
26464,1629466706491,,,248,248,238,231,,0.03,0.09,1.65,12,-0,1,0.09,,65,6551,8,35,52,0.752,9.4,644,4.92,13.2,79.7,1,33.8,2.24,6.7,0,0,0,1,0,,,,,,,,,,,,,,,,,,,,
26484,1629466706511,,,248,250,238,231,,0.02,0.03,1.52,12,1,1,0.04,,65,6558,8,35,52,0.753,9.5,642,4.98,13.1,79.7,1,33.8,2.24,6.7,0,0,0,1,0,,,,,,,,,,,,,,,,,,,,
26504,1629466706531,,,248,248,238,231,,-0.02,0.09,1.4,12,3,3,0.09,,65,6521,8,35,52,0.753,9.5,643,4.86,13.1,78.8,1,33.7,2.24,6.7,0,0,0,1,0,,,,,,,,,,,,,,,,,,,,
26524,1629466706551,,,248,248,238,231,,0.03,0.07,1.6,12,1,1,0.07,,65,6530,8,35,52,0.753,9.3,641,4.92,13.2,78.8,1,33.7,2.24,6.7,0,0,0,1,0,,,,,,,,,,,,,,,,,,,,
26544,1629466706571,0,0,248,249,238,231,30,0.01,0.05,1.5,12,1,2,0.05,1,65,6512,8,35,52,0.755,9.6,641,4.94,13.0,78.8,1,33.6,2.24,6.7,0,0,0,1,0,94,250,14284,85,49.330524,8.566831,8.53,102.7,10,2,1.7,0,0.0,-1,0.0,,0.0,0,0.0,0.4424
26564,1629466706591,,,248,248,238,231,,0.0,0.12,1.38,12,2,3,0.12,,65,6512,8,35,52,0.753,9.6,644,4.87,13.1,78.8,1,33.6,2.24,6.7,0,0,0,1,0,,,,,,,,,,,,,,,,,,,,
26584,1629466706611,,,248,249,238,231,,0.04,0.07,1.58,12,1,1,0.08,,65,6508,8,35,52,0.753,9.6,647,4.92,13.2,78.8,1,33.6,2.24,6.7,0,0,0,1,0,,,,,,,,,,,,,,,,,,,,
26604,1629466706631,,,248,250,238,231,,-0.01,0.05,1.46,12,1,2,0.05,,65,6530,8,35,52,0.754,9.8,637,4.9,13.0,77.0,1,33.7,2.24,6.7,0,0,0,1,0,,,,,,,,,,,,,,,,,,,,
26624,1629466706651,,,248,249,238,231,,-0.01,0.14,1.35,12,2,2,0.14,,65,6526,8,35,52,0.752,9.7,639,4.85,12.9,77.0,1,33.7,2.24,6.7,0,0,0,1,0,,,,,,,,,,,,,,,,,,,,
26644,1629466706671,0,1,248,248,238,231,30,0.04,0.09,1.55,12,-1,0,0.1,1,65,6521,8,35,52,0.753,9.7,645,4.85,13.2,77.0,1,33.7,2.24,6.7,0,0,0,1,0,97,-22528,-9728,89,49.330524,8.566832,8.52,102.4,10,2,1.7,0,0.0,-1,0.0,0.0,0.0,0,0.0,0.4441
26664,1629466706692,,,248,248,238,231,,-0.01,0.1,1.43,12,0,2,0.1,,65,6544,8,35,52,0.753,9.8,643,4.9,13.0,77.0,1,33.7,2.24,6.7,0,0,0,1,0,,,,,,,,,,,,,,,,,,,,
26684,1629466706712,,,249,248,239,231,,0.02,0.15,1.44,12,0,1,0.15,,65,6549,8,35,52,0.751,10.0,644,4.82,13.0,77.0,1,33.8,2.24,6.7,0,0,0,1,0,,,,,,,,,,,,,,,,,,,,
26704,1629466706732,,,248,248,239,231,,0.05,0.08,1.52,12,-0,-0,0.09,,65,6555,8,35,52,0.752,10.1,644,4.93,13.3,76.1,1,33.8,2.24,6.7,0,0,0,1,0,,,,,,,,,,,,,,,,,,,,
26724,1629466706752,,,248,248,239,231,,-0.01,0.11,1.4,12,2,2,0.11,,65,6560,8,35,52,0.751,10.0,640,4.84,13.0,76.1,1,33.8,2.24,6.7,0,0,0,1,0,,,,,,,,,,,,,,,,,,,,
26744,1629466706772,0,1,248,248,239,231,28,0.03,0.1,1.59,12,0,0,0.11,1,65,6569,8,35,52,0.75,10.1,641,4.85,13.2,76.1,1,33.8,2.24,6.7,0,0,0,1,0,99,2048,250,91,49.330528,8.566833,8.69,102.2,10,2,1.7,0,0.0,-1,0.0,,0.0,0,0.0,0.4457
26764,1629466706791,,,248,248,239,231,,0.03,0.06,1.63,12,-1,-0,0.07,,65,6578,8,35,52,0.752,10.1,637,4.92,13.1,76.1,1,33.9,2.24,6.7,0,0,0,1,0,,,,,,,,,,,,,,,,,,,,
26784,1629466706811,,,248,248,238,231,,-0.01,0.12,1.51,12,1,1,0.12,,65,6546,8,35,52,0.75,10.3,646,4.85,13.1,76.1,1,33.8,2.24,6.7,0,0,0,1,0,,,,,,,,,,,,,,,,,,,,
26804,1629466706831,,,248,249,238,231,,0.03,0.05,1.7,12,-0,-1,0.06,,65,6562,8,35,52,0.751,10.3,647,4.88,13.2,74.7,1,33.8,2.24,6.8,0,0,0,1,0,,,,,,,,,,,,,,,,,,,,
26824,1629466706851,,,248,250,238,231,,-0.01,0.04,1.57,12,0,0,0.04,,65,6553,8,35,52,0.753,10.2,640,4.97,13.1,74.7,1,33.8,2.24,6.8,0,0,0,1,0,,,,,,,,,,,,,,,,,,,,
26844,1629466706871,1,2,248,250,238,231,23,-0.01,0.11,1.45,12,0,0,0.11,1,65,6535,8,35,52,0.751,10.3,642,4.84,13.0,74.7,1,33.7,2.24,6.8,0,0,0,1,0,101,-1482,-6144,93,49.330528,8.566834,9.26,102.1,10,2,1.7,0,0.0,-1,0.0,0.0,0.0,0,0.0,0.4474
26864,1629466706891,,,248,250,238,232,,0.02,0.04,1.64,12,-1,-1,0.04,,65,6524,8,35,52,0.753,10.2,642,4.88,13.2,74.7,1,33.7,2.24,6.8,0,0,0,1,0,,,,,,,,,,,,,,,,,,,,
26884,1629466706911,,,248,250,238,232,,-0.02,0.05,1.52,12,-0,1,0.05,,65,6528,8,35,52,0.754,10.3,642,4.88,13.0,74.7,1,33.7,2.24,6.8,0,0,0,1,0,,,,,,,,,,,,,,,,,,,,
26904,1629466706931,,,248,250,238,232,,0.0,0.11,1.55,12,-0,1,0.11,,65,6546,8,35,52,0.753,10.4,645,4.87,13.2,71.2,1,33.8,2.24,6.7,0,0,0,1,0,,,,,,,,,,,,,,,,,,,,
26924,1629466706951,,,248,250,238,232,,0.03,0.04,1.65,12,-1,-0,0.04,,65,6505,8,35,52,0.755,10.4,643,4.93,13.2,71.2,1,33.6,2.24,6.7,0,0,0,1,0,,,,,,,,,,,,,,,,,,,,
26944,1629466706971,0,2,248,251,237,232,23,-0.04,0.04,1.52,12,1,2,0.06,1,65,6535,8,35,52,0.755,10.5,639,4.85,12.9,71.2,1,33.7,2.24,6.7,0,0,0,1,0,104,3584,250,96,49.330532,8.566835,9.17,102.0,10,2,1.7,0,0.0,-1,0.0,,0.0,0,0.0,0.4491
26964,1629466706991,,,248,251,237,232,,-0.01,0.09,1.64,12,-0,1,0.09,,65,6558,8,35,52,0.753,10.4,648,4.82,13.2,71.2,1,33.8,2.24,6.7,0,0,0,1,0,,,,,,,,,,,,,,,,,,,,
26984,1629466707005,,,248,250,238,232,,0.0,0.03,1.75,12,-1,0,0.03,,65,6555,8,35,52,0.756,10.4,642,4.96,13.2,71.2,1,33.8,2.24,6.7,0,0,0,1,0,,,,,,,,,,,,,,,,,,,,
27004,1629466707025,,,248,251,238,232,,-0.03,0.09,1.61,12,0,2,0.1,,65,6569,8,35,52,0.755,10.5,640,4.87,13.1,70.1,1,33.8,2.24,6.8,0,0,0,1,0,,,,,,,,,,,,,,,,,,,,
27024,1629466707045,,,248,251,238,232,,-0.0,0.06,1.8,12,-1,-0,0.06,,65,6569,8,35,52,0.755,10.5,640,4.94,13.2,70.1,1,33.8,2.24,6.8,0,0,0,1,0,,,,,,,,,,,,,,,,,,,,
27044,1629466707065,-1,2,248,250,238,232,24,-0.03,0.0,1.68,12,-1,1,0.03,1,65,6521,8,35,52,0.756,10.5,635,4.91,13.0,70.1,1,33.7,2.24,6.8,0,0,0,1,0,107,250,13736,97,49.330532,8.566836,9.51,102.2,10,2,1.7,0,0.0,-1,0.0,0.0,0.0,0,0.0,0.4507
27064,1629466707093,,,248,251,238,232,,-0.04,0.09,1.55,12,0,1,0.1,,65,6508,8,35,52,0.754,10.8,640,4.85,12.9,70.1,1,33.6,2.24,6.8,0,0,0,1,0,,,,,,,,,,,,,,,,,,,,
27084,1629466707113,,,248,250,238,232,,-0.0,0.05,1.74,12,-2,-0,0.05,,65,6514,8,35,52,0.755,10.7,645,4.91,13.2,70.1,1,33.6,2.24,6.8,0,0,0,1,0,,,,,,,,,,,,,,,,,,,,
27104,1629466707133,,,248,251,237,232,,-0.01,0.04,1.6,12,-1,1,0.04,,65,6521,8,35,52,0.757,10.8,646,4.9,13.0,67.6,1,33.7,2.24,6.7,0,0,0,1,0,,,,,,,,,,,,,,,,,,,,
27124,1629466707153,,,248,251,237,232,,0.01,0.11,1.57,12,-1,1,0.11,,65,6576,8,35,52,0.754,10.8,647,4.85,13.0,67.6,1,33.9,2.24,6.7,0,0,0,1,0,,,,,,,,,,,,,,,,,,,,
27144,1629466707173,-0,2,248,251,237,232,22,0.06,0.07,1.69,12,-2,-1,0.09,1,65,6611,8,35,52,0.756,10.8,644,4.94,13.2,67.6,1,34.0,2.24,6.7,0,0,0,1,0,108,250,13736,100,49.330536,8.566837,9.54,102.2,10,2,1.7,0,0.0,-1,0.0,,0.0,0,0.0,0.4524
27164,1629466707193,,,247,251,237,232,,-0.03,0.08,1.56,12,0,2,0.08,,65,6698,8,35,52,0.755,10.8,642,4.85,13.0,67.6,1,34.2,2.24,6.7,0,0,0,1,0,,,,,,,,,,,,,,,,,,,,
27184,1629466707213,,,248,251,237,232,,-0.03,0.03,1.55,12,-3,-1,0.05,,65,6756,8,35,51,0.755,11.1,640,4.95,13.2,67.6,1,34.0,2.24,6.7,0,0,0,1,0,,,,,,,,,,,,,,,,,,,,
27204,1629466707233,,,247,251,237,232,,-0.01,0.05,1.49,12,-0,1,0.05,,65,6813,8,35,51,0.756,11.0,643,4.9,13.1,72.1,1,34.2,2.23,7.0,0,0,0,1,0,,,,,,,,,,,,,,,,,,,,
27224,1629466707253,,,247,250,237,232,,-0.05,0.08,1.38,12,-2,0,0.09,,65,6883,8,35,51,0.755,10.8,645,4.9,13.1,72.1,1,34.4,2.23,7.0,0,0,0,1,0,,,,,,,,,,,,,,,,,,,,
27244,1629466707273,0,2,247,251,237,232,21,-0.02,0.04,1.42,12,-2,-1,0.04,1,65,6880,8,35,51,0.754,10.8,648,4.92,13.2,72.1,1,34.4,2.23,7.0,0,0,0,1,0,107,250,13736,98,49.33054,8.566837,9.49,102.3,10,2,1.7,0,0.0,-1,0.0,0.0,0.0,0,0.0,0.4541
27264,1629466707293,,,247,251,237,233,,-0.08,0.08,1.31,12,0,1,0.11,,65,6900,8,35,51,0.755,10.6,648,4.87,13.0,72.1,1,34.4,2.22,7.0,0,0,0,1,0,,,,,,,,,,,,,,,,,,,,
27284,1629466707313,,,247,251,237,232,,-0.06,0.02,1.33,12,-2,-1,0.06,,65,6903,8,35,51,0.754,10.7,651,4.91,13.2,72.1,1,34.4,2.22,7.0,0,0,0,1,0,,,,,,,,,,,,,,,,,,,,
27304,1629466707333,,,247,251,237,233,,-0.05,0.05,1.49,12,0,1,0.07,,65,6947,8,35,51,0.754,10.7,651,4.83,13.1,72.4,1,34.6,2.22,7.1,0,0,0,1,0,,,,,,,,,,,,,,,,,,,,
27324,1629466707353,,,247,251,237,232,,-0.11,0.07,1.38,12,-1,-1,0.13,,65,6952,8,35,51,0.755,10.6,650,4.99,13.2,72.4,1,34.6,2.22,7.1,0,0,0,1,0,,,,,,,,,,,,,,,,,,,,
27344,1629466707373,-1,2,247,249,237,233,21,-0.08,0.0,1.58,12,-1,-2,0.08,1,65,6962,8,35,50,0.753,10.6,656,4.91,13.2,72.4,1,34.3,2.22,7.1,0,0,0,1,0,105,13838,-22528,97,49.33054,8.566837,9.55,102.2,10,2,1.7,0,0.0,-1,0.0,,0.0,0,0.01,0.4557
27364,1629466707391,,,247,251,237,233,,-0.07,0.03,1.46,12,-0,-0,0.08,,65,6980,8,35,50,0.754,10.5,649,4.95,13.0,72.4,1,34.3,2.22,7.1,0,0,0,1,0,,,,,,,,,,,,,,,,,,,,
27384,1629466707411,,,247,251,237,233,,-0.09,0.07,1.35,12,-1,0,0.11,,65,6988,8,35,50,0.755,10.5,651,4.92,13.2,72.4,1,34.3,2.22,7.1,0,0,0,1,0,,,,,,,,,,,,,,,,,,,,
27404,1629466707431,,,247,251,237,233,,-0.06,0.06,1.53,12,-2,-1,0.09,,65,6988,8,35,50,0.754,10.5,652,4.85,13.2,75.0,1,34.3,2.22,7.2,0,0,0,1,0,,,,,,,,,,,,,,,,,,,,
27424,1629466707451,,,247,251,237,234,,-0.07,0.08,1.44,12,1,1,0.1,,66,7040,8,35,50,0.755,10.5,648,4.85,13.0,75.0,1,34.5,2.21,7.2,0,0,0,1,0,,,,,,,,,,,,,,,,,,,,
27444,1629466707471,0,1,247,251,236,234,21,-0.1,0.09,1.33,12,-1,-1,0.14,1,66,7064,8,35,50,0.756,10.5,647,4.88,13.1,75.0,1,34.5,2.22,7.2,0,0,0,1,0,103,3584,-1481,95,49.33054,8.566838,9.31,102.0,10,2,1.7,0,0.0,-1,0.0,0.0,0.0,0,0.01,0.4574
27464,1629466707492,,,247,251,237,234,,-0.08,0.02,1.54,12,-1,-1,0.09,,66,7062,8,35,50,0.756,10.4,656,4.83,13.2,75.0,1,34.5,2.22,7.2,0,0,0,1,0,,,,,,,,,,,,,,,,,,,,
27484,1629466707512,,,247,251,236,234,,-0.07,0.02,1.56,12,-1,-1,0.08,,66,7070,8,35,50,0.756,10.4,655,4.86,13.1,75.0,1,34.5,2.22,7.2,0,0,0,1,0,,,,,,,,,,,,,,,,,,,,
27504,1629466707532,,,247,251,236,234,,-0.13,0.07,1.44,12,0,1,0.14,,66,7030,8,35,50,0.757,10.3,651,4.93,13.1,76.5,1,34.4,2.21,7.2,0,0,0,1,0,,,,,,,,,,,,,,,,,,,,
27524,1629466707552,,,247,251,236,234,,-0.11,0.03,1.42,11,-2,-1,0.11,,66,7046,8,35,50,0.757,10.0,653,4.94,13.2,76.5,1,34.5,2.22,7.2,0,0,0,1,0,,,,,,,,,,,,,,,,,,,,
27544,1629466707572,0,1,246,251,236,234,20,-0.07,0.02,1.61,11,-1,-0,0.07,1,66,7059,8,35,50,0.756,10.3,653,4.86,13.2,76.5,1,34.5,2.22,7.2,0,0,0,1,0,101,-1482,-6144,93,49.330544,8.566838,9.31,102.0,10,2,1.7,0,0.0,-1,0.0,,0.0,0,0.01,0.4591
27564,1629466707592,,,246,251,236,234,,-0.1,0.07,1.49,11,1,2,0.13,,66,7054,8,35,50,0.757,10.2,650,4.88,12.9,76.5,1,34.5,2.22,7.2,0,0,0,1,0,,,,,,,,,,,,,,,,,,,,
27584,1629466707612,,,246,251,237,234,,-0.1,0.07,1.53,11,-1,1,0.13,,66,7067,8,35,50,0.757,10.2,652,4.96,13.1,76.5,1,34.5,2.22,7.2,0,0,0,1,0,,,,,,,,,,,,,,,,,,,,
27604,1629466707632,,,246,251,237,234,,-0.08,0.02,1.5,11,-1,-0,0.08,,66,7048,8,35,50,0.756,10.1,650,4.95,13.2,78.2,1,34.5,2.22,7.2,0,0,0,1,0,,,,,,,,,,,,,,,,,,,,
27624,1629466707652,,,246,251,237,234,,-0.06,0.05,1.68,11,-0,-0,0.07,,66,7096,8,35,50,0.757,10.2,652,4.82,13.0,78.2,1,34.6,2.23,7.2,0,0,0,1,0,,,,,,,,,,,,,,,,,,,,
27644,1629466707672,1,2,246,251,237,234,20,-0.12,0.04,1.55,11,1,1,0.13,1,66,7091,8,35,50,0.757,10.1,652,4.94,13.2,78.2,1,34.6,2.23,7.2,0,0,0,1,0,100,2048,-6144,93,49.330544,8.566838,9.2,101.8,10,2,1.7,0,0.0,-1,0.0,0.0,0.0,0,0.01,0.4607
27664,1629466707692,,,246,251,236,233,,-0.1,0.01,1.73,11,-2,-2,0.1,,66,7110,8,35,50,0.757,10.1,650,4.92,13.2,78.2,1,34.6,2.23,7.2,0,0,0,1,0,,,,,,,,,,,,,,,,,,,,
27684,1629466707712,,,246,251,236,234,,-0.09,-0.06,1.85,11,-0,-1,0.11,,66,7134,8,35,50,0.757,10.2,653,4.78,13.0,78.2,1,34.7,2.23,7.2,0,0,0,1,0,,,,,,,,,,,,,,,,,,,,
27704,1629466707732,,,246,251,237,233,,-0.09,-0.02,1.73,11,-0,-0,0.09,,66,7145,16,35,51,0.757,10.1,652,4.83,13.0,80.4,1,35.0,2.24,7.4,0,0,0,1,0,,,,,,,,,,,,,,,,,,,,
27724,1629466707752,,,246,251,237,233,,-0.11,0.03,1.59,11,1,2,0.12,,66,7134,34,35,60,0.757,9.9,650,4.96,13.0,80.4,1,37.9,2.68,7.4,0,0,0,1,0,,,,,,,,,,,,,,,,,,,,
27744,1629466707772,-0,2,246,249,237,233,16,-0.09,-0.0,1.6,11,-1,-1,0.09,1,66,7051,51,35,72,0.758,9.9,655,4.9,13.2,80.4,1,41.7,4.05,7.4,0,0,0,1,0,98,-1483,14298,89,49.330547,8.566839,8.56,101.5,10,2,1.7,0,0.0,-1,0.0,,0.0,0,0.01,0.4624
27764,1629466707792,,,246,250,238,233,,-0.06,-0.0,1.77,11,1,2,0.06,,66,6885,63,35,83,0.758,9.9,650,4.86,13.2,80.4,1,44.7,4.48,7.4,0,0,0,1,0,,,,,,,,,,,,,,,,,,,,
27784,1629466707812,,,246,248,237,233,,-0.09,0.01,1.63,10,-1,-1,0.09,,66,6766,69,35,91,0.758,9.7,646,4.9,13.1,80.4,1,47.5,4.99,7.4,0,0,0,1,0,,,,,,,,,,,,,,,,,,,,
27804,1629466707832,,,246,249,238,233,,-0.08,0.01,1.58,10,2,2,0.08,,66,6609,70,35,95,0.757,9.8,650,4.85,13.1,182.2,1,45.9,5.44,16.4,0,0,0,1,0,,,,,,,,,,,,,,,,,,,,
27824,1629466707852,,,246,248,238,233,,-0.05,-0.03,1.76,10,-1,-1,0.06,,66,6590,71,35,96,0.758,9.7,643,4.88,13.1,182.2,1,45.7,3.77,16.4,0,0,0,1,0,,,,,,,,,,,,,,,,,,,,
27844,1629466707872,0,0,247,248,237,233,12,-0.08,0.03,1.63,10,1,1,0.09,1,66,6803,71,35,97,0.759,9.6,635,4.85,13.0,182.2,1,47.9,5.41,16.4,0,0,0,1,0,96,250,14298,90,49.330547,8.56684,8.85,101.3,10,2,1.7,0,0.0,-1,0.0,0.0,0.0,0,0.01,0.4641
27864,1629466707892,,,246,247,238,233,,-0.09,0.04,1.5,10,1,1,0.1,,66,7099,60,35,96,0.759,9.6,647,4.88,13.2,182.2,1,48.7,4.56,16.4,0,0,0,1,0,,,,,,,,,,,,,,,,,,,,
27884,1629466707912,,,246,247,238,233,,-0.12,0.02,1.39,10,0,0,0.12,,66,7521,40,35,96,0.76,9.6,657,4.85,13.2,182.2,1,42.5,4.8,16.4,0,0,0,1,0,,,,,,,,,,,,,,,,,,,,
27904,1629466707932,,,246,250,238,233,,-0.12,0.12,1.36,10,-0,1,0.17,,66,7799,13,35,91,0.76,9.5,665,4.85,13.1,197.7,1,38.8,5.06,17.6,0,0,0,1,0,,,,,,,,,,,,,,,,,,,,
27924,1629466707952,,,247,250,238,233,,-0.12,0.09,1.56,9,-1,-1,0.14,,66,8198,4,35,81,0.759,9.6,663,4.85,13.1,197.7,1,38.9,4.64,17.6,0,0,0,1,0,,,,,,,,,,,,,,,,,,,,
27944,1629466707972,0,0,247,250,238,232,9,-0.09,0.04,1.44,9,0,2,0.1,1,66,8848,4,35,70,0.757,9.4,674,4.86,12.9,197.7,1,41.9,3.72,17.6,0,0,0,1,0,94,14312,-9728,88,49.330551,8.566841,9.25,101.5,10,2,1.7,0,0.0,-1,0.0,,0.0,0,0.01,0.4657
27964,1629466707992,,,247,250,238,233,,-0.09,0.04,1.51,10,0,5,0.1,,66,9417,4,35,61,0.756,9.4,689,4.8,13.0,197.7,1,41.1,3.31,17.6,0,0,0,1,0,,,,,,,,,,,,,,,,,,,,
27984,1629466708004,,,247,249,238,233,,-0.09,0.05,1.51,9,0,4,0.11,,66,9821,4,35,54,0.753,9.3,691,4.85,13.0,197.7,1,40.0,3.51,17.6,0,0,0,1,0,,,,,,,,,,,,,,,,,,,,
28004,1629466708024,,,247,247,238,232,,-0.13,-0.07,1.41,9,-0,2,0.14,,66,10179,4,35,49,0.751,9.3,695,4.88,12.9,166.2,1,38.5,2.99,14.8,0,0,0,1,0,,,,,,,,,,,,,,,,,,,,
28024,1629466708044,,,247,249,238,232,,-0.15,-0.07,1.49,9,1,3,0.16,,66,10179,4,35,45,0.749,9.3,700,4.85,13.0,166.2,1,36.5,2.72,14.8,0,0,0,1,0,,,,,,,,,,,,,,,,,,,,
28044,1629466708064,-0,2,247,247,239,232,9,-0.08,0.02,1.51,9,0,2,0.09,1,66,10021,4,35,42,0.747,9.2,697,4.91,13.0,166.2,1,34.2,2.61,14.8,0,0,0,1,0,92,250,250,88,49.330555,8.566841,9.14,101.5,10,2,1.7,0,0.0,-1,0.0,0.0,0.0,0,0.01,0.4674
28064,1629466708092,,,247,247,239,232,,-0.12,-0.12,1.39,8,-0,0,0.17,,66,9858,4,35,40,0.746,9.0,693,4.85,13.1,166.2,1,32.7,2.61,14.8,0,0,0,1,0,,,,,,,,,,,,,,,,,,,,
28084,1629466708112,,,247,246,239,232,,-0.08,0.0,1.28,8,1,1,0.08,,66,9674,4,35,38,0.744,9.2,691,4.88,12.9,166.2,1,31.7,2.67,14.8,0,0,0,1,0,,,,,,,,,,,,,,,,,,,,
28104,1629466708132,,,247,249,239,232,,-0.12,-0.03,1.42,8,0,3,0.12,,66,9493,4,35,37,0.742,9.2,691,4.82,13.0,132.5,1,31.4,2.68,11.8,0,0,0,1,0,,,,,,,,,,,,,,,,,,,,
28124,1629466708152,,,247,246,239,232,,-0.14,-0.11,1.57,8,-0,-0,0.18,,66,9286,5,35,36,0.74,9.2,689,4.82,13.0,132.5,1,31.1,2.62,11.8,0,0,0,1,0,,,,,,,,,,,,,,,,,,,,
28144,1629466708172,-0,2,247,248,239,232,8,-0.16,-0.18,1.59,7,-2,-4,0.24,1,66,9119,5,35,35,0.738,9.2,684,4.93,13.1,132.5,1,30.8,2.56,11.8,0,0,0,1,0,91,250,-1481,87,49.330555,8.566842,8.68,101.5,10,2,1.7,0,0.0,-1,0.0,,0.0,0,0.01,0.4691
28164,1629466708192,,,247,249,239,232,,-0.18,-0.27,1.66,7,-3,-8,0.33,,66,8873,5,35,35,0.737,9.2,680,4.92,13.1,132.5,1,30.8,2.54,11.8,0,0,0,1,0,,,,,,,,,,,,,,,,,,,,
28184,1629466708212,,,247,249,239,232,,-0.21,-0.32,1.84,6,-3,-12,0.38,,66,8636,5,35,34,0.737,9.0,678,4.92,13.1,132.5,1,30.5,2.54,11.8,0,0,0,1,0,,,,,,,,,,,,,,,,,,,,
28204,1629466708232,,,247,249,238,232,,-0.19,-0.24,1.74,6,-2,-8,0.3,,66,8389,5,35,34,0.737,9.0,673,4.83,13.1,113.9,1,30.2,2.4,9.8,0,0,0,1,0,,,,,,,,,,,,,,,,,,,,
28224,1629466708252,,,247,249,238,232,,-0.18,-0.26,1.88,6,-3,-10,0.32,,66,8177,5,35,34,0.738,9.0,675,4.9,13.1,113.9,1,29.8,2.19,9.8,0,0,0,1,0,,,,,,,,,,,,,,,,,,,,
28244,1629466708272,-1,2,247,249,238,232,6,-0.2,-0.2,1.73,6,-2,-7,0.28,1,66,7961,5,35,35,0.74,9.1,661,4.96,13.0,113.9,1,29.8,2.03,9.8,0,0,0,1,0,89,-1481,-13312,85,49.330559,8.566842,8.92,101.5,10,2,1.7,0,0.0,-1,0.0,0.0,0.0,0,0.01,0.4707
28264,1629466708292,,,247,249,238,233,,-0.19,-0.05,1.68,6,-2,-6,0.2,,66,7706,5,35,35,0.742,9.0,668,4.86,12.9,113.9,1,29.8,2.08,9.8,0,0,0,1,0,,,,,,,,,,,,,,,,,,,,
28284,1629466708312,,,246,249,238,233,,-0.17,0.04,1.62,6,0,-4,0.18,,66,7518,5,35,35,0.744,8.8,657,4.83,13.0,113.9,1,29.8,2.08,9.8,0,0,0,1,0,,,,,,,,,,,,,,,,,,,,
28304,1629466708332,,,246,249,238,233,,-0.18,0.07,1.49,6,2,-1,0.2,,66,7304,5,35,36,0.747,8.8,656,4.92,12.9,83.5,1,30.1,2.12,7.1,0,0,0,1,0,,,,,,,,,,,,,,,,,,,,
28324,1629466708352,,,246,249,238,233,,-0.2,0.07,1.38,6,1,-2,0.21,,66,7123,5,35,37,0.749,8.9,652,4.95,13.2,83.5,1,30.4,2.17,7.1,0,0,0,1,0,,,,,,,,,,,,,,,,,,,,
28344,1629466708372,-0,2,246,249,237,233,5,-0.15,-0.02,1.58,6,0,-4,0.15,1,66,6893,5,35,38,0.751,8.8,653,4.91,13.2,83.5,1,30.5,2.22,7.1,0,0,0,1,0,88,250,250,83,49.330559,8.566842,8.07,101.5,10,2,1.7,0,0.0,-1,0.0,,0.0,0,0.01,0.4724
28364,1629466708392,,,246,249,237,233,,-0.22,0.03,1.46,6,2,-2,0.23,,66,6744,5,35,38,0.754,8.8,645,4.86,12.9,83.5,1,30.3,2.22,7.1,0,0,0,1,0,,,,,,,,,,,,,,,,,,,,
28384,1629466708412,,,246,250,237,233,,-0.15,-0.01,1.65,6,1,-3,0.15,,66,6611,5,35,38,0.755,8.8,643,4.81,13.2,83.5,1,30.2,2.28,7.1,0,0,0,1,0,,,,,,,,,,,,,,,,,,,,
28404,1629466708432,,,246,250,237,233,,-0.16,-0.04,1.53,6,-1,-4,0.16,,66,6514,5,34,39,0.757,8.7,640,4.93,13.1,84.1,1,30.4,2.29,6.9,0,0,0,1,0,,,,,,,,,,,,,,,,,,,,
28424,1629466708452,,,246,250,237,233,,-0.21,0.01,1.41,6,2,-1,0.21,,66,6421,5,34,39,0.758,8.7,638,4.87,12.9,84.1,1,30.3,2.29,6.9,0,0,0,1,0,,,,,,,,,,,,,,,,,,,,
28444,1629466708472,-1,2,246,250,237,234,5,-0.15,0.04,1.61,6,3,-0,0.16,1,66,6315,5,34,39,0.758,8.7,637,4.81,13.2,84.1,1,30.1,2.29,6.9,0,0,0,1,0,86,-1481,-1481,82,49.330559,8.566842,8.31,101.6,10,2,1.7,0,0.0,-1,0.0,0.0,0.0,0,0.01,0.4741
28464,1629466708491,,,246,250,237,233,,-0.09,0.0,1.79,6,1,-2,0.09,,66,6190,5,34,40,0.76,8.7,636,4.96,13.3,84.1,1,30.2,2.29,6.9,0,0,0,1,0,,,,,,,,,,,,,,,,,,,,
28484,1629466708511,,,246,250,237,233,,-0.02,-0.03,1.96,5,-2,-4,0.03,,66,6027,5,34,41,0.762,8.6,633,4.86,13.2,84.1,1,30.1,2.29,6.9,0,0,0,1,0,,,,,,,,,,,,,,,,,,,,
28504,1629466708531,,,246,250,237,233,,0.04,-0.02,2.12,5,-4,-6,0.04,,66,5852,5,34,42,0.764,8.6,621,4.92,13.3,76.8,1,29.9,2.36,6.3,0,0,0,1,0,,,,,,,,,,,,,,,,,,,,
28524,1629466708551,,,246,250,237,233,,0.02,0.0,2.26,5,-0,-3,0.02,,66,5661,5,34,43,0.765,8.5,610,4.82,12.9,76.8,1,29.7,2.45,6.3,0,0,0,1,0,,,,,,,,,,,,,,,,,,,,
28544,1629466708571,-1,2,246,250,237,233,3,-0.07,-0.03,2.09,5,4,2,0.08,1,66,5488,8,34,45,0.763,8.5,598,4.85,13.0,76.8,1,29.8,2.52,6.3,0,0,0,1,0,84,-13312,-16896,82,49.330559,8.566842,8.12,101.6,10,2,1.7,0,0.0,-1,0.0,,0.0,0,0.01,0.4757
28564,1629466708591,,,246,250,237,233,,0.02,-0.03,2.24,5,-2,-3,0.04,,66,5397,21,34,50,0.765,8.5,584,4.96,13.3,76.8,1,31.0,2.91,6.3,0,0,0,1,0,,,,,,,,,,,,,,,,,,,,
28584,1629466708611,,,246,250,237,234,,-0.02,0.01,2.33,5,1,-1,0.02,,66,5375,37,34,62,0.764,8.3,572,4.85,13.0,76.8,1,34.2,2.96,6.3,0,0,0,1,0,,,,,,,,,,,,,,,,,,,,
28604,1629466708631,,,246,250,237,234,,-0.03,-0.09,2.15,5,2,0,0.1,,66,5476,48,34,77,0.763,8.4,576,4.94,13.3,117.2,1,37.9,4.36,9.5,0,0,0,1,0,,,,,,,,,,,,,,,,,,,,
28624,1629466708651,,,246,250,237,234,,0.04,-0.04,2.29,5,-3,-4,0.06,,66,5622,54,34,90,0.764,8.4,587,4.96,13.3,117.2,1,40.9,5.06,9.5,0,0,0,1,0,,,,,,,,,,,,,,,,,,,,
28644,1629466708671,-0,2,247,250,237,233,3,0.01,-0.04,2.42,5,0,-2,0.04,1,66,5605,57,34,96,0.763,8.4,588,4.9,13.2,117.2,1,41.0,5.47,9.5,0,0,0,1,0,83,250,250,80,49.330563,8.566842,8.09,101.5,10,2,1.7,0,0.0,-1,0.0,0.0,0.0,0,0.01,0.4774
28664,1629466708691,,,246,250,237,233,,-0.11,-0.05,2.23,5,6,3,0.12,,66,5568,57,34,97,0.759,8.2,578,4.85,13.0,117.2,1,41.1,5.44,9.5,0,0,0,1,0,,,,,,,,,,,,,,,,,,,,
28684,1629466708711,,,246,247,237,233,,-0.06,-0.07,2.06,5,0,-0,0.09,,66,5640,57,34,98,0.76,8.3,587,4.91,13.2,117.2,1,40.8,5.61,9.5,0,0,0,1,0,,,,,,,,,,,,,,,,,,,,
28704,1629466708731,,,246,248,237,233,,0.03,-0.05,2.21,5,-6,-5,0.06,,66,5967,57,34,98,0.762,8.3,599,4.88,13.2,192.5,1,39.8,5.97,15.4,0,0,0,1,0,,,,,,,,,,,,,,,,,,,,
28724,1629466708751,,,246,247,238,233,,0.02,-0.01,2.15,4,-7,-6,0.02,,66,6277,56,34,97,0.761,8.2,621,4.9,13.2,192.5,1,42.5,5.65,15.4,0,0,0,1,0,,,,,,,,,,,,,,,,,,,,
28744,1629466708771,-1,2,246,248,238,233,3,-0.07,0.05,1.98,5,-4,-3,0.08,1,66,6609,48,34,97,0.758,8.1,630,4.87,13.0,192.5,1,45.9,5.3,15.4,0,0,0,1,0,81,-16896,-1481,80,49.330566,8.566842,7.91,101.6,10,2,1.7,0,0.0,-1,0.0,,0.0,0,0.01,0.4791
28764,1629466708793,,,246,247,238,233,,-0.06,0.03,2.05,4,-5,-4,0.07,,66,7075,33,35,95,0.756,8.1,647,4.89,13.2,192.5,1,49.0,4.38,15.4,0,0,0,1,0,,,,,,,,,,,,,,,,,,,,
