"Interval"|"ms"|0|0|1,"Utc"|"ms"|0|0|1,"Brake_F"|"Bar"|0|2000|10,"Brake_R"|"Bar"|0|2000|10,"Height_RF"|"mm"|0|255|50,"Height_LF"|"mm"|0|255|50,"Height_LR"|"mm"|0|80|50,"Height_RR"|"mm"|0|255|50,"Steering"|"deg"|-100|100|10,"AccelX"|"G"|-3.0|3.0|50,"AccelY"|"G"|-3.0|3.0|50,"AccelZ"|"G"|-3.0|3.0|50,"Yaw"|"Deg/Sec"|-120|120|50,"Pitch"|"Deg/Sec"|-120|120|50,"Roll"|"Deg/Sec"|-120|120|50,"Gsum"|"G"|0.0|3.0|50,"Log_Button"|""|0.0|10.0|10,"WaterTemp"|"C"|0|150|50,"RPM"|"tr/min"|0|14000|50,"TPS"|"%"|0|100|50,"AirTemp"|"C"|0|150|50,"MAP"|"KPa"|0|100|50,"Lambda"|""|0.5|1.5|50,"SpeedDTA"|"kph"|0.0|250.0|50,"OilPress"|"KPa"|0|1500|50,"FuelPressur"|"Bar"|0.0|10.0|50,"Batterie"|"V"|0.0|20.0|50,"ConsoKm"|"L/100km"|0.0|200.0|50,"Gear"|""|0|6|50,"AdvIgnition"|"Deg"|-20.0|70.0|50,"Injection"|"ms"|0.0|10.0|50,"ConsoHr"|"L/Hr"|0.0|10000.0|50,"LC_But_Pres"|""|0|1|50,"LC_Active"|""|0|1|50,"TractionOn"|""|0|1|50,"TractionWet"|""|0|1|50,"FanOn"|""|0|1|50,"RD_Speed"|"km/h"|-30|250|10,"RUD_Speed"|"km/h"|-30|250|10,"LD_Speed"|"km/h"|-30|250|10,"LUD_Speed"|"km/h"|-30|250|10,"Latitude"|"Degrees"|-180.0|180.0|10,"Longitude"|"Degrees"|-180.0|180.0|10,"Speed"|"kph"|0.0|150.0|10,"Altitude"|"m"|0.0|4000.0|10,"GPSSats"|""|0|20|10,"GPSQual"|""|0|5|10,"GPSDOP"|""|0.0|20.0|10,"LapCount"|""|0|0|10,"LapTime"|"Min"|0.0|0.0|10,"Sector"|""|0|0|10,"SectorTime"|"Min"|0.0|0.0|10,"PredTime"|"Min"|0.0|0.0|5,"ElapsedTime"|"Min"|0.0|0.0|10,"CurrentLap"|""|0|0|10,"Distance"|"km"|0.0|0.0|10,"SessionTime"|"Min"|0.0|0.0|10
63,0,,,248,252,237,232,,-0.04,0.03,0.98,-0,-0,-0,0.05,,0,0,0,0,0,0.0,0.0,0,0.0,0.0,0.0,0,0.0,0.0,0.0,0,0,0,0,0,,,,,,,,,,,,,,,,,,,,
83,0,,,248,252,237,232,,-0.04,0.03,0.98,-0,-0,-0,0.05,,0,0,0,0,0,0.0,0.0,0,0.0,0.0,0.0,0,0.0,0.0,0.0,0,0,0,0,0,,,,,,,,,,,,,,,,,,,,
103,0,,,248,252,236,232,,-0.04,0.03,0.98,-0,-0,-0,0.05,,0,0,0,0,0,0.0,0.0,0,0.0,0.0,0.0,0,0.0,0.0,0.0,0,0,0,0,0,,,,,,,,,,,,,,,,,,,,
123,0,,,248,252,237,232,,-0.04,0.03,0.98,-0,-0,-0,0.05,,0,0,0,0,0,0.0,0.0,0,0.0,0.0,0.0,0,0.0,0.0,0.0,0,0,0,0,0,,,,,,,,,,,,,,,,,,,,
143,0,5,4,248,252,236,232,5,-0.04,0.03,0.98,-0,-0,-0,0.05,1,0,0,0,0,0,0.0,0.0,0,0.0,0.0,0.0,0,0.0,0.0,0.0,0,0,0,0,0,0,0,0,0,0.0,0.0,0.0,0.0,0,0,0.0,0,0.0,-1,0.0,,0.0,0,0.0,0.0024
163,0,,,248,252,237,232,,-0.04,0.03,0.97,-0,-0,-0,0.05,,0,0,0,0,0,0.0,0.0,0,0.0,0.0,0.0,0,0.0,0.0,0.0,0,0,0,0,0,,,,,,,,,,,,,,,,,,,,
183,0,,,248,252,237,232,,-0.04,0.03,0.98,-0,-0,-0,0.05,,0,0,0,0,0,0.0,0.0,0,0.0,0.0,0.0,0,0.0,0.0,0.0,0,0,0,0,0,,,,,,,,,,,,,,,,,,,,
203,0,,,248,252,236,232,,-0.04,0.03,0.98,-0,-0,-0,0.05,,0,0,0,0,0,0.0,0.0,0,0.0,0.0,0.0,0,0.0,0.0,0.0,0,0,0,0,0,,,,,,,,,,,,,,,,,,,,
223,0,,,248,252,237,232,,-0.04,0.03,0.98,-0,-0,-0,0.05,,0,0,0,0,0,0.0,0.0,0,0.0,0.0,0.0,0,0.0,0.0,0.0,0,0,0,0,0,,,,,,,,,,,,,,,,,,,,
243,0,6,6,248,251,237,232,5,-0.04,0.03,0.98,-0,-0,-0,0.05,1,0,0,0,0,0,0.0,0.0,0,0.0,0.0,0.0,0,0.0,0.0,0.0,0,0,0,0,0,0,0,0,0,0.0,0.0,0.0,0.0,0,0,0.0,0,0.0,-1,0.0,0.0,0.0,0,0.0,0.004
263,0,,,248,252,237,232,,-0.04,0.03,0.98,-0,-0,-0,0.05,,0,0,0,0,0,0.0,0.0,0,0.0,0.0,0.0,0,0.0,0.0,0.0,0,0,0,0,0,,,,,,,,,,,,,,,,,,,,
283,0,,,248,251,237,232,,-0.04,0.03,0.98,-0,-0,-0,0.05,,0,0,0,0,0,0.0,0.0,0,0.0,0.0,0.0,0,0.0,0.0,0.0,0,0,0,0,0,,,,,,,,,,,,,,,,,,,,
303,0,,,248,251,237,232,,-0.04,0.02,0.98,-0,-0,-0,0.04,,0,0,0,0,0,0.0,0.0,0,0.0,0.0,0.0,0,0.0,0.0,0.0,0,0,0,0,0,,,,,,,,,,,,,,,,,,,,
323,0,,,248,252,237,232,,-0.04,0.02,0.98,-0,-0,-0,0.05,,0,0,0,0,0,0.0,0.0,0,0.0,0.0,0.0,0,0.0,0.0,0.0,0,0,0,0,0,,,,,,,,,,,,,,,,,,,,
343,0,6,5,248,251,237,232,5,-0.04,0.03,0.98,-0,-0,-0,0.05,1,0,0,0,0,0,0.0,0.0,0,0.0,0.0,0.0,0,0.0,0.0,0.0,0,0,0,0,0,0,0,0,0,0.0,0.0,0.0,0.0,0,0,0.0,0,0.0,-1,0.0,,0.0,0,0.0,0.0057
363,0,,,248,252,237,232,,-0.04,0.02,0.98,-0,-0,-0,0.05,,0,0,0,0,0,0.0,0.0,0,0.0,0.0,0.0,0,0.0,0.0,0.0,0,0,0,0,0,,,,,,,,,,,,,,,,,,,,
383,0,,,248,252,237,232,,-0.04,0.02,0.98,-0,-0,-0,0.05,,0,0,0,0,0,0.0,0.0,0,0.0,0.0,0.0,0,0.0,0.0,0.0,0,0,0,0,0,,,,,,,,,,,,,,,,,,,,
403,0,,,248,252,237,232,,-0.04,0.02,0.98,-0,-0,-0,0.05,,0,0,0,0,0,0.0,0.0,0,0.0,0.0,0.0,0,0.0,0.0,0.0,0,0,0,0,0,,,,,,,,,,,,,,,,,,,,
423,0,,,248,252,237,232,,-0.04,0.02,0.98,-0,-0,-0,0.05,,0,0,0,0,0,0.0,0.0,0,0.0,0.0,0.0,0,0.0,0.0,0.0,0,0,0,0,0,,,,,,,,,,,,,,,,,,,,
443,0,5,5,248,252,237,232,5,-0.04,0.02,0.98,-0,-0,-0,0.05,1,0,0,0,0,0,0.0,0.0,0,0.0,0.0,0.0,0,0.0,0.0,0.0,0,0,0,0,0,0,0,0,0,0.0,0.0,0.0,0.0,0,0,0.0,0,0.0,-1,0.0,0.0,0.0,0,0.0,0.0074
463,0,,,248,252,237,232,,-0.04,0.02,0.98,-0,-0,-0,0.05,,0,0,0,0,0,0.0,0.0,0,0.0,0.0,0.0,0,0.0,0.0,0.0,0,0,0,0,0,,,,,,,,,,,,,,,,,,,,
483,0,,,248,252,237,232,,-0.04,0.02,0.98,-0,-0,-0,0.05,,0,0,0,0,0,0.0,0.0,0,0.0,0.0,0.0,0,0.0,0.0,0.0,0,0,0,0,0,,,,,,,,,,,,,,,,,,,,
503,0,,,248,251,237,232,,-0.04,0.02,0.98,-0,-0,-0,0.05,,0,0,0,0,0,0.0,0.0,0,0.0,0.0,0.0,0,0.0,0.0,0.0,0,0,0,0,0,,,,,,,,,,,,,,,,,,,,
523,0,,,248,252,237,232,,-0.04,0.02,0.98,-0,-0,-0,0.05,,0,0,0,0,0,0.0,0.0,0,0.0,0.0,0.0,0,0.0,0.0,0.0,0,0,0,0,0,,,,,,,,,,,,,,,,,,,,
543,0,5,5,248,252,236,232,5,-0.04,0.02,0.98,-0,-0,-0,0.05,1,0,0,0,0,0,0.0,0.0,0,0.0,0.0,0.0,0,0.0,0.0,0.0,0,0,0,0,0,0,0,0,0,0.0,0.0,0.0,0.0,0,0,0.0,0,0.0,-1,0.0,,0.0,0,0.0,0.0091
563,0,,,248,252,236,232,,-0.04,0.02,0.98,-0,-0,-0,0.05,,0,0,0,0,0,0.0,0.0,0,0.0,0.0,0.0,0,0.0,0.0,0.0,0,0,0,0,0,,,,,,,,,,,,,,,,,,,,
583,0,,,248,252,236,232,,-0.04,0.02,0.98,-0,-0,-0,0.05,,0,0,0,0,0,0.0,0.0,0,0.0,0.0,0.0,0,0.0,0.0,0.0,0,0,0,0,0,,,,,,,,,,,,,,,,,,,,
603,0,,,248,252,237,232,,-0.04,0.02,0.98,-0,-0,-0,0.05,,0,0,0,0,0,0.0,0.0,0,0.0,0.0,0.0,0,0.0,0.0,0.0,0,0,0,0,0,,,,,,,,,,,,,,,,,,,,
623,0,,,248,252,236,232,,-0.04,0.02,0.98,-0,-0,-0,0.05,,0,0,0,0,0,0.0,0.0,0,0.0,0.0,0.0,0,0.0,0.0,0.0,0,0,0,0,0,,,,,,,,,,,,,,,,,,,,
643,0,7,4,248,252,236,232,5,-0.04,0.02,0.98,-0,-0,-0,0.05,1,0,0,0,0,0,0.0,0.0,0,0.0,0.0,0.0,0,0.0,0.0,0.0,0,0,0,0,0,0,0,0,0,0.0,0.0,0.0,0.0,0,0,0.0,0,0.0,-1,0.0,0.0,0.0,0,0.0,0.0107
663,0,,,248,252,237,232,,-0.04,0.02,0.98,-0,-0,-0,0.05,,0,0,0,0,0,0.0,0.0,0,0.0,0.0,0.0,0,0.0,0.0,0.0,0,0,0,0,0,,,,,,,,,,,,,,,,,,,,
683,0,,,248,252,237,232,,-0.04,0.02,0.98,-0,-0,-0,0.05,,0,0,0,0,0,0.0,0.0,0,0.0,0.0,0.0,0,0.0,0.0,0.0,0,0,0,0,0,,,,,,,,,,,,,,,,,,,,
703,0,,,248,252,237,232,,-0.04,0.02,0.98,-0,-0,-0,0.05,,0,0,0,0,0,0.0,0.0,0,0.0,0.0,0.0,0,0.0,0.0,0.0,0,0,0,0,0,,,,,,,,,,,,,,,,,,,,
723,0,,,248,251,237,232,,-0.04,0.02,0.98,-0,-0,-0,0.05,,0,0,0,0,0,0.0,0.0,0,0.0,0.0,0.0,0,0.0,0.0,0.0,0,0,0,0,0,,,,,,,,,,,,,,,,,,,,
743,0,7,4,248,251,237,232,5,-0.04,0.02,0.98,-0,-0,-0,0.05,1,0,0,0,0,0,0.0,0.0,0,0.0,0.0,0.0,0,0.0,0.0,0.0,0,0,0,0,0,0,0,0,0,0.0,0.0,0.0,0.0,0,0,0.0,0,0.0,-1,0.0,,0.0,0,0.0,0.0124
763,0,,,248,252,237,232,,-0.04,0.02,0.98,-0,-0,-0,0.05,,0,0,0,0,0,0.0,0.0,0,0.0,0.0,0.0,0,0.0,0.0,0.0,0,0,0,0,0,,,,,,,,,,,,,,,,,,,,
783,0,,,248,252,237,232,,-0.04,0.02,0.98,-0,-0,-0,0.04,,0,0,0,0,0,0.0,0.0,0,0.0,0.0,0.0,0,0.0,0.0,0.0,0,0,0,0,0,,,,,,,,,,,,,,,,,,,,
803,0,,,248,252,237,232,,-0.04,0.02,0.98,-0,-0,-0,0.04,,0,0,0,0,0,0.0,0.0,0,0.0,0.0,0.0,0,0.0,0.0,0.0,0,0,0,0,0,,,,,,,,,,,,,,,,,,,,
823,0,,,248,252,237,232,,-0.04,0.02,0.98,-0,-0,-0,0.04,,0,0,0,0,0,0.0,0.0,0,0.0,0.0,0.0,0,0.0,0.0,0.0,0,0,0,0,0,,,,,,,,,,,,,,,,,,,,
843,0,6,5,248,252,237,232,5,-0.04,0.02,0.98,-0,-0,-0,0.05,1,0,0,0,0,0,0.0,0.0,0,0.0,0.0,0.0,0,0.0,0.0,0.0,0,0,0,0,0,0,0,0,0,0.0,0.0,0.0,0.0,0,0,0.0,0,0.0,-1,0.0,0.0,0.0,0,0.0,0.014
863,0,,,248,251,237,232,,-0.04,0.02,0.98,-0,-0,-0,0.05,,0,0,0,0,0,0.0,0.0,0,0.0,0.0,0.0,0,0.0,0.0,0.0,0,0,0,0,0,,,,,,,,,,,,,,,,,,,,
883,0,,,248,252,237,232,,-0.04,0.02,0.98,-0,-0,-0,0.05,,0,0,0,0,0,0.0,0.0,0,0.0,0.0,0.0,0,0.0,0.0,0.0,0,0,0,0,0,,,,,,,,,,,,,,,,,,,,
903,0,,,248,252,237,232,,-0.04,0.02,0.98,-0,-0,-0,0.05,,0,0,0,0,0,0.0,0.0,0,0.0,0.0,0.0,0,0.0,0.0,0.0,0,0,0,0,0,,,,,,,,,,,,,,,,,,,,
923,0,,,248,252,237,232,,-0.04,0.02,0.98,-0,-0,-0,0.05,,0,0,0,0,0,0.0,0.0,0,0.0,0.0,0.0,0,0.0,0.0,0.0,0,0,0,0,0,,,,,,,,,,,,,,,,,,,,
943,0,6,4,248,252,237,232,5,-0.04,0.02,0.98,-0,-0,-0,0.05,1,0,0,0,0,0,0.0,0.0,0,0.0,0.0,0.0,0,0.0,0.0,0.0,0,0,0,0,0,0,0,0,0,0.0,0.0,0.0,0.0,0,0,0.0,0,0.0,-1,0.0,,0.0,0,0.0,0.0157
963,0,,,248,252,236,232,,-0.04,0.02,0.98,-0,-0,-0,0.05,,0,0,0,0,0,0.0,0.0,0,0.0,0.0,0.0,0,0.0,0.0,0.0,0,0,0,0,0,,,,,,,,,,,,,,,,,,,,
983,0,,,248,251,237,232,,-0.04,0.02,0.98,-0,-0,-0,0.05,,0,0,0,0,0,0.0,0.0,0,0.0,0.0,0.0,0,0.0,0.0,0.0,0,0,0,0,0,,,,,,,,,,,,,,,,,,,,
1003,0,,,248,252,237,232,,-0.04,0.02,0.98,-0,-0,-0,0.05,,0,0,0,0,0,0.0,0.0,0,0.0,0.0,0.0,0,0.0,0.0,0.0,0,0,0,0,0,,,,,,,,,,,,,,,,,,,,
1023,0,,,248,251,237,232,,-0.04,0.02,0.98,-0,-0,-0,0.05,,0,0,0,0,0,0.0,0.0,0,0.0,0.0,0.0,0,0.0,0.0,0.0,0,0,0,0,0,,,,,,,,,,,,,,,,,,,,
1043,0,6,4,248,252,236,232,5,-0.04,0.02,0.98,-0,-0,-0,0.05,1,0,0,0,0,0,0.0,0.0,0,0.0,0.0,0.0,0,0.0,0.0,0.0,0,0,0,0,0,0,0,0,0,0.0,0.0,0.0,0.0,0,0,0.0,0,0.0,-1,0.0,0.0,0.0,0,0.0,0.0174
1063,0,,,248,252,237,232,,-0.04,0.02,0.98,-0,-0,-0,0.05,,0,0,0,0,0,0.0,0.0,0,0.0,0.0,0.0,0,0.0,0.0,0.0,0,0,0,0,0,,,,,,,,,,,,,,,,,,,,
1083,0,,,248,252,237,232,,-0.04,0.02,0.98,-0,-0,-0,0.05,,0,0,0,0,0,0.0,0.0,0,0.0,0.0,0.0,0,0.0,0.0,0.0,0,0,0,0,0,,,,,,,,,,,,,,,,,,,,
1103,0,,,248,252,237,232,,-0.04,0.02,0.98,-0,-0,-0,0.05,,0,0,0,0,0,0.0,0.0,0,0.0,0.0,0.0,0,0.0,0.0,0.0,0,0,0,0,0,,,,,,,,,,,,,,,,,,,,
1123,0,,,248,252,237,232,,-0.04,0.02,0.98,-0,-0,-0,0.05,,0,0,0,0,0,0.0,0.0,0,0.0,0.0,0.0,0,0.0,0.0,0.0,0,0,0,0,0,,,,,,,,,,,,,,,,,,,,
1143,0,6,6,248,251,237,232,5,-0.04,0.02,0.98,-0,-0,-0,0.05,1,0,0,0,0,0,0.0,0.0,0,0.0,0.0,0.0,0,0.0,0.0,0.0,0,0,0,0,0,0,0,0,0,0.0,0.0,0.0,0.0,0,0,0.0,0,0.0,-1,0.0,,0.0,0,0.0,0.019
1163,0,,,248,251,237,232,,-0.04,0.02,0.98,-0,-0,-0,0.05,,0,0,0,0,0,0.0,0.0,0,0.0,0.0,0.0,0,0.0,0.0,0.0,0,0,0,0,0,,,,,,,,,,,,,,,,,,,,
1183,0,,,248,252,237,232,,-0.04,0.02,0.98,-0,-0,-0,0.05,,0,0,0,0,0,0.0,0.0,0,0.0,0.0,0.0,0,0.0,0.0,0.0,0,0,0,0,0,,,,,,,,,,,,,,,,,,,,
1203,0,,,248,251,237,232,,-0.04,0.02,0.98,-0,-0,-0,0.05,,0,0,0,0,0,0.0,0.0,0,0.0,0.0,0.0,0,0.0,0.0,0.0,0,0,0,0,0,,,,,,,,,,,,,,,,,,,,
1223,0,,,248,251,237,232,,-0.04,0.02,0.98,-0,-0,-0,0.05,,0,0,0,0,0,0.0,0.0,0,0.0,0.0,0.0,0,0.0,0.0,0.0,0,0,0,0,0,,,,,,,,,,,,,,,,,,,,
1243,0,5,6,248,252,237,232,5,-0.04,0.02,0.98,-0,-0,-0,0.05,1,0,0,0,0,0,0.0,0.0,0,0.0,0.0,0.0,0,0.0,0.0,0.0,0,0,0,0,0,0,0,0,0,0.0,0.0,0.0,0.0,0,0,0.0,0,0.0,-1,0.0,0.0,0.0,0,0.0,0.0207
1263,0,,,248,252,237,232,,-0.04,0.02,0.98,-0,-0,-0,0.05,,0,0,0,0,0,0.0,0.0,0,0.0,0.0,0.0,0,0.0,0.0,0.0,0,0,0,0,0,,,,,,,,,,,,,,,,,,,,
1283,0,,,248,252,237,232,,-0.04,0.02,0.98,-0,-0,-0,0.05,,0,0,0,0,0,0.0,0.0,0,0.0,0.0,0.0,0,0.0,0.0,0.0,0,0,0,0,0,,,,,,,,,,,,,,,,,,,,
1303,0,,,248,251,237,232,,-0.04,0.02,0.98,-0,-0,-0,0.05,,0,0,0,0,0,0.0,0.0,0,0.0,0.0,0.0,0,0.0,0.0,0.0,0,0,0,0,0,,,,,,,,,,,,,,,,,,,,
1323,0,,,248,252,237,232,,-0.04,0.02,0.98,-0,-0,-0,0.05,,0,0,0,0,0,0.0,0.0,0,0.0,0.0,0.0,0,0.0,0.0,0.0,0,0,0,0,0,,,,,,,,,,,,,,,,,,,,
1343,0,6,6,248,252,237,232,4,-0.04,0.02,0.98,-0,-0,-0,0.05,1,0,0,0,0,0,0.0,0.0,0,0.0,0.0,0.0,0,0.0,0.0,0.0,0,0,0,0,0,0,0,0,0,0.0,0.0,0.0,0.0,0,0,0.0,0,0.0,-1,0.0,,0.0,0,0.0,0.0224
1363,0,,,248,252,237,232,,-0.04,0.02,0.98,-0,-0,-0,0.05,,0,0,0,0,0,0.0,0.0,0,0.0,0.0,0.0,0,0.0,0.0,0.0,0,0,0,0,0,,,,,,,,,,,,,,,,,,,,
1383,0,,,248,252,237,232,,-0.04,0.02,0.98,-0,-0,-0,0.05,,0,0,0,0,0,0.0,0.0,0,0.0,0.0,0.0,0,0.0,0.0,0.0,0,0,0,0,0,,,,,,,,,,,,,,,,,,,,
1403,0,,,248,251,237,232,,-0.04,0.02,0.98,-0,-0,-0,0.05,,0,0,0,0,0,0.0,0.0,0,0.0,0.0,0.0,0,0.0,0.0,0.0,0,0,0,0,0,,,,,,,,,,,,,,,,,,,,
1423,0,,,248,251,237,232,,-0.04,0.02,0.98,-0,-0,-0,0.05,,0,0,0,0,0,0.0,0.0,0,0.0,0.0,0.0,0,0.0,0.0,0.0,0,0,0,0,0,,,,,,,,,,,,,,,,,,,,
1443,0,6,6,248,252,237,232,5,-0.04,0.02,0.98,-0,-0,-0,0.05,1,0,0,0,0,0,0.0,0.0,0,0.0,0.0,0.0,0,0.0,0.0,0.0,0,0,0,0,0,0,0,0,0,0.0,0.0,0.0,0.0,0,0,0.0,0,0.0,-1,0.0,0.0,0.0,0,0.0,0.024
1463,0,,,248,252,237,232,,-0.04,0.02,0.98,-0,-0,-0,0.05,,0,0,0,0,0,0.0,0.0,0,0.0,0.0,0.0,0,0.0,0.0,0.0,0,0,0,0,0,,,,,,,,,,,,,,,,,,,,
1483,0,,,248,252,236,232,,-0.04,0.02,0.98,-0,-0,-0,0.05,,0,0,0,0,0,0.0,0.0,0,0.0,0.0,0.0,0,0.0,0.0,0.0,0,0,0,0,0,,,,,,,,,,,,,,,,,,,,
1503,0,,,248,252,236,232,,-0.04,0.02,0.98,-0,-0,-0,0.05,,0,0,0,0,0,0.0,0.0,0,0.0,0.0,0.0,0,0.0,0.0,0.0,0,0,0,0,0,,,,,,,,,,,,,,,,,,,,
1523,0,,,248,252,236,232,,-0.04,0.02,0.98,-0,-0,-0,0.05,,0,0,0,0,0,0.0,0.0,0,0.0,0.0,0.0,0,0.0,0.0,0.0,0,0,0,0,0,,,,,,,,,,,,,,,,,,,,
1543,0,6,6,248,252,237,232,4,-0.04,0.02,0.98,-0,-0,-0,0.05,1,0,0,0,0,0,0.0,0.0,0,0.0,0.0,0.0,0,0.0,0.0,0.0,0,0,0,0,0,0,0,0,0,0.0,0.0,0.0,0.0,0,0,0.0,0,0.0,-1,0.0,,0.0,0,0.0,0.0257
1563,0,,,248,252,237,232,,-0.04,0.02,0.98,-0,-0,-0,0.05,,0,0,0,0,0,0.0,0.0,0,0.0,0.0,0.0,0,0.0,0.0,0.0,0,0,0,0,0,,,,,,,,,,,,,,,,,,,,
1583,0,,,248,252,237,232,,-0.04,0.02,0.98,-0,-0,-0,0.05,,0,0,0,0,0,0.0,0.0,0,0.0,0.0,0.0,0,0.0,0.0,0.0,0,0,0,0,0,,,,,,,,,,,,,,,,,,,,
1603,0,,,248,252,237,232,,-0.04,0.02,0.98,-0,-0,-0,0.05,,0,0,0,0,0,0.0,0.0,0,0.0,0.0,0.0,0,0.0,0.0,0.0,0,0,0,0,0,,,,,,,,,,,,,,,,,,,,
1623,0,,,248,252,237,232,,-0.04,0.02,0.98,-0,-0,-0,0.05,,0,0,0,0,0,0.0,0.0,0,0.0,0.0,0.0,0,0.0,0.0,0.0,0,0,0,0,0,,,,,,,,,,,,,,,,,,,,
1643,0,5,5,248,251,237,232,5,-0.04,0.02,0.98,-0,-0,-0,0.05,1,0,0,0,0,0,0.0,0.0,0,0.0,0.0,0.0,0,0.0,0.0,0.0,0,0,0,0,0,0,0,0,0,0.0,0.0,0.0,0.0,0,0,0.0,0,0.0,-1,0.0,0.0,0.0,0,0.0,0.0274
1663,0,,,248,252,236,232,,-0.04,0.02,0.98,-0,-0,-0,0.05,,0,0,0,0,0,0.0,0.0,0,0.0,0.0,0.0,0,0.0,0.0,0.0,0,0,0,0,0,,,,,,,,,,,,,,,,,,,,
1683,0,,,248,252,237,232,,-0.04,0.02,0.98,-0,-0,-0,0.05,,0,0,0,0,0,0.0,0.0,0,0.0,0.0,0.0,0,0.0,0.0,0.0,0,0,0,0,0,,,,,,,,,,,,,,,,,,,,
1703,0,,,248,252,237,232,,-0.04,0.02,0.98,-0,-0,-0,0.05,,0,0,0,0,0,0.0,0.0,0,0.0,0.0,0.0,0,0.0,0.0,0.0,0,0,0,0,0,,,,,,,,,,,,,,,,,,,,
1723,0,,,248,252,237,232,,-0.04,0.02,0.98,-0,-0,-0,0.05,,0,0,0,0,0,0.0,0.0,0,0.0,0.0,0.0,0,0.0,0.0,0.0,0,0,0,0,0,,,,,,,,,,,,,,,,,,,,
1743,0,6,5,248,251,237,232,5,-0.04,0.02,0.98,-0,-0,-0,0.05,1,0,0,0,0,0,0.0,0.0,0,0.0,0.0,0.0,0,0.0,0.0,0.0,0,0,0,0,0,0,0,0,0,0.0,0.0,0.0,0.0,0,0,0.0,0,0.0,-1,0.0,,0.0,0,0.0,0.029
1763,0,,,248,252,237,232,,-0.04,0.02,0.98,-0,-0,-0,0.05,,0,0,0,0,0,0.0,0.0,0,0.0,0.0,0.0,0,0.0,0.0,0.0,0,0,0,0,0,,,,,,,,,,,,,,,,,,,,
1783,0,,,248,252,237,232,,-0.04,0.02,0.98,-0,-0,-0,0.05,,0,0,0,0,0,0.0,0.0,0,0.0,0.0,0.0,0,0.0,0.0,0.0,0,0,0,0,0,,,,,,,,,,,,,,,,,,,,
1803,0,,,248,252,237,232,,-0.04,0.02,0.98,-0,-0,-0,0.05,,0,0,0,0,0,0.0,0.0,0,0.0,0.0,0.0,0,0.0,0.0,0.0,0,0,0,0,0,,,,,,,,,,,,,,,,,,,,
1823,0,,,248,251,237,232,,-0.04,0.02,0.98,-0,-0,-0,0.05,,0,0,0,0,0,0.0,0.0,0,0.0,0.0,0.0,0,0.0,0.0,0.0,0,0,0,0,0,,,,,,,,,,,,,,,,,,,,
1843,0,5,6,248,251,237,232,5,-0.04,0.02,0.98,-0,-0,-0,0.05,1,0,0,0,0,0,0.0,0.0,0,0.0,0.0,0.0,0,0.0,0.0,0.0,0,0,0,0,0,0,0,0,0,0.0,0.0,0.0,0.0,0,0,0.0,0,0.0,-1,0.0,0.0,0.0,0,0.0,0.0307
1863,0,,,248,252,237,232,,-0.04,0.02,0.98,-0,-0,-0,0.05,,0,0,0,0,0,0.0,0.0,0,0.0,0.0,0.0,0,0.0,0.0,0.0,0,0,0,0,0,,,,,,,,,,,,,,,,,,,,
1883,0,,,248,252,236,232,,-0.04,0.02,0.98,-0,-0,-0,0.05,,0,0,0,0,0,0.0,0.0,0,0.0,0.0,0.0,0,0.0,0.0,0.0,0,0,0,0,0,,,,,,,,,,,,,,,,,,,,
1903,0,,,248,252,237,232,,-0.04,0.02,0.98,-0,-0,-0,0.05,,0,0,0,0,0,0.0,0.0,0,0.0,0.0,0.0,0,0.0,0.0,0.0,0,0,0,0,0,,,,,,,,,,,,,,,,,,,,
1923,0,,,248,252,237,232,,-0.04,0.02,0.98,-0,-0,-0,0.05,,0,0,0,0,0,0.0,0.0,0,0.0,0.0,0.0,0,0.0,0.0,0.0,0,0,0,0,0,,,,,,,,,,,,,,,,,,,,
1943,0,5,6,248,252,236,232,5,-0.04,0.02,0.98,-0,-0,-0,0.05,1,0,0,0,0,0,0.0,0.0,0,0.0,0.0,0.0,0,0.0,0.0,0.0,0,0,0,0,0,0,0,0,0,0.0,0.0,0.0,0.0,0,0,0.0,0,0.0,-1,0.0,,0.0,0,0.0,0.0324
1963,0,,,248,252,237,232,,-0.04,0.02,0.98,-0,-0,-0,0.05,,0,0,0,0,0,0.0,0.0,0,0.0,0.0,0.0,0,0.0,0.0,0.0,0,0,0,0,0,,,,,,,,,,,,,,,,,,,,
1983,0,,,248,252,237,232,,-0.04,0.03,0.98,-0,-0,-0,0.05,,0,0,0,0,0,0.0,0.0,0,0.0,0.0,0.0,0,0.0,0.0,0.0,0,0,0,0,0,,,,,,,,,,,,,,,,,,,,
2003,0,,,248,252,237,232,,-0.04,0.02,0.98,-0,-0,-0,0.05,,0,0,0,0,0,0.0,0.0,0,0.0,0.0,0.0,0,0.0,0.0,0.0,0,0,0,0,0,,,,,,,,,,,,,,,,,,,,
2023,0,,,248,252,237,232,,-0.04,0.02,0.98,-0,-0,-0,0.05,,0,0,0,0,0,0.0,0.0,0,0.0,0.0,0.0,0,0.0,0.0,0.0,0,0,0,0,0,,,,,,,,,,,,,,,,,,,,
2043,0,7,5,248,252,237,232,5,-0.04,0.02,0.98,-0,-0,-0,0.05,1,61,0,4,27,99,0.501,0.0,113,4.88,12.9,0.0,1,0.0,0.0,0.0,0,0,0,1,0,0,250,250,0,0.0,0.0,0.0,0.0,0,0,0.0,0,0.0,-1,0.0,0.0,0.0,0,0.0,0.034
2063,0,,,248,252,236,232,,-0.04,0.02,0.98,-0,-0,-0,0.05,,61,0,4,27,99,0.501,0.0,113,4.88,12.9,0.0,1,0.0,0.0,0.0,0,0,0,1,0,,,,,,,,,,,,,,,,,,,,
2083,0,,,248,252,237,232,,-0.04,0.02,0.98,-0,-0,-0,0.05,,61,0,4,27,99,0.501,0.0,113,4.88,12.9,0.0,1,0.0,0.0,0.0,0,0,0,1,0,,,,,,,,,,,,,,,,,,,,
2103,0,,,248,251,237,232,,-0.04,0.02,0.98,-0,-0,-0,0.05,,61,0,4,27,99,0.501,0.0,113,4.88,12.9,0.0,1,0.0,0.0,0.0,0,0,0,1,0,,,,,,,,,,,,,,,,,,,,
2123,0,,,248,252,237,232,,-0.04,0.02,0.98,-0,-0,-0,0.05,,61,0,4,27,99,0.501,0.0,113,4.88,12.9,0.0,1,0.0,0.0,0.0,0,0,0,1,0,,,,,,,,,,,,,,,,,,,,
2143,0,5,6,248,252,237,232,5,-0.04,0.02,0.98,-0,-0,-0,0.05,1,61,0,4,27,99,0.502,0.0,113,4.88,12.9,0.0,1,0.0,0.0,0.0,0,0,0,1,0,0,250,250,0,0.0,0.0,0.0,0.0,0,0,0.0,0,0.0,-1,0.0,,0.0,0,0.0,0.0357
2163,0,,,248,252,237,232,,-0.04,0.02,0.98,-0,-0,-0,0.05,,61,0,4,27,99,0.502,0.0,113,4.88,12.9,0.0,1,0.0,0.0,0.0,0,0,0,1,0,,,,,,,,,,,,,,,,,,,,
2183,0,,,248,252,237,232,,-0.04,0.02,0.98,-0,-0,-0,0.05,,61,0,4,27,99,0.502,0.0,113,4.88,12.9,0.0,1,0.0,0.0,0.0,0,0,0,1,0,,,,,,,,,,,,,,,,,,,,
2203,0,,,248,252,237,232,,-0.04,0.02,0.97,-0,-0,-0,0.05,,61,0,4,27,99,0.503,0.0,113,4.88,12.8,0.0,1,0.0,0.0,0.0,0,0,0,1,0,,,,,,,,,,,,,,,,,,,,
2223,0,,,248,252,237,232,,-0.04,0.02,0.97,-0,-0,-0,0.05,,61,0,4,27,99,0.551,0.0,113,4.88,12.8,0.0,1,0.0,0.0,0.0,0,0,0,1,0,,,,,,,,,,,,,,,,,,,,
2243,0,6,5,248,252,237,232,4,-0.04,0.02,0.97,-0,-0,-0,0.05,1,61,0,4,27,99,0.63,0.0,113,4.88,12.8,0.0,1,0.0,0.0,0.0,0,0,0,1,0,0,250,250,0,0.0,0.0,0.0,0.0,0,0,0.0,0,0.0,-1,0.0,0.0,0.0,0,0.0,0.0374
2263,0,,,248,252,237,232,,-0.04,0.02,0.98,-0,-0,-0,0.05,,61,0,4,27,99,0.71,0.0,113,4.88,12.8,0.0,1,0.0,0.0,0.0,0,0,0,1,0,,,,,,,,,,,,,,,,,,,,
2283,0,,,248,252,237,232,,-0.04,0.03,0.98,-0,-0,-0,0.05,,61,0,4,27,99,0.79,0.0,113,4.88,12.8,0.0,1,0.0,0.0,0.0,0,0,0,1,0,,,,,,,,,,,,,,,,,,,,
2303,0,,,248,252,237,232,,-0.04,0.02,0.98,-0,-0,-0,0.05,,61,0,4,27,99,0.869,0.0,113,4.88,12.8,0.0,1,0.0,0.0,0.0,0,0,0,1,0,,,,,,,,,,,,,,,,,,,,
2323,0,,,248,252,237,232,,-0.04,0.02,0.98,-0,-0,-0,0.05,,61,0,4,27,99,0.949,0.0,113,4.88,12.8,0.0,1,0.0,0.0,0.0,0,0,0,1,0,,,,,,,,,,,,,,,,,,,,
2343,0,7,4,248,251,237,232,5,-0.04,0.02,0.98,-0,-0,-0,0.05,1,61,0,4,27,99,1.029,0.0,113,4.88,12.8,0.0,1,0.0,0.0,0.0,0,0,0,1,0,0,250,250,0,0.0,0.0,0.0,0.0,0,0,0.0,0,0.0,-1,0.0,,0.0,0,0.0,0.0391
2363,0,,,248,252,237,232,,-0.04,0.02,0.98,-0,-0,-0,0.05,,61,0,4,27,99,1.109,0.0,113,4.88,12.8,0.0,1,0.0,0.0,0.0,0,0,0,1,0,,,,,,,,,,,,,,,,,,,,
2383,0,,,248,251,237,232,,-0.04,0.02,0.98,-0,-0,-0,0.05,,61,0,4,27,99,1.188,0.0,113,4.88,12.8,0.0,1,0.0,0.0,0.0,0,0,0,1,0,,,,,,,,,,,,,,,,,,,,
2403,0,,,248,252,237,232,,-0.04,0.02,0.98,-0,-0,-0,0.05,,61,0,4,27,99,1.268,0.0,113,4.88,12.8,0.0,1,0.0,0.0,0.0,0,0,0,1,0,,,,,,,,,,,,,,,,,,,,
2423,0,,,248,252,236,232,,-0.04,0.02,0.98,-0,-0,-0,0.05,,61,0,4,27,99,1.347,0.0,113,4.88,12.8,0.0,1,0.0,0.0,0.0,0,0,0,1,0,,,,,,,,,,,,,,,,,,,,
2443,0,6,6,248,252,237,232,4,-0.04,0.02,0.98,-0,-0,-0,0.05,1,61,0,4,27,99,1.426,0.0,113,4.88,12.8,0.0,1,0.0,0.0,0.0,0,0,0,1,0,0,250,250,0,0.0,0.0,0.0,0.0,0,0,0.0,0,0.0,-1,0.0,0.0,0.0,0,0.0,0.0407
2463,0,,,248,252,237,232,,-0.04,0.02,0.98,-0,-0,-0,0.05,,61,0,4,27,99,1.498,0.0,113,4.88,12.8,0.0,1,0.0,0.0,0.0,0,0,0,1,0,,,,,,,,,,,,,,,,,,,,
2483,0,,,248,252,237,232,,-0.04,0.02,0.98,-0,-0,-0,0.05,,61,0,4,27,99,1.498,0.0,113,4.86,12.8,0.0,1,0.0,0.0,0.0,0,0,0,1,0,,,,,,,,,,,,,,,,,,,,
2503,0,,,248,252,237,232,,-0.04,0.02,0.98,-0,-0,-0,0.05,,61,0,4,27,99,1.498,0.0,113,4.87,12.8,0.0,1,0.0,0.0,0.0,0,0,0,1,0,,,,,,,,,,,,,,,,,,,,
2523,0,,,248,252,237,232,,-0.04,0.02,0.98,-0,-0,-0,0.05,,61,0,4,27,99,1.498,0.0,113,4.88,12.9,0.0,1,0.0,0.0,0.0,0,0,0,1,0,,,,,,,,,,,,,,,,,,,,
2543,0,6,5,248,252,237,232,5,-0.04,0.02,0.98,-0,-0,-0,0.05,1,61,0,4,27,99,1.498,0.0,113,4.88,12.9,0.0,1,0.0,0.0,0.0,0,0,0,1,0,0,250,250,0,0.0,0.0,0.0,0.0,0,0,0.0,0,0.0,-1,0.0,,0.0,0,0.0,0.0424
2563,0,,,248,252,236,232,,-0.04,0.02,0.98,-0,-0,-0,0.05,,61,0,4,27,99,1.498,0.0,113,4.87,12.9,0.0,1,0.0,0.0,0.0,0,0,0,1,0,,,,,,,,,,,,,,,,,,,,
2583,0,,,248,252,237,232,,-0.04,0.02,0.98,-0,-0,-0,0.05,,61,0,4,27,99,1.498,0.0,113,4.88,12.9,0.0,1,0.0,0.0,0.0,0,0,0,1,0,,,,,,,,,,,,,,,,,,,,
2603,0,,,248,252,237,232,,-0.04,0.02,0.98,-0,-0,-0,0.05,,61,0,4,27,99,1.498,0.0,113,4.87,12.9,0.0,1,0.0,0.0,0.0,0,0,0,1,0,,,,,,,,,,,,,,,,,,,,
2623,0,,,248,252,237,232,,-0.04,0.02,0.98,-0,-0,-0,0.05,,61,0,4,27,99,1.498,0.0,113,4.88,12.9,0.0,1,0.0,0.0,0.0,0,0,0,1,0,,,,,,,,,,,,,,,,,,,,
2643,0,5,6,248,251,237,232,5,-0.04,0.02,0.98,-0,-0,-0,0.05,1,61,0,4,27,99,1.498,0.0,113,4.87,12.9,0.0,1,0.0,0.0,0.0,0,0,0,1,0,0,250,250,0,0.0,0.0,0.0,0.0,0,0,0.0,0,0.0,-1,0.0,0.0,0.0,0,0.0,0.044
2663,0,,,248,252,237,232,,-0.04,0.02,0.98,-0,-0,-0,0.05,,61,0,4,27,99,1.498,0.0,113,4.86,12.9,0.0,1,0.0,0.0,0.0,0,0,0,1,0,,,,,,,,,,,,,,,,,,,,
2683,0,,,248,252,237,232,,-0.04,0.02,0.98,-0,-0,-0,0.05,,61,0,4,27,99,1.498,0.0,113,4.88,12.9,0.0,1,0.0,0.0,0.0,0,0,0,1,0,,,,,,,,,,,,,,,,,,,,
2703,0,,,248,252,237,232,,-0.04,0.02,0.98,-0,-0,-0,0.05,,61,0,4,27,99,1.498,0.0,113,4.88,12.9,0.0,1,0.0,0.0,0.0,0,0,0,1,0,,,,,,,,,,,,,,,,,,,,
2723,0,,,248,252,237,232,,-0.04,0.02,0.98,-0,-0,-0,0.05,,61,0,4,27,99,1.498,0.0,113,4.87,12.9,0.0,1,0.0,0.0,0.0,0,0,0,1,0,,,,,,,,,,,,,,,,,,,,
2743,0,6,7,248,252,237,232,4,-0.04,0.02,0.98,-0,-0,-0,0.05,1,61,0,4,27,99,1.498,0.0,113,4.87,12.9,0.0,1,0.0,0.0,0.0,0,0,0,1,0,0,250,250,0,0.0,0.0,0.0,0.0,0,0,0.0,0,0.0,-1,0.0,,0.0,0,0.0,0.0457
2763,0,,,248,252,237,232,,-0.04,0.02,0.98,-0,-0,-0,0.05,,61,0,4,27,99,1.498,0.0,113,4.87,12.9,0.0,1,0.0,0.0,0.0,0,0,0,1,0,,,,,,,,,,,,,,,,,,,,
2783,0,,,248,252,237,232,,-0.04,0.02,0.98,-0,-0,-0,0.05,,61,0,4,27,99,1.498,0.0,113,4.88,12.9,0.0,1,0.0,0.0,0.0,0,0,0,1,0,,,,,,,,,,,,,,,,,,,,
2803,0,,,248,251,237,232,,-0.04,0.02,0.98,-0,-0,-0,0.05,,61,0,4,27,99,1.498,0.0,113,4.88,12.9,0.0,1,0.0,0.0,0.0,0,0,0,1,0,,,,,,,,,,,,,,,,,,,,
2823,0,,,248,252,237,232,,-0.04,0.02,0.98,-0,-0,-0,0.05,,61,0,4,27,99,1.498,0.0,113,4.88,12.9,0.0,1,0.0,0.0,0.0,0,0,0,1,0,,,,,,,,,,,,,,,,,,,,
2843,0,7,4,248,252,236,232,5,-0.04,0.02,0.97,-0,-0,-0,0.05,1,61,0,4,27,99,1.498,0.0,113,4.88,12.9,0.0,1,0.0,0.0,0.0,0,0,0,1,0,0,250,250,0,0.0,0.0,0.0,0.0,0,0,0.0,0,0.0,-1,0.0,0.0,0.0,0,0.0,0.0474
2863,0,,,248,252,237,232,,-0.04,0.02,0.97,-0,-0,-0,0.05,,61,0,4,27,99,1.498,0.0,113,4.88,12.9,0.0,1,0.0,0.0,0.0,0,0,0,1,0,,,,,,,,,,,,,,,,,,,,
2883,0,,,248,252,237,232,,-0.04,0.02,0.97,-0,-0,-0,0.05,,61,0,4,27,99,1.498,0.0,113,4.88,12.9,0.0,1,0.0,0.0,0.0,0,0,0,1,0,,,,,,,,,,,,,,,,,,,,
2903,0,,,248,252,236,232,,-0.04,0.02,0.97,-0,-0,-0,0.05,,61,0,4,27,99,1.498,0.0,113,4.88,12.9,0.0,1,0.0,0.0,0.0,0,0,0,1,0,,,,,,,,,,,,,,,,,,,,
2923,0,,,248,252,237,232,,-0.04,0.02,0.97,-0,-0,-0,0.05,,61,0,4,27,99,1.498,0.0,113,4.88,12.9,0.0,1,0.0,0.0,0.0,0,0,0,1,0,,,,,,,,,,,,,,,,,,,,
2943,0,6,5,248,252,237,232,5,-0.04,0.02,0.97,-0,-0,-0,0.05,1,61,0,4,27,99,1.498,0.0,113,4.87,12.9,0.0,1,0.0,0.0,0.0,0,0,0,1,0,0,250,250,0,0.0,0.0,0.0,0.0,0,0,0.0,0,0.0,-1,0.0,,0.0,0,0.0,0.049
2963,0,,,248,252,237,232,,-0.04,0.02,0.97,-0,-0,-0,0.05,,61,0,4,27,99,1.498,0.0,113,4.86,12.9,0.0,1,0.0,0.0,0.0,0,0,0,1,0,,,,,,,,,,,,,,,,,,,,
2983,0,,,248,252,237,232,,-0.04,0.02,0.97,-0,-0,-0,0.05,,61,0,4,27,99,1.498,0.0,113,4.87,12.9,0.0,1,0.0,0.0,0.0,0,0,0,1,0,,,,,,,,,,,,,,,,,,,,
3003,0,,,248,251,237,232,,-0.04,0.02,0.97,-0,-0,-0,0.05,,61,0,4,27,99,1.498,0.0,114,4.87,12.9,0.0,1,0.0,0.0,0.0,0,0,0,1,0,,,,,,,,,,,,,,,,,,,,
3023,0,,,248,252,236,232,,-0.04,0.02,0.97,-0,-0,-0,0.05,,61,0,4,27,99,1.498,0.0,115,4.88,12.9,0.0,1,0.0,0.0,0.0,0,0,0,1,0,,,,,,,,,,,,,,,,,,,,
3043,0,5,6,248,252,237,232,5,-0.04,0.02,0.97,-0,-0,-0,0.05,1,61,0,4,27,99,1.498,0.0,115,4.88,12.9,0.0,1,0.0,0.0,0.0,0,0,0,0,0,0,250,250,0,0.0,0.0,0.0,0.0,0,0,0.0,0,0.0,-1,0.0,0.0,0.0,0,0.0,0.0507
3063,0,,,248,252,237,232,,-0.04,0.02,0.97,-0,-0,-0,0.05,,61,0,4,27,99,1.498,0.0,115,4.82,13.1,0.0,1,0.0,0.0,0.0,0,0,0,0,0,,,,,,,,,,,,,,,,,,,,
3083,0,,,248,252,237,232,,-0.04,0.02,0.98,-0,-0,-0,0.05,,61,0,4,27,99,1.498,0.0,115,4.58,13.1,0.0,1,0.0,0.0,0.0,0,0,0,0,0,,,,,,,,,,,,,,,,,,,,
3103,0,,,248,251,237,232,,-0.04,0.02,0.98,-0,-0,-0,0.05,,61,0,4,27,99,1.498,0.0,115,3.76,13.1,0.0,1,0.0,0.0,0.0,0,0,0,0,0,,,,,,,,,,,,,,,,,,,,
3123,0,,,248,252,237,232,,-0.04,0.02,0.98,-0,-0,-0,0.05,,61,0,4,27,99,1.498,0.0,115,3.46,13.1,0.0,1,0.0,0.0,0.0,0,0,0,0,0,,,,,,,,,,,,,,,,,,,,
3143,0,6,6,248,252,237,232,4,-0.04,0.02,0.98,-0,-0,-0,0.05,1,61,0,4,27,99,1.498,0.0,115,3.32,13.1,0.0,1,0.0,0.0,0.0,0,0,0,0,0,0,250,250,0,0.0,0.0,0.0,0.0,0,0,0.0,0,0.0,-1,0.0,,0.0,0,0.0,0.0524
3163,0,,,248,252,237,232,,-0.04,0.02,0.98,-0,-0,-0,0.05,,61,0,4,27,99,1.498,0.0,115,3.24,13.1,0.0,1,0.0,0.0,0.0,0,0,0,0,0,,,,,,,,,,,,,,,,,,,,
3183,0,,,248,252,237,232,,-0.04,0.02,0.98,-0,-0,-0,0.05,,61,0,4,27,99,1.498,0.0,115,3.15,13.1,0.0,1,0.0,0.0,0.0,0,0,0,0,0,,,,,,,,,,,,,,,,,,,,
3203,0,,,248,252,237,232,,-0.04,0.02,0.98,-0,-0,-0,0.05,,61,0,4,27,99,1.498,0.0,115,3.08,13.1,0.0,1,0.0,0.0,0.0,0,0,0,0,0,,,,,,,,,,,,,,,,,,,,
3223,0,,,248,252,237,232,,-0.04,0.02,0.98,-0,-0,-0,0.05,,61,0,4,27,99,1.498,0.0,115,3.02,13.1,0.0,1,0.0,0.0,0.0,0,0,0,0,0,,,,,,,,,,,,,,,,,,,,
3243,0,6,6,248,251,237,232,5,-0.04,0.02,0.98,-0,-0,-0,0.05,1,61,0,4,27,99,1.498,0.0,114,2.95,13.1,0.0,1,0.0,0.0,0.0,0,0,0,0,0,0,250,250,0,0.0,0.0,0.0,0.0,0,0,0.0,0,0.0,-1,0.0,0.0,0.0,0,0.0,0.054
3263,0,,,248,252,237,232,,-0.04,0.02,0.98,-0,-0,-0,0.05,,61,0,4,27,99,1.498,0.0,114,2.9,13.1,0.0,1,0.0,0.0,0.0,0,0,0,0,0,,,,,,,,,,,,,,,,,,,,
3283,0,,,248,252,236,232,,-0.04,0.02,0.98,-0,-0,-0,0.05,,61,0,4,27,99,1.498,0.0,114,2.84,13.1,0.0,1,0.0,0.0,0.0,0,0,0,0,0,,,,,,,,,,,,,,,,,,,,
3303,0,,,248,252,236,232,,-0.04,0.02,0.98,-0,-0,-0,0.05,,61,0,4,27,99,1.498,0.0,114,2.79,13.1,0.0,1,0.0,0.0,0.0,0,0,0,0,0,,,,,,,,,,,,,,,,,,,,
3323,0,,,248,252,237,232,,-0.04,0.02,0.98,-0,-0,-0,0.05,,61,0,4,27,99,1.498,0.0,114,2.75,13.1,0.0,1,0.0,0.0,0.0,0,0,0,0,0,,,,,,,,,,,,,,,,,,,,
3343,0,6,7,248,252,237,232,4,-0.04,0.02,0.98,-0,-0,-0,0.05,1,61,0,4,27,99,1.498,0.0,114,2.7,13.1,0.0,1,0.0,0.0,0.0,0,0,0,0,0,0,250,250,0,0.0,0.0,0.0,0.0,0,0,0.0,0,0.0,-1,0.0,,0.0,0,0.0,0.0557
3363,0,,,248,252,237,232,,-0.04,0.02,0.98,-0,-0,-0,0.05,,61,0,4,27,99,1.498,0.0,116,2.66,13.1,0.0,1,0.0,0.0,0.0,0,0,0,0,0,,,,,,,,,,,,,,,,,,,,
3383,0,,,248,252,236,232,,-0.04,0.02,0.98,-0,-0,-0,0.05,,61,0,4,27,99,1.498,0.0,115,2.62,13.1,0.0,1,0.0,0.0,0.0,0,0,0,0,0,,,,,,,,,,,,,,,,,,,,
3403,0,,,248,252,237,232,,-0.04,0.02,0.98,-0,-0,-0,0.05,,61,0,4,27,99,1.498,0.0,115,2.6,13.1,0.0,1,0.0,0.0,0.0,0,0,0,0,0,,,,,,,,,,,,,,,,,,,,
3423,0,,,248,252,237,232,,-0.04,0.02,0.98,-0,-0,-0,0.05,,61,0,4,27,99,1.498,0.0,115,2.55,13.1,0.0,1,0.0,0.0,0.0,0,0,0,0,0,,,,,,,,,,,,,,,,,,,,
3443,0,6,4,248,252,236,232,5,-0.04,0.02,0.98,-0,-0,-0,0.05,1,61,0,4,27,99,1.498,0.0,115,2.52,13.1,0.0,1,0.0,0.0,0.0,0,0,0,0,0,0,250,250,0,0.0,0.0,0.0,0.0,0,0,0.0,0,0.0,-1,0.0,0.0,0.0,0,0.0,0.0574
3463,0,,,248,252,236,232,,-0.04,0.02,0.98,-0,-0,-0,0.05,,61,0,4,27,99,1.498,0.0,115,2.48,13.1,0.0,1,0.0,0.0,0.0,0,0,0,0,0,,,,,,,,,,,,,,,,,,,,
3483,0,,,248,252,237,232,,-0.04,0.02,0.98,-0,-0,-0,0.05,,61,0,4,27,99,1.498,0.0,115,2.46,13.1,0.0,1,0.0,0.0,0.0,0,0,0,0,0,,,,,,,,,,,,,,,,,,,,
3503,0,,,248,252,236,232,,-0.04,0.02,0.98,-0,-0,-0,0.05,,61,0,4,27,99,1.498,0.0,115,2.43,13.1,0.0,1,0.0,0.0,0.0,0,0,0,0,0,,,,,,,,,,,,,,,,,,,,
3523,0,,,248,252,237,232,,-0.04,0.02,0.98,-0,-0,-0,0.05,,61,0,4,27,99,1.498,0.0,115,2.41,13.1,0.0,1,0.0,0.0,0.0,0,0,0,0,0,,,,,,,,,,,,,,,,,,,,
3543,0,6,6,248,252,237,232,5,-0.04,0.02,0.98,-0,-0,-0,0.05,1,61,0,4,27,99,1.498,0.0,115,2.38,13.1,0.0,1,0.0,0.0,0.0,0,0,0,0,0,0,250,250,0,0.0,0.0,0.0,0.0,0,0,0.0,0,0.0,-1,0.0,,0.0,0,0.0,0.059
3563,0,,,248,251,237,232,,-0.04,0.02,0.98,-0,-0,-0,0.05,,61,0,4,27,99,1.498,0.0,115,2.35,13.1,0.0,1,0.0,0.0,0.0,0,0,0,0,0,,,,,,,,,,,,,,,,,,,,
3583,0,,,248,252,237,232,,-0.04,0.02,0.98,-0,-0,-0,0.05,,61,0,4,27,99,1.498,0.0,115,2.33,13.1,0.0,1,0.0,0.0,0.0,0,0,0,0,0,,,,,,,,,,,,,,,,,,,,
3603,0,,,248,252,237,232,,-0.04,0.02,0.98,-0,-0,-0,0.05,,61,0,4,27,99,1.498,0.0,115,2.32,13.1,0.0,1,0.0,0.0,0.0,0,0,0,0,0,,,,,,,,,,,,,,,,,,,,
3623,0,,,248,252,236,232,,-0.04,0.02,0.98,-0,-0,-0,0.05,,61,0,4,27,99,1.498,0.0,115,2.3,13.1,0.0,1,0.0,0.0,0.0,0,0,0,0,0,,,,,,,,,,,,,,,,,,,,
3643,0,6,4,248,252,237,232,5,-0.04,0.02,0.98,-0,-0,-0,0.05,1,61,0,4,27,99,1.498,0.0,115,2.27,13.1,0.0,1,0.0,0.0,0.0,0,0,0,0,0,0,250,250,0,0.0,0.0,0.0,0.0,0,0,0.0,0,0.0,-1,0.0,0.0,0.0,0,0.0,0.0607
3663,0,,,248,252,236,232,,-0.04,0.02,0.98,-0,-0,-0,0.05,,61,0,4,27,99,1.498,0.0,115,2.25,13.1,0.0,1,0.0,0.0,0.0,0,0,0,0,0,,,,,,,,,,,,,,,,,,,,
3683,0,,,248,252,237,232,,-0.04,0.02,0.98,-0,-0,-0,0.05,,61,0,4,27,99,1.498,0.0,115,2.24,13.1,0.0,1,0.0,0.0,0.0,0,0,0,0,0,,,,,,,,,,,,,,,,,,,,
3703,0,,,248,251,237,232,,-0.04,0.02,0.98,-0,-0,-0,0.05,,61,0,4,27,99,1.498,0.0,115,2.21,13.1,0.0,1,0.0,0.0,0.0,0,0,0,0,0,,,,,,,,,,,,,,,,,,,,
3723,0,,,248,252,237,232,,-0.04,0.02,0.98,-0,-0,-0,0.05,,61,0,4,27,99,1.498,0.0,115,2.19,13.1,0.0,1,0.0,0.0,0.0,0,0,0,0,0,,,,,,,,,,,,,,,,,,,,
3743,0,6,5,248,252,236,232,5,-0.04,0.02,0.98,-0,-0,-0,0.05,1,61,0,4,27,99,1.498,0.0,115,2.19,13.1,0.0,1,0.0,0.0,0.0,0,0,0,0,0,0,250,250,0,0.0,0.0,0.0,0.0,0,0,0.0,0,0.0,-1,0.0,,0.0,0,0.0,0.0624
3763,0,,,248,252,237,232,,-0.04,0.02,0.98,-0,-0,-0,0.05,,61,0,4,27,99,1.498,0.0,115,2.16,13.1,0.0,1,0.0,0.0,0.0,0,0,0,0,0,,,,,,,,,,,,,,,,,,,,
3783,0,,,248,252,237,232,,-0.04,0.03,0.98,-0,-0,-0,0.05,,61,0,4,27,99,1.498,0.0,116,2.16,13.1,0.0,1,0.0,0.0,0.0,0,0,0,0,0,,,,,,,,,,,,,,,,,,,,
3803,0,,,248,252,236,232,,-0.04,0.03,0.98,-0,-0,-0,0.05,,61,0,4,27,99,1.498,0.0,115,2.13,13.1,0.0,1,0.0,0.0,0.0,0,0,0,0,0,,,,,,,,,,,,,,,,,,,,
3823,0,,,248,252,236,232,,-0.04,0.03,0.98,-0,-0,-0,0.05,,61,0,4,28,99,1.498,0.0,115,2.11,13.1,0.0,1,0.0,0.0,0.0,0,0,0,0,0,,,,,,,,,,,,,,,,,,,,
3843,0,5,6,248,251,237,232,5,-0.04,0.02,0.98,-0,-0,-0,0.05,1,61,0,4,28,99,1.498,0.0,115,2.11,13.1,0.0,1,0.0,0.0,0.0,0,0,0,0,0,0,250,250,0,0.0,0.0,0.0,0.0,0,0,0.0,0,0.0,-1,0.0,0.0,0.0,0,0.0,0.064
3863,0,,,248,252,236,232,,-0.04,0.02,0.98,-0,-0,-0,0.05,,61,0,4,28,99,1.498,0.0,115,2.08,13.1,0.0,1,0.0,0.0,0.0,0,0,0,0,0,,,,,,,,,,,,,,,,,,,,
3883,0,,,248,252,237,232,,-0.04,0.02,0.98,-0,-0,-0,0.05,,61,0,4,28,99,1.498,0.0,115,2.08,13.1,0.0,1,0.0,0.0,0.0,0,0,0,0,0,,,,,,,,,,,,,,,,,,,,
3903,0,,,248,252,237,232,,-0.04,0.03,0.98,-0,-0,-0,0.05,,61,0,4,28,99,1.498,0.0,115,2.05,13.1,0.0,1,0.0,0.0,0.0,0,0,0,0,0,,,,,,,,,,,,,,,,,,,,
3923,0,,,248,251,237,232,,-0.04,0.02,0.98,-0,-0,-0,0.05,,61,0,4,28,99,1.498,0.0,115,2.05,13.1,0.0,1,0.0,0.0,0.0,0,0,0,0,0,,,,,,,,,,,,,,,,,,,,
3943,0,6,7,248,252,237,232,4,-0.04,0.03,0.98,-0,-0,-0,0.05,1,61,0,4,28,99,1.498,0.0,115,2.02,13.1,0.0,1,0.0,0.0,0.0,0,0,0,0,0,0,250,250,0,0.0,0.0,0.0,0.0,0,0,0.0,0,0.0,-1,0.0,,0.0,0,0.0,0.0657
3963,0,,,248,252,236,232,,-0.04,0.02,0.98,-0,-0,-0,0.05,,61,0,4,28,99,1.498,0.0,115,2.02,13.1,0.0,1,0.0,0.0,0.0,0,0,0,0,0,,,,,,,,,,,,,,,,,,,,
3983,0,,,248,251,237,232,,-0.04,0.02,0.98,-0,-0,-0,0.05,,61,0,4,28,99,1.498,0.0,115,2.0,13.1,0.0,1,0.0,0.0,0.0,0,0,0,0,0,,,,,,,,,,,,,,,,,,,,
4003,0,,,248,252,237,232,,-0.04,0.02,0.98,-0,-0,-0,0.05,,61,0,4,28,99,1.498,0.0,115,1.99,13.1,0.0,1,0.0,0.0,0.0,0,0,0,0,0,,,,,,,,,,,,,,,,,,,,
4023,0,,,248,251,237,232,,-0.04,0.02,0.98,-0,-0,-0,0.05,,61,0,4,28,99,1.498,0.0,115,1.97,13.1,0.0,1,0.0,0.0,0.0,0,0,0,0,0,,,,,,,,,,,,,,,,,,,,
4043,0,6,4,248,252,236,232,5,-0.04,0.02,0.98,-0,-0,-0,0.05,1,61,0,4,28,99,1.498,0.0,115,1.97,13.1,0.0,1,0.0,0.0,0.0,0,0,0,0,0,0,250,250,0,0.0,0.0,0.0,0.0,0,0,0.0,0,0.0,-1,0.0,0.0,0.0,0,0.0,0.0674
4063,0,,,248,251,237,232,,-0.04,0.02,0.98,-0,-0,-0,0.05,,61,0,4,28,99,1.498,0.0,115,1.94,13.1,0.0,1,0.0,0.0,0.0,0,0,0,0,0,,,,,,,,,,,,,,,,,,,,
4083,0,,,248,251,237,232,,-0.04,0.02,0.98,-0,-0,-0,0.05,,61,0,4,28,99,1.498,0.0,115,1.94,13.1,0.0,1,0.0,0.0,0.0,0,0,0,0,0,,,,,,,,,,,,,,,,,,,,
4103,0,,,248,252,237,232,,-0.04,0.02,0.98,-0,-0,-0,0.05,,61,0,4,28,99,1.498,0.0,115,1.94,13.1,0.0,1,0.0,0.0,0.0,0,0,0,0,0,,,,,,,,,,,,,,,,,,,,
4123,0,,,248,251,237,232,,-0.04,0.02,0.98,-0,-0,-0,0.05,,61,0,4,28,99,1.498,0.0,115,1.92,13.1,0.0,1,0.0,0.0,0.0,0,0,0,0,0,,,,,,,,,,,,,,,,,,,,
4143,0,7,6,248,252,237,232,5,-0.04,0.02,0.98,-0,-0,-0,0.05,1,61,0,4,28,99,1.498,0.0,115,1.92,13.1,0.0,1,0.0,0.0,0.0,0,0,0,0,0,0,250,250,0,0.0,0.0,0.0,0.0,0,0,0.0,0,0.0,-1,0.0,,0.0,0,0.0,0.069
4163,0,,,248,252,236,232,,-0.04,0.02,0.98,-0,-0,-0,0.05,,61,0,4,28,99,1.498,0.0,115,1.89,13.1,0.0,1,0.0,0.0,0.0,0,0,0,0,0,,,,,,,,,,,,,,,,,,,,
4183,0,,,248,252,236,232,,-0.04,0.02,0.98,-0,-0,-0,0.05,,61,0,4,28,99,1.498,0.0,115,1.89,13.1,0.0,1,0.0,0.0,0.0,0,0,0,0,0,,,,,,,,,,,,,,,,,,,,
4203,0,,,248,252,237,232,,-0.04,0.02,0.98,-0,-0,-0,0.05,,61,0,4,28,99,1.498,0.0,115,1.89,13.1,0.0,1,0.0,0.0,0.0,0,0,0,0,0,,,,,,,,,,,,,,,,,,,,
4223,0,,,248,252,237,232,,-0.04,0.02,0.98,-0,-0,-0,0.05,,61,0,4,28,99,1.498,0.0,115,1.86,13.1,0.0,1,0.0,0.0,0.0,0,0,0,0,0,,,,,,,,,,,,,,,,,,,,
4243,0,6,5,248,252,237,232,4,-0.04,0.02,0.98,-0,-0,-0,0.05,1,61,0,4,28,99,1.498,0.0,115,1.86,13.1,0.0,1,0.0,0.0,0.0,0,0,0,0,0,0,250,250,0,0.0,0.0,0.0,0.0,0,0,0.0,0,0.0,-1,0.0,0.0,0.0,0,0.0,0.0707
4263,0,,,248,251,237,232,,-0.04,0.02,0.98,-0,-0,-0,0.05,,61,0,4,28,99,1.498,0.0,115,1.85,13.1,0.0,1,0.0,0.0,0.0,0,0,0,0,0,,,,,,,,,,,,,,,,,,,,
4283,0,,,248,252,237,232,,-0.04,0.02,0.98,-0,-0,-0,0.05,,61,0,4,28,99,1.498,0.0,115,1.83,13.1,0.0,1,0.0,0.0,0.0,0,0,0,0,0,,,,,,,,,,,,,,,,,,,,
4303,0,,,248,252,237,232,,-0.04,0.02,0.98,-0,-0,-0,0.05,,61,0,4,28,99,1.498,0.0,115,1.83,13.1,0.0,1,0.0,0.0,0.0,0,0,0,0,0,,,,,,,,,,,,,,,,,,,,
4323,0,,,248,252,237,232,,-0.04,0.02,0.98,-0,-0,-0,0.05,,61,0,4,28,99,1.498,0.0,115,1.83,13.1,0.0,1,0.0,0.0,0.0,0,0,0,0,0,,,,,,,,,,,,,,,,,,,,
4343,0,6,6,248,252,237,232,4,-0.04,0.02,0.98,-0,-0,-0,0.05,1,61,0,4,28,99,1.498,0.0,115,1.81,13.1,0.0,1,0.0,0.0,0.0,0,0,0,0,0,0,250,250,0,0.0,0.0,0.0,0.0,0,0,0.0,0,0.0,-1,0.0,,0.0,0,0.0,0.0724
4363,0,,,248,252,237,232,,-0.04,0.02,0.98,-0,-0,-0,0.05,,61,0,4,28,99,1.498,0.0,115,1.8,13.1,0.0,1,0.0,0.0,0.0,0,0,0,0,0,,,,,,,,,,,,,,,,,,,,
4383,0,,,248,252,237,232,,-0.04,0.02,0.98,-0,-0,-0,0.05,,61,0,4,28,99,1.498,0.0,115,1.8,13.1,0.0,1,0.0,0.0,0.0,0,0,0,0,0,,,,,,,,,,,,,,,,,,,,
4403,0,,,248,252,237,232,,-0.04,0.02,0.98,-0,-0,-0,0.05,,61,0,4,28,99,1.498,0.0,115,1.8,13.1,0.0,1,0.0,0.0,0.0,0,0,0,0,0,,,,,,,,,,,,,,,,,,,,
4423,0,,,248,252,237,232,,-0.04,0.02,0.98,-0,-0,-0,0.05,,61,0,4,28,99,1.498,0.0,115,1.78,13.1,0.0,1,0.0,0.0,0.0,0,0,0,0,0,,,,,,,,,,,,,,,,,,,,
4443,0,6,4,248,252,236,232,5,-0.04,0.02,0.98,-0,-0,-0,0.05,1,61,0,4,28,99,1.498,0.0,115,1.78,13.1,0.0,1,0.0,0.0,0.0,0,0,0,0,0,0,250,250,0,0.0,0.0,0.0,0.0,0,0,0.0,0,0.0,-1,0.0,0.0,0.0,0,0.0,0.074
4463,0,,,248,252,237,232,,-0.04,0.02,0.98,-0,-0,-0,0.05,,61,0,4,28,99,1.498,0.0,115,1.78,13.1,0.0,1,0.0,0.0,0.0,0,0,0,0,0,,,,,,,,,,,,,,,,,,,,
4483,0,,,248,252,237,232,,-0.04,0.02,0.98,-0,-0,-0,0.05,,61,0,4,28,99,1.498,0.0,115,1.75,13.1,0.0,1,0.0,0.0,0.0,0,0,0,0,0,,,,,,,,,,,,,,,,,,,,
4503,0,,,248,252,237,232,,-0.04,0.02,0.98,-0,-0,-0,0.05,,61,0,4,28,99,1.498,0.0,115,1.75,13.1,0.0,1,0.0,0.0,0.0,0,0,0,0,0,,,,,,,,,,,,,,,,,,,,
4523,0,,,248,252,237,232,,-0.04,0.02,0.98,-0,-0,-0,0.05,,61,0,4,28,99,1.498,0.0,115,1.75,13.1,0.0,1,0.0,0.0,0.0,0,0,0,0,0,,,,,,,,,,,,,,,,,,,,
4543,0,7,5,248,252,237,232,5,-0.04,0.02,0.98,-0,-0,-0,0.05,1,61,0,4,28,99,1.498,0.0,115,1.75,13.1,0.0,1,0.0,0.0,0.0,0,0,0,0,0,0,250,250,0,0.0,0.0,0.0,0.0,0,0,0.0,0,0.0,-1,0.0,,0.0,0,0.0,0.0757
4563,0,,,248,252,237,232,,-0.04,0.02,0.98,-0,-0,-0,0.05,,61,0,4,28,99,1.498,0.0,115,1.73,13.1,0.0,1,0.0,0.0,0.0,0,0,0,0,0,,,,,,,,,,,,,,,,,,,,
4583,0,,,248,252,237,232,,-0.04,0.02,0.98,-0,-0,-0,0.05,,61,0,4,28,99,1.498,0.0,115,1.73,13.1,0.0,1,0.0,0.0,0.0,0,0,0,0,0,,,,,,,,,,,,,,,,,,,,
4603,0,,,248,252,237,232,,-0.04,0.02,0.98,-0,-0,-0,0.05,,61,0,4,28,99,1.498,0.0,115,1.71,13.1,0.0,1,0.0,0.0,0.0,0,0,0,0,0,,,,,,,,,,,,,,,,,,,,
4623,0,,,248,252,237,232,,-0.04,0.02,0.98,-0,-0,-0,0.05,,61,0,4,28,99,1.498,0.0,115,1.71,13.1,0.0,1,0.0,0.0,0.0,0,0,0,0,0,,,,,,,,,,,,,,,,,,,,
4643,0,5,4,248,252,237,232,4,-0.04,0.02,0.98,-0,-0,-0,0.05,1,61,0,4,28,99,1.498,0.0,114,1.7,12.3,0.0,1,0.0,0.0,0.0,0,0,0,0,0,0,250,250,0,0.0,0.0,0.0,0.0,0,0,0.0,0,0.0,-1,0.0,0.0,0.0,0,0.0,0.0774
4663,0,,,248,252,237,232,,-0.04,0.02,0.97,-0,-0,-0,0.05,,61,0,4,28,99,1.498,0.0,115,1.7,9.9,0.0,1,0.0,0.0,0.0,0,0,0,0,0,,,,,,,,,,,,,,,,,,,,
4683,0,,,248,251,236,232,,-0.04,0.03,0.97,-0,0,-0,0.05,,61,0,4,28,99,1.498,0.0,115,1.7,10.7,0.0,1,0.0,0.0,0.0,0,0,0,0,0,,,,,,,,,,,,,,,,,,,,
4703,0,,,248,252,237,232,,-0.04,0.03,0.99,-0,-0,-0,0.05,,61,0,4,28,99,1.498,0.0,115,1.7,11.1,0.0,1,0.0,0.0,0.0,0,0,0,0,0,,,,,,,,,,,,,,,,,,,,
4723,0,,,248,252,237,232,,-0.04,0.03,0.99,-0,-0,-0,0.05,,61,0,4,28,99,1.498,0.0,116,1.68,11.5,0.0,1,0.0,0.0,0.0,0,0,0,0,0,,,,,,,,,,,,,,,,,,,,
4743,0,6,4,248,252,237,232,5,-0.04,0.03,0.98,-0,-0,-0,0.05,1,61,0,4,28,99,1.498,0.0,116,1.67,11.6,0.0,1,0.0,0.0,0.0,0,0,0,0,0,0,250,250,0,0.0,0.0,0.0,0.0,0,0,0.0,0,0.0,-1,0.0,,0.0,0,0.0,0.079
4763,0,,,248,252,237,232,,-0.04,0.03,0.98,-0,-0,-0,0.05,,61,0,4,28,99,1.498,0.0,116,1.67,11.6,0.0,1,0.0,0.0,0.0,0,0,0,0,0,,,,,,,,,,,,,,,,,,,,
4783,0,,,248,252,236,232,,-0.04,0.03,0.97,-0,-0,-0,0.05,,61,0,4,28,99,1.498,0.0,116,1.67,11.5,0.0,1,0.0,0.0,0.0,0,0,0,0,0,,,,,,,,,,,,,,,,,,,,
4803,0,,,248,251,237,232,,-0.04,0.03,0.98,-0,-0,-0,0.05,,61,0,4,28,99,1.498,0.0,115,1.67,11.5,0.0,1,0.0,0.0,0.0,0,0,0,0,0,,,,,,,,,,,,,,,,,,,,
4823,0,,,248,251,237,232,,-0.04,0.03,0.98,-0,-0,-0,0.05,,61,0,4,28,99,1.498,0.0,116,1.65,11.8,0.0,1,0.0,0.0,0.0,0,0,0,0,0,,,,,,,,,,,,,,,,,,,,
4843,0,6,7,248,252,237,232,5,-0.04,0.03,0.99,-0,-0,-0,0.05,1,61,0,4,28,99,1.498,0.0,116,1.64,11.9,0.0,1,0.0,0.0,0.0,0,0,0,0,0,0,250,250,0,0.0,0.0,0.0,0.0,0,0,0.0,0,0.0,-1,0.0,0.0,0.0,0,0.0,0.0807
4863,0,,,248,252,237,232,,-0.04,0.03,0.97,-0,-0,-0,0.05,,61,0,4,28,98,1.498,0.0,116,1.64,11.6,0.0,1,0.0,0.0,0.0,0,0,0,0,0,,,,,,,,,,,,,,,,,,,,
4883,0,,,248,252,237,232,,-0.04,0.02,0.98,-0,-0,-0,0.05,,61,0,4,28,99,1.498,0.0,116,1.64,11.8,0.0,1,0.0,0.0,0.0,0,0,0,0,0,,,,,,,,,,,,,,,,,,,,
4903,0,,,248,252,237,232,,-0.04,0.02,0.97,-0,-0,-0,0.05,,61,0,4,28,99,1.498,0.0,116,1.64,11.9,0.0,1,0.0,0.0,0.0,0,0,0,0,0,,,,,,,,,,,,,,,,,,,,
4923,0,,,248,252,236,232,,-0.04,0.02,0.97,-0,-0,-0,0.05,,61,0,4,28,98,1.498,0.0,116,1.61,11.9,0.0,1,0.0,0.0,0.0,0,0,0,0,0,,,,,,,,,,,,,,,,,,,,
4943,0,6,6,248,252,237,232,5,-0.04,0.02,0.97,-0,-0,-0,0.05,1,61,0,4,28,99,1.498,0.0,116,1.61,11.7,0.0,1,0.0,0.0,0.0,0,0,0,0,0,0,250,250,0,0.0,0.0,0.0,0.0,0,0,0.0,0,0.0,-1,0.0,,0.0,0,0.0,0.0824
4963,0,,,248,252,237,232,,-0.04,0.02,0.97,-0,-0,-0,0.05,,61,0,4,28,99,1.498,0.0,116,1.61,11.9,0.0,1,0.0,0.0,0.0,0,0,0,0,0,,,,,,,,,,,,,,,,,,,,
4983,0,,,248,252,237,232,,-0.04,0.02,0.99,-0,-0,-0,0.05,,61,0,4,28,98,1.498,0.0,116,1.61,12.0,0.0,1,0.0,0.0,0.0,0,0,0,0,0,,,,,,,,,,,,,,,,,,,,
5003,0,,,248,252,237,232,,-0.04,0.02,0.99,-0,-0,-0,0.05,,61,0,4,28,99,1.498,0.0,116,1.61,11.7,0.0,1,0.0,0.0,0.0,0,0,0,0,0,,,,,,,,,,,,,,,,,,,,
5023,0,,,248,252,237,232,,-0.04,0.02,0.99,-0,-0,-0,0.05,,61,0,4,28,99,1.498,0.0,116,1.61,11.8,0.0,1,0.0,0.0,0.0,0,0,0,0,0,,,,,,,,,,,,,,,,,,,,
5043,0,6,4,248,252,237,232,4,-0.04,0.02,0.98,-0,-0,-0,0.05,1,61,0,4,28,98,1.498,0.0,116,1.6,12.0,0.0,1,0.0,0.0,0.0,0,0,0,0,0,0,250,250,0,0.0,0.0,0.0,0.0,0,0,0.0,0,0.0,-1,0.0,0.0,0.0,0,0.0,0.084
5063,0,,,248,252,237,232,,-0.04,0.02,1.0,-0,-0,-0,0.05,,61,0,4,28,99,1.498,0.0,118,1.58,11.8,0.0,1,0.0,0.0,0.0,0,0,0,0,0,,,,,,,,,,,,,,,,,,,,
5083,0,,,248,252,237,232,,-0.04,0.02,0.99,-0,0,-0,0.05,,61,0,4,28,99,1.498,0.0,118,1.58,11.9,0.0,1,0.0,0.0,0.0,0,0,0,0,0,,,,,,,,,,,,,,,,,,,,
5103,0,,,248,252,237,232,,-0.04,0.02,0.99,-0,0,-0,0.05,,61,0,4,28,98,1.498,0.0,118,1.58,12.0,0.0,1,0.0,0.0,0.0,0,0,0,0,0,,,,,,,,,,,,,,,,,,,,
5123,0,,,248,252,237,232,,-0.04,0.02,0.99,-0,0,-0,0.05,,61,0,4,28,98,1.498,0.0,118,1.58,11.8,0.0,1,0.0,0.0,0.0,0,0,0,0,0,,,,,,,,,,,,,,,,,,,,
5143,0,6,4,248,252,236,232,5,-0.04,0.03,0.99,-0,0,-0,0.05,1,61,0,4,28,99,1.498,0.0,118,1.58,11.8,0.0,1,0.0,0.0,0.0,0,0,0,0,0,0,250,250,0,0.0,0.0,0.0,0.0,0,0,0.0,0,0.0,-1,0.0,,0.0,0,0.0,0.0857
5163,0,,,248,252,237,232,,-0.04,0.03,0.99,-0,-0,-0,0.05,,61,0,4,28,98,1.498,0.0,118,1.56,12.0,0.0,1,0.0,0.0,0.0,0,0,0,0,0,,,,,,,,,,,,,,,,,,,,
5183,0,,,248,252,237,232,,-0.04,0.02,0.98,-0,-0,-0,0.05,,61,0,4,28,98,1.498,0.0,118,1.56,11.8,0.0,1,0.0,0.0,0.0,0,0,0,0,0,,,,,,,,,,,,,,,,,,,,
5203,0,,,248,252,237,232,,-0.04,0.03,0.98,-0,-0,-0,0.05,,61,0,4,28,99,1.498,0.0,118,1.56,11.9,0.0,1,0.0,0.0,0.0,0,0,0,0,0,,,,,,,,,,,,,,,,,,,,
5223,0,,,248,252,237,232,,-0.05,0.03,0.98,-0,-0,-0,0.05,,61,66,4,28,99,1.498,0.0,118,1.56,11.7,0.0,1,20.0,2.09,0.0,0,0,0,1,0,,,,,,,,,,,,,,,,,,,,
5243,0,6,6,248,251,237,232,4,-0.04,0.03,0.96,-0,-0,-0,0.05,1,61,66,4,28,98,1.498,0.0,118,2.27,11.8,0.0,1,20.0,4.65,0.0,0,0,0,1,0,0,250,250,0,0.0,0.0,0.0,0.0,0,0,0.0,0,0.0,-1,0.0,0.0,0.0,0,0.0,0.0874
5263,0,,,248,252,237,232,,-0.04,0.03,0.96,-0,-0,-0,0.05,,61,66,4,28,99,1.498,0.0,118,4.46,11.6,0.0,1,20.0,4.65,0.0,0,0,0,1,0,,,,,,,,,,,,,,,,,,,,
5283,0,,,248,251,237,232,,-0.04,0.03,0.97,-0,-0,-0,0.05,,61,472,4,28,99,1.498,0.0,116,4.87,11.8,0.0,1,20.0,2.09,0.0,0,0,0,1,0,,,,,,,,,,,,,,,,,,,,
5303,0,,,248,252,237,232,,-0.04,0.03,0.98,-0,0,-0,0.05,,61,472,4,28,98,1.498,0.0,118,4.8,11.8,0.0,1,20.0,4.65,1.0,0,0,0,1,0,,,,,,,,,,,,,,,,,,,,
5323,0,,,248,252,237,232,,-0.04,0.03,0.97,-0,-0,-0,0.05,,61,472,6,28,99,1.498,0.0,118,4.86,11.7,0.0,1,20.0,2.09,1.0,0,0,0,1,0,,,,,,,,,,,,,,,,,,,,
5343,0,2,3,248,251,237,232,5,-0.04,0.03,0.97,-0,-0,-0,0.05,1,61,475,13,28,99,1.498,0.0,113,4.83,11.5,0.0,1,30.0,8.15,1.0,0,0,0,1,0,0,250,250,0,0.0,0.0,0.0,0.0,0,0,0.0,0,0.0,-1,0.0,,0.0,0,0.0,0.089
5363,0,,,248,252,236,232,,-0.04,0.03,0.98,-0,-0,-0,0.05,,61,475,21,28,99,1.498,0.0,118,4.84,11.9,0.0,1,30.0,8.15,1.0,0,0,0,1,0,,,,,,,,,,,,,,,,,,,,
5383,0,,,248,252,237,232,,-0.04,0.02,0.97,-0,-0,-0,0.05,,61,475,30,28,99,1.498,0.0,118,4.86,11.6,0.0,1,30.0,7.0,1.0,0,0,0,1,0,,,,,,,,,,,,,,,,,,,,
5403,0,,,248,252,237,232,,-0.04,0.03,0.97,-0,-0,-0,0.05,,61,469,38,28,99,1.498,0.0,114,4.79,11.3,0.0,1,30.0,8.15,1.7,0,0,0,1,0,,,,,,,,,,,,,,,,,,,,
5423,0,,,248,252,237,232,,-0.04,0.03,0.97,-0,-0,-0,0.05,,61,469,44,28,99,1.498,0.0,118,4.88,11.8,0.0,1,30.0,8.15,1.7,0,0,0,1,0,,,,,,,,,,,,,,,,,,,,
5443,0,1,2,248,251,237,232,5,-0.04,0.02,0.99,-0,-0,-0,0.05,1,61,469,46,28,99,1.498,0.0,118,4.83,11.6,0.0,1,30.0,8.15,1.7,0,0,0,1,0,0,250,250,0,0.0,0.0,0.0,0.0,0,0,0.0,0,0.0,-1,0.0,0.0,0.0,0,0.0,0.0907
5463,0,,,248,252,237,232,,-0.05,0.02,0.98,-0,-0,-0,0.05,,61,474,47,28,99,1.498,0.0,117,4.8,11.5,0.0,1,30.0,7.0,1.7,0,0,0,1,0,,,,,,,,,,,,,,,,,,,,
5483,0,,,248,251,237,232,,-0.05,0.02,0.98,-0,-0,-0,0.05,,61,474,47,28,99,1.498,0.0,118,4.87,11.9,0.0,1,30.0,8.15,1.7,0,0,0,1,0,,,,,,,,,,,,,,,,,,,,
5503,0,,,248,252,237,232,,-0.04,0.03,1.0,-0,0,-0,0.05,,61,474,47,28,99,1.498,0.0,118,4.83,11.7,0.0,1,30.0,8.15,1.7,0,0,0,1,0,,,,,,,,,,,,,,,,,,,,
5523,0,,,248,252,237,232,,-0.05,0.02,0.98,-0,0,-0,0.05,,61,474,47,28,99,1.498,0.0,118,4.86,11.7,0.0,1,30.0,8.03,1.7,0,0,0,1,0,,,,,,,,,,,,,,,,,,,,
5543,0,-1,3,248,251,237,232,5,-0.04,0.02,0.99,-0,-0,-0,0.05,1,61,468,43,28,99,1.498,0.0,118,4.79,11.8,0.0,1,30.0,8.03,1.7,0,0,0,1,0,0,250,250,0,0.0,0.0,0.0,0.0,0,0,0.0,0,0.0,-1,0.0,,0.0,0,0.0,0.0924
5563,0,,,248,251,237,232,,-0.05,0.02,0.98,-0,-0,-0,0.05,,61,468,30,28,99,1.498,0.0,121,4.86,11.7,0.0,1,30.0,8.03,1.7,0,0,0,1,0,,,,,,,,,,,,,,,,,,,,
5583,0,,,248,251,237,232,,-0.05,0.02,0.99,-0,-0,-0,0.05,,61,468,15,28,99,1.498,0.0,121,4.85,11.7,0.0,1,30.0,8.03,1.7,0,0,0,1,0,,,,,,,,,,,,,,,,,,,,
5603,0,,,248,252,237,232,,-0.05,0.02,0.98,-0,0,-0,0.05,,61,475,4,28,99,1.498,0.0,121,4.81,11.8,0.0,1,20.0,2.09,1.7,0,0,0,1,0,,,,,,,,,,,,,,,,,,,,
5623,0,,,248,252,237,232,,-0.05,0.02,0.96,-0,0,-0,0.06,,61,475,4,28,98,1.498,0.0,121,4.87,11.8,0.0,1,20.0,4.05,1.7,0,0,0,1,0,,,,,,,,,,,,,,,,,,,,
5643,0,-0,2,248,252,237,232,6,-0.05,0.02,0.96,-0,0,-0,0.05,1,61,475,4,28,99,1.498,0.0,121,4.84,11.7,0.0,1,20.0,2.09,1.7,0,0,0,1,0,0,250,250,0,0.0,0.0,0.0,0.0,0,0,0.0,0,0.0,-1,0.0,0.0,0.0,0,0.0,0.094
5663,0,,,248,251,237,232,,-0.05,0.02,0.96,-0,0,-0,0.06,,61,0,5,28,99,1.498,0.0,121,4.91,11.8,0.0,1,20.0,7.93,1.7,0,0,0,1,0,,,,,,,,,,,,,,,,,,,,
5683,0,,,248,252,237,232,,-0.05,0.02,0.97,-0,0,-0,0.05,,61,0,16,28,99,1.498,0.0,121,4.83,11.9,0.0,1,20.0,7.93,1.7,0,0,0,1,0,,,,,,,,,,,,,,,,,,,,
5703,0,,,248,251,237,232,,-0.05,0.02,0.97,-0,0,-0,0.05,,61,0,34,28,99,1.498,0.0,121,4.85,11.8,0.0,1,20.0,7.93,1.7,0,0,0,1,0,,,,,,,,,,,,,,,,,,,,
5723,0,,,248,250,237,232,,-0.05,0.02,0.97,-0,-0,-0,0.05,,61,0,50,28,99,1.498,0.0,121,4.86,11.9,0.0,1,20.0,7.93,1.7,0,0,0,1,0,,,,,,,,,,,,,,,,,,,,
5743,0,1,1,248,251,236,232,5,-0.04,0.02,0.99,-0,-0,-0,0.05,1,61,0,60,28,99,1.498,0.0,124,4.85,12.0,0.0,1,20.0,7.93,1.7,0,0,0,1,0,0,250,250,0,0.0,0.0,0.0,0.0,0,0,0.0,0,0.0,-1,0.0,,0.0,0,0.0,0.0957
5763,0,,,248,251,237,232,,-0.05,0.02,0.99,-0,-0,-0,0.05,,61,0,66,28,99,1.498,0.0,123,4.86,11.7,0.0,1,20.0,7.93,1.7,0,0,0,1,0,,,,,,,,,,,,,,,,,,,,
5783,0,,,248,252,237,232,,-0.04,0.02,0.99,-0,-0,-0,0.05,,61,0,68,28,99,1.498,0.0,123,4.85,11.8,0.0,1,20.0,7.93,1.7,0,0,0,1,0,,,,,,,,,,,,,,,,,,,,
5803,0,,,248,251,237,232,,-0.04,0.02,0.97,-0,-0,-0,0.05,,61,0,68,28,99,1.498,0.0,124,4.86,11.9,0.0,1,20.0,7.93,1.7,0,0,0,1,0,,,,,,,,,,,,,,,,,,,,
5823,0,,,248,251,237,232,,-0.04,0.02,0.99,-0,-0,-0,0.05,,61,0,68,28,99,1.498,0.0,125,4.85,11.7,0.0,1,20.0,7.93,1.7,0,0,0,1,0,,,,,,,,,,,,,,,,,,,,
5843,0,2,4,248,251,237,232,4,-0.04,0.02,0.97,-0,-0,-0,0.05,1,61,0,68,28,99,1.498,0.0,123,4.86,11.8,0.0,1,20.0,7.93,1.7,0,0,0,1,0,0,250,250,0,0.0,0.0,0.0,0.0,0,0,0.0,0,0.0,-1,0.0,0.0,0.0,0,0.0,0.0974
5863,0,,,248,252,237,232,,-0.03,0.02,0.98,-0,-0,-0,0.04,,61,0,65,28,99,1.498,0.0,124,4.85,12.0,0.0,1,20.0,7.93,1.7,0,0,0,1,0,,,,,,,,,,,,,,,,,,,,
5883,0,,,248,252,237,232,,-0.02,0.02,1.0,-0,-0,-0,0.03,,61,0,53,28,99,1.498,0.0,126,4.85,11.8,0.0,1,20.0,7.93,1.7,0,0,0,1,0,,,,,,,,,,,,,,,,,,,,
5903,0,,,248,252,237,232,,-0.03,0.02,1.01,-0,-0,-0,0.03,,61,0,32,28,99,1.498,0.0,126,4.85,11.8,0.0,1,20.0,7.93,1.7,0,0,0,1,0,,,,,,,,,,,,,,,,,,,,
5923,0,,,248,252,237,232,,-0.02,0.02,1.02,-0,-0,-0,0.03,,61,0,8,28,99,1.498,0.0,126,4.85,11.9,0.0,1,20.0,7.93,1.7,0,0,0,1,0,,,,,,,,,,,,,,,,,,,,
5943,0,9,12,248,252,237,232,4,-0.03,0.02,0.99,-0,-0,-0,0.03,1,61,0,4,28,98,1.498,0.0,123,4.87,11.4,0.0,1,20.0,7.93,1.7,0,0,0,1,0,0,250,250,0,0.0,0.0,0.0,0.0,0,0,0.0,0,0.0,-1,0.0,,0.0,0,0.0,0.099
5963,0,,,248,252,236,232,,-0.03,0.02,0.98,-0,-0,-0,0.03,,61,0,4,28,99,1.498,0.0,126,4.82,11.9,0.0,1,20.0,7.93,1.7,0,0,0,1,0,,,,,,,,,,,,,,,,,,,,
5983,0,,,248,252,237,232,,-0.04,0.02,0.97,-0,-0,-0,0.04,,61,0,4,28,98,1.498,0.0,126,4.86,12.1,0.0,1,20.0,7.93,1.7,0,0,0,1,0,,,,,,,,,,,,,,,,,,,,
6003,0,,,248,252,237,232,,-0.04,0.02,0.95,-0,-0,-0,0.04,,61,0,4,28,97,1.498,0.0,133,4.81,12.2,0.0,1,20.0,7.93,1.7,0,0,0,1,0,,,,,,,,,,,,,,,,,,,,
6023,0,,,248,252,237,232,,-0.04,0.01,0.95,-0,0,-0,0.04,,61,2176,4,28,95,1.498,0.0,140,4.86,12.1,0.0,1,20.0,5.72,1.7,0,0,0,1,0,,,,,,,,,,,,,,,,,,,,
6043,0,12,11,248,252,237,232,5,-0.03,-0.0,0.94,-0,1,-0,0.03,1,61,2241,4,28,94,1.498,0.0,139,4.76,11.6,0.0,1,20.0,5.72,1.7,0,0,0,1,0,0,250,250,0,0.0,0.0,0.0,0.0,0,0,0.0,0,0.0,-1,0.0,0.0,0.0,0,0.0,0.1007
6063,0,,,248,252,236,232,,-0.02,-0.01,0.93,-0,0,-0,0.02,,61,2075,3,28,92,1.498,0.0,140,4.68,11.2,0.0,1,20.0,5.63,5.4,0,0,0,1,0,,,,,,,,,,,,,,,,,,,,
6083,0,,,248,252,237,232,,-0.03,-0.01,1.03,-0,0,-0,0.03,,61,1984,3,28,91,1.498,0.0,146,4.81,11.3,0.0,1,20.0,5.56,5.4,0,0,0,1,0,,,,,,,,,,,,,,,,,,,,
6103,0,,,248,252,237,232,,-0.03,-0.0,0.99,-0,0,-0,0.03,,61,2090,4,28,91,1.498,0.0,157,4.75,11.7,0.0,1,20.0,5.49,5.4,0,0,0,1,0,,,,,,,,,,,,,,,,,,,,
6123,0,,,248,252,237,232,,-0.01,-0.01,0.92,-0,-1,-0,0.01,,61,2656,7,28,90,1.498,0.0,179,4.89,12.5,0.0,1,20.0,5.57,5.4,0,0,0,1,0,,,,,,,,,,,,,,,,,,,,
6143,0,7,8,248,252,237,232,5,-0.01,-0.0,0.89,-0,-2,-1,0.01,1,61,2996,13,28,90,1.498,0.0,195,4.82,12.5,0.0,1,24.9,6.4,5.4,0,0,0,1,0,0,250,250,0,0.0,0.0,0.0,0.0,0,0,0.0,0,0.0,-1,0.0,,0.0,0,0.0,0.1024
6163,0,,,248,252,237,232,,-0.02,0.01,0.84,-0,-3,-0,0.02,,61,3247,24,28,91,1.498,0.0,212,4.87,12.5,0.0,1,25.7,7.22,10.8,0,0,0,1,0,,,,,,,,,,,,,,,,,,,,
6183,0,,,248,252,237,232,,-0.03,0.03,0.9,-0,-2,-0,0.04,,61,3475,35,28,95,1.498,0.0,234,4.83,12.4,0.0,1,28.7,8.44,10.8,0,0,0,1,0,,,,,,,,,,,,,,,,,,,,
6203,0,,,248,252,237,232,,-0.02,0.01,0.83,-0,-2,0,0.03,,61,3763,41,28,98,1.498,0.0,260,4.85,12.5,0.0,1,33.5,9.02,10.8,0,0,0,1,0,,,,,,,,,,,,,,,,,,,,
6223,0,,,248,252,236,232,,0.03,-0.02,0.77,-0,-2,-0,0.03,,61,4244,42,28,98,1.498,0.0,284,4.84,12.5,0.0,1,37.6,8.83,10.8,0,0,0,1,0,,,,,,,,,,,,,,,,,,,,
6243,0,5,6,248,251,237,232,5,0.06,-0.05,0.71,-0,-2,-1,0.07,1,61,4749,42,28,97,1.498,0.0,324,4.82,12.5,0.0,1,40.8,8.13,10.8,0,0,0,1,0,0,250,250,0,0.0,0.0,0.0,0.0,0,0,0.0,0,0.0,-1,0.0,0.0,0.0,0,0.0,0.104
6263,0,,,248,252,237,232,,-0.02,0.01,0.96,-0,1,2,0.02,,61,5420,42,28,97,1.498,0.0,391,4.83,12.7,0.0,1,41.5,8.99,22.5,0,0,0,1,0,,,,,,,,,,,,,,,,,,,,
6283,0,,,248,249,236,232,,-0.12,0.0,0.89,0,6,6,0.12,,61,5978,41,28,96,1.498,0.0,505,4.81,12.9,0.0,1,41.2,10.3,22.5,0,0,0,1,0,,,,,,,,,,,,,,,,,,,,
6303,0,,,248,250,237,232,,-0.06,0.01,1.08,0,5,5,0.06,,61,6820,29,28,94,1.498,0.0,621,4.82,12.8,0.0,1,48.1,8.3,22.5,0,0,0,1,0,,,,,,,,,,,,,,,,,,,,
6323,0,,,248,252,237,232,,-0.07,0.01,1.05,0,6,7,0.07,,61,7183,9,28,88,1.498,0.0,657,4.8,12.8,0.0,1,46.4,7.42,22.5,0,0,0,1,0,,,,,,,,,,,,,,,,,,,,
6343,0,6,4,248,252,236,232,5,-0.08,0.03,0.97,0,6,7,0.08,1,61,7458,4,28,80,1.498,0.0,661,4.82,12.7,0.0,1,41.1,3.08,22.5,0,0,0,1,0,0,250,250,0,0.0,0.0,0.0,0.0,0,0,0.0,0,0.0,-1,0.0,,0.0,0,0.0,0.1057
6363,0,,,248,250,237,232,,-0.06,0.03,1.2,0,4,5,0.06,,61,7878,4,28,72,1.498,0.0,677,4.81,12.8,0.0,1,39.0,6.09,22.2,0,0,0,1,0,,,,,,,,,,,,,,,,,,,,
6383,0,,,248,250,237,232,,-0.04,0.02,1.4,0,3,3,0.04,,61,8054,4,28,65,1.498,0.0,681,4.83,12.9,0.0,1,38.6,2.04,22.2,0,0,0,1,0,,,,,,,,,,,,,,,,,,,,
6403,0,,,248,251,237,232,,-0.05,0.05,1.33,0,3,3,0.07,,61,8078,4,28,59,1.498,0.0,677,4.83,12.8,0.0,1,38.3,1.44,22.2,0,0,0,1,0,,,,,,,,,,,,,,,,,,,,
6423,0,,,248,250,237,232,,-0.05,0.02,1.54,0,1,1,0.05,,61,7948,4,28,55,1.498,0.0,676,4.83,12.8,0.0,1,37.1,3.15,22.2,0,0,0,1,0,,,,,,,,,,,,,,,,,,,,
6443,0,6,4,248,250,237,232,6,-0.03,-0.01,1.73,-0,-0,-1,0.03,1,61,7802,4,28,51,1.498,0.0,675,4.83,13.0,0.0,1,36.4,2.93,22.2,0,0,0,1,0,0,250,250,0,0.0,0.0,0.0,0.0,0,0,0.0,0,0.0,-1,0.0,0.0,0.0,0,0.0,0.1074
6463,0,,,248,251,237,232,,-0.02,-0.01,1.89,-0,-1,-2,0.02,,61,7649,4,28,50,1.498,0.0,676,4.85,13.0,0.0,1,35.9,2.79,22.2,0,0,0,1,0,,,,,,,,,,,,,,,,,,,,
6483,0,,,248,250,237,232,,-0.02,-0.02,1.76,-0,-1,-2,0.03,,61,7512,4,28,48,1.498,0.0,668,4.83,13.0,0.0,1,35.2,1.17,9.8,0,0,0,1,0,,,,,,,,,,,,,,,,,,,,
6503,0,,,248,249,237,232,,-0.01,-0.04,1.77,-0,-2,-3,0.05,,61,7347,4,28,47,1.498,0.0,671,4.82,13.0,0.0,1,34.5,1.14,9.8,0,0,0,1,0,,,,,,,,,,,,,,,,,,,,
6523,0,,,248,249,237,232,,0.01,-0.04,1.94,-0,-3,-3,0.05,,61,7142,4,28,46,1.498,0.0,665,4.82,13.1,0.0,1,33.4,2.39,9.8,0,0,0,1,0,,,,,,,,,,,,,,,,,,,,
6543,0,4,6,248,251,237,232,5,-0.05,-0.06,1.79,-0,-0,-0,0.08,1,61,6936,4,28,46,1.498,0.0,658,4.83,12.8,0.0,1,32.9,2.25,9.8,0,0,0,1,0,0,250,250,0,0.0,0.0,0.0,0.0,0,0,0.0,0,0.0,-1,0.0,,0.0,0,0.0,0.109
6563,0,,,248,249,237,232,,0.01,-0.06,1.96,-0,-3,-3,0.06,,61,6878,4,28,45,1.498,0.0,659,4.83,13.1,0.0,1,32.5,2.27,7.2,0,0,0,1,0,,,,,,,,,,,,,,,,,,,,
6583,0,,,248,251,237,232,,-0.04,-0.07,1.81,-0,0,-0,0.08,,61,6803,4,28,45,1.498,0.0,654,4.83,12.9,0.0,1,32.3,2.27,7.2,0,0,0,1,0,,,,,,,,,,,,,,,,,,,,
6603,0,,,248,249,236,232,,0.01,-0.07,1.98,-0,-3,-3,0.07,,61,6739,4,28,44,1.498,0.0,661,4.85,13.1,0.0,1,31.9,1.15,7.2,0,0,0,1,0,,,,,,,,,,,,,,,,,,,,
6623,0,,,248,249,237,232,,-0.03,-0.05,1.83,-0,-0,-0,0.06,,61,6710,4,28,44,1.498,0.0,662,4.85,12.9,0.0,1,31.9,2.28,7.2,0,0,0,1,0,,,,,,,,,,,,,,,,,,,,
6643,0,4,6,248,249,237,232,5,0.01,-0.05,1.99,-0,-2,-2,0.05,1,61,6737,4,28,43,1.498,0.0,662,4.86,13.1,0.0,1,31.7,2.28,7.2,0,0,0,1,0,0,250,250,0,0.0,0.0,0.0,0.0,0,0,0.0,0,0.0,-1,0.0,0.0,0.0,0,0.0,0.1107
6663,0,,,248,249,237,232,,-0.04,-0.04,1.84,0,-0,0,0.06,,61,6751,4,27,43,1.498,0.0,660,4.83,12.9,0.0,1,31.7,2.3,7.2,0,0,0,1,0,,,,,,,,,,,,,,,,,,,,
6683,0,,,248,250,236,232,,0.01,-0.04,1.9,-0,-2,-2,0.04,,61,6766,4,27,43,1.498,0.0,656,4.86,13.1,0.0,1,31.7,2.31,7.2,0,0,0,1,0,,,,,,,,,,,,,,,,,,,,
6703,0,,,248,252,237,232,,-0.04,-0.03,1.75,0,0,0,0.05,,61,6766,4,27,42,1.498,0.0,656,4.85,12.9,0.0,1,31.4,2.31,7.2,0,0,0,1,0,,,,,,,,,,,,,,,,,,,,
6723,0,,,248,249,237,232,,0.02,-0.05,1.93,-0,-3,-3,0.05,,61,6744,4,27,42,1.498,0.0,657,4.86,13.1,0.0,1,31.4,2.31,7.2,0,0,0,1,0,,,,,,,,,,,,,,,,,,,,
6743,0,3,5,248,252,237,232,5,-0.03,-0.04,1.78,0,1,0,0.05,1,61,6751,9,27,42,1.498,0.0,658,4.82,12.9,0.0,1,31.4,2.31,7.2,0,0,0,1,0,0,250,250,0,0.0,0.0,0.0,0.0,0,0,0.0,0,0.0,-1,0.0,,0.0,0,0.0,0.1124
6763,0,,,248,249,237,232,,0.02,-0.04,1.95,0,-2,-2,0.04,,61,6737,21,27,46,1.498,0.0,657,4.86,13.1,0.0,1,32.5,2.29,7.2,0,0,0,1,0,,,,,,,,,,,,,,,,,,,,
6783,0,,,248,250,237,232,,-0.01,-0.02,1.8,0,-1,-1,0.02,,61,6888,34,27,57,1.498,0.0,658,4.86,12.9,0.0,1,36.4,2.37,7.1,0,0,0,1,0,,,,,,,,,,,,,,,,,,,,
6803,0,,,248,250,237,232,,-0.01,-0.02,1.66,0,-1,-0,0.02,,61,6959,42,27,70,1.498,0.0,663,4.83,12.9,0.0,1,41.0,2.44,7.1,0,0,0,1,0,,,,,,,,,,,,,,,,,,,,
6823,0,,,248,249,237,232,,0.03,0.01,1.84,0,-2,-2,0.03,,61,6898,46,27,80,1.498,0.0,665,4.83,13.1,0.0,1,43.7,2.83,7.1,0,0,0,1,0,,,,,,,,,,,,,,,,,,,,
6843,0,3,5,248,250,236,232,5,-0.03,0.02,1.7,0,1,1,0.03,1,61,6923,47,27,88,1.498,0.0,658,4.84,12.9,0.0,1,48.0,4.84,7.1,0,0,0,1,0,0,250,250,0,0.0,0.0,0.0,0.0,0,0,0.0,0,0.0,-1,0.0,0.0,0.0,0,0.0,0.114
6863,0,,,248,249,236,232,,0.02,0.02,1.88,0,-2,-2,0.03,,61,6936,47,27,92,1.498,0.0,660,4.83,13.1,0.0,1,49.3,5.07,16.3,0,0,0,1,0,,,,,,,,,,,,,,,,,,,,
6883,0,,,248,249,237,232,,0.01,-0.01,1.73,0,-0,-0,0.01,,61,6939,47,27,94,1.498,0.0,659,4.82,13.1,0.0,1,49.3,3.38,16.3,0,0,0,1,0,,,,,,,,,,,,,,,,,,,,
6903,0,,,248,249,237,232,,-0.02,0.03,1.6,0,0,0,0.04,,61,6954,47,27,95,1.498,0.0,659,4.84,13.0,0.0,1,49.5,3.42,16.3,0,0,0,1,0,,,,,,,,,,,,,,,,,,,,
6923,0,,,248,249,237,232,,-0.0,0.01,1.64,0,-1,-0,0.01,,61,7017,40,27,94,1.498,0.0,658,4.82,13.1,0.0,1,49.8,5.05,16.3,0,0,0,1,0,,,,,,,,,,,,,,,,,,,,
6943,0,4,5,248,251,237,232,5,0.02,0.03,1.82,0,-2,-1,0.03,1,61,7113,28,27,92,1.498,0.0,663,4.83,13.1,0.0,1,48.5,4.38,16.3,0,0,0,1,0,0,250,250,0,0.0,0.0,0.0,0.0,0,0,0.0,0,0.0,-1,0.0,,0.0,0,0.0,0.1157
6963,0,,,248,251,237,232,,-0.02,0.03,1.68,0,1,2,0.04,,61,7145,15,27,87,1.498,0.0,665,4.82,12.9,0.0,1,46.3,4.22,13.9,0,0,0,1,0,,,,,,,,,,,,,,,,,,,,
6983,0,,,248,249,237,232,,-0.05,0.05,1.55,0,1,2,0.07,,61,7281,7,27,81,1.498,0.0,669,4.82,13.0,0.0,1,42.5,4.15,13.9,0,0,0,1,0,,,,,,,,,,,,,,,,,,,,
7003,0,,,248,249,237,232,,-0.05,0.09,1.5,0,1,2,0.1,,61,7437,4,27,73,1.498,0.0,670,4.85,12.9,0.0,1,40.6,2.72,13.9,0,0,0,1,0,,,,,,,,,,,,,,,,,,,,
7023,0,,,248,249,237,232,,-0.06,0.1,1.38,0,3,4,0.12,,61,7805,4,27,67,1.498,0.0,672,4.83,12.9,0.0,1,38.6,2.28,13.9,0,0,0,1,0,,,,,,,,,,,,,,,,,,,,
7043,0,3,5,248,251,236,232,5,-0.06,0.09,1.43,0,2,3,0.11,1,61,8227,4,27,62,1.498,0.0,682,4.83,12.8,0.0,1,40.8,2.95,13.9,0,0,0,1,0,0,250,250,0,0.0,0.0,0.0,0.0,0,0,0.0,0,0.0,-1,0.0,0.0,0.0,0,0.0,0.1174
7063,0,,,248,251,237,232,,-0.04,0.12,1.32,0,2,3,0.13,,61,8656,4,27,55,1.498,0.0,683,4.84,13.0,0.0,1,39.8,3.25,13.9,0,0,0,1,0,,,,,,,,,,,,,,,,,,,,
7083,0,,,248,249,237,232,,-0.01,0.14,1.22,0,3,5,0.14,,61,9132,4,27,50,1.498,0.0,693,4.81,12.8,0.0,1,38.4,2.03,13.2,0,0,0,1,0,,,,,,,,,,,,,,,,,,,,
7103,0,,,248,250,237,232,,-0.02,0.07,1.3,0,2,4,0.07,,61,9398,5,27,46,1.498,0.0,703,4.82,12.9,0.0,1,36.9,3.01,13.2,0,0,0,1,0,,,,,,,,,,,,,,,,,,,,
7123,0,,,248,249,237,232,,-0.02,0.07,1.42,-0,1,0,0.08,,61,9561,5,27,42,1.498,0.0,707,4.82,12.9,0.0,1,34.2,2.88,13.2,0,0,0,1,0,,,,,,,,,,,,,,,,,,,,
7143,0,3,5,248,249,237,232,6,-0.02,0.22,1.31,0,1,2,0.22,1,61,9479,7,27,39,1.498,0.0,714,4.82,12.9,0.0,1,32.0,2.8,13.2,0,0,0,1,0,0,250,250,0,0.0,0.0,0.0,0.0,0,0,0.0,0,0.0,-1,0.0,,0.0,0,0.0,0.119
7163,0,,,248,251,237,232,,0.0,0.22,1.27,0,1,4,0.22,,61,9209,9,27,38,1.498,0.0,703,4.82,12.9,0.0,1,31.7,2.75,13.2,0,0,0,1,0,,,,,,,,,,,,,,,,,,,,
7183,0,,,248,249,237,232,,0.01,0.25,1.17,0,2,3,0.25,,61,9036,12,27,39,1.498,0.0,699,4.85,12.9,0.0,1,32.0,2.77,11.7,0,0,0,1,0,,,,,,,,,,,,,,,,,,,,
7203,0,,,248,250,237,232,,0.02,0.24,1.16,0,2,2,0.24,,61,8920,17,27,42,1.498,0.0,698,4.82,12.9,0.0,1,33.8,3.19,11.7,0,0,0,1,0,,,,,,,,,,,,,,,,,,,,
7223,0,,,248,249,237,232,,0.05,0.31,1.07,0,2,2,0.31,,61,8954,21,27,46,1.498,0.0,700,4.81,12.8,0.0,1,36.3,1.82,11.7,0,0,0,1,0,,,,,,,,,,,,,,,,,,,,
7243,0,3,5,248,252,237,232,5,0.05,0.28,1.01,0,2,2,0.29,1,61,9115,25,27,51,1.498,0.0,705,4.83,12.9,0.0,1,38.8,3.61,11.7,0,0,0,1,0,0,250,250,0,0.0,0.0,0.0,0.0,0,0,0.0,0,0.0,-1,0.0,0.0,0.0,0,0.0,0.1207
7263,0,,,248,249,236,232,,0.05,0.22,0.96,0,2,-2,0.22,,61,9360,28,27,58,1.498,0.0,706,4.81,13.0,0.0,1,40.4,3.94,17.0,0,0,0,1,0,,,,,,,,,,,,,,,,,,,,
7283,0,,,248,249,237,232,,0.04,0.27,0.89,-0,3,-2,0.27,,61,9679,30,27,62,1.498,0.0,704,4.83,12.9,0.0,1,41.3,2.57,17.0,0,0,0,1,0,,,,,,,,,,,,,,,,,,,,
7303,0,,,248,249,237,232,,0.05,0.24,1.03,-0,1,-3,0.25,,61,10059,31,27,66,1.498,0.0,713,4.81,12.8,0.0,1,40.3,4.79,17.0,0,0,0,1,0,,,,,,,,,,,,,,,,,,,,
7323,0,,,248,251,236,232,,0.04,0.07,0.95,-0,0,-4,0.08,,61,10393,31,27,67,1.498,0.0,715,4.83,12.8,0.0,1,42.1,3.14,17.0,0,0,0,1,0,,,,,,,,,,,,,,,,,,,,
7343,0,3,4,248,249,237,232,5,0.06,-0.05,1.19,-0,1,-4,0.08,1,61,10875,28,27,67,1.498,0.0,719,4.82,12.8,0.0,1,43.2,4.96,17.0,0,0,0,1,0,0,250,250,0,0.0,0.0,0.0,0.0,0,0,0.0,0,0.0,-1,0.0,,0.0,0,0.0,0.1224
7363,0,,,248,249,237,232,,-0.0,-0.09,1.1,-0,2,-3,0.09,,61,11343,19,27,64,1.498,0.0,729,4.79,12.9,0.0,1,43.8,4.89,25.7,0,0,0,1,0,,,,,,,,,,,,,,,,,,,,
7383,0,,,248,249,237,232,,0.06,-0.1,1.01,-0,-1,-3,0.11,,61,11718,10,27,58,1.498,0.0,731,4.82,12.8,0.0,1,42.2,3.01,25.7,0,0,0,1,0,,,,,,,,,,,,,,,,,,,,
7403,0,,,248,249,237,232,,0.17,-0.11,0.96,-0,-5,-4,0.2,,61,11829,4,27,50,1.498,0.0,738,4.82,12.9,0.0,1,38.8,2.14,25.7,0,0,0,1,0,,,,,,,,,,,,,,,,,,,,
7423,0,,,248,252,236,232,,0.19,-0.06,1.06,-0,-7,-5,0.2,,61,11645,4,27,45,1.498,0.0,732,4.82,12.8,0.0,1,36.5,2.82,25.7,0,0,0,1,0,,,,,,,,,,,,,,,,,,,,
7443,0,3,2,248,252,237,232,5,0.12,0.02,1.29,0,-6,-6,0.12,1,61,11391,4,27,42,1.498,0.0,730,4.84,12.9,0.0,1,34.2,2.67,25.7,0,0,0,1,0,0,250,250,0,0.0,0.0,0.0,0.0,0,0,0.0,0,0.0,-1,0.0,0.0,0.0,0,0.0,0.124
7463,0,,,248,250,237,232,,0.14,-0.09,1.5,-0,-4,-5,0.16,,61,11107,4,27,40,1.498,0.0,725,4.84,12.9,0.0,1,32.7,2.67,25.7,0,0,0,1,0,,,,,,,,,,,,,,,,,,,,
7483,0,,,248,249,237,232,,0.17,-0.12,1.38,-0,-3,-3,0.21,,61,10844,4,27,38,1.498,0.0,728,4.84,13.0,0.0,1,31.7,2.6,13.7,0,0,0,1,0,,,,,,,,,,,,,,,,,,,,
7503,0,,,248,250,236,232,,0.16,0.05,1.46,-0,-5,-2,0.16,,61,10593,4,27,36,1.498,0.0,713,4.82,12.9,0.0,1,31.1,2.55,13.7,0,0,0,1,0,,,,,,,,,,,,,,,,,,,,
7523,0,,,248,249,237,232,,0.15,0.2,1.34,-0,-2,-0,0.25,,61,10324,4,27,35,1.498,0.0,714,4.82,12.9,0.0,1,30.8,2.52,13.7,0,0,0,1,0,,,,,,,,,,,,,,,,,,,,
7543,0,3,3,248,249,237,232,5,0.15,0.14,1.46,-0,-3,-2,0.21,1,61,10064,4,27,34,1.498,0.0,710,4.83,13.0,0.0,1,30.5,2.48,13.7,0,0,0,1,0,0,250,250,0,0.0,0.0,0.0,0.0,0,0,0.0,0,0.0,-1,0.0,,0.0,0,0.0,0.1257
7563,0,,,248,249,237,232,,0.11,0.09,1.4,-0,-2,-2,0.14,,61,9827,4,27,33,1.498,0.0,713,4.85,13.0,0.0,1,30.2,2.52,13.7,0,0,0,1,0,,,,,,,,,,,,,,,,,,,,
7583,0,,,248,249,237,232,,0.13,0.07,1.29,-0,-2,-3,0.15,,61,9546,4,27,32,1.498,0.0,708,4.84,13.0,0.0,1,30.0,2.58,11.4,0,0,0,1,0,,,,,,,,,,,,,,,,,,,,
7603,0,,,248,250,237,232,,0.12,0.12,1.19,-0,-2,-3,0.17,,61,9314,4,27,31,1.498,0.0,706,4.83,13.0,0.0,1,29.5,2.53,11.4,0,0,0,1,0,,,,,,,,,,,,,,,,,,,,
7623,0,,,248,249,236,232,,0.15,0.22,1.1,-0,-1,1,0.27,,61,9075,4,27,31,1.498,0.0,694,4.85,13.0,0.0,1,29.5,2.47,11.4,0,0,0,1,0,,,,,,,,,,,,,,,,,,,,
7643,0,2,1,248,250,237,232,5,0.16,0.27,1.01,-0,-0,4,0.32,1,61,8831,4,27,31,1.498,0.0,695,4.83,13.0,0.0,1,29.5,2.47,11.4,0,0,0,1,0,0,250,250,0,0.0,0.0,0.0,0.0,0,0,0.0,0,0.0,-1,0.0,0.0,0.0,0,0.0,0.1274
7663,0,,,248,249,236,232,,0.15,0.27,0.94,-0,-1,3,0.31,,61,8593,5,27,31,1.498,0.0,691,4.85,13.1,0.0,1,29.5,2.47,9.8,0,0,0,1,0,,,,,,,,,,,,,,,,,,,,
7683,0,,,248,249,237,232,,0.15,0.23,1.07,-0,0,2,0.28,,61,8351,5,27,31,1.498,0.0,690,4.83,12.9,0.0,1,29.3,2.32,9.8,0,0,0,1,0,,,,,,,,,,,,,,,,,,,,
7703,0,,,248,250,236,232,,0.12,0.22,1.0,-0,-0,2,0.25,,61,8145,5,27,32,1.498,0.0,689,4.85,13.1,0.0,1,29.2,2.1,9.8,0,0,0,1,0,,,,,,,,,,,,,,,,,,,,
7723,0,,,248,249,237,232,,0.1,0.29,0.96,-0,1,3,0.31,,61,7894,5,27,32,1.498,0.0,676,4.85,12.9,0.0,1,29.0,0.81,9.8,0,0,0,1,0,,,,,,,,,,,,,,,,,,,,
7743,0,2,2,248,250,237,232,4,0.11,0.3,1.04,-0,2,4,0.32,1,61,7678,5,26,33,1.498,0.0,677,4.86,12.9,0.0,1,29.2,2.01,9.8,0,0,0,1,0,0,250,250,0,0.0,0.0,0.0,0.0,0,0,0.0,0,0.0,-1,0.0,,0.0,0,0.0,0.129
7763,0,,,248,250,237,232,,0.11,0.23,1.03,-0,4,6,0.26,,61,7461,5,27,33,1.498,0.0,671,4.85,12.9,0.0,1,29.2,2.01,9.8,0,0,0,1,0,,,,,,,,,,,,,,,,,,,,
7783,0,,,248,250,237,232,,0.07,0.23,0.95,-0,5,6,0.24,,61,7239,5,26,34,1.498,0.0,663,4.84,12.8,0.0,1,29.5,0.91,6.9,0,0,0,1,0,,,,,,,,,,,,,,,,,,,,
