"Interval"|"ms"|0|0|1,"Utc"|"ms"|0|0|1,"Brake_F"|"Bar"|0|2000|10,"Brake_R"|"Bar"|0|2000|10,"Height_RF"|"mm"|0|255|50,"Height_LF"|"mm"|0|255|50,"Height_LR"|"mm"|0|80|50,"Height_RR"|"mm"|0|255|50,"Steering"|"deg"|-100|100|10,"AccelX"|"G"|-3.0|3.0|50,"AccelY"|"G"|-3.0|3.0|50,"AccelZ"|"G"|-3.0|3.0|50,"Yaw"|"Deg/Sec"|-120|120|50,"Pitch"|"Deg/Sec"|-120|120|50,"Roll"|"Deg/Sec"|-120|120|50,"Gsum"|"G"|0.0|3.0|50,"Log_Button"|""|0.0|10.0|10,"WaterTemp"|"C"|0|150|50,"RPM"|"tr/min"|0|14000|50,"TPS"|"%"|0|100|50,"AirTemp"|"C"|0|150|50,"MAP"|"KPa"|0|100|50,"Lambda"|""|0.5|1.5|50,"SpeedDTA"|"kph"|0.0|250.0|50,"OilPress"|"KPa"|0|1500|50,"FuelPressur"|"Bar"|0.0|10.0|50,"Batterie"|"V"|0.0|20.0|50,"ConsoKm"|"L/100km"|0.0|200.0|50,"Gear"|""|0|6|50,"AdvIgnition"|"Deg"|-20.0|70.0|50,"Injection"|"ms"|0.0|10.0|50,"ConsoHr"|"L/Hr"|0.0|10000.0|50,"LC_But_Pres"|""|0|1|50,"LC_Active"|""|0|1|50,"TractionOn"|""|0|1|50,"TractionWet"|""|0|1|50,"FanOn"|""|0|1|50,"RD_Speed"|"km/h"|-30|250|10,"RUD_Speed"|"km/h"|-30|250|10,"LD_Speed"|"km/h"|-30|250|10,"LUD_Speed"|"km/h"|-30|250|10,"Latitude"|"Degrees"|-180.0|180.0|10,"Longitude"|"Degrees"|-180.0|180.0|10,"Speed"|"kph"|0.0|150.0|10,"Altitude"|"m"|0.0|4000.0|10,"GPSSats"|""|0|20|10,"GPSQual"|""|0|5|10,"GPSDOP"|""|0.0|20.0|10,"LapCount"|""|0|0|10,"LapTime"|"Min"|0.0|0.0|10,"Sector"|""|0|0|10,"SectorTime"|"Min"|0.0|0.0|10,"PredTime"|"Min"|0.0|0.0|5,"ElapsedTime"|"Min"|0.0|0.0|10,"CurrentLap"|""|0|0|10,"Distance"|"km"|0.0|0.0|10,"SessionTime"|"Min"|0.0|0.0|10
64,0,,,246,251,236,233,,-0.07,-0.0,0.98,-0,-0,-0,0.07,,0,0,0,0,0,0.0,0.0,0,0.0,0.0,0.0,0,0.0,0.0,0.0,0,0,0,0,0,,,,,,,,,,,,,,,,,,,,
84,0,,,246,251,236,234,,-0.07,-0.01,0.98,-0,-0,-0,0.07,,0,0,0,0,0,0.0,0.0,0,0.0,0.0,0.0,0,0.0,0.0,0.0,0,0,0,0,0,,,,,,,,,,,,,,,,,,,,
104,0,,,247,251,236,234,,-0.07,-0.0,0.98,-0,-0,-0,0.07,,0,0,0,0,0,0.0,0.0,0,0.0,0.0,0.0,0,0.0,0.0,0.0,0,0,0,0,0,,,,,,,,,,,,,,,,,,,,
124,0,,,246,251,236,234,,-0.06,-0.0,0.98,-0,-0,-0,0.06,,0,0,0,0,0,0.0,0.0,0,0.0,0.0,0.0,0,0.0,0.0,0.0,0,0,0,0,0,,,,,,,,,,,,,,,,,,,,
144,0,6,4,246,251,236,234,7,-0.07,-0.0,0.97,-0,-0,-0,0.07,1,0,0,0,0,0,0.0,0.0,0,0.0,0.0,0.0,0,0.0,0.0,0.0,0,0,0,0,0,0,0,0,0,0.0,0.0,0.0,0.0,0,0,0.0,0,0.0,-1,0.0,,0.0,0,0.0,0.0024
164,0,,,246,251,236,234,,-0.07,-0.0,0.97,-0,-0,-0,0.07,,0,0,0,0,0,0.0,0.0,0,0.0,0.0,0.0,0,0.0,0.0,0.0,0,0,0,0,0,,,,,,,,,,,,,,,,,,,,
184,0,,,246,251,236,234,,-0.07,-0.0,0.97,-0,-0,-0,0.07,,0,0,0,0,0,0.0,0.0,0,0.0,0.0,0.0,0,0.0,0.0,0.0,0,0,0,0,0,,,,,,,,,,,,,,,,,,,,
204,0,,,246,251,236,233,,-0.07,-0.0,0.97,-0,-0,-0,0.07,,0,0,0,0,0,0.0,0.0,0,0.0,0.0,0.0,0,0.0,0.0,0.0,0,0,0,0,0,,,,,,,,,,,,,,,,,,,,
224,0,,,246,251,236,233,,-0.07,-0.0,0.98,-0,-0,-0,0.07,,0,0,0,0,0,0.0,0.0,0,0.0,0.0,0.0,0,0.0,0.0,0.0,0,0,0,0,0,,,,,,,,,,,,,,,,,,,,
244,0,6,5,246,251,236,233,7,-0.07,-0.0,0.98,-0,-0,-0,0.07,1,0,0,0,0,0,0.0,0.0,0,0.0,0.0,0.0,0,0.0,0.0,0.0,0,0,0,0,0,0,0,0,0,0.0,0.0,0.0,0.0,0,0,0.0,0,0.0,-1,0.0,0.0,0.0,0,0.0,0.0041
264,0,,,246,251,236,233,,-0.07,-0.0,0.98,-0,-0,-0,0.07,,0,0,0,0,0,0.0,0.0,0,0.0,0.0,0.0,0,0.0,0.0,0.0,0,0,0,0,0,,,,,,,,,,,,,,,,,,,,
284,0,,,246,251,236,233,,-0.07,-0.0,0.98,-0,-0,-0,0.07,,0,0,0,0,0,0.0,0.0,0,0.0,0.0,0.0,0,0.0,0.0,0.0,0,0,0,0,0,,,,,,,,,,,,,,,,,,,,
304,0,,,246,251,236,233,,-0.07,-0.0,0.98,-0,-0,-0,0.07,,0,0,0,0,0,0.0,0.0,0,0.0,0.0,0.0,0,0.0,0.0,0.0,0,0,0,0,0,,,,,,,,,,,,,,,,,,,,
324,0,,,246,251,236,234,,-0.07,-0.0,0.98,-0,-0,-0,0.07,,0,0,0,0,0,0.0,0.0,0,0.0,0.0,0.0,0,0.0,0.0,0.0,0,0,0,0,0,,,,,,,,,,,,,,,,,,,,
344,0,5,5,246,251,236,234,7,-0.07,-0.0,0.98,-0,-0,-0,0.07,1,0,0,0,0,0,0.0,0.0,0,0.0,0.0,0.0,0,0.0,0.0,0.0,0,0,0,0,0,0,0,0,0,0.0,0.0,0.0,0.0,0,0,0.0,0,0.0,-1,0.0,,0.0,0,0.0,0.0057
364,0,,,246,250,236,234,,-0.07,-0.0,0.98,-0,-0,-0,0.07,,0,0,0,0,0,0.0,0.0,0,0.0,0.0,0.0,0,0.0,0.0,0.0,0,0,0,0,0,,,,,,,,,,,,,,,,,,,,
384,0,,,246,251,236,234,,-0.07,-0.0,0.98,-0,-0,-0,0.07,,0,0,0,0,0,0.0,0.0,0,0.0,0.0,0.0,0,0.0,0.0,0.0,0,0,0,0,0,,,,,,,,,,,,,,,,,,,,
404,0,,,246,251,236,233,,-0.07,-0.0,0.98,-0,-0,-0,0.07,,0,0,0,0,0,0.0,0.0,0,0.0,0.0,0.0,0,0.0,0.0,0.0,0,0,0,0,0,,,,,,,,,,,,,,,,,,,,
424,0,,,246,251,236,233,,-0.07,-0.0,0.98,-0,-0,-0,0.07,,0,0,0,0,0,0.0,0.0,0,0.0,0.0,0.0,0,0.0,0.0,0.0,0,0,0,0,0,,,,,,,,,,,,,,,,,,,,
444,0,4,3,246,251,236,234,7,-0.07,-0.0,0.98,-0,-0,-0,0.07,1,0,0,0,0,0,0.0,0.0,0,0.0,0.0,0.0,0,0.0,0.0,0.0,0,0,0,0,0,0,0,0,0,0.0,0.0,0.0,0.0,0,0,0.0,0,0.0,-1,0.0,0.0,0.0,0,0.0,0.0074
464,0,,,246,251,236,233,,-0.07,-0.0,0.98,-0,-0,-0,0.07,,0,0,0,0,0,0.0,0.0,0,0.0,0.0,0.0,0,0.0,0.0,0.0,0,0,0,0,0,,,,,,,,,,,,,,,,,,,,
484,0,,,246,251,236,233,,-0.07,-0.0,0.98,-0,-0,-0,0.07,,0,0,0,0,0,0.0,0.0,0,0.0,0.0,0.0,0,0.0,0.0,0.0,0,0,0,0,0,,,,,,,,,,,,,,,,,,,,
504,0,,,246,251,236,233,,-0.07,-0.0,0.97,-0,-0,-0,0.07,,0,0,0,0,0,0.0,0.0,0,0.0,0.0,0.0,0,0.0,0.0,0.0,0,0,0,0,0,,,,,,,,,,,,,,,,,,,,
524,0,,,246,251,236,234,,-0.07,-0.0,0.97,-0,-0,-0,0.07,,0,0,0,0,0,0.0,0.0,0,0.0,0.0,0.0,0,0.0,0.0,0.0,0,0,0,0,0,,,,,,,,,,,,,,,,,,,,
544,0,5,4,246,251,236,234,7,-0.07,-0.0,0.97,-0,-0,-0,0.07,1,0,0,0,0,0,0.0,0.0,0,0.0,0.0,0.0,0,0.0,0.0,0.0,0,0,0,0,0,0,0,0,0,0.0,0.0,0.0,0.0,0,0,0.0,0,0.0,-1,0.0,,0.0,0,0.0,0.0091
564,0,,,246,251,236,234,,-0.07,-0.0,0.97,-0,-0,-0,0.07,,0,0,0,0,0,0.0,0.0,0,0.0,0.0,0.0,0,0.0,0.0,0.0,0,0,0,0,0,,,,,,,,,,,,,,,,,,,,
584,0,,,246,251,236,234,,-0.07,-0.0,0.97,-0,-0,-0,0.07,,0,0,0,0,0,0.0,0.0,0,0.0,0.0,0.0,0,0.0,0.0,0.0,0,0,0,0,0,,,,,,,,,,,,,,,,,,,,
604,0,,,246,251,236,234,,-0.07,-0.0,0.97,-0,-0,-0,0.07,,0,0,0,0,0,0.0,0.0,0,0.0,0.0,0.0,0,0.0,0.0,0.0,0,0,0,0,0,,,,,,,,,,,,,,,,,,,,
624,0,,,246,251,236,233,,-0.07,-0.0,0.97,-0,-0,-0,0.07,,0,0,0,0,0,0.0,0.0,0,0.0,0.0,0.0,0,0.0,0.0,0.0,0,0,0,0,0,,,,,,,,,,,,,,,,,,,,
644,0,6,3,246,251,236,233,7,-0.07,-0.0,0.98,-0,-0,-0,0.07,1,0,0,0,0,0,0.0,0.0,0,0.0,0.0,0.0,0,0.0,0.0,0.0,0,0,0,0,0,0,0,0,0,0.0,0.0,0.0,0.0,0,0,0.0,0,0.0,-1,0.0,0.0,0.0,0,0.0,0.0107
664,0,,,246,251,236,233,,-0.07,-0.0,0.97,-0,-0,-0,0.07,,0,0,0,0,0,0.0,0.0,0,0.0,0.0,0.0,0,0.0,0.0,0.0,0,0,0,0,0,,,,,,,,,,,,,,,,,,,,
684,0,,,246,251,236,233,,-0.07,-0.0,0.97,-0,-0,-0,0.07,,0,0,0,0,0,0.0,0.0,0,0.0,0.0,0.0,0,0.0,0.0,0.0,0,0,0,0,0,,,,,,,,,,,,,,,,,,,,
704,0,,,246,251,236,233,,-0.07,-0.0,0.97,-0,-0,-0,0.07,,0,0,0,0,0,0.0,0.0,0,0.0,0.0,0.0,0,0.0,0.0,0.0,0,0,0,0,0,,,,,,,,,,,,,,,,,,,,
724,0,,,246,251,236,234,,-0.07,-0.0,0.98,-0,-0,-0,0.07,,0,0,0,0,0,0.0,0.0,0,0.0,0.0,0.0,0,0.0,0.0,0.0,0,0,0,0,0,,,,,,,,,,,,,,,,,,,,
744,0,5,4,246,251,236,234,7,-0.07,-0.0,0.97,-0,-0,-0,0.07,1,0,0,0,0,0,0.0,0.0,0,0.0,0.0,0.0,0,0.0,0.0,0.0,0,0,0,0,0,0,0,0,0,0.0,0.0,0.0,0.0,0,0,0.0,0,0.0,-1,0.0,,0.0,0,0.0,0.0124
764,0,,,246,251,236,234,,-0.07,-0.0,0.98,-0,-0,-0,0.07,,0,0,0,0,0,0.0,0.0,0,0.0,0.0,0.0,0,0.0,0.0,0.0,0,0,0,0,0,,,,,,,,,,,,,,,,,,,,
784,0,,,246,250,236,234,,-0.07,-0.0,0.98,-0,-0,-0,0.07,,0,0,0,0,0,0.0,0.0,0,0.0,0.0,0.0,0,0.0,0.0,0.0,0,0,0,0,0,,,,,,,,,,,,,,,,,,,,
804,0,,,246,251,236,233,,-0.07,-0.0,0.98,-0,-0,-0,0.07,,0,0,0,0,0,0.0,0.0,0,0.0,0.0,0.0,0,0.0,0.0,0.0,0,0,0,0,0,,,,,,,,,,,,,,,,,,,,
824,0,,,246,251,236,234,,-0.07,-0.0,0.97,-0,-0,-0,0.07,,0,0,0,0,0,0.0,0.0,0,0.0,0.0,0.0,0,0.0,0.0,0.0,0,0,0,0,0,,,,,,,,,,,,,,,,,,,,
844,0,5,3,246,251,236,233,7,-0.07,-0.0,0.97,-0,-0,-0,0.07,1,0,0,0,0,0,0.0,0.0,0,0.0,0.0,0.0,0,0.0,0.0,0.0,0,0,0,0,0,0,0,0,0,0.0,0.0,0.0,0.0,0,0,0.0,0,0.0,-1,0.0,0.0,0.0,0,0.0,0.0141
864,0,,,246,250,236,233,,-0.07,-0.0,0.97,-0,-0,-0,0.07,,0,0,0,0,0,0.0,0.0,0,0.0,0.0,0.0,0,0.0,0.0,0.0,0,0,0,0,0,,,,,,,,,,,,,,,,,,,,
884,0,,,246,251,237,233,,-0.07,-0.0,0.97,-0,-0,-0,0.07,,0,0,0,0,0,0.0,0.0,0,0.0,0.0,0.0,0,0.0,0.0,0.0,0,0,0,0,0,,,,,,,,,,,,,,,,,,,,
904,0,,,246,251,236,234,,-0.07,-0.0,0.97,-0,-0,-0,0.07,,0,0,0,0,0,0.0,0.0,0,0.0,0.0,0.0,0,0.0,0.0,0.0,0,0,0,0,0,,,,,,,,,,,,,,,,,,,,
924,0,,,246,251,236,234,,-0.07,-0.0,0.97,-0,-0,-0,0.07,,0,0,0,0,0,0.0,0.0,0,0.0,0.0,0.0,0,0.0,0.0,0.0,0,0,0,0,0,,,,,,,,,,,,,,,,,,,,
944,0,5,3,246,251,236,234,7,-0.07,-0.0,0.97,-0,-0,-0,0.07,1,0,0,0,0,0,0.0,0.0,0,0.0,0.0,0.0,0,0.0,0.0,0.0,0,0,0,0,0,0,0,0,0,0.0,0.0,0.0,0.0,0,0,0.0,0,0.0,-1,0.0,,0.0,0,0.0,0.0157
964,0,,,246,250,236,234,,-0.07,-0.0,0.97,-0,-0,-0,0.07,,0,0,0,0,0,0.0,0.0,0,0.0,0.0,0.0,0,0.0,0.0,0.0,0,0,0,0,0,,,,,,,,,,,,,,,,,,,,
984,0,,,246,251,236,233,,-0.07,-0.0,0.97,-0,-0,-0,0.07,,0,0,0,0,0,0.0,0.0,0,0.0,0.0,0.0,0,0.0,0.0,0.0,0,0,0,0,0,,,,,,,,,,,,,,,,,,,,
1004,0,,,246,251,236,233,,-0.07,-0.0,0.97,-0,-0,-0,0.07,,0,0,0,0,0,0.0,0.0,0,0.0,0.0,0.0,0,0.0,0.0,0.0,0,0,0,0,0,,,,,,,,,,,,,,,,,,,,
1024,0,,,246,251,236,234,,-0.07,-0.0,0.98,-0,-0,-0,0.07,,0,0,0,0,0,0.0,0.0,0,0.0,0.0,0.0,0,0.0,0.0,0.0,0,0,0,0,0,,,,,,,,,,,,,,,,,,,,
1044,0,5,4,246,250,236,234,7,-0.07,-0.0,0.98,-0,-0,-0,0.07,1,0,0,0,0,0,0.0,0.0,0,0.0,0.0,0.0,0,0.0,0.0,0.0,0,0,0,0,0,0,0,0,0,0.0,0.0,0.0,0.0,0,0,0.0,0,0.0,-1,0.0,0.0,0.0,0,0.0,0.0174
1064,0,,,246,251,236,233,,-0.07,-0.0,0.98,-0,-0,-0,0.07,,0,0,0,0,0,0.0,0.0,0,0.0,0.0,0.0,0,0.0,0.0,0.0,0,0,0,0,0,,,,,,,,,,,,,,,,,,,,
1084,0,,,246,251,236,233,,-0.07,-0.0,0.98,-0,-0,-0,0.07,,0,0,0,0,0,0.0,0.0,0,0.0,0.0,0.0,0,0.0,0.0,0.0,0,0,0,0,0,,,,,,,,,,,,,,,,,,,,
1104,0,,,246,251,236,233,,-0.07,-0.0,0.97,-0,-0,-0,0.07,,0,0,0,0,0,0.0,0.0,0,0.0,0.0,0.0,0,0.0,0.0,0.0,0,0,0,0,0,,,,,,,,,,,,,,,,,,,,
1124,0,,,246,251,236,234,,-0.07,-0.0,0.97,-0,-0,-0,0.07,,0,0,0,0,0,0.0,0.0,0,0.0,0.0,0.0,0,0.0,0.0,0.0,0,0,0,0,0,,,,,,,,,,,,,,,,,,,,
1144,0,5,3,246,251,236,233,7,-0.07,-0.0,0.97,-0,-0,-0,0.07,1,0,0,0,0,0,0.0,0.0,0,0.0,0.0,0.0,0,0.0,0.0,0.0,0,0,0,0,0,0,0,0,0,0.0,0.0,0.0,0.0,0,0,0.0,0,0.0,-1,0.0,,0.0,0,0.0,0.0191
1164,0,,,246,251,236,234,,-0.07,-0.0,0.97,-0,-0,-0,0.07,,0,0,0,0,0,0.0,0.0,0,0.0,0.0,0.0,0,0.0,0.0,0.0,0,0,0,0,0,,,,,,,,,,,,,,,,,,,,
1184,0,,,246,251,236,233,,-0.07,-0.0,0.97,-0,-0,-0,0.07,,0,0,0,0,0,0.0,0.0,0,0.0,0.0,0.0,0,0.0,0.0,0.0,0,0,0,0,0,,,,,,,,,,,,,,,,,,,,
1204,0,,,246,250,236,234,,-0.07,-0.0,0.97,-0,-0,-0,0.07,,0,0,0,0,0,0.0,0.0,0,0.0,0.0,0.0,0,0.0,0.0,0.0,0,0,0,0,0,,,,,,,,,,,,,,,,,,,,
1224,0,,,246,251,237,233,,-0.07,-0.0,0.97,-0,-0,-0,0.07,,0,0,0,0,0,0.0,0.0,0,0.0,0.0,0.0,0,0.0,0.0,0.0,0,0,0,0,0,,,,,,,,,,,,,,,,,,,,
1244,0,5,4,246,250,236,233,7,-0.07,-0.0,0.97,-0,-0,-0,0.07,1,0,0,0,0,0,0.0,0.0,0,0.0,0.0,0.0,0,0.0,0.0,0.0,0,0,0,0,0,0,0,0,0,0.0,0.0,0.0,0.0,0,0,0.0,0,0.0,-1,0.0,0.0,0.0,0,0.0,0.0207
1264,0,,,246,251,236,234,,-0.07,-0.0,0.97,-0,-0,-0,0.07,,0,0,0,0,0,0.0,0.0,0,0.0,0.0,0.0,0,0.0,0.0,0.0,0,0,0,0,0,,,,,,,,,,,,,,,,,,,,
1284,0,,,246,251,236,234,,-0.07,-0.0,0.97,-0,-0,-0,0.07,,0,0,0,0,0,0.0,0.0,0,0.0,0.0,0.0,0,0.0,0.0,0.0,0,0,0,0,0,,,,,,,,,,,,,,,,,,,,
1304,0,,,246,251,236,233,,-0.07,-0.0,0.97,-0,-0,-0,0.07,,0,0,0,0,0,0.0,0.0,0,0.0,0.0,0.0,0,0.0,0.0,0.0,0,0,0,0,0,,,,,,,,,,,,,,,,,,,,
1324,0,,,246,251,236,233,,-0.07,-0.0,0.97,-0,-0,-0,0.07,,0,0,0,0,0,0.0,0.0,0,0.0,0.0,0.0,0,0.0,0.0,0.0,0,0,0,0,0,,,,,,,,,,,,,,,,,,,,
1344,0,4,7,246,251,237,233,6,-0.07,-0.0,0.97,-0,-0,-0,0.07,1,0,0,0,0,0,0.0,0.0,0,0.0,0.0,0.0,0,0.0,0.0,0.0,0,0,0,0,0,0,0,0,0,0.0,0.0,0.0,0.0,0,0,0.0,0,0.0,-1,0.0,,0.0,0,0.0,0.0224
1364,0,,,246,251,236,234,,-0.07,-0.0,0.97,-0,-0,-0,0.07,,0,0,0,0,0,0.0,0.0,0,0.0,0.0,0.0,0,0.0,0.0,0.0,0,0,0,0,0,,,,,,,,,,,,,,,,,,,,
1384,0,,,246,251,236,234,,-0.07,-0.0,0.97,-0,-0,-0,0.07,,0,0,0,0,0,0.0,0.0,0,0.0,0.0,0.0,0,0.0,0.0,0.0,0,0,0,0,0,,,,,,,,,,,,,,,,,,,,
1404,0,,,246,251,236,233,,-0.07,-0.0,0.97,-0,-0,-0,0.07,,0,0,0,0,0,0.0,0.0,0,0.0,0.0,0.0,0,0.0,0.0,0.0,0,0,0,0,0,,,,,,,,,,,,,,,,,,,,
1424,0,,,246,251,236,234,,-0.07,-0.0,0.97,-0,-0,-0,0.07,,0,0,0,0,0,0.0,0.0,0,0.0,0.0,0.0,0,0.0,0.0,0.0,0,0,0,0,0,,,,,,,,,,,,,,,,,,,,
1444,0,4,4,246,251,236,234,7,-0.07,-0.0,0.98,-0,-0,-0,0.07,1,0,0,0,0,0,0.0,0.0,0,0.0,0.0,0.0,0,0.0,0.0,0.0,0,0,0,0,0,0,0,0,0,0.0,0.0,0.0,0.0,0,0,0.0,0,0.0,-1,0.0,0.0,0.0,0,0.0,0.0241
1464,0,,,246,251,236,234,,-0.07,-0.0,0.97,-0,-0,-0,0.07,,0,0,0,0,0,0.0,0.0,0,0.0,0.0,0.0,0,0.0,0.0,0.0,0,0,0,0,0,,,,,,,,,,,,,,,,,,,,
1484,0,,,246,251,236,233,,-0.07,-0.0,0.97,-0,-0,-0,0.07,,0,0,0,0,0,0.0,0.0,0,0.0,0.0,0.0,0,0.0,0.0,0.0,0,0,0,0,0,,,,,,,,,,,,,,,,,,,,
1504,0,,,246,251,236,234,,-0.07,-0.0,0.97,-0,-0,-0,0.07,,0,0,0,0,0,0.0,0.0,0,0.0,0.0,0.0,0,0.0,0.0,0.0,0,0,0,0,0,,,,,,,,,,,,,,,,,,,,
1524,0,,,246,251,236,234,,-0.07,-0.0,0.97,-0,-0,-0,0.07,,0,0,0,0,0,0.0,0.0,0,0.0,0.0,0.0,0,0.0,0.0,0.0,0,0,0,0,0,,,,,,,,,,,,,,,,,,,,
1544,0,5,4,246,251,236,234,7,-0.07,-0.0,0.97,-0,-0,-0,0.07,1,0,0,0,0,0,0.0,0.0,0,0.0,0.0,0.0,0,0.0,0.0,0.0,0,0,0,0,0,0,0,0,0,0.0,0.0,0.0,0.0,0,0,0.0,0,0.0,-1,0.0,,0.0,0,0.0,0.0257
1564,0,,,246,251,236,234,,-0.07,-0.0,0.97,-0,-0,-0,0.07,,0,0,0,0,0,0.0,0.0,0,0.0,0.0,0.0,0,0.0,0.0,0.0,0,0,0,0,0,,,,,,,,,,,,,,,,,,,,
1584,0,,,246,251,236,234,,-0.07,-0.0,0.97,-0,-0,-0,0.07,,0,0,0,0,0,0.0,0.0,0,0.0,0.0,0.0,0,0.0,0.0,0.0,0,0,0,0,0,,,,,,,,,,,,,,,,,,,,
1604,0,,,246,251,236,234,,-0.07,-0.0,0.97,-0,-0,-0,0.07,,0,0,0,0,0,0.0,0.0,0,0.0,0.0,0.0,0,0.0,0.0,0.0,0,0,0,0,0,,,,,,,,,,,,,,,,,,,,
1624,0,,,246,250,236,233,,-0.07,-0.0,0.97,-0,-0,-0,0.07,,0,0,0,0,0,0.0,0.0,0,0.0,0.0,0.0,0,0.0,0.0,0.0,0,0,0,0,0,,,,,,,,,,,,,,,,,,,,
1644,0,4,4,246,251,236,234,7,-0.07,-0.0,0.97,-0,-0,-0,0.07,1,0,0,0,0,0,0.0,0.0,0,0.0,0.0,0.0,0,0.0,0.0,0.0,0,0,0,0,0,0,0,0,0,0.0,0.0,0.0,0.0,0,0,0.0,0,0.0,-1,0.0,0.0,0.0,0,0.0,0.0274
1664,0,,,246,251,236,233,,-0.07,-0.0,0.97,-0,-0,-0,0.07,,0,0,0,0,0,0.0,0.0,0,0.0,0.0,0.0,0,0.0,0.0,0.0,0,0,0,0,0,,,,,,,,,,,,,,,,,,,,
1684,0,,,246,251,236,234,,-0.07,-0.0,0.97,-0,-0,-0,0.07,,0,0,0,0,0,0.0,0.0,0,0.0,0.0,0.0,0,0.0,0.0,0.0,0,0,0,0,0,,,,,,,,,,,,,,,,,,,,
1704,0,,,246,251,236,233,,-0.07,-0.0,0.97,-0,-0,-0,0.07,,0,0,0,0,0,0.0,0.0,0,0.0,0.0,0.0,0,0.0,0.0,0.0,0,0,0,0,0,,,,,,,,,,,,,,,,,,,,
1724,0,,,246,251,236,233,,-0.07,-0.0,0.97,-0,-0,-0,0.07,,0,0,0,0,0,0.0,0.0,0,0.0,0.0,0.0,0,0.0,0.0,0.0,0,0,0,0,0,,,,,,,,,,,,,,,,,,,,
1744,0,4,5,246,251,236,233,6,-0.07,-0.0,0.97,-0,-0,-0,0.07,1,0,0,0,0,0,0.0,0.0,0,0.0,0.0,0.0,0,0.0,0.0,0.0,0,0,0,0,0,0,0,0,0,0.0,0.0,0.0,0.0,0,0,0.0,0,0.0,-1,0.0,,0.0,0,0.0,0.0291
1764,0,,,246,251,236,233,,-0.07,-0.0,0.97,-0,-0,-0,0.07,,0,0,0,0,0,0.0,0.0,0,0.0,0.0,0.0,0,0.0,0.0,0.0,0,0,0,0,0,,,,,,,,,,,,,,,,,,,,
1784,0,,,246,251,236,233,,-0.07,-0.0,0.97,-0,-0,-0,0.07,,0,0,0,0,0,0.0,0.0,0,0.0,0.0,0.0,0,0.0,0.0,0.0,0,0,0,0,0,,,,,,,,,,,,,,,,,,,,
1804,0,,,246,251,236,234,,-0.07,-0.0,0.97,-0,-0,-0,0.07,,0,0,0,0,0,0.0,0.0,0,0.0,0.0,0.0,0,0.0,0.0,0.0,0,0,0,0,0,,,,,,,,,,,,,,,,,,,,
1824,0,,,246,251,236,233,,-0.07,-0.0,0.97,-0,-0,-0,0.07,,0,0,0,0,0,0.0,0.0,0,0.0,0.0,0.0,0,0.0,0.0,0.0,0,0,0,0,0,,,,,,,,,,,,,,,,,,,,
1844,0,5,3,246,251,236,233,7,-0.07,-0.0,0.97,-0,-0,-0,0.07,1,0,0,0,0,0,0.0,0.0,0,0.0,0.0,0.0,0,0.0,0.0,0.0,0,0,0,0,0,0,0,0,0,0.0,0.0,0.0,0.0,0,0,0.0,0,0.0,-1,0.0,0.0,0.0,0,0.0,0.0307
1864,0,,,246,251,236,234,,-0.07,-0.0,0.98,-0,-0,-0,0.07,,0,0,0,0,0,0.0,0.0,0,0.0,0.0,0.0,0,0.0,0.0,0.0,0,0,0,0,0,,,,,,,,,,,,,,,,,,,,
1884,0,,,246,251,236,233,,-0.07,-0.0,0.97,-0,-0,-0,0.07,,0,0,0,0,0,0.0,0.0,0,0.0,0.0,0.0,0,0.0,0.0,0.0,0,0,0,0,0,,,,,,,,,,,,,,,,,,,,
1904,0,,,246,251,236,233,,-0.07,-0.0,0.97,-0,-0,-0,0.07,,0,0,0,0,0,0.0,0.0,0,0.0,0.0,0.0,0,0.0,0.0,0.0,0,0,0,0,0,,,,,,,,,,,,,,,,,,,,
1924,0,,,246,251,236,233,,-0.07,-0.0,0.97,-0,-0,-0,0.07,,0,0,0,0,0,0.0,0.0,0,0.0,0.0,0.0,0,0.0,0.0,0.0,0,0,0,0,0,,,,,,,,,,,,,,,,,,,,
1944,0,4,4,246,251,236,233,7,-0.07,-0.0,0.97,-0,-0,-0,0.07,1,0,0,0,0,0,0.0,0.0,0,0.0,0.0,0.0,0,0.0,0.0,0.0,0,0,0,0,0,0,0,0,0,0.0,0.0,0.0,0.0,0,0,0.0,0,0.0,-1,0.0,,0.0,0,0.0,0.0324
1964,0,,,246,251,236,233,,-0.07,-0.0,0.97,-0,-0,-0,0.07,,0,0,0,0,0,0.0,0.0,0,0.0,0.0,0.0,0,0.0,0.0,0.0,0,0,0,0,0,,,,,,,,,,,,,,,,,,,,
1984,0,,,246,251,236,234,,-0.07,-0.0,0.97,-0,-0,-0,0.07,,0,0,0,0,0,0.0,0.0,0,0.0,0.0,0.0,0,0.0,0.0,0.0,0,0,0,0,0,,,,,,,,,,,,,,,,,,,,
2004,0,,,246,251,236,234,,-0.07,-0.0,0.97,-0,-0,-0,0.07,,0,0,0,0,0,0.0,0.0,0,0.0,0.0,0.0,0,0.0,0.0,0.0,0,0,0,0,0,,,,,,,,,,,,,,,,,,,,
2024,0,,,246,251,236,234,,-0.07,-0.0,0.97,-0,-0,-0,0.07,,0,0,0,0,0,0.0,0.0,0,0.0,0.0,0.0,0,0.0,0.0,0.0,0,0,0,0,0,,,,,,,,,,,,,,,,,,,,
2044,0,5,3,246,251,236,233,8,-0.07,-0.0,0.97,-0,-0,-0,0.07,1,0,0,0,0,0,0.0,0.0,0,0.0,0.0,0.0,0,0.0,0.0,0.0,0,0,0,0,0,0,0,0,0,0.0,0.0,0.0,0.0,0,0,0.0,0,0.0,-1,0.0,0.0,0.0,0,0.0,0.0341
2064,0,,,246,251,237,234,,-0.07,-0.01,0.97,-0,-0,-0,0.07,,0,0,0,0,0,0.0,0.0,0,0.0,0.0,0.0,0,0.0,0.0,0.0,0,0,0,0,0,,,,,,,,,,,,,,,,,,,,
2084,0,,,246,251,236,234,,-0.07,-0.0,0.97,-0,-0,-0,0.07,,0,0,0,0,0,0.0,0.0,0,0.0,0.0,0.0,0,0.0,0.0,0.0,0,0,0,0,0,,,,,,,,,,,,,,,,,,,,
2104,0,,,246,251,237,234,,-0.07,-0.0,0.97,-0,-0,-0,0.07,,0,0,0,0,0,0.0,0.0,0,0.0,0.0,0.0,0,0.0,0.0,0.0,0,0,0,0,0,,,,,,,,,,,,,,,,,,,,
2124,0,,,246,251,236,234,,-0.07,-0.0,0.97,-0,-0,-0,0.07,,0,0,0,0,0,0.0,0.0,0,0.0,0.0,0.0,0,0.0,0.0,0.0,0,0,0,0,0,,,,,,,,,,,,,,,,,,,,
2144,0,4,5,246,251,236,234,7,-0.07,-0.0,0.97,-0,-0,-0,0.07,1,0,0,0,0,0,0.0,0.0,0,0.0,0.0,0.0,0,0.0,0.0,0.0,0,0,0,0,0,0,0,0,0,0.0,0.0,0.0,0.0,0,0,0.0,0,0.0,-1,0.0,,0.0,0,0.0,0.0357
2164,0,,,246,251,236,234,,-0.07,-0.0,0.97,-0,-0,-0,0.07,,69,0,4,28,99,0.503,0.0,110,4.87,13.0,0.0,1,0.0,0.0,0.0,0,0,0,1,0,,,,,,,,,,,,,,,,,,,,
2184,0,,,246,251,236,233,,-0.07,-0.0,0.97,-0,-0,-0,0.07,,69,0,4,28,99,0.503,0.0,110,4.88,13.0,0.0,1,0.0,0.0,0.0,0,0,0,1,0,,,,,,,,,,,,,,,,,,,,
2204,0,,,247,251,237,234,,-0.07,-0.0,0.97,-0,-0,-0,0.07,,69,0,4,28,99,0.503,0.0,110,4.86,13.0,0.0,1,0.0,0.0,0.0,0,0,0,1,0,,,,,,,,,,,,,,,,,,,,
2224,0,,,246,251,236,233,,-0.07,-0.0,0.97,-0,-0,-0,0.07,,69,0,4,28,99,0.503,0.0,110,4.87,13.0,0.0,1,0.0,0.0,0.0,0,0,0,1,0,,,,,,,,,,,,,,,,,,,,
2244,0,4,5,246,250,236,234,7,-0.07,-0.0,0.97,-0,-0,-0,0.07,1,69,0,4,28,99,0.503,0.0,110,4.87,13.0,0.0,1,0.0,0.0,0.0,0,0,0,1,0,0,250,250,0,0.0,0.0,0.0,0.0,0,0,0.0,0,0.0,-1,0.0,0.0,0.0,0,0.0,0.0374
2264,0,,,246,250,236,233,,-0.07,-0.0,0.97,-0,-0,-0,0.07,,69,0,4,28,99,0.503,0.0,110,4.87,13.0,0.0,1,0.0,0.0,0.0,0,0,0,1,0,,,,,,,,,,,,,,,,,,,,
2284,0,,,246,251,236,233,,-0.07,-0.0,0.97,-0,-0,-0,0.07,,69,0,4,28,99,0.503,0.0,110,4.87,13.0,0.0,1,0.0,0.0,0.0,0,0,0,1,0,,,,,,,,,,,,,,,,,,,,
2304,0,,,246,251,236,234,,-0.07,-0.0,0.97,-0,-0,-0,0.07,,69,0,4,28,99,0.503,0.0,110,4.85,13.0,0.0,1,0.0,0.0,0.0,0,0,0,1,0,,,,,,,,,,,,,,,,,,,,
2324,0,,,246,251,236,233,,-0.07,-0.0,0.97,-0,-0,-0,0.07,,69,0,4,28,99,0.503,0.0,110,4.88,13.0,0.0,1,0.0,0.0,0.0,0,0,0,1,0,,,,,,,,,,,,,,,,,,,,
2344,0,4,5,246,250,236,234,7,-0.07,-0.0,0.97,-0,-0,-0,0.07,1,69,0,4,28,99,0.506,0.0,110,4.86,13.0,0.0,1,0.0,0.0,0.0,0,0,0,1,0,0,250,250,0,0.0,0.0,0.0,0.0,0,0,0.0,0,0.0,-1,0.0,,0.0,0,0.0,0.0391
2364,0,,,246,251,236,233,,-0.07,-0.0,0.97,-0,-0,-0,0.07,,69,0,4,28,99,0.51,0.0,110,4.86,12.9,0.0,1,0.0,0.0,0.0,0,0,0,1,0,,,,,,,,,,,,,,,,,,,,
2384,0,,,246,251,236,234,,-0.07,-0.0,0.97,-0,-0,-0,0.07,,69,0,4,28,99,0.513,0.0,110,4.88,12.9,0.0,1,0.0,0.0,0.0,0,0,0,1,0,,,,,,,,,,,,,,,,,,,,
2404,0,,,246,251,236,234,,-0.07,-0.0,0.97,-0,-0,-0,0.07,,69,0,4,28,99,0.516,0.0,110,4.86,13.0,0.0,1,0.0,0.0,0.0,0,0,0,1,0,,,,,,,,,,,,,,,,,,,,
2424,0,,,246,251,236,233,,-0.07,-0.0,0.97,-0,-0,-0,0.07,,69,0,4,28,99,0.519,0.0,110,4.87,13.0,0.0,1,0.0,0.0,0.0,0,0,0,1,0,,,,,,,,,,,,,,,,,,,,
2444,0,3,4,246,251,236,234,7,-0.07,-0.0,0.97,-0,-0,-0,0.07,1,69,0,4,28,99,0.523,0.0,110,4.86,13.0,0.0,1,0.0,0.0,0.0,0,0,0,1,0,0,250,250,0,0.0,0.0,0.0,0.0,0,0,0.0,0,0.0,-1,0.0,0.0,0.0,0,0.0,0.0407
2464,0,,,246,251,236,233,,-0.07,-0.0,0.97,-0,-0,-0,0.07,,69,0,4,28,99,0.527,0.0,110,4.85,13.0,0.0,1,0.0,0.0,0.0,0,0,0,1,0,,,,,,,,,,,,,,,,,,,,
2484,0,,,246,251,236,234,,-0.07,-0.0,0.97,-0,-0,-0,0.07,,69,0,4,28,99,0.532,0.0,110,4.86,12.9,0.0,1,0.0,0.0,0.0,0,0,0,1,0,,,,,,,,,,,,,,,,,,,,
2504,0,,,246,251,236,234,,-0.07,-0.0,0.97,-0,-0,-0,0.07,,69,0,4,28,99,0.536,0.0,110,4.85,12.9,0.0,1,0.0,0.0,0.0,0,0,0,1,0,,,,,,,,,,,,,,,,,,,,
2524,0,,,246,251,236,234,,-0.07,-0.0,0.97,-0,-0,-0,0.07,,69,0,4,28,99,0.541,0.0,110,4.86,12.8,0.0,1,0.0,0.0,0.0,0,0,0,1,0,,,,,,,,,,,,,,,,,,,,
2544,0,3,4,246,251,236,234,7,-0.07,-0.0,0.97,-0,-0,-0,0.07,1,69,0,4,28,99,0.546,0.0,110,4.87,12.8,0.0,1,0.0,0.0,0.0,0,0,0,1,0,0,250,250,0,0.0,0.0,0.0,0.0,0,0,0.0,0,0.0,-1,0.0,,0.0,0,0.0,0.0424
2564,0,,,246,251,236,233,,-0.07,-0.0,0.97,-0,-0,-0,0.07,,69,0,4,28,99,0.551,0.0,110,4.86,12.8,0.0,1,0.0,0.0,0.0,0,0,0,1,0,,,,,,,,,,,,,,,,,,,,
2584,0,,,246,251,236,234,,-0.07,-0.0,0.97,-0,-0,-0,0.07,,69,0,4,28,99,0.553,0.0,110,4.85,12.8,0.0,1,0.0,0.0,0.0,0,0,0,1,0,,,,,,,,,,,,,,,,,,,,
2604,0,,,246,251,236,234,,-0.07,-0.0,0.98,-0,-0,-0,0.07,,69,0,4,28,99,0.556,0.0,110,4.86,12.8,0.0,1,0.0,0.0,0.0,0,0,0,1,0,,,,,,,,,,,,,,,,,,,,
2624,0,,,246,251,236,234,,-0.07,-0.0,0.97,-0,-0,-0,0.07,,69,0,4,28,99,0.557,0.0,110,4.86,12.8,0.0,1,0.0,0.0,0.0,0,0,0,1,0,,,,,,,,,,,,,,,,,,,,
2644,0,4,4,246,251,236,234,7,-0.07,-0.0,0.97,-0,-0,-0,0.07,1,69,0,4,28,99,0.558,0.0,110,4.86,12.8,0.0,1,0.0,0.0,0.0,0,0,0,1,0,0,250,250,0,0.0,0.0,0.0,0.0,0,0,0.0,0,0.0,-1,0.0,0.0,0.0,0,0.0,0.0441
2664,0,,,246,251,236,234,,-0.07,-0.0,0.97,-0,-0,-0,0.07,,69,0,4,28,99,0.559,0.0,110,4.87,12.8,0.0,1,0.0,0.0,0.0,0,0,0,1,0,,,,,,,,,,,,,,,,,,,,
2684,0,,,246,251,236,234,,-0.07,-0.0,0.97,-0,-0,-0,0.07,,69,0,4,28,99,0.56,0.0,110,4.86,12.8,0.0,1,0.0,0.0,0.0,0,0,0,1,0,,,,,,,,,,,,,,,,,,,,
2704,0,,,246,251,236,233,,-0.07,-0.0,0.97,-0,-0,-0,0.07,,69,0,4,28,99,0.562,0.0,110,4.86,12.8,0.0,1,0.0,0.0,0.0,0,0,0,1,0,,,,,,,,,,,,,,,,,,,,
2724,0,,,246,251,236,233,,-0.07,-0.0,0.97,-0,-0,-0,0.07,,69,0,4,28,99,0.562,0.0,110,4.85,12.8,0.0,1,0.0,0.0,0.0,0,0,0,1,0,,,,,,,,,,,,,,,,,,,,
2744,0,4,4,246,251,236,234,6,-0.07,-0.01,0.97,-0,-0,-0,0.07,1,69,0,4,28,99,0.563,0.0,110,4.86,13.0,0.0,1,0.0,0.0,0.0,0,0,0,1,0,0,250,250,0,0.0,0.0,0.0,0.0,0,0,0.0,0,0.0,-1,0.0,,0.0,0,0.0,0.0457
2764,0,,,246,251,236,234,,-0.07,-0.01,0.97,-0,-0,-0,0.07,,69,0,4,28,99,0.561,0.0,110,4.86,13.0,0.0,1,0.0,0.0,0.0,0,0,0,1,0,,,,,,,,,,,,,,,,,,,,
2784,0,,,247,250,236,234,,-0.07,-0.01,0.97,-0,-0,-0,0.07,,69,0,4,28,99,0.56,0.0,110,4.85,13.0,0.0,1,0.0,0.0,0.0,0,0,0,1,0,,,,,,,,,,,,,,,,,,,,
2804,0,,,246,251,236,233,,-0.07,-0.0,0.97,-0,-0,-0,0.07,,69,0,4,28,99,0.559,0.0,110,4.87,13.0,0.0,1,0.0,0.0,0.0,0,0,0,1,0,,,,,,,,,,,,,,,,,,,,
2824,0,,,246,251,236,233,,-0.07,-0.0,0.97,-0,-0,-0,0.07,,69,0,4,28,99,0.558,0.0,110,4.86,13.0,0.0,1,0.0,0.0,0.0,0,0,0,1,0,,,,,,,,,,,,,,,,,,,,
2844,0,5,3,246,251,236,234,7,-0.07,-0.0,0.97,-0,-0,-0,0.07,1,69,0,4,28,99,0.558,0.0,110,4.85,12.9,0.0,1,0.0,0.0,0.0,0,0,0,1,0,0,250,250,0,0.0,0.0,0.0,0.0,0,0,0.0,0,0.0,-1,0.0,0.0,0.0,0,0.0,0.0474
2864,0,,,246,250,236,234,,-0.07,-0.0,0.97,-0,-0,-0,0.07,,69,0,4,28,99,0.557,0.0,110,4.87,12.9,0.0,1,0.0,0.0,0.0,0,0,0,1,0,,,,,,,,,,,,,,,,,,,,
2884,0,,,246,251,236,233,,-0.07,-0.0,0.98,-0,-0,-0,0.07,,69,0,4,28,99,0.558,0.0,110,4.87,12.9,0.0,1,0.0,0.0,0.0,0,0,0,1,0,,,,,,,,,,,,,,,,,,,,
2904,0,,,246,251,236,234,,-0.07,-0.0,0.97,-0,-0,-0,0.07,,69,0,4,28,99,0.557,0.0,110,4.87,12.9,0.0,1,0.0,0.0,0.0,0,0,0,1,0,,,,,,,,,,,,,,,,,,,,
2924,0,,,246,251,236,234,,-0.07,-0.0,0.98,-0,-0,-0,0.07,,69,0,4,28,99,0.558,0.0,110,4.86,13.0,0.0,1,0.0,0.0,0.0,0,0,0,1,0,,,,,,,,,,,,,,,,,,,,
2944,0,4,4,246,251,236,234,7,-0.07,-0.01,0.97,-0,-0,-0,0.07,1,69,0,4,28,99,0.558,0.0,110,4.87,13.0,0.0,1,0.0,0.0,0.0,0,0,0,1,0,0,250,250,0,0.0,0.0,0.0,0.0,0,0,0.0,0,0.0,-1,0.0,,0.0,0,0.0,0.0491
2964,0,,,246,250,236,234,,-0.07,-0.0,0.97,-0,-0,-0,0.07,,69,0,4,28,99,0.559,0.0,110,4.87,13.0,0.0,1,0.0,0.0,0.0,0,0,0,1,0,,,,,,,,,,,,,,,,,,,,
2984,0,,,246,251,236,234,,-0.07,-0.0,0.97,-0,-0,-0,0.07,,69,0,4,28,99,0.561,0.0,110,4.85,12.9,0.0,1,0.0,0.0,0.0,0,0,0,1,0,,,,,,,,,,,,,,,,,,,,
3004,0,,,246,250,236,234,,-0.07,-0.0,0.97,-0,-0,-0,0.07,,69,0,4,28,99,0.563,0.0,110,4.86,12.9,0.0,1,0.0,0.0,0.0,0,0,0,1,0,,,,,,,,,,,,,,,,,,,,
3024,0,,,246,251,236,234,,-0.07,-0.0,0.97,-0,-0,-0,0.07,,69,0,4,28,99,0.566,0.0,110,4.86,12.9,0.0,1,0.0,0.0,0.0,0,0,0,1,0,,,,,,,,,,,,,,,,,,,,
3044,0,3,4,246,251,236,234,7,-0.07,-0.0,0.97,-0,-0,-0,0.07,1,69,0,4,28,99,0.568,0.0,110,4.86,12.9,0.0,1,0.0,0.0,0.0,0,0,0,1,0,0,250,250,0,0.0,0.0,0.0,0.0,0,0,0.0,0,0.0,-1,0.0,0.0,0.0,0,0.0,0.0507
3064,0,,,246,250,236,234,,-0.07,-0.0,0.98,-0,-0,-0,0.07,,69,0,4,28,99,0.57,0.0,110,4.86,12.9,0.0,1,0.0,0.0,0.0,0,0,0,1,0,,,,,,,,,,,,,,,,,,,,
3084,0,,,246,251,236,233,,-0.07,-0.0,0.98,-0,-0,-0,0.07,,69,0,4,28,99,0.572,0.0,110,4.87,13.0,0.0,1,0.0,0.0,0.0,0,0,0,1,0,,,,,,,,,,,,,,,,,,,,
3104,0,,,246,251,236,234,,-0.07,-0.0,0.97,-0,-0,-0,0.07,,69,0,4,28,99,0.575,0.0,110,4.86,13.0,0.0,1,0.0,0.0,0.0,0,0,0,1,0,,,,,,,,,,,,,,,,,,,,
3124,0,,,246,251,236,234,,-0.07,-0.0,0.97,-0,-0,-0,0.07,,69,0,4,28,99,0.577,0.0,110,4.87,13.0,0.0,1,0.0,0.0,0.0,0,0,0,1,0,,,,,,,,,,,,,,,,,,,,
3144,0,5,4,246,251,236,234,6,-0.07,-0.0,0.97,-0,-0,-0,0.07,1,69,0,4,28,99,0.58,0.0,110,4.87,12.9,0.0,1,0.0,0.0,0.0,0,0,0,1,0,0,250,250,0,0.0,0.0,0.0,0.0,0,0,0.0,0,0.0,-1,0.0,,0.0,0,0.0,0.0524
3164,0,,,246,251,236,234,,-0.07,-0.01,0.97,-0,-0,-0,0.07,,69,0,4,28,99,0.582,0.0,110,4.86,12.9,0.0,1,0.0,0.0,0.0,0,0,0,0,0,,,,,,,,,,,,,,,,,,,,
3184,0,,,246,251,236,233,,-0.07,-0.01,0.97,-0,-0,-0,0.07,,69,0,4,28,99,0.585,0.0,110,4.8,13.1,0.0,1,0.0,0.0,0.0,0,0,0,0,0,,,,,,,,,,,,,,,,,,,,
3204,0,,,246,251,236,234,,-0.07,-0.01,0.97,-0,-0,-0,0.07,,69,0,4,28,99,0.588,0.0,110,4.65,13.1,0.0,1,0.0,0.0,0.0,0,0,0,0,0,,,,,,,,,,,,,,,,,,,,
3224,0,,,246,250,236,234,,-0.07,-0.0,0.97,-0,-0,-0,0.07,,69,0,4,28,99,0.591,0.0,110,3.81,13.1,0.0,1,0.0,0.0,0.0,0,0,0,0,0,,,,,,,,,,,,,,,,,,,,
3244,0,4,5,246,251,236,234,6,-0.07,-0.0,0.97,-0,-0,-0,0.07,1,69,0,4,28,99,0.593,0.0,110,3.44,13.1,0.0,1,0.0,0.0,0.0,0,0,0,0,0,0,250,250,0,0.0,0.0,0.0,0.0,0,0,0.0,0,0.0,-1,0.0,0.0,0.0,0,0.0,0.0541
3264,0,,,246,251,236,233,,-0.07,-0.0,0.97,-0,-0,-0,0.07,,69,0,4,28,99,0.597,0.0,110,3.25,13.1,0.0,1,0.0,0.0,0.0,0,0,0,0,0,,,,,,,,,,,,,,,,,,,,
3284,0,,,246,251,236,234,,-0.07,-0.0,0.97,-0,-0,-0,0.07,,69,0,4,28,99,0.598,0.0,110,3.09,13.1,0.0,1,0.0,0.0,0.0,0,0,0,0,0,,,,,,,,,,,,,,,,,,,,
3304,0,,,246,251,236,233,,-0.07,-0.0,0.97,-0,-0,-0,0.07,,69,0,4,28,99,0.601,0.0,110,2.96,13.1,0.0,1,0.0,0.0,0.0,0,0,0,0,0,,,,,,,,,,,,,,,,,,,,
3324,0,,,246,251,236,233,,-0.07,-0.0,0.97,-0,-0,-0,0.07,,69,0,4,28,99,0.604,0.0,110,2.83,13.1,0.0,1,0.0,0.0,0.0,0,0,0,0,0,,,,,,,,,,,,,,,,,,,,
3344,0,4,5,246,251,236,233,7,-0.07,-0.0,0.97,-0,-0,-0,0.07,1,69,0,4,28,99,0.606,0.0,110,2.73,13.1,0.0,1,0.0,0.0,0.0,0,0,0,0,0,0,250,250,0,0.0,0.0,0.0,0.0,0,0,0.0,0,0.0,-1,0.0,,0.0,0,0.0,0.0557
3364,0,,,246,251,236,234,,-0.07,-0.0,0.97,-0,-0,-0,0.07,,69,0,4,28,99,0.609,0.0,110,2.65,13.1,0.0,1,0.0,0.0,0.0,0,0,0,0,1,,,,,,,,,,,,,,,,,,,,
3384,0,,,246,251,236,233,,-0.07,-0.0,0.97,-0,-0,-0,0.07,,69,0,4,28,99,0.61,0.0,110,2.56,13.1,0.0,1,0.0,0.0,0.0,0,0,0,0,1,,,,,,,,,,,,,,,,,,,,
3404,0,,,246,251,236,233,,-0.07,-0.0,0.97,-0,-0,-0,0.07,,69,0,4,28,99,0.612,0.0,110,2.48,13.1,0.0,1,0.0,0.0,0.0,0,0,0,0,1,,,,,,,,,,,,,,,,,,,,
3424,0,,,246,251,236,233,,-0.07,-0.0,0.97,-0,-0,-0,0.07,,69,0,4,28,99,0.615,0.0,110,2.43,13.1,0.0,1,0.0,0.0,0.0,0,0,0,0,1,,,,,,,,,,,,,,,,,,,,
3444,0,3,5,246,251,236,233,7,-0.07,-0.0,0.97,-0,-0,-0,0.07,1,69,0,4,28,99,0.616,0.0,110,2.36,13.1,0.0,1,0.0,0.0,0.0,0,0,0,0,1,0,250,250,0,0.0,0.0,0.0,0.0,0,0,0.0,0,0.0,-1,0.0,0.0,0.0,0,0.0,0.0574
3464,0,,,246,251,236,233,,-0.07,-0.0,0.97,-0,-0,-0,0.07,,69,0,4,28,99,0.618,0.0,110,2.31,13.1,0.0,1,0.0,0.0,0.0,0,0,0,0,1,,,,,,,,,,,,,,,,,,,,
3484,0,,,246,251,236,234,,-0.07,-0.0,0.97,-0,-0,-0,0.07,,69,0,4,28,99,0.62,0.0,110,2.26,13.1,0.0,1,0.0,0.0,0.0,0,0,0,0,1,,,,,,,,,,,,,,,,,,,,
3504,0,,,246,251,236,234,,-0.07,-0.0,0.97,-0,-0,-0,0.07,,69,0,4,28,99,0.621,0.0,110,2.21,13.1,0.0,1,0.0,0.0,0.0,0,0,0,0,1,,,,,,,,,,,,,,,,,,,,
3524,0,,,246,251,236,233,,-0.07,-0.0,0.97,-0,-0,-0,0.07,,69,0,4,28,99,0.624,0.0,110,2.16,13.1,0.0,1,0.0,0.0,0.0,0,0,0,0,1,,,,,,,,,,,,,,,,,,,,
3544,0,4,3,246,251,236,234,6,-0.07,-0.0,0.97,-0,-0,-0,0.07,1,69,0,4,28,99,0.625,0.0,110,2.13,13.1,0.0,1,0.0,0.0,0.0,0,0,0,0,1,0,250,250,0,0.0,0.0,0.0,0.0,0,0,0.0,0,0.0,-1,0.0,,0.0,0,0.0,0.0591
3564,0,,,246,251,236,234,,-0.07,-0.0,0.97,-0,-0,-0,0.07,,69,0,4,28,99,0.627,0.0,110,2.1,13.1,0.0,1,0.0,0.0,0.0,0,0,0,0,1,,,,,,,,,,,,,,,,,,,,
3584,0,,,246,251,236,233,,-0.07,-0.0,0.97,-0,-0,-0,0.07,,69,0,4,28,99,0.63,0.0,110,2.05,13.1,0.0,1,0.0,0.0,0.0,0,0,0,0,1,,,,,,,,,,,,,,,,,,,,
3604,0,,,246,251,236,233,,-0.07,-0.0,0.97,-0,-0,-0,0.07,,69,0,4,28,99,0.633,0.0,110,2.02,13.1,0.0,1,0.0,0.0,0.0,0,0,0,0,1,,,,,,,,,,,,,,,,,,,,
3624,0,,,246,251,236,234,,-0.07,-0.0,0.97,-0,-0,-0,0.07,,69,0,4,28,99,0.635,0.0,110,2.0,13.1,0.0,1,0.0,0.0,0.0,0,0,0,0,1,,,,,,,,,,,,,,,,,,,,
3644,0,5,2,246,251,236,233,7,-0.07,-0.0,0.97,-0,-0,-0,0.07,1,69,0,4,28,99,0.637,0.0,110,1.97,13.1,0.0,1,0.0,0.0,0.0,0,0,0,0,1,0,250,250,0,0.0,0.0,0.0,0.0,0,0,0.0,0,0.0,-1,0.0,0.0,0.0,0,0.0,0.0607
3664,0,,,246,251,237,233,,-0.07,-0.0,0.97,-0,-0,-0,0.07,,69,0,4,28,99,0.639,0.0,110,1.94,13.1,0.0,1,0.0,0.0,0.0,0,0,0,0,1,,,,,,,,,,,,,,,,,,,,
3684,0,,,246,251,236,234,,-0.07,-0.0,0.97,-0,-0,-0,0.07,,69,0,4,28,99,0.64,0.0,110,1.92,13.1,0.0,1,0.0,0.0,0.0,0,0,0,0,1,,,,,,,,,,,,,,,,,,,,
3704,0,,,246,251,236,234,,-0.07,-0.0,0.97,-0,-0,-0,0.07,,69,0,4,28,99,0.642,0.0,110,1.88,13.1,0.0,1,0.0,0.0,0.0,0,0,0,0,1,,,,,,,,,,,,,,,,,,,,
3724,0,,,246,251,236,234,,-0.07,-0.0,0.97,-0,-0,-0,0.07,,69,0,4,28,99,0.642,0.0,110,1.87,13.1,0.0,1,0.0,0.0,0.0,0,0,0,0,1,,,,,,,,,,,,,,,,,,,,
3744,0,3,4,246,251,236,234,7,-0.07,-0.0,0.97,-0,-0,-0,0.07,1,69,0,4,28,99,0.644,0.0,110,1.86,13.1,0.0,1,0.0,0.0,0.0,0,0,0,0,1,0,250,250,0,0.0,0.0,0.0,0.0,0,0,0.0,0,0.0,-1,0.0,,0.0,0,0.0,0.0624
3764,0,,,246,251,236,234,,-0.07,-0.0,0.97,-0,-0,-0,0.07,,69,0,4,28,99,0.644,0.0,110,1.83,13.1,0.0,1,0.0,0.0,0.0,0,0,0,0,1,,,,,,,,,,,,,,,,,,,,
3784,0,,,246,251,236,234,,-0.07,-0.0,0.97,-0,-0,-0,0.07,,69,0,4,28,99,0.644,0.0,110,1.8,13.1,0.0,1,0.0,0.0,0.0,0,0,0,0,1,,,,,,,,,,,,,,,,,,,,
3804,0,,,246,251,236,234,,-0.07,-0.0,0.97,-0,-0,-0,0.07,,69,0,4,28,99,0.645,0.0,110,1.8,13.1,0.0,1,0.0,0.0,0.0,0,0,0,0,1,,,,,,,,,,,,,,,,,,,,
3824,0,,,246,251,236,234,,-0.07,-0.0,0.97,-0,-0,-0,0.07,,69,0,4,28,99,0.645,0.0,110,1.78,13.1,0.0,1,0.0,0.0,0.0,0,0,0,0,1,,,,,,,,,,,,,,,,,,,,
3844,0,4,4,246,251,236,234,7,-0.07,-0.0,0.97,-0,-0,-0,0.07,1,69,0,4,28,99,0.645,0.0,110,1.76,13.1,0.0,1,0.0,0.0,0.0,0,0,0,0,1,0,250,250,0,0.0,0.0,0.0,0.0,0,0,0.0,0,0.0,-1,0.0,0.0,0.0,0,0.0,0.0641
3864,0,,,246,251,236,233,,-0.07,-0.0,0.97,-0,-0,-0,0.07,,69,0,4,28,99,0.644,0.0,110,1.75,13.1,0.0,1,0.0,0.0,0.0,0,0,0,0,1,,,,,,,,,,,,,,,,,,,,
3884,0,,,246,251,236,234,,-0.07,-0.01,0.98,-0,-0,-0,0.07,,69,0,4,28,99,0.644,0.0,110,1.73,13.1,0.0,1,0.0,0.0,0.0,0,0,0,0,1,,,,,,,,,,,,,,,,,,,,
3904,0,,,246,251,236,233,,-0.07,-0.0,0.97,-0,-0,-0,0.07,,69,0,4,28,99,0.644,0.0,110,1.72,13.1,0.0,1,0.0,0.0,0.0,0,0,0,0,1,,,,,,,,,,,,,,,,,,,,
3924,0,,,246,251,236,234,,-0.07,-0.0,0.97,-0,-0,-0,0.07,,69,0,4,28,99,0.643,0.0,110,1.7,13.1,0.0,1,0.0,0.0,0.0,0,0,0,0,1,,,,,,,,,,,,,,,,,,,,
3944,0,4,5,246,251,236,233,7,-0.07,-0.0,0.97,-0,-0,-0,0.07,1,69,0,4,28,99,0.643,0.0,110,1.7,13.1,0.0,1,0.0,0.0,0.0,0,0,0,0,1,0,250,250,0,0.0,0.0,0.0,0.0,0,0,0.0,0,0.0,-1,0.0,,0.0,0,0.0,0.0657
3964,0,,,246,251,236,234,,-0.07,-0.0,0.97,-0,-0,-0,0.07,,69,0,4,28,99,0.643,0.0,110,1.67,13.1,0.0,1,0.0,0.0,0.0,0,0,0,0,1,,,,,,,,,,,,,,,,,,,,
3984,0,,,246,251,236,233,,-0.07,-0.0,0.97,-0,-0,-0,0.07,,69,0,4,28,99,0.643,0.0,110,1.67,13.1,0.0,1,0.0,0.0,0.0,0,0,0,0,1,,,,,,,,,,,,,,,,,,,,
4004,0,,,246,251,236,234,,-0.07,-0.0,0.97,-0,-0,-0,0.07,,69,0,4,28,99,0.644,0.0,110,1.64,13.1,0.0,1,0.0,0.0,0.0,0,0,0,0,1,,,,,,,,,,,,,,,,,,,,
4024,0,,,246,251,236,234,,-0.07,-0.0,0.97,-0,-0,-0,0.07,,69,0,4,28,99,0.644,0.0,110,1.64,13.1,0.0,1,0.0,0.0,0.0,0,0,0,0,1,,,,,,,,,,,,,,,,,,,,
4044,0,5,3,246,251,236,234,7,-0.07,-0.0,0.97,-0,-0,-0,0.07,1,69,0,4,28,99,0.645,0.0,110,1.61,13.1,0.0,1,0.0,0.0,0.0,0,0,0,0,1,0,250,250,0,0.0,0.0,0.0,0.0,0,0,0.0,0,0.0,-1,0.0,0.0,0.0,0,0.0,0.0674
4064,0,,,246,251,236,234,,-0.07,-0.0,0.97,-0,-0,-0,0.07,,69,0,4,28,99,0.645,0.0,110,1.61,13.1,0.0,1,0.0,0.0,0.0,0,0,0,0,1,,,,,,,,,,,,,,,,,,,,
4084,0,,,246,251,236,234,,-0.07,-0.0,0.97,-0,-0,-0,0.07,,69,0,4,28,99,0.645,0.0,110,1.58,13.1,0.0,1,0.0,0.0,0.0,0,0,0,0,1,,,,,,,,,,,,,,,,,,,,
4104,0,,,246,251,236,233,,-0.07,-0.0,0.97,-0,-0,-0,0.07,,69,0,4,28,99,0.645,0.0,110,1.58,13.1,0.0,1,0.0,0.0,0.0,0,0,0,0,1,,,,,,,,,,,,,,,,,,,,
4124,0,,,246,251,236,233,,-0.07,-0.0,0.97,-0,-0,-0,0.07,,69,0,4,28,99,0.644,0.0,110,1.56,13.1,0.0,1,0.0,0.0,0.0,0,0,0,0,1,,,,,,,,,,,,,,,,,,,,
4144,0,4,4,246,251,236,233,7,-0.07,-0.0,0.97,-0,-0,-0,0.07,1,69,0,4,28,99,0.644,0.0,110,1.56,13.1,0.0,1,0.0,0.0,0.0,0,0,0,0,1,0,250,250,0,0.0,0.0,0.0,0.0,0,0,0.0,0,0.0,-1,0.0,,0.0,0,0.0,0.0691
4164,0,,,246,251,236,234,,-0.07,-0.0,0.97,-0,-0,-0,0.07,,69,0,4,28,99,0.644,0.0,110,1.56,13.1,0.0,1,0.0,0.0,0.0,0,0,0,0,1,,,,,,,,,,,,,,,,,,,,
4184,0,,,246,251,236,233,,-0.07,-0.0,0.97,-0,-0,-0,0.07,,69,0,4,28,99,0.645,0.0,110,1.53,13.1,0.0,1,0.0,0.0,0.0,0,0,0,0,1,,,,,,,,,,,,,,,,,,,,
4204,0,,,246,251,236,234,,-0.07,-0.0,0.97,-0,-0,-0,0.07,,69,0,4,28,99,0.644,0.0,110,1.53,13.1,0.0,1,0.0,0.0,0.0,0,0,0,0,1,,,,,,,,,,,,,,,,,,,,
4224,0,,,246,251,236,233,,-0.07,-0.0,0.97,-0,-0,-0,0.07,,69,0,4,28,99,0.644,0.0,110,1.52,13.1,0.0,1,0.0,0.0,0.0,0,0,0,0,1,,,,,,,,,,,,,,,,,,,,
4244,0,4,4,247,251,237,234,7,-0.07,-0.0,0.99,-0,-0,-0,0.07,1,69,0,4,28,99,0.644,0.0,110,1.51,13.1,0.0,1,0.0,0.0,0.0,0,0,0,0,1,0,250,250,0,0.0,0.0,0.0,0.0,0,0,0.0,0,0.0,-1,0.0,0.0,0.0,0,0.0,0.0707
4264,0,,,246,251,236,234,,-0.07,-0.0,0.99,-0,-0,-0,0.07,,69,0,4,28,99,0.644,0.0,110,1.51,13.1,0.0,1,0.0,0.0,0.0,0,0,0,0,1,,,,,,,,,,,,,,,,,,,,
4284,0,,,246,251,236,234,,-0.07,-0.0,0.98,-0,-0,-0,0.07,,69,0,4,28,99,0.643,0.0,110,1.5,13.1,0.0,1,0.0,0.0,0.0,0,0,0,0,1,,,,,,,,,,,,,,,,,,,,
4304,0,,,246,251,236,234,,-0.07,-0.0,0.98,-0,-0,-0,0.07,,69,0,4,28,99,0.643,0.0,110,1.48,13.1,0.0,1,0.0,0.0,0.0,0,0,0,0,1,,,,,,,,,,,,,,,,,,,,
4324,0,,,246,251,236,233,,-0.07,-0.0,0.98,-0,-0,-0,0.07,,69,0,4,28,99,0.642,0.0,110,1.48,13.1,0.0,1,0.0,0.0,0.0,0,0,0,0,1,,,,,,,,,,,,,,,,,,,,
4344,0,5,3,246,251,236,233,7,-0.07,-0.0,0.98,-0,-0,-0,0.07,1,69,0,4,28,99,0.643,0.0,110,1.48,13.1,0.0,1,0.0,0.0,0.0,0,0,0,0,1,0,250,250,0,0.0,0.0,0.0,0.0,0,0,0.0,0,0.0,-1,0.0,,0.0,0,0.0,0.0724
4364,0,,,246,251,236,234,,-0.06,-0.0,0.98,-0,-0,-0,0.06,,69,0,4,28,99,0.642,0.0,110,1.45,13.1,0.0,1,0.0,0.0,0.0,0,0,0,0,1,,,,,,,,,,,,,,,,,,,,
4384,0,,,246,251,236,233,,-0.06,-0.0,0.98,-0,-0,-0,0.06,,69,0,4,28,99,0.643,0.0,110,1.45,13.1,0.0,1,0.0,0.0,0.0,0,0,0,0,1,,,,,,,,,,,,,,,,,,,,
4404,0,,,246,251,236,234,,-0.06,-0.0,0.98,-0,-0,-0,0.06,,69,0,4,28,99,0.643,0.0,110,1.45,13.1,0.0,1,0.0,0.0,0.0,0,0,0,0,1,,,,,,,,,,,,,,,,,,,,
4424,0,,,246,250,236,234,,-0.07,-0.0,0.98,-0,-0,-0,0.07,,69,0,4,28,99,0.642,0.0,110,1.45,13.1,0.0,1,0.0,0.0,0.0,0,0,0,0,1,,,,,,,,,,,,,,,,,,,,
4444,0,4,3,246,251,236,234,7,-0.07,-0.0,0.98,-0,-0,-0,0.07,1,69,0,4,28,99,0.642,0.0,110,1.42,13.1,0.0,1,0.0,0.0,0.0,0,0,0,0,1,0,250,250,0,0.0,0.0,0.0,0.0,0,0,0.0,0,0.0,-1,0.0,0.0,0.0,0,0.0,0.0741
4464,0,,,246,251,236,234,,-0.07,-0.01,0.98,-0,-0,-0,0.07,,69,0,4,28,99,0.642,0.0,110,1.42,13.1,0.0,1,0.0,0.0,0.0,0,0,0,0,1,,,,,,,,,,,,,,,,,,,,
4484,0,,,246,251,236,233,,-0.07,-0.0,0.98,-0,-0,-0,0.07,,69,0,4,28,99,0.642,0.0,110,1.42,13.1,0.0,1,0.0,0.0,0.0,0,0,0,0,1,,,,,,,,,,,,,,,,,,,,
4504,0,,,246,251,236,234,,-0.07,-0.0,0.98,-0,-0,-0,0.07,,69,0,4,28,99,0.642,0.0,110,1.41,13.1,0.0,1,0.0,0.0,0.0,0,0,0,0,1,,,,,,,,,,,,,,,,,,,,
4524,0,,,246,251,236,234,,-0.07,-0.0,0.98,-0,-0,-0,0.07,,69,0,4,28,99,0.643,0.0,110,1.4,13.1,0.0,1,0.0,0.0,0.0,0,0,0,0,1,,,,,,,,,,,,,,,,,,,,
4544,0,4,3,246,250,236,234,7,-0.07,-0.0,0.98,-0,-0,-0,0.07,1,69,0,4,28,99,0.643,0.0,110,1.4,13.1,0.0,1,0.0,0.0,0.0,0,0,0,0,1,0,250,250,0,0.0,0.0,0.0,0.0,0,0,0.0,0,0.0,-1,0.0,,0.0,0,0.0,0.0757
4564,0,,,246,251,236,233,,-0.07,-0.0,0.98,-0,-0,-0,0.07,,69,0,4,28,99,0.643,0.0,110,1.4,13.1,0.0,1,0.0,0.0,0.0,0,0,0,0,1,,,,,,,,,,,,,,,,,,,,
4584,0,,,246,251,236,233,,-0.07,-0.0,0.98,-0,-0,-0,0.07,,69,0,4,28,99,0.644,0.0,110,1.4,13.1,0.0,1,0.0,0.0,0.0,0,0,0,0,1,,,,,,,,,,,,,,,,,,,,
4604,0,,,246,251,237,233,,-0.07,-0.0,0.97,-0,-0,-0,0.07,,69,0,4,28,99,0.643,0.0,110,1.4,13.1,0.0,1,0.0,0.0,0.0,0,0,0,0,1,,,,,,,,,,,,,,,,,,,,
4624,0,,,247,251,236,234,,-0.07,-0.0,0.98,-0,-0,-0,0.07,,69,0,4,28,99,0.644,0.0,110,1.4,13.1,0.0,1,0.0,0.0,0.0,0,0,0,0,1,,,,,,,,,,,,,,,,,,,,
4644,0,3,5,246,251,236,233,8,-0.07,-0.0,0.97,-0,-0,-0,0.07,1,69,0,4,28,99,0.644,0.0,110,1.37,13.1,0.0,1,0.0,0.0,0.0,0,0,0,0,1,0,250,250,0,0.0,0.0,0.0,0.0,0,0,0.0,0,0.0,-1,0.0,0.0,0.0,0,0.0,0.0774
4664,0,,,246,251,237,233,,-0.07,-0.0,0.98,-0,-0,-0,0.07,,69,0,4,28,99,0.644,0.0,110,1.37,13.1,0.0,1,0.0,0.0,0.0,0,0,0,0,1,,,,,,,,,,,,,,,,,,,,
4684,0,,,246,251,236,233,,-0.07,-0.0,0.98,-0,-0,-0,0.07,,69,0,4,28,99,0.645,0.0,110,1.37,13.1,0.0,1,0.0,0.0,0.0,0,0,0,0,1,,,,,,,,,,,,,,,,,,,,
4704,0,,,246,251,237,233,,-0.07,-0.0,0.98,-0,-0,-0,0.07,,69,0,4,28,99,0.645,0.0,110,1.37,13.1,0.0,1,0.0,0.0,0.0,0,0,0,0,1,,,,,,,,,,,,,,,,,,,,
4724,0,,,246,250,236,234,,-0.07,-0.01,0.97,-0,-0,-0,0.07,,69,0,4,28,99,0.645,0.0,110,1.37,13.1,0.0,1,0.0,0.0,0.0,0,0,0,0,1,,,,,,,,,,,,,,,,,,,,
4744,0,3,5,246,251,236,234,7,-0.07,-0.01,0.97,-0,-0,-0,0.07,1,69,0,4,28,99,0.645,0.0,110,1.37,13.1,0.0,1,0.0,0.0,0.0,0,0,0,0,1,0,250,250,0,0.0,0.0,0.0,0.0,0,0,0.0,0,0.0,-1,0.0,,0.0,0,0.0,0.0791
4764,0,,,246,251,236,234,,-0.07,-0.01,0.97,-0,-0,-0,0.07,,69,0,4,28,99,0.645,0.0,110,1.36,13.1,0.0,1,0.0,0.0,0.0,0,0,0,0,1,,,,,,,,,,,,,,,,,,,,
4784,0,,,246,251,236,233,,-0.07,-0.0,0.97,-0,-0,-0,0.07,,69,0,4,28,99,0.645,0.0,110,1.34,13.1,0.0,1,0.0,0.0,0.0,0,0,0,0,1,,,,,,,,,,,,,,,,,,,,
4804,0,,,247,251,237,233,,-0.07,-0.0,0.97,-0,-0,-0,0.07,,69,0,4,28,99,0.645,0.0,110,1.34,13.1,0.0,1,0.0,0.0,0.0,0,0,0,0,1,,,,,,,,,,,,,,,,,,,,
4824,0,,,247,251,236,234,,-0.07,-0.0,0.97,-0,-0,-0,0.07,,69,0,4,28,99,0.644,0.0,110,1.34,13.1,0.0,1,0.0,0.0,0.0,0,0,0,0,1,,,,,,,,,,,,,,,,,,,,
4844,0,4,4,247,251,237,234,6,-0.07,-0.0,0.98,-0,-0,-0,0.07,1,69,0,4,28,99,0.644,0.0,110,1.33,13.1,0.0,1,0.0,0.0,0.0,0,0,0,0,1,0,250,250,0,0.0,0.0,0.0,0.0,0,0,0.0,0,0.0,-1,0.0,0.0,0.0,0,0.0,0.0807
4864,0,,,246,251,236,234,,-0.07,-0.0,0.98,-0,-0,-0,0.07,,69,0,4,28,99,0.645,0.0,110,1.33,13.1,0.0,1,0.0,0.0,0.0,0,0,0,0,1,,,,,,,,,,,,,,,,,,,,
4884,0,,,246,251,236,234,,-0.07,-0.0,0.97,-0,-0,-0,0.07,,69,0,4,28,99,0.645,0.0,110,1.33,13.1,0.0,1,0.0,0.0,0.0,0,0,0,0,1,,,,,,,,,,,,,,,,,,,,
4904,0,,,246,251,236,234,,-0.07,-0.0,0.97,-0,-0,-0,0.07,,69,0,4,28,99,0.646,0.0,110,1.33,13.1,0.0,1,0.0,0.0,0.0,0,0,0,0,1,,,,,,,,,,,,,,,,,,,,
4924,0,,,246,250,236,234,,-0.07,-0.0,0.97,-0,-0,-0,0.07,,69,0,4,28,99,0.646,0.0,110,1.33,13.1,0.0,1,0.0,0.0,0.0,0,0,0,0,1,,,,,,,,,,,,,,,,,,,,
4944,0,4,5,246,251,236,234,6,-0.07,-0.0,0.97,-0,-0,-0,0.07,1,69,0,4,28,99,0.646,0.0,110,1.31,13.1,0.0,1,0.0,0.0,0.0,0,0,0,0,1,0,250,250,0,0.0,0.0,0.0,0.0,0,0,0.0,0,0.0,-1,0.0,,0.0,0,0.0,0.0824
4964,0,,,246,251,236,234,,-0.07,-0.0,0.97,-0,-0,-0,0.07,,69,0,4,28,99,0.647,0.0,110,1.31,13.1,0.0,1,0.0,0.0,0.0,0,0,0,0,1,,,,,,,,,,,,,,,,,,,,
4984,0,,,246,251,236,234,,-0.07,-0.0,0.97,-0,-0,-0,0.07,,69,0,4,28,99,0.647,0.0,110,1.31,13.1,0.0,1,0.0,0.0,0.0,0,0,0,0,1,,,,,,,,,,,,,,,,,,,,
5004,0,,,246,251,236,234,,-0.07,-0.0,0.98,-0,-0,-0,0.07,,69,0,4,28,99,0.647,0.0,110,1.31,13.1,0.0,1,0.0,0.0,0.0,0,0,0,0,1,,,,,,,,,,,,,,,,,,,,
5024,0,,,246,251,236,234,,-0.07,-0.0,0.97,-0,-0,-0,0.07,,69,0,4,28,99,0.648,0.0,110,1.31,13.1,0.0,1,0.0,0.0,0.0,0,0,0,0,1,,,,,,,,,,,,,,,,,,,,
5044,0,4,4,246,250,236,234,7,-0.07,-0.0,0.97,-0,-0,-0,0.07,1,69,0,4,28,99,0.649,0.0,110,1.3,13.1,0.0,1,0.0,0.0,0.0,0,0,0,0,1,0,250,250,0,0.0,0.0,0.0,0.0,0,0,0.0,0,0.0,-1,0.0,0.0,0.0,0,0.0,0.0841
5064,0,,,246,250,236,234,,-0.07,-0.0,0.97,-0,-0,-0,0.07,,69,0,4,28,99,0.65,0.0,110,1.29,13.1,0.0,1,0.0,0.0,0.0,0,0,0,0,1,,,,,,,,,,,,,,,,,,,,
5084,0,,,246,251,236,233,,-0.07,-0.0,0.97,-0,-0,-0,0.07,,69,0,4,28,99,0.65,0.0,110,1.28,13.1,0.0,1,0.0,0.0,0.0,0,0,0,0,1,,,,,,,,,,,,,,,,,,,,
5104,0,,,246,251,236,233,,-0.07,-0.0,0.97,-0,-0,-0,0.07,,69,0,4,28,99,0.65,0.0,110,1.28,13.1,0.0,1,0.0,0.0,0.0,0,0,0,0,1,,,,,,,,,,,,,,,,,,,,
5124,0,,,246,251,236,234,,-0.07,-0.0,0.97,-0,-0,-0,0.07,,69,0,4,28,99,0.65,0.0,110,1.28,13.1,0.0,1,0.0,0.0,0.0,0,0,0,0,1,,,,,,,,,,,,,,,,,,,,
5144,0,3,4,246,251,236,234,7,-0.07,-0.0,0.97,-0,-0,-0,0.07,1,69,0,4,28,99,0.65,0.0,110,1.28,13.1,0.0,1,0.0,0.0,0.0,0,0,0,0,1,0,250,250,0,0.0,0.0,0.0,0.0,0,0,0.0,0,0.0,-1,0.0,,0.0,0,0.0,0.0857
5164,0,,,246,251,236,234,,-0.07,-0.0,0.97,-0,-0,-0,0.07,,69,0,4,28,99,0.65,0.0,110,1.28,13.1,0.0,1,0.0,0.0,0.0,0,0,0,0,1,,,,,,,,,,,,,,,,,,,,
5184,0,,,246,251,236,233,,-0.07,-0.0,0.97,-0,-0,-0,0.07,,69,0,4,28,99,0.65,0.0,110,1.28,13.1,0.0,1,0.0,0.0,0.0,0,0,0,0,1,,,,,,,,,,,,,,,,,,,,
5204,0,,,246,251,236,234,,-0.07,-0.0,0.97,-0,-0,-0,0.07,,69,0,4,28,99,0.65,0.0,110,1.28,13.1,0.0,1,0.0,0.0,0.0,0,0,0,0,1,,,,,,,,,,,,,,,,,,,,
5224,0,,,246,251,236,234,,-0.07,-0.0,0.97,-0,-0,-0,0.07,,69,0,4,28,99,0.65,0.0,110,1.27,13.1,0.0,1,0.0,0.0,0.0,0,0,0,0,1,,,,,,,,,,,,,,,,,,,,
5244,0,5,2,246,251,236,233,7,-0.07,-0.0,0.97,-0,-0,-0,0.07,1,69,0,4,28,99,0.651,0.0,110,1.27,13.1,0.0,1,0.0,0.0,0.0,0,0,0,0,1,0,250,250,0,0.0,0.0,0.0,0.0,0,0,0.0,0,0.0,-1,0.0,0.0,0.0,0,0.0,0.0874
5264,0,,,246,251,236,233,,-0.07,-0.0,0.97,-0,-0,-0,0.07,,69,0,4,28,99,0.651,0.0,110,1.26,13.1,0.0,1,0.0,0.0,0.0,0,0,0,0,1,,,,,,,,,,,,,,,,,,,,
5284,0,,,246,251,236,234,,-0.07,-0.0,0.97,-0,-0,-0,0.07,,69,0,4,28,99,0.65,0.0,110,1.26,13.1,0.0,1,0.0,0.0,0.0,0,0,0,0,1,,,,,,,,,,,,,,,,,,,,
5304,0,,,246,251,236,233,,-0.07,-0.0,0.97,-0,-0,-0,0.07,,69,0,4,28,99,0.65,0.0,110,1.26,13.1,0.0,1,0.0,0.0,0.0,0,0,0,0,1,,,,,,,,,,,,,,,,,,,,
5324,0,,,246,251,236,234,,-0.07,-0.0,0.97,-0,-0,-0,0.07,,69,0,4,28,99,0.65,0.0,110,1.26,13.1,0.0,1,0.0,0.0,0.0,0,0,0,0,1,,,,,,,,,,,,,,,,,,,,
5344,0,2,1,246,251,236,233,7,-0.07,-0.0,0.97,-0,-0,-0,0.07,1,69,0,4,28,99,0.649,0.0,110,1.25,13.1,0.0,1,0.0,0.0,0.0,0,0,0,0,1,0,250,250,0,0.0,0.0,0.0,0.0,0,0,0.0,0,0.0,-1,0.0,,0.0,0,0.0,0.0891
5364,0,,,246,250,236,234,,-0.07,-0.0,0.97,-0,-0,-0,0.07,,69,0,4,28,99,0.65,0.0,110,1.25,13.1,0.0,1,0.0,0.0,0.0,0,0,0,0,1,,,,,,,,,,,,,,,,,,,,
5384,0,,,246,251,236,234,,-0.07,-0.0,0.97,-0,-0,-0,0.07,,69,0,4,28,99,0.649,0.0,110,1.25,13.1,0.0,1,0.0,0.0,0.0,0,0,0,0,1,,,,,,,,,,,,,,,,,,,,
5404,0,,,246,251,236,233,,-0.07,-0.0,0.97,-0,-0,-0,0.07,,69,0,4,28,99,0.649,0.0,110,1.25,13.0,0.0,1,0.0,0.0,0.0,0,0,0,0,1,,,,,,,,,,,,,,,,,,,,
5424,0,,,246,251,236,234,,-0.07,-0.01,0.96,-0,-0,-0,0.07,,69,0,4,28,99,0.645,0.0,110,1.24,9.0,0.0,1,0.0,0.0,0.0,0,0,0,0,1,,,,,,,,,,,,,,,,,,,,
5444,0,0,2,246,251,236,234,6,-0.06,-0.01,0.96,-0,-0,-0,0.06,1,69,0,4,28,99,0.642,0.0,111,1.23,10.2,0.0,1,0.0,0.0,0.0,0,0,0,0,1,0,250,250,0,0.0,0.0,0.0,0.0,0,0,0.0,0,0.0,-1,0.0,0.0,0.0,0,0.0,0.0907
5464,0,,,246,251,236,234,,-0.07,-0.0,0.96,-0,-0,-0,0.07,,69,0,4,28,99,0.64,0.0,113,1.23,10.8,0.0,1,0.0,0.0,0.0,0,0,0,0,1,,,,,,,,,,,,,,,,,,,,
5484,0,,,246,251,236,234,,-0.07,-0.0,0.96,-0,-0,-0,0.07,,69,0,4,28,99,0.64,0.0,112,1.23,11.2,0.0,1,0.0,0.0,0.0,0,0,0,0,1,,,,,,,,,,,,,,,,,,,,
5504,0,,,246,251,236,234,,-0.07,-0.0,0.96,-0,-0,-0,0.07,,69,0,4,28,99,0.639,0.0,113,1.23,11.5,0.0,1,0.0,0.0,0.0,0,0,0,0,1,,,,,,,,,,,,,,,,,,,,
5524,0,,,246,251,236,234,,-0.07,-0.0,0.96,-0,-0,-0,0.07,,69,0,4,28,99,0.639,0.0,112,1.23,11.4,0.0,1,0.0,0.0,0.0,0,0,0,0,1,,,,,,,,,,,,,,,,,,,,
5544,0,0,2,246,251,236,233,7,-0.07,-0.0,0.96,-0,-0,-0,0.07,1,69,0,4,28,99,0.639,0.0,113,1.23,11.4,0.0,1,0.0,0.0,0.0,0,0,0,0,1,0,250,250,0,0.0,0.0,0.0,0.0,0,0,0.0,0,0.0,-1,0.0,,0.0,0,0.0,0.0924
5564,0,,,246,251,236,234,,-0.07,-0.0,0.96,-0,-0,-0,0.07,,69,0,4,28,99,0.637,0.0,113,1.23,11.3,0.0,1,0.0,0.0,0.0,0,0,0,0,1,,,,,,,,,,,,,,,,,,,,
5584,0,,,246,251,236,233,,-0.07,-0.0,0.97,-0,-0,-0,0.07,,69,0,4,28,99,0.637,0.0,113,1.23,11.5,0.0,1,0.0,0.0,0.0,0,0,0,0,1,,,,,,,,,,,,,,,,,,,,
5604,0,,,246,251,236,234,,-0.07,-0.01,0.96,-0,-0,-0,0.07,,69,0,4,28,99,0.636,0.0,113,1.23,11.8,0.0,1,0.0,0.0,0.0,0,0,0,0,1,,,,,,,,,,,,,,,,,,,,
5624,0,,,246,251,236,233,,-0.07,-0.01,0.98,-0,-0,-0,0.07,,69,0,4,28,98,0.637,0.0,116,1.23,11.7,0.0,1,0.0,0.0,0.0,0,0,0,0,1,,,,,,,,,,,,,,,,,,,,
5644,0,-0,3,246,251,236,233,7,-0.07,-0.0,0.97,-0,-0,-0,0.07,1,69,0,4,28,99,0.637,0.0,115,1.22,11.4,0.0,1,0.0,0.0,0.0,0,0,0,0,1,0,250,250,0,0.0,0.0,0.0,0.0,0,0,0.0,0,0.0,-1,0.0,0.0,0.0,0,0.0,0.0941
5664,0,,,246,251,236,233,,-0.07,-0.0,0.97,-0,-0,-0,0.07,,69,0,4,28,99,0.639,0.0,115,1.21,11.6,0.0,1,0.0,0.0,0.0,0,0,0,0,1,,,,,,,,,,,,,,,,,,,,
5684,0,,,246,251,237,233,,-0.07,-0.01,0.96,-0,-0,-0,0.07,,69,0,4,28,98,0.644,0.0,116,1.21,11.8,0.0,1,0.0,0.0,0.0,0,0,0,0,1,,,,,,,,,,,,,,,,,,,,
5704,0,,,246,250,236,233,,-0.07,-0.0,0.96,-0,0,-0,0.07,,69,0,4,28,98,0.648,0.0,116,1.21,11.6,0.0,1,0.0,0.0,0.0,0,0,0,0,1,,,,,,,,,,,,,,,,,,,,
5724,0,,,246,251,236,234,,-0.07,-0.0,0.95,-0,0,-0,0.07,,69,0,4,28,99,0.649,0.0,116,1.21,11.5,0.0,1,0.0,0.0,0.0,0,0,0,0,1,,,,,,,,,,,,,,,,,,,,
5744,0,-1,3,246,251,236,234,7,-0.07,-0.0,0.95,-0,0,-0,0.07,1,69,0,4,28,99,0.651,0.0,116,1.21,11.7,0.0,1,0.0,0.0,0.0,0,0,0,0,1,0,250,250,0,0.0,0.0,0.0,0.0,0,0,0.0,0,0.0,-1,0.0,,0.0,0,0.0,0.0957
5764,0,,,246,251,236,233,,-0.07,-0.0,0.94,-0,-0,-0,0.07,,69,113,4,28,98,0.651,0.0,116,1.21,11.8,0.0,1,14.4,2.09,0.0,0,0,0,1,1,,,,,,,,,,,,,,,,,,,,
5784,0,,,246,251,236,234,,-0.07,-0.0,0.95,-0,-0,-0,0.07,,69,113,4,28,99,0.651,0.0,116,1.41,11.2,0.0,1,14.4,4.65,0.0,0,0,0,1,1,,,,,,,,,,,,,,,,,,,,
5804,0,,,246,251,236,233,,-0.07,-0.0,0.95,-0,-0,-0,0.07,,69,113,4,28,99,0.652,0.0,116,3.27,11.5,0.0,1,14.4,4.65,0.0,0,0,0,1,1,,,,,,,,,,,,,,,,,,,,
5824,0,,,246,251,236,233,,-0.06,-0.0,0.95,-0,-0,-0,0.06,,69,113,4,28,98,0.655,0.0,116,4.76,11.7,0.0,1,14.4,4.65,0.0,0,0,0,1,1,,,,,,,,,,,,,,,,,,,,
5844,0,1,2,246,251,236,233,7,-0.07,-0.0,0.95,-0,-0,-0,0.07,1,69,443,4,28,98,0.656,0.0,118,4.83,11.4,0.0,1,14.4,2.06,0.0,0,0,0,1,1,0,250,250,0,0.0,0.0,0.0,0.0,0,0,0.0,0,0.0,-1,0.0,0.0,0.0,0,0.0,0.0974
5864,0,,,246,251,236,233,,-0.07,-0.0,0.95,-0,-0,-0,0.07,,69,443,4,28,99,0.657,0.0,118,4.85,11.5,0.0,1,14.4,4.65,0.9,0,0,0,1,1,,,,,,,,,,,,,,,,,,,,
5884,0,,,246,251,236,233,,-0.07,-0.0,0.96,-0,-0,-0,0.07,,69,443,4,28,99,0.658,0.0,118,4.86,11.7,0.0,1,14.4,2.09,0.9,0,0,0,1,1,,,,,,,,,,,,,,,,,,,,
5904,0,,,246,251,236,234,,-0.07,-0.0,0.96,-0,-0,-0,0.07,,69,447,4,28,98,0.658,0.0,119,4.85,11.5,0.0,1,14.4,4.65,0.9,0,0,0,1,1,,,,,,,,,,,,,,,,,,,,
5924,0,,,246,251,236,234,,-0.07,-0.0,0.96,-0,-0,-0,0.07,,69,447,4,28,99,0.658,0.0,120,4.85,11.4,0.0,1,14.4,4.65,0.9,0,0,0,1,1,,,,,,,,,,,,,,,,,,,,
5944,0,1,3,246,251,236,234,6,-0.07,-0.01,0.96,-0,-0,-0,0.07,1,69,447,4,28,99,0.658,0.0,120,4.85,11.6,0.0,1,14.4,2.09,0.9,0,0,0,1,1,0,250,250,0,0.0,0.0,0.0,0.0,0,0,0.0,0,0.0,-1,0.0,,0.0,0,0.0,0.0991
5964,0,,,246,250,236,233,,-0.07,-0.0,0.97,-0,-0,-0,0.07,,69,450,4,28,98,0.658,0.0,121,4.85,11.7,0.0,1,17.0,4.65,0.9,0,0,0,1,1,,,,,,,,,,,,,,,,,,,,
5984,0,,,246,250,236,233,,-0.07,-0.01,0.96,-0,-0,-0,0.07,,69,450,7,28,99,0.658,0.0,121,4.85,11.3,0.0,1,17.0,4.65,0.9,0,0,0,1,1,,,,,,,,,,,,,,,,,,,,
6004,0,,,246,251,237,233,,-0.06,-0.0,0.97,-0,-0,-0,0.06,,69,450,16,28,99,0.658,0.0,121,4.85,11.5,0.0,1,30.0,4.65,0.9,0,0,0,1,1,,,,,,,,,,,,,,,,,,,,
6024,0,,,246,251,236,234,,-0.07,-0.01,0.96,-0,-0,-0,0.07,,69,450,27,28,99,0.658,0.0,121,4.85,11.7,0.0,1,30.0,8.15,0.9,0,0,0,1,1,,,,,,,,,,,,,,,,,,,,
6044,0,0,3,246,251,236,233,7,-0.06,-0.01,0.99,-0,-0,-0,0.06,1,69,451,36,28,99,0.655,0.0,118,4.81,11.2,0.0,1,30.0,2.09,0.9,0,0,0,1,1,0,250,250,0,0.0,0.0,0.0,0.0,0,0,0.0,0,0.0,-1,0.0,0.0,0.0,0,0.0,0.1007
6064,0,,,246,251,236,233,,-0.07,-0.01,0.98,-0,-1,-0,0.07,,69,451,43,28,99,0.653,0.0,121,4.85,11.6,0.0,1,30.0,8.15,1.6,0,0,0,1,1,,,,,,,,,,,,,,,,,,,,
6084,0,,,246,251,236,234,,-0.06,-0.01,0.99,-0,-0,-0,0.06,,69,676,47,28,100,0.651,0.0,122,4.83,11.8,0.0,1,30.0,8.15,1.6,0,0,0,1,1,,,,,,,,,,,,,,,,,,,,
6104,0,,,246,251,236,234,,-0.07,-0.01,0.97,-0,-0,-0,0.07,,69,1260,50,28,99,0.649,0.0,127,4.83,11.7,0.0,1,32.0,8.15,1.6,0,0,0,1,1,,,,,,,,,,,,,,,,,,,,
6124,0,,,246,251,237,233,,-0.07,-0.01,0.96,-0,-0,-0,0.07,,69,1460,51,28,98,0.643,0.0,129,4.82,11.8,0.0,1,33.6,2.09,1.6,0,0,0,1,1,,,,,,,,,,,,,,,,,,,,
6144,0,1,2,246,250,236,234,6,-0.07,-0.01,0.95,-0,-1,-0,0.07,1,69,1319,53,28,98,0.635,0.0,127,4.78,11.5,0.0,1,32.5,2.09,1.6,0,0,0,1,1,0,250,250,0,0.0,0.0,0.0,0.0,0,0,0.0,0,0.0,-1,0.0,,0.0,0,0.0,0.1024
6164,0,,,246,251,236,233,,-0.07,-0.01,0.95,-0,-0,-0,0.07,,69,1319,54,29,98,0.624,0.0,124,4.7,11.2,0.0,1,32.5,8.15,4.9,0,0,0,1,1,,,,,,,,,,,,,,,,,,,,
6184,0,,,246,251,236,233,,-0.08,-0.01,0.95,-0,-1,-0,0.08,,69,1163,54,29,98,0.614,0.0,122,4.72,10.9,0.0,1,31.3,2.09,4.9,0,0,0,1,1,,,,,,,,,,,,,,,,,,,,
6204,0,,,246,251,237,234,,-0.08,-0.01,0.91,-0,-0,-0,0.08,,69,983,54,29,98,0.601,0.0,123,4.73,10.9,0.0,1,30.0,2.09,4.9,0,0,0,1,1,,,,,,,,,,,,,,,,,,,,
6224,0,,,246,251,237,233,,-0.07,-0.0,0.99,-0,0,-0,0.08,,69,983,54,29,97,0.589,0.0,123,4.72,10.7,0.0,1,28.6,8.15,4.9,0,0,0,1,1,,,,,,,,,,,,,,,,,,,,
6244,0,1,1,246,251,236,234,7,-0.08,0.0,1.02,-0,1,-0,0.08,1,69,849,54,29,98,0.577,0.0,121,4.72,10.8,0.0,1,30.0,2.06,4.9,0,0,0,1,1,0,250,250,0,0.0,0.0,0.0,0.0,0,0,0.0,0,0.0,-1,0.0,0.0,0.0,0,0.0,0.1041
6264,0,,,246,251,236,233,,-0.08,0.01,1.07,-0,1,-0,0.08,,69,1407,54,29,98,0.567,0.0,128,4.7,10.8,0.0,1,33.2,6.82,4.4,0,0,0,1,1,,,,,,,,,,,,,,,,,,,,
6284,0,,,246,251,237,233,,-0.07,0.01,1.06,-0,0,-0,0.07,,69,1864,50,29,97,0.556,0.0,134,4.72,10.9,0.0,1,32.6,6.73,4.4,0,0,0,1,1,,,,,,,,,,,,,,,,,,,,
6304,0,,,246,251,236,234,,-0.07,0.01,1.08,-0,0,-1,0.07,,69,2230,44,28,98,0.549,0.0,151,4.78,11.6,0.0,1,34.0,5.86,4.4,0,0,0,1,1,,,,,,,,,,,,,,,,,,,,
6324,0,,,246,251,236,234,,-0.07,0.0,1.03,-0,0,-0,0.07,,69,2158,42,28,98,0.542,0.0,161,4.76,11.6,0.0,1,34.0,5.79,4.4,0,0,0,1,1,,,,,,,,,,,,,,,,,,,,
6344,0,1,3,246,250,236,234,6,-0.05,0.01,1.11,-0,-0,-1,0.05,1,69,2530,42,28,98,0.536,0.0,171,4.79,11.7,0.0,1,33.9,5.85,4.4,0,0,0,1,1,0,250,250,0,0.0,0.0,0.0,0.0,0,0,0.0,0,0.0,-1,0.0,,0.0,0,0.0,0.1057
6364,0,,,246,251,236,233,,-0.06,-0.0,1.09,-0,-1,-1,0.06,,69,3092,42,28,98,0.53,0.0,191,4.8,12.0,0.0,1,31.0,7.27,10.2,0,0,0,1,1,,,,,,,,,,,,,,,,,,,,
6384,0,,,246,251,237,233,,-0.07,0.01,1.28,-0,-0,-1,0.07,,69,3871,42,28,98,0.535,0.0,226,4.83,12.3,0.0,1,34.6,8.19,10.2,0,0,0,1,1,,,,,,,,,,,,,,,,,,,,
6404,0,,,246,251,236,233,,-0.12,0.04,1.28,-0,-0,-1,0.12,,69,4381,42,28,98,0.542,0.0,265,4.83,12.3,0.0,1,38.5,7.79,10.2,0,0,0,1,1,,,,,,,,,,,,,,,,,,,,
6424,0,,,246,249,236,234,,-0.16,0.05,1.49,-0,-1,-2,0.17,,69,4896,46,28,98,0.551,0.0,319,4.85,12.3,0.0,1,42.1,7.19,10.2,0,0,0,1,1,,,,,,,,,,,,,,,,,,,,
6444,0,1,1,246,250,236,234,7,-0.07,0.01,1.37,-0,-2,-4,0.07,1,69,5343,53,28,98,0.561,0.0,398,4.85,12.5,0.0,1,41.8,7.95,10.2,0,0,0,1,1,0,250,250,0,0.0,0.0,0.0,0.0,0,0,0.0,0,0.0,-1,0.0,0.0,0.0,0,0.0,0.1074
6464,0,,,246,251,236,233,,0.03,0.08,1.57,-0,-11,-10,0.09,,69,6081,57,28,97,0.569,0.0,502,4.81,12.4,0.0,1,40.5,11.2,24.7,0,0,0,1,1,,,,,,,,,,,,,,,,,,,,
6484,0,,,246,251,236,234,,-0.01,0.1,1.45,-0,-8,-7,0.1,,69,6903,58,28,97,0.577,0.0,620,4.77,12.2,0.0,1,49.0,9.19,24.7,0,0,0,1,1,,,,,,,,,,,,,,,,,,,,
6504,0,,,246,251,236,234,,-0.01,0.1,1.57,-0,-8,-8,0.11,,69,7239,58,28,96,0.585,0.0,655,4.81,12.3,0.0,1,46.6,9.09,24.7,0,0,0,1,1,,,,,,,,,,,,,,,,,,,,
6524,0,,,246,251,237,233,,-0.03,0.08,1.61,-0,-8,-7,0.08,,69,7473,58,28,96,0.592,0.0,658,4.8,12.4,0.0,1,43.1,8.98,24.7,0,0,0,1,1,,,,,,,,,,,,,,,,,,,,
6544,0,1,2,246,251,236,234,7,-0.04,0.07,1.48,-0,-7,-5,0.08,1,69,8285,57,28,95,0.6,0.0,665,4.77,12.2,0.0,1,39.8,10.24,24.7,0,0,0,1,1,0,250,250,0,0.0,0.0,0.0,0.0,0,0,0.0,0,0.0,-1,0.0,,0.0,0,0.0,0.1091
6564,0,,,247,251,236,234,,-0.03,0.11,1.37,-0,-5,-1,0.12,,69,9005,51,28,92,0.606,0.0,682,4.71,12.2,0.0,1,38.7,10.51,43.9,0,0,0,1,1,,,,,,,,,,,,,,,,,,,,
6584,0,,,246,251,236,233,,-0.02,0.1,1.31,0,-4,1,0.1,,69,9659,41,28,90,0.609,0.0,694,4.77,12.1,0.0,1,39.2,9.97,43.9,0,0,0,1,1,,,,,,,,,,,,,,,,,,,,
6604,0,,,246,251,236,233,,-0.03,0.09,1.52,0,-5,0,0.09,,69,9852,26,28,85,0.614,0.0,702,4.71,12.7,0.0,1,39.2,8.27,43.9,0,0,0,1,1,,,,,,,,,,,,,,,,,,,,
6624,0,,,246,251,236,234,,-0.01,0.06,1.49,0,-4,1,0.06,,69,9699,14,28,76,0.615,0.0,700,4.75,12.8,0.0,1,40.9,3.58,43.9,0,0,0,1,1,,,,,,,,,,,,,,,,,,,,
6644,0,-1,3,246,251,237,233,8,-0.04,0.05,1.43,-0,-4,-2,0.06,1,69,9474,8,28,68,0.613,0.0,698,4.85,12.8,0.0,1,41.5,2.58,43.9,0,0,0,1,1,0,250,250,0,0.0,0.0,0.0,0.0,0,0,0.0,0,0.0,-1,0.0,0.0,0.0,0,0.0,0.1107
6664,0,,,246,251,236,233,,-0.05,0.02,1.32,-0,-2,-1,0.05,,69,9250,5,28,62,0.611,0.0,697,4.82,12.9,0.0,1,40.6,2.34,18.4,0,0,0,1,1,,,,,,,,,,,,,,,,,,,,
6684,0,,,246,251,236,234,,-0.06,-0.02,1.25,-0,-3,0,0.07,,69,9023,5,28,56,0.611,0.0,691,4.77,12.8,0.0,1,39.9,3.82,18.4,0,0,0,1,1,,,,,,,,,,,,,,,,,,,,
6704,0,,,246,251,236,233,,-0.09,-0.06,1.16,-0,-2,2,0.1,,69,8794,4,28,53,0.61,0.0,687,4.91,12.9,0.0,1,39.1,3.45,18.4,0,0,0,1,1,,,,,,,,,,,,,,,,,,,,
6724,0,,,246,251,236,233,,-0.09,-0.1,1.29,-0,-2,-1,0.13,,69,8565,4,28,50,0.61,0.0,682,4.85,13.0,0.0,1,37.9,3.02,18.4,0,0,0,1,1,,,,,,,,,,,,,,,,,,,,
6744,0,-1,3,246,250,236,234,7,-0.08,-0.06,1.19,-0,-1,-0,0.1,1,69,8333,4,28,48,0.611,0.0,676,4.86,12.9,0.0,1,37.0,2.8,18.4,0,0,0,1,1,0,250,250,0,0.0,0.0,0.0,0.0,0,0,0.0,0,0.0,-1,0.0,,0.0,0,0.0,0.1124
6764,0,,,246,251,236,234,,-0.08,-0.1,1.4,-0,-3,-2,0.13,,69,8130,4,28,46,0.613,0.0,678,4.82,13.0,0.0,1,36.0,2.49,9.5,0,0,0,1,1,,,,,,,,,,,,,,,,,,,,
6784,0,,,246,250,236,233,,-0.1,-0.05,1.3,-0,-2,-0,0.11,,69,7924,4,28,44,0.615,0.0,670,4.89,13.0,0.0,1,34.3,1.2,9.5,0,0,0,1,1,,,,,,,,,,,,,,,,,,,,
6804,0,,,246,251,236,234,,-0.11,0.0,1.2,-0,-1,0,0.11,,69,7668,4,28,43,0.617,0.0,667,4.82,12.8,0.0,1,33.2,2.31,9.5,0,0,0,1,1,,,,,,,,,,,,,,,,,,,,
6824,0,,,246,251,236,234,,-0.1,0.02,1.24,-0,-0,2,0.1,,69,7455,4,28,42,0.62,0.0,665,4.78,12.8,0.0,1,32.4,2.3,9.5,0,0,0,1,1,,,,,,,,,,,,,,,,,,,,
6844,0,0,3,246,251,236,233,8,-0.12,0.03,1.15,-0,1,3,0.12,1,69,7290,4,28,43,0.622,0.0,661,4.91,13.0,0.0,1,32.5,2.29,9.5,0,0,0,1,1,0,250,250,0,0.0,0.0,0.0,0.0,0,0,0.0,0,0.0,-1,0.0,0.0,0.0,0,0.0,0.1141
6864,0,,,246,250,236,234,,-0.12,0.04,1.06,-0,-1,0,0.13,,69,7064,4,28,42,0.625,0.0,656,4.92,13.0,0.0,1,31.9,1.15,7.5,0,0,0,1,1,,,,,,,,,,,,,,,,,,,,
6884,0,,,246,251,236,234,,-0.08,0.05,1.29,-0,1,2,0.09,,69,6848,4,28,42,0.627,0.0,656,4.82,13.1,0.0,1,31.6,2.29,7.5,0,0,0,1,1,,,,,,,,,,,,,,,,,,,,
6904,0,,,246,251,236,233,,-0.12,0.04,1.19,-0,-2,-1,0.13,,69,6703,4,28,42,0.63,0.0,650,4.82,13.0,0.0,1,31.3,2.29,7.5,0,0,0,1,1,,,,,,,,,,,,,,,,,,,,
6924,0,,,246,251,236,234,,-0.13,0.04,1.15,-0,2,4,0.13,,69,6499,4,28,43,0.631,0.0,649,4.77,13.0,0.0,1,31.2,2.3,7.5,0,0,0,1,1,,,,,,,,,,,,,,,,,,,,
6944,0,-1,2,246,250,236,234,7,-0.06,0.03,1.37,0,2,3,0.07,1,69,6319,4,28,43,0.632,0.0,649,4.77,13.0,0.0,1,31.0,2.3,7.5,0,0,0,1,1,0,250,250,0,0.0,0.0,0.0,0.0,0,0,0.0,0,0.0,-1,0.0,,0.0,0,0.0,0.1157
6964,0,,,246,251,236,233,,0.0,0.01,1.57,-0,-2,-1,0.01,,69,6204,4,28,43,0.635,0.0,646,4.91,13.1,0.0,1,30.8,1.17,6.6,0,0,0,1,1,,,,,,,,,,,,,,,,,,,,
6984,0,,,246,251,237,233,,0.05,-0.01,1.68,-0,-6,-5,0.05,,69,6058,4,28,44,0.637,0.0,640,4.89,13.1,0.0,1,30.7,1.18,6.6,0,0,0,1,1,,,,,,,,,,,,,,,,,,,,
7004,0,,,246,251,236,234,,0.1,-0.01,1.86,-0,-10,-9,0.1,,69,5874,4,28,44,0.639,0.0,638,4.87,13.2,0.0,1,30.3,2.38,6.6,0,0,0,1,1,,,,,,,,,,,,,,,,,,,,
7024,0,,,246,251,236,233,,0.15,0.05,2.03,-0,-11,-11,0.16,,69,5676,4,28,45,0.641,0.0,630,4.84,13.1,0.0,1,30.2,2.47,6.6,0,0,0,1,1,,,,,,,,,,,,,,,,,,,,
7044,0,-2,5,246,250,237,233,7,0.05,0.06,1.89,0,-2,-3,0.08,1,69,5476,4,28,46,0.64,0.0,625,4.81,12.9,0.0,1,30.0,2.57,6.6,0,0,0,1,1,0,250,250,0,0.0,0.0,0.0,0.0,0,0,0.0,0,0.0,-1,0.0,0.0,0.0,0,0.0,0.1174
7064,0,,,246,250,236,234,,0.05,-0.01,1.75,-0,-4,-5,0.06,,69,5335,4,27,47,0.64,0.0,617,4.86,13.2,0.0,1,30.1,1.52,6.5,0,0,0,1,1,,,,,,,,,,,,,,,,,,,,
7084,0,,,246,251,236,233,,0.02,0.02,1.92,-0,-2,-4,0.03,,69,5175,4,27,47,0.641,0.0,599,4.8,12.8,0.0,1,29.8,2.75,6.5,0,0,0,1,1,,,,,,,,,,,,,,,,,,,,
7104,0,,,246,250,236,233,,0.06,-0.03,1.77,-0,-3,-5,0.07,,69,5106,4,27,48,0.642,0.0,600,4.86,13.2,0.0,1,30.0,2.79,6.5,0,0,0,1,1,,,,,,,,,,,,,,,,,,,,
7124,0,,,246,250,236,234,,0.01,-0.03,1.78,-0,0,-2,0.03,,69,4990,4,27,49,0.642,0.0,583,4.82,13.1,0.0,1,30.0,1.7,6.5,0,0,0,1,1,,,,,,,,,,,,,,,,,,,,
7144,0,0,3,246,251,236,234,6,-0.01,0.0,1.95,-0,-1,-3,0.01,1,69,4858,4,27,49,0.643,0.0,570,4.81,13.0,0.0,1,28.4,2.77,6.5,0,0,0,1,1,0,250,250,0,0.0,0.0,0.0,0.0,0,0,0.0,0,0.0,-1,0.0,,0.0,0,0.0,0.1191
7164,0,,,246,250,237,233,,0.01,-0.0,1.86,-0,-3,-4,0.01,,69,4862,4,27,50,0.644,0.0,576,4.86,13.2,0.0,1,28.8,2.79,6.3,0,0,0,1,1,,,,,,,,,,,,,,,,,,,,
7184,0,,,246,251,237,233,,0.04,-0.03,1.72,-0,-2,-4,0.05,,69,4738,4,27,51,0.645,0.0,561,4.83,13.2,0.0,1,27.6,2.73,6.3,0,0,0,1,1,,,,,,,,,,,,,,,,,,,,
7204,0,,,246,250,236,233,,0.05,-0.04,1.59,-0,-1,-3,0.07,,69,4668,4,27,52,0.645,0.0,547,4.84,13.2,0.0,1,27.0,1.54,6.3,0,0,0,1,1,,,,,,,,,,,,,,,,,,,,
7224,0,,,246,251,236,234,,0.05,-0.06,1.46,-0,-1,-2,0.08,,69,4657,4,27,52,0.644,0.0,547,4.85,13.2,0.0,1,26.9,2.68,6.3,0,0,0,1,1,,,,,,,,,,,,,,,,,,,,
7244,0,1,2,246,251,236,234,7,0.05,-0.06,1.35,-0,-0,-1,0.07,1,69,4579,4,27,52,0.643,0.0,530,4.82,13.1,0.0,1,25.9,1.47,6.3,0,0,0,1,1,0,250,250,0,0.0,0.0,0.0,0.0,0,0,0.0,0,0.0,-1,0.0,0.0,0.0,0,0.0,0.1207
7264,0,,,246,251,237,233,,0.02,-0.05,1.25,-0,1,0,0.05,,69,4570,4,27,53,0.642,0.0,532,4.86,13.0,0.0,1,26.1,1.48,5.5,0,0,0,1,1,,,,,,,,,,,,,,,,,,,,
7284,0,,,246,249,236,234,,0.0,-0.05,1.15,-0,1,2,0.05,,69,4488,4,27,53,0.643,0.0,518,4.82,13.1,0.0,1,25.1,1.42,5.5,0,0,0,1,1,,,,,,,,,,,,,,,,,,,,
7304,0,,,246,249,237,233,,-0.01,-0.07,1.06,-0,2,3,0.07,,69,4481,4,27,54,0.645,0.0,519,4.87,13.0,0.0,1,25.3,1.42,5.5,0,0,0,1,1,,,,,,,,,,,,,,,,,,,,
7324,0,,,246,251,237,233,,-0.01,-0.09,0.98,-0,3,4,0.09,,69,4436,5,27,54,0.644,0.0,520,4.87,13.1,0.0,1,24.7,2.54,5.5,0,0,0,1,1,,,,,,,,,,,,,,,,,,,,
7344,0,1,2,246,250,236,234,7,-0.01,-0.1,0.9,-0,4,5,0.1,1,69,4473,8,27,55,0.646,0.0,500,4.86,13.1,0.0,1,25.4,1.43,5.5,0,0,0,1,1,0,250,250,0,0.0,0.0,0.0,0.0,0,0,0.0,0,0.0,-1,0.0,,0.0,0,0.0,0.1224
7364,0,,,246,249,236,233,,-0.0,-0.11,0.83,-0,4,6,0.11,,69,4482,14,27,58,0.645,0.0,521,4.87,13.1,0.0,1,26.3,1.46,5.3,0,0,0,1,1,,,,,,,,,,,,,,,,,,,,
7384,0,,,246,250,237,234,,-0.0,-0.12,0.77,0,5,7,0.12,,69,4537,21,27,64,0.644,0.0,511,4.84,13.2,0.0,1,28.7,4.45,5.3,0,0,0,1,1,,,,,,,,,,,,,,,,,,,,
7404,0,,,246,251,236,234,,-0.04,-0.1,0.71,0,6,8,0.11,,69,4714,26,27,72,0.644,0.0,528,4.8,13.1,0.0,1,33.8,5.27,5.3,0,0,0,1,1,,,,,,,,,,,,,,,,,,,,
7424,0,,,246,251,236,234,,-0.07,-0.07,0.96,0,5,7,0.1,,69,4930,28,27,79,0.644,0.0,546,4.85,12.8,0.0,1,38.2,6.01,5.3,0,0,0,1,1,,,,,,,,,,,,,,,,,,,,
7444,0,0,2,246,249,236,234,6,-0.01,-0.1,0.89,-0,4,5,0.1,1,69,5206,28,27,85,0.644,0.0,564,4.84,13.1,0.0,1,40.7,2.74,5.3,0,0,0,1,1,0,250,250,0,0.0,0.0,0.0,0.0,0,0,0.0,0,0.0,-1,0.0,0.0,0.0,0,0.0,0.1241
7464,0,,,246,251,236,233,,-0.01,-0.03,1.13,-0,4,5,0.03,,69,5598,28,27,88,0.644,0.0,598,4.81,12.9,0.0,1,40.5,7.59,18.6,0,0,0,1,1,,,,,,,,,,,,,,,,,,,,
7484,0,,,246,251,236,234,,-0.06,-0.05,1.04,0,9,11,0.07,,69,6056,28,27,89,0.642,0.0,635,4.78,13.0,0.0,1,39.9,3.73,18.6,0,0,0,1,1,,,,,,,,,,,,,,,,,,,,
7504,0,,,246,249,236,234,,0.01,-0.06,1.27,0,7,9,0.06,,69,6562,28,27,89,0.641,0.0,647,4.76,13.0,0.0,1,44.9,7.77,18.6,0,0,0,1,1,,,,,,,,,,,,,,,,,,,,
7524,0,,,246,249,236,233,,-0.01,-0.09,1.17,0,8,10,0.09,,69,7256,23,27,88,0.64,0.0,645,4.85,12.9,0.0,1,45.5,7.49,18.6,0,0,0,1,1,,,,,,,,,,,,,,,,,,,,
7544,0,0,2,246,251,236,234,7,0.01,-0.08,1.25,0,7,9,0.08,1,69,7719,14,27,83,0.638,0.0,666,4.75,13.0,0.0,1,38.3,3.42,18.6,0,0,0,1,1,0,250,250,0,0.0,0.0,0.0,0.0,0,0,0.0,0,0.0,-1,0.0,,0.0,0,0.0,0.1257
7564,0,,,246,251,236,233,,-0.01,-0.09,1.35,-0,5,7,0.09,,69,8194,6,27,75,0.636,0.0,675,4.77,13.0,0.0,1,40.2,3.08,27.7,0,0,0,1,1,,,,,,,,,,,,,,,,,,,,
7584,0,,,246,251,236,234,,-0.01,-0.13,1.38,-0,5,5,0.13,,69,8708,4,27,66,0.636,0.0,685,4.83,13.1,0.0,1,42.6,3.55,27.7,0,0,0,1,1,,,,,,,,,,,,,,,,,,,,
7604,0,,,246,250,236,234,,-0.04,-0.17,1.38,-0,5,3,0.17,,69,9150,4,27,58,0.635,0.0,694,4.77,12.9,0.0,1,40.0,2.28,27.7,0,0,0,1,1,,,,,,,,,,,,,,,,,,,,
7624,0,,,246,251,236,233,,-0.07,-0.24,1.32,-0,5,1,0.25,,69,9407,4,27,51,0.634,0.0,693,4.75,13.0,0.0,1,39.0,3.31,27.7,0,0,0,1,1,,,,,,,,,,,,,,,,,,,,
7644,0,-0,2,246,251,236,233,6,-0.06,-0.2,1.22,-1,5,1,0.21,1,69,9595,4,27,46,0.633,0.0,696,4.96,13.0,0.0,1,37.2,3.03,27.7,0,0,0,1,1,0,250,250,0,0.0,0.0,0.0,0.0,0,0,0.0,0,0.0,-1,0.0,0.0,0.0,0,0.0,0.1274
7664,0,,,246,250,236,233,,-0.07,-0.27,1.43,-0,4,1,0.27,,69,9566,4,27,43,0.631,0.0,705,4.82,13.0,0.0,1,35.0,2.88,12.9,0,0,0,1,1,,,,,,,,,,,,,,,,,,,,
7684,0,,,246,249,236,233,,-0.1,-0.24,1.61,-1,3,-2,0.26,,69,9319,4,27,40,0.631,0.0,700,4.78,13.0,0.0,1,32.7,2.82,12.9,0,0,0,1,1,,,,,,,,,,,,,,,,,,,,
7704,0,,,246,249,236,233,,-0.13,-0.27,1.71,-1,0,-5,0.3,,69,9071,4,27,38,0.629,0.0,694,4.87,13.0,0.0,1,31.7,1.57,12.9,0,0,0,1,1,,,,,,,,,,,,,,,,,,,,
7724,0,,,246,250,236,234,,-0.15,-0.31,1.86,-1,0,-9,0.34,,69,8831,4,27,37,0.628,0.0,683,4.83,13.1,0.0,1,31.4,2.68,12.9,0,0,0,1,1,,,,,,,,,,,,,,,,,,,,
7744,0,0,1,246,251,236,233,7,-0.16,-0.35,2.02,-1,-1,-11,0.38,1,69,8585,4,27,36,0.629,0.0,689,4.8,13.1,0.0,1,31.1,2.64,12.9,0,0,0,1,1,0,250,250,0,0.0,0.0,0.0,0.0,0,0,0.0,0,0.0,-1,0.0,,0.0,0,0.0,0.1291
7764,0,,,246,249,236,233,,-0.14,-0.31,1.87,-1,-1,-9,0.34,,69,8348,4,27,36,0.628,0.0,677,4.83,12.9,0.0,1,30.7,2.52,10.0,0,0,0,1,1,,,,,,,,,,,,,,,,,,,,
7784,0,,,246,249,236,234,,-0.13,-0.34,1.88,-1,-1,-9,0.37,,69,8134,4,27,36,0.629,0.0,677,4.83,13.1,0.0,1,30.3,2.29,10.0,0,0,0,1,1,,,,,,,,,,,,,,,,,,,,
