"Interval"|"ms"|0|0|1,"Utc"|"ms"|0|0|1,"Brake_F"|"Bar"|0|2000|10,"Brake_R"|"Bar"|0|2000|10,"Height_RF"|"mm"|0|255|50,"Height_LF"|"mm"|0|255|50,"Height_LR"|"mm"|0|80|50,"Height_RR"|"mm"|0|255|50,"Steering"|"deg"|-100|100|10,"AccelX"|"G"|-3.0|3.0|50,"AccelY"|"G"|-3.0|3.0|50,"AccelZ"|"G"|-3.0|3.0|50,"Yaw"|"Deg/Sec"|-120|120|50,"Pitch"|"Deg/Sec"|-120|120|50,"Roll"|"Deg/Sec"|-120|120|50,"Gsum"|"G"|0.0|3.0|50,"Log_Button"|""|0.0|10.0|10,"WaterTemp"|"C"|0|150|50,"RPM"|"tr/min"|0|14000|50,"TPS"|"%"|0|100|50,"AirTemp"|"C"|0|150|50,"MAP"|"KPa"|0|100|50,"Lambda"|""|0.5|1.5|50,"SpeedDTA"|"kph"|0.0|250.0|50,"OilPress"|"KPa"|0|1500|50,"FuelPressur"|"Bar"|0.0|10.0|50,"Batterie"|"V"|0.0|20.0|50,"ConsoKm"|"L/100km"|0.0|200.0|50,"Gear"|""|0|6|50,"AdvIgnition"|"Deg"|-20.0|70.0|50,"Injection"|"ms"|0.0|10.0|50,"ConsoHr"|"L/Hr"|0.0|10000.0|50,"LC_But_Pres"|""|0|1|50,"LC_Active"|""|0|1|50,"TractionOn"|""|0|1|50,"TractionWet"|""|0|1|50,"FanOn"|""|0|1|50,"RD_Speed"|"km/h"|-30|250|10,"RUD_Speed"|"km/h"|-30|250|10,"LD_Speed"|"km/h"|-30|250|10,"LUD_Speed"|"km/h"|-30|250|10,"Latitude"|"Degrees"|-180.0|180.0|10,"Longitude"|"Degrees"|-180.0|180.0|10,"Speed"|"kph"|0.0|150.0|10,"Altitude"|"m"|0.0|4000.0|10,"GPSSats"|""|0|20|10,"GPSQual"|""|0|5|10,"GPSDOP"|""|0.0|20.0|10,"LapCount"|""|0|0|10,"LapTime"|"Min"|0.0|0.0|10,"Sector"|""|0|0|10,"SectorTime"|"Min"|0.0|0.0|10,"PredTime"|"Min"|0.0|0.0|5,"ElapsedTime"|"Min"|0.0|0.0|10,"CurrentLap"|""|0|0|10,"Distance"|"km"|0.0|0.0|10,"SessionTime"|"Min"|0.0|0.0|10
64,0,,,248,252,235,230,,-0.05,-0.02,1.0,-0,-0,-0,0.05,,0,0,0,0,0,0.0,0.0,0,0.0,0.0,0.0,0,0.0,0.0,0.0,0,0,0,0,0,,,,,,,,,,,,,,,,,,,,
84,0,,,248,253,235,231,,-0.05,-0.02,0.99,-0,-0,-0,0.05,,0,0,0,0,0,0.0,0.0,0,0.0,0.0,0.0,0,0.0,0.0,0.0,0,0,0,0,0,,,,,,,,,,,,,,,,,,,,
104,0,,,248,252,235,231,,-0.05,-0.02,0.99,-0,-0,-0,0.06,,0,0,0,0,0,0.0,0.0,0,0.0,0.0,0.0,0,0.0,0.0,0.0,0,0,0,0,0,,,,,,,,,,,,,,,,,,,,
124,0,,,248,252,235,231,,-0.05,-0.02,0.99,-0,-0,-0,0.06,,0,0,0,0,0,0.0,0.0,0,0.0,0.0,0.0,0,0.0,0.0,0.0,0,0,0,0,0,,,,,,,,,,,,,,,,,,,,
144,0,1,3,248,252,235,230,-3,-0.05,-0.02,0.99,-0,-0,-0,0.06,1,0,0,0,0,0,0.0,0.0,0,0.0,0.0,0.0,0,0.0,0.0,0.0,0,0,0,0,0,0,0,0,0,0.0,0.0,0.0,0.0,0,0,0.0,0,0.0,-1,0.0,,0.0,0,0.0,0.0024
164,0,,,248,252,235,231,,-0.05,-0.02,0.99,-0,-0,-0,0.06,,0,0,0,0,0,0.0,0.0,0,0.0,0.0,0.0,0,0.0,0.0,0.0,0,0,0,0,0,,,,,,,,,,,,,,,,,,,,
184,0,,,248,253,235,231,,-0.05,-0.02,0.99,-0,-0,-0,0.05,,0,0,0,0,0,0.0,0.0,0,0.0,0.0,0.0,0,0.0,0.0,0.0,0,0,0,0,0,,,,,,,,,,,,,,,,,,,,
204,0,,,248,253,235,231,,-0.05,-0.02,0.99,-0,-0,-0,0.05,,0,0,0,0,0,0.0,0.0,0,0.0,0.0,0.0,0,0.0,0.0,0.0,0,0,0,0,0,,,,,,,,,,,,,,,,,,,,
224,0,,,248,253,235,231,,-0.05,-0.02,0.98,-0,-0,-0,0.05,,0,0,0,0,0,0.0,0.0,0,0.0,0.0,0.0,0,0.0,0.0,0.0,0,0,0,0,0,,,,,,,,,,,,,,,,,,,,
244,0,3,3,248,252,235,231,-3,-0.05,-0.02,0.98,-0,-0,-0,0.05,1,0,0,0,0,0,0.0,0.0,0,0.0,0.0,0.0,0,0.0,0.0,0.0,0,0,0,0,0,0,0,0,0,0.0,0.0,0.0,0.0,0,0,0.0,0,0.0,-1,0.0,0.0,0.0,0,0.0,0.0041
264,0,,,248,253,235,230,,-0.05,-0.02,0.98,-0,-0,-0,0.05,,0,0,0,0,0,0.0,0.0,0,0.0,0.0,0.0,0,0.0,0.0,0.0,0,0,0,0,0,,,,,,,,,,,,,,,,,,,,
284,0,,,248,253,235,230,,-0.05,-0.02,0.98,-0,-0,-0,0.05,,0,0,0,0,0,0.0,0.0,0,0.0,0.0,0.0,0,0.0,0.0,0.0,0,0,0,0,0,,,,,,,,,,,,,,,,,,,,
304,0,,,248,252,235,231,,-0.05,-0.02,0.98,-0,-0,-0,0.05,,0,0,0,0,0,0.0,0.0,0,0.0,0.0,0.0,0,0.0,0.0,0.0,0,0,0,0,0,,,,,,,,,,,,,,,,,,,,
324,0,,,248,252,235,230,,-0.05,-0.02,0.98,-0,-0,-0,0.05,,0,0,0,0,0,0.0,0.0,0,0.0,0.0,0.0,0,0.0,0.0,0.0,0,0,0,0,0,,,,,,,,,,,,,,,,,,,,
344,0,2,3,248,252,235,230,-3,-0.05,-0.02,0.98,-0,-0,-0,0.05,1,0,0,0,0,0,0.0,0.0,0,0.0,0.0,0.0,0,0.0,0.0,0.0,0,0,0,0,0,0,0,0,0,0.0,0.0,0.0,0.0,0,0,0.0,0,0.0,-1,0.0,,0.0,0,0.0,0.0057
364,0,,,248,252,235,230,,-0.05,-0.02,0.99,-0,-0,-0,0.05,,0,0,0,0,0,0.0,0.0,0,0.0,0.0,0.0,0,0.0,0.0,0.0,0,0,0,0,0,,,,,,,,,,,,,,,,,,,,
384,0,,,248,252,235,231,,-0.05,-0.02,0.99,-0,-0,-0,0.05,,0,0,0,0,0,0.0,0.0,0,0.0,0.0,0.0,0,0.0,0.0,0.0,0,0,0,0,0,,,,,,,,,,,,,,,,,,,,
404,0,,,248,253,235,231,,-0.05,-0.02,0.99,-0,-0,-0,0.05,,0,0,0,0,0,0.0,0.0,0,0.0,0.0,0.0,0,0.0,0.0,0.0,0,0,0,0,0,,,,,,,,,,,,,,,,,,,,
424,0,,,248,253,235,231,,-0.05,-0.02,0.99,-0,-0,-0,0.05,,0,0,0,0,0,0.0,0.0,0,0.0,0.0,0.0,0,0.0,0.0,0.0,0,0,0,0,0,,,,,,,,,,,,,,,,,,,,
444,0,3,3,248,252,235,231,-3,-0.05,-0.02,0.99,-0,-0,-0,0.05,1,0,0,0,0,0,0.0,0.0,0,0.0,0.0,0.0,0,0.0,0.0,0.0,0,0,0,0,0,0,0,0,0,0.0,0.0,0.0,0.0,0,0,0.0,0,0.0,-1,0.0,0.0,0.0,0,0.0,0.0074
464,0,,,248,253,235,231,,-0.05,-0.02,0.99,-0,-0,-0,0.05,,0,0,0,0,0,0.0,0.0,0,0.0,0.0,0.0,0,0.0,0.0,0.0,0,0,0,0,0,,,,,,,,,,,,,,,,,,,,
484,0,,,248,252,235,231,,-0.05,-0.02,0.99,-0,-0,-0,0.06,,0,0,0,0,0,0.0,0.0,0,0.0,0.0,0.0,0,0.0,0.0,0.0,0,0,0,0,0,,,,,,,,,,,,,,,,,,,,
504,0,,,248,253,235,231,,-0.05,-0.02,0.99,-0,-0,-0,0.06,,0,0,0,0,0,0.0,0.0,0,0.0,0.0,0.0,0,0.0,0.0,0.0,0,0,0,0,0,,,,,,,,,,,,,,,,,,,,
524,0,,,248,253,235,231,,-0.05,-0.02,0.99,-0,-0,-0,0.06,,0,0,0,0,0,0.0,0.0,0,0.0,0.0,0.0,0,0.0,0.0,0.0,0,0,0,0,0,,,,,,,,,,,,,,,,,,,,
544,0,3,2,248,252,235,231,-3,-0.05,-0.02,0.99,-0,-0,-0,0.06,1,0,0,0,0,0,0.0,0.0,0,0.0,0.0,0.0,0,0.0,0.0,0.0,0,0,0,0,0,0,0,0,0,0.0,0.0,0.0,0.0,0,0,0.0,0,0.0,-1,0.0,,0.0,0,0.0,0.0091
564,0,,,248,252,235,231,,-0.05,-0.02,0.99,-0,-0,-0,0.06,,0,0,0,0,0,0.0,0.0,0,0.0,0.0,0.0,0,0.0,0.0,0.0,0,0,0,0,0,,,,,,,,,,,,,,,,,,,,
584,0,,,248,252,235,231,,-0.05,-0.02,0.99,-0,-0,-0,0.06,,0,0,0,0,0,0.0,0.0,0,0.0,0.0,0.0,0,0.0,0.0,0.0,0,0,0,0,0,,,,,,,,,,,,,,,,,,,,
604,0,,,248,253,235,231,,-0.05,-0.02,0.99,-0,-0,-0,0.06,,0,0,0,0,0,0.0,0.0,0,0.0,0.0,0.0,0,0.0,0.0,0.0,0,0,0,0,0,,,,,,,,,,,,,,,,,,,,
624,0,,,248,252,235,231,,-0.05,-0.02,0.99,-0,-0,-0,0.06,,0,0,0,0,0,0.0,0.0,0,0.0,0.0,0.0,0,0.0,0.0,0.0,0,0,0,0,0,,,,,,,,,,,,,,,,,,,,
644,0,3,2,248,252,235,231,-3,-0.05,-0.02,0.99,-0,-0,-0,0.05,1,0,0,0,0,0,0.0,0.0,0,0.0,0.0,0.0,0,0.0,0.0,0.0,0,0,0,0,0,0,0,0,0,0.0,0.0,0.0,0.0,0,0,0.0,0,0.0,-1,0.0,0.0,0.0,0,0.0,0.0107
664,0,,,248,253,235,231,,-0.05,-0.02,0.99,-0,-0,-0,0.06,,0,0,0,0,0,0.0,0.0,0,0.0,0.0,0.0,0,0.0,0.0,0.0,0,0,0,0,0,,,,,,,,,,,,,,,,,,,,
684,0,,,248,253,235,231,,-0.05,-0.02,0.99,-0,-0,-0,0.06,,0,0,0,0,0,0.0,0.0,0,0.0,0.0,0.0,0,0.0,0.0,0.0,0,0,0,0,0,,,,,,,,,,,,,,,,,,,,
704,0,,,248,253,235,231,,-0.05,-0.02,0.99,-0,-0,-0,0.06,,0,0,0,0,0,0.0,0.0,0,0.0,0.0,0.0,0,0.0,0.0,0.0,0,0,0,0,0,,,,,,,,,,,,,,,,,,,,
724,0,,,248,252,235,231,,-0.05,-0.02,0.99,-0,-0,-0,0.06,,0,0,0,0,0,0.0,0.0,0,0.0,0.0,0.0,0,0.0,0.0,0.0,0,0,0,0,0,,,,,,,,,,,,,,,,,,,,
744,0,3,3,248,253,235,231,-4,-0.05,-0.02,0.99,-0,-0,-0,0.06,1,0,0,0,0,0,0.0,0.0,0,0.0,0.0,0.0,0,0.0,0.0,0.0,0,0,0,0,0,0,0,0,0,0.0,0.0,0.0,0.0,0,0,0.0,0,0.0,-1,0.0,,0.0,0,0.0,0.0124
764,0,,,248,252,235,231,,-0.05,-0.02,0.99,-0,-0,-0,0.06,,0,0,0,0,0,0.0,0.0,0,0.0,0.0,0.0,0,0.0,0.0,0.0,0,0,0,0,0,,,,,,,,,,,,,,,,,,,,
784,0,,,248,252,235,230,,-0.05,-0.02,0.99,-0,-0,-0,0.06,,0,0,0,0,0,0.0,0.0,0,0.0,0.0,0.0,0,0.0,0.0,0.0,0,0,0,0,0,,,,,,,,,,,,,,,,,,,,
804,0,,,248,252,235,231,,-0.05,-0.02,0.98,-0,-0,-0,0.06,,0,0,0,0,0,0.0,0.0,0,0.0,0.0,0.0,0,0.0,0.0,0.0,0,0,0,0,0,,,,,,,,,,,,,,,,,,,,
824,0,,,248,252,235,231,,-0.05,-0.02,0.98,-0,-0,-0,0.06,,0,0,0,0,0,0.0,0.0,0,0.0,0.0,0.0,0,0.0,0.0,0.0,0,0,0,0,0,,,,,,,,,,,,,,,,,,,,
844,0,2,3,248,253,235,231,-3,-0.05,-0.02,0.98,-0,-0,-0,0.06,1,0,0,0,0,0,0.0,0.0,0,0.0,0.0,0.0,0,0.0,0.0,0.0,0,0,0,0,0,0,0,0,0,0.0,0.0,0.0,0.0,0,0,0.0,0,0.0,-1,0.0,0.0,0.0,0,0.0,0.0141
864,0,,,248,253,235,231,,-0.05,-0.02,0.98,-0,-0,-0,0.06,,0,0,0,0,0,0.0,0.0,0,0.0,0.0,0.0,0,0.0,0.0,0.0,0,0,0,0,0,,,,,,,,,,,,,,,,,,,,
884,0,,,248,252,235,231,,-0.05,-0.02,0.99,-0,-0,-0,0.06,,0,0,0,0,0,0.0,0.0,0,0.0,0.0,0.0,0,0.0,0.0,0.0,0,0,0,0,0,,,,,,,,,,,,,,,,,,,,
904,0,,,248,253,235,231,,-0.05,-0.02,0.99,-0,-0,-0,0.06,,0,0,0,0,0,0.0,0.0,0,0.0,0.0,0.0,0,0.0,0.0,0.0,0,0,0,0,0,,,,,,,,,,,,,,,,,,,,
924,0,,,248,252,235,231,,-0.05,-0.02,0.99,-0,-0,-0,0.06,,0,0,0,0,0,0.0,0.0,0,0.0,0.0,0.0,0,0.0,0.0,0.0,0,0,0,0,0,,,,,,,,,,,,,,,,,,,,
944,0,1,3,248,252,235,230,-3,-0.05,-0.02,0.99,-0,-0,-0,0.06,1,0,0,0,0,0,0.0,0.0,0,0.0,0.0,0.0,0,0.0,0.0,0.0,0,0,0,0,0,0,0,0,0,0.0,0.0,0.0,0.0,0,0,0.0,0,0.0,-1,0.0,,0.0,0,0.0,0.0157
964,0,,,248,252,235,231,,-0.05,-0.02,0.99,-0,-0,-0,0.06,,0,0,0,0,0,0.0,0.0,0,0.0,0.0,0.0,0,0.0,0.0,0.0,0,0,0,0,0,,,,,,,,,,,,,,,,,,,,
984,0,,,248,252,235,231,,-0.05,-0.02,0.98,-0,-0,-0,0.06,,0,0,0,0,0,0.0,0.0,0,0.0,0.0,0.0,0,0.0,0.0,0.0,0,0,0,0,0,,,,,,,,,,,,,,,,,,,,
1004,0,,,248,252,235,230,,-0.05,-0.02,0.98,-0,-0,-0,0.06,,0,0,0,0,0,0.0,0.0,0,0.0,0.0,0.0,0,0.0,0.0,0.0,0,0,0,0,0,,,,,,,,,,,,,,,,,,,,
1024,0,,,248,252,235,231,,-0.05,-0.02,0.98,-0,-0,-0,0.06,,0,0,0,0,0,0.0,0.0,0,0.0,0.0,0.0,0,0.0,0.0,0.0,0,0,0,0,0,,,,,,,,,,,,,,,,,,,,
1044,0,1,3,248,253,235,231,-3,-0.05,-0.02,0.98,-0,-0,-0,0.06,1,0,0,0,0,0,0.0,0.0,0,0.0,0.0,0.0,0,0.0,0.0,0.0,0,0,0,0,0,0,0,0,0,0.0,0.0,0.0,0.0,0,0,0.0,0,0.0,-1,0.0,0.0,0.0,0,0.0,0.0174
1064,0,,,248,253,235,230,,-0.05,-0.02,0.98,-0,-0,-0,0.06,,0,0,0,0,0,0.0,0.0,0,0.0,0.0,0.0,0,0.0,0.0,0.0,0,0,0,0,0,,,,,,,,,,,,,,,,,,,,
1084,0,,,248,252,235,231,,-0.05,-0.02,0.98,-0,-0,-0,0.06,,0,0,0,0,0,0.0,0.0,0,0.0,0.0,0.0,0,0.0,0.0,0.0,0,0,0,0,0,,,,,,,,,,,,,,,,,,,,
1104,0,,,248,253,235,231,,-0.05,-0.02,0.98,-0,-0,-0,0.06,,0,0,0,0,0,0.0,0.0,0,0.0,0.0,0.0,0,0.0,0.0,0.0,0,0,0,0,0,,,,,,,,,,,,,,,,,,,,
1124,0,,,248,253,235,231,,-0.05,-0.02,0.98,-0,-0,-0,0.06,,0,0,0,0,0,0.0,0.0,0,0.0,0.0,0.0,0,0.0,0.0,0.0,0,0,0,0,0,,,,,,,,,,,,,,,,,,,,
1144,0,2,3,248,252,235,230,-3,-0.05,-0.02,0.98,-0,-0,-0,0.06,1,0,0,0,0,0,0.0,0.0,0,0.0,0.0,0.0,0,0.0,0.0,0.0,0,0,0,0,0,0,0,0,0,0.0,0.0,0.0,0.0,0,0,0.0,0,0.0,-1,0.0,,0.0,0,0.0,0.0191
1164,0,,,248,252,235,230,,-0.05,-0.02,0.98,-0,-0,-0,0.06,,0,0,0,0,0,0.0,0.0,0,0.0,0.0,0.0,0,0.0,0.0,0.0,0,0,0,0,0,,,,,,,,,,,,,,,,,,,,
1184,0,,,248,252,235,231,,-0.05,-0.02,0.99,-0,-0,-0,0.06,,0,0,0,0,0,0.0,0.0,0,0.0,0.0,0.0,0,0.0,0.0,0.0,0,0,0,0,0,,,,,,,,,,,,,,,,,,,,
1204,0,,,248,253,235,231,,-0.05,-0.02,0.99,-0,-0,-0,0.06,,0,0,0,0,0,0.0,0.0,0,0.0,0.0,0.0,0,0.0,0.0,0.0,0,0,0,0,0,,,,,,,,,,,,,,,,,,,,
1224,0,,,248,252,235,231,,-0.05,-0.02,0.99,-0,-0,-0,0.06,,0,0,0,0,0,0.0,0.0,0,0.0,0.0,0.0,0,0.0,0.0,0.0,0,0,0,0,0,,,,,,,,,,,,,,,,,,,,
1244,0,3,2,248,252,235,231,-3,-0.05,-0.02,0.99,-0,-0,-0,0.06,1,0,0,0,0,0,0.0,0.0,0,0.0,0.0,0.0,0,0.0,0.0,0.0,0,0,0,0,0,0,0,0,0,0.0,0.0,0.0,0.0,0,0,0.0,0,0.0,-1,0.0,0.0,0.0,0,0.0,0.0207
1264,0,,,248,252,235,231,,-0.05,-0.02,0.99,-0,-0,-0,0.06,,0,0,0,0,0,0.0,0.0,0,0.0,0.0,0.0,0,0.0,0.0,0.0,0,0,0,0,0,,,,,,,,,,,,,,,,,,,,
1284,0,,,248,252,235,231,,-0.05,-0.02,0.99,-0,-0,-0,0.06,,0,0,0,0,0,0.0,0.0,0,0.0,0.0,0.0,0,0.0,0.0,0.0,0,0,0,0,0,,,,,,,,,,,,,,,,,,,,
1304,0,,,248,252,235,231,,-0.05,-0.02,0.98,-0,-0,-0,0.06,,0,0,0,0,0,0.0,0.0,0,0.0,0.0,0.0,0,0.0,0.0,0.0,0,0,0,0,0,,,,,,,,,,,,,,,,,,,,
1324,0,,,248,253,235,231,,-0.05,-0.02,0.99,-0,-0,-0,0.06,,0,0,0,0,0,0.0,0.0,0,0.0,0.0,0.0,0,0.0,0.0,0.0,0,0,0,0,0,,,,,,,,,,,,,,,,,,,,
1344,0,1,3,248,252,235,230,-2,-0.05,-0.02,0.98,-0,-0,-0,0.06,1,0,0,0,0,0,0.0,0.0,0,0.0,0.0,0.0,0,0.0,0.0,0.0,0,0,0,0,0,0,0,0,0,0.0,0.0,0.0,0.0,0,0,0.0,0,0.0,-1,0.0,,0.0,0,0.0,0.0224
1364,0,,,248,252,235,231,,-0.05,-0.02,0.98,-0,-0,-0,0.06,,0,0,0,0,0,0.0,0.0,0,0.0,0.0,0.0,0,0.0,0.0,0.0,0,0,0,0,0,,,,,,,,,,,,,,,,,,,,
1384,0,,,248,253,235,231,,-0.05,-0.02,0.98,-0,-0,-0,0.06,,0,0,0,0,0,0.0,0.0,0,0.0,0.0,0.0,0,0.0,0.0,0.0,0,0,0,0,0,,,,,,,,,,,,,,,,,,,,
1404,0,,,248,252,235,231,,-0.05,-0.02,0.98,-0,-0,-0,0.06,,0,0,0,0,0,0.0,0.0,0,0.0,0.0,0.0,0,0.0,0.0,0.0,0,0,0,0,0,,,,,,,,,,,,,,,,,,,,
1424,0,,,248,253,235,230,,-0.05,-0.02,0.98,-0,-0,-0,0.06,,0,0,0,0,0,0.0,0.0,0,0.0,0.0,0.0,0,0.0,0.0,0.0,0,0,0,0,0,,,,,,,,,,,,,,,,,,,,
1444,0,3,2,248,252,235,231,-3,-0.05,-0.02,0.98,-0,-0,-0,0.06,1,0,0,0,0,0,0.0,0.0,0,0.0,0.0,0.0,0,0.0,0.0,0.0,0,0,0,0,0,0,0,0,0,0.0,0.0,0.0,0.0,0,0,0.0,0,0.0,-1,0.0,0.0,0.0,0,0.0,0.0241
1464,0,,,248,253,235,231,,-0.05,-0.02,0.98,-0,-0,-0,0.06,,0,0,0,0,0,0.0,0.0,0,0.0,0.0,0.0,0,0.0,0.0,0.0,0,0,0,0,0,,,,,,,,,,,,,,,,,,,,
1484,0,,,248,252,235,231,,-0.05,-0.02,0.98,-0,-0,-0,0.06,,0,0,0,0,0,0.0,0.0,0,0.0,0.0,0.0,0,0.0,0.0,0.0,0,0,0,0,0,,,,,,,,,,,,,,,,,,,,
1504,0,,,248,252,235,231,,-0.05,-0.02,0.98,-0,-0,-0,0.06,,0,0,0,0,0,0.0,0.0,0,0.0,0.0,0.0,0,0.0,0.0,0.0,0,0,0,0,0,,,,,,,,,,,,,,,,,,,,
1524,0,,,248,253,235,231,,-0.05,-0.02,0.98,-0,-0,-0,0.06,,0,0,0,0,0,0.0,0.0,0,0.0,0.0,0.0,0,0.0,0.0,0.0,0,0,0,0,0,,,,,,,,,,,,,,,,,,,,
1544,0,3,2,248,253,235,231,-3,-0.05,-0.02,0.98,-0,-0,-0,0.06,1,0,0,0,0,0,0.0,0.0,0,0.0,0.0,0.0,0,0.0,0.0,0.0,0,0,0,0,0,0,0,0,0,0.0,0.0,0.0,0.0,0,0,0.0,0,0.0,-1,0.0,,0.0,0,0.0,0.0257
1564,0,,,248,252,235,231,,-0.05,-0.02,0.98,-0,-0,-0,0.06,,0,0,0,0,0,0.0,0.0,0,0.0,0.0,0.0,0,0.0,0.0,0.0,0,0,0,0,0,,,,,,,,,,,,,,,,,,,,
1584,0,,,248,253,235,231,,-0.05,-0.02,0.98,-0,-0,-0,0.06,,0,0,0,0,0,0.0,0.0,0,0.0,0.0,0.0,0,0.0,0.0,0.0,0,0,0,0,0,,,,,,,,,,,,,,,,,,,,
1604,0,,,248,252,235,231,,-0.05,-0.02,0.99,-0,-0,-0,0.06,,0,0,0,0,0,0.0,0.0,0,0.0,0.0,0.0,0,0.0,0.0,0.0,0,0,0,0,0,,,,,,,,,,,,,,,,,,,,
1624,0,,,248,253,235,231,,-0.05,-0.02,0.99,-0,-0,-0,0.06,,0,0,0,0,0,0.0,0.0,0,0.0,0.0,0.0,0,0.0,0.0,0.0,0,0,0,0,0,,,,,,,,,,,,,,,,,,,,
1644,0,2,3,248,253,235,231,-3,-0.05,-0.02,0.99,-0,-0,-0,0.06,1,0,0,0,0,0,0.0,0.0,0,0.0,0.0,0.0,0,0.0,0.0,0.0,0,0,0,0,0,0,0,0,0,0.0,0.0,0.0,0.0,0,0,0.0,0,0.0,-1,0.0,0.0,0.0,0,0.0,0.0274
1664,0,,,248,253,235,230,,-0.05,-0.02,0.98,-0,-0,-0,0.06,,0,0,0,0,0,0.0,0.0,0,0.0,0.0,0.0,0,0.0,0.0,0.0,0,0,0,0,0,,,,,,,,,,,,,,,,,,,,
1684,0,,,248,252,235,231,,-0.05,-0.02,0.98,-0,-0,-0,0.06,,0,0,0,0,0,0.0,0.0,0,0.0,0.0,0.0,0,0.0,0.0,0.0,0,0,0,0,0,,,,,,,,,,,,,,,,,,,,
1704,0,,,248,252,235,231,,-0.05,-0.02,0.98,-0,-0,-0,0.06,,0,0,0,0,0,0.0,0.0,0,0.0,0.0,0.0,0,0.0,0.0,0.0,0,0,0,0,0,,,,,,,,,,,,,,,,,,,,
1724,0,,,248,252,235,230,,-0.05,-0.02,0.99,-0,-0,-0,0.06,,0,0,0,0,0,0.0,0.0,0,0.0,0.0,0.0,0,0.0,0.0,0.0,0,0,0,0,0,,,,,,,,,,,,,,,,,,,,
1744,0,3,2,248,252,235,231,-4,-0.05,-0.02,0.99,-0,-0,-0,0.06,1,0,0,0,0,0,0.0,0.0,0,0.0,0.0,0.0,0,0.0,0.0,0.0,0,0,0,0,0,0,0,0,0,0.0,0.0,0.0,0.0,0,0,0.0,0,0.0,-1,0.0,,0.0,0,0.0,0.0291
1764,0,,,248,253,235,231,,-0.05,-0.02,0.99,-0,-0,-0,0.06,,0,0,0,0,0,0.0,0.0,0,0.0,0.0,0.0,0,0.0,0.0,0.0,0,0,0,0,0,,,,,,,,,,,,,,,,,,,,
1784,0,,,248,253,235,231,,-0.05,-0.02,0.99,-0,-0,-0,0.06,,0,0,0,0,0,0.0,0.0,0,0.0,0.0,0.0,0,0.0,0.0,0.0,0,0,0,0,0,,,,,,,,,,,,,,,,,,,,
1804,0,,,248,253,235,231,,-0.05,-0.02,0.98,-0,-0,-0,0.06,,0,0,0,0,0,0.0,0.0,0,0.0,0.0,0.0,0,0.0,0.0,0.0,0,0,0,0,0,,,,,,,,,,,,,,,,,,,,
1824,0,,,248,252,235,231,,-0.05,-0.02,0.98,-0,-0,-0,0.06,,0,0,0,0,0,0.0,0.0,0,0.0,0.0,0.0,0,0.0,0.0,0.0,0,0,0,0,0,,,,,,,,,,,,,,,,,,,,
1844,0,3,2,248,252,235,231,-3,-0.05,-0.02,0.98,-0,-0,-0,0.06,1,0,0,0,0,0,0.0,0.0,0,0.0,0.0,0.0,0,0.0,0.0,0.0,0,0,0,0,0,0,0,0,0,0.0,0.0,0.0,0.0,0,0,0.0,0,0.0,-1,0.0,0.0,0.0,0,0.0,0.0307
1864,0,,,248,253,235,231,,-0.05,-0.02,0.98,-0,-0,-0,0.06,,0,0,0,0,0,0.0,0.0,0,0.0,0.0,0.0,0,0.0,0.0,0.0,0,0,0,0,0,,,,,,,,,,,,,,,,,,,,
1884,0,,,248,252,235,230,,-0.05,-0.02,0.98,-0,-0,-0,0.06,,0,0,0,0,0,0.0,0.0,0,0.0,0.0,0.0,0,0.0,0.0,0.0,0,0,0,0,0,,,,,,,,,,,,,,,,,,,,
1904,0,,,248,253,235,231,,-0.05,-0.02,0.98,-0,-0,-0,0.06,,0,0,0,0,0,0.0,0.0,0,0.0,0.0,0.0,0,0.0,0.0,0.0,0,0,0,0,0,,,,,,,,,,,,,,,,,,,,
1924,0,,,248,252,235,231,,-0.05,-0.02,0.98,-0,-0,-0,0.06,,0,0,0,0,0,0.0,0.0,0,0.0,0.0,0.0,0,0.0,0.0,0.0,0,0,0,0,0,,,,,,,,,,,,,,,,,,,,
1944,0,3,3,248,252,235,231,-4,-0.05,-0.02,0.99,-0,-0,-0,0.06,1,0,0,0,0,0,0.0,0.0,0,0.0,0.0,0.0,0,0.0,0.0,0.0,0,0,0,0,0,0,0,0,0,0.0,0.0,0.0,0.0,0,0,0.0,0,0.0,-1,0.0,,0.0,0,0.0,0.0324
1964,0,,,248,253,235,231,,-0.05,-0.02,0.99,-0,-0,-0,0.06,,0,0,0,0,0,0.0,0.0,0,0.0,0.0,0.0,0,0.0,0.0,0.0,0,0,0,0,0,,,,,,,,,,,,,,,,,,,,
1984,0,,,248,253,235,231,,-0.05,-0.02,0.99,-0,-0,-0,0.06,,0,0,0,0,0,0.0,0.0,0,0.0,0.0,0.0,0,0.0,0.0,0.0,0,0,0,0,0,,,,,,,,,,,,,,,,,,,,
2004,0,,,248,252,235,231,,-0.05,-0.02,0.98,-0,-0,-0,0.06,,0,0,0,0,0,0.0,0.0,0,0.0,0.0,0.0,0,0.0,0.0,0.0,0,0,0,0,0,,,,,,,,,,,,,,,,,,,,
2024,0,,,248,253,235,230,,-0.05,-0.02,0.98,-0,-0,-0,0.06,,0,0,0,0,0,0.0,0.0,0,0.0,0.0,0.0,0,0.0,0.0,0.0,0,0,0,0,0,,,,,,,,,,,,,,,,,,,,
2044,0,3,1,248,253,235,231,-2,-0.05,-0.02,0.98,-0,-0,-0,0.06,1,0,0,0,0,0,0.0,0.0,0,0.0,0.0,0.0,0,0.0,0.0,0.0,0,0,0,0,0,0,0,0,0,0.0,0.0,0.0,0.0,0,0,0.0,0,0.0,-1,0.0,0.0,0.0,0,0.0,0.0341
2064,0,,,248,252,235,231,,-0.05,-0.02,0.98,-0,-0,-0,0.06,,0,0,0,0,0,0.0,0.0,0,0.0,0.0,0.0,0,0.0,0.0,0.0,0,0,0,0,0,,,,,,,,,,,,,,,,,,,,
2084,0,,,248,253,235,231,,-0.05,-0.02,0.98,-0,-0,-0,0.06,,0,0,0,0,0,0.0,0.0,0,0.0,0.0,0.0,0,0.0,0.0,0.0,0,0,0,0,0,,,,,,,,,,,,,,,,,,,,
2104,0,,,248,253,235,231,,-0.05,-0.02,0.98,-0,-0,-0,0.05,,0,0,0,0,0,0.0,0.0,0,0.0,0.0,0.0,0,0.0,0.0,0.0,0,0,0,0,0,,,,,,,,,,,,,,,,,,,,
2124,0,,,248,253,235,231,,-0.05,-0.02,0.98,-0,-0,-0,0.06,,0,0,0,0,0,0.0,0.0,0,0.0,0.0,0.0,0,0.0,0.0,0.0,0,0,0,0,0,,,,,,,,,,,,,,,,,,,,
2144,0,3,3,248,253,235,231,-3,-0.05,-0.02,0.98,-0,-0,-0,0.06,1,0,0,0,0,0,0.0,0.0,0,0.0,0.0,0.0,0,0.0,0.0,0.0,0,0,0,0,0,0,0,0,0,0.0,0.0,0.0,0.0,0,0,0.0,0,0.0,-1,0.0,,0.0,0,0.0,0.0357
2164,0,,,248,253,235,231,,-0.05,-0.02,0.98,-0,-0,-0,0.06,,71,0,4,32,99,0.506,0.0,113,4.95,12.8,0.0,1,0.0,0.0,0.0,0,0,0,1,0,,,,,,,,,,,,,,,,,,,,
2184,0,,,248,253,235,231,,-0.05,-0.02,0.98,-0,-0,-0,0.06,,71,0,4,32,99,0.508,0.0,113,4.93,12.8,0.0,1,0.0,0.0,0.0,0,0,0,1,0,,,,,,,,,,,,,,,,,,,,
2204,0,,,248,253,235,230,,-0.05,-0.02,0.98,-0,-0,-0,0.06,,71,0,4,32,99,0.509,0.0,113,4.94,12.8,0.0,1,0.0,0.0,0.0,0,0,0,1,0,,,,,,,,,,,,,,,,,,,,
2224,0,,,248,252,235,231,,-0.05,-0.02,0.98,-0,-0,-0,0.06,,71,0,4,32,99,0.511,0.0,113,4.94,12.8,0.0,1,0.0,0.0,0.0,0,0,0,1,0,,,,,,,,,,,,,,,,,,,,
2244,0,2,3,248,252,236,231,-3,-0.05,-0.02,0.98,-0,-0,-0,0.06,1,71,0,4,32,99,0.512,0.0,113,4.92,12.8,0.0,1,0.0,0.0,0.0,0,0,0,1,0,0,250,250,0,0.0,0.0,0.0,0.0,0,0,0.0,0,0.0,-1,0.0,0.0,0.0,0,0.0,0.0374
2264,0,,,248,252,235,231,,-0.05,-0.02,0.99,-0,-0,-0,0.06,,71,0,4,32,99,0.513,0.0,113,4.95,12.8,0.0,1,0.0,0.0,0.0,0,0,0,1,0,,,,,,,,,,,,,,,,,,,,
2284,0,,,248,253,235,231,,-0.05,-0.02,0.99,-0,-0,-0,0.06,,71,0,4,32,99,0.515,0.0,113,4.93,12.8,0.0,1,0.0,0.0,0.0,0,0,0,1,0,,,,,,,,,,,,,,,,,,,,
2304,0,,,248,252,235,231,,-0.05,-0.02,0.98,-0,-0,-0,0.06,,71,0,4,32,99,0.516,0.0,113,4.94,12.8,0.0,1,0.0,0.0,0.0,0,0,0,1,0,,,,,,,,,,,,,,,,,,,,
2324,0,,,248,253,235,230,,-0.05,-0.02,0.99,-0,-0,-0,0.06,,71,0,4,32,99,0.517,0.0,113,4.92,12.8,0.0,1,0.0,0.0,0.0,0,0,0,1,0,,,,,,,,,,,,,,,,,,,,
2344,0,3,2,248,253,235,231,-3,-0.05,-0.02,0.99,-0,-0,-0,0.06,1,71,0,4,32,99,0.521,0.0,113,4.93,12.8,0.0,1,0.0,0.0,0.0,0,0,0,1,0,0,250,250,0,0.0,0.0,0.0,0.0,0,0,0.0,0,0.0,-1,0.0,,0.0,0,0.0,0.0391
2364,0,,,248,253,235,231,,-0.05,-0.02,0.99,-0,-0,-0,0.06,,71,0,4,32,99,0.526,0.0,113,4.94,12.8,0.0,1,0.0,0.0,0.0,0,0,0,1,0,,,,,,,,,,,,,,,,,,,,
2384,0,,,248,253,235,231,,-0.05,-0.02,0.99,-0,-0,-0,0.06,,71,0,4,32,99,0.53,0.0,113,4.94,12.8,0.0,1,0.0,0.0,0.0,0,0,0,1,0,,,,,,,,,,,,,,,,,,,,
2404,0,,,248,252,235,231,,-0.05,-0.02,0.99,-0,-0,-0,0.06,,71,0,4,32,99,0.534,0.0,113,4.93,12.8,0.0,1,0.0,0.0,0.0,0,0,0,1,0,,,,,,,,,,,,,,,,,,,,
2424,0,,,248,253,235,231,,-0.05,-0.02,0.98,-0,-0,-0,0.06,,71,0,4,32,99,0.537,0.0,113,4.92,12.8,0.0,1,0.0,0.0,0.0,0,0,0,1,0,,,,,,,,,,,,,,,,,,,,
2444,0,2,3,248,252,235,231,-3,-0.05,-0.02,0.98,-0,-0,-0,0.06,1,71,0,4,32,99,0.54,0.0,113,4.92,12.9,0.0,1,0.0,0.0,0.0,0,0,0,1,0,0,250,250,0,0.0,0.0,0.0,0.0,0,0,0.0,0,0.0,-1,0.0,0.0,0.0,0,0.0,0.0407
2464,0,,,248,253,235,231,,-0.05,-0.02,0.99,-0,-0,-0,0.06,,71,0,4,32,99,0.543,0.0,113,4.94,13.0,0.0,1,0.0,0.0,0.0,0,0,0,1,0,,,,,,,,,,,,,,,,,,,,
2484,0,,,248,252,235,231,,-0.05,-0.02,0.99,-0,-0,-0,0.06,,71,0,4,32,99,0.546,0.0,113,4.93,12.9,0.0,1,0.0,0.0,0.0,0,0,0,1,0,,,,,,,,,,,,,,,,,,,,
2504,0,,,248,252,235,230,,-0.05,-0.02,0.98,-0,-0,-0,0.06,,71,0,4,32,99,0.549,0.0,113,4.93,12.9,0.0,1,0.0,0.0,0.0,0,0,0,1,0,,,,,,,,,,,,,,,,,,,,
2524,0,,,248,252,235,231,,-0.05,-0.02,0.98,-0,-0,-0,0.06,,71,0,4,32,99,0.552,0.0,113,4.91,12.9,0.0,1,0.0,0.0,0.0,0,0,0,1,0,,,,,,,,,,,,,,,,,,,,
2544,0,1,3,248,252,235,230,-3,-0.05,-0.02,0.98,-0,-0,-0,0.06,1,71,0,4,32,99,0.554,0.0,113,4.92,12.9,0.0,1,0.0,0.0,0.0,0,0,0,1,0,0,250,250,0,0.0,0.0,0.0,0.0,0,0,0.0,0,0.0,-1,0.0,,0.0,0,0.0,0.0424
2564,0,,,248,252,235,231,,-0.05,-0.02,0.98,-0,-0,-0,0.06,,71,0,4,32,99,0.556,0.0,113,4.92,12.9,0.0,1,0.0,0.0,0.0,0,0,0,1,0,,,,,,,,,,,,,,,,,,,,
2584,0,,,248,252,235,231,,-0.05,-0.02,0.98,-0,-0,-0,0.06,,71,0,4,32,99,0.556,0.0,113,4.93,13.0,0.0,1,0.0,0.0,0.0,0,0,0,1,0,,,,,,,,,,,,,,,,,,,,
2604,0,,,248,252,235,231,,-0.05,-0.02,0.98,-0,-0,-0,0.06,,71,0,4,32,99,0.556,0.0,113,4.92,13.0,0.0,1,0.0,0.0,0.0,0,0,0,1,0,,,,,,,,,,,,,,,,,,,,
2624,0,,,248,253,235,231,,-0.05,-0.02,0.98,-0,-0,-0,0.06,,71,0,4,32,99,0.555,0.0,113,4.93,13.0,0.0,1,0.0,0.0,0.0,0,0,0,1,0,,,,,,,,,,,,,,,,,,,,
2644,0,3,2,248,253,235,231,-3,-0.05,-0.02,0.98,-0,-0,-0,0.06,1,71,0,4,32,99,0.553,0.0,113,4.92,13.0,0.0,1,0.0,0.0,0.0,0,0,0,1,0,0,250,250,0,0.0,0.0,0.0,0.0,0,0,0.0,0,0.0,-1,0.0,0.0,0.0,0,0.0,0.0441
2664,0,,,248,253,235,231,,-0.05,-0.02,0.98,-0,-0,-0,0.06,,71,0,4,32,99,0.551,0.0,113,4.92,13.0,0.0,1,0.0,0.0,0.0,0,0,0,1,0,,,,,,,,,,,,,,,,,,,,
2684,0,,,248,253,235,230,,-0.05,-0.02,0.98,-0,-0,-0,0.06,,71,0,4,32,99,0.55,0.0,113,4.92,12.9,0.0,1,0.0,0.0,0.0,0,0,0,1,0,,,,,,,,,,,,,,,,,,,,
2704,0,,,248,252,235,231,,-0.05,-0.02,0.98,-0,-0,-0,0.06,,71,0,4,32,99,0.55,0.0,113,4.92,12.9,0.0,1,0.0,0.0,0.0,0,0,0,1,0,,,,,,,,,,,,,,,,,,,,
2724,0,,,248,253,235,231,,-0.05,-0.02,0.98,-0,-0,-0,0.06,,71,0,4,32,99,0.549,0.0,113,4.91,12.9,0.0,1,0.0,0.0,0.0,0,0,0,1,0,,,,,,,,,,,,,,,,,,,,
2744,0,2,3,248,252,235,231,-3,-0.05,-0.02,0.98,-0,-0,-0,0.06,1,71,0,4,32,99,0.549,0.0,113,4.92,12.9,0.0,1,0.0,0.0,0.0,0,0,0,1,0,0,250,250,0,0.0,0.0,0.0,0.0,0,0,0.0,0,0.0,-1,0.0,,0.0,0,0.0,0.0457
2764,0,,,248,252,235,230,,-0.05,-0.02,0.98,-0,-0,-0,0.06,,71,0,4,32,99,0.549,0.0,113,4.93,13.0,0.0,1,0.0,0.0,0.0,0,0,0,1,0,,,,,,,,,,,,,,,,,,,,
2784,0,,,248,253,235,231,,-0.05,-0.02,0.98,-0,-0,-0,0.06,,71,0,4,32,99,0.548,0.0,113,4.91,13.0,0.0,1,0.0,0.0,0.0,0,0,0,1,0,,,,,,,,,,,,,,,,,,,,
2804,0,,,248,252,235,231,,-0.05,-0.02,0.98,-0,-0,-0,0.06,,71,0,4,32,99,0.548,0.0,113,4.9,13.0,0.0,1,0.0,0.0,0.0,0,0,0,1,0,,,,,,,,,,,,,,,,,,,,
2824,0,,,248,252,235,231,,-0.05,-0.02,0.98,-0,-0,-0,0.06,,71,0,4,32,99,0.548,0.0,113,4.92,12.9,0.0,1,0.0,0.0,0.0,0,0,0,1,0,,,,,,,,,,,,,,,,,,,,
2844,0,3,2,248,253,235,231,-3,-0.05,-0.02,0.99,-0,-0,-0,0.06,1,71,0,4,32,99,0.549,0.0,113,4.93,12.9,0.0,1,0.0,0.0,0.0,0,0,0,1,0,0,250,250,0,0.0,0.0,0.0,0.0,0,0,0.0,0,0.0,-1,0.0,0.0,0.0,0,0.0,0.0474
2864,0,,,248,253,235,231,,-0.05,-0.02,0.98,-0,-0,-0,0.06,,71,0,4,32,99,0.55,0.0,113,4.92,12.9,0.0,1,0.0,0.0,0.0,0,0,0,1,0,,,,,,,,,,,,,,,,,,,,
2884,0,,,248,253,235,231,,-0.05,-0.02,0.98,-0,-0,-0,0.06,,71,0,4,32,99,0.551,0.0,113,4.92,12.9,0.0,1,0.0,0.0,0.0,0,0,0,1,0,,,,,,,,,,,,,,,,,,,,
2904,0,,,248,252,235,231,,-0.05,-0.02,0.98,-0,-0,-0,0.06,,71,0,4,32,99,0.552,0.0,113,4.92,12.9,0.0,1,0.0,0.0,0.0,0,0,0,1,0,,,,,,,,,,,,,,,,,,,,
2924,0,,,248,252,235,231,,-0.05,-0.02,0.98,-0,-0,-0,0.06,,71,0,4,32,99,0.553,0.0,113,4.91,12.9,0.0,1,0.0,0.0,0.0,0,0,0,1,0,,,,,,,,,,,,,,,,,,,,
2944,0,2,2,248,253,235,231,-3,-0.05,-0.02,0.98,-0,-0,-0,0.06,1,71,0,4,32,99,0.555,0.0,113,4.92,13.0,0.0,1,0.0,0.0,0.0,0,0,0,1,0,0,250,250,0,0.0,0.0,0.0,0.0,0,0,0.0,0,0.0,-1,0.0,,0.0,0,0.0,0.0491
2964,0,,,248,252,235,231,,-0.05,-0.02,0.98,-0,-0,-0,0.06,,71,0,4,32,99,0.557,0.0,113,4.91,12.9,0.0,1,0.0,0.0,0.0,0,0,0,1,0,,,,,,,,,,,,,,,,,,,,
2984,0,,,248,253,235,231,,-0.05,-0.02,0.98,-0,-0,-0,0.05,,71,0,4,32,99,0.559,0.0,113,4.91,12.9,0.0,1,0.0,0.0,0.0,0,0,0,1,0,,,,,,,,,,,,,,,,,,,,
3004,0,,,248,252,235,231,,-0.05,-0.02,0.98,-0,-0,-0,0.05,,71,0,4,32,99,0.562,0.0,113,4.92,12.9,0.0,1,0.0,0.0,0.0,0,0,0,1,0,,,,,,,,,,,,,,,,,,,,
3024,0,,,248,253,235,231,,-0.05,-0.02,0.98,-0,-0,-0,0.06,,71,0,4,32,99,0.565,0.0,113,4.93,12.9,0.0,1,0.0,0.0,0.0,0,0,0,1,0,,,,,,,,,,,,,,,,,,,,
3044,0,3,2,248,253,235,231,-3,-0.05,-0.02,0.98,-0,-0,-0,0.06,1,71,0,4,32,99,0.567,0.0,113,4.91,12.9,0.0,1,0.0,0.0,0.0,0,0,0,1,0,0,250,250,0,0.0,0.0,0.0,0.0,0,0,0.0,0,0.0,-1,0.0,0.0,0.0,0,0.0,0.0507
3064,0,,,248,252,235,230,,-0.05,-0.02,0.98,-0,-0,-0,0.06,,71,0,4,32,99,0.57,0.0,113,4.93,12.9,0.0,1,0.0,0.0,0.0,0,0,0,1,0,,,,,,,,,,,,,,,,,,,,
3084,0,,,248,252,235,231,,-0.05,-0.02,0.99,-0,-0,-0,0.06,,71,0,4,32,99,0.571,0.0,113,4.92,12.9,0.0,1,0.0,0.0,0.0,0,0,0,1,0,,,,,,,,,,,,,,,,,,,,
3104,0,,,248,253,235,231,,-0.05,-0.02,0.99,-0,-0,-0,0.06,,71,0,4,32,99,0.574,0.0,113,4.91,13.0,0.0,1,0.0,0.0,0.0,0,0,0,1,0,,,,,,,,,,,,,,,,,,,,
3124,0,,,248,252,235,231,,-0.05,-0.02,0.99,-0,-0,-0,0.06,,71,0,4,32,99,0.576,0.0,113,4.92,13.0,0.0,1,0.0,0.0,0.0,0,0,0,1,0,,,,,,,,,,,,,,,,,,,,
3144,0,3,3,248,252,235,230,-3,-0.05,-0.02,0.99,-0,-0,-0,0.06,1,71,0,4,32,99,0.579,0.0,113,4.91,12.9,0.0,1,0.0,0.0,0.0,0,0,0,1,0,0,250,250,0,0.0,0.0,0.0,0.0,0,0,0.0,0,0.0,-1,0.0,,0.0,0,0.0,0.0524
3164,0,,,248,253,235,231,,-0.05,-0.02,0.99,-0,-0,-0,0.06,,71,0,4,32,99,0.581,0.0,113,4.92,12.9,0.0,1,0.0,0.0,0.0,0,0,0,0,0,,,,,,,,,,,,,,,,,,,,
3184,0,,,248,253,235,231,,-0.05,-0.02,0.98,-0,-0,-0,0.06,,71,0,4,32,99,0.584,0.0,113,4.87,13.1,0.0,1,0.0,0.0,0.0,0,0,0,0,0,,,,,,,,,,,,,,,,,,,,
3204,0,,,248,252,235,231,,-0.05,-0.02,0.98,-0,-0,-0,0.06,,71,0,4,32,99,0.587,0.0,113,4.72,13.1,0.0,1,0.0,0.0,0.0,0,0,0,0,0,,,,,,,,,,,,,,,,,,,,
3224,0,,,248,252,235,231,,-0.05,-0.02,0.98,-0,-0,-0,0.06,,71,0,4,32,99,0.589,0.0,113,3.84,13.1,0.0,1,0.0,0.0,0.0,0,0,0,0,0,,,,,,,,,,,,,,,,,,,,
3244,0,3,2,248,253,235,231,-3,-0.05,-0.02,0.98,-0,-0,-0,0.06,1,71,0,4,32,99,0.591,0.0,113,3.47,13.1,0.0,1,0.0,0.0,0.0,0,0,0,0,0,0,250,250,0,0.0,0.0,0.0,0.0,0,0,0.0,0,0.0,-1,0.0,0.0,0.0,0,0.0,0.0541
3264,0,,,248,252,235,231,,-0.05,-0.02,0.98,-0,-0,-0,0.06,,71,0,4,32,99,0.595,0.0,113,3.29,13.1,0.0,1,0.0,0.0,0.0,0,0,0,0,0,,,,,,,,,,,,,,,,,,,,
3284,0,,,248,253,235,230,,-0.05,-0.02,0.98,-0,-0,-0,0.06,,71,0,4,32,99,0.597,0.0,113,3.13,13.1,0.0,1,0.0,0.0,0.0,0,0,0,0,0,,,,,,,,,,,,,,,,,,,,
3304,0,,,248,253,235,231,,-0.05,-0.02,0.98,-0,-0,-0,0.06,,71,0,4,32,99,0.6,0.0,113,3.0,13.1,0.0,1,0.0,0.0,0.0,0,0,0,0,0,,,,,,,,,,,,,,,,,,,,
3324,0,,,248,252,235,231,,-0.05,-0.02,0.98,-0,-0,-0,0.06,,71,0,4,32,99,0.603,0.0,113,2.89,13.1,0.0,1,0.0,0.0,0.0,0,0,0,0,0,,,,,,,,,,,,,,,,,,,,
3344,0,3,2,248,252,235,231,-4,-0.05,-0.02,0.98,-0,-0,-0,0.06,1,71,0,4,32,99,0.606,0.0,113,2.79,13.1,0.0,1,0.0,0.0,0.0,0,0,0,0,0,0,250,250,0,0.0,0.0,0.0,0.0,0,0,0.0,0,0.0,-1,0.0,,0.0,0,0.0,0.0557
3364,0,,,248,253,235,231,,-0.05,-0.02,0.98,-0,-0,-0,0.06,,71,0,4,32,99,0.609,0.0,113,2.7,13.1,0.0,1,0.0,0.0,0.0,0,0,0,0,0,,,,,,,,,,,,,,,,,,,,
3384,0,,,248,252,235,231,,-0.05,-0.02,0.98,-0,-0,-0,0.06,,71,0,4,32,99,0.611,0.0,113,2.63,13.1,0.0,1,0.0,0.0,0.0,0,0,0,0,0,,,,,,,,,,,,,,,,,,,,
3404,0,,,248,252,235,231,,-0.05,-0.02,0.98,-0,-0,-0,0.06,,71,0,4,32,99,0.613,0.0,113,2.56,13.1,0.0,1,0.0,0.0,0.0,0,0,0,0,0,,,,,,,,,,,,,,,,,,,,
3424,0,,,248,253,235,231,,-0.05,-0.02,0.98,-0,-0,-0,0.06,,71,0,4,32,99,0.616,0.0,113,2.48,13.1,0.0,1,0.0,0.0,0.0,0,0,0,0,0,,,,,,,,,,,,,,,,,,,,
3444,0,2,3,248,252,235,231,-3,-0.05,-0.02,0.98,-0,-0,-0,0.06,1,71,0,4,32,99,0.618,0.0,113,2.43,13.1,0.0,1,0.0,0.0,0.0,0,0,0,0,0,0,250,250,0,0.0,0.0,0.0,0.0,0,0,0.0,0,0.0,-1,0.0,0.0,0.0,0,0.0,0.0574
3464,0,,,248,253,235,231,,-0.05,-0.02,0.98,-0,-0,-0,0.06,,71,0,4,32,99,0.62,0.0,113,2.38,13.1,0.0,1,0.0,0.0,0.0,0,0,0,0,0,,,,,,,,,,,,,,,,,,,,
3484,0,,,248,253,235,231,,-0.05,-0.02,0.98,-0,-0,-0,0.06,,71,0,4,32,99,0.622,0.0,113,2.34,13.1,0.0,1,0.0,0.0,0.0,0,0,0,0,0,,,,,,,,,,,,,,,,,,,,
3504,0,,,248,253,235,231,,-0.05,-0.02,0.98,-0,-0,-0,0.06,,71,0,4,32,99,0.624,0.0,113,2.3,13.1,0.0,1,0.0,0.0,0.0,0,0,0,0,0,,,,,,,,,,,,,,,,,,,,
3524,0,,,248,252,235,231,,-0.05,-0.02,0.98,-0,-0,-0,0.06,,71,0,4,32,99,0.626,0.0,113,2.25,13.1,0.0,1,0.0,0.0,0.0,0,0,0,0,0,,,,,,,,,,,,,,,,,,,,
3544,0,1,1,248,253,235,231,-3,-0.05,-0.02,0.98,-0,-0,-0,0.06,1,71,0,4,32,99,0.627,0.0,113,2.21,13.1,0.0,1,0.0,0.0,0.0,0,0,0,0,0,0,250,250,0,0.0,0.0,0.0,0.0,0,0,0.0,0,0.0,-1,0.0,,0.0,0,0.0,0.0591
3564,0,,,248,253,235,231,,-0.05,-0.02,0.98,-0,-0,-0,0.06,,71,0,4,32,99,0.629,0.0,113,2.18,13.1,0.0,1,0.0,0.0,0.0,0,0,0,0,0,,,,,,,,,,,,,,,,,,,,
3584,0,,,248,253,235,231,,-0.05,-0.02,0.98,-0,-0,-0,0.06,,71,0,4,32,99,0.632,0.0,113,2.15,13.1,0.0,1,0.0,0.0,0.0,0,0,0,0,0,,,,,,,,,,,,,,,,,,,,
3604,0,,,248,252,235,231,,-0.05,-0.02,0.98,-0,-0,-0,0.06,,71,0,4,32,99,0.634,0.0,113,2.11,13.1,0.0,1,0.0,0.0,0.0,0,0,0,0,0,,,,,,,,,,,,,,,,,,,,
3624,0,,,248,253,235,231,,-0.05,-0.02,0.98,-0,-0,-0,0.06,,71,0,4,32,99,0.636,0.0,113,2.08,13.1,0.0,1,0.0,0.0,0.0,0,0,0,0,0,,,,,,,,,,,,,,,,,,,,
3644,0,3,1,248,253,235,231,-3,-0.05,-0.02,0.98,-0,-0,-0,0.06,1,71,0,4,32,99,0.638,0.0,113,2.05,13.1,0.0,1,0.0,0.0,0.0,0,0,0,0,0,0,250,250,0,0.0,0.0,0.0,0.0,0,0,0.0,0,0.0,-1,0.0,0.0,0.0,0,0.0,0.0607
3664,0,,,248,252,235,231,,-0.05,-0.02,0.98,-0,-0,-0,0.06,,71,0,4,32,99,0.64,0.0,113,2.02,13.1,0.0,1,0.0,0.0,0.0,0,0,0,0,0,,,,,,,,,,,,,,,,,,,,
3684,0,,,248,253,235,231,,-0.05,-0.02,0.98,-0,-0,-0,0.06,,71,0,4,32,99,0.642,0.0,113,2.0,13.1,0.0,1,0.0,0.0,0.0,0,0,0,0,0,,,,,,,,,,,,,,,,,,,,
3704,0,,,248,252,235,231,,-0.05,-0.02,0.98,-0,-0,-0,0.06,,71,0,4,32,99,0.644,0.0,113,1.97,13.1,0.0,1,0.0,0.0,0.0,0,0,0,0,0,,,,,,,,,,,,,,,,,,,,
3724,0,,,248,252,235,231,,-0.05,-0.02,0.98,-0,-0,-0,0.06,,71,0,4,32,99,0.645,0.0,113,1.94,13.1,0.0,1,0.0,0.0,0.0,0,0,0,0,0,,,,,,,,,,,,,,,,,,,,
3744,0,2,1,248,253,235,231,-3,-0.05,-0.02,0.98,-0,-0,-0,0.06,1,71,0,4,32,99,0.647,0.0,113,1.92,13.1,0.0,1,0.0,0.0,0.0,0,0,0,0,0,0,250,250,0,0.0,0.0,0.0,0.0,0,0,0.0,0,0.0,-1,0.0,,0.0,0,0.0,0.0624
3764,0,,,248,252,235,231,,-0.05,-0.02,0.98,-0,-0,-0,0.06,,71,0,4,33,99,0.647,0.0,113,1.89,13.1,0.0,1,0.0,0.0,0.0,0,0,0,0,0,,,,,,,,,,,,,,,,,,,,
3784,0,,,248,252,235,231,,-0.05,-0.02,0.98,-0,-0,-0,0.06,,71,0,4,33,99,0.648,0.0,113,1.89,13.1,0.0,1,0.0,0.0,0.0,0,0,0,0,0,,,,,,,,,,,,,,,,,,,,
3804,0,,,248,253,235,231,,-0.05,-0.02,0.98,-0,-0,-0,0.06,,71,0,4,33,99,0.648,0.0,113,1.86,13.1,0.0,1,0.0,0.0,0.0,0,0,0,0,0,,,,,,,,,,,,,,,,,,,,
3824,0,,,248,252,235,231,,-0.05,-0.02,0.98,-0,-0,-0,0.06,,71,0,4,33,99,0.649,0.0,113,1.83,13.1,0.0,1,0.0,0.0,0.0,0,0,0,0,0,,,,,,,,,,,,,,,,,,,,
3844,0,3,4,248,253,235,231,-4,-0.05,-0.02,0.98,-0,-0,-0,0.06,1,71,0,4,33,99,0.649,0.0,113,1.83,13.1,0.0,1,0.0,0.0,0.0,0,0,0,0,0,0,250,250,0,0.0,0.0,0.0,0.0,0,0,0.0,0,0.0,-1,0.0,0.0,0.0,0,0.0,0.0641
3864,0,,,248,253,235,231,,-0.05,-0.02,0.98,-0,-0,-0,0.06,,71,0,4,33,99,0.649,0.0,113,1.8,13.1,0.0,1,0.0,0.0,0.0,0,0,0,0,0,,,,,,,,,,,,,,,,,,,,
3884,0,,,248,253,235,231,,-0.05,-0.02,0.98,-0,-0,-0,0.06,,71,0,4,33,99,0.649,0.0,113,1.78,13.1,0.0,1,0.0,0.0,0.0,0,0,0,0,0,,,,,,,,,,,,,,,,,,,,
3904,0,,,248,253,235,231,,-0.05,-0.02,0.98,-0,-0,-0,0.06,,71,0,4,33,99,0.649,0.0,113,1.78,13.1,0.0,1,0.0,0.0,0.0,0,0,0,0,0,,,,,,,,,,,,,,,,,,,,
3924,0,,,248,253,235,230,,-0.05,-0.02,0.98,-0,-0,-0,0.06,,71,0,4,33,99,0.648,0.0,113,1.75,13.1,0.0,1,0.0,0.0,0.0,0,0,0,0,0,,,,,,,,,,,,,,,,,,,,
3944,0,3,3,248,252,235,231,-3,-0.05,-0.02,0.98,-0,-0,-0,0.06,1,71,0,4,33,99,0.648,0.0,113,1.75,13.1,0.0,1,0.0,0.0,0.0,0,0,0,0,0,0,250,250,0,0.0,0.0,0.0,0.0,0,0,0.0,0,0.0,-1,0.0,,0.0,0,0.0,0.0657
3964,0,,,248,252,235,230,,-0.05,-0.02,0.98,-0,-0,-0,0.06,,71,0,4,33,99,0.647,0.0,113,1.73,13.1,0.0,1,0.0,0.0,0.0,0,0,0,0,0,,,,,,,,,,,,,,,,,,,,
3984,0,,,248,253,235,230,,-0.05,-0.02,0.98,-0,-0,-0,0.06,,71,0,4,33,99,0.646,0.0,113,1.73,13.1,0.0,1,0.0,0.0,0.0,0,0,0,0,0,,,,,,,,,,,,,,,,,,,,
4004,0,,,248,253,235,230,,-0.05,-0.02,0.98,-0,-0,-0,0.06,,71,0,4,33,99,0.647,0.0,113,1.7,13.1,0.0,1,0.0,0.0,0.0,0,0,0,0,0,,,,,,,,,,,,,,,,,,,,
4024,0,,,248,253,235,231,,-0.05,-0.02,0.98,-0,-0,-0,0.06,,71,0,4,33,99,0.647,0.0,113,1.7,13.1,0.0,1,0.0,0.0,0.0,0,0,0,0,0,,,,,,,,,,,,,,,,,,,,
4044,0,3,2,248,253,235,231,-3,-0.05,-0.02,0.98,-0,-0,-0,0.06,1,71,0,4,33,99,0.648,0.0,113,1.67,13.1,0.0,1,0.0,0.0,0.0,0,0,0,0,0,0,250,250,0,0.0,0.0,0.0,0.0,0,0,0.0,0,0.0,-1,0.0,0.0,0.0,0,0.0,0.0674
4064,0,,,248,253,235,231,,-0.05,-0.02,0.98,-0,-0,-0,0.06,,71,0,4,33,99,0.648,0.0,113,1.67,13.1,0.0,1,0.0,0.0,0.0,0,0,0,0,0,,,,,,,,,,,,,,,,,,,,
4084,0,,,248,252,235,231,,-0.05,-0.02,0.98,-0,-0,-0,0.06,,71,0,4,33,99,0.648,0.0,113,1.64,13.1,0.0,1,0.0,0.0,0.0,0,0,0,0,0,,,,,,,,,,,,,,,,,,,,
4104,0,,,248,252,235,231,,-0.05,-0.02,0.98,-0,-0,-0,0.06,,71,0,4,33,99,0.648,0.0,113,1.64,13.1,0.0,1,0.0,0.0,0.0,0,0,0,0,0,,,,,,,,,,,,,,,,,,,,
4124,0,,,248,252,235,231,,-0.05,-0.02,0.99,-0,-0,-0,0.06,,71,0,4,33,99,0.647,0.0,113,1.61,13.1,0.0,1,0.0,0.0,0.0,0,0,0,0,0,,,,,,,,,,,,,,,,,,,,
4144,0,1,3,248,253,235,231,-3,-0.05,-0.02,0.98,-0,-0,-0,0.06,1,71,0,4,33,99,0.647,0.0,113,1.61,13.1,0.0,1,0.0,0.0,0.0,0,0,0,0,0,0,250,250,0,0.0,0.0,0.0,0.0,0,0,0.0,0,0.0,-1,0.0,,0.0,0,0.0,0.0691
4164,0,,,248,252,235,230,,-0.05,-0.02,0.98,-0,-0,-0,0.05,,71,0,4,33,99,0.646,0.0,113,1.61,13.1,0.0,1,0.0,0.0,0.0,0,0,0,0,0,,,,,,,,,,,,,,,,,,,,
4184,0,,,248,253,235,231,,-0.05,-0.02,0.99,-0,-0,-0,0.06,,71,0,4,33,99,0.647,0.0,113,1.58,13.1,0.0,1,0.0,0.0,0.0,0,0,0,0,0,,,,,,,,,,,,,,,,,,,,
4204,0,,,248,253,235,231,,-0.05,-0.02,0.98,-0,-0,-0,0.06,,71,0,4,33,99,0.647,0.0,113,1.58,13.1,0.0,1,0.0,0.0,0.0,0,0,0,0,0,,,,,,,,,,,,,,,,,,,,
4224,0,,,248,253,235,231,,-0.05,-0.02,0.98,-0,-0,-0,0.06,,71,0,4,33,99,0.647,0.0,113,1.58,13.1,0.0,1,0.0,0.0,0.0,0,0,0,0,0,,,,,,,,,,,,,,,,,,,,
4244,0,3,3,248,253,235,231,-4,-0.05,-0.02,0.98,-0,-0,-0,0.06,1,71,0,4,33,99,0.647,0.0,113,1.56,13.1,0.0,1,0.0,0.0,0.0,0,0,0,0,0,0,250,250,0,0.0,0.0,0.0,0.0,0,0,0.0,0,0.0,-1,0.0,0.0,0.0,0,0.0,0.0707
4264,0,,,248,253,235,231,,-0.05,-0.02,0.98,-0,-0,-0,0.05,,71,0,4,33,99,0.646,0.0,113,1.56,13.1,0.0,1,0.0,0.0,0.0,0,0,0,0,0,,,,,,,,,,,,,,,,,,,,
4284,0,,,248,253,235,231,,-0.05,-0.02,0.98,-0,-0,-0,0.05,,71,0,4,33,99,0.645,0.0,113,1.56,13.1,0.0,1,0.0,0.0,0.0,0,0,0,0,0,,,,,,,,,,,,,,,,,,,,
4304,0,,,248,252,235,231,,-0.05,-0.02,0.98,-0,-0,-0,0.06,,71,0,4,33,99,0.644,0.0,113,1.55,13.1,0.0,1,0.0,0.0,0.0,0,0,0,0,0,,,,,,,,,,,,,,,,,,,,
4324,0,,,248,252,235,231,,-0.05,-0.02,0.98,-0,-0,-0,0.06,,71,0,4,33,99,0.643,0.0,113,1.53,13.1,0.0,1,0.0,0.0,0.0,0,0,0,0,0,,,,,,,,,,,,,,,,,,,,
4344,0,1,3,248,253,235,231,-3,-0.05,-0.02,0.98,-0,-0,-0,0.05,1,71,0,4,33,99,0.643,0.0,113,1.53,13.1,0.0,1,0.0,0.0,0.0,0,0,0,0,0,0,250,250,0,0.0,0.0,0.0,0.0,0,0,0.0,0,0.0,-1,0.0,,0.0,0,0.0,0.0724
4364,0,,,248,252,235,231,,-0.05,-0.02,0.98,-0,-0,-0,0.05,,71,0,4,33,99,0.643,0.0,113,1.52,13.1,0.0,1,0.0,0.0,0.0,0,0,0,0,0,,,,,,,,,,,,,,,,,,,,
4384,0,,,248,252,235,231,,-0.05,-0.02,0.98,-0,-0,-0,0.05,,71,0,4,33,99,0.643,0.0,113,1.51,13.1,0.0,1,0.0,0.0,0.0,0,0,0,0,0,,,,,,,,,,,,,,,,,,,,
4404,0,,,248,252,235,231,,-0.05,-0.02,0.98,-0,-0,-0,0.05,,71,0,4,33,99,0.643,0.0,113,1.51,13.1,0.0,1,0.0,0.0,0.0,0,0,0,0,0,,,,,,,,,,,,,,,,,,,,
4424,0,,,248,253,235,231,,-0.05,-0.02,0.98,-0,-0,-0,0.05,,71,0,4,33,99,0.643,0.0,113,1.51,13.1,0.0,1,0.0,0.0,0.0,0,0,0,0,0,,,,,,,,,,,,,,,,,,,,
4444,0,3,1,248,253,235,231,-3,-0.05,-0.02,0.98,-0,-0,-0,0.05,1,71,0,4,33,99,0.643,0.0,113,1.51,13.1,0.0,1,0.0,0.0,0.0,0,0,0,0,0,0,250,250,0,0.0,0.0,0.0,0.0,0,0,0.0,0,0.0,-1,0.0,0.0,0.0,0,0.0,0.0741
4464,0,,,248,253,235,231,,-0.05,-0.02,0.98,-0,-0,-0,0.05,,71,0,4,33,99,0.643,0.0,113,1.51,13.1,0.0,1,0.0,0.0,0.0,0,0,0,0,0,,,,,,,,,,,,,,,,,,,,
4484,0,,,248,252,235,231,,-0.05,-0.02,0.98,-0,-0,-0,0.05,,71,0,4,33,99,0.643,0.0,113,1.5,13.1,0.0,1,0.0,0.0,0.0,0,0,0,0,0,,,,,,,,,,,,,,,,,,,,
4504,0,,,248,252,235,231,,-0.05,-0.02,0.98,-0,-0,-0,0.05,,71,0,4,33,99,0.642,0.0,113,1.48,13.1,0.0,1,0.0,0.0,0.0,0,0,0,0,0,,,,,,,,,,,,,,,,,,,,
4524,0,,,248,252,235,231,,-0.05,-0.02,0.98,-0,-0,-0,0.05,,71,0,4,33,99,0.643,0.0,113,1.48,13.1,0.0,1,0.0,0.0,0.0,0,0,0,0,0,,,,,,,,,,,,,,,,,,,,
4544,0,3,1,248,252,235,231,-3,-0.05,-0.02,0.98,-0,-0,-0,0.06,1,71,0,4,33,99,0.643,0.0,113,1.48,13.1,0.0,1,0.0,0.0,0.0,0,0,0,0,0,0,250,250,0,0.0,0.0,0.0,0.0,0,0,0.0,0,0.0,-1,0.0,,0.0,0,0.0,0.0757
4564,0,,,248,253,235,231,,-0.05,-0.02,0.98,-0,-0,-0,0.06,,71,0,4,33,99,0.643,0.0,113,1.48,13.1,0.0,1,0.0,0.0,0.0,0,0,0,0,0,,,,,,,,,,,,,,,,,,,,
4584,0,,,248,252,235,231,,-0.05,-0.02,0.98,-0,-0,-0,0.06,,71,0,4,33,99,0.643,0.0,113,1.45,13.1,0.0,1,0.0,0.0,0.0,0,0,0,0,0,,,,,,,,,,,,,,,,,,,,
4604,0,,,248,252,235,231,,-0.05,-0.02,0.98,-0,-0,-0,0.06,,71,0,4,33,99,0.643,0.0,113,1.45,13.1,0.0,1,0.0,0.0,0.0,0,0,0,0,0,,,,,,,,,,,,,,,,,,,,
4624,0,,,248,252,235,231,,-0.05,-0.02,0.98,-0,-0,-0,0.06,,71,0,4,33,99,0.643,0.0,113,1.45,13.1,0.0,1,0.0,0.0,0.0,0,0,0,0,0,,,,,,,,,,,,,,,,,,,,
4644,0,3,2,248,253,235,231,-3,-0.05,-0.02,0.98,-0,-0,-0,0.06,1,71,0,4,33,99,0.642,0.0,113,1.45,13.1,0.0,1,0.0,0.0,0.0,0,0,0,0,0,0,250,250,0,0.0,0.0,0.0,0.0,0,0,0.0,0,0.0,-1,0.0,0.0,0.0,0,0.0,0.0774
4664,0,,,248,252,235,231,,-0.05,-0.02,0.98,-0,-0,-0,0.06,,71,0,4,33,99,0.641,0.0,113,1.45,13.1,0.0,1,0.0,0.0,0.0,0,0,0,0,0,,,,,,,,,,,,,,,,,,,,
4684,0,,,248,253,235,231,,-0.05,-0.02,0.98,-0,-0,-0,0.06,,71,0,4,33,99,0.641,0.0,113,1.45,13.1,0.0,1,0.0,0.0,0.0,0,0,0,0,0,,,,,,,,,,,,,,,,,,,,
4704,0,,,248,252,235,231,,-0.05,-0.02,0.98,-0,-0,-0,0.06,,71,0,4,33,99,0.641,0.0,113,1.42,13.1,0.0,1,0.0,0.0,0.0,0,0,0,0,0,,,,,,,,,,,,,,,,,,,,
4724,0,,,248,252,235,231,,-0.05,-0.02,0.98,-0,-0,-0,0.06,,71,0,4,33,99,0.642,0.0,113,1.42,13.1,0.0,1,0.0,0.0,0.0,0,0,0,0,0,,,,,,,,,,,,,,,,,,,,
4744,0,1,3,248,253,235,231,-3,-0.05,-0.02,0.98,-0,-0,-0,0.06,1,71,0,4,33,99,0.641,0.0,112,1.42,13.1,0.0,1,0.0,0.0,0.0,0,0,0,0,0,0,250,250,0,0.0,0.0,0.0,0.0,0,0,0.0,0,0.0,-1,0.0,,0.0,0,0.0,0.0791
4764,0,,,248,253,235,231,,-0.05,-0.02,0.98,-0,-0,-0,0.06,,71,0,4,33,99,0.641,0.0,113,1.42,13.1,0.0,1,0.0,0.0,0.0,0,0,0,0,0,,,,,,,,,,,,,,,,,,,,
4784,0,,,248,252,235,230,,-0.05,-0.02,0.99,-0,-0,-0,0.06,,71,0,4,33,99,0.641,0.0,113,1.42,13.0,0.0,1,0.0,0.0,0.0,0,0,0,0,0,,,,,,,,,,,,,,,,,,,,
4804,0,,,248,252,235,231,,-0.05,-0.02,0.97,-0,-0,-0,0.06,,71,0,4,33,99,0.635,0.0,113,1.4,9.3,0.0,1,0.0,0.0,0.0,0,0,0,0,0,,,,,,,,,,,,,,,,,,,,
4824,0,,,248,252,235,231,,-0.05,-0.02,0.97,-0,-0,-0,0.06,,71,0,4,33,99,0.624,0.0,113,1.4,10.4,0.0,1,0.0,0.0,0.0,0,0,0,0,0,,,,,,,,,,,,,,,,,,,,
4844,0,3,4,248,253,235,231,-3,-0.05,-0.02,0.99,-0,-0,-0,0.06,1,71,0,4,33,99,0.611,0.0,113,1.4,11.1,0.0,1,0.0,0.0,0.0,0,0,0,0,0,0,250,250,0,0.0,0.0,0.0,0.0,0,0,0.0,0,0.0,-1,0.0,0.0,0.0,0,0.0,0.0807
4864,0,,,248,252,235,231,,-0.05,-0.02,0.99,-0,0,-0,0.06,,71,0,4,33,99,0.601,0.0,113,1.4,11.3,0.0,1,0.0,0.0,0.0,0,0,0,0,0,,,,,,,,,,,,,,,,,,,,
4884,0,,,248,252,235,231,,-0.05,-0.02,0.99,-0,-0,-0,0.06,,71,0,4,33,99,0.591,0.0,116,1.4,11.4,0.0,1,0.0,0.0,0.0,0,0,0,0,0,,,,,,,,,,,,,,,,,,,,
4904,0,,,248,252,235,231,,-0.05,-0.02,0.99,-0,-0,-0,0.06,,71,0,4,33,99,0.584,0.0,115,1.4,11.4,0.0,1,0.0,0.0,0.0,0,0,0,0,0,,,,,,,,,,,,,,,,,,,,
4924,0,,,248,252,235,230,,-0.05,-0.02,0.98,-0,-0,-0,0.06,,71,0,4,33,99,0.577,0.0,116,1.4,11.3,0.0,1,0.0,0.0,0.0,0,0,0,0,0,,,,,,,,,,,,,,,,,,,,
4944,0,2,3,248,253,235,231,-3,-0.05,-0.02,0.98,-0,-0,-0,0.06,1,71,0,4,33,99,0.569,0.0,115,1.37,11.5,0.0,1,0.0,0.0,0.0,0,0,0,0,0,0,250,250,0,0.0,0.0,0.0,0.0,0,0,0.0,0,0.0,-1,0.0,,0.0,0,0.0,0.0824
4964,0,,,248,252,235,231,,-0.05,-0.02,0.98,-0,0,-0,0.06,,71,0,4,33,99,0.562,0.0,116,1.37,11.8,0.0,1,0.0,0.0,0.0,0,0,0,0,0,,,,,,,,,,,,,,,,,,,,
4984,0,,,248,252,235,231,,-0.05,-0.02,0.98,-0,-0,-0,0.06,,71,0,4,33,98,0.555,0.0,116,1.37,11.8,0.0,1,0.0,0.0,0.0,0,0,0,0,0,,,,,,,,,,,,,,,,,,,,
5004,0,,,248,252,235,230,,-0.05,-0.02,0.99,-0,0,-0,0.05,,71,0,4,33,98,0.548,0.0,116,1.37,11.6,0.0,1,0.0,0.0,0.0,0,0,0,0,0,,,,,,,,,,,,,,,,,,,,
5024,0,,,248,253,235,231,,-0.05,-0.02,0.99,-0,-0,-0,0.06,,71,0,4,33,99,0.541,0.0,116,1.37,11.7,0.0,1,0.0,0.0,0.0,0,0,0,0,0,,,,,,,,,,,,,,,,,,,,
5044,0,3,1,248,253,235,231,-4,-0.05,-0.02,0.98,-0,0,-0,0.06,1,71,0,4,33,99,0.538,0.0,116,1.37,11.9,0.0,1,0.0,0.0,0.0,0,0,0,0,0,0,250,250,0,0.0,0.0,0.0,0.0,0,0,0.0,0,0.0,-1,0.0,0.0,0.0,0,0.0,0.0841
5064,0,,,248,252,235,230,,-0.05,-0.01,0.98,-0,-0,-0,0.05,,71,0,4,33,98,0.543,0.0,116,1.36,11.8,0.0,1,0.0,0.0,0.0,0,0,0,0,0,,,,,,,,,,,,,,,,,,,,
5084,0,,,248,253,235,231,,-0.05,-0.02,0.98,-0,0,0,0.05,,71,0,4,33,99,0.548,0.0,116,1.34,11.6,0.0,1,0.0,0.0,0.0,0,0,0,0,0,,,,,,,,,,,,,,,,,,,,
5104,0,,,248,253,235,231,,-0.05,-0.02,0.99,-0,-0,0,0.05,,71,0,4,33,99,0.551,0.0,116,1.35,11.9,0.0,1,0.0,0.0,0.0,0,0,0,0,0,,,,,,,,,,,,,,,,,,,,
5124,0,,,248,252,235,231,,-0.05,-0.01,0.98,-0,0,-0,0.05,,71,0,4,33,98,0.555,0.0,116,1.34,12.0,0.0,1,0.0,0.0,0.0,0,0,0,0,0,,,,,,,,,,,,,,,,,,,,
5144,0,2,3,248,253,235,231,-3,-0.05,-0.02,0.98,-0,-0,-0,0.06,1,71,0,4,33,98,0.558,0.0,118,1.34,11.7,0.0,1,0.0,0.0,0.0,0,0,0,0,0,0,250,250,0,0.0,0.0,0.0,0.0,0,0,0.0,0,0.0,-1,0.0,,0.0,0,0.0,0.0857
5164,0,,,248,253,235,231,,-0.05,-0.02,0.97,-0,-0,-0,0.05,,71,0,4,33,99,0.56,0.0,118,1.34,11.8,0.0,1,0.0,0.0,0.0,0,0,0,0,0,,,,,,,,,,,,,,,,,,,,
5184,0,,,248,252,235,231,,-0.05,-0.02,0.97,-0,-0,-0,0.06,,71,0,4,33,99,0.562,0.0,118,1.34,12.0,0.0,1,0.0,0.0,0.0,0,0,0,0,0,,,,,,,,,,,,,,,,,,,,
5204,0,,,248,253,235,231,,-0.05,-0.02,0.97,-0,0,-0,0.05,,71,0,4,33,98,0.564,0.0,118,1.34,11.8,0.0,1,0.0,0.0,0.0,0,0,0,0,0,,,,,,,,,,,,,,,,,,,,
5224,0,,,248,253,235,231,,-0.05,-0.02,0.98,-0,0,-0,0.06,,71,0,4,33,99,0.565,0.0,118,1.34,11.7,0.0,1,0.0,0.0,0.0,0,0,0,0,0,,,,,,,,,,,,,,,,,,,,
5244,0,2,3,248,252,235,231,-3,-0.05,-0.02,0.98,-0,0,-0,0.06,1,71,0,4,33,99,0.566,0.0,118,1.33,11.9,0.0,1,0.0,0.0,0.0,0,0,0,0,0,0,250,250,0,0.0,0.0,0.0,0.0,0,0,0.0,0,0.0,-1,0.0,0.0,0.0,0,0.0,0.0874
5264,0,,,248,252,235,231,,-0.05,-0.02,0.98,-0,0,-0,0.06,,71,0,4,33,98,0.567,0.0,118,1.33,12.0,0.0,1,0.0,0.0,0.0,0,0,0,0,0,,,,,,,,,,,,,,,,,,,,
5284,0,,,248,252,235,231,,-0.05,-0.02,0.97,-0,-0,-0,0.06,,71,0,4,33,99,0.567,0.0,118,1.31,11.7,0.0,1,0.0,0.0,0.0,0,0,0,0,0,,,,,,,,,,,,,,,,,,,,
5304,0,,,248,252,235,230,,-0.05,-0.02,0.99,-0,-0,-0,0.05,,71,0,4,33,99,0.566,0.0,117,1.31,11.8,0.0,1,0.0,0.0,0.0,0,0,0,0,0,,,,,,,,,,,,,,,,,,,,
5324,0,,,248,252,235,231,,-0.05,-0.02,0.98,-0,-0,-0,0.06,,71,0,4,33,98,0.566,0.0,117,1.31,12.0,0.0,1,0.0,0.0,0.0,0,0,0,0,0,,,,,,,,,,,,,,,,,,,,
5344,0,-1,2,248,253,235,231,-3,-0.05,-0.02,1.0,-0,0,-0,0.05,1,71,0,4,33,98,0.565,0.0,118,1.31,11.9,0.0,1,0.0,0.0,0.0,0,0,0,0,0,0,250,250,0,0.0,0.0,0.0,0.0,0,0,0.0,0,0.0,-1,0.0,,0.0,0,0.0,0.0891
5364,0,,,248,252,235,231,,-0.06,-0.02,0.99,-0,0,-0,0.06,,71,0,4,33,99,0.563,0.0,118,1.31,11.8,0.0,1,0.0,0.0,0.0,0,0,0,0,0,,,,,,,,,,,,,,,,,,,,
5384,0,,,248,252,235,231,,-0.05,-0.02,0.99,-0,0,-0,0.06,,71,0,4,33,99,0.561,0.0,118,1.31,12.0,0.0,1,0.0,0.0,0.0,0,0,0,0,0,,,,,,,,,,,,,,,,,,,,
5404,0,,,248,252,235,231,,-0.06,-0.02,0.97,-0,0,-0,0.06,,71,127,4,33,98,0.56,0.0,118,1.31,11.9,0.0,1,12.2,2.04,0.0,0,0,0,1,0,,,,,,,,,,,,,,,,,,,,
5424,0,,,248,253,235,231,,-0.05,-0.02,0.97,-0,-0,-0,0.05,,71,127,4,33,99,0.559,0.0,118,1.49,11.5,0.0,1,12.2,4.61,0.0,0,0,0,1,0,,,,,,,,,,,,,,,,,,,,
5444,0,0,1,248,253,235,231,-4,-0.05,-0.02,0.97,-0,0,-0,0.06,1,71,127,4,33,99,0.558,0.0,118,3.23,11.8,0.0,1,12.2,4.61,0.0,0,0,0,1,0,0,250,250,0,0.0,0.0,0.0,0.0,0,0,0.0,0,0.0,-1,0.0,0.0,0.0,0,0.0,0.0907
5464,0,,,248,253,235,231,,-0.05,-0.02,0.97,-0,0,-0,0.06,,71,127,5,33,98,0.556,0.0,121,4.81,12.0,0.0,1,12.2,2.09,0.0,0,0,0,1,0,,,,,,,,,,,,,,,,,,,,
5484,0,,,248,252,235,231,,-0.06,-0.02,0.96,-0,0,-0,0.06,,71,462,6,33,99,0.554,0.0,121,4.87,11.6,0.0,1,12.2,4.61,0.0,0,0,0,1,0,,,,,,,,,,,,,,,,,,,,
5504,0,,,248,253,235,231,,-0.05,-0.02,0.97,-0,0,-0,0.05,,71,462,8,33,99,0.554,0.0,121,4.9,11.9,0.0,1,12.2,4.61,0.9,0,0,0,1,0,,,,,,,,,,,,,,,,,,,,
5524,0,,,248,252,235,231,,-0.06,-0.02,0.95,-0,-0,-0,0.06,,71,701,12,33,98,0.553,0.0,123,4.93,12.1,0.0,1,12.2,8.08,0.9,0,0,0,1,0,,,,,,,,,,,,,,,,,,,,
5544,0,0,1,248,252,235,230,-3,-0.05,-0.02,0.95,-0,-0,-0,0.06,1,71,1278,17,33,98,0.552,0.0,124,4.92,11.9,0.0,1,32.2,8.08,0.9,0,0,0,1,0,0,250,250,0,0.0,0.0,0.0,0.0,0,0,0.0,0,0.0,-1,0.0,,0.0,0,0.0,0.0924
5564,0,,,248,252,235,231,,-0.05,-0.02,0.96,-0,-0,-0,0.06,,72,1503,21,33,97,0.548,0.0,123,4.85,11.6,0.0,1,32.6,2.09,0.9,0,0,0,1,0,,,,,,,,,,,,,,,,,,,,
5584,0,,,248,253,235,231,,-0.06,-0.02,0.96,-0,-0,-0,0.06,,72,1370,26,33,97,0.544,0.0,123,4.82,11.3,0.0,1,31.5,2.09,0.9,0,0,0,1,0,,,,,,,,,,,,,,,,,,,,
5604,0,,,248,252,235,231,,-0.05,-0.01,0.97,-0,-0,-0,0.06,,72,1216,31,33,97,0.541,0.0,121,4.81,11.1,0.0,1,30.3,2.09,4.5,0,0,0,1,0,,,,,,,,,,,,,,,,,,,,
5624,0,,,248,253,235,231,,-0.05,-0.01,0.98,-0,-0,-0,0.06,,72,1216,39,33,97,0.538,0.0,121,4.76,11.1,0.0,1,30.3,8.04,4.5,0,0,0,1,0,,,,,,,,,,,,,,,,,,,,
5644,0,0,0,248,253,235,231,-3,-0.06,-0.01,0.92,-0,-0,-0,0.07,1,72,1043,44,33,98,0.535,0.0,123,4.83,11.3,0.0,1,30.3,8.04,4.5,0,0,0,1,0,0,250,250,0,0.0,0.0,0.0,0.0,0,0,0.0,0,0.0,-1,0.0,0.0,0.0,0,0.0,0.0941
5664,0,,,248,253,235,231,,-0.06,-0.01,0.93,-0,-0,-0,0.06,,72,868,45,33,98,0.531,0.0,124,4.87,11.7,0.0,1,30.0,8.04,4.5,0,0,0,1,0,,,,,,,,,,,,,,,,,,,,
5684,0,,,248,252,235,231,,-0.05,-0.01,0.96,-0,0,-0,0.05,,72,1300,46,33,97,0.529,0.0,126,4.85,11.8,0.0,1,31.0,2.09,4.5,0,0,0,1,0,,,,,,,,,,,,,,,,,,,,
5704,0,,,248,253,235,231,,-0.05,-0.01,0.95,-0,0,-0,0.05,,72,1775,46,33,98,0.527,0.0,131,4.82,12.0,0.0,1,34.0,8.04,4.8,0,0,0,1,0,,,,,,,,,,,,,,,,,,,,
5724,0,,,248,252,235,231,,-0.05,-0.01,0.97,-0,0,-0,0.05,,72,2150,46,33,98,0.524,0.0,135,4.82,11.8,0.0,1,34.0,6.94,4.8,0,0,0,1,0,,,,,,,,,,,,,,,,,,,,
5744,0,-0,3,248,253,235,231,-3,-0.06,-0.01,0.94,-0,0,-0,0.06,1,72,2241,46,33,98,0.522,0.0,144,4.83,12.1,0.0,1,34.0,6.84,4.8,0,0,0,1,0,0,250,250,0,0.0,0.0,0.0,0.0,0,0,0.0,0,0.0,-1,0.0,,0.0,0,0.0,0.0957
5764,0,,,248,252,236,231,,-0.06,-0.02,0.89,-0,0,0,0.07,,71,2268,45,33,99,0.522,0.0,159,4.89,12.6,0.0,1,34.0,5.89,4.8,0,0,0,1,0,,,,,,,,,,,,,,,,,,,,
5784,0,,,248,252,236,231,,-0.04,-0.02,0.82,-0,-1,0,0.05,,71,2870,44,33,98,0.521,0.0,165,4.88,12.2,0.0,1,31.8,6.77,4.8,0,0,0,1,0,,,,,,,,,,,,,,,,,,,,
5804,0,,,248,253,235,231,,-0.07,-0.02,0.89,-0,-1,-0,0.07,,71,3572,44,33,98,0.522,0.0,184,4.86,12.3,0.0,1,31.7,8.48,12.7,0,0,0,1,0,,,,,,,,,,,,,,,,,,,,
5824,0,,,248,252,235,231,,-0.04,-0.03,0.83,-0,-2,0,0.05,,71,3911,44,33,98,0.528,0.0,210,4.9,12.6,0.0,1,35.0,8.36,12.7,0,0,0,1,0,,,,,,,,,,,,,,,,,,,,
5844,0,0,1,248,253,235,231,-3,0.0,-0.05,0.76,-0,-2,-1,0.05,1,71,4332,45,33,98,0.535,0.0,239,4.87,12.6,0.0,1,38.2,8.0,12.7,0,0,0,1,0,0,250,250,0,0.0,0.0,0.0,0.0,0,0,0.0,0,0.0,-1,0.0,0.0,0.0,0,0.0,0.0974
5864,0,,,248,253,235,231,,0.04,-0.09,0.7,-0,-0,-1,0.1,,71,4760,46,33,98,0.542,0.0,279,4.87,12.6,0.0,1,41.2,7.43,12.7,0,0,0,1,0,,,,,,,,,,,,,,,,,,,,
5884,0,,,248,252,235,231,,-0.05,-0.04,0.96,-0,2,1,0.06,,71,5422,46,33,97,0.548,0.0,327,4.85,12.4,0.0,1,41.5,8.09,12.7,0,0,0,1,0,,,,,,,,,,,,,,,,,,,,
5904,0,,,248,253,236,231,,-0.17,-0.05,0.88,0,8,7,0.18,,71,6137,46,33,97,0.553,0.0,394,4.85,12.3,0.0,1,41.1,9.21,26.0,0,0,0,1,0,,,,,,,,,,,,,,,,,,,,
5924,0,,,248,252,236,231,,-0.12,0.0,1.09,0,6,5,0.12,,71,6803,45,33,96,0.555,0.0,495,4.8,12.5,0.0,1,47.9,7.59,26.0,0,0,0,1,0,,,,,,,,,,,,,,,,,,,,
5944,0,-0,2,248,253,236,231,-3,-0.12,0.0,1.01,0,7,6,0.12,1,71,7242,33,33,94,0.56,0.0,614,4.8,12.5,0.0,1,46.6,7.06,26.0,0,0,0,1,0,0,250,250,0,0.0,0.0,0.0,0.0,0,0,0.0,0,0.0,-1,0.0,,0.0,0,0.0,0.0991
5964,0,,,248,253,235,231,,-0.1,-0.03,1.0,0,7,5,0.1,,71,7828,23,33,90,0.564,0.0,647,4.88,12.4,0.0,1,38.5,7.14,26.0,0,0,0,1,0,,,,,,,,,,,,,,,,,,,,
5984,0,,,248,253,235,231,,-0.08,-0.03,0.93,0,6,7,0.08,,71,8507,17,33,83,0.57,0.0,661,4.85,12.4,0.0,1,41.7,6.59,26.0,0,0,0,1,0,,,,,,,,,,,,,,,,,,,,
6004,0,,,248,253,235,231,,-0.05,0.01,0.85,0,6,8,0.05,,71,9277,13,33,74,0.575,0.0,673,4.96,12.4,0.0,1,41.4,3.19,22.4,0,0,0,1,0,,,,,,,,,,,,,,,,,,,,
6024,0,,,248,253,235,231,,-0.07,-0.02,0.81,0,6,8,0.07,,71,9931,7,33,65,0.579,0.0,694,4.83,12.5,0.0,1,40.4,2.94,22.4,0,0,0,1,0,,,,,,,,,,,,,,,,,,,,
6044,0,-1,2,248,252,235,231,-3,-0.09,-0.04,1.01,0,5,8,0.1,1,71,10434,4,33,57,0.583,0.0,694,4.88,12.3,0.0,1,41.8,3.73,22.4,0,0,0,1,0,0,250,250,0,0.0,0.0,0.0,0.0,0,0,0.0,0,0.0,-1,0.0,0.0,0.0,0,0.0,0.1007
6064,0,,,248,253,236,231,,-0.08,-0.07,1.18,0,3,6,0.11,,71,10557,4,33,50,0.586,0.0,705,4.87,12.8,0.0,1,38.8,3.08,22.4,0,0,0,1,0,,,,,,,,,,,,,,,,,,,,
6084,0,,,248,252,236,231,,-0.11,-0.01,1.16,0,3,6,0.11,,71,10416,4,33,46,0.588,0.0,703,4.87,12.7,0.0,1,37.2,2.72,22.4,0,0,0,1,0,,,,,,,,,,,,,,,,,,,,
6104,0,,,248,252,236,231,,-0.09,0.15,1.19,0,3,5,0.17,,71,10157,4,33,44,0.591,0.0,702,4.89,12.8,0.0,1,35.7,2.69,12.5,0,0,0,1,0,,,,,,,,,,,,,,,,,,,,
6124,0,,,248,253,235,231,,-0.08,0.23,1.09,0,4,6,0.24,,71,9936,4,33,41,0.594,0.0,695,4.89,12.8,0.0,1,33.5,2.65,12.5,0,0,0,1,0,,,,,,,,,,,,,,,,,,,,
6144,0,-1,2,248,253,235,231,-3,-0.1,0.17,1.27,0,2,6,0.2,1,71,9674,4,33,40,0.6,0.0,695,4.87,12.9,0.0,1,32.7,2.71,12.5,0,0,0,1,0,0,250,250,0,0.0,0.0,0.0,0.0,0,0,0.0,0,0.0,-1,0.0,,0.0,0,0.0,0.1024
6164,0,,,248,252,236,231,,-0.11,0.16,1.42,0,3,3,0.19,,71,9450,4,33,37,0.605,0.0,687,4.83,12.9,0.0,1,31.4,2.69,12.5,0,0,0,1,0,,,,,,,,,,,,,,,,,,,,
6184,0,,,248,252,236,231,,-0.11,0.13,1.39,-0,2,3,0.17,,71,9250,4,33,36,0.61,0.0,682,4.87,12.8,0.0,1,31.1,2.63,12.5,0,0,0,1,0,,,,,,,,,,,,,,,,,,,,
6204,0,,,248,252,235,231,,-0.11,0.16,1.28,0,2,5,0.19,,71,9005,4,33,35,0.614,0.0,682,4.89,12.8,0.0,1,30.8,2.57,10.8,0,0,0,1,0,,,,,,,,,,,,,,,,,,,,
6224,0,,,248,252,236,231,,-0.11,0.16,1.3,0,2,5,0.2,,71,8823,4,33,35,0.619,0.0,677,4.88,12.8,0.0,1,30.8,2.52,10.8,0,0,0,1,0,,,,,,,,,,,,,,,,,,,,
6244,0,0,1,248,252,236,231,-4,-0.11,0.12,1.51,-0,0,2,0.16,1,71,8593,4,33,34,0.622,0.0,676,4.9,12.9,0.0,1,30.5,1.4,10.8,0,0,0,1,0,0,250,250,0,0.0,0.0,0.0,0.0,0,0,0.0,0,0.0,-1,0.0,0.0,0.0,0,0.0,0.1041
6264,0,,,248,252,235,231,,-0.11,0.09,1.41,-0,1,2,0.14,,71,8351,4,33,34,0.626,0.0,673,4.9,12.9,0.0,1,30.2,2.37,10.8,0,0,0,1,0,,,,,,,,,,,,,,,,,,,,
6284,0,,,248,252,236,231,,-0.11,0.02,1.32,-0,0,2,0.11,,71,8148,4,32,34,0.629,0.0,667,4.86,13.0,0.0,1,29.7,2.18,10.8,0,0,0,1,0,,,,,,,,,,,,,,,,,,,,
6304,0,,,248,253,235,231,,-0.12,0.1,1.22,-0,3,5,0.16,,71,7904,4,32,34,0.631,0.0,660,4.96,12.8,0.0,1,29.5,0.91,7.5,0,0,0,1,0,,,,,,,,,,,,,,,,,,,,
6324,0,,,248,252,236,231,,-0.13,0.09,1.12,-0,3,5,0.16,,71,7709,4,32,34,0.632,0.0,657,4.86,12.9,0.0,1,29.5,2.09,7.5,0,0,0,1,0,,,,,,,,,,,,,,,,,,,,
6344,0,-0,3,248,252,236,231,-3,-0.14,0.08,1.04,-0,4,5,0.16,1,71,7518,4,32,35,0.634,0.0,651,4.92,12.8,0.0,1,29.8,2.09,7.5,0,0,0,1,0,0,250,250,0,0.0,0.0,0.0,0.0,0,0,0.0,0,0.0,-1,0.0,,0.0,0,0.0,0.1057
6364,0,,,248,252,236,231,,-0.15,0.1,0.98,-0,3,5,0.18,,71,7321,4,32,35,0.636,0.0,645,4.86,12.8,0.0,1,29.8,2.09,7.5,0,0,0,1,0,,,,,,,,,,,,,,,,,,,,
6384,0,,,248,253,235,231,,-0.16,0.07,0.9,-0,4,7,0.17,,71,7172,4,32,36,0.636,0.0,647,4.95,12.9,0.0,1,30.1,2.13,7.5,0,0,0,1,0,,,,,,,,,,,,,,,,,,,,
6404,0,,,248,253,236,231,,-0.1,0.06,1.14,-0,3,4,0.12,,71,7043,5,32,36,0.637,0.0,648,4.91,13.0,0.0,1,30.1,1.01,6.9,0,0,0,1,0,,,,,,,,,,,,,,,,,,,,
6424,0,,,248,252,236,231,,-0.12,0.06,1.05,-0,4,5,0.14,,71,6860,4,32,37,0.637,0.0,647,4.86,13.0,0.0,1,30.2,2.18,6.9,0,0,0,1,0,,,,,,,,,,,,,,,,,,,,
6444,0,-1,2,248,252,236,231,-3,-0.06,0.05,1.28,-0,1,2,0.08,1,71,6682,4,32,38,0.637,0.0,640,4.96,12.9,0.0,1,30.3,1.11,6.9,0,0,0,1,0,0,250,250,0,0.0,0.0,0.0,0.0,0,0,0.0,0,0.0,-1,0.0,0.0,0.0,0,0.0,0.1074
6464,0,,,248,253,236,231,,-0.14,0.04,1.18,-0,5,6,0.14,,71,6461,4,32,38,0.637,0.0,638,4.88,12.9,0.0,1,30.0,2.23,6.9,0,0,0,1,0,,,,,,,,,,,,,,,,,,,,
6484,0,,,248,252,236,231,,-0.14,0.09,1.15,0,7,6,0.16,,71,6273,4,32,39,0.636,0.0,631,4.83,12.9,0.0,1,30.1,2.29,6.9,0,0,0,1,0,,,,,,,,,,,,,,,,,,,,
6504,0,,,248,252,236,231,,-0.12,0.12,1.37,-0,5,3,0.16,,71,6083,5,32,40,0.636,0.0,626,4.88,13.1,0.0,1,29.9,2.29,6.5,0,0,0,1,0,,,,,,,,,,,,,,,,,,,,
6524,0,,,248,252,235,231,,-0.1,0.13,1.57,-0,4,2,0.17,,71,5888,5,32,41,0.638,0.0,618,4.93,13.1,0.0,1,29.8,2.34,6.5,0,0,0,1,0,,,,,,,,,,,,,,,,,,,,
6544,0,-0,3,248,252,236,231,-4,-0.18,0.12,1.45,-0,10,5,0.21,1,71,5686,4,32,42,0.637,0.0,611,4.82,12.8,0.0,1,29.6,2.43,6.5,0,0,0,1,0,0,250,250,0,0.0,0.0,0.0,0.0,0,0,0.0,0,0.0,-1,0.0,,0.0,0,0.0,0.1091
6564,0,,,248,252,236,231,,-0.22,0.05,1.34,0,14,11,0.23,,71,5535,5,32,43,0.637,0.0,596,4.88,12.9,0.0,1,29.5,2.5,6.5,0,0,0,1,0,,,,,,,,,,,,,,,,,,,,
6584,0,,,248,252,236,231,,-0.12,-0.04,1.23,-0,8,5,0.13,,71,5349,6,32,44,0.638,0.0,576,4.95,13.1,0.0,1,29.3,2.59,6.5,0,0,0,1,0,,,,,,,,,,,,,,,,,,,,
6604,0,,,248,252,236,231,,-0.17,0.01,1.45,-0,13,9,0.17,,71,5201,7,32,46,0.637,0.0,562,4.85,12.9,0.0,1,29.6,2.68,6.4,0,0,0,1,0,,,,,,,,,,,,,,,,,,,,
6624,0,,,248,252,235,231,,-0.09,-0.06,1.33,-0,9,4,0.11,,71,5136,8,32,48,0.638,0.0,558,4.95,13.1,0.0,1,30.1,2.73,6.4,0,0,0,1,0,,,,,,,,,,,,,,,,,,,,
6644,0,-1,2,248,252,236,231,-2,-0.14,-0.04,1.26,-0,13,9,0.14,1,71,5084,9,32,50,0.638,0.0,543,4.9,13.1,0.0,1,30.6,1.68,6.4,0,0,0,1,0,0,250,250,0,0.0,0.0,0.0,0.0,0,0,0.0,0,0.0,-1,0.0,0.0,0.0,0,0.0,0.1107
6664,0,,,248,253,235,231,,-0.12,0.02,1.47,-0,8,6,0.12,,71,4980,11,32,52,0.638,0.0,538,4.83,12.8,0.0,1,30.8,2.85,6.4,0,0,0,1,0,,,,,,,,,,,,,,,,,,,,
6684,0,,,248,251,236,231,,-0.07,-0.04,1.36,-0,7,4,0.08,,71,5005,14,32,55,0.639,0.0,538,4.95,13.1,0.0,1,32.1,2.9,6.4,0,0,0,1,0,,,,,,,,,,,,,,,,,,,,
6704,0,,,248,253,236,231,,-0.13,-0.03,1.49,-0,10,8,0.13,,71,5032,17,32,60,0.639,0.0,525,4.86,12.9,0.0,1,33.6,1.71,6.5,0,0,0,1,0,,,,,,,,,,,,,,,,,,,,
6724,0,,,248,252,236,231,,-0.07,0.02,1.68,-0,5,3,0.07,,71,5136,20,32,66,0.641,0.0,534,4.9,13.1,0.0,1,35.5,3.35,6.5,0,0,0,1,0,,,,,,,,,,,,,,,,,,,,
6744,0,-0,3,248,251,236,231,-4,-0.13,-0.01,1.55,-0,8,7,0.13,1,71,5274,21,32,71,0.641,0.0,543,4.86,13.0,0.0,1,36.8,2.29,6.5,0,0,0,1,0,0,250,250,0,0.0,0.0,0.0,0.0,0,0,0.0,0,0.0,-1,0.0,,0.0,0,0.0,0.1124
6764,0,,,248,252,236,231,,-0.03,0.03,1.74,-0,1,0,0.04,,71,5430,22,32,76,0.641,0.0,556,4.95,13.1,0.0,1,37.8,4.29,6.5,0,0,0,1,0,,,,,,,,,,,,,,,,,,,,
6784,0,,,248,252,236,231,,-0.08,0.08,1.69,-0,8,8,0.11,,72,5645,22,32,79,0.64,0.0,565,4.85,12.9,0.0,1,38.2,4.46,6.5,0,0,0,1,0,,,,,,,,,,,,,,,,,,,,
6804,0,,,248,251,236,231,,-0.19,0.04,1.56,-0,9,8,0.19,,72,5781,22,32,82,0.64,0.0,587,4.88,12.8,0.0,1,38.6,3.16,12.2,0,0,0,1,0,,,,,,,,,,,,,,,,,,,,
6824,0,,,248,251,236,231,,-0.25,0.01,1.44,-1,11,8,0.26,,72,6064,22,32,83,0.64,0.0,603,4.89,12.8,0.0,1,39.3,3.26,12.2,0,0,0,1,0,,,,,,,,,,,,,,,,,,,,
6844,0,-1,2,248,252,236,231,-3,-0.24,0.07,1.33,-0,12,10,0.25,1,72,6465,22,32,83,0.637,0.0,626,4.84,12.8,0.0,1,41.6,4.54,12.2,0,0,0,1,0,0,250,250,0,0.0,0.0,0.0,0.0,0,0,0.0,0,0.0,-1,0.0,0.0,0.0,0,0.0,0.1141
6864,0,,,248,251,236,231,,-0.2,0.03,1.33,-1,10,6,0.2,,72,6848,17,32,82,0.638,0.0,637,4.91,13.0,0.0,1,44.0,4.26,12.2,0,0,0,1,0,,,,,,,,,,,,,,,,,,,,
6884,0,,,248,251,236,231,,-0.16,0.01,1.54,-1,7,4,0.16,,72,7393,11,32,78,0.636,0.0,647,4.84,13.1,0.0,1,41.5,2.96,12.2,0,0,0,1,0,,,,,,,,,,,,,,,,,,,,
6904,0,,,248,250,236,231,,-0.17,0.01,1.42,-1,7,4,0.17,,72,7793,4,32,72,0.636,0.0,656,4.87,13.0,0.0,1,39.3,2.74,14.7,0,0,0,1,0,,,,,,,,,,,,,,,,,,,,
6924,0,,,248,252,236,231,,-0.16,0.05,1.31,-0,8,7,0.17,,72,8230,4,32,65,0.636,0.0,663,4.89,12.9,0.0,1,40.7,3.21,14.7,0,0,0,1,0,,,,,,,,,,,,,,,,,,,,
6944,0,-0,2,248,251,236,231,-3,-0.15,0.03,1.31,-1,7,5,0.16,1,72,8656,4,32,57,0.635,0.0,672,4.85,12.9,0.0,1,40.9,3.18,14.7,0,0,0,1,0,0,250,250,0,0.0,0.0,0.0,0.0,0,0,0.0,0,0.0,-1,0.0,,0.0,0,0.0,0.1157
6964,0,,,248,251,236,231,,-0.13,0.08,1.26,-1,5,3,0.16,,72,9101,4,32,52,0.633,0.0,685,4.9,13.0,0.0,1,39.2,3.16,14.7,0,0,0,1,0,,,,,,,,,,,,,,,,,,,,
6984,0,,,248,251,236,231,,-0.11,0.07,1.17,-1,5,1,0.13,,72,9384,4,32,47,0.634,0.0,691,5.02,12.8,0.0,1,37.7,3.01,14.7,0,0,0,1,0,,,,,,,,,,,,,,,,,,,,
7004,0,,,248,251,236,231,,-0.11,0.06,1.13,-1,4,2,0.13,,72,9635,4,32,43,0.633,0.0,686,4.92,12.8,0.0,1,35.0,2.84,12.8,0,0,0,1,0,,,,,,,,,,,,,,,,,,,,
7024,0,,,248,251,236,231,,-0.1,0.15,1.04,-1,6,3,0.18,,72,9689,4,32,39,0.633,0.0,692,4.91,12.9,0.0,1,32.0,1.57,12.8,0,0,0,1,0,,,,,,,,,,,,,,,,,,,,
7044,0,1,4,248,251,235,231,-3,-0.1,0.08,1.17,-1,4,5,0.13,1,72,9561,4,32,36,0.634,0.0,692,4.85,12.8,0.0,1,31.1,2.65,12.8,0,0,0,1,0,0,250,250,0,0.0,0.0,0.0,0.0,0,0,0.0,0,0.0,-1,0.0,0.0,0.0,0,0.0,0.1174
7064,0,,,248,250,236,231,,-0.13,0.06,1.37,-1,4,3,0.14,,72,9356,4,32,35,0.634,0.0,688,4.89,12.8,0.0,1,30.8,2.62,12.8,0,0,0,1,0,,,,,,,,,,,,,,,,,,,,
7084,0,,,248,251,236,231,,-0.12,0.06,1.43,-1,2,-1,0.14,,72,9137,4,32,34,0.635,0.0,685,4.91,13.0,0.0,1,30.5,2.55,12.8,0,0,0,1,0,,,,,,,,,,,,,,,,,,,,
7104,0,,,248,251,235,231,,-0.16,-0.01,1.58,-1,1,-6,0.16,,72,8920,4,32,33,0.636,0.0,682,4.91,13.0,0.0,1,30.2,1.36,10.4,0,0,0,1,0,,,,,,,,,,,,,,,,,,,,
7124,0,,,248,251,236,231,,-0.17,-0.02,1.77,-1,-1,-10,0.17,,72,8692,4,32,33,0.636,0.0,677,4.93,13.0,0.0,1,30.2,2.48,10.4,0,0,0,1,0,,,,,,,,,,,,,,,,,,,,
7144,0,0,1,248,251,236,231,-3,-0.16,0.02,1.79,-1,0,-8,0.16,1,72,8457,4,32,33,0.636,0.0,673,4.83,12.9,0.0,1,30.1,1.31,10.4,0,0,0,1,0,0,250,250,0,0.0,0.0,0.0,0.0,0,0,0.0,0,0.0,-1,0.0,,0.0,0,0.0,0.1191
7164,0,,,248,251,236,231,,-0.17,-0.03,1.78,-1,-1,-9,0.17,,72,8252,4,32,33,0.636,0.0,671,4.84,13.0,0.0,1,29.7,2.22,10.4,0,0,0,1,0,,,,,,,,,,,,,,,,,,,,
7184,0,,,248,250,236,231,,-0.17,0.01,1.64,-1,-0,-7,0.17,,72,8009,4,32,34,0.636,0.0,665,4.91,12.8,0.0,1,29.5,2.04,10.4,0,0,0,1,0,,,,,,,,,,,,,,,,,,,,
7204,0,,,248,251,235,231,,-0.14,-0.02,1.82,-1,-1,-8,0.14,,72,7805,5,32,34,0.637,0.0,665,4.86,13.0,0.0,1,29.5,2.04,7.4,0,0,0,1,0,,,,,,,,,,,,,,,,,,,,
7224,0,,,248,251,236,231,,-0.11,-0.01,1.99,-1,-1,-8,0.11,,72,7603,4,32,34,0.638,0.0,661,4.93,13.1,0.0,1,29.5,2.04,7.4,0,0,0,1,0,,,,,,,,,,,,,,,,,,,,
7244,0,-1,2,248,251,236,231,-2,-0.08,-0.01,2.14,-1,-1,-7,0.09,1,72,7405,4,32,35,0.639,0.0,656,4.86,12.8,0.0,1,29.8,2.04,7.4,0,0,0,1,0,0,250,250,0,0.0,0.0,0.0,0.0,0,0,0.0,0,0.0,-1,0.0,0.0,0.0,0,0.0,0.1207
7264,0,,,248,251,236,231,,-0.09,-0.02,1.98,-1,0,-5,0.1,,72,7219,4,32,35,0.639,0.0,653,4.85,13.0,0.0,1,29.8,2.09,7.4,0,0,0,1,0,,,,,,,,,,,,,,,,,,,,
7284,0,,,248,252,236,231,,-0.12,0.0,1.82,-1,0,-4,0.13,,72,7096,4,32,35,0.641,0.0,649,4.88,12.8,0.0,1,29.8,2.09,7.4,0,0,0,1,0,,,,,,,,,,,,,,,,,,,,
7304,0,,,248,250,235,231,,-0.08,-0.02,1.92,-1,-2,-5,0.08,,72,6970,5,32,36,0.642,0.0,653,4.91,13.0,0.0,1,30.0,2.13,6.9,0,0,0,1,0,,,,,,,,,,,,,,,,,,,,
7324,0,,,248,250,235,231,,-0.1,0.03,1.78,-1,1,-3,0.1,,72,6756,5,32,36,0.643,0.0,645,4.81,13.0,0.0,1,29.8,2.18,6.9,0,0,0,1,0,,,,,,,,,,,,,,,,,,,,
7344,0,0,1,248,251,236,231,-3,-0.03,0.01,1.95,-1,-2,-6,0.03,1,72,6569,5,32,37,0.643,0.0,637,4.95,13.1,0.0,1,29.9,1.06,6.9,0,0,0,1,0,0,250,250,0,0.0,0.0,0.0,0.0,0,0,0.0,0,0.0,-1,0.0,,0.0,0,0.0,0.1224
7364,0,,,248,252,236,231,,-0.09,-0.04,1.8,-1,-2,-6,0.09,,72,6379,5,32,38,0.645,0.0,630,4.85,12.9,0.0,1,29.9,1.11,6.9,0,0,0,1,0,,,,,,,,,,,,,,,,,,,,
7384,0,,,248,252,236,231,,-0.17,-0.04,1.66,-1,2,-1,0.17,,72,6155,5,32,39,0.647,0.0,626,4.88,12.8,0.0,1,29.9,1.17,6.9,0,0,0,1,0,,,,,,,,,,,,,,,,,,,,
7404,0,,,248,251,236,231,,-0.25,-0.03,1.53,-1,7,4,0.25,,72,5969,5,32,40,0.647,0.0,628,4.78,12.8,0.0,1,29.8,1.19,6.3,0,0,0,1,0,,,,,,,,,,,,,,,,,,,,
7424,0,,,248,251,236,231,,-0.33,-0.05,1.41,-0,8,6,0.33,,72,5824,5,32,41,0.648,0.0,617,4.88,13.0,0.0,1,29.6,2.36,6.3,0,0,0,1,0,,,,,,,,,,,,,,,,,,,,
7444,0,-1,3,248,250,236,231,-3,-0.26,-0.11,1.3,-0,4,2,0.29,1,72,5623,5,32,42,0.649,0.0,596,4.9,13.0,0.0,1,29.4,2.45,6.3,0,0,0,1,0,0,250,250,0,0.0,0.0,0.0,0.0,0,0,0.0,0,0.0,-1,0.0,0.0,0.0,0,0.0,0.1241
7464,0,,,248,252,236,231,,-0.19,-0.01,1.51,-0,-2,-3,0.19,,72,5433,5,32,43,0.65,0.0,587,4.87,13.0,0.0,1,29.3,2.54,6.3,0,0,0,1,0,,,,,,,,,,,,,,,,,,,,
7484,0,,,248,252,235,231,,-0.28,-0.02,1.39,-0,5,4,0.28,,72,5325,5,32,44,0.648,0.0,575,4.87,13.0,0.0,1,29.3,1.48,6.3,0,0,0,1,0,,,,,,,,,,,,,,,,,,,,
7504,0,,,248,251,235,231,,-0.17,0.01,1.59,-0,-2,-2,0.17,,72,5228,4,32,45,0.649,0.0,566,4.97,13.2,0.0,1,29.4,2.65,6.4,0,0,0,1,0,,,,,,,,,,,,,,,,,,,,
7524,0,,,248,252,236,231,,-0.21,0.01,1.47,0,2,3,0.21,,72,5125,5,32,46,0.648,0.0,551,4.92,13.0,0.0,1,29.5,1.6,6.4,0,0,0,1,0,,,,,,,,,,,,,,,,,,,,
7544,0,-1,2,248,250,236,231,-3,-0.22,0.04,1.67,-0,-0,0,0.22,1,72,4948,5,32,46,0.647,0.0,544,4.9,13.0,0.0,1,28.6,2.73,6.4,0,0,0,1,0,0,250,250,0,0.0,0.0,0.0,0.0,0,0,0.0,0,0.0,-1,0.0,,0.0,0,0.0,0.1257
7564,0,,,248,252,236,231,,-0.15,0.01,1.54,-0,-2,-1,0.15,,72,4912,5,32,47,0.647,0.0,526,4.94,13.1,0.0,1,28.5,2.74,6.4,0,0,0,1,0,,,,,,,,,,,,,,,,,,,,
7584,0,,,248,252,236,231,,-0.13,-0.0,1.42,-0,0,2,0.13,,72,4891,4,32,48,0.647,0.0,516,4.92,13.1,0.0,1,28.5,2.74,6.4,0,0,0,1,0,,,,,,,,,,,,,,,,,,,,
7604,0,,,248,252,236,231,,-0.16,-0.01,1.44,-0,0,2,0.16,,72,4757,4,32,48,0.646,0.0,517,4.89,13.1,0.0,1,26.9,1.56,5.8,0,0,0,1,0,,,,,,,,,,,,,,,,,,,,
7624,0,,,248,252,236,231,,-0.2,-0.01,1.57,-0,1,2,0.2,,72,4742,4,32,49,0.645,0.0,491,4.91,12.8,0.0,1,27.0,1.56,5.8,0,0,0,1,0,,,,,,,,,,,,,,,,,,,,
7644,0,-0,1,248,251,236,231,-4,-0.22,0.02,1.75,-0,1,1,0.22,1,72,4693,4,32,49,0.645,0.0,502,4.9,13.0,0.0,1,26.4,2.63,5.8,0,0,0,1,0,0,250,250,0,0.0,0.0,0.0,0.0,0,0,0.0,0,0.0,-1,0.0,0.0,0.0,0,0.0,0.1274
7664,0,,,248,250,236,231,,-0.18,0.03,1.93,-0,-0,0,0.19,,72,4617,4,32,50,0.645,0.0,496,4.89,13.1,0.0,1,25.8,2.6,5.8,0,0,0,1,0,,,,,,,,,,,,,,,,,,,,
7684,0,,,248,250,236,231,,-0.13,0.04,2.09,-0,-2,-1,0.14,,72,4666,4,32,50,0.645,0.0,481,4.94,13.2,0.0,1,26.4,2.63,5.8,0,0,0,1,0,,,,,,,,,,,,,,,,,,,,
7704,0,,,248,250,236,231,,-0.08,0.05,2.14,-0,-3,-2,0.1,,72,4574,4,32,50,0.644,0.0,487,4.91,13.2,0.0,1,25.2,2.58,5.5,0,0,0,1,0,,,,,,,,,,,,,,,,,,,,
7724,0,,,248,251,236,231,,-0.04,0.03,1.99,-0,-4,-3,0.05,,71,4615,4,32,51,0.645,0.0,471,4.93,13.2,0.0,1,26.0,2.61,5.5,0,0,0,1,0,,,,,,,,,,,,,,,,,,,,
7744,0,0,3,248,252,236,231,-4,-0.0,0.0,1.84,-0,-4,-3,0.0,1,71,4564,4,32,51,0.645,0.0,479,4.95,13.2,0.0,1,25.4,2.58,5.5,0,0,0,1,0,0,250,250,0,0.0,0.0,0.0,0.0,0,0,0.0,0,0.0,-1,0.0,,0.0,0,0.0,0.1291
