"Interval"|"ms"|0|0|1,"Utc"|"ms"|0|0|1,"Brake_F"|"Bar"|0|2000|10,"Brake_R"|"Bar"|0|2000|10,"Height_RF"|"mm"|0|255|50,"Height_LF"|"mm"|0|255|50,"Height_LR"|"mm"|0|80|50,"Height_RR"|"mm"|0|255|50,"Steering"|"deg"|-100|100|10,"AccelX"|"G"|-3.0|3.0|50,"AccelY"|"G"|-3.0|3.0|50,"AccelZ"|"G"|-3.0|3.0|50,"Yaw"|"Deg/Sec"|-120|120|50,"Pitch"|"Deg/Sec"|-120|120|50,"Roll"|"Deg/Sec"|-120|120|50,"Gsum"|"G"|0.0|3.0|50,"Log_Button"|""|0.0|10.0|10,"WaterTemp"|"C"|0|150|50,"RPM"|"tr/min"|0|14000|50,"TPS"|"%"|0|100|50,"AirTemp"|"C"|0|150|50,"MAP"|"KPa"|0|100|50,"Lambda"|""|0.5|1.5|50,"SpeedDTA"|"kph"|0.0|250.0|50,"OilPress"|"KPa"|0|1500|50,"FuelPressur"|"Bar"|0.0|10.0|50,"Batterie"|"V"|0.0|20.0|50,"ConsoKm"|"L/100km"|0.0|200.0|50,"Gear"|""|0|6|50,"AdvIgnition"|"Deg"|-20.0|70.0|50,"Injection"|"ms"|0.0|10.0|50,"ConsoHr"|"L/Hr"|0.0|10000.0|50,"LC_But_Pres"|""|0|1|50,"LC_Active"|""|0|1|50,"TractionOn"|""|0|1|50,"TractionWet"|""|0|1|50,"FanOn"|""|0|1|50,"RD_Speed"|"km/h"|-30|250|10,"RUD_Speed"|"km/h"|-30|250|10,"LD_Speed"|"km/h"|-30|250|10,"LUD_Speed"|"km/h"|-30|250|10,"Latitude"|"Degrees"|-180.0|180.0|10,"Longitude"|"Degrees"|-180.0|180.0|10,"Speed"|"kph"|0.0|150.0|10,"Altitude"|"m"|0.0|4000.0|10,"GPSSats"|""|0|20|10,"GPSQual"|""|0|5|10,"GPSDOP"|""|0.0|20.0|10,"LapCount"|""|0|0|10,"LapTime"|"Min"|0.0|0.0|10,"Sector"|""|0|0|10,"SectorTime"|"Min"|0.0|0.0|10,"PredTime"|"Min"|0.0|0.0|5,"ElapsedTime"|"Min"|0.0|0.0|10,"CurrentLap"|""|0|0|10,"Distance"|"km"|0.0|0.0|10,"SessionTime"|"Min"|0.0|0.0|10
2063,0,,,246,250,238,233,,-0.04,0.02,0.99,-0,-0,-0,0.05,,69,0,4,32,99,0.503,0.0,113,4.9,13.0,0.0,1,0.0,0.0,0.0,0,0,0,1,0,,,,,,,,,,,,,,,,,,,,
2083,0,,,246,249,238,233,,-0.04,0.02,0.99,-0,-0,-0,0.05,,69,0,4,32,99,0.503,0.0,112,4.93,13.0,0.0,1,0.0,0.0,0.0,0,0,0,1,0,,,,,,,,,,,,,,,,,,,,
2103,0,,,246,249,238,233,,-0.04,0.02,0.99,-0,-0,-0,0.05,,69,0,4,32,99,0.503,0.0,113,4.91,13.0,0.0,1,0.0,0.0,0.0,0,0,0,1,0,,,,,,,,,,,,,,,,,,,,
2123,0,,,246,250,238,233,,-0.04,0.02,0.99,-0,-0,-0,0.05,,69,0,4,32,99,0.503,0.0,113,4.91,13.0,0.0,1,0.0,0.0,0.0,0,0,0,1,0,,,,,,,,,,,,,,,,,,,,
2143,0,9,9,246,249,238,233,2,-0.04,0.02,0.99,-0,-0,-0,0.05,1,69,0,4,32,99,0.503,0.0,113,4.92,13.0,0.0,1,0.0,0.0,0.0,0,0,0,1,0,0,250,250,0,0.0,0.0,0.0,0.0,0,0,0.0,0,0.0,-1,0.0,,0.0,0,0.0,0.0357
2163,0,,,246,249,238,233,,-0.04,0.02,0.99,-0,-0,-0,0.05,,69,0,4,32,99,0.504,0.0,113,4.9,13.0,0.0,1,0.0,0.0,0.0,0,0,0,1,0,,,,,,,,,,,,,,,,,,,,
2183,0,,,246,249,238,233,,-0.04,0.02,0.99,-0,-0,-0,0.05,,69,0,4,32,99,0.504,0.0,113,4.91,13.0,0.0,1,0.0,0.0,0.0,0,0,0,1,0,,,,,,,,,,,,,,,,,,,,
2203,0,,,246,249,238,233,,-0.04,0.02,0.99,-0,-0,-0,0.05,,69,0,4,32,99,0.506,0.0,113,4.9,12.9,0.0,1,0.0,0.0,0.0,0,0,0,1,0,,,,,,,,,,,,,,,,,,,,
2223,0,,,246,249,238,233,,-0.04,0.02,0.99,-0,-0,-0,0.05,,69,0,4,32,99,0.51,0.0,113,4.92,12.9,0.0,1,0.0,0.0,0.0,0,0,0,1,0,,,,,,,,,,,,,,,,,,,,
2243,0,9,9,246,249,238,233,2,-0.04,0.02,0.99,-0,-0,-0,0.05,1,69,0,4,32,99,0.516,0.0,113,4.91,12.9,0.0,1,0.0,0.0,0.0,0,0,0,1,0,0,250,250,0,0.0,0.0,0.0,0.0,0,0,0.0,0,0.0,-1,0.0,0.0,0.0,0,0.0,0.0374
2263,0,,,246,249,238,233,,-0.04,0.02,0.99,-0,-0,-0,0.05,,69,0,4,32,99,0.521,0.0,113,4.92,12.9,0.0,1,0.0,0.0,0.0,0,0,0,1,0,,,,,,,,,,,,,,,,,,,,
2283,0,,,246,250,238,233,,-0.04,0.02,0.99,-0,-0,-0,0.05,,69,0,4,32,99,0.526,0.0,113,4.91,12.9,0.0,1,0.0,0.0,0.0,0,0,0,1,0,,,,,,,,,,,,,,,,,,,,
2303,0,,,246,250,238,233,,-0.04,0.02,0.99,-0,-0,-0,0.05,,69,0,4,32,99,0.53,0.0,113,4.9,12.9,0.0,1,0.0,0.0,0.0,0,0,0,1,0,,,,,,,,,,,,,,,,,,,,
2323,0,,,246,249,238,233,,-0.04,0.02,0.99,-0,-0,-0,0.05,,69,0,4,32,99,0.535,0.0,113,4.9,12.9,0.0,1,0.0,0.0,0.0,0,0,0,1,0,,,,,,,,,,,,,,,,,,,,
2343,0,10,7,246,249,238,233,2,-0.04,0.02,0.99,-0,-0,-0,0.05,1,69,0,4,32,99,0.541,0.0,113,4.9,12.9,0.0,1,0.0,0.0,0.0,0,0,0,1,0,0,250,250,0,0.0,0.0,0.0,0.0,0,0,0.0,0,0.0,-1,0.0,,0.0,0,0.0,0.0391
2363,0,,,246,249,238,233,,-0.04,0.02,0.99,-0,-0,-0,0.05,,69,0,4,32,99,0.547,0.0,113,4.91,12.9,0.0,1,0.0,0.0,0.0,0,0,0,1,0,,,,,,,,,,,,,,,,,,,,
2383,0,,,246,249,238,233,,-0.04,0.02,0.99,-0,-0,-0,0.05,,69,0,4,32,99,0.553,0.0,113,4.9,12.9,0.0,1,0.0,0.0,0.0,0,0,0,1,0,,,,,,,,,,,,,,,,,,,,
2403,0,,,246,249,238,233,,-0.04,0.02,0.98,-0,-0,-0,0.05,,69,0,4,32,99,0.558,0.0,113,4.9,12.9,0.0,1,0.0,0.0,0.0,0,0,0,1,0,,,,,,,,,,,,,,,,,,,,
2423,0,,,246,249,238,233,,-0.04,0.02,0.99,-0,-0,-0,0.05,,69,0,4,32,99,0.563,0.0,113,4.92,12.9,0.0,1,0.0,0.0,0.0,0,0,0,1,0,,,,,,,,,,,,,,,,,,,,
2443,0,8,9,246,249,238,233,2,-0.04,0.02,0.99,-0,-0,-0,0.05,1,69,0,4,32,99,0.567,0.0,113,4.9,12.9,0.0,1,0.0,0.0,0.0,0,0,0,1,0,0,250,250,0,0.0,0.0,0.0,0.0,0,0,0.0,0,0.0,-1,0.0,0.0,0.0,0,0.0,0.0407
2463,0,,,246,249,238,233,,-0.04,0.02,0.99,-0,-0,-0,0.05,,69,0,4,32,99,0.569,0.0,113,4.91,12.9,0.0,1,0.0,0.0,0.0,0,0,0,1,0,,,,,,,,,,,,,,,,,,,,
2483,0,,,246,250,238,233,,-0.04,0.02,0.99,-0,-0,-0,0.05,,69,0,4,32,99,0.57,0.0,113,4.91,12.9,0.0,1,0.0,0.0,0.0,0,0,0,1,0,,,,,,,,,,,,,,,,,,,,
2503,0,,,246,249,238,233,,-0.04,0.02,0.99,-0,-0,-0,0.05,,69,0,4,32,99,0.57,0.0,113,4.91,12.9,0.0,1,0.0,0.0,0.0,0,0,0,1,0,,,,,,,,,,,,,,,,,,,,
2523,0,,,246,249,238,233,,-0.04,0.02,0.99,-0,-0,-0,0.05,,69,0,4,32,99,0.569,0.0,113,4.9,13.0,0.0,1,0.0,0.0,0.0,0,0,0,1,0,,,,,,,,,,,,,,,,,,,,
2543,0,8,9,246,249,238,233,2,-0.04,0.02,0.99,-0,-0,-0,0.05,1,69,0,4,32,99,0.567,0.0,113,4.92,13.0,0.0,1,0.0,0.0,0.0,0,0,0,1,0,0,250,250,0,0.0,0.0,0.0,0.0,0,0,0.0,0,0.0,-1,0.0,,0.0,0,0.0,0.0424
2563,0,,,246,249,238,233,,-0.04,0.02,0.99,-0,-0,-0,0.05,,69,0,4,32,99,0.565,0.0,113,4.92,13.0,0.0,1,0.0,0.0,0.0,0,0,0,1,0,,,,,,,,,,,,,,,,,,,,
2583,0,,,246,249,238,233,,-0.04,0.02,0.99,-0,-0,-0,0.05,,69,0,4,32,99,0.564,0.0,113,4.91,13.0,0.0,1,0.0,0.0,0.0,0,0,0,1,0,,,,,,,,,,,,,,,,,,,,
2603,0,,,246,249,238,233,,-0.04,0.02,0.99,-0,-0,-0,0.05,,69,0,4,32,99,0.562,0.0,113,4.9,13.0,0.0,1,0.0,0.0,0.0,0,0,0,1,0,,,,,,,,,,,,,,,,,,,,
2623,0,,,246,249,238,233,,-0.04,0.02,0.99,-0,-0,-0,0.05,,69,0,4,32,99,0.56,0.0,113,4.91,13.0,0.0,1,0.0,0.0,0.0,0,0,0,1,0,,,,,,,,,,,,,,,,,,,,
2643,0,10,7,246,249,238,233,2,-0.04,0.02,0.99,-0,-0,-0,0.05,1,69,0,4,32,99,0.559,0.0,113,4.91,13.0,0.0,1,0.0,0.0,0.0,0,0,0,1,0,0,250,250,0,0.0,0.0,0.0,0.0,0,0,0.0,0,0.0,-1,0.0,0.0,0.0,0,0.0,0.044
2663,0,,,246,249,238,233,,-0.04,0.02,0.99,-0,-0,-0,0.05,,69,0,4,32,99,0.556,0.0,113,4.91,13.0,0.0,1,0.0,0.0,0.0,0,0,0,1,0,,,,,,,,,,,,,,,,,,,,
2683,0,,,246,250,238,233,,-0.04,0.02,0.99,-0,-0,-0,0.05,,69,0,4,32,99,0.554,0.0,113,4.91,13.0,0.0,1,0.0,0.0,0.0,0,0,0,1,0,,,,,,,,,,,,,,,,,,,,
2703,0,,,246,249,238,233,,-0.04,0.02,0.99,-0,-0,-0,0.05,,69,0,4,32,99,0.552,0.0,113,4.9,13.0,0.0,1,0.0,0.0,0.0,0,0,0,1,0,,,,,,,,,,,,,,,,,,,,
2723,0,,,246,249,238,233,,-0.04,0.02,0.99,-0,-0,-0,0.05,,69,0,4,32,99,0.551,0.0,113,4.9,13.0,0.0,1,0.0,0.0,0.0,0,0,0,1,0,,,,,,,,,,,,,,,,,,,,
2743,0,10,7,246,249,238,233,3,-0.04,0.02,0.99,-0,-0,-0,0.05,1,69,0,4,32,99,0.55,0.0,113,4.92,13.0,0.0,1,0.0,0.0,0.0,0,0,0,1,0,0,250,250,0,0.0,0.0,0.0,0.0,0,0,0.0,0,0.0,-1,0.0,,0.0,0,0.0,0.0457
2763,0,,,246,249,238,233,,-0.04,0.02,0.99,-0,-0,-0,0.05,,69,0,4,32,99,0.549,0.0,113,4.9,13.0,0.0,1,0.0,0.0,0.0,0,0,0,1,0,,,,,,,,,,,,,,,,,,,,
2783,0,,,246,249,238,233,,-0.04,0.02,0.99,-0,-0,-0,0.05,,69,0,4,32,99,0.549,0.0,113,4.91,13.0,0.0,1,0.0,0.0,0.0,0,0,0,1,0,,,,,,,,,,,,,,,,,,,,
2803,0,,,246,249,238,233,,-0.04,0.02,0.99,-0,-0,-0,0.05,,69,0,4,32,99,0.55,0.0,113,4.91,13.0,0.0,1,0.0,0.0,0.0,0,0,0,1,0,,,,,,,,,,,,,,,,,,,,
2823,0,,,246,249,238,233,,-0.04,0.02,0.99,-0,-0,-0,0.05,,69,0,4,32,99,0.552,0.0,113,4.91,13.0,0.0,1,0.0,0.0,0.0,0,0,0,1,0,,,,,,,,,,,,,,,,,,,,
2843,0,8,7,246,249,238,233,2,-0.04,0.02,0.99,-0,-0,-0,0.05,1,69,0,4,32,99,0.553,0.0,113,4.91,13.0,0.0,1,0.0,0.0,0.0,0,0,0,1,0,0,250,250,0,0.0,0.0,0.0,0.0,0,0,0.0,0,0.0,-1,0.0,0.0,0.0,0,0.0,0.0474
2863,0,,,246,249,238,233,,-0.04,0.02,0.99,-0,-0,-0,0.05,,69,0,4,32,99,0.555,0.0,113,4.91,13.0,0.0,1,0.0,0.0,0.0,0,0,0,1,0,,,,,,,,,,,,,,,,,,,,
2883,0,,,246,249,238,233,,-0.04,0.02,0.99,-0,-0,-0,0.05,,69,0,4,32,99,0.557,0.0,113,4.9,13.0,0.0,1,0.0,0.0,0.0,0,0,0,1,0,,,,,,,,,,,,,,,,,,,,
2903,0,,,246,249,238,233,,-0.04,0.02,0.99,-0,-0,-0,0.05,,69,0,4,32,99,0.56,0.0,113,4.91,13.0,0.0,1,0.0,0.0,0.0,0,0,0,1,0,,,,,,,,,,,,,,,,,,,,
2923,0,,,246,249,238,233,,-0.04,0.02,0.99,-0,-0,-0,0.05,,69,0,4,32,99,0.562,0.0,113,4.9,13.0,0.0,1,0.0,0.0,0.0,0,0,0,1,0,,,,,,,,,,,,,,,,,,,,
2943,0,10,7,246,249,238,233,2,-0.04,0.02,0.99,-0,-0,-0,0.05,1,69,0,4,32,99,0.565,0.0,113,4.9,13.0,0.0,1,0.0,0.0,0.0,0,0,0,1,0,0,250,250,0,0.0,0.0,0.0,0.0,0,0,0.0,0,0.0,-1,0.0,,0.0,0,0.0,0.049
2963,0,,,246,249,238,233,,-0.04,0.02,0.99,-0,-0,-0,0.05,,69,0,4,32,99,0.567,0.0,113,4.9,13.0,0.0,1,0.0,0.0,0.0,0,0,0,1,0,,,,,,,,,,,,,,,,,,,,
2983,0,,,246,249,238,233,,-0.04,0.02,0.99,-0,-0,-0,0.05,,69,0,4,32,99,0.569,0.0,113,4.92,13.0,0.0,1,0.0,0.0,0.0,0,0,0,1,0,,,,,,,,,,,,,,,,,,,,
3003,0,,,246,249,238,233,,-0.04,0.02,0.99,-0,-0,-0,0.05,,69,0,4,32,99,0.572,0.0,113,4.9,13.0,0.0,1,0.0,0.0,0.0,0,0,0,1,0,,,,,,,,,,,,,,,,,,,,
3023,0,,,246,249,238,233,,-0.04,0.02,0.99,-0,-0,-0,0.05,,69,0,4,32,99,0.574,0.0,113,4.9,13.0,0.0,1,0.0,0.0,0.0,0,0,0,1,0,,,,,,,,,,,,,,,,,,,,
3043,0,10,9,246,249,238,233,2,-0.04,0.02,0.99,-0,-0,-0,0.05,1,69,0,4,32,99,0.577,0.0,113,4.91,13.0,0.0,1,0.0,0.0,0.0,0,0,0,0,0,0,250,250,0,0.0,0.0,0.0,0.0,0,0,0.0,0,0.0,-1,0.0,0.0,0.0,0,0.0,0.0507
3063,0,,,246,250,238,233,,-0.04,0.02,0.99,-0,-0,-0,0.05,,69,0,4,32,99,0.581,0.0,113,4.85,13.2,0.0,1,0.0,0.0,0.0,0,0,0,0,0,,,,,,,,,,,,,,,,,,,,
3083,0,,,246,249,238,233,,-0.04,0.02,0.99,-0,-0,-0,0.05,,69,0,4,32,99,0.583,0.0,113,4.68,13.2,0.0,1,0.0,0.0,0.0,0,0,0,0,0,,,,,,,,,,,,,,,,,,,,
3103,0,,,246,249,238,233,,-0.04,0.02,0.99,-0,-0,-0,0.05,,69,0,4,32,99,0.586,0.0,113,3.76,13.2,0.0,1,0.0,0.0,0.0,0,0,0,0,0,,,,,,,,,,,,,,,,,,,,
3123,0,,,246,249,238,233,,-0.04,0.02,0.99,-0,-0,-0,0.05,,69,0,4,32,99,0.588,0.0,113,3.44,13.2,0.0,1,0.0,0.0,0.0,0,0,0,0,0,,,,,,,,,,,,,,,,,,,,
3143,0,10,8,246,250,238,233,2,-0.04,0.02,0.99,-0,-0,-0,0.05,1,69,0,4,32,99,0.591,0.0,113,3.24,13.2,0.0,1,0.0,0.0,0.0,0,0,0,0,0,0,250,250,0,0.0,0.0,0.0,0.0,0,0,0.0,0,0.0,-1,0.0,,0.0,0,0.0,0.0524
3163,0,,,246,249,238,233,,-0.04,0.02,0.99,-0,-0,-0,0.05,,69,0,4,32,99,0.593,0.0,113,3.07,13.2,0.0,1,0.0,0.0,0.0,0,0,0,0,0,,,,,,,,,,,,,,,,,,,,
3183,0,,,246,250,238,233,,-0.04,0.02,0.99,-0,-0,-0,0.05,,69,0,4,32,99,0.595,0.0,113,2.93,13.2,0.0,1,0.0,0.0,0.0,0,0,0,0,0,,,,,,,,,,,,,,,,,,,,
3203,0,,,246,250,238,233,,-0.04,0.02,0.99,-0,-0,-0,0.05,,69,0,4,32,99,0.597,0.0,113,2.81,13.2,0.0,1,0.0,0.0,0.0,0,0,0,0,0,,,,,,,,,,,,,,,,,,,,
3223,0,,,246,250,238,233,,-0.04,0.02,0.99,-0,-0,-0,0.05,,69,0,4,32,99,0.6,0.0,113,2.71,13.2,0.0,1,0.0,0.0,0.0,0,0,0,0,0,,,,,,,,,,,,,,,,,,,,
3243,0,8,7,246,249,238,233,2,-0.04,0.02,0.99,-0,-0,-0,0.05,1,69,0,4,32,99,0.603,0.0,113,2.62,13.2,0.0,1,0.0,0.0,0.0,0,0,0,0,0,0,250,250,0,0.0,0.0,0.0,0.0,0,0,0.0,0,0.0,-1,0.0,0.0,0.0,0,0.0,0.054
3263,0,,,246,249,238,233,,-0.04,0.02,0.99,-0,-0,-0,0.05,,69,0,4,32,99,0.605,0.0,113,2.54,13.2,0.0,1,0.0,0.0,0.0,0,0,0,0,0,,,,,,,,,,,,,,,,,,,,
3283,0,,,246,250,238,233,,-0.04,0.02,0.99,-0,-0,-0,0.05,,69,0,4,32,99,0.607,0.0,113,2.48,13.2,0.0,1,0.0,0.0,0.0,0,0,0,0,0,,,,,,,,,,,,,,,,,,,,
3303,0,,,246,249,238,233,,-0.04,0.02,0.99,-0,-0,-0,0.05,,69,0,4,32,99,0.61,0.0,113,2.41,13.2,0.0,1,0.0,0.0,0.0,0,0,0,0,0,,,,,,,,,,,,,,,,,,,,
3323,0,,,246,249,238,233,,-0.04,0.02,0.99,-0,-0,-0,0.05,,69,0,4,32,99,0.612,0.0,113,2.35,13.2,0.0,1,0.0,0.0,0.0,0,0,0,0,0,,,,,,,,,,,,,,,,,,,,
3343,0,8,9,246,249,238,233,2,-0.04,0.02,0.99,-0,-0,-0,0.05,1,69,0,4,32,99,0.614,0.0,113,2.3,13.2,0.0,1,0.0,0.0,0.0,0,0,0,0,0,0,250,250,0,0.0,0.0,0.0,0.0,0,0,0.0,0,0.0,-1,0.0,,0.0,0,0.0,0.0557
3363,0,,,246,249,238,233,,-0.04,0.02,0.99,-0,-0,-0,0.05,,69,0,4,32,99,0.616,0.0,113,2.24,13.2,0.0,1,0.0,0.0,0.0,0,0,0,0,0,,,,,,,,,,,,,,,,,,,,
3383,0,,,246,249,238,233,,-0.04,0.02,0.99,-0,-0,-0,0.05,,69,0,4,32,99,0.619,0.0,113,2.21,13.2,0.0,1,0.0,0.0,0.0,0,0,0,0,0,,,,,,,,,,,,,,,,,,,,
3403,0,,,246,249,238,233,,-0.04,0.02,0.99,-0,-0,-0,0.05,,69,0,4,32,99,0.621,0.0,113,2.16,13.2,0.0,1,0.0,0.0,0.0,0,0,0,0,0,,,,,,,,,,,,,,,,,,,,
3423,0,,,246,249,238,233,,-0.04,0.02,0.99,-0,-0,-0,0.05,,69,0,4,32,99,0.624,0.0,113,2.13,13.2,0.0,1,0.0,0.0,0.0,0,0,0,0,0,,,,,,,,,,,,,,,,,,,,
3443,0,10,10,246,250,238,233,3,-0.04,0.02,0.99,-0,-0,-0,0.05,1,69,0,4,32,99,0.626,0.0,113,2.08,13.2,0.0,1,0.0,0.0,0.0,0,0,0,0,0,0,250,250,0,0.0,0.0,0.0,0.0,0,0,0.0,0,0.0,-1,0.0,0.0,0.0,0,0.0,0.0574
3463,0,,,246,249,238,233,,-0.04,0.02,0.99,-0,-0,-0,0.05,,69,0,4,32,99,0.629,0.0,113,2.05,13.2,0.0,1,0.0,0.0,0.0,0,0,0,0,0,,,,,,,,,,,,,,,,,,,,
3483,0,,,246,250,238,233,,-0.04,0.02,0.99,-0,-0,-0,0.05,,69,0,4,32,99,0.631,0.0,113,2.02,13.2,0.0,1,0.0,0.0,0.0,0,0,0,0,0,,,,,,,,,,,,,,,,,,,,
3503,0,,,246,250,238,233,,-0.04,0.02,0.99,-0,-0,-0,0.05,,69,0,4,32,99,0.634,0.0,113,2.0,13.2,0.0,1,0.0,0.0,0.0,0,0,0,0,0,,,,,,,,,,,,,,,,,,,,
3523,0,,,246,249,238,233,,-0.04,0.02,0.99,-0,-0,-0,0.05,,69,0,4,32,99,0.635,0.0,113,1.97,13.2,0.0,1,0.0,0.0,0.0,0,0,0,0,0,,,,,,,,,,,,,,,,,,,,
3543,0,9,10,246,249,238,233,2,-0.04,0.02,0.99,-0,-0,-0,0.05,1,69,0,4,32,99,0.638,0.0,113,1.94,13.2,0.0,1,0.0,0.0,0.0,0,0,0,0,0,0,250,250,0,0.0,0.0,0.0,0.0,0,0,0.0,0,0.0,-1,0.0,,0.0,0,0.0,0.059
3563,0,,,246,249,238,233,,-0.04,0.02,0.99,-0,-0,-0,0.05,,69,0,4,32,99,0.639,0.0,113,1.92,13.2,0.0,1,0.0,0.0,0.0,0,0,0,0,0,,,,,,,,,,,,,,,,,,,,
3583,0,,,246,250,238,233,,-0.04,0.02,0.99,-0,-0,-0,0.05,,69,0,4,32,99,0.641,0.0,113,1.89,13.1,0.0,1,0.0,0.0,0.0,0,0,0,0,0,,,,,,,,,,,,,,,,,,,,
3603,0,,,246,249,238,233,,-0.04,0.02,0.99,-0,-0,-0,0.05,,69,0,4,32,99,0.642,0.0,113,1.86,13.2,0.0,1,0.0,0.0,0.0,0,0,0,0,0,,,,,,,,,,,,,,,,,,,,
3623,0,,,246,249,238,233,,-0.04,0.02,0.99,-0,-0,-0,0.05,,69,0,4,32,99,0.644,0.0,113,1.84,13.2,0.0,1,0.0,0.0,0.0,0,0,0,0,0,,,,,,,,,,,,,,,,,,,,
3643,0,10,8,246,249,238,233,2,-0.04,0.02,0.99,-0,-0,-0,0.05,1,69,0,4,32,99,0.644,0.0,113,1.83,13.2,0.0,1,0.0,0.0,0.0,0,0,0,0,0,0,250,250,0,0.0,0.0,0.0,0.0,0,0,0.0,0,0.0,-1,0.0,0.0,0.0,0,0.0,0.0607
3663,0,,,246,250,238,233,,-0.04,0.02,0.99,-0,-0,-0,0.05,,69,0,4,32,99,0.645,0.0,113,1.8,13.2,0.0,1,0.0,0.0,0.0,0,0,0,0,0,,,,,,,,,,,,,,,,,,,,
3683,0,,,246,249,238,233,,-0.04,0.02,0.99,-0,-0,-0,0.05,,69,0,4,32,99,0.645,0.0,113,1.78,13.2,0.0,1,0.0,0.0,0.0,0,0,0,0,0,,,,,,,,,,,,,,,,,,,,
3703,0,,,246,249,238,233,,-0.04,0.02,0.99,-0,-0,-0,0.05,,69,0,4,32,99,0.645,0.0,113,1.78,13.2,0.0,1,0.0,0.0,0.0,0,0,0,0,0,,,,,,,,,,,,,,,,,,,,
3723,0,,,246,249,238,233,,-0.04,0.02,0.99,-0,-0,-0,0.05,,69,0,4,32,99,0.646,0.0,113,1.75,13.2,0.0,1,0.0,0.0,0.0,0,0,0,0,0,,,,,,,,,,,,,,,,,,,,
3743,0,8,9,246,249,238,233,2,-0.04,0.02,0.99,-0,-0,-0,0.05,1,69,0,4,32,99,0.645,0.0,113,1.73,13.2,0.0,1,0.0,0.0,0.0,0,0,0,0,0,0,250,250,0,0.0,0.0,0.0,0.0,0,0,0.0,0,0.0,-1,0.0,,0.0,0,0.0,0.0624
3763,0,,,246,249,238,233,,-0.04,0.02,0.99,-0,-0,-0,0.05,,69,0,4,32,99,0.646,0.0,113,1.73,13.2,0.0,1,0.0,0.0,0.0,0,0,0,0,0,,,,,,,,,,,,,,,,,,,,
3783,0,,,246,249,238,233,,-0.04,0.02,0.99,-0,-0,-0,0.05,,69,0,4,32,99,0.646,0.0,113,1.7,13.2,0.0,1,0.0,0.0,0.0,0,0,0,0,0,,,,,,,,,,,,,,,,,,,,
3803,0,,,246,249,238,233,,-0.04,0.02,0.99,-0,-0,-0,0.05,,69,0,4,32,99,0.645,0.0,113,1.69,13.2,0.0,1,0.0,0.0,0.0,0,0,0,0,0,,,,,,,,,,,,,,,,,,,,
3823,0,,,246,249,238,233,,-0.04,0.02,0.99,-0,-0,-0,0.05,,69,0,4,32,99,0.645,0.0,113,1.67,13.2,0.0,1,0.0,0.0,0.0,0,0,0,0,0,,,,,,,,,,,,,,,,,,,,
3843,0,8,8,246,250,238,233,3,-0.04,0.02,0.99,-0,-0,-0,0.05,1,69,0,4,32,99,0.645,0.0,113,1.67,13.2,0.0,1,0.0,0.0,0.0,0,0,0,0,0,0,250,250,0,0.0,0.0,0.0,0.0,0,0,0.0,0,0.0,-1,0.0,0.0,0.0,0,0.0,0.064
3863,0,,,246,249,238,233,,-0.04,0.02,0.99,-0,-0,-0,0.05,,69,0,4,32,99,0.644,0.0,113,1.64,13.2,0.0,1,0.0,0.0,0.0,0,0,0,0,0,,,,,,,,,,,,,,,,,,,,
3883,0,,,246,249,238,233,,-0.04,0.02,0.99,-0,-0,-0,0.05,,69,0,4,32,99,0.644,0.0,113,1.62,13.2,0.0,1,0.0,0.0,0.0,0,0,0,0,0,,,,,,,,,,,,,,,,,,,,
3903,0,,,246,249,238,233,,-0.04,0.02,0.99,-0,-0,-0,0.05,,69,0,4,32,99,0.644,0.0,112,1.61,13.2,0.0,1,0.0,0.0,0.0,0,0,0,0,0,,,,,,,,,,,,,,,,,,,,
3923,0,,,246,250,238,233,,-0.04,0.02,0.99,-0,-0,-0,0.05,,69,0,4,32,99,0.644,0.0,113,1.61,13.2,0.0,1,0.0,0.0,0.0,0,0,0,0,0,,,,,,,,,,,,,,,,,,,,
3943,0,9,9,246,249,238,233,2,-0.04,0.02,0.99,-0,-0,-0,0.05,1,69,0,4,32,99,0.644,0.0,113,1.58,13.2,0.0,1,0.0,0.0,0.0,0,0,0,0,0,0,250,250,0,0.0,0.0,0.0,0.0,0,0,0.0,0,0.0,-1,0.0,,0.0,0,0.0,0.0657
3963,0,,,246,249,238,233,,-0.05,0.02,0.99,-0,-0,-0,0.05,,69,0,4,32,99,0.645,0.0,113,1.58,13.2,0.0,1,0.0,0.0,0.0,0,0,0,0,0,,,,,,,,,,,,,,,,,,,,
3983,0,,,246,249,238,233,,-0.05,0.02,0.99,-0,-0,-0,0.05,,69,0,4,32,99,0.644,0.0,113,1.56,13.2,0.0,1,0.0,0.0,0.0,0,0,0,0,0,,,,,,,,,,,,,,,,,,,,
4003,0,,,246,249,238,233,,-0.04,0.02,0.99,-0,-0,-0,0.05,,69,0,4,32,99,0.645,0.0,113,1.56,13.2,0.0,1,0.0,0.0,0.0,0,0,0,0,0,,,,,,,,,,,,,,,,,,,,
4023,0,,,246,250,238,233,,-0.04,0.02,0.98,-0,-0,-0,0.05,,69,0,4,32,99,0.645,0.0,113,1.56,13.2,0.0,1,0.0,0.0,0.0,0,0,0,0,0,,,,,,,,,,,,,,,,,,,,
4043,0,9,9,246,249,238,233,2,-0.04,0.02,0.98,-0,-0,-0,0.05,1,69,0,4,32,99,0.645,0.0,113,1.53,13.2,0.0,1,0.0,0.0,0.0,0,0,0,0,0,0,250,250,0,0.0,0.0,0.0,0.0,0,0,0.0,0,0.0,-1,0.0,0.0,0.0,0,0.0,0.0674
4063,0,,,246,249,238,233,,-0.04,0.02,0.99,-0,-0,-0,0.05,,69,0,4,32,99,0.646,0.0,113,1.53,13.2,0.0,1,0.0,0.0,0.0,0,0,0,0,0,,,,,,,,,,,,,,,,,,,,
4083,0,,,246,250,238,233,,-0.04,0.02,0.99,-0,-0,-0,0.05,,69,0,4,32,99,0.646,0.0,113,1.52,13.2,0.0,1,0.0,0.0,0.0,0,0,0,0,0,,,,,,,,,,,,,,,,,,,,
4103,0,,,246,250,238,233,,-0.05,0.02,0.99,-0,-0,-0,0.05,,69,0,4,32,99,0.647,0.0,113,1.51,13.2,0.0,1,0.0,0.0,0.0,0,0,0,0,0,,,,,,,,,,,,,,,,,,,,
4123,0,,,246,250,238,233,,-0.05,0.02,0.99,-0,-0,-0,0.05,,69,0,4,32,99,0.647,0.0,113,1.51,13.2,0.0,1,0.0,0.0,0.0,0,0,0,0,0,,,,,,,,,,,,,,,,,,,,
4143,0,8,9,246,249,238,233,2,-0.05,0.02,0.99,-0,-0,-0,0.05,1,69,0,4,32,99,0.647,0.0,113,1.51,13.2,0.0,1,0.0,0.0,0.0,0,0,0,0,0,0,250,250,0,0.0,0.0,0.0,0.0,0,0,0.0,0,0.0,-1,0.0,,0.0,0,0.0,0.069
4163,0,,,246,249,238,233,,-0.04,0.02,0.99,-0,-0,-0,0.05,,69,0,4,32,99,0.647,0.0,113,1.48,13.2,0.0,1,0.0,0.0,0.0,0,0,0,0,0,,,,,,,,,,,,,,,,,,,,
4183,0,,,246,249,238,233,,-0.04,0.02,0.98,-0,-0,-0,0.05,,69,0,4,32,99,0.647,0.0,113,1.48,13.2,0.0,1,0.0,0.0,0.0,0,0,0,0,0,,,,,,,,,,,,,,,,,,,,
4203,0,,,246,250,238,233,,-0.04,0.02,0.98,-0,-0,-0,0.05,,69,0,4,32,99,0.646,0.0,113,1.48,13.2,0.0,1,0.0,0.0,0.0,0,0,0,0,0,,,,,,,,,,,,,,,,,,,,
4223,0,,,246,249,238,233,,-0.04,0.02,0.99,-0,-0,-0,0.05,,69,0,4,32,99,0.646,0.0,113,1.47,13.2,0.0,1,0.0,0.0,0.0,0,0,0,0,0,,,,,,,,,,,,,,,,,,,,
4243,0,10,8,246,249,238,233,2,-0.04,0.02,0.99,-0,-0,-0,0.05,1,69,0,4,32,99,0.646,0.0,113,1.45,13.2,0.0,1,0.0,0.0,0.0,0,0,0,0,0,0,250,250,0,0.0,0.0,0.0,0.0,0,0,0.0,0,0.0,-1,0.0,0.0,0.0,0,0.0,0.0707
4263,0,,,246,249,238,233,,-0.04,0.02,0.99,-0,-0,-0,0.05,,69,0,4,32,99,0.646,0.0,113,1.45,13.2,0.0,1,0.0,0.0,0.0,0,0,0,0,0,,,,,,,,,,,,,,,,,,,,
4283,0,,,246,249,238,233,,-0.04,0.02,0.99,-0,-0,-0,0.05,,69,0,4,32,99,0.646,0.0,113,1.45,13.2,0.0,1,0.0,0.0,0.0,0,0,0,0,0,,,,,,,,,,,,,,,,,,,,
4303,0,,,246,249,238,233,,-0.04,0.02,0.99,-0,-0,-0,0.05,,69,0,4,32,99,0.646,0.0,113,1.45,13.2,0.0,1,0.0,0.0,0.0,0,0,0,0,0,,,,,,,,,,,,,,,,,,,,
4323,0,,,246,249,238,233,,-0.04,0.02,0.99,-0,-0,-0,0.05,,69,0,4,32,99,0.646,0.0,113,1.42,13.2,0.0,1,0.0,0.0,0.0,0,0,0,0,0,,,,,,,,,,,,,,,,,,,,
4343,0,10,7,246,249,238,233,2,-0.04,0.02,0.99,-0,-0,-0,0.05,1,69,0,4,32,99,0.646,0.0,113,1.42,13.2,0.0,1,0.0,0.0,0.0,0,0,0,0,0,0,250,250,0,0.0,0.0,0.0,0.0,0,0,0.0,0,0.0,-1,0.0,,0.0,0,0.0,0.0724
4363,0,,,246,249,238,233,,-0.04,0.02,0.99,-0,-0,-0,0.05,,69,0,4,32,99,0.645,0.0,113,1.42,13.2,0.0,1,0.0,0.0,0.0,0,0,0,0,0,,,,,,,,,,,,,,,,,,,,
4383,0,,,246,249,238,233,,-0.04,0.02,0.99,-0,-0,-0,0.05,,69,0,4,32,99,0.645,0.0,113,1.42,13.2,0.0,1,0.0,0.0,0.0,0,0,0,0,0,,,,,,,,,,,,,,,,,,,,
4403,0,,,246,249,238,233,,-0.04,0.02,0.99,-0,-0,-0,0.05,,69,0,4,32,99,0.646,0.0,113,1.42,13.2,0.0,1,0.0,0.0,0.0,0,0,0,0,0,,,,,,,,,,,,,,,,,,,,
4423,0,,,246,249,238,233,,-0.04,0.02,0.99,-0,-0,-0,0.05,,69,0,4,32,99,0.646,0.0,113,1.4,13.2,0.0,1,0.0,0.0,0.0,0,0,0,0,0,,,,,,,,,,,,,,,,,,,,
4443,0,10,8,246,249,238,233,2,-0.04,0.02,0.99,-0,-0,-0,0.05,1,69,0,4,32,99,0.646,0.0,113,1.4,13.2,0.0,1,0.0,0.0,0.0,0,0,0,0,0,0,250,250,0,0.0,0.0,0.0,0.0,0,0,0.0,0,0.0,-1,0.0,0.0,0.0,0,0.0,0.074
4463,0,,,246,249,238,233,,-0.04,0.02,0.99,-0,-0,-0,0.05,,69,0,4,32,99,0.647,0.0,113,1.4,13.2,0.0,1,0.0,0.0,0.0,0,0,0,0,0,,,,,,,,,,,,,,,,,,,,
4483,0,,,246,249,238,233,,-0.04,0.02,0.99,-0,-0,-0,0.05,,69,0,4,32,99,0.647,0.0,113,1.4,13.2,0.0,1,0.0,0.0,0.0,0,0,0,0,0,,,,,,,,,,,,,,,,,,,,
4503,0,,,246,249,238,233,,-0.04,0.02,0.99,-0,-0,-0,0.05,,69,0,4,32,99,0.647,0.0,113,1.4,13.2,0.0,1,0.0,0.0,0.0,0,0,0,0,0,,,,,,,,,,,,,,,,,,,,
4523,0,,,246,249,238,233,,-0.04,0.02,0.99,-0,-0,-0,0.05,,69,0,4,32,99,0.647,0.0,113,1.4,13.2,0.0,1,0.0,0.0,0.0,0,0,0,0,0,,,,,,,,,,,,,,,,,,,,
4543,0,10,7,246,249,238,233,2,-0.04,0.02,0.99,-0,-0,-0,0.05,1,69,0,4,32,99,0.647,0.0,113,1.39,13.2,0.0,1,0.0,0.0,0.0,0,0,0,0,0,0,250,250,0,0.0,0.0,0.0,0.0,0,0,0.0,0,0.0,-1,0.0,,0.0,0,0.0,0.0757
4563,0,,,246,249,238,233,,-0.04,0.02,0.99,-0,-0,-0,0.05,,69,0,4,32,99,0.646,0.0,113,1.37,13.2,0.0,1,0.0,0.0,0.0,0,0,0,0,0,,,,,,,,,,,,,,,,,,,,
4583,0,,,246,250,238,233,,-0.04,0.02,0.99,-0,-0,-0,0.05,,69,0,4,32,99,0.647,0.0,113,1.37,13.2,0.0,1,0.0,0.0,0.0,0,0,0,0,0,,,,,,,,,,,,,,,,,,,,
4603,0,,,246,249,238,233,,-0.04,0.02,0.99,-0,-0,-0,0.05,,69,0,4,32,99,0.647,0.0,113,1.37,13.2,0.0,1,0.0,0.0,0.0,0,0,0,0,0,,,,,,,,,,,,,,,,,,,,
4623,0,,,246,249,238,233,,-0.04,0.02,0.99,-0,-0,-0,0.05,,69,0,4,32,99,0.647,0.0,113,1.37,13.2,0.0,1,0.0,0.0,0.0,0,0,0,0,0,,,,,,,,,,,,,,,,,,,,
4643,0,9,9,246,249,238,233,3,-0.04,0.02,0.99,-0,-0,-0,0.05,1,69,0,4,32,99,0.648,0.0,113,1.37,13.2,0.0,1,0.0,0.0,0.0,0,0,0,0,0,0,250,250,0,0.0,0.0,0.0,0.0,0,0,0.0,0,0.0,-1,0.0,0.0,0.0,0,0.0,0.0774
4663,0,,,246,250,238,233,,-0.04,0.02,0.99,-0,-0,-0,0.05,,69,0,4,32,99,0.648,0.0,113,1.37,13.1,0.0,1,0.0,0.0,0.0,0,0,0,0,0,,,,,,,,,,,,,,,,,,,,
4683,0,,,246,249,238,233,,-0.04,0.02,0.99,-0,-0,-0,0.05,,69,0,4,32,99,0.65,0.0,113,1.35,12.9,0.0,1,0.0,0.0,0.0,0,0,0,0,0,,,,,,,,,,,,,,,,,,,,
4703,0,,,246,250,238,233,,-0.04,0.02,0.99,-0,-0,-0,0.05,,69,0,4,32,99,0.652,0.0,113,1.34,13.1,0.0,1,0.0,0.0,0.0,0,0,0,0,0,,,,,,,,,,,,,,,,,,,,
4723,0,,,246,250,238,233,,-0.04,0.02,0.99,-0,-0,-0,0.05,,69,0,4,32,99,0.654,0.0,113,1.34,13.1,0.0,1,0.0,0.0,0.0,0,0,0,0,0,,,,,,,,,,,,,,,,,,,,
4743,0,10,7,246,249,238,233,2,-0.04,0.02,0.99,-0,-0,-0,0.05,1,69,0,4,32,99,0.656,0.0,113,1.34,13.1,0.0,1,0.0,0.0,0.0,0,0,0,0,0,0,250,250,0,0.0,0.0,0.0,0.0,0,0,0.0,0,0.0,-1,0.0,,0.0,0,0.0,0.079
4763,0,,,246,250,238,233,,-0.04,0.02,0.99,-0,-0,-0,0.05,,69,0,4,32,99,0.658,0.0,113,1.34,13.1,0.0,1,0.0,0.0,0.0,0,0,0,0,0,,,,,,,,,,,,,,,,,,,,
4783,0,,,246,249,238,233,,-0.04,0.02,0.99,-0,-0,-0,0.05,,69,0,4,32,99,0.661,0.0,113,1.34,13.0,0.0,1,0.0,0.0,0.0,0,0,0,0,0,,,,,,,,,,,,,,,,,,,,
4803,0,,,246,250,238,233,,-0.04,0.02,0.99,-0,-0,-0,0.05,,69,0,4,32,99,0.663,0.0,113,1.34,13.1,0.0,1,0.0,0.0,0.0,0,0,0,0,0,,,,,,,,,,,,,,,,,,,,
4823,0,,,246,249,238,233,,-0.04,0.02,0.99,-0,-0,-0,0.05,,69,0,4,32,99,0.665,0.0,113,1.33,13.1,0.0,1,0.0,0.0,0.0,0,0,0,0,0,,,,,,,,,,,,,,,,,,,,
4843,0,8,8,246,249,238,233,2,-0.04,0.02,0.99,-0,-0,-0,0.05,1,69,0,4,32,99,0.667,0.0,113,1.33,13.1,0.0,1,0.0,0.0,0.0,0,0,0,0,0,0,250,250,0,0.0,0.0,0.0,0.0,0,0,0.0,0,0.0,-1,0.0,0.0,0.0,0,0.0,0.0807
4863,0,,,246,249,238,233,,-0.04,0.02,0.99,-0,-0,-0,0.05,,69,0,4,32,99,0.669,0.0,113,1.31,13.1,0.0,1,0.0,0.0,0.0,0,0,0,0,0,,,,,,,,,,,,,,,,,,,,
4883,0,,,246,249,238,233,,-0.04,0.02,0.99,-0,-0,-0,0.05,,69,0,4,32,99,0.671,0.0,113,1.31,13.1,0.0,1,0.0,0.0,0.0,0,0,0,0,0,,,,,,,,,,,,,,,,,,,,
4903,0,,,246,250,238,233,,-0.04,0.02,0.99,-0,-0,-0,0.05,,69,0,4,32,99,0.673,0.0,113,1.31,13.1,0.0,1,0.0,0.0,0.0,0,0,0,0,0,,,,,,,,,,,,,,,,,,,,
4923,0,,,246,249,238,233,,-0.04,0.02,0.99,-0,-0,-0,0.05,,69,0,4,32,99,0.674,0.0,113,1.31,13.1,0.0,1,0.0,0.0,0.0,0,0,0,0,0,,,,,,,,,,,,,,,,,,,,
4943,0,9,8,246,249,238,233,2,-0.04,0.02,0.99,-0,-0,-0,0.05,1,69,0,4,32,99,0.673,0.0,113,1.31,13.0,0.0,1,0.0,0.0,0.0,0,0,0,0,0,0,250,250,0,0.0,0.0,0.0,0.0,0,0,0.0,0,0.0,-1,0.0,,0.0,0,0.0,0.0824
4963,0,,,246,249,238,233,,-0.04,0.02,0.99,-0,-0,-0,0.05,,69,0,4,32,99,0.674,0.0,113,1.31,13.0,0.0,1,0.0,0.0,0.0,0,0,0,0,0,,,,,,,,,,,,,,,,,,,,
4983,0,,,246,249,238,233,,-0.04,0.02,0.99,-0,-0,-0,0.05,,69,0,4,32,99,0.674,0.0,113,1.31,13.1,0.0,1,0.0,0.0,0.0,0,0,0,0,0,,,,,,,,,,,,,,,,,,,,
5003,0,,,246,249,238,233,,-0.04,0.02,0.99,-0,-0,-0,0.05,,69,0,4,32,99,0.674,0.0,113,1.28,13.1,0.0,1,0.0,0.0,0.0,0,0,0,0,0,,,,,,,,,,,,,,,,,,,,
5023,0,,,246,249,238,233,,-0.04,0.02,0.99,-0,-0,-0,0.05,,69,0,4,32,99,0.674,0.0,113,1.28,13.1,0.0,1,0.0,0.0,0.0,0,0,0,0,0,,,,,,,,,,,,,,,,,,,,
5043,0,8,8,246,249,238,233,2,-0.04,0.02,0.99,-0,-0,-0,0.05,1,69,0,4,32,99,0.674,0.0,113,1.28,13.1,0.0,1,0.0,0.0,0.0,0,0,0,0,0,0,250,250,0,0.0,0.0,0.0,0.0,0,0,0.0,0,0.0,-1,0.0,0.0,0.0,0,0.0,0.084
5063,0,,,246,249,238,233,,-0.04,0.02,0.99,-0,-0,-0,0.05,,69,0,4,32,99,0.673,0.0,113,1.28,13.1,0.0,1,0.0,0.0,0.0,0,0,0,0,0,,,,,,,,,,,,,,,,,,,,
5083,0,,,246,249,238,233,,-0.04,0.02,0.99,-0,-0,-0,0.05,,69,0,4,32,99,0.674,0.0,113,1.28,13.1,0.0,1,0.0,0.0,0.0,0,0,0,0,0,,,,,,,,,,,,,,,,,,,,
5103,0,,,246,249,238,233,,-0.04,0.02,0.99,-0,-0,-0,0.05,,69,0,4,32,99,0.673,0.0,113,1.28,13.0,0.0,1,0.0,0.0,0.0,0,0,0,0,0,,,,,,,,,,,,,,,,,,,,
5123,0,,,246,249,238,233,,-0.04,0.02,0.99,-0,-0,-0,0.05,,69,0,4,32,99,0.674,0.0,113,1.28,13.0,0.0,1,0.0,0.0,0.0,0,0,0,0,0,,,,,,,,,,,,,,,,,,,,
5143,0,9,7,246,250,238,233,2,-0.04,0.02,0.99,-0,-0,-0,0.05,1,69,0,4,32,99,0.674,0.0,113,1.28,13.1,0.0,1,0.0,0.0,0.0,0,0,0,0,0,0,250,250,0,0.0,0.0,0.0,0.0,0,0,0.0,0,0.0,-1,0.0,,0.0,0,0.0,0.0857
5163,0,,,246,250,238,233,,-0.04,0.02,0.99,-0,-0,-0,0.05,,69,0,4,32,99,0.674,0.0,113,1.28,13.1,0.0,1,0.0,0.0,0.0,0,0,0,0,0,,,,,,,,,,,,,,,,,,,,
5183,0,,,246,249,238,233,,-0.04,0.02,0.99,-0,-0,-0,0.05,,69,0,4,32,99,0.674,0.0,113,1.28,13.1,0.0,1,0.0,0.0,0.0,0,0,0,0,0,,,,,,,,,,,,,,,,,,,,
5203,0,,,246,250,238,233,,-0.04,0.02,0.99,-0,-0,-0,0.05,,69,0,4,32,99,0.674,0.0,113,1.28,13.1,0.0,1,0.0,0.0,0.0,0,0,0,0,0,,,,,,,,,,,,,,,,,,,,
5223,0,,,246,249,238,233,,-0.04,0.02,0.99,-0,-0,-0,0.05,,69,0,4,32,99,0.674,0.0,113,1.28,13.1,0.0,1,0.0,0.0,0.0,0,0,0,0,0,,,,,,,,,,,,,,,,,,,,
5243,0,9,8,246,249,238,233,2,-0.04,0.02,0.99,-0,-0,-0,0.05,1,69,0,4,32,99,0.673,0.0,113,1.26,13.1,0.0,1,0.0,0.0,0.0,0,0,0,0,0,0,250,250,0,0.0,0.0,0.0,0.0,0,0,0.0,0,0.0,-1,0.0,0.0,0.0,0,0.0,0.0874
5263,0,,,246,249,238,233,,-0.04,0.02,0.99,-0,-0,-0,0.05,,69,0,4,32,99,0.674,0.0,113,1.26,13.0,0.0,1,0.0,0.0,0.0,0,0,0,0,0,,,,,,,,,,,,,,,,,,,,
5283,0,,,246,249,238,233,,-0.04,0.02,0.99,-0,-0,-0,0.05,,69,0,4,32,99,0.674,0.0,113,1.26,13.0,0.0,1,0.0,0.0,0.0,0,0,0,0,0,,,,,,,,,,,,,,,,,,,,
5303,0,,,246,250,238,233,,-0.04,0.02,0.99,-0,-0,-0,0.05,,69,0,4,32,99,0.674,0.0,113,1.26,13.0,0.0,1,0.0,0.0,0.0,0,0,0,0,0,,,,,,,,,,,,,,,,,,,,
5323,0,,,246,250,238,233,,-0.04,0.02,0.99,-0,-0,-0,0.05,,69,0,4,32,99,0.674,0.0,113,1.26,13.1,0.0,1,0.0,0.0,0.0,0,0,0,0,0,,,,,,,,,,,,,,,,,,,,
5343,0,8,7,246,249,238,233,2,-0.04,0.02,0.99,-0,-0,-0,0.05,1,69,0,4,32,99,0.674,0.0,113,1.26,13.1,0.0,1,0.0,0.0,0.0,0,0,0,0,0,0,250,250,0,0.0,0.0,0.0,0.0,0,0,0.0,0,0.0,-1,0.0,,0.0,0,0.0,0.089
5363,0,,,246,249,238,233,,-0.04,0.02,0.99,-0,-0,-0,0.05,,69,0,4,32,99,0.674,0.0,113,1.26,13.1,0.0,1,0.0,0.0,0.0,0,0,0,0,0,,,,,,,,,,,,,,,,,,,,
5383,0,,,246,249,238,233,,-0.04,0.02,0.99,-0,-0,-0,0.05,,69,0,4,32,99,0.674,0.0,113,1.26,13.1,0.0,1,0.0,0.0,0.0,0,0,0,0,0,,,,,,,,,,,,,,,,,,,,
5403,0,,,246,249,238,233,,-0.04,0.02,0.99,-0,-0,-0,0.05,,69,0,4,32,99,0.674,0.0,113,1.26,13.1,0.0,1,0.0,0.0,0.0,0,0,0,0,0,,,,,,,,,,,,,,,,,,,,
5423,0,,,246,249,238,233,,-0.04,0.02,0.99,-0,-0,-0,0.05,,69,0,4,32,99,0.674,0.0,113,1.26,13.1,0.0,1,0.0,0.0,0.0,0,0,0,0,0,,,,,,,,,,,,,,,,,,,,
5443,0,8,5,246,249,238,233,2,-0.04,0.02,0.99,-0,-0,-0,0.05,1,69,0,4,32,99,0.674,0.0,113,1.25,13.0,0.0,1,0.0,0.0,0.0,0,0,0,0,0,0,250,250,0,0.0,0.0,0.0,0.0,0,0,0.0,0,0.0,-1,0.0,0.0,0.0,0,0.0,0.0907
5463,0,,,246,249,238,233,,-0.04,0.02,0.99,-0,-0,-0,0.05,,69,0,4,32,99,0.675,0.0,113,1.23,13.0,0.0,1,0.0,0.0,0.0,0,0,0,0,0,,,,,,,,,,,,,,,,,,,,
5483,0,,,246,250,238,233,,-0.04,0.02,0.99,-0,-0,-0,0.05,,69,0,4,32,99,0.675,0.0,113,1.23,13.0,0.0,1,0.0,0.0,0.0,0,0,0,0,0,,,,,,,,,,,,,,,,,,,,
5503,0,,,246,249,238,233,,-0.04,0.02,0.99,-0,-0,-0,0.05,,69,0,4,32,99,0.675,0.0,113,1.23,13.1,0.0,1,0.0,0.0,0.0,0,0,0,0,0,,,,,,,,,,,,,,,,,,,,
5523,0,,,246,249,238,233,,-0.04,0.02,0.99,-0,-0,-0,0.05,,69,0,4,32,99,0.675,0.0,113,1.23,13.1,0.0,1,0.0,0.0,0.0,0,0,0,0,0,,,,,,,,,,,,,,,,,,,,
5543,0,8,7,246,249,238,233,2,-0.04,0.02,0.99,-0,-0,-0,0.05,1,69,0,4,32,99,0.675,0.0,113,1.23,13.1,0.0,1,0.0,0.0,0.0,0,0,0,0,0,0,250,250,0,0.0,0.0,0.0,0.0,0,0,0.0,0,0.0,-1,0.0,,0.0,0,0.0,0.0924
5563,0,,,246,249,238,233,,-0.04,0.02,0.99,-0,-0,-0,0.05,,69,0,4,32,99,0.675,0.0,113,1.23,13.1,0.0,1,0.0,0.0,0.0,0,0,0,0,0,,,,,,,,,,,,,,,,,,,,
5583,0,,,246,249,238,233,,-0.04,0.02,0.99,-0,-0,-0,0.05,,69,0,4,32,99,0.675,0.0,113,1.23,13.1,0.0,1,0.0,0.0,0.0,0,0,0,0,0,,,,,,,,,,,,,,,,,,,,
5603,0,,,246,249,238,233,,-0.04,0.02,0.99,-0,-0,-0,0.05,,69,0,4,32,99,0.675,0.0,113,1.23,13.0,0.0,1,0.0,0.0,0.0,0,0,0,0,0,,,,,,,,,,,,,,,,,,,,
5623,0,,,246,249,238,233,,-0.04,0.02,0.99,-0,-0,-0,0.05,,69,0,4,32,99,0.675,0.0,113,1.23,13.0,0.0,1,0.0,0.0,0.0,0,0,0,0,0,,,,,,,,,,,,,,,,,,,,
5643,0,9,9,246,249,238,233,2,-0.04,0.02,0.99,-0,-0,-0,0.05,1,69,0,4,32,99,0.675,0.0,113,1.23,13.0,0.0,1,0.0,0.0,0.0,0,0,0,0,0,0,250,250,0,0.0,0.0,0.0,0.0,0,0,0.0,0,0.0,-1,0.0,0.0,0.0,0,0.0,0.094
5663,0,,,246,249,238,233,,-0.04,0.02,0.99,-0,-0,-0,0.05,,69,0,4,32,99,0.675,0.0,113,1.23,13.1,0.0,1,0.0,0.0,0.0,0,0,0,0,0,,,,,,,,,,,,,,,,,,,,
5683,0,,,246,249,238,233,,-0.04,0.02,0.99,-0,-0,-0,0.05,,69,0,4,32,99,0.675,0.0,113,1.23,13.1,0.0,1,0.0,0.0,0.0,0,0,0,0,0,,,,,,,,,,,,,,,,,,,,
5703,0,,,246,250,238,233,,-0.04,0.02,0.99,-0,-0,-0,0.05,,69,0,4,32,99,0.675,0.0,113,1.23,13.1,0.0,1,0.0,0.0,0.0,0,0,0,0,0,,,,,,,,,,,,,,,,,,,,
5723,0,,,246,250,238,233,,-0.04,0.02,0.99,-0,-0,-0,0.05,,69,0,4,32,99,0.675,0.0,113,1.23,13.1,0.0,1,0.0,0.0,0.0,0,0,0,0,0,,,,,,,,,,,,,,,,,,,,
5743,0,12,12,246,249,238,233,3,-0.04,0.02,0.99,-0,-0,-0,0.05,1,69,0,4,32,99,0.675,0.0,113,1.21,13.1,0.0,1,0.0,0.0,0.0,0,0,0,0,0,0,250,250,0,0.0,0.0,0.0,0.0,0,0,0.0,0,0.0,-1,0.0,,0.0,0,0.0,0.0957
5763,0,,,246,250,238,233,,-0.04,0.02,0.99,-0,-0,-0,0.05,,69,0,4,32,99,0.675,0.0,113,1.21,13.1,0.0,1,0.0,0.0,0.0,0,0,0,0,0,,,,,,,,,,,,,,,,,,,,
5783,0,,,246,250,238,233,,-0.04,0.02,0.99,-0,-0,-0,0.05,,69,0,4,32,99,0.675,0.0,113,1.21,13.0,0.0,1,0.0,0.0,0.0,0,0,0,0,0,,,,,,,,,,,,,,,,,,,,
5803,0,,,246,249,238,233,,-0.04,0.02,0.99,-0,-0,-0,0.05,,69,0,4,32,99,0.675,0.0,113,1.21,13.0,0.0,1,0.0,0.0,0.0,0,0,0,0,0,,,,,,,,,,,,,,,,,,,,
5823,0,,,246,249,238,233,,-0.04,0.02,0.99,-0,-0,-0,0.05,,69,0,4,32,99,0.675,0.0,113,1.21,13.0,0.0,1,0.0,0.0,0.0,0,0,0,0,0,,,,,,,,,,,,,,,,,,,,
5843,0,13,11,246,249,238,233,1,-0.04,0.02,0.99,-0,-0,-0,0.05,1,69,0,4,32,99,0.675,0.0,113,1.21,13.1,0.0,1,0.0,0.0,0.0,0,0,0,0,0,0,250,250,0,0.0,0.0,0.0,0.0,0,0,0.0,0,0.0,-1,0.0,0.0,0.0,0,0.0,0.0974
5863,0,,,246,249,238,233,,-0.04,0.02,0.99,-0,-0,-0,0.05,,69,0,4,32,99,0.676,0.0,113,1.21,13.1,0.0,1,0.0,0.0,0.0,0,0,0,0,0,,,,,,,,,,,,,,,,,,,,
5883,0,,,246,249,238,233,,-0.04,0.02,0.99,-0,-0,-0,0.05,,69,0,4,32,99,0.676,0.0,113,1.21,13.1,0.0,1,0.0,0.0,0.0,0,0,0,0,0,,,,,,,,,,,,,,,,,,,,
5903,0,,,246,250,238,233,,-0.04,0.02,0.99,-0,-0,-0,0.05,,69,0,4,32,99,0.676,0.0,113,1.21,13.1,0.0,1,0.0,0.0,0.0,0,0,0,0,0,,,,,,,,,,,,,,,,,,,,
5923,0,,,246,249,238,233,,-0.04,0.02,0.99,-0,-0,-0,0.05,,69,0,4,32,99,0.675,0.0,113,1.21,13.1,0.0,1,0.0,0.0,0.0,0,0,0,0,0,,,,,,,,,,,,,,,,,,,,
5943,0,10,9,246,249,238,233,3,-0.04,0.02,0.99,-0,-0,-0,0.05,1,69,0,4,32,99,0.676,0.0,113,1.21,13.1,0.0,1,0.0,0.0,0.0,0,0,0,0,0,0,250,250,0,0.0,0.0,0.0,0.0,0,0,0.0,0,0.0,-1,0.0,,0.0,0,0.0,0.099
5963,0,,,246,249,238,233,,-0.04,0.02,0.99,-0,-0,-0,0.05,,69,0,4,32,99,0.676,0.0,113,1.21,13.0,0.0,1,0.0,0.0,0.0,0,0,0,0,0,,,,,,,,,,,,,,,,,,,,
5983,0,,,246,249,238,233,,-0.04,0.02,0.99,-0,-0,-0,0.05,,69,0,4,32,99,0.676,0.0,113,1.21,13.0,0.0,1,0.0,0.0,0.0,0,0,0,0,0,,,,,,,,,,,,,,,,,,,,
6003,0,,,246,250,238,233,,-0.04,0.02,0.99,-0,-0,-0,0.05,,69,0,4,32,99,0.676,0.0,113,1.21,13.1,0.0,1,0.0,0.0,0.0,0,0,0,0,0,,,,,,,,,,,,,,,,,,,,
6023,0,,,246,249,238,233,,-0.04,0.02,0.99,-0,-0,-0,0.05,,69,0,4,32,99,0.676,0.0,113,1.2,13.1,0.0,1,0.0,0.0,0.0,0,0,0,0,0,,,,,,,,,,,,,,,,,,,,
6043,0,11,7,246,249,238,233,3,-0.04,0.02,0.99,-0,-0,-0,0.05,1,69,0,4,32,99,0.676,0.0,112,1.18,13.1,0.0,1,0.0,0.0,0.0,0,0,0,0,0,0,250,250,0,0.0,0.0,0.0,0.0,0,0,0.0,0,0.0,-1,0.0,0.0,0.0,0,0.0,0.1007
6063,0,,,246,249,238,233,,-0.04,0.02,0.99,-0,-0,-0,0.05,,69,0,4,32,99,0.676,0.0,113,1.18,13.1,0.0,1,0.0,0.0,0.0,0,0,0,0,0,,,,,,,,,,,,,,,,,,,,
6083,0,,,246,250,238,233,,-0.04,0.02,0.99,-0,-0,-0,0.05,,69,0,4,32,99,0.676,0.0,113,1.18,13.1,0.0,1,0.0,0.0,0.0,0,0,0,0,0,,,,,,,,,,,,,,,,,,,,
6103,0,,,246,250,238,233,,-0.04,0.02,0.99,-0,-0,-0,0.05,,69,0,4,32,99,0.676,0.0,113,1.18,13.1,0.0,1,0.0,0.0,0.0,0,0,0,0,0,,,,,,,,,,,,,,,,,,,,
6123,0,,,246,249,238,233,,-0.04,0.02,0.99,-0,-0,-0,0.05,,69,0,4,32,99,0.676,0.0,113,1.18,13.0,0.0,1,0.0,0.0,0.0,0,0,0,0,0,,,,,,,,,,,,,,,,,,,,
6143,0,11,7,246,250,238,233,2,-0.04,0.02,0.99,-0,-0,-0,0.05,1,69,0,4,32,99,0.677,0.0,113,1.18,13.0,0.0,1,0.0,0.0,0.0,0,0,0,0,0,0,250,250,0,0.0,0.0,0.0,0.0,0,0,0.0,0,0.0,-1,0.0,,0.0,0,0.0,0.1024
6163,0,,,246,249,238,233,,-0.04,0.02,0.99,-0,-0,-0,0.05,,69,0,4,32,99,0.677,0.0,113,1.18,13.0,0.0,1,0.0,0.0,0.0,0,0,0,0,0,,,,,,,,,,,,,,,,,,,,
6183,0,,,246,250,238,233,,-0.04,0.02,0.99,-0,-0,-0,0.05,,69,0,4,32,99,0.677,0.0,113,1.18,13.1,0.0,1,0.0,0.0,0.0,0,0,0,0,0,,,,,,,,,,,,,,,,,,,,
6203,0,,,246,250,238,233,,-0.04,0.02,0.99,-0,-0,-0,0.05,,69,0,4,32,99,0.677,0.0,113,1.18,13.1,0.0,1,0.0,0.0,0.0,0,0,0,0,0,,,,,,,,,,,,,,,,,,,,
6223,0,,,246,250,238,233,,-0.04,0.02,0.99,-0,-0,-0,0.05,,69,0,4,32,99,0.677,0.0,113,1.18,13.1,0.0,1,0.0,0.0,0.0,0,0,0,0,0,,,,,,,,,,,,,,,,,,,,
6243,0,10,7,246,249,238,233,2,-0.04,0.02,0.99,-0,-0,-0,0.05,1,69,0,4,32,99,0.677,0.0,113,1.18,13.1,0.0,1,0.0,0.0,0.0,0,0,0,0,0,0,250,250,0,0.0,0.0,0.0,0.0,0,0,0.0,0,0.0,-1,0.0,0.0,0.0,0,0.0,0.104
6263,0,,,246,249,238,233,,-0.04,0.02,0.99,-0,-0,-0,0.05,,69,0,4,32,99,0.677,0.0,113,1.18,13.1,0.0,1,0.0,0.0,0.0,0,0,0,0,0,,,,,,,,,,,,,,,,,,,,
6283,0,,,246,249,238,233,,-0.04,0.02,0.99,-0,-0,-0,0.05,,69,0,4,32,99,0.677,0.0,113,1.18,13.1,0.0,1,0.0,0.0,0.0,0,0,0,0,0,,,,,,,,,,,,,,,,,,,,
6303,0,,,246,249,238,233,,-0.04,0.02,0.99,-0,-0,-0,0.05,,69,0,4,32,99,0.677,0.0,113,1.18,13.0,0.0,1,0.0,0.0,0.0,0,0,0,0,0,,,,,,,,,,,,,,,,,,,,
6323,0,,,246,249,238,233,,-0.04,0.02,0.99,-0,-0,-0,0.05,,69,0,4,32,99,0.678,0.0,113,1.18,13.0,0.0,1,0.0,0.0,0.0,0,0,0,0,0,,,,,,,,,,,,,,,,,,,,
6343,0,11,7,246,249,238,233,1,-0.05,0.02,0.98,-0,-0,-0,0.05,1,69,0,4,32,99,0.676,0.0,113,1.16,9.6,0.0,1,0.0,0.0,0.0,0,0,0,0,0,0,250,250,0,0.0,0.0,0.0,0.0,0,0,0.0,0,0.0,-1,0.0,,0.0,0,0.0,0.1057
6363,0,,,246,249,238,233,,-0.05,0.03,0.98,-0,-0,-0,0.05,,69,0,4,32,99,0.674,0.0,113,1.16,10.2,0.0,1,0.0,0.0,0.0,0,0,0,0,0,,,,,,,,,,,,,,,,,,,,
6383,0,,,246,249,238,233,,-0.05,0.02,0.98,-0,-0,-0,0.05,,69,0,4,32,99,0.673,0.0,113,1.16,10.9,0.0,1,0.0,0.0,0.0,0,0,0,0,0,,,,,,,,,,,,,,,,,,,,
6403,0,,,246,249,238,233,,-0.04,0.02,0.98,-0,-0,-0,0.05,,69,0,4,32,99,0.672,0.0,114,1.16,11.2,0.0,1,0.0,0.0,0.0,0,0,0,0,0,,,,,,,,,,,,,,,,,,,,
6423,0,,,246,249,238,233,,-0.04,0.03,0.98,-0,0,-0,0.05,,69,0,4,32,99,0.673,0.0,115,1.16,11.4,0.0,1,0.0,0.0,0.0,0,0,0,0,0,,,,,,,,,,,,,,,,,,,,
6443,0,10,7,246,249,238,233,2,-0.04,0.03,0.98,-0,0,-0,0.05,1,69,0,4,32,99,0.673,0.0,116,1.16,11.4,0.0,1,0.0,0.0,0.0,0,0,0,0,0,0,250,250,0,0.0,0.0,0.0,0.0,0,0,0.0,0,0.0,-1,0.0,0.0,0.0,0,0.0,0.1074
6463,0,,,246,249,238,233,,-0.04,0.02,0.98,-0,-0,-0,0.05,,69,0,4,32,98,0.675,0.0,116,1.16,11.3,0.0,1,0.0,0.0,0.0,0,0,0,0,0,,,,,,,,,,,,,,,,,,,,
6483,0,,,246,249,238,233,,-0.04,0.02,0.98,-0,-0,-0,0.05,,69,0,4,32,99,0.675,0.0,116,1.16,11.4,0.0,1,0.0,0.0,0.0,0,0,0,0,0,,,,,,,,,,,,,,,,,,,,
6503,0,,,246,250,238,233,,-0.04,0.03,0.99,-0,-0,-0,0.05,,69,0,4,32,99,0.676,0.0,116,1.15,11.7,0.0,1,0.0,0.0,0.0,0,0,0,0,0,,,,,,,,,,,,,,,,,,,,
6523,0,,,246,249,238,233,,-0.04,0.03,1.0,-0,-0,-0,0.05,,69,0,4,32,99,0.678,0.0,116,1.16,11.8,0.0,1,0.0,0.0,0.0,0,0,0,0,0,,,,,,,,,,,,,,,,,,,,
6543,0,9,9,246,249,238,233,2,-0.04,0.03,0.99,-0,-0,-0,0.05,1,69,0,4,32,98,0.679,0.0,116,1.15,11.6,0.0,1,0.0,0.0,0.0,0,0,0,0,0,0,250,250,0,0.0,0.0,0.0,0.0,0,0,0.0,0,0.0,-1,0.0,,0.0,0,0.0,0.109
6563,0,,,246,249,238,233,,-0.04,0.03,0.99,-0,-0,-0,0.05,,69,0,4,32,99,0.68,0.0,116,1.16,11.7,0.0,1,0.0,0.0,0.0,0,0,0,0,0,,,,,,,,,,,,,,,,,,,,
6583,0,,,246,249,238,233,,-0.04,0.03,0.99,-0,-0,-0,0.05,,69,0,4,32,99,0.68,0.0,118,1.15,11.9,0.0,1,0.0,0.0,0.0,0,0,0,0,0,,,,,,,,,,,,,,,,,,,,
6603,0,,,246,249,238,233,,-0.04,0.02,0.99,-0,-0,-0,0.05,,69,0,4,32,98,0.683,0.0,118,1.16,11.9,0.0,1,0.0,0.0,0.0,0,0,0,0,0,,,,,,,,,,,,,,,,,,,,
6623,0,,,246,250,238,233,,-0.04,0.02,1.0,-0,-0,-0,0.05,,69,0,4,32,99,0.685,0.0,118,1.15,11.7,0.0,1,0.0,0.0,0.0,0,0,0,0,0,,,,,,,,,,,,,,,,,,,,
6643,0,10,7,246,249,238,233,3,-0.04,0.02,1.0,-0,-0,-0,0.05,1,69,0,4,32,99,0.687,0.0,118,1.15,11.8,0.0,1,0.0,0.0,0.0,0,0,0,0,0,0,250,250,0,0.0,0.0,0.0,0.0,0,0,0.0,0,0.0,-1,0.0,0.0,0.0,0,0.0,0.1107
6663,0,,,246,250,238,233,,-0.04,0.02,1.01,-0,-0,-0,0.04,,69,0,4,32,98,0.689,0.0,119,1.15,12.0,0.0,1,0.0,0.0,0.0,0,0,0,0,0,,,,,,,,,,,,,,,,,,,,
6683,0,,,246,249,238,233,,-0.04,0.02,1.01,-0,0,-0,0.05,,69,0,4,32,98,0.688,0.0,120,1.15,11.8,0.0,1,0.0,0.0,0.0,0,0,0,0,0,,,,,,,,,,,,,,,,,,,,
6703,0,,,246,249,238,233,,-0.04,0.02,1.01,-0,-0,-0,0.05,,69,0,4,32,99,0.689,0.0,121,1.15,11.8,0.0,1,0.0,0.0,0.0,0,0,0,0,0,,,,,,,,,,,,,,,,,,,,
6723,0,,,246,249,238,233,,-0.04,0.02,1.01,-0,-0,-0,0.05,,69,0,4,32,98,0.688,0.0,121,1.15,12.0,0.0,1,0.0,0.0,0.0,0,0,0,0,0,,,,,,,,,,,,,,,,,,,,
6743,0,10,9,246,249,238,233,2,-0.04,0.02,0.99,-0,-0,-0,0.05,1,69,0,4,32,98,0.688,0.0,121,1.15,11.8,0.0,1,0.0,0.0,0.0,0,0,0,0,0,0,250,250,0,0.0,0.0,0.0,0.0,0,0,0.0,0,0.0,-1,0.0,,0.0,0,0.0,0.1124
6763,0,,,246,250,238,233,,-0.04,0.02,1.0,-0,-0,-0,0.05,,69,0,4,32,99,0.687,0.0,121,1.15,11.8,0.0,1,0.0,0.0,0.0,0,0,0,0,0,,,,,,,,,,,,,,,,,,,,
6783,0,,,246,249,238,233,,-0.04,0.02,0.99,-0,-0,-0,0.05,,69,0,4,32,99,0.687,0.0,124,1.15,12.0,0.0,1,0.0,0.0,0.0,0,0,0,0,0,,,,,,,,,,,,,,,,,,,,
6803,0,,,246,250,238,233,,-0.04,0.02,0.98,-0,-0,-0,0.05,,69,0,4,32,98,0.687,0.0,123,1.15,11.9,0.0,1,0.0,0.0,0.0,0,0,0,0,0,,,,,,,,,,,,,,,,,,,,
6823,0,,,246,249,238,233,,-0.04,0.02,0.98,-0,-0,-0,0.05,,69,0,4,32,99,0.686,0.0,124,1.15,11.8,0.0,1,0.0,0.0,0.0,0,0,0,0,0,,,,,,,,,,,,,,,,,,,,
6843,0,8,8,246,250,238,233,2,-0.05,0.02,0.98,-0,-0,-0,0.05,1,69,0,4,32,99,0.687,0.0,124,1.13,11.9,0.0,1,0.0,0.0,0.0,0,0,0,0,0,0,250,250,0,0.0,0.0,0.0,0.0,0,0,0.0,0,0.0,-1,0.0,0.0,0.0,0,0.0,0.114
6863,0,,,246,249,238,233,,-0.05,0.03,0.99,-0,0,-0,0.05,,69,133,4,32,98,0.686,0.0,126,1.13,12.0,0.0,1,12.1,4.61,0.0,0,0,0,1,0,,,,,,,,,,,,,,,,,,,,
6883,0,,,246,249,238,233,,-0.05,0.02,0.98,-0,-0,-0,0.05,,69,133,4,32,99,0.685,0.0,126,1.33,11.6,0.0,1,12.1,2.09,0.0,0,0,0,1,0,,,,,,,,,,,,,,,,,,,,
6903,0,,,246,249,238,233,,-0.04,0.02,0.99,-0,-0,-0,0.05,,69,133,4,32,99,0.685,0.0,126,2.94,11.8,0.0,1,12.1,4.61,0.0,0,0,0,1,0,,,,,,,,,,,,,,,,,,,,
6923,0,,,246,249,238,233,,-0.04,0.02,0.99,-0,-0,-0,0.05,,69,465,4,32,98,0.684,0.0,126,4.82,11.9,0.0,1,12.1,2.09,0.0,0,0,0,1,0,,,,,,,,,,,,,,,,,,,,
6943,0,5,5,246,249,238,233,2,-0.04,0.02,0.99,-0,0,-0,0.05,1,69,465,4,32,99,0.681,0.0,126,4.89,11.7,0.0,1,12.1,4.61,0.0,0,0,0,1,0,0,250,250,0,0.0,0.0,0.0,0.0,0,0,0.0,0,0.0,-1,0.0,,0.0,0,0.0,0.1157
6963,0,,,246,250,238,233,,-0.04,0.02,0.98,-0,0,-0,0.05,,69,465,4,32,99,0.68,0.0,126,4.89,11.7,0.0,1,12.1,2.09,0.9,0,0,0,1,0,,,,,,,,,,,,,,,,,,,,
6983,0,,,246,249,238,233,,-0.04,0.02,0.97,-0,-0,-0,0.05,,69,465,4,32,98,0.68,0.0,127,4.89,11.9,0.0,1,12.1,2.09,0.9,0,0,0,1,0,,,,,,,,,,,,,,,,,,,,
7003,0,,,246,249,238,233,,-0.04,0.02,0.99,-0,-0,-0,0.05,,69,472,4,33,98,0.677,0.0,125,4.88,11.7,0.0,1,12.1,4.61,0.9,0,0,0,1,0,,,,,,,,,,,,,,,,,,,,
7023,0,,,246,249,238,233,,-0.05,0.03,0.99,-0,-0,-0,0.05,,69,472,6,33,99,0.676,0.0,126,4.88,11.7,0.0,1,12.1,2.09,0.9,0,0,0,1,0,,,,,,,,,,,,,,,,,,,,
7043,0,2,2,246,250,238,233,2,-0.05,0.03,0.99,-0,-0,-0,0.05,1,69,472,10,32,98,0.674,0.0,126,4.89,11.9,0.0,1,12.1,2.09,0.9,0,0,0,1,0,0,250,250,0,0.0,0.0,0.0,0.0,0,0,0.0,0,0.0,-1,0.0,0.0,0.0,0,0.0,0.1174
7063,0,,,246,249,238,233,,-0.05,0.02,0.98,-0,-0,-0,0.05,,69,499,16,33,99,0.671,0.0,125,4.88,11.6,0.0,1,30.0,8.08,1.8,0,0,0,1,0,,,,,,,,,,,,,,,,,,,,
7083,0,,,246,249,238,233,,-0.04,0.02,0.98,-0,-0,-0,0.05,,69,499,25,32,99,0.67,0.0,126,4.89,11.8,0.0,1,30.0,8.08,1.8,0,0,0,1,0,,,,,,,,,,,,,,,,,,,,
7103,0,,,246,249,238,233,,-0.04,0.02,0.98,-0,-0,-0,0.05,,69,499,33,32,99,0.668,0.0,127,4.88,11.9,0.0,1,30.0,8.08,1.8,0,0,0,1,0,,,,,,,,,,,,,,,,,,,,
7123,0,,,246,249,238,233,,-0.04,0.02,0.97,-0,-0,-0,0.04,,69,476,42,33,99,0.665,0.0,124,4.86,11.6,0.0,1,30.0,2.09,1.8,0,0,0,1,0,,,,,,,,,,,,,,,,,,,,
7143,0,2,2,246,250,238,233,2,-0.04,0.02,0.98,-0,-0,-0,0.05,1,69,476,48,33,99,0.663,0.0,126,4.88,11.7,0.0,1,30.0,8.08,1.8,0,0,0,1,0,0,250,250,0,0.0,0.0,0.0,0.0,0,0,0.0,0,0.0,-1,0.0,,0.0,0,0.0,0.119
7163,0,,,246,249,238,233,,-0.04,0.02,0.97,-0,-0,0,0.05,,69,476,51,33,99,0.662,0.0,126,4.88,11.9,0.0,1,30.0,2.04,1.7,0,0,0,1,0,,,,,,,,,,,,,,,,,,,,
7183,0,,,246,249,238,233,,-0.04,0.02,0.98,-0,-0,-0,0.04,,69,464,54,33,99,0.661,0.0,125,4.88,11.4,0.0,1,30.0,8.08,1.7,0,0,0,1,0,,,,,,,,,,,,,,,,,,,,
7203,0,,,246,249,238,233,,-0.04,0.02,0.98,-0,-0,0,0.04,,69,464,55,33,99,0.659,0.0,126,4.88,11.7,0.0,1,30.0,8.08,1.7,0,0,0,1,0,,,,,,,,,,,,,,,,,,,,
7223,0,,,246,249,238,233,,-0.04,0.02,0.99,-0,-0,0,0.05,,69,464,55,33,99,0.658,0.0,126,4.88,11.8,0.0,1,30.0,8.08,1.7,0,0,0,1,0,,,,,,,,,,,,,,,,,,,,
7243,0,1,3,246,249,238,233,1,-0.04,0.03,1.0,-0,-0,0,0.05,1,69,473,55,33,99,0.657,0.0,126,4.9,11.5,0.0,1,30.0,2.04,1.7,0,0,0,1,0,0,250,250,0,0.0,0.0,0.0,0.0,0,0,0.0,0,0.0,-1,0.0,0.0,0.0,0,0.0,0.1207
7263,0,,,246,249,238,233,,-0.05,0.03,1.0,-0,-0,0,0.05,,69,473,55,33,99,0.657,0.0,126,4.88,11.7,0.0,1,30.0,8.08,1.7,0,0,0,1,0,,,,,,,,,,,,,,,,,,,,
7283,0,,,246,249,238,233,,-0.04,0.03,1.0,-0,-0,-0,0.05,,69,473,54,33,99,0.656,0.0,126,4.9,11.8,0.0,1,30.0,8.08,1.7,0,0,0,1,0,,,,,,,,,,,,,,,,,,,,
7303,0,,,246,249,238,233,,-0.04,0.03,1.01,-0,-0,-0,0.05,,69,476,46,33,99,0.656,0.0,127,4.85,11.8,0.0,1,30.0,7.96,1.7,0,0,0,1,0,,,,,,,,,,,,,,,,,,,,
7323,0,,,246,249,238,233,,-0.05,0.03,1.01,-0,-0,-0,0.05,,69,476,31,33,99,0.655,0.0,126,4.89,11.7,0.0,1,30.0,2.09,1.7,0,0,0,1,0,,,,,,,,,,,,,,,,,,,,
7343,0,1,1,246,249,238,233,1,-0.05,0.02,1.01,-0,-0,-0,0.05,1,69,476,18,33,99,0.654,0.0,126,4.88,11.8,0.0,1,30.0,4.01,1.7,0,0,0,1,0,0,250,250,0,0.0,0.0,0.0,0.0,0,0,0.0,0,0.0,-1,0.0,,0.0,0,0.0,0.1224
7363,0,,,246,249,238,233,,-0.05,0.02,1.0,-0,-0,-0,0.05,,69,476,4,33,99,0.653,0.0,126,4.85,11.9,0.0,1,14.5,7.96,1.7,0,0,0,1,0,,,,,,,,,,,,,,,,,,,,
7383,0,,,246,249,238,233,,-0.05,0.03,1.0,-0,-0,-0,0.05,,69,464,4,33,99,0.652,0.0,126,4.89,11.7,0.0,1,14.5,2.09,1.7,0,0,0,1,0,,,,,,,,,,,,,,,,,,,,
7403,0,,,246,249,238,233,,-0.05,0.02,0.99,-0,-0,-0,0.06,,69,464,4,33,99,0.651,0.0,126,4.88,11.7,0.0,1,14.5,7.96,1.7,0,0,0,1,0,,,,,,,,,,,,,,,,,,,,
7423,0,,,246,249,238,233,,-0.05,0.03,1.01,-0,-0,-0,0.06,,69,464,4,33,98,0.65,0.0,129,4.89,11.9,0.0,1,14.5,2.09,1.7,0,0,0,1,0,,,,,,,,,,,,,,,,,,,,
7443,0,-0,2,246,249,238,233,2,-0.05,0.02,1.01,-0,-0,-0,0.05,1,69,501,4,33,98,0.649,0.0,126,4.87,11.7,0.0,1,14.5,7.86,1.7,0,0,0,1,0,0,250,250,0,0.0,0.0,0.0,0.0,0,0,0.0,0,0.0,-1,0.0,0.0,0.0,0,0.0,0.124
7463,0,,,246,250,238,233,,-0.05,0.03,1.02,-0,-0,-0,0.05,,69,501,4,33,99,0.648,0.0,126,4.88,11.8,0.0,1,14.5,7.86,1.8,0,0,0,1,0,,,,,,,,,,,,,,,,,,,,
7483,0,,,246,250,238,233,,-0.05,0.02,1.02,-0,-0,-0,0.05,,69,501,8,33,98,0.647,0.0,129,4.88,11.9,0.0,1,14.5,7.86,1.8,0,0,0,1,0,,,,,,,,,,,,,,,,,,,,
7503,0,,,246,250,238,233,,-0.04,0.02,1.02,-0,-0,-0,0.05,,69,468,16,33,98,0.646,0.0,125,4.86,11.4,0.0,1,30.0,8.08,1.8,0,0,0,1,0,,,,,,,,,,,,,,,,,,,,
7523,0,,,246,250,238,233,,-0.05,0.02,1.02,-0,-0,-0,0.05,,69,468,29,33,99,0.645,0.0,126,4.88,11.7,0.0,1,30.0,8.08,1.8,0,0,0,1,0,,,,,,,,,,,,,,,,,,,,
7543,0,-1,2,246,249,238,233,3,-0.05,0.02,1.02,-0,-0,-0,0.06,1,69,468,40,33,99,0.644,0.0,129,4.9,11.8,0.0,1,30.0,6.86,1.8,0,0,0,1,0,0,250,250,0,0.0,0.0,0.0,0.0,0,0,0.0,0,0.0,-1,0.0,,0.0,0,0.0,0.1257
7563,0,,,246,249,238,233,,-0.05,0.02,1.02,-0,-0,-0,0.05,,69,481,48,33,99,0.644,0.0,125,4.88,11.4,0.0,1,30.0,6.86,1.5,0,0,0,1,0,,,,,,,,,,,,,,,,,,,,
7583,0,,,246,249,238,233,,-0.05,0.02,1.02,-0,0,-0,0.05,,69,481,52,33,99,0.643,0.0,126,4.89,11.7,0.0,1,30.0,6.86,1.5,0,0,0,1,0,,,,,,,,,,,,,,,,,,,,
7603,0,,,246,250,238,233,,-0.05,0.02,1.02,-0,0,-0,0.05,,69,481,55,33,99,0.643,0.0,129,4.89,11.9,0.0,1,30.0,6.86,1.5,0,0,0,1,0,,,,,,,,,,,,,,,,,,,,
7623,0,,,246,249,238,233,,-0.04,0.02,1.03,-0,0,-0,0.05,,69,533,55,33,99,0.643,0.0,128,4.88,11.9,0.0,1,30.0,6.86,1.5,0,0,0,1,0,,,,,,,,,,,,,,,,,,,,
7643,0,-1,2,246,249,238,233,3,-0.05,0.02,1.01,-0,0,-0,0.05,1,69,533,55,33,99,0.644,0.0,129,4.9,11.8,0.0,1,30.0,6.86,1.5,0,0,0,1,0,0,250,250,0,0.0,0.0,0.0,0.0,0,0,0.0,0,0.0,-1,0.0,0.0,0.0,0,0.0,0.1274
7663,0,,,246,250,238,233,,-0.05,0.02,1.01,-0,0,-0,0.05,,69,569,55,33,99,0.644,0.0,131,4.9,11.8,0.0,1,30.0,6.76,1.6,0,0,0,1,0,,,,,,,,,,,,,,,,,,,,
7683,0,,,246,249,238,233,,-0.04,0.02,1.01,-0,-0,-0,0.05,,69,569,45,33,99,0.644,0.0,129,4.89,11.7,0.0,1,30.0,2.09,1.6,0,0,0,1,0,,,,,,,,,,,,,,,,,,,,
7703,0,,,246,249,238,233,,-0.04,0.01,1.02,-0,0,-0,0.04,,69,569,26,33,99,0.645,0.0,130,4.89,11.9,0.0,1,30.0,2.09,1.6,0,0,0,1,0,,,,,,,,,,,,,,,,,,,,
7723,0,,,246,250,238,233,,-0.04,0.01,1.01,-0,0,-0,0.04,,69,538,5,33,98,0.644,0.0,129,4.87,11.6,0.0,1,16.3,6.76,1.6,0,0,0,1,0,,,,,,,,,,,,,,,,,,,,
7743,0,0,2,246,249,238,233,2,-0.04,0.01,1.0,-0,0,-0,0.04,1,69,538,4,33,99,0.644,0.0,128,4.89,11.7,0.0,1,16.3,6.76,1.6,0,0,0,1,0,0,250,250,0,0.0,0.0,0.0,0.0,0,0,0.0,0,0.0,-1,0.0,,0.0,0,0.0,0.129
7763,0,,,246,249,238,233,,-0.04,0.01,0.99,-0,0,-0,0.04,,69,538,4,33,98,0.645,0.0,131,4.9,12.0,0.0,1,16.3,5.89,1.6,0,0,0,1,0,,,,,,,,,,,,,,,,,,,,
7783,0,,,246,249,238,233,,-0.04,0.01,0.99,-0,-0,-0,0.04,,69,631,4,33,98,0.645,0.0,135,4.9,12.1,0.0,1,16.3,5.89,1.6,0,0,0,1,0,,,,,,,,,,,,,,,,,,,,
7803,0,,,246,249,238,233,,-0.04,0.01,0.97,-0,0,-0,0.04,,69,866,4,33,97,0.644,0.0,136,4.88,11.8,0.0,1,16.3,2.09,1.6,0,0,0,1,0,,,,,,,,,,,,,,,,,,,,
7823,0,,,246,249,238,233,,-0.05,0.01,0.97,-0,-0,-0,0.05,,69,866,12,33,98,0.646,0.0,137,4.9,12.2,0.0,1,16.3,5.89,1.6,0,0,0,1,0,,,,,,,,,,,,,,,,,,,,
7843,0,-1,2,246,249,238,233,2,-0.05,0.01,0.97,-0,-1,-0,0.05,1,69,756,32,33,98,0.646,0.0,136,4.85,11.8,0.0,1,30.0,2.09,1.6,0,0,0,1,0,0,250,250,0,0.0,0.0,0.0,0.0,0,0,0.0,0,0.0,-1,0.0,0.0,0.0,0,0.0,0.1307
7863,0,,,246,249,238,233,,-0.05,0.02,0.98,-0,-1,-0,0.06,,69,756,54,33,99,0.647,0.0,137,4.91,12.2,0.0,1,30.0,6.04,2.1,0,0,0,1,0,,,,,,,,,,,,,,,,,,,,
7883,0,,,246,250,238,233,,-0.05,0.02,0.98,-0,-1,-0,0.06,,69,756,66,33,99,0.647,0.0,137,4.91,12.2,0.0,1,30.0,6.04,2.1,0,0,0,1,0,,,,,,,,,,,,,,,,,,,,
7903,0,,,246,250,238,233,,-0.05,0.01,0.96,-0,-1,-0,0.06,,69,556,70,33,99,0.645,0.0,131,4.86,11.7,0.0,1,30.0,6.04,2.1,0,0,0,1,0,,,,,,,,,,,,,,,,,,,,
7923,0,,,246,249,238,233,,-0.05,0.02,0.97,-0,-1,-0,0.05,,69,556,71,33,99,0.647,0.0,132,4.9,12.0,0.0,1,30.0,2.09,2.1,0,0,0,1,0,,,,,,,,,,,,,,,,,,,,
7943,0,-0,3,246,249,238,233,2,-0.05,0.02,0.96,-0,-1,-0,0.05,1,69,556,71,33,99,0.647,0.0,132,4.9,12.0,0.0,1,30.0,2.09,2.1,0,0,0,1,0,0,250,250,0,0.0,0.0,0.0,0.0,0,0,0.0,0,0.0,-1,0.0,,0.0,0,0.0,0.1324
7963,0,,,246,249,238,233,,-0.05,0.02,0.93,-0,-0,-0,0.06,,69,551,71,33,99,0.645,0.0,132,4.89,11.9,0.0,1,30.0,6.04,1.5,0,0,0,1,0,,,,,,,,,,,,,,,,,,,,
7983,0,,,246,250,238,233,,-0.05,0.02,0.95,-0,-1,-0,0.05,,69,551,59,33,99,0.647,0.0,132,4.91,12.0,0.0,1,30.0,2.09,1.5,0,0,0,1,0,,,,,,,,,,,,,,,,,,,,
8003,0,,,246,249,238,233,,-0.05,0.02,0.95,-0,-0,-0,0.05,,69,774,40,33,99,0.647,0.0,141,4.9,12.2,0.0,1,30.0,6.04,1.5,0,0,0,1,0,,,,,,,,,,,,,,,,,,,,
8023,0,,,246,250,238,233,,-0.05,0.02,0.97,-0,-0,-0,0.05,,69,1299,17,33,99,0.645,0.0,143,4.88,11.9,0.0,1,32.3,2.09,1.5,0,0,0,1,0,,,,,,,,,,,,,,,,,,,,
8043,0,0,1,246,250,238,233,2,-0.04,0.02,0.98,-0,-0,-0,0.05,1,69,1199,4,33,97,0.639,0.0,142,4.86,11.6,0.0,1,16.3,3.56,1.5,0,0,0,1,0,0,250,250,0,0.0,0.0,0.0,0.0,0,0,0.0,0,0.0,-1,0.0,0.0,0.0,0,0.0,0.134
8063,0,,,246,250,237,233,,-0.04,0.02,0.97,-0,-0,-0,0.05,,69,1029,4,33,96,0.632,0.0,140,4.77,11.4,0.0,1,16.3,3.56,1.9,0,0,0,1,0,,,,,,,,,,,,,,,,,,,,
8083,0,,,246,249,238,233,,-0.04,0.02,0.97,-0,-0,-0,0.05,,69,1029,4,33,96,0.622,0.0,137,4.8,11.3,0.0,1,16.3,3.56,1.9,0,0,0,1,0,,,,,,,,,,,,,,,,,,,,
8103,0,,,246,250,237,233,,-0.04,0.02,0.96,-0,-0,-0,0.05,,70,819,3,33,95,0.612,0.0,131,4.8,11.0,0.0,1,16.3,2.09,1.9,0,0,0,1,0,,,,,,,,,,,,,,,,,,,,
8123,0,,,246,250,238,233,,-0.04,0.02,0.95,-0,-0,-0,0.05,,70,819,3,33,96,0.601,0.0,126,4.76,10.9,0.0,1,16.3,2.09,1.9,0,0,0,1,0,,,,,,,,,,,,,,,,,,,,
8143,0,2,3,246,249,238,233,2,-0.04,0.02,0.96,-0,-0,-0,0.04,1,70,819,3,33,96,0.59,0.0,123,4.77,10.9,0.0,1,16.3,2.09,1.9,0,0,0,1,0,0,250,250,0,0.0,0.0,0.0,0.0,0,0,0.0,0,0.0,-1,0.0,,0.0,0,0.0,0.1357
8163,0,,,246,250,238,233,,-0.03,0.02,0.98,-0,-0,-0,0.03,,69,550,4,33,96,0.581,0.0,126,4.8,11.0,0.0,1,16.3,3.59,0.9,0,0,0,1,0,,,,,,,,,,,,,,,,,,,,
8183,0,,,246,249,238,233,,-0.03,0.02,0.96,-0,-0,-0,0.04,,69,550,4,33,98,0.571,0.0,123,4.79,10.2,0.0,1,16.3,2.09,0.9,0,0,0,1,0,,,,,,,,,,,,,,,,,,,,
8203,0,,,247,250,238,233,,-0.03,0.01,0.97,-0,-1,-0,0.03,,69,679,4,33,97,0.564,0.0,130,4.75,10.9,0.0,1,16.3,2.09,0.9,0,0,0,1,0,,,,,,,,,,,,,,,,,,,,
8223,0,,,246,250,238,233,,-0.03,0.01,0.97,-0,-0,-0,0.04,,69,679,4,33,97,0.557,0.0,132,4.8,11.1,0.0,1,28.6,3.59,0.9,0,0,0,1,0,,,,,,,,,,,,,,,,,,,,
8243,0,6,7,246,250,238,233,2,-0.04,0.01,0.94,-0,-0,-0,0.05,1,69,1036,4,33,97,0.554,0.0,140,4.85,11.6,0.0,1,17.3,3.59,0.9,0,0,0,1,0,0,250,250,0,0.0,0.0,0.0,0.0,0,0,0.0,0,0.0,-1,0.0,0.0,0.0,0,0.0,0.1374
8263,0,,,246,249,238,233,,-0.05,0.02,0.92,-0,0,-0,0.05,,69,1169,4,33,97,0.553,0.0,151,4.9,12.1,0.0,1,29.9,3.59,1.9,0,0,0,1,0,,,,,,,,,,,,,,,,,,,,
8283,0,,,246,250,238,233,,-0.04,0.03,0.91,-0,-0,-0,0.05,,69,1640,4,33,96,0.555,0.0,161,4.88,12.2,0.0,1,31.2,3.59,1.9,0,0,0,1,0,,,,,,,,,,,,,,,,,,,,
8303,0,,,246,250,238,233,,-0.04,0.03,0.9,-0,-0,0,0.05,,69,1855,4,33,95,0.559,0.0,171,4.9,12.2,0.0,1,17.3,3.59,1.9,0,0,0,1,0,,,,,,,,,,,,,,,,,,,,
8323,0,,,246,250,237,233,,-0.04,0.03,0.93,-0,-0,-0,0.05,,69,1651,6,33,94,0.567,0.0,178,4.88,12.0,0.0,1,17.3,3.59,1.9,0,0,0,1,0,,,,,,,,,,,,,,,,,,,,
8343,0,9,6,246,250,238,233,2,-0.04,0.03,0.91,-0,-1,0,0.05,1,69,1598,12,33,94,0.575,0.0,180,4.88,12.0,0.0,1,17.3,6.04,1.9,0,0,0,1,0,0,250,250,0,0.0,0.0,0.0,0.0,0,0,0.0,0,0.0,-1,0.0,,0.0,0,0.0,0.1391
8363,0,,,246,250,238,233,,-0.04,0.04,0.94,-0,-0,0,0.06,,69,1773,24,33,96,0.586,0.0,189,4.86,12.3,0.0,1,31.2,6.04,4.9,0,0,0,1,0,,,,,,,,,,,,,,,,,,,,
8383,0,,,247,250,238,233,,-0.04,0.02,0.92,-0,-0,0,0.04,,69,2041,41,33,99,0.596,0.0,203,4.89,12.5,0.0,1,34.0,6.04,4.9,0,0,0,1,0,,,,,,,,,,,,,,,,,,,,
8403,0,,,246,250,238,233,,-0.04,0.02,0.9,-0,-1,0,0.04,,69,2180,53,33,98,0.603,0.0,213,4.87,12.3,0.0,1,34.0,5.96,4.9,0,0,0,1,0,,,,,,,,,,,,,,,,,,,,
8423,0,,,247,250,238,233,,-0.03,0.0,0.83,-0,-0,0,0.03,,69,2314,61,33,99,0.612,0.0,227,4.9,12.6,0.0,1,34.0,5.96,4.9,0,0,0,1,0,,,,,,,,,,,,,,,,,,,,
8443,0,6,7,246,250,238,233,2,-0.02,0.01,0.83,-0,-2,0,0.02,1,69,2822,64,33,99,0.621,0.0,254,4.91,12.6,0.0,1,32.1,6.99,4.9,0,0,0,1,0,0,250,250,0,0.0,0.0,0.0,0.0,0,0,0.0,0,0.0,-1,0.0,0.0,0.0,0,0.0,0.1407
8463,0,,,246,250,237,233,,-0.05,0.01,0.79,-0,-2,0,0.05,,69,3527,64,33,99,0.627,0.0,293,4.87,12.5,0.0,1,31.2,8.63,12.2,0,0,0,1,0,,,,,,,,,,,,,,,,,,,,
8483,0,,,247,250,238,233,,-0.02,-0.03,0.73,-0,-3,0,0.03,,69,3993,64,33,99,0.632,0.0,350,4.84,12.6,0.0,1,35.8,8.49,12.2,0,0,0,1,0,,,,,,,,,,,,,,,,,,,,
8503,0,,,246,249,238,233,,0.02,-0.05,0.67,-0,-2,-0,0.05,,69,4564,65,33,98,0.634,0.0,428,4.82,12.6,0.0,1,39.8,7.75,12.2,0,0,0,1,0,,,,,,,,,,,,,,,,,,,,
8523,0,,,247,250,238,233,,-0.06,-0.06,0.62,-0,2,3,0.08,,69,5227,58,33,98,0.632,0.0,537,4.82,12.4,0.0,1,42.2,7.75,12.2,0,0,0,1,0,,,,,,,,,,,,,,,,,,,,
8543,0,7,5,246,250,238,233,1,0.04,-0.1,0.88,-0,-2,-0,0.1,1,69,5778,43,33,97,0.634,0.0,605,4.87,12.9,0.0,1,40.4,3.98,12.2,0,0,0,1,0,0,250,250,0,0.0,0.0,0.0,0.0,0,0,0.0,0,0.0,-1,0.0,,0.0,0,0.0,0.1424
8563,0,,,246,250,238,233,,-0.04,-0.12,0.81,-0,-1,0,0.13,,69,6456,23,33,94,0.633,0.0,642,4.8,12.7,0.0,1,44.3,3.76,25.5,0,0,0,1,0,,,,,,,,,,,,,,,,,,,,
8583,0,,,246,250,238,233,,-0.06,-0.09,0.88,-0,-0,1,0.11,,69,6618,5,33,88,0.631,0.0,654,4.77,12.8,0.0,1,45.0,7.33,25.5,0,0,0,1,0,,,,,,,,,,,,,,,,,,,,
8603,0,,,247,250,238,233,,-0.06,-0.1,0.81,-0,-4,-3,0.11,,69,6467,4,33,81,0.63,0.0,646,4.9,12.8,0.0,1,41.1,3.04,25.5,0,0,0,1,0,,,,,,,,,,,,,,,,,,,,
8623,0,,,247,250,238,233,,-0.13,-0.09,0.75,-0,-2,-2,0.16,,69,6390,4,33,75,0.629,0.0,647,4.83,12.7,0.0,1,39.0,2.84,25.5,0,0,0,1,0,,,,,,,,,,,,,,,,,,,,
8643,0,6,4,246,250,237,233,3,-0.13,-0.08,0.89,-0,2,2,0.15,1,69,6294,4,33,71,0.627,0.0,657,4.82,13.0,0.0,1,37.6,5.7,25.5,0,0,0,1,0,0,250,250,0,0.0,0.0,0.0,0.0,0,0,0.0,0,0.0,-1,0.0,0.0,0.0,0,0.0,0.144
8663,0,,,247,250,237,233,,-0.1,-0.07,1.12,-0,4,4,0.12,,69,6109,4,33,68,0.627,0.0,650,4.85,12.9,0.0,1,36.0,5.19,14.9,0,0,0,1,0,,,,,,,,,,,,,,,,,,,,
8683,0,,,246,250,237,233,,-0.08,-0.06,1.35,-0,7,5,0.1,,69,5922,4,33,65,0.626,0.0,641,4.86,12.9,0.0,1,34.9,4.24,14.9,0,0,0,1,0,,,,,,,,,,,,,,,,,,,,
8703,0,,,247,250,238,233,,-0.11,-0.04,1.38,0,13,10,0.12,,69,5730,4,33,63,0.625,0.0,635,4.83,12.7,0.0,1,34.4,4.03,14.9,0,0,0,1,0,,,,,,,,,,,,,,,,,,,,
8723,0,,,246,249,237,233,,-0.2,-0.05,1.27,-0,15,12,0.2,,69,5587,4,33,62,0.623,0.0,633,4.82,12.9,0.0,1,34.2,1.45,14.9,0,0,0,1,0,,,,,,,,,,,,,,,,,,,,
8743,0,5,6,246,250,238,233,2,-0.05,-0.09,1.48,-0,6,4,0.1,1,69,5392,4,33,62,0.624,0.0,631,4.93,13.1,0.0,1,34.2,1.54,14.9,0,0,0,1,0,0,250,250,0,0.0,0.0,0.0,0.0,0,0,0.0,0,0.0,-1,0.0,,0.0,0,0.0,0.1457
8763,0,,,246,250,238,233,,-0.11,-0.1,1.59,-0,11,9,0.15,,69,5196,4,33,61,0.623,0.0,621,4.86,12.8,0.0,1,34.0,3.77,9.1,0,0,0,1,0,,,,,,,,,,,,,,,,,,,,
8783,0,,,246,250,238,233,,-0.03,-0.11,1.48,-0,5,3,0.11,,69,5049,4,33,61,0.624,0.0,625,4.92,13.1,0.0,1,34.0,3.95,9.1,0,0,0,1,0,,,,,,,,,,,,,,,,,,,,
8803,0,,,246,250,238,233,,-0.04,-0.13,1.37,-0,7,6,0.13,,69,4904,4,33,61,0.624,0.0,603,4.85,13.0,0.0,1,32.7,1.66,9.1,0,0,0,1,0,,,,,,,,,,,,,,,,,,,,
8823,0,,,246,250,238,233,,-0.07,-0.11,1.44,-0,7,6,0.13,,69,4757,4,32,61,0.625,0.0,583,4.83,13.0,0.0,1,30.8,3.8,9.1,0,0,0,1,0,,,,,,,,,,,,,,,,,,,,
8843,0,5,5,246,250,238,233,2,-0.11,-0.1,1.45,-0,8,6,0.15,1,69,4559,4,32,60,0.626,0.0,576,4.85,12.7,0.0,1,27.9,1.52,9.1,0,0,0,1,0,0,250,250,0,0.0,0.0,0.0,0.0,0,0,0.0,0,0.0,-1,0.0,0.0,0.0,0,0.0,0.1474
8863,0,,,246,250,238,233,,-0.12,-0.1,1.41,-0,8,7,0.16,,69,4457,4,32,60,0.627,0.0,550,4.85,12.8,0.0,1,26.5,1.46,7.3,0,0,0,1,0,,,,,,,,,,,,,,,,,,,,
8883,0,,,246,250,238,233,,-0.12,-0.13,1.3,0,8,8,0.17,,69,4339,4,32,61,0.63,0.0,541,4.87,13.1,0.0,1,25.3,3.47,7.3,0,0,0,1,0,,,,,,,,,,,,,,,,,,,,
8903,0,,,246,250,238,233,,-0.09,-0.17,1.2,0,8,7,0.19,,69,4185,4,32,61,0.632,0.0,507,4.89,13.1,0.0,1,23.3,3.36,7.3,0,0,0,1,0,,,,,,,,,,,,,,,,,,,,
8923,0,,,246,250,238,233,,-0.09,-0.16,1.22,-0,7,6,0.18,,69,4029,4,32,61,0.633,0.0,500,4.86,13.1,0.0,1,21.2,3.27,7.3,0,0,0,1,0,,,,,,,,,,,,,,,,,,,,
8943,0,6,6,246,250,238,233,3,-0.1,-0.14,1.29,-0,6,6,0.17,1,69,3914,11,32,62,0.633,0.0,468,4.82,12.8,0.0,1,0.0,3.85,7.3,0,0,0,1,0,0,250,250,0,0.0,0.0,0.0,0.0,0,0,0.0,0,0.0,-1,0.0,,0.0,0,0.0,0.149
8963,0,,,247,248,238,233,,-0.07,-0.17,1.19,-0,5,5,0.18,,69,3865,23,32,68,0.635,0.0,455,4.88,13.1,0.0,1,21.1,4.23,7.4,0,0,0,1,0,,,,,,,,,,,,,,,,,,,,
8983,0,,,247,249,238,233,,-0.08,-0.16,1.29,-0,4,5,0.18,,69,3736,36,32,80,0.636,0.0,443,4.86,12.7,0.0,1,23.1,1.91,7.4,0,0,0,1,0,,,,,,,,,,,,,,,,,,,,
9003,0,,,246,248,238,233,,-0.04,-0.15,1.19,-0,4,4,0.15,,69,3755,45,32,93,0.635,0.0,433,4.89,13.1,0.0,1,28.9,6.93,7.4,0,0,0,1,0,,,,,,,,,,,,,,,,,,,,
9023,0,,,247,250,237,233,,-0.05,-0.12,1.36,-0,3,4,0.13,,69,4172,48,32,97,0.636,0.0,446,4.87,12.8,0.0,1,36.2,7.39,7.4,0,0,0,1,0,,,,,,,,,,,,,,,,,,,,
9043,0,6,5,246,250,237,233,2,-0.02,-0.1,1.56,-0,1,2,0.1,1,69,4681,49,32,97,0.637,0.0,514,4.86,12.9,0.0,1,40.2,7.03,7.4,0,0,0,1,0,0,250,250,0,0.0,0.0,0.0,0.0,0,0,0.0,0,0.0,-1,0.0,0.0,0.0,0,0.0,0.1507
9063,0,,,246,247,237,233,,-0.02,-0.12,1.44,-0,1,2,0.12,,69,5209,49,32,97,0.637,0.0,576,4.85,13.0,0.0,1,42.2,3.19,16.3,0,0,0,1,0,,,,,,,,,,,,,,,,,,,,
9083,0,,,246,248,237,233,,0.06,-0.07,1.64,-0,-6,-4,0.1,,69,5898,49,32,97,0.637,0.0,630,4.8,13.0,0.0,1,40.1,9.27,16.3,0,0,0,1,0,,,,,,,,,,,,,,,,,,,,
9103,0,,,246,250,238,233,,0.03,-0.06,1.51,-0,-7,-6,0.06,,69,6508,46,32,96,0.638,0.0,644,4.86,13.0,0.0,1,44.9,8.63,16.3,0,0,0,1,0,,,,,,,,,,,,,,,,,,,,
9123,0,,,247,250,238,233,,0.05,-0.06,1.7,-0,-7,-6,0.08,,69,7225,37,32,95,0.638,0.0,661,4.85,13.0,0.0,1,46.8,3.59,16.3,0,0,0,1,0,,,,,,,,,,,,,,,,,,,,
9143,0,6,5,247,250,238,233,2,0.05,-0.09,1.67,-0,-6,-4,0.1,1,69,7315,21,32,91,0.638,0.0,665,4.83,13.0,0.0,1,45.6,3.5,16.3,0,0,0,1,0,0,250,250,0,0.0,0.0,0.0,0.0,0,0,0.0,0,0.0,-1,0.0,,0.0,0,0.0,0.1524
9163,0,,,246,250,238,233,,0.05,-0.09,1.8,-0,-6,-4,0.1,,69,7479,9,32,84,0.638,0.0,663,4.85,13.0,0.0,1,41.1,7.42,25.4,0,0,0,1,0,,,,,,,,,,,,,,,,,,,,
9183,0,,,246,250,238,233,,0.05,-0.08,1.97,-0,-6,-5,0.09,,69,7606,4,32,76,0.638,0.0,670,4.84,13.0,0.0,1,40.6,6.66,25.4,0,0,0,1,0,,,,,,,,,,,,,,,,,,,,
9203,0,,,246,250,238,233,,0.05,-0.09,2.07,-0,-5,-4,0.1,,69,7503,4,32,69,0.638,0.0,670,4.79,13.0,0.0,1,39.6,2.46,25.4,0,0,0,1,0,,,,,,,,,,,,,,,,,,,,
9223,0,,,246,249,238,233,,0.05,-0.1,1.92,-0,-4,-3,0.11,,69,7281,4,32,65,0.639,0.0,664,4.81,13.0,0.0,1,39.2,4.68,25.4,0,0,0,1,0,,,,,,,,,,,,,,,,,,,,
9243,0,4,6,246,250,238,233,3,0.01,-0.05,1.77,-0,-3,-2,0.05,1,69,7056,4,32,62,0.64,0.0,658,4.79,12.8,0.0,1,38.6,4.11,25.4,0,0,0,1,0,0,250,250,0,0.0,0.0,0.0,0.0,0,0,0.0,0,0.0,-1,0.0,0.0,0.0,0,0.0,0.154
9263,0,,,246,249,238,233,,0.05,-0.05,1.89,-0,-5,-4,0.07,,69,6878,4,32,60,0.641,0.0,658,4.9,13.0,0.0,1,37.3,3.45,11.4,0,0,0,1,0,,,,,,,,,,,,,,,,,,,,
9283,0,,,247,250,238,233,,-0.01,-0.03,1.74,-0,-2,-1,0.03,,69,6651,4,32,58,0.641,0.0,654,4.78,13.0,0.0,1,35.9,3.27,11.4,0,0,0,1,0,,,,,,,,,,,,,,,,,,,,
9303,0,,,246,250,238,233,,0.05,-0.01,1.91,-0,-2,-2,0.05,,69,6461,4,32,58,0.643,0.0,654,4.92,13.1,0.0,1,35.1,1.17,11.4,0,0,0,1,0,,,,,,,,,,,,,,,,,,,,
9323,0,,,246,250,238,233,,0.1,-0.02,2.07,-0,-6,-6,0.1,,69,6268,4,32,57,0.645,0.0,648,4.93,13.0,0.0,1,34.1,1.13,11.4,0,0,0,1,0,,,,,,,,,,,,,,,,,,,,
9343,0,6,6,246,249,238,233,2,0.11,-0.02,1.91,-0,-9,-9,0.11,1,69,6067,4,32,56,0.646,0.0,641,4.88,12.9,0.0,1,33.2,1.11,11.4,0,0,0,1,0,0,250,250,0,0.0,0.0,0.0,0.0,0,0,0.0,0,0.0,-1,0.0,,0.0,0,0.0,0.1557
9363,0,,,246,249,238,233,,0.16,-0.02,2.07,-0,-14,-13,0.16,,69,5866,4,32,55,0.649,0.0,636,4.87,13.0,0.0,1,32.6,1.21,8.5,0,0,0,1,0,,,,,,,,,,,,,,,,,,,,
9383,0,,,246,250,237,233,,0.22,0.03,2.22,-0,-19,-17,0.22,,69,5664,4,32,55,0.653,0.0,637,4.9,13.1,0.0,1,32.5,3.33,8.5,0,0,0,1,0,,,,,,,,,,,,,,,,,,,,
9403,0,,,246,250,237,233,,0.15,0.07,2.36,-0,-11,-12,0.16,,69,5464,4,32,55,0.655,0.0,631,4.79,12.7,0.0,1,32.3,3.54,8.5,0,0,0,1,0,,,,,,,,,,,,,,,,,,,,
9423,0,,,246,250,237,233,,0.12,-0.01,2.17,-0,-9,-10,0.13,,69,5314,5,32,55,0.655,0.0,621,4.91,13.1,0.0,1,32.2,3.66,8.5,0,0,0,1,0,,,,,,,,,,,,,,,,,,,,
9443,0,6,4,247,250,238,233,3,0.1,0.02,2.31,-0,-9,-11,0.1,1,69,5117,5,32,56,0.658,0.0,617,4.89,13.0,0.0,1,32.4,3.85,8.5,0,0,0,1,0,0,250,250,0,0.0,0.0,0.0,0.0,0,0,0.0,0,0.0,-1,0.0,0.0,0.0,0,0.0,0.1574
9463,0,,,247,249,238,233,,0.12,-0.02,2.14,-0,-10,-12,0.12,,69,4966,5,32,56,0.66,0.0,620,4.9,13.1,0.0,1,31.9,3.88,9.1,0,0,0,1,0,,,,,,,,,,,,,,,,,,,,
9483,0,,,246,249,237,233,,0.12,-0.04,1.97,-0,-7,-9,0.13,,69,4818,10,32,57,0.661,0.0,589,4.85,13.0,0.0,1,30.4,1.65,9.1,0,0,0,1,0,,,,,,,,,,,,,,,,,,,,
9503,0,,,246,250,238,233,,0.08,-0.05,1.82,-0,-7,-7,0.1,,69,4668,15,32,60,0.661,0.0,576,4.82,12.9,0.0,1,28.7,1.54,9.1,0,0,0,1,0,,,,,,,,,,,,,,,,,,,,
9523,0,,,247,250,238,233,,0.04,-0.07,1.68,-0,-4,-5,0.08,,69,4598,24,32,67,0.661,0.0,560,4.86,12.8,0.0,1,30.3,1.83,9.1,0,0,0,1,0,,,,,,,,,,,,,,,,,,,,
9543,0,5,6,247,250,237,233,2,-0.01,-0.05,1.83,-0,-3,-4,0.05,1,69,4813,31,32,77,0.663,0.0,561,4.9,12.8,0.0,1,36.0,5.57,9.1,0,0,0,1,0,0,250,250,0,0.0,0.0,0.0,0.0,0,0,0.0,0,0.0,-1,0.0,,0.0,0,0.0,0.159
9563,0,,,246,250,237,233,,0.03,-0.02,1.99,-0,-6,-6,0.04,,69,5028,36,32,87,0.664,0.0,587,4.9,13.1,0.0,1,41.8,6.17,13.9,0,0,0,1,0,,,,,,,,,,,,,,,,,,,,
9583,0,,,246,250,237,233,,-0.06,-0.01,1.84,-0,1,1,0.06,,69,5570,39,32,92,0.662,0.0,607,4.85,13.0,0.0,1,41.1,7.77,13.9,0,0,0,1,0,,,,,,,,,,,,,,,,,,,,
9603,0,,,247,250,238,233,,-0.11,-0.02,1.7,-1,1,-0,0.11,,69,6165,40,32,94,0.661,0.0,630,4.84,13.0,0.0,1,41.3,8.95,13.9,0,0,0,1,0,,,,,,,,,,,,,,,,,,,,
9623,0,,,246,249,238,233,,-0.11,-0.01,1.57,-0,3,1,0.11,,69,6739,40,32,94,0.659,0.0,650,4.82,13.0,0.0,1,47.3,8.07,13.9,0,0,0,1,0,,,,,,,,,,,,,,,,,,,,
