"Interval"|"ms"|0|0|1,"Utc"|"ms"|0|0|1,"Brake_F"|"Bar"|0|2000|10,"Brake_R"|"Bar"|0|2000|10,"Height_RF"|"mm"|0|255|10,"Height_LF"|"mm"|0|255|10,"Height_LR"|"mm"|0|80|10,"Height_RR"|"mm"|0|255|10,"Steering"|"deg"|-100|100|10,"AccelX"|"G"|-3.0|3.0|25,"AccelY"|"G"|-3.0|3.0|25,"AccelZ"|"G"|-3.0|3.0|25,"Yaw"|"Deg/Sec"|-120|120|25,"Pitch"|"Deg/Sec"|-120|120|25,"Roll"|"Deg/Sec"|-120|120|25,"Gsum"|"G"|0.0|3.0|25,"Unknown"|""|0|1024|25,"Log_Button"|""|0.0|10.0|10,"Latitude"|"Degrees"|-180.0|180.0|10,"Longitude"|"Degrees"|-180.0|180.0|10,"Speed"|"kph"|0.0|150.0|10,"Altitude"|"m"|0.0|4000.0|10,"GPSSats"|""|0|20|10,"GPSQual"|""|0|5|10,"GPSDOP"|""|0.0|20.0|10,"LapCount"|""|0|0|10,"LapTime"|"Min"|0.0|0.0|10,"Sector"|""|0|0|10,"SectorTime"|"Min"|0.0|0.0|10,"PredTime"|"Min"|0.0|0.0|5,"ElapsedTime"|"Min"|0.0|0.0|10,"CurrentLap"|""|0|0|10,"Distance"|"km"|0.0|0.0|10,"SessionTime"|"Min"|0.0|0.0|10
36083,0,,,,,,,,0.26,0.14,0.33,2,23,-13,0.3,0,,,,,,,,,,,,,,,,,
36123,0,,,,,,,,0.02,0.22,-0.11,2,2,1,0.22,0,,,,,,,,,,,,,,,,,
36163,0,,,,,,,,-0.11,0.11,-0.47,2,-9,11,0.15,0,,,,,,,,,,,,,,,,,
36203,0,,,,,,,,-0.1,-0.03,-0.23,2,-8,8,0.11,0,,,,,,,,,,,,,,,,,
36243,0,1,1,47,49,32,37,-13,0.09,-0.13,0.19,1,5,-6,0.16,0,1,0.0,0.0,0.0,0.0,0,0,0.0,0,0.0,-1,0.0,0.0,0.0,0,0.0,0.604
36283,0,,,,,,,,0.25,-0.09,0.54,0,16,-17,0.26,0,,,,,,,,,,,,,,,,,
36323,0,,,,,,,,0.35,-0.03,0.81,1,18,-17,0.35,0,,,,,,,,,,,,,,,,,
36363,0,,,,,,,,0.46,0.03,1.04,0,12,-10,0.46,0,,,,,,,,,,,,,,,,,
36403,0,,,,,,,,0.39,0.18,0.61,0,-7,6,0.42,0,,,,,,,,,,,,,,,,,
36443,0,-0,2,47,49,32,37,-13,0.18,0.21,0.12,0,-14,11,0.28,0,1,0.0,0.0,0.0,0.0,0,0,0.0,0,0.0,-1,0.0,0.0,0.0,0,0.0,0.6074
36483,0,,,,,,,,0.05,0.07,-0.29,-0,-3,1,0.08,0,,,,,,,,,,,,,,,,,
36523,0,,,,,,,,0.07,-0.11,0.05,-0,10,-13,0.12,0,,,,,,,,,,,,,,,,,
36563,0,,,,,,,,0.21,-0.2,0.42,-0,19,-19,0.29,0,,,,,,,,,,,,,,,,,
36603,0,,,,,,,,0.37,-0.13,0.72,-0,13,-13,0.39,0,,,,,,,,,,,,,,,,,
36643,0,1,1,47,49,32,37,-12,0.39,0.04,0.56,0,0,-1,0.39,0,0,0.0,0.0,0.0,0.0,0,0,0.0,0,0.0,-1,0.0,0.0,0.0,0,0.0,0.6107
36683,0,,,,,,,,0.18,0.19,0.08,1,-11,11,0.26,0,,,,,,,,,,,,,,,,,
36723,0,,,,,,,,0.0,0.12,-0.32,1,-9,9,0.12,0,,,,,,,,,,,,,,,,,
36763,0,,,,,,,,0.15,-0.08,0.12,1,7,-6,0.17,0,,,,,,,,,,,,,,,,,
36803,0,,,,,,,,0.28,-0.01,0.48,1,7,-4,0.28,0,,,,,,,,,,,,,,,,,
36843,0,1,3,47,49,32,37,-14,0.22,0.17,0.04,2,-4,6,0.28,0,0,0.0,0.0,0.0,0.0,0,0,0.0,0,0.0,-1,0.0,0.0,0.0,0,0.0,0.614
36883,0,,,,,,,,0.02,0.22,-0.35,2,-15,17,0.22,0,,,,,,,,,,,,,,,,,
36923,0,,,,,,,,-0.09,0.13,-0.66,1,-14,16,0.16,0,,,,,,,,,,,,,,,,,
36963,0,,,,,,,,-0.06,-0.1,-0.48,1,-3,4,0.12,0,,,,,,,,,,,,,,,,,
37003,0,,,,,,,,0.15,-0.19,-0.01,0,10,-9,0.24,0,,,,,,,,,,,,,,,,,
37043,0,0,3,47,49,32,37,-14,0.29,-0.13,0.37,0,13,-13,0.31,0,0,0.0,0.0,0.0,0.0,0,0,0.0,0,0.0,-1,0.0,0.0,0.0,0,0.0,0.6174
37083,0,,,,,,,,0.31,0.06,0.28,1,8,-4,0.31,0,,,,,,,,,,,,,,,,,
37123,0,,,,,,,,0.1,0.18,-0.15,2,-4,8,0.21,0,,,,,,,,,,,,,,,,,
37163,0,,,,,,,,-0.07,0.05,-0.5,2,-6,8,0.08,0,,,,,,,,,,,,,,,,,
37203,0,,,,,,,,0.05,-0.14,-0.03,1,8,-6,0.15,0,,,,,,,,,,,,,,,,,
37243,0,-0,2,47,49,32,37,-13,0.17,-0.12,0.36,1,14,-14,0.21,0,0,0.0,0.0,0.0,0.0,0,0,0.0,0,0.0,-1,0.0,0.0,0.0,0,0.0,0.6207
37283,0,,,,,,,,0.16,0.1,0.15,2,12,-9,0.19,0,,,,,,,,,,,,,,,,,
37323,0,,,,,,,,-0.01,0.16,-0.26,2,-2,4,0.16,0,,,,,,,,,,,,,,,,,
37363,0,,,,,,,,-0.15,0.07,-0.59,2,-9,9,0.16,0,,,,,,,,,,,,,,,,,
37403,0,,,,,,,,-0.05,-0.12,-0.13,1,-1,1,0.13,0,,,,,,,,,,,,,,,,,
37443,0,1,1,47,49,32,37,-13,0.18,-0.16,0.28,1,12,-13,0.24,0,0,0.0,0.0,0.0,0.0,0,0,0.0,0,0.0,-1,0.0,0.0,0.0,0,0.0,0.624
37483,0,,,,,,,,0.31,-0.05,0.6,1,20,-18,0.31,0,,,,,,,,,,,,,,,,,
37523,0,,,,,,,,0.29,0.1,0.11,1,12,-8,0.3,0,,,,,,,,,,,,,,,,,
37563,0,,,,,,,,0.09,0.17,-0.29,1,-4,5,0.19,0,,,,,,,,,,,,,,,,,
37603,0,,,,,,,,-0.05,0.04,-0.62,1,-13,13,0.07,0,,,,,,,,,,,,,,,,,
37643,0,0,2,47,49,32,37,-13,0.06,-0.11,-0.12,1,-4,4,0.13,0,0,0.0,0.0,0.0,0.0,0,0,0.0,0,0.0,-1,0.0,0.0,0.0,0,0.0,0.6274
37683,0,,,,,,,,0.16,-0.01,0.28,1,7,-5,0.16,0,,,,,,,,,,,,,,,,,
37723,0,,,,,,,,-0.05,0.05,-0.15,2,-8,7,0.07,0,,,,,,,,,,,,,,,,,
37763,0,,,,,,,,-0.12,-0.06,-0.11,1,7,-6,0.13,0,,,,,,,,,,,,,,,,,
37803,0,,,,,,,,-0.11,0.05,-0.11,1,-6,5,0.13,0,,,,,,,,,,,,,,,,,
37843,0,-1,2,47,49,32,37,-13,-0.02,-0.02,0.2,0,-2,-4,0.03,0,0,0.0,0.0,0.0,0.0,0,0,0.0,0,0.0,-1,0.0,0.0,0.0,0,0.0,0.6307
37883,0,,,,,,,,-0.12,0.03,-0.22,-0,-18,5,0.12,0,,,,,,,,,,,,,,,,,
37923,0,,,,,,,,0.08,-0.06,0.2,0,1,-7,0.1,0,,,,,,,,,,,,,,,,,
37963,0,,,,,,,,0.19,0.14,0.18,0,-9,3,0.23,0,,,,,,,,,,,,,,,,,
38003,0,,,,,,,,0.07,0.24,-0.23,1,-22,14,0.25,0,,,,,,,,,,,,,,,,,
38043,0,0,2,47,49,32,37,-13,-0.16,0.14,-0.57,1,-24,17,0.22,0,0,0.0,0.0,0.0,0.0,0,0,0.0,0,0.0,-1,0.0,0.0,0.0,0,0.0,0.634
38083,0,,,,,,,,-0.21,-0.08,-0.69,0,-8,4,0.22,0,,,,,,,,,,,,,,,,,
38123,0,,,,,,,,-0.07,-0.22,-0.18,1,9,-12,0.23,0,,,,,,,,,,,,,,,,,
38163,0,,,,,,,,0.15,-0.19,0.24,0,15,-14,0.25,0,,,,,,,,,,,,,,,,,
38203,0,,,,,,,,0.11,0.02,-0.19,1,-1,0,0.12,0,,,,,,,,,,,,,,,,,
38243,0,-0,2,47,49,32,37,-14,-0.11,-0.05,-0.53,1,-9,6,0.12,0,0,0.0,0.0,0.0,0.0,0,0,0.0,0,0.0,-1,0.0,0.0,0.0,0,0.0,0.6374
38283,0,,,,,,,,-0.12,-0.21,-0.41,1,2,-4,0.24,0,,,,,,,,,,,,,,,,,
38323,0,,,,,,,,0.1,-0.23,0.04,1,16,-15,0.25,0,,,,,,,,,,,,,,,,,
38363,0,,,,,,,,0.24,0.01,0.08,-1,4,-6,0.24,0,,,,,,,,,,,,,,,,,
38403,0,,,,,,,,0.11,0.14,-0.31,-0,-9,8,0.17,0,,,,,,,,,,,,,,,,,
38443,0,-1,2,47,49,32,37,-13,-0.08,0.04,-0.63,-0,-19,15,0.09,0,0,0.0,0.0,0.0,0.0,0,0,0.0,0,0.0,-1,0.0,0.0,0.0,0,0.0,0.6407
38483,0,,,,,,,,-0.08,-0.12,-0.49,-0,-9,6,0.14,0,,,,,,,,,,,,,,,,,
38523,0,,,,,,,,0.08,-0.17,-0.02,-1,5,-9,0.19,0,,,,,,,,,,,,,,,,,
38563,0,,,,,,,,0.26,-0.1,0.36,1,15,-16,0.28,0,,,,,,,,,,,,,,,,,
38603,0,,,,,,,,0.22,0.1,0.27,1,10,-8,0.24,0,,,,,,,,,,,,,,,,,
38643,0,1,2,47,49,32,37,-13,0.0,0.14,-0.16,1,-6,7,0.14,0,0,0.0,0.0,0.0,0.0,0,0,0.0,0,0.0,-1,0.0,0.0,0.0,0,0.0,0.644
38683,0,,,,,,,,-0.14,-0.03,-0.51,1,-14,13,0.15,0,,,,,,,,,,,,,,,,,
38723,0,,,,,,,,-0.08,-0.12,-0.13,0,-0,-0,0.14,0,,,,,,,,,,,,,,,,,
38763,0,,,,,,,,0.12,-0.02,0.28,0,10,-8,0.13,0,,,,,,,,,,,,,,,,,
38803,0,,,,,,,,0.02,0.06,-0.16,0,-1,2,0.07,0,,,,,,,,,,,,,,,,,
38843,0,1,2,47,49,32,37,-14,-0.14,-0.07,-0.51,1,-8,9,0.15,0,0,0.0,0.0,0.0,0.0,0,0,0.0,0,0.0,-1,0.0,0.0,0.0,0,0.0,0.6474
38883,0,,,,,,,,0.03,-0.14,-0.03,0,7,-6,0.14,0,,,,,,,,,,,,,,,,,
38923,0,,,,,,,,0.14,0.08,0.08,1,12,-9,0.16,0,,,,,,,,,,,,,,,,,
38963,0,,,,,,,,0.02,0.15,-0.32,-2,-6,4,0.15,0,,,,,,,,,,,,,,,,,
39003,0,,,,,,,,-0.08,0.03,-0.64,-1,-13,13,0.08,0,,,,,,,,,,,,,,,,,
39043,0,0,1,47,49,32,37,-13,-0.01,-0.14,-0.17,-1,-7,7,0.14,0,0,0.0,0.0,0.0,0.0,0,0,0.0,0,0.0,-1,0.0,0.0,0.0,0,0.0,0.6507
39083,0,,,,,,,,0.15,-0.11,0.24,-1,6,-8,0.19,0,,,,,,,,,,,,,,,,,
39123,0,,,,,,,,0.3,-0.15,0.58,-2,13,-14,0.33,0,,,,,,,,,,,,,,,,,
39163,0,,,,,,,,0.39,0.03,0.85,-1,5,-4,0.39,0,,,,,,,,,,,,,,,,,
39203,0,,,,,,,,0.31,0.2,0.37,-0,-9,10,0.37,0,,,,,,,,,,,,,,,,,
39243,0,0,1,47,49,32,37,-13,0.08,0.24,-0.08,0,-19,18,0.25,0,0,0.0,0.0,0.0,0.0,0,0,0.0,0,0.0,-1,0.0,0.0,0.0,0,0.0,0.654
39283,0,,,,,,,,-0.08,0.1,-0.44,-0,-12,12,0.13,0,,,,,,,,,,,,,,,,,
39323,0,,,,,,,,-0.06,-0.02,0.02,0,4,-5,0.07,0,,,,,,,,,,,,,,,,,
39363,0,,,,,,,,0.13,-0.03,0.4,-0,8,-7,0.13,0,,,,,,,,,,,,,,,,,
39403,0,,,,,,,,0.21,0.1,0.7,-0,2,0,0.23,0,,,,,,,,,,,,,,,,,
39443,0,1,0,47,49,32,37,-13,0.09,0.22,0.19,1,-11,13,0.24,0,0,0.0,0.0,0.0,0.0,0,0,0.0,0,0.0,-1,0.0,0.0,0.0,0,0.0,0.6574
39483,0,,,,,,,,-0.12,-0.0,-0.23,1,-8,9,0.12,0,,,,,,,,,,,,,,,,,
39523,0,,,,,,,,0.03,-0.04,0.19,1,6,-4,0.05,0,,,,,,,,,,,,,,,,,
39563,0,,,,,,,,0.16,0.12,0.14,2,5,1,0.2,0,,,,,,,,,,,,,,,,,
39603,0,,,,,,,,-0.01,0.15,-0.27,2,-9,14,0.15,0,,,,,,,,,,,,,,,,,
39643,0,1,2,47,49,32,37,-14,-0.13,0.03,-0.6,1,-11,15,0.14,0,0,0.0,0.0,0.0,0.0,0,0,0.0,0,0.0,-1,0.0,0.0,0.0,0,0.0,0.6607
39683,0,,,,,,,,-0.16,-0.12,-0.51,1,-0,3,0.2,0,,,,,,,,,,,,,,,,,
39723,0,,,,,,,,0.05,-0.18,-0.03,1,14,-11,0.18,0,,,,,,,,,,,,,,,,,
39763,0,,,,,,,,0.22,-0.05,0.35,0,13,-10,0.23,0,,,,,,,,,,,,,,,,,
39803,0,,,,,,,,0.15,0.08,-0.09,1,-2,4,0.17,0,,,,,,,,,,,,,,,,,
39843,0,1,0,47,49,32,37,-12,-0.07,-0.03,-0.46,1,-11,10,0.08,0,0,0.0,0.0,0.0,0.0,0,0,0.0,0,0.0,-1,0.0,0.0,0.0,0,0.0,0.664
39883,0,,,,,,,,-0.03,-0.13,-0.11,1,2,-4,0.13,0,,,,,,,,,,,,,,,,,
39923,0,,,,,,,,0.19,-0.13,0.29,1,14,-15,0.23,0,,,,,,,,,,,,,,,,,
39963,0,,,,,,,,0.31,0.05,0.58,3,20,-14,0.32,0,,,,,,,,,,,,,,,,,
40003,0,,,,,,,,0.12,0.14,0.09,2,-0,2,0.18,0,,,,,,,,,,,,,,,,,
40043,0,1,0,47,49,32,37,-13,-0.06,-0.01,-0.31,2,-7,8,0.06,0,0,0.0,0.0,0.0,0.0,0,0,0.0,0,0.0,-1,0.0,0.0,0.0,0,0.0,0.6674
40083,0,,,,,,,,0.08,-0.13,0.13,1,7,-7,0.15,0,,,,,,,,,,,,,,,,,
40123,0,,,,,,,,0.21,0.05,0.34,1,8,-7,0.21,0,,,,,,,,,,,,,,,,,
40163,0,,,,,,,,0.03,0.13,-0.11,0,-12,8,0.13,0,,,,,,,,,,,,,,,,,
40203,0,,,,,,,,-0.13,-0.04,-0.47,-0,-21,17,0.14,0,,,,,,,,,,,,,,,,,
40243,0,1,2,47,49,32,37,-13,-0.1,-0.15,-0.16,-1,-13,8,0.18,0,0,0.0,0.0,0.0,0.0,0,0,0.0,0,0.0,-1,0.0,0.0,0.0,0,0.0,0.6707
40283,0,,,,,,,,0.08,-0.16,0.25,-1,3,-9,0.18,0,,,,,,,,,,,,,,,,,
40323,0,,,,,,,,0.24,0.04,0.58,-1,10,-11,0.25,0,,,,,,,,,,,,,,,,,
40363,0,,,,,,,,0.15,0.16,0.09,-2,1,-3,0.22,0,,,,,,,,,,,,,,,,,
40403,0,,,,,,,,-0.03,0.08,-0.31,0,-12,9,0.08,0,,,,,,,,,,,,,,,,,
40443,0,0,1,47,49,32,37,-13,-0.03,-0.04,-0.22,-0,-11,7,0.05,0,0,0.0,0.0,0.0,0.0,0,0,0.0,0,0.0,-1,0.0,0.0,0.0,0,0.0,0.674
40483,0,,,,,,,,0.13,-0.03,0.2,0,3,-8,0.13,0,,,,,,,,,,,,,,,,,
40523,0,,,,,,,,0.27,0.1,0.54,0,5,-9,0.29,0,,,,,,,,,,,,,,,,,
40563,0,,,,,,,,0.31,0.28,0.42,0,-9,4,0.42,0,,,,,,,,,,,,,,,,,
40603,0,,,,,,,,0.07,0.26,-0.04,0,-15,9,0.27,0,,,,,,,,,,,,,,,,,
40643,0,1,3,47,49,32,37,-14,-0.01,0.01,-0.01,1,0,-5,0.02,0,0,0.0,0.0,0.0,0.0,0,0,0.0,0,0.0,-1,0.0,0.0,0.0,0,0.0,0.6774
40683,0,,,,,,,,0.18,-0.01,0.37,1,11,-11,0.18,0,,,,,,,,,,,,,,,,,
40723,0,,,,,,,,0.23,0.16,0.28,0,-6,3,0.28,0,,,,,,,,,,,,,,,,,
40763,0,,,,,,,,0.05,0.11,-0.16,0,-14,9,0.12,0,,,,,,,,,,,,,,,,,
40803,0,,,,,,,,-0.07,-0.07,-0.13,-0,-2,-3,0.1,0,,,,,,,,,,,,,,,,,
40843,0,1,0,47,49,32,37,-13,0.09,-0.09,0.27,-1,10,-13,0.13,0,0,0.0,0.0,0.0,0.0,0,0,0.0,0,0.0,-1,0.0,0.0,0.0,0,0.0,0.6807
40883,0,,,,,,,,0.23,0.07,0.6,-1,5,-7,0.24,0,,,,,,,,,,,,,,,,,
40923,0,,,,,,,,0.15,0.16,0.11,-1,-11,9,0.22,0,,,,,,,,,,,,,,,,,
40963,0,,,,,,,,-0.06,0.14,-0.29,-1,-20,16,0.15,0,,,,,,,,,,,,,,,,,
41003,0,,,,,,,,-0.15,-0.06,-0.62,-1,-15,9,0.16,0,,,,,,,,,,,,,,,,,
41043,0,-1,2,47,49,32,37,-13,-0.07,-0.13,-0.19,-1,2,-8,0.15,0,0,0.0,0.0,0.0,0.0,0,0,0.0,0,0.0,-1,0.0,0.0,0.0,0,0.0,0.684
41083,0,,,,,,,,0.16,-0.07,0.23,-2,6,-11,0.17,0,,,,,,,,,,,,,,,,,
41123,0,,,,,,,,0.19,0.08,0.07,-1,-2,-2,0.2,0,,,,,,,,,,,,,,,,,
41163,0,,,,,,,,0.01,0.1,-0.32,0,-14,10,0.1,0,,,,,,,,,,,,,,,,,
41203,0,,,,,,,,-0.16,-0.04,-0.64,-0,-14,9,0.17,0,,,,,,,,,,,,,,,,,
41243,0,1,0,47,49,32,37,-13,-0.03,-0.13,-0.14,-1,0,-6,0.14,0,0,0.0,0.0,0.0,0.0,0,0,0.0,0,0.0,-1,0.0,0.0,0.0,0,0.0,0.6874
41283,0,,,,,,,,0.16,-0.02,0.27,-1,7,-8,0.16,0,,,,,,,,,,,,,,,,,
41323,0,,,,,,,,0.06,0.11,-0.16,-1,-12,7,0.13,0,,,,,,,,,,,,,,,,,
41363,0,,,,,,,,-0.13,-0.01,-0.51,-1,-17,12,0.13,0,,,,,,,,,,,,,,,,,
41403,0,,,,,,,,0.02,-0.03,-0.04,-2,1,-4,0.04,0,,,,,,,,,,,,,,,,,
41443,0,-1,2,47,49,32,37,-12,0.19,0.11,0.35,0,12,-10,0.22,0,0,0.0,0.0,0.0,0.0,0,0,0.0,0,0.0,-1,0.0,0.0,0.0,0,0.0,0.6907
41483,0,,,,,,,,0.04,0.21,-0.1,1,-0,2,0.21,0,,,,,,,,,,,,,,,,,
41523,0,,,,,,,,-0.11,0.06,-0.46,1,-10,9,0.12,0,,,,,,,,,,,,,,,,,
41563,0,,,,,,,,0.03,-0.06,0.01,1,4,-6,0.06,0,,,,,,,,,,,,,,,,,
41603,0,,,,,,,,0.19,0.09,0.39,1,13,-13,0.21,0,,,,,,,,,,,,,,,,,
41643,0,1,0,47,49,32,37,-13,0.13,0.22,-0.07,3,12,-6,0.26,0,0,0.0,0.0,0.0,0.0,0,0,0.0,0,0.0,-1,0.0,0.0,0.0,0,0.0,0.694
41683,0,,,,,,,,-0.07,0.16,-0.44,2,-5,8,0.17,0,,,,,,,,,,,,,,,,,
41723,0,,,,,,,,-0.02,-0.03,-0.28,2,-1,3,0.04,0,,,,,,,,,,,,,,,,,
41763,0,,,,,,,,0.15,-0.05,0.15,1,12,-12,0.15,0,,,,,,,,,,,,,,,,,
41803,0,,,,,,,,0.26,0.09,0.5,1,21,-19,0.28,0,,,,,,,,,,,,,,,,,
41843,0,-1,2,47,49,32,37,-12,0.23,0.2,0.07,1,18,-13,0.3,0,0,0.0,0.0,0.0,0.0,0,0,0.0,0,0.0,-1,0.0,0.0,0.0,0,0.0,0.6974
41883,0,,,,,,,,0.03,0.26,-0.33,2,6,-0,0.26,0,,,,,,,,,,,,,,,,,
41923,0,,,,,,,,-0.09,0.32,-0.64,1,-11,13,0.33,0,,,,,,,,,,,,,,,,,
41963,0,,,,,,,,-0.23,0.19,-0.9,1,-6,9,0.3,0,,,,,,,,,,,,,,,,,
42003,0,,,,,,,,-0.16,0.0,-0.62,0,12,-7,0.16,0,,,,,,,,,,,,,,,,,
42043,0,1,1,47,49,32,37,-13,0.1,-0.06,-0.13,-1,14,-10,0.11,0,0,0.0,0.0,0.0,0.0,0,0,0.0,0,0.0,-1,0.0,0.0,0.0,0,0.0,0.7007
42083,0,,,,,,,,0.24,0.07,0.28,-0,9,-4,0.25,0,,,,,,,,,,,,,,,,,
42123,0,,,,,,,,0.22,0.2,-0.04,1,-4,8,0.3,0,,,,,,,,,,,,,,,,,
42163,0,,,,,,,,0.02,0.18,-0.41,0,-13,15,0.18,0,,,,,,,,,,,,,,,,,
42203,0,,,,,,,,-0.04,0.02,-0.32,0,4,-1,0.04,0,,,,,,,,,,,,,,,,,
42243,0,-1,2,47,49,32,37,-13,0.13,-0.04,0.12,1,16,-13,0.13,0,0,0.0,0.0,0.0,0.0,0,0,0.0,0,0.0,-1,0.0,0.0,0.0,0,0.0,0.704
42283,0,,,,,,,,0.25,0.09,0.48,1,17,-11,0.26,0,,,,,,,,,,,,,,,,,
42323,0,,,,,,,,0.25,0.21,0.37,1,6,0,0.33,0,,,,,,,,,,,,,,,,,
42363,0,,,,,,,,0.05,0.24,-0.08,1,-11,14,0.25,0,,,,,,,,,,,,,,,,,
42403,0,,,,,,,,-0.12,0.16,-0.45,1,-16,17,0.2,0,,,,,,,,,,,,,,,,,
42443,0,0,1,47,49,32,37,-14,-0.21,-0.02,-0.5,1,-8,8,0.21,0,0,0.0,0.0,0.0,0.0,0,0,0.0,0,0.0,-1,0.0,0.0,0.0,0,0.0,0.7074
42483,0,,,,,,,,-0.02,-0.12,-0.03,1,7,-8,0.12,0,,,,,,,,,,,,,,,,,
42523,0,,,,,,,,0.16,-0.02,0.36,1,11,-8,0.16,0,,,,,,,,,,,,,,,,,
42563,0,,,,,,,,0.11,0.12,-0.09,-0,-9,7,0.17,0,,,,,,,,,,,,,,,,,
42603,0,,,,,,,,-0.1,0.1,-0.45,-0,-24,18,0.14,0,,,,,,,,,,,,,,,,,
42643,0,0,2,47,49,32,37,-13,-0.11,-0.04,-0.35,-0,-9,5,0.11,0,0,0.0,0.0,0.0,0.0,0,0,0.0,0,0.0,-1,0.0,0.0,0.0,0,0.0,0.7107
42683,0,,,,,,,,0.14,-0.03,0.1,-0,6,-8,0.14,0,,,,,,,,,,,,,,,,,
42723,0,,,,,,,,0.27,0.14,0.1,-1,-0,-2,0.3,0,,,,,,,,,,,,,,,,,
42763,0,,,,,,,,0.12,0.22,-0.3,-1,-13,9,0.25,0,,,,,,,,,,,,,,,,,
42803,0,,,,,,,,-0.07,0.12,-0.62,-0,-25,19,0.14,0,,,,,,,,,,,,,,,,,
42843,0,-1,2,47,49,32,37,-13,-0.07,-0.03,-0.39,-0,-15,9,0.08,0,0,0.0,0.0,0.0,0.0,0,0,0.0,0,0.0,-1,0.0,0.0,0.0,0,0.0,0.714
42883,0,,,,,,,,0.07,-0.02,0.07,0,3,-8,0.07,0,,,,,,,,,,,,,,,,,
42923,0,,,,,,,,0.23,0.05,0.43,0,14,-16,0.24,0,,,,,,,,,,,,,,,,,
42963,0,,,,,,,,0.23,0.19,0.33,1,15,-12,0.3,0,,,,,,,,,,,,,,,,,
43003,0,,,,,,,,0.04,0.21,-0.11,2,1,1,0.21,0,,,,,,,,,,,,,,,,,
43043,0,1,3,47,49,32,37,-12,-0.13,0.01,-0.47,2,-10,12,0.13,0,0,0.0,0.0,0.0,0.0,0,0,0.0,0,0.0,-1,0.0,0.0,0.0,0,0.0,0.7174
43083,0,,,,,,,,-0.14,-0.11,-0.36,2,-7,7,0.18,0,,,,,,,,,,,,,,,,,
43123,0,,,,,,,,0.05,-0.15,0.09,1,5,-7,0.16,0,,,,,,,,,,,,,,,,,
43163,0,,,,,,,,0.17,0.03,0.45,1,14,-13,0.17,0,,,,,,,,,,,,,,,,,
43203,0,,,,,,,,0.06,0.14,-0.02,1,7,-6,0.15,0,,,,,,,,,,,,,,,,,
43243,0,-0,2,47,49,32,37,-14,-0.09,0.13,-0.39,1,-5,6,0.16,0,0,0.0,0.0,0.0,0.0,0,0,0.0,0,0.0,-1,0.0,0.0,0.0,0,0.0,0.7207
43283,0,,,,,,,,-0.23,0.14,-0.7,1,-17,17,0.27,0,,,,,,,,,,,,,,,,,
43323,0,,,,,,,,-0.32,0.05,-0.95,1,-14,12,0.33,0,,,,,,,,,,,,,,,,,
43363,0,,,,,,,,-0.23,-0.09,-0.58,1,-0,-4,0.25,0,,,,,,,,,,,,,,,,,
43403,0,,,,,,,,-0.0,-0.1,-0.09,1,11,-12,0.1,0,,,,,,,,,,,,,,,,,
43443,0,1,0,47,49,32,37,-13,0.12,0.06,0.31,2,7,-5,0.13,0,0,0.0,0.0,0.0,0.0,0,0,0.0,0,0.0,-1,0.0,0.0,0.0,0,0.0,0.724
43483,0,,,,,,,,0.07,0.16,-0.13,1,-7,9,0.18,0,,,,,,,,,,,,,,,,,
43523,0,,,,,,,,-0.08,0.19,-0.49,1,-17,17,0.2,0,,,,,,,,,,,,,,,,,
43563,0,,,,,,,,-0.23,0.09,-0.77,1,-18,17,0.25,0,,,,,,,,,,,,,,,,,
43603,0,,,,,,,,-0.24,-0.06,-1.01,1,-7,6,0.25,0,,,,,,,,,,,,,,,,,
43643,0,0,1,47,49,32,37,-13,-0.18,-0.22,-0.73,0,4,-6,0.29,0,0,0.0,0.0,0.0,0.0,0,0,0.0,0,0.0,-1,0.0,0.0,0.0,0,0.0,0.7274
43683,0,,,,,,,,-0.09,-0.27,-0.21,0,15,-17,0.29,0,,,,,,,,,,,,,,,,,
43723,0,,,,,,,,0.07,-0.32,0.21,0,22,-25,0.33,0,,,,,,,,,,,,,,,,,
43763,0,,,,,,,,0.2,-0.19,0.55,1,22,-20,0.28,0,,,,,,,,,,,,,,,,,
43803,0,,,,,,,,0.14,-0.01,0.1,0,6,-4,0.14,0,,,,,,,,,,,,,,,,,
43843,0,0,1,47,49,32,37,-14,-0.04,0.04,-0.3,1,-8,7,0.06,0,0,0.0,0.0,0.0,0.0,0,0,0.0,0,0.0,-1,0.0,0.0,0.0,0,0.0,0.7307
43883,0,,,,,,,,-0.1,-0.09,-0.43,0,-2,1,0.13,0,,,,,,,,,,,,,,,,,
43923,0,,,,,,,,0.09,-0.15,0.03,0,13,-12,0.18,0,,,,,,,,,,,,,,,,,
43963,0,,,,,,,,0.22,-0.03,0.4,0,14,-11,0.22,0,,,,,,,,,,,,,,,,,
44003,0,,,,,,,,0.14,0.09,-0.06,1,2,1,0.17,0,,,,,,,,,,,,,,,,,
44043,0,-1,2,47,49,32,37,-13,-0.05,0.18,-0.43,1,-12,12,0.19,0,0,0.0,0.0,0.0,0.0,0,0,0.0,0,0.0,-1,0.0,0.0,0.0,0,0.0,0.734
44083,0,,,,,,,,-0.21,0.15,-0.73,1,-21,19,0.25,0,,,,,,,,,,,,,,,,,
44123,0,,,,,,,,-0.25,0.05,-0.57,1,-15,12,0.26,0,,,,,,,,,,,,,,,,,
44163,0,,,,,,,,-0.05,-0.05,-0.08,0,0,-4,0.07,0,,,,,,,,,,,,,,,,,
44203,0,,,,,,,,0.06,0.02,0.31,1,10,-9,0.07,0,,,,,,,,,,,,,,,,,
44243,0,1,1,47,49,32,37,-13,0.02,0.09,0.23,2,1,-0,0.1,0,0,0.0,0.0,0.0,0.0,0,0,0.0,0,0.0,-1,0.0,0.0,0.0,0,0.0,0.7374
44283,0,,,,,,,,-0.05,0.17,0.21,1,0,0,0.18,0,,,,,,,,,,,,,,,,,
44323,0,,,,,,,,-0.13,0.22,-0.21,1,-7,5,0.26,0,,,,,,,,,,,,,,,,,
44363,0,,,,,,,,-0.06,0.19,-0.19,1,9,0,0.2,0,,,,,,,,,,,,,,,,,
44403,0,,,,,,,,-0.15,0.26,-0.18,0,1,3,0.3,0,,,,,,,,,,,,,,,,,
44443,0,-1,0,47,49,32,37,-13,-0.14,0.23,-0.16,0,-3,9,0.27,0,0,0.0,0.0,0.0,0.0,0,0,0.0,0,0.0,-1,0.0,0.0,0.0,0,0.0,0.7407
44483,0,,,,,,,,0.12,0.25,0.25,-0,15,-0,0.28,0,,,,,,,,,,,,,,,,,
44523,0,,,,,,,,-0.02,0.21,-0.18,0,-1,11,0.21,0,,,,,,,,,,,,,,,,,
44563,0,,,,,,,,-0.06,0.06,-0.14,0,-5,12,0.09,0,,,,,,,,,,,,,,,,,
44603,0,,,,,,,,-0.08,-0.0,-0.49,0,-12,18,0.08,0,,,,,,,,,,,,,,,,,
44643,0,0,2,47,49,32,37,-13,-0.07,0.01,-0.38,1,-9,17,0.07,0,0,0.0,0.0,0.0,0.0,0,0,0.0,0,0.0,-1,0.0,0.0,0.0,0,0.0,0.7441
44683,0,,,,,,,,-0.04,-0.05,-0.33,1,-4,10,0.07,0,,,,,,,,,,,,,,,,,
44723,0,,,,,,,,0.17,-0.06,0.09,1,1,6,0.18,0,,,,,,,,,,,,,,,,,
44763,0,,,,,,,,0.16,-0.04,0.09,1,-3,10,0.17,0,,,,,,,,,,,,,,,,,
44803,0,,,,,,,,0.12,-0.21,0.06,1,3,-1,0.25,0,,,,,,,,,,,,,,,,,
44843,0,-1,2,47,49,32,36,-12,0.03,-0.24,0.02,0,12,-10,0.24,0,0,0.0,0.0,0.0,0.0,0,0,0.0,0,0.0,-1,0.0,0.0,0.0,0,0.0,0.7474
44883,0,,,,,,,,0.12,-0.18,-0.01,1,3,-3,0.21,0,,,,,,,,,,,,,,,,,
44923,0,,,,,,,,-0.15,-0.15,-0.02,2,0,-3,0.21,0,,,,,,,,,,,,,,,,,
44963,0,,,,,,,,-0.14,-0.18,-0.04,2,11,-9,0.23,0,,,,,,,,,,,,,,,,,
45003,0,,,,,,,,0.02,-0.07,-0.01,1,9,-7,0.07,0,,,,,,,,,,,,,,,,,
45043,0,1,2,47,49,32,37,-13,0.06,-0.0,0.01,2,3,-0,0.06,0,0,0.0,0.0,0.0,0.0,0,0,0.0,0,0.0,-1,0.0,0.0,0.0,0,0.0,0.7507
45083,0,,,,,,,,-0.02,-0.02,-0.01,1,-1,-1,0.03,0,,,,,,,,,,,,,,,,,
45123,0,,,,,,,,-0.04,-0.02,-0.03,1,-3,-0,0.04,0,,,,,,,,,,,,,,,,,
45163,0,,,,,,,,0.01,-0.04,-0.05,1,-3,0,0.04,0,,,,,,,,,,,,,,,,,
45203,0,,,,,,,,0.04,0.0,-0.06,1,-8,4,0.04,0,,,,,,,,,,,,,,,,,
45243,0,-0,1,47,49,32,37,-13,0.12,-0.09,0.21,1,7,-7,0.15,0,0,0.0,0.0,0.0,0.0,0,0,0.0,0,0.0,-1,0.0,0.0,0.0,0,0.0,0.754
45283,0,,,,,,,,0.23,0.04,0.15,2,3,-0,0.23,0,,,,,,,,,,,,,,,,,
45323,0,,,,,,,,0.25,0.06,0.38,1,3,2,0.25,0,,,,,,,,,,,,,,,,,
45363,0,,,,,,,,0.1,0.09,0.28,2,-1,1,0.13,0,,,,,,,,,,,,,,,,,
45403,0,,,,,,,,0.08,0.01,0.45,1,5,-0,0.08,0,,,,,,,,,,,,,,,,,
45443,0,-1,1,47,49,32,37,-13,0.2,-0.02,0.74,1,11,-6,0.21,0,0,0.0,0.0,0.0,0.0,0,0,0.0,0,0.0,-1,0.0,0.0,0.0,0,0.0,0.7574
45483,0,,,,,,,,0.29,0.03,0.98,1,15,-9,0.29,0,,,,,,,,,,,,,,,,,
45523,0,,,,,,,,0.27,0.06,0.81,1,15,-8,0.28,0,,,,,,,,,,,,,,,,,
45563,0,,,,,,,,0.24,0.09,0.68,1,17,-9,0.25,0,,,,,,,,,,,,,,,,,
45603,0,,,,,,,,0.07,0.05,0.17,1,6,0,0.09,0,,,,,,,,,,,,,,,,,
45643,0,1,3,47,49,32,37,-13,-0.09,0.03,-0.24,1,-7,10,0.09,0,0,0.0,0.0,0.0,0.0,0,0,0.0,0,0.0,-1,0.0,0.0,0.0,0,0.0,0.7607
45683,0,,,,,,,,0.0,-0.01,-0.18,0,5,0,0.01,0,,,,,,,,,,,,,,,,,
45723,0,,,,,,,,0.07,0.12,-0.16,0,1,4,0.14,0,,,,,,,,,,,,,,,,,
45763,0,,,,,,,,-0.07,0.16,-0.51,1,-9,13,0.17,0,,,,,,,,,,,,,,,,,
45803,0,,,,,,,,0.0,0.23,-0.4,1,-7,13,0.23,0,,,,,,,,,,,,,,,,,
45843,0,1,3,47,49,32,36,-13,-0.01,0.21,-0.33,1,-4,6,0.21,0,0,0.0,0.0,0.0,0.0,0,0,0.0,0,0.0,-1,0.0,0.0,0.0,0,0.0,0.764
45883,0,,,,,,,,-0.04,0.23,-0.25,1,-5,5,0.23,0,,,,,,,,,,,,,,,,,
45923,0,,,,,,,,-0.1,0.17,-0.3,1,-6,5,0.2,0,,,,,,,,,,,,,,,,,
45963,0,,,,,,,,0.04,0.13,0.14,1,1,0,0.13,0,,,,,,,,,,,,,,,,,
46003,0,,,,,,,,0.04,0.17,-0.27,1,-0,3,0.17,0,,,,,,,,,,,,,,,,,
46043,0,0,1,47,49,32,37,-13,-0.03,0.13,-0.6,1,-6,7,0.14,0,0,0.0,0.0,0.0,0.0,0,0,0.0,0,0.0,-1,0.0,0.0,0.0,0,0.0,0.7674
46083,0,,,,,,,,-0.08,0.09,-0.53,1,-8,3,0.12,0,,,,,,,,,,,,,,,,,
46123,0,,,,,,,,-0.1,0.12,-0.45,1,-10,5,0.15,0,,,,,,,,,,,,,,,,,
46163,0,,,,,,,,-0.02,0.04,-0.39,0,-9,0,0.05,0,,,,,,,,,,,,,,,,,
46203,0,,,,,,,,-0.03,0.15,-0.29,1,-16,9,0.16,0,,,,,,,,,,,,,,,,,
46243,0,-0,2,47,49,32,37,-13,-0.13,0.18,-0.62,1,-25,17,0.22,0,0,0.0,0.0,0.0,0.0,0,0,0.0,0,0.0,-1,0.0,0.0,0.0,0,0.0,0.7707
46283,0,,,,,,,,-0.03,0.2,-0.33,2,-21,12,0.2,0,,,,,,,,,,,,,,,,,
46323,0,,,,,,,,-0.1,0.07,-0.65,2,-20,10,0.13,0,,,,,,,,,,,,,,,,,
46363,0,,,,,,,,-0.06,0.0,-0.55,2,2,-1,0.06,0,,,,,,,,,,,,,,,,,
46403,0,,,,,,,,-0.16,-0.02,-0.73,2,-19,11,0.16,0,,,,,,,,,,,,,,,,,
46443,0,0,1,47,49,32,37,-12,0.25,0.06,-0.21,2,3,-1,0.26,0,0,0.0,0.0,0.0,0.0,0,0,0.0,0,0.0,-1,0.0,0.0,0.0,0,0.0,0.774
46483,0,,,,,,,,0.44,-0.01,0.21,1,29,-15,0.44,0,,,,,,,,,,,,,,,,,
46523,0,,,,,,,,0.64,0.09,0.55,2,29,-13,0.65,0,,,,,,,,,,,,,,,,,
46563,0,,,,,,,,0.54,0.05,0.46,1,24,-10,0.54,0,,,,,,,,,,,,,,,,,
46603,0,,,,,,,,0.46,0.01,0.49,1,21,-8,0.46,0,,,,,,,,,,,,,,,,,
46643,0,-0,2,47,49,32,37,-13,0.4,0.01,0.55,1,16,-6,0.4,0,0,0.0,0.0,0.0,0.0,0,0,0.0,0,0.0,-1,0.0,0.0,0.0,0,0.0,0.7774
46683,0,,,,,,,,0.25,0.03,0.62,1,10,-4,0.25,0,,,,,,,,,,,,,,,,,
46723,0,,,,,,,,0.11,0.01,0.62,1,9,-3,0.11,0,,,,,,,,,,,,,,,,,
46763,0,,,,,,,,0.11,0.01,0.59,1,9,-3,0.11,0,,,,,,,,,,,,,,,,,
46803,0,,,,,,,,0.07,0.06,0.52,1,6,-1,0.09,0,,,,,,,,,,,,,,,,,
46843,0,-0,2,47,49,32,37,-13,0.07,0.06,0.4,1,3,0,0.1,0,0,0.0,0.0,0.0,0.0,0,0,0.0,0,0.0,-1,0.0,0.0,0.0,0,0.0,0.7807
46883,0,,,,,,,,0.14,0.04,0.64,1,10,-6,0.14,0,,,,,,,,,,,,,,,,,
46923,0,,,,,,,,0.49,0.23,0.9,0,24,-15,0.54,0,,,,,,,,,,,,,,,,,
46963,0,,,,,,,,0.25,0.26,0.71,0,16,-13,0.36,0,,,,,,,,,,,,,,,,,
47003,0,,,,,,,,0.39,0.2,0.95,0,30,-24,0.44,0,,,,,,,,,,,,,,,,,
47043,0,0,3,47,49,32,37,-14,0.46,0.12,1.15,0,32,-29,0.47,0,0,0.0,0.0,0.0,0.0,0,0,0.0,0,0.0,-1,0.0,0.0,0.0,0,0.0,0.784
47083,0,,,,,,,,0.47,0.12,0.95,0,21,-21,0.49,0,,,,,,,,,,,,,,,,,
47123,0,,,,,,,,0.34,0.1,1.15,0,15,-19,0.35,0,,,,,,,,,,,,,,,,,
47163,0,,,,,,,,0.28,0.18,1.31,0,12,-17,0.33,0,,,,,,,,,,,,,,,,,
47203,0,,,,,,,,0.19,0.17,1.44,0,7,-17,0.26,0,,,,,,,,,,,,,,,,,
47243,0,0,3,47,49,32,37,-14,0.05,0.11,1.55,0,-1,-13,0.12,0,0,0.0,0.0,0.0,0.0,0,0,0.0,0,0.0,-1,0.0,0.0,0.0,0,0.0,0.7874
47283,0,,,,,,,,0.04,0.09,1.63,0,-3,-15,0.1,0,,,,,,,,,,,,,,,,,
47323,0,,,,,,,,0.04,0.09,1.34,0,-3,-12,0.1,0,,,,,,,,,,,,,,,,,
47363,0,,,,,,,,0.02,0.15,1.11,0,-6,-6,0.15,0,,,,,,,,,,,,,,,,,
47403,0,,,,,,,,0.13,0.06,1.27,-0,3,-17,0.14,0,,,,,,,,,,,,,,,,,
47443,0,0,0,47,49,32,36,-13,0.26,0.02,1.41,-1,14,-24,0.26,0,0,0.0,0.0,0.0,0.0,0,0,0.0,0,0.0,-1,0.0,0.0,0.0,0,0.0,0.7907
47483,0,,,,,,,,0.14,0.11,1.12,-2,-4,-11,0.18,0,,,,,,,,,,,,,,,,,
47523,0,,,,,,,,0.21,0.08,1.29,-2,-0,-11,0.23,0,,,,,,,,,,,,,,,,,
47563,0,,,,,,,,0.04,0.05,0.66,-1,-6,-5,0.07,0,,,,,,,,,,,,,,,,,
47603,0,,,,,,,,-0.03,-0.07,0.42,-1,5,-15,0.08,0,,,,,,,,,,,,,,,,,
47643,0,1,1,47,49,32,37,-13,-0.06,-0.15,0.19,-1,11,-22,0.16,0,0,0.0,0.0,0.0,0.0,0,0,0.0,0,0.0,-1,0.0,0.0,0.0,0,0.0,0.794
47683,0,,,,,,,,-0.14,-0.08,-0.23,-1,4,-12,0.16,0,,,,,,,,,,,,,,,,,
47723,0,,,,,,,,-0.1,-0.01,-0.04,0,2,-5,0.1,0,,,,,,,,,,,,,,,,,
47763,0,,,,,,,,-0.03,-0.12,-0.05,0,6,-9,0.12,0,,,,,,,,,,,,,,,,,
47803,0,,,,,,,,0.04,-0.11,-0.06,0,2,-5,0.12,0,,,,,,,,,,,,,,,,,
47843,0,0,3,47,49,32,37,-14,0.06,-0.07,0.33,0,1,-7,0.09,0,0,0.0,0.0,0.0,0.0,0,0,0.0,0,0.0,-1,0.0,0.0,0.0,0,0.0,0.7974
47883,0,,,,,,,,0.06,-0.02,0.64,0,1,-7,0.07,0,,,,,,,,,,,,,,,,,
47923,0,,,,,,,,-0.12,0.0,0.68,0,-3,-6,0.12,0,,,,,,,,,,,,,,,,,
47963,0,,,,,,,,-0.01,0.01,0.53,0,-7,-2,0.01,0,,,,,,,,,,,,,,,,,
48003,0,,,,,,,,0.0,-0.0,0.41,0,-5,-1,0.0,0,,,,,,,,,,,,,,,,,
48043,0,1,1,47,49,32,37,-13,0.07,0.01,0.35,0,-3,-3,0.07,0,0,0.0,0.0,0.0,0.0,0,0,0.0,0,0.0,-1,0.0,0.0,0.0,0,0.0,0.8007
48083,0,,,,,,,,0.13,0.02,0.66,0,1,-3,0.13,0,,,,,,,,,,,,,,,,,
48123,0,,,,,,,,-0.06,-0.01,0.64,0,-2,-2,0.06,0,,,,,,,,,,,,,,,,,
48163,0,,,,,,,,-0.11,0.06,0.22,0,-9,1,0.12,0,,,,,,,,,,,,,,,,,
48203,0,,,,,,,,-0.07,0.12,-0.2,1,-13,5,0.14,0,,,,,,,,,,,,,,,,,
48243,0,-1,3,47,49,32,37,-13,-0.01,0.04,0.04,0,-11,1,0.04,0,0,0.0,0.0,0.0,0.0,0,0,0.0,0,0.0,-1,0.0,0.0,0.0,0,0.0,0.8041
48283,0,,,,,,,,-0.04,0.02,0.06,1,-7,1,0.04,0,,,,,,,,,,,,,,,,,
48323,0,,,,,,,,-0.03,0.07,0.06,1,-6,0,0.07,0,,,,,,,,,,,,,,,,,
48363,0,,,,,,,,-0.14,0.09,-0.3,1,-9,6,0.17,0,,,,,,,,,,,,,,,,,
48403,0,,,,,,,,-0.12,0.1,-0.22,0,-7,8,0.16,0,,,,,,,,,,,,,,,,,
48443,0,1,0,47,49,32,37,-12,-0.0,0.02,0.2,0,0,-1,0.02,0,0,0.0,0.0,0.0,0.0,0,0,0.0,0,0.0,-1,0.0,0.0,0.0,0,0.0,0.8074
48483,0,,,,,,,,0.04,-0.04,0.18,-0,-3,0,0.05,0,,,,,,,,,,,,,,,,,
48523,0,,,,,,,,-0.02,-0.05,0.17,0,-2,1,0.05,0,,,,,,,,,,,,,,,,,
48563,0,,,,,,,,0.04,0.02,0.11,0,1,1,0.04,0,,,,,,,,,,,,,,,,,
48603,0,,,,,,,,0.0,0.05,-0.29,0,-2,4,0.05,0,,,,,,,,,,,,,,,,,
48643,0,0,0,47,49,32,37,-12,-0.03,-0.02,-0.21,0,-6,5,0.04,0,0,0.0,0.0,0.0,0.0,0,0,0.0,0,0.0,-1,0.0,0.0,0.0,0,0.0,0.8107
48683,0,,,,,,,,-0.01,0.0,0.21,1,-5,2,0.01,0,,,,,,,,,,,,,,,,,
48723,0,,,,,,,,-0.09,-0.02,0.01,1,-8,4,0.09,0,,,,,,,,,,,,,,,,,
48763,0,,,,,,,,-0.04,-0.02,-0.01,1,-3,2,0.04,0,,,,,,,,,,,,,,,,,
48803,0,,,,,,,,-0.03,0.04,0.31,1,-4,0,0.05,0,,,,,,,,,,,,,,,,,
48843,0,-0,2,47,49,32,37,-12,-0.08,-0.04,-0.01,1,-1,1,0.09,0,0,0.0,0.0,0.0,0.0,0,0,0.0,0,0.0,-1,0.0,0.0,0.0,0,0.0,0.814
48883,0,,,,,,,,0.03,-0.03,0.07,1,-2,2,0.04,0,,,,,,,,,,,,,,,,,
48923,0,,,,,,,,0.01,-0.02,0.07,1,-1,-1,0.03,0,,,,,,,,,,,,,,,,,
48963,0,,,,,,,,0.0,0.0,0.44,1,-2,0,0.01,0,,,,,,,,,,,,,,,,,
49003,0,,,,,,,,-0.07,-0.04,-0.03,1,-1,1,0.08,0,,,,,,,,,,,,,,,,,
49043,0,0,3,47,49,32,37,-14,0.04,-0.08,0.36,1,5,-4,0.09,0,0,0.0,0.0,0.0,0.0,0,0,0.0,0,0.0,-1,0.0,0.0,0.0,0,0.0,0.8174
49083,0,,,,,,,,0.05,0.02,-0.03,1,1,1,0.06,0,,,,,,,,,,,,,,,,,
49123,0,,,,,,,,0.05,0.02,0.35,1,0,0,0.06,0,,,,,,,,,,,,,,,,,
49163,0,,,,,,,,0.1,-0.0,0.31,1,1,2,0.1,0,,,,,,,,,,,,,,,,,
49203,0,,,,,,,,-0.02,-0.07,0.23,0,-6,4,0.07,0,,,,,,,,,,,,,,,,,
49243,0,1,1,47,49,32,37,-13,0.17,-0.07,0.56,0,0,-0,0.19,0,0,0.0,0.0,0.0,0.0,0,0,0.0,0,0.0,-1,0.0,0.0,0.0,0,0.0,0.8207
49283,0,,,,,,,,0.14,-0.1,0.44,0,3,-5,0.18,0,,,,,,,,,,,,,,,,,
49323,0,,,,,,,,0.1,-0.04,0.37,1,-4,2,0.1,0,,,,,,,,,,,,,,,,,
49363,0,,,,,,,,0.08,-0.01,0.28,1,-4,2,0.08,0,,,,,,,,,,,,,,,,,
49403,0,,,,,,,,0.16,-0.01,0.21,1,2,0,0.16,0,,,,,,,,,,,,,,,,,
49443,0,0,1,47,49,32,37,-13,0.12,-0.05,-0.03,1,-1,1,0.13,0,0,0.0,0.0,0.0,0.0,0,0,0.0,0,0.0,-1,0.0,0.0,0.0,0,0.0,0.824
49483,0,,,,,,,,0.08,-0.07,0.35,0,-1,-3,0.11,0,,,,,,,,,,,,,,,,,
49523,0,,,,,,,,0.06,-0.04,0.67,0,-3,-7,0.07,0,,,,,,,,,,,,,,,,,
49563,0,,,,,,,,0.03,-0.01,0.92,0,-4,-11,0.04,0,,,,,,,,,,,,,,,,,
49603,0,,,,,,,,-0.03,0.06,1.12,0,-6,-10,0.07,0,,,,,,,,,,,,,,,,,
49643,0,1,0,47,49,32,37,-12,-0.08,0.02,0.92,1,-5,-7,0.09,0,0,0.0,0.0,0.0,0.0,0,0,0.0,0,0.0,-1,0.0,0.0,0.0,0,0.0,0.8274
49683,0,,,,,,,,-0.07,0.04,0.72,1,-4,-4,0.08,0,,,,,,,,,,,,,,,,,
49723,0,,,,,,,,-0.09,0.06,0.56,1,-6,-3,0.11,0,,,,,,,,,,,,,,,,,
49763,0,,,,,,,,-0.01,0.11,0.44,1,-3,-3,0.11,0,,,,,,,,,,,,,,,,,
49803,0,,,,,,,,-0.04,0.09,0.33,1,-5,-1,0.1,0,,,,,,,,,,,,,,,,,
49843,0,1,0,47,49,32,37,-13,0.03,0.03,0.65,0,-1,-4,0.04,0,0,0.0,0.0,0.0,0.0,0,0,0.0,0,0.0,-1,0.0,0.0,0.0,0,0.0,0.8307
49883,0,,,,,,,,-0.01,0.01,0.45,0,-5,-0,0.02,0,,,,,,,,,,,,,,,,,
49923,0,,,,,,,,-0.01,-0.02,0.74,0,-5,-3,0.02,0,,,,,,,,,,,,,,,,,
49963,0,,,,,,,,-0.06,0.07,0.87,-0,-5,-5,0.09,0,,,,,,,,,,,,,,,,,
50003,0,,,,,,,,-0.11,0.1,0.4,0,-6,-1,0.15,0,,,,,,,,,,,,,,,,,
50043,0,0,1,47,49,32,37,-12,-0.03,-0.05,0.34,0,-3,0,0.06,0,0,0.0,0.0,0.0,0.0,0,0,0.0,0,0.0,-1,0.0,0.0,0.0,0,0.0,0.834
50083,0,,,,,,,,-0.05,0.01,0.17,0,-3,1,0.05,0,,,,,,,,,,,,,,,,,
50123,0,,,,,,,,0.01,-0.0,0.49,0,-1,-1,0.01,0,,,,,,,,,,,,,,,,,
50163,0,,,,,,,,0.05,-0.06,0.41,-0,-1,0,0.08,0,,,,,,,,,,,,,,,,,
50203,0,,,,,,,,0.06,0.03,0.3,-0,2,-2,0.06,0,,,,,,,,,,,,,,,,,
50243,0,-1,3,47,49,32,37,-13,0.03,0.08,-0.02,0,-4,4,0.08,0,0,0.0,0.0,0.0,0.0,0,0,0.0,0,0.0,-1,0.0,0.0,0.0,0,0.0,0.8374
50283,0,,,,,,,,-0.01,0.07,-0.39,0,-8,6,0.07,0,,,,,,,,,,,,,,,,,
50323,0,,,,,,,,-0.06,-0.0,-0.68,0,-10,5,0.06,0,,,,,,,,,,,,,,,,,
50363,0,,,,,,,,-0.08,-0.08,-0.29,0,-11,0,0.11,0,,,,,,,,,,,,,,,,,
50403,0,,,,,,,,-0.07,-0.1,0.14,0,-11,-4,0.12,0,,,,,,,,,,,,,,,,,
50443,0,-0,2,47,49,32,36,-14,-0.12,-0.03,0.09,0,-11,-1,0.13,0,0,0.0,0.0,0.0,0.0,0,0,0.0,0,0.0,-1,0.0,0.0,0.0,0,0.0,0.8407
50483,0,,,,,,,,-0.08,-0.03,0.06,0,-11,-0,0.08,0,,,,,,,,,,,,,,,,,
50523,0,,,,,,,,-0.05,-0.08,0.02,1,-10,-1,0.09,0,,,,,,,,,,,,,,,,,
50563,0,,,,,,,,-0.0,-0.13,-0.0,0,-9,-1,0.13,0,,,,,,,,,,,,,,,,,
50603,0,,,,,,,,-0.01,-0.09,0.38,1,-5,-2,0.09,0,,,,,,,,,,,,,,,,,
50643,0,1,3,47,49,32,37,-13,-0.0,-0.03,0.19,1,-5,1,0.03,0,0,0.0,0.0,0.0,0.0,0,0,0.0,0,0.0,-1,0.0,0.0,0.0,0,0.0,0.844
50683,0,,,,,,,,0.04,-0.01,0.53,1,-5,-2,0.04,0,,,,,,,,,,,,,,,,,
50723,0,,,,,,,,0.0,0.06,0.52,1,-6,2,0.06,0,,,,,,,,,,,,,,,,,
50763,0,,,,,,,,-0.08,0.03,0.1,1,-5,6,0.08,0,,,,,,,,,,,,,,,,,
50803,0,,,,,,,,-0.11,-0.07,-0.21,1,-1,7,0.13,0,,,,,,,,,,,,,,,,,
50843,0,0,3,47,49,32,37,-14,-0.08,-0.18,-0.03,0,4,5,0.19,0,0,0.0,0.0,0.0,0.0,0,0,0.0,0,0.0,-1,0.0,0.0,0.0,0,0.0,0.8474
50883,0,,,,,,,,0.08,-0.15,0.36,0,11,-1,0.17,0,,,,,,,,,,,,,,,,,
50923,0,,,,,,,,0.08,-0.12,0.31,1,9,-0,0.14,0,,,,,,,,,,,,,,,,,
50963,0,,,,,,,,0.08,-0.12,0.27,1,11,-1,0.14,0,,,,,,,,,,,,,,,,,
51003,0,,,,,,,,-0.03,-0.09,-0.16,1,1,8,0.09,0,,,,,,,,,,,,,,,,,
51043,0,0,2,47,49,32,37,-12,-0.11,-0.02,-0.51,1,-9,17,0.12,0,0,0.0,0.0,0.0,0.0,0,0,0.0,0,0.0,-1,0.0,0.0,0.0,0,0.0,0.8507
51083,0,,,,,,,,-0.05,-0.12,-0.39,1,1,6,0.13,0,,,,,,,,,,,,,,,,,
51123,0,,,,,,,,-0.16,-0.07,-0.7,1,-11,12,0.17,0,,,,,,,,,,,,,,,,,
51163,0,,,,,,,,-0.03,0.02,-0.59,1,-11,10,0.03,0,,,,,,,,,,,,,,,,,
51203,0,,,,,,,,-0.02,-0.06,-0.46,1,-4,2,0.07,0,,,,,,,,,,,,,,,,,
51243,0,1,0,47,49,32,37,-13,-0.08,0.05,-0.39,1,-12,10,0.09,0,0,0.0,0.0,0.0,0.0,0,0,0.0,0,0.0,-1,0.0,0.0,0.0,0,0.0,0.854
51283,0,,,,,,,,-0.1,-0.08,-0.3,1,-7,4,0.13,0,,,,,,,,,,,,,,,,,
51323,0,,,,,,,,0.06,0.04,0.11,1,4,-4,0.07,0,,,,,,,,,,,,,,,,,
51363,0,,,,,,,,-0.07,0.11,-0.29,1,-7,7,0.13,0,,,,,,,,,,,,,,,,,
51403,0,,,,,,,,-0.13,-0.06,-0.61,1,-13,13,0.15,0,,,,,,,,,,,,,,,,,
51443,0,1,2,47,49,32,37,-13,-0.01,-0.11,-0.12,0,-2,1,0.11,0,0,0.0,0.0,0.0,0.0,0,0,0.0,0,0.0,-1,0.0,0.0,0.0,0,0.0,0.8574
51483,0,,,,,,,,0.13,-0.04,0.28,0,8,-11,0.13,0,,,,,,,,,,,,,,,,,
51523,0,,,,,,,,0.17,0.08,0.49,0,12,-13,0.19,0,,,,,,,,,,,,,,,,,
51563,0,,,,,,,,0.11,0.16,0.02,0,8,-7,0.19,0,,,,,,,,,,,,,,,,,
51603,0,,,,,,,,-0.05,0.13,-0.37,1,-2,5,0.14,0,,,,,,,,,,,,,,,,,
51643,0,-1,2,47,49,32,37,-13,-0.19,0.07,-0.68,1,-8,10,0.21,0,0,0.0,0.0,0.0,0.0,0,0,0.0,0,0.0,-1,0.0,0.0,0.0,0,0.0,0.8607
51683,0,,,,,,,,-0.25,-0.03,-0.93,1,-6,5,0.25,0,,,,,,,,,,,,,,,,,
51723,0,,,,,,,,-0.34,-0.02,-1.13,1,-7,6,0.34,0,,,,,,,,,,,,,,,,,
51763,0,,,,,,,,-0.25,-0.0,-0.54,1,-3,4,0.25,0,,,,,,,,,,,,,,,,,
51803,0,,,,,,,,-0.14,0.05,-0.26,1,-3,5,0.15,0,,,,,,,,,,,,,,,,,
51843,0,0,3,47,49,32,37,-13,0.01,0.07,-0.23,1,-2,4,0.07,0,0,0.0,0.0,0.0,0.0,0,0,0.0,0,0.0,-1,0.0,0.0,0.0,0,0.0,0.864
51883,0,,,,,,,,0.14,-0.05,0.19,1,2,0,0.15,0,,,,,,,,,,,,,,,,,
51923,0,,,,,,,,0.08,-0.01,0.52,1,5,-1,0.08,0,,,,,,,,,,,,,,,,,
51963,0,,,,,,,,0.06,0.05,0.19,1,0,2,0.08,0,,,,,,,,,,,,,,,,,
52003,0,,,,,,,,0.07,-0.07,0.53,0,-0,1,0.1,0,,,,,,,,,,,,,,,,,
52043,0,-1,2,47,49,32,37,-13,-0.01,-0.11,0.07,1,-2,3,0.11,0,0,0.0,0.0,0.0,0.0,0,0,0.0,0,0.0,-1,0.0,0.0,0.0,0,0.0,0.8674
52083,0,,,,,,,,-0.01,-0.12,0.04,0,-3,3,0.12,0,,,,,,,,,,,,,,,,,
52123,0,,,,,,,,0.08,-0.16,0.01,1,-2,1,0.18,0,,,,,,,,,,,,,,,,,
52163,0,,,,,,,,0.07,-0.07,0.0,1,3,1,0.1,0,,,,,,,,,,,,,,,,,
52203,0,,,,,,,,-0.01,-0.08,0.23,2,3,-1,0.08,0,,,,,,,,,,,,,,,,,
52243,0,1,0,47,49,32,37,-13,-0.0,-0.03,0.14,2,1,1,0.03,0,0,0.0,0.0,0.0,0.0,0,0,0.0,0,0.0,-1,0.0,0.0,0.0,0,0.0,0.8707
52283,0,,,,,,,,0.06,-0.05,0.45,1,4,-1,0.07,0,,,,,,,,,,,,,,,,,
52323,0,,,,,,,,-0.13,-0.03,0.15,1,-4,3,0.13,0,,,,,,,,,,,,,,,,,
52363,0,,,,,,,,-0.01,0.02,0.29,1,-6,3,0.03,0,,,,,,,,,,,,,,,,,
52403,0,,,,,,,,0.02,0.06,-0.14,1,-7,6,0.06,0,,,,,,,,,,,,,,,,,
52443,0,1,2,47,49,32,37,-13,0.07,0.03,0.0,1,-7,6,0.07,0,0,0.0,0.0,0.0,0.0,0,0,0.0,0,0.0,-1,0.0,0.0,0.0,0,0.0,0.874
52483,0,,,,,,,,0.06,0.01,-0.02,1,-4,7,0.06,0,,,,,,,,,,,,,,,,,
52523,0,,,,,,,,0.1,0.0,0.37,1,4,-1,0.1,0,,,,,,,,,,,,,,,,,
52563,0,,,,,,,,0.1,-0.12,0.68,0,11,-10,0.15,0,,,,,,,,,,,,,,,,,
52603,0,,,,,,,,0.26,-0.11,0.93,-1,17,-16,0.28,0,,,,,,,,,,,,,,,,,
52643,0,-1,3,47,49,32,37,-13,0.3,0.05,0.89,-0,15,-12,0.3,0,0,0.0,0.0,0.0,0.0,0,0,0.0,0,0.0,-1,0.0,0.0,0.0,0,0.0,0.8774
52683,0,,,,,,,,0.25,0.1,0.43,0,11,-5,0.27,0,,,,,,,,,,,,,,,,,
52723,0,,,,,,,,0.23,0.14,0.72,0,14,-9,0.27,0,,,,,,,,,,,,,,,,,
52763,0,,,,,,,,0.28,0.1,0.97,0,18,-17,0.3,0,,,,,,,,,,,,,,,,,
52803,0,,,,,,,,0.17,-0.01,0.75,0,9,-9,0.17,0,,,,,,,,,,,,,,,,,
52843,0,-0,2,47,49,32,37,-12,0.14,0.08,0.55,1,6,-5,0.16,0,0,0.0,0.0,0.0,0.0,0,0,0.0,0,0.0,-1,0.0,0.0,0.0,0,0.0,0.8807
52883,0,,,,,,,,0.18,0.05,0.82,0,12,-13,0.19,0,,,,,,,,,,,,,,,,,
52923,0,,,,,,,,0.08,-0.0,0.45,0,3,-3,0.08,0,,,,,,,,,,,,,,,,,
52963,0,,,,,,,,0.06,0.08,0.38,1,7,-4,0.1,0,,,,,,,,,,,,,,,,,
53003,0,,,,,,,,0.08,-0.02,0.29,1,7,-7,0.09,0,,,,,,,,,,,,,,,,,
53043,0,-0,2,47,49,32,37,-13,0.02,0.07,-0.14,1,-2,3,0.07,0,0,0.0,0.0,0.0,0.0,0,0,0.0,0,0.0,-1,0.0,0.0,0.0,0,0.0,0.884
53083,0,,,,,,,,0.07,0.18,0.07,1,-10,12,0.19,0,,,,,,,,,,,,,,,,,
53123,0,,,,,,,,0.07,0.23,-0.1,1,-18,20,0.24,0,,,,,,,,,,,,,,,,,
53163,0,,,,,,,,-0.03,0.24,-0.46,1,-24,26,0.24,0,,,,,,,,,,,,,,,,,
53203,0,,,,,,,,-0.18,0.19,-0.75,1,-24,23,0.26,0,,,,,,,,,,,,,,,,,
53243,0,-1,2,47,49,32,37,-13,-0.22,-0.0,-0.99,1,-16,14,0.22,0,0,0.0,0.0,0.0,0.0,0,0,0.0,0,0.0,-1,0.0,0.0,0.0,0,0.0,0.8874
53283,0,,,,,,,,-0.2,-0.07,-0.46,0,-2,-1,0.21,0,,,,,,,,,,,,,,,,,
53323,0,,,,,,,,-0.03,-0.1,0.01,0,6,-10,0.11,0,,,,,,,,,,,,,,,,,
53363,0,,,,,,,,0.11,0.01,0.38,1,7,-7,0.11,0,,,,,,,,,,,,,,,,,
53403,0,,,,,,,,0.16,0.15,0.69,1,2,-1,0.22,0,,,,,,,,,,,,,,,,,
53443,0,1,2,47,49,32,37,-13,0.18,0.22,0.65,1,-4,7,0.28,0,0,0.0,0.0,0.0,0.0,0,0,0.0,0,0.0,-1,0.0,0.0,0.0,0,0.0,0.8907
53483,0,,,,,,,,0.14,0.26,0.14,1,-12,15,0.29,0,,,,,,,,,,,,,,,,,
53523,0,,,,,,,,-0.03,0.25,-0.26,1,-22,24,0.25,0,,,,,,,,,,,,,,,,,
53563,0,,,,,,,,-0.17,0.22,-0.59,1,-28,29,0.28,0,,,,,,,,,,,,,,,,,
53603,0,,,,,,,,-0.29,0.13,-0.86,1,-32,32,0.31,0,,,,,,,,,,,,,,,,,
53643,0,1,1,47,49,32,37,-13,-0.39,0.09,-1.08,1,-33,33,0.4,0,0,0.0,0.0,0.0,0.0,0,0,0.0,0,0.0,-1,0.0,0.0,0.0,0,0.0,0.894
53683,0,,,,,,,,-0.44,-0.02,-1.25,1,-33,30,0.44,0,,,,,,,,,,,,,,,,,
53723,0,,,,,,,,-0.43,-0.09,-1.4,1,-31,28,0.44,0,,,,,,,,,,,,,,,,,
53763,0,,,,,,,,-0.41,-0.18,-1.51,1,-27,21,0.45,0,,,,,,,,,,,,,,,,,
53803,0,,,,,,,,-0.34,-0.26,-1.46,0,-20,14,0.43,0,,,,,,,,,,,,,,,,,
53843,0,1,1,47,49,32,37,-13,-0.31,-0.31,-0.9,1,-13,5,0.44,0,0,0.0,0.0,0.0,0.0,0,0,0.0,0,0.0,-1,0.0,0.0,0.0,0,0.0,0.8974
53883,0,,,,,,,,-0.26,-0.36,-0.81,0,-10,2,0.44,0,,,,,,,,,,,,,,,,,
53923,0,,,,,,,,-0.22,-0.4,-0.74,0,-8,1,0.46,0,,,,,,,,,,,,,,,,,
53963,0,,,,,,,,-0.22,-0.35,-0.98,0,-12,7,0.42,0,,,,,,,,,,,,,,,,,
54003,0,,,,,,,,-0.25,-0.31,-1.17,1,-15,13,0.39,0,,,,,,,,,,,,,,,,,
54043,0,1,3,47,49,32,37,-12,-0.2,-0.34,-0.76,1,-10,7,0.39,0,0,0.0,0.0,0.0,0.0,0,0,0.0,0,0.0,-1,0.0,0.0,0.0,0,0.0,0.9007
54083,0,,,,,,,,-0.13,-0.29,-0.74,1,-8,9,0.32,0,,,,,,,,,,,,,,,,,
54123,0,,,,,,,,-0.15,-0.3,-0.71,0,-13,11,0.33,0,,,,,,,,,,,,,,,,,
54163,0,,,,,,,,-0.12,-0.32,-0.56,0,-14,9,0.35,0,,,,,,,,,,,,,,,,,
54203,0,,,,,,,,-0.09,-0.25,-0.43,1,-9,8,0.26,0,,,,,,,,,,,,,,,,,
54243,0,1,2,47,49,32,37,-14,-0.15,-0.25,-0.17,1,-7,8,0.29,0,0,0.0,0.0,0.0,0.0,0,0,0.0,0,0.0,-1,0.0,0.0,0.0,0,0.0,0.904
54283,0,,,,,,,,-0.11,-0.1,-0.27,1,-7,8,0.14,0,,,,,,,,,,,,,,,,,
54323,0,,,,,,,,0.03,-0.19,0.12,1,-3,3,0.19,0,,,,,,,,,,,,,,,,,
54363,0,,,,,,,,0.03,-0.07,0.48,1,-1,2,0.08,0,,,,,,,,,,,,,,,,,
54403,0,,,,,,,,0.05,-0.06,0.37,1,-1,4,0.08,0,,,,,,,,,,,,,,,,,
54443,0,-1,2,47,49,32,37,-13,0.04,0.0,-0.05,1,-0,6,0.04,0,0,0.0,0.0,0.0,0.0,0,0,0.0,0,0.0,-1,0.0,0.0,0.0,0,0.0,0.9074
54483,0,,,,,,,,0.06,0.01,-0.42,1,1,6,0.06,0,,,,,,,,,,,,,,,,,
54523,0,,,,,,,,0.09,0.04,-0.52,0,-2,7,0.1,0,,,,,,,,,,,,,,,,,
54563,0,,,,,,,,0.03,-0.03,-0.61,0,-4,10,0.04,0,,,,,,,,,,,,,,,,,
54603,0,,,,,,,,-0.01,-0.11,-0.22,0,-2,8,0.11,0,,,,,,,,,,,,,,,,,
54643,0,-1,2,47,49,32,37,-12,-0.08,-0.09,-0.55,1,-5,11,0.12,0,0,0.0,0.0,0.0,0.0,0,0,0.0,0,0.0,-1,0.0,0.0,0.0,0,0.0,0.9107
54683,0,,,,,,,,-0.07,-0.04,-0.66,1,-4,12,0.08,0,,,,,,,,,,,,,,,,,
54723,0,,,,,,,,-0.05,0.0,-0.91,1,-3,12,0.05,0,,,,,,,,,,,,,,,,,
54763,0,,,,,,,,-0.06,-0.02,-0.88,2,-3,13,0.06,0,,,,,,,,,,,,,,,,,
54803,0,,,,,,,,-0.05,-0.01,-0.66,1,-4,12,0.05,0,,,,,,,,,,,,,,,,,
54843,0,-1,2,47,49,32,37,-12,-0.01,-0.15,-0.15,1,-1,7,0.15,0,0,0.0,0.0,0.0,0.0,0,0,0.0,0,0.0,-1,0.0,0.0,0.0,0,0.0,0.914
54883,0,,,,,,,,0.02,-0.05,0.26,1,1,3,0.05,0,,,,,,,,,,,,,,,,,
54923,0,,,,,,,,-0.04,-0.09,0.38,1,3,0,0.1,0,,,,,,,,,,,,,,,,,
54963,0,,,,,,,,-0.06,-0.01,0.68,1,3,-1,0.06,0,,,,,,,,,,,,,,,,,
55003,0,,,,,,,,-0.05,-0.09,0.83,1,5,-3,0.1,0,,,,,,,,,,,,,,,,,
55043,0,-0,3,47,49,32,36,-13,-0.1,0.05,0.62,1,5,-0,0.11,0,0,0.0,0.0,0.0,0.0,0,0,0.0,0,0.0,-1,0.0,0.0,0.0,0,0.0,0.9174
55083,0,,,,,,,,-0.07,0.08,0.12,1,-1,3,0.1,0,,,,,,,,,,,,,,,,,
55123,0,,,,,,,,0.03,-0.02,0.24,1,1,2,0.03,0,,,,,,,,,,,,,,,,,
55163,0,,,,,,,,0.12,-0.05,0.57,1,1,-1,0.13,0,,,,,,,,,,,,,,,,,
55203,0,,,,,,,,0.22,-0.0,0.84,1,4,-5,0.22,0,,,,,,,,,,,,,,,,,
55243,0,1,0,47,50,31,37,-14,0.35,-0.08,1.06,1,6,-9,0.36,0,0,0.0,0.0,0.0,0.0,0,0,0.0,0,0.0,-1,0.0,0.0,0.0,0,0.0,0.9207
55283,0,,,,,,,,0.39,-0.01,1.24,1,7,-10,0.39,0,,,,,,,,,,,,,,,,,
55323,0,,,,,,,,0.44,-0.11,1.38,1,8,-12,0.46,0,,,,,,,,,,,,,,,,,
55363,0,,,,,,,,0.46,-0.09,1.5,1,8,-13,0.47,0,,,,,,,,,,,,,,,,,
55403,0,,,,,,,,0.51,-0.11,1.6,1,8,-14,0.53,0,,,,,,,,,,,,,,,,,
55443,0,-1,3,47,50,32,37,-15,0.41,-0.13,1.27,1,7,-12,0.43,0,0,0.0,0.0,0.0,0.0,0,0,0.0,0,0.0,-1,0.0,0.0,0.0,0,0.0,0.924
55483,0,,,,,,,,0.31,-0.11,0.65,1,1,-3,0.33,0,,,,,,,,,,,,,,,,,
55523,0,,,,,,,,0.4,-0.01,0.91,2,4,-4,0.4,0,,,,,,,,,,,,,,,,,
55563,0,,,,,,,,0.33,0.07,0.35,2,2,-2,0.34,0,,,,,,,,,,,,,,,,,
55603,0,,,,,,,,0.4,-0.04,0.67,2,3,-6,0.4,0,,,,,,,,,,,,,,,,,
55643,0,-1,1,47,50,31,37,-19,0.36,0.03,0.47,2,1,-2,0.36,0,0,0.0,0.0,0.0,0.0,0,0,0.0,0,0.0,-1,0.0,0.0,0.0,0,0.0,0.9274
55683,0,,,,,,,,0.42,-0.03,0.36,3,5,-6,0.42,0,,,,,,,,,,,,,,,,,
55723,0,,,,,,,,0.39,0.02,0.36,3,4,-5,0.39,0,,,,,,,,,,,,,,,,,
55763,0,,,,,,,,0.45,0.07,0.17,3,4,-1,0.45,0,,,,,,,,,,,,,,,,,
55803,0,,,,,,,,0.5,0.1,0.52,4,4,-4,0.51,0,,,,,,,,,,,,,,,,,
55843,0,-0,3,48,50,31,37,-24,0.38,0.14,0.15,4,-3,1,0.4,0,0,0.0,0.0,0.0,0.0,0,0,0.0,0,0.0,-1,0.0,0.0,0.0,0,0.0,0.9307
55883,0,,,,,,,,0.41,0.19,-0.14,4,-9,7,0.45,0,,,,,,,,,,,,,,,,,
55923,0,,,,,,,,0.4,0.14,-0.49,5,-11,6,0.42,0,,,,,,,,,,,,,,,,,
55963,0,,,,,,,,0.48,0.1,-0.02,6,-11,6,0.49,0,,,,,,,,,,,,,,,,,
56003,0,,,,,,,,0.44,0.1,0.01,6,-6,2,0.45,0,,,,,,,,,,,,,,,,,
56043,0,0,3,48,51,29,35,-25,0.46,0.07,-0.17,7,-7,5,0.47,0,0,0.0,0.0,0.0,0.0,0,0,0.0,0,0.0,-1,0.0,0.0,0.0,0,0.0,0.934
56083,0,,,,,,,,0.41,0.15,-0.16,8,-7,5,0.43,0,,,,,,,,,,,,,,,,,
56123,0,,,,,,,,0.45,0.15,-0.15,9,-5,4,0.48,0,,,,,,,,,,,,,,,,,
56163,0,,,,,,,,0.49,0.14,-0.14,10,-6,4,0.5,0,,,,,,,,,,,,,,,,,
56203,0,,,,,,,,0.48,0.19,-0.13,10,-2,4,0.52,0,,,,,,,,,,,,,,,,,
56243,0,-1,1,49,52,29,35,-25,0.54,0.16,0.06,11,-1,2,0.57,0,0,0.0,0.0,0.0,0.0,0,0,0.0,0,0.0,-1,0.0,0.0,0.0,0,0.0,0.9374
56283,0,,,,,,,,0.6,0.12,0.41,12,-1,1,0.61,0,,,,,,,,,,,,,,,,,
56323,0,,,,,,,,0.65,0.16,0.35,12,0,0,0.67,0,,,,,,,,,,,,,,,,,
56363,0,,,,,,,,0.61,0.17,0.3,12,0,-0,0.63,0,,,,,,,,,,,,,,,,,
56403,0,,,,,,,,0.68,0.17,0.27,13,-1,1,0.7,0,,,,,,,,,,,,,,,,,
56443,0,0,3,51,52,28,33,-25,0.68,0.14,0.19,14,0,-3,0.7,0,0,0.0,0.0,0.0,0.0,0,0,0.0,0,0.0,-1,0.0,0.0,0.0,0,0.0,0.9407
56483,0,,,,,,,,0.72,0.11,0.18,15,9,-10,0.73,0,,,,,,,,,,,,,,,,,
56523,0,,,,,,,,0.54,0.12,-0.19,17,8,-6,0.55,0,,,,,,,,,,,,,,,,,
56563,0,,,,,,,,0.59,0.15,-0.15,19,16,-6,0.61,0,,,,,,,,,,,,,,,,,
56603,0,,,,,,,,0.79,0.17,-0.1,20,14,-8,0.8,0,,,,,,,,,,,,,,,,,
56643,0,1,1,51,52,27,33,-23,0.77,0.16,-0.06,23,10,-5,0.79,0,0,0.0,0.0,0.0,0.0,0,0,0.0,0,0.0,-1,0.0,0.0,0.0,0,0.0,0.944
56683,0,,,,,,,,0.77,0.24,-0.03,27,9,-5,0.81,0,,,,,,,,,,,,,,,,,
56723,0,,,,,,,,0.71,0.32,-0.01,31,-1,2,0.77,0,,,,,,,,,,,,,,,,,
56763,0,,,,,,,,0.61,0.27,0.02,34,2,3,0.67,0,,,,,,,,,,,,,,,,,
56803,0,,,,,,,,0.65,0.25,0.03,37,8,1,0.7,0,,,,,,,,,,,,,,,,,
56843,0,-0,2,53,52,28,33,0,0.63,0.23,0.05,38,14,1,0.67,0,0,0.0,0.0,0.0,0.0,0,0,0.0,0,0.0,-1,0.0,0.0,0.0,0,0.0,0.9474
56883,0,,,,,,,,0.59,0.15,0.06,40,14,-1,0.61,0,,,,,,,,,,,,,,,,,
56923,0,,,,,,,,0.57,0.17,0.06,38,12,0,0.59,0,,,,,,,,,,,,,,,,,
56963,0,,,,,,,,0.54,0.17,0.07,35,12,-1,0.57,0,,,,,,,,,,,,,,,,,
57003,0,,,,,,,,0.45,0.22,-0.32,32,4,7,0.5,0,,,,,,,,,,,,,,,,,
57043,0,0,3,53,52,28,33,17,0.52,0.4,-0.28,30,5,2,0.65,0,0,0.0,0.0,0.0,0.0,0,0,0.0,0,0.0,-1,0.0,0.0,0.0,0,0.0,0.9507
57083,0,,,,,,,,0.49,0.28,-0.21,27,-4,1,0.56,0,,,,,,,,,,,,,,,,,
57123,0,,,,,,,,0.53,0.33,-0.19,25,-8,6,0.63,0,,,,,,,,,,,,,,,,,
57163,0,,,,,,,,0.43,0.44,-0.17,24,-9,5,0.62,0,,,,,,,,,,,,,,,,,
57203,0,,,,,,,,0.34,0.3,0.24,22,-3,-5,0.45,0,,,,,,,,,,,,,,,,,
57243,0,-1,3,54,52,26,35,7,0.39,0.42,0.17,21,-13,9,0.57,0,0,0.0,0.0,0.0,0.0,0,0,0.0,0,0.0,-1,0.0,0.0,0.0,0,0.0,0.954
57283,0,,,,,,,,0.58,0.36,0.16,20,1,-0,0.68,0,,,,,,,,,,,,,,,,,
57323,0,,,,,,,,0.35,0.24,-0.25,17,-8,0,0.43,0,,,,,,,,,,,,,,,,,
57363,0,,,,,,,,0.53,0.26,-0.22,15,-10,8,0.59,0,,,,,,,,,,,,,,,,,
57403,0,,,,,,,,0.47,0.19,-0.16,11,10,-3,0.51,0,,,,,,,,,,,,,,,,,
57443,0,1,1,53,53,27,32,9,0.4,0.2,-0.51,9,0,5,0.45,0,0,0.0,0.0,0.0,0.0,0,0,0.0,0,0.0,-1,0.0,0.0,0.0,0,0.0,0.9574
57483,0,,,,,,,,0.53,0.23,-0.04,6,9,-2,0.58,0,,,,,,,,,,,,,,,,,
57523,0,,,,,,,,0.43,0.21,-0.01,4,11,-7,0.48,0,,,,,,,,,,,,,,,,,
57563,0,,,,,,,,0.48,0.31,-0.03,2,-1,7,0.57,0,,,,,,,,,,,,,,,,,
57603,0,,,,,,,,0.3,0.23,-0.4,2,-15,16,0.38,0,,,,,,,,,,,,,,,,,
57643,0,0,2,52,54,29,32,2,0.18,0.12,-0.71,1,-20,20,0.22,0,0,0.0,0.0,0.0,0.0,0,0,0.0,0,0.0,-1,0.0,0.0,0.0,0,0.0,0.9607
57683,0,,,,,,,,0.24,0.12,-0.8,2,-24,25,0.26,0,,,,,,,,,,,,,,,,,
57723,0,,,,,,,,0.32,0.09,-0.66,2,-18,15,0.33,0,,,,,,,,,,,,,,,,,
57763,0,,,,,,,,0.41,0.1,-0.46,3,-15,16,0.43,0,,,,,,,,,,,,,,,,,
57803,0,,,,,,,,0.46,0.08,-0.18,4,-17,12,0.47,0,,,,,,,,,,,,,,,,,
57843,0,-0,2,54,53,28,33,-1,0.55,0.19,0.23,5,-14,4,0.58,0,0,0.0,0.0,0.0,0.0,0,0,0.0,0,0.0,-1,0.0,0.0,0.0,0,0.0,0.964
57883,0,,,,,,,,0.5,0.09,0.17,5,-16,5,0.51,0,,,,,,,,,,,,,,,,,
57923,0,,,,,,,,0.45,0.08,0.11,6,-17,6,0.46,0,,,,,,,,,,,,,,,,,
57963,0,,,,,,,,0.57,0.07,0.24,5,-17,1,0.57,0,,,,,,,,,,,,,,,,,
58003,0,,,,,,,,0.73,0.11,-0.03,6,-11,4,0.73,0,,,,,,,,,,,,,,,,,
58043,0,1,1,52,51,27,33,2,0.69,0.14,-0.01,6,-10,6,0.71,0,0,0.0,0.0,0.0,0.0,0,0,0.0,0,0.0,-1,0.0,0.0,0.0,0,0.0,0.9674
58083,0,,,,,,,,0.63,0.19,-0.38,6,-11,10,0.66,0,,,,,,,,,,,,,,,,,
58123,0,,,,,,,,0.56,0.19,-0.69,6,-13,10,0.59,0,,,,,,,,,,,,,,,,,
58163,0,,,,,,,,0.71,0.13,-0.34,6,-7,6,0.72,0,,,,,,,,,,,,,,,,,
58203,0,,,,,,,,0.74,0.3,-0.57,6,-8,8,0.8,0,,,,,,,,,,,,,,,,,
58243,0,-0,2,52,52,28,33,4,0.73,0.19,-0.28,5,-3,3,0.75,0,0,0.0,0.0,0.0,0.0,0,0,0.0,0,0.0,-1,0.0,0.0,0.0,0,0.0,0.9707
58283,0,,,,,,,,0.73,0.12,-0.02,4,3,-4,0.74,0,,,,,,,,,,,,,,,,,
58323,0,,,,,,,,0.48,0.08,0.13,2,-3,0,0.49,0,,,,,,,,,,,,,,,,,
58363,0,,,,,,,,0.26,-0.08,-0.28,1,-8,5,0.27,0,,,,,,,,,,,,,,,,,
58403,0,,,,,,,,0.14,-0.09,-0.14,-1,-10,3,0.17,0,,,,,,,,,,,,,,,,,
58443,0,9,8,44,46,36,40,3,0.05,-0.02,-0.01,-1,-6,2,0.05,0,0,0.0,0.0,0.0,0.0,0,0,0.0,0,0.0,-1,0.0,0.0,0.0,0,0.0,0.974
58483,0,,,,,,,,-0.09,-0.09,0.04,-2,-5,3,0.13,0,,,,,,,,,,,,,,,,,
58523,0,,,,,,,,-0.14,-0.04,0.24,-2,0,-1,0.14,0,,,,,,,,,,,,,,,,,
58563,0,,,,,,,,-0.27,-0.02,-0.19,-1,-2,3,0.27,0,,,,,,,,,,,,,,,,,
58603,0,,,,,,,,-0.26,-0.07,0.15,-1,-4,2,0.27,0,,,,,,,,,,,,,,,,,
58643,0,6,7,41,45,36,42,2,-0.23,-0.1,0.18,-1,-4,-0,0.26,0,0,0.0,0.0,0.0,0.0,0,0,0.0,0,0.0,-1,0.0,0.0,0.0,0,0.0,0.9774
58683,0,,,,,,,,-0.39,-0.04,0.48,-1,-8,3,0.39,0,,,,,,,,,,,,,,,,,
58723,0,,,,,,,,-0.44,-0.1,0.12,-1,-3,0,0.45,0,,,,,,,,,,,,,,,,,
58763,0,,,,,,,,-0.32,-0.0,0.47,-0,3,-1,0.32,0,,,,,,,,,,,,,,,,,
58803,0,,,,,,,,-0.25,-0.03,0.4,0,2,-2,0.25,0,,,,,,,,,,,,,,,,,
58843,0,1,3,46,44,39,39,2,-0.21,0.06,0.35,1,1,-2,0.22,0,0,0.0,0.0,0.0,0.0,0,0,0.0,0,0.0,-1,0.0,0.0,0.0,0,0.0,0.9807
58883,0,,,,,,,,-0.19,0.12,0.5,1,1,-2,0.23,0,,,,,,,,,,,,,,,,,
58923,0,,,,,,,,-0.14,-0.02,0.42,1,3,-5,0.15,0,,,,,,,,,,,,,,,,,
58963,0,,,,,,,,-0.18,-0.06,0.36,0,3,-5,0.19,0,,,,,,,,,,,,,,,,,
59003,0,,,,,,,,-0.13,-0.05,0.31,0,2,-4,0.14,0,,,,,,,,,,,,,,,,,
59043,0,5,6,43,45,36,40,0,-0.17,-0.03,0.27,0,1,1,0.17,0,0,0.0,0.0,0.0,0.0,0,0,0.0,0,0.0,-1,0.0,0.0,0.0,0,0.0,0.984
59083,0,,,,,,,,-0.33,-0.13,0.03,1,-3,5,0.35,0,,,,,,,,,,,,,,,,,
59123,0,,,,,,,,-0.35,-0.12,0.01,0,-0,4,0.37,0,,,,,,,,,,,,,,,,,
59163,0,,,,,,,,-0.26,-0.08,0.39,1,2,1,0.27,0,,,,,,,,,,,,,,,,,
59203,0,,,,,,,,-0.43,-0.18,-0.07,1,-4,6,0.46,0,,,,,,,,,,,,,,,,,
59243,0,14,11,44,43,37,41,0,-0.26,-0.08,0.28,1,0,0,0.27,0,0,0.0,0.0,0.0,0.0,0,0,0.0,0,0.0,-1,0.0,0.0,0.0,0,0.0,0.9874
59283,0,,,,,,,,-0.3,-0.12,0.25,1,2,1,0.32,0,,,,,,,,,,,,,,,,,
59323,0,,,,,,,,-0.09,-0.09,0.18,2,1,1,0.13,0,,,,,,,,,,,,,,,,,
59363,0,,,,,,,,0.1,-0.04,0.52,2,6,-3,0.1,0,,,,,,,,,,,,,,,,,
59403,0,,,,,,,,0.01,-0.02,0.04,2,3,-1,0.02,0,,,,,,,,,,,,,,,,,
59443,0,8,8,48,46,35,38,-0,-0.04,0.01,0.02,2,0,6,0.04,0,0,0.0,0.0,0.0,0.0,0,0,0.0,0,0.0,-1,0.0,0.0,0.0,0,0.0,0.9907
59483,0,,,,,,,,0.01,0.14,-0.01,3,4,-1,0.14,0,,,,,,,,,,,,,,,,,
59523,0,,,,,,,,-0.27,0.09,0.01,3,-4,-5,0.29,0,,,,,,,,,,,,,,,,,
59563,0,,,,,,,,-0.12,-0.0,0.39,1,7,-15,0.12,0,,,,,,,,,,,,,,,,,
59603,0,,,,,,,,-0.02,0.04,0.7,0,14,-12,0.05,0,,,,,,,,,,,,,,,,,
59643,0,21,18,41,43,39,44,6,-0.08,0.02,0.94,-0,22,-14,0.08,0,0,0.0,0.0,0.0,0.0,0,0,0.0,0,0.0,-1,0.0,0.0,0.0,0,0.0,0.994
59683,0,,,,,,,,0.02,0.11,0.74,-1,18,-14,0.12,0,,,,,,,,,,,,,,,,,
59723,0,,,,,,,,-0.3,0.01,0.22,-2,3,-4,0.3,0,,,,,,,,,,,,,,,,,
59763,0,,,,,,,,-0.04,0.05,0.33,-4,8,-8,0.06,0,,,,,,,,,,,,,,,,,
59803,0,,,,,,,,-0.36,-0.04,0.08,-5,-1,-4,0.37,0,,,,,,,,,,,,,,,,,
59843,0,16,16,41,46,38,41,12,-0.22,-0.07,0.09,-7,6,-8,0.23,0,0,0.0,0.0,0.0,0.0,0,0,0.0,0,0.0,-1,0.0,0.0,0.0,0,0.0,0.9974
59883,0,,,,,,,,-0.28,-0.18,0.09,-8,5,-5,0.33,0,,,,,,,,,,,,,,,,,
59923,0,,,,,,,,-0.24,-0.23,-0.31,-8,7,-2,0.33,0,,,,,,,,,,,,,,,,,
59963,0,,,,,,,,-0.42,-0.25,-0.63,-9,-17,13,0.49,0,,,,,,,,,,,,,,,,,
60003,0,,,,,,,,-0.65,-0.34,-0.89,-10,-34,21,0.73,0,,,,,,,,,,,,,,,,,
60043,0,15,15,41,48,38,40,26,-0.85,-0.44,-1.08,-13,-31,17,0.96,0,0,0.0,0.0,0.0,0.0,0,0,0.0,0,0.0,-1,0.0,0.0,0.0,0,0.0,1.0007
60083,0,,,,,,,,-0.59,-0.46,-0.49,-16,-19,10,0.75,0,,,,,,,,,,,,,,,,,
60123,0,,,,,,,,-0.68,-0.55,-0.54,-19,-27,17,0.88,0,,,,,,,,,,,,,,,,,
60163,0,,,,,,,,-0.93,-0.8,-0.82,-23,-24,12,1.23,0,,,,,,,,,,,,,,,,,
60203,0,,,,,,,,-1.13,-0.94,-1.04,-27,-25,10,1.47,0,,,,,,,,,,,,,,,,,
60243,0,10,10,41,50,42,39,48,-1.23,-0.98,-1.23,-30,-38,15,1.57,0,0,0.0,0.0,0.0,0.0,0,0,0.0,0,0.0,-1,0.0,0.0,0.0,0,0.0,1.0041
60283,0,,,,,,,,-1.23,-1.04,-0.97,-33,-20,4,1.62,0,,,,,,,,,,,,,,,,,
60323,0,,,,,,,,-0.74,-0.87,-0.41,-36,-11,-0,1.14,0,,,,,,,,,,,,,,,,,
60363,0,,,,,,,,-0.81,-0.98,-0.65,-39,-10,0,1.27,0,,,,,,,,,,,,,,,,,
60403,0,,,,,,,,-0.6,-0.94,-0.15,-42,-9,1,1.12,0,,,,,,,,,,,,,,,,,
60443,0,5,4,41,53,41,38,71,-0.48,-1.05,-0.08,-45,-3,-1,1.15,0,0,0.0,0.0,0.0,0.0,0,0,0.0,0,0.0,-1,0.0,0.0,0.0,0,0.0,1.0074
60483,0,,,,,,,,-0.56,-1.12,-0.08,-48,-11,1,1.25,0,,,,,,,,,,,,,,,,,
60523,0,,,,,,,,-0.36,-1.1,0.31,-50,-9,1,1.16,0,,,,,,,,,,,,,,,,,
60563,0,,,,,,,,-0.49,-1.13,0.07,-53,-7,-0,1.23,0,,,,,,,,,,,,,,,,,
60603,0,,,,,,,,-0.2,-1.07,0.43,-56,-5,-1,1.09,0,,,,,,,,,,,,,,,,,
60643,0,1,3,42,54,41,36,71,-0.2,-1.04,0.06,-58,-21,10,1.06,0,0,0.0,0.0,0.0,0.0,0,0,0.0,0,0.0,-1,0.0,0.0,0.0,0,0.0,1.0107
60683,0,,,,,,,,-0.25,-1.2,-0.33,-60,-38,22,1.23,0,,,,,,,,,,,,,,,,,
60723,0,,,,,,,,-0.06,-1.23,-0.25,-62,-41,26,1.23,0,,,,,,,,,,,,,,,,,
60763,0,,,,,,,,-0.11,-1.25,-0.22,-65,-31,18,1.26,0,,,,,,,,,,,,,,,,,
60803,0,,,,,,,,0.01,-1.13,-0.2,-67,-11,8,1.13,0,,,,,,,,,,,,,,,,,
60843,0,1,1,48,58,37,34,60,0.06,-1.12,-0.17,-68,-19,14,1.12,0,0,0.0,0.0,0.0,0.0,0,0,0.0,0,0.0,-1,0.0,0.0,0.0,0,0.0,1.0141
60883,0,,,,,,,,-0.08,-1.05,-0.16,-71,-22,11,1.05,0,,,,,,,,,,,,,,,,,
60923,0,,,,,,,,-0.05,-0.87,-0.15,-74,-21,6,0.88,0,,,,,,,,,,,,,,,,,
60963,0,,,,,,,,0.07,-0.76,-0.01,-76,-3,1,0.76,0,,,,,,,,,,,,,,,,,
61003,0,,,,,,,,-0.09,-0.81,0.01,-76,-5,-3,0.81,0,,,,,,,,,,,,,,,,,
61043,0,0,1,48,53,37,33,12,0.28,-0.71,-0.01,-75,5,-4,0.77,0,0,0.0,0.0,0.0,0.0,0,0,0.0,0,0.0,-1,0.0,0.0,0.0,0,0.0,1.0174
61083,0,,,,,,,,0.35,-0.61,-0.39,-70,1,3,0.7,0,,,,,,,,,,,,,,,,,
61123,0,,,,,,,,0.28,-0.47,-0.7,-65,-7,11,0.55,0,,,,,,,,,,,,,,,,,
61163,0,,,,,,,,0.52,-0.46,-0.44,-59,-0,8,0.69,0,,,,,,,,,,,,,,,,,
61203,0,,,,,,,,0.66,-0.55,0.02,-54,11,-4,0.86,0,,,,,,,,,,,,,,,,,
61243,0,0,2,49,53,34,31,-4,0.73,-0.51,0.4,-48,16,-12,0.89,0,0,0.0,0.0,0.0,0.0,0,0,0.0,0,0.0,-1,0.0,0.0,0.0,0,0.0,1.0207
61283,0,,,,,,,,0.86,-0.58,0.7,-42,24,-20,1.04,0,,,,,,,,,,,,,,,,,
61323,0,,,,,,,,0.85,-0.56,0.95,-37,28,-24,1.02,0,,,,,,,,,,,,,,,,,
61363,0,,,,,,,,0.76,-0.63,1.08,-31,20,-19,0.99,0,,,,,,,,,,,,,,,,,
61403,0,,,,,,,,0.59,-0.63,0.61,-25,15,-15,0.86,0,,,,,,,,,,,,,,,,,
61443,0,0,3,49,52,33,33,-2,0.66,-0.55,0.87,-20,21,-18,0.85,0,0,0.0,0.0,0.0,0.0,0,0,0.0,0,0.0,-1,0.0,0.0,0.0,0,0.0,1.024
61483,0,,,,,,,,0.6,-0.37,0.66,-15,7,-1,0.71,0,,,,,,,,,,,,,,,,,
61523,0,,,,,,,,0.62,-0.27,0.56,-12,-2,6,0.68,0,,,,,,,,,,,,,,,,,
61563,0,,,,,,,,0.64,-0.15,0.83,-9,-0,7,0.66,0,,,,,,,,,,,,,,,,,
61603,0,,,,,,,,0.76,-0.1,1.05,-7,3,5,0.77,0,,,,,,,,,,,,,,,,,
61643,0,-1,2,50,52,30,35,2,0.76,-0.05,1.23,-6,9,-1,0.76,0,0,0.0,0.0,0.0,0.0,0,0,0.0,0,0.0,-1,0.0,0.0,0.0,0,0.0,1.0274
61683,0,,,,,,,,0.67,-0.08,0.77,-4,7,2,0.68,0,,,,,,,,,,,,,,,,,
61723,0,,,,,,,,0.68,-0.04,0.6,-3,10,-1,0.68,0,,,,,,,,,,,,,,,,,
61763,0,,,,,,,,0.68,0.05,0.45,-2,9,6,0.68,0,,,,,,,,,,,,,,,,,
61803,0,,,,,,,,0.62,0.18,0.74,-1,7,9,0.64,0,,,,,,,,,,,,,,,,,
61843,0,4,5,49,51,34,37,2,0.57,0.22,0.98,-1,1,14,0.61,0,0,0.0,0.0,0.0,0.0,0,0,0.0,0,0.0,-1,0.0,0.0,0.0,0,0.0,1.0307
61883,0,,,,,,,,0.45,0.3,0.41,-0,-11,22,0.54,0,,,,,,,,,,,,,,,,,
61923,0,,,,,,,,0.07,0.18,-0.05,-0,-20,26,0.19,0,,,,,,,,,,,,,,,,,
61963,0,,,,,,,,-0.04,0.1,0.16,-1,-8,12,0.11,0,,,,,,,,,,,,,,,,,
62003,0,,,,,,,,-0.1,-0.02,-0.07,-1,-2,5,0.1,0,,,,,,,,,,,,,,,,,
62043,0,9,8,43,49,35,42,0,-0.07,-0.12,0.32,-1,13,-8,0.14,0,0,0.0,0.0,0.0,0.0,0,0,0.0,0,0.0,-1,0.0,0.0,0.0,0,0.0,1.034
62083,0,,,,,,,,0.0,0.0,0.24,-1,7,-3,0.0,0,,,,,,,,,,,,,,,,,
62123,0,,,,,,,,-0.28,-0.04,0.2,-1,1,-0,0.29,0,,,,,,,,,,,,,,,,,
62163,0,,,,,,,,-0.1,-0.03,0.54,-2,10,-9,0.1,0,,,,,,,,,,,,,,,,,
62203,0,,,,,,,,-0.27,0.02,0.06,-2,-15,8,0.27,0,,,,,,,,,,,,,,,,,
62243,0,7,5,44,47,35,41,-0,-0.24,-0.06,0.2,-1,-2,-5,0.24,0,0,0.0,0.0,0.0,0.0,0,0,0.0,0,0.0,-1,0.0,0.0,0.0,0,0.0,1.0374
62283,0,,,,,,,,-0.36,-0.02,-0.22,1,-16,6,0.36,0,,,,,,,,,,,,,,,,,
62323,0,,,,,,,,-0.06,0.07,0.2,2,1,-4,0.09,0,,,,,,,,,,,,,,,,,
62363,0,,,,,,,,0.01,0.02,0.18,2,2,-9,0.02,0,,,,,,,,,,,,,,,,,
62403,0,,,,,,,,-0.15,0.1,0.17,2,-3,-8,0.18,0,,,,,,,,,,,,,,,,,
62443,0,5,7,45,46,35,40,-3,-0.31,0.13,0.1,3,-13,-5,0.33,0,0,0.0,0.0,0.0,0.0,0,0,0.0,0,0.0,-1,0.0,0.0,0.0,0,0.0,1.0407
62483,0,,,,,,,,-0.39,0.23,0.06,3,-19,-2,0.45,0,,,,,,,,,,,,,,,,,
62523,0,,,,,,,,-0.34,0.26,0.03,5,-12,1,0.43,0,,,,,,,,,,,,,,,,,
62563,0,,,,,,,,-0.34,0.31,0.0,7,-9,5,0.46,0,,,,,,,,,,,,,,,,,
62603,0,,,,,,,,-0.34,0.36,0.38,8,-6,5,0.49,0,,,,,,,,,,,,,,,,,
62643,0,8,10,45,46,33,42,-11,-0.31,0.4,0.33,10,0,2,0.51,0,0,0.0,0.0,0.0,0.0,0,0,0.0,0,0.0,-1,0.0,0.0,0.0,0,0.0,1.044
62683,0,,,,,,,,-0.31,0.49,0.29,13,9,-2,0.58,0,,,,,,,,,,,,,,,,,
62723,0,,,,,,,,-0.2,0.45,0.25,16,10,-1,0.49,0,,,,,,,,,,,,,,,,,
62763,0,,,,,,,,-0.5,0.39,-0.18,17,-11,10,0.63,0,,,,,,,,,,,,,,,,,
62803,0,,,,,,,,-0.1,0.54,0.24,18,1,2,0.55,0,,,,,,,,,,,,,,,,,
62843,0,14,12,47,43,36,42,-21,0.07,0.61,0.57,20,8,-1,0.62,0,0,0.0,0.0,0.0,0.0,0,0,0.0,0,0.0,-1,0.0,0.0,0.0,0,0.0,1.0474
62883,0,,,,,,,,-0.04,0.56,0.5,22,9,-2,0.56,0,,,,,,,,,,,,,,,,,
62923,0,,,,,,,,-0.15,0.64,0.57,25,8,-2,0.66,0,,,,,,,,,,,,,,,,,
62963,0,,,,,,,,-0.27,0.65,0.48,27,8,-3,0.7,0,,,,,,,,,,,,,,,,,
63003,0,,,,,,,,-0.43,0.66,0.48,31,5,-2,0.79,0,,,,,,,,,,,,,,,,,
63043,0,12,11,47,40,35,45,-38,-0.42,0.78,0.37,34,-0,1,0.88,0,0,0.0,0.0,0.0,0.0,0,0,0.0,0,0.0,-1,0.0,0.0,0.0,0,0.0,1.0507
63083,0,,,,,,,,-0.33,0.87,0.53,36,-4,1,0.93,0,,,,,,,,,,,,,,,,,
63123,0,,,,,,,,-0.24,0.88,0.58,39,2,0,0.91,0,,,,,,,,,,,,,,,,,
63163,0,,,,,,,,-0.34,0.91,0.47,42,-3,2,0.97,0,,,,,,,,,,,,,,,,,
63203,0,,,,,,,,-0.41,0.93,0.36,44,0,2,1.02,0,,,,,,,,,,,,,,,,,
63243,0,0,3,50,44,33,46,-49,-0.36,0.91,0.27,47,2,3,0.98,0,0,0.0,0.0,0.0,0.0,0,0,0.0,0,0.0,-1,0.0,0.0,0.0,0,0.0,1.054
63283,0,,,,,,,,-0.25,0.92,0.43,49,-0,3,0.96,0,,,,,,,,,,,,,,,,,
63323,0,,,,,,,,-0.05,0.88,0.65,50,9,-0,0.89,0,,,,,,,,,,,,,,,,,
63363,0,,,,,,,,-0.12,0.87,0.51,52,3,2,0.88,0,,,,,,,,,,,,,,,,,
63403,0,,,,,,,,-0.0,0.85,0.79,53,6,2,0.85,0,,,,,,,,,,,,,,,,,
63443,0,2,3,51,46,32,44,-52,-0.13,0.79,0.66,53,6,1,0.8,0,0,0.0,0.0,0.0,0.0,0,0,0.0,0,0.0,-1,0.0,0.0,0.0,0,0.0,1.0574
63483,0,,,,,,,,0.0,0.95,0.81,55,3,3,0.95,0,,,,,,,,,,,,,,,,,
63523,0,,,,,,,,-0.2,0.8,0.41,56,2,4,0.82,0,,,,,,,,,,,,,,,,,
63563,0,,,,,,,,-0.12,0.84,0.59,57,12,-2,0.85,0,,,,,,,,,,,,,,,,,
63603,0,,,,,,,,0.09,0.93,0.86,58,8,1,0.94,0,,,,,,,,,,,,,,,,,
63643,0,1,4,53,45,32,43,-53,-0.15,0.84,0.31,59,-5,7,0.86,0,0,0.0,0.0,0.0,0.0,0,0,0.0,0,0.0,-1,0.0,0.0,0.0,0,0.0,1.0607
63683,0,,,,,,,,-0.03,0.91,0.5,60,6,2,0.92,0,,,,,,,,,,,,,,,,,
63723,0,,,,,,,,-0.01,0.91,0.55,60,-2,5,0.91,0,,,,,,,,,,,,,,,,,
63763,0,,,,,,,,-0.32,0.8,0.06,60,-22,15,0.86,0,,,,,,,,,,,,,,,,,
63803,0,,,,,,,,-0.41,0.86,-0.33,60,-47,26,0.96,0,,,,,,,,,,,,,,,,,
63843,0,1,3,53,46,31,43,-54,-0.06,1.07,0.02,61,-40,23,1.08,0,0,0.0,0.0,0.0,0.0,0,0,0.0,0,0.0,-1,0.0,0.0,0.0,0,0.0,1.064
63883,0,,,,,,,,0.21,1.1,0.39,62,-11,7,1.12,0,,,,,,,,,,,,,,,,,
63923,0,,,,,,,,0.41,0.97,0.7,63,10,-2,1.05,0,,,,,,,,,,,,,,,,,
63963,0,,,,,,,,0.58,1.05,0.94,64,17,-4,1.2,0,,,,,,,,,,,,,,,,,
64003,0,,,,,,,,0.56,1.2,1.03,66,11,2,1.33,0,,,,,,,,,,,,,,,,,
64043,0,1,3,53,44,31,46,-53,0.65,1.27,1.21,67,26,-7,1.43,0,0,0.0,0.0,0.0,0.0,0,0,0.0,0,0.0,-1,0.0,0.0,0.0,0,0.0,1.0674
64083,0,,,,,,,,0.58,1.33,1.0,69,20,-5,1.45,0,,,,,,,,,,,,,,,,,
64123,0,,,,,,,,0.49,1.31,0.83,70,12,-2,1.4,0,,,,,,,,,,,,,,,,,
64163,0,,,,,,,,0.34,1.26,0.29,71,-8,7,1.3,0,,,,,,,,,,,,,,,,,
64203,0,,,,,,,,0.43,1.25,0.62,71,15,-4,1.32,0,,,,,,,,,,,,,,,,,
64243,0,1,3,55,45,31,43,-49,0.19,1.21,0.12,71,-7,8,1.23,0,0,0.0,0.0,0.0,0.0,0,0,0.0,0,0.0,-1,0.0,0.0,0.0,0,0.0,1.0707
64283,0,,,,,,,,0.48,1.28,0.48,70,-6,8,1.37,0,,,,,,,,,,,,,,,,,
64323,0,,,,,,,,0.07,1.18,0.0,70,3,3,1.18,0,,,,,,,,,,,,,,,,,
64363,0,,,,,,,,0.31,1.2,0.38,71,8,-1,1.24,0,,,,,,,,,,,,,,,,,
64403,0,,,,,,,,0.29,1.17,0.33,70,2,5,1.21,0,,,,,,,,,,,,,,,,,
64443,0,1,1,55,46,31,43,-30,0.14,1.02,0.25,69,6,0,1.03,0,0,0.0,0.0,0.0,0.0,0,0,0.0,0,0.0,-1,0.0,0.0,0.0,0,0.0,1.074
64483,0,,,,,,,,0.48,1.0,0.58,67,2,4,1.11,0,,,,,,,,,,,,,,,,,
64523,0,,,,,,,,0.35,0.94,0.59,64,26,-10,1.01,0,,,,,,,,,,,,,,,,,
64563,0,,,,,,,,-0.07,0.78,0.1,60,19,-6,0.78,0,,,,,,,,,,,,,,,,,
64603,0,,,,,,,,0.15,0.9,0.1,56,3,5,0.91,0,,,,,,,,,,,,,,,,,
64643,0,2,4,54,47,32,45,-33,0.0,0.91,0.06,53,18,-5,0.91,0,0,0.0,0.0,0.0,0.0,0,0,0.0,0,0.0,-1,0.0,0.0,0.0,0,0.0,1.0774
64683,0,,,,,,,,0.18,1.01,0.07,50,-3,8,1.02,0,,,,,,,,,,,,,,,,,
64723,0,,,,,,,,0.43,1.04,0.43,50,14,-3,1.13,0,,,,,,,,,,,,,,,,,
64763,0,,,,,,,,0.26,0.92,0.64,51,31,-14,0.95,0,,,,,,,,,,,,,,,,,
64803,0,,,,,,,,-0.05,0.77,0.14,52,31,-14,0.77,0,,,,,,,,,,,,,,,,,
64843,0,1,3,54,45,33,46,-46,-0.04,0.81,-0.06,52,4,2,0.81,0,0,0.0,0.0,0.0,0.0,0,0,0.0,0,0.0,-1,0.0,0.0,0.0,0,0.0,1.0807
64883,0,,,,,,,,-0.18,0.8,-0.07,52,6,-1,0.82,0,,,,,,,,,,,,,,,,,
64923,0,,,,,,,,0.12,0.9,0.29,53,13,-6,0.91,0,,,,,,,,,,,,,,,,,
64963,0,,,,,,,,-0.28,0.8,-0.15,55,-3,4,0.85,0,,,,,,,,,,,,,,,,,
65003,0,,,,,,,,0.09,0.97,0.26,55,-4,3,0.97,0,,,,,,,,,,,,,,,,,
65043,0,3,2,54,45,32,44,-45,-0.09,0.93,0.19,56,10,-3,0.93,0,0,0.0,0.0,0.0,0.0,0,0,0.0,0,0.0,-1,0.0,0.0,0.0,0,0.0,1.084
65083,0,,,,,,,,-0.04,0.97,0.17,56,-6,8,0.97,0,,,,,,,,,,,,,,,,,
65123,0,,,,,,,,-0.11,0.94,0.12,57,7,-0,0.94,0,,,,,,,,,,,,,,,,,
65163,0,,,,,,,,-0.03,0.89,0.12,58,-6,9,0.89,0,,,,,,,,,,,,,,,,,
65203,0,,,,,,,,-0.11,0.93,0.07,59,6,1,0.93,0,,,,,,,,,,,,,,,,,
65243,0,4,5,52,42,32,45,-43,-0.11,0.94,-0.01,58,-14,11,0.95,0,0,0.0,0.0,0.0,0.0,0,0,0.0,0,0.0,-1,0.0,0.0,0.0,0,0.0,1.0874
65283,0,,,,,,,,0.0,0.84,0.09,58,5,2,0.84,0,,,,,,,,,,,,,,,,,
65323,0,,,,,,,,-0.25,0.71,-0.31,57,-18,14,0.76,0,,,,,,,,,,,,,,,,,
65363,0,,,,,,,,-0.38,0.67,-0.63,55,-32,22,0.77,0,,,,,,,,,,,,,,,,,
65403,0,,,,,,,,-0.56,0.56,-0.62,50,-34,19,0.79,0,,,,,,,,,,,,,,,,,
65443,0,8,9,45,46,35,42,-1,-0.6,0.28,-0.52,43,-34,19,0.67,0,0,0.0,0.0,0.0,0.0,0,0,0.0,0,0.0,-1,0.0,0.0,0.0,0,0.0,1.0907
65483,0,,,,,,,,-0.48,0.14,-0.19,35,-26,13,0.5,0,,,,,,,,,,,,,,,,,
65523,0,,,,,,,,-0.4,-0.07,-0.14,26,-16,7,0.4,0,,,,,,,,,,,,,,,,,
65563,0,,,,,,,,-0.59,-0.31,-0.2,16,-23,11,0.67,0,,,,,,,,,,,,,,,,,
65603,0,,,,,,,,-0.84,-0.58,-0.54,6,-16,7,1.02,0,,,,,,,,,,,,,,,,,
65643,0,8,6,39,47,41,38,52,-0.78,-0.7,-0.42,-4,4,-5,1.04,0,0,0.0,0.0,0.0,0.0,0,0,0.0,0,0.0,-1,0.0,0.0,0.0,0,0.0,1.0941
65683,0,,,,,,,,-0.43,-0.55,0.04,-13,-3,-3,0.7,0,,,,,,,,,,,,,,,,,
65723,0,,,,,,,,-0.66,-0.77,-0.35,-21,-6,-1,1.01,0,,,,,,,,,,,,,,,,,
65763,0,,,,,,,,-0.38,-0.8,0.1,-29,0,-4,0.88,0,,,,,,,,,,,,,,,,,
65803,0,,,,,,,,-0.51,-0.96,-0.21,-36,-8,-1,1.09,0,,,,,,,,,,,,,,,,,
65843,0,6,6,40,53,40,36,70,-0.38,-1.02,0.21,-42,-4,-1,1.09,0,0,0.0,0.0,0.0,0.0,0,0,0.0,0,0.0,-1,0.0,0.0,0.0,0,0.0,1.0974
65883,0,,,,,,,,-0.5,-1.1,0.03,-48,2,-4,1.21,0,,,,,,,,,,,,,,,,,
65923,0,,,,,,,,-0.22,-1.08,0.4,-53,9,-9,1.1,0,,,,,,,,,,,,,,,,,
65963,0,,,,,,,,-0.09,-0.91,0.7,-58,-6,0,0.91,0,,,,,,,,,,,,,,,,,
66003,0,,,,,,,,-0.33,-1.1,0.19,-61,-24,11,1.15,0,,,,,,,,,,,,,,,,,
66043,0,5,6,43,55,41,36,71,-0.57,-1.23,-0.19,-64,-18,7,1.36,0,0,0.0,0.0,0.0,0.0,0,0,0.0,0,0.0,-1,0.0,0.0,0.0,0,0.0,1.1007
66083,0,,,,,,,,-0.42,-1.17,0.23,-66,8,-8,1.24,0,,,,,,,,,,,,,,,,,
66123,0,,,,,,,,-0.01,-0.99,0.57,-69,27,-18,0.99,0,,,,,,,,,,,,,,,,,
66163,0,,,,,,,,0.29,-0.92,0.84,-71,50,-32,0.97,0,,,,,,,,,,,,,,,,,
66203,0,,,,,,,,-0.09,-1.03,0.3,-72,38,-23,1.03,0,,,,,,,,,,,,,,,,,
66243,0,2,3,45,53,38,36,43,0.17,-0.83,0.26,-71,25,-13,0.85,0,0,0.0,0.0,0.0,0.0,0,0,0.0,0,0.0,-1,0.0,0.0,0.0,0,0.0,1.1041
66283,0,,,,,,,,0.22,-0.8,0.24,-70,41,-26,0.83,0,,,,,,,,,,,,,,,,,
66323,0,,,,,,,,0.06,-0.78,-0.19,-66,8,-5,0.78,0,,,,,,,,,,,,,,,,,
66363,0,,,,,,,,0.41,-0.45,-0.13,-58,11,-5,0.61,0,,,,,,,,,,,,,,,,,
66403,0,,,,,,,,0.28,-0.36,-0.13,-47,24,-10,0.45,0,,,,,,,,,,,,,,,,,
66443,0,1,3,53,51,29,36,-25,-0.06,-0.22,-0.48,-35,10,-4,0.23,0,0,0.0,0.0,0.0,0.0,0,0,0.0,0,0.0,-1,0.0,0.0,0.0,0,0.0,1.1074
66483,0,,,,,,,,-0.24,-0.06,-0.32,-25,16,-7,0.25,0,,,,,,,,,,,,,,,,,
66523,0,,,,,,,,0.1,0.29,0.12,-14,22,-9,0.31,0,,,,,,,,,,,,,,,,,
66563,0,,,,,,,,0.27,0.61,0.48,-3,21,-4,0.67,0,,,,,,,,,,,,,,,,,
66603,0,,,,,,,,0.1,0.67,0.37,8,18,-5,0.68,0,,,,,,,,,,,,,,,,,
66643,0,3,5,54,47,31,45,-46,0.11,0.71,0.28,17,8,-4,0.72,0,0,0.0,0.0,0.0,0.0,0,0,0.0,0,0.0,-1,0.0,0.0,0.0,0,0.0,1.1107
66683,0,,,,,,,,0.31,0.78,0.24,26,22,-9,0.84,0,,,,,,,,,,,,,,,,,
66723,0,,,,,,,,0.26,0.87,0.22,35,8,-0,0.9,0,,,,,,,,,,,,,,,,,
66763,0,,,,,,,,0.15,0.91,0.16,41,-2,3,0.92,0,,,,,,,,,,,,,,,,,
66803,0,,,,,,,,0.3,1.07,0.16,47,13,-0,1.11,0,,,,,,,,,,,,,,,,,
66843,0,2,3,54,45,33,45,-46,0.11,1.1,0.15,53,5,0,1.1,0,0,0.0,0.0,0.0,0.0,0,0,0.0,0,0.0,-1,0.0,0.0,0.0,0,0.0,1.1141
66883,0,,,,,,,,0.41,1.2,0.5,57,24,-10,1.27,0,,,,,,,,,,,,,,,,,
66923,0,,,,,,,,0.28,1.27,0.02,63,10,2,1.3,0,,,,,,,,,,,,,,,,,
66963,0,,,,,,,,0.23,1.13,0.04,67,10,3,1.16,0,,,,,,,,,,,,,,,,,
67003,0,,,,,,,,0.37,1.06,0.41,71,21,-8,1.12,0,,,,,,,,,,,,,,,,,
67043,0,3,6,55,46,32,44,-30,0.63,1.02,0.71,75,12,2,1.2,0,0,0.0,0.0,0.0,0.0,0,0,0.0,0,0.0,-1,0.0,0.0,0.0,0,0.0,1.1174
67083,0,,,,,,,,0.4,1.13,0.2,79,-4,16,1.2,0,,,,,,,,,,,,,,,,,
67123,0,,,,,,,,0.06,1.11,-0.22,82,-8,18,1.11,0,,,,,,,,,,,,,,,,,
67163,0,,,,,,,,-0.04,0.92,-0.56,83,1,2,0.92,0,,,,,,,,,,,,,,,,,
67203,0,,,,,,,,-0.11,0.73,-0.07,84,15,-14,0.74,0,,,,,,,,,,,,,,,,,
67243,0,8,8,51,44,33,41,36,0.23,0.8,0.32,82,22,-14,0.83,0,0,0.0,0.0,0.0,0.0,0,0,0.0,0,0.0,-1,0.0,0.0,0.0,0,0.0,1.1207
67283,0,,,,,,,,0.07,0.65,-0.12,78,5,-0,0.65,0,,,,,,,,,,,,,,,,,
67323,0,,,,,,,,0.13,0.6,0.28,71,5,-2,0.61,0,,,,,,,,,,,,,,,,,
67363,0,,,,,,,,0.07,0.5,0.25,61,13,-7,0.5,0,,,,,,,,,,,,,,,,,
67403,0,,,,,,,,-0.0,0.45,0.22,49,6,-6,0.45,0,,,,,,,,,,,,,,,,,
67443,0,10,10,45,44,34,41,72,-0.03,0.38,-0.14,34,-11,3,0.38,0,0,0.0,0.0,0.0,0.0,0,0,0.0,0,0.0,-1,0.0,0.0,0.0,0,0.0,1.1241
67483,0,,,,,,,,-0.17,0.21,-0.13,20,3,-7,0.27,0,,,,,,,,,,,,,,,,,
67523,0,,,,,,,,-0.0,0.09,-0.09,6,-11,4,0.09,0,,,,,,,,,,,,,,,,,
67563,0,,,,,,,,0.26,0.11,0.31,-9,-7,2,0.28,0,,,,,,,,,,,,,,,,,
67603,0,,,,,,,,0.0,-0.12,-0.13,-21,-8,3,0.12,0,,,,,,,,,,,,,,,,,
67643,0,10,9,41,48,40,38,45,0.13,-0.06,0.27,-28,-4,1,0.14,0,0,0.0,0.0,0.0,0.0,0,0,0.0,0,0.0,-1,0.0,0.0,0.0,0,0.0,1.1274
67683,0,,,,,,,,-0.06,-0.11,0.2,-32,-18,9,0.13,0,,,,,,,,,,,,,,,,,
67723,0,,,,,,,,-0.35,-0.23,-0.22,-33,-43,21,0.41,0,,,,,,,,,,,,,,,,,
67763,0,,,,,,,,-0.6,-0.33,-0.56,-31,-59,31,0.69,0,,,,,,,,,,,,,,,,,
67803,0,,,,,,,,-0.81,-0.24,-0.83,-28,-54,29,0.85,0,,,,,,,,,,,,,,,,,
67843,0,4,4,46,47,33,38,-1,-0.47,-0.03,-0.38,-23,-30,17,0.47,0,0,0.0,0.0,0.0,0.0,0,0,0.0,0,0.0,-1,0.0,0.0,0.0,0,0.0,1.1307
67883,0,,,,,,,,-0.47,0.1,-0.32,-18,-37,21,0.48,0,,,,,,,,,,,,,,,,,
