"Interval"|"ms"|0|0|1,"Utc"|"ms"|0|0|1,"Brake_F"|"Bar"|0|2000|10,"Brake_R"|"Bar"|0|2000|10,"Height_RF"|"mm"|0|255|10,"Height_LF"|"mm"|0|255|10,"Height_LR"|"mm"|0|80|10,"Height_RR"|"mm"|0|255|10,"Steering"|"deg"|-100|100|10,"AccelX"|"G"|-3.0|3.0|25,"AccelY"|"G"|-3.0|3.0|25,"AccelZ"|"G"|-3.0|3.0|25,"Yaw"|"Deg/Sec"|-120|120|25,"Pitch"|"Deg/Sec"|-120|120|25,"Roll"|"Deg/Sec"|-120|120|25,"Gsum"|"G"|0.0|3.0|25,"Unknown"|""|0|1024|25,"Log_Button"|""|0.0|10.0|10,"Latitude"|"Degrees"|-180.0|180.0|10,"Longitude"|"Degrees"|-180.0|180.0|10,"Speed"|"kph"|0.0|150.0|10,"Altitude"|"m"|0.0|4000.0|10,"GPSSats"|""|0|20|10,"GPSQual"|""|0|5|10,"GPSDOP"|""|0.0|20.0|10,"LapCount"|""|0|0|10,"LapTime"|"Min"|0.0|0.0|10,"Sector"|""|0|0|10,"SectorTime"|"Min"|0.0|0.0|10,"PredTime"|"Min"|0.0|0.0|5,"ElapsedTime"|"Min"|0.0|0.0|10,"CurrentLap"|""|0|0|10,"Distance"|"km"|0.0|0.0|10,"SessionTime"|"Min"|0.0|0.0|10
72083,0,,,,,,,,-0.28,-0.05,0.52,-0,-67,4,0.28,0,,,,,,,,,,,,,,,,,
72123,0,,,,,,,,-0.6,-0.0,0.8,-0,-63,2,0.6,0,,,,,,,,,,,,,,,,,
72163,0,,,,,,,,-0.87,0.02,1.03,-0,-36,0,0.87,0,,,,,,,,,,,,,,,,,
72203,0,,,,,,,,-1.04,0.02,1.21,-1,-4,-2,1.04,0,,,,,,,,,,,,,,,,,
72243,0,5,8,46,50,34,38,18,-1.2,0.03,1.36,-0,15,-6,1.2,0,1,0.0,0.0,0.0,0.0,0,0,0.0,0,0.0,-1,0.0,0.0,0.0,0,0.0,1.2041
72283,0,,,,,,,,-1.31,0.07,1.48,-0,33,-9,1.32,0,,,,,,,,,,,,,,,,,
72323,0,,,,,,,,-1.11,0.06,1.58,-0,58,-11,1.11,0,,,,,,,,,,,,,,,,,
72363,0,,,,,,,,-0.59,0.02,1.16,0,89,-12,0.59,0,,,,,,,,,,,,,,,,,
72403,0,,,,,,,,-0.14,-0.05,0.56,0,84,-9,0.15,0,,,,,,,,,,,,,,,,,
72443,0,8,6,46,50,34,38,18,-0.17,-0.03,0.77,0,53,-7,0.17,0,0,0.0,0.0,0.0,0.0,0,0,0.0,0,0.0,-1,0.0,0.0,0.0,0,0.0,1.2074
72483,0,,,,,,,,-0.19,-0.03,0.93,0,48,-6,0.19,0,,,,,,,,,,,,,,,,,
72523,0,,,,,,,,-0.05,-0.06,0.49,0,40,-5,0.08,0,,,,,,,,,,,,,,,,,
72563,0,,,,,,,,-0.21,-0.03,0.77,0,26,-5,0.21,0,,,,,,,,,,,,,,,,,
72603,0,,,,,,,,-0.04,-0.07,0.39,0,31,-4,0.08,0,,,,,,,,,,,,,,,,,
72643,0,6,8,46,50,34,38,18,-0.18,-0.07,0.7,0,11,-3,0.19,0,0,0.0,0.0,0.0,0.0,0,0,0.0,0,0.0,-1,0.0,0.0,0.0,0,0.0,1.2107
72683,0,,,,,,,,0.0,-0.08,0.38,0,20,-2,0.08,0,,,,,,,,,,,,,,,,,
72723,0,,,,,,,,-0.05,-0.05,0.69,0,9,-1,0.07,0,,,,,,,,,,,,,,,,,
72763,0,,,,,,,,0.11,-0.04,0.24,0,17,-1,0.12,0,,,,,,,,,,,,,,,,,
72803,0,,,,,,,,0.01,-0.02,0.54,0,11,-1,0.02,0,,,,,,,,,,,,,,,,,
72843,0,6,7,46,50,34,38,18,0.08,-0.02,0.41,0,11,-1,0.08,0,0,0.0,0.0,0.0,0.0,0,0,0.0,0,0.0,-1,0.0,0.0,0.0,0,0.0,1.2141
72883,0,,,,,,,,-0.01,-0.01,0.54,0,8,-1,0.01,0,,,,,,,,,,,,,,,,,
72923,0,,,,,,,,0.05,-0.02,0.46,0,4,-1,0.05,0,,,,,,,,,,,,,,,,,
72963,0,,,,,,,,0.08,-0.05,0.35,0,10,-1,0.09,0,,,,,,,,,,,,,,,,,
73003,0,,,,,,,,0.18,-0.09,0.3,0,3,-0,0.2,0,,,,,,,,,,,,,,,,,
73043,0,7,6,46,50,33,38,18,0.05,-0.08,0.55,1,10,-1,0.1,0,0,0.0,0.0,0.0,0.0,0,0,0.0,0,0.0,-1,0.0,0.0,0.0,0,0.0,1.2174
73083,0,,,,,,,,0.08,-0.05,0.47,0,-2,-0,0.1,0,,,,,,,,,,,,,,,,,
73123,0,,,,,,,,0.0,-0.02,0.59,0,2,1,0.02,0,,,,,,,,,,,,,,,,,
73163,0,,,,,,,,0.18,-0.03,0.3,0,-2,0,0.18,0,,,,,,,,,,,,,,,,,
73203,0,,,,,,,,-0.02,-0.01,0.62,0,1,-1,0.03,0,,,,,,,,,,,,,,,,,
73243,0,7,8,46,50,34,38,17,0.09,-0.04,0.15,0,4,0,0.1,0,0,0.0,0.0,0.0,0.0,0,0,0.0,0,0.0,-1,0.0,0.0,0.0,0,0.0,1.2207
73283,0,,,,,,,,-0.1,-0.03,0.5,0,-11,0,0.11,0,,,,,,,,,,,,,,,,,
73323,0,,,,,,,,0.09,-0.01,0.33,0,7,0,0.09,0,,,,,,,,,,,,,,,,,
73363,0,,,,,,,,-0.01,-0.01,0.29,0,-12,1,0.01,0,,,,,,,,,,,,,,,,,
73403,0,,,,,,,,-0.19,0.01,0.61,1,-6,0,0.19,0,,,,,,,,,,,,,,,,,
73443,0,6,8,46,50,34,38,18,0.07,-0.03,0.11,0,2,1,0.08,0,0,0.0,0.0,0.0,0.0,0,0,0.0,0,0.0,-1,0.0,0.0,0.0,0,0.0,1.2241
73483,0,,,,,,,,-0.08,-0.02,0.47,0,-14,0,0.08,0,,,,,,,,,,,,,,,,,
73523,0,,,,,,,,-0.03,-0.01,0.48,0,2,-0,0.03,0,,,,,,,,,,,,,,,,,
73563,0,,,,,,,,0.15,-0.04,0.01,0,2,0,0.16,0,,,,,,,,,,,,,,,,,
73603,0,,,,,,,,-0.11,-0.04,0.39,0,-12,-0,0.11,0,,,,,,,,,,,,,,,,,
73643,0,6,8,46,50,34,38,17,0.05,-0.05,0.44,1,7,-1,0.07,0,0,0.0,0.0,0.0,0.0,0,0,0.0,0,0.0,-1,0.0,0.0,0.0,0,0.0,1.2274
73683,0,,,,,,,,0.25,-0.06,-0.03,1,8,1,0.26,0,,,,,,,,,,,,,,,,,
73723,0,,,,,,,,-0.02,-0.03,0.36,0,-13,1,0.04,0,,,,,,,,,,,,,,,,,
73763,0,,,,,,,,-0.23,-0.04,0.67,0,-14,0,0.23,0,,,,,,,,,,,,,,,,,
73803,0,,,,,,,,0.03,-0.04,0.64,0,13,-2,0.04,0,,,,,,,,,,,,,,,,,
73843,0,8,6,46,50,33,38,18,0.39,-0.05,0.14,1,33,-3,0.4,0,0,0.0,0.0,0.0,0.0,0,0,0.0,0,0.0,-1,0.0,0.0,0.0,0,0.0,1.2307
73883,0,,,,,,,,0.35,-0.06,0.13,0,15,-2,0.35,0,,,,,,,,,,,,,,,,,
73923,0,,,,,,,,-0.08,0.01,0.49,0,-20,0,0.08,0,,,,,,,,,,,,,,,,,
73963,0,,,,,,,,-0.39,0.03,0.77,-0,-29,-0,0.39,0,,,,,,,,,,,,,,,,,
74003,0,,,,,,,,-0.12,0.03,0.68,-1,1,-3,0.12,0,,,,,,,,,,,,,,,,,
74043,0,7,8,46,50,34,38,16,0.28,0.01,0.17,0,36,-4,0.28,0,0,0.0,0.0,0.0,0.0,0,0,0.0,0,0.0,-1,0.0,0.0,0.0,0,0.0,1.2341
74083,0,,,,,,,,0.51,-0.04,-0.24,0,36,-2,0.51,0,,,,,,,,,,,,,,,,,
74123,0,,,,,,,,0.66,-0.06,-0.58,-0,5,0,0.67,0,,,,,,,,,,,,,,,,,
74163,0,,,,,,,,0.24,-0.04,-0.09,-0,-29,2,0.25,0,,,,,,,,,,,,,,,,,
74203,0,,,,,,,,-0.18,-0.04,0.31,0,-27,0,0.19,0,,,,,,,,,,,,,,,,,
74243,0,6,8,46,50,34,38,17,-0.29,-0.02,0.63,1,5,-2,0.3,0,0,0.0,0.0,0.0,0.0,0,0,0.0,0,0.0,-1,0.0,0.0,0.0,0,0.0,1.2374
74283,0,,,,,,,,0.08,-0.04,0.46,1,46,-4,0.09,0,,,,,,,,,,,,,,,,,
74323,0,,,,,,,,0.45,-0.06,-0.01,1,68,-3,0.45,0,,,,,,,,,,,,,,,,,
74363,0,,,,,,,,0.74,-0.08,-0.39,1,56,-1,0.75,0,,,,,,,,,,,,,,,,,
74403,0,,,,,,,,0.86,-0.07,-0.7,1,17,3,0.87,0,,,,,,,,,,,,,,,,,
74443,0,7,8,46,50,34,38,18,0.72,-0.06,-0.62,1,-25,5,0.73,0,0,0.0,0.0,0.0,0.0,0,0,0.0,0,0.0,-1,0.0,0.0,0.0,0,0.0,1.2407
74483,0,,,,,,,,0.38,-0.01,-0.18,1,-63,9,0.38,0,,,,,,,,,,,,,,,,,
74523,0,,,,,,,,-0.04,-0.0,0.23,1,-94,12,0.04,0,,,,,,,,,,,,,,,,,
74563,0,,,,,,,,-0.42,-0.02,0.57,1,-113,11,0.42,0,,,,,,,,,,,,,,,,,
74603,0,,,,,,,,-0.59,-0.02,0.84,0,-93,9,0.59,0,,,,,,,,,,,,,,,,,
74643,0,7,9,46,50,34,38,18,-0.24,-0.02,0.42,0,-60,7,0.24,0,0,0.0,0.0,0.0,0.0,0,0,0.0,0,0.0,-1,0.0,0.0,0.0,0,0.0,1.2441
74683,0,,,,,,,,-0.25,-0.03,0.36,0,-60,5,0.25,0,,,,,,,,,,,,,,,,,
74723,0,,,,,,,,-0.34,-0.05,0.67,0,-49,5,0.35,0,,,,,,,,,,,,,,,,,
74763,0,,,,,,,,-0.05,-0.05,0.25,0,-28,4,0.07,0,,,,,,,,,,,,,,,,,
74803,0,,,,,,,,-0.18,-0.01,0.51,0,-37,4,0.18,0,,,,,,,,,,,,,,,,,
74843,0,7,8,46,50,34,38,18,-0.15,-0.01,0.49,0,-22,3,0.16,0,0,0.0,0.0,0.0,0.0,0,0,0.0,0,0.0,-1,0.0,0.0,0.0,0,0.0,1.2474
74883,0,,,,,,,,-0.03,-0.07,0.24,0,-19,3,0.08,0,,,,,,,,,,,,,,,,,
74923,0,,,,,,,,-0.18,-0.06,0.58,1,-25,2,0.19,0,,,,,,,,,,,,,,,,,
74963,0,,,,,,,,0.06,-0.09,0.16,1,-7,2,0.1,0,,,,,,,,,,,,,,,,,
75003,0,,,,,,,,-0.09,-0.05,0.51,0,-17,2,0.1,0,,,,,,,,,,,,,,,,,
75043,0,8,8,46,50,34,38,18,0.04,-0.04,0.22,0,-3,1,0.06,0,0,0.0,0.0,0.0,0.0,0,0,0.0,0,0.0,-1,0.0,0.0,0.0,0,0.0,1.2507
75083,0,,,,,,,,-0.09,0.0,0.56,0,-14,1,0.09,0,,,,,,,,,,,,,,,,,
75123,0,,,,,,,,0.07,-0.03,0.34,0,2,0,0.07,0,,,,,,,,,,,,,,,,,
75163,0,,,,,,,,-0.01,-0.05,0.56,0,-8,1,0.05,0,,,,,,,,,,,,,,,,,
75203,0,,,,,,,,-0.01,-0.08,0.69,0,3,1,0.08,0,,,,,,,,,,,,,,,,,
75243,0,7,7,46,50,34,38,18,0.05,-0.05,0.58,0,-9,1,0.07,0,0,0.0,0.0,0.0,0.0,0,0,0.0,0,0.0,-1,0.0,0.0,0.0,0,0.0,1.2541
75283,0,,,,,,,,-0.01,-0.02,0.57,0,-1,1,0.03,0,,,,,,,,,,,,,,,,,
75323,0,,,,,,,,0.09,-0.04,0.48,0,-9,1,0.09,0,,,,,,,,,,,,,,,,,
75363,0,,,,,,,,-0.04,-0.02,0.58,0,-0,1,0.04,0,,,,,,,,,,,,,,,,,
75403,0,,,,,,,,-0.01,-0.06,0.49,0,-6,0,0.06,0,,,,,,,,,,,,,,,,,
75443,0,7,7,46,50,34,38,16,-0.11,-0.08,0.66,0,-1,0,0.14,0,0,0.0,0.0,0.0,0.0,0,0,0.0,0,0.0,-1,0.0,0.0,0.0,0,0.0,1.2574
75483,0,,,,,,,,0.06,-0.11,0.5,0,-5,0,0.12,0,,,,,,,,,,,,,,,,,
75523,0,,,,,,,,0.02,-0.08,0.69,0,1,0,0.08,0,,,,,,,,,,,,,,,,,
75563,0,,,,,,,,0.12,-0.08,0.4,0,-2,0,0.15,0,,,,,,,,,,,,,,,,,
75603,0,,,,,,,,-0.09,-0.03,0.71,0,-4,0,0.09,0,,,,,,,,,,,,,,,,,
75643,0,6,8,46,50,34,38,18,0.1,-0.05,0.21,0,5,1,0.11,0,0,0.0,0.0,0.0,0.0,0,0,0.0,0,0.0,-1,0.0,0.0,0.0,0,0.0,1.2607
75683,0,,,,,,,,-0.09,-0.08,0.55,0,-10,0,0.12,0,,,,,,,,,,,,,,,,,
75723,0,,,,,,,,0.04,-0.09,0.44,0,10,-1,0.1,0,,,,,,,,,,,,,,,,,
75763,0,,,,,,,,0.22,-0.08,-0.02,0,6,1,0.24,0,,,,,,,,,,,,,,,,,
75803,0,,,,,,,,-0.09,-0.03,0.36,0,-14,-0,0.1,0,,,,,,,,,,,,,,,,,
75843,0,6,8,46,50,34,38,18,-0.25,-0.05,0.67,1,-6,-1,0.25,0,0,0.0,0.0,0.0,0.0,0,0,0.0,0,0.0,-1,0.0,0.0,0.0,0,0.0,1.264
75883,0,,,,,,,,0.07,-0.04,0.48,1,23,-3,0.08,0,,,,,,,,,,,,,,,,,
75923,0,,,,,,,,0.43,-0.05,0.01,1,43,-2,0.44,0,,,,,,,,,,,,,,,,,
75963,0,,,,,,,,0.68,-0.06,-0.38,1,30,0,0.68,0,,,,,,,,,,,,,,,,,
76003,0,,,,,,,,0.45,-0.05,-0.28,1,-9,4,0.45,0,,,,,,,,,,,,,,,,,
76043,0,6,8,46,50,34,38,17,-0.02,0.02,0.15,1,-55,8,0.02,0,0,0.0,0.0,0.0,0.0,0,0,0.0,0,0.0,-1,0.0,0.0,0.0,0,0.0,1.2674
76083,0,,,,,,,,-0.38,0.05,0.5,1,-85,11,0.38,0,,,,,,,,,,,,,,,,,
76123,0,,,,,,,,-0.33,0.08,0.51,1,-92,12,0.34,0,,,,,,,,,,,,,,,,,
76163,0,,,,,,,,0.07,0.05,0.03,1,-81,11,0.09,0,,,,,,,,,,,,,,,,,
76203,0,,,,,,,,0.06,0.06,-0.04,1,-85,11,0.09,0,,,,,,,,,,,,,,,,,
76243,0,8,6,46,50,33,38,18,-0.31,0.09,0.35,1,-108,12,0.32,0,0,0.0,0.0,0.0,0.0,0,0,0.0,0,0.0,-1,0.0,0.0,0.0,0,0.0,1.2707
76283,0,,,,,,,,-0.63,0.08,0.66,0,-131,13,0.64,0,,,,,,,,,,,,,,,,,
76323,0,,,,,,,,-0.89,0.07,0.92,0,-121,11,0.89,0,,,,,,,,,,,,,,,,,
76363,0,,,,,,,,-0.81,0.06,1.08,0,-79,8,0.81,0,,,,,,,,,,,,,,,,,
76403,0,,,,,,,,-0.38,0.02,0.5,0,-60,7,0.38,0,,,,,,,,,,,,,,,,,
76443,0,8,6,46,50,34,38,18,-0.36,0.03,0.51,0,-69,6,0.36,0,0,0.0,0.0,0.0,0.0,0,0,0.0,0,0.0,-1,0.0,0.0,0.0,0,0.0,1.274
76483,0,,,,,,,,-0.51,0.08,0.79,0,-62,5,0.52,0,,,,,,,,,,,,,,,,,
76523,0,,,,,,,,-0.3,0.05,0.68,1,-30,3,0.3,0,,,,,,,,,,,,,,,,,
76563,0,,,,,,,,-0.05,0.01,0.17,1,-28,3,0.05,0,,,,,,,,,,,,,,,,,
76603,0,,,,,,,,-0.2,0.05,0.51,0,-41,3,0.21,0,,,,,,,,,,,,,,,,,
76643,0,5,6,46,50,33,38,18,-0.31,0.08,0.8,0,-26,1,0.32,0,0,0.0,0.0,0.0,0.0,0,0,0.0,0,0.0,-1,0.0,0.0,0.0,0,0.0,1.2774
76683,0,,,,,,,,0.01,0.04,0.56,0,1,0,0.04,0,,,,,,,,,,,,,,,,,
76723,0,,,,,,,,0.27,0.01,0.08,0,-2,2,0.27,0,,,,,,,,,,,,,,,,,
76763,0,,,,,,,,-0.0,-0.0,0.31,0,-28,2,0.01,0,,,,,,,,,,,,,,,,,
76803,0,,,,,,,,-0.38,-0.04,0.63,0,-37,2,0.38,0,,,,,,,,,,,,,,,,,
76843,0,7,9,46,50,34,38,18,-0.38,-0.0,0.89,0,-11,-0,0.38,0,0,0.0,0.0,0.0,0.0,0,0,0.0,0,0.0,-1,0.0,0.0,0.0,0,0.0,1.2807
76883,0,,,,,,,,0.06,-0.06,0.41,0,27,-1,0.09,0,,,,,,,,,,,,,,,,,
76923,0,,,,,,,,0.43,-0.1,-0.05,0,37,0,0.44,0,,,,,,,,,,,,,,,,,
76963,0,,,,,,,,0.51,-0.13,-0.39,0,13,1,0.53,0,,,,,,,,,,,,,,,,,
77003,0,,,,,,,,0.12,-0.13,0.06,0,-31,3,0.18,0,,,,,,,,,,,,,,,,,
77043,0,8,8,46,50,34,38,17,-0.28,-0.07,0.43,-0,-68,5,0.29,0,0,0.0,0.0,0.0,0.0,0,0,0.0,0,0.0,-1,0.0,0.0,0.0,0,0.0,1.284
77083,0,,,,,,,,-0.61,-0.05,0.73,-1,-76,5,0.61,0,,,,,,,,,,,,,,,,,
77123,0,,,,,,,,-0.79,-0.03,0.97,-0,-50,1,0.79,0,,,,,,,,,,,,,,,,,
77163,0,,,,,,,,-0.6,-0.01,1.16,0,-15,-4,0.6,0,,,,,,,,,,,,,,,,,
77203,0,,,,,,,,-0.15,-0.04,0.97,-0,29,-7,0.16,0,,,,,,,,,,,,,,,,,
77243,0,7,7,46,50,34,38,18,0.26,-0.1,0.4,-0,68,-10,0.28,0,0,0.0,0.0,0.0,0.0,0,0,0.0,0,0.0,-1,0.0,0.0,0.0,0,0.0,1.2874
77283,0,,,,,,,,0.59,-0.16,-0.05,0,91,-8,0.61,0,,,,,,,,,,,,,,,,,
77323,0,,,,,,,,0.81,-0.13,-0.42,0,81,-5,0.82,0,,,,,,,,,,,,,,,,,
77363,0,,,,,,,,0.55,-0.13,-0.26,0,44,-2,0.56,0,,,,,,,,,,,,,,,,,
77403,0,,,,,,,,0.06,-0.09,0.17,0,-4,2,0.11,0,,,,,,,,,,,,,,,,,
77443,0,7,7,46,50,34,38,16,-0.33,-0.04,0.52,0,-33,3,0.33,0,0,0.0,0.0,0.0,0.0,0,0,0.0,0,0.0,-1,0.0,0.0,0.0,0,0.0,1.2907
77483,0,,,,,,,,-0.57,-0.03,0.8,0,-17,1,0.57,0,,,,,,,,,,,,,,,,,
77523,0,,,,,,,,-0.31,-0.0,0.7,1,9,-0,0.31,0,,,,,,,,,,,,,,,,,
77563,0,,,,,,,,-0.14,-0.04,0.19,0,3,0,0.14,0,,,,,,,,,,,,,,,,,
77603,0,,,,,,,,-0.34,-0.06,0.53,1,-13,0,0.35,0,,,,,,,,,,,,,,,,,
77643,0,7,8,46,50,34,38,18,-0.29,-0.09,0.81,1,0,-0,0.3,0,0,0.0,0.0,0.0,0.0,0,0,0.0,0,0.0,-1,0.0,0.0,0.0,0,0.0,1.294
77683,0,,,,,,,,-0.01,-0.08,0.27,1,3,0,0.09,0,,,,,,,,,,,,,,,,,
77723,0,,,,,,,,-0.21,-0.04,0.59,1,-10,-1,0.21,0,,,,,,,,,,,,,,,,,
77763,0,,,,,,,,-0.2,-0.07,0.79,1,4,-1,0.21,0,,,,,,,,,,,,,,,,,
77803,0,,,,,,,,0.01,-0.08,0.26,1,5,0,0.08,0,,,,,,,,,,,,,,,,,
77843,0,6,8,46,50,34,38,17,-0.18,-0.02,0.59,0,-10,0,0.18,0,0,0.0,0.0,0.0,0.0,0,0,0.0,0,0.0,-1,0.0,0.0,0.0,0,0.0,1.2974
77883,0,,,,,,,,-0.04,-0.02,0.59,0,9,-1,0.04,0,,,,,,,,,,,,,,,,,
77923,0,,,,,,,,0.08,-0.08,0.25,0,5,0,0.11,0,,,,,,,,,,,,,,,,,
77963,0,,,,,,,,-0.11,-0.05,0.58,0,-5,0,0.13,0,,,,,,,,,,,,,,,,,
78003,0,,,,,,,,0.16,-0.04,0.41,0,15,-1,0.16,0,,,,,,,,,,,,,,,,,
78043,0,8,8,46,50,34,38,17,0.1,-0.04,0.35,0,-2,0,0.1,0,0,0.0,0.0,0.0,0.0,0,0,0.0,0,0.0,-1,0.0,0.0,0.0,0,0.0,1.3007
78083,0,,,,,,,,-0.05,-0.02,0.5,0,3,-0,0.05,0,,,,,,,,,,,,,,,,,
78123,0,,,,,,,,0.15,-0.07,0.03,0,9,1,0.16,0,,,,,,,,,,,,,,,,,
78163,0,,,,,,,,-0.06,-0.05,0.4,0,-9,0,0.07,0,,,,,,,,,,,,,,,,,
78203,0,,,,,,,,0.09,-0.02,0.3,0,9,-0,0.09,0,,,,,,,,,,,,,,,,,
78243,0,7,8,46,50,34,38,18,0.17,-0.05,0.22,0,5,-0,0.18,0,0,0.0,0.0,0.0,0.0,0,0,0.0,0,0.0,-1,0.0,0.0,0.0,0,0.0,1.304
78283,0,,,,,,,,-0.07,-0.02,0.56,0,-7,-1,0.08,0,,,,,,,,,,,,,,,,,
78323,0,,,,,,,,0.16,-0.06,0.29,1,12,-1,0.17,0,,,,,,,,,,,,,,,,,
78363,0,,,,,,,,0.15,-0.04,0.03,0,2,1,0.16,0,,,,,,,,,,,,,,,,,
78403,0,,,,,,,,-0.2,-0.01,0.4,0,-25,1,0.2,0,,,,,,,,,,,,,,,,,
78443,0,5,7,46,50,34,38,17,-0.54,-0.01,0.71,0,-46,2,0.54,0,0,0.0,0.0,0.0,0.0,0,0,0.0,0,0.0,-1,0.0,0.0,0.0,0,0.0,1.3074
78483,0,,,,,,,,-0.82,0.01,0.95,-1,-57,3,0.82,0,,,,,,,,,,,,,,,,,
78523,0,,,,,,,,-1.04,0.04,1.15,-1,-59,1,1.04,0,,,,,,,,,,,,,,,,,
78563,0,,,,,,,,-0.9,0.06,1.16,-1,-77,6,0.91,0,,,,,,,,,,,,,,,,,
78603,0,,,,,,,,-0.35,0.02,0.56,-0,-61,5,0.35,0,,,,,,,,,,,,,,,,,
78643,0,5,8,46,50,34,38,17,0.09,-0.05,0.07,-0,-21,3,0.11,0,0,0.0,0.0,0.0,0.0,0,0,0.0,0,0.0,-1,0.0,0.0,0.0,0,0.0,1.3107
78683,0,,,,,,,,0.29,-0.07,0.04,-0,25,-2,0.3,0,,,,,,,,,,,,,,,,,
78723,0,,,,,,,,-0.04,-0.07,0.42,-1,44,-5,0.08,0,,,,,,,,,,,,,,,,,
78763,0,,,,,,,,-0.41,-0.04,0.72,-1,20,-3,0.41,0,,,,,,,,,,,,,,,,,
78803,0,,,,,,,,-0.71,-0.01,0.96,-1,-22,0,0.71,0,,,,,,,,,,,,,,,,,
78843,0,3,6,46,50,33,38,18,-0.79,0.03,1.07,-1,-63,5,0.79,0,0,0.0,0.0,0.0,0.0,0,0,0.0,0,0.0,-1,0.0,0.0,0.0,0,0.0,1.314
78883,0,,,,,,,,-0.47,0.04,0.77,-0,-85,8,0.47,0,,,,,,,,,,,,,,,,,
78923,0,,,,,,,,-0.0,0.05,0.25,-0,-79,9,0.05,0,,,,,,,,,,,,,,,,,
78963,0,,,,,,,,0.11,-0.08,-0.18,-0,-70,7,0.13,0,,,,,,,,,,,,,,,,,
79003,0,,,,,,,,-0.24,0.01,0.23,-0,-59,2,0.24,0,,,,,,,,,,,,,,,,,
79043,0,4,3,46,50,34,38,19,-0.35,0.07,0.57,-0,-36,-2,0.35,0,0,0.0,0.0,0.0,0.0,0,0,0.0,0,0.0,-1,0.0,0.0,0.0,0,0.0,1.3174
79083,0,,,,,,,,-0.6,0.06,0.79,-0,-4,-5,0.6,0,,,,,,,,,,,,,,,,,
79123,0,,,,,,,,-0.77,0.03,1.02,-0,16,-7,0.77,0,,,,,,,,,,,,,,,,,
79163,0,,,,,,,,-1.0,0.02,1.2,-0,-10,-3,1.0,0,,,,,,,,,,,,,,,,,
79203,0,,,,,,,,-0.98,0.07,1.24,-0,-41,2,0.98,0,,,,,,,,,,,,,,,,,
79243,0,2,5,46,51,33,37,18,-0.42,0.02,0.83,0,-25,-0,0.42,0,0,0.0,0.0,0.0,0.0,0,0,0.0,0,0.0,-1,0.0,0.0,0.0,0,0.0,1.3207
79283,0,,,,,,,,-0.45,-0.0,0.9,0,-23,0,0.45,0,,,,,,,,,,,,,,,,,
79323,0,,,,,,,,-0.38,-0.0,0.84,0,-21,1,0.38,0,,,,,,,,,,,,,,,,,
79363,0,,,,,,,,-0.14,0.01,1.03,0,-14,-1,0.14,0,,,,,,,,,,,,,,,,,
79403,0,,,,,,,,-0.28,-0.05,0.71,0,-21,4,0.29,0,,,,,,,,,,,,,,,,,
79443,0,3,5,46,50,33,37,18,-0.47,-0.04,0.19,0,-35,13,0.47,0,0,0.0,0.0,0.0,0.0,0,0,0.0,0,0.0,-1,0.0,0.0,0.0,0,0.0,1.324
79483,0,,,,,,,,-0.32,-0.07,0.13,0,-18,4,0.32,0,,,,,,,,,,,,,,,,,
79523,0,,,,,,,,-0.27,-0.01,0.13,1,-13,2,0.27,0,,,,,,,,,,,,,,,,,
79563,0,,,,,,,,-0.34,0.06,-0.28,1,-28,10,0.35,0,,,,,,,,,,,,,,,,,
79603,0,,,,,,,,-0.07,0.14,-0.13,0,-16,0,0.16,0,,,,,,,,,,,,,,,,,
79643,0,3,5,46,51,33,37,18,-0.39,0.03,-0.48,1,-21,6,0.4,0,0,0.0,0.0,0.0,0.0,0,0,0.0,0,0.0,-1,0.0,0.0,0.0,0,0.0,1.3274
79683,0,,,,,,,,-0.12,0.1,-0.41,1,-20,6,0.16,0,,,,,,,,,,,,,,,,,
79723,0,,,,,,,,-0.09,0.07,-0.31,0,-8,0,0.11,0,,,,,,,,,,,,,,,,,
79763,0,,,,,,,,-0.09,0.03,-0.38,0,-2,-1,0.09,0,,,,,,,,,,,,,,,,,
79803,0,,,,,,,,0.03,0.01,-0.31,1,-1,-5,0.03,0,,,,,,,,,,,,,,,,,
79843,0,3,5,46,50,33,37,17,0.2,0.08,-0.23,-1,-15,1,0.22,0,0,0.0,0.0,0.0,0.0,0,0,0.0,0,0.0,-1,0.0,0.0,0.0,0,0.0,1.3307
79883,0,,,,,,,,-0.13,0.04,-0.57,-0,-11,0,0.14,0,,,,,,,,,,,,,,,,,
79923,0,,,,,,,,-0.1,0.05,-0.49,-0,-27,11,0.11,0,,,,,,,,,,,,,,,,,
79963,0,,,,,,,,-0.29,-0.01,-0.6,-0,-29,13,0.29,0,,,,,,,,,,,,,,,,,
80003,0,,,,,,,,-0.23,0.01,-0.4,-0,-24,11,0.23,0,,,,,,,,,,,,,,,,,
80043,0,4,3,46,51,33,37,19,-0.24,-0.02,-0.04,-0,-16,7,0.24,0,0,0.0,0.0,0.0,0.0,0,0,0.0,0,0.0,-1,0.0,0.0,0.0,0,0.0,1.334
80083,0,,,,,,,,-0.04,0.04,0.14,0,-21,7,0.06,0,,,,,,,,,,,,,,,,,
80123,0,,,,,,,,0.35,-0.02,-0.27,-0,7,5,0.35,0,,,,,,,,,,,,,,,,,
80163,0,,,,,,,,0.66,-0.09,-0.6,0,41,3,0.67,0,,,,,,,,,,,,,,,,,
80203,0,,,,,,,,0.91,-0.14,-0.87,0,52,3,0.92,0,,,,,,,,,,,,,,,,,
80243,0,3,3,46,51,33,37,19,0.74,-0.08,-0.46,0,37,2,0.74,0,0,0.0,0.0,0.0,0.0,0,0,0.0,0,0.0,-1,0.0,0.0,0.0,0,0.0,1.3374
80283,0,,,,,,,,0.72,-0.12,-0.53,0,41,2,0.73,0,,,,,,,,,,,,,,,,,
80323,0,,,,,,,,0.45,-0.13,-0.14,0,17,2,0.47,0,,,,,,,,,,,,,,,,,
80363,0,,,,,,,,0.45,-0.1,-0.08,0,26,1,0.46,0,,,,,,,,,,,,,,,,,
80403,0,,,,,,,,0.39,-0.11,-0.15,0,15,2,0.41,0,,,,,,,,,,,,,,,,,
80443,0,2,5,46,50,33,37,20,0.03,-0.05,0.26,0,-3,1,0.06,0,0,0.0,0.0,0.0,0.0,0,0,0.0,0,0.0,-1,0.0,0.0,0.0,0,0.0,1.3407
80483,0,,,,,,,,-0.14,-0.01,0.59,0,4,-1,0.14,0,,,,,,,,,,,,,,,,,
80523,0,,,,,,,,-0.2,0.03,0.86,0,20,-5,0.2,0,,,,,,,,,,,,,,,,,
80563,0,,,,,,,,-0.51,0.02,1.07,0,15,-5,0.51,0,,,,,,,,,,,,,,,,,
80603,0,,,,,,,,-0.6,0.09,1.22,1,-9,-1,0.6,0,,,,,,,,,,,,,,,,,
80643,0,1,4,46,50,33,37,21,-0.24,0.03,0.99,1,8,-4,0.25,0,0,0.0,0.0,0.0,0.0,0,0,0.0,0,0.0,-1,0.0,0.0,0.0,0,0.0,1.344
80683,0,,,,,,,,-0.31,0.02,1.14,1,-1,-2,0.31,0,,,,,,,,,,,,,,,,,
80723,0,,,,,,,,-0.28,-0.03,0.93,0,1,-2,0.28,0,,,,,,,,,,,,,,,,,
80763,0,,,,,,,,-0.25,-0.06,0.97,0,2,-2,0.26,0,,,,,,,,,,,,,,,,,
80803,0,,,,,,,,-0.28,-0.03,0.88,0,6,-4,0.29,0,,,,,,,,,,,,,,,,,
80843,0,2,4,46,50,33,37,20,-0.0,0.0,1.09,1,-0,1,0.0,0,0,0.0,0.0,0.0,0.0,0,0,0.0,0,0.0,-1,0.0,0.0,0.0,0,0.0,1.3474
80883,0,,,,,,,,0.16,0.01,1.11,1,-19,13,0.16,0,,,,,,,,,,,,,,,,,
80923,0,,,,,,,,0.28,0.01,1.28,2,0,3,0.28,0,,,,,,,,,,,,,,,,,
80963,0,,,,,,,,0.26,-0.01,1.06,1,-5,6,0.26,0,,,,,,,,,,,,,,,,,
81003,0,,,,,,,,0.21,-0.01,0.88,2,10,-4,0.21,0,,,,,,,,,,,,,,,,,
81043,0,2,2,46,51,33,37,22,0.08,0.16,0.69,3,-15,11,0.18,0,0,0.0,0.0,0.0,0.0,0,0,0.0,0,0.0,-1,0.0,0.0,0.0,0,0.0,1.3507
81083,0,,,,,,,,-0.16,0.0,0.31,2,0,-2,0.16,0,,,,,,,,,,,,,,,,,
81123,0,,,,,,,,0.01,-0.19,0.63,1,16,-12,0.19,0,,,,,,,,,,,,,,,,,
81163,0,,,,,,,,0.19,-0.07,0.49,1,6,-4,0.2,0,,,,,,,,,,,,,,,,,
81203,0,,,,,,,,0.0,0.06,0.01,2,-9,11,0.06,0,,,,,,,,,,,,,,,,,
81243,0,2,2,46,51,33,37,24,-0.09,-0.12,0.02,1,6,-1,0.15,0,0,0.0,0.0,0.0,0.0,0,0,0.0,0,0.0,-1,0.0,0.0,0.0,0,0.0,1.3541
81283,0,,,,,,,,0.15,0.02,0.4,2,12,-2,0.15,0,,,,,,,,,,,,,,,,,
81323,0,,,,,,,,-0.12,-0.09,0.01,1,5,4,0.15,0,,,,,,,,,,,,,,,,,
81363,0,,,,,,,,0.09,-0.02,-0.02,1,0,3,0.1,0,,,,,,,,,,,,,,,,,
81403,0,,,,,,,,0.1,-0.04,0.01,-1,10,-4,0.11,0,,,,,,,,,,,,,,,,,
81443,0,1,4,46,50,33,37,24,0.16,-0.04,0.03,-1,12,-4,0.16,0,0,0.0,0.0,0.0,0.0,0,0,0.0,0,0.0,-1,0.0,0.0,0.0,0,0.0,1.3574
81483,0,,,,,,,,0.17,-0.02,0.04,-1,11,-6,0.18,0,,,,,,,,,,,,,,,,,
81523,0,,,,,,,,0.19,0.04,0.05,-2,-7,4,0.2,0,,,,,,,,,,,,,,,,,
81563,0,,,,,,,,0.19,0.02,0.02,-1,8,-4,0.2,0,,,,,,,,,,,,,,,,,
81603,0,,,,,,,,-0.01,-0.0,-0.24,-1,9,-5,0.01,0,,,,,,,,,,,,,,,,,
81643,0,2,3,46,51,33,37,26,0.05,-0.0,0.12,-1,11,-5,0.05,0,0,0.0,0.0,0.0,0.0,0,0,0.0,0,0.0,-1,0.0,0.0,0.0,0,0.0,1.3607
81683,0,,,,,,,,0.1,0.03,0.23,-1,3,-3,0.1,0,,,,,,,,,,,,,,,,,
81723,0,,,,,,,,0.46,0.0,-0.19,-1,18,-2,0.46,0,,,,,,,,,,,,,,,,,
81763,0,,,,,,,,0.61,-0.04,-0.27,-0,20,-2,0.61,0,,,,,,,,,,,,,,,,,
81803,0,,,,,,,,0.62,-0.04,-0.25,-0,23,-2,0.62,0,,,,,,,,,,,,,,,,,
81843,0,2,3,46,51,33,37,37,0.54,-0.04,0.03,-1,15,-2,0.54,0,0,0.0,0.0,0.0,0.0,0,0,0.0,0,0.0,-1,0.0,0.0,0.0,0,0.0,1.3641
81883,0,,,,,,,,0.46,-0.03,0.2,-1,13,-2,0.46,0,,,,,,,,,,,,,,,,,
81923,0,,,,,,,,0.36,-0.04,0.43,-1,10,-1,0.36,0,,,,,,,,,,,,,,,,,
81963,0,,,,,,,,0.36,-0.04,0.6,-1,9,-1,0.36,0,,,,,,,,,,,,,,,,,
82003,0,,,,,,,,0.28,-0.06,0.63,-1,7,-1,0.29,0,,,,,,,,,,,,,,,,,
82043,0,2,4,46,50,33,37,54,0.28,-0.05,0.72,-1,5,-1,0.29,0,0,0.0,0.0,0.0,0.0,0,0,0.0,0,0.0,-1,0.0,0.0,0.0,0,0.0,1.3674
82083,0,,,,,,,,0.21,-0.04,0.8,-1,6,-1,0.21,0,,,,,,,,,,,,,,,,,
82123,0,,,,,,,,0.25,-0.05,0.84,-2,5,-1,0.25,0,,,,,,,,,,,,,,,,,
82163,0,,,,,,,,0.17,-0.05,0.83,-2,4,-1,0.18,0,,,,,,,,,,,,,,,,,
82203,0,,,,,,,,0.21,-0.07,0.85,-2,3,-1,0.22,0,,,,,,,,,,,,,,,,,
82243,0,2,2,46,51,33,37,71,0.16,-0.07,0.83,-3,2,-0,0.17,0,0,0.0,0.0,0.0,0.0,0,0,0.0,0,0.0,-1,0.0,0.0,0.0,0,0.0,1.3707
82283,0,,,,,,,,0.16,-0.06,0.84,-3,1,-0,0.17,0,,,,,,,,,,,,,,,,,
82323,0,,,,,,,,0.13,-0.09,0.87,-3,-0,1,0.16,0,,,,,,,,,,,,,,,,,
82363,0,,,,,,,,0.12,-0.09,0.91,-4,1,0,0.15,0,,,,,,,,,,,,,,,,,
82403,0,,,,,,,,0.15,-0.09,0.9,-4,-0,0,0.17,0,,,,,,,,,,,,,,,,,
82443,0,2,2,46,51,33,37,79,0.15,-0.07,1.03,-4,-0,0,0.17,0,0,0.0,0.0,0.0,0.0,0,0,0.0,0,0.0,-1,0.0,0.0,0.0,0,0.0,1.3741
82483,0,,,,,,,,0.14,-0.07,0.9,-5,-0,0,0.15,0,,,,,,,,,,,,,,,,,
82523,0,,,,,,,,0.14,-0.08,0.97,-5,1,-0,0.16,0,,,,,,,,,,,,,,,,,
82563,0,,,,,,,,0.14,-0.08,1.04,-5,1,-1,0.16,0,,,,,,,,,,,,,,,,,
82603,0,,,,,,,,0.12,-0.06,0.95,-6,-1,-0,0.13,0,,,,,,,,,,,,,,,,,
82643,0,2,2,46,51,33,37,86,0.1,-0.06,0.79,-6,-2,1,0.12,0,0,0.0,0.0,0.0,0.0,0,0,0.0,0,0.0,-1,0.0,0.0,0.0,0,0.0,1.3774
82683,0,,,,,,,,0.17,-0.02,0.64,-6,5,0,0.17,0,,,,,,,,,,,,,,,,,
82723,0,,,,,,,,0.12,-0.04,0.53,-7,-2,1,0.13,0,,,,,,,,,,,,,,,,,
82763,0,,,,,,,,-0.19,-0.06,0.81,-7,-18,1,0.2,0,,,,,,,,,,,,,,,,,
82803,0,,,,,,,,-0.07,-0.03,1.03,-8,-3,-0,0.08,0,,,,,,,,,,,,,,,,,
82843,0,2,4,46,51,33,37,92,0.32,-0.07,0.61,-8,32,-4,0.33,0,0,0.0,0.0,0.0,0.0,0,0,0.0,0,0.0,-1,0.0,0.0,0.0,0,0.0,1.3807
82883,0,,,,,,,,0.64,-0.1,0.12,-9,71,-9,0.65,0,,,,,,,,,,,,,,,,,
82923,0,,,,,,,,0.69,-0.17,-0.14,-9,89,-13,0.71,0,,,,,,,,,,,,,,,,,
82963,0,,,,,,,,0.37,-0.11,0.16,-10,58,-8,0.38,0,,,,,,,,,,,,,,,,,
83003,0,,,,,,,,0.3,-0.15,0.14,-11,59,-9,0.34,0,,,,,,,,,,,,,,,,,
83043,0,-1,3,47,51,33,37,98,0.31,-0.11,0.43,-11,45,-7,0.33,0,0,0.0,0.0,0.0,0.0,0,0,0.0,0,0.0,-1,0.0,0.0,0.0,0,0.0,1.384
83083,0,,,,,,,,0.26,-0.09,0.59,-12,37,-7,0.28,0,,,,,,,,,,,,,,,,,
83123,0,,,,,,,,0.17,-0.11,0.53,-12,32,-6,0.2,0,,,,,,,,,,,,,,,,,
83163,0,,,,,,,,0.16,-0.08,0.61,-13,22,-4,0.18,0,,,,,,,,,,,,,,,,,
83203,0,,,,,,,,0.17,-0.1,0.61,-14,24,-5,0.2,0,,,,,,,,,,,,,,,,,
83243,0,-0,3,47,51,33,37,99,0.32,-0.04,0.88,-14,15,-2,0.32,0,0,0.0,0.0,0.0,0.0,0,0,0.0,0,0.0,-1,0.0,0.0,0.0,0,0.0,1.3874
83283,0,,,,,,,,0.09,-0.16,0.33,-15,7,1,0.18,0,,,,,,,,,,,,,,,,,
83323,0,,,,,,,,0.24,-0.14,0.63,-16,12,-3,0.28,0,,,,,,,,,,,,,,,,,
83363,0,,,,,,,,0.18,-0.16,0.51,-17,9,-2,0.24,0,,,,,,,,,,,,,,,,,
83403,0,,,,,,,,0.19,-0.16,0.67,-17,8,-2,0.25,0,,,,,,,,,,,,,,,,,
83443,0,1,3,47,52,33,37,99,0.25,-0.14,0.68,-18,4,-1,0.29,0,0,0.0,0.0,0.0,0.0,0,0,0.0,0,0.0,-1,0.0,0.0,0.0,0,0.0,1.3907
83483,0,,,,,,,,-0.02,-0.18,0.82,-19,3,-2,0.18,0,,,,,,,,,,,,,,,,,
83523,0,,,,,,,,-0.32,-0.13,1.03,-20,-29,3,0.34,0,,,,,,,,,,,,,,,,,
83563,0,,,,,,,,-0.36,-0.03,0.82,-21,-63,7,0.37,0,,,,,,,,,,,,,,,,,
83603,0,,,,,,,,-0.42,0.02,1.02,-21,-91,9,0.42,0,,,,,,,,,,,,,,,,,
83643,0,-1,3,47,52,33,36,100,-0.49,0.06,1.1,-22,-114,12,0.49,0,0,0.0,0.0,0.0,0.0,0,0,0.0,0,0.0,-1,0.0,0.0,0.0,0,0.0,1.394
83683,0,,,,,,,,-0.72,0.1,1.27,-23,-137,13,0.73,0,,,,,,,,,,,,,,,,,
83723,0,,,,,,,,-0.96,0.06,1.41,-23,-150,12,0.97,0,,,,,,,,,,,,,,,,,
83763,0,,,,,,,,-0.95,0.04,1.52,-24,-125,9,0.95,0,,,,,,,,,,,,,,,,,
83803,0,,,,,,,,-0.5,-0.03,0.99,-25,-86,7,0.5,0,,,,,,,,,,,,,,,,,
83843,0,-1,4,47,52,33,36,100,-0.53,-0.1,0.9,-26,-85,6,0.54,0,0,0.0,0.0,0.0,0.0,0,0,0.0,0,0.0,-1,0.0,0.0,0.0,0,0.0,1.3974
83883,0,,,,,,,,-0.52,-0.08,1.11,-27,-74,4,0.53,0,,,,,,,,,,,,,,,,,
83923,0,,,,,,,,-0.09,-0.08,0.72,-27,-36,1,0.12,0,,,,,,,,,,,,,,,,,
83963,0,,,,,,,,0.15,-0.12,0.2,-28,-22,2,0.19,0,,,,,,,,,,,,,,,,,
84003,0,,,,,,,,-0.07,-0.14,0.54,-29,-36,1,0.16,0,,,,,,,,,,,,,,,,,
84043,0,0,3,47,53,33,35,100,-0.06,-0.11,0.74,-30,-31,0,0.13,0,0,0.0,0.0,0.0,0.0,0,0,0.0,0,0.0,-1,0.0,0.0,0.0,0,0.0,1.4007
84083,0,,,,,,,,0.09,-0.15,0.26,-31,-17,-0,0.17,0,,,,,,,,,,,,,,,,,
84123,0,,,,,,,,-0.05,-0.18,0.59,-32,-21,-1,0.19,0,,,,,,,,,,,,,,,,,
84163,0,,,,,,,,0.06,-0.22,0.42,-32,-7,-1,0.23,0,,,,,,,,,,,,,,,,,
84203,0,,,,,,,,0.13,-0.3,0.65,-34,-8,0,0.33,0,,,,,,,,,,,,,,,,,
84243,0,-1,3,47,53,33,35,100,0.21,-0.3,0.65,-35,-11,0,0.37,0,0,0.0,0.0,0.0,0.0,0,0,0.0,0,0.0,-1,0.0,0.0,0.0,0,0.0,1.404
84283,0,,,,,,,,0.19,-0.3,0.73,-36,-6,-0,0.36,0,,,,,,,,,,,,,,,,,
84323,0,,,,,,,,0.16,-0.34,0.57,-38,-6,-0,0.37,0,,,,,,,,,,,,,,,,,
84363,0,,,,,,,,0.21,-0.34,0.42,-40,-7,-1,0.4,0,,,,,,,,,,,,,,,,,
84403,0,,,,,,,,0.2,-0.35,0.52,-41,-6,-1,0.4,0,,,,,,,,,,,,,,,,,
84443,0,1,2,47,54,33,33,100,0.21,-0.37,0.67,-42,-3,-1,0.43,0,0,0.0,0.0,0.0,0.0,0,0,0.0,0,0.0,-1,0.0,0.0,0.0,0,0.0,1.4074
84483,0,,,,,,,,0.23,-0.39,0.72,-44,-3,-1,0.45,0,,,,,,,,,,,,,,,,,
84523,0,,,,,,,,0.2,-0.39,0.9,-45,-5,-1,0.44,0,,,,,,,,,,,,,,,,,
84563,0,,,,,,,,0.16,-0.41,1.09,-47,-7,-1,0.44,0,,,,,,,,,,,,,,,,,
84603,0,,,,,,,,0.17,-0.45,1.09,-49,-8,-1,0.48,0,,,,,,,,,,,,,,,,,
84643,0,-1,3,48,54,33,32,100,0.18,-0.47,1.19,-50,-8,-1,0.51,0,0,0.0,0.0,0.0,0.0,0,0,0.0,0,0.0,-1,0.0,0.0,0.0,0,0.0,1.4107
84683,0,,,,,,,,0.12,-0.51,1.15,-51,-6,-2,0.52,0,,,,,,,,,,,,,,,,,
84723,0,,,,,,,,0.17,-0.47,1.22,-52,-3,-3,0.5,0,,,,,,,,,,,,,,,,,
84763,0,,,,,,,,0.2,-0.45,1.33,-53,-0,-4,0.49,0,,,,,,,,,,,,,,,,,
84803,0,,,,,,,,0.2,-0.42,1.28,-54,-0,-3,0.47,0,,,,,,,,,,,,,,,,,
84843,0,0,2,47,54,33,33,87,0.15,-0.43,1.24,-54,-1,-3,0.46,0,0,0.0,0.0,0.0,0.0,0,0,0.0,0,0.0,-1,0.0,0.0,0.0,0,0.0,1.414
84883,0,,,,,,,,0.19,-0.42,1.18,-54,-0,-2,0.46,0,,,,,,,,,,,,,,,,,
84923,0,,,,,,,,0.21,-0.41,1.23,-53,-0,-3,0.46,0,,,,,,,,,,,,,,,,,
84963,0,,,,,,,,0.19,-0.37,1.23,-52,-0,-3,0.41,0,,,,,,,,,,,,,,,,,
85003,0,,,,,,,,0.25,-0.32,1.23,-50,0,-3,0.41,0,,,,,,,,,,,,,,,,,
85043,0,1,0,48,55,32,34,56,0.2,-0.29,1.13,-47,-1,-2,0.35,0,0,0.0,0.0,0.0,0.0,0,0,0.0,0,0.0,-1,0.0,0.0,0.0,0,0.0,1.4174
85083,0,,,,,,,,0.23,-0.23,1.1,-44,-0,-2,0.32,0,,,,,,,,,,,,,,,,,
85123,0,,,,,,,,0.22,-0.2,0.92,-41,0,-1,0.3,0,,,,,,,,,,,,,,,,,
85163,0,,,,,,,,0.22,-0.2,0.92,-38,0,-1,0.3,0,,,,,,,,,,,,,,,,,
85203,0,,,,,,,,0.19,-0.22,0.91,-35,1,-1,0.29,0,,,,,,,,,,,,,,,,,
85243,0,1,1,47,52,33,34,39,0.17,-0.25,0.86,-33,1,-1,0.31,0,0,0.0,0.0,0.0,0.0,0,0,0.0,0,0.0,-1,0.0,0.0,0.0,0,0.0,1.4207
85283,0,,,,,,,,0.22,-0.26,1.05,-31,1,-1,0.34,0,,,,,,,,,,,,,,,,,
85323,0,,,,,,,,0.18,-0.28,0.84,-30,1,-1,0.33,0,,,,,,,,,,,,,,,,,
85363,0,,,,,,,,0.18,-0.26,0.83,-29,2,-1,0.32,0,,,,,,,,,,,,,,,,,
85403,0,,,,,,,,0.16,-0.3,0.73,-28,2,-1,0.34,0,,,,,,,,,,,,,,,,,
85443,0,-1,3,47,51,34,35,40,0.17,-0.34,0.77,-27,0,-2,0.38,0,0,0.0,0.0,0.0,0.0,0,0,0.0,0,0.0,-1,0.0,0.0,0.0,0,0.0,1.424
85483,0,,,,,,,,0.15,-0.36,0.78,-27,0,-3,0.39,0,,,,,,,,,,,,,,,,,
85523,0,,,,,,,,0.15,-0.34,0.7,-26,2,-3,0.37,0,,,,,,,,,,,,,,,,,
85563,0,,,,,,,,0.13,-0.34,0.84,-26,2,-3,0.36,0,,,,,,,,,,,,,,,,,
85603,0,,,,,,,,0.09,-0.36,0.82,-26,2,-3,0.37,0,,,,,,,,,,,,,,,,,
85643,0,-1,2,47,52,34,35,43,0.14,-0.41,0.66,-27,3,-3,0.44,0,0,0.0,0.0,0.0,0.0,0,0,0.0,0,0.0,-1,0.0,0.0,0.0,0,0.0,1.4274
85683,0,,,,,,,,0.2,-0.45,0.84,-27,5,-3,0.5,0,,,,,,,,,,,,,,,,,
85723,0,,,,,,,,0.2,-0.46,0.85,-28,5,-4,0.5,0,,,,,,,,,,,,,,,,,
85763,0,,,,,,,,0.19,-0.5,0.67,-30,5,-3,0.54,0,,,,,,,,,,,,,,,,,
85803,0,,,,,,,,0.16,-0.57,0.84,-32,4,-3,0.59,0,,,,,,,,,,,,,,,,,
85843,0,1,4,45,54,35,35,62,0.08,-0.56,0.87,-34,3,-4,0.56,0,0,0.0,0.0,0.0,0.0,0,0,0.0,0,0.0,-1,0.0,0.0,0.0,0,0.0,1.4307
85883,0,,,,,,,,0.13,-0.58,0.69,-36,7,-3,0.59,0,,,,,,,,,,,,,,,,,
85923,0,,,,,,,,-0.13,-0.61,0.67,-38,-12,-1,0.63,0,,,,,,,,,,,,,,,,,
85963,0,,,,,,,,-0.42,-0.62,0.92,-41,-25,-0,0.75,0,,,,,,,,,,,,,,,,,
86003,0,,,,,,,,-0.37,-0.68,0.8,-42,-14,-0,0.77,0,,,,,,,,,,,,,,,,,
86043,0,0,3,45,53,37,34,75,-0.41,-0.74,1.03,-45,-17,-1,0.84,0,0,0.0,0.0,0.0,0.0,0,0,0.0,0,0.0,-1,0.0,0.0,0.0,0,0.0,1.434
86083,0,,,,,,,,-0.41,-0.73,1.07,-48,-16,-2,0.84,0,,,,,,,,,,,,,,,,,
86123,0,,,,,,,,-0.43,-0.73,1.25,-50,-16,-3,0.85,0,,,,,,,,,,,,,,,,,
86163,0,,,,,,,,-0.25,-0.78,0.78,-52,-9,-1,0.82,0,,,,,,,,,,,,,,,,,
86203,0,,,,,,,,-0.19,-0.75,1.01,-54,-6,-2,0.78,0,,,,,,,,,,,,,,,,,
86243,0,1,3,45,55,37,34,80,-0.14,-0.79,0.8,-56,-0,-3,0.8,0,0,0.0,0.0,0.0,0.0,0,0,0.0,0,0.0,-1,0.0,0.0,0.0,0,0.0,1.4374
86283,0,,,,,,,,-0.23,-0.78,1.03,-58,-7,-3,0.82,0,,,,,,,,,,,,,,,,,
86323,0,,,,,,,,-0.12,-0.75,0.5,-59,-0,-2,0.76,0,,,,,,,,,,,,,,,,,
86363,0,,,,,,,,-0.16,-0.71,0.69,-60,-6,-2,0.73,0,,,,,,,,,,,,,,,,,
86403,0,,,,,,,,-0.03,-0.67,0.73,-62,5,-3,0.67,0,,,,,,,,,,,,,,,,,
86443,0,1,2,44,56,37,34,82,0.04,-0.73,0.54,-63,-3,-2,0.74,0,0,0.0,0.0,0.0,0.0,0,0,0.0,0,0.0,-1,0.0,0.0,0.0,0,0.0,1.4407
86483,0,,,,,,,,-0.18,-0.73,0.81,-64,-4,-3,0.75,0,,,,,,,,,,,,,,,,,
86523,0,,,,,,,,-0.1,-0.74,0.7,-65,8,-2,0.75,0,,,,,,,,,,,,,,,,,
86563,0,,,,,,,,-0.13,-0.86,0.59,-66,-11,-2,0.87,0,,,,,,,,,,,,,,,,,
86603,0,,,,,,,,-0.43,-0.88,0.85,-67,-28,-1,0.98,0,,,,,,,,,,,,,,,,,
86643,0,1,1,44,56,37,34,83,-0.5,-0.81,1.07,-67,-10,-4,0.95,0,0,0.0,0.0,0.0,0.0,0,0,0.0,0,0.0,-1,0.0,0.0,0.0,0,0.0,1.4441
86683,0,,,,,,,,-0.15,-0.8,0.65,-68,16,-4,0.82,0,,,,,,,,,,,,,,,,,
86723,0,,,,,,,,0.05,-0.87,0.15,-68,11,-3,0.87,0,,,,,,,,,,,,,,,,,
86763,0,,,,,,,,-0.25,-0.84,0.4,-69,-17,-1,0.87,0,,,,,,,,,,,,,,,,,
86803,0,,,,,,,,-0.59,-0.87,0.7,-69,-51,2,1.05,0,,,,,,,,,,,,,,,,,
86843,0,1,3,44,56,38,34,74,-0.85,-0.9,0.95,-69,-83,5,1.24,0,0,0.0,0.0,0.0,0.0,0,0,0.0,0,0.0,-1,0.0,0.0,0.0,0,0.0,1.4474
86883,0,,,,,,,,-1.07,-0.8,1.15,-68,-114,10,1.34,0,,,,,,,,,,,,,,,,,
86923,0,,,,,,,,-0.71,-0.59,1.02,-65,-112,12,0.92,0,,,,,,,,,,,,,,,,,
86963,0,,,,,,,,-0.19,-0.53,0.44,-62,-86,10,0.57,0,,,,,,,,,,,,,,,,,
87003,0,,,,,,,,0.22,-0.45,-0.02,-58,-72,10,0.5,0,,,,,,,,,,,,,,,,,
87043,0,1,3,47,53,34,36,32,0.56,-0.27,-0.4,-53,-51,8,0.63,0,0,0.0,0.0,0.0,0.0,0,0,0.0,0,0.0,-1,0.0,0.0,0.0,0,0.0,1.4507
87083,0,,,,,,,,0.68,-0.29,-0.49,-47,-26,3,0.74,0,,,,,,,,,,,,,,,,,
87123,0,,,,,,,,0.22,-0.25,-0.02,-41,-36,4,0.34,0,,,,,,,,,,,,,,,,,
87163,0,,,,,,,,-0.05,-0.13,0.36,-35,-63,9,0.13,0,,,,,,,,,,,,,,,,,
87203,0,,,,,,,,0.18,-0.04,0.44,-29,-50,7,0.19,0,,,,,,,,,,,,,,,,,
87243,0,-0,3,50,52,31,36,-6,0.25,0.07,0.42,-22,-47,8,0.26,0,0,0.0,0.0,0.0,0.0,0,0,0.0,0,0.0,-1,0.0,0.0,0.0,0,0.0,1.4541
87283,0,,,,,,,,0.31,0.15,0.61,-16,-27,4,0.34,0,,,,,,,,,,,,,,,,,
87323,0,,,,,,,,-0.05,0.21,0.8,-10,-25,4,0.22,0,,,,,,,,,,,,,,,,,
87363,0,,,,,,,,0.05,0.27,0.93,-3,-22,4,0.27,0,,,,,,,,,,,,,,,,,
87403,0,,,,,,,,-0.04,0.34,0.64,3,-20,5,0.35,0,,,,,,,,,,,,,,,,,
87443,0,-1,1,52,49,31,40,-37,-0.11,0.43,0.83,9,-17,3,0.44,0,0,0.0,0.0,0.0,0.0,0,0,0.0,0,0.0,-1,0.0,0.0,0.0,0,0.0,1.4574
87483,0,,,,,,,,0.11,0.49,0.98,15,-10,2,0.5,0,,,,,,,,,,,,,,,,,
87523,0,,,,,,,,-0.19,0.58,1.01,20,-11,2,0.61,0,,,,,,,,,,,,,,,,,
87563,0,,,,,,,,0.01,0.64,0.91,26,-17,4,0.64,0,,,,,,,,,,,,,,,,,
87603,0,,,,,,,,0.11,0.64,0.92,31,-2,1,0.65,0,,,,,,,,,,,,,,,,,
87643,0,1,3,52,46,32,42,-59,-0.24,0.72,0.89,35,-2,1,0.76,0,0,0.0,0.0,0.0,0.0,0,0,0.0,0,0.0,-1,0.0,0.0,0.0,0,0.0,1.4607
87683,0,,,,,,,,-0.1,0.75,0.93,40,-14,2,0.76,0,,,,,,,,,,,,,,,,,
87723,0,,,,,,,,0.03,0.76,0.84,44,-2,-0,0.76,0,,,,,,,,,,,,,,,,,
87763,0,,,,,,,,-0.16,0.77,0.88,47,-8,2,0.79,0,,,,,,,,,,,,,,,,,
87803,0,,,,,,,,-0.02,0.73,1.03,50,-0,-0,0.73,0,,,,,,,,,,,,,,,,,
87843,0,1,3,52,46,32,44,-84,-0.16,0.83,0.91,52,-2,-0,0.84,0,0,0.0,0.0,0.0,0.0,0,0,0.0,0,0.0,-1,0.0,0.0,0.0,0,0.0,1.4641
87883,0,,,,,,,,-0.24,0.82,0.93,55,2,-1,0.85,0,,,,,,,,,,,,,,,,,
87923,0,,,,,,,,-0.05,0.87,1.05,58,2,-0,0.87,0,,,,,,,,,,,,,,,,,
87963,0,,,,,,,,-0.27,0.93,1.0,61,6,0,0.97,0,,,,,,,,,,,,,,,,,
88003,0,,,,,,,,-0.34,0.97,1.13,63,-7,3,1.02,0,,,,,,,,,,,,,,,,,
88043,0,1,3,52,46,33,45,-86,0.04,0.94,0.57,64,-4,4,0.94,0,0,0.0,0.0,0.0,0.0,0,0,0.0,0,0.0,-1,0.0,0.0,0.0,0,0.0,1.4674
88083,0,,,,,,,,0.41,0.94,0.2,66,16,2,1.03,0,,,,,,,,,,,,,,,,,
88123,0,,,,,,,,0.42,0.88,0.28,68,38,-2,0.97,0,,,,,,,,,,,,,,,,,
88163,0,,,,,,,,0.0,0.91,0.52,69,32,-1,0.91,0,,,,,,,,,,,,,,,,,
88203,0,,,,,,,,-0.31,0.94,0.8,71,9,2,0.99,0,,,,,,,,,,,,,,,,,
88243,0,-0,3,51,45,33,45,-60,-0.1,0.86,0.95,72,-1,2,0.87,0,0,0.0,0.0,0.0,0.0,0,0,0.0,0,0.0,-1,0.0,0.0,0.0,0,0.0,1.4707
88283,0,,,,,,,,0.28,0.74,0.39,70,11,2,0.79,0,,,,,,,,,,,,,,,,,
88323,0,,,,,,,,0.51,0.61,0.28,66,32,-2,0.79,0,,,,,,,,,,,,,,,,,
88363,0,,,,,,,,0.27,0.56,0.54,62,33,-4,0.62,0,,,,,,,,,,,,,,,,,
88403,0,,,,,,,,-0.08,0.47,0.82,57,22,-5,0.48,0,,,,,,,,,,,,,,,,,
88443,0,2,5,49,50,34,39,-17,-0.1,0.42,1.04,51,24,-5,0.43,0,0,0.0,0.0,0.0,0.0,0,0,0.0,0,0.0,-1,0.0,0.0,0.0,0,0.0,1.4741
88483,0,,,,,,,,0.16,0.27,0.71,45,36,-5,0.32,0,,,,,,,,,,,,,,,,,
88523,0,,,,,,,,0.13,0.09,0.6,38,27,-3,0.16,0,,,,,,,,,,,,,,,,,
88563,0,,,,,,,,-0.26,-0.02,0.86,30,2,-2,0.26,0,,,,,,,,,,,,,,,,,
88603,0,,,,,,,,-0.53,-0.08,1.08,22,-8,-4,0.54,0,,,,,,,,,,,,,,,,,
88643,0,-0,4,45,52,35,37,31,-0.7,-0.14,1.25,14,-2,-6,0.71,0,0,0.0,0.0,0.0,0.0,0,0,0.0,0,0.0,-1,0.0,0.0,0.0,0,0.0,1.4774
88683,0,,,,,,,,-0.95,-0.21,1.39,7,5,-7,0.97,0,,,,,,,,,,,,,,,,,
88723,0,,,,,,,,-1.06,-0.28,1.51,0,-14,-3,1.09,0,,,,,,,,,,,,,,,,,
88763,0,,,,,,,,-0.5,-0.31,1.22,-7,-16,-2,0.59,0,,,,,,,,,,,,,,,,,
88803,0,,,,,,,,-0.03,-0.44,0.68,-14,12,-4,0.45,0,,,,,,,,,,,,,,,,,
88843,0,2,3,44,55,37,36,62,0.22,-0.51,0.59,-20,48,-8,0.55,0,0,0.0,0.0,0.0,0.0,0,0,0.0,0,0.0,-1,0.0,0.0,0.0,0,0.0,1.4807
88883,0,,,,,,,,0.46,-0.6,0.43,-26,80,-10,0.76,0,,,,,,,,,,,,,,,,,
88923,0,,,,,,,,0.75,-0.67,-0.03,-32,103,-9,1.01,0,,,,,,,,,,,,,,,,,
88963,0,,,,,,,,0.98,-0.84,-0.41,-38,97,-7,1.29,0,,,,,,,,,,,,,,,,,
89003,0,,,,,,,,0.77,-0.95,-0.27,-43,54,-5,1.23,0,,,,,,,,,,,,,,,,,
89043,0,2,4,42,56,39,35,80,0.25,-0.95,0.16,-48,22,-2,0.98,0,0,0.0,0.0,0.0,0.0,0,0,0.0,0,0.0,-1,0.0,0.0,0.0,0,0.0,1.4841
89083,0,,,,,,,,-0.15,-0.92,0.51,-52,24,-4,0.93,0,,,,,,,,,,,,,,,,,
89123,0,,,,,,,,-0.09,-0.91,0.79,-55,56,-8,0.91,0,,,,,,,,,,,,,,,,,
89163,0,,,,,,,,0.3,-1.0,0.37,-58,93,-13,1.04,0,,,,,,,,,,,,,,,,,
89203,0,,,,,,,,0.62,-1.07,-0.08,-63,115,-13,1.23,0,,,,,,,,,,,,,,,,,
89243,0,2,3,42,56,40,35,90,0.88,-1.14,-0.45,-65,124,-11,1.44,0,0,0.0,0.0,0.0,0.0,0,0,0.0,0,0.0,-1,0.0,0.0,0.0,0,0.0,1.4874
89283,0,,,,,,,,0.95,-1.19,-0.74,-68,98,-10,1.52,0,,,,,,,,,,,,,,,,,
89323,0,,,,,,,,0.56,-1.18,-0.22,-70,63,-8,1.3,0,,,,,,,,,,,,,,,,,
89363,0,,,,,,,,0.44,-1.14,0.2,-72,58,-9,1.22,0,,,,,,,,,,,,,,,,,
89403,0,,,,,,,,0.59,-1.15,-0.22,-74,67,-8,1.3,0,,,,,,,,,,,,,,,,,
89443,0,3,2,42,55,41,36,93,0.34,-1.16,-0.1,-76,46,-7,1.21,0,0,0.0,0.0,0.0,0.0,0,0,0.0,0,0.0,-1,0.0,0.0,0.0,0,0.0,1.4907
89483,0,,,,,,,,0.02,-1.02,0.3,-77,27,-6,1.02,0,,,,,,,,,,,,,,,,,
89523,0,,,,,,,,0.11,-0.98,0.53,-77,41,-9,0.99,0,,,,,,,,,,,,,,,,,
89563,0,,,,,,,,0.42,-1.13,0.05,-78,57,-7,1.2,0,,,,,,,,,,,,,,,,,
89603,0,,,,,,,,0.26,-1.18,0.06,-79,42,-6,1.21,0,,,,,,,,,,,,,,,,,
89643,0,3,3,41,54,41,36,98,-0.06,-1.06,0.42,-80,18,-4,1.06,0,0,0.0,0.0,0.0,0.0,0,0,0.0,0,0.0,-1,0.0,0.0,0.0,0,0.0,1.4941
89683,0,,,,,,,,0.04,-1.1,0.51,-81,29,-6,1.1,0,,,,,,,,,,,,,,,,,
89723,0,,,,,,,,0.32,-1.13,0.03,-81,38,-6,1.17,0,,,,,,,,,,,,,,,,,
89763,0,,,,,,,,0.23,-1.15,-0.14,-82,28,-5,1.18,0,,,,,,,,,,,,,,,,,
89803,0,,,,,,,,-0.03,-1.13,0.26,-82,15,-4,1.13,0,,,,,,,,,,,,,,,,,
89843,0,2,4,42,55,41,36,100,0.08,-1.06,0.28,-82,28,-4,1.07,0,0,0.0,0.0,0.0,0.0,0,0,0.0,0,0.0,-1,0.0,0.0,0.0,0,0.0,1.4974
89883,0,,,,,,,,0.11,-1.16,-0.15,-82,19,-3,1.16,0,,,,,,,,,,,,,,,,,
89923,0,,,,,,,,-0.13,-1.12,0.26,-83,8,-3,1.13,0,,,,,,,,,,,,,,,,,
89963,0,,,,,,,,0.03,-1.08,0.19,-83,31,-4,1.08,0,,,,,,,,,,,,,,,,,
90003,0,,,,,,,,0.41,-1.1,-0.23,-84,35,-2,1.17,0,,,,,,,,,,,,,,,,,
90043,0,2,4,42,55,42,36,100,0.69,-1.11,-0.57,-84,20,-1,1.31,0,0,0.0,0.0,0.0,0.0,0,0,0.0,0,0.0,-1,0.0,0.0,0.0,0,0.0,1.5007
90083,0,,,,,,,,0.77,-1.11,-0.84,-84,-12,2,1.35,0,,,,,,,,,,,,,,,,,
90123,0,,,,,,,,0.51,-1.05,-0.54,-84,-48,4,1.16,0,,,,,,,,,,,,,,,,,
90163,0,,,,,,,,0.23,-0.99,-0.22,-84,-81,8,1.02,0,,,,,,,,,,,,,,,,,
90203,0,,,,,,,,0.4,-0.84,-0.41,-83,-91,9,0.93,0,,,,,,,,,,,,,,,,,
90243,0,3,4,44,54,39,36,77,0.49,-0.78,-0.65,-80,-93,9,0.92,0,0,0.0,0.0,0.0,0.0,0,0,0.0,0,0.0,-1,0.0,0.0,0.0,0,0.0,1.504
90283,0,,,,,,,,0.4,-0.71,-0.14,-77,-94,8,0.82,0,,,,,,,,,,,,,,,,,
90323,0,,,,,,,,0.34,-0.63,-0.0,-72,-75,6,0.71,0,,,,,,,,,,,,,,,,,
90363,0,,,,,,,,0.22,-0.54,0.38,-68,-61,4,0.58,0,,,,,,,,,,,,,,,,,
90403,0,,,,,,,,0.15,-0.41,0.27,-62,-49,3,0.44,0,,,,,,,,,,,,,,,,,
90443,0,2,4,46,53,34,37,29,0.09,-0.33,0.36,-56,-40,2,0.35,0,0,0.0,0.0,0.0,0.0,0,0,0.0,0,0.0,-1,0.0,0.0,0.0,0,0.0,1.5074
90483,0,,,,,,,,0.07,-0.24,0.2,-49,-32,3,0.25,0,,,,,,,,,,,,,,,,,
90523,0,,,,,,,,0.04,-0.12,0.51,-42,-29,3,0.12,0,,,,,,,,,,,,,,,,,
90563,0,,,,,,,,0.18,-0.02,0.22,-34,-17,3,0.18,0,,,,,,,,,,,,,,,,,
90603,0,,,,,,,,0.06,0.08,0.56,-27,-19,3,0.1,0,,,,,,,,,,,,,,,,,
90643,0,1,4,48,51,30,39,-21,0.21,0.2,0.6,-19,-6,2,0.29,0,0,0.0,0.0,0.0,0.0,0,0,0.0,0,0.0,-1,0.0,0.0,0.0,0,0.0,1.5107
90683,0,,,,,,,,0.17,0.22,0.45,-11,-9,3,0.28,0,,,,,,,,,,,,,,,,,
90723,0,,,,,,,,0.05,0.32,0.74,-4,-11,2,0.32,0,,,,,,,,,,,,,,,,,
90763,0,,,,,,,,0.15,0.46,0.78,4,-0,2,0.48,0,,,,,,,,,,,,,,,,,
90803,0,,,,,,,,0.35,0.44,0.25,12,15,3,0.56,0,,,,,,,,,,,,,,,,,
90843,0,2,1,52,48,32,41,-56,0.17,0.46,0.22,18,5,4,0.49,0,0,0.0,0.0,0.0,0.0,0,0,0.0,0,0.0,-1,0.0,0.0,0.0,0,0.0,1.514
90883,0,,,,,,,,-0.06,0.59,0.56,25,-10,4,0.6,0,,,,,,,,,,,,,,,,,
90923,0,,,,,,,,-0.11,0.72,0.83,31,-3,2,0.73,0,,,,,,,,,,,,,,,,,
90963,0,,,,,,,,0.2,0.68,0.64,37,15,3,0.71,0,,,,,,,,,,,,,,,,,
91003,0,,,,,,,,0.54,0.69,0.13,43,29,3,0.88,0,,,,,,,,,,,,,,,,,
91043,0,0,4,52,47,31,44,-75,0.82,0.62,-0.27,47,46,3,1.03,0,0,0.0,0.0,0.0,0.0,0,0,0.0,0,0.0,-1,0.0,0.0,0.0,0,0.0,1.5174
91083,0,,,,,,,,1.05,0.6,-0.6,52,63,2,1.21,0,,,,,,,,,,,,,,,,,
91123,0,,,,,,,,1.09,0.6,-0.63,56,80,1,1.24,0,,,,,,,,,,,,,,,,,
91163,0,,,,,,,,0.57,0.71,-0.14,60,76,0,0.92,0,,,,,,,,,,,,,,,,,
91203,0,,,,,,,,0.17,0.84,0.11,64,49,3,0.85,0,,,,,,,,,,,,,,,,,
91243,0,1,4,51,46,31,46,-90,0.4,0.87,0.12,68,37,5,0.95,0,0,0.0,0.0,0.0,0.0,0,0,0.0,0,0.0,-1,0.0,0.0,0.0,0,0.0,1.5207
91283,0,,,,,,,,0.44,0.92,0.27,72,47,2,1.03,0,,,,,,,,,,,,,,,,,
91323,0,,,,,,,,0.05,0.96,0.42,76,30,5,0.96,0,,,,,,,,,,,,,,,,,
91363,0,,,,,,,,0.26,1.02,0.54,79,29,5,1.06,0,,,,,,,,,,,,,,,,,
91403,0,,,,,,,,-0.03,1.06,0.69,83,25,4,1.06,0,,,,,,,,,,,,,,,,,
91443,0,1,3,52,45,33,47,-90,0.1,1.1,0.53,86,16,5,1.1,0,0,0.0,0.0,0.0,0.0,0,0,0.0,0,0.0,-1,0.0,0.0,0.0,0,0.0,1.524
91483,0,,,,,,,,-0.02,1.1,0.73,90,23,3,1.1,0,,,,,,,,,,,,,,,,,
91523,0,,,,,,,,-0.18,1.22,0.73,92,7,4,1.24,0,,,,,,,,,,,,,,,,,
91563,0,,,,,,,,0.07,1.12,0.61,93,18,3,1.12,0,,,,,,,,,,,,,,,,,
91603,0,,,,,,,,-0.1,1.12,0.87,94,27,0,1.12,0,,,,,,,,,,,,,,,,,
91643,0,2,4,52,45,34,46,-90,-0.46,1.16,1.08,95,14,1,1.25,0,0,0.0,0.0,0.0,0.0,0,0,0.0,0,0.0,-1,0.0,0.0,0.0,0,0.0,1.5274
91683,0,,,,,,,,-0.68,1.16,1.18,96,-9,3,1.35,0,,,,,,,,,,,,,,,,,
91723,0,,,,,,,,-0.71,1.14,0.89,97,-20,4,1.35,0,,,,,,,,,,,,,,,,,
91763,0,,,,,,,,-0.8,1.03,0.78,98,-32,6,1.31,0,,,,,,,,,,,,,,,,,
91803,0,,,,,,,,-1.02,1.04,1.01,97,-51,7,1.46,0,,,,,,,,,,,,,,,,,
91843,0,1,4,53,44,35,45,-90,-1.21,1.05,1.2,97,-68,8,1.6,0,0,0.0,0.0,0.0,0.0,0,0,0.0,0,0.0,-1,0.0,0.0,0.0,0,0.0,1.5307
91883,0,,,,,,,,-1.22,0.97,1.35,96,-61,7,1.55,0,,,,,,,,,,,,,,,,,
91923,0,,,,,,,,-0.92,0.96,1.36,95,-36,5,1.33,0,,,,,,,,,,,,,,,,,
91963,0,,,,,,,,-0.49,0.9,0.72,94,-8,4,1.03,0,,,,,,,,,,,,,,,,,
92003,0,,,,,,,,-0.37,0.87,0.2,93,-2,5,0.94,0,,,,,,,,,,,,,,,,,
92043,0,3,3,52,44,34,47,-90,-0.41,1.0,-0.03,92,-17,5,1.08,0,0,0.0,0.0,0.0,0.0,0,0,0.0,0,0.0,-1,0.0,0.0,0.0,0,0.0,1.534
92083,0,,,,,,,,-0.68,1.07,0.35,92,-40,6,1.26,0,,,,,,,,,,,,,,,,,
92123,0,,,,,,,,-0.93,1.08,0.67,92,-53,6,1.42,0,,,,,,,,,,,,,,,,,
92163,0,,,,,,,,-1.01,1.12,0.92,92,-41,6,1.51,0,,,,,,,,,,,,,,,,,
92203,0,,,,,,,,-0.85,1.07,0.67,91,-23,6,1.37,0,,,,,,,,,,,,,,,,,
92243,0,2,4,52,45,33,46,-86,-0.75,0.99,0.59,90,-26,5,1.24,0,0,0.0,0.0,0.0,0.0,0,0,0.0,0,0.0,-1,0.0,0.0,0.0,0,0.0,1.5374
92283,0,,,,,,,,-0.53,0.96,0.78,88,-20,5,1.1,0,,,,,,,,,,,,,,,,,
92323,0,,,,,,,,-0.46,0.88,0.65,86,-17,3,0.99,0,,,,,,,,,,,,,,,,,
92363,0,,,,,,,,-0.34,0.9,0.44,83,-9,4,0.96,0,,,,,,,,,,,,,,,,,
92403,0,,,,,,,,-0.29,0.83,0.5,80,-6,3,0.88,0,,,,,,,,,,,,,,,,,
92443,0,2,4,50,49,32,43,-67,-0.28,0.79,0.25,77,-7,4,0.84,0,0,0.0,0.0,0.0,0.0,0,0,0.0,0,0.0,-1,0.0,0.0,0.0,0,0.0,1.5407
92483,0,,,,,,,,-0.18,0.77,0.39,73,-6,4,0.79,0,,,,,,,,,,,,,,,,,
92523,0,,,,,,,,-0.18,0.64,0.4,69,-10,4,0.67,0,,,,,,,,,,,,,,,,,
92563,0,,,,,,,,-0.09,0.55,0.33,65,-6,4,0.56,0,,,,,,,,,,,,,,,,,
92603,0,,,,,,,,-0.08,0.47,0.48,60,-4,3,0.48,0,,,,,,,,,,,,,,,,,
92643,0,1,3,50,51,33,39,-30,-0.04,0.37,0.64,55,-3,2,0.37,0,0,0.0,0.0,0.0,0.0,0,0,0.0,0,0.0,-1,0.0,0.0,0.0,0,0.0,1.544
92683,0,,,,,,,,-0.04,0.27,0.77,49,-2,2,0.27,0,,,,,,,,,,,,,,,,,
92723,0,,,,,,,,-0.03,0.17,0.92,43,-1,1,0.17,0,,,,,,,,,,,,,,,,,
92763,0,,,,,,,,-0.05,0.08,0.82,37,-3,1,0.1,0,,,,,,,,,,,,,,,,,
92803,0,,,,,,,,0.13,-0.01,0.39,30,8,-0,0.13,0,,,,,,,,,,,,,,,,,
92843,0,2,2,46,53,34,38,17,0.08,-0.17,0.34,24,-2,-0,0.18,0,0,0.0,0.0,0.0,0.0,0,0,0.0,0,0.0,-1,0.0,0.0,0.0,0,0.0,1.5474
92883,0,,,,,,,,0.08,-0.26,0.59,17,-4,-2,0.27,0,,,,,,,,,,,,,,,,,
92923,0,,,,,,,,0.04,-0.37,0.5,10,-8,-2,0.38,0,,,,,,,,,,,,,,,,,
92963,0,,,,,,,,0.11,-0.42,0.32,3,-6,-1,0.43,0,,,,,,,,,,,,,,,,,
93003,0,,,,,,,,-0.03,-0.5,0.45,-5,-15,-0,0.5,0,,,,,,,,,,,,,,,,,
93043,0,2,4,45,54,36,35,60,0.08,-0.54,0.15,-11,-4,-1,0.54,0,0,0.0,0.0,0.0,0.0,0,0,0.0,0,0.0,-1,0.0,0.0,0.0,0,0.0,1.5507
93083,0,,,,,,,,-0.08,-0.65,0.26,-18,-9,-2,0.65,0,,,,,,,,,,,,,,,,,
93123,0,,,,,,,,-0.06,-0.66,0.5,-24,-8,-2,0.67,0,,,,,,,,,,,,,,,,,
93163,0,,,,,,,,0.1,-0.76,0.27,-30,-2,-1,0.77,0,,,,,,,,,,,,,,,,,
93203,0,,,,,,,,-0.08,-0.82,0.5,-35,-7,-1,0.83,0,,,,,,,,,,,,,,,,,
93243,0,2,1,44,55,37,35,78,0.02,-0.8,0.5,-40,7,-2,0.8,0,0,0.0,0.0,0.0,0.0,0,0,0.0,0,0.0,-1,0.0,0.0,0.0,0,0.0,1.554
93283,0,,,,,,,,0.12,-0.92,0.15,-45,1,-3,0.93,0,,,,,,,,,,,,,,,,,
93323,0,,,,,,,,-0.12,-0.87,0.5,-49,-11,-2,0.88,0,,,,,,,,,,,,,,,,,
93363,0,,,,,,,,0.0,-0.9,0.66,-54,10,-4,0.9,0,,,,,,,,,,,,,,,,,
93403,0,,,,,,,,0.18,-0.98,0.15,-58,6,-4,0.99,0,,,,,,,,,,,,,,,,,
93443,0,3,3,42,54,40,35,100,-0.17,-1.06,0.5,-62,-18,-3,1.08,0,0,0.0,0.0,0.0,0.0,0,0,0.0,0,0.0,-1,0.0,0.0,0.0,0,0.0,1.5574
93483,0,,,,,,,,-0.52,-1.01,0.79,-66,-27,-2,1.13,0,,,,,,,,,,,,,,,,,
93523,0,,,,,,,,-0.8,-1.01,1.02,-70,-4,-6,1.29,0,,,,,,,,,,,,,,,,,
93563,0,,,,,,,,-1.03,-0.93,1.2,-72,16,-10,1.39,0,,,,,,,,,,,,,,,,,
93603,0,,,,,,,,-1.21,-0.92,1.35,-76,7,-9,1.52,0,,,,,,,,,,,,,,,,,
93643,0,4,2,42,56,41,37,100,-1.36,-0.95,1.48,-78,-20,-5,1.66,0,0,0.0,0.0,0.0,0.0,0,0,0.0,0,0.0,-1,0.0,0.0,0.0,0,0.0,1.5607
93683,0,,,,,,,,-1.48,-1.08,1.57,-80,-57,-1,1.83,0,,,,,,,,,,,,,,,,,
93723,0,,,,,,,,-1.58,-1.13,1.66,-82,-86,2,1.94,0,,,,,,,,,,,,,,,,,
93763,0,,,,,,,,-1.66,-1.14,1.72,-84,-110,6,2.01,0,,,,,,,,,,,,,,,,,
93803,0,,,,,,,,-1.72,-1.12,1.77,-84,-127,6,2.06,0,,,,,,,,,,,,,,,,,
93843,0,4,2,41,56,41,36,100,-1.78,-1.18,1.82,-85,-127,5,2.13,0,0,0.0,0.0,0.0,0.0,0,0,0.0,0,0.0,-1,0.0,0.0,0.0,0,0.0,1.564
93883,0,,,,,,,,-1.82,-1.14,1.85,-87,-127,4,2.15,0,,,,,,,,,,,,,,,,,
93923,0,,,,,,,,-1.85,-1.08,1.88,-88,-120,2,2.14,0,,,,,,,,,,,,,,,,,
93963,0,,,,,,,,-1.88,-1.15,1.9,-88,-132,5,2.21,0,,,,,,,,,,,,,,,,,
94003,0,,,,,,,,-1.9,-1.06,1.92,-88,-144,6,2.18,0,,,,,,,,,,,,,,,,,
94043,0,4,3,41,55,42,36,100,-1.92,-1.08,1.93,-89,-156,9,2.2,0,0,0.0,0.0,0.0,0.0,0,0,0.0,0,0.0,-1,0.0,0.0,0.0,0,0.0,1.5674
94083,0,,,,,,,,-1.94,-1.06,1.95,-89,-174,11,2.21,0,,,,,,,,,,,,,,,,,
94123,0,,,,,,,,-1.95,-1.07,1.96,-89,-175,12,2.22,0,,,,,,,,,,,,,,,,,
94163,0,,,,,,,,-1.96,-1.03,1.96,-89,-166,10,2.21,0,,,,,,,,,,,,,,,,,
94203,0,,,,,,,,-1.97,-0.95,1.97,-88,-156,7,2.18,0,,,,,,,,,,,,,,,,,
94243,0,3,5,43,56,41,36,100,-1.86,-0.88,1.97,-87,-126,5,2.06,0,0,0.0,0.0,0.0,0.0,0,0,0.0,0,0.0,-1,0.0,0.0,0.0,0,0.0,1.5707
94283,0,,,,,,,,-1.36,-0.93,1.8,-86,-76,2,1.65,0,,,,,,,,,,,,,,,,,
94323,0,,,,,,,,-0.76,-0.99,1.08,-87,-53,2,1.25,0,,,,,,,,,,,,,,,,,
94363,0,,,,,,,,-0.26,-1.04,0.49,-87,-63,3,1.07,0,,,,,,,,,,,,,,,,,
94403,0,,,,,,,,-0.13,-1.09,0.12,-87,-89,5,1.1,0,,,,,,,,,,,,,,,,,
94443,0,4,2,43,54,42,37,100,-0.33,-1.01,0.48,-88,-117,7,1.06,0,0,0.0,0.0,0.0,0.0,0,0,0.0,0,0.0,-1,0.0,0.0,0.0,0,0.0,1.574
94483,0,,,,,,,,-0.14,-0.9,0.33,-88,-123,9,0.91,0,,,,,,,,,,,,,,,,,
94523,0,,,,,,,,0.27,-1.01,-0.11,-89,-103,8,1.04,0,,,,,,,,,,,,,,,,,
94563,0,,,,,,,,0.6,-1.02,-0.47,-89,-68,5,1.18,0,,,,,,,,,,,,,,,,,
94603,0,,,,,,,,0.87,-1.17,-0.76,-90,-28,2,1.45,0,,,,,,,,,,,,,,,,,
94643,0,3,5,43,56,42,37,100,1.08,-1.18,-1.0,-91,13,-3,1.6,0,0,0.0,0.0,0.0,0.0,0,0,0.0,0,0.0,-1,0.0,0.0,0.0,0,0.0,1.5774
94683,0,,,,,,,,1.06,-1.17,-0.96,-91,46,-8,1.58,0,,,,,,,,,,,,,,,,,
94723,0,,,,,,,,0.48,-1.19,-0.5,-91,31,-7,1.28,0,,,,,,,,,,,,,,,,,
94763,0,,,,,,,,0.53,-1.12,-0.32,-90,19,-5,1.24,0,,,,,,,,,,,,,,,,,
94803,0,,,,,,,,0.41,-1.07,-0.03,-91,29,-7,1.15,0,,,,,,,,,,,,,,,,,
94843,0,2,4,43,56,40,36,100,0.23,-1.09,0.19,-91,20,-6,1.11,0,0,0.0,0.0,0.0,0.0,0,0,0.0,0,0.0,-1,0.0,0.0,0.0,0,0.0,1.5807
94883,0,,,,,,,,0.23,-1.04,0.31,-91,18,-5,1.06,0,,,,,,,,,,,,,,,,,
94923,0,,,,,,,,0.02,-1.11,-0.03,-93,9,-3,1.11,0,,,,,,,,,,,,,,,,,
94963,0,,,,,,,,0.16,-1.06,0.36,-97,14,-8,1.08,0,,,,,,,,,,,,,,,,,
95003,0,,,,,,,,0.25,-0.89,0.39,-100,2,-3,0.93,0,,,,,,,,,,,,,,,,,
95043,0,4,2,45,57,38,34,100,-0.09,-1.08,-0.07,-103,-7,3,1.09,0,0,0.0,0.0,0.0,0.0,0,0,0.0,0,0.0,-1,0.0,0.0,0.0,0,0.0,1.584
95083,0,,,,,,,,-0.29,-1.19,-0.44,-107,-23,11,1.22,0,,,,,,,,,,,,,,,,,
95123,0,,,,,,,,-0.29,-1.06,-0.37,-113,-24,6,1.1,0,,,,,,,,,,,,,,,,,
95163,0,,,,,,,,-0.26,-1.05,-0.32,-117,-25,7,1.08,0,,,,,,,,,,,,,,,,,
95203,0,,,,,,,,-0.12,-0.94,-0.04,-124,-13,-1,0.95,0,,,,,,,,,,,,,,,,,
95243,0,9,6,45,55,37,34,47,-0.27,-0.94,-0.01,-130,-10,-3,0.98,0,0,0.0,0.0,0.0,0.0,0,0,0.0,0,0.0,-1,0.0,0.0,0.0,0,0.0,1.5874
95283,0,,,,,,,,-0.29,-0.75,-0.06,-135,-13,7,0.8,0,,,,,,,,,,,,,,,,,
95323,0,,,,,,,,-0.02,-0.72,0.03,-137,8,-7,0.72,0,,,,,,,,,,,,,,,,,
95363,0,,,,,,,,-0.15,-0.46,-0.36,-136,-8,9,0.48,0,,,,,,,,,,,,,,,,,
95403,0,,,,,,,,0.11,-0.54,0.09,-132,13,-10,0.55,0,,,,,,,,,,,,,,,,,
95443,0,3,3,46,49,35,34,-70,0.23,-0.48,0.05,-126,-14,6,0.53,0,0,0.0,0.0,0.0,0.0,0,0,0.0,0,0.0,-1,0.0,0.0,0.0,0,0.0,1.5907
95483,0,,,,,,,,-0.02,-0.43,-0.34,-120,-5,-2,0.43,0,,,,,,,,,,,,,,,,,
95523,0,,,,,,,,0.25,-0.45,0.11,-112,11,-8,0.52,0,,,,,,,,,,,,,,,,,
95563,0,,,,,,,,0.45,-0.49,0.47,-103,12,-7,0.67,0,,,,,,,,,,,,,,,,,
95603,0,,,,,,,,0.37,-0.54,0.15,-95,6,-5,0.65,0,,,,,,,,,,,,,,,,,
95643,0,1,3,46,54,32,32,-90,0.43,-0.52,0.1,-89,2,-3,0.67,0,0,0.0,0.0,0.0,0.0,0,0,0.0,0,0.0,-1,0.0,0.0,0.0,0,0.0,1.594
95683,0,,,,,,,,0.43,-0.43,0.1,-83,-2,-6,0.61,0,,,,,,,,,,,,,,,,,
95723,0,,,,,,,,0.36,-0.49,0.4,-78,-2,-9,0.6,0,,,,,,,,,,,,,,,,,
95763,0,,,,,,,,0.2,-0.45,-0.06,-75,-6,-2,0.49,0,,,,,,,,,,,,,,,,,
95803,0,,,,,,,,0.44,-0.5,0.33,-71,-6,-3,0.67,0,,,,,,,,,,,,,,,,,
95843,0,0,3,47,56,31,31,-90,0.51,-0.57,0.6,-69,-1,-7,0.76,0,0,0.0,0.0,0.0,0.0,0,0,0.0,0,0.0,-1,0.0,0.0,0.0,0,0.0,1.5974
95883,0,,,,,,,,0.63,-0.69,0.51,-67,4,-8,0.94,0,,,,,,,,,,,,,,,,,
95923,0,,,,,,,,0.64,-0.73,0.43,-65,1,-2,0.98,0,,,,,,,,,,,,,,,,,
95963,0,,,,,,,,0.7,-0.61,0.33,-64,-7,5,0.93,0,,,,,,,,,,,,,,,,,
96003,0,,,,,,,,0.59,-0.58,0.28,-62,-9,6,0.83,0,,,,,,,,,,,,,,,,,
96043,0,2,4,46,54,33,32,-90,0.82,-0.5,0.61,-59,10,-5,0.97,0,0,0.0,0.0,0.0,0.0,0,0,0.0,0,0.0,-1,0.0,0.0,0.0,0,0.0,1.6007
96083,0,,,,,,,,0.78,-0.6,0.61,-56,12,-5,0.99,0,,,,,,,,,,,,,,,,,
96123,0,,,,,,,,0.74,-0.58,0.6,-52,3,-3,0.94,0,,,,,,,,,,,,,,,,,
96163,0,,,,,,,,0.98,-0.69,0.11,-47,22,-4,1.2,0,,,,,,,,,,,,,,,,,
96203,0,,,,,,,,1.18,-0.69,-0.29,-40,56,-7,1.36,0,,,,,,,,,,,,,,,,,
96243,0,2,4,44,55,35,33,-90,1.04,-0.59,-0.02,-33,73,-11,1.2,0,0,0.0,0.0,0.0,0.0,0,0,0.0,0,0.0,-1,0.0,0.0,0.0,0,0.0,1.604
96283,0,,,,,,,,0.82,-0.48,0.36,-24,78,-14,0.95,0,,,,,,,,,,,,,,,,,
96323,0,,,,,,,,0.94,-0.49,0.51,-14,97,-16,1.06,0,,,,,,,,,,,,,,,,,
96363,0,,,,,,,,1.14,-0.53,0.03,-3,108,-13,1.26,0,,,,,,,,,,,,,,,,,
96403,0,,,,,,,,1.18,-0.62,-0.35,9,94,-9,1.33,0,,,,,,,,,,,,,,,,,
96443,0,1,3,45,52,35,32,-71,0.83,-0.52,0.09,22,58,-7,0.98,0,0,0.0,0.0,0.0,0.0,0,0,0.0,0,0.0,-1,0.0,0.0,0.0,0,0.0,1.6074
96483,0,,,,,,,,0.7,-0.43,0.21,32,44,-2,0.82,0,,,,,,,,,,,,,,,,,
96523,0,,,,,,,,0.39,-0.4,0.41,36,33,-1,0.56,0,,,,,,,,,,,,,,,,,
96563,0,,,,,,,,0.03,-0.4,0.71,36,25,-3,0.4,0,,,,,,,,,,,,,,,,,
96603,0,,,,,,,,-0.36,-0.39,0.96,33,16,-4,0.53,0,,,,,,,,,,,,,,,,,
96643,0,2,4,48,53,33,34,6,-0.67,-0.45,1.16,27,-8,-3,0.81,0,0,0.0,0.0,0.0,0.0,0,0,0.0,0,0.0,-1,0.0,0.0,0.0,0,0.0,1.6107
96683,0,,,,,,,,-0.92,-0.43,1.32,21,-39,-0,1.02,0,,,,,,,,,,,,,,,,,
96723,0,,,,,,,,-1.13,-0.42,1.44,15,-71,4,1.2,0,,,,,,,,,,,,,,,,,
96763,0,,,,,,,,-1.29,-0.36,1.55,9,-99,6,1.34,0,,,,,,,,,,,,,,,,,
96803,0,,,,,,,,-1.25,-0.25,1.63,4,-125,11,1.28,0,,,,,,,,,,,,,,,,,
96843,0,2,5,47,54,33,35,20,-0.77,-0.23,1.65,1,-104,9,0.8,0,0,0.0,0.0,0.0,0.0,0,0,0.0,0,0.0,-1,0.0,0.0,0.0,0,0.0,1.614
96883,0,,,,,,,,-0.9,-0.27,1.59,-1,-87,7,0.94,0,,,,,,,,,,,,,,,,,
96923,0,,,,,,,,-0.57,-0.2,1.61,-4,-80,7,0.61,0,,,,,,,,,,,,,,,,,
96963,0,,,,,,,,-0.53,-0.24,1.4,-6,-65,6,0.58,0,,,,,,,,,,,,,,,,,
97003,0,,,,,,,,-0.3,-0.23,1.18,-7,-49,5,0.37,0,,,,,,,,,,,,,,,,,
97043,0,1,3,47,54,32,35,20,-0.46,-0.27,1.09,-8,-51,6,0.54,0,0,0.0,0.0,0.0,0.0,0,0,0.0,0,0.0,-1,0.0,0.0,0.0,0,0.0,1.6174
97083,0,,,,,,,,-0.16,-0.24,0.84,-10,-56,7,0.29,0,,,,,,,,,,,,,,,,,
97123,0,,,,,,,,0.0,-0.35,0.43,-11,-37,5,0.35,0,,,,,,,,,,,,,,,,,
97163,0,,,,,,,,-0.01,-0.32,0.43,-12,-33,5,0.32,0,,,,,,,,,,,,,,,,,
97203,0,,,,,,,,0.01,-0.32,0.65,-13,-27,3,0.32,0,,,,,,,,,,,,,,,,,
97243,0,0,3,46,52,33,35,19,0.13,-0.3,0.73,-13,-24,3,0.33,0,0,0.0,0.0,0.0,0.0,0,0,0.0,0,0.0,-1,0.0,0.0,0.0,0,0.0,1.6207
97283,0,,,,,,,,-0.13,-0.33,0.65,-13,-21,3,0.35,0,,,,,,,,,,,,,,,,,
97323,0,,,,,,,,0.05,-0.25,0.77,-13,-24,4,0.25,0,,,,,,,,,,,,,,,,,
97363,0,,,,,,,,0.04,-0.24,0.53,-12,-9,1,0.24,0,,,,,,,,,,,,,,,,,
97403,0,,,,,,,,0.13,-0.24,0.7,-12,-7,2,0.27,0,,,,,,,,,,,,,,,,,
97443,0,-0,4,46,51,33,37,10,0.2,-0.18,0.73,-10,-6,1,0.27,0,0,0.0,0.0,0.0,0.0,0,0,0.0,0,0.0,-1,0.0,0.0,0.0,0,0.0,1.624
97483,0,,,,,,,,0.21,-0.17,0.71,-10,-7,1,0.27,0,,,,,,,,,,,,,,,,,
97523,0,,,,,,,,0.01,-0.18,0.67,-9,-9,2,0.18,0,,,,,,,,,,,,,,,,,
97563,0,,,,,,,,0.21,-0.15,0.58,-8,-3,1,0.26,0,,,,,,,,,,,,,,,,,
97603,0,,,,,,,,0.15,-0.16,0.66,-8,11,-2,0.22,0,,,,,,,,,,,,,,,,,
97643,0,1,1,45,51,35,37,9,0.08,-0.12,0.75,-7,-0,0,0.14,0,0,0.0,0.0,0.0,0.0,0,0,0.0,0,0.0,-1,0.0,0.0,0.0,0,0.0,1.6274
97683,0,,,,,,,,-0.0,-0.17,0.59,-7,6,-1,0.17,0,,,,,,,,,,,,,,,,,
97723,0,,,,,,,,0.11,-0.17,0.84,-7,7,-2,0.2,0,,,,,,,,,,,,,,,,,
97763,0,,,,,,,,0.18,-0.1,0.81,-7,2,-1,0.21,0,,,,,,,,,,,,,,,,,
97803,0,,,,,,,,0.06,-0.1,0.79,-6,-0,-0,0.12,0,,,,,,,,,,,,,,,,,
97843,0,2,4,45,51,35,37,10,0.15,-0.14,0.87,-6,8,-2,0.21,0,0,0.0,0.0,0.0,0.0,0,0,0.0,0,0.0,-1,0.0,0.0,0.0,0,0.0,1.6307
97883,0,,,,,,,,-0.26,-0.15,1.01,-6,-4,-0,0.3,0,,,,,,,,,,,,,,,,,
97923,0,,,,,,,,-0.23,-0.1,1.07,-6,-39,5,0.25,0,,,,,,,,,,,,,,,,,
97963,0,,,,,,,,0.19,-0.1,0.52,-5,-40,5,0.22,0,,,,,,,,,,,,,,,,,
98003,0,,,,,,,,0.54,-0.14,0.04,-5,-5,2,0.55,0,,,,,,,,,,,,,,,,,
98043,0,1,4,46,49,35,37,4,0.81,-0.15,-0.34,-4,36,-1,0.83,0,0,0.0,0.0,0.0,0.0,0,0,0.0,0,0.0,-1,0.0,0.0,0.0,0,0.0,1.634
98083,0,,,,,,,,1.04,-0.16,-0.66,-4,67,-3,1.05,0,,,,,,,,,,,,,,,,,
98123,0,,,,,,,,1.05,-0.18,-0.92,-3,88,-6,1.07,0,,,,,,,,,,,,,,,,,
98163,0,,,,,,,,0.81,-0.14,-0.85,-3,68,-4,0.82,0,,,,,,,,,,,,,,,,,
98203,0,,,,,,,,1.04,-0.09,-0.97,-2,57,-2,1.04,0,,,,,,,,,,,,,,,,,
98243,0,2,4,45,50,35,38,5,1.22,-0.19,-1.16,-2,70,-3,1.23,0,0,0.0,0.0,0.0,0.0,0,0,0.0,0,0.0,-1,0.0,0.0,0.0,0,0.0,1.6374
98283,0,,,,,,,,1.37,-0.25,-1.32,-2,99,-6,1.39,0,,,,,,,,,,,,,,,,,
98323,0,,,,,,,,1.49,-0.29,-1.45,-2,122,-8,1.52,0,,,,,,,,,,,,,,,,,
98363,0,,,,,,,,1.59,-0.29,-1.56,-3,140,-12,1.61,0,,,,,,,,,,,,,,,,,
98403,0,,,,,,,,1.57,-0.3,-1.41,-5,150,-15,1.6,0,,,,,,,,,,,,,,,,,
98443,0,5,5,44,50,36,37,22,1.64,-0.31,-1.4,-6,159,-16,1.67,0,0,0.0,0.0,0.0,0.0,0,0,0.0,0,0.0,-1,0.0,0.0,0.0,0,0.0,1.6407
98483,0,,,,,,,,1.71,-0.32,-1.51,-8,158,-14,1.74,0,,,,,,,,,,,,,,,,,
98523,0,,,,,,,,1.42,-0.38,-1.21,-10,127,-11,1.47,0,,,,,,,,,,,,,,,,,
98563,0,,,,,,,,1.01,-0.32,-0.6,-13,94,-9,1.06,0,,,,,,,,,,,,,,,,,
98603,0,,,,,,,,0.91,-0.37,-0.65,-15,84,-7,0.98,0,,,,,,,,,,,,,,,,,
98643,0,3,3,43,50,36,37,41,0.56,-0.43,-0.14,-18,58,-7,0.71,0,0,0.0,0.0,0.0,0.0,0,0,0.0,0,0.0,-1,0.0,0.0,0.0,0,0.0,1.644
98683,0,,,,,,,,0.42,-0.44,0.24,-20,51,-6,0.61,0,,,,,,,,,,,,,,,,,
98723,0,,,,,,,,0.37,-0.48,0.01,-23,46,-4,0.6,0,,,,,,,,,,,,,,,,,
98763,0,,,,,,,,0.22,-0.44,0.39,-25,31,-3,0.49,0,,,,,,,,,,,,,,,,,
98803,0,,,,,,,,0.08,-0.48,0.21,-27,25,-1,0.49,0,,,,,,,,,,,,,,,,,
98843,0,4,5,42,52,36,38,53,-0.07,-0.46,0.51,-30,15,-1,0.47,0,0,0.0,0.0,0.0,0.0,0,0,0.0,0,0.0,-1,0.0,0.0,0.0,0,0.0,1.6474
98883,0,,,,,,,,-0.21,-0.45,0.32,-32,11,-1,0.5,0,,,,,,,,,,,,,,,,,
98923,0,,,,,,,,-0.27,-0.45,0.24,-34,10,-0,0.52,0,,,,,,,,,,,,,,,,,
98963,0,,,,,,,,-0.34,-0.47,0.4,-36,7,0,0.58,0,,,,,,,,,,,,,,,,,
99003,0,,,,,,,,-0.35,-0.52,0.53,-38,4,-0,0.63,0,,,,,,,,,,,,,,,,,
99043,0,4,4,42,54,36,37,67,-0.34,-0.54,0.55,-40,5,-1,0.64,0,0,0.0,0.0,0.0,0.0,0,0,0.0,0,0.0,-1,0.0,0.0,0.0,0,0.0,1.6507
99083,0,,,,,,,,-0.32,-0.54,0.63,-42,4,-0,0.63,0,,,,,,,,,,,,,,,,,
99123,0,,,,,,,,-0.3,-0.57,0.68,-44,3,-0,0.64,0,,,,,,,,,,,,,,,,,
99163,0,,,,,,,,-0.36,-0.55,0.69,-46,4,-0,0.66,0,,,,,,,,,,,,,,,,,
99203,0,,,,,,,,-0.35,-0.56,0.91,-48,2,-1,0.66,0,,,,,,,,,,,,,,,,,
99243,0,2,4,42,53,38,38,82,-0.39,-0.62,0.88,-50,3,-2,0.74,0,0,0.0,0.0,0.0,0.0,0,0,0.0,0,0.0,-1,0.0,0.0,0.0,0,0.0,1.654
99283,0,,,,,,,,-0.33,-0.67,0.64,-51,3,-1,0.75,0,,,,,,,,,,,,,,,,,
99323,0,,,,,,,,-0.44,-0.7,0.9,-53,-6,-2,0.83,0,,,,,,,,,,,,,,,,,
99363,0,,,,,,,,-0.38,-0.77,0.71,-55,0,-2,0.86,0,,,,,,,,,,,,,,,,,
99403,0,,,,,,,,-0.25,-0.78,0.65,-57,3,-4,0.82,0,,,,,,,,,,,,,,,,,
99443,0,3,3,44,52,38,35,90,-0.23,-0.77,0.85,-58,3,-5,0.8,0,0,0.0,0.0,0.0,0.0,0,0,0.0,0,0.0,-1,0.0,0.0,0.0,0,0.0,1.6574
99483,0,,,,,,,,-0.21,-0.75,0.94,-60,3,-5,0.78,0,,,,,,,,,,,,,,,,,
99523,0,,,,,,,,-0.23,-0.72,1.08,-61,1,-4,0.76,0,,,,,,,,,,,,,,,,,
99563,0,,,,,,,,-0.14,-0.75,0.94,-62,5,-4,0.77,0,,,,,,,,,,,,,,,,,
99603,0,,,,,,,,-0.09,-0.75,0.89,-63,2,-3,0.76,0,,,,,,,,,,,,,,,,,
99643,0,1,5,43,55,36,35,93,-0.11,-0.73,0.77,-64,-1,-2,0.73,0,0,0.0,0.0,0.0,0.0,0,0,0.0,0,0.0,-1,0.0,0.0,0.0,0,0.0,1.6607
99683,0,,,,,,,,-0.12,-0.7,0.59,-65,0,-2,0.71,0,,,,,,,,,,,,,,,,,
99723,0,,,,,,,,-0.12,-0.77,0.49,-66,2,-3,0.78,0,,,,,,,,,,,,,,,,,
99763,0,,,,,,,,-0.14,-0.74,0.5,-68,1,-4,0.75,0,,,,,,,,,,,,,,,,,
99803,0,,,,,,,,-0.14,-0.66,0.43,-70,1,-3,0.67,0,,,,,,,,,,,,,,,,,
99843,0,4,3,42,54,39,35,100,-0.24,-0.67,0.43,-71,-6,-3,0.71,0,0,0.0,0.0,0.0,0.0,0,0,0.0,0,0.0,-1,0.0,0.0,0.0,0,0.0,1.664
99883,0,,,,,,,,-0.16,-0.64,0.52,-72,4,-4,0.66,0,,,,,,,,,,,,,,,,,
99923,0,,,,,,,,-0.15,-0.7,0.44,-73,-2,-5,0.72,0,,,,,,,,,,,,,,,,,
99963,0,,,,,,,,-0.19,-0.74,0.65,-75,-1,-4,0.77,0,,,,,,,,,,,,,,,,,
100003,0,,,,,,,,-0.11,-0.81,0.21,-75,-5,-4,0.82,0,,,,,,,,,,,,,,,,,
100043,0,2,5,43,54,40,36,99,-0.37,-0.81,0.55,-77,-11,-5,0.89,0,0,0.0,0.0,0.0,0.0,0,0,0.0,0,0.0,-1,0.0,0.0,0.0,0,0.0,1.6674
100083,0,,,,,,,,-0.18,-0.77,0.64,-77,13,-6,0.79,0,,,,,,,,,,,,,,,,,
100123,0,,,,,,,,-0.08,-0.89,0.33,-78,6,-6,0.89,0,,,,,,,,,,,,,,,,,
100163,0,,,,,,,,-0.35,-0.89,0.65,-79,4,-5,0.95,0,,,,,,,,,,,,,,,,,
100203,0,,,,,,,,-0.0,-0.94,0.44,-80,15,-4,0.94,0,,,,,,,,,,,,,,,,,
100243,0,3,5,43,55,40,36,100,-0.01,-1.04,0.24,-81,-11,-2,1.04,0,0,0.0,0.0,0.0,0.0,0,0,0.0,0,0.0,-1,0.0,0.0,0.0,0,0.0,1.6707
100283,0,,,,,,,,-0.39,-1.08,0.57,-82,-54,1,1.15,0,,,,,,,,,,,,,,,,,
100323,0,,,,,,,,-0.7,-1.02,0.84,-83,-78,4,1.23,0,,,,,,,,,,,,,,,,,
100363,0,,,,,,,,-0.94,-1.02,1.06,-84,-91,4,1.39,0,,,,,,,,,,,,,,,,,
100403,0,,,,,,,,-1.14,-1.06,1.24,-84,-90,2,1.56,0,,,,,,,,,,,,,,,,,
100443,0,3,4,42,56,39,36,100,-1.3,-1.05,1.38,-85,-59,-1,1.67,0,0,0.0,0.0,0.0,0.0,0,0,0.0,0,0.0,-1,0.0,0.0,0.0,0,0.0,1.674
100483,0,,,,,,,,-0.83,-1.03,1.1,-85,-7,-5,1.32,0,,,,,,,,,,,,,,,,,
100523,0,,,,,,,,-0.29,-1.05,0.51,-86,30,-6,1.09,0,,,,,,,,,,,,,,,,,
100563,0,,,,,,,,0.15,-1.1,0.03,-85,42,-4,1.11,0,,,,,,,,,,,,,,,,,
100603,0,,,,,,,,0.5,-1.1,-0.35,-84,35,-2,1.2,0,,,,,,,,,,,,,,,,,
100643,0,4,5,41,56,40,36,100,0.78,-1.1,-0.67,-85,16,0,1.35,0,0,0.0,0.0,0.0,0.0,0,0,0.0,0,0.0,-1,0.0,0.0,0.0,0,0.0,1.6774
100683,0,,,,,,,,1.01,-1.05,-0.92,-85,18,-2,1.45,0,,,,,,,,,,,,,,,,,
100723,0,,,,,,,,1.2,-1.0,-1.13,-85,47,-5,1.56,0,,,,,,,,,,,,,,,,,
100763,0,,,,,,,,1.35,-1.07,-1.29,-86,83,-9,1.72,0,,,,,,,,,,,,,,,,,
100803,0,,,,,,,,1.47,-1.12,-1.43,-85,108,-10,1.85,0,,,,,,,,,,,,,,,,,
100843,0,4,3,42,55,41,36,100,1.57,-1.09,-1.54,-86,114,-10,1.92,0,0,0.0,0.0,0.0,0.0,0,0,0.0,0,0.0,-1,0.0,0.0,0.0,0,0.0,1.6807
100883,0,,,,,,,,1.66,-1.1,-1.63,-87,115,-10,1.99,0,,,,,,,,,,,,,,,,,
100923,0,,,,,,,,1.5,-1.09,-1.28,-86,117,-14,1.85,0,,,,,,,,,,,,,,,,,
100963,0,,,,,,,,0.83,-1.09,-0.65,-86,83,-12,1.37,0,,,,,,,,,,,,,,,,,
101003,0,,,,,,,,0.29,-1.07,-0.15,-87,36,-9,1.11,0,,,,,,,,,,,,,,,,,
101043,0,3,8,42,55,41,36,100,-0.14,-1.07,0.26,-87,9,-7,1.08,0,0,0.0,0.0,0.0,0.0,0,0,0.0,0,0.0,-1,0.0,0.0,0.0,0,0.0,1.6841
101083,0,,,,,,,,-0.49,-1.02,0.59,-87,-16,-4,1.13,0,,,,,,,,,,,,,,,,,
101123,0,,,,,,,,-0.78,-0.95,0.86,-88,-49,1,1.23,0,,,,,,,,,,,,,,,,,
101163,0,,,,,,,,-0.57,-0.9,0.86,-87,-74,6,1.06,0,,,,,,,,,,,,,,,,,
101203,0,,,,,,,,-0.08,-0.9,0.31,-87,-75,6,0.9,0,,,,,,,,,,,,,,,,,
101243,0,5,4,42,56,41,35,100,0.32,-0.88,-0.13,-87,-68,5,0.94,0,0,0.0,0.0,0.0,0.0,0,0,0.0,0,0.0,-1,0.0,0.0,0.0,0,0.0,1.6874
101283,0,,,,,,,,0.64,-0.94,-0.48,-87,-27,0,1.14,0,,,,,,,,,,,,,,,,,
101323,0,,,,,,,,0.61,-0.89,-0.18,-87,16,-6,1.08,0,,,,,,,,,,,,,,,,,
101363,0,,,,,,,,0.13,-0.89,0.24,-87,40,-11,0.9,0,,,,,,,,,,,,,,,,,
101403,0,,,,,,,,-0.27,-0.93,0.57,-86,57,-14,0.97,0,,,,,,,,,,,,,,,,,
101443,0,3,5,42,54,41,36,98,-0.58,-0.9,0.84,-86,82,-15,1.07,0,0,0.0,0.0,0.0,0.0,0,0,0.0,0,0.0,-1,0.0,0.0,0.0,0,0.0,1.6907
101483,0,,,,,,,,-0.85,-1.02,1.06,-87,73,-14,1.33,0,,,,,,,,,,,,,,,,,
101523,0,,,,,,,,-0.94,-0.97,1.04,-86,35,-8,1.36,0,,,,,,,,,,,,,,,,,
101563,0,,,,,,,,-0.51,-0.91,0.59,-85,18,-5,1.05,0,,,,,,,,,,,,,,,,,
101603,0,,,,,,,,-0.04,-0.87,0.09,-84,11,-4,0.87,0,,,,,,,,,,,,,,,,,
101643,0,4,6,43,55,41,36,80,0.35,-0.83,-0.3,-82,-1,-1,0.9,0,0,0.0,0.0,0.0,0.0,0,0,0.0,0,0.0,-1,0.0,0.0,0.0,0,0.0,1.6941
101683,0,,,,,,,,0.65,-0.7,-0.63,-79,-17,2,0.95,0,,,,,,,,,,,,,,,,,
101723,0,,,,,,,,0.89,-0.64,-0.89,-76,-28,3,1.09,0,,,,,,,,,,,,,,,,,
101763,0,,,,,,,,0.93,-0.56,-1.1,-72,-43,5,1.08,0,,,,,,,,,,,,,,,,,
101803,0,,,,,,,,0.54,-0.54,-0.67,-68,-67,7,0.76,0,,,,,,,,,,,,,,,,,
101843,0,2,4,46,54,36,35,53,0.06,-0.46,-0.16,-64,-89,7,0.46,0,0,0.0,0.0,0.0,0.0,0,0,0.0,0,0.0,-1,0.0,0.0,0.0,0,0.0,1.6974
101883,0,,,,,,,,0.05,-0.36,0.08,-59,-66,5,0.36,0,,,,,,,,,,,,,,,,,
101923,0,,,,,,,,0.03,-0.33,-0.14,-53,-54,5,0.33,0,,,,,,,,,,,,,,,,,
101963,0,,,,,,,,-0.21,-0.28,0.27,-48,-62,6,0.35,0,,,,,,,,,,,,,,,,,
102003,0,,,,,,,,-0.23,-0.15,0.6,-42,-44,4,0.27,0,,,,,,,,,,,,,,,,,
102043,0,2,3,47,53,31,38,6,0.14,-0.06,0.57,-36,-9,1,0.15,0,0,0.0,0.0,0.0,0.0,0,0,0.0,0,0.0,-1,0.0,0.0,0.0,0,0.0,1.7007
102083,0,,,,,,,,0.49,-0.05,0.08,-29,28,-1,0.49,0,,,,,,,,,,,,,,,,,
102123,0,,,,,,,,0.78,0.02,-0.31,-23,48,-0,0.78,0,,,,,,,,,,,,,,,,,
102163,0,,,,,,,,1.01,0.03,-0.63,-17,63,-1,1.01,0,,,,,,,,,,,,,,,,,
102203,0,,,,,,,,1.2,0.02,-0.89,-11,79,-2,1.2,0,,,,,,,,,,,,,,,,,
102243,0,1,4,50,52,30,38,-21,1.35,0.09,-1.11,-5,78,-1,1.35,0,0,0.0,0.0,0.0,0.0,0,0,0.0,0,0.0,-1,0.0,0.0,0.0,0,0.0,1.7041
102283,0,,,,,,,,1.47,0.07,-1.28,0,66,1,1.48,0,,,,,,,,,,,,,,,,,
102323,0,,,,,,,,1.57,0.07,-1.41,5,66,-0,1.58,0,,,,,,,,,,,,,,,,,
102363,0,,,,,,,,1.04,0.14,-0.96,10,65,-2,1.05,0,,,,,,,,,,,,,,,,,
102403,0,,,,,,,,0.46,0.28,-0.4,14,36,-0,0.54,0,,,,,,,,,,,,,,,,,
102443,0,2,3,51,49,32,40,-37,0.35,0.41,0.04,18,1,4,0.54,0,0,0.0,0.0,0.0,0.0,0,0,0.0,0,0.0,-1,0.0,0.0,0.0,0,0.0,1.7074
102483,0,,,,,,,,0.64,0.46,0.1,22,5,4,0.79,0,,,,,,,,,,,,,,,,,
102523,0,,,,,,,,0.65,0.52,0.34,26,28,1,0.83,0,,,,,,,,,,,,,,,,,
102563,0,,,,,,,,0.23,0.56,0.66,30,39,-2,0.6,0,,,,,,,,,,,,,,,,,
102603,0,,,,,,,,-0.16,0.61,0.9,33,20,-1,0.63,0,,,,,,,,,,,,,,,,,
102643,0,1,4,51,49,31,42,-49,0.14,0.65,0.8,36,10,1,0.67,0,0,0.0,0.0,0.0,0.0,0,0,0.0,0,0.0,-1,0.0,0.0,0.0,0,0.0,1.7107
102683,0,,,,,,,,0.1,0.62,0.83,39,18,-1,0.63,0,,,,,,,,,,,,,,,,,
102723,0,,,,,,,,0.21,0.67,0.87,41,12,1,0.71,0,,,,,,,,,,,,,,,,,
102763,0,,,,,,,,0.06,0.68,0.91,43,13,0,0.68,0,,,,,,,,,,,,,,,,,
102803,0,,,,,,,,-0.1,0.73,1.0,44,-3,2,0.74,0,,,,,,,,,,,,,,,,,
102843,0,1,3,51,48,32,41,-49,-0.04,0.7,0.99,46,0,2,0.7,0,0,0.0,0.0,0.0,0.0,0,0,0.0,0,0.0,-1,0.0,0.0,0.0,0,0.0,1.7141
102883,0,,,,,,,,0.12,0.73,1.09,46,-4,2,0.74,0,,,,,,,,,,,,,,,,,
102923,0,,,,,,,,0.1,0.76,1.02,47,-2,3,0.76,0,,,,,,,,,,,,,,,,,
102963,0,,,,,,,,0.16,0.73,1.05,48,4,1,0.74,0,,,,,,,,,,,,,,,,,
103003,0,,,,,,,,0.25,0.75,1.0,49,-6,6,0.79,0,,,,,,,,,,,,,,,,,
103043,0,2,4,51,51,29,41,-44,-0.05,0.64,0.43,50,-14,10,0.64,0,0,0.0,0.0,0.0,0.0,0,0,0.0,0,0.0,-1,0.0,0.0,0.0,0,0.0,1.7174
103083,0,,,,,,,,0.12,0.63,0.73,51,0,1,0.64,0,,,,,,,,,,,,,,,,,
103123,0,,,,,,,,0.47,0.62,0.97,52,6,1,0.77,0,,,,,,,,,,,,,,,,,
103163,0,,,,,,,,0.62,0.62,0.93,52,-1,5,0.87,0,,,,,,,,,,,,,,,,,
103203,0,,,,,,,,0.82,0.63,1.13,50,15,-4,1.04,0,,,,,,,,,,,,,,,,,
103243,0,1,4,54,53,29,37,-18,0.61,0.59,0.9,48,15,-5,0.85,0,0,0.0,0.0,0.0,0.0,0,0,0.0,0,0.0,-1,0.0,0.0,0.0,0,0.0,1.7207
103283,0,,,,,,,,0.3,0.51,0.35,45,-6,7,0.59,0,,,,,,,,,,,,,,,,,
103323,0,,,,,,,,0.01,0.38,-0.1,40,-23,13,0.38,0,,,,,,,,,,,,,,,,,
103363,0,,,,,,,,-0.2,0.29,-0.43,35,-25,12,0.35,0,,,,,,,,,,,,,,,,,
103403,0,,,,,,,,-0.25,0.25,-0.01,31,-16,7,0.36,0,,,,,,,,,,,,,,,,,
103443,0,2,4,49,51,30,37,-10,-0.02,0.27,0.01,28,-28,14,0.28,0,0,0.0,0.0,0.0,0.0,0,0,0.0,0,0.0,-1,0.0,0.0,0.0,0,0.0,1.7241
103483,0,,,,,,,,0.17,0.23,0.39,24,-7,2,0.28,0,,,,,,,,,,,,,,,,,
