"Interval"|"ms"|0|0|1,"Utc"|"ms"|0|0|1,"Brake_F"|"Bar"|0|2000|10,"Brake_R"|"Bar"|0|2000|10,"Height_RF"|"mm"|0|255|10,"Height_LF"|"mm"|0|255|10,"Height_LR"|"mm"|0|80|10,"Height_RR"|"mm"|0|255|10,"Steering"|"deg"|-100|100|10,"AccelX"|"G"|-3.0|3.0|25,"AccelY"|"G"|-3.0|3.0|25,"AccelZ"|"G"|-3.0|3.0|25,"Yaw"|"Deg/Sec"|-120|120|25,"Pitch"|"Deg/Sec"|-120|120|25,"Roll"|"Deg/Sec"|-120|120|25,"Gsum"|"G"|0.0|3.0|25,"Unknown"|""|0|1024|25,"Log_Button"|""|0.0|10.0|10,"Latitude"|"Degrees"|-180.0|180.0|10,"Longitude"|"Degrees"|-180.0|180.0|10,"Speed"|"kph"|0.0|150.0|10,"Altitude"|"m"|0.0|4000.0|10,"GPSSats"|""|0|20|10,"GPSQual"|""|0|5|10,"GPSDOP"|""|0.0|20.0|10,"LapCount"|""|0|0|10,"LapTime"|"Min"|0.0|0.0|10,"Sector"|""|0|0|10,"SectorTime"|"Min"|0.0|0.0|10,"PredTime"|"Min"|0.0|0.0|5,"ElapsedTime"|"Min"|0.0|0.0|10,"CurrentLap"|""|0|0|10,"Distance"|"km"|0.0|0.0|10,"SessionTime"|"Min"|0.0|0.0|10
57083,0,,,,,,,,0.11,0.24,-0.07,-1,-3,6,0.26,0,,,,,,,,,,,,,,,,,
57123,0,,,,,,,,0.07,0.26,-0.13,-1,-4,8,0.27,0,,,,,,,,,,,,,,,,,
57163,0,,,,,,,,-0.11,0.26,-0.48,-1,-7,12,0.29,0,,,,,,,,,,,,,,,,,
57203,0,,,,,,,,0.07,0.19,-0.41,1,-10,17,0.2,0,,,,,,,,,,,,,,,,,
57243,0,1,3,49,52,33,37,3,0.12,0.21,-0.31,2,5,6,0.24,0,1,0.0,0.0,0.0,0.0,0,0,0.0,0,0.0,-1,0.0,0.0,0.0,0,0.0,0.954
57283,0,,,,,,,,0.04,0.28,-0.23,1,10,-3,0.28,0,,,,,,,,,,,,,,,,,
57323,0,,,,,,,,0.0,0.27,-0.21,1,-11,11,0.27,0,,,,,,,,,,,,,,,,,
57363,0,,,,,,,,0.13,0.35,0.21,1,-3,0,0.37,0,,,,,,,,,,,,,,,,,
57403,0,,,,,,,,-0.05,0.32,0.01,2,3,-7,0.33,0,,,,,,,,,,,,,,,,,
57443,0,1,3,49,52,33,37,2,-0.07,0.44,-0.37,0,-12,2,0.44,0,0,0.0,0.0,0.0,0.0,0,0,0.0,0,0.0,-1,0.0,0.0,0.0,0,0.0,0.9574
57483,0,,,,,,,,0.06,0.37,-0.32,1,-17,5,0.37,0,,,,,,,,,,,,,,,,,
57523,0,,,,,,,,0.15,0.37,-0.1,2,3,-5,0.4,0,,,,,,,,,,,,,,,,,
57563,0,,,,,,,,0.15,0.34,-0.06,2,12,-12,0.37,0,,,,,,,,,,,,,,,,,
57603,0,,,,,,,,0.1,0.29,-0.07,2,1,-1,0.3,0,,,,,,,,,,,,,,,,,
57643,0,1,3,49,52,33,37,3,0.3,0.4,-0.08,1,1,-1,0.5,0,0,0.0,0.0,0.0,0.0,0,0,0.0,0,0.0,-1,0.0,0.0,0.0,0,0.0,0.9607
57683,0,,,,,,,,0.26,0.28,-0.04,1,18,-7,0.38,0,,,,,,,,,,,,,,,,,
57723,0,,,,,,,,0.04,0.19,-0.01,-0,10,-3,0.19,0,,,,,,,,,,,,,,,,,
57763,0,,,,,,,,-0.02,0.33,-0.1,-1,-9,6,0.33,0,,,,,,,,,,,,,,,,,
57803,0,,,,,,,,0.08,0.24,-0.11,1,-6,3,0.25,0,,,,,,,,,,,,,,,,,
57843,0,1,3,49,52,33,38,2,0.31,0.34,-0.11,0,6,-4,0.46,0,0,0.0,0.0,0.0,0.0,0,0,0.0,0,0.0,-1,0.0,0.0,0.0,0,0.0,0.964
57883,0,,,,,,,,0.3,0.38,-0.07,0,13,-7,0.48,0,,,,,,,,,,,,,,,,,
57923,0,,,,,,,,0.18,0.45,-0.03,0,12,-9,0.49,0,,,,,,,,,,,,,,,,,
57963,0,,,,,,,,-0.04,0.36,-0.41,0,-1,2,0.36,0,,,,,,,,,,,,,,,,,
58003,0,,,,,,,,-0.01,0.3,-0.35,0,-6,5,0.3,0,,,,,,,,,,,,,,,,,
58043,0,0,1,49,52,33,38,2,0.03,0.28,-0.31,0,-6,2,0.28,0,0,0.0,0.0,0.0,0.0,0,0,0.0,0,0.0,-1,0.0,0.0,0.0,0,0.0,0.9674
58083,0,,,,,,,,0.14,0.34,0.13,1,4,-0,0.37,0,,,,,,,,,,,,,,,,,
58123,0,,,,,,,,0.13,0.43,0.13,1,10,-5,0.45,0,,,,,,,,,,,,,,,,,
58163,0,,,,,,,,0.06,0.44,0.12,2,12,-10,0.44,0,,,,,,,,,,,,,,,,,
58203,0,,,,,,,,-0.06,0.34,0.09,1,3,-2,0.34,0,,,,,,,,,,,,,,,,,
58243,0,-1,3,49,52,32,38,2,-0.09,0.39,0.05,1,-10,5,0.4,0,0,0.0,0.0,0.0,0.0,0,0,0.0,0,0.0,-1,0.0,0.0,0.0,0,0.0,0.9707
58283,0,,,,,,,,-0.09,0.4,0.02,0,-15,4,0.41,0,,,,,,,,,,,,,,,,,
58323,0,,,,,,,,-0.11,0.33,0.04,1,1,-3,0.34,0,,,,,,,,,,,,,,,,,
58363,0,,,,,,,,-0.28,0.21,-0.27,-1,1,-7,0.36,0,,,,,,,,,,,,,,,,,
58403,0,,,,,,,,-0.24,0.23,-0.24,0,-1,2,0.33,0,,,,,,,,,,,,,,,,,
58443,0,1,1,49,52,33,38,2,-0.11,0.3,-0.21,1,-5,5,0.32,0,0,0.0,0.0,0.0,0.0,0,0,0.0,0,0.0,-1,0.0,0.0,0.0,0,0.0,0.974
58483,0,,,,,,,,-0.07,0.2,-0.15,1,16,-6,0.21,0,,,,,,,,,,,,,,,,,
58523,0,,,,,,,,-0.32,0.18,-0.51,1,13,-7,0.37,0,,,,,,,,,,,,,,,,,
58563,0,,,,,,,,-0.22,0.18,-0.43,1,-2,6,0.29,0,,,,,,,,,,,,,,,,,
58603,0,,,,,,,,-0.12,0.08,-0.33,2,17,-4,0.15,0,,,,,,,,,,,,,,,,,
58643,0,1,3,49,52,33,38,1,-0.2,-0.01,-0.29,3,21,-10,0.2,0,0,0.0,0.0,0.0,0.0,0,0,0.0,0,0.0,-1,0.0,0.0,0.0,0,0.0,0.9774
58683,0,,,,,,,,-0.12,0.07,-0.26,2,-1,2,0.14,0,,,,,,,,,,,,,,,,,
58723,0,,,,,,,,0.06,0.06,0.17,0,2,-4,0.09,0,,,,,,,,,,,,,,,,,
58763,0,,,,,,,,-0.12,0.1,0.16,1,6,-11,0.15,0,,,,,,,,,,,,,,,,,
58803,0,,,,,,,,-0.13,0.2,0.11,1,-12,3,0.24,0,,,,,,,,,,,,,,,,,
58843,0,1,2,49,52,33,38,2,0.01,0.26,0.47,-0,-6,-2,0.26,0,0,0.0,0.0,0.0,0.0,0,0,0.0,0,0.0,-1,0.0,0.0,0.0,0,0.0,0.9807
58883,0,,,,,,,,0.01,0.28,0.4,1,1,-7,0.28,0,,,,,,,,,,,,,,,,,
58923,0,,,,,,,,-0.16,0.16,0.18,2,-1,-7,0.22,0,,,,,,,,,,,,,,,,,
58963,0,,,,,,,,-0.15,0.23,0.12,2,-10,3,0.27,0,,,,,,,,,,,,,,,,,
59003,0,,,,,,,,-0.15,0.21,0.08,1,-14,6,0.26,0,,,,,,,,,,,,,,,,,
59043,0,1,3,49,52,33,38,2,0.06,0.22,0.44,1,2,-2,0.23,0,0,0.0,0.0,0.0,0.0,0,0,0.0,0,0.0,-1,0.0,0.0,0.0,0,0.0,0.984
59083,0,,,,,,,,0.03,0.27,0.38,1,10,-9,0.27,0,,,,,,,,,,,,,,,,,
59123,0,,,,,,,,-0.15,0.3,-0.07,1,-4,-0,0.33,0,,,,,,,,,,,,,,,,,
59163,0,,,,,,,,-0.09,0.27,-0.08,1,-9,5,0.29,0,,,,,,,,,,,,,,,,,
59203,0,,,,,,,,0.17,0.32,0.31,0,6,-3,0.36,0,,,,,,,,,,,,,,,,,
59243,0,-0,2,49,52,33,38,2,0.06,0.33,0.27,0,7,-7,0.34,0,0,0.0,0.0,0.0,0.0,0,0,0.0,0,0.0,-1,0.0,0.0,0.0,0,0.0,0.9874
59283,0,,,,,,,,-0.15,0.23,-0.04,-1,-9,1,0.28,0,,,,,,,,,,,,,,,,,
59323,0,,,,,,,,-0.11,0.34,-0.05,-2,-21,9,0.36,0,,,,,,,,,,,,,,,,,
59363,0,,,,,,,,0.09,0.38,0.34,-1,-2,-5,0.39,0,,,,,,,,,,,,,,,,,
59403,0,,,,,,,,0.01,0.63,0.29,-0,9,-12,0.63,0,,,,,,,,,,,,,,,,,
59443,0,0,2,49,52,33,38,2,-0.12,0.51,-0.14,1,1,-2,0.52,0,0,0.0,0.0,0.0,0.0,0,0,0.0,0,0.0,-1,0.0,0.0,0.0,0,0.0,0.9907
59483,0,,,,,,,,-0.0,0.52,-0.14,1,2,-1,0.52,0,,,,,,,,,,,,,,,,,
59523,0,,,,,,,,0.17,0.47,0.27,2,22,-10,0.5,0,,,,,,,,,,,,,,,,,
59563,0,,,,,,,,-0.01,0.39,0.11,2,16,-4,0.39,0,,,,,,,,,,,,,,,,,
59603,0,,,,,,,,-0.09,0.38,-0.29,2,3,5,0.39,0,,,,,,,,,,,,,,,,,
59643,0,0,3,49,52,33,38,2,-0.06,0.33,-0.25,2,-2,4,0.34,0,0,0.0,0.0,0.0,0.0,0,0,0.0,0,0.0,-1,0.0,0.0,0.0,0,0.0,0.994
59683,0,,,,,,,,0.14,0.33,0.17,0,13,-4,0.36,0,,,,,,,,,,,,,,,,,
59723,0,,,,,,,,-0.04,0.44,0.16,0,15,-7,0.44,0,,,,,,,,,,,,,,,,,
59763,0,,,,,,,,-0.05,0.4,0.11,1,14,-4,0.41,0,,,,,,,,,,,,,,,,,
59803,0,,,,,,,,0.18,0.41,0.07,1,-2,5,0.45,0,,,,,,,,,,,,,,,,,
59843,0,-0,2,49,52,32,38,2,0.14,0.35,0.07,2,13,-4,0.38,0,0,0.0,0.0,0.0,0.0,0,0,0.0,0,0.0,-1,0.0,0.0,0.0,0,0.0,0.9974
59883,0,,,,,,,,-0.07,0.35,0.01,0,8,-6,0.36,0,,,,,,,,,,,,,,,,,
59923,0,,,,,,,,-0.08,0.34,-0.02,-1,-5,3,0.35,0,,,,,,,,,,,,,,,,,
59963,0,,,,,,,,0.1,0.46,-0.03,-1,-9,3,0.47,0,,,,,,,,,,,,,,,,,
60003,0,,,,,,,,0.1,0.35,-0.01,-1,3,-1,0.37,0,,,,,,,,,,,,,,,,,
60043,0,1,2,49,52,33,38,3,-0.02,0.26,-0.31,-0,-2,-3,0.26,0,0,0.0,0.0,0.0,0.0,0,0,0.0,0,0.0,-1,0.0,0.0,0.0,0,0.0,1.0007
60083,0,,,,,,,,-0.03,0.4,-0.27,-0,-15,7,0.4,0,,,,,,,,,,,,,,,,,
60123,0,,,,,,,,0.17,0.42,-0.24,1,-9,3,0.45,0,,,,,,,,,,,,,,,,,
60163,0,,,,,,,,0.16,0.33,-0.18,1,6,-4,0.37,0,,,,,,,,,,,,,,,,,
60203,0,,,,,,,,-0.12,0.42,-0.5,1,5,-5,0.44,0,,,,,,,,,,,,,,,,,
60243,0,0,3,49,52,33,38,2,-0.04,0.37,-0.42,1,-1,4,0.37,0,0,0.0,0.0,0.0,0.0,0,0,0.0,0,0.0,-1,0.0,0.0,0.0,0,0.0,1.0041
60283,0,,,,,,,,0.15,0.36,0.04,2,17,-5,0.39,0,,,,,,,,,,,,,,,,,
60323,0,,,,,,,,0.1,0.33,0.05,2,23,-11,0.34,0,,,,,,,,,,,,,,,,,
60363,0,,,,,,,,-0.03,0.32,-0.34,2,16,-3,0.33,0,,,,,,,,,,,,,,,,,
60403,0,,,,,,,,-0.06,0.24,-0.3,2,8,4,0.25,0,,,,,,,,,,,,,,,,,
60443,0,0,3,49,52,33,38,2,0.01,0.42,0.14,1,10,-2,0.42,0,0,0.0,0.0,0.0,0.0,0,0,0.0,0,0.0,-1,0.0,0.0,0.0,0,0.0,1.0074
60483,0,,,,,,,,0.0,0.43,0.13,1,17,-8,0.43,0,,,,,,,,,,,,,,,,,
60523,0,,,,,,,,-0.07,0.3,-0.25,-0,13,-2,0.31,0,,,,,,,,,,,,,,,,,
60563,0,,,,,,,,-0.03,0.28,-0.22,2,-0,9,0.28,0,,,,,,,,,,,,,,,,,
60603,0,,,,,,,,0.09,0.35,-0.2,1,4,1,0.36,0,,,,,,,,,,,,,,,,,
60643,0,-1,3,49,52,32,38,2,0.06,0.27,-0.14,2,8,-6,0.28,0,0,0.0,0.0,0.0,0.0,0,0,0.0,0,0.0,-1,0.0,0.0,0.0,0,0.0,1.0107
60683,0,,,,,,,,-0.03,0.15,-0.5,0,-6,3,0.16,0,,,,,,,,,,,,,,,,,
60723,0,,,,,,,,-0.03,0.19,-0.42,-1,-17,9,0.19,0,,,,,,,,,,,,,,,,,
60763,0,,,,,,,,0.25,0.23,-0.32,-0,-2,-0,0.34,0,,,,,,,,,,,,,,,,,
60803,0,,,,,,,,0.16,0.35,-0.24,-1,2,-3,0.38,0,,,,,,,,,,,,,,,,,
60843,0,1,3,49,52,33,38,2,0.04,0.22,-0.18,-1,-5,-0,0.22,0,0,0.0,0.0,0.0,0.0,0,0,0.0,0,0.0,-1,0.0,0.0,0.0,0,0.0,1.0141
60883,0,,,,,,,,-0.04,0.25,-0.16,-1,-23,10,0.25,0,,,,,,,,,,,,,,,,,
60923,0,,,,,,,,0.12,0.27,-0.15,-1,-16,1,0.3,0,,,,,,,,,,,,,,,,,
60963,0,,,,,,,,0.07,0.22,-0.1,-0,-11,-5,0.23,0,,,,,,,,,,,,,,,,,
61003,0,,,,,,,,-0.07,0.29,-0.47,-0,-22,6,0.29,0,,,,,,,,,,,,,,,,,
61043,0,-0,2,49,52,32,38,2,-0.08,0.22,-0.4,1,-20,3,0.23,0,0,0.0,0.0,0.0,0.0,0,0,0.0,0,0.0,-1,0.0,0.0,0.0,0,0.0,1.0174
61083,0,,,,,,,,-0.07,0.2,-0.3,0,-2,-3,0.21,0,,,,,,,,,,,,,,,,,
61123,0,,,,,,,,-0.21,0.16,-0.63,-0,5,-5,0.26,0,,,,,,,,,,,,,,,,,
61163,0,,,,,,,,-0.19,0.16,-0.53,1,-2,4,0.25,0,,,,,,,,,,,,,,,,,
61203,0,,,,,,,,0.1,0.32,-0.05,1,-2,2,0.33,0,,,,,,,,,,,,,,,,,
61243,0,1,3,49,52,33,38,1,0.05,0.28,-0.02,-1,7,-6,0.29,0,0,0.0,0.0,0.0,0.0,0,0,0.0,0,0.0,-1,0.0,0.0,0.0,0,0.0,1.0207
61283,0,,,,,,,,-0.11,0.27,-0.4,-1,-1,1,0.29,0,,,,,,,,,,,,,,,,,
61323,0,,,,,,,,-0.13,0.25,-0.34,-1,-11,11,0.28,0,,,,,,,,,,,,,,,,,
61363,0,,,,,,,,-0.09,0.23,-0.26,-1,-2,3,0.25,0,,,,,,,,,,,,,,,,,
61403,0,,,,,,,,-0.22,0.3,-0.19,-1,2,-2,0.37,0,,,,,,,,,,,,,,,,,
61443,0,-1,3,49,52,32,38,2,-0.37,0.2,-0.36,-2,-2,1,0.42,0,0,0.0,0.0,0.0,0.0,0,0,0.0,0,0.0,-1,0.0,0.0,0.0,0,0.0,1.024
61483,0,,,,,,,,-0.42,0.18,-0.41,-1,-9,5,0.45,0,,,,,,,,,,,,,,,,,
61523,0,,,,,,,,-0.42,0.13,-0.36,-1,-14,11,0.44,0,,,,,,,,,,,,,,,,,
61563,0,,,,,,,,-0.24,0.13,-0.31,-2,-22,10,0.28,0,,,,,,,,,,,,,,,,,
61603,0,,,,,,,,-0.08,0.17,-0.16,-0,-1,1,0.19,0,,,,,,,,,,,,,,,,,
61643,0,1,3,49,52,33,38,2,-0.09,0.22,-0.11,-1,3,-5,0.24,0,0,0.0,0.0,0.0,0.0,0,0,0.0,0,0.0,-1,0.0,0.0,0.0,0,0.0,1.0274
61683,0,,,,,,,,-0.25,0.15,-0.47,-1,-5,-1,0.29,0,,,,,,,,,,,,,,,,,
61723,0,,,,,,,,-0.25,0.28,-0.4,-0,-20,10,0.38,0,,,,,,,,,,,,,,,,,
61763,0,,,,,,,,-0.02,0.36,0.05,-0,-6,0,0.37,0,,,,,,,,,,,,,,,,,
61803,0,,,,,,,,-0.18,0.36,0.06,-0,-1,-6,0.4,0,,,,,,,,,,,,,,,,,
61843,0,-1,3,49,52,33,38,2,-0.18,0.31,0.03,1,-16,6,0.36,0,0,0.0,0.0,0.0,0.0,0,0,0.0,0,0.0,-1,0.0,0.0,0.0,0,0.0,1.0307
61883,0,,,,,,,,0.06,0.39,0.4,1,7,-3,0.39,0,,,,,,,,,,,,,,,,,
61923,0,,,,,,,,-0.14,0.37,0.34,1,1,-3,0.39,0,,,,,,,,,,,,,,,,,
61963,0,,,,,,,,-0.01,0.32,0.26,2,-8,6,0.32,0,,,,,,,,,,,,,,,,,
62003,0,,,,,,,,-0.01,0.28,0.23,1,7,-5,0.28,0,,,,,,,,,,,,,,,,,
62043,0,1,1,49,52,33,37,3,-0.21,0.17,-0.2,2,-9,5,0.27,0,0,0.0,0.0,0.0,0.0,0,0,0.0,0,0.0,-1,0.0,0.0,0.0,0,0.0,1.034
62083,0,,,,,,,,-0.1,0.18,-0.18,2,-3,-1,0.21,0,,,,,,,,,,,,,,,,,
62123,0,,,,,,,,-0.17,0.19,-0.13,2,-4,-7,0.26,0,,,,,,,,,,,,,,,,,
62163,0,,,,,,,,-0.2,0.26,-0.12,2,-16,5,0.33,0,,,,,,,,,,,,,,,,,
62203,0,,,,,,,,0.07,0.38,0.28,-0,2,-4,0.39,0,,,,,,,,,,,,,,,,,
62243,0,1,1,49,52,33,37,2,-0.22,0.28,-0.08,-0,-12,8,0.36,0,0,0.0,0.0,0.0,0.0,0,0,0.0,0,0.0,-1,0.0,0.0,0.0,0,0.0,1.0374
62283,0,,,,,,,,-0.04,0.17,-0.09,-0,-6,2,0.17,0,,,,,,,,,,,,,,,,,
62323,0,,,,,,,,-0.01,0.13,-0.05,1,7,-8,0.13,0,,,,,,,,,,,,,,,,,
62363,0,,,,,,,,-0.21,0.14,-0.42,1,-12,4,0.25,0,,,,,,,,,,,,,,,,,
62403,0,,,,,,,,0.01,0.14,0.04,0,-1,-6,0.14,0,,,,,,,,,,,,,,,,,
62443,0,1,1,49,52,32,38,2,-0.11,0.1,-0.35,-1,-10,2,0.15,0,0,0.0,0.0,0.0,0.0,0,0,0.0,0,0.0,-1,0.0,0.0,0.0,0,0.0,1.0407
62483,0,,,,,,,,0.01,0.15,-0.3,-2,-21,12,0.15,0,,,,,,,,,,,,,,,,,
62523,0,,,,,,,,0.02,0.11,-0.23,-2,-1,1,0.11,0,,,,,,,,,,,,,,,,,
62563,0,,,,,,,,-0.23,0.13,-0.56,-1,1,-4,0.26,0,,,,,,,,,,,,,,,,,
62603,0,,,,,,,,-0.14,0.08,-0.48,-1,-13,7,0.16,0,,,,,,,,,,,,,,,,,
62643,0,1,1,49,52,32,37,2,-0.09,0.13,-0.17,-0,-8,-0,0.16,0,0,0.0,0.0,0.0,0.0,0,0,0.0,0,0.0,-1,0.0,0.0,0.0,0,0.0,1.044
62683,0,,,,,,,,-0.16,0.23,-0.12,-1,3,-6,0.28,0,,,,,,,,,,,,,,,,,
62723,0,,,,,,,,-0.15,0.2,-0.1,-1,0,-7,0.25,0,,,,,,,,,,,,,,,,,
62763,0,,,,,,,,-0.14,0.17,-0.1,-2,-11,4,0.22,0,,,,,,,,,,,,,,,,,
62803,0,,,,,,,,0.1,0.22,-0.1,-1,-13,7,0.24,0,,,,,,,,,,,,,,,,,
62843,0,1,2,49,52,33,38,2,0.08,0.16,-0.06,-2,-1,0,0.18,0,0,0.0,0.0,0.0,0.0,0,0,0.0,0,0.0,-1,0.0,0.0,0.0,0,0.0,1.0474
62883,0,,,,,,,,-0.02,0.17,-0.03,-2,-1,-4,0.17,0,,,,,,,,,,,,,,,,,
62923,0,,,,,,,,-0.09,0.3,-0.41,-1,-13,4,0.32,0,,,,,,,,,,,,,,,,,
62963,0,,,,,,,,-0.08,0.31,-0.35,1,-17,5,0.32,0,,,,,,,,,,,,,,,,,
63003,0,,,,,,,,-0.02,0.19,-0.26,1,-2,-2,0.19,0,,,,,,,,,,,,,,,,,
63043,0,1,1,49,52,33,38,2,-0.18,0.16,-0.59,0,-8,5,0.24,0,0,0.0,0.0,0.0,0.0,0,0,0.0,0,0.0,-1,0.0,0.0,0.0,0,0.0,1.0507
63083,0,,,,,,,,-0.05,0.14,-0.5,0,-16,11,0.15,0,,,,,,,,,,,,,,,,,
63123,0,,,,,,,,0.03,0.08,-0.38,1,6,-2,0.08,0,,,,,,,,,,,,,,,,,
63163,0,,,,,,,,-0.11,0.13,-0.28,1,4,0,0.17,0,,,,,,,,,,,,,,,,,
63203,0,,,,,,,,0.02,0.11,-0.25,2,-2,8,0.11,0,,,,,,,,,,,,,,,,,
63243,0,1,3,49,52,33,38,2,0.12,0.14,-0.18,1,16,-2,0.19,0,0,0.0,0.0,0.0,0.0,0,0,0.0,0,0.0,-1,0.0,0.0,0.0,0,0.0,1.054
63283,0,,,,,,,,-0.16,0.14,-0.53,1,7,4,0.21,0,,,,,,,,,,,,,,,,,
63323,0,,,,,,,,-0.19,0.18,-0.45,4,3,7,0.26,0,,,,,,,,,,,,,,,,,
63363,0,,,,,,,,-0.09,0.14,-0.01,3,21,0,0.17,0,,,,,,,,,,,,,,,,,
63403,0,,,,,,,,-0.2,0.23,0.02,2,15,6,0.3,0,,,,,,,,,,,,,,,,,
63443,0,1,2,49,52,33,38,2,-0.2,0.31,-0.01,1,-5,15,0.37,0,0,0.0,0.0,0.0,0.0,0,0,0.0,0,0.0,-1,0.0,0.0,0.0,0,0.0,1.0574
63483,0,,,,,,,,-0.05,0.24,-0.03,3,8,5,0.25,0,,,,,,,,,,,,,,,,,
63523,0,,,,,,,,-0.03,0.18,-0.0,3,14,-2,0.18,0,,,,,,,,,,,,,,,,,
63563,0,,,,,,,,-0.26,0.19,-0.27,5,12,3,0.32,0,,,,,,,,,,,,,,,,,
63603,0,,,,,,,,-0.16,0.23,-0.24,4,1,9,0.28,0,,,,,,,,,,,,,,,,,
63643,0,1,1,49,52,33,38,3,0.03,0.29,-0.22,2,9,4,0.29,0,0,0.0,0.0,0.0,0.0,0,0,0.0,0,0.0,-1,0.0,0.0,0.0,0,0.0,1.0607
63683,0,,,,,,,,0.04,0.31,-0.16,0,12,-2,0.32,0,,,,,,,,,,,,,,,,,
63723,0,,,,,,,,-0.15,0.41,-0.11,-0,-3,4,0.44,0,,,,,,,,,,,,,,,,,
63763,0,,,,,,,,-0.22,0.37,-0.11,-0,-14,11,0.43,0,,,,,,,,,,,,,,,,,
63803,0,,,,,,,,0.09,0.43,-0.11,-1,-14,9,0.44,0,,,,,,,,,,,,,,,,,
63843,0,-0,3,49,52,33,38,2,-0.02,0.41,-0.07,-2,0,5,0.41,0,0,0.0,0.0,0.0,0.0,0,0,0.0,0,0.0,-1,0.0,0.0,0.0,0,0.0,1.064
63883,0,,,,,,,,-0.13,0.28,-0.04,-2,4,1,0.31,0,,,,,,,,,,,,,,,,,
63923,0,,,,,,,,-0.17,0.27,-0.16,0,4,6,0.32,0,,,,,,,,,,,,,,,,,
63963,0,,,,,,,,-0.03,0.34,-0.15,1,0,10,0.34,0,,,,,,,,,,,,,,,,,
64003,0,,,,,,,,0.14,0.43,-0.2,1,-0,5,0.46,0,,,,,,,,,,,,,,,,,
64043,0,-0,3,49,52,33,38,2,0.13,0.44,-0.14,0,1,1,0.45,0,0,0.0,0.0,0.0,0.0,0,0,0.0,0,0.0,-1,0.0,0.0,0.0,0,0.0,1.0674
64083,0,,,,,,,,0.02,0.5,-0.09,-0,6,-2,0.5,0,,,,,,,,,,,,,,,,,
64123,0,,,,,,,,-0.13,0.42,-0.46,-0,2,1,0.44,0,,,,,,,,,,,,,,,,,
64163,0,,,,,,,,0.08,0.28,-0.39,-0,-11,11,0.29,0,,,,,,,,,,,,,,,,,
64203,0,,,,,,,,0.11,0.23,-0.3,-1,5,2,0.25,0,,,,,,,,,,,,,,,,,
64243,0,1,1,49,52,32,38,2,-0.08,0.16,-0.62,-1,-5,12,0.17,0,0,0.0,0.0,0.0,0.0,0,0,0.0,0,0.0,-1,0.0,0.0,0.0,0,0.0,1.0707
64283,0,,,,,,,,0.18,0.1,-0.52,-2,-12,11,0.2,0,,,,,,,,,,,,,,,,,
64323,0,,,,,,,,0.08,0.12,-0.4,-2,7,-5,0.14,0,,,,,,,,,,,,,,,,,
64363,0,,,,,,,,0.05,0.1,-0.51,-1,-9,7,0.12,0,,,,,,,,,,,,,,,,,
64403,0,,,,,,,,0.18,0.16,-0.03,-1,2,-2,0.24,0,,,,,,,,,,,,,,,,,
64443,0,0,3,49,52,33,38,2,0.13,0.19,-0.01,-1,8,-10,0.23,0,0,0.0,0.0,0.0,0.0,0,0,0.0,0,0.0,-1,0.0,0.0,0.0,0,0.0,1.074
64483,0,,,,,,,,-0.07,0.19,-0.39,-0,-2,-4,0.2,0,,,,,,,,,,,,,,,,,
64523,0,,,,,,,,-0.08,0.19,-0.33,-0,-19,4,0.21,0,,,,,,,,,,,,,,,,,
64563,0,,,,,,,,0.12,0.29,0.11,-1,-8,-3,0.32,0,,,,,,,,,,,,,,,,,
64603,0,,,,,,,,0.01,0.26,0.11,-1,-4,-9,0.26,0,,,,,,,,,,,,,,,,,
64643,0,1,2,49,52,33,38,1,-0.06,0.27,-0.24,-1,-20,1,0.27,0,0,0.0,0.0,0.0,0.0,0,0,0.0,0,0.0,-1,0.0,0.0,0.0,0,0.0,1.0774
64683,0,,,,,,,,0.17,0.32,-0.19,0,-6,-8,0.37,0,,,,,,,,,,,,,,,,,
64723,0,,,,,,,,-0.03,0.3,-0.13,1,-5,-14,0.3,0,,,,,,,,,,,,,,,,,
64763,0,,,,,,,,0.01,0.24,-0.13,1,-17,2,0.24,0,,,,,,,,,,,,,,,,,
64803,0,,,,,,,,0.09,0.21,0.01,0,6,-9,0.23,0,,,,,,,,,,,,,,,,,
64843,0,1,1,49,52,32,38,2,-0.14,0.12,-0.38,1,-14,3,0.18,0,0,0.0,0.0,0.0,0.0,0,0,0.0,0,0.0,-1,0.0,0.0,0.0,0,0.0,1.0807
64883,0,,,,,,,,0.19,0.12,-0.09,1,8,-7,0.22,0,,,,,,,,,,,,,,,,,
64923,0,,,,,,,,0.04,0.1,-0.06,1,2,1,0.11,0,,,,,,,,,,,,,,,,,
64963,0,,,,,,,,0.16,0.12,-0.07,1,-1,-0,0.2,0,,,,,,,,,,,,,,,,,
65003,0,,,,,,,,0.07,0.08,-0.03,1,4,-9,0.11,0,,,,,,,,,,,,,,,,,
65043,0,0,1,49,52,33,38,2,0.06,0.15,-0.13,0,-10,4,0.16,0,0,0.0,0.0,0.0,0.0,0,0,0.0,0,0.0,-1,0.0,0.0,0.0,0,0.0,1.084
65083,0,,,,,,,,0.15,0.07,-0.09,-0,11,-8,0.16,0,,,,,,,,,,,,,,,,,
65123,0,,,,,,,,-0.18,0.03,-0.45,-0,-11,6,0.18,0,,,,,,,,,,,,,,,,,
65163,0,,,,,,,,0.01,0.06,-0.39,-0,-1,-4,0.06,0,,,,,,,,,,,,,,,,,
65203,0,,,,,,,,-0.23,0.06,-0.69,0,-5,-2,0.24,0,,,,,,,,,,,,,,,,,
65243,0,1,1,49,52,33,38,2,0.1,0.14,-0.18,1,-7,2,0.17,0,0,0.0,0.0,0.0,0.0,0,0,0.0,0,0.0,-1,0.0,0.0,0.0,0,0.0,1.0874
65283,0,,,,,,,,-0.11,0.09,-0.13,1,3,-8,0.15,0,,,,,,,,,,,,,,,,,
65323,0,,,,,,,,-0.04,0.04,-0.12,2,-12,6,0.06,0,,,,,,,,,,,,,,,,,
65363,0,,,,,,,,0.06,0.02,-0.08,0,5,-2,0.06,0,,,,,,,,,,,,,,,,,
65403,0,,,,,,,,-0.17,-0.05,-0.45,-0,1,1,0.17,0,,,,,,,,,,,,,,,,,
65443,0,-1,2,49,52,33,38,2,-0.08,-0.06,-0.38,0,-15,14,0.1,0,0,0.0,0.0,0.0,0.0,0,0,0.0,0,0.0,-1,0.0,0.0,0.0,0,0.0,1.0907
65483,0,,,,,,,,-0.04,0.04,-0.29,1,1,4,0.06,0,,,,,,,,,,,,,,,,,
65523,0,,,,,,,,-0.29,-0.01,-0.22,0,-0,3,0.29,0,,,,,,,,,,,,,,,,,
65563,0,,,,,,,,-0.25,0.04,-0.29,1,-7,12,0.26,0,,,,,,,,,,,,,,,,,
65603,0,,,,,,,,-0.07,0.12,-0.26,-0,-12,10,0.14,0,,,,,,,,,,,,,,,,,
65643,0,0,2,49,52,33,38,1,-0.09,0.19,-0.19,1,2,1,0.21,0,0,0.0,0.0,0.0,0.0,0,0,0.0,0,0.0,-1,0.0,0.0,0.0,0,0.0,1.0941
65683,0,,,,,,,,-0.22,0.19,-0.13,1,4,-6,0.29,0,,,,,,,,,,,,,,,,,
65723,0,,,,,,,,-0.17,0.15,-0.13,1,-11,7,0.23,0,,,,,,,,,,,,,,,,,
65763,0,,,,,,,,0.03,0.22,0.28,2,6,-4,0.23,0,,,,,,,,,,,,,,,,,
65803,0,,,,,,,,-0.14,0.24,0.24,2,5,-6,0.28,0,,,,,,,,,,,,,,,,,
65843,0,1,2,49,52,33,38,2,0.07,0.14,0.18,1,-3,3,0.16,0,0,0.0,0.0,0.0,0.0,0,0,0.0,0,0.0,-1,0.0,0.0,0.0,0,0.0,1.0974
65883,0,,,,,,,,0.04,0.14,0.16,2,18,-15,0.14,0,,,,,,,,,,,,,,,,,
65923,0,,,,,,,,0.06,0.2,0.11,2,-1,2,0.21,0,,,,,,,,,,,,,,,,,
65963,0,,,,,,,,0.17,0.19,0.47,2,12,-9,0.26,0,,,,,,,,,,,,,,,,,
66003,0,,,,,,,,-0.15,0.11,-0.0,2,-7,3,0.19,0,,,,,,,,,,,,,,,,,
66043,0,0,2,49,52,33,38,1,0.07,0.2,-0.02,2,2,-6,0.21,0,0,0.0,0.0,0.0,0.0,0,0,0.0,0,0.0,-1,0.0,0.0,0.0,0,0.0,1.1007
66083,0,,,,,,,,-0.09,0.17,0.0,2,5,-12,0.19,0,,,,,,,,,,,,,,,,,
66123,0,,,,,,,,-0.09,0.31,-0.02,2,-9,2,0.32,0,,,,,,,,,,,,,,,,,
66163,0,,,,,,,,0.02,0.43,0.36,2,5,-8,0.43,0,,,,,,,,,,,,,,,,,
66203,0,,,,,,,,-0.19,0.3,0.31,2,1,-3,0.35,0,,,,,,,,,,,,,,,,,
66243,0,1,1,49,52,32,38,2,0.03,0.23,0.23,3,5,-4,0.23,0,0,0.0,0.0,0.0,0.0,0,0,0.0,0,0.0,-1,0.0,0.0,0.0,0,0.0,1.1041
66283,0,,,,,,,,0.0,0.12,0.21,1,12,-10,0.12,0,,,,,,,,,,,,,,,,,
66323,0,,,,,,,,-0.15,0.06,-0.21,2,-5,3,0.16,0,,,,,,,,,,,,,,,,,
66363,0,,,,,,,,0.09,0.15,-0.19,-0,5,-3,0.18,0,,,,,,,,,,,,,,,,,
66403,0,,,,,,,,0.02,0.18,-0.14,-1,3,0,0.19,0,,,,,,,,,,,,,,,,,
66443,0,0,1,49,52,32,38,2,0.15,0.27,-0.13,-0,3,5,0.31,0,0,0.0,0.0,0.0,0.0,0,0,0.0,0,0.0,-1,0.0,0.0,0.0,0,0.0,1.1074
66483,0,,,,,,,,0.15,0.24,-0.09,-1,12,-5,0.28,0,,,,,,,,,,,,,,,,,
66523,0,,,,,,,,-0.03,0.2,-0.45,-0,-11,9,0.2,0,,,,,,,,,,,,,,,,,
66563,0,,,,,,,,0.05,0.23,0.01,0,13,-11,0.24,0,,,,,,,,,,,,,,,,,
66603,0,,,,,,,,0.04,0.2,-0.01,-1,-10,5,0.2,0,,,,,,,,,,,,,,,,,
66643,0,-1,2,49,52,33,38,3,0.15,0.21,0.01,-1,7,-8,0.25,0,0,0.0,0.0,0.0,0.0,0,0,0.0,0,0.0,-1,0.0,0.0,0.0,0,0.0,1.1107
66683,0,,,,,,,,0.04,0.23,-0.37,-0,-6,2,0.23,0,,,,,,,,,,,,,,,,,
66723,0,,,,,,,,0.17,0.32,0.08,-1,-5,-3,0.37,0,,,,,,,,,,,,,,,,,
66763,0,,,,,,,,-0.07,0.21,-0.02,-0,3,-10,0.22,0,,,,,,,,,,,,,,,,,
66803,0,,,,,,,,0.16,0.23,-0.04,1,-8,3,0.28,0,,,,,,,,,,,,,,,,,
66843,0,0,3,49,52,33,37,3,0.03,0.23,-0.01,-1,8,-7,0.23,0,0,0.0,0.0,0.0,0.0,0,0,0.0,0,0.0,-1,0.0,0.0,0.0,0,0.0,1.1141
66883,0,,,,,,,,-0.02,0.3,-0.03,-1,-17,8,0.3,0,,,,,,,,,,,,,,,,,
66923,0,,,,,,,,0.1,0.18,0.17,-1,2,-7,0.2,0,,,,,,,,,,,,,,,,,
66963,0,,,,,,,,-0.09,0.19,-0.24,-1,-13,6,0.21,0,,,,,,,,,,,,,,,,,
67003,0,,,,,,,,0.14,0.22,0.18,-1,-7,-0,0.26,0,,,,,,,,,,,,,,,,,
67043,0,1,2,49,52,33,38,2,-0.23,0.2,-0.0,-0,-7,-3,0.3,0,0,0.0,0.0,0.0,0.0,0,0,0.0,0,0.0,-1,0.0,0.0,0.0,0,0.0,1.1174
67083,0,,,,,,,,0.02,0.2,-0.02,-0,-13,-0,0.2,0,,,,,,,,,,,,,,,,,
67123,0,,,,,,,,-0.11,0.11,-0.0,-1,-6,-7,0.16,0,,,,,,,,,,,,,,,,,
67163,0,,,,,,,,-0.04,0.07,-0.02,-0,-23,7,0.08,0,,,,,,,,,,,,,,,,,
67203,0,,,,,,,,0.0,0.08,0.0,-0,-1,-8,0.08,0,,,,,,,,,,,,,,,,,
67243,0,1,1,49,52,33,38,2,-0.08,0.13,-0.38,1,-20,7,0.15,0,0,0.0,0.0,0.0,0.0,0,0,0.0,0,0.0,-1,0.0,0.0,0.0,0,0.0,1.1207
67283,0,,,,,,,,0.14,0.19,0.07,0,-7,-4,0.24,0,,,,,,,,,,,,,,,,,
67323,0,,,,,,,,0.08,0.21,0.08,1,2,-10,0.23,0,,,,,,,,,,,,,,,,,
67363,0,,,,,,,,0.04,0.24,-0.23,-0,-12,-0,0.24,0,,,,,,,,,,,,,,,,,
67403,0,,,,,,,,0.06,0.39,-0.2,0,-3,-7,0.39,0,,,,,,,,,,,,,,,,,
67443,0,0,2,49,52,33,37,3,0.07,0.33,-0.15,1,7,-16,0.34,0,0,0.0,0.0,0.0,0.0,0,0,0.0,0,0.0,-1,0.0,0.0,0.0,0,0.0,1.1241
67483,0,,,,,,,,-0.09,0.27,-0.5,2,-15,-0,0.29,0,,,,,,,,,,,,,,,,,
67523,0,,,,,,,,0.07,0.26,-0.42,0,-8,-8,0.27,0,,,,,,,,,,,,,,,,,
67563,0,,,,,,,,-0.08,0.32,-0.32,0,-3,-9,0.33,0,,,,,,,,,,,,,,,,,
67603,0,,,,,,,,-0.11,0.32,-0.28,0,-24,4,0.34,0,,,,,,,,,,,,,,,,,
67643,0,1,3,49,52,33,37,3,-0.04,0.37,0.15,-0,-10,-4,0.37,0,0,0.0,0.0,0.0,0.0,0,0,0.0,0,0.0,-1,0.0,0.0,0.0,0,0.0,1.1274
67683,0,,,,,,,,-0.18,0.31,0.14,0,-8,-1,0.36,0,,,,,,,,,,,,,,,,,
67723,0,,,,,,,,-0.05,0.27,0.09,-1,-20,7,0.28,0,,,,,,,,,,,,,,,,,
67763,0,,,,,,,,-0.04,0.2,0.1,-1,-8,-4,0.21,0,,,,,,,,,,,,,,,,,
67803,0,,,,,,,,-0.21,0.2,-0.3,0,-25,9,0.29,0,,,,,,,,,,,,,,,,,
67843,0,1,2,49,52,33,38,3,-0.07,0.31,0.13,0,-10,-3,0.32,0,0,0.0,0.0,0.0,0.0,0,0,0.0,0,0.0,-1,0.0,0.0,0.0,0,0.0,1.1307
67883,0,,,,,,,,-0.21,0.28,0.13,2,-16,4,0.35,0,,,,,,,,,,,,,,,,,
67923,0,,,,,,,,0.01,0.32,0.48,1,-16,4,0.32,0,,,,,,,,,,,,,,,,,
67963,0,,,,,,,,-0.13,0.27,0.41,1,3,-7,0.3,0,,,,,,,,,,,,,,,,,
68003,0,,,,,,,,-0.06,0.24,0.31,1,-17,6,0.24,0,,,,,,,,,,,,,,,,,
68043,0,0,2,49,52,33,38,1,-0.05,0.16,0.59,-0,2,-6,0.17,0,0,0.0,0.0,0.0,0.0,0,0,0.0,0,0.0,-1,0.0,0.0,0.0,0,0.0,1.1341
68083,0,,,,,,,,-0.2,0.08,0.09,0,-10,3,0.21,0,,,,,,,,,,,,,,,,,
68123,0,,,,,,,,0.13,0.21,0.46,0,-11,3,0.25,0,,,,,,,,,,,,,,,,,
68163,0,,,,,,,,-0.04,0.07,0.38,0,-2,-6,0.08,0,,,,,,,,,,,,,,,,,
68203,0,,,,,,,,0.16,0.04,0.29,-0,-11,7,0.17,0,,,,,,,,,,,,,,,,,
68243,0,-1,0,49,52,32,38,2,0.04,0.01,0.25,-1,6,-3,0.04,0,0,0.0,0.0,0.0,0.0,0,0,0.0,0,0.0,-1,0.0,0.0,0.0,0,0.0,1.1374
68283,0,,,,,,,,0.09,0.04,0.18,-1,-12,10,0.1,0,,,,,,,,,,,,,,,,,
68323,0,,,,,,,,0.09,0.04,0.33,-1,10,-3,0.1,0,,,,,,,,,,,,,,,,,
68363,0,,,,,,,,-0.13,0.08,-0.11,-1,-3,6,0.15,0,,,,,,,,,,,,,,,,,
68403,0,,,,,,,,0.14,0.14,0.29,-1,13,-3,0.19,0,,,,,,,,,,,,,,,,,
68443,0,1,3,49,52,33,37,3,-0.09,0.09,-0.15,-1,-2,9,0.12,0,0,0.0,0.0,0.0,0.0,0,0,0.0,0,0.0,-1,0.0,0.0,0.0,0,0.0,1.1407
68483,0,,,,,,,,0.1,0.1,0.26,-1,19,-5,0.14,0,,,,,,,,,,,,,,,,,
68523,0,,,,,,,,-0.09,0.04,-0.17,-1,3,5,0.1,0,,,,,,,,,,,,,,,,,
68563,0,,,,,,,,0.18,0.09,-0.16,-1,4,3,0.2,0,,,,,,,,,,,,,,,,,
68603,0,,,,,,,,0.07,0.09,-0.11,-1,13,-6,0.11,0,,,,,,,,,,,,,,,,,
68643,0,1,2,49,52,33,38,1,0.01,0.21,-0.11,1,4,5,0.21,0,0,0.0,0.0,0.0,0.0,0,0,0.0,0,0.0,-1,0.0,0.0,0.0,0,0.0,1.144
68683,0,,,,,,,,0.24,0.31,-0.11,4,19,-6,0.39,0,,,,,,,,,,,,,,,,,
68723,0,,,,,,,,0.08,0.3,-0.07,3,18,-8,0.31,0,,,,,,,,,,,,,,,,,
68763,0,,,,,,,,0.04,0.3,-0.08,3,-7,6,0.3,0,,,,,,,,,,,,,,,,,
68803,0,,,,,,,,0.17,0.44,0.32,2,5,-6,0.48,0,,,,,,,,,,,,,,,,,
68843,0,1,2,49,52,33,38,2,-0.11,0.28,-0.12,1,-11,8,0.31,0,0,0.0,0.0,0.0,0.0,0,0,0.0,0,0.0,-1,0.0,0.0,0.0,0,0.0,1.1474
68883,0,,,,,,,,0.18,0.28,-0.12,2,4,-2,0.33,0,,,,,,,,,,,,,,,,,
68923,0,,,,,,,,0.1,0.26,-0.08,1,6,-6,0.28,0,,,,,,,,,,,,,,,,,
68963,0,,,,,,,,0.12,0.33,-0.08,1,-4,2,0.35,0,,,,,,,,,,,,,,,,,
69003,0,,,,,,,,0.06,0.26,-0.05,1,7,-7,0.27,0,,,,,,,,,,,,,,,,,
69043,0,0,3,49,52,33,38,1,-0.09,0.26,-0.42,1,-7,6,0.28,0,0,0.0,0.0,0.0,0.0,0,0,0.0,0,0.0,-1,0.0,0.0,0.0,0,0.0,1.1507
69083,0,,,,,,,,0.23,0.33,-0.06,1,13,-5,0.4,0,,,,,,,,,,,,,,,,,
69123,0,,,,,,,,0.06,0.25,-0.03,1,1,5,0.26,0,,,,,,,,,,,,,,,,,
69163,0,,,,,,,,0.14,0.26,-0.05,1,7,-1,0.29,0,,,,,,,,,,,,,,,,,
69203,0,,,,,,,,-0.03,0.2,-0.02,0,6,-0,0.21,0,,,,,,,,,,,,,,,,,
69243,0,1,1,49,52,33,38,2,-0.04,0.21,-0.23,0,-3,6,0.21,0,0,0.0,0.0,0.0,0.0,0,0,0.0,0,0.0,-1,0.0,0.0,0.0,0,0.0,1.154
69283,0,,,,,,,,0.01,0.31,-0.17,0,5,-3,0.31,0,,,,,,,,,,,,,,,,,
69323,0,,,,,,,,0.31,0.3,-0.16,1,5,-1,0.43,0,,,,,,,,,,,,,,,,,
69363,0,,,,,,,,0.14,0.28,-0.11,0,15,-8,0.32,0,,,,,,,,,,,,,,,,,
69403,0,,,,,,,,0.15,0.28,-0.11,1,-1,6,0.32,0,,,,,,,,,,,,,,,,,
69443,0,0,2,49,52,33,38,2,0.22,0.23,0.28,0,12,-3,0.32,0,0,0.0,0.0,0.0,0.0,0,0,0.0,0,0.0,-1,0.0,0.0,0.0,0,0.0,1.1574
69483,0,,,,,,,,0.04,0.14,-0.15,-0,10,-4,0.15,0,,,,,,,,,,,,,,,,,
69523,0,,,,,,,,0.22,0.09,-0.14,2,-3,7,0.24,0,,,,,,,,,,,,,,,,,
69563,0,,,,,,,,0.2,0.03,-0.1,2,13,-3,0.2,0,,,,,,,,,,,,,,,,,
69603,0,,,,,,,,-0.02,0.02,-0.46,2,4,6,0.03,0,,,,,,,,,,,,,,,,,
69643,0,-0,3,49,52,33,38,3,0.29,0.11,-0.06,2,9,4,0.31,0,0,0.0,0.0,0.0,0.0,0,0,0.0,0,0.0,-1,0.0,0.0,0.0,0,0.0,1.1607
69683,0,,,,,,,,0.09,0.12,-0.03,2,12,-5,0.15,0,,,,,,,,,,,,,,,,,
69723,0,,,,,,,,0.09,0.15,-0.04,1,-4,7,0.17,0,,,,,,,,,,,,,,,,,
69763,0,,,,,,,,0.21,0.06,0.1,1,15,-4,0.22,0,,,,,,,,,,,,,,,,,
69803,0,,,,,,,,-0.07,0.07,-0.3,1,7,3,0.1,0,,,,,,,,,,,,,,,,,
69843,0,-1,3,49,52,32,38,2,0.13,0.09,-0.27,2,-3,7,0.16,0,0,0.0,0.0,0.0,0.0,0,0,0.0,0,0.0,-1,0.0,0.0,0.0,0,0.0,1.164
69883,0,,,,,,,,0.08,0.15,-0.2,2,8,-4,0.17,0,,,,,,,,,,,,,,,,,
69923,0,,,,,,,,-0.08,0.11,-0.54,1,-15,7,0.14,0,,,,,,,,,,,,,,,,,
69963,0,,,,,,,,0.03,0.22,-0.06,0,-4,1,0.22,0,,,,,,,,,,,,,,,,,
70003,0,,,,,,,,-0.13,0.18,-0.37,0,-6,2,0.22,0,,,,,,,,,,,,,,,,,
70043,0,-0,3,49,52,33,38,2,0.1,0.12,-0.32,1,-7,3,0.16,0,0,0.0,0.0,0.0,0.0,0,0,0.0,0,0.0,-1,0.0,0.0,0.0,0,0.0,1.1674
70083,0,,,,,,,,-0.03,0.2,-0.24,0,1,-6,0.2,0,,,,,,,,,,,,,,,,,
70123,0,,,,,,,,-0.02,0.27,-0.21,1,-15,8,0.27,0,,,,,,,,,,,,,,,,,
70163,0,,,,,,,,0.09,0.23,-0.02,1,6,-6,0.24,0,,,,,,,,,,,,,,,,,
70203,0,,,,,,,,-0.14,0.13,-0.4,1,-10,6,0.19,0,,,,,,,,,,,,,,,,,
70243,0,1,1,49,52,33,38,3,0.22,0.17,-0.34,2,7,-3,0.27,0,0,0.0,0.0,0.0,0.0,0,0,0.0,0,0.0,-1,0.0,0.0,0.0,0,0.0,1.1707
70283,0,,,,,,,,0.14,0.19,-0.26,1,12,-11,0.24,0,,,,,,,,,,,,,,,,,
70323,0,,,,,,,,0.14,0.18,-0.59,1,-4,2,0.23,0,,,,,,,,,,,,,,,,,
70363,0,,,,,,,,0.37,0.26,-0.5,-0,6,-7,0.45,0,,,,,,,,,,,,,,,,,
70403,0,,,,,,,,0.1,0.21,-0.38,-0,-4,-3,0.23,0,,,,,,,,,,,,,,,,,
70443,0,1,2,49,52,33,38,2,0.16,0.19,-0.33,-0,-10,2,0.25,0,0,0.0,0.0,0.0,0.0,0,0,0.0,0,0.0,-1,0.0,0.0,0.0,0,0.0,1.174
70483,0,,,,,,,,0.15,0.15,-0.25,-2,-1,-6,0.22,0,,,,,,,,,,,,,,,,,
70523,0,,,,,,,,0.04,0.24,-0.58,-1,-19,7,0.24,0,,,,,,,,,,,,,,,,,
70563,0,,,,,,,,0.26,0.31,-0.09,-1,-3,-3,0.4,0,,,,,,,,,,,,,,,,,
70603,0,,,,,,,,-0.08,0.15,-0.46,-1,-27,11,0.17,0,,,,,,,,,,,,,,,,,
70643,0,1,0,49,52,33,37,2,0.2,0.22,0.01,-1,-4,-4,0.29,0,0,0.0,0.0,0.0,0.0,0,0,0.0,0,0.0,-1,0.0,0.0,0.0,0,0.0,1.1774
70683,0,,,,,,,,0.18,0.22,-0.01,-1,-25,9,0.28,0,,,,,,,,,,,,,,,,,
70723,0,,,,,,,,0.12,0.18,0.01,-2,-4,-7,0.22,0,,,,,,,,,,,,,,,,,
70763,0,,,,,,,,0.06,0.17,-0.25,-1,-21,7,0.18,0,,,,,,,,,,,,,,,,,
70803,0,,,,,,,,0.14,0.17,0.13,-2,-9,-2,0.22,0,,,,,,,,,,,,,,,,,
70843,0,1,0,49,52,33,38,3,-0.13,0.08,-0.27,-1,-14,0,0.16,0,0,0.0,0.0,0.0,0.0,0,0,0.0,0,0.0,-1,0.0,0.0,0.0,0,0.0,1.1807
70883,0,,,,,,,,0.13,0.12,-0.14,-0,-17,4,0.17,0,,,,,,,,,,,,,,,,,
70923,0,,,,,,,,-0.03,0.17,-0.1,-0,-1,-6,0.18,0,,,,,,,,,,,,,,,,,
70963,0,,,,,,,,0.1,0.21,-0.1,-0,-13,5,0.23,0,,,,,,,,,,,,,,,,,
71003,0,,,,,,,,0.17,0.17,0.14,0,8,-6,0.24,0,,,,,,,,,,,,,,,,,
71043,0,-1,3,49,52,33,38,2,0.15,0.19,0.13,0,6,-3,0.24,0,0,0.0,0.0,0.0,0.0,0,0,0.0,0,0.0,-1,0.0,0.0,0.0,0,0.0,1.184
71083,0,,,,,,,,-0.09,0.13,-0.27,1,-2,3,0.15,0,,,,,,,,,,,,,,,,,
71123,0,,,,,,,,0.31,0.18,0.16,1,0,-1,0.36,0,,,,,,,,,,,,,,,,,
71163,0,,,,,,,,-0.12,0.07,-0.25,0,-4,2,0.14,0,,,,,,,,,,,,,,,,,
71203,0,,,,,,,,0.23,0.18,0.01,1,0,-0,0.29,0,,,,,,,,,,,,,,,,,
71243,0,1,2,49,52,33,38,2,-0.05,0.08,-0.01,1,8,-6,0.1,0,0,0.0,0.0,0.0,0.0,0,0,0.0,0,0.0,-1,0.0,0.0,0.0,0,0.0,1.1874
71283,0,,,,,,,,0.07,0.01,0.01,-0,-13,9,0.08,0,,,,,,,,,,,,,,,,,
71323,0,,,,,,,,0.2,0.09,0.39,-0,11,-6,0.22,0,,,,,,,,,,,,,,,,,
71363,0,,,,,,,,-0.09,0.03,-0.07,0,-13,6,0.1,0,,,,,,,,,,,,,,,,,
71403,0,,,,,,,,0.17,0.03,0.32,-1,5,-4,0.17,0,,,,,,,,,,,,,,,,,
71443,0,1,5,49,52,33,38,1,0.14,0.08,0.28,-2,-16,7,0.16,0,0,0.0,0.0,0.0,0.0,0,0,0.0,0,0.0,-1,0.0,0.0,0.0,0,0.0,1.1907
71483,0,,,,,,,,0.05,0.13,0.21,-2,-19,6,0.14,0,,,,,,,,,,,,,,,,,
71523,0,,,,,,,,0.15,0.16,0.15,-1,-6,-2,0.22,0,,,,,,,,,,,,,,,,,
71563,0,,,,,,,,-0.02,0.18,0.14,-0,-6,-5,0.18,0,,,,,,,,,,,,,,,,,
71603,0,,,,,,,,0.24,0.2,0.33,0,5,-7,0.32,0,,,,,,,,,,,,,,,,,
71643,0,-0,3,49,52,32,38,2,0.07,0.13,-0.11,1,-19,11,0.15,0,0,0.0,0.0,0.0,0.0,0,0,0.0,0,0.0,-1,0.0,0.0,0.0,0,0.0,1.194
71683,0,,,,,,,,-0.16,0.04,-0.47,1,-30,18,0.17,0,,,,,,,,,,,,,,,,,
71723,0,,,,,,,,-0.23,-0.04,-0.36,1,-26,13,0.24,0,,,,,,,,,,,,,,,,,
71763,0,,,,,,,,0.05,0.02,0.09,-0,3,-8,0.06,0,,,,,,,,,,,,,,,,,
71803,0,,,,,,,,0.28,0.09,0.05,0,10,-8,0.29,0,,,,,,,,,,,,,,,,,
71843,0,0,3,49,52,33,38,1,-0.0,0.01,-0.34,1,-12,10,0.01,0,0,0.0,0.0,0.0,0.0,0,0,0.0,0,0.0,-1,0.0,0.0,0.0,0,0.0,1.1974
71883,0,,,,,,,,-0.13,0.01,-0.28,1,-19,16,0.13,0,,,,,,,,,,,,,,,,,
71923,0,,,,,,,,0.18,0.02,0.15,1,5,-5,0.18,0,,,,,,,,,,,,,,,,,
71963,0,,,,,,,,0.19,0.07,-0.11,1,3,0,0.2,0,,,,,,,,,,,,,,,,,
72003,0,,,,,,,,-0.13,0.0,-0.47,1,-20,16,0.13,0,,,,,,,,,,,,,,,,,
72043,0,0,1,49,52,33,38,2,-0.37,0.02,-0.36,-1,5,-3,0.37,0,0,0.0,0.0,0.0,0.0,0,0,0.0,0,0.0,-1,0.0,0.0,0.0,0,0.0,1.2007
72083,0,,,,,,,,-0.1,0.08,0.09,-0,-4,3,0.13,0,,,,,,,,,,,,,,,,,
72123,0,,,,,,,,-0.29,0.07,-0.31,1,-28,16,0.3,0,,,,,,,,,,,,,,,,,
72163,0,,,,,,,,-0.26,0.1,-0.23,0,-4,-4,0.28,0,,,,,,,,,,,,,,,,,
72203,0,,,,,,,,-0.1,0.12,-0.21,0,-21,8,0.15,0,,,,,,,,,,,,,,,,,
72243,0,0,1,49,52,32,37,2,-0.4,0.08,-0.55,1,-17,7,0.41,0,0,0.0,0.0,0.0,0.0,0,0,0.0,0,0.0,-1,0.0,0.0,0.0,0,0.0,1.2041
72283,0,,,,,,,,-0.06,0.11,-0.06,1,1,-2,0.12,0,,,,,,,,,,,,,,,,,
72323,0,,,,,,,,-0.11,0.1,-0.43,2,-25,14,0.15,0,,,,,,,,,,,,,,,,,
72363,0,,,,,,,,-0.07,0.07,-0.33,2,6,-9,0.1,0,,,,,,,,,,,,,,,,,
72403,0,,,,,,,,0.12,0.14,-0.29,1,-15,10,0.18,0,,,,,,,,,,,,,,,,,
72443,0,0,1,49,52,32,37,2,0.02,0.14,-0.21,1,8,-5,0.14,0,0,0.0,0.0,0.0,0.0,0,0,0.0,0,0.0,-1,0.0,0.0,0.0,0,0.0,1.2074
72483,0,,,,,,,,0.18,0.2,-0.19,1,-2,4,0.27,0,,,,,,,,,,,,,,,,,
72523,0,,,,,,,,-0.17,0.13,-0.54,1,-5,3,0.22,0,,,,,,,,,,,,,,,,,
72563,0,,,,,,,,0.11,0.17,-0.06,1,3,-2,0.2,0,,,,,,,,,,,,,,,,,
72603,0,,,,,,,,-0.15,0.06,-0.43,0,-7,8,0.16,0,,,,,,,,,,,,,,,,,
72643,0,1,1,49,52,32,37,2,0.18,0.22,0.03,-0,9,-5,0.28,0,0,0.0,0.0,0.0,0.0,0,0,0.0,0,0.0,-1,0.0,0.0,0.0,0,0.0,1.2107
72683,0,,,,,,,,-0.07,0.17,-0.35,-0,-14,11,0.19,0,,,,,,,,,,,,,,,,,
72723,0,,,,,,,,-0.02,0.19,0.09,0,13,-13,0.19,0,,,,,,,,,,,,,,,,,
72763,0,,,,,,,,-0.04,0.22,0.06,1,-3,0,0.22,0,,,,,,,,,,,,,,,,,
72803,0,,,,,,,,-0.13,0.12,0.06,0,4,-8,0.18,0,,,,,,,,,,,,,,,,,
72843,0,0,3,49,52,33,38,1,0.09,0.14,0.03,1,0,-2,0.17,0,0,0.0,0.0,0.0,0.0,0,0,0.0,0,0.0,-1,0.0,0.0,0.0,0,0.0,1.2141
72883,0,,,,,,,,-0.01,0.13,0.04,1,-1,-0,0.13,0,,,,,,,,,,,,,,,,,
72923,0,,,,,,,,0.24,0.18,0.02,1,8,-6,0.3,0,,,,,,,,,,,,,,,,,
72963,0,,,,,,,,0.16,0.15,0.03,1,18,-10,0.22,0,,,,,,,,,,,,,,,,,
73003,0,,,,,,,,0.19,0.2,0.01,3,13,-2,0.28,0,,,,,,,,,,,,,,,,,
73043,0,-1,2,49,52,33,38,2,0.17,0.17,0.02,2,23,-12,0.24,0,0,0.0,0.0,0.0,0.0,0,0,0.0,0,0.0,-1,0.0,0.0,0.0,0,0.0,1.2174
73083,0,,,,,,,,0.12,0.19,-0.04,2,7,0,0.23,0,,,,,,,,,,,,,,,,,
73123,0,,,,,,,,0.28,0.23,0.33,2,25,-10,0.36,0,,,,,,,,,,,,,,,,,
73163,0,,,,,,,,0.05,0.12,-0.12,2,12,2,0.13,0,,,,,,,,,,,,,,,,,
73203,0,,,,,,,,0.25,0.13,-0.12,1,20,-6,0.28,0,,,,,,,,,,,,,,,,,
73243,0,-0,2,49,52,33,38,2,0.09,0.15,-0.07,1,17,-9,0.18,0,0,0.0,0.0,0.0,0.0,0,0,0.0,0,0.0,-1,0.0,0.0,0.0,0,0.0,1.2207
73283,0,,,,,,,,-0.07,0.25,-0.08,2,2,0,0.26,0,,,,,,,,,,,,,,,,,
73323,0,,,,,,,,-0.01,0.19,-0.05,1,15,-9,0.19,0,,,,,,,,,,,,,,,,,
73363,0,,,,,,,,-0.07,0.13,-0.42,1,0,5,0.14,0,,,,,,,,,,,,,,,,,
73403,0,,,,,,,,-0.2,0.12,-0.32,-0,17,-4,0.23,0,,,,,,,,,,,,,,,,,
73443,0,1,0,49,52,32,38,2,-0.04,0.12,-0.28,-0,-2,11,0.13,0,0,0.0,0.0,0.0,0.0,0,0,0.0,0,0.0,-1,0.0,0.0,0.0,0,0.0,1.2241
73483,0,,,,,,,,-0.1,0.11,-0.21,-1,15,-6,0.15,0,,,,,,,,,,,,,,,,,
73523,0,,,,,,,,-0.04,0.19,-0.19,-0,-5,9,0.19,0,,,,,,,,,,,,,,,,,
73563,0,,,,,,,,-0.13,0.12,-0.13,-0,17,-8,0.18,0,,,,,,,,,,,,,,,,,
73603,0,,,,,,,,-0.08,0.18,-0.13,0,-3,9,0.2,0,,,,,,,,,,,,,,,,,
73643,0,1,3,49,52,33,38,2,-0.16,0.19,-0.08,-0,10,-7,0.25,0,0,0.0,0.0,0.0,0.0,0,0,0.0,0,0.0,-1,0.0,0.0,0.0,0,0.0,1.2274
73683,0,,,,,,,,-0.13,0.25,-0.09,0,-15,9,0.28,0,,,,,,,,,,,,,,,,,
73723,0,,,,,,,,-0.18,0.22,-0.05,2,5,-8,0.28,0,,,,,,,,,,,,,,,,,
73763,0,,,,,,,,-0.01,0.22,-0.06,2,-8,6,0.22,0,,,,,,,,,,,,,,,,,
73803,0,,,,,,,,-0.11,0.22,-0.03,1,14,-8,0.24,0,,,,,,,,,,,,,,,,,
73843,0,0,2,49,52,33,38,2,0.04,0.24,-0.05,1,-3,7,0.24,0,0,0.0,0.0,0.0,0.0,0,0,0.0,0,0.0,-1,0.0,0.0,0.0,0,0.0,1.2307
73883,0,,,,,,,,-0.09,0.19,-0.02,1,9,-5,0.21,0,,,,,,,,,,,,,,,,,
73923,0,,,,,,,,0.14,0.21,-0.04,1,5,2,0.25,0,,,,,,,,,,,,,,,,,
73963,0,,,,,,,,-0.05,0.12,-0.03,1,2,1,0.13,0,,,,,,,,,,,,,,,,,
74003,0,,,,,,,,0.17,0.16,0.15,1,4,1,0.23,0,,,,,,,,,,,,,,,,,
74043,0,1,1,49,52,32,38,2,-0.18,0.04,-0.26,1,-7,7,0.18,0,0,0.0,0.0,0.0,0.0,0,0,0.0,0,0.0,-1,0.0,0.0,0.0,0,0.0,1.2341
74083,0,,,,,,,,0.12,0.05,0.17,0,18,-10,0.13,0,,,,,,,,,,,,,,,,,
74123,0,,,,,,,,-0.16,0.05,-0.24,1,-10,7,0.16,0,,,,,,,,,,,,,,,,,
74163,0,,,,,,,,-0.27,0.06,-0.08,1,5,-11,0.27,0,,,,,,,,,,,,,,,,,
74203,0,,,,,,,,-0.05,0.03,-0.09,1,-7,-2,0.06,0,,,,,,,,,,,,,,,,,
74243,0,0,3,49,52,33,38,1,-0.23,0.06,-0.05,1,-4,-7,0.24,0,0,0.0,0.0,0.0,0.0,0,0,0.0,0,0.0,-1,0.0,0.0,0.0,0,0.0,1.2374
74283,0,,,,,,,,0.02,0.09,-0.06,2,-7,-4,0.1,0,,,,,,,,,,,,,,,,,
74323,0,,,,,,,,-0.16,0.16,-0.03,2,-5,-10,0.23,0,,,,,,,,,,,,,,,,,
74363,0,,,,,,,,0.05,0.14,-0.04,2,-4,-7,0.15,0,,,,,,,,,,,,,,,,,
74403,0,,,,,,,,-0.12,0.13,-0.42,1,-19,8,0.17,0,,,,,,,,,,,,,,,,,
74443,0,1,1,49,52,32,38,2,0.08,0.11,0.04,0,-1,-5,0.13,0,0,0.0,0.0,0.0,0.0,0,0,0.0,0,0.0,-1,0.0,0.0,0.0,0,0.0,1.2407
74483,0,,,,,,,,0.16,0.07,0.41,-0,8,-14,0.17,0,,,,,,,,,,,,,,,,,
74523,0,,,,,,,,0.11,0.07,-0.05,-1,-7,-3,0.13,0,,,,,,,,,,,,,,,,,
74563,0,,,,,,,,0.09,0.18,0.05,-1,-4,-8,0.2,0,,,,,,,,,,,,,,,,,
74603,0,,,,,,,,-0.01,0.06,-0.34,-1,-6,-0,0.07,0,,,,,,,,,,,,,,,,,
74643,0,0,1,49,52,33,38,1,0.05,-0.01,-0.46,-0,-2,7,0.05,0,0,0.0,0.0,0.0,0.0,0,0,0.0,0,0.0,-1,0.0,0.0,0.0,0,0.0,1.2441
74683,0,,,,,,,,0.1,-0.09,-0.36,0,4,2,0.14,0,,,,,,,,,,,,,,,,,
74723,0,,,,,,,,0.07,-0.02,-0.27,0,-1,3,0.07,0,,,,,,,,,,,,,,,,,
74763,0,,,,,,,,0.05,-0.02,-0.2,0,1,3,0.05,0,,,,,,,,,,,,,,,,,
74803,0,,,,,,,,0.03,-0.04,-0.14,0,-3,4,0.05,0,,,,,,,,,,,,,,,,,
74843,0,1,3,49,52,33,38,3,0.06,-0.01,-0.07,0,2,-2,0.06,0,0,0.0,0.0,0.0,0.0,0,0,0.0,0,0.0,-1,0.0,0.0,0.0,0,0.0,1.2474
74883,0,,,,,,,,-0.01,-0.04,-0.43,0,-2,6,0.04,0,,,,,,,,,,,,,,,,,
74923,0,,,,,,,,0.01,-0.11,-0.73,1,-1,11,0.11,0,,,,,,,,,,,,,,,,,
74963,0,,,,,,,,0.1,-0.07,-0.29,0,7,3,0.12,0,,,,,,,,,,,,,,,,,
75003,0,,,,,,,,0.1,-0.06,-0.22,1,-0,4,0.12,0,,,,,,,,,,,,,,,,,
75043,0,0,3,49,52,33,37,2,-0.0,-0.17,-0.56,-0,-8,7,0.17,0,0,0.0,0.0,0.0,0.0,0,0,0.0,0,0.0,-1,0.0,0.0,0.0,0,0.0,1.2507
75083,0,,,,,,,,0.03,-0.06,-0.83,1,-27,22,0.07,0,,,,,,,,,,,,,,,,,
75123,0,,,,,,,,-0.27,-0.06,-1.05,2,-21,18,0.27,0,,,,,,,,,,,,,,,,,
75163,0,,,,,,,,-0.12,0.08,-0.87,3,-17,14,0.14,0,,,,,,,,,,,,,,,,,
75203,0,,,,,,,,-0.4,0.05,-1.0,3,-11,7,0.4,0,,,,,,,,,,,,,,,,,
75243,0,0,1,49,52,33,38,2,-0.16,0.09,-0.43,2,12,-11,0.19,0,0,0.0,0.0,0.0,0.0,0,0,0.0,0,0.0,-1,0.0,0.0,0.0,0,0.0,1.2541
75283,0,,,,,,,,0.08,0.08,0.03,2,21,-13,0.12,0,,,,,,,,,,,,,,,,,
75323,0,,,,,,,,0.17,0.1,0.41,2,27,-12,0.2,0,,,,,,,,,,,,,,,,,
75363,0,,,,,,,,0.16,0.06,0.71,2,35,-23,0.17,0,,,,,,,,,,,,,,,,,
75403,0,,,,,,,,0.15,0.04,0.7,2,41,-31,0.16,0,,,,,,,,,,,,,,,,,
75443,0,-1,2,49,52,33,38,3,0.03,-0.01,0.18,1,20,-14,0.04,0,0,0.0,0.0,0.0,0.0,0,0,0.0,0,0.0,-1,0.0,0.0,0.0,0,0.0,1.2574
75483,0,,,,,,,,0.11,0.07,0.18,1,19,-12,0.13,0,,,,,,,,,,,,,,,,,
75523,0,,,,,,,,0.05,-0.04,0.13,1,16,-15,0.07,0,,,,,,,,,,,,,,,,,
75563,0,,,,,,,,-0.08,0.07,0.12,0,13,-16,0.1,0,,,,,,,,,,,,,,,,,
75603,0,,,,,,,,-0.22,0.02,-0.28,1,2,-8,0.22,0,,,,,,,,,,,,,,,,,
75643,0,0,0,49,52,32,38,2,0.0,0.1,0.15,0,8,-15,0.1,0,0,0.0,0.0,0.0,0.0,0,0,0.0,0,0.0,-1,0.0,0.0,0.0,0,0.0,1.2607
75683,0,,,,,,,,-0.12,0.06,-0.26,0,-4,-3,0.14,0,,,,,,,,,,,,,,,,,
75723,0,,,,,,,,-0.12,0.09,0.17,0,4,-11,0.15,0,,,,,,,,,,,,,,,,,
75763,0,,,,,,,,-0.02,0.19,0.16,1,4,-5,0.19,0,,,,,,,,,,,,,,,,,
75803,0,,,,,,,,-0.11,0.14,0.11,0,7,-9,0.18,0,,,,,,,,,,,,,,,,,
75843,0,0,3,49,52,33,38,2,-0.07,0.15,-0.29,1,-2,3,0.17,0,0,0.0,0.0,0.0,0.0,0,0,0.0,0,0.0,-1,0.0,0.0,0.0,0,0.0,1.264
75883,0,,,,,,,,-0.01,0.12,0.14,1,8,-11,0.12,0,,,,,,,,,,,,,,,,,
75923,0,,,,,,,,-0.17,0.15,-0.27,1,-13,5,0.22,0,,,,,,,,,,,,,,,,,
75963,0,,,,,,,,-0.02,0.24,-0.07,1,-3,-3,0.24,0,,,,,,,,,,,,,,,,,
76003,0,,,,,,,,0.0,0.13,0.09,0,4,-8,0.13,0,,,,,,,,,,,,,,,,,
76043,0,1,3,49,52,33,38,3,-0.08,0.04,-0.3,1,-10,8,0.09,0,0,0.0,0.0,0.0,0.0,0,0,0.0,0,0.0,-1,0.0,0.0,0.0,0,0.0,1.2674
76083,0,,,,,,,,-0.05,0.09,-0.63,1,-11,11,0.11,0,,,,,,,,,,,,,,,,,
76123,0,,,,,,,,0.1,0.14,-0.13,0,0,3,0.17,0,,,,,,,,,,,,,,,,,
76163,0,,,,,,,,0.0,0.03,-0.24,-0,15,-12,0.03,0,,,,,,,,,,,,,,,,,
76203,0,,,,,,,,-0.04,0.05,-0.58,-0,13,-12,0.06,0,,,,,,,,,,,,,,,,,
76243,0,1,2,49,52,33,38,2,-0.12,0.06,-0.85,-1,-6,3,0.13,0,0,0.0,0.0,0.0,0.0,0,0,0.0,0,0.0,-1,0.0,0.0,0.0,0,0.0,1.2707
76283,0,,,,,,,,0.05,0.07,-0.62,-0,-12,11,0.09,0,,,,,,,,,,,,,,,,,
76323,0,,,,,,,,0.11,0.01,-0.12,-1,2,-1,0.11,0,,,,,,,,,,,,,,,,,
76363,0,,,,,,,,-0.05,-0.0,-0.48,-1,-1,2,0.05,0,,,,,,,,,,,,,,,,,
76403,0,,,,,,,,0.01,0.13,-0.37,-0,-12,12,0.13,0,,,,,,,,,,,,,,,,,
76443,0,0,2,49,52,33,38,3,0.0,0.01,-0.32,-0,3,-5,0.01,0,0,0.0,0.0,0.0,0.0,0,0,0.0,0,0.0,-1,0.0,0.0,0.0,0,0.0,1.274
76483,0,,,,,,,,-0.1,0.04,-0.64,-2,-15,9,0.11,0,,,,,,,,,,,,,,,,,
76523,0,,,,,,,,0.02,0.04,-0.14,-1,-1,-4,0.05,0,,,,,,,,,,,,,,,,,
76563,0,,,,,,,,-0.05,0.07,-0.42,-1,-7,4,0.08,0,,,,,,,,,,,,,,,,,
76603,0,,,,,,,,-0.15,0.06,-0.36,-2,1,-3,0.17,0,,,,,,,,,,,,,,,,,
76643,0,1,1,49,52,33,38,2,-0.03,0.17,-0.27,-2,-11,8,0.17,0,0,0.0,0.0,0.0,0.0,0,0,0.0,0,0.0,-1,0.0,0.0,0.0,0,0.0,1.2774
76683,0,,,,,,,,-0.02,0.1,-0.24,-1,-0,-0,0.11,0,,,,,,,,,,,,,,,,,
76723,0,,,,,,,,-0.03,0.2,-0.18,-1,-2,6,0.2,0,,,,,,,,,,,,,,,,,
76763,0,,,,,,,,-0.01,0.05,-0.16,-1,-3,1,0.05,0,,,,,,,,,,,,,,,,,
76803,0,,,,,,,,0.02,0.07,-0.11,-1,-6,7,0.07,0,,,,,,,,,,,,,,,,,
76843,0,1,0,49,52,32,38,2,-0.05,-0.04,0.21,-0,5,-9,0.07,0,0,0.0,0.0,0.0,0.0,0,0,0.0,0,0.0,-1,0.0,0.0,0.0,0,0.0,1.2807
76883,0,,,,,,,,-0.16,0.03,-0.21,0,-12,6,0.16,0,,,,,,,,,,,,,,,,,
76923,0,,,,,,,,-0.04,0.13,-0.15,1,-14,11,0.14,0,,,,,,,,,,,,,,,,,
76963,0,,,,,,,,0.13,0.11,0.26,1,4,-5,0.17,0,,,,,,,,,,,,,,,,,
77003,0,,,,,,,,0.13,0.07,0.51,1,13,-15,0.15,0,,,,,,,,,,,,,,,,,
77043,0,0,1,49,52,33,38,1,-0.03,-0.02,0.03,1,3,-8,0.03,0,0,0.0,0.0,0.0,0.0,0,0,0.0,0,0.0,-1,0.0,0.0,0.0,0,0.0,1.284
77083,0,,,,,,,,-0.1,0.02,-0.35,2,-9,6,0.1,0,,,,,,,,,,,,,,,,,
77123,0,,,,,,,,-0.05,0.08,-0.48,2,-8,9,0.1,0,,,,,,,,,,,,,,,,,
77163,0,,,,,,,,0.05,0.05,-0.01,2,7,-6,0.07,0,,,,,,,,,,,,,,,,,
77203,0,,,,,,,,0.04,-0.03,-0.03,1,9,-9,0.05,0,,,,,,,,,,,,,,,,,
77243,0,1,0,49,52,32,38,2,-0.0,0.04,-0.4,1,-2,4,0.04,0,0,0.0,0.0,0.0,0.0,0,0,0.0,0,0.0,-1,0.0,0.0,0.0,0,0.0,1.2874
77283,0,,,,,,,,0.18,0.09,0.05,0,12,-11,0.2,0,,,,,,,,,,,,,,,,,
77323,0,,,,,,,,0.04,-0.03,-0.27,0,2,0,0.05,0,,,,,,,,,,,,,,,,,
77363,0,,,,,,,,0.12,0.05,-0.2,0,12,-7,0.13,0,,,,,,,,,,,,,,,,,
77403,0,,,,,,,,0.14,-0.03,-0.19,-0,12,-8,0.14,0,,,,,,,,,,,,,,,,,
77443,0,0,3,49,52,33,37,2,-0.0,0.08,-0.53,0,-9,8,0.08,0,0,0.0,0.0,0.0,0.0,0,0,0.0,0,0.0,-1,0.0,0.0,0.0,0,0.0,1.2907
77483,0,,,,,,,,0.16,0.15,-0.41,1,-0,5,0.22,0,,,,,,,,,,,,,,,,,
77523,0,,,,,,,,0.06,0.01,-0.35,-0,16,-13,0.06,0,,,,,,,,,,,,,,,,,
77563,0,,,,,,,,-0.12,0.02,-0.67,-1,15,-14,0.12,0,,,,,,,,,,,,,,,,,
77603,0,,,,,,,,-0.19,0.0,-0.92,-1,9,-12,0.19,0,,,,,,,,,,,,,,,,,
77643,0,1,1,49,52,32,38,2,-0.34,-0.01,-1.13,-0,17,-17,0.34,0,0,0.0,0.0,0.0,0.0,0,0,0.0,0,0.0,-1,0.0,0.0,0.0,0,0.0,1.294
77683,0,,,,,,,,-0.53,-0.12,-1.29,1,31,-25,0.54,0,,,,,,,,,,,,,,,,,
77723,0,,,,,,,,-0.6,-0.15,-1.43,0,40,-33,0.62,0,,,,,,,,,,,,,,,,,
77763,0,,,,,,,,-0.68,-0.19,-1.54,-1,48,-45,0.7,0,,,,,,,,,,,,,,,,,
77803,0,,,,,,,,-0.63,-0.19,-1.0,-1,60,-56,0.66,0,,,,,,,,,,,,,,,,,
77843,0,0,3,49,52,33,38,2,-0.44,-0.18,-0.43,-2,68,-64,0.48,0,0,0.0,0.0,0.0,0.0,0,0,0.0,0,0.0,-1,0.0,0.0,0.0,0,0.0,1.2974
77883,0,,,,,,,,-0.24,-0.08,0.03,-1,74,-69,0.25,0,,,,,,,,,,,,,,,,,
77923,0,,,,,,,,-0.07,-0.08,0.41,-1,77,-71,0.11,0,,,,,,,,,,,,,,,,,
77963,0,,,,,,,,0.14,-0.06,0.71,-1,83,-67,0.16,0,,,,,,,,,,,,,,,,,
78003,0,,,,,,,,0.24,-0.09,0.95,-1,77,-64,0.25,0,,,,,,,,,,,,,,,,,
78043,0,0,3,49,52,33,38,3,0.25,-0.04,1.15,-1,77,-67,0.25,0,0,0.0,0.0,0.0,0.0,0,0,0.0,0,0.0,-1,0.0,0.0,0.0,0,0.0,1.3007
78083,0,,,,,,,,0.2,-0.09,1.29,-1,75,-68,0.22,0,,,,,,,,,,,,,,,,,
78123,0,,,,,,,,0.1,-0.08,0.66,-1,60,-57,0.13,0,,,,,,,,,,,,,,,,,
78163,0,,,,,,,,0.07,-0.04,0.16,-0,37,-34,0.08,0,,,,,,,,,,,,,,,,,
78203,0,,,,,,,,0.18,0.04,0.15,-0,25,-24,0.19,0,,,,,,,,,,,,,,,,,
78243,0,0,2,49,52,33,38,2,0.2,0.01,0.5,-0,33,-34,0.2,0,0,0.0,0.0,0.0,0.0,0,0,0.0,0,0.0,-1,0.0,0.0,0.0,0,0.0,1.304
78283,0,,,,,,,,0.01,-0.0,0.12,-0,24,-25,0.01,0,,,,,,,,,,,,,,,,,
78323,0,,,,,,,,-0.01,0.08,-0.28,0,12,-10,0.08,0,,,,,,,,,,,,,,,,,
78363,0,,,,,,,,0.15,0.08,0.15,-0,20,-19,0.17,0,,,,,,,,,,,,,,,,,
78403,0,,,,,,,,-0.02,0.02,-0.1,-1,7,-11,0.03,0,,,,,,,,,,,,,,,,,
78443,0,0,3,49,52,33,38,2,-0.05,0.14,-0.45,0,-6,1,0.15,0,0,0.0,0.0,0.0,0.0,0,0,0.0,0,0.0,-1,0.0,0.0,0.0,0,0.0,1.3074
78483,0,,,,,,,,0.11,0.15,0.02,0,10,-12,0.19,0,,,,,,,,,,,,,,,,,
78523,0,,,,,,,,0.19,0.07,0.39,0,23,-24,0.2,0,,,,,,,,,,,,,,,,,
78563,0,,,,,,,,0.12,-0.01,0.3,0,22,-21,0.12,0,,,,,,,,,,,,,,,,,
78603,0,,,,,,,,-0.0,-0.03,-0.14,0,14,-16,0.03,0,,,,,,,,,,,,,,,,,
78643,0,-1,2,49,52,33,38,2,-0.13,-0.06,-0.32,-0,10,-11,0.14,0,0,0.0,0.0,0.0,0.0,0,0,0.0,0,0.0,-1,0.0,0.0,0.0,0,0.0,1.3107
78683,0,,,,,,,,-0.09,-0.09,0.12,-0,15,-15,0.13,0,,,,,,,,,,,,,,,,,
78723,0,,,,,,,,-0.05,-0.13,0.48,-1,18,-14,0.14,0,,,,,,,,,,,,,,,,,
78763,0,,,,,,,,0.12,-0.11,0.77,-1,31,-27,0.16,0,,,,,,,,,,,,,,,,,
78803,0,,,,,,,,0.2,-0.05,1.0,-1,41,-42,0.21,0,,,,,,,,,,,,,,,,,
78843,0,1,2,49,52,33,38,3,0.3,-0.08,1.19,-1,53,-54,0.31,0,0,0.0,0.0,0.0,0.0,0,0,0.0,0,0.0,-1,0.0,0.0,0.0,0,0.0,1.314
78883,0,,,,,,,,0.23,-0.16,0.94,-1,55,-59,0.28,0,,,,,,,,,,,,,,,,,
78923,0,,,,,,,,-0.0,-0.04,0.38,-2,56,-63,0.04,0,,,,,,,,,,,,,,,,,
78963,0,,,,,,,,-0.13,-0.08,-0.02,-3,63,-69,0.15,0,,,,,,,,,,,,,,,,,
79003,0,,,,,,,,-0.31,-0.11,-0.39,-2,62,-68,0.33,0,,,,,,,,,,,,,,,,,
79043,0,1,2,49,52,33,38,2,-0.35,-0.06,-0.7,-2,48,-56,0.35,0,0,0.0,0.0,0.0,0.0,0,0,0.0,0,0.0,-1,0.0,0.0,0.0,0,0.0,1.3174
79083,0,,,,,,,,-0.36,0.03,-0.95,-1,28,-35,0.36,0,,,,,,,,,,,,,,,,,
79123,0,,,,,,,,-0.12,0.07,-0.75,0,17,-20,0.14,0,,,,,,,,,,,,,,,,,
79163,0,,,,,,,,0.08,-0.01,-0.23,0,28,-24,0.08,0,,,,,,,,,,,,,,,,,
79203,0,,,,,,,,-0.0,-0.08,-0.2,0,35,-28,0.08,0,,,,,,,,,,,,,,,,,
79243,0,1,3,49,52,33,38,3,0.04,0.04,-0.55,0,12,-10,0.06,0,0,0.0,0.0,0.0,0.0,0,0,0.0,0,0.0,-1,0.0,0.0,0.0,0,0.0,1.3207
79283,0,,,,,,,,0.1,0.01,-0.06,-1,15,-15,0.1,0,,,,,,,,,,,,,,,,,
79323,0,,,,,,,,-0.04,-0.09,-0.26,-1,23,-22,0.1,0,,,,,,,,,,,,,,,,,
79363,0,,,,,,,,-0.17,-0.01,-0.59,0,2,-5,0.17,0,,,,,,,,,,,,,,,,,
79403,0,,,,,,,,0.12,0.03,-0.1,-0,1,-2,0.13,0,,,,,,,,,,,,,,,,,
79443,0,1,2,49,52,33,38,2,0.21,-0.0,0.3,-1,14,-11,0.21,0,0,0.0,0.0,0.0,0.0,0,0,0.0,0,0.0,-1,0.0,0.0,0.0,0,0.0,1.324
79483,0,,,,,,,,0.3,-0.04,0.62,-1,26,-24,0.31,0,,,,,,,,,,,,,,,,,
79523,0,,,,,,,,0.34,0.03,0.88,-1,37,-35,0.35,0,,,,,,,,,,,,,,,,,
79563,0,,,,,,,,0.48,-0.07,1.09,-1,49,-47,0.49,0,,,,,,,,,,,,,,,,,
79603,0,,,,,,,,0.55,-0.03,1.27,-1,57,-56,0.55,0,,,,,,,,,,,,,,,,,
79643,0,-1,2,49,52,32,38,2,0.63,-0.06,1.4,-1,62,-64,0.64,0,0,0.0,0.0,0.0,0.0,0,0,0.0,0,0.0,-1,0.0,0.0,0.0,0,0.0,1.3274
79683,0,,,,,,,,0.65,-0.05,1.52,-1,67,-67,0.65,0,,,,,,,,,,,,,,,,,
79723,0,,,,,,,,0.6,-0.01,1.61,-2,65,-68,0.6,0,,,,,,,,,,,,,,,,,
79763,0,,,,,,,,0.42,0.0,1.68,-1,57,-63,0.42,0,,,,,,,,,,,,,,,,,
79803,0,,,,,,,,0.19,-0.09,1.11,-1,43,-52,0.21,0,,,,,,,,,,,,,,,,,
79843,0,1,1,49,52,33,38,2,0.1,-0.03,0.52,-1,24,-34,0.1,0,0,0.0,0.0,0.0,0.0,0,0,0.0,0,0.0,-1,0.0,0.0,0.0,0,0.0,1.3307
79883,0,,,,,,,,-0.0,-0.01,0.04,-1,3,-13,0.01,0,,,,,,,,,,,,,,,,,
79923,0,,,,,,,,0.03,0.03,-0.13,-1,-0,-8,0.04,0,,,,,,,,,,,,,,,,,
79963,0,,,,,,,,0.1,0.05,0.27,-1,11,-17,0.11,0,,,,,,,,,,,,,,,,,
80003,0,,,,,,,,0.04,0.0,0.2,-1,7,-14,0.04,0,,,,,,,,,,,,,,,,,
80043,0,-1,3,49,52,32,38,2,-0.0,0.06,-0.22,-1,-4,-2,0.06,0,0,0.0,0.0,0.0,0.0,0,0,0.0,0,0.0,-1,0.0,0.0,0.0,0,0.0,1.334
80083,0,,,,,,,,0.14,0.02,0.2,-0,9,-14,0.14,0,,,,,,,,,,,,,,,,,
80123,0,,,,,,,,0.07,-0.02,-0.16,0,-3,-2,0.07,0,,,,,,,,,,,,,,,,,
80163,0,,,,,,,,0.07,0.12,-0.11,0,2,-4,0.14,0,,,,,,,,,,,,,,,,,
80203,0,,,,,,,,0.04,0.02,-0.11,0,3,-5,0.04,0,,,,,,,,,,,,,,,,,
80243,0,0,2,49,52,33,38,2,0.06,0.03,-0.07,0,3,1,0.06,0,0,0.0,0.0,0.0,0.0,0,0,0.0,0,0.0,-1,0.0,0.0,0.0,0,0.0,1.3374
80283,0,,,,,,,,0.06,-0.13,-0.08,1,16,-11,0.14,0,,,,,,,,,,,,,,,,,
80323,0,,,,,,,,0.08,-0.03,-0.44,1,1,2,0.08,0,,,,,,,,,,,,,,,,,
80363,0,,,,,,,,0.15,-0.05,0.02,1,2,1,0.15,0,,,,,,,,,,,,,,,,,
80403,0,,,,,,,,0.02,-0.07,-0.0,-0,12,-10,0.07,0,,,,,,,,,,,,,,,,,
80443,0,0,1,49,52,33,38,1,0.01,0.05,-0.38,1,-1,4,0.05,0,0,0.0,0.0,0.0,0.0,0,0,0.0,0,0.0,-1,0.0,0.0,0.0,0,0.0,1.3407
80483,0,,,,,,,,0.16,-0.01,0.07,2,7,-3,0.16,0,,,,,,,,,,,,,,,,,
80523,0,,,,,,,,0.07,-0.03,0.04,1,12,-13,0.08,0,,,,,,,,,,,,,,,,,
80563,0,,,,,,,,-0.02,0.06,-0.35,1,-6,3,0.07,0,,,,,,,,,,,,,,,,,
80603,0,,,,,,,,0.12,0.11,-0.27,2,-7,8,0.16,0,,,,,,,,,,,,,,,,,
80643,0,0,3,49,52,33,38,0,0.27,0.12,0.16,2,-1,8,0.3,0,0,0.0,0.0,0.0,0.0,0,0,0.0,0,0.0,-1,0.0,0.0,0.0,0,0.0,1.344
80683,0,,,,,,,,0.31,0.11,0.51,2,6,4,0.33,0,,,,,,,,,,,,,,,,,
80723,0,,,,,,,,0.4,0.11,0.79,1,17,-9,0.41,0,,,,,,,,,,,,,,,,,
80763,0,,,,,,,,0.2,0.1,0.26,1,8,-0,0.23,0,,,,,,,,,,,,,,,,,
80803,0,,,,,,,,0.13,0.14,0.19,1,9,-1,0.19,0,,,,,,,,,,,,,,,,,
80843,0,-1,2,49,52,32,38,1,0.26,0.12,0.54,1,11,-6,0.29,0,0,0.0,0.0,0.0,0.0,0,0,0.0,0,0.0,-1,0.0,0.0,0.0,0,0.0,1.3474
80883,0,,,,,,,,0.35,0.16,0.81,0,11,-11,0.38,0,,,,,,,,,,,,,,,,,
80923,0,,,,,,,,0.31,0.1,0.68,0,11,-10,0.32,0,,,,,,,,,,,,,,,,,
80963,0,,,,,,,,0.21,0.09,0.27,1,6,-4,0.23,0,,,,,,,,,,,,,,,,,
81003,0,,,,,,,,0.19,-0.0,0.06,1,5,-1,0.19,0,,,,,,,,,,,,,,,,,
81043,0,-0,2,49,52,33,38,1,0.13,0.05,-0.33,1,1,5,0.14,0,0,0.0,0.0,0.0,0.0,0,0,0.0,0,0.0,-1,0.0,0.0,0.0,0,0.0,1.3507
81083,0,,,,,,,,0.04,0.1,-0.64,0,-6,10,0.11,0,,,,,,,,,,,,,,,,,
81123,0,,,,,,,,0.03,0.13,-0.54,-0,-6,9,0.13,0,,,,,,,,,,,,,,,,,
81163,0,,,,,,,,0.05,0.06,-0.42,0,-4,4,0.08,0,,,,,,,,,,,,,,,,,
81203,0,,,,,,,,0.04,0.03,-0.36,0,-5,7,0.05,0,,,,,,,,,,,,,,,,,
81243,0,1,1,49,52,33,38,1,-0.02,-0.05,-0.67,0,-4,9,0.06,0,0,0.0,0.0,0.0,0.0,0,0,0.0,0,0.0,-1,0.0,0.0,0.0,0,0.0,1.3541
81283,0,,,,,,,,-0.0,-0.14,-0.74,1,-3,11,0.14,0,,,,,,,,,,,,,,,,,
81323,0,,,,,,,,0.04,-0.12,-0.47,0,-2,8,0.12,0,,,,,,,,,,,,,,,,,
81363,0,,,,,,,,0.08,0.04,-0.36,1,1,9,0.09,0,,,,,,,,,,,,,,,,,
81403,0,,,,,,,,0.22,0.06,-0.15,1,5,5,0.22,0,,,,,,,,,,,,,,,,,
81443,0,1,1,49,52,33,38,1,0.03,0.17,-0.1,1,-6,13,0.17,0,0,0.0,0.0,0.0,0.0,0,0,0.0,0,0.0,-1,0.0,0.0,0.0,0,0.0,1.3574
81483,0,,,,,,,,0.13,0.18,-0.15,1,5,9,0.22,0,,,,,,,,,,,,,,,,,
81523,0,,,,,,,,0.09,0.17,-0.1,1,-4,12,0.19,0,,,,,,,,,,,,,,,,,
81563,0,,,,,,,,0.23,0.25,0.26,1,8,0,0.34,0,,,,,,,,,,,,,,,,,
81603,0,,,,,,,,0.06,0.19,0.19,0,15,-7,0.2,0,,,,,,,,,,,,,,,,,
81643,0,12,12,49,52,33,38,0,0.18,0.2,0.53,0,13,-7,0.27,0,0,0.0,0.0,0.0,0.0,0,0,0.0,0,0.0,-1,0.0,0.0,0.0,0,0.0,1.3607
81683,0,,,,,,,,0.03,0.21,0.58,1,9,-5,0.21,0,,,,,,,,,,,,,,,,,
81723,0,,,,,,,,0.05,0.12,0.6,1,15,-5,0.13,0,,,,,,,,,,,,,,,,,
81763,0,,,,,,,,-0.26,0.12,0.72,1,-4,-2,0.28,0,,,,,,,,,,,,,,,,,
81803,0,,,,,,,,0.05,0.14,0.2,1,-39,4,0.15,0,,,,,,,,,,,,,,,,,
81843,0,15,14,48,51,33,38,0,0.2,0.11,-0.14,1,-66,5,0.23,0,0,0.0,0.0,0.0,0.0,0,0,0.0,0,0.0,-1,0.0,0.0,0.0,0,0.0,1.3641
81883,0,,,,,,,,-0.09,0.1,0.23,0,-81,6,0.14,0,,,,,,,,,,,,,,,,,
81923,0,,,,,,,,-0.06,0.11,0.42,0,-61,4,0.13,0,,,,,,,,,,,,,,,,,
81963,0,,,,,,,,-0.05,0.1,0.36,0,-55,3,0.11,0,,,,,,,,,,,,,,,,,
82003,0,,,,,,,,-0.04,0.08,0.46,1,-36,3,0.09,0,,,,,,,,,,,,,,,,,
82043,0,21,18,48,51,33,38,-0,-0.12,0.05,0.39,1,-33,1,0.13,0,0,0.0,0.0,0.0,0.0,0,0,0.0,0,0.0,-1,0.0,0.0,0.0,0,0.0,1.3674
82083,0,,,,,,,,-0.11,0.01,0.59,0,-21,1,0.11,0,,,,,,,,,,,,,,,,,
82123,0,,,,,,,,-0.11,0.01,0.38,0,-27,2,0.11,0,,,,,,,,,,,,,,,,,
82163,0,,,,,,,,-0.18,0.01,0.69,0,-25,2,0.18,0,,,,,,,,,,,,,,,,,
82203,0,,,,,,,,0.16,0.03,0.46,1,-1,1,0.16,0,,,,,,,,,,,,,,,,,
82243,0,17,15,48,51,33,38,0,0.22,0.0,-0.0,1,-10,2,0.22,0,0,0.0,0.0,0.0,0.0,0,0,0.0,0,0.0,-1,0.0,0.0,0.0,0,0.0,1.3707
82283,0,,,,,,,,-0.14,0.0,0.32,0,-39,4,0.14,0,,,,,,,,,,,,,,,,,
82323,0,,,,,,,,-0.49,-0.01,0.63,-0,-64,6,0.49,0,,,,,,,,,,,,,,,,,
82363,0,,,,,,,,-0.78,0.02,0.89,0,-71,6,0.78,0,,,,,,,,,,,,,,,,,
82403,0,,,,,,,,-1.01,0.07,1.1,0,-80,8,1.01,0,,,,,,,,,,,,,,,,,
82443,0,17,13,48,51,33,38,0,-1.03,0.15,1.2,0,-101,11,1.05,0,0,0.0,0.0,0.0,0.0,0,0,0.0,0,0.0,-1,0.0,0.0,0.0,0,0.0,1.3741
82483,0,,,,,,,,-0.48,0.09,0.8,1,-76,8,0.49,0,,,,,,,,,,,,,,,,,
82523,0,,,,,,,,-0.39,0.11,0.92,1,-62,6,0.4,0,,,,,,,,,,,,,,,,,
82563,0,,,,,,,,-0.48,0.06,0.69,1,-50,5,0.49,0,,,,,,,,,,,,,,,,,
82603,0,,,,,,,,-0.01,0.06,0.94,0,-22,-7,0.06,0,,,,,,,,,,,,,,,,,
82643,0,18,15,48,51,33,38,-0,-0.08,0.16,0.74,1,-18,-5,0.17,0,0,0.0,0.0,0.0,0.0,0,0,0.0,0,0.0,-1,0.0,0.0,0.0,0,0.0,1.3774
82683,0,,,,,,,,0.13,0.17,0.98,1,2,-21,0.21,0,,,,,,,,,,,,,,,,,
82723,0,,,,,,,,0.03,0.09,0.77,1,0,-16,0.09,0,,,,,,,,,,,,,,,,,
82763,0,,,,,,,,0.17,0.16,1.0,1,4,-21,0.24,0,,,,,,,,,,,,,,,,,
82803,0,,,,,,,,0.01,0.14,0.79,0,-3,-15,0.14,0,,,,,,,,,,,,,,,,,
82843,0,18,16,48,51,33,38,-0,0.06,-0.01,0.84,0,1,-14,0.06,0,0,0.0,0.0,0.0,0.0,0,0,0.0,0,0.0,-1,0.0,0.0,0.0,0,0.0,1.3807
82883,0,,,,,,,,-0.02,0.03,0.66,1,-2,-9,0.03,0,,,,,,,,,,,,,,,,,
82923,0,,,,,,,,0.1,-0.02,0.86,1,-0,-9,0.1,0,,,,,,,,,,,,,,,,,
82963,0,,,,,,,,0.14,0.0,0.71,1,3,-8,0.14,0,,,,,,,,,,,,,,,,,
83003,0,,,,,,,,-0.03,0.04,0.2,1,2,-6,0.05,0,,,,,,,,,,,,,,,,,
83043,0,18,16,48,51,33,38,0,0.08,0.07,0.54,1,-2,-4,0.11,0,0,0.0,0.0,0.0,0.0,0,0,0.0,0,0.0,-1,0.0,0.0,0.0,0,0.0,1.384
83083,0,,,,,,,,0.06,0.05,0.07,1,2,-6,0.08,0,,,,,,,,,,,,,,,,,
83123,0,,,,,,,,-0.01,-0.05,-0.32,1,2,2,0.05,0,,,,,,,,,,,,,,,,,
83163,0,,,,,,,,0.07,-0.03,-0.24,1,7,-0,0.08,0,,,,,,,,,,,,,,,,,
83203,0,,,,,,,,0.09,-0.03,-0.12,1,7,-2,0.1,0,,,,,,,,,,,,,,,,,
83243,0,19,18,48,51,33,38,-1,0.09,0.04,-0.08,1,1,5,0.09,0,0,0.0,0.0,0.0,0.0,0,0,0.0,0,0.0,-1,0.0,0.0,0.0,0,0.0,1.3874
83283,0,,,,,,,,0.17,-0.02,0.31,1,11,-4,0.17,0,,,,,,,,,,,,,,,,,
83323,0,,,,,,,,0.31,0.03,0.23,1,-2,5,0.32,0,,,,,,,,,,,,,,,,,
83363,0,,,,,,,,0.09,0.02,0.21,0,2,-1,0.1,0,,,,,,,,,,,,,,,,,
83403,0,,,,,,,,0.37,0.06,0.33,1,3,2,0.38,0,,,,,,,,,,,,,,,,,
83443,0,19,16,48,51,33,38,0,0.07,0.11,-0.12,0,-15,14,0.12,0,0,0.0,0.0,0.0,0.0,0,0,0.0,0,0.0,-1,0.0,0.0,0.0,0,0.0,1.3907
83483,0,,,,,,,,0.08,0.08,0.29,1,8,-9,0.11,0,,,,,,,,,,,,,,,,,
83523,0,,,,,,,,0.23,0.08,0.61,1,15,-13,0.24,0,,,,,,,,,,,,,,,,,
83563,0,,,,,,,,0.32,0.19,0.75,0,8,-5,0.37,0,,,,,,,,,,,,,,,,,
83603,0,,,,,,,,0.29,0.23,0.35,0,-3,4,0.37,0,,,,,,,,,,,,,,,,,
83643,0,19,16,48,51,33,38,0,0.16,0.23,-0.1,0,-17,16,0.28,0,0,0.0,0.0,0.0,0.0,0,0,0.0,0,0.0,-1,0.0,0.0,0.0,0,0.0,1.394
83683,0,,,,,,,,0.11,0.29,-0.46,0,-23,22,0.31,0,,,,,,,,,,,,,,,,,
83723,0,,,,,,,,0.04,0.32,-0.75,2,-22,24,0.32,0,,,,,,,,,,,,,,,,,
83763,0,,,,,,,,-0.03,0.36,-0.99,2,-28,28,0.36,0,,,,,,,,,,,,,,,,,
83803,0,,,,,,,,-0.07,0.38,-1.18,3,-30,30,0.38,0,,,,,,,,,,,,,,,,,
83843,0,19,14,48,51,33,38,1,-0.03,0.42,-1.34,3,-27,29,0.42,0,0,0.0,0.0,0.0,0.0,0,0,0.0,0,0.0,-1,0.0,0.0,0.0,0,0.0,1.3974
83883,0,,,,,,,,-0.09,0.41,-1.47,3,-29,29,0.42,0,,,,,,,,,,,,,,,,,
83923,0,,,,,,,,-0.09,0.43,-1.57,3,-30,31,0.44,0,,,,,,,,,,,,,,,,,
83963,0,,,,,,,,-0.2,0.38,-1.65,4,-30,32,0.43,0,,,,,,,,,,,,,,,,,
84003,0,,,,,,,,-0.21,0.43,-1.72,4,-28,32,0.48,0,,,,,,,,,,,,,,,,,
84043,0,19,15,48,51,33,38,0,-0.31,0.42,-1.77,2,-35,36,0.52,0,0,0.0,0.0,0.0,0.0,0,0,0.0,0,0.0,-1,0.0,0.0,0.0,0,0.0,1.4007
84083,0,,,,,,,,-0.37,0.45,-1.82,2,-37,37,0.59,0,,,,,,,,,,,,,,,,,
84123,0,,,,,,,,-0.43,0.42,-1.85,1,-40,39,0.6,0,,,,,,,,,,,,,,,,,
84163,0,,,,,,,,-0.42,0.43,-1.88,1,-40,38,0.6,0,,,,,,,,,,,,,,,,,
84203,0,,,,,,,,-0.39,0.41,-1.9,2,-32,34,0.56,0,,,,,,,,,,,,,,,,,
84243,0,19,14,48,51,33,38,1,-0.21,0.42,-1.92,1,-23,27,0.47,0,0,0.0,0.0,0.0,0.0,0,0,0.0,0,0.0,-1,0.0,0.0,0.0,0,0.0,1.404
84283,0,,,,,,,,-0.11,0.46,-1.94,2,-14,23,0.47,0,,,,,,,,,,,,,,,,,
84323,0,,,,,,,,-0.0,0.5,-1.95,1,-8,18,0.5,0,,,,,,,,,,,,,,,,,
84363,0,,,,,,,,0.11,0.48,-1.47,0,-3,12,0.49,0,,,,,,,,,,,,,,,,,
84403,0,,,,,,,,0.23,0.32,-0.81,0,9,-1,0.39,0,,,,,,,,,,,,,,,,,
84443,0,17,16,48,51,33,38,0,0.26,0.25,-0.28,0,22,-14,0.36,0,0,0.0,0.0,0.0,0.0,0,0,0.0,0,0.0,-1,0.0,0.0,0.0,0,0.0,1.4074
84483,0,,,,,,,,0.27,0.13,0.15,0,31,-25,0.3,0,,,,,,,,,,,,,,,,,
84523,0,,,,,,,,0.3,0.1,0.5,0,38,-33,0.32,0,,,,,,,,,,,,,,,,,
84563,0,,,,,,,,0.32,-0.04,0.79,-0,45,-41,0.32,0,,,,,,,,,,,,,,,,,
84603,0,,,,,,,,0.28,-0.06,1.02,-0,50,-47,0.29,0,,,,,,,,,,,,,,,,,
84643,0,18,17,48,51,33,38,0,0.28,-0.16,1.2,-0,55,-52,0.32,0,0,0.0,0.0,0.0,0.0,0,0,0.0,0,0.0,-1,0.0,0.0,0.0,0,0.0,1.4107
84683,0,,,,,,,,0.41,-0.17,1.35,0,61,-56,0.44,0,,,,,,,,,,,,,,,,,
84723,0,,,,,,,,0.49,-0.23,1.48,-0,62,-56,0.54,0,,,,,,,,,,,,,,,,,
84763,0,,,,,,,,0.54,-0.13,1.58,0,57,-47,0.56,0,,,,,,,,,,,,,,,,,
84803,0,,,,,,,,0.56,-0.1,1.66,0,51,-40,0.57,0,,,,,,,,,,,,,,,,,
84843,0,19,15,48,51,33,38,0,0.59,-0.0,1.72,1,42,-30,0.59,0,0,0.0,0.0,0.0,0.0,0,0,0.0,0,0.0,-1,0.0,0.0,0.0,0,0.0,1.414
84883,0,,,,,,,,0.59,0.1,1.38,1,29,-19,0.6,0,,,,,,,,,,,,,,,,,
84923,0,,,,,,,,0.38,0.18,0.73,1,6,-2,0.42,0,,,,,,,,,,,,,,,,,
84963,0,,,,,,,,0.14,0.24,0.21,1,-12,14,0.28,0,,,,,,,,,,,,,,,,,
85003,0,,,,,,,,-0.01,0.2,-0.21,1,-22,22,0.2,0,,,,,,,,,,,,,,,,,
85043,0,18,17,48,51,33,38,0,-0.12,0.14,-0.55,1,-23,23,0.18,0,0,0.0,0.0,0.0,0.0,0,0,0.0,0,0.0,-1,0.0,0.0,0.0,0,0.0,1.4174
85083,0,,,,,,,,-0.23,0.05,-0.82,1,-21,19,0.23,0,,,,,,,,,,,,,,,,,
85123,0,,,,,,,,-0.2,-0.07,-0.6,1,-7,6,0.22,0,,,,,,,,,,,,,,,,,
85163,0,,,,,,,,-0.05,-0.13,-0.1,0,6,-9,0.14,0,,,,,,,,,,,,,,,,,
85203,0,,,,,,,,0.02,-0.18,0.3,0,16,-20,0.18,0,,,,,,,,,,,,,,,,,
85243,0,20,16,48,51,33,38,1,0.15,-0.23,0.62,-0,24,-29,0.27,0,0,0.0,0.0,0.0,0.0,0,0,0.0,0,0.0,-1,0.0,0.0,0.0,0,0.0,1.4207
85283,0,,,,,,,,0.24,-0.25,0.88,-0,31,-37,0.35,0,,,,,,,,,,,,,,,,,
85323,0,,,,,,,,0.36,-0.27,1.09,-0,41,-46,0.45,0,,,,,,,,,,,,,,,,,
85363,0,,,,,,,,0.47,-0.27,1.26,-0,48,-49,0.54,0,,,,,,,,,,,,,,,,,
85403,0,,,,,,,,0.53,-0.17,1.4,-0,49,-46,0.56,0,,,,,,,,,,,,,,,,,
85443,0,19,15,48,51,33,38,0,0.54,-0.02,1.44,0,43,-37,0.54,0,0,0.0,0.0,0.0,0.0,0,0,0.0,0,0.0,-1,0.0,0.0,0.0,0,0.0,1.424
85483,0,,,,,,,,0.35,0.08,0.78,0,27,-24,0.36,0,,,,,,,,,,,,,,,,,
85523,0,,,,,,,,0.12,0.15,0.25,1,4,-5,0.2,0,,,,,,,,,,,,,,,,,
85563,0,,,,,,,,-0.07,0.11,-0.17,1,-14,11,0.13,0,,,,,,,,,,,,,,,,,
85603,0,,,,,,,,-0.19,0.02,-0.52,1,-23,18,0.19,0,,,,,,,,,,,,,,,,,
85643,0,18,17,48,51,33,38,0,-0.21,-0.07,-0.25,1,-21,15,0.22,0,0,0.0,0.0,0.0,0.0,0,0,0.0,0,0.0,-1,0.0,0.0,0.0,0,0.0,1.4274
85683,0,,,,,,,,-0.09,-0.17,0.18,0,-13,7,0.19,0,,,,,,,,,,,,,,,,,
85723,0,,,,,,,,-0.08,-0.22,0.12,0,-3,-3,0.23,0,,,,,,,,,,,,,,,,,
85763,0,,,,,,,,-0.16,-0.26,-0.28,0,8,-14,0.31,0,,,,,,,,,,,,,,,,,
85803,0,,,,,,,,-0.17,-0.32,-0.4,0,20,-27,0.37,0,,,,,,,,,,,,,,,,,
85843,0,18,17,48,51,33,38,1,-0.2,-0.33,-0.0,-0,31,-36,0.39,0,0,0.0,0.0,0.0,0.0,0,0,0.0,0,0.0,-1,0.0,0.0,0.0,0,0.0,1.4307
85883,0,,,,,,,,-0.06,-0.37,0.38,-0,39,-42,0.37,0,,,,,,,,,,,,,,,,,
85923,0,,,,,,,,0.14,-0.35,0.68,-0,44,-44,0.38,0,,,,,,,,,,,,,,,,,
85963,0,,,,,,,,0.29,-0.35,0.93,-0,42,-40,0.46,0,,,,,,,,,,,,,,,,,
86003,0,,,,,,,,0.39,-0.21,1.14,0,35,-30,0.45,0,,,,,,,,,,,,,,,,,
86043,0,19,14,48,51,33,38,0,0.42,-0.09,1.08,1,20,-17,0.43,0,0,0.0,0.0,0.0,0.0,0,0,0.0,0,0.0,-1,0.0,0.0,0.0,0,0.0,1.434
86083,0,,,,,,,,0.23,-0.03,0.49,1,-0,1,0.23,0,,,,,,,,,,,,,,,,,
86123,0,,,,,,,,-0.02,0.05,0.02,1,-14,12,0.05,0,,,,,,,,,,,,,,,,,
86163,0,,,,,,,,-0.2,0.02,-0.37,1,-18,14,0.2,0,,,,,,,,,,,,,,,,,
86203,0,,,,,,,,-0.29,-0.06,-0.58,1,-4,0,0.29,0,,,,,,,,,,,,,,,,,
86243,0,17,14,48,51,33,38,-1,-0.17,-0.15,-0.09,0,13,-17,0.22,0,0,0.0,0.0,0.0,0.0,0,0,0.0,0,0.0,-1,0.0,0.0,0.0,0,0.0,1.4374
86283,0,,,,,,,,0.05,-0.23,0.3,0,28,-28,0.23,0,,,,,,,,,,,,,,,,,
86323,0,,,,,,,,0.23,-0.23,0.63,0,34,-29,0.32,0,,,,,,,,,,,,,,,,,
86363,0,,,,,,,,0.34,-0.12,0.89,0,31,-24,0.36,0,,,,,,,,,,,,,,,,,
86403,0,,,,,,,,0.41,-0.02,1.1,0,25,-17,0.42,0,,,,,,,,,,,,,,,,,
86443,0,16,15,48,51,33,38,1,0.34,0.06,0.51,1,10,-6,0.35,0,0,0.0,0.0,0.0,0.0,0,0,0.0,0,0.0,-1,0.0,0.0,0.0,0,0.0,1.4407
86483,0,,,,,,,,0.14,0.13,0.03,1,-7,10,0.19,0,,,,,,,,,,,,,,,,,
86523,0,,,,,,,,-0.05,0.16,-0.36,1,-21,20,0.17,0,,,,,,,,,,,,,,,,,
86563,0,,,,,,,,-0.17,0.02,-0.67,1,-19,18,0.17,0,,,,,,,,,,,,,,,,,
86603,0,,,,,,,,-0.1,-0.05,-0.16,0,-6,4,0.12,0,,,,,,,,,,,,,,,,,
86643,0,17,13,48,51,33,38,0,0.07,-0.14,0.25,1,10,-13,0.16,0,0,0.0,0.0,0.0,0.0,0,0,0.0,0,0.0,-1,0.0,0.0,0.0,0,0.0,1.4441
86683,0,,,,,,,,0.24,-0.04,0.58,-0,18,-17,0.24,0,,,,,,,,,,,,,,,,,
86723,0,,,,,,,,0.36,0.06,0.85,-0,18,-15,0.37,0,,,,,,,,,,,,,,,,,
86763,0,,,,,,,,0.26,0.13,0.31,0,8,-6,0.29,0,,,,,,,,,,,,,,,,,
86803,0,,,,,,,,0.09,0.23,-0.13,1,-6,6,0.24,0,,,,,,,,,,,,,,,,,
86843,0,17,13,48,51,33,38,-0,-0.09,0.22,-0.49,1,-14,15,0.23,0,0,0.0,0.0,0.0,0.0,0,0,0.0,0,0.0,-1,0.0,0.0,0.0,0,0.0,1.4474
86883,0,,,,,,,,-0.27,0.21,-0.77,1,-28,26,0.34,0,,,,,,,,,,,,,,,,,
86923,0,,,,,,,,-0.35,0.06,-1.01,1,-32,30,0.35,0,,,,,,,,,,,,,,,,,
86963,0,,,,,,,,-0.3,-0.05,-0.8,1,-29,27,0.3,0,,,,,,,,,,,,,,,,,
87003,0,,,,,,,,-0.1,-0.08,-0.27,1,-15,11,0.13,0,,,,,,,,,,,,,,,,,
87043,0,16,14,48,51,33,38,0,0.08,-0.12,0.16,0,3,-8,0.15,0,0,0.0,0.0,0.0,0.0,0,0,0.0,0,0.0,-1,0.0,0.0,0.0,0,0.0,1.4507
87083,0,,,,,,,,0.27,-0.05,0.51,0,16,-17,0.28,0,,,,,,,,,,,,,,,,,
87123,0,,,,,,,,0.4,-0.08,0.79,0,17,-14,0.41,0,,,,,,,,,,,,,,,,,
87163,0,,,,,,,,0.5,0.03,1.02,1,7,-4,0.5,0,,,,,,,,,,,,,,,,,
87203,0,,,,,,,,0.42,0.11,0.45,1,-12,11,0.44,0,,,,,,,,,,,,,,,,,
87243,0,15,14,48,51,33,38,1,0.23,0.13,-0.02,1,-22,21,0.26,0,0,0.0,0.0,0.0,0.0,0,0,0.0,0,0.0,-1,0.0,0.0,0.0,0,0.0,1.4541
87283,0,,,,,,,,0.03,0.14,-0.39,1,-29,28,0.15,0,,,,,,,,,,,,,,,,,
87323,0,,,,,,,,-0.11,0.11,-0.7,1,-31,28,0.15,0,,,,,,,,,,,,,,,,,
87363,0,,,,,,,,-0.22,-0.01,-0.95,1,-19,16,0.22,0,,,,,,,,,,,,,,,,,
87403,0,,,,,,,,-0.24,-0.14,-0.99,0,-3,-1,0.28,0,,,,,,,,,,,,,,,,,
87443,0,16,14,48,51,33,38,-1,-0.09,-0.17,-0.42,0,13,-17,0.2,0,0,0.0,0.0,0.0,0.0,0,0,0.0,0,0.0,-1,0.0,0.0,0.0,0,0.0,1.4574
87483,0,,,,,,,,0.07,-0.21,0.04,-0,23,-25,0.22,0,,,,,,,,,,,,,,,,,
87523,0,,,,,,,,0.22,-0.16,0.41,-0,27,-24,0.27,0,,,,,,,,,,,,,,,,,
87563,0,,,,,,,,0.37,-0.11,0.71,0,24,-19,0.38,0,,,,,,,,,,,,,,,,,
87603,0,,,,,,,,0.44,0.02,0.96,1,19,-11,0.44,0,,,,,,,,,,,,,,,,,
87643,0,17,13,48,51,33,38,-0,0.37,0.11,0.61,1,5,0,0.39,0,0,0.0,0.0,0.0,0.0,0,0,0.0,0,0.0,-1,0.0,0.0,0.0,0,0.0,1.4607
87683,0,,,,,,,,0.13,0.16,0.12,1,-14,16,0.2,0,,,,,,,,,,,,,,,,,
87723,0,,,,,,,,-0.06,0.14,-0.29,1,-24,22,0.15,0,,,,,,,,,,,,,,,,,
87763,0,,,,,,,,-0.18,0.05,-0.49,1,-15,14,0.19,0,,,,,,,,,,,,,,,,,
87803,0,,,,,,,,-0.11,-0.02,-0.02,0,1,-3,0.12,0,,,,,,,,,,,,,,,,,
87843,0,17,14,48,51,33,38,1,0.06,-0.09,0.36,-0,17,-18,0.1,0,0,0.0,0.0,0.0,0.0,0,0,0.0,0,0.0,-1,0.0,0.0,0.0,0,0.0,1.4641
87883,0,,,,,,,,0.25,-0.12,0.67,-0,28,-26,0.28,0,,,,,,,,,,,,,,,,,
87923,0,,,,,,,,0.35,-0.07,0.93,-0,33,-28,0.36,0,,,,,,,,,,,,,,,,,
87963,0,,,,,,,,0.38,0.03,1.13,0,35,-28,0.38,0,,,,,,,,,,,,,,,,,
88003,0,,,,,,,,0.47,0.09,1.29,-0,33,-23,0.48,0,,,,,,,,,,,,,,,,,
88043,0,15,14,48,51,33,38,0,0.41,0.15,0.67,0,20,-12,0.44,0,0,0.0,0.0,0.0,0.0,0,0,0.0,0,0.0,-1,0.0,0.0,0.0,0,0.0,1.4674
88083,0,,,,,,,,0.23,0.19,0.16,1,5,1,0.3,0,,,,,,,,,,,,,,,,,
88123,0,,,,,,,,0.02,0.23,-0.25,1,-11,15,0.23,0,,,,,,,,,,,,,,,,,
88163,0,,,,,,,,-0.16,0.19,-0.58,1,-26,28,0.25,0,,,,,,,,,,,,,,,,,
88203,0,,,,,,,,-0.24,0.08,-0.85,1,-34,33,0.25,0,,,,,,,,,,,,,,,,,
88243,0,17,14,48,51,33,38,-1,-0.31,-0.03,-0.92,1,-32,30,0.31,0,0,0.0,0.0,0.0,0.0,0,0,0.0,0,0.0,-1,0.0,0.0,0.0,0,0.0,1.4707
88283,0,,,,,,,,-0.26,-0.09,-0.37,1,-23,21,0.27,0,,,,,,,,,,,,,,,,,
88323,0,,,,,,,,-0.1,-0.17,0.08,0,-10,6,0.2,0,,,,,,,,,,,,,,,,,
88363,0,,,,,,,,0.11,-0.17,0.45,0,10,-12,0.2,0,,,,,,,,,,,,,,,,,
88403,0,,,,,,,,0.26,-0.11,0.74,-1,19,-20,0.28,0,,,,,,,,,,,,,,,,,
88443,0,16,15,48,51,33,38,0,0.31,-0.01,0.62,-1,21,-17,0.31,0,0,0.0,0.0,0.0,0.0,0,0,0.0,0,0.0,-1,0.0,0.0,0.0,0,0.0,1.4741
88483,0,,,,,,,,0.42,0.06,0.88,1,12,-8,0.42,0,,,,,,,,,,,,,,,,,
88523,0,,,,,,,,0.33,0.12,0.34,1,-5,8,0.35,0,,,,,,,,,,,,,,,,,
88563,0,,,,,,,,0.2,0.18,-0.11,1,-20,20,0.27,0,,,,,,,,,,,,,,,,,
88603,0,,,,,,,,0.04,0.16,-0.47,1,-25,22,0.16,0,,,,,,,,,,,,,,,,,
88643,0,15,14,48,51,33,38,1,-0.1,0.1,-0.76,1,-19,16,0.15,0,0,0.0,0.0,0.0,0.0,0,0,0.0,0,0.0,-1,0.0,0.0,0.0,0,0.0,1.4774
88683,0,,,,,,,,-0.22,0.01,-1.0,1,-5,2,0.22,0,,,,,,,,,,,,,,,,,
88723,0,,,,,,,,-0.25,-0.12,-0.94,0,8,-12,0.28,0,,,,,,,,,,,,,,,,,
88763,0,,,,,,,,-0.11,-0.15,-0.38,0,22,-26,0.19,0,,,,,,,,,,,,,,,,,
88803,0,,,,,,,,0.07,-0.22,0.07,-1,26,-28,0.23,0,,,,,,,,,,,,,,,,,
88843,0,17,14,48,51,33,38,-0,0.22,-0.16,0.43,-1,27,-25,0.27,0,0,0.0,0.0,0.0,0.0,0,0,0.0,0,0.0,-1,0.0,0.0,0.0,0,0.0,1.4807
88883,0,,,,,,,,0.28,-0.01,0.73,-0,19,-16,0.28,0,,,,,,,,,,,,,,,,,
88923,0,,,,,,,,0.23,0.07,0.21,0,4,-2,0.24,0,,,,,,,,,,,,,,,,,
88963,0,,,,,,,,0.06,0.14,-0.21,1,-13,14,0.15,0,,,,,,,,,,,,,,,,,
89003,0,,,,,,,,-0.09,0.17,-0.55,1,-26,25,0.19,0,,,,,,,,,,,,,,,,,
