"Interval"|"ms"|0|0|1,"Utc"|"ms"|0|0|1,"Brake_F"|"Bar"|0|2000|10,"Brake_R"|"Bar"|0|2000|10,"Height_RF"|"mm"|0|255|10,"Height_LF"|"mm"|0|255|10,"Height_LR"|"mm"|0|80|10,"Height_RR"|"mm"|0|255|10,"Steering"|"deg"|-100|100|10,"AccelX"|"G"|-3.0|3.0|25,"AccelY"|"G"|-3.0|3.0|25,"AccelZ"|"G"|-3.0|3.0|25,"Yaw"|"Deg/Sec"|-120|120|25,"Pitch"|"Deg/Sec"|-120|120|25,"Roll"|"Deg/Sec"|-120|120|25,"Gsum"|"G"|0.0|3.0|25,"Unknown"|""|0|1024|25,"Log_Button"|""|0.0|10.0|10,"Latitude"|"Degrees"|-180.0|180.0|10,"Longitude"|"Degrees"|-180.0|180.0|10,"Speed"|"kph"|0.0|150.0|10,"Altitude"|"m"|0.0|4000.0|10,"GPSSats"|""|0|20|10,"GPSQual"|""|0|5|10,"GPSDOP"|""|0.0|20.0|10,"LapCount"|""|0|0|10,"LapTime"|"Min"|0.0|0.0|10,"Sector"|""|0|0|10,"SectorTime"|"Min"|0.0|0.0|10,"PredTime"|"Min"|0.0|0.0|5,"ElapsedTime"|"Min"|0.0|0.0|10,"CurrentLap"|""|0|0|10,"Distance"|"km"|0.0|0.0|10,"SessionTime"|"Min"|0.0|0.0|10
22083,0,,,,,,,,-0.03,-0.07,0.96,0,-2,0,0.08,0,,,,,,,,,,,,,,,,,
22123,0,,,,,,,,-0.06,-0.06,0.75,0,-0,0,0.08,0,,,,,,,,,,,,,,,,,
22163,0,,,,,,,,0.09,-0.05,0.99,0,1,-1,0.11,0,,,,,,,,,,,,,,,,,
22203,0,,,,,,,,0.07,-0.05,0.82,0,-2,1,0.08,0,,,,,,,,,,,,,,,,,
22243,0,8,7,46,50,34,39,-22,-0.02,-0.05,0.82,0,-6,1,0.06,0,1,0.0,0.0,0.0,0.0,0,0,0.0,0,0.0,-1,0.0,0.0,0.0,0,0.0,0.3707
22283,0,,,,,,,,-0.08,-0.05,0.74,0,-3,1,0.09,0,,,,,,,,,,,,,,,,,
22323,0,,,,,,,,0.02,-0.06,0.78,0,0,-1,0.07,0,,,,,,,,,,,,,,,,,
22363,0,,,,,,,,0.13,-0.04,0.89,0,-3,1,0.14,0,,,,,,,,,,,,,,,,,
22403,0,,,,,,,,-0.04,-0.07,0.86,0,-4,1,0.08,0,,,,,,,,,,,,,,,,,
22443,0,9,8,47,50,34,39,-23,-0.02,-0.07,0.74,0,1,-1,0.07,0,1,0.0,0.0,0.0,0.0,0,0,0.0,0,0.0,-1,0.0,0.0,0.0,0,0.0,0.374
22483,0,,,,,,,,0.13,-0.04,0.9,0,-3,0,0.14,0,,,,,,,,,,,,,,,,,
22523,0,,,,,,,,0.04,-0.05,0.82,0,-6,1,0.07,0,,,,,,,,,,,,,,,,,
22563,0,,,,,,,,-0.07,-0.05,0.64,0,-3,1,0.09,0,,,,,,,,,,,,,,,,,
22603,0,,,,,,,,0.04,-0.02,0.78,0,-1,-0,0.05,0,,,,,,,,,,,,,,,,,
22643,0,9,8,46,50,34,39,-22,0.13,-0.0,0.91,0,-4,1,0.13,0,1,0.0,0.0,0.0,0.0,0,0,0.0,0,0.0,-1,0.0,0.0,0.0,0,0.0,0.3774
22683,0,,,,,,,,-0.04,-0.04,0.88,0,-5,1,0.06,0,,,,,,,,,,,,,,,,,
22723,0,,,,,,,,0.15,-0.03,0.91,0,1,-0,0.16,0,,,,,,,,,,,,,,,,,
22763,0,,,,,,,,0.11,-0.03,0.9,0,-6,2,0.11,0,,,,,,,,,,,,,,,,,
22803,0,,,,,,,,0.01,-0.05,0.69,0,-0,0,0.05,0,,,,,,,,,,,,,,,,,
22843,0,9,7,47,50,34,39,-23,0.21,-0.03,0.84,0,-3,1,0.21,0,0,0.0,0.0,0.0,0.0,0,0,0.0,0,0.0,-1,0.0,0.0,0.0,0,0.0,0.3807
22883,0,,,,,,,,0.03,-0.06,0.84,0,-8,2,0.07,0,,,,,,,,,,,,,,,,,
22923,0,,,,,,,,0.01,-0.07,0.74,0,-2,0,0.07,0,,,,,,,,,,,,,,,,,
22963,0,,,,,,,,0.12,-0.03,0.9,0,-8,2,0.13,0,,,,,,,,,,,,,,,,,
23003,0,,,,,,,,-0.1,-0.06,0.81,0,-7,2,0.12,0,,,,,,,,,,,,,,,,,
23043,0,8,8,47,50,34,39,-22,0.11,-0.01,0.98,0,-3,-0,0.11,0,0,0.0,0.0,0.0,0.0,0,0,0.0,0,0.0,-1,0.0,0.0,0.0,0,0.0,0.384
23083,0,,,,,,,,-0.04,-0.02,0.97,0,-10,1,0.04,0,,,,,,,,,,,,,,,,,
23123,0,,,,,,,,-0.07,-0.0,0.96,0,-5,0,0.07,0,,,,,,,,,,,,,,,,,
23163,0,,,,,,,,0.08,0.03,1.1,0,-7,0,0.08,0,,,,,,,,,,,,,,,,,
23203,0,,,,,,,,-0.12,-0.01,1.06,0,-9,1,0.12,0,,,,,,,,,,,,,,,,,
23243,0,10,6,47,50,34,39,-22,0.04,0.02,1.13,0,-1,-0,0.04,0,0,0.0,0.0,0.0,0.0,0,0,0.0,0,0.0,-1,0.0,0.0,0.0,0,0.0,0.3874
23283,0,,,,,,,,0.05,0.03,1.08,0,-5,1,0.06,0,,,,,,,,,,,,,,,,,
23323,0,,,,,,,,-0.1,0.0,0.96,0,-3,1,0.1,0,,,,,,,,,,,,,,,,,
23363,0,,,,,,,,0.07,0.01,1.05,0,3,-0,0.07,0,,,,,,,,,,,,,,,,,
23403,0,,,,,,,,0.09,0.03,0.97,0,-2,1,0.09,0,,,,,,,,,,,,,,,,,
23443,0,7,8,47,50,34,39,-23,-0.08,-0.0,0.98,0,-3,1,0.08,0,0,0.0,0.0,0.0,0.0,0,0,0.0,0,0.0,-1,0.0,0.0,0.0,0,0.0,0.3907
23483,0,,,,,,,,0.11,0.02,1.05,0,3,-0,0.11,0,,,,,,,,,,,,,,,,,
23523,0,,,,,,,,-0.02,-0.01,1.0,0,-5,2,0.03,0,,,,,,,,,,,,,,,,,
23563,0,,,,,,,,-0.05,-0.0,0.9,0,-0,0,0.05,0,,,,,,,,,,,,,,,,,
23603,0,,,,,,,,0.13,0.0,1.11,0,1,-1,0.13,0,,,,,,,,,,,,,,,,,
23643,0,8,8,46,50,34,39,-22,0.13,-0.01,0.94,0,-6,2,0.13,0,0,0.0,0.0,0.0,0.0,0,0,0.0,0,0.0,-1,0.0,0.0,0.0,0,0.0,0.394
23683,0,,,,,,,,-0.1,-0.04,0.97,0,-2,1,0.1,0,,,,,,,,,,,,,,,,,
23723,0,,,,,,,,0.04,-0.03,1.11,0,3,-1,0.05,0,,,,,,,,,,,,,,,,,
23763,0,,,,,,,,0.02,-0.01,1.12,0,-3,1,0.02,0,,,,,,,,,,,,,,,,,
23803,0,,,,,,,,-0.11,-0.01,1.13,0,-1,0,0.11,0,,,,,,,,,,,,,,,,,
23843,0,7,6,47,50,34,39,-22,-0.07,-0.03,1.04,0,5,-1,0.07,0,0,0.0,0.0,0.0,0.0,0,0,0.0,0,0.0,-1,0.0,0.0,0.0,0,0.0,0.3974
23883,0,,,,,,,,0.12,-0.02,1.22,0,3,-0,0.12,0,,,,,,,,,,,,,,,,,
23923,0,,,,,,,,-0.04,-0.05,1.08,0,1,0,0.07,0,,,,,,,,,,,,,,,,,
23963,0,,,,,,,,0.04,-0.03,0.9,1,9,-1,0.05,0,,,,,,,,,,,,,,,,,
24003,0,,,,,,,,0.14,0.03,1.02,0,1,1,0.15,0,,,,,,,,,,,,,,,,,
24043,0,9,9,46,50,34,39,-22,-0.03,-0.02,0.88,0,7,-1,0.03,0,0,0.0,0.0,0.0,0.0,0,0,0.0,0,0.0,-1,0.0,0.0,0.0,0,0.0,0.4007
24083,0,,,,,,,,0.17,0.0,1.02,0,3,-1,0.17,0,,,,,,,,,,,,,,,,,
24123,0,,,,,,,,-0.1,-0.07,0.92,0,1,-0,0.13,0,,,,,,,,,,,,,,,,,
24163,0,,,,,,,,0.04,-0.05,0.94,0,5,-1,0.07,0,,,,,,,,,,,,,,,,,
24203,0,,,,,,,,0.09,-0.04,0.91,0,-1,0,0.1,0,,,,,,,,,,,,,,,,,
24243,0,7,7,46,50,34,39,-23,-0.08,-0.07,0.78,0,3,-0,0.11,0,0,0.0,0.0,0.0,0.0,0,0,0.0,0,0.0,-1,0.0,0.0,0.0,0,0.0,0.404
24283,0,,,,,,,,0.09,-0.05,0.94,0,6,-2,0.1,0,,,,,,,,,,,,,,,,,
24323,0,,,,,,,,0.15,-0.04,0.9,0,2,-0,0.16,0,,,,,,,,,,,,,,,,,
24363,0,,,,,,,,-0.01,-0.07,0.89,0,-1,1,0.07,0,,,,,,,,,,,,,,,,,
24403,0,,,,,,,,-0.03,-0.04,0.8,0,0,0,0.05,0,,,,,,,,,,,,,,,,,
24443,0,8,7,46,50,34,39,-22,0.05,-0.05,0.88,0,4,-1,0.07,0,0,0.0,0.0,0.0,0.0,0,0,0.0,0,0.0,-1,0.0,0.0,0.0,0,0.0,0.4074
24483,0,,,,,,,,0.16,-0.03,0.97,0,-0,0,0.16,0,,,,,,,,,,,,,,,,,
24523,0,,,,,,,,-0.0,-0.05,0.99,0,-4,1,0.05,0,,,,,,,,,,,,,,,,,
24563,0,,,,,,,,-0.06,-0.04,0.86,0,-1,1,0.07,0,,,,,,,,,,,,,,,,,
24603,0,,,,,,,,0.01,-0.07,0.86,1,2,0,0.07,0,,,,,,,,,,,,,,,,,
24643,0,9,8,46,50,34,39,-22,0.09,-0.03,1.06,0,3,-1,0.1,0,0,0.0,0.0,0.0,0.0,0,0,0.0,0,0.0,-1,0.0,0.0,0.0,0,0.0,0.4107
24683,0,,,,,,,,0.1,-0.03,1.01,0,1,-0,0.1,0,,,,,,,,,,,,,,,,,
24723,0,,,,,,,,0.01,-0.04,0.93,0,-2,1,0.04,0,,,,,,,,,,,,,,,,,
24763,0,,,,,,,,-0.01,-0.01,1.02,0,-3,0,0.01,0,,,,,,,,,,,,,,,,,
24803,0,,,,,,,,-0.09,0.01,0.94,0,-4,1,0.09,0,,,,,,,,,,,,,,,,,
24843,0,9,9,46,50,34,39,-22,-0.02,-0.01,0.88,0,1,-0,0.02,0,0,0.0,0.0,0.0,0.0,0,0,0.0,0,0.0,-1,0.0,0.0,0.0,0,0.0,0.414
24883,0,,,,,,,,0.14,0.02,1.02,0,1,-0,0.14,0,,,,,,,,,,,,,,,,,
24923,0,,,,,,,,-0.08,-0.02,1.0,0,-2,1,0.08,0,,,,,,,,,,,,,,,,,
24963,0,,,,,,,,0.05,-0.01,1.05,0,4,-1,0.05,0,,,,,,,,,,,,,,,,,
25003,0,,,,,,,,0.06,0.01,1.06,0,-1,1,0.06,0,,,,,,,,,,,,,,,,,
25043,0,8,7,46,50,34,39,-22,-0.09,-0.01,0.92,0,-2,1,0.09,0,0,0.0,0.0,0.0,0.0,0,0,0.0,0,0.0,-1,0.0,0.0,0.0,0,0.0,0.4174
25083,0,,,,,,,,-0.01,-0.01,0.93,0,3,-0,0.02,0,,,,,,,,,,,,,,,,,
25123,0,,,,,,,,0.1,-0.02,1.0,1,6,-2,0.1,0,,,,,,,,,,,,,,,,,
25163,0,,,,,,,,0.14,0.01,1.03,1,-0,0,0.14,0,,,,,,,,,,,,,,,,,
25203,0,,,,,,,,-0.08,-0.01,1.02,0,-0,-0,0.08,0,,,,,,,,,,,,,,,,,
25243,0,9,7,46,50,34,39,-22,0.02,-0.02,0.91,0,3,-1,0.03,0,0,0.0,0.0,0.0,0.0,0,0,0.0,0,0.0,-1,0.0,0.0,0.0,0,0.0,0.4207
25283,0,,,,,,,,0.11,-0.01,1.04,0,0,-0,0.11,0,,,,,,,,,,,,,,,,,
25323,0,,,,,,,,0.06,-0.02,0.93,0,-4,1,0.07,0,,,,,,,,,,,,,,,,,
25363,0,,,,,,,,-0.07,-0.03,0.86,0,-3,1,0.07,0,,,,,,,,,,,,,,,,,
25403,0,,,,,,,,-0.02,-0.03,0.79,0,2,-0,0.03,0,,,,,,,,,,,,,,,,,
25443,0,7,8,47,50,34,39,-22,0.14,-0.01,0.96,0,-0,0,0.14,0,0,0.0,0.0,0.0,0.0,0,0,0.0,0,0.0,-1,0.0,0.0,0.0,0,0.0,0.424
25483,0,,,,,,,,0.02,-0.02,0.85,0,-3,1,0.03,0,,,,,,,,,,,,,,,,,
25523,0,,,,,,,,-0.04,-0.03,0.8,0,4,-1,0.05,0,,,,,,,,,,,,,,,,,
25563,0,,,,,,,,0.15,-0.01,1.03,0,2,-1,0.15,0,,,,,,,,,,,,,,,,,
25603,0,,,,,,,,0.01,-0.03,0.97,0,-2,1,0.03,0,,,,,,,,,,,,,,,,,
25643,0,9,7,46,50,34,39,-22,-0.02,-0.03,0.81,0,5,-0,0.04,0,0,0.0,0.0,0.0,0.0,0,0,0.0,0,0.0,-1,0.0,0.0,0.0,0,0.0,0.4274
25683,0,,,,,,,,0.16,-0.02,1.01,0,5,-1,0.16,0,,,,,,,,,,,,,,,,,
25723,0,,,,,,,,0.08,-0.03,0.92,0,-1,1,0.08,0,,,,,,,,,,,,,,,,,
25763,0,,,,,,,,-0.03,-0.03,0.78,0,2,0,0.05,0,,,,,,,,,,,,,,,,,
25803,0,,,,,,,,0.07,-0.02,0.75,0,7,-1,0.08,0,,,,,,,,,,,,,,,,,
25843,0,9,7,47,50,34,39,-22,0.15,-0.0,0.87,0,3,-0,0.15,0,0,0.0,0.0,0.0,0.0,0,0,0.0,0,0.0,-1,0.0,0.0,0.0,0,0.0,0.4307
25883,0,,,,,,,,0.0,-0.07,0.81,0,0,1,0.07,0,,,,,,,,,,,,,,,,,
25923,0,,,,,,,,-0.05,-0.03,0.68,0,4,0,0.06,0,,,,,,,,,,,,,,,,,
25963,0,,,,,,,,0.07,-0.03,0.89,1,6,-1,0.08,0,,,,,,,,,,,,,,,,,
26003,0,,,,,,,,0.05,-0.02,0.84,0,-0,1,0.05,0,,,,,,,,,,,,,,,,,
26043,0,9,7,47,50,34,39,-22,-0.1,-0.06,0.87,0,2,0,0.12,0,0,0.0,0.0,0.0,0.0,0,0,0.0,0,0.0,-1,0.0,0.0,0.0,0,0.0,0.434
26083,0,,,,,,,,0.08,-0.03,1.05,0,4,-1,0.09,0,,,,,,,,,,,,,,,,,
26123,0,,,,,,,,0.02,-0.03,0.96,0,-4,2,0.04,0,,,,,,,,,,,,,,,,,
26163,0,,,,,,,,-0.1,-0.04,0.88,0,0,1,0.11,0,,,,,,,,,,,,,,,,,
26203,0,,,,,,,,0.12,-0.01,1.09,0,1,-0,0.13,0,,,,,,,,,,,,,,,,,
26243,0,7,8,47,50,34,39,-22,-0.12,-0.06,0.99,0,-2,1,0.14,0,0,0.0,0.0,0.0,0.0,0,0,0.0,0,0.0,-1,0.0,0.0,0.0,0,0.0,0.4374
26283,0,,,,,,,,0.05,-0.03,1.01,0,5,-0,0.06,0,,,,,,,,,,,,,,,,,
26323,0,,,,,,,,0.1,-0.03,1.06,0,1,0,0.11,0,,,,,,,,,,,,,,,,,
26363,0,,,,,,,,-0.06,-0.08,0.97,0,-1,1,0.1,0,,,,,,,,,,,,,,,,,
26403,0,,,,,,,,0.11,-0.04,1.06,0,6,-1,0.12,0,,,,,,,,,,,,,,,,,
26443,0,9,6,47,50,34,39,-22,0.11,-0.02,1.03,0,-1,1,0.11,0,0,0.0,0.0,0.0,0.0,0,0,0.0,0,0.0,-1,0.0,0.0,0.0,0,0.0,0.4407
26483,0,,,,,,,,-0.05,-0.06,0.86,0,-0,0,0.07,0,,,,,,,,,,,,,,,,,
26523,0,,,,,,,,0.14,-0.02,1.07,0,4,-1,0.14,0,,,,,,,,,,,,,,,,,
26563,0,,,,,,,,0.19,0.01,1.19,0,-5,1,0.19,0,,,,,,,,,,,,,,,,,
26603,0,,,,,,,,-0.02,-0.03,1.08,0,2,-1,0.04,0,,,,,,,,,,,,,,,,,
26643,0,8,8,46,50,34,39,-23,0.24,0.0,1.15,0,0,-0,0.24,0,0,0.0,0.0,0.0,0.0,0,0,0.0,0,0.0,-1,0.0,0.0,0.0,0,0.0,0.444
26683,0,,,,,,,,-0.0,-0.05,1.01,0,2,-0,0.05,0,,,,,,,,,,,,,,,,,
26723,0,,,,,,,,0.25,-0.01,0.98,0,2,-0,0.25,0,,,,,,,,,,,,,,,,,
26763,0,,,,,,,,0.09,-0.04,0.94,0,-3,1,0.09,0,,,,,,,,,,,,,,,,,
26803,0,,,,,,,,0.12,-0.05,0.97,0,-1,-1,0.13,0,,,,,,,,,,,,,,,,,
26843,0,8,8,46,50,34,39,-23,0.18,-0.03,1.06,0,-4,0,0.18,0,0,0.0,0.0,0.0,0.0,0,0,0.0,0,0.0,-1,0.0,0.0,0.0,0,0.0,0.4474
26883,0,,,,,,,,-0.03,-0.07,1.07,0,-6,0,0.07,0,,,,,,,,,,,,,,,,,
26923,0,,,,,,,,0.04,-0.05,1.13,0,2,-2,0.06,0,,,,,,,,,,,,,,,,,
26963,0,,,,,,,,0.05,-0.04,1.03,0,-6,1,0.07,0,,,,,,,,,,,,,,,,,
27003,0,,,,,,,,-0.07,-0.04,0.91,0,0,-1,0.09,0,,,,,,,,,,,,,,,,,
27043,0,10,6,47,50,34,38,-22,0.14,-0.01,1.03,0,-2,0,0.14,0,0,0.0,0.0,0.0,0.0,0,0,0.0,0,0.0,-1,0.0,0.0,0.0,0,0.0,0.4507
27083,0,,,,,,,,-0.07,-0.06,0.93,0,-2,0,0.09,0,,,,,,,,,,,,,,,,,
27123,0,,,,,,,,0.07,-0.03,0.97,0,1,-1,0.07,0,,,,,,,,,,,,,,,,,
27163,0,,,,,,,,0.09,0.01,0.89,0,-3,1,0.09,0,,,,,,,,,,,,,,,,,
27203,0,,,,,,,,-0.09,-0.04,0.79,0,-4,1,0.1,0,,,,,,,,,,,,,,,,,
27243,0,9,8,46,50,34,39,-23,-0.05,-0.03,0.8,0,-1,0,0.05,0,0,0.0,0.0,0.0,0.0,0,0,0.0,0,0.0,-1,0.0,0.0,0.0,0,0.0,0.454
27283,0,,,,,,,,0.07,-0.0,1.03,0,1,-1,0.07,0,,,,,,,,,,,,,,,,,
27323,0,,,,,,,,-0.01,-0.01,0.89,0,-4,1,0.01,0,,,,,,,,,,,,,,,,,
27363,0,,,,,,,,-0.11,-0.03,0.7,0,-0,0,0.12,0,,,,,,,,,,,,,,,,,
27403,0,,,,,,,,0.1,0.02,0.95,0,1,-1,0.11,0,,,,,,,,,,,,,,,,,
27443,0,8,6,47,50,34,39,-22,-0.11,-0.01,0.91,0,-4,1,0.12,0,0,0.0,0.0,0.0,0.0,0,0,0.0,0,0.0,-1,0.0,0.0,0.0,0,0.0,0.4574
27483,0,,,,,,,,-0.0,0.01,1.01,0,3,-1,0.01,0,,,,,,,,,,,,,,,,,
27523,0,,,,,,,,0.03,0.04,1.01,0,-3,1,0.05,0,,,,,,,,,,,,,,,,,
27563,0,,,,,,,,-0.15,-0.01,0.91,0,-1,0,0.15,0,,,,,,,,,,,,,,,,,
27603,0,,,,,,,,0.07,0.02,1.08,0,3,-1,0.08,0,,,,,,,,,,,,,,,,,
27643,0,8,6,47,50,34,39,-22,-0.03,-0.0,0.87,0,-4,1,0.03,0,0,0.0,0.0,0.0,0.0,0,0,0.0,0,0.0,-1,0.0,0.0,0.0,0,0.0,0.4607
27683,0,,,,,,,,-0.04,-0.02,0.86,0,2,0,0.05,0,,,,,,,,,,,,,,,,,
27723,0,,,,,,,,0.14,0.01,1.0,0,3,-1,0.14,0,,,,,,,,,,,,,,,,,
27763,0,,,,,,,,-0.06,-0.03,0.91,0,-3,1,0.07,0,,,,,,,,,,,,,,,,,
27803,0,,,,,,,,0.01,-0.01,0.95,0,3,0,0.02,0,,,,,,,,,,,,,,,,,
27843,0,8,8,46,50,34,39,-23,0.1,0.0,0.95,0,1,1,0.1,0,0,0.0,0.0,0.0,0.0,0,0,0.0,0,0.0,-1,0.0,0.0,0.0,0,0.0,0.464
27883,0,,,,,,,,-0.09,-0.03,0.81,0,0,1,0.09,0,,,,,,,,,,,,,,,,,
27923,0,,,,,,,,0.12,0.0,0.99,0,5,-0,0.12,0,,,,,,,,,,,,,,,,,
27963,0,,,,,,,,0.13,0.02,0.82,0,-1,1,0.13,0,,,,,,,,,,,,,,,,,
28003,0,,,,,,,,-0.05,-0.04,0.78,0,1,-0,0.06,0,,,,,,,,,,,,,,,,,
28043,0,9,7,46,50,34,39,-22,0.03,0.0,0.8,0,3,-1,0.03,0,0,0.0,0.0,0.0,0.0,0,0,0.0,0,0.0,-1,0.0,0.0,0.0,0,0.0,0.4674
28083,0,,,,,,,,0.1,0.0,0.81,0,-3,1,0.1,0,,,,,,,,,,,,,,,,,
28123,0,,,,,,,,-0.06,-0.05,0.89,0,-3,-0,0.08,0,,,,,,,,,,,,,,,,,
28163,0,,,,,,,,-0.07,-0.03,0.81,0,0,-0,0.08,0,,,,,,,,,,,,,,,,,
28203,0,,,,,,,,0.13,0.0,0.97,0,1,-1,0.13,0,,,,,,,,,,,,,,,,,
28243,0,8,6,47,50,34,39,-22,0.03,-0.03,0.81,-0,-4,1,0.04,0,0,0.0,0.0,0.0,0.0,0,0,0.0,0,0.0,-1,0.0,0.0,0.0,0,0.0,0.4707
28283,0,,,,,,,,-0.05,-0.01,0.77,0,-2,1,0.05,0,,,,,,,,,,,,,,,,,
28323,0,,,,,,,,0.05,-0.04,0.89,0,1,-1,0.06,0,,,,,,,,,,,,,,,,,
28363,0,,,,,,,,0.14,-0.03,0.88,0,0,1,0.15,0,,,,,,,,,,,,,,,,,
28403,0,,,,,,,,0.13,-0.05,0.74,0,-1,1,0.14,0,,,,,,,,,,,,,,,,,
28443,0,8,8,46,50,34,39,-23,0.01,-0.07,0.65,0,-3,2,0.07,0,0,0.0,0.0,0.0,0.0,0,0,0.0,0,0.0,-1,0.0,0.0,0.0,0,0.0,0.474
28483,0,,,,,,,,-0.01,-0.07,0.6,0,2,0,0.07,0,,,,,,,,,,,,,,,,,
28523,0,,,,,,,,0.12,-0.02,0.82,0,1,0,0.12,0,,,,,,,,,,,,,,,,,
28563,0,,,,,,,,-0.02,-0.03,0.76,0,-4,2,0.04,0,,,,,,,,,,,,,,,,,
28603,0,,,,,,,,-0.04,-0.05,0.71,0,2,-0,0.07,0,,,,,,,,,,,,,,,,,
28643,0,7,7,47,50,34,39,-22,0.13,-0.0,0.84,0,0,1,0.13,0,0,0.0,0.0,0.0,0.0,0,0,0.0,0,0.0,-1,0.0,0.0,0.0,0,0.0,0.4774
28683,0,,,,,,,,-0.01,-0.04,0.77,0,-1,1,0.04,0,,,,,,,,,,,,,,,,,
28723,0,,,,,,,,0.0,-0.05,0.68,0,3,0,0.05,0,,,,,,,,,,,,,,,,,
28763,0,,,,,,,,0.16,-0.0,0.88,0,4,-0,0.16,0,,,,,,,,,,,,,,,,,
28803,0,,,,,,,,0.13,-0.02,0.77,0,2,1,0.13,0,,,,,,,,,,,,,,,,,
28843,0,8,7,46,50,34,39,-22,0.02,-0.02,0.72,0,-1,2,0.03,0,0,0.0,0.0,0.0,0.0,0,0,0.0,0,0.0,-1,0.0,0.0,0.0,0,0.0,0.4807
28883,0,,,,,,,,-0.08,-0.04,0.65,0,-1,1,0.08,0,,,,,,,,,,,,,,,,,
28923,0,,,,,,,,0.02,-0.04,0.85,0,3,0,0.04,0,,,,,,,,,,,,,,,,,
28963,0,,,,,,,,0.11,-0.01,0.87,0,2,1,0.11,0,,,,,,,,,,,,,,,,,
29003,0,,,,,,,,-0.13,-0.09,0.81,0,-2,1,0.15,0,,,,,,,,,,,,,,,,,
29043,0,8,8,47,50,34,39,-22,-0.0,-0.04,0.93,0,1,1,0.04,0,0,0.0,0.0,0.0,0.0,0,0,0.0,0,0.0,-1,0.0,0.0,0.0,0,0.0,0.484
29083,0,,,,,,,,0.07,-0.02,0.97,0,1,0,0.08,0,,,,,,,,,,,,,,,,,
29123,0,,,,,,,,0.04,-0.05,0.8,0,-3,1,0.07,0,,,,,,,,,,,,,,,,,
29163,0,,,,,,,,-0.04,-0.03,0.84,0,-4,1,0.05,0,,,,,,,,,,,,,,,,,
29203,0,,,,,,,,-0.06,-0.03,0.84,0,-1,0,0.07,0,,,,,,,,,,,,,,,,,
29243,0,7,7,47,50,34,39,-23,0.11,0.0,0.91,0,-1,-0,0.11,0,0,0.0,0.0,0.0,0.0,0,0,0.0,0,0.0,-1,0.0,0.0,0.0,0,0.0,0.4874
29283,0,,,,,,,,-0.05,-0.04,0.81,0,-5,1,0.07,0,,,,,,,,,,,,,,,,,
29323,0,,,,,,,,-0.02,-0.03,0.81,0,-2,-0,0.04,0,,,,,,,,,,,,,,,,,
29363,0,,,,,,,,0.13,-0.0,0.95,0,-1,-1,0.13,0,,,,,,,,,,,,,,,,,
29403,0,,,,,,,,0.01,-0.05,0.96,0,-4,0,0.05,0,,,,,,,,,,,,,,,,,
29443,0,9,7,46,50,34,39,-22,-0.18,-0.07,0.82,0,-3,-1,0.19,0,0,0.0,0.0,0.0,0.0,0,0,0.0,0,0.0,-1,0.0,0.0,0.0,0,0.0,0.4907
29483,0,,,,,,,,0.17,0.09,0.89,0,-2,-3,0.2,0,,,,,,,,,,,,,,,,,
29523,0,,,,,,,,0.39,0.05,0.79,0,18,-6,0.39,0,,,,,,,,,,,,,,,,,
29563,0,,,,,,,,0.36,0.0,1.02,0,33,-8,0.36,0,,,,,,,,,,,,,,,,,
29603,0,,,,,,,,0.07,0.03,0.99,0,16,-5,0.08,0,,,,,,,,,,,,,,,,,
29643,0,10,8,47,51,34,39,-22,0.3,0.04,0.74,0,3,-3,0.31,0,0,0.0,0.0,0.0,0.0,0,0,0.0,0,0.0,-1,0.0,0.0,0.0,0,0.0,0.494
29683,0,,,,,,,,0.42,-0.03,0.53,1,18,-5,0.42,0,,,,,,,,,,,,,,,,,
29723,0,,,,,,,,0.35,-0.03,0.59,0,15,-2,0.35,0,,,,,,,,,,,,,,,,,
29763,0,,,,,,,,0.33,-0.02,0.6,1,10,-1,0.33,0,,,,,,,,,,,,,,,,,
29803,0,,,,,,,,0.31,-0.06,0.67,1,17,-5,0.31,0,,,,,,,,,,,,,,,,,
29843,0,9,9,47,51,34,39,-22,0.42,0.08,0.83,1,5,1,0.43,0,0,0.0,0.0,0.0,0.0,0,0,0.0,0,0.0,-1,0.0,0.0,0.0,0,0.0,0.4974
29883,0,,,,,,,,0.45,0.19,0.83,0,-14,12,0.49,0,,,,,,,,,,,,,,,,,
29923,0,,,,,,,,0.2,0.25,0.65,1,-17,9,0.32,0,,,,,,,,,,,,,,,,,
29963,0,,,,,,,,0.32,0.31,0.91,1,4,-3,0.45,0,,,,,,,,,,,,,,,,,
30003,0,,,,,,,,0.27,0.25,0.36,1,-19,13,0.37,0,,,,,,,,,,,,,,,,,
30043,0,10,8,47,51,34,38,-22,0.27,0.3,0.31,1,-23,19,0.41,0,0,0.0,0.0,0.0,0.0,0,0,0.0,0,0.0,-1,0.0,0.0,0.0,0,0.0,0.5007
30083,0,,,,,,,,0.26,0.14,0.43,1,-7,5,0.3,0,,,,,,,,,,,,,,,,,
30123,0,,,,,,,,0.23,0.14,0.37,1,-2,4,0.27,0,,,,,,,,,,,,,,,,,
30163,0,,,,,,,,0.22,0.14,0.32,1,-0,3,0.27,0,,,,,,,,,,,,,,,,,
30203,0,,,,,,,,0.07,0.07,0.08,1,-6,6,0.1,0,,,,,,,,,,,,,,,,,
30243,0,9,9,47,51,34,39,-22,0.12,-0.02,0.44,1,-2,3,0.13,0,0,0.0,0.0,0.0,0.0,0,0,0.0,0,0.0,-1,0.0,0.0,0.0,0,0.0,0.504
30283,0,,,,,,,,0.14,0.07,0.38,1,-5,9,0.16,0,,,,,,,,,,,,,,,,,
30323,0,,,,,,,,0.35,-0.06,0.69,0,14,-7,0.35,0,,,,,,,,,,,,,,,,,
30363,0,,,,,,,,0.17,0.09,0.54,0,-7,6,0.19,0,,,,,,,,,,,,,,,,,
30403,0,,,,,,,,0.24,0.24,0.81,-0,1,1,0.34,0,,,,,,,,,,,,,,,,,
30443,0,10,9,47,51,34,38,-23,0.22,0.1,0.68,1,12,-4,0.24,0,0,0.0,0.0,0.0,0.0,0,0,0.0,0,0.0,-1,0.0,0.0,0.0,0,0.0,0.5074
30483,0,,,,,,,,0.27,0.07,0.57,0,13,-5,0.28,0,,,,,,,,,,,,,,,,,
30523,0,,,,,,,,0.28,0.04,0.48,-0,11,-1,0.28,0,,,,,,,,,,,,,,,,,
30563,0,,,,,,,,0.18,0.07,0.41,0,2,5,0.19,0,,,,,,,,,,,,,,,,,
30603,0,,,,,,,,-0.17,0.01,0.31,2,-2,6,0.17,0,,,,,,,,,,,,,,,,,
30643,0,10,7,47,51,33,39,-22,-0.13,0.03,0.23,2,9,-1,0.14,0,0,0.0,0.0,0.0,0.0,0,0,0.0,0,0.0,-1,0.0,0.0,0.0,0,0.0,0.5107
30683,0,,,,,,,,-0.0,0.04,0.21,2,7,-1,0.04,0,,,,,,,,,,,,,,,,,
30723,0,,,,,,,,-0.23,0.02,0.15,1,3,4,0.23,0,,,,,,,,,,,,,,,,,
30763,0,,,,,,,,0.01,0.08,0.14,1,3,6,0.08,0,,,,,,,,,,,,,,,,,
30803,0,,,,,,,,0.39,0.16,0.49,1,22,-7,0.42,0,,,,,,,,,,,,,,,,,
30843,0,8,9,47,51,34,39,-22,0.45,0.25,0.44,1,17,-4,0.51,0,0,0.0,0.0,0.0,0.0,0,0,0.0,0,0.0,-1,0.0,0.0,0.0,0,0.0,0.514
30883,0,,,,,,,,0.34,0.18,0.33,1,11,-2,0.39,0,,,,,,,,,,,,,,,,,
30923,0,,,,,,,,0.3,0.14,0.41,1,8,-2,0.33,0,,,,,,,,,,,,,,,,,
30963,0,,,,,,,,0.36,0.13,0.64,1,4,-0,0.38,0,,,,,,,,,,,,,,,,,
31003,0,,,,,,,,0.01,0.07,0.7,1,6,0,0.08,0,,,,,,,,,,,,,,,,,
31043,0,9,9,47,51,34,38,-22,0.27,0.1,0.89,1,-4,1,0.28,0,0,0.0,0.0,0.0,0.0,0,0,0.0,0,0.0,-1,0.0,0.0,0.0,0,0.0,0.5174
31083,0,,,,,,,,0.22,0.04,0.88,1,15,-3,0.22,0,,,,,,,,,,,,,,,,,
31123,0,,,,,,,,-0.2,0.01,1.09,1,5,-2,0.2,0,,,,,,,,,,,,,,,,,
31163,0,,,,,,,,-0.23,0.06,1.1,1,-27,3,0.24,0,,,,,,,,,,,,,,,,,
31203,0,,,,,,,,0.19,0.06,0.72,1,-29,2,0.2,0,,,,,,,,,,,,,,,,,
31243,0,10,9,47,51,34,38,-22,0.22,-0.05,0.28,0,-4,-0,0.23,0,0,0.0,0.0,0.0,0.0,0,0,0.0,0,0.0,-1,0.0,0.0,0.0,0,0.0,0.5207
31283,0,,,,,,,,-0.02,-0.04,0.51,0,-12,2,0.04,0,,,,,,,,,,,,,,,,,
31323,0,,,,,,,,0.18,0.01,0.68,0,-8,0,0.18,0,,,,,,,,,,,,,,,,,
31363,0,,,,,,,,-0.02,0.0,0.62,0,-9,1,0.02,0,,,,,,,,,,,,,,,,,
31403,0,,,,,,,,-0.02,0.01,0.55,0,-7,1,0.02,0,,,,,,,,,,,,,,,,,
31443,0,10,7,48,51,34,38,-22,0.02,0.02,0.78,0,-4,-0,0.02,0,0,0.0,0.0,0.0,0.0,0,0,0.0,0,0.0,-1,0.0,0.0,0.0,0,0.0,0.524
31483,0,,,,,,,,-0.03,-0.02,0.72,0,-4,1,0.04,0,,,,,,,,,,,,,,,,,
31523,0,,,,,,,,0.07,0.02,0.83,0,-6,2,0.08,0,,,,,,,,,,,,,,,,,
31563,0,,,,,,,,-0.11,-0.08,0.54,0,1,-1,0.13,0,,,,,,,,,,,,,,,,,
31603,0,,,,,,,,0.21,-0.09,0.82,0,23,-14,0.22,0,,,,,,,,,,,,,,,,,
31643,0,10,9,47,51,34,38,-22,0.08,-0.07,0.64,0,33,-18,0.1,0,0,0.0,0.0,0.0,0.0,0,0,0.0,0,0.0,-1,0.0,0.0,0.0,0,0.0,0.5274
31683,0,,,,,,,,0.14,-0.07,0.54,1,30,-18,0.16,0,,,,,,,,,,,,,,,,,
31723,0,,,,,,,,0.04,-0.02,0.42,0,6,-1,0.05,0,,,,,,,,,,,,,,,,,
31763,0,,,,,,,,-0.15,-0.06,-0.04,-1,-1,5,0.16,0,,,,,,,,,,,,,,,,,
31803,0,,,,,,,,-0.28,-0.14,-0.42,-1,-10,8,0.31,0,,,,,,,,,,,,,,,,,
31843,0,9,9,47,51,34,38,-22,-0.35,-0.11,-0.72,-1,-22,20,0.36,0,0,0.0,0.0,0.0,0.0,0,0,0.0,0,0.0,-1,0.0,0.0,0.0,0,0.0,0.5307
31883,0,,,,,,,,-0.19,-0.01,-0.56,-1,-13,15,0.19,0,,,,,,,,,,,,,,,,,
31923,0,,,,,,,,-0.13,-0.15,-0.27,-1,2,3,0.2,0,,,,,,,,,,,,,,,,,
31963,0,,,,,,,,-0.1,-0.12,-0.6,-0,-10,16,0.16,0,,,,,,,,,,,,,,,,,
32003,0,,,,,,,,-0.07,-0.02,-0.86,-0,-13,19,0.08,0,,,,,,,,,,,,,,,,,
32043,0,9,8,48,51,34,39,-22,-0.08,0.01,-1.08,1,-15,22,0.08,0,0,0.0,0.0,0.0,0.0,0,0,0.0,0,0.0,-1,0.0,0.0,0.0,0,0.0,0.534
32083,0,,,,,,,,-0.32,-0.01,-1.25,1,-30,32,0.32,0,,,,,,,,,,,,,,,,,
32123,0,,,,,,,,-0.07,-0.07,-0.64,0,-5,11,0.1,0,,,,,,,,,,,,,,,,,
32163,0,,,,,,,,-0.12,0.0,-0.9,1,-14,21,0.12,0,,,,,,,,,,,,,,,,,
32203,0,,,,,,,,0.05,-0.02,-0.35,-0,3,6,0.05,0,,,,,,,,,,,,,,,,,
32243,0,10,7,47,51,34,39,-22,-0.12,0.05,-0.66,0,-15,17,0.13,0,0,0.0,0.0,0.0,0.0,0,0,0.0,0,0.0,-1,0.0,0.0,0.0,0,0.0,0.5374
32283,0,,,,,,,,0.16,0.14,-0.35,-0,2,4,0.22,0,,,,,,,,,,,,,,,,,
32323,0,,,,,,,,-0.19,-0.01,-0.66,0,-8,10,0.19,0,,,,,,,,,,,,,,,,,
32363,0,,,,,,,,0.05,0.07,-0.16,1,-5,5,0.08,0,,,,,,,,,,,,,,,,,
32403,0,,,,,,,,-0.1,-0.01,-0.51,0,-4,1,0.1,0,,,,,,,,,,,,,,,,,
32443,0,9,7,47,51,34,39,-22,0.24,0.05,-0.4,1,-8,5,0.24,0,0,0.0,0.0,0.0,0.0,0,0,0.0,0,0.0,-1,0.0,0.0,0.0,0,0.0,0.5407
32483,0,,,,,,,,0.08,0.04,-0.31,1,3,-6,0.09,0,,,,,,,,,,,,,,,,,
32523,0,,,,,,,,0.17,0.08,-0.27,1,-10,7,0.19,0,,,,,,,,,,,,,,,,,
32563,0,,,,,,,,0.09,0.02,-0.2,0,12,-9,0.09,0,,,,,,,,,,,,,,,,,
32603,0,,,,,,,,0.21,0.11,-0.18,0,-5,6,0.24,0,,,,,,,,,,,,,,,,,
32643,0,8,8,47,51,34,38,-21,-0.05,0.08,-0.53,-0,2,2,0.1,0,0,0.0,0.0,0.0,0.0,0,0,0.0,0,0.0,-1,0.0,0.0,0.0,0,0.0,0.544
32683,0,,,,,,,,0.26,0.07,-0.05,-0,18,-7,0.27,0,,,,,,,,,,,,,,,,,
32723,0,,,,,,,,0.35,0.12,-0.2,1,2,8,0.37,0,,,,,,,,,,,,,,,,,
32763,0,,,,,,,,0.07,0.09,-0.54,1,-11,16,0.11,0,,,,,,,,,,,,,,,,,
32803,0,,,,,,,,0.04,0.03,-0.42,0,9,-6,0.05,0,,,,,,,,,,,,,,,,,
32843,0,6,4,48,51,34,39,-22,0.23,0.02,0.04,0,24,-17,0.23,0,0,0.0,0.0,0.0,0.0,0,0,0.0,0,0.0,-1,0.0,0.0,0.0,0,0.0,0.5474
32883,0,,,,,,,,0.41,-0.04,0.41,0,28,-17,0.41,0,,,,,,,,,,,,,,,,,
32923,0,,,,,,,,0.48,-0.09,0.71,0,31,-22,0.49,0,,,,,,,,,,,,,,,,,
32963,0,,,,,,,,0.37,-0.14,0.96,1,37,-29,0.39,0,,,,,,,,,,,,,,,,,
33003,0,,,,,,,,0.21,-0.06,0.4,1,24,-18,0.22,0,,,,,,,,,,,,,,,,,
33043,0,2,2,47,51,34,39,-23,0.25,-0.1,0.66,1,22,-18,0.27,0,0,0.0,0.0,0.0,0.0,0,0,0.0,0,0.0,-1,0.0,0.0,0.0,0,0.0,0.5507
33083,0,,,,,,,,0.22,-0.07,0.56,1,14,-13,0.23,0,,,,,,,,,,,,,,,,,
33123,0,,,,,,,,0.12,-0.05,0.15,1,11,-7,0.13,0,,,,,,,,,,,,,,,,,
33163,0,,,,,,,,0.23,-0.05,0.29,1,16,-8,0.23,0,,,,,,,,,,,,,,,,,
33203,0,,,,,,,,0.32,-0.06,0.22,1,17,-8,0.32,0,,,,,,,,,,,,,,,,,
33243,0,-1,2,48,51,34,38,-22,0.32,-0.17,0.17,1,17,-6,0.36,0,0,0.0,0.0,0.0,0.0,0,0,0.0,0,0.0,-1,0.0,0.0,0.0,0,0.0,0.5541
33283,0,,,,,,,,0.22,-0.1,0.12,1,12,-4,0.24,0,,,,,,,,,,,,,,,,,
33323,0,,,,,,,,0.25,-0.13,0.07,1,6,-1,0.28,0,,,,,,,,,,,,,,,,,
33363,0,,,,,,,,0.15,-0.13,0.04,1,4,-1,0.2,0,,,,,,,,,,,,,,,,,
33403,0,,,,,,,,0.21,-0.18,0.41,1,8,-5,0.27,0,,,,,,,,,,,,,,,,,
33443,0,-0,2,47,51,34,38,-21,0.18,-0.17,0.59,1,8,-7,0.25,0,0,0.0,0.0,0.0,0.0,0,0,0.0,0,0.0,-1,0.0,0.0,0.0,0,0.0,0.5574
33483,0,,,,,,,,0.26,-0.07,0.5,1,9,-8,0.27,0,,,,,,,,,,,,,,,,,
33523,0,,,,,,,,0.2,-0.06,0.42,1,6,-4,0.21,0,,,,,,,,,,,,,,,,,
33563,0,,,,,,,,0.09,0.04,0.1,1,5,-1,0.1,0,,,,,,,,,,,,,,,,,
33603,0,,,,,,,,0.14,-0.02,0.06,2,5,-1,0.14,0,,,,,,,,,,,,,,,,,
33643,0,-0,2,48,51,34,38,-23,0.12,-0.03,0.03,1,1,-0,0.12,0,0,0.0,0.0,0.0,0.0,0,0,0.0,0,0.0,-1,0.0,0.0,0.0,0,0.0,0.5607
33683,0,,,,,,,,0.22,-0.08,0.23,1,1,-1,0.23,0,,,,,,,,,,,,,,,,,
33723,0,,,,,,,,0.25,-0.08,0.21,2,2,-2,0.26,0,,,,,,,,,,,,,,,,,
33763,0,,,,,,,,0.18,-0.05,0.08,2,4,-3,0.19,0,,,,,,,,,,,,,,,,,
33803,0,,,,,,,,0.14,-0.03,0.28,2,-2,-0,0.15,0,,,,,,,,,,,,,,,,,
33843,0,0,0,48,51,33,38,-22,0.14,-0.03,0.18,2,-2,-1,0.14,0,0,0.0,0.0,0.0,0.0,0,0,0.0,0,0.0,-1,0.0,0.0,0.0,0,0.0,0.564
33883,0,,,,,,,,0.13,-0.0,0.16,2,-2,-1,0.13,0,,,,,,,,,,,,,,,,,
33923,0,,,,,,,,0.16,0.02,0.11,3,-4,1,0.16,0,,,,,,,,,,,,,,,,,
33963,0,,,,,,,,0.27,0.05,0.33,2,-1,2,0.28,0,,,,,,,,,,,,,,,,,
34003,0,,,,,,,,0.32,0.09,0.65,3,3,-1,0.34,0,,,,,,,,,,,,,,,,,
34043,0,0,2,49,51,33,37,-22,0.33,0.15,0.9,3,3,-1,0.37,0,0,0.0,0.0,0.0,0.0,0,0,0.0,0,0.0,-1,0.0,0.0,0.0,0,0.0,0.5674
34083,0,,,,,,,,0.38,0.16,0.98,3,4,3,0.41,0,,,,,,,,,,,,,,,,,
34123,0,,,,,,,,0.34,0.01,0.42,4,4,5,0.34,0,,,,,,,,,,,,,,,,,
34163,0,,,,,,,,0.4,0.06,0.72,4,7,-0,0.4,0,,,,,,,,,,,,,,,,,
34203,0,,,,,,,,0.41,0.04,0.22,5,1,4,0.41,0,,,,,,,,,,,,,,,,,
34243,0,1,1,50,52,32,37,-27,0.39,0.13,0.56,5,2,1,0.41,0,0,0.0,0.0,0.0,0.0,0,0,0.0,0,0.0,-1,0.0,0.0,0.0,0,0.0,0.5707
34283,0,,,,,,,,0.43,0.07,0.47,5,4,0,0.43,0,,,,,,,,,,,,,,,,,
34323,0,,,,,,,,0.38,0.11,0.36,6,0,2,0.4,0,,,,,,,,,,,,,,,,,
34363,0,,,,,,,,0.41,0.08,0.27,7,-2,4,0.42,0,,,,,,,,,,,,,,,,,
34403,0,,,,,,,,0.46,0.13,0.2,8,2,3,0.48,0,,,,,,,,,,,,,,,,,
34443,0,-1,0,50,53,31,37,-37,0.43,0.12,0.36,9,5,-2,0.44,0,0,0.0,0.0,0.0,0.0,0,0,0.0,0,0.0,-1,0.0,0.0,0.0,0,0.0,0.574
34483,0,,,,,,,,0.38,0.22,0.21,10,0,5,0.44,0,,,,,,,,,,,,,,,,,
34523,0,,,,,,,,0.53,0.11,0.55,11,11,-3,0.54,0,,,,,,,,,,,,,,,,,
34563,0,,,,,,,,0.59,0.19,0.43,13,1,6,0.62,0,,,,,,,,,,,,,,,,,
34603,0,,,,,,,,0.5,0.23,0.36,15,4,6,0.55,0,,,,,,,,,,,,,,,,,
34643,0,1,2,51,53,30,36,-44,0.1,0.29,-0.09,16,-13,12,0.31,0,0,0.0,0.0,0.0,0.0,0,0,0.0,0,0.0,-1,0.0,0.0,0.0,0,0.0,0.5774
34683,0,,,,,,,,0.05,0.48,-0.01,17,-31,20,0.48,0,,,,,,,,,,,,,,,,,
34723,0,,,,,,,,-0.01,0.41,0.0,19,-31,20,0.41,0,,,,,,,,,,,,,,,,,
34763,0,,,,,,,,-0.15,0.39,0.14,21,-34,17,0.42,0,,,,,,,,,,,,,,,,,
34803,0,,,,,,,,-0.4,0.39,0.43,23,-54,17,0.56,0,,,,,,,,,,,,,,,,,
34843,0,0,2,53,52,31,36,-55,-0.36,0.38,0.72,25,-53,15,0.53,0,0,0.0,0.0,0.0,0.0,0,0,0.0,0,0.0,-1,0.0,0.0,0.0,0,0.0,0.5807
34883,0,,,,,,,,-0.17,0.35,0.84,27,-44,13,0.39,0,,,,,,,,,,,,,,,,,
34923,0,,,,,,,,-0.07,0.36,0.92,29,-34,10,0.36,0,,,,,,,,,,,,,,,,,
34963,0,,,,,,,,-0.09,0.37,0.88,32,-27,9,0.38,0,,,,,,,,,,,,,,,,,
35003,0,,,,,,,,-0.08,0.36,0.93,34,-22,7,0.36,0,,,,,,,,,,,,,,,,,
35043,0,0,1,52,51,32,40,-61,-0.1,0.37,0.88,36,-18,6,0.38,0,0,0.0,0.0,0.0,0.0,0,0,0.0,0,0.0,-1,0.0,0.0,0.0,0,0.0,0.584
35083,0,,,,,,,,-0.18,0.38,0.9,37,-13,5,0.42,0,,,,,,,,,,,,,,,,,
35123,0,,,,,,,,-0.21,0.39,0.91,38,-10,4,0.44,0,,,,,,,,,,,,,,,,,
35163,0,,,,,,,,-0.17,0.39,0.79,39,-8,4,0.43,0,,,,,,,,,,,,,,,,,
35203,0,,,,,,,,-0.17,0.4,0.91,40,-6,3,0.43,0,,,,,,,,,,,,,,,,,
35243,0,1,2,50,51,32,41,-69,-0.12,0.4,0.82,42,-6,3,0.41,0,0,0.0,0.0,0.0,0.0,0,0,0.0,0,0.0,-1,0.0,0.0,0.0,0,0.0,0.5874
35283,0,,,,,,,,-0.03,0.44,1.03,43,-3,3,0.44,0,,,,,,,,,,,,,,,,,
35323,0,,,,,,,,0.02,0.42,1.0,45,-2,4,0.42,0,,,,,,,,,,,,,,,,,
35363,0,,,,,,,,0.01,0.48,1.1,47,-1,3,0.48,0,,,,,,,,,,,,,,,,,
35403,0,,,,,,,,-0.01,0.54,1.04,50,-2,3,0.54,0,,,,,,,,,,,,,,,,,
35443,0,-1,0,53,50,31,40,-82,0.0,0.53,1.01,52,-1,3,0.53,0,0,0.0,0.0,0.0,0.0,0,0,0.0,0,0.0,-1,0.0,0.0,0.0,0,0.0,0.5907
35483,0,,,,,,,,-0.02,0.56,1.01,54,-0,4,0.56,0,,,,,,,,,,,,,,,,,
35523,0,,,,,,,,-0.03,0.6,0.9,57,-0,4,0.6,0,,,,,,,,,,,,,,,,,
35563,0,,,,,,,,-0.02,0.64,1.03,59,2,2,0.64,0,,,,,,,,,,,,,,,,,
35603,0,,,,,,,,-0.04,0.63,0.76,61,3,3,0.64,0,,,,,,,,,,,,,,,,,
35643,0,-0,2,52,50,31,42,-85,-0.07,0.64,0.78,63,3,4,0.64,0,0,0.0,0.0,0.0,0.0,0,0,0.0,0,0.0,-1,0.0,0.0,0.0,0,0.0,0.594
35683,0,,,,,,,,-0.09,0.67,0.7,65,2,3,0.68,0,,,,,,,,,,,,,,,,,
35723,0,,,,,,,,-0.08,0.69,0.85,66,3,2,0.69,0,,,,,,,,,,,,,,,,,
35763,0,,,,,,,,-0.05,0.7,0.96,68,2,4,0.71,0,,,,,,,,,,,,,,,,,
35803,0,,,,,,,,-0.04,0.71,0.73,69,2,4,0.71,0,,,,,,,,,,,,,,,,,
35843,0,1,1,52,49,32,43,-88,-0.07,0.66,0.83,71,2,4,0.66,0,0,0.0,0.0,0.0,0.0,0,0,0.0,0,0.0,-1,0.0,0.0,0.0,0,0.0,0.5974
35883,0,,,,,,,,-0.1,0.69,0.74,72,3,4,0.69,0,,,,,,,,,,,,,,,,,
35923,0,,,,,,,,-0.11,0.71,0.64,73,-0,4,0.72,0,,,,,,,,,,,,,,,,,
35963,0,,,,,,,,-0.03,0.63,0.47,74,1,5,0.63,0,,,,,,,,,,,,,,,,,
36003,0,,,,,,,,-0.12,0.67,0.76,75,-2,5,0.68,0,,,,,,,,,,,,,,,,,
36043,0,1,0,53,49,31,42,-89,-0.07,0.72,0.56,76,6,3,0.72,0,0,0.0,0.0,0.0,0.0,0,0,0.0,0,0.0,-1,0.0,0.0,0.0,0,0.0,0.6007
36083,0,,,,,,,,0.01,0.82,0.43,78,12,2,0.82,0,,,,,,,,,,,,,,,,,
36123,0,,,,,,,,-0.04,0.84,0.38,78,6,3,0.84,0,,,,,,,,,,,,,,,,,
36163,0,,,,,,,,-0.06,0.82,0.07,79,12,4,0.82,0,,,,,,,,,,,,,,,,,
36203,0,,,,,,,,-0.06,0.83,0.39,80,17,2,0.83,0,,,,,,,,,,,,,,,,,
36243,0,0,2,52,48,32,44,-88,0.21,0.79,-0.06,81,24,4,0.82,0,0,0.0,0.0,0.0,0.0,0,0,0.0,0,0.0,-1,0.0,0.0,0.0,0,0.0,0.604
36283,0,,,,,,,,0.06,0.82,0.11,81,5,5,0.82,0,,,,,,,,,,,,,,,,,
36323,0,,,,,,,,-0.11,0.82,0.47,81,-0,3,0.83,0,,,,,,,,,,,,,,,,,
36363,0,,,,,,,,-0.02,0.72,0.33,81,11,3,0.72,0,,,,,,,,,,,,,,,,,
36403,0,,,,,,,,-0.15,0.67,0.45,79,-4,5,0.68,0,,,,,,,,,,,,,,,,,
36443,0,-0,2,52,50,32,44,-71,0.07,0.65,0.34,77,10,4,0.66,0,0,0.0,0.0,0.0,0.0,0,0,0.0,0,0.0,-1,0.0,0.0,0.0,0,0.0,0.6074
36483,0,,,,,,,,0.17,0.66,-0.1,75,11,5,0.68,0,,,,,,,,,,,,,,,,,
36523,0,,,,,,,,-0.02,0.67,-0.11,73,-8,6,0.67,0,,,,,,,,,,,,,,,,,
36563,0,,,,,,,,-0.36,0.67,0.18,70,-35,10,0.76,0,,,,,,,,,,,,,,,,,
36603,0,,,,,,,,-0.68,0.66,0.53,68,-66,12,0.94,0,,,,,,,,,,,,,,,,,
36643,0,1,0,53,52,30,40,-47,-0.59,0.66,0.44,64,-85,14,0.89,0,0,0.0,0.0,0.0,0.0,0,0,0.0,0,0.0,-1,0.0,0.0,0.0,0,0.0,0.6107
36683,0,,,,,,,,-0.19,0.65,-0.03,61,-98,16,0.68,0,,,,,,,,,,,,,,,,,
36723,0,,,,,,,,0.23,0.63,-0.35,58,-92,15,0.67,0,,,,,,,,,,,,,,,,,
36763,0,,,,,,,,0.46,0.51,-0.16,55,-60,9,0.69,0,,,,,,,,,,,,,,,,,
36803,0,,,,,,,,0.46,0.49,-0.26,52,-52,9,0.68,0,,,,,,,,,,,,,,,,,
36843,0,-0,2,54,52,30,38,-30,0.3,0.45,-0.2,49,-43,7,0.54,0,0,0.0,0.0,0.0,0.0,0,0,0.0,0,0.0,-1,0.0,0.0,0.0,0,0.0,0.614
36883,0,,,,,,,,0.41,0.41,0.15,45,-33,5,0.58,0,,,,,,,,,,,,,,,,,
36923,0,,,,,,,,0.46,0.4,0.26,43,-33,6,0.61,0,,,,,,,,,,,,,,,,,
36963,0,,,,,,,,0.66,0.37,0.53,40,-23,2,0.76,0,,,,,,,,,,,,,,,,,
37003,0,,,,,,,,0.49,0.37,0.39,38,-18,5,0.61,0,,,,,,,,,,,,,,,,,
37043,0,1,1,54,53,29,36,-21,0.54,0.4,0.39,37,-22,8,0.67,0,0,0.0,0.0,0.0,0.0,0,0,0.0,0,0.0,-1,0.0,0.0,0.0,0,0.0,0.6174
37083,0,,,,,,,,0.23,0.3,-0.06,35,-36,15,0.38,0,,,,,,,,,,,,,,,,,
37123,0,,,,,,,,0.15,0.25,-0.43,34,-53,24,0.29,0,,,,,,,,,,,,,,,,,
37163,0,,,,,,,,0.39,0.26,0.03,35,-27,9,0.47,0,,,,,,,,,,,,,,,,,
37203,0,,,,,,,,0.41,0.3,0.04,34,-36,19,0.5,0,,,,,,,,,,,,,,,,,
37243,0,1,2,54,52,29,36,-10,0.25,0.27,0.01,32,-27,13,0.36,0,0,0.0,0.0,0.0,0.0,0,0,0.0,0,0.0,-1,0.0,0.0,0.0,0,0.0,0.6207
37283,0,,,,,,,,0.28,0.31,-0.01,29,-11,5,0.42,0,,,,,,,,,,,,,,,,,
37323,0,,,,,,,,0.34,0.39,0.01,28,-2,-2,0.52,0,,,,,,,,,,,,,,,,,
37363,0,,,,,,,,0.25,0.08,-0.37,25,-14,8,0.27,0,,,,,,,,,,,,,,,,,
37403,0,,,,,,,,0.59,0.21,0.08,22,6,-4,0.62,0,,,,,,,,,,,,,,,,,
37443,0,0,2,51,55,28,36,-1,0.22,0.11,-0.32,20,-13,12,0.24,0,0,0.0,0.0,0.0,0.0,0,0,0.0,0,0.0,-1,0.0,0.0,0.0,0,0.0,0.624
37483,0,,,,,,,,0.38,0.24,0.12,17,11,-13,0.46,0,,,,,,,,,,,,,,,,,
37523,0,,,,,,,,0.56,0.21,0.48,14,22,-28,0.6,0,,,,,,,,,,,,,,,,,
37563,0,,,,,,,,0.37,0.14,0.3,12,10,-20,0.4,0,,,,,,,,,,,,,,,,,
37603,0,,,,,,,,0.47,0.07,0.22,10,9,-14,0.47,0,,,,,,,,,,,,,,,,,
37643,0,0,1,56,56,30,34,3,0.59,0.18,0.56,9,9,-17,0.62,0,0,0.0,0.0,0.0,0.0,0,0,0.0,0,0.0,-1,0.0,0.0,0.0,0,0.0,0.6274
37683,0,,,,,,,,0.65,0.22,0.83,8,7,-17,0.69,0,,,,,,,,,,,,,,,,,
37723,0,,,,,,,,0.6,0.18,0.69,7,-1,-11,0.63,0,,,,,,,,,,,,,,,,,
37763,0,,,,,,,,0.58,0.24,0.18,6,-4,-6,0.63,0,,,,,,,,,,,,,,,,,
37803,0,,,,,,,,0.68,0.09,0.44,4,-8,-5,0.68,0,,,,,,,,,,,,,,,,,
37843,0,1,2,56,58,26,30,2,0.75,-0.0,0.55,4,-3,-4,0.75,0,0,0.0,0.0,0.0,0.0,0,0,0.0,0,0.0,-1,0.0,0.0,0.0,0,0.0,0.6307
37883,0,,,,,,,,0.83,0.02,0.28,4,-3,-0,0.83,0,,,,,,,,,,,,,,,,,
37923,0,,,,,,,,0.79,0.07,0.61,4,-0,-2,0.8,0,,,,,,,,,,,,,,,,,
37963,0,,,,,,,,0.86,0.21,0.51,3,3,-4,0.89,0,,,,,,,,,,,,,,,,,
38003,0,,,,,,,,1.03,0.14,0.62,2,8,-5,1.04,0,,,,,,,,,,,,,,,,,
38043,0,-1,2,53,55,29,34,4,1.03,0.05,0.7,1,4,-5,1.03,0,0,0.0,0.0,0.0,0.0,0,0,0.0,0,0.0,-1,0.0,0.0,0.0,0,0.0,0.634
38083,0,,,,,,,,1.22,0.14,0.65,1,4,-5,1.23,0,,,,,,,,,,,,,,,,,
38123,0,,,,,,,,1.12,0.15,0.63,1,5,-3,1.13,0,,,,,,,,,,,,,,,,,
38163,0,,,,,,,,1.03,0.08,0.55,0,7,-3,1.04,0,,,,,,,,,,,,,,,,,
38203,0,,,,,,,,1.04,0.16,0.82,0,6,-2,1.05,0,,,,,,,,,,,,,,,,,
38243,0,-1,2,50,51,29,33,4,0.92,0.17,0.69,0,3,2,0.94,0,0,0.0,0.0,0.0,0.0,0,0,0.0,0,0.0,-1,0.0,0.0,0.0,0,0.0,0.6374
38283,0,,,,,,,,0.78,0.11,0.58,-0,-2,1,0.78,0,,,,,,,,,,,,,,,,,
38323,0,,,,,,,,0.59,0.23,0.49,-1,-3,1,0.64,0,,,,,,,,,,,,,,,,,
38363,0,,,,,,,,0.35,0.14,0.37,-1,-5,1,0.37,0,,,,,,,,,,,,,,,,,
38403,0,,,,,,,,0.03,0.11,0.08,-1,-7,1,0.11,0,,,,,,,,,,,,,,,,,
38443,0,7,5,44,47,38,42,4,-0.28,0.05,-0.21,-1,-10,3,0.29,0,0,0.0,0.0,0.0,0.0,0,0,0.0,0,0.0,-1,0.0,0.0,0.0,0,0.0,0.6407
38483,0,,,,,,,,-0.51,-0.01,-0.32,-2,-12,6,0.51,0,,,,,,,,,,,,,,,,,
38523,0,,,,,,,,-0.66,0.02,-0.5,-2,-15,9,0.66,0,,,,,,,,,,,,,,,,,
38563,0,,,,,,,,-0.81,-0.1,-0.69,-3,-18,9,0.82,0,,,,,,,,,,,,,,,,,
38603,0,,,,,,,,-0.84,-0.01,-0.18,-5,-16,6,0.84,0,,,,,,,,,,,,,,,,,
38643,0,27,25,39,43,41,45,3,-0.85,-0.11,-0.42,-5,-14,8,0.86,0,0,0.0,0.0,0.0,0.0,0,0,0.0,0,0.0,-1,0.0,0.0,0.0,0,0.0,0.644
38683,0,,,,,,,,-0.75,-0.07,0.04,-6,-3,-3,0.75,0,,,,,,,,,,,,,,,,,
38723,0,,,,,,,,-0.54,-0.05,0.41,-6,11,-14,0.54,0,,,,,,,,,,,,,,,,,
38763,0,,,,,,,,-0.67,-0.13,-0.05,-6,3,-5,0.68,0,,,,,,,,,,,,,,,,,
38803,0,,,,,,,,-0.63,-0.09,-0.06,-6,-5,3,0.64,0,,,,,,,,,,,,,,,,,
38843,0,11,9,40,43,40,44,-3,-0.55,-0.05,-0.07,-6,-4,4,0.55,0,0,0.0,0.0,0.0,0.0,0,0,0.0,0,0.0,-1,0.0,0.0,0.0,0,0.0,0.6474
38883,0,,,,,,,,-0.34,0.0,-0.04,-6,-11,2,0.34,0,,,,,,,,,,,,,,,,,
38923,0,,,,,,,,-0.47,-0.02,-0.41,-3,-21,9,0.47,0,,,,,,,,,,,,,,,,,
38963,0,,,,,,,,-0.5,0.12,-0.35,0,-19,8,0.51,0,,,,,,,,,,,,,,,,,
39003,0,,,,,,,,-0.35,0.22,0.03,1,1,1,0.41,0,,,,,,,,,,,,,,,,,
39043,0,1,3,44,45,36,42,-3,-0.62,0.16,-0.36,3,-16,14,0.64,0,0,0.0,0.0,0.0,0.0,0,0,0.0,0,0.0,-1,0.0,0.0,0.0,0,0.0,0.6507
39083,0,,,,,,,,-0.46,0.13,-0.0,4,6,-7,0.48,0,,,,,,,,,,,,,,,,,
39123,0,,,,,,,,-0.23,0.17,-0.02,5,1,-0,0.29,0,,,,,,,,,,,,,,,,,
39163,0,,,,,,,,-0.39,0.11,-0.4,5,-15,15,0.41,0,,,,,,,,,,,,,,,,,
39203,0,,,,,,,,-0.08,0.15,-0.12,4,-1,3,0.17,0,,,,,,,,,,,,,,,,,
39243,0,3,1,44,47,36,40,4,-0.06,0.12,-0.08,3,2,-2,0.14,0,0,0.0,0.0,0.0,0.0,0,0,0.0,0,0.0,-1,0.0,0.0,0.0,0,0.0,0.654
39283,0,,,,,,,,-0.15,0.08,-0.04,2,7,-6,0.17,0,,,,,,,,,,,,,,,,,
39323,0,,,,,,,,-0.41,0.04,-0.35,1,-10,4,0.41,0,,,,,,,,,,,,,,,,,
39363,0,,,,,,,,-0.39,0.06,-0.31,1,-22,7,0.39,0,,,,,,,,,,,,,,,,,
39403,0,,,,,,,,-0.34,0.08,-0.27,0,-22,7,0.35,0,,,,,,,,,,,,,,,,,
39443,0,1,2,46,47,35,40,-5,-0.28,0.05,-0.24,2,-8,3,0.28,0,0,0.0,0.0,0.0,0.0,0,0,0.0,0,0.0,-1,0.0,0.0,0.0,0,0.0,0.6574
39483,0,,,,,,,,-0.14,0.17,-0.17,2,6,-3,0.22,0,,,,,,,,,,,,,,,,,
39523,0,,,,,,,,-0.02,0.26,-0.12,5,11,-8,0.26,0,,,,,,,,,,,,,,,,,
39563,0,,,,,,,,0.0,0.26,-0.08,7,3,-3,0.26,0,,,,,,,,,,,,,,,,,
39603,0,,,,,,,,-0.09,0.28,-0.44,9,-8,0,0.3,0,,,,,,,,,,,,,,,,,
39643,0,1,0,46,47,34,40,-7,-0.14,0.34,-0.38,9,-2,-8,0.37,0,0,0.0,0.0,0.0,0.0,0,0,0.0,0,0.0,-1,0.0,0.0,0.0,0,0.0,0.6607
39683,0,,,,,,,,-0.36,0.25,-0.69,9,-17,0,0.44,0,,,,,,,,,,,,,,,,,
39723,0,,,,,,,,-0.08,0.4,-0.18,10,-10,1,0.41,0,,,,,,,,,,,,,,,,,
39763,0,,,,,,,,-0.41,0.32,-0.39,12,-2,-4,0.52,0,,,,,,,,,,,,,,,,,
39803,0,,,,,,,,-0.29,0.39,-0.3,14,-23,8,0.49,0,,,,,,,,,,,,,,,,,
39843,0,2,0,47,46,34,41,-19,0.09,0.48,0.14,17,-11,5,0.49,0,0,0.0,0.0,0.0,0.0,0,0,0.0,0,0.0,-1,0.0,0.0,0.0,0,0.0,0.664
39883,0,,,,,,,,0.32,0.54,0.49,19,10,-4,0.63,0,,,,,,,,,,,,,,,,,
39923,0,,,,,,,,0.58,0.6,0.78,21,21,-7,0.84,0,,,,,,,,,,,,,,,,,
39963,0,,,,,,,,0.82,0.67,1.01,24,26,-7,1.05,0,,,,,,,,,,,,,,,,,
40003,0,,,,,,,,0.95,0.77,1.2,26,19,-1,1.22,0,,,,,,,,,,,,,,,,,
40043,0,-0,2,47,46,33,44,-29,0.7,0.79,0.95,28,-0,9,1.06,0,0,0.0,0.0,0.0,0.0,0,0,0.0,0,0.0,-1,0.0,0.0,0.0,0,0.0,0.6674
40083,0,,,,,,,,0.4,0.79,0.74,30,1,6,0.89,0,,,,,,,,,,,,,,,,,
40123,0,,,,,,,,0.28,0.86,0.65,32,-6,8,0.9,0,,,,,,,,,,,,,,,,,
40163,0,,,,,,,,-0.05,0.72,0.23,33,-6,6,0.72,0,,,,,,,,,,,,,,,,,
40203,0,,,,,,,,0.07,0.79,0.57,34,3,1,0.8,0,,,,,,,,,,,,,,,,,
40243,0,1,1,50,46,34,43,-35,0.12,0.83,0.84,36,-4,4,0.84,0,0,0.0,0.0,0.0,0.0,0,0,0.0,0,0.0,-1,0.0,0.0,0.0,0,0.0,0.6707
40283,0,,,,,,,,-0.22,0.8,0.3,38,-19,12,0.83,0,,,,,,,,,,,,,,,,,
40323,0,,,,,,,,-0.54,0.92,-0.14,40,-40,23,1.07,0,,,,,,,,,,,,,,,,,
40363,0,,,,,,,,-0.24,1.04,-0.09,41,-40,24,1.06,0,,,,,,,,,,,,,,,,,
40403,0,,,,,,,,-0.21,0.94,0.09,43,-20,8,0.96,0,,,,,,,,,,,,,,,,,
40443,0,0,2,53,49,31,42,-44,-0.42,0.79,-0.31,45,-37,19,0.9,0,0,0.0,0.0,0.0,0.0,0,0,0.0,0,0.0,-1,0.0,0.0,0.0,0,0.0,0.674
40483,0,,,,,,,,-0.09,0.88,-0.23,47,-35,22,0.89,0,,,,,,,,,,,,,,,,,
40523,0,,,,,,,,0.11,0.97,0.17,49,-31,22,0.98,0,,,,,,,,,,,,,,,,,
40563,0,,,,,,,,-0.08,0.91,-0.11,51,-30,21,0.91,0,,,,,,,,,,,,,,,,,
40603,0,,,,,,,,-0.16,0.95,-0.11,52,-29,20,0.96,0,,,,,,,,,,,,,,,,,
40643,0,0,2,53,47,32,45,-44,-0.11,0.91,0.07,54,-24,16,0.92,0,0,0.0,0.0,0.0,0.0,0,0,0.0,0,0.0,-1,0.0,0.0,0.0,0,0.0,0.6774
40683,0,,,,,,,,-0.22,0.94,0.13,55,-21,14,0.97,0,,,,,,,,,,,,,,,,,
40723,0,,,,,,,,-0.25,1.0,0.17,55,-18,12,1.03,0,,,,,,,,,,,,,,,,,
40763,0,,,,,,,,-0.18,1.05,0.25,56,-16,10,1.07,0,,,,,,,,,,,,,,,,,
40803,0,,,,,,,,-0.21,1.03,0.47,57,-14,8,1.05,0,,,,,,,,,,,,,,,,,
40843,0,1,2,52,46,34,45,-46,-0.27,0.98,0.57,57,-12,7,1.02,0,0,0.0,0.0,0.0,0.0,0,0,0.0,0,0.0,-1,0.0,0.0,0.0,0,0.0,0.6807
40883,0,,,,,,,,-0.31,1.02,0.49,58,-11,7,1.07,0,,,,,,,,,,,,,,,,,
40923,0,,,,,,,,-0.34,0.96,0.38,58,-12,6,1.02,0,,,,,,,,,,,,,,,,,
40963,0,,,,,,,,-0.39,0.93,0.27,58,-9,5,1.01,0,,,,,,,,,,,,,,,,,
41003,0,,,,,,,,-0.36,0.91,0.23,58,-9,5,0.98,0,,,,,,,,,,,,,,,,,
41043,0,0,2,52,46,33,45,-48,-0.35,0.92,0.16,59,-8,6,0.98,0,0,0.0,0.0,0.0,0.0,0,0,0.0,0,0.0,-1,0.0,0.0,0.0,0,0.0,0.684
41083,0,,,,,,,,-0.24,0.9,0.38,58,-7,6,0.93,0,,,,,,,,,,,,,,,,,
41123,0,,,,,,,,-0.23,0.86,0.35,58,-0,3,0.89,0,,,,,,,,,,,,,,,,,
41163,0,,,,,,,,-0.3,0.9,0.25,58,-6,6,0.95,0,,,,,,,,,,,,,,,,,
41203,0,,,,,,,,-0.55,0.87,-0.18,58,1,1,1.03,0,,,,,,,,,,,,,,,,,
41243,0,1,2,53,48,32,43,-49,-0.38,0.83,0.24,58,15,-6,0.92,0,0,0.0,0.0,0.0,0.0,0,0,0.0,0,0.0,-1,0.0,0.0,0.0,0,0.0,0.6874
41283,0,,,,,,,,-0.05,0.83,0.57,58,7,0,0.83,0,,,,,,,,,,,,,,,,,
41323,0,,,,,,,,-0.27,0.76,0.08,58,3,2,0.81,0,,,,,,,,,,,,,,,,,
41363,0,,,,,,,,0.05,0.88,0.45,58,9,-2,0.88,0,,,,,,,,,,,,,,,,,
41403,0,,,,,,,,0.2,1.02,0.51,58,-6,6,1.04,0,,,,,,,,,,,,,,,,,
41443,0,-1,2,53,49,31,43,-47,0.28,1.14,0.54,59,-23,19,1.18,0,0,0.0,0.0,0.0,0.0,0,0,0.0,0,0.0,-1,0.0,0.0,0.0,0,0.0,0.6907
41483,0,,,,,,,,0.33,1.17,0.68,59,1,3,1.22,0,,,,,,,,,,,,,,,,,
41523,0,,,,,,,,0.32,1.1,0.57,62,-10,11,1.15,0,,,,,,,,,,,,,,,,,
41563,0,,,,,,,,0.11,1.06,0.44,64,-10,7,1.07,0,,,,,,,,,,,,,,,,,
41603,0,,,,,,,,0.26,1.14,0.74,65,-4,1,1.17,0,,,,,,,,,,,,,,,,,
41643,0,1,1,56,51,31,42,-39,0.25,1.09,0.62,67,1,-1,1.12,0,0,0.0,0.0,0.0,0.0,0,0,0.0,0,0.0,-1,0.0,0.0,0.0,0,0.0,0.694
41683,0,,,,,,,,0.23,1.03,0.49,65,-1,0,1.05,0,,,,,,,,,,,,,,,,,
41723,0,,,,,,,,0.16,1.03,0.38,66,-4,9,1.04,0,,,,,,,,,,,,,,,,,
41763,0,,,,,,,,0.22,0.94,0.29,66,-7,11,0.97,0,,,,,,,,,,,,,,,,,
41803,0,,,,,,,,0.27,0.87,0.25,62,12,-8,0.91,0,,,,,,,,,,,,,,,,,
41843,0,1,1,55,52,30,41,-11,0.55,0.89,0.18,59,14,-5,1.05,0,0,0.0,0.0,0.0,0.0,0,0,0.0,0,0.0,-1,0.0,0.0,0.0,0,0.0,0.6974
41883,0,,,,,,,,0.32,0.89,-0.23,55,-15,13,0.95,0,,,,,,,,,,,,,,,,,
41923,0,,,,,,,,0.1,0.78,-0.17,50,-9,10,0.78,0,,,,,,,,,,,,,,,,,
41963,0,,,,,,,,0.46,0.86,0.24,47,13,-3,0.98,0,,,,,,,,,,,,,,,,,
42003,0,,,,,,,,0.22,0.91,-0.18,44,-14,13,0.94,0,,,,,,,,,,,,,,,,,
42043,0,1,2,56,51,29,41,-28,-0.02,0.99,-0.53,43,-33,25,0.99,0,0,0.0,0.0,0.0,0.0,0,0,0.0,0,0.0,-1,0.0,0.0,0.0,0,0.0,0.7007
42083,0,,,,,,,,-0.11,0.92,-0.81,43,-39,31,0.93,0,,,,,,,,,,,,,,,,,
42123,0,,,,,,,,-0.07,0.9,-1.04,43,-40,34,0.9,0,,,,,,,,,,,,,,,,,
42163,0,,,,,,,,0.03,0.88,-0.46,44,-29,25,0.88,0,,,,,,,,,,,,,,,,,
42203,0,,,,,,,,0.02,0.82,-0.62,44,-30,23,0.82,0,,,,,,,,,,,,,,,,,
42243,0,0,3,57,52,28,37,-12,0.32,0.82,-0.13,45,-14,14,0.88,0,0,0.0,0.0,0.0,0.0,0,0,0.0,0,0.0,-1,0.0,0.0,0.0,0,0.0,0.704
42283,0,,,,,,,,0.35,0.77,-0.33,45,-14,13,0.84,0,,,,,,,,,,,,,,,,,
42323,0,,,,,,,,0.18,0.75,-0.49,42,-23,18,0.77,0,,,,,,,,,,,,,,,,,
42363,0,,,,,,,,0.21,0.72,-0.02,38,-21,13,0.75,0,,,,,,,,,,,,,,,,,
42403,0,,,,,,,,0.22,0.55,0.37,33,-15,15,0.59,0,,,,,,,,,,,,,,,,,
42443,0,19,15,50,51,33,39,9,0.34,0.4,0.68,26,-18,20,0.52,0,0,0.0,0.0,0.0,0.0,0,0,0.0,0,0.0,-1,0.0,0.0,0.0,0,0.0,0.7074
42483,0,,,,,,,,-0.02,0.25,0.57,18,-12,11,0.25,0,,,,,,,,,,,,,,,,,
42523,0,,,,,,,,-0.08,0.27,0.48,10,-18,11,0.28,0,,,,,,,,,,,,,,,,,
42563,0,,,,,,,,-0.42,0.13,0.01,5,-20,14,0.44,0,,,,,,,,,,,,,,,,,
42603,0,,,,,,,,-0.52,0.08,0.17,0,-31,19,0.52,0,,,,,,,,,,,,,,,,,
42643,0,25,19,42,46,42,42,9,-0.78,0.01,-0.16,-4,-25,16,0.78,0,0,0.0,0.0,0.0,0.0,0,0,0.0,0,0.0,-1,0.0,0.0,0.0,0,0.0,0.7107
42683,0,,,,,,,,-0.8,-0.07,0.07,-6,-21,14,0.8,0,,,,,,,,,,,,,,,,,
42723,0,,,,,,,,-0.64,-0.14,0.13,-9,-17,12,0.66,0,,,,,,,,,,,,,,,,,
42763,0,,,,,,,,-0.5,-0.27,0.32,-11,8,7,0.56,0,,,,,,,,,,,,,,,,,
42803,0,,,,,,,,-0.35,-0.41,0.33,-15,40,3,0.54,0,,,,,,,,,,,,,,,,,
42843,0,21,16,39,51,41,43,34,-0.13,-0.62,-0.11,-19,44,2,0.63,0,0,0.0,0.0,0.0,0.0,0,0,0.0,0,0.0,-1,0.0,0.0,0.0,0,0.0,0.714
42883,0,,,,,,,,-0.17,-0.75,0.12,-25,43,1,0.77,0,,,,,,,,,,,,,,,,,
42923,0,,,,,,,,-0.21,-0.8,0.21,-32,35,-2,0.83,0,,,,,,,,,,,,,,,,,
42963,0,,,,,,,,-0.26,-0.82,0.37,-37,28,-2,0.86,0,,,,,,,,,,,,,,,,,
43003,0,,,,,,,,-0.28,-0.83,0.51,-41,22,-1,0.87,0,,,,,,,,,,,,,,,,,
43043,0,2,1,42,54,43,40,40,-0.24,-0.88,0.72,-45,16,-2,0.91,0,0,0.0,0.0,0.0,0.0,0,0,0.0,0,0.0,-1,0.0,0.0,0.0,0,0.0,0.7174
43083,0,,,,,,,,-0.24,-0.79,0.77,-47,14,-2,0.83,0,,,,,,,,,,,,,,,,,
43123,0,,,,,,,,-0.25,-0.72,0.79,-49,10,-1,0.77,0,,,,,,,,,,,,,,,,,
43163,0,,,,,,,,-0.32,-0.78,0.85,-50,10,-2,0.84,0,,,,,,,,,,,,,,,,,
43203,0,,,,,,,,-0.46,-0.86,0.61,-50,-3,-2,0.98,0,,,,,,,,,,,,,,,,,
43243,0,0,3,41,53,42,38,44,-0.51,-0.87,0.76,-50,-26,2,1.01,0,0,0.0,0.0,0.0,0.0,0,0,0.0,0,0.0,-1,0.0,0.0,0.0,0,0.0,0.7207
43283,0,,,,,,,,-0.05,-0.88,0.81,-49,-17,-1,0.88,0,,,,,,,,,,,,,,,,,
43323,0,,,,,,,,-0.24,-0.93,0.72,-48,-5,-2,0.96,0,,,,,,,,,,,,,,,,,
43363,0,,,,,,,,-0.48,-0.92,0.88,-48,-23,1,1.04,0,,,,,,,,,,,,,,,,,
43403,0,,,,,,,,-0.23,-0.79,0.77,-48,-26,1,0.82,0,,,,,,,,,,,,,,,,,
43443,0,1,2,44,55,39,38,58,0.2,-0.78,0.28,-48,-3,-1,0.8,0,0,0.0,0.0,0.0,0.0,0,0,0.0,0,0.0,-1,0.0,0.0,0.0,0,0.0,0.724
43483,0,,,,,,,,0.45,-0.83,-0.03,-49,25,-5,0.95,0,,,,,,,,,,,,,,,,,
43523,0,,,,,,,,0.08,-0.86,0.35,-50,29,-7,0.87,0,,,,,,,,,,,,,,,,,
43563,0,,,,,,,,-0.32,-0.83,0.58,-51,4,-3,0.89,0,,,,,,,,,,,,,,,,,
43603,0,,,,,,,,-0.51,-0.76,0.56,-51,-28,2,0.92,0,,,,,,,,,,,,,,,,,
43643,0,-0,2,45,55,39,37,61,-0.08,-0.69,0.57,-52,-24,1,0.69,0,0,0.0,0.0,0.0,0.0,0,0,0.0,0,0.0,-1,0.0,0.0,0.0,0,0.0,0.7274
43683,0,,,,,,,,0.07,-0.74,0.32,-53,-3,-3,0.74,0,,,,,,,,,,,,,,,,,
43723,0,,,,,,,,-0.3,-0.8,0.44,-53,-14,1,0.86,0,,,,,,,,,,,,,,,,,
43763,0,,,,,,,,-0.07,-0.69,0.55,-52,-16,1,0.69,0,,,,,,,,,,,,,,,,,
43803,0,,,,,,,,-0.12,-0.71,0.38,-52,-9,0,0.72,0,,,,,,,,,,,,,,,,,
43843,0,1,2,47,54,38,37,48,0.2,-0.56,0.34,-51,-9,1,0.6,0,0,0.0,0.0,0.0,0.0,0,0,0.0,0,0.0,-1,0.0,0.0,0.0,0,0.0,0.7307
43883,0,,,,,,,,0.27,-0.49,0.6,-48,12,-3,0.56,0,,,,,,,,,,,,,,,,,
43923,0,,,,,,,,-0.16,-0.43,0.87,-44,17,-4,0.46,0,,,,,,,,,,,,,,,,,
43963,0,,,,,,,,-0.51,-0.26,1.08,-40,-1,-0,0.58,0,,,,,,,,,,,,,,,,,
44003,0,,,,,,,,-0.31,-0.14,1.2,-34,-10,0,0.35,0,,,,,,,,,,,,,,,,,
44043,0,1,0,51,52,33,37,-3,-0.48,-0.09,1.14,-28,-11,1,0.49,0,0,0.0,0.0,0.0,0.0,0,0,0.0,0,0.0,-1,0.0,0.0,0.0,0,0.0,0.734
44083,0,,,,,,,,-0.23,0.11,1.01,-21,-19,2,0.26,0,,,,,,,,,,,,,,,,,
44123,0,,,,,,,,0.03,0.14,0.86,-15,-11,-0,0.15,0,,,,,,,,,,,,,,,,,
44163,0,,,,,,,,0.15,0.22,0.78,-8,-8,1,0.26,0,,,,,,,,,,,,,,,,,
44203,0,,,,,,,,0.19,0.3,0.77,-2,-4,1,0.35,0,,,,,,,,,,,,,,,,,
44243,0,1,0,52,51,30,39,-29,0.15,0.3,0.62,4,-4,0,0.34,0,0,0.0,0.0,0.0,0.0,0,0,0.0,0,0.0,-1,0.0,0.0,0.0,0,0.0,0.7374
44283,0,,,,,,,,0.41,0.43,0.88,9,2,-2,0.6,0,,,,,,,,,,,,,,,,,
44323,0,,,,,,,,0.34,0.35,0.49,15,-5,1,0.49,0,,,,,,,,,,,,,,,,,
44363,0,,,,,,,,0.25,0.41,0.41,20,5,-3,0.48,0,,,,,,,,,,,,,,,,,
44403,0,,,,,,,,0.58,0.64,0.71,25,15,-8,0.87,0,,,,,,,,,,,,,,,,,
44443,0,-1,0,56,52,28,39,-40,0.74,0.81,0.96,30,28,-17,1.09,0,0,0.0,0.0,0.0,0.0,0,0,0.0,0,0.0,-1,0.0,0.0,0.0,0,0.0,0.7407
44483,0,,,,,,,,0.64,0.78,1.16,34,39,-23,1.01,0,,,,,,,,,,,,,,,,,
44523,0,,,,,,,,0.81,0.84,1.32,38,40,-23,1.17,0,,,,,,,,,,,,,,,,,
44563,0,,,,,,,,0.53,0.8,0.82,41,28,-15,0.95,0,,,,,,,,,,,,,,,,,
44603,0,,,,,,,,0.65,0.83,1.02,43,26,-13,1.05,0,,,,,,,,,,,,,,,,,
44643,0,0,2,54,50,32,43,-29,0.2,0.76,0.45,44,10,-5,0.79,0,0,0.0,0.0,0.0,0.0,0,0,0.0,0,0.0,-1,0.0,0.0,0.0,0,0.0,0.7441
44683,0,,,,,,,,-0.01,0.69,0.38,43,16,-10,0.69,0,,,,,,,,,,,,,,,,,
44723,0,,,,,,,,-0.08,0.67,0.69,42,31,-19,0.68,0,,,,,,,,,,,,,,,,,
44763,0,,,,,,,,-0.36,0.56,0.18,40,8,-7,0.67,0,,,,,,,,,,,,,,,,,
44803,0,,,,,,,,-0.33,0.62,-0.24,40,-11,4,0.71,0,,,,,,,,,,,,,,,,,
44843,0,-0,2,53,49,31,41,-34,-0.6,0.6,-0.57,39,-23,9,0.85,0,0,0.0,0.0,0.0,0.0,0,0,0.0,0,0.0,-1,0.0,0.0,0.0,0,0.0,0.7474
44883,0,,,,,,,,-0.36,0.73,-0.08,40,-13,4,0.81,0,,,,,,,,,,,,,,,,,
44923,0,,,,,,,,-0.47,0.77,-0.36,42,-24,11,0.91,0,,,,,,,,,,,,,,,,,
44963,0,,,,,,,,-0.61,0.78,-0.67,42,-42,23,0.99,0,,,,,,,,,,,,,,,,,
45003,0,,,,,,,,-0.51,0.84,-0.57,44,-25,16,0.99,0,,,,,,,,,,,,,,,,,
45043,0,-1,1,54,51,31,43,-42,-0.18,0.97,-0.44,43,-19,8,0.99,0,0,0.0,0.0,0.0,0.0,0,0,0.0,0,0.0,-1,0.0,0.0,0.0,0,0.0,0.7507
45083,0,,,,,,,,-0.21,1.02,-0.34,46,-21,7,1.04,0,,,,,,,,,,,,,,,,,
45123,0,,,,,,,,-0.24,1.06,-0.25,49,-18,4,1.09,0,,,,,,,,,,,,,,,,,
45163,0,,,,,,,,-0.4,1.06,-0.59,52,-28,13,1.13,0,,,,,,,,,,,,,,,,,
45203,0,,,,,,,,-0.3,1.08,-0.49,55,-20,8,1.12,0,,,,,,,,,,,,,,,,,
45243,0,-1,0,56,50,31,44,-38,-0.11,1.18,-0.42,57,-15,6,1.19,0,0,0.0,0.0,0.0,0.0,0,0,0.0,0,0.0,-1,0.0,0.0,0.0,0,0.0,0.754
45283,0,,,,,,,,0.16,1.16,-0.36,61,-3,4,1.17,0,,,,,,,,,,,,,,,,,
45323,0,,,,,,,,0.22,1.11,-0.31,58,-4,4,1.14,0,,,,,,,,,,,,,,,,,
45363,0,,,,,,,,0.38,1.26,0.13,59,4,-4,1.32,0,,,,,,,,,,,,,,,,,
45403,0,,,,,,,,0.42,1.16,0.12,57,21,-8,1.23,0,,,,,,,,,,,,,,,,,
45443,0,0,2,55,51,32,43,-27,0.46,1.14,0.12,54,21,-10,1.23,0,0,0.0,0.0,0.0,0.0,0,0,0.0,0,0.0,-1,0.0,0.0,0.0,0,0.0,0.7574
45483,0,,,,,,,,0.59,1.08,0.11,52,10,-6,1.23,0,,,,,,,,,,,,,,,,,
45523,0,,,,,,,,0.5,1.13,0.11,49,6,3,1.24,0,,,,,,,,,,,,,,,,,
45563,0,,,,,,,,0.42,1.06,-0.29,47,1,8,1.14,0,,,,,,,,,,,,,,,,,
45603,0,,,,,,,,0.13,1.14,-0.34,47,-1,5,1.15,0,,,,,,,,,,,,,,,,,
45643,0,-0,1,55,48,31,44,-40,0.09,1.16,-0.29,48,7,0,1.16,0,0,0.0,0.0,0.0,0.0,0,0,0.0,0,0.0,-1,0.0,0.0,0.0,0,0.0,0.7607
45683,0,,,,,,,,0.09,1.22,-0.22,49,-7,8,1.22,0,,,,,,,,,,,,,,,,,
45723,0,,,,,,,,-0.04,1.17,-0.2,51,11,-1,1.17,0,,,,,,,,,,,,,,,,,
45763,0,,,,,,,,-0.19,1.21,-0.54,53,-9,12,1.22,0,,,,,,,,,,,,,,,,,
45803,0,,,,,,,,-0.18,1.27,-0.4,55,-22,18,1.28,0,,,,,,,,,,,,,,,,,
45843,0,0,1,53,47,34,46,-41,-0.51,1.21,-0.7,56,-32,22,1.32,0,0,0.0,0.0,0.0,0.0,0,0,0.0,0,0.0,-1,0.0,0.0,0.0,0,0.0,0.764
45883,0,,,,,,,,-0.69,1.2,-0.82,57,-23,17,1.38,0,,,,,,,,,,,,,,,,,
45923,0,,,,,,,,-0.61,1.17,-0.43,59,-19,15,1.32,0,,,,,,,,,,,,,,,,,
45963,0,,,,,,,,-0.48,1.08,0.03,60,-10,11,1.18,0,,,,,,,,,,,,,,,,,
46003,0,,,,,,,,-0.57,1.08,-0.01,60,-9,9,1.22,0,,,,,,,,,,,,,,,,,
46043,0,0,1,54,46,35,46,-37,-0.41,1.14,0.09,61,-12,9,1.21,0,0,0.0,0.0,0.0,0.0,0,0,0.0,0,0.0,-1,0.0,0.0,0.0,0,0.0,0.7674
46083,0,,,,,,,,-0.55,0.95,-0.27,61,-8,7,1.1,0,,,,,,,,,,,,,,,,,
46123,0,,,,,,,,-0.71,0.94,-0.32,60,1,2,1.17,0,,,,,,,,,,,,,,,,,
46163,0,,,,,,,,-0.55,0.86,-0.24,60,-1,7,1.02,0,,,,,,,,,,,,,,,,,
46203,0,,,,,,,,-0.56,0.88,-0.17,58,1,2,1.04,0,,,,,,,,,,,,,,,,,
46243,0,1,0,54,47,32,44,-40,-0.14,0.98,0.24,59,20,-16,0.99,0,0,0.0,0.0,0.0,0.0,0,0,0.0,0,0.0,-1,0.0,0.0,0.0,0,0.0,0.7707
46283,0,,,,,,,,0.04,1.13,0.17,59,5,1,1.13,0,,,,,,,,,,,,,,,,,
46323,0,,,,,,,,-0.05,1.12,0.16,57,12,-4,1.12,0,,,,,,,,,,,,,,,,,
46363,0,,,,,,,,-0.03,1.11,0.08,57,-4,7,1.11,0,,,,,,,,,,,,,,,,,
46403,0,,,,,,,,-0.18,1.18,0.08,57,-8,10,1.2,0,,,,,,,,,,,,,,,,,
46443,0,1,0,56,48,31,45,-51,-0.21,1.16,0.16,60,-8,8,1.18,0,0,0.0,0.0,0.0,0.0,0,0,0.0,0,0.0,-1,0.0,0.0,0.0,0,0.0,0.774
46483,0,,,,,,,,-0.01,1.17,0.51,62,18,-15,1.17,0,,,,,,,,,,,,,,,,,
46523,0,,,,,,,,0.27,1.23,0.79,64,36,-23,1.26,0,,,,,,,,,,,,,,,,,
46563,0,,,,,,,,0.34,1.18,1.02,65,37,-24,1.22,0,,,,,,,,,,,,,,,,,
46603,0,,,,,,,,0.46,1.09,1.11,66,42,-25,1.18,0,,,,,,,,,,,,,,,,,
46643,0,1,1,53,50,35,45,-10,0.16,0.85,0.52,65,17,-7,0.87,0,0,0.0,0.0,0.0,0.0,0,0,0.0,0,0.0,-1,0.0,0.0,0.0,0,0.0,0.7774
46683,0,,,,,,,,-0.05,0.75,0.04,58,-2,6,0.75,0,,,,,,,,,,,,,,,,,
46723,0,,,,,,,,0.06,0.49,0.01,48,-1,1,0.49,0,,,,,,,,,,,,,,,,,
46763,0,,,,,,,,0.13,0.38,0.18,38,17,-8,0.4,0,,,,,,,,,,,,,,,,,
46803,0,,,,,,,,0.1,0.12,0.17,30,-3,-0,0.16,0,,,,,,,,,,,,,,,,,
46843,0,-1,2,47,54,37,38,25,0.04,-0.03,0.11,21,8,-7,0.05,0,0,0.0,0.0,0.0,0.0,0,0,0.0,0,0.0,-1,0.0,0.0,0.0,0,0.0,0.7807
46883,0,,,,,,,,0.17,-0.15,0.22,13,13,-11,0.22,0,,,,,,,,,,,,,,,,,
46923,0,,,,,,,,0.05,-0.29,0.2,3,11,-9,0.29,0,,,,,,,,,,,,,,,,,
46963,0,,,,,,,,0.04,-0.5,0.18,-6,14,-12,0.5,0,,,,,,,,,,,,,,,,,
47003,0,,,,,,,,-0.06,-0.63,-0.23,-14,13,-13,0.63,0,,,,,,,,,,,,,,,,,
47043,0,0,2,45,57,39,36,58,-0.07,-0.6,-0.21,-21,12,-13,0.61,0,0,0.0,0.0,0.0,0.0,0,0,0.0,0,0.0,-1,0.0,0.0,0.0,0,0.0,0.784
47083,0,,,,,,,,-0.15,-0.62,-0.19,-28,11,-8,0.63,0,,,,,,,,,,,,,,,,,
47123,0,,,,,,,,-0.14,-0.75,-0.17,-33,14,-8,0.76,0,,,,,,,,,,,,,,,,,
47163,0,,,,,,,,-0.14,-0.88,-0.16,-39,1,0,0.89,0,,,,,,,,,,,,,,,,,
47203,0,,,,,,,,-0.1,-0.85,-0.15,-43,1,1,0.86,0,,,,,,,,,,,,,,,,,
47243,0,-0,2,44,57,40,36,65,-0.06,-0.96,-0.14,-46,7,-2,0.97,0,0,0.0,0.0,0.0,0.0,0,0,0.0,0,0.0,-1,0.0,0.0,0.0,0,0.0,0.7874
47283,0,,,,,,,,0.01,-0.96,-0.14,-50,12,-6,0.96,0,,,,,,,,,,,,,,,,,
47323,0,,,,,,,,0.03,-1.04,-0.09,-54,22,-11,1.04,0,,,,,,,,,,,,,,,,,
47363,0,,,,,,,,-0.25,-1.19,-0.05,-58,13,-9,1.21,0,,,,,,,,,,,,,,,,,
47403,0,,,,,,,,-0.12,-1.21,-0.06,-60,4,1,1.22,0,,,,,,,,,,,,,,,,,
47443,0,-1,2,45,58,42,37,50,-0.11,-1.15,-0.03,-63,15,-11,1.16,0,0,0.0,0.0,0.0,0.0,0,0,0.0,0,0.0,-1,0.0,0.0,0.0,0,0.0,0.7907
47483,0,,,,,,,,-0.27,-1.03,-0.41,-62,3,-2,1.06,0,,,,,,,,,,,,,,,,,
47523,0,,,,,,,,-0.18,-0.88,-0.35,-59,-2,3,0.9,0,,,,,,,,,,,,,,,,,
47563,0,,,,,,,,0.04,-0.62,-0.3,-51,-1,3,0.62,0,,,,,,,,,,,,,,,,,
47603,0,,,,,,,,0.08,-0.37,-0.27,-41,-6,3,0.38,0,,,,,,,,,,,,,,,,,
47643,0,1,0,51,50,32,39,-18,0.03,-0.17,-0.24,-31,-9,1,0.17,0,0,0.0,0.0,0.0,0.0,0,0,0.0,0,0.0,-1,0.0,0.0,0.0,0,0.0,0.794
47683,0,,,,,,,,0.2,0.14,-0.17,-20,-3,-2,0.24,0,,,,,,,,,,,,,,,,,
47723,0,,,,,,,,0.02,0.36,-0.5,-7,-7,3,0.36,0,,,,,,,,,,,,,,,,,
47763,0,,,,,,,,-0.17,0.59,-0.43,4,-9,1,0.62,0,,,,,,,,,,,,,,,,,
47803,0,,,,,,,,-0.18,0.8,-0.37,13,-2,0,0.82,0,,,,,,,,,,,,,,,,,
47843,0,0,2,54,48,32,44,-44,0.04,0.89,0.08,20,9,-4,0.89,0,0,0.0,0.0,0.0,0.0,0,0,0.0,0,0.0,-1,0.0,0.0,0.0,0,0.0,0.7974
47883,0,,,,,,,,-0.09,0.98,0.09,27,9,-3,0.98,0,,,,,,,,,,,,,,,,,
47923,0,,,,,,,,-0.18,0.95,-0.26,34,3,2,0.97,0,,,,,,,,,,,,,,,,,
47963,0,,,,,,,,-0.22,1.09,-0.23,40,-10,12,1.11,0,,,,,,,,,,,,,,,,,
48003,0,,,,,,,,-0.1,1.07,0.19,45,8,-4,1.07,0,,,,,,,,,,,,,,,,,
48043,0,1,2,55,47,33,46,-59,-0.31,1.14,-0.23,49,-19,13,1.18,0,0,0.0,0.0,0.0,0.0,0,0,0.0,0,0.0,-1,0.0,0.0,0.0,0,0.0,0.8007
48083,0,,,,,,,,-0.05,1.11,0.2,53,0,-6,1.11,0,,,,,,,,,,,,,,,,,
48123,0,,,,,,,,-0.11,1.18,0.09,57,-7,5,1.19,0,,,,,,,,,,,,,,,,,
48163,0,,,,,,,,-0.37,1.27,-0.31,61,-18,12,1.33,0,,,,,,,,,,,,,,,,,
48203,0,,,,,,,,-0.1,1.13,0.13,64,-6,1,1.13,0,,,,,,,,,,,,,,,,,
48243,0,0,1,56,48,35,46,-55,-0.37,1.2,-0.28,65,-14,7,1.25,0,0,0.0,0.0,0.0,0.0,0,0,0.0,0,0.0,-1,0.0,0.0,0.0,0,0.0,0.8041
48283,0,,,,,,,,-0.1,1.22,0.16,67,-3,0,1.22,0,,,,,,,,,,,,,,,,,
48323,0,,,,,,,,-0.45,1.06,-0.25,66,-7,3,1.15,0,,,,,,,,,,,,,,,,,
48363,0,,,,,,,,-0.12,0.86,0.17,63,20,-11,0.87,0,,,,,,,,,,,,,,,,,
48403,0,,,,,,,,-0.12,0.66,0.16,55,15,-13,0.67,0,,,,,,,,,,,,,,,,,
48443,0,-1,2,52,51,34,40,23,-0.02,0.57,0.15,44,13,-16,0.57,0,0,0.0,0.0,0.0,0.0,0,0,0.0,0,0.0,-1,0.0,0.0,0.0,0,0.0,0.8074
48483,0,,,,,,,,0.04,0.25,0.14,32,10,-10,0.25,0,,,,,,,,,,,,,,,,,
48523,0,,,,,,,,0.06,0.01,0.13,19,9,-3,0.06,0,,,,,,,,,,,,,,,,,
48563,0,,,,,,,,-0.01,-0.06,0.13,7,6,-1,0.07,0,,,,,,,,,,,,,,,,,
48603,0,,,,,,,,-0.11,-0.22,0.12,-2,6,-4,0.24,0,,,,,,,,,,,,,,,,,
48643,0,1,1,47,57,37,34,40,-0.03,-0.25,0.08,-9,-6,7,0.25,0,0,0.0,0.0,0.0,0.0,0,0,0.0,0,0.0,-1,0.0,0.0,0.0,0,0.0,0.8107
48683,0,,,,,,,,0.16,-0.35,0.44,-16,7,-2,0.38,0,,,,,,,,,,,,,,,,,
48723,0,,,,,,,,0.05,-0.54,-0.02,-22,-11,9,0.54,0,,,,,,,,,,,,,,,,,
48763,0,,,,,,,,0.13,-0.59,0.0,-26,11,-12,0.6,0,,,,,,,,,,,,,,,,,
48803,0,,,,,,,,0.43,-0.49,0.33,-28,11,-6,0.65,0,,,,,,,,,,,,,,,,,
48843,0,0,0,47,58,36,35,49,0.25,-0.67,-0.12,-31,-8,8,0.71,0,0,0.0,0.0,0.0,0.0,0,0,0.0,0,0.0,-1,0.0,0.0,0.0,0,0.0,0.814
48883,0,,,,,,,,0.33,-0.74,0.06,-34,-2,1,0.81,0,,,,,,,,,,,,,,,,,
48923,0,,,,,,,,0.31,-0.88,0.03,-37,-2,-2,0.93,0,,,,,,,,,,,,,,,,,
48963,0,,,,,,,,0.24,-1.05,-0.36,-40,-13,9,1.08,0,,,,,,,,,,,,,,,,,
49003,0,,,,,,,,0.22,-0.93,-0.27,-44,-12,10,0.96,0,,,,,,,,,,,,,,,,,
49043,0,0,1,46,57,40,37,33,0.18,-1.0,-0.24,-47,-10,4,1.01,0,0,0.0,0.0,0.0,0.0,0,0,0.0,0,0.0,-1,0.0,0.0,0.0,0,0.0,0.8174
49083,0,,,,,,,,0.21,-1.04,-0.21,-47,-11,5,1.06,0,,,,,,,,,,,,,,,,,
49123,0,,,,,,,,0.29,-0.87,0.21,-45,-11,2,0.91,0,,,,,,,,,,,,,,,,,
49163,0,,,,,,,,0.2,-0.67,-0.21,-40,-22,14,0.7,0,,,,,,,,,,,,,,,,,
49203,0,,,,,,,,0.05,-0.45,-0.55,-32,-24,23,0.46,0,,,,,,,,,,,,,,,,,
49243,0,-1,2,52,52,33,38,-6,0.11,-0.23,-0.43,-25,-13,15,0.26,0,0,0.0,0.0,0.0,0.0,0,0,0.0,0,0.0,-1,0.0,0.0,0.0,0,0.0,0.8207
49283,0,,,,,,,,0.1,-0.23,-0.39,-19,-20,20,0.25,0,,,,,,,,,,,,,,,,,
49323,0,,,,,,,,0.16,-0.15,-0.33,-12,-19,19,0.22,0,,,,,,,,,,,,,,,,,
49363,0,,,,,,,,0.26,-0.01,-0.29,-7,-12,16,0.26,0,,,,,,,,,,,,,,,,,
49403,0,,,,,,,,0.31,0.23,0.05,-2,-5,10,0.39,0,,,,,,,,,,,,,,,,,
49443,0,1,2,52,51,32,40,-14,0.24,0.41,0.06,3,0,7,0.48,0,0,0.0,0.0,0.0,0.0,0,0,0.0,0,0.0,-1,0.0,0.0,0.0,0,0.0,0.824
49483,0,,,,,,,,0.3,0.37,0.43,7,11,-5,0.48,0,,,,,,,,,,,,,,,,,
49523,0,,,,,,,,0.35,0.47,0.73,11,15,-12,0.58,0,,,,,,,,,,,,,,,,,
49563,0,,,,,,,,0.46,0.52,0.97,15,35,-25,0.69,0,,,,,,,,,,,,,,,,,
49603,0,,,,,,,,0.48,0.6,1.16,19,27,-15,0.76,0,,,,,,,,,,,,,,,,,
49643,0,14,13,51,45,36,46,-23,0.14,0.69,0.56,25,26,-11,0.71,0,0,0.0,0.0,0.0,0.0,0,0,0.0,0,0.0,-1,0.0,0.0,0.0,0,0.0,0.8274
49683,0,,,,,,,,0.02,0.71,0.44,28,18,-6,0.71,0,,,,,,,,,,,,,,,,,
49723,0,,,,,,,,0.22,0.85,0.73,34,16,-4,0.88,0,,,,,,,,,,,,,,,,,
49763,0,,,,,,,,0.25,1.02,0.97,38,27,-11,1.05,0,,,,,,,,,,,,,,,,,
49803,0,,,,,,,,0.06,1.05,0.98,41,17,-6,1.05,0,,,,,,,,,,,,,,,,,
49843,0,14,13,51,43,36,48,-32,-0.09,1.06,0.92,44,14,-5,1.07,0,0,0.0,0.0,0.0,0.0,0,0,0.0,0,0.0,-1,0.0,0.0,0.0,0,0.0,0.8307
49883,0,,,,,,,,0.07,1.12,1.12,47,16,-5,1.12,0,,,,,,,,,,,,,,,,,
49923,0,,,,,,,,-0.2,1.04,1.15,50,24,-3,1.06,0,,,,,,,,,,,,,,,,,
49963,0,,,,,,,,-0.54,1.06,1.31,52,27,-3,1.19,0,,,,,,,,,,,,,,,,,
50003,0,,,,,,,,-0.64,1.07,1.36,54,30,-0,1.25,0,,,,,,,,,,,,,,,,,
50043,0,10,9,52,42,36,48,-67,-0.63,1.17,1.04,56,26,0,1.33,0,0,0.0,0.0,0.0,0.0,0,0,0.0,0,0.0,-1,0.0,0.0,0.0,0,0.0,0.834
50083,0,,,,,,,,-0.6,1.08,1.04,58,21,1,1.23,0,,,,,,,,,,,,,,,,,
50123,0,,,,,,,,-0.56,1.09,1.03,61,18,0,1.22,0,,,,,,,,,,,,,,,,,
50163,0,,,,,,,,-0.54,1.09,1.01,64,14,0,1.22,0,,,,,,,,,,,,,,,,,
50203,0,,,,,,,,-0.55,1.08,0.88,66,12,1,1.21,0,,,,,,,,,,,,,,,,,
50243,0,3,5,52,42,36,48,-90,-0.55,1.08,0.85,66,8,1,1.21,0,0,0.0,0.0,0.0,0.0,0,0,0.0,0,0.0,-1,0.0,0.0,0.0,0,0.0,0.8374
50283,0,,,,,,,,-0.57,1.09,0.95,67,7,1,1.23,0,,,,,,,,,,,,,,,,,
50323,0,,,,,,,,-0.56,1.09,0.86,69,6,1,1.23,0,,,,,,,,,,,,,,,,,
50363,0,,,,,,,,-0.57,1.14,0.92,70,5,2,1.27,0,,,,,,,,,,,,,,,,,
50403,0,,,,,,,,-0.6,1.2,1.1,70,4,4,1.34,0,,,,,,,,,,,,,,,,,
50443,0,0,3,53,42,36,48,-90,-0.58,1.11,1.05,70,4,4,1.25,0,0,0.0,0.0,0.0,0.0,0,0,0.0,0,0.0,-1,0.0,0.0,0.0,0,0.0,0.8407
50483,0,,,,,,,,-0.52,1.16,1.03,70,4,3,1.27,0,,,,,,,,,,,,,,,,,
50523,0,,,,,,,,-0.49,1.13,0.98,71,2,4,1.23,0,,,,,,,,,,,,,,,,,
50563,0,,,,,,,,-0.44,1.1,1.07,71,2,3,1.18,0,,,,,,,,,,,,,,,,,
50603,0,,,,,,,,-0.4,1.13,1.14,71,0,2,1.2,0,,,,,,,,,,,,,,,,,
50643,0,1,1,53,46,36,47,-89,-0.38,1.07,1.15,70,1,1,1.14,0,0,0.0,0.0,0.0,0.0,0,0,0.0,0,0.0,-1,0.0,0.0,0.0,0,0.0,0.844
50683,0,,,,,,,,-0.44,1.1,0.99,68,0,2,1.19,0,,,,,,,,,,,,,,,,,
50723,0,,,,,,,,-0.44,1.13,1.17,66,2,1,1.21,0,,,,,,,,,,,,,,,,,
50763,0,,,,,,,,-0.49,1.19,0.97,65,1,2,1.28,0,,,,,,,,,,,,,,,,,
50803,0,,,,,,,,-0.42,0.99,0.82,64,2,2,1.08,0,,,,,,,,,,,,,,,,,
50843,0,0,1,51,50,36,45,-22,-0.32,0.81,0.9,60,2,0,0.87,0,0,0.0,0.0,0.0,0.0,0,0,0.0,0,0.0,-1,0.0,0.0,0.0,0,0.0,0.8474
50883,0,,,,,,,,-0.34,0.6,0.74,53,2,0,0.69,0,,,,,,,,,,,,,,,,,
50923,0,,,,,,,,-0.24,0.41,0.28,45,7,0,0.48,0,,,,,,,,,,,,,,,,,
50963,0,,,,,,,,-0.47,0.24,0.46,37,-17,3,0.53,0,,,,,,,,,,,,,,,,,
51003,0,,,,,,,,-0.55,0.11,0.42,28,-48,6,0.56,0,,,,,,,,,,,,,,,,,
51043,0,-1,2,47,53,37,38,33,-0.67,-0.02,0.03,19,-76,8,0.67,0,0,0.0,0.0,0.0,0.0,0,0,0.0,0,0.0,-1,0.0,0.0,0.0,0,0.0,0.8507
51083,0,,,,,,,,-0.92,-0.08,0.41,10,-102,11,0.93,0,,,,,,,,,,,,,,,,,
51123,0,,,,,,,,-1.13,0.0,0.71,4,-118,13,1.13,0,,,,,,,,,,,,,,,,,
51163,0,,,,,,,,-0.67,0.01,0.9,-2,-121,14,0.67,0,,,,,,,,,,,,,,,,,
51203,0,,,,,,,,-0.3,-0.06,1.11,-6,-88,9,0.3,0,,,,,,,,,,,,,,,,,
51243,0,-1,2,49,53,34,37,25,-0.27,-0.09,1.28,-8,-52,5,0.28,0,0,0.0,0.0,0.0,0.0,0,0,0.0,0,0.0,-1,0.0,0.0,0.0,0,0.0,0.854
51283,0,,,,,,,,0.03,-0.06,0.81,-10,-15,4,0.07,0,,,,,,,,,,,,,,,,,
51323,0,,,,,,,,0.26,-0.06,0.28,-10,-22,5,0.27,0,,,,,,,,,,,,,,,,,
51363,0,,,,,,,,0.59,0.01,0.01,-10,-26,5,0.59,0,,,,,,,,,,,,,,,,,
51403,0,,,,,,,,0.78,-0.06,-0.11,-8,-7,3,0.79,0,,,,,,,,,,,,,,,,,
51443,0,-1,2,50,52,32,37,1,0.35,-0.08,0.13,-7,-2,1,0.36,0,0,0.0,0.0,0.0,0.0,0,0,0.0,0,0.0,-1,0.0,0.0,0.0,0,0.0,0.8574
51483,0,,,,,,,,0.07,0.05,0.32,-5,-19,3,0.09,0,,,,,,,,,,,,,,,,,
51523,0,,,,,,,,0.21,0.06,0.64,-3,-10,0,0.22,0,,,,,,,,,,,,,,,,,
51563,0,,,,,,,,0.22,0.11,0.71,-1,-13,2,0.25,0,,,,,,,,,,,,,,,,,
51603,0,,,,,,,,0.18,0.13,0.61,2,-9,1,0.22,0,,,,,,,,,,,,,,,,,
51643,0,0,0,51,51,31,37,-13,0.37,0.2,0.61,4,-8,2,0.42,0,0,0.0,0.0,0.0,0.0,0,0,0.0,0,0.0,-1,0.0,0.0,0.0,0,0.0,0.8607
51683,0,,,,,,,,0.19,0.14,0.54,6,6,-0,0.23,0,,,,,,,,,,,,,,,,,
51723,0,,,,,,,,-0.04,0.14,0.66,8,6,-1,0.14,0,,,,,,,,,,,,,,,,,
51763,0,,,,,,,,0.31,0.23,0.92,10,16,-8,0.39,0,,,,,,,,,,,,,,,,,
51803,0,,,,,,,,0.52,0.4,1.12,12,8,-4,0.66,0,,,,,,,,,,,,,,,,,
51843,0,-1,2,55,53,27,35,-30,0.53,0.42,0.99,14,5,-3,0.68,0,0,0.0,0.0,0.0,0.0,0,0,0.0,0,0.0,-1,0.0,0.0,0.0,0,0.0,0.864
51883,0,,,,,,,,0.45,0.49,0.9,16,8,-4,0.66,0,,,,,,,,,,,,,,,,,
51923,0,,,,,,,,0.32,0.58,0.74,21,4,-1,0.66,0,,,,,,,,,,,,,,,,,
51963,0,,,,,,,,0.49,0.73,0.98,26,8,-2,0.88,0,,,,,,,,,,,,,,,,,
52003,0,,,,,,,,0.35,0.7,0.41,30,-4,7,0.78,0,,,,,,,,,,,,,,,,,
52043,0,-1,2,54,50,31,43,-42,-0.01,0.58,-0.05,34,-8,8,0.58,0,0,0.0,0.0,0.0,0.0,0,0,0.0,0,0.0,-1,0.0,0.0,0.0,0,0.0,0.8674
52083,0,,,,,,,,0.15,0.73,0.34,37,-1,5,0.74,0,,,,,,,,,,,,,,,,,
52123,0,,,,,,,,0.25,0.73,0.45,40,7,3,0.77,0,,,,,,,,,,,,,,,,,
52163,0,,,,,,,,-0.07,0.76,0.04,43,2,6,0.76,0,,,,,,,,,,,,,,,,,
52203,0,,,,,,,,0.1,0.84,0.37,45,4,4,0.85,0,,,,,,,,,,,,,,,,,
52243,0,1,0,53,49,32,44,-43,-0.14,0.79,-0.08,47,-2,6,0.8,0,0,0.0,0.0,0.0,0.0,0,0,0.0,0,0.0,-1,0.0,0.0,0.0,0,0.0,0.8707
52283,0,,,,,,,,0.07,0.86,0.31,48,7,1,0.86,0,,,,,,,,,,,,,,,,,
52323,0,,,,,,,,-0.02,0.8,0.39,49,3,3,0.8,0,,,,,,,,,,,,,,,,,
52363,0,,,,,,,,0.06,0.83,0.67,49,3,2,0.83,0,,,,,,,,,,,,,,,,,
52403,0,,,,,,,,-0.13,0.76,0.29,49,-3,4,0.78,0,,,,,,,,,,,,,,,,,
52443,0,0,1,52,49,33,43,-31,-0.12,0.67,0.46,48,6,-1,0.68,0,0,0.0,0.0,0.0,0.0,0,0,0.0,0,0.0,-1,0.0,0.0,0.0,0,0.0,0.874
52483,0,,,,,,,,0.22,0.59,0.75,46,15,-7,0.63,0,,,,,,,,,,,,,,,,,
52523,0,,,,,,,,0.51,0.59,0.99,43,3,1,0.77,0,,,,,,,,,,,,,,,,,
52563,0,,,,,,,,0.22,0.34,0.42,39,-2,1,0.41,0,,,,,,,,,,,,,,,,,
52603,0,,,,,,,,0.47,0.32,0.72,34,1,-1,0.57,0,,,,,,,,,,,,,,,,,
52643,0,1,1,49,52,33,38,7,0.48,0.13,0.56,28,-17,9,0.5,0,0,0.0,0.0,0.0,0.0,0,0,0.0,0,0.0,-1,0.0,0.0,0.0,0,0.0,0.8774
52683,0,,,,,,,,0.72,-0.11,0.83,22,-28,18,0.73,0,,,,,,,,,,,,,,,,,
52723,0,,,,,,,,0.58,-0.25,0.66,15,-33,21,0.63,0,,,,,,,,,,,,,,,,,
52763,0,,,,,,,,0.53,-0.35,0.59,8,-26,15,0.64,0,,,,,,,,,,,,,,,,,
52803,0,,,,,,,,0.42,-0.45,0.5,2,-15,9,0.62,0,,,,,,,,,,,,,,,,,
52843,0,-1,2,46,54,35,36,29,0.57,-0.41,0.78,-4,-15,10,0.7,0,0,0.0,0.0,0.0,0.0,0,0,0.0,0,0.0,-1,0.0,0.0,0.0,0,0.0,0.8807
52883,0,,,,,,,,0.49,-0.4,0.68,-9,-28,20,0.64,0,,,,,,,,,,,,,,,,,
52923,0,,,,,,,,0.4,-0.44,0.59,-13,-12,9,0.6,0,,,,,,,,,,,,,,,,,
52963,0,,,,,,,,0.5,-0.32,0.5,-15,-6,4,0.59,0,,,,,,,,,,,,,,,,,
53003,0,,,,,,,,0.28,-0.35,0.02,-16,-21,12,0.45,0,,,,,,,,,,,,,,,,,
53043,0,1,1,48,54,33,35,17,0.56,-0.39,0.4,-17,-27,16,0.68,0,0,0.0,0.0,0.0,0.0,0,0,0.0,0,0.0,-1,0.0,0.0,0.0,0,0.0,0.884
53083,0,,,,,,,,0.74,-0.43,0.7,-17,-30,20,0.86,0,,,,,,,,,,,,,,,,,
53123,0,,,,,,,,0.92,-0.34,0.95,-15,-26,20,0.98,0,,,,,,,,,,,,,,,,,
53163,0,,,,,,,,0.65,-0.08,0.75,-12,-23,18,0.65,0,,,,,,,,,,,,,,,,,
53203,0,,,,,,,,0.52,-0.0,0.58,-6,-13,11,0.52,0,,,,,,,,,,,,,,,,,
53243,0,0,2,53,50,29,36,-20,0.79,0.26,0.85,-3,-1,5,0.83,0,0,0.0,0.0,0.0,0.0,0,0,0.0,0,0.0,-1,0.0,0.0,0.0,0,0.0,0.8874
53283,0,,,,,,,,0.55,0.27,0.67,2,11,-3,0.61,0,,,,,,,,,,,,,,,,,
53323,0,,,,,,,,0.44,0.33,0.33,9,-0,5,0.55,0,,,,,,,,,,,,,,,,,
53363,0,,,,,,,,0.25,0.54,0.24,18,3,5,0.6,0,,,,,,,,,,,,,,,,,
53403,0,,,,,,,,0.11,0.66,0.18,23,-2,5,0.67,0,,,,,,,,,,,,,,,,,
53443,0,5,6,54,47,31,43,-36,-0.01,0.74,0.12,28,-1,2,0.74,0,0,0.0,0.0,0.0,0.0,0,0,0.0,0,0.0,-1,0.0,0.0,0.0,0,0.0,0.8907
53483,0,,,,,,,,-0.03,0.79,0.08,33,8,-1,0.79,0,,,,,,,,,,,,,,,,,
53523,0,,,,,,,,0.01,0.88,0.08,37,14,-2,0.88,0,,,,,,,,,,,,,,,,,
53563,0,,,,,,,,-0.05,1.03,0.09,39,11,1,1.03,0,,,,,,,,,,,,,,,,,
53603,0,,,,,,,,0.05,1.21,0.09,42,10,-0,1.21,0,,,,,,,,,,,,,,,,,
53643,0,6,7,52,45,34,46,-39,-0.1,1.16,0.06,45,-6,7,1.16,0,0,0.0,0.0,0.0,0.0,0,0,0.0,0,0.0,-1,0.0,0.0,0.0,0,0.0,0.894
53683,0,,,,,,,,0.22,1.17,0.43,47,16,-5,1.19,0,,,,,,,,,,,,,,,,,
53723,0,,,,,,,,0.28,1.28,0.73,49,26,-13,1.31,0,,,,,,,,,,,,,,,,,
53763,0,,,,,,,,0.29,1.26,0.91,52,24,-10,1.3,0,,,,,,,,,,,,,,,,,
53803,0,,,,,,,,0.16,1.31,0.93,55,21,-8,1.32,0,,,,,,,,,,,,,,,,,
53843,0,6,6,52,44,35,47,-53,0.11,1.3,1.12,58,14,-5,1.31,0,0,0.0,0.0,0.0,0.0,0,0,0.0,0,0.0,-1,0.0,0.0,0.0,0,0.0,0.8974
53883,0,,,,,,,,0.14,1.25,0.88,61,20,-5,1.26,0,,,,,,,,,,,,,,,,,
53923,0,,,,,,,,-0.18,1.29,0.88,64,18,-3,1.31,0,,,,,,,,,,,,,,,,,
53963,0,,,,,,,,-0.13,1.38,0.82,67,-1,0,1.38,0,,,,,,,,,,,,,,,,,
54003,0,,,,,,,,0.27,1.3,0.54,70,-11,1,1.33,0,,,,,,,,,,,,,,,,,
