"Interval"|"ms"|0|0|1,"Utc"|"ms"|0|0|1,"Brake_F"|"Bar"|0|2000|10,"Brake_R"|"Bar"|0|2000|10,"Height_RF"|"mm"|0|255|10,"Height_LF"|"mm"|0|255|10,"Height_LR"|"mm"|0|80|10,"Height_RR"|"mm"|0|255|10,"Steering"|"deg"|-100|100|10,"AccelX"|"G"|-3.0|3.0|25,"AccelY"|"G"|-3.0|3.0|25,"AccelZ"|"G"|-3.0|3.0|25,"Yaw"|"Deg/Sec"|-120|120|25,"Pitch"|"Deg/Sec"|-120|120|25,"Roll"|"Deg/Sec"|-120|120|25,"Gsum"|"G"|0.0|3.0|25,"Unknown"|""|0|1024|25,"Log_Button"|""|0.0|10.0|10,"Latitude"|"Degrees"|-180.0|180.0|10,"Longitude"|"Degrees"|-180.0|180.0|10,"Speed"|"kph"|0.0|150.0|10,"Altitude"|"m"|0.0|4000.0|10,"GPSSats"|""|0|20|10,"GPSQual"|""|0|5|10,"GPSDOP"|""|0.0|20.0|10,"LapCount"|""|0|0|10,"LapTime"|"Min"|0.0|0.0|10,"Sector"|""|0|0|10,"SectorTime"|"Min"|0.0|0.0|10,"PredTime"|"Min"|0.0|0.0|5,"ElapsedTime"|"Min"|0.0|0.0|10,"CurrentLap"|""|0|0|10,"Distance"|"km"|0.0|0.0|10,"SessionTime"|"Min"|0.0|0.0|10
65083,0,,,,,,,,-0.01,-0.07,0.58,1,3,-0,0.07,0,,,,,,,,,,,,,,,,,
65123,0,,,,,,,,0.01,-0.06,0.54,1,3,-0,0.06,0,,,,,,,,,,,,,,,,,
65163,0,,,,,,,,0.1,-0.04,0.74,1,2,-0,0.11,0,,,,,,,,,,,,,,,,,
65203,0,,,,,,,,0.14,-0.02,0.83,1,2,0,0.14,0,,,,,,,,,,,,,,,,,
65243,0,1,3,48,52,32,37,-2,0.12,-0.01,0.86,1,2,0,0.12,0,1,0.0,0.0,0.0,0.0,0,0,0.0,0,0.0,-1,0.0,0.0,0.0,0,0.0,1.0874
65283,0,,,,,,,,0.11,-0.01,0.92,1,1,0,0.11,0,,,,,,,,,,,,,,,,,
65323,0,,,,,,,,0.08,-0.0,0.91,1,1,0,0.08,0,,,,,,,,,,,,,,,,,
65363,0,,,,,,,,0.08,-0.0,0.92,1,1,0,0.08,0,,,,,,,,,,,,,,,,,
65403,0,,,,,,,,0.05,0.0,0.98,1,1,0,0.05,0,,,,,,,,,,,,,,,,,
65443,0,0,1,49,52,32,37,-3,0.03,-0.0,0.98,1,-1,1,0.03,0,0,0.0,0.0,0.0,0.0,0,0,0.0,0,0.0,-1,0.0,0.0,0.0,0,0.0,1.0907
65483,0,,,,,,,,0.02,-0.01,0.98,1,-0,1,0.02,0,,,,,,,,,,,,,,,,,
65523,0,,,,,,,,0.03,-0.0,0.94,1,-0,0,0.03,0,,,,,,,,,,,,,,,,,
65563,0,,,,,,,,0.03,0.01,0.96,1,-0,0,0.03,0,,,,,,,,,,,,,,,,,
65603,0,,,,,,,,0.03,0.01,0.98,1,-0,0,0.03,0,,,,,,,,,,,,,,,,,
65643,0,-1,3,49,52,32,38,-2,0.04,-0.0,1.04,1,0,0,0.04,0,0,0.0,0.0,0.0,0.0,0,0,0.0,0,0.0,-1,0.0,0.0,0.0,0,0.0,1.0941
65683,0,,,,,,,,0.04,-0.0,1.08,1,-0,0,0.04,0,,,,,,,,,,,,,,,,,
65723,0,,,,,,,,0.04,-0.01,1.07,1,-0,0,0.04,0,,,,,,,,,,,,,,,,,
65763,0,,,,,,,,0.03,-0.01,1.04,1,-0,0,0.04,0,,,,,,,,,,,,,,,,,
65803,0,,,,,,,,0.04,-0.01,1.01,1,0,0,0.04,0,,,,,,,,,,,,,,,,,
65843,0,1,1,49,52,32,37,-3,0.03,-0.01,1.02,1,-0,0,0.03,0,0,0.0,0.0,0.0,0.0,0,0,0.0,0,0.0,-1,0.0,0.0,0.0,0,0.0,1.0974
65883,0,,,,,,,,0.03,-0.01,1.02,1,-0,0,0.03,0,,,,,,,,,,,,,,,,,
65923,0,,,,,,,,0.04,-0.01,1.0,1,0,0,0.04,0,,,,,,,,,,,,,,,,,
65963,0,,,,,,,,0.04,-0.01,1.01,1,0,0,0.05,0,,,,,,,,,,,,,,,,,
66003,0,,,,,,,,0.04,-0.01,0.99,1,0,0,0.04,0,,,,,,,,,,,,,,,,,
66043,0,1,1,49,52,32,37,-2,0.04,-0.01,1.02,1,0,0,0.04,0,0,0.0,0.0,0.0,0.0,0,0,0.0,0,0.0,-1,0.0,0.0,0.0,0,0.0,1.1007
66083,0,,,,,,,,0.04,-0.01,1.02,1,-0,0,0.04,0,,,,,,,,,,,,,,,,,
66123,0,,,,,,,,0.05,-0.01,1.01,1,-0,0,0.05,0,,,,,,,,,,,,,,,,,
66163,0,,,,,,,,0.06,-0.0,1.01,1,0,0,0.06,0,,,,,,,,,,,,,,,,,
66203,0,,,,,,,,0.07,-0.0,1.03,1,-0,0,0.07,0,,,,,,,,,,,,,,,,,
66243,0,-1,2,49,52,32,37,-2,0.07,0.01,1.11,1,-0,0,0.07,0,0,0.0,0.0,0.0,0.0,0,0,0.0,0,0.0,-1,0.0,0.0,0.0,0,0.0,1.1041
66283,0,,,,,,,,0.06,0.01,1.13,1,0,0,0.06,0,,,,,,,,,,,,,,,,,
66323,0,,,,,,,,0.05,0.0,1.06,1,0,0,0.05,0,,,,,,,,,,,,,,,,,
66363,0,,,,,,,,0.04,0.0,1.0,1,-1,0,0.04,0,,,,,,,,,,,,,,,,,
66403,0,,,,,,,,0.0,0.0,1.07,1,-2,0,0.01,0,,,,,,,,,,,,,,,,,
66443,0,0,2,48,52,32,37,-2,-0.02,-0.01,1.11,1,-1,0,0.02,0,0,0.0,0.0,0.0,0.0,0,0,0.0,0,0.0,-1,0.0,0.0,0.0,0,0.0,1.1074
66483,0,,,,,,,,0.01,-0.01,1.02,1,-1,0,0.02,0,,,,,,,,,,,,,,,,,
66523,0,,,,,,,,-0.01,-0.01,1.12,1,-1,0,0.01,0,,,,,,,,,,,,,,,,,
66563,0,,,,,,,,0.01,-0.01,1.01,1,-0,0,0.01,0,,,,,,,,,,,,,,,,,
66603,0,,,,,,,,0.01,-0.01,1.0,1,-0,0,0.02,0,,,,,,,,,,,,,,,,,
66643,0,0,2,48,52,32,37,-2,0.04,0.01,1.02,1,-0,0,0.04,0,0,0.0,0.0,0.0,0.0,0,0,0.0,0,0.0,-1,0.0,0.0,0.0,0,0.0,1.1107
66683,0,,,,,,,,0.04,0.01,1.01,1,-0,0,0.04,0,,,,,,,,,,,,,,,,,
66723,0,,,,,,,,0.01,-0.0,1.01,1,0,0,0.01,0,,,,,,,,,,,,,,,,,
66763,0,,,,,,,,-0.04,-0.02,1.0,1,-1,0,0.05,0,,,,,,,,,,,,,,,,,
66803,0,,,,,,,,-0.07,-0.03,1.01,1,-1,0,0.07,0,,,,,,,,,,,,,,,,,
66843,0,1,4,48,52,33,37,-2,-0.08,-0.05,0.92,1,-1,-0,0.1,0,0,0.0,0.0,0.0,0.0,0,0,0.0,0,0.0,-1,0.0,0.0,0.0,0,0.0,1.1141
66883,0,,,,,,,,-0.0,-0.04,0.91,1,1,0,0.04,0,,,,,,,,,,,,,,,,,
66923,0,,,,,,,,-0.02,-0.03,0.99,1,-1,0,0.04,0,,,,,,,,,,,,,,,,,
66963,0,,,,,,,,-0.04,-0.01,0.93,1,-0,0,0.04,0,,,,,,,,,,,,,,,,,
67003,0,,,,,,,,-0.03,-0.02,0.93,1,-1,1,0.04,0,,,,,,,,,,,,,,,,,
67043,0,0,2,49,52,32,37,-3,-0.05,-0.02,0.81,1,0,1,0.05,0,0,0.0,0.0,0.0,0.0,0,0,0.0,0,0.0,-1,0.0,0.0,0.0,0,0.0,1.1174
67083,0,,,,,,,,-0.0,0.0,0.8,1,2,0,0.0,0,,,,,,,,,,,,,,,,,
67123,0,,,,,,,,-0.01,0.02,0.83,1,-3,-0,0.03,0,,,,,,,,,,,,,,,,,
67163,0,,,,,,,,0.08,0.01,0.4,0,8,0,0.08,0,,,,,,,,,,,,,,,,,
67203,0,,,,,,,,-0.12,0.03,0.71,1,-9,-1,0.12,0,,,,,,,,,,,,,,,,,
67243,0,1,1,49,52,32,37,-2,-0.01,0.01,0.55,1,4,-2,0.02,0,0,0.0,0.0,0.0,0.0,0,0,0.0,0,0.0,-1,0.0,0.0,0.0,0,0.0,1.1207
67283,0,,,,,,,,0.29,0.02,0.07,1,1,1,0.29,0,,,,,,,,,,,,,,,,,
67323,0,,,,,,,,0.06,0.04,0.07,0,-28,2,0.08,0,,,,,,,,,,,,,,,,,
67363,0,,,,,,,,-0.33,0.0,0.43,0,-36,1,0.33,0,,,,,,,,,,,,,,,,,
67403,0,,,,,,,,-0.65,0.02,0.73,0,-9,-2,0.65,0,,,,,,,,,,,,,,,,,
67443,0,1,1,49,52,32,37,-2,-0.9,0.01,0.97,-0,19,-5,0.9,0,0,0.0,0.0,0.0,0.0,0,0,0.0,0,0.0,-1,0.0,0.0,0.0,0,0.0,1.1241
67483,0,,,,,,,,-1.11,0.03,1.17,0,42,-8,1.11,0,,,,,,,,,,,,,,,,,
67523,0,,,,,,,,-1.08,0.04,1.32,1,72,-11,1.08,0,,,,,,,,,,,,,,,,,
67563,0,,,,,,,,-0.5,-0.03,0.87,0,84,-9,0.5,0,,,,,,,,,,,,,,,,,
67603,0,,,,,,,,-0.38,0.0,0.79,0,58,-8,0.38,0,,,,,,,,,,,,,,,,,
67643,0,1,3,49,52,32,37,-3,-0.26,0.05,0.62,1,54,-6,0.27,0,0,0.0,0.0,0.0,0.0,0,0,0.0,0,0.0,-1,0.0,0.0,0.0,0,0.0,1.1274
67683,0,,,,,,,,-0.26,0.06,0.87,1,38,-5,0.27,0,,,,,,,,,,,,,,,,,
67723,0,,,,,,,,-0.15,0.08,0.73,0,26,-3,0.17,0,,,,,,,,,,,,,,,,,
67763,0,,,,,,,,-0.1,0.09,0.81,1,20,-2,0.13,0,,,,,,,,,,,,,,,,,
67803,0,,,,,,,,-0.12,0.06,0.88,1,15,-2,0.13,0,,,,,,,,,,,,,,,,,
67843,0,0,2,49,52,32,37,-3,-0.05,0.04,0.96,1,13,-2,0.07,0,0,0.0,0.0,0.0,0.0,0,0,0.0,0,0.0,-1,0.0,0.0,0.0,0,0.0,1.1307
67883,0,,,,,,,,-0.06,0.02,0.96,1,10,-1,0.06,0,,,,,,,,,,,,,,,,,
67923,0,,,,,,,,-0.07,0.01,0.93,0,7,-1,0.07,0,,,,,,,,,,,,,,,,,
67963,0,,,,,,,,-0.04,0.0,0.89,0,5,-1,0.04,0,,,,,,,,,,,,,,,,,
68003,0,,,,,,,,-0.04,0.0,0.9,0,5,-1,0.04,0,,,,,,,,,,,,,,,,,
68043,0,-0,1,49,52,32,37,-3,-0.03,-0.0,0.88,0,4,-1,0.03,0,0,0.0,0.0,0.0,0.0,0,0,0.0,0,0.0,-1,0.0,0.0,0.0,0,0.0,1.1341
68083,0,,,,,,,,-0.02,-0.01,0.91,1,2,-0,0.02,0,,,,,,,,,,,,,,,,,
68123,0,,,,,,,,-0.01,-0.01,0.89,1,2,-0,0.02,0,,,,,,,,,,,,,,,,,
68163,0,,,,,,,,0.01,-0.01,0.96,0,2,-0,0.01,0,,,,,,,,,,,,,,,,,
68203,0,,,,,,,,0.01,-0.01,0.97,1,1,-0,0.02,0,,,,,,,,,,,,,,,,,
68243,0,1,3,48,52,32,37,-2,0.01,-0.01,0.95,1,2,-0,0.02,0,0,0.0,0.0,0.0,0.0,0,0,0.0,0,0.0,-1,0.0,0.0,0.0,0,0.0,1.1374
68283,0,,,,,,,,-0.0,-0.01,0.95,1,1,-0,0.01,0,,,,,,,,,,,,,,,,,
68323,0,,,,,,,,0.01,-0.01,0.96,1,1,-0,0.01,0,,,,,,,,,,,,,,,,,
68363,0,,,,,,,,0.01,-0.01,0.98,1,1,-0,0.01,0,,,,,,,,,,,,,,,,,
68403,0,,,,,,,,0.01,-0.01,0.98,1,1,-0,0.02,0,,,,,,,,,,,,,,,,,
68443,0,1,3,49,52,32,37,-2,0.02,-0.01,1.0,1,1,-0,0.02,0,0,0.0,0.0,0.0,0.0,0,0,0.0,0,0.0,-1,0.0,0.0,0.0,0,0.0,1.1407
68483,0,,,,,,,,0.02,-0.01,1.02,1,1,-0,0.03,0,,,,,,,,,,,,,,,,,
68523,0,,,,,,,,0.02,-0.01,1.01,1,1,-0,0.03,0,,,,,,,,,,,,,,,,,
68563,0,,,,,,,,0.02,-0.01,1.02,1,0,-0,0.03,0,,,,,,,,,,,,,,,,,
68603,0,,,,,,,,0.03,-0.01,1.01,1,0,-0,0.03,0,,,,,,,,,,,,,,,,,
68643,0,-1,1,49,52,32,37,-3,0.03,-0.01,1.01,1,0,-0,0.03,0,0,0.0,0.0,0.0,0.0,0,0,0.0,0,0.0,-1,0.0,0.0,0.0,0,0.0,1.144
68683,0,,,,,,,,0.03,-0.02,1.01,1,0,0,0.03,0,,,,,,,,,,,,,,,,,
68723,0,,,,,,,,0.03,-0.01,1.02,1,0,0,0.03,0,,,,,,,,,,,,,,,,,
68763,0,,,,,,,,0.03,-0.01,1.02,1,0,0,0.03,0,,,,,,,,,,,,,,,,,
68803,0,,,,,,,,0.03,-0.01,1.02,1,0,0,0.03,0,,,,,,,,,,,,,,,,,
68843,0,1,3,49,52,32,37,-3,0.03,-0.01,1.01,1,-0,0,0.03,0,0,0.0,0.0,0.0,0.0,0,0,0.0,0,0.0,-1,0.0,0.0,0.0,0,0.0,1.1474
68883,0,,,,,,,,0.03,-0.01,1.01,1,-0,0,0.03,0,,,,,,,,,,,,,,,,,
68923,0,,,,,,,,0.03,-0.01,1.02,1,-0,0,0.04,0,,,,,,,,,,,,,,,,,
68963,0,,,,,,,,0.03,-0.01,1.01,1,-0,0,0.03,0,,,,,,,,,,,,,,,,,
69003,0,,,,,,,,0.03,-0.01,1.01,1,-0,0,0.03,0,,,,,,,,,,,,,,,,,
69043,0,0,2,48,52,33,37,-2,0.03,-0.01,1.01,1,-0,0,0.03,0,0,0.0,0.0,0.0,0.0,0,0,0.0,0,0.0,-1,0.0,0.0,0.0,0,0.0,1.1507
69083,0,,,,,,,,0.03,-0.01,1.02,1,-0,0,0.03,0,,,,,,,,,,,,,,,,,
69123,0,,,,,,,,0.03,-0.01,1.02,1,-0,0,0.03,0,,,,,,,,,,,,,,,,,
69163,0,,,,,,,,0.03,-0.01,1.01,1,-0,0,0.03,0,,,,,,,,,,,,,,,,,
69203,0,,,,,,,,0.03,-0.01,1.01,1,-0,0,0.03,0,,,,,,,,,,,,,,,,,
69243,0,-1,3,49,52,32,38,-2,0.03,-0.01,1.01,1,-0,0,0.04,0,0,0.0,0.0,0.0,0.0,0,0,0.0,0,0.0,-1,0.0,0.0,0.0,0,0.0,1.154
69283,0,,,,,,,,0.03,-0.01,1.02,1,-0,0,0.04,0,,,,,,,,,,,,,,,,,
69323,0,,,,,,,,0.03,-0.01,1.01,1,-0,0,0.04,0,,,,,,,,,,,,,,,,,
69363,0,,,,,,,,0.03,-0.01,1.01,1,-0,0,0.03,0,,,,,,,,,,,,,,,,,
69403,0,,,,,,,,0.03,-0.01,1.02,1,-0,0,0.04,0,,,,,,,,,,,,,,,,,
69443,0,1,3,49,52,32,37,-3,0.03,-0.01,1.01,1,-0,0,0.03,0,0,0.0,0.0,0.0,0.0,0,0,0.0,0,0.0,-1,0.0,0.0,0.0,0,0.0,1.1574
69483,0,,,,,,,,0.03,-0.01,1.01,1,-0,0,0.03,0,,,,,,,,,,,,,,,,,
69523,0,,,,,,,,0.03,-0.01,1.01,1,-0,0,0.03,0,,,,,,,,,,,,,,,,,
69563,0,,,,,,,,0.03,-0.01,1.01,1,-0,0,0.03,0,,,,,,,,,,,,,,,,,
69603,0,,,,,,,,0.03,-0.01,1.02,1,-0,0,0.04,0,,,,,,,,,,,,,,,,,
69643,0,0,2,48,52,33,37,-2,0.03,-0.01,1.01,1,-0,0,0.04,0,0,0.0,0.0,0.0,0.0,0,0,0.0,0,0.0,-1,0.0,0.0,0.0,0,0.0,1.1607
69683,0,,,,,,,,0.03,-0.01,1.01,1,-0,0,0.03,0,,,,,,,,,,,,,,,,,
69723,0,,,,,,,,0.03,-0.01,1.01,1,-0,0,0.04,0,,,,,,,,,,,,,,,,,
69763,0,,,,,,,,0.04,-0.01,1.01,1,-0,0,0.04,0,,,,,,,,,,,,,,,,,
69803,0,,,,,,,,0.03,-0.01,1.01,1,-0,0,0.03,0,,,,,,,,,,,,,,,,,
69843,0,0,3,49,52,32,37,-3,0.03,-0.01,1.01,1,-0,0,0.04,0,0,0.0,0.0,0.0,0.0,0,0,0.0,0,0.0,-1,0.0,0.0,0.0,0,0.0,1.164
69883,0,,,,,,,,0.04,-0.01,1.02,1,0,0,0.04,0,,,,,,,,,,,,,,,,,
69923,0,,,,,,,,0.04,-0.01,1.01,1,-0,0,0.04,0,,,,,,,,,,,,,,,,,
69963,0,,,,,,,,0.04,-0.01,1.01,1,-0,0,0.04,0,,,,,,,,,,,,,,,,,
70003,0,,,,,,,,0.04,-0.01,1.01,1,-0,0,0.04,0,,,,,,,,,,,,,,,,,
70043,0,1,1,49,52,32,37,-2,0.03,-0.01,1.04,1,-0,0,0.03,0,0,0.0,0.0,0.0,0.0,0,0,0.0,0,0.0,-1,0.0,0.0,0.0,0,0.0,1.1674
70083,0,,,,,,,,0.03,-0.01,1.03,1,-0,0,0.03,0,,,,,,,,,,,,,,,,,
70123,0,,,,,,,,0.03,-0.01,1.03,1,-0,0,0.04,0,,,,,,,,,,,,,,,,,
70163,0,,,,,,,,0.02,-0.01,1.12,1,1,-0,0.03,0,,,,,,,,,,,,,,,,,
70203,0,,,,,,,,0.03,-0.01,1.03,1,0,-0,0.03,0,,,,,,,,,,,,,,,,,
70243,0,-1,2,49,52,32,37,-3,0.02,-0.01,1.02,1,-1,-0,0.02,0,0,0.0,0.0,0.0,0.0,0,0,0.0,0,0.0,-1,0.0,0.0,0.0,0,0.0,1.1707
70283,0,,,,,,,,0.01,-0.01,1.01,1,-1,-0,0.02,0,,,,,,,,,,,,,,,,,
70323,0,,,,,,,,0.02,-0.01,1.01,1,-0,-0,0.02,0,,,,,,,,,,,,,,,,,
70363,0,,,,,,,,0.02,-0.01,0.98,1,-1,0,0.02,0,,,,,,,,,,,,,,,,,
70403,0,,,,,,,,0.02,0.0,0.97,1,-0,-0,0.02,0,,,,,,,,,,,,,,,,,
70443,0,-1,3,49,52,32,37,-2,0.02,0.0,0.94,1,-1,0,0.02,0,0,0.0,0.0,0.0,0.0,0,0,0.0,0,0.0,-1,0.0,0.0,0.0,0,0.0,1.174
70483,0,,,,,,,,0.0,-0.01,0.88,1,-1,1,0.01,0,,,,,,,,,,,,,,,,,
70523,0,,,,,,,,0.0,-0.02,1.03,1,-2,0,0.02,0,,,,,,,,,,,,,,,,,
70563,0,,,,,,,,-0.0,-0.01,1.03,1,-2,0,0.01,0,,,,,,,,,,,,,,,,,
70603,0,,,,,,,,0.02,-0.01,0.99,1,-1,1,0.02,0,,,,,,,,,,,,,,,,,
70643,0,1,3,48,52,32,37,-3,0.01,-0.01,1.07,1,-1,0,0.02,0,0,0.0,0.0,0.0,0.0,0,0,0.0,0,0.0,-1,0.0,0.0,0.0,0,0.0,1.1774
70683,0,,,,,,,,0.0,0.01,0.92,1,-1,1,0.01,0,,,,,,,,,,,,,,,,,
70723,0,,,,,,,,-0.01,-0.01,0.99,1,-2,1,0.01,0,,,,,,,,,,,,,,,,,
70763,0,,,,,,,,0.01,0.0,0.92,1,-1,1,0.01,0,,,,,,,,,,,,,,,,,
70803,0,,,,,,,,0.06,0.01,0.9,1,-1,1,0.06,0,,,,,,,,,,,,,,,,,
70843,0,0,2,49,52,32,37,-2,0.12,0.02,0.97,1,0,1,0.12,0,0,0.0,0.0,0.0,0.0,0,0,0.0,0,0.0,-1,0.0,0.0,0.0,0,0.0,1.1807
70883,0,,,,,,,,0.05,0.02,1.11,1,-0,1,0.05,0,,,,,,,,,,,,,,,,,
70923,0,,,,,,,,0.09,0.0,1.08,1,-0,0,0.09,0,,,,,,,,,,,,,,,,,
70963,0,,,,,,,,0.08,0.0,1.13,1,-1,0,0.08,0,,,,,,,,,,,,,,,,,
71003,0,,,,,,,,0.1,0.01,1.16,1,-1,1,0.1,0,,,,,,,,,,,,,,,,,
71043,0,-0,3,49,52,32,37,-3,0.08,-0.0,1.15,1,-0,1,0.08,0,0,0.0,0.0,0.0,0.0,0,0,0.0,0,0.0,-1,0.0,0.0,0.0,0,0.0,1.184
71083,0,,,,,,,,0.05,-0.01,1.12,1,1,0,0.05,0,,,,,,,,,,,,,,,,,
71123,0,,,,,,,,0.09,-0.0,1.01,1,3,1,0.09,0,,,,,,,,,,,,,,,,,
71163,0,,,,,,,,0.08,-0.0,1.08,1,4,1,0.08,0,,,,,,,,,,,,,,,,,
71203,0,,,,,,,,-0.02,-0.02,1.04,1,-4,0,0.03,0,,,,,,,,,,,,,,,,,
71243,0,0,2,49,52,32,37,-2,0.23,-0.04,0.77,1,10,1,0.23,0,0,0.0,0.0,0.0,0.0,0,0,0.0,0,0.0,-1,0.0,0.0,0.0,0,0.0,1.1874
71283,0,,,,,,,,0.56,0.02,0.24,1,-5,2,0.57,0,,,,,,,,,,,,,,,,,
71323,0,,,,,,,,0.84,0.01,-0.18,1,-9,1,0.84,0,,,,,,,,,,,,,,,,,
71363,0,,,,,,,,0.71,-0.04,-0.24,1,-4,1,0.71,0,,,,,,,,,,,,,,,,,
71403,0,,,,,,,,0.64,-0.01,-0.08,1,1,-2,0.64,0,,,,,,,,,,,,,,,,,
71443,0,1,1,49,52,32,37,-2,0.85,0.08,0.32,1,20,-12,0.85,0,0,0.0,0.0,0.0,0.0,0,0,0.0,0,0.0,-1,0.0,0.0,0.0,0,0.0,1.1907
71483,0,,,,,,,,0.54,0.07,0.28,-1,16,-11,0.55,0,,,,,,,,,,,,,,,,,
71523,0,,,,,,,,0.5,0.2,0.2,-0,9,-1,0.54,0,,,,,,,,,,,,,,,,,
71563,0,,,,,,,,0.47,0.2,0.13,-0,2,5,0.51,0,,,,,,,,,,,,,,,,,
71603,0,,,,,,,,0.46,0.29,0.24,0,-2,9,0.54,0,,,,,,,,,,,,,,,,,
71643,0,1,3,48,52,32,37,-3,0.25,0.2,-0.18,1,-19,21,0.32,0,0,0.0,0.0,0.0,0.0,0,0,0.0,0,0.0,-1,0.0,0.0,0.0,0,0.0,1.194
71683,0,,,,,,,,0.24,0.09,-0.13,1,-1,5,0.26,0,,,,,,,,,,,,,,,,,
71723,0,,,,,,,,0.24,0.19,0.27,1,5,-1,0.31,0,,,,,,,,,,,,,,,,,
71763,0,,,,,,,,0.15,0.17,0.2,1,5,-0,0.23,0,,,,,,,,,,,,,,,,,
71803,0,,,,,,,,0.1,0.14,0.19,1,-1,-1,0.17,0,,,,,,,,,,,,,,,,,
71843,0,1,1,49,52,32,37,-2,0.04,0.13,0.33,1,-1,0,0.14,0,0,0.0,0.0,0.0,0.0,0,0,0.0,0,0.0,-1,0.0,0.0,0.0,0,0.0,1.1974
71883,0,,,,,,,,0.06,0.1,0.25,1,-1,1,0.11,0,,,,,,,,,,,,,,,,,
71923,0,,,,,,,,0.16,0.07,0.58,1,-1,-2,0.18,0,,,,,,,,,,,,,,,,,
71963,0,,,,,,,,0.1,0.06,0.09,1,-13,9,0.12,0,,,,,,,,,,,,,,,,,
72003,0,,,,,,,,-0.06,-0.02,-0.31,1,-27,21,0.06,0,,,,,,,,,,,,,,,,,
72043,0,1,0,49,52,32,37,-2,0.02,-0.02,0.13,-1,-10,9,0.03,0,0,0.0,0.0,0.0,0.0,0,0,0.0,0,0.0,-1,0.0,0.0,0.0,0,0.0,1.2007
72083,0,,,,,,,,-0.04,0.02,-0.28,-1,-12,9,0.04,0,,,,,,,,,,,,,,,,,
72123,0,,,,,,,,0.16,0.05,-0.24,-3,-18,16,0.17,0,,,,,,,,,,,,,,,,,
72163,0,,,,,,,,-0.01,0.0,-0.58,-3,-14,11,0.01,0,,,,,,,,,,,,,,,,,
72203,0,,,,,,,,-0.03,-0.17,-0.78,-2,-1,-5,0.17,0,,,,,,,,,,,,,,,,,
72243,0,1,1,49,52,32,37,-2,-0.04,-0.2,-1.02,-2,2,-9,0.21,0,0,0.0,0.0,0.0,0.0,0,0,0.0,0,0.0,-1,0.0,0.0,0.0,0,0.0,1.2041
72283,0,,,,,,,,-0.04,-0.08,-0.8,-1,-2,-1,0.09,0,,,,,,,,,,,,,,,,,
72323,0,,,,,,,,-0.06,-0.06,-0.6,-1,3,-4,0.08,0,,,,,,,,,,,,,,,,,
72363,0,,,,,,,,-0.07,-0.05,-0.47,-1,-1,-5,0.08,0,,,,,,,,,,,,,,,,,
72403,0,,,,,,,,-0.11,-0.05,-0.18,-1,-0,-4,0.12,0,,,,,,,,,,,,,,,,,
72443,0,-1,3,49,52,32,37,-2,-0.07,-0.03,-0.17,-0,-2,-2,0.08,0,0,0.0,0.0,0.0,0.0,0,0,0.0,0,0.0,-1,0.0,0.0,0.0,0,0.0,1.2074
72483,0,,,,,,,,-0.09,-0.01,-0.16,0,-4,1,0.09,0,,,,,,,,,,,,,,,,,
72523,0,,,,,,,,-0.01,0.05,-0.06,0,3,-1,0.05,0,,,,,,,,,,,,,,,,,
72563,0,,,,,,,,-0.01,0.04,-0.0,0,0,-2,0.05,0,,,,,,,,,,,,,,,,,
72603,0,,,,,,,,0.05,-0.02,0.02,0,5,-4,0.05,0,,,,,,,,,,,,,,,,,
72643,0,-1,2,49,52,32,37,-3,0.01,-0.06,0.03,0,-1,-0,0.06,0,0,0.0,0.0,0.0,0.0,0,0,0.0,0,0.0,-1,0.0,0.0,0.0,0,0.0,1.2107
72683,0,,,,,,,,-0.02,-0.03,0.01,0,-5,2,0.04,0,,,,,,,,,,,,,,,,,
72723,0,,,,,,,,0.03,0.03,0.01,0,2,-0,0.04,0,,,,,,,,,,,,,,,,,
72763,0,,,,,,,,0.03,0.05,0.1,1,-1,-2,0.06,0,,,,,,,,,,,,,,,,,
72803,0,,,,,,,,0.07,-0.0,0.1,1,4,-3,0.07,0,,,,,,,,,,,,,,,,,
72843,0,0,2,49,52,32,37,-2,0.03,0.04,0.1,1,2,-3,0.05,0,0,0.0,0.0,0.0,0.0,0,0,0.0,0,0.0,-1,0.0,0.0,0.0,0,0.0,1.2141
72883,0,,,,,,,,0.04,-0.01,0.1,1,3,-3,0.04,0,,,,,,,,,,,,,,,,,
72923,0,,,,,,,,0.08,-0.04,0.1,1,0,-1,0.08,0,,,,,,,,,,,,,,,,,
72963,0,,,,,,,,0.01,-0.05,0.1,1,1,0,0.05,0,,,,,,,,,,,,,,,,,
73003,0,,,,,,,,0.06,-0.05,0.11,1,1,-1,0.07,0,,,,,,,,,,,,,,,,,
73043,0,0,2,49,52,32,37,-2,0.03,-0.07,0.44,1,-1,-1,0.08,0,0,0.0,0.0,0.0,0.0,0,0,0.0,0,0.0,-1,0.0,0.0,0.0,0,0.0,1.2174
73083,0,,,,,,,,0.1,-0.09,0.37,1,2,-2,0.13,0,,,,,,,,,,,,,,,,,
73123,0,,,,,,,,0.06,-0.03,0.32,1,2,-2,0.07,0,,,,,,,,,,,,,,,,,
73163,0,,,,,,,,0.06,0.01,0.28,0,-1,-1,0.06,0,,,,,,,,,,,,,,,,,
73203,0,,,,,,,,-0.02,-0.07,-0.03,1,-5,2,0.07,0,,,,,,,,,,,,,,,,,
73243,0,-0,2,49,52,32,37,-3,0.02,-0.08,-0.05,1,-2,3,0.08,0,0,0.0,0.0,0.0,0.0,0,0,0.0,0,0.0,-1,0.0,0.0,0.0,0,0.0,1.2207
73283,0,,,,,,,,-0.01,-0.04,0.32,1,-5,1,0.04,0,,,,,,,,,,,,,,,,,
73323,0,,,,,,,,0.05,-0.07,0.28,1,1,-0,0.09,0,,,,,,,,,,,,,,,,,
73363,0,,,,,,,,0.03,-0.0,0.25,0,-1,-1,0.03,0,,,,,,,,,,,,,,,,,
73403,0,,,,,,,,0.01,-0.08,0.22,0,3,-3,0.08,0,,,,,,,,,,,,,,,,,
73443,0,-0,3,49,52,32,37,-2,0.05,-0.12,0.2,0,-1,-1,0.13,0,0,0.0,0.0,0.0,0.0,0,0,0.0,0,0.0,-1,0.0,0.0,0.0,0,0.0,1.2241
73483,0,,,,,,,,-0.02,-0.08,0.14,0,0,0,0.08,0,,,,,,,,,,,,,,,,,
73523,0,,,,,,,,0.02,-0.06,0.09,0,-2,1,0.06,0,,,,,,,,,,,,,,,,,
73563,0,,,,,,,,0.0,-0.07,0.05,0,-6,3,0.07,0,,,,,,,,,,,,,,,,,
73603,0,,,,,,,,0.04,-0.01,0.02,0,-1,3,0.04,0,,,,,,,,,,,,,,,,,
73643,0,0,2,49,52,32,37,-2,0.0,0.03,-0.0,0,-4,3,0.03,0,0,0.0,0.0,0.0,0.0,0,0,0.0,0,0.0,-1,0.0,0.0,0.0,0,0.0,1.2274
73683,0,,,,,,,,0.07,-0.01,0.38,0,-1,3,0.07,0,,,,,,,,,,,,,,,,,
73723,0,,,,,,,,0.06,0.01,0.33,0,-1,-0,0.06,0,,,,,,,,,,,,,,,,,
73763,0,,,,,,,,0.07,0.0,0.28,0,3,-2,0.07,0,,,,,,,,,,,,,,,,,
73803,0,,,,,,,,0.05,0.01,0.25,1,-1,-1,0.05,0,,,,,,,,,,,,,,,,,
73843,0,-0,3,49,52,32,38,-2,0.05,0.01,0.22,0,2,-2,0.05,0,0,0.0,0.0,0.0,0.0,0,0,0.0,0,0.0,-1,0.0,0.0,0.0,0,0.0,1.2307
73883,0,,,,,,,,0.07,0.04,0.2,-0,-0,-2,0.08,0,,,,,,,,,,,,,,,,,
73923,0,,,,,,,,0.04,-0.01,0.18,0,-2,-1,0.04,0,,,,,,,,,,,,,,,,,
73963,0,,,,,,,,0.07,-0.06,0.17,0,-4,0,0.09,0,,,,,,,,,,,,,,,,,
74003,0,,,,,,,,0.05,-0.02,0.22,0,-1,-1,0.05,0,,,,,,,,,,,,,,,,,
74043,0,-1,3,49,52,32,37,-2,0.06,0.11,0.2,0,4,-5,0.12,0,0,0.0,0.0,0.0,0.0,0,0,0.0,0,0.0,-1,0.0,0.0,0.0,0,0.0,1.2341
74083,0,,,,,,,,0.11,0.17,0.18,0,0,-1,0.2,0,,,,,,,,,,,,,,,,,
74123,0,,,,,,,,0.13,0.1,0.13,1,-2,2,0.16,0,,,,,,,,,,,,,,,,,
74163,0,,,,,,,,0.15,0.21,0.12,0,-5,6,0.26,0,,,,,,,,,,,,,,,,,
74203,0,,,,,,,,0.21,0.21,0.48,0,9,-9,0.3,0,,,,,,,,,,,,,,,,,
74243,0,1,3,48,52,32,37,-3,0.3,0.26,0.37,0,12,-7,0.39,0,0,0.0,0.0,0.0,0.0,0,0,0.0,0,0.0,-1,0.0,0.0,0.0,0,0.0,1.2374
74283,0,,,,,,,,0.01,0.2,-0.08,1,-0,3,0.2,0,,,,,,,,,,,,,,,,,
74323,0,,,,,,,,0.31,0.26,0.31,-1,16,-12,0.4,0,,,,,,,,,,,,,,,,,
74363,0,,,,,,,,0.24,0.28,-0.13,-2,-0,0,0.37,0,,,,,,,,,,,,,,,,,
74403,0,,,,,,,,-0.01,0.16,-0.48,-1,-16,14,0.16,0,,,,,,,,,,,,,,,,,
74443,0,1,2,49,52,32,38,-2,-0.14,-0.0,-0.77,-0,-29,26,0.14,0,0,0.0,0.0,0.0,0.0,0,0,0.0,0,0.0,-1,0.0,0.0,0.0,0,0.0,1.2407
74483,0,,,,,,,,-0.07,0.04,-1.01,1,-35,33,0.09,0,,,,,,,,,,,,,,,,,
74523,0,,,,,,,,0.03,0.13,-0.52,1,-32,34,0.14,0,,,,,,,,,,,,,,,,,
74563,0,,,,,,,,0.02,0.03,-0.44,1,-18,18,0.03,0,,,,,,,,,,,,,,,,,
74603,0,,,,,,,,-0.02,0.05,-0.34,1,-23,20,0.06,0,,,,,,,,,,,,,,,,,
74643,0,0,3,49,52,33,37,-2,-0.01,0.03,-0.25,1,-17,16,0.03,0,0,0.0,0.0,0.0,0.0,0,0,0.0,0,0.0,-1,0.0,0.0,0.0,0,0.0,1.2441
74683,0,,,,,,,,0.0,0.01,-0.19,1,-15,12,0.01,0,,,,,,,,,,,,,,,,,
74723,0,,,,,,,,-0.06,-0.06,-0.24,1,-13,10,0.08,0,,,,,,,,,,,,,,,,,
74763,0,,,,,,,,-0.04,-0.09,-0.22,1,-11,11,0.09,0,,,,,,,,,,,,,,,,,
74803,0,,,,,,,,-0.05,-0.0,-0.2,0,-9,8,0.05,0,,,,,,,,,,,,,,,,,
74843,0,1,3,48,52,32,37,-2,-0.02,0.01,-0.18,0,-8,7,0.03,0,0,0.0,0.0,0.0,0.0,0,0,0.0,0,0.0,-1,0.0,0.0,0.0,0,0.0,1.2474
74883,0,,,,,,,,-0.06,-0.01,-0.17,1,-11,8,0.06,0,,,,,,,,,,,,,,,,,
74923,0,,,,,,,,-0.01,0.01,-0.16,1,-6,8,0.02,0,,,,,,,,,,,,,,,,,
74963,0,,,,,,,,-0.07,0.04,-0.15,1,1,0,0.08,0,,,,,,,,,,,,,,,,,
75003,0,,,,,,,,-0.06,0.18,-0.5,1,-11,12,0.19,0,,,,,,,,,,,,,,,,,
75043,0,1,3,49,52,32,37,-2,-0.08,0.15,-0.79,2,-19,22,0.17,0,0,0.0,0.0,0.0,0.0,0,0,0.0,0,0.0,-1,0.0,0.0,0.0,0,0.0,1.2507
75083,0,,,,,,,,-0.11,0.09,-0.62,1,-5,9,0.15,0,,,,,,,,,,,,,,,,,
75123,0,,,,,,,,-0.14,0.01,-0.76,0,-0,8,0.14,0,,,,,,,,,,,,,,,,,
75163,0,,,,,,,,-0.1,0.03,-0.64,-2,-7,14,0.1,0,,,,,,,,,,,,,,,,,
75203,0,,,,,,,,0.11,0.09,-0.54,-1,0,5,0.15,0,,,,,,,,,,,,,,,,,
75243,0,1,2,49,52,32,37,-3,-0.07,0.05,-0.42,-0,0,-0,0.08,0,0,0.0,0.0,0.0,0.0,0,0,0.0,0,0.0,-1,0.0,0.0,0.0,0,0.0,1.2541
75283,0,,,,,,,,0.1,0.13,-0.36,1,1,5,0.16,0,,,,,,,,,,,,,,,,,
75323,0,,,,,,,,0.0,0.01,-0.27,0,-1,2,0.01,0,,,,,,,,,,,,,,,,,
75363,0,,,,,,,,0.17,0.17,0.16,2,13,-13,0.24,0,,,,,,,,,,,,,,,,,
75403,0,,,,,,,,0.1,0.23,-0.25,2,-4,0,0.25,0,,,,,,,,,,,,,,,,,
75443,0,0,3,49,52,32,37,-2,-0.06,0.08,-0.58,2,-21,15,0.1,0,0,0.0,0.0,0.0,0.0,0,0,0.0,0,0.0,-1,0.0,0.0,0.0,0,0.0,1.2574
75483,0,,,,,,,,-0.18,-0.05,-0.85,1,-26,19,0.18,0,,,,,,,,,,,,,,,,,
75523,0,,,,,,,,-0.25,-0.12,-0.77,1,-25,17,0.27,0,,,,,,,,,,,,,,,,,
75563,0,,,,,,,,-0.19,-0.15,-0.24,1,-18,11,0.24,0,,,,,,,,,,,,,,,,,
75603,0,,,,,,,,-0.04,-0.1,0.18,1,-4,-3,0.11,0,,,,,,,,,,,,,,,,,
75643,0,0,4,49,52,32,37,-2,0.11,-0.05,0.53,-0,12,-18,0.13,0,0,0.0,0.0,0.0,0.0,0,0,0.0,0,0.0,-1,0.0,0.0,0.0,0,0.0,1.2607
75683,0,,,,,,,,0.13,-0.07,0.81,-0,25,-29,0.15,0,,,,,,,,,,,,,,,,,
75723,0,,,,,,,,0.2,-0.09,1.03,-0,32,-31,0.22,0,,,,,,,,,,,,,,,,,
75763,0,,,,,,,,0.31,-0.04,1.22,0,34,-28,0.31,0,,,,,,,,,,,,,,,,,
75803,0,,,,,,,,0.4,0.05,1.36,1,28,-19,0.4,0,,,,,,,,,,,,,,,,,
75843,0,1,1,49,52,32,37,-3,0.46,0.11,1.48,1,18,-8,0.48,0,0,0.0,0.0,0.0,0.0,0,0,0.0,0,0.0,-1,0.0,0.0,0.0,0,0.0,1.264
75883,0,,,,,,,,0.42,0.13,0.82,2,0,8,0.44,0,,,,,,,,,,,,,,,,,
75923,0,,,,,,,,0.24,0.12,0.29,2,-15,19,0.27,0,,,,,,,,,,,,,,,,,
75963,0,,,,,,,,0.05,0.04,-0.15,1,-13,16,0.06,0,,,,,,,,,,,,,,,,,
76003,0,,,,,,,,-0.08,-0.1,-0.18,1,0,1,0.13,0,,,,,,,,,,,,,,,,,
76043,0,1,3,49,52,33,37,-2,0.01,-0.08,0.23,0,14,-12,0.08,0,0,0.0,0.0,0.0,0.0,0,0,0.0,0,0.0,-1,0.0,0.0,0.0,0,0.0,1.2674
76083,0,,,,,,,,0.17,-0.01,0.57,0,16,-11,0.17,0,,,,,,,,,,,,,,,,,
76123,0,,,,,,,,0.26,0.05,0.44,1,1,2,0.26,0,,,,,,,,,,,,,,,,,
76163,0,,,,,,,,0.16,0.11,-0.03,1,-10,15,0.19,0,,,,,,,,,,,,,,,,,
76203,0,,,,,,,,-0.01,0.03,-0.4,1,-21,21,0.03,0,,,,,,,,,,,,,,,,,
76243,0,-1,2,49,52,32,37,-2,-0.14,-0.09,-0.71,1,-17,16,0.17,0,0,0.0,0.0,0.0,0.0,0,0,0.0,0,0.0,-1,0.0,0.0,0.0,0,0.0,1.2707
76283,0,,,,,,,,-0.17,-0.15,-0.4,0,-3,1,0.23,0,,,,,,,,,,,,,,,,,
76323,0,,,,,,,,0.01,-0.14,0.06,0,14,-15,0.14,0,,,,,,,,,,,,,,,,,
76363,0,,,,,,,,0.19,-0.09,0.42,-1,19,-16,0.21,0,,,,,,,,,,,,,,,,,
76403,0,,,,,,,,0.24,0.02,0.19,-1,6,-5,0.24,0,,,,,,,,,,,,,,,,,
76443,0,1,4,48,52,33,37,-2,0.09,-0.01,-0.23,-0,-9,11,0.09,0,0,0.0,0.0,0.0,0.0,0,0,0.0,0,0.0,-1,0.0,0.0,0.0,0,0.0,1.274
76483,0,,,,,,,,-0.07,-0.06,-0.56,-0,-11,10,0.09,0,,,,,,,,,,,,,,,,,
76523,0,,,,,,,,-0.01,-0.12,-0.08,-0,5,-6,0.12,0,,,,,,,,,,,,,,,,,
76563,0,,,,,,,,0.22,0.0,0.32,-1,16,-13,0.22,0,,,,,,,,,,,,,,,,,
76603,0,,,,,,,,0.31,0.09,0.24,-2,12,-8,0.33,0,,,,,,,,,,,,,,,,,
76643,0,-0,2,49,52,32,37,-2,0.16,0.06,-0.19,1,-0,6,0.17,0,0,0.0,0.0,0.0,0.0,0,0,0.0,0,0.0,-1,0.0,0.0,0.0,0,0.0,1.2774
76683,0,,,,,,,,-0.07,-0.04,-0.53,1,-16,15,0.08,0,,,,,,,,,,,,,,,,,
76723,0,,,,,,,,-0.21,-0.1,-0.3,1,-14,10,0.23,0,,,,,,,,,,,,,,,,,
76763,0,,,,,,,,-0.06,-0.13,0.14,0,-1,-5,0.14,0,,,,,,,,,,,,,,,,,
76803,0,,,,,,,,0.1,-0.03,0.49,-0,11,-15,0.1,0,,,,,,,,,,,,,,,,,
76843,0,-1,2,49,52,32,37,-2,0.17,0.06,0.21,0,12,-11,0.18,0,0,0.0,0.0,0.0,0.0,0,0,0.0,0,0.0,-1,0.0,0.0,0.0,0,0.0,1.2807
76883,0,,,,,,,,0.24,0.13,0.19,-0,1,1,0.27,0,,,,,,,,,,,,,,,,,
76923,0,,,,,,,,0.26,0.16,-0.23,-0,-15,15,0.3,0,,,,,,,,,,,,,,,,,
76963,0,,,,,,,,0.14,0.14,-0.57,0,-21,20,0.19,0,,,,,,,,,,,,,,,,,
77003,0,,,,,,,,0.0,0.04,-0.84,-0,-8,6,0.04,0,,,,,,,,,,,,,,,,,
77043,0,0,2,49,52,32,37,-3,0.04,-0.05,-0.3,0,9,-11,0.07,0,0,0.0,0.0,0.0,0.0,0,0,0.0,0,0.0,-1,0.0,0.0,0.0,0,0.0,1.284
77083,0,,,,,,,,0.22,0.06,0.14,-0,7,-7,0.23,0,,,,,,,,,,,,,,,,,
77123,0,,,,,,,,0.27,0.14,0.09,0,-6,6,0.3,0,,,,,,,,,,,,,,,,,
77163,0,,,,,,,,0.04,0.09,-0.31,0,-16,13,0.1,0,,,,,,,,,,,,,,,,,
77203,0,,,,,,,,-0.11,-0.01,-0.23,0,0,-2,0.11,0,,,,,,,,,,,,,,,,,
77243,0,1,3,48,52,33,37,-2,0.04,0.0,0.19,0,16,-14,0.04,0,0,0.0,0.0,0.0,0.0,0,0,0.0,0,0.0,-1,0.0,0.0,0.0,0,0.0,1.2874
77283,0,,,,,,,,0.25,0.1,0.54,1,11,-7,0.27,0,,,,,,,,,,,,,,,,,
77323,0,,,,,,,,0.18,0.12,0.05,2,-7,9,0.22,0,,,,,,,,,,,,,,,,,
77363,0,,,,,,,,0.01,0.04,-0.34,2,-11,11,0.04,0,,,,,,,,,,,,,,,,,
77403,0,,,,,,,,0.02,-0.05,-0.15,1,4,-5,0.06,0,,,,,,,,,,,,,,,,,
77443,0,1,0,49,52,32,37,-2,0.21,0.02,0.26,1,13,-10,0.22,0,0,0.0,0.0,0.0,0.0,0,0,0.0,0,0.0,-1,0.0,0.0,0.0,0,0.0,1.2907
77483,0,,,,,,,,0.28,0.12,0.19,1,5,-2,0.31,0,,,,,,,,,,,,,,,,,
77523,0,,,,,,,,0.1,0.1,-0.23,2,-9,13,0.14,0,,,,,,,,,,,,,,,,,
77563,0,,,,,,,,-0.02,0.05,-0.57,2,-10,16,0.06,0,,,,,,,,,,,,,,,,,
77603,0,,,,,,,,-0.02,-0.01,-0.23,1,7,-1,0.02,0,,,,,,,,,,,,,,,,,
77643,0,0,3,49,52,32,37,-2,0.18,-0.02,0.19,1,20,-14,0.18,0,0,0.0,0.0,0.0,0.0,0,0,0.0,0,0.0,-1,0.0,0.0,0.0,0,0.0,1.294
77683,0,,,,,,,,0.29,0.06,0.13,1,17,-9,0.3,0,,,,,,,,,,,,,,,,,
77723,0,,,,,,,,0.08,0.02,-0.27,2,-5,7,0.08,0,,,,,,,,,,,,,,,,,
77763,0,,,,,,,,-0.1,-0.09,-0.2,1,-5,6,0.13,0,,,,,,,,,,,,,,,,,
77803,0,,,,,,,,0.03,-0.05,0.22,1,13,-11,0.06,0,,,,,,,,,,,,,,,,,
77843,0,1,2,48,52,32,37,-2,0.19,0.07,0.15,0,14,-11,0.2,0,0,0.0,0.0,0.0,0.0,0,0,0.0,0,0.0,-1,0.0,0.0,0.0,0,0.0,1.2974
77883,0,,,,,,,,-0.03,0.06,-0.26,0,-9,6,0.07,0,,,,,,,,,,,,,,,,,
77923,0,,,,,,,,-0.19,-0.06,-0.32,-0,-14,10,0.2,0,,,,,,,,,,,,,,,,,
77963,0,,,,,,,,0.07,-0.01,0.12,1,9,-9,0.07,0,,,,,,,,,,,,,,,,,
78003,0,,,,,,,,0.15,0.06,-0.2,2,9,-6,0.16,0,,,,,,,,,,,,,,,,,
78043,0,1,1,49,52,32,37,-3,-0.01,0.0,-0.54,1,-11,11,0.01,0,0,0.0,0.0,0.0,0.0,0,0,0.0,0,0.0,-1,0.0,0.0,0.0,0,0.0,1.3007
78083,0,,,,,,,,-0.15,-0.04,-0.82,1,-13,12,0.16,0,,,,,,,,,,,,,,,,,
78123,0,,,,,,,,-0.19,-0.14,-0.64,1,4,-7,0.23,0,,,,,,,,,,,,,,,,,
78163,0,,,,,,,,0.06,-0.04,-0.14,-0,3,-3,0.07,0,,,,,,,,,,,,,,,,,
78203,0,,,,,,,,0.17,0.07,-0.13,1,-10,8,0.19,0,,,,,,,,,,,,,,,,,
78243,0,1,3,49,52,32,37,-3,0.02,0.07,-0.49,1,-28,21,0.07,0,0,0.0,0.0,0.0,0.0,0,0,0.0,0,0.0,-1,0.0,0.0,0.0,0,0.0,1.304
78283,0,,,,,,,,-0.17,-0.01,-0.78,1,-24,18,0.18,0,,,,,,,,,,,,,,,,,
78323,0,,,,,,,,-0.21,-0.05,-0.61,0,-3,-3,0.22,0,,,,,,,,,,,,,,,,,
78363,0,,,,,,,,0.0,-0.03,-0.11,0,5,-8,0.03,0,,,,,,,,,,,,,,,,,
78403,0,,,,,,,,0.13,0.06,0.29,0,-1,-0,0.15,0,,,,,,,,,,,,,,,,,
78443,0,1,2,49,52,33,37,-3,0.03,0.07,-0.15,2,-16,14,0.07,0,0,0.0,0.0,0.0,0.0,0,0,0.0,0,0.0,-1,0.0,0.0,0.0,0,0.0,1.3074
78483,0,,,,,,,,-0.19,-0.11,-0.5,1,-7,6,0.22,0,,,,,,,,,,,,,,,,,
78523,0,,,,,,,,-0.03,-0.06,-0.03,0,10,-8,0.06,0,,,,,,,,,,,,,,,,,
78563,0,,,,,,,,0.2,0.07,-0.04,1,8,-3,0.21,0,,,,,,,,,,,,,,,,,
78603,0,,,,,,,,0.06,0.08,-0.41,2,-14,12,0.1,0,,,,,,,,,,,,,,,,,
78643,0,-1,1,49,52,32,37,-3,-0.06,-0.04,-0.35,1,-3,3,0.07,0,0,0.0,0.0,0.0,0.0,0,0,0.0,0,0.0,-1,0.0,0.0,0.0,0,0.0,1.3107
78683,0,,,,,,,,0.05,0.01,0.1,0,14,-13,0.05,0,,,,,,,,,,,,,,,,,
78723,0,,,,,,,,0.21,0.11,0.46,1,17,-13,0.24,0,,,,,,,,,,,,,,,,,
78763,0,,,,,,,,0.17,0.15,-0.01,1,2,2,0.22,0,,,,,,,,,,,,,,,,,
78803,0,,,,,,,,0.02,0.09,-0.39,2,-13,14,0.09,0,,,,,,,,,,,,,,,,,
78843,0,1,3,49,52,32,37,-2,-0.08,-0.03,-0.29,1,-4,5,0.08,0,0,0.0,0.0,0.0,0.0,0,0,0.0,0,0.0,-1,0.0,0.0,0.0,0,0.0,1.314
78883,0,,,,,,,,0.12,0.04,0.14,1,13,-10,0.13,0,,,,,,,,,,,,,,,,,
78923,0,,,,,,,,0.17,0.12,0.09,2,6,-3,0.21,0,,,,,,,,,,,,,,,,,
78963,0,,,,,,,,-0.07,0.11,-0.3,1,-17,13,0.13,0,,,,,,,,,,,,,,,,,
79003,0,,,,,,,,-0.2,0.01,-0.23,1,-12,9,0.2,0,,,,,,,,,,,,,,,,,
79043,0,1,2,49,52,32,37,-3,0.02,0.05,0.2,1,11,-10,0.05,0,0,0.0,0.0,0.0,0.0,0,0,0.0,0,0.0,-1,0.0,0.0,0.0,0,0.0,1.3174
79083,0,,,,,,,,0.09,0.12,-0.15,2,8,-5,0.15,0,,,,,,,,,,,,,,,,,
79123,0,,,,,,,,-0.08,0.04,-0.5,2,-13,11,0.09,0,,,,,,,,,,,,,,,,,
79163,0,,,,,,,,-0.08,-0.01,-0.39,2,-10,8,0.08,0,,,,,,,,,,,,,,,,,
79203,0,,,,,,,,0.05,0.01,0.06,1,5,-10,0.05,0,,,,,,,,,,,,,,,,,
79243,0,-1,0,49,52,32,37,-2,0.19,0.07,0.03,1,11,-11,0.21,0,0,0.0,0.0,0.0,0.0,0,0,0.0,0,0.0,-1,0.0,0.0,0.0,0,0.0,1.3207
79283,0,,,,,,,,0.03,0.05,-0.35,1,-5,5,0.06,0,,,,,,,,,,,,,,,,,
79323,0,,,,,,,,-0.11,-0.04,-0.67,2,-11,10,0.12,0,,,,,,,,,,,,,,,,,
79363,0,,,,,,,,-0.12,-0.16,-0.52,1,12,-11,0.21,0,,,,,,,,,,,,,,,,,
79403,0,,,,,,,,0.08,-0.07,-0.04,1,12,-9,0.1,0,,,,,,,,,,,,,,,,,
79443,0,1,1,49,52,32,37,-2,0.2,0.01,-0.1,1,-11,7,0.2,0,0,0.0,0.0,0.0,0.0,0,0,0.0,0,0.0,-1,0.0,0.0,0.0,0,0.0,1.324
79483,0,,,,,,,,-0.0,-0.04,-0.46,1,-20,13,0.04,0,,,,,,,,,,,,,,,,,
79523,0,,,,,,,,-0.17,-0.1,-0.51,0,-6,-2,0.19,0,,,,,,,,,,,,,,,,,
79563,0,,,,,,,,-0.07,-0.13,-0.04,0,10,-15,0.15,0,,,,,,,,,,,,,,,,,
79603,0,,,,,,,,0.16,-0.02,0.35,0,13,-10,0.16,0,,,,,,,,,,,,,,,,,
79643,0,1,1,49,52,32,37,-2,0.23,0.07,0.07,0,-4,4,0.24,0,0,0.0,0.0,0.0,0.0,0,0,0.0,0,0.0,-1,0.0,0.0,0.0,0,0.0,1.3274
79683,0,,,,,,,,0.07,0.01,-0.32,1,-15,13,0.07,0,,,,,,,,,,,,,,,,,
79723,0,,,,,,,,-0.07,-0.11,-0.43,1,-4,2,0.13,0,,,,,,,,,,,,,,,,,
79763,0,,,,,,,,0.03,-0.05,0.03,0,9,-13,0.05,0,,,,,,,,,,,,,,,,,
79803,0,,,,,,,,0.21,0.09,0.41,0,12,-12,0.23,0,,,,,,,,,,,,,,,,,
79843,0,-0,2,49,52,32,37,-3,0.21,0.13,-0.05,2,-1,2,0.25,0,0,0.0,0.0,0.0,0.0,0,0,0.0,0,0.0,-1,0.0,0.0,0.0,0,0.0,1.3307
79883,0,,,,,,,,0.01,0.06,-0.42,1,-15,11,0.06,0,,,,,,,,,,,,,,,,,
79923,0,,,,,,,,-0.08,-0.08,-0.32,0,-2,-0,0.11,0,,,,,,,,,,,,,,,,,
79963,0,,,,,,,,0.14,-0.01,0.12,0,20,-15,0.14,0,,,,,,,,,,,,,,,,,
80003,0,,,,,,,,0.31,0.11,0.15,1,19,-10,0.33,0,,,,,,,,,,,,,,,,,
80043,0,1,1,49,52,32,37,-2,0.15,0.09,-0.26,1,-6,7,0.17,0,0,0.0,0.0,0.0,0.0,0,0,0.0,0,0.0,-1,0.0,0.0,0.0,0,0.0,1.334
80083,0,,,,,,,,-0.03,-0.04,-0.19,1,-7,3,0.04,0,,,,,,,,,,,,,,,,,
80123,0,,,,,,,,0.08,0.02,0.23,1,10,-13,0.08,0,,,,,,,,,,,,,,,,,
80163,0,,,,,,,,0.16,0.13,0.16,2,6,-6,0.2,0,,,,,,,,,,,,,,,,,
80203,0,,,,,,,,-0.02,0.1,-0.25,2,-13,11,0.1,0,,,,,,,,,,,,,,,,,
80243,0,1,1,49,52,32,37,-2,-0.13,0.05,-0.33,1,-9,8,0.14,0,0,0.0,0.0,0.0,0.0,0,0,0.0,0,0.0,-1,0.0,0.0,0.0,0,0.0,1.3374
80283,0,,,,,,,,0.1,0.06,0.11,0,7,-8,0.11,0,,,,,,,,,,,,,,,,,
80323,0,,,,,,,,0.16,0.1,-0.08,2,5,-1,0.19,0,,,,,,,,,,,,,,,,,
80363,0,,,,,,,,0.03,0.05,-0.45,2,-9,12,0.06,0,,,,,,,,,,,,,,,,,
80403,0,,,,,,,,-0.08,-0.08,-0.37,2,-14,14,0.12,0,,,,,,,,,,,,,,,,,
80443,0,1,1,49,52,32,37,-2,0.08,-0.03,0.08,1,5,-5,0.08,0,0,0.0,0.0,0.0,0.0,0,0,0.0,0,0.0,-1,0.0,0.0,0.0,0,0.0,1.3407
80483,0,,,,,,,,0.18,0.1,0.04,1,9,-6,0.21,0,,,,,,,,,,,,,,,,,
80523,0,,,,,,,,0.22,0.21,0.02,1,-8,7,0.3,0,,,,,,,,,,,,,,,,,
80563,0,,,,,,,,0.08,0.18,-0.36,1,-18,17,0.19,0,,,,,,,,,,,,,,,,,
80603,0,,,,,,,,-0.09,0.06,-0.67,1,-6,6,0.11,0,,,,,,,,,,,,,,,,,
80643,0,1,1,49,52,32,37,-2,-0.05,0.01,-0.32,1,11,-10,0.06,0,0,0.0,0.0,0.0,0.0,0,0,0.0,0,0.0,-1,0.0,0.0,0.0,0,0.0,1.344
80683,0,,,,,,,,0.15,0.1,0.12,1,15,-8,0.18,0,,,,,,,,,,,,,,,,,
80723,0,,,,,,,,0.22,0.17,0.07,1,-2,6,0.28,0,,,,,,,,,,,,,,,,,
80763,0,,,,,,,,0.06,0.12,-0.32,2,-15,15,0.13,0,,,,,,,,,,,,,,,,,
80803,0,,,,,,,,-0.12,0.04,-0.64,2,-5,4,0.13,0,,,,,,,,,,,,,,,,,
80843,0,-1,3,49,52,32,37,-2,-0.05,0.02,-0.14,1,13,-13,0.05,0,0,0.0,0.0,0.0,0.0,0,0,0.0,0,0.0,-1,0.0,0.0,0.0,0,0.0,1.3474
80883,0,,,,,,,,0.11,0.08,0.27,1,19,-13,0.14,0,,,,,,,,,,,,,,,,,
80923,0,,,,,,,,0.19,0.16,-0.08,1,-0,3,0.25,0,,,,,,,,,,,,,,,,,
80963,0,,,,,,,,0.06,0.12,-0.45,0,-16,15,0.14,0,,,,,,,,,,,,,,,,,
81003,0,,,,,,,,-0.06,-0.01,-0.63,-0,-8,7,0.06,0,,,,,,,,,,,,,,,,,
81043,0,-0,2,49,52,32,37,-2,0.14,0.02,-0.13,-0,14,-8,0.14,0,0,0.0,0.0,0.0,0.0,0,0,0.0,0,0.0,-1,0.0,0.0,0.0,0,0.0,1.3507
81083,0,,,,,,,,0.28,0.14,-0.13,-1,3,2,0.31,0,,,,,,,,,,,,,,,,,
81123,0,,,,,,,,0.16,0.11,-0.48,-1,-15,16,0.2,0,,,,,,,,,,,,,,,,,
81163,0,,,,,,,,-0.02,-0.05,-0.76,-1,-14,12,0.06,0,,,,,,,,,,,,,,,,,
81203,0,,,,,,,,0.02,-0.07,-0.24,-1,1,-6,0.07,0,,,,,,,,,,,,,,,,,
81243,0,-0,3,49,52,32,37,-3,0.23,0.11,0.19,-1,10,-7,0.25,0,0,0.0,0.0,0.0,0.0,0,0,0.0,0,0.0,-1,0.0,0.0,0.0,0,0.0,1.3541
81283,0,,,,,,,,0.16,0.11,-0.23,-0,-6,9,0.2,0,,,,,,,,,,,,,,,,,
81323,0,,,,,,,,0.01,0.02,-0.57,-0,-15,14,0.02,0,,,,,,,,,,,,,,,,,
81363,0,,,,,,,,0.09,-0.06,-0.08,-0,0,-2,0.11,0,,,,,,,,,,,,,,,,,
81403,0,,,,,,,,0.26,0.13,0.31,1,17,-12,0.29,0,,,,,,,,,,,,,,,,,
81443,0,1,3,48,52,32,38,-3,0.19,0.2,-0.13,1,6,-2,0.28,0,0,0.0,0.0,0.0,0.0,0,0,0.0,0,0.0,-1,0.0,0.0,0.0,0,0.0,1.3574
81483,0,,,,,,,,0.05,0.09,-0.48,2,-10,12,0.11,0,,,,,,,,,,,,,,,,,
81523,0,,,,,,,,-0.08,-0.06,-0.37,1,-11,11,0.1,0,,,,,,,,,,,,,,,,,
81563,0,,,,,,,,-0.01,-0.01,0.08,1,4,-8,0.02,0,,,,,,,,,,,,,,,,,
81603,0,,,,,,,,0.14,0.12,0.44,1,13,-15,0.18,0,,,,,,,,,,,,,,,,,
81643,0,1,1,49,52,33,37,-2,0.1,0.14,-0.02,0,3,-5,0.18,0,0,0.0,0.0,0.0,0.0,0,0,0.0,0,0.0,-1,0.0,0.0,0.0,0,0.0,1.3607
81683,0,,,,,,,,-0.1,0.11,-0.4,1,-12,8,0.15,0,,,,,,,,,,,,,,,,,
81723,0,,,,,,,,-0.27,-0.06,-0.7,1,-2,-2,0.28,0,,,,,,,,,,,,,,,,,
81763,0,,,,,,,,-0.11,-0.08,-0.19,0,12,-13,0.14,0,,,,,,,,,,,,,,,,,
81803,0,,,,,,,,0.15,0.05,-0.03,-0,-1,-1,0.16,0,,,,,,,,,,,,,,,,,
81843,0,1,3,48,52,32,38,-3,0.02,0.04,-0.4,0,-14,10,0.05,0,0,0.0,0.0,0.0,0.0,0,0,0.0,0,0.0,-1,0.0,0.0,0.0,0,0.0,1.3641
81883,0,,,,,,,,-0.17,-0.04,-0.71,0,-4,1,0.18,0,,,,,,,,,,,,,,,,,
81923,0,,,,,,,,-0.07,-0.03,-0.19,-0,11,-13,0.07,0,,,,,,,,,,,,,,,,,
81963,0,,,,,,,,0.08,0.04,0.22,-1,6,-7,0.09,0,,,,,,,,,,,,,,,,,
82003,0,,,,,,,,0.15,0.11,0.16,0,-5,4,0.19,0,,,,,,,,,,,,,,,,,
82043,0,1,1,49,52,32,37,-2,0.02,0.11,-0.25,-0,-23,18,0.11,0,0,0.0,0.0,0.0,0.0,0,0,0.0,0,0.0,-1,0.0,0.0,0.0,0,0.0,1.3674
82083,0,,,,,,,,-0.15,-0.02,-0.58,-0,-19,16,0.15,0,,,,,,,,,,,,,,,,,
82123,0,,,,,,,,-0.23,-0.06,-0.54,-0,-0,-2,0.23,0,,,,,,,,,,,,,,,,,
82163,0,,,,,,,,-0.06,-0.1,-0.06,-0,16,-18,0.12,0,,,,,,,,,,,,,,,,,
82203,0,,,,,,,,0.1,-0.01,0.33,-0,21,-18,0.1,0,,,,,,,,,,,,,,,,,
82243,0,-1,3,49,52,32,37,-2,0.21,0.09,0.65,0,12,-10,0.23,0,0,0.0,0.0,0.0,0.0,0,0,0.0,0,0.0,-1,0.0,0.0,0.0,0,0.0,1.3707
82283,0,,,,,,,,0.04,0.08,0.15,0,-11,8,0.09,0,,,,,,,,,,,,,,,,,
82323,0,,,,,,,,-0.19,0.01,-0.26,0,-10,8,0.19,0,,,,,,,,,,,,,,,,,
82363,0,,,,,,,,-0.02,0.05,0.17,-0,11,-11,0.05,0,,,,,,,,,,,,,,,,,
82403,0,,,,,,,,0.2,0.18,0.16,0,8,-6,0.27,0,,,,,,,,,,,,,,,,,
82443,0,1,1,49,52,32,37,-2,0.03,0.15,-0.25,1,-16,13,0.15,0,0,0.0,0.0,0.0,0.0,0,0,0.0,0,0.0,-1,0.0,0.0,0.0,0,0.0,1.3741
82483,0,,,,,,,,-0.22,0.06,-0.49,1,-16,12,0.23,0,,,,,,,,,,,,,,,,,
82523,0,,,,,,,,-0.1,-0.03,-0.02,0,2,-7,0.1,0,,,,,,,,,,,,,,,,,
82563,0,,,,,,,,0.13,0.08,0.36,0,12,-17,0.15,0,,,,,,,,,,,,,,,,,
82603,0,,,,,,,,0.22,0.13,0.27,1,5,-7,0.26,0,,,,,,,,,,,,,,,,,
82643,0,1,4,48,52,32,38,-3,0.07,0.09,-0.16,3,-12,10,0.11,0,0,0.0,0.0,0.0,0.0,0,0,0.0,0,0.0,-1,0.0,0.0,0.0,0,0.0,1.3774
82683,0,,,,,,,,-0.16,-0.06,-0.38,3,-14,13,0.17,0,,,,,,,,,,,,,,,,,
82723,0,,,,,,,,0.04,-0.03,0.07,2,6,-6,0.05,0,,,,,,,,,,,,,,,,,
82763,0,,,,,,,,0.24,0.07,0.44,2,18,-15,0.24,0,,,,,,,,,,,,,,,,,
82803,0,,,,,,,,0.11,0.04,-0.02,3,0,-0,0.12,0,,,,,,,,,,,,,,,,,
82843,0,0,4,49,52,33,37,-3,-0.2,-0.03,-0.22,2,-12,7,0.2,0,0,0.0,0.0,0.0,0.0,0,0,0.0,0,0.0,-1,0.0,0.0,0.0,0,0.0,1.3807
82883,0,,,,,,,,-0.09,-0.05,0.2,1,5,-9,0.1,0,,,,,,,,,,,,,,,,,
82923,0,,,,,,,,0.11,0.01,0.54,1,22,-19,0.11,0,,,,,,,,,,,,,,,,,
82963,0,,,,,,,,0.34,0.1,0.82,1,27,-14,0.35,0,,,,,,,,,,,,,,,,,
83003,0,,,,,,,,0.38,0.13,0.48,2,6,3,0.41,0,,,,,,,,,,,,,,,,,
83043,0,-1,2,49,52,32,37,-3,0.16,0.1,0.01,2,-4,8,0.19,0,0,0.0,0.0,0.0,0.0,0,0,0.0,0,0.0,-1,0.0,0.0,0.0,0,0.0,1.384
83083,0,,,,,,,,-0.04,-0.03,-0.37,2,6,-6,0.05,0,,,,,,,,,,,,,,,,,
83123,0,,,,,,,,0.11,0.0,0.08,1,17,-17,0.11,0,,,,,,,,,,,,,,,,,
83163,0,,,,,,,,0.28,0.14,0.44,-0,2,-3,0.31,0,,,,,,,,,,,,,,,,,
83203,0,,,,,,,,0.08,0.14,-0.02,-0,-16,10,0.16,0,,,,,,,,,,,,,,,,,
83243,0,1,1,49,52,32,37,-3,-0.12,0.03,-0.4,0,-5,2,0.12,0,0,0.0,0.0,0.0,0.0,0,0,0.0,0,0.0,-1,0.0,0.0,0.0,0,0.0,1.3874
83283,0,,,,,,,,0.05,0.08,0.06,-1,8,-10,0.09,0,,,,,,,,,,,,,,,,,
83323,0,,,,,,,,0.22,0.19,0.43,-1,3,-4,0.29,0,,,,,,,,,,,,,,,,,
83363,0,,,,,,,,0.08,0.2,-0.04,-0,-17,12,0.21,0,,,,,,,,,,,,,,,,,
83403,0,,,,,,,,-0.13,0.18,-0.41,-0,-22,18,0.22,0,,,,,,,,,,,,,,,,,
83443,0,1,1,49,52,32,37,-2,-0.2,0.06,-0.31,-1,-7,2,0.21,0,0,0.0,0.0,0.0,0.0,0,0,0.0,0,0.0,-1,0.0,0.0,0.0,0,0.0,1.3907
83483,0,,,,,,,,0.02,0.13,0.13,-0,9,-9,0.13,0,,,,,,,,,,,,,,,,,
83523,0,,,,,,,,0.16,0.22,-0.09,1,4,1,0.27,0,,,,,,,,,,,,,,,,,
83563,0,,,,,,,,-0.14,0.14,-0.46,1,-16,12,0.2,0,,,,,,,,,,,,,,,,,
83603,0,,,,,,,,-0.09,0.01,-0.35,1,1,-5,0.09,0,,,,,,,,,,,,,,,,,
83643,0,1,1,49,52,32,37,-2,0.07,0.17,0.1,-0,9,-8,0.18,0,0,0.0,0.0,0.0,0.0,0,0,0.0,0,0.0,-1,0.0,0.0,0.0,0,0.0,1.394
83683,0,,,,,,,,0.04,0.22,-0.3,1,-0,2,0.22,0,,,,,,,,,,,,,,,,,
83723,0,,,,,,,,-0.18,0.12,-0.62,1,-17,13,0.22,0,,,,,,,,,,,,,,,,,
83763,0,,,,,,,,-0.17,0.07,-0.25,1,-2,-4,0.19,0,,,,,,,,,,,,,,,,,
83803,0,,,,,,,,0.15,0.13,0.17,2,19,-15,0.2,0,,,,,,,,,,,,,,,,,
83843,0,0,2,49,52,32,37,-2,0.05,0.2,-0.24,2,-0,0,0.21,0,0,0.0,0.0,0.0,0.0,0,0,0.0,0,0.0,-1,0.0,0.0,0.0,0,0.0,1.3974
83883,0,,,,,,,,-0.18,0.01,-0.55,1,-8,6,0.18,0,,,,,,,,,,,,,,,,,
83923,0,,,,,,,,-0.01,0.04,-0.07,1,9,-12,0.04,0,,,,,,,,,,,,,,,,,
83963,0,,,,,,,,0.2,0.17,-0.08,0,14,-13,0.26,0,,,,,,,,,,,,,,,,,
84003,0,,,,,,,,-0.0,0.14,-0.44,0,-0,1,0.14,0,,,,,,,,,,,,,,,,,
84043,0,-1,3,49,52,32,37,-2,-0.18,-0.02,-0.74,1,-12,10,0.18,0,0,0.0,0.0,0.0,0.0,0,0,0.0,0,0.0,-1,0.0,0.0,0.0,0,0.0,1.4007
84083,0,,,,,,,,0.06,0.03,-0.22,0,13,-8,0.06,0,,,,,,,,,,,,,,,,,
84123,0,,,,,,,,0.35,0.07,0.2,1,27,-16,0.36,0,,,,,,,,,,,,,,,,,
84163,0,,,,,,,,0.55,0.16,0.39,1,8,-2,0.57,0,,,,,,,,,,,,,,,,,
84203,0,,,,,,,,0.31,0.21,-0.07,2,-9,8,0.37,0,,,,,,,,,,,,,,,,,
84243,0,1,1,49,52,32,37,-2,-0.02,0.05,-0.33,0,3,-7,0.06,0,0,0.0,0.0,0.0,0.0,0,0,0.0,0,0.0,-1,0.0,0.0,0.0,0,0.0,1.404
84283,0,,,,,,,,0.07,0.09,0.12,-0,17,-14,0.12,0,,,,,,,,,,,,,,,,,
84323,0,,,,,,,,0.31,0.19,0.11,2,10,-4,0.37,0,,,,,,,,,,,,,,,,,
84363,0,,,,,,,,0.12,0.16,-0.3,1,-12,10,0.2,0,,,,,,,,,,,,,,,,,
84403,0,,,,,,,,-0.16,0.03,-0.62,1,-6,1,0.16,0,,,,,,,,,,,,,,,,,
84443,0,1,3,48,52,33,37,-3,-0.12,0.04,-0.12,1,15,-17,0.12,0,0,0.0,0.0,0.0,0.0,0,0,0.0,0,0.0,-1,0.0,0.0,0.0,0,0.0,1.4074
84483,0,,,,,,,,0.13,0.13,0.28,-0,8,-8,0.18,0,,,,,,,,,,,,,,,,,
84523,0,,,,,,,,-0.0,0.07,-0.15,-1,-13,10,0.07,0,,,,,,,,,,,,,,,,,
84563,0,,,,,,,,-0.16,0.04,-0.39,-1,0,-1,0.17,0,,,,,,,,,,,,,,,,,
84603,0,,,,,,,,-0.06,0.05,0.07,-0,15,-18,0.07,0,,,,,,,,,,,,,,,,,
84643,0,0,2,49,52,32,37,-2,0.15,0.1,0.05,-1,6,-8,0.19,0,0,0.0,0.0,0.0,0.0,0,0,0.0,0,0.0,-1,0.0,0.0,0.0,0,0.0,1.4107
84683,0,,,,,,,,0.01,0.13,-0.34,-0,-16,9,0.13,0,,,,,,,,,,,,,,,,,
84723,0,,,,,,,,-0.22,0.04,-0.66,0,-18,11,0.23,0,,,,,,,,,,,,,,,,,
84763,0,,,,,,,,-0.17,0.02,-0.22,-1,-1,-6,0.18,0,,,,,,,,,,,,,,,,,
84803,0,,,,,,,,0.04,0.03,0.2,-1,16,-18,0.05,0,,,,,,,,,,,,,,,,,
84843,0,-1,3,49,52,32,37,-2,0.19,0.13,0.51,-0,12,-10,0.24,0,0,0.0,0.0,0.0,0.0,0,0,0.0,0,0.0,-1,0.0,0.0,0.0,0,0.0,1.414
84883,0,,,,,,,,-0.0,0.09,0.03,0,-11,8,0.09,0,,,,,,,,,,,,,,,,,
84923,0,,,,,,,,-0.25,0.07,-0.35,-0,-16,11,0.26,0,,,,,,,,,,,,,,,,,
84963,0,,,,,,,,-0.09,0.06,0.09,-0,3,-8,0.11,0,,,,,,,,,,,,,,,,,
85003,0,,,,,,,,0.17,0.13,0.46,0,15,-14,0.21,0,,,,,,,,,,,,,,,,,
85043,0,1,1,49,52,32,37,-3,0.19,0.13,0.15,-1,1,-3,0.24,0,0,0.0,0.0,0.0,0.0,0,0,0.0,0,0.0,-1,0.0,0.0,0.0,0,0.0,1.4174
85083,0,,,,,,,,-0.04,0.08,-0.26,0,-16,11,0.09,0,,,,,,,,,,,,,,,,,
85123,0,,,,,,,,-0.03,0.07,-0.19,-0,-3,4,0.08,0,,,,,,,,,,,,,,,,,
85163,0,,,,,,,,0.25,0.1,0.22,-0,17,-12,0.27,0,,,,,,,,,,,,,,,,,
85203,0,,,,,,,,0.06,0.1,-0.2,-0,-2,1,0.12,0,,,,,,,,,,,,,,,,,
85243,0,-0,3,49,52,32,38,-3,-0.28,0.04,-0.54,0,-18,12,0.29,0,0,0.0,0.0,0.0,0.0,0,0,0.0,0,0.0,-1,0.0,0.0,0.0,0,0.0,1.4207
85283,0,,,,,,,,-0.06,0.14,-0.06,-1,-0,-5,0.15,0,,,,,,,,,,,,,,,,,
85323,0,,,,,,,,0.09,0.2,0.33,-1,6,-11,0.22,0,,,,,,,,,,,,,,,,,
85363,0,,,,,,,,0.28,0.28,0.49,1,4,-2,0.39,0,,,,,,,,,,,,,,,,,
85403,0,,,,,,,,0.15,0.27,0.02,1,-10,12,0.31,0,,,,,,,,,,,,,,,,,
85443,0,-1,3,49,52,32,38,-3,-0.07,0.14,-0.37,1,2,3,0.15,0,0,0.0,0.0,0.0,0.0,0,0,0.0,0,0.0,-1,0.0,0.0,0.0,0,0.0,1.424
85483,0,,,,,,,,0.07,0.07,0.08,0,17,-14,0.1,0,,,,,,,,,,,,,,,,,
85523,0,,,,,,,,0.14,0.12,0.45,0,23,-16,0.18,0,,,,,,,,,,,,,,,,,
85563,0,,,,,,,,0.3,0.24,0.34,1,9,-3,0.39,0,,,,,,,,,,,,,,,,,
85603,0,,,,,,,,0.13,0.17,-0.1,0,-10,10,0.21,0,,,,,,,,,,,,,,,,,
85643,0,-0,3,49,52,32,37,-4,-0.07,0.07,-0.18,-0,-0,-2,0.1,0,0,0.0,0.0,0.0,0.0,0,0,0.0,0,0.0,-1,0.0,0.0,0.0,0,0.0,1.4274
85683,0,,,,,,,,0.03,0.03,0.23,0,15,-15,0.05,0,,,,,,,,,,,,,,,,,
85723,0,,,,,,,,0.23,0.2,0.35,1,15,-8,0.3,0,,,,,,,,,,,,,,,,,
85763,0,,,,,,,,0.16,0.22,-0.1,3,2,7,0.27,0,,,,,,,,,,,,,,,,,
85803,0,,,,,,,,0.07,0.12,-0.46,3,-3,10,0.14,0,,,,,,,,,,,,,,,,,
85843,0,1,1,49,52,32,37,-3,0.01,0.0,-0.27,2,12,-5,0.01,0,0,0.0,0.0,0.0,0.0,0,0,0.0,0,0.0,-1,0.0,0.0,0.0,0,0.0,1.4307
85883,0,,,,,,,,0.18,0.03,0.16,1,22,-12,0.18,0,,,,,,,,,,,,,,,,,
85923,0,,,,,,,,0.24,0.16,-0.23,1,2,1,0.29,0,,,,,,,,,,,,,,,,,
85963,0,,,,,,,,0.01,0.19,-0.57,0,-18,14,0.19,0,,,,,,,,,,,,,,,,,
86003,0,,,,,,,,-0.11,0.1,-0.44,-1,-4,1,0.15,0,,,,,,,,,,,,,,,,,
86043,0,-1,3,49,52,32,38,-3,0.05,0.1,0.02,-1,8,-13,0.11,0,0,0.0,0.0,0.0,0.0,0,0,0.0,0,0.0,-1,0.0,0.0,0.0,0,0.0,1.434
86083,0,,,,,,,,0.2,0.21,-0.0,-1,2,-4,0.29,0,,,,,,,,,,,,,,,,,
86123,0,,,,,,,,0.03,0.15,-0.38,-1,-15,11,0.15,0,,,,,,,,,,,,,,,,,
86163,0,,,,,,,,-0.15,0.06,-0.29,-1,-12,7,0.16,0,,,,,,,,,,,,,,,,,
86203,0,,,,,,,,0.09,0.07,0.14,-1,10,-12,0.11,0,,,,,,,,,,,,,,,,,
86243,0,-0,3,49,52,33,37,-3,0.26,0.2,0.1,-0,12,-9,0.32,0,0,0.0,0.0,0.0,0.0,0,0,0.0,0,0.0,-1,0.0,0.0,0.0,0,0.0,1.4374
86283,0,,,,,,,,0.02,0.2,-0.3,2,-5,5,0.2,0,,,,,,,,,,,,,,,,,
86323,0,,,,,,,,-0.14,0.14,-0.36,1,-8,6,0.2,0,,,,,,,,,,,,,,,,,
86363,0,,,,,,,,0.06,0.23,0.09,-0,11,-10,0.23,0,,,,,,,,,,,,,,,,,
86403,0,,,,,,,,0.15,0.24,0.05,1,10,-5,0.28,0,,,,,,,,,,,,,,,,,
86443,0,-1,2,49,52,32,37,-2,-0.01,0.15,-0.34,1,-11,11,0.15,0,0,0.0,0.0,0.0,0.0,0,0,0.0,0,0.0,-1,0.0,0.0,0.0,0,0.0,1.4407
86483,0,,,,,,,,-0.22,0.08,-0.65,1,-22,18,0.23,0,,,,,,,,,,,,,,,,,
86523,0,,,,,,,,-0.24,0.01,-0.55,1,-12,4,0.24,0,,,,,,,,,,,,,,,,,
86563,0,,,,,,,,-0.19,-0.05,-0.43,0,4,-13,0.2,0,,,,,,,,,,,,,,,,,
86603,0,,,,,,,,0.09,-0.01,0.03,0,5,-8,0.09,0,,,,,,,,,,,,,,,,,
86643,0,-1,3,49,52,32,37,-2,0.16,0.07,-0.35,0,-16,11,0.17,0,0,0.0,0.0,0.0,0.0,0,0,0.0,0,0.0,-1,0.0,0.0,0.0,0,0.0,1.4441
86683,0,,,,,,,,0.05,-0.0,-0.67,1,-22,14,0.05,0,,,,,,,,,,,,,,,,,
86723,0,,,,,,,,-0.13,-0.04,-0.86,-0,-6,-1,0.14,0,,,,,,,,,,,,,,,,,
86763,0,,,,,,,,-0.02,-0.05,-0.31,0,12,-16,0.05,0,,,,,,,,,,,,,,,,,
86803,0,,,,,,,,0.2,0.11,0.13,-1,10,-7,0.23,0,,,,,,,,,,,,,,,,,
86843,0,0,3,49,52,33,37,-2,0.31,0.19,0.12,1,4,2,0.36,0,0,0.0,0.0,0.0,0.0,0,0,0.0,0,0.0,-1,0.0,0.0,0.0,0,0.0,1.4474
86883,0,,,,,,,,0.31,0.23,-0.28,1,-9,13,0.39,0,,,,,,,,,,,,,,,,,
86923,0,,,,,,,,0.39,0.26,0.07,1,-10,16,0.47,0,,,,,,,,,,,,,,,,,
86963,0,,,,,,,,0.4,0.28,0.44,1,-6,14,0.49,0,,,,,,,,,,,,,,,,,
87003,0,,,,,,,,0.43,0.19,0.74,1,5,-0,0.47,0,,,,,,,,,,,,,,,,,
87043,0,-0,3,49,52,32,37,-3,0.25,0.11,0.33,0,3,-2,0.28,0,0,0.0,0.0,0.0,0.0,0,0,0.0,0,0.0,-1,0.0,0.0,0.0,0,0.0,1.4507
87083,0,,,,,,,,0.23,0.18,0.29,1,-2,5,0.29,0,,,,,,,,,,,,,,,,,
87123,0,,,,,,,,0.28,0.17,0.21,0,1,4,0.33,0,,,,,,,,,,,,,,,,,
87163,0,,,,,,,,0.21,0.23,0.33,1,0,0,0.32,0,,,,,,,,,,,,,,,,,
87203,0,,,,,,,,0.23,0.19,0.29,1,7,-1,0.3,0,,,,,,,,,,,,,,,,,
87243,0,-0,3,49,52,32,38,-3,0.19,0.13,0.21,1,-0,2,0.23,0,0,0.0,0.0,0.0,0.0,0,0,0.0,0,0.0,-1,0.0,0.0,0.0,0,0.0,1.4541
87283,0,,,,,,,,0.11,0.16,0.55,1,-3,-2,0.2,0,,,,,,,,,,,,,,,,,
87323,0,,,,,,,,0.03,0.05,0.08,1,-3,3,0.06,0,,,,,,,,,,,,,,,,,
87363,0,,,,,,,,0.2,0.07,0.45,1,6,-2,0.21,0,,,,,,,,,,,,,,,,,
87403,0,,,,,,,,0.06,0.05,0.38,1,-4,2,0.08,0,,,,,,,,,,,,,,,,,
87443,0,-0,2,49,52,32,37,-3,0.03,0.07,0.46,1,-3,-1,0.07,0,0,0.0,0.0,0.0,0.0,0,0,0.0,0,0.0,-1,0.0,0.0,0.0,0,0.0,1.4574
87483,0,,,,,,,,0.08,0.05,0.39,1,4,-0,0.09,0,,,,,,,,,,,,,,,,,
87523,0,,,,,,,,0.11,0.01,0.3,1,2,0,0.11,0,,,,,,,,,,,,,,,,,
87563,0,,,,,,,,0.03,0.06,0.53,0,-3,-2,0.06,0,,,,,,,,,,,,,,,,,
87603,0,,,,,,,,-0.03,-0.03,0.16,1,-4,2,0.05,0,,,,,,,,,,,,,,,,,
87643,0,0,3,49,52,32,37,-3,0.09,0.02,0.2,1,5,-2,0.1,0,0,0.0,0.0,0.0,0.0,0,0,0.0,0,0.0,-1,0.0,0.0,0.0,0,0.0,1.4607
87683,0,,,,,,,,-0.04,0.02,0.19,0,-5,2,0.04,0,,,,,,,,,,,,,,,,,
87723,0,,,,,,,,-0.07,0.01,0.13,0,-6,0,0.07,0,,,,,,,,,,,,,,,,,
87763,0,,,,,,,,0.05,0.02,0.3,0,4,-3,0.06,0,,,,,,,,,,,,,,,,,
87803,0,,,,,,,,0.09,0.01,0.22,0,-4,2,0.09,0,,,,,,,,,,,,,,,,,
87843,0,-0,3,49,52,32,37,-3,0.04,0.04,0.51,0,-4,-0,0.06,0,0,0.0,0.0,0.0,0.0,0,0,0.0,0,0.0,-1,0.0,0.0,0.0,0,0.0,1.4641
87883,0,,,,,,,,0.01,-0.04,0.16,1,-2,5,0.04,0,,,,,,,,,,,,,,,,,
87923,0,,,,,,,,0.11,-0.07,-0.25,0,5,9,0.13,0,,,,,,,,,,,,,,,,,
87963,0,,,,,,,,0.05,-0.07,-0.22,-0,5,8,0.08,0,,,,,,,,,,,,,,,,,
88003,0,,,,,,,,0.15,-0.11,0.16,-1,5,2,0.18,0,,,,,,,,,,,,,,,,,
88043,0,1,1,49,52,32,37,-3,0.08,-0.11,-0.25,-0,-1,7,0.14,0,0,0.0,0.0,0.0,0.0,0,0,0.0,0,0.0,-1,0.0,0.0,0.0,0,0.0,1.4674
88083,0,,,,,,,,0.04,-0.08,-0.32,-1,-2,7,0.09,0,,,,,,,,,,,,,,,,,
88123,0,,,,,,,,-0.01,-0.14,0.03,-0,0,3,0.14,0,,,,,,,,,,,,,,,,,
88163,0,,,,,,,,-0.07,-0.05,0.4,-0,3,-0,0.08,0,,,,,,,,,,,,,,,,,
88203,0,,,,,,,,-0.01,-0.09,0.71,0,3,-1,0.09,0,,,,,,,,,,,,,,,,,
88243,0,1,1,50,53,31,36,-3,0.09,0.0,0.79,1,26,-4,0.09,0,0,0.0,0.0,0.0,0.0,0,0,0.0,0,0.0,-1,0.0,0.0,0.0,0,0.0,1.4707
88283,0,,,,,,,,0.1,-0.02,0.76,-0,19,-2,0.1,0,,,,,,,,,,,,,,,,,
88323,0,,,,,,,,0.09,0.07,0.63,-0,22,-3,0.11,0,,,,,,,,,,,,,,,,,
88363,0,,,,,,,,-0.06,0.11,0.53,1,24,-3,0.13,0,,,,,,,,,,,,,,,,,
88403,0,,,,,,,,-0.02,0.09,0.41,1,19,1,0.09,0,,,,,,,,,,,,,,,,,
88443,0,2,4,48,52,32,37,-3,-0.07,0.15,0.35,1,16,2,0.16,0,0,0.0,0.0,0.0,0.0,0,0,0.0,0,0.0,-1,0.0,0.0,0.0,0,0.0,1.4741
88483,0,,,,,,,,-0.05,0.08,0.66,2,17,-2,0.1,0,,,,,,,,,,,,,,,,,
88523,0,,,,,,,,-0.05,0.07,0.52,1,15,-3,0.09,0,,,,,,,,,,,,,,,,,
88563,0,,,,,,,,-0.04,0.06,0.04,1,8,2,0.08,0,,,,,,,,,,,,,,,,,
88603,0,,,,,,,,-0.1,0.07,0.41,1,10,-1,0.13,0,,,,,,,,,,,,,,,,,
88643,0,0,3,49,52,33,38,-2,0.03,0.04,0.66,1,11,-5,0.05,0,0,0.0,0.0,0.0,0.0,0,0,0.0,0,0.0,-1,0.0,0.0,0.0,0,0.0,1.4774
88683,0,,,,,,,,0.01,0.07,0.16,1,6,-1,0.07,0,,,,,,,,,,,,,,,,,
88723,0,,,,,,,,0.01,0.07,-0.08,1,3,1,0.07,0,,,,,,,,,,,,,,,,,
88763,0,,,,,,,,-0.06,0.03,0.27,0,1,2,0.07,0,,,,,,,,,,,,,,,,,
88803,0,,,,,,,,-0.11,0.02,0.6,0,2,-0,0.11,0,,,,,,,,,,,,,,,,,
88843,0,1,3,49,52,33,38,-6,-0.04,-0.11,0.86,0,3,-5,0.12,0,0,0.0,0.0,0.0,0.0,0,0,0.0,0,0.0,-1,0.0,0.0,0.0,0,0.0,1.4807
88883,0,,,,,,,,0.03,-0.15,0.53,-0,4,-5,0.15,0,,,,,,,,,,,,,,,,,
88923,0,,,,,,,,0.03,-0.12,0.13,0,2,-5,0.12,0,,,,,,,,,,,,,,,,,
88963,0,,,,,,,,0.07,-0.1,0.05,0,-0,-2,0.12,0,,,,,,,,,,,,,,,,,
89003,0,,,,,,,,0.17,-0.1,0.39,0,-4,1,0.2,0,,,,,,,,,,,,,,,,,
89043,0,1,3,49,52,33,37,-5,0.19,-0.11,0.14,0,-5,4,0.22,0,0,0.0,0.0,0.0,0.0,0,0,0.0,0,0.0,-1,0.0,0.0,0.0,0,0.0,1.4841
89083,0,,,,,,,,0.13,-0.09,-0.21,0,-7,7,0.16,0,,,,,,,,,,,,,,,,,
89123,0,,,,,,,,0.11,-0.12,-0.43,0,-6,7,0.16,0,,,,,,,,,,,,,,,,,
89163,0,,,,,,,,0.08,-0.1,-0.7,0,-7,9,0.13,0,,,,,,,,,,,,,,,,,
89203,0,,,,,,,,0.06,-0.05,-0.75,-0,-6,8,0.08,0,,,,,,,,,,,,,,,,,
89243,0,1,1,49,52,33,38,-7,0.06,-0.04,-0.69,0,-7,8,0.07,0,0,0.0,0.0,0.0,0.0,0,0,0.0,0,0.0,-1,0.0,0.0,0.0,0,0.0,1.4874
89283,0,,,,,,,,0.07,-0.03,-0.55,0,-6,8,0.08,0,,,,,,,,,,,,,,,,,
89323,0,,,,,,,,0.1,-0.06,-0.21,0,-7,8,0.11,0,,,,,,,,,,,,,,,,,
89363,0,,,,,,,,0.13,-0.05,-0.28,0,-7,9,0.14,0,,,,,,,,,,,,,,,,,
89403,0,,,,,,,,0.14,-0.05,-0.27,0,-9,9,0.15,0,,,,,,,,,,,,,,,,,
89443,0,-1,1,49,52,32,38,-6,0.16,-0.07,-0.14,0,-8,9,0.17,0,0,0.0,0.0,0.0,0.0,0,0,0.0,0,0.0,-1,0.0,0.0,0.0,0,0.0,1.4907
89483,0,,,,,,,,0.19,-0.07,0.22,1,-8,7,0.21,0,,,,,,,,,,,,,,,,,
89523,0,,,,,,,,0.24,-0.08,0.28,1,-7,6,0.26,0,,,,,,,,,,,,,,,,,
89563,0,,,,,,,,0.24,-0.07,0.36,0,-8,4,0.25,0,,,,,,,,,,,,,,,,,
89603,0,,,,,,,,0.22,-0.1,0.15,0,-7,5,0.24,0,,,,,,,,,,,,,,,,,
89643,0,1,2,49,52,33,38,-6,0.16,-0.02,-0.22,1,-10,8,0.16,0,0,0.0,0.0,0.0,0.0,0,0,0.0,0,0.0,-1,0.0,0.0,0.0,0,0.0,1.4941
89683,0,,,,,,,,0.11,0.07,0.02,1,-6,5,0.13,0,,,,,,,,,,,,,,,,,
89723,0,,,,,,,,0.18,-0.08,0.39,1,-1,-1,0.19,0,,,,,,,,,,,,,,,,,
89763,0,,,,,,,,0.06,-0.01,-0.06,1,-6,6,0.06,0,,,,,,,,,,,,,,,,,
89803,0,,,,,,,,0.04,-0.02,0.3,0,-4,2,0.05,0,,,,,,,,,,,,,,,,,
89843,0,-1,1,49,52,32,38,-6,-0.03,0.09,0.0,1,-7,7,0.1,0,0,0.0,0.0,0.0,0.0,0,0,0.0,0,0.0,-1,0.0,0.0,0.0,0,0.0,1.4974
89883,0,,,,,,,,0.08,0.12,-0.02,0,-5,3,0.14,0,,,,,,,,,,,,,,,,,
89923,0,,,,,,,,-0.01,0.16,0.0,0,-7,6,0.16,0,,,,,,,,,,,,,,,,,
89963,0,,,,,,,,-0.02,0.13,-0.02,1,-5,3,0.13,0,,,,,,,,,,,,,,,,,
90003,0,,,,,,,,0.1,0.18,0.37,1,-0,-0,0.21,0,,,,,,,,,,,,,,,,,
90043,0,-0,2,49,52,32,37,-6,0.01,0.27,0.32,1,-2,2,0.27,0,0,0.0,0.0,0.0,0.0,0,0,0.0,0,0.0,-1,0.0,0.0,0.0,0,0.0,1.5007
90083,0,,,,,,,,-0.02,0.25,0.16,1,-2,3,0.26,0,,,,,,,,,,,,,,,,,
90123,0,,,,,,,,-0.0,0.16,0.2,1,-1,1,0.16,0,,,,,,,,,,,,,,,,,
90163,0,,,,,,,,0.02,0.19,0.02,1,-0,5,0.19,0,,,,,,,,,,,,,,,,,
90203,0,,,,,,,,0.0,0.18,-0.37,1,3,10,0.18,0,,,,,,,,,,,,,,,,,
90243,0,0,3,48,52,33,38,-6,0.07,0.14,0.08,1,8,7,0.16,0,0,0.0,0.0,0.0,0.0,0,0,0.0,0,0.0,-1,0.0,0.0,0.0,0,0.0,1.504
90283,0,,,,,,,,-0.03,0.15,-0.24,1,4,7,0.15,0,,,,,,,,,,,,,,,,,
90323,0,,,,,,,,0.09,0.12,0.19,1,6,6,0.15,0,,,,,,,,,,,,,,,,,
90363,0,,,,,,,,0.12,0.16,0.13,2,-2,14,0.2,0,,,,,,,,,,,,,,,,,
90403,0,,,,,,,,0.06,0.11,0.12,1,6,6,0.13,0,,,,,,,,,,,,,,,,,
90443,0,0,3,49,52,32,38,-6,0.12,0.13,0.12,0,2,7,0.18,0,0,0.0,0.0,0.0,0.0,0,0,0.0,0,0.0,-1,0.0,0.0,0.0,0,0.0,1.5074
90483,0,,,,,,,,0.12,0.14,0.12,-0,-4,9,0.18,0,,,,,,,,,,,,,,,,,
90523,0,,,,,,,,0.07,0.17,-0.29,-0,-11,14,0.18,0,,,,,,,,,,,,,,,,,
90563,0,,,,,,,,0.04,0.07,-0.25,0,2,4,0.08,0,,,,,,,,,,,,,,,,,
90603,0,,,,,,,,0.31,0.17,-0.18,1,-7,9,0.36,0,,,,,,,,,,,,,,,,,
90643,0,1,1,49,52,33,37,-5,0.26,0.07,0.23,0,14,-6,0.27,0,0,0.0,0.0,0.0,0.0,0,0,0.0,0,0.0,-1,0.0,0.0,0.0,0,0.0,1.5107
90683,0,,,,,,,,-0.02,-0.01,0.08,0,18,-13,0.03,0,,,,,,,,,,,,,,,,,
90723,0,,,,,,,,0.17,0.05,0.45,0,22,-16,0.18,0,,,,,,,,,,,,,,,,,
90763,0,,,,,,,,0.08,0.0,0.44,0,19,-14,0.08,0,,,,,,,,,,,,,,,,,
90803,0,,,,,,,,-0.0,-0.02,0.58,0,14,-11,0.02,0,,,,,,,,,,,,,,,,,
90843,0,1,3,49,52,33,38,-6,0.08,-0.01,0.8,0,12,-10,0.08,0,0,0.0,0.0,0.0,0.0,0,0,0.0,0,0.0,-1,0.0,0.0,0.0,0,0.0,1.514
90883,0,,,,,,,,0.16,0.02,0.88,0,10,-8,0.16,0,,,,,,,,,,,,,,,,,
90923,0,,,,,,,,0.14,0.02,0.73,0,6,-6,0.14,0,,,,,,,,,,,,,,,,,
90963,0,,,,,,,,0.1,0.02,0.78,0,5,-4,0.11,0,,,,,,,,,,,,,,,,,
91003,0,,,,,,,,0.13,0.04,0.8,1,5,-5,0.13,0,,,,,,,,,,,,,,,,,
91043,0,-1,3,49,52,32,38,-6,0.03,0.01,0.67,0,6,-5,0.03,0,0,0.0,0.0,0.0,0.0,0,0,0.0,0,0.0,-1,0.0,0.0,0.0,0,0.0,1.5174
91083,0,,,,,,,,0.28,0.14,0.92,1,8,-5,0.31,0,,,,,,,,,,,,,,,,,
91123,0,,,,,,,,0.46,0.26,1.12,1,13,-5,0.53,0,,,,,,,,,,,,,,,,,
91163,0,,,,,,,,0.31,0.16,0.89,1,13,-6,0.35,0,,,,,,,,,,,,,,,,,
91203,0,,,,,,,,0.55,0.21,1.1,1,22,-14,0.59,0,,,,,,,,,,,,,,,,,
91243,0,1,3,48,52,33,38,-6,0.44,0.11,0.87,1,17,-10,0.46,0,0,0.0,0.0,0.0,0.0,0,0,0.0,0,0.0,-1,0.0,0.0,0.0,0,0.0,1.5207
91283,0,,,,,,,,0.37,0.05,0.36,1,18,-5,0.38,0,,,,,,,,,,,,,,,,,
91323,0,,,,,,,,0.35,0.04,0.5,1,16,-4,0.35,0,,,,,,,,,,,,,,,,,
91363,0,,,,,,,,0.36,-0.01,0.49,1,15,-4,0.36,0,,,,,,,,,,,,,,,,,
91403,0,,,,,,,,0.26,0.15,0.18,1,13,-2,0.3,0,,,,,,,,,,,,,,,,,
91443,0,1,0,49,52,33,37,-5,0.17,0.17,-0.19,0,10,-2,0.24,0,0,0.0,0.0,0.0,0.0,0,0,0.0,0,0.0,-1,0.0,0.0,0.0,0,0.0,1.524
91483,0,,,,,,,,0.1,0.12,0.06,-0,9,-3,0.16,0,,,,,,,,,,,,,,,,,
91523,0,,,,,,,,0.07,0.03,0.07,-1,9,-5,0.08,0,,,,,,,,,,,,,,,,,
91563,0,,,,,,,,0.02,0.11,-0.32,-0,4,2,0.11,0,,,,,,,,,,,,,,,,,
91603,0,,,,,,,,-0.02,0.16,-0.24,-0,5,1,0.16,0,,,,,,,,,,,,,,,,,
91643,0,0,3,49,52,32,38,-6,0.07,0.07,0.16,0,3,1,0.1,0,0,0.0,0.0,0.0,0.0,0,0,0.0,0,0.0,-1,0.0,0.0,0.0,0,0.0,1.5274
91683,0,,,,,,,,0.06,0.15,-0.05,-0,4,1,0.16,0,,,,,,,,,,,,,,,,,
91723,0,,,,,,,,0.15,-0.02,0.34,0,9,-4,0.15,0,,,,,,,,,,,,,,,,,
91763,0,,,,,,,,0.1,0.04,-0.11,0,3,3,0.1,0,,,,,,,,,,,,,,,,,
91803,0,,,,,,,,0.07,0.08,-0.02,0,4,-1,0.1,0,,,,,,,,,,,,,,,,,
91843,0,1,2,49,52,33,37,-5,0.04,0.08,-0.04,1,2,3,0.09,0,0,0.0,0.0,0.0,0.0,0,0,0.0,0,0.0,-1,0.0,0.0,0.0,0,0.0,1.5307
91883,0,,,,,,,,0.13,0.08,0.22,1,4,-1,0.15,0,,,,,,,,,,,,,,,,,
91923,0,,,,,,,,0.06,0.11,-0.2,1,-1,4,0.12,0,,,,,,,,,,,,,,,,,
91963,0,,,,,,,,0.1,0.06,-0.18,1,1,2,0.12,0,,,,,,,,,,,,,,,,,
92003,0,,,,,,,,0.18,0.07,-0.13,1,2,1,0.19,0,,,,,,,,,,,,,,,,,
92043,0,1,3,49,52,33,38,-7,0.18,0.14,-0.09,0,-3,4,0.22,0,0,0.0,0.0,0.0,0.0,0,0,0.0,0,0.0,-1,0.0,0.0,0.0,0,0.0,1.534
92083,0,,,,,,,,0.07,0.13,-0.38,0,-3,6,0.15,0,,,,,,,,,,,,,,,,,
92123,0,,,,,,,,0.05,0.1,-0.33,1,-6,8,0.12,0,,,,,,,,,,,,,,,,,
92163,0,,,,,,,,0.04,0.18,-0.29,1,-2,4,0.19,0,,,,,,,,,,,,,,,,,
92203,0,,,,,,,,0.15,0.1,-0.21,1,2,-1,0.18,0,,,,,,,,,,,,,,,,,
92243,0,-1,2,49,52,32,37,-7,0.13,0.04,0.02,1,1,-3,0.13,0,0,0.0,0.0,0.0,0.0,0,0,0.0,0,0.0,-1,0.0,0.0,0.0,0,0.0,1.5374
92283,0,,,,,,,,0.18,0.09,0.03,1,2,-1,0.21,0,,,,,,,,,,,,,,,,,
92323,0,,,,,,,,0.12,0.09,-0.18,1,1,0,0.15,0,,,,,,,,,,,,,,,,,
92363,0,,,,,,,,0.17,-0.01,0.14,1,2,-4,0.17,0,,,,,,,,,,,,,,,,,
92403,0,,,,,,,,0.12,0.09,0.14,1,0,-0,0.15,0,,,,,,,,,,,,,,,,,
92443,0,-0,3,49,52,33,37,-11,0.17,0.04,0.09,1,2,-3,0.18,0,0,0.0,0.0,0.0,0.0,0,0,0.0,0,0.0,-1,0.0,0.0,0.0,0,0.0,1.5407
92483,0,,,,,,,,0.08,0.03,0.05,1,-0,-3,0.08,0,,,,,,,,,,,,,,,,,
92523,0,,,,,,,,0.12,0.01,0.39,1,-2,-3,0.12,0,,,,,,,,,,,,,,,,,
92563,0,,,,,,,,0.1,-0.05,0.03,1,-0,3,0.11,0,,,,,,,,,,,,,,,,,
92603,0,,,,,,,,0.21,-0.13,-0.24,1,5,6,0.24,0,,,,,,,,,,,,,,,,,
92643,0,1,2,48,52,33,38,-13,0.19,-0.09,-0.21,1,7,6,0.21,0,0,0.0,0.0,0.0,0.0,0,0,0.0,0,0.0,-1,0.0,0.0,0.0,0,0.0,1.544
92683,0,,,,,,,,0.13,-0.06,-0.19,1,10,-0,0.14,0,,,,,,,,,,,,,,,,,
92723,0,,,,,,,,-0.06,0.04,-0.54,1,-1,8,0.07,0,,,,,,,,,,,,,,,,,
92763,0,,,,,,,,-0.26,0.06,-0.82,1,6,-0,0.27,0,,,,,,,,,,,,,,,,,
92803,0,,,,,,,,0.01,0.12,-0.68,-1,-5,5,0.12,0,,,,,,,,,,,,,,,,,
92843,0,1,2,49,52,33,38,-16,0.11,0.01,-0.53,-0,4,-1,0.11,0,0,0.0,0.0,0.0,0.0,0,0,0.0,0,0.0,-1,0.0,0.0,0.0,0,0.0,1.5474
92883,0,,,,,,,,-0.07,0.01,-0.41,-0,1,-3,0.07,0,,,,,,,,,,,,,,,,,
92923,0,,,,,,,,-0.09,0.02,-0.71,2,-1,-3,0.09,0,,,,,,,,,,,,,,,,,
92963,0,,,,,,,,-0.18,0.09,-0.6,2,-5,3,0.2,0,,,,,,,,,,,,,,,,,
93003,0,,,,,,,,-0.12,0.12,-0.51,3,-12,6,0.17,0,,,,,,,,,,,,,,,,,
93043,0,-1,3,49,52,33,38,-19,0.03,0.17,-0.43,2,-16,4,0.17,0,0,0.0,0.0,0.0,0.0,0,0,0.0,0,0.0,-1,0.0,0.0,0.0,0,0.0,1.5507
93083,0,,,,,,,,0.03,0.12,-0.33,2,-11,1,0.12,0,,,,,,,,,,,,,,,,,
93123,0,,,,,,,,-0.19,0.08,-0.25,2,-9,-3,0.2,0,,,,,,,,,,,,,,,,,
93163,0,,,,,,,,-0.12,0.16,-0.22,2,-18,6,0.2,0,,,,,,,,,,,,,,,,,
93203,0,,,,,,,,0.04,0.13,0.2,1,-5,-5,0.13,0,,,,,,,,,,,,,,,,,
93243,0,1,3,48,52,33,38,-23,-0.1,0.12,-0.22,2,-13,6,0.15,0,0,0.0,0.0,0.0,0.0,0,0,0.0,0,0.0,-1,0.0,0.0,0.0,0,0.0,1.554
93283,0,,,,,,,,0.05,0.07,-0.16,1,5,-7,0.08,0,,,,,,,,,,,,,,,,,
93323,0,,,,,,,,0.12,0.17,-0.22,2,-3,4,0.2,0,,,,,,,,,,,,,,,,,
93363,0,,,,,,,,-0.15,0.12,-0.56,2,-11,7,0.19,0,,,,,,,,,,,,,,,,,
93403,0,,,,,,,,0.01,0.02,-0.07,1,5,-8,0.03,0,,,,,,,,,,,,,,,,,
93443,0,-0,2,49,52,33,38,-28,0.1,0.07,-0.08,1,-1,-2,0.12,0,0,0.0,0.0,0.0,0.0,0,0,0.0,0,0.0,-1,0.0,0.0,0.0,0,0.0,1.5574
93483,0,,,,,,,,-0.16,0.05,-0.45,1,-11,7,0.17,0,,,,,,,,,,,,,,,,,
93523,0,,,,,,,,0.06,0.03,0.02,1,6,-9,0.06,0,,,,,,,,,,,,,,,,,
93563,0,,,,,,,,-0.03,0.15,-0.37,3,-3,2,0.15,0,,,,,,,,,,,,,,,,,
93603,0,,,,,,,,-0.07,0.03,-0.28,2,-1,-2,0.08,0,,,,,,,,,,,,,,,,,
93643,0,1,1,49,52,33,37,-29,0.16,0.11,-0.24,2,9,-8,0.19,0,0,0.0,0.0,0.0,0.0,0,0,0.0,0,0.0,-1,0.0,0.0,0.0,0,0.0,1.5607
93683,0,,,,,,,,-0.09,0.13,-0.58,1,-14,8,0.16,0,,,,,,,,,,,,,,,,,
93723,0,,,,,,,,0.0,0.1,-0.09,1,2,-6,0.1,0,,,,,,,,,,,,,,,,,
93763,0,,,,,,,,-0.02,0.2,-0.37,1,-10,2,0.2,0,,,,,,,,,,,,,,,,,
93803,0,,,,,,,,-0.09,0.09,-0.28,1,-13,3,0.13,0,,,,,,,,,,,,,,,,,
93843,0,1,1,49,52,33,37,-29,0.08,0.05,0.15,1,-2,-6,0.1,0,0,0.0,0.0,0.0,0.0,0,0,0.0,0,0.0,-1,0.0,0.0,0.0,0,0.0,1.564
93883,0,,,,,,,,-0.0,0.16,-0.26,1,-19,6,0.16,0,,,,,,,,,,,,,,,,,
93923,0,,,,,,,,-0.05,0.07,-0.19,0,-4,-5,0.09,0,,,,,,,,,,,,,,,,,
93963,0,,,,,,,,-0.03,0.18,-0.17,2,-12,4,0.18,0,,,,,,,,,,,,,,,,,
94003,0,,,,,,,,0.02,0.01,-0.12,0,0,-5,0.02,0,,,,,,,,,,,,,,,,,
94043,0,1,3,49,52,33,38,-29,-0.04,0.04,-0.48,2,-6,3,0.06,0,0,0.0,0.0,0.0,0.0,0,0,0.0,0,0.0,-1,0.0,0.0,0.0,0,0.0,1.5674
94083,0,,,,,,,,0.04,0.07,-0.02,1,-3,-2,0.08,0,,,,,,,,,,,,,,,,,
94123,0,,,,,,,,-0.11,0.01,-0.07,1,-3,-4,0.11,0,,,,,,,,,,,,,,,,,
94163,0,,,,,,,,-0.04,0.06,-0.07,2,-8,4,0.07,0,,,,,,,,,,,,,,,,,
94203,0,,,,,,,,0.02,0.01,0.04,2,2,-3,0.03,0,,,,,,,,,,,,,,,,,
94243,0,-1,3,49,51,33,38,-29,-0.06,-0.06,0.05,1,4,-6,0.08,0,0,0.0,0.0,0.0,0.0,0,0,0.0,0,0.0,-1,0.0,0.0,0.0,0,0.0,1.5707
94283,0,,,,,,,,-0.05,0.01,0.02,1,-8,4,0.05,0,,,,,,,,,,,,,,,,,
94323,0,,,,,,,,0.11,0.04,0.05,1,0,-1,0.12,0,,,,,,,,,,,,,,,,,
94363,0,,,,,,,,0.16,-0.01,0.06,0,6,-5,0.16,0,,,,,,,,,,,,,,,,,
94403,0,,,,,,,,0.03,-0.05,-0.33,-1,-4,1,0.06,0,,,,,,,,,,,,,,,,,
94443,0,0,3,49,52,33,37,-35,0.08,0.02,-0.29,0,-8,6,0.08,0,0,0.0,0.0,0.0,0.0,0,0,0.0,0,0.0,-1,0.0,0.0,0.0,0,0.0,1.574
94483,0,,,,,,,,0.1,-0.02,-0.01,-0,-0,-0,0.11,0,,,,,,,,,,,,,,,,,
94523,0,,,,,,,,0.02,-0.03,0.01,0,4,-3,0.03,0,,,,,,,,,,,,,,,,,
94563,0,,,,,,,,-0.03,0.0,-0.37,2,4,1,0.03,0,,,,,,,,,,,,,,,,,
94603,0,,,,,,,,0.05,0.01,-0.32,1,1,4,0.05,0,,,,,,,,,,,,,,,,,
94643,0,1,2,48,52,33,37,-33,0.25,-0.01,0.12,2,16,-3,0.25,0,0,0.0,0.0,0.0,0.0,0,0,0.0,0,0.0,-1,0.0,0.0,0.0,0,0.0,1.5774
94683,0,,,,,,,,0.16,-0.02,0.12,2,15,-5,0.16,0,,,,,,,,,,,,,,,,,
94723,0,,,,,,,,0.15,-0.09,0.11,0,8,-2,0.17,0,,,,,,,,,,,,,,,,,
94763,0,,,,,,,,0.11,-0.03,0.07,2,3,2,0.12,0,,,,,,,,,,,,,,,,,
94803,0,,,,,,,,0.15,0.0,0.04,2,3,1,0.15,0,,,,,,,,,,,,,,,,,
94843,0,0,3,49,52,33,37,-32,0.19,0.03,0.01,1,6,-2,0.19,0,0,0.0,0.0,0.0,0.0,0,0,0.0,0,0.0,-1,0.0,0.0,0.0,0,0.0,1.5807
94883,0,,,,,,,,0.2,0.03,0.03,1,11,-7,0.21,0,,,,,,,,,,,,,,,,,
94923,0,,,,,,,,0.05,0.01,0.04,1,6,-6,0.05,0,,,,,,,,,,,,,,,,,
94963,0,,,,,,,,-0.04,0.08,-0.05,1,3,-2,0.09,0,,,,,,,,,,,,,,,,,
95003,0,,,,,,,,-0.09,0.13,-0.21,2,-3,2,0.16,0,,,,,,,,,,,,,,,,,
95043,0,0,3,49,52,33,38,-31,0.17,0.2,-0.19,3,-3,2,0.26,0,0,0.0,0.0,0.0,0.0,0,0,0.0,0,0.0,-1,0.0,0.0,0.0,0,0.0,1.584
95083,0,,,,,,,,0.08,0.25,0.23,1,-11,3,0.26,0,,,,,,,,,,,,,,,,,
95123,0,,,,,,,,0.07,0.29,-0.2,-1,-17,3,0.3,0,,,,,,,,,,,,,,,,,
95163,0,,,,,,,,0.16,0.27,-0.14,2,-3,1,0.31,0,,,,,,,,,,,,,,,,,
95203,0,,,,,,,,0.2,0.23,-0.09,3,12,1,0.3,0,,,,,,,,,,,,,,,,,
95243,0,-1,2,49,52,33,38,-30,0.18,0.08,-0.06,3,15,1,0.2,0,0,0.0,0.0,0.0,0.0,0,0,0.0,0,0.0,-1,0.0,0.0,0.0,0,0.0,1.5874
95283,0,,,,,,,,0.16,0.07,-0.03,2,10,-1,0.17,0,,,,,,,,,,,,,,,,,
95323,0,,,,,,,,0.08,0.01,-0.0,2,9,-4,0.08,0,,,,,,,,,,,,,,,,,
95363,0,,,,,,,,-0.08,0.07,-0.38,1,-4,2,0.1,0,,,,,,,,,,,,,,,,,
95403,0,,,,,,,,-0.05,0.15,-0.33,1,-12,7,0.16,0,,,,,,,,,,,,,,,,,
95443,0,1,1,49,52,33,38,-34,0.09,0.16,-0.29,2,-12,6,0.18,0,0,0.0,0.0,0.0,0.0,0,0,0.0,0,0.0,-1,0.0,0.0,0.0,0,0.0,1.5907
95483,0,,,,,,,,0.12,0.1,-0.21,2,-2,-1,0.16,0,,,,,,,,,,,,,,,,,
95523,0,,,,,,,,0.11,0.05,-0.15,2,5,-6,0.12,0,,,,,,,,,,,,,,,,,
95563,0,,,,,,,,0.05,0.04,-0.11,1,3,-4,0.06,0,,,,,,,,,,,,,,,,,
95603,0,,,,,,,,-0.04,0.07,-0.13,2,-6,2,0.08,0,,,,,,,,,,,,,,,,,
95643,0,1,2,49,52,33,38,-35,0.06,0.13,-0.12,1,-12,4,0.14,0,0,0.0,0.0,0.0,0.0,0,0,0.0,0,0.0,-1,0.0,0.0,0.0,0,0.0,1.594
95683,0,,,,,,,,0.12,0.02,-0.08,1,-0,-4,0.13,0,,,,,,,,,,,,,,,,,
95723,0,,,,,,,,-0.0,0.04,-0.45,0,-12,7,0.04,0,,,,,,,,,,,,,,,,,
95763,0,,,,,,,,0.12,0.07,0.02,1,3,-5,0.14,0,,,,,,,,,,,,,,,,,
95803,0,,,,,,,,0.05,0.17,-0.37,2,-6,5,0.17,0,,,,,,,,,,,,,,,,,
95843,0,1,3,49,52,33,37,-35,-0.07,0.06,-0.68,1,-13,10,0.09,0,0,0.0,0.0,0.0,0.0,0,0,0.0,0,0.0,-1,0.0,0.0,0.0,0,0.0,1.5974
95883,0,,,,,,,,0.03,-0.03,-0.17,1,1,-3,0.04,0,,,,,,,,,,,,,,,,,
95923,0,,,,,,,,0.17,-0.03,0.24,1,11,-13,0.17,0,,,,,,,,,,,,,,,,,
95963,0,,,,,,,,0.23,0.05,0.58,1,17,-16,0.23,0,,,,,,,,,,,,,,,,,
96003,0,,,,,,,,0.26,0.11,0.85,1,19,-15,0.28,0,,,,,,,,,,,,,,,,,
96043,0,1,3,49,52,33,37,-35,0.26,0.08,1.06,1,24,-20,0.28,0,0,0.0,0.0,0.0,0.0,0,0,0.0,0,0.0,-1,0.0,0.0,0.0,0,0.0,1.6007
96083,0,,,,,,,,0.29,0.04,1.24,1,31,-25,0.3,0,,,,,,,,,,,,,,,,,
96123,0,,,,,,,,0.32,0.01,1.39,1,33,-28,0.32,0,,,,,,,,,,,,,,,,,
96163,0,,,,,,,,0.42,-0.06,1.5,1,35,-33,0.42,0,,,,,,,,,,,,,,,,,
96203,0,,,,,,,,0.35,-0.04,1.25,1,27,-27,0.36,0,,,,,,,,,,,,,,,,,
96243,0,1,2,49,52,33,38,-36,0.22,0.06,0.64,1,16,-14,0.23,0,0,0.0,0.0,0.0,0.0,0,0,0.0,0,0.0,-1,0.0,0.0,0.0,0,0.0,1.604
96283,0,,,,,,,,0.22,-0.02,0.49,1,17,-18,0.22,0,,,,,,,,,,,,,,,,,
96323,0,,,,,,,,0.24,-0.03,0.42,1,10,-11,0.24,0,,,,,,,,,,,,,,,,,
96363,0,,,,,,,,0.21,-0.07,0.36,1,6,-6,0.22,0,,,,,,,,,,,,,,,,,
96403,0,,,,,,,,0.18,-0.06,0.31,1,4,-7,0.2,0,,,,,,,,,,,,,,,,,
96443,0,1,2,49,52,33,38,-41,0.15,-0.03,0.25,1,0,-2,0.15,0,0,0.0,0.0,0.0,0.0,0,0,0.0,0,0.0,-1,0.0,0.0,0.0,0,0.0,1.6074
96483,0,,,,,,,,0.11,-0.11,-0.18,1,5,2,0.16,0,,,,,,,,,,,,,,,,,
96523,0,,,,,,,,0.14,-0.18,-0.53,2,9,4,0.23,0,,,,,,,,,,,,,,,,,
96563,0,,,,,,,,0.16,-0.16,-0.81,2,10,8,0.23,0,,,,,,,,,,,,,,,,,
96603,0,,,,,,,,0.28,-0.07,-0.27,2,18,4,0.29,0,,,,,,,,,,,,,,,,,
96643,0,1,2,49,52,33,38,-50,0.07,-0.09,-0.42,3,15,5,0.12,0,0,0.0,0.0,0.0,0.0,0,0,0.0,0,0.0,-1,0.0,0.0,0.0,0,0.0,1.6107
96683,0,,,,,,,,0.14,0.05,-0.16,3,9,2,0.15,0,,,,,,,,,,,,,,,,,
96723,0,,,,,,,,0.18,-0.0,-0.11,3,11,0,0.18,0,,,,,,,,,,,,,,,,,
96763,0,,,,,,,,0.07,0.02,-0.11,3,9,2,0.07,0,,,,,,,,,,,,,,,,,
96803,0,,,,,,,,0.11,0.03,-0.11,3,5,3,0.12,0,,,,,,,,,,,,,,,,,
96843,0,-1,3,49,52,33,38,-57,0.18,0.03,0.29,4,9,-1,0.18,0,0,0.0,0.0,0.0,0.0,0,0,0.0,0,0.0,-1,0.0,0.0,0.0,0,0.0,1.614
96883,0,,,,,,,,0.09,0.01,0.25,4,4,2,0.09,0,,,,,,,,,,,,,,,,,
96923,0,,,,,,,,0.16,-0.04,0.26,5,5,2,0.16,0,,,,,,,,,,,,,,,,,
96963,0,,,,,,,,0.11,-0.01,0.19,6,5,3,0.11,0,,,,,,,,,,,,,,,,,
97003,0,,,,,,,,0.1,0.0,0.54,6,1,3,0.1,0,,,,,,,,,,,,,,,,,
97043,0,1,6,49,52,33,37,-64,0.22,0.02,0.66,6,4,-1,0.22,0,0,0.0,0.0,0.0,0.0,0,0,0.0,0,0.0,-1,0.0,0.0,0.0,0,0.0,1.6174
97083,0,,,,,,,,0.1,-0.01,0.56,6,-0,1,0.1,0,,,,,,,,,,,,,,,,,
97123,0,,,,,,,,0.13,-0.07,0.47,7,-1,1,0.15,0,,,,,,,,,,,,,,,,,
97163,0,,,,,,,,0.09,-0.01,0.36,7,-2,2,0.09,0,,,,,,,,,,,,,,,,,
97203,0,,,,,,,,0.12,-0.02,0.27,8,-6,5,0.12,0,,,,,,,,,,,,,,,,,
