"Interval"|"ms"|0|0|1,"Utc"|"ms"|0|0|1,"Brake_F"|"Bar"|0|2000|10,"Brake_R"|"Bar"|0|2000|10,"Height_RF"|"mm"|0|255|10,"Height_LF"|"mm"|0|255|10,"Height_LR"|"mm"|0|80|10,"Height_RR"|"mm"|0|255|10,"Steering"|"deg"|-100|100|10,"AccelX"|"G"|-3.0|3.0|25,"AccelY"|"G"|-3.0|3.0|25,"AccelZ"|"G"|-3.0|3.0|25,"Yaw"|"Deg/Sec"|-120|120|25,"Pitch"|"Deg/Sec"|-120|120|25,"Roll"|"Deg/Sec"|-120|120|25,"Gsum"|"G"|0.0|3.0|25,"Unknown"|""|0|1024|25,"Log_Button"|""|0.0|10.0|10,"Latitude"|"Degrees"|-180.0|180.0|10,"Longitude"|"Degrees"|-180.0|180.0|10,"Speed"|"kph"|0.0|150.0|10,"Altitude"|"m"|0.0|4000.0|10,"GPSSats"|""|0|20|10,"GPSQual"|""|0|5|10,"GPSDOP"|""|0.0|20.0|10,"LapCount"|""|0|0|10,"LapTime"|"Min"|0.0|0.0|10,"Sector"|""|0|0|10,"SectorTime"|"Min"|0.0|0.0|10,"PredTime"|"Min"|0.0|0.0|5,"ElapsedTime"|"Min"|0.0|0.0|10,"CurrentLap"|""|0|0|10,"Distance"|"km"|0.0|0.0|10,"SessionTime"|"Min"|0.0|0.0|10
50083,0,,,,,,,,0.07,-0.05,-0.1,1,6,2,0.09,0,,,,,,,,,,,,,,,,,
50123,0,,,,,,,,-0.27,-0.13,-0.46,1,-23,13,0.3,0,,,,,,,,,,,,,,,,,
50163,0,,,,,,,,-0.48,-0.22,-0.7,1,-28,13,0.53,0,,,,,,,,,,,,,,,,,
50203,0,,,,,,,,-0.39,-0.14,-0.52,1,-22,10,0.41,0,,,,,,,,,,,,,,,,,
50243,0,0,1,48,51,33,38,-4,-0.33,-0.12,-0.26,1,-18,8,0.35,0,1,0.0,0.0,0.0,0.0,0,0,0.0,0,0.0,-1,0.0,0.0,0.0,0,0.0,0.8374
50283,0,,,,,,,,-0.09,-0.1,0.08,0,-10,5,0.14,0,,,,,,,,,,,,,,,,,
50323,0,,,,,,,,-0.31,-0.08,0.28,0,-15,6,0.32,0,,,,,,,,,,,,,,,,,
50363,0,,,,,,,,0.09,-0.03,0.38,0,-5,3,0.1,0,,,,,,,,,,,,,,,,,
50403,0,,,,,,,,-0.1,-0.09,0.39,0,6,2,0.13,0,,,,,,,,,,,,,,,,,
50443,0,-1,2,48,51,33,38,-5,-0.41,0.0,0.62,1,-20,6,0.41,0,1,0.0,0.0,0.0,0.0,0,0,0.0,0,0.0,-1,0.0,0.0,0.0,0,0.0,0.8407
50483,0,,,,,,,,-0.02,0.08,0.26,1,-17,5,0.08,0,,,,,,,,,,,,,,,,,
50523,0,,,,,,,,0.02,0.02,0.06,1,2,3,0.02,0,,,,,,,,,,,,,,,,,
50563,0,,,,,,,,-0.18,0.03,0.14,1,-14,6,0.18,0,,,,,,,,,,,,,,,,,
50603,0,,,,,,,,0.11,0.05,0.18,1,-2,3,0.12,0,,,,,,,,,,,,,,,,,
50643,0,0,2,48,51,33,38,-5,-0.11,0.05,0.39,1,-9,3,0.12,0,1,0.0,0.0,0.0,0.0,0,0,0.0,0,0.0,-1,0.0,0.0,0.0,0,0.0,0.844
50683,0,,,,,,,,0.02,0.05,0.49,1,-3,1,0.06,0,,,,,,,,,,,,,,,,,
50723,0,,,,,,,,0.09,0.04,0.75,1,-2,-0,0.1,0,,,,,,,,,,,,,,,,,
50763,0,,,,,,,,0.13,-0.0,0.81,1,-1,0,0.13,0,,,,,,,,,,,,,,,,,
50803,0,,,,,,,,0.0,0.01,0.7,1,-1,0,0.01,0,,,,,,,,,,,,,,,,,
50843,0,1,0,48,51,33,38,-4,0.06,0.08,0.71,1,-8,3,0.1,0,0,0.0,0.0,0.0,0.0,0,0,0.0,0,0.0,-1,0.0,0.0,0.0,0,0.0,0.8474
50883,0,,,,,,,,-0.02,-0.01,0.59,0,2,-3,0.03,0,,,,,,,,,,,,,,,,,
50923,0,,,,,,,,0.34,0.07,0.86,1,13,-6,0.35,0,,,,,,,,,,,,,,,,,
50963,0,,,,,,,,0.66,0.15,1.07,1,22,-8,0.68,0,,,,,,,,,,,,,,,,,
51003,0,,,,,,,,0.33,0.06,0.85,1,24,-10,0.33,0,,,,,,,,,,,,,,,,,
51043,0,1,1,48,51,33,38,-4,0.25,0.01,0.67,1,25,-11,0.25,0,0,0.0,0.0,0.0,0.0,0,0,0.0,0,0.0,-1,0.0,0.0,0.0,0,0.0,0.8507
51083,0,,,,,,,,0.3,0.08,0.52,1,2,5,0.31,0,,,,,,,,,,,,,,,,,
51123,0,,,,,,,,0.01,-0.03,0.04,1,8,-4,0.03,0,,,,,,,,,,,,,,,,,
51163,0,,,,,,,,0.07,-0.12,0.41,1,25,-23,0.14,0,,,,,,,,,,,,,,,,,
51203,0,,,,,,,,-0.03,-0.18,0.49,0,32,-34,0.19,0,,,,,,,,,,,,,,,,,
51243,0,-1,2,48,51,33,38,-5,-0.05,-0.23,0.68,-0,46,-45,0.23,0,0,0.0,0.0,0.0,0.0,0,0,0.0,0,0.0,-1,0.0,0.0,0.0,0,0.0,0.854
51283,0,,,,,,,,0.26,-0.24,0.93,-1,56,-50,0.35,0,,,,,,,,,,,,,,,,,
51323,0,,,,,,,,0.08,-0.11,0.37,0,36,-31,0.13,0,,,,,,,,,,,,,,,,,
51363,0,,,,,,,,0.04,-0.09,0.28,2,27,-24,0.1,0,,,,,,,,,,,,,,,,,
51403,0,,,,,,,,0.17,-0.02,0.21,2,20,-21,0.17,0,,,,,,,,,,,,,,,,,
51443,0,1,1,48,51,33,38,-4,0.31,0.02,0.5,2,22,-24,0.31,0,0,0.0,0.0,0.0,0.0,0,0,0.0,0,0.0,-1,0.0,0.0,0.0,0,0.0,0.8574
51483,0,,,,,,,,0.27,-0.02,0.43,1,28,-25,0.27,0,,,,,,,,,,,,,,,,,
51523,0,,,,,,,,0.02,-0.05,0.36,0,18,-18,0.05,0,,,,,,,,,,,,,,,,,
51563,0,,,,,,,,0.04,0.03,0.28,2,5,-6,0.05,0,,,,,,,,,,,,,,,,,
51603,0,,,,,,,,0.2,0.18,0.2,2,6,-11,0.27,0,,,,,,,,,,,,,,,,,
51643,0,-1,2,48,51,33,38,-5,0.26,0.04,0.18,1,10,-10,0.26,0,0,0.0,0.0,0.0,0.0,0,0,0.0,0,0.0,-1,0.0,0.0,0.0,0,0.0,0.8607
51683,0,,,,,,,,0.23,0.07,0.17,1,9,-10,0.24,0,,,,,,,,,,,,,,,,,
51723,0,,,,,,,,0.18,0.06,0.16,1,6,-12,0.19,0,,,,,,,,,,,,,,,,,
51763,0,,,,,,,,0.04,0.14,0.15,1,-0,-13,0.15,0,,,,,,,,,,,,,,,,,
51803,0,,,,,,,,-0.05,0.28,0.14,1,-2,-14,0.29,0,,,,,,,,,,,,,,,,,
51843,0,0,1,48,51,33,38,-5,-0.01,0.28,0.13,2,4,-16,0.28,0,0,0.0,0.0,0.0,0.0,0,0,0.0,0,0.0,-1,0.0,0.0,0.0,0,0.0,0.864
51883,0,,,,,,,,-0.08,0.26,0.13,1,-5,-13,0.27,0,,,,,,,,,,,,,,,,,
51923,0,,,,,,,,-0.05,0.31,0.12,-0,-14,-8,0.32,0,,,,,,,,,,,,,,,,,
51963,0,,,,,,,,-0.22,0.22,-0.28,3,-19,1,0.31,0,,,,,,,,,,,,,,,,,
52003,0,,,,,,,,-0.27,0.24,-0.25,2,-18,-4,0.36,0,,,,,,,,,,,,,,,,,
52043,0,-1,2,48,51,33,38,-4,-0.01,0.27,-0.18,2,-9,-5,0.27,0,0,0.0,0.0,0.0,0.0,0,0,0.0,0,0.0,-1,0.0,0.0,0.0,0,0.0,0.8674
52083,0,,,,,,,,-0.09,0.16,-0.17,2,7,-9,0.18,0,,,,,,,,,,,,,,,,,
52123,0,,,,,,,,-0.35,0.05,-0.46,1,-2,-4,0.35,0,,,,,,,,,,,,,,,,,
52163,0,,,,,,,,-0.05,0.07,0.01,1,10,-10,0.09,0,,,,,,,,,,,,,,,,,
52203,0,,,,,,,,-0.01,0.08,0.23,1,10,-9,0.08,0,,,,,,,,,,,,,,,,,
52243,0,-1,2,48,51,33,38,-4,0.05,0.07,0.27,1,9,-6,0.09,0,0,0.0,0.0,0.0,0.0,0,0,0.0,0,0.0,-1,0.0,0.0,0.0,0,0.0,0.8707
52283,0,,,,,,,,-0.01,0.05,0.28,1,5,-4,0.05,0,,,,,,,,,,,,,,,,,
52323,0,,,,,,,,-0.04,0.03,0.42,1,6,-4,0.06,0,,,,,,,,,,,,,,,,,
52363,0,,,,,,,,0.24,0.05,0.61,1,3,-3,0.24,0,,,,,,,,,,,,,,,,,
52403,0,,,,,,,,-0.05,0.03,0.59,1,3,-2,0.06,0,,,,,,,,,,,,,,,,,
52443,0,-0,2,48,51,33,38,-5,0.13,0.02,0.76,1,3,-3,0.13,0,0,0.0,0.0,0.0,0.0,0,0,0.0,0,0.0,-1,0.0,0.0,0.0,0,0.0,0.874
52483,0,,,,,,,,0.08,0.03,0.8,1,0,-1,0.09,0,,,,,,,,,,,,,,,,,
52523,0,,,,,,,,0.01,0.03,0.88,1,-1,-1,0.03,0,,,,,,,,,,,,,,,,,
52563,0,,,,,,,,0.01,0.05,0.77,1,-1,-0,0.06,0,,,,,,,,,,,,,,,,,
52603,0,,,,,,,,0.05,0.1,0.85,1,-2,0,0.11,0,,,,,,,,,,,,,,,,,
52643,0,-1,2,48,51,33,38,-5,0.16,0.06,0.85,1,1,-1,0.17,0,0,0.0,0.0,0.0,0.0,0,0,0.0,0,0.0,-1,0.0,0.0,0.0,0,0.0,0.8774
52683,0,,,,,,,,0.01,0.0,0.68,1,4,-2,0.01,0,,,,,,,,,,,,,,,,,
52723,0,,,,,,,,0.11,0.1,0.82,1,-2,1,0.15,0,,,,,,,,,,,,,,,,,
52763,0,,,,,,,,-0.24,-0.01,0.28,1,-7,3,0.24,0,,,,,,,,,,,,,,,,,
52803,0,,,,,,,,-0.32,-0.09,0.42,0,14,-10,0.33,0,,,,,,,,,,,,,,,,,
52843,0,0,2,48,51,33,38,-4,-0.5,-0.13,0.32,-0,32,-19,0.52,0,0,0.0,0.0,0.0,0.0,0,0,0.0,0,0.0,-1,0.0,0.0,0.0,0,0.0,0.8807
52883,0,,,,,,,,-0.77,-0.13,-0.12,1,9,-8,0.78,0,,,,,,,,,,,,,,,,,
52923,0,,,,,,,,-0.33,-0.09,0.28,-0,10,-11,0.34,0,,,,,,,,,,,,,,,,,
52963,0,,,,,,,,-0.21,-0.03,0.25,-0,6,-5,0.21,0,,,,,,,,,,,,,,,,,
53003,0,,,,,,,,-0.27,-0.06,0.22,-0,7,-10,0.27,0,,,,,,,,,,,,,,,,,
53043,0,-1,3,48,51,33,38,-5,-0.19,0.01,0.16,-0,-11,5,0.19,0,0,0.0,0.0,0.0,0.0,0,0,0.0,0,0.0,-1,0.0,0.0,0.0,0,0.0,0.884
53083,0,,,,,,,,-0.5,-0.0,-0.25,-0,-13,12,0.5,0,,,,,,,,,,,,,,,,,
53123,0,,,,,,,,-0.38,0.03,-0.18,-1,7,-1,0.38,0,,,,,,,,,,,,,,,,,
53163,0,,,,,,,,0.0,0.08,0.23,-0,34,-23,0.08,0,,,,,,,,,,,,,,,,,
53203,0,,,,,,,,0.16,0.16,0.17,0,23,-13,0.23,0,,,,,,,,,,,,,,,,,
53243,0,1,2,48,51,33,38,-5,-0.18,0.16,-0.25,-0,-9,6,0.24,0,0,0.0,0.0,0.0,0.0,0,0,0.0,0,0.0,-1,0.0,0.0,0.0,0,0.0,0.8874
53283,0,,,,,,,,0.06,0.04,-0.16,-1,11,-14,0.07,0,,,,,,,,,,,,,,,,,
53323,0,,,,,,,,0.01,0.17,-0.15,1,-10,2,0.17,0,,,,,,,,,,,,,,,,,
53363,0,,,,,,,,0.0,0.1,-0.1,1,-1,-8,0.1,0,,,,,,,,,,,,,,,,,
53403,0,,,,,,,,-0.12,0.16,-0.1,1,-19,5,0.2,0,,,,,,,,,,,,,,,,,
53443,0,-1,2,48,51,33,38,-4,0.11,0.18,0.3,0,-5,-3,0.21,0,0,0.0,0.0,0.0,0.0,0,0,0.0,0,0.0,-1,0.0,0.0,0.0,0,0.0,0.8907
53483,0,,,,,,,,-0.0,0.24,0.26,1,-1,-6,0.24,0,,,,,,,,,,,,,,,,,
53523,0,,,,,,,,-0.14,0.23,0.06,1,-20,3,0.27,0,,,,,,,,,,,,,,,,,
53563,0,,,,,,,,-0.13,0.21,0.03,0,-21,6,0.25,0,,,,,,,,,,,,,,,,,
53603,0,,,,,,,,-0.02,0.3,0.01,1,-3,4,0.3,0,,,,,,,,,,,,,,,,,
53643,0,0,3,48,51,33,38,-4,0.12,0.3,0.02,3,8,-1,0.32,0,0,0.0,0.0,0.0,0.0,0,0,0.0,0,0.0,-1,0.0,0.0,0.0,0,0.0,0.894
53683,0,,,,,,,,-0.27,0.12,-0.36,2,-11,10,0.3,0,,,,,,,,,,,,,,,,,
53723,0,,,,,,,,0.08,0.18,0.09,3,8,-2,0.2,0,,,,,,,,,,,,,,,,,
53763,0,,,,,,,,0.38,0.24,0.45,2,25,-13,0.45,0,,,,,,,,,,,,,,,,,
53803,0,,,,,,,,0.38,0.23,0.44,2,22,-11,0.44,0,,,,,,,,,,,,,,,,,
53843,0,-1,2,48,51,33,38,-5,0.31,0.15,0.43,2,15,-7,0.34,0,0,0.0,0.0,0.0,0.0,0,0,0.0,0,0.0,-1,0.0,0.0,0.0,0,0.0,0.8974
53883,0,,,,,,,,0.26,0.11,0.5,1,12,-6,0.28,0,,,,,,,,,,,,,,,,,
53923,0,,,,,,,,0.2,0.1,0.65,1,8,-5,0.23,0,,,,,,,,,,,,,,,,,
53963,0,,,,,,,,0.29,0.1,0.68,1,13,-6,0.31,0,,,,,,,,,,,,,,,,,
54003,0,,,,,,,,0.14,0.09,0.76,1,4,-3,0.16,0,,,,,,,,,,,,,,,,,
54043,0,1,0,48,51,33,38,-5,0.2,0.02,0.77,1,10,-4,0.2,0,0,0.0,0.0,0.0,0.0,0,0,0.0,0,0.0,-1,0.0,0.0,0.0,0,0.0,0.9007
54083,0,,,,,,,,0.18,0.07,0.9,1,3,-2,0.19,0,,,,,,,,,,,,,,,,,
54123,0,,,,,,,,0.07,0.03,0.83,1,7,-3,0.08,0,,,,,,,,,,,,,,,,,
54163,0,,,,,,,,0.2,0.05,1.05,1,5,-3,0.21,0,,,,,,,,,,,,,,,,,
54203,0,,,,,,,,0.17,0.06,0.87,1,1,-1,0.18,0,,,,,,,,,,,,,,,,,
54243,0,-1,2,48,51,33,38,-4,0.11,0.03,0.91,1,1,-1,0.11,0,0,0.0,0.0,0.0,0.0,0,0,0.0,0,0.0,-1,0.0,0.0,0.0,0,0.0,0.904
54283,0,,,,,,,,0.12,0.01,1.04,1,0,-1,0.12,0,,,,,,,,,,,,,,,,,
54323,0,,,,,,,,0.14,-0.02,0.99,1,2,-2,0.14,0,,,,,,,,,,,,,,,,,
54363,0,,,,,,,,0.12,-0.06,0.82,1,4,-3,0.14,0,,,,,,,,,,,,,,,,,
54403,0,,,,,,,,-0.05,-0.01,0.64,1,-2,1,0.05,0,,,,,,,,,,,,,,,,,
54443,0,-1,4,48,51,33,38,-5,0.08,-0.05,0.68,0,10,-6,0.1,0,0,0.0,0.0,0.0,0.0,0,0,0.0,0,0.0,-1,0.0,0.0,0.0,0,0.0,0.9074
54483,0,,,,,,,,0.43,0.12,0.93,1,14,-7,0.45,0,,,,,,,,,,,,,,,,,
54523,0,,,,,,,,0.73,0.18,1.13,2,10,-3,0.75,0,,,,,,,,,,,,,,,,,
54563,0,,,,,,,,0.78,0.07,1.3,2,29,-15,0.78,0,,,,,,,,,,,,,,,,,
54603,0,,,,,,,,0.65,0.14,0.67,0,7,-5,0.67,0,,,,,,,,,,,,,,,,,
54643,0,0,3,48,51,33,38,-4,0.57,0.21,0.22,2,14,-6,0.61,0,0,0.0,0.0,0.0,0.0,0,0,0.0,0,0.0,-1,0.0,0.0,0.0,0,0.0,0.9107
54683,0,,,,,,,,0.36,0.08,0.2,2,16,-12,0.37,0,,,,,,,,,,,,,,,,,
54723,0,,,,,,,,0.67,0.08,0.54,1,31,-15,0.67,0,,,,,,,,,,,,,,,,,
54763,0,,,,,,,,0.62,0.18,0.61,1,19,-6,0.65,0,,,,,,,,,,,,,,,,,
54803,0,,,,,,,,0.51,0.21,0.11,1,-1,8,0.55,0,,,,,,,,,,,,,,,,,
54843,0,-0,2,48,51,33,38,-5,0.14,0.15,-0.29,1,-16,19,0.21,0,0,0.0,0.0,0.0,0.0,0,0,0.0,0,0.0,-1,0.0,0.0,0.0,0,0.0,0.914
54883,0,,,,,,,,0.33,0.1,0.14,1,6,2,0.34,0,,,,,,,,,,,,,,,,,
54923,0,,,,,,,,0.19,0.2,-0.26,1,-13,16,0.28,0,,,,,,,,,,,,,,,,,
54963,0,,,,,,,,0.28,0.2,-0.19,0,12,1,0.34,0,,,,,,,,,,,,,,,,,
55003,0,,,,,,,,0.25,0.21,-0.18,1,0,13,0.32,0,,,,,,,,,,,,,,,,,
55043,0,0,2,48,51,33,38,-5,0.21,0.1,-0.12,1,9,-1,0.24,0,0,0.0,0.0,0.0,0.0,0,0,0.0,0,0.0,-1,0.0,0.0,0.0,0,0.0,0.9174
55083,0,,,,,,,,0.11,0.18,-0.12,1,-6,11,0.21,0,,,,,,,,,,,,,,,,,
55123,0,,,,,,,,0.29,0.16,0.28,1,12,-1,0.33,0,,,,,,,,,,,,,,,,,
55163,0,,,,,,,,0.09,0.09,0.25,1,6,3,0.13,0,,,,,,,,,,,,,,,,,
55203,0,,,,,,,,0.01,0.19,0.18,1,-7,10,0.19,0,,,,,,,,,,,,,,,,,
55243,0,0,1,48,51,33,38,-5,-0.02,0.21,0.12,1,-7,10,0.21,0,0,0.0,0.0,0.0,0.0,0,0,0.0,0,0.0,-1,0.0,0.0,0.0,0,0.0,0.9207
55283,0,,,,,,,,-0.01,0.21,0.08,2,-4,5,0.21,0,,,,,,,,,,,,,,,,,
55323,0,,,,,,,,-0.07,0.16,0.04,2,-8,3,0.17,0,,,,,,,,,,,,,,,,,
55363,0,,,,,,,,-0.08,0.16,0.02,2,-3,-4,0.18,0,,,,,,,,,,,,,,,,,
55403,0,,,,,,,,0.19,0.19,0.03,2,9,-10,0.27,0,,,,,,,,,,,,,,,,,
55443,0,0,2,48,51,33,38,-5,-0.01,0.03,-0.01,1,5,-6,0.03,0,0,0.0,0.0,0.0,0.0,0,0,0.0,0,0.0,-1,0.0,0.0,0.0,0,0.0,0.924
55483,0,,,,,,,,-0.33,-0.09,-0.39,1,-7,2,0.34,0,,,,,,,,,,,,,,,,,
55523,0,,,,,,,,-0.1,-0.05,0.02,1,3,-4,0.11,0,,,,,,,,,,,,,,,,,
55563,0,,,,,,,,-0.13,-0.0,0.25,1,5,-4,0.13,0,,,,,,,,,,,,,,,,,
55603,0,,,,,,,,-0.01,-0.02,0.42,1,5,-3,0.03,0,,,,,,,,,,,,,,,,,
55643,0,0,0,48,51,33,38,-5,0.08,-0.03,0.49,1,-2,-0,0.08,0,0,0.0,0.0,0.0,0.0,0,0,0.0,0,0.0,-1,0.0,0.0,0.0,0,0.0,0.9274
55683,0,,,,,,,,-0.07,-0.05,0.64,1,6,-2,0.09,0,,,,,,,,,,,,,,,,,
55723,0,,,,,,,,0.14,0.01,0.84,1,-0,-1,0.14,0,,,,,,,,,,,,,,,,,
55763,0,,,,,,,,-0.06,-0.04,0.75,1,7,-2,0.08,0,,,,,,,,,,,,,,,,,
55803,0,,,,,,,,0.11,0.02,0.8,1,-2,0,0.11,0,,,,,,,,,,,,,,,,,
55843,0,-0,2,48,51,33,38,-5,0.02,-0.04,0.65,1,7,-2,0.04,0,0,0.0,0.0,0.0,0.0,0,0,0.0,0,0.0,-1,0.0,0.0,0.0,0,0.0,0.9307
55883,0,,,,,,,,0.12,-0.01,0.88,1,-0,-0,0.12,0,,,,,,,,,,,,,,,,,
55923,0,,,,,,,,-0.03,-0.04,0.75,1,-1,0,0.05,0,,,,,,,,,,,,,,,,,
55963,0,,,,,,,,-0.01,-0.03,0.68,1,0,-0,0.03,0,,,,,,,,,,,,,,,,,
56003,0,,,,,,,,0.01,-0.04,0.76,1,1,-0,0.04,0,,,,,,,,,,,,,,,,,
56043,0,0,2,48,51,33,38,-4,-0.06,-0.02,0.74,1,-2,1,0.06,0,0,0.0,0.0,0.0,0.0,0,0,0.0,0,0.0,-1,0.0,0.0,0.0,0,0.0,0.934
56083,0,,,,,,,,0.01,0.02,0.58,1,-5,2,0.02,0,,,,,,,,,,,,,,,,,
56123,0,,,,,,,,0.14,0.02,0.78,1,2,-2,0.14,0,,,,,,,,,,,,,,,,,
56163,0,,,,,,,,-0.04,-0.05,0.36,1,-6,3,0.06,0,,,,,,,,,,,,,,,,,
56203,0,,,,,,,,-0.15,-0.14,0.27,0,1,-3,0.21,0,,,,,,,,,,,,,,,,,
56243,0,-1,2,48,51,33,38,-4,-0.02,-0.14,0.6,-0,21,-16,0.14,0,0,0.0,0.0,0.0,0.0,0,0,0.0,0,0.0,-1,0.0,0.0,0.0,0,0.0,0.9374
56283,0,,,,,,,,-0.28,-0.23,0.11,-0,13,-10,0.36,0,,,,,,,,,,,,,,,,,
56323,0,,,,,,,,-0.1,-0.09,0.1,-1,16,-13,0.14,0,,,,,,,,,,,,,,,,,
56363,0,,,,,,,,-0.06,0.04,0.1,-1,10,-13,0.07,0,,,,,,,,,,,,,,,,,
56403,0,,,,,,,,-0.15,0.04,-0.3,-1,-10,2,0.16,0,,,,,,,,,,,,,,,,,
56443,0,-0,3,48,51,33,38,-4,-0.0,-0.09,-0.19,-1,7,-16,0.09,0,0,0.0,0.0,0.0,0.0,0,0,0.0,0,0.0,-1,0.0,0.0,0.0,0,0.0,0.9407
56483,0,,,,,,,,0.2,-0.11,0.22,-1,24,-32,0.22,0,,,,,,,,,,,,,,,,,
56523,0,,,,,,,,0.41,-0.21,0.56,-1,36,-44,0.46,0,,,,,,,,,,,,,,,,,
56563,0,,,,,,,,0.54,-0.13,0.64,-1,33,-37,0.55,0,,,,,,,,,,,,,,,,,
56603,0,,,,,,,,0.32,-0.22,0.54,-0,24,-25,0.38,0,,,,,,,,,,,,,,,,,
56643,0,1,1,48,51,33,38,-4,0.34,-0.19,0.41,0,13,-14,0.39,0,0,0.0,0.0,0.0,0.0,0,0,0.0,0,0.0,-1,0.0,0.0,0.0,0,0.0,0.944
56683,0,,,,,,,,0.27,-0.15,0.35,-0,23,-21,0.31,0,,,,,,,,,,,,,,,,,
56723,0,,,,,,,,0.17,-0.04,-0.03,1,5,-5,0.18,0,,,,,,,,,,,,,,,,,
56763,0,,,,,,,,0.21,-0.08,0.23,2,18,-18,0.23,0,,,,,,,,,,,,,,,,,
56803,0,,,,,,,,0.03,-0.09,-0.2,1,5,-5,0.1,0,,,,,,,,,,,,,,,,,
56843,0,1,1,48,51,33,38,-4,0.18,-0.04,-0.18,1,11,-6,0.19,0,0,0.0,0.0,0.0,0.0,0,0,0.0,0,0.0,-1,0.0,0.0,0.0,0,0.0,0.9474
56883,0,,,,,,,,0.3,-0.03,-0.02,0,21,-10,0.3,0,,,,,,,,,,,,,,,,,
56923,0,,,,,,,,0.18,0.01,0.0,-1,10,-10,0.18,0,,,,,,,,,,,,,,,,,
56963,0,,,,,,,,-0.06,0.04,0.02,-1,-0,-6,0.07,0,,,,,,,,,,,,,,,,,
57003,0,,,,,,,,-0.17,0.05,-0.28,-0,-7,-2,0.17,0,,,,,,,,,,,,,,,,,
57043,0,1,2,48,51,33,38,-4,-0.16,0.17,-0.32,-1,-8,2,0.23,0,0,0.0,0.0,0.0,0.0,0,0,0.0,0,0.0,-1,0.0,0.0,0.0,0,0.0,0.9507
57083,0,,,,,,,,-0.15,0.16,-0.47,-1,-7,4,0.22,0,,,,,,,,,,,,,,,,,
57123,0,,,,,,,,-0.05,0.17,-0.36,-2,-3,6,0.18,0,,,,,,,,,,,,,,,,,
57163,0,,,,,,,,-0.06,0.13,-0.31,-2,6,1,0.14,0,,,,,,,,,,,,,,,,,
57203,0,,,,,,,,-0.06,0.2,-0.23,-2,5,-1,0.21,0,,,,,,,,,,,,,,,,,
57243,0,1,2,48,51,33,38,-4,-0.03,0.21,-0.17,-1,-12,8,0.21,0,0,0.0,0.0,0.0,0.0,0,0,0.0,0,0.0,-1,0.0,0.0,0.0,0,0.0,0.954
57283,0,,,,,,,,-0.3,0.16,-0.52,-1,-5,4,0.34,0,,,,,,,,,,,,,,,,,
57323,0,,,,,,,,0.06,0.25,-0.04,-2,-0,2,0.25,0,,,,,,,,,,,,,,,,,
57363,0,,,,,,,,-0.3,0.03,-0.41,-2,11,-6,0.3,0,,,,,,,,,,,,,,,,,
57403,0,,,,,,,,-0.49,-0.16,-0.72,-1,14,-9,0.51,0,,,,,,,,,,,,,,,,,
57443,0,-1,1,48,51,33,38,-5,-0.2,-0.1,-0.2,-1,18,-13,0.23,0,0,0.0,0.0,0.0,0.0,0,0,0.0,0,0.0,-1,0.0,0.0,0.0,0,0.0,0.9574
57483,0,,,,,,,,-0.09,-0.1,0.09,-1,17,-11,0.13,0,,,,,,,,,,,,,,,,,
57523,0,,,,,,,,-0.06,-0.05,0.24,-1,11,-7,0.07,0,,,,,,,,,,,,,,,,,
57563,0,,,,,,,,-0.18,-0.05,0.36,-0,4,-5,0.19,0,,,,,,,,,,,,,,,,,
57603,0,,,,,,,,-0.03,-0.05,0.4,-0,10,-6,0.06,0,,,,,,,,,,,,,,,,,
57643,0,1,2,48,51,33,38,-5,-0.09,-0.01,0.63,-0,0,-3,0.09,0,0,0.0,0.0,0.0,0.0,0,0,0.0,0,0.0,-1,0.0,0.0,0.0,0,0.0,0.9607
57683,0,,,,,,,,0.01,-0.04,0.66,0,8,-4,0.04,0,,,,,,,,,,,,,,,,,
57723,0,,,,,,,,-0.09,-0.05,0.74,0,-2,-1,0.1,0,,,,,,,,,,,,,,,,,
57763,0,,,,,,,,0.11,-0.08,0.63,0,6,-2,0.13,0,,,,,,,,,,,,,,,,,
57803,0,,,,,,,,-0.08,-0.06,0.78,0,0,-1,0.1,0,,,,,,,,,,,,,,,,,
57843,0,0,1,48,51,33,38,-5,0.04,-0.05,0.79,0,5,-2,0.07,0,0,0.0,0.0,0.0,0.0,0,0,0.0,0,0.0,-1,0.0,0.0,0.0,0,0.0,0.964
57883,0,,,,,,,,0.08,-0.01,0.98,0,2,-1,0.08,0,,,,,,,,,,,,,,,,,
57923,0,,,,,,,,-0.01,-0.01,0.93,0,-1,-1,0.01,0,,,,,,,,,,,,,,,,,
57963,0,,,,,,,,0.02,-0.02,0.95,0,-1,-1,0.02,0,,,,,,,,,,,,,,,,,
58003,0,,,,,,,,0.09,-0.02,0.97,0,0,-1,0.09,0,,,,,,,,,,,,,,,,,
58043,0,0,2,48,51,33,38,-4,0.09,-0.04,0.83,0,4,-2,0.1,0,0,0.0,0.0,0.0,0.0,0,0,0.0,0,0.0,-1,0.0,0.0,0.0,0,0.0,0.9674
58083,0,,,,,,,,-0.08,-0.09,0.36,0,-1,1,0.12,0,,,,,,,,,,,,,,,,,
58123,0,,,,,,,,0.18,-0.04,0.67,0,7,-4,0.18,0,,,,,,,,,,,,,,,,,
58163,0,,,,,,,,0.42,0.21,0.93,1,9,-4,0.47,0,,,,,,,,,,,,,,,,,
58203,0,,,,,,,,0.5,0.28,1.13,1,4,0,0.57,0,,,,,,,,,,,,,,,,,
58243,0,1,1,48,51,33,38,-4,0.73,0.31,1.29,1,15,-10,0.79,0,0,0.0,0.0,0.0,0.0,0,0,0.0,0,0.0,-1,0.0,0.0,0.0,0,0.0,0.9707
58283,0,,,,,,,,0.35,0.21,0.95,1,2,-5,0.41,0,,,,,,,,,,,,,,,,,
58323,0,,,,,,,,0.38,0.38,1.08,-0,10,-7,0.54,0,,,,,,,,,,,,,,,,,
58363,0,,,,,,,,0.17,0.32,0.49,1,3,2,0.36,0,,,,,,,,,,,,,,,,,
58403,0,,,,,,,,0.41,0.33,0.78,1,19,-13,0.53,0,,,,,,,,,,,,,,,,,
58443,0,0,1,48,51,33,38,-4,0.2,0.31,0.25,2,3,0,0.37,0,0,0.0,0.0,0.0,0.0,0,0,0.0,0,0.0,-1,0.0,0.0,0.0,0,0.0,0.974
58483,0,,,,,,,,-0.21,0.27,-0.18,2,-27,18,0.34,0,,,,,,,,,,,,,,,,,
58523,0,,,,,,,,-0.41,0.08,-0.12,1,-32,21,0.41,0,,,,,,,,,,,,,,,,,
58563,0,,,,,,,,-0.14,0.07,0.28,2,-7,-4,0.16,0,,,,,,,,,,,,,,,,,
58603,0,,,,,,,,0.2,0.17,0.27,2,8,-10,0.26,0,,,,,,,,,,,,,,,,,
58643,0,1,1,48,51,33,38,-4,-0.15,0.16,-0.17,3,-12,8,0.22,0,0,0.0,0.0,0.0,0.0,0,0,0.0,0,0.0,-1,0.0,0.0,0.0,0,0.0,0.9774
58683,0,,,,,,,,0.12,0.09,0.25,2,9,-8,0.15,0,,,,,,,,,,,,,,,,,
58723,0,,,,,,,,-0.02,0.16,-0.18,2,-5,6,0.17,0,,,,,,,,,,,,,,,,,
58763,0,,,,,,,,-0.05,0.22,-0.13,1,6,-2,0.22,0,,,,,,,,,,,,,,,,,
58803,0,,,,,,,,-0.11,0.19,-0.48,-0,0,-0,0.22,0,,,,,,,,,,,,,,,,,
58843,0,-0,2,48,51,33,38,-4,-0.05,0.06,-0.41,2,8,4,0.08,0,0,0.0,0.0,0.0,0.0,0,0,0.0,0,0.0,-1,0.0,0.0,0.0,0,0.0,0.9807
58883,0,,,,,,,,-0.01,0.02,-0.35,3,8,6,0.03,0,,,,,,,,,,,,,,,,,
58923,0,,,,,,,,0.06,0.03,-0.31,3,7,7,0.07,0,,,,,,,,,,,,,,,,,
58963,0,,,,,,,,0.03,0.08,-0.27,3,8,4,0.09,0,,,,,,,,,,,,,,,,,
59003,0,,,,,,,,0.01,0.05,-0.24,3,11,0,0.05,0,,,,,,,,,,,,,,,,,
59043,0,-0,2,48,51,33,38,-5,0.04,0.03,-0.21,2,17,-6,0.05,0,0,0.0,0.0,0.0,0.0,0,0,0.0,0,0.0,-1,0.0,0.0,0.0,0,0.0,0.984
59083,0,,,,,,,,0.25,0.1,-0.15,2,7,-1,0.27,0,,,,,,,,,,,,,,,,,
59123,0,,,,,,,,-0.03,0.08,-0.51,2,-3,6,0.09,0,,,,,,,,,,,,,,,,,
59163,0,,,,,,,,0.35,0.14,-0.03,3,10,-3,0.37,0,,,,,,,,,,,,,,,,,
59203,0,,,,,,,,0.37,0.1,0.36,2,25,-14,0.38,0,,,,,,,,,,,,,,,,,
59243,0,0,2,48,51,33,38,-4,0.57,0.21,0.67,2,25,-15,0.61,0,0,0.0,0.0,0.0,0.0,0,0,0.0,0,0.0,-1,0.0,0.0,0.0,0,0.0,0.9874
59283,0,,,,,,,,0.47,0.13,0.66,2,20,-11,0.49,0,,,,,,,,,,,,,,,,,
59323,0,,,,,,,,0.39,0.12,0.62,1,13,-9,0.41,0,,,,,,,,,,,,,,,,,
59363,0,,,,,,,,0.2,0.1,0.62,1,6,-6,0.22,0,,,,,,,,,,,,,,,,,
59403,0,,,,,,,,0.34,0.08,0.64,1,13,-7,0.35,0,,,,,,,,,,,,,,,,,
59443,0,-0,3,48,51,33,38,-5,0.03,0.03,0.7,1,1,-3,0.04,0,0,0.0,0.0,0.0,0.0,0,0,0.0,0,0.0,-1,0.0,0.0,0.0,0,0.0,0.9907
59483,0,,,,,,,,0.35,0.03,0.65,1,2,-3,0.35,0,,,,,,,,,,,,,,,,,
59523,0,,,,,,,,0.12,-0.02,0.67,1,14,-4,0.12,0,,,,,,,,,,,,,,,,,
59563,0,,,,,,,,-0.06,0.02,0.69,1,-8,1,0.06,0,,,,,,,,,,,,,,,,,
59603,0,,,,,,,,0.31,0.02,0.57,1,7,-3,0.31,0,,,,,,,,,,,,,,,,,
59643,0,-1,2,48,51,33,38,-4,-0.04,-0.04,0.75,1,9,-3,0.06,0,0,0.0,0.0,0.0,0.0,0,0,0.0,0,0.0,-1,0.0,0.0,0.0,0,0.0,0.994
59683,0,,,,,,,,-0.26,0.03,0.79,1,-21,3,0.26,0,,,,,,,,,,,,,,,,,
59723,0,,,,,,,,0.17,0.03,0.52,1,-10,-0,0.17,0,,,,,,,,,,,,,,,,,
59763,0,,,,,,,,-0.09,-0.04,0.45,1,-1,-1,0.1,0,,,,,,,,,,,,,,,,,
59803,0,,,,,,,,0.03,0.06,0.53,1,-10,1,0.06,0,,,,,,,,,,,,,,,,,
59843,0,1,1,48,51,33,38,-4,-0.05,-0.0,0.45,1,-4,0,0.05,0,0,0.0,0.0,0.0,0.0,0,0,0.0,0,0.0,-1,0.0,0.0,0.0,0,0.0,0.9974
59883,0,,,,,,,,0.07,-0.01,0.62,1,-2,-1,0.07,0,,,,,,,,,,,,,,,,,
59923,0,,,,,,,,0.12,0.0,0.6,1,0,-0,0.12,0,,,,,,,,,,,,,,,,,
59963,0,,,,,,,,0.04,-0.01,0.59,1,-0,0,0.04,0,,,,,,,,,,,,,,,,,
60003,0,,,,,,,,-0.01,-0.05,0.45,1,-2,1,0.05,0,,,,,,,,,,,,,,,,,
60043,0,-1,2,48,51,33,38,-5,0.1,0.01,0.51,1,-1,1,0.1,0,0,0.0,0.0,0.0,0.0,0,0,0.0,0,0.0,-1,0.0,0.0,0.0,0,0.0,1.0007
60083,0,,,,,,,,0.03,-0.07,0.43,1,0,0,0.07,0,,,,,,,,,,,,,,,,,
60123,0,,,,,,,,0.34,0.02,0.73,1,13,-8,0.34,0,,,,,,,,,,,,,,,,,
60163,0,,,,,,,,0.66,0.18,0.97,1,26,-16,0.68,0,,,,,,,,,,,,,,,,,
60203,0,,,,,,,,0.73,0.16,1.17,0,36,-24,0.75,0,,,,,,,,,,,,,,,,,
60243,0,1,2,48,51,33,38,-5,0.4,0.06,0.56,4,21,-12,0.4,0,0,0.0,0.0,0.0,0.0,0,0,0.0,0,0.0,-1,0.0,0.0,0.0,0,0.0,1.0041
60283,0,,,,,,,,0.25,0.06,0.44,4,17,-11,0.25,0,,,,,,,,,,,,,,,,,
60323,0,,,,,,,,0.41,0.12,0.33,3,24,-15,0.43,0,,,,,,,,,,,,,,,,,
60363,0,,,,,,,,0.1,0.15,-0.11,2,7,-3,0.18,0,,,,,,,,,,,,,,,,,
60403,0,,,,,,,,0.11,0.08,-0.07,1,24,-20,0.14,0,,,,,,,,,,,,,,,,,
60443,0,0,2,48,51,33,38,-4,0.45,0.04,0.32,1,30,-19,0.45,0,0,0.0,0.0,0.0,0.0,0,0,0.0,0,0.0,-1,0.0,0.0,0.0,0,0.0,1.0074
60483,0,,,,,,,,0.56,0.08,0.24,1,7,0,0.56,0,,,,,,,,,,,,,,,,,
60523,0,,,,,,,,0.28,0.05,-0.19,2,12,-8,0.28,0,,,,,,,,,,,,,,,,,
60563,0,,,,,,,,0.55,0.13,-0.05,2,7,-3,0.57,0,,,,,,,,,,,,,,,,,
60603,0,,,,,,,,0.44,0.11,-0.03,2,20,-12,0.46,0,,,,,,,,,,,,,,,,,
60643,0,0,2,48,51,33,38,-4,0.25,0.14,-0.06,2,9,-4,0.29,0,0,0.0,0.0,0.0,0.0,0,0,0.0,0,0.0,-1,0.0,0.0,0.0,0,0.0,1.0107
60683,0,,,,,,,,0.33,0.18,-0.07,3,11,0,0.38,0,,,,,,,,,,,,,,,,,
60723,0,,,,,,,,0.45,0.15,-0.08,3,8,1,0.48,0,,,,,,,,,,,,,,,,,
60763,0,,,,,,,,0.31,0.15,-0.08,3,-1,-0,0.34,0,,,,,,,,,,,,,,,,,
60803,0,,,,,,,,0.09,0.2,-0.16,3,-3,-1,0.22,0,,,,,,,,,,,,,,,,,
60843,0,-1,2,48,51,33,38,-5,0.06,0.19,-0.15,2,3,-4,0.2,0,0,0.0,0.0,0.0,0.0,0,0,0.0,0,0.0,-1,0.0,0.0,0.0,0,0.0,1.0141
60883,0,,,,,,,,0.23,0.3,0.26,1,4,-8,0.38,0,,,,,,,,,,,,,,,,,
60923,0,,,,,,,,-0.06,0.2,-0.17,2,-14,5,0.21,0,,,,,,,,,,,,,,,,,
60963,0,,,,,,,,0.29,0.17,0.24,2,-9,4,0.34,0,,,,,,,,,,,,,,,,,
61003,0,,,,,,,,0.47,0.19,0.38,2,-11,9,0.51,0,,,,,,,,,,,,,,,,,
61043,0,-0,2,48,51,33,38,-5,0.29,0.07,0.27,1,-14,10,0.3,0,0,0.0,0.0,0.0,0.0,0,0,0.0,0,0.0,-1,0.0,0.0,0.0,0,0.0,1.0174
61083,0,,,,,,,,0.27,0.06,0.31,1,-10,7,0.28,0,,,,,,,,,,,,,,,,,
61123,0,,,,,,,,0.28,0.1,0.47,1,-10,6,0.29,0,,,,,,,,,,,,,,,,,
61163,0,,,,,,,,0.0,0.06,0.59,1,-9,5,0.06,0,,,,,,,,,,,,,,,,,
61203,0,,,,,,,,0.22,0.08,0.79,1,-10,4,0.24,0,,,,,,,,,,,,,,,,,
61243,0,1,1,48,51,33,38,-4,0.09,0.02,0.67,1,7,2,0.09,0,0,0.0,0.0,0.0,0.0,0,0,0.0,0,0.0,-1,0.0,0.0,0.0,0,0.0,1.0207
61283,0,,,,,,,,-0.31,0.04,0.92,0,-15,5,0.31,0,,,,,,,,,,,,,,,,,
61323,0,,,,,,,,-0.13,0.15,0.61,1,-37,7,0.2,0,,,,,,,,,,,,,,,,,
61363,0,,,,,,,,0.28,0.06,0.29,1,-9,3,0.28,0,,,,,,,,,,,,,,,,,
61403,0,,,,,,,,0.15,-0.01,0.26,0,12,1,0.15,0,,,,,,,,,,,,,,,,,
61443,0,-0,2,48,51,33,38,-4,-0.09,0.01,0.48,1,-7,3,0.09,0,0,0.0,0.0,0.0,0.0,0,0,0.0,0,0.0,-1,0.0,0.0,0.0,0,0.0,1.024
61483,0,,,,,,,,0.31,0.03,0.37,1,5,-0,0.31,0,,,,,,,,,,,,,,,,,
61523,0,,,,,,,,0.02,-0.02,0.42,1,10,-0,0.02,0,,,,,,,,,,,,,,,,,
61563,0,,,,,,,,0.06,0.02,0.58,1,-3,1,0.06,0,,,,,,,,,,,,,,,,,
61603,0,,,,,,,,-0.0,-0.04,0.53,1,4,-0,0.04,0,,,,,,,,,,,,,,,,,
61643,0,1,1,48,51,33,38,-4,0.15,-0.03,0.73,1,5,-1,0.15,0,0,0.0,0.0,0.0,0.0,0,0,0.0,0,0.0,-1,0.0,0.0,0.0,0,0.0,1.0274
61683,0,,,,,,,,0.13,-0.04,0.61,1,4,1,0.13,0,,,,,,,,,,,,,,,,,
61723,0,,,,,,,,0.11,-0.04,0.74,1,2,0,0.12,0,,,,,,,,,,,,,,,,,
61763,0,,,,,,,,0.16,-0.01,0.69,0,5,-1,0.16,0,,,,,,,,,,,,,,,,,
61803,0,,,,,,,,0.03,-0.03,0.61,0,2,0,0.04,0,,,,,,,,,,,,,,,,,
61843,0,1,0,48,51,33,38,-4,0.07,0.02,0.47,1,-0,2,0.07,0,0,0.0,0.0,0.0,0.0,0,0,0.0,0,0.0,-1,0.0,0.0,0.0,0,0.0,1.0307
61883,0,,,,,,,,-0.2,-0.11,0.02,0,-9,5,0.22,0,,,,,,,,,,,,,,,,,
61923,0,,,,,,,,-0.34,-0.16,0.31,-0,-8,1,0.38,0,,,,,,,,,,,,,,,,,
61963,0,,,,,,,,-0.37,-0.13,-0.13,1,-26,10,0.39,0,,,,,,,,,,,,,,,,,
62003,0,,,,,,,,-0.32,-0.16,-0.12,2,1,-1,0.36,0,,,,,,,,,,,,,,,,,
62043,0,0,2,48,51,33,38,-5,-0.32,0.04,-0.48,3,5,-5,0.32,0,0,0.0,0.0,0.0,0.0,0,0,0.0,0,0.0,-1,0.0,0.0,0.0,0,0.0,1.034
62083,0,,,,,,,,-0.16,0.1,-0.41,2,-11,8,0.19,0,,,,,,,,,,,,,,,,,
62123,0,,,,,,,,-0.41,0.05,-0.71,1,1,0,0.41,0,,,,,,,,,,,,,,,,,
62163,0,,,,,,,,-0.19,0.06,-0.2,1,26,-22,0.2,0,,,,,,,,,,,,,,,,,
62203,0,,,,,,,,0.22,0.1,0.22,0,27,-17,0.25,0,,,,,,,,,,,,,,,,,
62243,0,-1,2,48,51,33,38,-5,0.22,0.15,0.07,0,3,1,0.26,0,0,0.0,0.0,0.0,0.0,0,0,0.0,0,0.0,-1,0.0,0.0,0.0,0,0.0,1.0374
62283,0,,,,,,,,-0.04,0.09,-0.32,0,7,-5,0.1,0,,,,,,,,,,,,,,,,,
62323,0,,,,,,,,0.33,0.19,0.12,1,8,-2,0.38,0,,,,,,,,,,,,,,,,,
62363,0,,,,,,,,0.04,0.08,-0.29,-0,5,-0,0.09,0,,,,,,,,,,,,,,,,,
62403,0,,,,,,,,0.21,-0.01,-0.25,0,-4,7,0.21,0,,,,,,,,,,,,,,,,,
62443,0,1,0,48,51,33,38,-4,0.13,0.02,-0.18,-0,7,-1,0.13,0,0,0.0,0.0,0.0,0.0,0,0,0.0,0,0.0,-1,0.0,0.0,0.0,0,0.0,1.0407
62483,0,,,,,,,,-0.04,0.06,-0.53,-0,2,3,0.07,0,,,,,,,,,,,,,,,,,
62523,0,,,,,,,,-0.08,0.02,-0.45,0,-5,8,0.08,0,,,,,,,,,,,,,,,,,
62563,0,,,,,,,,-0.13,0.04,-0.39,2,-7,8,0.14,0,,,,,,,,,,,,,,,,,
62603,0,,,,,,,,-0.13,0.05,-0.33,1,-3,6,0.14,0,,,,,,,,,,,,,,,,,
62643,0,0,3,48,51,33,38,-5,-0.1,0.03,-0.29,0,11,1,0.1,0,0,0.0,0.0,0.0,0.0,0,0,0.0,0,0.0,-1,0.0,0.0,0.0,0,0.0,1.044
62683,0,,,,,,,,0.2,0.12,-0.22,2,23,-3,0.24,0,,,,,,,,,,,,,,,,,
62723,0,,,,,,,,-0.13,0.14,-0.55,2,12,3,0.19,0,,,,,,,,,,,,,,,,,
62763,0,,,,,,,,0.2,0.09,-0.24,2,9,7,0.22,0,,,,,,,,,,,,,,,,,
62803,0,,,,,,,,0.34,0.09,-0.21,2,2,12,0.35,0,,,,,,,,,,,,,,,,,
62843,0,1,0,48,51,33,38,-4,0.21,0.01,-0.15,2,-2,12,0.21,0,0,0.0,0.0,0.0,0.0,0,0,0.0,0,0.0,-1,0.0,0.0,0.0,0,0.0,1.0474
62883,0,,,,,,,,0.19,0.04,-0.08,2,0,8,0.19,0,,,,,,,,,,,,,,,,,
62923,0,,,,,,,,0.16,0.06,0.08,1,-2,8,0.17,0,,,,,,,,,,,,,,,,,
62963,0,,,,,,,,0.03,0.03,0.29,1,3,5,0.04,0,,,,,,,,,,,,,,,,,
63003,0,,,,,,,,-0.1,0.07,0.39,1,-12,7,0.12,0,,,,,,,,,,,,,,,,,
63043,0,-1,2,48,51,33,38,-4,0.3,0.03,-0.04,1,3,4,0.3,0,0,0.0,0.0,0.0,0.0,0,0,0.0,0,0.0,-1,0.0,0.0,0.0,0,0.0,1.0507
63083,0,,,,,,,,0.5,-0.04,0.04,1,34,-1,0.5,0,,,,,,,,,,,,,,,,,
63123,0,,,,,,,,0.13,-0.1,0.41,1,41,-3,0.17,0,,,,,,,,,,,,,,,,,
63163,0,,,,,,,,-0.27,-0.05,0.71,1,9,1,0.28,0,,,,,,,,,,,,,,,,,
63203,0,,,,,,,,-0.48,0.04,0.65,1,-26,6,0.48,0,,,,,,,,,,,,,,,,,
63243,0,0,1,48,51,33,38,-4,-0.01,0.04,0.55,1,-13,2,0.04,0,0,0.0,0.0,0.0,0.0,0,0,0.0,0,0.0,-1,0.0,0.0,0.0,0,0.0,1.054
63283,0,,,,,,,,-0.03,-0.04,0.42,1,4,1,0.05,0,,,,,,,,,,,,,,,,,
63323,0,,,,,,,,-0.31,-0.02,0.72,1,-17,3,0.31,0,,,,,,,,,,,,,,,,,
63363,0,,,,,,,,0.07,-0.0,0.61,1,-8,1,0.07,0,,,,,,,,,,,,,,,,,
63403,0,,,,,,,,-0.16,-0.06,0.61,1,-6,1,0.17,0,,,,,,,,,,,,,,,,,
63443,0,1,1,48,51,33,38,-5,0.04,0.01,0.82,1,-5,0,0.04,0,0,0.0,0.0,0.0,0.0,0,0,0.0,0,0.0,-1,0.0,0.0,0.0,0,0.0,1.0574
63483,0,,,,,,,,-0.0,0.03,0.75,1,-6,1,0.03,0,,,,,,,,,,,,,,,,,
63523,0,,,,,,,,-0.02,0.0,0.72,1,-6,1,0.02,0,,,,,,,,,,,,,,,,,
63563,0,,,,,,,,0.0,0.02,0.68,1,-3,-1,0.02,0,,,,,,,,,,,,,,,,,
63603,0,,,,,,,,-0.08,-0.01,0.57,1,-0,-2,0.08,0,,,,,,,,,,,,,,,,,
63643,0,0,1,48,51,33,38,-4,-0.11,0.01,0.44,1,-5,1,0.11,0,0,0.0,0.0,0.0,0.0,0,0,0.0,0,0.0,-1,0.0,0.0,0.0,0,0.0,1.0607
63683,0,,,,,,,,0.0,-0.04,0.52,1,3,-4,0.04,0,,,,,,,,,,,,,,,,,
63723,0,,,,,,,,0.35,0.13,0.8,1,2,-2,0.37,0,,,,,,,,,,,,,,,,,
63763,0,,,,,,,,0.64,0.26,1.03,0,3,-3,0.7,0,,,,,,,,,,,,,,,,,
63803,0,,,,,,,,0.51,0.14,0.85,-0,18,-15,0.53,0,,,,,,,,,,,,,,,,,
63843,0,1,1,48,51,33,38,-4,0.37,0.11,0.3,-1,-11,-1,0.39,0,0,0.0,0.0,0.0,0.0,0,0,0.0,0,0.0,-1,0.0,0.0,0.0,0,0.0,1.064
63883,0,,,,,,,,0.21,0.16,0.23,-1,-9,-4,0.26,0,,,,,,,,,,,,,,,,,
63923,0,,,,,,,,0.23,0.18,0.21,-1,-9,-2,0.29,0,,,,,,,,,,,,,,,,,
63963,0,,,,,,,,-0.02,0.14,0.19,-0,-3,-8,0.14,0,,,,,,,,,,,,,,,,,
64003,0,,,,,,,,0.3,0.1,0.53,-0,12,-13,0.32,0,,,,,,,,,,,,,,,,,
64043,0,1,2,48,51,33,38,-4,0.33,0.21,0.33,1,-2,3,0.39,0,0,0.0,0.0,0.0,0.0,0,0,0.0,0,0.0,-1,0.0,0.0,0.0,0,0.0,1.0674
64083,0,,,,,,,,0.03,0.18,-0.11,1,-16,16,0.18,0,,,,,,,,,,,,,,,,,
64123,0,,,,,,,,0.04,0.05,-0.07,1,12,-5,0.06,0,,,,,,,,,,,,,,,,,
64163,0,,,,,,,,0.07,0.19,-0.08,2,-3,9,0.2,0,,,,,,,,,,,,,,,,,
64203,0,,,,,,,,0.13,0.12,-0.04,1,19,-6,0.18,0,,,,,,,,,,,,,,,,,
64243,0,1,0,48,51,33,38,-5,-0.02,0.13,-0.42,2,7,2,0.14,0,0,0.0,0.0,0.0,0.0,0,0,0.0,0,0.0,-1,0.0,0.0,0.0,0,0.0,1.0707
64283,0,,,,,,,,0.2,0.13,-0.36,1,7,2,0.24,0,,,,,,,,,,,,,,,,,
64323,0,,,,,,,,0.18,0.14,-0.27,2,15,-1,0.23,0,,,,,,,,,,,,,,,,,
64363,0,,,,,,,,0.11,0.17,-0.2,1,11,-3,0.21,0,,,,,,,,,,,,,,,,,
64403,0,,,,,,,,0.04,0.13,-0.14,1,10,-5,0.13,0,,,,,,,,,,,,,,,,,
64443,0,1,3,48,51,33,38,-5,0.1,0.04,-0.1,1,5,-0,0.11,0,0,0.0,0.0,0.0,0.0,0,0,0.0,0,0.0,-1,0.0,0.0,0.0,0,0.0,1.074
64483,0,,,,,,,,-0.15,-0.0,-0.46,-2,-13,7,0.15,0,,,,,,,,,,,,,,,,,
64523,0,,,,,,,,0.22,0.03,0.01,-1,15,-6,0.22,0,,,,,,,,,,,,,,,,,
64563,0,,,,,,,,-0.11,-0.09,-0.37,-1,14,-3,0.14,0,,,,,,,,,,,,,,,,,
64603,0,,,,,,,,-0.14,-0.1,-0.22,-1,20,-8,0.17,0,,,,,,,,,,,,,,,,,
64643,0,1,1,48,51,33,38,-5,-0.01,-0.05,0.01,-0,20,-8,0.05,0,0,0.0,0.0,0.0,0.0,0,0,0.0,0,0.0,-1,0.0,0.0,0.0,0,0.0,1.0774
64683,0,,,,,,,,-0.04,-0.05,0.03,-0,14,-6,0.06,0,,,,,,,,,,,,,,,,,
64723,0,,,,,,,,0.0,-0.07,0.28,0,15,-6,0.07,0,,,,,,,,,,,,,,,,,
64763,0,,,,,,,,0.11,0.01,0.29,0,9,-3,0.11,0,,,,,,,,,,,,,,,,,
64803,0,,,,,,,,0.19,-0.03,0.35,0,19,-4,0.2,0,,,,,,,,,,,,,,,,,
64843,0,-0,2,48,51,33,38,-5,-0.22,-0.02,0.66,-0,-2,-1,0.22,0,0,0.0,0.0,0.0,0.0,0,0,0.0,0,0.0,-1,0.0,0.0,0.0,0,0.0,1.0807
64883,0,,,,,,,,-0.07,0.08,0.36,-0,-20,1,0.11,0,,,,,,,,,,,,,,,,,
64923,0,,,,,,,,0.32,0.13,-0.09,0,0,-1,0.35,0,,,,,,,,,,,,,,,,,
64963,0,,,,,,,,0.64,-0.01,-0.23,0,34,-6,0.64,0,,,,,,,,,,,,,,,,,
65003,0,,,,,,,,0.28,-0.08,0.0,0,31,-5,0.29,0,,,,,,,,,,,,,,,,,
65043,0,1,0,48,51,33,38,-5,0.24,0.0,0.21,0,13,-3,0.24,0,0,0.0,0.0,0.0,0.0,0,0,0.0,0,0.0,-1,0.0,0.0,0.0,0,0.0,1.084
65083,0,,,,,,,,0.25,-0.04,0.36,0,21,-4,0.26,0,,,,,,,,,,,,,,,,,
65123,0,,,,,,,,0.0,-0.03,0.51,0,4,-0,0.03,0,,,,,,,,,,,,,,,,,
65163,0,,,,,,,,-0.05,-0.04,0.39,0,9,-1,0.07,0,,,,,,,,,,,,,,,,,
65203,0,,,,,,,,0.04,-0.03,0.7,1,8,-1,0.05,0,,,,,,,,,,,,,,,,,
65243,0,0,1,48,51,33,38,-5,0.09,-0.03,0.69,1,7,-1,0.1,0,0,0.0,0.0,0.0,0.0,0,0,0.0,0,0.0,-1,0.0,0.0,0.0,0,0.0,1.0874
65283,0,,,,,,,,0.09,-0.01,0.7,1,7,-2,0.09,0,,,,,,,,,,,,,,,,,
65323,0,,,,,,,,-0.01,-0.01,0.55,1,5,-2,0.01,0,,,,,,,,,,,,,,,,,
65363,0,,,,,,,,0.02,0.01,0.42,1,-1,2,0.02,0,,,,,,,,,,,,,,,,,
65403,0,,,,,,,,-0.02,-0.1,0.36,1,6,-3,0.1,0,,,,,,,,,,,,,,,,,
65443,0,1,2,48,51,33,38,-4,0.31,0.01,0.67,0,20,-13,0.31,0,0,0.0,0.0,0.0,0.0,0,0,0.0,0,0.0,-1,0.0,0.0,0.0,0,0.0,1.0907
65483,0,,,,,,,,0.37,0.02,0.84,0,37,-26,0.37,0,,,,,,,,,,,,,,,,,
65523,0,,,,,,,,0.15,-0.03,0.3,-1,6,-9,0.16,0,,,,,,,,,,,,,,,,,
65563,0,,,,,,,,0.08,-0.06,0.22,-1,5,-9,0.1,0,,,,,,,,,,,,,,,,,
65603,0,,,,,,,,0.23,0.09,0.56,-1,5,-13,0.25,0,,,,,,,,,,,,,,,,,
65643,0,-0,2,48,51,33,38,-4,-0.02,0.13,0.07,-1,-14,4,0.13,0,0,0.0,0.0,0.0,0.0,0,0,0.0,0,0.0,-1,0.0,0.0,0.0,0,0.0,1.0941
65683,0,,,,,,,,-0.18,0.05,-0.32,-1,-13,1,0.18,0,,,,,,,,,,,,,,,,,
65723,0,,,,,,,,-0.31,-0.05,-0.64,-0,-7,-3,0.31,0,,,,,,,,,,,,,,,,,
65763,0,,,,,,,,-0.3,-0.1,-0.5,-1,6,-14,0.32,0,,,,,,,,,,,,,,,,,
65803,0,,,,,,,,0.09,-0.03,-0.02,-0,20,-21,0.09,0,,,,,,,,,,,,,,,,,
65843,0,0,1,48,51,33,38,-6,-0.09,-0.03,-0.4,1,3,-3,0.09,0,0,0.0,0.0,0.0,0.0,0,0,0.0,0,0.0,-1,0.0,0.0,0.0,0,0.0,1.0974
65883,0,,,,,,,,-0.27,-0.08,-0.31,0,10,-12,0.28,0,,,,,,,,,,,,,,,,,
65923,0,,,,,,,,-0.02,-0.07,0.13,1,14,-16,0.07,0,,,,,,,,,,,,,,,,,
65963,0,,,,,,,,-0.02,-0.03,-0.27,1,-7,1,0.03,0,,,,,,,,,,,,,,,,,
66003,0,,,,,,,,-0.08,-0.09,-0.2,1,5,-10,0.12,0,,,,,,,,,,,,,,,,,
66043,0,1,0,48,51,33,38,-5,0.17,-0.04,-0.18,1,7,-8,0.17,0,0,0.0,0.0,0.0,0.0,0,0,0.0,0,0.0,-1,0.0,0.0,0.0,0,0.0,1.1007
66083,0,,,,,,,,0.02,-0.06,-0.13,1,16,-10,0.07,0,,,,,,,,,,,,,,,,,
66123,0,,,,,,,,0.17,-0.03,-0.13,2,14,-7,0.18,0,,,,,,,,,,,,,,,,,
66163,0,,,,,,,,0.05,-0.02,-0.08,1,12,-7,0.05,0,,,,,,,,,,,,,,,,,
66203,0,,,,,,,,0.14,0.01,-0.09,1,12,-2,0.14,0,,,,,,,,,,,,,,,,,
66243,0,-1,2,48,51,33,38,-5,0.14,-0.06,-0.05,1,22,-11,0.15,0,0,0.0,0.0,0.0,0.0,0,0,0.0,0,0.0,-1,0.0,0.0,0.0,0,0.0,1.1041
66283,0,,,,,,,,0.0,-0.08,-0.42,1,6,1,0.08,0,,,,,,,,,,,,,,,,,
66323,0,,,,,,,,0.21,0.01,-0.36,1,13,-4,0.21,0,,,,,,,,,,,,,,,,,
66363,0,,,,,,,,0.09,-0.06,-0.27,2,23,-11,0.11,0,,,,,,,,,,,,,,,,,
66403,0,,,,,,,,-0.09,0.01,-0.6,2,11,-2,0.09,0,,,,,,,,,,,,,,,,,
66443,0,1,1,48,51,33,38,-5,0.13,0.05,-0.51,-0,13,-2,0.14,0,0,0.0,0.0,0.0,0.0,0,0,0.0,0,0.0,-1,0.0,0.0,0.0,0,0.0,1.1074
66483,0,,,,,,,,0.09,-0.02,-0.39,-0,19,-9,0.09,0,,,,,,,,,,,,,,,,,
66523,0,,,,,,,,0.1,0.02,-0.53,2,13,2,0.1,0,,,,,,,,,,,,,,,,,
66563,0,,,,,,,,0.18,-0.0,-0.17,1,18,-9,0.18,0,,,,,,,,,,,,,,,,,
66603,0,,,,,,,,0.07,0.03,-0.52,2,1,5,0.08,0,,,,,,,,,,,,,,,,,
66643,0,-0,2,48,51,33,38,-5,0.31,-0.03,-0.04,1,22,-7,0.31,0,0,0.0,0.0,0.0,0.0,0,0,0.0,0,0.0,-1,0.0,0.0,0.0,0,0.0,1.1107
66683,0,,,,,,,,0.04,0.09,-0.41,1,-1,7,0.1,0,,,,,,,,,,,,,,,,,
66723,0,,,,,,,,-0.03,0.04,-0.31,1,1,0,0.04,0,,,,,,,,,,,,,,,,,
66763,0,,,,,,,,0.16,-0.08,0.12,0,12,-11,0.18,0,,,,,,,,,,,,,,,,,
66803,0,,,,,,,,0.32,0.04,0.08,1,-6,2,0.32,0,,,,,,,,,,,,,,,,,
66843,0,-1,2,48,51,33,38,-4,-0.04,0.06,-0.32,1,-13,7,0.08,0,0,0.0,0.0,0.0,0.0,0,0,0.0,0,0.0,-1,0.0,0.0,0.0,0,0.0,1.1141
66883,0,,,,,,,,0.07,-0.04,-0.24,0,8,-11,0.08,0,,,,,,,,,,,,,,,,,
66923,0,,,,,,,,0.28,-0.08,0.19,0,9,-9,0.29,0,,,,,,,,,,,,,,,,,
66963,0,,,,,,,,0.42,0.07,0.28,0,-5,1,0.43,0,,,,,,,,,,,,,,,,,
67003,0,,,,,,,,0.0,0.09,-0.15,1,-24,14,0.09,0,,,,,,,,,,,,,,,,,
67043,0,1,1,48,51,33,38,-5,-0.32,-0.01,-0.51,0,-11,9,0.32,0,0,0.0,0.0,0.0,0.0,0,0,0.0,0,0.0,-1,0.0,0.0,0.0,0,0.0,1.1174
67083,0,,,,,,,,-0.2,-0.07,-0.33,-0,10,-12,0.21,0,,,,,,,,,,,,,,,,,
67123,0,,,,,,,,0.18,-0.17,0.11,-0,14,-14,0.25,0,,,,,,,,,,,,,,,,,
67163,0,,,,,,,,0.34,-0.09,0.47,0,9,-7,0.35,0,,,,,,,,,,,,,,,,,
67203,0,,,,,,,,0.36,0.02,0.36,0,-4,5,0.36,0,,,,,,,,,,,,,,,,,
67243,0,1,3,48,51,33,38,-5,0.07,0.05,-0.09,0,-20,18,0.09,0,0,0.0,0.0,0.0,0.0,0,0,0.0,0,0.0,-1,0.0,0.0,0.0,0,0.0,1.1207
67283,0,,,,,,,,-0.16,0.02,-0.05,0,-4,4,0.16,0,,,,,,,,,,,,,,,,,
67323,0,,,,,,,,0.1,-0.04,0.34,1,20,-14,0.11,0,,,,,,,,,,,,,,,,,
67363,0,,,,,,,,0.37,-0.02,0.65,1,16,-10,0.38,0,,,,,,,,,,,,,,,,,
67403,0,,,,,,,,0.2,0.11,0.15,1,-2,4,0.23,0,,,,,,,,,,,,,,,,,
67443,0,1,3,48,51,33,38,-4,-0.14,0.11,-0.26,1,-12,11,0.17,0,0,0.0,0.0,0.0,0.0,0,0,0.0,0,0.0,-1,0.0,0.0,0.0,0,0.0,1.1241
67483,0,,,,,,,,0.04,-0.0,-0.05,1,8,-10,0.04,0,,,,,,,,,,,,,,,,,
67523,0,,,,,,,,0.33,0.0,0.34,1,11,-8,0.33,0,,,,,,,,,,,,,,,,,
67563,0,,,,,,,,-0.01,0.03,-0.11,1,-16,10,0.04,0,,,,,,,,,,,,,,,,,
67603,0,,,,,,,,0.04,-0.02,-0.07,0,2,-6,0.04,0,,,,,,,,,,,,,,,,,
67643,0,-1,2,48,51,33,38,-4,0.25,0.01,-0.07,1,4,-4,0.25,0,0,0.0,0.0,0.0,0.0,0,0,0.0,0,0.0,-1,0.0,0.0,0.0,0,0.0,1.1274
67683,0,,,,,,,,-0.05,0.03,-0.44,1,-7,3,0.06,0,,,,,,,,,,,,,,,,,
67723,0,,,,,,,,0.25,0.05,0.02,0,3,-6,0.26,0,,,,,,,,,,,,,,,,,
67763,0,,,,,,,,-0.04,0.07,-0.36,1,-20,10,0.08,0,,,,,,,,,,,,,,,,,
67803,0,,,,,,,,0.17,-0.03,0.09,1,-1,-5,0.17,0,,,,,,,,,,,,,,,,,
67843,0,0,2,48,51,33,38,-5,-0.09,-0.04,-0.31,1,-23,8,0.1,0,0,0.0,0.0,0.0,0.0,0,0,0.0,0,0.0,-1,0.0,0.0,0.0,0,0.0,1.1307
67883,0,,,,,,,,0.03,0.08,-0.27,1,-21,1,0.09,0,,,,,,,,,,,,,,,,,
67923,0,,,,,,,,-0.08,-0.02,-0.2,1,-12,-5,0.09,0,,,,,,,,,,,,,,,,,
67963,0,,,,,,,,-0.15,-0.05,-0.3,1,-14,1,0.16,0,,,,,,,,,,,,,,,,,
68003,0,,,,,,,,-0.14,-0.04,-0.27,0,-18,8,0.15,0,,,,,,,,,,,,,,,,,
68043,0,0,2,48,51,33,38,-5,-0.23,-0.04,-0.24,1,-22,8,0.23,0,0,0.0,0.0,0.0,0.0,0,0,0.0,0,0.0,-1,0.0,0.0,0.0,0,0.0,1.1341
68083,0,,,,,,,,-0.19,-0.08,-0.21,1,-14,4,0.2,0,,,,,,,,,,,,,,,,,
68123,0,,,,,,,,-0.11,-0.04,-0.19,0,-4,-1,0.12,0,,,,,,,,,,,,,,,,,
68163,0,,,,,,,,0.08,0.04,-0.18,1,7,-2,0.09,0,,,,,,,,,,,,,,,,,
68203,0,,,,,,,,0.1,0.04,-0.12,1,10,-1,0.11,0,,,,,,,,,,,,,,,,,
68243,0,1,2,48,51,33,38,-4,0.05,0.18,-0.08,1,8,3,0.18,0,0,0.0,0.0,0.0,0.0,0,0,0.0,0,0.0,-1,0.0,0.0,0.0,0,0.0,1.1374
68283,0,,,,,,,,-0.14,0.16,-0.14,0,-4,9,0.21,0,,,,,,,,,,,,,,,,,
68323,0,,,,,,,,-0.17,0.14,-0.13,1,-4,5,0.22,0,,,,,,,,,,,,,,,,,
68363,0,,,,,,,,0.09,0.17,0.14,2,19,-4,0.19,0,,,,,,,,,,,,,,,,,
68403,0,,,,,,,,-0.3,-0.05,-0.27,1,20,-6,0.3,0,,,,,,,,,,,,,,,,,
68443,0,-0,1,48,51,33,38,-5,-0.51,-0.25,-0.6,1,18,-7,0.57,0,0,0.0,0.0,0.0,0.0,0,0,0.0,0,0.0,-1,0.0,0.0,0.0,0,0.0,1.1407
68483,0,,,,,,,,-0.29,-0.16,-0.11,1,18,-9,0.33,0,,,,,,,,,,,,,,,,,
68523,0,,,,,,,,-0.17,-0.1,0.13,1,15,-7,0.2,0,,,,,,,,,,,,,,,,,
68563,0,,,,,,,,-0.24,-0.12,0.18,1,9,-4,0.27,0,,,,,,,,,,,,,,,,,
68603,0,,,,,,,,-0.05,-0.08,0.45,1,15,-6,0.1,0,,,,,,,,,,,,,,,,,
68643,0,-1,1,48,51,33,38,-5,-0.2,-0.07,0.44,1,6,-3,0.21,0,0,0.0,0.0,0.0,0.0,0,0,0.0,0,0.0,-1,0.0,0.0,0.0,0,0.0,1.144
68683,0,,,,,,,,0.12,-0.04,0.39,1,9,-4,0.12,0,,,,,,,,,,,,,,,,,
68723,0,,,,,,,,-0.2,-0.09,0.62,1,9,-3,0.22,0,,,,,,,,,,,,,,,,,
68763,0,,,,,,,,0.08,-0.06,0.75,1,6,-2,0.1,0,,,,,,,,,,,,,,,,,
68803,0,,,,,,,,-0.14,-0.04,0.67,1,2,-1,0.14,0,,,,,,,,,,,,,,,,,
68843,0,-1,2,48,51,33,38,-5,-0.01,-0.05,0.68,1,6,-2,0.05,0,0,0.0,0.0,0.0,0.0,0,0,0.0,0,0.0,-1,0.0,0.0,0.0,0,0.0,1.1474
68883,0,,,,,,,,0.09,0.01,0.89,1,6,-2,0.09,0,,,,,,,,,,,,,,,,,
68923,0,,,,,,,,0.08,0.01,0.74,1,4,-1,0.08,0,,,,,,,,,,,,,,,,,
68963,0,,,,,,,,0.04,-0.03,0.63,1,4,-1,0.05,0,,,,,,,,,,,,,,,,,
69003,0,,,,,,,,-0.12,0.01,0.49,0,-3,1,0.12,0,,,,,,,,,,,,,,,,,
69043,0,-1,2,48,51,33,38,-5,0.15,0.02,0.78,0,4,-2,0.15,0,0,0.0,0.0,0.0,0.0,0,0,0.0,0,0.0,-1,0.0,0.0,0.0,0,0.0,1.1507
69083,0,,,,,,,,0.04,0.09,0.6,1,-11,7,0.1,0,,,,,,,,,,,,,,,,,
69123,0,,,,,,,,-0.32,0.08,0.11,0,-40,19,0.33,0,,,,,,,,,,,,,,,,,
69163,0,,,,,,,,-0.07,0.14,0.11,2,-40,19,0.16,0,,,,,,,,,,,,,,,,,
69203,0,,,,,,,,-0.05,0.16,0.07,2,-13,4,0.17,0,,,,,,,,,,,,,,,,,
69243,0,1,0,49,51,32,38,-4,0.08,0.08,0.07,1,0,-2,0.11,0,0,0.0,0.0,0.0,0.0,0,0,0.0,0,0.0,-1,0.0,0.0,0.0,0,0.0,1.154
69283,0,,,,,,,,0.39,0.05,0.44,1,16,-8,0.4,0,,,,,,,,,,,,,,,,,
69323,0,,,,,,,,0.7,0.1,0.73,0,33,-16,0.71,0,,,,,,,,,,,,,,,,,
69363,0,,,,,,,,0.38,-0.13,0.57,0,27,-11,0.4,0,,,,,,,,,,,,,,,,,
69403,0,,,,,,,,0.37,-0.05,0.48,-2,27,-12,0.37,0,,,,,,,,,,,,,,,,,
69443,0,-0,2,48,51,32,38,-5,0.15,-0.02,0.01,-2,7,2,0.15,0,0,0.0,0.0,0.0,0.0,0,0,0.0,0,0.0,-1,0.0,0.0,0.0,0,0.0,1.1574
69483,0,,,,,,,,0.13,-0.05,0.39,-2,25,-15,0.14,0,,,,,,,,,,,,,,,,,
69523,0,,,,,,,,0.29,-0.09,0.69,-2,31,-25,0.3,0,,,,,,,,,,,,,,,,,
69563,0,,,,,,,,0.18,-0.11,0.54,-1,18,-17,0.21,0,,,,,,,,,,,,,,,,,
69603,0,,,,,,,,0.16,0.07,0.46,-1,19,-17,0.17,0,,,,,,,,,,,,,,,,,
69643,0,-1,2,48,51,32,38,-5,-0.01,0.07,-0.01,-1,13,-12,0.07,0,0,0.0,0.0,0.0,0.0,0,0,0.0,0,0.0,-1,0.0,0.0,0.0,0,0.0,1.1607
69683,0,,,,,,,,-0.05,0.1,-0.03,-1,9,-11,0.11,0,,,,,,,,,,,,,,,,,
69723,0,,,,,,,,0.05,0.07,0.34,-0,10,-10,0.08,0,,,,,,,,,,,,,,,,,
69763,0,,,,,,,,0.02,0.05,0.3,-0,6,-6,0.06,0,,,,,,,,,,,,,,,,,
69803,0,,,,,,,,-0.04,0.05,0.22,0,2,-3,0.06,0,,,,,,,,,,,,,,,,,
69843,0,-0,2,48,51,32,38,-4,0.06,0.05,0.49,0,7,-7,0.08,0,0,0.0,0.0,0.0,0.0,0,0,0.0,0,0.0,-1,0.0,0.0,0.0,0,0.0,1.164
69883,0,,,,,,,,0.06,0.1,0.41,0,4,-5,0.12,0,,,,,,,,,,,,,,,,,
69923,0,,,,,,,,0.02,0.01,0.32,-0,-3,2,0.03,0,,,,,,,,,,,,,,,,,
69963,0,,,,,,,,0.12,0.07,0.63,0,-11,10,0.14,0,,,,,,,,,,,,,,,,,
70003,0,,,,,,,,-0.09,0.11,0.13,1,-19,16,0.14,0,,,,,,,,,,,,,,,,,
70043,0,0,1,48,51,32,38,-5,0.12,0.03,0.49,0,-4,4,0.13,0,0,0.0,0.0,0.0,0.0,0,0,0.0,0,0.0,-1,0.0,0.0,0.0,0,0.0,1.1674
70083,0,,,,,,,,0.18,0.09,0.37,1,-18,17,0.2,0,,,,,,,,,,,,,,,,,
70123,0,,,,,,,,0.14,0.15,-0.07,1,-29,26,0.2,0,,,,,,,,,,,,,,,,,
70163,0,,,,,,,,0.22,0.05,0.32,1,-18,17,0.22,0,,,,,,,,,,,,,,,,,
70203,0,,,,,,,,0.07,0.14,-0.12,0,-18,19,0.16,0,,,,,,,,,,,,,,,,,
70243,0,-0,2,48,51,32,38,-5,0.01,0.16,0.12,-0,-18,14,0.16,0,0,0.0,0.0,0.0,0.0,0,0,0.0,0,0.0,-1,0.0,0.0,0.0,0,0.0,1.1707
70283,0,,,,,,,,-0.05,0.13,0.12,0,-11,11,0.14,0,,,,,,,,,,,,,,,,,
70323,0,,,,,,,,0.08,0.1,0.48,0,-3,3,0.13,0,,,,,,,,,,,,,,,,,
70363,0,,,,,,,,0.19,0.17,0.77,0,3,0,0.25,0,,,,,,,,,,,,,,,,,
70403,0,,,,,,,,0.28,0.22,0.6,0,3,3,0.35,0,,,,,,,,,,,,,,,,,
70443,0,-1,2,48,51,32,38,-5,0.21,0.17,0.11,1,-1,8,0.27,0,0,0.0,0.0,0.0,0.0,0,0,0.0,0,0.0,-1,0.0,0.0,0.0,0,0.0,1.174
70483,0,,,,,,,,0.15,0.04,-0.29,1,-3,7,0.16,0,,,,,,,,,,,,,,,,,
70523,0,,,,,,,,0.11,0.0,0.11,1,-3,2,0.11,0,,,,,,,,,,,,,,,,,
70563,0,,,,,,,,0.04,0.05,0.47,1,-3,-4,0.06,0,,,,,,,,,,,,,,,,,
70603,0,,,,,,,,-0.11,0.0,0.1,1,-11,1,0.11,0,,,,,,,,,,,,,,,,,
70643,0,0,1,48,51,32,38,-5,0.03,0.03,0.06,1,-11,0,0.04,0,0,0.0,0.0,0.0,0.0,0,0,0.0,0,0.0,-1,0.0,0.0,0.0,0,0.0,1.1774
70683,0,,,,,,,,0.06,-0.02,0.03,1,-7,1,0.06,0,,,,,,,,,,,,,,,,,
70723,0,,,,,,,,0.02,0.03,0.4,1,-2,-2,0.04,0,,,,,,,,,,,,,,,,,
70763,0,,,,,,,,0.04,-0.11,0.68,1,3,-5,0.11,0,,,,,,,,,,,,,,,,,
70803,0,,,,,,,,0.12,0.02,0.35,1,-1,-2,0.12,0,,,,,,,,,,,,,,,,,
70843,0,-1,2,48,51,32,38,-5,0.11,-0.04,0.55,1,-1,-2,0.12,0,0,0.0,0.0,0.0,0.0,0,0,0.0,0,0.0,-1,0.0,0.0,0.0,0,0.0,1.1807
70883,0,,,,,,,,0.05,0.03,0.29,1,-1,1,0.06,0,,,,,,,,,,,,,,,,,
70923,0,,,,,,,,0.09,0.03,0.48,0,-3,0,0.1,0,,,,,,,,,,,,,,,,,
70963,0,,,,,,,,0.06,0.03,0.21,0,-3,2,0.07,0,,,,,,,,,,,,,,,,,
71003,0,,,,,,,,0.1,0.05,0.33,1,1,2,0.11,0,,,,,,,,,,,,,,,,,
71043,0,1,1,48,51,32,38,-4,0.06,0.04,0.06,1,0,4,0.08,0,0,0.0,0.0,0.0,0.0,0,0,0.0,0,0.0,-1,0.0,0.0,0.0,0,0.0,1.184
71083,0,,,,,,,,0.05,0.1,0.11,1,-1,4,0.11,0,,,,,,,,,,,,,,,,,
71123,0,,,,,,,,0.0,-0.03,0.47,1,-1,2,0.03,0,,,,,,,,,,,,,,,,,
71163,0,,,,,,,,-0.01,0.01,0.63,1,-0,2,0.01,0,,,,,,,,,,,,,,,,,
71203,0,,,,,,,,0.08,-0.05,0.89,1,1,-2,0.1,0,,,,,,,,,,,,,,,,,
71243,0,1,2,48,51,32,38,-5,0.08,0.0,0.63,0,-2,-1,0.08,0,0,0.0,0.0,0.0,0.0,0,0,0.0,0,0.0,-1,0.0,0.0,0.0,0,0.0,1.1874
71283,0,,,,,,,,0.02,0.03,0.14,1,-4,3,0.04,0,,,,,,,,,,,,,,,,,
71323,0,,,,,,,,0.1,0.02,0.49,0,-3,-1,0.1,0,,,,,,,,,,,,,,,,,
71363,0,,,,,,,,0.18,0.01,0.49,0,-1,-4,0.18,0,,,,,,,,,,,,,,,,,
71403,0,,,,,,,,0.16,-0.02,0.48,1,-2,0,0.16,0,,,,,,,,,,,,,,,,,
71443,0,-1,2,48,51,32,38,-4,0.15,-0.02,0.66,1,-2,0,0.15,0,0,0.0,0.0,0.0,0.0,0,0,0.0,0,0.0,-1,0.0,0.0,0.0,0,0.0,1.1907
71483,0,,,,,,,,0.25,0.01,0.68,1,0,-1,0.25,0,,,,,,,,,,,,,,,,,
71523,0,,,,,,,,0.31,0.04,0.78,1,0,-0,0.31,0,,,,,,,,,,,,,,,,,
71563,0,,,,,,,,0.23,-0.02,0.7,1,1,-0,0.23,0,,,,,,,,,,,,,,,,,
71603,0,,,,,,,,0.26,0.09,0.58,2,2,3,0.27,0,,,,,,,,,,,,,,,,,
71643,0,0,3,49,52,32,37,-5,0.32,0.02,0.81,2,0,2,0.32,0,0,0.0,0.0,0.0,0.0,0,0,0.0,0,0.0,-1,0.0,0.0,0.0,0,0.0,1.194
71683,0,,,,,,,,0.43,-0.04,1.04,2,2,-0,0.43,0,,,,,,,,,,,,,,,,,
71723,0,,,,,,,,0.51,0.03,1.05,2,-1,1,0.51,0,,,,,,,,,,,,,,,,,
71763,0,,,,,,,,0.62,-0.06,1.14,2,-2,1,0.62,0,,,,,,,,,,,,,,,,,
71803,0,,,,,,,,0.57,-0.08,1.01,2,-1,-1,0.57,0,,,,,,,,,,,,,,,,,
71843,0,0,1,51,53,31,36,-3,0.58,-0.11,0.8,1,-2,1,0.59,0,0,0.0,0.0,0.0,0.0,0,0,0.0,0,0.0,-1,0.0,0.0,0.0,0,0.0,1.1974
71883,0,,,,,,,,0.68,-0.13,0.75,1,2,-2,0.69,0,,,,,,,,,,,,,,,,,
71923,0,,,,,,,,0.59,-0.03,0.59,1,-4,2,0.59,0,,,,,,,,,,,,,,,,,
71963,0,,,,,,,,0.54,-0.09,0.1,1,-12,6,0.55,0,,,,,,,,,,,,,,,,,
72003,0,,,,,,,,0.59,-0.03,0.43,1,-3,-2,0.59,0,,,,,,,,,,,,,,,,,
72043,0,-1,3,53,54,29,34,-1,0.43,-0.11,-0.03,2,-10,2,0.44,0,0,0.0,0.0,0.0,0.0,0,0,0.0,0,0.0,-1,0.0,0.0,0.0,0,0.0,1.2007
72083,0,,,,,,,,0.52,-0.12,0.16,2,1,-7,0.53,0,,,,,,,,,,,,,,,,,
72123,0,,,,,,,,0.44,-0.0,0.15,3,-16,5,0.44,0,,,,,,,,,,,,,,,,,
72163,0,,,,,,,,0.69,0.16,0.5,2,-2,-4,0.71,0,,,,,,,,,,,,,,,,,
72203,0,,,,,,,,0.37,0.01,0.03,2,-10,-0,0.37,0,,,,,,,,,,,,,,,,,
72243,0,-1,2,53,55,28,33,-2,0.66,0.14,0.37,1,-1,-6,0.67,0,0,0.0,0.0,0.0,0.0,0,0,0.0,0,0.0,-1,0.0,0.0,0.0,0,0.0,1.2041
72283,0,,,,,,,,0.61,0.07,0.32,2,-13,1,0.61,0,,,,,,,,,,,,,,,,,
72323,0,,,,,,,,0.48,0.09,-0.12,4,-9,4,0.49,0,,,,,,,,,,,,,,,,,
72363,0,,,,,,,,0.48,0.19,-0.12,5,-9,0,0.51,0,,,,,,,,,,,,,,,,,
72403,0,,,,,,,,0.66,0.2,0.28,6,6,-4,0.69,0,,,,,,,,,,,,,,,,,
72443,0,1,1,53,55,27,33,-2,0.56,0.09,0.25,8,14,-5,0.57,0,0,0.0,0.0,0.0,0.0,0,0,0.0,0,0.0,-1,0.0,0.0,0.0,0,0.0,1.2074
72483,0,,,,,,,,0.5,0.14,0.22,9,13,-6,0.52,0,,,,,,,,,,,,,,,,,
72523,0,,,,,,,,0.37,0.09,-0.2,10,5,0,0.38,0,,,,,,,,,,,,,,,,,
72563,0,,,,,,,,0.64,0.11,-0.18,11,3,-1,0.65,0,,,,,,,,,,,,,,,,,
72603,0,,,,,,,,0.66,0.21,-0.13,12,9,-3,0.69,0,,,,,,,,,,,,,,,,,
72643,0,-1,2,54,55,27,33,2,0.62,0.25,-0.09,13,6,2,0.67,0,0,0.0,0.0,0.0,0.0,0,0,0.0,0,0.0,-1,0.0,0.0,0.0,0,0.0,1.2107
72683,0,,,,,,,,0.65,0.34,-0.09,13,5,4,0.74,0,,,,,,,,,,,,,,,,,
72723,0,,,,,,,,0.56,0.28,-0.09,14,2,0,0.63,0,,,,,,,,,,,,,,,,,
72763,0,,,,,,,,0.51,0.38,-0.1,14,-0,-1,0.64,0,,,,,,,,,,,,,,,,,
72803,0,,,,,,,,0.8,0.51,0.3,13,15,-12,0.95,0,,,,,,,,,,,,,,,,,
72843,0,0,3,54,54,27,34,1,0.43,0.35,-0.14,11,-6,1,0.56,0,0,0.0,0.0,0.0,0.0,0,0,0.0,0,0.0,-1,0.0,0.0,0.0,0,0.0,1.2141
72883,0,,,,,,,,0.7,0.53,0.27,10,-4,-1,0.88,0,,,,,,,,,,,,,,,,,
72923,0,,,,,,,,0.9,0.52,0.6,8,14,-13,1.04,0,,,,,,,,,,,,,,,,,
72963,0,,,,,,,,0.58,0.31,0.1,7,6,-8,0.65,0,,,,,,,,,,,,,,,,,
73003,0,,,,,,,,0.44,0.1,-0.3,7,-8,5,0.45,0,,,,,,,,,,,,,,,,,
73043,0,0,2,54,55,29,34,-4,0.73,0.26,-0.22,7,6,-1,0.78,0,0,0.0,0.0,0.0,0.0,0,0,0.0,0,0.0,-1,0.0,0.0,0.0,0,0.0,1.2174
73083,0,,,,,,,,0.55,0.26,-0.2,7,-3,7,0.61,0,,,,,,,,,,,,,,,,,
73123,0,,,,,,,,0.52,0.29,-0.18,9,1,6,0.6,0,,,,,,,,,,,,,,,,,
73163,0,,,,,,,,0.59,0.5,0.21,9,9,2,0.77,0,,,,,,,,,,,,,,,,,
73203,0,,,,,,,,0.53,0.39,0.19,11,21,-8,0.66,0,,,,,,,,,,,,,,,,,
73243,0,-1,2,54,54,28,36,-10,0.54,0.44,0.13,12,-6,7,0.69,0,0,0.0,0.0,0.0,0.0,0,0,0.0,0,0.0,-1,0.0,0.0,0.0,0,0.0,1.2207
73283,0,,,,,,,,0.41,0.37,0.13,12,11,-11,0.55,0,,,,,,,,,,,,,,,,,
73323,0,,,,,,,,0.7,0.38,0.48,12,9,-9,0.8,0,,,,,,,,,,,,,,,,,
73363,0,,,,,,,,0.9,0.31,0.77,12,18,-11,0.96,0,,,,,,,,,,,,,,,,,
73403,0,,,,,,,,0.86,0.27,1.0,11,26,-20,0.9,0,,,,,,,,,,,,,,,,,
73443,0,0,3,54,54,29,36,-5,0.95,0.18,1.19,10,32,-23,0.97,0,0,0.0,0.0,0.0,0.0,0,0,0.0,0,0.0,-1,0.0,0.0,0.0,0,0.0,1.2241
73483,0,,,,,,,,0.87,0.06,0.95,10,34,-28,0.87,0,,,,,,,,,,,,,,,,,
73523,0,,,,,,,,0.7,0.2,0.73,11,22,-14,0.73,0,,,,,,,,,,,,,,,,,
73563,0,,,,,,,,0.69,0.19,0.57,11,28,-20,0.71,0,,,,,,,,,,,,,,,,,
73603,0,,,,,,,,0.58,0.35,0.48,11,21,-10,0.67,0,,,,,,,,,,,,,,,,,
73643,0,1,0,52,52,30,36,-6,0.54,0.26,0.37,11,24,-13,0.59,0,0,0.0,0.0,0.0,0.0,0,0,0.0,0,0.0,-1,0.0,0.0,0.0,0,0.0,1.2274
73683,0,,,,,,,,0.55,0.4,0.32,12,20,-10,0.68,0,,,,,,,,,,,,,,,,,
73723,0,,,,,,,,0.43,0.37,0.28,12,14,-6,0.57,0,,,,,,,,,,,,,,,,,
73763,0,,,,,,,,0.42,0.34,0.23,11,12,-5,0.54,0,,,,,,,,,,,,,,,,,
73803,0,,,,,,,,0.32,0.31,0.17,11,6,-4,0.45,0,,,,,,,,,,,,,,,,,
73843,0,1,3,49,51,31,38,-5,0.38,0.34,0.51,10,11,-9,0.51,0,0,0.0,0.0,0.0,0.0,0,0,0.0,0,0.0,-1,0.0,0.0,0.0,0,0.0,1.2307
73883,0,,,,,,,,0.19,0.3,0.07,9,8,-6,0.35,0,,,,,,,,,,,,,,,,,
73923,0,,,,,,,,-0.06,0.34,-0.32,10,-11,7,0.35,0,,,,,,,,,,,,,,,,,
73963,0,,,,,,,,-0.25,0.15,-0.24,9,-4,2,0.29,0,,,,,,,,,,,,,,,,,
74003,0,,,,,,,,-0.16,0.31,0.18,8,11,-13,0.34,0,,,,,,,,,,,,,,,,,
74043,0,0,1,48,48,34,41,-4,-0.08,0.26,0.53,8,17,-20,0.27,0,0,0.0,0.0,0.0,0.0,0,0,0.0,0,0.0,-1,0.0,0.0,0.0,0,0.0,1.2341
74083,0,,,,,,,,-0.19,0.11,0.41,8,14,-20,0.22,0,,,,,,,,,,,,,,,,,
74123,0,,,,,,,,-0.31,0.08,-0.05,8,7,-15,0.32,0,,,,,,,,,,,,,,,,,
74163,0,,,,,,,,-0.3,0.05,-0.42,9,0,-5,0.3,0,,,,,,,,,,,,,,,,,
74203,0,,,,,,,,-0.41,0.11,-0.72,9,-11,7,0.42,0,,,,,,,,,,,,,,,,,
74243,0,0,1,51,46,37,39,-4,-0.47,0.1,-0.97,9,-23,18,0.48,0,0,0.0,0.0,0.0,0.0,0,0,0.0,0,0.0,-1,0.0,0.0,0.0,0,0.0,1.2374
74283,0,,,,,,,,-0.55,0.04,-1.16,8,-29,23,0.55,0,,,,,,,,,,,,,,,,,
74323,0,,,,,,,,-0.29,0.08,-0.56,8,-2,2,0.3,0,,,,,,,,,,,,,,,,,
74363,0,,,,,,,,-0.17,0.13,-0.48,8,-3,6,0.22,0,,,,,,,,,,,,,,,,,
74403,0,,,,,,,,-0.38,0.04,-0.77,8,-22,19,0.38,0,,,,,,,,,,,,,,,,,
74443,0,1,1,49,48,36,41,-4,-0.26,0.11,-0.24,8,-5,3,0.28,0,0,0.0,0.0,0.0,0.0,0,0,0.0,0,0.0,-1,0.0,0.0,0.0,0,0.0,1.2407
74483,0,,,,,,,,-0.44,0.14,-0.58,8,-24,16,0.47,0,,,,,,,,,,,,,,,,,
74523,0,,,,,,,,-0.17,0.14,-0.09,8,-3,2,0.22,0,,,,,,,,,,,,,,,,,
74563,0,,,,,,,,-0.29,0.16,-0.45,7,-16,11,0.33,0,,,,,,,,,,,,,,,,,
74603,0,,,,,,,,-0.17,0.13,-0.14,6,-1,1,0.21,0,,,,,,,,,,,,,,,,,
74643,0,0,2,48,49,33,39,-3,-0.25,0.13,-0.5,7,-13,11,0.28,0,0,0.0,0.0,0.0,0.0,0,0,0.0,0,0.0,-1,0.0,0.0,0.0,0,0.0,1.2441
74683,0,,,,,,,,0.02,0.17,-0.42,5,-9,6,0.17,0,,,,,,,,,,,,,,,,,
74723,0,,,,,,,,0.08,0.22,-0.08,4,-3,3,0.23,0,,,,,,,,,,,,,,,,,
74763,0,,,,,,,,-0.04,0.23,-0.45,4,-5,5,0.23,0,,,,,,,,,,,,,,,,,
74803,0,,,,,,,,0.05,0.29,-0.38,4,-10,11,0.3,0,,,,,,,,,,,,,,,,,
74843,0,1,1,49,49,35,39,-3,0.22,0.29,-0.48,5,-7,8,0.36,0,0,0.0,0.0,0.0,0.0,0,0,0.0,0,0.0,-1,0.0,0.0,0.0,0,0.0,1.2474
74883,0,,,,,,,,0.04,0.27,-0.36,5,-13,7,0.27,0,,,,,,,,,,,,,,,,,
74923,0,,,,,,,,-0.1,0.3,0.09,4,-18,4,0.32,0,,,,,,,,,,,,,,,,,
74963,0,,,,,,,,-0.15,0.33,0.34,5,-13,-0,0.36,0,,,,,,,,,,,,,,,,,
75003,0,,,,,,,,-0.28,0.21,0.21,6,-10,-3,0.36,0,,,,,,,,,,,,,,,,,
75043,0,9,6,49,46,37,39,-3,-0.25,0.25,0.15,7,3,-10,0.35,0,0,0.0,0.0,0.0,0.0,0,0,0.0,0,0.0,-1,0.0,0.0,0.0,0,0.0,1.2507
75083,0,,,,,,,,-0.31,0.14,-0.26,7,-19,4,0.34,0,,,,,,,,,,,,,,,,,
75123,0,,,,,,,,0.06,0.17,0.17,6,-16,5,0.18,0,,,,,,,,,,,,,,,,,
75163,0,,,,,,,,-0.03,0.16,0.38,6,10,-10,0.16,0,,,,,,,,,,,,,,,,,
75203,0,,,,,,,,-0.38,0.04,-0.07,5,17,-12,0.39,0,,,,,,,,,,,,,,,,,
75243,0,4,5,46,48,37,41,-1,-0.68,-0.11,-0.44,5,15,-10,0.68,0,0,0.0,0.0,0.0,0.0,0,0,0.0,0,0.0,-1,0.0,0.0,0.0,0,0.0,1.2541
75283,0,,,,,,,,-0.79,-0.14,-0.33,4,27,-16,0.8,0,,,,,,,,,,,,,,,,,
75323,0,,,,,,,,-0.42,-0.1,0.11,3,39,-21,0.43,0,,,,,,,,,,,,,,,,,
75363,0,,,,,,,,-0.04,-0.06,0.47,3,31,-12,0.08,0,,,,,,,,,,,,,,,,,
75403,0,,,,,,,,-0.14,-0.12,-0.0,3,2,3,0.18,0,,,,,,,,,,,,,,,,,
75443,0,2,4,46,48,36,39,2,-0.29,-0.1,0.02,3,3,1,0.31,0,0,0.0,0.0,0.0,0.0,0,0,0.0,0,0.0,-1,0.0,0.0,0.0,0,0.0,1.2574
75483,0,,,,,,,,-0.23,-0.03,0.05,2,0,2,0.23,0,,,,,,,,,,,,,,,,,
75523,0,,,,,,,,-0.16,-0.08,0.18,1,6,-1,0.18,0,,,,,,,,,,,,,,,,,
75563,0,,,,,,,,-0.37,-0.11,0.08,0,-3,3,0.39,0,,,,,,,,,,,,,,,,,
75603,0,,,,,,,,-0.14,-0.11,0.32,-1,4,-1,0.18,0,,,,,,,,,,,,,,,,,
75643,0,2,2,46,51,35,39,14,-0.23,-0.17,0.32,-3,4,-1,0.29,0,0,0.0,0.0,0.0,0.0,0,0,0.0,0,0.0,-1,0.0,0.0,0.0,0,0.0,1.2607
75683,0,,,,,,,,-0.22,-0.22,0.24,-5,4,-0,0.31,0,,,,,,,,,,,,,,,,,
75723,0,,,,,,,,-0.16,-0.25,0.22,-8,1,-1,0.29,0,,,,,,,,,,,,,,,,,
75763,0,,,,,,,,-0.05,-0.25,0.34,-11,2,-2,0.26,0,,,,,,,,,,,,,,,,,
75803,0,,,,,,,,-0.02,-0.34,0.3,-14,7,-5,0.34,0,,,,,,,,,,,,,,,,,
75843,0,1,2,46,53,37,37,39,0.31,-0.28,0.62,-18,9,-6,0.42,0,0,0.0,0.0,0.0,0.0,0,0,0.0,0,0.0,-1,0.0,0.0,0.0,0,0.0,1.264
75883,0,,,,,,,,0.56,-0.36,0.88,-21,11,-6,0.67,0,,,,,,,,,,,,,,,,,
75923,0,,,,,,,,0.4,-0.54,0.7,-25,5,-6,0.67,0,,,,,,,,,,,,,,,,,
75963,0,,,,,,,,0.57,-0.53,0.58,-31,-0,-4,0.78,0,,,,,,,,,,,,,,,,,
76003,0,,,,,,,,0.4,-0.59,0.45,-36,2,-6,0.71,0,,,,,,,,,,,,,,,,,
76043,0,0,3,50,56,37,33,72,0.12,-0.79,-0.01,-40,-27,10,0.8,0,0,0.0,0.0,0.0,0.0,0,0,0.0,0,0.0,-1,0.0,0.0,0.0,0,0.0,1.2674
76083,0,,,,,,,,0.43,-0.88,0.25,-43,-14,6,0.98,0,,,,,,,,,,,,,,,,,
76123,0,,,,,,,,0.26,-0.86,0.18,-47,-13,4,0.9,0,,,,,,,,,,,,,,,,,
76163,0,,,,,,,,0.25,-0.9,0.13,-51,-7,1,0.94,0,,,,,,,,,,,,,,,,,
76203,0,,,,,,,,0.32,-0.92,0.48,-54,2,-4,0.97,0,,,,,,,,,,,,,,,,,
76243,0,1,1,47,58,39,35,73,0.3,-0.84,0.41,-56,5,-8,0.89,0,0,0.0,0.0,0.0,0.0,0,0,0.0,0,0.0,-1,0.0,0.0,0.0,0,0.0,1.2707
76283,0,,,,,,,,0.36,-0.93,0.35,-56,13,-12,1.0,0,,,,,,,,,,,,,,,,,
76323,0,,,,,,,,0.18,-1.05,0.2,-58,11,-14,1.06,0,,,,,,,,,,,,,,,,,
76363,0,,,,,,,,0.18,-1.05,0.14,-59,-1,-4,1.07,0,,,,,,,,,,,,,,,,,
76403,0,,,,,,,,0.22,-1.03,0.09,-61,-6,2,1.05,0,,,,,,,,,,,,,,,,,
76443,0,-1,2,47,56,41,35,57,0.26,-1.11,0.09,-61,13,-7,1.14,0,0,0.0,0.0,0.0,0.0,0,0,0.0,0,0.0,-1,0.0,0.0,0.0,0,0.0,1.274
76483,0,,,,,,,,-0.15,-1.12,0.1,-62,12,-9,1.13,0,,,,,,,,,,,,,,,,,
76523,0,,,,,,,,-0.15,-1.12,0.06,-62,-1,-0,1.13,0,,,,,,,,,,,,,,,,,
76563,0,,,,,,,,0.06,-1.11,0.43,-64,9,-8,1.12,0,,,,,,,,,,,,,,,,,
76603,0,,,,,,,,-0.03,-1.14,0.36,-64,14,-12,1.14,0,,,,,,,,,,,,,,,,,
76643,0,0,1,46,58,38,38,33,0.16,-1.05,0.27,-64,9,-1,1.06,0,0,0.0,0.0,0.0,0.0,0,0,0.0,0,0.0,-1,0.0,0.0,0.0,0,0.0,1.2774
76683,0,,,,,,,,0.03,-1.1,-0.16,-63,-6,7,1.1,0,,,,,,,,,,,,,,,,,
76723,0,,,,,,,,0.15,-1.05,-0.11,-61,-13,10,1.06,0,,,,,,,,,,,,,,,,,
76763,0,,,,,,,,0.27,-0.95,-0.0,-60,-9,6,0.99,0,,,,,,,,,,,,,,,,,
76803,0,,,,,,,,0.34,-0.87,-0.17,-59,-4,4,0.94,0,,,,,,,,,,,,,,,,,
76843,0,-1,3,54,57,34,31,9,0.3,-0.8,-0.5,-58,1,3,0.85,0,0,0.0,0.0,0.0,0.0,0,0,0.0,0,0.0,-1,0.0,0.0,0.0,0,0.0,1.2807
76883,0,,,,,,,,0.39,-0.74,-0.39,-58,3,2,0.84,0,,,,,,,,,,,,,,,,,
76923,0,,,,,,,,0.35,-0.81,-0.34,-57,-1,5,0.88,0,,,,,,,,,,,,,,,,,
76963,0,,,,,,,,0.42,-0.79,-0.0,-55,-2,1,0.9,0,,,,,,,,,,,,,,,,,
77003,0,,,,,,,,0.57,-0.74,0.2,-54,5,-2,0.94,0,,,,,,,,,,,,,,,,,
77043,0,1,1,49,56,33,36,-18,0.4,-0.73,0.02,-52,-1,4,0.84,0,0,0.0,0.0,0.0,0.0,0,0,0.0,0,0.0,-1,0.0,0.0,0.0,0,0.0,1.284
77083,0,,,,,,,,0.47,-0.69,-0.0,-50,-5,4,0.84,0,,,,,,,,,,,,,,,,,
77123,0,,,,,,,,0.53,-0.6,0.28,-46,3,1,0.81,0,,,,,,,,,,,,,,,,,
77163,0,,,,,,,,0.3,-0.74,0.29,-41,-3,4,0.8,0,,,,,,,,,,,,,,,,,
77203,0,,,,,,,,0.24,-0.79,0.6,-36,-4,0,0.83,0,,,,,,,,,,,,,,,,,
77243,0,1,1,47,56,36,33,-18,0.12,-0.8,0.1,-29,-7,5,0.81,0,0,0.0,0.0,0.0,0.0,0,0,0.0,0,0.0,-1,0.0,0.0,0.0,0,0.0,1.2874
77283,0,,,,,,,,0.11,-0.75,-0.3,-21,-11,14,0.75,0,,,,,,,,,,,,,,,,,
77323,0,,,,,,,,-0.1,-0.75,-0.62,-12,-5,13,0.75,0,,,,,,,,,,,,,,,,,
77363,0,,,,,,,,-0.18,-0.57,-0.52,-7,-11,20,0.6,0,,,,,,,,,,,,,,,,,
77403,0,,,,,,,,-0.01,-0.49,-0.04,-5,10,5,0.49,0,,,,,,,,,,,,,,,,,
77443,0,5,6,46,49,38,41,10,-0.32,-0.49,-0.42,-4,-13,15,0.58,0,0,0.0,0.0,0.0,0.0,0,0,0.0,0,0.0,-1,0.0,0.0,0.0,0,0.0,1.2907
77483,0,,,,,,,,-0.22,-0.36,0.04,-6,4,-0,0.43,0,,,,,,,,,,,,,,,,,
77523,0,,,,,,,,-0.34,-0.42,-0.35,-7,-22,17,0.54,0,,,,,,,,,,,,,,,,,
77563,0,,,,,,,,-0.35,-0.41,-0.26,-9,-8,2,0.54,0,,,,,,,,,,,,,,,,,
77603,0,,,,,,,,-0.48,-0.4,-0.48,-10,-22,14,0.63,0,,,,,,,,,,,,,,,,,
77643,0,6,4,42,51,37,40,17,-0.47,-0.32,-0.37,-11,-5,1,0.57,0,0,0.0,0.0,0.0,0.0,0,0,0.0,0,0.0,-1,0.0,0.0,0.0,0,0.0,1.294
77683,0,,,,,,,,-0.44,-0.38,-0.32,-13,-9,9,0.58,0,,,,,,,,,,,,,,,,,
77723,0,,,,,,,,-0.34,-0.46,-0.28,-14,3,4,0.57,0,,,,,,,,,,,,,,,,,
77763,0,,,,,,,,-0.35,-0.44,-0.25,-19,-4,6,0.57,0,,,,,,,,,,,,,,,,,
77803,0,,,,,,,,-0.56,-0.34,-0.22,-21,-11,7,0.66,0,,,,,,,,,,,,,,,,,
77843,0,11,9,42,55,38,41,25,-0.55,-0.37,-0.2,-24,-11,4,0.67,0,0,0.0,0.0,0.0,0.0,0,0,0.0,0,0.0,-1,0.0,0.0,0.0,0,0.0,1.2974
77883,0,,,,,,,,-0.29,-0.38,0.22,-26,2,-3,0.48,0,,,,,,,,,,,,,,,,,
77923,0,,,,,,,,-0.45,-0.4,-0.01,-24,-14,6,0.6,0,,,,,,,,,,,,,,,,,
77963,0,,,,,,,,-0.33,-0.27,0.37,-24,7,-6,0.42,0,,,,,,,,,,,,,,,,,
78003,0,,,,,,,,-0.58,-0.19,0.52,-21,26,-17,0.61,0,,,,,,,,,,,,,,,,,
78043,0,2,4,48,45,39,40,-2,-0.85,-0.18,0.04,-17,22,-15,0.87,0,0,0.0,0.0,0.0,0.0,0,0,0.0,0,0.0,-1,0.0,0.0,0.0,0,0.0,1.3007
78083,0,,,,,,,,-0.67,-0.03,-0.29,-13,-7,1,0.67,0,,,,,,,,,,,,,,,,,
78123,0,,,,,,,,-0.24,0.14,0.14,-8,-16,8,0.28,0,,,,,,,,,,,,,,,,,
78163,0,,,,,,,,0.15,0.26,0.5,-3,-18,13,0.3,0,,,,,,,,,,,,,,,,,
78203,0,,,,,,,,0.2,0.34,0.38,2,-34,23,0.39,0,,,,,,,,,,,,,,,,,
78243,0,1,2,48,46,34,43,-25,-0.07,0.36,-0.07,7,-51,30,0.36,0,0,0.0,0.0,0.0,0.0,0,0,0.0,0,0.0,-1,0.0,0.0,0.0,0,0.0,1.304
78283,0,,,,,,,,-0.43,0.36,-0.44,12,-54,29,0.56,0,,,,,,,,,,,,,,,,,
78323,0,,,,,,,,-0.62,0.44,-0.58,17,-36,20,0.76,0,,,,,,,,,,,,,,,,,
78363,0,,,,,,,,-0.43,0.48,-0.24,21,-28,16,0.64,0,,,,,,,,,,,,,,,,,
78403,0,,,,,,,,-0.54,0.46,-0.23,25,-18,11,0.71,0,,,,,,,,,,,,,,,,,
78443,0,1,3,51,46,34,43,-35,-0.38,0.62,0.09,28,-21,11,0.73,0,0,0.0,0.0,0.0,0.0,0,0,0.0,0,0.0,-1,0.0,0.0,0.0,0,0.0,1.3074
78483,0,,,,,,,,-0.63,0.6,-0.31,32,-22,11,0.87,0,,,,,,,,,,,,,,,,,
78523,0,,,,,,,,-0.36,0.69,0.07,35,-18,9,0.78,0,,,,,,,,,,,,,,,,,
78563,0,,,,,,,,-0.45,0.74,0.06,38,-13,6,0.87,0,,,,,,,,,,,,,,,,,
78603,0,,,,,,,,-0.44,0.79,-0.0,41,-16,8,0.91,0,,,,,,,,,,,,,,,,,
78643,0,-0,2,53,46,33,42,-46,-0.36,0.79,0.28,44,-13,6,0.87,0,0,0.0,0.0,0.0,0.0,0,0,0.0,0,0.0,-1,0.0,0.0,0.0,0,0.0,1.3107
78683,0,,,,,,,,-0.25,0.82,0.25,46,-5,4,0.86,0,,,,,,,,,,,,,,,,,
78723,0,,,,,,,,-0.45,0.82,0.18,48,-8,6,0.93,0,,,,,,,,,,,,,,,,,
78763,0,,,,,,,,-0.19,0.88,0.53,50,-6,5,0.9,0,,,,,,,,,,,,,,,,,
78803,0,,,,,,,,-0.33,0.84,0.45,51,-5,5,0.91,0,,,,,,,,,,,,,,,,,
78843,0,0,1,51,48,32,46,-51,-0.13,0.95,0.53,53,-6,6,0.96,0,0,0.0,0.0,0.0,0.0,0,0,0.0,0,0.0,-1,0.0,0.0,0.0,0,0.0,1.314
78883,0,,,,,,,,-0.36,0.89,0.26,55,-8,6,0.96,0,,,,,,,,,,,,,,,,,
78923,0,,,,,,,,-0.02,1.0,0.59,56,3,0,1.0,0,,,,,,,,,,,,,,,,,
78963,0,,,,,,,,-0.16,0.88,0.35,58,-6,7,0.9,0,,,,,,,,,,,,,,,,,
79003,0,,,,,,,,-0.24,0.86,0.31,58,-3,3,0.89,0,,,,,,,,,,,,,,,,,
79043,0,-0,1,55,48,32,44,-55,0.11,0.91,0.63,59,4,-1,0.92,0,0,0.0,0.0,0.0,0.0,0,0,0.0,0,0.0,-1,0.0,0.0,0.0,0,0.0,1.3174
79083,0,,,,,,,,-0.11,0.92,0.25,59,0,1,0.93,0,,,,,,,,,,,,,,,,,
79123,0,,,,,,,,-0.02,1.02,0.51,60,0,2,1.02,0,,,,,,,,,,,,,,,,,
79163,0,,,,,,,,-0.09,0.97,0.43,61,4,-1,0.97,0,,,,,,,,,,,,,,,,,
79203,0,,,,,,,,0.18,1.07,0.73,63,14,-5,1.09,0,,,,,,,,,,,,,,,,,
79243,0,0,3,54,47,33,45,-59,0.36,1.12,0.96,65,14,-2,1.18,0,0,0.0,0.0,0.0,0.0,0,0,0.0,0,0.0,-1,0.0,0.0,0.0,0,0.0,1.3207
79283,0,,,,,,,,0.54,1.18,1.16,67,10,3,1.3,0,,,,,,,,,,,,,,,,,
79323,0,,,,,,,,0.71,1.3,1.32,68,11,4,1.48,0,,,,,,,,,,,,,,,,,
79363,0,,,,,,,,0.45,1.23,0.69,69,1,9,1.31,0,,,,,,,,,,,,,,,,,
79403,0,,,,,,,,0.4,1.3,0.69,70,4,6,1.36,0,,,,,,,,,,,,,,,,,
79443,0,1,2,55,45,33,45,-66,0.14,1.23,0.27,71,-1,9,1.24,0,0,0.0,0.0,0.0,0.0,0,0,0.0,0,0.0,-1,0.0,0.0,0.0,0,0.0,1.324
79483,0,,,,,,,,0.14,1.23,0.5,72,5,5,1.23,0,,,,,,,,,,,,,,,,,
79523,0,,,,,,,,0.4,1.28,0.79,73,9,3,1.34,0,,,,,,,,,,,,,,,,,
79563,0,,,,,,,,0.28,1.28,0.66,73,-4,8,1.31,0,,,,,,,,,,,,,,,,,
79603,0,,,,,,,,0.25,1.2,0.55,73,3,4,1.23,0,,,,,,,,,,,,,,,,,
79643,0,1,3,54,46,33,46,-73,0.25,1.24,0.58,73,-5,9,1.27,0,0,0.0,0.0,0.0,0.0,0,0,0.0,0,0.0,-1,0.0,0.0,0.0,0,0.0,1.3274
79683,0,,,,,,,,-0.13,1.17,0.09,73,-6,7,1.18,0,,,,,,,,,,,,,,,,,
79723,0,,,,,,,,-0.09,1.18,0.36,73,8,-0,1.18,0,,,,,,,,,,,,,,,,,
79763,0,,,,,,,,0.25,1.14,0.67,74,15,-1,1.17,0,,,,,,,,,,,,,,,,,
79803,0,,,,,,,,0.33,1.14,0.59,76,0,8,1.18,0,,,,,,,,,,,,,,,,,
79843,0,1,3,54,46,33,47,-86,-0.08,1.18,0.09,76,-11,12,1.18,0,0,0.0,0.0,0.0,0.0,0,0,0.0,0,0.0,-1,0.0,0.0,0.0,0,0.0,1.3307
79883,0,,,,,,,,-0.43,1.16,-0.3,77,-6,7,1.23,0,,,,,,,,,,,,,,,,,
79923,0,,,,,,,,-0.73,0.96,-0.63,79,-14,9,1.2,0,,,,,,,,,,,,,,,,,
79963,0,,,,,,,,-0.39,1.06,-0.49,83,-10,6,1.13,0,,,,,,,,,,,,,,,,,
80003,0,,,,,,,,-0.25,1.16,-0.38,84,-5,2,1.18,0,,,,,,,,,,,,,,,,,
80043,0,2,5,54,48,31,45,-82,-0.37,1.11,-0.69,87,-12,11,1.17,0,0,0.0,0.0,0.0,0.0,0,0,0.0,0,0.0,-1,0.0,0.0,0.0,0,0.0,1.334
80083,0,,,,,,,,-0.27,1.12,-0.58,88,-20,16,1.15,0,,,,,,,,,,,,,,,,,
80123,0,,,,,,,,-0.1,1.11,-0.45,91,-0,4,1.11,0,,,,,,,,,,,,,,,,,
80163,0,,,,,,,,-0.34,1.15,-0.74,94,-12,13,1.2,0,,,,,,,,,,,,,,,,,
80203,0,,,,,,,,-0.01,1.1,-0.62,97,-6,9,1.1,0,,,,,,,,,,,,,,,,,
80243,0,-0,3,56,50,32,39,0,0.01,1.0,-0.48,97,9,-3,1.0,0,0,0.0,0.0,0.0,0.0,0,0,0.0,0,0.0,-1,0.0,0.0,0.0,0,0.0,1.3374
80283,0,,,,,,,,0.17,1.02,-0.41,95,0,8,1.03,0,,,,,,,,,,,,,,,,,
80323,0,,,,,,,,-0.06,0.79,-0.72,91,-17,20,0.79,0,,,,,,,,,,,,,,,,,
80363,0,,,,,,,,-0.09,0.57,-0.96,85,-21,27,0.58,0,,,,,,,,,,,,,,,,,
80403,0,,,,,,,,-0.25,0.43,-1.16,78,-24,29,0.49,0,,,,,,,,,,,,,,,,,
80443,0,2,1,54,51,30,40,44,-0.06,0.36,-0.6,72,2,6,0.36,0,0,0.0,0.0,0.0,0.0,0,0,0.0,0,0.0,-1,0.0,0.0,0.0,0,0.0,1.3407
80483,0,,,,,,,,0.07,0.5,-0.51,66,-11,15,0.5,0,,,,,,,,,,,,,,,,,
80523,0,,,,,,,,0.03,0.48,-0.39,59,3,4,0.48,0,,,,,,,,,,,,,,,,,
80563,0,,,,,,,,0.03,0.53,-0.3,49,-3,3,0.54,0,,,,,,,,,,,,,,,,,
80603,0,,,,,,,,0.09,0.56,-0.22,40,-2,0,0.57,0,,,,,,,,,,,,,,,,,
80643,0,-0,3,52,50,31,41,46,0.05,0.45,-0.16,31,-11,6,0.46,0,0,0.0,0.0,0.0,0.0,0,0,0.0,0,0.0,-1,0.0,0.0,0.0,0,0.0,1.344
80683,0,,,,,,,,0.09,0.48,0.14,21,7,-4,0.49,0,,,,,,,,,,,,,,,,,
80723,0,,,,,,,,-0.07,0.46,0.13,10,15,-7,0.46,0,,,,,,,,,,,,,,,,,
80763,0,,,,,,,,0.12,0.43,0.28,2,17,-10,0.45,0,,,,,,,,,,,,,,,,,
80803,0,,,,,,,,0.15,0.36,0.6,-2,16,-9,0.39,0,,,,,,,,,,,,,,,,,
80843,0,0,3,48,49,34,39,0,0.04,0.35,0.61,-4,14,-7,0.35,0,0,0.0,0.0,0.0,0.0,0,0,0.0,0,0.0,-1,0.0,0.0,0.0,0,0.0,1.3474
80883,0,,,,,,,,-0.22,0.31,0.51,-3,12,-5,0.38,0,,,,,,,,,,,,,,,,,
80923,0,,,,,,,,0.06,0.32,0.79,-1,28,-14,0.33,0,,,,,,,,,,,,,,,,,
80963,0,,,,,,,,0.35,0.28,1.02,1,47,-23,0.45,0,,,,,,,,,,,,,,,,,
81003,0,,,,,,,,0.18,0.07,0.81,3,45,-21,0.19,0,,,,,,,,,,,,,,,,,
81043,0,-0,3,46,49,34,40,7,0.24,-0.0,0.67,3,33,-16,0.24,0,0,0.0,0.0,0.0,0.0,0,0,0.0,0,0.0,-1,0.0,0.0,0.0,0,0.0,1.3507
81083,0,,,,,,,,0.23,-0.1,0.57,-1,16,-9,0.25,0,,,,,,,,,,,,,,,,,
81123,0,,,,,,,,0.29,-0.1,0.44,-3,37,-20,0.31,0,,,,,,,,,,,,,,,,,
81163,0,,,,,,,,0.36,-0.22,0.73,-5,45,-25,0.42,0,,,,,,,,,,,,,,,,,
81203,0,,,,,,,,0.68,-0.12,0.97,-8,41,-21,0.69,0,,,,,,,,,,,,,,,,,
81243,0,-1,2,47,52,35,35,30,0.43,-0.31,0.77,-11,52,-28,0.54,0,0,0.0,0.0,0.0,0.0,0,0,0.0,0,0.0,-1,0.0,0.0,0.0,0,0.0,1.3541
81283,0,,,,,,,,0.52,-0.31,0.64,-13,33,-19,0.61,0,,,,,,,,,,,,,,,,,
81323,0,,,,,,,,0.14,-0.44,0.14,-18,25,-18,0.46,0,,,,,,,,,,,,,,,,,
81363,0,,,,,,,,0.23,-0.56,0.49,-24,22,-21,0.61,0,,,,,,,,,,,,,,,,,
81403,0,,,,,,,,0.27,-0.64,0.42,-27,18,-18,0.69,0,,,,,,,,,,,,,,,,,
81443,0,1,1,47,55,37,34,46,0.28,-0.62,0.36,-31,9,-13,0.69,0,0,0.0,0.0,0.0,0.0,0,0,0.0,0,0.0,-1,0.0,0.0,0.0,0,0.0,1.3574
81483,0,,,,,,,,0.33,-0.65,0.31,-34,-5,-8,0.73,0,,,,,,,,,,,,,,,,,
81523,0,,,,,,,,0.26,-0.77,0.27,-38,-15,-5,0.81,0,,,,,,,,,,,,,,,,,
81563,0,,,,,,,,0.23,-0.67,0.24,-38,-11,-1,0.71,0,,,,,,,,,,,,,,,,,
81603,0,,,,,,,,0.1,-0.76,-0.19,-39,-12,2,0.77,0,,,,,,,,,,,,,,,,,
81643,0,0,1,46,55,37,35,46,0.09,-0.82,-0.17,-41,4,-7,0.83,0,0,0.0,0.0,0.0,0.0,0,0,0.0,0,0.0,-1,0.0,0.0,0.0,0,0.0,1.3607
81683,0,,,,,,,,0.11,-0.67,-0.12,-42,8,-12,0.68,0,,,,,,,,,,,,,,,,,
81723,0,,,,,,,,0.22,-0.69,-0.08,-42,8,-9,0.73,0,,,,,,,,,,,,,,,,,
81763,0,,,,,,,,0.25,-0.6,-0.04,-41,13,-6,0.65,0,,,,,,,,,,,,,,,,,
81803,0,,,,,,,,0.17,-0.59,-0.42,-38,9,-1,0.61,0,,,,,,,,,,,,,,,,,
81843,0,0,2,47,49,36,38,15,0.05,-0.4,-0.36,-35,6,-3,0.4,0,0,0.0,0.0,0.0,0.0,0,0,0.0,0,0.0,-1,0.0,0.0,0.0,0,0.0,1.3641
81883,0,,,,,,,,0.03,-0.3,-0.31,-31,15,-4,0.31,0,,,,,,,,,,,,,,,,,
81923,0,,,,,,,,0.12,-0.06,-0.23,-26,6,-2,0.13,0,,,,,,,,,,,,,,,,,
81963,0,,,,,,,,-0.14,0.02,-0.57,-19,-3,5,0.14,0,,,,,,,,,,,,,,,,,
82003,0,,,,,,,,-0.06,0.21,-0.42,-13,12,-4,0.21,0,,,,,,,,,,,,,,,,,
82043,0,-0,2,51,47,32,40,-25,-0.09,0.29,-0.65,-5,-10,8,0.3,0,0,0.0,0.0,0.0,0.0,0,0,0.0,0,0.0,-1,0.0,0.0,0.0,0,0.0,1.3674
