"Interval"|"ms"|0|0|1,"Utc"|"ms"|0|0|1,"Brake_F"|"Bar"|0|2000|10,"Brake_R"|"Bar"|0|2000|10,"Height_RF"|"mm"|0|255|10,"Height_LF"|"mm"|0|255|10,"Height_LR"|"mm"|0|80|10,"Height_RR"|"mm"|0|255|10,"Steering"|"deg"|-100|100|10,"AccelX"|"G"|-3.0|3.0|25,"AccelY"|"G"|-3.0|3.0|25,"AccelZ"|"G"|-3.0|3.0|25,"Yaw"|"Deg/Sec"|-120|120|25,"Pitch"|"Deg/Sec"|-120|120|25,"Roll"|"Deg/Sec"|-120|120|25,"Gsum"|"G"|0.0|3.0|25,"Unknown"|""|0|1024|25,"Log_Button"|""|0.0|10.0|10,"Latitude"|"Degrees"|-180.0|180.0|10,"Longitude"|"Degrees"|-180.0|180.0|10,"Speed"|"kph"|0.0|150.0|10,"Altitude"|"m"|0.0|4000.0|10,"GPSSats"|""|0|20|10,"GPSQual"|""|0|5|10,"GPSDOP"|""|0.0|20.0|10,"LapCount"|""|0|0|10,"LapTime"|"Min"|0.0|0.0|10,"Sector"|""|0|0|10,"SectorTime"|"Min"|0.0|0.0|10,"PredTime"|"Min"|0.0|0.0|5,"ElapsedTime"|"Min"|0.0|0.0|10,"CurrentLap"|""|0|0|10,"Distance"|"km"|0.0|0.0|10,"SessionTime"|"Min"|0.0|0.0|10
20083,0,,,,,,,,-0.05,-0.15,0.59,1,36,-6,0.16,0,,,,,,,,,,,,,,,,,
20123,0,,,,,,,,-0.38,-0.05,0.85,1,-1,-3,0.38,0,,,,,,,,,,,,,,,,,
20163,0,,,,,,,,-0.2,0.04,1.04,1,-28,1,0.2,0,,,,,,,,,,,,,,,,,
20203,0,,,,,,,,0.22,0.04,0.47,1,-24,1,0.22,0,,,,,,,,,,,,,,,,,
20243,0,-1,2,46,49,32,36,7,0.56,-0.05,0.06,1,10,-3,0.56,0,1,0.0,0.0,0.0,0.0,0,0,0.0,0,0.0,-1,0.0,0.0,0.0,0,0.0,0.3374
20283,0,,,,,,,,0.64,-0.09,0.1,0,42,-7,0.65,0,,,,,,,,,,,,,,,,,
20323,0,,,,,,,,0.25,-0.14,0.46,0,53,-9,0.29,0,,,,,,,,,,,,,,,,,
20363,0,,,,,,,,-0.17,-0.15,0.75,0,30,-6,0.23,0,,,,,,,,,,,,,,,,,
20403,0,,,,,,,,-0.52,-0.06,0.99,0,-7,-2,0.52,0,,,,,,,,,,,,,,,,,
20443,0,1,0,46,49,31,35,7,-0.66,0.04,1.15,0,-41,3,0.66,0,0,0.0,0.0,0.0,0.0,0,0,0.0,0,0.0,-1,0.0,0.0,0.0,0,0.0,0.3407
20483,0,,,,,,,,-0.28,0.06,0.59,0,-48,5,0.29,0,,,,,,,,,,,,,,,,,
20523,0,,,,,,,,0.15,0.02,0.1,1,-24,5,0.15,0,,,,,,,,,,,,,,,,,
20563,0,,,,,,,,0.5,-0.08,-0.3,1,11,1,0.51,0,,,,,,,,,,,,,,,,,
20603,0,,,,,,,,0.79,-0.13,-0.51,1,44,-3,0.8,0,,,,,,,,,,,,,,,,,
20643,0,0,3,46,49,32,35,6,0.56,-0.19,-0.27,0,57,-5,0.59,0,0,0.0,0.0,0.0,0.0,0,0,0.0,0,0.0,-1,0.0,0.0,0.0,0,0.0,0.344
20683,0,,,,,,,,0.07,-0.19,0.16,0,39,-2,0.21,0,,,,,,,,,,,,,,,,,
20723,0,,,,,,,,-0.32,-0.1,0.46,0,-2,4,0.33,0,,,,,,,,,,,,,,,,,
20763,0,,,,,,,,-0.42,-0.0,0.75,0,-30,5,0.42,0,,,,,,,,,,,,,,,,,
20803,0,,,,,,,,0.0,0.02,0.27,0,-30,5,0.02,0,,,,,,,,,,,,,,,,,
20843,0,0,2,46,49,32,36,8,0.38,-0.1,-0.16,0,-6,3,0.39,0,0,0.0,0.0,0.0,0.0,0,0,0.0,0,0.0,-1,0.0,0.0,0.0,0,0.0,0.3474
20883,0,,,,,,,,0.56,-0.16,-0.24,0,28,-3,0.58,0,,,,,,,,,,,,,,,,,
20923,0,,,,,,,,0.23,-0.17,0.19,-0,51,-6,0.29,0,,,,,,,,,,,,,,,,,
20963,0,,,,,,,,-0.19,-0.09,0.53,-0,44,-7,0.22,0,,,,,,,,,,,,,,,,,
21003,0,,,,,,,,-0.54,0.01,0.81,-0,9,-3,0.54,0,,,,,,,,,,,,,,,,,
21043,0,1,0,46,49,32,36,8,-0.62,0.08,1.03,-0,-30,2,0.63,0,0,0.0,0.0,0.0,0.0,0,0,0.0,0,0.0,-1,0.0,0.0,0.0,0,0.0,0.3507
21083,0,,,,,,,,-0.23,0.14,0.59,0,-53,7,0.27,0,,,,,,,,,,,,,,,,,
21123,0,,,,,,,,0.19,0.06,0.16,0,-36,4,0.2,0,,,,,,,,,,,,,,,,,
21163,0,,,,,,,,0.52,-0.02,0.12,0,5,-2,0.52,0,,,,,,,,,,,,,,,,,
21203,0,,,,,,,,0.45,-0.13,0.43,0,42,-6,0.46,0,,,,,,,,,,,,,,,,,
21243,0,1,0,46,49,31,36,7,0.19,-0.19,0.73,0,62,-8,0.27,0,0,0.0,0.0,0.0,0.0,0,0,0.0,0,0.0,-1,0.0,0.0,0.0,0,0.0,0.354
21283,0,,,,,,,,-0.22,-0.18,0.97,0,68,-9,0.29,0,,,,,,,,,,,,,,,,,
21323,0,,,,,,,,-0.56,-0.13,1.17,-0,51,-7,0.58,0,,,,,,,,,,,,,,,,,
21363,0,,,,,,,,-0.83,-0.06,1.32,-0,12,-2,0.84,0,,,,,,,,,,,,,,,,,
21403,0,,,,,,,,-0.93,0.04,1.45,-0,-26,2,0.93,0,,,,,,,,,,,,,,,,,
21443,0,-0,2,46,49,32,36,8,-0.5,0.09,1.43,-0,-40,2,0.51,0,0,0.0,0.0,0.0,0.0,0,0,0.0,0,0.0,-1,0.0,0.0,0.0,0,0.0,0.3574
21483,0,,,,,,,,-0.03,0.05,0.78,0,-22,-0,0.05,0,,,,,,,,,,,,,,,,,
21523,0,,,,,,,,0.28,-0.03,0.25,0,13,-2,0.28,0,,,,,,,,,,,,,,,,,
21563,0,,,,,,,,0.09,-0.11,0.58,0,37,-6,0.14,0,,,,,,,,,,,,,,,,,
21603,0,,,,,,,,-0.3,-0.12,0.85,0,31,-5,0.33,0,,,,,,,,,,,,,,,,,
21643,0,1,0,46,49,31,36,8,-0.63,-0.06,1.07,0,-3,-1,0.63,0,0,0.0,0.0,0.0,0.0,0,0,0.0,0,0.0,-1,0.0,0.0,0.0,0,0.0,0.3607
21683,0,,,,,,,,-0.73,0.01,1.15,0,-36,5,0.73,0,,,,,,,,,,,,,,,,,
21723,0,,,,,,,,-0.24,0.07,0.83,0,-44,5,0.25,0,,,,,,,,,,,,,,,,,
21763,0,,,,,,,,0.19,0.07,0.29,0,-31,4,0.2,0,,,,,,,,,,,,,,,,,
21803,0,,,,,,,,0.53,-0.02,-0.14,0,1,1,0.53,0,,,,,,,,,,,,,,,,,
21843,0,1,0,46,49,32,36,7,0.78,-0.1,-0.5,1,34,-1,0.79,0,0,0.0,0.0,0.0,0.0,0,0,0.0,0,0.0,-1,0.0,0.0,0.0,0,0.0,0.364
21883,0,,,,,,,,0.51,-0.14,-0.02,1,46,-4,0.53,0,,,,,,,,,,,,,,,,,
21923,0,,,,,,,,0.04,-0.15,0.36,0,26,-3,0.15,0,,,,,,,,,,,,,,,,,
21963,0,,,,,,,,-0.35,-0.08,0.67,0,-12,3,0.36,0,,,,,,,,,,,,,,,,,
22003,0,,,,,,,,-0.66,-0.02,0.92,0,-52,9,0.66,0,,,,,,,,,,,,,,,,,
22043,0,0,2,46,49,32,36,6,-0.85,0.03,1.12,0,-80,11,0.85,0,0,0.0,0.0,0.0,0.0,0,0,0.0,0,0.0,-1,0.0,0.0,0.0,0,0.0,0.3674
22083,0,,,,,,,,-0.54,0.13,0.64,0,-79,12,0.55,0,,,,,,,,,,,,,,,,,
22123,0,,,,,,,,-0.06,0.05,0.22,0,-46,8,0.07,0,,,,,,,,,,,,,,,,,
22163,0,,,,,,,,0.33,-0.04,0.11,0,-4,2,0.33,0,,,,,,,,,,,,,,,,,
22203,0,,,,,,,,-0.11,-0.07,0.47,0,18,-0,0.13,0,,,,,,,,,,,,,,,,,
22243,0,1,1,46,49,31,36,7,-0.47,-0.07,0.76,0,16,-0,0.48,0,0,0.0,0.0,0.0,0.0,0,0,0.0,0,0.0,-1,0.0,0.0,0.0,0,0.0,0.3707
22283,0,,,,,,,,-0.76,-0.03,1.0,-0,-3,1,0.76,0,,,,,,,,,,,,,,,,,
22323,0,,,,,,,,-0.91,0.05,1.0,-0,-37,5,0.91,0,,,,,,,,,,,,,,,,,
22363,0,,,,,,,,-0.63,0.09,0.66,0,-61,8,0.63,0,,,,,,,,,,,,,,,,,
22403,0,,,,,,,,-0.13,0.08,0.36,0,-58,6,0.15,0,,,,,,,,,,,,,,,,,
22443,0,-0,2,46,49,32,35,7,0.28,-0.01,-0.09,0,-30,4,0.28,0,0,0.0,0.0,0.0,0.0,0,0,0.0,0,0.0,-1,0.0,0.0,0.0,0,0.0,0.374
22483,0,,,,,,,,0.48,-0.07,-0.24,0,10,-1,0.48,0,,,,,,,,,,,,,,,,,
22523,0,,,,,,,,0.14,-0.1,0.18,0,38,-6,0.17,0,,,,,,,,,,,,,,,,,
22563,0,,,,,,,,-0.27,-0.06,0.53,0,24,-6,0.28,0,,,,,,,,,,,,,,,,,
22603,0,,,,,,,,-0.47,0.05,0.73,0,-12,0,0.47,0,,,,,,,,,,,,,,,,,
22643,0,-1,2,46,49,32,36,7,-0.09,0.06,0.71,0,-26,1,0.11,0,0,0.0,0.0,0.0,0.0,0,0,0.0,0,0.0,-1,0.0,0.0,0.0,0,0.0,0.3774
22683,0,,,,,,,,0.3,-0.04,0.2,0,-3,-1,0.31,0,,,,,,,,,,,,,,,,,
22723,0,,,,,,,,0.39,-0.09,0.18,0,33,-6,0.4,0,,,,,,,,,,,,,,,,,
22763,0,,,,,,,,0.09,-0.17,0.52,0,53,-8,0.19,0,,,,,,,,,,,,,,,,,
22803,0,,,,,,,,-0.31,-0.13,0.8,0,53,-8,0.33,0,,,,,,,,,,,,,,,,,
22843,0,-1,2,46,49,32,36,7,-0.63,-0.06,1.03,0,31,-5,0.63,0,0,0.0,0.0,0.0,0.0,0,0,0.0,0,0.0,-1,0.0,0.0,0.0,0,0.0,0.3807
22883,0,,,,,,,,-0.89,0.03,1.21,-0,-4,-1,0.89,0,,,,,,,,,,,,,,,,,
22923,0,,,,,,,,-1.0,0.11,1.28,-0,-43,4,1.0,0,,,,,,,,,,,,,,,,,
22963,0,,,,,,,,-0.54,0.13,1.3,0,-53,4,0.56,0,,,,,,,,,,,,,,,,,
23003,0,,,,,,,,-0.06,0.08,0.67,0,-31,3,0.1,0,,,,,,,,,,,,,,,,,
23043,0,1,1,46,49,31,36,7,0.33,-0.02,0.18,0,6,-0,0.33,0,0,0.0,0.0,0.0,0.0,0,0,0.0,0,0.0,-1,0.0,0.0,0.0,0,0.0,0.384
23083,0,,,,,,,,0.51,-0.12,0.53,0,43,-6,0.53,0,,,,,,,,,,,,,,,,,
23123,0,,,,,,,,0.46,-0.16,0.81,-0,66,-10,0.48,0,,,,,,,,,,,,,,,,,
23163,0,,,,,,,,0.13,-0.18,1.03,-0,71,-10,0.23,0,,,,,,,,,,,,,,,,,
23203,0,,,,,,,,-0.27,-0.17,1.22,-0,46,-6,0.32,0,,,,,,,,,,,,,,,,,
23243,0,1,0,46,49,31,36,7,-0.6,-0.1,1.13,-0,5,0,0.61,0,0,0.0,0.0,0.0,0.0,0,0,0.0,0,0.0,-1,0.0,0.0,0.0,0,0.0,0.3874
23283,0,,,,,,,,-0.73,-0.01,1.29,-0,-30,5,0.73,0,,,,,,,,,,,,,,,,,
23323,0,,,,,,,,-0.47,0.05,1.17,0,-42,5,0.47,0,,,,,,,,,,,,,,,,,
23363,0,,,,,,,,-0.0,0.08,1.1,0,-34,2,0.08,0,,,,,,,,,,,,,,,,,
23403,0,,,,,,,,0.38,0.01,0.63,0,-4,-2,0.38,0,,,,,,,,,,,,,,,,,
23443,0,-0,3,46,49,32,35,8,0.69,-0.04,0.13,0,34,-5,0.69,0,0,0.0,0.0,0.0,0.0,0,0,0.0,0,0.0,-1,0.0,0.0,0.0,0,0.0,0.3907
23483,0,,,,,,,,0.94,-0.11,-0.28,0,69,-9,0.94,0,,,,,,,,,,,,,,,,,
23523,0,,,,,,,,1.03,-0.15,-0.21,-0,90,-13,1.04,0,,,,,,,,,,,,,,,,,
23563,0,,,,,,,,0.6,-0.13,0.21,-0,84,-12,0.62,0,,,,,,,,,,,,,,,,,
23603,0,,,,,,,,0.13,-0.01,0.55,0,49,-7,0.13,0,,,,,,,,,,,,,,,,,
23643,0,0,3,46,49,32,36,8,0.22,0.07,0.46,-0,5,-1,0.23,0,0,0.0,0.0,0.0,0.0,0,0,0.0,0,0.0,-1,0.0,0.0,0.0,0,0.0,0.394
23683,0,,,,,,,,0.56,0.11,-0.01,0,-18,3,0.57,0,,,,,,,,,,,,,,,,,
23723,0,,,,,,,,0.83,0.02,-0.39,1,-7,1,0.83,0,,,,,,,,,,,,,,,,,
23763,0,,,,,,,,1.06,-0.08,-0.42,0,25,-3,1.06,0,,,,,,,,,,,,,,,,,
23803,0,,,,,,,,1.1,-0.12,-0.16,0,57,-8,1.11,0,,,,,,,,,,,,,,,,,
23843,0,0,2,46,49,32,36,6,0.57,-0.14,0.25,0,72,-10,0.59,0,0,0.0,0.0,0.0,0.0,0,0,0.0,0,0.0,-1,0.0,0.0,0.0,0,0.0,0.3974
23883,0,,,,,,,,0.08,-0.07,0.58,-0,64,-11,0.11,0,,,,,,,,,,,,,,,,,
23923,0,,,,,,,,-0.31,0.03,0.85,-0,26,-5,0.31,0,,,,,,,,,,,,,,,,,
23963,0,,,,,,,,-0.26,0.1,0.45,0,-17,2,0.27,0,,,,,,,,,,,,,,,,,
24003,0,,,,,,,,0.16,0.1,0.15,0,-31,4,0.19,0,,,,,,,,,,,,,,,,,
24043,0,0,2,46,49,32,36,6,0.51,0.04,-0.18,0,-12,0,0.51,0,0,0.0,0.0,0.0,0.0,0,0,0.0,0,0.0,-1,0.0,0.0,0.0,0,0.0,0.4007
24083,0,,,,,,,,0.7,-0.07,-0.41,0,21,-3,0.71,0,,,,,,,,,,,,,,,,,
24123,0,,,,,,,,0.32,-0.12,0.04,0,43,-7,0.35,0,,,,,,,,,,,,,,,,,
24163,0,,,,,,,,-0.12,-0.09,0.42,0,38,-6,0.15,0,,,,,,,,,,,,,,,,,
24203,0,,,,,,,,-0.47,-0.05,0.72,0,14,-2,0.48,0,,,,,,,,,,,,,,,,,
24243,0,-0,3,46,49,32,35,8,-0.76,0.01,0.96,-0,-22,3,0.76,0,0,0.0,0.0,0.0,0.0,0,0,0.0,0,0.0,-1,0.0,0.0,0.0,0,0.0,0.404
24283,0,,,,,,,,-0.83,0.12,1.16,0,-58,7,0.84,0,,,,,,,,,,,,,,,,,
24323,0,,,,,,,,-0.54,0.18,1.1,0,-72,8,0.57,0,,,,,,,,,,,,,,,,,
24363,0,,,,,,,,-0.06,0.18,0.51,0,-51,6,0.19,0,,,,,,,,,,,,,,,,,
24403,0,,,,,,,,0.33,0.06,0.03,0,-18,2,0.34,0,,,,,,,,,,,,,,,,,
24443,0,-0,2,46,49,32,36,6,0.65,-0.01,-0.35,0,20,-1,0.65,0,0,0.0,0.0,0.0,0.0,0,0,0.0,0,0.0,-1,0.0,0.0,0.0,0,0.0,0.4074
24483,0,,,,,,,,0.88,-0.11,-0.67,1,52,-3,0.89,0,,,,,,,,,,,,,,,,,
24523,0,,,,,,,,0.51,-0.13,-0.16,0,62,-7,0.53,0,,,,,,,,,,,,,,,,,
24563,0,,,,,,,,0.04,-0.15,0.25,0,39,-6,0.15,0,,,,,,,,,,,,,,,,,
24603,0,,,,,,,,-0.35,-0.07,0.58,1,-0,-2,0.36,0,,,,,,,,,,,,,,,,,
24643,0,-1,3,46,49,32,35,8,-0.6,0.04,0.85,1,-37,3,0.6,0,0,0.0,0.0,0.0,0.0,0,0,0.0,0,0.0,-1,0.0,0.0,0.0,0,0.0,0.4107
24683,0,,,,,,,,-0.59,0.13,0.79,1,-61,7,0.6,0,,,,,,,,,,,,,,,,,
24723,0,,,,,,,,-0.17,0.15,0.52,1,-57,6,0.23,0,,,,,,,,,,,,,,,,,
24763,0,,,,,,,,0.24,0.07,0.04,1,-26,2,0.25,0,,,,,,,,,,,,,,,,,
24803,0,,,,,,,,0.46,-0.03,-0.26,1,11,-0,0.46,0,,,,,,,,,,,,,,,,,
24843,0,1,2,46,49,32,36,7,0.24,-0.06,0.17,1,23,-4,0.24,0,0,0.0,0.0,0.0,0.0,0,0,0.0,0,0.0,-1,0.0,0.0,0.0,0,0.0,0.414
24883,0,,,,,,,,-0.19,-0.05,0.51,1,-8,-0,0.2,0,,,,,,,,,,,,,,,,,
24923,0,,,,,,,,-0.26,-0.01,0.8,0,-46,5,0.26,0,,,,,,,,,,,,,,,,,
24963,0,,,,,,,,0.13,0.04,0.26,0,-60,6,0.14,0,,,,,,,,,,,,,,,,,
25003,0,,,,,,,,0.48,-0.01,-0.17,1,-43,5,0.48,0,,,,,,,,,,,,,,,,,
25043,0,1,1,46,49,32,36,7,0.63,-0.1,-0.08,1,-1,0,0.64,0,0,0.0,0.0,0.0,0.0,0,0,0.0,0,0.0,-1,0.0,0.0,0.0,0,0.0,0.4174
25083,0,,,,,,,,0.34,-0.17,0.31,1,32,-3,0.37,0,,,,,,,,,,,,,,,,,
25123,0,,,,,,,,-0.11,-0.15,0.63,0,29,-3,0.18,0,,,,,,,,,,,,,,,,,
25163,0,,,,,,,,-0.47,-0.06,0.89,0,1,-2,0.47,0,,,,,,,,,,,,,,,,,
25203,0,,,,,,,,-0.26,0.03,0.99,0,-30,3,0.26,0,,,,,,,,,,,,,,,,,
25243,0,0,3,46,49,32,36,8,0.17,0.01,0.47,0,-25,0,0.17,0,0,0.0,0.0,0.0,0.0,0,0,0.0,0,0.0,-1,0.0,0.0,0.0,0,0.0,0.4207
25283,0,,,,,,,,0.52,-0.1,0.1,0,15,-5,0.53,0,,,,,,,,,,,,,,,,,
25323,0,,,,,,,,0.32,-0.18,0.44,0,41,-8,0.37,0,,,,,,,,,,,,,,,,,
25363,0,,,,,,,,-0.12,-0.16,0.74,0,34,-7,0.2,0,,,,,,,,,,,,,,,,,
25403,0,,,,,,,,-0.46,-0.06,0.98,0,-1,-2,0.46,0,,,,,,,,,,,,,,,,,
25443,0,-1,3,46,49,32,35,8,-0.33,0.02,0.43,0,-32,3,0.33,0,0,0.0,0.0,0.0,0.0,0,0,0.0,0,0.0,-1,0.0,0.0,0.0,0,0.0,0.424
25483,0,,,,,,,,0.12,0.06,-0.03,1,-33,3,0.13,0,,,,,,,,,,,,,,,,,
25523,0,,,,,,,,0.47,-0.01,-0.4,1,-9,1,0.47,0,,,,,,,,,,,,,,,,,
25563,0,,,,,,,,0.76,-0.09,-0.71,1,26,-3,0.77,0,,,,,,,,,,,,,,,,,
25603,0,,,,,,,,0.73,-0.14,-0.47,1,56,-7,0.75,0,,,,,,,,,,,,,,,,,
25643,0,0,1,46,49,32,36,6,0.21,-0.13,-0.0,1,51,-7,0.25,0,0,0.0,0.0,0.0,0.0,0,0,0.0,0,0.0,-1,0.0,0.0,0.0,0,0.0,0.4274
25683,0,,,,,,,,-0.21,-0.07,0.38,0,16,-2,0.22,0,,,,,,,,,,,,,,,,,
25723,0,,,,,,,,-0.26,0.01,0.46,0,-17,2,0.26,0,,,,,,,,,,,,,,,,,
25763,0,,,,,,,,0.17,0.01,0.34,1,-10,0,0.17,0,,,,,,,,,,,,,,,,,
25803,0,,,,,,,,0.52,-0.06,-0.1,1,28,-2,0.52,0,,,,,,,,,,,,,,,,,
25843,0,0,3,46,49,32,36,7,0.8,-0.13,-0.05,1,69,-8,0.81,0,0,0.0,0.0,0.0,0.0,0,0,0.0,0,0.0,-1,0.0,0.0,0.0,0,0.0,0.4307
25883,0,,,,,,,,1.03,-0.15,-0.03,0,101,-13,1.04,0,,,,,,,,,,,,,,,,,
25923,0,,,,,,,,0.96,-0.15,0.31,0,120,-16,0.97,0,,,,,,,,,,,,,,,,,
25963,0,,,,,,,,0.56,-0.15,0.63,0,118,-16,0.58,0,,,,,,,,,,,,,,,,,
26003,0,,,,,,,,0.08,-0.08,0.89,0,78,-13,0.11,0,,,,,,,,,,,,,,,,,
26043,0,1,2,46,49,32,36,7,-0.27,-0.01,1.1,0,31,-7,0.27,0,0,0.0,0.0,0.0,0.0,0,0,0.0,0,0.0,-1,0.0,0.0,0.0,0,0.0,0.434
26083,0,,,,,,,,-0.04,0.1,0.85,0,9,-4,0.1,0,,,,,,,,,,,,,,,,,
26123,0,,,,,,,,0.35,0.05,0.5,1,22,-5,0.35,0,,,,,,,,,,,,,,,,,
26163,0,,,,,,,,0.66,-0.04,0.02,1,57,-9,0.67,0,,,,,,,,,,,,,,,,,
26203,0,,,,,,,,0.91,-0.12,-0.11,1,83,-11,0.92,0,,,,,,,,,,,,,,,,,
26243,0,1,3,46,49,32,35,7,0.55,-0.18,0.24,1,81,-11,0.57,0,0,0.0,0.0,0.0,0.0,0,0,0.0,0,0.0,-1,0.0,0.0,0.0,0,0.0,0.4374
26283,0,,,,,,,,0.06,-0.16,0.57,0,56,-8,0.17,0,,,,,,,,,,,,,,,,,
26323,0,,,,,,,,-0.33,-0.1,0.84,0,19,-3,0.34,0,,,,,,,,,,,,,,,,,
26363,0,,,,,,,,-0.31,0.02,0.66,0,-23,4,0.31,0,,,,,,,,,,,,,,,,,
26403,0,,,,,,,,0.13,0.05,0.24,0,-40,5,0.14,0,,,,,,,,,,,,,,,,,
26443,0,0,3,46,49,32,35,8,0.48,-0.02,-0.19,0,-22,3,0.48,0,0,0.0,0.0,0.0,0.0,0,0,0.0,0,0.0,-1,0.0,0.0,0.0,0,0.0,0.4407
26483,0,,,,,,,,0.65,-0.1,-0.15,0,15,-2,0.66,0,,,,,,,,,,,,,,,,,
26523,0,,,,,,,,0.44,-0.15,0.26,-0,49,-8,0.46,0,,,,,,,,,,,,,,,,,
26563,0,,,,,,,,-0.02,-0.14,0.59,-1,59,-9,0.14,0,,,,,,,,,,,,,,,,,
26603,0,,,,,,,,-0.39,-0.06,0.86,-1,32,-5,0.4,0,,,,,,,,,,,,,,,,,
26643,0,1,3,46,49,32,36,7,-0.5,0.0,0.87,-1,-6,0,0.5,0,0,0.0,0.0,0.0,0.0,0,0,0.0,0,0.0,-1,0.0,0.0,0.0,0,0.0,0.444
26683,0,,,,,,,,-0.02,0.03,0.33,-0,-18,1,0.03,0,,,,,,,,,,,,,,,,,
26723,0,,,,,,,,0.36,-0.1,-0.12,-0,1,-2,0.37,0,,,,,,,,,,,,,,,,,
26763,0,,,,,,,,0.29,-0.14,-0.07,-0,32,-7,0.32,0,,,,,,,,,,,,,,,,,
26803,0,,,,,,,,-0.15,-0.15,0.32,-0,26,-5,0.21,0,,,,,,,,,,,,,,,,,
26843,0,1,0,46,49,32,35,7,-0.5,-0.06,0.58,-0,-10,1,0.5,0,0,0.0,0.0,0.0,0.0,0,0,0.0,0,0.0,-1,0.0,0.0,0.0,0,0.0,0.4474
26883,0,,,,,,,,-0.53,0.04,0.67,-0,-44,5,0.53,0,,,,,,,,,,,,,,,,,
26923,0,,,,,,,,-0.16,0.08,0.27,0,-60,8,0.18,0,,,,,,,,,,,,,,,,,
26963,0,,,,,,,,0.25,0.06,-0.16,0,-51,7,0.26,0,,,,,,,,,,,,,,,,,
27003,0,,,,,,,,0.58,-0.01,-0.51,0,-16,2,0.58,0,,,,,,,,,,,,,,,,,
27043,0,0,2,46,49,32,36,8,0.7,-0.1,-0.46,0,26,-4,0.7,0,0,0.0,0.0,0.0,0.0,0,0,0.0,0,0.0,-1,0.0,0.0,0.0,0,0.0,0.4507
27083,0,,,,,,,,0.37,-0.15,0.01,0,44,-7,0.4,0,,,,,,,,,,,,,,,,,
27123,0,,,,,,,,-0.08,-0.1,0.39,-0,20,-5,0.12,0,,,,,,,,,,,,,,,,,
27163,0,,,,,,,,-0.44,-0.06,0.63,-0,-24,2,0.45,0,,,,,,,,,,,,,,,,,
27203,0,,,,,,,,-0.51,0.04,0.65,0,-56,8,0.51,0,,,,,,,,,,,,,,,,,
27243,0,-0,2,46,49,32,36,7,-0.04,0.08,0.47,0,-56,7,0.09,0,0,0.0,0.0,0.0,0.0,0,0,0.0,0,0.0,-1,0.0,0.0,0.0,0,0.0,0.454
27283,0,,,,,,,,0.35,-0.01,-0.0,0,-27,5,0.35,0,,,,,,,,,,,,,,,,,
27323,0,,,,,,,,0.6,-0.09,-0.23,0,10,1,0.61,0,,,,,,,,,,,,,,,,,
27363,0,,,,,,,,0.3,-0.12,0.1,-0,27,-2,0.32,0,,,,,,,,,,,,,,,,,
27403,0,,,,,,,,-0.14,-0.11,0.46,-0,6,1,0.17,0,,,,,,,,,,,,,,,,,
27443,0,-0,3,46,49,32,36,7,-0.27,-0.0,0.52,-0,-23,5,0.27,0,0,0.0,0.0,0.0,0.0,0,0,0.0,0,0.0,-1,0.0,0.0,0.0,0,0.0,0.4574
27483,0,,,,,,,,0.16,0.03,0.35,-0,-14,2,0.16,0,,,,,,,,,,,,,,,,,
27523,0,,,,,,,,0.51,-0.04,-0.1,0,16,-0,0.51,0,,,,,,,,,,,,,,,,,
27563,0,,,,,,,,0.54,-0.13,0.28,-0,39,-5,0.55,0,,,,,,,,,,,,,,,,,
27603,0,,,,,,,,0.06,-0.11,0.61,-0,23,-5,0.12,0,,,,,,,,,,,,,,,,,
27643,0,0,2,46,49,32,36,7,-0.33,-0.04,0.87,-0,-17,1,0.33,0,0,0.0,0.0,0.0,0.0,0,0,0.0,0,0.0,-1,0.0,0.0,0.0,0,0.0,0.4607
27683,0,,,,,,,,-0.64,0.03,1.09,-0,-50,5,0.64,0,,,,,,,,,,,,,,,,,
27723,0,,,,,,,,-0.14,0.02,0.62,-0,-53,6,0.14,0,,,,,,,,,,,,,,,,,
27763,0,,,,,,,,0.27,-0.09,0.12,0,-25,3,0.28,0,,,,,,,,,,,,,,,,,
27803,0,,,,,,,,0.49,-0.12,0.04,0,17,-2,0.51,0,,,,,,,,,,,,,,,,,
27843,0,1,1,46,49,32,36,8,0.34,-0.14,0.41,0,56,-9,0.37,0,0,0.0,0.0,0.0,0.0,0,0,0.0,0,0.0,-1,0.0,0.0,0.0,0,0.0,0.464
27883,0,,,,,,,,0.05,-0.16,0.71,0,81,-12,0.17,0,,,,,,,,,,,,,,,,,
27923,0,,,,,,,,-0.3,-0.17,0.96,0,99,-15,0.34,0,,,,,,,,,,,,,,,,,
27963,0,,,,,,,,-0.56,-0.16,1.16,0,117,-18,0.58,0,,,,,,,,,,,,,,,,,
28003,0,,,,,,,,-0.7,-0.14,1.32,0,136,-23,0.71,0,,,,,,,,,,,,,,,,,
28043,0,1,1,46,49,32,36,7,-0.7,-0.13,1.44,-0,152,-24,0.71,0,0,0.0,0.0,0.0,0.0,0,0,0.0,0,0.0,-1,0.0,0.0,0.0,0,0.0,0.4674
28083,0,,,,,,,,-0.51,-0.14,1.55,-0,169,-26,0.53,0,,,,,,,,,,,,,,,,,
28123,0,,,,,,,,-0.18,-0.16,1.61,-0,184,-28,0.25,0,,,,,,,,,,,,,,,,,
28163,0,,,,,,,,-0.07,-0.2,1.68,-0,193,-31,0.21,0,,,,,,,,,,,,,,,,,
28203,0,,,,,,,,-0.26,-0.22,1.74,-0,188,-30,0.34,0,,,,,,,,,,,,,,,,,
28243,0,0,3,46,49,32,36,6,-0.59,-0.22,1.79,-0,164,-26,0.63,0,0,0.0,0.0,0.0,0.0,0,0,0.0,0,0.0,-1,0.0,0.0,0.0,0,0.0,0.4707
28283,0,,,,,,,,-0.86,-0.13,1.83,-1,139,-24,0.87,0,,,,,,,,,,,,,,,,,
28323,0,,,,,,,,-1.08,-0.08,1.86,-1,113,-21,1.08,0,,,,,,,,,,,,,,,,,
28363,0,,,,,,,,-1.25,-0.06,1.89,-0,92,-17,1.25,0,,,,,,,,,,,,,,,,,
28403,0,,,,,,,,-1.39,-0.08,1.91,0,74,-13,1.4,0,,,,,,,,,,,,,,,,,
28443,0,1,1,46,49,32,36,8,-1.51,-0.07,1.93,0,60,-11,1.51,0,0,0.0,0.0,0.0,0.0,0,0,0.0,0,0.0,-1,0.0,0.0,0.0,0,0.0,0.474
28483,0,,,,,,,,-1.6,-0.03,1.94,0,42,-8,1.6,0,,,,,,,,,,,,,,,,,
28523,0,,,,,,,,-1.68,0.02,1.95,-0,9,-4,1.68,0,,,,,,,,,,,,,,,,,
28563,0,,,,,,,,-1.74,0.1,1.96,-0,-29,1,1.74,0,,,,,,,,,,,,,,,,,
28603,0,,,,,,,,-1.7,0.17,1.97,0,-61,5,1.71,0,,,,,,,,,,,,,,,,,
28643,0,1,1,46,49,32,36,8,-1.38,0.21,1.53,0,-80,8,1.39,0,0,0.0,0.0,0.0,0.0,0,0,0.0,0,0.0,-1,0.0,0.0,0.0,0,0.0,0.4774
28683,0,,,,,,,,-0.86,0.22,1.02,0,-81,7,0.88,0,,,,,,,,,,,,,,,,,
28723,0,,,,,,,,-0.31,0.19,0.45,0,-67,7,0.37,0,,,,,,,,,,,,,,,,,
28763,0,,,,,,,,0.13,0.16,-0.02,1,-43,6,0.2,0,,,,,,,,,,,,,,,,,
28803,0,,,,,,,,0.48,0.08,-0.4,1,-11,3,0.49,0,,,,,,,,,,,,,,,,,
28843,0,-1,2,46,49,31,36,7,0.77,-0.02,-0.7,1,27,-0,0.77,0,0,0.0,0.0,0.0,0.0,0,0,0.0,0,0.0,-1,0.0,0.0,0.0,0,0.0,0.4807
28883,0,,,,,,,,1.0,-0.11,-0.95,1,64,-6,1.01,0,,,,,,,,,,,,,,,,,
28923,0,,,,,,,,1.19,-0.2,-1.15,1,97,-9,1.21,0,,,,,,,,,,,,,,,,,
28963,0,,,,,,,,1.35,-0.27,-1.31,0,124,-12,1.37,0,,,,,,,,,,,,,,,,,
29003,0,,,,,,,,1.47,-0.27,-1.44,1,140,-11,1.5,0,,,,,,,,,,,,,,,,,
29043,0,-0,3,46,49,32,36,7,1.57,-0.24,-1.55,1,152,-11,1.59,0,0,0.0,0.0,0.0,0.0,0,0,0.0,0,0.0,-1,0.0,0.0,0.0,0,0.0,0.484
29083,0,,,,,,,,1.61,-0.27,-1.52,0,164,-11,1.63,0,,,,,,,,,,,,,,,,,
29123,0,,,,,,,,1.37,-0.26,-0.93,0,174,-14,1.4,0,,,,,,,,,,,,,,,,,
29163,0,,,,,,,,0.85,-0.24,-0.38,0,176,-16,0.89,0,,,,,,,,,,,,,,,,,
29203,0,,,,,,,,0.31,-0.21,0.08,0,171,-18,0.38,0,,,,,,,,,,,,,,,,,
29243,0,-1,2,46,49,31,36,7,-0.13,-0.16,0.44,0,155,-18,0.2,0,0,0.0,0.0,0.0,0.0,0,0,0.0,0,0.0,-1,0.0,0.0,0.0,0,0.0,0.4874
29283,0,,,,,,,,-0.48,-0.13,0.74,-0,137,-18,0.5,0,,,,,,,,,,,,,,,,,
29323,0,,,,,,,,-0.77,-0.09,0.98,-0,137,-20,0.78,0,,,,,,,,,,,,,,,,,
29363,0,,,,,,,,-0.76,-0.08,1.17,-0,154,-23,0.77,0,,,,,,,,,,,,,,,,,
29403,0,,,,,,,,-0.35,-0.08,1.06,-1,172,-24,0.36,0,,,,,,,,,,,,,,,,,
29443,0,1,1,46,49,32,35,8,0.1,-0.12,0.48,-0,185,-21,0.16,0,0,0.0,0.0,0.0,0.0,0,0,0.0,0,0.0,-1,0.0,0.0,0.0,0,0.0,0.4907
29483,0,,,,,,,,0.46,-0.18,0.01,-0,183,-18,0.49,0,,,,,,,,,,,,,,,,,
29523,0,,,,,,,,0.75,-0.24,-0.37,0,170,-16,0.79,0,,,,,,,,,,,,,,,,,
29563,0,,,,,,,,0.99,-0.3,-0.68,0,150,-12,1.03,0,,,,,,,,,,,,,,,,,
29603,0,,,,,,,,1.18,-0.3,-0.93,0,140,-10,1.22,0,,,,,,,,,,,,,,,,,
29643,0,-0,2,46,49,32,36,7,1.34,-0.29,-1.14,0,128,-8,1.37,0,0,0.0,0.0,0.0,0.0,0,0,0.0,0,0.0,-1,0.0,0.0,0.0,0,0.0,0.494
29683,0,,,,,,,,1.46,-0.24,-1.3,0,108,-5,1.48,0,,,,,,,,,,,,,,,,,
29723,0,,,,,,,,1.57,-0.23,-1.43,0,78,-2,1.58,0,,,,,,,,,,,,,,,,,
29763,0,,,,,,,,1.65,-0.17,-1.54,0,51,0,1.66,0,,,,,,,,,,,,,,,,,
29803,0,,,,,,,,1.72,-0.12,-1.55,1,23,1,1.72,0,,,,,,,,,,,,,,,,,
29843,0,-1,3,46,49,31,36,7,1.71,-0.05,-1.54,1,-6,3,1.71,0,0,0.0,0.0,0.0,0.0,0,0,0.0,0,0.0,-1,0.0,0.0,0.0,0,0.0,0.4974
29883,0,,,,,,,,1.76,-0.02,-1.63,1,-25,4,1.76,0,,,,,,,,,,,,,,,,,
29923,0,,,,,,,,1.81,0.0,-1.69,1,-24,3,1.81,0,,,,,,,,,,,,,,,,,
29963,0,,,,,,,,1.84,-0.01,-1.75,1,-14,2,1.84,0,,,,,,,,,,,,,,,,,
30003,0,,,,,,,,1.87,-0.02,-1.8,0,-4,3,1.87,0,,,,,,,,,,,,,,,,,
30043,0,0,2,46,49,32,36,7,1.9,-0.02,-1.84,1,4,3,1.9,0,0,0.0,0.0,0.0,0.0,0,0,0.0,0,0.0,-1,0.0,0.0,0.0,0,0.0,0.5007
30083,0,,,,,,,,1.92,-0.04,-1.87,1,12,4,1.92,0,,,,,,,,,,,,,,,,,
30123,0,,,,,,,,1.93,-0.06,-1.89,1,21,4,1.93,0,,,,,,,,,,,,,,,,,
30163,0,,,,,,,,1.95,0.0,-1.91,1,16,5,1.95,0,,,,,,,,,,,,,,,,,
30203,0,,,,,,,,1.69,0.03,-1.78,1,-12,8,1.69,0,,,,,,,,,,,,,,,,,
30243,0,-1,2,46,49,32,36,7,0.99,0.1,-1.12,1,-56,12,1.0,0,0,0.0,0.0,0.0,0.0,0,0,0.0,0,0.0,-1,0.0,0.0,0.0,0,0.0,0.504
30283,0,,,,,,,,0.42,0.13,-0.53,0,-93,15,0.44,0,,,,,,,,,,,,,,,,,
30323,0,,,,,,,,-0.04,0.15,-0.05,0,-121,15,0.15,0,,,,,,,,,,,,,,,,,
30363,0,,,,,,,,-0.41,0.16,0.34,0,-124,14,0.44,0,,,,,,,,,,,,,,,,,
30403,0,,,,,,,,-0.61,0.14,0.66,1,-91,7,0.62,0,,,,,,,,,,,,,,,,,
30443,0,-1,2,46,49,32,36,7,-0.59,0.13,0.91,1,-38,-0,0.6,0,0,0.0,0.0,0.0,0.0,0,0,0.0,0,0.0,-1,0.0,0.0,0.0,0,0.0,0.5074
30483,0,,,,,,,,-0.61,0.07,1.12,1,16,-8,0.61,0,,,,,,,,,,,,,,,,,
30523,0,,,,,,,,-0.22,0.04,1.28,1,61,-13,0.22,0,,,,,,,,,,,,,,,,,
30563,0,,,,,,,,0.2,-0.05,1.07,1,96,-14,0.2,0,,,,,,,,,,,,,,,,,
30603,0,,,,,,,,0.54,-0.12,0.57,1,125,-15,0.55,0,,,,,,,,,,,,,,,,,
30643,0,1,1,46,49,32,35,8,0.69,-0.16,0.66,1,148,-17,0.71,0,0,0.0,0.0,0.0,0.0,0,0,0.0,0,0.0,-1,0.0,0.0,0.0,0,0.0,0.5107
30683,0,,,,,,,,0.68,-0.21,0.91,1,163,-19,0.71,0,,,,,,,,,,,,,,,,,
30723,0,,,,,,,,0.48,-0.22,1.12,1,172,-20,0.52,0,,,,,,,,,,,,,,,,,
30763,0,,,,,,,,0.2,-0.17,1.28,0,174,-23,0.26,0,,,,,,,,,,,,,,,,,
30803,0,,,,,,,,-0.19,-0.23,1.42,0,166,-23,0.29,0,,,,,,,,,,,,,,,,,
30843,0,0,3,46,49,32,36,6,-0.53,-0.22,1.53,0,155,-23,0.58,0,0,0.0,0.0,0.0,0.0,0,0,0.0,0,0.0,-1,0.0,0.0,0.0,0,0.0,0.514
30883,0,,,,,,,,-0.81,-0.19,1.62,0,149,-21,0.83,0,,,,,,,,,,,,,,,,,
30923,0,,,,,,,,-1.04,-0.16,1.69,-1,143,-20,1.05,0,,,,,,,,,,,,,,,,,
30963,0,,,,,,,,-1.09,-0.15,1.75,-1,146,-21,1.1,0,,,,,,,,,,,,,,,,,
31003,0,,,,,,,,-0.72,-0.13,1.8,-0,165,-24,0.73,0,,,,,,,,,,,,,,,,,
31043,0,1,3,46,49,32,36,6,-0.23,-0.15,1.57,0,180,-27,0.27,0,0,0.0,0.0,0.0,0.0,0,0,0.0,0,0.0,-1,0.0,0.0,0.0,0,0.0,0.5174
31083,0,,,,,,,,0.19,-0.16,0.99,1,193,-28,0.25,0,,,,,,,,,,,,,,,,,
31123,0,,,,,,,,0.54,-0.22,0.43,1,203,-26,0.58,0,,,,,,,,,,,,,,,,,
31163,0,,,,,,,,0.81,-0.25,-0.04,1,201,-23,0.85,0,,,,,,,,,,,,,,,,,
31203,0,,,,,,,,1.04,-0.26,-0.41,1,181,-20,1.07,0,,,,,,,,,,,,,,,,,
31243,0,1,0,46,49,31,36,8,1.22,-0.28,-0.71,1,155,-17,1.25,0,0,0.0,0.0,0.0,0.0,0,0,0.0,0,0.0,-1,0.0,0.0,0.0,0,0.0,0.5207
31283,0,,,,,,,,1.37,-0.25,-0.96,1,130,-15,1.39,0,,,,,,,,,,,,,,,,,
31323,0,,,,,,,,1.49,-0.19,-1.16,1,110,-11,1.5,0,,,,,,,,,,,,,,,,,
31363,0,,,,,,,,1.59,-0.17,-1.32,1,93,-7,1.6,0,,,,,,,,,,,,,,,,,
31403,0,,,,,,,,1.67,-0.13,-1.45,1,71,-4,1.67,0,,,,,,,,,,,,,,,,,
31443,0,-1,2,46,49,32,36,7,1.71,-0.07,-1.55,1,42,0,1.72,0,0,0.0,0.0,0.0,0.0,0,0,0.0,0,0.0,-1,0.0,0.0,0.0,0,0.0,0.524
31483,0,,,,,,,,1.34,-0.02,-1.13,1,3,3,1.34,0,,,,,,,,,,,,,,,,,
31523,0,,,,,,,,0.73,0.03,-0.58,1,-43,7,0.73,0,,,,,,,,,,,,,,,,,
31563,0,,,,,,,,0.21,0.05,-0.09,1,-82,12,0.22,0,,,,,,,,,,,,,,,,,
31603,0,,,,,,,,-0.21,0.08,0.31,0,-114,14,0.22,0,,,,,,,,,,,,,,,,,
31643,0,0,2,46,49,32,36,8,-0.55,0.12,0.63,0,-140,17,0.56,0,0,0.0,0.0,0.0,0.0,0,0,0.0,0,0.0,-1,0.0,0.0,0.0,0,0.0,0.5274
31683,0,,,,,,,,-0.82,0.12,0.89,0,-156,18,0.83,0,,,,,,,,,,,,,,,,,
31723,0,,,,,,,,-1.05,0.09,1.1,0,-169,19,1.05,0,,,,,,,,,,,,,,,,,
31763,0,,,,,,,,-1.23,0.12,1.27,-0,-171,19,1.23,0,,,,,,,,,,,,,,,,,
31803,0,,,,,,,,-1.38,0.1,1.41,-0,-162,16,1.38,0,,,,,,,,,,,,,,,,,
31843,0,0,1,46,49,32,36,8,-1.49,0.11,1.52,-0,-134,12,1.5,0,0,0.0,0.0,0.0,0.0,0,0,0.0,0,0.0,-1,0.0,0.0,0.0,0,0.0,0.5307
31883,0,,,,,,,,-1.57,0.07,1.61,-1,-76,5,1.57,0,,,,,,,,,,,,,,,,,
31923,0,,,,,,,,-1.09,0.04,1.68,-0,-14,-3,1.09,0,,,,,,,,,,,,,,,,,
31963,0,,,,,,,,-0.5,-0.01,1.17,-0,33,-5,0.5,0,,,,,,,,,,,,,,,,,
32003,0,,,,,,,,-0.03,-0.08,0.57,-0,51,-5,0.08,0,,,,,,,,,,,,,,,,,
32043,0,-0,3,46,49,32,35,6,0.36,-0.13,0.08,0,43,-2,0.38,0,0,0.0,0.0,0.0,0.0,0,0,0.0,0,0.0,-1,0.0,0.0,0.0,0,0.0,0.534
32083,0,,,,,,,,0.67,-0.12,-0.31,0,21,0,0.68,0,,,,,,,,,,,,,,,,,
32123,0,,,,,,,,0.92,-0.14,-0.64,0,5,1,0.94,0,,,,,,,,,,,,,,,,,
32163,0,,,,,,,,1.13,-0.17,-0.9,0,1,2,1.14,0,,,,,,,,,,,,,,,,,
32203,0,,,,,,,,1.29,-0.16,-1.11,0,2,2,1.3,0,,,,,,,,,,,,,,,,,
32243,0,-1,2,46,49,32,36,7,1.43,-0.18,-1.28,0,6,2,1.44,0,0,0.0,0.0,0.0,0.0,0,0,0.0,0,0.0,-1,0.0,0.0,0.0,0,0.0,0.5374
32283,0,,,,,,,,1.54,-0.24,-1.41,1,16,-1,1.56,0,,,,,,,,,,,,,,,,,
32323,0,,,,,,,,1.63,-0.24,-1.53,1,17,-1,1.64,0,,,,,,,,,,,,,,,,,
32363,0,,,,,,,,1.7,-0.19,-1.62,1,-1,1,1.71,0,,,,,,,,,,,,,,,,,
32403,0,,,,,,,,1.46,-0.15,-1.25,1,-42,4,1.47,0,,,,,,,,,,,,,,,,,
32443,0,-1,2,46,49,32,36,7,0.82,-0.07,-0.63,0,-82,9,0.83,0,0,0.0,0.0,0.0,0.0,0,0,0.0,0,0.0,-1,0.0,0.0,0.0,0,0.0,0.5407
32483,0,,,,,,,,0.29,-0.03,-0.13,0,-114,13,0.29,0,,,,,,,,,,,,,,,,,
32523,0,,,,,,,,-0.15,-0.01,0.27,0,-140,15,0.15,0,,,,,,,,,,,,,,,,,
32563,0,,,,,,,,-0.5,0.02,0.6,0,-156,16,0.5,0,,,,,,,,,,,,,,,,,
32603,0,,,,,,,,-0.78,0.04,0.86,-0,-166,17,0.79,0,,,,,,,,,,,,,,,,,
32643,0,1,0,46,49,31,36,7,-1.01,0.04,1.08,-0,-175,20,1.02,0,0,0.0,0.0,0.0,0.0,0,0,0.0,0,0.0,-1,0.0,0.0,0.0,0,0.0,0.544
32683,0,,,,,,,,-1.2,0.08,1.25,-1,-186,22,1.2,0,,,,,,,,,,,,,,,,,
32723,0,,,,,,,,-1.35,0.11,1.38,-0,-196,26,1.36,0,,,,,,,,,,,,,,,,,
32763,0,,,,,,,,-1.22,0.18,1.03,-0,-194,27,1.24,0,,,,,,,,,,,,,,,,,
32803,0,,,,,,,,-0.93,0.21,0.87,0,-182,24,0.95,0,,,,,,,,,,,,,,,,,
32843,0,1,1,46,49,31,36,7,-0.62,0.23,0.57,0,-170,22,0.66,0,0,0.0,0.0,0.0,0.0,0,0,0.0,0,0.0,-1,0.0,0.0,0.0,0,0.0,0.5474
32883,0,,,,,,,,-0.49,0.25,0.61,0,-162,20,0.54,0,,,,,,,,,,,,,,,,,
32923,0,,,,,,,,-0.36,0.24,0.47,0,-160,20,0.43,0,,,,,,,,,,,,,,,,,
32963,0,,,,,,,,-0.26,0.25,0.48,1,-158,19,0.36,0,,,,,,,,,,,,,,,,,
33003,0,,,,,,,,-0.11,0.27,0.61,1,-151,17,0.29,0,,,,,,,,,,,,,,,,,
33043,0,0,1,46,49,32,36,6,0.21,0.28,0.3,1,-130,15,0.35,0,0,0.0,0.0,0.0,0.0,0,0,0.0,0,0.0,-1,0.0,0.0,0.0,0,0.0,0.5507
33083,0,,,,,,,,0.55,0.24,-0.14,1,-100,13,0.6,0,,,,,,,,,,,,,,,,,
33123,0,,,,,,,,0.83,0.19,-0.49,1,-70,11,0.85,0,,,,,,,,,,,,,,,,,
33163,0,,,,,,,,1.05,0.18,-0.78,1,-41,8,1.07,0,,,,,,,,,,,,,,,,,
33203,0,,,,,,,,1.23,0.1,-1.01,1,-20,7,1.23,0,,,,,,,,,,,,,,,,,
33243,0,1,2,46,49,32,36,8,1.38,0.02,-1.2,1,-2,6,1.38,0,0,0.0,0.0,0.0,0.0,0,0,0.0,0,0.0,-1,0.0,0.0,0.0,0,0.0,0.5541
33283,0,,,,,,,,1.5,-0.03,-1.35,1,1,6,1.5,0,,,,,,,,,,,,,,,,,
33323,0,,,,,,,,1.59,-0.04,-1.48,1,-7,6,1.59,0,,,,,,,,,,,,,,,,,
33363,0,,,,,,,,1.67,-0.04,-1.58,1,-29,7,1.67,0,,,,,,,,,,,,,,,,,
33403,0,,,,,,,,1.73,-0.0,-1.66,1,-56,9,1.73,0,,,,,,,,,,,,,,,,,
33443,0,0,0,46,49,31,36,7,1.71,0.04,-1.67,1,-89,13,1.71,0,0,0.0,0.0,0.0,0.0,0,0,0.0,0,0.0,-1,0.0,0.0,0.0,0,0.0,0.5574
33483,0,,,,,,,,1.53,0.08,-1.69,1,-120,16,1.53,0,,,,,,,,,,,,,,,,,
33523,0,,,,,,,,1.08,0.1,-0.99,0,-145,18,1.08,0,,,,,,,,,,,,,,,,,
33563,0,,,,,,,,0.56,0.15,-0.42,0,-165,20,0.58,0,,,,,,,,,,,,,,,,,
33603,0,,,,,,,,0.07,0.18,0.04,0,-182,23,0.2,0,,,,,,,,,,,,,,,,,
33643,0,0,1,46,49,32,36,6,-0.32,0.21,0.41,-0,-195,26,0.38,0,0,0.0,0.0,0.0,0.0,0,0,0.0,0,0.0,-1,0.0,0.0,0.0,0,0.0,0.5607
33683,0,,,,,,,,-0.64,0.24,0.71,0,-206,27,0.68,0,,,,,,,,,,,,,,,,,
33723,0,,,,,,,,-0.6,0.26,0.58,0,-210,27,0.65,0,,,,,,,,,,,,,,,,,
33763,0,,,,,,,,-0.5,0.26,0.28,0,-209,27,0.56,0,,,,,,,,,,,,,,,,,
33803,0,,,,,,,,-0.21,0.29,0.0,1,-201,25,0.36,0,,,,,,,,,,,,,,,,,
33843,0,-1,2,46,49,32,36,7,0.04,0.27,0.13,1,-195,23,0.27,0,0,0.0,0.0,0.0,0.0,0,0,0.0,0,0.0,-1,0.0,0.0,0.0,0,0.0,0.564
33883,0,,,,,,,,0.32,0.29,0.05,1,-192,22,0.43,0,,,,,,,,,,,,,,,,,
33923,0,,,,,,,,0.38,0.28,-0.34,1,-192,23,0.48,0,,,,,,,,,,,,,,,,,
33963,0,,,,,,,,0.3,0.29,-0.16,1,-196,22,0.42,0,,,,,,,,,,,,,,,,,
34003,0,,,,,,,,-0.09,0.27,0.25,1,-205,23,0.28,0,,,,,,,,,,,,,,,,,
34043,0,0,1,46,49,32,36,6,-0.45,0.25,0.58,0,-214,24,0.51,0,0,0.0,0.0,0.0,0.0,0,0,0.0,0,0.0,-1,0.0,0.0,0.0,0,0.0,0.5674
34083,0,,,,,,,,-0.75,0.25,0.85,0,-221,25,0.79,0,,,,,,,,,,,,,,,,,
34123,0,,,,,,,,-0.98,0.22,1.07,-0,-222,25,1.01,0,,,,,,,,,,,,,,,,,
34163,0,,,,,,,,-1.18,0.22,1.24,-1,-206,21,1.2,0,,,,,,,,,,,,,,,,,
34203,0,,,,,,,,-1.33,0.2,1.39,-1,-173,17,1.35,0,,,,,,,,,,,,,,,,,
34243,0,1,2,46,49,32,36,7,-1.46,0.16,1.5,-0,-133,13,1.47,0,0,0.0,0.0,0.0,0.0,0,0,0.0,0,0.0,-1,0.0,0.0,0.0,0,0.0,0.5707
34283,0,,,,,,,,-1.27,0.14,1.6,-0,-80,5,1.28,0,,,,,,,,,,,,,,,,,
34323,0,,,,,,,,-0.7,0.09,1.44,-0,-19,-2,0.71,0,,,,,,,,,,,,,,,,,
34363,0,,,,,,,,-0.19,-0.01,0.87,1,32,-8,0.19,0,,,,,,,,,,,,,,,,,
34403,0,,,,,,,,0.23,-0.1,0.32,1,73,-11,0.25,0,,,,,,,,,,,,,,,,,
34443,0,1,1,46,49,31,36,7,0.56,-0.15,-0.12,1,101,-12,0.58,0,0,0.0,0.0,0.0,0.0,0,0,0.0,0,0.0,-1,0.0,0.0,0.0,0,0.0,0.574
34483,0,,,,,,,,0.84,-0.19,-0.48,1,112,-12,0.86,0,,,,,,,,,,,,,,,,,
34523,0,,,,,,,,1.06,-0.19,-0.77,1,114,-11,1.07,0,,,,,,,,,,,,,,,,,
34563,0,,,,,,,,1.24,-0.2,-1.0,1,117,-11,1.25,0,,,,,,,,,,,,,,,,,
34603,0,,,,,,,,1.38,-0.24,-1.19,1,127,-11,1.4,0,,,,,,,,,,,,,,,,,
34643,0,1,2,46,49,32,36,8,1.5,-0.24,-1.31,1,140,-10,1.52,0,0,0.0,0.0,0.0,0.0,0,0,0.0,0,0.0,-1,0.0,0.0,0.0,0,0.0,0.5774
34683,0,,,,,,,,1.6,-0.23,-1.44,1,150,-10,1.61,0,,,,,,,,,,,,,,,,,
34723,0,,,,,,,,1.67,-0.21,-1.55,1,159,-9,1.69,0,,,,,,,,,,,,,,,,,
34763,0,,,,,,,,1.73,-0.24,-1.63,1,163,-10,1.75,0,,,,,,,,,,,,,,,,,
34803,0,,,,,,,,1.79,-0.26,-1.7,1,166,-10,1.8,0,,,,,,,,,,,,,,,,,
34843,0,-1,2,46,49,32,36,7,1.83,-0.28,-1.76,1,171,-11,1.85,0,0,0.0,0.0,0.0,0.0,0,0,0.0,0,0.0,-1,0.0,0.0,0.0,0,0.0,0.5807
34883,0,,,,,,,,1.86,-0.3,-1.81,0,177,-12,1.88,0,,,,,,,,,,,,,,,,,
34923,0,,,,,,,,1.75,-0.32,-1.41,0,184,-14,1.78,0,,,,,,,,,,,,,,,,,
34963,0,,,,,,,,1.31,-0.33,-0.76,-0,184,-16,1.35,0,,,,,,,,,,,,,,,,,
35003,0,,,,,,,,0.73,-0.32,-0.24,0,170,-16,0.79,0,,,,,,,,,,,,,,,,,
35043,0,1,0,46,49,31,36,7,0.21,-0.25,0.19,0,144,-15,0.32,0,0,0.0,0.0,0.0,0.0,0,0,0.0,0,0.0,-1,0.0,0.0,0.0,0,0.0,0.584
35083,0,,,,,,,,-0.21,-0.17,0.53,0,109,-12,0.27,0,,,,,,,,,,,,,,,,,
35123,0,,,,,,,,-0.55,-0.09,0.81,-0,70,-8,0.56,0,,,,,,,,,,,,,,,,,
35163,0,,,,,,,,-0.83,-0.03,1.04,0,32,-3,0.83,0,,,,,,,,,,,,,,,,,
35203,0,,,,,,,,-1.04,0.02,1.22,0,-9,2,1.04,0,,,,,,,,,,,,,,,,,
35243,0,-1,2,46,49,32,35,7,-1.1,0.0,1.35,0,-39,3,1.1,0,0,0.0,0.0,0.0,0.0,0,0,0.0,0,0.0,-1,0.0,0.0,0.0,0,0.0,0.5874
35283,0,,,,,,,,-1.09,0.01,1.47,0,-44,3,1.09,0,,,,,,,,,,,,,,,,,
35323,0,,,,,,,,-0.88,-0.01,1.15,0,-40,3,0.88,0,,,,,,,,,,,,,,,,,
35363,0,,,,,,,,-0.76,-0.01,1.31,0,-36,2,0.76,0,,,,,,,,,,,,,,,,,
35403,0,,,,,,,,-0.41,0.01,0.68,0,-8,2,0.41,0,,,,,,,,,,,,,,,,,
35443,0,0,1,47,49,32,37,6,-0.05,0.01,0.17,0,-3,3,0.05,0,0,0.0,0.0,0.0,0.0,0,0,0.0,0,0.0,-1,0.0,0.0,0.0,0,0.0,0.5907
35483,0,,,,,,,,-0.28,0.01,0.16,0,-32,6,0.28,0,,,,,,,,,,,,,,,,,
35523,0,,,,,,,,-0.6,0.02,0.51,-0,-63,8,0.6,0,,,,,,,,,,,,,,,,,
35563,0,,,,,,,,-0.87,-0.0,0.79,-0,-78,9,0.87,0,,,,,,,,,,,,,,,,,
35603,0,,,,,,,,-1.08,-0.01,1.02,-0,-87,10,1.08,0,,,,,,,,,,,,,,,,,
35643,0,-1,2,47,49,32,37,8,-1.16,0.06,1.21,-0,-96,12,1.16,0,0,0.0,0.0,0.0,0.0,0,0,0.0,0,0.0,-1,0.0,0.0,0.0,0,0.0,0.594
35683,0,,,,,,,,-0.64,0.14,0.8,0,-78,9,0.65,0,,,,,,,,,,,,,,,,,
35723,0,,,,,,,,-0.23,0.04,0.26,0,-40,5,0.23,0,,,,,,,,,,,,,,,,,
35763,0,,,,,,,,-0.54,0.0,0.53,0,-38,4,0.54,0,,,,,,,,,,,,,,,,,
35803,0,,,,,,,,-0.45,0.07,0.66,0,-48,6,0.45,0,,,,,,,,,,,,,,,,,
35843,0,0,3,47,49,32,36,8,-0.3,-0.0,0.45,0,-31,3,0.3,0,0,0.0,0.0,0.0,0.0,0,0,0.0,0,0.0,-1,0.0,0.0,0.0,0,0.0,0.5974
35883,0,,,,,,,,-0.17,0.01,0.67,0,-24,2,0.17,0,,,,,,,,,,,,,,,,,
35923,0,,,,,,,,-0.13,0.03,0.73,0,-20,0,0.14,0,,,,,,,,,,,,,,,,,
35963,0,,,,,,,,-0.14,0.07,0.46,0,-23,4,0.16,0,,,,,,,,,,,,,,,,,
36003,0,,,,,,,,-0.34,-0.08,-0.01,0,-13,-0,0.35,0,,,,,,,,,,,,,,,,,
36043,0,-1,0,47,49,32,37,8,-0.53,-0.22,-0.39,-0,-4,-5,0.58,0,0,0.0,0.0,0.0,0.0,0,0,0.0,0,0.0,-1,0.0,0.0,0.0,0,0.0,0.6007
36083,0,,,,,,,,-0.34,-0.1,-0.3,-0,1,-8,0.35,0,,,,,,,,,,,,,,,,,
36123,0,,,,,,,,-0.43,0.02,-0.62,0,-15,5,0.43,0,,,,,,,,,,,,,,,,,
36163,0,,,,,,,,-0.56,0.02,-0.88,-0,-13,-0,0.56,0,,,,,,,,,,,,,,,,,
36203,0,,,,,,,,-0.49,0.07,-0.45,-0,-10,2,0.5,0,,,,,,,,,,,,,,,,,
36243,0,0,2,47,49,32,37,9,-0.46,0.02,-0.6,-0,-5,4,0.46,0,0,0.0,0.0,0.0,0.0,0,0,0.0,0,0.0,-1,0.0,0.0,0.0,0,0.0,0.604
36283,0,,,,,,,,-0.45,0.02,-0.36,0,-6,5,0.45,0,,,,,,,,,,,,,,,,,
36323,0,,,,,,,,-0.4,0.08,-0.12,1,-3,1,0.41,0,,,,,,,,,,,,,,,,,
36363,0,,,,,,,,-0.35,0.1,-0.18,1,-6,2,0.37,0,,,,,,,,,,,,,,,,,
36403,0,,,,,,,,-0.34,0.04,-0.16,0,-7,5,0.34,0,,,,,,,,,,,,,,,,,
36443,0,1,3,47,49,32,36,11,-0.25,-0.04,-0.15,1,-9,8,0.25,0,0,0.0,0.0,0.0,0.0,0,0,0.0,0,0.0,-1,0.0,0.0,0.0,0,0.0,0.6074
36483,0,,,,,,,,-0.23,-0.04,0.12,0,-6,4,0.24,0,,,,,,,,,,,,,,,,,
36523,0,,,,,,,,-0.1,-0.08,0.12,1,-0,0,0.13,0,,,,,,,,,,,,,,,,,
36563,0,,,,,,,,-0.13,-0.05,0.13,1,-1,2,0.14,0,,,,,,,,,,,,,,,,,
36603,0,,,,,,,,-0.01,-0.12,0.09,1,-0,1,0.12,0,,,,,,,,,,,,,,,,,
36643,0,1,2,47,49,32,37,11,-0.0,-0.06,-0.29,1,2,5,0.06,0,0,0.0,0.0,0.0,0.0,0,0,0.0,0,0.0,-1,0.0,0.0,0.0,0,0.0,0.6107
36683,0,,,,,,,,-0.07,-0.04,-0.61,1,2,10,0.08,0,,,,,,,,,,,,,,,,,
36723,0,,,,,,,,-0.03,-0.04,-0.17,1,7,3,0.05,0,,,,,,,,,,,,,,,,,
36763,0,,,,,,,,-0.02,-0.04,-0.12,1,4,2,0.05,0,,,,,,,,,,,,,,,,,
36803,0,,,,,,,,-0.16,-0.11,-0.21,0,-4,7,0.19,0,,,,,,,,,,,,,,,,,
36843,0,0,2,47,49,32,37,12,-0.26,0.08,-0.55,1,-21,21,0.27,0,0,0.0,0.0,0.0,0.0,0,0,0.0,0,0.0,-1,0.0,0.0,0.0,0,0.0,0.614
36883,0,,,,,,,,-0.25,0.12,-0.43,0,-9,9,0.28,0,,,,,,,,,,,,,,,,,
36923,0,,,,,,,,-0.25,0.11,-0.73,-1,-8,11,0.27,0,,,,,,,,,,,,,,,,,
36963,0,,,,,,,,-0.12,0.15,-0.41,-1,-0,7,0.19,0,,,,,,,,,,,,,,,,,
37003,0,,,,,,,,-0.01,0.16,-0.67,0,4,5,0.16,0,,,,,,,,,,,,,,,,,
37043,0,0,3,47,49,32,36,14,-0.01,0.13,-0.52,1,5,4,0.13,0,0,0.0,0.0,0.0,0.0,0,0,0.0,0,0.0,-1,0.0,0.0,0.0,0,0.0,0.6174
37083,0,,,,,,,,-0.03,0.13,-0.67,2,5,6,0.13,0,,,,,,,,,,,,,,,,,
37123,0,,,,,,,,-0.1,0.09,-0.56,2,-3,13,0.13,0,,,,,,,,,,,,,,,,,
37163,0,,,,,,,,-0.09,0.07,-0.48,1,-11,13,0.11,0,,,,,,,,,,,,,,,,,
37203,0,,,,,,,,0.01,0.11,-0.01,1,-1,3,0.11,0,,,,,,,,,,,,,,,,,
37243,0,1,2,47,49,32,37,16,-0.08,-0.01,0.01,1,-7,7,0.09,0,0,0.0,0.0,0.0,0.0,0,0,0.0,0,0.0,-1,0.0,0.0,0.0,0,0.0,0.6207
37283,0,,,,,,,,0.03,0.09,-0.01,1,-3,3,0.1,0,,,,,,,,,,,,,,,,,
37323,0,,,,,,,,-0.24,0.01,-0.39,2,-23,19,0.24,0,,,,,,,,,,,,,,,,,
37363,0,,,,,,,,-0.31,-0.13,-0.61,2,-14,15,0.34,0,,,,,,,,,,,,,,,,,
37403,0,,,,,,,,-0.45,-0.15,-0.87,1,-8,7,0.47,0,,,,,,,,,,,,,,,,,
37443,0,1,0,47,49,32,36,26,-0.5,-0.14,-1.09,1,-14,11,0.52,0,0,0.0,0.0,0.0,0.0,0,0,0.0,0,0.0,-1,0.0,0.0,0.0,0,0.0,0.624
37483,0,,,,,,,,-0.52,-0.05,-1.26,0,-26,21,0.52,0,,,,,,,,,,,,,,,,,
37523,0,,,,,,,,-0.34,0.12,-1.0,1,-26,26,0.36,0,,,,,,,,,,,,,,,,,
37563,0,,,,,,,,-0.2,-0.04,-0.43,1,-10,10,0.2,0,,,,,,,,,,,,,,,,,
37603,0,,,,,,,,-0.25,-0.03,-0.73,-0,-20,17,0.25,0,,,,,,,,,,,,,,,,,
37643,0,-0,2,47,49,32,37,42,-0.18,-0.21,-0.61,-0,-15,10,0.28,0,0,0.0,0.0,0.0,0.0,0,0,0.0,0,0.0,-1,0.0,0.0,0.0,0,0.0,0.6274
37683,0,,,,,,,,-0.06,-0.17,-0.26,-0,-12,9,0.19,0,,,,,,,,,,,,,,,,,
37723,0,,,,,,,,-0.03,-0.14,-0.17,-0,-7,7,0.14,0,,,,,,,,,,,,,,,,,
37763,0,,,,,,,,-0.0,-0.13,-0.16,-0,-6,7,0.13,0,,,,,,,,,,,,,,,,,
37803,0,,,,,,,,0.03,-0.1,-0.14,-1,-8,7,0.11,0,,,,,,,,,,,,,,,,,
37843,0,-1,2,47,50,32,36,55,0.13,-0.07,0.26,-1,-1,1,0.15,0,0,0.0,0.0,0.0,0.0,0,0,0.0,0,0.0,-1,0.0,0.0,0.0,0,0.0,0.6307
37883,0,,,,,,,,0.12,-0.15,0.22,-1,-3,4,0.19,0,,,,,,,,,,,,,,,,,
37923,0,,,,,,,,0.13,-0.13,0.15,-2,-3,4,0.18,0,,,,,,,,,,,,,,,,,
37963,0,,,,,,,,0.23,-0.1,0.2,-3,-0,1,0.25,0,,,,,,,,,,,,,,,,,
38003,0,,,,,,,,0.2,-0.11,-0.03,-4,-2,4,0.23,0,,,,,,,,,,,,,,,,,
38043,0,1,1,47,50,32,36,76,0.26,-0.06,0.36,-5,0,-1,0.27,0,0,0.0,0.0,0.0,0.0,0,0,0.0,0,0.0,-1,0.0,0.0,0.0,0,0.0,0.634
38083,0,,,,,,,,0.22,-0.13,0.17,-5,-5,4,0.26,0,,,,,,,,,,,,,,,,,
38123,0,,,,,,,,0.26,-0.15,0.39,-6,1,-1,0.31,0,,,,,,,,,,,,,,,,,
38163,0,,,,,,,,0.34,-0.06,0.49,-7,4,-1,0.34,0,,,,,,,,,,,,,,,,,
38203,0,,,,,,,,0.27,-0.13,0.42,-9,2,0,0.3,0,,,,,,,,,,,,,,,,,
38243,0,-1,2,49,53,32,35,87,0.33,-0.17,0.32,-11,-2,1,0.37,0,0,0.0,0.0,0.0,0.0,0,0,0.0,0,0.0,-1,0.0,0.0,0.0,0,0.0,0.6374
38283,0,,,,,,,,0.35,-0.17,0.24,-13,-2,-3,0.39,0,,,,,,,,,,,,,,,,,
38323,0,,,,,,,,0.12,-0.32,-0.19,-15,-17,11,0.34,0,,,,,,,,,,,,,,,,,
38363,0,,,,,,,,0.22,-0.27,-0.13,-19,-8,1,0.35,0,,,,,,,,,,,,,,,,,
38403,0,,,,,,,,0.22,-0.28,-0.34,-20,-21,11,0.36,0,,,,,,,,,,,,,,,,,
38443,0,1,1,50,55,31,33,100,0.25,-0.27,-0.28,-24,-23,13,0.37,0,0,0.0,0.0,0.0,0.0,0,0,0.0,0,0.0,-1,0.0,0.0,0.0,0,0.0,0.6407
38483,0,,,,,,,,0.26,-0.33,-0.24,-28,-19,10,0.42,0,,,,,,,,,,,,,,,,,
38523,0,,,,,,,,0.35,-0.37,0.18,-31,-10,5,0.51,0,,,,,,,,,,,,,,,,,
38563,0,,,,,,,,-0.06,-0.42,0.46,-36,-30,6,0.42,0,,,,,,,,,,,,,,,,,
38603,0,,,,,,,,-0.25,-0.36,0.75,-39,-42,4,0.44,0,,,,,,,,,,,,,,,,,
38643,0,1,0,50,55,32,34,100,-0.13,-0.39,0.63,-43,-35,4,0.41,0,0,0.0,0.0,0.0,0.0,0,0,0.0,0,0.0,-1,0.0,0.0,0.0,0,0.0,0.644
38683,0,,,,,,,,-0.11,-0.48,0.6,-45,-31,4,0.49,0,,,,,,,,,,,,,,,,,
38723,0,,,,,,,,-0.03,-0.5,0.86,-47,-26,2,0.5,0,,,,,,,,,,,,,,,,,
38763,0,,,,,,,,0.06,-0.48,0.9,-50,-20,1,0.48,0,,,,,,,,,,,,,,,,,
38803,0,,,,,,,,0.1,-0.51,0.91,-51,-14,1,0.52,0,,,,,,,,,,,,,,,,,
38843,0,0,1,49,55,34,34,100,0.12,-0.53,1.04,-53,-11,-0,0.54,0,0,0.0,0.0,0.0,0.0,0,0,0.0,0,0.0,-1,0.0,0.0,0.0,0,0.0,0.6474
38883,0,,,,,,,,0.13,-0.54,1.07,-54,-11,-0,0.56,0,,,,,,,,,,,,,,,,,
38923,0,,,,,,,,0.2,-0.53,1.15,-56,-8,-1,0.57,0,,,,,,,,,,,,,,,,,
38963,0,,,,,,,,0.17,-0.54,1.01,-57,-6,-2,0.57,0,,,,,,,,,,,,,,,,,
39003,0,,,,,,,,0.22,-0.54,1.1,-59,-5,-3,0.58,0,,,,,,,,,,,,,,,,,
39043,0,-0,2,49,55,35,34,99,0.19,-0.57,0.85,-60,-3,-3,0.6,0,0,0.0,0.0,0.0,0.0,0,0,0.0,0,0.0,-1,0.0,0.0,0.0,0,0.0,0.6507
39083,0,,,,,,,,0.12,-0.6,0.87,-61,-2,-3,0.61,0,,,,,,,,,,,,,,,,,
39123,0,,,,,,,,0.12,-0.61,0.74,-62,-2,-2,0.62,0,,,,,,,,,,,,,,,,,
39163,0,,,,,,,,0.07,-0.61,0.7,-63,-1,-2,0.62,0,,,,,,,,,,,,,,,,,
39203,0,,,,,,,,0.06,-0.63,0.72,-64,-1,-3,0.63,0,,,,,,,,,,,,,,,,,
39243,0,1,1,47,54,36,35,99,0.06,-0.63,0.86,-65,-1,-3,0.64,0,0,0.0,0.0,0.0,0.0,0,0,0.0,0,0.0,-1,0.0,0.0,0.0,0,0.0,0.654
39283,0,,,,,,,,0.08,-0.69,0.91,-66,1,-4,0.69,0,,,,,,,,,,,,,,,,,
39323,0,,,,,,,,0.03,-0.67,0.97,-66,1,-4,0.67,0,,,,,,,,,,,,,,,,,
39363,0,,,,,,,,0.01,-0.66,1.04,-67,-0,-4,0.66,0,,,,,,,,,,,,,,,,,
39403,0,,,,,,,,0.01,-0.61,1.07,-68,2,-4,0.61,0,,,,,,,,,,,,,,,,,
39443,0,-0,2,47,54,36,35,95,-0.05,-0.66,1.12,-68,1,-4,0.66,0,0,0.0,0.0,0.0,0.0,0,0,0.0,0,0.0,-1,0.0,0.0,0.0,0,0.0,0.6574
39483,0,,,,,,,,-0.04,-0.62,1.12,-68,-1,-4,0.62,0,,,,,,,,,,,,,,,,,
39523,0,,,,,,,,0.04,-0.62,1.28,-68,2,-5,0.62,0,,,,,,,,,,,,,,,,,
39563,0,,,,,,,,0.04,-0.67,1.06,-68,1,-5,0.67,0,,,,,,,,,,,,,,,,,
39603,0,,,,,,,,0.12,-0.66,1.17,-67,10,-5,0.67,0,,,,,,,,,,,,,,,,,
39643,0,1,1,48,55,36,34,84,0.16,-0.67,0.95,-67,12,-4,0.69,0,0,0.0,0.0,0.0,0.0,0,0,0.0,0,0.0,-1,0.0,0.0,0.0,0,0.0,0.6607
39683,0,,,,,,,,0.11,-0.66,1.13,-66,10,-5,0.67,0,,,,,,,,,,,,,,,,,
39723,0,,,,,,,,-0.08,-0.72,1.07,-66,-0,-4,0.72,0,,,,,,,,,,,,,,,,,
39763,0,,,,,,,,0.0,-0.64,1.0,-66,3,-5,0.64,0,,,,,,,,,,,,,,,,,
39803,0,,,,,,,,0.08,-0.68,0.63,-65,6,-4,0.68,0,,,,,,,,,,,,,,,,,
39843,0,1,2,47,55,37,35,73,-0.03,-0.65,0.89,-64,2,-4,0.65,0,0,0.0,0.0,0.0,0.0,0,0,0.0,0,0.0,-1,0.0,0.0,0.0,0,0.0,0.664
39883,0,,,,,,,,0.17,-0.62,0.51,-63,12,-3,0.64,0,,,,,,,,,,,,,,,,,
39923,0,,,,,,,,0.15,-0.56,0.55,-61,2,-4,0.58,0,,,,,,,,,,,,,,,,,
39963,0,,,,,,,,0.36,-0.53,0.43,-59,15,-4,0.64,0,,,,,,,,,,,,,,,,,
40003,0,,,,,,,,0.32,-0.59,0.21,-58,12,-3,0.68,0,,,,,,,,,,,,,,,,,
40043,0,0,2,48,55,36,35,66,0.28,-0.61,0.51,-57,11,-4,0.67,0,0,0.0,0.0,0.0,0.0,0,0,0.0,0,0.0,-1,0.0,0.0,0.0,0,0.0,0.6674
40083,0,,,,,,,,0.28,-0.64,0.05,-56,13,-2,0.7,0,,,,,,,,,,,,,,,,,
40123,0,,,,,,,,0.12,-0.59,0.42,-56,1,-3,0.6,0,,,,,,,,,,,,,,,,,
40163,0,,,,,,,,0.1,-0.57,0.56,-55,14,-1,0.58,0,,,,,,,,,,,,,,,,,
40203,0,,,,,,,,0.13,-0.61,0.23,-55,1,-2,0.62,0,,,,,,,,,,,,,,,,,
40243,0,0,1,47,56,37,35,75,-0.03,-0.65,0.57,-56,2,-4,0.65,0,0,0.0,0.0,0.0,0.0,0,0,0.0,0,0.0,-1,0.0,0.0,0.0,0,0.0,0.6707
40283,0,,,,,,,,0.18,-0.76,0.13,-57,19,-4,0.78,0,,,,,,,,,,,,,,,,,
40323,0,,,,,,,,0.27,-0.88,-0.27,-59,2,-2,0.92,0,,,,,,,,,,,,,,,,,
40363,0,,,,,,,,-0.16,-0.93,-0.12,-61,-20,-2,0.94,0,,,,,,,,,,,,,,,,,
40403,0,,,,,,,,-0.51,-0.91,0.28,-63,-16,-5,1.04,0,,,,,,,,,,,,,,,,,
40443,0,0,3,47,54,40,35,85,-0.71,-0.86,0.61,-65,10,-8,1.12,0,0,0.0,0.0,0.0,0.0,0,0,0.0,0,0.0,-1,0.0,0.0,0.0,0,0.0,0.674
40483,0,,,,,,,,-0.55,-0.9,0.87,-66,41,-12,1.05,0,,,,,,,,,,,,,,,,,
40523,0,,,,,,,,-0.07,-0.91,0.6,-68,66,-11,0.91,0,,,,,,,,,,,,,,,,,
40563,0,,,,,,,,0.32,-1.01,0.1,-70,70,-10,1.06,0,,,,,,,,,,,,,,,,,
40603,0,,,,,,,,0.46,-1.07,-0.3,-71,36,-7,1.17,0,,,,,,,,,,,,,,,,,
40643,0,1,0,45,54,39,36,100,0.06,-0.98,0.02,-73,3,-6,0.98,0,0,0.0,0.0,0.0,0.0,0,0,0.0,0,0.0,-1,0.0,0.0,0.0,0,0.0,0.6774
40683,0,,,,,,,,-0.33,-0.89,0.4,-75,-6,-7,0.95,0,,,,,,,,,,,,,,,,,
40723,0,,,,,,,,-0.29,-0.96,0.6,-76,16,-7,1.0,0,,,,,,,,,,,,,,,,,
40763,0,,,,,,,,0.11,-0.98,0.11,-77,41,-9,0.99,0,,,,,,,,,,,,,,,,,
40803,0,,,,,,,,0.47,-1.07,-0.29,-78,56,-8,1.17,0,,,,,,,,,,,,,,,,,
40843,0,1,2,44,54,41,37,100,0.76,-1.19,-0.62,-80,68,-9,1.41,0,0,0.0,0.0,0.0,0.0,0,0,0.0,0,0.0,-1,0.0,0.0,0.0,0,0.0,0.6807
40883,0,,,,,,,,0.81,-1.12,-0.54,-81,79,-11,1.38,0,,,,,,,,,,,,,,,,,
40923,0,,,,,,,,0.28,-1.17,-0.15,-82,57,-9,1.2,0,,,,,,,,,,,,,,,,,
40963,0,,,,,,,,0.3,-1.08,0.12,-83,48,-10,1.12,0,,,,,,,,,,,,,,,,,
41003,0,,,,,,,,0.26,-1.11,0.12,-84,38,-9,1.14,0,,,,,,,,,,,,,,,,,
41043,0,1,1,45,56,40,37,83,0.21,-1.09,0.22,-86,32,-7,1.11,0,0,0.0,0.0,0.0,0.0,0,0,0.0,0,0.0,-1,0.0,0.0,0.0,0,0.0,0.684
41083,0,,,,,,,,0.21,-0.92,0.4,-86,28,-6,0.94,0,,,,,,,,,,,,,,,,,
41123,0,,,,,,,,0.16,-0.81,0.14,-84,18,-4,0.83,0,,,,,,,,,,,,,,,,,
41163,0,,,,,,,,0.1,-0.79,0.13,-80,13,-3,0.79,0,,,,,,,,,,,,,,,,,
41203,0,,,,,,,,0.15,-0.71,0.29,-75,9,-2,0.73,0,,,,,,,,,,,,,,,,,
41243,0,-0,2,49,56,35,36,30,0.18,-0.56,0.22,-68,8,-2,0.59,0,0,0.0,0.0,0.0,0.0,0,0,0.0,0,0.0,-1,0.0,0.0,0.0,0,0.0,0.6874
41283,0,,,,,,,,0.35,-0.38,0.55,-59,10,-3,0.51,0,,,,,,,,,,,,,,,,,
41323,0,,,,,,,,0.47,-0.22,0.49,-50,10,-1,0.52,0,,,,,,,,,,,,,,,,,
41363,0,,,,,,,,0.19,-0.09,0.45,-40,3,2,0.21,0,,,,,,,,,,,,,,,,,
41403,0,,,,,,,,0.16,-0.01,0.58,-30,2,2,0.17,0,,,,,,,,,,,,,,,,,
41443,0,1,3,52,50,31,38,-14,0.14,0.03,0.45,-21,-1,4,0.14,0,0,0.0,0.0,0.0,0.0,0,0,0.0,0,0.0,-1,0.0,0.0,0.0,0,0.0,0.6907
41483,0,,,,,,,,0.32,0.1,0.6,-14,3,1,0.34,0,,,,,,,,,,,,,,,,,
41523,0,,,,,,,,0.14,0.04,0.34,-9,5,0,0.15,0,,,,,,,,,,,,,,,,,
41563,0,,,,,,,,0.28,0.08,0.27,-5,-2,3,0.29,0,,,,,,,,,,,,,,,,,
41603,0,,,,,,,,0.33,0.2,0.52,-1,1,2,0.38,0,,,,,,,,,,,,,,,,,
41643,0,1,2,53,50,30,38,-34,0.06,0.22,0.04,4,0,3,0.22,0,0,0.0,0.0,0.0,0.0,0,0,0.0,0,0.0,-1,0.0,0.0,0.0,0,0.0,0.694
41683,0,,,,,,,,-0.12,0.18,-0.1,9,23,-9,0.22,0,,,,,,,,,,,,,,,,,
41723,0,,,,,,,,-0.28,0.26,-0.46,15,25,-10,0.38,0,,,,,,,,,,,,,,,,,
41763,0,,,,,,,,-0.0,0.42,-0.35,20,0,6,0.42,0,,,,,,,,,,,,,,,,,
41803,0,,,,,,,,0.27,0.71,0.09,26,-6,10,0.76,0,,,,,,,,,,,,,,,,,
41843,0,0,2,54,49,31,41,-30,0.18,0.78,0.01,31,-17,16,0.79,0,0,0.0,0.0,0.0,0.0,0,0,0.0,0,0.0,-1,0.0,0.0,0.0,0,0.0,0.6974
41883,0,,,,,,,,-0.14,0.62,-0.37,33,-31,20,0.63,0,,,,,,,,,,,,,,,,,
41923,0,,,,,,,,0.14,0.75,-0.28,34,-26,19,0.76,0,,,,,,,,,,,,,,,,,
41963,0,,,,,,,,-0.14,0.67,-0.26,33,-20,14,0.69,0,,,,,,,,,,,,,,,,,
42003,0,,,,,,,,0.19,0.75,0.12,35,-7,8,0.77,0,,,,,,,,,,,,,,,,,
42043,0,1,1,53,49,29,39,-27,-0.16,0.63,-0.29,36,-12,13,0.65,0,0,0.0,0.0,0.0,0.0,0,0,0.0,0,0.0,-1,0.0,0.0,0.0,0,0.0,0.7007
42083,0,,,,,,,,0.15,0.78,0.15,37,-1,5,0.79,0,,,,,,,,,,,,,,,,,
42123,0,,,,,,,,0.17,0.76,0.14,37,0,3,0.78,0,,,,,,,,,,,,,,,,,
42163,0,,,,,,,,-0.05,0.75,-0.27,37,-5,6,0.75,0,,,,,,,,,,,,,,,,,
42203,0,,,,,,,,0.04,0.87,-0.24,37,-20,16,0.87,0,,,,,,,,,,,,,,,,,
42243,0,-0,2,55,51,29,39,-25,0.21,0.89,0.19,38,-12,8,0.91,0,0,0.0,0.0,0.0,0.0,0,0,0.0,0,0.0,-1,0.0,0.0,0.0,0,0.0,0.704
42283,0,,,,,,,,0.08,0.77,0.17,37,-1,-0,0.77,0,,,,,,,,,,,,,,,,,
42323,0,,,,,,,,0.17,0.66,0.46,37,9,-14,0.68,0,,,,,,,,,,,,,,,,,
42363,0,,,,,,,,0.24,0.63,0.39,35,2,-7,0.67,0,,,,,,,,,,,,,,,,,
42403,0,,,,,,,,0.3,0.57,0.34,34,0,-6,0.64,0,,,,,,,,,,,,,,,,,
42443,0,0,2,55,52,28,35,-11,0.23,0.54,0.38,32,-7,-3,0.58,0,0,0.0,0.0,0.0,0.0,0,0,0.0,0,0.0,-1,0.0,0.0,0.0,0,0.0,0.7074
42483,0,,,,,,,,0.26,0.55,0.43,32,-6,-1,0.61,0,,,,,,,,,,,,,,,,,
42523,0,,,,,,,,0.47,0.56,0.73,34,-0,-4,0.74,0,,,,,,,,,,,,,,,,,
42563,0,,,,,,,,0.66,0.63,0.97,35,8,-10,0.92,0,,,,,,,,,,,,,,,,,
42603,0,,,,,,,,0.77,0.8,1.05,37,14,-8,1.11,0,,,,,,,,,,,,,,,,,
42643,0,-1,2,57,51,29,39,0,0.64,0.71,0.87,38,17,-9,0.96,0,0,0.0,0.0,0.0,0.0,0,0,0.0,0,0.0,-1,0.0,0.0,0.0,0,0.0,0.7107
42683,0,,,,,,,,0.68,0.5,0.9,38,13,-6,0.84,0,,,,,,,,,,,,,,,,,
42723,0,,,,,,,,0.71,0.48,0.47,37,13,-3,0.86,0,,,,,,,,,,,,,,,,,
42763,0,,,,,,,,0.71,0.35,0.56,35,11,-5,0.79,0,,,,,,,,,,,,,,,,,
42803,0,,,,,,,,0.69,0.22,0.43,32,8,1,0.72,0,,,,,,,,,,,,,,,,,
42843,0,0,1,55,53,27,36,12,0.58,0.22,0.29,30,3,-0,0.62,0,0,0.0,0.0,0.0,0.0,0,0,0.0,0,0.0,-1,0.0,0.0,0.0,0,0.0,0.714
42883,0,,,,,,,,0.69,0.33,0.61,29,6,1,0.76,0,,,,,,,,,,,,,,,,,
42923,0,,,,,,,,0.71,0.15,0.87,28,4,-0,0.72,0,,,,,,,,,,,,,,,,,
42963,0,,,,,,,,0.77,0.32,1.0,29,4,0,0.84,0,,,,,,,,,,,,,,,,,
43003,0,,,,,,,,0.78,0.34,1.19,30,4,0,0.86,0,,,,,,,,,,,,,,,,,
43043,0,1,3,54,52,29,38,17,0.72,0.28,1.29,29,5,1,0.77,0,0,0.0,0.0,0.0,0.0,0,0,0.0,0,0.0,-1,0.0,0.0,0.0,0,0.0,0.7174
43083,0,,,,,,,,0.72,0.26,1.31,26,3,-0,0.76,0,,,,,,,,,,,,,,,,,
43123,0,,,,,,,,0.67,0.16,1.29,21,3,1,0.68,0,,,,,,,,,,,,,,,,,
43163,0,,,,,,,,0.58,0.24,1.17,16,5,-1,0.63,0,,,,,,,,,,,,,,,,,
43203,0,,,,,,,,0.53,0.22,1.01,9,8,-2,0.57,0,,,,,,,,,,,,,,,,,
43243,0,1,2,54,49,36,37,4,0.41,0.3,1.2,6,10,-6,0.51,0,0,0.0,0.0,0.0,0.0,0,0,0.0,0,0.0,-1,0.0,0.0,0.0,0,0.0,0.7207
43283,0,,,,,,,,0.18,0.25,0.84,4,4,-5,0.31,0,,,,,,,,,,,,,,,,,
43323,0,,,,,,,,0.08,0.24,0.84,4,2,-8,0.25,0,,,,,,,,,,,,,,,,,
43363,0,,,,,,,,-0.04,0.26,0.89,4,3,-6,0.26,0,,,,,,,,,,,,,,,,,
43403,0,,,,,,,,-0.16,0.2,0.74,5,1,-3,0.25,0,,,,,,,,,,,,,,,,,
43443,0,6,6,45,46,36,42,-3,-0.24,0.22,0.94,6,3,-3,0.32,0,0,0.0,0.0,0.0,0.0,0,0,0.0,0,0.0,-1,0.0,0.0,0.0,0,0.0,0.724
43483,0,,,,,,,,-0.29,0.21,0.74,6,0,-1,0.36,0,,,,,,,,,,,,,,,,,
43523,0,,,,,,,,-0.37,0.11,0.62,5,-0,-3,0.39,0,,,,,,,,,,,,,,,,,
43563,0,,,,,,,,-0.4,0.15,0.88,5,-2,-1,0.43,0,,,,,,,,,,,,,,,,,
43603,0,,,,,,,,-0.48,0.16,0.73,6,-0,-2,0.5,0,,,,,,,,,,,,,,,,,
43643,0,13,11,45,44,38,43,-3,-0.55,0.15,0.61,6,-1,-1,0.57,0,0,0.0,0.0,0.0,0.0,0,0,0.0,0,0.0,-1,0.0,0.0,0.0,0,0.0,0.7274
43683,0,,,,,,,,-0.62,0.19,0.52,5,-2,-2,0.65,0,,,,,,,,,,,,,,,,,
43723,0,,,,,,,,-0.54,0.19,0.44,5,-3,-1,0.57,0,,,,,,,,,,,,,,,,,
43763,0,,,,,,,,-0.47,0.08,0.33,5,3,-7,0.48,0,,,,,,,,,,,,,,,,,
43803,0,,,,,,,,-0.56,0.11,-0.11,6,-8,5,0.57,0,,,,,,,,,,,,,,,,,
43843,0,1,4,47,45,39,41,0,-0.38,0.18,0.29,6,2,-3,0.42,0,0,0.0,0.0,0.0,0.0,0,0,0.0,0,0.0,-1,0.0,0.0,0.0,0,0.0,0.7307
43883,0,,,,,,,,-0.37,0.11,0.6,5,9,-12,0.38,0,,,,,,,,,,,,,,,,,
43923,0,,,,,,,,-0.43,0.03,0.11,5,2,-1,0.43,0,,,,,,,,,,,,,,,,,
43963,0,,,,,,,,-0.5,0.08,-0.3,5,-7,7,0.51,0,,,,,,,,,,,,,,,,,
44003,0,,,,,,,,-0.65,0.05,-0.62,4,-23,20,0.66,0,,,,,,,,,,,,,,,,,
44043,0,3,5,44,46,37,41,4,-0.87,0.01,-0.88,3,-40,29,0.87,0,0,0.0,0.0,0.0,0.0,0,0,0.0,0,0.0,-1,0.0,0.0,0.0,0,0.0,0.734
44083,0,,,,,,,,-0.66,-0.1,-0.34,1,-11,3,0.67,0,,,,,,,,,,,,,,,,,
44123,0,,,,,,,,-0.46,-0.08,-0.29,-2,-4,-0,0.47,0,,,,,,,,,,,,,,,,,
44163,0,,,,,,,,-0.72,-0.27,-0.55,-4,-15,10,0.77,0,,,,,,,,,,,,,,,,,
44203,0,,,,,,,,-0.71,-0.31,-0.46,-8,-11,8,0.77,0,,,,,,,,,,,,,,,,,
44243,0,8,6,42,49,39,41,23,-0.58,-0.4,-0.36,-12,-10,5,0.7,0,0,0.0,0.0,0.0,0.0,0,0,0.0,0,0.0,-1,0.0,0.0,0.0,0,0.0,0.7374
44283,0,,,,,,,,-0.66,-0.39,-0.67,-13,-11,8,0.77,0,,,,,,,,,,,,,,,,,
44323,0,,,,,,,,-0.75,-0.46,-0.56,-17,8,-3,0.88,0,,,,,,,,,,,,,,,,,
44363,0,,,,,,,,-0.42,-0.47,-0.36,-18,-5,7,0.63,0,,,,,,,,,,,,,,,,,
44403,0,,,,,,,,-0.56,-0.56,-0.31,-20,9,-5,0.79,0,,,,,,,,,,,,,,,,,
44443,0,-1,2,43,49,38,37,27,-0.62,-0.61,-0.63,-20,-12,7,0.87,0,0,0.0,0.0,0.0,0.0,0,0,0.0,0,0.0,-1,0.0,0.0,0.0,0,0.0,0.7407
44483,0,,,,,,,,-0.28,-0.6,-0.13,-22,1,0,0.66,0,,,,,,,,,,,,,,,,,
44523,0,,,,,,,,-0.59,-0.72,-0.49,-25,9,-6,0.94,0,,,,,,,,,,,,,,,,,
44563,0,,,,,,,,-0.71,-0.93,-0.78,-29,-13,4,1.17,0,,,,,,,,,,,,,,,,,
44603,0,,,,,,,,-0.75,-1.12,-1.01,-33,-30,14,1.35,0,,,,,,,,,,,,,,,,,
44643,0,1,0,42,54,41,37,58,-0.99,-1.24,-1.2,-38,-33,15,1.59,0,0,0.0,0.0,0.0,0.0,0,0,0.0,0,0.0,-1,0.0,0.0,0.0,0,0.0,0.7441
44683,0,,,,,,,,-1.12,-1.3,-1.12,-43,-20,4,1.71,0,,,,,,,,,,,,,,,,,
44723,0,,,,,,,,-0.97,-1.23,-0.53,-48,-1,-9,1.56,0,,,,,,,,,,,,,,,,,
44763,0,,,,,,,,-0.79,-1.15,-0.05,-52,22,-22,1.4,0,,,,,,,,,,,,,,,,,
44803,0,,,,,,,,-0.89,-1.22,-0.42,-55,7,-12,1.51,0,,,,,,,,,,,,,,,,,
44843,0,0,2,43,54,43,38,63,-0.73,-1.2,-0.36,-60,-4,-4,1.41,0,0,0.0,0.0,0.0,0.0,0,0,0.0,0,0.0,-1,0.0,0.0,0.0,0,0.0,0.7474
44883,0,,,,,,,,-0.57,-1.0,-0.32,-62,-11,-5,1.16,0,,,,,,,,,,,,,,,,,
44923,0,,,,,,,,-0.4,-1.06,-0.28,-65,-14,-4,1.13,0,,,,,,,,,,,,,,,,,
44963,0,,,,,,,,-0.38,-1.08,-0.24,-66,-8,-10,1.14,0,,,,,,,,,,,,,,,,,
45003,0,,,,,,,,-0.23,-1.14,-0.22,-67,-10,-5,1.16,0,,,,,,,,,,,,,,,,,
45043,0,-0,3,49,58,39,35,54,0.02,-0.95,-0.2,-67,-1,-6,0.95,0,0,0.0,0.0,0.0,0.0,0,0,0.0,0,0.0,-1,0.0,0.0,0.0,0,0.0,0.7507
45083,0,,,,,,,,0.15,-1.03,0.02,-68,9,-6,1.04,0,,,,,,,,,,,,,,,,,
45123,0,,,,,,,,0.15,-0.94,0.04,-67,16,-11,0.95,0,,,,,,,,,,,,,,,,,
45163,0,,,,,,,,-0.04,-0.73,-0.35,-64,4,4,0.73,0,,,,,,,,,,,,,,,,,
45203,0,,,,,,,,0.23,-0.54,0.09,-60,14,-5,0.59,0,,,,,,,,,,,,,,,,,
45243,0,1,2,48,54,36,35,16,0.05,-0.69,-0.3,-54,-4,8,0.69,0,0,0.0,0.0,0.0,0.0,0,0,0.0,0,0.0,-1,0.0,0.0,0.0,0,0.0,0.754
45283,0,,,,,,,,0.25,-0.63,0.13,-48,12,-7,0.68,0,,,,,,,,,,,,,,,,,
45323,0,,,,,,,,0.24,-0.59,-0.27,-41,4,4,0.64,0,,,,,,,,,,,,,,,,,
45363,0,,,,,,,,0.43,-0.58,-0.24,-36,15,-4,0.72,0,,,,,,,,,,,,,,,,,
45403,0,,,,,,,,0.27,-0.73,-0.18,-34,14,-6,0.78,0,,,,,,,,,,,,,,,,,
45443,0,-0,3,49,54,36,33,36,0.47,-0.56,0.24,-35,25,-18,0.73,0,0,0.0,0.0,0.0,0.0,0,0,0.0,0,0.0,-1,0.0,0.0,0.0,0,0.0,0.7574
45483,0,,,,,,,,0.49,-0.73,0.57,-35,27,-24,0.88,0,,,,,,,,,,,,,,,,,
45523,0,,,,,,,,0.47,-0.79,0.09,-37,22,-17,0.92,0,,,,,,,,,,,,,,,,,
45563,0,,,,,,,,0.6,-0.89,0.38,-40,19,-15,1.07,0,,,,,,,,,,,,,,,,,
45603,0,,,,,,,,0.51,-1.03,0.33,-43,12,-9,1.15,0,,,,,,,,,,,,,,,,,
45643,0,-1,2,47,58,35,33,27,0.67,-1.13,0.65,-47,14,-11,1.31,0,0,0.0,0.0,0.0,0.0,0,0,0.0,0,0.0,-1,0.0,0.0,0.0,0,0.0,0.7607
45683,0,,,,,,,,0.82,-1.14,0.65,-50,18,-11,1.41,0,,,,,,,,,,,,,,,,,
45723,0,,,,,,,,0.72,-0.99,0.2,-50,17,-5,1.22,0,,,,,,,,,,,,,,,,,
45763,0,,,,,,,,0.56,-0.96,0.14,-50,19,-6,1.11,0,,,,,,,,,,,,,,,,,
45803,0,,,,,,,,0.54,-0.88,0.5,-47,18,-7,1.03,0,,,,,,,,,,,,,,,,,
45843,0,0,1,49,55,37,35,-6,0.51,-0.78,0.34,-44,11,-5,0.93,0,0,0.0,0.0,0.0,0.0,0,0,0.0,0,0.0,-1,0.0,0.0,0.0,0,0.0,0.764
45883,0,,,,,,,,0.4,-0.65,0.35,-36,13,-8,0.76,0,,,,,,,,,,,,,,,,,
45923,0,,,,,,,,0.23,-0.46,0.31,-27,5,4,0.52,0,,,,,,,,,,,,,,,,,
45963,0,,,,,,,,0.35,-0.42,0.63,-20,3,7,0.55,0,,,,,,,,,,,,,,,,,
46003,0,,,,,,,,0.16,-0.42,0.36,-15,-21,22,0.45,0,,,,,,,,,,,,,,,,,
46043,0,3,2,48,50,37,40,7,-0.17,-0.42,-0.09,-12,-24,24,0.45,0,0,0.0,0.0,0.0,0.0,0,0,0.0,0,0.0,-1,0.0,0.0,0.0,0,0.0,0.7674
46083,0,,,,,,,,-0.2,-0.35,-0.05,-11,-23,26,0.4,0,,,,,,,,,,,,,,,,,
46123,0,,,,,,,,-0.19,-0.38,-0.06,-11,-13,19,0.43,0,,,,,,,,,,,,,,,,,
46163,0,,,,,,,,-0.22,-0.29,-0.03,-11,-14,23,0.36,0,,,,,,,,,,,,,,,,,
46203,0,,,,,,,,-0.29,-0.23,-0.05,-12,-24,29,0.37,0,,,,,,,,,,,,,,,,,
46243,0,18,14,42,49,38,42,11,-0.61,-0.34,-0.42,-12,-27,33,0.7,0,0,0.0,0.0,0.0,0.0,0,0,0.0,0,0.0,-1,0.0,0.0,0.0,0,0.0,0.7707
46283,0,,,,,,,,-0.58,-0.32,-0.36,-14,-30,30,0.67,0,,,,,,,,,,,,,,,,,
46323,0,,,,,,,,-0.65,-0.4,-0.31,-14,-21,20,0.77,0,,,,,,,,,,,,,,,,,
46363,0,,,,,,,,-0.47,-0.41,-0.04,-17,-10,13,0.62,0,,,,,,,,,,,,,,,,,
46403,0,,,,,,,,-0.67,-0.45,-0.18,-18,-14,13,0.81,0,,,,,,,,,,,,,,,,,
46443,0,8,8,42,52,40,42,17,-0.43,-0.46,0.23,-19,4,3,0.63,0,0,0.0,0.0,0.0,0.0,0,0,0.0,0,0.0,-1,0.0,0.0,0.0,0,0.0,0.774
46483,0,,,,,,,,-0.7,-0.46,-0.19,-18,-7,11,0.84,0,,,,,,,,,,,,,,,,,
46523,0,,,,,,,,-0.35,-0.31,0.22,-18,-8,9,0.47,0,,,,,,,,,,,,,,,,,
46563,0,,,,,,,,-0.45,-0.37,0.16,-18,4,0,0.58,0,,,,,,,,,,,,,,,,,
46603,0,,,,,,,,-0.52,-0.39,-0.25,-16,-18,14,0.65,0,,,,,,,,,,,,,,,,,
46643,0,2,3,46,47,37,40,-0,-0.11,-0.1,0.18,-13,-4,7,0.15,0,0,0.0,0.0,0.0,0.0,0,0,0.0,0,0.0,-1,0.0,0.0,0.0,0,0.0,0.7774
46683,0,,,,,,,,0.16,0.09,0.52,-11,14,-4,0.18,0,,,,,,,,,,,,,,,,,
46723,0,,,,,,,,0.4,0.23,0.8,-7,33,-15,0.46,0,,,,,,,,,,,,,,,,,
46763,0,,,,,,,,0.63,0.43,1.03,-3,48,-23,0.76,0,,,,,,,,,,,,,,,,,
46803,0,,,,,,,,0.78,0.58,1.21,1,48,-24,0.97,0,,,,,,,,,,,,,,,,,
46843,0,-0,1,46,47,32,43,-22,0.55,0.6,0.92,5,29,-11,0.81,0,0,0.0,0.0,0.0,0.0,0,0,0.0,0,0.0,-1,0.0,0.0,0.0,0,0.0,0.7807
46883,0,,,,,,,,0.18,0.58,0.45,10,17,-6,0.61,0,,,,,,,,,,,,,,,,,
46923,0,,,,,,,,0.25,0.77,0.75,15,16,-7,0.81,0,,,,,,,,,,,,,,,,,
46963,0,,,,,,,,-0.08,0.71,0.28,20,8,-2,0.72,0,,,,,,,,,,,,,,,,,
47003,0,,,,,,,,0.16,0.86,0.61,26,17,-6,0.88,0,,,,,,,,,,,,,,,,,
47043,0,1,3,53,44,34,43,-41,-0.05,0.82,0.32,31,8,-2,0.82,0,0,0.0,0.0,0.0,0.0,0,0,0.0,0,0.0,-1,0.0,0.0,0.0,0,0.0,0.784
47083,0,,,,,,,,-0.09,0.86,0.24,35,6,-2,0.86,0,,,,,,,,,,,,,,,,,
47123,0,,,,,,,,-0.08,0.88,0.34,39,6,-1,0.88,0,,,,,,,,,,,,,,,,,
47163,0,,,,,,,,-0.24,0.85,0.37,42,7,-1,0.89,0,,,,,,,,,,,,,,,,,
47203,0,,,,,,,,0.05,0.93,0.68,44,1,0,0.93,0,,,,,,,,,,,,,,,,,
47243,0,1,2,53,46,33,43,-44,-0.11,0.92,0.44,46,-16,7,0.93,0,0,0.0,0.0,0.0,0.0,0,0,0.0,0,0.0,-1,0.0,0.0,0.0,0,0.0,0.7874
47283,0,,,,,,,,-0.42,0.89,-0.02,48,-35,17,0.98,0,,,,,,,,,,,,,,,,,
47323,0,,,,,,,,-0.14,1.05,0.0,49,-43,25,1.06,0,,,,,,,,,,,,,,,,,
47363,0,,,,,,,,0.24,1.22,0.38,51,-32,21,1.25,0,,,,,,,,,,,,,,,,,
47403,0,,,,,,,,0.5,1.36,0.69,52,-31,20,1.45,0,,,,,,,,,,,,,,,,,
47443,0,0,2,52,48,31,45,-53,0.61,1.34,0.94,54,-16,8,1.48,0,0,0.0,0.0,0.0,0.0,0,0,0.0,0,0.0,-1,0.0,0.0,0.0,0,0.0,0.7907
47483,0,,,,,,,,0.5,1.21,0.38,55,-30,17,1.31,0,,,,,,,,,,,,,,,,,
47523,0,,,,,,,,0.35,1.13,0.29,57,-17,9,1.18,0,,,,,,,,,,,,,,,,,
47563,0,,,,,,,,0.1,0.96,-0.15,59,-28,14,0.96,0,,,,,,,,,,,,,,,,,
47603,0,,,,,,,,0.07,0.97,0.05,60,-23,11,0.97,0,,,,,,,,,,,,,,,,,
47643,0,-0,3,56,47,33,46,-67,-0.06,1.09,0.1,61,-21,11,1.09,0,0,0.0,0.0,0.0,0.0,0,0,0.0,0,0.0,-1,0.0,0.0,0.0,0,0.0,0.794
47683,0,,,,,,,,-0.16,1.09,0.06,63,-18,9,1.1,0,,,,,,,,,,,,,,,,,
47723,0,,,,,,,,-0.15,1.08,0.13,65,-15,8,1.09,0,,,,,,,,,,,,,,,,,
47763,0,,,,,,,,-0.21,1.04,0.12,68,-13,7,1.06,0,,,,,,,,,,,,,,,,,
47803,0,,,,,,,,-0.09,1.1,0.47,69,-4,3,1.1,0,,,,,,,,,,,,,,,,,
47843,0,-0,3,55,45,33,47,-53,-0.31,1.15,0.45,71,-12,6,1.19,0,0,0.0,0.0,0.0,0.0,0,0,0.0,0,0.0,-1,0.0,0.0,0.0,0,0.0,0.7974
47883,0,,,,,,,,-0.19,1.08,0.6,72,-8,2,1.09,0,,,,,,,,,,,,,,,,,
47923,0,,,,,,,,-0.23,1.01,0.44,72,-8,3,1.03,0,,,,,,,,,,,,,,,,,
47963,0,,,,,,,,-0.06,1.01,0.58,71,-10,4,1.01,0,,,,,,,,,,,,,,,,,
48003,0,,,,,,,,-0.19,1.07,0.09,69,-33,15,1.09,0,,,,,,,,,,,,,,,,,
48043,0,0,3,54,46,32,45,-42,0.17,1.17,0.45,66,-19,6,1.18,0,0,0.0,0.0,0.0,0.0,0,0,0.0,0,0.0,-1,0.0,0.0,0.0,0,0.0,0.8007
48083,0,,,,,,,,-0.14,0.89,-0.01,64,-25,12,0.9,0,,,,,,,,,,,,,,,,,
48123,0,,,,,,,,0.23,1.01,0.01,63,-15,6,1.03,0,,,,,,,,,,,,,,,,,
48163,0,,,,,,,,0.4,0.98,0.39,61,3,-5,1.06,0,,,,,,,,,,,,,,,,,
48203,0,,,,,,,,0.07,0.78,-0.07,57,-4,1,0.78,0,,,,,,,,,,,,,,,,,
48243,0,0,2,55,51,31,42,-33,0.25,0.79,-0.04,55,-8,7,0.83,0,0,0.0,0.0,0.0,0.0,0,0,0.0,0,0.0,-1,0.0,0.0,0.0,0,0.0,0.8041
48283,0,,,,,,,,0.15,0.81,-0.05,54,-8,6,0.82,0,,,,,,,,,,,,,,,,,
48323,0,,,,,,,,0.44,0.94,-0.02,52,-4,3,1.04,0,,,,,,,,,,,,,,,,,
48363,0,,,,,,,,0.16,0.88,-0.04,52,-8,6,0.89,0,,,,,,,,,,,,,,,,,
48403,0,,,,,,,,0.34,0.93,-0.01,55,5,-1,0.99,0,,,,,,,,,,,,,,,,,
48443,0,-1,2,56,48,32,43,-33,0.14,0.93,-0.39,54,-11,6,0.94,0,0,0.0,0.0,0.0,0.0,0,0,0.0,0,0.0,-1,0.0,0.0,0.0,0,0.0,0.8074
48483,0,,,,,,,,0.06,0.89,-0.34,51,-11,2,0.89,0,,,,,,,,,,,,,,,,,
48523,0,,,,,,,,0.42,0.93,0.08,48,-17,10,1.02,0,,,,,,,,,,,,,,,,,
48563,0,,,,,,,,0.49,1.0,0.44,45,-22,17,1.11,0,,,,,,,,,,,,,,,,,
48603,0,,,,,,,,0.24,0.93,0.34,44,-16,14,0.96,0,,,,,,,,,,,,,,,,,
48643,0,1,1,53,47,31,44,-41,0.02,0.96,0.34,44,-8,10,0.96,0,0,0.0,0.0,0.0,0.0,0,0,0.0,0,0.0,-1,0.0,0.0,0.0,0,0.0,0.8107
48683,0,,,,,,,,0.06,0.98,0.26,45,-13,11,0.99,0,,,,,,,,,,,,,,,,,
48723,0,,,,,,,,0.04,0.97,0.44,48,-7,9,0.97,0,,,,,,,,,,,,,,,,,
48763,0,,,,,,,,-0.13,0.97,0.43,50,2,5,0.98,0,,,,,,,,,,,,,,,,,
48803,0,,,,,,,,-0.32,1.02,0.3,53,-3,7,1.07,0,,,,,,,,,,,,,,,,,
48843,0,0,2,56,46,35,46,-60,-0.31,1.03,0.39,55,-4,7,1.07,0,0,0.0,0.0,0.0,0.0,0,0,0.0,0,0.0,-1,0.0,0.0,0.0,0,0.0,0.814
48883,0,,,,,,,,-0.21,1.08,0.69,57,1,5,1.1,0,,,,,,,,,,,,,,,,,
48923,0,,,,,,,,-0.21,1.16,0.7,59,0,7,1.18,0,,,,,,,,,,,,,,,,,
48963,0,,,,,,,,-0.32,1.13,0.42,60,-3,8,1.18,0,,,,,,,,,,,,,,,,,
49003,0,,,,,,,,-0.12,1.12,0.52,62,10,4,1.12,0,,,,,,,,,,,,,,,,,
49043,0,1,2,55,45,38,48,-68,-0.37,1.21,0.51,65,4,4,1.27,0,0,0.0,0.0,0.0,0.0,0,0,0.0,0,0.0,-1,0.0,0.0,0.0,0,0.0,0.8174
49083,0,,,,,,,,-0.06,1.22,0.42,68,8,6,1.22,0,,,,,,,,,,,,,,,,,
49123,0,,,,,,,,-0.12,1.2,0.56,70,23,2,1.2,0,,,,,,,,,,,,,,,,,
49163,0,,,,,,,,-0.46,1.09,0.83,72,17,2,1.19,0,,,,,,,,,,,,,,,,,
49203,0,,,,,,,,-0.76,1.11,1.05,73,-8,4,1.34,0,,,,,,,,,,,,,,,,,
49243,0,1,1,54,44,34,48,-66,-0.99,1.18,1.23,74,-35,9,1.54,0,0,0.0,0.0,0.0,0.0,0,0,0.0,0,0.0,-1,0.0,0.0,0.0,0,0.0,0.8207
49283,0,,,,,,,,-1.09,1.29,1.25,75,-56,11,1.69,0,,,,,,,,,,,,,,,,,
49323,0,,,,,,,,-0.64,1.34,1.04,76,-51,9,1.48,0,,,,,,,,,,,,,,,,,
49363,0,,,,,,,,-0.62,1.16,0.64,78,-33,6,1.32,0,,,,,,,,,,,,,,,,,
49403,0,,,,,,,,-0.4,1.17,0.77,79,-25,6,1.24,0,,,,,,,,,,,,,,,,,
49443,0,-1,2,54,45,34,47,-46,-0.45,1.1,0.67,78,-26,7,1.19,0,0,0.0,0.0,0.0,0.0,0,0,0.0,0,0.0,-1,0.0,0.0,0.0,0,0.0,0.824
49483,0,,,,,,,,-0.33,1.04,0.85,76,-23,7,1.09,0,,,,,,,,,,,,,,,,,
49523,0,,,,,,,,-0.24,0.97,0.9,72,-14,4,1.0,0,,,,,,,,,,,,,,,,,
49563,0,,,,,,,,-0.27,0.88,0.79,67,-19,5,0.92,0,,,,,,,,,,,,,,,,,
49603,0,,,,,,,,-0.05,0.68,0.96,61,-14,2,0.69,0,,,,,,,,,,,,,,,,,
49643,0,1,0,52,49,33,40,-15,0.01,0.55,0.98,53,-14,2,0.55,0,0,0.0,0.0,0.0,0.0,0,0,0.0,0,0.0,-1,0.0,0.0,0.0,0,0.0,0.8274
49683,0,,,,,,,,-0.06,0.49,0.96,47,-14,1,0.5,0,,,,,,,,,,,,,,,,,
49723,0,,,,,,,,0.09,0.43,1.03,41,-8,0,0.44,0,,,,,,,,,,,,,,,,,
49763,0,,,,,,,,0.19,0.35,0.99,36,-2,-1,0.4,0,,,,,,,,,,,,,,,,,
49803,0,,,,,,,,0.09,0.18,0.62,31,-8,1,0.2,0,,,,,,,,,,,,,,,,,
49843,0,1,0,49,52,32,37,10,0.14,0.08,0.6,25,-7,0,0.16,0,0,0.0,0.0,0.0,0.0,0,0,0.0,0,0.0,-1,0.0,0.0,0.0,0,0.0,0.8307
49883,0,,,,,,,,0.25,-0.04,0.79,18,-0,-2,0.25,0,,,,,,,,,,,,,,,,,
49923,0,,,,,,,,0.14,-0.13,0.56,11,-4,0,0.19,0,,,,,,,,,,,,,,,,,
49963,0,,,,,,,,0.09,-0.26,0.48,4,10,-8,0.28,0,,,,,,,,,,,,,,,,,
50003,0,,,,,,,,0.4,-0.2,0.77,-3,5,-4,0.44,0,,,,,,,,,,,,,,,,,
50043,0,-0,2,46,55,36,36,51,0.02,-0.46,0.24,-11,-4,1,0.46,0,0,0.0,0.0,0.0,0.0,0,0,0.0,0,0.0,-1,0.0,0.0,0.0,0,0.0,0.834
50083,0,,,,,,,,-0.09,-0.63,0.48,-18,14,-12,0.64,0,,,,,,,,,,,,,,,,,
50123,0,,,,,,,,-0.06,-0.68,0.77,-25,36,-26,0.68,0,,,,,,,,,,,,,,,,,
50163,0,,,,,,,,-0.34,-0.75,0.26,-32,33,-24,0.82,0,,,,,,,,,,,,,,,,,
50203,0,,,,,,,,-0.14,-0.71,0.23,-38,4,-6,0.72,0,,,,,,,,,,,,,,,,,
50243,0,1,1,44,55,39,35,80,0.12,-0.73,0.57,-44,16,-14,0.74,0,0,0.0,0.0,0.0,0.0,0,0,0.0,0,0.0,-1,0.0,0.0,0.0,0,0.0,0.8374
50283,0,,,,,,,,0.3,-0.78,0.84,-50,29,-22,0.84,0,,,,,,,,,,,,,,,,,
50323,0,,,,,,,,0.47,-0.68,1.06,-55,21,-17,0.83,0,,,,,,,,,,,,,,,,,
50363,0,,,,,,,,0.04,-0.92,0.48,-60,4,-6,0.92,0,,,,,,,,,,,,,,,,,
50403,0,,,,,,,,-0.32,-1.08,0.01,-65,12,-11,1.12,0,,,,,,,,,,,,,,,,,
50443,0,-0,2,43,55,43,37,85,-0.49,-1.2,0.17,-68,24,-19,1.29,0,0,0.0,0.0,0.0,0.0,0,0,0.0,0,0.0,-1,0.0,0.0,0.0,0,0.0,0.8407
50483,0,,,,,,,,-0.77,-1.3,-0.25,-71,23,-18,1.51,0,,,,,,,,,,,,,,,,,
50523,0,,,,,,,,-0.81,-1.15,-0.58,-73,-4,-1,1.41,0,,,,,,,,,,,,,,,,,
50563,0,,,,,,,,-0.69,-1.2,-0.49,-78,6,-10,1.38,0,,,,,,,,,,,,,,,,,
50603,0,,,,,,,,-0.7,-1.08,-0.44,-79,13,-13,1.29,0,,,,,,,,,,,,,,,,,
50643,0,-1,2,47,55,41,40,42,-0.53,-0.97,-0.5,-82,10,-10,1.1,0,0,0.0,0.0,0.0,0.0,0,0,0.0,0,0.0,-1,0.0,0.0,0.0,0,0.0,0.844
50683,0,,,,,,,,-0.12,-0.72,-0.38,-80,14,-13,0.73,0,,,,,,,,,,,,,,,,,
50723,0,,,,,,,,-0.27,-0.65,-0.68,-75,-9,2,0.7,0,,,,,,,,,,,,,,,,,
50763,0,,,,,,,,-0.06,-0.42,-0.17,-64,-19,6,0.42,0,,,,,,,,,,,,,,,,,
50803,0,,,,,,,,-0.22,-0.29,-0.18,-50,-21,10,0.37,0,,,,,,,,,,,,,,,,,
50843,0,-0,2,51,49,33,39,-29,-0.2,-0.08,0.13,-36,-16,9,0.22,0,0,0.0,0.0,0.0,0.0,0,0,0.0,0,0.0,-1,0.0,0.0,0.0,0,0.0,0.8474
50883,0,,,,,,,,-0.12,0.15,0.36,-23,-9,8,0.19,0,,,,,,,,,,,,,,,,,
50923,0,,,,,,,,-0.15,0.31,0.5,-10,-6,7,0.35,0,,,,,,,,,,,,,,,,,
50963,0,,,,,,,,-0.33,0.49,0.31,1,-10,9,0.59,0,,,,,,,,,,,,,,,,,
51003,0,,,,,,,,-0.17,0.68,0.63,13,-6,7,0.7,0,,,,,,,,,,,,,,,,,
51043,0,1,2,54,46,34,47,-66,-0.27,0.6,0.53,23,-4,5,0.66,0,0,0.0,0.0,0.0,0.0,0,0,0.0,0,0.0,-1,0.0,0.0,0.0,0,0.0,0.8507
51083,0,,,,,,,,-0.37,0.75,0.41,31,-9,8,0.83,0,,,,,,,,,,,,,,,,,
51123,0,,,,,,,,-0.33,0.81,0.62,39,-7,8,0.88,0,,,,,,,,,,,,,,,,,
51163,0,,,,,,,,-0.29,0.84,0.55,46,-1,6,0.89,0,,,,,,,,,,,,,,,,,
51203,0,,,,,,,,-0.49,0.9,0.37,52,-9,10,1.02,0,,,,,,,,,,,,,,,,,
51243,0,1,1,53,45,34,47,-74,-0.47,0.94,0.45,56,-3,4,1.05,0,0,0.0,0.0,0.0,0.0,0,0,0.0,0,0.0,-1,0.0,0.0,0.0,0,0.0,0.854
51283,0,,,,,,,,-0.47,0.94,0.56,60,8,-0,1.05,0,,,,,,,,,,,,,,,,,
51323,0,,,,,,,,-0.36,0.97,0.47,63,-6,8,1.03,0,,,,,,,,,,,,,,,,,
51363,0,,,,,,,,-0.46,1.08,0.0,68,-11,10,1.17,0,,,,,,,,,,,,,,,,,
51403,0,,,,,,,,-0.17,1.15,0.36,71,-2,4,1.16,0,,,,,,,,,,,,,,,,,
51443,0,1,1,54,47,33,45,-48,-0.11,1.09,0.31,73,2,1,1.1,0,0,0.0,0.0,0.0,0.0,0,0,0.0,0,0.0,-1,0.0,0.0,0.0,0,0.0,0.8574
51483,0,,,,,,,,-0.22,0.96,-0.13,76,1,3,0.99,0,,,,,,,,,,,,,,,,,
51523,0,,,,,,,,-0.07,0.91,-0.07,76,1,-1,0.92,0,,,,,,,,,,,,,,,,,
51563,0,,,,,,,,0.09,0.8,-0.04,72,-13,8,0.8,0,,,,,,,,,,,,,,,,,
51603,0,,,,,,,,-0.1,0.57,-0.05,66,-8,1,0.58,0,,,,,,,,,,,,,,,,,
51643,0,-1,2,52,48,33,39,20,0.25,0.46,0.34,56,-22,10,0.53,0,0,0.0,0.0,0.0,0.0,0,0,0.0,0,0.0,-1,0.0,0.0,0.0,0,0.0,0.8607
