"Interval"|"ms"|0|0|1,"Utc"|"ms"|0|0|1,"Brake_F"|"Bar"|0|2000|10,"Brake_R"|"Bar"|0|2000|10,"Height_RF"|"mm"|0|255|10,"Height_LF"|"mm"|0|255|10,"Height_LR"|"mm"|0|80|10,"Height_RR"|"mm"|0|255|10,"Steering"|"deg"|-100|100|10,"AccelX"|"G"|-3.0|3.0|25,"AccelY"|"G"|-3.0|3.0|25,"AccelZ"|"G"|-3.0|3.0|25,"Yaw"|"Deg/Sec"|-120|120|25,"Pitch"|"Deg/Sec"|-120|120|25,"Roll"|"Deg/Sec"|-120|120|25,"Gsum"|"G"|0.0|3.0|25,"Unknown"|""|0|1024|25,"Log_Button"|""|0.0|10.0|10,"Latitude"|"Degrees"|-180.0|180.0|10,"Longitude"|"Degrees"|-180.0|180.0|10,"Speed"|"kph"|0.0|150.0|10,"Altitude"|"m"|0.0|4000.0|10,"GPSSats"|""|0|20|10,"GPSQual"|""|0|5|10,"GPSDOP"|""|0.0|20.0|10,"LapCount"|""|0|0|10,"LapTime"|"Min"|0.0|0.0|10,"Sector"|""|0|0|10,"SectorTime"|"Min"|0.0|0.0|10,"PredTime"|"Min"|0.0|0.0|5,"ElapsedTime"|"Min"|0.0|0.0|10,"CurrentLap"|""|0|0|10,"Distance"|"km"|0.0|0.0|10,"SessionTime"|"Min"|0.0|0.0|10
17083,0,,,,,,,,-0.78,0.05,1.39,1,-64,6,0.78,0,,,,,,,,,,,,,,,,,
17123,0,,,,,,,,-0.25,0.0,0.75,1,-53,7,0.25,0,,,,,,,,,,,,,,,,,
17163,0,,,,,,,,0.18,-0.06,0.22,1,-27,5,0.19,0,,,,,,,,,,,,,,,,,
17203,0,,,,,,,,0.52,-0.09,-0.2,1,2,1,0.53,0,,,,,,,,,,,,,,,,,
17243,0,0,3,48,50,33,37,10,0.79,-0.1,-0.28,1,32,-2,0.8,0,0,0.0,0.0,0.0,0.0,0,0,0.0,0,0.0,-1,0.0,0.0,0.0,0,0.0,0.2874
17283,0,,,,,,,,0.48,-0.14,0.03,1,56,-5,0.5,0,,,,,,,,,,,,,,,,,
17323,0,,,,,,,,0.02,-0.16,0.4,1,57,-7,0.16,0,,,,,,,,,,,,,,,,,
17363,0,,,,,,,,-0.36,-0.14,0.7,1,34,-5,0.39,0,,,,,,,,,,,,,,,,,
17403,0,,,,,,,,-0.67,-0.07,0.95,1,11,-4,0.68,0,,,,,,,,,,,,,,,,,
17443,0,1,0,48,50,33,36,11,-0.92,0.01,1.15,0,-4,-4,0.92,0,0,0.0,0.0,0.0,0.0,0,0,0.0,0,0.0,-1,0.0,0.0,0.0,0,0.0,0.2907
17483,0,,,,,,,,-1.13,0.02,1.31,-0,-18,-1,1.13,0,,,,,,,,,,,,,,,,,
17523,0,,,,,,,,-1.29,0.02,1.44,-0,-33,1,1.29,0,,,,,,,,,,,,,,,,,
17563,0,,,,,,,,-1.43,0.04,1.55,-0,-55,4,1.43,0,,,,,,,,,,,,,,,,,
17603,0,,,,,,,,-1.19,0.12,1.23,-0,-80,10,1.2,0,,,,,,,,,,,,,,,,,
17643,0,0,0,48,50,33,36,12,-0.63,0.14,0.71,0,-78,9,0.64,0,0,0.0,0.0,0.0,0.0,0,0,0.0,0,0.0,-1,0.0,0.0,0.0,0,0.0,0.294
17683,0,,,,,,,,-0.13,0.06,0.2,0,-47,6,0.14,0,,,,,,,,,,,,,,,,,
17723,0,,,,,,,,0.28,-0.01,-0.22,1,-10,3,0.28,0,,,,,,,,,,,,,,,,,
17763,0,,,,,,,,0.6,-0.04,-0.46,1,31,-2,0.61,0,,,,,,,,,,,,,,,,,
17803,0,,,,,,,,0.79,-0.08,-0.16,1,64,-6,0.79,0,,,,,,,,,,,,,,,,,
17843,0,-1,2,48,50,32,37,11,0.67,-0.1,0.25,1,86,-11,0.68,0,0,0.0,0.0,0.0,0.0,0,0,0.0,0,0.0,-1,0.0,0.0,0.0,0,0.0,0.2974
17883,0,,,,,,,,0.26,-0.11,0.58,0,86,-12,0.29,0,,,,,,,,,,,,,,,,,
17923,0,,,,,,,,-0.17,-0.15,0.85,0,60,-8,0.22,0,,,,,,,,,,,,,,,,,
17963,0,,,,,,,,-0.51,-0.1,1.07,-0,19,-4,0.52,0,,,,,,,,,,,,,,,,,
18003,0,,,,,,,,-0.8,-0.05,1.24,-0,-23,2,0.8,0,,,,,,,,,,,,,,,,,
18043,0,0,1,48,49,33,37,12,-0.96,0.0,1.22,-0,-54,7,0.96,0,0,0.0,0.0,0.0,0.0,0,0,0.0,0,0.0,-1,0.0,0.0,0.0,0,0.0,0.3007
18083,0,,,,,,,,-1.0,0.05,1.13,-0,-79,10,1.0,0,,,,,,,,,,,,,,,,,
18123,0,,,,,,,,-0.66,0.09,1.15,0,-86,10,0.66,0,,,,,,,,,,,,,,,,,
18163,0,,,,,,,,-0.29,0.12,0.61,0,-88,11,0.31,0,,,,,,,,,,,,,,,,,
18203,0,,,,,,,,0.14,0.13,0.28,0,-73,9,0.19,0,,,,,,,,,,,,,,,,,
18243,0,-1,2,48,49,32,37,11,0.5,0.08,-0.13,0,-38,5,0.5,0,0,0.0,0.0,0.0,0.0,0,0,0.0,0,0.0,-1,0.0,0.0,0.0,0,0.0,0.304
18283,0,,,,,,,,0.78,0.02,-0.49,0,6,1,0.78,0,,,,,,,,,,,,,,,,,
18323,0,,,,,,,,0.99,-0.01,-0.67,0,40,-4,0.99,0,,,,,,,,,,,,,,,,,
18363,0,,,,,,,,0.76,-0.07,-0.34,0,54,-8,0.77,0,,,,,,,,,,,,,,,,,
18403,0,,,,,,,,0.32,-0.11,0.1,0,44,-6,0.34,0,,,,,,,,,,,,,,,,,
18443,0,-1,2,48,49,32,37,11,-0.12,-0.1,0.46,0,14,-4,0.16,0,0,0.0,0.0,0.0,0.0,0,0,0.0,0,0.0,-1,0.0,0.0,0.0,0,0.0,0.3074
18483,0,,,,,,,,-0.33,-0.01,0.6,0,-26,3,0.33,0,,,,,,,,,,,,,,,,,
18523,0,,,,,,,,0.11,0.02,0.17,1,-44,8,0.12,0,,,,,,,,,,,,,,,,,
18563,0,,,,,,,,0.47,-0.06,-0.24,1,-33,7,0.48,0,,,,,,,,,,,,,,,,,
18603,0,,,,,,,,0.76,-0.09,-0.53,1,-0,5,0.77,0,,,,,,,,,,,,,,,,,
18643,0,1,1,48,50,32,37,12,1.0,-0.1,-0.28,0,36,2,1.0,0,0,0.0,0.0,0.0,0.0,0,0,0.0,0,0.0,-1,0.0,0.0,0.0,0,0.0,0.3107
18683,0,,,,,,,,1.06,-0.08,0.09,0,72,-5,1.06,0,,,,,,,,,,,,,,,,,
18723,0,,,,,,,,0.74,-0.09,0.45,1,92,-8,0.74,0,,,,,,,,,,,,,,,,,
18763,0,,,,,,,,0.22,-0.09,0.74,0,88,-9,0.23,0,,,,,,,,,,,,,,,,,
18803,0,,,,,,,,-0.2,-0.05,0.98,0,55,-6,0.21,0,,,,,,,,,,,,,,,,,
18843,0,0,3,48,50,32,37,10,-0.47,0.0,1.1,0,7,0,0.47,0,0,0.0,0.0,0.0,0.0,0,0,0.0,0,0.0,-1,0.0,0.0,0.0,0,0.0,0.314
18883,0,,,,,,,,-0.29,0.08,0.8,0,-28,5,0.3,0,,,,,,,,,,,,,,,,,
18923,0,,,,,,,,0.02,0.09,0.56,1,-46,6,0.09,0,,,,,,,,,,,,,,,,,
18963,0,,,,,,,,0.4,0.1,0.07,1,-54,7,0.41,0,,,,,,,,,,,,,,,,,
19003,0,,,,,,,,0.7,0.04,-0.23,1,-36,4,0.7,0,,,,,,,,,,,,,,,,,
19043,0,-1,2,48,49,32,37,12,0.85,-0.04,-0.43,1,2,-1,0.85,0,0,0.0,0.0,0.0,0.0,0,0,0.0,0,0.0,-1,0.0,0.0,0.0,0,0.0,0.3174
19083,0,,,,,,,,0.5,-0.06,0.03,1,26,-5,0.5,0,,,,,,,,,,,,,,,,,
19123,0,,,,,,,,0.02,-0.06,0.4,1,27,-7,0.07,0,,,,,,,,,,,,,,,,,
19163,0,,,,,,,,-0.36,-0.06,0.67,0,-1,-2,0.37,0,,,,,,,,,,,,,,,,,
19203,0,,,,,,,,-0.6,0.02,0.81,1,-34,4,0.6,0,,,,,,,,,,,,,,,,,
19243,0,0,3,48,49,33,37,10,-0.19,0.07,0.41,1,-41,6,0.2,0,0,0.0,0.0,0.0,0.0,0,0,0.0,0,0.0,-1,0.0,0.0,0.0,0,0.0,0.3207
19283,0,,,,,,,,0.23,-0.03,0.08,1,-12,0,0.23,0,,,,,,,,,,,,,,,,,
19323,0,,,,,,,,0.33,-0.1,-0.04,0,17,-2,0.34,0,,,,,,,,,,,,,,,,,
19363,0,,,,,,,,-0.07,-0.14,0.35,0,16,-3,0.16,0,,,,,,,,,,,,,,,,,
19403,0,,,,,,,,-0.39,-0.06,0.66,0,-17,1,0.4,0,,,,,,,,,,,,,,,,,
19443,0,-0,2,48,50,33,37,11,-0.06,0.03,0.61,0,-20,1,0.07,0,0,0.0,0.0,0.0,0.0,0,0,0.0,0,0.0,-1,0.0,0.0,0.0,0,0.0,0.324
19483,0,,,,,,,,0.18,-0.07,0.4,0,8,-3,0.19,0,,,,,,,,,,,,,,,,,
19523,0,,,,,,,,-0.18,-0.13,0.66,0,5,-1,0.22,0,,,,,,,,,,,,,,,,,
19563,0,,,,,,,,-0.47,-0.07,0.82,0,-27,6,0.48,0,,,,,,,,,,,,,,,,,
19603,0,,,,,,,,-0.11,0.02,0.48,1,-27,5,0.11,0,,,,,,,,,,,,,,,,,
19643,0,-1,2,48,49,33,37,12,0.23,-0.04,0.14,1,6,-0,0.24,0,0,0.0,0.0,0.0,0.0,0,0,0.0,0,0.0,-1,0.0,0.0,0.0,0,0.0,0.3274
19683,0,,,,,,,,-0.1,-0.1,0.4,1,8,0,0.14,0,,,,,,,,,,,,,,,,,
19723,0,,,,,,,,-0.38,-0.04,0.56,1,-20,5,0.38,0,,,,,,,,,,,,,,,,,
19763,0,,,,,,,,0.04,0.02,0.08,1,-8,3,0.05,0,,,,,,,,,,,,,,,,,
19803,0,,,,,,,,0.4,-0.03,-0.32,1,23,-1,0.4,0,,,,,,,,,,,,,,,,,
19843,0,0,2,48,49,33,37,12,0.1,-0.08,0.07,0,26,-2,0.13,0,0,0.0,0.0,0.0,0.0,0,0,0.0,0,0.0,-1,0.0,0.0,0.0,0,0.0,0.3307
19883,0,,,,,,,,-0.04,-0.05,0.18,0,-1,1,0.06,0,,,,,,,,,,,,,,,,,
19923,0,,,,,,,,0.34,-0.05,0.08,0,3,-0,0.35,0,,,,,,,,,,,,,,,,,
19963,0,,,,,,,,0.03,-0.11,0.26,0,20,-2,0.11,0,,,,,,,,,,,,,,,,,
20003,0,,,,,,,,-0.25,-0.04,0.59,0,-1,0,0.26,0,,,,,,,,,,,,,,,,,
20043,0,0,0,48,50,32,36,11,0.17,0.0,0.31,0,-11,2,0.17,0,0,0.0,0.0,0.0,0.0,0,0,0.0,0,0.0,-1,0.0,0.0,0.0,0,0.0,0.334
20083,0,,,,,,,,0.06,-0.06,0.32,0,12,-1,0.08,0,,,,,,,,,,,,,,,,,
20123,0,,,,,,,,-0.33,-0.04,0.64,0,-2,0,0.33,0,,,,,,,,,,,,,,,,,
20163,0,,,,,,,,-0.03,0.04,0.25,0,-20,3,0.05,0,,,,,,,,,,,,,,,,,
20203,0,,,,,,,,0.21,-0.01,0.09,0,7,-2,0.21,0,,,,,,,,,,,,,,,,,
20243,0,1,0,48,50,32,36,12,-0.21,-0.07,0.45,0,10,-2,0.22,0,0,0.0,0.0,0.0,0.0,0,0,0.0,0,0.0,-1,0.0,0.0,0.0,0,0.0,0.3374
20283,0,,,,,,,,-0.07,0.02,0.6,0,-11,1,0.07,0,,,,,,,,,,,,,,,,,
20323,0,,,,,,,,0.04,-0.04,0.58,0,3,-1,0.06,0,,,,,,,,,,,,,,,,,
20363,0,,,,,,,,-0.09,-0.06,0.75,0,-5,1,0.11,0,,,,,,,,,,,,,,,,,
20403,0,,,,,,,,-0.01,-0.09,0.61,0,1,-1,0.09,0,,,,,,,,,,,,,,,,,
20443,0,-0,2,48,49,33,37,12,0.02,-0.01,0.8,0,-5,1,0.03,0,0,0.0,0.0,0.0,0.0,0,0,0.0,0,0.0,-1,0.0,0.0,0.0,0,0.0,0.3407
20483,0,,,,,,,,-0.08,-0.06,0.71,0,-1,-0,0.1,0,,,,,,,,,,,,,,,,,
20523,0,,,,,,,,0.12,-0.01,0.95,1,-1,-1,0.12,0,,,,,,,,,,,,,,,,,
20563,0,,,,,,,,0.04,-0.04,0.91,1,-2,-1,0.05,0,,,,,,,,,,,,,,,,,
20603,0,,,,,,,,-0.09,-0.06,0.73,0,-4,0,0.11,0,,,,,,,,,,,,,,,,,
20643,0,1,0,48,50,32,37,11,-0.01,-0.04,0.85,1,0,-1,0.04,0,0,0.0,0.0,0.0,0.0,0,0,0.0,0,0.0,-1,0.0,0.0,0.0,0,0.0,0.344
20683,0,,,,,,,,0.04,-0.0,0.93,1,-1,-1,0.04,0,,,,,,,,,,,,,,,,,
20723,0,,,,,,,,0.0,-0.04,0.89,1,-4,1,0.04,0,,,,,,,,,,,,,,,,,
20763,0,,,,,,,,-0.09,-0.07,0.77,1,-4,1,0.12,0,,,,,,,,,,,,,,,,,
20803,0,,,,,,,,0.04,-0.04,0.92,1,0,-0,0.06,0,,,,,,,,,,,,,,,,,
20843,0,0,2,48,49,33,37,12,0.12,-0.01,1.01,1,-0,-0,0.12,0,0,0.0,0.0,0.0,0.0,0,0,0.0,0,0.0,-1,0.0,0.0,0.0,0,0.0,0.3474
20883,0,,,,,,,,0.0,-0.04,1.0,0,-3,1,0.04,0,,,,,,,,,,,,,,,,,
20923,0,,,,,,,,0.0,-0.05,0.93,0,0,0,0.05,0,,,,,,,,,,,,,,,,,
20963,0,,,,,,,,0.15,-0.0,1.1,1,2,-1,0.15,0,,,,,,,,,,,,,,,,,
21003,0,,,,,,,,0.02,-0.01,1.03,0,-3,0,0.02,0,,,,,,,,,,,,,,,,,
21043,0,0,2,48,50,32,37,12,0.05,-0.03,0.95,0,2,-1,0.06,0,0,0.0,0.0,0.0,0.0,0,0,0.0,0,0.0,-1,0.0,0.0,0.0,0,0.0,0.3507
21083,0,,,,,,,,0.21,0.02,1.13,1,4,-2,0.21,0,,,,,,,,,,,,,,,,,
21123,0,,,,,,,,0.03,0.0,1.11,0,-1,-0,0.03,0,,,,,,,,,,,,,,,,,
21163,0,,,,,,,,0.1,0.01,1.08,0,4,-1,0.1,0,,,,,,,,,,,,,,,,,
21203,0,,,,,,,,0.13,0.01,1.14,0,0,-1,0.13,0,,,,,,,,,,,,,,,,,
21243,0,0,1,48,50,32,37,12,-0.04,-0.04,0.96,0,-0,-0,0.06,0,0,0.0,0.0,0.0,0.0,0,0,0.0,0,0.0,-1,0.0,0.0,0.0,0,0.0,0.354
21283,0,,,,,,,,0.06,-0.03,1.02,0,2,-1,0.07,0,,,,,,,,,,,,,,,,,
21323,0,,,,,,,,-0.09,-0.03,0.94,0,-2,1,0.1,0,,,,,,,,,,,,,,,,,
21363,0,,,,,,,,-0.01,-0.06,0.98,0,5,-1,0.06,0,,,,,,,,,,,,,,,,,
21403,0,,,,,,,,-0.02,-0.02,1.08,0,-2,1,0.03,0,,,,,,,,,,,,,,,,,
21443,0,-0,2,48,49,33,37,12,-0.02,-0.03,0.99,0,6,-2,0.03,0,0,0.0,0.0,0.0,0.0,0,0,0.0,0,0.0,-1,0.0,0.0,0.0,0,0.0,0.3574
21483,0,,,,,,,,0.05,0.04,1.07,0,-3,1,0.06,0,,,,,,,,,,,,,,,,,
21523,0,,,,,,,,-0.05,-0.01,0.98,0,3,-0,0.05,0,,,,,,,,,,,,,,,,,
21563,0,,,,,,,,0.12,0.04,1.15,0,-3,1,0.13,0,,,,,,,,,,,,,,,,,
21603,0,,,,,,,,-0.04,-0.02,1.02,1,2,-0,0.04,0,,,,,,,,,,,,,,,,,
21643,0,0,3,48,50,33,36,10,0.17,0.02,1.16,1,3,-1,0.17,0,0,0.0,0.0,0.0,0.0,0,0,0.0,0,0.0,-1,0.0,0.0,0.0,0,0.0,0.3607
21683,0,,,,,,,,-0.03,-0.03,1.06,0,-3,1,0.04,0,,,,,,,,,,,,,,,,,
21723,0,,,,,,,,0.07,-0.02,0.97,0,2,-0,0.08,0,,,,,,,,,,,,,,,,,
21763,0,,,,,,,,0.12,0.03,1.05,1,-3,1,0.12,0,,,,,,,,,,,,,,,,,
21803,0,,,,,,,,-0.05,-0.05,0.92,0,-2,1,0.07,0,,,,,,,,,,,,,,,,,
21843,0,-1,2,48,49,33,37,11,0.08,-0.0,1.01,1,2,-0,0.08,0,0,0.0,0.0,0.0,0.0,0,0,0.0,0,0.0,-1,0.0,0.0,0.0,0,0.0,0.364
21883,0,,,,,,,,0.1,0.0,0.97,1,-2,1,0.1,0,,,,,,,,,,,,,,,,,
21923,0,,,,,,,,-0.09,-0.05,0.78,0,0,0,0.1,0,,,,,,,,,,,,,,,,,
21963,0,,,,,,,,0.15,-0.01,0.88,1,-0,0,0.15,0,,,,,,,,,,,,,,,,,
22003,0,,,,,,,,-0.08,-0.05,0.8,0,-2,1,0.1,0,,,,,,,,,,,,,,,,,
22043,0,0,1,48,50,32,37,11,0.22,-0.01,0.95,1,2,-1,0.22,0,0,0.0,0.0,0.0,0.0,0,0,0.0,0,0.0,-1,0.0,0.0,0.0,0,0.0,0.3674
22083,0,,,,,,,,-0.06,-0.05,0.97,1,-1,1,0.08,0,,,,,,,,,,,,,,,,,
22123,0,,,,,,,,0.23,-0.01,1.01,1,3,-1,0.23,0,,,,,,,,,,,,,,,,,
22163,0,,,,,,,,-0.07,-0.05,1.01,1,-2,0,0.09,0,,,,,,,,,,,,,,,,,
22203,0,,,,,,,,0.24,0.0,1.12,1,2,-1,0.24,0,,,,,,,,,,,,,,,,,
22243,0,-0,3,48,50,33,36,12,-0.11,-0.07,1.07,0,-1,0,0.13,0,0,0.0,0.0,0.0,0.0,0,0,0.0,0,0.0,-1,0.0,0.0,0.0,0,0.0,0.3707
22283,0,,,,,,,,0.16,-0.01,1.12,1,-2,0,0.16,0,,,,,,,,,,,,,,,,,
22323,0,,,,,,,,0.13,-0.07,0.86,0,11,-2,0.15,0,,,,,,,,,,,,,,,,,
22363,0,,,,,,,,-0.27,-0.09,1.07,0,-9,1,0.29,0,,,,,,,,,,,,,,,,,
22403,0,,,,,,,,-0.03,-0.02,0.68,0,-17,3,0.03,0,,,,,,,,,,,,,,,,,
22443,0,-1,2,48,49,32,37,11,0.36,-0.05,0.3,0,14,-2,0.36,0,0,0.0,0.0,0.0,0.0,0,0,0.0,0,0.0,-1,0.0,0.0,0.0,0,0.0,0.374
22483,0,,,,,,,,0.63,-0.08,0.19,0,46,-6,0.63,0,,,,,,,,,,,,,,,,,
22523,0,,,,,,,,0.3,-0.11,0.53,0,47,-6,0.32,0,,,,,,,,,,,,,,,,,
22563,0,,,,,,,,-0.14,-0.11,0.81,0,24,-4,0.17,0,,,,,,,,,,,,,,,,,
22603,0,,,,,,,,-0.49,-0.06,0.94,0,-13,3,0.49,0,,,,,,,,,,,,,,,,,
22643,0,0,1,48,50,32,37,11,-0.32,0.01,0.68,0,-27,5,0.32,0,0,0.0,0.0,0.0,0.0,0,0,0.0,0,0.0,-1,0.0,0.0,0.0,0,0.0,0.3774
22683,0,,,,,,,,0.07,-0.06,0.17,0,1,0,0.09,0,,,,,,,,,,,,,,,,,
22723,0,,,,,,,,-0.21,-0.12,0.5,1,22,-2,0.25,0,,,,,,,,,,,,,,,,,
22763,0,,,,,,,,-0.55,-0.09,0.79,0,3,-2,0.56,0,,,,,,,,,,,,,,,,,
22803,0,,,,,,,,-0.66,0.03,1.0,0,-38,4,0.66,0,,,,,,,,,,,,,,,,,
22843,0,-0,2,48,49,33,37,10,-0.2,0.08,0.7,0,-53,6,0.21,0,0,0.0,0.0,0.0,0.0,0,0,0.0,0,0.0,-1,0.0,0.0,0.0,0,0.0,0.3807
22883,0,,,,,,,,0.22,0.01,0.23,0,-21,2,0.22,0,,,,,,,,,,,,,,,,,
22923,0,,,,,,,,0.05,-0.05,0.4,0,11,-2,0.07,0,,,,,,,,,,,,,,,,,
22963,0,,,,,,,,-0.34,-0.08,0.7,0,13,-4,0.35,0,,,,,,,,,,,,,,,,,
23003,0,,,,,,,,-0.66,0.02,0.85,0,-15,-1,0.66,0,,,,,,,,,,,,,,,,,
23043,0,0,3,48,49,33,36,11,-0.81,0.11,0.94,0,-54,6,0.82,0,0,0.0,0.0,0.0,0.0,0,0,0.0,0,0.0,-1,0.0,0.0,0.0,0,0.0,0.384
23083,0,,,,,,,,-0.44,0.17,0.46,0,-69,11,0.47,0,,,,,,,,,,,,,,,,,
23123,0,,,,,,,,0.03,0.09,-0.01,0,-47,8,0.09,0,,,,,,,,,,,,,,,,,
23163,0,,,,,,,,0.4,0.04,-0.03,1,-6,3,0.4,0,,,,,,,,,,,,,,,,,
23203,0,,,,,,,,0.24,-0.05,0.26,0,19,1,0.24,0,,,,,,,,,,,,,,,,,
23243,0,-0,2,48,50,33,36,11,-0.19,-0.05,0.59,0,14,0,0.19,0,0,0.0,0.0,0.0,0.0,0,0,0.0,0,0.0,-1,0.0,0.0,0.0,0,0.0,0.3874
23283,0,,,,,,,,-0.53,-0.01,0.81,1,-14,3,0.53,0,,,,,,,,,,,,,,,,,
23323,0,,,,,,,,-0.53,0.08,0.6,1,-46,9,0.54,0,,,,,,,,,,,,,,,,,
23363,0,,,,,,,,-0.06,0.1,0.23,1,-48,9,0.11,0,,,,,,,,,,,,,,,,,
23403,0,,,,,,,,0.33,0.0,-0.11,1,-8,3,0.33,0,,,,,,,,,,,,,,,,,
23443,0,1,1,48,50,32,37,11,0.55,-0.07,-0.07,1,26,-1,0.55,0,0,0.0,0.0,0.0,0.0,0,0,0.0,0,0.0,-1,0.0,0.0,0.0,0,0.0,0.3907
23483,0,,,,,,,,0.15,-0.16,0.32,0,35,-3,0.22,0,,,,,,,,,,,,,,,,,
23523,0,,,,,,,,-0.26,-0.09,0.64,0,9,-1,0.27,0,,,,,,,,,,,,,,,,,
23563,0,,,,,,,,-0.57,-0.01,0.9,0,-26,3,0.57,0,,,,,,,,,,,,,,,,,
23603,0,,,,,,,,-0.4,0.05,0.64,1,-47,6,0.41,0,,,,,,,,,,,,,,,,,
23643,0,-1,3,48,50,33,36,12,0.05,0.05,0.28,1,-38,5,0.07,0,0,0.0,0.0,0.0,0.0,0,0,0.0,0,0.0,-1,0.0,0.0,0.0,0,0.0,0.394
23683,0,,,,,,,,0.38,0.03,-0.15,1,-3,1,0.38,0,,,,,,,,,,,,,,,,,
23723,0,,,,,,,,0.21,-0.06,0.26,1,16,-2,0.22,0,,,,,,,,,,,,,,,,,
23763,0,,,,,,,,-0.21,-0.07,0.59,1,-2,-2,0.22,0,,,,,,,,,,,,,,,,,
23803,0,,,,,,,,-0.55,0.0,0.86,0,-36,1,0.55,0,,,,,,,,,,,,,,,,,
23843,0,-1,2,48,49,32,37,11,-0.83,0.07,1.07,1,-72,7,0.83,0,0,0.0,0.0,0.0,0.0,0,0,0.0,0,0.0,-1,0.0,0.0,0.0,0,0.0,0.3974
23883,0,,,,,,,,-0.86,0.12,1.25,1,-87,9,0.86,0,,,,,,,,,,,,,,,,,
23923,0,,,,,,,,-0.31,0.12,0.71,1,-58,5,0.34,0,,,,,,,,,,,,,,,,,
23963,0,,,,,,,,0.02,0.02,0.35,0,-22,2,0.03,0,,,,,,,,,,,,,,,,,
24003,0,,,,,,,,-0.29,-0.04,0.66,0,-17,0,0.29,0,,,,,,,,,,,,,,,,,
24043,0,1,3,48,49,32,37,12,-0.62,-0.05,0.91,0,-40,3,0.62,0,0,0.0,0.0,0.0,0.0,0,0,0.0,0,0.0,-1,0.0,0.0,0.0,0,0.0,0.4007
24083,0,,,,,,,,-0.48,0.04,0.84,0,-62,7,0.48,0,,,,,,,,,,,,,,,,,
24123,0,,,,,,,,-0.01,-0.02,0.3,1,-52,6,0.02,0,,,,,,,,,,,,,,,,,
24163,0,,,,,,,,0.17,-0.06,0.2,1,-17,1,0.19,0,,,,,,,,,,,,,,,,,
24203,0,,,,,,,,-0.24,-0.08,0.54,0,2,-2,0.25,0,,,,,,,,,,,,,,,,,
24243,0,-1,2,48,49,32,37,11,-0.57,0.01,0.82,0,-21,-0,0.57,0,0,0.0,0.0,0.0,0.0,0,0,0.0,0,0.0,-1,0.0,0.0,0.0,0,0.0,0.404
24283,0,,,,,,,,-0.33,0.12,0.5,1,-54,6,0.35,0,,,,,,,,,,,,,,,,,
24323,0,,,,,,,,0.12,0.09,0.24,1,-47,4,0.15,0,,,,,,,,,,,,,,,,,
24363,0,,,,,,,,0.15,-0.0,0.2,0,-11,-0,0.15,0,,,,,,,,,,,,,,,,,
24403,0,,,,,,,,-0.26,-0.04,0.54,0,-9,0,0.26,0,,,,,,,,,,,,,,,,,
24443,0,-1,4,48,49,33,36,12,-0.41,0.08,0.51,0,-35,4,0.42,0,0,0.0,0.0,0.0,0.0,0,0,0.0,0,0.0,-1,0.0,0.0,0.0,0,0.0,0.4074
24483,0,,,,,,,,0.05,0.08,0.37,0,-32,3,0.09,0,,,,,,,,,,,,,,,,,
24523,0,,,,,,,,-0.05,-0.04,0.36,0,-9,-0,0.06,0,,,,,,,,,,,,,,,,,
24563,0,,,,,,,,-0.22,-0.01,0.51,0,-22,3,0.22,0,,,,,,,,,,,,,,,,,
24603,0,,,,,,,,0.2,0.04,0.43,0,-14,1,0.2,0,,,,,,,,,,,,,,,,,
24643,0,-1,2,48,49,32,37,12,-0.03,-0.07,0.45,0,-2,-1,0.07,0,0,0.0,0.0,0.0,0.0,0,0,0.0,0,0.0,-1,0.0,0.0,0.0,0,0.0,0.4107
24683,0,,,,,,,,-0.04,-0.01,0.5,0,-17,2,0.04,0,,,,,,,,,,,,,,,,,
24723,0,,,,,,,,0.25,-0.05,0.35,0,-1,-2,0.25,0,,,,,,,,,,,,,,,,,
24763,0,,,,,,,,-0.16,-0.11,0.52,0,-3,-0,0.19,0,,,,,,,,,,,,,,,,,
24803,0,,,,,,,,0.06,-0.05,0.35,0,-13,1,0.08,0,,,,,,,,,,,,,,,,,
24843,0,1,2,48,50,32,37,12,0.1,-0.14,0.27,0,4,-1,0.17,0,0,0.0,0.0,0.0,0.0,0,0,0.0,0,0.0,-1,0.0,0.0,0.0,0,0.0,0.414
24883,0,,,,,,,,-0.11,-0.14,0.43,0,-8,1,0.18,0,,,,,,,,,,,,,,,,,
24923,0,,,,,,,,0.23,-0.11,0.38,0,1,-1,0.26,0,,,,,,,,,,,,,,,,,
24963,0,,,,,,,,-0.07,-0.16,0.45,0,-1,1,0.18,0,,,,,,,,,,,,,,,,,
25003,0,,,,,,,,0.2,-0.11,0.62,0,1,-0,0.22,0,,,,,,,,,,,,,,,,,
25043,0,0,3,48,49,33,36,11,-0.05,-0.14,0.62,1,-1,1,0.15,0,0,0.0,0.0,0.0,0.0,0,0,0.0,0,0.0,-1,0.0,0.0,0.0,0,0.0,0.4174
25083,0,,,,,,,,0.18,-0.07,0.73,1,3,-0,0.19,0,,,,,,,,,,,,,,,,,
25123,0,,,,,,,,0.0,-0.06,0.74,1,-2,1,0.06,0,,,,,,,,,,,,,,,,,
25163,0,,,,,,,,0.13,-0.04,0.76,1,5,-1,0.14,0,,,,,,,,,,,,,,,,,
25203,0,,,,,,,,0.11,-0.04,0.81,1,1,1,0.12,0,,,,,,,,,,,,,,,,,
25243,0,-1,2,48,49,32,37,12,-0.0,-0.08,0.73,1,1,0,0.08,0,0,0.0,0.0,0.0,0.0,0,0,0.0,0,0.0,-1,0.0,0.0,0.0,0,0.0,0.4207
25283,0,,,,,,,,0.15,-0.02,0.97,1,5,-1,0.15,0,,,,,,,,,,,,,,,,,
25323,0,,,,,,,,0.07,-0.03,0.88,1,-1,1,0.08,0,,,,,,,,,,,,,,,,,
25363,0,,,,,,,,-0.0,-0.05,0.88,0,2,0,0.05,0,,,,,,,,,,,,,,,,,
25403,0,,,,,,,,0.17,-0.0,1.05,0,2,-1,0.17,0,,,,,,,,,,,,,,,,,
25443,0,1,3,48,49,33,36,11,-0.04,-0.05,0.98,0,-1,0,0.06,0,0,0.0,0.0,0.0,0.0,0,0,0.0,0,0.0,-1,0.0,0.0,0.0,0,0.0,0.424
25483,0,,,,,,,,0.02,-0.06,0.89,0,5,-1,0.06,0,,,,,,,,,,,,,,,,,
25523,0,,,,,,,,0.06,-0.03,0.97,1,-2,1,0.07,0,,,,,,,,,,,,,,,,,
25563,0,,,,,,,,-0.09,-0.05,0.98,1,0,1,0.11,0,,,,,,,,,,,,,,,,,
25603,0,,,,,,,,0.08,-0.04,1.09,1,3,-0,0.09,0,,,,,,,,,,,,,,,,,
25643,0,0,3,48,50,33,36,11,0.05,-0.05,0.99,0,-1,2,0.07,0,0,0.0,0.0,0.0,0.0,0,0,0.0,0,0.0,-1,0.0,0.0,0.0,0,0.0,0.4274
25683,0,,,,,,,,-0.07,-0.06,1.01,1,-0,2,0.09,0,,,,,,,,,,,,,,,,,
25723,0,,,,,,,,0.04,-0.06,0.96,1,3,1,0.08,0,,,,,,,,,,,,,,,,,
25763,0,,,,,,,,0.12,-0.05,1.03,1,-1,2,0.13,0,,,,,,,,,,,,,,,,,
25803,0,,,,,,,,-0.0,-0.07,1.04,1,-2,2,0.07,0,,,,,,,,,,,,,,,,,
25843,0,-1,0,48,50,32,37,11,-0.03,-0.07,0.92,1,1,1,0.08,0,0,0.0,0.0,0.0,0.0,0,0,0.0,0,0.0,-1,0.0,0.0,0.0,0,0.0,0.4307
25883,0,,,,,,,,0.04,-0.04,1.07,1,2,-0,0.05,0,,,,,,,,,,,,,,,,,
25923,0,,,,,,,,0.11,-0.01,1.12,1,1,0,0.11,0,,,,,,,,,,,,,,,,,
25963,0,,,,,,,,0.09,-0.01,1.05,1,-2,1,0.09,0,,,,,,,,,,,,,,,,,
26003,0,,,,,,,,0.0,-0.05,1.01,1,-3,2,0.05,0,,,,,,,,,,,,,,,,,
26043,0,0,3,48,50,33,37,12,-0.03,-0.04,0.91,1,-3,2,0.05,0,0,0.0,0.0,0.0,0.0,0,0,0.0,0,0.0,-1,0.0,0.0,0.0,0,0.0,0.434
26083,0,,,,,,,,0.0,-0.06,0.9,1,0,1,0.06,0,,,,,,,,,,,,,,,,,
26123,0,,,,,,,,0.15,-0.04,1.0,1,1,0,0.16,0,,,,,,,,,,,,,,,,,
26163,0,,,,,,,,0.06,-0.02,0.95,1,-1,1,0.07,0,,,,,,,,,,,,,,,,,
26203,0,,,,,,,,-0.07,-0.04,1.02,1,1,-0,0.08,0,,,,,,,,,,,,,,,,,
26243,0,1,2,49,50,32,36,11,-0.05,0.02,0.8,1,-21,3,0.06,0,0,0.0,0.0,0.0,0.0,0,0,0.0,0,0.0,-1,0.0,0.0,0.0,0,0.0,0.4374
26283,0,,,,,,,,-0.18,-0.01,0.32,1,-38,12,0.18,0,,,,,,,,,,,,,,,,,
26323,0,,,,,,,,0.06,-0.01,0.09,1,-48,11,0.06,0,,,,,,,,,,,,,,,,,
26363,0,,,,,,,,0.38,0.07,-0.31,1,-38,10,0.39,0,,,,,,,,,,,,,,,,,
26403,0,,,,,,,,0.61,0.02,-0.21,1,-7,3,0.61,0,,,,,,,,,,,,,,,,,
26443,0,-0,0,48,50,33,37,11,0.15,-0.02,0.13,1,-9,4,0.15,0,0,0.0,0.0,0.0,0.0,0,0,0.0,0,0.0,-1,0.0,0.0,0.0,0,0.0,0.4407
26483,0,,,,,,,,0.25,0.06,0.42,0,-16,3,0.26,0,,,,,,,,,,,,,,,,,
26523,0,,,,,,,,0.11,-0.0,0.1,0,-14,4,0.11,0,,,,,,,,,,,,,,,,,
26563,0,,,,,,,,0.09,-0.04,0.19,0,-12,4,0.1,0,,,,,,,,,,,,,,,,,
26603,0,,,,,,,,0.21,-0.02,0.53,1,-7,1,0.22,0,,,,,,,,,,,,,,,,,
26643,0,1,0,48,50,33,36,11,-0.09,-0.09,0.05,0,-15,6,0.13,0,0,0.0,0.0,0.0,0.0,0,0,0.0,0,0.0,-1,0.0,0.0,0.0,0,0.0,0.444
26683,0,,,,,,,,-0.35,-0.18,-0.28,0,-19,6,0.39,0,,,,,,,,,,,,,,,,,
26723,0,,,,,,,,-0.24,-0.15,-0.2,-0,-21,8,0.28,0,,,,,,,,,,,,,,,,,
26763,0,,,,,,,,-0.11,-0.0,-0.19,-1,-10,7,0.11,0,,,,,,,,,,,,,,,,,
26803,0,,,,,,,,-0.18,-0.09,-0.13,-0,-11,12,0.2,0,,,,,,,,,,,,,,,,,
26843,0,1,2,48,50,33,37,10,0.04,-0.12,0.27,-1,3,-7,0.13,0,0,0.0,0.0,0.0,0.0,0,0,0.0,0,0.0,-1,0.0,0.0,0.0,0,0.0,0.4474
26883,0,,,,,,,,-0.02,-0.08,0.2,-1,-3,-1,0.08,0,,,,,,,,,,,,,,,,,
26923,0,,,,,,,,0.08,0.0,0.18,-1,-3,5,0.08,0,,,,,,,,,,,,,,,,,
26963,0,,,,,,,,0.03,-0.19,0.13,-0,9,-8,0.19,0,,,,,,,,,,,,,,,,,
27003,0,,,,,,,,-0.08,-0.02,-0.28,-0,-8,4,0.08,0,,,,,,,,,,,,,,,,,
27043,0,1,1,48,50,33,37,12,-0.31,-0.06,-0.61,-0,-8,4,0.31,0,0,0.0,0.0,0.0,0.0,0,0,0.0,0,0.0,-1,0.0,0.0,0.0,0,0.0,0.4507
27083,0,,,,,,,,-0.05,0.09,-0.15,-0,-4,-1,0.11,0,,,,,,,,,,,,,,,,,
27123,0,,,,,,,,-0.06,0.05,-0.1,-1,0,-8,0.08,0,,,,,,,,,,,,,,,,,
27163,0,,,,,,,,0.05,0.04,-0.1,-1,-20,6,0.07,0,,,,,,,,,,,,,,,,,
27203,0,,,,,,,,-0.08,-0.01,-0.08,-2,-6,-9,0.09,0,,,,,,,,,,,,,,,,,
27243,0,-0,2,48,50,33,37,11,0.17,-0.06,0.32,-1,5,-16,0.18,0,0,0.0,0.0,0.0,0.0,0,0,0.0,0,0.0,-1,0.0,0.0,0.0,0,0.0,0.454
27283,0,,,,,,,,0.34,-0.01,0.64,-1,-1,-5,0.34,0,,,,,,,,,,,,,,,,,
27323,0,,,,,,,,0.13,0.08,0.14,-0,-21,11,0.15,0,,,,,,,,,,,,,,,,,
27363,0,,,,,,,,-0.15,0.04,-0.27,1,-13,7,0.15,0,,,,,,,,,,,,,,,,,
27403,0,,,,,,,,0.08,0.03,0.16,0,2,-8,0.08,0,,,,,,,,,,,,,,,,,
27443,0,-0,2,48,50,33,37,10,0.14,0.08,0.11,1,-10,4,0.16,0,0,0.0,0.0,0.0,0.0,0,0,0.0,0,0.0,-1,0.0,0.0,0.0,0,0.0,0.4574
27483,0,,,,,,,,-0.03,0.01,-0.07,1,-3,0,0.03,0,,,,,,,,,,,,,,,,,
27523,0,,,,,,,,0.25,0.03,0.32,1,12,-5,0.26,0,,,,,,,,,,,,,,,,,
27563,0,,,,,,,,-0.17,0.01,-0.12,2,-10,7,0.17,0,,,,,,,,,,,,,,,,,
27603,0,,,,,,,,0.06,0.06,0.28,1,3,-7,0.09,0,,,,,,,,,,,,,,,,,
27643,0,-1,2,48,50,33,37,11,-0.15,0.08,-0.15,1,-16,9,0.17,0,0,0.0,0.0,0.0,0.0,0,0,0.0,0,0.0,-1,0.0,0.0,0.0,0,0.0,0.4607
27683,0,,,,,,,,0.06,0.08,0.26,0,-0,-6,0.1,0,,,,,,,,,,,,,,,,,
27723,0,,,,,,,,-0.09,0.09,-0.17,1,-20,8,0.12,0,,,,,,,,,,,,,,,,,
27763,0,,,,,,,,0.1,0.06,0.24,1,-1,-5,0.12,0,,,,,,,,,,,,,,,,,
27803,0,,,,,,,,-0.15,0.09,-0.19,1,-18,8,0.18,0,,,,,,,,,,,,,,,,,
27843,0,0,2,48,50,33,37,10,0.08,0.04,0.23,0,4,-8,0.09,0,0,0.0,0.0,0.0,0.0,0,0,0.0,0,0.0,-1,0.0,0.0,0.0,0,0.0,0.464
27883,0,,,,,,,,-0.1,0.09,-0.2,0,-16,9,0.14,0,,,,,,,,,,,,,,,,,
27923,0,,,,,,,,0.07,0.0,-0.14,0,5,-9,0.07,0,,,,,,,,,,,,,,,,,
27963,0,,,,,,,,0.02,0.09,-0.48,0,-13,6,0.09,0,,,,,,,,,,,,,,,,,
28003,0,,,,,,,,0.2,0.08,-0.37,-0,11,-5,0.21,0,,,,,,,,,,,,,,,,,
28043,0,0,2,48,50,33,37,9,0.23,0.19,-0.32,0,8,-1,0.3,0,0,0.0,0.0,0.0,0.0,0,0,0.0,0,0.0,-1,0.0,0.0,0.0,0,0.0,0.4674
28083,0,,,,,,,,0.03,0.03,-0.48,1,-0,7,0.04,0,,,,,,,,,,,,,,,,,
28123,0,,,,,,,,0.41,0.07,-0.01,0,24,-11,0.41,0,,,,,,,,,,,,,,,,,
28163,0,,,,,,,,0.14,0.05,-0.39,1,-0,5,0.15,0,,,,,,,,,,,,,,,,,
28203,0,,,,,,,,0.14,0.04,-0.3,1,8,-5,0.15,0,,,,,,,,,,,,,,,,,
28243,0,1,2,48,50,33,37,8,0.35,0.16,-0.26,0,15,-6,0.39,0,0,0.0,0.0,0.0,0.0,0,0,0.0,0,0.0,-1,0.0,0.0,0.0,0,0.0,0.4707
28283,0,,,,,,,,-0.0,0.1,-0.59,1,-12,12,0.1,0,,,,,,,,,,,,,,,,,
28323,0,,,,,,,,-0.3,0.04,-0.86,0,5,-3,0.3,0,,,,,,,,,,,,,,,,,
28363,0,,,,,,,,-0.03,0.08,-0.32,0,22,-11,0.09,0,,,,,,,,,,,,,,,,,
28403,0,,,,,,,,0.16,0.15,-0.26,1,-1,4,0.22,0,,,,,,,,,,,,,,,,,
28443,0,0,1,48,50,33,37,8,0.07,0.14,-0.59,1,-20,20,0.16,0,0,0.0,0.0,0.0,0.0,0,0,0.0,0,0.0,-1,0.0,0.0,0.0,0,0.0,0.474
28483,0,,,,,,,,-0.16,0.19,-0.86,0,-20,22,0.25,0,,,,,,,,,,,,,,,,,
28523,0,,,,,,,,-0.36,0.17,-1.08,0,-19,22,0.4,0,,,,,,,,,,,,,,,,,
28563,0,,,,,,,,-0.45,0.24,-1.25,0,-27,29,0.51,0,,,,,,,,,,,,,,,,,
28603,0,,,,,,,,-0.27,0.3,-0.99,1,-30,33,0.41,0,,,,,,,,,,,,,,,,,
28643,0,1,2,48,50,33,37,7,-0.18,0.14,-0.83,1,-17,20,0.23,0,0,0.0,0.0,0.0,0.0,0,0,0.0,0,0.0,-1,0.0,0.0,0.0,0,0.0,0.4774
28683,0,,,,,,,,-0.16,0.18,-0.7,0,-12,19,0.24,0,,,,,,,,,,,,,,,,,
28723,0,,,,,,,,-0.02,0.11,-0.2,0,-4,10,0.12,0,,,,,,,,,,,,,,,,,
28763,0,,,,,,,,0.03,0.02,-0.04,0,4,4,0.04,0,,,,,,,,,,,,,,,,,
28803,0,,,,,,,,-0.01,0.05,0.02,1,7,4,0.05,0,,,,,,,,,,,,,,,,,
28843,0,0,3,48,50,33,37,6,-0.07,0.01,-0.17,0,2,5,0.07,0,0,0.0,0.0,0.0,0.0,0,0,0.0,0,0.0,-1,0.0,0.0,0.0,0,0.0,0.4807
28883,0,,,,,,,,-0.03,-0.05,-0.16,1,3,4,0.06,0,,,,,,,,,,,,,,,,,
28923,0,,,,,,,,-0.07,0.01,-0.51,1,0,8,0.07,0,,,,,,,,,,,,,,,,,
28963,0,,,,,,,,-0.05,0.05,-0.03,1,3,4,0.07,0,,,,,,,,,,,,,,,,,
29003,0,,,,,,,,0.02,-0.1,0.35,1,6,-1,0.11,0,,,,,,,,,,,,,,,,,
29043,0,-1,2,48,50,33,37,7,0.01,-0.05,-0.07,1,0,4,0.05,0,0,0.0,0.0,0.0,0.0,0,0,0.0,0,0.0,-1,0.0,0.0,0.0,0,0.0,0.484
29083,0,,,,,,,,-0.0,0.04,-0.03,0,-1,3,0.04,0,,,,,,,,,,,,,,,,,
29123,0,,,,,,,,0.09,-0.04,0.36,1,-0,-1,0.1,0,,,,,,,,,,,,,,,,,
29163,0,,,,,,,,0.09,-0.02,0.21,1,1,1,0.1,0,,,,,,,,,,,,,,,,,
29203,0,,,,,,,,0.22,-0.14,0.55,1,5,-4,0.26,0,,,,,,,,,,,,,,,,,
29243,0,-0,2,48,50,33,37,7,0.21,-0.12,0.46,1,5,-1,0.24,0,0,0.0,0.0,0.0,0.0,0,0,0.0,0,0.0,-1,0.0,0.0,0.0,0,0.0,0.4874
29283,0,,,,,,,,0.19,-0.16,0.35,1,3,-1,0.25,0,,,,,,,,,,,,,,,,,
29323,0,,,,,,,,0.28,-0.21,0.34,1,6,-4,0.35,0,,,,,,,,,,,,,,,,,
29363,0,,,,,,,,0.26,-0.18,0.65,0,4,-5,0.31,0,,,,,,,,,,,,,,,,,
29403,0,,,,,,,,0.34,-0.1,0.55,0,7,-4,0.36,0,,,,,,,,,,,,,,,,,
29443,0,0,2,49,51,33,37,6,0.24,0.04,0.46,1,4,-1,0.25,0,0,0.0,0.0,0.0,0.0,0,0,0.0,0,0.0,-1,0.0,0.0,0.0,0,0.0,0.4907
29483,0,,,,,,,,0.31,0.01,0.58,1,4,-4,0.31,0,,,,,,,,,,,,,,,,,
29523,0,,,,,,,,0.32,-0.03,0.66,1,4,-3,0.32,0,,,,,,,,,,,,,,,,,
29563,0,,,,,,,,0.3,-0.06,0.8,1,2,-3,0.31,0,,,,,,,,,,,,,,,,,
29603,0,,,,,,,,0.4,-0.12,1.03,1,2,-3,0.42,0,,,,,,,,,,,,,,,,,
29643,0,-0,3,50,52,32,36,2,0.49,-0.1,1.21,1,0,-2,0.5,0,0,0.0,0.0,0.0,0.0,0,0,0.0,0,0.0,-1,0.0,0.0,0.0,0,0.0,0.494
29683,0,,,,,,,,0.48,0.06,0.74,1,0,-1,0.48,0,,,,,,,,,,,,,,,,,
29723,0,,,,,,,,0.52,0.0,0.98,1,-3,0,0.52,0,,,,,,,,,,,,,,,,,
29763,0,,,,,,,,0.69,-0.04,0.81,1,-2,2,0.7,0,,,,,,,,,,,,,,,,,
29803,0,,,,,,,,0.7,-0.02,0.69,1,4,-4,0.7,0,,,,,,,,,,,,,,,,,
29843,0,0,1,54,54,30,33,4,0.74,-0.02,0.92,1,5,-6,0.75,0,0,0.0,0.0,0.0,0.0,0,0,0.0,0,0.0,-1,0.0,0.0,0.0,0,0.0,0.4974
29883,0,,,,,,,,0.8,-0.1,1.06,1,23,-23,0.8,0,,,,,,,,,,,,,,,,,
29923,0,,,,,,,,1.03,0.09,0.88,1,13,-14,1.03,0,,,,,,,,,,,,,,,,,
29963,0,,,,,,,,1.02,0.18,1.09,1,8,-10,1.04,0,,,,,,,,,,,,,,,,,
30003,0,,,,,,,,0.73,0.07,0.74,0,5,-7,0.73,0,,,,,,,,,,,,,,,,,
30043,0,0,2,53,55,28,33,4,0.79,0.07,0.88,-0,7,-7,0.79,0,0,0.0,0.0,0.0,0.0,0,0,0.0,0,0.0,-1,0.0,0.0,0.0,0,0.0,0.5007
30083,0,,,,,,,,0.43,0.04,1.09,-0,-3,-5,0.43,0,,,,,,,,,,,,,,,,,
30123,0,,,,,,,,0.06,0.05,1.26,-0,-19,-4,0.07,0,,,,,,,,,,,,,,,,,
30163,0,,,,,,,,0.16,0.07,1.4,-0,-14,-4,0.18,0,,,,,,,,,,,,,,,,,
30203,0,,,,,,,,0.26,0.06,1.0,1,-10,-2,0.27,0,,,,,,,,,,,,,,,,,
30243,0,0,2,52,55,28,35,-7,0.31,0.06,1.04,2,-7,-2,0.32,0,0,0.0,0.0,0.0,0.0,0,0,0.0,0,0.0,-1,0.0,0.0,0.0,0,0.0,0.504
30283,0,,,,,,,,0.28,0.07,1.02,3,-4,-2,0.29,0,,,,,,,,,,,,,,,,,
30323,0,,,,,,,,0.27,0.08,1.05,4,-3,-1,0.29,0,,,,,,,,,,,,,,,,,
30363,0,,,,,,,,0.2,0.06,1.04,5,-3,0,0.21,0,,,,,,,,,,,,,,,,,
30403,0,,,,,,,,0.2,0.06,0.96,6,-3,0,0.21,0,,,,,,,,,,,,,,,,,
30443,0,1,1,51,51,31,36,-6,0.2,0.07,0.94,6,-3,1,0.21,0,0,0.0,0.0,0.0,0.0,0,0,0.0,0,0.0,-1,0.0,0.0,0.0,0,0.0,0.5074
30483,0,,,,,,,,0.17,0.05,0.88,6,-5,2,0.18,0,,,,,,,,,,,,,,,,,
30523,0,,,,,,,,0.1,0.06,0.79,6,-7,2,0.12,0,,,,,,,,,,,,,,,,,
30563,0,,,,,,,,0.13,0.11,0.62,6,-5,2,0.17,0,,,,,,,,,,,,,,,,,
30603,0,,,,,,,,0.15,0.14,0.76,7,-7,2,0.21,0,,,,,,,,,,,,,,,,,
30643,0,-0,2,51,52,31,38,-16,0.18,0.17,0.63,8,-6,2,0.25,0,0,0.0,0.0,0.0,0.0,0,0,0.0,0,0.0,-1,0.0,0.0,0.0,0,0.0,0.5107
30683,0,,,,,,,,0.23,0.19,0.79,9,-5,1,0.3,0,,,,,,,,,,,,,,,,,
30723,0,,,,,,,,0.32,0.22,0.62,11,-1,2,0.39,0,,,,,,,,,,,,,,,,,
30763,0,,,,,,,,0.24,0.27,0.88,13,-8,-0,0.36,0,,,,,,,,,,,,,,,,,
30803,0,,,,,,,,0.46,0.39,0.65,14,3,-0,0.61,0,,,,,,,,,,,,,,,,,
30843,0,-0,2,55,51,32,37,-26,0.4,0.42,0.42,16,-1,1,0.57,0,0,0.0,0.0,0.0,0.0,0,0,0.0,0,0.0,-1,0.0,0.0,0.0,0,0.0,0.514
30883,0,,,,,,,,0.32,0.42,0.72,18,2,-0,0.53,0,,,,,,,,,,,,,,,,,
30923,0,,,,,,,,0.59,0.37,0.23,19,21,1,0.7,0,,,,,,,,,,,,,,,,,
30963,0,,,,,,,,0.86,0.38,-0.19,20,32,1,0.94,0,,,,,,,,,,,,,,,,,
31003,0,,,,,,,,1.04,0.4,-0.54,21,27,1,1.11,0,,,,,,,,,,,,,,,,,
31043,0,-1,2,52,53,32,38,-21,1.06,0.44,-0.82,22,8,3,1.15,0,0,0.0,0.0,0.0,0.0,0,0,0.0,0,0.0,-1,0.0,0.0,0.0,0,0.0,0.5174
31083,0,,,,,,,,1.24,0.31,-1.04,22,-3,5,1.28,0,,,,,,,,,,,,,,,,,
31123,0,,,,,,,,1.35,0.18,-1.13,21,16,2,1.36,0,,,,,,,,,,,,,,,,,
31163,0,,,,,,,,1.12,0.13,-0.6,20,45,-2,1.13,0,,,,,,,,,,,,,,,,,
31203,0,,,,,,,,0.59,0.11,-0.11,19,51,-3,0.6,0,,,,,,,,,,,,,,,,,
31243,0,0,0,53,52,33,37,-14,0.68,0.16,0.29,18,43,-3,0.7,0,0,0.0,0.0,0.0,0.0,0,0,0.0,0,0.0,-1,0.0,0.0,0.0,0,0.0,0.5207
31283,0,,,,,,,,0.45,0.13,0.4,18,30,-1,0.47,0,,,,,,,,,,,,,,,,,
31323,0,,,,,,,,0.69,0.2,0.18,17,27,-0,0.72,0,,,,,,,,,,,,,,,,,
31363,0,,,,,,,,0.5,0.15,0.28,16,32,-2,0.52,0,,,,,,,,,,,,,,,,,
31403,0,,,,,,,,0.42,0.08,0.42,14,25,-1,0.43,0,,,,,,,,,,,,,,,,,
31443,0,1,1,50,55,30,38,-6,0.59,0.12,0.58,13,17,1,0.61,0,0,0.0,0.0,0.0,0.0,0,0,0.0,0,0.0,-1,0.0,0.0,0.0,0,0.0,0.524
31483,0,,,,,,,,0.6,0.05,0.5,12,18,-1,0.6,0,,,,,,,,,,,,,,,,,
31523,0,,,,,,,,0.57,0.06,0.29,12,8,2,0.58,0,,,,,,,,,,,,,,,,,
31563,0,,,,,,,,0.69,0.1,0.61,12,13,-1,0.7,0,,,,,,,,,,,,,,,,,
31603,0,,,,,,,,0.67,0.14,0.47,12,1,5,0.68,0,,,,,,,,,,,,,,,,,
31643,0,-1,3,56,54,32,35,-11,0.37,-0.01,0.0,13,-8,9,0.37,0,0,0.0,0.0,0.0,0.0,0,0,0.0,0,0.0,-1,0.0,0.0,0.0,0,0.0,0.5274
31683,0,,,,,,,,0.17,-0.13,-0.38,13,-21,17,0.21,0,,,,,,,,,,,,,,,,,
31723,0,,,,,,,,0.51,0.08,-0.29,15,-16,17,0.52,0,,,,,,,,,,,,,,,,,
31763,0,,,,,,,,0.69,0.31,0.15,15,-18,19,0.76,0,,,,,,,,,,,,,,,,,
31803,0,,,,,,,,0.74,0.39,0.4,15,-24,24,0.84,0,,,,,,,,,,,,,,,,,
31843,0,1,2,49,53,30,39,-9,0.89,0.53,0.7,14,-10,15,1.03,0,0,0.0,0.0,0.0,0.0,0,0,0.0,0,0.0,-1,0.0,0.0,0.0,0,0.0,0.5307
31883,0,,,,,,,,0.78,0.61,0.58,13,-17,19,0.99,0,,,,,,,,,,,,,,,,,
31923,0,,,,,,,,0.79,0.54,0.09,14,-14,18,0.95,0,,,,,,,,,,,,,,,,,
31963,0,,,,,,,,0.79,0.56,-0.05,13,-6,15,0.96,0,,,,,,,,,,,,,,,,,
32003,0,,,,,,,,0.78,0.48,-0.06,14,-6,17,0.91,0,,,,,,,,,,,,,,,,,
32043,0,0,1,52,55,29,37,-7,0.5,0.44,-0.07,14,-9,16,0.66,0,0,0.0,0.0,0.0,0.0,0,0,0.0,0,0.0,-1,0.0,0.0,0.0,0,0.0,0.534
32083,0,,,,,,,,0.69,0.47,-0.08,12,-4,9,0.83,0,,,,,,,,,,,,,,,,,
32123,0,,,,,,,,0.58,0.4,-0.04,12,8,-3,0.71,0,,,,,,,,,,,,,,,,,
32163,0,,,,,,,,0.75,0.47,-0.06,13,14,-2,0.88,0,,,,,,,,,,,,,,,,,
32203,0,,,,,,,,0.72,0.43,-0.03,12,17,-3,0.84,0,,,,,,,,,,,,,,,,,
32243,0,1,1,55,53,31,38,-6,0.62,0.52,-0.15,12,2,9,0.81,0,0,0.0,0.0,0.0,0.0,0,0,0.0,0,0.0,-1,0.0,0.0,0.0,0,0.0,0.5374
32283,0,,,,,,,,0.51,0.34,-0.1,12,11,-4,0.62,0,,,,,,,,,,,,,,,,,
32323,0,,,,,,,,0.68,0.41,0.29,11,28,-14,0.79,0,,,,,,,,,,,,,,,,,
32363,0,,,,,,,,0.49,0.38,-0.14,11,9,1,0.62,0,,,,,,,,,,,,,,,,,
32403,0,,,,,,,,0.59,0.31,0.25,10,28,-12,0.67,0,,,,,,,,,,,,,,,,,
32443,0,0,2,50,51,33,39,-5,0.38,0.34,-0.12,11,10,2,0.51,0,0,0.0,0.0,0.0,0.0,0,0,0.0,0,0.0,-1,0.0,0.0,0.0,0,0.0,0.5407
32483,0,,,,,,,,0.3,0.27,-0.08,10,22,-6,0.4,0,,,,,,,,,,,,,,,,,
32523,0,,,,,,,,0.09,0.27,-0.44,9,17,-2,0.29,0,,,,,,,,,,,,,,,,,
32563,0,,,,,,,,0.08,0.18,-0.38,10,9,4,0.2,0,,,,,,,,,,,,,,,,,
32603,0,,,,,,,,0.12,0.17,-0.33,10,-2,9,0.2,0,,,,,,,,,,,,,,,,,
32643,0,3,4,49,49,36,39,-3,-0.03,0.16,-0.25,9,22,-8,0.16,0,0,0.0,0.0,0.0,0.0,0,0,0.0,0,0.0,-1,0.0,0.0,0.0,0,0.0,0.544
32683,0,,,,,,,,-0.02,0.22,-0.22,10,7,6,0.22,0,,,,,,,,,,,,,,,,,
32723,0,,,,,,,,-0.04,0.27,-0.16,10,17,-0,0.28,0,,,,,,,,,,,,,,,,,
32763,0,,,,,,,,-0.12,0.28,-0.11,8,11,3,0.3,0,,,,,,,,,,,,,,,,,
32803,0,,,,,,,,-0.29,0.23,-0.43,7,3,5,0.37,0,,,,,,,,,,,,,,,,,
32843,0,15,14,45,47,35,42,-4,-0.42,0.25,-0.37,6,-2,2,0.49,0,0,0.0,0.0,0.0,0.0,0,0,0.0,0,0.0,-1,0.0,0.0,0.0,0,0.0,0.5474
32883,0,,,,,,,,-0.28,0.26,-0.1,5,10,-7,0.38,0,,,,,,,,,,,,,,,,,
32923,0,,,,,,,,-0.53,0.22,-0.46,5,-19,7,0.57,0,,,,,,,,,,,,,,,,,
32963,0,,,,,,,,-0.47,0.16,-0.58,6,-37,18,0.49,0,,,,,,,,,,,,,,,,,
33003,0,,,,,,,,-0.7,0.04,-0.85,7,-47,24,0.7,0,,,,,,,,,,,,,,,,,
33043,0,4,4,46,45,37,41,-7,-0.94,-0.01,-1.07,8,-56,26,0.94,0,0,0.0,0.0,0.0,0.0,0,0,0.0,0,0.0,-1,0.0,0.0,0.0,0,0.0,0.5507
33083,0,,,,,,,,-1.13,-0.08,-1.25,8,-52,23,1.14,0,,,,,,,,,,,,,,,,,
33123,0,,,,,,,,-1.04,-0.03,-0.92,8,-32,11,1.04,0,,,,,,,,,,,,,,,,,
33163,0,,,,,,,,-0.57,0.03,-0.36,9,-17,5,0.57,0,,,,,,,,,,,,,,,,,
33203,0,,,,,,,,-0.63,0.02,-0.68,10,-19,9,0.63,0,,,,,,,,,,,,,,,,,
33243,0,-0,2,47,46,35,41,-7,-0.42,0.1,-0.19,10,-12,3,0.43,0,0,0.0,0.0,0.0,0.0,0,0,0.0,0,0.0,-1,0.0,0.0,0.0,0,0.0,0.5541
33283,0,,,,,,,,-0.25,0.18,0.22,10,-13,5,0.31,0,,,,,,,,,,,,,,,,,
33323,0,,,,,,,,-0.46,0.08,-0.2,10,-19,9,0.46,0,,,,,,,,,,,,,,,,,
33363,0,,,,,,,,-0.22,0.13,0.22,9,-12,5,0.26,0,,,,,,,,,,,,,,,,,
33403,0,,,,,,,,-0.31,0.14,0.19,9,-9,3,0.34,0,,,,,,,,,,,,,,,,,
33443,0,1,3,47,49,34,39,-4,-0.36,0.08,0.1,8,-13,6,0.37,0,0,0.0,0.0,0.0,0.0,0,0,0.0,0,0.0,-1,0.0,0.0,0.0,0,0.0,0.5574
33483,0,,,,,,,,-0.23,0.11,0.46,8,-6,3,0.26,0,,,,,,,,,,,,,,,,,
33523,0,,,,,,,,-0.34,0.05,0.28,7,-6,4,0.35,0,,,,,,,,,,,,,,,,,
33563,0,,,,,,,,-0.26,0.08,0.43,7,-7,3,0.27,0,,,,,,,,,,,,,,,,,
33603,0,,,,,,,,-0.06,0.1,0.66,7,2,0,0.11,0,,,,,,,,,,,,,,,,,
33643,0,3,5,47,49,35,40,-6,-0.09,0.1,0.62,7,2,0,0.14,0,0,0.0,0.0,0.0,0.0,0,0,0.0,0,0.0,-1,0.0,0.0,0.0,0,0.0,0.5607
33683,0,,,,,,,,-0.04,0.1,0.57,7,3,0,0.11,0,,,,,,,,,,,,,,,,,
33723,0,,,,,,,,-0.04,0.18,0.57,8,4,-1,0.18,0,,,,,,,,,,,,,,,,,
33763,0,,,,,,,,-0.05,0.22,0.63,9,6,-1,0.22,0,,,,,,,,,,,,,,,,,
33803,0,,,,,,,,-0.16,0.24,0.5,10,3,1,0.29,0,,,,,,,,,,,,,,,,,
33843,0,10,9,47,47,36,42,-17,-0.29,0.29,0.36,11,-2,3,0.41,0,0,0.0,0.0,0.0,0.0,0,0,0.0,0,0.0,-1,0.0,0.0,0.0,0,0.0,0.564
33883,0,,,,,,,,-0.15,0.36,0.57,13,4,1,0.39,0,,,,,,,,,,,,,,,,,
33923,0,,,,,,,,-0.03,0.41,0.46,15,-3,4,0.41,0,,,,,,,,,,,,,,,,,
33963,0,,,,,,,,0.05,0.44,0.66,17,6,1,0.44,0,,,,,,,,,,,,,,,,,
34003,0,,,,,,,,-0.32,0.41,0.84,20,6,1,0.52,0,,,,,,,,,,,,,,,,,
34043,0,-0,2,49,46,34,42,-29,-0.47,0.47,0.83,22,-12,3,0.67,0,0,0.0,0.0,0.0,0.0,0,0,0.0,0,0.0,-1,0.0,0.0,0.0,0,0.0,0.5674
34083,0,,,,,,,,-0.14,0.48,0.86,23,-14,2,0.5,0,,,,,,,,,,,,,,,,,
34123,0,,,,,,,,-0.24,0.46,0.78,25,-13,3,0.52,0,,,,,,,,,,,,,,,,,
34163,0,,,,,,,,-0.25,0.47,0.61,27,-9,2,0.53,0,,,,,,,,,,,,,,,,,
34203,0,,,,,,,,-0.15,0.51,0.52,28,-8,3,0.53,0,,,,,,,,,,,,,,,,,
34243,0,-1,2,51,49,33,40,-32,0.03,0.48,0.44,29,-0,0,0.48,0,0,0.0,0.0,0.0,0.0,0,0,0.0,0,0.0,-1,0.0,0.0,0.0,0,0.0,0.5707
34283,0,,,,,,,,0.15,0.44,0.52,30,2,1,0.46,0,,,,,,,,,,,,,,,,,
34323,0,,,,,,,,0.1,0.44,0.41,31,-3,3,0.45,0,,,,,,,,,,,,,,,,,
34363,0,,,,,,,,0.03,0.42,0.71,31,2,0,0.42,0,,,,,,,,,,,,,,,,,
34403,0,,,,,,,,0.03,0.47,0.58,32,2,2,0.47,0,,,,,,,,,,,,,,,,,
34443,0,1,2,53,50,31,40,-30,-0.01,0.43,0.45,32,-4,4,0.43,0,0,0.0,0.0,0.0,0.0,0,0,0.0,0,0.0,-1,0.0,0.0,0.0,0,0.0,0.574
34483,0,,,,,,,,0.09,0.53,0.72,32,-2,3,0.54,0,,,,,,,,,,,,,,,,,
34523,0,,,,,,,,0.09,0.4,0.65,33,3,2,0.41,0,,,,,,,,,,,,,,,,,
34563,0,,,,,,,,0.11,0.52,0.69,33,-2,3,0.53,0,,,,,,,,,,,,,,,,,
34603,0,,,,,,,,0.18,0.45,0.6,32,3,1,0.48,0,,,,,,,,,,,,,,,,,
34643,0,0,1,52,51,30,40,-29,-0.0,0.45,0.46,32,-3,5,0.45,0,0,0.0,0.0,0.0,0.0,0,0,0.0,0,0.0,-1,0.0,0.0,0.0,0,0.0,0.5774
34683,0,,,,,,,,0.13,0.46,0.57,33,-2,3,0.48,0,,,,,,,,,,,,,,,,,
34723,0,,,,,,,,0.18,0.49,0.84,33,-0,2,0.52,0,,,,,,,,,,,,,,,,,
34763,0,,,,,,,,0.15,0.51,0.71,35,-0,3,0.53,0,,,,,,,,,,,,,,,,,
34803,0,,,,,,,,0.16,0.54,0.62,36,1,3,0.56,0,,,,,,,,,,,,,,,,,
34843,0,-1,2,53,49,32,41,-32,0.13,0.55,0.64,36,1,3,0.57,0,0,0.0,0.0,0.0,0.0,0,0,0.0,0,0.0,-1,0.0,0.0,0.0,0,0.0,0.5807
34883,0,,,,,,,,0.12,0.58,0.54,37,0,3,0.59,0,,,,,,,,,,,,,,,,,
34923,0,,,,,,,,0.02,0.59,0.4,37,-2,4,0.59,0,,,,,,,,,,,,,,,,,
34963,0,,,,,,,,-0.02,0.6,0.59,38,-2,4,0.6,0,,,,,,,,,,,,,,,,,
35003,0,,,,,,,,0.07,0.56,0.86,38,5,1,0.57,0,,,,,,,,,,,,,,,,,
35043,0,0,3,51,48,33,41,-31,0.06,0.63,0.6,38,-3,7,0.63,0,0,0.0,0.0,0.0,0.0,0,0,0.0,0,0.0,-1,0.0,0.0,0.0,0,0.0,0.584
35083,0,,,,,,,,0.26,0.65,0.5,38,4,2,0.7,0,,,,,,,,,,,,,,,,,
35123,0,,,,,,,,0.27,0.69,0.43,39,3,-1,0.74,0,,,,,,,,,,,,,,,,,
35163,0,,,,,,,,0.14,0.48,-0.03,39,3,4,0.5,0,,,,,,,,,,,,,,,,,
35203,0,,,,,,,,-0.0,0.36,-0.23,39,4,6,0.36,0,,,,,,,,,,,,,,,,,
35243,0,0,3,56,52,30,39,-32,0.04,0.51,-0.2,38,8,5,0.51,0,0,0.0,0.0,0.0,0.0,0,0,0.0,0,0.0,-1,0.0,0.0,0.0,0,0.0,0.5874
35283,0,,,,,,,,-0.05,0.51,-0.15,38,8,4,0.51,0,,,,,,,,,,,,,,,,,
35323,0,,,,,,,,0.26,0.59,0.26,39,18,-1,0.65,0,,,,,,,,,,,,,,,,,
35363,0,,,,,,,,0.45,0.75,0.59,39,5,9,0.88,0,,,,,,,,,,,,,,,,,
35403,0,,,,,,,,0.09,0.67,0.1,39,-15,16,0.68,0,,,,,,,,,,,,,,,,,
35443,0,-1,2,53,49,32,42,-30,0.06,0.65,0.1,39,-1,6,0.65,0,0,0.0,0.0,0.0,0.0,0,0,0.0,0,0.0,-1,0.0,0.0,0.0,0,0.0,0.5907
35483,0,,,,,,,,-0.02,0.63,0.35,39,1,6,0.63,0,,,,,,,,,,,,,,,,,
35523,0,,,,,,,,-0.09,0.63,0.33,39,-1,6,0.63,0,,,,,,,,,,,,,,,,,
35563,0,,,,,,,,-0.12,0.63,0.51,39,1,5,0.64,0,,,,,,,,,,,,,,,,,
35603,0,,,,,,,,-0.22,0.65,0.36,39,-5,7,0.69,0,,,,,,,,,,,,,,,,,
35643,0,0,2,52,46,33,43,-35,0.03,0.68,0.67,41,-6,5,0.68,0,0,0.0,0.0,0.0,0.0,0,0,0.0,0,0.0,-1,0.0,0.0,0.0,0,0.0,0.594
35683,0,,,,,,,,-0.19,0.58,0.32,41,-13,8,0.61,0,,,,,,,,,,,,,,,,,
35723,0,,,,,,,,-0.42,0.53,-0.12,41,-6,3,0.67,0,,,,,,,,,,,,,,,,,
35763,0,,,,,,,,-0.63,0.38,-0.48,41,-10,6,0.74,0,,,,,,,,,,,,,,,,,
35803,0,,,,,,,,-0.13,0.55,-0.01,43,7,-1,0.57,0,,,,,,,,,,,,,,,,,
35843,0,1,1,53,49,29,41,-37,-0.03,0.64,0.37,43,22,-10,0.64,0,0,0.0,0.0,0.0,0.0,0,0,0.0,0,0.0,-1,0.0,0.0,0.0,0,0.0,0.5974
35883,0,,,,,,,,-0.01,0.59,0.49,43,20,-9,0.59,0,,,,,,,,,,,,,,,,,
35923,0,,,,,,,,-0.05,0.6,0.38,44,11,-4,0.61,0,,,,,,,,,,,,,,,,,
35963,0,,,,,,,,0.13,0.66,0.69,45,12,-4,0.68,0,,,,,,,,,,,,,,,,,
36003,0,,,,,,,,0.04,0.7,0.58,47,15,-5,0.7,0,,,,,,,,,,,,,,,,,
36043,0,1,3,55,47,33,43,-44,0.07,0.74,0.45,48,6,-1,0.75,0,0,0.0,0.0,0.0,0.0,0,0,0.0,0,0.0,-1,0.0,0.0,0.0,0,0.0,0.6007
36083,0,,,,,,,,-0.3,0.73,-0.02,49,-8,5,0.79,0,,,,,,,,,,,,,,,,,
36123,0,,,,,,,,-0.59,0.7,-0.4,50,-19,9,0.91,0,,,,,,,,,,,,,,,,,
36163,0,,,,,,,,-0.74,0.62,-0.7,51,-35,17,0.97,0,,,,,,,,,,,,,,,,,
36203,0,,,,,,,,-0.92,0.53,-0.95,51,-37,19,1.06,0,,,,,,,,,,,,,,,,,
36243,0,-0,1,55,49,33,45,-47,-0.51,0.62,-0.39,52,-18,8,0.8,0,0,0.0,0.0,0.0,0.0,0,0,0.0,0,0.0,-1,0.0,0.0,0.0,0,0.0,0.604
36283,0,,,,,,,,-0.48,0.67,-0.34,53,-22,13,0.83,0,,,,,,,,,,,,,,,,,
36323,0,,,,,,,,-0.62,0.63,-0.54,54,-21,14,0.88,0,,,,,,,,,,,,,,,,,
36363,0,,,,,,,,-0.23,0.71,-0.06,55,-10,8,0.74,0,,,,,,,,,,,,,,,,,
36403,0,,,,,,,,-0.36,0.75,-0.32,55,-9,7,0.83,0,,,,,,,,,,,,,,,,,
36443,0,-1,1,55,48,33,44,-57,-0.2,0.85,0.12,56,-7,7,0.88,0,0,0.0,0.0,0.0,0.0,0,0,0.0,0,0.0,-1,0.0,0.0,0.0,0,0.0,0.6074
36483,0,,,,,,,,-0.33,0.88,0.11,56,-8,7,0.94,0,,,,,,,,,,,,,,,,,
36523,0,,,,,,,,-0.19,0.98,0.2,58,-3,6,1.0,0,,,,,,,,,,,,,,,,,
36563,0,,,,,,,,-0.32,0.89,0.18,60,-4,6,0.95,0,,,,,,,,,,,,,,,,,
36603,0,,,,,,,,-0.13,0.98,0.39,62,1,3,0.98,0,,,,,,,,,,,,,,,,,
36643,0,1,2,55,46,33,46,-65,-0.39,0.88,-0.07,64,-4,8,0.96,0,0,0.0,0.0,0.0,0.0,0,0,0.0,0,0.0,-1,0.0,0.0,0.0,0,0.0,0.6107
36683,0,,,,,,,,-0.16,0.98,0.32,66,6,1,0.99,0,,,,,,,,,,,,,,,,,
36723,0,,,,,,,,0.16,1.11,0.64,68,15,-3,1.12,0,,,,,,,,,,,,,,,,,
36763,0,,,,,,,,0.37,1.16,0.9,71,5,2,1.21,0,,,,,,,,,,,,,,,,,
36803,0,,,,,,,,0.26,1.22,1.09,72,-14,11,1.25,0,,,,,,,,,,,,,,,,,
36843,0,1,3,54,45,34,46,-51,0.05,1.31,0.55,74,-28,19,1.31,0,0,0.0,0.0,0.0,0.0,0,0,0.0,0,0.0,-1,0.0,0.0,0.0,0,0.0,0.614
36883,0,,,,,,,,-0.25,1.12,0.06,73,-20,13,1.14,0,,,,,,,,,,,,,,,,,
36923,0,,,,,,,,-0.18,0.94,0.15,69,-20,14,0.95,0,,,,,,,,,,,,,,,,,
36963,0,,,,,,,,-0.04,0.69,0.41,61,-10,7,0.69,0,,,,,,,,,,,,,,,,,
37003,0,,,,,,,,0.04,0.42,0.44,50,-7,4,0.43,0,,,,,,,,,,,,,,,,,
37043,0,1,3,47,49,36,38,20,0.06,0.23,0.4,39,-7,2,0.24,0,0,0.0,0.0,0.0,0.0,0,0,0.0,0,0.0,-1,0.0,0.0,0.0,0,0.0,0.6174
37083,0,,,,,,,,0.07,0.0,0.35,28,-7,2,0.07,0,,,,,,,,,,,,,,,,,
37123,0,,,,,,,,0.02,-0.17,0.41,17,-8,3,0.17,0,,,,,,,,,,,,,,,,,
37163,0,,,,,,,,0.01,-0.26,0.57,8,-9,2,0.26,0,,,,,,,,,,,,,,,,,
37203,0,,,,,,,,0.05,-0.31,0.84,-1,-8,2,0.31,0,,,,,,,,,,,,,,,,,
37243,0,0,2,44,52,37,38,47,0.08,-0.39,0.79,-8,-1,-2,0.4,0,0,0.0,0.0,0.0,0.0,0,0,0.0,0,0.0,-1,0.0,0.0,0.0,0,0.0,0.6207
37283,0,,,,,,,,-0.12,-0.53,0.59,-15,-4,1,0.54,0,,,,,,,,,,,,,,,,,
37323,0,,,,,,,,0.03,-0.63,0.85,-22,-3,-1,0.63,0,,,,,,,,,,,,,,,,,
37363,0,,,,,,,,0.01,-0.77,0.71,-29,4,-4,0.77,0,,,,,,,,,,,,,,,,,
37403,0,,,,,,,,-0.24,-0.88,0.29,-36,3,-3,0.91,0,,,,,,,,,,,,,,,,,
37443,0,0,1,43,55,41,36,78,-0.15,-0.83,0.34,-43,-1,-2,0.85,0,0,0.0,0.0,0.0,0.0,0,0,0.0,0,0.0,-1,0.0,0.0,0.0,0,0.0,0.624
37483,0,,,,,,,,-0.16,-1.01,0.3,-50,6,-4,1.02,0,,,,,,,,,,,,,,,,,
37523,0,,,,,,,,-0.24,-1.12,0.16,-55,4,-2,1.14,0,,,,,,,,,,,,,,,,,
37563,0,,,,,,,,-0.07,-1.13,0.51,-61,11,-4,1.14,0,,,,,,,,,,,,,,,,,
37603,0,,,,,,,,-0.27,-1.25,0.03,-66,-0,1,1.28,0,,,,,,,,,,,,,,,,,
37643,0,0,2,43,56,41,38,80,-0.29,-1.25,0.04,-70,7,-6,1.28,0,0,0.0,0.0,0.0,0.0,0,0,0.0,0,0.0,-1,0.0,0.0,0.0,0,0.0,0.6274
37683,0,,,,,,,,0.01,-1.12,0.42,-73,11,-9,1.12,0,,,,,,,,,,,,,,,,,
37723,0,,,,,,,,0.04,-1.24,0.05,-76,-4,4,1.24,0,,,,,,,,,,,,,,,,,
37763,0,,,,,,,,-0.16,-1.32,-0.34,-77,-20,14,1.33,0,,,,,,,,,,,,,,,,,
37803,0,,,,,,,,-0.36,-1.25,-0.52,-77,-20,13,1.3,0,,,,,,,,,,,,,,,,,
37843,0,-1,2,48,54,39,38,38,-0.2,-1.02,-0.06,-74,-19,10,1.04,0,0,0.0,0.0,0.0,0.0,0,0,0.0,0,0.0,-1,0.0,0.0,0.0,0,0.0,0.6307
37883,0,,,,,,,,-0.1,-0.81,-0.03,-66,-11,7,0.82,0,,,,,,,,,,,,,,,,,
37923,0,,,,,,,,-0.15,-0.58,0.24,-57,-12,7,0.6,0,,,,,,,,,,,,,,,,,
37963,0,,,,,,,,-0.16,-0.3,0.17,-46,-15,8,0.33,0,,,,,,,,,,,,,,,,,
38003,0,,,,,,,,0.04,-0.13,0.46,-36,-5,4,0.14,0,,,,,,,,,,,,,,,,,
38043,0,-1,2,53,50,29,39,-25,-0.03,0.08,0.35,-25,-13,9,0.09,0,0,0.0,0.0,0.0,0.0,0,0,0.0,0,0.0,-1,0.0,0.0,0.0,0,0.0,0.634
38083,0,,,,,,,,-0.01,0.17,0.3,-15,-7,6,0.17,0,,,,,,,,,,,,,,,,,
38123,0,,,,,,,,0.2,0.42,0.62,-6,-2,2,0.46,0,,,,,,,,,,,,,,,,,
38163,0,,,,,,,,0.37,0.69,0.89,2,-22,15,0.79,0,,,,,,,,,,,,,,,,,
38203,0,,,,,,,,0.57,0.83,1.1,10,-15,10,1.01,0,,,,,,,,,,,,,,,,,
38243,0,-1,2,55,50,28,41,-55,0.47,0.81,0.91,19,-18,13,0.93,0,0,0.0,0.0,0.0,0.0,0,0,0.0,0,0.0,-1,0.0,0.0,0.0,0,0.0,0.6374
38283,0,,,,,,,,0.21,0.9,0.71,27,-10,6,0.93,0,,,,,,,,,,,,,,,,,
38323,0,,,,,,,,0.33,0.89,0.96,33,-8,1,0.95,0,,,,,,,,,,,,,,,,,
38363,0,,,,,,,,0.29,0.95,0.8,39,-18,11,1.0,0,,,,,,,,,,,,,,,,,
38403,0,,,,,,,,0.13,0.99,0.26,44,-23,16,1.0,0,,,,,,,,,,,,,,,,,
38443,0,-1,2,55,48,31,44,-63,0.21,1.05,0.19,50,-20,10,1.07,0,0,0.0,0.0,0.0,0.0,0,0,0.0,0,0.0,-1,0.0,0.0,0.0,0,0.0,0.6407
38483,0,,,,,,,,0.19,1.09,0.17,55,-15,9,1.11,0,,,,,,,,,,,,,,,,,
38523,0,,,,,,,,0.17,1.13,0.16,58,-8,8,1.14,0,,,,,,,,,,,,,,,,,
38563,0,,,,,,,,-0.13,1.17,-0.25,58,-5,12,1.18,0,,,,,,,,,,,,,,,,,
38603,0,,,,,,,,-0.04,1.2,-0.22,62,-11,13,1.2,0,,,,,,,,,,,,,,,,,
38643,0,-1,2,55,46,33,46,-42,0.1,1.18,0.08,64,7,-1,1.19,0,0,0.0,0.0,0.0,0.0,0,0,0.0,0,0.0,-1,0.0,0.0,0.0,0,0.0,0.644
38683,0,,,,,,,,0.05,1.24,-0.32,66,-18,15,1.24,0,,,,,,,,,,,,,,,,,
38723,0,,,,,,,,-0.27,1.06,-0.64,68,-31,26,1.09,0,,,,,,,,,,,,,,,,,
38763,0,,,,,,,,-0.07,1.06,-0.14,67,-3,4,1.06,0,,,,,,,,,,,,,,,,,
38803,0,,,,,,,,-0.22,0.92,-0.49,66,-23,15,0.94,0,,,,,,,,,,,,,,,,,
38843,0,-0,3,53,49,32,41,13,0.12,0.92,-0.42,61,-17,8,0.93,0,0,0.0,0.0,0.0,0.0,0,0,0.0,0,0.0,-1,0.0,0.0,0.0,0,0.0,0.6474
38883,0,,,,,,,,0.13,0.72,-0.32,54,-5,0,0.73,0,,,,,,,,,,,,,,,,,
38923,0,,,,,,,,0.04,0.55,-0.64,42,-19,10,0.55,0,,,,,,,,,,,,,,,,,
38963,0,,,,,,,,0.02,0.38,-0.54,29,-22,9,0.38,0,,,,,,,,,,,,,,,,,
39003,0,,,,,,,,0.03,0.15,-0.46,17,-21,4,0.16,0,,,,,,,,,,,,,,,,,
39043,0,-0,2,46,52,32,35,31,0.0,-0.06,-0.39,8,-17,2,0.06,0,0,0.0,0.0,0.0,0.0,0,0,0.0,0,0.0,-1,0.0,0.0,0.0,0,0.0,0.6507
39083,0,,,,,,,,-0.05,-0.16,-0.34,-1,-19,5,0.16,0,,,,,,,,,,,,,,,,,
39123,0,,,,,,,,0.04,-0.18,-0.29,-6,-21,8,0.18,0,,,,,,,,,,,,,,,,,
39163,0,,,,,,,,0.18,-0.31,-0.18,-11,-3,2,0.36,0,,,,,,,,,,,,,,,,,
39203,0,,,,,,,,0.05,-0.14,-0.12,-13,-2,4,0.15,0,,,,,,,,,,,,,,,,,
39243,0,0,3,47,47,34,36,12,0.17,-0.07,-0.08,-13,5,-3,0.19,0,0,0.0,0.0,0.0,0.0,0,0,0.0,0,0.0,-1,0.0,0.0,0.0,0,0.0,0.654
39283,0,,,,,,,,0.18,-0.21,-0.05,-13,3,-3,0.28,0,,,,,,,,,,,,,,,,,
39323,0,,,,,,,,0.13,-0.24,-0.02,-14,-1,-2,0.27,0,,,,,,,,,,,,,,,,,
39363,0,,,,,,,,0.1,-0.3,0.0,-16,3,-5,0.32,0,,,,,,,,,,,,,,,,,
39403,0,,,,,,,,0.06,-0.35,0.02,-16,10,-7,0.35,0,,,,,,,,,,,,,,,,,
39443,0,10,9,43,47,36,40,11,0.09,-0.29,0.04,-17,5,-7,0.31,0,0,0.0,0.0,0.0,0.0,0,0,0.0,0,0.0,-1,0.0,0.0,0.0,0,0.0,0.6574
39483,0,,,,,,,,-0.18,-0.28,-0.35,-15,-11,4,0.33,0,,,,,,,,,,,,,,,,,
39523,0,,,,,,,,0.18,-0.01,0.1,-13,3,-2,0.18,0,,,,,,,,,,,,,,,,,
39563,0,,,,,,,,0.36,0.16,0.46,-8,17,-11,0.39,0,,,,,,,,,,,,,,,,,
39603,0,,,,,,,,0.45,0.33,0.75,-1,10,-7,0.55,0,,,,,,,,,,,,,,,,,
39643,0,-0,3,51,44,32,44,-50,0.06,0.38,0.25,7,14,-6,0.38,0,0,0.0,0.0,0.0,0.0,0,0,0.0,0,0.0,-1,0.0,0.0,0.0,0,0.0,0.6607
39683,0,,,,,,,,-0.11,0.55,0.35,15,30,-15,0.56,0,,,,,,,,,,,,,,,,,
39723,0,,,,,,,,-0.43,0.46,-0.1,23,46,-21,0.63,0,,,,,,,,,,,,,,,,,
39763,0,,,,,,,,-0.62,0.57,-0.46,31,28,-7,0.84,0,,,,,,,,,,,,,,,,,
39803,0,,,,,,,,-0.52,0.63,-0.39,38,30,-4,0.82,0,,,,,,,,,,,,,,,,,
39843,0,1,0,53,46,33,46,-71,-0.17,0.79,0.06,43,28,-5,0.81,0,0,0.0,0.0,0.0,0.0,0,0,0.0,0,0.0,-1,0.0,0.0,0.0,0,0.0,0.664
39883,0,,,,,,,,-0.12,0.85,0.07,47,30,-7,0.86,0,,,,,,,,,,,,,,,,,
39923,0,,,,,,,,-0.25,0.84,-0.25,49,22,-4,0.88,0,,,,,,,,,,,,,,,,,
39963,0,,,,,,,,-0.22,0.84,-0.23,54,21,1,0.87,0,,,,,,,,,,,,,,,,,
40003,0,,,,,,,,-0.18,0.91,-0.2,58,13,5,0.92,0,,,,,,,,,,,,,,,,,
40043,0,-0,2,55,47,32,43,-33,-0.17,0.8,-0.18,60,7,6,0.82,0,0,0.0,0.0,0.0,0.0,0,0,0.0,0,0.0,-1,0.0,0.0,0.0,0,0.0,0.6674
40083,0,,,,,,,,-0.18,0.88,-0.17,61,-3,10,0.9,0,,,,,,,,,,,,,,,,,
40123,0,,,,,,,,-0.07,0.93,-0.16,62,-5,11,0.94,0,,,,,,,,,,,,,,,,,
40163,0,,,,,,,,-0.06,0.95,-0.11,61,15,-5,0.95,0,,,,,,,,,,,,,,,,,
40203,0,,,,,,,,0.22,1.07,0.29,60,12,-0,1.09,0,,,,,,,,,,,,,,,,,
40243,0,0,1,53,47,32,43,-18,0.16,0.98,-0.14,59,-9,15,0.99,0,0,0.0,0.0,0.0,0.0,0,0,0.0,0,0.0,-1,0.0,0.0,0.0,0,0.0,0.6707
40283,0,,,,,,,,0.06,0.84,-0.1,56,-4,8,0.85,0,,,,,,,,,,,,,,,,,
40323,0,,,,,,,,-0.03,0.86,-0.1,51,-8,10,0.86,0,,,,,,,,,,,,,,,,,
40363,0,,,,,,,,-0.05,0.86,-0.1,46,-8,14,0.86,0,,,,,,,,,,,,,,,,,
40403,0,,,,,,,,-0.05,0.95,-0.1,43,-15,20,0.95,0,,,,,,,,,,,,,,,,,
40443,0,1,2,53,47,30,42,-30,0.16,0.99,-0.1,42,-3,10,1.01,0,0,0.0,0.0,0.0,0.0,0,0,0.0,0,0.0,-1,0.0,0.0,0.0,0,0.0,0.674
40483,0,,,,,,,,0.2,0.91,-0.06,42,14,-1,0.93,0,,,,,,,,,,,,,,,,,
40523,0,,,,,,,,-0.17,0.98,-0.43,45,-4,13,1.0,0,,,,,,,,,,,,,,,,,
40563,0,,,,,,,,0.2,0.98,0.03,46,24,-11,1.0,0,,,,,,,,,,,,,,,,,
40603,0,,,,,,,,0.45,0.99,0.06,46,28,-10,1.08,0,,,,,,,,,,,,,,,,,
40643,0,0,2,56,47,32,42,-36,0.07,1.08,-0.33,49,3,9,1.08,0,0,0.0,0.0,0.0,0.0,0,0,0.0,0,0.0,-1,0.0,0.0,0.0,0,0.0,0.6774
40683,0,,,,,,,,-0.07,0.96,-0.28,51,-5,10,0.97,0,,,,,,,,,,,,,,,,,
40723,0,,,,,,,,-0.12,0.81,-0.24,50,-9,10,0.82,0,,,,,,,,,,,,,,,,,
40763,0,,,,,,,,-0.07,0.85,-0.18,49,-7,7,0.85,0,,,,,,,,,,,,,,,,,
40803,0,,,,,,,,0.03,0.76,-0.16,48,-7,8,0.76,0,,,,,,,,,,,,,,,,,
40843,0,0,1,54,51,28,38,-10,0.04,0.61,-0.1,45,-6,6,0.61,0,0,0.0,0.0,0.0,0.0,0,0,0.0,0,0.0,-1,0.0,0.0,0.0,0,0.0,0.6807
40883,0,,,,,,,,0.12,0.59,-0.06,42,-8,8,0.6,0,,,,,,,,,,,,,,,,,
40923,0,,,,,,,,0.26,0.61,0.15,40,-4,6,0.66,0,,,,,,,,,,,,,,,,,
40963,0,,,,,,,,0.19,0.63,-0.26,39,-3,6,0.66,0,,,,,,,,,,,,,,,,,
41003,0,,,,,,,,0.16,0.61,-0.14,39,2,3,0.64,0,,,,,,,,,,,,,,,,,
41043,0,-0,2,55,50,30,39,-13,0.28,0.67,0.27,39,7,-1,0.72,0,0,0.0,0.0,0.0,0.0,0,0,0.0,0,0.0,-1,0.0,0.0,0.0,0,0.0,0.684
41083,0,,,,,,,,0.47,0.58,0.6,39,10,-1,0.75,0,,,,,,,,,,,,,,,,,
41123,0,,,,,,,,0.4,0.62,0.22,39,4,7,0.74,0,,,,,,,,,,,,,,,,,
41163,0,,,,,,,,0.28,0.54,-0.2,37,-2,9,0.61,0,,,,,,,,,,,,,,,,,
41203,0,,,,,,,,0.22,0.57,-0.54,35,-8,9,0.61,0,,,,,,,,,,,,,,,,,
41243,0,0,1,54,50,29,39,-7,0.26,0.51,-0.82,32,-12,14,0.57,0,0,0.0,0.0,0.0,0.0,0,0,0.0,0,0.0,-1,0.0,0.0,0.0,0,0.0,0.6874
41283,0,,,,,,,,0.26,0.56,-1.05,30,-12,15,0.62,0,,,,,,,,,,,,,,,,,
41323,0,,,,,,,,0.32,0.58,-0.83,29,-8,10,0.66,0,,,,,,,,,,,,,,,,,
41363,0,,,,,,,,0.32,0.63,-0.29,30,-5,3,0.71,0,,,,,,,,,,,,,,,,,
41403,0,,,,,,,,0.26,0.65,-0.26,32,-8,-1,0.7,0,,,,,,,,,,,,,,,,,
41443,0,0,2,54,47,32,41,-12,0.13,0.62,-0.29,32,-12,1,0.64,0,0,0.0,0.0,0.0,0.0,0,0,0.0,0,0.0,-1,0.0,0.0,0.0,0,0.0,0.6907
41483,0,,,,,,,,0.02,0.67,-0.25,31,-15,-1,0.67,0,,,,,,,,,,,,,,,,,
41523,0,,,,,,,,0.09,0.59,-0.18,30,-16,0,0.6,0,,,,,,,,,,,,,,,,,
41563,0,,,,,,,,0.28,0.6,-0.53,28,-15,5,0.66,0,,,,,,,,,,,,,,,,,
41603,0,,,,,,,,0.38,0.56,-0.05,25,-6,-5,0.67,0,,,,,,,,,,,,,,,,,
41643,0,0,3,51,52,31,36,0,0.4,0.49,-0.07,22,-13,0,0.63,0,0,0.0,0.0,0.0,0.0,0,0,0.0,0,0.0,-1,0.0,0.0,0.0,0,0.0,0.694
41683,0,,,,,,,,0.37,0.44,-0.44,19,-13,5,0.57,0,,,,,,,,,,,,,,,,,
41723,0,,,,,,,,0.49,0.54,0.01,18,-10,4,0.73,0,,,,,,,,,,,,,,,,,
41763,0,,,,,,,,0.51,0.46,-0.37,16,-11,3,0.68,0,,,,,,,,,,,,,,,,,
41803,0,,,,,,,,0.45,0.44,0.08,15,-10,1,0.63,0,,,,,,,,,,,,,,,,,
41843,0,1,1,52,52,29,35,6,0.47,0.39,0.34,14,-11,1,0.61,0,0,0.0,0.0,0.0,0.0,0,0,0.0,0,0.0,-1,0.0,0.0,0.0,0,0.0,0.6974
41883,0,,,,,,,,0.54,0.17,0.38,12,-10,2,0.57,0,,,,,,,,,,,,,,,,,
41923,0,,,,,,,,0.61,0.18,0.26,8,-2,0,0.63,0,,,,,,,,,,,,,,,,,
41963,0,,,,,,,,0.64,-0.15,0.36,3,2,-0,0.66,0,,,,,,,,,,,,,,,,,
42003,0,,,,,,,,0.54,-0.24,0.27,-1,0,-0,0.59,0,,,,,,,,,,,,,,,,,
42043,0,0,2,46,54,35,34,11,0.67,-0.27,0.54,-5,6,-3,0.72,0,0,0.0,0.0,0.0,0.0,0,0,0.0,0,0.0,-1,0.0,0.0,0.0,0,0.0,0.7007
42083,0,,,,,,,,0.81,-0.29,0.72,-8,2,-3,0.86,0,,,,,,,,,,,,,,,,,
42123,0,,,,,,,,0.69,-0.28,0.57,-10,-0,-1,0.75,0,,,,,,,,,,,,,,,,,
42163,0,,,,,,,,0.47,-0.33,0.44,-9,-5,1,0.57,0,,,,,,,,,,,,,,,,,
42203,0,,,,,,,,0.58,-0.23,0.73,-9,2,-3,0.62,0,,,,,,,,,,,,,,,,,
42243,0,1,2,48,52,32,34,6,0.65,-0.1,0.56,-8,1,0,0.66,0,0,0.0,0.0,0.0,0.0,0,0,0.0,0,0.0,-1,0.0,0.0,0.0,0,0.0,0.704
42283,0,,,,,,,,0.52,-0.28,0.68,-7,-3,-0,0.59,0,,,,,,,,,,,,,,,,,
42323,0,,,,,,,,0.56,-0.14,0.62,-6,-1,-2,0.58,0,,,,,,,,,,,,,,,,,
42363,0,,,,,,,,0.6,-0.44,0.88,-6,1,1,0.75,0,,,,,,,,,,,,,,,,,
42403,0,,,,,,,,0.54,-0.53,1.09,-6,2,-3,0.76,0,,,,,,,,,,,,,,,,,
42443,0,1,1,47,48,33,36,6,0.39,-0.34,0.9,-6,1,0,0.52,0,0,0.0,0.0,0.0,0.0,0,0,0.0,0,0.0,-1,0.0,0.0,0.0,0,0.0,0.7074
42483,0,,,,,,,,0.17,-0.29,0.7,-6,1,4,0.34,0,,,,,,,,,,,,,,,,,
42523,0,,,,,,,,-0.01,-0.18,0.41,-7,2,3,0.18,0,,,,,,,,,,,,,,,,,
42563,0,,,,,,,,-0.09,-0.31,0.72,-7,4,-1,0.33,0,,,,,,,,,,,,,,,,,
42603,0,,,,,,,,-0.18,-0.33,0.56,-8,2,-0,0.37,0,,,,,,,,,,,,,,,,,
42643,0,17,17,41,45,39,42,4,-0.29,-0.44,0.57,-9,5,-1,0.52,0,0,0.0,0.0,0.0,0.0,0,0,0.0,0,0.0,-1,0.0,0.0,0.0,0,0.0,0.7107
42683,0,,,,,,,,-0.33,-0.36,0.44,-9,4,-1,0.49,0,,,,,,,,,,,,,,,,,
42723,0,,,,,,,,-0.49,-0.34,0.49,-10,1,1,0.6,0,,,,,,,,,,,,,,,,,
42763,0,,,,,,,,-0.72,-0.45,0.02,-11,-4,3,0.85,0,,,,,,,,,,,,,,,,,
42803,0,,,,,,,,-0.75,-0.48,0.39,-12,-6,1,0.89,0,,,,,,,,,,,,,,,,,
42843,0,27,22,38,44,40,43,1,-0.72,-0.5,0.34,-14,-4,-0,0.88,0,0,0.0,0.0,0.0,0.0,0,0,0.0,0,0.0,-1,0.0,0.0,0.0,0,0.0,0.714
42883,0,,,,,,,,-0.77,-0.68,0.09,-16,1,-4,1.03,0,,,,,,,,,,,,,,,,,
42923,0,,,,,,,,-0.91,-0.75,-0.31,-18,-3,-1,1.18,0,,,,,,,,,,,,,,,,,
42963,0,,,,,,,,-0.64,-0.76,0.13,-22,6,-8,0.99,0,,,,,,,,,,,,,,,,,
43003,0,,,,,,,,-0.9,-0.76,-0.28,-24,13,-13,1.18,0,,,,,,,,,,,,,,,,,
43043,0,27,21,36,41,43,44,-12,-0.94,-0.67,-0.12,-26,17,-17,1.15,0,0,0.0,0.0,0.0,0.0,0,0,0.0,0,0.0,-1,0.0,0.0,0.0,0,0.0,0.7174
43083,0,,,,,,,,-0.94,-0.59,-0.12,-27,13,-12,1.11,0,,,,,,,,,,,,,,,,,
43123,0,,,,,,,,-0.78,-0.45,0.1,-27,12,-12,0.9,0,,,,,,,,,,,,,,,,,
43163,0,,,,,,,,-1.01,-0.44,0.43,-26,-9,-8,1.1,0,,,,,,,,,,,,,,,,,
43203,0,,,,,,,,-1.2,-0.41,0.73,-24,-40,-3,1.27,0,,,,,,,,,,,,,,,,,
43243,0,-1,2,38,43,40,41,-22,-1.24,-0.37,0.49,-21,-61,2,1.29,0,0,0.0,0.0,0.0,0.0,0,0,0.0,0,0.0,-1,0.0,0.0,0.0,0,0.0,0.7207
43283,0,,,,,,,,-1.0,-0.42,0.53,-19,-46,0,1.09,0,,,,,,,,,,,,,,,,,
43323,0,,,,,,,,-0.96,-0.38,0.71,-18,-38,-0,1.04,0,,,,,,,,,,,,,,,,,
43363,0,,,,,,,,-0.97,-0.36,0.55,-16,-42,3,1.03,0,,,,,,,,,,,,,,,,,
43403,0,,,,,,,,-1.08,-0.4,0.53,-14,-31,-1,1.15,0,,,,,,,,,,,,,,,,,
43443,0,4,5,39,44,39,39,-13,-1.25,-0.54,0.31,-13,-35,3,1.36,0,0,0.0,0.0,0.0,0.0,0,0,0.0,0,0.0,-1,0.0,0.0,0.0,0,0.0,0.724
43483,0,,,,,,,,-1.03,-0.46,0.27,-12,-22,-3,1.13,0,,,,,,,,,,,,,,,,,
43523,0,,,,,,,,-1.01,-0.51,-0.16,-8,-36,10,1.13,0,,,,,,,,,,,,,,,,,
43563,0,,,,,,,,-0.55,-0.43,0.25,-5,-11,-11,0.7,0,,,,,,,,,,,,,,,,,
43603,0,,,,,,,,-0.28,-0.37,0.58,-3,1,-12,0.46,0,,,,,,,,,,,,,,,,,
43643,0,1,1,43,48,37,40,8,-0.3,-0.42,0.09,-2,-14,5,0.52,0,0,0.0,0.0,0.0,0.0,0,0,0.0,0,0.0,-1,0.0,0.0,0.0,0,0.0,0.7274
43683,0,,,,,,,,-0.33,-0.31,0.09,-3,-10,0,0.45,0,,,,,,,,,,,,,,,,,
43723,0,,,,,,,,-0.17,-0.33,0.06,-5,-7,1,0.37,0,,,,,,,,,,,,,,,,,
43763,0,,,,,,,,-0.12,-0.33,0.06,-7,6,-8,0.35,0,,,,,,,,,,,,,,,,,
43803,0,,,,,,,,-0.26,-0.22,-0.0,-9,-0,-6,0.34,0,,,,,,,,,,,,,,,,,
43843,0,15,13,42,45,39,41,13,-0.29,-0.23,0.16,-12,-2,-9,0.37,0,0,0.0,0.0,0.0,0.0,0,0,0.0,0,0.0,-1,0.0,0.0,0.0,0,0.0,0.7307
43883,0,,,,,,,,-0.23,-0.19,0.15,-11,-13,2,0.3,0,,,,,,,,,,,,,,,,,
43923,0,,,,,,,,-0.3,-0.14,0.23,-13,11,-12,0.33,0,,,,,,,,,,,,,,,,,
43963,0,,,,,,,,-0.62,-0.3,-0.2,-13,13,-13,0.69,0,,,,,,,,,,,,,,,,,
44003,0,,,,,,,,-0.66,-0.37,-0.54,-13,-14,2,0.76,0,,,,,,,,,,,,,,,,,
44043,0,-0,3,42,46,38,40,12,-0.25,-0.22,-0.06,-13,-8,1,0.33,0,0,0.0,0.0,0.0,0.0,0,0,0.0,0,0.0,-1,0.0,0.0,0.0,0,0.0,0.734
44083,0,,,,,,,,-0.21,-0.21,0.25,-13,18,-12,0.3,0,,,,,,,,,,,,,,,,,
44123,0,,,,,,,,-0.35,-0.17,0.47,-13,32,-21,0.39,0,,,,,,,,,,,,,,,,,
44163,0,,,,,,,,-0.36,-0.18,0.76,-13,51,-30,0.4,0,,,,,,,,,,,,,,,,,
44203,0,,,,,,,,-0.2,-0.2,1.0,-12,69,-38,0.28,0,,,,,,,,,,,,,,,,,
44243,0,2,1,43,44,37,40,0,0.12,-0.05,1.19,-11,78,-41,0.13,0,0,0.0,0.0,0.0,0.0,0,0,0.0,0,0.0,-1,0.0,0.0,0.0,0,0.0,0.7374
44283,0,,,,,,,,0.36,0.06,1.34,-7,65,-31,0.36,0,,,,,,,,,,,,,,,,,
44323,0,,,,,,,,0.1,0.14,0.8,-4,52,-25,0.17,0,,,,,,,,,,,,,,,,,
44363,0,,,,,,,,0.16,0.36,1.03,1,39,-18,0.39,0,,,,,,,,,,,,,,,,,
44403,0,,,,,,,,-0.06,0.36,0.69,6,33,-15,0.37,0,,,,,,,,,,,,,,,,,
44443,0,1,3,46,43,34,43,-34,0.1,0.54,0.94,12,25,-11,0.55,0,0,0.0,0.0,0.0,0.0,0,0,0.0,0,0.0,-1,0.0,0.0,0.0,0,0.0,0.7407
44483,0,,,,,,,,-0.0,0.59,0.82,18,22,-11,0.59,0,,,,,,,,,,,,,,,,,
44523,0,,,,,,,,-0.1,0.68,0.66,23,15,-5,0.69,0,,,,,,,,,,,,,,,,,
44563,0,,,,,,,,-0.11,0.77,0.52,29,13,-2,0.77,0,,,,,,,,,,,,,,,,,
44603,0,,,,,,,,-0.17,0.8,0.51,35,12,-1,0.82,0,,,,,,,,,,,,,,,,,
44643,0,-0,2,50,43,33,45,-54,-0.22,0.86,0.6,40,12,-1,0.88,0,0,0.0,0.0,0.0,0.0,0,0,0.0,0,0.0,-1,0.0,0.0,0.0,0,0.0,0.7441
44683,0,,,,,,,,-0.16,0.9,0.66,45,12,-1,0.91,0,,,,,,,,,,,,,,,,,
44723,0,,,,,,,,-0.23,0.93,0.28,50,6,3,0.96,0,,,,,,,,,,,,,,,,,
44763,0,,,,,,,,-0.31,0.95,0.44,53,10,2,1.0,0,,,,,,,,,,,,,,,,,
44803,0,,,,,,,,-0.15,1.0,0.62,57,11,2,1.01,0,,,,,,,,,,,,,,,,,
44843,0,0,3,52,44,34,46,-64,-0.38,0.96,0.48,61,11,2,1.04,0,0,0.0,0.0,0.0,0.0,0,0,0.0,0,0.0,-1,0.0,0.0,0.0,0,0.0,0.7474
44883,0,,,,,,,,-0.67,1.08,0.77,63,-8,4,1.27,0,,,,,,,,,,,,,,,,,
44923,0,,,,,,,,-0.49,1.15,0.46,66,-16,6,1.25,0,,,,,,,,,,,,,,,,,
44963,0,,,,,,,,-0.04,1.16,0.19,69,3,3,1.17,0,,,,,,,,,,,,,,,,,
45003,0,,,,,,,,0.35,1.08,-0.23,72,32,1,1.13,0,,,,,,,,,,,,,,,,,
45043,0,1,2,52,45,34,47,-70,0.66,1.05,-0.56,75,55,1,1.24,0,0,0.0,0.0,0.0,0.0,0,0,0.0,0,0.0,-1,0.0,0.0,0.0,0,0.0,0.7507
45083,0,,,,,,,,0.92,1.07,-0.84,77,68,-0,1.41,0,,,,,,,,,,,,,,,,,
45123,0,,,,,,,,1.12,1.05,-0.91,79,82,-3,1.54,0,,,,,,,,,,,,,,,,,
45163,0,,,,,,,,0.86,1.0,-0.76,80,77,-2,1.32,0,,,,,,,,,,,,,,,,,
45203,0,,,,,,,,0.67,1.07,-0.23,81,52,1,1.26,0,,,,,,,,,,,,,,,,,
45243,0,1,2,52,44,35,47,-70,0.43,1.04,-0.02,81,44,-0,1.12,0,0,0.0,0.0,0.0,0.0,0,0,0.0,0,0.0,-1,0.0,0.0,0.0,0,0.0,0.754
45283,0,,,,,,,,0.33,1.08,0.11,82,33,2,1.13,0,,,,,,,,,,,,,,,,,
45323,0,,,,,,,,0.11,1.09,0.05,82,23,3,1.09,0,,,,,,,,,,,,,,,,,
45363,0,,,,,,,,0.05,1.09,0.06,82,18,2,1.09,0,,,,,,,,,,,,,,,,,
45403,0,,,,,,,,0.07,1.0,0.28,80,14,2,1.0,0,,,,,,,,,,,,,,,,,
45443,0,0,2,52,47,34,44,-52,0.13,0.92,0.26,76,11,2,0.93,0,0,0.0,0.0,0.0,0.0,0,0,0.0,0,0.0,-1,0.0,0.0,0.0,0,0.0,0.7574
45483,0,,,,,,,,0.11,0.88,0.4,73,7,2,0.88,0,,,,,,,,,,,,,,,,,
45523,0,,,,,,,,0.11,0.85,0.37,70,6,2,0.86,0,,,,,,,,,,,,,,,,,
45563,0,,,,,,,,0.18,0.9,0.59,68,7,2,0.92,0,,,,,,,,,,,,,,,,,
45603,0,,,,,,,,0.27,0.89,0.72,67,10,0,0.93,0,,,,,,,,,,,,,,,,,
45643,0,-1,2,53,47,32,42,-53,0.05,0.88,0.28,66,7,3,0.88,0,0,0.0,0.0,0.0,0.0,0,0,0.0,0,0.0,-1,0.0,0.0,0.0,0,0.0,0.7607
45683,0,,,,,,,,0.3,0.99,0.61,66,4,2,1.04,0,,,,,,,,,,,,,,,,,
45723,0,,,,,,,,0.1,0.95,0.35,66,-2,5,0.95,0,,,,,,,,,,,,,,,,,
45763,0,,,,,,,,0.32,0.94,0.64,66,9,-1,1.0,0,,,,,,,,,,,,,,,,,
45803,0,,,,,,,,0.49,1.13,0.75,67,-0,4,1.23,0,,,,,,,,,,,,,,,,,
45843,0,-1,2,54,48,31,42,-42,0.35,1.18,0.23,66,-26,17,1.23,0,0,0.0,0.0,0.0,0.0,0,0,0.0,0,0.0,-1,0.0,0.0,0.0,0,0.0,0.764
45883,0,,,,,,,,0.46,1.29,0.21,65,-39,24,1.37,0,,,,,,,,,,,,,,,,,
45923,0,,,,,,,,0.75,1.35,0.55,64,-23,13,1.55,0,,,,,,,,,,,,,,,,,
45963,0,,,,,,,,0.78,1.14,0.64,61,1,-1,1.38,0,,,,,,,,,,,,,,,,,
46003,0,,,,,,,,0.57,1.02,0.14,60,-16,10,1.17,0,,,,,,,,,,,,,,,,,
46043,0,-1,3,55,51,28,40,-35,0.44,1.0,0.09,57,-8,7,1.1,0,0,0.0,0.0,0.0,0.0,0,0,0.0,0,0.0,-1,0.0,0.0,0.0,0,0.0,0.7674
46083,0,,,,,,,,0.68,1.11,0.09,56,-0,3,1.3,0,,,,,,,,,,,,,,,,,
46123,0,,,,,,,,0.54,1.08,0.09,56,-5,9,1.21,0,,,,,,,,,,,,,,,,,
46163,0,,,,,,,,0.49,1.16,0.06,56,-7,8,1.26,0,,,,,,,,,,,,,,,,,
46203,0,,,,,,,,0.62,1.14,0.06,57,8,2,1.3,0,,,,,,,,,,,,,,,,,
46243,0,1,1,56,50,30,41,-35,0.23,1.08,-0.33,58,-6,13,1.1,0,0,0.0,0.0,0.0,0.0,0,0,0.0,0,0.0,-1,0.0,0.0,0.0,0,0.0,0.7707
46283,0,,,,,,,,0.57,1.16,0.11,59,17,-2,1.29,0,,,,,,,,,,,,,,,,,
46323,0,,,,,,,,0.16,1.03,-0.29,59,-7,12,1.04,0,,,,,,,,,,,,,,,,,
46363,0,,,,,,,,0.41,0.99,0.15,56,18,-9,1.07,0,,,,,,,,,,,,,,,,,
46403,0,,,,,,,,0.32,0.97,-0.23,53,8,-1,1.02,0,,,,,,,,,,,,,,,,,
46443,0,0,3,55,50,31,40,-13,0.02,0.91,-0.57,49,-19,19,0.91,0,0,0.0,0.0,0.0,0.0,0,0,0.0,0,0.0,-1,0.0,0.0,0.0,0,0.0,0.774
46483,0,,,,,,,,0.12,0.85,-0.35,44,-2,0,0.86,0,,,,,,,,,,,,,,,,,
46523,0,,,,,,,,0.25,0.83,-0.31,40,-2,1,0.86,0,,,,,,,,,,,,,,,,,
46563,0,,,,,,,,-0.09,0.81,-0.63,36,-26,20,0.81,0,,,,,,,,,,,,,,,,,
46603,0,,,,,,,,-0.17,0.78,-0.89,35,-34,30,0.8,0,,,,,,,,,,,,,,,,,
46643,0,0,1,54,52,30,38,-13,0.12,0.76,-0.34,32,-28,28,0.77,0,0,0.0,0.0,0.0,0.0,0,0,0.0,0,0.0,-1,0.0,0.0,0.0,0,0.0,0.7774
46683,0,,,,,,,,0.27,0.62,-0.3,31,-20,20,0.67,0,,,,,,,,,,,,,,,,,
46723,0,,,,,,,,0.5,0.56,0.0,29,-15,19,0.75,0,,,,,,,,,,,,,,,,,
46763,0,,,,,,,,0.52,0.46,0.38,26,-3,13,0.69,0,,,,,,,,,,,,,,,,,
46803,0,,,,,,,,0.41,0.46,0.29,25,-20,26,0.61,0,,,,,,,,,,,,,,,,,
46843,0,33,27,47,48,38,42,1,-0.03,0.31,-0.15,21,-16,22,0.31,0,0,0.0,0.0,0.0,0.0,0,0,0.0,0,0.0,-1,0.0,0.0,0.0,0,0.0,0.7807
46883,0,,,,,,,,-0.1,0.18,-0.14,17,-15,22,0.21,0,,,,,,,,,,,,,,,,,
46923,0,,,,,,,,-0.03,0.09,-0.03,14,-22,27,0.1,0,,,,,,,,,,,,,,,,,
46963,0,,,,,,,,-0.05,0.05,0.32,9,-29,28,0.07,0,,,,,,,,,,,,,,,,,
47003,0,,,,,,,,-0.17,-0.09,0.48,3,-26,24,0.19,0,,,,,,,,,,,,,,,,,
47043,0,27,23,39,46,42,43,27,-0.37,-0.21,0.46,-2,-29,22,0.42,0,0,0.0,0.0,0.0,0.0,0,0,0.0,0,0.0,-1,0.0,0.0,0.0,0,0.0,0.784
47083,0,,,,,,,,-0.14,-0.38,0.43,-8,-11,15,0.41,0,,,,,,,,,,,,,,,,,
47123,0,,,,,,,,0.11,-0.53,0.33,-14,17,8,0.54,0,,,,,,,,,,,,,,,,,
47163,0,,,,,,,,0.12,-0.65,0.24,-20,20,5,0.66,0,,,,,,,,,,,,,,,,,
47203,0,,,,,,,,-0.02,-0.75,0.27,-25,19,4,0.75,0,,,,,,,,,,,,,,,,,
47243,0,3,4,41,53,44,41,78,-0.18,-0.8,0.32,-30,17,2,0.82,0,0,0.0,0.0,0.0,0.0,0,0,0.0,0,0.0,-1,0.0,0.0,0.0,0,0.0,0.7874
47283,0,,,,,,,,-0.25,-0.89,0.64,-36,14,0,0.92,0,,,,,,,,,,,,,,,,,
47323,0,,,,,,,,-0.29,-1.02,0.7,-42,11,1,1.06,0,,,,,,,,,,,,,,,,,
47363,0,,,,,,,,-0.23,-0.94,0.8,-46,10,-0,0.97,0,,,,,,,,,,,,,,,,,
47403,0,,,,,,,,-0.28,-0.95,0.64,-50,9,-1,0.99,0,,,,,,,,,,,,,,,,,
47443,0,1,2,42,52,44,40,91,-0.27,-1.02,0.72,-54,6,-2,1.05,0,0,0.0,0.0,0.0,0.0,0,0,0.0,0,0.0,-1,0.0,0.0,0.0,0,0.0,0.7907
47483,0,,,,,,,,-0.33,-0.98,0.7,-57,5,-1,1.04,0,,,,,,,,,,,,,,,,,
47523,0,,,,,,,,-0.34,-1.06,0.81,-61,5,-2,1.12,0,,,,,,,,,,,,,,,,,
47563,0,,,,,,,,-0.48,-1.08,0.68,-64,2,-2,1.18,0,,,,,,,,,,,,,,,,,
47603,0,,,,,,,,-0.32,-1.1,0.8,-66,10,-4,1.14,0,,,,,,,,,,,,,,,,,
47643,0,0,1,39,55,43,38,92,0.08,-1.22,0.27,-69,32,-5,1.23,0,0,0.0,0.0,0.0,0.0,0,0,0.0,0,0.0,-1,0.0,0.0,0.0,0,0.0,0.794
47683,0,,,,,,,,0.44,-1.24,-0.16,-71,50,-7,1.31,0,,,,,,,,,,,,,,,,,
47723,0,,,,,,,,0.06,-1.25,-0.05,-72,40,-5,1.25,0,,,,,,,,,,,,,,,,,
47763,0,,,,,,,,-0.03,-1.22,0.27,-71,33,-5,1.22,0,,,,,,,,,,,,,,,,,
47803,0,,,,,,,,-0.04,-1.03,0.25,-71,22,-3,1.03,0,,,,,,,,,,,,,,,,,
47843,0,0,1,48,55,38,36,55,-0.05,-0.9,0.25,-68,17,-2,0.9,0,0,0.0,0.0,0.0,0.0,0,0,0.0,0,0.0,-1,0.0,0.0,0.0,0,0.0,0.7974
47883,0,,,,,,,,0.24,-0.68,0.12,-63,21,-3,0.72,0,,,,,,,,,,,,,,,,,
47923,0,,,,,,,,0.29,-0.58,0.39,-57,29,-4,0.65,0,,,,,,,,,,,,,,,,,
47963,0,,,,,,,,-0.13,-0.54,0.69,-50,11,-2,0.56,0,,,,,,,,,,,,,,,,,
48003,0,,,,,,,,-0.36,-0.4,0.94,-44,-16,3,0.54,0,,,,,,,,,,,,,,,,,
48043,0,1,2,48,51,34,37,21,-0.27,-0.37,1.01,-39,-7,-1,0.46,0,0,0.0,0.0,0.0,0.0,0,0,0.0,0,0.0,-1,0.0,0.0,0.0,0,0.0,0.8007
48083,0,,,,,,,,-0.25,-0.34,1.02,-34,-14,1,0.42,0,,,,,,,,,,,,,,,,,
48123,0,,,,,,,,0.07,-0.3,0.97,-31,-5,-2,0.3,0,,,,,,,,,,,,,,,,,
48163,0,,,,,,,,-0.27,-0.3,1.17,-27,5,-3,0.41,0,,,,,,,,,,,,,,,,,
48203,0,,,,,,,,-0.58,-0.17,1.31,-23,-16,2,0.61,0,,,,,,,,,,,,,,,,,
48243,0,0,2,49,50,33,38,-2,-0.36,0.04,1.03,-18,-40,7,0.37,0,0,0.0,0.0,0.0,0.0,0,0,0.0,0,0.0,-1,0.0,0.0,0.0,0,0.0,0.8041
48283,0,,,,,,,,-0.27,0.02,0.92,-14,-28,4,0.27,0,,,,,,,,,,,,,,,,,
48323,0,,,,,,,,-0.2,0.03,0.84,-10,-20,2,0.2,0,,,,,,,,,,,,,,,,,
48363,0,,,,,,,,0.01,0.08,0.83,-7,-22,3,0.08,0,,,,,,,,,,,,,,,,,
48403,0,,,,,,,,0.13,0.04,0.95,-5,-13,1,0.14,0,,,,,,,,,,,,,,,,,
48443,0,-1,2,51,53,32,37,-3,-0.26,0.03,1.09,-3,-17,1,0.26,0,0,0.0,0.0,0.0,0.0,0,0,0.0,0,0.0,-1,0.0,0.0,0.0,0,0.0,0.8074
48483,0,,,,,,,,-0.34,0.1,1.26,-1,-25,1,0.35,0,,,,,,,,,,,,,,,,,
48523,0,,,,,,,,-0.45,0.04,0.99,0,-22,-0,0.46,0,,,,,,,,,,,,,,,,,
48563,0,,,,,,,,-0.32,-0.03,1.07,2,2,-13,0.32,0,,,,,,,,,,,,,,,,,
48603,0,,,,,,,,-0.18,-0.13,1.13,3,21,-21,0.22,0,,,,,,,,,,,,,,,,,
48643,0,0,1,53,54,28,34,-7,0.22,-0.09,1.29,5,40,-27,0.24,0,0,0.0,0.0,0.0,0.0,0,0,0.0,0,0.0,-1,0.0,0.0,0.0,0,0.0,0.8107
48683,0,,,,,,,,0.55,0.02,1.43,6,31,-17,0.56,0,,,,,,,,,,,,,,,,,
48723,0,,,,,,,,0.43,0.01,0.78,7,5,-1,0.43,0,,,,,,,,,,,,,,,,,
48763,0,,,,,,,,0.3,-0.03,0.69,8,5,-2,0.31,0,,,,,,,,,,,,,,,,,
48803,0,,,,,,,,0.17,0.02,0.78,8,4,-3,0.17,0,,,,,,,,,,,,,,,,,
48843,0,1,1,50,49,33,38,-6,0.21,0.09,0.89,8,8,-3,0.23,0,0,0.0,0.0,0.0,0.0,0,0,0.0,0,0.0,-1,0.0,0.0,0.0,0,0.0,0.814
48883,0,,,,,,,,0.08,0.1,0.91,9,11,-4,0.13,0,,,,,,,,,,,,,,,,,
48923,0,,,,,,,,-0.11,0.13,0.69,9,-2,2,0.17,0,,,,,,,,,,,,,,,,,
48963,0,,,,,,,,-0.32,0.02,0.18,9,-4,3,0.32,0,,,,,,,,,,,,,,,,,
