"Interval"|"ms"|0|0|1,"Utc"|"ms"|0|0|1,"Brake_F"|"Bar"|0|2000|10,"Brake_R"|"Bar"|0|2000|10,"Height_RF"|"mm"|0|255|10,"Height_LF"|"mm"|0|255|10,"Height_LR"|"mm"|0|80|10,"Height_RR"|"mm"|0|255|10,"Steering"|"deg"|-100|100|10,"AccelX"|"G"|-3.0|3.0|25,"AccelY"|"G"|-3.0|3.0|25,"AccelZ"|"G"|-3.0|3.0|25,"Yaw"|"Deg/Sec"|-120|120|25,"Pitch"|"Deg/Sec"|-120|120|25,"Roll"|"Deg/Sec"|-120|120|25,"Gsum"|"G"|0.0|3.0|25,"Unknown"|""|0|1024|25,"Log_Button"|""|0.0|10.0|10,"Latitude"|"Degrees"|-180.0|180.0|10,"Longitude"|"Degrees"|-180.0|180.0|10,"Speed"|"kph"|0.0|150.0|10,"Altitude"|"m"|0.0|4000.0|10,"GPSSats"|""|0|20|10,"GPSQual"|""|0|5|10,"GPSDOP"|""|0.0|20.0|10,"LapCount"|""|0|0|10,"LapTime"|"Min"|0.0|0.0|10,"Sector"|""|0|0|10,"SectorTime"|"Min"|0.0|0.0|10,"PredTime"|"Min"|0.0|0.0|5,"ElapsedTime"|"Min"|0.0|0.0|10,"CurrentLap"|""|0|0|10,"Distance"|"km"|0.0|0.0|10,"SessionTime"|"Min"|0.0|0.0|10
31083,0,,,,,,,,0.15,0.02,0.69,1,2,-1,0.15,0,,,,,,,,,,,,,,,,,
31123,0,,,,,,,,0.05,-0.01,0.59,1,3,-2,0.05,0,,,,,,,,,,,,,,,,,
31163,0,,,,,,,,-0.01,-0.02,0.46,1,1,1,0.02,0,,,,,,,,,,,,,,,,,
31203,0,,,,,,,,0.11,0.02,0.75,1,-1,0,0.11,0,,,,,,,,,,,,,,,,,
31243,0,-1,2,48,48,32,36,-6,0.05,-0.02,0.64,1,3,-1,0.06,0,0,0.0,0.0,0.0,0.0,0,0,0.0,0,0.0,-1,0.0,0.0,0.0,0,0.0,0.5207
31283,0,,,,,,,,-0.01,0.04,0.55,1,-1,1,0.04,0,,,,,,,,,,,,,,,,,
31323,0,,,,,,,,0.15,0.03,0.75,1,2,-1,0.16,0,,,,,,,,,,,,,,,,,
31363,0,,,,,,,,-0.04,-0.06,0.31,1,0,0,0.07,0,,,,,,,,,,,,,,,,,
31403,0,,,,,,,,0.13,0.02,0.56,1,1,0,0.13,0,,,,,,,,,,,,,,,,,
31443,0,1,3,48,49,32,36,-7,-0.03,-0.09,0.31,1,1,1,0.09,0,0,0.0,0.0,0.0,0.0,0,0,0.0,0,0.0,-1,0.0,0.0,0.0,0,0.0,0.524
31483,0,,,,,,,,0.14,0.0,0.63,1,0,-0,0.14,0,,,,,,,,,,,,,,,,,
31523,0,,,,,,,,-0.06,-0.05,0.28,1,-1,1,0.08,0,,,,,,,,,,,,,,,,,
31563,0,,,,,,,,0.11,0.02,0.61,1,0,-0,0.12,0,,,,,,,,,,,,,,,,,
31603,0,,,,,,,,-0.04,-0.01,0.29,1,0,1,0.04,0,,,,,,,,,,,,,,,,,
31643,0,-1,3,48,49,32,36,-6,0.05,0.01,0.37,1,-2,1,0.05,0,0,0.0,0.0,0.0,0.0,0,0,0.0,0,0.0,-1,0.0,0.0,0.0,0,0.0,0.5274
31683,0,,,,,,,,0.1,-0.01,0.42,1,2,-1,0.1,0,,,,,,,,,,,,,,,,,
31723,0,,,,,,,,-0.01,-0.06,0.34,1,2,-0,0.06,0,,,,,,,,,,,,,,,,,
31763,0,,,,,,,,-0.04,-0.01,0.37,1,-3,1,0.05,0,,,,,,,,,,,,,,,,,
31803,0,,,,,,,,0.08,-0.01,0.65,1,-1,-0,0.08,0,,,,,,,,,,,,,,,,,
31843,0,-1,2,48,48,32,36,-7,0.11,-0.0,0.63,1,3,-2,0.11,0,0,0.0,0.0,0.0,0.0,0,0,0.0,0,0.0,-1,0.0,0.0,0.0,0,0.0,0.5307
31883,0,,,,,,,,0.04,-0.01,0.58,1,2,-1,0.04,0,,,,,,,,,,,,,,,,,
31923,0,,,,,,,,-0.01,-0.04,0.55,1,1,0,0.05,0,,,,,,,,,,,,,,,,,
31963,0,,,,,,,,0.03,-0.01,0.69,1,-2,0,0.03,0,,,,,,,,,,,,,,,,,
32003,0,,,,,,,,0.18,0.01,0.87,0,4,-2,0.18,0,,,,,,,,,,,,,,,,,
32043,0,-1,2,48,48,32,36,-6,0.07,0.01,0.77,1,4,-1,0.07,0,0,0.0,0.0,0.0,0.0,0,0,0.0,0,0.0,-1,0.0,0.0,0.0,0,0.0,0.534
32083,0,,,,,,,,0.0,-0.02,0.6,1,-0,0,0.02,0,,,,,,,,,,,,,,,,,
32123,0,,,,,,,,0.14,0.03,0.87,1,2,-2,0.15,0,,,,,,,,,,,,,,,,,
32163,0,,,,,,,,0.02,-0.06,0.63,0,1,-0,0.06,0,,,,,,,,,,,,,,,,,
32203,0,,,,,,,,0.07,0.03,0.82,1,0,-1,0.08,0,,,,,,,,,,,,,,,,,
32243,0,-1,2,48,48,32,36,-6,-0.02,-0.03,0.66,1,0,0,0.04,0,0,0.0,0.0,0.0,0.0,0,0,0.0,0,0.0,-1,0.0,0.0,0.0,0,0.0,0.5374
32283,0,,,,,,,,0.1,0.05,0.92,1,1,-1,0.11,0,,,,,,,,,,,,,,,,,
32323,0,,,,,,,,-0.17,-0.03,0.36,1,-2,2,0.18,0,,,,,,,,,,,,,,,,,
32363,0,,,,,,,,0.03,-0.03,0.64,1,1,-1,0.04,0,,,,,,,,,,,,,,,,,
32403,0,,,,,,,,-0.14,-0.08,0.26,1,-1,1,0.16,0,,,,,,,,,,,,,,,,,
32443,0,0,3,48,49,32,36,-6,0.06,-0.01,0.59,1,-1,0,0.06,0,0,0.0,0.0,0.0,0.0,0,0,0.0,0,0.0,-1,0.0,0.0,0.0,0,0.0,0.5407
32483,0,,,,,,,,-0.05,-0.08,0.38,1,2,-1,0.09,0,,,,,,,,,,,,,,,,,
32523,0,,,,,,,,-0.02,-0.01,0.65,1,-1,0,0.03,0,,,,,,,,,,,,,,,,,
32563,0,,,,,,,,0.09,-0.02,0.64,1,3,-2,0.09,0,,,,,,,,,,,,,,,,,
32603,0,,,,,,,,-0.06,-0.02,0.45,0,3,-2,0.06,0,,,,,,,,,,,,,,,,,
32643,0,-1,2,48,48,32,36,-6,-0.06,-0.02,0.34,0,0,-0,0.06,0,0,0.0,0.0,0.0,0.0,0,0,0.0,0,0.0,-1,0.0,0.0,0.0,0,0.0,0.544
32683,0,,,,,,,,-0.01,0.02,0.47,1,-1,0,0.02,0,,,,,,,,,,,,,,,,,
32723,0,,,,,,,,0.05,-0.01,0.61,1,-2,-0,0.05,0,,,,,,,,,,,,,,,,,
32763,0,,,,,,,,0.09,0.0,0.58,1,1,-1,0.09,0,,,,,,,,,,,,,,,,,
32803,0,,,,,,,,0.06,0.02,0.6,1,2,-1,0.06,0,,,,,,,,,,,,,,,,,
32843,0,0,1,48,49,32,36,-7,0.03,0.02,0.62,1,2,-1,0.03,0,0,0.0,0.0,0.0,0.0,0,0,0.0,0,0.0,-1,0.0,0.0,0.0,0,0.0,0.5474
32883,0,,,,,,,,0.0,-0.01,0.53,1,3,-1,0.01,0,,,,,,,,,,,,,,,,,
32923,0,,,,,,,,-0.08,0.0,0.41,1,0,0,0.08,0,,,,,,,,,,,,,,,,,
32963,0,,,,,,,,-0.01,0.03,0.5,1,-1,0,0.03,0,,,,,,,,,,,,,,,,,
33003,0,,,,,,,,0.06,-0.01,0.63,1,-0,-0,0.06,0,,,,,,,,,,,,,,,,,
33043,0,0,3,48,49,33,36,-6,0.07,-0.01,0.53,0,1,-1,0.07,0,0,0.0,0.0,0.0,0.0,0,0,0.0,0,0.0,-1,0.0,0.0,0.0,0,0.0,0.5507
33083,0,,,,,,,,-0.04,-0.06,0.28,1,1,-0,0.07,0,,,,,,,,,,,,,,,,,
33123,0,,,,,,,,-0.06,-0.01,0.31,0,-3,1,0.07,0,,,,,,,,,,,,,,,,,
33163,0,,,,,,,,0.07,-0.01,0.45,0,3,-2,0.07,0,,,,,,,,,,,,,,,,,
33203,0,,,,,,,,-0.08,0.02,0.35,0,-4,2,0.08,0,,,,,,,,,,,,,,,,,
33243,0,1,2,48,49,32,36,-6,0.01,-0.0,0.39,0,2,-1,0.01,0,0,0.0,0.0,0.0,0.0,0,0,0.0,0,0.0,-1,0.0,0.0,0.0,0,0.0,0.5541
33283,0,,,,,,,,-0.02,0.01,0.29,1,-2,2,0.02,0,,,,,,,,,,,,,,,,,
33323,0,,,,,,,,-0.04,-0.02,0.26,0,-1,0,0.05,0,,,,,,,,,,,,,,,,,
33363,0,,,,,,,,-0.01,0.0,0.24,1,-2,1,0.01,0,,,,,,,,,,,,,,,,,
33403,0,,,,,,,,0.05,-0.02,0.3,1,1,-0,0.05,0,,,,,,,,,,,,,,,,,
33443,0,1,3,48,49,33,36,-6,-0.07,0.02,0.22,1,-3,2,0.07,0,0,0.0,0.0,0.0,0.0,0,0,0.0,0,0.0,-1,0.0,0.0,0.0,0,0.0,0.5574
33483,0,,,,,,,,0.1,0.03,0.49,1,1,-0,0.1,0,,,,,,,,,,,,,,,,,
33523,0,,,,,,,,-0.04,0.0,0.34,1,-1,2,0.04,0,,,,,,,,,,,,,,,,,
33563,0,,,,,,,,-0.01,0.02,0.26,1,-3,3,0.02,0,,,,,,,,,,,,,,,,,
33603,0,,,,,,,,0.08,0.02,0.49,1,0,1,0.08,0,,,,,,,,,,,,,,,,,
33643,0,1,1,48,49,32,36,-7,0.07,-0.04,0.34,1,1,2,0.08,0,0,0.0,0.0,0.0,0.0,0,0,0.0,0,0.0,-1,0.0,0.0,0.0,0,0.0,0.5607
33683,0,,,,,,,,-0.06,-0.02,0.31,1,-2,2,0.06,0,,,,,,,,,,,,,,,,,
33723,0,,,,,,,,0.07,-0.01,0.58,1,-3,2,0.07,0,,,,,,,,,,,,,,,,,
33763,0,,,,,,,,0.06,0.01,0.57,1,1,0,0.06,0,,,,,,,,,,,,,,,,,
33803,0,,,,,,,,-0.06,-0.05,0.31,1,-1,2,0.08,0,,,,,,,,,,,,,,,,,
33843,0,-0,2,48,48,32,36,-7,0.06,-0.0,0.37,1,-3,3,0.06,0,0,0.0,0.0,0.0,0.0,0,0,0.0,0,0.0,-1,0.0,0.0,0.0,0,0.0,0.564
33883,0,,,,,,,,0.08,-0.04,0.36,1,2,-0,0.09,0,,,,,,,,,,,,,,,,,
33923,0,,,,,,,,-0.04,0.0,0.27,1,-2,3,0.04,0,,,,,,,,,,,,,,,,,
33963,0,,,,,,,,0.1,0.0,0.47,1,2,-0,0.1,0,,,,,,,,,,,,,,,,,
34003,0,,,,,,,,-0.05,0.02,0.36,1,-4,4,0.05,0,,,,,,,,,,,,,,,,,
34043,0,1,2,48,49,33,36,-6,0.08,-0.0,0.45,1,2,-1,0.08,0,0,0.0,0.0,0.0,0.0,0,0,0.0,0,0.0,-1,0.0,0.0,0.0,0,0.0,0.5674
34083,0,,,,,,,,-0.05,-0.04,0.33,1,-4,3,0.06,0,,,,,,,,,,,,,,,,,
34123,0,,,,,,,,0.09,-0.01,0.61,1,2,-1,0.09,0,,,,,,,,,,,,,,,,,
34163,0,,,,,,,,-0.03,-0.04,0.35,1,-1,2,0.05,0,,,,,,,,,,,,,,,,,
34203,0,,,,,,,,0.12,0.01,0.65,1,0,-1,0.12,0,,,,,,,,,,,,,,,,,
34243,0,1,2,48,49,32,36,-6,-0.07,-0.02,0.4,1,-2,1,0.08,0,0,0.0,0.0,0.0,0.0,0,0,0.0,0,0.0,-1,0.0,0.0,0.0,0,0.0,0.5707
34283,0,,,,,,,,0.13,0.0,0.7,1,-1,0,0.13,0,,,,,,,,,,,,,,,,,
34323,0,,,,,,,,-0.09,-0.03,0.23,0,-2,1,0.1,0,,,,,,,,,,,,,,,,,
34363,0,,,,,,,,0.11,0.02,0.57,1,1,-0,0.11,0,,,,,,,,,,,,,,,,,
34403,0,,,,,,,,-0.05,-0.04,0.33,1,0,0,0.07,0,,,,,,,,,,,,,,,,,
34443,0,0,1,48,49,32,36,-7,0.1,0.02,0.62,1,0,0,0.11,0,0,0.0,0.0,0.0,0.0,0,0,0.0,0,0.0,-1,0.0,0.0,0.0,0,0.0,0.574
34483,0,,,,,,,,0.0,-0.07,0.36,1,0,0,0.07,0,,,,,,,,,,,,,,,,,
34523,0,,,,,,,,0.09,0.0,0.65,1,-1,0,0.09,0,,,,,,,,,,,,,,,,,
34563,0,,,,,,,,0.09,-0.03,0.55,1,3,-1,0.1,0,,,,,,,,,,,,,,,,,
34603,0,,,,,,,,-0.01,0.02,0.43,0,-3,1,0.02,0,,,,,,,,,,,,,,,,,
34643,0,1,2,48,49,32,36,-6,0.16,0.0,0.68,0,2,-2,0.16,0,0,0.0,0.0,0.0,0.0,0,0,0.0,0,0.0,-1,0.0,0.0,0.0,0,0.0,0.5774
34683,0,,,,,,,,0.03,-0.05,0.49,0,0,-1,0.06,0,,,,,,,,,,,,,,,,,
34723,0,,,,,,,,0.01,-0.02,0.38,1,-3,1,0.02,0,,,,,,,,,,,,,,,,,
34763,0,,,,,,,,0.16,0.01,0.58,1,2,-2,0.16,0,,,,,,,,,,,,,,,,,
34803,0,,,,,,,,0.02,-0.06,0.45,1,1,-0,0.06,0,,,,,,,,,,,,,,,,,
34843,0,0,1,48,49,32,36,-7,0.07,0.04,0.62,1,-1,-0,0.08,0,0,0.0,0.0,0.0,0.0,0,0,0.0,0,0.0,-1,0.0,0.0,0.0,0,0.0,0.5807
34883,0,,,,,,,,0.18,0.02,0.7,1,5,-2,0.19,0,,,,,,,,,,,,,,,,,
34923,0,,,,,,,,0.07,-0.02,0.53,0,2,-1,0.08,0,,,,,,,,,,,,,,,,,
34963,0,,,,,,,,0.03,-0.02,0.41,1,0,0,0.03,0,,,,,,,,,,,,,,,,,
35003,0,,,,,,,,0.15,0.02,0.71,1,2,-2,0.15,0,,,,,,,,,,,,,,,,,
35043,0,1,0,48,49,32,36,-6,0.09,-0.02,0.58,1,3,-1,0.09,0,0,0.0,0.0,0.0,0.0,0,0,0.0,0,0.0,-1,0.0,0.0,0.0,0,0.0,0.584
35083,0,,,,,,,,0.01,0.04,0.53,1,-2,0,0.04,0,,,,,,,,,,,,,,,,,
35123,0,,,,,,,,0.11,-0.02,0.67,1,4,-3,0.11,0,,,,,,,,,,,,,,,,,
35163,0,,,,,,,,0.05,0.0,0.52,1,-1,2,0.05,0,,,,,,,,,,,,,,,,,
35203,0,,,,,,,,0.13,0.0,0.6,1,2,-1,0.13,0,,,,,,,,,,,,,,,,,
35243,0,1,2,48,49,32,36,-6,-0.04,-0.07,0.24,1,-1,1,0.08,0,0,0.0,0.0,0.0,0.0,0,0,0.0,0,0.0,-1,0.0,0.0,0.0,0,0.0,0.5874
35283,0,,,,,,,,0.13,-0.02,0.56,0,-1,-0,0.13,0,,,,,,,,,,,,,,,,,
35323,0,,,,,,,,-0.04,-0.08,0.27,0,0,1,0.09,0,,,,,,,,,,,,,,,,,
35363,0,,,,,,,,0.17,-0.01,0.6,1,-0,-0,0.17,0,,,,,,,,,,,,,,,,,
35403,0,,,,,,,,-0.06,-0.04,0.2,0,-1,2,0.07,0,,,,,,,,,,,,,,,,,
35443,0,-1,2,48,49,33,36,-6,0.14,-0.0,0.54,0,-0,1,0.14,0,0,0.0,0.0,0.0,0.0,0,0,0.0,0,0.0,-1,0.0,0.0,0.0,0,0.0,0.5907
35483,0,,,,,,,,-0.03,-0.06,0.32,0,0,0,0.07,0,,,,,,,,,,,,,,,,,
35523,0,,,,,,,,0.05,0.0,0.46,1,-2,2,0.05,0,,,,,,,,,,,,,,,,,
35563,0,,,,,,,,0.11,-0.01,0.45,0,-0,0,0.11,0,,,,,,,,,,,,,,,,,
35603,0,,,,,,,,-0.03,-0.04,0.3,0,0,1,0.05,0,,,,,,,,,,,,,,,,,
35643,0,0,3,48,49,33,36,-6,0.01,0.03,0.41,0,-3,2,0.03,0,0,0.0,0.0,0.0,0.0,0,0,0.0,0,0.0,-1,0.0,0.0,0.0,0,0.0,0.594
35683,0,,,,,,,,0.12,0.02,0.55,0,0,-0,0.12,0,,,,,,,,,,,,,,,,,
35723,0,,,,,,,,0.06,-0.01,0.46,0,1,-0,0.06,0,,,,,,,,,,,,,,,,,
35763,0,,,,,,,,-0.03,-0.06,0.28,1,0,2,0.07,0,,,,,,,,,,,,,,,,,
35803,0,,,,,,,,0.03,-0.02,0.44,0,-4,2,0.04,0,,,,,,,,,,,,,,,,,
35843,0,1,2,48,49,32,36,-6,0.14,-0.02,0.52,0,2,-1,0.14,0,0,0.0,0.0,0.0,0.0,0,0,0.0,0,0.0,-1,0.0,0.0,0.0,0,0.0,0.5974
35883,0,,,,,,,,-0.04,-0.03,0.34,0,-1,1,0.05,0,,,,,,,,,,,,,,,,,
35923,0,,,,,,,,0.11,0.02,0.54,0,-1,1,0.11,0,,,,,,,,,,,,,,,,,
35963,0,,,,,,,,0.08,-0.02,0.45,0,2,-1,0.08,0,,,,,,,,,,,,,,,,,
36003,0,,,,,,,,0.07,0.01,0.39,1,-2,1,0.07,0,,,,,,,,,,,,,,,,,
36043,0,1,2,48,49,33,36,-7,0.06,-0.06,0.38,1,0,-0,0.09,0,0,0.0,0.0,0.0,0.0,0,0,0.0,0,0.0,-1,0.0,0.0,0.0,0,0.0,0.6007
36083,0,,,,,,,,0.07,0.02,0.48,1,-2,1,0.07,0,,,,,,,,,,,,,,,,,
36123,0,,,,,,,,0.05,-0.05,0.4,0,1,0,0.07,0,,,,,,,,,,,,,,,,,
36163,0,,,,,,,,0.03,0.04,0.45,0,-2,1,0.05,0,,,,,,,,,,,,,,,,,
36203,0,,,,,,,,0.08,0.02,0.42,1,2,-0,0.09,0,,,,,,,,,,,,,,,,,
36243,0,1,2,48,49,32,36,-6,-0.08,-0.05,0.19,1,-3,2,0.1,0,0,0.0,0.0,0.0,0.0,0,0,0.0,0,0.0,-1,0.0,0.0,0.0,0,0.0,0.604
36283,0,,,,,,,,0.01,-0.01,0.3,1,-3,1,0.01,0,,,,,,,,,,,,,,,,,
36323,0,,,,,,,,0.08,-0.01,0.37,1,0,0,0.08,0,,,,,,,,,,,,,,,,,
36363,0,,,,,,,,-0.03,-0.05,0.31,1,-0,1,0.06,0,,,,,,,,,,,,,,,,,
36403,0,,,,,,,,-0.1,0.01,0.36,0,-4,2,0.1,0,,,,,,,,,,,,,,,,,
36443,0,0,2,48,49,33,36,-7,-0.01,0.01,0.4,1,-3,1,0.01,0,0,0.0,0.0,0.0,0.0,0,0,0.0,0,0.0,-1,0.0,0.0,0.0,0,0.0,0.6074
36483,0,,,,,,,,0.03,-0.0,0.65,1,-1,-1,0.03,0,,,,,,,,,,,,,,,,,
36523,0,,,,,,,,0.08,-0.02,0.57,1,0,-1,0.09,0,,,,,,,,,,,,,,,,,
36563,0,,,,,,,,-0.03,-0.01,0.47,0,-1,1,0.03,0,,,,,,,,,,,,,,,,,
36603,0,,,,,,,,0.06,0.04,0.54,0,-6,2,0.07,0,,,,,,,,,,,,,,,,,
36643,0,-1,1,48,49,32,36,-6,0.15,0.01,0.59,0,-2,-0,0.15,0,0,0.0,0.0,0.0,0.0,0,0,0.0,0,0.0,-1,0.0,0.0,0.0,0,0.0,0.6107
36683,0,,,,,,,,-0.02,-0.05,0.3,0,-2,-0,0.05,0,,,,,,,,,,,,,,,,,
36723,0,,,,,,,,0.12,0.01,0.52,0,-4,1,0.12,0,,,,,,,,,,,,,,,,,
36763,0,,,,,,,,0.05,-0.06,0.41,0,1,-1,0.08,0,,,,,,,,,,,,,,,,,
36803,0,,,,,,,,0.09,-0.0,0.54,0,-3,0,0.09,0,,,,,,,,,,,,,,,,,
36843,0,0,2,48,49,32,36,-7,0.1,-0.04,0.47,0,1,-2,0.11,0,0,0.0,0.0,0.0,0.0,0,0,0.0,0,0.0,-1,0.0,0.0,0.0,0,0.0,0.614
36883,0,,,,,,,,0.01,0.02,0.38,0,-3,1,0.03,0,,,,,,,,,,,,,,,,,
36923,0,,,,,,,,0.15,0.01,0.49,1,2,-2,0.15,0,,,,,,,,,,,,,,,,,
36963,0,,,,,,,,-0.02,-0.06,0.22,1,-0,-0,0.06,0,,,,,,,,,,,,,,,,,
37003,0,,,,,,,,0.15,0.01,0.56,1,1,-1,0.15,0,,,,,,,,,,,,,,,,,
37043,0,1,2,48,49,33,36,-6,0.05,-0.07,0.37,0,3,-2,0.09,0,0,0.0,0.0,0.0,0.0,0,0,0.0,0,0.0,-1,0.0,0.0,0.0,0,0.0,0.6174
37083,0,,,,,,,,0.07,0.01,0.54,0,-2,-0,0.07,0,,,,,,,,,,,,,,,,,
37123,0,,,,,,,,0.09,-0.04,0.46,0,3,-2,0.1,0,,,,,,,,,,,,,,,,,
37163,0,,,,,,,,0.02,0.03,0.36,1,-3,2,0.04,0,,,,,,,,,,,,,,,,,
37203,0,,,,,,,,0.11,0.02,0.41,0,3,-2,0.11,0,,,,,,,,,,,,,,,,,
37243,0,1,1,48,49,33,36,-6,-0.02,-0.02,0.31,1,-3,2,0.02,0,0,0.0,0.0,0.0,0.0,0,0,0.0,0,0.0,-1,0.0,0.0,0.0,0,0.0,0.6207
37283,0,,,,,,,,0.06,-0.0,0.41,0,2,-2,0.06,0,,,,,,,,,,,,,,,,,
37323,0,,,,,,,,0.04,0.02,0.31,1,-1,1,0.04,0,,,,,,,,,,,,,,,,,
37363,0,,,,,,,,0.07,-0.04,0.31,0,1,-0,0.08,0,,,,,,,,,,,,,,,,,
37403,0,,,,,,,,0.01,0.02,0.34,1,-1,1,0.02,0,,,,,,,,,,,,,,,,,
37443,0,-1,2,48,49,32,36,-6,0.14,0.01,0.55,1,5,-3,0.14,0,0,0.0,0.0,0.0,0.0,0,0,0.0,0,0.0,-1,0.0,0.0,0.0,0,0.0,0.624
37483,0,,,,,,,,-0.03,0.02,0.39,1,-1,1,0.04,0,,,,,,,,,,,,,,,,,
37523,0,,,,,,,,0.13,0.03,0.69,1,2,-0,0.14,0,,,,,,,,,,,,,,,,,
37563,0,,,,,,,,0.03,-0.0,0.58,1,3,-1,0.03,0,,,,,,,,,,,,,,,,,
37603,0,,,,,,,,-0.02,-0.01,0.45,1,-0,0,0.02,0,,,,,,,,,,,,,,,,,
37643,0,1,1,48,48,32,36,-6,0.11,0.02,0.73,1,2,-2,0.11,0,0,0.0,0.0,0.0,0.0,0,0,0.0,0,0.0,-1,0.0,0.0,0.0,0,0.0,0.6274
37683,0,,,,,,,,-0.02,-0.03,0.46,1,1,-0,0.04,0,,,,,,,,,,,,,,,,,
37723,0,,,,,,,,0.0,0.05,0.54,1,-1,0,0.05,0,,,,,,,,,,,,,,,,,
37763,0,,,,,,,,0.12,0.03,0.59,1,4,-2,0.13,0,,,,,,,,,,,,,,,,,
37803,0,,,,,,,,-0.05,-0.05,0.28,1,-0,1,0.07,0,,,,,,,,,,,,,,,,,
37843,0,1,3,48,49,33,36,-7,0.04,0.0,0.35,1,1,-0,0.04,0,0,0.0,0.0,0.0,0.0,0,0,0.0,0,0.0,-1,0.0,0.0,0.0,0,0.0,0.6307
37883,0,,,,,,,,0.11,-0.03,0.32,1,4,-2,0.11,0,,,,,,,,,,,,,,,,,
37923,0,,,,,,,,-0.06,-0.03,0.23,1,-1,1,0.07,0,,,,,,,,,,,,,,,,,
37963,0,,,,,,,,0.05,-0.02,0.28,1,2,-1,0.05,0,,,,,,,,,,,,,,,,,
38003,0,,,,,,,,-0.1,-0.02,0.1,1,0,0,0.1,0,,,,,,,,,,,,,,,,,
38043,0,-1,3,48,49,32,36,-6,0.07,0.01,0.35,1,-2,1,0.07,0,0,0.0,0.0,0.0,0.0,0,0,0.0,0,0.0,-1,0.0,0.0,0.0,0,0.0,0.634
38083,0,,,,,,,,0.02,-0.02,0.31,1,1,-1,0.03,0,,,,,,,,,,,,,,,,,
38123,0,,,,,,,,-0.04,-0.01,0.25,1,-3,3,0.04,0,,,,,,,,,,,,,,,,,
38163,0,,,,,,,,0.09,0.03,0.55,0,-3,2,0.1,0,,,,,,,,,,,,,,,,,
38203,0,,,,,,,,0.03,-0.03,0.5,0,2,-0,0.04,0,,,,,,,,,,,,,,,,,
38243,0,1,2,48,48,32,36,-6,-0.08,0.03,0.44,0,-3,2,0.08,0,0,0.0,0.0,0.0,0.0,0,0,0.0,0,0.0,-1,0.0,0.0,0.0,0,0.0,0.6374
38283,0,,,,,,,,0.1,0.02,0.74,1,-1,1,0.1,0,,,,,,,,,,,,,,,,,
38323,0,,,,,,,,-0.02,-0.03,0.62,0,1,-1,0.04,0,,,,,,,,,,,,,,,,,
38363,0,,,,,,,,-0.01,0.0,0.49,1,-2,1,0.01,0,,,,,,,,,,,,,,,,,
38403,0,,,,,,,,0.11,0.01,0.55,1,2,-2,0.11,0,,,,,,,,,,,,,,,,,
38443,0,-1,2,48,49,32,36,-6,-0.08,-0.0,0.36,0,-1,1,0.08,0,0,0.0,0.0,0.0,0.0,0,0,0.0,0,0.0,-1,0.0,0.0,0.0,0,0.0,0.6407
38483,0,,,,,,,,0.11,0.02,0.63,0,0,-1,0.11,0,,,,,,,,,,,,,,,,,
38523,0,,,,,,,,0.02,0.01,0.53,1,3,-1,0.02,0,,,,,,,,,,,,,,,,,
38563,0,,,,,,,,-0.02,0.03,0.41,1,-2,1,0.03,0,,,,,,,,,,,,,,,,,
38603,0,,,,,,,,0.1,0.06,0.65,1,1,-1,0.12,0,,,,,,,,,,,,,,,,,
38643,0,-0,3,48,49,32,36,-7,0.02,-0.02,0.43,0,2,-0,0.03,0,0,0.0,0.0,0.0,0.0,0,0,0.0,0,0.0,-1,0.0,0.0,0.0,0,0.0,0.644
38683,0,,,,,,,,0.01,0.02,0.48,0,-3,1,0.02,0,,,,,,,,,,,,,,,,,
38723,0,,,,,,,,0.11,-0.01,0.48,0,2,-1,0.11,0,,,,,,,,,,,,,,,,,
38763,0,,,,,,,,-0.08,-0.01,0.31,0,-4,3,0.08,0,,,,,,,,,,,,,,,,,
38803,0,,,,,,,,0.13,0.02,0.63,1,0,1,0.13,0,,,,,,,,,,,,,,,,,
38843,0,1,1,48,49,33,36,-6,-0.07,-0.08,0.23,1,-3,2,0.1,0,0,0.0,0.0,0.0,0.0,0,0,0.0,0,0.0,-1,0.0,0.0,0.0,0,0.0,0.6474
38883,0,,,,,,,,0.1,0.0,0.56,1,-1,0,0.1,0,,,,,,,,,,,,,,,,,
38923,0,,,,,,,,-0.03,-0.09,0.33,1,-1,1,0.09,0,,,,,,,,,,,,,,,,,
38963,0,,,,,,,,0.03,-0.03,0.5,1,-4,1,0.04,0,,,,,,,,,,,,,,,,,
39003,0,,,,,,,,0.1,-0.07,0.42,1,2,-1,0.12,0,,,,,,,,,,,,,,,,,
39043,0,-1,2,48,49,32,36,-6,-0.07,-0.04,0.31,0,-3,2,0.08,0,0,0.0,0.0,0.0,0.0,0,0,0.0,0,0.0,-1,0.0,0.0,0.0,0,0.0,0.6507
39083,0,,,,,,,,0.08,-0.01,0.56,0,-0,0,0.08,0,,,,,,,,,,,,,,,,,
39123,0,,,,,,,,0.04,-0.04,0.47,0,1,-1,0.05,0,,,,,,,,,,,,,,,,,
39163,0,,,,,,,,-0.06,-0.04,0.35,1,-3,2,0.07,0,,,,,,,,,,,,,,,,,
39203,0,,,,,,,,0.09,0.02,0.66,0,-1,-1,0.09,0,,,,,,,,,,,,,,,,,
39243,0,0,2,48,49,33,36,-6,0.0,-0.03,0.62,0,0,0,0.03,0,0,0.0,0.0,0.0,0.0,0,0,0.0,0,0.0,-1,0.0,0.0,0.0,0,0.0,0.654
39283,0,,,,,,,,-0.01,0.03,0.61,0,-2,0,0.03,0,,,,,,,,,,,,,,,,,
39323,0,,,,,,,,0.13,0.03,0.69,0,3,-2,0.13,0,,,,,,,,,,,,,,,,,
39363,0,,,,,,,,0.02,-0.02,0.54,0,0,0,0.02,0,,,,,,,,,,,,,,,,,
39403,0,,,,,,,,0.13,0.04,0.77,1,-1,0,0.13,0,,,,,,,,,,,,,,,,,
39443,0,0,1,48,49,33,36,-6,0.1,-0.03,0.64,0,3,-2,0.1,0,0,0.0,0.0,0.0,0.0,0,0,0.0,0,0.0,-1,0.0,0.0,0.0,0,0.0,0.6574
39483,0,,,,,,,,0.04,0.04,0.6,0,-2,1,0.06,0,,,,,,,,,,,,,,,,,
39523,0,,,,,,,,0.1,-0.01,0.62,0,4,-3,0.1,0,,,,,,,,,,,,,,,,,
39563,0,,,,,,,,0.01,0.07,0.51,0,-2,1,0.08,0,,,,,,,,,,,,,,,,,
39603,0,,,,,,,,0.08,0.03,0.53,0,3,-2,0.09,0,,,,,,,,,,,,,,,,,
39643,0,1,0,48,49,33,36,-6,0.03,0.02,0.41,0,-2,1,0.04,0,0,0.0,0.0,0.0,0.0,0,0,0.0,0,0.0,-1,0.0,0.0,0.0,0,0.0,0.6607
39683,0,,,,,,,,0.05,-0.01,0.39,0,3,-3,0.06,0,,,,,,,,,,,,,,,,,
39723,0,,,,,,,,0.02,0.01,0.3,1,-2,1,0.02,0,,,,,,,,,,,,,,,,,
39763,0,,,,,,,,0.09,-0.05,0.37,0,2,-1,0.1,0,,,,,,,,,,,,,,,,,
39803,0,,,,,,,,-0.05,0.02,0.28,0,-3,2,0.05,0,,,,,,,,,,,,,,,,,
39843,0,0,3,48,49,33,36,-7,0.09,0.02,0.49,0,2,-1,0.09,0,0,0.0,0.0,0.0,0.0,0,0,0.0,0,0.0,-1,0.0,0.0,0.0,0,0.0,0.664
39883,0,,,,,,,,-0.09,0.0,0.33,0,0,1,0.09,0,,,,,,,,,,,,,,,,,
39923,0,,,,,,,,0.09,0.04,0.55,1,-1,1,0.1,0,,,,,,,,,,,,,,,,,
39963,0,,,,,,,,0.07,0.0,0.47,1,2,-1,0.07,0,,,,,,,,,,,,,,,,,
40003,0,,,,,,,,-0.01,-0.02,0.36,1,-2,2,0.02,0,,,,,,,,,,,,,,,,,
40043,0,0,3,48,49,33,36,-7,0.11,-0.02,0.54,0,2,-1,0.11,0,0,0.0,0.0,0.0,0.0,0,0,0.0,0,0.0,-1,0.0,0.0,0.0,0,0.0,0.6674
40083,0,,,,,,,,-0.05,-0.0,0.41,1,-2,2,0.05,0,,,,,,,,,,,,,,,,,
40123,0,,,,,,,,0.07,-0.02,0.49,1,3,-2,0.07,0,,,,,,,,,,,,,,,,,
40163,0,,,,,,,,-0.06,0.02,0.38,1,-2,2,0.06,0,,,,,,,,,,,,,,,,,
40203,0,,,,,,,,0.11,-0.0,0.64,1,2,-1,0.11,0,,,,,,,,,,,,,,,,,
40243,0,-1,2,48,49,32,36,-7,-0.05,-0.06,0.31,1,-2,1,0.08,0,0,0.0,0.0,0.0,0.0,0,0,0.0,0,0.0,-1,0.0,0.0,0.0,0,0.0,0.6707
40283,0,,,,,,,,0.0,-0.02,0.29,1,-3,2,0.03,0,,,,,,,,,,,,,,,,,
40323,0,,,,,,,,0.09,-0.04,0.34,1,0,0,0.1,0,,,,,,,,,,,,,,,,,
40363,0,,,,,,,,-0.08,-0.06,0.16,1,-3,2,0.09,0,,,,,,,,,,,,,,,,,
40403,0,,,,,,,,0.08,-0.02,0.48,1,-2,1,0.08,0,,,,,,,,,,,,,,,,,
40443,0,0,1,48,49,33,36,-6,0.0,-0.05,0.41,1,-0,1,0.05,0,0,0.0,0.0,0.0,0.0,0,0,0.0,0,0.0,-1,0.0,0.0,0.0,0,0.0,0.674
40483,0,,,,,,,,0.02,-0.02,0.35,1,-2,1,0.03,0,,,,,,,,,,,,,,,,,
40523,0,,,,,,,,0.07,-0.03,0.41,1,2,-2,0.07,0,,,,,,,,,,,,,,,,,
40563,0,,,,,,,,-0.02,-0.03,0.31,1,-1,0,0.04,0,,,,,,,,,,,,,,,,,
40603,0,,,,,,,,0.1,-0.05,0.49,0,3,-2,0.11,0,,,,,,,,,,,,,,,,,
40643,0,0,3,48,49,33,36,-8,-0.04,-0.01,0.44,0,-0,-1,0.05,0,0,0.0,0.0,0.0,0.0,0,0,0.0,0,0.0,-1,0.0,0.0,0.0,0,0.0,0.6774
40683,0,,,,,,,,0.14,-0.01,0.67,0,5,-3,0.14,0,,,,,,,,,,,,,,,,,
40723,0,,,,,,,,-0.07,-0.01,0.48,1,-1,1,0.07,0,,,,,,,,,,,,,,,,,
40763,0,,,,,,,,0.17,0.02,0.77,0,3,-3,0.17,0,,,,,,,,,,,,,,,,,
40803,0,,,,,,,,0.04,-0.01,0.6,0,-1,0,0.04,0,,,,,,,,,,,,,,,,,
40843,0,1,0,48,49,32,36,-7,0.18,0.02,0.85,0,2,-2,0.18,0,0,0.0,0.0,0.0,0.0,0,0,0.0,0,0.0,-1,0.0,0.0,0.0,0,0.0,0.6807
40883,0,,,,,,,,0.04,-0.02,0.58,1,-1,1,0.04,0,,,,,,,,,,,,,,,,,
40923,0,,,,,,,,0.17,-0.02,0.68,1,3,-3,0.17,0,,,,,,,,,,,,,,,,,
40963,0,,,,,,,,0.09,0.04,0.53,1,-1,1,0.09,0,,,,,,,,,,,,,,,,,
41003,0,,,,,,,,-0.0,-0.05,0.45,1,3,-2,0.05,0,,,,,,,,,,,,,,,,,
41043,0,1,1,48,49,32,36,-6,0.16,0.03,0.74,1,2,-1,0.17,0,0,0.0,0.0,0.0,0.0,0,0,0.0,0,0.0,-1,0.0,0.0,0.0,0,0.0,0.684
41083,0,,,,,,,,-0.05,0.0,0.3,1,1,1,0.05,0,,,,,,,,,,,,,,,,,
41123,0,,,,,,,,0.14,0.03,0.62,1,-0,0,0.15,0,,,,,,,,,,,,,,,,,
41163,0,,,,,,,,-0.01,-0.02,0.41,1,-0,0,0.03,0,,,,,,,,,,,,,,,,,
41203,0,,,,,,,,0.04,0.01,0.42,1,-2,1,0.04,0,,,,,,,,,,,,,,,,,
41243,0,-1,2,48,48,33,36,-7,0.13,-0.02,0.52,1,2,-2,0.13,0,0,0.0,0.0,0.0,0.0,0,0,0.0,0,0.0,-1,0.0,0.0,0.0,0,0.0,0.6874
41283,0,,,,,,,,-0.06,-0.05,0.36,1,2,-0,0.07,0,,,,,,,,,,,,,,,,,
41323,0,,,,,,,,0.07,-0.02,0.65,1,0,-1,0.07,0,,,,,,,,,,,,,,,,,
41363,0,,,,,,,,0.08,-0.02,0.57,1,6,-3,0.08,0,,,,,,,,,,,,,,,,,
41403,0,,,,,,,,-0.04,-0.04,0.44,1,-0,1,0.06,0,,,,,,,,,,,,,,,,,
41443,0,1,0,48,49,32,36,-7,0.13,0.01,0.73,1,4,-2,0.13,0,0,0.0,0.0,0.0,0.0,0,0,0.0,0,0.0,-1,0.0,0.0,0.0,0,0.0,0.6907
41483,0,,,,,,,,-0.03,-0.09,0.29,1,0,1,0.1,0,,,,,,,,,,,,,,,,,
41523,0,,,,,,,,0.18,-0.02,0.61,1,4,-3,0.18,0,,,,,,,,,,,,,,,,,
41563,0,,,,,,,,0.02,0.04,0.48,1,-2,2,0.04,0,,,,,,,,,,,,,,,,,
41603,0,,,,,,,,-0.1,-0.11,0.31,0,-1,1,0.15,0,,,,,,,,,,,,,,,,,
41643,0,0,3,48,49,33,36,-7,0.21,-0.04,0.63,0,7,-4,0.22,0,0,0.0,0.0,0.0,0.0,0,0,0.0,0,0.0,-1,0.0,0.0,0.0,0,0.0,0.694
41683,0,,,,,,,,-0.03,-0.02,0.32,1,-2,2,0.04,0,,,,,,,,,,,,,,,,,
41723,0,,,,,,,,0.12,-0.04,0.45,0,4,-3,0.13,0,,,,,,,,,,,,,,,,,
41763,0,,,,,,,,0.09,0.0,0.34,1,0,1,0.09,0,,,,,,,,,,,,,,,,,
41803,0,,,,,,,,-0.01,-0.04,0.3,0,-0,-0,0.04,0,,,,,,,,,,,,,,,,,
41843,0,0,2,48,49,33,36,-6,0.18,0.03,0.62,1,4,-3,0.18,0,0,0.0,0.0,0.0,0.0,0,0,0.0,0,0.0,-1,0.0,0.0,0.0,0,0.0,0.6974
41883,0,,,,,,,,0.03,-0.09,0.37,0,2,-1,0.09,0,,,,,,,,,,,,,,,,,
41923,0,,,,,,,,0.19,-0.01,0.68,0,5,-4,0.2,0,,,,,,,,,,,,,,,,,
41963,0,,,,,,,,-0.05,-0.02,0.3,1,-1,1,0.06,0,,,,,,,,,,,,,,,,,
42003,0,,,,,,,,0.06,-0.04,0.36,0,3,-2,0.07,0,,,,,,,,,,,,,,,,,
42043,0,-1,2,48,48,33,36,-7,0.14,0.06,0.65,1,5,-3,0.16,0,0,0.0,0.0,0.0,0.0,0,0,0.0,0,0.0,-1,0.0,0.0,0.0,0,0.0,0.7007
42083,0,,,,,,,,-0.13,-0.08,0.15,0,-5,4,0.15,0,,,,,,,,,,,,,,,,,
42123,0,,,,,,,,0.14,-0.02,0.5,0,5,-4,0.14,0,,,,,,,,,,,,,,,,,
42163,0,,,,,,,,0.11,-0.04,0.38,1,-1,1,0.12,0,,,,,,,,,,,,,,,,,
42203,0,,,,,,,,-0.12,-0.14,-0.07,1,-3,1,0.19,0,,,,,,,,,,,,,,,,,
42243,0,-0,2,48,49,33,36,-7,0.1,-0.05,0.32,1,2,-0,0.11,0,0,0.0,0.0,0.0,0.0,0,0,0.0,0,0.0,-1,0.0,0.0,0.0,0,0.0,0.704
42283,0,,,,,,,,-0.05,-0.07,-0.01,1,-2,2,0.09,0,,,,,,,,,,,,,,,,,
42323,0,,,,,,,,-0.01,-0.13,0.05,0,4,-3,0.13,0,,,,,,,,,,,,,,,,,
42363,0,,,,,,,,0.22,0.04,0.42,1,2,-3,0.22,0,,,,,,,,,,,,,,,,,
42403,0,,,,,,,,-0.09,-0.04,0.05,1,-6,4,0.1,0,,,,,,,,,,,,,,,,,
42443,0,-1,2,48,49,33,36,-7,-0.2,-0.14,-0.07,1,6,-4,0.24,0,0,0.0,0.0,0.0,0.0,0,0,0.0,0,0.0,-1,0.0,0.0,0.0,0,0.0,0.7074
42483,0,,,,,,,,0.18,-0.0,0.33,1,21,-11,0.18,0,,,,,,,,,,,,,,,,,
42523,0,,,,,,,,0.46,0.14,0.64,1,10,-3,0.48,0,,,,,,,,,,,,,,,,,
42563,0,,,,,,,,0.14,0.09,0.22,1,-11,9,0.17,0,,,,,,,,,,,,,,,,,
42603,0,,,,,,,,-0.14,-0.02,-0.06,1,-5,3,0.14,0,,,,,,,,,,,,,,,,,
42643,0,0,2,48,49,33,36,-6,0.22,0.08,0.33,1,9,-4,0.23,0,0,0.0,0.0,0.0,0.0,0,0,0.0,0,0.0,-1,0.0,0.0,0.0,0,0.0,0.7107
42683,0,,,,,,,,0.29,0.12,0.25,1,-7,7,0.31,0,,,,,,,,,,,,,,,,,
42723,0,,,,,,,,-0.1,-0.06,-0.18,1,-27,16,0.11,0,,,,,,,,,,,,,,,,,
42763,0,,,,,,,,-0.39,-0.17,-0.49,0,-24,9,0.42,0,,,,,,,,,,,,,,,,,
42803,0,,,,,,,,-0.31,-0.1,-0.02,0,-5,-5,0.32,0,,,,,,,,,,,,,,,,,
42843,0,-1,2,48,49,33,36,-7,0.1,0.09,0.37,0,13,-12,0.13,0,0,0.0,0.0,0.0,0.0,0,0,0.0,0,0.0,-1,0.0,0.0,0.0,0,0.0,0.714
42883,0,,,,,,,,0.46,0.21,0.68,0,18,-11,0.51,0,,,,,,,,,,,,,,,,,
42923,0,,,,,,,,0.58,0.25,0.93,1,12,-3,0.63,0,,,,,,,,,,,,,,,,,
42963,0,,,,,,,,0.45,0.14,0.37,1,-7,12,0.47,0,,,,,,,,,,,,,,,,,
43003,0,,,,,,,,0.09,-0.03,-0.08,1,-23,20,0.09,0,,,,,,,,,,,,,,,,,
43043,0,0,1,48,49,33,36,-6,-0.2,-0.2,-0.45,1,-25,18,0.28,0,0,0.0,0.0,0.0,0.0,0,0,0.0,0,0.0,-1,0.0,0.0,0.0,0,0.0,0.7174
43083,0,,,,,,,,0.06,-0.08,0.02,1,-8,5,0.1,0,,,,,,,,,,,,,,,,,
43123,0,,,,,,,,0.18,0.12,0.39,1,-6,3,0.21,0,,,,,,,,,,,,,,,,,
43163,0,,,,,,,,-0.18,-0.04,-0.06,1,-21,14,0.18,0,,,,,,,,,,,,,,,,,
43203,0,,,,,,,,-0.47,-0.21,-0.43,1,-23,15,0.52,0,,,,,,,,,,,,,,,,,
43243,0,1,1,48,49,33,36,-6,-0.61,-0.24,-0.66,0,-16,11,0.66,0,0,0.0,0.0,0.0,0.0,0,0,0.0,0,0.0,-1,0.0,0.0,0.0,0,0.0,0.7207
43283,0,,,,,,,,-0.49,-0.22,-0.16,0,2,1,0.54,0,,,,,,,,,,,,,,,,,
43323,0,,,,,,,,-0.26,-0.18,0.25,0,23,-9,0.32,0,,,,,,,,,,,,,,,,,
43363,0,,,,,,,,-0.26,-0.17,0.27,0,34,-15,0.31,0,,,,,,,,,,,,,,,,,
43403,0,,,,,,,,-0.59,-0.27,-0.16,0,18,-6,0.65,0,,,,,,,,,,,,,,,,,
43443,0,1,1,48,49,33,36,-7,-0.55,-0.18,-0.51,1,3,4,0.58,0,0,0.0,0.0,0.0,0.0,0,0,0.0,0,0.0,-1,0.0,0.0,0.0,0,0.0,0.724
43483,0,,,,,,,,-0.48,-0.12,-0.43,-0,9,-2,0.49,0,,,,,,,,,,,,,,,,,
43523,0,,,,,,,,-0.41,0.01,-0.45,2,18,-6,0.41,0,,,,,,,,,,,,,,,,,
43563,0,,,,,,,,-0.37,-0.02,-0.75,2,8,5,0.37,0,,,,,,,,,,,,,,,,,
43603,0,,,,,,,,0.06,0.06,-0.23,0,22,-7,0.08,0,,,,,,,,,,,,,,,,,
43643,0,1,0,48,49,32,36,-7,0.0,0.05,-0.2,0,-9,11,0.05,0,0,0.0,0.0,0.0,0.0,0,0,0.0,0,0.0,-1,0.0,0.0,0.0,0,0.0,0.7274
43683,0,,,,,,,,-0.33,0.0,-0.55,1,1,2,0.33,0,,,,,,,,,,,,,,,,,
43723,0,,,,,,,,-0.23,-0.09,-0.3,-0,22,-21,0.24,0,,,,,,,,,,,,,,,,,
43763,0,,,,,,,,0.18,-0.07,0.14,-0,26,-22,0.19,0,,,,,,,,,,,,,,,,,
43803,0,,,,,,,,0.22,0.03,0.09,0,-5,-1,0.22,0,,,,,,,,,,,,,,,,,
43843,0,-1,2,48,49,33,36,-6,-0.19,0.0,-0.31,2,-3,-7,0.19,0,0,0.0,0.0,0.0,0.0,0,0,0.0,0,0.0,-1,0.0,0.0,0.0,0,0.0,0.7307
43883,0,,,,,,,,0.12,0.13,0.13,1,9,-15,0.18,0,,,,,,,,,,,,,,,,,
43923,0,,,,,,,,-0.06,0.18,-0.27,2,-15,3,0.19,0,,,,,,,,,,,,,,,,,
43963,0,,,,,,,,-0.08,0.23,-0.2,2,10,-11,0.24,0,,,,,,,,,,,,,,,,,
44003,0,,,,,,,,-0.04,0.23,-0.18,3,-6,3,0.24,0,,,,,,,,,,,,,,,,,
44043,0,-1,2,48,48,33,36,-6,0.06,0.25,-0.13,2,12,-8,0.26,0,0,0.0,0.0,0.0,0.0,0,0,0.0,0,0.0,-1,0.0,0.0,0.0,0,0.0,0.734
44083,0,,,,,,,,-0.04,0.16,-0.49,2,13,-2,0.16,0,,,,,,,,,,,,,,,,,
44123,0,,,,,,,,0.04,0.09,-0.41,1,6,5,0.1,0,,,,,,,,,,,,,,,,,
44163,0,,,,,,,,0.21,0.12,-0.12,1,12,1,0.24,0,,,,,,,,,,,,,,,,,
44203,0,,,,,,,,0.19,0.09,-0.08,0,14,-0,0.21,0,,,,,,,,,,,,,,,,,
44243,0,1,1,48,49,33,36,-7,0.17,0.05,-0.05,1,11,-0,0.18,0,0,0.0,0.0,0.0,0.0,0,0,0.0,0,0.0,-1,0.0,0.0,0.0,0,0.0,0.7374
44283,0,,,,,,,,0.16,0.03,-0.02,1,6,6,0.16,0,,,,,,,,,,,,,,,,,
44323,0,,,,,,,,-0.09,0.07,-0.36,0,-7,12,0.12,0,,,,,,,,,,,,,,,,,
44363,0,,,,,,,,-0.1,-0.0,-0.31,-1,4,4,0.1,0,,,,,,,,,,,,,,,,,
44403,0,,,,,,,,-0.3,0.1,-0.5,-1,-27,18,0.32,0,,,,,,,,,,,,,,,,,
44443,0,-1,3,48,49,33,36,-6,-0.23,0.16,-0.39,0,-34,22,0.28,0,0,0.0,0.0,0.0,0.0,0,0,0.0,0,0.0,-1,0.0,0.0,0.0,0,0.0,0.7407
44483,0,,,,,,,,-0.39,0.05,-0.69,0,-35,23,0.4,0,,,,,,,,,,,,,,,,,
44523,0,,,,,,,,-0.36,0.04,-0.5,0,-29,18,0.36,0,,,,,,,,,,,,,,,,,
44563,0,,,,,,,,-0.21,0.03,-0.13,0,-20,13,0.21,0,,,,,,,,,,,,,,,,,
44603,0,,,,,,,,-0.07,0.09,-0.02,0,-21,12,0.11,0,,,,,,,,,,,,,,,,,
44643,0,1,3,48,49,33,36,-6,-0.03,0.03,0.09,0,-8,9,0.04,0,0,0.0,0.0,0.0,0.0,0,0,0.0,0,0.0,-1,0.0,0.0,0.0,0,0.0,0.7441
44683,0,,,,,,,,-0.4,0.05,0.45,0,-25,9,0.4,0,,,,,,,,,,,,,,,,,
44723,0,,,,,,,,-0.42,0.16,0.68,0,-47,11,0.45,0,,,,,,,,,,,,,,,,,
44763,0,,,,,,,,-0.18,0.2,0.41,1,-57,10,0.27,0,,,,,,,,,,,,,,,,,
44803,0,,,,,,,,0.16,0.18,-0.05,1,-56,9,0.24,0,,,,,,,,,,,,,,,,,
44843,0,1,2,48,49,33,36,-6,0.49,0.18,-0.33,1,-49,7,0.52,0,0,0.0,0.0,0.0,0.0,0,0,0.0,0,0.0,-1,0.0,0.0,0.0,0,0.0,0.7474
44883,0,,,,,,,,0.78,0.14,-0.65,1,-21,3,0.79,0,,,,,,,,,,,,,,,,,
44923,0,,,,,,,,1.0,0.02,-0.9,1,14,0,1.0,0,,,,,,,,,,,,,,,,,
44963,0,,,,,,,,0.71,-0.08,-0.35,1,31,-3,0.72,0,,,,,,,,,,,,,,,,,
45003,0,,,,,,,,0.2,-0.1,0.09,1,6,1,0.22,0,,,,,,,,,,,,,,,,,
45043,0,-1,2,48,49,33,36,-6,0.42,0.01,0.16,1,-22,4,0.42,0,0,0.0,0.0,0.0,0.0,0,0,0.0,0,0.0,-1,0.0,0.0,0.0,0,0.0,0.7507
45083,0,,,,,,,,0.57,-0.08,-0.21,1,-3,-1,0.58,0,,,,,,,,,,,,,,,,,
45123,0,,,,,,,,0.08,-0.07,0.06,1,3,1,0.11,0,,,,,,,,,,,,,,,,,
45163,0,,,,,,,,0.28,0.02,0.09,1,-12,2,0.28,0,,,,,,,,,,,,,,,,,
45203,0,,,,,,,,0.29,-0.02,0.09,1,6,-1,0.3,0,,,,,,,,,,,,,,,,,
45243,0,-1,3,48,48,33,36,-6,0.08,0.01,0.45,1,-3,1,0.08,0,0,0.0,0.0,0.0,0.0,0,0,0.0,0,0.0,-1,0.0,0.0,0.0,0,0.0,0.754
45283,0,,,,,,,,0.12,-0.02,0.37,1,-0,0,0.12,0,,,,,,,,,,,,,,,,,
45323,0,,,,,,,,0.21,0.03,0.61,1,-3,1,0.22,0,,,,,,,,,,,,,,,,,
45363,0,,,,,,,,0.1,0.01,0.66,1,-5,1,0.1,0,,,,,,,,,,,,,,,,,
45403,0,,,,,,,,0.06,0.01,0.74,1,-4,2,0.06,0,,,,,,,,,,,,,,,,,
45443,0,-1,2,48,48,33,36,-7,0.08,0.04,0.8,1,-4,2,0.09,0,0,0.0,0.0,0.0,0.0,0,0,0.0,0,0.0,-1,0.0,0.0,0.0,0,0.0,0.7574
45483,0,,,,,,,,0.17,0.04,0.74,1,-1,0,0.18,0,,,,,,,,,,,,,,,,,
45523,0,,,,,,,,0.05,-0.02,0.71,1,2,-1,0.05,0,,,,,,,,,,,,,,,,,
45563,0,,,,,,,,0.09,0.07,0.73,1,-2,1,0.11,0,,,,,,,,,,,,,,,,,
45603,0,,,,,,,,-0.09,-0.04,0.48,1,1,-0,0.1,0,,,,,,,,,,,,,,,,,
45643,0,1,2,48,49,33,36,-6,0.24,0.04,0.77,1,18,-10,0.25,0,0,0.0,0.0,0.0,0.0,0,0,0.0,0,0.0,-1,0.0,0.0,0.0,0,0.0,0.7607
45683,0,,,,,,,,0.58,0.21,1.0,0,32,-15,0.61,0,,,,,,,,,,,,,,,,,
45723,0,,,,,,,,0.65,0.24,1.19,0,51,-28,0.7,0,,,,,,,,,,,,,,,,,
45763,0,,,,,,,,0.15,0.11,0.58,0,32,-18,0.19,0,,,,,,,,,,,,,,,,,
45803,0,,,,,,,,0.37,0.21,0.49,1,30,-18,0.42,0,,,,,,,,,,,,,,,,,
45843,0,1,0,48,49,33,36,-7,0.22,0.26,0.02,3,24,-8,0.35,0,0,0.0,0.0,0.0,0.0,0,0,0.0,0,0.0,-1,0.0,0.0,0.0,0,0.0,0.764
45883,0,,,,,,,,0.28,0.4,0.08,3,27,-14,0.49,0,,,,,,,,,,,,,,,,,
45923,0,,,,,,,,0.18,0.37,0.09,2,27,-20,0.41,0,,,,,,,,,,,,,,,,,
45963,0,,,,,,,,0.21,0.36,0.05,2,19,-8,0.42,0,,,,,,,,,,,,,,,,,
46003,0,,,,,,,,-0.04,0.2,-0.34,2,13,-0,0.2,0,,,,,,,,,,,,,,,,,
46043,0,1,2,48,49,33,36,-7,0.35,0.22,0.1,1,33,-20,0.41,0,0,0.0,0.0,0.0,0.0,0,0,0.0,0,0.0,-1,0.0,0.0,0.0,0,0.0,0.7674
46083,0,,,,,,,,0.23,0.3,0.06,1,11,-7,0.37,0,,,,,,,,,,,,,,,,,
46123,0,,,,,,,,-0.11,0.23,0.07,1,-6,0,0.26,0,,,,,,,,,,,,,,,,,
46163,0,,,,,,,,0.12,0.29,0.44,2,11,-11,0.31,0,,,,,,,,,,,,,,,,,
46203,0,,,,,,,,-0.11,0.17,-0.03,2,8,0,0.21,0,,,,,,,,,,,,,,,,,
46243,0,-0,2,48,49,33,36,-7,0.13,0.16,-0.04,2,17,-4,0.2,0,0,0.0,0.0,0.0,0.0,0,0,0.0,0,0.0,-1,0.0,0.0,0.0,0,0.0,0.7707
46283,0,,,,,,,,0.2,0.18,-0.01,1,22,-7,0.27,0,,,,,,,,,,,,,,,,,
46323,0,,,,,,,,0.07,0.19,0.01,2,16,-7,0.2,0,,,,,,,,,,,,,,,,,
46363,0,,,,,,,,0.07,0.22,0.03,2,19,-11,0.23,0,,,,,,,,,,,,,,,,,
46403,0,,,,,,,,0.19,0.2,0.04,2,23,-13,0.27,0,,,,,,,,,,,,,,,,,
46443,0,-0,3,48,49,33,36,-7,0.25,0.24,0.05,2,14,-7,0.35,0,0,0.0,0.0,0.0,0.0,0,0,0.0,0,0.0,-1,0.0,0.0,0.0,0,0.0,0.774
46483,0,,,,,,,,-0.16,0.05,-0.34,3,11,-7,0.17,0,,,,,,,,,,,,,,,,,
46523,0,,,,,,,,-0.35,0.0,-0.64,2,-16,4,0.35,0,,,,,,,,,,,,,,,,,
46563,0,,,,,,,,-0.31,-0.05,-0.9,2,-12,5,0.31,0,,,,,,,,,,,,,,,,,
46603,0,,,,,,,,-0.02,0.07,-0.75,2,5,2,0.07,0,,,,,,,,,,,,,,,,,
46643,0,1,2,49,50,33,36,-7,-0.02,0.11,-0.35,2,2,3,0.11,0,0,0.0,0.0,0.0,0.0,0,0,0.0,0,0.0,-1,0.0,0.0,0.0,0,0.0,0.7774
46683,0,,,,,,,,-0.03,0.07,-0.26,1,-4,2,0.07,0,,,,,,,,,,,,,,,,,
46723,0,,,,,,,,-0.11,0.07,-0.31,1,-9,5,0.13,0,,,,,,,,,,,,,,,,,
46763,0,,,,,,,,0.02,0.04,0.02,1,3,1,0.04,0,,,,,,,,,,,,,,,,,
46803,0,,,,,,,,-0.12,0.04,0.28,1,-4,3,0.12,0,,,,,,,,,,,,,,,,,
46843,0,1,3,48,49,33,36,-7,0.14,0.02,0.22,1,4,-0,0.14,0,0,0.0,0.0,0.0,0.0,0,0,0.0,0,0.0,-1,0.0,0.0,0.0,0,0.0,0.7807
46883,0,,,,,,,,-0.25,-0.03,0.55,1,4,-0,0.25,0,,,,,,,,,,,,,,,,,
46923,0,,,,,,,,-0.03,0.04,0.66,1,-10,2,0.05,0,,,,,,,,,,,,,,,,,
46963,0,,,,,,,,-0.17,-0.05,0.5,1,-1,0,0.18,0,,,,,,,,,,,,,,,,,
47003,0,,,,,,,,0.06,0.01,0.78,1,-2,-0,0.06,0,,,,,,,,,,,,,,,,,
47043,0,1,2,49,49,33,36,-7,0.01,0.0,0.71,1,-4,1,0.01,0,0,0.0,0.0,0.0,0.0,0,0,0.0,0,0.0,-1,0.0,0.0,0.0,0,0.0,0.784
47083,0,,,,,,,,0.02,0.01,0.78,1,-3,0,0.02,0,,,,,,,,,,,,,,,,,
47123,0,,,,,,,,0.05,-0.03,0.72,1,1,-2,0.06,0,,,,,,,,,,,,,,,,,
47163,0,,,,,,,,-0.02,0.06,0.56,1,-7,3,0.06,0,,,,,,,,,,,,,,,,,
47203,0,,,,,,,,-0.39,-0.09,0.07,1,-17,9,0.4,0,,,,,,,,,,,,,,,,,
47243,0,1,2,49,49,33,36,-6,-0.51,-0.09,-0.32,1,-38,18,0.52,0,0,0.0,0.0,0.0,0.0,0,0,0.0,0,0.0,-1,0.0,0.0,0.0,0,0.0,0.7874
47283,0,,,,,,,,-0.51,-0.05,-0.28,1,-31,13,0.51,0,,,,,,,,,,,,,,,,,
47323,0,,,,,,,,-0.13,-0.01,0.15,1,-11,-1,0.13,0,,,,,,,,,,,,,,,,,
47363,0,,,,,,,,-0.03,0.12,0.14,1,-15,3,0.13,0,,,,,,,,,,,,,,,,,
47403,0,,,,,,,,-0.12,-0.07,0.1,1,-18,2,0.14,0,,,,,,,,,,,,,,,,,
47443,0,0,2,48,49,33,36,-7,-0.09,-0.03,0.1,1,-18,4,0.09,0,0,0.0,0.0,0.0,0.0,0,0,0.0,0,0.0,-1,0.0,0.0,0.0,0,0.0,0.7907
47483,0,,,,,,,,-0.11,0.01,0.06,1,-16,3,0.11,0,,,,,,,,,,,,,,,,,
47523,0,,,,,,,,-0.06,-0.02,0.41,1,-10,0,0.07,0,,,,,,,,,,,,,,,,,
47563,0,,,,,,,,-0.02,0.02,0.35,0,-7,1,0.03,0,,,,,,,,,,,,,,,,,
47603,0,,,,,,,,-0.15,-0.05,0.27,1,-15,8,0.16,0,,,,,,,,,,,,,,,,,
47643,0,1,2,49,49,33,36,-7,-0.29,-0.0,-0.17,1,-35,24,0.29,0,0,0.0,0.0,0.0,0.0,0,0,0.0,0,0.0,-1,0.0,0.0,0.0,0,0.0,0.794
47683,0,,,,,,,,-0.12,0.03,-0.11,1,-15,7,0.12,0,,,,,,,,,,,,,,,,,
47723,0,,,,,,,,-0.19,0.08,-0.38,2,-27,17,0.2,0,,,,,,,,,,,,,,,,,
47763,0,,,,,,,,-0.04,0.04,-0.29,2,-9,4,0.06,0,,,,,,,,,,,,,,,,,
47803,0,,,,,,,,0.31,-0.01,0.15,2,19,-20,0.31,0,,,,,,,,,,,,,,,,,
47843,0,-0,3,49,50,33,36,-7,0.13,-0.09,-0.05,1,30,-33,0.16,0,0,0.0,0.0,0.0,0.0,0,0,0.0,0,0.0,-1,0.0,0.0,0.0,0,0.0,0.7974
47883,0,,,,,,,,0.01,0.05,-0.42,2,16,-18,0.05,0,,,,,,,,,,,,,,,,,
47923,0,,,,,,,,0.18,-0.04,0.04,1,20,-21,0.18,0,,,,,,,,,,,,,,,,,
47963,0,,,,,,,,0.1,0.04,0.05,1,12,-16,0.11,0,,,,,,,,,,,,,,,,,
48003,0,,,,,,,,0.11,0.06,-0.15,1,5,-8,0.13,0,,,,,,,,,,,,,,,,,
48043,0,-1,2,48,50,33,36,-6,0.04,-0.0,-0.13,1,4,-10,0.04,0,0,0.0,0.0,0.0,0.0,0,0,0.0,0,0.0,-1,0.0,0.0,0.0,0,0.0,0.8007
48083,0,,,,,,,,-0.01,-0.06,0.22,1,1,-12,0.06,0,,,,,,,,,,,,,,,,,
48123,0,,,,,,,,-0.14,-0.09,-0.2,1,-5,-7,0.17,0,,,,,,,,,,,,,,,,,
48163,0,,,,,,,,0.08,0.02,0.16,0,-8,-6,0.08,0,,,,,,,,,,,,,,,,,
48203,0,,,,,,,,0.15,-0.11,0.15,0,-2,-6,0.19,0,,,,,,,,,,,,,,,,,
48243,0,-1,2,48,50,33,36,-5,0.13,-0.09,0.14,0,-4,-7,0.16,0,0,0.0,0.0,0.0,0.0,0,0,0.0,0,0.0,-1,0.0,0.0,0.0,0,0.0,0.8041
48283,0,,,,,,,,0.21,-0.03,0.13,1,-1,-6,0.21,0,,,,,,,,,,,,,,,,,
48323,0,,,,,,,,0.17,0.02,0.13,1,-4,-3,0.17,0,,,,,,,,,,,,,,,,,
48363,0,,,,,,,,0.14,0.0,0.12,1,0,-4,0.14,0,,,,,,,,,,,,,,,,,
48403,0,,,,,,,,0.15,-0.01,0.12,0,-3,-3,0.15,0,,,,,,,,,,,,,,,,,
48443,0,-1,3,49,50,33,36,-2,0.14,-0.05,0.4,0,1,-5,0.15,0,0,0.0,0.0,0.0,0.0,0,0,0.0,0,0.0,-1,0.0,0.0,0.0,0,0.0,0.8074
48483,0,,,,,,,,0.16,0.03,0.53,0,-2,-3,0.16,0,,,,,,,,,,,,,,,,,
48523,0,,,,,,,,0.22,0.02,0.45,0,2,-3,0.22,0,,,,,,,,,,,,,,,,,
48563,0,,,,,,,,0.09,0.08,0.43,1,-3,-1,0.12,0,,,,,,,,,,,,,,,,,
48603,0,,,,,,,,0.2,0.12,0.37,1,-9,1,0.24,0,,,,,,,,,,,,,,,,,
48643,0,-1,2,50,51,32,36,7,0.37,0.19,0.08,1,-9,3,0.41,0,0,0.0,0.0,0.0,0.0,0,0,0.0,0,0.0,-1,0.0,0.0,0.0,0,0.0,0.8107
48683,0,,,,,,,,0.32,0.08,-0.2,1,-11,6,0.33,0,,,,,,,,,,,,,,,,,
48723,0,,,,,,,,0.39,0.11,-0.18,0,-10,2,0.4,0,,,,,,,,,,,,,,,,,
48763,0,,,,,,,,0.45,0.01,-0.06,0,-6,0,0.45,0,,,,,,,,,,,,,,,,,
48803,0,,,,,,,,0.44,0.02,-0.03,-0,-5,0,0.44,0,,,,,,,,,,,,,,,,,
48843,0,1,0,50,52,32,35,11,0.37,0.0,-0.06,-0,-7,3,0.37,0,0,0.0,0.0,0.0,0.0,0,0,0.0,0,0.0,-1,0.0,0.0,0.0,0,0.0,0.814
48883,0,,,,,,,,0.48,0.04,0.11,-1,0,-1,0.48,0,,,,,,,,,,,,,,,,,
48923,0,,,,,,,,0.49,-0.02,0.11,-1,-2,-1,0.49,0,,,,,,,,,,,,,,,,,
48963,0,,,,,,,,0.42,-0.01,0.07,-1,-4,-0,0.42,0,,,,,,,,,,,,,,,,,
49003,0,,,,,,,,0.5,-0.01,0.44,-1,-1,-2,0.5,0,,,,,,,,,,,,,,,,,
49043,0,-1,3,50,53,31,36,12,0.5,-0.02,0.37,-1,-1,-1,0.5,0,0,0.0,0.0,0.0,0.0,0,0,0.0,0,0.0,-1,0.0,0.0,0.0,0,0.0,0.8174
49083,0,,,,,,,,0.56,-0.06,0.52,-2,-3,-1,0.56,0,,,,,,,,,,,,,,,,,
49123,0,,,,,,,,0.58,0.01,0.44,-2,-5,1,0.58,0,,,,,,,,,,,,,,,,,
49163,0,,,,,,,,0.81,-0.01,0.74,-3,13,-16,0.81,0,,,,,,,,,,,,,,,,,
49203,0,,,,,,,,0.7,-0.01,0.22,-2,16,-11,0.7,0,,,,,,,,,,,,,,,,,
49243,0,0,2,53,55,28,33,12,0.51,0.01,0.19,-2,-5,4,0.51,0,0,0.0,0.0,0.0,0.0,0,0,0.0,0,0.0,-1,0.0,0.0,0.0,0,0.0,0.8207
49283,0,,,,,,,,0.26,-0.1,-0.09,-3,-15,8,0.28,0,,,,,,,,,,,,,,,,,
49323,0,,,,,,,,0.51,-0.1,0.3,-4,-10,4,0.52,0,,,,,,,,,,,,,,,,,
49363,0,,,,,,,,0.58,-0.08,0.47,-4,-8,3,0.59,0,,,,,,,,,,,,,,,,,
49403,0,,,,,,,,0.79,-0.11,0.45,-5,1,2,0.79,0,,,,,,,,,,,,,,,,,
49443,0,0,2,53,55,28,33,4,0.58,-0.17,0.75,-5,10,-0,0.6,0,0,0.0,0.0,0.0,0.0,0,0,0.0,0,0.0,-1,0.0,0.0,0.0,0,0.0,0.824
49483,0,,,,,,,,0.51,-0.15,0.65,-4,22,1,0.53,0,,,,,,,,,,,,,,,,,
49523,0,,,,,,,,0.43,-0.11,0.81,-3,17,1,0.44,0,,,,,,,,,,,,,,,,,
49563,0,,,,,,,,0.34,-0.04,0.98,-1,12,-0,0.34,0,,,,,,,,,,,,,,,,,
49603,0,,,,,,,,0.28,-0.03,1.02,-0,10,-0,0.28,0,,,,,,,,,,,,,,,,,
49643,0,-0,3,52,52,32,36,-6,0.45,-0.02,0.83,1,14,-1,0.45,0,0,0.0,0.0,0.0,0.0,0,0,0.0,0,0.0,-1,0.0,0.0,0.0,0,0.0,0.8274
49683,0,,,,,,,,0.44,-0.01,0.32,2,4,1,0.44,0,,,,,,,,,,,,,,,,,
49723,0,,,,,,,,0.42,0.06,0.37,3,1,1,0.42,0,,,,,,,,,,,,,,,,,
49763,0,,,,,,,,0.33,0.1,0.68,3,3,-1,0.35,0,,,,,,,,,,,,,,,,,
49803,0,,,,,,,,0.38,0.12,0.17,4,-1,1,0.39,0,,,,,,,,,,,,,,,,,
49843,0,-0,2,52,52,32,37,-13,0.11,0.1,0.15,5,-25,4,0.15,0,0,0.0,0.0,0.0,0.0,0,0,0.0,0,0.0,-1,0.0,0.0,0.0,0,0.0,0.8307
49883,0,,,,,,,,-0.03,0.22,0.5,6,-24,2,0.23,0,,,,,,,,,,,,,,,,,
49923,0,,,,,,,,0.22,0.33,0.3,9,-5,3,0.4,0,,,,,,,,,,,,,,,,,
49963,0,,,,,,,,0.56,0.37,-0.14,12,7,2,0.66,0,,,,,,,,,,,,,,,,,
50003,0,,,,,,,,0.83,0.42,-0.48,15,10,2,0.93,0,,,,,,,,,,,,,,,,,
50043,0,0,3,52,51,31,39,-34,1.05,0.39,-0.77,18,9,2,1.12,0,0,0.0,0.0,0.0,0.0,0,0,0.0,0,0.0,-1,0.0,0.0,0.0,0,0.0,0.834
50083,0,,,,,,,,1.23,0.43,-1.0,21,11,1,1.31,0,,,,,,,,,,,,,,,,,
50123,0,,,,,,,,1.38,0.39,-1.19,24,18,1,1.43,0,,,,,,,,,,,,,,,,,
50163,0,,,,,,,,1.5,0.41,-1.35,27,31,-0,1.55,0,,,,,,,,,,,,,,,,,
50203,0,,,,,,,,1.59,0.41,-1.47,30,45,-1,1.64,0,,,,,,,,,,,,,,,,,
50243,0,1,2,53,50,31,40,-47,1.64,0.42,-1.52,33,64,-3,1.69,0,0,0.0,0.0,0.0,0.0,0,0,0.0,0,0.0,-1,0.0,0.0,0.0,0,0.0,0.8374
50283,0,,,,,,,,1.54,0.45,-1.35,36,79,-4,1.61,0,,,,,,,,,,,,,,,,,
50323,0,,,,,,,,1.63,0.52,-1.31,39,93,-4,1.71,0,,,,,,,,,,,,,,,,,
50363,0,,,,,,,,1.7,0.51,-1.44,43,105,-4,1.78,0,,,,,,,,,,,,,,,,,
50403,0,,,,,,,,1.69,0.63,-1.55,47,99,-4,1.81,0,,,,,,,,,,,,,,,,,
50443,0,0,2,54,48,33,43,-66,1.31,0.71,-1.64,50,72,-2,1.49,0,0,0.0,0.0,0.0,0.0,0,0,0.0,0,0.0,-1,0.0,0.0,0.0,0,0.0,0.8407
50483,0,,,,,,,,0.68,0.77,-1.08,53,33,1,1.02,0,,,,,,,,,,,,,,,,,
50523,0,,,,,,,,0.28,0.85,-0.5,57,17,1,0.89,0,,,,,,,,,,,,,,,,,
50563,0,,,,,,,,0.26,0.85,-0.43,60,23,2,0.89,0,,,,,,,,,,,,,,,,,
50603,0,,,,,,,,0.02,0.83,-0.3,63,15,1,0.83,0,,,,,,,,,,,,,,,,,
50643,0,-0,2,53,47,34,45,-68,0.02,0.76,-0.15,65,16,2,0.76,0,0,0.0,0.0,0.0,0.0,0,0,0.0,0,0.0,-1,0.0,0.0,0.0,0,0.0,0.844
50683,0,,,,,,,,-0.02,0.77,-0.51,66,11,3,0.77,0,,,,,,,,,,,,,,,,,
50723,0,,,,,,,,-0.31,0.79,-0.19,68,-4,2,0.85,0,,,,,,,,,,,,,,,,,
50763,0,,,,,,,,-0.63,0.79,0.22,68,2,1,1.01,0,,,,,,,,,,,,,,,,,
50803,0,,,,,,,,-0.89,0.78,0.56,68,10,-1,1.18,0,,,,,,,,,,,,,,,,,
50843,0,1,1,53,47,33,44,-66,-0.77,0.9,0.72,68,-3,1,1.19,0,0,0.0,0.0,0.0,0.0,0,0,0.0,0,0.0,-1,0.0,0.0,0.0,0,0.0,0.8474
50883,0,,,,,,,,-0.75,0.85,0.45,69,-6,1,1.13,0,,,,,,,,,,,,,,,,,
50923,0,,,,,,,,-0.36,0.89,0.4,69,-6,2,0.96,0,,,,,,,,,,,,,,,,,
50963,0,,,,,,,,-0.22,0.85,0.38,69,6,1,0.88,0,,,,,,,,,,,,,,,,,
51003,0,,,,,,,,-0.49,0.87,0.49,69,-0,2,1.0,0,,,,,,,,,,,,,,,,,
51043,0,1,3,53,47,32,45,-67,-0.28,0.93,0.7,69,-5,3,0.97,0,0,0.0,0.0,0.0,0.0,0,0,0.0,0,0.0,-1,0.0,0.0,0.0,0,0.0,0.8507
51083,0,,,,,,,,-0.23,0.93,0.62,70,-5,3,0.96,0,,,,,,,,,,,,,,,,,
51123,0,,,,,,,,-0.16,0.98,0.51,71,-5,4,0.99,0,,,,,,,,,,,,,,,,,
51163,0,,,,,,,,-0.1,0.98,0.55,72,-7,6,0.98,0,,,,,,,,,,,,,,,,,
51203,0,,,,,,,,-0.23,1.0,0.44,73,-8,5,1.03,0,,,,,,,,,,,,,,,,,
51243,0,0,2,54,47,31,43,-63,-0.04,0.98,0.74,73,3,2,0.98,0,0,0.0,0.0,0.0,0.0,0,0,0.0,0,0.0,-1,0.0,0.0,0.0,0,0.0,0.854
51283,0,,,,,,,,-0.02,0.95,0.62,73,1,3,0.95,0,,,,,,,,,,,,,,,,,
51323,0,,,,,,,,0.02,0.94,0.43,71,0,4,0.94,0,,,,,,,,,,,,,,,,,
51363,0,,,,,,,,-0.02,0.86,0.32,68,-3,4,0.86,0,,,,,,,,,,,,,,,,,
51403,0,,,,,,,,-0.03,0.75,0.27,64,-3,3,0.75,0,,,,,,,,,,,,,,,,,
51443,0,-0,2,53,49,31,40,-42,0.01,0.65,0.56,60,1,2,0.65,0,0,0.0,0.0,0.0,0.0,0,0,0.0,0,0.0,-1,0.0,0.0,0.0,0,0.0,0.8574
51483,0,,,,,,,,0.17,0.72,0.68,57,-1,2,0.74,0,,,,,,,,,,,,,,,,,
51523,0,,,,,,,,0.01,0.7,0.54,55,-1,3,0.7,0,,,,,,,,,,,,,,,,,
51563,0,,,,,,,,0.01,0.74,0.6,55,1,2,0.74,0,,,,,,,,,,,,,,,,,
51603,0,,,,,,,,0.02,0.82,0.56,55,0,3,0.82,0,,,,,,,,,,,,,,,,,
51643,0,1,1,53,49,30,43,-54,0.07,0.9,0.43,55,-2,4,0.9,0,0,0.0,0.0,0.0,0.0,0,0,0.0,0,0.0,-1,0.0,0.0,0.0,0,0.0,0.8607
51683,0,,,,,,,,-0.0,0.86,0.37,57,4,2,0.86,0,,,,,,,,,,,,,,,,,
51723,0,,,,,,,,0.24,1.0,0.68,58,8,1,1.03,0,,,,,,,,,,,,,,,,,
51763,0,,,,,,,,0.03,0.87,0.17,60,-1,5,0.87,0,,,,,,,,,,,,,,,,,
51803,0,,,,,,,,0.16,0.9,0.52,61,1,3,0.92,0,,,,,,,,,,,,,,,,,
51843,0,0,1,53,48,31,43,-43,-0.02,0.84,0.25,60,-0,4,0.84,0,0,0.0,0.0,0.0,0.0,0,0,0.0,0,0.0,-1,0.0,0.0,0.0,0,0.0,0.864
51883,0,,,,,,,,0.25,0.8,0.58,59,12,-3,0.84,0,,,,,,,,,,,,,,,,,
51923,0,,,,,,,,0.4,0.99,0.6,57,9,-2,1.07,0,,,,,,,,,,,,,,,,,
51963,0,,,,,,,,0.08,0.81,0.11,56,-8,8,0.81,0,,,,,,,,,,,,,,,,,
52003,0,,,,,,,,0.12,0.82,0.42,54,-2,5,0.83,0,,,,,,,,,,,,,,,,,
52043,0,0,3,53,48,30,41,-39,-0.01,0.74,0.36,53,-1,5,0.74,0,0,0.0,0.0,0.0,0.0,0,0,0.0,0,0.0,-1,0.0,0.0,0.0,0,0.0,0.8674
52083,0,,,,,,,,0.27,0.87,0.67,52,10,-1,0.91,0,,,,,,,,,,,,,,,,,
52123,0,,,,,,,,0.5,0.87,0.93,50,25,-10,1.01,0,,,,,,,,,,,,,,,,,
52163,0,,,,,,,,0.17,0.74,0.37,48,11,-4,0.76,0,,,,,,,,,,,,,,,,,
52203,0,,,,,,,,0.48,0.75,0.68,46,-1,1,0.89,0,,,,,,,,,,,,,,,,,
52243,0,-0,2,53,51,29,39,-24,0.77,0.81,0.93,44,3,3,1.12,0,0,0.0,0.0,0.0,0.0,0,0,0.0,0,0.0,-1,0.0,0.0,0.0,0,0.0,0.8707
52283,0,,,,,,,,0.95,0.82,1.13,41,12,-2,1.26,0,,,,,,,,,,,,,,,,,
52323,0,,,,,,,,0.81,0.7,0.94,39,2,4,1.07,0,,,,,,,,,,,,,,,,,
52363,0,,,,,,,,0.64,0.7,0.38,37,0,5,0.95,0,,,,,,,,,,,,,,,,,
52403,0,,,,,,,,0.5,0.79,0.29,36,-0,3,0.93,0,,,,,,,,,,,,,,,,,
52443,0,0,3,56,51,28,37,-20,0.43,0.68,0.21,36,13,-4,0.81,0,0,0.0,0.0,0.0,0.0,0,0,0.0,0,0.0,-1,0.0,0.0,0.0,0,0.0,0.874
52483,0,,,,,,,,0.3,0.78,-0.21,33,-7,2,0.84,0,,,,,,,,,,,,,,,,,
52523,0,,,,,,,,0.5,0.87,-0.19,32,-16,8,1.0,0,,,,,,,,,,,,,,,,,
52563,0,,,,,,,,0.4,0.71,-0.13,30,-2,-3,0.82,0,,,,,,,,,,,,,,,,,
52603,0,,,,,,,,0.4,0.68,-0.13,29,-19,7,0.79,0,,,,,,,,,,,,,,,,,
52643,0,1,1,55,53,30,38,-13,0.47,0.58,-0.05,28,0,-6,0.75,0,0,0.0,0.0,0.0,0.0,0,0,0.0,0,0.0,-1,0.0,0.0,0.0,0,0.0,0.8774
52683,0,,,,,,,,0.22,0.59,-0.42,27,-25,11,0.63,0,,,,,,,,,,,,,,,,,
52723,0,,,,,,,,-0.03,0.51,-0.72,25,-18,3,0.51,0,,,,,,,,,,,,,,,,,
52763,0,,,,,,,,-0.13,0.38,-0.97,23,-23,7,0.4,0,,,,,,,,,,,,,,,,,
52803,0,,,,,,,,0.08,0.38,-0.76,24,-20,11,0.39,0,,,,,,,,,,,,,,,,,
52843,0,1,1,56,54,28,37,-16,0.1,0.43,-0.64,24,-15,5,0.44,0,0,0.0,0.0,0.0,0.0,0,0,0.0,0,0.0,-1,0.0,0.0,0.0,0,0.0,0.8807
52883,0,,,,,,,,0.13,0.44,-0.47,25,-18,7,0.46,0,,,,,,,,,,,,,,,,,
52923,0,,,,,,,,0.38,0.47,-0.04,26,-8,4,0.6,0,,,,,,,,,,,,,,,,,
52963,0,,,,,,,,0.32,0.51,-0.41,28,-14,10,0.6,0,,,,,,,,,,,,,,,,,
53003,0,,,,,,,,0.29,0.49,-0.7,29,-13,12,0.57,0,,,,,,,,,,,,,,,,,
53043,0,1,1,54,50,28,38,-3,0.41,0.45,-0.55,29,-11,9,0.61,0,0,0.0,0.0,0.0,0.0,0,0,0.0,0,0.0,-1,0.0,0.0,0.0,0,0.0,0.884
53083,0,,,,,,,,0.47,0.37,-0.79,28,-9,11,0.6,0,,,,,,,,,,,,,,,,,
53123,0,,,,,,,,0.48,0.3,-0.83,26,-4,11,0.56,0,,,,,,,,,,,,,,,,,
53163,0,,,,,,,,0.41,0.36,-0.69,21,2,7,0.55,0,,,,,,,,,,,,,,,,,
53203,0,,,,,,,,0.36,0.32,-0.18,16,11,-5,0.48,0,,,,,,,,,,,,,,,,,
53243,0,1,1,53,50,38,38,5,0.07,0.13,-0.51,12,4,-3,0.15,0,0,0.0,0.0,0.0,0.0,0,0,0.0,0,0.0,-1,0.0,0.0,0.0,0,0.0,0.8874
53283,0,,,,,,,,0.16,0.16,-0.03,8,26,-21,0.23,0,,,,,,,,,,,,,,,,,
53323,0,,,,,,,,0.27,0.34,0.13,5,31,-21,0.43,0,,,,,,,,,,,,,,,,,
53363,0,,,,,,,,0.04,0.33,-0.27,4,22,-10,0.33,0,,,,,,,,,,,,,,,,,
53403,0,,,,,,,,-0.18,0.36,-0.6,4,11,-2,0.41,0,,,,,,,,,,,,,,,,,
53443,0,0,1,45,47,35,42,-5,-0.26,0.36,-0.87,5,13,2,0.44,0,0,0.0,0.0,0.0,0.0,0,0,0.0,0,0.0,-1,0.0,0.0,0.0,0,0.0,0.8907
53483,0,,,,,,,,-0.17,0.31,-0.68,5,18,-3,0.36,0,,,,,,,,,,,,,,,,,
53523,0,,,,,,,,-0.2,0.22,-0.57,5,23,-13,0.3,0,,,,,,,,,,,,,,,,,
53563,0,,,,,,,,-0.31,0.15,-0.84,5,14,-7,0.35,0,,,,,,,,,,,,,,,,,
53603,0,,,,,,,,-0.38,0.19,-1.07,4,-4,7,0.42,0,,,,,,,,,,,,,,,,,
53643,0,5,5,46,46,37,41,0,-0.6,0.08,-1.24,3,-12,11,0.61,0,0,0.0,0.0,0.0,0.0,0,0,0.0,0,0.0,-1,0.0,0.0,0.0,0,0.0,0.894
53683,0,,,,,,,,-0.77,0.04,-1.39,3,3,-1,0.77,0,,,,,,,,,,,,,,,,,
53723,0,,,,,,,,-0.55,-0.08,-0.74,2,23,-19,0.56,0,,,,,,,,,,,,,,,,,
53763,0,,,,,,,,-0.46,0.09,-0.62,3,-5,-1,0.46,0,,,,,,,,,,,,,,,,,
53803,0,,,,,,,,-0.41,0.12,-0.49,2,7,-13,0.43,0,,,,,,,,,,,,,,,,,
53843,0,0,2,49,47,38,40,1,-0.47,0.19,-0.41,3,-13,1,0.51,0,0,0.0,0.0,0.0,0.0,0,0,0.0,0,0.0,-1,0.0,0.0,0.0,0,0.0,0.8974
53883,0,,,,,,,,-0.2,0.2,-0.36,3,-14,-0,0.28,0,,,,,,,,,,,,,,,,,
53923,0,,,,,,,,-0.15,0.04,-0.27,1,3,-7,0.16,0,,,,,,,,,,,,,,,,,
53963,0,,,,,,,,-0.2,-0.03,-0.2,-1,10,-10,0.21,0,,,,,,,,,,,,,,,,,
54003,0,,,,,,,,-0.19,-0.03,-0.14,-2,5,-6,0.19,0,,,,,,,,,,,,,,,,,
54043,0,-1,2,45,49,37,39,13,-0.13,-0.03,-0.09,-4,-5,-1,0.14,0,0,0.0,0.0,0.0,0.0,0,0,0.0,0,0.0,-1,0.0,0.0,0.0,0,0.0,0.9007
54083,0,,,,,,,,-0.13,-0.07,-0.06,-6,-9,2,0.15,0,,,,,,,,,,,,,,,,,
54123,0,,,,,,,,-0.34,-0.16,-0.29,-7,-14,5,0.38,0,,,,,,,,,,,,,,,,,
54163,0,,,,,,,,-0.17,-0.12,0.07,-9,2,-3,0.21,0,,,,,,,,,,,,,,,,,
54203,0,,,,,,,,-0.29,-0.24,-0.24,-11,-23,11,0.37,0,,,,,,,,,,,,,,,,,
54243,0,1,3,44,50,36,39,17,-0.14,-0.21,0.02,-12,3,-3,0.25,0,0,0.0,0.0,0.0,0.0,0,0,0.0,0,0.0,-1,0.0,0.0,0.0,0,0.0,0.904
54283,0,,,,,,,,-0.34,-0.32,-0.36,-13,-17,8,0.47,0,,,,,,,,,,,,,,,,,
54323,0,,,,,,,,0.01,-0.29,0.09,-16,-2,-1,0.29,0,,,,,,,,,,,,,,,,,
54363,0,,,,,,,,-0.13,-0.46,0.05,-18,13,-9,0.48,0,,,,,,,,,,,,,,,,,
54403,0,,,,,,,,-0.49,-0.72,-0.34,-21,-4,2,0.87,0,,,,,,,,,,,,,,,,,
54443,0,0,3,42,51,38,38,38,-0.77,-0.94,-0.66,-24,-17,9,1.22,0,0,0.0,0.0,0.0,0.0,0,0,0.0,0,0.0,-1,0.0,0.0,0.0,0,0.0,0.9074
54483,0,,,,,,,,-1.01,-1.08,-0.91,-28,-29,14,1.47,0,,,,,,,,,,,,,,,,,
54523,0,,,,,,,,-1.19,-1.15,-1.12,-31,-43,21,1.66,0,,,,,,,,,,,,,,,,,
54563,0,,,,,,,,-1.35,-1.22,-1.29,-34,-56,28,1.82,0,,,,,,,,,,,,,,,,,
54603,0,,,,,,,,-1.19,-1.09,-1.42,-37,-61,32,1.61,0,,,,,,,,,,,,,,,,,
54643,0,1,1,45,54,40,36,47,-1.0,-0.84,-1.17,-39,-40,21,1.3,0,0,0.0,0.0,0.0,0.0,0,0,0.0,0,0.0,-1,0.0,0.0,0.0,0,0.0,0.9107
54683,0,,,,,,,,-0.83,-0.78,-0.97,-41,-47,25,1.14,0,,,,,,,,,,,,,,,,,
54723,0,,,,,,,,-0.65,-0.71,-0.81,-43,-40,20,0.97,0,,,,,,,,,,,,,,,,,
54763,0,,,,,,,,-0.55,-0.81,-0.67,-44,-25,11,0.97,0,,,,,,,,,,,,,,,,,
54803,0,,,,,,,,-0.3,-0.8,-0.53,-46,-23,9,0.85,0,,,,,,,,,,,,,,,,,
54843,0,-1,2,48,57,37,35,50,-0.39,-0.86,-0.54,-48,-32,17,0.95,0,0,0.0,0.0,0.0,0.0,0,0,0.0,0,0.0,-1,0.0,0.0,0.0,0,0.0,0.914
54883,0,,,,,,,,-0.21,-0.93,-0.46,-49,-22,11,0.95,0,,,,,,,,,,,,,,,,,
54923,0,,,,,,,,0.1,-0.86,0.01,-50,-17,5,0.87,0,,,,,,,,,,,,,,,,,
54963,0,,,,,,,,0.1,-0.8,0.03,-50,-3,2,0.81,0,,,,,,,,,,,,,,,,,
55003,0,,,,,,,,-0.11,-0.85,0.04,-51,-5,-3,0.85,0,,,,,,,,,,,,,,,,,
55043,0,-0,3,48,57,38,34,45,0.19,-0.81,0.01,-51,-14,9,0.83,0,0,0.0,0.0,0.0,0.0,0,0,0.0,0,0.0,-1,0.0,0.0,0.0,0,0.0,0.9174
55083,0,,,,,,,,-0.0,-0.9,0.03,-51,9,-4,0.9,0,,,,,,,,,,,,,,,,,
55123,0,,,,,,,,0.33,-0.76,0.4,-50,15,-5,0.83,0,,,,,,,,,,,,,,,,,
55163,0,,,,,,,,0.53,-0.64,0.71,-48,7,3,0.84,0,,,,,,,,,,,,,,,,,
55203,0,,,,,,,,0.4,-0.77,0.19,-46,-13,17,0.87,0,,,,,,,,,,,,,,,,,
55243,0,-0,2,48,57,36,34,34,0.23,-0.87,0.17,-45,-4,3,0.9,0,0,0.0,0.0,0.0,0.0,0,0,0.0,0,0.0,-1,0.0,0.0,0.0,0,0.0,0.9207
55283,0,,,,,,,,0.44,-0.87,0.52,-45,10,-7,0.98,0,,,,,,,,,,,,,,,,,
55323,0,,,,,,,,0.58,-0.87,0.8,-46,14,-15,1.05,0,,,,,,,,,,,,,,,,,
55363,0,,,,,,,,0.56,-0.94,0.43,-45,9,-8,1.09,0,,,,,,,,,,,,,,,,,
55403,0,,,,,,,,0.58,-0.87,0.33,-46,12,-11,1.04,0,,,,,,,,,,,,,,,,,
55443,0,1,1,50,56,36,33,43,0.6,-0.89,0.25,-47,11,-11,1.07,0,0,0.0,0.0,0.0,0.0,0,0,0.0,0,0.0,-1,0.0,0.0,0.0,0,0.0,0.924
55483,0,,,,,,,,0.59,-0.94,0.47,-47,12,-12,1.11,0,,,,,,,,,,,,,,,,,
55523,0,,,,,,,,0.48,-1.07,0.19,-49,10,-7,1.17,0,,,,,,,,,,,,,,,,,
55563,0,,,,,,,,0.47,-1.17,0.13,-50,9,-4,1.26,0,,,,,,,,,,,,,,,,,
55603,0,,,,,,,,0.35,-1.2,0.48,-52,5,-6,1.25,0,,,,,,,,,,,,,,,,,
55643,0,1,1,49,56,39,35,20,0.25,-1.08,0.08,-52,4,-3,1.11,0,0,0.0,0.0,0.0,0.0,0,0,0.0,0,0.0,-1,0.0,0.0,0.0,0,0.0,0.9274
55683,0,,,,,,,,0.3,-0.97,0.09,-52,6,-2,1.01,0,,,,,,,,,,,,,,,,,
55723,0,,,,,,,,0.36,-0.96,0.15,-50,8,-2,1.02,0,,,,,,,,,,,,,,,,,
55763,0,,,,,,,,0.4,-0.98,0.36,-47,8,-3,1.06,0,,,,,,,,,,,,,,,,,
55803,0,,,,,,,,0.43,-0.82,0.27,-42,6,0,0.92,0,,,,,,,,,,,,,,,,,
55843,0,0,1,49,54,34,34,1,0.49,-0.68,0.24,-35,5,0,0.84,0,0,0.0,0.0,0.0,0.0,0,0,0.0,0,0.0,-1,0.0,0.0,0.0,0,0.0,0.9307
55883,0,,,,,,,,0.4,-0.67,0.18,-28,-0,3,0.78,0,,,,,,,,,,,,,,,,,
55923,0,,,,,,,,0.37,-0.7,0.12,-24,2,0,0.79,0,,,,,,,,,,,,,,,,,
55963,0,,,,,,,,0.41,-0.72,0.12,-22,-2,-1,0.83,0,,,,,,,,,,,,,,,,,
56003,0,,,,,,,,0.33,-0.68,0.24,-22,-3,-3,0.75,0,,,,,,,,,,,,,,,,,
56043,0,1,1,49,55,36,35,21,0.28,-0.67,-0.02,-21,-3,-1,0.73,0,0,0.0,0.0,0.0,0.0,0,0,0.0,0,0.0,-1,0.0,0.0,0.0,0,0.0,0.934
56083,0,,,,,,,,0.38,-0.73,0.37,-22,3,-2,0.83,0,,,,,,,,,,,,,,,,,
56123,0,,,,,,,,0.35,-0.75,0.28,-23,3,-1,0.83,0,,,,,,,,,,,,,,,,,
56163,0,,,,,,,,0.17,-0.81,0.2,-23,0,-2,0.82,0,,,,,,,,,,,,,,,,,
56203,0,,,,,,,,-0.04,-0.77,-0.22,-23,-4,5,0.77,0,,,,,,,,,,,,,,,,,
56243,0,26,23,43,52,38,39,18,-0.28,-0.79,-0.56,-23,-3,9,0.83,0,0,0.0,0.0,0.0,0.0,0,0,0.0,0,0.0,-1,0.0,0.0,0.0,0,0.0,0.9374
56283,0,,,,,,,,-0.46,-0.77,-0.83,-24,-8,17,0.9,0,,,,,,,,,,,,,,,,,
56323,0,,,,,,,,-0.43,-0.77,-0.65,-28,1,7,0.88,0,,,,,,,,,,,,,,,,,
56363,0,,,,,,,,-0.23,-0.66,-0.15,-31,-1,5,0.7,0,,,,,,,,,,,,,,,,,
56403,0,,,,,,,,-0.57,-0.79,-0.5,-35,-5,9,0.97,0,,,,,,,,,,,,,,,,,
56443,0,19,18,42,51,42,44,3,-0.82,-0.75,-0.79,-38,-21,13,1.11,0,0,0.0,0.0,0.0,0.0,0,0,0.0,0,0.0,-1,0.0,0.0,0.0,0,0.0,0.9407
56483,0,,,,,,,,-0.76,-0.72,-0.62,-40,-8,6,1.05,0,,,,,,,,,,,,,,,,,
56523,0,,,,,,,,-0.61,-0.59,-0.44,-41,-8,6,0.85,0,,,,,,,,,,,,,,,,,
56563,0,,,,,,,,-0.79,-0.56,-0.2,-40,-3,1,0.97,0,,,,,,,,,,,,,,,,,
56603,0,,,,,,,,-0.87,-0.42,-0.18,-36,-18,6,0.97,0,,,,,,,,,,,,,,,,,
56643,0,3,4,43,46,40,42,-37,-0.4,-0.26,-0.09,-30,-19,6,0.47,0,0,0.0,0.0,0.0,0.0,0,0,0.0,0,0.0,-1,0.0,0.0,0.0,0,0.0,0.944
56683,0,,,,,,,,-0.66,-0.2,-0.06,-23,-17,5,0.69,0,,,,,,,,,,,,,,,,,
56723,0,,,,,,,,-0.5,-0.08,0.22,-15,-12,4,0.51,0,,,,,,,,,,,,,,,,,
56763,0,,,,,,,,-0.5,0.03,0.2,-5,-11,5,0.5,0,,,,,,,,,,,,,,,,,
56803,0,,,,,,,,-0.45,0.05,0.38,5,-7,6,0.46,0,,,,,,,,,,,,,,,,,
56843,0,3,3,44,46,34,44,-38,-0.61,0.11,0.47,15,-6,6,0.62,0,0,0.0,0.0,0.0,0.0,0,0,0.0,0,0.0,-1,0.0,0.0,0.0,0,0.0,0.9474
56883,0,,,,,,,,-0.37,0.16,0.76,22,-8,7,0.4,0,,,,,,,,,,,,,,,,,
56923,0,,,,,,,,-0.57,0.07,0.23,26,-11,8,0.58,0,,,,,,,,,,,,,,,,,
56963,0,,,,,,,,-0.47,0.19,0.43,27,-10,8,0.5,0,,,,,,,,,,,,,,,,,
57003,0,,,,,,,,-0.69,0.24,-0.03,27,-7,6,0.73,0,,,,,,,,,,,,,,,,,
57043,0,1,1,50,43,36,43,-34,-0.44,0.42,0.36,29,6,-2,0.61,0,0,0.0,0.0,0.0,0.0,0,0,0.0,0,0.0,-1,0.0,0.0,0.0,0,0.0,0.9507
57083,0,,,,,,,,-0.36,0.58,0.52,32,-3,2,0.68,0,,,,,,,,,,,,,,,,,
57123,0,,,,,,,,-0.5,0.63,0.36,36,-4,2,0.8,0,,,,,,,,,,,,,,,,,
57163,0,,,,,,,,-0.25,0.74,0.67,40,-2,1,0.78,0,,,,,,,,,,,,,,,,,
57203,0,,,,,,,,-0.32,0.7,0.57,43,2,1,0.77,0,,,,,,,,,,,,,,,,,
57243,0,-0,1,52,44,34,46,-68,-0.34,0.85,0.55,47,-0,2,0.91,0,0,0.0,0.0,0.0,0.0,0,0,0.0,0,0.0,-1,0.0,0.0,0.0,0,0.0,0.954
57283,0,,,,,,,,-0.35,0.89,0.56,53,-2,3,0.96,0,,,,,,,,,,,,,,,,,
57323,0,,,,,,,,-0.35,0.94,0.61,57,3,3,1.01,0,,,,,,,,,,,,,,,,,
57363,0,,,,,,,,-0.22,0.98,0.86,61,7,3,1.01,0,,,,,,,,,,,,,,,,,
57403,0,,,,,,,,-0.27,1.04,0.83,65,3,3,1.07,0,,,,,,,,,,,,,,,,,
57443,0,1,2,54,44,36,47,-67,-0.12,1.04,0.98,69,14,1,1.05,0,0,0.0,0.0,0.0,0.0,0,0,0.0,0,0.0,-1,0.0,0.0,0.0,0,0.0,0.9574
57483,0,,,,,,,,-0.31,1.02,0.85,72,7,4,1.07,0,,,,,,,,,,,,,,,,,
57523,0,,,,,,,,-0.36,0.99,0.71,74,3,2,1.06,0,,,,,,,,,,,,,,,,,
57563,0,,,,,,,,-0.31,1.05,0.82,75,0,3,1.1,0,,,,,,,,,,,,,,,,,
57603,0,,,,,,,,-0.12,1.04,0.99,74,8,-1,1.05,0,,,,,,,,,,,,,,,,,
57643,0,1,2,54,46,34,45,-47,-0.31,1.02,0.57,72,-2,6,1.07,0,0,0.0,0.0,0.0,0.0,0,0,0.0,0,0.0,-1,0.0,0.0,0.0,0,0.0,0.9607
57683,0,,,,,,,,-0.29,0.97,0.53,69,-1,2,1.01,0,,,,,,,,,,,,,,,,,
57723,0,,,,,,,,0.11,0.94,0.81,66,9,-3,0.94,0,,,,,,,,,,,,,,,,,
57763,0,,,,,,,,0.37,0.92,0.83,61,0,4,0.99,0,,,,,,,,,,,,,,,,,
57803,0,,,,,,,,0.26,0.85,0.4,56,-18,13,0.88,0,,,,,,,,,,,,,,,,,
57843,0,1,2,54,50,30,39,-39,0.25,0.82,0.35,52,-7,6,0.85,0,0,0.0,0.0,0.0,0.0,0,0,0.0,0,0.0,-1,0.0,0.0,0.0,0,0.0,0.964
57883,0,,,,,,,,0.19,0.89,0.26,50,-10,8,0.91,0,,,,,,,,,,,,,,,,,
57923,0,,,,,,,,0.01,0.8,0.23,50,5,-1,0.8,0,,,,,,,,,,,,,,,,,
57963,0,,,,,,,,-0.15,0.6,0.13,51,23,-12,0.62,0,,,,,,,,,,,,,,,,,
58003,0,,,,,,,,-0.38,0.53,-0.28,51,14,-6,0.65,0,,,,,,,,,,,,,,,,,
58043,0,0,2,55,48,31,42,-65,-0.43,0.56,-0.61,52,-5,6,0.71,0,0,0.0,0.0,0.0,0.0,0,0,0.0,0,0.0,-1,0.0,0.0,0.0,0,0.0,0.9674
58083,0,,,,,,,,-0.61,0.61,-0.87,53,-14,12,0.86,0,,,,,,,,,,,,,,,,,
58123,0,,,,,,,,-0.42,0.71,-0.61,54,-3,5,0.82,0,,,,,,,,,,,,,,,,,
58163,0,,,,,,,,-0.36,0.73,-0.15,56,2,4,0.82,0,,,,,,,,,,,,,,,,,
58203,0,,,,,,,,-0.41,0.79,0.09,58,2,4,0.89,0,,,,,,,,,,,,,,,,,
58243,0,1,2,54,46,33,46,-55,-0.42,0.81,0.31,60,3,5,0.91,0,0,0.0,0.0,0.0,0.0,0,0,0.0,0,0.0,-1,0.0,0.0,0.0,0,0.0,0.9707
58283,0,,,,,,,,-0.47,0.82,0.37,62,1,5,0.95,0,,,,,,,,,,,,,,,,,
58323,0,,,,,,,,-0.48,0.91,0.39,64,1,6,1.03,0,,,,,,,,,,,,,,,,,
58363,0,,,,,,,,-0.35,0.96,0.64,66,2,5,1.02,0,,,,,,,,,,,,,,,,,
58403,0,,,,,,,,-0.23,0.91,0.55,66,-2,6,0.94,0,,,,,,,,,,,,,,,,,
58443,0,-1,3,53,47,34,45,-33,-0.37,0.79,0.53,65,-8,5,0.87,0,0,0.0,0.0,0.0,0.0,0,0,0.0,0,0.0,-1,0.0,0.0,0.0,0,0.0,0.974
58483,0,,,,,,,,-0.21,0.83,0.81,61,-2,2,0.86,0,,,,,,,,,,,,,,,,,
58523,0,,,,,,,,-0.22,0.89,0.58,57,-16,10,0.92,0,,,,,,,,,,,,,,,,,
58563,0,,,,,,,,0.01,1.05,0.49,55,-22,12,1.05,0,,,,,,,,,,,,,,,,,
58603,0,,,,,,,,-0.05,1.08,0.02,55,-27,16,1.09,0,,,,,,,,,,,,,,,,,
58643,0,0,1,56,51,29,40,-55,0.13,1.06,0.39,55,-4,2,1.06,0,0,0.0,0.0,0.0,0.0,0,0,0.0,0,0.0,-1,0.0,0.0,0.0,0,0.0,0.9774
58683,0,,,,,,,,-0.07,0.95,-0.06,56,-24,16,0.96,0,,,,,,,,,,,,,,,,,
58723,0,,,,,,,,0.19,1.02,0.1,58,-19,16,1.04,0,,,,,,,,,,,,,,,,,
58763,0,,,,,,,,0.07,1.07,0.06,59,-7,11,1.07,0,,,,,,,,,,,,,,,,,
58803,0,,,,,,,,0.26,1.19,0.07,61,3,1,1.21,0,,,,,,,,,,,,,,,,,
58843,0,1,1,57,48,32,44,-57,0.19,1.18,0.07,62,-2,-3,1.2,0,0,0.0,0.0,0.0,0.0,0,0,0.0,0,0.0,-1,0.0,0.0,0.0,0,0.0,0.9807
58883,0,,,,,,,,0.22,1.18,0.08,64,-4,-5,1.2,0,,,,,,,,,,,,,,,,,
58923,0,,,,,,,,-0.18,1.07,-0.32,63,-25,8,1.09,0,,,,,,,,,,,,,,,,,
58963,0,,,,,,,,0.22,1.16,0.12,63,-4,1,1.18,0,,,,,,,,,,,,,,,,,
59003,0,,,,,,,,0.43,1.28,0.48,63,10,-4,1.35,0,,,,,,,,,,,,,,,,,
59043,0,0,1,55,48,34,45,-35,0.18,1.24,0.28,62,0,2,1.25,0,0,0.0,0.0,0.0,0.0,0,0,0.0,0,0.0,-1,0.0,0.0,0.0,0,0.0,0.984
59083,0,,,,,,,,0.13,1.22,0.41,61,-0,1,1.23,0,,,,,,,,,,,,,,,,,
59123,0,,,,,,,,-0.1,1.13,0.35,60,-2,3,1.14,0,,,,,,,,,,,,,,,,,
59163,0,,,,,,,,-0.11,1.15,0.26,60,-3,4,1.16,0,,,,,,,,,,,,,,,,,
59203,0,,,,,,,,0.05,1.15,0.59,59,-1,3,1.15,0,,,,,,,,,,,,,,,,,
59243,0,0,3,55,46,34,46,-50,0.01,1.17,0.67,59,-0,2,1.17,0,0,0.0,0.0,0.0,0.0,0,0,0.0,0,0.0,-1,0.0,0.0,0.0,0,0.0,0.9874
59283,0,,,,,,,,0.01,1.13,0.57,60,1,3,1.13,0,,,,,,,,,,,,,,,,,
59323,0,,,,,,,,-0.05,1.16,0.48,61,4,3,1.17,0,,,,,,,,,,,,,,,,,
59363,0,,,,,,,,-0.14,1.16,0.55,62,0,4,1.17,0,,,,,,,,,,,,,,,,,
59403,0,,,,,,,,-0.26,1.12,0.51,62,-1,4,1.15,0,,,,,,,,,,,,,,,,,
59443,0,0,2,54,46,35,47,-51,-0.33,1.09,0.49,64,-0,4,1.14,0,0,0.0,0.0,0.0,0.0,0,0,0.0,0,0.0,-1,0.0,0.0,0.0,0,0.0,0.9907
59483,0,,,,,,,,-0.36,1.11,0.52,64,-1,5,1.17,0,,,,,,,,,,,,,,,,,
59523,0,,,,,,,,-0.37,1.07,0.7,64,-2,3,1.13,0,,,,,,,,,,,,,,,,,
59563,0,,,,,,,,-0.34,1.04,0.58,64,3,1,1.09,0,,,,,,,,,,,,,,,,,
59603,0,,,,,,,,-0.49,0.96,0.19,62,-2,3,1.08,0,,,,,,,,,,,,,,,,,
59643,0,-1,3,52,46,34,44,-39,-0.22,0.92,0.53,60,5,-3,0.94,0,0,0.0,0.0,0.0,0.0,0,0,0.0,0,0.0,-1,0.0,0.0,0.0,0,0.0,0.994
59683,0,,,,,,,,0.12,0.99,0.81,58,4,-1,1.0,0,,,,,,,,,,,,,,,,,
59723,0,,,,,,,,0.48,1.09,1.03,55,5,-5,1.19,0,,,,,,,,,,,,,,,,,
59763,0,,,,,,,,0.33,0.98,1.08,51,2,-2,1.04,0,,,,,,,,,,,,,,,,,
59803,0,,,,,,,,0.23,0.81,1.01,47,-1,-1,0.84,0,,,,,,,,,,,,,,,,,
59843,0,-0,2,49,49,35,40,-7,0.13,0.56,0.94,42,-2,-1,0.58,0,0,0.0,0.0,0.0,0.0,0,0,0.0,0,0.0,-1,0.0,0.0,0.0,0,0.0,0.9974
59883,0,,,,,,,,0.25,0.39,1.12,35,-2,-1,0.46,0,,,,,,,,,,,,,,,,,
59923,0,,,,,,,,-0.01,0.03,0.53,27,-6,1,0.03,0,,,,,,,,,,,,,,,,,
59963,0,,,,,,,,0.18,-0.09,0.59,19,8,-7,0.21,0,,,,,,,,,,,,,,,,,
60003,0,,,,,,,,0.12,-0.2,0.46,10,4,-4,0.24,0,,,,,,,,,,,,,,,,,
60043,0,0,0,45,55,36,36,52,0.14,-0.37,0.48,2,2,-2,0.39,0,0,0.0,0.0,0.0,0.0,0,0,0.0,0,0.0,-1,0.0,0.0,0.0,0,0.0,1.0007
60083,0,,,,,,,,-0.13,-0.62,0.15,-8,0,-2,0.64,0,,,,,,,,,,,,,,,,,
60123,0,,,,,,,,0.02,-0.72,0.5,-18,16,-12,0.72,0,,,,,,,,,,,,,,,,,
60163,0,,,,,,,,0.26,-0.63,0.78,-27,36,-24,0.68,0,,,,,,,,,,,,,,,,,
60203,0,,,,,,,,0.08,-0.72,0.61,-34,44,-28,0.72,0,,,,,,,,,,,,,,,,,
60243,0,1,0,45,56,40,36,81,0.09,-0.75,0.52,-41,27,-15,0.75,0,0,0.0,0.0,0.0,0.0,0,0,0.0,0,0.0,-1,0.0,0.0,0.0,0,0.0,1.0041
60283,0,,,,,,,,-0.06,-0.87,0.4,-47,30,-20,0.87,0,,,,,,,,,,,,,,,,,
60323,0,,,,,,,,-0.15,-0.93,-0.04,-52,10,-8,0.94,0,,,,,,,,,,,,,,,,,
60363,0,,,,,,,,-0.23,-0.92,-0.41,-56,-6,3,0.95,0,,,,,,,,,,,,,,,,,
60403,0,,,,,,,,-0.51,-1.09,-0.71,-61,-21,13,1.2,0,,,,,,,,,,,,,,,,,
60443,0,1,0,43,55,43,38,91,-0.65,-1.19,-0.75,-65,-21,13,1.35,0,0,0.0,0.0,0.0,0.0,0,0,0.0,0,0.0,-1,0.0,0.0,0.0,0,0.0,1.0074
60483,0,,,,,,,,-0.27,-1.12,-0.23,-68,-5,2,1.15,0,,,,,,,,,,,,,,,,,
60523,0,,,,,,,,-0.04,-1.04,0.2,-70,1,-3,1.05,0,,,,,,,,,,,,,,,,,
60563,0,,,,,,,,0.03,-1.13,0.21,-72,-4,2,1.13,0,,,,,,,,,,,,,,,,,
60603,0,,,,,,,,0.08,-1.22,0.02,-74,-10,6,1.22,0,,,,,,,,,,,,,,,,,
60643,0,0,2,44,54,42,39,41,0.43,-0.87,0.39,-73,3,-1,0.97,0,0,0.0,0.0,0.0,0.0,0,0,0.0,0,0.0,-1,0.0,0.0,0.0,0,0.0,1.0107
60683,0,,,,,,,,0.25,-0.76,0.23,-69,20,-12,0.8,0,,,,,,,,,,,,,,,,,
60723,0,,,,,,,,0.26,-0.63,0.41,-62,32,-19,0.69,0,,,,,,,,,,,,,,,,,
60763,0,,,,,,,,0.21,-0.39,0.47,-53,22,-11,0.44,0,,,,,,,,,,,,,,,,,
60803,0,,,,,,,,0.17,-0.26,0.6,-44,13,-8,0.31,0,,,,,,,,,,,,,,,,,
60843,0,-1,2,49,48,33,39,-10,0.19,-0.08,0.74,-35,10,-6,0.2,0,0,0.0,0.0,0.0,0.0,0,0,0.0,0,0.0,-1,0.0,0.0,0.0,0,0.0,1.0141
60883,0,,,,,,,,0.16,0.07,0.82,-26,8,-5,0.17,0,,,,,,,,,,,,,,,,,
60923,0,,,,,,,,0.07,0.2,0.83,-17,5,-3,0.21,0,,,,,,,,,,,,,,,,,
60963,0,,,,,,,,0.02,0.33,0.89,-8,4,-2,0.33,0,,,,,,,,,,,,,,,,,
61003,0,,,,,,,,-0.05,0.42,0.74,-0,9,-5,0.42,0,,,,,,,,,,,,,,,,,
61043,0,-1,2,50,46,32,44,-40,0.04,0.59,0.79,8,-0,2,0.59,0,0,0.0,0.0,0.0,0.0,0,0,0.0,0,0.0,-1,0.0,0.0,0.0,0,0.0,1.0174
61083,0,,,,,,,,-0.22,0.56,0.29,15,1,2,0.6,0,,,,,,,,,,,,,,,,,
61123,0,,,,,,,,0.07,0.72,0.61,22,9,-1,0.72,0,,,,,,,,,,,,,,,,,
61163,0,,,,,,,,0.03,0.77,0.47,29,-0,3,0.77,0,,,,,,,,,,,,,,,,,
61203,0,,,,,,,,0.0,0.8,0.4,35,3,1,0.8,0,,,,,,,,,,,,,,,,,
61243,0,0,1,52,46,32,43,-51,0.09,0.98,0.6,40,-3,5,0.99,0,0,0.0,0.0,0.0,0.0,0,0,0.0,0,0.0,-1,0.0,0.0,0.0,0,0.0,1.0207
61283,0,,,,,,,,-0.18,0.93,0.16,44,-7,5,0.95,0,,,,,,,,,,,,,,,,,
61323,0,,,,,,,,-0.09,0.96,0.51,48,8,-3,0.97,0,,,,,,,,,,,,,,,,,
61363,0,,,,,,,,-0.01,0.8,0.79,50,33,-15,0.8,0,,,,,,,,,,,,,,,,,
61403,0,,,,,,,,-0.17,0.66,0.62,53,41,-17,0.68,0,,,,,,,,,,,,,,,,,
61443,0,-1,2,53,46,31,44,-50,-0.03,0.76,0.52,57,34,-12,0.76,0,0,0.0,0.0,0.0,0.0,0,0,0.0,0,0.0,-1,0.0,0.0,0.0,0,0.0,1.024
61483,0,,,,,,,,-0.3,0.7,0.04,58,12,-2,0.76,0,,,,,,,,,,,,,,,,,
61523,0,,,,,,,,0.01,0.91,0.24,60,2,2,0.91,0,,,,,,,,,,,,,,,,,
61563,0,,,,,,,,0.13,0.91,0.57,60,17,-10,0.92,0,,,,,,,,,,,,,,,,,
61603,0,,,,,,,,0.03,0.87,0.08,61,-2,0,0.87,0,,,,,,,,,,,,,,,,,
61643,0,1,1,54,49,31,42,-19,0.01,0.76,0.05,59,-1,-1,0.76,0,0,0.0,0.0,0.0,0.0,0,0,0.0,0,0.0,-1,0.0,0.0,0.0,0,0.0,1.0274
61683,0,,,,,,,,0.09,0.63,0.02,54,13,-6,0.63,0,,,,,,,,,,,,,,,,,
61723,0,,,,,,,,0.27,0.52,0.03,44,5,-4,0.59,0,,,,,,,,,,,,,,,,,
61763,0,,,,,,,,0.14,0.36,-0.12,36,9,-8,0.39,0,,,,,,,,,,,,,,,,,
61803,0,,,,,,,,0.2,0.18,-0.08,27,5,-1,0.27,0,,,,,,,,,,,,,,,,,
61843,0,-1,2,47,53,34,34,28,0.15,0.08,-0.08,17,14,-9,0.17,0,0,0.0,0.0,0.0,0.0,0,0,0.0,0,0.0,-1,0.0,0.0,0.0,0,0.0,1.0307
61883,0,,,,,,,,0.2,-0.05,-0.05,10,9,-4,0.21,0,,,,,,,,,,,,,,,,,
61923,0,,,,,,,,-0.04,-0.16,-0.06,1,-1,2,0.16,0,,,,,,,,,,,,,,,,,
61963,0,,,,,,,,-0.01,-0.21,-0.07,-4,9,-2,0.21,0,,,,,,,,,,,,,,,,,
62003,0,,,,,,,,0.19,-0.06,0.04,-6,22,-4,0.2,0,,,,,,,,,,,,,,,,,
62043,0,0,2,49,48,34,36,17,0.39,0.1,0.17,-9,11,-1,0.4,0,0,0.0,0.0,0.0,0.0,0,0,0.0,0,0.0,-1,0.0,0.0,0.0,0,0.0,1.034
62083,0,,,,,,,,0.37,-0.04,0.16,-10,-1,2,0.37,0,,,,,,,,,,,,,,,,,
62123,0,,,,,,,,0.33,-0.15,0.15,-12,-6,4,0.36,0,,,,,,,,,,,,,,,,,
62163,0,,,,,,,,0.31,-0.22,0.14,-11,-4,7,0.38,0,,,,,,,,,,,,,,,,,
62203,0,,,,,,,,0.12,-0.34,-0.21,-11,-3,5,0.36,0,,,,,,,,,,,,,,,,,
62243,0,4,4,46,52,34,37,16,-0.03,-0.26,-0.19,-12,4,1,0.26,0,0,0.0,0.0,0.0,0.0,0,0,0.0,0,0.0,-1,0.0,0.0,0.0,0,0.0,1.0374
62283,0,,,,,,,,-0.04,-0.23,-0.18,-12,14,1,0.24,0,,,,,,,,,,,,,,,,,
62323,0,,,,,,,,0.03,0.0,-0.16,-10,17,-3,0.03,0,,,,,,,,,,,,,,,,,
62363,0,,,,,,,,0.2,0.23,-0.11,-5,11,3,0.3,0,,,,,,,,,,,,,,,,,
62403,0,,,,,,,,0.08,0.44,-0.07,1,-1,9,0.45,0,,,,,,,,,,,,,,,,,
62443,0,1,1,52,45,31,43,-52,0.03,0.51,-0.08,8,8,1,0.51,0,0,0.0,0.0,0.0,0.0,0,0,0.0,0,0.0,-1,0.0,0.0,0.0,0,0.0,1.0407
62483,0,,,,,,,,0.27,0.75,-0.02,16,-7,8,0.8,0,,,,,,,,,,,,,,,,,
62523,0,,,,,,,,0.12,0.92,0.24,24,12,-5,0.93,0,,,,,,,,,,,,,,,,,
62563,0,,,,,,,,-0.15,0.92,0.12,31,18,-11,0.94,0,,,,,,,,,,,,,,,,,
62603,0,,,,,,,,-0.04,1.05,0.47,37,26,-14,1.05,0,,,,,,,,,,,,,,,,,
62643,0,-1,2,52,42,35,47,-67,0.11,1.08,0.69,43,19,-7,1.09,0,0,0.0,0.0,0.0,0.0,0,0,0.0,0,0.0,-1,0.0,0.0,0.0,0,0.0,1.044
62683,0,,,,,,,,-0.1,1.08,0.51,49,14,-6,1.08,0,,,,,,,,,,,,,,,,,
62723,0,,,,,,,,-0.18,1.08,0.52,54,7,-3,1.1,0,,,,,,,,,,,,,,,,,
62763,0,,,,,,,,-0.16,1.18,0.8,58,5,-2,1.19,0,,,,,,,,,,,,,,,,,
62803,0,,,,,,,,-0.08,1.16,1.01,62,7,-2,1.17,0,,,,,,,,,,,,,,,,,
62843,0,0,1,53,41,35,47,-40,-0.34,1.14,0.44,66,-4,4,1.19,0,0,0.0,0.0,0.0,0.0,0,0,0.0,0,0.0,-1,0.0,0.0,0.0,0,0.0,1.0474
62883,0,,,,,,,,-0.66,0.96,-0.03,69,-24,12,1.17,0,,,,,,,,,,,,,,,,,
62923,0,,,,,,,,-0.33,1.0,-0.0,67,-17,9,1.05,0,,,,,,,,,,,,,,,,,
62963,0,,,,,,,,-0.4,1.03,0.02,67,-16,5,1.11,0,,,,,,,,,,,,,,,,,
63003,0,,,,,,,,-0.11,1.17,-0.01,68,-8,4,1.18,0,,,,,,,,,,,,,,,,,
63043,0,-1,2,52,47,31,44,-22,-0.41,1.05,-0.39,68,-36,21,1.13,0,0,0.0,0.0,0.0,0.0,0,0,0.0,0,0.0,-1,0.0,0.0,0.0,0,0.0,1.0507
63083,0,,,,,,,,-0.46,0.88,-0.29,67,-30,15,0.99,0,,,,,,,,,,,,,,,,,
63123,0,,,,,,,,-0.25,0.8,0.14,65,-20,9,0.83,0,,,,,,,,,,,,,,,,,
63163,0,,,,,,,,-0.11,0.69,-0.27,62,-23,14,0.7,0,,,,,,,,,,,,,,,,,
