"Interval"|"ms"|0|0|1,"Utc"|"ms"|0|0|1,"EngineTemp"|"F"|0|300|1,"OilTemp"|"F"|0|300|1,"OilPress"|"PSI"|0|150|25,"Battery"|"Volts"|0.0|20.0|1,"Battery"|"Volts"|0.0|20.0|1,"AccelX"|"G"|-3.0|3.0|25,"AccelY"|"G"|-3.0|3.0|25,"AccelZ"|"G"|-3.0|3.0|25,"Yaw"|"Deg/Sec"|-120|120|25,"Pitch"|"Deg/Sec"|-120|120|25,"Roll"|"Deg/Sec"|-120|120|25,"Gsum"|"G"|0.0|3.0|25,"RPM"|""|0|10000|25,"Latitude"|"Degrees"|-180.0|180.0|10,"Longitude"|"Degrees"|-180.0|180.0|10,"Speed"|"mph"|0.0|150.0|10,"Altitude"|"ft"|0.0|4000.0|10,"GPSSats"|""|0|20|10,"GPSQual"|""|0|5|10,"GPSDOP"|""|0.0|20.0|10,"LapCount"|""|0|0|10,"LapTime"|"Min"|0.0|0.0|10,"Sector"|""|0|0|10,"SectorTime"|"Min"|0.0|0.0|10,"PredTime"|"Min"|0.0|0.0|5,"ElapsedTime"|"Min"|0.0|0.0|10,"CurrentLap"|""|0|0|10,"Distance"|"mi"|0.0|0.0|10,"SessionTime"|"Min"|0.0|0.0|10
207083,1616774826748,,,44,,,-0.69,-0.06,0.67,0,-14,-1,0.69,0,,,,,,,,,,,,,,,,
207123,1616774826788,,,44,,,-0.82,-0.04,0.88,0,-15,-1,0.82,0,,,,,,,,,,,,,,,,
207163,1616774826828,,,45,,,-0.7,-0.13,0.69,0,-8,1,0.71,0,,,,,,,,,,,,,,,,
207203,1616774826868,,,44,,,-0.74,-0.13,0.54,-0,-11,1,0.75,0,,,,,,,,,,,,,,,,
207243,1616774826908,,,45,,,-0.65,-0.1,0.42,0,-4,-1,0.66,0,45.846226,5.18006,44.4,763.5,6,2,2.5,0,0.0,-1,0.0,0.0,0.0,0,0.08,3.4541
207283,1616774826948,,,44,,,-0.63,-0.09,0.72,0,-4,-2,0.64,0,,,,,,,,,,,,,,,,
207323,1616774826988,,,44,,,-0.51,-0.03,0.63,0,-4,-0,0.51,0,,,,,,,,,,,,,,,,
207363,1616774827022,,,44,,,-0.61,-0.08,0.49,0,-0,-5,0.61,0,,,,,,,,,,,,,,,,
207403,1616774827062,,,44,,,-0.49,0.02,0.41,1,-9,4,0.49,0,,,,,,,,,,,,,,,,
207443,1616774827106,,,44,,,-0.42,0.05,0.71,0,-5,5,0.42,0,45.846207,5.180096,39.88,762.6,6,2,2.0,0,0.0,-1,0.0,0.0,0.0,0,0.08,3.4574
207483,1616774827146,,,44,,,-0.33,0.02,0.96,0,5,-4,0.33,0,,,,,,,,,,,,,,,,
207523,1616774827186,,,44,,,-0.29,0.08,1.16,0,14,-13,0.3,0,,,,,,,,,,,,,,,,
207563,1616774827228,,,43,,,-0.23,0.06,1.31,0,25,-18,0.24,0,,,,,,,,,,,,,,,,
207603,1616774827268,,,44,,,-0.0,-0.05,1.44,0,18,-10,0.05,0,,,,,,,,,,,,,,,,
207643,1616774827305,,,41,,,-0.21,-0.01,0.79,0,1,-0,0.21,0,45.846188,5.180125,37.14,761.5,6,2,2.0,0,0.0,-1,0.0,0.0,0.0,0,0.09,3.4607
207683,1616774827345,,,44,,,-0.29,-0.03,0.89,-1,16,-10,0.29,0,,,,,,,,,,,,,,,,
207723,1616774827385,,,42,,,-0.28,0.02,0.63,-0,-1,1,0.29,0,,,,,,,,,,,,,,,,
207763,1616774827427,,,44,,,-0.31,0.05,0.53,-0,11,-8,0.32,0,,,,,,,,,,,,,,,,
207803,1616774827467,,,42,,,-0.26,-0.04,0.09,-1,-4,1,0.26,0,,,,,,,,,,,,,,,,
207843,1616774827507,,,44,,,-0.29,-0.03,0.09,-1,7,-8,0.29,0,45.846176,5.180147,34.29,760.9,6,2,2.5,0,0.0,-1,0.0,0.0,0.0,0,0.09,3.4641
207883,1616774827547,,,42,,,-0.19,-0.06,0.05,-1,-7,2,0.2,0,,,,,,,,,,,,,,,,
207923,1616774827587,,,42,,,-0.01,0.01,0.21,-0,3,-1,0.01,0,,,,,,,,,,,,,,,,
207963,1616774827627,,,42,,,-0.15,0.01,-0.18,-0,-1,0,0.15,0,,,,,,,,,,,,,,,,
208003,1616774827667,,,42,,,-0.12,0.01,-0.16,-0,2,-1,0.12,0,,,,,,,,,,,,,,,,
208043,1616774827707,302,147,42,0.33,13.62,-0.04,0.03,-0.08,0,6,-4,0.05,0,45.846165,5.180166,31.76,760.0,6,2,2.5,0,0.0,-1,0.0,0.0,0.0,0,0.09,3.4674
208083,1616774827747,,,42,,,-0.02,0.02,-0.04,0,-1,1,0.03,0,,,,,,,,,,,,,,,,
208123,1616774827787,,,44,,,-0.16,0.1,-0.06,1,-1,1,0.19,0,,,,,,,,,,,,,,,,
208163,1616774827827,,,43,,,0.04,0.04,0.33,1,6,-1,0.06,0,,,,,,,,,,,,,,,,
208203,1616774827867,,,43,,,-0.29,0.06,-0.11,2,-3,2,0.29,0,,,,,,,,,,,,,,,,
208243,1616774827907,,,44,,,-0.35,0.09,-0.27,2,-18,8,0.36,0,45.846149,5.180186,29.8,759.2,6,2,2.0,0,0.0,-1,0.0,0.0,0.0,0,0.09,3.4707
208283,1616774827947,,,44,,,-0.57,0.13,-0.58,3,-27,10,0.58,0,,,,,,,,,,,,,,,,
208323,1616774827987,,,42,,,-0.43,0.19,-0.21,4,-19,7,0.47,0,,,,,,,,,,,,,,,,
208363,1616774828021,,,44,,,-0.56,0.2,0.04,5,-17,5,0.6,0,,,,,,,,,,,,,,,,
208403,1616774828061,,,44,,,-0.37,0.2,0.41,6,-13,5,0.42,0,,,,,,,,,,,,,,,,
208443,1616774828107,,,43,,,-0.31,0.07,0.18,6,-19,9,0.32,0,45.846138,5.180212,27.7,758.2,6,2,2.0,0,0.0,-1,0.0,0.0,0.0,0,0.09,3.4741
208483,1616774828147,,,43,,,-0.47,0.01,-0.23,7,-29,13,0.47,0,,,,,,,,,,,,,,,,
208523,1616774828187,,,44,,,-0.66,0.07,-0.28,8,-29,12,0.66,0,,,,,,,,,,,,,,,,
208563,1616774828227,,,44,,,-0.36,0.22,0.15,9,-14,4,0.42,0,,,,,,,,,,,,,,,,
208603,1616774828267,,,44,,,-0.36,0.2,0.16,10,-19,7,0.42,0,,,,,,,,,,,,,,,,
208643,1616774828306,,,44,,,-0.52,0.19,0.11,11,-16,7,0.55,0,45.846127,5.180237,26.31,757.5,6,2,2.0,0,0.0,-1,0.0,0.0,0.0,0,0.09,3.4774
208683,1616774828346,,,42,,,-0.24,0.26,0.35,13,-10,5,0.36,0,,,,,,,,,,,,,,,,
208723,1616774828386,,,44,,,-0.18,0.29,0.32,15,-3,3,0.34,0,,,,,,,,,,,,,,,,
208763,1616774828426,,,44,,,-0.17,0.39,0.42,17,-3,3,0.42,0,,,,,,,,,,,,,,,,
208803,1616774828466,,,44,,,-0.21,0.42,0.46,19,-5,4,0.47,0,,,,,,,,,,,,,,,,
208843,1616774828506,,,44,,,-0.24,0.47,0.48,22,-5,3,0.53,0,45.846108,5.180258,24.65,756.7,6,2,2.0,0,0.0,-1,0.0,0.0,0.0,0,0.1,3.4807
208883,1616774828546,,,44,,,-0.17,0.53,0.43,25,-3,3,0.55,0,,,,,,,,,,,,,,,,
208923,1616774828586,,,44,,,-0.24,0.54,0.34,28,-2,2,0.59,0,,,,,,,,,,,,,,,,
208963,1616774828626,,,43,,,-0.13,0.58,0.46,31,-4,4,0.6,0,,,,,,,,,,,,,,,,
209003,1616774828666,,,44,,,-0.13,0.61,0.39,34,-5,4,0.62,0,,,,,,,,,,,,,,,,
209043,1616774828706,302,146,43,0.33,13.68,-0.17,0.68,0.5,37,-3,4,0.7,0,45.846104,5.180273,23.56,756.4,6,2,2.0,0,0.0,-1,0.0,0.0,0.0,0,0.1,3.4841
209083,1616774828746,,,43,,,-0.27,0.73,0.45,40,1,3,0.78,0,,,,,,,,,,,,,,,,
209123,1616774828786,,,44,,,-0.21,0.68,0.4,43,4,3,0.71,0,,,,,,,,,,,,,,,,
209163,1616774828826,,,44,,,-0.09,0.67,0.68,45,3,3,0.67,0,,,,,,,,,,,,,,,,
209203,1616774828866,,,43,,,-0.12,0.73,0.66,48,-2,4,0.74,0,,,,,,,,,,,,,,,,
209243,1616774828906,,,44,,,-0.17,0.74,0.64,50,4,2,0.76,0,45.846088,5.180283,22.55,755.6,6,2,2.0,0,0.0,-1,0.0,0.0,0.0,0,0.1,3.4874
209283,1616774828946,,,44,,,-0.11,0.79,0.67,53,-7,4,0.79,0,,,,,,,,,,,,,,,,
209323,1616774828986,,,44,,,-0.25,0.81,0.66,55,-1,2,0.85,0,,,,,,,,,,,,,,,,
209363,1616774829022,,,44,,,-0.15,0.88,0.76,56,-11,5,0.89,0,,,,,,,,,,,,,,,,
209403,1616774829062,,,44,,,-0.03,0.85,0.9,57,5,2,0.85,0,,,,,,,,,,,,,,,,
209443,1616774829106,,,44,,,-0.31,0.82,1.02,59,-9,4,0.88,0,45.846081,5.180295,20.42,754.6,6,2,2.0,0,0.0,-1,0.0,0.0,0.0,0,0.1,3.4907
209483,1616774829146,,,44,,,0.13,0.81,0.58,59,-2,4,0.82,0,,,,,,,,,,,,,,,,
209523,1616774829186,,,44,,,-0.06,0.87,0.81,59,15,1,0.87,0,,,,,,,,,,,,,,,,
209563,1616774829227,,,43,,,-0.42,0.87,1.0,60,-9,4,0.97,0,,,,,,,,,,,,,,,,
209603,1616774829267,,,44,,,-0.1,0.85,0.62,60,-18,6,0.85,0,,,,,,,,,,,,,,,,
209643,1616774829305,,,44,,,0.31,0.83,0.17,60,10,4,0.88,0,45.846069,5.180306,18.15,754.2,6,2,2.0,0,0.0,-1,0.0,0.0,0.0,0,0.1,3.4941
209683,1616774829345,,,44,,,0.32,0.87,0.52,60,39,-0,0.93,0,,,,,,,,,,,,,,,,
209723,1616774829385,,,44,,,-0.09,0.86,0.8,60,40,-2,0.87,0,,,,,,,,,,,,,,,,
209763,1616774829425,,,44,,,-0.45,0.89,1.03,60,15,0,1.0,0,,,,,,,,,,,,,,,,
209803,1616774829465,,,44,,,-0.74,0.96,1.21,60,-16,3,1.21,0,,,,,,,,,,,,,,,,
209843,1616774829507,,,44,,,-0.97,0.97,1.36,59,-46,6,1.37,0,45.846066,5.180307,16.17,754.1,6,2,2.0,0,0.0,-1,0.0,0.0,0.0,0,0.1,3.4974
209883,1616774829547,,,44,,,-1.16,0.95,1.48,61,-80,10,1.5,0,,,,,,,,,,,,,,,,
209923,1616774829587,,,44,,,-1.22,0.96,1.11,62,-98,12,1.55,0,,,,,,,,,,,,,,,,
209963,1616774829627,,,44,,,-0.73,0.94,0.52,63,-90,11,1.19,0,,,,,,,,,,,,,,,,
210003,1616774829667,,,43,,,-0.2,0.94,0.04,64,-59,11,0.96,0,,,,,,,,,,,,,,,,
210043,1616774829707,302,143,45,0.33,13.75,0.22,0.87,-0.35,65,-18,10,0.9,0,45.846058,5.180303,14.38,754.1,6,2,2.0,0,0.0,-1,0.0,0.0,0.0,0,0.1,3.5007
210083,1616774829747,,,44,,,0.57,0.74,-0.66,66,25,5,0.93,0,,,,,,,,,,,,,,,,
210123,1616774829787,,,44,,,0.85,0.75,-0.92,67,58,3,1.13,0,,,,,,,,,,,,,,,,
210163,1616774829827,,,44,,,1.07,0.78,-0.87,67,80,0,1.32,0,,,,,,,,,,,,,,,,
210203,1616774829867,,,44,,,1.25,0.77,-1.07,67,99,-0,1.47,0,,,,,,,,,,,,,,,,
210243,1616774829907,,,44,,,1.4,0.78,-1.24,68,114,-2,1.6,0,45.84605,5.180303,13.18,753.8,6,2,2.0,0,0.0,-1,0.0,0.0,0.0,0,0.1,3.504
210283,1616774829947,,,45,,,1.52,0.73,-1.39,68,122,-1,1.69,0,,,,,,,,,,,,,,,,
210323,1616774829987,,,44,,,1.62,0.67,-1.51,68,127,-0,1.75,0,,,,,,,,,,,,,,,,
210363,1616774830021,,,44,,,1.7,0.63,-1.6,68,124,1,1.81,0,,,,,,,,,,,,,,,,
210403,1616774830061,,,44,,,1.67,0.65,-1.68,68,110,4,1.8,0,,,,,,,,,,,,,,,,
210443,1616774830105,,,44,,,1.54,0.69,-1.74,68,91,5,1.69,0,45.846035,5.180296,14.5,753.0,6,2,3.5,0,0.0,-1,0.0,0.0,0.0,0,0.1,3.5074
210483,1616774830145,,,43,,,1.35,0.72,-1.79,68,73,5,1.53,0,,,,,,,,,,,,,,,,
210523,1616774830185,,,44,,,1.36,0.71,-1.83,68,56,6,1.54,0,,,,,,,,,,,,,,,,
210563,1616774830227,,,44,,,1.49,0.7,-1.86,68,44,6,1.65,0,,,,,,,,,,,,,,,,
210603,1616774830267,,,44,,,1.6,0.66,-1.89,68,54,7,1.73,0,,,,,,,,,,,,,,,,
210643,1616774830306,,,43,,,1.64,0.65,-1.69,68,75,4,1.76,0,45.84602,5.180285,16.11,752.3,6,2,3.5,0,0.0,-1,0.0,0.0,0.0,0,0.11,3.5107
210683,1616774830346,,,44,,,1.04,0.67,-0.99,68,75,3,1.24,0,,,,,,,,,,,,,,,,
210723,1616774830386,,,44,,,0.92,0.72,-0.44,69,52,5,1.17,0,,,,,,,,,,,,,,,,
210763,1616774830426,,,43,,,0.62,0.74,-0.47,69,40,5,0.96,0,,,,,,,,,,,,,,,,
210803,1616774830466,,,44,,,0.49,0.74,-0.38,70,31,5,0.89,0,,,,,,,,,,,,,,,,
210843,1616774830506,,,44,,,0.4,0.84,-0.18,71,24,6,0.93,0,45.846004,5.180274,16.35,751.4,6,2,3.5,0,0.0,-1,0.0,0.0,0.0,0,0.11,3.514
210883,1616774830546,,,44,,,0.34,0.86,-0.03,71,20,6,0.93,0,,,,,,,,,,,,,,,,
210923,1616774830586,,,43,,,0.4,0.79,0.31,71,19,5,0.89,0,,,,,,,,,,,,,,,,
210963,1616774830626,,,44,,,0.28,0.78,0.29,72,17,5,0.82,0,,,,,,,,,,,,,,,,
211003,1616774830666,,,44,,,0.15,0.81,0.12,73,8,7,0.82,0,,,,,,,,,,,,,,,,
211043,1616774830706,302,144,44,0.33,13.72,0.29,0.99,0.43,73,14,3,1.03,0,45.845993,5.180257,16.0,751.0,6,2,3.5,0,0.0,-1,0.0,0.0,0.0,0,0.11,3.5174
211083,1616774830746,,,43,,,0.23,0.96,0.23,73,7,5,0.98,0,,,,,,,,,,,,,,,,
211123,1616774830786,,,43,,,0.33,1.06,0.52,74,14,2,1.11,0,,,,,,,,,,,,,,,,
211163,1616774830828,,,43,,,0.36,0.84,0.4,73,3,6,0.91,0,,,,,,,,,,,,,,,,
211203,1616774830868,,,44,,,0.32,0.99,-0.06,72,-8,9,1.04,0,,,,,,,,,,,,,,,,
211243,1616774830908,,,43,,,0.33,1.08,-0.31,71,-18,14,1.13,0,45.845985,5.180244,14.37,750.8,6,2,3.5,0,0.0,-1,0.0,0.0,0.0,0,0.11,3.5207
211283,1616774830948,,,44,,,0.41,0.98,-0.28,69,-11,8,1.07,0,,,,,,,,,,,,,,,,
211323,1616774830988,,,42,,,0.62,0.95,0.1,67,-7,5,1.14,0,,,,,,,,,,,,,,,,
211363,1616774831022,,,43,,,0.6,0.96,0.1,64,-8,8,1.14,0,,,,,,,,,,,,,,,,
211403,1616774831062,,,44,,,0.61,0.87,-0.28,62,-8,9,1.07,0,,,,,,,,,,,,,,,,
211443,1616774831108,,,44,,,0.65,0.87,-0.13,59,2,6,1.09,0,45.845982,5.180231,12.13,750.1,6,2,2.0,0,0.0,-1,0.0,0.0,0.0,0,0.11,3.524
211483,1616774831148,,,42,,,0.49,0.78,-0.08,55,-2,1,0.92,0,,,,,,,,,,,,,,,,
211523,1616774831188,,,43,,,0.56,0.71,-0.09,50,-10,9,0.9,0,,,,,,,,,,,,,,,,
211563,1616774831226,,,41,,,0.61,0.67,0.06,43,-1,1,0.91,0,,,,,,,,,,,,,,,,
211603,1616774831266,,,42,,,0.51,0.62,-0.33,37,-14,11,0.8,0,,,,,,,,,,,,,,,,
211643,1616774831307,,,44,,,0.33,0.56,-0.65,31,-28,17,0.64,0,45.845982,5.180206,11.74,750.0,6,2,3.5,0,0.0,-1,0.0,0.0,0.0,0,0.11,3.5274
211683,1616774831347,,,43,,,0.13,0.47,-0.51,25,-26,14,0.49,0,,,,,,,,,,,,,,,,
211723,1616774831387,,,42,,,0.45,0.37,-0.03,19,-7,-0,0.58,0,,,,,,,,,,,,,,,,
211763,1616774831427,,,43,,,0.68,0.3,0.35,16,7,-8,0.75,0,,,,,,,,,,,,,,,,
211803,1616774831467,,,43,,,0.72,0.25,0.58,14,8,-10,0.76,0,,,,,,,,,,,,,,,,
211843,1616774831507,,,43,,,0.77,0.26,0.49,12,6,-8,0.81,0,45.845982,5.180187,11.07,750.0,6,2,3.5,0,0.0,-1,0.0,0.0,0.0,0,0.11,3.5307
211883,1616774831547,,,43,,,0.75,0.2,0.41,11,7,-6,0.77,0,,,,,,,,,,,,,,,,
211923,1616774831587,,,42,,,0.75,0.24,0.35,10,3,-3,0.79,0,,,,,,,,,,,,,,,,
211963,1616774831625,,,42,,,0.8,0.34,0.67,9,-4,-6,0.87,0,,,,,,,,,,,,,,,,
212003,1616774831665,,,42,,,0.7,0.31,0.92,9,-4,-7,0.77,0,,,,,,,,,,,,,,,,
212043,1616774831707,302,146,43,0.33,13.66,0.77,0.34,1.12,9,-2,-8,0.85,0,45.845985,5.180166,11.85,750.0,6,2,3.5,0,0.0,-1,0.0,0.0,0.0,0,0.11,3.534
212083,1616774831747,,,43,,,0.69,0.39,1.29,8,-0,-8,0.79,0,,,,,,,,,,,,,,,,
212123,1616774831787,,,41,,,0.69,0.32,0.99,8,-2,-5,0.76,0,,,,,,,,,,,,,,,,
212163,1616774831827,,,41,,,0.77,0.37,1.09,8,1,-4,0.85,0,,,,,,,,,,,,,,,,
212203,1616774831867,,,43,,,0.77,0.3,0.86,8,-1,-0,0.82,0,,,,,,,,,,,,,,,,
212243,1616774831907,,,43,,,0.83,0.44,0.31,8,-3,3,0.94,0,45.845989,5.180137,15.11,750.0,6,2,3.5,0,0.0,-1,0.0,0.0,0.0,0,0.11,3.5374
212283,1616774831947,,,42,,,0.83,0.2,0.42,8,-3,1,0.85,0,,,,,,,,,,,,,,,,
212323,1616774831987,,,42,,,0.89,0.2,0.12,8,-2,1,0.91,0,,,,,,,,,,,,,,,,
212363,1616774832023,,,42,,,0.93,0.28,-0.29,8,-2,6,0.97,0,,,,,,,,,,,,,,,,
212403,1616774832063,,,43,,,1.01,0.18,0.15,8,3,2,1.02,0,,,,,,,,,,,,,,,,
212443,1616774832107,,,42,,,0.82,0.17,-0.26,8,0,4,0.83,0,45.845997,5.180107,17.71,750.0,6,2,6.9,0,0.0,-1,0.0,0.0,0.0,0,0.11,3.5407
212483,1616774832147,,,42,,,0.9,0.24,-0.23,7,-3,4,0.94,0,,,,,,,,,,,,,,,,
212523,1616774832187,,,43,,,0.87,0.34,-0.21,7,-1,4,0.93,0,,,,,,,,,,,,,,,,
212563,1616774832227,,,42,,,0.92,0.29,-0.08,6,0,2,0.97,0,,,,,,,,,,,,,,,,
212603,1616774832267,,,43,,,0.83,0.28,-0.0,6,-2,2,0.87,0,,,,,,,,,,,,,,,,
212643,1616774832306,,,42,,,0.69,0.3,0.11,6,1,0,0.75,0,45.846008,5.180078,20.25,750.0,6,2,6.9,0,0.0,-1,0.0,0.0,0.0,0,0.11,3.544
212683,1616774832346,,,43,,,0.8,0.3,0.46,5,4,-3,0.85,0,,,,,,,,,,,,,,,,
212723,1616774832386,,,44,,,1.01,0.37,0.76,4,5,-1,1.08,0,,,,,,,,,,,,,,,,
212763,1616774832426,,,44,,,0.91,0.38,0.99,5,9,-2,0.99,0,,,,,,,,,,,,,,,,
212803,1616774832466,,,44,,,0.61,0.39,0.42,4,6,3,0.72,0,,,,,,,,,,,,,,,,
212843,1616774832508,,,43,,,0.68,0.26,0.59,4,-3,3,0.73,0,45.846016,5.180049,23.05,750.0,6,2,6.9,0,0.0,-1,0.0,0.0,0.0,0,0.11,3.5474
212883,1616774832548,,,44,,,0.79,0.22,0.86,5,-1,2,0.82,0,,,,,,,,,,,,,,,,
212923,1616774832588,,,43,,,0.68,0.27,0.7,5,1,2,0.73,0,,,,,,,,,,,,,,,,
212963,1616774832628,,,43,,,0.49,0.28,0.26,5,-3,4,0.57,0,,,,,,,,,,,,,,,,
213003,1616774832668,,,44,,,0.27,0.25,0.46,4,-13,7,0.36,0,,,,,,,,,,,,,,,,
213043,1616774832708,302,147,42,0.33,13.68,0.29,0.2,0.54,4,-15,7,0.35,0,45.846031,5.180017,25.69,749.9,6,2,6.9,0,0.0,-1,0.0,0.0,0.0,0,0.12,3.5507
213083,1616774832748,,,43,,,0.48,0.21,0.81,3,-11,6,0.52,0,,,,,,,,,,,,,,,,
213123,1616774832788,,,43,,,0.37,0.15,0.38,3,-10,5,0.4,0,,,,,,,,,,,,,,,,
213163,1616774832828,,,42,,,0.43,0.22,0.36,2,-9,5,0.49,0,,,,,,,,,,,,,,,,
213203,1616774832868,,,43,,,0.43,0.27,0.49,2,-13,5,0.51,0,,,,,,,,,,,,,,,,
213243,1616774832908,,,43,,,0.45,0.32,0.01,2,-11,7,0.55,0,45.84605,5.179982,28.74,750.0,6,2,4.3,0,0.0,-1,0.0,0.0,0.0,0,0.12,3.554
213283,1616774832948,,,42,,,0.41,0.2,-0.31,1,-15,10,0.46,0,,,,,,,,,,,,,,,,
213323,1616774832988,,,43,,,0.41,0.17,-0.33,1,-16,10,0.45,0,,,,,,,,,,,,,,,,
213363,1616774833022,,,43,,,0.24,0.16,-0.65,0,-15,10,0.29,0,,,,,,,,,,,,,,,,
213403,1616774833062,,,43,,,0.4,0.12,-0.5,-0,-12,10,0.41,0,,,,,,,,,,,,,,,,
213443,1616774833108,,,43,,,0.61,0.02,-0.03,-1,-11,8,0.61,0,45.846073,5.179948,32.56,749.9,6,2,5.5,0,0.0,-1,0.0,0.0,0.0,0,0.12,3.5574
213483,1616774833148,,,43,,,0.56,-0.0,0.29,-2,-14,10,0.56,0,,,,,,,,,,,,,,,,
213523,1616774833188,,,42,,,0.43,-0.1,-0.09,-3,-14,13,0.44,0,,,,,,,,,,,,,,,,
213563,1616774833228,,,43,,,0.55,-0.23,-0.11,-4,-10,8,0.6,0,,,,,,,,,,,,,,,,
213603,1616774833268,,,42,,,0.62,-0.23,0.1,-4,-6,4,0.66,0,,,,,,,,,,,,,,,,
213643,1616774833307,,,43,,,0.69,-0.33,0.06,-5,-5,5,0.77,0,45.846104,5.179916,35.78,749.9,6,2,2.5,0,0.0,-1,0.0,0.0,0.0,0,0.12,3.5607
213683,1616774833347,,,43,,,0.71,-0.21,0.22,-5,-3,1,0.75,0,,,,,,,,,,,,,,,,
213723,1616774833387,,,43,,,0.7,-0.37,0.52,-5,-5,-1,0.8,0,,,,,,,,,,,,,,,,
213763,1616774833427,,,44,,,0.62,-0.3,0.3,-5,-3,-1,0.69,0,,,,,,,,,,,,,,,,
213803,1616774833467,,,43,,,0.39,-0.22,0.39,-5,-3,-0,0.45,0,,,,,,,,,,,,,,,,
213843,1616774833507,,,43,,,0.32,-0.16,0.64,-4,-0,0,0.35,0,45.84613,5.17988,38.52,749.7,6,2,2.5,0,0.0,-1,0.0,0.0,0.0,0,0.12,3.564
213883,1616774833547,,,44,,,0.25,-0.19,0.5,-3,1,1,0.31,0,,,,,,,,,,,,,,,,
213923,1616774833587,,,43,,,0.39,-0.13,0.6,-3,4,-3,0.41,0,,,,,,,,,,,,,,,,
213963,1616774833627,,,43,,,0.36,-0.18,0.16,-3,-1,-2,0.4,0,,,,,,,,,,,,,,,,
214003,1616774833667,,,42,,,0.36,-0.07,0.31,-2,-4,-2,0.36,0,,,,,,,,,,,,,,,,
214043,1616774833707,302,141,43,0.34,13.64,0.33,0.0,0.54,-2,-0,-5,0.33,0,45.846157,5.179841,41.35,749.6,6,2,2.5,0,0.0,-1,0.0,0.0,0.0,0,0.13,3.5674
214083,1616774833747,,,44,,,0.47,0.03,0.42,-1,-3,-1,0.47,0,,,,,,,,,,,,,,,,
214123,1616774833787,,,43,,,0.46,-0.08,-0.01,-1,-7,4,0.47,0,,,,,,,,,,,,,,,,
214163,1616774833827,,,44,,,0.27,-0.35,0.09,-2,-10,7,0.44,0,,,,,,,,,,,,,,,,
214203,1616774833867,,,42,,,0.3,-0.43,0.44,-2,-8,6,0.52,0,,,,,,,,,,,,,,,,
214243,1616774833907,,,44,,,0.3,-0.53,0.32,-2,-7,6,0.61,0,45.846188,5.179799,44.2,749.4,6,2,2.5,0,0.0,-1,0.0,0.0,0.0,0,0.13,3.5707
214283,1616774833947,,,43,,,0.24,-0.66,0.52,-1,-5,5,0.7,0,,,,,,,,,,,,,,,,
214323,1616774833987,,,45,,,0.16,-0.81,0.53,-1,-6,8,0.83,0,,,,,,,,,,,,,,,,
214363,1616774834023,,,45,,,0.24,-0.82,0.24,-1,-9,11,0.85,0,,,,,,,,,,,,,,,,
214403,1616774834063,,,44,,,0.18,-0.8,0.32,-1,-6,11,0.82,0,,,,,,,,,,,,,,,,
214443,1616774834105,,,47,,,0.06,-0.56,0.28,-1,-1,8,0.57,0,45.846222,5.179749,48.92,750.5,6,2,2.0,0,0.0,-1,0.0,0.0,0.0,0,0.13,3.574
214483,1616774834145,,,44,,,0.18,-0.46,0.24,-2,2,8,0.5,0,,,,,,,,,,,,,,,,
214523,1616774834185,,,44,,,0.21,-0.36,-0.19,-2,-6,11,0.42,0,,,,,,,,,,,,,,,,
214563,1616774834227,,,44,,,0.28,-0.3,-0.14,-3,-7,11,0.41,0,,,,,,,,,,,,,,,,
214603,1616774834267,,,45,,,0.44,-0.19,0.27,-4,-4,3,0.48,0,,,,,,,,,,,,,,,,
214643,1616774834306,,,44,,,0.61,-0.12,0.49,-5,-2,0,0.63,0,45.846252,5.179702,51.43,751.1,6,2,2.0,0,0.0,-1,0.0,0.0,0.0,0,0.13,3.5774
214683,1616774834346,,,44,,,0.66,-0.25,0.75,-6,-2,-1,0.7,0,,,,,,,,,,,,,,,,
214723,1616774834386,,,44,,,0.55,-0.38,0.54,-6,-7,3,0.67,0,,,,,,,,,,,,,,,,
214763,1616774834428,,,44,,,0.38,-0.44,0.06,-6,-11,7,0.58,0,,,,,,,,,,,,,,,,
214803,1616774834468,,,45,,,0.27,-0.44,-0.33,-6,-10,8,0.52,0,,,,,,,,,,,,,,,,
214843,1616774834508,,,44,,,0.36,-0.29,0.11,-6,-9,4,0.46,0,45.846287,5.179654,54.15,750.9,6,2,2.0,0,0.0,-1,0.0,0.0,0.0,0,0.14,3.5807
214883,1616774834548,,,44,,,0.48,-0.32,0.07,-6,-7,6,0.58,0,,,,,,,,,,,,,,,,
214923,1616774834588,,,43,,,0.46,-0.25,0.43,-5,-9,4,0.53,0,,,,,,,,,,,,,,,,
214963,1616774834628,,,44,,,0.32,-0.22,-0.03,-4,-11,5,0.38,0,,,,,,,,,,,,,,,,
215003,1616774834668,,,43,,,0.38,-0.23,0.36,-3,-9,4,0.45,0,,,,,,,,,,,,,,,,
215043,1616774834708,302,137,45,0.34,13.62,0.35,-0.17,0.49,-2,-2,-0,0.38,0,45.846321,5.179605,55.89,751.2,6,2,2.0,0,0.0,-1,0.0,0.0,0.0,0,0.14,3.584
215083,1616774834748,,,45,,,0.32,-0.17,0.37,-2,-7,1,0.36,0,,,,,,,,,,,,,,,,
215123,1616774834788,,,44,,,0.28,-0.04,0.42,-2,-4,1,0.28,0,,,,,,,,,,,,,,,,
215163,1616774834828,,,43,,,0.3,-0.01,0.4,-2,2,0,0.3,0,,,,,,,,,,,,,,,,
215203,1616774834868,,,45,,,0.49,-0.13,0.34,-2,2,3,0.51,0,,,,,,,,,,,,,,,,
215243,1616774834908,,,44,,,0.37,-0.03,0.3,-1,1,2,0.38,0,45.846352,5.179555,57.53,751.5,6,2,2.0,0,0.0,-1,0.0,0.0,0.0,0,0.14,3.5874
215283,1616774834948,,,43,,,0.28,-0.11,0.16,-1,-3,3,0.3,0,,,,,,,,,,,,,,,,
215323,1616774834988,,,45,,,0.3,-0.19,0.44,-1,-1,2,0.35,0,,,,,,,,,,,,,,,,
215363,1616774835020,,,45,,,0.38,-0.18,0.74,-1,3,-0,0.42,0,,,,,,,,,,,,,,,,
215403,1616774835060,,,45,,,0.37,-0.22,0.64,-2,-0,-2,0.43,0,,,,,,,,,,,,,,,,
215443,1616774835108,,,44,,,0.22,-0.15,0.14,-1,4,-1,0.27,0,45.846386,5.179502,59.4,751.2,6,2,2.0,0,0.0,-1,0.0,0.0,0.0,0,0.15,3.5907
215483,1616774835148,,,44,,,0.35,0.04,0.2,-1,3,-2,0.35,0,,,,,,,,,,,,,,,,
215523,1616774835188,,,44,,,0.32,-0.01,0.08,0,-2,2,0.32,0,,,,,,,,,,,,,,,,
215563,1616774835228,,,44,,,0.33,0.09,0.41,1,-1,-1,0.34,0,,,,,,,,,,,,,,,,
215603,1616774835268,,,44,,,0.14,0.07,0.4,2,5,-6,0.16,0,,,,,,,,,,,,,,,,
215643,1616774835307,,,44,,,0.22,0.23,0.7,0,3,-6,0.32,0,45.846416,5.179449,59.78,751.8,6,2,2.0,0,0.0,-1,0.0,0.0,0.0,0,0.15,3.594
215683,1616774835347,,,46,,,0.27,0.26,0.28,-2,-2,-0,0.38,0,,,,,,,,,,,,,,,,
215723,1616774835387,,,43,,,0.25,-0.09,-0.15,-5,-11,5,0.26,0,,,,,,,,,,,,,,,,
215763,1616774835427,,,45,,,0.19,-0.44,-0.02,-6,-14,8,0.48,0,,,,,,,,,,,,,,,,
215803,1616774835467,,,44,,,0.24,-0.5,-0.06,-7,-14,9,0.55,0,,,,,,,,,,,,,,,,
215843,1616774835507,,,46,,,0.42,-0.62,-0.01,-8,-10,3,0.75,0,45.846451,5.179391,61.73,751.8,6,2,2.0,0,0.0,-1,0.0,0.0,0.0,0,0.15,3.5974
215883,1616774835547,,,46,,,0.36,-0.8,0.26,-9,-9,2,0.88,0,,,,,,,,,,,,,,,,
215923,1616774835587,,,45,,,0.38,-0.9,0.07,-11,-10,3,0.98,0,,,,,,,,,,,,,,,,
215963,1616774835627,,,47,,,0.35,-0.87,-0.32,-11,-9,4,0.94,0,,,,,,,,,,,,,,,,
216003,1616774835667,,,46,,,0.19,-0.84,-0.43,-11,-6,4,0.87,0,,,,,,,,,,,,,,,,
216043,1616774835707,302,126,45,0.33,13.61,0.13,-0.68,0.03,-13,-8,-1,0.69,0,45.846485,5.17933,63.47,752.2,6,2,2.0,0,0.0,-1,0.0,0.0,0.0,0,0.16,3.6007
216083,1616774835747,,,46,,,0.33,-0.78,0.34,-15,-10,-3,0.85,0,,,,,,,,,,,,,,,,
216123,1616774835787,,,48,,,0.34,-0.7,0.35,-15,-4,1,0.78,0,,,,,,,,,,,,,,,,
216163,1616774835827,,,48,,,0.45,-0.81,0.33,-13,3,-1,0.93,0,,,,,,,,,,,,,,,,
216203,1616774835867,,,47,,,0.42,-0.83,0.65,-12,11,1,0.93,0,,,,,,,,,,,,,,,,
216243,1616774835907,,,47,,,0.25,-0.87,0.28,-13,10,1,0.91,0,45.846527,5.179266,65.26,752.4,6,2,2.0,0,0.0,-1,0.0,0.0,0.0,0,0.16,3.604
216283,1616774835947,,,48,,,0.18,-0.91,0.21,-16,5,3,0.93,0,,,,,,,,,,,,,,,,
216323,1616774835987,,,48,,,0.17,-0.92,0.31,-20,6,1,0.94,0,,,,,,,,,,,,,,,,
216363,1616774836023,,,48,,,0.23,-0.9,0.23,-24,5,-1,0.92,0,,,,,,,,,,,,,,,,
216403,1616774836063,,,48,,,0.34,-1.01,0.26,-30,6,-2,1.07,0,,,,,,,,,,,,,,,,
216443,1616774836107,,,48,,,0.49,-0.84,0.59,-34,7,-4,0.97,0,45.846561,5.179202,66.23,752.0,6,2,2.0,0,0.0,-1,0.0,0.0,0.0,0,0.16,3.6074
216483,1616774836147,,,48,,,0.35,-0.85,0.47,-38,1,-1,0.92,0,,,,,,,,,,,,,,,,
216523,1616774836187,,,47,,,0.24,-0.62,0.36,-42,3,-4,0.66,0,,,,,,,,,,,,,,,,
216563,1616774836228,,,47,,,0.21,-0.76,0.63,-45,0,-7,0.79,0,,,,,,,,,,,,,,,,
216603,1616774836268,,,47,,,0.2,-0.8,0.28,-46,2,-5,0.83,0,,,,,,,,,,,,,,,,
216643,1616774836306,,,47,,,0.09,-0.74,0.6,-45,1,-5,0.75,0,45.846596,5.179137,67.88,751.6,6,2,2.0,0,0.0,-1,0.0,0.0,0.0,0,0.17,3.6107
216683,1616774836346,,,48,,,0.04,-0.31,0.75,-42,-4,-5,0.32,0,,,,,,,,,,,,,,,,
216723,1616774836386,,,47,,,-0.13,-0.18,0.95,-39,-14,-3,0.22,0,,,,,,,,,,,,,,,,
216763,1616774836428,,,47,,,-0.04,-0.24,1.1,-34,-14,-5,0.25,0,,,,,,,,,,,,,,,,
216803,1616774836468,,,45,,,-0.09,-0.06,1.22,-29,-3,-5,0.11,0,,,,,,,,,,,,,,,,
216843,1616774836508,,,47,,,0.2,-0.26,1.13,-23,2,-5,0.32,0,45.846626,5.179074,68.64,751.8,6,2,2.0,0,0.0,-1,0.0,0.0,0.0,0,0.17,3.614
216883,1616774836548,,,46,,,0.11,-0.26,1.06,-17,-4,-2,0.28,0,,,,,,,,,,,,,,,,
216923,1616774836588,,,47,,,0.06,-0.54,1.07,-10,-6,-1,0.55,0,,,,,,,,,,,,,,,,
216963,1616774836626,,,50,,,-0.32,-0.66,0.49,-5,-1,-3,0.74,0,,,,,,,,,,,,,,,,
217003,1616774836666,,,48,,,-0.32,-0.45,0.25,-1,1,4,0.55,0,,,,,,,,,,,,,,,,
217043,1616774836708,224,124,48,0.33,13.64,-0.42,-0.48,0.06,1,3,6,0.64,0,45.846661,5.179007,69.4,751.3,6,2,2.0,0,0.0,-1,0.0,0.0,0.0,0,0.17,3.6174
217083,1616774836748,,,49,,,-0.42,-0.7,0.43,-0,12,2,0.82,0,,,,,,,,,,,,,,,,
217123,1616774836788,,,49,,,-0.34,-0.63,0.32,-4,3,6,0.71,0,,,,,,,,,,,,,,,,
217163,1616774836828,,,48,,,-0.48,-0.63,-0.01,-7,1,5,0.8,0,,,,,,,,,,,,,,,,
217203,1616774836868,,,47,,,-0.39,-0.76,-0.03,-11,-3,9,0.85,0,,,,,,,,,,,,,,,,
217243,1616774836908,,,46,,,-0.51,-0.7,-0.01,-17,4,-3,0.86,0,45.846684,5.178937,69.67,750.8,6,2,2.0,0,0.0,-1,0.0,0.0,0.0,0,0.18,3.6207
217283,1616774836948,,,47,,,-0.37,-0.45,-0.03,-20,-6,2,0.58,0,,,,,,,,,,,,,,,,
217323,1616774836988,,,49,,,-0.5,-0.44,-0.0,-19,3,-5,0.67,0,,,,,,,,,,,,,,,,
217363,1616774837022,,,50,,,-0.48,-0.33,0.17,-15,6,-9,0.58,0,,,,,,,,,,,,,,,,
217403,1616774837062,,,49,,,-0.47,-0.32,0.16,-8,4,-6,0.56,0,,,,,,,,,,,,,,,,
217443,1616774837108,,,51,,,-0.46,-0.11,0.15,1,2,-1,0.47,0,45.846714,5.178866,69.71,750.3,6,2,2.0,0,0.0,-1,0.0,0.0,0.0,0,0.18,3.6241
217483,1616774837148,,,49,,,-0.48,-0.14,0.1,14,-2,1,0.5,0,,,,,,,,,,,,,,,,
217523,1616774837188,,,51,,,-0.69,0.06,0.46,30,-1,2,0.69,0,,,,,,,,,,,,,,,,
217563,1616774837228,,,49,,,-0.77,-0.1,0.24,44,2,5,0.78,0,,,,,,,,,,,,,,,,
217603,1616774837268,,,52,,,-0.78,0.08,0.16,54,-5,5,0.78,0,,,,,,,,,,,,,,,,
217643,1616774837307,,,51,,,-0.87,-0.05,0.11,60,-4,2,0.87,0,45.846745,5.178793,69.07,749.6,6,2,2.0,0,0.0,-1,0.0,0.0,0.0,0,0.19,3.6274
217683,1616774837347,,,52,,,-0.91,-0.05,0.47,65,-1,-2,0.91,0,,,,,,,,,,,,,,,,
217723,1616774837387,,,49,,,-0.96,-0.02,0.4,67,-7,5,0.96,0,,,,,,,,,,,,,,,,
217763,1616774837427,,,51,,,-1.02,-0.01,0.3,68,-4,3,1.02,0,,,,,,,,,,,,,,,,
217803,1616774837467,,,50,,,-0.99,-0.06,0.38,66,2,1,0.99,0,,,,,,,,,,,,,,,,
217843,1616774837507,,,51,,,-0.78,0.11,0.26,63,5,2,0.79,0,45.846771,5.178721,68.14,748.4,6,2,2.0,0,0.0,-1,0.0,0.0,0.0,0,0.19,3.6307
217883,1616774837547,,,50,,,-0.62,0.06,-0.11,60,1,0,0.63,0,,,,,,,,,,,,,,,,
217923,1616774837587,,,49,,,-0.68,0.16,0.29,55,-11,-1,0.7,0,,,,,,,,,,,,,,,,
217963,1616774837627,,,50,,,-0.85,0.31,0.61,48,-18,-3,0.91,0,,,,,,,,,,,,,,,,
218003,1616774837667,,,48,,,-0.82,0.44,0.88,41,-18,-4,0.93,0,,,,,,,,,,,,,,,,
218043,1616774837707,298,118,47,0.34,13.48,-0.82,0.55,1.09,33,-17,-7,0.99,0,45.846798,5.178651,66.31,747.0,6,2,2.0,0,0.0,-1,0.0,0.0,0.0,0,0.19,3.634
218083,1616774837747,,,50,,,-0.93,0.44,1.23,24,-17,-4,1.03,0,,,,,,,,,,,,,,,,
218123,1616774837787,,,50,,,-1.06,0.32,1.38,17,-24,-14,1.1,0,,,,,,,,,,,,,,,,
218163,1616774837827,,,51,,,-1.2,0.32,1.49,10,-27,-13,1.24,0,,,,,,,,,,,,,,,,
218203,1616774837867,,,50,,,-1.33,0.25,1.28,6,-21,-10,1.36,0,,,,,,,,,,,,,,,,
218243,1616774837907,,,51,,,-1.18,0.42,1.27,2,-8,-9,1.25,0,45.846825,5.178585,64.42,745.9,6,2,2.0,0,0.0,-1,0.0,0.0,0.0,0,0.2,3.6374
218283,1616774837947,,,49,,,-1.0,0.55,0.65,-2,-7,-4,1.14,0,,,,,,,,,,,,,,,,
218323,1616774837987,,,50,,,-0.95,0.63,0.5,-5,-12,-1,1.14,0,,,,,,,,,,,,,,,,
218363,1616774838021,,,50,,,-0.91,0.44,0.39,-7,-6,3,1.01,0,,,,,,,,,,,,,,,,
218403,1616774838061,,,49,,,-0.91,0.35,0.29,-10,-5,2,0.97,0,,,,,,,,,,,,,,,,
218443,1616774838107,,,49,,,-0.96,0.19,-0.14,-14,-13,9,0.98,0,45.846844,5.178522,62.46,744.9,6,2,2.0,0,0.0,-1,0.0,0.0,0.0,0,0.2,3.6407
218483,1616774838147,,,49,,,-0.88,0.19,-0.1,-20,-3,4,0.9,0,,,,,,,,,,,,,,,,
218523,1616774838187,,,46,,,-0.75,0.33,-0.06,-26,-5,3,0.82,0,,,,,,,,,,,,,,,,
218563,1616774838227,,,51,,,-0.65,0.54,0.33,-31,-2,5,0.84,0,,,,,,,,,,,,,,,,
218603,1616774838267,,,49,,,-0.66,0.52,0.29,-34,-9,5,0.84,0,,,,,,,,,,,,,,,,
218643,1616774838306,,,49,,,-0.68,0.33,0.51,-35,8,-4,0.76,0,45.846867,5.178463,59.82,744.6,6,2,2.0,0,0.0,-1,0.0,0.0,0.0,0,0.2,3.6441
218683,1616774838346,,,49,,,-0.48,0.19,0.43,-33,-5,3,0.51,0,,,,,,,,,,,,,,,,
218723,1616774838386,,,50,,,-0.61,0.02,0.33,-29,3,-5,0.61,0,,,,,,,,,,,,,,,,
218763,1616774838426,,,46,,,-0.56,0.02,0.28,-23,-12,2,0.56,0,,,,,,,,,,,,,,,,
218803,1616774838466,,,49,,,-0.26,0.19,0.61,-17,-8,-0,0.32,0,,,,,,,,,,,,,,,,
218843,1616774838506,,,46,,,-0.5,-0.23,0.11,-12,-5,0,0.55,0,45.84689,5.178409,59.11,744.7,6,2,2.0,0,0.0,-1,0.0,0.0,0.0,0,0.21,3.6474
218883,1616774838546,,,48,,,-0.3,-0.23,0.29,-8,-14,10,0.37,0,,,,,,,,,,,,,,,,
218923,1616774838586,,,49,,,-0.14,0.14,0.61,-4,-2,4,0.19,0,,,,,,,,,,,,,,,,
218963,1616774838626,,,47,,,-0.48,0.08,0.3,-2,2,-0,0.49,0,,,,,,,,,,,,,,,,
219003,1616774838666,,,50,,,-0.67,0.22,-0.14,0,-13,6,0.71,0,,,,,,,,,,,,,,,,
219043,1616774838706,302,128,48,0.34,13.68,-0.33,0.31,0.11,2,-25,12,0.45,0,45.846905,5.178358,53.85,745.8,7,2,1.8,0,0.0,-1,0.0,0.0,0.0,0,0.21,3.6507
219083,1616774838746,,,48,,,0.03,0.43,0.47,3,-26,12,0.43,0,,,,,,,,,,,,,,,,
219123,1616774838786,,,47,,,0.25,0.27,0.62,2,-28,14,0.37,0,,,,,,,,,,,,,,,,
219163,1616774838826,,,46,,,0.27,0.13,0.19,-1,-38,18,0.3,0,,,,,,,,,,,,,,,,
219203,1616774838866,,,47,,,0.09,-0.08,-0.22,-3,-50,21,0.12,0,,,,,,,,,,,,,,,,
219243,1616774838906,,,46,,,-0.19,-0.22,-0.56,-5,-43,18,0.29,0,45.846924,5.178304,51.48,747.5,7,2,1.8,0,0.0,-1,0.0,0.0,0.0,0,0.21,3.654
219283,1616774838946,,,47,,,-0.05,-0.11,-0.1,-7,-31,13,0.12,0,,,,,,,,,,,,,,,,
219323,1616774838986,,,46,,,-0.29,-0.22,-0.46,-9,-32,13,0.37,0,,,,,,,,,,,,,,,,
219363,1616774839022,,,48,,,-0.6,-0.26,-0.76,-11,-38,14,0.65,0,,,,,,,,,,,,,,,,
219403,1616774839062,,,46,,,-0.51,-0.39,-0.54,-11,-27,9,0.64,0,,,,,,,,,,,,,,,,
219443,1616774839106,,,47,,,-0.6,-0.36,-0.32,-10,-21,8,0.7,0,45.846943,5.17825,50.14,747.6,7,2,1.9,0,0.0,-1,0.0,0.0,0.0,0,0.22,3.6574
219483,1616774839146,,,48,,,-0.66,-0.33,-0.51,-10,-17,7,0.74,0,,,,,,,,,,,,,,,,
219523,1616774839186,,,47,,,-0.53,-0.3,-0.1,-10,-17,5,0.61,0,,,,,,,,,,,,,,,,
219563,1616774839226,,,48,,,-0.46,-0.35,0.26,-10,-13,3,0.57,0,,,,,,,,,,,,,,,,
219603,1616774839266,,,48,,,-0.48,-0.24,0.24,-9,-10,3,0.54,0,,,,,,,,,,,,,,,,
219643,1616774839307,,,47,,,-0.42,-0.24,0.32,-9,-5,2,0.48,0,45.846962,5.178199,48.34,747.6,7,2,1.9,0,0.0,-1,0.0,0.0,0.0,0,0.22,3.6607
219683,1616774839347,,,50,,,-0.32,-0.2,0.39,-9,-3,3,0.38,0,,,,,,,,,,,,,,,,
219723,1616774839387,,,50,,,-0.35,-0.18,0.59,-8,-7,1,0.39,0,,,,,,,,,,,,,,,,
219763,1616774839427,,,50,,,-0.56,-0.21,0.61,-7,-5,2,0.6,0,,,,,,,,,,,,,,,,
219803,1616774839467,,,49,,,-0.47,-0.26,0.79,-6,-1,-0,0.53,0,,,,,,,,,,,,,,,,
219843,1616774839507,,,50,,,-0.75,-0.19,0.7,-5,-12,2,0.77,0,45.846977,5.178146,47.6,747.5,7,2,1.9,0,0.0,-1,0.0,0.0,0.0,0,0.22,3.6641
219883,1616774839547,,,46,,,-0.53,-0.23,0.62,-5,-16,3,0.58,0,,,,,,,,,,,,,,,,
219923,1616774839587,,,51,,,-0.3,-0.17,0.7,-3,6,-1,0.34,0,,,,,,,,,,,,,,,,
219963,1616774839627,,,47,,,-0.16,-0.19,0.95,-2,31,-3,0.25,0,,,,,,,,,,,,,,,,
220003,1616774839667,,,50,,,-0.09,-0.11,0.39,-1,39,-3,0.14,0,,,,,,,,,,,,,,,,
220043,1616774839707,278,128,50,0.34,13.76,-0.17,-0.07,0.28,-0,35,-1,0.18,0,45.846992,5.178099,45.29,747.5,7,2,1.9,0,0.0,-1,0.0,0.0,0.0,0,0.22,3.6674
220083,1616774839747,,,49,,,-0.44,-0.09,0.12,1,9,2,0.45,0,,,,,,,,,,,,,,,,
220123,1616774839787,,,50,,,-0.2,-0.08,-0.13,2,3,3,0.21,0,,,,,,,,,,,,,,,,
220163,1616774839827,,,48,,,-0.17,-0.09,-0.13,3,-7,4,0.19,0,,,,,,,,,,,,,,,,
220203,1616774839867,,,50,,,0.23,-0.07,-0.49,3,-12,6,0.24,0,,,,,,,,,,,,,,,,
220243,1616774839905,,,49,,,0.58,-0.11,-0.77,3,-6,7,0.59,0,45.847008,5.178049,44.03,747.9,7,2,1.9,0,0.0,-1,0.0,0.0,0.0,0,0.23,3.6707
220283,1616774839945,,,49,,,0.69,-0.09,-0.26,3,24,4,0.7,0,,,,,,,,,,,,,,,,
220323,1616774839985,,,47,,,0.35,-0.01,0.17,3,52,-2,0.35,0,,,,,,,,,,,,,,,,
220363,1616774840021,,,48,,,-0.0,-0.07,0.52,2,72,-9,0.07,0,,,,,,,,,,,,,,,,
220403,1616774840061,,,47,,,-0.12,0.01,0.8,3,94,-14,0.12,0,,,,,,,,,,,,,,,,
220443,1616774840105,,,46,,,0.03,0.06,1.03,3,119,-18,0.07,0,45.847023,5.178009,40.64,747.9,7,2,2.0,0,0.0,-1,0.0,0.0,0.0,0,0.23,3.674
220483,1616774840145,,,47,,,0.33,0.1,1.18,2,141,-17,0.35,0,,,,,,,,,,,,,,,,
220523,1616774840185,,,49,,,0.66,0.13,0.77,2,154,-15,0.67,0,,,,,,,,,,,,,,,,
220563,1616774840227,,,49,,,0.77,0.04,0.46,2,130,-12,0.78,0,,,,,,,,,,,,,,,,
220603,1616774840267,,,49,,,0.61,-0.05,0.58,2,104,-10,0.61,0,,,,,,,,,,,,,,,,
220643,1616774840306,,,49,,,0.22,0.02,0.79,3,83,-8,0.22,0,45.847038,5.177974,38.22,747.9,7,2,2.0,0,0.0,-1,0.0,0.0,0.0,0,0.23,3.6774
220683,1616774840346,,,49,,,0.15,0.08,1.02,3,90,-8,0.17,0,,,,,,,,,,,,,,,,
220723,1616774840386,,,50,,,0.41,0.02,0.45,3,101,-5,0.41,0,,,,,,,,,,,,,,,,
220763,1616774840426,,,49,,,0.72,-0.12,-0.02,4,108,-2,0.73,0,,,,,,,,,,,,,,,,
220803,1616774840466,,,49,,,0.97,-0.1,-0.4,4,108,1,0.98,0,,,,,,,,,,,,,,,,
220843,1616774840506,,,47,,,1.17,-0.05,-0.7,5,116,3,1.17,0,45.847046,5.177942,35.28,748.0,7,2,2.0,0,0.0,-1,0.0,0.0,0.0,0,0.23,3.6807
220883,1616774840546,,,49,,,1.09,-0.04,-0.78,5,99,3,1.09,0,,,,,,,,,,,,,,,,
220923,1616774840586,,,49,,,0.98,0.04,-0.65,4,93,2,0.98,0,,,,,,,,,,,,,,,,
220963,1616774840626,,,46,,,0.91,0.03,-0.78,4,79,2,0.91,0,,,,,,,,,,,,,,,,
221003,1616774840666,,,49,,,0.69,0.01,-0.59,4,67,0,0.69,0,,,,,,,,,,,,,,,,
221043,1616774840706,300,126,48,0.33,13.71,0.53,-0.01,-0.47,4,53,1,0.53,0,45.847061,5.177911,32.91,748.3,7,2,2.0,0,0.0,-1,0.0,0.0,0.0,0,0.23,3.6841
221083,1616774840746,,,50,,,0.36,0.01,-0.11,5,37,2,0.36,0,,,,,,,,,,,,,,,,
221123,1616774840786,,,49,,,0.3,0.02,0.08,5,37,2,0.3,0,,,,,,,,,,,,,,,,
221163,1616774840826,,,48,,,0.12,-0.04,0.08,5,27,1,0.13,0,,,,,,,,,,,,,,,,
221203,1616774840866,,,50,,,-0.21,0.03,0.45,5,24,-2,0.21,0,,,,,,,,,,,,,,,,
221243,1616774840906,,,47,,,-0.54,0.06,0.74,5,13,-2,0.55,0,45.847069,5.177884,30.53,748.4,7,2,2.0,0,0.0,-1,0.0,0.0,0.0,0,0.24,3.6874
221283,1616774840946,,,48,,,-0.4,0.01,0.9,5,11,-1,0.4,0,,,,,,,,,,,,,,,,
221323,1616774840986,,,48,,,-0.53,0.03,0.76,5,10,-1,0.53,0,,,,,,,,,,,,,,,,
221363,1616774841022,,,47,,,-0.26,0.04,0.88,5,8,-1,0.26,0,,,,,,,,,,,,,,,,
221403,1616774841062,,,46,,,-0.2,0.08,1.09,5,19,-5,0.21,0,,,,,,,,,,,,,,,,
221443,1616774841108,,,48,,,-0.1,0.11,1.26,5,35,-8,0.15,0,45.84708,5.177856,29.34,748.0,7,2,2.5,0,0.0,-1,0.0,0.0,0.0,0,0.24,3.6907
221483,1616774841148,,,47,,,0.3,0.07,0.64,5,59,-6,0.31,0,,,,,,,,,,,,,,,,
221523,1616774841188,,,48,,,0.63,-0.01,0.14,5,71,-3,0.63,0,,,,,,,,,,,,,,,,
221563,1616774841228,,,47,,,0.9,-0.02,-0.27,5,73,-0,0.9,0,,,,,,,,,,,,,,,,
221603,1616774841268,,,46,,,1.08,-0.04,-0.6,5,64,4,1.08,0,,,,,,,,,,,,,,,,
221643,1616774841307,,,46,,,0.84,-0.03,-0.8,5,40,6,0.85,0,45.847092,5.177828,28.47,748.1,7,2,4.1,0,0.0,-1,0.0,0.0,0.0,0,0.24,3.6941
221683,1616774841347,,,48,,,0.31,0.04,-0.27,5,4,5,0.31,0,,,,,,,,,,,,,,,,
221723,1616774841387,,,46,,,-0.12,0.08,0.16,5,-17,2,0.15,0,,,,,,,,,,,,,,,,
221763,1616774841427,,,46,,,-0.37,0.12,0.51,5,-17,-1,0.39,0,,,,,,,,,,,,,,,,
221803,1616774841467,,,47,,,-0.54,0.19,0.79,6,-4,-4,0.57,0,,,,,,,,,,,,,,,,
221843,1616774841507,,,46,,,-0.76,0.25,1.02,7,20,-8,0.8,0,45.847103,5.177804,26.77,747.9,7,2,4.1,0,0.0,-1,0.0,0.0,0.0,0,0.24,3.6974
221883,1616774841547,,,47,,,-0.62,0.31,1.21,8,52,-11,0.69,0,,,,,,,,,,,,,,,,
221923,1616774841587,,,48,,,-0.15,0.32,0.96,9,77,-9,0.35,0,,,,,,,,,,,,,,,,
221963,1616774841627,,,47,,,0.2,0.2,0.39,9,61,-6,0.29,0,,,,,,,,,,,,,,,,
222003,1616774841667,,,46,,,-0.07,0.14,0.34,9,22,-5,0.16,0,,,,,,,,,,,,,,,,
222043,1616774841707,302,129,47,0.34,13.68,-0.43,0.2,0.65,9,1,-5,0.48,0,45.847111,5.177784,24.88,748.0,7,2,2.5,0,0.0,-1,0.0,0.0,0.0,0,0.24,3.7007
222083,1616774841747,,,46,,,-0.46,0.26,0.91,9,20,-5,0.53,0,,,,,,,,,,,,,,,,
222123,1616774841787,,,46,,,-0.03,0.21,0.71,9,49,-3,0.22,0,,,,,,,,,,,,,,,,
222163,1616774841827,,,46,,,0.36,0.09,0.19,9,53,-1,0.37,0,,,,,,,,,,,,,,,,
222203,1616774841867,,,45,,,0.26,-0.01,0.11,7,21,-0,0.26,0,,,,,,,,,,,,,,,,
222243,1616774841907,,,47,,,0.03,-0.07,0.47,5,16,-2,0.08,0,45.847122,5.177766,23.25,748.1,7,2,2.5,0,0.0,-1,0.0,0.0,0.0,0,0.24,3.7041
222283,1616774841947,,,46,,,0.23,-0.24,0.04,2,24,-0,0.33,0,,,,,,,,,,,,,,,,
222323,1616774841987,,,46,,,0.02,-0.3,0.21,-2,4,-1,0.3,0,,,,,,,,,,,,,,,,
222363,1616774842021,,,47,,,0.15,-0.32,0.15,-7,18,-2,0.35,0,,,,,,,,,,,,,,,,
222403,1616774842061,,,46,,,0.09,-0.42,0.14,-11,6,-2,0.43,0,,,,,,,,,,,,,,,,
222443,1616774842105,,,46,,,0.03,-0.46,0.19,-16,12,-2,0.46,0,45.847126,5.177754,20.65,748.3,7,2,2.0,0,0.0,-1,0.0,0.0,0.0,0,0.25,3.7074
222483,1616774842145,,,47,,,0.03,-0.42,0.14,-20,4,-2,0.42,0,,,,,,,,,,,,,,,,
222523,1616774842185,,,46,,,0.0,-0.48,0.09,-25,6,-3,0.48,0,,,,,,,,,,,,,,,,
222563,1616774842227,,,45,,,-0.06,-0.51,0.11,-30,4,-2,0.52,0,,,,,,,,,,,,,,,,
222603,1616774842267,,,47,,,-0.14,-0.53,0.27,-35,1,-3,0.55,0,,,,,,,,,,,,,,,,
222643,1616774842306,,,46,,,-0.21,-0.64,0.47,-39,1,-3,0.67,0,45.84713,5.177743,18.19,748.5,7,2,2.0,0,0.0,-1,0.0,0.0,0.0,0,0.25,3.7107
222683,1616774842346,,,46,,,-0.25,-0.62,0.62,-44,1,-4,0.67,0,,,,,,,,,,,,,,,,
222723,1616774842386,,,46,,,-0.26,-0.61,0.66,-48,4,-5,0.66,0,,,,,,,,,,,,,,,,
222763,1616774842426,,,46,,,-0.26,-0.62,0.76,-51,4,-4,0.67,0,,,,,,,,,,,,,,,,
222803,1616774842466,,,46,,,-0.29,-0.64,0.83,-55,3,-4,0.71,0,,,,,,,,,,,,,,,,
222843,1616774842506,,,46,,,-0.34,-0.63,0.87,-58,3,-4,0.71,0,45.847134,5.177734,15.64,748.9,7,2,2.0,0,0.0,-1,0.0,0.0,0.0,0,0.25,3.7141
222883,1616774842546,,,46,,,-0.33,-0.63,0.93,-60,3,-4,0.71,0,,,,,,,,,,,,,,,,
222923,1616774842586,,,45,,,-0.32,-0.64,0.97,-62,3,-3,0.71,0,,,,,,,,,,,,,,,,
222963,1616774842626,,,46,,,-0.32,-0.59,0.92,-64,-3,-2,0.67,0,,,,,,,,,,,,,,,,
223003,1616774842666,,,45,,,-0.29,-0.62,1.02,-65,-2,-2,0.68,0,,,,,,,,,,,,,,,,
223043,1616774842706,302,130,46,0.34,13.75,-0.24,-0.59,0.92,-66,2,-2,0.64,0,45.847137,5.177723,13.92,749.2,7,2,2.0,0,0.0,-1,0.0,0.0,0.0,0,0.25,3.7174
223083,1616774842746,,,45,,,-0.17,-0.63,0.88,-66,0,-2,0.65,0,,,,,,,,,,,,,,,,
223123,1616774842786,,,46,,,-0.2,-0.62,0.85,-67,-1,-2,0.65,0,,,,,,,,,,,,,,,,
223163,1616774842826,,,46,,,-0.16,-0.62,0.93,-68,-1,-2,0.64,0,,,,,,,,,,,,,,,,
223203,1616774842866,,,45,,,-0.18,-0.64,0.88,-68,-2,-2,0.67,0,,,,,,,,,,,,,,,,
223243,1616774842906,,,46,,,-0.19,-0.59,0.85,-69,-4,-1,0.61,0,45.847134,5.177714,12.42,749.5,7,2,2.0,0,0.0,-1,0.0,0.0,0.0,0,0.25,3.7207
223283,1616774842946,,,45,,,-0.19,-0.58,0.73,-69,-2,-2,0.61,0,,,,,,,,,,,,,,,,
223323,1616774842986,,,46,,,-0.13,-0.59,0.67,-70,-2,-1,0.61,0,,,,,,,,,,,,,,,,
223363,1616774843022,,,46,,,-0.12,-0.64,0.75,-70,0,-2,0.65,0,,,,,,,,,,,,,,,,
223403,1616774843062,,,45,,,-0.1,-0.63,0.59,-71,-0,-2,0.64,0,,,,,,,,,,,,,,,,
223443,1616774843106,,,46,,,-0.09,-0.66,0.48,-70,-3,-1,0.67,0,45.847126,5.177707,12.62,750.2,7,2,2.9,0,0.0,-1,0.0,0.0,0.0,0,0.25,3.7241
223483,1616774843146,,,46,,,-0.09,-0.59,0.51,-70,-2,-1,0.59,0,,,,,,,,,,,,,,,,
223523,1616774843186,,,46,,,-0.06,-0.59,0.67,-70,-4,-1,0.59,0,,,,,,,,,,,,,,,,
223563,1616774843228,,,46,,,-0.12,-0.7,0.61,-70,-2,-1,0.71,0,,,,,,,,,,,,,,,,
223603,1616774843268,,,47,,,-0.1,-0.69,0.78,-70,-1,-3,0.7,0,,,,,,,,,,,,,,,,
223643,1616774843307,,,46,,,-0.11,-0.61,0.79,-71,0,-3,0.62,0,45.847122,5.1777,12.08,750.8,7,2,2.9,0,0.0,-1,0.0,0.0,0.0,0,0.25,3.7274
223683,1616774843347,,,47,,,-0.06,-0.65,0.84,-72,5,-5,0.65,0,,,,,,,,,,,,,,,,
223723,1616774843387,,,46,,,-0.05,-0.66,0.65,-73,3,-3,0.67,0,,,,,,,,,,,,,,,,
223763,1616774843427,,,46,,,-0.1,-0.62,0.55,-73,-0,-3,0.63,0,,,,,,,,,,,,,,,,
223803,1616774843467,,,45,,,-0.14,-0.67,0.66,-73,-1,-5,0.69,0,,,,,,,,,,,,,,,,
223843,1616774843507,,,46,,,-0.13,-0.71,0.92,-73,3,-6,0.72,0,45.847118,5.177696,11.33,751.4,7,2,2.9,0,0.0,-1,0.0,0.0,0.0,0,0.25,3.7307
223883,1616774843547,,,46,,,-0.14,-0.72,0.9,-73,-2,-4,0.74,0,,,,,,,,,,,,,,,,
223923,1616774843587,,,46,,,-0.15,-0.75,0.63,-73,-3,-3,0.76,0,,,,,,,,,,,,,,,,
223963,1616774843627,,,46,,,-0.21,-0.7,0.44,-73,-6,-3,0.73,0,,,,,,,,,,,,,,,,
224003,1616774843667,,,46,,,-0.18,-0.73,0.33,-73,-4,-2,0.75,0,,,,,,,,,,,,,,,,
224043,1616774843707,302,129,46,0.33,13.68,-0.17,-0.68,0.41,-74,-5,-4,0.7,0,45.847111,5.177694,11.1,751.5,7,2,2.9,0,0.0,-1,0.0,0.0,0.0,0,0.25,3.7341
224083,1616774843747,,,45,,,-0.15,-0.69,0.44,-74,-5,-4,0.71,0,,,,,,,,,,,,,,,,
224123,1616774843787,,,46,,,-0.17,-0.69,0.42,-74,-4,-4,0.71,0,,,,,,,,,,,,,,,,
224163,1616774843827,,,46,,,-0.16,-0.73,0.32,-74,-3,-4,0.75,0,,,,,,,,,,,,,,,,
224203,1616774843867,,,45,,,-0.18,-0.72,0.42,-74,-3,-4,0.74,0,,,,,,,,,,,,,,,,
224243,1616774843907,,,45,,,-0.11,-0.69,0.32,-74,1,-4,0.7,0,45.847103,5.177692,9.91,752.0,7,2,2.9,0,0.0,-1,0.0,0.0,0.0,0,0.25,3.7374
224283,1616774843947,,,46,,,-0.11,-0.7,0.34,-73,-0,-4,0.7,0,,,,,,,,,,,,,,,,
224323,1616774843987,,,46,,,-0.09,-0.73,0.47,-73,-2,-4,0.74,0,,,,,,,,,,,,,,,,
224363,1616774844023,,,46,,,-0.11,-0.64,0.61,-72,-3,-4,0.65,0,,,,,,,,,,,,,,,,
224403,1616774844063,,,45,,,-0.07,-0.63,0.63,-72,-0,-4,0.63,0,,,,,,,,,,,,,,,,
224443,1616774844107,,,46,,,-0.07,-0.58,0.78,-71,-2,-4,0.58,0,45.847092,5.177693,9.09,752.6,7,2,2.9,0,0.0,-1,0.0,0.0,0.0,0,0.25,3.7407
224483,1616774844147,,,45,,,-0.08,-0.61,0.75,-71,-2,-4,0.62,0,,,,,,,,,,,,,,,,
224523,1616774844187,,,46,,,-0.06,-0.65,0.62,-70,-1,-4,0.65,0,,,,,,,,,,,,,,,,
224563,1616774844229,,,46,,,-0.01,-0.62,0.6,-70,-0,-4,0.62,0,,,,,,,,,,,,,,,,
224603,1616774844269,,,46,,,-0.07,-0.61,0.86,-69,-4,-4,0.61,0,,,,,,,,,,,,,,,,
224643,1616774844308,,,46,,,0.04,-0.7,0.31,-69,-0,-2,0.7,0,45.84708,5.177705,6.44,751.2,7,2,2.9,0,0.0,-1,0.0,0.0,0.0,0,0.25,3.7441
224683,1616774844348,,,46,,,0.08,-0.59,0.36,-68,-1,-4,0.59,0,,,,,,,,,,,,,,,,
224723,1616774844388,,,46,,,0.15,-0.67,0.31,-68,1,-5,0.68,0,,,,,,,,,,,,,,,,
224763,1616774844428,,,46,,,0.21,-0.67,0.25,-68,5,-5,0.7,0,,,,,,,,,,,,,,,,
224803,1616774844468,,,46,,,0.13,-0.68,0.22,-67,-4,-4,0.69,0,,,,,,,,,,,,,,,,
224843,1616774844508,,,46,,,0.31,-0.64,0.23,-67,12,-5,0.71,0,45.847069,5.17772,6.95,750.5,7,2,2.9,0,0.0,-1,0.0,0.0,0.0,0,0.25,3.7474
224883,1616774844548,,,46,,,0.28,-0.66,0.07,-66,14,-4,0.71,0,,,,,,,,,,,,,,,,
224923,1616774844588,,,45,,,0.1,-0.53,0.44,-64,1,-6,0.54,0,,,,,,,,,,,,,,,,
224963,1616774844628,,,46,,,0.36,-0.52,0.33,-62,15,-5,0.63,0,,,,,,,,,,,,,,,,
225003,1616774844668,,,45,,,0.17,-0.57,0.3,-60,-0,-4,0.59,0,,,,,,,,,,,,,,,,
225043,1616774844708,302,132,46,0.34,13.77,0.07,-0.47,0.62,-58,-4,-5,0.47,0,45.847061,5.177737,8.43,750.9,7,2,2.9,0,0.0,-1,0.0,0.0,0.0,0,0.25,3.7507
225083,1616774844748,,,46,,,0.42,-0.47,0.45,-56,10,-2,0.63,0,,,,,,,,,,,,,,,,
225123,1616774844788,,,46,,,0.36,-0.54,0.38,-53,-6,-3,0.65,0,,,,,,,,,,,,,,,,
225163,1616774844828,,,46,,,0.11,-0.43,0.69,-51,-8,-3,0.45,0,,,,,,,,,,,,,,,,
225203,1616774844868,,,46,,,0.4,-0.38,0.54,-49,15,-2,0.55,0,,,,,,,,,,,,,,,,
225243,1616774844908,,,46,,,0.54,-0.48,0.05,-47,5,0,0.72,0,45.84705,5.177752,9.84,750.7,7,2,2.9,0,0.0,-1,0.0,0.0,0.0,0,0.25,3.754
225283,1616774844948,,,45,,,0.19,-0.52,0.14,-46,-25,0,0.55,0,,,,,,,,,,,,,,,,
225323,1616774844988,,,46,,,-0.22,-0.55,0.49,-45,-42,-3,0.59,0,,,,,,,,,,,,,,,,
225363,1616774845022,,,46,,,-0.55,-0.58,0.78,-44,-38,-6,0.8,0,,,,,,,,,,,,,,,,
225403,1616774845062,,,45,,,-0.78,-0.55,1.01,-43,-21,-6,0.95,0,,,,,,,,,,,,,,,,
225443,1616774845106,,,45,,,-0.87,-0.5,1.2,-42,2,-7,1.0,0,45.847042,5.177766,11.02,749.4,7,2,2.0,0,0.0,-1,0.0,0.0,0.0,0,0.26,3.7574
225483,1616774845146,,,46,,,-1.03,-0.52,1.35,-41,15,-10,1.16,0,,,,,,,,,,,,,,,,
225523,1616774845186,,,46,,,-1.21,-0.51,1.47,-40,10,-10,1.31,0,,,,,,,,,,,,,,,,
225563,1616774845228,,,46,,,-1.21,-0.45,1.57,-39,-19,-5,1.29,0,,,,,,,,,,,,,,,,
225603,1616774845268,,,45,,,-0.64,-0.41,1.04,-38,-23,-2,0.76,0,,,,,,,,,,,,,,,,
225643,1616774845307,,,46,,,-0.19,-0.42,0.73,-37,3,-3,0.46,0,45.847038,5.177783,12.71,748.6,7,2,2.0,0,0.0,-1,0.0,0.0,0.0,0,0.26,3.7607
225683,1616774845347,,,46,,,-0.38,-0.46,0.97,-35,19,-7,0.59,0,,,,,,,,,,,,,,,,
225723,1616774845387,,,45,,,-0.5,-0.44,1.11,-34,5,-4,0.67,0,,,,,,,,,,,,,,,,
225763,1616774845427,,,46,,,-0.16,-0.44,1.21,-33,9,-4,0.46,0,,,,,,,,,,,,,,,,
225803,1616774845467,,,46,,,-0.24,-0.43,1.23,-32,19,-5,0.49,0,,,,,,,,,,,,,,,,
225843,1616774845507,,,46,,,-0.06,-0.41,1.22,-31,18,-4,0.41,0,45.847027,5.177796,14.05,749.5,7,2,2.0,0,0.0,-1,0.0,0.0,0.0,0,0.26,3.764
225883,1616774845547,,,46,,,0.07,-0.36,1.17,-29,13,-3,0.37,0,,,,,,,,,,,,,,,,
225923,1616774845587,,,46,,,0.07,-0.35,1.12,-27,11,-3,0.35,0,,,,,,,,,,,,,,,,
225963,1616774845625,,,46,,,0.12,-0.31,1.13,-25,11,-3,0.33,0,,,,,,,,,,,,,,,,
226003,1616774845665,,,46,,,0.2,-0.24,1.12,-23,8,-3,0.31,0,,,,,,,,,,,,,,,,
226043,1616774845707,302,135,46,0.34,13.74,0.24,-0.12,1.04,-21,5,-3,0.27,0,45.847019,5.177813,15.2,749.7,7,2,2.0,0,0.0,-1,0.0,0.0,0.0,0,0.26,3.7674
226083,1616774845747,,,45,,,0.26,-0.02,1.0,-19,4,-2,0.26,0,,,,,,,,,,,,,,,,
226123,1616774845787,,,45,,,0.33,0.0,1.14,-16,5,-2,0.33,0,,,,,,,,,,,,,,,,
226163,1616774845827,,,46,,,0.35,-0.01,1.03,-14,4,-2,0.35,0,,,,,,,,,,,,,,,,
226203,1616774845867,,,46,,,0.47,0.03,0.91,-11,4,-1,0.47,0,,,,,,,,,,,,,,,,
226243,1616774845907,,,46,,,0.42,-0.08,0.84,-9,3,-2,0.43,0,45.847012,5.177832,16.11,749.4,7,2,2.0,0,0.0,-1,0.0,0.0,0.0,0,0.26,3.7707
226283,1616774845947,,,46,,,0.6,0.12,1.06,-7,11,-5,0.61,0,,,,,,,,,,,,,,,,
226323,1616774845987,,,44,,,0.85,0.15,1.24,-5,14,-4,0.86,0,,,,,,,,,,,,,,,,
226363,1616774846023,,,45,,,0.97,0.22,1.38,-4,14,-3,1.0,0,,,,,,,,,,,,,,,,
226403,1616774846063,,,46,,,0.83,0.13,1.23,-3,8,-1,0.84,0,,,,,,,,,,,,,,,,
226443,1616774846107,,,45,,,0.6,0.08,1.32,-2,10,-1,0.6,0,45.847008,5.177851,17.14,749.1,7,2,9.7,0,0.0,-1,0.0,0.0,0.0,0,0.26,3.774
226483,1616774846147,,,45,,,0.41,0.14,1.05,-1,7,0,0.44,0,,,,,,,,,,,,,,,,
226523,1616774846187,,,44,,,0.41,0.13,0.83,0,10,-2,0.43,0,,,,,,,,,,,,,,,,
226563,1616774846227,,,45,,,0.32,0.08,0.29,1,-2,1,0.33,0,,,,,,,,,,,,,,,,
226603,1616774846267,,,45,,,0.58,0.17,0.62,2,11,-3,0.6,0,,,,,,,,,,,,,,,,
226643,1616774846306,,,45,,,0.35,0.22,0.41,3,19,-6,0.41,0,45.847004,5.177871,18.35,749.9,7,2,9.7,0,0.0,-1,0.0,0.0,0.0,0,0.26,3.7774
226683,1616774846346,,,46,,,0.21,0.21,-0.05,5,3,-1,0.3,0,,,,,,,,,,,,,,,,
226723,1616774846386,,,46,,,0.1,0.32,-0.06,7,6,-3,0.34,0,,,,,,,,,,,,,,,,
226763,1616774846426,,,45,,,0.22,0.31,-0.07,9,1,2,0.38,0,,,,,,,,,,,,,,,,
226803,1616774846466,,,46,,,0.37,0.26,-0.08,11,-4,0,0.45,0,,,,,,,,,,,,,,,,
226843,1616774846506,,,44,,,0.4,0.21,-0.04,11,-3,-0,0.45,0,45.846992,5.177895,19.73,749.9,7,2,9.7,0,0.0,-1,0.0,0.0,0.0,0,0.26,3.7807
226883,1616774846546,,,45,,,0.27,0.29,-0.01,12,7,-6,0.4,0,,,,,,,,,,,,,,,,
226923,1616774846586,,,47,,,0.47,0.34,-0.03,13,-6,4,0.58,0,,,,,,,,,,,,,,,,
226963,1616774846626,,,45,,,0.31,0.32,-0.41,13,-17,11,0.44,0,,,,,,,,,,,,,,,,
227003,1616774846666,,,46,,,0.25,0.27,-0.71,14,-7,5,0.37,0,,,,,,,,,,,,,,,,
227043,1616774846708,302,135,46,0.34,13.76,0.26,0.21,-0.96,16,-3,2,0.34,0,45.846985,5.177919,21.34,749.8,7,2,9.7,0,0.0,-1,0.0,0.0,0.0,0,0.26,3.784
227083,1616774846748,,,46,,,0.31,0.22,-0.96,16,-11,9,0.38,0,,,,,,,,,,,,,,,,
227123,1616774846788,,,46,,,0.42,0.1,-0.4,16,-2,4,0.43,0,,,,,,,,,,,,,,,,
227163,1616774846826,,,47,,,0.24,0.15,-0.7,17,-6,7,0.28,0,,,,,,,,,,,,,,,,
227203,1616774846866,,,46,,,0.18,0.17,-0.59,18,-2,3,0.25,0,,,,,,,,,,,,,,,,
227243,1616774846906,,,45,,,0.21,0.19,-0.5,19,-4,4,0.28,0,45.846981,5.177946,22.94,749.7,7,2,9.7,0,0.0,-1,0.0,0.0,0.0,0,0.26,3.7874
227283,1616774846946,,,47,,,0.23,0.05,-0.51,20,8,3,0.24,0,,,,,,,,,,,,,,,,
227323,1616774846986,,,45,,,0.5,0.17,-0.57,21,22,1,0.53,0,,,,,,,,,,,,,,,,
227363,1616774847022,,,46,,,0.64,0.24,-0.24,22,24,1,0.68,0,,,,,,,,,,,,,,,,
227403,1616774847062,,,46,,,0.42,0.32,0.11,23,20,-0,0.53,0,,,,,,,,,,,,,,,,
227443,1616774847104,,,46,,,0.39,0.24,0.47,23,11,0,0.45,0,45.84697,5.177975,24.51,749.8,7,2,2.9,0,0.0,-1,0.0,0.0,0.0,0,0.26,3.7907
227483,1616774847144,,,45,,,0.43,0.25,0.42,22,9,-2,0.5,0,,,,,,,,,,,,,,,,
227523,1616774847184,,,47,,,0.73,0.29,0.35,21,16,-2,0.78,0,,,,,,,,,,,,,,,,
227563,1616774847228,,,45,,,0.72,0.3,0.54,19,13,-5,0.78,0,,,,,,,,,,,,,,,,
227603,1616774847268,,,45,,,0.49,0.27,0.45,15,-1,-3,0.55,0,,,,,,,,,,,,,,,,
227643,1616774847307,,,45,,,0.51,0.22,0.58,11,-10,-2,0.55,0,45.846962,5.178007,26.32,750.1,7,2,2.9,0,0.0,-1,0.0,0.0,0.0,0,0.27,3.794
227683,1616774847347,,,45,,,0.56,0.18,0.8,6,-14,-2,0.59,0,,,,,,,,,,,,,,,,
227723,1616774847387,,,46,,,0.66,0.15,0.57,2,-18,-1,0.68,0,,,,,,,,,,,,,,,,
227763,1616774847427,,,45,,,0.82,0.08,0.53,-0,-13,-3,0.82,0,,,,,,,,,,,,,,,,
227803,1616774847467,,,46,,,0.83,0.1,0.31,-1,-11,-1,0.84,0,,,,,,,,,,,,,,,,
227843,1616774847507,,,46,,,0.54,-0.04,0.63,-1,-17,2,0.55,0,45.846947,5.178041,27.93,750.3,7,2,2.9,0,0.0,-1,0.0,0.0,0.0,0,0.27,3.7974
227883,1616774847547,,,46,,,0.6,-0.06,0.89,1,-12,-0,0.6,0,,,,,,,,,,,,,,,,
227923,1616774847587,,,46,,,0.51,0.06,0.79,2,-7,-2,0.52,0,,,,,,,,,,,,,,,,
227963,1616774847627,,,46,,,0.5,0.26,0.26,4,-6,-2,0.57,0,,,,,,,,,,,,,,,,
228003,1616774847667,,,46,,,0.6,0.01,0.59,6,-3,-5,0.6,0,,,,,,,,,,,,,,,,
228043,1616774847707,302,139,46,0.33,13.64,0.71,-0.03,0.86,7,-5,-1,0.71,0,45.846939,5.178077,30.09,750.6,7,2,2.9,0,0.0,-1,0.0,0.0,0.0,0,0.27,3.8007
228083,1616774847747,,,46,,,0.58,-0.17,0.64,7,-8,4,0.6,0,,,,,,,,,,,,,,,,
228123,1616774847787,,,46,,,0.54,-0.05,0.7,6,-9,6,0.55,0,,,,,,,,,,,,,,,,
228163,1616774847827,,,46,,,0.5,0.01,0.73,6,-7,5,0.5,0,,,,,,,,,,,,,,,,
228203,1616774847867,,,48,,,0.36,0.11,0.61,5,-8,6,0.38,0,,,,,,,,,,,,,,,,
228243,1616774847907,,,46,,,0.32,0.12,0.77,4,-6,5,0.34,0,45.846924,5.178116,32.16,751.1,7,2,2.9,0,0.0,-1,0.0,0.0,0.0,0,0.27,3.804
228283,1616774847947,,,46,,,0.4,0.06,0.76,3,1,0,0.4,0,,,,,,,,,,,,,,,,
228323,1616774847987,,,46,,,0.36,-0.1,0.43,2,-1,-2,0.38,0,,,,,,,,,,,,,,,,
228363,1616774848021,,,46,,,0.28,-0.17,0.07,2,-0,-1,0.33,0,,,,,,,,,,,,,,,,
228403,1616774848061,,,45,,,0.28,-0.1,-0.32,2,-3,5,0.3,0,,,,,,,,,,,,,,,,
228443,1616774848107,,,46,,,0.37,0.07,-0.21,2,-5,4,0.38,0,45.846912,5.178158,33.92,751.3,7,2,2.9,0,0.0,-1,0.0,0.0,0.0,0,0.27,3.8074
228483,1616774848147,,,48,,,0.26,0.1,0.06,2,-1,4,0.28,0,,,,,,,,,,,,,,,,
228523,1616774848187,,,46,,,0.38,0.15,0.2,2,-1,1,0.41,0,,,,,,,,,,,,,,,,
228563,1616774848227,,,45,,,0.63,0.16,0.23,1,3,-0,0.65,0,,,,,,,,,,,,,,,,
228603,1616774848267,,,48,,,0.52,0.15,-0.19,1,1,-1,0.54,0,,,,,,,,,,,,,,,,
228643,1616774848308,,,46,,,0.55,0.09,-0.11,0,6,-3,0.55,0,45.846905,5.1782,35.21,751.5,7,2,2.9,0,0.0,-1,0.0,0.0,0.0,0,0.27,3.8107
228683,1616774848348,,,45,,,0.52,0.29,-0.07,1,5,-1,0.59,0,,,,,,,,,,,,,,,,
228723,1616774848388,,,46,,,0.47,0.25,0.24,1,8,-8,0.53,0,,,,,,,,,,,,,,,,
228763,1616774848426,,,45,,,0.33,0.27,-0.18,1,1,-1,0.43,0,,,,,,,,,,,,,,,,
228803,1616774848466,,,45,,,0.4,0.34,0.23,1,3,-1,0.53,0,,,,,,,,,,,,,,,,
228843,1616774848508,,,45,,,0.49,0.29,0.57,1,10,-2,0.57,0,45.84689,5.17824,36.54,751.2,7,2,2.9,0,0.0,-1,0.0,0.0,0.0,0,0.28,3.814
228883,1616774848548,,,45,,,0.52,0.26,0.44,2,1,5,0.58,0,,,,,,,,,,,,,,,,
228923,1616774848588,,,47,,,0.21,0.16,-0.03,2,2,6,0.26,0,,,,,,,,,,,,,,,,
228963,1616774848628,,,45,,,0.01,0.1,0.36,1,9,-4,0.1,0,,,,,,,,,,,,,,,,
229003,1616774848668,,,45,,,-0.09,0.07,0.67,1,18,-12,0.12,0,,,,,,,,,,,,,,,,
229043,1616774848708,302,142,45,0.33,13.66,-0.1,0.05,0.92,0,25,-18,0.11,0,45.846878,5.17828,37.29,751.0,7,2,2.9,0,0.0,-1,0.0,0.0,0.0,0,0.28,3.8174
229083,1616774848748,,,46,,,-0.08,0.07,1.13,-0,31,-24,0.11,0,,,,,,,,,,,,,,,,
229123,1616774848788,,,45,,,-0.03,0.12,1.29,-0,39,-33,0.12,0,,,,,,,,,,,,,,,,
229163,1616774848828,,,47,,,0.16,0.17,1.42,0,42,-34,0.24,0,,,,,,,,,,,,,,,,
229203,1616774848868,,,46,,,0.2,0.21,1.13,-0,31,-23,0.29,0,,,,,,,,,,,,,,,,
229243,1616774848908,,,48,,,-0.01,0.17,0.54,-0,8,-7,0.17,0,45.846867,5.178321,37.14,750.6,7,2,2.9,0,0.0,-1,0.0,0.0,0.0,0,0.28,3.8207
229283,1616774848948,,,47,,,-0.19,0.11,0.05,-1,1,-1,0.22,0,,,,,,,,,,,,,,,,
229323,1616774848988,,,46,,,0.02,0.12,0.42,-1,17,-12,0.12,0,,,,,,,,,,,,,,,,
229363,1616774849022,,,47,,,-0.07,0.07,-0.04,-0,1,1,0.1,0,,,,,,,,,,,,,,,,
229403,1616774849062,,,47,,,-0.11,0.01,-0.01,1,8,-7,0.12,0,,,,,,,,,,,,,,,,
229443,1616774849106,,,46,,,0.03,0.09,-0.03,-0,-2,1,0.1,0,45.846855,5.178362,36.64,750.7,7,2,2.0,0,0.0,-1,0.0,0.0,0.0,0,0.28,3.824
229483,1616774849146,,,46,,,-0.13,0.16,-0.0,0,-0,-7,0.21,0,,,,,,,,,,,,,,,,
229523,1616774849186,,,47,,,-0.15,0.08,-0.13,0,-8,1,0.17,0,,,,,,,,,,,,,,,,
229563,1616774849228,,,46,,,-0.04,0.13,0.15,1,9,-8,0.14,0,,,,,,,,,,,,,,,,
229603,1616774849268,,,46,,,-0.19,0.12,0.09,1,3,-3,0.22,0,,,,,,,,,,,,,,,,
229643,1616774849307,,,46,,,-0.11,0.08,0.06,1,-4,3,0.14,0,45.846844,5.178403,36.06,750.3,7,2,2.0,0,0.0,-1,0.0,0.0,0.0,0,0.28,3.8274
229683,1616774849347,,,46,,,0.04,0.16,0.02,-0,7,-0,0.16,0,,,,,,,,,,,,,,,,
229723,1616774849387,,,45,,,0.02,0.11,0.04,-0,11,-2,0.11,0,,,,,,,,,,,,,,,,
229763,1616774849425,,,45,,,-0.12,0.14,0.05,0,11,-3,0.19,0,,,,,,,,,,,,,,,,
229803,1616774849465,,,46,,,-0.21,0.2,-0.04,1,9,-1,0.29,0,,,,,,,,,,,,,,,,
229843,1616774849505,,,44,,,-0.26,0.27,-0.31,1,10,-1,0.38,0,45.846832,5.178443,35.33,749.9,7,2,2.0,0,0.0,-1,0.0,0.0,0.0,0,0.29,3.8307
229883,1616774849545,,,45,,,-0.38,0.31,-0.27,1,7,-1,0.49,0,,,,,,,,,,,,,,,,
229923,1616774849585,,,46,,,-0.4,0.29,-0.24,1,8,-2,0.49,0,,,,,,,,,,,,,,,,
229963,1616774849625,,,45,,,-0.34,0.29,-0.22,1,4,-0,0.44,0,,,,,,,,,,,,,,,,
230003,1616774849665,,,46,,,-0.26,0.27,-0.19,1,2,3,0.38,0,,,,,,,,,,,,,,,,
230043,1616774849705,302,136,47,0.34,13.73,-0.14,0.33,-0.14,2,11,-0,0.35,0,45.846821,5.178481,34.48,749.7,7,2,2.0,0,0.0,-1,0.0,0.0,0.0,0,0.29,3.834
230083,1616774849745,,,45,,,-0.25,0.27,-0.49,2,-0,4,0.37,0,,,,,,,,,,,,,,,,
230123,1616774849785,,,45,,,-0.25,0.1,-0.75,2,3,-4,0.27,0,,,,,,,,,,,,,,,,
230163,1616774849827,,,45,,,-0.14,0.16,-0.62,1,-1,-1,0.21,0,,,,,,,,,,,,,,,,
230203,1616774849867,,,45,,,-0.1,0.12,-0.53,1,-3,1,0.16,0,,,,,,,,,,,,,,,,
230243,1616774849907,,,45,,,0.03,0.09,-0.22,0,8,-7,0.1,0,45.846806,5.178517,34.24,749.4,7,2,2.0,0,0.0,-1,0.0,0.0,0.0,0,0.29,3.8374
230283,1616774849947,,,45,,,0.12,0.11,-0.2,1,-8,2,0.17,0,,,,,,,,,,,,,,,,
230323,1616774849987,,,45,,,0.18,0.14,0.06,0,-6,-3,0.23,0,,,,,,,,,,,,,,,,
230363,1616774850021,,,45,,,0.09,0.22,0.06,0,4,-11,0.24,0,,,,,,,,,,,,,,,,
230403,1616774850061,,,46,,,0.39,0.15,0.43,0,9,-10,0.42,0,,,,,,,,,,,,,,,,
230443,1616774850109,,,45,,,0.34,0.08,0.14,1,-6,1,0.35,0,45.846798,5.178554,34.58,749.2,7,2,9.6,0,0.0,-1,0.0,0.0,0.0,0,0.29,3.8407
230483,1616774850149,,,45,,,0.19,0.12,0.14,0,7,-8,0.22,0,,,,,,,,,,,,,,,,
230523,1616774850189,,,44,,,0.41,0.13,0.49,1,16,-12,0.43,0,,,,,,,,,,,,,,,,
230563,1616774850227,,,46,,,0.66,0.0,0.78,1,24,-14,0.66,0,,,,,,,,,,,,,,,,
230603,1616774850267,,,45,,,0.87,-0.02,1.01,1,24,-12,0.87,0,,,,,,,,,,,,,,,,
230643,1616774850306,,,44,,,0.99,-0.04,1.2,1,25,-11,0.99,0,45.846783,5.178592,35.38,749.1,7,2,2.0,0,0.0,-1,0.0,0.0,0.0,0,0.29,3.844
230683,1616774850346,,,45,,,0.9,-0.01,0.95,1,18,-11,0.9,0,,,,,,,,,,,,,,,,
230723,1616774850386,,,45,,,0.79,0.08,0.39,1,7,-2,0.8,0,,,,,,,,,,,,,,,,
230763,1616774850426,,,44,,,0.82,0.19,0.7,1,12,-9,0.84,0,,,,,,,,,,,,,,,,
230803,1616774850466,,,44,,,0.68,0.1,0.43,1,5,-3,0.69,0,,,,,,,,,,,,,,,,
230843,1616774850506,,,46,,,0.63,0.15,0.33,1,-0,-2,0.65,0,45.846771,5.178632,36.39,748.8,7,2,2.0,0,0.0,-1,0.0,0.0,0.0,0,0.3,3.8474
230883,1616774850546,,,45,,,0.63,0.06,0.25,0,3,-4,0.63,0,,,,,,,,,,,,,,,,
230923,1616774850586,,,45,,,0.55,0.17,0.18,0,-3,-2,0.58,0,,,,,,,,,,,,,,,,
230963,1616774850626,,,45,,,0.58,0.14,0.12,1,-0,-1,0.6,0,,,,,,,,,,,,,,,,
231003,1616774850666,,,44,,,0.47,0.18,0.35,0,-6,-2,0.51,0,,,,,,,,,,,,,,,,
231043,1616774850706,302,140,44,0.33,13.69,0.4,0.09,0.26,0,-10,-0,0.41,0,45.84676,5.178675,38.09,748.7,7,2,2.0,0,0.0,-1,0.0,0.0,0.0,0,0.3,3.8507
231083,1616774850746,,,45,,,0.5,0.04,0.15,-0,4,-1,0.5,0,,,,,,,,,,,,,,,,
231123,1616774850786,,,45,,,0.79,0.03,0.14,0,18,-4,0.79,0,,,,,,,,,,,,,,,,
231163,1616774850826,,,46,,,0.94,0.05,-0.02,0,18,-4,0.94,0,,,,,,,,,,,,,,,,
231203,1616774850866,,,46,,,0.84,-0.03,-0.3,-0,5,-0,0.84,0,,,,,,,,,,,,,,,,
231243,1616774850906,,,44,,,0.77,-0.07,0.14,-0,-7,1,0.78,0,45.846745,5.178721,40.31,749.0,7,2,2.0,0,0.0,-1,0.0,0.0,0.0,0,0.3,3.854
231283,1616774850946,,,45,,,0.8,-0.05,0.38,0,-12,-0,0.8,0,,,,,,,,,,,,,,,,
231323,1616774850986,,,45,,,0.79,-0.06,0.4,0,-11,-1,0.79,0,,,,,,,,,,,,,,,,
231363,1616774851022,,,47,,,0.9,0.01,0.45,1,-1,-2,0.9,0,,,,,,,,,,,,,,,,
231403,1616774851062,,,46,,,0.84,-0.07,0.53,1,-1,-2,0.84,0,,,,,,,,,,,,,,,,
231443,1616774851108,,,46,,,0.84,-0.11,0.62,0,0,-3,0.84,0,45.846733,5.178768,42.48,748.8,7,2,2.0,0,0.0,-1,0.0,0.0,0.0,0,0.3,3.8574
231483,1616774851148,,,46,,,0.77,-0.07,0.58,0,2,-4,0.78,0,,,,,,,,,,,,,,,,
231523,1616774851188,,,45,,,0.74,-0.19,0.43,0,0,-2,0.77,0,,,,,,,,,,,,,,,,
231563,1616774851226,,,46,,,0.64,-0.1,0.65,-0,1,-6,0.65,0,,,,,,,,,,,,,,,,
231603,1616774851266,,,46,,,0.65,-0.14,0.22,-1,4,-6,0.67,0,,,,,,,,,,,,,,,,
231643,1616774851307,,,46,,,0.71,-0.05,0.27,-1,8,-5,0.71,0,45.846722,5.178817,44.33,748.6,7,2,2.0,0,0.0,-1,0.0,0.0,0.0,0,0.31,3.8607
231683,1616774851347,,,47,,,0.83,-0.13,0.2,-2,5,-8,0.83,0,,,,,,,,,,,,,,,,
231723,1616774851387,,,47,,,0.74,-0.18,0.01,-2,0,-5,0.76,0,,,,,,,,,,,,,,,,
231763,1616774851427,,,50,,,0.4,-0.11,0.03,-1,-2,-5,0.42,0,,,,,,,,,,,,,,,,
231803,1616774851467,,,47,,,0.27,-0.02,0.39,-0,-4,-2,0.27,0,,,,,,,,,,,,,,,,
231843,1616774851507,,,46,,,0.08,-0.03,0.33,1,-10,-3,0.08,0,45.846706,5.178868,45.49,748.8,7,2,2.0,0,0.0,-1,0.0,0.0,0.0,0,0.31,3.864
231883,1616774851547,,,47,,,-0.05,0.1,0.65,2,-11,-1,0.11,0,,,,,,,,,,,,,,,,
231923,1616774851587,,,46,,,-0.03,0.16,0.26,3,4,-0,0.16,0,,,,,,,,,,,,,,,,
231963,1616774851627,,,45,,,0.31,0.16,0.35,3,11,-2,0.35,0,,,,,,,,,,,,,,,,
232003,1616774851667,,,46,,,0.39,0.05,0.04,3,-2,2,0.4,0,,,,,,,,,,,,,,,,
232043,1616774851705,302,143,46,0.33,13.44,0.23,0.02,-0.23,2,-17,4,0.23,0,45.846687,5.17892,47.77,749.5,7,2,2.0,0,0.0,-1,0.0,0.0,0.0,0,0.31,3.8674
232083,1616774851745,,,46,,,-0.06,0.02,-0.09,2,-28,5,0.06,0,,,,,,,,,,,,,,,,
232123,1616774851785,,,46,,,-0.26,0.12,0.14,2,-37,7,0.29,0,,,,,,,,,,,,,,,,
232163,1616774851825,,,47,,,-0.54,0.03,0.47,3,-40,7,0.54,0,,,,,,,,,,,,,,,,
232203,1616774851865,,,47,,,-0.47,0.07,0.76,4,-44,6,0.48,0,,,,,,,,,,,,,,,,
232243,1616774851905,,,46,,,-0.31,0.17,0.56,5,-36,7,0.36,0,45.846664,5.178972,49.26,749.4,7,2,1.8,0,0.0,-1,0.0,0.0,0.0,0,0.31,3.8707
232283,1616774851945,,,46,,,-0.04,0.22,0.79,6,-21,5,0.22,0,,,,,,,,,,,,,,,,
232323,1616774851985,,,47,,,0.0,0.29,0.92,6,-10,1,0.29,0,,,,,,,,,,,,,,,,
232363,1616774852021,,,47,,,-0.03,0.28,0.61,6,-8,2,0.28,0,,,,,,,,,,,,,,,,
232403,1616774852061,,,49,,,0.01,0.28,0.28,6,-5,-0,0.28,0,,,,,,,,,,,,,,,,
232443,1616774852107,,,49,,,0.08,0.32,0.24,7,-3,1,0.33,0,45.846645,5.179029,51.27,749.8,7,2,2.0,0,0.0,-1,0.0,0.0,0.0,0,0.32,3.8741
232483,1616774852147,,,48,,,0.2,0.31,0.57,7,-6,-6,0.37,0,,,,,,,,,,,,,,,,
232523,1616774852187,,,48,,,0.36,0.24,0.71,7,0,-4,0.43,0,,,,,,,,,,,,,,,,
232563,1616774852227,,,51,,,0.35,0.05,0.73,6,4,-4,0.35,0,,,,,,,,,,,,,,,,
232603,1616774852267,,,48,,,0.45,0.06,0.77,6,7,-4,0.45,0,,,,,,,,,,,,,,,,
232643,1616774852306,,,48,,,0.57,0.12,0.79,6,4,-4,0.58,0,45.84663,5.179084,50.86,750.2,7,2,2.0,0,0.0,-1,0.0,0.0,0.0,0,0.32,3.8774
232683,1616774852346,,,47,,,0.58,0.21,0.62,7,1,-2,0.62,0,,,,,,,,,,,,,,,,
232723,1616774852386,,,48,,,0.54,0.21,0.67,7,3,-1,0.57,0,,,,,,,,,,,,,,,,
232763,1616774852426,,,47,,,0.57,0.15,0.89,6,-1,-2,0.59,0,,,,,,,,,,,,,,,,
232803,1616774852466,,,48,,,0.5,0.08,1.03,6,-2,-0,0.5,0,,,,,,,,,,,,,,,,
232843,1616774852506,,,49,,,0.54,0.06,1.08,5,-0,1,0.54,0,45.846611,5.179137,51.83,750.5,7,2,2.0,0,0.0,-1,0.0,0.0,0.0,0,0.32,3.8807
232883,1616774852546,,,47,,,0.43,0.13,1.01,5,1,-0,0.45,0,,,,,,,,,,,,,,,,
232923,1616774852586,,,50,,,0.52,0.13,1.11,6,-1,1,0.54,0,,,,,,,,,,,,,,,,
232963,1616774852626,,,49,,,0.6,-0.05,0.78,6,-3,5,0.6,0,,,,,,,,,,,,,,,,
233003,1616774852666,,,51,,,0.45,-0.06,0.82,6,-2,3,0.45,0,,,,,,,,,,,,,,,,
233043,1616774852706,302,143,48,0.34,13.69,0.28,-0.03,0.7,6,-5,4,0.28,0,45.846592,5.17919,52.53,750.2,7,2,2.0,0,0.0,-1,0.0,0.0,0.0,0,0.32,3.884
233083,1616774852746,,,51,,,0.28,-0.04,0.64,5,-1,3,0.28,0,,,,,,,,,,,,,,,,
233123,1616774852786,,,48,,,0.1,0.05,0.9,5,3,0,0.12,0,,,,,,,,,,,,,,,,
233163,1616774852826,,,48,,,0.05,0.07,0.75,5,4,0,0.09,0,,,,,,,,,,,,,,,,
233203,1616774852866,,,52,,,0.01,0.05,0.75,5,8,-1,0.05,0,,,,,,,,,,,,,,,,
233243,1616774852906,,,51,,,-0.09,0.12,0.56,4,8,-3,0.15,0,45.846569,5.179244,53.58,750.1,7,2,2.0,0,0.0,-1,0.0,0.0,0.0,0,0.33,3.8874
233283,1616774852946,,,51,,,-0.23,0.06,0.75,4,7,-2,0.24,0,,,,,,,,,,,,,,,,
233323,1616774852986,,,50,,,-0.27,0.13,0.87,3,1,-1,0.3,0,,,,,,,,,,,,,,,,
233363,1616774853020,,,50,,,-0.29,0.24,0.98,3,-3,-1,0.38,0,,,,,,,,,,,,,,,,
233403,1616774853060,,,48,,,-0.33,0.15,0.54,2,-1,-0,0.37,0,,,,,,,,,,,,,,,,
233443,1616774853104,,,51,,,-0.31,0.26,0.32,2,0,1,0.41,0,45.846546,5.179297,53.58,750.0,7,2,1.8,0,0.0,-1,0.0,0.0,0.0,0,0.33,3.8907
233483,1616774853144,,,50,,,-0.21,0.21,-0.04,1,2,2,0.3,0,,,,,,,,,,,,,,,,
233523,1616774853184,,,49,,,-0.18,-0.02,-0.34,1,4,2,0.18,0,,,,,,,,,,,,,,,,
233563,1616774853226,,,50,,,-0.09,0.04,-0.38,1,-1,-0,0.1,0,,,,,,,,,,,,,,,,
233603,1616774853266,,,49,,,-0.07,0.09,-0.17,0,-7,3,0.11,0,,,,,,,,,,,,,,,,
233643,1616774853307,,,50,,,-0.22,0.08,-0.25,0,-17,5,0.23,0,45.846527,5.179349,53.09,750.0,7,2,1.8,0,0.0,-1,0.0,0.0,0.0,0,0.33,3.8941
233683,1616774853347,,,48,,,-0.28,0.11,0.17,0,-21,1,0.3,0,,,,,,,,,,,,,,,,
233723,1616774853387,,,49,,,-0.5,0.03,0.28,0,-18,4,0.5,0,,,,,,,,,,,,,,,,
233763,1616774853425,,,49,,,-0.34,-0.01,0.32,1,-6,1,0.34,0,,,,,,,,,,,,,,,,
233803,1616774853465,,,48,,,-0.39,-0.01,-0.12,1,-11,3,0.39,0,,,,,,,,,,,,,,,,
233843,1616774853507,,,49,,,-0.48,0.08,0.28,1,-17,1,0.48,0,45.846508,5.179401,52.87,749.5,7,2,1.8,0,0.0,-1,0.0,0.0,0.0,0,0.34,3.8974
233883,1616774853547,,,50,,,-0.5,0.05,0.25,2,-10,-1,0.51,0,,,,,,,,,,,,,,,,
233923,1616774853587,,,50,,,-0.53,0.01,0.03,2,-9,-0,0.53,0,,,,,,,,,,,,,,,,
233963,1616774853627,,,47,,,-0.63,0.05,0.0,2,-10,1,0.63,0,,,,,,,,,,,,,,,,
234003,1616774853667,,,51,,,-0.49,0.0,-0.02,2,-3,-1,0.49,0,,,,,,,,,,,,,,,,
234043,1616774853707,302,138,48,0.33,13.8,-0.49,0.08,0.36,2,-2,-5,0.49,0,45.846485,5.179449,51.93,749.0,7,2,1.8,0,0.0,-1,0.0,0.0,0.0,0,0.34,3.9007
234083,1616774853747,,,51,,,-0.58,-0.0,0.3,2,-7,-3,0.58,0,,,,,,,,,,,,,,,,
234123,1616774853787,,,50,,,-0.6,-0.09,0.22,2,-3,-4,0.61,0,,,,,,,,,,,,,,,,
234163,1616774853827,,,50,,,-0.54,-0.08,0.2,2,2,-7,0.55,0,,,,,,,,,,,,,,,,
234203,1616774853867,,,51,,,-0.54,-0.08,-0.22,1,-4,-2,0.54,0,,,,,,,,,,,,,,,,
