"Interval"|"ms"|0|0|1,"Utc"|"ms"|0|0|1,"EngineTemp"|"F"|0|300|1,"OilTemp"|"F"|0|300|1,"OilPress"|"PSI"|0|150|25,"Battery"|"Volts"|0.0|20.0|1,"Battery"|"Volts"|0.0|20.0|1,"AccelX"|"G"|-3.0|3.0|25,"AccelY"|"G"|-3.0|3.0|25,"AccelZ"|"G"|-3.0|3.0|25,"Yaw"|"Deg/Sec"|-120|120|25,"Pitch"|"Deg/Sec"|-120|120|25,"Roll"|"Deg/Sec"|-120|120|25,"Gsum"|"G"|0.0|3.0|25,"RPM"|""|0|10000|25,"Latitude"|"Degrees"|-180.0|180.0|10,"Longitude"|"Degrees"|-180.0|180.0|10,"Speed"|"mph"|0.0|150.0|10,"Altitude"|"ft"|0.0|4000.0|10,"GPSSats"|""|0|20|10,"GPSQual"|""|0|5|10,"GPSDOP"|""|0.0|20.0|10,"LapCount"|""|0|0|10,"LapTime"|"Min"|0.0|0.0|10,"Sector"|""|0|0|10,"SectorTime"|"Min"|0.0|0.0|10,"PredTime"|"Min"|0.0|0.0|5,"ElapsedTime"|"Min"|0.0|0.0|10,"CurrentLap"|""|0|0|10,"Distance"|"mi"|0.0|0.0|10,"SessionTime"|"Min"|0.0|0.0|10
311563,1616774931228,,,51,,,-0.76,0.07,0.83,4,16,-8,0.76,0,,,,,,,,,,,,,,,,
311603,1616774931268,,,53,,,-0.73,0.02,1.05,3,18,-8,0.73,0,,,,,,,,,,,,,,,,
311643,1616774931308,,,51,,,-0.75,-0.0,0.93,2,15,-6,0.75,0,45.846939,5.17842,47.04,715.6,7,2,2.7,0,0.0,-1,0.0,0.0,0.0,0,0.89,5.194
311683,1616774931348,,,53,,,-0.67,0.02,1.14,1,16,-6,0.67,0,,,,,,,,,,,,,,,,
311723,1616774931388,,,53,,,-0.56,-0.07,1.1,0,17,-5,0.56,0,,,,,,,,,,,,,,,,
311763,1616774931429,,,50,,,-0.57,-0.05,0.83,-0,11,-4,0.58,0,,,,,,,,,,,,,,,,
311803,1616774931469,,,52,,,-0.57,0.01,0.93,-0,7,-4,0.57,0,,,,,,,,,,,,,,,,
311843,1616774931507,,,50,,,-0.5,-0.02,1.06,-1,4,-3,0.5,0,45.846954,5.178375,44.94,715.6,7,2,2.7,0,0.0,-1,0.0,0.0,0.0,0,0.89,5.1974
311883,1616774931547,,,53,,,-0.55,0.0,0.96,-0,3,-2,0.55,0,,,,,,,,,,,,,,,,
311923,1616774931587,,,51,,,-0.26,-0.01,1.01,-0,14,-4,0.26,0,,,,,,,,,,,,,,,,
311963,1616774931627,,,52,,,-0.41,0.05,1.2,-0,29,-6,0.41,0,,,,,,,,,,,,,,,,
312003,1616774931667,,,52,,,-0.39,0.04,0.68,-0,42,-4,0.39,0,,,,,,,,,,,,,,,,
312043,1616774931707,296,147,50,0.33,13.68,-0.61,-0.03,0.72,-1,31,-5,0.61,0,45.846966,5.178334,42.91,715.7,7,2,2.7,0,0.0,-1,0.0,0.0,0.0,0,0.89,5.2007
312083,1616774931747,,,50,,,-0.7,-0.05,0.97,-1,51,-6,0.7,0,,,,,,,,,,,,,,,,
312123,1616774931787,,,50,,,-0.93,-0.06,1.16,-2,61,-8,0.93,0,,,,,,,,,,,,,,,,
312163,1616774931827,,,51,,,-1.01,-0.11,1.1,-4,55,-6,1.02,0,,,,,,,,,,,,,,,,
312203,1616774931867,,,50,,,-0.69,-0.11,1.27,-5,48,-6,0.7,0,,,,,,,,,,,,,,,,
312243,1616774931907,,,49,,,-0.17,-0.1,1.41,-7,29,-1,0.2,0,45.846981,5.178296,40.5,715.7,7,2,2.7,0,0.0,-1,0.0,0.0,0.0,0,0.89,5.2041
312283,1616774931947,,,49,,,0.01,-0.12,1.46,-8,21,1,0.12,0,,,,,,,,,,,,,,,,
312323,1616774931987,,,50,,,-0.23,-0.19,1.52,-10,20,-2,0.3,0,,,,,,,,,,,,,,,,
312363,1616774932023,,,49,,,-0.24,-0.21,1.61,-11,4,-1,0.32,0,,,,,,,,,,,,,,,,
312403,1616774932063,,,49,,,-0.31,-0.24,1.52,-12,2,-1,0.39,0,,,,,,,,,,,,,,,,
312443,1616774932107,,,50,,,-0.15,-0.28,1.56,-13,6,-2,0.32,0,45.846989,5.178255,39.64,715.6,7,2,2.7,0,0.0,-1,0.0,0.0,0.0,0,0.89,5.2074
312483,1616774932147,,,49,,,-0.37,-0.32,1.58,-14,9,-3,0.49,0,,,,,,,,,,,,,,,,
312523,1616774932187,,,49,,,-0.46,-0.37,1.5,-15,-10,-1,0.59,0,,,,,,,,,,,,,,,,
312563,1616774932227,,,51,,,-0.24,-0.43,0.86,-16,-14,2,0.49,0,,,,,,,,,,,,,,,,
312603,1616774932267,,,50,,,-0.34,-0.44,0.73,-16,-11,1,0.56,0,,,,,,,,,,,,,,,,
312643,1616774932309,,,48,,,-0.29,-0.33,0.97,-17,8,-7,0.44,0,45.847,5.178221,36.3,715.7,7,2,2.7,0,0.0,-1,0.0,0.0,0.0,0,0.9,5.2107
312683,1616774932349,,,49,,,-0.34,-0.41,0.42,-18,1,-2,0.53,0,,,,,,,,,,,,,,,,
312723,1616774932389,,,49,,,-0.18,-0.35,0.72,-18,7,-6,0.39,0,,,,,,,,,,,,,,,,
312763,1616774932428,,,48,,,-0.3,-0.47,0.2,-18,-7,1,0.56,0,,,,,,,,,,,,,,,,
312803,1616774932468,,,49,,,-0.08,-0.39,0.51,-19,6,-8,0.4,0,,,,,,,,,,,,,,,,
312843,1616774932508,,,48,,,-0.01,-0.39,0.43,-20,-3,-4,0.39,0,45.847004,5.178187,33.97,715.7,7,2,2.7,0,0.0,-1,0.0,0.0,0.0,0,0.9,5.214
312883,1616774932548,,,48,,,-0.16,-0.39,0.33,-20,-4,-3,0.43,0,,,,,,,,,,,,,,,,
312923,1616774932588,,,48,,,0.1,-0.37,0.6,-21,4,-5,0.38,0,,,,,,,,,,,,,,,,
312963,1616774932628,,,49,,,-0.23,-0.44,0.1,-22,-2,-3,0.49,0,,,,,,,,,,,,,,,,
313003,1616774932668,,,49,,,-0.29,-0.53,-0.24,-24,-16,5,0.61,0,,,,,,,,,,,,,,,,
313043,1616774932708,302,144,50,0.34,13.65,-0.23,-0.57,-0.23,-26,-24,8,0.61,0,45.847012,5.178158,31.02,715.6,7,2,2.7,0,0.0,-1,0.0,0.0,0.0,0,0.9,5.2174
313083,1616774932748,,,49,,,-0.5,-0.67,-0.57,-28,-33,12,0.84,0,,,,,,,,,,,,,,,,
313123,1616774932788,,,49,,,-0.77,-0.72,-0.84,-29,-32,10,1.05,0,,,,,,,,,,,,,,,,
313163,1616774932828,,,49,,,-0.73,-0.68,-0.98,-30,-41,14,1.0,0,,,,,,,,,,,,,,,,
313203,1616774932868,,,48,,,-0.38,-0.56,-0.41,-30,-30,11,0.67,0,,,,,,,,,,,,,,,,
313243,1616774932908,,,50,,,-0.11,-0.5,0.05,-30,-16,5,0.51,0,45.847015,5.178131,28.54,715.3,7,2,2.7,0,0.0,-1,0.0,0.0,0.0,0,0.9,5.2207
313283,1616774932948,,,48,,,-0.04,-0.44,0.29,-29,-18,5,0.44,0,,,,,,,,,,,,,,,,
313323,1616774932988,,,49,,,-0.36,-0.63,-0.12,-29,-26,8,0.72,0,,,,,,,,,,,,,,,,
313363,1616774933024,,,48,,,-0.26,-0.6,0.13,-29,-17,4,0.65,0,,,,,,,,,,,,,,,,
313403,1616774933064,,,48,,,-0.39,-0.6,0.04,-29,-17,5,0.71,0,,,,,,,,,,,,,,,,
313443,1616774933108,,,49,,,-0.29,-0.67,0.2,-29,-10,3,0.73,0,45.847015,5.178112,24.13,715.3,7,2,2.7,0,0.0,-1,0.0,0.0,0.0,0,0.9,5.2241
313483,1616774933148,,,49,,,-0.36,-0.54,0.32,-28,-14,2,0.65,0,,,,,,,,,,,,,,,,
313523,1616774933188,,,49,,,-0.29,-0.54,0.5,-27,-11,2,0.62,0,,,,,,,,,,,,,,,,
313563,1616774933228,,,49,,,-0.4,-0.5,0.51,-27,-18,2,0.64,0,,,,,,,,,,,,,,,,
313603,1616774933268,,,48,,,-0.26,-0.52,0.71,-26,-13,2,0.58,0,,,,,,,,,,,,,,,,
313643,1616774933308,,,49,,,-0.37,-0.48,0.45,-26,-9,0,0.61,0,45.847019,5.178091,22.16,715.4,7,2,2.7,0,0.0,-1,0.0,0.0,0.0,0,0.91,5.2274
313683,1616774933348,,,49,,,-0.35,-0.5,0.4,-26,-10,2,0.61,0,,,,,,,,,,,,,,,,
313723,1616774933388,,,48,,,-0.36,-0.44,0.64,-25,-12,2,0.57,0,,,,,,,,,,,,,,,,
313763,1616774933429,,,49,,,-0.38,-0.37,0.72,-24,-11,1,0.53,0,,,,,,,,,,,,,,,,
313803,1616774933469,,,49,,,-0.34,-0.35,0.85,-23,-8,-0,0.49,0,,,,,,,,,,,,,,,,
313843,1616774933507,,,49,,,-0.28,-0.27,0.86,-23,-5,-0,0.39,0,45.847023,5.178065,22.42,715.4,7,2,2.7,0,0.0,-1,0.0,0.0,0.0,0,0.91,5.2307
313883,1616774933547,,,50,,,-0.29,-0.26,0.73,-22,-4,-1,0.39,0,,,,,,,,,,,,,,,,
313923,1616774933587,,,50,,,-0.31,-0.24,0.83,-21,-2,-1,0.39,0,,,,,,,,,,,,,,,,
313963,1616774933627,,,49,,,-0.28,-0.23,0.76,-20,2,-1,0.36,0,,,,,,,,,,,,,,,,
314003,1616774933667,,,48,,,-0.2,-0.2,0.83,-19,4,-1,0.29,0,,,,,,,,,,,,,,,,
314043,1616774933707,302,145,50,0.34,13.69,-0.21,-0.19,0.77,-18,4,-1,0.28,0,45.847023,5.17804,21.57,715.1,7,2,2.7,0,0.0,-1,0.0,0.0,0.0,0,0.91,5.234
314083,1616774933747,,,49,,,-0.27,-0.17,0.82,-16,3,-1,0.32,0,,,,,,,,,,,,,,,,
314123,1616774933787,,,50,,,-0.19,-0.17,0.86,-14,3,0,0.25,0,,,,,,,,,,,,,,,,
314163,1616774933829,,,50,,,-0.39,-0.11,1.05,-11,-2,-1,0.4,0,,,,,,,,,,,,,,,,
314203,1616774933869,,,48,,,-0.18,-0.06,0.81,-9,-15,2,0.19,0,,,,,,,,,,,,,,,,
314243,1616774933907,,,50,,,0.24,-0.03,0.29,-6,3,3,0.24,0,45.847023,5.178021,20.2,714.8,7,2,2.7,0,0.0,-1,0.0,0.0,0.0,0,0.91,5.2374
314283,1616774933947,,,51,,,0.23,0.12,0.57,-3,25,-0,0.27,0,,,,,,,,,,,,,,,,
314323,1616774933987,,,51,,,-0.18,0.2,0.84,0,16,-1,0.27,0,,,,,,,,,,,,,,,,
314363,1616774934025,,,51,,,-0.46,0.16,1.05,3,-11,1,0.49,0,,,,,,,,,,,,,,,,
314403,1616774934065,,,49,,,-0.39,0.18,0.71,6,-34,4,0.42,0,,,,,,,,,,,,,,,,
314443,1616774934109,,,51,,,-0.05,0.22,0.19,8,-42,5,0.23,0,45.847023,5.178,19.19,714.4,7,2,3.8,0,0.0,-1,0.0,0.0,0.0,0,0.91,5.2407
314483,1616774934149,,,50,,,0.33,0.21,-0.23,11,-40,7,0.39,0,,,,,,,,,,,,,,,,
314523,1616774934189,,,52,,,0.65,0.19,-0.56,14,-34,8,0.68,0,,,,,,,,,,,,,,,,
314563,1616774934229,,,52,,,0.92,0.23,-0.84,17,-26,9,0.94,0,,,,,,,,,,,,,,,,
314603,1616774934269,,,50,,,1.13,0.22,-1.06,20,-16,10,1.15,0,,,,,,,,,,,,,,,,
314643,1616774934311,,,52,,,1.3,0.28,-1.24,23,-2,9,1.33,0,45.847019,5.177981,17.3,714.7,7,2,3.8,0,0.0,-1,0.0,0.0,0.0,0,0.91,5.2441
314683,1616774934351,,,52,,,1.44,0.25,-1.38,27,11,9,1.46,0,,,,,,,,,,,,,,,,
314723,1616774934391,,,51,,,1.21,0.3,-1.44,30,-2,10,1.24,0,,,,,,,,,,,,,,,,
314763,1616774934430,,,52,,,0.61,0.46,-0.79,33,-31,9,0.77,0,,,,,,,,,,,,,,,,
314803,1616774934470,,,48,,,0.15,0.51,-0.26,35,-38,6,0.53,0,,,,,,,,,,,,,,,,
314843,1616774934510,,,52,,,0.12,0.61,0.17,38,-17,5,0.62,0,45.847015,5.177964,16.23,714.7,7,2,3.8,0,0.0,-1,0.0,0.0,0.0,0,0.91,5.2474
314883,1616774934550,,,52,,,0.38,0.62,-0.24,42,12,5,0.73,0,,,,,,,,,,,,,,,,
314923,1616774934590,,,52,,,0.37,0.66,-0.58,46,7,7,0.76,0,,,,,,,,,,,,,,,,
314963,1616774934630,,,51,,,-0.03,0.76,-0.09,49,-18,3,0.76,0,,,,,,,,,,,,,,,,
315003,1616774934670,,,52,,,-0.13,0.77,0.31,52,-14,3,0.78,0,,,,,,,,,,,,,,,,
315043,1616774934710,302,145,52,0.34,13.77,0.13,0.72,-0.13,55,10,4,0.73,0,45.847012,5.177949,15.34,714.6,7,2,3.8,0,0.0,-1,0.0,0.0,0.0,0,0.91,5.2507
315083,1616774934750,,,52,,,-0.01,0.74,-0.25,58,-1,6,0.74,0,,,,,,,,,,,,,,,,
315123,1616774934790,,,52,,,-0.38,0.84,0.17,61,-25,6,0.92,0,,,,,,,,,,,,,,,,
315163,1616774934830,,,51,,,-0.37,0.93,0.52,63,-14,4,1.0,0,,,,,,,,,,,,,,,,
315203,1616774934870,,,52,,,0.01,0.89,0.04,66,11,5,0.89,0,,,,,,,,,,,,,,,,
315243,1616774934910,,,51,,,-0.02,0.95,-0.27,69,7,5,0.95,0,45.847008,5.177932,14.66,714.6,7,2,3.8,0,0.0,-1,0.0,0.0,0.0,0,0.91,5.254
315283,1616774934950,,,51,,,-0.35,1.02,0.16,71,-14,3,1.08,0,,,,,,,,,,,,,,,,
315323,1616774934990,,,51,,,-0.54,1.05,0.51,74,-4,4,1.19,0,,,,,,,,,,,,,,,,
315363,1616774935024,,,51,,,-0.24,1.08,0.35,77,19,4,1.1,0,,,,,,,,,,,,,,,,
315403,1616774935064,,,52,,,0.01,1.02,-0.1,79,11,4,1.02,0,,,,,,,,,,,,,,,,
315443,1616774935110,,,52,,,-0.21,1.05,-0.22,81,-18,6,1.07,0,45.847012,5.177921,12.17,714.2,7,2,2.7,0,0.0,-1,0.0,0.0,0.0,0,0.91,5.2574
315483,1616774935150,,,52,,,-0.54,1.0,0.2,82,-41,5,1.14,0,,,,,,,,,,,,,,,,
315523,1616774935190,,,52,,,-0.81,1.07,0.55,84,-59,3,1.35,0,,,,,,,,,,,,,,,,
315563,1616774935228,,,50,,,-1.03,1.09,0.82,85,-75,6,1.5,0,,,,,,,,,,,,,,,,
315603,1616774935268,,,52,,,-1.21,1.13,1.04,86,-90,5,1.66,0,,,,,,,,,,,,,,,,
315643,1616774935308,,,52,,,-1.35,1.16,1.23,87,-91,4,1.78,0,45.847019,5.17791,11.16,713.8,7,2,2.7,0,0.0,-1,0.0,0.0,0.0,0,0.92,5.2607
315683,1616774935348,,,50,,,-1.47,1.16,1.37,89,-88,1,1.87,0,,,,,,,,,,,,,,,,
315723,1616774935391,,,50,,,-1.56,1.16,1.49,89,-86,-0,1.95,0,,,,,,,,,,,,,,,,
315763,1616774935431,,,51,,,-1.49,1.19,1.59,89,-64,1,1.91,0,,,,,,,,,,,,,,,,
315803,1616774935471,,,52,,,-1.07,1.09,1.07,90,-35,1,1.53,0,,,,,,,,,,,,,,,,
315843,1616774935507,,,51,,,-0.87,1.07,0.49,90,-42,3,1.38,0,45.847027,5.177902,11.45,713.9,7,2,2.7,0,0.0,-1,0.0,0.0,0.0,0,0.92,5.264
315883,1616774935547,,,51,,,-1.04,1.12,0.73,90,-56,3,1.53,0,,,,,,,,,,,,,,,,
315923,1616774935587,,,51,,,-0.96,1.11,0.97,90,-40,3,1.46,0,,,,,,,,,,,,,,,,
315963,1616774935629,,,52,,,-0.43,1.11,0.47,90,-11,3,1.19,0,,,,,,,,,,,,,,,,
316003,1616774935669,,,52,,,-0.02,0.94,-0.0,91,0,3,0.94,0,,,,,,,,,,,,,,,,
316043,1616774935709,302,143,51,0.34,13.77,0.05,0.95,-0.38,91,-15,5,0.96,0,45.847034,5.177898,10.65,713.8,7,2,2.7,0,0.0,-1,0.0,0.0,0.0,0,0.92,5.2674
316083,1616774935749,,,52,,,-0.27,0.89,-0.14,90,-36,6,0.93,0,,,,,,,,,,,,,,,,
316123,1616774935789,,,51,,,-0.33,0.94,0.27,90,-28,5,1.0,0,,,,,,,,,,,,,,,,
316163,1616774935829,,,52,,,0.0,0.91,-0.15,90,-1,6,0.91,0,,,,,,,,,,,,,,,,
316203,1616774935869,,,51,,,0.2,0.88,-0.51,90,1,6,0.9,0,,,,,,,,,,,,,,,,
316243,1616774935909,,,52,,,-0.06,0.87,-0.33,90,-21,6,0.88,0,45.847042,5.177904,10.95,713.8,7,2,2.7,0,0.0,-1,0.0,0.0,0.0,0,0.92,5.2707
316283,1616774935949,,,51,,,-0.37,0.87,0.11,90,-33,5,0.95,0,,,,,,,,,,,,,,,,
316323,1616774935989,,,51,,,-0.31,0.87,0.31,90,-14,5,0.92,0,,,,,,,,,,,,,,,,
316363,1616774936023,,,51,,,0.04,0.85,-0.13,89,10,7,0.85,0,,,,,,,,,,,,,,,,
316403,1616774936063,,,51,,,0.02,0.79,-0.47,88,1,7,0.79,0,,,,,,,,,,,,,,,,
316443,1616774936107,,,51,,,-0.34,0.75,-0.13,88,-26,6,0.82,0,45.84705,5.177915,12.25,713.7,7,2,2.7,0,0.0,-1,0.0,0.0,0.0,0,0.92,5.274
316483,1616774936147,,,51,,,-0.64,0.85,0.28,87,-50,7,1.07,0,,,,,,,,,,,,,,,,
316523,1616774936187,,,52,,,-0.88,0.85,0.6,87,-59,7,1.22,0,,,,,,,,,,,,,,,,
316563,1616774936229,,,51,,,-0.62,0.88,0.47,87,-35,6,1.07,0,,,,,,,,,,,,,,,,
316603,1616774936269,,,52,,,-0.28,0.86,-0.0,88,-17,7,0.9,0,,,,,,,,,,,,,,,,
316643,1616774936311,,,52,,,-0.27,0.83,-0.38,89,-26,8,0.88,0,45.847057,5.177928,13.19,713.4,7,2,2.7,0,0.0,-1,0.0,0.0,0.0,0,0.92,5.2774
316683,1616774936351,,,51,,,-0.56,0.81,-0.05,89,-47,9,0.99,0,,,,,,,,,,,,,,,,
316723,1616774936391,,,52,,,-0.83,0.8,0.34,88,-62,7,1.15,0,,,,,,,,,,,,,,,,
316763,1616774936426,,,52,,,-1.04,0.83,0.65,88,-71,8,1.33,0,,,,,,,,,,,,,,,,
316803,1616774936466,,,52,,,-1.22,0.88,0.91,88,-88,9,1.5,0,,,,,,,,,,,,,,,,
316843,1616774936506,,,52,,,-1.26,0.87,1.01,87,-98,10,1.54,0,45.847061,5.177946,13.28,713.1,7,2,2.7,0,0.0,-1,0.0,0.0,0.0,0,0.92,5.2807
316883,1616774936546,,,52,,,-0.93,0.77,0.49,84,-86,11,1.21,0,,,,,,,,,,,,,,,,
316923,1616774936586,,,52,,,-0.39,0.76,0.02,81,-64,11,0.85,0,,,,,,,,,,,,,,,,
316963,1616774936628,,,52,,,0.04,0.68,-0.37,77,-39,11,0.68,0,,,,,,,,,,,,,,,,
317003,1616774936668,,,51,,,0.42,0.64,-0.55,74,-9,10,0.76,0,,,,,,,,,,,,,,,,
317043,1616774936708,302,144,51,0.34,13.75,0.32,0.61,-0.39,70,5,7,0.69,0,45.847065,5.177964,13.38,712.8,7,2,2.7,0,0.0,-1,0.0,0.0,0.0,0,0.92,5.284
317083,1616774936748,,,50,,,0.42,0.52,-0.3,66,2,7,0.67,0,,,,,,,,,,,,,,,,
317123,1616774936788,,,51,,,0.69,0.52,-0.13,61,8,6,0.86,0,,,,,,,,,,,,,,,,
317163,1616774936828,,,49,,,0.49,0.59,0.03,57,18,2,0.77,0,,,,,,,,,,,,,,,,
317203,1616774936868,,,49,,,0.51,0.49,0.1,52,16,3,0.7,0,,,,,,,,,,,,,,,,
317243,1616774936908,,,50,,,0.5,0.48,-0.01,48,15,3,0.7,0,45.847065,5.177985,14.4,712.5,7,2,2.7,0,0.0,-1,0.0,0.0,0.0,0,0.92,5.2874
317283,1616774936948,,,49,,,0.55,0.5,0.21,44,11,2,0.75,0,,,,,,,,,,,,,,,,
317323,1616774936988,,,49,,,0.57,0.44,0.35,41,11,2,0.72,0,,,,,,,,,,,,,,,,
317363,1616774937022,,,48,,,0.49,0.46,0.1,38,6,3,0.67,0,,,,,,,,,,,,,,,,
317403,1616774937062,,,50,,,0.59,0.4,0.45,36,13,0,0.71,0,,,,,,,,,,,,,,,,
317443,1616774937108,,,49,,,0.84,0.49,0.69,33,4,3,0.98,0,45.847065,5.178007,15.62,711.9,7,2,2.7,0,0.0,-1,0.0,0.0,0.0,0,0.92,5.2907
317483,1616774937148,,,49,,,0.85,0.54,0.81,31,-13,8,1.01,0,,,,,,,,,,,,,,,,
317523,1616774937188,,,48,,,1.0,0.59,1.03,28,-14,8,1.16,0,,,,,,,,,,,,,,,,
317563,1616774937228,,,49,,,0.86,0.47,0.82,25,-0,1,0.98,0,,,,,,,,,,,,,,,,
317603,1616774937268,,,50,,,0.95,0.45,0.68,23,-7,6,1.05,0,,,,,,,,,,,,,,,,
317643,1616774937308,,,48,,,0.77,0.37,0.53,20,-10,7,0.86,0,45.847061,5.178027,15.77,711.4,7,2,2.7,0,0.0,-1,0.0,0.0,0.0,0,0.92,5.2941
317683,1616774937348,,,47,,,0.68,0.26,0.41,18,-13,6,0.73,0,,,,,,,,,,,,,,,,
317723,1616774937388,,,49,,,0.74,0.14,0.31,15,-18,9,0.75,0,,,,,,,,,,,,,,,,
317763,1616774937429,,,49,,,0.75,0.14,0.46,13,5,-1,0.76,0,,,,,,,,,,,,,,,,
317803,1616774937469,,,47,,,0.53,0.17,-0.01,10,-15,8,0.56,0,,,,,,,,,,,,,,,,
317843,1616774937507,,,48,,,0.74,0.18,0.37,9,2,-1,0.76,0,45.847057,5.178045,16.93,711.7,7,2,2.7,0,0.0,-1,0.0,0.0,0.0,0,0.92,5.2974
317883,1616774937547,,,48,,,0.79,0.17,-0.08,9,-6,8,0.81,0,,,,,,,,,,,,,,,,
317923,1616774937587,,,48,,,0.81,0.12,-0.05,8,-6,9,0.82,0,,,,,,,,,,,,,,,,
317963,1616774937629,,,48,,,0.71,0.11,-0.06,7,-7,6,0.72,0,,,,,,,,,,,,,,,,
318003,1616774937669,,,49,,,0.74,0.11,0.33,7,-6,4,0.75,0,,,,,,,,,,,,,,,,
318043,1616774937709,302,147,49,0.33,13.62,0.86,0.12,0.15,7,0,5,0.87,0,45.84705,5.178068,20.03,711.9,7,2,2.7,0,0.0,-1,0.0,0.0,0.0,0,0.92,5.3007
318083,1616774937749,,,49,,,0.71,0.11,0.14,6,-10,4,0.72,0,,,,,,,,,,,,,,,,
318123,1616774937789,,,47,,,0.43,0.13,0.49,6,-19,1,0.45,0,,,,,,,,,,,,,,,,
318163,1616774937829,,,48,,,0.29,-0.08,0.78,5,-24,-0,0.3,0,,,,,,,,,,,,,,,,
318203,1616774937869,,,49,,,0.43,0.04,0.89,6,-23,2,0.43,0,,,,,,,,,,,,,,,,
318243,1616774937909,,,48,,,0.5,0.16,0.55,6,-16,2,0.52,0,45.847042,5.178095,22.77,711.8,7,2,2.7,0,0.0,-1,0.0,0.0,0.0,0,0.93,5.304
318283,1616774937949,,,49,,,0.65,0.19,0.83,6,-6,-3,0.68,0,,,,,,,,,,,,,,,,
318323,1616774937989,,,49,,,0.63,0.07,0.5,6,1,-4,0.63,0,,,,,,,,,,,,,,,,
318363,1616774938023,,,49,,,0.76,-0.04,0.49,6,3,-3,0.76,0,,,,,,,,,,,,,,,,
318403,1616774938063,,,49,,,0.62,0.08,0.39,6,4,-3,0.62,0,,,,,,,,,,,,,,,,
318443,1616774938105,,,48,,,0.65,0.18,0.7,6,-4,-2,0.68,0,45.847034,5.178123,24.09,712.1,7,2,2.7,0,0.0,-1,0.0,0.0,0.0,0,0.93,5.3074
318483,1616774938145,,,52,,,0.79,0.13,0.67,5,-0,-1,0.81,0,,,,,,,,,,,,,,,,
318523,1616774938185,,,50,,,0.71,0.09,0.56,5,2,-3,0.71,0,,,,,,,,,,,,,,,,
318563,1616774938229,,,50,,,0.68,0.0,0.44,3,2,-2,0.68,0,,,,,,,,,,,,,,,,
318603,1616774938269,,,50,,,0.56,0.01,0.16,3,0,-1,0.56,0,,,,,,,,,,,,,,,,
318643,1616774938309,,,50,,,0.47,0.07,-0.25,2,-0,-1,0.48,0,45.847023,5.178158,27.38,712.2,7,2,2.7,0,0.0,-1,0.0,0.0,0.0,0,0.93,5.3107
318683,1616774938349,,,51,,,0.55,0.14,0.18,1,-1,-1,0.57,0,,,,,,,,,,,,,,,,
318723,1616774938389,,,49,,,0.62,0.07,0.31,-0,-1,-0,0.62,0,,,,,,,,,,,,,,,,
318763,1616774938428,,,50,,,0.75,-0.03,0.23,0,1,-2,0.75,0,,,,,,,,,,,,,,,,
318803,1616774938468,,,50,,,0.58,0.07,-0.19,-0,2,1,0.58,0,,,,,,,,,,,,,,,,
318843,1616774938508,,,50,,,0.47,0.1,-0.54,0,-1,2,0.48,0,45.847012,5.178193,30.33,712.4,7,2,2.7,0,0.0,-1,0.0,0.0,0.0,0,0.93,5.3141
318883,1616774938548,,,50,,,0.38,0.09,-0.7,0,-0,0,0.39,0,,,,,,,,,,,,,,,,
318923,1616774938588,,,50,,,0.49,0.17,-0.68,1,-2,-2,0.52,0,,,,,,,,,,,,,,,,
318963,1616774938628,,,50,,,0.5,0.06,-0.57,1,-4,0,0.51,0,,,,,,,,,,,,,,,,
319003,1616774938668,,,52,,,0.61,0.1,-0.16,2,-3,0,0.62,0,,,,,,,,,,,,,,,,
319043,1616774938710,302,148,50,0.34,13.55,0.39,0.08,0.07,1,-3,0,0.4,0,45.847,5.178233,32.29,712.5,7,2,2.7,0,0.0,-1,0.0,0.0,0.0,0,0.93,5.3174
319083,1616774938750,,,51,,,0.5,0.19,0.34,1,-6,-1,0.54,0,,,,,,,,,,,,,,,,
319123,1616774938790,,,51,,,0.38,0.26,0.11,1,-5,-1,0.46,0,,,,,,,,,,,,,,,,
319163,1616774938828,,,52,,,0.39,0.23,0.38,2,-4,-1,0.45,0,,,,,,,,,,,,,,,,
319203,1616774938868,,,51,,,0.42,0.3,0.33,3,3,-2,0.52,0,,,,,,,,,,,,,,,,
319243,1616774938908,,,52,,,0.23,0.21,0.29,3,8,-2,0.31,0,45.846985,5.178271,33.5,712.5,7,2,2.7,0,0.0,-1,0.0,0.0,0.0,0,0.93,5.3207
319283,1616774938948,,,50,,,0.19,0.34,0.07,3,-1,2,0.39,0,,,,,,,,,,,,,,,,
319323,1616774938988,,,52,,,0.08,0.25,-0.19,3,-8,5,0.26,0,,,,,,,,,,,,,,,,
319363,1616774939024,,,50,,,0.18,0.34,-0.14,3,-2,7,0.38,0,,,,,,,,,,,,,,,,
319403,1616774939064,,,51,,,0.36,0.28,0.27,3,10,-1,0.45,0,,,,,,,,,,,,,,,,
319443,1616774939110,,,49,,,0.43,0.26,0.03,3,9,-1,0.5,0,45.846973,5.178312,36.6,712.2,7,2,2.7,0,0.0,-1,0.0,0.0,0.0,0,0.93,5.324
319483,1616774939150,,,52,,,0.47,0.36,0.04,3,8,-1,0.59,0,,,,,,,,,,,,,,,,
319523,1616774939190,,,50,,,0.51,0.33,0.31,3,10,-1,0.61,0,,,,,,,,,,,,,,,,
319563,1616774939230,,,49,,,0.59,0.13,0.05,3,3,1,0.6,0,,,,,,,,,,,,,,,,
319603,1616774939270,,,50,,,0.62,0.06,0.34,3,-0,4,0.62,0,,,,,,,,,,,,,,,,
319643,1616774939308,,,52,,,0.63,0.14,-0.11,2,-1,9,0.65,0,45.846962,5.178357,39.2,712.5,7,2,2.7,0,0.0,-1,0.0,0.0,0.0,0,0.94,5.3274
319683,1616774939348,,,49,,,0.54,0.09,0.16,0,-0,6,0.55,0,,,,,,,,,,,,,,,,
319723,1616774939388,,,50,,,0.58,0.02,0.51,-1,-0,3,0.58,0,,,,,,,,,,,,,,,,
319763,1616774939427,,,50,,,0.65,-0.03,0.03,-3,-2,3,0.65,0,,,,,,,,,,,,,,,,
319803,1616774939467,,,49,,,0.64,-0.15,0.4,-4,2,-0,0.66,0,,,,,,,,,,,,,,,,
319843,1616774939507,,,50,,,0.53,-0.22,0.1,-5,4,0,0.57,0,45.846943,5.178402,41.72,712.5,7,2,2.7,0,0.0,-1,0.0,0.0,0.0,0,0.94,5.3307
319883,1616774939547,,,50,,,0.53,-0.25,0.06,-6,4,-2,0.59,0,,,,,,,,,,,,,,,,
319923,1616774939587,,,50,,,0.55,-0.29,0.3,-6,5,-2,0.62,0,,,,,,,,,,,,,,,,
319963,1616774939629,,,50,,,0.53,-0.25,0.26,-6,2,-2,0.58,0,,,,,,,,,,,,,,,,
320003,1616774939669,,,50,,,0.45,-0.21,0.23,-6,5,-1,0.5,0,,,,,,,,,,,,,,,,
320043,1616774939709,302,147,49,0.34,13.56,0.51,-0.17,0.24,-6,2,-0,0.53,0,45.846928,5.178449,43.07,712.7,7,2,2.7,0,0.0,-1,0.0,0.0,0.0,0,0.94,5.3341
320083,1616774939749,,,49,,,0.49,-0.35,0.57,-5,3,-1,0.6,0,,,,,,,,,,,,,,,,
320123,1616774939789,,,49,,,0.51,-0.29,0.59,-4,2,-3,0.58,0,,,,,,,,,,,,,,,,
320163,1616774939827,,,50,,,0.47,-0.28,0.69,-4,-1,-3,0.54,0,,,,,,,,,,,,,,,,
320203,1616774939867,,,50,,,0.26,-0.07,0.18,-3,-5,-0,0.27,0,,,,,,,,,,,,,,,,
320243,1616774939909,,,49,,,0.25,-0.18,0.52,-4,-0,-4,0.31,0,45.846912,5.178496,43.17,712.5,7,2,2.7,0,0.0,-1,0.0,0.0,0.0,0,0.94,5.3374
320283,1616774939949,,,50,,,0.45,-0.24,0.47,-5,4,-7,0.51,0,,,,,,,,,,,,,,,,
320323,1616774939989,,,50,,,0.39,-0.24,0.45,-6,-0,-5,0.46,0,,,,,,,,,,,,,,,,
320363,1616774940023,,,50,,,0.38,-0.2,0.25,-7,-8,-2,0.43,0,,,,,,,,,,,,,,,,
320403,1616774940063,,,50,,,0.27,-0.29,0.23,-8,-10,-1,0.39,0,,,,,,,,,,,,,,,,
320443,1616774940109,,,50,,,0.38,-0.12,0.03,-8,-11,-4,0.4,0,45.846897,5.178548,46.72,712.8,7,2,2.7,0,0.0,-1,0.0,0.0,0.0,0,0.95,5.3407
320483,1616774940149,,,49,,,0.47,0.05,0.4,-7,-7,-5,0.47,0,,,,,,,,,,,,,,,,
320523,1616774940189,,,50,,,0.47,0.05,0.32,-6,-1,-4,0.47,0,,,,,,,,,,,,,,,,
320563,1616774940229,,,51,,,0.38,0.1,0.0,-4,-0,-5,0.39,0,,,,,,,,,,,,,,,,
320603,1616774940269,,,49,,,0.38,-0.06,0.19,-1,6,-2,0.38,0,,,,,,,,,,,,,,,,
320643,1616774940309,,,52,,,0.36,-0.02,0.17,2,6,2,0.36,0,45.846878,5.178605,50.22,712.6,7,2,2.7,0,0.0,-1,0.0,0.0,0.0,0,0.95,5.344
320683,1616774940349,,,50,,,0.33,0.09,0.42,5,4,2,0.35,0,,,,,,,,,,,,,,,,
320723,1616774940389,,,53,,,0.36,0.3,0.35,9,5,3,0.47,0,,,,,,,,,,,,,,,,
320763,1616774940428,,,54,,,0.52,0.38,0.57,12,1,0,0.65,0,,,,,,,,,,,,,,,,
320803,1616774940468,,,54,,,0.41,0.51,0.42,15,1,-3,0.65,0,,,,,,,,,,,,,,,,
320843,1616774940508,,,55,,,0.39,0.75,0.51,19,-2,-0,0.84,0,45.846859,5.178665,53.11,712.9,7,2,2.7,0,0.0,-1,0.0,0.0,0.0,0,0.95,5.3474
320883,1616774940548,,,55,,,0.32,0.91,0.33,23,-0,2,0.96,0,,,,,,,,,,,,,,,,
320923,1616774940588,,,55,,,0.32,1.06,0.52,24,-0,-3,1.11,0,,,,,,,,,,,,,,,,
320963,1616774940626,,,57,,,0.19,0.9,0.34,24,-6,-1,0.92,0,,,,,,,,,,,,,,,,
321003,1616774940666,,,56,,,0.28,0.65,0.57,25,-3,2,0.7,0,,,,,,,,,,,,,,,,
321043,1616774940708,302,148,55,0.34,13.68,0.5,0.46,0.73,24,0,0,0.67,0,45.846844,5.178727,54.37,713.0,7,2,2.7,0,0.0,-1,0.0,0.0,0.0,0,0.95,5.3507
321083,1616774940748,,,54,,,0.59,0.45,0.57,22,3,0,0.74,0,,,,,,,,,,,,,,,,
321123,1616774940788,,,56,,,0.64,0.68,0.68,21,3,-1,0.94,0,,,,,,,,,,,,,,,,
321163,1616774940828,,,56,,,0.58,0.61,0.57,21,-6,1,0.84,0,,,,,,,,,,,,,,,,
321203,1616774940868,,,55,,,0.5,0.65,0.48,22,-0,-1,0.82,0,,,,,,,,,,,,,,,,
321243,1616774940908,,,56,,,0.48,0.71,0.41,24,-0,2,0.85,0,45.846825,5.178787,56.57,712.9,7,2,2.7,0,0.0,-1,0.0,0.0,0.0,0,0.96,5.3541
321283,1616774940948,,,55,,,0.38,0.94,0.34,25,3,-0,1.01,0,,,,,,,,,,,,,,,,
321323,1616774940988,,,53,,,0.31,0.86,0.35,24,1,1,0.92,0,,,,,,,,,,,,,,,,
321363,1616774941022,,,51,,,0.32,0.58,0.66,21,4,-1,0.66,0,,,,,,,,,,,,,,,,
321403,1616774941062,,,51,,,0.15,0.46,0.23,16,1,2,0.48,0,,,,,,,,,,,,,,,,
321443,1616774941108,,,50,,,0.16,0.28,0.27,8,2,1,0.32,0,45.846802,5.178846,58.25,712.8,7,2,1.8,0,0.0,-1,0.0,0.0,0.0,0,0.96,5.3574
321483,1616774941148,,,51,,,0.12,0.27,0.2,-2,2,-2,0.29,0,,,,,,,,,,,,,,,,
321523,1616774941188,,,52,,,0.01,0.24,0.18,-11,2,-3,0.25,0,,,,,,,,,,,,,,,,
321563,1616774941228,,,55,,,0.11,0.15,0.12,-15,4,-1,0.19,0,,,,,,,,,,,,,,,,
321603,1616774941268,,,52,,,-0.05,-0.1,0.18,-16,-0,2,0.11,0,,,,,,,,,,,,,,,,
321643,1616774941310,,,53,,,-0.08,-0.13,0.14,-14,-5,6,0.16,0,45.846775,5.178906,60.16,712.8,7,2,1.8,0,0.0,-1,0.0,0.0,0.0,0,0.96,5.3607
321683,1616774941350,,,55,,,-0.03,-0.19,0.49,-11,-4,5,0.19,0,,,,,,,,,,,,,,,,
321723,1616774941390,,,51,,,0.02,-0.28,0.74,-6,-4,4,0.28,0,,,,,,,,,,,,,,,,
321763,1616774941427,,,54,,,-0.02,-0.02,0.97,-2,-1,1,0.03,0,,,,,,,,,,,,,,,,
321803,1616774941467,,,50,,,-0.12,0.1,1.07,1,-0,-1,0.16,0,,,,,,,,,,,,,,,,
321843,1616774941507,,,50,,,-0.05,-0.1,0.77,3,-1,2,0.11,0,45.846748,5.178963,60.39,710.9,7,2,1.8,0,0.0,-1,0.0,0.0,0.0,0,0.97,5.364
321883,1616774941547,,,50,,,0.03,-0.21,0.81,3,2,2,0.21,0,,,,,,,,,,,,,,,,
321923,1616774941587,,,51,,,-0.0,-0.11,0.54,2,-3,7,0.11,0,,,,,,,,,,,,,,,,
321963,1616774941627,,,50,,,0.03,-0.01,0.81,2,-1,5,0.03,0,,,,,,,,,,,,,,,,
322003,1616774941667,,,55,,,0.12,-0.3,0.85,2,2,0,0.32,0,,,,,,,,,,,,,,,,
322043,1616774941709,302,149,54,0.34,13.81,0.03,-0.18,0.93,3,3,3,0.18,0,45.846722,5.179021,60.37,710.4,7,2,1.8,0,0.0,-1,0.0,0.0,0.0,0,0.97,5.3674
322083,1616774941749,,,53,,,-0.04,0.02,0.53,4,2,3,0.05,0,,,,,,,,,,,,,,,,
322123,1616774941789,,,50,,,0.1,0.08,0.5,5,-4,1,0.13,0,,,,,,,,,,,,,,,,
322163,1616774941829,,,51,,,0.22,0.03,0.14,4,-14,3,0.22,0,,,,,,,,,,,,,,,,
322203,1616774941869,,,53,,,0.35,0.1,-0.11,3,-18,5,0.36,0,,,,,,,,,,,,,,,,
322243,1616774941909,,,51,,,0.42,0.06,-0.07,2,-15,2,0.43,0,45.846691,5.179078,60.59,710.4,7,2,1.8,0,0.0,-1,0.0,0.0,0.0,0,0.97,5.3707
322283,1616774941949,,,52,,,0.51,0.16,0.26,2,-6,-0,0.54,0,,,,,,,,,,,,,,,,
322323,1616774941989,,,54,,,0.3,0.17,0.25,2,-2,-1,0.35,0,,,,,,,,,,,,,,,,
322363,1616774942023,,,51,,,0.41,0.22,0.3,3,-2,-1,0.47,0,,,,,,,,,,,,,,,,
322403,1616774942063,,,53,,,0.46,0.38,0.41,3,-2,-3,0.6,0,,,,,,,,,,,,,,,,
322443,1616774942109,,,52,,,0.52,0.28,0.39,4,-3,-5,0.59,0,45.846664,5.179134,61.4,710.2,7,2,1.8,0,0.0,-1,0.0,0.0,0.0,0,0.98,5.3741
322483,1616774942149,,,55,,,0.49,0.18,0.08,5,-6,-4,0.52,0,,,,,,,,,,,,,,,,
322523,1616774942189,,,52,,,0.4,0.21,0.44,6,-9,-2,0.45,0,,,,,,,,,,,,,,,,
322563,1616774942229,,,54,,,0.47,0.46,0.24,6,-12,0,0.66,0,,,,,,,,,,,,,,,,
322603,1616774942269,,,50,,,0.43,0.22,-0.01,6,-16,4,0.49,0,,,,,,,,,,,,,,,,
322643,1616774942309,,,52,,,0.45,0.22,-0.13,5,-15,3,0.5,0,45.846634,5.179192,62.62,709.9,7,2,1.8,0,0.0,-1,0.0,0.0,0.0,0,0.98,5.3774
322683,1616774942349,,,51,,,0.3,0.17,0.12,4,-17,4,0.35,0,,,,,,,,,,,,,,,,
322723,1616774942389,,,51,,,0.31,0.14,0.2,3,-11,3,0.34,0,,,,,,,,,,,,,,,,
322763,1616774942428,,,51,,,0.11,0.16,0.3,2,-7,4,0.2,0,,,,,,,,,,,,,,,,
322803,1616774942468,,,53,,,0.16,0.12,0.25,1,-4,4,0.2,0,,,,,,,,,,,,,,,,
322843,1616774942506,,,51,,,0.2,0.01,0.53,1,6,1,0.2,0,45.846603,5.179251,63.63,710.1,7,2,1.8,0,0.0,-1,0.0,0.0,0.0,0,0.98,5.3807
322883,1616774942546,,,52,,,0.17,0.01,0.81,0,13,0,0.17,0,,,,,,,,,,,,,,,,
322923,1616774942586,,,54,,,0.21,0.02,0.61,0,21,-1,0.21,0,,,,,,,,,,,,,,,,
322963,1616774942628,,,55,,,0.07,0.06,0.25,1,20,-0,0.09,0,,,,,,,,,,,,,,,,
323003,1616774942668,,,52,,,-0.06,0.1,0.58,1,17,-2,0.11,0,,,,,,,,,,,,,,,,
323043,1616774942708,302,147,54,0.34,13.65,-0.2,0.08,0.44,2,18,-1,0.22,0,45.846569,5.179309,63.5,709.9,7,2,1.8,0,0.0,-1,0.0,0.0,0.0,0,0.99,5.384
323083,1616774942748,,,54,,,-0.19,0.05,0.08,3,17,1,0.2,0,,,,,,,,,,,,,,,,
323123,1616774942788,,,54,,,-0.2,0.12,0.34,3,8,-1,0.23,0,,,,,,,,,,,,,,,,
323163,1616774942828,,,52,,,-0.37,0.08,0.04,3,5,1,0.38,0,,,,,,,,,,,,,,,,
323203,1616774942868,,,55,,,-0.15,0.13,0.31,2,14,-2,0.2,0,,,,,,,,,,,,,,,,
323243,1616774942908,,,50,,,-0.23,0.1,0.27,2,6,-2,0.25,0,45.846539,5.179365,62.14,709.8,7,2,1.8,0,0.0,-1,0.0,0.0,0.0,0,0.99,5.3874
323283,1616774942948,,,53,,,-0.31,0.05,0.6,1,3,-2,0.31,0,,,,,,,,,,,,,,,,
323323,1616774942988,,,51,,,-0.23,0.06,0.47,-0,8,-1,0.24,0,,,,,,,,,,,,,,,,
323363,1616774943024,,,52,,,-0.27,0.08,0.62,-1,2,-4,0.28,0,,,,,,,,,,,,,,,,
323403,1616774943064,,,51,,,-0.3,0.06,0.49,-2,1,-1,0.3,0,,,,,,,,,,,,,,,,
323443,1616774943110,,,50,,,-0.21,0.04,0.14,-2,5,1,0.21,0,45.846508,5.179419,60.42,709.2,7,2,1.8,0,0.0,-1,0.0,0.0,0.0,0,1.0,5.3907
323483,1616774943150,,,51,,,-0.26,0.07,0.09,-1,-1,1,0.27,0,,,,,,,,,,,,,,,,
323523,1616774943190,,,53,,,-0.36,-0.02,0.05,-1,1,2,0.36,0,,,,,,,,,,,,,,,,
323563,1616774943230,,,51,,,-0.42,0.05,0.28,-1,-2,2,0.43,0,,,,,,,,,,,,,,,,
323603,1616774943270,,,53,,,-0.48,0.0,0.25,-0,-1,4,0.48,0,,,,,,,,,,,,,,,,
323643,1616774943310,,,53,,,-0.55,-0.03,0.18,0,4,-1,0.55,0,45.846478,5.179473,58.43,708.5,7,2,1.8,0,0.0,-1,0.0,0.0,0.0,0,1.0,5.3941
323683,1616774943350,,,53,,,-0.43,0.09,0.53,1,6,-2,0.44,0,,,,,,,,,,,,,,,,
323723,1616774943390,,,52,,,-0.51,0.04,0.05,1,5,-2,0.51,0,,,,,,,,,,,,,,,,
323763,1616774943429,,,52,,,-0.35,0.08,0.42,1,11,-7,0.36,0,,,,,,,,,,,,,,,,
323803,1616774943469,,,51,,,-0.41,0.11,0.29,1,2,-2,0.43,0,,,,,,,,,,,,,,,,
323843,1616774943509,,,51,,,-0.34,0.15,0.22,1,7,-11,0.37,0,45.846447,5.179525,56.85,708.1,7,2,1.8,0,0.0,-1,0.0,0.0,0.0,0,1.0,5.3974
323883,1616774943549,,,51,,,-0.29,0.14,-0.16,1,-3,0,0.33,0,,,,,,,,,,,,,,,,
323923,1616774943589,,,52,,,-0.15,0.1,0.25,1,5,-5,0.18,0,,,,,,,,,,,,,,,,
323963,1616774943629,,,52,,,-0.33,-0.0,0.18,-0,11,-15,0.33,0,,,,,,,,,,,,,,,,
324003,1616774943669,,,53,,,-0.53,-0.06,-0.23,-1,8,-12,0.53,0,,,,,,,,,,,,,,,,
324043,1616774943709,298,146,53,0.34,13.67,-0.67,-0.06,-0.57,-1,2,-5,0.67,0,45.84642,5.179577,56.43,707.6,7,2,1.8,0,0.0,-1,0.0,0.0,0.0,0,1.0,5.4007
324083,1616774943749,,,50,,,-0.85,0.06,-0.81,-2,6,-8,0.85,0,,,,,,,,,,,,,,,,
324123,1616774943789,,,54,,,-0.66,-0.03,-0.28,-2,20,-19,0.66,0,,,,,,,,,,,,,,,,
324163,1616774943829,,,52,,,-0.59,0.01,-0.25,-1,2,-7,0.59,0,,,,,,,,,,,,,,,,
324203,1616774943869,,,52,,,-0.62,0.03,-0.18,-2,11,-9,0.62,0,,,,,,,,,,,,,,,,
324243,1616774943909,,,52,,,-0.52,-0.05,-0.17,-2,-2,-2,0.53,0,45.84639,5.179627,55.0,707.0,7,2,1.8,0,0.0,-1,0.0,0.0,0.0,0,1.01,5.404
324283,1616774943949,,,51,,,-0.33,-0.0,0.07,-2,10,-8,0.33,0,,,,,,,,,,,,,,,,
324323,1616774943989,,,52,,,-0.48,0.04,-0.24,-1,3,-6,0.48,0,,,,,,,,,,,,,,,,
324363,1616774944025,,,52,,,-0.34,-0.06,-0.22,-1,-3,-1,0.35,0,,,,,,,,,,,,,,,,
324403,1616774944065,,,54,,,-0.44,-0.05,-0.16,0,8,-7,0.44,0,,,,,,,,,,,,,,,,
324443,1616774944109,,,49,,,-0.41,0.02,-0.15,0,-1,-0,0.41,0,45.846363,5.179676,54.34,706.3,7,2,2.0,0,0.0,-1,0.0,0.0,0.0,0,1.01,5.4074
324483,1616774944149,,,53,,,-0.35,0.03,-0.14,1,-1,0,0.35,0,,,,,,,,,,,,,,,,
324523,1616774944189,,,51,,,-0.35,0.05,-0.09,1,4,-2,0.36,0,,,,,,,,,,,,,,,,
324563,1616774944229,,,52,,,-0.32,0.08,-0.06,1,4,-1,0.33,0,,,,,,,,,,,,,,,,
324603,1616774944269,,,50,,,-0.29,0.07,-0.03,1,5,-2,0.3,0,,,,,,,,,,,,,,,,
324643,1616774944309,,,52,,,-0.31,0.07,-0.0,1,3,-0,0.32,0,45.846336,5.179722,51.85,705.5,7,2,2.0,0,0.0,-1,0.0,0.0,0.0,0,1.01,5.4107
324683,1616774944349,,,53,,,-0.39,0.09,-0.26,1,0,2,0.4,0,,,,,,,,,,,,,,,,
324723,1616774944389,,,50,,,-0.38,0.06,0.05,1,5,-2,0.38,0,,,,,,,,,,,,,,,,
324763,1616774944428,,,52,,,-0.66,0.07,-0.25,1,-4,1,0.66,0,,,,,,,,,,,,,,,,
324803,1616774944468,,,52,,,-0.71,0.11,-0.3,0,-15,6,0.72,0,,,,,,,,,,,,,,,,
324843,1616774944508,,,52,,,-0.76,0.11,-0.37,1,-10,5,0.77,0,45.84631,5.179766,50.02,704.6,7,2,2.0,0,0.0,-1,0.0,0.0,0.0,0,1.02,5.4141
324883,1616774944548,,,52,,,-0.67,0.06,-0.32,0,-9,4,0.67,0,,,,,,,,,,,,,,,,
324923,1616774944588,,,53,,,-0.75,0.04,-0.24,0,0,-3,0.75,0,,,,,,,,,,,,,,,,
324963,1616774944628,,,52,,,-0.57,0.12,-0.22,2,2,-2,0.58,0,,,,,,,,,,,,,,,,
325003,1616774944668,,,53,,,-0.7,0.18,-0.16,2,-1,-1,0.72,0,,,,,,,,,,,,,,,,
325043,1616774944708,302,142,51,0.34,13.75,-0.48,0.19,0.25,3,10,-8,0.52,0,45.846287,5.179811,47.85,705.1,7,2,2.0,0,0.0,-1,0.0,0.0,0.0,0,1.02,5.4174
325083,1616774944748,,,52,,,-0.54,0.24,0.22,2,0,-3,0.59,0,,,,,,,,,,,,,,,,
325123,1616774944788,,,51,,,-0.49,0.29,0.2,2,1,-2,0.57,0,,,,,,,,,,,,,,,,
325163,1616774944828,,,52,,,-0.42,0.21,0.18,3,2,-1,0.47,0,,,,,,,,,,,,,,,,
325203,1616774944868,,,50,,,-0.32,0.08,0.17,3,1,0,0.34,0,,,,,,,,,,,,,,,,
325243,1616774944910,,,53,,,-0.31,0.07,0.15,3,1,1,0.32,0,45.846268,5.179853,46.01,704.8,7,2,2.0,0,0.0,-1,0.0,0.0,0.0,0,1.02,5.4207
325283,1616774944950,,,51,,,-0.29,-0.03,0.14,3,-2,1,0.3,0,,,,,,,,,,,,,,,,
325323,1616774944990,,,52,,,-0.38,0.11,-0.16,3,-1,2,0.4,0,,,,,,,,,,,,,,,,
325363,1616774945024,,,51,,,-0.24,0.05,0.25,3,4,-1,0.25,0,,,,,,,,,,,,,,,,
325403,1616774945064,,,51,,,-0.38,0.14,0.53,3,14,-4,0.4,0,,,,,,,,,,,,,,,,
325443,1616774945108,,,51,,,-0.56,0.13,0.42,3,24,-10,0.57,0,45.846245,5.179894,44.63,704.3,7,2,1.8,0,0.0,-1,0.0,0.0,0.0,0,1.02,5.424
325483,1616774945148,,,54,,,-0.52,0.17,0.36,3,22,-8,0.54,0,,,,,,,,,,,,,,,,
325523,1616774945188,,,51,,,-0.45,0.1,0.31,3,26,-10,0.46,0,,,,,,,,,,,,,,,,
325563,1616774945230,,,53,,,-0.37,0.13,0.12,4,9,1,0.39,0,,,,,,,,,,,,,,,,
325603,1616774945270,,,50,,,-0.33,0.25,-0.13,4,-4,9,0.41,0,,,,,,,,,,,,,,,,
325643,1616774945310,,,53,,,-0.27,0.23,-0.19,4,-13,16,0.36,0,45.846222,5.179933,43.13,703.9,7,2,1.8,0,0.0,-1,0.0,0.0,0.0,0,1.03,5.4274
325683,1616774945350,,,51,,,-0.31,0.22,-0.53,4,-27,23,0.38,0,,,,,,,,,,,,,,,,
325723,1616774945390,,,53,,,-0.5,0.25,-0.81,4,-26,21,0.56,0,,,,,,,,,,,,,,,,
325763,1616774945429,,,49,,,-0.29,0.22,-0.28,3,-8,9,0.37,0,,,,,,,,,,,,,,,,
325803,1616774945469,,,52,,,-0.43,0.18,-0.61,3,-6,9,0.47,0,,,,,,,,,,,,,,,,
325843,1616774945509,,,49,,,-0.32,0.13,-0.51,4,-5,9,0.34,0,45.846199,5.179968,40.87,703.6,7,2,1.8,0,0.0,-1,0.0,0.0,0.0,0,1.03,5.4307
325883,1616774945549,,,54,,,-0.31,0.2,-0.44,4,-8,9,0.37,0,,,,,,,,,,,,,,,,
325923,1616774945589,,,48,,,-0.27,0.18,-0.37,4,-6,8,0.33,0,,,,,,,,,,,,,,,,
325963,1616774945627,,,52,,,-0.25,0.22,-0.32,5,-7,9,0.33,0,,,,,,,,,,,,,,,,
326003,1616774945667,,,50,,,-0.31,0.21,-0.28,5,-6,8,0.38,0,,,,,,,,,,,,,,,,
326043,1616774945709,302,148,52,0.34,13.37,-0.33,0.12,-0.25,6,-3,4,0.36,0,45.846176,5.180003,39.85,703.5,7,2,2.0,0,0.0,-1,0.0,0.0,0.0,0,1.03,5.4341
326083,1616774945749,,,51,,,-0.22,0.18,0.18,6,2,2,0.28,0,,,,,,,,,,,,,,,,
326123,1616774945789,,,52,,,-0.17,0.21,0.16,6,0,3,0.27,0,,,,,,,,,,,,,,,,
326163,1616774945829,,,51,,,-0.36,0.27,0.02,7,-2,1,0.44,0,,,,,,,,,,,,,,,,
326203,1616774945869,,,51,,,-0.18,0.2,0.26,7,-3,2,0.27,0,,,,,,,,,,,,,,,,
326243,1616774945909,,,51,,,-0.05,0.25,0.59,8,10,-2,0.26,0,45.846157,5.180038,37.78,703.9,7,2,2.0,0,0.0,-1,0.0,0.0,0.0,0,1.03,5.4374
326283,1616774945949,,,51,,,0.07,0.2,0.86,8,20,-5,0.22,0,,,,,,,,,,,,,,,,
326323,1616774945989,,,52,,,0.18,0.24,1.08,8,19,-4,0.3,0,,,,,,,,,,,,,,,,
326363,1616774946023,,,51,,,0.3,0.2,1.25,9,21,-3,0.36,0,,,,,,,,,,,,,,,,
326403,1616774946063,,,53,,,0.46,0.17,1.39,9,29,-5,0.49,0,,,,,,,,,,,,,,,,
326443,1616774946109,,,52,,,0.46,0.2,1.51,9,36,-7,0.51,0,45.846134,5.180068,36.05,703.9,7,2,2.0,0,0.0,-1,0.0,0.0,0.0,0,1.04,5.4407
326483,1616774946149,,,52,,,0.53,0.25,1.6,9,35,-6,0.58,0,,,,,,,,,,,,,,,,
326523,1616774946189,,,53,,,0.26,0.15,1.19,9,20,-2,0.3,0,,,,,,,,,,,,,,,,
326563,1616774946229,,,52,,,-0.05,0.08,0.86,10,17,-2,0.09,0,,,,,,,,,,,,,,,,
326603,1616774946269,,,52,,,-0.15,0.09,1.07,10,17,-8,0.17,0,,,,,,,,,,,,,,,,
326643,1616774946309,,,53,,,-0.28,0.03,1.25,10,20,-12,0.29,0,45.846119,5.180094,33.87,703.6,7,2,1.8,0,0.0,-1,0.0,0.0,0.0,0,1.04,5.444
326683,1616774946349,,,53,,,-0.44,0.12,0.99,11,9,-9,0.46,0,,,,,,,,,,,,,,,,
326723,1616774946389,,,52,,,-0.34,0.21,1.18,12,20,-16,0.4,0,,,,,,,,,,,,,,,,
326763,1616774946428,,,51,,,-0.25,0.3,1.34,12,22,-14,0.39,0,,,,,,,,,,,,,,,,
326803,1616774946468,,,53,,,-0.13,0.26,1.46,12,26,-18,0.29,0,,,,,,,,,,,,,,,,
326843,1616774946508,,,51,,,-0.23,0.19,0.97,13,15,-9,0.3,0,45.8461,5.180117,32.76,703.3,7,2,1.8,0,0.0,-1,0.0,0.0,0.0,0,1.04,5.4474
326883,1616774946548,,,51,,,-0.18,0.29,0.76,14,9,-3,0.34,0,,,,,,,,,,,,,,,,
326923,1616774946588,,,48,,,-0.13,0.31,1.0,14,15,-8,0.33,0,,,,,,,,,,,,,,,,
326963,1616774946628,,,52,,,0.07,0.36,0.79,15,3,2,0.36,0,,,,,,,,,,,,,,,,
327003,1616774946668,,,49,,,-0.13,0.36,0.59,15,12,-3,0.38,0,,,,,,,,,,,,,,,,
327043,1616774946708,302,147,51,0.34,13.57,-0.02,0.4,0.46,15,1,4,0.4,0,45.846077,5.180141,32.42,703.4,7,2,1.8,0,0.0,-1,0.0,0.0,0.0,0,1.04,5.4507
327083,1616774946748,,,51,,,0.13,0.48,0.75,16,8,1,0.5,0,,,,,,,,,,,,,,,,
327123,1616774946788,,,52,,,0.05,0.5,0.63,17,16,-5,0.5,0,,,,,,,,,,,,,,,,
327163,1616774946828,,,52,,,-0.15,0.5,0.53,17,14,-5,0.52,0,,,,,,,,,,,,,,,,
327203,1616774946868,,,53,,,-0.23,0.54,0.05,18,7,-1,0.59,0,,,,,,,,,,,,,,,,
327243,1616774946908,,,51,,,-0.19,0.52,0.02,19,2,3,0.56,0,45.846054,5.180164,31.3,703.6,7,2,1.8,0,0.0,-1,0.0,0.0,0.0,0,1.04,5.4541
327283,1616774946948,,,53,,,-0.11,0.53,0.16,19,-3,4,0.54,0,,,,,,,,,,,,,,,,
327323,1616774946988,,,52,,,-0.27,0.56,0.15,20,6,-1,0.62,0,,,,,,,,,,,,,,,,
327363,1616774947024,,,52,,,-0.16,0.72,0.1,21,-10,6,0.74,0,,,,,,,,,,,,,,,,
327403,1616774947064,,,52,,,0.06,0.79,0.46,24,-2,2,0.79,0,,,,,,,,,,,,,,,,
327443,1616774947108,,,53,,,-0.01,0.77,0.39,25,1,-2,0.77,0,45.846035,5.180186,30.47,703.4,7,2,1.8,0,0.0,-1,0.0,0.0,0.0,0,1.05,5.4574
327483,1616774947148,,,53,,,-0.08,0.79,0.34,26,0,-2,0.79,0,,,,,,,,,,,,,,,,
327523,1616774947188,,,52,,,-0.04,0.77,0.29,27,1,-2,0.77,0,,,,,,,,,,,,,,,,
327563,1616774947228,,,52,,,-0.01,0.7,0.26,29,-2,0,0.7,0,,,,,,,,,,,,,,,,
327603,1616774947268,,,52,,,-0.06,0.72,0.23,30,-5,3,0.72,0,,,,,,,,,,,,,,,,
327643,1616774947308,,,52,,,-0.13,0.69,0.31,31,3,1,0.7,0,45.846016,5.180205,29.18,703.6,7,2,1.8,0,0.0,-1,0.0,0.0,0.0,0,1.05,5.4607
327683,1616774947348,,,52,,,-0.26,0.73,0.08,32,-3,2,0.77,0,,,,,,,,,,,,,,,,
327723,1616774947388,,,52,,,-0.11,0.74,0.44,33,-4,1,0.75,0,,,,,,,,,,,,,,,,
327763,1616774947427,,,52,,,-0.26,0.73,0.54,35,3,0,0.77,0,,,,,,,,,,,,,,,,
327803,1616774947467,,,53,,,-0.28,0.72,0.06,36,-7,4,0.78,0,,,,,,,,,,,,,,,,
327843,1616774947507,,,52,,,-0.11,0.75,0.34,37,-10,6,0.75,0,45.845997,5.180219,27.97,703.2,7,2,1.8,0,0.0,-1,0.0,0.0,0.0,0,1.05,5.464
327883,1616774947547,,,52,,,0.12,0.82,0.65,38,-2,3,0.83,0,,,,,,,,,,,,,,,,
327923,1616774947587,,,53,,,0.3,0.83,0.91,39,4,5,0.88,0,,,,,,,,,,,,,,,,
327963,1616774947627,,,53,,,0.37,0.74,1.01,40,1,7,0.83,0,,,,,,,,,,,,,,,,
328003,1616774947667,,,53,,,0.14,0.67,0.44,40,-11,11,0.68,0,,,,,,,,,,,,,,,,
328043,1616774947707,302,147,53,0.34,13.78,-0.21,0.72,-0.02,41,-16,9,0.75,0,45.845978,5.180231,26.67,702.2,7,2,1.8,0,0.0,-1,0.0,0.0,0.0,0,1.05,5.4674
328083,1616774947747,,,53,,,-0.08,0.78,0.36,41,-2,3,0.79,0,,,,,,,,,,,,,,,,
328123,1616774947787,,,53,,,0.1,0.75,0.58,41,-3,6,0.76,0,,,,,,,,,,,,,,,,
328163,1616774947827,,,53,,,0.05,0.62,0.27,41,-11,9,0.62,0,,,,,,,,,,,,,,,,
328203,1616774947867,,,52,,,-0.17,0.61,-0.16,41,-21,10,0.63,0,,,,,,,,,,,,,,,,
328243,1616774947907,,,51,,,-0.31,0.78,-0.49,41,-29,12,0.84,0,45.845959,5.180235,25.87,701.4,7,2,1.8,0,0.0,-1,0.0,0.0,0.0,0,1.05,5.4707
328283,1616774947947,,,52,,,-0.33,0.9,-0.64,41,-35,15,0.96,0,,,,,,,,,,,,,,,,
328323,1616774947987,,,52,,,-0.19,0.91,-0.14,40,-23,9,0.93,0,,,,,,,,,,,,,,,,
328363,1616774948023,,,52,,,-0.23,0.79,-0.0,40,-21,7,0.82,0,,,,,,,,,,,,,,,,
328403,1616774948063,,,52,,,-0.33,0.83,-0.14,41,-28,9,0.89,0,,,,,,,,,,,,,,,,
328443,1616774948109,,,53,,,-0.33,0.92,0.23,41,-20,3,0.97,0,45.84594,5.180237,25.17,701.0,7,2,2.7,0,0.0,-1,0.0,0.0,0.0,0,1.05,5.4741
328483,1616774948149,,,53,,,-0.2,0.89,0.33,42,-18,5,0.91,0,,,,,,,,,,,,,,,,
328523,1616774948189,,,52,,,-0.45,0.84,-0.11,44,-16,5,0.96,0,,,,,,,,,,,,,,,,
328563,1616774948229,,,53,,,-0.42,0.89,0.29,45,-6,2,0.98,0,,,,,,,,,,,,,,,,
328603,1616774948269,,,53,,,-0.46,0.83,0.47,46,7,2,0.95,0,,,,,,,,,,,,,,,,
328643,1616774948309,,,52,,,-0.5,0.79,0.19,47,6,3,0.93,0,45.845917,5.180234,26.3,702.0,7,2,2.7,0,0.0,-1,0.0,0.0,0.0,0,1.05,5.4774
328683,1616774948349,,,51,,,-0.22,0.85,0.38,48,-2,5,0.88,0,,,,,,,,,,,,,,,,
328723,1616774948389,,,53,,,-0.13,0.88,0.69,49,3,3,0.89,0,,,,,,,,,,,,,,,,
328763,1616774948428,,,52,,,-0.23,0.76,0.74,49,11,-0,0.79,0,,,,,,,,,,,,,,,,
328803,1616774948468,,,52,,,-0.37,0.88,0.84,50,19,-5,0.95,0,,,,,,,,,,,,,,,,
328843,1616774948508,,,52,,,-0.1,0.91,1.0,51,19,-2,0.92,0,45.845894,5.180231,27.59,702.1,7,2,2.7,0,0.0,-1,0.0,0.0,0.0,0,1.06,5.4807
328883,1616774948548,,,53,,,-0.1,0.83,0.89,51,17,-1,0.84,0,,,,,,,,,,,,,,,,
328923,1616774948588,,,53,,,-0.06,0.85,0.96,52,13,0,0.85,0,,,,,,,,,,,,,,,,
328963,1616774948628,,,53,,,-0.12,0.85,0.91,52,13,0,0.85,0,,,,,,,,,,,,,,,,
329003,1616774948668,,,53,,,-0.2,0.81,0.48,53,6,1,0.84,0,,,,,,,,,,,,,,,,
329043,1616774948708,302,145,53,0.33,13.79,-0.08,0.81,0.5,54,2,3,0.81,0,45.845871,5.180225,29.17,702.0,7,2,2.7,0,0.0,-1,0.0,0.0,0.0,0,1.06,5.484
329083,1616774948748,,,53,,,0.02,0.81,0.57,54,3,2,0.81,0,,,,,,,,,,,,,,,,
329123,1616774948788,,,53,,,0.09,0.83,0.72,54,7,2,0.84,0,,,,,,,,,,,,,,,,
329163,1616774948828,,,53,,,0.11,0.86,0.65,53,10,0,0.86,0,,,,,,,,,,,,,,,,
329203,1616774948868,,,52,,,0.1,0.86,0.54,53,9,0,0.87,0,,,,,,,,,,,,,,,,
329243,1616774948908,,,53,,,0.05,0.84,0.5,52,9,0,0.84,0,45.845852,5.180216,27.55,702.1,7,2,2.7,0,0.0,-1,0.0,0.0,0.0,0,1.06,5.4874
329283,1616774948948,,,53,,,0.01,0.86,0.45,52,8,1,0.86,0,,,,,,,,,,,,,,,,
329323,1616774948988,,,52,,,-0.04,0.85,0.42,52,3,3,0.85,0,,,,,,,,,,,,,,,,
329363,1616774949024,,,53,,,-0.04,0.86,0.32,51,-1,3,0.86,0,,,,,,,,,,,,,,,,
329403,1616774949064,,,51,,,0.03,0.87,0.47,51,-2,2,0.87,0,,,,,,,,,,,,,,,,
329443,1616774949108,,,52,,,0.03,0.84,0.57,50,-3,3,0.84,0,45.845833,5.180207,23.22,702.3,7,2,2.9,0,0.0,-1,0.0,0.0,0.0,0,1.06,5.4907
329483,1616774949148,,,52,,,-0.0,0.82,0.64,50,-3,3,0.82,0,,,,,,,,,,,,,,,,
329523,1616774949188,,,52,,,0.01,0.78,0.65,50,-1,3,0.78,0,,,,,,,,,,,,,,,,
329563,1616774949230,,,53,,,0.04,0.78,0.6,50,2,2,0.78,0,,,,,,,,,,,,,,,,
329603,1616774949270,,,53,,,-0.04,0.75,0.62,50,2,1,0.75,0,,,,,,,,,,,,,,,,
329643,1616774949310,,,52,,,-0.13,0.76,0.34,51,-5,3,0.77,0,45.845825,5.180195,19.66,702.8,7,2,2.9,0,0.0,-1,0.0,0.0,0.0,0,1.06,5.4941
329683,1616774949350,,,51,,,0.05,0.75,0.64,51,-1,2,0.75,0,,,,,,,,,,,,,,,,
329723,1616774949390,,,51,,,0.01,0.74,0.62,51,2,1,0.74,0,,,,,,,,,,,,,,,,
329763,1616774949429,,,53,,,0.05,0.78,0.53,51,2,1,0.78,0,,,,,,,,,,,,,,,,
329803,1616774949469,,,51,,,0.06,0.76,0.63,51,2,1,0.76,0,,,,,,,,,,,,,,,,
329843,1616774949509,,,52,,,-0.0,0.77,0.56,51,1,2,0.77,0,45.845818,5.180179,17.46,703.1,7,2,2.0,0,0.0,-1,0.0,0.0,0.0,0,1.06,5.4974
329883,1616774949549,,,53,,,-0.01,0.79,0.41,51,2,2,0.79,0,,,,,,,,,,,,,,,,
329923,1616774949589,,,52,,,0.01,0.77,0.59,51,2,2,0.77,0,,,,,,,,,,,,,,,,
329963,1616774949629,,,53,,,-0.01,0.73,0.57,51,3,2,0.73,0,,,,,,,,,,,,,,,,
330003,1616774949669,,,52,,,-0.01,0.73,0.58,51,4,2,0.73,0,,,,,,,,,,,,,,,,
330043,1616774949707,302,144,52,0.34,13.68,-0.02,0.75,0.51,51,4,1,0.75,0,45.84581,5.180165,16.11,703.7,7,2,2.0,0,0.0,-1,0.0,0.0,0.0,0,1.06,5.5007
330083,1616774949747,,,52,,,-0.03,0.74,0.54,51,4,1,0.74,0,,,,,,,,,,,,,,,,
330123,1616774949787,,,51,,,-0.1,0.68,0.53,50,2,2,0.69,0,,,,,,,,,,,,,,,,
330163,1616774949829,,,52,,,-0.13,0.7,0.28,50,-5,4,0.72,0,,,,,,,,,,,,,,,,
330203,1616774949869,,,51,,,0.07,0.72,0.61,50,3,2,0.72,0,,,,,,,,,,,,,,,,
330243,1616774949909,,,52,,,0.06,0.62,0.37,49,-5,4,0.63,0,45.84581,5.180148,14.72,704.2,7,2,2.0,0,0.0,-1,0.0,0.0,0.0,0,1.06,5.5041
330283,1616774949949,,,51,,,0.14,0.65,0.68,47,4,0,0.67,0,,,,,,,,,,,,,,,,
330323,1616774949989,,,52,,,0.33,0.55,0.6,46,-4,4,0.64,0,,,,,,,,,,,,,,,,
330363,1616774950021,,,50,,,0.21,0.57,0.24,44,-11,3,0.61,0,,,,,,,,,,,,,,,,
330403,1616774950061,,,51,,,0.07,0.62,0.57,41,-4,0,0.62,0,,,,,,,,,,,,,,,,
330443,1616774950107,,,51,,,0.14,0.54,0.78,39,4,0,0.56,0,45.845814,5.180127,14.73,704.7,7,2,1.8,0,0.0,-1,0.0,0.0,0.0,0,1.07,5.5074
330483,1616774950147,,,51,,,0.27,0.56,1.01,37,13,-2,0.62,0,,,,,,,,,,,,,,,,
330523,1616774950187,,,49,,,0.19,0.44,0.79,35,18,-4,0.48,0,,,,,,,,,,,,,,,,
330563,1616774950229,,,49,,,0.29,0.39,0.66,33,10,-1,0.49,0,,,,,,,,,,,,,,,,
330603,1616774950269,,,48,,,0.38,0.36,0.92,31,14,-2,0.52,0,,,,,,,,,,,,,,,,
330643,1616774950309,,,51,,,0.15,0.29,0.57,29,14,-3,0.33,0,45.845821,5.180104,14.96,705.2,7,2,2.0,0,0.0,-1,0.0,0.0,0.0,0,1.07,5.5107
330683,1616774950349,,,50,,,0.36,0.25,0.6,28,9,-2,0.44,0,,,,,,,,,,,,,,,,
330723,1616774950389,,,48,,,0.37,0.27,0.51,26,3,1,0.46,0,,,,,,,,,,,,,,,,
330763,1616774950428,,,48,,,0.31,0.21,0.39,24,2,0,0.38,0,,,,,,,,,,,,,,,,
330803,1616774950468,,,48,,,0.36,0.13,0.3,22,-1,0,0.38,0,,,,,,,,,,,,,,,,
330843,1616774950508,,,48,,,0.44,0.09,0.22,20,-1,-0,0.45,0,45.845829,5.180084,16.42,706.1,7,2,2.0,0,0.0,-1,0.0,0.0,0.0,0,1.07,5.514
330883,1616774950548,,,48,,,0.54,0.11,0.13,18,4,-2,0.55,0,,,,,,,,,,,,,,,,
330923,1616774950588,,,47,,,0.46,0.15,0.13,14,8,-4,0.48,0,,,,,,,,,,,,,,,,
330963,1616774950630,,,49,,,0.31,0.16,-0.04,12,5,-2,0.35,0,,,,,,,,,,,,,,,,
331003,1616774950670,,,48,,,0.56,0.09,0.24,10,7,-2,0.57,0,,,,,,,,,,,,,,,,
331043,1616774950708,302,146,48,0.33,13.61,0.29,0.14,0.12,8,2,-2,0.33,0,45.845833,5.180062,18.28,707.1,7,2,2.0,0,0.0,-1,0.0,0.0,0.0,0,1.07,5.5174
331083,1616774950748,,,48,,,0.5,0.15,0.08,8,13,-4,0.52,0,,,,,,,,,,,,,,,,
331123,1616774950788,,,47,,,0.29,0.16,-0.32,7,-5,6,0.33,0,,,,,,,,,,,,,,,,
331163,1616774950828,,,48,,,0.13,0.09,-0.58,6,-5,4,0.16,0,,,,,,,,,,,,,,,,
331203,1616774950868,,,49,,,0.09,0.11,-0.7,5,1,-1,0.15,0,,,,,,,,,,,,,,,,
331243,1616774950910,,,48,,,0.15,0.09,-0.19,5,14,-11,0.17,0,45.84584,5.18004,19.86,708.1,7,2,2.9,0,0.0,-1,0.0,0.0,0.0,0,1.07,5.5207
331283,1616774950950,,,49,,,0.2,0.11,0.23,6,23,-18,0.23,0,,,,,,,,,,,,,,,,
331323,1616774950990,,,48,,,0.07,0.09,0.07,7,15,-13,0.11,0,,,,,,,,,,,,,,,,
331363,1616774951026,,,50,,,0.11,0.17,-0.16,8,5,-4,0.2,0,,,,,,,,,,,,,,,,
331403,1616774951066,,,47,,,0.26,0.25,0.25,9,13,-13,0.36,0,,,,,,,,,,,,,,,,
331443,1616774951108,,,50,,,0.21,0.2,-0.18,10,6,-4,0.29,0,45.845852,5.180017,21.72,706.6,7,2,6.0,0,0.0,-1,0.0,0.0,0.0,0,1.07,5.524
331483,1616774951148,,,49,,,0.23,0.3,-0.05,10,8,-6,0.38,0,,,,,,,,,,,,,,,,
331523,1616774951188,,,49,,,0.3,0.36,-0.06,11,8,-3,0.47,0,,,,,,,,,,,,,,,,
331563,1616774951230,,,48,,,0.35,0.36,-0.07,11,4,-2,0.5,0,,,,,,,,,,,,,,,,
331603,1616774951270,,,49,,,0.38,0.35,-0.08,12,6,0,0.52,0,,,,,,,,,,,,,,,,
331643,1616774951310,,,51,,,0.31,0.34,-0.08,12,1,1,0.46,0,45.845867,5.179995,22.87,706.4,7,2,2.3,0,0.0,-1,0.0,0.0,0.0,0,1.07,5.5274
331683,1616774951350,,,51,,,0.45,0.42,0.31,13,5,-1,0.61,0,,,,,,,,,,,,,,,,
331723,1616774951390,,,48,,,0.65,0.34,-0.03,14,9,0,0.73,0,,,,,,,,,,,,,,,,
331763,1616774951429,,,52,,,0.45,0.38,0.08,15,1,2,0.59,0,,,,,,,,,,,,,,,,
331803,1616774951469,,,51,,,0.35,0.34,0.44,15,3,-1,0.49,0,,,,,,,,,,,,,,,,
331843,1616774951509,,,48,,,0.3,0.25,0.74,15,10,-6,0.39,0,45.845879,5.179973,24.06,706.4,7,2,2.3,0,0.0,-1,0.0,0.0,0.0,0,1.07,5.5307
331883,1616774951549,,,50,,,0.26,0.17,0.22,15,-5,1,0.31,0,,,,,,,,,,,,,,,,
331923,1616774951589,,,52,,,0.25,0.22,-0.03,15,-21,6,0.33,0,,,,,,,,,,,,,,,,
331963,1616774951629,,,48,,,0.26,0.21,0.03,14,-12,3,0.33,0,,,,,,,,,,,,,,,,
332003,1616774951669,,,48,,,0.32,0.29,0.41,14,-11,3,0.43,0,,,,,,,,,,,,,,,,
332043,1616774951709,302,146,50,0.34,13.61,0.24,0.29,-0.01,13,-14,4,0.38,0,45.845898,5.179953,25.9,706.8,7,2,2.3,0,0.0,-1,0.0,0.0,0.0,0,1.07,5.534
332083,1616774951749,,,47,,,0.18,0.24,-0.02,11,-7,1,0.3,0,,,,,,,,,,,,,,,,
332123,1616774951791,,,48,,,0.29,0.26,0.01,10,-7,1,0.39,0,,,,,,,,,,,,,,,,
332163,1616774951831,,,48,,,0.38,0.16,0.03,9,-11,3,0.41,0,,,,,,,,,,,,,,,,
332203,1616774951871,,,49,,,0.32,0.15,-0.05,8,-12,4,0.35,0,,,,,,,,,,,,,,,,
332243,1616774951911,,,48,,,0.3,0.17,-0.06,6,-14,5,0.34,0,45.845917,5.179927,28.7,707.3,7,2,2.3,0,0.0,-1,0.0,0.0,0.0,0,1.08,5.5374
332283,1616774951951,,,48,,,0.4,0.09,0.07,5,-9,3,0.41,0,,,,,,,,,,,,,,,,
332323,1616774951991,,,48,,,0.42,0.11,0.03,4,-9,4,0.43,0,,,,,,,,,,,,,,,,
332363,1616774952025,,,48,,,0.39,0.07,0.04,3,-6,4,0.4,0,,,,,,,,,,,,,,,,
332403,1616774952065,,,49,,,0.38,0.08,0.05,1,1,0,0.39,0,,,,,,,,,,,,,,,,
332443,1616774952111,,,48,,,0.22,0.04,-0.34,0,-7,3,0.23,0,45.84594,5.179901,30.83,707.4,7,2,1.9,0,0.0,-1,0.0,0.0,0.0,0,1.08,5.5407
332483,1616774952151,,,49,,,0.45,-0.06,-0.29,-1,-5,6,0.45,0,,,,,,,,,,,,,,,,
332523,1616774952191,,,48,,,0.44,-0.1,-0.17,-1,5,-0,0.45,0,,,,,,,,,,,,,,,,
332563,1616774952231,,,47,,,0.31,-0.05,-0.52,-1,-8,6,0.31,0,,,,,,,,,,,,,,,,
332603,1616774952271,,,48,,,0.23,0.09,-0.4,-1,1,-1,0.24,0,,,,,,,,,,,,,,,,
332643,1616774952313,,,46,,,0.19,0.07,-0.7,-2,-10,6,0.2,0,45.845959,5.179873,32.39,707.5,7,2,1.9,0,0.0,-1,0.0,0.0,0.0,0,1.08,5.5441
332683,1616774952353,,,47,,,0.07,0.09,-0.55,-3,6,-5,0.11,0,,,,,,,,,,,,,,,,
332723,1616774952393,,,48,,,0.38,0.02,-0.07,-4,16,-9,0.38,0,,,,,,,,,,,,,,,,
332763,1616774952430,,,48,,,0.49,-0.09,-0.43,-3,2,3,0.5,0,,,,,,,,,,,,,,,,
332803,1616774952470,,,48,,,0.26,-0.17,-0.73,-4,-6,5,0.31,0,,,,,,,,,,,,,,,,
332843,1616774952512,,,48,,,0.16,-0.23,-0.97,-5,-5,4,0.28,0,45.845982,5.179843,33.84,707.5,7,2,1.9,0,0.0,-1,0.0,0.0,0.0,0,1.08,5.5474
332883,1616774952552,,,47,,,0.12,-0.17,-0.77,-6,2,-4,0.21,0,,,,,,,,,,,,,,,,
332923,1616774952592,,,48,,,0.28,-0.15,-0.24,-6,19,-19,0.31,0,,,,,,,,,,,,,,,,
332963,1616774952632,,,49,,,0.25,-0.13,0.01,-6,23,-23,0.28,0,,,,,,,,,,,,,,,,
333003,1616774952672,,,47,,,0.03,-0.23,-0.37,-7,13,-15,0.24,0,,,,,,,,,,,,,,,,
333043,1616774952712,302,150,48,0.34,13.78,-0.11,-0.11,-0.68,-9,-1,-8,0.15,0,45.846001,5.179814,34.91,707.5,7,2,1.9,0,0.0,-1,0.0,0.0,0.0,0,1.08,5.5507
333083,1616774952752,,,48,,,-0.03,-0.33,-0.71,-11,-6,2,0.33,0,,,,,,,,,,,,,,,,
333123,1616774952792,,,48,,,0.08,-0.36,-0.2,-12,0,-7,0.36,0,,,,,,,,,,,,,,,,
333163,1616774952832,,,48,,,-0.02,-0.32,-0.54,-13,-9,3,0.32,0,,,,,,,,,,,,,,,,
333203,1616774952872,,,48,,,0.17,-0.28,-0.06,-15,-1,-6,0.33,0,,,,,,,,,,,,,,,,
333243,1616774952912,,,48,,,0.19,-0.42,-0.06,-17,-6,-0,0.46,0,45.846024,5.179783,35.79,707.6,7,2,1.9,0,0.0,-1,0.0,0.0,0.0,0,1.08,5.554
333283,1616774952952,,,47,,,0.23,-0.44,-0.07,-18,-12,1,0.5,0,,,,,,,,,,,,,,,,
333323,1616774952992,,,48,,,0.42,-0.41,0.32,-19,-7,-4,0.59,0,,,,,,,,,,,,,,,,
333363,1616774953024,,,50,,,0.43,-0.47,0.28,-20,-4,-6,0.64,0,,,,,,,,,,,,,,,,
333403,1616774953064,,,48,,,0.4,-0.54,0.25,-22,-4,-6,0.67,0,,,,,,,,,,,,,,,,
333443,1616774953110,,,48,,,0.34,-0.58,0.22,-23,-3,-6,0.67,0,45.846043,5.179752,36.52,707.7,7,2,2.0,0,0.0,-1,0.0,0.0,0.0,0,1.09,5.5574
333483,1616774953150,,,48,,,0.28,-0.54,0.2,-24,0,-5,0.61,0,,,,,,,,,,,,,,,,
333523,1616774953190,,,48,,,0.16,-0.61,-0.22,-25,1,-5,0.63,0,,,,,,,,,,,,,,,,
333563,1616774953230,,,48,,,0.21,-0.68,-0.2,-25,3,-3,0.71,0,,,,,,,,,,,,,,,,
333603,1616774953270,,,49,,,0.25,-0.64,0.2,-26,-3,-1,0.68,0,,,,,,,,,,,,,,,,
333643,1616774953310,,,48,,,0.29,-0.73,0.53,-27,8,-2,0.78,0,45.846066,5.179717,37.83,707.6,7,2,2.0,0,0.0,-1,0.0,0.0,0.0,0,1.09,5.5607
333683,1616774953350,,,49,,,0.3,-0.7,0.22,-27,2,-2,0.76,0,,,,,,,,,,,,,,,,
333723,1616774953390,,,50,,,0.27,-0.78,0.56,-28,0,-0,0.83,0,,,,,,,,,,,,,,,,
333763,1616774953427,,,50,,,0.31,-0.83,0.66,-29,11,-3,0.89,0,,,,,,,,,,,,,,,,
333803,1616774953467,,,49,,,0.2,-0.81,0.15,-29,7,1,0.83,0,,,,,,,,,,,,,,,,
333843,1616774953509,,,49,,,0.17,-0.93,-0.26,-29,-6,6,0.94,0,45.846088,5.179683,38.53,707.5,7,2,2.0,0,0.0,-1,0.0,0.0,0.0,0,1.09,5.5641
333883,1616774953549,,,49,,,0.12,-0.83,-0.23,-29,-1,4,0.84,0,,,,,,,,,,,,,,,,
333923,1616774953589,,,48,,,0.12,-0.68,-0.21,-28,-4,6,0.69,0,,,,,,,,,,,,,,,,
333963,1616774953629,,,48,,,-0.03,-0.72,-0.15,-28,8,-4,0.72,0,,,,,,,,,,,,,,,,
334003,1616774953669,,,48,,,0.17,-0.76,-0.09,-28,3,0,0.77,0,,,,,,,,,,,,,,,,
334043,1616774953709,302,148,49,0.34,13.68,0.06,-0.71,-0.05,-27,7,-5,0.72,0,45.846108,5.179648,37.97,707.3,7,2,2.0,0,0.0,-1,0.0,0.0,0.0,0,1.09,5.5674
334083,1616774953749,,,47,,,0.08,-0.72,-0.06,-28,-10,1,0.72,0,,,,,,,,,,,,,,,,
334123,1616774953789,,,49,,,0.14,-0.62,0.33,-27,1,-6,0.63,0,,,,,,,,,,,,,,,,
334163,1616774953829,,,49,,,-0.03,-0.67,-0.12,-25,-13,3,0.67,0,,,,,,,,,,,,,,,,
334203,1616774953869,,,48,,,0.14,-0.75,0.29,-26,4,-4,0.76,0,,,,,,,,,,,,,,,,
334243,1616774953909,,,48,,,-0.13,-0.82,-0.15,-24,-5,3,0.83,0,45.846123,5.179607,39.19,706.7,7,2,2.0,0,0.0,-1,0.0,0.0,0.0,0,1.09,5.5707
334283,1616774953949,,,48,,,0.11,-0.73,0.26,-24,13,-9,0.74,0,,,,,,,,,,,,,,,,
334323,1616774953989,,,50,,,0.29,-0.77,0.19,-23,4,-0,0.82,0,,,,,,,,,,,,,,,,
334363,1616774954025,,,49,,,0.04,-0.81,-0.23,-24,-8,6,0.81,0,,,,,,,,,,,,,,,,
334403,1616774954065,,,48,,,0.12,-0.84,0.19,-25,4,-4,0.85,0,,,,,,,,,,,,,,,,
334443,1616774954109,,,49,,,0.31,-0.81,0.16,-24,5,-2,0.86,0,45.846138,5.179563,40.24,706.5,7,2,2.0,0,0.0,-1,0.0,0.0,0.0,0,1.1,5.574
334483,1616774954149,,,48,,,0.12,-0.78,-0.25,-25,-12,7,0.79,0,,,,,,,,,,,,,,,,
334523,1616774954189,,,49,,,-0.07,-0.76,-0.58,-25,-10,3,0.76,0,,,,,,,,,,,,,,,,
334563,1616774954229,,,49,,,0.06,-0.79,-0.09,-26,7,-8,0.79,0,,,,,,,,,,,,,,,,
334603,1616774954269,,,48,,,0.32,-0.7,0.31,-25,21,-18,0.77,0,,,,,,,,,,,,,,,,
334643,1616774954309,,,49,,,0.48,-0.64,0.55,-28,17,-14,0.8,0,45.846149,5.179521,40.17,706.7,7,2,2.0,0,0.0,-1,0.0,0.0,0.0,0,1.1,5.5774
334683,1616774954349,,,48,,,0.46,-0.76,0.06,-29,4,-2,0.89,0,,,,,,,,,,,,,,,,
334723,1616774954389,,,49,,,0.37,-0.86,-0.33,-30,-8,7,0.94,0,,,,,,,,,,,,,,,,
334763,1616774954428,,,48,,,0.13,-0.84,-0.65,-29,-18,14,0.85,0,,,,,,,,,,,,,,,,
334803,1616774954468,,,49,,,0.06,-0.84,-0.91,-29,-17,13,0.84,0,,,,,,,,,,,,,,,,
334843,1616774954510,,,48,,,0.03,-0.75,-0.66,-29,-13,7,0.75,0,45.846157,5.179474,40.64,706.4,7,2,2.9,0,0.0,-1,0.0,0.0,0.0,0,1.1,5.5807
334883,1616774954550,,,48,,,0.07,-0.91,-0.15,-28,3,-6,0.91,0,,,,,,,,,,,,,,,,
334923,1616774954590,,,49,,,0.3,-0.84,0.25,-27,13,-12,0.9,0,,,,,,,,,,,,,,,,
334963,1616774954630,,,49,,,0.41,-0.75,0.4,-25,15,-10,0.85,0,,,,,,,,,,,,,,,,
335003,1616774954670,,,48,,,0.15,-0.6,-0.06,-20,-6,5,0.62,0,,,,,,,,,,,,,,,,
335043,1616774954710,302,146,48,0.34,13.57,-0.09,-0.47,-0.17,-16,-16,8,0.48,0,45.846161,5.179428,39.99,705.9,7,2,2.9,0,0.0,-1,0.0,0.0,0.0,0,1.1,5.5841
335083,1616774954750,,,48,,,0.16,-0.35,0.24,-11,3,-4,0.39,0,,,,,,,,,,,,,,,,
335123,1616774954790,,,51,,,0.1,-0.21,-0.19,-5,-4,5,0.23,0,,,,,,,,,,,,,,,,
335163,1616774954830,,,48,,,-0.12,-0.17,-0.53,-1,-20,14,0.21,0,,,,,,,,,,,,,,,,
335203,1616774954870,,,51,,,-0.31,-0.05,-0.54,2,-5,4,0.32,0,,,,,,,,,,,,,,,,
335243,1616774954910,,,50,,,-0.03,0.19,-0.05,4,-2,7,0.19,0,45.846168,5.179382,40.67,706.3,7,2,2.9,0,0.0,-1,0.0,0.0,0.0,0,1.11,5.5874
335283,1616774954950,,,51,,,-0.05,0.23,-0.42,7,-14,13,0.24,0,,,,,,,,,,,,,,,,
335323,1616774954990,,,52,,,-0.18,0.3,-0.32,10,0,3,0.35,0,,,,,,,,,,,,,,,,
335363,1616774955026,,,51,,,0.08,0.46,-0.22,16,-2,9,0.46,0,,,,,,,,,,,,,,,,
335403,1616774955066,,,52,,,-0.04,0.6,-0.56,18,-11,14,0.6,0,,,,,,,,,,,,,,,,
335443,1616774955110,,,51,,,-0.01,0.67,-0.3,20,9,1,0.67,0,45.846168,5.179335,40.02,706.3,7,2,2.9,0,0.0,-1,0.0,0.0,0.0,0,1.11,5.5907
335483,1616774955150,,,51,,,-0.04,0.83,-0.26,23,-5,9,0.83,0,,,,,,,,,,,,,,,,
335523,1616774955190,,,52,,,-0.29,0.82,-0.19,24,13,-2,0.86,0,,,,,,,,,,,,,,,,
335563,1616774955230,,,52,,,-0.03,0.9,-0.18,25,-0,6,0.9,0,,,,,,,,,,,,,,,,
335603,1616774955270,,,52,,,-0.18,0.92,-0.29,26,7,-2,0.94,0,,,,,,,,,,,,,,,,
335643,1616774955310,,,51,,,0.15,0.93,0.14,26,14,-3,0.95,0,45.846172,5.17929,39.63,706.2,7,2,2.9,0,0.0,-1,0.0,0.0,0.0,0,1.11,5.594
335683,1616774955350,,,51,,,-0.15,0.86,-0.26,25,6,1,0.87,0,,,,,,,,,,,,,,,,
335723,1616774955390,,,51,,,0.11,0.91,0.17,25,27,-9,0.92,0,,,,,,,,,,,,,,,,
335763,1616774955429,,,51,,,-0.22,0.84,0.11,20,22,-8,0.87,0,,,,,,,,,,,,,,,,
335803,1616774955469,,,50,,,-0.14,0.68,0.07,15,6,-3,0.7,0,,,,,,,,,,,,,,,,
335843,1616774955509,,,50,,,0.04,0.63,0.14,11,14,-7,0.63,0,45.846176,5.179245,39.37,706.6,7,2,2.9,0,0.0,-1,0.0,0.0,0.0,0,1.11,5.5974
335883,1616774955549,,,51,,,-0.13,0.6,0.13,9,13,-8,0.61,0,,,,,,,,,,,,,,,,
335923,1616774955591,,,50,,,-0.18,0.62,0.06,10,12,-5,0.64,0,,,,,,,,,,,,,,,,
335963,1616774955631,,,50,,,-0.16,0.66,0.03,10,4,-4,0.68,0,,,,,,,,,,,,,,,,
336003,1616774955671,,,51,,,-0.09,0.66,0.25,11,7,-4,0.67,0,,,,,,,,,,,,,,,,
336043,1616774955711,302,139,52,0.33,13.68,-0.08,0.67,0.22,12,9,-4,0.68,0,45.846176,5.179197,39.72,707.2,7,2,2.9,0,0.0,-1,0.0,0.0,0.0,0,1.11,5.6007
336083,1616774955751,,,51,,,-0.12,0.71,0.2,13,9,-7,0.72,0,,,,,,,,,,,,,,,,
336123,1616774955791,,,52,,,-0.19,0.69,0.18,14,9,-4,0.71,0,,,,,,,,,,,,,,,,
336163,1616774955831,,,52,,,-0.2,0.65,0.22,16,7,-1,0.68,0,,,,,,,,,,,,,,,,
336203,1616774955871,,,52,,,-0.28,0.66,0.16,17,4,-1,0.72,0,,,,,,,,,,,,,,,,
336243,1616774955911,,,50,,,-0.3,0.65,0.1,17,0,-1,0.72,0,45.846184,5.179149,39.67,707.7,7,2,2.9,0,0.0,-1,0.0,0.0,0.0,0,1.12,5.6041
336283,1616774955951,,,52,,,-0.28,0.61,0.06,18,-4,2,0.67,0,,,,,,,,,,,,,,,,
336323,1616774955991,,,51,,,-0.22,0.64,0.03,18,-3,2,0.67,0,,,,,,,,,,,,,,,,
336363,1616774956025,,,52,,,-0.2,0.75,0.0,19,-6,4,0.78,0,,,,,,,,,,,,,,,,
336403,1616774956065,,,51,,,-0.13,0.82,-0.02,20,0,3,0.83,0,,,,,,,,,,,,,,,,
336443,1616774956111,,,52,,,-0.03,0.84,0.05,19,3,2,0.84,0,45.846188,5.179102,39.9,707.6,7,2,2.9,0,0.0,-1,0.0,0.0,0.0,0,1.12,5.6074
336483,1616774956151,,,52,,,-0.04,0.86,0.06,19,-1,0,0.86,0,,,,,,,,,,,,,,,,
336523,1616774956191,,,50,,,-0.11,0.97,0.07,21,2,1,0.98,0,,,,,,,,,,,,,,,,
336563,1616774956231,,,48,,,-0.11,0.99,-0.32,19,-11,8,0.99,0,,,,,,,,,,,,,,,,
336603,1616774956271,,,49,,,-0.08,0.91,-0.28,18,-10,5,0.91,0,,,,,,,,,,,,,,,,
336643,1616774956309,,,50,,,0.09,0.87,-0.25,19,3,0,0.87,0,45.846195,5.179057,39.45,707.3,7,2,2.9,0,0.0,-1,0.0,0.0,0.0,0,1.12,5.6107
336683,1616774956349,,,49,,,0.13,0.77,-0.18,19,11,-8,0.78,0,,,,,,,,,,,,,,,,
336723,1616774956389,,,51,,,0.05,0.78,-0.13,18,3,-3,0.78,0,,,,,,,,,,,,,,,,
336763,1616774956430,,,49,,,0.01,0.69,-0.23,16,-5,1,0.69,0,,,,,,,,,,,,,,,,
336803,1616774956470,,,49,,,0.14,0.77,-0.21,13,-6,-1,0.79,0,,,,,,,,,,,,,,,,
336843,1616774956510,,,51,,,-0.02,0.7,-0.15,12,1,-5,0.7,0,45.846203,5.179013,38.91,707.2,7,2,2.9,0,0.0,-1,0.0,0.0,0.0,0,1.12,5.614
336883,1616774956550,,,50,,,-0.1,0.71,-0.36,11,-13,1,0.72,0,,,,,,,,,,,,,,,,
336923,1616774956590,,,48,,,0.05,0.74,-0.31,7,-24,7,0.74,0,,,,,,,,,,,,,,,,
336963,1616774956630,,,51,,,0.04,0.75,-0.24,5,-14,5,0.75,0,,,,,,,,,,,,,,,,
337003,1616774956670,,,52,,,-0.1,0.74,-0.57,8,-16,7,0.75,0,,,,,,,,,,,,,,,,
337043,1616774956710,302,129,51,0.34,13.73,0.07,0.92,-0.48,10,-15,8,0.92,0,45.84621,5.178971,38.29,706.9,7,2,2.9,0,0.0,-1,0.0,0.0,0.0,0,1.13,5.6174
337083,1616774956750,,,50,,,-0.08,0.96,-0.37,13,-1,0,0.96,0,,,,,,,,,,,,,,,,
337123,1616774956790,,,49,,,-0.18,0.97,-0.68,17,-10,6,0.99,0,,,,,,,,,,,,,,,,
337163,1616774956830,,,50,,,0.06,1.01,-0.17,16,-9,3,1.02,0,,,,,,,,,,,,,,,,
337203,1616774956870,,,52,,,-0.16,1.03,-0.26,16,-2,-0,1.05,0,,,,,,,,,,,,,,,,
337243,1616774956910,,,51,,,-0.03,1.13,-0.23,17,-14,9,1.13,0,45.846222,5.178931,38.68,706.4,7,2,2.9,0,0.0,-1,0.0,0.0,0.0,0,1.13,5.6207
337283,1616774956950,,,51,,,-0.15,1.09,-0.17,17,-2,2,1.1,0,,,,,,,,,,,,,,,,
337323,1616774956990,,,50,,,-0.31,1.18,-0.52,19,-12,10,1.22,0,,,,,,,,,,,,,,,,
337363,1616774957026,,,51,,,-0.03,1.22,-0.04,18,-6,3,1.22,0,,,,,,,,,,,,,,,,
337403,1616774957066,,,50,,,-0.25,1.05,-0.41,18,-4,-1,1.08,0,,,,,,,,,,,,,,,,
337443,1616774957110,,,49,,,-0.13,0.98,-0.35,19,-11,6,0.98,0,45.846237,5.178891,38.4,705.0,7,2,2.0,0,0.0,-1,0.0,0.0,0.0,0,1.13,5.6241
337483,1616774957150,,,51,,,-0.08,0.93,-0.16,21,14,-7,0.94,0,,,,,,,,,,,,,,,,
337523,1616774957190,,,49,,,-0.36,1.0,-0.51,20,-9,5,1.06,0,,,,,,,,,,,,,,,,
337563,1616774957230,,,52,,,-0.13,0.94,-0.38,23,5,1,0.95,0,,,,,,,,,,,,,,,,
337603,1616774957270,,,49,,,-0.4,0.8,-0.69,22,0,7,0.9,0,,,,,,,,,,,,,,,,
337643,1616774957308,,,52,,,-0.25,0.81,-0.18,20,5,0,0.85,0,45.846249,5.178852,38.44,705.0,7,2,2.0,0,0.0,-1,0.0,0.0,0.0,0,1.13,5.6274
337683,1616774957348,,,52,,,-0.41,0.81,-0.53,19,-13,14,0.91,0,,,,,,,,,,,,,,,,
337723,1616774957388,,,52,,,-0.36,0.79,-0.37,20,-5,0,0.87,0,,,,,,,,,,,,,,,,
337763,1616774957429,,,53,,,-0.05,0.78,0.08,19,9,-7,0.78,0,,,,,,,,,,,,,,,,
337803,1616774957469,,,52,,,-0.21,0.81,-0.32,21,3,-2,0.84,0,,,,,,,,,,,,,,,,
337843,1616774957507,,,53,,,-0.03,0.71,0.12,20,21,-13,0.71,0,45.846268,5.178812,38.29,704.7,7,2,2.0,0,0.0,-1,0.0,0.0,0.0,0,1.13,5.6307
337883,1616774957547,,,52,,,0.07,0.68,-0.12,20,10,-4,0.68,0,,,,,,,,,,,,,,,,
337923,1616774957587,,,53,,,0.17,0.61,0.09,18,29,-14,0.63,0,,,,,,,,,,,,,,,,
337963,1616774957627,,,50,,,0.41,0.62,0.06,18,26,-10,0.75,0,,,,,,,,,,,,,,,,
338003,1616774957667,,,53,,,0.03,0.55,-0.34,17,12,-4,0.55,0,,,,,,,,,,,,,,,,
338043,1616774957709,302,132,50,0.33,13.65,0.16,0.51,0.11,16,27,-16,0.53,0,45.846287,5.178773,39.77,704.2,7,2,2.0,0,0.0,-1,0.0,0.0,0.0,0,1.14,5.634
338083,1616774957749,,,52,,,0.33,0.53,0.07,14,16,-8,0.62,0,,,,,,,,,,,,,,,,
338123,1616774957789,,,52,,,0.08,0.52,-0.3,14,1,-3,0.52,0,,,,,,,,,,,,,,,,
338163,1616774957829,,,50,,,0.1,0.44,0.14,14,6,-7,0.45,0,,,,,,,,,,,,,,,,
338203,1616774957869,,,53,,,0.3,0.48,0.49,14,16,-14,0.57,0,,,,,,,,,,,,,,,,
338243,1616774957909,,,52,,,0.21,0.5,0.02,14,3,-4,0.54,0,45.846306,5.178737,39.46,704.2,7,2,2.0,0,0.0,-1,0.0,0.0,0.0,0,1.14,5.6374
338283,1616774957949,,,51,,,0.07,0.45,-0.37,14,-12,6,0.45,0,,,,,,,,,,,,,,,,
338323,1616774957989,,,53,,,-0.04,0.36,-0.24,13,-3,1,0.36,0,,,,,,,,,,,,,,,,
338363,1616774958023,,,52,,,0.16,0.4,0.19,13,12,-8,0.43,0,,,,,,,,,,,,,,,,
338403,1616774958063,,,52,,,0.35,0.52,0.53,13,22,-16,0.63,0,,,,,,,,,,,,,,,,
338443,1616774958107,,,53,,,0.23,0.58,0.05,14,8,-5,0.62,0,45.846329,5.1787,41.07,704.0,7,2,1.8,0,0.0,-1,0.0,0.0,0.0,0,1.14,5.6407
338483,1616774958147,,,49,,,0.3,0.63,0.06,14,-2,4,0.69,0,,,,,,,,,,,,,,,,
338523,1616774958187,,,51,,,0.15,0.68,-0.33,14,-17,11,0.7,0,,,,,,,,,,,,,,,,
338563,1616774958227,,,50,,,-0.11,0.63,-0.65,15,-15,6,0.64,0,,,,,,,,,,,,,,,,
338603,1616774958267,,,51,,,-0.17,0.54,-0.91,16,-3,-2,0.57,0,,,,,,,,,,,,,,,,
338643,1616774958309,,,52,,,-0.03,0.54,-0.36,16,7,-5,0.54,0,45.846355,5.178661,42.79,703.9,7,2,1.8,0,0.0,-1,0.0,0.0,0.0,0,1.14,5.6441
338683,1616774958349,,,52,,,0.19,0.5,0.09,16,4,-1,0.54,0,,,,,,,,,,,,,,,,
