"Interval"|"ms"|0|0|1,"Utc"|"ms"|0|0|1,"EngineTemp"|"F"|0|300|1,"OilTemp"|"F"|0|300|1,"OilPress"|"PSI"|0|150|25,"Battery"|"Volts"|0.0|20.0|1,"Battery"|"Volts"|0.0|20.0|1,"AccelX"|"G"|-3.0|3.0|25,"AccelY"|"G"|-3.0|3.0|25,"AccelZ"|"G"|-3.0|3.0|25,"Yaw"|"Deg/Sec"|-120|120|25,"Pitch"|"Deg/Sec"|-120|120|25,"Roll"|"Deg/Sec"|-120|120|25,"Gsum"|"G"|0.0|3.0|25,"RPM"|""|0|10000|25,"Latitude"|"Degrees"|-180.0|180.0|10,"Longitude"|"Degrees"|-180.0|180.0|10,"Speed"|"mph"|0.0|150.0|10,"Altitude"|"ft"|0.0|4000.0|10,"GPSSats"|""|0|20|10,"GPSQual"|""|0|5|10,"GPSDOP"|""|0.0|20.0|10,"LapCount"|""|0|0|10,"LapTime"|"Min"|0.0|0.0|10,"Sector"|""|0|0|10,"SectorTime"|"Min"|0.0|0.0|10,"PredTime"|"Min"|0.0|0.0|5,"ElapsedTime"|"Min"|0.0|0.0|10,"CurrentLap"|""|0|0|10,"Distance"|"mi"|0.0|0.0|10,"SessionTime"|"Min"|0.0|0.0|10
760963,1616768909943,,,23,,,-0.3,0.18,-0.11,0,2,-2,0.35,0,,,,,,,,,,,,,,,,
761003,1616768909983,,,24,,,-0.05,0.28,0.29,-1,25,-18,0.28,0,,,,,,,,,,,,,,,,
761043,1616768910019,296,138,22,0.18,13.72,-0.36,0.08,-0.14,-0,-3,-0,0.37,0,45.846863,5.178747,45.52,738.0,6,2,2.9,0,0.0,-1,0.0,0.0,0.0,0,3.27,12.684
761083,1616768910059,,,25,,,-0.22,0.15,0.26,-1,17,-13,0.27,0,,,,,,,,,,,,,,,,
761123,1616768910104,,,21,,,-0.32,0.08,0.03,-1,-1,-1,0.33,0,,,,,,,,,,,,,,,,
761163,1616768910144,,,24,,,-0.24,0.04,0.05,-2,11,-7,0.24,0,,,,,,,,,,,,,,,,
761203,1616768910184,,,21,,,-0.44,-0.06,-0.34,-2,-12,4,0.45,0,,,,,,,,,,,,,,,,
761243,1616768910224,,,23,,,0.02,0.0,0.1,-2,-5,-2,0.02,0,45.846878,5.178704,43.61,738.0,6,2,2.9,0,0.0,-1,0.0,0.0,0.0,0,3.27,12.6874
761283,1616768910264,,,22,,,-0.0,0.04,0.1,-2,-5,-1,0.04,0,,,,,,,,,,,,,,,,
761323,1616768910304,,,24,,,-0.21,0.04,0.06,-2,2,-5,0.21,0,,,,,,,,,,,,,,,,
761363,1616768910344,,,23,,,-0.1,0.05,0.43,-2,-5,-1,0.11,0,,,,,,,,,,,,,,,,
761403,1616768910384,,,24,,,0.09,0.12,0.73,-2,-5,-2,0.15,0,,,,,,,,,,,,,,,,
761443,1616768910424,,,24,,,0.05,0.14,0.95,-2,-8,-0,0.15,0,45.84689,5.178662,40.75,738.0,6,2,2.9,0,0.0,-1,0.0,0.0,0.0,0,3.27,12.6907
761483,1616768910464,,,24,,,-0.22,0.03,0.94,-3,1,-3,0.22,0,,,,,,,,,,,,,,,,
761523,1616768910504,,,23,,,-0.08,0.11,1.14,-3,-1,-4,0.14,0,,,,,,,,,,,,,,,,
761563,1616768910544,,,23,,,-0.3,0.05,1.17,-3,0,-3,0.31,0,,,,,,,,,,,,,,,,
761603,1616768910584,,,23,,,-0.19,0.02,1.27,-3,0,-3,0.19,0,,,,,,,,,,,,,,,,
761643,1616768910624,,,22,,,-0.45,-0.12,0.79,-4,-1,-2,0.47,0,45.846901,5.178624,38.15,738.0,6,2,2.9,0,0.0,-1,0.0,0.0,0.0,0,3.28,12.694
761683,1616768910664,,,22,,,-0.22,-0.05,0.91,-5,1,-4,0.22,0,,,,,,,,,,,,,,,,
761723,1616768910706,,,23,,,-0.35,-0.14,0.7,-6,4,-5,0.38,0,,,,,,,,,,,,,,,,
761763,1616768910746,,,22,,,-0.33,-0.14,0.66,-7,-0,-4,0.36,0,,,,,,,,,,,,,,,,
761803,1616768910786,,,21,,,-0.36,-0.19,0.58,-9,-4,-3,0.41,0,,,,,,,,,,,,,,,,
761843,1616768910826,,,23,,,-0.34,-0.2,0.64,-10,0,-3,0.39,0,45.846912,5.178587,35.92,738.0,6,2,2.9,0,0.0,-1,0.0,0.0,0.0,0,3.28,12.6974
761883,1616768910866,,,22,,,-0.26,-0.23,0.54,-12,-3,0,0.35,0,,,,,,,,,,,,,,,,
761923,1616768910906,,,21,,,-0.45,-0.33,0.25,-14,-7,2,0.55,0,,,,,,,,,,,,,,,,
761963,1616768910946,,,22,,,-0.38,-0.35,0.25,-15,-3,1,0.52,0,,,,,,,,,,,,,,,,
762003,1616768910986,,,22,,,-0.37,-0.4,0.25,-17,-10,2,0.54,0,,,,,,,,,,,,,,,,
762043,1616768911018,302,137,22,0.17,13.75,-0.33,-0.5,0.06,-19,-6,3,0.6,0,45.846924,5.178557,33.3,738.0,6,2,2.5,0,0.0,-1,0.0,0.0,0.0,0,3.28,12.7007
762083,1616768911058,,,22,,,-0.51,-0.51,0.17,-21,-11,2,0.72,0,,,,,,,,,,,,,,,,
762123,1616768911105,,,20,,,-0.24,-0.58,0.39,-23,-12,2,0.63,0,,,,,,,,,,,,,,,,
762163,1616768911145,,,23,,,-0.38,-0.6,0.65,-24,-1,-2,0.71,0,,,,,,,,,,,,,,,,
762203,1616768911185,,,21,,,-0.68,-0.62,0.91,-26,-8,-1,0.92,0,,,,,,,,,,,,,,,,
762243,1616768911225,,,22,,,-0.92,-0.59,1.11,-27,-33,-1,1.1,0,45.846935,5.178526,31.16,738.0,6,2,2.5,0,0.0,-1,0.0,0.0,0.0,0,3.28,12.7041
762283,1616768911265,,,22,,,-1.12,-0.64,1.28,-29,-55,-1,1.29,0,,,,,,,,,,,,,,,,
762323,1616768911305,,,23,,,-1.26,-0.61,1.42,-31,-59,-2,1.4,0,,,,,,,,,,,,,,,,
762363,1616768911345,,,22,,,-1.13,-0.59,1.53,-33,-38,-3,1.27,0,,,,,,,,,,,,,,,,
762403,1616768911385,,,22,,,-0.74,-0.65,0.86,-35,-13,-2,0.98,0,,,,,,,,,,,,,,,,
762443,1616768911425,,,21,,,-0.7,-0.72,0.52,-37,-21,-1,1.0,0,45.846943,5.178497,28.85,738.0,6,2,2.5,0,0.0,-1,0.0,0.0,0.0,0,3.28,12.7074
762483,1616768911465,,,20,,,-0.79,-0.68,0.8,-38,-26,-2,1.04,0,,,,,,,,,,,,,,,,
762523,1616768911505,,,22,,,-0.4,-0.66,0.58,-40,-3,-2,0.78,0,,,,,,,,,,,,,,,,
762563,1616768911545,,,21,,,-0.27,-0.68,0.22,-41,-0,-2,0.73,0,,,,,,,,,,,,,,,,
762603,1616768911585,,,22,,,-0.36,-0.67,0.55,-42,-9,-3,0.76,0,,,,,,,,,,,,,,,,
762643,1616768911625,,,22,,,-0.16,-0.73,0.31,-43,2,-1,0.74,0,45.84695,5.178468,27.39,738.0,6,2,2.5,0,0.0,-1,0.0,0.0,0.0,0,3.29,12.7107
762683,1616768911665,,,22,,,-0.35,-0.78,0.27,-44,-14,-1,0.85,0,,,,,,,,,,,,,,,,
762723,1616768911705,,,22,,,-0.28,-0.77,0.6,-45,-8,-3,0.82,0,,,,,,,,,,,,,,,,
762763,1616768911745,,,21,,,-0.08,-0.79,0.1,-45,3,-3,0.8,0,,,,,,,,,,,,,,,,
762803,1616768911785,,,22,,,-0.23,-0.79,0.42,-46,-8,-1,0.82,0,,,,,,,,,,,,,,,,
762843,1616768911825,,,22,,,-0.06,-0.77,0.32,-46,5,-2,0.77,0,45.846958,5.178439,26.68,738.1,6,2,2.5,0,0.0,-1,0.0,0.0,0.0,0,3.29,12.7141
762883,1616768911865,,,22,,,-0.23,-0.75,0.58,-47,-5,-3,0.78,0,,,,,,,,,,,,,,,,
762923,1616768911905,,,22,,,-0.08,-0.74,0.45,-47,4,-3,0.74,0,,,,,,,,,,,,,,,,
762963,1616768911945,,,21,,,-0.28,-0.77,0.49,-49,-8,-3,0.82,0,,,,,,,,,,,,,,,,
763003,1616768911985,,,21,,,-0.21,-0.83,0.61,-50,-4,-3,0.86,0,,,,,,,,,,,,,,,,
763043,1616768912017,302,139,21,0.18,13.58,-0.22,-0.9,0.51,-52,-3,-4,0.92,0,45.846958,5.178409,25.07,738.1,6,2,19.1,0,0.0,-1,0.0,0.0,0.0,0,3.29,12.7174
763083,1616768912057,,,22,,,-0.23,-0.89,0.8,-54,-1,-4,0.92,0,,,,,,,,,,,,,,,,
763123,1616768912104,,,21,,,-0.14,-0.83,0.78,-56,2,-6,0.85,0,,,,,,,,,,,,,,,,
763163,1616768912144,,,22,,,-0.16,-0.91,0.63,-57,-1,-4,0.92,0,,,,,,,,,,,,,,,,
763203,1616768912184,,,21,,,-0.22,-0.99,0.66,-58,-2,-2,1.01,0,,,,,,,,,,,,,,,,
763243,1616768912224,,,23,,,-0.49,-0.98,0.91,-60,-4,-3,1.1,0,45.846958,5.178381,23.04,738.1,6,2,19.1,0,0.0,-1,0.0,0.0,0.0,0,3.29,12.7207
763283,1616768912264,,,22,,,-0.77,-0.88,1.12,-62,3,-6,1.17,0,,,,,,,,,,,,,,,,
763323,1616768912304,,,24,,,-0.91,-1.03,1.28,-64,-13,-4,1.38,0,,,,,,,,,,,,,,,,
763363,1616768912344,,,23,,,-0.59,-1.04,1.32,-65,-18,-3,1.2,0,,,,,,,,,,,,,,,,
763403,1616768912384,,,23,,,-0.53,-0.95,1.42,-66,-21,-1,1.09,0,,,,,,,,,,,,,,,,
763443,1616768912424,,,22,,,-0.48,-0.92,1.31,-67,-17,-3,1.03,0,45.846958,5.178359,20.16,738.1,6,2,19.1,0,0.0,-1,0.0,0.0,0.0,0,3.29,12.724
763483,1616768912464,,,23,,,-0.51,-0.9,1.13,-66,-13,-4,1.03,0,,,,,,,,,,,,,,,,
763523,1616768912504,,,23,,,-0.21,-0.81,1.3,-65,-16,-1,0.84,0,,,,,,,,,,,,,,,,
763563,1616768912544,,,22,,,-0.21,-0.72,1.03,-63,-23,1,0.75,0,,,,,,,,,,,,,,,,
763603,1616768912584,,,22,,,-0.22,-0.78,0.85,-60,-10,-4,0.81,0,,,,,,,,,,,,,,,,
763643,1616768912624,,,22,,,0.05,-0.7,1.07,-57,-12,-3,0.7,0,45.846954,5.17834,17.57,738.1,6,2,19.1,0,0.0,-1,0.0,0.0,0.0,0,3.29,12.7274
763683,1616768912664,,,22,,,-0.15,-0.7,0.73,-56,-4,-4,0.71,0,,,,,,,,,,,,,,,,
763723,1616768912704,,,22,,,0.19,-0.56,0.97,-54,5,-8,0.59,0,,,,,,,,,,,,,,,,
763763,1616768912744,,,23,,,0.25,-0.57,0.68,-53,-10,-1,0.62,0,,,,,,,,,,,,,,,,
763803,1616768912784,,,22,,,0.01,-0.62,0.36,-51,-8,-3,0.62,0,,,,,,,,,,,,,,,,
763843,1616768912824,,,22,,,0.29,-0.6,0.67,-51,4,-5,0.67,0,45.84695,5.178323,15.42,738.1,6,2,19.1,0,0.0,-1,0.0,0.0,0.0,0,3.29,12.7307
763883,1616768912864,,,22,,,0.24,-0.68,0.41,-50,-6,-0,0.73,0,,,,,,,,,,,,,,,,
763923,1616768912904,,,21,,,0.04,-0.75,-0.05,-50,-3,-2,0.75,0,,,,,,,,,,,,,,,,
763963,1616768912944,,,22,,,-0.02,-0.76,0.05,-50,5,-6,0.76,0,,,,,,,,,,,,,,,,
764003,1616768912984,,,22,,,-0.14,-0.82,-0.34,-50,-4,-1,0.84,0,,,,,,,,,,,,,,,,
764043,1616768913016,302,135,21,0.18,13.7,0.08,-0.9,-0.25,-50,-15,4,0.91,0,45.846943,5.178312,12.49,738.1,6,2,19.1,0,0.0,-1,0.0,0.0,0.0,0,3.29,12.734
764083,1616768913056,,,21,,,0.25,-0.78,0.18,-49,0,-3,0.82,0,,,,,,,,,,,,,,,,
764123,1616768913103,,,22,,,-0.08,-0.91,-0.24,-50,1,-3,0.92,0,,,,,,,,,,,,,,,,
764163,1616768913143,,,22,,,0.17,-0.94,-0.17,-50,-6,1,0.95,0,,,,,,,,,,,,,,,,
764203,1616768913183,,,21,,,0.02,-0.98,-0.23,-50,-14,5,0.98,0,,,,,,,,,,,,,,,,
764243,1616768913223,,,19,,,0.01,-0.93,-0.21,-50,-12,-0,0.93,0,45.846928,5.178299,12.27,738.1,6,2,19.1,0,0.0,-1,0.0,0.0,0.0,0,3.29,12.7374
764283,1616768913263,,,21,,,-0.01,-0.97,-0.19,-50,-3,-1,0.97,0,,,,,,,,,,,,,,,,
764323,1616768913303,,,23,,,-0.02,-0.93,-0.18,-49,1,-2,0.93,0,,,,,,,,,,,,,,,,
764363,1616768913343,,,22,,,0.03,-0.86,-0.32,-48,-1,-1,0.86,0,,,,,,,,,,,,,,,,
764403,1616768913383,,,20,,,0.01,-0.79,-0.28,-46,-11,7,0.79,0,,,,,,,,,,,,,,,,
764443,1616768913425,,,21,,,0.22,-0.71,-0.25,-44,-5,1,0.74,0,45.846916,5.178293,12.04,738.0,6,2,19.1,0,0.0,-1,0.0,0.0,0.0,0,3.3,12.7407
764483,1616768913465,,,22,,,0.19,-0.6,-0.18,-42,1,-8,0.63,0,,,,,,,,,,,,,,,,
764523,1616768913503,,,20,,,0.21,-0.59,-0.26,-39,-16,8,0.63,0,,,,,,,,,,,,,,,,
764563,1616768913543,,,22,,,0.42,-0.57,0.17,-37,1,-5,0.7,0,,,,,,,,,,,,,,,,
764603,1616768913583,,,21,,,0.43,-0.61,-0.24,-34,-16,8,0.75,0,,,,,,,,,,,,,,,,
764643,1616768913625,,,22,,,0.21,-0.67,-0.58,-32,-26,14,0.7,0,45.846897,5.178288,13.42,738.0,6,2,19.1,0,0.0,-1,0.0,0.0,0.0,0,3.3,12.7441
764683,1616768913665,,,22,,,0.14,-0.68,-0.85,-31,-29,15,0.69,0,,,,,,,,,,,,,,,,
764723,1616768913703,,,22,,,0.04,-0.65,-1.07,-29,-36,21,0.65,0,,,,,,,,,,,,,,,,
764763,1616768913743,,,21,,,0.32,-0.51,-0.49,-28,-20,8,0.6,0,,,,,,,,,,,,,,,,
764803,1616768913783,,,22,,,0.43,-0.51,-0.69,-28,-21,8,0.67,0,,,,,,,,,,,,,,,,
764843,1616768913825,,,22,,,0.45,-0.47,-0.34,-27,-22,7,0.66,0,45.846882,5.178286,14.03,738.0,6,2,19.1,0,0.0,-1,0.0,0.0,0.0,0,3.3,12.7474
764883,1616768913865,,,23,,,0.45,-0.5,-0.48,-26,-13,7,0.68,0,,,,,,,,,,,,,,,,
764923,1616768913903,,,22,,,0.68,-0.51,-0.28,-26,1,3,0.85,0,,,,,,,,,,,,,,,,
764963,1616768913943,,,23,,,0.7,-0.54,0.05,-26,6,0,0.88,0,,,,,,,,,,,,,,,,
765003,1616768913983,,,22,,,0.67,-0.47,0.02,-26,5,1,0.82,0,,,,,,,,,,,,,,,,
765043,1616768914017,302,135,22,0.18,13.67,0.8,-0.51,0.29,-25,9,-5,0.95,0,45.846863,5.178286,16.28,738.0,6,2,19.1,0,0.0,-1,0.0,0.0,0.0,0,3.3,12.7507
765083,1616768914057,,,22,,,0.93,-0.43,0.39,-24,6,-4,1.02,0,,,,,,,,,,,,,,,,
765123,1616768914104,,,22,,,0.88,-0.44,0.7,-23,7,-7,0.98,0,,,,,,,,,,,,,,,,
765163,1616768914144,,,23,,,0.77,-0.49,0.83,-21,5,-7,0.92,0,,,,,,,,,,,,,,,,
765203,1616768914184,,,23,,,0.79,-0.48,0.69,-19,5,-4,0.93,0,,,,,,,,,,,,,,,,
765243,1616768914222,,,23,,,0.72,-0.36,0.35,-17,2,-2,0.81,0,45.846848,5.17829,18.64,738.0,6,2,19.1,0,0.0,-1,0.0,0.0,0.0,0,3.3,12.7541
765283,1616768914262,,,22,,,0.73,-0.34,0.56,-15,-0,-2,0.8,0,,,,,,,,,,,,,,,,
765323,1616768914304,,,23,,,0.71,-0.22,0.64,-14,5,-2,0.74,0,,,,,,,,,,,,,,,,
765363,1616768914344,,,22,,,0.58,-0.15,0.21,-11,1,2,0.6,0,,,,,,,,,,,,,,,,
765403,1616768914384,,,24,,,0.59,-0.07,0.22,-8,1,1,0.59,0,,,,,,,,,,,,,,,,
765443,1616768914424,,,24,,,0.71,-0.06,0.55,-6,5,-3,0.71,0,45.846832,5.178297,20.9,738.0,6,2,19.1,0,0.0,-1,0.0,0.0,0.0,0,3.3,12.7574
765483,1616768914464,,,22,,,0.59,-0.06,0.61,-4,8,-6,0.59,0,,,,,,,,,,,,,,,,
765523,1616768914504,,,23,,,0.61,-0.13,0.47,-3,6,-3,0.63,0,,,,,,,,,,,,,,,,
765563,1616768914544,,,23,,,0.67,-0.11,0.36,-3,4,-2,0.68,0,,,,,,,,,,,,,,,,
765603,1616768914584,,,23,,,0.69,-0.12,0.59,-3,9,-2,0.7,0,,,,,,,,,,,,,,,,
765643,1616768914624,,,22,,,0.85,-0.07,0.86,-2,15,-4,0.85,0,45.846809,5.178307,24.17,738.1,6,2,19.1,0,0.0,-1,0.0,0.0,0.0,0,3.3,12.7607
765683,1616768914664,,,23,,,0.83,-0.06,0.32,-3,5,-0,0.83,0,,,,,,,,,,,,,,,,
765723,1616768914704,,,22,,,0.69,-0.17,0.42,-2,-4,-2,0.71,0,,,,,,,,,,,,,,,,
765763,1616768914744,,,24,,,0.52,-0.13,0.72,-2,-9,-3,0.54,0,,,,,,,,,,,,,,,,
765803,1616768914784,,,23,,,0.45,-0.1,0.94,-2,-7,-0,0.46,0,,,,,,,,,,,,,,,,
765843,1616768914824,,,24,,,0.47,-0.09,0.91,-1,4,-2,0.48,0,45.846783,5.178318,27.24,738.1,6,2,19.1,0,0.0,-1,0.0,0.0,0.0,0,3.3,12.764
765883,1616768914864,,,24,,,0.49,-0.16,1.04,-1,13,-3,0.51,0,,,,,,,,,,,,,,,,
765923,1616768914904,,,24,,,0.55,-0.19,1.01,-1,19,-5,0.59,0,,,,,,,,,,,,,,,,
765963,1616768914944,,,23,,,0.58,-0.06,0.97,-0,20,-3,0.58,0,,,,,,,,,,,,,,,,
766003,1616768914984,,,23,,,0.39,-0.07,0.54,1,14,0,0.39,0,,,,,,,,,,,,,,,,
766043,1616768915018,302,138,24,0.18,13.73,0.51,-0.01,0.6,2,10,1,0.51,0,45.846756,5.178333,30.84,738.1,6,2,19.1,0,0.0,-1,0.0,0.0,0.0,0,3.3,12.7674
766083,1616768915058,,,23,,,0.49,0.03,0.51,3,12,-2,0.49,0,,,,,,,,,,,,,,,,
766123,1616768915104,,,24,,,0.55,0.19,0.39,3,10,-1,0.58,0,,,,,,,,,,,,,,,,
766163,1616768915144,,,23,,,0.45,0.18,-0.07,3,3,2,0.49,0,,,,,,,,,,,,,,,,
766203,1616768915184,,,24,,,0.5,0.16,0.33,4,9,-3,0.52,0,,,,,,,,,,,,,,,,
766243,1616768915223,,,24,,,0.61,0.06,0.28,5,13,-5,0.61,0,45.846729,5.178352,35.07,738.1,6,2,19.1,0,0.0,-1,0.0,0.0,0.0,0,3.31,12.7707
766283,1616768915263,,,24,,,0.57,0.07,0.51,6,14,-6,0.57,0,,,,,,,,,,,,,,,,
766323,1616768915303,,,24,,,0.64,0.18,0.79,6,16,-10,0.67,0,,,,,,,,,,,,,,,,
766363,1616768915343,,,24,,,0.52,0.25,0.36,7,10,-7,0.57,0,,,,,,,,,,,,,,,,
766403,1616768915383,,,23,,,0.51,0.26,0.31,7,9,-8,0.57,0,,,,,,,,,,,,,,,,
766443,1616768915423,,,23,,,0.4,0.35,0.56,8,9,-8,0.53,0,45.846699,5.178377,39.75,738.1,6,2,19.1,0,0.0,-1,0.0,0.0,0.0,0,3.31,12.774
766483,1616768915463,,,24,,,0.63,0.38,0.84,7,12,-12,0.74,0,,,,,,,,,,,,,,,,
766523,1616768915503,,,24,,,0.77,0.41,0.95,8,8,-10,0.87,0,,,,,,,,,,,,,,,,
766563,1616768915543,,,24,,,0.72,0.37,0.47,7,-1,-2,0.81,0,,,,,,,,,,,,,,,,
766603,1616768915583,,,23,,,0.71,0.35,0.36,6,1,-3,0.79,0,,,,,,,,,,,,,,,,
766643,1616768915625,,,24,,,0.75,0.44,0.67,6,3,-6,0.87,0,45.846664,5.178401,43.46,738.1,6,2,19.0,0,0.0,-1,0.0,0.0,0.0,0,3.31,12.7774
766683,1616768915665,,,24,,,0.71,0.29,0.56,5,1,-5,0.77,0,,,,,,,,,,,,,,,,
766723,1616768915705,,,24,,,0.64,0.29,0.55,4,3,-3,0.7,0,,,,,,,,,,,,,,,,
766763,1616768915745,,,26,,,0.53,0.25,0.47,3,7,-6,0.59,0,,,,,,,,,,,,,,,,
766803,1616768915785,,,26,,,0.35,0.12,0.4,2,1,-3,0.37,0,,,,,,,,,,,,,,,,
766843,1616768915825,,,26,,,0.39,0.14,0.7,2,2,-5,0.42,0,45.846626,5.178428,46.41,738.1,6,2,19.0,0,0.0,-1,0.0,0.0,0.0,0,3.31,12.7807
766883,1616768915865,,,24,,,0.33,0.11,0.87,1,6,-8,0.34,0,,,,,,,,,,,,,,,,
766923,1616768915905,,,24,,,0.23,0.16,0.35,1,7,-4,0.28,0,,,,,,,,,,,,,,,,
766963,1616768915945,,,25,,,0.39,0.24,0.23,1,7,-5,0.46,0,,,,,,,,,,,,,,,,
767003,1616768915985,,,23,,,0.5,0.29,0.44,-0,7,-5,0.58,0,,,,,,,,,,,,,,,,
767043,1616768916019,302,136,25,0.18,13.73,0.53,0.19,0.39,-1,4,-3,0.57,0,45.846592,5.178448,46.49,738.1,6,2,2.9,0,0.0,-1,0.0,0.0,0.0,0,3.32,12.784
767083,1616768916059,,,24,,,0.47,0.17,0.3,-1,-1,-1,0.5,0,,,,,,,,,,,,,,,,
767123,1616768916106,,,25,,,0.44,0.18,-0.14,-1,-3,1,0.47,0,,,,,,,,,,,,,,,,
767163,1616768916146,,,25,,,0.42,0.12,0.06,-1,4,-4,0.44,0,,,,,,,,,,,,,,,,
767203,1616768916186,,,23,,,0.47,0.23,0.03,-1,-2,2,0.53,0,,,,,,,,,,,,,,,,
767243,1616768916226,,,25,,,0.38,0.17,-0.25,-1,-3,2,0.42,0,45.846558,5.178468,45.54,738.2,6,2,2.9,0,0.0,-1,0.0,0.0,0.0,0,3.32,12.7874
767283,1616768916266,,,24,,,0.42,0.16,-0.45,-0,-1,2,0.45,0,,,,,,,,,,,,,,,,
767323,1616768916306,,,25,,,0.35,0.05,-0.34,-0,2,-2,0.35,0,,,,,,,,,,,,,,,,
767363,1616768916346,,,26,,,0.36,-0.03,-0.59,0,2,-4,0.36,0,,,,,,,,,,,,,,,,
767403,1616768916386,,,25,,,0.3,-0.08,-0.73,0,2,-4,0.31,0,,,,,,,,,,,,,,,,
767443,1616768916426,,,26,,,0.24,0.0,-0.97,0,-2,1,0.24,0,45.846523,5.17849,47.31,738.1,6,2,2.9,0,0.0,-1,0.0,0.0,0.0,0,3.32,12.7907
767483,1616768916466,,,26,,,0.3,0.12,-0.43,0,-2,2,0.32,0,,,,,,,,,,,,,,,,
767523,1616768916506,,,26,,,0.31,0.09,-0.23,-0,-3,3,0.32,0,,,,,,,,,,,,,,,,
767563,1616768916546,,,26,,,0.27,-0.02,-0.51,-1,4,1,0.28,0,,,,,,,,,,,,,,,,
767603,1616768916586,,,24,,,0.29,-0.05,-0.39,-1,10,-1,0.29,0,,,,,,,,,,,,,,,,
767643,1616768916626,,,23,,,0.28,-0.05,-0.34,-2,8,-0,0.29,0,45.846481,5.178515,49.33,738.1,6,2,2.9,0,0.0,-1,0.0,0.0,0.0,0,3.32,12.7941
767683,1616768916666,,,26,,,0.2,-0.06,-0.47,-3,5,4,0.21,0,,,,,,,,,,,,,,,,
767723,1616768916706,,,25,,,0.15,-0.1,-0.2,-4,4,3,0.19,0,,,,,,,,,,,,,,,,
767763,1616768916746,,,26,,,0.16,-0.04,-0.54,-4,0,7,0.17,0,,,,,,,,,,,,,,,,
767803,1616768916786,,,25,,,0.21,-0.02,-0.46,-4,-0,8,0.21,0,,,,,,,,,,,,,,,,
767843,1616768916826,,,24,,,0.37,-0.01,-0.17,-4,2,7,0.37,0,45.846439,5.178542,51.99,738.1,6,2,2.9,0,0.0,-1,0.0,0.0,0.0,0,3.33,12.7974
767883,1616768916866,,,25,,,0.29,-0.03,-0.25,-4,-0,7,0.29,0,,,,,,,,,,,,,,,,
767923,1616768916906,,,25,,,0.27,-0.01,-0.42,-3,-4,8,0.27,0,,,,,,,,,,,,,,,,
767963,1616768916946,,,25,,,0.4,0.08,-0.09,-2,-2,3,0.41,0,,,,,,,,,,,,,,,,
768003,1616768916986,,,25,,,0.43,-0.05,0.25,-2,2,-1,0.43,0,,,,,,,,,,,,,,,,
768043,1616768917020,302,136,26,0.18,13.67,0.51,-0.07,0.22,-2,4,-2,0.51,0,45.846394,5.178568,54.69,738.1,6,2,19.0,0,0.0,-1,0.0,0.0,0.0,0,3.33,12.8007
768083,1616768917060,,,24,,,0.34,-0.06,0.18,-2,-0,0,0.35,0,,,,,,,,,,,,,,,,
768123,1616768917101,,,24,,,0.4,-0.11,0.37,-1,-1,0,0.41,0,,,,,,,,,,,,,,,,
768163,1616768917141,,,25,,,0.43,-0.08,0.32,-1,3,-1,0.44,0,,,,,,,,,,,,,,,,
768203,1616768917181,,,25,,,0.41,-0.07,0.31,-0,5,-2,0.42,0,,,,,,,,,,,,,,,,
768243,1616768917225,,,26,,,0.42,0.07,0.63,0,6,-4,0.43,0,45.846348,5.178596,56.35,738.1,6,2,19.0,0,0.0,-1,0.0,0.0,0.0,0,3.33,12.8041
768283,1616768917265,,,25,,,0.3,0.01,0.49,0,7,-1,0.3,0,,,,,,,,,,,,,,,,
768323,1616768917303,,,24,,,0.28,-0.07,0.6,1,7,0,0.29,0,,,,,,,,,,,,,,,,
768363,1616768917343,,,25,,,0.12,-0.02,0.56,0,7,-1,0.12,0,,,,,,,,,,,,,,,,
768403,1616768917383,,,26,,,-0.0,-0.04,0.51,-0,8,-0,0.04,0,,,,,,,,,,,,,,,,
768443,1616768917423,,,25,,,-0.12,0.04,0.78,-1,7,-1,0.13,0,45.846306,5.178627,57.97,738.1,6,2,19.0,0,0.0,-1,0.0,0.0,0.0,0,3.34,12.8074
768483,1616768917463,,,25,,,-0.33,0.02,0.94,-1,8,-1,0.33,0,,,,,,,,,,,,,,,,
768523,1616768917503,,,24,,,-0.45,-0.05,0.81,-1,5,1,0.46,0,,,,,,,,,,,,,,,,
768563,1616768917543,,,25,,,-0.45,-0.0,0.75,-2,3,1,0.45,0,,,,,,,,,,,,,,,,
768603,1616768917583,,,25,,,-0.54,-0.06,0.58,-1,1,3,0.55,0,,,,,,,,,,,,,,,,
768643,1616768917625,,,25,,,-0.58,0.21,0.49,-1,1,4,0.62,0,45.84626,5.178658,59.75,738.1,6,2,19.0,0,0.0,-1,0.0,0.0,0.0,0,3.34,12.8107
768683,1616768917665,,,26,,,-0.41,0.26,0.78,-0,11,-5,0.48,0,,,,,,,,,,,,,,,,
768723,1616768917705,,,25,,,-0.42,0.23,1.01,-1,22,-15,0.48,0,,,,,,,,,,,,,,,,
768763,1616768917745,,,24,,,-0.43,0.36,0.8,-1,20,-12,0.57,0,,,,,,,,,,,,,,,,
768803,1616768917785,,,25,,,-0.69,0.25,0.26,-2,-2,4,0.73,0,,,,,,,,,,,,,,,,
768843,1616768917825,,,25,,,-0.91,0.18,-0.17,-2,-13,10,0.93,0,45.846207,5.178689,60.53,738.1,6,2,19.0,0,0.0,-1,0.0,0.0,0.0,0,3.34,12.814
768883,1616768917865,,,25,,,-0.71,0.11,0.24,-2,-3,5,0.72,0,,,,,,,,,,,,,,,,
768923,1616768917905,,,24,,,-0.76,0.13,-0.18,-3,-7,7,0.77,0,,,,,,,,,,,,,,,,
768963,1616768917945,,,25,,,-0.66,0.03,0.23,-3,1,2,0.66,0,,,,,,,,,,,,,,,,
769003,1616768917985,,,24,,,-0.57,0.06,0.21,-3,-3,6,0.57,0,,,,,,,,,,,,,,,,
769043,1616768918017,302,150,24,0.19,13.71,-0.6,0.04,0.19,-2,-6,6,0.6,0,45.846161,5.178721,60.3,738.1,6,2,19.0,0,0.0,-1,0.0,0.0,0.0,0,3.35,12.8174
769083,1616768918057,,,23,,,-0.6,0.1,0.53,-1,-10,3,0.61,0,,,,,,,,,,,,,,,,
769123,1616768918104,,,24,,,-0.66,0.02,0.41,0,-4,2,0.66,0,,,,,,,,,,,,,,,,
769163,1616768918144,,,24,,,-0.55,0.03,0.31,1,-3,5,0.56,0,,,,,,,,,,,,,,,,
769203,1616768918184,,,24,,,-0.54,0.1,0.63,1,-7,3,0.55,0,,,,,,,,,,,,,,,,
769243,1616768918224,,,22,,,-0.5,0.1,0.54,1,-3,4,0.51,0,45.846115,5.178752,60.19,738.1,6,2,19.0,0,0.0,-1,0.0,0.0,0.0,0,3.35,12.8207
769283,1616768918264,,,23,,,-0.53,0.04,0.4,0,-6,7,0.53,0,,,,,,,,,,,,,,,,
769323,1616768918304,,,24,,,-0.45,0.04,0.3,-1,-2,5,0.45,0,,,,,,,,,,,,,,,,
769363,1616768918344,,,24,,,-0.51,0.04,0.22,-1,2,-1,0.51,0,,,,,,,,,,,,,,,,
769403,1616768918384,,,23,,,-0.33,0.06,0.56,-2,8,-2,0.33,0,,,,,,,,,,,,,,,,
769443,1616768918424,,,24,,,-0.46,-0.03,0.43,-4,18,-12,0.46,0,45.846069,5.178783,60.21,738.1,6,2,19.0,0,0.0,-1,0.0,0.0,0.0,0,3.35,12.824
769483,1616768918464,,,24,,,-0.5,-0.0,0.37,-5,38,-23,0.5,0,,,,,,,,,,,,,,,,
769523,1616768918504,,,22,,,-0.29,0.02,0.68,-6,43,-21,0.29,0,,,,,,,,,,,,,,,,
769563,1616768918544,,,25,,,-0.23,-0.06,0.93,-7,49,-27,0.24,0,,,,,,,,,,,,,,,,
769603,1616768918584,,,24,,,-0.32,-0.18,0.73,-8,45,-25,0.37,0,,,,,,,,,,,,,,,,
769643,1616768918624,,,23,,,-0.55,-0.3,0.21,-9,15,-8,0.63,0,45.846024,5.178813,59.96,738.1,6,2,19.0,0,0.0,-1,0.0,0.0,0.0,0,3.36,12.8274
769683,1616768918664,,,23,,,-0.53,-0.38,-0.21,-10,-0,4,0.65,0,,,,,,,,,,,,,,,,
769723,1616768918704,,,22,,,-0.43,-0.41,0.21,-10,-9,10,0.59,0,,,,,,,,,,,,,,,,
769763,1616768918744,,,22,,,-0.21,-0.38,0.55,-10,-14,13,0.43,0,,,,,,,,,,,,,,,,
769803,1616768918784,,,22,,,-0.13,-0.44,0.69,-10,-23,18,0.46,0,,,,,,,,,,,,,,,,
769843,1616768918824,,,24,,,-0.19,-0.56,0.18,-11,-40,29,0.59,0,45.845982,5.178845,59.13,738.1,6,2,19.0,0,0.0,-1,0.0,0.0,0.0,0,3.36,12.8307
769883,1616768918864,,,21,,,-0.52,-0.62,-0.24,-11,-59,38,0.81,0,,,,,,,,,,,,,,,,
769923,1616768918904,,,23,,,-0.78,-0.61,-0.57,-11,-45,30,0.99,0,,,,,,,,,,,,,,,,
769963,1616768918944,,,22,,,-0.6,-0.43,-0.08,-10,-9,4,0.74,0,,,,,,,,,,,,,,,,
770003,1616768918984,,,23,,,-0.24,-0.36,-0.09,-10,-9,6,0.43,0,,,,,,,,,,,,,,,,
770043,1616768919018,302,145,21,0.18,13.25,-0.48,-0.39,-0.45,-10,-31,17,0.62,0,45.84594,5.178877,57.2,738.1,6,2,19.0,0,0.0,-1,0.0,0.0,0.0,0,3.36,12.8341
770083,1616768919058,,,23,,,-0.26,-0.23,-0.03,-9,1,-1,0.34,0,,,,,,,,,,,,,,,,
770123,1616768919104,,,23,,,-0.23,-0.16,-0.4,-8,-22,11,0.28,0,,,,,,,,,,,,,,,,
770163,1616768919144,,,23,,,-0.23,-0.14,-0.31,-8,-1,-2,0.26,0,,,,,,,,,,,,,,,,
770203,1616768919184,,,21,,,-0.3,-0.12,-0.63,-6,-15,6,0.32,0,,,,,,,,,,,,,,,,
770243,1616768919225,,,22,,,-0.19,-0.09,-0.53,-4,-12,6,0.21,0,45.845898,5.178906,56.72,738.1,6,2,19.0,0,0.0,-1,0.0,0.0,0.0,0,3.36,12.8374
770283,1616768919265,,,23,,,-0.11,-0.14,-0.41,-3,-0,2,0.17,0,,,,,,,,,,,,,,,,
770323,1616768919305,,,22,,,-0.1,-0.07,-0.31,-3,-2,2,0.13,0,,,,,,,,,,,,,,,,
770363,1616768919345,,,23,,,-0.21,-0.09,-0.23,-3,-4,1,0.23,0,,,,,,,,,,,,,,,,
770403,1616768919385,,,22,,,-0.29,-0.1,-0.5,-4,-3,1,0.3,0,,,,,,,,,,,,,,,,
770443,1616768919425,,,23,,,-0.37,-0.15,-0.43,-4,4,-2,0.4,0,45.845856,5.178935,56.36,738.1,6,2,2.9,0,0.0,-1,0.0,0.0,0.0,0,3.37,12.8407
770483,1616768919465,,,24,,,-0.4,-0.36,-0.33,-4,-10,5,0.54,0,,,,,,,,,,,,,,,,
770523,1616768919505,,,22,,,-0.38,-0.31,0.08,-5,9,-3,0.49,0,,,,,,,,,,,,,,,,
770563,1616768919545,,,23,,,-0.68,-0.35,-0.32,-6,1,-1,0.76,0,,,,,,,,,,,,,,,,
770603,1616768919585,,,21,,,-0.92,-0.41,-0.64,-8,-14,6,1.01,0,,,,,,,,,,,,,,,,
770643,1616768919627,,,23,,,-1.12,-0.58,-0.9,-11,-29,11,1.26,0,45.84581,5.178962,56.49,738.1,6,2,2.9,0,0.0,-1,0.0,0.0,0.0,0,3.37,12.8441
770683,1616768919667,,,22,,,-1.28,-0.68,-1.11,-15,-33,14,1.45,0,,,,,,,,,,,,,,,,
770723,1616768919707,,,23,,,-1.01,-0.7,-0.65,-18,-22,8,1.23,0,,,,,,,,,,,,,,,,
770763,1616768919747,,,21,,,-0.95,-0.66,-0.5,-22,-23,6,1.16,0,,,,,,,,,,,,,,,,
770803,1616768919787,,,22,,,-0.8,-0.73,-0.25,-25,-16,4,1.08,0,,,,,,,,,,,,,,,,
770843,1616768919825,,,23,,,-0.72,-0.77,-0.17,-28,-13,1,1.06,0,45.845772,5.178991,56.09,738.1,6,2,2.9,0,0.0,-1,0.0,0.0,0.0,0,3.37,12.8474
770883,1616768919865,,,21,,,-0.59,-0.79,0.07,-31,-10,0,0.99,0,,,,,,,,,,,,,,,,
770923,1616768919907,,,22,,,-0.75,-0.85,0.15,-34,-11,-0,1.13,0,,,,,,,,,,,,,,,,
770963,1616768919947,,,22,,,-0.59,-0.89,0.37,-37,-15,1,1.07,0,,,,,,,,,,,,,,,,
771003,1616768919987,,,23,,,-0.48,-0.93,0.41,-40,-1,-1,1.04,0,,,,,,,,,,,,,,,,
771043,1616768920025,302,150,22,0.18,13.51,-0.47,-0.94,0.66,-42,0,-1,1.05,0,45.84573,5.179019,55.91,738.0,6,2,2.9,0,0.0,-1,0.0,0.0,0.0,0,3.38,12.8507
771083,1616768920065,,,21,,,-0.53,-0.93,0.91,-44,5,-4,1.07,0,,,,,,,,,,,,,,,,
771123,1616768920106,,,21,,,-0.33,-0.91,1.1,-44,-5,0,0.97,0,,,,,,,,,,,,,,,,
771163,1616768920146,,,21,,,-0.08,-0.91,1.06,-45,6,-1,0.91,0,,,,,,,,,,,,,,,,
771203,1616768920186,,,22,,,-0.27,-0.86,1.21,-44,20,-3,0.91,0,,,,,,,,,,,,,,,,
771243,1616768920226,,,21,,,-0.59,-0.85,1.36,-42,10,-3,1.04,0,45.845734,5.179047,44.11,738.0,6,2,2.5,0,0.0,-1,0.0,0.0,0.0,0,3.38,12.854
771283,1616768920266,,,22,,,-0.85,-0.86,1.48,-40,-19,-0,1.21,0,,,,,,,,,,,,,,,,
771323,1616768920306,,,21,,,-0.72,-0.9,1.37,-37,-37,3,1.16,0,,,,,,,,,,,,,,,,
771363,1616768920346,,,21,,,-0.63,-0.86,1.23,-34,-36,3,1.07,0,,,,,,,,,,,,,,,,
771403,1616768920386,,,22,,,-0.63,-0.78,1.36,-29,-31,2,1.01,0,,,,,,,,,,,,,,,,
771443,1616768920426,,,22,,,-0.5,-0.7,1.27,-23,-33,5,0.86,0,45.845715,5.17907,39.83,738.0,6,2,2.5,0,0.0,-1,0.0,0.0,0.0,0,3.38,12.8574
771483,1616768920466,,,21,,,-0.49,-0.62,1.05,-17,-20,3,0.79,0,,,,,,,,,,,,,,,,
771523,1616768920506,,,21,,,-0.31,-0.55,0.99,-11,-21,5,0.63,0,,,,,,,,,,,,,,,,
771563,1616768920546,,,21,,,-0.55,-0.53,0.42,-8,-33,12,0.76,0,,,,,,,,,,,,,,,,
771603,1616768920586,,,21,,,-0.78,-0.55,-0.04,-6,-42,16,0.96,0,,,,,,,,,,,,,,,,
771643,1616768920626,,,21,,,-0.6,-0.39,-0.02,-6,-47,18,0.72,0,45.845699,5.179092,38.84,738.0,6,2,2.5,0,0.0,-1,0.0,0.0,0.0,0,3.38,12.8607
771683,1616768920666,,,21,,,-0.78,-0.34,-0.39,-7,-38,12,0.85,0,,,,,,,,,,,,,,,,
771723,1616768920706,,,21,,,-0.66,-0.39,-0.7,-8,-27,7,0.76,0,,,,,,,,,,,,,,,,
771763,1616768920746,,,21,,,-0.37,-0.39,-0.23,-9,-20,5,0.54,0,,,,,,,,,,,,,,,,
771803,1616768920786,,,21,,,-0.38,-0.43,-0.21,-10,-20,5,0.57,0,,,,,,,,,,,,,,,,
771843,1616768920826,,,20,,,-0.21,-0.44,-0.15,-10,-19,9,0.49,0,45.845684,5.179115,38.09,738.0,6,2,2.5,0,0.0,-1,0.0,0.0,0.0,0,3.39,12.864
771883,1616768920866,,,20,,,-0.01,-0.3,0.26,-11,-8,1,0.3,0,,,,,,,,,,,,,,,,
771923,1616768920906,,,20,,,0.18,-0.22,0.19,-11,-14,5,0.29,0,,,,,,,,,,,,,,,,
771963,1616768920946,,,21,,,-0.13,-0.17,0.09,-11,-12,4,0.22,0,,,,,,,,,,,,,,,,
772003,1616768920986,,,20,,,-0.12,-0.08,0.05,-10,-16,9,0.15,0,,,,,,,,,,,,,,,,
772043,1616768921026,302,152,22,0.18,13.52,-0.01,-0.05,0.02,-7,-12,8,0.05,0,45.845665,5.179138,37.61,737.9,6,2,2.5,0,0.0,-1,0.0,0.0,0.0,0,3.39,12.8674
772083,1616768921066,,,22,,,-0.05,0.03,0.04,-3,8,-0,0.06,0,,,,,,,,,,,,,,,,
772123,1616768921106,,,21,,,-0.16,0.15,-0.05,2,7,0,0.22,0,,,,,,,,,,,,,,,,
772163,1616768921146,,,21,,,-0.11,0.31,-0.02,7,4,0,0.33,0,,,,,,,,,,,,,,,,
772203,1616768921186,,,21,,,-0.19,0.35,-0.14,13,-3,7,0.4,0,,,,,,,,,,,,,,,,
772243,1616768921225,,,19,,,-0.13,0.54,0.27,20,8,1,0.55,0,45.845661,5.179181,37.44,737.9,6,2,2.9,0,0.0,-1,0.0,0.0,0.0,0,3.39,12.8707
772283,1616768921265,,,21,,,-0.41,0.54,0.17,27,9,1,0.67,0,,,,,,,,,,,,,,,,
772323,1616768921307,,,20,,,-0.25,0.72,0.52,33,18,-3,0.76,0,,,,,,,,,,,,,,,,
772363,1616768921347,,,21,,,-0.2,0.74,0.54,39,17,-2,0.77,0,,,,,,,,,,,,,,,,
772403,1616768921387,,,21,,,-0.41,0.8,0.61,44,17,-1,0.9,0,,,,,,,,,,,,,,,,
772443,1616768921425,,,21,,,-0.71,0.95,0.87,48,-8,1,1.19,0,45.845646,5.179214,37.52,737.9,6,2,2.9,0,0.0,-1,0.0,0.0,0.0,0,3.39,12.8741
772483,1616768921465,,,20,,,-0.88,0.98,1.09,53,-33,2,1.32,0,,,,,,,,,,,,,,,,
772523,1616768921507,,,20,,,-0.83,1.06,0.97,57,-26,2,1.35,0,,,,,,,,,,,,,,,,
772563,1616768921547,,,21,,,-0.77,1.01,0.83,61,-23,3,1.27,0,,,,,,,,,,,,,,,,
772603,1616768921587,,,21,,,-0.68,0.95,0.9,63,-16,3,1.17,0,,,,,,,,,,,,,,,,
772643,1616768921627,,,20,,,-0.58,0.91,0.81,65,-13,4,1.08,0,45.845627,5.179248,37.67,737.9,6,2,2.9,0,0.0,-1,0.0,0.0,0.0,0,3.4,12.8774
772683,1616768921667,,,20,,,-0.57,0.91,0.78,65,-12,5,1.07,0,,,,,,,,,,,,,,,,
772723,1616768921707,,,21,,,-0.58,1.0,0.75,66,-10,5,1.16,0,,,,,,,,,,,,,,,,
772763,1616768921747,,,20,,,-0.57,1.04,0.69,66,-5,4,1.19,0,,,,,,,,,,,,,,,,
772803,1616768921787,,,20,,,-0.56,1.04,0.83,65,-4,3,1.18,0,,,,,,,,,,,,,,,,
772843,1616768921825,,,20,,,-0.56,1.07,0.94,66,-4,3,1.21,0,45.845604,5.179279,37.94,737.9,6,2,2.9,0,0.0,-1,0.0,0.0,0.0,0,3.4,12.8807
772883,1616768921865,,,21,,,-0.58,1.02,0.91,66,-6,4,1.18,0,,,,,,,,,,,,,,,,
772923,1616768921905,,,20,,,-0.58,1.02,0.81,66,-5,3,1.17,0,,,,,,,,,,,,,,,,
772963,1616768921945,,,21,,,-0.52,1.0,0.84,66,-2,3,1.12,0,,,,,,,,,,,,,,,,
773003,1616768921985,,,20,,,-0.5,1.07,0.82,67,-3,2,1.18,0,,,,,,,,,,,,,,,,
773043,1616768922019,302,153,20,0.18,13.31,-0.54,1.06,0.91,69,-2,4,1.19,0,45.845577,5.179308,38.23,737.9,6,2,2.9,0,0.0,-1,0.0,0.0,0.0,0,3.4,12.8841
773083,1616768922059,,,20,,,-0.5,1.08,0.84,71,-2,4,1.19,0,,,,,,,,,,,,,,,,
773123,1616768922105,,,20,,,-0.51,1.08,0.74,74,-2,4,1.19,0,,,,,,,,,,,,,,,,
773163,1616768922145,,,20,,,-0.51,1.08,0.92,76,-2,4,1.19,0,,,,,,,,,,,,,,,,
773203,1616768922185,,,19,,,-0.48,1.13,1.04,79,-1,4,1.22,0,,,,,,,,,,,,,,,,
773243,1616768922224,,,20,,,-0.42,1.16,0.97,82,-1,4,1.23,0,45.845551,5.179337,39.2,737.9,6,2,2.9,0,0.0,-1,0.0,0.0,0.0,0,3.4,12.8874
773283,1616768922264,,,21,,,-0.39,1.15,0.83,85,-2,4,1.22,0,,,,,,,,,,,,,,,,
773323,1616768922304,,,20,,,-0.4,1.11,0.77,87,-1,4,1.18,0,,,,,,,,,,,,,,,,
773363,1616768922344,,,21,,,-0.41,1.15,0.89,88,0,4,1.22,0,,,,,,,,,,,,,,,,
773403,1616768922384,,,20,,,-0.35,1.14,0.7,89,2,4,1.19,0,,,,,,,,,,,,,,,,
773443,1616768922424,,,21,,,-0.32,1.19,0.69,90,5,3,1.23,0,45.845516,5.179364,40.72,737.9,6,2,2.9,0,0.0,-1,0.0,0.0,0.0,0,3.4,12.8907
773483,1616768922464,,,21,,,-0.46,1.2,0.63,90,-7,4,1.29,0,,,,,,,,,,,,,,,,
773523,1616768922504,,,21,,,-0.54,1.24,0.89,90,-9,4,1.35,0,,,,,,,,,,,,,,,,
773563,1616768922544,,,21,,,-0.29,1.14,0.49,90,9,5,1.18,0,,,,,,,,,,,,,,,,
773603,1616768922584,,,21,,,-0.31,1.09,0.35,89,-3,5,1.14,0,,,,,,,,,,,,,,,,
773643,1616768922624,,,21,,,-0.28,1.1,0.61,88,2,4,1.14,0,45.845486,5.179388,41.96,737.9,6,2,2.9,0,0.0,-1,0.0,0.0,0.0,0,3.41,12.894
773683,1616768922664,,,21,,,-0.07,1.07,0.11,88,1,5,1.07,0,,,,,,,,,,,,,,,,
773723,1616768922706,,,20,,,-0.33,1.06,0.23,88,-12,5,1.11,0,,,,,,,,,,,,,,,,
773763,1616768922746,,,21,,,-0.41,1.04,0.56,87,-5,5,1.12,0,,,,,,,,,,,,,,,,
773803,1616768922786,,,21,,,-0.24,1.02,0.07,87,-3,5,1.05,0,,,,,,,,,,,,,,,,
773843,1616768922826,,,20,,,-0.42,1.04,0.38,86,-16,5,1.13,0,45.845448,5.179413,43.78,737.9,6,2,2.9,0,0.0,-1,0.0,0.0,0.0,0,3.41,12.8974
773883,1616768922866,,,22,,,-0.39,0.97,0.29,85,-6,6,1.05,0,,,,,,,,,,,,,,,,
773923,1616768922906,,,22,,,-0.35,1.0,0.5,84,-7,5,1.06,0,,,,,,,,,,,,,,,,
773963,1616768922946,,,21,,,-0.37,0.9,0.14,83,-15,6,0.97,0,,,,,,,,,,,,,,,,
774003,1616768922986,,,22,,,-0.66,0.88,0.49,81,-34,5,1.1,0,,,,,,,,,,,,,,,,
774043,1616768923018,302,150,22,0.18,13.34,-0.71,0.86,0.78,78,-25,4,1.11,0,45.845413,5.179435,45.29,737.9,6,2,2.9,0,0.0,-1,0.0,0.0,0.0,0,3.41,12.9007
774083,1616768923058,,,22,,,-0.54,0.79,1.01,76,-5,3,0.96,0,,,,,,,,,,,,,,,,
774123,1616768923106,,,22,,,-0.23,0.77,1.11,74,19,1,0.8,0,,,,,,,,,,,,,,,,
774163,1616768923146,,,22,,,0.04,0.77,1.04,72,40,0,0.77,0,,,,,,,,,,,,,,,,
774203,1616768923186,,,22,,,0.35,0.73,1.0,71,60,-1,0.81,0,,,,,,,,,,,,,,,,
774243,1616768923225,,,22,,,0.4,0.72,1.19,70,65,-2,0.82,0,45.845371,5.179454,47.24,737.9,6,2,2.9,0,0.0,-1,0.0,0.0,0.0,0,3.41,12.904
774283,1616768923265,,,21,,,-0.0,0.71,1.34,69,46,-1,0.71,0,,,,,,,,,,,,,,,,
774323,1616768923305,,,21,,,-0.09,0.76,1.21,68,26,1,0.77,0,,,,,,,,,,,,,,,,
774363,1616768923345,,,21,,,0.02,0.7,1.12,67,24,1,0.7,0,,,,,,,,,,,,,,,,
774403,1616768923385,,,22,,,0.13,0.68,1.02,66,21,2,0.69,0,,,,,,,,,,,,,,,,
774443,1616768923425,,,21,,,0.19,0.69,1.02,65,17,0,0.71,0,45.845326,5.179469,48.83,737.9,6,2,2.9,0,0.0,-1,0.0,0.0,0.0,0,3.42,12.9074
774483,1616768923465,,,22,,,0.21,0.69,1.14,65,11,2,0.72,0,,,,,,,,,,,,,,,,
774523,1616768923505,,,22,,,0.24,0.73,0.9,64,6,3,0.77,0,,,,,,,,,,,,,,,,
774563,1616768923545,,,22,,,0.36,0.77,1.11,64,11,0,0.85,0,,,,,,,,,,,,,,,,
774603,1616768923585,,,21,,,0.26,0.79,0.63,64,1,5,0.83,0,,,,,,,,,,,,,,,,
774643,1616768923625,,,22,,,0.2,0.76,0.64,65,1,3,0.78,0,45.845284,5.179483,49.44,737.9,6,2,2.9,0,0.0,-1,0.0,0.0,0.0,0,3.42,12.9107
774683,1616768923665,,,22,,,0.09,0.59,0.5,65,2,5,0.6,0,,,,,,,,,,,,,,,,
774723,1616768923707,,,22,,,0.05,0.56,0.02,64,-12,11,0.56,0,,,,,,,,,,,,,,,,
774763,1616768923747,,,23,,,0.16,0.54,0.0,61,-3,5,0.57,0,,,,,,,,,,,,,,,,
774803,1616768923787,,,23,,,0.32,0.54,0.02,58,-1,4,0.63,0,,,,,,,,,,,,,,,,
774843,1616768923827,,,22,,,0.21,0.55,-0.36,54,-10,8,0.59,0,45.845249,5.1795,49.06,737.9,6,2,2.9,0,0.0,-1,0.0,0.0,0.0,0,3.42,12.9141
774883,1616768923867,,,21,,,0.21,0.5,-0.31,49,-6,3,0.55,0,,,,,,,,,,,,,,,,
774923,1616768923907,,,22,,,0.37,0.46,0.11,44,2,1,0.59,0,,,,,,,,,,,,,,,,
774963,1616768923947,,,23,,,0.29,0.46,0.07,40,3,1,0.54,0,,,,,,,,,,,,,,,,
775003,1616768923987,,,21,,,0.28,0.57,0.03,37,-6,4,0.64,0,,,,,,,,,,,,,,,,
775043,1616768924027,302,149,20,0.18,13.47,0.57,0.5,0.41,35,4,-2,0.76,0,45.845215,5.179517,49.1,737.9,6,2,2.9,0,0.0,-1,0.0,0.0,0.0,0,3.42,12.9174
775083,1616768924067,,,23,,,0.21,0.53,-0.05,32,-6,2,0.57,0,,,,,,,,,,,,,,,,
775123,1616768924113,,,23,,,0.35,0.47,-0.01,31,18,-15,0.59,0,,,,,,,,,,,,,,,,
775163,1616768924153,,,22,,,0.45,0.52,0.37,29,25,-19,0.69,0,,,,,,,,,,,,,,,,
775203,1616768924192,,,22,,,0.4,0.54,0.13,29,23,-17,0.67,0,,,,,,,,,,,,,,,,
775243,1616768924232,,,22,,,0.55,0.62,0.13,29,19,-13,0.83,0,45.845177,5.179533,49.1,737.9,6,2,2.9,0,0.0,-1,0.0,0.0,0.0,0,3.43,12.9207
775283,1616768924272,,,21,,,0.63,0.61,0.12,30,16,-12,0.88,0,,,,,,,,,,,,,,,,
775323,1616768924312,,,22,,,0.78,0.58,0.08,31,10,-6,0.97,0,,,,,,,,,,,,,,,,
775363,1616768924352,,,22,,,0.71,0.65,0.23,32,-1,-6,0.96,0,,,,,,,,,,,,,,,,
775403,1616768924392,,,22,,,0.63,0.72,0.49,33,-3,-5,0.96,0,,,,,,,,,,,,,,,,
775443,1616768924432,,,21,,,0.65,0.73,0.41,36,-1,-6,0.97,0,45.845177,5.179533,49.1,737.9,6,2,2.9,0,0.0,-1,0.0,0.0,0.0,0,3.43,12.9241
775483,1616768924472,,,21,,,0.69,0.86,0.22,38,-4,-0,1.1,0,,,,,,,,,,,,,,,,
775523,1616768924512,,,22,,,0.57,0.85,-0.21,40,-5,0,1.03,0,,,,,,,,,,,,,,,,
775563,1616768924552,,,22,,,0.62,0.94,0.21,43,-5,2,1.13,0,,,,,,,,,,,,,,,,
775603,1616768924592,,,22,,,0.64,0.91,0.55,46,0,-3,1.12,0,,,,,,,,,,,,,,,,
775643,1616768924632,,,22,,,0.71,0.9,0.83,48,3,-5,1.15,0,45.845177,5.179533,49.1,737.9,6,2,2.9,0,0.0,-1,0.0,0.0,0.0,0,3.43,12.9274
775683,1616768924672,,,22,,,0.71,0.82,0.69,48,2,-4,1.09,0,,,,,,,,,,,,,,,,
775723,1616768924712,,,22,,,0.58,0.83,0.58,48,1,-2,1.01,0,,,,,,,,,,,,,,,,
775763,1616768924752,,,22,,,0.45,0.76,0.33,46,1,1,0.89,0,,,,,,,,,,,,,,,,
775803,1616768924792,,,22,,,0.6,0.79,0.47,43,3,-1,0.99,0,,,,,,,,,,,,,,,,
775843,1616768924832,,,22,,,0.66,0.58,0.7,38,1,0,0.88,0,45.845177,5.179533,49.1,737.9,6,2,2.9,0,0.0,-1,0.0,0.0,0.0,0,3.44,12.9307
775883,1616768924872,,,22,,,0.6,0.6,0.3,33,-2,-0,0.85,0,,,,,,,,,,,,,,,,
775923,1616768924912,,,22,,,0.57,0.47,0.43,26,5,-2,0.74,0,,,,,,,,,,,,,,,,
775963,1616768924952,,,21,,,0.61,0.56,0.37,20,4,-2,0.82,0,,,,,,,,,,,,,,,,
776003,1616768924992,,,22,,,0.52,0.48,-0.05,12,2,0,0.7,0,,,,,,,,,,,,,,,,
776043,1616768925028,302,153,22,0.18,13.42,0.47,0.33,0.34,4,5,-4,0.57,0,45.845177,5.179533,49.1,737.9,6,2,2.9,0,0.0,-1,0.0,0.0,0.0,0,3.44,12.934
776083,1616768925068,,,21,,,0.46,0.27,0.28,-2,3,-4,0.54,0,,,,,,,,,,,,,,,,
776123,1616768925112,,,22,,,0.38,0.19,0.38,-6,1,-3,0.42,0,,,,,,,,,,,,,,,,
776163,1616768925152,,,21,,,0.27,0.04,0.35,-8,-2,-3,0.27,0,,,,,,,,,,,,,,,,
776203,1616768925191,,,22,,,0.22,-0.04,0.43,-9,-2,-1,0.22,0,,,,,,,,,,,,,,,,
776243,1616768925231,,,21,,,0.11,-0.03,0.27,-7,-1,1,0.11,0,45.845177,5.179533,49.1,737.9,6,2,2.9,0,0.0,-1,0.0,0.0,0.0,0,3.44,12.9374
776283,1616768925271,,,22,,,0.0,0.03,0.6,-6,2,0,0.03,0,,,,,,,,,,,,,,,,
776323,1616768925311,,,21,,,0.06,0.06,0.82,-3,4,-1,0.08,0,,,,,,,,,,,,,,,,
776363,1616768925351,,,21,,,0.0,0.12,0.62,-1,-0,-1,0.12,0,,,,,,,,,,,,,,,,
776403,1616768925391,,,21,,,-0.18,0.12,0.42,-0,-1,-0,0.22,0,,,,,,,,,,,,,,,,
776443,1616768925431,,,21,,,-0.32,0.08,0.24,0,-1,-0,0.33,0,45.845177,5.179533,49.1,737.9,5,2,2.9,0,0.0,-1,0.0,0.0,0.0,0,3.44,12.9407
776483,1616768925471,,,22,,,-0.45,0.0,0.37,-1,-3,-1,0.45,0,,,,,,,,,,,,,,,,
776523,1616768925511,,,21,,,-0.51,-0.01,0.47,-2,-5,-1,0.51,0,,,,,,,,,,,,,,,,
776563,1616768925551,,,21,,,-0.46,0.02,0.7,-3,-5,-1,0.46,0,,,,,,,,,,,,,,,,
776603,1616768925593,,,22,,,-0.39,-0.07,0.63,-4,-2,-0,0.4,0,,,,,,,,,,,,,,,,
776643,1616768925633,,,21,,,-0.31,-0.1,0.67,-5,3,-1,0.33,0,45.845177,5.179533,49.1,737.9,5,2,2.9,0,0.0,-1,0.0,0.0,0.0,0,3.45,12.944
776683,1616768925673,,,22,,,-0.33,-0.15,0.52,-5,3,-1,0.36,0,,,,,,,,,,,,,,,,
776723,1616768925713,,,22,,,-0.44,-0.07,0.8,-5,-2,-1,0.45,0,,,,,,,,,,,,,,,,
776763,1616768925753,,,22,,,-0.52,0.0,0.67,-6,2,-0,0.52,0,,,,,,,,,,,,,,,,
776803,1616768925793,,,21,,,-0.67,-0.11,0.29,-6,-6,6,0.68,0,,,,,,,,,,,,,,,,
776843,1616768925833,,,22,,,-0.77,-0.11,0.01,-6,-7,10,0.78,0,45.845177,5.179533,49.1,737.9,5,2,2.9,0,0.0,-1,0.0,0.0,0.0,0,3.45,12.9474
776883,1616768925873,,,21,,,-0.75,-0.11,-0.01,-6,-30,21,0.76,0,,,,,,,,,,,,,,,,
776923,1616768925913,,,21,,,-0.63,-0.07,0.01,-5,-16,14,0.63,0,,,,,,,,,,,,,,,,
776963,1616768925953,,,20,,,-0.6,0.0,0.03,-3,-19,14,0.6,0,,,,,,,,,,,,,,,,
777003,1616768925993,,,22,,,-0.6,0.03,0.08,-1,-7,6,0.6,0,,,,,,,,,,,,,,,,
777043,1616768926027,302,155,21,0.18,13.38,-0.7,-0.07,-0.32,1,-14,9,0.7,0,45.845177,5.179533,49.1,737.9,5,2,2.9,0,0.0,-1,0.0,0.0,0.0,0,3.45,12.9507
777083,1616768926067,,,22,,,-0.54,0.05,0.1,3,-3,3,0.54,0,,,,,,,,,,,,,,,,
777123,1616768926111,,,21,,,-0.41,0.04,0.1,5,-8,5,0.41,0,,,,,,,,,,,,,,,,
777163,1616768926151,,,20,,,-0.3,0.01,0.1,6,-4,6,0.3,0,,,,,,,,,,,,,,,,
777203,1616768926192,,,20,,,-0.22,0.03,0.1,8,-3,5,0.22,0,,,,,,,,,,,,,,,,
777243,1616768926232,,,21,,,-0.37,0.03,-0.3,9,-4,5,0.38,0,45.845177,5.179533,49.1,737.9,5,2,2.9,0,0.0,-1,0.0,0.0,0.0,0,3.45,12.9541
777283,1616768926272,,,20,,,-0.31,0.03,-0.26,9,7,1,0.32,0,,,,,,,,,,,,,,,,
777323,1616768926312,,,21,,,-0.49,-0.05,-0.58,10,4,2,0.49,0,,,,,,,,,,,,,,,,
777363,1616768926352,,,21,,,-0.52,-0.04,-0.69,10,-9,7,0.52,0,,,,,,,,,,,,,,,,
777403,1616768926392,,,21,,,-0.45,-0.06,-0.45,10,-17,9,0.46,0,,,,,,,,,,,,,,,,
777443,1616768926432,,,22,,,-0.69,-0.09,-0.66,10,-19,9,0.69,0,45.845177,5.179533,49.1,737.9,5,2,2.9,0,0.0,-1,0.0,0.0,0.0,0,3.46,12.9574
777483,1616768926472,,,22,,,-0.49,-0.06,-0.16,9,-12,6,0.49,0,,,,,,,,,,,,,,,,
777523,1616768926512,,,21,,,-0.67,-0.07,-0.27,7,-11,5,0.68,0,,,,,,,,,,,,,,,,
777563,1616768926552,,,21,,,-0.47,-0.06,0.03,5,-13,4,0.48,0,,,,,,,,,,,,,,,,
777603,1616768926592,,,21,,,-0.39,-0.13,0.35,3,-10,3,0.41,0,,,,,,,,,,,,,,,,
777643,1616768926632,,,21,,,-0.46,-0.26,0.01,-1,-8,3,0.53,0,45.845177,5.179533,49.1,737.9,5,2,2.9,0,0.0,-1,0.0,0.0,0.0,0,3.46,12.9607
777683,1616768926672,,,21,,,-0.53,-0.34,-0.03,-6,-8,2,0.63,0,,,,,,,,,,,,,,,,
777723,1616768926712,,,21,,,-0.52,-0.42,0.0,-12,-5,0,0.67,0,,,,,,,,,,,,,,,,
777763,1616768926752,,,21,,,-0.33,-0.5,0.38,-18,-6,1,0.6,0,,,,,,,,,,,,,,,,
777803,1616768926792,,,20,,,-0.56,-0.53,0.2,-24,-1,-0,0.77,0,,,,,,,,,,,,,,,,
777843,1616768926832,,,21,,,-0.4,-0.56,0.23,-28,-7,1,0.69,0,45.845177,5.179533,49.1,737.9,5,2,2.9,0,0.0,-1,0.0,0.0,0.0,0,3.46,12.9641
777883,1616768926872,,,21,,,-0.03,-0.5,0.37,-31,14,-1,0.5,0,,,,,,,,,,,,,,,,
777923,1616768926912,,,22,,,-0.28,-0.44,0.68,-32,26,-4,0.52,0,,,,,,,,,,,,,,,,
777963,1616768926952,,,21,,,-0.6,-0.39,0.93,-32,1,-2,0.71,0,,,,,,,,,,,,,,,,
778003,1616768926992,,,21,,,-0.86,-0.25,1.13,-29,-30,1,0.89,0,,,,,,,,,,,,,,,,
778043,1616768927022,302,157,20,0.18,13.51,-0.73,-0.08,0.9,-24,-53,6,0.73,0,45.845169,5.179532,45.74,737.9,5,2,2.5,0,0.0,-1,0.0,0.0,0.0,0,3.47,12.9674
778083,1616768927062,,,20,,,-0.2,0.13,0.39,-16,-31,5,0.24,0,,,,,,,,,,,,,,,,
778123,1616768927106,,,20,,,-0.32,0.34,0.28,-7,-18,5,0.47,0,,,,,,,,,,,,,,,,
778163,1616768927146,,,20,,,-0.14,0.49,0.32,4,-17,5,0.51,0,,,,,,,,,,,,,,,,
778203,1616768927186,,,20,,,-0.14,0.58,0.36,14,-8,5,0.59,0,,,,,,,,,,,,,,,,
778243,1616768927225,,,20,,,-0.22,0.71,0.26,25,-14,6,0.74,0,45.84523,5.179491,18.76,737.8,5,2,2.5,0,0.0,-1,0.0,0.0,0.0,0,3.47,12.9707
778283,1616768927265,,,21,,,0.12,0.74,0.56,34,1,4,0.75,0,,,,,,,,,,,,,,,,
778323,1616768927303,,,20,,,-0.19,0.82,0.56,42,-1,5,0.84,0,,,,,,,,,,,,,,,,
778363,1616768927343,,,20,,,0.0,0.94,0.66,50,-5,5,0.94,0,,,,,,,,,,,,,,,,
778403,1616768927383,,,19,,,-0.12,0.94,0.5,57,1,5,0.95,0,,,,,,,,,,,,,,,,
778443,1616768927423,,,20,,,-0.02,0.96,0.68,64,4,4,0.96,0,45.845337,5.179404,8.95,737.0,5,2,5.4,0,0.0,-1,0.0,0.0,0.0,0,3.47,12.974
778483,1616768927463,,,20,,,-0.03,1.01,0.76,69,3,4,1.01,0,,,,,,,,,,,,,,,,
778523,1616768927503,,,20,,,-0.12,1.04,0.76,75,1,5,1.04,0,,,,,,,,,,,,,,,,
778563,1616768927543,,,19,,,-0.11,1.13,0.89,79,2,4,1.14,0,,,,,,,,,,,,,,,,
778603,1616768927583,,,19,,,-0.08,1.14,0.99,84,3,3,1.14,0,,,,,,,,,,,,,,,,
778643,1616768927623,,,19,,,-0.12,1.09,0.78,87,-3,6,1.09,0,45.845394,5.179356,14.6,736.8,5,2,5.4,0,0.0,-1,0.0,0.0,0.0,0,3.47,12.9774
778683,1616768927663,,,20,,,-0.24,1.09,0.68,90,-3,5,1.11,0,,,,,,,,,,,,,,,,
778723,1616768927703,,,19,,,-0.01,1.13,0.93,93,6,2,1.13,0,,,,,,,,,,,,,,,,
778763,1616768927743,,,21,,,-0.08,0.99,0.48,95,-4,5,1.0,0,,,,,,,,,,,,,,,,
778803,1616768927783,,,21,,,0.08,0.92,0.51,95,-0,3,0.92,0,,,,,,,,,,,,,,,,
778843,1616768927825,,,21,,,0.33,0.67,0.75,90,1,3,0.75,0,45.845432,5.179327,16.43,736.7,5,2,5.4,0,0.0,-1,0.0,0.0,0.0,0,3.47,12.9807
778883,1616768927865,,,22,,,0.18,0.44,0.5,79,-3,2,0.47,0,,,,,,,,,,,,,,,,
778923,1616768927903,,,21,,,0.47,0.27,0.61,66,-1,1,0.54,0,,,,,,,,,,,,,,,,
778963,1616768927943,,,21,,,0.56,0.02,0.27,51,15,-2,0.57,0,,,,,,,,,,,,,,,,
779003,1616768927983,,,21,,,0.22,-0.15,0.59,36,30,-5,0.26,0,,,,,,,,,,,,,,,,
779043,1616768928019,302,151,21,0.18,13.51,-0.19,-0.34,0.86,22,12,-4,0.4,0,45.84547,5.179314,17.13,736.6,5,2,5.4,0,0.0,-1,0.0,0.0,0.0,0,3.47,12.984
779083,1616768928059,,,21,,,-0.09,-0.45,0.45,8,-7,-1,0.46,0,,,,,,,,,,,,,,,,
779123,1616768928105,,,21,,,0.31,-0.55,0.01,-3,0,-1,0.64,0,,,,,,,,,,,,,,,,
779163,1616768928145,,,22,,,0.16,-0.65,0.26,-14,21,-4,0.67,0,,,,,,,,,,,,,,,,
779203,1616768928185,,,22,,,-0.25,-0.78,0.59,-24,14,-5,0.82,0,,,,,,,,,,,,,,,,
779243,1616768928224,,,21,,,-0.37,-0.89,0.56,-33,-12,-2,0.96,0,45.845505,5.179303,17.64,736.6,5,2,5.4,0,0.0,-1,0.0,0.0,0.0,0,3.47,12.9874
779283,1616768928264,,,20,,,0.05,-0.79,0.7,-41,-7,-2,0.79,0,,,,,,,,,,,,,,,,
779323,1616768928304,,,22,,,-0.2,-0.86,0.54,-48,-1,-3,0.88,0,,,,,,,,,,,,,,,,
779363,1616768928344,,,21,,,0.03,-0.88,0.61,-53,1,-4,0.88,0,,,,,,,,,,,,,,,,
779403,1616768928384,,,22,,,-0.18,-1.01,0.5,-58,7,-4,1.03,0,,,,,,,,,,,,,,,,
779443,1616768928424,,,22,,,-0.14,-1.06,0.54,-63,7,-5,1.07,0,45.845535,5.179292,17.22,736.5,5,2,5.4,0,0.0,-1,0.0,0.0,0.0,0,3.47,12.9907
779483,1616768928464,,,21,,,-0.3,-1.08,0.5,-66,-4,-2,1.12,0,,,,,,,,,,,,,,,,
779523,1616768928504,,,21,,,-0.24,-1.11,0.65,-69,2,-4,1.14,0,,,,,,,,,,,,,,,,
779563,1616768928544,,,21,,,-0.24,-1.09,0.67,-72,-2,-2,1.12,0,,,,,,,,,,,,,,,,
779603,1616768928584,,,21,,,-0.22,-1.02,0.71,-73,-4,-3,1.04,0,,,,,,,,,,,,,,,,
779643,1616768928624,,,22,,,-0.07,-0.93,0.73,-74,1,-3,0.93,0,45.845562,5.179284,16.91,736.5,5,2,5.4,0,0.0,-1,0.0,0.0,0.0,0,3.47,12.994
779683,1616768928664,,,21,,,0.05,-0.85,0.83,-72,-0,-2,0.85,0,,,,,,,,,,,,,,,,
779723,1616768928704,,,21,,,0.18,-0.76,0.78,-68,-2,-2,0.78,0,,,,,,,,,,,,,,,,
779763,1616768928744,,,21,,,0.25,-0.62,0.71,-62,-6,0,0.67,0,,,,,,,,,,,,,,,,
779803,1616768928784,,,22,,,0.23,-0.45,0.53,-55,-9,2,0.51,0,,,,,,,,,,,,,,,,
779843,1616768928824,,,22,,,0.24,-0.33,0.58,-47,-8,1,0.41,0,45.845592,5.179275,16.67,736.4,5,2,5.4,0,0.0,-1,0.0,0.0,0.0,0,3.47,12.9974
779883,1616768928864,,,23,,,0.24,-0.21,0.57,-38,-6,3,0.32,0,,,,,,,,,,,,,,,,
779923,1616768928904,,,22,,,0.24,-0.01,0.47,-29,-8,4,0.24,0,,,,,,,,,,,,,,,,
779963,1616768928944,,,22,,,0.47,0.15,0.76,-20,1,1,0.49,0,,,,,,,,,,,,,,,,
780003,1616768928984,,,21,,,0.65,0.19,0.82,-11,-8,4,0.68,0,,,,,,,,,,,,,,,,
780043,1616768929018,302,159,22,0.18,13.43,0.55,0.31,0.52,-3,-20,10,0.63,0,45.845619,5.179261,16.83,736.4,5,2,5.4,0,0.0,-1,0.0,0.0,0.0,0,3.47,13.0007
780083,1616768929058,,,21,,,0.36,0.39,0.18,4,-28,13,0.53,0,,,,,,,,,,,,,,,,
780123,1616768929104,,,21,,,0.3,0.52,-0.23,11,-38,18,0.6,0,,,,,,,,,,,,,,,,
780163,1616768929144,,,21,,,0.56,0.62,0.19,17,-20,11,0.83,0,,,,,,,,,,,,,,,,
780203,1616768929184,,,22,,,0.53,0.75,0.17,24,-15,10,0.92,0,,,,,,,,,,,,,,,,
780243,1616768929223,,,21,,,0.52,0.82,0.16,31,-12,7,0.97,0,45.845657,5.179244,17.62,736.4,5,2,5.4,0,0.0,-1,0.0,0.0,0.0,0,3.48,13.0041
780283,1616768929263,,,21,,,0.45,0.82,0.15,37,-7,5,0.93,0,,,,,,,,,,,,,,,,
780323,1616768929305,,,22,,,0.24,0.76,0.14,43,-13,4,0.8,0,,,,,,,,,,,,,,,,
780363,1616768929345,,,20,,,0.45,0.84,0.09,48,-7,1,0.95,0,,,,,,,,,,,,,,,,
780403,1616768929385,,,19,,,0.11,0.88,-0.31,51,-28,14,0.89,0,,,,,,,,,,,,,,,,
780443,1616768929423,,,22,,,0.17,0.73,-0.23,52,-10,2,0.75,0,45.845692,5.179228,19.05,736.4,5,2,5.4,0,0.0,-1,0.0,0.0,0.0,0,3.48,13.0074
780483,1616768929463,,,21,,,0.23,0.84,-0.2,52,-21,11,0.87,0,,,,,,,,,,,,,,,,
780523,1616768929503,,,22,,,0.18,0.72,-0.15,49,-6,2,0.74,0,,,,,,,,,,,,,,,,
780563,1616768929543,,,20,,,0.23,0.74,-0.14,46,-6,4,0.78,0,,,,,,,,,,,,,,,,
780603,1616768929583,,,21,,,0.23,0.65,-0.09,42,5,-6,0.69,0,,,,,,,,,,,,,,,,
780643,1616768929623,,,22,,,0.1,0.68,-0.46,38,-5,-1,0.69,0,45.845715,5.179221,18.37,736.3,5,2,5.4,0,0.0,-1,0.0,0.0,0.0,0,3.48,13.0107
780683,1616768929663,,,21,,,0.07,0.6,-0.39,35,-7,1,0.6,0,,,,,,,,,,,,,,,,
780723,1616768929703,,,20,,,0.04,0.5,-0.34,32,-6,2,0.5,0,,,,,,,,,,,,,,,,
780763,1616768929743,,,20,,,0.02,0.52,-0.29,31,-5,2,0.52,0,,,,,,,,,,,,,,,,
780803,1616768929783,,,21,,,-0.14,0.64,-0.26,30,-7,6,0.66,0,,,,,,,,,,,,,,,,
780843,1616768929825,,,20,,,-0.16,0.66,-0.23,30,-8,7,0.68,0,45.845753,5.17921,20.1,736.3,5,2,5.4,0,0.0,-1,0.0,0.0,0.0,0,3.48,13.014
780883,1616768929865,,,20,,,-0.25,0.63,-0.21,30,-7,6,0.68,0,,,,,,,,,,,,,,,,
780923,1616768929905,,,21,,,-0.28,0.64,-0.19,32,3,2,0.7,0,,,,,,,,,,,,,,,,
780963,1616768929945,,,21,,,-0.15,0.6,0.21,32,9,-1,0.62,0,,,,,,,,,,,,,,,,
781003,1616768929985,,,21,,,-0.1,0.72,0.19,33,-1,4,0.72,0,,,,,,,,,,,,,,,,
781043,1616768930019,302,160,21,0.19,13.43,-0.25,0.71,0.13,33,14,-2,0.75,0,45.845779,5.179203,20.49,736.3,5,2,5.4,0,0.0,-1,0.0,0.0,0.0,0,3.48,13.0174
781083,1616768930059,,,20,,,-0.39,0.76,-0.17,35,3,3,0.86,0,,,,,,,,,,,,,,,,
781123,1616768930100,,,21,,,-0.62,0.8,-0.52,38,-3,7,1.01,0,,,,,,,,,,,,,,,,
781163,1616768930140,,,20,,,-0.46,0.88,-0.04,41,5,3,0.99,0,,,,,,,,,,,,,,,,
781203,1616768930180,,,20,,,-0.58,0.79,0.04,44,4,4,0.98,0,,,,,,,,,,,,,,,,
781243,1616768930224,,,21,,,-0.55,0.87,-0.03,47,3,4,1.03,0,45.84581,5.179198,21.55,736.3,5,2,5.4,0,0.0,-1,0.0,0.0,0.0,0,3.48,13.0207
781283,1616768930264,,,21,,,-0.32,0.87,0.34,49,2,4,0.93,0,,,,,,,,,,,,,,,,
781323,1616768930304,,,21,,,-0.5,0.87,0.53,50,5,3,1.01,0,,,,,,,,,,,,,,,,
781363,1616768930344,,,21,,,-0.6,0.97,0.55,51,-7,4,1.14,0,,,,,,,,,,,,,,,,
781403,1616768930384,,,21,,,-0.1,0.95,0.74,52,3,2,0.96,0,,,,,,,,,,,,,,,,
781443,1616768930424,,,22,,,-0.29,0.94,0.72,52,19,-0,0.98,0,45.845837,5.179194,21.15,736.2,5,2,5.4,0,0.0,-1,0.0,0.0,0.0,0,3.48,13.024
781483,1616768930464,,,20,,,-0.61,0.92,0.96,52,-0,2,1.11,0,,,,,,,,,,,,,,,,
781523,1616768930504,,,20,,,-0.35,0.94,1.09,52,-7,2,1.0,0,,,,,,,,,,,,,,,,
781563,1616768930544,,,21,,,-0.35,0.92,1.23,52,4,0,0.98,0,,,,,,,,,,,,,,,,
781603,1616768930584,,,21,,,-0.64,0.92,1.22,53,-4,1,1.12,0,,,,,,,,,,,,,,,,
781643,1616768930624,,,21,,,-0.41,0.92,1.04,54,-13,3,1.01,0,45.845863,5.179194,20.71,736.2,5,2,5.4,0,0.0,-1,0.0,0.0,0.0,0,3.48,13.0274
781683,1616768930664,,,20,,,0.05,0.92,0.87,56,6,2,0.92,0,,,,,,,,,,,,,,,,
781723,1616768930706,,,20,,,-0.21,0.96,0.86,56,16,1,0.99,0,,,,,,,,,,,,,,,,
781763,1616768930746,,,21,,,-0.51,0.97,1.08,56,-1,2,1.1,0,,,,,,,,,,,,,,,,
781803,1616768930786,,,21,,,-0.37,1.01,1.25,57,-2,2,1.07,0,,,,,,,,,,,,,,,,
781843,1616768930824,,,21,,,-0.46,1.04,1.17,59,-6,1,1.14,0,45.845886,5.1792,20.46,736.1,5,2,5.4,0,0.0,-1,0.0,0.0,0.0,0,3.48,13.0307
781883,1616768930864,,,21,,,-0.26,1.07,1.25,60,3,1,1.1,0,,,,,,,,,,,,,,,,
781923,1616768930906,,,19,,,-0.41,1.08,1.11,62,-1,2,1.15,0,,,,,,,,,,,,,,,,
781963,1616768930946,,,20,,,-0.1,1.03,1.2,64,4,2,1.04,0,,,,,,,,,,,,,,,,
782003,1616768930986,,,21,,,-0.38,1.1,0.9,66,3,2,1.17,0,,,,,,,,,,,,,,,,
782043,1616768931016,302,158,19,0.18,13.48,-0.32,1.17,0.84,69,-7,4,1.21,0,45.845905,5.179207,19.5,736.1,5,2,5.4,0,0.0,-1,0.0,0.0,0.0,0,3.49,13.034
782083,1616768931056,,,21,,,-0.05,1.13,0.98,72,8,3,1.13,0,,,,,,,,,,,,,,,,
782123,1616768931104,,,20,,,-0.32,1.15,1.18,74,6,3,1.2,0,,,,,,,,,,,,,,,,
782163,1616768931144,,,19,,,-0.58,1.22,1.12,77,-16,5,1.35,0,,,,,,,,,,,,,,,,
782203,1616768931184,,,20,,,-0.24,1.2,0.52,80,-13,6,1.22,0,,,,,,,,,,,,,,,,
782243,1616768931223,,,20,,,0.14,1.08,0.33,82,13,5,1.09,0,45.845921,5.179215,17.97,736.1,5,2,5.4,0,0.0,-1,0.0,0.0,0.0,0,3.49,13.0374
782283,1616768931263,,,20,,,-0.14,1.02,0.63,83,18,4,1.03,0,,,,,,,,,,,,,,,,
782323,1616768931303,,,20,,,-0.49,1.1,0.89,85,-9,6,1.2,0,,,,,,,,,,,,,,,,
782363,1616768931343,,,20,,,-0.77,1.2,1.08,86,-36,8,1.42,0,,,,,,,,,,,,,,,,
782403,1616768931383,,,20,,,-0.69,1.15,0.49,87,-45,9,1.34,0,,,,,,,,,,,,,,,,
782443,1616768931425,,,19,,,-0.2,1.17,0.02,89,-21,8,1.19,0,45.845932,5.179226,15.99,736.1,5,2,5.4,0,0.0,-1,0.0,0.0,0.0,0,3.49,13.0407
782483,1616768931465,,,20,,,0.23,1.13,-0.36,90,15,4,1.15,0,,,,,,,,,,,,,,,,
782523,1616768931503,,,20,,,0.05,1.17,-0.18,91,22,3,1.17,0,,,,,,,,,,,,,,,,
782563,1616768931543,,,19,,,0.06,1.13,0.11,92,19,4,1.13,0,,,,,,,,,,,,,,,,
782603,1616768931583,,,20,,,-0.05,1.13,0.3,93,17,3,1.13,0,,,,,,,,,,,,,,,,
782643,1616768931623,,,19,,,-0.06,1.14,0.26,94,16,3,1.14,0,45.845947,5.179237,14.63,736.1,5,2,4.2,0,0.0,-1,0.0,0.0,0.0,0,3.49,13.0441
782683,1616768931663,,,20,,,-0.0,1.09,0.38,95,13,3,1.09,0,,,,,,,,,,,,,,,,
782723,1616768931703,,,20,,,-0.05,1.03,0.34,95,9,5,1.03,0,,,,,,,,,,,,,,,,
782763,1616768931743,,,21,,,0.04,1.01,0.51,96,9,3,1.01,0,,,,,,,,,,,,,,,,
782803,1616768931783,,,21,,,0.09,0.96,0.55,96,11,3,0.97,0,,,,,,,,,,,,,,,,
782843,1616768931823,,,20,,,0.06,0.97,0.64,96,13,3,0.97,0,45.845955,5.179248,14.44,736.0,5,2,4.2,0,0.0,-1,0.0,0.0,0.0,0,3.49,13.0474
782883,1616768931863,,,21,,,0.0,0.93,0.45,96,10,4,0.93,0,,,,,,,,,,,,,,,,
782923,1616768931903,,,20,,,0.12,0.96,0.75,95,12,2,0.97,0,,,,,,,,,,,,,,,,
782963,1616768931943,,,21,,,0.16,0.95,0.81,94,-2,6,0.96,0,,,,,,,,,,,,,,,,
783003,1616768931983,,,21,,,0.06,0.94,0.68,92,3,4,0.94,0,,,,,,,,,,,,,,,,
783043,1616768932017,302,159,21,0.19,13.45,0.3,0.91,0.88,88,2,3,0.96,0,45.845966,5.179256,13.73,735.8,5,2,5.4,0,0.0,-1,0.0,0.0,0.0,0,3.49,13.0507
783083,1616768932057,,,21,,,0.19,0.82,0.78,82,2,3,0.84,0,,,,,,,,,,,,,,,,
783123,1616768932103,,,21,,,0.43,0.78,1.01,76,2,2,0.9,0,,,,,,,,,,,,,,,,
783163,1616768932143,,,21,,,0.3,0.68,0.73,69,4,1,0.74,0,,,,,,,,,,,,,,,,
783203,1616768932183,,,21,,,0.47,0.75,0.96,63,-1,2,0.88,0,,,,,,,,,,,,,,,,
783243,1616768932224,,,22,,,0.25,0.64,0.4,57,-4,3,0.69,0,45.84597,5.179262,11.36,735.7,5,2,5.4,0,0.0,-1,0.0,0.0,0.0,0,3.49,13.0541
783283,1616768932264,,,22,,,0.39,0.57,0.68,51,13,-4,0.69,0,,,,,,,,,,,,,,,,
783323,1616768932304,,,22,,,0.7,0.62,0.93,47,18,-7,0.94,0,,,,,,,,,,,,,,,,
783363,1616768932344,,,22,,,0.46,0.64,0.73,44,22,-10,0.79,0,,,,,,,,,,,,,,,,
783403,1616768932384,,,22,,,0.61,0.57,0.61,41,15,-4,0.83,0,,,,,,,,,,,,,,,,
783443,1616768932424,,,22,,,0.36,0.53,0.12,39,7,-0,0.64,0,45.845966,5.179265,10.16,735.7,5,2,5.4,0,0.0,-1,0.0,0.0,0.0,0,3.49,13.0574
783483,1616768932464,,,22,,,0.3,0.56,0.07,38,20,-4,0.64,0,,,,,,,,,,,,,,,,
783523,1616768932504,,,22,,,0.36,0.62,-0.11,36,19,-9,0.72,0,,,,,,,,,,,,,,,,
783563,1616768932544,,,21,,,0.28,0.66,-0.47,36,6,1,0.72,0,,,,,,,,,,,,,,,,
783603,1616768932584,,,21,,,0.51,0.61,0.0,33,20,-5,0.8,0,,,,,,,,,,,,,,,,
783643,1616768932624,,,23,,,0.25,0.49,0.01,33,24,-6,0.55,0,45.845962,5.179265,10.22,735.7,5,2,5.4,0,0.0,-1,0.0,0.0,0.0,0,3.49,13.0607
783683,1616768932664,,,22,,,0.59,0.39,0.39,30,37,-13,0.71,0,,,,,,,,,,,,,,,,
783723,1616768932704,,,22,,,0.79,0.37,0.7,26,28,-6,0.87,0,,,,,,,,,,,,,,,,
783763,1616768932744,,,22,,,0.94,0.28,0.94,21,32,-15,0.98,0,,,,,,,,,,,,,,,,
783803,1616768932784,,,22,,,0.71,0.16,0.38,17,30,-17,0.72,0,,,,,,,,,,,,,,,,
783843,1616768932824,,,20,,,0.64,0.21,0.29,13,27,-13,0.67,0,45.845955,5.179263,11.89,735.7,5,2,5.4,0,0.0,-1,0.0,0.0,0.0,0,3.49,13.064
783883,1616768932864,,,22,,,0.34,0.13,0.25,8,30,-18,0.36,0,,,,,,,,,,,,,,,,
783923,1616768932904,,,20,,,0.55,0.01,0.18,4,29,-15,0.55,0,,,,,,,,,,,,,,,,
783963,1616768932944,,,22,,,0.07,-0.07,-0.0,-0,16,-10,0.1,0,,,,,,,,,,,,,,,,
784003,1616768932984,,,20,,,0.05,-0.1,-0.02,-4,5,-2,0.11,0,,,,,,,,,,,,,,,,
784043,1616768933016,294,159,20,0.18,13.41,-0.05,-0.22,-0.04,-7,6,-4,0.23,0,45.845947,5.179259,12.95,735.8,5,2,4.2,0,0.0,-1,0.0,0.0,0.0,0,3.49,13.0674
784083,1616768933056,,,20,,,0.05,-0.23,0.31,-11,12,-9,0.24,0,,,,,,,,,,,,,,,,
784123,1616768933102,,,21,,,-0.24,-0.3,-0.13,-12,0,-2,0.38,0,,,,,,,,,,,,,,,,
784163,1616768933142,,,21,,,-0.48,-0.41,-0.31,-14,-6,3,0.63,0,,,,,,,,,,,,,,,,
784203,1616768933182,,,21,,,-0.4,-0.37,-0.04,-15,-2,2,0.54,0,,,,,,,,,,,,,,,,
784243,1616768933223,,,20,,,-0.53,-0.33,-0.19,-16,-10,3,0.63,0,45.845936,5.179255,13.25,735.8,5,2,5.6,0,0.0,-1,0.0,0.0,0.0,0,3.49,13.0707
784283,1616768933263,,,21,,,-0.61,-0.42,-0.13,-17,-3,3,0.74,0,,,,,,,,,,,,,,,,
784323,1616768933303,,,21,,,-0.54,-0.38,0.18,-18,-4,2,0.66,0,,,,,,,,,,,,,,,,
784363,1616768933343,,,21,,,-0.67,-0.42,0.12,-20,-6,3,0.79,0,,,,,,,,,,,,,,,,
784403,1616768933383,,,20,,,-0.46,-0.5,0.48,-22,-2,1,0.68,0,,,,,,,,,,,,,,,,
784443,1616768933423,,,21,,,-0.5,-0.56,0.55,-25,2,-0,0.75,0,45.845924,5.17925,14.54,735.9,5,2,4.2,0,0.0,-1,0.0,0.0,0.0,0,3.49,13.074
784483,1616768933463,,,21,,,-0.4,-0.64,0.49,-29,2,-1,0.76,0,,,,,,,,,,,,,,,,
784523,1616768933503,,,20,,,-0.31,-0.76,0.46,-33,2,-2,0.82,0,,,,,,,,,,,,,,,,
784563,1616768933543,,,19,,,-0.48,-0.8,0.25,-37,0,-1,0.94,0,,,,,,,,,,,,,,,,
784603,1616768933583,,,21,,,-0.42,-0.86,0.37,-41,3,-2,0.95,0,,,,,,,,,,,,,,,,
784643,1616768933623,,,21,,,-0.33,-0.87,0.67,-44,3,-3,0.93,0,45.845909,5.179244,16.61,736.0,5,2,4.6,0,0.0,-1,0.0,0.0,0.0,0,3.5,13.0774
784683,1616768933663,,,20,,,-0.45,-0.88,0.65,-47,-0,-4,0.99,0,,,,,,,,,,,,,,,,
784723,1616768933703,,,21,,,-0.42,-0.98,0.75,-51,7,-5,1.07,0,,,,,,,,,,,,,,,,
784763,1616768933743,,,20,,,-0.45,-1.09,0.72,-55,4,-5,1.18,0,,,,,,,,,,,,,,,,
784803,1616768933783,,,21,,,-0.45,-1.03,0.57,-60,11,-6,1.12,0,,,,,,,,,,,,,,,,
784843,1616768933825,,,21,,,-0.74,-1.08,0.69,-64,6,-6,1.31,0,45.845894,5.179242,17.25,736.0,5,2,4.6,0,0.0,-1,0.0,0.0,0.0,0,3.5,13.0807
784883,1616768933865,,,22,,,-0.53,-1.05,0.41,-69,-9,-3,1.18,0,,,,,,,,,,,,,,,,
784923,1616768933903,,,21,,,-0.23,-1.08,-0.05,-73,-14,-1,1.11,0,,,,,,,,,,,,,,,,
784963,1616768933943,,,21,,,-0.44,-1.1,-0.02,-76,-29,-1,1.18,0,,,,,,,,,,,,,,,,
785003,1616768933983,,,22,,,-0.73,-1.09,0.36,-80,-36,-0,1.31,0,,,,,,,,,,,,,,,,
785043,1616768934017,302,151,22,0.18,13.45,-0.97,-1.05,0.67,-83,-21,-3,1.42,0,45.845882,5.179241,17.17,736.0,5,2,4.2,0,0.0,-1,0.0,0.0,0.0,0,3.5,13.0841
785083,1616768934057,,,22,,,-1.0,-0.93,0.93,-85,-1,-4,1.37,0,,,,,,,,,,,,,,,,
785123,1616768934103,,,21,,,-0.57,-1.01,0.94,-87,27,-4,1.16,0,,,,,,,,,,,,,,,,
785163,1616768934143,,,22,,,-0.07,-1.01,0.4,-88,52,-6,1.01,0,,,,,,,,,,,,,,,,
785203,1616768934183,,,21,,,0.17,-1.0,0.66,-89,78,-8,1.02,0,,,,,,,,,,,,,,,,
785243,1616768934224,,,21,,,-0.01,-0.98,0.91,-89,86,-11,0.98,0,45.845871,5.179241,15.68,736.1,5,2,4.2,0,0.0,-1,0.0,0.0,0.0,0,3.5,13.0874
785283,1616768934264,,,21,,,-0.38,-0.91,1.12,-89,77,-11,0.98,0,,,,,,,,,,,,,,,,
785323,1616768934304,,,21,,,-0.63,-0.81,1.28,-88,72,-12,1.03,0,,,,,,,,,,,,,,,,
785363,1616768934344,,,21,,,-0.47,-0.85,1.38,-88,79,-11,0.97,0,,,,,,,,,,,,,,,,
785403,1616768934384,,,22,,,-0.09,-0.87,0.93,-89,94,-10,0.87,0,,,,,,,,,,,,,,,,
785443,1616768934424,,,21,,,0.32,-0.95,0.38,-89,95,-9,1.0,0,45.84586,5.179244,13.2,736.1,5,2,4.2,0,0.0,-1,0.0,0.0,0.0,0,3.5,13.0907
785483,1616768934464,,,21,,,0.64,-0.93,-0.08,-89,101,-9,1.13,0,,,,,,,,,,,,,,,,
785523,1616768934502,,,21,,,0.91,-0.96,-0.44,-89,108,-9,1.32,0,,,,,,,,,,,,,,,,
785563,1616768934542,,,22,,,1.12,-0.99,-0.71,-89,120,-10,1.5,0,,,,,,,,,,,,,,,,
785603,1616768934582,,,21,,,1.09,-0.99,-0.38,-90,124,-13,1.47,0,,,,,,,,,,,,,,,,
785643,1616768934624,,,21,,,0.53,-0.98,0.02,-89,99,-11,1.11,0,45.845852,5.17925,13.04,736.2,5,2,4.2,0,0.0,-1,0.0,0.0,0.0,0,3.5,13.0941
785683,1616768934664,,,21,,,0.48,-0.92,0.13,-89,80,-10,1.04,0,,,,,,,,,,,,,,,,
785723,1616768934702,,,20,,,0.35,-0.96,0.19,-89,70,-10,1.02,0,,,,,,,,,,,,,,,,
785763,1616768934742,,,20,,,0.35,-0.9,0.43,-90,57,-10,0.97,0,,,,,,,,,,,,,,,,
785803,1616768934782,,,20,,,0.15,-0.99,0.41,-91,38,-7,1.0,0,,,,,,,,,,,,,,,,
785843,1616768934822,,,21,,,0.11,-1.04,0.52,-92,32,-8,1.04,0,45.845852,5.179258,11.81,736.0,5,2,4.2,0,0.0,-1,0.0,0.0,0.0,0,3.5,13.0974
785883,1616768934862,,,21,,,0.05,-1.06,0.46,-93,24,-7,1.06,0,,,,,,,,,,,,,,,,
785923,1616768934904,,,21,,,0.19,-1.04,0.55,-94,22,-7,1.06,0,,,,,,,,,,,,,,,,
785963,1616768934944,,,21,,,0.16,-1.05,0.47,-95,21,-8,1.06,0,,,,,,,,,,,,,,,,
786003,1616768934984,,,20,,,0.45,-0.88,0.76,-94,23,-11,0.99,0,,,,,,,,,,,,,,,,
786043,1616768935016,302,155,21,0.19,13.46,0.33,-0.88,0.33,-93,5,-4,0.94,0,45.845852,5.179266,9.84,735.8,5,2,4.2,0,0.0,-1,0.0,0.0,0.0,0,3.5,13.1007
786083,1616768935056,,,21,,,0.2,-1.01,0.29,-92,8,-6,1.03,0,,,,,,,,,,,,,,,,
786123,1616768935104,,,20,,,0.4,-0.88,0.61,-89,21,-14,0.97,0,,,,,,,,,,,,,,,,
786163,1616768935144,,,21,,,0.5,-0.72,0.88,-86,31,-18,0.87,0,,,,,,,,,,,,,,,,
786203,1616768935184,,,20,,,0.17,-0.74,0.46,-83,20,-15,0.76,0,,,,,,,,,,,,,,,,
786243,1616768935223,,,21,,,0.41,-0.75,0.4,-79,22,-15,0.85,0,45.84586,5.179278,10.02,735.8,5,2,4.2,0,0.0,-1,0.0,0.0,0.0,0,3.5,13.104
786283,1616768935263,,,21,,,0.28,-0.74,-0.06,-76,6,-7,0.8,0,,,,,,,,,,,,,,,,
786323,1616768935301,,,21,,,0.24,-0.66,-0.07,-72,13,-11,0.7,0,,,,,,,,,,,,,,,,
786363,1616768935341,,,21,,,0.46,-0.66,-0.04,-66,20,-14,0.8,0,,,,,,,,,,,,,,,,
786403,1616768935381,,,21,,,0.48,-0.65,-0.01,-62,14,-12,0.81,0,,,,,,,,,,,,,,,,
786443,1616768935423,,,21,,,0.43,-0.72,0.01,-58,11,-14,0.84,0,45.845871,5.179289,9.74,735.8,5,2,4.2,0,0.0,-1,0.0,0.0,0.0,0,3.5,13.1074
786483,1616768935463,,,22,,,0.38,-0.67,0.03,-53,7,-15,0.77,0,,,,,,,,,,,,,,,,
786523,1616768935501,,,22,,,0.28,-0.67,0.04,-50,4,-11,0.73,0,,,,,,,,,,,,,,,,
786563,1616768935541,,,20,,,0.17,-0.69,-0.35,-46,-11,1,0.71,0,,,,,,,,,,,,,,,,
786603,1616768935581,,,22,,,0.41,-0.54,0.1,-44,13,-14,0.68,0,,,,,,,,,,,,,,,,
786643,1616768935623,,,21,,,0.38,-0.59,-0.3,-41,-4,-2,0.7,0,45.845882,5.179294,7.35,735.7,5,2,4.2,0,0.0,-1,0.0,0.0,0.0,0,3.5,13.1107
786683,1616768935663,,,20,,,0.16,-0.74,-0.62,-40,-27,12,0.75,0,,,,,,,,,,,,,,,,
786723,1616768935701,,,22,,,0.24,-0.68,-0.49,-39,-34,19,0.72,0,,,,,,,,,,,,,,,,
786763,1616768935741,,,22,,,0.36,-0.67,-0.3,-38,-22,8,0.76,0,,,,,,,,,,,,,,,,
786803,1616768935781,,,21,,,0.38,-0.69,-0.22,-37,-21,9,0.79,0,,,,,,,,,,,,,,,,
786843,1616768935823,,,22,,,0.4,-0.71,-0.2,-37,-18,8,0.82,0,45.845902,5.179297,9.15,735.6,5,2,4.2,0,0.0,-1,0.0,0.0,0.0,0,3.5,13.114
786883,1616768935863,,,22,,,0.53,-0.69,-0.18,-38,-6,4,0.87,0,,,,,,,,,,,,,,,,
786923,1616768935903,,,22,,,0.71,-0.69,-0.17,-38,-4,4,0.99,0,,,,,,,,,,,,,,,,
786963,1616768935943,,,22,,,0.74,-0.84,0.24,-39,-4,4,1.12,0,,,,,,,,,,,,,,,,
787003,1616768935983,,,22,,,0.6,-0.73,0.22,-40,-2,-0,0.94,0,,,,,,,,,,,,,,,,
787043,1616768936019,302,126,22,0.19,13.41,0.73,-0.82,0.44,-40,1,-5,1.09,0,45.845913,5.179303,12.53,735.5,5,2,4.6,0,0.0,-1,0.0,0.0,0.0,0,3.5,13.1174
787083,1616768936059,,,21,,,0.8,-0.85,0.62,-39,-2,-6,1.17,0,,,,,,,,,,,,,,,,
787123,1616768936105,,,22,,,0.73,-0.84,0.48,-37,1,-4,1.11,0,,,,,,,,,,,,,,,,
787163,1616768936145,,,22,,,0.81,-0.69,0.77,-33,4,-7,1.07,0,,,,,,,,,,,,,,,,
787203,1616768936185,,,20,,,0.72,-0.69,0.65,-28,2,-3,1.0,0,,,,,,,,,,,,,,,,
787243,1616768936224,,,22,,,0.54,-0.54,0.71,-21,6,-2,0.76,0,45.845932,5.17931,17.3,735.4,5,2,4.6,0,0.0,-1,0.0,0.0,0.0,0,3.5,13.1207
787283,1616768936264,,,23,,,0.35,-0.43,0.59,-15,4,2,0.55,0,,,,,,,,,,,,,,,,
787323,1616768936304,,,22,,,0.03,-0.34,0.46,-8,9,-4,0.34,0,,,,,,,,,,,,,,,,
787363,1616768936344,,,22,,,-0.2,-0.2,0.39,-2,21,-15,0.28,0,,,,,,,,,,,,,,,,
787403,1616768936384,,,20,,,-0.08,-0.04,0.3,4,2,-0,0.09,0,,,,,,,,,,,,,,,,
787443,1616768936424,,,20,,,-0.04,0.04,0.26,9,9,-3,0.05,0,45.845951,5.179311,19.65,735.4,5,2,4.6,0,0.0,-1,0.0,0.0,0.0,0,3.51,13.1241
787483,1616768936464,,,21,,,-0.13,0.13,0.17,14,-6,4,0.18,0,,,,,,,,,,,,,,,,
787523,1616768936504,,,21,,,-0.04,0.14,0.28,18,-13,7,0.15,0,,,,,,,,,,,,,,,,
787563,1616768936544,,,22,,,-0.18,0.26,0.26,21,-10,6,0.31,0,,,,,,,,,,,,,,,,
787603,1616768936584,,,21,,,-0.29,0.34,0.29,24,-8,4,0.45,0,,,,,,,,,,,,,,,,
787643,1616768936624,,,21,,,-0.3,0.44,0.41,26,-5,4,0.53,0,45.84597,5.179312,21.7,735.4,5,2,4.6,0,0.0,-1,0.0,0.0,0.0,0,3.51,13.1274
787683,1616768936664,,,20,,,-0.34,0.59,0.25,28,-9,4,0.68,0,,,,,,,,,,,,,,,,
787723,1616768936704,,,22,,,-0.24,0.59,0.52,30,5,1,0.64,0,,,,,,,,,,,,,,,,
787763,1616768936744,,,21,,,-0.34,0.65,0.8,31,16,-1,0.73,0,,,,,,,,,,,,,,,,
787803,1616768936784,,,21,,,-0.34,0.67,0.63,33,25,-0,0.76,0,,,,,,,,,,,,,,,,
