"Interval"|"ms"|0|0|1,"Utc"|"ms"|0|0|1,"EngineTemp"|"F"|0|300|1,"OilTemp"|"F"|0|300|1,"OilPress"|"PSI"|0|150|25,"Battery"|"Volts"|0.0|20.0|1,"Battery"|"Volts"|0.0|20.0|1,"AccelX"|"G"|-3.0|3.0|25,"AccelY"|"G"|-3.0|3.0|25,"AccelZ"|"G"|-3.0|3.0|25,"Yaw"|"Deg/Sec"|-120|120|25,"Pitch"|"Deg/Sec"|-120|120|25,"Roll"|"Deg/Sec"|-120|120|25,"Gsum"|"G"|0.0|3.0|25,"RPM"|""|0|10000|25,"Latitude"|"Degrees"|-180.0|180.0|10,"Longitude"|"Degrees"|-180.0|180.0|10,"Speed"|"mph"|0.0|150.0|10,"Altitude"|"ft"|0.0|4000.0|10,"GPSSats"|""|0|20|10,"GPSQual"|""|0|5|10,"GPSDOP"|""|0.0|20.0|10,"LapCount"|""|0|0|10,"LapTime"|"Min"|0.0|0.0|10,"Sector"|""|0|0|10,"SectorTime"|"Min"|0.0|0.0|10,"PredTime"|"Min"|0.0|0.0|5,"ElapsedTime"|"Min"|0.0|0.0|10,"CurrentLap"|""|0|0|10,"Distance"|"mi"|0.0|0.0|10,"SessionTime"|"Min"|0.0|0.0|10
276563,1616770643829,,,18,,,-0.45,0.05,-0.19,4,8,-1,0.45,0,,,,,,,,,,,,,,,,
276603,1616770643869,,,16,,,-0.23,0.15,-0.17,4,10,-0,0.28,0,,,,,,,,,,,,,,,,
276643,1616770643908,,,18,,,-0.16,0.2,-0.12,3,24,-6,0.26,0,45.846943,5.178605,49.57,697.3,7,2,2.4,0,0.0,-1,0.0,0.0,0.0,0,0.69,4.6107
276683,1616770643948,,,18,,,-0.27,0.14,-0.08,2,19,-5,0.3,0,,,,,,,,,,,,,,,,
276723,1616770643988,,,19,,,-0.53,0.07,-0.44,1,6,3,0.53,0,,,,,,,,,,,,,,,,
276763,1616770644024,,,17,,,-0.38,0.05,0.02,-1,21,-14,0.38,0,,,,,,,,,,,,,,,,
276803,1616770644064,,,18,,,-0.42,0.03,-0.01,-2,16,-13,0.42,0,,,,,,,,,,,,,,,,
276843,1616770644108,,,16,,,-0.4,0.14,0.01,-2,9,-8,0.43,0,45.846958,5.178555,48.13,697.5,7,2,2.4,0,0.0,-1,0.0,0.0,0.0,0,0.69,4.614
276883,1616770644148,,,17,,,-0.4,0.11,0.2,-3,5,-11,0.42,0,,,,,,,,,,,,,,,,
276923,1616770644188,,,16,,,-0.41,0.11,0.18,-3,4,-8,0.42,0,,,,,,,,,,,,,,,,
276963,1616770644228,,,17,,,-0.24,-0.07,0.13,-3,5,-6,0.25,0,,,,,,,,,,,,,,,,
277003,1616770644268,,,17,,,-0.15,0.02,0.36,-3,7,-8,0.15,0,,,,,,,,,,,,,,,,
277043,1616770644308,302,194,16,0.18,13.49,-0.22,0.0,-0.09,-3,-1,-1,0.22,0,45.846973,5.178507,45.96,697.5,7,2,2.4,0,0.0,-1,0.0,0.0,0.0,0,0.7,4.6174
277083,1616770644348,,,17,,,-0.08,-0.05,0.03,-3,3,-2,0.1,0,,,,,,,,,,,,,,,,
277123,1616770644388,,,16,,,-0.15,-0.12,0.0,-3,-1,-1,0.19,0,,,,,,,,,,,,,,,,
277163,1616770644428,,,16,,,-0.02,-0.05,0.14,-3,2,-4,0.05,0,,,,,,,,,,,,,,,,
277203,1616770644468,,,16,,,-0.17,-0.08,-0.27,-3,-10,7,0.18,0,,,,,,,,,,,,,,,,
277243,1616770644508,,,17,,,-0.31,-0.1,-0.26,-2,-18,11,0.33,0,45.846989,5.178461,44.2,697.7,7,2,2.4,0,0.0,-1,0.0,0.0,0.0,0,0.7,4.6207
277283,1616770644548,,,16,,,-0.31,-0.02,-0.35,-2,-13,10,0.31,0,,,,,,,,,,,,,,,,
277323,1616770644588,,,17,,,-0.04,0.01,-0.3,-1,-1,6,0.05,0,,,,,,,,,,,,,,,,
277363,1616770644628,,,16,,,-0.15,-0.03,-0.26,-1,-0,6,0.15,0,,,,,,,,,,,,,,,,
277403,1616770644668,,,15,,,-0.26,0.02,-0.59,-0,1,6,0.26,0,,,,,,,,,,,,,,,,
277443,1616770644708,,,16,,,-0.18,0.06,-0.46,0,1,4,0.19,0,45.847004,5.178417,42.88,697.3,7,2,2.4,0,0.0,-1,0.0,0.0,0.0,0,0.7,4.6241
277483,1616770644748,,,16,,,0.01,0.02,0.01,-0,5,-0,0.02,0,,,,,,,,,,,,,,,,
277523,1616770644788,,,16,,,0.07,0.02,0.11,0,4,-1,0.07,0,,,,,,,,,,,,,,,,
277563,1616770644828,,,16,,,-0.06,-0.09,0.07,-0,7,-5,0.11,0,,,,,,,,,,,,,,,,
277603,1616770644868,,,16,,,-0.06,0.07,-0.15,0,2,1,0.09,0,,,,,,,,,,,,,,,,
277643,1616770644907,,,15,,,-0.01,0.07,-0.41,1,-1,1,0.07,0,45.847023,5.178374,42.48,696.8,7,2,2.4,0,0.0,-1,0.0,0.0,0.0,0,0.7,4.6274
277683,1616770644947,,,15,,,0.05,0.0,-0.16,0,-2,2,0.05,0,,,,,,,,,,,,,,,,
277723,1616770644987,,,16,,,-0.05,0.03,-0.5,-0,2,0,0.06,0,,,,,,,,,,,,,,,,
277763,1616770645023,,,15,,,0.09,0.09,-0.31,-0,3,-1,0.12,0,,,,,,,,,,,,,,,,
277803,1616770645063,,,16,,,0.03,0.04,-0.44,-1,-1,3,0.05,0,,,,,,,,,,,,,,,,
277843,1616770645107,,,15,,,0.0,0.06,-0.37,-1,0,2,0.06,0,45.847034,5.178332,41.29,696.8,7,2,2.4,0,0.0,-1,0.0,0.0,0.0,0,0.71,4.6307
277883,1616770645147,,,15,,,-0.05,-0.06,0.01,-2,3,-0,0.07,0,,,,,,,,,,,,,,,,
277923,1616770645187,,,17,,,-0.21,-0.04,-0.32,-2,0,3,0.22,0,,,,,,,,,,,,,,,,
277963,1616770645227,,,17,,,-0.29,-0.09,0.12,-3,4,-1,0.3,0,,,,,,,,,,,,,,,,
278003,1616770645267,,,17,,,-0.38,0.02,0.03,-3,4,-0,0.38,0,,,,,,,,,,,,,,,,
278043,1616770645307,250,194,17,0.18,13.3,-0.41,0.04,0.4,-3,5,1,0.41,0,45.84705,5.178292,40.26,696.5,7,2,2.4,0,0.0,-1,0.0,0.0,0.0,0,0.71,4.634
278083,1616770645347,,,16,,,-0.32,-0.01,0.71,-3,17,-8,0.32,0,,,,,,,,,,,,,,,,
278123,1616770645387,,,17,,,-0.25,-0.0,0.95,-3,23,-15,0.25,0,,,,,,,,,,,,,,,,
278163,1616770645427,,,17,,,-0.23,-0.09,1.15,-4,23,-15,0.24,0,,,,,,,,,,,,,,,,
278203,1616770645467,,,15,,,-0.33,-0.07,0.95,-5,13,-7,0.34,0,,,,,,,,,,,,,,,,
278243,1616770645507,,,16,,,-0.26,-0.06,1.15,-6,21,-14,0.26,0,45.847061,5.178252,39.53,696.4,7,2,2.4,0,0.0,-1,0.0,0.0,0.0,0,0.71,4.6374
278283,1616770645547,,,18,,,-0.55,-0.11,0.91,-5,16,-10,0.56,0,,,,,,,,,,,,,,,,
278323,1616770645587,,,16,,,-0.56,-0.04,0.72,-4,11,-6,0.56,0,,,,,,,,,,,,,,,,
278363,1616770645627,,,17,,,-0.62,0.11,0.6,-2,3,-1,0.63,0,,,,,,,,,,,,,,,,
278403,1616770645667,,,17,,,-0.49,0.13,0.87,-1,16,-11,0.51,0,,,,,,,,,,,,,,,,
278443,1616770645707,,,17,,,-0.51,0.15,1.0,1,26,-23,0.53,0,45.847076,5.178214,38.44,696.5,7,2,2.4,0,0.0,-1,0.0,0.0,0.0,0,0.71,4.6407
278483,1616770645747,,,16,,,-0.28,0.35,0.79,3,16,-18,0.45,0,,,,,,,,,,,,,,,,
278523,1616770645787,,,17,,,-0.2,0.32,0.66,4,25,-22,0.38,0,,,,,,,,,,,,,,,,
278563,1616770645829,,,17,,,-0.28,0.39,0.55,4,15,-14,0.48,0,,,,,,,,,,,,,,,,
278603,1616770645869,,,17,,,-0.2,0.32,0.47,4,7,-9,0.38,0,,,,,,,,,,,,,,,,
278643,1616770645908,,,16,,,-0.14,0.27,0.4,4,2,-5,0.3,0,45.847084,5.178178,35.87,696.5,7,2,2.4,0,0.0,-1,0.0,0.0,0.0,0,0.72,4.6441
278683,1616770645948,,,15,,,-0.12,0.18,-0.06,1,-8,0,0.22,0,,,,,,,,,,,,,,,,
278723,1616770645988,,,15,,,0.02,0.14,-0.07,1,-2,-1,0.14,0,,,,,,,,,,,,,,,,
278763,1616770646022,,,14,,,0.09,0.22,-0.12,0,1,-3,0.24,0,,,,,,,,,,,,,,,,
278803,1616770646062,,,15,,,-0.02,0.29,-0.37,-0,-3,1,0.29,0,,,,,,,,,,,,,,,,
278843,1616770646108,,,14,,,-0.11,0.19,-0.32,-1,8,-4,0.22,0,45.847096,5.178146,32.98,696.3,7,2,3.2,0,0.0,-1,0.0,0.0,0.0,0,0.72,4.6474
278883,1616770646148,,,16,,,0.04,0.15,-0.24,-2,2,-1,0.15,0,,,,,,,,,,,,,,,,
278923,1616770646188,,,16,,,-0.18,0.04,-0.22,-3,1,1,0.19,0,,,,,,,,,,,,,,,,
278963,1616770646228,,,15,,,0.11,0.07,0.2,-3,9,-4,0.13,0,,,,,,,,,,,,,,,,
279003,1616770646268,,,15,,,0.11,-0.02,0.18,-4,-3,1,0.11,0,,,,,,,,,,,,,,,,
279043,1616770646308,302,191,15,0.18,13.36,-0.01,0.05,0.13,-4,1,-2,0.05,0,45.847103,5.178116,29.83,696.3,7,2,3.2,0,0.0,-1,0.0,0.0,0.0,0,0.72,4.6507
279083,1616770646348,,,15,,,0.15,0.09,0.26,-5,-1,-2,0.18,0,,,,,,,,,,,,,,,,
279123,1616770646388,,,15,,,-0.07,0.01,0.19,-5,-2,1,0.07,0,,,,,,,,,,,,,,,,
279163,1616770646428,,,16,,,0.13,0.13,0.53,-5,7,-5,0.18,0,,,,,,,,,,,,,,,,
279203,1616770646468,,,15,,,0.2,0.06,0.45,-6,10,-5,0.2,0,,,,,,,,,,,,,,,,
279243,1616770646510,,,16,,,0.19,-0.13,0.38,-6,8,-4,0.23,0,45.847115,5.178087,30.04,696.3,7,2,3.2,0,0.0,-1,0.0,0.0,0.0,0,0.72,4.654
279283,1616770646550,,,14,,,0.18,-0.09,-0.07,-6,1,1,0.2,0,,,,,,,,,,,,,,,,
279323,1616770646590,,,15,,,0.18,-0.15,-0.08,-5,2,1,0.23,0,,,,,,,,,,,,,,,,
279363,1616770646630,,,14,,,0.26,-0.14,-0.08,-7,-1,-2,0.3,0,,,,,,,,,,,,,,,,
279403,1616770646670,,,15,,,0.29,-0.07,0.06,-7,7,-3,0.3,0,,,,,,,,,,,,,,,,
279443,1616770646710,,,14,,,0.26,-0.08,0.07,-7,12,-5,0.27,0,45.847122,5.178059,28.72,696.4,7,2,3.2,0,0.0,-1,0.0,0.0,0.0,0,0.72,4.6574
279483,1616770646750,,,16,,,-0.11,-0.21,-0.33,-6,9,-3,0.24,0,,,,,,,,,,,,,,,,
279523,1616770646790,,,12,,,0.06,-0.15,-0.65,-5,-6,9,0.16,0,,,,,,,,,,,,,,,,
279563,1616770646830,,,15,,,0.08,-0.06,-0.5,-5,13,-2,0.1,0,,,,,,,,,,,,,,,,
279603,1616770646870,,,16,,,-0.13,-0.03,-0.79,-3,13,-3,0.13,0,,,,,,,,,,,,,,,,
279643,1616770646909,,,16,,,-0.11,0.02,-0.66,-0,13,2,0.11,0,45.847126,5.178031,28.2,696.3,7,2,3.2,0,0.0,-1,0.0,0.0,0.0,0,0.72,4.6607
279683,1616770646949,,,16,,,-0.24,0.14,-0.56,-1,17,-1,0.28,0,,,,,,,,,,,,,,,,
279723,1616770646989,,,16,,,-0.08,0.12,-0.43,-0,5,5,0.14,0,,,,,,,,,,,,,,,,
279763,1616770647025,,,17,,,-0.06,0.16,0.03,1,-2,6,0.17,0,,,,,,,,,,,,,,,,
279803,1616770647065,,,16,,,-0.19,0.1,0.3,2,-2,6,0.21,0,,,,,,,,,,,,,,,,
279843,1616770647109,,,17,,,-0.49,0.11,0.28,3,-4,5,0.5,0,45.847134,5.178005,25.79,696.3,7,2,3.2,0,0.0,-1,0.0,0.0,0.0,0,0.73,4.6641
279883,1616770647149,,,16,,,-0.54,0.1,-0.11,3,-12,6,0.55,0,,,,,,,,,,,,,,,,
279923,1616770647189,,,17,,,-0.69,0.16,0.07,4,-28,5,0.71,0,,,,,,,,,,,,,,,,
279963,1616770647227,,,17,,,-0.82,0.19,0.44,5,-26,5,0.84,0,,,,,,,,,,,,,,,,
280003,1616770647267,,,17,,,-0.65,0.06,0.06,6,-13,5,0.66,0,,,,,,,,,,,,,,,,
280043,1616770647309,265,196,16,0.18,13.55,-0.71,-0.0,0.32,6,-12,4,0.71,0,45.847137,5.177979,24.58,696.4,7,2,3.2,0,0.0,-1,0.0,0.0,0.0,0,0.73,4.6674
280083,1616770647349,,,16,,,-0.68,0.01,0.64,5,11,-0,0.68,0,,,,,,,,,,,,,,,,
280123,1616770647389,,,15,,,-0.42,0.03,0.29,5,28,0,0.42,0,,,,,,,,,,,,,,,,
280163,1616770647429,,,17,,,-0.33,0.06,0.26,4,18,-1,0.33,0,,,,,,,,,,,,,,,,
280203,1616770647469,,,16,,,-0.46,0.01,0.33,4,11,-0,0.46,0,,,,,,,,,,,,,,,,
280243,1616770647507,,,17,,,-0.49,0.01,0.5,3,12,-1,0.49,0,45.847141,5.177957,21.98,696.3,7,2,3.2,0,0.0,-1,0.0,0.0,0.0,0,0.73,4.6707
280283,1616770647547,,,15,,,-0.45,0.02,0.4,2,14,-2,0.45,0,,,,,,,,,,,,,,,,
280323,1616770647587,,,15,,,-0.39,0.05,0.36,2,9,0,0.4,0,,,,,,,,,,,,,,,,
280363,1616770647627,,,17,,,-0.39,0.04,0.16,1,6,1,0.4,0,,,,,,,,,,,,,,,,
280403,1616770647667,,,16,,,-0.3,0.05,0.49,1,7,-1,0.3,0,,,,,,,,,,,,,,,,
280443,1616770647709,,,15,,,-0.26,0.06,0.72,1,5,-1,0.27,0,45.847141,5.177937,18.96,696.5,7,2,3.2,0,0.0,-1,0.0,0.0,0.0,0,0.73,4.674
280483,1616770647749,,,16,,,-0.23,0.04,0.52,0,2,1,0.24,0,,,,,,,,,,,,,,,,
280523,1616770647789,,,15,,,-0.19,0.04,0.66,0,4,-0,0.2,0,,,,,,,,,,,,,,,,
280563,1616770647827,,,15,,,-0.15,0.0,0.52,-0,3,0,0.15,0,,,,,,,,,,,,,,,,
280603,1616770647867,,,16,,,-0.13,-0.01,0.69,-0,1,0,0.13,0,,,,,,,,,,,,,,,,
280643,1616770647908,,,16,,,-0.06,0.01,0.84,-0,2,-0,0.07,0,45.847145,5.177919,16.88,696.6,7,2,3.2,0,0.0,-1,0.0,0.0,0.0,0,0.73,4.6774
280683,1616770647948,,,15,,,-0.06,0.01,0.59,-0,-1,0,0.06,0,,,,,,,,,,,,,,,,
280723,1616770647988,,,15,,,0.02,-0.02,0.79,-1,1,-1,0.03,0,,,,,,,,,,,,,,,,
280763,1616770648024,,,15,,,0.01,-0.01,0.64,-1,1,-0,0.01,0,,,,,,,,,,,,,,,,
280803,1616770648064,,,15,,,0.09,0.03,0.58,-1,2,0,0.09,0,,,,,,,,,,,,,,,,
280843,1616770648108,,,15,,,0.11,0.01,0.33,-1,0,1,0.11,0,45.847149,5.177903,15.27,696.7,7,2,3.2,0,0.0,-1,0.0,0.0,0.0,0,0.73,4.6807
280883,1616770648148,,,15,,,0.17,0.01,0.65,-1,-0,0,0.17,0,,,,,,,,,,,,,,,,
280923,1616770648188,,,16,,,0.12,0.06,0.46,-0,-1,2,0.13,0,,,,,,,,,,,,,,,,
280963,1616770648230,,,15,,,0.07,0.05,0.45,-0,-3,1,0.08,0,,,,,,,,,,,,,,,,
281003,1616770648270,,,15,,,0.17,0.05,0.19,0,-0,1,0.18,0,,,,,,,,,,,,,,,,
281043,1616770648310,302,191,15,0.18,13.58,0.19,0.07,0.03,1,-13,4,0.2,0,45.847153,5.177889,13.99,696.4,7,2,3.2,0,0.0,-1,0.0,0.0,0.0,0,0.73,4.6841
281083,1616770648350,,,16,,,0.24,0.07,-0.07,2,-7,3,0.25,0,,,,,,,,,,,,,,,,
281123,1616770648390,,,15,,,0.41,0.13,0.27,2,-8,2,0.43,0,,,,,,,,,,,,,,,,
281163,1616770648430,,,15,,,0.33,0.07,0.2,3,-8,4,0.34,0,,,,,,,,,,,,,,,,
281203,1616770648470,,,15,,,0.43,0.12,0.54,4,9,-4,0.45,0,,,,,,,,,,,,,,,,
281243,1616770648510,,,16,,,0.34,0.22,0.46,5,4,-0,0.4,0,45.847156,5.177875,13.37,696.1,7,2,3.2,0,0.0,-1,0.0,0.0,0.0,0,0.73,4.6874
281283,1616770648550,,,15,,,0.3,0.17,0.75,6,7,-2,0.34,0,,,,,,,,,,,,,,,,
281323,1616770648590,,,16,,,0.23,0.2,0.52,7,3,-1,0.3,0,,,,,,,,,,,,,,,,
281363,1616770648630,,,16,,,0.23,0.08,0.8,8,6,-4,0.24,0,,,,,,,,,,,,,,,,
281403,1616770648670,,,15,,,0.05,0.0,0.8,9,7,-4,0.05,0,,,,,,,,,,,,,,,,
281443,1616770648710,,,17,,,-0.03,0.01,0.83,10,3,-3,0.04,0,45.847156,5.177861,12.87,695.4,7,2,3.2,0,0.0,-1,0.0,0.0,0.0,0,0.73,4.6907
281483,1616770648750,,,15,,,0.2,-0.02,0.65,11,8,-4,0.2,0,,,,,,,,,,,,,,,,
281523,1616770648790,,,17,,,0.1,0.11,0.51,12,8,-3,0.15,0,,,,,,,,,,,,,,,,
281563,1616770648830,,,17,,,0.17,0.03,0.79,12,7,-3,0.18,0,,,,,,,,,,,,,,,,
281603,1616770648870,,,15,,,0.22,0.02,0.88,13,5,-1,0.22,0,,,,,,,,,,,,,,,,
281643,1616770648909,,,16,,,0.2,0.02,1.03,13,1,-1,0.2,0,45.84716,5.177846,12.54,694.7,7,2,3.2,0,0.0,-1,0.0,0.0,0.0,0,0.73,4.694
281683,1616770648949,,,15,,,0.19,0.02,0.68,13,0,-1,0.19,0,,,,,,,,,,,,,,,,
281723,1616770648989,,,15,,,0.15,0.03,0.65,13,-1,0,0.15,0,,,,,,,,,,,,,,,,
281763,1616770649025,,,15,,,0.1,0.02,0.23,13,2,-1,0.1,0,,,,,,,,,,,,,,,,
281803,1616770649065,,,17,,,0.13,0.01,0.17,13,-2,1,0.13,0,,,,,,,,,,,,,,,,
281843,1616770649109,,,14,,,0.15,0.07,0.52,14,3,-3,0.17,0,45.847164,5.177833,12.7,693.8,7,2,3.2,0,0.0,-1,0.0,0.0,0.0,0,0.74,4.6974
281883,1616770649149,,,16,,,-0.1,0.03,0.04,14,16,-13,0.11,0,,,,,,,,,,,,,,,,
281923,1616770649189,,,15,,,0.17,0.12,0.41,15,27,-17,0.21,0,,,,,,,,,,,,,,,,
281963,1616770649229,,,17,,,0.08,0.17,0.35,15,21,-17,0.19,0,,,,,,,,,,,,,,,,
282003,1616770649269,,,15,,,0.19,0.28,0.3,15,8,-9,0.34,0,,,,,,,,,,,,,,,,
282043,1616770649309,302,191,15,0.18,13.31,-0.13,0.17,0.14,16,16,-11,0.22,0,45.847168,5.177821,12.29,693.1,7,2,3.2,0,0.0,-1,0.0,0.0,0.0,0,0.74,4.7007
282083,1616770649349,,,16,,,-0.47,0.02,-0.26,16,10,-7,0.47,0,,,,,,,,,,,,,,,,
282123,1616770649389,,,16,,,-0.35,0.04,-0.1,16,17,-11,0.36,0,,,,,,,,,,,,,,,,
282163,1616770649429,,,15,,,-0.22,0.08,0.11,17,17,-9,0.23,0,,,,,,,,,,,,,,,,
282203,1616770649469,,,16,,,-0.12,0.15,0.33,17,7,-6,0.19,0,,,,,,,,,,,,,,,,
282243,1616770649509,,,16,,,-0.13,0.11,0.54,17,12,-6,0.17,0,45.847172,5.177809,12.31,692.2,7,2,3.2,0,0.0,-1,0.0,0.0,0.0,0,0.74,4.7041
282283,1616770649549,,,15,,,-0.47,0.12,0.78,17,13,-7,0.48,0,,,,,,,,,,,,,,,,
282323,1616770649589,,,15,,,-0.59,0.17,1.01,16,14,-6,0.61,0,,,,,,,,,,,,,,,,
282363,1616770649629,,,15,,,-0.38,0.17,0.79,15,18,-6,0.42,0,,,,,,,,,,,,,,,,
282403,1616770649669,,,14,,,-0.33,0.18,0.71,14,12,-4,0.37,0,,,,,,,,,,,,,,,,
282443,1616770649709,,,15,,,-0.33,0.17,0.7,13,5,-3,0.37,0,45.847183,5.1778,12.23,692.2,7,2,3.2,0,0.0,-1,0.0,0.0,0.0,0,0.74,4.7074
282483,1616770649749,,,15,,,-0.22,0.1,0.75,11,5,-3,0.24,0,,,,,,,,,,,,,,,,
282523,1616770649789,,,15,,,-0.19,0.0,0.67,9,4,-3,0.19,0,,,,,,,,,,,,,,,,
282563,1616770649829,,,16,,,-0.13,-0.04,0.8,6,3,-2,0.14,0,,,,,,,,,,,,,,,,
282603,1616770649869,,,16,,,-0.09,-0.1,0.79,3,3,-2,0.14,0,,,,,,,,,,,,,,,,
282643,1616770649909,,,15,,,-0.11,-0.15,0.61,-0,1,-1,0.18,0,45.847187,5.177793,12.15,692.1,7,2,3.2,0,0.0,-1,0.0,0.0,0.0,0,0.74,4.7107
282683,1616770649949,,,15,,,-0.08,-0.21,0.79,-3,2,-2,0.22,0,,,,,,,,,,,,,,,,
282723,1616770649989,,,15,,,-0.05,-0.27,0.61,-7,4,-2,0.27,0,,,,,,,,,,,,,,,,
282763,1616770650024,,,15,,,-0.03,-0.29,0.66,-11,2,-2,0.29,0,,,,,,,,,,,,,,,,
282803,1616770650064,,,15,,,-0.04,-0.34,0.77,-15,2,-2,0.34,0,,,,,,,,,,,,,,,,
282843,1616770650108,,,16,,,-0.04,-0.33,0.8,-19,2,-3,0.33,0,45.847195,5.177784,12.02,692.1,7,2,2.4,0,0.0,-1,0.0,0.0,0.0,0,0.74,4.714
282883,1616770650148,,,15,,,0.01,-0.4,0.96,-23,2,-3,0.4,0,,,,,,,,,,,,,,,,
282923,1616770650188,,,15,,,0.0,-0.4,1.01,-27,2,-3,0.4,0,,,,,,,,,,,,,,,,
282963,1616770650228,,,15,,,-0.01,-0.41,1.03,-30,2,-4,0.41,0,,,,,,,,,,,,,,,,
283003,1616770650268,,,15,,,-0.03,-0.4,1.07,-33,0,-3,0.4,0,,,,,,,,,,,,,,,,
283043,1616770650308,302,185,15,0.18,13.49,-0.07,-0.39,1.24,-36,-2,-3,0.4,0,45.847202,5.177775,11.74,692.4,7,2,2.4,0,0.0,-1,0.0,0.0,0.0,0,0.74,4.7174
283083,1616770650348,,,16,,,-0.08,-0.38,1.13,-38,-1,-3,0.39,0,,,,,,,,,,,,,,,,
283123,1616770650388,,,15,,,-0.11,-0.41,1.17,-41,-2,-2,0.42,0,,,,,,,,,,,,,,,,
283163,1616770650428,,,15,,,-0.08,-0.45,0.73,-43,-0,-2,0.45,0,,,,,,,,,,,,,,,,
283203,1616770650468,,,16,,,-0.39,-0.49,0.97,-45,-18,0,0.63,0,,,,,,,,,,,,,,,,
283243,1616770650508,,,15,,,-0.69,-0.59,1.16,-47,-43,2,0.91,0,45.847202,5.177763,11.22,692.7,7,2,2.4,0,0.0,-1,0.0,0.0,0.0,0,0.74,4.7207
283283,1616770650548,,,15,,,-0.53,-0.61,1.32,-49,-46,2,0.81,0,,,,,,,,,,,,,,,,
283323,1616770650588,,,15,,,-0.37,-0.61,1.14,-51,-37,0,0.71,0,,,,,,,,,,,,,,,,
283363,1616770650628,,,16,,,-0.58,-0.64,0.86,-53,-36,1,0.86,0,,,,,,,,,,,,,,,,
283403,1616770650668,,,15,,,-0.66,-0.77,0.65,-55,-26,-1,1.01,0,,,,,,,,,,,,,,,,
283443,1616770650708,,,16,,,-0.55,-0.69,0.54,-58,-17,-5,0.88,0,45.847206,5.177749,10.58,691.8,7,2,2.4,0,0.0,-1,0.0,0.0,0.0,0,0.74,4.7241
283483,1616770650748,,,15,,,-0.48,-0.63,0.06,-60,-30,6,0.8,0,,,,,,,,,,,,,,,,
283523,1616770650788,,,17,,,-0.36,-0.52,0.07,-62,-20,1,0.63,0,,,,,,,,,,,,,,,,
283563,1616770650828,,,16,,,-0.24,-0.57,0.35,-64,-13,-2,0.62,0,,,,,,,,,,,,,,,,
283603,1616770650868,,,15,,,-0.36,-0.68,-0.1,-65,-20,7,0.76,0,,,,,,,,,,,,,,,,
283643,1616770650909,,,16,,,-0.32,-0.58,-0.2,-65,-17,7,0.66,0,45.847206,5.177737,10.35,691.5,7,2,2.4,0,0.0,-1,0.0,0.0,0.0,0,0.74,4.7274
283683,1616770650949,,,16,,,-0.15,-0.39,0.22,-66,-3,-3,0.42,0,,,,,,,,,,,,,,,,
283723,1616770650989,,,15,,,0.01,-0.24,0.56,-66,6,-8,0.24,0,,,,,,,,,,,,,,,,
283763,1616770651023,,,15,,,0.04,-0.23,0.43,-67,5,-5,0.23,0,,,,,,,,,,,,,,,,
283803,1616770651063,,,14,,,-0.03,-0.24,0.18,-67,-18,8,0.24,0,,,,,,,,,,,,,,,,
283843,1616770651107,,,14,,,-0.28,-0.45,0.04,-68,-4,-4,0.53,0,45.847202,5.177726,10.12,691.1,7,2,2.4,0,0.0,-1,0.0,0.0,0.0,0,0.74,4.7307
283883,1616770651147,,,15,,,-0.07,-0.21,0.41,-68,-2,-4,0.22,0,,,,,,,,,,,,,,,,
283923,1616770651187,,,16,,,-0.27,-0.39,-0.05,-69,-9,3,0.47,0,,,,,,,,,,,,,,,,
283963,1616770651229,,,16,,,-0.16,-0.34,0.34,-69,8,-7,0.38,0,,,,,,,,,,,,,,,,
284003,1616770651269,,,15,,,-0.16,-0.4,0.0,-69,-7,5,0.43,0,,,,,,,,,,,,,,,,
284043,1616770651307,302,186,15,0.18,13.55,-0.11,-0.36,0.02,-69,10,-7,0.38,0,45.847206,5.177714,9.9,691.1,7,2,2.4,0,0.0,-1,0.0,0.0,0.0,0,0.74,4.734
284083,1616770651347,,,15,,,-0.05,-0.47,-0.0,-69,-8,5,0.48,0,,,,,,,,,,,,,,,,
284123,1616770651387,,,15,,,-0.23,-0.64,0.02,-69,4,-7,0.68,0,,,,,,,,,,,,,,,,
284163,1616770651427,,,16,,,-0.11,-0.5,0.39,-68,17,-18,0.51,0,,,,,,,,,,,,,,,,
284203,1616770651467,,,16,,,-0.12,-0.63,0.23,-68,16,-17,0.64,0,,,,,,,,,,,,,,,,
284243,1616770651507,,,16,,,-0.08,-0.47,0.56,-68,12,-13,0.47,0,45.847202,5.177705,8.8,691.3,7,2,2.4,0,0.0,-1,0.0,0.0,0.0,0,0.74,4.7374
284283,1616770651547,,,15,,,0.16,-0.42,0.72,-68,18,-13,0.45,0,,,,,,,,,,,,,,,,
284323,1616770651587,,,16,,,0.36,-0.45,0.75,-68,19,-13,0.58,0,,,,,,,,,,,,,,,,
284363,1616770651627,,,16,,,0.39,-0.49,0.77,-67,17,-11,0.62,0,,,,,,,,,,,,,,,,
284403,1616770651667,,,14,,,0.34,-0.53,1.0,-67,12,-8,0.63,0,,,,,,,,,,,,,,,,
284443,1616770651707,,,15,,,0.27,-0.52,0.81,-67,12,-5,0.58,0,45.847202,5.177698,8.91,691.4,7,2,2.4,0,0.0,-1,0.0,0.0,0.0,0,0.74,4.7407
284483,1616770651747,,,16,,,0.31,-0.46,0.62,-67,11,-7,0.55,0,,,,,,,,,,,,,,,,
284523,1616770651787,,,16,,,0.27,-0.52,0.88,-67,11,-9,0.58,0,,,,,,,,,,,,,,,,
284563,1616770651829,,,15,,,0.18,-0.47,1.09,-67,11,-10,0.5,0,,,,,,,,,,,,,,,,
284603,1616770651869,,,15,,,0.09,-0.43,1.12,-67,9,-9,0.44,0,,,,,,,,,,,,,,,,
284643,1616770651907,,,16,,,0.1,-0.36,1.29,-67,9,-12,0.37,0,45.847195,5.177692,7.84,690.8,7,2,2.4,0,0.0,-1,0.0,0.0,0.0,0,0.74,4.7441
284683,1616770651947,,,15,,,0.05,-0.51,1.27,-67,7,-11,0.52,0,,,,,,,,,,,,,,,,
284723,1616770651987,,,16,,,-0.03,-0.44,1.05,-67,2,-8,0.44,0,,,,,,,,,,,,,,,,
284763,1616770652022,,,15,,,-0.09,-0.48,1.04,-67,4,-8,0.49,0,,,,,,,,,,,,,,,,
284803,1616770652062,,,16,,,0.11,-0.36,1.22,-65,5,-8,0.38,0,,,,,,,,,,,,,,,,
284843,1616770652108,,,15,,,0.18,-0.05,1.37,-65,3,-7,0.18,0,45.847191,5.177688,6.76,691.2,7,2,2.4,0,0.0,-1,0.0,0.0,0.0,0,0.74,4.7474
284883,1616770652148,,,15,,,0.11,-0.26,1.49,-65,9,-5,0.29,0,,,,,,,,,,,,,,,,
284923,1616770652188,,,15,,,0.1,-0.29,1.5,-65,3,-6,0.31,0,,,,,,,,,,,,,,,,
284963,1616770652228,,,15,,,0.05,-0.32,1.31,-64,7,-4,0.32,0,,,,,,,,,,,,,,,,
285003,1616770652268,,,15,,,0.02,-0.35,1.27,-64,2,-6,0.35,0,,,,,,,,,,,,,,,,
285043,1616770652306,302,188,16,0.18,13.42,0.07,-0.3,0.91,-63,2,-8,0.31,0,45.847187,5.177685,5.94,691.2,7,2,2.4,0,0.0,-1,0.0,0.0,0.0,0,0.74,4.7507
285083,1616770652346,,,14,,,-0.06,-0.28,0.82,-62,2,-5,0.28,0,,,,,,,,,,,,,,,,
285123,1616770652386,,,15,,,0.04,-0.21,0.84,-62,2,-4,0.21,0,,,,,,,,,,,,,,,,
285163,1616770652428,,,14,,,0.07,-0.29,0.63,-61,1,-3,0.3,0,,,,,,,,,,,,,,,,
285203,1616770652468,,,15,,,0.11,-0.44,0.7,-61,-3,-2,0.45,0,,,,,,,,,,,,,,,,
285243,1616770652508,,,15,,,0.07,-0.45,0.18,-62,-5,2,0.45,0,45.847183,5.177686,5.24,691.0,7,2,2.4,0,0.0,-1,0.0,0.0,0.0,0,0.74,4.7541
285283,1616770652548,,,15,,,0.14,-0.51,0.17,-62,-4,-1,0.53,0,,,,,,,,,,,,,,,,
285323,1616770652588,,,15,,,0.11,-0.6,0.16,-64,-3,-1,0.61,0,,,,,,,,,,,,,,,,
285363,1616770652628,,,14,,,0.32,-0.62,0.5,-66,6,-7,0.69,0,,,,,,,,,,,,,,,,
285403,1616770652668,,,15,,,0.5,-0.69,0.66,-67,19,-10,0.86,0,,,,,,,,,,,,,,,,
285443,1616770652708,,,15,,,0.5,-0.65,0.7,-66,32,-10,0.82,0,45.847179,5.17769,6.49,691.1,7,2,2.4,0,0.0,-1,0.0,0.0,0.0,0,0.75,4.7574
285483,1616770652748,,,16,,,0.5,-0.59,0.49,-64,34,-8,0.77,0,,,,,,,,,,,,,,,,
285523,1616770652788,,,15,,,0.45,-0.52,0.49,-61,27,-7,0.68,0,,,,,,,,,,,,,,,,
285563,1616770652828,,,15,,,0.29,-0.43,0.75,-56,18,-5,0.52,0,,,,,,,,,,,,,,,,
285603,1616770652868,,,15,,,0.39,-0.41,0.37,-51,22,-5,0.57,0,,,,,,,,,,,,,,,,
285643,1616770652907,,,15,,,0.17,-0.43,0.43,-47,-2,-3,0.46,0,45.847168,5.177695,8.62,691.0,7,2,2.4,0,0.0,-1,0.0,0.0,0.0,0,0.75,4.7607
285683,1616770652947,,,15,,,0.12,-0.43,0.33,-43,-4,-1,0.44,0,,,,,,,,,,,,,,,,
285723,1616770652987,,,15,,,0.21,-0.4,0.64,-39,-0,-2,0.45,0,,,,,,,,,,,,,,,,
285763,1616770653023,,,15,,,0.51,-0.35,0.14,-36,13,-1,0.62,0,,,,,,,,,,,,,,,,
285803,1616770653063,,,15,,,0.38,-0.37,0.09,-34,-1,-0,0.53,0,,,,,,,,,,,,,,,,
285843,1616770653107,,,15,,,0.2,-0.31,0.45,-31,-16,-1,0.37,0,45.84716,5.177704,10.08,691.7,7,2,2.4,0,0.0,-1,0.0,0.0,0.0,0,0.75,4.764
285883,1616770653147,,,17,,,0.35,-0.28,0.05,-29,-1,-0,0.45,0,,,,,,,,,,,,,,,,
285923,1616770653187,,,16,,,0.3,-0.25,-0.25,-26,-18,0,0.39,0,,,,,,,,,,,,,,,,
285963,1616770653227,,,15,,,-0.11,-0.24,0.18,-24,-36,1,0.27,0,,,,,,,,,,,,,,,,
286003,1616770653267,,,16,,,-0.46,-0.25,0.52,-22,-43,0,0.53,0,,,,,,,,,,,,,,,,
286043,1616770653307,302,192,15,0.18,13.34,-0.75,-0.3,0.8,-21,-37,-1,0.81,0,45.847156,5.177714,12.63,691.9,7,2,2.4,0,0.0,-1,0.0,0.0,0.0,0,0.75,4.7674
286083,1616770653347,,,16,,,-0.98,-0.23,1.03,-19,-44,-1,1.0,0,,,,,,,,,,,,,,,,
286123,1616770653387,,,16,,,-1.14,-0.18,1.21,-17,-67,2,1.15,0,,,,,,,,,,,,,,,,
286163,1616770653427,,,15,,,-0.7,-0.12,0.6,-16,-83,3,0.71,0,,,,,,,,,,,,,,,,
286203,1616770653467,,,16,,,-0.18,-0.08,0.1,-14,-70,4,0.2,0,,,,,,,,,,,,,,,,
286243,1616770653509,,,16,,,0.03,-0.12,-0.04,-13,-36,0,0.12,0,45.847145,5.177728,13.82,692.5,7,2,2.4,0,0.0,-1,0.0,0.0,0.0,0,0.75,4.7707
286283,1616770653549,,,16,,,-0.03,-0.08,0.16,-11,-27,-0,0.09,0,,,,,,,,,,,,,,,,
286323,1616770653589,,,16,,,-0.03,-0.13,0.21,-10,-18,-1,0.14,0,,,,,,,,,,,,,,,,
286363,1616770653629,,,16,,,0.14,-0.17,0.05,-9,-14,-1,0.22,0,,,,,,,,,,,,,,,,
286403,1616770653669,,,15,,,0.18,-0.15,-0.2,-8,-15,1,0.23,0,,,,,,,,,,,,,,,,
286443,1616770653709,,,15,,,0.17,-0.05,0.13,-7,-11,-1,0.18,0,45.847137,5.177742,14.91,693.4,7,2,2.4,0,0.0,-1,0.0,0.0,0.0,0,0.75,4.774
286483,1616770653749,,,15,,,0.14,-0.03,0.49,-5,-8,-3,0.14,0,,,,,,,,,,,,,,,,
286523,1616770653789,,,16,,,0.19,0.04,0.37,-3,-11,-1,0.19,0,,,,,,,,,,,,,,,,
286563,1616770653829,,,16,,,0.27,0.02,0.63,-1,1,-4,0.27,0,,,,,,,,,,,,,,,,
286603,1616770653869,,,15,,,0.5,0.14,0.83,0,-8,-0,0.52,0,,,,,,,,,,,,,,,,
286643,1616770653909,,,16,,,0.34,0.01,0.29,1,-17,6,0.34,0,45.84713,5.177761,17.07,694.8,7,2,2.4,0,0.0,-1,0.0,0.0,0.0,0,0.75,4.7774
286683,1616770653949,,,15,,,0.29,0.04,0.56,2,2,-4,0.29,0,,,,,,,,,,,,,,,,
286723,1616770653989,,,15,,,0.55,0.2,0.83,3,1,-3,0.58,0,,,,,,,,,,,,,,,,
286763,1616770654024,,,16,,,0.33,0.09,0.3,4,-21,7,0.34,0,,,,,,,,,,,,,,,,
286803,1616770654064,,,15,,,0.33,0.0,-0.14,4,-27,12,0.33,0,,,,,,,,,,,,,,,,
286843,1616770654104,,,15,,,0.47,0.06,-0.45,5,-26,13,0.47,0,45.847118,5.177781,19.36,696.1,7,2,2.4,0,0.0,-1,0.0,0.0,0.0,0,0.75,4.7807
286883,1616770654144,,,16,,,0.14,-0.08,-0.75,6,-26,14,0.16,0,,,,,,,,,,,,,,,,
286923,1616770654184,,,15,,,0.26,-0.03,-0.29,7,-23,12,0.26,0,,,,,,,,,,,,,,,,
286963,1616770654228,,,16,,,-0.04,-0.02,-0.48,7,-25,13,0.05,0,,,,,,,,,,,,,,,,
287003,1616770654268,,,16,,,-0.4,-0.05,-0.77,8,-21,11,0.41,0,,,,,,,,,,,,,,,,
287043,1616770654308,302,187,16,0.18,13.47,-0.41,0.17,-0.39,8,-19,8,0.45,0,45.847107,5.177803,20.82,697.4,7,2,2.4,0,0.0,-1,0.0,0.0,0.0,0,0.75,4.784
287083,1616770654348,,,15,,,-0.25,0.23,-0.11,9,-14,6,0.34,0,,,,,,,,,,,,,,,,
287123,1616770654388,,,16,,,-0.05,0.14,-0.07,9,-12,6,0.15,0,,,,,,,,,,,,,,,,
287163,1616770654428,,,16,,,0.01,0.11,0.32,10,-3,2,0.11,0,,,,,,,,,,,,,,,,
287203,1616770654468,,,16,,,0.06,0.05,0.64,9,10,-5,0.08,0,,,,,,,,,,,,,,,,
287243,1616770654508,,,14,,,0.44,0.13,0.9,9,19,-9,0.46,0,45.847099,5.177824,21.67,698.1,7,2,2.4,0,0.0,-1,0.0,0.0,0.0,0,0.75,4.7874
287283,1616770654548,,,16,,,0.39,0.1,0.63,8,4,0,0.4,0,,,,,,,,,,,,,,,,
287323,1616770654588,,,16,,,0.39,0.1,0.75,8,2,1,0.4,0,,,,,,,,,,,,,,,,
287363,1616770654628,,,16,,,0.37,0.14,0.63,7,3,2,0.4,0,,,,,,,,,,,,,,,,
287403,1616770654668,,,15,,,0.4,0.09,0.53,7,4,-3,0.41,0,,,,,,,,,,,,,,,,
287443,1616770654708,,,15,,,0.33,0.02,0.22,7,-5,2,0.33,0,45.847084,5.177846,22.09,696.5,7,2,2.4,0,0.0,-1,0.0,0.0,0.0,0,0.75,4.7907
287483,1616770654748,,,14,,,0.38,0.16,0.56,6,0,-0,0.41,0,,,,,,,,,,,,,,,,
287523,1616770654788,,,14,,,0.29,-0.05,0.83,5,6,-3,0.29,0,,,,,,,,,,,,,,,,
287563,1616770654828,,,15,,,0.29,-0.01,0.69,4,4,-2,0.29,0,,,,,,,,,,,,,,,,
287603,1616770654868,,,15,,,0.3,-0.08,0.87,3,3,-1,0.31,0,,,,,,,,,,,,,,,,
287643,1616770654909,,,14,,,0.31,-0.07,0.69,3,2,-1,0.31,0,45.847073,5.177869,23.01,696.5,7,2,2.4,0,0.0,-1,0.0,0.0,0.0,0,0.75,4.7941
287683,1616770654949,,,15,,,0.22,-0.04,0.53,2,2,-2,0.22,0,,,,,,,,,,,,,,,,
287723,1616770654989,,,15,,,0.28,-0.07,0.52,2,4,-3,0.29,0,,,,,,,,,,,,,,,,
287763,1616770655023,,,16,,,0.37,-0.04,0.63,1,3,-3,0.37,0,,,,,,,,,,,,,,,,
287803,1616770655063,,,15,,,0.2,-0.06,0.25,1,-2,2,0.21,0,,,,,,,,,,,,,,,,
287843,1616770655109,,,15,,,0.13,0.02,0.18,1,-3,2,0.13,0,45.847061,5.177892,23.43,696.5,7,2,2.4,0,0.0,-1,0.0,0.0,0.0,0,0.76,4.7974
287883,1616770655149,,,15,,,0.09,0.03,0.13,2,-3,2,0.09,0,,,,,,,,,,,,,,,,
287923,1616770655189,,,15,,,0.11,0.07,0.08,3,-3,0,0.13,0,,,,,,,,,,,,,,,,
287963,1616770655229,,,15,,,0.12,0.09,0.05,4,-0,-0,0.15,0,,,,,,,,,,,,,,,,
288003,1616770655269,,,15,,,0.22,0.14,0.38,5,6,-3,0.26,0,,,,,,,,,,,,,,,,
288043,1616770655309,302,190,16,0.18,13.33,0.37,0.16,0.69,6,4,-3,0.41,0,45.847046,5.177915,23.79,696.7,7,2,2.4,0,0.0,-1,0.0,0.0,0.0,0,0.76,4.8007
288083,1616770655349,,,15,,,0.36,0.19,0.58,7,-0,0,0.4,0,,,,,,,,,,,,,,,,
288123,1616770655389,,,15,,,0.31,0.17,0.49,7,-6,4,0.35,0,,,,,,,,,,,,,,,,
288163,1616770655427,,,15,,,0.29,0.19,0.23,8,-8,5,0.35,0,,,,,,,,,,,,,,,,
288203,1616770655467,,,15,,,0.31,0.2,-0.14,8,-11,5,0.37,0,,,,,,,,,,,,,,,,
288243,1616770655509,,,14,,,0.29,0.17,0.03,8,-9,5,0.34,0,45.847034,5.177937,23.84,696.8,7,2,2.4,0,0.0,-1,0.0,0.0,0.0,0,0.76,4.804
288283,1616770655549,,,15,,,0.28,0.15,0.01,8,-11,6,0.31,0,,,,,,,,,,,,,,,,
288323,1616770655589,,,15,,,0.24,0.16,-0.02,8,-9,4,0.29,0,,,,,,,,,,,,,,,,
288363,1616770655629,,,15,,,0.15,0.18,-0.03,8,-7,4,0.24,0,,,,,,,,,,,,,,,,
288403,1616770655669,,,15,,,0.14,0.23,-0.05,8,-6,3,0.27,0,,,,,,,,,,,,,,,,
288443,1616770655709,,,15,,,0.12,0.17,-0.06,8,-3,3,0.21,0,45.847019,5.177957,23.98,696.4,7,2,3.2,0,0.0,-1,0.0,0.0,0.0,0,0.76,4.8074
288483,1616770655749,,,14,,,0.09,0.15,-0.07,8,-2,3,0.17,0,,,,,,,,,,,,,,,,
288523,1616770655789,,,15,,,0.07,0.14,-0.08,9,-6,4,0.15,0,,,,,,,,,,,,,,,,
288563,1616770655829,,,15,,,0.07,0.15,-0.08,9,-3,3,0.17,0,,,,,,,,,,,,,,,,
288603,1616770655869,,,15,,,0.02,0.14,-0.09,9,-3,1,0.14,0,,,,,,,,,,,,,,,,
288643,1616770655908,,,15,,,0.05,0.17,-0.09,9,-8,4,0.18,0,45.847004,5.177977,24.25,695.2,7,2,2.4,0,0.0,-1,0.0,0.0,0.0,0,0.76,4.8107
288683,1616770655948,,,15,,,0.23,0.25,-0.1,11,3,1,0.34,0,,,,,,,,,,,,,,,,
288723,1616770655988,,,15,,,0.21,0.23,-0.06,10,9,-3,0.31,0,,,,,,,,,,,,,,,,
288763,1616770656024,,,15,,,0.22,0.24,-0.03,9,6,-1,0.32,0,,,,,,,,,,,,,,,,
288803,1616770656064,,,15,,,0.2,0.13,-0.0,9,5,-1,0.24,0,,,,,,,,,,,,,,,,
288843,1616770656108,,,15,,,0.19,0.2,0.02,8,6,-2,0.28,0,45.846985,5.177998,24.47,695.0,7,2,2.4,0,0.0,-1,0.0,0.0,0.0,0,0.76,4.8141
288883,1616770656148,,,16,,,0.15,0.23,0.03,8,5,-2,0.27,0,,,,,,,,,,,,,,,,
288923,1616770656188,,,15,,,0.02,0.22,0.05,7,3,-3,0.22,0,,,,,,,,,,,,,,,,
288963,1616770656228,,,15,,,-0.01,0.26,0.02,7,-2,-1,0.26,0,,,,,,,,,,,,,,,,
289003,1616770656268,,,15,,,-0.02,0.28,-0.01,6,4,-1,0.28,0,,,,,,,,,,,,,,,,
289043,1616770656308,302,193,14,0.18,12.99,-0.01,0.29,-0.03,6,3,-0,0.29,0,45.84697,5.178017,24.72,695.0,7,2,2.4,0,0.0,-1,0.0,0.0,0.0,0,0.76,4.8174
289083,1616770656348,,,15,,,-0.01,0.31,-0.04,6,-3,3,0.31,0,,,,,,,,,,,,,,,,
289123,1616770656388,,,15,,,0.13,0.38,-0.06,7,2,2,0.4,0,,,,,,,,,,,,,,,,
289163,1616770656428,,,16,,,0.15,0.38,-0.03,7,3,0,0.41,0,,,,,,,,,,,,,,,,
289203,1616770656468,,,16,,,0.15,0.29,-0.0,7,10,-3,0.33,0,,,,,,,,,,,,,,,,
289243,1616770656508,,,16,,,0.01,0.26,0.02,7,8,-3,0.26,0,45.846954,5.178039,24.89,694.5,7,2,2.4,0,0.0,-1,0.0,0.0,0.0,0,0.77,4.8207
289283,1616770656548,,,16,,,-0.13,0.24,-0.37,9,-3,2,0.27,0,,,,,,,,,,,,,,,,
289323,1616770656588,,,15,,,-0.08,0.26,-0.32,8,-9,6,0.27,0,,,,,,,,,,,,,,,,
289363,1616770656628,,,15,,,0.12,0.28,-0.05,9,-0,-0,0.31,0,,,,,,,,,,,,,,,,
289403,1616770656668,,,15,,,0.13,0.26,-0.02,9,-1,-2,0.29,0,,,,,,,,,,,,,,,,
289443,1616770656708,,,16,,,-0.1,0.27,-0.0,8,-8,2,0.29,0,45.846939,5.178061,24.75,694.6,7,2,2.4,0,0.0,-1,0.0,0.0,0.0,0,0.77,4.824
289483,1616770656748,,,15,,,-0.09,0.26,-0.02,8,-23,10,0.27,0,,,,,,,,,,,,,,,,
289523,1616770656788,,,15,,,0.1,0.33,0.36,8,-5,1,0.34,0,,,,,,,,,,,,,,,,
289563,1616770656830,,,15,,,-0.11,0.28,0.31,8,-10,3,0.3,0,,,,,,,,,,,,,,,,
289603,1616770656870,,,13,,,-0.1,0.27,0.23,8,-20,10,0.29,0,,,,,,,,,,,,,,,,
289643,1616770656908,,,16,,,0.25,0.32,0.47,8,0,-0,0.41,0,45.846924,5.17808,24.44,694.2,7,2,2.4,0,0.0,-1,0.0,0.0,0.0,0,0.77,4.8274
289683,1616770656948,,,15,,,0.02,0.25,0.32,8,-8,6,0.25,0,,,,,,,,,,,,,,,,
289723,1616770656988,,,15,,,0.27,0.16,0.24,9,4,1,0.31,0,,,,,,,,,,,,,,,,
289763,1616770657023,,,15,,,0.19,0.14,0.21,9,8,-4,0.24,0,,,,,,,,,,,,,,,,
289803,1616770657063,,,15,,,0.06,0.23,0.1,9,-6,6,0.24,0,,,,,,,,,,,,,,,,
289843,1616770657109,,,16,,,0.23,0.21,0.46,9,14,-5,0.31,0,45.846905,5.178099,24.98,694.5,7,2,2.4,0,0.0,-1,0.0,0.0,0.0,0,0.77,4.8307
289883,1616770657149,,,13,,,-0.08,0.2,-0.01,9,-13,8,0.21,0,,,,,,,,,,,,,,,,
289923,1616770657189,,,16,,,0.21,0.28,0.37,9,10,-7,0.35,0,,,,,,,,,,,,,,,,
289963,1616770657229,,,16,,,0.03,0.34,-0.08,9,-14,5,0.34,0,,,,,,,,,,,,,,,,
290003,1616770657269,,,16,,,0.03,0.3,-0.04,8,-4,-1,0.3,0,,,,,,,,,,,,,,,,
290043,1616770657309,302,189,15,0.19,13.33,0.34,0.37,0.34,8,13,-10,0.5,0,45.846886,5.178116,25.27,694.1,7,2,2.4,0,0.0,-1,0.0,0.0,0.0,0,0.77,4.8341
290083,1616770657349,,,14,,,0.25,0.36,-0.1,9,-4,1,0.44,0,,,,,,,,,,,,,,,,
290123,1616770657389,,,14,,,-0.14,0.24,-0.46,8,-31,15,0.28,0,,,,,,,,,,,,,,,,
290163,1616770657429,,,16,,,-0.42,0.25,-0.76,8,-27,13,0.49,0,,,,,,,,,,,,,,,,
290203,1616770657469,,,16,,,-0.57,0.17,-0.99,8,-15,8,0.6,0,,,,,,,,,,,,,,,,
290243,1616770657509,,,15,,,-0.55,0.12,-1.19,8,-21,10,0.57,0,45.846867,5.178132,25.64,694.0,7,2,2.4,0,0.0,-1,0.0,0.0,0.0,0,0.77,4.8374
290283,1616770657549,,,17,,,-0.3,0.2,-0.94,8,-33,19,0.36,0,,,,,,,,,,,,,,,,
290323,1616770657589,,,17,,,-0.5,0.16,-1.14,8,-19,12,0.53,0,,,,,,,,,,,,,,,,
290363,1616770657629,,,16,,,-0.36,0.13,-0.95,8,-18,10,0.39,0,,,,,,,,,,,,,,,,
290403,1616770657669,,,17,,,-0.31,0.07,-0.59,8,-11,6,0.32,0,,,,,,,,,,,,,,,,
290443,1616770657709,,,16,,,-0.22,0.07,-0.33,8,-6,3,0.23,0,45.846851,5.178148,26.39,693.8,7,2,2.4,0,0.0,-1,0.0,0.0,0.0,0,0.77,4.8407
290483,1616770657749,,,16,,,-0.01,0.07,-0.12,8,-2,2,0.07,0,,,,,,,,,,,,,,,,
290523,1616770657789,,,17,,,-0.21,0.06,-0.26,8,-6,4,0.22,0,,,,,,,,,,,,,,,,
290563,1616770657829,,,16,,,-0.1,0.13,0.01,8,8,-1,0.16,0,,,,,,,,,,,,,,,,
290603,1616770657869,,,16,,,0.06,0.14,0.24,7,0,1,0.15,0,,,,,,,,,,,,,,,,
290643,1616770657909,,,17,,,0.06,0.1,0.41,7,3,-0,0.11,0,45.846832,5.178165,26.66,694.4,7,2,2.4,0,0.0,-1,0.0,0.0,0.0,0,0.78,4.844
290683,1616770657949,,,16,,,-0.01,0.08,0.31,7,-4,3,0.09,0,,,,,,,,,,,,,,,,
290723,1616770657989,,,16,,,-0.16,0.02,0.27,6,1,0,0.16,0,,,,,,,,,,,,,,,,
290763,1616770658022,,,15,,,0.24,0.13,0.6,6,7,-1,0.27,0,,,,,,,,,,,,,,,,
290803,1616770658062,,,16,,,0.09,0.01,0.25,6,-2,3,0.09,0,,,,,,,,,,,,,,,,
290843,1616770658106,,,15,,,0.28,0.07,0.58,6,2,-1,0.29,0,45.846813,5.178182,25.83,694.1,7,2,2.4,0,0.0,-1,0.0,0.0,0.0,0,0.78,4.8474
290883,1616770658146,,,16,,,0.25,0.1,0.45,6,-6,4,0.27,0,,,,,,,,,,,,,,,,
290923,1616770658186,,,16,,,-0.16,-0.02,-0.02,5,-9,3,0.16,0,,,,,,,,,,,,,,,,
290963,1616770658226,,,16,,,0.0,0.08,0.35,5,3,-2,0.08,0,,,,,,,,,,,,,,,,
291003,1616770658266,,,16,,,-0.14,-0.04,0.27,5,-3,1,0.14,0,,,,,,,,,,,,,,,,
291043,1616770658308,302,192,16,0.18,13.33,-0.24,-0.08,0.24,5,7,-5,0.25,0,45.846798,5.178198,26.77,694.6,7,2,2.4,0,0.0,-1,0.0,0.0,0.0,0,0.78,4.8507
291083,1616770658348,,,16,,,0.18,0.02,0.57,5,20,-8,0.18,0,,,,,,,,,,,,,,,,
291123,1616770658388,,,16,,,0.27,0.03,0.55,5,5,-2,0.27,0,,,,,,,,,,,,,,,,
291163,1616770658428,,,16,,,0.12,-0.03,0.46,5,9,-3,0.12,0,,,,,,,,,,,,,,,,
291203,1616770658468,,,15,,,0.48,0.09,0.75,4,12,-4,0.49,0,,,,,,,,,,,,,,,,
291243,1616770658508,,,16,,,0.38,0.02,0.44,4,-7,3,0.38,0,45.846775,5.178215,27.47,695.9,7,2,2.4,0,0.0,-1,0.0,0.0,0.0,0,0.78,4.8541
291283,1616770658548,,,16,,,-0.05,-0.06,-0.02,3,-18,6,0.08,0,,,,,,,,,,,,,,,,
291323,1616770658588,,,16,,,0.17,-0.02,0.33,3,-4,1,0.18,0,,,,,,,,,,,,,,,,
291363,1616770658628,,,15,,,0.17,-0.07,0.24,2,-12,5,0.18,0,,,,,,,,,,,,,,,,
291403,1616770658668,,,16,,,-0.24,-0.03,-0.18,2,-18,7,0.24,0,,,,,,,,,,,,,,,,
291443,1616770658710,,,16,,,-0.14,0.05,0.07,2,0,-1,0.15,0,45.846756,5.17823,28.14,695.3,7,2,2.4,0,0.0,-1,0.0,0.0,0.0,0,0.78,4.8574
291483,1616770658750,,,16,,,0.03,0.15,0.43,2,4,-3,0.15,0,,,,,,,,,,,,,,,,
291523,1616770658790,,,15,,,0.04,0.09,0.36,2,5,-2,0.09,0,,,,,,,,,,,,,,,,
291563,1616770658830,,,16,,,-0.04,0.12,0.21,2,0,1,0.12,0,,,,,,,,,,,,,,,,
291603,1616770658870,,,16,,,0.14,0.12,0.5,2,6,-2,0.18,0,,,,,,,,,,,,,,,,
291643,1616770658910,,,16,,,0.15,0.12,0.47,3,-1,0,0.19,0,45.846733,5.178244,28.44,694.8,7,2,2.4,0,0.0,-1,0.0,0.0,0.0,0,0.78,4.8607
291683,1616770658950,,,16,,,-0.24,0.17,-0.0,3,-15,4,0.3,0,,,,,,,,,,,,,,,,
291723,1616770658990,,,17,,,-0.35,0.12,0.09,4,-5,0,0.37,0,,,,,,,,,,,,,,,,
291763,1616770659023,,,16,,,0.11,0.16,0.46,4,14,-5,0.2,0,,,,,,,,,,,,,,,,
291803,1616770659063,,,16,,,0.09,0.15,0.35,4,4,-1,0.17,0,,,,,,,,,,,,,,,,
291843,1616770659109,,,17,,,0.03,0.18,0.27,5,3,-1,0.18,0,45.846714,5.178258,28.25,695.1,7,2,3.2,0,0.0,-1,0.0,0.0,0.0,0,0.78,4.864
291883,1616770659149,,,15,,,-0.03,0.21,0.46,5,3,-2,0.21,0,,,,,,,,,,,,,,,,
291923,1616770659189,,,17,,,0.14,0.14,0.75,6,5,-2,0.2,0,,,,,,,,,,,,,,,,
291963,1616770659229,,,17,,,0.02,0.13,0.57,6,5,-2,0.13,0,,,,,,,,,,,,,,,,
292003,1616770659269,,,15,,,-0.06,0.18,0.47,6,0,-0,0.19,0,,,,,,,,,,,,,,,,
292043,1616770659309,302,191,16,0.18,13.33,0.05,0.17,0.59,7,7,-3,0.18,0,45.846691,5.178271,27.95,695.3,7,2,3.2,0,0.0,-1,0.0,0.0,0.0,0,0.79,4.8674
292083,1616770659349,,,16,,,0.36,0.22,0.86,7,12,-5,0.42,0,,,,,,,,,,,,,,,,
292123,1616770659389,,,16,,,0.45,0.15,0.41,7,3,0,0.47,0,,,,,,,,,,,,,,,,
292163,1616770659429,,,16,,,0.55,0.15,0.15,7,-5,3,0.57,0,,,,,,,,,,,,,,,,
292203,1616770659469,,,16,,,0.37,0.08,0.03,7,-9,5,0.37,0,,,,,,,,,,,,,,,,
292243,1616770659509,,,15,,,0.31,0.04,0.37,7,-11,5,0.31,0,45.846672,5.178284,27.9,695.4,7,2,3.2,0,0.0,-1,0.0,0.0,0.0,0,0.79,4.8707
292283,1616770659549,,,16,,,0.4,0.01,0.68,6,-2,-0,0.4,0,,,,,,,,,,,,,,,,
292323,1616770659589,,,14,,,0.67,0.1,0.93,5,-13,6,0.68,0,,,,,,,,,,,,,,,,
292363,1616770659629,,,16,,,0.76,0.19,1.13,5,-22,10,0.79,0,,,,,,,,,,,,,,,,
292403,1616770659669,,,16,,,0.48,0.17,0.7,4,-25,11,0.51,0,,,,,,,,,,,,,,,,
292443,1616770659711,,,16,,,0.32,0.11,0.53,4,-28,12,0.34,0,45.846649,5.178297,27.75,695.4,7,2,3.2,0,0.0,-1,0.0,0.0,0.0,0,0.79,4.8741
292483,1616770659751,,,16,,,0.34,0.12,0.73,3,-22,9,0.36,0,,,,,,,,,,,,,,,,
292523,1616770659791,,,16,,,0.32,0.03,0.88,3,-14,8,0.32,0,,,,,,,,,,,,,,,,
292563,1616770659831,,,17,,,0.08,-0.07,0.49,2,-5,5,0.11,0,,,,,,,,,,,,,,,,
292603,1616770659871,,,16,,,0.3,0.01,0.78,2,10,-3,0.3,0,,,,,,,,,,,,,,,,
292643,1616770659910,,,16,,,0.48,0.03,1.01,2,20,-8,0.49,0,45.846626,5.178309,28.15,695.2,7,2,3.2,0,0.0,-1,0.0,0.0,0.0,0,0.79,4.8774
292683,1616770659950,,,15,,,0.67,0.03,1.2,2,21,-8,0.67,0,,,,,,,,,,,,,,,,
292723,1616770659990,,,16,,,0.68,0.08,1.26,2,5,-2,0.68,0,,,,,,,,,,,,,,,,
292763,1616770660024,,,16,,,0.58,0.07,1.07,2,5,-2,0.59,0,,,,,,,,,,,,,,,,
292803,1616770660064,,,16,,,0.45,0.05,1.02,2,8,-2,0.45,0,,,,,,,,,,,,,,,,
292843,1616770660108,,,16,,,0.41,0.05,0.87,2,5,-1,0.41,0,45.846607,5.178322,27.73,695.2,7,2,3.2,0,0.0,-1,0.0,0.0,0.0,0,0.79,4.8807
292883,1616770660148,,,16,,,0.36,0.06,0.96,2,3,-2,0.36,0,,,,,,,,,,,,,,,,
292923,1616770660188,,,17,,,0.24,0.04,0.93,2,3,-1,0.25,0,,,,,,,,,,,,,,,,
292963,1616770660228,,,16,,,-0.01,-0.01,0.62,1,-2,1,0.02,0,,,,,,,,,,,,,,,,
293003,1616770660268,,,15,,,0.21,0.0,0.88,1,0,-1,0.21,0,,,,,,,,,,,,,,,,
293043,1616770660310,302,192,17,0.18,13.29,0.19,-0.01,1.01,1,6,-1,0.19,0,45.846588,5.178333,27.45,695.5,7,2,3.2,0,0.0,-1,0.0,0.0,0.0,0,0.79,4.884
293083,1616770660350,,,15,,,0.14,0.04,0.89,1,8,-2,0.15,0,,,,,,,,,,,,,,,,
293123,1616770660390,,,15,,,0.11,0.04,0.77,1,6,-2,0.12,0,,,,,,,,,,,,,,,,
293163,1616770660430,,,17,,,-0.04,0.03,0.73,1,2,-1,0.05,0,,,,,,,,,,,,,,,,
293203,1616770660470,,,15,,,-0.1,0.06,0.68,1,1,0,0.12,0,,,,,,,,,,,,,,,,
293243,1616770660510,,,17,,,-0.13,0.05,0.68,1,0,-0,0.14,0,45.846569,5.178345,26.95,695.9,7,2,3.2,0,0.0,-1,0.0,0.0,0.0,0,0.8,4.8874
293283,1616770660550,,,17,,,-0.18,0.04,0.53,1,1,1,0.18,0,,,,,,,,,,,,,,,,
293323,1616770660590,,,16,,,-0.19,0.05,0.5,1,0,0,0.19,0,,,,,,,,,,,,,,,,
293363,1616770660630,,,16,,,-0.16,0.07,0.6,1,0,1,0.18,0,,,,,,,,,,,,,,,,
293403,1616770660670,,,16,,,-0.09,0.04,0.46,1,-2,2,0.1,0,,,,,,,,,,,,,,,,
293443,1616770660710,,,16,,,-0.01,0.01,0.75,1,0,-1,0.01,0,45.84655,5.178356,26.34,696.4,7,2,3.2,0,0.0,-1,0.0,0.0,0.0,0,0.8,4.8907
293483,1616770660750,,,15,,,0.03,0.0,0.81,0,3,-0,0.03,0,,,,,,,,,,,,,,,,
293523,1616770660790,,,16,,,0.05,-0.03,0.81,0,4,0,0.05,0,,,,,,,,,,,,,,,,
293563,1616770660830,,,16,,,-0.03,-0.06,0.75,0,-1,2,0.06,0,,,,,,,,,,,,,,,,
293603,1616770660870,,,17,,,-0.06,-0.02,0.76,0,2,-1,0.07,0,,,,,,,,,,,,,,,,
293643,1616770660909,,,17,,,-0.02,-0.05,0.93,0,4,-1,0.05,0,45.846531,5.178365,25.49,696.9,7,2,3.2,0,0.0,-1,0.0,0.0,0.0,0,0.8,4.8941
293683,1616770660949,,,16,,,0.03,-0.05,0.93,-0,3,-1,0.06,0,,,,,,,,,,,,,,,,
293723,1616770660989,,,16,,,-0.13,-0.08,0.84,-0,0,-1,0.15,0,,,,,,,,,,,,,,,,
293763,1616770661023,,,16,,,-0.02,-0.04,0.69,-0,3,-1,0.05,0,,,,,,,,,,,,,,,,
293803,1616770661063,,,16,,,-0.05,-0.03,0.61,-0,2,-0,0.06,0,,,,,,,,,,,,,,,,
293843,1616770661107,,,17,,,-0.1,-0.01,0.7,-0,3,-1,0.1,0,45.846512,5.178375,25.19,697.7,7,2,2.4,0,0.0,-1,0.0,0.0,0.0,0,0.8,4.8974
293883,1616770661147,,,17,,,-0.02,-0.02,0.95,-1,4,-2,0.03,0,,,,,,,,,,,,,,,,
293923,1616770661187,,,16,,,0.14,-0.04,1.11,-1,7,-3,0.15,0,,,,,,,,,,,,,,,,
293963,1616770661227,,,16,,,0.08,-0.06,0.65,-1,0,0,0.1,0,,,,,,,,,,,,,,,,
294003,1616770661267,,,16,,,0.22,-0.06,0.57,-1,4,-0,0.23,0,,,,,,,,,,,,,,,,
294043,1616770661309,302,189,16,0.19,13.28,-0.08,-0.05,0.32,-1,5,-0,0.09,0,45.846493,5.178385,24.55,698.3,7,2,2.4,0,0.0,-1,0.0,0.0,0.0,0,0.8,4.9007
294083,1616770661349,,,17,,,-0.13,-0.08,0.05,-1,-4,2,0.15,0,,,,,,,,,,,,,,,,
294123,1616770661389,,,17,,,0.06,0.02,0.17,-1,-2,2,0.06,0,,,,,,,,,,,,,,,,
294163,1616770661427,,,17,,,0.02,-0.05,0.23,-1,-2,2,0.05,0,,,,,,,,,,,,,,,,
294203,1616770661467,,,17,,,0.12,-0.01,0.42,-1,-1,1,0.12,0,,,,,,,,,,,,,,,,
294243,1616770661509,,,18,,,0.11,0.02,0.72,-1,2,-1,0.11,0,45.846474,5.178395,25.09,698.3,7,2,2.4,0,0.0,-1,0.0,0.0,0.0,0,0.8,4.904
294283,1616770661549,,,16,,,-0.05,0.02,0.77,-1,2,-1,0.06,0,,,,,,,,,,,,,,,,
294323,1616770661589,,,17,,,-0.09,0.03,0.88,-1,-6,-1,0.09,0,,,,,,,,,,,,,,,,
294363,1616770661629,,,17,,,0.14,0.04,0.48,-2,2,-1,0.14,0,,,,,,,,,,,,,,,,
294403,1616770661669,,,17,,,0.06,-0.04,0.2,-2,10,-2,0.07,0,,,,,,,,,,,,,,,,
294443,1616770661709,,,17,,,-0.22,-0.04,-0.11,-2,17,-5,0.22,0,45.846458,5.178406,25.32,698.7,7,2,2.4,0,0.0,-1,0.0,0.0,0.0,0,0.8,4.9074
294483,1616770661749,,,16,,,0.09,-0.02,0.29,-3,21,-7,0.09,0,,,,,,,,,,,,,,,,
294523,1616770661789,,,16,,,0.17,0.07,0.54,-3,8,0,0.18,0,,,,,,,,,,,,,,,,
294563,1616770661829,,,16,,,0.25,0.04,0.45,-5,7,-1,0.25,0,,,,,,,,,,,,,,,,
294603,1616770661869,,,17,,,0.25,0.04,-0.01,-6,4,0,0.25,0,,,,,,,,,,,,,,,,
294643,1616770661909,,,17,,,0.43,0.03,0.37,-7,13,-7,0.43,0,45.846439,5.178417,24.5,698.8,7,2,2.4,0,0.0,-1,0.0,0.0,0.0,0,0.81,4.9107
294683,1616770661949,,,17,,,0.34,-0.04,0.32,-8,26,-20,0.34,0,,,,,,,,,,,,,,,,
294723,1616770661989,,,14,,,0.26,-0.09,0.24,-9,5,-8,0.28,0,,,,,,,,,,,,,,,,
294763,1616770662022,,,15,,,0.42,-0.15,0.57,-11,19,-15,0.45,0,,,,,,,,,,,,,,,,
294803,1616770662062,,,15,,,0.15,-0.27,0.08,-12,-14,6,0.31,0,,,,,,,,,,,,,,,,
294843,1616770662108,,,16,,,-0.25,-0.25,-0.31,-13,-12,1,0.36,0,45.846416,5.178429,25.65,699.0,7,2,2.4,0,0.0,-1,0.0,0.0,0.0,0,0.81,4.9141
294883,1616770662148,,,15,,,-0.11,-0.23,0.04,-15,11,-13,0.25,0,,,,,,,,,,,,,,,,
294923,1616770662188,,,16,,,0.1,-0.32,0.01,-16,-7,1,0.33,0,,,,,,,,,,,,,,,,
294963,1616770662228,,,16,,,-0.26,-0.28,0.01,-17,5,-8,0.39,0,,,,,,,,,,,,,,,,
295003,1616770662268,,,15,,,-0.19,-0.4,-0.01,-17,-10,3,0.44,0,,,,,,,,,,,,,,,,
295043,1616770662308,302,183,16,0.18,13.15,-0.06,-0.31,0.01,-18,-1,-3,0.32,0,45.846397,5.178444,25.59,699.3,7,2,2.4,0,0.0,-1,0.0,0.0,0.0,0,0.81,4.9174
295083,1616770662348,,,16,,,-0.12,-0.31,0.03,-18,0,-3,0.33,0,,,,,,,,,,,,,,,,
295123,1616770662388,,,16,,,-0.07,-0.35,0.04,-18,6,-3,0.36,0,,,,,,,,,,,,,,,,
295163,1616770662428,,,16,,,-0.37,-0.39,-0.35,-18,-1,2,0.53,0,,,,,,,,,,,,,,,,
295203,1616770662468,,,15,,,-0.11,-0.39,-0.3,-17,-3,2,0.41,0,,,,,,,,,,,,,,,,
295243,1616770662508,,,17,,,-0.06,-0.4,-0.22,-16,4,-4,0.4,0,45.846382,5.17846,25.69,700.2,7,2,2.4,0,0.0,-1,0.0,0.0,0.0,0,0.81,4.9207
295283,1616770662548,,,16,,,-0.19,-0.37,-0.16,-17,-1,-6,0.41,0,,,,,,,,,,,,,,,,
295323,1616770662588,,,15,,,-0.21,-0.37,-0.11,-16,1,-6,0.42,0,,,,,,,,,,,,,,,,
295363,1616770662628,,,16,,,-0.2,-0.39,-0.07,-16,-1,-6,0.44,0,,,,,,,,,,,,,,,,
295403,1616770662668,,,16,,,-0.15,-0.39,-0.04,-17,-3,-5,0.42,0,,,,,,,,,,,,,,,,
295443,1616770662708,,,15,,,-0.14,-0.43,-0.01,-17,-2,-4,0.45,0,45.846363,5.178477,24.89,701.4,7,2,2.4,0,0.0,-1,0.0,0.0,0.0,0,0.81,4.924
295483,1616770662748,,,16,,,-0.16,-0.34,0.01,-17,-7,-3,0.38,0,,,,,,,,,,,,,,,,
295523,1616770662788,,,16,,,-0.28,-0.33,0.18,-17,-3,-4,0.43,0,,,,,,,,,,,,,,,,
295563,1616770662828,,,16,,,-0.23,-0.28,0.52,-17,-3,-3,0.36,0,,,,,,,,,,,,,,,,
295603,1616770662868,,,15,,,-0.23,-0.37,0.44,-18,-5,-1,0.44,0,,,,,,,,,,,,,,,,
295643,1616770662908,,,16,,,-0.29,-0.38,0.61,-18,2,-3,0.48,0,45.846348,5.178494,23.75,701.3,7,2,2.4,0,0.0,-1,0.0,0.0,0.0,0,0.81,4.9274
295683,1616770662948,,,16,,,-0.23,-0.36,0.49,-17,-3,-2,0.43,0,,,,,,,,,,,,,,,,
295723,1616770662988,,,15,,,-0.12,-0.28,0.78,-17,5,-4,0.3,0,,,,,,,,,,,,,,,,
295763,1616770663023,,,16,,,-0.26,-0.34,1.01,-17,10,-4,0.43,0,,,,,,,,,,,,,,,,
295803,1616770663063,,,15,,,-0.41,-0.22,0.5,-17,-1,-1,0.46,0,,,,,,,,,,,,,,,,
295843,1616770663109,,,15,,,-0.33,-0.33,0.17,-17,-8,1,0.47,0,45.846329,5.178512,23.27,701.3,7,2,2.4,0,0.0,-1,0.0,0.0,0.0,0,0.81,4.9307
295883,1616770663149,,,15,,,-0.08,-0.35,0.51,-17,-9,3,0.36,0,,,,,,,,,,,,,,,,
295923,1616770663189,,,16,,,0.05,-0.24,0.67,-17,-7,4,0.25,0,,,,,,,,,,,,,,,,
295963,1616770663229,,,16,,,0.11,-0.26,0.58,-17,-14,7,0.28,0,,,,,,,,,,,,,,,,
296003,1616770663269,,,16,,,-0.03,-0.4,0.09,-17,-31,15,0.4,0,,,,,,,,,,,,,,,,
296043,1616770663309,302,188,16,0.18,13.28,-0.37,-0.44,-0.31,-17,-44,20,0.58,0,45.846317,5.17853,22.13,701.1,7,2,2.4,0,0.0,-1,0.0,0.0,0.0,0,0.81,4.9341
296083,1616770663349,,,15,,,-0.67,-0.48,-0.63,-18,-49,20,0.82,0,,,,,,,,,,,,,,,,
296123,1616770663389,,,16,,,-0.71,-0.46,-0.42,-18,-33,13,0.85,0,,,,,,,,,,,,,,,,
296163,1616770663429,,,16,,,-0.4,-0.41,0.04,-19,-8,1,0.57,0,,,,,,,,,,,,,,,,
296203,1616770663469,,,16,,,-0.31,-0.42,0.41,-19,7,-4,0.53,0,,,,,,,,,,,,,,,,
296243,1616770663509,,,15,,,-0.27,-0.42,0.44,-20,1,-3,0.5,0,45.846306,5.178548,21.28,700.7,7,2,2.4,0,0.0,-1,0.0,0.0,0.0,0,0.82,4.9374
296283,1616770663549,,,15,,,-0.1,-0.43,0.33,-21,-2,-1,0.44,0,,,,,,,,,,,,,,,,
296323,1616770663589,,,17,,,-0.04,-0.42,0.65,-22,3,-5,0.42,0,,,,,,,,,,,,,,,,
296363,1616770663629,,,17,,,-0.15,-0.49,0.84,-23,1,-5,0.51,0,,,,,,,,,,,,,,,,
296403,1616770663669,,,16,,,0.13,-0.47,1.06,-23,13,-10,0.48,0,,,,,,,,,,,,,,,,
296443,1616770663709,,,16,,,-0.08,-0.48,0.71,-24,7,-5,0.49,0,45.846291,5.178567,21.24,700.5,7,2,2.4,0,0.0,-1,0.0,0.0,0.0,0,0.82,4.9407
296483,1616770663749,,,15,,,0.0,-0.48,0.79,-25,7,-5,0.48,0,,,,,,,,,,,,,,,,
296523,1616770663789,,,16,,,-0.2,-0.5,0.83,-26,11,-5,0.54,0,,,,,,,,,,,,,,,,
296563,1616770663829,,,16,,,-0.05,-0.43,1.05,-26,24,-12,0.44,0,,,,,,,,,,,,,,,,
296603,1616770663869,,,15,,,-0.03,-0.42,1.23,-27,36,-16,0.43,0,,,,,,,,,,,,,,,,
296643,1616770663908,,,16,,,-0.24,-0.52,1.38,-28,39,-16,0.57,0,45.846283,5.178587,21.35,699.9,7,2,2.4,0,0.0,-1,0.0,0.0,0.0,0,0.82,4.944
296683,1616770663948,,,16,,,-0.14,-0.51,1.49,-28,45,-18,0.53,0,,,,,,,,,,,,,,,,
296723,1616770663988,,,16,,,0.14,-0.4,1.59,-28,35,-16,0.42,0,,,,,,,,,,,,,,,,
296763,1616770664020,,,16,,,-0.05,-0.44,1.27,-29,35,-16,0.44,0,,,,,,,,,,,,,,,,
296803,1616770664060,,,16,,,0.13,-0.37,1.4,-29,19,-10,0.39,0,,,,,,,,,,,,,,,,
296843,1616770664108,,,15,,,-0.15,-0.48,0.76,-29,9,-4,0.5,0,45.846268,5.178607,20.76,699.6,7,2,2.4,0,0.0,-1,0.0,0.0,0.0,0,0.82,4.9474
296883,1616770664148,,,15,,,-0.02,-0.52,0.85,-29,16,-7,0.52,0,,,,,,,,,,,,,,,,
296923,1616770664188,,,15,,,-0.09,-0.41,0.67,-29,6,-3,0.42,0,,,,,,,,,,,,,,,,
296963,1616770664228,,,16,,,-0.11,-0.42,0.62,-29,10,-5,0.43,0,,,,,,,,,,,,,,,,
297003,1616770664268,,,16,,,-0.22,-0.39,0.47,-28,5,-3,0.45,0,,,,,,,,,,,,,,,,
297043,1616770664308,302,192,16,0.18,13.29,-0.11,-0.4,0.58,-28,3,-2,0.42,0,45.84626,5.178628,20.07,699.0,7,2,2.4,0,0.0,-1,0.0,0.0,0.0,0,0.82,4.9507
297083,1616770664348,,,15,,,-0.08,-0.39,0.71,-27,5,-3,0.4,0,,,,,,,,,,,,,,,,
297123,1616770664388,,,16,,,-0.19,-0.43,0.58,-26,3,-3,0.47,0,,,,,,,,,,,,,,,,
297163,1616770664428,,,15,,,-0.23,-0.33,0.5,-25,0,-1,0.4,0,,,,,,,,,,,,,,,,
297203,1616770664468,,,16,,,-0.06,-0.3,0.74,-25,1,-2,0.3,0,,,,,,,,,,,,,,,,
297243,1616770664508,,,15,,,0.08,-0.28,0.84,-23,6,-2,0.29,0,45.846252,5.178649,19.12,699.0,7,2,2.4,0,0.0,-1,0.0,0.0,0.0,0,0.82,4.9541
297283,1616770664548,,,16,,,0.12,-0.27,0.97,-22,6,-3,0.3,0,,,,,,,,,,,,,,,,
297323,1616770664588,,,16,,,0.1,-0.28,0.89,-21,6,-3,0.3,0,,,,,,,,,,,,,,,,
297363,1616770664628,,,16,,,0.04,-0.29,1.0,-20,5,-3,0.29,0,,,,,,,,,,,,,,,,
297403,1616770664668,,,15,,,0.01,-0.27,0.92,-19,2,-2,0.27,0,,,,,,,,,,,,,,,,
297443,1616770664708,,,16,,,0.05,-0.26,0.92,-18,4,-3,0.26,0,45.846249,5.17867,18.44,698.7,7,2,2.4,0,0.0,-1,0.0,0.0,0.0,0,0.82,4.9574
297483,1616770664748,,,15,,,0.04,-0.28,1.0,-18,3,-3,0.29,0,,,,,,,,,,,,,,,,
297523,1616770664788,,,15,,,0.04,-0.29,0.9,-17,3,-3,0.29,0,,,,,,,,,,,,,,,,
297563,1616770664828,,,16,,,-0.02,-0.3,0.66,-17,2,-1,0.3,0,,,,,,,,,,,,,,,,
297603,1616770664868,,,16,,,-0.0,-0.3,0.6,-17,2,-2,0.3,0,,,,,,,,,,,,,,,,
297643,1616770664907,,,15,,,-0.06,-0.25,0.47,-17,0,-1,0.26,0,45.846245,5.178691,17.99,698.6,7,2,2.4,0,0.0,-1,0.0,0.0,0.0,0,0.82,4.9607
297683,1616770664947,,,15,,,-0.09,-0.22,0.36,-17,-2,-1,0.24,0,,,,,,,,,,,,,,,,
297723,1616770664987,,,16,,,0.08,-0.19,0.6,-17,-1,-2,0.21,0,,,,,,,,,,,,,,,,
297763,1616770665023,,,15,,,0.13,-0.23,0.76,-17,4,-3,0.26,0,,,,,,,,,,,,,,,,
297803,1616770665063,,,16,,,-0.02,-0.3,0.64,-17,1,-1,0.3,0,,,,,,,,,,,,,,,,
297843,1616770665109,,,15,,,0.04,-0.23,0.56,-17,-2,-0,0.24,0,45.846245,5.178713,17.52,698.4,7,2,2.5,0,0.0,-1,0.0,0.0,0.0,0,0.82,4.964
297883,1616770665149,,,16,,,0.15,-0.24,0.75,-16,2,-1,0.28,0,,,,,,,,,,,,,,,,
297923,1616770665189,,,15,,,0.02,-0.26,0.94,-17,-1,-1,0.26,0,,,,,,,,,,,,,,,,
297963,1616770665229,,,15,,,0.03,-0.25,0.82,-17,-5,0,0.25,0,,,,,,,,,,,,,,,,
298003,1616770665269,,,16,,,-0.21,-0.24,0.83,-17,-4,-0,0.32,0,,,,,,,,,,,,,,,,
298043,1616770665309,302,190,16,0.18,13.33,-0.17,-0.24,0.87,-17,-13,1,0.3,0,45.846241,5.178735,17.31,698.4,7,2,2.5,0,0.0,-1,0.0,0.0,0.0,0,0.83,4.9674
298083,1616770665349,,,15,,,-0.02,-0.2,0.6,-17,-8,1,0.21,0,,,,,,,,,,,,,,,,
298123,1616770665389,,,16,,,-0.03,-0.21,0.63,-17,-4,-0,0.21,0,,,,,,,,,,,,,,,,
298163,1616770665429,,,16,,,-0.05,-0.24,0.57,-17,-7,-0,0.25,0,,,,,,,,,,,,,,,,
298203,1616770665469,,,16,,,-0.15,-0.26,0.5,-17,-6,0,0.3,0,,,,,,,,,,,,,,,,
298243,1616770665509,,,15,,,-0.02,-0.27,0.59,-17,-7,0,0.27,0,45.846241,5.178757,16.95,698.3,7,2,2.5,0,0.0,-1,0.0,0.0,0.0,0,0.83,4.9707
298283,1616770665549,,,16,,,-0.11,-0.31,0.53,-18,-3,-1,0.33,0,,,,,,,,,,,,,,,,
298323,1616770665589,,,16,,,-0.04,-0.29,0.77,-18,-6,-1,0.29,0,,,,,,,,,,,,,,,,
298363,1616770665629,,,16,,,-0.09,-0.28,0.65,-18,-2,-0,0.29,0,,,,,,,,,,,,,,,,
298403,1616770665669,,,15,,,-0.33,-0.32,0.76,-18,-11,2,0.46,0,,,,,,,,,,,,,,,,
298443,1616770665709,,,16,,,-0.08,-0.31,0.84,-17,-12,2,0.32,0,45.846245,5.178776,16.42,696.7,7,2,2.5,0,0.0,-1,0.0,0.0,0.0,0,0.83,4.974
298483,1616770665749,,,17,,,-0.11,-0.26,0.64,-17,4,-1,0.28,0,,,,,,,,,,,,,,,,
298523,1616770665789,,,16,,,-0.46,-0.21,0.89,-16,-12,1,0.51,0,,,,,,,,,,,,,,,,
298563,1616770665829,,,15,,,-0.46,-0.21,0.81,-16,-24,4,0.51,0,,,,,,,,,,,,,,,,
298603,1616770665869,,,17,,,0.01,-0.13,0.27,-14,-3,4,0.14,0,,,,,,,,,,,,,,,,
298643,1616770665909,,,17,,,0.25,-0.1,0.31,-13,34,-1,0.27,0,45.846245,5.178796,16.24,696.3,7,2,2.5,0,0.0,-1,0.0,0.0,0.0,0,0.83,4.9774
298683,1616770665949,,,16,,,0.32,-0.06,0.63,-11,59,-2,0.33,0,,,,,,,,,,,,,,,,
298723,1616770665989,,,17,,,0.28,-0.0,0.89,-9,81,-4,0.28,0,,,,,,,,,,,,,,,,
298763,1616770666022,,,16,,,0.03,0.03,1.1,-7,97,-5,0.04,0,,,,,,,,,,,,,,,,
298803,1616770666062,,,16,,,-0.19,0.11,1.27,-5,102,-6,0.23,0,,,,,,,,,,,,,,,,
298843,1616770666106,,,16,,,-0.2,0.15,1.35,-3,105,-6,0.26,0,45.846249,5.178814,15.91,695.2,7,2,2.4,0,0.0,-1,0.0,0.0,0.0,0,0.83,4.9807
298883,1616770666146,,,17,,,0.11,0.1,0.75,-2,100,-4,0.15,0,,,,,,,,,,,,,,,,
298923,1616770666186,,,16,,,0.28,0.11,0.23,0,74,-3,0.3,0,,,,,,,,,,,,,,,,
298963,1616770666226,,,16,,,0.08,0.08,0.3,2,38,-1,0.11,0,,,,,,,,,,,,,,,,
299003,1616770666266,,,17,,,-0.19,0.14,0.63,3,21,-1,0.24,0,,,,,,,,,,,,,,,,
299043,1616770666308,302,192,17,0.18,13.23,-0.07,0.18,0.65,5,35,-1,0.2,0,45.846249,5.178831,15.85,693.8,7,2,2.4,0,0.0,-1,0.0,0.0,0.0,0,0.83,4.984
299083,1616770666348,,,16,,,0.33,0.14,0.14,7,43,-0,0.36,0,,,,,,,,,,,,,,,,
299123,1616770666388,,,17,,,0.57,0.13,-0.26,8,34,0,0.59,0,,,,,,,,,,,,,,,,
299163,1616770666428,,,16,,,0.39,0.11,-0.38,10,10,1,0.4,0,,,,,,,,,,,,,,,,
299203,1616770666468,,,16,,,-0.06,0.14,0.08,11,-10,2,0.16,0,,,,,,,,,,,,,,,,
299243,1616770666508,,,17,,,-0.35,0.2,0.44,12,-16,2,0.4,0,45.846249,5.178849,15.86,693.3,7,2,2.4,0,0.0,-1,0.0,0.0,0.0,0,0.83,4.9874
299283,1616770666548,,,16,,,-0.27,0.23,0.74,13,7,1,0.35,0,,,,,,,,,,,,,,,,
299323,1616770666588,,,17,,,-0.0,0.17,0.49,14,29,0,0.17,0,,,,,,,,,,,,,,,,
299363,1616770666628,,,16,,,0.39,0.13,0.02,14,45,-0,0.41,0,,,,,,,,,,,,,,,,
299403,1616770666668,,,17,,,0.7,0.08,-0.36,15,60,-1,0.7,0,,,,,,,,,,,,,,,,
299443,1616770666708,,,16,,,0.95,0.08,-0.68,15,68,1,0.96,0,45.846249,5.178865,15.57,693.0,7,2,2.4,0,0.0,-1,0.0,0.0,0.0,0,0.83,4.9907
299483,1616770666748,,,17,,,1.03,0.03,-0.93,16,60,1,1.03,0,,,,,,,,,,,,,,,,
299523,1616770666788,,,16,,,0.7,0.04,-0.49,15,35,1,0.7,0,,,,,,,,,,,,,,,,
299563,1616770666828,,,16,,,0.63,0.03,-0.36,14,37,0,0.63,0,,,,,,,,,,,,,,,,
299603,1616770666868,,,16,,,0.59,-0.03,-0.5,13,25,1,0.59,0,,,,,,,,,,,,,,,,
299643,1616770666908,,,17,,,0.28,-0.03,-0.02,11,10,-0,0.28,0,45.846249,5.178882,15.12,691.9,7,2,2.4,0,0.0,-1,0.0,0.0,0.0,0,0.83,4.994
299683,1616770666948,,,16,,,0.22,-0.03,0.29,9,18,-0,0.23,0,,,,,,,,,,,,,,,,
299723,1616770666988,,,16,,,0.57,-0.08,-0.15,6,31,-0,0.57,0,,,,,,,,,,,,,,,,
299763,1616770667023,,,16,,,0.65,-0.13,-0.45,3,25,1,0.67,0,,,,,,,,,,,,,,,,
299803,1616770667063,,,16,,,0.52,-0.19,-0.54,0,3,2,0.56,0,,,,,,,,,,,,,,,,
299843,1616770667103,,,16,,,0.13,-0.25,-0.06,-3,-20,1,0.28,0,45.846245,5.178898,14.98,691.0,7,2,2.4,0,0.0,-1,0.0,0.0,0.0,0,0.83,4.9974
299883,1616770667143,,,16,,,-0.0,-0.26,0.27,-6,-18,1,0.26,0,,,,,,,,,,,,,,,,
299923,1616770667183,,,16,,,0.22,-0.25,0.06,-9,0,0,0.33,0,,,,,,,,,,,,,,,,
299963,1616770667227,,,15,,,0.15,-0.29,0.25,-12,-14,0,0.33,0,,,,,,,,,,,,,,,,
300003,1616770667267,,,16,,,-0.16,-0.32,0.58,-14,-18,-2,0.36,0,,,,,,,,,,,,,,,,
300043,1616770667307,302,192,16,0.18,13.33,-0.06,-0.29,0.68,-17,-7,-2,0.29,0,45.846249,5.178915,14.83,690.8,7,2,2.4,0,0.0,-1,0.0,0.0,0.0,0,0.83,5.0007
300083,1616770667347,,,16,,,0.34,-0.32,0.17,-19,21,-3,0.47,0,,,,,,,,,,,,,,,,
300123,1616770667387,,,16,,,0.66,-0.32,-0.24,-21,31,-2,0.74,0,,,,,,,,,,,,,,,,
300163,1616770667429,,,15,,,0.9,-0.35,-0.58,-22,31,-1,0.96,0,,,,,,,,,,,,,,,,
300203,1616770667469,,,16,,,0.85,-0.37,-0.85,-23,19,0,0.93,0,,,,,,,,,,,,,,,,
300243,1616770667509,,,15,,,0.54,-0.41,-0.36,-24,-2,1,0.67,0,45.846249,5.17893,14.41,689.9,7,2,2.4,0,0.0,-1,0.0,0.0,0.0,0,0.84,5.004
300283,1616770667549,,,16,,,0.06,-0.37,0.08,-25,-15,-0,0.38,0,,,,,,,,,,,,,,,,
300323,1616770667589,,,15,,,-0.3,-0.35,0.45,-26,-26,-1,0.46,0,,,,,,,,,,,,,,,,
300363,1616770667629,,,16,,,-0.56,-0.35,0.74,-27,-20,-2,0.66,0,,,,,,,,,,,,,,,,
300403,1616770667669,,,15,,,-0.69,-0.35,0.98,-27,-16,-4,0.77,0,,,,,,,,,,,,,,,,
300443,1616770667709,,,16,,,-0.87,-0.36,1.17,-27,-18,-6,0.94,0,45.846252,5.178947,14.41,689.2,7,2,2.4,0,0.0,-1,0.0,0.0,0.0,0,0.84,5.0074
300483,1616770667749,,,16,,,-1.07,-0.33,1.33,-26,-26,-6,1.12,0,,,,,,,,,,,,,,,,
300523,1616770667789,,,15,,,-1.16,-0.35,1.46,-26,-29,-6,1.22,0,,,,,,,,,,,,,,,,
300563,1616770667829,,,17,,,-1.21,-0.29,1.56,-24,-21,-7,1.25,0,,,,,,,,,,,,,,,,
300603,1616770667869,,,16,,,-1.35,-0.25,1.64,-23,-31,-6,1.38,0,,,,,,,,,,,,,,,,
300643,1616770667909,,,15,,,-1.47,-0.21,1.71,-22,-56,-4,1.48,0,45.846256,5.178962,14.67,688.8,7,2,2.4,0,0.0,-1,0.0,0.0,0.0,0,0.84,5.0107
300683,1616770667949,,,16,,,-1.51,-0.2,1.76,-20,-61,-2,1.52,0,,,,,,,,,,,,,,,,
300723,1616770667989,,,15,,,-1.14,-0.14,1.81,-19,-40,-2,1.15,0,,,,,,,,,,,,,,,,
300763,1616770668022,,,16,,,-0.65,-0.16,1.13,-17,-32,2,0.67,0,,,,,,,,,,,,,,,,
300803,1616770668062,,,16,,,-0.6,-0.14,0.94,-16,-40,1,0.61,0,,,,,,,,,,,,,,,,
300843,1616770668108,,,16,,,-0.68,-0.18,1.14,-15,-35,1,0.7,0,45.84626,5.178977,15.01,687.5,7,2,2.5,0,0.0,-1,0.0,0.0,0.0,0,0.84,5.0141
300883,1616770668148,,,17,,,-0.31,-0.1,0.82,-13,-12,-0,0.32,0,,,,,,,,,,,,,,,,
300923,1616770668188,,,17,,,0.14,-0.08,0.29,-11,6,0,0.16,0,,,,,,,,,,,,,,,,
300963,1616770668228,,,17,,,0.5,-0.04,-0.15,-9,33,-2,0.5,0,,,,,,,,,,,,,,,,
301003,1616770668268,,,17,,,0.68,0.0,-0.5,-7,57,-3,0.68,0,,,,,,,,,,,,,,,,
301043,1616770668310,302,193,17,0.19,13.18,0.68,-0.01,-0.79,-4,49,-0,0.68,0,45.846268,5.178992,15.14,686.8,7,2,2.5,0,0.0,-1,0.0,0.0,0.0,0,0.84,5.0174
301083,1616770668350,,,16,,,0.3,0.05,-0.26,-1,28,0,0.3,0,,,,,,,,,,,,,,,,
301123,1616770668390,,,16,,,-0.02,0.12,0.17,2,27,0,0.12,0,,,,,,,,,,,,,,,,
301163,1616770668430,,,16,,,-0.29,0.16,0.52,4,32,-2,0.33,0,,,,,,,,,,,,,,,,
301203,1616770668470,,,17,,,-0.61,0.2,0.8,6,38,-3,0.64,0,,,,,,,,,,,,,,,,
301243,1616770668510,,,16,,,-0.86,0.24,1.03,8,13,-2,0.9,0,45.846272,5.179009,15.39,686.5,7,2,2.5,0,0.0,-1,0.0,0.0,0.0,0,0.84,5.0207
301283,1616770668550,,,16,,,-0.99,0.23,1.21,9,-16,1,1.01,0,,,,,,,,,,,,,,,,
301323,1616770668590,,,17,,,-0.78,0.26,0.85,11,-38,3,0.82,0,,,,,,,,,,,,,,,,
301363,1616770668628,,,17,,,-0.49,0.28,0.47,13,-53,4,0.56,0,,,,,,,,,,,,,,,,
301403,1616770668668,,,17,,,-0.42,0.3,0.73,14,-55,3,0.52,0,,,,,,,,,,,,,,,,
301443,1616770668710,,,17,,,-0.27,0.31,0.41,16,-35,1,0.41,0,45.846275,5.179026,14.94,686.2,7,2,2.5,0,0.0,-1,0.0,0.0,0.0,0,0.84,5.0241
301483,1616770668750,,,17,,,-0.36,0.34,0.51,18,-38,1,0.5,0,,,,,,,,,,,,,,,,
301523,1616770668790,,,17,,,-0.27,0.35,0.16,19,-30,1,0.44,0,,,,,,,,,,,,,,,,
301563,1616770668828,,,17,,,-0.31,0.37,0.23,20,-23,1,0.49,0,,,,,,,,,,,,,,,,
301603,1616770668868,,,18,,,-0.29,0.34,0.17,22,-17,3,0.45,0,,,,,,,,,,,,,,,,
301643,1616770668909,,,17,,,-0.52,0.37,0.36,23,-30,3,0.64,0,45.846279,5.17904,14.72,685.3,7,2,2.5,0,0.0,-1,0.0,0.0,0.0,0,0.84,5.0274
301683,1616770668949,,,16,,,-0.73,0.43,0.67,24,-31,1,0.85,0,,,,,,,,,,,,,,,,
301723,1616770668989,,,18,,,-0.58,0.43,0.92,25,-13,1,0.72,0,,,,,,,,,,,,,,,,
301763,1616770669023,,,17,,,-0.14,0.39,0.37,26,7,0,0.42,0,,,,,,,,,,,,,,,,
301803,1616770669063,,,17,,,-0.08,0.34,0.05,27,1,2,0.35,0,,,,,,,,,,,,,,,,
301843,1616770669109,,,17,,,-0.4,0.36,0.38,28,-24,4,0.53,0,45.846283,5.179056,14.77,684.1,7,2,3.2,0,0.0,-1,0.0,0.0,0.0,0,0.84,5.0307
301883,1616770669149,,,17,,,-0.61,0.39,0.69,29,-44,5,0.73,0,,,,,,,,,,,,,,,,
301923,1616770669189,,,17,,,-0.65,0.47,0.94,30,-40,3,0.8,0,,,,,,,,,,,,,,,,
301963,1616770669229,,,17,,,-0.41,0.45,0.58,31,-26,5,0.61,0,,,,,,,,,,,,,,,,
302003,1616770669269,,,16,,,-0.47,0.47,0.85,32,-35,4,0.67,0,,,,,,,,,,,,,,,,
302043,1616770669309,302,190,17,0.18,13.27,-0.45,0.51,1.07,32,-26,3,0.68,0,45.846283,5.179072,14.8,683.7,7,2,3.2,0,0.0,-1,0.0,0.0,0.0,0,0.84,5.034
302083,1616770669349,,,17,,,-0.15,0.49,0.48,33,-11,4,0.52,0,,,,,,,,,,,,,,,,
302123,1616770669389,,,17,,,-0.37,0.45,0.61,34,-20,4,0.58,0,,,,,,,,,,,,,,,,
302163,1616770669429,,,18,,,-0.42,0.51,0.87,34,-24,3,0.66,0,,,,,,,,,,,,,,,,
302203,1616770669469,,,17,,,0.02,0.48,0.32,35,-6,3,0.48,0,,,,,,,,,,,,,,,,
302243,1616770669509,,,18,,,0.1,0.45,0.03,36,-5,4,0.46,0,45.846279,5.179087,14.92,682.3,7,2,3.2,0,0.0,-1,0.0,0.0,0.0,0,0.84,5.0374
302283,1616770669549,,,18,,,-0.17,0.46,0.41,36,-22,4,0.49,0,,,,,,,,,,,,,,,,
302323,1616770669589,,,17,,,-0.27,0.54,0.71,36,-21,3,0.6,0,,,,,,,,,,,,,,,,
302363,1616770669629,,,18,,,-0.05,0.52,0.33,37,-7,3,0.53,0,,,,,,,,,,,,,,,,
302403,1616770669669,,,16,,,-0.18,0.53,0.39,38,-13,3,0.56,0,,,,,,,,,,,,,,,,
302443,1616770669709,,,18,,,-0.23,0.56,0.69,38,-9,2,0.6,0,45.846279,5.179102,15.04,681.4,7,2,3.2,0,0.0,-1,0.0,0.0,0.0,0,0.84,5.0407
302483,1616770669749,,,18,,,0.15,0.53,0.25,39,10,2,0.55,0,,,,,,,,,,,,,,,,
302523,1616770669789,,,18,,,0.41,0.5,-0.18,40,23,3,0.65,0,,,,,,,,,,,,,,,,
302563,1616770669829,,,17,,,0.37,0.51,-0.26,41,10,2,0.63,0,,,,,,,,,,,,,,,,
302603,1616770669869,,,17,,,0.04,0.54,0.1,41,-9,3,0.54,0,,,,,,,,,,,,,,,,
302643,1616770669911,,,16,,,-0.18,0.58,0.46,42,-20,3,0.61,0,45.846275,5.17912,15.34,681.3,7,2,3.2,0,0.0,-1,0.0,0.0,0.0,0,0.85,5.0441
302683,1616770669951,,,18,,,-0.05,0.6,0.08,42,-4,3,0.6,0,,,,,,,,,,,,,,,,
302723,1616770669991,,,17,,,-0.24,0.58,0.22,43,-13,4,0.63,0,,,,,,,,,,,,,,,,
302763,1616770670022,,,17,,,-0.04,0.58,0.16,43,-6,5,0.59,0,,,,,,,,,,,,,,,,
302803,1616770670062,,,18,,,0.14,0.52,-0.25,44,7,4,0.54,0,,,,,,,,,,,,,,,,
302843,1616770670108,,,17,,,0.14,0.49,-0.25,44,-8,4,0.51,0,45.846272,5.179136,15.48,680.6,7,2,2.4,0,0.0,-1,0.0,0.0,0.0,0,0.85,5.0474
302883,1616770670148,,,17,,,-0.07,0.46,-0.13,44,-25,4,0.46,0,,,,,,,,,,,,,,,,
302923,1616770670188,,,17,,,-0.24,0.51,0.09,44,-48,5,0.57,0,,,,,,,,,,,,,,,,
302963,1616770670228,,,18,,,-0.27,0.52,-0.14,43,-64,6,0.58,0,,,,,,,,,,,,,,,,
303003,1616770670268,,,18,,,-0.13,0.49,-0.5,43,-76,7,0.51,0,,,,,,,,,,,,,,,,
303043,1616770670308,302,192,18,0.19,13.33,0.27,0.49,-0.78,43,-73,8,0.56,0,45.846268,5.179152,15.63,680.6,7,2,2.4,0,0.0,-1,0.0,0.0,0.0,0,0.85,5.0507
303083,1616770670348,,,18,,,0.59,0.46,-1.01,43,-51,6,0.75,0,,,,,,,,,,,,,,,,
303123,1616770670388,,,17,,,0.48,0.46,-0.92,43,-34,5,0.66,0,,,,,,,,,,,,,,,,
303163,1616770670428,,,18,,,0.53,0.46,-0.44,43,-27,4,0.7,0,,,,,,,,,,,,,,,,
303203,1616770670468,,,18,,,0.46,0.5,-0.04,43,-26,5,0.68,0,,,,,,,,,,,,,,,,
303243,1616770670508,,,16,,,0.43,0.6,0.04,43,-22,4,0.74,0,45.846264,5.179168,15.78,680.7,7,2,2.4,0,0.0,-1,0.0,0.0,0.0,0,0.85,5.054
303283,1616770670548,,,18,,,0.43,0.57,0.23,43,-18,3,0.72,0,,,,,,,,,,,,,,,,
303323,1616770670588,,,17,,,0.42,0.52,0.3,42,-16,4,0.67,0,,,,,,,,,,,,,,,,
303363,1616770670628,,,18,,,0.43,0.5,0.59,42,-12,3,0.66,0,,,,,,,,,,,,,,,,
303403,1616770670668,,,17,,,0.38,0.55,0.75,41,-6,1,0.67,0,,,,,,,,,,,,,,,,
303443,1616770670710,,,17,,,0.28,0.51,0.36,41,-13,5,0.58,0,45.846252,5.179183,16.22,680.2,7,2,2.4,0,0.0,-1,0.0,0.0,0.0,0,0.85,5.0574
303483,1616770670750,,,17,,,0.33,0.52,0.42,40,0,0,0.62,0,,,,,,,,,,,,,,,,
303523,1616770670790,,,16,,,0.38,0.5,0.4,39,-9,4,0.63,0,,,,,,,,,,,,,,,,
303563,1616770670830,,,17,,,0.24,0.54,0.34,38,2,1,0.59,0,,,,,,,,,,,,,,,,
303603,1616770670870,,,16,,,0.55,0.51,0.66,37,-1,4,0.75,0,,,,,,,,,,,,,,,,
