"Interval"|"ms"|0|0|1,"Utc"|"ms"|0|0|1,"EngineTemp"|"F"|0|300|1,"OilTemp"|"F"|0|300|1,"OilPress"|"PSI"|0|150|25,"Battery"|"Volts"|0.0|20.0|1,"Battery"|"Volts"|0.0|20.0|1,"AccelX"|"G"|-3.0|3.0|25,"AccelY"|"G"|-3.0|3.0|25,"AccelZ"|"G"|-3.0|3.0|25,"Yaw"|"Deg/Sec"|-120|120|25,"Pitch"|"Deg/Sec"|-120|120|25,"Roll"|"Deg/Sec"|-120|120|25,"Gsum"|"G"|0.0|3.0|25,"RPM"|""|0|10000|25,"Latitude"|"Degrees"|-180.0|180.0|10,"Longitude"|"Degrees"|-180.0|180.0|10,"Speed"|"mph"|0.0|150.0|10,"Altitude"|"ft"|0.0|4000.0|10,"GPSSats"|""|0|20|10,"GPSQual"|""|0|5|10,"GPSDOP"|""|0.0|20.0|10,"LapCount"|""|0|0|10,"LapTime"|"Min"|0.0|0.0|10,"Sector"|""|0|0|10,"SectorTime"|"Min"|0.0|0.0|10,"PredTime"|"Min"|0.0|0.0|5,"ElapsedTime"|"Min"|0.0|0.0|10,"CurrentLap"|""|0|0|10,"Distance"|"mi"|0.0|0.0|10,"SessionTime"|"Min"|0.0|0.0|10
611483,1616768760460,,,21,,,-0.05,0.7,-0.18,21,16,-7,0.7,0,,,,,,,,,,,,,,,,
611523,1616768760498,,,19,,,-0.16,0.79,-0.3,21,-7,4,0.81,0,,,,,,,,,,,,,,,,
611563,1616768760538,,,20,,,0.05,0.67,0.13,21,4,-3,0.67,0,,,,,,,,,,,,,,,,
611603,1616768760578,,,21,,,-0.14,0.65,0.13,21,1,-4,0.66,0,,,,,,,,,,,,,,,,
611643,1616768760618,,,19,,,-0.17,0.74,-0.11,22,-16,6,0.76,0,45.846336,5.180014,40.26,726.9,6,2,4.1,0,0.0,-1,0.0,0.0,0.0,0,2.38,10.194
611683,1616768760658,,,20,,,0.1,0.72,0.29,23,5,-4,0.73,0,,,,,,,,,,,,,,,,
611723,1616768760700,,,22,,,-0.11,0.74,-0.14,23,-5,1,0.75,0,,,,,,,,,,,,,,,,
611763,1616768760740,,,21,,,0.16,0.72,-0.14,23,2,-1,0.74,0,,,,,,,,,,,,,,,,
611803,1616768760780,,,22,,,-0.12,0.68,-0.49,24,-3,6,0.69,0,,,,,,,,,,,,,,,,
611843,1616768760818,,,21,,,0.16,0.65,-0.02,24,21,-7,0.67,0,45.84631,5.180038,38.1,726.8,6,2,4.1,0,0.0,-1,0.0,0.0,0.0,0,2.39,10.1974
611883,1616768760858,,,20,,,0.22,0.75,-0.04,25,6,1,0.78,0,,,,,,,,,,,,,,,,
611923,1616768760898,,,22,,,0.07,0.81,-0.01,25,7,-1,0.81,0,,,,,,,,,,,,,,,,
611963,1616768760938,,,21,,,0.17,0.83,-0.03,26,2,6,0.85,0,,,,,,,,,,,,,,,,
612003,1616768760978,,,21,,,0.26,0.72,-0.0,26,21,-4,0.77,0,,,,,,,,,,,,,,,,
612043,1616768761013,302,161,18,0.18,13.38,0.06,0.77,-0.38,26,-1,6,0.77,0,45.846287,5.180056,36.05,726.9,6,2,2.5,0,0.0,-1,0.0,0.0,0.0,0,2.39,10.2007
612083,1616768761053,,,21,,,0.27,0.79,0.07,27,25,-10,0.83,0,,,,,,,,,,,,,,,,
612123,1616768761095,,,20,,,0.32,0.84,0.02,28,14,-1,0.9,0,,,,,,,,,,,,,,,,
612163,1616768761135,,,21,,,0.06,0.79,0.04,28,5,-2,0.79,0,,,,,,,,,,,,,,,,
612203,1616768761175,,,20,,,0.32,0.78,0.21,28,14,-6,0.84,0,,,,,,,,,,,,,,,,
612243,1616768761217,,,21,,,0.09,0.81,-0.21,28,-8,7,0.81,0,45.846256,5.180076,31.79,726.8,6,2,2.5,0,0.0,-1,0.0,0.0,0.0,0,2.39,10.2041
612283,1616768761257,,,22,,,0.11,0.77,-0.15,28,2,7,0.77,0,,,,,,,,,,,,,,,,
612323,1616768761297,,,22,,,0.4,0.71,0.26,28,26,-7,0.81,0,,,,,,,,,,,,,,,,
612363,1616768761337,,,20,,,0.51,0.78,0.59,29,33,-9,0.93,0,,,,,,,,,,,,,,,,
612403,1616768761377,,,21,,,0.5,0.82,0.11,29,26,-4,0.96,0,,,,,,,,,,,,,,,,
612443,1616768761419,,,21,,,0.33,0.82,-0.29,30,9,5,0.89,0,45.84623,5.180089,31.66,726.2,6,2,2.5,0,0.0,-1,0.0,0.0,0.0,0,2.39,10.2074
612483,1616768761459,,,20,,,0.15,0.84,-0.62,30,-5,13,0.85,0,,,,,,,,,,,,,,,,
612523,1616768761499,,,21,,,0.06,0.91,-0.88,31,-13,17,0.91,0,,,,,,,,,,,,,,,,
612563,1616768761539,,,20,,,-0.12,0.86,-1.09,31,-28,24,0.87,0,,,,,,,,,,,,,,,,
612603,1616768761579,,,20,,,-0.07,0.87,-0.87,31,-31,27,0.88,0,,,,,,,,,,,,,,,,
612643,1616768761619,,,21,,,0.12,0.9,-0.32,32,-28,25,0.9,0,45.846199,5.180099,32.35,726.5,6,2,2.5,0,0.0,-1,0.0,0.0,0.0,0,2.39,10.2107
612683,1616768761659,,,20,,,0.23,0.8,0.12,33,-18,20,0.83,0,,,,,,,,,,,,,,,,
612723,1616768761699,,,21,,,0.28,0.82,0.47,33,-7,10,0.87,0,,,,,,,,,,,,,,,,
612763,1616768761739,,,20,,,0.21,0.75,0.21,33,1,6,0.78,0,,,,,,,,,,,,,,,,
612803,1616768761779,,,20,,,0.11,0.68,-0.21,34,-5,7,0.68,0,,,,,,,,,,,,,,,,
612843,1616768761819,,,21,,,0.12,0.79,-0.15,34,-12,11,0.8,0,45.846168,5.180105,33.3,726.5,6,2,2.5,0,0.0,-1,0.0,0.0,0.0,0,2.4,10.2141
612883,1616768761859,,,21,,,0.26,0.82,0.25,34,-3,6,0.86,0,,,,,,,,,,,,,,,,
612923,1616768761897,,,21,,,0.26,0.83,0.19,34,6,-2,0.87,0,,,,,,,,,,,,,,,,
612963,1616768761937,,,21,,,0.12,0.84,-0.23,34,-4,4,0.85,0,,,,,,,,,,,,,,,,
613003,1616768761977,,,21,,,0.21,0.87,0.19,34,0,1,0.89,0,,,,,,,,,,,,,,,,
613043,1616768762010,302,157,21,0.18,13.42,0.1,0.86,0.02,34,1,1,0.87,0,45.846142,5.180105,33.37,726.6,6,2,2.5,0,0.0,-1,0.0,0.0,0.0,0,2.4,10.2174
613083,1616768762050,,,21,,,0.16,0.85,0.12,34,-2,4,0.86,0,,,,,,,,,,,,,,,,
613123,1616768762098,,,21,,,0.18,0.77,0.07,33,-0,1,0.79,0,,,,,,,,,,,,,,,,
613163,1616768762138,,,20,,,0.19,0.8,0.08,31,-5,6,0.82,0,,,,,,,,,,,,,,,,
613203,1616768762178,,,20,,,0.17,0.76,0.44,30,2,-1,0.78,0,,,,,,,,,,,,,,,,
613243,1616768762218,,,21,,,0.14,0.78,-0.02,28,-2,2,0.79,0,45.846111,5.180104,33.54,726.7,6,2,2.5,0,0.0,-1,0.0,0.0,0.0,0,2.4,10.2207
613283,1616768762258,,,22,,,0.17,0.73,0.23,27,3,-1,0.75,0,,,,,,,,,,,,,,,,
613323,1616768762298,,,21,,,0.23,0.65,0.2,25,4,-0,0.7,0,,,,,,,,,,,,,,,,
613363,1616768762338,,,22,,,0.23,0.61,0.14,24,5,0,0.65,0,,,,,,,,,,,,,,,,
613403,1616768762378,,,22,,,0.36,0.49,0.24,22,8,-3,0.61,0,,,,,,,,,,,,,,,,
613443,1616768762418,,,21,,,0.41,0.67,0.21,21,7,-1,0.78,0,45.846085,5.180102,33.22,726.7,6,2,2.5,0,0.0,-1,0.0,0.0,0.0,0,2.4,10.224
613483,1616768762458,,,21,,,0.48,0.64,0.41,20,9,-0,0.79,0,,,,,,,,,,,,,,,,
613523,1616768762498,,,22,,,0.41,0.62,0.32,20,4,0,0.74,0,,,,,,,,,,,,,,,,
613563,1616768762538,,,21,,,0.39,0.64,0.55,20,6,1,0.74,0,,,,,,,,,,,,,,,,
613603,1616768762578,,,22,,,0.44,0.64,0.47,20,4,-0,0.78,0,,,,,,,,,,,,,,,,
613643,1616768762618,,,21,,,0.4,0.58,0.4,20,5,-1,0.7,0,45.84605,5.18009,34.05,726.7,6,2,4.1,0,0.0,-1,0.0,0.0,0.0,0,2.4,10.2274
613683,1616768762658,,,21,,,0.4,0.55,0.27,21,4,1,0.68,0,,,,,,,,,,,,,,,,
613723,1616768762698,,,22,,,0.4,0.59,0.56,21,-1,1,0.71,0,,,,,,,,,,,,,,,,
613763,1616768762738,,,22,,,0.4,0.64,0.47,21,3,2,0.76,0,,,,,,,,,,,,,,,,
613803,1616768762778,,,21,,,0.51,0.58,0.21,21,4,4,0.77,0,,,,,,,,,,,,,,,,
613843,1616768762820,,,22,,,0.39,0.61,0.43,21,-2,2,0.72,0,45.846027,5.180075,34.6,726.9,6,2,4.1,0,0.0,-1,0.0,0.0,0.0,0,2.41,10.2307
613883,1616768762860,,,21,,,0.21,0.6,0.32,21,-6,4,0.64,0,,,,,,,,,,,,,,,,
613923,1616768762900,,,22,,,0.26,0.6,0.3,22,2,3,0.66,0,,,,,,,,,,,,,,,,
613963,1616768762940,,,22,,,0.53,0.58,0.42,22,5,1,0.79,0,,,,,,,,,,,,,,,,
614003,1616768762980,,,22,,,0.44,0.56,0.24,22,-3,4,0.71,0,,,,,,,,,,,,,,,,
614043,1616768763015,302,153,22,0.17,13.49,0.25,0.62,0.21,21,-8,8,0.67,0,45.845997,5.180053,36.13,727.0,6,2,4.1,0,0.0,-1,0.0,0.0,0.0,0,2.41,10.234
614083,1616768763055,,,21,,,0.34,0.59,0.55,20,8,-3,0.68,0,,,,,,,,,,,,,,,,
614123,1616768763099,,,21,,,0.61,0.61,0.77,20,21,-5,0.86,0,,,,,,,,,,,,,,,,
614163,1616768763139,,,20,,,0.23,0.63,0.24,20,-7,8,0.67,0,,,,,,,,,,,,,,,,
614203,1616768763179,,,22,,,0.31,0.54,0.34,18,11,-4,0.62,0,,,,,,,,,,,,,,,,
614243,1616768763219,,,21,,,0.39,0.64,0.25,17,4,0,0.75,0,45.84597,5.18003,38.44,726.9,6,2,4.1,0,0.0,-1,0.0,0.0,0.0,0,2.41,10.2374
614283,1616768763259,,,22,,,0.22,0.56,0.22,16,2,-0,0.6,0,,,,,,,,,,,,,,,,
614323,1616768763299,,,21,,,0.48,0.6,0.16,16,15,-5,0.77,0,,,,,,,,,,,,,,,,
614363,1616768763339,,,20,,,0.02,0.5,-0.25,15,-15,11,0.5,0,,,,,,,,,,,,,,,,
614403,1616768763379,,,23,,,0.25,0.49,0.18,14,6,-5,0.55,0,,,,,,,,,,,,,,,,
614443,1616768763419,,,20,,,0.38,0.56,0.12,13,12,-4,0.67,0,45.84594,5.180005,40.3,727.0,6,2,2.1,0,0.0,-1,0.0,0.0,0.0,0,2.41,10.2407
614483,1616768763459,,,20,,,-0.02,0.42,-0.28,13,-10,8,0.42,0,,,,,,,,,,,,,,,,
614523,1616768763499,,,22,,,0.12,0.43,0.15,12,7,-3,0.44,0,,,,,,,,,,,,,,,,
614563,1616768763539,,,22,,,0.42,0.47,0.5,13,28,-15,0.63,0,,,,,,,,,,,,,,,,
614603,1616768763579,,,21,,,0.61,0.49,0.39,13,5,-1,0.79,0,,,,,,,,,,,,,,,,
614643,1616768763619,,,22,,,0.38,0.42,-0.07,12,-13,7,0.56,0,45.845917,5.17997,39.35,726.9,6,2,4.1,0,0.0,-1,0.0,0.0,0.0,0,2.41,10.2441
614683,1616768763659,,,22,,,0.29,0.44,-0.04,12,14,-7,0.52,0,,,,,,,,,,,,,,,,
614723,1616768763699,,,21,,,0.34,0.49,-0.05,13,-7,3,0.6,0,,,,,,,,,,,,,,,,
614763,1616768763739,,,21,,,-0.0,0.34,-0.42,13,8,-6,0.34,0,,,,,,,,,,,,,,,,
614803,1616768763779,,,20,,,0.13,0.3,-0.36,14,-6,7,0.33,0,,,,,,,,,,,,,,,,
614843,1616768763819,,,21,,,0.13,0.41,-0.27,13,4,2,0.43,0,45.845898,5.179933,39.23,726.8,6,2,4.1,0,0.0,-1,0.0,0.0,0.0,0,2.42,10.2474
614883,1616768763859,,,22,,,-0.11,0.41,-0.6,13,1,7,0.42,0,,,,,,,,,,,,,,,,
614923,1616768763899,,,22,,,-0.18,0.38,-0.63,13,2,3,0.42,0,,,,,,,,,,,,,,,,
614963,1616768763939,,,22,,,-0.18,0.4,-0.53,13,3,2,0.44,0,,,,,,,,,,,,,,,,
615003,1616768763979,,,22,,,-0.11,0.32,-0.45,14,7,-2,0.34,0,,,,,,,,,,,,,,,,
615043,1616768764014,302,157,22,0.18,13.52,-0.01,0.48,-0.34,14,4,1,0.48,0,45.845875,5.179893,39.66,726.5,6,2,4.1,0,0.0,-1,0.0,0.0,0.0,0,2.42,10.2507
615083,1616768764054,,,22,,,-0.12,0.57,-0.26,14,-5,5,0.58,0,,,,,,,,,,,,,,,,
615123,1616768764100,,,21,,,-0.17,0.52,-0.23,14,5,-0,0.55,0,,,,,,,,,,,,,,,,
615163,1616768764140,,,22,,,-0.4,0.53,-0.57,13,1,1,0.67,0,,,,,,,,,,,,,,,,
615203,1616768764180,,,21,,,-0.64,0.6,-0.84,14,-6,1,0.87,0,,,,,,,,,,,,,,,,
615243,1616768764218,,,21,,,-0.82,0.54,-1.06,14,-17,4,0.98,0,45.845852,5.179853,40.03,726.4,6,2,4.1,0,0.0,-1,0.0,0.0,0.0,0,2.42,10.2541
615283,1616768764258,,,21,,,-0.72,0.53,-1.06,14,-26,7,0.9,0,,,,,,,,,,,,,,,,
615323,1616768764298,,,22,,,-0.53,0.58,-0.48,14,-17,5,0.79,0,,,,,,,,,,,,,,,,
615363,1616768764338,,,22,,,-0.51,0.55,-0.01,14,-1,1,0.74,0,,,,,,,,,,,,,,,,
615403,1616768764378,,,21,,,-0.73,0.57,-0.02,15,9,-4,0.92,0,,,,,,,,,,,,,,,,
615443,1616768764418,,,21,,,-0.73,0.56,0.01,15,4,-3,0.92,0,45.845833,5.179816,39.37,726.4,6,2,4.1,0,0.0,-1,0.0,0.0,0.0,0,2.42,10.2574
615483,1616768764458,,,22,,,-0.63,0.68,0.03,15,5,-4,0.92,0,,,,,,,,,,,,,,,,
615523,1616768764500,,,22,,,-0.56,0.61,0.04,15,9,-5,0.83,0,,,,,,,,,,,,,,,,
615563,1616768764540,,,21,,,-0.25,0.64,0.01,16,1,1,0.69,0,,,,,,,,,,,,,,,,
615603,1616768764580,,,21,,,-0.36,0.66,-0.37,16,-16,12,0.76,0,,,,,,,,,,,,,,,,
615643,1616768764618,,,21,,,-0.4,0.59,-0.68,17,-27,18,0.71,0,45.845814,5.179775,38.57,726.7,6,2,4.1,0,0.0,-1,0.0,0.0,0.0,0,2.43,10.2607
615683,1616768764658,,,20,,,-0.35,0.66,-0.93,16,-35,21,0.75,0,,,,,,,,,,,,,,,,
615723,1616768764700,,,19,,,-0.51,0.56,-1.14,16,-50,29,0.76,0,,,,,,,,,,,,,,,,
615763,1616768764740,,,20,,,-0.25,0.48,-0.54,15,-25,12,0.54,0,,,,,,,,,,,,,,,,
615803,1616768764780,,,20,,,-0.33,0.41,-0.82,14,-46,23,0.53,0,,,,,,,,,,,,,,,,
615843,1616768764820,,,20,,,0.02,0.47,-0.28,14,-14,7,0.47,0,45.845795,5.179737,38.17,726.5,6,2,4.1,0,0.0,-1,0.0,0.0,0.0,0,2.43,10.264
615883,1616768764860,,,21,,,-0.26,0.45,-0.61,14,-24,14,0.52,0,,,,,,,,,,,,,,,,
615923,1616768764900,,,20,,,0.06,0.48,-0.46,15,-3,4,0.48,0,,,,,,,,,,,,,,,,
615963,1616768764940,,,21,,,-0.18,0.51,-0.36,14,-11,6,0.54,0,,,,,,,,,,,,,,,,
616003,1616768764980,,,21,,,-0.16,0.56,-0.31,14,-20,11,0.59,0,,,,,,,,,,,,,,,,
616043,1616768765015,302,158,21,0.18,13.26,-0.07,0.56,0.13,15,-2,2,0.57,0,45.845776,5.1797,37.2,726.4,6,2,4.5,0,0.0,-1,0.0,0.0,0.0,0,2.43,10.2674
616083,1616768765055,,,21,,,-0.18,0.62,0.12,15,-4,3,0.65,0,,,,,,,,,,,,,,,,
616123,1616768765101,,,20,,,-0.29,0.62,-0.07,16,-13,9,0.68,0,,,,,,,,,,,,,,,,
616163,1616768765141,,,22,,,-0.25,0.48,-0.07,17,-10,7,0.54,0,,,,,,,,,,,,,,,,
616203,1616768765181,,,21,,,-0.2,0.53,-0.08,17,-7,6,0.57,0,,,,,,,,,,,,,,,,
616243,1616768765221,,,21,,,-0.07,0.52,0.08,18,-4,4,0.53,0,45.845764,5.179664,35.98,726.2,6,2,4.5,0,0.0,-1,0.0,0.0,0.0,0,2.43,10.2707
616283,1616768765261,,,22,,,-0.24,0.49,-0.11,18,-6,5,0.55,0,,,,,,,,,,,,,,,,
616323,1616768765301,,,21,,,-0.2,0.54,0.24,19,-1,2,0.58,0,,,,,,,,,,,,,,,,
616363,1616768765341,,,22,,,-0.26,0.51,0.21,19,-4,1,0.57,0,,,,,,,,,,,,,,,,
616403,1616768765381,,,21,,,-0.2,0.51,0.36,19,0,-1,0.55,0,,,,,,,,,,,,,,,,
616443,1616768765421,,,22,,,-0.34,0.41,0.05,18,-3,2,0.53,0,45.845753,5.179628,34.76,726.1,6,2,4.5,0,0.0,-1,0.0,0.0,0.0,0,2.43,10.274
616483,1616768765461,,,22,,,-0.24,0.4,0.21,17,-1,0,0.46,0,,,,,,,,,,,,,,,,
616523,1616768765501,,,21,,,-0.36,0.43,0.15,16,2,-1,0.56,0,,,,,,,,,,,,,,,,
616563,1616768765541,,,22,,,-0.52,0.36,-0.26,15,-6,2,0.63,0,,,,,,,,,,,,,,,,
616603,1616768765581,,,20,,,-0.42,0.34,-0.59,13,-20,8,0.54,0,,,,,,,,,,,,,,,,
616643,1616768765621,,,22,,,-0.34,0.27,-0.67,12,-34,13,0.43,0,45.845741,5.179592,33.29,726.1,6,2,4.5,0,0.0,-1,0.0,0.0,0.0,0,2.44,10.2774
616683,1616768765661,,,21,,,-0.34,0.29,-0.88,11,-50,18,0.45,0,,,,,,,,,,,,,,,,
616723,1616768765699,,,21,,,-0.6,0.17,-1.1,10,-57,20,0.63,0,,,,,,,,,,,,,,,,
616763,1616768765739,,,22,,,-0.86,0.2,-1.27,10,-47,16,0.88,0,,,,,,,,,,,,,,,,
616803,1616768765779,,,22,,,-1.04,0.25,-1.39,9,-23,7,1.07,0,,,,,,,,,,,,,,,,
616843,1616768765821,,,22,,,-1.01,0.26,-0.74,9,1,-2,1.04,0,45.845734,5.179554,33.33,726.2,6,2,4.5,0,0.0,-1,0.0,0.0,0.0,0,2.44,10.2807
616883,1616768765861,,,22,,,-0.52,0.38,-0.22,9,14,-2,0.64,0,,,,,,,,,,,,,,,,
616923,1616768765901,,,20,,,-0.43,0.32,-0.2,9,12,-2,0.54,0,,,,,,,,,,,,,,,,
616963,1616768765941,,,21,,,-0.32,0.33,0.03,8,5,-0,0.46,0,,,,,,,,,,,,,,,,
617003,1616768765981,,,21,,,-0.32,0.37,0.04,8,-1,3,0.5,0,,,,,,,,,,,,,,,,
617043,1616768766016,302,153,22,0.18,13.44,-0.25,0.27,-0.03,8,0,4,0.37,0,45.845734,5.179515,31.37,726.3,6,2,4.5,0,0.0,-1,0.0,0.0,0.0,0,2.44,10.284
617083,1616768766056,,,22,,,-0.22,0.3,0.1,8,1,1,0.37,0,,,,,,,,,,,,,,,,
617123,1616768766100,,,21,,,-0.15,0.35,0.1,8,3,-0,0.38,0,,,,,,,,,,,,,,,,
617163,1616768766140,,,22,,,-0.16,0.32,-0.13,9,-0,4,0.36,0,,,,,,,,,,,,,,,,
617203,1616768766180,,,20,,,-0.01,0.39,0.27,9,5,1,0.39,0,,,,,,,,,,,,,,,,
617243,1616768766220,,,20,,,0.2,0.38,0.6,10,4,3,0.43,0,45.845726,5.179479,29.95,726.3,6,2,4.5,0,0.0,-1,0.0,0.0,0.0,0,2.44,10.2874
617283,1616768766260,,,20,,,0.05,0.29,0.11,11,-22,17,0.3,0,,,,,,,,,,,,,,,,
617323,1616768766300,,,22,,,-0.09,0.32,0.11,11,-0,-0,0.34,0,,,,,,,,,,,,,,,,
617363,1616768766340,,,21,,,0.1,0.34,0.06,11,-9,7,0.35,0,,,,,,,,,,,,,,,,
617403,1616768766380,,,21,,,-0.11,0.31,0.07,11,5,-3,0.33,0,,,,,,,,,,,,,,,,
617443,1616768766420,,,21,,,0.16,0.29,0.44,12,24,-15,0.33,0,45.845722,5.179443,28.71,726.3,6,2,4.5,0,0.0,-1,0.0,0.0,0.0,0,2.44,10.2907
617483,1616768766460,,,20,,,0.35,0.31,0.73,12,29,-13,0.47,0,,,,,,,,,,,,,,,,
617523,1616768766500,,,21,,,0.35,0.4,0.57,12,17,-5,0.54,0,,,,,,,,,,,,,,,,
617563,1616768766540,,,21,,,0.09,0.32,0.08,12,-10,8,0.33,0,,,,,,,,,,,,,,,,
617603,1616768766580,,,22,,,-0.08,0.25,0.09,11,3,0,0.26,0,,,,,,,,,,,,,,,,
617643,1616768766622,,,21,,,0.16,0.3,0.45,11,17,-4,0.34,0,45.845722,5.17941,27.98,726.4,6,2,4.5,0,0.0,-1,0.0,0.0,0.0,0,2.44,10.2941
617683,1616768766662,,,20,,,-0.03,0.22,-0.02,11,-9,10,0.22,0,,,,,,,,,,,,,,,,
617723,1616768766702,,,22,,,-0.18,0.23,0.01,11,5,-6,0.3,0,,,,,,,,,,,,,,,,
617763,1616768766742,,,20,,,-0.06,0.25,-0.02,12,-7,5,0.26,0,,,,,,,,,,,,,,,,
617803,1616768766782,,,22,,,-0.08,0.29,0.01,12,11,-5,0.3,0,,,,,,,,,,,,,,,,
617843,1616768766820,,,19,,,-0.11,0.35,-0.02,13,-8,6,0.37,0,45.845722,5.179382,26.96,726.2,6,2,4.5,0,0.0,-1,0.0,0.0,0.0,0,2.45,10.2974
617883,1616768766860,,,21,,,-0.13,0.34,0.01,13,10,-4,0.37,0,,,,,,,,,,,,,,,,
617923,1616768766900,,,21,,,0.02,0.44,-0.02,14,-0,5,0.44,0,,,,,,,,,,,,,,,,
617963,1616768766940,,,22,,,-0.14,0.43,0.01,15,-2,4,0.45,0,,,,,,,,,,,,,,,,
618003,1616768766980,,,21,,,0.18,0.44,0.38,16,23,-8,0.47,0,,,,,,,,,,,,,,,,
618043,1616768767015,302,155,21,0.18,13.41,0.3,0.52,0.69,18,27,-10,0.6,0,45.845726,5.179351,25.62,726.1,6,2,6.3,0,0.0,-1,0.0,0.0,0.0,0,2.45,10.3007
618083,1616768767055,,,22,,,0.3,0.43,0.92,20,24,-10,0.53,0,,,,,,,,,,,,,,,,
618123,1616768767099,,,22,,,0.29,0.41,0.77,21,19,-10,0.5,0,,,,,,,,,,,,,,,,
618163,1616768767139,,,22,,,0.4,0.45,1.0,22,36,-22,0.6,0,,,,,,,,,,,,,,,,
618203,1616768767179,,,21,,,0.59,0.51,0.79,23,43,-21,0.77,0,,,,,,,,,,,,,,,,
618243,1616768767219,,,20,,,0.46,0.56,0.26,24,28,-11,0.72,0,45.845734,5.179324,25.48,726.2,6,2,6.3,0,0.0,-1,0.0,0.0,0.0,0,2.45,10.3041
618283,1616768767259,,,20,,,0.54,0.63,0.59,25,28,-13,0.83,0,,,,,,,,,,,,,,,,
618323,1616768767301,,,21,,,0.46,0.55,0.57,26,22,-10,0.72,0,,,,,,,,,,,,,,,,
618363,1616768767341,,,20,,,0.31,0.63,0.08,28,8,-2,0.7,0,,,,,,,,,,,,,,,,
618403,1616768767381,,,21,,,0.29,0.8,0.09,30,7,-1,0.85,0,,,,,,,,,,,,,,,,
618443,1616768767419,,,21,,,0.32,0.72,0.45,33,14,-5,0.79,0,45.845737,5.179297,25.69,726.2,6,2,6.3,0,0.0,-1,0.0,0.0,0.0,0,2.45,10.3074
618483,1616768767459,,,21,,,0.28,0.76,0.34,35,16,-9,0.81,0,,,,,,,,,,,,,,,,
618523,1616768767501,,,20,,,0.18,0.91,-0.1,37,6,-3,0.93,0,,,,,,,,,,,,,,,,
618563,1616768767541,,,20,,,0.22,0.94,0.17,38,0,2,0.97,0,,,,,,,,,,,,,,,,
618603,1616768767581,,,20,,,0.32,0.9,0.51,40,5,3,0.95,0,,,,,,,,,,,,,,,,
618643,1616768767621,,,20,,,0.34,0.89,0.8,42,7,4,0.95,0,45.845749,5.179273,25.34,726.1,6,2,6.3,0,0.0,-1,0.0,0.0,0.0,0,2.45,10.3107
618683,1616768767661,,,19,,,0.48,0.79,1.02,42,1,8,0.93,0,,,,,,,,,,,,,,,,
618723,1616768767701,,,20,,,0.58,0.91,1.21,43,-2,11,1.08,0,,,,,,,,,,,,,,,,
618763,1616768767741,,,20,,,0.6,0.82,1.36,43,2,9,1.02,0,,,,,,,,,,,,,,,,
618803,1616768767781,,,20,,,0.5,0.73,0.88,42,1,8,0.89,0,,,,,,,,,,,,,,,,
618843,1616768767821,,,20,,,0.48,0.72,0.76,41,-3,8,0.87,0,45.845756,5.179244,26.04,726.0,6,2,6.3,0,0.0,-1,0.0,0.0,0.0,0,2.45,10.314
618883,1616768767861,,,21,,,0.37,0.8,0.59,39,-2,5,0.88,0,,,,,,,,,,,,,,,,
618923,1616768767901,,,21,,,0.43,0.79,0.86,38,4,1,0.9,0,,,,,,,,,,,,,,,,
618963,1616768767941,,,21,,,0.49,0.83,0.71,37,3,2,0.96,0,,,,,,,,,,,,,,,,
619003,1616768767981,,,20,,,0.45,0.82,0.56,36,3,2,0.93,0,,,,,,,,,,,,,,,,
619043,1616768768012,302,155,21,0.18,13.46,0.48,0.79,0.43,35,6,-0,0.92,0,45.845764,5.179214,26.31,726.0,6,2,2.5,0,0.0,-1,0.0,0.0,0.0,0,2.45,10.3174
619083,1616768768052,,,20,,,0.39,0.74,0.49,35,3,0,0.83,0,,,,,,,,,,,,,,,,
619123,1616768768100,,,21,,,0.48,0.7,0.38,35,3,2,0.85,0,,,,,,,,,,,,,,,,
619163,1616768768140,,,21,,,0.48,0.73,0.55,35,-4,0,0.88,0,,,,,,,,,,,,,,,,
619203,1616768768180,,,21,,,0.36,0.74,0.41,35,-1,1,0.83,0,,,,,,,,,,,,,,,,
619243,1616768768218,,,21,,,0.54,0.81,0.7,36,6,-1,0.97,0,45.845776,5.179187,26.25,726.2,6,2,2.5,0,0.0,-1,0.0,0.0,0.0,0,2.46,10.3207
619283,1616768768258,,,20,,,0.56,0.79,0.19,36,-0,3,0.97,0,,,,,,,,,,,,,,,,
619323,1616768768298,,,21,,,0.43,0.67,0.04,37,-9,3,0.8,0,,,,,,,,,,,,,,,,
619363,1616768768338,,,21,,,0.27,0.76,0.41,36,-15,2,0.81,0,,,,,,,,,,,,,,,,
619403,1616768768378,,,21,,,0.15,0.77,0.71,35,-14,1,0.79,0,,,,,,,,,,,,,,,,
619443,1616768768418,,,22,,,0.11,0.78,0.96,33,-12,1,0.79,0,45.845791,5.17916,26.59,726.7,6,2,2.5,0,0.0,-1,0.0,0.0,0.0,0,2.46,10.324
619483,1616768768458,,,21,,,0.11,0.74,1.15,30,-8,1,0.75,0,,,,,,,,,,,,,,,,
619523,1616768768498,,,22,,,0.0,0.67,0.73,27,-9,2,0.67,0,,,,,,,,,,,,,,,,
619563,1616768768538,,,21,,,0.19,0.62,0.69,23,-9,3,0.64,0,,,,,,,,,,,,,,,,
619603,1616768768578,,,21,,,0.29,0.44,0.58,19,-4,-1,0.52,0,,,,,,,,,,,,,,,,
619643,1616768768618,,,21,,,0.3,0.42,0.45,17,-7,5,0.51,0,45.845802,5.179132,27.6,726.4,6,2,2.5,0,0.0,-1,0.0,0.0,0.0,0,2.46,10.3274
619683,1616768768658,,,21,,,0.25,0.46,-0.02,15,-6,7,0.52,0,,,,,,,,,,,,,,,,
619723,1616768768700,,,22,,,0.32,0.46,-0.39,15,-14,13,0.56,0,,,,,,,,,,,,,,,,
619763,1616768768740,,,22,,,0.48,0.46,-0.3,15,-13,14,0.66,0,,,,,,,,,,,,,,,,
619803,1616768768780,,,21,,,0.54,0.37,-0.26,16,-13,15,0.66,0,,,,,,,,,,,,,,,,
619843,1616768768818,,,22,,,0.55,0.33,-0.19,16,-12,14,0.64,0,45.845821,5.179113,28.58,726.1,6,2,2.5,0,0.0,-1,0.0,0.0,0.0,0,2.46,10.3307
619883,1616768768858,,,22,,,0.54,0.44,-0.34,15,-15,15,0.7,0,,,,,,,,,,,,,,,,
619923,1616768768900,,,22,,,0.5,0.42,-0.34,14,-12,13,0.65,0,,,,,,,,,,,,,,,,
619963,1616768768940,,,21,,,0.52,0.56,-0.26,12,-7,8,0.76,0,,,,,,,,,,,,,,,,
620003,1616768768980,,,21,,,0.51,0.51,-0.38,11,-11,12,0.72,0,,,,,,,,,,,,,,,,
620043,1616768769013,302,143,22,0.18,13.44,0.53,0.34,0.07,9,-4,5,0.63,0,45.845844,5.179093,30.32,726.1,6,2,2.5,0,0.0,-1,0.0,0.0,0.0,0,2.46,10.3341
620083,1616768769053,,,22,,,0.45,0.17,0.37,7,1,0,0.48,0,,,,,,,,,,,,,,,,
620123,1616768769097,,,21,,,0.21,0.15,-0.04,6,-2,5,0.26,0,,,,,,,,,,,,,,,,
620163,1616768769137,,,21,,,0.19,0.11,0.35,4,2,-0,0.22,0,,,,,,,,,,,,,,,,
620203,1616768769177,,,21,,,-0.11,0.12,-0.1,4,-3,3,0.16,0,,,,,,,,,,,,,,,,
620243,1616768769219,,,20,,,-0.13,0.12,0.27,4,-4,2,0.17,0,45.845867,5.179077,31.48,726.2,6,2,2.5,0,0.0,-1,0.0,0.0,0.0,0,2.46,10.3374
620283,1616768769259,,,21,,,-0.21,0.19,0.53,4,-3,2,0.29,0,,,,,,,,,,,,,,,,
620323,1616768769297,,,20,,,-0.21,0.17,0.67,5,-3,2,0.27,0,,,,,,,,,,,,,,,,
620363,1616768769337,,,20,,,-0.37,0.13,0.62,6,-5,3,0.39,0,,,,,,,,,,,,,,,,
620403,1616768769377,,,21,,,-0.48,0.18,0.85,7,-5,2,0.51,0,,,,,,,,,,,,,,,,
620443,1616768769419,,,20,,,-0.51,0.1,0.71,8,-0,-1,0.52,0,45.84589,5.179061,32.77,726.2,6,2,2.5,0,0.0,-1,0.0,0.0,0.0,0,2.47,10.3407
620483,1616768769459,,,20,,,-0.41,0.1,0.59,9,-3,1,0.42,0,,,,,,,,,,,,,,,,
620523,1616768769499,,,21,,,-0.6,0.06,0.26,9,3,-5,0.6,0,,,,,,,,,,,,,,,,
620563,1616768769539,,,21,,,-0.74,0.08,-0.17,9,-1,-1,0.75,0,,,,,,,,,,,,,,,,
620603,1616768769579,,,21,,,-0.66,0.23,0.14,9,-18,9,0.7,0,,,,,,,,,,,,,,,,
620643,1616768769619,,,19,,,-0.8,0.27,-0.27,9,-30,17,0.85,0,45.845913,5.179046,33.51,726.5,6,2,2.5,0,0.0,-1,0.0,0.0,0.0,0,2.47,10.3441
620683,1616768769659,,,21,,,-0.9,0.13,-0.6,8,-10,6,0.91,0,,,,,,,,,,,,,,,,
620723,1616768769699,,,20,,,-0.64,0.2,-0.11,7,-3,2,0.67,0,,,,,,,,,,,,,,,,
620763,1616768769739,,,21,,,-0.86,0.15,-0.47,6,-5,2,0.87,0,,,,,,,,,,,,,,,,
620803,1616768769779,,,21,,,-0.63,0.11,-0.4,5,-14,11,0.64,0,,,,,,,,,,,,,,,,
620843,1616768769819,,,21,,,-0.48,0.09,-0.3,4,1,5,0.49,0,45.84594,5.179032,33.54,726.5,6,2,2.5,0,0.0,-1,0.0,0.0,0.0,0,2.47,10.3474
620883,1616768769859,,,21,,,-0.43,0.06,-0.23,3,-2,6,0.43,0,,,,,,,,,,,,,,,,
620923,1616768769899,,,20,,,-0.45,0.03,-0.16,2,-5,7,0.45,0,,,,,,,,,,,,,,,,
620963,1616768769939,,,19,,,-0.46,0.13,0.21,2,-1,4,0.48,0,,,,,,,,,,,,,,,,
621003,1616768769979,,,21,,,-0.69,0.09,-0.09,2,7,2,0.7,0,,,,,,,,,,,,,,,,
621043,1616768770014,299,157,21,0.18,13.41,-0.77,0.03,-0.46,1,-5,4,0.77,0,45.845962,5.179018,32.45,726.9,6,2,2.5,0,0.0,-1,0.0,0.0,0.0,0,2.47,10.3507
621083,1616768770054,,,20,,,-0.96,-0.04,-0.75,1,-23,9,0.96,0,,,,,,,,,,,,,,,,
621123,1616768770098,,,21,,,-1.15,-0.06,-0.99,0,-21,9,1.15,0,,,,,,,,,,,,,,,,
621163,1616768770138,,,20,,,-0.92,-0.03,-0.52,0,-13,5,0.92,0,,,,,,,,,,,,,,,,
621203,1616768770178,,,21,,,-0.96,-0.02,-0.13,0,-6,3,0.96,0,,,,,,,,,,,,,,,,
621243,1616768770218,,,22,,,-0.97,-0.06,-0.16,0,-6,3,0.97,0,45.845989,5.179008,31.15,726.8,6,2,2.5,0,0.0,-1,0.0,0.0,0.0,0,2.47,10.354
621283,1616768770258,,,21,,,-0.85,-0.09,0.06,-0,-7,2,0.86,0,,,,,,,,,,,,,,,,
621323,1616768770298,,,21,,,-0.68,-0.14,0.3,-2,-6,2,0.69,0,,,,,,,,,,,,,,,,
621363,1616768770338,,,21,,,-0.52,-0.23,0.37,-3,-4,1,0.56,0,,,,,,,,,,,,,,,,
621403,1616768770378,,,21,,,-0.6,-0.3,0.11,-6,-12,2,0.67,0,,,,,,,,,,,,,,,,
621443,1616768770418,,,21,,,-0.44,-0.34,0.23,-9,-2,-1,0.55,0,45.846008,5.178996,29.65,727.0,6,2,2.5,0,0.0,-1,0.0,0.0,0.0,0,2.47,10.3574
621483,1616768770458,,,20,,,-0.48,-0.43,0.48,-13,-7,-1,0.64,0,,,,,,,,,,,,,,,,
621523,1616768770498,,,21,,,-0.24,-0.44,0.66,-16,-3,-1,0.5,0,,,,,,,,,,,,,,,,
621563,1616768770538,,,20,,,-0.48,-0.45,0.76,-19,3,-3,0.66,0,,,,,,,,,,,,,,,,
621603,1616768770578,,,21,,,-0.5,-0.47,0.92,-22,-11,-0,0.68,0,,,,,,,,,,,,,,,,
621643,1616768770618,,,21,,,-0.06,-0.43,0.88,-24,-3,-3,0.43,0,45.846031,5.178987,27.39,727.4,6,2,2.5,0,0.0,-1,0.0,0.0,0.0,0,2.48,10.3607
621683,1616768770658,,,22,,,0.15,-0.45,0.65,-26,16,-4,0.47,0,,,,,,,,,,,,,,,,
621723,1616768770700,,,21,,,-0.17,-0.44,0.91,-28,16,-5,0.47,0,,,,,,,,,,,,,,,,
621763,1616768770740,,,20,,,-0.51,-0.41,1.11,-29,-9,-3,0.66,0,,,,,,,,,,,,,,,,
621803,1616768770780,,,20,,,-0.6,-0.32,1.15,-28,-38,2,0.68,0,,,,,,,,,,,,,,,,
621843,1616768770818,,,21,,,-0.1,-0.2,0.65,-25,-26,3,0.22,0,45.846046,5.178974,24.01,728.0,6,2,2.5,0,0.0,-1,0.0,0.0,0.0,0,2.48,10.364
621883,1616768770858,,,21,,,0.04,-0.07,0.41,-20,-3,0,0.08,0,,,,,,,,,,,,,,,,
621923,1616768770900,,,20,,,-0.15,0.09,0.47,-14,-7,2,0.18,0,,,,,,,,,,,,,,,,
621963,1616768770940,,,19,,,0.06,0.26,0.73,-6,-9,2,0.27,0,,,,,,,,,,,,,,,,
622003,1616768770980,,,20,,,0.22,0.38,0.59,2,4,2,0.44,0,,,,,,,,,,,,,,,,
622043,1616768771011,302,158,20,0.18,13.74,-0.05,0.47,0.61,11,1,2,0.47,0,45.846062,5.178964,22.31,728.2,6,2,2.5,0,0.0,-1,0.0,0.0,0.0,0,2.48,10.3674
622083,1616768771051,,,20,,,-0.28,0.6,0.58,20,-15,5,0.66,0,,,,,,,,,,,,,,,,
622123,1616768771099,,,20,,,-0.0,0.65,0.44,27,-15,6,0.65,0,,,,,,,,,,,,,,,,
622163,1616768771139,,,20,,,0.39,0.69,-0.02,35,7,4,0.79,0,,,,,,,,,,,,,,,,
622203,1616768771179,,,20,,,0.6,0.75,-0.13,41,27,3,0.96,0,,,,,,,,,,,,,,,,
622243,1616768771217,,,19,,,0.32,0.82,0.27,47,25,2,0.88,0,45.846073,5.178956,20.23,728.3,6,2,2.5,0,0.0,-1,0.0,0.0,0.0,0,2.48,10.3707
622283,1616768771257,,,20,,,-0.11,0.84,0.53,52,7,3,0.85,0,,,,,,,,,,,,,,,,
622323,1616768771297,,,20,,,-0.18,0.85,0.59,56,-4,5,0.87,0,,,,,,,,,,,,,,,,
622363,1616768771337,,,20,,,-0.07,0.88,0.82,60,1,3,0.88,0,,,,,,,,,,,,,,,,
622403,1616768771377,,,20,,,0.04,0.9,0.8,64,-4,5,0.9,0,,,,,,,,,,,,,,,,
622443,1616768771419,,,20,,,-0.02,0.95,0.91,67,-1,4,0.95,0,45.846088,5.178945,19.49,728.5,6,2,2.5,0,0.0,-1,0.0,0.0,0.0,0,2.48,10.3741
622483,1616768771459,,,20,,,0.01,0.96,1.07,69,0,3,0.96,0,,,,,,,,,,,,,,,,
622523,1616768771499,,,19,,,-0.02,0.92,1.01,72,-2,4,0.92,0,,,,,,,,,,,,,,,,
622563,1616768771539,,,20,,,-0.09,0.94,0.88,74,-3,5,0.95,0,,,,,,,,,,,,,,,,
622603,1616768771579,,,20,,,-0.1,0.95,0.83,75,1,4,0.96,0,,,,,,,,,,,,,,,,
622643,1616768771619,,,20,,,-0.02,0.96,0.81,76,2,5,0.96,0,45.8461,5.178936,18.04,728.5,6,2,3.2,0,0.0,-1,0.0,0.0,0.0,0,2.48,10.3774
622683,1616768771659,,,20,,,-0.01,0.92,0.67,76,-1,5,0.92,0,,,,,,,,,,,,,,,,
622723,1616768771699,,,20,,,-0.06,0.81,0.7,74,-3,4,0.81,0,,,,,,,,,,,,,,,,
622763,1616768771739,,,22,,,-0.02,0.67,0.76,70,1,2,0.67,0,,,,,,,,,,,,,,,,
622803,1616768771779,,,21,,,0.21,0.5,0.79,62,0,2,0.54,0,,,,,,,,,,,,,,,,
622843,1616768771819,,,22,,,0.25,0.26,0.76,53,10,-1,0.37,0,45.846111,5.178931,17.0,728.6,6,2,3.2,0,0.0,-1,0.0,0.0,0.0,0,2.48,10.3807
622883,1616768771859,,,21,,,0.03,0.01,0.85,42,7,-2,0.04,0,,,,,,,,,,,,,,,,
622923,1616768771901,,,21,,,0.17,-0.18,0.99,30,4,-2,0.25,0,,,,,,,,,,,,,,,,
622963,1616768771941,,,21,,,-0.13,-0.3,1.07,19,8,-3,0.33,0,,,,,,,,,,,,,,,,
623003,1616768771981,,,21,,,-0.11,-0.38,1.08,7,-3,0,0.4,0,,,,,,,,,,,,,,,,
623043,1616768772012,302,151,21,0.18,13.73,-0.12,-0.46,0.88,-3,1,-2,0.48,0,45.846127,5.178932,17.18,729.1,6,2,2.5,0,0.0,-1,0.0,0.0,0.0,0,2.48,10.3841
623083,1616768772052,,,21,,,-0.24,-0.6,1.06,-13,-6,-2,0.64,0,,,,,,,,,,,,,,,,
623123,1616768772098,,,21,,,0.0,-0.66,0.99,-22,-7,-2,0.66,0,,,,,,,,,,,,,,,,
623163,1616768772138,,,22,,,-0.13,-0.74,0.95,-30,-3,-3,0.75,0,,,,,,,,,,,,,,,,
623203,1616768772178,,,21,,,-0.02,-0.81,0.83,-38,-12,-1,0.81,0,,,,,,,,,,,,,,,,
623243,1616768772220,,,22,,,-0.13,-0.84,0.55,-44,-2,-3,0.85,0,45.846142,5.178937,18.38,730.3,6,2,2.5,0,0.0,-1,0.0,0.0,0.0,0,2.48,10.3874
623283,1616768772260,,,22,,,-0.08,-0.91,0.79,-50,-6,-2,0.91,0,,,,,,,,,,,,,,,,
623323,1616768772298,,,21,,,-0.24,-0.98,0.78,-54,-7,-1,1.01,0,,,,,,,,,,,,,,,,
623363,1616768772338,,,21,,,-0.08,-0.94,0.73,-58,-3,-1,0.94,0,,,,,,,,,,,,,,,,
623403,1616768772378,,,21,,,-0.23,-1.0,0.38,-61,-5,-2,1.03,0,,,,,,,,,,,,,,,,
623443,1616768772418,,,22,,,-0.29,-0.96,0.3,-65,-3,-1,1.0,0,45.846157,5.178941,19.1,730.9,6,2,2.5,0,0.0,-1,0.0,0.0,0.0,0,2.49,10.3907
623483,1616768772458,,,21,,,-0.14,-0.96,0.44,-69,-6,1,0.97,0,,,,,,,,,,,,,,,,
623523,1616768772498,,,20,,,-0.32,-1.0,-0.01,-70,-9,0,1.05,0,,,,,,,,,,,,,,,,
623563,1616768772538,,,21,,,-0.03,-0.95,0.37,-69,4,-3,0.95,0,,,,,,,,,,,,,,,,
623603,1616768772578,,,21,,,-0.0,-0.89,0.2,-68,-8,2,0.89,0,,,,,,,,,,,,,,,,
623643,1616768772620,,,21,,,0.09,-0.79,0.23,-66,-7,1,0.8,0,45.846168,5.178942,18.65,731.7,6,2,2.5,0,0.0,-1,0.0,0.0,0.0,0,2.49,10.394
623683,1616768772660,,,21,,,0.16,-0.76,0.39,-63,-5,2,0.77,0,,,,,,,,,,,,,,,,
623723,1616768772700,,,21,,,0.15,-0.56,0.4,-56,-5,2,0.58,0,,,,,,,,,,,,,,,,
623763,1616768772740,,,21,,,0.21,-0.37,0.41,-48,-3,2,0.42,0,,,,,,,,,,,,,,,,
623803,1616768772780,,,20,,,0.39,-0.09,0.71,-37,3,1,0.4,0,,,,,,,,,,,,,,,,
623843,1616768772820,,,21,,,0.28,0.07,0.24,-26,-6,4,0.28,0,45.846184,5.178942,18.57,732.3,6,2,2.5,0,0.0,-1,0.0,0.0,0.0,0,2.49,10.3974
623883,1616768772860,,,20,,,0.38,0.27,0.54,-14,-2,4,0.47,0,,,,,,,,,,,,,,,,
623923,1616768772898,,,21,,,0.22,0.29,0.55,-4,-5,4,0.37,0,,,,,,,,,,,,,,,,
623963,1616768772938,,,21,,,0.43,0.45,0.82,6,14,-1,0.63,0,,,,,,,,,,,,,,,,
624003,1616768772978,,,19,,,0.71,0.62,1.05,16,30,-7,0.95,0,,,,,,,,,,,,,,,,
624043,1616768773013,302,160,20,0.18,13.69,0.57,0.75,1.0,27,23,-2,0.94,0,45.846195,5.178937,19.37,732.3,6,2,3.1,0,0.0,-1,0.0,0.0,0.0,0,2.49,10.4007
624083,1616768773053,,,20,,,0.61,0.72,1.03,36,25,-4,0.94,0,,,,,,,,,,,,,,,,
624123,1616768773099,,,20,,,0.48,0.74,0.75,44,17,-0,0.89,0,,,,,,,,,,,,,,,,
624163,1616768773139,,,19,,,0.37,0.8,0.64,51,17,-1,0.88,0,,,,,,,,,,,,,,,,
624203,1616768773179,,,21,,,0.34,0.84,0.53,57,15,0,0.91,0,,,,,,,,,,,,,,,,
624243,1616768773219,,,20,,,0.32,0.86,0.45,61,13,-1,0.92,0,45.846207,5.178932,20.21,732.9,6,2,3.1,0,0.0,-1,0.0,0.0,0.0,0,2.49,10.404
624283,1616768773259,,,22,,,0.29,0.78,0.39,62,11,-1,0.83,0,,,,,,,,,,,,,,,,
624323,1616768773299,,,22,,,0.24,0.66,0.33,60,3,-0,0.7,0,,,,,,,,,,,,,,,,
624363,1616768773339,,,21,,,0.22,0.47,0.29,54,-1,2,0.52,0,,,,,,,,,,,,,,,,
624403,1616768773379,,,22,,,0.22,0.43,0.32,47,4,-2,0.48,0,,,,,,,,,,,,,,,,
624443,1616768773419,,,21,,,0.32,0.36,0.37,38,-3,2,0.48,0,45.846218,5.17892,19.12,733.6,6,2,3.1,0,0.0,-1,0.0,0.0,0.0,0,2.49,10.4074
624483,1616768773459,,,21,,,0.15,0.41,0.2,32,3,-1,0.44,0,,,,,,,,,,,,,,,,
624523,1616768773499,,,20,,,0.39,0.52,0.54,29,-1,1,0.65,0,,,,,,,,,,,,,,,,
624563,1616768773539,,,20,,,0.21,0.58,0.15,29,-5,3,0.61,0,,,,,,,,,,,,,,,,
624603,1616768773579,,,21,,,0.08,0.57,0.1,30,3,-1,0.57,0,,,,,,,,,,,,,,,,
624643,1616768773619,,,21,,,0.21,0.54,0.46,31,8,-5,0.58,0,45.84623,5.178906,17.98,734.2,6,2,3.1,0,0.0,-1,0.0,0.0,0.0,0,2.49,10.4107
624683,1616768773659,,,20,,,0.26,0.56,0.39,31,3,-2,0.62,0,,,,,,,,,,,,,,,,
624723,1616768773699,,,20,,,0.2,0.54,0.34,32,1,-0,0.58,0,,,,,,,,,,,,,,,,
624763,1616768773739,,,21,,,0.12,0.56,0.25,33,5,-2,0.57,0,,,,,,,,,,,,,,,,
624803,1616768773779,,,21,,,0.21,0.49,0.5,34,-2,2,0.54,0,,,,,,,,,,,,,,,,
624843,1616768773819,,,21,,,0.3,0.65,0.78,34,-1,2,0.71,0,45.846241,5.1789,17.65,734.5,6,2,3.1,0,0.0,-1,0.0,0.0,0.0,0,2.49,10.4141
624883,1616768773859,,,20,,,0.54,0.74,1.01,35,3,0,0.91,0,,,,,,,,,,,,,,,,
624923,1616768773899,,,21,,,0.37,0.67,0.8,35,-9,5,0.77,0,,,,,,,,,,,,,,,,
624963,1616768773939,,,21,,,-0.01,0.63,0.44,36,-2,2,0.63,0,,,,,,,,,,,,,,,,
625003,1616768773979,,,20,,,-0.07,0.56,0.74,36,12,-1,0.57,0,,,,,,,,,,,,,,,,
625043,1616768774012,302,159,21,0.18,13.74,0.04,0.57,0.98,37,21,-2,0.57,0,45.846252,5.178894,17.15,735.0,6,2,2.5,0,0.0,-1,0.0,0.0,0.0,0,2.49,10.4174
625083,1616768774052,,,19,,,0.14,0.6,1.13,37,17,-1,0.61,0,,,,,,,,,,,,,,,,
625123,1616768774094,,,21,,,-0.16,0.54,0.7,38,7,1,0.57,0,,,,,,,,,,,,,,,,
625163,1616768774134,,,21,,,-0.12,0.67,0.88,38,6,1,0.68,0,,,,,,,,,,,,,,,,
625203,1616768774174,,,21,,,-0.15,0.65,1.06,39,6,0,0.67,0,,,,,,,,,,,,,,,,
625243,1616768774218,,,20,,,-0.15,0.63,1.13,39,5,-0,0.65,0,45.846268,5.178891,16.36,734.9,6,2,3.1,0,0.0,-1,0.0,0.0,0.0,0,2.49,10.4207
625283,1616768774258,,,20,,,-0.27,0.64,0.8,39,1,2,0.69,0,,,,,,,,,,,,,,,,
625323,1616768774298,,,20,,,-0.3,0.66,0.7,40,3,2,0.72,0,,,,,,,,,,,,,,,,
625363,1616768774338,,,20,,,-0.17,0.66,0.76,42,-1,2,0.68,0,,,,,,,,,,,,,,,,
625403,1616768774378,,,19,,,0.07,0.69,0.82,43,16,-0,0.7,0,,,,,,,,,,,,,,,,
625443,1616768774418,,,21,,,-0.02,0.73,1.04,45,29,-2,0.73,0,45.846283,5.178901,19.15,735.5,6,2,2.5,0,0.0,-1,0.0,0.0,0.0,0,2.5,10.4241
625483,1616768774458,,,20,,,-0.05,0.79,1.22,46,44,-4,0.8,0,,,,,,,,,,,,,,,,
625523,1616768774498,,,20,,,0.03,0.76,1.37,47,62,-4,0.77,0,,,,,,,,,,,,,,,,
625563,1616768774538,,,21,,,-0.23,0.77,1.49,48,64,-5,0.8,0,,,,,,,,,,,,,,,,
625603,1616768774578,,,20,,,-0.56,0.84,1.58,49,26,-2,1.01,0,,,,,,,,,,,,,,,,
625643,1616768774618,,,20,,,-0.79,0.86,1.54,51,-9,2,1.17,0,45.846291,5.178906,19.92,735.8,6,2,2.5,0,0.0,-1,0.0,0.0,0.0,0,2.5,10.4274
625683,1616768774658,,,19,,,-0.56,0.92,0.97,53,-20,3,1.07,0,,,,,,,,,,,,,,,,
625723,1616768774698,,,20,,,-0.07,0.93,0.41,56,-6,4,0.93,0,,,,,,,,,,,,,,,,
625763,1616768774738,,,20,,,0.33,0.89,-0.05,59,19,4,0.96,0,,,,,,,,,,,,,,,,
625803,1616768774778,,,20,,,0.58,0.85,-0.42,61,30,5,1.02,0,,,,,,,,,,,,,,,,
625843,1616768774818,,,21,,,0.61,0.85,-0.72,62,23,6,1.04,0,45.846306,5.178913,19.93,735.8,6,2,2.5,0,0.0,-1,0.0,0.0,0.0,0,2.5,10.4307
625883,1616768774858,,,20,,,0.46,0.86,-0.92,64,10,6,0.97,0,,,,,,,,,,,,,,,,
625923,1616768774900,,,20,,,0.1,0.95,-0.42,65,-14,6,0.95,0,,,,,,,,,,,,,,,,
625963,1616768774940,,,21,,,-0.26,0.94,0.04,66,-30,5,0.98,0,,,,,,,,,,,,,,,,
626003,1616768774980,,,20,,,-0.24,0.9,0.41,68,-18,4,0.93,0,,,,,,,,,,,,,,,,
626043,1616768775013,302,162,19,0.18,13.77,0.0,0.87,-0.05,70,3,4,0.87,0,45.846314,5.178922,19.17,735.4,6,2,2.6,0,0.0,-1,0.0,0.0,0.0,0,2.5,10.434
626083,1616768775053,,,20,,,-0.15,0.91,0.04,72,-10,6,0.92,0,,,,,,,,,,,,,,,,
626123,1616768775099,,,19,,,-0.4,0.94,0.41,74,-17,5,1.02,0,,,,,,,,,,,,,,,,
626163,1616768775139,,,20,,,-0.25,0.9,0.18,76,-1,5,0.94,0,,,,,,,,,,,,,,,,
626203,1616768775179,,,20,,,-0.28,0.99,0.09,79,-7,5,1.03,0,,,,,,,,,,,,,,,,
626243,1616768775219,,,20,,,-0.42,1.05,0.46,81,-15,5,1.13,0,45.846329,5.178943,21.7,734.0,6,2,2.6,0,0.0,-1,0.0,0.0,0.0,0,2.5,10.4374
626283,1616768775259,,,20,,,-0.22,1.07,0.24,84,5,4,1.1,0,,,,,,,,,,,,,,,,
626323,1616768775297,,,20,,,-0.06,1.08,-0.19,86,8,4,1.09,0,,,,,,,,,,,,,,,,
626363,1616768775337,,,19,,,-0.27,1.14,0.0,88,-11,5,1.17,0,,,,,,,,,,,,,,,,
626403,1616768775377,,,20,,,-0.36,1.14,0.38,89,-0,4,1.2,0,,,,,,,,,,,,,,,,
626443,1616768775419,,,20,,,-0.14,1.12,-0.04,91,15,4,1.13,0,45.846344,5.178957,21.96,732.9,6,2,2.6,0,0.0,-1,0.0,0.0,0.0,0,2.5,10.4407
626483,1616768775459,,,20,,,-0.07,1.14,-0.37,92,-3,4,1.14,0,,,,,,,,,,,,,,,,
626523,1616768775499,,,20,,,-0.38,1.13,-0.0,92,-20,4,1.19,0,,,,,,,,,,,,,,,,
626563,1616768775539,,,20,,,-0.64,1.13,0.38,93,-13,4,1.3,0,,,,,,,,,,,,,,,,
626603,1616768775579,,,20,,,-0.44,1.08,0.28,93,6,4,1.17,0,,,,,,,,,,,,,,,,
626643,1616768775619,,,20,,,-0.26,1.07,-0.15,93,0,4,1.11,0,45.846355,5.17897,20.73,732.6,6,2,2.6,0,0.0,-1,0.0,0.0,0.0,0,2.5,10.444
626683,1616768775659,,,20,,,-0.47,1.07,0.02,94,-23,5,1.17,0,,,,,,,,,,,,,,,,
626723,1616768775699,,,21,,,-0.75,1.08,0.4,94,-31,4,1.31,0,,,,,,,,,,,,,,,,
626763,1616768775739,,,19,,,-0.74,1.1,0.7,94,-18,4,1.32,0,,,,,,,,,,,,,,,,
626803,1616768775779,,,21,,,-0.52,1.08,0.33,94,-7,3,1.2,0,,,,,,,,,,,,,,,,
626843,1616768775821,,,20,,,-0.37,1.02,0.64,94,1,2,1.08,0,45.846367,5.178988,19.13,732.3,6,2,3.6,0,0.0,-1,0.0,0.0,0.0,0,2.5,10.4474
626883,1616768775861,,,21,,,-0.47,0.93,0.54,93,-7,2,1.04,0,,,,,,,,,,,,,,,,
626923,1616768775899,,,20,,,-0.75,0.9,0.81,91,-26,2,1.17,0,,,,,,,,,,,,,,,,
626963,1616768775939,,,21,,,-0.98,0.89,1.04,88,-41,2,1.33,0,,,,,,,,,,,,,,,,
627003,1616768775979,,,21,,,-0.92,0.86,1.22,85,-29,2,1.26,0,,,,,,,,,,,,,,,,
627043,1616768776012,302,163,22,0.19,13.72,-0.64,0.76,0.61,81,-17,3,0.99,0,45.846367,5.178999,14.26,732.0,6,2,2.5,0,0.0,-1,0.0,0.0,0.0,0,2.5,10.4507
627083,1616768776052,,,22,,,-0.52,0.69,0.74,76,-15,3,0.87,0,,,,,,,,,,,,,,,,
627123,1616768776096,,,21,,,-0.32,0.61,0.42,71,-11,2,0.69,0,,,,,,,,,,,,,,,,
627163,1616768776136,,,22,,,-0.47,0.56,0.67,67,-31,4,0.73,0,,,,,,,,,,,,,,,,
627203,1616768776176,,,22,,,-0.51,0.55,0.92,62,-28,2,0.75,0,,,,,,,,,,,,,,,,
627243,1616768776218,,,22,,,-0.22,0.49,0.72,57,-5,2,0.54,0,45.846367,5.179009,10.12,731.5,6,2,2.5,0,0.0,-1,0.0,0.0,0.0,0,2.51,10.4541
627283,1616768776258,,,22,,,-0.13,0.4,0.66,51,-9,1,0.42,0,,,,,,,,,,,,,,,,
627323,1616768776298,,,23,,,-0.11,0.37,0.91,46,-6,0,0.39,0,,,,,,,,,,,,,,,,
627363,1616768776338,,,23,,,0.26,0.29,0.36,42,11,2,0.39,0,,,,,,,,,,,,,,,,
627403,1616768776378,,,22,,,0.6,0.22,-0.09,37,20,1,0.64,0,,,,,,,,,,,,,,,,
627443,1616768776418,,,22,,,0.87,0.18,-0.45,33,25,2,0.89,0,45.846363,5.179017,6.91,731.4,6,2,2.5,0,0.0,-1,0.0,0.0,0.0,0,2.51,10.4574
627483,1616768776458,,,23,,,1.09,0.13,-0.75,29,45,-0,1.1,0,,,,,,,,,,,,,,,,
627523,1616768776498,,,22,,,0.89,0.07,-0.66,25,46,-1,0.89,0,,,,,,,,,,,,,,,,
627563,1616768776538,,,22,,,0.79,0.07,-0.45,22,37,-0,0.79,0,,,,,,,,,,,,,,,,
627603,1616768776578,,,22,,,0.8,0.02,-0.21,20,31,-1,0.8,0,,,,,,,,,,,,,,,,
627643,1616768776618,,,22,,,0.82,0.04,0.07,17,28,-0,0.82,0,45.846359,5.179022,5.56,731.5,6,2,2.5,0,0.0,-1,0.0,0.0,0.0,0,2.51,10.4607
627683,1616768776658,,,23,,,0.69,-0.04,0.15,15,22,-0,0.69,0,,,,,,,,,,,,,,,,
627723,1616768776698,,,23,,,0.55,-0.02,-0.09,13,14,2,0.55,0,,,,,,,,,,,,,,,,
627763,1616768776738,,,23,,,0.77,0.1,0.3,12,18,-2,0.77,0,,,,,,,,,,,,,,,,
627803,1616768776778,,,22,,,0.65,-0.01,-0.01,11,5,3,0.65,0,,,,,,,,,,,,,,,,
627843,1616768776818,,,23,,,0.51,-0.08,0.01,10,6,2,0.52,0,45.846348,5.179021,6.9,731.0,6,2,2.5,0,0.0,-1,0.0,0.0,0.0,0,2.51,10.4641
627883,1616768776858,,,23,,,0.57,-0.05,0.39,9,19,-4,0.57,0,,,,,,,,,,,,,,,,
627923,1616768776900,,,22,,,0.49,-0.13,0.3,9,14,-2,0.51,0,,,,,,,,,,,,,,,,
627963,1616768776940,,,22,,,0.66,0.05,0.26,9,15,-6,0.66,0,,,,,,,,,,,,,,,,
628003,1616768776980,,,22,,,0.47,-0.02,0.16,9,2,1,0.47,0,,,,,,,,,,,,,,,,
628043,1616768777013,302,155,20,0.18,13.69,0.38,0.02,0.11,9,-3,4,0.38,0,45.846336,5.179018,9.31,730.9,6,2,2.5,0,0.0,-1,0.0,0.0,0.0,0,2.51,10.4674
628083,1616768777053,,,20,,,0.29,-0.01,0.07,8,-6,3,0.29,0,,,,,,,,,,,,,,,,
628123,1616768777097,,,19,,,0.22,0.04,0.03,7,-1,1,0.23,0,,,,,,,,,,,,,,,,
628163,1616768777137,,,20,,,0.17,-0.07,0.01,7,2,-0,0.18,0,,,,,,,,,,,,,,,,
628203,1616768777177,,,21,,,0.12,-0.08,-0.02,5,4,0,0.15,0,,,,,,,,,,,,,,,,
628243,1616768777217,,,22,,,0.23,-0.05,0.28,3,14,-3,0.24,0,45.846329,5.179016,10.95,730.8,6,2,2.5,0,0.0,-1,0.0,0.0,0.0,0,2.51,10.4707
628283,1616768777257,,,22,,,0.09,-0.06,0.25,-0,9,-2,0.1,0,,,,,,,,,,,,,,,,
628323,1616768777297,,,21,,,-0.03,-0.17,0.22,-3,1,2,0.17,0,,,,,,,,,,,,,,,,
628363,1616768777337,,,22,,,-0.12,-0.17,0.16,-5,8,-3,0.2,0,,,,,,,,,,,,,,,,
628403,1616768777377,,,21,,,0.11,-0.12,0.5,-7,6,-3,0.16,0,,,,,,,,,,,,,,,,
628443,1616768777417,,,22,,,-0.03,-0.2,0.38,-8,-1,1,0.2,0,45.846314,5.179016,12.74,730.9,6,2,2.5,0,0.0,-1,0.0,0.0,0.0,0,2.51,10.474
628483,1616768777457,,,21,,,0.21,-0.25,0.69,-10,-4,1,0.32,0,,,,,,,,,,,,,,,,
628523,1616768777497,,,22,,,0.39,-0.23,0.94,-13,1,-3,0.45,0,,,,,,,,,,,,,,,,
628563,1616768777537,,,21,,,0.43,-0.22,0.85,-16,-7,-1,0.48,0,,,,,,,,,,,,,,,,
628603,1616768777577,,,21,,,0.27,-0.33,0.57,-19,-5,1,0.43,0,,,,,,,,,,,,,,,,
628643,1616768777619,,,21,,,0.03,-0.41,0.48,-23,-4,0,0.41,0,45.846298,5.179013,14.74,730.9,6,2,2.5,0,0.0,-1,0.0,0.0,0.0,0,2.51,10.4774
628683,1616768777659,,,20,,,-0.15,-0.44,0.53,-27,-5,0,0.46,0,,,,,,,,,,,,,,,,
628723,1616768777699,,,21,,,-0.33,-0.5,0.49,-31,-3,-1,0.6,0,,,,,,,,,,,,,,,,
628763,1616768777739,,,22,,,-0.24,-0.58,0.61,-35,-4,-1,0.63,0,,,,,,,,,,,,,,,,
628803,1616768777779,,,21,,,-0.56,-0.62,0.49,-39,2,-2,0.83,0,,,,,,,,,,,,,,,,
628843,1616768777819,,,21,,,-0.57,-0.71,0.47,-42,-10,-0,0.91,0,45.846283,5.179011,15.66,730.8,6,2,2.5,0,0.0,-1,0.0,0.0,0.0,0,2.51,10.4807
628883,1616768777859,,,20,,,-0.08,-0.72,0.5,-46,-3,-1,0.73,0,,,,,,,,,,,,,,,,
628923,1616768777899,,,22,,,-0.16,-0.78,0.6,-48,13,-3,0.79,0,,,,,,,,,,,,,,,,
628963,1616768777939,,,21,,,-0.4,-0.81,0.67,-50,-1,-2,0.9,0,,,,,,,,,,,,,,,,
629003,1616768777979,,,21,,,-0.14,-0.79,0.79,-50,-1,-2,0.8,0,,,,,,,,,,,,,,,,
629043,1616768778014,302,160,22,0.18,13.79,-0.31,-0.82,0.7,-50,-4,-1,0.87,0,45.846268,5.179008,16.47,730.9,6,2,3.1,0,0.0,-1,0.0,0.0,0.0,0,2.51,10.484
629083,1616768778054,,,22,,,-0.12,-0.85,0.91,-50,-5,-2,0.86,0,,,,,,,,,,,,,,,,
629123,1616768778098,,,21,,,-0.33,-0.89,0.7,-51,-7,-1,0.95,0,,,,,,,,,,,,,,,,
629163,1616768778138,,,22,,,-0.17,-0.9,0.83,-53,-3,-2,0.92,0,,,,,,,,,,,,,,,,
629203,1616768778178,,,21,,,-0.36,-1.01,0.84,-55,-3,-2,1.07,0,,,,,,,,,,,,,,,,
629243,1616768778218,,,21,,,-0.15,-0.97,0.76,-58,1,-2,0.98,0,45.846249,5.179007,16.13,730.8,6,2,3.1,0,0.0,-1,0.0,0.0,0.0,0,2.51,10.4874
629283,1616768778258,,,21,,,-0.18,-1.05,0.59,-61,7,-4,1.07,0,,,,,,,,,,,,,,,,
629323,1616768778298,,,22,,,-0.01,-1.09,0.59,-64,6,-3,1.09,0,,,,,,,,,,,,,,,,
629363,1616768778338,,,22,,,-0.19,-1.1,0.67,-66,6,-5,1.11,0,,,,,,,,,,,,,,,,
629403,1616768778378,,,22,,,-0.09,-1.06,0.83,-69,9,-5,1.06,0,,,,,,,,,,,,,,,,
629443,1616768778418,,,22,,,-0.21,-1.06,0.71,-72,4,-5,1.08,0,45.846245,5.179007,15.76,730.8,6,2,4.5,0,0.0,-1,0.0,0.0,0.0,0,2.51,10.4907
629483,1616768778458,,,22,,,-0.36,-1.06,0.63,-75,-0,-4,1.12,0,,,,,,,,,,,,,,,,
629523,1616768778500,,,21,,,-0.3,-1.1,0.66,-78,4,-5,1.14,0,,,,,,,,,,,,,,,,
629563,1616768778540,,,21,,,-0.16,-1.06,0.68,-80,6,-4,1.07,0,,,,,,,,,,,,,,,,
629603,1616768778580,,,20,,,-0.28,-1.08,0.71,-82,-1,-2,1.12,0,,,,,,,,,,,,,,,,
629643,1616768778618,,,22,,,0.05,-1.06,0.59,-83,12,-4,1.06,0,45.846226,5.179015,15.62,730.9,6,2,3.1,0,0.0,-1,0.0,0.0,0.0,0,2.51,10.4941
629683,1616768778658,,,22,,,-0.15,-1.14,0.72,-84,19,-5,1.15,0,,,,,,,,,,,,,,,,
629723,1616768778698,,,21,,,-0.32,-1.22,0.75,-84,8,-3,1.26,0,,,,,,,,,,,,,,,,
629763,1616768778738,,,21,,,0.05,-1.1,0.63,-85,22,-5,1.1,0,,,,,,,,,,,,,,,,
629803,1616768778778,,,22,,,-0.19,-1.14,0.67,-86,19,-6,1.15,0,,,,,,,,,,,,,,,,
629843,1616768778818,,,22,,,-0.43,-1.2,0.64,-88,3,-2,1.27,0,45.846214,5.179025,15.44,730.9,6,2,3.1,0,0.0,-1,0.0,0.0,0.0,0,2.51,10.4974
629883,1616768778858,,,22,,,-0.16,-1.2,0.74,-91,12,-5,1.21,0,,,,,,,,,,,,,,,,
629923,1616768778898,,,21,,,-0.41,-1.17,0.8,-92,3,-4,1.24,0,,,,,,,,,,,,,,,,
629963,1616768778938,,,21,,,-0.53,-1.16,0.75,-93,-12,-2,1.28,0,,,,,,,,,,,,,,,,
630003,1616768778978,,,23,,,-0.18,-1.2,0.75,-94,-2,-4,1.21,0,,,,,,,,,,,,,,,,
630043,1616768779013,302,161,22,0.19,13.79,-0.37,-1.22,0.8,-95,-8,-4,1.28,0,45.846207,5.179034,13.46,730.9,6,2,2.5,0,0.0,-1,0.0,0.0,0.0,0,2.52,10.5007
630083,1616768779053,,,22,,,-0.17,-1.18,0.87,-95,-3,-4,1.19,0,,,,,,,,,,,,,,,,
630123,1616768779097,,,21,,,-0.3,-1.21,0.88,-95,-8,-3,1.24,0,,,,,,,,,,,,,,,,
630163,1616768779137,,,22,,,-0.15,-1.17,1.03,-96,-1,-5,1.18,0,,,,,,,,,,,,,,,,
630203,1616768779177,,,22,,,-0.07,-1.17,1.0,-96,2,-5,1.17,0,,,,,,,,,,,,,,,,
630243,1616768779217,,,21,,,-0.16,-1.22,0.73,-96,-0,-4,1.23,0,45.846199,5.179044,11.54,730.9,6,2,2.5,0,0.0,-1,0.0,0.0,0.0,0,2.52,10.5041
630283,1616768779257,,,22,,,-0.08,-1.18,0.59,-97,-2,-4,1.19,0,,,,,,,,,,,,,,,,
630323,1616768779297,,,22,,,-0.02,-1.15,0.52,-98,2,-6,1.15,0,,,,,,,,,,,,,,,,
630363,1616768779337,,,22,,,-0.09,-1.17,0.27,-98,1,-4,1.17,0,,,,,,,,,,,,,,,,
630403,1616768779377,,,22,,,-0.11,-1.1,0.24,-98,13,-10,1.11,0,,,,,,,,,,,,,,,,
630443,1616768779419,,,22,,,0.1,-0.91,0.57,-97,24,-15,0.92,0,45.846188,5.179057,12.22,730.4,6,2,2.5,0,0.0,-1,0.0,0.0,0.0,0,2.52,10.5074
630483,1616768779459,,,21,,,-0.07,-0.84,0.42,-95,24,-17,0.84,0,,,,,,,,,,,,,,,,
630523,1616768779497,,,21,,,0.15,-0.87,0.36,-93,10,-8,0.88,0,,,,,,,,,,,,,,,,
630563,1616768779537,,,21,,,0.13,-0.92,-0.09,-90,2,-7,0.93,0,,,,,,,,,,,,,,,,
630603,1616768779577,,,21,,,0.15,-0.9,-0.09,-87,-0,-7,0.91,0,,,,,,,,,,,,,,,,
630643,1616768779615,,,21,,,0.19,-0.92,-0.09,-85,-3,-5,0.94,0,45.846184,5.179069,10.0,729.8,6,2,2.5,0,0.0,-1,0.0,0.0,0.0,0,2.52,10.5107
630683,1616768779655,,,21,,,0.2,-0.86,-0.1,-82,-6,-1,0.88,0,,,,,,,,,,,,,,,,
630723,1616768779695,,,22,,,0.19,-0.87,-0.06,-82,15,-12,0.89,0,,,,,,,,,,,,,,,,
630763,1616768779735,,,22,,,0.28,-0.92,-0.42,-80,-10,2,0.97,0,,,,,,,,,,,,,,,,
630803,1616768779775,,,23,,,-0.1,-0.95,-0.72,-80,-14,5,0.96,0,,,,,,,,,,,,,,,,
630843,1616768779815,,,22,,,-0.23,-0.92,-0.96,-78,-21,4,0.95,0,45.84618,5.179077,7.91,729.3,6,2,2.5,0,0.0,-1,0.0,0.0,0.0,0,2.52,10.514
630883,1616768779855,,,22,,,-0.18,-0.78,-1.16,-75,-28,13,0.8,0,,,,,,,,,,,,,,,,
630923,1616768779899,,,23,,,0.14,-0.59,-0.56,-70,-10,3,0.61,0,,,,,,,,,,,,,,,,
630963,1616768779939,,,22,,,0.25,-0.63,-0.62,-63,-10,6,0.68,0,,,,,,,,,,,,,,,,
631003,1616768779979,,,23,,,0.52,-0.59,-0.23,-55,-2,2,0.79,0,,,,,,,,,,,,,,,,
631043,1616768780014,302,158,21,0.18,13.73,0.58,-0.53,-0.35,-48,-10,4,0.79,0,45.846184,5.179082,7.87,727.9,6,2,3.1,0,0.0,-1,0.0,0.0,0.0,0,2.52,10.5174
631083,1616768780054,,,23,,,0.47,-0.48,-0.03,-41,-18,4,0.68,0,,,,,,,,,,,,,,,,
631123,1616768780098,,,22,,,0.33,-0.38,0.21,-34,-17,3,0.51,0,,,,,,,,,,,,,,,,
631163,1616768780138,,,24,,,0.4,-0.47,0.19,-28,-14,0,0.61,0,,,,,,,,,,,,,,,,
631203,1616768780178,,,22,,,0.49,-0.42,-0.22,-22,-17,6,0.64,0,,,,,,,,,,,,,,,,
631243,1616768780218,,,23,,,0.57,-0.49,-0.02,-18,-11,0,0.75,0,45.846188,5.179085,8.22,729.4,6,2,3.1,0,0.0,-1,0.0,0.0,0.0,0,2.52,10.5207
631283,1616768780258,,,22,,,0.66,-0.42,-0.04,-15,-13,3,0.79,0,,,,,,,,,,,,,,,,
631323,1616768780298,,,23,,,0.71,-0.29,-0.01,-13,-13,3,0.77,0,,,,,,,,,,,,,,,,
631363,1616768780338,,,22,,,0.79,-0.32,0.37,-11,-5,-2,0.85,0,,,,,,,,,,,,,,,,
631403,1616768780378,,,23,,,0.93,-0.33,0.68,-10,-3,-3,0.99,0,,,,,,,,,,,,,,,,
631443,1616768780418,,,21,,,0.98,-0.16,0.53,-7,-6,2,1.0,0,45.846195,5.179087,11.02,729.4,6,2,3.1,0,0.0,-1,0.0,0.0,0.0,0,2.52,10.524
631483,1616768780458,,,22,,,1.03,0.02,0.45,-5,-2,0,1.03,0,,,,,,,,,,,,,,,,
631523,1616768780498,,,23,,,0.84,0.09,0.38,-3,-1,-1,0.84,0,,,,,,,,,,,,,,,,
631563,1616768780538,,,23,,,0.49,-0.03,0.01,-1,-9,6,0.49,0,,,,,,,,,,,,,,,,
631603,1616768780578,,,22,,,0.12,-0.04,-0.37,1,-20,18,0.12,0,,,,,,,,,,,,,,,,
631643,1616768780618,,,22,,,-0.22,-0.16,-0.28,2,-8,9,0.27,0,45.84621,5.17909,15.65,729.4,6,2,3.1,0,0.0,-1,0.0,0.0,0.0,0,2.52,10.5274
631683,1616768780658,,,22,,,-0.19,-0.09,-0.25,4,-7,11,0.21,0,,,,,,,,,,,,,,,,
631723,1616768780698,,,22,,,-0.47,0.04,-0.22,5,-1,4,0.47,0,,,,,,,,,,,,,,,,
631763,1616768780738,,,22,,,-0.42,0.1,0.2,6,-4,4,0.43,0,,,,,,,,,,,,,,,,
631803,1616768780778,,,22,,,-0.45,0.15,0.43,7,-11,3,0.48,0,,,,,,,,,,,,,,,,
631843,1616768780818,,,22,,,-0.74,0.13,-0.03,7,-19,7,0.75,0,45.84623,5.17909,19.02,729.5,6,2,3.1,0,0.0,-1,0.0,0.0,0.0,0,2.52,10.5307
631883,1616768780858,,,22,,,-0.66,0.16,0.28,8,-9,4,0.68,0,,,,,,,,,,,,,,,,
631923,1616768780900,,,22,,,-0.7,0.14,0.25,9,-5,3,0.71,0,,,,,,,,,,,,,,,,
