"Interval"|"ms"|0|0|1,"Utc"|"ms"|0|0|1,"EngineTemp"|"F"|0|300|1,"OilTemp"|"F"|0|300|1,"OilPress"|"PSI"|0|150|25,"Battery"|"Volts"|0.0|20.0|1,"Battery"|"Volts"|0.0|20.0|1,"AccelX"|"G"|-3.0|3.0|25,"AccelY"|"G"|-3.0|3.0|25,"AccelZ"|"G"|-3.0|3.0|25,"Yaw"|"Deg/Sec"|-120|120|25,"Pitch"|"Deg/Sec"|-120|120|25,"Roll"|"Deg/Sec"|-120|120|25,"Gsum"|"G"|0.0|3.0|25,"RPM"|""|0|10000|25,"Latitude"|"Degrees"|-180.0|180.0|10,"Longitude"|"Degrees"|-180.0|180.0|10,"Speed"|"mph"|0.0|150.0|10,"Altitude"|"ft"|0.0|4000.0|10,"GPSSats"|""|0|20|10,"GPSQual"|""|0|5|10,"GPSDOP"|""|0.0|20.0|10,"LapCount"|""|0|0|10,"LapTime"|"Min"|0.0|0.0|10,"Sector"|""|0|0|10,"SectorTime"|"Min"|0.0|0.0|10,"PredTime"|"Min"|0.0|0.0|5,"ElapsedTime"|"Min"|0.0|0.0|10,"CurrentLap"|""|0|0|10,"Distance"|"mi"|0.0|0.0|10,"SessionTime"|"Min"|0.0|0.0|10
220884,1616767145007,,,10,,,0.07,-0.02,1.0,-0,-0,0,0.07,0,,,,,,,,,,,,,,,,
220924,1616767145047,,,9,,,0.07,-0.02,1.0,-0,-0,0,0.07,0,,,,,,,,,,,,,,,,
220964,1616767145095,,,9,,,0.07,-0.02,1.0,-0,-0,0,0.07,0,,,,,,,,,,,,,,,,
221004,1616767145135,,,10,,,0.07,-0.02,1.0,-0,-0,0,0.07,0,,,,,,,,,,,,,,,,
221044,1616767145175,302,252,10,0.24,13.29,0.07,-0.02,1.0,-0,-0,0,0.07,0,45.845688,5.178909,0.0,702.5,7,2,1.8,0,0.0,-1,0.0,0.0,0.0,0,0.05,3.6841
221084,1616767145223,,,9,,,0.07,-0.02,1.0,-0,-0,-0,0.07,0,,,,,,,,,,,,,,,,
221124,1616767145263,,,8,,,0.07,-0.02,1.0,-0,-0,0,0.07,0,,,,,,,,,,,,,,,,
221164,1616767145293,,,10,,,0.07,-0.02,1.0,-0,-0,0,0.07,0,,,,,,,,,,,,,,,,
221204,1616767145333,,,10,,,0.07,-0.02,1.0,-0,-0,0,0.07,0,,,,,,,,,,,,,,,,
221244,1616767145373,,,9,,,0.07,-0.02,1.0,-0,-0,0,0.07,0,45.845688,5.178909,0.0,702.5,7,2,1.8,0,0.0,-1,0.0,0.0,0.0,0,0.05,3.6874
221284,1616767145421,,,9,,,0.07,-0.02,1.0,-0,-0,0,0.07,0,,,,,,,,,,,,,,,,
221324,1616767145461,,,9,,,0.07,-0.02,1.0,-0,-0,0,0.07,0,,,,,,,,,,,,,,,,
221364,1616767145492,,,9,,,0.07,-0.02,1.0,-0,-0,0,0.07,0,,,,,,,,,,,,,,,,
221404,1616767145532,,,10,,,0.07,-0.02,1.0,-0,-0,0,0.07,0,,,,,,,,,,,,,,,,
221444,1616767145572,,,9,,,0.07,-0.02,1.0,-0,-0,0,0.07,0,45.845688,5.178909,0.0,702.5,7,2,1.8,0,0.0,-1,0.0,0.0,0.0,0,0.05,3.6907
221484,1616767145619,,,9,,,0.07,-0.02,1.0,-0,-0,0,0.07,0,,,,,,,,,,,,,,,,
221524,1616767145659,,,9,,,0.07,-0.02,1.0,-0,-0,0,0.07,0,,,,,,,,,,,,,,,,
221564,1616767145691,,,9,,,0.07,-0.02,1.0,0,-0,0,0.07,0,,,,,,,,,,,,,,,,
221604,1616767145731,,,9,,,0.07,-0.02,1.0,0,-0,0,0.07,0,,,,,,,,,,,,,,,,
221644,1616767145771,,,9,,,0.07,-0.02,1.0,-0,-0,0,0.07,0,45.845688,5.178909,0.0,702.5,7,2,1.8,0,0.0,-1,0.0,0.0,0.0,0,0.05,3.6941
221684,1616767145818,,,10,,,0.07,-0.02,1.0,-0,-0,0,0.07,0,,,,,,,,,,,,,,,,
221724,1616767145858,,,9,,,0.07,-0.02,1.0,-0,-0,0,0.07,0,,,,,,,,,,,,,,,,
221764,1616767145898,,,10,,,0.07,-0.02,1.0,-0,-0,0,0.07,0,,,,,,,,,,,,,,,,
221804,1616767145928,,,9,,,0.07,-0.02,1.0,-0,-0,0,0.07,0,,,,,,,,,,,,,,,,
221844,1616767145968,,,10,,,0.07,-0.02,1.0,-0,-0,0,0.07,0,45.845688,5.178909,0.0,702.5,7,2,1.8,0,0.0,-1,0.0,0.0,0.0,0,0.05,3.6974
221884,1616767146014,,,9,,,0.07,-0.02,1.0,-0,-0,0,0.07,0,,,,,,,,,,,,,,,,
221924,1616767146054,,,9,,,0.07,-0.02,1.0,-0,-0,0,0.07,0,,,,,,,,,,,,,,,,
221964,1616767146102,,,10,,,0.07,-0.02,1.0,-0,-0,0,0.07,0,,,,,,,,,,,,,,,,
222004,1616767146142,,,9,,,0.07,-0.02,1.0,-0,-0,0,0.07,0,,,,,,,,,,,,,,,,
222044,1616767146182,302,252,9,0.25,13.3,0.07,-0.02,1.0,-0,-0,0,0.07,0,45.845688,5.178909,0.0,702.5,7,2,1.8,0,0.0,-1,0.0,0.0,0.0,0,0.05,3.7007
222084,1616767146216,,,10,,,0.07,-0.02,1.0,-0,-0,0,0.07,0,,,,,,,,,,,,,,,,
222124,1616767146256,,,10,,,0.07,-0.02,1.0,-0,-0,0,0.07,0,,,,,,,,,,,,,,,,
222164,1616767146296,,,9,,,0.07,-0.02,1.0,-0,-0,0,0.07,0,,,,,,,,,,,,,,,,
222204,1616767146329,,,10,,,0.07,-0.02,1.0,-0,-0,0,0.07,0,,,,,,,,,,,,,,,,
222244,1616767146369,,,10,,,0.07,-0.02,1.0,-0,-0,0,0.07,0,45.845688,5.178909,0.0,702.5,7,2,1.8,0,0.0,-1,0.0,0.0,0.0,0,0.05,3.7041
222284,1616767146416,,,9,,,0.07,-0.02,1.0,-0,-0,0,0.07,0,,,,,,,,,,,,,,,,
222324,1616767146456,,,10,,,0.07,-0.02,1.0,-0,-0,0,0.07,0,,,,,,,,,,,,,,,,
222364,1616767146496,,,9,,,0.07,-0.02,1.0,-0,-0,0,0.07,0,,,,,,,,,,,,,,,,
222404,1616767146530,,,9,,,0.07,-0.02,1.0,-0,-0,0,0.07,0,,,,,,,,,,,,,,,,
222444,1616767146570,,,9,,,0.07,-0.02,1.0,-0,-0,0,0.07,0,45.845688,5.178909,0.0,702.5,7,2,1.8,0,0.0,-1,0.0,0.0,0.0,0,0.05,3.7074
222484,1616767146618,,,10,,,0.07,-0.02,1.0,-0,-0,0,0.07,0,,,,,,,,,,,,,,,,
222524,1616767146658,,,9,,,0.07,-0.02,1.0,-0,-0,0,0.07,0,,,,,,,,,,,,,,,,
222564,1616767146698,,,9,,,0.07,-0.02,1.0,-0,-0,0,0.07,0,,,,,,,,,,,,,,,,
222604,1616767146729,,,9,,,0.07,-0.02,1.0,-0,-0,0,0.07,0,,,,,,,,,,,,,,,,
222644,1616767146769,,,9,,,0.07,-0.02,1.0,-0,-0,0,0.07,0,45.845688,5.178909,0.0,702.5,7,2,1.8,0,0.0,-1,0.0,0.0,0.0,0,0.05,3.7107
222684,1616767146819,,,9,,,0.07,-0.02,1.0,-0,-0,0,0.07,0,,,,,,,,,,,,,,,,
222724,1616767146859,,,10,,,0.07,-0.02,1.0,-0,-0,0,0.07,0,,,,,,,,,,,,,,,,
222764,1616767146891,,,9,,,0.07,-0.02,1.0,-0,-0,0,0.07,0,,,,,,,,,,,,,,,,
222804,1616767146931,,,10,,,0.07,-0.02,1.0,-0,-0,0,0.07,0,,,,,,,,,,,,,,,,
222844,1616767146971,,,9,,,0.07,-0.02,1.0,-0,-0,-0,0.07,0,45.845688,5.178909,0.0,702.5,7,2,1.8,0,0.0,-1,0.0,0.0,0.0,0,0.05,3.7141
222884,1616767147017,,,9,,,0.07,-0.02,1.0,-0,-0,-0,0.07,0,,,,,,,,,,,,,,,,
222924,1616767147057,,,10,,,0.07,-0.02,1.0,-0,-0,0,0.07,0,,,,,,,,,,,,,,,,
222964,1616767147091,,,9,,,0.07,-0.02,1.0,-0,-0,-0,0.07,0,,,,,,,,,,,,,,,,
223004,1616767147131,,,9,,,0.07,-0.02,1.0,-0,-0,0,0.07,0,,,,,,,,,,,,,,,,
223044,1616767147171,302,253,9,0.24,13.27,0.07,-0.02,1.0,-0,-0,0,0.07,0,45.845688,5.178909,0.0,702.5,7,2,1.8,0,0.0,-1,0.0,0.0,0.0,0,0.05,3.7174
223084,1616767147219,,,9,,,0.07,-0.02,1.0,-0,-0,0,0.07,0,,,,,,,,,,,,,,,,
223124,1616767147259,,,9,,,0.07,-0.02,1.0,-0,-0,0,0.07,0,,,,,,,,,,,,,,,,
223164,1616767147291,,,9,,,0.07,-0.02,1.0,-0,-0,0,0.07,0,,,,,,,,,,,,,,,,
223204,1616767147331,,,9,,,0.07,-0.02,1.0,-0,-0,0,0.07,0,,,,,,,,,,,,,,,,
223244,1616767147371,,,8,,,0.07,-0.02,1.0,-0,-0,0,0.07,0,45.845688,5.178909,0.0,702.5,7,2,1.8,0,0.0,-1,0.0,0.0,0.0,0,0.05,3.7207
223284,1616767147419,,,9,,,0.07,-0.02,1.0,-0,-0,0,0.07,0,,,,,,,,,,,,,,,,
223324,1616767147459,,,10,,,0.07,-0.02,1.0,-0,-0,0,0.07,0,,,,,,,,,,,,,,,,
223364,1616767147493,,,9,,,0.07,-0.02,1.0,-0,-0,-0,0.07,0,,,,,,,,,,,,,,,,
223404,1616767147533,,,9,,,0.07,-0.02,1.0,-0,-0,-0,0.08,0,,,,,,,,,,,,,,,,
223444,1616767147573,,,9,,,0.07,-0.02,1.0,-0,-0,-0,0.08,0,45.845688,5.178909,0.0,702.5,7,2,1.8,0,0.0,-1,0.0,0.0,0.0,0,0.05,3.7241
223484,1616767147621,,,9,,,0.07,-0.02,1.0,-0,-0,0,0.08,0,,,,,,,,,,,,,,,,
223524,1616767147661,,,10,,,0.08,-0.02,1.0,-0,-0,-0,0.08,0,,,,,,,,,,,,,,,,
223564,1616767147691,,,9,,,0.08,-0.02,1.0,-0,-0,-0,0.08,0,,,,,,,,,,,,,,,,
223604,1616767147731,,,9,,,0.08,-0.02,1.0,-0,-0,-0,0.08,0,,,,,,,,,,,,,,,,
223644,1616767147771,,,9,,,0.08,-0.02,1.0,-0,-0,0,0.08,0,45.845688,5.178909,0.0,702.5,7,2,1.8,0,0.0,-1,0.0,0.0,0.0,0,0.05,3.7274
223684,1616767147818,,,9,,,0.08,-0.02,1.0,-0,-0,0,0.08,0,,,,,,,,,,,,,,,,
223724,1616767147858,,,8,,,0.07,-0.02,1.0,-0,-0,0,0.08,0,,,,,,,,,,,,,,,,
223764,1616767147892,,,10,,,0.07,-0.02,1.0,-0,-0,0,0.07,0,,,,,,,,,,,,,,,,
223804,1616767147932,,,9,,,0.07,-0.02,1.0,-0,-0,0,0.07,0,,,,,,,,,,,,,,,,
223844,1616767147972,,,9,,,0.07,-0.02,1.0,-0,-0,0,0.07,0,45.845688,5.178909,0.0,702.5,7,2,1.8,0,0.0,-1,0.0,0.0,0.0,0,0.05,3.7307
223884,1616767148016,,,9,,,0.06,-0.02,1.0,-0,-0,0,0.07,0,,,,,,,,,,,,,,,,
223924,1616767148056,,,9,,,0.06,-0.02,1.0,-0,-0,0,0.07,0,,,,,,,,,,,,,,,,
223964,1616767148096,,,10,,,0.06,-0.02,1.0,-0,-0,0,0.07,0,,,,,,,,,,,,,,,,
224004,1616767148128,,,9,,,0.06,-0.02,1.0,-0,-0,0,0.07,0,,,,,,,,,,,,,,,,
224044,1616767148168,302,252,9,0.25,13.3,0.07,-0.02,1.0,-0,-0,0,0.07,0,45.845688,5.178909,0.0,702.5,7,2,1.8,0,0.0,-1,0.0,0.0,0.0,0,0.05,3.7341
224084,1616767148216,,,9,,,0.07,-0.02,1.0,-0,-0,0,0.07,0,,,,,,,,,,,,,,,,
224124,1616767148256,,,8,,,0.07,-0.02,1.0,-0,-0,0,0.07,0,,,,,,,,,,,,,,,,
224164,1616767148302,,,9,,,0.07,-0.02,1.0,-0,-0,0,0.07,0,,,,,,,,,,,,,,,,
224204,1616767148342,,,9,,,0.07,-0.02,1.0,-0,-0,0,0.07,0,,,,,,,,,,,,,,,,
224244,1616767148382,,,10,,,0.07,-0.02,1.0,-0,-0,0,0.07,0,45.845688,5.178909,0.0,702.5,7,2,1.8,0,0.0,-1,0.0,0.0,0.0,0,0.05,3.7374
224284,1616767148414,,,10,,,0.07,-0.02,1.0,-0,-0,-0,0.07,0,,,,,,,,,,,,,,,,
224324,1616767148454,,,10,,,0.07,-0.02,1.0,-0,-0,0,0.07,0,,,,,,,,,,,,,,,,
224364,1616767148502,,,9,,,0.07,-0.02,1.0,-0,-0,0,0.07,0,,,,,,,,,,,,,,,,
224404,1616767148542,,,9,,,0.07,-0.02,1.0,-0,-0,0,0.07,0,,,,,,,,,,,,,,,,
224444,1616767148582,,,9,,,0.07,-0.02,1.0,-0,-0,0,0.07,0,45.845688,5.178909,0.0,702.5,7,2,1.8,0,0.0,-1,0.0,0.0,0.0,0,0.05,3.7407
224484,1616767148612,,,9,,,0.07,-0.02,1.0,-0,-0,0,0.07,0,,,,,,,,,,,,,,,,
224524,1616767148652,,,9,,,0.07,-0.02,1.0,-0,-0,0,0.07,0,,,,,,,,,,,,,,,,
224564,1616767148701,,,9,,,0.07,-0.02,1.0,-0,-0,0,0.07,0,,,,,,,,,,,,,,,,
224604,1616767148741,,,10,,,0.07,-0.02,1.0,-0,-0,0,0.07,0,,,,,,,,,,,,,,,,
224644,1616767148781,,,10,,,0.07,-0.02,1.0,-0,-0,0,0.07,0,45.845688,5.178909,0.0,702.5,7,2,1.8,0,0.0,-1,0.0,0.0,0.0,0,0.05,3.7441
224684,1616767148811,,,9,,,0.07,-0.02,1.0,-0,-0,0,0.07,0,,,,,,,,,,,,,,,,
224724,1616767148851,,,9,,,0.07,-0.02,1.0,-0,-0,0,0.07,0,,,,,,,,,,,,,,,,
224764,1616767148899,,,9,,,0.07,-0.02,1.0,-0,-0,0,0.07,0,,,,,,,,,,,,,,,,
224804,1616767148939,,,9,,,0.07,-0.02,1.0,-0,-0,0,0.07,0,,,,,,,,,,,,,,,,
224844,1616767148979,,,8,,,0.07,-0.02,1.0,-0,-0,0,0.07,0,45.845688,5.178909,0.0,702.5,7,2,1.8,0,0.0,-1,0.0,0.0,0.0,0,0.05,3.7474
224884,1616767149007,,,9,,,0.07,-0.02,1.0,-0,-0,0,0.07,0,,,,,,,,,,,,,,,,
224924,1616767149047,,,8,,,0.07,-0.02,1.0,-0,-0,0,0.07,0,,,,,,,,,,,,,,,,
224964,1616767149095,,,9,,,0.07,-0.02,1.0,-0,-0,0,0.07,0,,,,,,,,,,,,,,,,
225004,1616767149135,,,10,,,0.07,-0.02,1.0,-0,-0,0,0.07,0,,,,,,,,,,,,,,,,
225044,1616767149175,302,255,9,0.24,13.28,0.07,-0.02,1.0,-0,-0,0,0.07,0,45.845688,5.178909,0.0,702.5,7,2,1.8,0,0.0,-1,0.0,0.0,0.0,0,0.05,3.7507
225084,1616767149221,,,10,,,0.06,-0.02,1.0,-0,-0,0,0.07,0,,,,,,,,,,,,,,,,
225124,1616767149261,,,9,,,0.06,-0.02,1.0,-0,-0,0,0.07,0,,,,,,,,,,,,,,,,
225164,1616767149295,,,9,,,0.07,-0.02,1.0,-0,-0,0,0.07,0,,,,,,,,,,,,,,,,
225204,1616767149335,,,9,,,0.07,-0.02,1.0,-0,-0,0,0.07,0,,,,,,,,,,,,,,,,
225244,1616767149375,,,9,,,0.07,-0.02,1.0,-0,-0,0,0.07,0,45.845688,5.178909,0.0,702.5,7,2,1.8,0,0.0,-1,0.0,0.0,0.0,0,0.05,3.7541
225284,1616767149423,,,10,,,0.07,-0.02,1.0,-0,-0,0,0.07,0,,,,,,,,,,,,,,,,
225324,1616767149463,,,10,,,0.07,-0.02,0.99,-0,-0,0,0.07,0,,,,,,,,,,,,,,,,
225364,1616767149495,,,10,,,0.07,-0.02,1.0,-0,-0,0,0.07,0,,,,,,,,,,,,,,,,
225404,1616767149535,,,8,,,0.07,-0.02,1.0,-0,-0,0,0.07,0,,,,,,,,,,,,,,,,
225444,1616767149575,,,9,,,0.07,-0.02,1.0,-0,-0,0,0.07,0,45.845688,5.178909,0.0,702.5,7,2,1.8,0,0.0,-1,0.0,0.0,0.0,0,0.05,3.7574
225484,1616767149623,,,9,,,0.07,-0.02,1.0,-0,-0,0,0.07,0,,,,,,,,,,,,,,,,
225524,1616767149663,,,9,,,0.07,-0.02,1.0,-0,-0,0,0.07,0,,,,,,,,,,,,,,,,
225564,1616767149695,,,9,,,0.07,-0.02,1.0,-0,-0,0,0.07,0,,,,,,,,,,,,,,,,
225604,1616767149735,,,9,,,0.07,-0.02,1.0,-0,-0,0,0.07,0,,,,,,,,,,,,,,,,
225644,1616767149775,,,10,,,0.07,-0.02,1.0,-0,-0,0,0.07,0,45.845688,5.178909,0.0,702.5,7,2,1.8,0,0.0,-1,0.0,0.0,0.0,0,0.05,3.7607
225684,1616767149822,,,9,,,0.07,-0.02,1.0,-0,-0,0,0.07,0,,,,,,,,,,,,,,,,
225724,1616767149862,,,8,,,0.07,-0.02,1.0,-0,-0,0,0.08,0,,,,,,,,,,,,,,,,
225764,1616767149894,,,9,,,0.08,-0.02,1.0,-0,-0,0,0.08,0,,,,,,,,,,,,,,,,
225804,1616767149934,,,9,,,0.07,-0.02,1.0,0,-0,0,0.08,0,,,,,,,,,,,,,,,,
225844,1616767149974,,,10,,,0.07,-0.02,1.0,0,-0,0,0.08,0,45.845688,5.178909,0.0,702.5,7,2,1.8,0,0.0,-1,0.0,0.0,0.0,0,0.05,3.7641
225884,1616767150020,,,10,,,0.07,-0.02,1.0,-0,-0,-0,0.07,0,,,,,,,,,,,,,,,,
225924,1616767150060,,,10,,,0.07,-0.02,1.0,0,-0,0,0.07,0,,,,,,,,,,,,,,,,
225964,1616767150092,,,10,,,0.07,-0.02,1.0,-0,-0,-0,0.07,0,,,,,,,,,,,,,,,,
226004,1616767150132,,,9,,,0.06,-0.02,1.01,-0,-0,-0,0.07,0,,,,,,,,,,,,,,,,
226044,1616767150172,302,255,9,0.24,13.29,0.06,-0.02,1.0,-0,-0,-0,0.07,0,45.845688,5.178909,0.0,702.5,7,2,1.8,0,0.0,-1,0.0,0.0,0.0,0,0.05,3.7674
226084,1616767150222,,,10,,,0.06,-0.02,1.01,-0,-0,-0,0.07,0,,,,,,,,,,,,,,,,
226124,1616767150262,,,10,,,0.07,-0.02,1.01,-0,-0,0,0.07,0,,,,,,,,,,,,,,,,
226164,1616767150294,,,10,,,0.07,-0.02,1.01,-0,-0,0,0.07,0,,,,,,,,,,,,,,,,
226204,1616767150334,,,9,,,0.07,-0.02,1.01,-0,-0,-0,0.07,0,,,,,,,,,,,,,,,,
226244,1616767150374,,,9,,,0.07,-0.02,1.01,-0,-0,-0,0.07,0,45.845688,5.178909,0.0,702.5,7,2,1.8,0,0.0,-1,0.0,0.0,0.0,0,0.05,3.7707
226284,1616767150422,,,8,,,0.07,-0.02,1.0,-0,-0,0,0.07,0,,,,,,,,,,,,,,,,
226324,1616767150462,,,10,,,0.07,-0.02,1.0,-0,-0,0,0.07,0,,,,,,,,,,,,,,,,
226364,1616767150496,,,9,,,0.07,-0.02,1.0,-0,-0,0,0.07,0,,,,,,,,,,,,,,,,
226404,1616767150536,,,8,,,0.07,-0.02,1.0,-0,-0,0,0.07,0,,,,,,,,,,,,,,,,
226444,1616767150576,,,9,,,0.07,-0.02,1.0,-0,-0,0,0.07,0,45.845688,5.178909,0.0,702.5,7,2,1.8,0,0.0,-1,0.0,0.0,0.0,0,0.05,3.7741
226484,1616767150624,,,9,,,0.07,-0.02,1.01,-0,-0,0,0.07,0,,,,,,,,,,,,,,,,
226524,1616767150664,,,8,,,0.07,-0.02,1.0,-0,-0,0,0.07,0,,,,,,,,,,,,,,,,
226564,1616767150696,,,9,,,0.07,-0.02,1.0,-0,-0,0,0.07,0,,,,,,,,,,,,,,,,
226604,1616767150736,,,9,,,0.07,-0.02,1.0,-0,-0,0,0.07,0,,,,,,,,,,,,,,,,
226644,1616767150776,,,9,,,0.07,-0.02,1.01,-0,-0,0,0.07,0,45.845688,5.178909,0.0,702.5,7,2,1.8,0,0.0,-1,0.0,0.0,0.0,0,0.05,3.7774
226684,1616767150807,,,9,,,0.07,-0.02,1.0,-0,-0,0,0.07,0,,,,,,,,,,,,,,,,
226724,1616767150847,,,9,,,0.07,-0.02,1.0,-0,-0,0,0.07,0,,,,,,,,,,,,,,,,
226764,1616767150897,,,10,,,0.07,-0.02,1.01,-0,-0,-0,0.07,0,,,,,,,,,,,,,,,,
226804,1616767150937,,,10,,,0.07,-0.02,1.0,-0,-0,0,0.07,0,,,,,,,,,,,,,,,,
226844,1616767150977,,,9,,,0.07,-0.02,1.0,-0,-0,0,0.07,0,45.845688,5.178909,0.0,702.5,7,2,1.8,0,0.0,-1,0.0,0.0,0.0,0,0.05,3.7807
226884,1616767151007,,,9,,,0.07,-0.02,1.01,-0,-0,0,0.07,0,,,,,,,,,,,,,,,,
226924,1616767151047,,,10,,,0.07,-0.02,1.01,-0,-0,0,0.07,0,,,,,,,,,,,,,,,,
226964,1616767151096,,,9,,,0.07,-0.02,1.0,-0,-0,0,0.07,0,,,,,,,,,,,,,,,,
227004,1616767151136,,,10,,,0.07,-0.02,1.0,-0,0,0,0.08,0,,,,,,,,,,,,,,,,
227044,1616767151176,302,253,9,0.25,13.29,0.06,-0.02,1.05,-0,-0,-0,0.06,0,45.845688,5.178909,0.0,702.5,7,2,2.3,0,0.0,-1,0.0,0.0,0.0,0,0.05,3.7841
227084,1616767151223,,,9,,,0.07,-0.02,1.04,-0,-0,-0,0.07,0,,,,,,,,,,,,,,,,
227124,1616767151263,,,9,,,0.07,-0.02,1.02,-0,-0,-0,0.08,0,,,,,,,,,,,,,,,,
227164,1616767151297,,,10,,,0.07,-0.02,1.02,-0,-0,-0,0.08,0,,,,,,,,,,,,,,,,
227204,1616767151337,,,10,,,0.07,-0.02,1.02,-0,-0,0,0.07,0,,,,,,,,,,,,,,,,
227244,1616767151377,,,9,,,0.07,-0.02,1.02,-0,-0,-0,0.07,0,45.845688,5.178909,0.0,702.5,7,2,2.3,0,0.0,-1,0.0,0.0,0.0,0,0.05,3.7874
227284,1616767151409,,,8,,,0.07,-0.02,1.01,-0,-0,-0,0.07,0,,,,,,,,,,,,,,,,
227324,1616767151449,,,8,,,0.06,-0.02,1.01,-0,-0,-0,0.07,0,,,,,,,,,,,,,,,,
227364,1616767151499,,,9,,,0.06,-0.02,1.01,-0,-0,-0,0.07,0,,,,,,,,,,,,,,,,
227404,1616767151539,,,10,,,0.06,-0.02,1.01,-0,-0,0,0.07,0,,,,,,,,,,,,,,,,
227444,1616767151579,,,9,,,0.07,-0.02,1.01,-0,-0,-0,0.07,0,45.845688,5.178909,0.0,702.5,7,2,2.3,0,0.0,-1,0.0,0.0,0.0,0,0.05,3.7907
227484,1616767151611,,,9,,,0.07,-0.02,1.01,-0,-0,0,0.07,0,,,,,,,,,,,,,,,,
227524,1616767151651,,,9,,,0.07,-0.02,1.01,-0,-0,0,0.07,0,,,,,,,,,,,,,,,,
227564,1616767151699,,,8,,,0.07,-0.02,1.0,-0,-0,0,0.07,0,,,,,,,,,,,,,,,,
227604,1616767151739,,,9,,,0.06,-0.02,0.99,-0,-0,0,0.07,0,,,,,,,,,,,,,,,,
227644,1616767151779,,,9,,,0.06,-0.02,1.0,-0,-0,0,0.06,0,45.845688,5.178909,0.0,702.5,7,2,2.3,0,0.0,-1,0.0,0.0,0.0,0,0.05,3.7941
227684,1616767151812,,,10,,,0.06,-0.02,1.0,-0,-0,0,0.06,0,,,,,,,,,,,,,,,,
227724,1616767151852,,,9,,,0.06,-0.02,1.0,-0,-0,0,0.06,0,,,,,,,,,,,,,,,,
227764,1616767151902,,,9,,,0.06,-0.02,1.0,-0,-0,0,0.07,0,,,,,,,,,,,,,,,,
227804,1616767151942,,,9,,,0.06,-0.02,1.0,-0,-0,0,0.07,0,,,,,,,,,,,,,,,,
227844,1616767151982,,,8,,,0.07,-0.02,1.0,-0,-0,0,0.07,0,45.845688,5.178909,0.0,702.5,7,2,2.3,0,0.0,-1,0.0,0.0,0.0,0,0.05,3.7974
227884,1616767152010,,,9,,,0.07,-0.02,1.0,-0,-0,-0,0.07,0,,,,,,,,,,,,,,,,
227924,1616767152050,,,9,,,0.07,-0.02,1.0,-0,-0,0,0.07,0,,,,,,,,,,,,,,,,
227964,1616767152104,,,10,,,0.07,-0.02,1.0,-0,-0,-0,0.07,0,,,,,,,,,,,,,,,,
228004,1616767152144,,,9,,,0.07,-0.02,1.0,0,-0,0,0.07,0,,,,,,,,,,,,,,,,
228044,1616767152184,302,251,9,0.24,13.33,0.07,-0.02,1.0,-0,-0,0,0.07,0,45.845688,5.178909,0.0,702.5,7,2,1.8,0,0.0,-1,0.0,0.0,0.0,0,0.05,3.8007
228084,1616767152222,,,9,,,0.07,-0.02,1.0,-0,-0,0,0.07,0,,,,,,,,,,,,,,,,
228124,1616767152262,,,10,,,0.07,-0.02,1.0,0,-0,-0,0.07,0,,,,,,,,,,,,,,,,
228164,1616767152300,,,10,,,0.07,-0.02,1.0,0,-0,-0,0.08,0,,,,,,,,,,,,,,,,
228204,1616767152340,,,9,,,0.07,-0.02,1.0,0,-0,-0,0.08,0,,,,,,,,,,,,,,,,
228244,1616767152380,,,9,,,0.07,-0.02,1.0,-0,-0,-0,0.07,0,45.845688,5.178908,0.0,710.1,7,2,1.8,0,0.0,-1,0.0,0.0,0.0,0,0.05,3.8041
228284,1616767152418,,,10,,,0.07,-0.02,1.0,0,-0,0,0.07,0,,,,,,,,,,,,,,,,
228324,1616767152458,,,8,,,0.07,-0.02,1.0,0,-0,0,0.07,0,,,,,,,,,,,,,,,,
228364,1616767152498,,,9,,,0.07,-0.02,1.0,-0,-0,0,0.07,0,,,,,,,,,,,,,,,,
228404,1616767152538,,,9,,,0.07,-0.02,1.0,0,-0,0,0.07,0,,,,,,,,,,,,,,,,
228444,1616767152578,,,9,,,0.07,-0.02,1.0,-0,-0,0,0.07,0,45.845688,5.178908,0.0,710.1,7,2,1.8,0,0.0,-1,0.0,0.0,0.0,0,0.05,3.8074
228484,1616767152612,,,8,,,0.07,-0.02,1.01,-0,-0,0,0.07,0,,,,,,,,,,,,,,,,
228524,1616767152652,,,9,,,0.07,-0.02,1.01,-0,-0,0,0.07,0,,,,,,,,,,,,,,,,
228564,1616767152703,,,10,,,0.07,-0.02,1.01,0,-0,0,0.07,0,,,,,,,,,,,,,,,,
228604,1616767152743,,,9,,,0.07,-0.02,1.01,-0,-0,0,0.07,0,,,,,,,,,,,,,,,,
228644,1616767152783,,,9,,,0.07,-0.02,1.01,-0,-0,0,0.07,0,45.845688,5.178908,0.0,710.1,7,2,2.0,0,0.0,-1,0.0,0.0,0.0,0,0.05,3.8107
228684,1616767152815,,,9,,,0.07,-0.02,1.01,-0,-0,-0,0.07,0,,,,,,,,,,,,,,,,
228724,1616767152855,,,9,,,0.07,-0.02,1.0,-0,-0,0,0.07,0,,,,,,,,,,,,,,,,
228764,1616767152895,,,9,,,0.07,-0.02,1.01,-0,-0,-0,0.07,0,,,,,,,,,,,,,,,,
228804,1616767152929,,,9,,,0.07,-0.02,1.01,-0,-0,0,0.07,0,,,,,,,,,,,,,,,,
228844,1616767152969,,,9,,,0.07,-0.02,1.01,-0,-0,0,0.07,0,45.845688,5.178908,0.0,710.1,7,2,1.8,0,0.0,-1,0.0,0.0,0.0,0,0.05,3.8141
228884,1616767153017,,,9,,,0.07,-0.02,1.01,-0,-0,0,0.07,0,,,,,,,,,,,,,,,,
228924,1616767153057,,,9,,,0.07,-0.02,1.0,-0,-0,0,0.07,0,,,,,,,,,,,,,,,,
228964,1616767153091,,,9,,,0.07,-0.02,1.0,-0,-0,-0,0.07,0,,,,,,,,,,,,,,,,
229004,1616767153131,,,9,,,0.07,-0.02,1.0,-0,-0,0,0.07,0,,,,,,,,,,,,,,,,
229044,1616767153171,302,254,9,0.25,13.31,0.07,-0.02,1.0,-0,-0,-0,0.07,0,45.845688,5.178908,0.0,710.1,7,2,5.2,0,0.0,-1,0.0,0.0,0.0,0,0.05,3.8174
229084,1616767153221,,,9,,,0.07,-0.02,1.01,-0,-0,-0,0.07,0,,,,,,,,,,,,,,,,
229124,1616767153261,,,9,,,0.07,-0.02,1.01,-0,-0,-0,0.07,0,,,,,,,,,,,,,,,,
229164,1616767153295,,,8,,,0.07,-0.02,1.0,-0,-0,-0,0.07,0,,,,,,,,,,,,,,,,
229204,1616767153335,,,8,,,0.07,-0.02,1.0,-0,-0,-0,0.07,0,,,,,,,,,,,,,,,,
229244,1616767153375,,,8,,,0.07,-0.02,1.0,-0,-0,0,0.07,0,45.845688,5.178908,0.0,710.1,7,2,5.2,0,0.0,-1,0.0,0.0,0.0,0,0.05,3.8207
229284,1616767153411,,,9,,,0.07,-0.02,1.0,-0,-0,0,0.07,0,,,,,,,,,,,,,,,,
229324,1616767153451,,,9,,,0.07,-0.02,1.0,-0,-0,0,0.07,0,,,,,,,,,,,,,,,,
229364,1616767153504,,,8,,,0.07,-0.02,1.0,-0,-0,0,0.07,0,,,,,,,,,,,,,,,,
229404,1616767153544,,,9,,,0.07,-0.02,1.0,-0,-0,0,0.07,0,,,,,,,,,,,,,,,,
229444,1616767153584,,,9,,,0.07,-0.02,1.0,-0,-0,0,0.07,0,45.845688,5.178908,0.0,710.1,7,2,5.2,0,0.0,-1,0.0,0.0,0.0,0,0.05,3.8241
229484,1616767153617,,,8,,,0.07,-0.02,1.0,-0,-0,0,0.07,0,,,,,,,,,,,,,,,,
229524,1616767153657,,,8,,,0.07,-0.02,1.0,-0,-0,0,0.07,0,,,,,,,,,,,,,,,,
229564,1616767153691,,,9,,,0.07,-0.02,1.0,-0,-0,0,0.07,0,,,,,,,,,,,,,,,,
229604,1616767153731,,,9,,,0.07,-0.02,1.0,-0,-0,0,0.07,0,,,,,,,,,,,,,,,,
229644,1616767153771,,,9,,,0.07,-0.02,1.0,-0,-0,0,0.07,0,45.845688,5.178908,0.0,710.1,7,2,5.2,0,0.0,-1,0.0,0.0,0.0,0,0.05,3.8274
229684,1616767153822,,,9,,,0.07,-0.02,1.0,-0,-0,0,0.07,0,,,,,,,,,,,,,,,,
229724,1616767153862,,,9,,,0.07,-0.02,1.0,-0,-0,0,0.07,0,,,,,,,,,,,,,,,,
229764,1616767153894,,,9,,,0.07,-0.02,1.0,-0,-0,0,0.07,0,,,,,,,,,,,,,,,,
229804,1616767153934,,,9,,,0.07,-0.02,1.0,-0,-0,0,0.07,0,,,,,,,,,,,,,,,,
229844,1616767153974,,,9,,,0.07,-0.02,1.0,-0,-0,0,0.07,0,45.845688,5.178908,0.0,710.1,7,2,5.2,0,0.0,-1,0.0,0.0,0.0,0,0.05,3.8307
229884,1616767154006,,,8,,,0.07,-0.02,1.0,-0,-0,0,0.07,0,,,,,,,,,,,,,,,,
229924,1616767154046,,,9,,,0.07,-0.02,1.0,-0,-0,0,0.07,0,,,,,,,,,,,,,,,,
229964,1616767154094,,,9,,,0.07,-0.02,1.0,-0,-0,0,0.07,0,,,,,,,,,,,,,,,,
230004,1616767154134,,,8,,,0.07,-0.02,1.0,-0,-0,-0,0.07,0,,,,,,,,,,,,,,,,
230044,1616767154174,302,252,8,0.24,13.31,0.07,-0.02,1.0,-0,-0,-0,0.07,0,45.845688,5.178908,0.0,710.1,7,2,1.8,0,0.0,-1,0.0,0.0,0.0,0,0.05,3.8341
230084,1616767154224,,,9,,,0.07,-0.02,1.0,-0,-0,-0,0.07,0,,,,,,,,,,,,,,,,
230124,1616767154264,,,9,,,0.07,-0.02,1.0,-0,-0,0,0.07,0,,,,,,,,,,,,,,,,
230164,1616767154299,,,9,,,0.07,-0.02,1.0,-0,-0,0,0.07,0,,,,,,,,,,,,,,,,
230204,1616767154339,,,9,,,0.07,-0.02,1.0,-0,-0,0,0.07,0,,,,,,,,,,,,,,,,
230244,1616767154379,,,9,,,0.07,-0.02,1.0,-0,-0,0,0.07,0,45.845688,5.178908,0.0,710.1,7,2,1.8,0,0.0,-1,0.0,0.0,0.0,0,0.05,3.8374
230284,1616767154410,,,8,,,0.07,-0.02,1.0,-0,-0,0,0.07,0,,,,,,,,,,,,,,,,
230324,1616767154450,,,8,,,0.07,-0.02,1.0,-0,-0,0,0.07,0,,,,,,,,,,,,,,,,
230364,1616767154500,,,9,,,0.07,-0.02,1.0,-0,-0,0,0.07,0,,,,,,,,,,,,,,,,
230404,1616767154540,,,9,,,0.07,-0.02,1.0,-0,-0,0,0.07,0,,,,,,,,,,,,,,,,
230444,1616767154580,,,9,,,0.07,-0.02,1.0,-0,-0,0,0.07,0,45.845688,5.178908,0.0,710.1,7,2,1.8,0,0.0,-1,0.0,0.0,0.0,0,0.05,3.8407
230484,1616767154614,,,8,,,0.07,-0.02,1.0,-0,-0,-0,0.07,0,,,,,,,,,,,,,,,,
230524,1616767154654,,,9,,,0.07,-0.02,1.0,-0,-0,0,0.07,0,,,,,,,,,,,,,,,,
230564,1616767154704,,,9,,,0.07,-0.02,1.0,-0,-0,-0,0.07,0,,,,,,,,,,,,,,,,
230604,1616767154744,,,8,,,0.07,-0.02,1.0,-0,-0,0,0.07,0,,,,,,,,,,,,,,,,
230644,1616767154784,,,9,,,0.07,-0.02,1.0,-0,-0,0,0.07,0,45.845688,5.178908,0.0,710.1,7,2,1.8,0,0.0,-1,0.0,0.0,0.0,0,0.05,3.8441
230684,1616767154807,,,9,,,0.07,-0.02,1.0,-0,-0,0,0.07,0,,,,,,,,,,,,,,,,
230724,1616767154847,,,9,,,0.07,-0.02,1.0,-0,-0,0,0.07,0,,,,,,,,,,,,,,,,
230764,1616767154897,,,8,,,0.07,-0.02,1.0,-0,-0,0,0.07,0,,,,,,,,,,,,,,,,
230804,1616767154937,,,9,,,0.07,-0.02,1.0,-0,-0,0,0.07,0,,,,,,,,,,,,,,,,
230844,1616767154977,,,9,,,0.07,-0.02,1.0,-0,-0,0,0.07,0,45.845688,5.178908,0.0,710.1,7,2,1.8,0,0.0,-1,0.0,0.0,0.0,0,0.05,3.8474
230884,1616767155009,,,9,,,0.07,-0.02,1.0,-0,-0,0,0.07,0,,,,,,,,,,,,,,,,
230924,1616767155049,,,9,,,0.07,-0.02,1.0,-0,-0,0,0.07,0,,,,,,,,,,,,,,,,
230964,1616767155098,,,8,,,0.07,-0.02,1.0,-0,-0,0,0.07,0,,,,,,,,,,,,,,,,
231004,1616767155138,,,9,,,0.07,-0.02,1.0,-0,-0,0,0.07,0,,,,,,,,,,,,,,,,
231044,1616767155178,302,252,9,0.25,13.3,0.07,-0.02,1.0,-0,-0,0,0.07,0,45.845688,5.178908,0.0,710.1,7,2,1.8,0,0.0,-1,0.0,0.0,0.0,0,0.05,3.8507
231084,1616767155209,,,9,,,0.07,-0.02,1.0,-0,-0,0,0.07,0,,,,,,,,,,,,,,,,
231124,1616767155249,,,9,,,0.07,-0.02,1.0,-0,-0,0,0.08,0,,,,,,,,,,,,,,,,
231164,1616767155297,,,9,,,0.07,-0.02,1.0,-0,-0,0,0.07,0,,,,,,,,,,,,,,,,
231204,1616767155337,,,9,,,0.07,-0.02,1.0,-0,-0,-0,0.07,0,,,,,,,,,,,,,,,,
231244,1616767155377,,,9,,,0.07,-0.02,1.0,-0,-0,0,0.07,0,45.845688,5.178908,0.0,710.1,7,2,1.8,0,0.0,-1,0.0,0.0,0.0,0,0.05,3.8541
231284,1616767155409,,,9,,,0.07,-0.02,1.0,-0,-0,0,0.07,0,,,,,,,,,,,,,,,,
231324,1616767155449,,,9,,,0.07,-0.02,1.0,-0,0,0,0.07,0,,,,,,,,,,,,,,,,
231364,1616767155497,,,9,,,0.07,-0.02,1.0,-0,0,0,0.07,0,,,,,,,,,,,,,,,,
231404,1616767155537,,,9,,,0.07,-0.02,1.0,-0,-0,-0,0.07,0,,,,,,,,,,,,,,,,
231444,1616767155577,,,9,,,0.07,-0.02,1.0,-0,-0,0,0.07,0,45.845688,5.178908,0.0,710.1,7,2,1.8,0,0.0,-1,0.0,0.0,0.0,0,0.05,3.8574
231484,1616767155609,,,9,,,0.07,-0.02,1.0,-0,-0,0,0.07,0,,,,,,,,,,,,,,,,
231524,1616767155649,,,8,,,0.07,-0.02,1.0,-0,-0,0,0.07,0,,,,,,,,,,,,,,,,
231564,1616767155699,,,9,,,0.07,-0.02,1.0,-0,-0,0,0.07,0,,,,,,,,,,,,,,,,
231604,1616767155739,,,9,,,0.07,-0.02,1.0,-0,-0,0,0.07,0,,,,,,,,,,,,,,,,
231644,1616767155779,,,9,,,0.07,-0.02,1.0,-0,-0,0,0.07,0,45.845688,5.178908,0.0,710.1,7,2,1.8,0,0.0,-1,0.0,0.0,0.0,0,0.05,3.8607
231684,1616767155812,,,8,,,0.07,-0.02,1.0,-0,-0,0,0.07,0,,,,,,,,,,,,,,,,
231724,1616767155852,,,9,,,0.07,-0.02,1.0,-0,-0,0,0.07,0,,,,,,,,,,,,,,,,
231764,1616767155901,,,8,,,0.07,-0.02,1.0,-0,-0,0,0.07,0,,,,,,,,,,,,,,,,
231804,1616767155941,,,9,,,0.07,-0.02,1.0,-0,-0,0,0.07,0,,,,,,,,,,,,,,,,
231844,1616767155981,,,9,,,0.07,-0.02,1.0,-0,-0,0,0.07,0,45.845688,5.178908,0.0,710.1,7,2,1.8,0,0.0,-1,0.0,0.0,0.0,0,0.05,3.8641
231884,1616767156012,,,9,,,0.07,-0.02,1.0,0,-0,0,0.07,0,,,,,,,,,,,,,,,,
231924,1616767156052,,,9,,,0.07,-0.02,1.0,-0,-0,0,0.07,0,,,,,,,,,,,,,,,,
231964,1616767156092,,,9,,,0.07,-0.02,1.0,0,-0,0,0.07,0,,,,,,,,,,,,,,,,
232004,1616767156130,,,9,,,0.07,-0.02,1.0,0,-0,0,0.07,0,,,,,,,,,,,,,,,,
232044,1616767156170,302,255,9,0.24,13.3,0.07,-0.02,1.0,0,-0,0,0.07,0,45.845688,5.178908,0.0,710.1,7,2,1.8,0,0.0,-1,0.0,0.0,0.0,0,0.05,3.8674
232084,1616767156224,,,8,,,0.07,-0.02,1.0,-0,-0,0,0.07,0,,,,,,,,,,,,,,,,
232124,1616767156264,,,9,,,0.07,-0.02,1.0,0,-0,0,0.07,0,,,,,,,,,,,,,,,,
232164,1616767156302,,,9,,,0.07,-0.02,1.0,0,-0,0,0.07,0,,,,,,,,,,,,,,,,
232204,1616767156342,,,9,,,0.07,-0.02,1.0,-0,-0,0,0.07,0,,,,,,,,,,,,,,,,
232244,1616767156382,,,8,,,0.07,-0.02,1.0,-0,-0,0,0.07,0,45.845688,5.178908,0.0,710.1,7,2,1.8,0,0.0,-1,0.0,0.0,0.0,0,0.05,3.8707
232284,1616767156422,,,9,,,0.07,-0.02,1.0,-0,-0,0,0.07,0,,,,,,,,,,,,,,,,
232324,1616767156462,,,9,,,0.07,-0.02,1.0,-0,-0,0,0.07,0,,,,,,,,,,,,,,,,
232364,1616767156500,,,8,,,0.07,-0.02,1.0,-0,-0,0,0.07,0,,,,,,,,,,,,,,,,
232404,1616767156540,,,9,,,0.07,-0.02,1.0,-0,-0,0,0.07,0,,,,,,,,,,,,,,,,
232444,1616767156580,,,9,,,0.07,-0.02,1.0,-0,-0,0,0.07,0,45.845688,5.178908,0.0,710.1,7,2,1.8,0,0.0,-1,0.0,0.0,0.0,0,0.05,3.8741
232484,1616767156618,,,9,,,0.07,-0.02,1.0,-0,-0,0,0.07,0,,,,,,,,,,,,,,,,
232524,1616767156658,,,8,,,0.07,-0.02,1.0,-0,-0,0,0.07,0,,,,,,,,,,,,,,,,
232564,1616767156696,,,9,,,0.07,-0.02,1.0,-0,-0,0,0.07,0,,,,,,,,,,,,,,,,
232604,1616767156736,,,9,,,0.07,-0.02,1.0,-0,-0,0,0.07,0,,,,,,,,,,,,,,,,
232644,1616767156776,,,9,,,0.07,-0.02,1.0,-0,-0,0,0.07,0,45.845684,5.178907,0.98,707.4,7,2,1.8,0,0.0,-1,0.0,0.0,0.0,0,0.05,3.8774
232684,1616767156813,,,9,,,0.07,-0.02,1.0,-0,-0,0,0.07,0,,,,,,,,,,,,,,,,
232724,1616767156853,,,9,,,0.07,-0.02,1.0,-0,-0,0,0.07,0,,,,,,,,,,,,,,,,
232764,1616767156893,,,9,,,0.07,-0.02,1.0,-0,-0,0,0.07,0,,,,,,,,,,,,,,,,
232804,1616767156933,,,8,,,0.07,-0.02,1.0,-0,-0,0,0.07,0,,,,,,,,,,,,,,,,
232844,1616767156973,,,9,,,0.07,-0.02,1.0,-0,-0,0,0.07,0,45.845684,5.178907,0.0,707.4,7,2,1.8,0,0.0,-1,0.0,0.0,0.0,0,0.05,3.8807
232884,1616767157009,,,9,,,0.07,-0.02,1.0,0,-0,0,0.07,0,,,,,,,,,,,,,,,,
232924,1616767157049,,,8,,,0.07,-0.02,1.0,-0,-0,0,0.07,0,,,,,,,,,,,,,,,,
232964,1616767157101,,,9,,,0.07,-0.02,1.0,-0,-0,0,0.07,0,,,,,,,,,,,,,,,,
233004,1616767157141,,,9,,,0.07,-0.02,1.0,0,-0,0,0.07,0,,,,,,,,,,,,,,,,
233044,1616767157181,302,254,9,0.24,13.3,0.07,-0.02,1.0,-0,-0,0,0.07,0,45.845684,5.178907,0.0,707.4,7,2,1.8,0,0.0,-1,0.0,0.0,0.0,0,0.05,3.8841
233084,1616767157219,,,9,,,0.07,-0.02,1.0,-0,-0,0,0.07,0,,,,,,,,,,,,,,,,
233124,1616767157259,,,9,,,0.07,-0.02,1.0,-0,-0,-0,0.07,0,,,,,,,,,,,,,,,,
233164,1616767157297,,,8,,,0.07,-0.02,1.0,0,-0,0,0.07,0,,,,,,,,,,,,,,,,
233204,1616767157337,,,10,,,0.07,-0.02,1.0,0,-0,0,0.07,0,,,,,,,,,,,,,,,,
233244,1616767157377,,,9,,,0.07,-0.02,1.0,0,-0,0,0.07,0,45.845684,5.178907,0.0,707.4,7,2,1.8,0,0.0,-1,0.0,0.0,0.0,0,0.05,3.8874
233284,1616767157415,,,8,,,0.07,-0.02,1.0,0,-0,0,0.07,0,,,,,,,,,,,,,,,,
233324,1616767157455,,,9,,,0.07,-0.02,1.0,0,-0,0,0.07,0,,,,,,,,,,,,,,,,
233364,1616767157493,,,9,,,0.07,-0.02,1.0,0,-0,0,0.07,0,,,,,,,,,,,,,,,,
233404,1616767157533,,,9,,,0.07,-0.02,1.0,-0,-0,0,0.07,0,,,,,,,,,,,,,,,,
233444,1616767157573,,,9,,,0.07,-0.02,1.0,0,-0,0,0.07,0,45.845684,5.178907,0.0,707.4,7,2,1.8,0,0.0,-1,0.0,0.0,0.0,0,0.05,3.8907
233484,1616767157611,,,8,,,0.07,-0.02,1.0,-0,-0,0,0.07,0,,,,,,,,,,,,,,,,
233524,1616767157651,,,9,,,0.07,-0.02,1.0,-0,-0,0,0.07,0,,,,,,,,,,,,,,,,
233564,1616767157705,,,9,,,0.07,-0.02,1.0,0,-0,0,0.07,0,,,,,,,,,,,,,,,,
233604,1616767157745,,,9,,,0.07,-0.02,1.0,-0,-0,0,0.07,0,,,,,,,,,,,,,,,,
233644,1616767157785,,,9,,,0.07,-0.02,1.0,-0,-0,0,0.07,0,45.845684,5.178907,0.0,707.4,7,2,1.8,0,0.0,-1,0.0,0.0,0.0,0,0.05,3.8941
233684,1616767157822,,,8,,,0.07,-0.02,1.0,-0,-0,0,0.07,0,,,,,,,,,,,,,,,,
233724,1616767157862,,,9,,,0.07,-0.02,1.0,-0,-0,0,0.07,0,,,,,,,,,,,,,,,,
233764,1616767157900,,,9,,,0.07,-0.02,1.0,-0,-0,0,0.07,0,,,,,,,,,,,,,,,,
233804,1616767157940,,,9,,,0.07,-0.02,1.0,-0,-0,-0,0.07,0,,,,,,,,,,,,,,,,
233844,1616767157980,,,8,,,0.07,-0.02,1.0,-0,-0,-0,0.07,0,45.845684,5.178907,0.0,707.4,7,2,1.8,0,0.0,-1,0.0,0.0,0.0,0,0.05,3.8974
233884,1616767158014,,,9,,,0.07,-0.02,1.0,-0,-0,-0,0.07,0,,,,,,,,,,,,,,,,
233924,1616767158054,,,9,,,0.07,-0.02,1.0,-0,-0,-0,0.07,0,,,,,,,,,,,,,,,,
233964,1616767158104,,,9,,,0.07,-0.02,1.0,-0,-0,-0,0.07,0,,,,,,,,,,,,,,,,
234004,1616767158144,,,9,,,0.07,-0.02,1.0,-0,-0,0,0.07,0,,,,,,,,,,,,,,,,
234044,1616767158184,302,254,9,0.24,13.31,0.07,-0.02,1.0,-0,-0,0,0.07,0,45.845684,5.178907,0.0,707.4,7,2,1.9,0,0.0,-1,0.0,0.0,0.0,0,0.05,3.9007
234084,1616767158216,,,9,,,0.07,-0.02,1.0,-0,-0,0,0.07,0,,,,,,,,,,,,,,,,
234124,1616767158256,,,9,,,0.07,-0.02,1.0,-0,-0,0,0.07,0,,,,,,,,,,,,,,,,
234164,1616767158305,,,8,,,0.07,-0.02,1.0,-0,-0,-0,0.07,0,,,,,,,,,,,,,,,,
234204,1616767158345,,,9,,,0.07,-0.02,1.0,-0,-0,0,0.07,0,,,,,,,,,,,,,,,,
234244,1616767158385,,,9,,,0.07,-0.02,1.0,-0,-0,0,0.07,0,45.845684,5.178907,0.0,707.4,7,2,1.9,0,0.0,-1,0.0,0.0,0.0,0,0.05,3.9041
234284,1616767158416,,,9,,,0.07,-0.02,1.0,-0,-0,0,0.07,0,,,,,,,,,,,,,,,,
234324,1616767158456,,,9,,,0.07,-0.02,1.0,-0,-0,0,0.07,0,,,,,,,,,,,,,,,,
234364,1616767158504,,,9,,,0.07,-0.02,1.0,-0,-0,0,0.07,0,,,,,,,,,,,,,,,,
234404,1616767158544,,,8,,,0.07,-0.02,1.0,-0,-0,0,0.07,0,,,,,,,,,,,,,,,,
234444,1616767158584,,,9,,,0.07,-0.02,1.0,-0,-0,0,0.07,0,45.845684,5.178907,0.0,707.4,7,2,1.9,0,0.0,-1,0.0,0.0,0.0,0,0.05,3.9074
234484,1616767158616,,,8,,,0.07,-0.02,1.0,-0,-0,0,0.07,0,,,,,,,,,,,,,,,,
234524,1616767158656,,,9,,,0.07,-0.02,1.0,-0,-0,0,0.07,0,,,,,,,,,,,,,,,,
234564,1616767158702,,,9,,,0.07,-0.02,1.0,-0,-0,0,0.07,0,,,,,,,,,,,,,,,,
234604,1616767158742,,,9,,,0.07,-0.02,1.0,-0,-0,0,0.07,0,,,,,,,,,,,,,,,,
234644,1616767158782,,,9,,,0.07,-0.02,1.0,-0,-0,-0,0.07,0,45.845684,5.178907,0.0,707.4,7,2,1.9,0,0.0,-1,0.0,0.0,0.0,0,0.05,3.9107
234684,1616767158811,,,9,,,0.07,-0.02,1.0,-0,-0,-0,0.07,0,,,,,,,,,,,,,,,,
234724,1616767158851,,,9,,,0.07,-0.02,1.0,-0,-0,-0,0.07,0,,,,,,,,,,,,,,,,
234764,1616767158899,,,9,,,0.07,-0.02,1.0,-0,-0,0,0.07,0,,,,,,,,,,,,,,,,
234804,1616767158939,,,9,,,0.07,-0.02,1.0,-0,-0,-0,0.07,0,,,,,,,,,,,,,,,,
234844,1616767158979,,,9,,,0.07,-0.02,1.0,-0,-0,0,0.07,0,45.845684,5.178907,0.0,707.4,7,2,1.9,0,0.0,-1,0.0,0.0,0.0,0,0.05,3.9141
234884,1616767159011,,,9,,,0.07,-0.02,1.0,-0,-0,0,0.07,0,,,,,,,,,,,,,,,,
234924,1616767159051,,,9,,,0.07,-0.02,1.0,-0,-0,0,0.07,0,,,,,,,,,,,,,,,,
234964,1616767159101,,,9,,,0.07,-0.02,1.0,-0,-0,0,0.07,0,,,,,,,,,,,,,,,,
235004,1616767159141,,,9,,,0.07,-0.02,1.0,-0,-0,0,0.07,0,,,,,,,,,,,,,,,,
235044,1616767159181,302,253,8,0.25,13.29,0.07,-0.02,1.0,-0,-0,0,0.07,0,45.845684,5.178907,0.0,707.4,7,2,1.9,0,0.0,-1,0.0,0.0,0.0,0,0.05,3.9174
235084,1616767159213,,,9,,,0.07,-0.02,1.0,-0,-0,0,0.07,0,,,,,,,,,,,,,,,,
235124,1616767159253,,,9,,,0.07,-0.02,1.0,-0,-0,0,0.07,0,,,,,,,,,,,,,,,,
235164,1616767159301,,,9,,,0.07,-0.02,1.0,-0,-0,0,0.07,0,,,,,,,,,,,,,,,,
235204,1616767159341,,,9,,,0.07,-0.02,1.0,-0,-0,0,0.07,0,,,,,,,,,,,,,,,,
235244,1616767159381,,,9,,,0.07,-0.02,1.0,-0,-0,0,0.07,0,45.845684,5.178907,0.0,707.4,7,2,1.9,0,0.0,-1,0.0,0.0,0.0,0,0.05,3.9207
235284,1616767159415,,,9,,,0.07,-0.02,1.0,-0,-0,0,0.07,0,,,,,,,,,,,,,,,,
235324,1616767159455,,,9,,,0.07,-0.02,1.0,-0,-0,0,0.07,0,,,,,,,,,,,,,,,,
235364,1616767159505,,,9,,,0.07,-0.02,1.0,-0,-0,0,0.07,0,,,,,,,,,,,,,,,,
235404,1616767159545,,,9,,,0.07,-0.02,1.0,0,-0,0,0.07,0,,,,,,,,,,,,,,,,
235444,1616767159585,,,9,,,0.08,-0.02,1.01,-0,-0,0,0.08,0,45.845684,5.178907,0.0,707.4,7,2,1.9,0,0.0,-1,0.0,0.0,0.0,0,0.05,3.9241
235484,1616767159619,,,9,,,0.07,-0.02,1.01,0,-0,0,0.08,0,,,,,,,,,,,,,,,,
235524,1616767159659,,,9,,,0.07,-0.02,1.01,-0,-0,0,0.07,0,,,,,,,,,,,,,,,,
235564,1616767159693,,,9,,,0.07,-0.02,1.01,-0,-0,0,0.08,0,,,,,,,,,,,,,,,,
235604,1616767159733,,,8,,,0.07,-0.02,1.01,-0,-0,0,0.07,0,,,,,,,,,,,,,,,,
235644,1616767159773,,,9,,,0.07,-0.02,1.01,-0,-0,0,0.07,0,45.845684,5.178907,0.0,707.4,7,2,1.9,0,0.0,-1,0.0,0.0,0.0,0,0.05,3.9274
235684,1616767159822,,,8,,,0.07,-0.02,1.01,0,-0,0,0.07,0,,,,,,,,,,,,,,,,
235724,1616767159862,,,10,,,0.07,-0.02,1.01,-0,-0,0,0.07,0,,,,,,,,,,,,,,,,
235764,1616767159899,,,9,,,0.07,-0.02,1.01,-0,-0,0,0.07,0,,,,,,,,,,,,,,,,
235804,1616767159939,,,9,,,0.07,-0.02,1.0,0,-0,0,0.07,0,,,,,,,,,,,,,,,,
235844,1616767159979,,,8,,,0.07,-0.02,1.0,-0,-0,0,0.07,0,45.845684,5.178907,0.0,707.4,7,2,1.9,0,0.0,-1,0.0,0.0,0.0,0,0.05,3.9307
235884,1616767160010,,,9,,,0.07,-0.02,1.0,0,-0,0,0.07,0,,,,,,,,,,,,,,,,
235924,1616767160050,,,9,,,0.07,-0.02,1.0,0,-0,0,0.07,0,,,,,,,,,,,,,,,,
235964,1616767160100,,,9,,,0.07,-0.02,1.0,-0,-0,0,0.07,0,,,,,,,,,,,,,,,,
236004,1616767160140,,,9,,,0.07,-0.02,1.0,-0,-0,0,0.07,0,,,,,,,,,,,,,,,,
236044,1616767160180,302,252,9,0.24,13.3,0.07,-0.02,1.0,0,-0,0,0.07,0,45.845684,5.178907,0.0,707.4,7,2,1.9,0,0.0,-1,0.0,0.0,0.0,0,0.05,3.9341
236084,1616767160216,,,9,,,0.07,-0.02,1.0,0,-0,0,0.07,0,,,,,,,,,,,,,,,,
236124,1616767160256,,,9,,,0.07,-0.02,1.0,0,-0,0,0.07,0,,,,,,,,,,,,,,,,
236164,1616767160296,,,9,,,0.07,-0.02,1.0,0,-0,0,0.07,0,,,,,,,,,,,,,,,,
236204,1616767160330,,,9,,,0.07,-0.02,1.0,0,-0,0,0.07,0,,,,,,,,,,,,,,,,
236244,1616767160370,,,9,,,0.07,-0.02,1.0,0,-0,0,0.07,0,45.845684,5.178907,0.0,707.4,7,2,1.9,0,0.0,-1,0.0,0.0,0.0,0,0.05,3.9374
236284,1616767160420,,,9,,,0.07,-0.02,1.0,0,-0,0,0.07,0,,,,,,,,,,,,,,,,
236324,1616767160460,,,9,,,0.07,-0.02,1.0,0,-0,-0,0.07,0,,,,,,,,,,,,,,,,
236364,1616767160496,,,8,,,0.07,-0.02,1.0,0,-0,-0,0.07,0,,,,,,,,,,,,,,,,
236404,1616767160536,,,9,,,0.07,-0.02,1.0,0,-0,-0,0.07,0,,,,,,,,,,,,,,,,
236444,1616767160576,,,9,,,0.07,-0.02,1.0,0,-0,-0,0.07,0,45.845684,5.178907,0.0,707.4,7,2,1.9,0,0.0,-1,0.0,0.0,0.0,0,0.05,3.9407
236484,1616767160624,,,9,,,0.07,-0.02,1.0,0,-0,-0,0.07,0,,,,,,,,,,,,,,,,
236524,1616767160664,,,8,,,0.07,-0.02,1.0,0,-0,0,0.07,0,,,,,,,,,,,,,,,,
236564,1616767160700,,,9,,,0.07,-0.02,1.0,0,-0,0,0.07,0,,,,,,,,,,,,,,,,
236604,1616767160740,,,9,,,0.07,-0.02,1.0,-0,-0,0,0.07,0,,,,,,,,,,,,,,,,
236644,1616767160780,,,8,,,0.07,-0.02,1.0,-0,-0,-0,0.07,0,45.845684,5.178907,0.0,707.4,7,2,1.9,0,0.0,-1,0.0,0.0,0.0,0,0.05,3.9441
236684,1616767160813,,,9,,,0.07,-0.02,1.0,-0,-0,-0,0.07,0,,,,,,,,,,,,,,,,
236724,1616767160853,,,9,,,0.07,-0.02,1.0,-0,-0,-0,0.07,0,,,,,,,,,,,,,,,,
236764,1616767160903,,,9,,,0.07,-0.02,1.0,-0,-0,-0,0.07,0,,,,,,,,,,,,,,,,
236804,1616767160943,,,9,,,0.07,-0.02,1.0,-0,-0,-0,0.07,0,,,,,,,,,,,,,,,,
236844,1616767160983,,,9,,,0.07,-0.02,1.0,-0,-0,0,0.07,0,45.845684,5.178907,0.0,707.4,7,2,1.9,0,0.0,-1,0.0,0.0,0.0,0,0.05,3.9474
236884,1616767161015,,,8,,,0.07,-0.02,1.0,-0,-0,0,0.07,0,,,,,,,,,,,,,,,,
236924,1616767161055,,,8,,,0.07,-0.02,1.0,-0,-0,0,0.07,0,,,,,,,,,,,,,,,,
236964,1616767161095,,,9,,,0.07,-0.02,1.0,-0,-0,0,0.07,0,,,,,,,,,,,,,,,,
237004,1616767161129,,,9,,,0.07,-0.02,1.0,-0,-0,0,0.07,0,,,,,,,,,,,,,,,,
237044,1616767161169,302,253,9,0.24,13.29,0.07,-0.02,1.0,-0,-0,0,0.07,0,45.845684,5.178907,0.0,707.4,7,2,2.2,0,0.0,-1,0.0,0.0,0.0,0,0.05,3.9507
237084,1616767161221,,,9,,,0.07,-0.02,1.0,-0,-0,0,0.07,0,,,,,,,,,,,,,,,,
237124,1616767161261,,,9,,,0.07,-0.02,1.01,-0,-0,0,0.07,0,,,,,,,,,,,,,,,,
237164,1616767161295,,,9,,,0.07,-0.02,1.01,-0,-0,0,0.07,0,,,,,,,,,,,,,,,,
237204,1616767161335,,,9,,,0.07,-0.02,1.01,-0,-0,0,0.07,0,,,,,,,,,,,,,,,,
237244,1616767161375,,,9,,,0.07,-0.02,1.01,-0,-0,0,0.07,0,45.845684,5.178907,0.0,707.4,7,2,2.2,0,0.0,-1,0.0,0.0,0.0,0,0.05,3.9541
237284,1616767161425,,,9,,,0.07,-0.02,1.01,-0,-0,0,0.07,0,,,,,,,,,,,,,,,,
237324,1616767161465,,,9,,,0.07,-0.02,1.01,-0,-0,0,0.07,0,,,,,,,,,,,,,,,,
237364,1616767161498,,,9,,,0.06,-0.02,1.0,-0,-0,0,0.07,0,,,,,,,,,,,,,,,,
237404,1616767161538,,,9,,,0.06,-0.02,1.0,-0,-0,0,0.07,0,,,,,,,,,,,,,,,,
237444,1616767161578,,,9,,,0.06,-0.02,1.0,-0,-0,0,0.07,0,45.845684,5.178907,0.0,707.4,7,2,2.2,0,0.0,-1,0.0,0.0,0.0,0,0.05,3.9574
237484,1616767161611,,,8,,,0.06,-0.02,1.0,-0,-0,0,0.07,0,,,,,,,,,,,,,,,,
237524,1616767161651,,,9,,,0.06,-0.02,1.0,-0,-0,0,0.07,0,,,,,,,,,,,,,,,,
237564,1616767161699,,,9,,,0.07,-0.02,1.0,0,-0,0,0.07,0,,,,,,,,,,,,,,,,
237604,1616767161739,,,9,,,0.07,-0.02,1.0,0,-0,0,0.07,0,,,,,,,,,,,,,,,,
237644,1616767161779,,,9,,,0.07,-0.02,1.0,0,-0,0,0.07,0,45.845684,5.178907,0.0,707.4,7,2,2.2,0,0.0,-1,0.0,0.0,0.0,0,0.05,3.9607
237684,1616767161812,,,8,,,0.07,-0.02,1.0,0,-0,0,0.07,0,,,,,,,,,,,,,,,,
237724,1616767161852,,,8,,,0.07,-0.02,1.0,0,-0,0,0.07,0,,,,,,,,,,,,,,,,
237764,1616767161902,,,8,,,0.07,-0.02,1.0,0,-0,0,0.07,0,,,,,,,,,,,,,,,,
237804,1616767161942,,,9,,,0.07,-0.02,1.0,-0,-0,0,0.07,0,,,,,,,,,,,,,,,,
237844,1616767161982,,,10,,,0.07,-0.02,1.0,-0,-0,0,0.07,0,45.845684,5.178907,0.0,707.4,7,2,2.2,0,0.0,-1,0.0,0.0,0.0,0,0.05,3.9641
237884,1616767162012,,,9,,,0.07,-0.02,1.0,-0,-0,0,0.07,0,,,,,,,,,,,,,,,,
237924,1616767162052,,,9,,,0.07,-0.02,1.0,-0,-0,0,0.08,0,,,,,,,,,,,,,,,,
237964,1616767162102,,,9,,,0.07,-0.02,1.0,-0,-0,0,0.08,0,,,,,,,,,,,,,,,,
238004,1616767162142,,,8,,,0.07,-0.02,1.0,-0,-0,0,0.08,0,,,,,,,,,,,,,,,,
238044,1616767162182,302,253,9,0.24,13.3,0.07,-0.02,1.0,-0,-0,0,0.07,0,45.845684,5.178907,0.0,707.4,7,2,1.8,0,0.0,-1,0.0,0.0,0.0,0,0.05,3.9674
238084,1616767162216,,,9,,,0.07,-0.02,1.0,-0,-0,0,0.07,0,,,,,,,,,,,,,,,,
238124,1616767162256,,,9,,,0.07,-0.02,1.0,-0,-0,0,0.07,0,,,,,,,,,,,,,,,,
238164,1616767162296,,,9,,,0.07,-0.02,1.0,-0,-0,0,0.07,0,,,,,,,,,,,,,,,,
238204,1616767162330,,,9,,,0.07,-0.02,1.0,-0,-0,0,0.07,0,,,,,,,,,,,,,,,,
238244,1616767162370,,,9,,,0.07,-0.02,1.0,-0,-0,0,0.07,0,45.845684,5.178907,0.0,707.4,7,2,1.8,0,0.0,-1,0.0,0.0,0.0,0,0.05,3.9707
238284,1616767162418,,,9,,,0.07,-0.02,1.0,-0,-0,0,0.07,0,,,,,,,,,,,,,,,,
238324,1616767162458,,,9,,,0.07,-0.02,1.0,-0,-0,0,0.07,0,,,,,,,,,,,,,,,,
238364,1616767162492,,,9,,,0.07,-0.02,1.0,-0,-0,0,0.07,0,,,,,,,,,,,,,,,,
238404,1616767162532,,,9,,,0.07,-0.02,1.0,-0,-0,0,0.07,0,,,,,,,,,,,,,,,,
238444,1616767162572,,,9,,,0.07,-0.02,1.0,-0,-0,0,0.07,0,45.845684,5.178907,0.0,707.4,7,2,1.8,0,0.0,-1,0.0,0.0,0.0,0,0.05,3.9741
238484,1616767162622,,,9,,,0.07,-0.02,1.0,-0,-0,0,0.07,0,,,,,,,,,,,,,,,,
238524,1616767162662,,,9,,,0.07,-0.02,1.0,0,-0,0,0.07,0,,,,,,,,,,,,,,,,
238564,1616767162696,,,8,,,0.07,-0.02,1.0,0,-0,0,0.07,0,,,,,,,,,,,,,,,,
238604,1616767162736,,,9,,,0.07,-0.02,1.0,-0,-0,0,0.07,0,,,,,,,,,,,,,,,,
238644,1616767162776,,,9,,,0.07,-0.02,1.0,-0,-0,0,0.07,0,45.845684,5.178907,0.0,707.4,7,2,1.8,0,0.0,-1,0.0,0.0,0.0,0,0.05,3.9774
238684,1616767162809,,,9,,,0.07,-0.02,1.0,-0,-0,0,0.07,0,,,,,,,,,,,,,,,,
238724,1616767162849,,,9,,,0.07,-0.02,1.0,-0,-0,0,0.07,0,,,,,,,,,,,,,,,,
238764,1616767162899,,,9,,,0.07,-0.02,1.0,0,-0,0,0.07,0,,,,,,,,,,,,,,,,
238804,1616767162939,,,9,,,0.07,-0.02,1.0,-0,-0,0,0.07,0,,,,,,,,,,,,,,,,
238844,1616767162979,,,9,,,0.07,-0.02,1.0,0,-0,0,0.07,0,45.845684,5.178907,0.0,707.4,7,2,1.8,0,0.0,-1,0.0,0.0,0.0,0,0.05,3.9807
238884,1616767163009,,,9,,,0.07,-0.02,1.0,-0,-0,0,0.07,0,,,,,,,,,,,,,,,,
238924,1616767163049,,,8,,,0.07,-0.02,1.0,-0,-0,0,0.07,0,,,,,,,,,,,,,,,,
238964,1616767163100,,,9,,,0.07,-0.02,1.0,-0,-0,0,0.07,0,,,,,,,,,,,,,,,,
239004,1616767163140,,,8,,,0.07,-0.02,1.0,-0,-0,0,0.07,0,,,,,,,,,,,,,,,,
239044,1616767163180,302,252,8,0.24,13.28,0.07,-0.02,1.0,-0,-0,0,0.07,0,45.845684,5.178907,0.0,707.4,7,2,1.8,0,0.0,-1,0.0,0.0,0.0,0,0.05,3.9841
239084,1616767163213,,,8,,,0.07,-0.02,1.0,-0,-0,-0,0.07,0,,,,,,,,,,,,,,,,
239124,1616767163253,,,9,,,0.07,-0.02,1.0,-0,-0,-0,0.07,0,,,,,,,,,,,,,,,,
239164,1616767163303,,,9,,,0.07,-0.02,1.0,-0,-0,0,0.07,0,,,,,,,,,,,,,,,,
239204,1616767163343,,,9,,,0.07,-0.02,1.0,-0,-0,-0,0.07,0,,,,,,,,,,,,,,,,
239244,1616767163383,,,9,,,0.07,-0.02,1.0,-0,-0,-0,0.07,0,45.845684,5.178907,0.0,707.4,7,2,1.8,0,0.0,-1,0.0,0.0,0.0,0,0.05,3.9874
239284,1616767163419,,,9,,,0.07,-0.02,1.0,-0,-0,-0,0.07,0,,,,,,,,,,,,,,,,
239324,1616767163459,,,8,,,0.07,-0.02,1.0,-0,-0,-0,0.07,0,,,,,,,,,,,,,,,,
239364,1616767163493,,,9,,,0.07,-0.02,1.0,-0,-0,-0,0.07,0,,,,,,,,,,,,,,,,
239404,1616767163533,,,8,,,0.07,-0.02,1.0,-0,-0,0,0.07,0,,,,,,,,,,,,,,,,
239444,1616767163573,,,9,,,0.07,-0.02,1.0,-0,-0,-0,0.07,0,45.845684,5.178907,0.0,707.4,7,2,1.8,0,0.0,-1,0.0,0.0,0.0,0,0.05,3.9907
239484,1616767163621,,,10,,,0.07,-0.02,1.0,-0,-0,0,0.07,0,,,,,,,,,,,,,,,,
239524,1616767163661,,,9,,,0.07,-0.02,1.0,-0,-0,0,0.07,0,,,,,,,,,,,,,,,,
239564,1616767163695,,,9,,,0.07,-0.02,1.0,-0,-0,0,0.07,0,,,,,,,,,,,,,,,,
239604,1616767163735,,,9,,,0.07,-0.02,1.0,-0,-0,0,0.07,0,,,,,,,,,,,,,,,,
239644,1616767163775,,,8,,,0.07,-0.02,1.0,-0,-0,-0,0.07,0,45.845684,5.178907,0.0,707.4,7,2,1.8,0,0.0,-1,0.0,0.0,0.0,0,0.05,3.9941
239684,1616767163808,,,9,,,0.07,-0.02,1.0,-0,-0,0,0.07,0,,,,,,,,,,,,,,,,
239724,1616767163848,,,9,,,0.07,-0.02,1.0,-0,-0,0,0.07,0,,,,,,,,,,,,,,,,
239764,1616767163900,,,9,,,0.07,-0.02,1.0,-0,-0,0,0.07,0,,,,,,,,,,,,,,,,
239804,1616767163940,,,9,,,0.07,-0.02,1.0,-0,-0,0,0.07,0,,,,,,,,,,,,,,,,
239844,1616767163980,,,9,,,0.07,-0.02,1.0,-0,-0,0,0.08,0,45.845684,5.178907,0.0,707.4,7,2,1.8,0,0.0,-1,0.0,0.0,0.0,0,0.05,3.9974
239884,1616767164010,,,9,,,0.07,-0.02,1.0,-0,-0,-0,0.08,0,,,,,,,,,,,,,,,,
239924,1616767164050,,,9,,,0.07,-0.02,1.0,-0,-0,-0,0.08,0,,,,,,,,,,,,,,,,
239964,1616767164100,,,9,,,0.07,-0.02,1.0,-0,-0,-0,0.08,0,,,,,,,,,,,,,,,,
240004,1616767164140,,,9,,,0.07,-0.02,1.0,0,-0,-0,0.07,0,,,,,,,,,,,,,,,,
240044,1616767164180,302,253,9,0.24,13.3,0.07,-0.02,1.0,0,-0,-0,0.07,0,45.845684,5.178907,0.0,707.4,7,2,1.8,0,0.0,-1,0.0,0.0,0.0,0,0.05,4.0007
240084,1616767164214,,,9,,,0.07,-0.02,1.0,-0,-0,0,0.07,0,,,,,,,,,,,,,,,,
240124,1616767164254,,,9,,,0.06,-0.02,1.0,-0,-0,0,0.07,0,,,,,,,,,,,,,,,,
240164,1616767164304,,,9,,,0.06,-0.02,1.0,-0,-0,0,0.07,0,,,,,,,,,,,,,,,,
240204,1616767164344,,,9,,,0.06,-0.02,1.0,-0,-0,0,0.07,0,,,,,,,,,,,,,,,,
240244,1616767164384,,,9,,,0.06,-0.02,1.0,-0,-0,0,0.07,0,45.845684,5.178907,0.0,707.4,7,2,1.8,0,0.0,-1,0.0,0.0,0.0,0,0.05,4.0041
240284,1616767164418,,,9,,,0.06,-0.02,1.0,-0,-0,0,0.07,0,,,,,,,,,,,,,,,,
240324,1616767164458,,,9,,,0.06,-0.02,1.0,-0,-0,0,0.07,0,,,,,,,,,,,,,,,,
240364,1616767164492,,,9,,,0.07,-0.02,1.0,-0,-0,0,0.07,0,,,,,,,,,,,,,,,,
240404,1616767164532,,,9,,,0.07,-0.02,1.0,-0,-0,0,0.07,0,,,,,,,,,,,,,,,,
240444,1616767164572,,,9,,,0.07,-0.02,1.0,-0,-0,0,0.07,0,45.845684,5.178907,0.0,707.4,7,2,1.8,0,0.0,-1,0.0,0.0,0.0,0,0.05,4.0074
240484,1616767164622,,,8,,,0.07,-0.02,1.0,-0,-0,0,0.08,0,,,,,,,,,,,,,,,,
240524,1616767164662,,,9,,,0.07,-0.02,1.0,-0,-0,0,0.08,0,,,,,,,,,,,,,,,,
240564,1616767164697,,,9,,,0.07,-0.02,1.0,-0,-0,0,0.08,0,,,,,,,,,,,,,,,,
240604,1616767164737,,,9,,,0.07,-0.02,1.0,-0,-0,0,0.07,0,,,,,,,,,,,,,,,,
240644,1616767164777,,,9,,,0.07,-0.02,1.0,-0,-0,0,0.07,0,45.845684,5.178907,0.0,707.4,7,2,1.8,0,0.0,-1,0.0,0.0,0.0,0,0.05,4.0107
240684,1616767164809,,,9,,,0.07,-0.02,1.0,-0,-0,0,0.07,0,,,,,,,,,,,,,,,,
240724,1616767164849,,,9,,,0.07,-0.02,1.0,-0,-0,0,0.07,0,,,,,,,,,,,,,,,,
240764,1616767164899,,,8,,,0.07,-0.02,1.0,-0,-0,-0,0.07,0,,,,,,,,,,,,,,,,
240804,1616767164939,,,9,,,0.07,-0.02,1.0,-0,-0,-0,0.07,0,,,,,,,,,,,,,,,,
240844,1616767164979,,,9,,,0.07,-0.02,1.0,-0,-0,0,0.07,0,45.845684,5.178907,0.0,707.4,7,2,1.8,0,0.0,-1,0.0,0.0,0.0,0,0.05,4.0141
240884,1616767165013,,,8,,,0.07,-0.02,1.0,-0,-0,0,0.07,0,,,,,,,,,,,,,,,,
240924,1616767165053,,,9,,,0.07,-0.02,1.0,-0,-0,0,0.07,0,,,,,,,,,,,,,,,,
240964,1616767165093,,,8,,,0.07,-0.02,1.0,-0,-0,-0,0.07,0,,,,,,,,,,,,,,,,
241004,1616767165133,,,9,,,0.07,-0.02,1.0,-0,-0,0,0.07,0,,,,,,,,,,,,,,,,
241044,1616767165173,302,256,9,0.24,13.3,0.07,-0.02,1.0,-0,-0,0,0.07,0,45.845684,5.178907,0.0,707.4,7,2,1.8,0,0.0,-1,0.0,0.0,0.0,0,0.05,4.0174
241084,1616767165211,,,9,,,0.07,-0.02,1.0,-0,-0,0,0.07,0,,,,,,,,,,,,,,,,
241124,1616767165251,,,8,,,0.07,-0.02,1.0,-0,-0,0,0.07,0,,,,,,,,,,,,,,,,
241164,1616767165291,,,9,,,0.07,-0.02,1.0,-0,-0,0,0.07,0,,,,,,,,,,,,,,,,
241204,1616767165331,,,9,,,0.07,-0.02,1.0,-0,-0,0,0.07,0,,,,,,,,,,,,,,,,
241244,1616767165371,,,9,,,0.07,-0.02,1.0,-0,-0,0,0.07,0,45.845684,5.178907,0.0,707.4,7,2,1.8,0,0.0,-1,0.0,0.0,0.0,0,0.05,4.0207
241284,1616767165411,,,9,,,0.07,-0.02,1.0,-0,-0,-0,0.07,0,,,,,,,,,,,,,,,,
241324,1616767165451,,,9,,,0.07,-0.02,1.0,-0,-0,-0,0.07,0,,,,,,,,,,,,,,,,
241364,1616767165502,,,8,,,0.07,-0.02,1.0,-0,-0,-0,0.07,0,,,,,,,,,,,,,,,,
241404,1616767165542,,,9,,,0.07,-0.02,1.0,-0,-0,-0,0.07,0,,,,,,,,,,,,,,,,
241444,1616767165582,,,9,,,0.07,-0.02,1.0,-0,-0,-0,0.07,0,45.845684,5.178907,0.0,707.4,7,2,1.8,0,0.0,-1,0.0,0.0,0.0,0,0.05,4.0241
241484,1616767165617,,,9,,,0.07,-0.02,1.0,-0,-0,0,0.07,0,,,,,,,,,,,,,,,,
241524,1616767165657,,,9,,,0.06,-0.02,1.0,-0,-0,0,0.07,0,,,,,,,,,,,,,,,,
241564,1616767165693,,,9,,,0.06,-0.02,1.0,-0,-0,0,0.07,0,,,,,,,,,,,,,,,,
241604,1616767165733,,,9,,,0.06,-0.02,1.0,-0,-0,0,0.07,0,,,,,,,,,,,,,,,,
241644,1616767165773,,,9,,,0.07,-0.02,1.0,-0,-0,0,0.07,0,45.845684,5.178907,0.0,707.4,7,2,1.8,0,0.0,-1,0.0,0.0,0.0,0,0.05,4.0274
241684,1616767165822,,,8,,,0.07,-0.02,1.0,-0,-0,0,0.07,0,,,,,,,,,,,,,,,,
241724,1616767165862,,,8,,,0.07,-0.02,1.0,-0,-0,0,0.07,0,,,,,,,,,,,,,,,,
241764,1616767165898,,,9,,,0.07,-0.02,1.0,-0,-0,0,0.07,0,,,,,,,,,,,,,,,,
241804,1616767165938,,,9,,,0.07,-0.02,1.0,-0,-0,0,0.07,0,,,,,,,,,,,,,,,,
241844,1616767165978,,,9,,,0.07,-0.02,1.0,-0,-0,0,0.08,0,45.845684,5.178907,0.0,707.4,7,2,1.8,0,0.0,-1,0.0,0.0,0.0,0,0.05,4.0307
241884,1616767166010,,,9,,,0.07,-0.02,1.0,-0,-0,0,0.08,0,,,,,,,,,,,,,,,,
241924,1616767166050,,,8,,,0.07,-0.02,1.0,-0,-0,0,0.08,0,,,,,,,,,,,,,,,,
241964,1616767166102,,,8,,,0.07,-0.02,1.0,-0,-0,0,0.08,0,,,,,,,,,,,,,,,,
242004,1616767166142,,,9,,,0.07,-0.02,1.0,-0,-0,0,0.08,0,,,,,,,,,,,,,,,,
242044,1616767166182,302,254,9,0.24,13.3,0.07,-0.02,1.0,-0,-0,0,0.07,0,45.845684,5.178907,0.0,707.4,7,2,1.9,0,0.0,-1,0.0,0.0,0.0,0,0.05,4.0341
242084,1616767166218,,,9,,,0.07,-0.02,1.0,-0,-0,0,0.07,0,,,,,,,,,,,,,,,,
242124,1616767166258,,,9,,,0.07,-0.02,1.0,-0,-0,0,0.07,0,,,,,,,,,,,,,,,,
242164,1616767166295,,,9,,,0.07,-0.02,1.0,-0,-0,0,0.07,0,,,,,,,,,,,,,,,,
242204,1616767166335,,,9,,,0.07,-0.02,1.0,-0,-0,0,0.07,0,,,,,,,,,,,,,,,,
242244,1616767166375,,,9,,,0.07,-0.02,1.0,-0,-0,0,0.07,0,45.845684,5.178907,0.0,707.4,7,2,1.9,0,0.0,-1,0.0,0.0,0.0,0,0.05,4.0374
242284,1616767166410,,,8,,,0.07,-0.02,1.0,-0,-0,0,0.07,0,,,,,,,,,,,,,,,,
242324,1616767166450,,,9,,,0.07,-0.02,1.0,-0,-0,0,0.07,0,,,,,,,,,,,,,,,,
242364,1616767166500,,,9,,,0.07,-0.02,1.0,-0,-0,0,0.07,0,,,,,,,,,,,,,,,,
242404,1616767166540,,,9,,,0.07,-0.02,1.0,-0,-0,0,0.07,0,,,,,,,,,,,,,,,,
242444,1616767166580,,,8,,,0.07,-0.02,1.0,-0,-0,0,0.07,0,45.845684,5.178907,0.0,707.4,7,2,1.9,0,0.0,-1,0.0,0.0,0.0,0,0.05,4.0407
242484,1616767166616,,,9,,,0.07,-0.02,1.0,-0,-0,0,0.07,0,,,,,,,,,,,,,,,,
242524,1616767166656,,,9,,,0.07,-0.02,1.0,-0,-0,0,0.07,0,,,,,,,,,,,,,,,,
242564,1616767166692,,,9,,,0.07,-0.02,1.0,-0,-0,0,0.08,0,,,,,,,,,,,,,,,,
242604,1616767166732,,,9,,,0.07,-0.02,1.0,-0,-0,0,0.08,0,,,,,,,,,,,,,,,,
242644,1616767166772,,,8,,,0.07,-0.02,1.0,-0,-0,0,0.08,0,45.845684,5.178907,0.0,707.4,7,2,1.9,0,0.0,-1,0.0,0.0,0.0,0,0.05,4.0441
242684,1616767166821,,,9,,,0.07,-0.02,1.0,-0,-0,0,0.08,0,,,,,,,,,,,,,,,,
242724,1616767166861,,,9,,,0.07,-0.02,1.0,-0,-0,0,0.07,0,,,,,,,,,,,,,,,,
242764,1616767166897,,,9,,,0.07,-0.02,1.0,0,-0,0,0.07,0,,,,,,,,,,,,,,,,
242804,1616767166937,,,9,,,0.07,-0.02,1.0,0,-0,0,0.07,0,,,,,,,,,,,,,,,,
242844,1616767166977,,,8,,,0.07,-0.02,1.0,0,-0,0,0.07,0,45.845684,5.178907,0.0,707.4,7,2,1.9,0,0.0,-1,0.0,0.0,0.0,0,0.05,4.0474
242884,1616767167009,,,9,,,0.07,-0.02,1.0,-0,-0,0,0.07,0,,,,,,,,,,,,,,,,
242924,1616767167049,,,9,,,0.07,-0.02,1.0,-0,-0,0,0.07,0,,,,,,,,,,,,,,,,
242964,1616767167101,,,9,,,0.07,-0.02,1.0,0,-0,0,0.07,0,,,,,,,,,,,,,,,,
243004,1616767167141,,,8,,,0.07,-0.02,1.0,0,-0,0,0.07,0,,,,,,,,,,,,,,,,
243044,1616767167181,302,253,9,0.25,13.32,0.07,-0.02,1.0,-0,-0,0,0.07,0,45.845684,5.178907,0.0,707.4,7,2,1.8,0,0.0,-1,0.0,0.0,0.0,0,0.05,4.0507
243084,1616767167215,,,9,,,0.07,-0.02,1.0,-0,-0,0,0.07,0,,,,,,,,,,,,,,,,
243124,1616767167255,,,9,,,0.07,-0.02,1.0,-0,-0,0,0.07,0,,,,,,,,,,,,,,,,
243164,1616767167295,,,9,,,0.07,-0.02,1.0,-0,-0,0,0.07,0,,,,,,,,,,,,,,,,
243204,1616767167329,,,8,,,0.07,-0.02,1.0,-0,-0,0,0.07,0,,,,,,,,,,,,,,,,
243244,1616767167369,,,9,,,0.07,-0.02,1.0,-0,-0,0,0.07,0,45.845684,5.178907,0.0,707.4,7,2,1.8,0,0.0,-1,0.0,0.0,0.0,0,0.05,4.0541
243284,1616767167421,,,9,,,0.07,-0.02,1.0,-0,-0,0,0.07,0,,,,,,,,,,,,,,,,
243324,1616767167461,,,9,,,0.07,-0.02,1.0,0,-0,0,0.07,0,,,,,,,,,,,,,,,,
243364,1616767167495,,,9,,,0.07,-0.02,1.0,-0,-0,0,0.07,0,,,,,,,,,,,,,,,,
243404,1616767167535,,,9,,,0.07,-0.02,1.0,-0,-0,0,0.07,0,,,,,,,,,,,,,,,,
243444,1616767167575,,,9,,,0.07,-0.02,1.0,-0,-0,0,0.07,0,45.845684,5.178907,0.0,707.4,7,2,1.8,0,0.0,-1,0.0,0.0,0.0,0,0.05,4.0574
243484,1616767167611,,,9,,,0.07,-0.02,1.0,0,-0,0,0.07,0,,,,,,,,,,,,,,,,
243524,1616767167651,,,8,,,0.07,-0.02,1.0,0,-0,0,0.07,0,,,,,,,,,,,,,,,,
243564,1616767167699,,,8,,,0.07,-0.02,1.0,0,-0,0,0.07,0,,,,,,,,,,,,,,,,
243604,1616767167739,,,9,,,0.07,-0.02,1.0,0,-0,0,0.07,0,,,,,,,,,,,,,,,,
243644,1616767167779,,,9,,,0.07,-0.02,1.0,-0,-0,0,0.07,0,45.845684,5.178907,0.0,707.4,7,2,1.8,0,0.0,-1,0.0,0.0,0.0,0,0.05,4.0607
243684,1616767167812,,,9,,,0.07,-0.02,1.0,-0,-0,0,0.07,0,,,,,,,,,,,,,,,,
243724,1616767167852,,,9,,,0.07,-0.02,1.0,0,-0,0,0.07,0,,,,,,,,,,,,,,,,
243764,1616767167904,,,8,,,0.07,-0.02,1.0,0,-0,0,0.07,0,,,,,,,,,,,,,,,,
243804,1616767167944,,,8,,,0.07,-0.02,1.0,-0,-0,0,0.07,0,,,,,,,,,,,,,,,,
243844,1616767167984,,,9,,,0.07,-0.02,1.0,-0,-0,0,0.07,0,45.845684,5.178907,0.0,707.4,7,2,1.8,0,0.0,-1,0.0,0.0,0.0,0,0.05,4.0641
243884,1616767168016,,,9,,,0.07,-0.02,1.0,-0,-0,0,0.07,0,,,,,,,,,,,,,,,,
243924,1616767168056,,,9,,,0.07,-0.02,1.0,-0,-0,0,0.07,0,,,,,,,,,,,,,,,,
243964,1616767168092,,,9,,,0.07,-0.02,1.0,-0,-0,0,0.08,0,,,,,,,,,,,,,,,,
244004,1616767168132,,,9,,,0.07,-0.02,1.0,-0,-0,0,0.08,0,,,,,,,,,,,,,,,,
244044,1616767168172,302,254,9,0.24,13.3,0.07,-0.02,1.0,-0,-0,-0,0.07,0,45.845684,5.178907,0.0,707.4,7,2,1.8,0,0.0,-1,0.0,0.0,0.0,0,0.05,4.0674
244084,1616767168222,,,8,,,0.07,-0.02,1.0,-0,-0,-0,0.07,0,,,,,,,,,,,,,,,,
244124,1616767168262,,,8,,,0.07,-0.02,1.0,-0,-0,-0,0.07,0,,,,,,,,,,,,,,,,
244164,1616767168296,,,9,,,0.07,-0.02,1.0,-0,-0,0,0.07,0,,,,,,,,,,,,,,,,
244204,1616767168336,,,9,,,0.07,-0.02,1.0,-0,-0,0,0.07,0,,,,,,,,,,,,,,,,
244244,1616767168376,,,9,,,0.07,-0.02,1.0,-0,-0,0,0.07,0,45.845684,5.178907,0.0,707.4,7,2,1.8,0,0.0,-1,0.0,0.0,0.0,0,0.05,4.0707
244284,1616767168410,,,9,,,0.07,-0.02,1.0,-0,-0,0,0.07,0,,,,,,,,,,,,,,,,
244324,1616767168450,,,9,,,0.07,-0.02,1.0,-0,-0,0,0.07,0,,,,,,,,,,,,,,,,
244364,1616767168500,,,9,,,0.07,-0.02,1.0,-0,-0,0,0.08,0,,,,,,,,,,,,,,,,
244404,1616767168540,,,9,,,0.07,-0.02,1.0,-0,-0,0,0.08,0,,,,,,,,,,,,,,,,
244444,1616767168580,,,9,,,0.07,-0.02,1.0,-0,-0,0,0.08,0,45.845684,5.178907,0.0,707.4,7,2,1.8,0,0.0,-1,0.0,0.0,0.0,0,0.05,4.0741
244484,1616767168612,,,9,,,0.07,-0.02,1.0,-0,-0,0,0.07,0,,,,,,,,,,,,,,,,
244524,1616767168652,,,9,,,0.07,-0.02,1.0,-0,-0,0,0.07,0,,,,,,,,,,,,,,,,
244564,1616767168704,,,8,,,0.07,-0.02,1.0,-0,-0,-0,0.07,0,,,,,,,,,,,,,,,,
244604,1616767168744,,,9,,,0.07,-0.02,1.0,-0,-0,0,0.07,0,,,,,,,,,,,,,,,,
244644,1616767168784,,,9,,,0.07,-0.02,1.0,-0,0,-0,0.07,0,45.845684,5.178907,0.0,707.4,7,2,1.8,0,0.0,-1,0.0,0.0,0.0,0,0.05,4.0774
244684,1616767168815,,,9,,,0.07,-0.02,1.0,-0,-0,0,0.07,0,,,,,,,,,,,,,,,,
244724,1616767168855,,,9,,,0.07,-0.02,1.0,-0,-0,0,0.07,0,,,,,,,,,,,,,,,,
244764,1616767168891,,,9,,,0.07,-0.02,1.0,-0,-0,0,0.07,0,,,,,,,,,,,,,,,,
244804,1616767168931,,,9,,,0.07,-0.02,1.01,-0,-0,0,0.07,0,,,,,,,,,,,,,,,,
244844,1616767168971,,,9,,,0.07,-0.02,1.01,-0,-0,-0,0.07,0,45.845684,5.178907,0.0,707.4,7,2,1.8,0,0.0,-1,0.0,0.0,0.0,0,0.05,4.0807
244884,1616767169017,,,9,,,0.07,-0.02,1.01,-0,-0,-0,0.07,0,,,,,,,,,,,,,,,,
244924,1616767169057,,,9,,,0.07,-0.02,1.01,-0,-0,-0,0.07,0,,,,,,,,,,,,,,,,
244964,1616767169095,,,9,,,0.07,-0.02,1.01,-0,-0,-0,0.08,0,,,,,,,,,,,,,,,,
245004,1616767169135,,,9,,,0.07,-0.02,1.01,-0,-0,-0,0.08,0,,,,,,,,,,,,,,,,
245044,1616767169175,302,253,9,0.24,13.29,0.08,-0.02,1.01,-0,-0,0,0.08,0,45.845684,5.178907,0.0,707.4,7,2,1.8,0,0.0,-1,0.0,0.0,0.0,0,0.05,4.0841
245084,1616767169213,,,9,,,0.07,-0.03,1.01,-0,-0,0,0.08,0,,,,,,,,,,,,,,,,
245124,1616767169253,,,9,,,0.07,-0.03,1.01,-0,-0,0,0.08,0,,,,,,,,,,,,,,,,
245164,1616767169291,,,9,,,0.07,-0.03,1.01,-0,-0,0,0.08,0,,,,,,,,,,,,,,,,
245204,1616767169331,,,9,,,0.07,-0.02,1.01,-0,-0,0,0.08,0,,,,,,,,,,,,,,,,
245244,1616767169371,,,9,,,0.07,-0.02,1.01,-0,-0,0,0.07,0,45.845684,5.178907,0.0,707.4,7,2,1.8,0,0.0,-1,0.0,0.0,0.0,0,0.05,4.0874
245284,1616767169425,,,9,,,0.07,-0.02,1.01,-0,-0,0,0.07,0,,,,,,,,,,,,,,,,
245324,1616767169465,,,9,,,0.07,-0.02,1.01,-0,-0,0,0.07,0,,,,,,,,,,,,,,,,
245364,1616767169504,,,8,,,0.07,-0.02,1.01,-0,-0,0,0.07,0,,,,,,,,,,,,,,,,
245404,1616767169544,,,9,,,0.07,-0.02,1.01,-0,-0,0,0.07,0,,,,,,,,,,,,,,,,
245444,1616767169584,,,9,,,0.07,-0.02,1.01,-0,-0,0,0.07,0,45.845684,5.178907,0.0,707.4,7,2,1.8,0,0.0,-1,0.0,0.0,0.0,0,0.05,4.0907
245484,1616767169621,,,9,,,0.07,-0.02,1.0,-0,-0,0,0.07,0,,,,,,,,,,,,,,,,
245524,1616767169661,,,9,,,0.07,-0.02,1.01,-0,-0,0,0.07,0,,,,,,,,,,,,,,,,
245564,1616767169699,,,8,,,0.07,-0.02,1.0,-0,-0,0,0.07,0,,,,,,,,,,,,,,,,
245604,1616767169739,,,8,,,0.07,-0.02,1.0,-0,-0,0,0.07,0,,,,,,,,,,,,,,,,
245644,1616767169779,,,9,,,0.07,-0.02,1.0,-0,-0,0,0.07,0,45.845684,5.178907,0.0,707.4,7,2,1.8,0,0.0,-1,0.0,0.0,0.0,0,0.05,4.0941
245684,1616767169818,,,9,,,0.07,-0.02,1.0,-0,-0,0,0.07,0,,,,,,,,,,,,,,,,
245724,1616767169858,,,8,,,0.07,-0.02,1.0,-0,-0,0,0.07,0,,,,,,,,,,,,,,,,
245764,1616767169894,,,9,,,0.07,-0.02,1.0,-0,-0,0,0.07,0,,,,,,,,,,,,,,,,
245804,1616767169934,,,8,,,0.07,-0.02,1.0,-0,-0,0,0.07,0,,,,,,,,,,,,,,,,
245844,1616767169974,,,8,,,0.07,-0.02,1.0,-0,-0,0,0.07,0,45.845684,5.178907,0.0,707.4,7,2,1.8,0,0.0,-1,0.0,0.0,0.0,0,0.05,4.0974
245884,1616767170020,,,9,,,0.07,-0.02,1.0,-0,-0,0,0.07,0,,,,,,,,,,,,,,,,
245924,1616767170060,,,9,,,0.07,-0.02,1.0,-0,-0,0,0.07,0,,,,,,,,,,,,,,,,
245964,1616767170094,,,8,,,0.07,-0.02,1.0,-0,-0,0,0.07,0,,,,,,,,,,,,,,,,
246004,1616767170134,,,9,,,0.07,-0.02,1.0,-0,-0,0,0.07,0,,,,,,,,,,,,,,,,
246044,1616767170174,302,254,9,0.24,13.27,0.07,-0.02,1.0,-0,-0,0,0.07,0,45.845684,5.178907,0.0,707.4,7,2,1.8,0,0.0,-1,0.0,0.0,0.0,0,0.05,4.1007
246084,1616767170222,,,9,,,0.07,-0.02,1.0,-0,-0,0,0.07,0,,,,,,,,,,,,,,,,
246124,1616767170262,,,9,,,0.07,-0.02,1.0,-0,-0,0,0.07,0,,,,,,,,,,,,,,,,
246164,1616767170296,,,9,,,0.07,-0.02,1.0,-0,-0,0,0.07,0,,,,,,,,,,,,,,,,
246204,1616767170336,,,8,,,0.07,-0.02,1.0,-0,-0,0,0.07,0,,,,,,,,,,,,,,,,
246244,1616767170376,,,9,,,0.07,-0.02,1.0,-0,-0,0,0.07,0,45.845684,5.178907,0.0,707.4,7,2,1.8,0,0.0,-1,0.0,0.0,0.0,0,0.05,4.1041
246284,1616767170424,,,9,,,0.07,-0.02,1.0,-0,-0,0,0.07,0,,,,,,,,,,,,,,,,
246324,1616767170464,,,9,,,0.07,-0.02,1.0,-0,-0,0,0.07,0,,,,,,,,,,,,,,,,
246364,1616767170498,,,9,,,0.07,-0.02,1.0,-0,-0,0,0.07,0,,,,,,,,,,,,,,,,
246404,1616767170538,,,9,,,0.07,-0.02,1.0,-0,-0,0,0.07,0,,,,,,,,,,,,,,,,
246444,1616767170578,,,9,,,0.07,-0.02,1.0,-0,-0,0,0.07,0,45.845684,5.178907,0.0,707.4,7,2,1.8,0,0.0,-1,0.0,0.0,0.0,0,0.05,4.1074
246484,1616767170612,,,9,,,0.07,-0.02,1.0,-0,-0,0,0.07,0,,,,,,,,,,,,,,,,
246524,1616767170652,,,9,,,0.07,-0.02,1.0,-0,-0,0,0.07,0,,,,,,,,,,,,,,,,
246564,1616767170702,,,9,,,0.07,-0.02,1.0,0,-0,0,0.07,0,,,,,,,,,,,,,,,,
246604,1616767170742,,,9,,,0.07,-0.01,0.97,0,-0,0,0.07,0,,,,,,,,,,,,,,,,
246644,1616767170782,,,9,,,0.06,-0.01,0.97,0,-1,0,0.06,0,45.845684,5.178907,0.0,707.4,7,2,1.8,0,0.0,-1,0.0,0.0,0.0,0,0.05,4.1107
246684,1616767170813,,,9,,,0.06,-0.01,0.96,0,-1,0,0.06,0,,,,,,,,,,,,,,,,
246724,1616767170853,,,9,,,0.06,-0.01,0.97,-0,-1,0,0.06,0,,,,,,,,,,,,,,,,
246764,1616767170903,,,9,,,0.06,-0.01,0.97,-0,-1,0,0.06,0,,,,,,,,,,,,,,,,
246804,1616767170943,,,8,,,0.06,-0.01,0.98,-0,-1,0,0.06,0,,,,,,,,,,,,,,,,
246844,1616767170983,,,9,,,0.06,-0.01,0.99,0,-1,0,0.06,0,45.845684,5.178907,0.0,707.4,7,2,1.8,0,0.0,-1,0.0,0.0,0.0,0,0.05,4.1141
246884,1616767171015,,,9,,,0.06,-0.01,0.99,0,-1,0,0.06,0,,,,,,,,,,,,,,,,
246924,1616767171055,,,9,,,0.06,-0.02,0.99,0,-1,0,0.07,0,,,,,,,,,,,,,,,,
246964,1616767171104,,,9,,,0.07,-0.02,0.99,-0,-0,0,0.07,0,,,,,,,,,,,,,,,,
247004,1616767171144,,,9,,,0.07,-0.02,0.99,-0,-0,0,0.07,0,,,,,,,,,,,,,,,,
247044,1616767171184,302,255,9,0.24,13.3,0.07,-0.02,0.99,-0,-0,0,0.07,0,45.845684,5.178907,0.0,707.4,7,2,1.8,0,0.0,-1,0.0,0.0,0.0,0,0.05,4.1174
247084,1616767171217,,,9,,,0.07,-0.02,1.0,-0,-0,0,0.07,0,,,,,,,,,,,,,,,,
247124,1616767171257,,,9,,,0.07,-0.02,1.0,-0,-0,0,0.07,0,,,,,,,,,,,,,,,,
247164,1616767171297,,,9,,,0.07,-0.02,1.0,0,-0,0,0.07,0,,,,,,,,,,,,,,,,
247204,1616767171329,,,9,,,0.07,-0.02,1.0,-0,-0,0,0.08,0,,,,,,,,,,,,,,,,
247244,1616767171369,,,9,,,0.07,-0.02,1.0,-0,-0,0,0.07,0,45.845684,5.178907,0.0,707.4,7,2,1.8,0,0.0,-1,0.0,0.0,0.0,0,0.05,4.1207
247284,1616767171419,,,8,,,0.07,-0.02,1.0,-0,-0,0,0.07,0,,,,,,,,,,,,,,,,
247324,1616767171459,,,8,,,0.07,-0.02,1.0,-0,-0,0,0.07,0,,,,,,,,,,,,,,,,
247364,1616767171491,,,9,,,0.07,-0.02,1.0,-0,-0,0,0.07,0,,,,,,,,,,,,,,,,
247404,1616767171531,,,9,,,0.07,-0.02,1.0,-0,-0,0,0.07,0,,,,,,,,,,,,,,,,
247444,1616767171571,,,9,,,0.07,-0.02,1.0,-0,-0,0,0.07,0,45.845684,5.178907,0.0,707.4,7,2,1.8,0,0.0,-1,0.0,0.0,0.0,0,0.05,4.1241
247484,1616767171621,,,8,,,0.07,-0.02,1.0,-0,-0,-0,0.07,0,,,,,,,,,,,,,,,,
247524,1616767171661,,,9,,,0.07,-0.02,1.0,-0,-0,0,0.07,0,,,,,,,,,,,,,,,,
247564,1616767171695,,,9,,,0.07,-0.02,1.0,-0,-0,-0,0.07,0,,,,,,,,,,,,,,,,
247604,1616767171735,,,9,,,0.07,-0.02,1.0,-0,-0,-0,0.07,0,,,,,,,,,,,,,,,,
247644,1616767171775,,,8,,,0.07,-0.02,1.0,-0,-0,-0,0.07,0,45.845684,5.178907,0.0,707.4,7,2,1.8,0,0.0,-1,0.0,0.0,0.0,0,0.05,4.1274
247684,1616767171808,,,9,,,0.07,-0.02,1.0,-0,-0,-0,0.07,0,,,,,,,,,,,,,,,,
247724,1616767171848,,,9,,,0.07,-0.02,1.0,-0,-0,-0,0.07,0,,,,,,,,,,,,,,,,
247764,1616767171902,,,9,,,0.07,-0.02,1.0,-0,-0,0,0.07,0,,,,,,,,,,,,,,,,
247804,1616767171942,,,9,,,0.07,-0.02,1.0,-0,-0,0,0.07,0,,,,,,,,,,,,,,,,
247844,1616767171982,,,9,,,0.07,-0.02,1.0,-0,-0,0,0.07,0,45.845684,5.178907,0.0,707.4,7,2,1.8,0,0.0,-1,0.0,0.0,0.0,0,0.05,4.1307
247884,1616767172012,,,9,,,0.07,-0.02,1.0,-0,-0,0,0.07,0,,,,,,,,,,,,,,,,
247924,1616767172052,,,9,,,0.07,-0.02,1.0,-0,-0,0,0.07,0,,,,,,,,,,,,,,,,
247964,1616767172092,,,9,,,0.07,-0.02,1.0,-0,-0,0,0.07,0,,,,,,,,,,,,,,,,
248004,1616767172132,,,9,,,0.07,-0.02,1.0,-0,-0,0,0.08,0,,,,,,,,,,,,,,,,
248044,1616767172172,302,253,8,0.24,13.3,0.07,-0.02,1.0,-0,-0,0,0.08,0,45.845684,5.178907,0.0,707.4,7,2,1.8,0,0.0,-1,0.0,0.0,0.0,0,0.05,4.1341
248084,1616767172214,,,9,,,0.07,-0.02,1.0,-0,-0,0,0.08,0,,,,,,,,,,,,,,,,
248124,1616767172254,,,9,,,0.07,-0.02,1.0,-0,-0,0,0.08,0,,,,,,,,,,,,,,,,
248164,1616767172294,,,9,,,0.07,-0.02,1.0,-0,-0,0,0.07,0,,,,,,,,,,,,,,,,
248204,1616767172334,,,9,,,0.07,-0.02,1.0,-0,-0,0,0.07,0,,,,,,,,,,,,,,,,
248244,1616767172374,,,9,,,0.07,-0.02,1.0,-0,-0,0,0.07,0,45.845684,5.178907,0.0,707.4,7,2,1.8,0,0.0,-1,0.0,0.0,0.0,0,0.05,4.1374
248284,1616767172412,,,9,,,0.07,-0.02,1.0,-0,-0,0,0.07,0,,,,,,,,,,,,,,,,
248324,1616767172452,,,9,,,0.07,-0.02,1.0,-0,-0,0,0.07,0,,,,,,,,,,,,,,,,
248364,1616767172492,,,9,,,0.07,-0.02,1.0,-0,-0,0,0.07,0,,,,,,,,,,,,,,,,
248404,1616767172532,,,9,,,0.07,-0.02,1.01,-0,0,0,0.08,0,,,,,,,,,,,,,,,,
248444,1616767172572,,,9,,,0.07,-0.02,0.98,-0,-0,0,0.07,0,45.845684,5.178907,0.0,707.4,7,2,1.8,0,0.0,-1,0.0,0.0,0.0,0,0.05,4.1407
248484,1616767172612,,,9,,,0.07,-0.02,0.99,-0,-1,0,0.07,0,,,,,,,,,,,,,,,,
248524,1616767172652,,,9,,,0.06,-0.02,1.0,-0,-1,0,0.07,0,,,,,,,,,,,,,,,,
248564,1616767172692,,,9,,,0.07,-0.02,1.0,-0,-1,0,0.07,0,,,,,,,,,,,,,,,,
248604,1616767172732,,,9,,,0.07,-0.02,0.99,-0,-1,0,0.07,0,,,,,,,,,,,,,,,,
248644,1616767172772,,,9,,,0.07,-0.02,1.0,-0,-1,0,0.07,0,45.845684,5.178907,0.0,707.4,7,2,1.8,0,0.0,-1,0.0,0.0,0.0,0,0.05,4.1441
248684,1616767172811,,,9,,,0.07,-0.02,1.0,-0,-1,0,0.07,0,,,,,,,,,,,,,,,,
