"Interval"|"ms"|0|0|1,"Utc"|"ms"|0|0|1,"EngineTemp"|"F"|0|300|1,"OilTemp"|"F"|0|300|1,"OilPress"|"PSI"|0|150|25,"Battery"|"Volts"|0.0|20.0|1,"Battery"|"Volts"|0.0|20.0|1,"AccelX"|"G"|-3.0|3.0|25,"AccelY"|"G"|-3.0|3.0|25,"AccelZ"|"G"|-3.0|3.0|25,"Yaw"|"Deg/Sec"|-120|120|25,"Pitch"|"Deg/Sec"|-120|120|25,"Roll"|"Deg/Sec"|-120|120|25,"Gsum"|"G"|0.0|3.0|25,"RPM"|""|0|10000|25,"Latitude"|"Degrees"|-180.0|180.0|10,"Longitude"|"Degrees"|-180.0|180.0|10,"Speed"|"mph"|0.0|150.0|10,"Altitude"|"ft"|0.0|4000.0|10,"GPSSats"|""|0|20|10,"GPSQual"|""|0|5|10,"GPSDOP"|""|0.0|20.0|10,"LapCount"|""|0|0|10,"LapTime"|"Min"|0.0|0.0|10,"Sector"|""|0|0|10,"SectorTime"|"Min"|0.0|0.0|10,"PredTime"|"Min"|0.0|0.0|5,"ElapsedTime"|"Min"|0.0|0.0|10,"CurrentLap"|""|0|0|10,"Distance"|"mi"|0.0|0.0|10,"SessionTime"|"Min"|0.0|0.0|10
12443,0,,,7,,,0.07,-0.02,1.01,0,-0,0,0.07,0,0.0,0.0,0.0,0.0,0,0,0.0,0,0.0,-1,0.0,0.0,0.0,0,0.0,0.2074
12483,0,,,6,,,0.07,-0.02,1.01,0,-0,0,0.07,0,,,,,,,,,,,,,,,,
12523,0,,,7,,,0.07,-0.02,1.01,0,-0,0,0.07,0,,,,,,,,,,,,,,,,
12563,0,,,7,,,0.07,-0.02,1.01,0,-0,0,0.08,0,,,,,,,,,,,,,,,,
12603,0,,,7,,,0.07,-0.02,1.01,0,-0,0,0.08,0,,,,,,,,,,,,,,,,
12643,0,,,7,,,0.07,-0.02,1.01,0,-0,0,0.08,0,0.0,0.0,0.0,0.0,0,0,0.0,0,0.0,-1,0.0,0.0,0.0,0,0.0,0.2107
12683,0,,,7,,,0.07,-0.02,1.01,0,-0,-0,0.08,0,,,,,,,,,,,,,,,,
12723,0,,,6,,,0.07,-0.02,1.01,0,-0,0,0.08,0,,,,,,,,,,,,,,,,
12763,0,,,7,,,0.07,-0.02,1.0,0,-0,-0,0.08,0,,,,,,,,,,,,,,,,
12803,0,,,7,,,0.07,-0.02,1.0,0,-0,0,0.08,0,,,,,,,,,,,,,,,,
12843,0,,,7,,,0.07,-0.02,1.0,0,-0,0,0.08,0,0.0,0.0,0.0,0.0,0,0,0.0,0,0.0,-1,0.0,0.0,0.0,0,0.0,0.214
12883,0,,,6,,,0.07,-0.02,1.01,0,-0,0,0.08,0,,,,,,,,,,,,,,,,
12923,0,,,6,,,0.07,-0.02,1.0,0,-0,0,0.08,0,,,,,,,,,,,,,,,,
12963,0,,,6,,,0.07,-0.02,1.01,0,-0,0,0.08,0,,,,,,,,,,,,,,,,
13003,0,,,7,,,0.07,-0.02,1.0,0,-0,0,0.08,0,,,,,,,,,,,,,,,,
13043,0,302,247,7,0.23,13.2,0.07,-0.02,1.01,0,-0,0,0.08,0,0.0,0.0,0.0,0.0,0,0,0.0,0,0.0,-1,0.0,0.0,0.0,0,0.0,0.2174
13083,0,,,7,,,0.07,-0.02,1.0,0,-0,0,0.08,0,,,,,,,,,,,,,,,,
13123,0,,,7,,,0.07,-0.02,1.01,0,-0,-0,0.08,0,,,,,,,,,,,,,,,,
13163,0,,,7,,,0.07,-0.02,1.0,0,-0,-0,0.08,0,,,,,,,,,,,,,,,,
13203,0,,,7,,,0.07,-0.02,1.0,0,0,-0,0.08,0,,,,,,,,,,,,,,,,
13243,0,,,7,,,0.07,-0.02,1.01,0,0,-0,0.08,0,0.0,0.0,0.0,0.0,0,0,0.0,0,0.0,-1,0.0,0.0,0.0,0,0.0,0.2207
13283,0,,,6,,,0.07,-0.02,1.01,0,0,-0,0.08,0,,,,,,,,,,,,,,,,
13323,0,,,7,,,0.07,-0.02,1.01,0,0,-0,0.08,0,,,,,,,,,,,,,,,,
13363,0,,,7,,,0.07,-0.02,1.0,0,0,-0,0.07,0,,,,,,,,,,,,,,,,
13403,0,,,7,,,0.07,-0.02,1.01,0,0,-0,0.07,0,,,,,,,,,,,,,,,,
13443,0,,,6,,,0.07,-0.02,1.0,0,0,-0,0.07,0,0.0,0.0,0.0,0.0,0,0,0.0,0,0.0,-1,0.0,0.0,0.0,0,0.0,0.224
13483,0,,,7,,,0.07,-0.02,1.01,0,0,-0,0.07,0,,,,,,,,,,,,,,,,
13523,0,,,7,,,0.07,-0.02,1.0,0,0,-0,0.07,0,,,,,,,,,,,,,,,,
13563,0,,,7,,,0.07,-0.02,1.01,0,0,-0,0.07,0,,,,,,,,,,,,,,,,
13603,0,,,6,,,0.07,-0.02,1.01,0,-0,0,0.07,0,,,,,,,,,,,,,,,,
13643,0,,,7,,,0.07,-0.02,1.01,0,-0,-0,0.07,0,0.0,0.0,0.0,0.0,0,0,0.0,0,0.0,-1,0.0,0.0,0.0,0,0.0,0.2274
13683,0,,,7,,,0.07,-0.02,1.01,0,-0,-0,0.07,0,,,,,,,,,,,,,,,,
13723,0,,,7,,,0.07,-0.02,1.0,0,-0,0,0.07,0,,,,,,,,,,,,,,,,
13763,0,,,7,,,0.07,-0.02,1.01,0,-0,0,0.07,0,,,,,,,,,,,,,,,,
13803,0,,,7,,,0.07,-0.02,1.01,0,-0,-0,0.07,0,,,,,,,,,,,,,,,,
13843,0,,,7,,,0.07,-0.02,1.01,0,-0,-0,0.07,0,0.0,0.0,0.0,0.0,0,0,0.0,0,0.0,-1,0.0,0.0,0.0,0,0.0,0.2307
13883,0,,,7,,,0.07,-0.02,1.01,0,-0,-0,0.07,0,,,,,,,,,,,,,,,,
13923,0,,,7,,,0.07,-0.02,1.01,0,-0,-0,0.07,0,,,,,,,,,,,,,,,,
13963,0,,,7,,,0.07,-0.02,1.01,-0,-0,-0,0.07,0,,,,,,,,,,,,,,,,
14003,0,,,7,,,0.07,-0.02,1.01,-0,-0,-0,0.07,0,,,,,,,,,,,,,,,,
14043,0,302,247,6,0.22,13.22,0.07,-0.02,1.01,0,-0,-0,0.08,0,0.0,0.0,0.0,0.0,0,0,0.0,0,0.0,-1,0.0,0.0,0.0,0,0.0,0.234
14083,0,,,7,,,0.07,-0.02,1.01,0,-0,-0,0.08,0,,,,,,,,,,,,,,,,
14123,0,,,7,,,0.07,-0.02,1.01,0,-0,-0,0.08,0,,,,,,,,,,,,,,,,
14163,0,,,7,,,0.07,-0.02,1.0,0,-0,-0,0.08,0,,,,,,,,,,,,,,,,
14203,0,,,7,,,0.07,-0.02,1.01,0,-0,-0,0.08,0,,,,,,,,,,,,,,,,
14243,0,,,7,,,0.07,-0.02,1.01,0,-0,-0,0.08,0,0.0,0.0,0.0,0.0,0,0,0.0,0,0.0,-1,0.0,0.0,0.0,0,0.0,0.2374
14283,0,,,7,,,0.07,-0.02,1.0,0,-0,0,0.08,0,,,,,,,,,,,,,,,,
14323,0,,,6,,,0.07,-0.02,1.0,0,-0,-0,0.08,0,,,,,,,,,,,,,,,,
14363,0,,,7,,,0.07,-0.02,1.0,0,-0,-0,0.08,0,,,,,,,,,,,,,,,,
14403,0,,,7,,,0.07,-0.02,1.0,0,-0,-0,0.08,0,,,,,,,,,,,,,,,,
14443,0,,,6,,,0.07,-0.02,1.01,0,-0,-0,0.08,0,0.0,0.0,0.0,0.0,0,0,0.0,0,0.0,-1,0.0,0.0,0.0,0,0.0,0.2407
14483,0,,,7,,,0.07,-0.02,1.01,0,-0,-0,0.08,0,,,,,,,,,,,,,,,,
14523,0,,,7,,,0.07,-0.02,1.01,0,-0,-0,0.07,0,,,,,,,,,,,,,,,,
14563,0,,,7,,,0.07,-0.02,1.01,0,-0,-0,0.07,0,,,,,,,,,,,,,,,,
14603,0,,,6,,,0.07,-0.02,1.01,0,-0,-0,0.07,0,,,,,,,,,,,,,,,,
14643,0,,,7,,,0.07,-0.02,1.01,0,-0,-0,0.07,0,0.0,0.0,0.0,0.0,0,0,0.0,0,0.0,-1,0.0,0.0,0.0,0,0.0,0.244
14683,0,,,7,,,0.07,-0.02,1.02,0,-0,-0,0.07,0,,,,,,,,,,,,,,,,
14723,0,,,7,,,0.07,-0.02,1.02,-0,-0,-0,0.07,0,,,,,,,,,,,,,,,,
14763,0,,,7,,,0.07,-0.02,1.01,0,-0,-0,0.07,0,,,,,,,,,,,,,,,,
14803,0,,,7,,,0.07,-0.02,1.01,0,-0,-0,0.07,0,,,,,,,,,,,,,,,,
14843,0,,,7,,,0.07,-0.02,1.01,0,-0,-0,0.07,0,0.0,0.0,0.0,0.0,0,0,0.0,0,0.0,-1,0.0,0.0,0.0,0,0.0,0.2474
14883,0,,,7,,,0.07,-0.02,1.01,0,-0,-0,0.07,0,,,,,,,,,,,,,,,,
14923,0,,,7,,,0.07,-0.02,1.01,0,-0,-0,0.07,0,,,,,,,,,,,,,,,,
14963,0,,,7,,,0.07,-0.02,1.01,0,-0,-0,0.07,0,,,,,,,,,,,,,,,,
15003,0,,,6,,,0.07,-0.02,1.01,0,-0,-0,0.07,0,,,,,,,,,,,,,,,,
15043,0,302,247,7,0.23,13.24,0.07,-0.02,1.01,0,-0,-0,0.07,0,0.0,0.0,0.0,0.0,0,0,0.0,0,0.0,-1,0.0,0.0,0.0,0,0.0,0.2507
15083,0,,,6,,,0.07,-0.02,1.01,0,-0,-0,0.07,0,,,,,,,,,,,,,,,,
15123,0,,,7,,,0.07,-0.02,1.01,0,-0,-0,0.07,0,,,,,,,,,,,,,,,,
15163,0,,,6,,,0.07,-0.02,1.01,0,-0,-0,0.07,0,,,,,,,,,,,,,,,,
15203,0,,,7,,,0.07,-0.02,1.01,0,-0,0,0.07,0,,,,,,,,,,,,,,,,
15243,0,,,7,,,0.07,-0.02,1.01,0,-0,0,0.07,0,0.0,0.0,0.0,0.0,0,0,0.0,0,0.0,-1,0.0,0.0,0.0,0,0.0,0.254
15283,0,,,6,,,0.07,-0.02,1.01,0,-0,-0,0.07,0,,,,,,,,,,,,,,,,
15323,0,,,7,,,0.07,-0.02,1.01,0,-0,-0,0.07,0,,,,,,,,,,,,,,,,
15363,0,,,7,,,0.07,-0.02,1.01,0,-0,-0,0.07,0,,,,,,,,,,,,,,,,
15403,0,,,7,,,0.07,-0.02,1.01,0,-0,-0,0.07,0,,,,,,,,,,,,,,,,
15443,0,,,7,,,0.07,-0.02,1.0,0,-0,-0,0.07,0,0.0,0.0,0.0,0.0,0,0,0.0,0,0.0,-1,0.0,0.0,0.0,0,0.0,0.2574
15483,0,,,7,,,0.07,-0.02,1.0,0,-0,-0,0.07,0,,,,,,,,,,,,,,,,
15523,0,,,7,,,0.07,-0.02,1.01,0,-0,-0,0.07,0,,,,,,,,,,,,,,,,
15563,0,,,6,,,0.07,-0.02,1.0,0,-0,-0,0.07,0,,,,,,,,,,,,,,,,
15603,0,,,7,,,0.07,-0.02,1.0,0,-0,0,0.07,0,,,,,,,,,,,,,,,,
15643,0,,,7,,,0.07,-0.02,1.0,0,-0,-0,0.07,0,0.0,0.0,0.0,0.0,0,0,0.0,0,0.0,-1,0.0,0.0,0.0,0,0.0,0.2607
15683,0,,,6,,,0.07,-0.02,1.01,0,-0,-0,0.07,0,,,,,,,,,,,,,,,,
15723,0,,,7,,,0.07,-0.02,1.0,0,-0,-0,0.07,0,,,,,,,,,,,,,,,,
15763,0,,,6,,,0.07,-0.02,1.0,0,-0,-0,0.07,0,,,,,,,,,,,,,,,,
15803,0,,,7,,,0.08,-0.02,0.99,-0,-0,-0,0.08,0,,,,,,,,,,,,,,,,
15843,0,,,7,,,0.08,-0.02,0.98,0,0,-0,0.09,0,0.0,0.0,0.0,0.0,0,0,0.0,0,0.0,-1,0.0,0.0,0.0,0,0.0,0.264
15883,0,,,6,,,0.08,-0.02,0.98,0,0,-0,0.09,0,,,,,,,,,,,,,,,,
15923,0,,,7,,,0.08,-0.02,0.99,0,0,-0,0.09,0,,,,,,,,,,,,,,,,
15963,0,,,7,,,0.08,-0.02,0.99,-0,0,-0,0.08,0,,,,,,,,,,,,,,,,
16003,0,,,7,,,0.08,-0.02,0.99,-0,-0,-0,0.08,0,,,,,,,,,,,,,,,,
16043,0,302,249,7,0.22,13.2,0.08,-0.02,1.0,-0,-0,-0,0.08,0,0.0,0.0,0.0,0.0,0,0,0.0,0,0.0,-1,0.0,0.0,0.0,0,0.0,0.2674
16083,0,,,7,,,0.07,-0.02,1.0,-0,-0,-0,0.08,0,,,,,,,,,,,,,,,,
16123,0,,,7,,,0.07,-0.02,1.0,-0,-0,-0,0.07,0,,,,,,,,,,,,,,,,
16163,0,,,7,,,0.07,-0.02,1.0,-0,-0,-0,0.07,0,,,,,,,,,,,,,,,,
16203,0,,,6,,,0.07,-0.02,1.0,-0,-0,-0,0.07,0,,,,,,,,,,,,,,,,
16243,0,,,7,,,0.07,-0.02,1.0,0,-0,-0,0.07,0,0.0,0.0,0.0,0.0,0,0,0.0,0,0.0,-1,0.0,0.0,0.0,0,0.0,0.2707
16283,0,,,6,,,0.07,-0.02,1.0,-0,-0,-0,0.07,0,,,,,,,,,,,,,,,,
16323,0,,,7,,,0.07,-0.02,1.01,-0,-0,-0,0.07,0,,,,,,,,,,,,,,,,
16363,0,,,6,,,0.07,-0.02,1.01,0,-0,-0,0.07,0,,,,,,,,,,,,,,,,
16403,0,,,7,,,0.07,-0.02,1.01,-0,-0,-0,0.07,0,,,,,,,,,,,,,,,,
16443,0,,,6,,,0.07,-0.02,1.0,-0,-0,-0,0.07,0,0.0,0.0,0.0,0.0,0,0,0.0,0,0.0,-1,0.0,0.0,0.0,0,0.0,0.274
16483,0,,,7,,,0.07,-0.02,1.01,-0,-0,-0,0.07,0,,,,,,,,,,,,,,,,
16523,0,,,7,,,0.07,-0.02,1.01,-0,-0,-0,0.07,0,,,,,,,,,,,,,,,,
16563,0,,,7,,,0.07,-0.02,1.01,0,-0,0,0.08,0,,,,,,,,,,,,,,,,
16603,0,,,6,,,0.07,-0.02,1.0,0,-0,-0,0.08,0,,,,,,,,,,,,,,,,
16643,0,,,7,,,0.07,-0.02,1.01,-0,-0,-0,0.08,0,0.0,0.0,0.0,0.0,0,0,0.0,0,0.0,-1,0.0,0.0,0.0,0,0.0,0.2774
16683,0,,,6,,,0.08,-0.02,1.01,0,-0,-0,0.08,0,,,,,,,,,,,,,,,,
16723,0,,,7,,,0.08,-0.02,1.01,0,-0,-0,0.08,0,,,,,,,,,,,,,,,,
16763,0,,,7,,,0.07,-0.02,1.01,0,-0,-0,0.08,0,,,,,,,,,,,,,,,,
16803,0,,,7,,,0.07,-0.02,1.01,0,-0,0,0.08,0,,,,,,,,,,,,,,,,
16843,0,,,7,,,0.07,-0.02,1.01,0,-0,0,0.07,0,0.0,0.0,0.0,0.0,0,0,0.0,0,0.0,-1,0.0,0.0,0.0,0,0.0,0.2807
16883,0,,,7,,,0.07,-0.02,1.01,0,-0,-0,0.07,0,,,,,,,,,,,,,,,,
16923,0,,,7,,,0.07,-0.02,1.01,0,-0,-0,0.07,0,,,,,,,,,,,,,,,,
16963,0,,,7,,,0.07,-0.02,1.01,0,-0,-0,0.07,0,,,,,,,,,,,,,,,,
17003,0,,,7,,,0.07,-0.02,1.01,-0,-0,-0,0.07,0,,,,,,,,,,,,,,,,
17043,0,302,248,7,0.22,13.21,0.07,-0.02,1.01,0,-0,-0,0.08,0,0.0,0.0,0.0,0.0,0,0,0.0,0,0.0,-1,0.0,0.0,0.0,0,0.0,0.284
17083,0,,,7,,,0.07,-0.02,1.01,0,-0,-0,0.08,0,,,,,,,,,,,,,,,,
17123,0,,,7,,,0.07,-0.02,1.01,-0,-0,-0,0.08,0,,,,,,,,,,,,,,,,
17163,0,,,7,,,0.07,-0.02,1.01,0,-0,-0,0.08,0,,,,,,,,,,,,,,,,
17203,0,,,6,,,0.07,-0.02,1.01,-0,-0,-0,0.08,0,,,,,,,,,,,,,,,,
17243,0,,,6,,,0.07,-0.02,1.01,0,-0,-0,0.07,0,0.0,0.0,0.0,0.0,0,0,0.0,0,0.0,-1,0.0,0.0,0.0,0,0.0,0.2874
17283,0,,,6,,,0.07,-0.02,1.0,0,-0,-0,0.07,0,,,,,,,,,,,,,,,,
17323,0,,,7,,,0.07,-0.02,1.0,0,-0,-0,0.07,0,,,,,,,,,,,,,,,,
17363,0,,,7,,,0.07,-0.02,1.0,0,-0,-0,0.07,0,,,,,,,,,,,,,,,,
17403,0,,,7,,,0.07,-0.02,1.0,0,-0,-0,0.07,0,,,,,,,,,,,,,,,,
17443,0,,,6,,,0.07,-0.02,1.0,0,-0,-0,0.07,0,0.0,0.0,0.0,0.0,0,0,0.0,0,0.0,-1,0.0,0.0,0.0,0,0.0,0.2907
17483,0,,,7,,,0.07,-0.02,1.0,0,-0,-0,0.07,0,,,,,,,,,,,,,,,,
17523,0,,,7,,,0.07,-0.02,1.0,0,-0,-0,0.07,0,,,,,,,,,,,,,,,,
17563,0,,,7,,,0.07,-0.02,1.0,0,-0,-0,0.07,0,,,,,,,,,,,,,,,,
17603,0,,,7,,,0.07,-0.02,1.0,0,-0,-0,0.07,0,,,,,,,,,,,,,,,,
17643,0,,,7,,,0.07,-0.02,1.0,0,-0,-0,0.07,0,0.0,0.0,0.0,0.0,0,0,0.0,0,0.0,-1,0.0,0.0,0.0,0,0.0,0.294
17683,0,,,7,,,0.07,-0.02,1.01,0,-0,-0,0.08,0,,,,,,,,,,,,,,,,
17723,0,,,6,,,0.07,-0.02,1.01,0,-0,-0,0.08,0,,,,,,,,,,,,,,,,
17763,0,,,7,,,0.07,-0.02,1.01,0,-0,-0,0.08,0,,,,,,,,,,,,,,,,
17803,0,,,7,,,0.08,-0.02,1.01,0,-0,-0,0.08,0,,,,,,,,,,,,,,,,
17843,0,,,6,,,0.08,-0.02,1.01,0,-0,-0,0.08,0,0.0,0.0,0.0,0.0,0,0,0.0,0,0.0,-1,0.0,0.0,0.0,0,0.0,0.2974
17883,0,,,7,,,0.08,-0.02,1.0,0,-0,-0,0.08,0,,,,,,,,,,,,,,,,
17923,0,,,7,,,0.08,-0.02,1.0,0,-0,-0,0.08,0,,,,,,,,,,,,,,,,
17963,0,,,7,,,0.08,-0.02,1.01,0,-0,-0,0.08,0,,,,,,,,,,,,,,,,
18003,0,,,7,,,0.07,-0.02,1.01,0,-0,-0,0.08,0,,,,,,,,,,,,,,,,
18043,0,302,246,6,0.22,13.2,0.07,-0.02,1.02,0,-0,-0,0.08,0,0.0,0.0,0.0,0.0,0,0,0.0,0,0.0,-1,0.0,0.0,0.0,0,0.0,0.3007
18083,0,,,8,,,0.07,-0.02,1.01,0,-0,-0,0.07,0,,,,,,,,,,,,,,,,
18123,0,,,6,,,0.07,-0.02,1.01,0,-0,-0,0.07,0,,,,,,,,,,,,,,,,
18163,0,,,7,,,0.07,-0.02,1.0,0,-0,0,0.07,0,,,,,,,,,,,,,,,,
18203,0,,,7,,,0.07,-0.02,1.0,0,-0,0,0.07,0,,,,,,,,,,,,,,,,
18243,0,,,7,,,0.07,-0.02,1.0,0,-0,-0,0.07,0,0.0,0.0,0.0,0.0,0,0,0.0,0,0.0,-1,0.0,0.0,0.0,0,0.0,0.304
18283,0,,,7,,,0.07,-0.02,1.0,0,-0,-0,0.08,0,,,,,,,,,,,,,,,,
18323,0,,,7,,,0.07,-0.02,1.0,0,-0,0,0.08,0,,,,,,,,,,,,,,,,
18363,0,,,7,,,0.07,-0.02,1.0,0,-0,-0,0.08,0,,,,,,,,,,,,,,,,
18403,0,,,7,,,0.07,-0.02,1.01,0,-0,-0,0.08,0,,,,,,,,,,,,,,,,
18443,0,,,6,,,0.07,-0.02,1.01,0,-0,-0,0.08,0,0.0,0.0,0.0,0.0,0,0,0.0,0,0.0,-1,0.0,0.0,0.0,0,0.0,0.3074
18483,0,,,7,,,0.07,-0.02,1.01,0,-0,-0,0.08,0,,,,,,,,,,,,,,,,
18523,0,,,7,,,0.07,-0.02,1.01,0,-0,-0,0.08,0,,,,,,,,,,,,,,,,
18563,0,,,7,,,0.07,-0.02,1.01,0,-0,-0,0.08,0,,,,,,,,,,,,,,,,
18603,0,,,7,,,0.07,-0.02,1.01,0,-0,-0,0.07,0,,,,,,,,,,,,,,,,
18643,0,,,6,,,0.07,-0.02,1.01,0,-0,-0,0.07,0,0.0,0.0,0.0,0.0,0,0,0.0,0,0.0,-1,0.0,0.0,0.0,0,0.0,0.3107
18683,0,,,7,,,0.07,-0.02,1.01,0,-0,-0,0.07,0,,,,,,,,,,,,,,,,
18723,0,,,7,,,0.07,-0.02,1.01,0,-0,-0,0.07,0,,,,,,,,,,,,,,,,
18763,0,,,7,,,0.07,-0.02,1.01,0,-0,-0,0.07,0,,,,,,,,,,,,,,,,
18803,0,,,6,,,0.07,-0.02,1.01,0,-0,-0,0.07,0,,,,,,,,,,,,,,,,
18843,0,,,7,,,0.07,-0.02,1.01,0,-0,-0,0.07,0,0.0,0.0,0.0,0.0,0,0,0.0,0,0.0,-1,0.0,0.0,0.0,0,0.0,0.314
18883,0,,,7,,,0.07,-0.02,1.01,0,-0,-0,0.07,0,,,,,,,,,,,,,,,,
18923,0,,,7,,,0.07,-0.02,1.01,0,-0,-0,0.07,0,,,,,,,,,,,,,,,,
18963,0,,,7,,,0.07,-0.02,1.01,0,-0,-0,0.07,0,,,,,,,,,,,,,,,,
19003,0,,,7,,,0.07,-0.02,1.01,0,-0,0,0.07,0,,,,,,,,,,,,,,,,
19043,0,302,249,7,0.22,13.21,0.07,-0.02,1.01,0,-0,0,0.07,0,0.0,0.0,0.0,0.0,0,0,0.0,0,0.0,-1,0.0,0.0,0.0,0,0.0,0.3174
19083,0,,,7,,,0.07,-0.02,1.01,0,-0,0,0.08,0,,,,,,,,,,,,,,,,
19123,0,,,7,,,0.07,-0.02,1.01,0,-0,0,0.08,0,,,,,,,,,,,,,,,,
19163,0,,,6,,,0.07,-0.02,1.01,0,-0,0,0.07,0,,,,,,,,,,,,,,,,
19203,0,,,7,,,0.07,-0.02,1.01,0,-0,0,0.07,0,,,,,,,,,,,,,,,,
19243,0,,,7,,,0.07,-0.02,1.01,0,-0,0,0.07,0,0.0,0.0,0.0,0.0,0,0,0.0,0,0.0,-1,0.0,0.0,0.0,0,0.0,0.3207
19283,0,,,7,,,0.07,-0.02,1.01,0,-0,0,0.07,0,,,,,,,,,,,,,,,,
19323,0,,,7,,,0.07,-0.02,1.01,0,-0,-0,0.07,0,,,,,,,,,,,,,,,,
19363,0,,,8,,,0.07,-0.02,1.01,0,-0,-0,0.07,0,,,,,,,,,,,,,,,,
19403,0,,,6,,,0.07,-0.02,1.01,0,-0,-0,0.07,0,,,,,,,,,,,,,,,,
19443,0,,,7,,,0.07,-0.02,1.01,0,-0,-0,0.07,0,0.0,0.0,0.0,0.0,0,0,0.0,0,0.0,-1,0.0,0.0,0.0,0,0.0,0.324
19483,0,,,7,,,0.07,-0.02,1.01,0,-0,-0,0.07,0,,,,,,,,,,,,,,,,
19523,0,,,7,,,0.07,-0.02,1.01,0,-0,-0,0.07,0,,,,,,,,,,,,,,,,
19563,0,,,6,,,0.07,-0.02,1.0,0,-0,-0,0.07,0,,,,,,,,,,,,,,,,
19603,0,,,7,,,0.07,-0.02,1.0,0,-0,-0,0.07,0,,,,,,,,,,,,,,,,
19643,0,,,8,,,0.07,-0.02,1.01,0,-0,-0,0.07,0,0.0,0.0,0.0,0.0,0,0,0.0,0,0.0,-1,0.0,0.0,0.0,0,0.0,0.3274
19683,0,,,7,,,0.07,-0.02,1.01,0,-0,0,0.07,0,,,,,,,,,,,,,,,,
19723,0,,,8,,,0.07,-0.02,1.01,0,-0,0,0.07,0,,,,,,,,,,,,,,,,
19763,0,,,8,,,0.07,-0.02,1.01,0,-0,0,0.07,0,,,,,,,,,,,,,,,,
19803,0,,,8,,,0.07,-0.02,1.01,0,-0,-0,0.07,0,,,,,,,,,,,,,,,,
19843,0,,,8,,,0.07,-0.02,1.01,0,-0,-0,0.07,0,0.0,0.0,0.0,0.0,0,0,0.0,0,0.0,-1,0.0,0.0,0.0,0,0.0,0.3307
19883,0,,,7,,,0.07,-0.02,1.01,0,-0,-0,0.08,0,,,,,,,,,,,,,,,,
19923,0,,,7,,,0.07,-0.02,1.0,0,-0,-0,0.07,0,,,,,,,,,,,,,,,,
19963,0,,,7,,,0.07,-0.02,1.0,0,-0,-0,0.07,0,,,,,,,,,,,,,,,,
20003,0,,,7,,,0.07,-0.02,1.0,0,-0,-0,0.07,0,,,,,,,,,,,,,,,,
20043,0,302,245,6,0.21,13.15,0.07,-0.02,1.0,0,-0,-0,0.07,0,0.0,0.0,0.0,0.0,0,0,0.0,0,0.0,-1,0.0,0.0,0.0,0,0.0,0.334
20083,0,,,8,,,0.07,-0.02,1.0,0,-0,-0,0.07,0,,,,,,,,,,,,,,,,
20123,0,,,8,,,0.07,-0.02,1.01,0,-0,-0,0.07,0,,,,,,,,,,,,,,,,
20163,0,,,8,,,0.07,-0.02,1.01,0,-0,-0,0.07,0,,,,,,,,,,,,,,,,
20203,0,,,8,,,0.07,-0.02,1.01,0,-0,-0,0.07,0,,,,,,,,,,,,,,,,
20243,0,,,7,,,0.07,-0.02,1.0,0,-0,-0,0.07,0,0.0,0.0,0.0,0.0,0,0,0.0,0,0.0,-1,0.0,0.0,0.0,0,0.0,0.3374
20283,0,,,7,,,0.07,-0.02,1.01,0,-0,-0,0.07,0,,,,,,,,,,,,,,,,
20323,0,,,8,,,0.07,-0.02,1.01,0,-0,-0,0.08,0,,,,,,,,,,,,,,,,
20363,0,,,7,,,0.07,-0.02,1.01,0,-0,0,0.08,0,,,,,,,,,,,,,,,,
20403,0,,,8,,,0.07,-0.02,1.01,0,-0,0,0.08,0,,,,,,,,,,,,,,,,
20443,0,,,8,,,0.07,-0.02,1.01,0,-0,-0,0.08,0,0.0,0.0,0.0,0.0,0,0,0.0,0,0.0,-1,0.0,0.0,0.0,0,0.0,0.3407
20483,0,,,8,,,0.07,-0.02,1.0,0,-0,-0,0.08,0,,,,,,,,,,,,,,,,
20523,0,,,8,,,0.07,-0.02,1.0,0,-0,-0,0.07,0,,,,,,,,,,,,,,,,
20563,0,,,7,,,0.07,-0.02,1.0,0,-0,-0,0.07,0,,,,,,,,,,,,,,,,
20603,0,,,7,,,0.07,-0.02,1.0,0,-0,-0,0.07,0,,,,,,,,,,,,,,,,
20643,0,,,8,,,0.07,-0.02,1.0,0,-0,-0,0.07,0,0.0,0.0,0.0,0.0,0,0,0.0,0,0.0,-1,0.0,0.0,0.0,0,0.0,0.344
20683,0,,,7,,,0.07,-0.02,1.0,0,-0,-0,0.07,0,,,,,,,,,,,,,,,,
20723,0,,,6,,,0.08,-0.03,1.02,0,-0,-0,0.08,0,,,,,,,,,,,,,,,,
20763,0,,,8,,,0.08,-0.03,1.02,0,-0,-0,0.08,0,,,,,,,,,,,,,,,,
20803,0,,,7,,,0.09,-0.02,1.09,0,1,-1,0.09,0,,,,,,,,,,,,,,,,
20843,0,,,7,,,0.09,-0.02,1.05,0,1,-0,0.09,0,0.0,0.0,0.0,0.0,0,0,0.0,0,0.0,-1,0.0,0.0,0.0,0,0.0,0.3474
20883,0,,,7,,,0.09,-0.02,1.02,0,0,-0,0.09,0,,,,,,,,,,,,,,,,
20923,0,,,7,,,0.08,-0.02,1.01,0,0,-0,0.09,0,,,,,,,,,,,,,,,,
20963,0,,,7,,,0.08,-0.02,1.01,0,0,-0,0.08,0,,,,,,,,,,,,,,,,
21003,0,,,7,,,0.08,-0.02,1.01,0,0,-0,0.08,0,,,,,,,,,,,,,,,,
21043,0,302,247,7,0.23,13.22,0.08,-0.02,1.02,0,0,-0,0.08,0,0.0,0.0,0.0,0.0,0,0,0.0,0,0.0,-1,0.0,0.0,0.0,0,0.0,0.3507
21083,0,,,7,,,0.08,-0.02,1.02,0,0,-0,0.08,0,,,,,,,,,,,,,,,,
21123,0,,,8,,,0.08,-0.02,1.01,0,0,-0,0.08,0,,,,,,,,,,,,,,,,
21163,0,,,7,,,0.08,-0.02,1.01,0,0,-0,0.08,0,,,,,,,,,,,,,,,,
21203,0,,,7,,,0.08,-0.02,1.01,0,-0,-0,0.08,0,,,,,,,,,,,,,,,,
21243,0,,,8,,,0.08,-0.02,1.01,0,-0,-0,0.08,0,0.0,0.0,0.0,0.0,0,0,0.0,0,0.0,-1,0.0,0.0,0.0,0,0.0,0.354
21283,0,,,7,,,0.08,-0.02,1.01,0,-0,0,0.08,0,,,,,,,,,,,,,,,,
21323,0,,,8,,,0.08,-0.02,1.01,0,-0,0,0.08,0,,,,,,,,,,,,,,,,
21363,0,,,8,,,0.07,-0.02,1.01,0,-0,0,0.08,0,,,,,,,,,,,,,,,,
21403,0,,,8,,,0.07,-0.02,1.01,0,-0,0,0.08,0,,,,,,,,,,,,,,,,
21443,0,,,8,,,0.07,-0.02,1.01,0,-0,0,0.08,0,0.0,0.0,0.0,0.0,0,0,0.0,0,0.0,-1,0.0,0.0,0.0,0,0.0,0.3574
21483,0,,,7,,,0.07,-0.02,1.01,0,-0,0,0.07,0,,,,,,,,,,,,,,,,
21523,0,,,7,,,0.07,-0.02,1.01,0,-0,0,0.07,0,,,,,,,,,,,,,,,,
21563,0,,,8,,,0.07,-0.02,1.01,0,-0,0,0.07,0,,,,,,,,,,,,,,,,
21603,0,,,8,,,0.07,-0.02,1.01,0,-0,0,0.07,0,,,,,,,,,,,,,,,,
21643,0,,,8,,,0.07,-0.02,1.01,0,-0,0,0.08,0,0.0,0.0,0.0,0.0,0,0,0.0,0,0.0,-1,0.0,0.0,0.0,0,0.0,0.3607
21683,0,,,8,,,0.07,-0.02,1.01,0,-0,-0,0.08,0,,,,,,,,,,,,,,,,
21723,0,,,7,,,0.07,-0.02,1.01,0,-0,-0,0.08,0,,,,,,,,,,,,,,,,
21763,0,,,7,,,0.07,-0.02,1.01,0,-0,-0,0.07,0,,,,,,,,,,,,,,,,
21803,0,,,8,,,0.07,-0.02,1.01,0,-0,-0,0.07,0,,,,,,,,,,,,,,,,
21843,0,,,6,,,0.07,-0.02,1.01,0,-0,-0,0.07,0,0.0,0.0,0.0,0.0,0,0,0.0,0,0.0,-1,0.0,0.0,0.0,0,0.0,0.364
21883,0,,,8,,,0.07,-0.02,1.01,0,-0,-0,0.07,0,,,,,,,,,,,,,,,,
21923,0,,,7,,,0.07,-0.02,1.01,0,-0,-0,0.07,0,,,,,,,,,,,,,,,,
21963,0,,,8,,,0.07,-0.02,1.01,0,-0,-0,0.07,0,,,,,,,,,,,,,,,,
22003,0,,,7,,,0.07,-0.02,1.01,0,-0,-0,0.07,0,,,,,,,,,,,,,,,,
22043,0,302,245,7,0.22,13.2,0.07,-0.02,1.01,0,-0,-0,0.07,0,0.0,0.0,0.0,0.0,0,0,0.0,0,0.0,-1,0.0,0.0,0.0,0,0.0,0.3674
22083,0,,,8,,,0.07,-0.02,1.01,0,-0,-0,0.07,0,,,,,,,,,,,,,,,,
22123,0,,,7,,,0.07,-0.02,1.01,0,-0,-0,0.07,0,,,,,,,,,,,,,,,,
22163,0,,,8,,,0.07,-0.02,1.01,0,-0,-0,0.08,0,,,,,,,,,,,,,,,,
22203,0,,,8,,,0.07,-0.02,1.01,0,-0,0,0.08,0,,,,,,,,,,,,,,,,
22243,0,,,8,,,0.07,-0.02,1.01,0,-0,-0,0.08,0,0.0,0.0,0.0,0.0,0,0,0.0,0,0.0,-1,0.0,0.0,0.0,0,0.0,0.3707
22283,0,,,8,,,0.07,-0.02,1.01,0,-0,-0,0.08,0,,,,,,,,,,,,,,,,
22323,0,,,8,,,0.07,-0.02,1.01,0,-0,-0,0.08,0,,,,,,,,,,,,,,,,
22363,0,,,8,,,0.07,-0.02,1.0,0,-0,-0,0.08,0,,,,,,,,,,,,,,,,
22403,0,,,7,,,0.07,-0.02,1.0,0,-0,0,0.08,0,,,,,,,,,,,,,,,,
22443,0,,,8,,,0.07,-0.02,1.0,0,-0,0,0.07,0,0.0,0.0,0.0,0.0,0,0,0.0,0,0.0,-1,0.0,0.0,0.0,0,0.0,0.374
22483,0,,,8,,,0.07,-0.02,1.0,0,-0,-0,0.07,0,,,,,,,,,,,,,,,,
22523,0,,,8,,,0.07,-0.02,1.01,0,-0,0,0.07,0,,,,,,,,,,,,,,,,
22563,0,,,8,,,0.07,-0.02,1.01,0,-0,0,0.07,0,,,,,,,,,,,,,,,,
22603,0,,,8,,,0.07,-0.02,1.0,0,-0,0,0.07,0,,,,,,,,,,,,,,,,
22643,0,,,8,,,0.07,-0.02,1.01,0,-0,0,0.07,0,0.0,0.0,0.0,0.0,0,0,0.0,0,0.0,-1,0.0,0.0,0.0,0,0.0,0.3774
22683,0,,,8,,,0.07,-0.02,1.0,0,-0,0,0.07,0,,,,,,,,,,,,,,,,
22723,0,,,7,,,0.07,-0.02,1.0,0,-0,-0,0.07,0,,,,,,,,,,,,,,,,
22763,0,,,7,,,0.07,-0.02,1.0,0,-0,-0,0.07,0,,,,,,,,,,,,,,,,
22803,0,,,7,,,0.07,-0.02,1.01,0,-0,0,0.07,0,,,,,,,,,,,,,,,,
22843,0,,,7,,,0.07,-0.02,1.0,0,-0,-0,0.07,0,0.0,0.0,0.0,0.0,0,0,0.0,0,0.0,-1,0.0,0.0,0.0,0,0.0,0.3807
22883,0,,,8,,,0.07,-0.02,1.0,0,-0,-0,0.07,0,,,,,,,,,,,,,,,,
22923,0,,,8,,,0.07,-0.02,1.0,-0,-0,-0,0.07,0,,,,,,,,,,,,,,,,
22963,0,,,8,,,0.07,-0.02,1.0,-0,-0,-0,0.07,0,,,,,,,,,,,,,,,,
23003,0,,,8,,,0.07,-0.02,1.0,0,-0,0,0.07,0,,,,,,,,,,,,,,,,
23043,0,302,248,8,0.24,13.22,0.07,-0.02,1.0,0,-0,-0,0.08,0,0.0,0.0,0.0,0.0,0,0,0.0,0,0.0,-1,0.0,0.0,0.0,0,0.0,0.384
23083,0,,,8,,,0.07,-0.02,1.0,0,-0,0,0.08,0,,,,,,,,,,,,,,,,
23123,0,,,7,,,0.07,-0.02,1.01,0,-0,0,0.08,0,,,,,,,,,,,,,,,,
23163,0,,,7,,,0.07,-0.02,1.01,0,-0,-0,0.08,0,,,,,,,,,,,,,,,,
23203,0,,,8,,,0.07,-0.02,1.01,0,-0,0,0.07,0,,,,,,,,,,,,,,,,
23243,0,,,7,,,0.07,-0.02,1.01,0,-0,-0,0.08,0,0.0,0.0,0.0,0.0,0,0,0.0,0,0.0,-1,0.0,0.0,0.0,0,0.0,0.3874
23283,0,,,7,,,0.07,-0.02,1.01,0,-0,0,0.08,0,,,,,,,,,,,,,,,,
23323,0,,,8,,,0.07,-0.02,1.01,0,-0,0,0.07,0,,,,,,,,,,,,,,,,
23363,0,,,8,,,0.07,-0.02,1.01,0,-0,0,0.07,0,,,,,,,,,,,,,,,,
23403,0,,,8,,,0.07,-0.02,1.0,0,-0,0,0.07,0,,,,,,,,,,,,,,,,
23443,0,,,8,,,0.07,-0.02,1.0,0,-0,0,0.07,0,0.0,0.0,0.0,0.0,0,0,0.0,0,0.0,-1,0.0,0.0,0.0,0,0.0,0.3907
23483,0,,,8,,,0.07,-0.02,1.0,-0,-0,0,0.07,0,,,,,,,,,,,,,,,,
23523,0,,,7,,,0.07,-0.02,1.0,0,-0,0,0.07,0,,,,,,,,,,,,,,,,
23563,0,,,8,,,0.07,-0.02,1.0,0,-0,-0,0.07,0,,,,,,,,,,,,,,,,
23603,0,,,7,,,0.07,-0.02,1.0,0,-0,-0,0.07,0,,,,,,,,,,,,,,,,
23643,0,,,8,,,0.07,-0.02,1.0,-0,-0,-0,0.07,0,0.0,0.0,0.0,0.0,0,0,0.0,0,0.0,-1,0.0,0.0,0.0,0,0.0,0.394
23683,0,,,8,,,0.07,-0.02,1.0,-0,-0,-0,0.07,0,,,,,,,,,,,,,,,,
23723,0,,,7,,,0.07,-0.02,1.0,0,-0,-0,0.07,0,,,,,,,,,,,,,,,,
23763,0,,,8,,,0.07,-0.02,1.0,0,-0,-0,0.07,0,,,,,,,,,,,,,,,,
23803,0,,,7,,,0.07,-0.02,1.0,-0,-0,0,0.07,0,,,,,,,,,,,,,,,,
23843,0,,,8,,,0.07,-0.02,1.0,0,-0,0,0.07,0,0.0,0.0,0.0,0.0,0,0,0.0,0,0.0,-1,0.0,0.0,0.0,0,0.0,0.3974
23883,0,,,7,,,0.07,-0.02,1.0,0,-0,0,0.07,0,,,,,,,,,,,,,,,,
23923,0,,,8,,,0.07,-0.02,1.0,0,-0,-0,0.07,0,,,,,,,,,,,,,,,,
23963,0,,,8,,,0.07,-0.02,1.01,0,-0,-0,0.07,0,,,,,,,,,,,,,,,,
24003,0,,,8,,,0.07,-0.02,1.0,0,-0,-0,0.07,0,,,,,,,,,,,,,,,,
24043,0,302,246,8,0.23,13.22,0.07,-0.02,1.01,0,-0,-0,0.07,0,0.0,0.0,0.0,0.0,0,0,0.0,0,0.0,-1,0.0,0.0,0.0,0,0.0,0.4007
24083,0,,,8,,,0.07,-0.02,1.0,0,-0,-0,0.07,0,,,,,,,,,,,,,,,,
24123,0,,,7,,,0.07,-0.02,1.0,0,-0,-0,0.07,0,,,,,,,,,,,,,,,,
24163,0,,,8,,,0.07,-0.02,1.0,0,-0,-0,0.07,0,,,,,,,,,,,,,,,,
24203,0,,,8,,,0.07,-0.02,1.0,0,-0,-0,0.07,0,,,,,,,,,,,,,,,,
24243,0,,,8,,,0.07,-0.02,1.0,0,-0,-0,0.07,0,0.0,0.0,0.0,0.0,0,0,0.0,0,0.0,-1,0.0,0.0,0.0,0,0.0,0.404
24283,0,,,8,,,0.07,-0.02,1.0,0,-0,-0,0.07,0,,,,,,,,,,,,,,,,
24323,0,,,7,,,0.07,-0.02,1.0,0,-0,-0,0.07,0,,,,,,,,,,,,,,,,
24363,0,,,8,,,0.07,-0.02,1.0,0,-0,0,0.07,0,,,,,,,,,,,,,,,,
24403,0,,,7,,,0.07,-0.02,1.0,0,-0,0,0.07,0,,,,,,,,,,,,,,,,
24443,0,,,7,,,0.07,-0.02,1.01,0,-0,0,0.07,0,0.0,0.0,0.0,0.0,0,0,0.0,0,0.0,-1,0.0,0.0,0.0,0,0.0,0.4074
24483,0,,,7,,,0.07,-0.02,1.0,0,-0,0,0.07,0,,,,,,,,,,,,,,,,
24523,0,,,8,,,0.07,-0.02,1.0,0,-0,0,0.07,0,,,,,,,,,,,,,,,,
24563,0,,,7,,,0.07,-0.02,1.0,0,-0,0,0.07,0,,,,,,,,,,,,,,,,
24603,0,,,8,,,0.07,-0.02,1.0,0,-0,0,0.07,0,,,,,,,,,,,,,,,,
24643,0,,,8,,,0.07,-0.02,1.0,0,-0,-0,0.07,0,0.0,0.0,0.0,0.0,0,0,0.0,0,0.0,-1,0.0,0.0,0.0,0,0.0,0.4107
24683,0,,,7,,,0.07,-0.02,1.0,0,-0,-0,0.07,0,,,,,,,,,,,,,,,,
24723,0,,,8,,,0.07,-0.02,1.0,0,-0,0,0.07,0,,,,,,,,,,,,,,,,
24763,0,,,8,,,0.07,-0.02,1.0,0,-0,0,0.07,0,,,,,,,,,,,,,,,,
24803,0,,,8,,,0.07,-0.02,1.0,0,-0,0,0.07,0,,,,,,,,,,,,,,,,
24843,0,,,8,,,0.07,-0.02,1.0,0,-0,-0,0.07,0,0.0,0.0,0.0,0.0,0,0,0.0,0,0.0,-1,0.0,0.0,0.0,0,0.0,0.414
24883,0,,,8,,,0.07,-0.02,1.0,0,-0,-0,0.07,0,,,,,,,,,,,,,,,,
24923,0,,,7,,,0.07,-0.02,1.0,0,-0,-0,0.07,0,,,,,,,,,,,,,,,,
24963,0,,,8,,,0.07,-0.02,1.0,0,-0,-0,0.07,0,,,,,,,,,,,,,,,,
25003,0,,,8,,,0.07,-0.02,1.0,0,-0,-0,0.07,0,,,,,,,,,,,,,,,,
25043,0,302,248,7,0.23,13.22,0.07,-0.02,1.0,0,-0,-0,0.07,0,0.0,0.0,0.0,0.0,0,0,0.0,0,0.0,-1,0.0,0.0,0.0,0,0.0,0.4174
25083,0,,,7,,,0.07,-0.02,1.0,0,-0,-0,0.07,0,,,,,,,,,,,,,,,,
25123,0,,,8,,,0.07,-0.02,1.0,0,-0,-0,0.07,0,,,,,,,,,,,,,,,,
25163,0,,,8,,,0.07,-0.02,1.0,0,-0,-0,0.07,0,,,,,,,,,,,,,,,,
25203,0,,,8,,,0.07,-0.02,1.0,0,-0,-0,0.07,0,,,,,,,,,,,,,,,,
25243,0,,,7,,,0.07,-0.02,1.0,0,-0,0,0.07,0,0.0,0.0,0.0,0.0,0,0,0.0,0,0.0,-1,0.0,0.0,0.0,0,0.0,0.4207
25283,0,,,8,,,0.07,-0.02,1.0,0,-0,0,0.07,0,,,,,,,,,,,,,,,,
25323,0,,,7,,,0.07,-0.02,1.0,0,-0,-0,0.07,0,,,,,,,,,,,,,,,,
25363,0,,,7,,,0.07,-0.02,1.01,0,-0,-0,0.07,0,,,,,,,,,,,,,,,,
25403,0,,,8,,,0.07,-0.02,1.01,0,-0,-0,0.07,0,,,,,,,,,,,,,,,,
25443,0,,,8,,,0.07,-0.02,1.01,0,-0,-0,0.07,0,0.0,0.0,0.0,0.0,0,0,0.0,0,0.0,-1,0.0,0.0,0.0,0,0.0,0.424
25483,0,,,8,,,0.07,-0.02,1.01,0,-0,-0,0.07,0,,,,,,,,,,,,,,,,
25523,0,,,8,,,0.07,-0.02,1.01,0,-0,-0,0.07,0,,,,,,,,,,,,,,,,
25563,0,,,7,,,0.07,-0.02,1.01,0,-0,-0,0.07,0,,,,,,,,,,,,,,,,
25603,0,,,7,,,0.07,-0.02,1.01,0,-0,-0,0.07,0,,,,,,,,,,,,,,,,
25643,0,,,7,,,0.07,-0.02,1.01,0,-0,-0,0.07,0,0.0,0.0,0.0,0.0,0,0,0.0,0,0.0,-1,0.0,0.0,0.0,0,0.0,0.4274
25683,0,,,7,,,0.07,-0.02,1.01,0,-0,-0,0.07,0,,,,,,,,,,,,,,,,
25723,0,,,7,,,0.07,-0.02,1.0,0,-0,-0,0.07,0,,,,,,,,,,,,,,,,
25763,0,,,7,,,0.07,-0.02,1.01,0,-0,-0,0.07,0,,,,,,,,,,,,,,,,
25803,0,,,7,,,0.07,-0.02,1.0,0,-0,-0,0.07,0,,,,,,,,,,,,,,,,
25843,0,,,7,,,0.07,-0.02,1.01,0,-0,-0,0.07,0,0.0,0.0,0.0,0.0,0,0,0.0,0,0.0,-1,0.0,0.0,0.0,0,0.0,0.4307
25883,0,,,8,,,0.07,-0.02,1.01,0,-0,-0,0.07,0,,,,,,,,,,,,,,,,
25923,0,,,8,,,0.07,-0.02,1.01,0,-0,-0,0.07,0,,,,,,,,,,,,,,,,
25963,0,,,8,,,0.07,-0.02,1.01,0,-0,-0,0.07,0,,,,,,,,,,,,,,,,
26003,0,,,8,,,0.07,-0.02,1.0,0,-0,-0,0.07,0,,,,,,,,,,,,,,,,
26043,0,302,246,8,0.23,13.22,0.07,-0.02,1.0,0,-0,-0,0.07,0,0.0,0.0,0.0,0.0,0,0,0.0,0,0.0,-1,0.0,0.0,0.0,0,0.0,0.434
26083,0,,,7,,,0.07,-0.02,1.0,0,-0,-0,0.07,0,,,,,,,,,,,,,,,,
26123,0,,,8,,,0.07,-0.02,1.0,0,-0,-0,0.07,0,,,,,,,,,,,,,,,,
26163,0,,,8,,,0.07,-0.02,1.01,0,-0,-0,0.07,0,,,,,,,,,,,,,,,,
26203,0,,,7,,,0.07,-0.02,1.0,0,-0,-0,0.07,0,,,,,,,,,,,,,,,,
26243,0,,,8,,,0.07,-0.02,1.01,0,-0,-0,0.07,0,0.0,0.0,0.0,0.0,0,0,0.0,0,0.0,-1,0.0,0.0,0.0,0,0.0,0.4374
26283,0,,,7,,,0.07,-0.02,1.01,0,-0,-0,0.07,0,,,,,,,,,,,,,,,,
26323,0,,,8,,,0.07,-0.02,1.01,0,-0,-0,0.07,0,,,,,,,,,,,,,,,,
26363,0,,,8,,,0.07,-0.02,1.01,0,-0,-0,0.07,0,,,,,,,,,,,,,,,,
26403,0,,,7,,,0.07,-0.02,1.01,0,-0,-0,0.07,0,,,,,,,,,,,,,,,,
26443,0,,,7,,,0.07,-0.02,1.01,0,-0,-0,0.07,0,0.0,0.0,0.0,0.0,0,0,0.0,0,0.0,-1,0.0,0.0,0.0,0,0.0,0.4407
26483,0,,,7,,,0.07,-0.02,1.01,0,-0,-0,0.07,0,,,,,,,,,,,,,,,,
26523,0,,,8,,,0.07,-0.02,1.01,0,-0,-0,0.07,0,,,,,,,,,,,,,,,,
26563,0,,,8,,,0.07,-0.02,1.01,0,-0,-0,0.07,0,,,,,,,,,,,,,,,,
26603,0,,,7,,,0.07,-0.02,1.01,0,-0,-0,0.07,0,,,,,,,,,,,,,,,,
26643,0,,,7,,,0.07,-0.02,1.01,0,-0,-0,0.07,0,0.0,0.0,0.0,0.0,0,0,0.0,0,0.0,-1,0.0,0.0,0.0,0,0.0,0.444
26683,0,,,8,,,0.07,-0.02,1.01,0,-0,-0,0.07,0,,,,,,,,,,,,,,,,
26723,0,,,8,,,0.07,-0.02,1.01,0,-0,-0,0.07,0,,,,,,,,,,,,,,,,
26763,0,,,8,,,0.07,-0.02,1.01,0,-0,-0,0.07,0,,,,,,,,,,,,,,,,
26803,0,,,8,,,0.07,-0.02,1.01,0,-0,-0,0.07,0,,,,,,,,,,,,,,,,
26843,0,,,8,,,0.07,-0.02,1.01,0,-0,-0,0.07,0,0.0,0.0,0.0,0.0,0,0,0.0,0,0.0,-1,0.0,0.0,0.0,0,0.0,0.4474
26883,0,,,8,,,0.07,-0.02,1.01,0,-0,-0,0.07,0,,,,,,,,,,,,,,,,
26923,0,,,8,,,0.07,-0.02,1.01,0,-0,-0,0.07,0,,,,,,,,,,,,,,,,
26963,0,,,8,,,0.07,-0.02,1.01,0,-0,-0,0.07,0,,,,,,,,,,,,,,,,
27003,0,,,7,,,0.07,-0.02,1.01,0,-0,-0,0.07,0,,,,,,,,,,,,,,,,
27043,0,302,244,8,0.23,13.22,0.07,-0.02,1.01,0,-0,-0,0.07,0,0.0,0.0,0.0,0.0,0,0,0.0,0,0.0,-1,0.0,0.0,0.0,0,0.0,0.4507
27083,0,,,8,,,0.07,-0.02,1.01,0,-0,-0,0.07,0,,,,,,,,,,,,,,,,
27123,0,,,7,,,0.07,-0.02,1.01,0,-0,-0,0.07,0,,,,,,,,,,,,,,,,
27163,0,,,7,,,0.07,-0.02,1.01,0,-0,-0,0.07,0,,,,,,,,,,,,,,,,
27203,0,,,8,,,0.07,-0.02,1.01,0,-0,-0,0.07,0,,,,,,,,,,,,,,,,
27243,0,,,8,,,0.07,-0.02,1.01,0,-0,-0,0.07,0,0.0,0.0,0.0,0.0,0,0,0.0,0,0.0,-1,0.0,0.0,0.0,0,0.0,0.454
27283,0,,,8,,,0.07,-0.02,1.01,0,-0,-0,0.07,0,,,,,,,,,,,,,,,,
27323,0,,,8,,,0.07,-0.02,1.0,0,-0,-0,0.07,0,,,,,,,,,,,,,,,,
27363,0,,,8,,,0.07,-0.02,1.01,0,-0,-0,0.07,0,,,,,,,,,,,,,,,,
27403,0,,,8,,,0.07,-0.02,1.01,0,-0,-0,0.07,0,,,,,,,,,,,,,,,,
27443,0,,,8,,,0.07,-0.02,1.01,0,-0,-0,0.07,0,0.0,0.0,0.0,0.0,0,0,0.0,0,0.0,-1,0.0,0.0,0.0,0,0.0,0.4574
27483,0,,,7,,,0.07,-0.02,1.01,0,-0,-0,0.07,0,,,,,,,,,,,,,,,,
27523,0,,,7,,,0.07,-0.02,1.01,0,-0,-0,0.07,0,,,,,,,,,,,,,,,,
27563,0,,,7,,,0.07,-0.02,1.01,0,-0,-0,0.07,0,,,,,,,,,,,,,,,,
27603,0,,,8,,,0.07,-0.02,1.01,0,-0,0,0.07,0,,,,,,,,,,,,,,,,
27643,0,,,8,,,0.07,-0.02,1.01,0,-0,0,0.07,0,0.0,0.0,0.0,0.0,0,0,0.0,0,0.0,-1,0.0,0.0,0.0,0,0.0,0.4607
27683,0,,,7,,,0.07,-0.02,1.0,-0,-0,0,0.07,0,,,,,,,,,,,,,,,,
27723,0,,,8,,,0.07,-0.02,1.0,0,-0,0,0.07,0,,,,,,,,,,,,,,,,
27763,0,,,7,,,0.07,-0.02,1.0,0,-0,0,0.07,0,,,,,,,,,,,,,,,,
27803,0,,,7,,,0.07,-0.02,1.0,0,-0,0,0.07,0,,,,,,,,,,,,,,,,
27843,0,,,7,,,0.07,-0.02,1.0,0,-0,0,0.07,0,0.0,0.0,0.0,0.0,0,0,0.0,0,0.0,-1,0.0,0.0,0.0,0,0.0,0.464
27883,0,,,8,,,0.07,-0.02,1.01,0,-0,0,0.07,0,,,,,,,,,,,,,,,,
27923,0,,,8,,,0.07,-0.02,1.01,0,-0,0,0.07,0,,,,,,,,,,,,,,,,
27963,0,,,8,,,0.07,-0.02,1.01,0,-0,0,0.07,0,,,,,,,,,,,,,,,,
28003,0,,,8,,,0.07,-0.02,1.01,0,-0,0,0.07,0,,,,,,,,,,,,,,,,
28043,0,302,246,8,0.23,13.22,0.07,-0.02,1.01,0,-0,0,0.07,0,0.0,0.0,0.0,0.0,0,0,0.0,0,0.0,-1,0.0,0.0,0.0,0,0.0,0.4674
28083,0,,,8,,,0.07,-0.02,1.01,0,-0,0,0.07,0,,,,,,,,,,,,,,,,
28123,0,,,7,,,0.07,-0.02,1.01,0,-0,-0,0.07,0,,,,,,,,,,,,,,,,
28163,0,,,8,,,0.07,-0.02,1.01,0,-0,0,0.07,0,,,,,,,,,,,,,,,,
28203,0,,,7,,,0.07,-0.02,1.01,0,-0,0,0.07,0,,,,,,,,,,,,,,,,
28243,0,,,8,,,0.07,-0.02,1.01,0,-0,0,0.07,0,0.0,0.0,0.0,0.0,0,0,0.0,0,0.0,-1,0.0,0.0,0.0,0,0.0,0.4707
28283,0,,,8,,,0.07,-0.02,1.01,0,-0,0,0.07,0,,,,,,,,,,,,,,,,
28323,0,,,8,,,0.07,-0.02,1.01,0,-0,0,0.07,0,,,,,,,,,,,,,,,,
28363,0,,,8,,,0.07,-0.02,1.0,0,-0,-0,0.07,0,,,,,,,,,,,,,,,,
28403,0,,,8,,,0.07,-0.02,1.0,0,-0,-0,0.07,0,,,,,,,,,,,,,,,,
28443,0,,,8,,,0.07,-0.02,1.0,0,-0,0,0.07,0,0.0,0.0,0.0,0.0,0,0,0.0,0,0.0,-1,0.0,0.0,0.0,0,0.0,0.474
28483,0,,,8,,,0.07,-0.02,1.0,0,-0,0,0.07,0,,,,,,,,,,,,,,,,
28523,0,,,8,,,0.07,-0.02,1.0,-0,-0,0,0.07,0,,,,,,,,,,,,,,,,
28563,0,,,8,,,0.07,-0.02,1.0,-0,-0,0,0.07,0,,,,,,,,,,,,,,,,
28603,0,,,8,,,0.07,-0.02,1.01,-0,-0,0,0.07,0,,,,,,,,,,,,,,,,
28643,0,,,8,,,0.07,-0.02,1.01,-0,-0,-0,0.07,0,0.0,0.0,0.0,0.0,0,0,0.0,0,0.0,-1,0.0,0.0,0.0,0,0.0,0.4774
28683,0,,,8,,,0.07,-0.02,1.01,-0,-0,0,0.07,0,,,,,,,,,,,,,,,,
28723,0,,,8,,,0.07,-0.02,1.0,-0,-0,0,0.07,0,,,,,,,,,,,,,,,,
28763,0,,,8,,,0.07,-0.02,1.01,0,-0,0,0.07,0,,,,,,,,,,,,,,,,
28803,0,,,8,,,0.07,-0.02,1.0,0,-0,0,0.07,0,,,,,,,,,,,,,,,,
28843,0,,,8,,,0.07,-0.02,1.0,-0,-0,0,0.07,0,0.0,0.0,0.0,0.0,0,0,0.0,0,0.0,-1,0.0,0.0,0.0,0,0.0,0.4807
28883,0,,,8,,,0.07,-0.02,1.0,-0,-0,0,0.07,0,,,,,,,,,,,,,,,,
28923,0,,,8,,,0.07,-0.02,1.0,-0,-0,0,0.07,0,,,,,,,,,,,,,,,,
28963,0,,,8,,,0.07,-0.02,1.01,0,-0,0,0.07,0,,,,,,,,,,,,,,,,
29003,0,,,8,,,0.07,-0.02,1.01,0,-0,0,0.07,0,,,,,,,,,,,,,,,,
29043,0,302,247,8,0.23,13.25,0.07,-0.02,1.01,0,-0,0,0.07,0,0.0,0.0,0.0,0.0,0,0,0.0,0,0.0,-1,0.0,0.0,0.0,0,0.0,0.484
29083,0,,,8,,,0.07,-0.02,1.01,0,-0,-0,0.07,0,,,,,,,,,,,,,,,,
29123,0,,,8,,,0.07,-0.02,1.01,-0,-0,-0,0.07,0,,,,,,,,,,,,,,,,
29163,0,,,8,,,0.07,-0.02,1.01,-0,-0,0,0.07,0,,,,,,,,,,,,,,,,
29203,0,,,8,,,0.07,-0.02,1.01,0,-0,0,0.07,0,,,,,,,,,,,,,,,,
29243,0,,,8,,,0.07,-0.02,1.01,-0,-0,-0,0.07,0,0.0,0.0,0.0,0.0,0,0,0.0,0,0.0,-1,0.0,0.0,0.0,0,0.0,0.4874
29283,0,,,8,,,0.07,-0.02,1.0,-0,-0,0,0.07,0,,,,,,,,,,,,,,,,
29323,0,,,7,,,0.07,-0.02,1.0,0,-0,0,0.07,0,,,,,,,,,,,,,,,,
29363,0,,,8,,,0.07,-0.02,1.01,0,-0,0,0.07,0,,,,,,,,,,,,,,,,
29403,0,,,8,,,0.07,-0.02,1.01,-0,-0,0,0.07,0,,,,,,,,,,,,,,,,
29443,0,,,8,,,0.07,-0.02,1.0,-0,-0,0,0.07,0,0.0,0.0,0.0,0.0,0,0,0.0,0,0.0,-1,0.0,0.0,0.0,0,0.0,0.4907
29483,0,,,8,,,0.07,-0.02,1.0,0,-0,0,0.07,0,,,,,,,,,,,,,,,,
29523,0,,,8,,,0.07,-0.02,1.0,0,-0,0,0.07,0,,,,,,,,,,,,,,,,
29563,0,,,8,,,0.07,-0.02,1.0,0,-0,0,0.07,0,,,,,,,,,,,,,,,,
29603,0,,,7,,,0.07,-0.02,1.0,0,-0,0,0.07,0,,,,,,,,,,,,,,,,
29643,0,,,8,,,0.07,-0.02,1.0,0,-0,0,0.07,0,0.0,0.0,0.0,0.0,0,0,0.0,0,0.0,-1,0.0,0.0,0.0,0,0.0,0.494
29683,0,,,8,,,0.07,-0.02,1.0,0,-0,0,0.07,0,,,,,,,,,,,,,,,,
29723,0,,,7,,,0.07,-0.02,1.0,0,-0,0,0.07,0,,,,,,,,,,,,,,,,
29763,0,,,7,,,0.07,-0.02,1.0,0,-0,0,0.08,0,,,,,,,,,,,,,,,,
29803,0,,,7,,,0.07,-0.02,1.0,0,-0,0,0.08,0,,,,,,,,,,,,,,,,
29843,0,,,7,,,0.07,-0.02,1.0,0,-0,0,0.08,0,0.0,0.0,0.0,0.0,0,0,0.0,0,0.0,-1,0.0,0.0,0.0,0,0.0,0.4974
29883,0,,,8,,,0.07,-0.02,1.0,0,-0,0,0.08,0,,,,,,,,,,,,,,,,
29923,0,,,8,,,0.07,-0.02,1.0,0,-0,0,0.08,0,,,,,,,,,,,,,,,,
29963,0,,,8,,,0.07,-0.02,1.0,0,-0,0,0.08,0,,,,,,,,,,,,,,,,
30003,0,,,8,,,0.07,-0.02,1.0,0,-0,0,0.08,0,,,,,,,,,,,,,,,,
30043,0,302,243,8,0.24,13.27,0.07,-0.02,1.0,0,-0,0,0.08,0,0.0,0.0,0.0,0.0,0,0,0.0,0,0.0,-1,0.0,0.0,0.0,0,0.0,0.5007
30083,0,,,8,,,0.07,-0.02,1.01,0,-0,0,0.08,0,,,,,,,,,,,,,,,,
30123,0,,,7,,,0.07,-0.02,1.0,0,-0,0,0.07,0,,,,,,,,,,,,,,,,
30163,0,,,7,,,0.07,-0.02,1.01,0,-0,0,0.07,0,,,,,,,,,,,,,,,,
30203,0,,,8,,,0.07,-0.02,1.01,0,-0,0,0.07,0,,,,,,,,,,,,,,,,
30243,0,,,8,,,0.07,-0.02,1.0,0,-0,0,0.07,0,0.0,0.0,0.0,0.0,0,0,0.0,0,0.0,-1,0.0,0.0,0.0,0,0.0,0.504
30283,0,,,8,,,0.07,-0.02,1.01,0,-0,0,0.07,0,,,,,,,,,,,,,,,,
30323,0,,,8,,,0.07,-0.02,1.0,0,-0,0,0.07,0,,,,,,,,,,,,,,,,
30363,0,,,8,,,0.07,-0.02,1.01,0,-0,0,0.07,0,,,,,,,,,,,,,,,,
30403,0,,,8,,,0.07,-0.02,1.0,0,-0,-0,0.07,0,,,,,,,,,,,,,,,,
30443,0,,,7,,,0.07,-0.02,1.0,0,-0,-0,0.07,0,0.0,0.0,0.0,0.0,0,0,0.0,0,0.0,-1,0.0,0.0,0.0,0,0.0,0.5074
30483,0,,,8,,,0.07,-0.02,1.01,0,-0,0,0.07,0,,,,,,,,,,,,,,,,
30523,0,,,7,,,0.07,-0.02,1.0,0,-0,0,0.08,0,,,,,,,,,,,,,,,,
30563,0,,,8,,,0.07,-0.02,1.0,0,-0,0,0.08,0,,,,,,,,,,,,,,,,
30603,0,,,7,,,0.07,-0.02,1.01,0,-0,0,0.08,0,,,,,,,,,,,,,,,,
30643,0,,,8,,,0.07,-0.02,1.0,0,-0,0,0.08,0,0.0,0.0,0.0,0.0,0,0,0.0,0,0.0,-1,0.0,0.0,0.0,0,0.0,0.5107
30683,0,,,8,,,0.07,-0.02,1.0,0,-0,0,0.08,0,,,,,,,,,,,,,,,,
30723,0,,,8,,,0.07,-0.02,1.01,0,-0,0,0.08,0,,,,,,,,,,,,,,,,
30763,0,,,8,,,0.07,-0.02,1.0,0,-0,0,0.08,0,,,,,,,,,,,,,,,,
30803,0,,,8,,,0.07,-0.02,1.0,0,-0,0,0.08,0,,,,,,,,,,,,,,,,
30843,0,,,7,,,0.07,-0.02,1.0,0,-0,0,0.07,0,0.0,0.0,0.0,0.0,0,0,0.0,0,0.0,-1,0.0,0.0,0.0,0,0.0,0.514
30883,0,,,8,,,0.07,-0.02,1.0,0,-0,0,0.07,0,,,,,,,,,,,,,,,,
30923,0,,,8,,,0.07,-0.02,1.0,0,-0,0,0.07,0,,,,,,,,,,,,,,,,
30963,0,,,8,,,0.07,-0.02,1.0,0,-0,0,0.07,0,,,,,,,,,,,,,,,,
31003,0,,,8,,,0.07,-0.02,1.0,0,-0,0,0.07,0,,,,,,,,,,,,,,,,
31043,0,302,244,8,0.23,13.27,0.07,-0.02,1.01,0,-0,0,0.07,0,0.0,0.0,0.0,0.0,0,0,0.0,0,0.0,-1,0.0,0.0,0.0,0,0.0,0.5174
31083,0,,,7,,,0.07,-0.02,1.01,0,-0,0,0.07,0,,,,,,,,,,,,,,,,
31123,0,,,8,,,0.07,-0.02,1.01,0,-0,-0,0.07,0,,,,,,,,,,,,,,,,
31163,0,,,8,,,0.07,-0.02,1.01,0,-0,-0,0.07,0,,,,,,,,,,,,,,,,
31203,0,,,8,,,0.07,-0.02,1.01,0,-0,-0,0.07,0,,,,,,,,,,,,,,,,
31243,0,,,8,,,0.07,-0.02,1.01,0,-0,-0,0.07,0,0.0,0.0,0.0,0.0,0,0,0.0,0,0.0,-1,0.0,0.0,0.0,0,0.0,0.5207
31283,0,,,7,,,0.07,-0.02,1.01,0,-0,-0,0.07,0,,,,,,,,,,,,,,,,
31323,0,,,8,,,0.07,-0.02,1.01,0,-0,-0,0.07,0,,,,,,,,,,,,,,,,
31363,0,,,8,,,0.07,-0.02,1.01,0,-0,-0,0.07,0,,,,,,,,,,,,,,,,
31403,0,,,8,,,0.07,-0.02,1.01,0,-0,-0,0.07,0,,,,,,,,,,,,,,,,
31443,0,,,8,,,0.07,-0.02,1.01,-0,-0,-0,0.07,0,0.0,0.0,0.0,0.0,0,0,0.0,0,0.0,-1,0.0,0.0,0.0,0,0.0,0.524
31483,0,,,7,,,0.07,-0.02,1.01,-0,-0,-0,0.07,0,,,,,,,,,,,,,,,,
31523,0,,,8,,,0.07,-0.02,1.01,-0,-0,-0,0.07,0,,,,,,,,,,,,,,,,
31563,0,,,8,,,0.07,-0.02,1.01,-0,-0,-0,0.07,0,,,,,,,,,,,,,,,,
31603,0,,,8,,,0.07,-0.02,1.01,0,-0,-0,0.07,0,,,,,,,,,,,,,,,,
31643,0,,,8,,,0.07,-0.02,1.01,0,-0,-0,0.07,0,0.0,0.0,0.0,0.0,0,0,0.0,0,0.0,-1,0.0,0.0,0.0,0,0.0,0.5274
31683,0,,,7,,,0.07,-0.02,1.01,0,-0,-0,0.07,0,,,,,,,,,,,,,,,,
31723,0,,,8,,,0.07,-0.02,1.01,0,-0,-0,0.07,0,,,,,,,,,,,,,,,,
31763,0,,,8,,,0.07,-0.02,1.01,-0,-0,-0,0.07,0,,,,,,,,,,,,,,,,
31803,0,,,8,,,0.07,-0.02,1.01,0,-0,-0,0.07,0,,,,,,,,,,,,,,,,
31843,0,,,7,,,0.07,-0.02,1.01,0,-0,-0,0.07,0,0.0,0.0,0.0,0.0,0,0,0.0,0,0.0,-1,0.0,0.0,0.0,0,0.0,0.5307
31883,0,,,8,,,0.07,-0.02,1.01,0,-0,-0,0.07,0,,,,,,,,,,,,,,,,
31923,0,,,8,,,0.07,-0.02,1.01,0,-0,0,0.07,0,,,,,,,,,,,,,,,,
31963,0,,,8,,,0.07,-0.02,1.0,-0,-0,0,0.07,0,,,,,,,,,,,,,,,,
32003,0,,,8,,,0.07,-0.02,1.0,0,-0,-0,0.07,0,,,,,,,,,,,,,,,,
32043,0,302,242,7,0.23,13.26,0.07,-0.02,1.0,-0,-0,-0,0.07,0,0.0,0.0,0.0,0.0,0,0,0.0,0,0.0,-1,0.0,0.0,0.0,0,0.0,0.534
32083,1616767525551,,,8,,,0.07,-0.02,1.0,-0,-0,-0,0.07,0,,,,,,,,,,,,,,,,
32123,1616767525591,,,7,,,0.07,-0.02,1.0,0,-0,-0,0.07,0,,,,,,,,,,,,,,,,
32163,1616767525631,,,8,,,0.07,-0.02,1.0,-0,-0,-0,0.07,0,,,,,,,,,,,,,,,,
32203,1616767525667,,,8,,,0.07,-0.02,1.0,-0,-0,-0,0.07,0,,,,,,,,,,,,,,,,
32243,1616767525707,,,8,,,0.07,-0.02,1.0,0,-0,-0,0.07,0,45.846085,5.179013,0.0,820.6,5,2,2.9,0,0.0,-1,0.0,0.0,0.0,0,0.0,0.5374
32283,1616767525747,,,8,,,0.07,-0.02,1.0,-0,-0,-0,0.07,0,,,,,,,,,,,,,,,,
32323,1616767525781,,,7,,,0.07,-0.02,1.01,-0,-0,-0,0.07,0,,,,,,,,,,,,,,,,
32363,1616767525821,,,8,,,0.07,-0.02,1.01,-0,-0,-0,0.07,0,,,,,,,,,,,,,,,,
32403,1616767525867,,,8,,,0.07,-0.02,1.01,-0,-0,-0,0.07,0,,,,,,,,,,,,,,,,
32443,1616767525907,,,8,,,0.07,-0.02,1.01,-0,-0,-0,0.07,0,45.846058,5.179005,0.0,818.0,5,2,2.9,0,0.0,-1,0.0,0.0,0.0,0,0.0,0.5407
32483,1616767525947,,,8,,,0.07,-0.02,1.01,-0,-0,-0,0.07,0,,,,,,,,,,,,,,,,
32523,1616767525986,,,8,,,0.07,-0.02,1.01,-0,-0,-0,0.07,0,,,,,,,,,,,,,,,,
32563,1616767526026,,,8,,,0.07,-0.02,1.01,-0,-0,-0,0.07,0,,,,,,,,,,,,,,,,
32603,1616767526064,,,8,,,0.07,-0.02,1.01,-0,-0,-0,0.07,0,,,,,,,,,,,,,,,,
32643,1616767526104,,,8,,,0.07,-0.02,1.01,-0,-0,-0,0.07,0,45.845932,5.178962,0.0,803.5,5,2,2.9,0,0.0,-1,0.0,0.0,0.0,0,0.0,0.544
32683,1616767526144,,,8,,,0.07,-0.02,1.01,-0,-0,0,0.07,0,,,,,,,,,,,,,,,,
32723,1616767526184,,,8,,,0.07,-0.02,1.01,-0,-0,-0,0.07,0,,,,,,,,,,,,,,,,
32763,1616767526224,,,8,,,0.07,-0.02,1.01,-0,-0,-0,0.07,0,,,,,,,,,,,,,,,,
32803,1616767526264,,,8,,,0.07,-0.02,1.01,-0,-0,-0,0.07,0,,,,,,,,,,,,,,,,
32843,1616767526304,,,8,,,0.07,-0.02,1.01,0,-0,-0,0.07,0,45.845924,5.17896,0.0,792.1,5,2,2.9,0,0.0,-1,0.0,0.0,0.0,0,0.0,0.5474
32883,1616767526344,,,8,,,0.07,-0.02,1.01,-0,-0,-0,0.07,0,,,,,,,,,,,,,,,,
32923,1616767526386,,,8,,,0.07,-0.02,1.01,0,-0,-0,0.07,0,,,,,,,,,,,,,,,,
32963,1616767526426,,,8,,,0.07,-0.02,1.01,-0,-0,-0,0.07,0,,,,,,,,,,,,,,,,
33003,1616767526466,,,8,,,0.07,-0.02,1.01,-0,-0,-0,0.07,0,,,,,,,,,,,,,,,,
33043,1616767526506,302,245,8,0.23,13.28,0.07,-0.02,1.01,-0,-0,-0,0.07,0,45.845921,5.178959,0.0,786.4,5,2,2.9,0,0.0,-1,0.0,0.0,0.0,0,0.0,0.5507
33083,1616767526546,,,8,,,0.07,-0.02,1.01,-0,-0,-0,0.07,0,,,,,,,,,,,,,,,,
33123,1616767526586,,,8,,,0.07,-0.02,1.01,0,-0,-0,0.07,0,,,,,,,,,,,,,,,,
33163,1616767526626,,,8,,,0.07,-0.02,1.01,0,-0,-0,0.07,0,,,,,,,,,,,,,,,,
33203,1616767526665,,,8,,,0.07,-0.02,1.01,0,-0,-0,0.07,0,,,,,,,,,,,,,,,,
33243,1616767526705,,,8,,,0.07,-0.02,1.01,0,-0,-0,0.07,0,45.845921,5.178959,0.0,786.4,5,2,2.9,0,0.0,-1,0.0,0.0,0.0,0,0.0,0.5541
33283,1616767526745,,,8,,,0.07,-0.02,1.01,0,-0,-0,0.07,0,,,,,,,,,,,,,,,,
33323,1616767526780,,,8,,,0.07,-0.02,1.01,0,-0,-0,0.07,0,,,,,,,,,,,,,,,,
33363,1616767526820,,,8,,,0.07,-0.02,1.0,0,-0,-0,0.07,0,,,,,,,,,,,,,,,,
33403,1616767526863,,,8,,,0.07,-0.02,1.01,0,-0,-0,0.07,0,,,,,,,,,,,,,,,,
33443,1616767526903,,,8,,,0.07,-0.02,1.01,0,-0,-0,0.07,0,45.845913,5.178957,0.0,782.2,6,2,2.3,0,0.0,-1,0.0,0.0,0.0,0,0.0,0.5574
33483,1616767526943,,,8,,,0.07,-0.02,1.01,0,-0,0,0.07,0,,,,,,,,,,,,,,,,
33523,1616767526983,,,8,,,0.07,-0.02,1.01,0,-0,-0,0.07,0,,,,,,,,,,,,,,,,
33563,1616767527023,,,8,,,0.07,-0.02,1.01,0,-0,-0,0.07,0,,,,,,,,,,,,,,,,
33603,1616767527063,,,8,,,0.07,-0.02,1.01,0,-0,0,0.07,0,,,,,,,,,,,,,,,,
33643,1616767527103,,,8,,,0.07,-0.02,1.01,0,-0,0,0.07,0,45.845913,5.178957,0.0,782.2,6,2,2.3,0,0.0,-1,0.0,0.0,0.0,0,0.0,0.5607
33683,1616767527143,,,8,,,0.07,-0.02,1.01,0,-0,0,0.07,0,,,,,,,,,,,,,,,,
33723,1616767527179,,,8,,,0.07,-0.02,1.01,0,-0,-0,0.07,0,,,,,,,,,,,,,,,,
33763,1616767527219,,,8,,,0.07,-0.02,1.01,0,-0,-0,0.07,0,,,,,,,,,,,,,,,,
33803,1616767527263,,,8,,,0.07,-0.02,1.01,0,-0,-0,0.07,0,,,,,,,,,,,,,,,,
33843,1616767527303,,,8,,,0.07,-0.02,1.01,0,-0,-0,0.07,0,45.845913,5.178957,0.0,782.2,6,2,2.3,0,0.0,-1,0.0,0.0,0.0,0,0.0,0.564
33883,1616767527343,,,8,,,0.07,-0.02,1.01,0,-0,-0,0.07,0,,,,,,,,,,,,,,,,
33923,1616767527383,,,8,,,0.07,-0.02,1.01,0,-0,-0,0.07,0,,,,,,,,,,,,,,,,
33963,1616767527423,,,7,,,0.07,-0.02,1.01,0,-0,-0,0.07,0,,,,,,,,,,,,,,,,
34003,1616767527465,,,8,,,0.07,-0.02,1.0,0,-0,-0,0.07,0,,,,,,,,,,,,,,,,
34043,1616767527505,302,242,7,0.22,13.26,0.07,-0.02,1.0,0,-0,0,0.07,0,45.845913,5.178957,0.0,782.2,6,2,2.3,0,0.0,-1,0.0,0.0,0.0,0,0.0,0.5674
34083,1616767527545,,,8,,,0.07,-0.02,1.0,0,-0,0,0.07,0,,,,,,,,,,,,,,,,
34123,1616767527583,,,8,,,0.07,-0.02,1.0,0,-0,0,0.07,0,,,,,,,,,,,,,,,,
34163,1616767527623,,,7,,,0.07,-0.02,1.0,0,-0,0,0.07,0,,,,,,,,,,,,,,,,
34203,1616767527663,,,8,,,0.07,-0.02,1.01,0,-0,-0,0.07,0,,,,,,,,,,,,,,,,
34243,1616767527703,,,8,,,0.07,-0.02,1.01,0,-0,-0,0.07,0,45.845913,5.178957,0.0,782.2,6,2,2.3,0,0.0,-1,0.0,0.0,0.0,0,0.0,0.5707
34283,1616767527743,,,7,,,0.07,-0.02,1.01,0,-0,-0,0.07,0,,,,,,,,,,,,,,,,
34323,1616767527777,,,7,,,0.07,-0.02,1.01,0,-0,0,0.07,0,,,,,,,,,,,,,,,,
34363,1616767527817,,,7,,,0.07,-0.02,1.01,0,-0,0,0.07,0,,,,,,,,,,,,,,,,
34403,1616767527862,,,8,,,0.07,-0.02,1.01,0,-0,0,0.07,0,,,,,,,,,,,,,,,,
34443,1616767527902,,,7,,,0.07,-0.02,1.01,-0,-0,0,0.07,0,45.845913,5.178957,0.0,782.2,6,2,2.3,0,0.0,-1,0.0,0.0,0.0,0,0.0,0.574
34483,1616767527942,,,8,,,0.07,-0.02,1.01,-0,-0,0,0.07,0,,,,,,,,,,,,,,,,
34523,1616767527982,,,8,,,0.07,-0.02,1.01,-0,-0,0,0.07,0,,,,,,,,,,,,,,,,
34563,1616767528022,,,8,,,0.07,-0.02,1.01,-0,-0,0,0.07,0,,,,,,,,,,,,,,,,
34603,1616767528062,,,8,,,0.07,-0.02,1.01,-0,-0,0,0.07,0,,,,,,,,,,,,,,,,
34643,1616767528102,,,8,,,0.07,-0.02,1.01,0,-0,0,0.07,0,45.845913,5.178957,0.0,782.2,6,2,2.3,0,0.0,-1,0.0,0.0,0.0,0,0.0,0.5774
34683,1616767528142,,,8,,,0.07,-0.02,1.0,0,-0,0,0.07,0,,,,,,,,,,,,,,,,
34723,1616767528182,,,7,,,0.07,-0.02,1.01,0,-0,-0,0.07,0,,,,,,,,,,,,,,,,
34763,1616767528222,,,8,,,0.07,-0.02,1.01,0,-1,0,0.07,0,,,,,,,,,,,,,,,,
34803,1616767528264,,,7,,,0.07,-0.02,1.02,0,-1,0,0.07,0,,,,,,,,,,,,,,,,
34843,1616767528304,,,7,,,0.07,-0.02,1.01,0,-0,-0,0.07,0,45.845913,5.178957,0.0,782.2,6,2,2.3,0,0.0,-1,0.0,0.0,0.0,0,0.0,0.5807
34883,1616767528344,,,8,,,0.07,-0.02,1.01,0,-0,-0,0.07,0,,,,,,,,,,,,,,,,
34923,1616767528384,,,7,,,0.05,-0.01,0.88,-0,-1,-0,0.05,0,,,,,,,,,,,,,,,,
34963,1616767528416,,,8,,,0.08,-0.0,0.89,-0,-1,-1,0.08,0,,,,,,,,,,,,,,,,
35003,1616767528456,,,7,,,0.08,-0.0,0.91,-0,-1,-1,0.08,0,,,,,,,,,,,,,,,,
35043,1616767528496,302,243,7,0.23,13.29,0.07,-0.01,0.92,-0,-1,-1,0.07,0,45.845913,5.178957,0.0,782.2,6,2,2.3,0,0.0,-1,0.0,0.0,0.0,0,0.0,0.584
35083,1616767528536,,,8,,,0.07,-0.01,0.94,-0,-1,-0,0.07,0,,,,,,,,,,,,,,,,
35123,1616767528576,,,8,,,0.07,-0.01,0.95,-0,-1,-0,0.07,0,,,,,,,,,,,,,,,,
35163,1616767528616,,,7,,,0.07,-0.01,0.96,-0,-1,-0,0.07,0,,,,,,,,,,,,,,,,
35203,1616767528656,,,7,,,0.07,-0.01,0.98,-0,-1,-0,0.07,0,,,,,,,,,,,,,,,,
35243,1616767528696,,,8,,,0.07,-0.02,0.99,-0,-1,-0,0.07,0,45.845913,5.178957,0.0,782.2,6,2,2.3,0,0.0,-1,0.0,0.0,0.0,0,0.0,0.5874
35283,1616767528736,,,8,,,0.07,-0.02,0.99,-0,-1,-0,0.07,0,,,,,,,,,,,,,,,,
35323,1616767528776,,,8,,,0.07,-0.02,1.0,-0,-0,-0,0.07,0,,,,,,,,,,,,,,,,
35363,1616767528816,,,8,,,0.07,-0.02,1.0,-0,-0,-0,0.07,0,,,,,,,,,,,,,,,,
35403,1616767528856,,,7,,,0.07,-0.02,1.0,-0,-0,-0,0.07,0,,,,,,,,,,,,,,,,
35443,1616767528897,,,8,,,0.07,-0.02,1.0,-0,-0,-0,0.07,0,45.845913,5.178957,0.0,782.2,6,2,2.3,0,0.0,-1,0.0,0.0,0.0,0,0.0,0.5907
35483,1616767528937,,,8,,,0.07,-0.02,1.0,-0,-0,-0,0.07,0,,,,,,,,,,,,,,,,
35523,1616767528977,,,8,,,0.07,-0.02,1.0,0,-0,-0,0.07,0,,,,,,,,,,,,,,,,
35563,1616767529011,,,7,,,0.07,-0.02,1.0,0,-0,-0,0.07,0,,,,,,,,,,,,,,,,
35603,1616767529051,,,8,,,0.07,-0.02,1.0,0,-0,-0,0.07,0,,,,,,,,,,,,,,,,
35643,1616767529097,,,7,,,0.07,-0.02,1.0,-0,-0,-0,0.07,0,45.845913,5.178957,0.0,782.2,6,2,2.3,0,0.0,-1,0.0,0.0,0.0,0,0.0,0.594
35683,1616767529137,,,7,,,0.07,-0.02,1.0,0,-0,-0,0.07,0,,,,,,,,,,,,,,,,
35723,1616767529177,,,7,,,0.07,-0.02,1.0,0,-0,-0,0.07,0,,,,,,,,,,,,,,,,
35763,1616767529217,,,7,,,0.07,-0.02,1.0,0,-0,-0,0.07,0,,,,,,,,,,,,,,,,
35803,1616767529257,,,7,,,0.07,-0.02,1.0,0,-0,-0,0.07,0,,,,,,,,,,,,,,,,
35843,1616767529297,,,8,,,0.07,-0.02,1.0,0,-0,-0,0.07,0,45.845913,5.178957,0.0,782.2,6,2,2.3,0,0.0,-1,0.0,0.0,0.0,0,0.0,0.5974
35883,1616767529337,,,8,,,0.07,-0.02,1.0,0,-0,-0,0.07,0,,,,,,,,,,,,,,,,
35923,1616767529377,,,8,,,0.07,-0.02,1.0,0,-0,-0,0.07,0,,,,,,,,,,,,,,,,
35963,1616767529417,,,7,,,0.07,-0.02,1.0,0,-0,-0,0.07,0,,,,,,,,,,,,,,,,
36003,1616767529457,,,7,,,0.07,-0.02,1.0,0,-0,-0,0.07,0,,,,,,,,,,,,,,,,
36043,1616767529495,302,242,8,0.23,13.27,0.07,-0.02,1.0,0,-0,-0,0.07,0,45.845913,5.178957,0.0,782.2,6,2,2.3,0,0.0,-1,0.0,0.0,0.0,0,0.0,0.6007
36083,1616767529535,,,8,,,0.07,-0.02,1.0,0,-0,-0,0.07,0,,,,,,,,,,,,,,,,
36123,1616767529575,,,8,,,0.07,-0.02,1.0,0,-0,-0,0.07,0,,,,,,,,,,,,,,,,
36163,1616767529617,,,8,,,0.07,-0.02,1.0,0,-0,-0,0.07,0,,,,,,,,,,,,,,,,
36203,1616767529657,,,8,,,0.07,-0.02,1.0,0,-0,-0,0.08,0,,,,,,,,,,,,,,,,
36243,1616767529697,,,8,,,0.07,-0.02,1.0,0,-0,-0,0.08,0,45.845913,5.178957,0.0,782.2,6,2,2.3,0,0.0,-1,0.0,0.0,0.0,0,0.0,0.604
36283,1616767529737,,,8,,,0.07,-0.02,1.0,0,-0,0,0.08,0,,,,,,,,,,,,,,,,
36323,1616767529777,,,8,,,0.07,-0.02,1.0,0,-0,-0,0.08,0,,,,,,,,,,,,,,,,
36363,1616767529817,,,8,,,0.07,-0.02,1.0,0,-0,-0,0.08,0,,,,,,,,,,,,,,,,
36403,1616767529857,,,8,,,0.07,-0.02,1.0,-0,-0,0,0.08,0,,,,,,,,,,,,,,,,
36443,1616767529898,,,9,,,0.07,-0.02,1.0,0,-0,0,0.08,0,45.845913,5.178957,0.0,782.2,6,2,2.3,0,0.0,-1,0.0,0.0,0.0,0,0.0,0.6074
36483,1616767529938,,,9,,,0.07,-0.02,1.0,0,-0,0,0.07,0,,,,,,,,,,,,,,,,
36523,1616767529978,,,8,,,0.07,-0.02,1.0,0,-0,-0,0.07,0,,,,,,,,,,,,,,,,
36563,1616767530010,,,9,,,0.07,-0.02,1.0,0,-0,-0,0.07,0,,,,,,,,,,,,,,,,
36603,1616767530050,,,9,,,0.07,-0.02,1.0,0,-0,-0,0.07,0,,,,,,,,,,,,,,,,
36643,1616767530096,,,8,,,0.07,-0.02,1.0,0,-0,-0,0.07,0,45.845913,5.178957,0.0,782.2,6,2,2.3,0,0.0,-1,0.0,0.0,0.0,0,0.0,0.6107
36683,1616767530136,,,8,,,0.07,-0.02,1.0,0,-0,-0,0.07,0,,,,,,,,,,,,,,,,
36723,1616767530176,,,9,,,0.07,-0.02,1.0,0,-0,-0,0.07,0,,,,,,,,,,,,,,,,
36763,1616767530216,,,9,,,0.07,-0.02,1.0,0,-0,0,0.08,0,,,,,,,,,,,,,,,,
36803,1616767530256,,,9,,,0.07,-0.02,1.0,0,-0,0,0.08,0,,,,,,,,,,,,,,,,
36843,1616767530296,,,9,,,0.08,-0.02,1.0,0,-0,0,0.08,0,45.845913,5.178957,0.0,782.2,6,2,2.3,0,0.0,-1,0.0,0.0,0.0,0,0.0,0.614
36883,1616767530336,,,8,,,0.08,-0.02,1.0,0,-0,0,0.08,0,,,,,,,,,,,,,,,,
36923,1616767530376,,,9,,,0.08,-0.02,1.0,0,-0,0,0.08,0,,,,,,,,,,,,,,,,
36963,1616767530416,,,9,,,0.07,-0.02,1.0,0,-0,0,0.08,0,,,,,,,,,,,,,,,,
37003,1616767530456,,,8,,,0.07,-0.02,1.0,0,-0,0,0.08,0,,,,,,,,,,,,,,,,
37043,1616767530496,302,243,9,0.23,13.27,0.07,-0.02,1.0,0,-0,0,0.07,0,45.845913,5.178957,0.0,782.2,6,2,2.3,0,0.0,-1,0.0,0.0,0.0,0,0.0,0.6174
37083,1616767530536,,,8,,,0.07,-0.02,1.0,0,-0,0,0.07,0,,,,,,,,,,,,,,,,
37123,1616767530576,,,9,,,0.07,-0.02,1.0,-0,-0,0,0.07,0,,,,,,,,,,,,,,,,
37163,1616767530618,,,8,,,0.07,-0.02,1.0,0,-0,0,0.07,0,,,,,,,,,,,,,,,,
37203,1616767530658,,,8,,,0.07,-0.02,1.0,-0,-0,-0,0.07,0,,,,,,,,,,,,,,,,
37243,1616767530698,,,9,,,0.07,-0.02,1.0,-0,-0,-0,0.07,0,45.845913,5.178957,0.0,782.2,6,2,2.3,0,0.0,-1,0.0,0.0,0.0,0,0.0,0.6207
37283,1616767530738,,,8,,,0.07,-0.02,1.0,0,-0,-0,0.07,0,,,,,,,,,,,,,,,,
37323,1616767530778,,,9,,,0.07,-0.02,1.0,0,-0,-0,0.07,0,,,,,,,,,,,,,,,,
37363,1616767530818,,,9,,,0.07,-0.02,1.01,0,-0,-0,0.07,0,,,,,,,,,,,,,,,,
37403,1616767530858,,,9,,,0.07,-0.02,1.0,0,-0,-0,0.07,0,,,,,,,,,,,,,,,,
37443,1616767530897,,,9,,,0.07,-0.02,1.0,0,-0,-0,0.07,0,45.845913,5.178957,0.0,782.2,6,2,2.3,0,0.0,-1,0.0,0.0,0.0,0,0.0,0.624
37483,1616767530937,,,8,,,0.07,-0.02,1.0,0,-0,-0,0.07,0,,,,,,,,,,,,,,,,
37523,1616767530977,,,8,,,0.07,-0.02,1.0,0,-0,-0,0.07,0,,,,,,,,,,,,,,,,
37563,1616767531011,,,8,,,0.07,-0.02,1.0,0,-0,-0,0.07,0,,,,,,,,,,,,,,,,
37603,1616767531051,,,8,,,0.07,-0.02,1.01,0,-0,-0,0.07,0,,,,,,,,,,,,,,,,
37643,1616767531097,,,8,,,0.07,-0.02,1.0,0,-0,-0,0.07,0,45.845913,5.178957,0.0,782.2,6,2,2.3,0,0.0,-1,0.0,0.0,0.0,0,0.0,0.6274
37683,1616767531137,,,9,,,0.07,-0.02,1.01,0,-0,-0,0.07,0,,,,,,,,,,,,,,,,
37723,1616767531177,,,9,,,0.07,-0.02,1.0,0,-0,-0,0.07,0,,,,,,,,,,,,,,,,
37763,1616767531217,,,8,,,0.07,-0.02,1.0,0,-0,-0,0.07,0,,,,,,,,,,,,,,,,
37803,1616767531257,,,9,,,0.07,-0.02,1.0,0,-0,-0,0.07,0,,,,,,,,,,,,,,,,
37843,1616767531297,,,8,,,0.07,-0.02,1.0,0,-0,-0,0.07,0,45.845913,5.178957,0.0,782.2,6,2,2.3,0,0.0,-1,0.0,0.0,0.0,0,0.0,0.6307
37883,1616767531337,,,9,,,0.07,-0.02,1.0,0,-0,-0,0.07,0,,,,,,,,,,,,,,,,
37923,1616767531377,,,8,,,0.07,-0.02,1.01,0,-0,0,0.07,0,,,,,,,,,,,,,,,,
37963,1616767531417,,,7,,,0.07,-0.02,1.0,0,-0,-0,0.07,0,,,,,,,,,,,,,,,,
38003,1616767531457,,,8,,,0.07,-0.02,1.0,-0,-0,-0,0.07,0,,,,,,,,,,,,,,,,
38043,1616767531497,302,243,9,0.23,13.27,0.07,-0.02,1.0,0,-0,-0,0.07,0,45.845913,5.178957,0.0,782.2,6,2,2.3,0,0.0,-1,0.0,0.0,0.0,0,0.0,0.634
38083,1616767531537,,,9,,,0.07,-0.02,1.0,0,-0,-0,0.07,0,,,,,,,,,,,,,,,,
38123,1616767531577,,,9,,,0.07,-0.02,1.0,0,-0,-0,0.07,0,,,,,,,,,,,,,,,,
38163,1616767531617,,,9,,,0.07,-0.02,1.0,-0,-0,-0,0.07,0,,,,,,,,,,,,,,,,
38203,1616767531657,,,8,,,0.07,-0.02,1.0,-0,-0,-0,0.08,0,,,,,,,,,,,,,,,,
38243,1616767531697,,,8,,,0.07,-0.02,1.0,-0,-0,-0,0.08,0,45.845913,5.178957,0.0,782.2,6,2,2.3,0,0.0,-1,0.0,0.0,0.0,0,0.0,0.6374
38283,1616767531737,,,9,,,0.07,-0.02,1.0,-0,0,-0,0.08,0,,,,,,,,,,,,,,,,
38323,1616767531777,,,9,,,0.07,-0.02,1.0,0,0,-0,0.08,0,,,,,,,,,,,,,,,,
38363,1616767531817,,,8,,,0.07,-0.02,1.0,0,-0,-0,0.08,0,,,,,,,,,,,,,,,,
38403,1616767531857,,,9,,,0.07,-0.02,1.0,-0,-0,-0,0.08,0,,,,,,,,,,,,,,,,
38443,1616767531896,,,9,,,0.07,-0.02,1.0,0,-0,-0,0.08,0,45.845913,5.178957,0.0,782.2,6,2,2.3,0,0.0,-1,0.0,0.0,0.0,0,0.0,0.6407
38483,1616767531936,,,7,,,0.07,-0.02,1.0,-0,-0,-0,0.08,0,,,,,,,,,,,,,,,,
38523,1616767531976,,,8,,,0.07,-0.02,1.0,0,-0,-0,0.07,0,,,,,,,,,,,,,,,,
38563,1616767532010,,,9,,,0.07,-0.02,1.0,0,-0,-0,0.07,0,,,,,,,,,,,,,,,,
38603,1616767532050,,,9,,,0.07,-0.02,1.0,0,-0,-0,0.07,0,,,,,,,,,,,,,,,,
38643,1616767532096,,,9,,,0.07,-0.02,1.0,0,-0,-0,0.07,0,45.845875,5.178944,0.0,747.5,7,2,1.8,0,0.0,-1,0.0,0.0,0.0,0,0.0,0.644
38683,1616767532136,,,8,,,0.07,-0.02,1.0,0,-0,0,0.07,0,,,,,,,,,,,,,,,,
38723,1616767532176,,,8,,,0.07,-0.02,1.01,0,-0,0,0.07,0,,,,,,,,,,,,,,,,
38763,1616767532216,,,9,,,0.07,-0.02,1.0,0,-0,0,0.07,0,,,,,,,,,,,,,,,,
38803,1616767532256,,,9,,,0.07,-0.02,1.0,0,-0,0,0.07,0,,,,,,,,,,,,,,,,
38843,1616767532297,,,9,,,0.07,-0.02,1.01,0,-0,0,0.07,0,45.845875,5.178944,0.0,747.5,7,2,1.8,0,0.0,-1,0.0,0.0,0.0,0,0.0,0.6474
38883,1616767532337,,,9,,,0.07,-0.02,1.01,0,-0,0,0.07,0,,,,,,,,,,,,,,,,
38923,1616767532377,,,9,,,0.07,-0.02,1.01,0,-0,0,0.07,0,,,,,,,,,,,,,,,,
38963,1616767532416,,,9,,,0.07,-0.02,1.01,0,-0,0,0.07,0,,,,,,,,,,,,,,,,
39003,1616767532456,,,8,,,0.07,-0.02,1.01,0,-0,0,0.07,0,,,,,,,,,,,,,,,,
39043,1616767532496,302,246,9,0.23,13.25,0.07,-0.02,1.01,0,-0,0,0.07,0,45.845875,5.178944,0.0,747.5,7,2,1.8,0,0.0,-1,0.0,0.0,0.0,0,0.0,0.6507
39083,1616767532536,,,9,,,0.07,-0.02,1.01,0,-0,0,0.07,0,,,,,,,,,,,,,,,,
39123,1616767532576,,,8,,,0.07,-0.02,1.0,0,-0,0,0.08,0,,,,,,,,,,,,,,,,
39163,1616767532616,,,8,,,0.07,-0.02,1.0,0,-0,0,0.08,0,,,,,,,,,,,,,,,,
39203,1616767532656,,,7,,,0.07,-0.02,1.0,0,-0,0,0.08,0,,,,,,,,,,,,,,,,
39243,1616767532696,,,8,,,0.07,-0.02,1.0,0,-0,-0,0.08,0,45.845875,5.178944,0.0,747.5,7,2,1.9,0,0.0,-1,0.0,0.0,0.0,0,0.0,0.654
39283,1616767532736,,,8,,,0.07,-0.02,1.0,0,-0,-0,0.08,0,,,,,,,,,,,,,,,,
39323,1616767532776,,,8,,,0.07,-0.02,1.0,0,-0,0,0.07,0,,,,,,,,,,,,,,,,
39363,1616767532816,,,7,,,0.07,-0.02,1.0,0,-0,0,0.07,0,,,,,,,,,,,,,,,,
39403,1616767532856,,,7,,,0.07,-0.02,1.0,0,-0,0,0.07,0,,,,,,,,,,,,,,,,
39443,1616767532895,,,8,,,0.07,-0.02,1.0,0,-0,0,0.07,0,45.845875,5.178944,0.0,747.5,7,2,1.8,0,0.0,-1,0.0,0.0,0.0,0,0.0,0.6574
39483,1616767532935,,,8,,,0.07,-0.02,1.0,0,-0,0,0.07,0,,,,,,,,,,,,,,,,
39523,1616767532975,,,7,,,0.07,-0.02,1.0,0,-0,-0,0.07,0,,,,,,,,,,,,,,,,
39563,1616767533011,,,7,,,0.07,-0.02,1.0,0,-0,-0,0.07,0,,,,,,,,,,,,,,,,
39603,1616767533051,,,7,,,0.07,-0.02,1.01,0,-0,-0,0.07,0,,,,,,,,,,,,,,,,
39643,1616767533097,,,8,,,0.07,-0.02,1.01,0,-0,0,0.07,0,45.845875,5.178944,0.0,747.5,7,2,1.8,0,0.0,-1,0.0,0.0,0.0,0,0.0,0.6607
39683,1616767533137,,,8,,,0.07,-0.02,1.01,0,-0,0,0.07,0,,,,,,,,,,,,,,,,
39723,1616767533177,,,8,,,0.07,-0.02,1.0,0,-0,0,0.07,0,,,,,,,,,,,,,,,,
39763,1616767533215,,,7,,,0.07,-0.02,1.0,0,-0,0,0.07,0,,,,,,,,,,,,,,,,
39803,1616767533255,,,7,,,0.07,-0.02,1.0,0,-0,0,0.07,0,,,,,,,,,,,,,,,,
39843,1616767533295,,,8,,,0.07,-0.02,1.0,0,-0,-0,0.07,0,45.845875,5.178944,0.0,747.5,7,2,1.8,0,0.0,-1,0.0,0.0,0.0,0,0.0,0.664
39883,1616767533335,,,8,,,0.07,-0.02,1.0,0,-0,-0,0.07,0,,,,,,,,,,,,,,,,
39923,1616767533375,,,8,,,0.07,-0.02,1.0,0,-0,-0,0.07,0,,,,,,,,,,,,,,,,
39963,1616767533415,,,7,,,0.07,-0.02,1.0,0,-0,-0,0.07,0,,,,,,,,,,,,,,,,
40003,1616767533455,,,8,,,0.07,-0.02,1.0,0,-0,0,0.07,0,,,,,,,,,,,,,,,,
40043,1616767533497,302,242,7,0.23,13.25,0.07,-0.02,1.0,0,-0,0,0.07,0,45.845875,5.178944,0.0,747.5,7,2,1.8,0,0.0,-1,0.0,0.0,0.0,0,0.0,0.6674
40083,1616767533537,,,8,,,0.07,-0.02,1.0,0,-0,0,0.07,0,,,,,,,,,,,,,,,,
40123,1616767533577,,,7,,,0.07,-0.02,1.0,0,-0,0,0.07,0,,,,,,,,,,,,,,,,
40163,1616767533617,,,8,,,0.07,-0.02,1.0,0,-0,-0,0.07,0,,,,,,,,,,,,,,,,
40203,1616767533657,,,8,,,0.07,-0.02,1.0,0,-0,-0,0.07,0,,,,,,,,,,,,,,,,
40243,1616767533697,,,8,,,0.07,-0.02,1.0,0,-0,0,0.07,0,45.845875,5.178944,0.0,747.5,7,2,1.8,0,0.0,-1,0.0,0.0,0.0,0,0.0,0.6707
40283,1616767533737,,,8,,,0.07,-0.02,1.0,-0,-0,-0,0.07,0,,,,,,,,,,,,,,,,
40323,1616767533777,,,8,,,0.07,-0.02,1.0,-0,-0,-0,0.07,0,,,,,,,,,,,,,,,,
40363,1616767533817,,,7,,,0.07,-0.02,1.0,0,-0,-0,0.07,0,,,,,,,,,,,,,,,,
40403,1616767533857,,,8,,,0.07,-0.02,1.0,0,-0,-0,0.07,0,,,,,,,,,,,,,,,,
40443,1616767533897,,,8,,,0.07,-0.02,1.0,0,-0,-0,0.07,0,45.845875,5.178944,0.0,747.5,7,2,1.8,0,0.0,-1,0.0,0.0,0.0,0,0.0,0.674
40483,1616767533937,,,8,,,0.07,-0.02,1.0,0,-0,-0,0.07,0,,,,,,,,,,,,,,,,
40523,1616767533977,,,8,,,0.07,-0.02,1.0,0,-0,-0,0.07,0,,,,,,,,,,,,,,,,
40563,1616767534010,,,8,,,0.07,-0.02,1.01,0,-0,-0,0.07,0,,,,,,,,,,,,,,,,
40603,1616767534050,,,8,,,0.07,-0.02,1.0,0,-0,-0,0.07,0,,,,,,,,,,,,,,,,
40643,1616767534096,,,8,,,0.07,-0.02,1.0,0,-0,-0,0.07,0,45.845875,5.178944,0.0,747.5,7,2,1.8,0,0.0,-1,0.0,0.0,0.0,0,0.0,0.6774
40683,1616767534136,,,8,,,0.07,-0.02,1.01,0,-0,-0,0.07,0,,,,,,,,,,,,,,,,
40723,1616767534176,,,7,,,0.07,-0.02,1.01,0,-0,-0,0.07,0,,,,,,,,,,,,,,,,
40763,1616767534216,,,8,,,0.07,-0.02,1.0,0,-0,-0,0.07,0,,,,,,,,,,,,,,,,
40803,1616767534256,,,8,,,0.07,-0.02,1.01,0,-0,-0,0.07,0,,,,,,,,,,,,,,,,
40843,1616767534296,,,8,,,0.07,-0.02,1.0,0,-0,-0,0.07,0,45.845875,5.178944,0.0,747.5,7,2,1.8,0,0.0,-1,0.0,0.0,0.0,0,0.0,0.6807
40883,1616767534336,,,8,,,0.07,-0.02,1.0,0,-0,-0,0.07,0,,,,,,,,,,,,,,,,
40923,1616767534376,,,8,,,0.07,-0.02,1.0,0,-0,-0,0.07,0,,,,,,,,,,,,,,,,
40963,1616767534416,,,8,,,0.07,-0.02,1.0,0,-0,-0,0.07,0,,,,,,,,,,,,,,,,
41003,1616767534456,,,8,,,0.07,-0.02,1.01,0,-0,-0,0.07,0,,,,,,,,,,,,,,,,
41043,1616767534496,302,243,7,0.23,13.23,0.07,-0.02,1.0,0,-0,-0,0.07,0,45.845875,5.178944,0.0,747.5,7,2,1.8,0,0.0,-1,0.0,0.0,0.0,0,0.0,0.684
41083,1616767534536,,,8,,,0.07,-0.02,1.0,0,-0,-0,0.07,0,,,,,,,,,,,,,,,,
41123,1616767534576,,,8,,,0.07,-0.02,1.0,0,-0,-0,0.07,0,,,,,,,,,,,,,,,,
41163,1616767534616,,,8,,,0.07,-0.02,1.01,0,-0,-0,0.07,0,,,,,,,,,,,,,,,,
41203,1616767534656,,,8,,,0.07,-0.02,1.01,0,-0,-0,0.07,0,,,,,,,,,,,,,,,,
41243,1616767534697,,,7,,,0.07,-0.02,1.01,0,-0,-0,0.07,0,45.845875,5.178944,0.0,747.5,7,2,1.8,0,0.0,-1,0.0,0.0,0.0,0,0.0,0.6874
41283,1616767534737,,,8,,,0.07,-0.02,1.01,0,-0,-0,0.07,0,,,,,,,,,,,,,,,,
41323,1616767534777,,,8,,,0.07,-0.02,1.0,0,-0,-0,0.07,0,,,,,,,,,,,,,,,,
41363,1616767534816,,,7,,,0.07,-0.02,1.0,0,-0,-0,0.07,0,,,,,,,,,,,,,,,,
41403,1616767534856,,,8,,,0.07,-0.02,1.0,0,-0,-0,0.07,0,,,,,,,,,,,,,,,,
41443,1616767534895,,,7,,,0.07,-0.02,1.0,0,-0,-0,0.07,0,45.845875,5.178944,0.0,747.5,7,2,1.8,0,0.0,-1,0.0,0.0,0.0,0,0.0,0.6907
41483,1616767534935,,,8,,,0.07,-0.02,1.0,0,-0,-0,0.07,0,,,,,,,,,,,,,,,,
41523,1616767534975,,,7,,,0.07,-0.02,1.0,0,-0,0,0.07,0,,,,,,,,,,,,,,,,
41563,1616767535011,,,8,,,0.07,-0.02,1.0,0,-0,0,0.07,0,,,,,,,,,,,,,,,,
41603,1616767535051,,,8,,,0.07,-0.02,1.0,0,-0,-0,0.07,0,,,,,,,,,,,,,,,,
41643,1616767535095,,,8,,,0.07,-0.02,1.01,0,-0,0,0.07,0,45.845875,5.178944,0.0,747.5,7,2,1.8,0,0.0,-1,0.0,0.0,0.0,0,0.0,0.694
41683,1616767535135,,,7,,,0.07,-0.02,1.01,0,-0,0,0.07,0,,,,,,,,,,,,,,,,
41723,1616767535175,,,7,,,0.07,-0.02,1.0,0,-0,0,0.07,0,,,,,,,,,,,,,,,,
41763,1616767535215,,,8,,,0.07,-0.02,1.01,0,-0,0,0.07,0,,,,,,,,,,,,,,,,
41803,1616767535255,,,8,,,0.07,-0.02,1.0,0,-0,0,0.07,0,,,,,,,,,,,,,,,,
41843,1616767535297,,,7,,,0.07,-0.02,1.0,0,-0,0,0.07,0,45.845875,5.178944,0.0,747.5,7,2,1.8,0,0.0,-1,0.0,0.0,0.0,0,0.0,0.6974
41883,1616767535337,,,7,,,0.07,-0.02,1.0,0,-0,0,0.07,0,,,,,,,,,,,,,,,,
41923,1616767535377,,,7,,,0.07,-0.02,1.01,0,-0,0,0.07,0,,,,,,,,,,,,,,,,
41963,1616767535415,,,8,,,0.07,-0.02,1.0,0,-0,0,0.07,0,,,,,,,,,,,,,,,,
42003,1616767535455,,,8,,,0.07,-0.02,1.0,0,-0,0,0.07,0,,,,,,,,,,,,,,,,
42043,1616767535497,302,242,8,0.24,13.25,0.07,-0.02,1.0,0,-0,0,0.07,0,45.845875,5.178944,0.0,747.5,7,2,1.8,0,0.0,-1,0.0,0.0,0.0,0,0.0,0.7007
42083,1616767535537,,,8,,,0.07,-0.02,1.0,0,-0,0,0.07,0,,,,,,,,,,,,,,,,
42123,1616767535577,,,8,,,0.07,-0.02,1.0,0,-0,0,0.07,0,,,,,,,,,,,,,,,,
42163,1616767535615,,,7,,,0.07,-0.02,1.0,0,-0,0,0.07,0,,,,,,,,,,,,,,,,
42203,1616767535655,,,8,,,0.07,-0.02,1.0,0,-0,0,0.07,0,,,,,,,,,,,,,,,,
42243,1616767535695,,,8,,,0.07,-0.02,1.0,0,-0,0,0.07,0,45.845875,5.178944,0.0,747.5,7,2,1.8,0,0.0,-1,0.0,0.0,0.0,0,0.0,0.704
42283,1616767535735,,,8,,,0.07,-0.02,1.0,0,-0,-0,0.07,0,,,,,,,,,,,,,,,,
42323,1616767535775,,,7,,,0.07,-0.02,1.0,0,-0,-0,0.07,0,,,,,,,,,,,,,,,,
42363,1616767535817,,,8,,,0.07,-0.02,1.0,0,-0,-0,0.07,0,,,,,,,,,,,,,,,,
42403,1616767535857,,,7,,,0.07,-0.02,1.0,0,-0,-0,0.07,0,,,,,,,,,,,,,,,,
42443,1616767535896,,,8,,,0.07,-0.02,1.0,0,-0,-0,0.07,0,45.845875,5.178944,0.0,747.5,7,2,1.8,0,0.0,-1,0.0,0.0,0.0,0,0.0,0.7074
42483,1616767535936,,,7,,,0.07,-0.02,1.0,0,-0,-0,0.07,0,,,,,,,,,,,,,,,,
42523,1616767535976,,,7,,,0.07,-0.02,1.0,0,-0,0,0.07,0,,,,,,,,,,,,,,,,
42563,1616767536010,,,8,,,0.07,-0.02,1.0,0,-0,0,0.07,0,,,,,,,,,,,,,,,,
42603,1616767536050,,,8,,,0.07,-0.02,1.0,0,-0,0,0.07,0,,,,,,,,,,,,,,,,
42643,1616767536096,,,8,,,0.07,-0.02,1.0,0,-0,-0,0.07,0,45.845875,5.178944,0.0,747.5,7,2,1.8,0,0.0,-1,0.0,0.0,0.0,0,0.0,0.7107
42683,1616767536136,,,8,,,0.07,-0.02,1.0,0,-0,0,0.07,0,,,,,,,,,,,,,,,,
42723,1616767536176,,,7,,,0.07,-0.02,1.0,0,-0,-0,0.07,0,,,,,,,,,,,,,,,,
42763,1616767536216,,,8,,,0.07,-0.02,1.0,0,-0,-0,0.07,0,,,,,,,,,,,,,,,,
42803,1616767536256,,,7,,,0.07,-0.02,1.0,0,-0,-0,0.07,0,,,,,,,,,,,,,,,,
42843,1616767536297,,,8,,,0.07,-0.02,1.0,0,-0,0,0.07,0,45.845875,5.178944,0.0,747.5,7,2,1.8,0,0.0,-1,0.0,0.0,0.0,0,0.0,0.714
42883,1616767536337,,,8,,,0.07,-0.02,1.0,0,-0,0,0.07,0,,,,,,,,,,,,,,,,
42923,1616767536377,,,8,,,0.07,-0.02,1.0,0,-0,-0,0.07,0,,,,,,,,,,,,,,,,
42963,1616767536416,,,8,,,0.07,-0.02,1.0,0,-0,-0,0.07,0,,,,,,,,,,,,,,,,
43003,1616767536456,,,8,,,0.07,-0.02,1.0,0,-0,-0,0.07,0,,,,,,,,,,,,,,,,
43043,1616767536496,302,242,7,0.22,13.25,0.07,-0.02,1.0,0,-0,-0,0.07,0,45.845875,5.178944,0.0,747.5,7,2,1.8,0,0.0,-1,0.0,0.0,0.0,0,0.0,0.7174
43083,1616767536536,,,7,,,0.07,-0.02,1.0,0,-0,-0,0.07,0,,,,,,,,,,,,,,,,
43123,1616767536576,,,7,,,0.07,-0.02,1.0,0,-0,-0,0.07,0,,,,,,,,,,,,,,,,
43163,1616767536616,,,8,,,0.07,-0.02,1.01,0,-0,-0,0.07,0,,,,,,,,,,,,,,,,
43203,1616767536656,,,8,,,0.07,-0.02,1.01,0,-0,-0,0.07,0,,,,,,,,,,,,,,,,
43243,1616767536696,,,8,,,0.07,-0.02,1.0,0,-0,-0,0.07,0,45.845875,5.178944,0.0,747.5,7,2,1.8,0,0.0,-1,0.0,0.0,0.0,0,0.0,0.7207
43283,1616767536736,,,8,,,0.07,-0.02,1.01,0,-0,-0,0.07,0,,,,,,,,,,,,,,,,
43323,1616767536776,,,7,,,0.07,-0.02,1.01,0,-0,-0,0.07,0,,,,,,,,,,,,,,,,
43363,1616767536816,,,7,,,0.07,-0.02,1.0,0,-0,-0,0.07,0,,,,,,,,,,,,,,,,
43403,1616767536856,,,8,,,0.07,-0.02,1.01,0,-0,-0,0.07,0,,,,,,,,,,,,,,,,
43443,1616767536895,,,8,,,0.07,-0.02,1.01,0,-0,-0,0.07,0,45.845875,5.178944,0.0,747.5,7,2,1.8,0,0.0,-1,0.0,0.0,0.0,0,0.0,0.724
43483,1616767536935,,,8,,,0.07,-0.02,1.01,0,-0,-0,0.07,0,,,,,,,,,,,,,,,,
43523,1616767536975,,,8,,,0.07,-0.02,1.0,0,-0,-0,0.07,0,,,,,,,,,,,,,,,,
43563,1616767537011,,,8,,,0.07,-0.02,1.0,0,-0,-0,0.07,0,,,,,,,,,,,,,,,,
43603,1616767537051,,,8,,,0.07,-0.02,1.0,0,-0,0,0.07,0,,,,,,,,,,,,,,,,
43643,1616767537097,,,8,,,0.07,-0.02,1.0,0,-0,0,0.07,0,45.845875,5.178944,0.0,747.5,7,2,1.8,0,0.0,-1,0.0,0.0,0.0,0,0.0,0.7274
43683,1616767537137,,,8,,,0.07,-0.02,1.0,0,-0,0,0.07,0,,,,,,,,,,,,,,,,
43723,1616767537177,,,8,,,0.07,-0.02,1.0,0,-0,0,0.07,0,,,,,,,,,,,,,,,,
43763,1616767537215,,,8,,,0.07,-0.02,1.0,0,-0,0,0.07,0,,,,,,,,,,,,,,,,
43803,1616767537255,,,8,,,0.07,-0.02,1.0,0,-0,-0,0.07,0,,,,,,,,,,,,,,,,
43843,1616767537297,,,8,,,0.07,-0.02,1.01,0,-0,-0,0.07,0,45.845875,5.178944,0.0,747.5,7,2,1.8,0,0.0,-1,0.0,0.0,0.0,0,0.0,0.7307
43883,1616767537337,,,8,,,0.07,-0.02,1.0,0,-0,0,0.07,0,,,,,,,,,,,,,,,,
43923,1616767537377,,,7,,,0.07,-0.02,1.0,0,-0,0,0.07,0,,,,,,,,,,,,,,,,
43963,1616767537415,,,7,,,0.07,-0.02,1.0,0,-0,0,0.07,0,,,,,,,,,,,,,,,,
44003,1616767537455,,,8,,,0.07,-0.02,1.0,0,-0,0,0.07,0,,,,,,,,,,,,,,,,
44043,1616767537495,302,242,8,0.23,13.26,0.07,-0.02,1.0,0,-0,-0,0.07,0,45.845875,5.178944,0.0,747.5,7,2,1.8,0,0.0,-1,0.0,0.0,0.0,0,0.0,0.734
