"Interval"|"ms"|0|0|1,"Utc"|"ms"|0|0|1,"EngineTemp"|"F"|0|300|1,"OilTemp"|"F"|0|300|1,"OilPress"|"PSI"|0|150|25,"Battery"|"Volts"|0.0|20.0|1,"Battery"|"Volts"|0.0|20.0|1,"AccelX"|"G"|-3.0|3.0|25,"AccelY"|"G"|-3.0|3.0|25,"AccelZ"|"G"|-3.0|3.0|25,"Yaw"|"Deg/Sec"|-120|120|25,"Pitch"|"Deg/Sec"|-120|120|25,"Roll"|"Deg/Sec"|-120|120|25,"Gsum"|"G"|0.0|3.0|25,"RPM"|""|0|10000|25,"Latitude"|"Degrees"|-180.0|180.0|10,"Longitude"|"Degrees"|-180.0|180.0|10,"Speed"|"mph"|0.0|150.0|10,"Altitude"|"ft"|0.0|4000.0|10,"GPSSats"|""|0|20|10,"GPSQual"|""|0|5|10,"GPSDOP"|""|0.0|20.0|10,"LapCount"|""|0|0|10,"LapTime"|"Min"|0.0|0.0|10,"Sector"|""|0|0|10,"SectorTime"|"Min"|0.0|0.0|10,"PredTime"|"Min"|0.0|0.0|5,"ElapsedTime"|"Min"|0.0|0.0|10,"CurrentLap"|""|0|0|10,"Distance"|"mi"|0.0|0.0|10,"SessionTime"|"Min"|0.0|0.0|10
2883,0,,,5,,,0.07,-0.01,1.0,-0,-1,0,0.07,0,,,,,,,,,,,,,,,,
2923,0,,,5,,,0.07,-0.01,1.01,-0,-0,0,0.07,0,,,,,,,,,,,,,,,,
2963,0,,,5,,,0.07,-0.01,1.01,-0,-0,0,0.07,0,,,,,,,,,,,,,,,,
3003,0,,,5,,,0.07,-0.01,1.0,-0,-0,0,0.07,0,,,,,,,,,,,,,,,,
3043,0,302,251,5,0.21,13.08,0.07,-0.01,1.0,-0,-0,-0,0.07,0,0.0,0.0,0.0,0.0,0,0,0.0,0,0.0,-1,0.0,0.0,0.0,0,0.0,0.0507
3083,0,,,5,,,0.07,-0.01,1.0,-0,0,-0,0.07,0,,,,,,,,,,,,,,,,
3123,0,,,5,,,0.07,-0.01,1.0,-0,0,0,0.07,0,,,,,,,,,,,,,,,,
3163,0,,,4,,,0.07,-0.01,1.0,-0,0,-0,0.07,0,,,,,,,,,,,,,,,,
3203,0,,,5,,,0.07,-0.01,1.0,-0,0,-0,0.07,0,,,,,,,,,,,,,,,,
3243,0,,,5,,,0.07,-0.01,1.0,-0,0,-0,0.07,0,0.0,0.0,0.0,0.0,0,0,0.0,0,0.0,-1,0.0,0.0,0.0,0,0.0,0.054
3283,0,,,5,,,0.07,-0.01,1.0,-0,-0,-0,0.07,0,,,,,,,,,,,,,,,,
3323,0,,,5,,,0.07,-0.01,1.0,-0,-0,-0,0.07,0,,,,,,,,,,,,,,,,
3363,0,,,5,,,0.07,-0.01,1.0,-0,-0,-0,0.07,0,,,,,,,,,,,,,,,,
3403,0,,,5,,,0.07,-0.01,1.0,-0,-0,-0,0.07,0,,,,,,,,,,,,,,,,
3443,0,,,6,,,0.07,-0.01,1.0,-0,-0,-0,0.07,0,0.0,0.0,0.0,0.0,0,0,0.0,0,0.0,-1,0.0,0.0,0.0,0,0.0,0.0574
3483,0,,,5,,,0.07,-0.01,1.0,-0,-0,-0,0.07,0,,,,,,,,,,,,,,,,
3523,0,,,6,,,0.07,-0.01,1.0,-0,-0,-0,0.07,0,,,,,,,,,,,,,,,,
3563,0,,,6,,,0.07,-0.01,1.0,-0,-0,-0,0.07,0,,,,,,,,,,,,,,,,
3603,0,,,6,,,0.07,-0.01,1.0,-0,-0,-0,0.07,0,,,,,,,,,,,,,,,,
3643,0,,,7,,,0.07,-0.01,1.0,-0,-0,-0,0.07,0,0.0,0.0,0.0,0.0,0,0,0.0,0,0.0,-1,0.0,0.0,0.0,0,0.0,0.0607
3683,0,,,7,,,0.07,-0.01,1.0,-0,-0,-0,0.07,0,,,,,,,,,,,,,,,,
3723,0,,,7,,,0.07,-0.01,1.0,-0,-0,-0,0.07,0,,,,,,,,,,,,,,,,
3763,0,,,6,,,0.07,-0.01,1.0,-0,-0,-0,0.07,0,,,,,,,,,,,,,,,,
3803,0,,,7,,,0.07,-0.01,1.0,-0,-0,-0,0.07,0,,,,,,,,,,,,,,,,
3843,0,,,7,,,0.07,-0.01,1.0,-0,-0,-0,0.07,0,0.0,0.0,0.0,0.0,0,0,0.0,0,0.0,-1,0.0,0.0,0.0,0,0.0,0.064
3883,0,,,8,,,0.07,-0.01,1.0,-0,-0,-0,0.07,0,,,,,,,,,,,,,,,,
3923,0,,,7,,,0.07,-0.01,1.0,-0,-0,-0,0.07,0,,,,,,,,,,,,,,,,
3963,0,,,8,,,0.07,-0.01,1.0,-0,-0,-0,0.07,0,,,,,,,,,,,,,,,,
4003,0,,,7,,,0.07,-0.01,1.0,-0,-0,-0,0.07,0,,,,,,,,,,,,,,,,
4043,0,302,249,7,0.21,13.32,0.07,-0.01,1.0,-0,-0,0,0.07,0,0.0,0.0,0.0,0.0,0,0,0.0,0,0.0,-1,0.0,0.0,0.0,0,0.0,0.0674
4083,0,,,7,,,0.07,-0.01,1.0,-0,-0,0,0.07,0,,,,,,,,,,,,,,,,
4123,0,,,7,,,0.07,-0.01,1.0,-0,-0,-0,0.07,0,,,,,,,,,,,,,,,,
4163,0,,,6,,,0.07,-0.01,1.0,-0,-0,0,0.07,0,,,,,,,,,,,,,,,,
4203,0,,,7,,,0.07,-0.01,1.0,-0,-0,0,0.07,0,,,,,,,,,,,,,,,,
4243,0,,,7,,,0.07,-0.01,1.0,-0,-0,0,0.07,0,0.0,0.0,0.0,0.0,0,0,0.0,0,0.0,-1,0.0,0.0,0.0,0,0.0,0.0707
4283,0,,,7,,,0.07,-0.01,1.0,-0,-0,0,0.07,0,,,,,,,,,,,,,,,,
4323,0,,,7,,,0.07,-0.01,1.0,-0,-0,0,0.07,0,,,,,,,,,,,,,,,,
4363,0,,,7,,,0.07,-0.01,1.0,-0,-0,0,0.07,0,,,,,,,,,,,,,,,,
4403,0,,,6,,,0.07,-0.01,1.01,-0,-0,0,0.07,0,,,,,,,,,,,,,,,,
4443,0,,,7,,,0.07,-0.01,1.0,-0,-0,0,0.07,0,0.0,0.0,0.0,0.0,0,0,0.0,0,0.0,-1,0.0,0.0,0.0,0,0.0,0.074
4483,0,,,8,,,0.07,-0.01,1.0,-0,-0,-0,0.07,0,,,,,,,,,,,,,,,,
4523,0,,,8,,,0.07,-0.01,1.01,-0,-0,0,0.07,0,,,,,,,,,,,,,,,,
4563,0,,,7,,,0.07,-0.01,1.01,-0,-0,-0,0.07,0,,,,,,,,,,,,,,,,
4603,0,,,7,,,0.07,-0.01,1.01,-0,-0,-0,0.07,0,,,,,,,,,,,,,,,,
4643,0,,,7,,,0.07,-0.01,1.0,-0,-0,0,0.07,0,0.0,0.0,0.0,0.0,0,0,0.0,0,0.0,-1,0.0,0.0,0.0,0,0.0,0.0774
4683,0,,,8,,,0.07,-0.01,1.0,-0,-0,0,0.07,0,,,,,,,,,,,,,,,,
4723,0,,,8,,,0.07,-0.01,1.0,-0,-0,0,0.07,0,,,,,,,,,,,,,,,,
4763,0,,,7,,,0.07,-0.01,1.0,-0,-0,-0,0.07,0,,,,,,,,,,,,,,,,
4803,0,,,6,,,0.07,-0.01,1.0,-0,-0,-0,0.07,0,,,,,,,,,,,,,,,,
4843,0,,,7,,,0.07,-0.01,1.0,-0,-0,0,0.07,0,0.0,0.0,0.0,0.0,0,0,0.0,0,0.0,-1,0.0,0.0,0.0,0,0.0,0.0807
4883,0,,,6,,,0.07,-0.01,1.01,-0,-0,-0,0.07,0,,,,,,,,,,,,,,,,
4923,0,,,7,,,0.07,-0.01,1.01,-0,-0,-0,0.07,0,,,,,,,,,,,,,,,,
4963,0,,,7,,,0.07,-0.01,1.01,-0,-0,0,0.07,0,,,,,,,,,,,,,,,,
5003,0,,,7,,,0.07,-0.01,1.01,-0,-0,0,0.07,0,,,,,,,,,,,,,,,,
5043,0,302,259,8,0.21,13.34,0.07,-0.01,1.01,-0,-0,0,0.07,0,0.0,0.0,0.0,0.0,0,0,0.0,0,0.0,-1,0.0,0.0,0.0,0,0.0,0.084
5083,0,,,8,,,0.07,-0.01,1.01,-0,-0,-0,0.07,0,,,,,,,,,,,,,,,,
5123,0,,,7,,,0.07,-0.01,1.01,-0,-0,-0,0.07,0,,,,,,,,,,,,,,,,
5163,0,,,8,,,0.07,-0.01,1.01,-0,-0,0,0.07,0,,,,,,,,,,,,,,,,
5203,0,,,8,,,0.07,-0.01,1.01,-0,-0,-0,0.07,0,,,,,,,,,,,,,,,,
5243,0,,,7,,,0.07,-0.01,1.01,-0,-0,-0,0.07,0,0.0,0.0,0.0,0.0,0,0,0.0,0,0.0,-1,0.0,0.0,0.0,0,0.0,0.0874
5283,0,,,8,,,0.07,-0.01,1.01,-0,-0,-0,0.07,0,,,,,,,,,,,,,,,,
5323,0,,,8,,,0.07,-0.01,1.01,-0,-0,-0,0.07,0,,,,,,,,,,,,,,,,
5363,0,,,6,,,0.07,-0.01,1.01,-0,-0,-0,0.07,0,,,,,,,,,,,,,,,,
5403,0,,,8,,,0.07,-0.01,1.01,-0,-0,0,0.07,0,,,,,,,,,,,,,,,,
5443,0,,,7,,,0.07,-0.01,1.0,-0,-0,-0,0.07,0,0.0,0.0,0.0,0.0,0,0,0.0,0,0.0,-1,0.0,0.0,0.0,0,0.0,0.0907
5483,0,,,7,,,0.07,-0.01,1.0,-0,-0,0,0.07,0,,,,,,,,,,,,,,,,
5523,0,,,6,,,0.07,-0.01,1.0,-0,-0,0,0.07,0,,,,,,,,,,,,,,,,
5563,0,,,8,,,0.07,-0.01,1.0,-0,-0,0,0.07,0,,,,,,,,,,,,,,,,
5603,0,,,6,,,0.07,-0.01,1.0,-0,-0,0,0.07,0,,,,,,,,,,,,,,,,
5643,0,,,7,,,0.07,-0.01,1.0,-0,-0,-0,0.07,0,0.0,0.0,0.0,0.0,0,0,0.0,0,0.0,-1,0.0,0.0,0.0,0,0.0,0.094
5683,0,,,7,,,0.07,-0.01,1.0,-0,-0,-0,0.07,0,,,,,,,,,,,,,,,,
5723,0,,,8,,,0.07,-0.01,1.0,-0,-0,0,0.07,0,,,,,,,,,,,,,,,,
5763,0,,,8,,,0.07,-0.01,1.0,-0,-0,0,0.07,0,,,,,,,,,,,,,,,,
5803,0,,,7,,,0.07,-0.01,1.0,-0,-0,0,0.07,0,,,,,,,,,,,,,,,,
5843,0,,,8,,,0.07,-0.01,1.0,-0,-0,0,0.07,0,0.0,0.0,0.0,0.0,0,0,0.0,0,0.0,-1,0.0,0.0,0.0,0,0.0,0.0974
5883,0,,,8,,,0.07,-0.01,1.0,-0,-0,0,0.07,0,,,,,,,,,,,,,,,,
5923,0,,,8,,,0.07,-0.01,1.0,-0,-0,0,0.07,0,,,,,,,,,,,,,,,,
5963,0,,,8,,,0.07,-0.01,1.0,-0,-0,-0,0.07,0,,,,,,,,,,,,,,,,
6003,0,,,7,,,0.07,-0.01,1.04,-0,0,-0,0.07,0,,,,,,,,,,,,,,,,
6043,0,302,261,7,0.21,13.34,0.08,-0.01,1.04,-0,0,-0,0.08,0,0.0,0.0,0.0,0.0,0,0,0.0,0,0.0,-1,0.0,0.0,0.0,0,0.0,0.1007
6083,0,,,8,,,0.08,-0.01,1.03,-0,-0,-0,0.08,0,,,,,,,,,,,,,,,,
6123,0,,,8,,,0.07,-0.01,1.03,-0,-0,-0,0.08,0,,,,,,,,,,,,,,,,
6163,0,,,7,,,0.07,-0.01,1.02,-0,-0,-0,0.07,0,,,,,,,,,,,,,,,,
6203,0,,,8,,,0.07,-0.01,1.01,-0,-0,-0,0.07,0,,,,,,,,,,,,,,,,
6243,0,,,8,,,0.07,-0.01,1.02,-0,-0,0,0.07,0,0.0,0.0,0.0,0.0,0,0,0.0,0,0.0,-1,0.0,0.0,0.0,0,0.0,0.104
6283,0,,,7,,,0.07,-0.01,1.02,-0,-0,0,0.07,0,,,,,,,,,,,,,,,,
6323,0,,,8,,,0.07,-0.01,1.03,-0,-0,0,0.07,0,,,,,,,,,,,,,,,,
6363,0,,,8,,,0.07,-0.01,1.02,-0,-0,0,0.07,0,,,,,,,,,,,,,,,,
6403,0,,,8,,,0.07,-0.01,1.02,-0,-0,0,0.07,0,,,,,,,,,,,,,,,,
6443,0,,,8,,,0.07,-0.01,1.02,-0,-0,0,0.07,0,0.0,0.0,0.0,0.0,0,0,0.0,0,0.0,-1,0.0,0.0,0.0,0,0.0,0.1074
6483,0,,,8,,,0.07,-0.01,1.01,-0,-0,0,0.07,0,,,,,,,,,,,,,,,,
6523,0,,,7,,,0.07,-0.01,1.01,-0,-0,0,0.07,0,,,,,,,,,,,,,,,,
6563,0,,,7,,,0.07,-0.01,1.0,-0,-0,0,0.07,0,,,,,,,,,,,,,,,,
6603,0,,,8,,,0.08,-0.01,1.01,-0,-0,0,0.08,0,,,,,,,,,,,,,,,,
6643,0,,,7,,,0.08,-0.01,1.01,-0,-0,0,0.08,0,0.0,0.0,0.0,0.0,0,0,0.0,0,0.0,-1,0.0,0.0,0.0,0,0.0,0.1107
6683,0,,,7,,,0.08,-0.01,0.99,-0,-0,0,0.08,0,,,,,,,,,,,,,,,,
6723,0,,,8,,,0.08,-0.01,0.98,-0,-0,0,0.08,0,,,,,,,,,,,,,,,,
6763,0,,,7,,,0.07,-0.0,0.99,-0,-1,0,0.07,0,,,,,,,,,,,,,,,,
6803,0,,,7,,,0.07,-0.01,1.0,-0,-0,-0,0.07,0,,,,,,,,,,,,,,,,
6843,0,,,8,,,0.08,-0.01,0.99,-0,0,-0,0.08,0,0.0,0.0,0.0,0.0,0,0,0.0,0,0.0,-1,0.0,0.0,0.0,0,0.0,0.114
6883,0,,,7,,,0.07,-0.01,0.99,-0,0,-0,0.07,0,,,,,,,,,,,,,,,,
6923,0,,,7,,,0.07,-0.01,0.99,-0,0,-0,0.07,0,,,,,,,,,,,,,,,,
6963,0,,,8,,,0.06,-0.01,0.98,-0,0,-0,0.06,0,,,,,,,,,,,,,,,,
7003,0,,,7,,,0.06,-0.01,0.98,-0,0,-0,0.06,0,,,,,,,,,,,,,,,,
7043,0,302,257,7,0.21,13.34,0.07,-0.01,0.99,-0,0,-0,0.07,0,0.0,0.0,0.0,0.0,0,0,0.0,0,0.0,-1,0.0,0.0,0.0,0,0.0,0.1174
7083,0,,,8,,,0.07,-0.01,0.99,-0,-0,-0,0.07,0,,,,,,,,,,,,,,,,
7123,0,,,8,,,0.07,-0.01,0.99,-0,-0,-0,0.07,0,,,,,,,,,,,,,,,,
7163,0,,,8,,,0.08,-0.01,0.99,-0,-0,-0,0.08,0,,,,,,,,,,,,,,,,
7203,0,,,7,,,0.08,-0.01,0.99,-0,-0,-0,0.08,0,,,,,,,,,,,,,,,,
7243,0,,,8,,,0.08,-0.02,0.98,-0,-0,0,0.08,0,0.0,0.0,0.0,0.0,0,0,0.0,0,0.0,-1,0.0,0.0,0.0,0,0.0,0.1207
7283,0,,,8,,,0.09,-0.02,0.98,-0,0,0,0.09,0,,,,,,,,,,,,,,,,
7323,0,,,7,,,0.08,-0.02,1.0,-0,0,0,0.08,0,,,,,,,,,,,,,,,,
7363,0,,,7,,,0.06,-0.02,1.02,-0,-0,0,0.07,0,,,,,,,,,,,,,,,,
7403,0,,,8,,,0.06,-0.02,1.02,-0,-0,0,0.07,0,,,,,,,,,,,,,,,,
7443,0,,,8,,,0.07,-0.01,1.04,-0,-0,-0,0.07,0,0.0,0.0,0.0,0.0,0,0,0.0,0,0.0,-1,0.0,0.0,0.0,0,0.0,0.124
7483,0,,,7,,,0.08,-0.01,1.04,-0,-1,0,0.08,0,,,,,,,,,,,,,,,,
7523,0,,,7,,,0.08,-0.01,1.03,-0,-1,0,0.08,0,,,,,,,,,,,,,,,,
7563,0,,,7,,,0.08,-0.01,1.03,-0,-1,0,0.08,0,,,,,,,,,,,,,,,,
7603,0,,,8,,,0.07,-0.01,1.02,-0,-1,0,0.07,0,,,,,,,,,,,,,,,,
7643,0,,,7,,,0.06,-0.01,1.04,-0,-1,0,0.06,0,0.0,0.0,0.0,0.0,0,0,0.0,0,0.0,-1,0.0,0.0,0.0,0,0.0,0.1274
7683,0,,,7,,,0.07,-0.01,1.07,-0,-1,0,0.07,0,,,,,,,,,,,,,,,,
7723,0,,,8,,,0.07,-0.0,1.05,-0,-1,0,0.07,0,,,,,,,,,,,,,,,,
7763,0,,,8,,,0.08,-0.01,1.05,-0,-0,0,0.08,0,,,,,,,,,,,,,,,,
7803,0,,,7,,,0.07,-0.0,1.04,-0,-0,0,0.07,0,,,,,,,,,,,,,,,,
7843,0,,,8,,,0.07,-0.01,1.04,-0,-0,0,0.07,0,0.0,0.0,0.0,0.0,0,0,0.0,0,0.0,-1,0.0,0.0,0.0,0,0.0,0.1307
7883,0,,,8,,,0.07,-0.01,1.03,-0,-0,0,0.07,0,,,,,,,,,,,,,,,,
7923,0,,,8,,,0.06,-0.01,1.03,-0,-1,0,0.06,0,,,,,,,,,,,,,,,,
7963,0,,,7,,,0.06,-0.01,1.03,-0,-1,0,0.06,0,,,,,,,,,,,,,,,,
8003,0,,,7,,,0.06,-0.01,1.03,-0,-0,0,0.06,0,,,,,,,,,,,,,,,,
8043,0,302,256,7,0.22,13.32,0.06,-0.01,1.02,-0,-0,0,0.06,0,0.0,0.0,0.0,0.0,0,0,0.0,0,0.0,-1,0.0,0.0,0.0,0,0.0,0.134
8083,0,,,7,,,0.06,-0.01,1.02,-0,-0,0,0.06,0,,,,,,,,,,,,,,,,
8123,0,,,8,,,0.05,-0.01,1.0,-0,-0,0,0.05,0,,,,,,,,,,,,,,,,
8163,0,,,7,,,0.05,-0.01,1.01,-0,-0,0,0.05,0,,,,,,,,,,,,,,,,
8203,0,,,7,,,0.04,-0.01,1.0,-0,-0,-0,0.05,0,,,,,,,,,,,,,,,,
8243,0,,,7,,,0.05,-0.01,1.0,-0,-0,-0,0.05,0,0.0,0.0,0.0,0.0,0,0,0.0,0,0.0,-1,0.0,0.0,0.0,0,0.0,0.1374
8283,0,,,6,,,0.05,-0.01,1.0,-0,-0,-0,0.05,0,,,,,,,,,,,,,,,,
8323,0,,,5,,,0.06,-0.01,1.0,-0,-0,-0,0.06,0,,,,,,,,,,,,,,,,
8363,0,,,6,,,0.06,-0.01,1.0,-0,-0,-0,0.06,0,,,,,,,,,,,,,,,,
8403,0,,,7,,,0.07,-0.01,1.01,-0,-0,-0,0.07,0,,,,,,,,,,,,,,,,
8443,0,,,7,,,0.07,-0.01,1.01,-0,-0,-0,0.07,0,0.0,0.0,0.0,0.0,0,0,0.0,0,0.0,-1,0.0,0.0,0.0,0,0.0,0.1407
8483,0,,,7,,,0.07,-0.0,1.0,-0,-0,-0,0.07,0,,,,,,,,,,,,,,,,
8523,0,,,6,,,0.08,-0.0,1.0,-0,-0,-0,0.08,0,,,,,,,,,,,,,,,,
8563,0,,,7,,,0.08,-0.01,1.01,-0,-0,-0,0.08,0,,,,,,,,,,,,,,,,
8603,0,,,7,,,0.08,-0.0,1.02,-0,-0,0,0.08,0,,,,,,,,,,,,,,,,
8643,0,,,7,,,0.07,-0.01,1.01,-0,-1,0,0.07,0,0.0,0.0,0.0,0.0,0,0,0.0,0,0.0,-1,0.0,0.0,0.0,0,0.0,0.144
8683,0,,,7,,,0.07,-0.01,0.99,-0,-1,0,0.07,0,,,,,,,,,,,,,,,,
8723,0,,,7,,,0.09,-0.01,1.0,-0,-1,-0,0.09,0,,,,,,,,,,,,,,,,
8763,0,,,8,,,0.1,-0.0,1.02,-0,-0,-0,0.1,0,,,,,,,,,,,,,,,,
8803,0,,,8,,,0.09,-0.0,1.01,-0,-0,-0,0.09,0,,,,,,,,,,,,,,,,
8843,0,,,8,,,0.08,-0.01,1.01,-0,-0,-0,0.08,0,0.0,0.0,0.0,0.0,0,0,0.0,0,0.0,-1,0.0,0.0,0.0,0,0.0,0.1474
8883,0,,,8,,,0.07,-0.01,1.0,-0,-0,-0,0.07,0,,,,,,,,,,,,,,,,
8923,0,,,8,,,0.07,-0.0,1.0,-0,-0,-0,0.07,0,,,,,,,,,,,,,,,,
8963,0,,,8,,,0.07,-0.0,0.98,-0,-0,-0,0.07,0,,,,,,,,,,,,,,,,
9003,0,,,9,,,0.07,-0.0,1.01,-0,-0,-0,0.07,0,,,,,,,,,,,,,,,,
9043,0,302,257,9,0.21,13.32,0.06,-0.0,1.0,-0,-1,-0,0.06,0,0.0,0.0,0.0,0.0,0,0,0.0,0,0.0,-1,0.0,0.0,0.0,0,0.0,0.1507
9083,0,,,7,,,0.06,-0.0,1.0,-0,-1,-0,0.06,0,,,,,,,,,,,,,,,,
9123,0,,,8,,,0.06,-0.01,1.0,-0,-1,0,0.06,0,,,,,,,,,,,,,,,,
9163,0,,,8,,,0.04,-0.02,1.0,-0,-1,0,0.04,0,,,,,,,,,,,,,,,,
9203,0,,,7,,,0.04,-0.01,1.0,-0,-1,0,0.04,0,,,,,,,,,,,,,,,,
9243,0,,,8,,,0.04,-0.01,1.02,-0,-1,0,0.04,0,0.0,0.0,0.0,0.0,0,0,0.0,0,0.0,-1,0.0,0.0,0.0,0,0.0,0.154
9283,0,,,8,,,0.04,-0.01,1.01,-0,-1,-0,0.04,0,,,,,,,,,,,,,,,,
9323,0,,,8,,,0.04,-0.01,1.02,-0,-0,-0,0.05,0,,,,,,,,,,,,,,,,
9363,0,,,8,,,0.05,-0.01,1.02,-0,-0,-0,0.05,0,,,,,,,,,,,,,,,,
9403,0,,,8,,,0.05,-0.01,1.02,-0,-0,-0,0.05,0,,,,,,,,,,,,,,,,
9443,0,,,7,,,0.06,-0.01,1.02,-0,-0,0,0.06,0,0.0,0.0,0.0,0.0,0,0,0.0,0,0.0,-1,0.0,0.0,0.0,0,0.0,0.1574
9483,0,,,7,,,0.06,-0.01,1.02,-0,-0,0,0.06,0,,,,,,,,,,,,,,,,
9523,0,,,7,,,0.07,-0.01,1.01,-0,-0,0,0.07,0,,,,,,,,,,,,,,,,
9563,0,,,7,,,0.07,-0.01,1.01,-0,-0,0,0.07,0,,,,,,,,,,,,,,,,
9603,0,,,8,,,0.07,-0.01,1.01,-0,-0,0,0.07,0,,,,,,,,,,,,,,,,
9643,0,,,7,,,0.07,-0.01,1.01,-0,-0,0,0.07,0,0.0,0.0,0.0,0.0,0,0,0.0,0,0.0,-1,0.0,0.0,0.0,0,0.0,0.1607
9683,0,,,8,,,0.07,-0.01,1.01,-0,-0,0,0.07,0,,,,,,,,,,,,,,,,
9723,0,,,8,,,0.07,-0.0,1.01,-0,-0,0,0.07,0,,,,,,,,,,,,,,,,
9763,0,,,7,,,0.07,-0.0,1.0,-0,-0,0,0.07,0,,,,,,,,,,,,,,,,
9803,0,,,8,,,0.07,-0.0,1.01,-0,-0,0,0.07,0,,,,,,,,,,,,,,,,
9843,0,,,7,,,0.07,-0.0,1.0,-0,-0,0,0.07,0,0.0,0.0,0.0,0.0,0,0,0.0,0,0.0,-1,0.0,0.0,0.0,0,0.0,0.164
9883,0,,,7,,,0.07,-0.0,1.0,-0,-0,0,0.07,0,,,,,,,,,,,,,,,,
9923,0,,,7,,,0.07,-0.0,1.0,-0,-0,0,0.07,0,,,,,,,,,,,,,,,,
9963,0,,,8,,,0.07,-0.0,1.0,-0,-0,0,0.07,0,,,,,,,,,,,,,,,,
10003,0,,,8,,,0.07,-0.01,1.0,-0,-0,0,0.07,0,,,,,,,,,,,,,,,,
10043,0,302,256,8,0.21,13.32,0.07,-0.01,1.0,-0,-0,-0,0.07,0,0.0,0.0,0.0,0.0,0,0,0.0,0,0.0,-1,0.0,0.0,0.0,0,0.0,0.1674
10083,0,,,8,,,0.07,-0.01,1.0,-0,-0,-0,0.07,0,,,,,,,,,,,,,,,,
10123,0,,,7,,,0.07,-0.01,1.0,-0,-0,-0,0.07,0,,,,,,,,,,,,,,,,
10163,0,,,8,,,0.07,-0.01,1.0,-0,-0,0,0.07,0,,,,,,,,,,,,,,,,
10203,0,,,8,,,0.07,-0.01,1.0,-0,-0,0,0.07,0,,,,,,,,,,,,,,,,
10243,0,,,8,,,0.07,-0.01,1.0,-0,-0,0,0.07,0,0.0,0.0,0.0,0.0,0,0,0.0,0,0.0,-1,0.0,0.0,0.0,0,0.0,0.1707
10283,0,,,8,,,0.07,-0.01,1.0,-0,-0,0,0.07,0,,,,,,,,,,,,,,,,
10323,0,,,8,,,0.07,-0.01,1.0,-0,-0,0,0.07,0,,,,,,,,,,,,,,,,
10363,0,,,8,,,0.07,-0.01,1.0,-0,-0,0,0.07,0,,,,,,,,,,,,,,,,
10403,0,,,8,,,0.07,-0.01,1.0,-0,-0,0,0.07,0,,,,,,,,,,,,,,,,
10443,0,,,9,,,0.07,-0.01,1.0,-0,-0,0,0.07,0,0.0,0.0,0.0,0.0,0,0,0.0,0,0.0,-1,0.0,0.0,0.0,0,0.0,0.174
10483,0,,,9,,,0.07,-0.01,1.0,-0,-0,-0,0.07,0,,,,,,,,,,,,,,,,
10523,0,,,8,,,0.07,-0.01,1.0,-0,-0,0,0.07,0,,,,,,,,,,,,,,,,
10563,0,,,8,,,0.07,-0.01,1.0,-0,-0,0,0.07,0,,,,,,,,,,,,,,,,
10603,0,,,9,,,0.07,-0.01,1.0,-0,-0,0,0.07,0,,,,,,,,,,,,,,,,
10643,0,,,9,,,0.07,-0.01,1.0,-0,-0,0,0.07,0,0.0,0.0,0.0,0.0,0,0,0.0,0,0.0,-1,0.0,0.0,0.0,0,0.0,0.1774
10683,0,,,8,,,0.07,-0.01,1.0,-0,-0,-0,0.07,0,,,,,,,,,,,,,,,,
10723,0,,,9,,,0.07,-0.01,1.0,-0,-0,0,0.07,0,,,,,,,,,,,,,,,,
10763,0,,,8,,,0.07,-0.0,1.01,-0,-0,-0,0.07,0,,,,,,,,,,,,,,,,
10803,0,,,7,,,0.07,-0.01,1.01,-0,-0,-0,0.07,0,,,,,,,,,,,,,,,,
10843,0,,,8,,,0.07,-0.01,1.0,-0,-0,-0,0.07,0,0.0,0.0,0.0,0.0,0,0,0.0,0,0.0,-1,0.0,0.0,0.0,0,0.0,0.1807
10883,0,,,9,,,0.07,-0.01,1.0,-0,-0,-0,0.07,0,,,,,,,,,,,,,,,,
10923,0,,,8,,,0.07,-0.01,1.0,-0,-0,-0,0.07,0,,,,,,,,,,,,,,,,
10963,0,,,8,,,0.07,-0.01,1.0,-0,-0,-0,0.07,0,,,,,,,,,,,,,,,,
11003,0,,,9,,,0.07,-0.01,1.0,-0,-0,-0,0.07,0,,,,,,,,,,,,,,,,
11043,0,255,254,7,0.21,13.32,0.07,-0.01,1.0,-0,-0,0,0.07,0,0.0,0.0,0.0,0.0,0,0,0.0,0,0.0,-1,0.0,0.0,0.0,0,0.0,0.184
11083,0,,,9,,,0.07,-0.02,1.01,-0,-0,0,0.08,0,,,,,,,,,,,,,,,,
11123,0,,,8,,,0.07,-0.01,1.02,-0,-0,0,0.07,0,,,,,,,,,,,,,,,,
11163,0,,,9,,,0.07,-0.01,1.01,-0,-0,0,0.07,0,,,,,,,,,,,,,,,,
11203,0,,,8,,,0.07,-0.01,1.01,-0,-0,0,0.07,0,,,,,,,,,,,,,,,,
11243,0,,,8,,,0.07,-0.01,1.02,-0,-1,0,0.07,0,0.0,0.0,0.0,0.0,0,0,0.0,0,0.0,-1,0.0,0.0,0.0,0,0.0,0.1874
11283,0,,,8,,,0.06,-0.01,1.02,-0,-0,0,0.07,0,,,,,,,,,,,,,,,,
11323,0,,,8,,,0.07,-0.01,1.02,-0,-0,0,0.07,0,,,,,,,,,,,,,,,,
11363,0,,,9,,,0.07,-0.01,1.02,-0,-0,0,0.07,0,,,,,,,,,,,,,,,,
11403,0,,,8,,,0.07,-0.01,1.02,-0,-0,0,0.07,0,,,,,,,,,,,,,,,,
11443,0,,,9,,,0.07,-0.01,1.01,-0,-0,0,0.07,0,0.0,0.0,0.0,0.0,0,0,0.0,0,0.0,-1,0.0,0.0,0.0,0,0.0,0.1907
11483,0,,,8,,,0.08,-0.01,1.0,-0,0,-0,0.08,0,,,,,,,,,,,,,,,,
11523,0,,,8,,,0.08,-0.01,1.0,-0,1,-0,0.08,0,,,,,,,,,,,,,,,,
11563,0,,,8,,,0.08,-0.01,0.99,-0,1,-0,0.08,0,,,,,,,,,,,,,,,,
11603,0,,,8,,,0.08,-0.01,0.99,-0,1,-0,0.08,0,,,,,,,,,,,,,,,,
11643,0,,,9,,,0.08,-0.01,1.0,-0,0,-0,0.08,0,0.0,0.0,0.0,0.0,0,0,0.0,0,0.0,-1,0.0,0.0,0.0,0,0.0,0.194
11683,0,,,8,,,0.08,-0.01,1.0,-0,0,0,0.08,0,,,,,,,,,,,,,,,,
11723,0,,,7,,,0.07,-0.01,1.0,-0,0,0,0.07,0,,,,,,,,,,,,,,,,
11763,0,,,8,,,0.08,-0.01,1.0,-0,0,0,0.08,0,,,,,,,,,,,,,,,,
11803,0,,,8,,,0.08,-0.0,0.99,-0,1,0,0.08,0,,,,,,,,,,,,,,,,
11843,0,,,8,,,0.08,-0.01,0.98,-0,1,-0,0.08,0,0.0,0.0,0.0,0.0,0,0,0.0,0,0.0,-1,0.0,0.0,0.0,0,0.0,0.1974
11883,0,,,7,,,0.08,-0.01,0.98,-0,1,-0,0.09,0,,,,,,,,,,,,,,,,
11923,0,,,8,,,0.09,-0.01,0.97,-0,1,-0,0.09,0,,,,,,,,,,,,,,,,
11963,0,,,8,,,0.09,-0.01,0.97,-0,1,-0,0.09,0,,,,,,,,,,,,,,,,
12003,0,,,8,,,0.09,-0.04,0.96,-0,1,-0,0.09,0,,,,,,,,,,,,,,,,
12043,0,267,254,8,0.22,13.34,0.1,-0.01,0.97,-0,2,-0,0.1,0,0.0,0.0,0.0,0.0,0,0,0.0,0,0.0,-1,0.0,0.0,0.0,0,0.0,0.2007
12083,0,,,9,,,0.1,-0.01,0.95,-0,1,-0,0.1,0,,,,,,,,,,,,,,,,
12123,0,,,8,,,0.1,-0.01,0.95,-0,1,-0,0.1,0,,,,,,,,,,,,,,,,
12163,0,,,8,,,0.1,-0.01,0.96,-0,1,-0,0.1,0,,,,,,,,,,,,,,,,
12203,0,,,8,,,0.09,-0.01,0.97,-0,1,0,0.09,0,,,,,,,,,,,,,,,,
12243,0,,,9,,,0.09,-0.01,0.98,-0,0,0,0.09,0,0.0,0.0,0.0,0.0,0,0,0.0,0,0.0,-1,0.0,0.0,0.0,0,0.0,0.204
12283,0,,,8,,,0.08,-0.01,0.98,-0,0,0,0.08,0,,,,,,,,,,,,,,,,
12323,0,,,8,,,0.08,-0.01,0.99,-0,0,-0,0.08,0,,,,,,,,,,,,,,,,
12363,0,,,8,,,0.08,-0.01,0.99,-0,0,0,0.08,0,,,,,,,,,,,,,,,,
12403,0,,,8,,,0.07,-0.01,1.0,-0,-0,0,0.07,0,,,,,,,,,,,,,,,,
12443,0,,,8,,,0.07,-0.0,1.02,-0,-0,-0,0.07,0,0.0,0.0,0.0,0.0,0,0,0.0,0,0.0,-1,0.0,0.0,0.0,0,0.0,0.2074
12483,0,,,8,,,0.07,-0.0,1.02,-0,-0,-0,0.07,0,,,,,,,,,,,,,,,,
12523,0,,,8,,,0.06,-0.0,1.01,-0,-0,0,0.06,0,,,,,,,,,,,,,,,,
12563,0,,,8,,,0.08,-0.01,1.04,-0,0,-0,0.08,0,,,,,,,,,,,,,,,,
12603,0,,,8,,,0.09,-0.03,1.03,-0,2,-0,0.09,0,,,,,,,,,,,,,,,,
12643,0,,,8,,,0.09,-0.02,0.98,-0,2,-0,0.1,0,0.0,0.0,0.0,0.0,0,0,0.0,0,0.0,-1,0.0,0.0,0.0,0,0.0,0.2107
12683,0,,,8,,,0.1,-0.02,0.97,-0,2,-0,0.1,0,,,,,,,,,,,,,,,,
12723,0,,,8,,,0.1,-0.02,0.97,-0,2,-0,0.11,0,,,,,,,,,,,,,,,,
12763,0,,,8,,,0.1,-0.02,0.97,-0,1,-0,0.1,0,,,,,,,,,,,,,,,,
12803,0,,,8,,,0.09,-0.02,0.98,-0,1,-0,0.09,0,,,,,,,,,,,,,,,,
12843,0,,,8,,,0.09,-0.01,0.98,-0,1,-0,0.09,0,0.0,0.0,0.0,0.0,0,0,0.0,0,0.0,-1,0.0,0.0,0.0,0,0.0,0.214
12883,0,,,7,,,0.08,-0.01,0.99,-0,1,-0,0.08,0,,,,,,,,,,,,,,,,
12923,0,,,8,,,0.08,-0.01,0.99,-0,0,-0,0.08,0,,,,,,,,,,,,,,,,
12963,0,,,8,,,0.09,-0.01,1.01,-0,0,-0,0.09,0,,,,,,,,,,,,,,,,
13003,0,,,8,,,0.09,-0.01,1.0,-0,0,-0,0.09,0,,,,,,,,,,,,,,,,
13043,0,302,255,8,0.22,13.32,0.08,-0.01,1.0,-0,0,-0,0.08,0,0.0,0.0,0.0,0.0,0,0,0.0,0,0.0,-1,0.0,0.0,0.0,0,0.0,0.2174
13083,0,,,8,,,0.08,-0.01,0.99,-0,0,-0,0.08,0,,,,,,,,,,,,,,,,
13123,0,,,8,,,0.08,-0.01,0.99,-0,0,-0,0.08,0,,,,,,,,,,,,,,,,
13163,0,,,8,,,0.08,-0.01,0.99,-0,0,-0,0.08,0,,,,,,,,,,,,,,,,
13203,0,,,7,,,0.08,-0.01,0.99,-0,0,-0,0.08,0,,,,,,,,,,,,,,,,
13243,0,,,8,,,0.08,-0.01,0.99,-0,0,-0,0.08,0,0.0,0.0,0.0,0.0,0,0,0.0,0,0.0,-1,0.0,0.0,0.0,0,0.0,0.2207
13283,0,,,8,,,0.08,-0.01,0.99,-0,0,-0,0.08,0,,,,,,,,,,,,,,,,
13323,0,,,8,,,0.08,-0.01,0.99,-0,0,0,0.08,0,,,,,,,,,,,,,,,,
13363,0,,,8,,,0.08,-0.01,1.0,-0,0,-0,0.08,0,,,,,,,,,,,,,,,,
13403,0,,,9,,,0.07,-0.01,1.0,-0,0,-0,0.07,0,,,,,,,,,,,,,,,,
13443,0,,,9,,,0.07,-0.01,1.0,-0,0,0,0.08,0,0.0,0.0,0.0,0.0,0,0,0.0,0,0.0,-1,0.0,0.0,0.0,0,0.0,0.224
13483,0,,,8,,,0.07,-0.01,1.0,-0,0,-0,0.07,0,,,,,,,,,,,,,,,,
13523,0,,,8,,,0.07,-0.01,1.0,-0,0,-0,0.07,0,,,,,,,,,,,,,,,,
13563,0,,,8,,,0.07,-0.01,1.0,-0,0,-0,0.07,0,,,,,,,,,,,,,,,,
13603,0,,,9,,,0.07,-0.01,1.0,-0,0,-0,0.07,0,,,,,,,,,,,,,,,,
13643,0,,,9,,,0.07,-0.01,1.0,-0,0,-0,0.07,0,0.0,0.0,0.0,0.0,0,0,0.0,0,0.0,-1,0.0,0.0,0.0,0,0.0,0.2274
13683,0,,,8,,,0.07,-0.01,1.0,-0,0,-0,0.07,0,,,,,,,,,,,,,,,,
13723,0,,,10,,,0.07,-0.01,1.0,-0,0,-0,0.07,0,,,,,,,,,,,,,,,,
13763,0,,,10,,,0.07,-0.01,1.01,-0,-0,-0,0.07,0,,,,,,,,,,,,,,,,
13803,0,,,9,,,0.07,-0.01,1.01,-0,-0,-0,0.07,0,,,,,,,,,,,,,,,,
13843,0,,,9,,,0.07,-0.01,1.01,-0,-0,-0,0.07,0,0.0,0.0,0.0,0.0,0,0,0.0,0,0.0,-1,0.0,0.0,0.0,0,0.0,0.2307
13883,0,,,9,,,0.07,-0.01,1.01,-0,-0,-0,0.07,0,,,,,,,,,,,,,,,,
13923,0,,,9,,,0.07,-0.01,1.01,-0,-0,-0,0.07,0,,,,,,,,,,,,,,,,
13963,0,,,8,,,0.07,-0.01,1.01,-0,-0,-0,0.07,0,,,,,,,,,,,,,,,,
14003,0,,,9,,,0.07,-0.01,1.01,-0,-0,-0,0.07,0,,,,,,,,,,,,,,,,
14043,0,268,255,9,0.23,13.33,0.07,-0.01,1.01,-0,-0,-0,0.07,0,0.0,0.0,0.0,0.0,0,0,0.0,0,0.0,-1,0.0,0.0,0.0,0,0.0,0.234
14083,0,,,8,,,0.07,-0.01,1.0,-0,-0,-0,0.07,0,,,,,,,,,,,,,,,,
14123,0,,,9,,,0.07,-0.01,1.01,-0,-0,-0,0.07,0,,,,,,,,,,,,,,,,
14163,0,,,9,,,0.07,-0.01,1.01,-0,-0,-0,0.07,0,,,,,,,,,,,,,,,,
14203,0,,,8,,,0.07,-0.01,1.0,-0,-0,-0,0.07,0,,,,,,,,,,,,,,,,
14243,0,,,9,,,0.07,-0.01,1.0,-0,-0,-0,0.07,0,0.0,0.0,0.0,0.0,0,0,0.0,0,0.0,-1,0.0,0.0,0.0,0,0.0,0.2374
14283,0,,,8,,,0.07,-0.01,1.0,-0,-0,-0,0.07,0,,,,,,,,,,,,,,,,
14323,0,,,9,,,0.07,-0.01,1.0,-0,-0,-0,0.07,0,,,,,,,,,,,,,,,,
14363,0,,,9,,,0.07,-0.01,1.0,-0,-0,-0,0.07,0,,,,,,,,,,,,,,,,
14403,0,,,8,,,0.07,-0.01,1.0,-0,-0,-0,0.07,0,,,,,,,,,,,,,,,,
14443,0,,,9,,,0.07,-0.01,1.01,-0,-0,-0,0.07,0,0.0,0.0,0.0,0.0,0,0,0.0,0,0.0,-1,0.0,0.0,0.0,0,0.0,0.2407
14483,0,,,8,,,0.07,-0.01,1.01,-0,-0,-0,0.07,0,,,,,,,,,,,,,,,,
14523,0,,,9,,,0.07,-0.01,1.0,-0,-0,-0,0.07,0,,,,,,,,,,,,,,,,
14563,0,,,8,,,0.07,-0.01,1.01,-0,-0,-0,0.07,0,,,,,,,,,,,,,,,,
14603,0,,,7,,,0.07,-0.01,1.01,-0,-0,0,0.07,0,,,,,,,,,,,,,,,,
14643,0,,,6,,,0.07,-0.01,1.0,-0,-0,0,0.07,0,0.0,0.0,0.0,0.0,0,0,0.0,0,0.0,-1,0.0,0.0,0.0,0,0.0,0.244
14683,0,,,5,,,0.07,-0.01,1.0,-0,-0,0,0.07,0,,,,,,,,,,,,,,,,
14723,0,,,3,,,0.07,-0.01,1.01,-0,-0,0,0.07,0,,,,,,,,,,,,,,,,
14763,0,,,5,,,0.07,-0.01,1.0,-0,-0,-0,0.07,0,,,,,,,,,,,,,,,,
14803,0,,,7,,,0.07,-0.01,1.0,-0,-0,-0,0.07,0,,,,,,,,,,,,,,,,
14843,0,,,7,,,0.07,-0.01,1.0,-0,-0,-0,0.07,0,0.0,0.0,0.0,0.0,0,0,0.0,0,0.0,-1,0.0,0.0,0.0,0,0.0,0.2474
14883,0,,,8,,,0.07,-0.01,1.0,-0,-0,0,0.07,0,,,,,,,,,,,,,,,,
14923,0,,,9,,,0.07,-0.01,1.0,-0,-0,0,0.07,0,,,,,,,,,,,,,,,,
14963,0,,,8,,,0.07,-0.01,1.01,-0,-0,0,0.07,0,,,,,,,,,,,,,,,,
15003,0,,,9,,,0.07,-0.01,1.01,-0,-0,-0,0.07,0,,,,,,,,,,,,,,,,
15043,0,275,256,9,0.23,13.32,0.07,-0.01,1.01,-0,-0,0,0.07,0,0.0,0.0,0.0,0.0,0,0,0.0,0,0.0,-1,0.0,0.0,0.0,0,0.0,0.2507
15083,0,,,9,,,0.07,-0.01,1.0,-0,-0,0,0.07,0,,,,,,,,,,,,,,,,
15123,0,,,8,,,0.07,-0.01,1.0,-0,-0,0,0.07,0,,,,,,,,,,,,,,,,
15163,0,,,9,,,0.07,-0.01,1.0,-0,-0,0,0.07,0,,,,,,,,,,,,,,,,
15203,0,,,9,,,0.07,-0.01,1.0,-0,-0,0,0.07,0,,,,,,,,,,,,,,,,
15243,0,,,9,,,0.07,-0.01,1.0,-0,-0,0,0.07,0,0.0,0.0,0.0,0.0,0,0,0.0,0,0.0,-1,0.0,0.0,0.0,0,0.0,0.254
15283,0,,,9,,,0.07,-0.01,1.0,-0,-0,0,0.07,0,,,,,,,,,,,,,,,,
15323,0,,,9,,,0.07,-0.01,1.0,-0,-0,0,0.07,0,,,,,,,,,,,,,,,,
15363,0,,,9,,,0.07,-0.0,1.0,-0,-0,0,0.07,0,,,,,,,,,,,,,,,,
15403,0,,,8,,,0.07,-0.01,1.0,-0,-0,0,0.07,0,,,,,,,,,,,,,,,,
15443,0,,,8,,,0.07,-0.01,1.0,-0,-0,0,0.07,0,0.0,0.0,0.0,0.0,0,0,0.0,0,0.0,-1,0.0,0.0,0.0,0,0.0,0.2574
15483,0,,,8,,,0.07,-0.01,1.0,-0,-0,0,0.07,0,,,,,,,,,,,,,,,,
15523,0,,,9,,,0.07,-0.01,1.0,-0,-0,-0,0.07,0,,,,,,,,,,,,,,,,
15563,0,,,9,,,0.07,-0.01,1.0,-0,-0,-0,0.07,0,,,,,,,,,,,,,,,,
15603,0,,,8,,,0.07,-0.01,1.0,-0,-0,-0,0.07,0,,,,,,,,,,,,,,,,
15643,0,,,9,,,0.07,-0.01,1.0,-0,-0,0,0.07,0,0.0,0.0,0.0,0.0,0,0,0.0,0,0.0,-1,0.0,0.0,0.0,0,0.0,0.2607
15683,0,,,8,,,0.07,-0.01,1.0,-0,-0,0,0.07,0,,,,,,,,,,,,,,,,
15723,0,,,9,,,0.07,-0.01,1.0,-0,-0,0,0.07,0,,,,,,,,,,,,,,,,
15763,0,,,9,,,0.07,-0.01,1.0,-0,-0,-0,0.07,0,,,,,,,,,,,,,,,,
15803,0,,,9,,,0.07,-0.01,1.01,-0,-0,-0,0.07,0,,,,,,,,,,,,,,,,
15843,0,,,9,,,0.07,-0.01,1.0,-0,-0,-0,0.07,0,0.0,0.0,0.0,0.0,0,0,0.0,0,0.0,-1,0.0,0.0,0.0,0,0.0,0.264
15883,0,,,9,,,0.07,-0.01,1.0,-0,-0,-0,0.07,0,,,,,,,,,,,,,,,,
15923,0,,,8,,,0.07,-0.01,1.0,-0,-0,-0,0.07,0,,,,,,,,,,,,,,,,
15963,0,,,9,,,0.07,-0.01,1.0,-0,-0,0,0.07,0,,,,,,,,,,,,,,,,
16003,0,,,0,,,0.07,-0.0,1.0,-0,-0,0,0.07,0,,,,,,,,,,,,,,,,
16043,0,271,294,4,0.23,10.59,0.07,-0.01,0.98,-0,-0,-0,0.07,0,0.0,0.0,0.0,0.0,0,0,0.0,0,0.0,-1,0.0,0.0,0.0,0,0.0,0.2674
16083,0,,,4,,,0.07,-0.01,0.98,-0,-0,0,0.07,0,,,,,,,,,,,,,,,,
16123,0,,,5,,,0.07,-0.0,0.98,-0,-0,0,0.07,0,,,,,,,,,,,,,,,,
16163,0,,,4,,,0.06,-0.0,0.98,-0,-0,0,0.06,0,,,,,,,,,,,,,,,,
16203,0,,,5,,,0.07,-0.0,0.99,-0,-1,0,0.07,0,,,,,,,,,,,,,,,,
16243,0,,,4,,,0.07,-0.01,0.99,-0,-0,0,0.07,0,0.0,0.0,0.0,0.0,0,0,0.0,0,0.0,-1,0.0,0.0,0.0,0,0.0,0.2707
16283,0,,,4,,,0.07,-0.01,0.97,-0,-0,0,0.07,0,,,,,,,,,,,,,,,,
16323,0,,,4,,,0.08,-0.01,0.95,-0,0,0,0.08,0,,,,,,,,,,,,,,,,
16363,0,,,4,,,0.1,-0.01,0.93,-0,1,-0,0.1,0,,,,,,,,,,,,,,,,
16403,0,,,6,,,0.11,-0.01,0.96,-0,1,-0,0.11,0,,,,,,,,,,,,,,,,
16443,0,,,5,,,0.1,-0.0,0.94,-0,1,-0,0.1,0,0.0,0.0,0.0,0.0,0,0,0.0,0,0.0,-1,0.0,0.0,0.0,0,0.0,0.274
16483,0,,,6,,,0.09,-0.0,0.97,-0,1,-0,0.09,0,,,,,,,,,,,,,,,,
16523,0,,,5,,,0.08,0.0,0.96,-0,-0,0,0.08,0,,,,,,,,,,,,,,,,
16563,0,,,5,,,0.09,-0.0,0.95,-0,-0,0,0.09,0,,,,,,,,,,,,,,,,
16603,0,,,5,,,0.08,-0.0,0.97,-0,-0,0,0.08,0,,,,,,,,,,,,,,,,
16643,0,,,3,,,0.07,-0.01,0.97,-0,-0,0,0.07,0,0.0,0.0,0.0,0.0,0,0,0.0,0,0.0,-1,0.0,0.0,0.0,0,0.0,0.2774
16683,0,,,5,,,0.07,-0.01,0.98,-0,-0,0,0.07,0,,,,,,,,,,,,,,,,
16723,0,,,4,,,0.07,-0.01,0.99,-0,-0,0,0.07,0,,,,,,,,,,,,,,,,
16763,0,,,4,,,0.06,-0.01,0.98,-0,-1,0,0.06,0,,,,,,,,,,,,,,,,
16803,0,,,4,,,0.07,-0.01,1.03,-0,-1,-0,0.07,0,,,,,,,,,,,,,,,,
16843,0,,,4,,,0.08,-0.02,1.03,-0,-0,-0,0.08,0,0.0,0.0,0.0,0.0,0,0,0.0,0,0.0,-1,0.0,0.0,0.0,0,0.0,0.2807
16883,0,,,4,,,0.09,-0.02,1.0,-0,0,-0,0.09,0,,,,,,,,,,,,,,,,
16923,0,,,5,,,0.08,-0.01,1.02,-0,0,-0,0.08,0,,,,,,,,,,,,,,,,
16963,0,,,4,,,0.08,-0.02,1.0,-0,-0,0,0.08,0,,,,,,,,,,,,,,,,
17003,0,,,6,,,0.08,-0.01,0.99,-0,-0,0,0.08,0,,,,,,,,,,,,,,,,
17043,0,282,282,5,0.23,11.85,0.08,-0.01,0.99,-0,0,0,0.08,0,0.0,0.0,0.0,0.0,0,0,0.0,0,0.0,-1,0.0,0.0,0.0,0,0.0,0.284
17083,0,,,6,,,0.07,-0.02,1.0,-0,-0,0,0.07,0,,,,,,,,,,,,,,,,
17123,0,,,6,,,0.06,-0.01,1.05,-0,1,-0,0.06,0,,,,,,,,,,,,,,,,
17163,0,,,6,,,0.07,-0.02,1.02,-0,1,-0,0.07,0,,,,,,,,,,,,,,,,
17203,0,,,6,,,0.08,-0.01,1.06,-0,0,-0,0.08,0,,,,,,,,,,,,,,,,
17243,0,,,6,,,0.08,-0.02,1.02,-0,-0,0,0.08,0,0.0,0.0,0.0,0.0,0,0,0.0,0,0.0,-1,0.0,0.0,0.0,0,0.0,0.2874
17283,0,,,6,,,0.08,-0.01,1.04,-0,-0,0,0.08,0,,,,,,,,,,,,,,,,
17323,0,,,6,,,0.07,-0.02,1.01,-0,1,-0,0.08,0,,,,,,,,,,,,,,,,
17363,0,,,6,,,0.08,-0.02,0.92,-0,1,-0,0.08,0,,,,,,,,,,,,,,,,
17403,0,,,6,,,0.07,-0.0,0.97,-0,1,-0,0.07,0,,,,,,,,,,,,,,,,
17443,0,,,6,,,0.06,-0.01,0.96,-0,1,-0,0.06,0,0.0,0.0,0.0,0.0,0,0,0.0,0,0.0,-1,0.0,0.0,0.0,0,0.0,0.2907
17483,0,,,5,,,0.07,0.0,0.98,-0,1,-0,0.07,0,,,,,,,,,,,,,,,,
17523,0,,,6,,,0.07,-0.0,0.91,-0,1,0,0.07,0,,,,,,,,,,,,,,,,
17563,0,,,8,,,0.07,-0.01,0.86,-0,1,0,0.07,0,,,,,,,,,,,,,,,,
17603,0,,,8,,,0.07,-0.0,0.89,-0,1,0,0.07,0,,,,,,,,,,,,,,,,
17643,0,,,9,,,0.06,0.01,0.91,-0,0,0,0.06,0,0.0,0.0,0.0,0.0,0,0,0.0,0,0.0,-1,0.0,0.0,0.0,0,0.0,0.294
17683,0,,,9,,,0.08,0.0,0.87,-0,1,0,0.08,0,,,,,,,,,,,,,,,,
17723,0,,,9,,,0.08,0.0,0.9,-0,-0,0,0.08,0,,,,,,,,,,,,,,,,
17763,0,,,8,,,0.07,-0.01,0.96,-0,1,0,0.07,0,,,,,,,,,,,,,,,,
17803,0,,,9,,,0.11,-0.0,0.87,-0,3,-0,0.11,0,,,,,,,,,,,,,,,,
17843,0,,,9,,,0.13,-0.0,0.8,-0,3,-0,0.13,0,0.0,0.0,0.0,0.0,0,0,0.0,0,0.0,-1,0.0,0.0,0.0,0,0.0,0.2974
17883,0,,,8,,,0.15,-0.01,0.77,-0,3,-0,0.15,0,,,,,,,,,,,,,,,,
17923,0,,,8,,,0.16,-0.01,0.74,-0,2,0,0.16,0,,,,,,,,,,,,,,,,
17963,0,,,9,,,0.17,-0.0,0.83,-0,0,0,0.17,0,,,,,,,,,,,,,,,,
18003,0,,,8,,,0.13,-0.01,0.85,-0,-1,0,0.14,0,,,,,,,,,,,,,,,,
18043,0,278,252,9,0.23,13.42,0.14,-0.01,0.87,-0,-0,0,0.14,0,0.0,0.0,0.0,0.0,0,0,0.0,0,0.0,-1,0.0,0.0,0.0,0,0.0,0.3007
18083,0,,,9,,,0.13,-0.01,0.87,-0,1,-0,0.13,0,,,,,,,,,,,,,,,,
18123,0,,,9,,,0.12,-0.01,0.91,-0,2,-0,0.12,0,,,,,,,,,,,,,,,,
18163,0,,,9,,,0.1,-0.01,0.98,-0,2,-0,0.1,0,,,,,,,,,,,,,,,,
18203,0,,,9,,,0.11,-0.01,1.0,-0,4,-1,0.12,0,,,,,,,,,,,,,,,,
18243,0,,,9,,,0.13,-0.01,1.04,-0,5,-1,0.13,0,0.0,0.0,0.0,0.0,0,0,0.0,0,0.0,-1,0.0,0.0,0.0,0,0.0,0.304
18283,0,,,9,,,0.16,-0.01,0.97,-0,7,-1,0.16,0,,,,,,,,,,,,,,,,
18323,0,,,9,,,0.17,-0.01,0.87,-0,5,-1,0.17,0,,,,,,,,,,,,,,,,
18363,0,,,9,,,0.11,-0.01,0.99,-0,2,-0,0.11,0,,,,,,,,,,,,,,,,
18403,0,,,9,,,0.1,0.0,1.03,-0,1,-0,0.1,0,,,,,,,,,,,,,,,,
18443,0,,,9,,,0.1,-0.0,1.03,-0,1,-0,0.1,0,0.0,0.0,0.0,0.0,0,0,0.0,0,0.0,-1,0.0,0.0,0.0,0,0.0,0.3074
18483,0,,,8,,,0.11,-0.01,1.08,-0,1,-0,0.11,0,,,,,,,,,,,,,,,,
18523,0,,,9,,,0.11,-0.01,1.06,-0,1,-0,0.11,0,,,,,,,,,,,,,,,,
18563,0,,,9,,,0.11,-0.01,1.03,-0,1,-0,0.11,0,,,,,,,,,,,,,,,,
18603,0,,,9,,,0.11,-0.01,1.04,-0,1,-0,0.11,0,,,,,,,,,,,,,,,,
18643,0,,,9,,,0.09,-0.01,1.01,-0,0,-0,0.09,0,0.0,0.0,0.0,0.0,0,0,0.0,0,0.0,-1,0.0,0.0,0.0,0,0.0,0.3107
18683,0,,,9,,,0.1,-0.0,0.95,-0,-0,0,0.1,0,,,,,,,,,,,,,,,,
18723,0,,,9,,,0.07,-0.0,1.0,-0,-3,0,0.07,0,,,,,,,,,,,,,,,,
18763,0,,,9,,,0.03,-0.0,1.1,-0,-3,0,0.03,0,,,,,,,,,,,,,,,,
18803,0,,,10,,,0.01,0.0,1.14,-0,-0,-0,0.01,0,,,,,,,,,,,,,,,,
18843,0,,,9,,,0.05,0.0,1.08,-0,3,-1,0.05,0,0.0,0.0,0.0,0.0,0,0,0.0,0,0.0,-1,0.0,0.0,0.0,0,0.0,0.314
18883,0,,,8,,,0.11,-0.0,0.87,-0,3,-0,0.11,0,,,,,,,,,,,,,,,,
18923,0,,,9,,,0.11,-0.0,0.82,-0,-0,0,0.11,0,,,,,,,,,,,,,,,,
18963,0,,,9,,,0.08,0.0,0.87,-0,-3,0,0.08,0,,,,,,,,,,,,,,,,
19003,0,,,8,,,0.01,-0.0,1.01,-0,-5,0,0.01,0,,,,,,,,,,,,,,,,
19043,0,276,253,9,0.23,13.41,-0.02,0.0,1.06,-0,-3,0,0.02,0,0.0,0.0,0.0,0.0,0,0,0.0,0,0.0,-1,0.0,0.0,0.0,0,0.0,0.3174
19083,0,,,9,,,-0.01,-0.0,1.04,-0,-1,0,0.01,0,,,,,,,,,,,,,,,,
19123,0,,,9,,,-0.02,-0.01,1.13,-0,0,-0,0.02,0,,,,,,,,,,,,,,,,
19163,0,,,10,,,0.01,-0.01,1.11,-0,3,-0,0.01,0,,,,,,,,,,,,,,,,
19203,0,,,8,,,0.08,-0.01,1.0,-0,5,-1,0.08,0,,,,,,,,,,,,,,,,
19243,0,,,8,,,0.1,-0.0,0.92,-0,3,-0,0.1,0,0.0,0.0,0.0,0.0,0,0,0.0,0,0.0,-1,0.0,0.0,0.0,0,0.0,0.3207
19283,0,,,8,,,0.04,-0.01,1.02,-0,0,0,0.04,0,,,,,,,,,,,,,,,,
19323,0,,,9,,,0.07,-0.02,0.9,-0,3,-0,0.07,0,,,,,,,,,,,,,,,,
19363,0,,,9,,,0.07,-0.01,0.86,-0,-0,0,0.08,0,,,,,,,,,,,,,,,,
19403,0,,,9,,,0.03,-0.01,1.02,-0,-2,0,0.03,0,,,,,,,,,,,,,,,,
19443,0,,,9,,,0.06,-0.01,1.01,-0,1,-0,0.06,0,0.0,0.0,0.0,0.0,0,0,0.0,0,0.0,-1,0.0,0.0,0.0,0,0.0,0.324
19483,0,,,8,,,0.1,-0.0,0.91,-0,1,-0,0.1,0,,,,,,,,,,,,,,,,
19523,0,,,8,,,0.05,0.0,1.03,-0,-1,0,0.05,0,,,,,,,,,,,,,,,,
19563,0,,,9,,,0.05,0.01,1.07,-0,1,-0,0.05,0,,,,,,,,,,,,,,,,
19603,0,,,10,,,0.11,0.0,0.93,-0,4,-0,0.11,0,,,,,,,,,,,,,,,,
19643,0,,,9,,,0.11,0.0,0.89,-0,2,-0,0.11,0,0.0,0.0,0.0,0.0,0,0,0.0,0,0.0,-1,0.0,0.0,0.0,0,0.0,0.3274
19683,0,,,9,,,0.05,-0.0,1.03,-0,-1,-0,0.05,0,,,,,,,,,,,,,,,,
19723,0,,,9,,,0.06,-0.0,1.09,-0,1,-0,0.06,0,,,,,,,,,,,,,,,,
19763,0,,,9,,,0.11,-0.0,0.95,-0,4,-1,0.11,0,,,,,,,,,,,,,,,,
19803,0,,,9,,,0.09,0.0,1.03,-0,1,-0,0.09,0,,,,,,,,,,,,,,,,
19843,0,,,9,,,0.09,-0.01,1.01,-0,2,-0,0.09,0,0.0,0.0,0.0,0.0,0,0,0.0,0,0.0,-1,0.0,0.0,0.0,0,0.0,0.3307
19883,0,,,9,,,0.12,-0.0,0.86,-0,2,-0,0.12,0,,,,,,,,,,,,,,,,
19923,0,,,10,,,0.07,-0.0,0.95,-0,-2,0,0.07,0,,,,,,,,,,,,,,,,
19963,0,,,10,,,0.06,-0.0,1.06,-0,-1,-0,0.06,0,,,,,,,,,,,,,,,,
20003,0,,,10,,,0.11,-0.01,0.91,-0,2,-0,0.11,0,,,,,,,,,,,,,,,,
20043,0,276,252,9,0.24,13.47,0.1,-0.01,0.91,-0,-0,0,0.11,0,0.0,0.0,0.0,0.0,0,0,0.0,0,0.0,-1,0.0,0.0,0.0,0,0.0,0.334
20083,0,,,9,,,0.05,-0.01,1.02,-0,-3,0,0.05,0,,,,,,,,,,,,,,,,
20123,0,,,9,,,0.08,-0.01,0.91,-0,1,0,0.08,0,,,,,,,,,,,,,,,,
20163,0,,,10,,,0.07,-0.01,0.87,-0,-1,0,0.07,0,,,,,,,,,,,,,,,,
20203,0,,,9,,,0.04,-0.0,1.04,-0,-3,0,0.04,0,,,,,,,,,,,,,,,,
20243,0,,,10,,,0.06,-0.0,1.0,-0,0,0,0.06,0,0.0,0.0,0.0,0.0,0,0,0.0,0,0.0,-1,0.0,0.0,0.0,0,0.0,0.3374
20283,0,,,9,,,0.1,-0.0,0.88,-0,-1,0,0.1,0,,,,,,,,,,,,,,,,
20323,0,,,9,,,0.06,0.0,0.97,-0,-4,0,0.06,0,,,,,,,,,,,,,,,,
20363,0,,,9,,,0.03,-0.0,1.0,-0,-1,-0,0.03,0,,,,,,,,,,,,,,,,
20403,0,,,9,,,0.06,0.0,0.89,-0,-1,-0,0.06,0,,,,,,,,,,,,,,,,
20443,0,,,9,,,0.04,0.0,1.05,-0,-2,-0,0.04,0,0.0,0.0,0.0,0.0,0,0,0.0,0,0.0,-1,0.0,0.0,0.0,0,0.0,0.3407
20483,0,,,9,,,0.06,0.0,1.01,-0,1,-0,0.06,0,,,,,,,,,,,,,,,,
20523,0,,,9,,,0.08,-0.0,0.95,-0,-1,-0,0.08,0,,,,,,,,,,,,,,,,
20563,0,,,10,,,0.03,-0.01,1.04,-0,-2,0,0.03,0,,,,,,,,,,,,,,,,
20603,0,,,9,,,0.06,-0.02,0.93,-0,1,-0,0.06,0,,,,,,,,,,,,,,,,
20643,0,,,10,,,0.04,-0.02,0.96,-0,-2,0,0.05,0,0.0,0.0,0.0,0.0,0,0,0.0,0,0.0,-1,0.0,0.0,0.0,0,0.0,0.344
20683,0,,,9,,,0.03,-0.02,1.11,-0,-0,-0,0.03,0,,,,,,,,,,,,,,,,
20723,0,,,10,,,0.08,-0.02,1.0,-0,2,-0,0.09,0,,,,,,,,,,,,,,,,
20763,0,,,10,,,0.07,-0.01,1.05,-0,-1,-0,0.07,0,,,,,,,,,,,,,,,,
20803,0,,,10,,,0.06,-0.01,1.05,-0,1,-0,0.06,0,,,,,,,,,,,,,,,,
20843,0,,,10,,,0.07,-0.0,0.96,-0,-0,-0,0.07,0,0.0,0.0,0.0,0.0,0,0,0.0,0,0.0,-1,0.0,0.0,0.0,0,0.0,0.3474
20883,0,,,10,,,0.04,0.0,1.1,-0,-1,-0,0.04,0,,,,,,,,,,,,,,,,
20923,0,,,10,,,0.07,0.01,1.07,-0,2,-0,0.07,0,,,,,,,,,,,,,,,,
20963,0,,,10,,,0.11,0.0,0.95,-0,3,-0,0.11,0,,,,,,,,,,,,,,,,
21003,0,,,9,,,0.08,0.01,1.02,-0,-0,-0,0.08,0,,,,,,,,,,,,,,,,
21043,0,275,252,9,0.24,13.34,0.08,-0.0,1.01,-0,2,-0,0.08,0,0.0,0.0,0.0,0.0,0,0,0.0,0,0.0,-1,0.0,0.0,0.0,0,0.0,0.3507
21083,0,,,10,,,0.09,0.0,0.95,-0,1,-0,0.09,0,,,,,,,,,,,,,,,,
21123,0,,,10,,,0.08,0.01,1.05,-0,1,-0,0.08,0,,,,,,,,,,,,,,,,
21163,0,,,9,,,0.11,0.0,0.92,-0,2,-0,0.11,0,,,,,,,,,,,,,,,,
21203,0,,,10,,,0.07,0.0,0.98,-0,-2,0,0.07,0,,,,,,,,,,,,,,,,
21243,0,,,10,,,0.02,-0.01,1.09,-0,-2,0,0.03,0,0.0,0.0,0.0,0.0,0,0,0.0,0,0.0,-1,0.0,0.0,0.0,0,0.0,0.354
21283,0,,,9,,,0.03,-0.01,1.05,-0,0,0,0.03,0,,,,,,,,,,,,,,,,
21323,0,,,9,,,0.09,-0.02,0.95,-0,4,-0,0.09,0,,,,,,,,,,,,,,,,
21363,0,,,10,,,0.11,-0.01,0.85,-0,2,-0,0.11,0,,,,,,,,,,,,,,,,
21403,0,,,10,,,0.06,-0.01,0.99,-0,-1,0,0.06,0,,,,,,,,,,,,,,,,
21443,0,,,10,,,0.07,-0.0,1.03,-0,1,0,0.07,0,0.0,0.0,0.0,0.0,0,0,0.0,0,0.0,-1,0.0,0.0,0.0,0,0.0,0.3574
21483,0,,,9,,,0.1,-0.01,0.92,-0,1,0,0.1,0,,,,,,,,,,,,,,,,
21523,0,,,10,,,0.05,-0.0,1.01,-0,-2,0,0.05,0,,,,,,,,,,,,,,,,
21563,0,,,10,,,0.01,-0.01,1.08,-0,-2,0,0.01,0,,,,,,,,,,,,,,,,
21603,0,,,10,,,0.06,-0.01,1.02,-0,-0,0,0.06,0,,,,,,,,,,,,,,,,
21643,0,,,10,,,0.07,-0.01,0.97,-0,1,-0,0.07,0,0.0,0.0,0.0,0.0,0,0,0.0,0,0.0,-1,0.0,0.0,0.0,0,0.0,0.3607
21683,0,,,10,,,0.06,-0.01,0.92,-0,1,-0,0.06,0,,,,,,,,,,,,,,,,
21723,0,,,9,,,0.07,-0.0,0.91,-0,2,-0,0.07,0,,,,,,,,,,,,,,,,
21763,0,,,10,,,0.08,0.0,0.93,-0,2,-0,0.08,0,,,,,,,,,,,,,,,,
21803,0,,,9,,,0.08,-0.0,0.93,-0,2,-0,0.08,0,,,,,,,,,,,,,,,,
21843,0,,,9,,,0.09,-0.01,0.96,-0,2,-0,0.09,0,0.0,0.0,0.0,0.0,0,0,0.0,0,0.0,-1,0.0,0.0,0.0,0,0.0,0.364
21883,0,,,10,,,0.09,-0.01,0.97,-0,1,-0,0.09,0,,,,,,,,,,,,,,,,
21923,0,,,9,,,0.08,-0.01,1.0,-0,1,-0,0.09,0,,,,,,,,,,,,,,,,
21963,0,,,9,,,0.08,-0.01,0.99,-0,1,-0,0.08,0,,,,,,,,,,,,,,,,
22003,0,,,9,,,0.08,-0.01,0.99,-0,1,-0,0.08,0,,,,,,,,,,,,,,,,
22043,0,275,254,8,0.24,13.13,0.08,-0.01,0.98,-0,0,-0,0.08,0,0.0,0.0,0.0,0.0,0,0,0.0,0,0.0,-1,0.0,0.0,0.0,0,0.0,0.3674
22083,0,,,9,,,0.08,-0.01,0.99,-0,0,0,0.08,0,,,,,,,,,,,,,,,,
22123,0,,,9,,,0.08,-0.01,0.99,-0,0,0,0.08,0,,,,,,,,,,,,,,,,
22163,0,,,9,,,0.08,-0.01,0.99,-0,0,0,0.08,0,,,,,,,,,,,,,,,,
22203,0,,,9,,,0.08,-0.01,0.99,-0,0,0,0.08,0,,,,,,,,,,,,,,,,
22243,0,,,9,,,0.08,-0.01,1.0,-0,-0,0,0.08,0,0.0,0.0,0.0,0.0,0,0,0.0,0,0.0,-1,0.0,0.0,0.0,0,0.0,0.3707
22283,0,,,9,,,0.07,-0.01,1.0,-0,0,0,0.08,0,,,,,,,,,,,,,,,,
22323,0,,,9,,,0.07,-0.01,1.0,-0,-0,0,0.07,0,,,,,,,,,,,,,,,,
22363,0,,,9,,,0.07,-0.01,1.0,-0,-0,0,0.07,0,,,,,,,,,,,,,,,,
22403,0,,,10,,,0.07,-0.01,1.0,-0,-0,0,0.07,0,,,,,,,,,,,,,,,,
22443,0,,,9,,,0.07,-0.01,1.0,-0,-0,0,0.07,0,0.0,0.0,0.0,0.0,0,0,0.0,0,0.0,-1,0.0,0.0,0.0,0,0.0,0.374
22483,0,,,9,,,0.07,-0.01,1.0,-0,-0,0,0.07,0,,,,,,,,,,,,,,,,
22523,0,,,9,,,0.07,-0.01,1.0,-0,-0,0,0.07,0,,,,,,,,,,,,,,,,
22563,0,,,9,,,0.07,-0.01,1.0,-0,-0,0,0.07,0,,,,,,,,,,,,,,,,
22603,0,,,8,,,0.07,-0.01,1.0,-0,-0,0,0.07,0,,,,,,,,,,,,,,,,
22643,0,,,3,,,0.07,-0.01,0.99,-0,-0,0,0.07,0,0.0,0.0,0.0,0.0,0,0,0.0,0,0.0,-1,0.0,0.0,0.0,0,0.0,0.3774
22683,0,,,5,,,0.07,-0.01,1.02,-0,0,-0,0.07,0,,,,,,,,,,,,,,,,
22723,0,,,6,,,0.07,-0.01,1.01,-0,0,0,0.07,0,,,,,,,,,,,,,,,,
22763,0,,,5,,,0.07,-0.01,1.02,-0,0,-0,0.07,0,,,,,,,,,,,,,,,,
22803,0,,,5,,,0.07,-0.01,1.02,-0,-0,-0,0.07,0,,,,,,,,,,,,,,,,
22843,0,,,6,,,0.07,-0.01,1.04,-0,-0,-0,0.07,0,0.0,0.0,0.0,0.0,0,0,0.0,0,0.0,-1,0.0,0.0,0.0,0,0.0,0.3807
22883,0,,,6,,,0.07,-0.01,1.04,-0,-0,0,0.07,0,,,,,,,,,,,,,,,,
22923,0,,,6,,,0.06,-0.01,1.04,-0,-0,-0,0.06,0,,,,,,,,,,,,,,,,
22963,0,,,7,,,0.06,-0.01,1.03,-0,0,-0,0.06,0,,,,,,,,,,,,,,,,
23003,0,,,6,,,0.06,-0.0,1.05,-0,1,-0,0.06,0,,,,,,,,,,,,,,,,
23043,0,282,280,6,0.23,11.67,0.05,-0.01,1.06,-0,1,-0,0.05,0,0.0,0.0,0.0,0.0,0,0,0.0,0,0.0,-1,0.0,0.0,0.0,0,0.0,0.384
23083,0,,,6,,,0.07,-0.01,1.04,-0,0,-0,0.07,0,,,,,,,,,,,,,,,,
23123,0,,,7,,,0.07,-0.01,1.02,-0,0,-0,0.07,0,,,,,,,,,,,,,,,,
23163,0,,,6,,,0.07,-0.01,1.02,-0,0,-0,0.07,0,,,,,,,,,,,,,,,,
23203,0,,,6,,,0.07,-0.01,0.99,-0,0,-0,0.07,0,,,,,,,,,,,,,,,,
23243,0,,,6,,,0.07,-0.01,1.04,-0,-0,-0,0.07,0,0.0,0.0,0.0,0.0,0,0,0.0,0,0.0,-1,0.0,0.0,0.0,0,0.0,0.3874
23283,0,,,5,,,0.06,-0.01,1.02,-0,-0,0,0.06,0,,,,,,,,,,,,,,,,
23323,0,,,6,,,0.07,-0.01,1.04,-0,-0,0,0.07,0,,,,,,,,,,,,,,,,
23363,0,,,6,,,0.07,-0.01,1.02,-0,-0,-0,0.07,0,,,,,,,,,,,,,,,,
23403,0,,,5,,,0.06,-0.01,0.99,-0,-1,0,0.06,0,,,,,,,,,,,,,,,,
23443,0,,,5,,,0.07,-0.01,0.99,-0,-1,0,0.07,0,0.0,0.0,0.0,0.0,0,0,0.0,0,0.0,-1,0.0,0.0,0.0,0,0.0,0.3907
23483,0,,,6,,,0.07,-0.02,0.95,-0,-1,0,0.07,0,,,,,,,,,,,,,,,,
23523,0,,,7,,,0.07,-0.01,0.99,-0,-0,0,0.07,0,,,,,,,,,,,,,,,,
23563,0,,,7,,,0.07,-0.01,0.97,-0,-0,0,0.07,0,,,,,,,,,,,,,,,,
23603,0,,,7,,,0.07,-0.01,0.98,-0,-0,0,0.07,0,,,,,,,,,,,,,,,,
23643,0,,,7,,,0.08,-0.01,0.99,-0,-0,0,0.08,0,0.0,0.0,0.0,0.0,0,0,0.0,0,0.0,-1,0.0,0.0,0.0,0,0.0,0.394
23683,0,,,6,,,0.07,-0.01,1.0,-0,-0,0,0.07,0,,,,,,,,,,,,,,,,
23723,0,,,6,,,0.06,-0.01,0.98,-0,-1,0,0.07,0,,,,,,,,,,,,,,,,
23763,0,,,6,,,0.07,-0.01,1.0,-0,-0,-0,0.07,0,,,,,,,,,,,,,,,,
23803,0,,,6,,,0.07,-0.01,0.98,-0,-0,0,0.07,0,,,,,,,,,,,,,,,,
23843,0,,,5,,,0.1,-0.01,1.02,-0,-0,-0,0.1,0,0.0,0.0,0.0,0.0,0,0,0.0,0,0.0,-1,0.0,0.0,0.0,0,0.0,0.3974
23883,0,,,6,,,0.1,-0.01,1.04,-0,-0,-0,0.1,0,,,,,,,,,,,,,,,,
23923,0,,,6,,,0.11,-0.01,1.05,-0,1,-0,0.11,0,,,,,,,,,,,,,,,,
23963,0,,,6,,,0.11,-0.01,1.03,-0,0,-0,0.11,0,,,,,,,,,,,,,,,,
24003,0,,,6,,,0.11,-0.01,1.04,-0,1,-0,0.11,0,,,,,,,,,,,,,,,,
24043,0,275,275,6,0.24,12.41,0.1,-0.01,1.03,-0,0,-0,0.1,0,0.0,0.0,0.0,0.0,0,0,0.0,0,0.0,-1,0.0,0.0,0.0,0,0.0,0.4007
24083,0,,,5,,,0.09,-0.01,1.03,-0,-0,-0,0.09,0,,,,,,,,,,,,,,,,
24123,0,,,6,,,0.08,-0.01,1.02,-0,-0,-0,0.08,0,,,,,,,,,,,,,,,,
24163,0,,,7,,,0.08,-0.0,1.04,-0,-0,-0,0.08,0,,,,,,,,,,,,,,,,
24203,0,,,6,,,0.07,-0.0,1.05,-0,-0,-0,0.07,0,,,,,,,,,,,,,,,,
24243,0,,,6,,,0.07,-0.0,1.06,-0,-0,-0,0.07,0,0.0,0.0,0.0,0.0,0,0,0.0,0,0.0,-1,0.0,0.0,0.0,0,0.0,0.404
24283,0,,,6,,,0.07,-0.01,1.06,-0,-0,-0,0.07,0,,,,,,,,,,,,,,,,
24323,0,,,6,,,0.07,-0.01,1.04,-0,-1,0,0.07,0,,,,,,,,,,,,,,,,
24363,0,,,5,,,0.06,-0.0,1.05,-0,-1,0,0.06,0,,,,,,,,,,,,,,,,
24403,0,,,7,,,0.06,-0.01,1.04,-0,-1,-0,0.06,0,,,,,,,,,,,,,,,,
24443,0,,,7,,,0.07,-0.01,1.02,-0,-0,-0,0.07,0,0.0,0.0,0.0,0.0,0,0,0.0,0,0.0,-1,0.0,0.0,0.0,0,0.0,0.4074
24483,0,,,7,,,0.08,-0.01,1.0,-0,0,-0,0.08,0,,,,,,,,,,,,,,,,
24523,0,,,6,,,0.08,-0.01,1.02,-0,0,-0,0.08,0,,,,,,,,,,,,,,,,
24563,0,,,6,,,0.08,-0.01,1.01,-0,-0,-0,0.08,0,,,,,,,,,,,,,,,,
24603,0,,,6,,,0.08,-0.01,1.01,-0,0,-0,0.08,0,,,,,,,,,,,,,,,,
24643,0,,,6,,,0.09,-0.01,1.02,-0,0,-0,0.09,0,0.0,0.0,0.0,0.0,0,0,0.0,0,0.0,-1,0.0,0.0,0.0,0,0.0,0.4107
24683,0,,,7,,,0.1,-0.02,1.01,-0,0,-0,0.1,0,,,,,,,,,,,,,,,,
24723,0,,,7,,,0.09,-0.01,1.01,-0,-0,-0,0.09,0,,,,,,,,,,,,,,,,
24763,0,,,8,,,0.08,-0.01,1.05,-0,-0,-0,0.08,0,,,,,,,,,,,,,,,,
24803,0,,,8,,,0.08,-0.0,1.03,-0,-0,0,0.08,0,,,,,,,,,,,,,,,,
24843,0,,,9,,,0.08,-0.01,1.0,-0,0,0,0.08,0,0.0,0.0,0.0,0.0,0,0,0.0,0,0.0,-1,0.0,0.0,0.0,0,0.0,0.414
24883,0,,,9,,,0.08,-0.0,0.99,-0,-0,0,0.08,0,,,,,,,,,,,,,,,,
24923,0,,,9,,,0.07,-0.0,1.0,-0,-0,0,0.07,0,,,,,,,,,,,,,,,,
24963,0,,,8,,,0.07,-0.01,1.01,-0,-1,0,0.07,0,,,,,,,,,,,,,,,,
25003,0,,,8,,,0.07,-0.01,1.02,-0,-1,0,0.07,0,,,,,,,,,,,,,,,,
25043,0,241,254,8,0.23,12.96,0.07,-0.01,1.04,-0,-1,0,0.07,0,0.0,0.0,0.0,0.0,0,0,0.0,0,0.0,-1,0.0,0.0,0.0,0,0.0,0.4174
25083,0,,,9,,,0.07,-0.01,1.03,-0,-1,0,0.07,0,,,,,,,,,,,,,,,,
25123,0,,,9,,,0.07,-0.01,1.04,-0,-1,0,0.07,0,,,,,,,,,,,,,,,,
25163,0,,,9,,,0.07,-0.01,1.04,-0,-1,0,0.07,0,,,,,,,,,,,,,,,,
25203,0,,,9,,,0.07,-0.01,1.04,-0,-1,0,0.07,0,,,,,,,,,,,,,,,,
25243,0,,,8,,,0.07,-0.01,1.04,-0,-1,0,0.07,0,0.0,0.0,0.0,0.0,0,0,0.0,0,0.0,-1,0.0,0.0,0.0,0,0.0,0.4207
25283,0,,,7,,,0.07,-0.01,1.03,-0,-1,0,0.07,0,,,,,,,,,,,,,,,,
25323,0,,,9,,,0.07,-0.01,1.02,-0,-1,0,0.07,0,,,,,,,,,,,,,,,,
25363,0,,,8,,,0.07,-0.01,1.02,-0,-0,-0,0.07,0,,,,,,,,,,,,,,,,
25403,0,,,8,,,0.07,-0.01,1.02,-0,-0,-0,0.07,0,,,,,,,,,,,,,,,,
25443,0,,,8,,,0.07,-0.01,1.01,-0,-0,-0,0.07,0,0.0,0.0,0.0,0.0,0,0,0.0,0,0.0,-1,0.0,0.0,0.0,0,0.0,0.424
25483,0,,,9,,,0.07,-0.01,1.01,-0,-0,0,0.07,0,,,,,,,,,,,,,,,,
25523,0,,,9,,,0.07,-0.01,1.01,-0,-0,0,0.07,0,,,,,,,,,,,,,,,,
25563,0,,,8,,,0.07,-0.01,1.01,-0,-0,0,0.07,0,,,,,,,,,,,,,,,,
25603,0,,,8,,,0.07,-0.01,1.01,-0,-0,0,0.07,0,,,,,,,,,,,,,,,,
25643,0,,,3,,,0.07,-0.01,0.99,-0,-0,0,0.07,0,0.0,0.0,0.0,0.0,0,0,0.0,0,0.0,-1,0.0,0.0,0.0,0,0.0,0.4274
25683,0,,,4,,,0.07,-0.01,1.01,-0,-0,-0,0.07,0,,,,,,,,,,,,,,,,
25723,0,,,4,,,0.07,-0.01,1.02,-0,-0,-0,0.07,0,,,,,,,,,,,,,,,,
25763,0,,,3,,,0.08,-0.01,1.03,-0,-0,-0,0.08,0,,,,,,,,,,,,,,,,
25803,0,,,5,,,0.07,-0.01,1.03,-0,-0,-0,0.07,0,,,,,,,,,,,,,,,,
25843,0,,,5,,,0.09,-0.01,1.03,-0,-1,0,0.09,0,0.0,0.0,0.0,0.0,0,0,0.0,0,0.0,-1,0.0,0.0,0.0,0,0.0,0.4307
25883,0,,,5,,,0.08,-0.01,1.02,-0,-1,0,0.09,0,,,,,,,,,,,,,,,,
25923,0,,,4,,,0.08,-0.01,0.98,-0,-1,0,0.08,0,,,,,,,,,,,,,,,,
25963,0,,,5,,,0.09,-0.0,1.0,-0,0,0,0.09,0,,,,,,,,,,,,,,,,
26003,0,,,5,,,0.09,-0.0,0.99,-0,1,-0,0.09,0,,,,,,,,,,,,,,,,
26043,0,265,281,5,0.25,11.61,0.09,-0.01,0.98,-0,1,-0,0.09,0,0.0,0.0,0.0,0.0,0,0,0.0,0,0.0,-1,0.0,0.0,0.0,0,0.0,0.434
26083,0,,,6,,,0.09,-0.01,0.97,-0,1,-0,0.09,0,,,,,,,,,,,,,,,,
26123,0,,,5,,,0.09,-0.01,0.98,-0,1,-0,0.09,0,,,,,,,,,,,,,,,,
26163,0,,,5,,,0.09,-0.0,0.98,-0,0,0,0.09,0,,,,,,,,,,,,,,,,
26203,0,,,6,,,0.08,-0.01,0.99,-0,-0,0,0.08,0,,,,,,,,,,,,,,,,
26243,0,,,6,,,0.09,-0.01,0.99,-0,-0,0,0.09,0,0.0,0.0,0.0,0.0,0,0,0.0,0,0.0,-1,0.0,0.0,0.0,0,0.0,0.4374
26283,0,,,6,,,0.09,-0.01,0.98,-0,-0,0,0.09,0,,,,,,,,,,,,,,,,
26323,0,,,6,,,0.09,-0.01,0.96,-0,0,0,0.09,0,,,,,,,,,,,,,,,,
26363,0,,,5,,,0.09,-0.0,0.98,-0,0,-0,0.09,0,,,,,,,,,,,,,,,,
26403,0,,,7,,,0.09,-0.0,1.01,-0,1,-0,0.09,0,,,,,,,,,,,,,,,,
26443,0,,,5,,,0.07,-0.0,1.02,-0,-0,0,0.07,0,0.0,0.0,0.0,0.0,0,0,0.0,0,0.0,-1,0.0,0.0,0.0,0,0.0,0.4407
26483,0,,,6,,,0.06,-0.01,0.99,-0,-0,0,0.06,0,,,,,,,,,,,,,,,,
26523,0,,,5,,,0.06,-0.01,1.02,-0,-1,0,0.06,0,,,,,,,,,,,,,,,,
26563,0,,,5,,,0.06,-0.01,1.03,-0,-1,0,0.06,0,,,,,,,,,,,,,,,,
26603,0,,,7,,,0.07,-0.01,1.02,-0,-0,-0,0.07,0,,,,,,,,,,,,,,,,
26643,0,,,6,,,0.08,-0.01,1.02,-0,0,-0,0.08,0,0.0,0.0,0.0,0.0,0,0,0.0,0,0.0,-1,0.0,0.0,0.0,0,0.0,0.444
26683,0,,,6,,,0.08,-0.01,1.02,-0,0,-0,0.08,0,,,,,,,,,,,,,,,,
26723,0,,,6,,,0.08,-0.01,1.0,-0,1,-0,0.08,0,,,,,,,,,,,,,,,,
26763,0,,,6,,,0.07,-0.01,1.0,-0,0,-0,0.07,0,,,,,,,,,,,,,,,,
26803,0,,,6,,,0.08,-0.0,1.04,-0,-0,-0,0.08,0,,,,,,,,,,,,,,,,
26843,0,,,5,,,0.07,-0.01,0.99,-0,-0,0,0.07,0,0.0,0.0,0.0,0.0,0,0,0.0,0,0.0,-1,0.0,0.0,0.0,0,0.0,0.4474
26883,0,,,6,,,0.07,-0.0,1.01,-0,-0,0,0.07,0,,,,,,,,,,,,,,,,
26923,0,,,7,,,0.07,-0.01,1.0,-0,-0,0,0.07,0,,,,,,,,,,,,,,,,
26963,0,,,7,,,0.07,-0.01,1.03,-0,-0,0,0.07,0,,,,,,,,,,,,,,,,
27003,0,,,7,,,0.06,-0.01,1.04,-0,-1,0,0.06,0,,,,,,,,,,,,,,,,
27043,0,259,275,7,0.25,11.89,0.06,-0.01,1.06,-0,-1,0,0.06,0,0.0,0.0,0.0,0.0,0,0,0.0,0,0.0,-1,0.0,0.0,0.0,0,0.0,0.4507
27083,0,,,7,,,0.06,-0.01,1.06,-0,-0,0,0.06,0,,,,,,,,,,,,,,,,
27123,0,,,7,,,0.06,-0.01,1.07,-0,-0,-0,0.06,0,,,,,,,,,,,,,,,,
27163,0,,,7,,,0.06,-0.01,1.05,-0,-1,-0,0.06,0,,,,,,,,,,,,,,,,
27203,0,,,7,,,0.05,-0.01,1.06,-0,-1,0,0.05,0,,,,,,,,,,,,,,,,
27243,0,,,7,,,0.06,-0.01,1.0,-0,-1,0,0.06,0,0.0,0.0,0.0,0.0,0,0,0.0,0,0.0,-1,0.0,0.0,0.0,0,0.0,0.454
27283,0,,,7,,,0.08,0.0,0.97,-0,-1,0,0.08,0,,,,,,,,,,,,,,,,
27323,0,,,8,,,0.05,-0.01,1.06,-0,-2,1,0.05,0,,,,,,,,,,,,,,,,
27363,0,,,7,,,-0.01,-0.0,1.0,-0,-4,1,0.02,0,,,,,,,,,,,,,,,,
27403,0,,,9,,,0.05,-0.0,0.85,-0,-1,1,0.05,0,,,,,,,,,,,,,,,,
27443,0,,,9,,,-0.15,0.01,0.62,-0,-21,2,0.15,0,0.0,0.0,0.0,0.0,0,0,0.0,0,0.0,-1,0.0,0.0,0.0,0,0.0,0.4574
27483,0,,,11,,,0.07,-0.01,0.58,-0,-26,2,0.07,0,,,,,,,,,,,,,,,,
27523,0,,,10,,,0.44,0.13,0.85,-0,-20,2,0.46,0,,,,,,,,,,,,,,,,
27563,0,,,11,,,0.51,0.12,0.78,-0,-10,-3,0.52,0,,,,,,,,,,,,,,,,
27603,0,,,10,,,0.06,-0.08,0.25,-0,-14,1,0.11,0,,,,,,,,,,,,,,,,
27643,0,,,11,,,0.34,-0.01,0.58,-0,-2,-5,0.34,0,0.0,0.0,0.0,0.0,0,0,0.0,0,0.0,-1,0.0,0.0,0.0,0,0.0,0.4607
27683,0,,,10,,,0.3,-0.04,0.49,1,-6,-3,0.31,0,,,,,,,,,,,,,,,,
27723,0,,,10,,,-0.13,0.14,0.02,0,-20,5,0.19,0,,,,,,,,,,,,,,,,
27763,0,,,10,,,-0.28,0.05,-0.06,-0,-3,-7,0.29,0,,,,,,,,,,,,,,,,
27803,0,,,10,,,-0.4,0.13,-0.43,0,-19,6,0.43,0,,,,,,,,,,,,,,,,
27843,0,,,11,,,-0.02,0.24,-0.1,-0,-6,-1,0.24,0,0.0,0.0,0.0,0.0,0,0,0.0,0,0.0,-1,0.0,0.0,0.0,0,0.0,0.464
27883,0,,,11,,,-0.28,0.15,-0.21,-0,-11,4,0.32,0,,,,,,,,,,,,,,,,
27923,0,,,10,,,-0.23,0.15,-0.55,0,-31,19,0.28,0,,,,,,,,,,,,,,,,
27963,0,,,11,,,-0.51,0.07,-0.66,0,-30,18,0.52,0,,,,,,,,,,,,,,,,
28003,0,,,10,,,-0.43,0.13,-0.55,1,-38,18,0.45,0,,,,,,,,,,,,,,,,
28043,0,262,249,10,0.25,13.26,-0.36,0.14,-0.47,-1,-33,15,0.39,0,0.0,0.0,0.0,0.0,0,0,0.0,0,0.0,-1,0.0,0.0,0.0,0,0.0,0.4674
28083,0,,,11,,,-0.31,0.18,-0.4,-1,-28,15,0.35,0,,,,,,,,,,,,,,,,
28123,0,,,10,,,-0.26,0.24,-0.34,-2,-37,21,0.35,0,,,,,,,,,,,,,,,,
28163,0,,,10,,,0.06,0.25,-0.3,-2,-14,8,0.25,0,,,,,,,,,,,,,,,,
28203,0,,,10,,,-0.05,0.22,-0.22,-3,-13,7,0.23,0,,,,,,,,,,,,,,,,
28243,0,,,10,,,0.3,0.24,0.2,-2,6,-0,0.39,0,0.0,0.0,0.0,0.0,0,0,0.0,0,0.0,-1,0.0,0.0,0.0,0,0.0,0.4707
28283,0,,,11,,,0.26,0.19,-0.22,-1,-6,10,0.32,0,,,,,,,,,,,,,,,,
28323,0,,,11,,,0.04,0.2,-0.56,-0,-30,24,0.2,0,,,,,,,,,,,,,,,,
28363,0,,,11,,,-0.03,0.17,-0.83,0,-42,33,0.17,0,,,,,,,,,,,,,,,,
28403,0,,,11,,,-0.02,0.11,-0.3,-0,-33,26,0.11,0,,,,,,,,,,,,,,,,
28443,0,,,11,,,-0.02,0.11,-0.26,-0,-23,21,0.11,0,0.0,0.0,0.0,0.0,0,0,0.0,0,0.0,-1,0.0,0.0,0.0,0,0.0,0.474
28483,0,,,10,,,-0.12,0.18,-0.59,-0,-20,17,0.22,0,,,,,,,,,,,,,,,,
28523,0,,,10,,,-0.12,0.12,-0.6,0,-16,14,0.17,0,,,,,,,,,,,,,,,,
28563,0,,,11,,,-0.08,0.1,-0.1,-0,-11,10,0.13,0,,,,,,,,,,,,,,,,
28603,0,,,10,,,0.03,0.13,0.3,0,-6,6,0.14,0,,,,,,,,,,,,,,,,
28643,0,,,10,,,0.04,0.11,0.22,0,1,1,0.11,0,0.0,0.0,0.0,0.0,0,0,0.0,0,0.0,-1,0.0,0.0,0.0,0,0.0,0.4774
28683,0,,,11,,,0.17,0.07,0.19,0,-1,4,0.18,0,,,,,,,,,,,,,,,,
28723,0,,,10,,,0.09,-0.02,0.13,0,-6,3,0.09,0,,,,,,,,,,,,,,,,
28763,0,,,11,,,0.46,-0.0,0.49,0,-5,7,0.46,0,,,,,,,,,,,,,,,,
28803,0,,,10,,,0.74,0.01,0.37,0,-16,16,0.74,0,,,,,,,,,,,,,,,,
28843,0,,,10,,,0.5,0.05,0.32,0,-0,8,0.5,0,0.0,0.0,0.0,0.0,0,0,0.0,0,0.0,-1,0.0,0.0,0.0,0,0.0,0.4807
28883,0,,,10,,,0.47,0.19,0.28,0,-10,13,0.51,0,,,,,,,,,,,,,,,,
28923,0,,,11,,,0.06,0.03,0.05,0,-1,6,0.06,0,,,,,,,,,,,,,,,,
28963,0,,,11,,,-0.28,-0.02,-0.34,-0,-9,10,0.28,0,,,,,,,,,,,,,,,,
29003,0,,,11,,,-0.32,-0.05,-0.25,-0,-1,3,0.33,0,,,,,,,,,,,,,,,,
29043,0,260,251,10,0.25,13.35,-0.13,0.0,-0.05,-0,-1,4,0.13,0,0.0,0.0,0.0,0.0,0,0,0.0,0,0.0,-1,0.0,0.0,0.0,0,0.0,0.484
29083,0,,,11,,,-0.35,-0.09,-0.14,-0,-2,3,0.36,0,,,,,,,,,,,,,,,,
29123,0,,,11,,,0.08,0.01,0.26,0,14,-4,0.08,0,,,,,,,,,,,,,,,,
29163,0,,,11,,,0.45,0.03,0.59,0,13,-2,0.45,0,,,,,,,,,,,,,,,,
29203,0,,,11,,,0.47,-0.03,0.79,0,20,-8,0.47,0,,,,,,,,,,,,,,,,
29243,0,,,11,,,0.38,-0.04,0.66,0,10,-2,0.38,0,0.0,0.0,0.0,0.0,0,0,0.0,0,0.0,-1,0.0,0.0,0.0,0,0.0,0.4874
29283,0,,,12,,,0.36,-0.03,0.89,-1,20,-9,0.36,0,,,,,,,,,,,,,,,,
29323,0,,,12,,,0.51,-0.02,1.1,-1,26,-14,0.51,0,,,,,,,,,,,,,,,,
29363,0,,,11,,,0.16,-0.06,0.51,-1,10,-6,0.18,0,,,,,,,,,,,,,,,,
29403,0,,,11,,,0.19,-0.03,0.76,-1,4,-3,0.19,0,,,,,,,,,,,,,,,,
29443,0,,,10,,,0.07,-0.01,0.26,-1,1,-1,0.07,0,0.0,0.0,0.0,0.0,0,0,0.0,0,0.0,-1,0.0,0.0,0.0,0,0.0,0.4907
29483,0,,,10,,,0.12,-0.05,0.59,-1,3,-5,0.13,0,,,,,,,,,,,,,,,,
29523,0,,,11,,,-0.01,-0.02,0.09,-1,-1,3,0.03,0,,,,,,,,,,,,,,,,
29563,0,,,11,,,-0.05,0.06,-0.19,-1,-2,6,0.08,0,,,,,,,,,,,,,,,,
29603,0,,,11,,,-0.05,0.1,-0.42,-1,-2,6,0.11,0,,,,,,,,,,,,,,,,
29643,0,,,10,,,0.01,0.07,0.04,-1,2,1,0.07,0,0.0,0.0,0.0,0.0,0,0,0.0,0,0.0,-1,0.0,0.0,0.0,0,0.0,0.494
29683,0,,,11,,,0.02,0.09,0.08,-1,-3,3,0.09,0,,,,,,,,,,,,,,,,
29723,0,,,11,,,-0.06,0.08,-0.23,-1,-4,5,0.1,0,,,,,,,,,,,,,,,,
29763,0,,,11,,,-0.02,0.06,-0.15,-1,-2,5,0.07,0,,,,,,,,,,,,,,,,
29803,0,,,11,,,0.02,0.03,0.25,-1,1,1,0.03,0,,,,,,,,,,,,,,,,
29843,0,,,11,,,0.1,0.0,0.56,-1,3,-1,0.1,0,0.0,0.0,0.0,0.0,0,0,0.0,0,0.0,-1,0.0,0.0,0.0,0,0.0,0.4974
29883,0,,,11,,,-0.01,0.04,0.39,-0,1,1,0.04,0,,,,,,,,,,,,,,,,
29923,0,,,11,,,0.0,0.04,-0.05,-0,-2,4,0.04,0,,,,,,,,,,,,,,,,
29963,0,,,11,,,0.02,0.03,0.34,-1,0,-1,0.03,0,,,,,,,,,,,,,,,,
30003,0,,,11,,,0.07,0.02,0.42,-0,-0,-1,0.07,0,,,,,,,,,,,,,,,,
30043,0,260,255,11,0.25,13.3,-0.09,0.07,0.23,-0,-4,1,0.11,0,0.0,0.0,0.0,0.0,0,0,0.0,0,0.0,-1,0.0,0.0,0.0,0,0.0,0.5007
30083,0,,,11,,,-0.08,0.07,0.01,-0,-6,3,0.1,0,,,,,,,,,,,,,,,,
30123,0,,,11,,,-0.07,0.06,0.39,0,-3,-2,0.09,0,,,,,,,,,,,,,,,,
30163,0,,,11,,,0.02,0.07,0.65,-0,-0,-4,0.07,0,,,,,,,,,,,,,,,,
30203,0,,,11,,,-0.09,0.14,0.35,-0,-4,-1,0.17,0,,,,,,,,,,,,,,,,
30243,0,,,11,,,-0.03,0.06,0.51,-0,-5,-1,0.06,0,0.0,0.0,0.0,0.0,0,0,0.0,0,0.0,-1,0.0,0.0,0.0,0,0.0,0.504
30283,0,,,11,,,0.07,0.11,0.79,-0,1,-2,0.12,0,,,,,,,,,,,,,,,,
30323,0,,,11,,,-0.06,0.17,0.41,-0,1,-3,0.18,0,,,,,,,,,,,,,,,,
30363,0,,,11,,,-0.1,0.14,0.27,-0,-7,2,0.17,0,,,,,,,,,,,,,,,,
30403,0,,,11,,,-0.16,0.1,-0.16,-1,-13,5,0.19,0,,,,,,,,,,,,,,,,
30443,0,,,10,,,-0.23,0.14,-0.07,-1,-13,-1,0.27,0,0.0,0.0,0.0,0.0,0,0,0.0,0,0.0,-1,0.0,0.0,0.0,0,0.0,0.5074
30483,0,,,10,,,-0.25,0.06,-0.07,-0,-16,3,0.26,0,,,,,,,,,,,,,,,,
30523,0,,,10,,,-0.15,0.06,0.32,-0,-6,2,0.16,0,,,,,,,,,,,,,,,,
30563,0,,,11,,,-0.1,0.08,0.11,-0,-8,3,0.13,0,,,,,,,,,,,,,,,,
30603,0,,,11,,,-0.09,0.01,0.07,-1,5,-8,0.09,0,,,,,,,,,,,,,,,,
30643,0,,,10,,,-0.08,0.18,-0.1,-0,-11,5,0.2,0,0.0,0.0,0.0,0.0,0,0,0.0,0,0.0,-1,0.0,0.0,0.0,0,0.0,0.5107
30683,0,,,11,,,0.09,0.15,-0.1,-1,9,-9,0.17,0,,,,,,,,,,,,,,,,
30723,0,,,11,,,0.2,0.16,-0.06,-1,1,-1,0.26,0,,,,,,,,,,,,,,,,
30763,0,,,11,,,0.21,0.17,-0.03,-1,4,-2,0.27,0,,,,,,,,,,,,,,,,
30803,0,,,11,,,0.17,0.15,-0.01,-1,-2,-3,0.23,0,,,,,,,,,,,,,,,,
30843,0,,,10,,,0.04,0.05,-0.03,-1,-3,1,0.06,0,0.0,0.0,0.0,0.0,0,0,0.0,0,0.0,-1,0.0,0.0,0.0,0,0.0,0.514
30883,0,,,10,,,0.16,0.04,-0.04,-0,1,1,0.16,0,,,,,,,,,,,,,,,,
30923,0,,,11,,,0.13,0.06,0.12,-0,0,-3,0.15,0,,,,,,,,,,,,,,,,
30963,0,,,9,,,-0.0,0.01,-0.29,-0,-2,1,0.01,0,,,,,,,,,,,,,,,,
31003,0,,,10,,,0.17,0.03,0.15,-0,8,-4,0.18,0,,,,,,,,,,,,,,,,
31043,0,257,253,9,0.25,13.35,0.23,-0.04,-0.26,-0,3,2,0.23,0,0.0,0.0,0.0,0.0,0,0,0.0,0,0.0,-1,0.0,0.0,0.0,0,0.0,0.5174
31083,0,,,10,,,0.14,0.04,-0.19,-0,-4,-2,0.15,0,,,,,,,,,,,,,,,,
31123,0,,,10,,,0.06,0.06,0.03,-0,-9,-1,0.08,0,,,,,,,,,,,,,,,,
31163,0,,,10,,,-0.05,0.03,-0.08,-1,-5,1,0.06,0,,,,,,,,,,,,,,,,
31203,0,,,9,,,0.14,0.04,0.31,-0,5,-2,0.15,0,,,,,,,,,,,,,,,,
31243,0,,,9,,,0.11,0.01,-0.13,-0,-4,3,0.11,0,0.0,0.0,0.0,0.0,0,0,0.0,0,0.0,-1,0.0,0.0,0.0,0,0.0,0.5207
31283,0,,,10,,,0.13,0.09,0.28,-0,-7,-2,0.16,0,,,,,,,,,,,,,,,,
31323,0,,,11,,,-0.04,0.03,-0.16,-0,-8,2,0.05,0,,,,,,,,,,,,,,,,
31363,0,,,11,,,0.15,-0.0,0.03,-0,3,-3,0.15,0,,,,,,,,,,,,,,,,
31403,0,,,12,,,0.09,0.01,0.04,-1,-4,1,0.09,0,,,,,,,,,,,,,,,,
31443,0,,,12,,,0.02,0.05,0.33,-0,-7,-1,0.05,0,0.0,0.0,0.0,0.0,0,0,0.0,0,0.0,-1,0.0,0.0,0.0,0,0.0,0.524
31483,0,,,12,,,-0.1,0.01,0.07,-0,-4,2,0.1,0,,,,,,,,,,,,,,,,
31523,0,,,12,,,0.13,0.06,0.44,-0,7,-2,0.14,0,,,,,,,,,,,,,,,,
31563,0,,,11,,,0.08,0.02,0.28,-0,1,1,0.08,0,,,,,,,,,,,,,,,,
31603,0,,,11,,,0.05,0.02,0.4,-0,-2,0,0.06,0,,,,,,,,,,,,,,,,
31643,0,,,11,,,0.03,-0.01,0.35,-0,0,1,0.03,0,0.0,0.0,0.0,0.0,0,0,0.0,0,0.0,-1,0.0,0.0,0.0,0,0.0,0.5274
31683,0,,,12,,,0.2,-0.04,0.26,-0,7,-1,0.2,0,,,,,,,,,,,,,,,,
31723,0,,,11,,,0.1,-0.01,0.23,-0,-0,2,0.1,0,,,,,,,,,,,,,,,,
31763,0,,,12,,,0.08,0.02,0.56,-0,-4,-2,0.09,0,,,,,,,,,,,,,,,,
31803,0,,,12,,,0.04,0.03,0.48,-0,-2,1,0.05,0,,,,,,,,,,,,,,,,
31843,0,,,11,,,0.12,-0.0,0.36,-0,1,2,0.12,0,0.0,0.0,0.0,0.0,0,0,0.0,0,0.0,-1,0.0,0.0,0.0,0,0.0,0.5307
31883,0,,,11,,,0.11,0.03,0.67,-0,-1,-2,0.11,0,,,,,,,,,,,,,,,,
31923,0,,,12,,,-0.02,0.01,0.17,-0,-5,3,0.03,0,,,,,,,,,,,,,,,,
31963,0,,,12,,,0.05,-0.0,0.48,-0,5,-3,0.05,0,,,,,,,,,,,,,,,,
32003,0,,,12,,,0.23,-0.05,0.37,-0,5,2,0.24,0,,,,,,,,,,,,,,,,
32043,0,257,254,12,0.25,13.43,0.14,-0.02,0.32,-0,-1,-2,0.14,0,0.0,0.0,0.0,0.0,0,0,0.0,0,0.0,-1,0.0,0.0,0.0,0,0.0,0.534
32083,0,,,11,,,0.06,0.01,0.57,-0,-6,1,0.06,0,,,,,,,,,,,,,,,,
32123,0,,,12,,,-0.03,-0.05,0.31,-0,3,-2,0.06,0,,,,,,,,,,,,,,,,
32163,0,,,12,,,0.15,0.01,0.63,-0,7,-2,0.15,0,,,,,,,,,,,,,,,,
32203,0,,,11,,,0.09,0.01,0.13,-0,-0,1,0.09,0,,,,,,,,,,,,,,,,
32243,0,,,11,,,0.08,0.05,0.49,-0,-2,-3,0.1,0,0.0,0.0,0.0,0.0,0,0,0.0,0,0.0,-1,0.0,0.0,0.0,0,0.0,0.5374
32283,0,,,11,,,-0.04,0.02,0.23,-0,-3,2,0.05,0,,,,,,,,,,,,,,,,
32323,1616768181287,,,11,,,0.08,0.03,0.57,-0,10,-4,0.08,0,,,,,,,,,,,,,,,,
32363,1616768181327,,,12,,,0.17,-0.02,0.08,-0,4,2,0.17,0,,,,,,,,,,,,,,,,
32403,1616768181367,,,12,,,0.11,0.04,0.16,-0,-2,-3,0.11,0,,,,,,,,,,,,,,,,
32443,1616768181407,,,12,,,-0.0,0.02,0.11,0,-5,2,0.02,0,45.846584,5.178234,0.0,872.0,5,2,3.7,0,0.0,-1,0.0,0.0,0.0,0,0.0,0.5407
32483,1616768181447,,,12,,,-0.03,0.03,0.11,-0,5,-2,0.04,0,,,,,,,,,,,,,,,,
32523,1616768181490,,,12,,,0.11,0.02,0.07,-0,1,3,0.11,0,,,,,,,,,,,,,,,,
32563,1616768181530,,,12,,,0.02,-0.05,0.03,-0,-5,3,0.06,0,,,,,,,,,,,,,,,,
32603,1616768181568,,,11,,,0.05,-0.1,0.01,-0,3,-3,0.11,0,,,,,,,,,,,,,,,,
32643,1616768181608,,,12,,,-0.23,-0.09,-0.37,-0,-24,15,0.25,0,45.846432,5.178154,0.0,885.2,5,2,3.7,0,0.0,-1,0.0,0.0,0.0,0,0.0,0.544
32683,1616768181648,,,12,,,-0.52,-0.15,-0.68,-0,-23,12,0.54,0,,,,,,,,,,,,,,,,
32723,1616768181686,,,11,,,-0.17,0.0,-0.57,-1,-27,14,0.17,0,,,,,,,,,,,,,,,,
32763,1616768181726,,,11,,,-0.1,0.01,-0.45,-2,-11,8,0.1,0,,,,,,,,,,,,,,,,
32803,1616768181768,,,12,,,-0.29,0.02,-0.34,-1,-9,1,0.29,0,,,,,,,,,,,,,,,,
32843,1616768181808,,,12,,,-0.23,0.07,-0.3,-0,-24,12,0.25,0,45.846264,5.178064,3.67,896.1,5,2,3.7,0,0.0,-1,0.0,0.0,0.0,0,0.0,0.5474
32883,1616768181848,,,11,,,-0.21,0.04,-0.18,-1,-1,-4,0.21,0,,,,,,,,,,,,,,,,
32923,1616768181890,,,10,,,-0.27,0.15,-0.36,-1,-23,10,0.31,0,,,,,,,,,,,,,,,,
32963,1616768181930,,,12,,,-0.13,-0.01,-0.11,-1,3,-7,0.13,0,,,,,,,,,,,,,,,,
33003,1616768181968,,,11,,,-0.25,0.11,-0.42,-0,-25,7,0.28,0,,,,,,,,,,,,,,,,
33043,1616768182008,257,250,11,0.25,13.23,-0.53,-0.03,-0.32,-1,-20,4,0.54,0,45.84621,5.178037,4.28,899.0,5,2,3.7,0,0.0,-1,0.0,0.0,0.0,0,0.0,0.5507
33083,1616768182048,,,12,,,-0.14,-0.0,0.12,-1,6,-10,0.14,0,,,,,,,,,,,,,,,,
33123,1616768182088,,,11,,,-0.01,0.1,-0.28,0,-10,5,0.1,0,,,,,,,,,,,,,,,,
33163,1616768182128,,,10,,,-0.33,0.06,-0.61,0,-31,19,0.33,0,,,,,,,,,,,,,,,,
33203,1616768182168,,,12,,,-0.45,0.03,-0.47,0,-18,13,0.45,0,,,,,,,,,,,,,,,,
33243,1616768182208,,,12,,,-0.04,0.04,-0.01,-1,18,-11,0.06,0,45.84613,5.177993,4.79,903.7,5,2,3.7,0,0.0,-1,0.0,0.0,0.0,0,0.0,0.5541
33283,1616768182248,,,11,,,0.35,0.05,0.37,-1,35,-22,0.36,0,,,,,,,,,,,,,,,,
33323,1616768182284,,,12,,,0.57,0.14,0.28,-0,34,-16,0.59,0,,,,,,,,,,,,,,,,
33363,1616768182324,,,12,,,0.43,0.12,-0.15,0,9,-1,0.45,0,,,,,,,,,,,,,,,,
33403,1616768182369,,,12,,,0.04,0.08,-0.5,1,-19,20,0.09,0,,,,,,,,,,,,,,,,
33443,1616768182409,,,11,,,-0.34,0.1,-0.79,0,-39,28,0.35,0,45.846149,5.178023,4.6,900.4,4,2,4.5,0,0.0,-1,0.0,0.0,0.0,0,0.0,0.5574
33483,1616768182449,,,12,,,-0.25,0.04,-0.26,-0,-24,13,0.25,0,,,,,,,,,,,,,,,,
33523,1616768182489,,,12,,,0.09,0.02,0.17,-0,7,-10,0.09,0,,,,,,,,,,,,,,,,
33563,1616768182529,,,12,,,0.32,0.1,0.12,-0,5,-7,0.33,0,,,,,,,,,,,,,,,,
33603,1616768182569,,,12,,,-0.05,0.06,-0.29,-1,-26,14,0.07,0,,,,,,,,,,,,,,,,
33643,1616768182609,,,13,,,-0.35,-0.01,-0.61,-1,-35,19,0.35,0,45.846161,5.178046,3.25,898.6,4,2,4.5,0,0.0,-1,0.0,0.0,0.0,0,0.0,0.5607
33683,1616768182649,,,12,,,-0.54,-0.1,-0.48,-2,-7,-5,0.55,0,,,,,,,,,,,,,,,,
33723,1616768182689,,,11,,,-0.21,-0.05,-0.01,-1,16,-16,0.22,0,,,,,,,,,,,,,,,,
33763,1616768182729,,,11,,,0.21,0.04,0.37,-1,1,-4,0.22,0,,,,,,,,,,,,,,,,
33803,1616768182769,,,11,,,0.31,0.04,-0.08,-1,-32,15,0.31,0,,,,,,,,,,,,,,,,
33843,1616768182809,,,13,,,-0.01,-0.01,-0.44,-1,-31,16,0.01,0,45.846172,5.178064,2.57,897.9,4,2,4.5,0,0.0,-1,0.0,0.0,0.0,0,0.0,0.564
33883,1616768182849,,,13,,,-0.11,-0.04,-0.34,-2,6,-9,0.12,0,,,,,,,,,,,,,,,,
33923,1616768182889,,,12,,,0.29,0.11,0.1,-1,4,-7,0.31,0,,,,,,,,,,,,,,,,
33963,1616768182929,,,11,,,0.11,0.13,-0.3,-2,-27,12,0.17,0,,,,,,,,,,,,,,,,
34003,1616768182969,,,13,,,-0.2,-0.07,-0.5,-2,-8,-3,0.21,0,,,,,,,,,,,,,,,,
34043,1616768183009,198,248,13,0.26,13.41,0.13,0.04,-0.02,-2,16,-13,0.13,0,45.846172,5.178065,1.93,897.6,4,2,4.5,0,0.0,-1,0.0,0.0,0.0,0,0.0,0.5674
34083,1616768183049,,,11,,,0.25,0.07,-0.22,-2,-10,6,0.26,0,,,,,,,,,,,,,,,,
34123,1616768183089,,,12,,,-0.12,0.01,-0.56,-1,-14,10,0.12,0,,,,,,,,,,,,,,,,
34163,1616768183129,,,12,,,-0.02,-0.08,-0.07,-1,12,-10,0.09,0,,,,,,,,,,,,,,,,
34203,1616768183169,,,11,,,0.3,0.13,-0.08,0,-1,1,0.32,0,,,,,,,,,,,,,,,,
34243,1616768183209,,,12,,,-0.09,0.13,-0.45,-1,-2,2,0.16,0,45.846168,5.178067,1.57,897.5,4,2,4.5,0,0.0,-1,0.0,0.0,0.0,0,0.0,0.5707
34283,1616768183249,,,12,,,0.23,0.19,0.02,-1,19,-10,0.3,0,,,,,,,,,,,,,,,,
34323,1616768183285,,,12,,,0.21,0.28,-0.37,-0,-7,9,0.35,0,,,,,,,,,,,,,,,,
34363,1616768183325,,,12,,,0.16,0.23,-0.28,0,22,-7,0.28,0,,,,,,,,,,,,,,,,
34403,1616768183370,,,12,,,0.31,0.3,-0.25,0,-2,5,0.44,0,,,,,,,,,,,,,,,,
34443,1616768183410,,,13,,,-0.04,0.24,-0.18,1,8,-7,0.24,0,45.846168,5.178066,2.13,897.6,4,2,7.1,0,0.0,-1,0.0,0.0,0.0,0,0.0,0.574
34483,1616768183450,,,11,,,0.25,0.36,-0.17,2,2,-3,0.44,0,,,,,,,,,,,,,,,,
34523,1616768183490,,,12,,,-0.13,0.17,-0.35,1,-5,1,0.21,0,,,,,,,,,,,,,,,,
34563,1616768183530,,,12,,,0.28,0.23,-0.31,1,3,-4,0.37,0,,,,,,,,,,,,,,,,
34603,1616768183570,,,12,,,-0.03,0.12,-0.23,-0,-1,-4,0.12,0,,,,,,,,,,,,,,,,
34643,1616768183610,,,11,,,0.18,0.13,-0.21,-0,-11,3,0.22,0,45.846168,5.178066,1.56,897.7,4,2,7.1,0,0.0,-1,0.0,0.0,0.0,0,0.0,0.5774
34683,1616768183650,,,12,,,0.05,0.13,-0.15,-1,1,-5,0.14,0,,,,,,,,,,,,,,,,
34723,1616768183690,,,11,,,-0.06,0.18,-0.5,-2,-28,10,0.19,0,,,,,,,,,,,,,,,,
34763,1616768183730,,,12,,,0.15,0.21,-0.35,-3,-15,-1,0.26,0,,,,,,,,,,,,,,,,
34803,1616768183770,,,13,,,-0.01,0.22,-0.26,-4,-11,-7,0.22,0,,,,,,,,,,,,,,,,
34843,1616768183810,,,11,,,-0.02,0.23,-0.59,-3,-29,5,0.23,0,45.846168,5.178066,1.14,897.9,4,2,7.1,0,0.0,-1,0.0,0.0,0.0,0,0.0,0.5807
34883,1616768183850,,,12,,,0.34,0.27,-0.5,-3,-6,-8,0.44,0,,,,,,,,,,,,,,,,
34923,1616768183890,,,12,,,0.2,0.35,-0.39,-3,-2,-12,0.4,0,,,,,,,,,,,,,,,,
34963,1616768183930,,,10,,,0.14,0.33,-0.69,-2,-15,2,0.36,0,,,,,,,,,,,,,,,,
35003,1616768183970,,,11,,,0.41,0.29,-0.58,-4,3,-8,0.5,0,,,,,,,,,,,,,,,,
35043,1616768184010,209,248,13,0.25,13.22,0.12,0.27,-0.45,-3,-3,-6,0.29,0,45.846168,5.178066,1.59,898.0,4,2,7.1,0,0.0,-1,0.0,0.0,0.0,0,0.0,0.584
35083,1616768184050,,,11,,,0.18,0.33,-0.39,-2,-11,0,0.38,0,,,,,,,,,,,,,,,,
35123,1616768184090,,,13,,,0.17,0.19,-0.29,-2,10,-13,0.26,0,,,,,,,,,,,,,,,,
35163,1616768184130,,,12,,,0.1,0.24,-0.62,-3,-16,4,0.26,0,,,,,,,,,,,,,,,,
35203,1616768184170,,,13,,,0.19,0.12,-0.12,-3,11,-12,0.22,0,,,,,,,,,,,,,,,,
35243,1616768184210,,,10,,,-0.04,0.14,-0.48,-2,-10,4,0.15,0,45.846168,5.178065,1.48,898.0,4,2,7.1,0,0.0,-1,0.0,0.0,0.0,0,0.0,0.5874
35283,1616768184250,,,13,,,0.35,0.13,-0.08,-3,16,-12,0.38,0,,,,,,,,,,,,,,,,
35323,1616768184284,,,12,,,0.27,0.03,-0.44,-2,6,-1,0.28,0,,,,,,,,,,,,,,,,
35363,1616768184324,,,12,,,0.26,-0.05,-0.05,-2,24,-8,0.27,0,,,,,,,,,,,,,,,,
35403,1616768184369,,,13,,,-0.08,0.07,-0.42,-2,23,-10,0.11,0,,,,,,,,,,,,,,,,
35443,1616768184409,,,11,,,-0.05,0.11,-0.36,-1,3,1,0.13,0,45.846172,5.178068,0.0,897.9,4,2,4.5,0,0.0,-1,0.0,0.0,0.0,0,0.0,0.5907
35483,1616768184449,,,11,,,0.01,0.13,0.09,-1,4,-3,0.13,0,,,,,,,,,,,,,,,,
35523,1616768184489,,,12,,,0.04,0.1,0.09,-2,15,-8,0.11,0,,,,,,,,,,,,,,,,
35563,1616768184529,,,13,,,-0.11,0.17,0.09,-0,10,-10,0.21,0,,,,,,,,,,,,,,,,
35603,1616768184569,,,12,,,-0.1,0.23,-0.31,1,12,-9,0.25,0,,,,,,,,,,,,,,,,
35643,1616768184609,,,13,,,-0.1,0.17,-0.27,1,6,-3,0.19,0,45.846176,5.178072,0.0,897.8,4,2,4.5,0,0.0,-1,0.0,0.0,0.0,0,0.0,0.594
35683,1616768184649,,,12,,,-0.09,0.21,-0.24,1,-3,2,0.23,0,,,,,,,,,,,,,,,,
35723,1616768184689,,,12,,,-0.09,0.21,-0.21,-0,-10,6,0.23,0,,,,,,,,,,,,,,,,
35763,1616768184729,,,12,,,-0.08,0.25,-0.19,0,-11,7,0.26,0,,,,,,,,,,,,,,,,
35803,1616768184769,,,12,,,-0.08,0.27,-0.18,-1,-10,7,0.28,0,,,,,,,,,,,,,,,,
35843,1616768184809,,,12,,,-0.08,0.21,-0.16,0,1,6,0.22,0,45.84618,5.178074,0.0,897.7,4,2,4.5,0,0.0,-1,0.0,0.0,0.0,0,0.0,0.5974
35883,1616768184849,,,12,,,-0.08,0.12,-0.15,1,13,2,0.14,0,,,,,,,,,,,,,,,,
35923,1616768184889,,,13,,,0.12,0.13,-0.1,2,20,-4,0.18,0,,,,,,,,,,,,,,,,
35963,1616768184929,,,12,,,0.25,0.07,-0.06,1,13,-1,0.26,0,,,,,,,,,,,,,,,,
36003,1616768184969,,,12,,,-0.13,-0.01,-0.43,1,3,4,0.13,0,,,,,,,,,,,,,,,,
