"Interval"|"ms"|0|0|1,"Utc"|"ms"|0|0|1,"EngineTemp"|"F"|0|300|1,"OilTemp"|"F"|0|300|1,"OilPress"|"PSI"|0|150|25,"Battery"|"Volts"|0.0|20.0|1,"Battery"|"Volts"|0.0|20.0|1,"AccelX"|"G"|-3.0|3.0|25,"AccelY"|"G"|-3.0|3.0|25,"AccelZ"|"G"|-3.0|3.0|25,"Yaw"|"Deg/Sec"|-120|120|25,"Pitch"|"Deg/Sec"|-120|120|25,"Roll"|"Deg/Sec"|-120|120|25,"Gsum"|"G"|0.0|3.0|25,"RPM"|""|0|10000|25,"Latitude"|"Degrees"|-180.0|180.0|10,"Longitude"|"Degrees"|-180.0|180.0|10,"Speed"|"mph"|0.0|150.0|10,"Altitude"|"ft"|0.0|4000.0|10,"GPSSats"|""|0|20|10,"GPSQual"|""|0|5|10,"GPSDOP"|""|0.0|20.0|10,"LapCount"|""|0|0|10,"LapTime"|"Min"|0.0|0.0|10,"Sector"|""|0|0|10,"SectorTime"|"Min"|0.0|0.0|10,"PredTime"|"Min"|0.0|0.0|5,"ElapsedTime"|"Min"|0.0|0.0|10,"CurrentLap"|""|0|0|10,"Distance"|"mi"|0.0|0.0|10,"SessionTime"|"Min"|0.0|0.0|10
560083,1616768709055,,,20,,,0.13,-0.03,0.04,-0,6,-3,0.13,0,,,,,,,,,,,,,,,,
560123,1616768709099,,,21,,,0.19,-0.06,0.05,-0,7,-1,0.2,0,,,,,,,,,,,,,,,,
560163,1616768709139,,,21,,,0.08,-0.05,0.06,-0,3,1,0.1,0,,,,,,,,,,,,,,,,
560203,1616768709179,,,20,,,0.05,-0.06,-0.22,-0,5,3,0.08,0,,,,,,,,,,,,,,,,
560243,1616768709221,,,21,,,0.09,-0.06,-0.1,0,5,5,0.11,0,45.845627,5.178792,38.96,723.5,6,2,3.1,0,0.0,-1,0.0,0.0,0.0,0,2.06,9.3374
560283,1616768709261,,,20,,,0.07,-0.34,0.3,1,5,3,0.35,0,,,,,,,,,,,,,,,,
560323,1616768709301,,,21,,,0.11,-0.18,0.22,0,4,2,0.21,0,,,,,,,,,,,,,,,,
560363,1616768709341,,,21,,,0.11,-0.18,0.16,0,5,1,0.21,0,,,,,,,,,,,,,,,,
560403,1616768709381,,,20,,,0.16,-0.1,0.39,1,5,3,0.19,0,,,,,,,,,,,,,,,,
560443,1616768709421,,,19,,,0.07,-0.1,0.29,1,3,1,0.12,0,45.845638,5.1788,26.76,723.6,6,2,3.1,0,0.0,-1,0.0,0.0,0.0,0,2.06,9.3407
560483,1616768709461,,,20,,,0.13,0.01,0.22,0,5,-1,0.13,0,,,,,,,,,,,,,,,,
560523,1616768709501,,,20,,,0.17,0.07,0.4,-0,3,1,0.18,0,,,,,,,,,,,,,,,,
560563,1616768709541,,,21,,,0.09,-0.02,0.16,-1,-3,3,0.09,0,,,,,,,,,,,,,,,,
560603,1616768709581,,,20,,,0.21,-0.04,0.51,-1,-1,2,0.21,0,,,,,,,,,,,,,,,,
560643,1616768709621,,,19,,,0.3,0.12,0.48,-1,2,1,0.32,0,45.845646,5.178805,18.61,723.8,6,2,3.1,0,0.0,-1,0.0,0.0,0.0,0,2.06,9.3441
560683,1616768709661,,,19,,,0.27,0.07,0.4,-1,-0,3,0.28,0,,,,,,,,,,,,,,,,
560723,1616768709701,,,19,,,0.41,0.1,0.3,-2,-2,6,0.43,0,,,,,,,,,,,,,,,,
560763,1616768709741,,,20,,,0.6,0.05,0.47,-2,-1,5,0.6,0,,,,,,,,,,,,,,,,
560803,1616768709781,,,20,,,0.71,0.07,0.7,-2,4,1,0.72,0,,,,,,,,,,,,,,,,
560843,1616768709821,,,20,,,0.58,0.0,0.52,-3,0,3,0.58,0,45.845654,5.17881,13.44,723.8,6,2,3.1,0,0.0,-1,0.0,0.0,0.0,0,2.06,9.3474
560883,1616768709861,,,20,,,0.62,0.02,0.45,-4,1,3,0.62,0,,,,,,,,,,,,,,,,
560923,1616768709900,,,20,,,0.55,-0.0,0.38,-4,3,3,0.55,0,,,,,,,,,,,,,,,,
560963,1616768709940,,,20,,,0.48,-0.04,0.69,-5,4,1,0.48,0,,,,,,,,,,,,,,,,
561003,1616768709980,,,20,,,0.4,0.06,0.73,-5,1,2,0.4,0,,,,,,,,,,,,,,,,
561043,1616768710012,302,155,20,0.17,13.7,0.37,0.22,0.88,-5,4,2,0.43,0,45.845654,5.178813,10.1,723.9,6,2,3.1,0,0.0,-1,0.0,0.0,0.0,0,2.06,9.3507
561083,1616768710052,,,19,,,0.34,0.21,0.85,-6,-2,1,0.4,0,,,,,,,,,,,,,,,,
561123,1616768710100,,,20,,,0.46,0.23,0.87,-6,0,1,0.52,0,,,,,,,,,,,,,,,,
561163,1616768710140,,,20,,,0.52,0.15,0.63,-6,4,1,0.54,0,,,,,,,,,,,,,,,,
561203,1616768710180,,,20,,,0.75,0.08,0.75,-7,2,1,0.75,0,,,,,,,,,,,,,,,,
561243,1616768710220,,,21,,,0.76,0.06,0.46,-8,0,0,0.76,0,45.845654,5.178817,8.34,723.9,6,2,3.1,0,0.0,-1,0.0,0.0,0.0,0,2.06,9.354
561283,1616768710260,,,20,,,0.87,0.02,0.39,-9,5,-1,0.87,0,,,,,,,,,,,,,,,,
561323,1616768710300,,,20,,,0.88,0.01,0.16,-11,2,-0,0.88,0,,,,,,,,,,,,,,,,
561363,1616768710340,,,20,,,0.87,-0.06,-0.01,-12,4,1,0.87,0,,,,,,,,,,,,,,,,
561403,1616768710380,,,20,,,0.89,-0.06,0.01,-13,-0,5,0.89,0,,,,,,,,,,,,,,,,
561443,1616768710420,,,20,,,0.87,-0.03,0.35,-15,-3,4,0.87,0,45.845654,5.178821,8.05,723.9,6,2,3.1,0,0.0,-1,0.0,0.0,0.0,0,2.06,9.3574
561483,1616768710460,,,21,,,0.84,-0.09,0.34,-17,-4,4,0.84,0,,,,,,,,,,,,,,,,
561523,1616768710502,,,20,,,0.83,-0.01,-0.1,-19,-5,5,0.83,0,,,,,,,,,,,,,,,,
561563,1616768710542,,,20,,,0.85,-0.05,0.26,-22,1,0,0.85,0,,,,,,,,,,,,,,,,
561603,1616768710582,,,20,,,0.91,-0.07,0.22,-25,-3,2,0.91,0,,,,,,,,,,,,,,,,
561643,1616768710620,,,21,,,0.98,-0.08,0.2,-28,-0,-0,0.99,0,45.845646,5.178826,8.52,723.9,6,2,3.1,0,0.0,-1,0.0,0.0,0.0,0,2.06,9.3607
561683,1616768710660,,,21,,,0.94,-0.1,0.19,-32,2,-1,0.94,0,,,,,,,,,,,,,,,,
561723,1616768710700,,,19,,,1.06,-0.12,0.41,-36,2,-1,1.07,0,,,,,,,,,,,,,,,,
561763,1616768710740,,,20,,,1.06,-0.27,-0.01,-41,-6,2,1.09,0,,,,,,,,,,,,,,,,
561803,1616768710780,,,19,,,1.06,-0.31,0.11,-45,-14,3,1.1,0,,,,,,,,,,,,,,,,
561843,1616768710820,,,20,,,1.0,-0.39,0.11,-47,-17,4,1.08,0,45.845638,5.178833,10.28,723.9,6,2,3.1,0,0.0,-1,0.0,0.0,0.0,0,2.06,9.364
561883,1616768710860,,,19,,,0.99,-0.35,0.2,-48,-20,4,1.05,0,,,,,,,,,,,,,,,,
561923,1616768710899,,,20,,,1.04,-0.29,0.33,-47,-20,4,1.08,0,,,,,,,,,,,,,,,,
561963,1616768710939,,,21,,,1.01,-0.2,0.28,-44,-15,1,1.03,0,,,,,,,,,,,,,,,,
562003,1616768710979,,,22,,,0.98,-0.2,0.21,-40,-15,2,1.0,0,,,,,,,,,,,,,,,,
562043,1616768711015,302,149,22,0.17,13.69,1.04,-0.14,0.55,-36,-9,-3,1.05,0,45.845627,5.17884,11.75,724.0,6,2,3.1,0,0.0,-1,0.0,0.0,0.0,0,2.06,9.3674
562083,1616768711055,,,21,,,0.92,-0.06,0.21,-31,-13,1,0.92,0,,,,,,,,,,,,,,,,
562123,1616768711099,,,22,,,0.83,-0.08,0.51,-27,-7,-3,0.83,0,,,,,,,,,,,,,,,,
562163,1616768711139,,,22,,,0.96,-0.29,0.69,-23,1,-9,1.0,0,,,,,,,,,,,,,,,,
562203,1616768711179,,,22,,,1.05,-0.39,0.94,-21,1,-11,1.12,0,,,,,,,,,,,,,,,,
562243,1616768711219,,,22,,,1.01,-0.39,1.14,-19,2,-13,1.08,0,45.845612,5.178848,13.5,724.0,6,2,3.1,0,0.0,-1,0.0,0.0,0.0,0,2.06,9.3707
562283,1616768711259,,,22,,,0.81,-0.26,0.83,-16,-1,-9,0.85,0,,,,,,,,,,,,,,,,
562323,1616768711299,,,22,,,0.89,-0.21,0.91,-13,1,-9,0.91,0,,,,,,,,,,,,,,,,
562363,1616768711339,,,22,,,0.84,-0.27,0.71,-10,1,-6,0.88,0,,,,,,,,,,,,,,,,
562403,1616768711379,,,22,,,0.77,-0.36,0.69,-8,4,-8,0.85,0,,,,,,,,,,,,,,,,
562443,1616768711419,,,22,,,0.87,-0.58,0.93,-7,1,-6,1.05,0,45.845604,5.178862,15.62,723.9,6,2,2.1,0,0.0,-1,0.0,0.0,0.0,0,2.07,9.3741
562483,1616768711459,,,22,,,0.93,-0.64,0.74,-5,1,-3,1.13,0,,,,,,,,,,,,,,,,
562523,1616768711499,,,23,,,0.83,-0.61,0.83,-5,3,-4,1.03,0,,,,,,,,,,,,,,,,
562563,1616768711539,,,22,,,0.86,-0.5,0.89,-5,3,-2,1.0,0,,,,,,,,,,,,,,,,
562603,1616768711579,,,23,,,0.88,-0.44,0.74,-4,5,-5,0.98,0,,,,,,,,,,,,,,,,
562643,1616768711619,,,22,,,0.86,-0.3,0.9,-3,5,-5,0.91,0,45.845592,5.178878,17.76,723.9,6,2,2.1,0,0.0,-1,0.0,0.0,0.0,0,2.07,9.3774
562683,1616768711659,,,24,,,0.94,-0.31,0.75,-2,8,-7,0.99,0,,,,,,,,,,,,,,,,
562723,1616768711699,,,23,,,0.89,-0.09,0.52,-1,6,-4,0.9,0,,,,,,,,,,,,,,,,
562763,1616768711739,,,23,,,0.79,-0.16,0.29,-0,3,-2,0.81,0,,,,,,,,,,,,,,,,
562803,1616768711779,,,23,,,0.67,-0.02,0.22,1,1,-1,0.67,0,,,,,,,,,,,,,,,,
562843,1616768711819,,,23,,,0.73,-0.12,0.33,2,2,-2,0.74,0,45.845577,5.178897,20.4,723.9,6,2,2.1,0,0.0,-1,0.0,0.0,0.0,0,2.07,9.3807
562883,1616768711859,,,23,,,0.68,-0.07,0.28,2,4,-1,0.68,0,,,,,,,,,,,,,,,,
562923,1616768711898,,,23,,,0.82,-0.18,0.33,2,4,-2,0.84,0,,,,,,,,,,,,,,,,
562963,1616768711938,,,24,,,0.78,-0.14,0.41,2,6,-1,0.79,0,,,,,,,,,,,,,,,,
563003,1616768711978,,,24,,,0.7,-0.13,0.35,1,3,0,0.71,0,,,,,,,,,,,,,,,,
563043,1616768712012,302,145,24,0.18,13.83,0.66,-0.09,0.44,1,4,0,0.67,0,45.845562,5.178915,21.89,723.9,6,2,2.1,0,0.0,-1,0.0,0.0,0.0,0,2.07,9.3841
563083,1616768712052,,,24,,,0.61,-0.12,0.74,0,3,1,0.62,0,,,,,,,,,,,,,,,,
563123,1616768712098,,,23,,,0.4,-0.09,0.58,-1,3,1,0.41,0,,,,,,,,,,,,,,,,
563163,1616768712138,,,23,,,0.64,-0.13,0.85,-2,3,-3,0.65,0,,,,,,,,,,,,,,,,
563203,1616768712178,,,24,,,0.68,-0.18,0.48,-4,-3,1,0.7,0,,,,,,,,,,,,,,,,
563243,1616768712220,,,22,,,0.62,-0.15,0.22,-5,-8,2,0.64,0,45.845547,5.178935,24.44,723.9,6,2,3.1,0,0.0,-1,0.0,0.0,0.0,0,2.07,9.3874
563283,1616768712260,,,22,,,0.54,-0.1,0.35,-6,-9,2,0.55,0,,,,,,,,,,,,,,,,
563323,1616768712300,,,23,,,0.53,-0.1,0.3,-7,1,0,0.54,0,,,,,,,,,,,,,,,,
563363,1616768712340,,,23,,,0.76,-0.11,0.36,-7,5,2,0.77,0,,,,,,,,,,,,,,,,
563403,1616768712380,,,23,,,0.68,-0.16,-0.09,-7,0,3,0.7,0,,,,,,,,,,,,,,,,
563443,1616768712420,,,23,,,0.5,-0.19,0.31,-7,-6,2,0.54,0,45.845528,5.178958,26.93,723.9,6,2,3.1,0,0.0,-1,0.0,0.0,0.0,0,2.07,9.3907
563483,1616768712460,,,23,,,0.53,-0.06,0.63,-7,-5,2,0.53,0,,,,,,,,,,,,,,,,
563523,1616768712500,,,24,,,0.48,-0.04,0.61,-6,-2,1,0.48,0,,,,,,,,,,,,,,,,
563563,1616768712540,,,23,,,0.4,-0.01,0.88,-5,1,0,0.4,0,,,,,,,,,,,,,,,,
563603,1616768712580,,,23,,,0.53,0.05,0.99,-5,3,-1,0.53,0,,,,,,,,,,,,,,,,
563643,1616768712620,,,24,,,0.66,0.06,1.1,-4,5,-0,0.66,0,45.845512,5.178982,28.18,723.9,6,2,3.1,0,0.0,-1,0.0,0.0,0.0,0,2.07,9.394
563683,1616768712660,,,22,,,0.58,0.09,0.95,-4,7,0,0.58,0,,,,,,,,,,,,,,,,
563723,1616768712700,,,22,,,0.47,0.02,0.48,-4,14,0,0.47,0,,,,,,,,,,,,,,,,
563763,1616768712740,,,23,,,0.49,-0.06,0.47,-5,23,-4,0.49,0,,,,,,,,,,,,,,,,
563803,1616768712780,,,22,,,0.46,-0.18,0.31,-6,17,-3,0.5,0,,,,,,,,,,,,,,,,
563843,1616768712820,,,22,,,0.24,-0.19,0.49,-7,11,-3,0.31,0,45.845493,5.179006,29.49,723.9,6,2,3.1,0,0.0,-1,0.0,0.0,0.0,0,2.07,9.3974
563883,1616768712860,,,22,,,0.11,-0.23,0.42,-9,8,-1,0.25,0,,,,,,,,,,,,,,,,
563923,1616768712899,,,22,,,0.01,-0.31,0.63,-10,9,-1,0.31,0,,,,,,,,,,,,,,,,
563963,1616768712939,,,22,,,-0.1,-0.35,0.77,-12,5,-3,0.37,0,,,,,,,,,,,,,,,,
564003,1616768712979,,,22,,,-0.21,-0.49,0.6,-14,6,-1,0.53,0,,,,,,,,,,,,,,,,
564043,1616768713015,302,156,22,0.17,13.73,-0.34,-0.61,0.47,-16,3,-0,0.7,0,45.845474,5.179033,31.07,723.9,6,2,3.1,0,0.0,-1,0.0,0.0,0.0,0,2.08,9.4007
564083,1616768713055,,,22,,,-0.24,-0.65,0.76,-18,6,-4,0.7,0,,,,,,,,,,,,,,,,
564123,1616768713101,,,22,,,-0.4,-0.86,0.39,-20,0,0,0.95,0,,,,,,,,,,,,,,,,
564163,1616768713141,,,22,,,-0.3,-0.85,0.69,-21,6,-3,0.9,0,,,,,,,,,,,,,,,,
564203,1616768713181,,,22,,,-0.15,-0.9,0.94,-23,17,-13,0.91,0,,,,,,,,,,,,,,,,
564243,1616768713221,,,23,,,-0.22,-0.93,1.11,-24,17,-16,0.96,0,45.845455,5.179065,33.0,723.9,6,2,3.1,0,0.0,-1,0.0,0.0,0.0,0,2.08,9.404
564283,1616768713261,,,22,,,-0.31,-0.97,0.52,-24,10,-11,1.02,0,,,,,,,,,,,,,,,,
564323,1616768713301,,,21,,,-0.4,-1.04,0.04,-24,-5,-0,1.11,0,,,,,,,,,,,,,,,,
564363,1616768713341,,,22,,,-0.52,-1.04,-0.35,-23,-15,7,1.16,0,,,,,,,,,,,,,,,,
564403,1616768713381,,,22,,,-0.73,-1.05,-0.66,-22,-24,13,1.28,0,,,,,,,,,,,,,,,,
564443,1616768713421,,,22,,,-0.78,-1.07,-0.92,-22,-29,15,1.32,0,45.84544,5.179101,34.61,723.9,6,2,3.1,0,0.0,-1,0.0,0.0,0.0,0,2.08,9.4074
564483,1616768713461,,,23,,,-0.74,-1.09,-0.72,-21,-16,6,1.32,0,,,,,,,,,,,,,,,,
564523,1616768713501,,,22,,,-0.3,-0.82,-0.21,-21,13,-11,0.87,0,,,,,,,,,,,,,,,,
564563,1616768713541,,,21,,,-0.23,-0.74,-0.32,-20,5,-2,0.77,0,,,,,,,,,,,,,,,,
564603,1616768713581,,,23,,,-0.48,-0.84,-0.41,-21,-5,4,0.97,0,,,,,,,,,,,,,,,,
564643,1616768713621,,,21,,,-0.22,-0.68,-0.32,-22,13,-5,0.72,0,45.845428,5.179137,35.81,723.9,6,2,3.1,0,0.0,-1,0.0,0.0,0.0,0,2.08,9.4107
564683,1616768713661,,,23,,,-0.43,-0.75,-0.4,-23,4,1,0.87,0,,,,,,,,,,,,,,,,
564723,1616768713701,,,21,,,-0.3,-0.78,-0.34,-24,-3,4,0.84,0,,,,,,,,,,,,,,,,
564763,1616768713741,,,21,,,-0.19,-0.69,-0.16,-25,10,0,0.72,0,,,,,,,,,,,,,,,,
564803,1616768713781,,,22,,,-0.15,-0.82,-0.11,-27,12,-4,0.83,0,,,,,,,,,,,,,,,,
564843,1616768713821,,,23,,,-0.18,-0.84,-0.07,-29,3,-5,0.86,0,45.845417,5.179172,35.39,723.9,6,2,3.1,0,0.0,-1,0.0,0.0,0.0,0,2.08,9.4141
564883,1616768713861,,,23,,,-0.12,-0.91,-0.04,-31,6,-4,0.92,0,,,,,,,,,,,,,,,,
564923,1616768713900,,,22,,,-0.07,-0.97,-0.01,-32,4,-2,0.97,0,,,,,,,,,,,,,,,,
564963,1616768713940,,,22,,,-0.21,-1.03,-0.19,-34,-2,3,1.05,0,,,,,,,,,,,,,,,,
565003,1616768713980,,,22,,,-0.16,-1.02,0.0,-35,10,-3,1.03,0,,,,,,,,,,,,,,,,
565043,1616768714014,302,158,22,0.17,13.75,-0.46,-1.19,-0.38,-36,14,-4,1.27,0,45.845421,5.179212,35.72,723.9,6,2,2.1,0,0.0,-1,0.0,0.0,0.0,0,2.09,9.4174
565083,1616768714054,,,22,,,-0.72,-1.32,-0.6,-38,15,-5,1.51,0,,,,,,,,,,,,,,,,
565123,1616768714098,,,23,,,-0.91,-1.4,-0.63,-40,19,-8,1.67,0,,,,,,,,,,,,,,,,
565163,1616768714138,,,23,,,-0.73,-1.34,-0.21,-42,16,-8,1.53,0,,,,,,,,,,,,,,,,
565203,1616768714178,,,22,,,-0.73,-1.24,-0.15,-44,16,-8,1.44,0,,,,,,,,,,,,,,,,
565243,1616768714218,,,23,,,-0.72,-1.22,-0.19,-45,12,-6,1.42,0,45.845425,5.179255,36.76,724.0,6,2,2.1,0,0.0,-1,0.0,0.0,0.0,0,2.09,9.4207
565283,1616768714258,,,22,,,-0.57,-1.18,0.22,-46,10,-7,1.31,0,,,,,,,,,,,,,,,,
565323,1616768714300,,,23,,,-0.54,-1.14,0.04,-48,3,-2,1.26,0,,,,,,,,,,,,,,,,
565363,1616768714340,,,23,,,-0.64,-1.14,0.08,-49,6,-3,1.31,0,,,,,,,,,,,,,,,,
565403,1616768714380,,,23,,,-0.33,-1.14,0.13,-51,10,-4,1.19,0,,,,,,,,,,,,,,,,
565443,1616768714420,,,23,,,-0.58,-1.17,0.37,-53,6,-4,1.31,0,45.845425,5.179295,36.61,724.0,6,2,2.1,0,0.0,-1,0.0,0.0,0.0,0,2.09,9.4241
565483,1616768714460,,,23,,,-0.77,-1.13,0.66,-54,-19,-2,1.37,0,,,,,,,,,,,,,,,,
565523,1616768714500,,,23,,,-0.89,-1.15,0.55,-55,-46,0,1.45,0,,,,,,,,,,,,,,,,
565563,1616768714540,,,23,,,-0.88,-1.14,0.17,-56,-61,3,1.44,0,,,,,,,,,,,,,,,,
565603,1616768714580,,,23,,,-0.36,-1.14,-0.24,-57,-52,4,1.19,0,,,,,,,,,,,,,,,,
565643,1616768714620,,,23,,,-0.01,-1.2,-0.57,-59,-41,3,1.2,0,45.845425,5.179336,36.42,724.0,6,2,2.1,0,0.0,-1,0.0,0.0,0.0,0,2.09,9.4274
565683,1616768714660,,,23,,,0.18,-1.27,-0.84,-61,-48,4,1.28,0,,,,,,,,,,,,,,,,
565723,1616768714700,,,23,,,0.41,-1.31,-1.06,-62,-48,5,1.37,0,,,,,,,,,,,,,,,,
565763,1616768714740,,,22,,,0.68,-1.25,-1.0,-64,-23,1,1.42,0,,,,,,,,,,,,,,,,
565803,1616768714780,,,23,,,0.44,-1.3,-0.46,-66,-6,-2,1.37,0,,,,,,,,,,,,,,,,
565843,1616768714822,,,24,,,-0.02,-1.25,0.01,-66,-11,-0,1.25,0,45.845428,5.179376,36.25,724.0,6,2,2.5,0,0.0,-1,0.0,0.0,0.0,0,2.09,9.4307
565883,1616768714862,,,23,,,-0.16,-1.33,0.16,-67,-25,1,1.34,0,,,,,,,,,,,,,,,,
565923,1616768714901,,,24,,,-0.15,-1.28,0.41,-68,-13,-4,1.29,0,,,,,,,,,,,,,,,,
565963,1616768714941,,,23,,,-0.46,-1.3,0.71,-69,-22,-3,1.38,0,,,,,,,,,,,,,,,,
566003,1616768714981,,,24,,,-0.18,-1.32,0.89,-71,-27,-1,1.33,0,,,,,,,,,,,,,,,,
566043,1616768715021,302,159,23,0.17,13.81,-0.34,-1.36,0.83,-72,-23,-0,1.4,0,45.845428,5.179415,35.83,724.0,6,2,2.5,0,0.0,-1,0.0,0.0,0.0,0,2.1,9.434
566083,1616768715061,,,23,,,-0.07,-1.34,0.81,-74,-17,-1,1.34,0,,,,,,,,,,,,,,,,
566123,1616768715101,,,23,,,-0.24,-1.26,0.59,-76,-14,-1,1.28,0,,,,,,,,,,,,,,,,
566163,1616768715141,,,24,,,0.03,-1.27,0.86,-77,0,-5,1.27,0,,,,,,,,,,,,,,,,
566203,1616768715181,,,24,,,-0.11,-1.25,0.91,-79,-6,-4,1.26,0,,,,,,,,,,,,,,,,
566243,1616768715221,,,24,,,0.05,-1.25,0.99,-80,3,-4,1.25,0,45.845421,5.17943,26.01,724.1,6,2,3.1,0,0.0,-1,0.0,0.0,0.0,0,2.1,9.4374
566283,1616768715261,,,23,,,-0.08,-1.15,0.71,-80,-5,-3,1.15,0,,,,,,,,,,,,,,,,
566323,1616768715301,,,24,,,0.1,-1.08,0.96,-77,10,-8,1.08,0,,,,,,,,,,,,,,,,
566363,1616768715341,,,22,,,0.03,-0.93,0.83,-72,1,-5,0.93,0,,,,,,,,,,,,,,,,
566403,1616768715381,,,24,,,0.16,-0.93,0.84,-65,10,-5,0.94,0,,,,,,,,,,,,,,,,
566443,1616768715421,,,22,,,0.0,-0.87,0.63,-58,-2,-2,0.87,0,45.845425,5.179452,21.98,724.1,6,2,3.1,0,0.0,-1,0.0,0.0,0.0,0,2.1,9.4407
566483,1616768715461,,,23,,,0.24,-0.85,0.89,-50,5,-5,0.88,0,,,,,,,,,,,,,,,,
566523,1616768715501,,,22,,,0.08,-0.89,1.06,-43,-2,-4,0.89,0,,,,,,,,,,,,,,,,
566563,1616768715541,,,23,,,0.33,-0.91,1.09,-37,1,-4,0.97,0,,,,,,,,,,,,,,,,
566603,1616768715581,,,24,,,0.34,-0.98,1.17,-31,3,-5,1.04,0,,,,,,,,,,,,,,,,
566643,1616768715621,,,23,,,0.01,-0.98,1.18,-26,-12,-1,0.98,0,45.845432,5.179474,19.49,724.1,6,2,3.1,0,0.0,-1,0.0,0.0,0.0,0,2.1,9.444
566683,1616768715661,,,23,,,0.13,-0.92,1.1,-23,-14,0,0.93,0,,,,,,,,,,,,,,,,
566723,1616768715701,,,24,,,0.49,-0.84,0.79,-21,5,-2,0.97,0,,,,,,,,,,,,,,,,
566763,1616768715741,,,23,,,0.34,-0.78,0.7,-21,6,-1,0.85,0,,,,,,,,,,,,,,,,
566803,1616768715781,,,24,,,0.36,-0.65,0.53,-21,3,1,0.74,0,,,,,,,,,,,,,,,,
566843,1616768715821,,,23,,,0.39,-0.6,0.75,-21,6,-2,0.72,0,45.845436,5.179493,16.73,724.1,6,2,3.1,0,0.0,-1,0.0,0.0,0.0,0,2.1,9.4474
566883,1616768715861,,,24,,,0.45,-0.57,0.79,-21,7,-2,0.73,0,,,,,,,,,,,,,,,,
566923,1616768715900,,,24,,,0.34,-0.53,0.68,-22,1,-0,0.63,0,,,,,,,,,,,,,,,,
566963,1616768715940,,,23,,,0.49,-0.49,0.67,-22,2,-2,0.69,0,,,,,,,,,,,,,,,,
567003,1616768715980,,,24,,,0.49,-0.49,0.71,-23,1,-2,0.69,0,,,,,,,,,,,,,,,,
567043,1616768716016,302,161,24,0.18,13.81,0.46,-0.51,0.81,-23,1,-3,0.68,0,45.845448,5.179511,15.22,724.2,6,2,3.1,0,0.0,-1,0.0,0.0,0.0,0,2.1,9.4507
567083,1616768716056,,,23,,,0.52,-0.58,0.95,-24,2,-3,0.78,0,,,,,,,,,,,,,,,,
567123,1616768716100,,,23,,,0.42,-0.65,0.84,-25,6,-4,0.78,0,,,,,,,,,,,,,,,,
567163,1616768716140,,,24,,,0.55,-0.55,0.93,-26,-1,-3,0.78,0,,,,,,,,,,,,,,,,
567203,1616768716180,,,24,,,0.46,-0.67,0.77,-27,2,-4,0.81,0,,,,,,,,,,,,,,,,
567243,1616768716220,,,23,,,0.56,-0.55,1.0,-27,-4,-3,0.79,0,45.845459,5.179522,14.12,724.2,6,2,3.1,0,0.0,-1,0.0,0.0,0.0,0,2.1,9.4541
567283,1616768716260,,,23,,,0.36,-0.6,0.43,-28,-17,5,0.71,0,,,,,,,,,,,,,,,,
567323,1616768716302,,,24,,,0.14,-0.7,-0.03,-29,-21,6,0.71,0,,,,,,,,,,,,,,,,
567363,1616768716342,,,23,,,0.13,-0.77,-0.41,-30,-29,11,0.78,0,,,,,,,,,,,,,,,,
567403,1616768716382,,,23,,,0.38,-0.79,-0.25,-31,-37,16,0.88,0,,,,,,,,,,,,,,,,
567443,1616768716422,,,23,,,0.38,-0.66,-0.17,-33,-20,5,0.76,0,45.84547,5.179531,12.92,724.2,6,2,3.1,0,0.0,-1,0.0,0.0,0.0,0,2.1,9.4574
567483,1616768716462,,,24,,,0.47,-0.67,-0.12,-35,-19,4,0.82,0,,,,,,,,,,,,,,,,
567523,1616768716502,,,24,,,0.33,-0.84,-0.48,-35,-23,9,0.9,0,,,,,,,,,,,,,,,,
567563,1616768716542,,,24,,,0.41,-0.75,-0.33,-35,-13,4,0.85,0,,,,,,,,,,,,,,,,
567603,1616768716582,,,24,,,0.42,-0.81,-0.25,-34,-9,2,0.91,0,,,,,,,,,,,,,,,,
567643,1616768716622,,,24,,,0.45,-0.75,-0.18,-32,-4,-0,0.87,0,45.845478,5.179538,11.85,724.2,6,2,3.1,0,0.0,-1,0.0,0.0,0.0,0,2.1,9.4607
567683,1616768716662,,,23,,,0.46,-0.71,-0.13,-30,-4,1,0.85,0,,,,,,,,,,,,,,,,
567723,1616768716702,,,24,,,0.3,-0.8,-0.09,-28,-10,2,0.86,0,,,,,,,,,,,,,,,,
567763,1616768716742,,,23,,,0.35,-0.72,-0.09,-26,-20,8,0.8,0,,,,,,,,,,,,,,,,
567803,1616768716782,,,24,,,0.62,-0.67,-0.08,-23,-9,0,0.91,0,,,,,,,,,,,,,,,,
567843,1616768716822,,,24,,,0.55,-0.67,-0.04,-22,7,-5,0.87,0,45.84549,5.17954,10.19,724.2,6,2,3.1,0,0.0,-1,0.0,0.0,0.0,0,2.1,9.4641
567883,1616768716862,,,24,,,0.29,-0.78,-0.41,-21,-7,2,0.83,0,,,,,,,,,,,,,,,,
567923,1616768716901,,,23,,,0.5,-0.64,0.04,-19,13,-12,0.81,0,,,,,,,,,,,,,,,,
567963,1616768716941,,,24,,,0.44,-0.61,-0.26,-19,-8,1,0.75,0,,,,,,,,,,,,,,,,
568003,1616768716981,,,24,,,0.38,-0.72,-0.19,-20,1,-4,0.81,0,,,,,,,,,,,,,,,,
568043,1616768717021,302,158,24,0.18,13.73,0.46,-0.63,0.22,-21,9,-14,0.78,0,45.845497,5.179541,10.16,724.2,6,2,3.1,0,0.0,-1,0.0,0.0,0.0,0,2.11,9.4674
568083,1616768717061,,,24,,,0.29,-0.8,-0.2,-22,3,-10,0.85,0,,,,,,,,,,,,,,,,
568123,1616768717107,,,24,,,0.13,-0.82,-0.54,-22,1,-7,0.83,0,,,,,,,,,,,,,,,,
568163,1616768717147,,,23,,,0.07,-0.87,-0.82,-22,-7,2,0.88,0,,,,,,,,,,,,,,,,
568203,1616768717187,,,23,,,0.25,-0.84,-0.3,-23,-2,-1,0.88,0,,,,,,,,,,,,,,,,
568243,1616768717227,,,24,,,0.24,-0.85,-0.22,-24,-6,0,0.88,0,45.845505,5.179544,10.16,724.3,6,2,3.1,0,0.0,-1,0.0,0.0,0.0,0,2.11,9.4707
568283,1616768717267,,,24,,,0.31,-0.8,-0.16,-23,-3,0,0.86,0,,,,,,,,,,,,,,,,
568323,1616768717307,,,24,,,0.42,-0.67,-0.11,-22,1,-1,0.79,0,,,,,,,,,,,,,,,,
568363,1616768717347,,,24,,,0.42,-0.74,-0.07,-20,1,0,0.86,0,,,,,,,,,,,,,,,,
568403,1616768717387,,,25,,,0.56,-0.66,-0.44,-17,3,2,0.87,0,,,,,,,,,,,,,,,,
568443,1616768717427,,,23,,,0.53,-0.51,-0.02,-16,-4,0,0.73,0,45.845505,5.179544,10.16,724.3,6,2,3.1,0,0.0,-1,0.0,0.0,0.0,0,2.11,9.474
568483,1616768717467,,,23,,,0.38,-0.59,-0.04,-14,-9,3,0.7,0,,,,,,,,,,,,,,,,
568523,1616768717507,,,24,,,0.46,-0.69,0.08,-13,1,2,0.83,0,,,,,,,,,,,,,,,,
568563,1616768717547,,,25,,,0.64,-0.68,0.01,-13,12,0,0.93,0,,,,,,,,,,,,,,,,
568603,1616768717587,,,23,,,0.67,-0.7,0.03,-13,20,-2,0.97,0,,,,,,,,,,,,,,,,
568643,1616768717627,,,24,,,0.82,-0.63,-0.13,-12,25,-2,1.04,0,45.845505,5.179544,10.16,724.3,6,2,3.1,0,0.0,-1,0.0,0.0,0.0,0,2.11,9.4774
568683,1616768717667,,,24,,,0.91,-0.59,-0.07,-12,29,-3,1.08,0,,,,,,,,,,,,,,,,
568723,1616768717707,,,23,,,0.98,-0.48,0.11,-11,31,-2,1.1,0,,,,,,,,,,,,,,,,
568763,1616768717747,,,23,,,0.93,-0.35,0.26,-8,26,-3,0.99,0,,,,,,,,,,,,,,,,
568803,1616768717787,,,23,,,0.79,-0.32,0.28,-5,15,0,0.85,0,,,,,,,,,,,,,,,,
568843,1616768717827,,,24,,,0.85,-0.17,0.53,-2,16,-1,0.87,0,45.845505,5.179544,10.16,724.3,6,2,3.1,0,0.0,-1,0.0,0.0,0.0,0,2.11,9.4807
568883,1616768717867,,,24,,,0.74,-0.1,0.12,-0,10,1,0.74,0,,,,,,,,,,,,,,,,
568923,1616768717906,,,23,,,0.73,-0.01,0.14,2,11,-1,0.73,0,,,,,,,,,,,,,,,,
568963,1616768717946,,,22,,,0.71,-0.03,0.45,3,6,1,0.71,0,,,,,,,,,,,,,,,,
569003,1616768717986,,,23,,,0.85,0.01,0.65,3,3,3,0.85,0,,,,,,,,,,,,,,,,
569043,1616768718022,302,159,21,0.17,13.75,0.69,0.13,0.24,2,-0,4,0.71,0,45.845505,5.179544,10.16,724.3,6,2,3.1,0,0.0,-1,0.0,0.0,0.0,0,2.11,9.484
569083,1616768718062,,,22,,,0.63,0.1,0.17,1,4,3,0.64,0,,,,,,,,,,,,,,,,
569123,1616768718102,,,23,,,0.19,0.18,0.32,0,6,0,0.26,0,,,,,,,,,,,,,,,,
569163,1616768718142,,,22,,,-0.16,0.17,0.64,0,16,-3,0.23,0,,,,,,,,,,,,,,,,
569203,1616768718182,,,24,,,-0.33,0.11,0.54,1,26,-5,0.35,0,,,,,,,,,,,,,,,,
569243,1616768718222,,,23,,,-0.48,-0.01,0.05,1,19,2,0.48,0,45.845543,5.17953,14.02,724.3,6,2,3.1,0,0.0,-1,0.0,0.0,0.0,0,2.11,9.4874
569283,1616768718262,,,23,,,-0.65,0.17,-0.34,2,5,10,0.67,0,,,,,,,,,,,,,,,,
569323,1616768718302,,,24,,,-0.64,0.12,-0.25,3,18,1,0.65,0,,,,,,,,,,,,,,,,
569363,1616768718342,,,24,,,-0.49,0.09,-0.19,3,6,4,0.5,0,,,,,,,,,,,,,,,,
569403,1616768718382,,,24,,,-0.71,0.03,-0.37,4,9,1,0.72,0,,,,,,,,,,,,,,,,
569443,1616768718422,,,24,,,-0.95,0.04,-0.56,4,7,1,0.95,0,45.845577,5.179509,22.76,724.3,6,2,3.1,0,0.0,-1,0.0,0.0,0.0,0,2.11,9.4907
569483,1616768718462,,,25,,,-0.92,0.0,-0.12,5,9,-1,0.92,0,,,,,,,,,,,,,,,,
569523,1616768718502,,,24,,,-0.92,0.05,0.15,5,9,0,0.92,0,,,,,,,,,,,,,,,,
569563,1616768718542,,,24,,,-0.83,0.11,0.16,7,7,-0,0.83,0,,,,,,,,,,,,,,,,
569603,1616768718582,,,26,,,-0.93,0.1,0.15,8,13,-2,0.93,0,,,,,,,,,,,,,,,,
569643,1616768718622,,,24,,,-0.78,-0.02,0.5,8,14,-3,0.78,0,45.845612,5.179486,27.93,724.3,6,2,3.1,0,0.0,-1,0.0,0.0,0.0,0,2.11,9.4941
569683,1616768718662,,,25,,,-0.87,-0.11,0.02,9,8,-0,0.88,0,,,,,,,,,,,,,,,,
569723,1616768718702,,,25,,,-0.95,-0.07,0.27,11,19,-10,0.95,0,,,,,,,,,,,,,,,,
569763,1616768718742,,,24,,,-1.04,-0.06,0.18,11,10,-6,1.04,0,,,,,,,,,,,,,,,,
569803,1616768718782,,,24,,,-1.05,-0.27,0.53,12,4,-9,1.08,0,,,,,,,,,,,,,,,,
569843,1616768718822,,,25,,,-0.97,-0.25,0.41,12,5,-8,1.0,0,45.845642,5.179461,31.42,724.4,6,2,3.1,0,0.0,-1,0.0,0.0,0.0,0,2.11,9.4974
569883,1616768718862,,,23,,,-0.84,-0.11,0.63,13,4,-3,0.84,0,,,,,,,,,,,,,,,,
569923,1616768718901,,,24,,,-0.81,-0.07,0.79,14,3,1,0.82,0,,,,,,,,,,,,,,,,
569963,1616768718941,,,24,,,-0.91,0.1,0.72,16,4,2,0.92,0,,,,,,,,,,,,,,,,
570003,1616768718981,,,24,,,-1.01,0.18,0.56,16,1,4,1.03,0,,,,,,,,,,,,,,,,
570043,1616768719015,180,165,24,0.17,13.58,-0.89,0.33,0.43,17,5,-1,0.95,0,45.845673,5.179437,33.87,724.4,6,2,3.1,0,0.0,-1,0.0,0.0,0.0,0,2.11,9.5007
570083,1616768719055,,,24,,,-0.83,0.4,0.67,18,2,-5,0.92,0,,,,,,,,,,,,,,,,
570123,1616768719101,,,24,,,-0.87,0.4,0.39,17,4,-9,0.95,0,,,,,,,,,,,,,,,,
570163,1616768719141,,,23,,,-0.89,0.29,0.28,16,3,-11,0.93,0,,,,,,,,,,,,,,,,
570203,1616768719181,,,23,,,-0.95,0.38,0.24,15,2,-15,1.02,0,,,,,,,,,,,,,,,,
570243,1616768719221,,,23,,,-0.85,0.31,0.14,15,1,-15,0.9,0,45.845696,5.179415,33.86,724.4,6,2,3.1,0,0.0,-1,0.0,0.0,0.0,0,2.12,9.5041
570283,1616768719261,,,22,,,-0.86,0.26,0.2,14,-1,-13,0.9,0,,,,,,,,,,,,,,,,
570323,1616768719301,,,22,,,-0.9,0.11,0.14,13,-1,-10,0.91,0,,,,,,,,,,,,,,,,
570363,1616768719341,,,22,,,-0.92,0.04,0.36,12,-2,-6,0.93,0,,,,,,,,,,,,,,,,
570403,1616768719381,,,21,,,-0.77,-0.03,0.67,10,1,-6,0.77,0,,,,,,,,,,,,,,,,
570443,1616768719421,,,22,,,-0.77,0.07,0.68,5,-2,-5,0.78,0,45.845722,5.179397,32.85,724.4,6,2,3.1,0,0.0,-1,0.0,0.0,0.0,0,2.12,9.5074
570483,1616768719461,,,22,,,-0.83,0.05,0.53,-2,-6,-2,0.83,0,,,,,,,,,,,,,,,,
570523,1616768719501,,,22,,,-0.94,0.08,0.63,-10,-9,-3,0.94,0,,,,,,,,,,,,,,,,
570563,1616768719541,,,22,,,-0.85,0.12,0.49,-16,-1,-2,0.85,0,,,,,,,,,,,,,,,,
570603,1616768719581,,,22,,,-0.88,0.22,0.77,-21,-2,-5,0.91,0,,,,,,,,,,,,,,,,
570643,1616768719621,,,22,,,-0.88,0.21,0.64,-24,3,-3,0.91,0,45.845741,5.179382,31.16,724.4,6,2,3.1,0,0.0,-1,0.0,0.0,0.0,0,2.12,9.5107
570683,1616768719661,,,23,,,-0.76,0.24,0.43,-26,10,-2,0.79,0,,,,,,,,,,,,,,,,
570723,1616768719701,,,23,,,-0.77,0.17,0.67,-27,12,-6,0.79,0,,,,,,,,,,,,,,,,
570763,1616768719741,,,22,,,-0.86,0.24,0.26,-27,9,-8,0.9,0,,,,,,,,,,,,,,,,
570803,1616768719781,,,22,,,-0.86,0.21,0.59,-27,12,-7,0.89,0,,,,,,,,,,,,,,,,
570843,1616768719821,,,22,,,-0.84,0.04,0.4,-25,7,-4,0.84,0,45.84576,5.179369,28.61,724.4,6,2,3.1,0,0.0,-1,0.0,0.0,0.0,0,2.12,9.514
570883,1616768719861,,,21,,,-0.68,-0.17,0.5,-22,1,-3,0.7,0,,,,,,,,,,,,,,,,
570923,1616768719901,,,21,,,-0.45,-0.1,0.52,-20,4,-3,0.46,0,,,,,,,,,,,,,,,,
570963,1616768719941,,,19,,,-0.29,-0.08,0.04,-16,-16,9,0.31,0,,,,,,,,,,,,,,,,
571003,1616768719981,,,21,,,-0.28,-0.17,0.27,-14,-8,2,0.33,0,,,,,,,,,,,,,,,,
571043,1616768720016,297,164,20,0.17,13.72,-0.44,-0.18,0.6,-13,-11,0,0.48,0,45.845776,5.179361,25.74,724.4,6,2,3.1,0,0.0,-1,0.0,0.0,0.0,0,2.12,9.5174
571083,1616768720056,,,21,,,-0.51,-0.17,0.6,-12,-4,1,0.54,0,,,,,,,,,,,,,,,,
571123,1616768720100,,,22,,,-0.5,-0.2,0.6,-10,-3,1,0.54,0,,,,,,,,,,,,,,,,
571163,1616768720140,,,20,,,-0.56,-0.17,0.77,-9,-3,1,0.58,0,,,,,,,,,,,,,,,,
571203,1616768720180,,,21,,,-0.55,-0.14,0.83,-7,-1,1,0.57,0,,,,,,,,,,,,,,,,
571243,1616768720220,,,20,,,-0.54,-0.12,0.91,-6,-2,1,0.55,0,45.845787,5.179355,20.67,724.4,6,2,3.1,0,0.0,-1,0.0,0.0,0.0,0,2.12,9.5207
571283,1616768720260,,,22,,,-0.4,-0.09,0.88,-5,-2,1,0.41,0,,,,,,,,,,,,,,,,
571323,1616768720302,,,21,,,-0.23,-0.05,0.86,-5,-2,1,0.24,0,,,,,,,,,,,,,,,,
571363,1616768720342,,,22,,,-0.25,-0.04,0.78,-4,1,1,0.25,0,,,,,,,,,,,,,,,,
571403,1616768720382,,,22,,,-0.19,-0.04,0.7,-4,-1,1,0.19,0,,,,,,,,,,,,,,,,
571443,1616768720422,,,20,,,-0.05,-0.02,0.95,-3,1,-0,0.05,0,45.845791,5.179347,16.49,724.4,6,2,3.1,0,0.0,-1,0.0,0.0,0.0,0,2.13,9.524
571483,1616768720462,,,19,,,0.09,-0.04,0.91,-3,3,-0,0.1,0,,,,,,,,,,,,,,,,
571523,1616768720502,,,22,,,0.13,-0.05,0.87,-3,2,-0,0.13,0,,,,,,,,,,,,,,,,
571563,1616768720542,,,22,,,0.13,-0.05,1.0,-2,1,-0,0.14,0,,,,,,,,,,,,,,,,
571603,1616768720582,,,21,,,0.17,-0.04,1.02,-2,1,-0,0.17,0,,,,,,,,,,,,,,,,
571643,1616768720622,,,22,,,0.2,-0.04,0.92,-2,2,-0,0.2,0,45.845791,5.179335,13.96,724.4,6,2,3.1,0,0.0,-1,0.0,0.0,0.0,0,2.13,9.5274
571683,1616768720662,,,21,,,0.23,-0.02,0.9,-2,1,0,0.23,0,,,,,,,,,,,,,,,,
571723,1616768720702,,,22,,,0.21,-0.01,1.0,-2,-1,-0,0.21,0,,,,,,,,,,,,,,,,
571763,1616768720742,,,21,,,0.23,-0.02,0.88,-2,-0,-0,0.23,0,,,,,,,,,,,,,,,,
571803,1616768720782,,,22,,,0.24,-0.02,0.97,-2,-2,-0,0.24,0,,,,,,,,,,,,,,,,
571843,1616768720822,,,22,,,0.25,-0.02,0.94,-2,-2,-0,0.25,0,45.845791,5.179317,11.66,724.4,6,2,3.1,0,0.0,-1,0.0,0.0,0.0,0,2.13,9.5307
571883,1616768720862,,,21,,,0.19,-0.01,0.99,-2,-6,0,0.19,0,,,,,,,,,,,,,,,,
571923,1616768720901,,,22,,,0.16,0.01,1.12,-1,-4,-0,0.16,0,,,,,,,,,,,,,,,,
571963,1616768720941,,,22,,,0.15,0.02,1.15,-1,-1,-0,0.15,0,,,,,,,,,,,,,,,,
572003,1616768720981,,,22,,,0.23,0.03,1.07,-1,6,-1,0.23,0,,,,,,,,,,,,,,,,
572043,1616768721017,302,166,23,0.18,13.86,0.23,0.03,0.91,-1,4,-1,0.23,0,45.84581,5.179303,11.44,724.4,6,2,3.0,0,0.0,-1,0.0,0.0,0.0,0,2.13,9.534
572083,1616768721057,,,23,,,0.23,-0.01,0.94,-2,1,-0,0.23,0,,,,,,,,,,,,,,,,
572123,1616768721101,,,21,,,0.27,0.0,1.04,-2,2,-1,0.27,0,,,,,,,,,,,,,,,,
572163,1616768721141,,,22,,,0.29,-0.01,1.14,-1,2,-1,0.3,0,,,,,,,,,,,,,,,,
572203,1616768721181,,,22,,,0.28,-0.01,1.13,-1,2,-0,0.28,0,,,,,,,,,,,,,,,,
572243,1616768721221,,,21,,,0.31,0.01,0.92,-1,2,0,0.31,0,45.845825,5.179292,11.58,724.4,6,2,3.0,0,0.0,-1,0.0,0.0,0.0,0,2.13,9.5374
572283,1616768721261,,,21,,,0.36,0.01,1.12,-0,1,-0,0.36,0,,,,,,,,,,,,,,,,
572323,1616768721301,,,22,,,0.28,0.02,0.98,0,-1,1,0.29,0,,,,,,,,,,,,,,,,
572363,1616768721341,,,23,,,0.21,0.03,0.98,1,1,1,0.21,0,,,,,,,,,,,,,,,,
572403,1616768721381,,,23,,,0.09,0.04,0.9,2,-1,1,0.09,0,,,,,,,,,,,,,,,,
572443,1616768721421,,,23,,,0.03,0.04,1.04,3,-0,1,0.05,0,45.845837,5.179282,12.0,724.4,5,2,3.0,0,0.0,-1,0.0,0.0,0.0,0,2.13,9.5407
572483,1616768721461,,,22,,,-0.02,0.04,1.04,4,2,0,0.04,0,,,,,,,,,,,,,,,,
572523,1616768721501,,,24,,,-0.05,0.04,1.06,4,1,1,0.06,0,,,,,,,,,,,,,,,,
572563,1616768721541,,,24,,,-0.1,0.02,1.15,4,1,1,0.1,0,,,,,,,,,,,,,,,,
572603,1616768721581,,,22,,,-0.04,0.03,1.22,5,1,0,0.05,0,,,,,,,,,,,,,,,,
572643,1616768721621,,,22,,,-0.13,0.03,1.06,5,-1,0,0.13,0,45.845848,5.179272,12.3,724.4,5,2,3.0,0,0.0,-1,0.0,0.0,0.0,0,2.13,9.5441
572683,1616768721661,,,23,,,-0.02,0.06,0.88,6,-0,0,0.07,0,,,,,,,,,,,,,,,,
572723,1616768721701,,,23,,,0.07,0.05,0.67,6,-2,2,0.09,0,,,,,,,,,,,,,,,,
572763,1616768721741,,,23,,,0.13,0.06,0.67,6,-1,1,0.15,0,,,,,,,,,,,,,,,,
572803,1616768721781,,,22,,,0.08,0.1,0.8,7,-3,2,0.13,0,,,,,,,,,,,,,,,,
572843,1616768721821,,,22,,,0.11,0.12,0.97,8,-2,1,0.16,0,45.84586,5.179262,12.5,724.4,5,2,3.0,0,0.0,-1,0.0,0.0,0.0,0,2.13,9.5474
572883,1616768721861,,,23,,,0.13,0.12,0.82,8,-6,2,0.18,0,,,,,,,,,,,,,,,,
572923,1616768721901,,,22,,,0.12,0.14,0.57,9,-5,3,0.19,0,,,,,,,,,,,,,,,,
572963,1616768721941,,,23,,,0.13,0.19,0.65,11,-2,2,0.23,0,,,,,,,,,,,,,,,,
573003,1616768721981,,,23,,,0.12,0.19,0.83,13,-2,2,0.23,0,,,,,,,,,,,,,,,,
573043,1616768722014,302,169,23,0.18,13.82,0.08,0.26,0.77,16,-3,3,0.27,0,45.845871,5.179253,12.66,724.4,5,2,2.1,0,0.0,-1,0.0,0.0,0.0,0,2.13,9.5507
573083,1616768722054,,,23,,,0.07,0.32,0.92,19,-3,2,0.33,0,,,,,,,,,,,,,,,,
573123,1616768722098,,,23,,,0.09,0.4,0.83,22,-2,3,0.41,0,,,,,,,,,,,,,,,,
573163,1616768722138,,,23,,,0.11,0.44,0.61,25,-1,3,0.45,0,,,,,,,,,,,,,,,,
573203,1616768722178,,,22,,,0.13,0.48,0.87,28,-1,2,0.5,0,,,,,,,,,,,,,,,,
573243,1616768722220,,,21,,,0.1,0.47,0.54,31,-1,4,0.48,0,45.845886,5.179248,11.9,724.4,5,2,2.1,0,0.0,-1,0.0,0.0,0.0,0,2.13,9.5541
573283,1616768722260,,,22,,,0.09,0.48,0.77,34,-4,3,0.49,0,,,,,,,,,,,,,,,,
573323,1616768722300,,,22,,,0.13,0.48,0.82,37,-4,4,0.5,0,,,,,,,,,,,,,,,,
573363,1616768722340,,,22,,,0.1,0.52,0.83,39,-5,5,0.53,0,,,,,,,,,,,,,,,,
573403,1616768722380,,,22,,,0.06,0.52,0.65,41,-4,6,0.52,0,,,,,,,,,,,,,,,,
573443,1616768722420,,,22,,,0.05,0.5,0.65,43,-3,5,0.5,0,45.845898,5.179245,10.55,724.4,5,2,2.1,0,0.0,-1,0.0,0.0,0.0,0,2.13,9.5574
573483,1616768722460,,,22,,,0.04,0.48,0.42,44,-3,6,0.48,0,,,,,,,,,,,,,,,,
573523,1616768722500,,,22,,,0.12,0.54,0.51,46,6,4,0.55,0,,,,,,,,,,,,,,,,
573563,1616768722540,,,23,,,0.04,0.57,0.24,47,-11,6,0.57,0,,,,,,,,,,,,,,,,
573603,1616768722580,,,22,,,-0.25,0.52,0.58,49,-27,5,0.58,0,,,,,,,,,,,,,,,,
573643,1616768722620,,,22,,,-0.55,0.54,0.85,50,-31,3,0.77,0,45.845909,5.179246,9.9,724.4,5,2,2.1,0,0.0,-1,0.0,0.0,0.0,0,2.13,9.5607
573683,1616768722660,,,22,,,-0.73,0.58,1.07,52,-33,3,0.93,0,,,,,,,,,,,,,,,,
573723,1616768722700,,,22,,,-0.95,0.62,1.24,55,-37,3,1.13,0,,,,,,,,,,,,,,,,
573763,1616768722740,,,22,,,-0.74,0.65,1.32,57,-36,4,0.99,0,,,,,,,,,,,,,,,,
573803,1616768722780,,,21,,,-0.62,0.7,1.19,59,-31,5,0.93,0,,,,,,,,,,,,,,,,
573843,1616768722820,,,22,,,-0.36,0.72,1.1,61,-22,4,0.8,0,45.845928,5.179244,11.33,724.4,5,2,2.1,0,0.0,-1,0.0,0.0,0.0,0,2.13,9.564
573883,1616768722860,,,21,,,-0.21,0.79,1.14,63,-18,5,0.82,0,,,,,,,,,,,,,,,,
573923,1616768722899,,,21,,,-0.09,0.8,0.99,65,-15,4,0.8,0,,,,,,,,,,,,,,,,
573963,1616768722939,,,22,,,0.03,0.79,0.92,65,-12,4,0.79,0,,,,,,,,,,,,,,,,
574003,1616768722979,,,21,,,0.07,0.8,0.91,65,-7,3,0.81,0,,,,,,,,,,,,,,,,
574043,1616768723013,302,169,22,0.17,13.57,0.08,0.88,0.83,65,-7,3,0.89,0,45.84594,5.179245,12.38,724.4,5,2,2.1,0,0.0,-1,0.0,0.0,0.0,0,2.13,9.5674
574083,1616768723053,,,22,,,0.2,0.89,0.65,64,-7,4,0.91,0,,,,,,,,,,,,,,,,
574123,1616768723099,,,22,,,0.09,0.81,0.34,63,-9,5,0.81,0,,,,,,,,,,,,,,,,
574163,1616768723139,,,22,,,0.03,0.68,0.41,62,-6,3,0.68,0,,,,,,,,,,,,,,,,
574203,1616768723179,,,22,,,0.09,0.64,0.68,61,1,-0,0.65,0,,,,,,,,,,,,,,,,
574243,1616768723219,,,22,,,0.25,0.67,0.93,60,9,-2,0.72,0,45.845951,5.179251,12.35,724.4,5,2,2.1,0,0.0,-1,0.0,0.0,0.0,0,2.14,9.5707
574283,1616768723259,,,22,,,0.42,0.8,1.13,59,15,-3,0.91,0,,,,,,,,,,,,,,,,
574323,1616768723299,,,20,,,0.54,0.93,1.22,59,20,-3,1.08,0,,,,,,,,,,,,,,,,
574363,1616768723339,,,22,,,0.7,1.07,1.37,58,29,-7,1.28,0,,,,,,,,,,,,,,,,
574403,1616768723379,,,21,,,0.45,1.02,0.87,57,17,-1,1.12,0,,,,,,,,,,,,,,,,
574443,1616768723419,,,22,,,0.38,1.01,0.68,57,23,-5,1.08,0,45.845962,5.179258,12.71,724.4,5,2,2.1,0,0.0,-1,0.0,0.0,0.0,0,2.14,9.574
574483,1616768723459,,,21,,,0.48,1.03,0.57,56,14,-1,1.14,0,,,,,,,,,,,,,,,,
574523,1616768723499,,,21,,,0.3,1.07,0.44,55,11,-0,1.11,0,,,,,,,,,,,,,,,,
574563,1616768723539,,,21,,,0.31,0.99,0.34,55,14,-1,1.04,0,,,,,,,,,,,,,,,,
574603,1616768723579,,,22,,,0.35,1.0,0.03,54,12,1,1.06,0,,,,,,,,,,,,,,,,
574643,1616768723619,,,20,,,0.27,1.01,0.0,52,4,9,1.05,0,45.84597,5.179274,13.36,724.4,5,2,2.1,0,0.0,-1,0.0,0.0,0.0,0,2.14,9.5774
574683,1616768723659,,,20,,,0.26,0.96,-0.02,50,-3,12,0.99,0,,,,,,,,,,,,,,,,
574723,1616768723701,,,20,,,0.37,0.91,-0.04,48,12,-1,0.98,0,,,,,,,,,,,,,,,,
574763,1616768723741,,,22,,,0.33,0.82,-0.01,46,17,-6,0.88,0,,,,,,,,,,,,,,,,
574803,1616768723781,,,20,,,0.15,0.86,-0.39,44,2,5,0.87,0,,,,,,,,,,,,,,,,
574843,1616768723821,,,20,,,0.41,0.81,-0.34,43,12,0,0.91,0,45.845985,5.17929,16.04,724.4,5,2,2.1,0,0.0,-1,0.0,0.0,0.0,0,2.14,9.5807
574883,1616768723861,,,21,,,0.23,0.81,-0.25,41,3,4,0.84,0,,,,,,,,,,,,,,,,
574923,1616768723901,,,20,,,0.57,0.83,0.17,40,14,-0,1.01,0,,,,,,,,,,,,,,,,
574963,1616768723941,,,21,,,0.37,0.83,-0.24,38,-7,10,0.91,0,,,,,,,,,,,,,,,,
575003,1616768723981,,,21,,,0.19,0.75,-0.46,37,13,-3,0.78,0,,,,,,,,,,,,,,,,
575043,1616768724016,302,169,21,0.18,13.55,0.53,0.76,0.01,37,16,-2,0.93,0,45.845997,5.179306,18.3,724.4,5,2,2.5,0,0.0,-1,0.0,0.0,0.0,0,2.14,9.5841
575083,1616768724056,,,21,,,0.5,0.7,-0.12,37,-0,4,0.86,0,,,,,,,,,,,,,,,,
575123,1616768724100,,,21,,,0.33,0.72,-0.48,37,-12,7,0.79,0,,,,,,,,,,,,,,,,
575163,1616768724140,,,21,,,0.21,0.72,-0.77,37,-17,9,0.75,0,,,,,,,,,,,,,,,,
575203,1616768724180,,,23,,,0.0,0.72,-1.0,37,-19,12,0.72,0,,,,,,,,,,,,,,,,
575243,1616768724220,,,20,,,0.0,0.82,-0.83,38,-16,9,0.82,0,45.846008,5.179328,19.5,724.4,5,2,2.5,0,0.0,-1,0.0,0.0,0.0,0,2.14,9.5874
575283,1616768724260,,,21,,,-0.09,0.83,-0.69,38,0,4,0.83,0,,,,,,,,,,,,,,,,
575323,1616768724300,,,21,,,-0.19,0.71,-0.94,39,-8,6,0.73,0,,,,,,,,,,,,,,,,
575363,1616768724340,,,21,,,-0.09,0.76,-0.48,39,-5,5,0.76,0,,,,,,,,,,,,,,,,
575403,1616768724380,,,20,,,0.02,0.75,-0.17,39,-2,4,0.75,0,,,,,,,,,,,,,,,,
575443,1616768724420,,,21,,,-0.12,0.76,-0.15,40,2,3,0.77,0,45.84602,5.179359,22.85,724.5,5,2,2.1,0,0.0,-1,0.0,0.0,0.0,0,2.14,9.5907
575483,1616768724460,,,21,,,0.06,0.79,0.2,40,4,1,0.79,0,,,,,,,,,,,,,,,,
575523,1616768724500,,,21,,,0.31,0.77,0.38,40,2,2,0.83,0,,,,,,,,,,,,,,,,
575563,1616768724540,,,21,,,0.15,0.78,0.52,40,-2,2,0.79,0,,,,,,,,,,,,,,,,
575603,1616768724580,,,21,,,0.15,0.86,0.53,39,6,-1,0.87,0,,,,,,,,,,,,,,,,
575643,1616768724620,,,20,,,0.44,0.83,0.76,39,5,0,0.94,0,45.846027,5.179388,24.0,724.5,5,2,2.1,0,0.0,-1,0.0,0.0,0.0,0,2.14,9.5941
575683,1616768724660,,,20,,,0.5,0.92,0.54,38,-7,4,1.05,0,,,,,,,,,,,,,,,,
575723,1616768724700,,,22,,,0.3,0.85,0.32,38,-18,7,0.9,0,,,,,,,,,,,,,,,,
575763,1616768724740,,,22,,,0.03,0.75,0.17,37,-15,5,0.75,0,,,,,,,,,,,,,,,,
575803,1616768724780,,,21,,,-0.04,0.76,0.49,37,0,0,0.76,0,,,,,,,,,,,,,,,,
575843,1616768724820,,,21,,,-0.26,0.68,0.28,37,4,1,0.73,0,45.846031,5.179423,25.77,724.5,5,2,2.1,0,0.0,-1,0.0,0.0,0.0,0,2.14,9.5974
575883,1616768724860,,,21,,,-0.35,0.66,-0.15,36,-7,6,0.75,0,,,,,,,,,,,,,,,,
575923,1616768724899,,,21,,,-0.35,0.68,-0.5,36,-20,11,0.76,0,,,,,,,,,,,,,,,,
575963,1616768724939,,,21,,,-0.1,0.84,-0.16,36,-30,14,0.85,0,,,,,,,,,,,,,,,,
576003,1616768724979,,,21,,,0.26,0.85,0.25,36,-13,6,0.89,0,,,,,,,,,,,,,,,,
576043,1616768725013,302,170,20,0.17,13.54,0.07,0.8,-0.18,35,-7,5,0.8,0,45.846039,5.179455,25.83,724.5,5,2,2.1,0,0.0,-1,0.0,0.0,0.0,0,2.14,9.6007
576083,1616768725053,,,21,,,-0.0,0.72,-0.37,35,-18,10,0.72,0,,,,,,,,,,,,,,,,
576123,1616768725101,,,21,,,0.22,0.89,0.08,35,-9,4,0.92,0,,,,,,,,,,,,,,,,
576163,1616768725141,,,20,,,0.02,0.94,-0.24,35,-14,8,0.94,0,,,,,,,,,,,,,,,,
576203,1616768725181,,,21,,,0.29,0.99,0.19,36,-2,3,1.03,0,,,,,,,,,,,,,,,,
576243,1616768725221,,,19,,,0.08,0.89,-0.18,36,-9,6,0.89,0,45.846043,5.179488,25.2,724.5,5,2,3.1,0,0.0,-1,0.0,0.0,0.0,0,2.15,9.604
576283,1616768725261,,,21,,,0.16,0.95,-0.17,37,0,3,0.96,0,,,,,,,,,,,,,,,,
576323,1616768725301,,,21,,,0.27,1.02,-0.12,38,-3,4,1.05,0,,,,,,,,,,,,,,,,
576363,1616768725341,,,21,,,0.04,0.98,-0.47,38,-3,6,0.98,0,,,,,,,,,,,,,,,,
576403,1616768725381,,,21,,,0.24,1.03,0.0,39,7,1,1.06,0,,,,,,,,,,,,,,,,
576443,1616768725421,,,21,,,0.24,0.99,0.02,39,1,4,1.02,0,45.846043,5.179518,24.17,724.4,5,2,3.1,0,0.0,-1,0.0,0.0,0.0,0,2.15,9.6074
576483,1616768725461,,,21,,,0.13,0.96,-0.11,40,-3,5,0.97,0,,,,,,,,,,,,,,,,
576523,1616768725501,,,20,,,0.05,1.0,-0.11,40,0,2,1.01,0,,,,,,,,,,,,,,,,
576563,1616768725541,,,22,,,0.18,0.98,0.27,41,6,-1,0.99,0,,,,,,,,,,,,,,,,
576603,1616768725581,,,22,,,0.18,0.95,0.23,40,8,-1,0.97,0,,,,,,,,,,,,,,,,
576643,1616768725621,,,21,,,0.2,0.89,0.21,39,-0,2,0.92,0,45.846039,5.179546,22.79,724.4,5,2,3.1,0,0.0,-1,0.0,0.0,0.0,0,2.15,9.6107
576683,1616768725661,,,20,,,-0.06,0.86,0.15,36,-7,4,0.86,0,,,,,,,,,,,,,,,,
576723,1616768725701,,,21,,,-0.03,0.71,0.1,34,0,1,0.71,0,,,,,,,,,,,,,,,,
576763,1616768725741,,,21,,,0.13,0.67,0.1,32,6,-2,0.68,0,,,,,,,,,,,,,,,,
576803,1616768725781,,,22,,,0.15,0.68,0.1,30,3,-3,0.69,0,,,,,,,,,,,,,,,,
576843,1616768725821,,,22,,,0.05,0.57,-0.13,28,-4,1,0.58,0,45.846035,5.179575,21.73,724.4,5,2,3.1,0,0.0,-1,0.0,0.0,0.0,0,2.15,9.614
576883,1616768725861,,,20,,,0.02,0.58,-0.12,27,-4,4,0.58,0,,,,,,,,,,,,,,,,
576923,1616768725901,,,21,,,0.06,0.55,-0.4,25,-6,4,0.55,0,,,,,,,,,,,,,,,,
576963,1616768725941,,,21,,,-0.07,0.5,-0.35,23,-4,2,0.51,0,,,,,,,,,,,,,,,,
577003,1616768725981,,,22,,,-0.07,0.58,-0.3,22,1,4,0.58,0,,,,,,,,,,,,,,,,
577043,1616768726016,302,170,22,0.18,13.46,-0.03,0.46,-0.27,21,4,4,0.46,0,45.846027,5.179605,21.46,724.4,5,2,3.1,0,0.0,-1,0.0,0.0,0.0,0,2.15,9.6174
577083,1616768726056,,,22,,,-0.04,0.48,-0.24,21,5,5,0.49,0,,,,,,,,,,,,,,,,
577123,1616768726100,,,22,,,-0.04,0.48,-0.21,20,6,5,0.48,0,,,,,,,,,,,,,,,,
577163,1616768726140,,,19,,,0.03,0.49,-0.19,20,1,7,0.49,0,,,,,,,,,,,,,,,,
577203,1616768726180,,,19,,,0.17,0.48,-0.18,20,-6,8,0.51,0,,,,,,,,,,,,,,,,
577243,1616768726220,,,19,,,0.2,0.45,-0.16,18,-11,6,0.49,0,45.84602,5.179632,21.74,724.4,5,2,3.1,0,0.0,-1,0.0,0.0,0.0,0,2.15,9.6207
577283,1616768726260,,,18,,,0.29,0.47,0.01,17,-4,-0,0.56,0,,,,,,,,,,,,,,,,
577323,1616768726300,,,19,,,0.26,0.47,0.03,16,9,-7,0.54,0,,,,,,,,,,,,,,,,
577363,1616768726340,,,20,,,0.14,0.41,-0.36,15,4,-7,0.43,0,,,,,,,,,,,,,,,,
577403,1616768726380,,,18,,,0.1,0.42,-0.31,14,-8,2,0.43,0,,,,,,,,,,,,,,,,
577443,1616768726422,,,17,,,0.35,0.51,-0.27,13,-12,4,0.61,0,45.846008,5.179656,22.42,724.4,5,2,3.1,0,0.0,-1,0.0,0.0,0.0,0,2.15,9.6241
577483,1616768726462,,,19,,,0.27,0.48,-0.2,12,5,-6,0.55,0,,,,,,,,,,,,,,,,
577523,1616768726500,,,19,,,0.04,0.37,-0.54,9,-8,0,0.37,0,,,,,,,,,,,,,,,,
577563,1616768726540,,,17,,,0.1,0.42,-0.46,8,-17,7,0.43,0,,,,,,,,,,,,,,,,
577603,1616768726580,,,18,,,0.15,0.38,0.01,7,3,-6,0.41,0,,,,,,,,,,,,,,,,
577643,1616768726622,,,16,,,0.14,0.3,-0.38,7,-13,5,0.33,0,45.845993,5.17968,23.01,724.4,5,2,3.1,0,0.0,-1,0.0,0.0,0.0,0,2.15,9.6274
577683,1616768726662,,,19,,,0.33,0.21,-0.15,5,8,-3,0.4,0,,,,,,,,,,,,,,,,
577723,1616768726702,,,19,,,0.1,0.05,-0.51,4,-12,10,0.12,0,,,,,,,,,,,,,,,,
577763,1616768726742,,,19,,,0.19,0.02,-0.36,2,14,-7,0.19,0,,,,,,,,,,,,,,,,
577803,1616768726782,,,16,,,0.27,0.1,-0.31,2,-3,4,0.28,0,,,,,,,,,,,,,,,,
577843,1616768726822,,,19,,,0.02,-0.03,-0.63,1,-6,8,0.04,0,45.845978,5.1797,23.79,724.4,5,2,3.1,0,0.0,-1,0.0,0.0,0.0,0,2.16,9.6307
577883,1616768726862,,,18,,,0.22,-0.07,-0.13,1,13,-8,0.23,0,,,,,,,,,,,,,,,,
577923,1616768726901,,,19,,,0.45,0.12,0.27,1,16,-7,0.47,0,,,,,,,,,,,,,,,,
577963,1616768726941,,,19,,,0.39,0.2,0.1,2,-0,1,0.43,0,,,,,,,,,,,,,,,,
578003,1616768726981,,,18,,,0.18,0.12,-0.3,2,-18,10,0.22,0,,,,,,,,,,,,,,,,
578043,1616768727015,302,166,19,0.17,13.45,0.02,0.1,-0.62,2,-32,17,0.1,0,45.845951,5.179722,28.35,724.4,5,2,2.1,0,0.0,-1,0.0,0.0,0.0,0,2.16,9.6341
578083,1616768727055,,,20,,,-0.23,0.02,-0.88,2,-32,21,0.23,0,,,,,,,,,,,,,,,,
578123,1616768727099,,,21,,,-0.49,-0.15,-0.8,2,-18,16,0.51,0,,,,,,,,,,,,,,,,
578163,1616768727139,,,21,,,-0.52,0.02,-0.27,1,0,3,0.52,0,,,,,,,,,,,,,,,,
578203,1616768727179,,,22,,,-0.54,-0.01,-0.01,1,9,1,0.54,0,,,,,,,,,,,,,,,,
578243,1616768727219,,,23,,,-0.63,0.01,-0.18,0,3,3,0.63,0,45.845928,5.179739,30.49,724.4,5,2,2.1,0,0.0,-1,0.0,0.0,0.0,0,2.16,9.6374
578283,1616768727259,,,23,,,-0.59,0.04,0.15,-1,1,0,0.59,0,,,,,,,,,,,,,,,,
578323,1616768727299,,,23,,,-0.81,-0.02,0.02,-2,-2,2,0.81,0,,,,,,,,,,,,,,,,
578363,1616768727339,,,23,,,-0.76,0.17,0.39,-3,2,-2,0.77,0,,,,,,,,,,,,,,,,
578403,1616768727379,,,23,,,-0.9,0.06,0.34,-5,1,-1,0.91,0,,,,,,,,,,,,,,,,
578443,1616768727417,,,22,,,-0.7,-0.25,0.65,-7,3,2,0.74,0,45.845909,5.179754,30.82,724.4,6,2,2.6,0,0.0,-1,0.0,0.0,0.0,0,2.16,9.6407
578483,1616768727457,,,23,,,-0.78,-0.3,0.15,-9,-1,3,0.83,0,,,,,,,,,,,,,,,,
578523,1616768727497,,,23,,,-0.9,-0.24,0.26,-11,1,0,0.93,0,,,,,,,,,,,,,,,,
578563,1616768727537,,,22,,,-0.88,-0.46,0.46,-13,6,-2,0.99,0,,,,,,,,,,,,,,,,
578603,1616768727577,,,22,,,-0.89,-0.18,0.4,-14,1,-4,0.91,0,,,,,,,,,,,,,,,,
578643,1616768727619,,,21,,,-0.94,-0.02,0.34,-15,2,-8,0.94,0,45.845898,5.17976,32.14,724.4,6,2,2.6,0,0.0,-1,0.0,0.0,0.0,0,2.16,9.644
578683,1616768727659,,,22,,,-1.01,-0.15,-0.11,-17,-3,-6,1.02,0,,,,,,,,,,,,,,,,
578723,1616768727699,,,21,,,-0.98,-0.12,-0.11,-17,-4,1,0.99,0,,,,,,,,,,,,,,,,
578763,1616768727739,,,22,,,-0.81,-0.21,-0.11,-17,-1,7,0.84,0,,,,,,,,,,,,,,,,
578803,1616768727779,,,20,,,-0.84,-0.08,-0.11,-19,-5,2,0.85,0,,,,,,,,,,,,,,,,
578843,1616768727819,,,21,,,-0.81,0.1,0.16,-18,-3,-1,0.82,0,45.845894,5.179759,32.32,724.3,6,2,2.6,0,0.0,-1,0.0,0.0,0.0,0,2.16,9.6474
578883,1616768727859,,,22,,,-0.69,-0.05,0.51,-18,-2,-4,0.69,0,,,,,,,,,,,,,,,,
578923,1616768727899,,,21,,,-0.67,-0.24,0.43,-18,5,-2,0.71,0,,,,,,,,,,,,,,,,
578963,1616768727939,,,21,,,-0.63,-0.19,0.37,-20,2,-2,0.66,0,,,,,,,,,,,,,,,,
579003,1616768727979,,,21,,,-0.57,-0.3,0.32,-21,5,-3,0.64,0,,,,,,,,,,,,,,,,
579043,1616768728014,204,169,21,0.18,13.44,-0.57,-0.27,0.28,-22,6,-4,0.63,0,45.84589,5.179764,31.36,724.1,6,2,3.6,0,0.0,-1,0.0,0.0,0.0,0,2.17,9.6507
579083,1616768728054,,,21,,,-0.73,-0.33,0.24,-21,6,-4,0.8,0,,,,,,,,,,,,,,,,
579123,1616768728100,,,22,,,-0.7,-0.41,0.22,-21,8,-7,0.82,0,,,,,,,,,,,,,,,,
579163,1616768728140,,,20,,,-0.6,-0.27,0.19,-21,5,-8,0.66,0,,,,,,,,,,,,,,,,
579203,1616768728180,,,20,,,-0.6,-0.35,0.18,-20,4,-12,0.7,0,,,,,,,,,,,,,,,,
579243,1616768728220,,,22,,,-0.72,-0.35,0.16,-20,2,-13,0.8,0,45.845875,5.179779,29.79,724.2,6,2,3.6,0,0.0,-1,0.0,0.0,0.0,0,2.17,9.654
579283,1616768728260,,,21,,,-0.78,-0.37,0.15,-19,-4,-12,0.86,0,,,,,,,,,,,,,,,,
579323,1616768728300,,,20,,,-0.79,-0.29,-0.02,-18,-2,-11,0.84,0,,,,,,,,,,,,,,,,
579363,1616768728340,,,21,,,-0.82,-0.21,0.01,-18,-6,-6,0.84,0,,,,,,,,,,,,,,,,
579403,1616768728380,,,21,,,-0.88,-0.36,-0.01,-18,-3,-4,0.95,0,,,,,,,,,,,,,,,,
579443,1616768728420,,,22,,,-0.92,-0.45,-0.03,-17,-4,-6,1.02,0,45.84586,5.179791,26.62,724.4,6,2,3.6,0,0.0,-1,0.0,0.0,0.0,0,2.17,9.6574
579483,1616768728460,,,20,,,-0.86,-0.26,0.36,-17,-0,-4,0.9,0,,,,,,,,,,,,,,,,
579523,1616768728500,,,21,,,-0.88,-0.36,0.37,-16,-2,-2,0.95,0,,,,,,,,,,,,,,,,
579563,1616768728540,,,22,,,-0.92,-0.3,0.18,-14,-3,-1,0.96,0,,,,,,,,,,,,,,,,
579603,1616768728580,,,21,,,-0.87,-0.19,0.53,-13,-6,1,0.89,0,,,,,,,,,,,,,,,,
579643,1616768728620,,,21,,,-0.76,-0.32,0.59,-12,-3,1,0.82,0,45.845844,5.1798,25.48,724.4,6,2,3.6,0,0.0,-1,0.0,0.0,0.0,0,2.17,9.6607
579683,1616768728660,,,21,,,-0.77,-0.21,0.62,-11,-3,-2,0.8,0,,,,,,,,,,,,,,,,
579723,1616768728700,,,21,,,-0.86,-0.36,0.41,-10,-3,-2,0.93,0,,,,,,,,,,,,,,,,
579763,1616768728740,,,20,,,-0.85,-0.38,0.58,-9,-6,-1,0.93,0,,,,,,,,,,,,,,,,
579803,1616768728780,,,21,,,-0.83,-0.53,0.85,-7,-1,-0,0.98,0,,,,,,,,,,,,,,,,
579843,1616768728820,,,21,,,-0.74,-0.48,0.92,-5,1,1,0.89,0,45.845829,5.179806,26.65,724.5,6,2,3.6,0,0.0,-1,0.0,0.0,0.0,0,2.17,9.6641
579883,1616768728860,,,21,,,-0.75,-0.16,0.93,-4,-2,3,0.77,0,,,,,,,,,,,,,,,,
579923,1616768728900,,,19,,,-0.6,0.12,0.93,-4,-4,4,0.61,0,,,,,,,,,,,,,,,,
579963,1616768728940,,,19,,,-0.6,-0.05,1.07,-3,-5,4,0.61,0,,,,,,,,,,,,,,,,
580003,1616768728980,,,20,,,-0.6,-0.31,1.2,-3,-6,4,0.68,0,,,,,,,,,,,,,,,,
580043,1616768729015,225,169,20,0.18,13.45,-0.36,-0.45,1.35,-2,-2,5,0.58,0,45.845806,5.179811,27.41,724.6,6,2,3.1,0,0.0,-1,0.0,0.0,0.0,0,2.17,9.6674
580083,1616768729055,,,20,,,-0.26,-0.35,1.37,-1,-3,2,0.44,0,,,,,,,,,,,,,,,,
580123,1616768729101,,,20,,,-0.16,-0.31,1.09,-1,-4,6,0.35,0,,,,,,,,,,,,,,,,
580163,1616768729141,,,19,,,-0.08,-0.25,0.98,-1,-7,6,0.26,0,,,,,,,,,,,,,,,,
580203,1616768729181,,,19,,,0.02,-0.19,0.9,-1,-8,6,0.19,0,,,,,,,,,,,,,,,,
580243,1616768729221,,,18,,,-0.02,-0.32,1.11,-1,-2,0,0.32,0,45.845791,5.179822,26.16,724.8,6,2,3.1,0,0.0,-1,0.0,0.0,0.0,0,2.18,9.6707
580283,1616768729261,,,19,,,0.1,-0.18,0.99,-0,-4,2,0.21,0,,,,,,,,,,,,,,,,
580323,1616768729301,,,19,,,-0.05,-0.15,1.18,-0,-4,1,0.15,0,,,,,,,,,,,,,,,,
580363,1616768729341,,,19,,,-0.06,-0.15,1.02,-0,4,0,0.16,0,,,,,,,,,,,,,,,,
580403,1616768729381,,,20,,,-0.1,-0.12,0.96,-0,3,0,0.15,0,,,,,,,,,,,,,,,,
580443,1616768729421,,,20,,,-0.09,-0.1,1.0,-0,1,0,0.13,0,45.845779,5.179833,24.76,724.9,6,2,3.1,0,0.0,-1,0.0,0.0,0.0,0,2.18,9.6741
580483,1616768729461,,,19,,,-0.06,-0.08,1.02,-0,0,0,0.1,0,,,,,,,,,,,,,,,,
580523,1616768729501,,,19,,,-0.03,-0.06,1.11,-0,-0,0,0.07,0,,,,,,,,,,,,,,,,
580563,1616768729541,,,18,,,0.02,-0.06,1.04,-0,-0,0,0.06,0,,,,,,,,,,,,,,,,
580603,1616768729581,,,18,,,0.02,-0.05,1.04,-0,0,-0,0.06,0,,,,,,,,,,,,,,,,
580643,1616768729621,,,19,,,0.04,-0.04,1.04,-0,0,-0,0.06,0,45.845768,5.179844,22.71,725.0,6,2,3.1,0,0.0,-1,0.0,0.0,0.0,0,2.18,9.6774
580683,1616768729661,,,19,,,0.05,-0.04,1.02,-0,-0,-0,0.06,0,,,,,,,,,,,,,,,,
580723,1616768729701,,,19,,,0.05,-0.03,1.02,-0,-0,0,0.06,0,,,,,,,,,,,,,,,,
580763,1616768729741,,,20,,,0.05,-0.03,1.02,-0,-0,0,0.06,0,,,,,,,,,,,,,,,,
580803,1616768729781,,,19,,,0.05,-0.03,1.01,-0,-0,0,0.06,0,,,,,,,,,,,,,,,,
580843,1616768729821,,,20,,,0.06,-0.02,1.01,-0,-0,0,0.06,0,45.845753,5.179854,20.96,725.0,6,2,3.1,0,0.0,-1,0.0,0.0,0.0,0,2.18,9.6807
580883,1616768729861,,,20,,,0.06,-0.02,1.01,-0,-0,0,0.06,0,,,,,,,,,,,,,,,,
580923,1616768729900,,,19,,,0.06,-0.02,1.01,-0,-0,0,0.07,0,,,,,,,,,,,,,,,,
580963,1616768729940,,,19,,,0.07,-0.02,1.01,-0,-0,0,0.07,0,,,,,,,,,,,,,,,,
581003,1616768729980,,,19,,,0.07,-0.02,1.01,-0,-0,0,0.07,0,,,,,,,,,,,,,,,,
581043,1616768730022,225,173,19,0.18,13.21,0.07,-0.01,1.0,-0,-0,0,0.07,0,45.845745,5.179864,20.22,725.1,6,2,3.1,0,0.0,-1,0.0,0.0,0.0,0,2.18,9.684
581083,1616768730062,,,20,,,0.07,-0.01,1.0,-0,-0,0,0.07,0,,,,,,,,,,,,,,,,
581123,1616768730102,,,20,,,0.07,-0.01,1.0,-0,-0,0,0.07,0,,,,,,,,,,,,,,,,
581163,1616768730142,,,20,,,0.07,-0.01,1.0,-0,-0,0,0.07,0,,,,,,,,,,,,,,,,
581203,1616768730182,,,20,,,0.07,-0.01,1.0,-0,-0,0,0.07,0,,,,,,,,,,,,,,,,
581243,1616768730222,,,19,,,0.07,-0.01,1.0,-0,-0,0,0.07,0,45.845779,5.179867,7.45,725.2,6,2,2.5,0,0.0,-1,0.0,0.0,0.0,0,2.18,9.6874
581283,1616768730262,,,20,,,0.07,-0.01,1.0,-0,-0,0,0.07,0,,,,,,,,,,,,,,,,
581323,1616768730302,,,20,,,0.07,-0.01,1.0,-0,-0,0,0.07,0,,,,,,,,,,,,,,,,
581363,1616768730342,,,20,,,0.07,-0.01,1.0,-0,-0,0,0.07,0,,,,,,,,,,,,,,,,
581403,1616768730382,,,19,,,0.07,-0.01,1.0,-0,-0,0,0.07,0,,,,,,,,,,,,,,,,
581443,1616768730422,,,19,,,0.07,-0.01,1.0,-0,-0,0,0.07,0,45.845795,5.179867,4.04,725.2,6,2,2.5,0,0.0,-1,0.0,0.0,0.0,0,2.18,9.6907
581483,1616768730462,,,19,,,0.07,-0.01,1.0,-0,-0,0,0.07,0,,,,,,,,,,,,,,,,
581523,1616768730502,,,20,,,0.08,-0.01,1.0,-0,-0,0,0.08,0,,,,,,,,,,,,,,,,
581563,1616768730542,,,19,,,0.08,-0.01,1.0,-0,-0,-0,0.08,0,,,,,,,,,,,,,,,,
581603,1616768730582,,,20,,,0.08,-0.01,1.0,-0,-0,0,0.08,0,,,,,,,,,,,,,,,,
581643,1616768730622,,,20,,,0.08,-0.01,1.0,-0,-0,0,0.08,0,45.845806,5.179867,2.47,725.2,6,2,2.5,0,0.0,-1,0.0,0.0,0.0,0,2.18,9.694
581683,1616768730662,,,20,,,0.08,-0.01,1.0,-0,-0,0,0.08,0,,,,,,,,,,,,,,,,
581723,1616768730702,,,20,,,0.07,-0.01,1.0,-0,-0,0,0.08,0,,,,,,,,,,,,,,,,
581763,1616768730742,,,20,,,0.07,-0.01,1.0,-0,-0,0,0.07,0,,,,,,,,,,,,,,,,
581803,1616768730782,,,20,,,0.07,-0.01,1.01,-0,-0,0,0.08,0,,,,,,,,,,,,,,,,
581843,1616768730822,,,20,,,0.08,-0.01,1.0,-0,-0,0,0.08,0,45.845806,5.179869,1.29,725.3,6,2,2.5,0,0.0,-1,0.0,0.0,0.0,0,2.18,9.6974
581883,1616768730862,,,19,,,0.08,-0.01,1.0,-0,0,0,0.08,0,,,,,,,,,,,,,,,,
581923,1616768730901,,,20,,,0.08,-0.01,1.0,-0,-0,0,0.08,0,,,,,,,,,,,,,,,,
581963,1616768730941,,,19,,,0.07,-0.01,1.0,-0,-0,0,0.08,0,,,,,,,,,,,,,,,,
582003,1616768730981,,,20,,,0.07,-0.01,1.0,-0,-0,0,0.07,0,,,,,,,,,,,,,,,,
582043,1616768731017,228,174,20,0.18,13.17,0.07,-0.01,1.0,-0,-0,0,0.07,0,45.845806,5.17987,0.0,725.3,6,2,2.5,0,0.0,-1,0.0,0.0,0.0,0,2.18,9.7007
582083,1616768731057,,,19,,,0.08,-0.01,1.0,-0,-0,0,0.08,0,,,,,,,,,,,,,,,,
582123,1616768731101,,,20,,,0.07,-0.01,1.0,-0,-0,0,0.08,0,,,,,,,,,,,,,,,,
582163,1616768731141,,,20,,,0.07,-0.01,1.0,-0,-0,0,0.07,0,,,,,,,,,,,,,,,,
582203,1616768731181,,,20,,,0.07,-0.01,1.0,-0,-0,0,0.07,0,,,,,,,,,,,,,,,,
582243,1616768731221,,,20,,,0.08,-0.01,1.0,-0,-0,0,0.08,0,45.845806,5.179871,0.0,725.3,6,2,2.5,0,0.0,-1,0.0,0.0,0.0,0,2.18,9.7041
582283,1616768731261,,,20,,,0.08,-0.01,1.0,-0,-0,0,0.08,0,,,,,,,,,,,,,,,,
582323,1616768731301,,,20,,,0.07,-0.01,1.0,-0,-0,0,0.08,0,,,,,,,,,,,,,,,,
582363,1616768731341,,,11,,,0.07,-0.01,1.0,-0,-0,0,0.08,0,,,,,,,,,,,,,,,,
582403,1616768731381,,,13,,,0.08,-0.01,0.99,-0,-0,0,0.08,0,,,,,,,,,,,,,,,,
582443,1616768731421,,,14,,,0.08,-0.01,1.0,-0,-0,0,0.08,0,45.84581,5.179871,0.0,725.3,6,2,2.5,0,0.0,-1,0.0,0.0,0.0,0,2.18,9.7074
582483,1616768731461,,,15,,,0.08,-0.01,1.0,-0,-0,0,0.08,0,,,,,,,,,,,,,,,,
582523,1616768731501,,,16,,,0.07,-0.01,0.98,-0,-0,0,0.07,0,,,,,,,,,,,,,,,,
582563,1616768731541,,,15,,,0.07,-0.0,0.97,-0,-0,0,0.07,0,,,,,,,,,,,,,,,,
582603,1616768731581,,,15,,,0.07,0.0,0.98,-0,0,0,0.07,0,,,,,,,,,,,,,,,,
582643,1616768731621,,,16,,,0.07,-0.01,0.99,-0,0,0,0.07,0,45.84581,5.179871,0.0,725.3,6,2,2.5,0,0.0,-1,0.0,0.0,0.0,0,2.18,9.7107
582683,1616768731661,,,16,,,0.07,-0.01,0.97,-0,0,0,0.07,0,,,,,,,,,,,,,,,,
582723,1616768731701,,,17,,,0.07,-0.01,0.97,-0,1,0,0.08,0,,,,,,,,,,,,,,,,
582763,1616768731741,,,17,,,0.07,-0.01,0.95,-0,0,0,0.08,0,,,,,,,,,,,,,,,,
582803,1616768731781,,,17,,,0.09,-0.01,1.0,-0,-0,0,0.09,0,,,,,,,,,,,,,,,,
582843,1616768731823,,,17,,,0.1,-0.02,1.05,-0,0,-0,0.1,0,45.84581,5.179871,0.0,725.4,6,2,2.5,0,0.0,-1,0.0,0.0,0.0,0,2.18,9.7141
582883,1616768731863,,,18,,,0.11,-0.02,1.03,-0,1,-0,0.12,0,,,,,,,,,,,,,,,,
582923,1616768731901,,,18,,,0.11,-0.02,1.0,-0,0,-0,0.11,0,,,,,,,,,,,,,,,,
582963,1616768731941,,,20,,,0.1,-0.02,1.0,-0,-1,0,0.1,0,,,,,,,,,,,,,,,,
583003,1616768731981,,,20,,,0.09,-0.02,1.02,-0,-1,0,0.09,0,,,,,,,,,,,,,,,,
583043,1616768732016,232,173,19,0.17,13.2,0.08,-0.01,1.06,-0,-0,0,0.08,0,45.84581,5.179871,0.0,725.4,6,2,2.5,0,0.0,-1,0.0,0.0,0.0,0,2.18,9.7174
583083,1616768732056,,,20,,,0.08,-0.01,1.04,-0,0,0,0.08,0,,,,,,,,,,,,,,,,
583123,1616768732102,,,20,,,0.1,-0.01,1.01,-0,0,0,0.1,0,,,,,,,,,,,,,,,,
583163,1616768732142,,,20,,,0.09,-0.01,1.01,-0,0,0,0.09,0,,,,,,,,,,,,,,,,
583203,1616768732182,,,20,,,0.09,-0.0,1.03,-0,0,0,0.09,0,,,,,,,,,,,,,,,,
583243,1616768732222,,,20,,,0.09,0.0,1.03,-0,-0,0,0.09,0,45.84581,5.179871,0.0,725.4,6,2,2.5,0,0.0,-1,0.0,0.0,0.0,0,2.18,9.7207
583283,1616768732262,,,20,,,0.08,-0.01,1.03,-0,0,0,0.08,0,,,,,,,,,,,,,,,,
583323,1616768732302,,,19,,,0.08,-0.01,0.99,-0,-0,0,0.08,0,,,,,,,,,,,,,,,,
583363,1616768732342,,,20,,,0.1,-0.0,1.0,-0,0,0,0.1,0,,,,,,,,,,,,,,,,
583403,1616768732382,,,19,,,0.12,-0.01,0.99,-0,-0,0,0.12,0,,,,,,,,,,,,,,,,
583443,1616768732422,,,20,,,0.09,-0.02,1.04,-0,-2,0,0.09,0,45.84581,5.179871,0.0,725.4,6,2,2.5,0,0.0,-1,0.0,0.0,0.0,0,2.18,9.724
583483,1616768732462,,,20,,,0.08,-0.01,1.08,-0,-2,0,0.08,0,,,,,,,,,,,,,,,,
583523,1616768732502,,,19,,,0.09,-0.02,1.04,-0,1,0,0.09,0,,,,,,,,,,,,,,,,
583563,1616768732542,,,20,,,0.08,-0.01,0.96,-0,1,0,0.09,0,,,,,,,,,,,,,,,,
583603,1616768732582,,,20,,,0.15,-0.01,1.09,-0,2,-0,0.15,0,,,,,,,,,,,,,,,,
583643,1616768732622,,,20,,,0.21,0.0,0.95,-0,4,-0,0.21,0,45.84581,5.179871,0.0,725.4,6,2,2.5,0,0.0,-1,0.0,0.0,0.0,0,2.18,9.7274
583683,1616768732662,,,20,,,0.22,-0.0,0.9,-0,3,-1,0.22,0,,,,,,,,,,,,,,,,
583723,1616768732702,,,20,,,0.13,0.01,0.78,-0,0,-1,0.13,0,,,,,,,,,,,,,,,,
583763,1616768732742,,,20,,,0.11,0.04,0.97,-0,4,-1,0.12,0,,,,,,,,,,,,,,,,
583803,1616768732782,,,21,,,0.38,0.01,0.4,-0,7,1,0.38,0,,,,,,,,,,,,,,,,
583843,1616768732822,,,20,,,0.5,0.01,-0.05,-0,-2,1,0.5,0,45.84581,5.179871,0.0,725.4,6,2,2.5,0,0.0,-1,0.0,0.0,0.0,0,2.18,9.7307
583883,1616768732862,,,20,,,0.41,-0.01,-0.37,-0,-18,2,0.41,0,,,,,,,,,,,,,,,,
583923,1616768732902,,,21,,,0.24,0.01,-0.06,-0,-36,3,0.24,0,,,,,,,,,,,,,,,,
583963,1616768732942,,,20,,,0.28,0.01,-0.3,-0,-47,4,0.28,0,,,,,,,,,,,,,,,,
584003,1616768732982,,,20,,,0.27,-0.0,-0.27,-0,-40,3,0.27,0,,,,,,,,,,,,,,,,
584043,1616768733017,236,173,19,0.17,13.4,0.41,-0.01,-0.09,-0,-31,2,0.41,0,45.84581,5.179871,0.0,725.4,6,2,2.5,0,0.0,-1,0.0,0.0,0.0,0,2.18,9.734
584083,1616768733057,,,20,,,0.17,0.06,-0.36,-0,-32,4,0.18,0,,,,,,,,,,,,,,,,
584123,1616768733101,,,20,,,0.26,0.17,-0.27,-1,-30,4,0.32,0,,,,,,,,,,,,,,,,
584163,1616768733141,,,19,,,0.27,0.17,-0.2,-2,-25,5,0.31,0,,,,,,,,,,,,,,,,
584203,1616768733181,,,21,,,0.11,0.08,-0.14,-1,-21,3,0.14,0,,,,,,,,,,,,,,,,
584243,1616768733221,,,20,,,0.29,0.09,0.26,-1,3,-12,0.3,0,45.84581,5.179871,0.0,725.4,6,2,2.5,0,0.0,-1,0.0,0.0,0.0,0,2.18,9.7374
584283,1616768733261,,,20,,,0.38,0.11,0.59,-1,12,-20,0.4,0,,,,,,,,,,,,,,,,
584323,1616768733301,,,20,,,0.51,0.14,0.86,-1,23,-24,0.53,0,,,,,,,,,,,,,,,,
584363,1616768733341,,,19,,,0.62,0.16,1.08,-0,28,-27,0.64,0,,,,,,,,,,,,,,,,
584403,1616768733381,,,19,,,0.58,0.13,0.77,0,18,-15,0.59,0,,,,,,,,,,,,,,,,
584443,1616768733421,,,20,,,0.18,0.02,0.24,-0,-1,-3,0.18,0,45.84581,5.179871,0.0,725.4,6,2,2.5,0,0.0,-1,0.0,0.0,0.0,0,2.18,9.7407
584483,1616768733461,,,19,,,0.46,0.09,0.57,-1,16,-12,0.47,0,,,,,,,,,,,,,,,,
584523,1616768733501,,,19,,,0.14,-0.03,0.08,-1,0,1,0.14,0,,,,,,,,,,,,,,,,
584563,1616768733541,,,19,,,0.4,0.04,0.05,-1,11,-5,0.4,0,,,,,,,,,,,,,,,,
584603,1616768733581,,,19,,,0.33,0.04,0.06,-1,7,-3,0.33,0,,,,,,,,,,,,,,,,
584643,1616768733621,,,20,,,0.32,0.02,-0.02,0,12,0,0.32,0,45.84581,5.179871,0.0,725.4,6,2,2.5,0,0.0,-1,0.0,0.0,0.0,0,2.18,9.7441
584683,1616768733661,,,20,,,0.33,0.06,0.06,-0,15,-5,0.33,0,,,,,,,,,,,,,,,,
584723,1616768733701,,,19,,,0.34,0.09,0.07,0,11,-7,0.35,0,,,,,,,,,,,,,,,,
584763,1616768733741,,,20,,,0.3,0.02,0.07,0,9,-7,0.3,0,,,,,,,,,,,,,,,,
584803,1616768733781,,,20,,,0.18,0.03,0.08,-1,3,-6,0.19,0,,,,,,,,,,,,,,,,
584843,1616768733821,,,19,,,0.25,0.05,0.04,-1,9,-8,0.25,0,45.84581,5.179871,0.0,725.4,6,2,2.5,0,0.0,-1,0.0,0.0,0.0,0,2.18,9.7474
584883,1616768733861,,,20,,,0.33,0.03,0.41,-0,7,-6,0.33,0,,,,,,,,,,,,,,,,
584923,1616768733903,,,19,,,0.14,-0.02,-0.04,-0,2,-2,0.14,0,,,,,,,,,,,,,,,,
584963,1616768733943,,,19,,,0.23,-0.01,-0.06,-0,3,-1,0.23,0,,,,,,,,,,,,,,,,
585003,1616768733983,,,19,,,0.03,0.06,-0.11,-0,-4,-3,0.07,0,,,,,,,,,,,,,,,,
585043,1616768734016,302,175,20,0.18,13.39,-0.16,0.15,0.23,-0,-5,-3,0.22,0,45.84581,5.179871,0.0,725.4,6,2,2.5,0,0.0,-1,0.0,0.0,0.0,0,2.18,9.7507
585083,1616768734056,,,20,,,-0.13,0.02,0.42,-0,-3,-4,0.13,0,,,,,,,,,,,,,,,,
585123,1616768734102,,,19,,,-0.04,0.1,0.72,0,-1,-1,0.1,0,,,,,,,,,,,,,,,,
585163,1616768734142,,,19,,,-0.11,0.15,0.41,0,-3,2,0.19,0,,,,,,,,,,,,,,,,
585203,1616768734182,,,19,,,-0.06,0.1,0.36,0,2,-1,0.12,0,,,,,,,,,,,,,,,,
585243,1616768734222,,,18,,,-0.06,0.12,0.27,0,-2,1,0.14,0,45.84581,5.179871,0.0,725.4,6,2,2.5,0,0.0,-1,0.0,0.0,0.0,0,2.18,9.7541
585283,1616768734262,,,19,,,-0.08,0.1,0.37,0,-0,-1,0.13,0,,,,,,,,,,,,,,,,
585323,1616768734300,,,19,,,-0.07,0.0,0.01,0,-3,-1,0.07,0,,,,,,,,,,,,,,,,
585363,1616768734340,,,18,,,-0.06,0.11,0.07,-0,-5,1,0.12,0,,,,,,,,,,,,,,,,
585403,1616768734380,,,19,,,0.12,-0.01,0.31,-0,0,-3,0.12,0,,,,,,,,,,,,,,,,
585443,1616768734420,,,19,,,0.05,0.06,0.07,-0,-0,-1,0.08,0,45.84581,5.179871,0.0,725.4,6,2,2.5,0,0.0,-1,0.0,0.0,0.0,0,2.18,9.7574
585483,1616768734460,,,19,,,-0.0,0.11,0.29,-0,-3,-2,0.11,0,,,,,,,,,,,,,,,,
585523,1616768734500,,,19,,,0.05,0.11,0.62,-0,0,-2,0.12,0,,,,,,,,,,,,,,,,
585563,1616768734540,,,19,,,0.11,0.06,0.63,0,3,1,0.13,0,,,,,,,,,,,,,,,,
585603,1616768734580,,,19,,,0.19,0.04,0.35,1,12,-1,0.2,0,,,,,,,,,,,,,,,,
585643,1616768734620,,,19,,,0.34,0.0,0.26,1,11,-1,0.34,0,45.84581,5.179871,0.0,725.4,6,2,2.5,0,0.0,-1,0.0,0.0,0.0,0,2.18,9.7607
585683,1616768734660,,,19,,,0.23,-0.02,0.19,1,3,-1,0.23,0,,,,,,,,,,,,,,,,
585723,1616768734700,,,19,,,0.24,0.0,0.39,1,9,-5,0.24,0,,,,,,,,,,,,,,,,
585763,1616768734740,,,19,,,0.17,0.02,0.21,1,1,3,0.17,0,,,,,,,,,,,,,,,,
585803,1616768734780,,,18,,,0.35,0.05,0.55,2,11,-5,0.36,0,,,,,,,,,,,,,,,,
585843,1616768734820,,,19,,,0.39,-0.0,0.83,2,18,-13,0.39,0,45.84581,5.179871,0.0,725.4,6,2,2.5,0,0.0,-1,0.0,0.0,0.0,0,2.18,9.764
585883,1616768734860,,,19,,,0.26,-0.04,0.29,2,12,-8,0.26,0,,,,,,,,,,,,,,,,
585923,1616768734901,,,18,,,0.29,0.01,0.25,3,7,-2,0.29,0,,,,,,,,,,,,,,,,
585963,1616768734941,,,19,,,0.27,0.01,0.18,3,6,-3,0.27,0,,,,,,,,,,,,,,,,
586003,1616768734981,,,19,,,0.21,0.03,0.13,3,4,-3,0.21,0,,,,,,,,,,,,,,,,
586043,1616768735015,302,176,18,0.18,13.4,0.25,-0.03,0.08,3,4,-1,0.25,0,45.84581,5.179871,0.0,725.4,6,2,2.5,0,0.0,-1,0.0,0.0,0.0,0,2.18,9.7674
586083,1616768735055,,,18,,,0.12,0.07,0.32,3,-3,-2,0.14,0,,,,,,,,,,,,,,,,
586123,1616768735097,,,18,,,0.08,0.07,0.64,3,-7,-2,0.11,0,,,,,,,,,,,,,,,,
586163,1616768735137,,,19,,,-0.01,0.09,0.9,4,-8,-2,0.09,0,,,,,,,,,,,,,,,,
586203,1616768735177,,,19,,,-0.14,0.13,0.56,4,-8,-2,0.19,0,,,,,,,,,,,,,,,,
586243,1616768735221,,,19,,,-0.07,0.12,0.43,4,-9,-0,0.14,0,45.84581,5.179871,0.0,725.4,6,2,2.5,0,0.0,-1,0.0,0.0,0.0,0,2.18,9.7707
586283,1616768735261,,,18,,,0.09,0.05,0.62,5,-10,-2,0.1,0,,,,,,,,,,,,,,,,
586323,1616768735301,,,18,,,0.22,-0.01,0.61,5,-9,-2,0.22,0,,,,,,,,,,,,,,,,
586363,1616768735341,,,18,,,0.29,-0.07,0.53,6,-8,0,0.29,0,,,,,,,,,,,,,,,,
586403,1616768735381,,,18,,,0.27,-0.07,0.13,6,-12,3,0.27,0,,,,,,,,,,,,,,,,
586443,1616768735421,,,18,,,0.21,-0.07,0.08,6,-17,4,0.22,0,45.84581,5.179871,0.0,725.4,6,2,2.5,0,0.0,-1,0.0,0.0,0.0,0,2.18,9.774
586483,1616768735461,,,19,,,0.37,0.02,0.45,7,-3,-4,0.37,0,,,,,,,,,,,,,,,,
586523,1616768735501,,,18,,,0.6,0.09,0.74,7,8,-9,0.61,0,,,,,,,,,,,,,,,,
586563,1616768735541,,,19,,,0.43,0.14,0.62,8,3,-6,0.45,0,,,,,,,,,,,,,,,,
586603,1616768735581,,,18,,,0.59,0.22,0.52,9,8,-8,0.63,0,,,,,,,,,,,,,,,,
586643,1616768735621,,,18,,,0.35,0.14,0.08,9,2,-3,0.38,0,45.84581,5.179871,0.0,725.4,6,2,2.5,0,0.0,-1,0.0,0.0,0.0,0,2.18,9.7774
586683,1616768735661,,,19,,,0.24,0.01,0.11,9,-3,0,0.24,0,,,,,,,,,,,,,,,,
586723,1616768735701,,,19,,,0.2,0.07,0.15,10,-7,1,0.21,0,,,,,,,,,,,,,,,,
586763,1616768735741,,,19,,,0.45,0.05,0.2,10,1,1,0.46,0,,,,,,,,,,,,,,,,
586803,1616768735781,,,19,,,0.63,0.06,0.42,11,11,-1,0.64,0,,,,,,,,,,,,,,,,
586843,1616768735821,,,19,,,0.59,0.09,0.66,12,23,-1,0.6,0,45.84581,5.179871,0.0,725.4,6,2,2.5,0,0.0,-1,0.0,0.0,0.0,0,2.18,9.7807
586883,1616768735861,,,19,,,0.61,0.07,0.51,13,33,-1,0.62,0,,,,,,,,,,,,,,,,
586923,1616768735901,,,19,,,0.54,0.05,0.39,13,26,-2,0.54,0,,,,,,,,,,,,,,,,
586963,1616768735941,,,18,,,0.5,0.06,0.49,13,19,-1,0.5,0,,,,,,,,,,,,,,,,
587003,1616768735981,,,18,,,0.43,0.07,0.64,14,16,0,0.43,0,,,,,,,,,,,,,,,,
587043,1616768736014,302,174,19,0.17,13.46,0.41,0.08,0.65,14,13,0,0.42,0,45.845818,5.179869,1.36,725.6,6,2,2.5,0,0.0,-1,0.0,0.0,0.0,0,2.18,9.784
587083,1616768736054,,,18,,,0.38,0.07,0.71,15,10,0,0.39,0,,,,,,,,,,,,,,,,
587123,1616768736100,,,18,,,0.36,0.09,0.78,15,8,1,0.37,0,,,,,,,,,,,,,,,,
587163,1616768736140,,,19,,,0.35,0.08,0.65,16,6,1,0.36,0,,,,,,,,,,,,,,,,
587203,1616768736180,,,18,,,0.39,0.11,0.91,16,5,1,0.4,0,,,,,,,,,,,,,,,,
587243,1616768736220,,,19,,,0.35,0.11,0.72,17,5,1,0.37,0,45.845818,5.179871,2.2,725.6,6,2,2.5,0,0.0,-1,0.0,0.0,0.0,0,2.18,9.7874
