"Interval"|"ms"|0|0|1,"Utc"|"ms"|0|0|1,"FB_p"|"bar"|0|300|50,"Volant"|"F"|0.0|300.0|50,"xFR"|"mm"|0.0|5.0|50,"xRR"|"mm"|0.0|5.0|50,"xFL"|"mm"|0.0|5.0|50,"xRL"|"mm"|0.0|5.0|50,"AccelX"|"G"|-3.0|3.0|50,"AccelY"|"G"|-3.0|3.0|50,"AccelZ"|"G"|-3.0|3.0|50,"Yaw"|"Deg/Sec"|-120|120|50,"Pitch"|"Deg/Sec"|-120|120|50,"Roll"|"Deg/Sec"|-120|120|50,"Gsum"|"G"|0.0|3.0|50,"RPM"|""|0|14000|50,"TPS"|"%"|0|100|50,"WaterTemp"|"?C"|0|300|50,"AirTemp"|"?C"|-1000|1000|50,"MAP"|"KPa"|0|255|50,"Lambda"|""|0|1024|50,"WheelSpeed"|"MPH"|0.0|150.0|50,"OilPress"|"PSI"|0|150|50,"FuelPress"|"PSI"|0|150|50,"OilTemp"|"F"|0|300|50,"Battery"|"Volts"|0.0|20.0|50,"FuelCon"|"L/h"|-1000|1000|50,"Gear"|""|0|10|50,"Advance"|"Deg"|-360|360|50,"Injection"|"ms"|-1000|1000|50,"FuelCon"|"L/100km"|-1000|1000|50,"LC_But_Pres"|""|-1000|1000|50,"LC_Active"|""|-1000|1000|50,"RD_Speed"|""|-1000|1000|50,"RUD_Speed"|""|-1000|1000|50,"LD_Speed"|""|-1000|1000|50,"LUD_Speed"|""|-1000|1000|50,"Latitude"|"Degrees"|-180.0|180.0|10,"Longitude"|"Degrees"|-180.0|180.0|10,"Speed"|"kph"|0.0|150.0|10,"Altitude"|"m"|0.0|4000.0|10,"LapCount"|""|0|0|10,"LapTime"|"Min"|0.0|0.0|10,"Sector"|""|0|0|10,"SectorTime"|"Min"|0.0|0.0|10,"ElapsedTime"|"Min"|0.0|0.0|10,"CurrentLap"|""|0|0|10,"Distance"|"km"|0.0|0.0|10,"SessionTime"|"Min"|0.0|0.0|10
57883,1560698357879,0,2.27,2.07,3.16,1.88,5.08,0.77,0.03,0.59,0,-0,1,0.78,6835,19,77,34,38,886,0.0,552,457,60,119.0,0,1,307,202,52,0,0,0,250,250,0,,,,,,,,,,,,
57903,1560698357899,4,2.27,2.08,3.17,1.88,5.04,0.9,-0.06,0.66,-1,-2,0,0.9,6870,19,77,34,38,884,0.0,544,456,60,120.0,0,1,307,202,52,0,0,0,250,250,0,,,,,,,,,,,,
57923,1560698357919,1,2.27,2.07,3.16,1.88,5.06,0.74,0.0,0.54,0,0,1,0.74,6850,19,77,34,38,884,0.0,558,457,60,118.0,0,1,307,202,52,0,0,0,250,250,0,,,,,,,,,,,,
57943,1560698357939,5,2.26,2.08,3.17,1.88,5.05,0.87,0.01,0.65,-1,-2,0,0.87,6858,19,77,34,38,882,0.0,541,453,60,119.0,0,1,307,202,52,0,0,0,250,250,0,45.700417,4.909441,0.0,201.0,0,0.0,-1,0.0,0.0,0,0.0,0.9657
57963,1560698357959,4,2.26,2.07,3.16,1.88,5.04,0.78,0.01,0.6,-0,-1,0,0.78,6885,19,77,34,38,881,0.0,562,461,60,117.0,0,1,307,202,52,0,0,0,250,250,0,,,,,,,,,,,,
57983,1560698357979,-0,2.28,2.07,3.17,1.88,5.08,0.84,0.04,0.63,-1,-0,0,0.85,6885,19,77,34,38,880,0.0,560,455,60,118.0,0,1,307,202,52,0,0,0,250,250,0,,,,,,,,,,,,
58003,1560698357993,4,2.27,2.07,3.16,1.88,5.07,0.89,-0.07,0.67,-1,-2,0,0.89,6868,19,77,34,38,879,0.0,546,455,60,119.0,0,1,307,202,52,0,0,0,250,250,0,,,,,,,,,,,,
58023,1560698358013,0,2.28,2.07,3.17,1.88,5.04,0.79,0.03,0.56,-0,-1,-1,0.79,6868,19,77,34,38,879,0.0,548,459,60,118.0,0,1,307,202,52,0,0,0,250,250,0,,,,,,,,,,,,
58043,1560698358033,3,2.28,2.07,3.17,1.87,5.05,0.91,-0.07,0.61,-1,-4,-0,0.91,6895,19,77,34,38,878,0.0,550,455,60,119.0,0,1,307,202,52,0,0,0,250,250,0,45.700417,4.909441,0.0,201.0,0,0.0,-1,0.0,0.0,0,0.0,0.9674
58063,1560698358053,2,2.26,2.08,3.17,1.88,5.05,0.76,-0.03,0.54,0,-1,0,0.76,6860,19,77,34,38,879,0.0,546,455,60,118.0,0,1,307,202,52,0,0,0,250,250,0,,,,,,,,,,,,
58083,1560698358073,1,2.27,2.07,3.17,1.88,5.04,0.83,0.04,0.56,-1,-1,0,0.83,6873,19,77,34,38,879,0.0,542,452,60,119.0,0,1,307,202,52,0,0,0,250,250,0,,,,,,,,,,,,
58103,1560698358099,2,2.27,2.07,3.16,1.88,5.04,0.8,-0.01,0.61,-0,-0,1,0.8,6875,19,77,34,38,879,0.0,548,458,60,119.0,0,1,307,202,52,0,0,0,250,250,0,,,,,,,,,,,,
58123,1560698358119,1,2.27,2.07,3.16,1.88,5.07,0.76,0.09,0.53,-0,1,1,0.77,6885,19,77,34,38,881,0.0,557,457,60,118.0,0,1,307,202,52,0,0,0,250,250,0,,,,,,,,,,,,
58143,1560698358139,5,2.26,2.08,3.17,1.88,5.04,0.82,-0.0,0.64,-0,-1,0,0.82,6855,19,77,34,38,882,0.0,552,459,60,119.0,0,1,307,202,52,0,0,0,250,250,0,45.700417,4.909441,0.0,201.0,0,0.0,-1,0.0,0.0,0,0.0,0.969
58163,1560698358159,2,2.28,2.07,3.17,1.88,5.07,0.72,0.09,0.54,1,1,0,0.73,6870,19,77,34,38,884,0.0,548,457,60,118.0,0,1,307,202,52,0,0,0,250,250,0,,,,,,,,,,,,
58183,1560698358179,6,2.28,2.08,3.17,1.89,5.06,0.85,0.03,0.63,-0,-1,-1,0.85,6875,19,77,34,38,885,0.0,552,455,60,119.0,0,1,307,202,52,0,0,0,250,250,0,,,,,,,,,,,,
58203,1560698358199,3,2.27,2.07,3.17,1.87,5.07,0.73,0.02,0.53,1,0,0,0.73,6830,19,77,34,38,886,0.0,562,460,60,119.0,0,1,307,202,52,0,0,0,250,250,0,,,,,,,,,,,,
58223,1560698358219,0,2.27,2.07,3.17,1.89,5.04,0.82,0.05,0.55,0,0,0,0.82,6840,19,77,34,38,889,0.0,546,456,60,119.0,0,1,307,202,52,0,0,0,250,250,0,,,,,,,,,,,,
58243,1560698358239,3,2.28,2.08,3.17,1.88,5.04,0.8,0.03,0.54,0,1,1,0.8,6855,19,77,34,38,890,0.0,539,454,60,120.0,0,1,307,202,52,0,0,0,250,250,0,45.700417,4.909441,0.0,201.0,0,0.0,-1,0.0,0.0,0,0.0,0.9707
58263,1560698358259,1,2.27,2.07,3.17,1.88,5.07,0.78,0.15,0.54,1,2,1,0.79,6840,19,77,34,38,892,0.0,550,455,60,118.0,0,1,307,202,52,0,0,0,250,250,0,,,,,,,,,,,,
58283,1560698358279,5,2.27,2.07,3.17,1.87,5.04,0.84,0.0,0.63,0,-0,-0,0.84,6823,19,77,34,38,892,0.0,536,456,60,120.0,0,1,307,202,52,0,0,0,250,250,0,,,,,,,,,,,,
58303,1560698358301,-1,2.27,2.08,3.16,1.88,5.06,0.75,0.08,0.48,1,1,-1,0.76,6843,19,77,34,38,892,0.0,538,457,60,119.0,0,1,307,202,52,0,0,0,250,250,0,,,,,,,,,,,,
58323,1560698358321,5,2.27,2.07,3.17,1.87,5.06,0.88,-0.01,0.56,-0,-1,-0,0.88,6833,19,77,34,38,891,0.0,541,456,60,120.0,0,1,307,202,52,0,0,0,250,250,0,,,,,,,,,,,,
58343,1560698358341,0,2.28,2.07,3.16,1.88,5.08,0.74,0.04,0.46,1,2,1,0.74,6808,19,77,34,38,890,0.0,540,458,60,118.0,0,1,307,202,52,0,0,0,250,250,0,45.700417,4.909441,0.0,201.0,0,0.0,-1,0.0,0.0,0,0.0,0.9724
58363,1560698358361,17,2.27,2.07,3.16,1.89,5.04,0.83,0.03,0.54,0,1,1,0.83,6810,19,77,34,38,889,0.0,541,452,60,120.0,0,1,307,202,52,0,0,0,250,250,0,,,,,,,,,,,,
58383,1560698358381,3,2.27,2.07,3.16,1.88,5.06,0.79,0.02,0.55,0,1,2,0.79,6833,19,77,34,38,886,0.0,548,458,60,118.0,0,1,307,202,52,0,0,0,250,250,0,,,,,,,,,,,,
58403,1560698358399,0,2.26,2.07,3.17,1.87,5.05,0.79,0.04,0.6,-0,2,1,0.79,6820,19,77,34,38,884,0.0,552,456,60,119.0,0,1,307,202,52,0,0,0,250,250,0,,,,,,,,,,,,
58423,1560698358419,4,2.27,2.07,3.16,1.88,5.04,0.81,-0.04,0.61,0,-0,0,0.82,6815,19,77,34,38,883,0.0,548,456,60,119.0,0,1,307,202,52,0,0,0,250,250,0,,,,,,,,,,,,
58443,1560698358439,1,2.27,2.08,3.16,1.89,5.04,0.78,0.02,0.56,0,-0,-0,0.78,6820,19,77,34,38,883,0.0,543,458,60,119.0,0,1,307,202,52,0,0,0,250,250,0,45.700417,4.909441,0.0,201.0,0,0.0,-1,0.0,0.0,0,0.0,0.974
58463,1560698358459,4,2.27,2.07,3.17,1.88,5.08,0.86,-0.02,0.57,0,-2,-1,0.86,6845,19,77,34,38,882,0.0,544,456,60,120.0,0,1,307,202,52,0,0,0,250,250,0,,,,,,,,,,,,
58483,1560698358479,-0,2.26,2.07,3.16,1.88,5.04,0.79,0.02,0.48,1,-0,-0,0.79,6818,19,77,34,38,881,0.0,553,459,60,118.0,0,1,307,202,52,0,0,0,250,250,0,,,,,,,,,,,,
58503,1560698358500,3,2.27,2.07,3.17,1.87,5.06,0.86,-0.06,0.56,-0,-0,-0,0.86,6825,19,77,34,38,882,0.0,539,454,60,120.0,0,1,307,202,52,0,0,0,250,250,0,,,,,,,,,,,,
58523,1560698358520,-1,2.27,2.07,3.15,1.88,5.04,0.83,-0.03,0.52,1,0,1,0.83,6845,19,77,34,38,882,0.0,543,458,60,118.0,0,1,307,202,52,0,0,0,250,250,0,,,,,,,,,,,,
58543,1560698358540,5,2.26,2.07,3.16,1.88,5.03,0.83,-0.09,0.61,-0,1,1,0.84,6838,19,77,34,38,883,0.0,547,456,60,120.0,0,1,307,202,52,0,0,0,250,250,0,45.700417,4.909441,0.0,201.0,0,0.0,-1,0.0,0.0,0,0.0,0.9757
58563,1560698358560,1,2.27,2.08,3.16,1.88,5.07,0.8,-0.07,0.57,0,1,1,0.8,6818,19,77,34,38,885,0.0,556,457,60,118.0,0,1,307,202,52,0,0,0,250,250,0,,,,,,,,,,,,
58583,1560698358580,0,2.26,2.08,3.16,1.88,5.05,0.84,-0.1,0.61,-0,-1,1,0.85,6825,19,77,34,38,887,0.0,537,455,60,120.0,0,1,307,202,52,0,0,0,250,250,0,,,,,,,,,,,,
58603,1560698358600,3,2.26,2.07,3.17,1.87,5.06,0.8,-0.08,0.58,0,-1,1,0.81,6850,19,77,34,38,888,0.0,552,458,60,118.0,0,1,307,202,52,0,0,0,250,250,0,,,,,,,,,,,,
58623,1560698358620,0,2.28,2.07,3.16,1.88,5.04,0.82,-0.07,0.58,0,-0,1,0.82,6848,19,77,34,38,890,0.0,547,458,60,119.0,0,1,307,202,52,0,0,0,250,250,0,,,,,,,,,,,,
58643,1560698358640,4,2.27,2.08,3.16,1.88,5.04,0.81,-0.14,0.62,-0,-0,2,0.83,6825,19,77,34,38,891,0.0,542,460,60,120.0,0,1,307,202,52,0,0,0,250,250,0,45.700417,4.909441,0.0,201.0,0,0.0,-1,0.0,0.0,0,0.0,0.9774
58663,1560698358660,1,2.27,2.07,3.16,1.88,5.07,0.8,-0.06,0.58,0,0,1,0.81,6858,19,77,34,38,891,0.0,542,457,60,118.0,0,1,307,202,52,0,0,0,250,250,0,,,,,,,,,,,,
58683,1560698358680,5,2.27,2.07,3.16,1.88,5.08,0.83,-0.12,0.66,-0,-1,-0,0.84,6865,19,77,34,38,891,0.0,542,455,60,119.0,0,1,307,202,52,0,0,0,250,250,0,,,,,,,,,,,,
58703,1560698358700,1,2.27,2.07,3.16,1.88,5.08,0.87,-0.19,0.67,0,-1,-1,0.89,6853,19,77,34,38,889,0.0,550,455,60,118.0,0,1,307,202,52,0,0,0,250,250,0,,,,,,,,,,,,
58723,1560698358720,1,2.27,2.07,3.16,1.88,5.05,0.82,-0.1,0.6,-0,-2,-1,0.83,6850,19,77,34,38,888,0.0,547,456,60,119.0,0,1,307,202,52,0,0,0,250,250,0,,,,,,,,,,,,
58743,1560698358740,1,2.28,2.07,3.16,1.89,5.06,0.93,-0.19,0.64,-0,-2,-1,0.95,6878,19,77,34,38,886,0.0,545,460,60,118.0,0,1,307,202,52,0,0,0,250,250,0,45.700417,4.909441,0.0,201.0,0,0.0,-1,0.0,0.0,0,0.0,0.979
58763,1560698358760,1,2.27,2.08,3.16,1.89,5.04,0.79,-0.1,0.53,-0,-1,0,0.8,6875,19,77,34,38,885,0.0,555,455,60,119.0,0,1,307,202,52,0,0,0,250,250,0,,,,,,,,,,,,
58783,1560698358780,2,2.26,2.08,3.16,1.88,5.04,0.89,-0.14,0.66,-1,-1,1,0.9,6853,19,77,34,38,883,0.0,547,454,60,120.0,0,1,307,202,52,0,0,0,250,250,0,,,,,,,,,,,,
58803,1560698358800,-1,2.28,2.07,3.16,1.88,5.06,0.82,-0.14,0.63,0,-0,1,0.83,6873,19,77,34,38,880,0.0,556,460,60,118.0,0,1,307,202,52,0,0,0,250,250,0,,,,,,,,,,,,
58823,1560698358820,3,2.28,2.07,3.16,1.88,5.07,0.84,-0.12,0.67,-1,1,1,0.85,6883,19,77,34,38,879,0.0,545,456,60,119.0,0,1,307,202,52,0,0,0,250,250,0,,,,,,,,,,,,
58843,1560698358840,0,2.28,2.07,3.16,1.87,5.05,0.86,-0.17,0.72,0,0,0,0.88,6875,19,77,34,38,878,0.0,550,457,60,119.0,0,1,307,202,52,0,0,0,250,250,0,45.700417,4.909441,0.0,201.0,0,0.0,-1,0.0,0.0,0,0.0,0.9807
58863,1560698358860,-1,2.27,2.07,3.16,1.88,5.06,0.78,-0.05,0.62,-1,-2,0,0.78,6860,19,77,34,38,878,0.0,542,458,60,119.0,0,1,307,202,52,0,0,0,250,250,0,,,,,,,,,,,,
58883,1560698358880,3,2.26,2.07,3.16,1.89,5.04,0.91,-0.12,0.71,-0,-2,-0,0.91,6893,19,77,34,38,877,0.0,544,455,60,119.0,0,1,307,202,52,0,0,0,250,250,0,,,,,,,,,,,,
58903,1560698358900,0,2.26,2.08,3.16,1.88,5.04,0.74,-0.06,0.6,0,-1,-0,0.74,6860,19,77,34,38,877,0.0,546,459,60,118.0,0,1,307,202,52,0,0,0,250,250,0,,,,,,,,,,,,
58923,1560698358920,4,2.27,2.07,3.16,1.89,5.04,0.87,-0.07,0.69,-1,-1,-0,0.87,6860,19,77,34,38,877,0.0,542,455,60,119.0,0,1,307,202,52,0,0,0,250,250,0,,,,,,,,,,,,
58943,1560698358940,0,2.28,2.07,3.16,1.88,5.06,0.82,-0.06,0.66,0,-0,-0,0.82,6893,19,77,34,38,878,0.0,540,457,60,118.0,0,1,307,202,52,0,0,0,250,250,0,45.700417,4.909441,0.0,201.0,0,0.0,-1,0.0,0.0,0,0.0,0.9824
58963,1560698358960,2,2.28,2.07,3.17,1.88,5.05,0.86,0.0,0.68,-1,-0,-1,0.86,6900,19,78,34,38,881,0.0,550,456,60,119.0,0,1,307,202,52,0,0,0,250,250,0,,,,,,,,,,,,
58983,1560698358980,4,2.26,2.08,3.16,1.88,5.05,0.91,-0.11,0.73,-0,-2,-1,0.92,6883,19,77,34,38,881,0.0,550,455,60,119.0,0,1,307,202,52,0,0,0,250,250,0,,,,,,,,,,,,
59003,1560698358994,0,2.26,2.07,3.16,1.88,5.04,0.79,-0.01,0.57,-0,-1,-1,0.8,6883,19,77,34,38,884,0.0,552,455,60,119.0,0,1,307,202,52,0,0,0,250,250,0,,,,,,,,,,,,
59023,1560698359014,3,2.28,2.07,3.15,1.88,5.06,0.92,-0.12,0.62,-1,-3,-0,0.93,6906,18,77,34,38,885,0.0,554,455,60,119.0,0,1,307,202,52,0,0,0,250,250,0,,,,,,,,,,,,
59043,1560698359034,1,2.26,2.07,3.16,1.88,5.07,0.77,-0.12,0.55,0,-0,1,0.78,6880,19,77,34,38,884,0.0,553,457,60,118.0,0,1,307,202,52,0,0,0,250,250,0,45.700417,4.909441,0.0,201.0,0,0.0,-1,0.0,0.0,0,0.0,0.984
59063,1560698359054,-0,2.26,2.07,3.16,1.88,5.06,0.84,-0.03,0.56,-1,-1,2,0.84,6895,18,78,34,38,884,0.0,547,456,60,119.0,0,1,307,202,52,0,0,0,250,250,0,,,,,,,,,,,,
59083,1560698359074,3,2.27,2.07,3.16,1.88,5.06,0.82,-0.06,0.61,-0,-1,2,0.82,6903,19,78,34,38,882,0.0,551,459,60,118.0,0,1,307,202,52,0,0,0,250,250,0,,,,,,,,,,,,
59103,1560698359101,1,2.26,2.08,3.16,1.88,5.07,0.74,0.08,0.51,-0,1,1,0.75,6911,19,78,34,38,881,0.0,554,455,60,119.0,0,1,307,202,52,0,0,0,250,250,0,,,,,,,,,,,,
59123,1560698359121,6,2.26,2.08,3.16,1.88,5.04,0.83,-0.01,0.59,-1,-2,0,0.83,6870,19,78,34,38,878,0.0,555,457,60,119.0,0,1,307,202,52,0,0,0,250,250,0,,,,,,,,,,,,
59143,1560698359141,3,2.26,2.07,3.16,1.88,5.03,0.73,0.01,0.49,0,0,0,0.73,6900,18,78,34,38,875,0.0,547,457,60,118.0,0,1,307,202,52,0,0,0,250,250,0,45.700417,4.909441,0.0,201.0,0,0.0,-1,0.0,0.0,0,0.0,0.9857
59163,1560698359161,3,2.27,2.07,3.16,1.87,5.06,0.81,0.01,0.53,-1,-2,-1,0.81,6903,19,78,34,38,874,0.0,547,454,60,119.0,0,1,307,202,52,0,0,0,250,250,0,,,,,,,,,,,,
59183,1560698359181,1,2.26,2.07,3.16,1.87,5.05,0.78,-0.08,0.56,0,-0,0,0.79,6870,19,78,34,38,872,0.0,552,456,60,119.0,0,1,307,202,52,0,0,0,250,250,0,,,,,,,,,,,,
59203,1560698359200,1,2.27,2.07,3.16,1.87,5.07,0.78,-0.01,0.52,-0,-0,0,0.78,6855,19,78,34,38,871,0.0,541,458,60,119.0,0,1,307,202,52,0,0,0,250,250,0,,,,,,,,,,,,
59223,1560698359220,2,2.27,2.07,3.16,1.88,5.04,0.83,-0.1,0.57,-0,-0,1,0.83,6870,18,78,34,38,869,0.0,548,455,60,119.0,0,1,307,202,52,0,0,0,250,250,0,,,,,,,,,,,,
59243,1560698359240,0,2.27,2.07,3.16,1.88,5.07,0.74,-0.0,0.5,1,1,1,0.74,6855,18,78,34,38,869,0.0,550,455,60,118.0,0,1,307,202,52,0,0,0,250,250,0,45.700417,4.909441,0.0,201.0,0,0.0,-1,0.0,0.0,0,0.0,0.9874
59263,1560698359260,5,2.26,2.08,3.16,1.88,5.04,0.81,-0.09,0.57,-0,-2,0,0.82,6853,18,78,34,38,868,0.0,543,455,60,120.0,0,1,307,202,52,0,0,0,250,250,0,,,,,,,,,,,,
59283,1560698359280,2,2.27,2.07,3.16,1.87,5.06,0.77,-0.09,0.54,0,0,0,0.77,6853,18,78,34,38,869,0.0,543,458,60,118.0,0,1,307,202,52,0,0,0,250,250,0,,,,,,,,,,,,
59303,1560698359300,1,2.26,2.08,3.15,1.88,5.05,0.79,-0.07,0.55,-0,-1,1,0.8,6855,18,78,34,38,871,0.0,546,456,60,119.0,0,1,307,202,52,0,0,0,250,250,0,,,,,,,,,,,,
59323,1560698359320,2,2.27,2.07,3.16,1.88,5.08,0.79,-0.14,0.61,0,1,2,0.8,6843,18,78,34,38,872,0.0,551,456,60,119.0,0,1,307,202,52,0,0,0,250,250,0,,,,,,,,,,,,
59343,1560698359340,0,2.27,2.07,3.16,1.88,5.08,0.75,-0.08,0.57,0,1,2,0.76,6838,18,78,34,38,875,0.0,546,454,60,119.0,0,1,307,202,52,0,0,0,250,250,0,45.700417,4.909441,0.0,201.0,0,0.0,-1,0.0,0.0,0,0.0,0.989
59363,1560698359360,4,2.26,2.08,3.16,1.88,5.07,0.8,-0.13,0.65,-0,0,1,0.81,6850,18,78,34,38,876,0.0,550,459,60,119.0,0,1,307,202,52,0,0,0,250,250,0,,,,,,,,,,,,
59383,1560698359380,0,2.26,2.07,3.16,1.88,5.07,0.76,-0.04,0.54,0,1,-0,0.76,6855,18,78,34,38,877,0.0,554,457,60,118.0,0,1,307,202,52,0,0,0,250,250,0,,,,,,,,,,,,
59403,1560698359400,5,2.27,2.07,3.17,1.87,5.07,0.81,-0.09,0.62,-0,-2,-1,0.82,6815,18,78,34,38,878,0.0,541,457,60,120.0,0,1,307,202,52,0,0,0,250,250,0,,,,,,,,,,,,
59423,1560698359420,0,2.27,2.07,3.16,1.88,5.07,0.77,-0.04,0.54,1,0,-1,0.77,6850,18,78,34,38,877,0.0,543,459,60,118.0,0,1,307,202,52,0,0,0,250,250,0,,,,,,,,,,,,
59443,1560698359440,4,2.27,2.08,3.17,1.88,5.08,0.85,-0.06,0.57,-0,-2,-1,0.85,6838,18,78,34,38,878,0.0,547,454,60,119.0,0,1,307,202,52,0,0,0,250,250,0,45.700417,4.909441,0.0,201.0,0,0.0,-1,0.0,0.0,0,0.0,0.9907
59463,1560698359460,2,2.25,2.07,3.16,1.87,5.03,0.79,-0.12,0.54,0,-1,-0,0.8,6815,19,78,34,38,876,0.0,554,462,60,118.0,0,1,307,202,52,0,0,0,250,250,0,,,,,,,,,,,,
59483,1560698359480,1,2.27,2.07,3.16,1.88,5.06,0.85,-0.01,0.52,-0,-1,0,0.85,6810,19,78,34,38,876,0.0,538,454,60,119.0,0,1,307,202,52,0,0,0,250,250,0,,,,,,,,,,,,
59503,1560698359501,3,2.27,2.07,3.16,1.88,5.08,0.81,-0.05,0.53,0,-0,1,0.82,6853,18,78,34,38,874,0.0,539,457,60,119.0,0,1,307,202,52,0,0,0,250,250,0,,,,,,,,,,,,
59523,1560698359521,0,2.26,2.08,3.16,1.88,5.05,0.76,0.07,0.49,0,1,1,0.77,6840,19,78,34,38,875,0.0,551,454,60,118.0,0,1,307,202,52,0,0,0,250,250,0,,,,,,,,,,,,
59543,1560698359541,3,2.27,2.08,3.15,1.89,5.04,0.84,-0.07,0.58,-0,-2,1,0.84,6820,18,78,34,38,875,0.0,537,455,60,119.0,0,1,307,202,52,0,0,0,250,250,0,45.700417,4.909441,0.0,201.0,0,0.0,-1,0.0,0.0,0,0.0,0.9924
59563,1560698359561,1,2.27,2.08,3.16,1.89,5.08,0.72,0.03,0.45,0,-1,1,0.72,6810,18,78,34,38,876,0.0,543,458,60,118.0,0,1,307,202,52,0,0,0,250,250,0,,,,,,,,,,,,
59583,1560698359581,4,2.27,2.07,3.16,1.88,5.07,0.85,-0.01,0.55,-0,-2,0,0.85,6823,18,78,34,38,877,0.0,542,456,60,120.0,0,1,307,202,52,0,0,0,250,250,0,,,,,,,,,,,,
59603,1560698359601,1,2.26,2.08,3.16,1.88,5.04,0.71,0.03,0.45,1,-0,1,0.71,6803,18,78,34,38,877,0.0,550,458,60,118.0,0,1,307,202,52,0,0,0,250,250,0,,,,,,,,,,,,
59623,1560698359621,5,2.27,2.07,3.16,1.88,5.06,0.82,0.02,0.52,-0,-1,1,0.82,6808,18,78,34,38,879,0.0,545,453,60,119.0,0,1,307,202,52,0,0,0,250,250,0,,,,,,,,,,,,
59643,1560698359641,3,2.27,2.07,3.16,1.88,5.04,0.76,0.06,0.51,0,0,0,0.76,6840,18,78,34,38,878,0.0,546,458,60,118.0,0,1,307,202,52,0,0,0,250,250,0,45.700417,4.909441,0.0,201.0,0,0.0,-1,0.0,0.0,0,0.0,0.994
59663,1560698359661,5,2.28,2.07,3.17,1.87,5.06,0.8,0.08,0.58,-0,0,-1,0.8,6840,18,78,34,38,878,0.0,558,452,60,119.0,0,1,307,202,52,0,0,0,250,250,0,,,,,,,,,,,,
59683,1560698359681,0,2.27,2.07,3.16,1.89,5.05,0.84,-0.04,0.59,0,-1,-1,0.84,6818,18,78,34,38,877,0.0,554,458,60,118.0,0,1,307,202,52,0,0,0,250,250,0,,,,,,,,,,,,
59703,1560698359699,-2,2.27,2.07,3.15,1.88,5.07,0.81,0.05,0.53,0,-2,-1,0.81,6815,18,78,34,38,877,0.0,538,456,60,119.0,0,1,307,202,52,0,0,0,250,250,0,,,,,,,,,,,,
59723,1560698359719,3,2.28,2.07,3.16,1.88,5.05,0.88,-0.06,0.55,-0,-2,-0,0.88,6810,18,78,34,38,875,0.0,541,456,60,119.0,0,1,307,202,52,0,0,0,250,250,0,,,,,,,,,,,,
59743,1560698359739,1,2.27,2.07,3.16,1.87,5.06,0.8,0.03,0.44,0,-1,1,0.8,6843,18,78,34,38,874,0.0,542,455,60,118.0,0,1,307,202,52,0,0,0,250,250,0,45.700417,4.909441,0.0,201.0,0,0.0,-1,0.0,0.0,0,0.0,0.9957
59763,1560698359759,4,2.27,2.07,3.16,1.88,5.04,0.85,-0.06,0.54,-0,-1,1,0.86,6791,18,78,34,38,874,0.0,534,453,60,119.0,0,1,307,202,52,0,0,0,250,250,0,,,,,,,,,,,,
59783,1560698359779,-0,2.27,2.07,3.16,1.88,5.08,0.8,-0.03,0.48,0,-0,1,0.8,6808,18,78,34,39,873,0.0,541,458,60,118.0,0,1,310,202,52,0,0,0,250,250,0,,,,,,,,,,,,
59803,1560698359801,5,2.26,2.07,3.16,1.88,5.04,0.83,-0.12,0.58,-0,0,1,0.84,6835,18,78,34,38,873,0.0,547,456,60,119.0,0,1,307,202,52,0,0,0,250,250,0,,,,,,,,,,,,
59823,1560698359821,1,2.27,2.07,3.16,1.87,5.07,0.77,-0.05,0.55,1,1,0,0.78,6818,18,78,34,38,872,0.0,543,456,60,118.0,0,1,307,202,52,0,0,0,250,250,0,,,,,,,,,,,,
59843,1560698359841,5,2.26,2.07,3.16,1.88,5.08,0.82,-0.11,0.59,-0,-2,-0,0.83,6823,18,78,34,38,874,0.0,538,455,60,119.0,0,1,307,202,52,0,0,0,250,250,0,45.700417,4.909441,0.0,201.0,0,0.0,-1,0.0,0.0,0,0.0,0.9974
59863,1560698359861,3,2.26,2.07,3.16,1.87,5.06,0.78,-0.07,0.54,0,-0,-0,0.79,6850,18,78,34,38,875,0.0,543,457,60,118.0,0,1,307,208,54,0,0,0,250,250,0,,,,,,,,,,,,
59883,1560698359881,-0,2.27,2.07,3.16,1.88,5.07,0.82,-0.07,0.55,-0,-2,-1,0.83,6860,18,78,34,38,877,0.0,544,457,60,119.0,0,1,307,202,54,0,0,0,250,250,0,,,,,,,,,,,,
59903,1560698359902,2,2.26,2.07,3.16,1.88,5.04,0.81,-0.12,0.57,-0,-1,-1,0.82,6835,18,78,34,38,877,0.0,552,454,60,119.0,0,1,307,202,54,0,0,0,250,250,0,,,,,,,,,,,,
59923,1560698359922,-0,2.26,2.08,3.16,1.88,5.04,0.8,-0.04,0.53,0,-1,-1,0.8,6845,18,78,34,38,879,0.0,543,455,60,118.0,0,1,307,202,54,0,0,0,250,250,0,,,,,,,,,,,,
59943,1560698359942,4,2.26,2.08,3.16,1.87,5.05,0.86,-0.13,0.59,-0,-1,-2,0.87,6873,18,78,34,38,880,0.0,552,457,60,119.0,0,1,307,202,54,0,0,0,250,250,0,45.700417,4.909441,0.0,201.0,0,0.0,-1,0.0,0.0,0,0.0,0.999
59963,1560698359962,1,2.28,2.07,3.16,1.88,5.04,0.78,-0.02,0.48,0,1,-2,0.78,6880,18,78,34,38,882,0.0,558,454,60,119.0,0,1,307,202,54,0,0,0,250,250,0,,,,,,,,,,,,
59983,1560698359982,5,2.27,2.08,3.16,1.89,5.04,0.84,-0.06,0.55,-0,-2,-2,0.84,6840,18,78,34,38,883,0.0,547,457,60,119.0,0,1,307,202,52,0,0,0,250,250,0,,,,,,,,,,,,
60003,1560698359993,3,2.27,2.07,3.16,1.87,5.06,0.78,-0.06,0.46,1,-1,-1,0.79,6885,18,78,34,38,882,0.0,552,459,60,118.0,0,1,307,202,52,0,0,0,250,250,0,,,,,,,,,,,,
60023,1560698360013,1,2.27,2.07,3.17,1.87,5.06,0.82,-0.05,0.49,-0,-2,0,0.82,6878,18,78,34,38,883,0.0,542,455,60,119.0,0,1,307,202,52,0,0,0,250,250,0,,,,,,,,,,,,
60043,1560698360033,4,2.27,2.07,3.16,1.89,5.04,0.82,-0.14,0.58,0,-0,1,0.83,6868,18,78,34,38,881,0.0,544,457,60,119.0,0,1,307,202,52,0,0,0,250,250,0,45.700417,4.909441,0.0,201.0,0,0.0,-1,0.0,0.0,0,0.0,1.0007
60063,1560698360053,0,2.27,2.08,3.16,1.89,5.04,0.77,-0.06,0.53,1,0,0,0.77,6855,18,78,34,38,881,0.0,537,458,60,118.0,0,1,307,202,52,0,0,0,250,250,0,,,,,,,,,,,,
60083,1560698360073,4,2.27,2.08,3.15,1.89,5.04,0.81,-0.15,0.59,-0,-0,-0,0.82,6888,18,78,34,38,879,0.0,543,456,60,120.0,0,1,307,202,52,0,0,0,250,250,0,,,,,,,,,,,,
60103,1560698360101,1,2.26,2.08,3.16,1.88,5.06,0.75,-0.07,0.53,1,1,-1,0.75,6868,18,78,34,38,878,0.0,548,456,60,118.0,0,1,307,202,52,0,0,0,250,250,0,,,,,,,,,,,,
60123,1560698360121,0,2.26,2.08,3.16,1.89,5.04,0.8,-0.11,0.58,-0,-1,-2,0.81,6853,18,78,34,38,877,0.0,541,455,60,120.0,0,1,307,202,52,0,0,0,250,250,0,,,,,,,,,,,,
60143,1560698360141,3,2.26,2.08,3.16,1.88,5.04,0.79,-0.11,0.56,0,-1,-2,0.8,6878,18,78,34,38,877,0.0,545,459,60,118.0,0,1,307,202,52,0,0,0,250,250,0,45.700417,4.909441,0.0,201.0,0,0.0,-1,0.0,0.0,0,0.0,1.0024
60163,1560698360161,-1,2.28,2.07,3.16,1.88,5.07,0.8,-0.09,0.55,-0,-1,-2,0.81,6863,18,78,34,38,877,0.0,551,456,60,119.0,0,1,307,202,52,0,0,0,250,250,0,,,,,,,,,,,,
60183,1560698360181,4,2.28,2.08,3.16,1.88,5.05,0.81,-0.18,0.59,-0,-0,-1,0.83,6850,18,78,34,38,877,0.0,552,456,60,120.0,0,1,307,202,52,0,0,0,250,250,0,,,,,,,,,,,,
60203,1560698360201,-0,2.27,2.08,3.16,1.88,5.04,0.8,-0.13,0.55,0,0,-1,0.81,6820,18,78,34,38,877,0.0,546,452,60,119.0,0,1,307,202,52,0,0,0,250,250,0,,,,,,,,,,,,
60223,1560698360221,2,2.28,2.07,3.17,1.88,5.07,0.83,-0.19,0.59,-0,0,-2,0.85,6865,18,78,34,38,876,0.0,551,454,60,120.0,0,1,307,202,52,0,0,0,250,250,0,,,,,,,,,,,,
60243,1560698360241,1,2.27,2.07,3.16,1.89,5.04,0.79,-0.09,0.54,1,1,-2,0.8,6835,18,78,34,38,875,0.0,556,457,60,118.0,0,1,307,202,52,0,0,0,250,250,0,45.700417,4.909441,0.0,201.0,0,0.0,-1,0.0,0.0,0,0.0,1.0041
60263,1560698360261,5,2.26,2.08,3.16,1.88,5.05,0.84,-0.15,0.6,-0,-1,-1,0.85,6833,18,78,34,38,875,0.0,544,458,60,119.0,0,1,307,202,52,0,0,0,250,250,0,,,,,,,,,,,,
60283,1560698360281,2,2.26,2.08,3.16,1.88,5.05,0.8,-0.13,0.52,0,-0,-0,0.81,6848,18,78,34,38,874,0.0,548,458,60,118.0,0,1,307,202,52,0,0,0,250,250,0,,,,,,,,,,,,
60303,1560698360301,1,2.26,2.07,3.16,1.88,5.04,0.83,-0.11,0.55,-0,-1,0,0.84,6840,18,78,34,38,875,0.0,550,456,60,119.0,0,1,307,202,52,0,0,0,250,250,0,,,,,,,,,,,,
60323,1560698360321,3,2.26,2.08,3.16,1.88,5.04,0.82,-0.15,0.59,0,-0,0,0.83,6825,18,79,34,38,874,0.0,555,460,60,118.0,0,1,307,202,52,0,0,0,250,250,0,,,,,,,,,,,,
60343,1560698360341,-1,2.27,2.07,3.15,1.89,5.04,0.78,-0.05,0.52,1,0,0,0.78,6813,18,79,34,38,875,0.0,543,458,60,119.0,0,1,307,202,52,0,0,0,250,250,0,45.700417,4.909441,0.0,201.0,0,0.0,-1,0.0,0.0,0,0.0,1.0057
60363,1560698360361,3,2.27,2.07,3.16,1.88,5.04,0.81,-0.1,0.59,0,-0,-0,0.82,6843,18,79,34,38,874,0.0,548,460,60,119.0,0,1,307,202,52,0,0,0,250,250,0,,,,,,,,,,,,
60383,1560698360381,-1,2.27,2.07,3.16,1.88,5.08,0.75,0.04,0.52,1,0,-1,0.75,6820,18,79,34,38,874,0.0,543,456,60,118.0,0,1,307,202,52,0,0,0,250,250,0,,,,,,,,,,,,
60403,1560698360401,4,2.27,2.07,3.16,1.87,5.06,0.84,-0.09,0.66,0,-2,-3,0.84,6815,18,79,34,38,874,0.0,534,457,60,120.0,0,1,307,202,52,0,0,0,250,250,0,,,,,,,,,,,,
60423,1560698360421,1,2.28,2.07,3.16,1.88,5.08,0.76,-0.01,0.58,1,-1,-3,0.76,6850,18,79,34,38,873,0.0,539,457,60,118.0,0,1,307,202,52,0,0,0,250,250,0,,,,,,,,,,,,
60443,1560698360441,5,2.26,2.08,3.16,1.88,5.06,0.89,-0.04,0.64,0,-2,-2,0.89,6845,18,79,34,38,874,0.0,548,456,60,119.0,0,1,307,202,52,0,0,0,250,250,0,45.700417,4.909441,0.0,201.0,0,0.0,-1,0.0,0.0,0,0.0,1.0074
60463,1560698360461,1,2.26,2.07,3.16,1.88,5.04,0.79,-0.05,0.56,1,-1,-1,0.79,6808,18,79,34,38,873,0.0,543,455,60,119.0,0,1,307,202,52,0,0,0,250,250,0,,,,,,,,,,,,
60483,1560698360481,-1,2.27,2.07,3.15,1.89,5.04,0.88,0.01,0.58,0,-1,-1,0.88,6820,18,79,34,38,874,0.0,538,453,60,120.0,0,1,307,202,52,0,0,0,250,250,0,,,,,,,,,,,,
60503,1560698360500,3,2.27,2.07,3.15,1.89,5.03,0.82,-0.01,0.55,0,-0,0,0.82,6853,18,79,34,38,874,0.0,544,461,60,119.0,0,1,307,202,52,0,0,0,250,250,0,,,,,,,,,,,,
60523,1560698360520,-1,2.27,2.07,3.16,1.88,5.07,0.79,0.08,0.52,0,1,-0,0.8,6840,18,79,34,38,875,0.0,556,456,60,119.0,0,1,307,202,52,0,0,0,250,250,0,,,,,,,,,,,,
60543,1560698360540,2,2.27,2.07,3.15,1.88,5.04,0.83,-0.04,0.57,0,-1,-0,0.84,6825,18,79,34,38,875,0.0,556,460,60,118.0,0,1,307,202,52,0,0,0,250,250,0,45.700417,4.909441,0.0,201.0,0,0.0,-1,0.0,0.0,0,0.0,1.0091
60563,1560698360560,1,2.26,2.07,3.16,1.88,5.07,0.74,0.05,0.46,0,0,1,0.74,6843,18,79,34,38,875,0.0,550,460,60,118.0,0,1,307,202,52,0,0,0,250,250,0,,,,,,,,,,,,
60583,1560698360580,4,2.26,2.07,3.16,1.88,5.07,0.85,-0.01,0.54,-0,-1,1,0.85,6848,18,79,34,38,875,0.0,544,457,60,120.0,0,1,307,202,52,0,0,0,250,250,0,,,,,,,,,,,,
60603,1560698360600,-0,2.27,2.07,3.16,1.88,5.06,0.7,0.04,0.45,1,1,0,0.7,6813,18,79,34,38,875,0.0,557,461,60,118.0,0,1,307,202,52,0,0,0,250,250,0,,,,,,,,,,,,
60623,1560698360620,5,2.27,2.07,3.16,1.89,5.04,0.83,0.03,0.56,-0,-0,-1,0.83,6823,18,79,34,38,875,0.0,537,452,60,119.0,0,1,307,202,52,0,0,0,250,250,0,,,,,,,,,,,,
60643,1560698360640,2,2.27,2.07,3.17,1.88,5.05,0.76,0.06,0.52,0,0,-0,0.76,6838,18,79,34,38,874,0.0,543,456,60,119.0,0,1,307,202,52,0,0,0,250,250,0,45.700417,4.909441,0.0,201.0,0,0.0,-1,0.0,0.0,0,0.0,1.0107
60663,1560698360660,1,2.27,2.07,3.16,1.89,5.04,0.84,0.06,0.61,-0,0,-1,0.84,6838,18,79,34,38,874,0.0,538,453,60,119.0,0,1,307,202,52,0,0,0,250,250,0,,,,,,,,,,,,
60683,1560698360680,3,2.26,2.08,3.16,1.89,5.04,0.85,-0.02,0.6,0,-2,-1,0.85,6800,18,79,34,38,874,0.0,537,457,60,119.0,0,1,307,202,52,0,0,0,250,250,0,,,,,,,,,,,,
60703,1560698360700,1,2.27,2.07,3.16,1.88,5.04,0.85,0.05,0.6,-0,-2,-1,0.85,6823,18,79,34,38,875,0.0,532,458,60,119.0,0,1,307,202,52,0,0,0,250,250,0,,,,,,,,,,,,
60723,1560698360720,4,2.28,2.07,3.17,1.88,5.08,0.92,-0.03,0.6,-0,-2,-1,0.92,6838,18,79,34,38,874,0.0,544,458,60,118.0,0,1,307,202,52,0,0,0,250,250,0,,,,,,,,,,,,
60743,1560698360740,0,2.26,2.08,3.16,1.88,5.05,0.83,0.01,0.46,0,-1,1,0.83,6835,18,79,34,38,875,0.0,543,459,60,118.0,0,1,307,202,52,0,0,0,250,250,0,45.700417,4.909441,0.0,201.0,0,0.0,-1,0.0,0.0,0,0.0,1.0124
60763,1560698360760,5,2.26,2.08,3.16,1.88,5.05,0.88,-0.1,0.55,-0,-1,1,0.89,6803,18,79,34,38,874,0.0,546,459,60,119.0,0,1,307,202,52,0,0,0,250,250,0,,,,,,,,,,,,
60783,1560698360780,-1,2.28,2.07,3.16,1.87,5.06,0.84,-0.06,0.48,0,0,1,0.84,6835,18,79,34,38,873,0.0,549,460,60,118.0,0,1,307,202,52,0,0,0,250,250,0,,,,,,,,,,,,
60803,1560698360800,5,2.26,2.08,3.16,1.88,5.05,0.84,-0.11,0.58,-0,0,1,0.85,6833,18,79,34,38,873,0.0,546,457,60,120.0,0,1,307,202,52,0,0,0,250,250,0,,,,,,,,,,,,
60823,1560698360820,3,2.28,2.07,3.17,1.88,5.08,0.79,-0.06,0.53,0,0,0,0.79,6815,18,79,34,38,871,0.0,556,457,60,118.0,0,1,307,202,52,0,0,0,250,250,0,,,,,,,,,,,,
60843,1560698360840,-0,2.27,2.07,3.17,1.88,5.04,0.83,-0.11,0.56,-0,-2,-0,0.83,6808,18,79,34,38,871,0.0,543,456,60,119.0,0,1,307,202,52,0,0,0,250,250,0,45.700417,4.909441,0.0,201.0,0,0.0,-1,0.0,0.0,0,0.0,1.0141
60863,1560698360860,2,2.28,2.07,3.16,1.88,5.07,0.78,-0.08,0.51,0,-1,-0,0.79,6858,18,79,34,38,870,0.0,550,460,60,118.0,0,1,307,202,52,0,0,0,250,250,0,,,,,,,,,,,,
60883,1560698360880,-0,2.28,2.07,3.16,1.88,5.05,0.84,-0.07,0.54,0,-1,-0,0.84,6845,18,79,34,38,871,0.0,552,457,60,119.0,0,1,307,202,52,0,0,0,250,250,0,,,,,,,,,,,,
60903,1560698360900,4,2.27,2.08,3.17,1.87,5.04,0.8,-0.12,0.52,0,-1,-0,0.8,6823,18,79,34,38,871,0.0,539,454,60,119.0,0,1,307,202,52,0,0,0,250,250,0,,,,,,,,,,,,
60923,1560698360920,1,2.26,2.07,3.16,1.89,5.05,0.8,-0.03,0.49,0,-1,-0,0.8,6845,18,79,34,38,871,0.0,541,459,60,118.0,0,1,307,202,52,0,0,0,250,250,0,,,,,,,,,,,,
60943,1560698360940,5,2.27,2.07,3.16,1.89,5.03,0.82,-0.12,0.55,-0,-0,-1,0.83,6873,18,79,34,38,870,0.0,547,455,60,120.0,0,1,307,202,52,0,0,0,250,250,0,45.700417,4.909441,0.0,201.0,0,0.0,-1,0.0,0.0,0,0.0,1.0157
60963,1560698360960,1,2.27,2.07,3.16,1.88,5.08,0.77,0.02,0.48,1,0,-1,0.77,6848,18,79,34,38,869,0.0,551,456,60,119.0,0,1,307,202,52,0,0,0,250,250,0,,,,,,,,,,,,
60983,1560698360980,5,2.27,2.07,3.15,1.89,5.04,0.86,-0.06,0.58,-0,-2,-1,0.86,6858,18,79,34,38,869,0.0,543,457,60,120.0,0,1,307,202,52,0,0,0,250,250,0,,,,,,,,,,,,
61003,1560698360992,2,2.27,2.07,3.16,1.88,5.08,0.78,-0.02,0.49,1,-1,-1,0.78,6878,18,79,34,38,867,0.0,547,456,60,119.0,0,1,307,202,52,0,0,0,250,250,0,,,,,,,,,,,,
61023,1560698361012,2,2.26,2.08,3.16,1.88,5.04,0.86,-0.04,0.53,-0,-2,-0,0.86,6885,18,79,34,38,866,0.0,544,458,60,119.0,0,1,307,202,52,0,0,0,250,250,0,,,,,,,,,,,,
61043,1560698361032,4,2.26,2.07,3.16,1.88,5.05,0.84,-0.12,0.56,-0,-1,0,0.85,6850,18,79,34,38,866,0.0,547,455,60,118.0,0,1,307,202,52,0,0,0,250,250,0,45.700417,4.909441,0.0,201.0,0,0.0,-1,0.0,0.0,0,0.0,1.0174
61063,1560698361052,-2,2.27,2.07,3.16,1.87,5.06,0.83,-0.03,0.51,0,-0,1,0.83,6873,18,79,34,38,865,0.0,547,459,60,118.0,0,1,307,202,52,0,0,0,250,250,0,,,,,,,,,,,,
61083,1560698361072,4,2.26,2.08,3.16,1.88,5.04,0.82,-0.1,0.58,-0,-0,-0,0.83,6878,18,79,34,38,866,0.0,550,456,60,120.0,0,1,307,202,52,0,0,0,250,250,0,,,,,,,,,,,,
61103,1560698361100,3,2.27,2.07,3.16,1.88,5.03,0.75,0.01,0.52,0,-0,-1,0.75,6873,18,79,34,38,866,0.0,556,456,60,118.0,0,1,307,202,52,0,0,0,250,250,0,,,,,,,,,,,,
61123,1560698361120,1,2.26,2.07,3.16,1.88,5.07,0.84,-0.07,0.59,-0,-2,-2,0.84,6868,18,79,34,38,867,0.0,554,458,60,119.0,0,1,307,202,52,0,0,0,250,250,0,,,,,,,,,,,,
61143,1560698361140,3,2.27,2.07,3.16,1.88,5.07,0.8,-0.04,0.55,0,-2,-2,0.8,6898,18,79,34,38,867,0.0,553,457,60,118.0,0,1,307,202,52,0,0,0,250,250,0,45.700417,4.909441,0.0,201.0,0,0.0,-1,0.0,0.0,0,0.0,1.0191
61163,1560698361160,0,2.27,2.07,3.16,1.88,5.08,0.84,-0.03,0.55,0,-2,-2,0.84,6885,18,79,34,38,870,0.0,556,456,60,119.0,0,1,307,202,52,0,0,0,250,250,0,,,,,,,,,,,,
61183,1560698361180,3,2.27,2.07,3.16,1.87,5.05,0.83,-0.13,0.6,-0,-2,-1,0.84,6863,18,79,34,38,873,0.0,550,452,60,120.0,0,1,307,202,52,0,0,0,250,250,0,,,,,,,,,,,,
61203,1560698361200,-1,2.26,2.07,3.15,1.87,5.07,0.8,-0.07,0.57,0,-0,-1,0.81,6893,18,79,34,38,875,0.0,548,456,60,119.0,0,1,307,202,52,0,0,0,250,250,0,,,,,,,,,,,,
61223,1560698361220,5,2.27,2.08,3.16,1.88,5.04,0.86,-0.15,0.61,-0,-0,-1,0.88,6898,18,79,34,38,877,0.0,547,454,60,120.0,0,1,307,202,52,0,0,0,250,250,0,,,,,,,,,,,,
61243,1560698361240,1,2.28,2.07,3.16,1.87,5.06,0.79,-0.09,0.58,0,-0,-1,0.8,6865,18,79,34,38,879,0.0,556,457,60,119.0,0,1,307,202,52,0,0,0,250,250,0,45.700417,4.909441,0.0,201.0,0,0.0,-1,0.0,0.0,0,0.0,1.0207
61263,1560698361260,0,2.28,2.07,3.17,1.88,5.08,0.71,-0.0,0.45,-0,-1,-0,0.71,6855,18,79,34,38,881,0.0,538,457,60,119.0,0,1,307,202,52,0,0,0,250,250,0,,,,,,,,,,,,
61283,1560698361280,2,2.27,2.08,3.16,1.88,5.04,0.73,-0.02,0.43,-0,-1,1,0.73,6875,18,79,34,38,881,0.0,543,453,60,119.0,0,1,307,202,52,0,0,0,250,250,0,,,,,,,,,,,,
61303,1560698361300,1,2.27,2.07,3.16,1.88,5.03,0.57,0.03,0.34,0,0,1,0.58,6845,18,79,34,38,880,0.0,545,458,60,118.0,0,1,307,202,52,0,0,0,250,250,0,,,,,,,,,,,,
61323,1560698361320,4,2.27,2.08,3.16,1.89,5.04,0.7,0.03,0.42,-0,-0,1,0.71,6855,18,79,34,38,878,0.0,541,456,60,119.0,0,1,307,202,52,0,0,0,250,250,0,,,,,,,,,,,,
61343,1560698361340,0,2.27,2.07,3.16,1.89,5.07,0.65,0.06,0.44,0,0,1,0.65,6875,18,79,34,38,875,0.0,545,462,60,118.0,0,1,307,202,52,0,0,0,250,250,0,45.700417,4.909441,0.0,201.0,0,0.0,-1,0.0,0.0,0,0.0,1.0224
61363,1560698361360,-0,2.27,2.07,3.16,1.89,5.07,0.66,0.11,0.47,-0,1,-1,0.67,6880,18,79,34,38,875,0.0,548,455,60,120.0,0,1,307,202,52,0,0,0,250,250,0,,,,,,,,,,,,
61383,1560698361380,3,2.27,2.07,3.16,1.88,5.05,0.76,-0.01,0.56,0,-1,-1,0.76,6853,18,79,34,38,873,0.0,555,458,60,118.0,0,1,307,202,52,0,0,0,250,250,0,,,,,,,,,,,,
61403,1560698361399,0,2.28,2.07,3.16,1.88,5.06,0.67,0.08,0.46,-0,-1,-2,0.67,6858,18,79,34,38,873,0.0,547,453,60,119.0,0,1,307,202,52,0,0,0,250,250,0,,,,,,,,,,,,
61423,1560698361419,4,2.26,2.07,3.16,1.88,5.05,0.81,-0.0,0.53,-0,-2,-1,0.81,6878,18,79,34,38,872,0.0,555,457,60,120.0,0,1,307,202,52,0,0,0,250,250,0,,,,,,,,,,,,
61443,1560698361439,1,2.26,2.07,3.16,1.88,5.07,0.65,0.02,0.43,1,-1,-0,0.65,6853,18,79,34,38,872,0.0,557,456,60,118.0,0,1,307,202,52,0,0,0,250,250,0,45.700417,4.909441,0.0,201.0,0,0.0,-1,0.0,0.0,0,0.0,1.024
61463,1560698361459,5,2.26,2.07,3.16,1.88,5.05,0.77,0.08,0.5,-1,-1,-0,0.77,6818,18,79,34,38,874,0.0,542,452,60,120.0,0,1,307,202,52,0,0,0,250,250,0,,,,,,,,,,,,
61483,1560698361479,2,2.27,2.08,3.16,1.87,5.06,0.73,0.04,0.53,1,-0,0,0.73,6843,18,79,34,38,874,0.0,546,457,60,119.0,0,1,307,202,52,0,0,0,250,250,0,,,,,,,,,,,,
61503,1560698361501,5,2.27,2.07,3.17,1.88,5.05,0.72,0.1,0.56,-0,1,-0,0.73,6828,18,79,34,38,873,0.0,550,456,60,119.0,0,1,307,202,52,0,0,0,250,250,0,,,,,,,,,,,,
61523,1560698361521,2,2.26,2.07,3.16,1.88,5.08,0.77,-0.0,0.63,1,0,-1,0.77,6813,18,79,34,38,871,0.0,553,457,60,118.0,0,1,307,202,52,0,0,0,250,250,0,,,,,,,,,,,,
61543,1560698361541,1,2.26,2.08,3.16,1.88,5.05,0.7,0.05,0.54,-0,-1,0,0.7,6788,18,79,34,38,869,0.0,536,457,60,119.0,0,1,307,202,52,0,0,0,250,250,0,45.700417,4.909441,0.0,201.0,0,0.0,-1,0.0,0.0,0,0.0,1.0257
61563,1560698361561,1,2.27,2.07,3.16,1.88,5.06,0.81,0.01,0.62,0,-0,1,0.81,6830,18,79,34,38,867,0.0,544,460,60,118.0,0,1,307,202,52,0,0,0,250,250,0,,,,,,,,,,,,
61583,1560698361581,-0,2.27,2.07,3.16,1.88,5.07,0.71,0.06,0.53,0,-1,1,0.71,6823,18,79,34,38,864,0.0,548,458,60,119.0,0,1,307,202,52,0,0,0,250,250,0,,,,,,,,,,,,
61603,1560698361599,3,2.27,2.07,3.16,1.88,5.05,0.82,-0.0,0.61,0,-0,-0,0.82,6803,18,79,34,38,862,0.0,537,453,60,119.0,0,1,307,202,52,0,0,0,250,250,0,,,,,,,,,,,,
61623,1560698361619,0,2.26,2.07,3.16,1.88,5.04,0.75,0.02,0.56,1,-0,-1,0.75,6803,18,79,34,38,861,0.0,537,452,60,119.0,0,1,307,202,52,0,0,0,250,250,0,,,,,,,,,,,,
61643,1560698361639,5,2.26,2.07,3.16,1.87,5.05,0.81,-0.06,0.64,0,-0,-1,0.81,6828,18,79,34,38,861,0.0,539,457,60,120.0,0,1,307,202,52,0,0,0,250,250,0,45.700417,4.909441,0.0,201.0,0,0.0,-1,0.0,0.0,0,0.0,1.0274
61663,1560698361659,-1,2.26,2.08,3.16,1.88,5.04,0.77,-0.04,0.58,1,1,-1,0.77,6835,18,79,34,39,862,0.0,547,455,60,119.0,0,1,310,202,52,0,0,0,250,250,0,,,,,,,,,,,,
61683,1560698361679,4,2.26,2.07,3.16,1.88,5.04,0.83,-0.06,0.66,-0,-2,-2,0.84,6815,18,79,34,38,864,0.0,543,457,60,120.0,0,1,307,202,53,0,0,0,250,250,0,,,,,,,,,,,,
61703,1560698361699,1,2.27,2.07,3.16,1.88,5.08,0.8,-0.07,0.59,1,0,-2,0.8,6818,18,80,34,39,864,0.0,545,457,60,118.0,0,1,310,208,53,0,0,0,250,250,0,,,,,,,,,,,,
61723,1560698361719,4,2.27,2.08,3.16,1.88,5.07,0.86,-0.1,0.59,-0,-2,-1,0.87,6823,18,80,34,38,867,0.0,546,456,60,119.0,0,1,307,202,53,0,0,0,250,250,0,,,,,,,,,,,,
61743,1560698361739,3,2.26,2.07,3.16,1.88,5.07,0.8,-0.14,0.58,1,1,1,0.82,6805,18,80,34,39,866,0.0,560,461,60,118.0,0,1,310,208,53,0,0,0,250,250,0,45.700417,4.909441,0.0,201.0,0,0.0,-1,0.0,0.0,0,0.0,1.029
61763,1560698361759,-0,2.27,2.08,3.16,1.89,5.04,0.82,-0.02,0.55,-0,-0,1,0.82,6808,18,80,34,39,868,0.0,548,453,60,119.0,0,1,310,202,52,0,0,0,250,250,0,,,,,,,,,,,,
61783,1560698361779,3,2.26,2.07,3.16,1.89,5.04,0.8,-0.04,0.58,0,-0,1,0.8,6813,18,80,34,38,866,0.0,545,453,60,119.0,0,1,307,208,52,0,0,0,250,250,0,,,,,,,,,,,,
61803,1560698361799,-1,2.26,2.07,3.17,1.87,5.06,0.77,0.07,0.51,-0,1,1,0.77,6823,18,80,34,39,865,0.0,538,454,60,120.0,0,1,310,202,52,0,0,0,250,250,0,,,,,,,,,,,,
61823,1560698361819,2,2.27,2.08,3.15,1.89,5.04,0.84,-0.02,0.6,-0,-1,1,0.84,6778,18,80,34,38,864,0.0,536,454,60,119.0,0,1,307,202,52,0,0,0,250,250,0,,,,,,,,,,,,
61843,1560698361839,-2,2.27,2.07,3.16,1.89,5.05,0.75,0.08,0.5,-0,-1,1,0.75,6793,18,80,34,39,863,0.0,530,455,60,119.0,0,1,310,208,52,0,0,0,250,250,0,45.700417,4.909441,0.0,201.0,0,0.0,-1,0.0,0.0,0,0.0,1.0307
61863,1560698361859,4,2.25,2.07,3.16,1.88,5.07,0.87,0.02,0.59,-0,-2,0,0.87,6820,18,80,34,38,862,0.0,539,454,60,120.0,0,1,307,208,53,0,0,0,250,250,0,,,,,,,,,,,,
61883,1560698361879,0,2.27,2.08,3.16,1.89,5.04,0.72,0.06,0.5,0,-0,0,0.72,6805,18,80,34,39,862,0.0,541,458,60,118.0,0,1,310,208,53,0,0,0,250,250,0,,,,,,,,,,,,
61903,1560698361899,5,2.26,2.07,3.16,1.88,5.07,0.85,0.04,0.61,-0,-1,0,0.85,6818,18,80,34,39,862,0.0,537,454,60,120.0,0,1,310,208,53,0,0,0,250,250,0,,,,,,,,,,,,
61923,1560698361919,-0,2.27,2.07,3.16,1.88,5.07,0.79,0.02,0.61,1,1,0,0.79,6810,18,80,34,39,862,0.0,537,457,60,119.0,0,1,310,208,53,0,0,0,250,250,0,,,,,,,,,,,,
61943,1560698361939,5,2.27,2.07,3.16,1.88,5.06,0.83,0.04,0.65,-0,0,-1,0.84,6840,18,80,34,39,863,0.0,548,455,60,119.0,0,1,310,208,53,0,0,0,250,250,0,45.700417,4.909441,0.0,201.0,0,0.0,-1,0.0,0.0,0,0.0,1.0324
61963,1560698361959,1,2.26,2.08,3.16,1.89,5.04,0.82,-0.01,0.61,1,-0,-1,0.82,6828,18,80,34,39,862,0.0,556,457,60,118.0,0,1,310,208,53,0,0,0,250,250,0,,,,,,,,,,,,
61983,1560698361979,1,2.26,2.08,3.17,1.89,5.06,0.82,0.02,0.59,-0,-2,-1,0.82,6833,18,80,34,38,862,0.0,547,457,60,120.0,0,1,307,202,53,0,0,0,250,250,0,,,,,,,,,,,,
62003,1560698361995,3,2.26,2.07,3.16,1.88,5.08,0.86,-0.04,0.57,0,-2,-0,0.86,6868,18,80,34,38,860,0.0,548,456,60,120.0,0,1,307,208,53,0,0,0,250,250,0,,,,,,,,,,,,
62023,1560698362015,1,2.24,2.07,3.16,1.88,5.03,0.8,0.01,0.46,-0,-1,1,0.8,6873,18,80,34,39,860,0.0,561,456,60,119.0,0,1,310,202,53,0,0,0,250,250,0,,,,,,,,,,,,
62043,1560698362035,2,2.27,2.07,3.16,1.88,5.06,0.89,-0.05,0.54,-1,-0,1,0.89,6850,18,80,34,38,859,0.0,556,458,60,119.0,0,1,307,202,53,0,0,0,250,250,0,45.700417,4.909441,0.0,201.0,0,0.0,-1,0.0,0.0,0,0.0,1.034
62063,1560698362055,1,2.26,2.08,3.16,1.89,5.05,0.82,-0.06,0.5,0,0,1,0.82,6853,18,80,34,39,857,0.0,557,459,60,118.0,0,1,310,208,54,0,0,0,250,250,0,,,,,,,,,,,,
62083,1560698362075,4,2.26,2.07,3.16,1.88,5.07,0.86,-0.07,0.57,-1,-0,0,0.87,6870,18,80,34,38,856,0.0,543,455,60,120.0,0,1,307,202,54,0,0,0,250,250,0,,,,,,,,,,,,
62103,1560698362099,1,2.26,2.07,3.16,1.89,5.03,0.8,-0.1,0.55,1,0,-0,0.81,6850,18,80,34,38,855,0.0,561,457,60,119.0,0,1,307,202,54,0,0,0,250,250,0,,,,,,,,,,,,
62123,1560698362119,-1,2.27,2.07,3.16,1.88,5.07,0.82,-0.07,0.55,-1,-2,-1,0.82,6855,18,80,34,38,855,0.0,552,457,60,120.0,0,1,307,202,54,0,0,0,250,250,0,,,,,,,,,,,,
62143,1560698362139,1,2.27,2.07,3.16,1.89,5.06,0.91,-0.13,0.57,0,-1,-1,0.92,6890,18,80,34,38,854,0.0,547,456,60,119.0,0,1,307,202,54,0,0,0,250,250,0,45.700417,4.909441,0.0,201.0,0,0.0,-1,0.0,0.0,0,0.0,1.0357
62163,1560698362159,1,2.26,2.07,3.17,1.88,5.06,0.81,-0.06,0.48,0,-1,-1,0.81,6898,18,80,34,38,854,0.0,548,456,60,118.0,0,1,307,202,54,0,0,0,250,250,0,,,,,,,,,,,,
62183,1560698362179,3,2.27,2.07,3.16,1.88,5.07,0.92,-0.12,0.55,-0,-2,-1,0.92,6875,18,80,34,38,854,0.0,546,454,60,120.0,0,1,307,202,52,0,0,0,250,250,0,,,,,,,,,,,,
62203,1560698362201,1,2.27,2.07,3.16,1.88,5.08,0.84,-0.09,0.54,1,-0,0,0.85,6911,18,80,34,38,853,0.0,548,459,60,118.0,0,1,307,202,52,0,0,0,250,250,0,,,,,,,,,,,,
62223,1560698362221,1,2.27,2.07,3.16,1.88,5.08,0.92,-0.08,0.62,-1,-1,-0,0.92,6916,18,80,34,38,854,0.0,557,457,60,119.0,0,1,307,202,52,0,0,0,250,250,0,,,,,,,,,,,,
62243,1560698362241,3,2.27,2.07,3.17,1.87,5.04,0.89,-0.17,0.65,0,-0,-1,0.91,6895,18,80,34,38,854,0.0,547,456,60,119.0,0,1,307,202,52,0,0,0,250,250,0,45.700417,4.909441,0.0,201.0,0,0.0,-1,0.0,0.0,0,0.0,1.0374
62263,1560698362261,1,2.26,2.07,3.16,1.88,5.08,0.8,-0.07,0.54,0,-1,-0,0.8,6895,18,80,34,38,854,0.0,546,458,60,119.0,0,1,307,202,52,0,0,0,250,250,0,,,,,,,,,,,,
62283,1560698362281,5,2.26,2.08,3.16,1.88,5.04,0.92,-0.18,0.6,-0,-3,0,0.94,6926,18,80,34,38,854,0.0,561,459,60,119.0,0,1,307,202,52,0,0,0,250,250,0,,,,,,,,,,,,
62303,1560698362298,-0,2.28,2.07,3.16,1.89,5.06,0.74,-0.13,0.49,1,1,2,0.75,6890,18,80,34,38,854,0.0,572,461,60,119.0,0,1,307,202,52,0,0,0,250,250,0,,,,,,,,,,,,
62323,1560698362318,1,2.27,2.08,3.16,1.88,5.06,0.83,-0.05,0.5,-0,-1,2,0.83,6893,18,80,34,38,857,0.0,567,455,60,119.0,0,1,307,202,52,0,0,0,250,250,0,,,,,,,,,,,,
62343,1560698362338,4,2.28,2.07,3.16,1.89,5.06,0.79,-0.04,0.54,0,0,2,0.79,6913,18,80,34,38,857,0.0,557,459,60,119.0,0,1,307,202,52,0,0,0,250,250,0,45.700417,4.909441,0.0,201.0,0,0.0,-1,0.0,0.0,0,0.0,1.039
62363,1560698362358,0,2.27,2.07,3.15,1.88,5.07,0.75,0.08,0.49,0,1,0,0.75,6921,18,80,34,38,860,0.0,576,455,60,119.0,0,1,307,202,53,0,0,0,250,250,0,,,,,,,,,,,,
62383,1560698362378,5,2.28,2.07,3.16,1.88,5.07,0.85,-0.04,0.59,-1,-2,-1,0.85,6911,18,80,34,38,861,0.0,562,456,60,120.0,0,1,307,202,53,0,0,0,250,250,0,,,,,,,,,,,,
62403,1560698362401,1,2.28,2.07,3.16,1.88,5.07,0.79,0.0,0.52,0,-1,-1,0.79,6923,18,80,34,38,864,0.0,576,457,60,118.0,0,1,307,202,53,0,0,0,250,250,0,,,,,,,,,,,,
62423,1560698362421,1,2.27,2.07,3.17,1.87,5.06,0.82,-0.0,0.51,-1,-2,-1,0.82,6911,18,80,34,38,867,0.0,553,453,60,119.0,0,1,307,202,53,0,0,0,250,250,0,,,,,,,,,,,,
62443,1560698362441,3,2.28,2.07,3.17,1.88,5.08,0.85,-0.13,0.59,0,-1,-0,0.86,6900,18,80,34,38,868,0.0,548,453,60,120.0,0,1,307,202,53,0,0,0,250,250,0,45.700417,4.909441,0.0,201.0,0,0.0,-1,0.0,0.0,0,0.0,1.0407
62463,1560698362461,0,2.27,2.07,3.16,1.88,5.05,0.82,-0.07,0.55,0,-0,1,0.83,6900,18,80,34,38,869,0.0,552,453,60,119.0,0,1,304,196,53,0,0,0,250,250,0,,,,,,,,,,,,
62483,1560698362481,5,2.26,2.08,3.16,1.88,5.04,0.87,-0.14,0.63,-0,-1,1,0.88,6911,18,80,34,38,869,0.0,543,456,60,120.0,0,1,307,196,53,0,0,0,250,250,0,,,,,,,,,,,,
62503,1560698362498,1,2.28,2.07,3.15,1.89,5.04,0.81,-0.13,0.62,0,-0,-0,0.82,6883,18,80,34,38,869,0.0,549,457,60,118.0,0,1,307,202,53,0,0,0,250,250,0,,,,,,,,,,,,
62523,1560698362518,1,2.27,2.06,3.16,1.88,5.03,0.82,-0.13,0.61,-1,-3,-0,0.83,6878,18,80,34,38,869,0.0,549,457,60,119.0,0,1,307,202,53,0,0,0,250,250,0,,,,,,,,,,,,
62543,1560698362538,4,2.28,2.08,3.15,1.89,5.04,0.87,-0.16,0.64,-0,-2,-0,0.88,6906,18,80,34,37,869,0.0,547,455,60,120.0,0,1,304,202,53,0,0,0,250,250,0,45.700417,4.909441,0.0,201.0,0,0.0,-1,0.0,0.0,0,0.0,1.0424
62563,1560698362558,1,2.27,2.08,3.17,1.88,5.07,0.75,-0.08,0.52,0,-1,-0,0.75,6888,18,80,34,38,870,0.0,555,456,60,119.0,0,1,307,202,52,0,0,0,250,250,0,,,,,,,,,,,,
62583,1560698362578,5,2.28,2.07,3.16,1.88,5.05,0.87,-0.14,0.62,-0,-1,-1,0.88,6873,18,80,34,38,871,0.0,549,455,60,119.0,0,1,307,202,52,0,0,0,250,250,0,,,,,,,,,,,,
62603,1560698362600,1,2.28,2.08,3.17,1.88,5.05,0.81,-0.07,0.6,1,-0,-0,0.81,6883,18,80,34,38,873,0.0,554,458,60,119.0,0,1,307,202,52,0,0,0,250,250,0,,,,,,,,,,,,
62623,1560698362620,0,2.28,2.07,3.17,1.88,5.08,0.88,-0.13,0.68,-0,-1,-1,0.89,6898,18,80,34,38,875,0.0,560,455,60,119.0,0,1,307,202,52,0,0,0,250,250,0,,,,,,,,,,,,
62643,1560698362640,3,2.28,2.07,3.16,1.88,5.04,0.9,-0.19,0.68,-0,-2,-2,0.92,6855,18,80,34,38,875,0.0,562,456,60,119.0,0,1,307,202,52,0,0,0,250,250,0,45.700417,4.909441,0.0,201.0,0,0.0,-1,0.0,0.0,0,0.0,1.044
62663,1560698362660,2,2.27,2.08,3.16,1.88,5.06,0.82,-0.12,0.6,0,-1,-2,0.83,6863,18,80,34,38,879,0.0,563,458,60,119.0,0,1,307,202,52,0,0,0,250,250,0,,,,,,,,,,,,
62683,1560698362680,3,2.28,2.07,3.16,1.88,5.07,0.94,-0.17,0.62,-0,-3,-1,0.95,6888,18,80,34,38,878,0.0,558,456,60,120.0,0,1,307,202,52,0,0,0,250,250,0,,,,,,,,,,,,
62703,1560698362700,-1,2.28,2.07,3.16,1.88,5.05,0.8,-0.09,0.54,0,-1,0,0.81,6888,18,80,34,38,879,0.0,560,458,60,118.0,0,1,307,202,52,0,0,0,250,250,0,,,,,,,,,,,,
62723,1560698362720,5,2.27,2.07,3.16,1.88,5.08,0.92,-0.07,0.63,-1,-2,0,0.92,6880,18,80,34,38,878,0.0,544,452,60,120.0,0,1,307,202,52,0,0,0,250,250,0,,,,,,,,,,,,
62743,1560698362740,1,2.28,2.07,3.16,1.88,5.07,0.84,-0.05,0.58,0,-1,1,0.84,6888,18,80,34,38,878,0.0,563,457,60,118.0,0,1,307,202,52,0,0,0,250,250,0,45.700417,4.909441,0.0,201.0,0,0.0,-1,0.0,0.0,0,0.0,1.0457
62763,1560698362760,0,2.27,2.08,3.17,1.88,5.05,0.84,0.0,0.59,-0,-0,1,0.84,6898,18,80,34,38,877,0.0,544,453,60,120.0,0,1,307,202,52,0,0,0,250,250,0,,,,,,,,,,,,
62783,1560698362780,4,2.28,2.07,3.17,1.87,5.04,0.88,-0.07,0.69,-0,-2,-0,0.88,6868,18,80,34,38,876,0.0,543,457,60,120.0,0,1,307,202,52,0,0,0,250,250,0,,,,,,,,,,,,
62803,1560698362800,1,2.27,2.07,3.16,1.88,5.06,0.79,0.01,0.58,0,-1,-1,0.79,6893,18,80,34,38,875,0.0,549,458,60,118.0,0,1,307,202,52,0,0,0,250,250,0,,,,,,,,,,,,
62823,1560698362820,4,2.28,2.08,3.16,1.89,5.04,0.9,-0.03,0.63,-0,-3,-1,0.9,6906,18,80,34,38,874,0.0,556,457,60,120.0,0,1,307,202,52,0,0,0,250,250,0,,,,,,,,,,,,
62843,1560698362840,2,2.27,2.07,3.16,1.87,5.06,0.79,-0.03,0.55,1,-1,-1,0.79,6880,18,80,34,38,873,0.0,552,458,60,118.0,0,1,307,202,52,0,0,0,250,250,0,45.700417,4.909441,0.0,201.0,0,0.0,-1,0.0,0.0,0,0.0,1.0474
62863,1560698362860,0,2.28,2.07,3.16,1.88,5.04,0.86,0.05,0.56,-0,-1,-1,0.86,6868,18,80,34,38,873,0.0,562,456,60,119.0,0,1,307,202,52,0,0,0,250,250,0,,,,,,,,,,,,
62883,1560698362880,2,2.27,2.07,3.16,1.87,5.05,0.85,-0.01,0.58,0,-1,0,0.85,6895,18,80,34,38,871,0.0,561,460,60,120.0,0,1,307,202,52,0,0,0,250,250,0,,,,,,,,,,,,
62903,1560698362900,-1,2.27,2.07,3.16,1.88,5.06,0.82,0.1,0.5,0,1,0,0.83,6893,18,80,34,38,870,0.0,566,455,60,118.0,0,1,307,202,52,0,0,0,250,250,0,,,,,,,,,,,,
62923,1560698362920,6,2.28,2.07,3.16,1.88,5.03,0.89,0.01,0.61,-1,-2,-0,0.89,6888,18,80,34,38,868,0.0,550,455,60,120.0,0,1,307,202,52,0,0,0,250,250,0,,,,,,,,,,,,
62943,1560698362940,1,2.28,2.06,3.15,1.88,5.07,0.79,0.02,0.54,0,-0,0,0.79,6908,18,80,34,38,867,0.0,559,457,60,119.0,0,1,307,202,52,0,0,0,250,250,0,45.700417,4.909441,0.0,201.0,0,0.0,-1,0.0,0.0,0,0.0,1.049
62963,1560698362960,0,2.27,2.07,3.16,1.87,5.05,0.91,-0.04,0.55,-1,-2,1,0.91,6903,18,80,34,38,865,0.0,567,455,60,119.0,0,1,307,202,52,0,0,0,250,250,0,,,,,,,,,,,,
62983,1560698362980,3,2.27,2.06,3.16,1.88,5.08,0.83,-0.13,0.57,-0,0,2,0.84,6880,18,80,34,38,863,0.0,569,456,60,120.0,0,1,307,202,52,0,0,0,250,250,0,,,,,,,,,,,,
63003,1560698362994,0,2.27,2.07,3.15,1.88,5.04,0.84,-0.03,0.54,0,0,1,0.84,6895,18,80,34,38,863,0.0,557,455,60,118.0,0,1,307,202,52,0,0,0,250,250,0,,,,,,,,,,,,
63023,1560698363014,4,2.27,2.07,3.16,1.88,5.07,0.85,-0.1,0.62,-1,-1,-0,0.86,6890,18,80,34,38,863,0.0,551,455,60,120.0,0,1,307,202,52,0,0,0,250,250,0,,,,,,,,,,,,
63043,1560698363034,2,2.27,2.07,3.16,1.88,5.04,0.76,-0.01,0.54,0,0,-1,0.76,6878,18,80,34,38,864,0.0,554,456,60,119.0,0,1,307,202,52,0,0,0,250,250,0,45.700417,4.909441,0.0,201.0,0,0.0,-1,0.0,0.0,0,0.0,1.0507
63063,1560698363054,1,2.28,2.07,3.16,1.88,5.03,0.87,-0.05,0.59,-1,-2,-2,0.88,6885,18,80,34,38,866,0.0,544,455,60,119.0,0,1,307,196,51,0,0,0,250,250,0,,,,,,,,,,,,
63083,1560698363074,4,2.28,2.07,3.16,1.89,5.06,0.84,-0.06,0.53,0,-2,-2,0.84,6908,18,80,34,38,867,0.0,547,456,60,120.0,0,1,307,202,51,0,0,0,250,250,0,,,,,,,,,,,,
63103,1560698363102,0,2.27,2.07,3.16,1.88,5.07,0.84,-0.03,0.47,-0,-2,-1,0.84,6900,18,80,34,38,869,0.0,548,455,60,119.0,0,1,307,202,51,0,0,0,250,250,0,,,,,,,,,,,,
63123,1560698363122,5,2.27,2.07,3.15,1.89,5.04,0.89,-0.12,0.53,-1,-2,-0,0.9,6885,18,80,34,38,869,0.0,549,451,60,119.0,0,1,307,202,51,0,0,0,250,250,0,,,,,,,,,,,,
63143,1560698363142,1,2.27,2.07,3.16,1.88,5.04,0.84,-0.08,0.5,0,-1,0,0.84,6906,18,80,34,38,870,0.0,546,460,60,118.0,0,1,307,202,51,0,0,0,250,250,0,45.700417,4.909441,0.0,201.0,0,0.0,-1,0.0,0.0,0,0.0,1.0524
63163,1560698363162,0,2.28,2.07,3.17,1.88,5.08,0.9,-0.14,0.59,-1,-1,0,0.91,6903,18,80,34,38,870,0.0,552,455,60,119.0,0,1,307,202,51,0,0,0,250,250,0,,,,,,,,,,,,
63183,1560698363182,3,2.27,2.07,3.17,1.87,5.05,0.84,-0.15,0.58,0,-1,-0,0.86,6893,18,80,34,38,869,0.0,552,458,60,119.0,0,1,307,202,52,0,0,0,250,250,0,,,,,,,,,,,,
63203,1560698363202,-1,2.28,2.07,3.16,1.88,5.04,0.82,-0.08,0.52,0,-1,-1,0.82,6873,18,80,34,38,868,0.0,557,457,60,119.0,0,1,307,202,52,0,0,0,250,250,0,,,,,,,,,,,,
63223,1560698363222,4,2.28,2.07,3.16,1.89,5.04,0.92,-0.15,0.57,-1,-3,-1,0.93,6890,18,80,34,38,866,0.0,555,457,60,119.0,0,1,307,202,52,0,0,0,250,250,0,,,,,,,,,,,,
63243,1560698363242,1,2.27,2.07,3.17,1.87,5.06,0.74,-0.03,0.47,1,-0,1,0.74,6893,18,80,34,38,865,0.0,572,457,60,119.0,0,1,307,202,52,0,0,0,250,250,0,45.700417,4.909441,0.0,201.0,0,0.0,-1,0.0,0.0,0,0.0,1.054
63263,1560698363262,4,2.28,2.07,3.16,1.88,5.05,0.86,-0.07,0.6,-1,-2,1,0.87,6870,18,80,34,38,864,0.0,548,452,60,119.0,0,1,307,202,52,0,0,0,250,250,0,,,,,,,,,,,,
63283,1560698363282,2,2.28,2.07,3.16,1.88,5.08,0.76,-0.0,0.59,1,-0,1,0.76,6885,18,80,34,38,863,0.0,561,461,60,119.0,0,1,307,202,52,0,0,0,250,250,0,,,,,,,,,,,,
63303,1560698363302,-1,2.28,2.07,3.16,1.88,5.05,0.82,0.0,0.64,-0,-0,-1,0.82,6895,18,80,34,38,863,0.0,553,455,60,120.0,0,1,307,202,52,0,0,0,250,250,0,,,,,,,,,,,,
63323,1560698363322,4,2.28,2.07,3.16,1.88,5.05,0.86,-0.1,0.67,-0,-3,-2,0.87,6840,18,80,34,38,862,0.0,551,456,60,120.0,0,1,307,202,52,0,0,0,250,250,0,,,,,,,,,,,,
63343,1560698363342,1,2.28,2.08,3.15,1.89,5.04,0.79,-0.01,0.6,0,-1,-2,0.79,6848,18,80,34,38,863,0.0,546,454,60,118.0,0,1,307,202,52,0,0,0,250,250,0,45.700417,4.909441,0.0,201.0,0,0.0,-1,0.0,0.0,0,0.0,1.0557
63363,1560698363362,5,2.28,2.07,3.17,1.88,5.08,0.91,-0.11,0.66,-1,-3,-1,0.92,6868,18,80,34,38,864,0.0,541,453,60,120.0,0,1,307,202,52,0,0,0,250,250,0,,,,,,,,,,,,
63383,1560698363382,0,2.28,2.07,3.16,1.88,5.05,0.74,-0.04,0.55,1,-0,1,0.74,6855,18,80,34,38,864,0.0,552,458,60,119.0,0,1,307,202,52,0,0,0,250,250,0,,,,,,,,,,,,
63403,1560698363400,1,2.27,2.07,3.16,1.88,5.07,0.86,-0.0,0.65,-1,-1,1,0.86,6845,18,80,34,38,865,0.0,543,458,60,119.0,0,1,307,202,52,0,0,0,250,250,0,,,,,,,,,,,,
63423,1560698363420,-0,2.29,2.07,3.16,1.88,5.06,0.77,-0.01,0.63,0,-0,2,0.77,6873,18,80,34,38,864,0.0,551,461,60,119.0,0,1,307,202,52,0,0,0,250,250,0,,,,,,,,,,,,
63443,1560698363440,-0,2.28,2.07,3.15,1.88,5.05,0.8,0.05,0.67,-0,0,1,0.8,6890,18,80,34,38,865,0.0,558,456,60,119.0,0,1,307,202,52,0,0,0,250,250,0,45.700417,4.909441,0.0,201.0,0,0.0,-1,0.0,0.0,0,0.0,1.0574
63463,1560698363460,3,2.28,2.08,3.17,1.88,5.07,0.84,-0.03,0.75,-0,-2,0,0.84,6858,18,80,34,38,864,0.0,561,458,60,119.0,0,1,307,202,52,0,0,0,250,250,0,,,,,,,,,,,,
63483,1560698363480,1,2.27,2.07,3.16,1.88,5.04,0.75,0.05,0.61,0,-1,0,0.76,6885,18,80,34,38,865,0.0,554,457,60,118.0,0,1,307,202,52,0,0,0,250,250,0,,,,,,,,,,,,
63503,1560698363499,1,2.28,2.07,3.16,1.88,5.05,0.87,-0.03,0.69,-0,-2,-0,0.88,6880,18,80,34,38,865,0.0,550,455,60,119.0,0,1,307,202,52,0,0,0,250,250,0,,,,,,,,,,,,
63523,1560698363519,2,2.27,2.07,3.16,1.89,5.06,0.72,0.01,0.58,1,-0,0,0.72,6860,18,80,34,38,864,0.0,567,459,60,119.0,0,1,307,202,52,0,0,0,250,250,0,,,,,,,,,,,,
63543,1560698363539,1,2.27,2.07,3.15,1.89,5.04,0.84,0.02,0.65,-0,-1,-0,0.84,6855,18,80,34,38,864,0.0,553,452,60,119.0,0,1,307,202,52,0,0,0,250,250,0,45.700417,4.909441,0.0,201.0,0,0.0,-1,0.0,0.0,0,0.0,1.059
63563,1560698363559,3,2.27,2.07,3.16,1.88,5.04,0.76,0.01,0.6,1,-1,-0,0.76,6878,18,80,34,38,863,0.0,548,458,60,119.0,0,1,307,202,52,0,0,0,250,250,0,,,,,,,,,,,,
63583,1560698363579,-2,2.28,2.07,3.16,1.88,5.06,0.8,0.08,0.58,0,0,-0,0.8,6893,18,80,34,38,863,0.0,561,453,60,119.0,0,1,307,202,52,0,0,0,250,250,0,,,,,,,,,,,,
63603,1560698363601,5,2.27,2.07,3.15,1.88,5.04,0.85,-0.03,0.66,0,-1,-1,0.85,6878,18,80,34,38,862,0.0,560,459,60,119.0,0,1,307,202,52,0,0,0,250,250,0,,,,,,,,,,,,
63623,1560698363621,1,2.27,2.07,3.16,1.88,5.04,0.73,0.03,0.52,1,1,-1,0.73,6903,18,80,34,38,861,0.0,560,460,60,118.0,0,1,307,202,52,0,0,0,250,250,0,,,,,,,,,,,,
63643,1560698363641,-1,2.28,2.07,3.16,1.88,5.04,0.86,-0.05,0.59,-0,-2,0,0.86,6906,18,80,34,38,862,0.0,548,454,60,119.0,0,1,307,202,52,0,0,0,250,250,0,45.700417,4.909441,0.0,201.0,0,0.0,-1,0.0,0.0,0,0.0,1.0607
63663,1560698363661,3,2.28,2.07,3.16,1.88,5.07,0.69,-0.07,0.53,0,1,2,0.69,6880,18,80,34,38,862,0.0,553,458,60,119.0,0,1,307,202,52,0,0,0,250,250,0,,,,,,,,,,,,
63683,1560698363681,-1,2.28,2.06,3.16,1.88,5.07,0.78,0.03,0.52,0,0,2,0.78,6873,18,81,34,38,863,0.0,539,453,60,120.0,0,1,307,202,52,0,0,0,250,250,0,,,,,,,,,,,,
63703,1560698363701,3,2.28,2.07,3.16,1.88,5.07,0.72,-0.0,0.54,0,1,1,0.72,6885,18,81,34,38,862,0.0,552,456,60,120.0,0,1,307,202,52,0,0,0,250,250,0,,,,,,,,,,,,
63723,1560698363721,0,2.28,2.07,3.16,1.88,5.04,0.7,0.11,0.48,1,1,-1,0.71,6860,18,81,34,38,862,0.0,553,456,60,118.0,0,1,307,202,52,0,0,0,250,250,0,,,,,,,,,,,,
63743,1560698363741,3,2.28,2.07,3.16,1.87,5.05,0.79,0.02,0.57,-0,-2,-2,0.79,6868,18,81,34,38,862,0.0,542,457,60,120.0,0,1,307,202,52,0,0,0,250,250,0,45.700417,4.909441,0.0,201.0,0,0.0,-1,0.0,0.0,0,0.0,1.0624
63763,1560698363761,2,2.27,2.07,3.15,1.88,5.07,0.68,0.07,0.49,1,-0,-2,0.69,6888,18,81,34,38,860,0.0,555,458,60,118.0,0,1,307,202,52,0,0,0,250,250,0,,,,,,,,,,,,
63783,1560698363781,-0,2.27,2.07,3.16,1.88,5.04,0.82,0.04,0.53,-0,-2,-1,0.82,6893,18,81,34,38,860,0.0,578,457,60,119.0,0,1,307,202,52,0,0,0,250,250,0,,,,,,,,,,,,
63803,1560698363801,3,2.28,2.07,3.16,1.88,5.04,0.94,-0.04,0.62,-0,-1,-1,0.94,6875,18,81,34,38,860,0.0,546,452,60,120.0,0,1,307,202,52,0,0,0,250,250,0,,,,,,,,,,,,
63823,1560698363821,1,2.27,2.08,3.16,1.88,5.05,0.83,0.01,0.57,0,0,-0,0.83,6860,18,81,34,38,861,0.0,563,454,60,118.0,0,1,307,202,52,0,0,0,250,250,0,,,,,,,,,,,,
63843,1560698363841,5,2.27,2.07,3.16,1.89,5.04,0.83,-0.07,0.6,-0,0,-0,0.83,6880,18,81,34,38,862,0.0,553,458,60,120.0,0,1,307,202,52,0,0,0,250,250,0,45.700417,4.909441,0.0,201.0,0,0.0,-1,0.0,0.0,0,0.0,1.064
63863,1560698363861,2,2.27,2.07,3.16,1.89,5.04,0.8,-0.11,0.61,1,1,-1,0.8,6860,18,81,34,38,863,0.0,557,457,60,118.0,0,1,307,202,52,0,0,0,250,250,0,,,,,,,,,,,,
63883,1560698363881,0,2.28,2.07,3.16,1.88,5.08,0.75,-0.04,0.52,-0,-1,-1,0.76,6860,18,81,34,38,867,0.0,543,455,60,119.0,0,1,307,202,52,0,0,0,250,250,0,,,,,,,,,,,,
63903,1560698363902,3,2.27,2.07,3.16,1.88,5.04,0.86,-0.11,0.56,0,-1,0,0.87,6875,18,81,34,38,868,0.0,556,456,60,119.0,0,1,307,202,52,0,0,0,250,250,0,,,,,,,,,,,,
63923,1560698363922,-1,2.28,2.08,3.15,1.89,5.07,0.71,0.01,0.47,-0,-1,1,0.71,6885,18,81,34,38,870,0.0,555,458,60,119.0,0,1,307,202,52,0,0,0,250,250,0,,,,,,,,,,,,
63943,1560698363942,5,2.28,2.07,3.16,1.89,5.04,0.84,-0.03,0.61,-0,-0,1,0.84,6855,18,81,34,38,871,0.0,549,460,60,118.0,0,1,307,202,52,0,0,0,250,250,0,45.700417,4.909441,0.0,201.0,0,0.0,-1,0.0,0.0,0,0.0,1.0657
63963,1560698363962,1,2.28,2.07,3.16,1.88,5.08,0.73,0.01,0.58,0,0,0,0.73,6873,18,81,34,38,873,0.0,548,460,60,118.0,0,1,307,202,52,0,0,0,250,250,0,,,,,,,,,,,,
63983,1560698363982,5,2.27,2.07,3.16,1.88,5.04,0.83,-0.01,0.68,-1,-0,-2,0.83,6878,18,81,34,38,874,0.0,544,456,60,119.0,0,1,307,202,52,0,0,0,250,250,0,,,,,,,,,,,,
64003,1560698363995,2,2.28,2.07,3.16,1.88,5.04,0.84,-0.08,0.68,1,-0,-2,0.84,6863,18,81,34,38,874,0.0,557,459,60,118.0,0,1,307,202,52,0,0,0,250,250,0,,,,,,,,,,,,
64023,1560698364015,1,2.28,2.07,3.16,1.87,5.06,0.79,0.02,0.61,-0,-2,-3,0.79,6860,18,81,34,38,875,0.0,543,456,60,119.0,0,1,307,202,52,0,0,0,250,250,0,,,,,,,,,,,,
64043,1560698364035,5,2.28,2.07,3.16,1.88,5.07,0.91,-0.09,0.65,0,-2,-2,0.92,6883,18,81,34,38,874,0.0,547,456,60,119.0,0,1,307,202,52,0,0,0,250,250,0,45.700417,4.909441,0.0,201.0,0,0.0,-1,0.0,0.0,0,0.0,1.0674
64063,1560698364055,1,2.27,2.07,3.17,1.89,5.04,0.75,-0.01,0.55,0,-1,-0,0.75,6853,18,81,34,38,875,0.0,561,458,60,118.0,0,1,307,202,52,0,0,0,250,250,0,,,,,,,,,,,,
64083,1560698364075,2,2.27,2.07,3.16,1.87,5.06,0.88,0.0,0.68,-0,-1,0,0.88,6848,18,81,34,38,876,0.0,550,452,60,120.0,0,1,307,202,52,0,0,0,250,250,0,,,,,,,,,,,,
64103,1560698364101,0,2.28,2.07,3.16,1.89,5.04,0.8,-0.0,0.65,0,-0,0,0.8,6850,18,81,34,38,876,0.0,556,456,60,119.0,0,1,307,202,52,0,0,0,250,250,0,,,,,,,,,,,,
64123,1560698364121,5,2.28,2.07,3.16,1.88,5.04,0.84,0.02,0.68,-1,-0,0,0.84,6870,18,81,34,38,874,0.0,553,457,60,120.0,0,1,307,202,52,0,0,0,250,250,0,,,,,,,,,,,,
64143,1560698364141,0,2.28,2.07,3.16,1.87,5.06,0.85,-0.06,0.72,0,-0,-0,0.85,6845,18,81,34,38,870,0.0,553,457,60,118.0,0,1,307,202,52,0,0,0,250,250,0,45.700417,4.909441,0.0,201.0,0,0.0,-1,0.0,0.0,0,0.0,1.069
64163,1560698364161,1,2.27,2.07,3.16,1.88,5.04,0.77,0.01,0.64,-0,-1,-1,0.77,6845,18,81,34,38,869,0.0,545,455,60,120.0,0,1,307,202,52,0,0,0,250,250,0,,,,,,,,,,,,
64183,1560698364181,4,2.27,2.06,3.16,1.88,5.03,0.89,-0.06,0.71,0,-1,-0,0.89,6873,18,81,34,38,866,0.0,546,456,60,119.0,0,1,307,202,52,0,0,0,250,250,0,,,,,,,,,,,,
64203,1560698364201,1,2.27,2.07,3.16,1.88,5.06,0.71,0.03,0.61,0,-0,-0,0.71,6880,18,81,34,38,866,0.0,555,459,60,118.0,0,1,307,202,52,0,0,0,250,250,0,,,,,,,,,,,,
64223,1560698364221,4,2.28,2.07,3.16,1.88,5.08,0.84,0.0,0.73,-0,-1,-1,0.84,6873,18,81,34,38,866,0.0,552,456,60,120.0,0,1,307,202,52,0,0,0,250,250,0,,,,,,,,,,,,
64243,1560698364241,1,2.27,2.07,3.16,1.89,5.04,0.75,0.05,0.66,1,0,-1,0.75,6863,18,81,34,38,868,0.0,553,459,60,118.0,0,1,307,202,52,0,0,0,250,250,0,45.700417,4.909441,0.0,201.0,0,0.0,-1,0.0,0.0,0,0.0,1.0707
64263,1560698364261,6,2.27,2.07,3.16,1.88,5.05,0.82,0.06,0.69,-0,-0,-2,0.82,6860,18,81,34,38,870,0.0,548,457,60,120.0,0,1,307,202,52,0,0,0,250,250,0,,,,,,,,,,,,
64283,1560698364281,1,2.28,2.07,3.15,1.88,5.04,0.85,-0.04,0.71,1,-1,-2,0.85,6848,18,81,34,38,871,0.0,551,457,60,118.0,0,1,307,202,52,0,0,0,250,250,0,,,,,,,,,,,,
64303,1560698364301,1,2.27,2.07,3.15,1.88,5.07,0.77,0.03,0.62,-0,-1,-3,0.77,6850,18,81,34,38,873,0.0,543,458,60,119.0,0,1,307,202,52,0,0,0,250,250,0,,,,,,,,,,,,
64323,1560698364321,2,2.28,2.07,3.16,1.88,5.04,0.88,-0.07,0.64,0,-2,-1,0.89,6865,18,81,34,38,872,0.0,546,453,60,120.0,0,1,307,202,52,0,0,0,250,250,0,,,,,,,,,,,,
64343,1560698364341,-1,2.28,2.07,3.16,1.88,5.04,0.74,-0.02,0.54,0,-1,1,0.74,6848,18,81,34,38,871,0.0,549,455,60,118.0,0,1,307,202,52,0,0,0,250,250,0,45.700417,4.909441,0.0,201.0,0,0.0,-1,0.0,0.0,0,0.0,1.0724
64363,1560698364361,4,2.28,2.07,3.16,1.89,5.04,0.85,-0.0,0.68,-0,-1,1,0.85,6843,18,81,34,38,871,0.0,544,454,60,120.0,0,1,307,202,52,0,0,0,250,250,0,,,,,,,,,,,,
64383,1560698364381,1,2.26,2.06,3.15,1.88,5.02,0.76,-0.0,0.66,1,-0,1,0.76,6858,18,81,34,38,870,0.0,544,458,60,118.0,0,1,307,202,52,0,0,0,250,250,0,,,,,,,,,,,,
64403,1560698364401,4,2.28,2.07,3.16,1.88,5.04,0.81,0.01,0.71,-0,-0,-0,0.81,6848,18,81,34,38,871,0.0,555,457,60,120.0,0,1,307,202,52,0,0,0,250,250,0,,,,,,,,,,,,
64423,1560698364421,2,2.27,2.07,3.16,1.87,5.07,0.82,-0.05,0.73,1,-1,-1,0.82,6843,18,81,34,38,871,0.0,558,456,60,118.0,0,1,307,202,52,0,0,0,250,250,0,,,,,,,,,,,,
64443,1560698364441,-1,2.27,2.07,3.16,1.88,5.07,0.78,-0.0,0.64,-0,-2,-2,0.78,6835,18,81,34,38,874,0.0,550,457,60,120.0,0,1,307,202,52,0,0,0,250,250,0,45.700417,4.909441,0.0,201.0,0,0.0,-1,0.0,0.0,0,0.0,1.074
64463,1560698364461,4,2.27,2.07,3.16,1.88,5.05,0.88,-0.07,0.69,0,-2,-1,0.88,6863,18,81,34,38,875,0.0,553,459,60,118.0,0,1,307,202,52,0,0,0,250,250,0,,,,,,,,,,,,
64483,1560698364481,-1,2.28,2.07,3.16,1.88,5.07,0.73,0.02,0.58,0,-1,-1,0.73,6863,18,81,34,38,877,0.0,559,458,60,118.0,0,1,307,202,52,0,0,0,250,250,0,,,,,,,,,,,,
64503,1560698364500,5,2.27,2.08,3.16,1.88,5.04,0.86,-0.06,0.71,-0,-1,-1,0.86,6858,18,81,34,38,878,0.0,544,454,60,120.0,0,1,307,202,52,0,0,0,250,250,0,,,,,,,,,,,,
64523,1560698364520,0,2.28,2.07,3.16,1.88,5.04,0.76,0.0,0.65,1,-0,-1,0.76,6878,18,81,34,38,878,0.0,547,458,60,118.0,0,1,307,202,52,0,0,0,250,250,0,,,,,,,,,,,,
64543,1560698364540,6,2.27,2.07,3.16,1.88,5.05,0.83,-0.01,0.72,-0,-0,-1,0.83,6873,18,81,34,38,879,0.0,547,454,60,119.0,0,1,307,202,52,0,0,0,250,250,0,45.700417,4.909441,0.0,201.0,0,0.0,-1,0.0,0.0,0,0.0,1.0757
64563,1560698364560,2,2.27,2.07,3.16,1.88,5.04,0.82,-0.08,0.72,1,0,-2,0.82,6863,18,81,34,38,877,0.0,553,456,60,118.0,0,1,307,202,52,0,0,0,250,250,0,,,,,,,,,,,,
64583,1560698364580,0,2.28,2.07,3.16,1.89,5.04,0.77,-0.01,0.63,-0,-1,-1,0.77,6855,18,81,34,38,877,0.0,542,455,60,120.0,0,1,307,202,52,0,0,0,250,250,0,,,,,,,,,,,,
64603,1560698364600,4,2.27,2.07,3.16,1.89,5.04,0.87,-0.07,0.66,0,-2,0,0.87,6875,18,81,34,38,875,0.0,547,456,60,120.0,0,1,307,202,52,0,0,0,250,250,0,,,,,,,,,,,,
64623,1560698364620,-1,2.27,2.07,3.16,1.87,5.05,0.71,0.02,0.58,0,-0,2,0.71,6878,18,81,34,38,874,0.0,557,459,60,118.0,0,1,307,202,52,0,0,0,250,250,0,,,,,,,,,,,,
64643,1560698364640,4,2.27,2.07,3.17,1.88,5.05,0.84,-0.0,0.7,-0,-0,1,0.84,6855,18,81,34,38,873,0.0,549,452,60,119.0,0,1,307,202,52,0,0,0,250,250,0,45.700417,4.909441,0.0,201.0,0,0.0,-1,0.0,0.0,0,0.0,1.0774
64663,1560698364660,2,2.28,2.07,3.16,1.89,5.04,0.74,0.0,0.69,1,1,1,0.74,6880,18,81,34,38,873,0.0,551,458,60,118.0,0,1,307,202,52,0,0,0,250,250,0,,,,,,,,,,,,
64683,1560698364680,2,2.27,2.07,3.16,1.89,5.06,0.8,0.03,0.73,-0,0,-1,0.8,6870,18,81,34,38,873,0.0,550,455,60,119.0,0,1,307,202,52,0,0,0,250,250,0,,,,,,,,,,,,
64703,1560698364702,2,2.28,2.07,3.16,1.89,5.06,0.81,-0.05,0.73,0,-1,-2,0.81,6845,18,81,34,38,872,0.0,565,458,60,119.0,0,1,307,202,52,0,0,0,250,250,0,,,,,,,,,,,,
64723,1560698364722,1,2.27,2.07,3.16,1.88,5.05,0.74,0.04,0.65,-0,-1,-2,0.75,6845,18,81,34,38,872,0.0,555,458,60,119.0,0,1,307,202,52,0,0,0,250,250,0,,,,,,,,,,,,
64743,1560698364742,4,2.27,2.07,3.15,1.89,5.05,0.87,-0.06,0.72,-0,-3,-2,0.87,6868,18,81,34,38,871,0.0,553,458,60,118.0,0,1,307,202,52,0,0,0,250,250,0,45.700417,4.909441,0.0,201.0,0,0.0,-1,0.0,0.0,0,0.0,1.079
64763,1560698364762,1,2.27,2.07,3.16,1.87,5.06,0.72,0.03,0.61,0,-1,-0,0.72,6868,18,81,34,38,872,0.0,553,454,60,119.0,0,1,307,202,52,0,0,0,250,250,0,,,,,,,,,,,,
64783,1560698364782,3,2.28,2.07,3.16,1.88,5.05,0.85,0.01,0.74,-1,-1,0,0.85,6840,18,81,34,38,873,0.0,543,453,60,120.0,0,1,307,202,52,0,0,0,250,250,0,,,,,,,,,,,,
