"Interval"|"ms"|0|0|1,"Utc"|"ms"|0|0|1,"FB_p"|"bar"|0|300|50,"Volant"|"F"|0.0|300.0|50,"xFR"|"mm"|0.0|5.0|50,"xRR"|"mm"|0.0|5.0|50,"xFL"|"mm"|0.0|5.0|50,"xRL"|"mm"|0.0|5.0|50,"AccelX"|"G"|-3.0|3.0|50,"AccelY"|"G"|-3.0|3.0|50,"AccelZ"|"G"|-3.0|3.0|50,"Yaw"|"Deg/Sec"|-120|120|50,"Pitch"|"Deg/Sec"|-120|120|50,"Roll"|"Deg/Sec"|-120|120|50,"Gsum"|"G"|0.0|3.0|50,"RPM"|""|0|14000|50,"TPS"|"%"|0|100|50,"WaterTemp"|"?C"|0|300|50,"AirTemp"|"?C"|-1000|1000|50,"MAP"|"KPa"|0|255|50,"Lambda"|""|0|1024|50,"WheelSpeed"|"MPH"|0.0|150.0|50,"OilPress"|"PSI"|0|150|50,"FuelPress"|"PSI"|0|150|50,"OilTemp"|"F"|0|300|50,"Battery"|"Volts"|0.0|20.0|50,"FuelCon"|"L/h"|-1000|1000|50,"Gear"|""|0|10|50,"Advance"|"Deg"|-360|360|50,"Injection"|"ms"|-1000|1000|50,"FuelCon"|"L/100km"|-1000|1000|50,"LC_But_Pres"|""|-1000|1000|50,"LC_Active"|""|-1000|1000|50,"RD_Speed"|""|-1000|1000|50,"RUD_Speed"|""|-1000|1000|50,"LD_Speed"|""|-1000|1000|50,"LUD_Speed"|""|-1000|1000|50,"Ana1"|"bar"|-1000.0|1000.0|50,"Latitude"|"Degrees"|-180.0|180.0|10,"Longitude"|"Degrees"|-180.0|180.0|10,"Speed"|"kph"|0.0|150.0|10,"Altitude"|"m"|0.0|4000.0|10,"LapCount"|""|0|0|10,"LapTime"|"Min"|0.0|0.0|10,"Sector"|""|0|0|10,"SectorTime"|"Min"|0.0|0.0|10,"ElapsedTime"|"Min"|0.0|0.0|10,"CurrentLap"|""|0|0|10,"Distance"|"km"|0.0|0.0|10,"SessionTime"|"Min"|0.0|0.0|10
207863,1564151555269,3,2.47,0.94,0.36,1.38,1.07,1.04,-0.71,0.36,18,-0,28,1.26,9709,25,90,43,36,843,525.0,652,463,60,122.0,146,1,311,207,77,0,0,513,2524,-9072,523,-5.59,,,,,,,,,,,,
207883,1564151555307,0,2.47,0.93,0.36,1.38,1.07,1.06,-0.84,0.38,18,3,26,1.35,9699,25,90,43,36,848,521.0,644,472,60,124.0,146,1,311,205,77,0,0,504,998,2524,520,-5.59,,,,,,,,,,,,
207903,1564151555327,3,2.47,0.93,0.36,1.38,1.07,1.0,-0.7,0.34,17,1,27,1.22,9770,25,89,43,35,848,517.0,641,466,60,123.0,146,1,308,204,77,0,0,508,771,-9072,518,-5.59,,,,,,,,,,,,
207923,1564151555347,0,2.47,0.94,0.36,1.37,1.07,0.97,-0.78,0.37,17,0,25,1.25,9791,25,90,43,35,845,516.0,646,465,60,124.0,146,1,308,205,77,0,0,506,771,1341,516,-5.59,,,,,,,,,,,,
207943,1564151555367,3,2.46,0.94,0.36,1.37,1.08,0.91,-0.58,0.34,17,0,26,1.08,9760,25,89,43,35,840,518.0,648,460,60,120.0,146,1,308,205,77,0,0,504,998,-9072,518,-5.59,44.681374,10.02497,51.45,173.5,0,0.0,-1,0.0,0.0,0,1.24,3.4657
207963,1564151555387,1,2.45,0.93,0.36,1.38,1.07,0.99,-0.67,0.33,17,1,24,1.2,9765,25,90,43,34,832,514.0,651,465,60,124.0,145,1,305,203,75,0,0,504,771,2524,514,-5.59,,,,,,,,,,,,
207983,1564151555397,3,2.45,0.93,0.36,1.38,1.07,0.98,-0.57,0.44,16,-3,26,1.13,9806,25,89,43,34,825,516.0,651,463,60,123.0,145,1,305,203,75,0,0,504,998,-28648,516,-5.59,,,,,,,,,,,,
208003,1564151555417,2,2.45,0.93,0.36,1.38,1.07,1.01,-0.63,0.49,16,-0,23,1.19,9801,25,90,43,34,819,517.0,643,467,60,123.0,145,1,305,203,75,0,0,506,248,-28648,515,-5.59,,,,,,,,,,,,
208023,1564151555437,2,2.45,0.93,0.36,1.38,1.07,1.02,-0.56,0.57,16,-2,23,1.16,9750,25,89,43,34,816,515.0,652,469,60,123.0,145,1,305,203,75,0,0,506,-32768,1248,514,-5.59,,,,,,,,,,,,
208043,1564151555457,2,2.44,0.93,0.37,1.38,1.07,1.07,-0.68,0.55,16,0,23,1.26,9750,25,90,43,34,817,515.0,643,472,60,123.0,145,1,305,203,75,0,0,504,-32768,10408,515,-5.59,44.681362,10.024984,50.97,173.5,0,0.0,-1,0.0,0.0,0,1.24,3.4674
208063,1564151555477,-1,2.45,0.93,0.35,1.38,1.08,0.97,-0.59,0.59,16,-1,23,1.14,9786,25,89,43,34,824,515.0,642,471,60,122.0,146,1,305,203,75,0,0,503,248,2088,512,-5.59,,,,,,,,,,,,
208083,1564151555497,2,2.44,0.93,0.36,1.38,1.07,0.95,-0.73,0.57,16,-1,22,1.2,9780,25,89,43,34,835,513.0,640,463,60,123.0,146,1,305,203,75,0,0,506,248,-9212,511,-5.59,,,,,,,,,,,,
208103,1564151555509,-1,2.44,0.92,0.36,1.38,1.07,0.81,-0.6,0.54,16,1,23,1.01,9720,25,89,43,34,847,515.0,645,468,60,122.0,146,1,305,202,75,0,0,509,248,1341,512,-5.59,,,,,,,,,,,,
208123,1564151555529,1,2.45,0.92,0.36,1.38,1.07,0.91,-0.69,0.5,16,-0,22,1.15,9715,25,90,43,34,857,510.0,641,467,60,123.0,146,1,305,202,75,0,0,503,1,1248,510,-5.59,,,,,,,,,,,,
208143,1564151555549,2,2.45,0.93,0.35,1.38,1.07,0.84,-0.58,0.55,15,-2,22,1.02,9755,25,89,43,34,867,510.0,642,463,60,122.0,146,1,305,203,75,0,0,503,1,1341,510,-5.59,44.681358,10.024998,50.75,173.5,0,0.0,-1,0.0,0.0,0,1.24,3.469
208163,1564151555569,0,2.45,0.93,0.36,1.38,1.08,0.93,-0.65,0.57,15,-0,20,1.14,9750,25,90,43,34,879,511.0,645,458,60,122.0,145,1,305,203,74,0,0,506,-1818,2524,511,-5.59,,,,,,,,,,,,
208183,1564151555603,1,2.45,0.93,0.36,1.37,1.07,0.95,-0.54,0.6,15,-1,21,1.09,9694,25,89,43,34,890,510.0,647,471,60,123.0,145,1,305,202,74,0,0,499,-1818,-9212,510,-5.59,,,,,,,,,,,,
208203,1564151555623,0,2.45,0.93,0.36,1.38,1.07,0.97,-0.67,0.59,14,1,21,1.17,9669,25,90,43,34,892,510.0,642,470,60,123.0,145,1,305,201,74,0,0,501,248,1248,510,-5.59,,,,,,,,,,,,
208223,1564151555643,3,2.45,0.93,0.36,1.38,1.07,0.91,-0.55,0.59,14,0,21,1.06,9709,25,89,43,34,894,509.0,641,458,60,121.0,145,1,305,201,74,0,0,505,-32768,1248,509,-5.59,,,,,,,,,,,,
208243,1564151555663,-0,2.45,0.93,0.36,1.38,1.08,0.82,-0.65,0.6,15,0,20,1.05,9694,25,90,43,34,897,509.0,647,466,60,123.0,145,1,305,201,74,0,0,506,-6656,2524,509,-5.59,44.681347,10.02501,50.41,173.5,0,0.0,-1,0.0,0.0,0,1.24,3.4707
208263,1564151555683,2,2.45,0.93,0.36,1.38,1.07,0.85,-0.54,0.56,14,-0,19,1.0,9640,25,90,43,34,899,507.0,650,468,60,122.0,143,1,305,201,73,0,0,503,505,16383,507,-5.59,,,,,,,,,,,,
208283,1564151555697,1,2.44,0.93,0.36,1.38,1.08,0.86,-0.54,0.59,14,0,19,1.01,9605,25,90,43,34,900,508.0,651,465,60,121.0,143,1,305,200,73,0,0,504,1,-9212,508,-5.59,,,,,,,,,,,,
208303,1564151555717,1,2.45,0.93,0.37,1.38,1.08,0.95,-0.58,0.57,14,0,20,1.11,9580,25,90,43,34,901,508.0,635,470,60,123.0,143,1,305,200,73,0,0,503,1,-9212,509,-5.59,,,,,,,,,,,,
208323,1564151555737,3,2.45,0.93,0.37,1.38,1.08,0.87,-0.47,0.62,14,1,20,0.99,9595,25,89,43,34,907,508.0,641,460,60,122.0,143,1,305,200,73,0,0,503,1,16383,510,-5.59,,,,,,,,,,,,
208343,1564151555757,0,2.45,0.94,0.36,1.39,1.07,0.83,-0.56,0.57,14,0,19,1.0,9566,25,90,43,34,913,508.0,640,472,60,123.0,143,1,305,200,73,0,0,505,-1818,15679,507,-5.59,44.681339,10.025023,50.21,173.5,0,0.0,-1,0.0,0.0,0,1.24,3.4724
208363,1564151555777,3,2.45,0.93,0.36,1.38,1.08,0.83,-0.48,0.55,14,1,20,0.96,9551,25,90,43,34,918,509.0,643,465,60,123.0,141,1,305,200,72,0,0,500,1,-22519,508,-5.59,,,,,,,,,,,,
208383,1564151555797,-1,2.46,0.93,0.36,1.37,1.08,0.84,-0.4,0.57,14,1,19,0.93,9488,25,89,43,34,923,506.0,655,474,60,122.0,141,1,305,199,72,0,0,503,505,1341,506,-5.59,,,,,,,,,,,,
208403,1564151555807,1,2.46,0.93,0.36,1.39,1.07,0.9,-0.56,0.61,14,2,19,1.06,9479,25,90,43,34,929,505.0,641,467,60,122.0,141,1,305,199,72,0,0,502,-1818,15679,505,-5.59,,,,,,,,,,,,
208423,1564151555827,3,2.45,0.93,0.36,1.38,1.07,0.91,-0.45,0.56,14,3,20,1.01,9484,25,90,43,34,935,507.0,641,461,60,123.0,141,1,305,199,72,0,0,500,-1818,1341,507,-5.59,,,,,,,,,,,,
208443,1564151555847,0,2.46,0.93,0.36,1.38,1.07,0.84,-0.38,0.61,14,1,20,0.92,9522,25,90,43,34,936,509.0,643,463,60,123.0,141,1,305,200,72,0,0,502,505,15679,509,-5.59,44.681328,10.025034,49.89,173.5,0,0.0,-1,0.0,0.0,0,1.24,3.4741
208463,1564151555867,0,2.46,0.93,0.37,1.38,1.08,0.91,-0.54,0.63,14,2,19,1.06,9522,25,90,43,34,937,504.0,644,460,60,122.0,140,1,305,200,71,0,0,499,1,1248,504,-5.59,,,,,,,,,,,,
208483,1564151555905,3,2.47,0.93,0.36,1.38,1.08,0.93,-0.5,0.66,15,3,19,1.06,9479,25,90,43,34,936,505.0,648,460,60,123.0,140,1,305,200,71,0,0,500,1,17136,505,-5.59,,,,,,,,,,,,
208503,1564151555925,-1,2.47,0.93,0.37,1.38,1.07,0.84,-0.43,0.6,15,4,20,0.94,9498,25,90,43,34,935,511.0,651,467,60,123.0,140,1,305,199,71,0,0,501,505,17136,511,-5.59,,,,,,,,,,,,
208523,1564151555945,0,2.47,0.93,0.36,1.37,1.07,0.89,-0.59,0.63,15,3,19,1.07,9493,25,90,43,34,933,507.0,636,466,60,124.0,140,1,305,199,71,0,0,504,-1562,10408,507,-5.59,,,,,,,,,,,,
208543,1564151555965,1,2.48,0.93,0.36,1.38,1.07,0.94,-0.54,0.71,14,2,18,1.09,9537,25,90,43,34,931,507.0,635,467,60,123.0,140,1,305,199,71,0,0,502,505,2524,507,-5.59,44.68132,10.025044,49.86,173.5,0,0.0,-1,0.0,0.0,0,1.24,3.4757
208563,1564151555985,-1,2.48,0.93,0.36,1.38,1.07,0.86,-0.51,0.66,15,3,19,1.0,9551,25,90,43,34,932,508.0,641,462,60,123.0,140,1,305,200,71,0,0,500,-1562,2524,508,-5.59,,,,,,,,,,,,
208583,1564151556005,2,2.47,0.93,0.36,1.39,1.07,0.92,-0.62,0.61,15,3,19,1.11,9546,25,90,43,34,934,506.0,651,470,60,122.0,140,1,305,200,71,0,0,497,-899,-9212,506,-5.59,,,,,,,,,,,,
208603,1564151556010,2,2.48,0.94,0.36,1.39,1.07,0.87,-0.5,0.6,15,4,19,1.0,9503,25,89,43,34,937,506.0,645,469,60,123.0,140,1,305,200,71,0,0,497,-10483,26178,506,-5.59,,,,,,,,,,,,
208623,1564151556030,-0,2.47,0.93,0.36,1.39,1.07,0.9,-0.51,0.55,16,3,19,1.03,9498,25,89,43,34,940,507.0,653,466,60,121.0,140,1,305,199,71,0,0,497,32033,1248,507,-5.59,,,,,,,,,,,,
208643,1564151556050,1,2.48,0.93,0.36,1.38,1.08,0.98,-0.66,0.63,16,3,20,1.18,9484,25,89,43,34,942,505.0,640,468,60,122.0,140,1,305,199,71,0,0,496,3580,1248,505,-5.59,44.681309,10.025055,49.78,173.5,0,0.0,-1,0.0,0.0,0,1.24,3.4774
208663,1564151556070,3,2.47,0.93,0.37,1.38,1.07,0.99,-0.46,0.58,16,2,20,1.1,9479,25,90,43,34,944,507.0,637,470,60,121.0,140,1,305,198,71,0,0,496,-899,1341,507,-5.59,,,,,,,,,,,,
208683,1564151556090,1,2.47,0.93,0.36,1.37,1.08,0.89,-0.45,0.58,16,0,20,1.0,9455,25,89,43,34,944,503.0,641,460,60,121.0,140,1,305,199,71,0,0,498,-899,-8187,503,-5.59,,,,,,,,,,,,
208703,1564151556102,1,2.48,0.93,0.36,1.38,1.08,0.92,-0.61,0.6,16,0,20,1.1,9464,25,90,43,34,942,507.0,638,472,60,123.0,140,1,305,199,71,0,0,499,-899,17136,507,-5.59,,,,,,,,,,,,
208723,1564151556122,2,2.47,0.93,0.36,1.39,1.07,0.95,-0.6,0.52,16,1,20,1.13,9455,25,90,43,34,943,507.0,642,464,60,122.0,140,1,305,199,71,0,0,494,-899,26178,507,-5.59,,,,,,,,,,,,
208743,1564151556142,2,2.48,0.93,0.36,1.38,1.07,0.88,-0.45,0.43,16,1,22,0.99,9417,25,89,43,34,943,507.0,640,469,60,123.0,140,1,305,198,71,0,0,498,32033,1341,507,-5.59,44.681301,10.025064,49.56,173.5,0,0.0,-1,0.0,0.0,0,1.25,3.479
208763,1564151556162,0,2.48,0.93,0.36,1.38,1.08,0.86,-0.6,0.36,16,1,21,1.05,9422,22,89,43,34,945,505.0,636,465,60,123.0,140,1,305,198,71,0,0,492,32033,-3482,507,-5.59,,,,,,,,,,,,
208783,1564151556198,1,2.48,0.93,0.36,1.38,1.08,0.95,-0.73,0.45,16,2,20,1.2,9426,20,89,43,33,948,508.0,638,463,60,123.0,140,1,302,196,71,0,0,495,32033,15679,503,-5.59,,,,,,,,,,,,
208803,1564151556218,3,2.48,0.93,0.36,1.38,1.08,0.97,-0.56,0.47,16,2,21,1.12,9455,16,89,43,32,948,505.0,637,467,60,122.0,140,1,300,193,71,0,0,495,-899,16383,505,-5.59,,,,,,,,,,,,
208823,1564151556238,-0,2.47,0.94,0.36,1.38,1.07,0.9,-0.55,0.39,16,1,21,1.06,9417,15,90,43,30,945,504.0,638,461,60,122.0,140,1,291,190,71,0,0,495,32033,-14,504,-5.59,,,,,,,,,,,,
208843,1564151556258,-2,2.47,0.93,0.37,1.38,1.07,0.88,-0.7,0.48,16,2,21,1.12,9342,13,90,43,29,942,505.0,638,463,60,123.0,140,1,287,188,71,0,0,493,8488,-14,505,-5.59,44.681286,10.025074,49.45,173.6,0,0.0,-1,0.0,0.0,0,1.25,3.4807
208863,1564151556278,1,2.47,0.93,0.36,1.38,1.08,0.93,-0.75,0.49,16,2,21,1.2,9254,11,89,43,28,937,505.0,639,466,60,122.0,129,1,282,187,65,0,0,494,16648,-3414,505,-5.59,,,,,,,,,,,,
208883,1564151556298,3,2.47,0.92,0.36,1.38,1.07,0.98,-0.69,0.54,17,2,20,1.2,9066,10,90,43,27,934,503.0,637,467,60,122.0,129,1,278,185,65,0,0,492,16648,16383,503,-5.59,,,,,,,,,,,,
208903,1564151556308,2,2.47,0.93,0.36,1.37,1.07,1.08,-0.65,0.57,16,2,21,1.26,8967,8,90,43,26,932,502.0,630,465,60,123.0,129,1,274,185,65,0,0,489,10305,15679,502,-5.59,,,,,,,,,,,,
208923,1564151556328,1,2.47,0.93,0.37,1.38,1.07,1.16,-0.63,0.69,16,1,20,1.33,8819,8,89,43,25,931,504.0,628,468,60,123.0,129,1,270,185,65,0,0,489,16648,-4054,504,-5.59,,,,,,,,,,,,
208943,1564151556348,-2,2.47,0.93,0.37,1.38,1.07,1.16,-0.73,0.7,16,2,21,1.37,8628,8,90,43,25,933,501.0,619,466,60,124.0,129,1,270,185,65,0,0,491,10305,26178,501,-5.59,44.681278,10.025083,49.39,173.6,0,0.0,-1,0.0,0.0,0,1.25,3.4824
208963,1564151556368,3,2.46,0.93,0.37,1.38,1.06,1.1,-0.74,0.53,16,1,22,1.33,8461,8,90,43,24,930,501.0,620,467,60,123.0,117,1,270,182,59,0,0,485,16648,-3856,502,-5.59,,,,,,,,,,,,
208983,1564151556404,-1,2.47,0.93,0.37,1.38,1.07,1.17,-0.76,0.55,16,2,21,1.4,8366,8,89,43,24,917,500.0,615,467,60,123.0,117,1,270,174,59,0,0,476,-17956,3,500,-5.59,,,,,,,,,,,,
209003,1564151556424,3,2.47,0.93,0.36,1.38,1.07,1.09,-0.77,0.53,16,0,21,1.33,8359,8,89,43,25,903,494.0,629,465,60,123.0,117,1,270,176,59,0,0,469,32033,2524,494,-5.59,,,,,,,,,,,,
209023,1564151556444,-0,2.47,0.93,0.37,1.38,1.07,1.14,-0.69,0.43,16,0,22,1.33,8465,8,89,43,24,888,491.0,627,466,60,123.0,117,1,270,176,59,0,0,464,32033,248,491,-5.59,,,,,,,,,,,,
209043,1564151556464,-1,2.47,0.93,0.37,1.37,1.08,1.21,-0.66,0.54,15,-0,21,1.38,8542,8,90,43,24,874,490.0,628,465,60,123.0,117,1,270,178,59,0,0,464,8488,-10483,490,-5.59,44.681263,10.025089,49.16,173.6,0,0.0,-1,0.0,0.0,0,1.25,3.4841
209063,1564151556484,3,2.47,0.93,0.36,1.37,1.07,1.15,-0.68,0.45,16,-0,22,1.33,8608,8,89,43,24,861,488.0,621,469,60,124.0,117,1,270,178,57,0,0,461,16408,32033,487,-5.59,,,,,,,,,,,,
209083,1564151556494,2,2.47,0.93,0.36,1.38,1.07,1.06,-0.66,0.37,16,-1,22,1.25,8644,8,90,43,24,850,485.0,628,465,60,123.0,117,1,270,178,57,0,0,458,-23623,10305,485,-5.59,,,,,,,,,,,,
209103,1564151556514,1,2.47,0.93,0.36,1.38,1.07,1.16,-0.61,0.38,16,-1,21,1.31,8664,8,89,43,24,852,480.0,629,463,60,122.0,117,1,270,178,57,0,0,459,-9160,-9203,480,-5.59,,,,,,,,,,,,
209123,1564151556534,0,2.47,0.93,0.37,1.38,1.06,1.22,-0.55,0.47,16,-1,20,1.34,8640,8,89,43,24,855,476.0,627,464,60,123.0,117,1,270,185,57,0,0,454,2524,3576,478,-5.59,,,,,,,,,,,,
209143,1564151556554,-0,2.47,0.93,0.36,1.39,1.07,1.13,-0.58,0.37,16,-0,21,1.27,8636,8,89,43,24,860,475.0,622,464,60,124.0,117,1,270,185,57,0,0,455,3571,3576,475,-5.59,44.681255,10.025097,48.64,173.7,0,0.0,-1,0.0,0.0,0,1.25,3.4857
209163,1564151556574,3,2.48,0.93,0.36,1.37,1.07,1.13,-0.57,0.26,16,1,21,1.27,8616,8,89,43,25,866,470.0,632,466,60,123.0,126,1,270,185,60,0,0,452,15649,-1923,470,-5.59,,,,,,,,,,,,
209183,1564151556594,2,2.47,0.93,0.36,1.38,1.07,1.15,-0.56,0.26,16,1,22,1.28,8628,8,90,43,25,870,468.0,626,466,60,123.0,126,1,270,185,60,0,0,447,8488,243,468,-5.59,,,,,,,,,,,,
209203,1564151556608,-1,2.47,0.93,0.35,1.37,1.07,1.14,-0.57,0.42,16,0,20,1.28,8589,8,89,43,25,873,466.0,626,467,60,123.0,126,1,270,185,60,0,0,451,21432,2211,466,-5.59,,,,,,,,,,,,
209223,1564151556628,3,2.47,0.93,0.36,1.38,1.07,1.07,-0.61,0.35,16,1,21,1.23,8534,8,89,43,25,881,463.0,626,464,60,122.0,126,1,270,185,60,0,0,449,2131,17628,464,-5.59,,,,,,,,,,,,
209243,1564151556648,2,2.48,0.93,0.36,1.38,1.07,1.1,-0.57,0.28,16,1,21,1.24,8476,8,89,43,26,889,460.0,629,463,60,122.0,126,1,274,183,60,0,0,443,-28332,16408,460,-5.59,44.681244,10.025103,47.07,173.7,0,0.0,-1,0.0,0.0,0,1.25,3.4874
209263,1564151556668,-0,2.47,0.93,0.36,1.38,1.07,1.13,-0.6,0.41,15,2,20,1.28,8408,8,90,43,25,893,460.0,620,464,60,124.0,126,1,270,179,58,0,0,442,5600,12552,457,-5.59,,,,,,,,,,,,
209283,1564151556702,1,2.46,0.93,0.36,1.38,1.06,1.07,-0.61,0.36,15,2,21,1.24,8385,8,90,43,26,898,457.0,628,461,60,123.0,126,1,273,178,58,0,0,438,-7939,14488,457,-5.59,,,,,,,,,,,,
209303,1564151556722,1,2.47,0.93,0.35,1.37,1.07,1.14,-0.5,0.38,15,2,20,1.25,8393,8,90,43,26,913,453.0,626,464,60,123.0,126,1,273,178,58,0,0,437,243,-6387,453,-5.59,,,,,,,,,,,,
209323,1564151556742,3,2.47,0.93,0.36,1.38,1.07,1.05,-0.53,0.39,15,3,20,1.18,8363,8,90,43,25,929,452.0,610,466,60,124.0,126,1,270,176,58,0,0,437,-3322,-6387,452,-5.59,,,,,,,,,,,,
209343,1564151556762,1,2.47,0.93,0.35,1.38,1.07,1.14,-0.47,0.29,15,3,21,1.24,8300,8,90,43,25,941,451.0,609,465,60,123.0,126,1,270,174,58,0,0,434,3635,-23623,449,-5.59,44.681232,10.025107,45.73,173.7,0,0.0,-1,0.0,0.0,0,1.25,3.489
209363,1564151556782,0,2.46,0.93,0.36,1.38,1.07,1.11,-0.53,0.4,15,4,20,1.23,8296,8,90,43,24,952,449.0,605,466,60,124.0,117,1,270,173,53,0,0,430,31796,-3267,449,-5.59,,,,,,,,,,,,
209383,1564151556796,-0,2.47,0.93,0.36,1.37,1.07,1.08,-0.58,0.3,15,2,20,1.23,8241,8,89,43,24,953,447.0,620,462,60,121.0,117,1,270,165,53,0,0,433,-4082,8488,446,-5.59,,,,,,,,,,,,
209403,1564151556816,0,2.46,0.93,0.36,1.38,1.07,1.05,-0.59,0.4,16,3,20,1.2,8220,8,90,43,24,953,446.0,605,466,60,123.0,117,1,270,169,53,0,0,431,3826,23400,446,-5.59,,,,,,,,,,,,
209423,1564151556836,2,2.47,0.93,0.36,1.37,1.07,1.09,-0.55,0.39,16,3,20,1.22,8155,8,89,43,24,944,445.0,600,465,60,123.0,117,1,270,161,53,0,0,425,-21792,-3267,441,-5.59,,,,,,,,,,,,
209443,1564151556856,3,2.47,0.93,0.36,1.37,1.07,0.99,-0.56,0.43,16,4,19,1.14,8067,8,89,43,24,932,441.0,603,464,60,124.0,117,1,270,160,53,0,0,425,-8165,21432,441,-5.59,44.681225,10.025111,44.69,173.8,0,0.0,-1,0.0,0.0,0,1.26,3.4907
209463,1564151556876,-1,2.47,0.93,0.36,1.38,1.07,1.09,-0.53,0.46,16,3,19,1.22,8074,8,89,43,25,910,441.0,611,465,60,123.0,111,1,270,160,49,0,0,422,7154,-18341,441,-5.59,,,,,,,,,,,,
209483,1564151556896,1,2.47,0.93,0.36,1.38,1.07,1.07,-0.55,0.47,16,2,19,1.21,8043,8,89,43,25,883,438.0,606,465,60,123.0,111,1,270,156,49,0,0,418,-3414,-18341,435,-5.59,,,,,,,,,,,,
209503,1564151556908,2,2.48,0.93,0.35,1.37,1.06,1.0,-0.57,0.52,16,4,18,1.15,7978,8,90,43,25,864,436.0,605,465,60,123.0,111,1,269,156,49,0,0,418,-26615,-28332,436,-5.59,,,,,,,,,,,,
209523,1564151556928,0,2.46,0.93,0.36,1.38,1.06,1.09,-0.6,0.5,16,3,18,1.25,8012,8,89,43,25,849,433.0,611,466,60,123.0,111,1,269,156,49,0,0,418,-4059,-768,433,-5.59,,,,,,,,,,,,
209543,1564151556948,1,2.48,0.93,0.36,1.38,1.07,1.06,-0.61,0.41,16,2,19,1.22,8002,8,89,43,25,841,433.0,600,466,60,122.0,111,1,270,156,49,0,0,418,11560,1779,431,-5.59,44.68121,10.025114,43.6,173.9,0,0.0,-1,0.0,0.0,0,1.26,3.4924
209563,1564151556968,3,2.46,0.93,0.36,1.38,1.07,0.98,-0.55,0.34,16,3,20,1.13,7941,8,90,43,25,834,427.0,596,465,60,124.0,109,1,269,156,47,0,0,413,11560,-7939,427,-5.59,,,,,,,,,,,,
209583,1564151557001,0,2.46,0.92,0.35,1.38,1.06,1.04,-0.49,0.36,16,3,18,1.15,7941,8,89,43,25,835,426.0,590,467,60,124.0,109,1,269,156,47,0,0,414,10392,1779,426,-5.59,,,,,,,,,,,,
209603,1564151557021,-1,2.47,0.93,0.36,1.37,1.07,1.05,-0.47,0.37,16,3,19,1.15,7878,9,89,43,26,844,426.0,588,467,60,123.0,109,1,271,157,47,0,0,410,-26615,1779,425,-5.59,,,,,,,,,,,,
209623,1564151557041,2,2.47,0.94,0.36,1.38,1.07,0.97,-0.52,0.4,16,3,19,1.1,7822,12,89,44,26,852,424.0,593,464,60,123.0,109,1,271,156,47,0,0,413,-9211,13180,424,-5.59,,,,,,,,,,,,
209643,1564151557061,2,2.47,0.93,0.36,1.38,1.07,0.88,-0.54,0.4,16,3,18,1.03,7815,13,89,44,27,862,424.0,582,466,60,124.0,109,1,274,157,47,0,0,411,-8151,13180,424,-5.59,44.681202,10.025117,42.65,173.9,0,0.0,-1,0.0,0.0,0,1.26,3.4941
209663,1564151557081,4,2.47,0.93,0.36,1.38,1.07,0.92,-0.56,0.41,16,4,18,1.08,7780,18,89,44,28,868,423.0,581,463,60,123.0,111,1,276,159,47,0,0,409,11545,31796,423,-5.59,,,,,,,,,,,,
209683,1564151557091,-2,2.47,0.93,0.36,1.38,1.06,1.03,-0.57,0.42,16,2,19,1.18,7809,20,89,44,31,869,420.0,588,467,60,123.0,111,1,286,162,47,0,0,405,6384,3826,419,-5.59,,,,,,,,,,,,
209703,1564151557111,0,2.47,0.93,0.36,1.38,1.07,1.04,-0.57,0.47,15,1,19,1.18,7789,20,89,44,32,871,416.0,581,464,60,123.0,111,1,290,165,47,0,0,405,6384,3826,416,-5.59,,,,,,,,,,,,
209723,1564151557131,1,2.47,0.93,0.36,1.37,1.07,0.97,-0.55,0.42,15,1,19,1.11,7809,20,89,44,34,874,417.0,596,467,60,122.0,111,1,295,175,47,0,0,404,-3968,3826,417,-5.59,,,,,,,,,,,,
209743,1564151557151,3,2.47,0.94,0.36,1.38,1.07,0.93,-0.52,0.42,15,2,20,1.07,7815,20,89,44,34,876,417.0,584,467,60,124.0,111,1,295,181,47,0,0,402,-3968,-21944,417,-5.59,44.68119,10.025119,41.8,174.0,0,0.0,-1,0.0,0.0,0,1.26,3.4957
209763,1564151557171,0,2.47,0.93,0.36,1.37,1.07,0.98,-0.54,0.48,15,4,20,1.12,7773,20,89,44,35,878,417.0,585,466,60,123.0,127,1,298,181,53,0,0,405,17144,-4082,414,-5.59,,,,,,,,,,,,
209783,1564151557191,-0,2.47,0.94,0.35,1.38,1.06,1.08,-0.55,0.5,15,4,19,1.21,7767,20,89,44,37,879,416.0,589,465,60,123.0,127,1,304,187,53,0,0,399,-1818,13552,416,-5.59,,,,,,,,,,,,
209803,1564151557207,1,2.48,0.93,0.36,1.38,1.06,1.08,-0.51,0.51,16,3,20,1.2,7757,20,89,44,37,880,414.0,585,467,60,122.0,127,1,304,193,53,0,0,402,-1818,-21792,414,-5.59,,,,,,,,,,,,
209823,1564151557227,0,2.46,0.93,0.36,1.38,1.07,1.0,-0.45,0.52,16,3,20,1.1,7751,20,89,44,38,881,414.0,587,464,60,123.0,127,1,307,198,53,0,0,404,1,-3414,414,-5.59,,,,,,,,,,,,
209843,1564151557247,3,2.46,0.93,0.36,1.38,1.06,0.9,-0.45,0.51,16,2,18,1.0,7799,21,89,44,38,881,414.0,581,466,60,121.0,127,1,307,204,53,0,0,400,505,-8165,414,-5.59,44.681179,10.02512,40.84,174.0,0,0.0,-1,0.0,0.0,0,1.26,3.4974
209863,1564151557267,3,2.47,0.93,0.36,1.39,1.07,0.88,-0.5,0.46,16,3,19,1.01,7747,21,89,44,39,881,411.0,578,465,60,123.0,142,1,310,204,59,0,0,399,505,-26615,411,-5.59,,,,,,,,,,,,
209883,1564151557301,-2,2.48,0.93,0.36,1.38,1.06,0.97,-0.51,0.46,15,2,22,1.1,7796,21,89,44,39,884,411.0,580,466,60,123.0,142,1,310,204,59,0,0,401,1,-26615,410,-5.59,,,,,,,,,,,,
209903,1564151557321,-0,2.47,0.93,0.36,1.38,1.06,1.05,-0.45,0.55,15,1,20,1.14,7780,21,90,44,39,886,410.0,571,466,60,123.0,142,1,310,204,59,0,0,403,505,7154,410,-5.59,,,,,,,,,,,,
209923,1564151557341,1,2.47,0.93,0.36,1.38,1.07,1.02,-0.46,0.51,14,1,18,1.11,7809,21,89,44,40,888,409.0,580,466,60,122.0,142,1,317,205,59,0,0,399,-1562,-8165,409,-5.59,,,,,,,,,,,,
209943,1564151557361,3,2.47,0.93,0.36,1.38,1.07,0.92,-0.42,0.44,15,1,20,1.02,7858,21,89,44,40,891,410.0,578,466,60,123.0,142,1,317,205,59,0,0,398,-31744,-3414,410,-5.59,44.681168,10.02512,40.48,174.1,0,0.0,-1,0.0,0.0,0,1.26,3.499
209963,1564151557381,1,2.47,0.93,0.36,1.38,1.06,0.92,-0.42,0.46,15,2,20,1.01,7861,21,90,44,40,893,409.0,582,466,60,123.0,148,1,317,205,61,0,0,399,-6524,-21792,409,-5.59,,,,,,,,,,,,
209983,1564151557395,0,2.46,0.93,0.36,1.38,1.06,1.03,-0.42,0.49,15,2,18,1.11,7911,21,90,44,40,896,409.0,590,464,60,123.0,148,1,317,205,61,0,0,396,240,-21792,409,-5.59,,,,,,,,,,,,
210003,1564151557415,1,2.46,0.93,0.36,1.38,1.07,0.96,-0.4,0.48,15,1,19,1.04,7934,21,89,44,41,896,408.0,591,467,60,122.0,148,1,325,207,61,0,0,398,-3866,2524,408,-5.59,,,,,,,,,,,,
210023,1564151557435,3,2.46,0.93,0.36,1.38,1.07,0.83,-0.39,0.45,15,3,20,0.92,7934,21,89,44,40,896,408.0,595,465,60,123.0,148,1,317,205,61,0,0,397,240,-3414,408,-5.59,,,,,,,,,,,,
210043,1564151557455,1,2.47,0.93,0.36,1.37,1.06,0.91,-0.36,0.45,16,3,19,0.98,7985,21,89,44,40,896,407.0,605,466,60,123.0,148,1,317,205,61,0,0,399,240,-26615,407,-5.59,44.68116,10.02512,40.39,174.1,0,0.0,-1,0.0,0.0,0,1.26,3.5007
210063,1564151557475,1,2.47,0.93,0.36,1.38,1.07,0.89,-0.33,0.45,16,3,19,0.95,8002,21,89,44,40,896,407.0,598,465,60,123.0,149,1,317,205,61,0,0,401,-31744,-26615,407,-5.59,,,,,,,,,,,,
210083,1564151557495,2,2.47,0.93,0.36,1.38,1.07,0.78,-0.28,0.41,16,4,20,0.83,7941,21,89,44,40,896,407.0,597,464,60,123.0,149,1,317,205,61,0,0,406,-6524,-8165,407,-5.59,,,,,,,,,,,,
210103,1564151557507,-1,2.47,0.93,0.36,1.38,1.07,0.76,-0.28,0.48,16,6,18,0.81,7858,22,90,44,40,896,408.0,591,464,60,124.0,149,1,317,205,61,0,0,415,-1562,-21944,408,-5.59,,,,,,,,,,,,
210123,1564151557527,0,2.47,0.93,0.36,1.38,1.07,0.82,-0.35,0.63,16,8,18,0.89,7690,22,90,44,41,898,409.0,571,467,60,124.0,149,1,325,207,61,0,0,415,505,-26615,409,-5.59,,,,,,,,,,,,
210143,1564151557547,-1,2.47,0.93,0.36,1.38,1.06,0.94,-0.33,0.69,15,6,19,1.0,7594,22,89,44,41,901,409.0,568,461,60,123.0,149,1,325,207,61,0,0,411,1,-8165,411,-5.59,44.681148,10.02512,39.93,174.2,0,0.0,-1,0.0,0.0,0,1.26,3.5024
210163,1564151557567,-2,2.47,0.93,0.36,1.38,1.06,1.05,-0.36,0.77,14,4,17,1.11,7524,22,89,44,42,904,409.0,561,465,60,122.0,144,1,332,209,59,0,0,407,-6656,-26615,409,-5.59,,,,,,,,,,,,
210183,1564151557605,-1,2.46,0.93,0.35,1.37,1.06,1.15,-0.37,0.79,14,1,17,1.2,7503,22,89,44,42,906,409.0,563,462,60,122.0,144,1,332,209,59,0,0,402,1,2524,409,-5.59,,,,,,,,,,,,
210203,1564151557625,-1,2.46,0.93,0.36,1.38,1.07,1.17,-0.38,0.85,14,2,18,1.23,7503,22,89,44,43,914,410.0,557,467,60,123.0,144,1,340,208,59,0,0,402,1,-8165,410,-5.59,,,,,,,,,,,,
210223,1564151557645,-1,2.45,0.93,0.36,1.38,1.07,1.25,-0.38,0.92,13,-0,18,1.3,7545,22,90,44,43,922,410.0,562,466,60,123.0,144,1,340,209,59,0,0,402,505,-3414,410,-5.59,,,,,,,,,,,,
210243,1564151557665,0,2.46,0.93,0.36,1.37,1.07,1.31,-0.37,0.97,13,-2,16,1.36,7591,22,89,44,43,927,411.0,567,465,60,122.0,144,1,340,211,59,0,0,398,505,-3414,411,-5.59,44.681141,10.025118,39.92,174.2,0,0.0,-1,0.0,0.0,0,1.26,3.504
210263,1564151557685,0,2.47,0.93,0.36,1.38,1.07,1.33,-0.39,0.95,12,-3,16,1.39,7621,22,89,44,43,932,411.0,576,466,60,123.0,146,1,340,211,60,0,0,402,-1562,-3414,409,-5.59,,,,,,,,,,,,
210283,1564151557695,1,2.47,0.93,0.36,1.38,1.07,1.27,-0.36,0.89,13,-3,17,1.32,7668,22,89,44,43,939,407.0,573,462,60,122.0,146,1,340,211,60,0,0,400,-6524,7154,407,-5.59,,,,,,,,,,,,
210303,1564151557715,2,2.46,0.93,0.35,1.38,1.07,1.13,-0.29,0.84,13,-4,17,1.16,7678,22,89,44,43,945,408.0,587,466,60,122.0,146,1,340,211,60,0,0,399,-31744,2524,408,-5.59,,,,,,,,,,,,
210323,1564151557735,1,2.47,0.93,0.35,1.38,1.07,0.95,-0.3,0.76,13,-4,15,1.0,7747,22,89,44,43,949,408.0,586,465,60,122.0,146,1,340,211,60,0,0,397,-31744,7154,408,-5.59,,,,,,,,,,,,
210343,1564151557755,2,2.46,0.94,0.36,1.37,1.07,0.91,-0.34,0.69,13,-2,16,0.97,7754,22,90,44,43,951,408.0,577,464,60,123.0,146,1,340,211,60,0,0,398,-1562,-8165,408,-5.59,44.681129,10.025116,40.2,174.3,0,0.0,-1,0.0,0.0,0,1.27,3.5057
210363,1564151557775,-0,2.46,0.93,0.36,1.38,1.07,0.99,-0.37,0.73,13,-2,18,1.05,7822,22,89,44,43,957,408.0,587,466,60,123.0,151,1,340,211,62,0,0,399,-6524,7154,408,-5.59,,,,,,,,,,,,
210383,1564151557805,-1,2.46,0.93,0.35,1.38,1.07,1.08,-0.32,0.78,13,-3,17,1.13,7815,22,90,44,43,965,407.0,578,465,60,123.0,151,1,340,211,62,0,0,401,-6524,-21944,407,-5.59,,,,,,,,,,,,
210403,1564151557825,1,2.46,0.93,0.35,1.38,1.07,1.07,-0.35,0.76,12,-4,17,1.12,7780,22,89,44,43,972,409.0,590,465,60,122.0,151,1,340,211,62,0,0,405,240,7154,408,-5.59,,,,,,,,,,,,
210423,1564151557845,2,2.46,0.93,0.36,1.37,1.08,0.94,-0.34,0.67,12,-3,18,1.0,7757,22,89,44,43,978,410.0,578,464,60,123.0,151,1,340,211,62,0,0,408,-1562,18584,410,-5.59,,,,,,,,,,,,
210443,1564151557865,2,2.46,0.93,0.36,1.38,1.07,0.81,-0.27,0.61,13,-1,18,0.86,7668,22,89,44,43,983,409.0,581,464,60,124.0,151,1,340,211,62,0,0,409,-1562,-3414,409,-5.59,44.681122,10.025114,40.21,174.3,0,0.0,-1,0.0,0.0,0,1.27,3.5074
210463,1564151557885,4,2.46,0.93,0.36,1.38,1.06,0.74,-0.28,0.57,13,0,16,0.79,7643,22,90,44,43,988,408.0,572,463,60,124.0,149,1,340,211,61,0,0,409,505,-3414,408,-5.59,,,,,,,,,,,,
210483,1564151557905,3,2.46,0.94,0.35,1.38,1.07,0.73,-0.35,0.57,13,2,17,0.81,7606,22,89,44,44,989,410.0,571,466,60,124.0,149,1,347,211,61,0,0,405,1,-21792,410,-5.59,,,,,,,,,,,,
210503,1564151557909,-0,2.45,0.93,0.36,1.38,1.07,0.83,-0.36,0.65,13,2,19,0.91,7665,22,89,44,44,988,409.0,576,463,60,123.0,149,1,347,211,61,0,0,407,-1818,7154,409,-5.59,,,,,,,,,,,,
210523,1564151557929,-0,2.46,0.93,0.36,1.38,1.07,0.95,-0.34,0.75,13,1,17,1.01,7631,22,90,44,44,985,410.0,570,464,60,124.0,149,1,347,211,61,0,0,401,1,-21792,410,-5.59,,,,,,,,,,,,
210543,1564151557949,0,2.46,0.94,0.35,1.39,1.07,1.06,-0.38,0.77,12,-0,16,1.13,7693,22,89,44,44,981,410.0,584,466,60,123.0,149,1,347,212,61,0,0,404,1,-3414,410,-5.59,44.68111,10.02511,39.92,174.3,0,0.0,-1,0.0,0.0,0,1.27,3.509
210563,1564151557969,1,2.46,0.93,0.35,1.38,1.07,1.02,-0.35,0.76,13,-1,17,1.08,7719,22,89,44,44,976,410.0,582,463,60,122.0,148,1,347,212,61,0,0,403,1,-21944,410,-5.59,,,,,,,,,,,,
210583,1564151557996,0,2.46,0.93,0.36,1.38,1.07,0.92,-0.3,0.74,13,-1,18,0.97,7706,22,89,44,44,973,411.0,586,463,60,123.0,148,1,347,212,61,0,0,405,1,-21944,411,-5.59,,,,,,,,,,,,
210603,1564151558016,2,2.45,0.93,0.36,1.38,1.07,0.75,-0.32,0.67,13,-0,15,0.82,7744,23,89,44,44,971,410.0,581,466,60,124.0,148,1,347,212,61,0,0,406,505,-3414,410,-5.59,,,,,,,,,,,,
210623,1564151558036,3,2.45,0.93,0.36,1.37,1.07,0.68,-0.4,0.58,14,1,16,0.79,7735,23,89,44,44,972,409.0,582,465,60,123.0,148,1,347,212,61,0,0,405,1,-21944,409,-5.59,,,,,,,,,,,,
210643,1564151558056,-0,2.45,0.93,0.36,1.37,1.07,0.74,-0.38,0.6,13,2,19,0.84,7780,23,89,44,44,973,409.0,581,465,60,123.0,148,1,347,211,61,0,0,409,-6656,-8165,409,-5.59,44.681103,10.025106,40.36,174.4,0,0.0,-1,0.0,0.0,0,1.27,3.5107
210663,1564151558076,-0,2.45,0.93,0.35,1.38,1.07,0.86,-0.35,0.67,13,1,17,0.93,7735,23,90,44,43,977,410.0,575,466,60,123.0,151,1,340,211,62,0,0,408,-1818,-8165,409,-5.59,,,,,,,,,,,,
210683,1564151558104,0,2.45,0.94,0.36,1.38,1.07,0.95,-0.4,0.68,12,1,16,1.03,7722,23,89,44,44,982,411.0,585,465,60,122.0,151,1,347,212,62,0,0,408,-1818,-8165,411,-5.59,,,,,,,,,,,,
210703,1564151558124,-1,2.44,0.93,0.36,1.38,1.07,0.91,-0.33,0.57,12,1,18,0.97,7716,23,89,44,44,987,410.0,576,468,60,123.0,151,1,347,212,62,0,0,410,-1818,-8165,410,-5.59,,,,,,,,,,,,
210723,1564151558144,2,2.44,0.94,0.36,1.38,1.07,0.83,-0.25,0.53,13,0,18,0.87,7684,23,89,44,43,993,411.0,576,464,60,123.0,151,1,340,212,62,0,0,407,-1818,3826,411,-5.59,,,,,,,,,,,,
210743,1564151558164,1,2.45,0.93,0.35,1.38,1.07,0.71,-0.28,0.52,13,1,15,0.77,7712,23,89,44,44,995,411.0,574,463,60,124.0,151,1,347,212,62,0,0,405,-1818,-3414,411,-5.59,44.681091,10.025103,40.35,174.4,0,0.0,-1,0.0,0.0,0,1.27,3.5124
210763,1564151558184,3,2.45,0.93,0.36,1.38,1.07,0.68,-0.36,0.47,13,2,17,0.77,7693,23,89,44,44,998,412.0,576,467,60,124.0,148,1,347,212,61,0,0,407,-6656,-8165,412,-5.59,,,,,,,,,,,,
210783,1564151558204,-0,2.44,0.93,0.36,1.38,1.07,0.77,-0.38,0.54,13,2,18,0.86,7738,23,89,44,44,1002,411.0,580,462,60,124.0,148,1,347,212,61,0,0,406,-1818,-3856,411,-5.59,,,,,,,,,,,,
210803,1564151558206,-1,2.45,0.93,0.36,1.38,1.07,0.9,-0.36,0.66,12,1,15,0.97,7728,23,89,44,44,1006,411.0,578,464,60,124.0,148,1,347,212,61,0,0,407,17144,-3414,411,-5.59,,,,,,,,,,,,
210823,1564151558226,1,2.44,0.94,0.36,1.38,1.07,0.97,-0.34,0.66,12,-0,15,1.02,7741,23,89,44,44,1008,411.0,591,462,60,122.0,148,1,347,212,61,0,0,409,17144,-3414,411,-5.59,,,,,,,,,,,,
210843,1564151558246,2,2.44,0.93,0.36,1.38,1.07,0.9,-0.31,0.62,12,-0,16,0.95,7776,23,89,44,44,1010,412.0,585,466,60,123.0,148,1,347,212,61,0,0,411,-32702,-8165,412,-5.59,44.681084,10.025098,40.3,174.4,0,0.0,-1,0.0,0.0,0,1.27,3.514
210863,1564151558266,1,2.44,0.93,0.36,1.37,1.08,0.83,-0.29,0.55,12,-0,16,0.88,7770,23,90,44,44,1011,411.0,581,464,60,124.0,150,1,347,212,62,0,0,409,17144,7154,411,-5.59,,,,,,,,,,,,
210883,1564151558299,2,2.44,0.93,0.36,1.38,1.07,0.79,-0.27,0.55,12,0,14,0.84,7815,23,89,44,44,1013,410.0,581,465,60,124.0,150,1,347,212,62,0,0,409,-32702,-8165,411,-5.59,,,,,,,,,,,,
210903,1564151558319,1,2.44,0.93,0.36,1.38,1.08,0.84,-0.33,0.64,12,3,15,0.9,7747,23,89,44,44,1013,412.0,576,466,60,123.0,150,1,347,212,62,0,0,409,17144,-8165,411,-5.59,,,,,,,,,,,,
210923,1564151558339,-0,2.44,0.93,0.36,1.38,1.08,0.88,-0.32,0.66,12,2,16,0.94,7793,23,89,44,44,1012,412.0,581,467,60,124.0,150,1,347,212,62,0,0,411,-3968,13552,412,-5.59,,,,,,,,,,,,
210943,1564151558359,-0,2.44,0.93,0.35,1.38,1.08,0.89,-0.28,0.66,12,1,14,0.93,7780,23,89,44,44,1010,413.0,578,465,60,123.0,150,1,347,212,62,0,0,416,6384,-8165,413,-5.59,44.681072,10.025093,40.5,174.4,0,0.0,-1,0.0,0.0,0,1.27,3.5157
210963,1564151558379,1,2.44,0.94,0.36,1.39,1.07,0.79,-0.24,0.51,12,1,15,0.82,7754,23,89,44,44,1008,412.0,578,466,60,124.0,150,1,347,212,62,0,0,410,6384,-21792,412,-5.59,,,,,,,,,,,,
210983,1564151558399,3,2.44,0.93,0.35,1.39,1.07,0.76,-0.25,0.52,12,1,16,0.8,7786,23,90,44,44,1006,411.0,577,465,60,124.0,150,1,347,212,62,0,0,408,-32702,-21792,411,-5.59,,,,,,,,,,,,
211003,1564151558402,-0,2.43,0.93,0.36,1.38,1.07,0.81,-0.25,0.56,12,1,15,0.85,7780,23,90,44,44,1005,412.0,577,463,60,124.0,150,1,347,212,62,0,0,412,-32702,-8165,414,-5.59,,,,,,,,,,,,
211023,1564151558422,-0,2.44,0.93,0.36,1.39,1.07,0.9,-0.25,0.59,12,2,14,0.93,7796,23,89,44,44,1003,412.0,580,466,60,123.0,150,1,347,212,62,0,0,413,6384,7154,412,-5.59,,,,,,,,,,,,
211043,1564151558442,1,2.44,0.93,0.36,1.38,1.08,0.88,-0.23,0.57,12,2,15,0.91,7789,23,89,44,44,1000,414.0,591,465,60,123.0,150,1,347,212,62,0,0,410,6384,-4082,414,-5.59,44.681065,10.025087,40.56,174.4,0,0.0,-1,0.0,0.0,0,1.27,3.5174
211063,1564151558462,2,2.44,0.93,0.36,1.38,1.07,0.79,-0.19,0.55,12,2,15,0.82,7786,23,89,44,44,1000,414.0,591,463,60,123.0,149,1,347,212,62,0,0,412,-3968,-3414,414,-5.59,,,,,,,,,,,,
211083,1564151558492,2,2.45,0.93,0.36,1.38,1.07,0.71,-0.19,0.53,12,2,14,0.74,7819,23,89,44,44,999,413.0,581,465,60,124.0,149,1,347,212,62,0,0,414,28696,-4082,413,-5.59,,,,,,,,,,,,
211103,1564151558512,-0,2.44,0.93,0.36,1.38,1.08,0.75,-0.26,0.55,12,3,14,0.79,7815,23,90,44,44,1000,414.0,583,466,60,124.0,149,1,347,212,62,0,0,410,28696,-3414,414,-5.59,,,,,,,,,,,,
211123,1564151558532,0,2.43,0.93,0.36,1.38,1.07,0.82,-0.25,0.61,12,2,15,0.86,7835,23,89,44,44,1002,413.0,597,467,60,123.0,149,1,347,212,62,0,0,411,6512,-3856,413,-5.59,,,,,,,,,,,,
211143,1564151558552,0,2.44,0.93,0.36,1.38,1.08,0.78,-0.26,0.6,12,-0,14,0.82,7858,23,89,44,44,1003,414.0,589,467,60,123.0,149,1,347,212,62,0,0,416,28696,-4082,414,-5.59,44.681053,10.025081,40.68,174.4,0,0.0,-1,0.0,0.0,0,1.27,3.5191
211163,1564151558572,1,2.44,0.93,0.36,1.38,1.07,0.72,-0.22,0.52,12,-0,14,0.75,7802,23,90,44,44,1005,414.0,590,461,60,122.0,151,1,347,212,63,0,0,414,6512,3826,414,-5.59,,,,,,,,,,,,
211183,1564151558600,4,2.44,0.94,0.36,1.37,1.07,0.76,-0.24,0.55,12,2,15,0.79,7838,23,89,44,44,1006,415.0,576,464,60,124.0,151,1,347,139,63,0,0,414,11545,3826,415,-5.59,,,,,,,,,,,,
211203,1564151558620,-0,2.44,0.92,0.36,1.38,1.07,0.85,-0.25,0.61,11,2,14,0.88,7812,24,89,44,44,1008,416.0,580,465,60,123.0,151,1,347,212,63,0,0,413,6384,-3856,416,-5.59,,,,,,,,,,,,
211223,1564151558640,-0,2.44,0.93,0.36,1.39,1.07,0.9,-0.28,0.61,11,0,14,0.94,7851,24,90,44,44,1008,415.0,582,466,60,123.0,151,1,347,212,63,0,0,412,6512,-4082,415,-5.59,,,,,,,,,,,,
211243,1564151558660,1,2.44,0.93,0.36,1.38,1.06,0.84,-0.21,0.53,11,0,16,0.87,7855,24,89,44,44,1008,415.0,583,464,60,123.0,151,1,347,212,63,0,0,412,6512,3826,415,-5.59,44.681046,10.025075,40.7,174.5,0,0.0,-1,0.0,0.0,0,1.28,3.5207
211263,1564151558680,3,2.43,0.94,0.36,1.38,1.07,0.82,-0.2,0.51,11,0,15,0.85,7832,24,89,44,44,1007,414.0,582,463,60,124.0,151,1,347,212,63,0,0,411,6512,-21792,414,-5.59,,,,,,,,,,,,
211283,1564151558700,0,2.44,0.93,0.36,1.39,1.07,0.84,-0.19,0.56,11,0,13,0.86,7874,24,90,44,44,1006,415.0,585,465,60,124.0,151,1,347,212,63,0,0,417,28696,31796,415,-5.59,,,,,,,,,,,,
211303,1564151558706,-1,2.44,0.93,0.36,1.39,1.07,0.85,-0.23,0.64,12,1,14,0.88,7864,24,89,44,44,1005,415.0,587,468,60,123.0,151,1,347,212,63,0,0,416,11545,-4082,417,-5.59,,,,,,,,,,,,
211323,1564151558726,1,2.44,0.94,0.36,1.38,1.07,0.8,-0.2,0.62,12,0,16,0.82,7835,32,89,44,45,1004,417.0,593,463,60,123.0,151,1,355,213,63,0,0,414,10541,3635,416,-5.59,,,,,,,,,,,,
211343,1564151558746,1,2.44,0.93,0.36,1.38,1.08,0.7,-0.22,0.61,12,-0,14,0.74,7881,39,90,44,48,1000,417.0,590,463,60,124.0,151,1,372,223,63,0,0,415,6512,3635,417,-5.59,44.681034,10.025067,40.8,174.5,0,0.0,-1,0.0,0.0,0,1.28,3.5224
211363,1564151558766,-0,2.44,0.93,0.36,1.39,1.07,0.71,-0.33,0.63,12,-0,13,0.78,7841,44,90,44,53,994,415.0,593,463,60,123.0,170,1,387,251,71,0,0,416,11545,3826,415,-5.59,,,,,,,,,,,,
211383,1564151558796,1,2.44,0.93,0.36,1.39,1.07,0.77,-0.35,0.64,11,-1,15,0.85,7864,49,89,44,59,989,418.0,596,468,60,123.0,170,1,430,279,71,0,0,417,10541,31796,418,-5.59,,,,,,,,,,,,
211403,1564151558816,1,2.45,0.93,0.36,1.38,1.08,0.78,-0.34,0.64,11,-3,14,0.85,7835,54,89,44,63,985,418.0,590,466,60,123.0,170,1,444,310,71,0,0,415,-8151,-3314,419,-5.59,,,,,,,,,,,,
211423,1564151558836,3,2.43,0.93,0.36,1.39,1.07,0.76,-0.31,0.56,11,-3,14,0.82,7786,56,89,44,66,984,419.0,589,461,60,122.0,170,1,439,331,71,0,0,418,-8151,13552,416,-5.59,,,,,,,,,,,,
211443,1564151558856,-1,2.45,0.93,0.36,1.38,1.07,0.84,-0.34,0.58,11,-3,15,0.9,7805,57,90,44,70,988,416.0,581,465,60,124.0,170,1,435,304,71,0,0,414,10541,3826,416,-5.59,44.681023,10.02506,41.14,174.5,0,0.0,-1,0.0,0.0,0,1.28,3.524
211463,1564151558876,-1,2.44,0.92,0.36,1.38,1.07,0.93,-0.32,0.63,11,-2,15,0.98,7776,57,90,44,71,993,418.0,573,467,60,124.0,262,1,433,378,110,0,0,414,-8151,-4082,418,-5.59,,,,,,,,,,,,
211483,1564151558908,1,2.44,0.93,0.36,1.38,1.07,1.02,-0.31,0.62,11,-3,14,1.07,7783,58,89,44,73,1001,418.0,582,465,60,124.0,262,1,430,388,110,0,0,412,11545,13180,418,-5.59,,,,,,,,,,,,
211503,1564151558928,2,2.44,0.93,0.36,1.38,1.07,0.97,-0.26,0.58,11,-2,15,1.01,7874,58,89,44,74,1033,419.0,575,466,60,123.0,262,1,433,400,110,0,0,412,6512,31796,417,-5.59,,,,,,,,,,,,
211523,1564151558948,2,2.42,0.93,0.36,1.38,1.07,0.9,-0.26,0.57,12,-1,16,0.93,8050,58,90,44,74,1099,416.0,583,464,60,123.0,262,1,440,413,110,0,0,415,6512,-4082,416,-5.59,,,,,,,,,,,,
211543,1564151558968,2,2.45,0.94,0.36,1.39,1.07,0.91,-0.26,0.63,12,-2,14,0.95,8267,58,90,44,73,1163,417.0,606,467,60,122.0,262,1,436,407,110,0,0,416,11545,1779,417,-5.59,44.681019,10.025053,41.16,174.5,0,0.0,-1,0.0,0.0,0,1.28,3.5257
211563,1564151558988,0,2.45,0.93,0.36,1.38,1.07,0.8,-0.32,0.64,12,-0,15,0.86,8453,58,90,44,70,1219,418.0,610,465,60,124.0,303,1,433,393,127,0,0,426,-8151,-3322,418,-5.59,,,,,,,,,,,,
211583,1564151559008,2,2.45,0.93,0.36,1.38,1.07,0.8,-0.32,0.7,12,-1,15,0.86,8442,58,90,44,70,1281,421.0,619,467,60,122.0,303,1,434,384,127,0,0,440,2524,-28332,422,-5.59,,,,,,,,,,,,
211603,1564151559009,1,2.45,0.94,0.35,1.39,1.07,0.8,-0.37,0.78,12,1,14,0.88,8322,58,89,44,68,1357,424.0,606,466,60,123.0,303,1,439,371,127,0,0,452,10392,21432,424,-5.59,,,,,,,,,,,,
211623,1564151559029,3,2.44,0.93,0.36,1.39,1.07,0.7,-0.39,0.71,11,-1,16,0.8,8205,59,90,44,68,1422,428.0,623,465,60,122.0,303,1,443,368,127,0,0,450,13040,2524,428,-5.59,,,,,,,,,,,,
211643,1564151559049,1,2.45,0.93,0.36,1.38,1.08,0.69,-0.4,0.77,11,1,15,0.8,8223,58,89,44,69,1441,431.0,610,468,60,124.0,303,1,441,368,127,0,0,440,-9166,16648,431,-5.59,44.681007,10.025044,41.01,174.5,0,0.0,-1,0.0,0.0,0,1.28,3.5274
211663,1564151559069,2,2.46,0.94,0.36,1.38,1.08,0.64,-0.37,0.79,11,0,14,0.74,8145,54,89,44,70,1455,431.0,603,464,60,123.0,269,1,443,376,116,0,0,442,-26615,21432,431,-5.59,,,,,,,,,,,,
211683,1564151559102,-0,2.45,0.94,0.36,1.38,1.07,0.65,-0.38,0.79,12,2,14,0.75,8177,51,90,44,69,1448,433.0,586,465,60,124.0,269,1,443,367,116,0,0,438,-21944,10305,433,-5.59,,,,,,,,,,,,
211703,1564151559122,2,2.45,0.93,0.36,1.37,1.07,0.69,-0.37,0.81,12,1,13,0.79,8245,50,89,44,69,1442,434.0,598,461,60,122.0,269,1,441,361,116,0,0,444,-21792,16648,435,-5.59,,,,,,,,,,,,
211723,1564151559142,-1,2.45,0.93,0.36,1.38,1.08,0.71,-0.44,0.84,12,3,12,0.84,8396,50,90,44,66,1417,436.0,607,466,60,123.0,269,1,440,358,116,0,0,453,-8165,8488,435,-5.59,,,,,,,,,,,,
211743,1564151559162,3,2.45,0.93,0.35,1.38,1.07,0.64,-0.42,0.77,12,1,13,0.76,8518,49,90,44,65,1392,438.0,618,463,60,122.0,269,1,438,349,116,0,0,452,-3414,-3267,438,-5.59,44.681,10.025036,41.3,174.6,0,0.0,-1,0.0,0.0,0,1.28,3.529
211763,1564151559182,2,2.46,0.93,0.36,1.38,1.08,0.72,-0.42,0.86,12,-0,13,0.83,8514,48,90,44,63,1366,441.0,610,468,60,123.0,252,1,442,338,111,0,0,458,13552,-6387,441,-5.59,,,,,,,,,,,,
211783,1564151559202,0,2.45,0.93,0.36,1.38,1.08,0.75,-0.4,0.92,11,2,12,0.86,8632,48,90,44,62,1339,442.0,614,463,60,123.0,252,1,433,333,111,0,0,460,13552,-9160,442,-5.59,,,,,,,,,,,,
211803,1564151559205,0,2.46,0.93,0.36,1.38,1.08,0.72,-0.36,0.75,12,3,13,0.8,8624,45,89,44,60,1338,445.0,618,469,60,123.0,252,1,428,328,111,0,0,458,13180,16408,445,-5.59,,,,,,,,,,,,
211823,1564151559225,2,2.46,0.93,0.36,1.38,1.07,0.63,-0.37,0.72,11,1,14,0.73,8648,40,90,44,59,1336,447.0,630,462,60,123.0,252,1,420,313,111,0,0,456,-3322,-23623,447,-5.59,,,,,,,,,,,,
211843,1564151559245,2,2.46,0.93,0.36,1.38,1.07,0.61,-0.29,0.8,12,2,13,0.68,8640,35,90,44,56,1333,449.0,635,462,60,122.0,252,1,403,291,111,0,0,465,-7939,6193,449,-5.59,44.680992,10.025027,42.96,174.6,0,0.0,-1,0.0,0.0,0,1.28,3.5307
211863,1564151559265,1,2.46,0.93,0.36,1.38,1.07,0.74,-0.35,0.91,12,2,12,0.82,8688,31,90,44,53,1329,452.0,628,465,60,123.0,199,1,389,269,90,0,0,465,5600,16408,452,-5.59,,,,,,,,,,,,
211883,1564151559299,-1,2.46,0.93,0.36,1.38,1.07,0.73,-0.36,0.87,12,2,12,0.82,8708,27,90,44,50,1325,454.0,625,466,60,123.0,199,1,380,247,90,0,0,469,21580,32033,454,-5.59,,,,,,,,,,,,
211903,1564151559319,3,2.46,0.93,0.36,1.39,1.07,0.59,-0.33,0.7,12,2,13,0.67,8704,25,90,44,47,1322,456.0,625,467,60,123.0,199,1,370,224,90,0,0,468,20625,-9203,456,-5.59,,,,,,,,,,,,
211923,1564151559339,1,2.46,0.93,0.36,1.38,1.07,0.57,-0.26,0.71,12,1,13,0.63,8692,25,90,44,45,1305,457.0,625,463,60,123.0,199,1,357,219,90,0,0,470,26704,-1923,457,-5.59,,,,,,,,,,,,
211943,1564151559359,1,2.46,0.93,0.36,1.38,1.07,0.68,-0.27,0.75,12,-1,12,0.73,8664,24,90,44,43,1288,458.0,627,465,60,122.0,199,1,345,215,90,0,0,465,-18341,243,458,-5.59,44.680984,10.025018,43.77,174.6,0,0.0,-1,0.0,0.0,0,1.28,3.5324
211963,1564151559379,1,2.46,0.93,0.36,1.37,1.07,0.75,-0.3,0.78,12,-0,13,0.81,8644,24,90,44,42,1273,459.0,627,461,60,123.0,151,1,338,215,70,0,0,467,-18341,3576,459,-5.59,,,,,,,,,,,,
211983,1564151559399,0,2.46,0.93,0.36,1.38,1.08,0.69,-0.37,0.7,12,0,13,0.79,8672,24,90,44,41,1259,462.0,626,465,60,124.0,151,1,332,212,70,0,0,465,16648,32033,462,-5.59,,,,,,,,,,,,
212003,1564151559419,3,2.46,0.92,0.36,1.38,1.07,0.55,-0.36,0.6,13,1,14,0.66,8712,22,90,44,41,1226,461.0,633,463,60,123.0,151,1,332,212,70,0,0,464,2131,32033,461,-5.59,,,,,,,,,,,,
212023,1564151559439,1,2.45,0.93,0.36,1.38,1.07,0.54,-0.26,0.63,13,0,14,0.6,8716,19,90,44,39,1187,462.0,632,466,60,123.0,151,1,320,208,70,0,0,468,10305,-9203,462,-5.59,,,,,,,,,,,,
212043,1564151559459,0,2.47,0.93,0.36,1.38,1.07,0.69,-0.22,0.72,13,-2,14,0.73,8696,16,90,44,37,1158,464.0,635,468,60,123.0,151,1,314,200,70,0,0,462,10305,3576,464,-5.59,44.680973,10.025007,44.8,174.6,0,0.0,-1,0.0,0.0,0,1.29,3.534
212063,1564151559479,1,2.46,0.93,0.36,1.38,1.07,0.77,-0.31,0.75,14,-2,14,0.83,8688,15,90,44,35,1134,464.0,634,467,60,123.0,138,1,308,194,64,0,0,459,21432,16648,464,-5.59,,,,,,,,,,,,
212083,1564151559499,0,2.46,0.93,0.36,1.38,1.07,0.68,-0.4,0.66,14,-1,14,0.79,8652,14,90,44,33,1101,464.0,630,463,60,123.0,138,1,302,191,64,0,0,461,2131,-16384,464,-5.59,,,,,,,,,,,,
212103,1564151559519,2,2.47,0.93,0.36,1.38,1.07,0.68,-0.36,0.53,14,-2,15,0.77,8593,14,90,44,32,1067,463.0,632,466,60,122.0,138,1,300,184,64,0,0,458,2131,-23367,463,-5.59,,,,,,,,,,,,
212123,1564151559539,1,2.46,0.94,0.36,1.37,1.07,0.76,-0.39,0.63,14,-3,15,0.86,8491,14,90,44,32,1045,464.0,630,463,60,123.0,138,1,299,182,64,0,0,456,2131,-23367,464,-5.59,,,,,,,,,,,,
212143,1564151559559,-0,2.46,0.93,0.36,1.38,1.06,0.68,-0.4,0.57,15,0,15,0.79,8359,13,90,44,31,1036,464.0,623,466,60,124.0,138,1,293,177,64,0,0,454,2131,-17956,463,-5.59,44.680965,10.024996,45.63,174.6,0,0.0,-1,0.0,0.0,0,1.29,3.5357
212163,1564151559579,2,2.46,0.94,0.36,1.39,1.08,0.77,-0.4,0.58,15,-1,15,0.87,8209,13,90,44,31,1006,463.0,619,465,60,123.0,118,1,290,172,55,0,0,455,23400,8488,463,-5.59,,,,,,,,,,,,
212183,1564151559599,3,2.48,0.93,0.36,1.38,1.08,0.73,-0.4,0.55,15,-0,16,0.83,8109,13,90,44,30,964,461.0,609,466,60,122.0,118,1,285,166,55,0,0,452,26704,-1923,462,-5.59,,,,,,,,,,,,
212203,1564151559619,-1,2.47,0.93,0.36,1.39,1.07,0.86,-0.43,0.54,15,-0,16,0.96,7961,13,90,44,31,927,461.0,599,463,60,122.0,118,1,287,162,55,0,0,450,20625,-16384,461,-5.59,,,,,,,,,,,,
212223,1564151559639,2,2.47,0.94,0.36,1.39,1.08,0.86,-0.43,0.58,15,-2,16,0.96,7868,13,90,44,31,894,460.0,599,466,60,123.0,118,1,286,163,55,0,0,451,20625,-3210,462,-5.59,,,,,,,,,,,,
212243,1564151559659,2,2.47,0.94,0.36,1.38,1.07,0.82,-0.51,0.53,15,-1,16,0.96,7835,13,90,44,31,863,461.0,584,466,60,123.0,118,1,286,163,55,0,0,445,21580,12552,461,-5.59,44.680958,10.024985,45.73,174.6,0,0.0,-1,0.0,0.0,0,1.29,3.5374
212263,1564151559679,3,2.47,0.94,0.36,1.38,1.07,0.79,-0.55,0.48,15,0,17,0.96,7858,13,90,44,31,833,457.0,591,464,60,124.0,104,1,286,163,48,0,0,432,5600,-8985,457,-5.59,,,,,,,,,,,,
212283,1564151559699,0,2.48,0.94,0.36,1.39,1.08,0.91,-0.6,0.52,16,0,16,1.09,8019,13,90,44,31,817,453.0,601,466,60,124.0,104,1,287,163,48,0,0,422,243,-6387,453,-5.59,,,,,,,,,,,,
212303,1564151559719,2,2.47,0.92,0.36,1.38,1.07,0.94,-0.65,0.46,15,-1,16,1.14,8138,13,90,44,31,820,452.0,607,465,60,123.0,104,1,288,169,48,0,0,427,-3314,8488,452,-5.59,,,,,,,,,,,,
212323,1564151559739,-2,2.48,0.93,0.36,1.39,1.08,0.96,-0.68,0.5,15,-1,17,1.18,8209,13,90,44,31,824,448.0,618,465,60,123.0,104,1,290,171,48,0,0,424,-3856,16648,448,-5.59,,,,,,,,,,,,
212343,1564151559759,2,2.47,0.93,0.36,1.38,1.07,0.93,-0.68,0.46,15,-0,17,1.15,8278,13,90,44,30,827,445.0,620,465,60,123.0,104,1,287,174,48,0,0,426,-3856,23400,445,-5.59,44.68095,10.024973,45.64,174.6,0,0.0,-1,0.0,0.0,0,1.29,3.5391
212363,1564151559779,-1,2.48,0.93,0.36,1.38,1.07,0.98,-0.63,0.55,15,0,17,1.16,8348,13,90,44,30,830,443.0,625,466,60,122.0,126,1,288,176,56,0,0,429,-3414,16648,443,-5.59,,,,,,,,,,,,
212383,1564151559799,1,2.48,0.93,0.36,1.38,1.07,0.91,-0.62,0.44,15,-1,18,1.1,8296,13,90,44,29,830,443.0,625,465,60,123.0,126,1,284,174,56,0,0,432,-3414,15649,443,-5.59,,,,,,,,,,,,
212403,1564151559819,-1,2.48,0.93,0.36,1.38,1.08,0.96,-0.59,0.49,15,-1,19,1.13,8209,13,90,44,29,830,442.0,613,465,60,123.0,126,1,283,170,56,0,0,428,-21792,-6387,442,-5.59,,,,,,,,,,,,
212423,1564151559839,2,2.47,0.94,0.36,1.38,1.07,0.9,-0.54,0.42,16,-1,19,1.05,8130,13,90,44,29,830,442.0,621,466,60,123.0,126,1,282,166,56,0,0,423,-3414,-26615,442,-5.59,,,,,,,,,,,,
212443,1564151559859,-1,2.47,0.93,0.36,1.39,1.07,0.9,-0.5,0.48,16,0,18,1.03,8116,13,90,44,29,831,439.0,607,464,60,123.0,126,1,282,165,56,0,0,427,-21944,10305,439,-5.59,44.680943,10.024961,44.43,174.6,0,0.0,-1,0.0,0.0,0,1.29,3.5407
212463,1564151559879,1,2.47,0.93,0.36,1.38,1.07,0.91,-0.45,0.44,17,-0,18,1.01,8061,12,90,44,30,831,437.0,601,465,60,122.0,111,1,285,163,49,0,0,422,-26615,26704,437,-5.59,,,,,,,,,,,,
212483,1564151559900,3,2.47,0.94,0.36,1.38,1.08,0.87,-0.45,0.38,17,1,19,0.98,7975,12,90,43,29,830,436.0,596,464,60,124.0,111,1,281,161,49,0,0,418,2524,19477,435,-5.59,,,,,,,,,,,,
212503,1564151559920,-2,2.47,0.93,0.36,1.38,1.07,0.92,-0.4,0.48,16,1,18,1.0,7975,12,90,44,30,828,434.0,602,466,60,124.0,111,1,284,162,49,0,0,419,13040,21432,434,-5.59,,,,,,,,,,,,
212523,1564151559940,1,2.46,0.93,0.36,1.38,1.07,0.96,-0.43,0.53,16,1,17,1.05,7968,12,90,44,30,827,432.0,599,466,60,124.0,111,1,284,162,49,0,0,415,13040,5600,432,-5.59,,,,,,,,,,,,
212543,1564151559960,1,2.46,0.94,0.36,1.37,1.07,0.89,-0.49,0.51,16,1,18,1.01,7911,12,90,43,30,825,431.0,603,466,60,124.0,111,1,284,163,49,0,0,414,-4059,19477,429,-5.59,44.680935,10.024949,43.36,174.6,0,0.0,-1,0.0,0.0,0,1.29,3.5424
212563,1564151559980,2,2.47,0.94,0.36,1.38,1.07,0.84,-0.49,0.57,17,3,17,0.97,7968,12,90,43,30,823,429.0,597,466,60,124.0,111,1,284,163,48,0,0,411,11560,5600,429,-5.59,,,,,,,,,,,,
212583,1564151559992,1,2.46,0.94,0.36,1.38,1.08,0.92,-0.47,0.58,16,1,17,1.03,7928,12,90,44,30,827,428.0,600,466,60,123.0,111,1,284,162,48,0,0,416,10392,243,428,-5.59,,,,,,,,,,,,
212603,1564151560012,1,2.46,0.92,0.36,1.38,1.07,0.88,-0.45,0.53,16,0,18,0.99,7894,12,90,43,30,830,425.0,608,465,60,124.0,111,1,283,163,48,0,0,416,2524,31796,425,-5.59,,,,,,,,,,,,
212623,1564151560032,2,2.46,0.93,0.36,1.38,1.07,0.79,-0.46,0.51,16,1,18,0.92,7898,12,90,43,30,835,424.0,597,465,60,124.0,111,1,283,163,48,0,0,407,-8151,13180,422,-5.59,,,,,,,,,,,,
212643,1564151560052,-1,2.46,0.93,0.36,1.39,1.07,0.82,-0.49,0.51,16,2,17,0.96,7845,12,90,43,30,840,421.0,593,464,60,124.0,111,1,283,164,48,0,0,409,10541,-3322,421,-5.59,44.680931,10.024937,42.68,174.6,0,0.0,-1,0.0,0.0,0,1.29,3.544
212663,1564151560072,-0,2.44,0.93,0.36,1.37,1.07,0.9,-0.46,0.49,16,-0,18,1.01,7815,12,90,44,30,844,421.0,588,462,60,124.0,113,1,283,162,48,0,0,412,-8151,13552,421,-5.59,,,,,,,,,,,,
212683,1564151560100,-1,2.45,0.93,0.36,1.37,1.08,0.92,-0.4,0.5,15,-2,18,1.0,7770,12,90,44,31,849,420.0,583,466,60,122.0,113,1,286,163,48,0,0,410,10541,13552,420,-5.59,,,,,,,,,,,,
212703,1564151560120,1,2.43,0.92,0.36,1.38,1.07,0.89,-0.37,0.47,15,-2,17,0.96,7731,12,90,43,31,848,419.0,582,463,60,123.0,113,1,286,164,48,0,0,408,11545,-3856,417,-5.59,,,,,,,,,,,,
212723,1564151560140,1,2.44,0.93,0.36,1.38,1.07,0.81,-0.39,0.4,15,-1,18,0.9,7735,12,90,43,31,847,416.0,580,463,60,125.0,113,1,286,164,48,0,0,409,6384,-3414,416,-5.59,,,,,,,,,,,,
212743,1564151560160,3,2.44,0.93,0.36,1.38,1.07,0.77,-0.32,0.32,15,-0,17,0.83,7678,12,90,43,31,845,414.0,584,464,60,124.0,113,1,286,164,48,0,0,410,6384,18584,414,-5.59,44.680923,10.024924,41.77,174.6,0,0.0,-1,0.0,0.0,0,1.29,3.5457
212763,1564151560180,3,2.43,0.93,0.36,1.39,1.07,0.79,-0.35,0.36,15,1,15,0.87,7700,12,90,44,31,844,411.0,582,464,60,124.0,116,1,286,163,48,0,0,403,-32702,-9166,411,-5.59,,,,,,,,,,,,
212783,1564151560200,-1,2.43,0.93,0.36,1.38,1.07,0.86,-0.4,0.4,14,1,16,0.95,7649,12,90,44,32,843,409.0,579,465,60,124.0,116,1,290,165,48,0,0,403,-1818,7154,409,-5.59,,,,,,,,,,,,
212803,1564151560220,-1,2.43,0.93,0.36,1.38,1.08,0.94,-0.4,0.43,13,0,17,1.02,7665,12,90,44,32,843,408.0,580,465,60,124.0,116,1,290,165,48,0,0,401,-32702,2524,410,-5.59,,,,,,,,,,,,
212823,1564151560240,-1,2.42,0.93,0.36,1.38,1.08,1.02,-0.37,0.49,12,-1,16,1.09,7681,12,90,44,32,843,407.0,579,467,60,123.0,116,1,290,165,48,0,0,399,17144,2524,406,-5.59,,,,,,,,,,,,
212843,1564151560260,1,2.41,0.93,0.36,1.38,1.07,1.08,-0.35,0.51,11,-2,15,1.14,7594,12,90,44,32,844,406.0,588,465,60,122.0,116,1,290,165,48,0,0,398,-1818,9517,406,-5.59,44.68092,10.024912,40.94,174.5,0,0.0,-1,0.0,0.0,0,1.3,3.5474
212863,1564151560280,1,2.41,0.92,0.36,1.38,1.07,1.04,-0.3,0.49,11,-2,16,1.08,7631,12,90,44,32,844,405.0,580,466,60,122.0,115,1,290,165,47,0,0,401,-1818,-26615,405,-5.59,,,,,,,,,,,,
212883,1564151560300,1,2.4,0.93,0.36,1.38,1.06,0.96,-0.25,0.48,12,-2,15,1.0,7542,12,90,44,32,846,404.0,576,463,60,123.0,115,1,290,165,47,0,0,401,-1818,-4059,404,-5.59,,,,,,,,,,,,
212903,1564151560320,0,2.4,0.93,0.36,1.38,1.07,0.89,-0.26,0.42,11,-3,13,0.93,7581,12,90,44,32,848,403.0,571,465,60,123.0,115,1,290,165,47,0,0,401,1,-4059,403,-5.59,,,,,,,,,,,,
212923,1564151560340,1,2.39,0.93,0.36,1.38,1.07,0.8,-0.19,0.31,11,-3,14,0.82,7524,12,90,44,32,850,403.0,568,463,60,123.0,115,1,290,170,47,0,0,399,-1562,10541,403,-5.59,,,,,,,,,,,,
212943,1564151560360,2,2.38,0.93,0.36,1.38,1.06,0.73,-0.17,0.3,11,-3,14,0.75,7548,12,90,44,33,853,401.0,567,467,60,122.0,115,1,292,170,47,0,0,400,-1562,9517,401,-5.59,44.680916,10.024899,40.7,174.5,0,0.0,-1,0.0,0.0,0,1.3,3.549
212963,1564151560380,2,2.37,0.93,0.36,1.37,1.07,0.61,-0.1,0.23,11,-2,13,0.62,7497,12,90,44,32,854,399.0,563,463,60,124.0,120,1,290,170,48,0,0,396,-6524,1504,399,-5.59,,,,,,,,,,,,
212983,1564151560400,2,2.36,0.93,0.36,1.38,1.07,0.52,-0.14,0.18,11,-1,10,0.54,7512,12,90,44,33,854,399.0,565,466,60,124.0,120,1,292,170,48,0,0,395,-6524,-9211,397,-5.59,,,,,,,,,,,,
213003,1564151560420,1,2.36,0.93,0.36,1.38,1.07,0.42,-0.11,0.09,10,0,12,0.43,7464,12,90,44,33,854,397.0,561,463,60,124.0,120,1,292,170,48,0,0,396,-31744,-9211,397,-5.59,,,,,,,,,,,,
213023,1564151560440,1,2.36,0.93,0.36,1.38,1.07,0.33,-0.08,0.03,10,2,11,0.34,7470,12,90,44,33,852,393.0,564,466,60,123.0,120,1,292,170,48,0,0,398,-6524,6512,395,-5.59,,,,,,,,,,,,
213043,1564151560460,1,2.36,0.93,0.36,1.38,1.07,0.29,-0.03,0.05,10,1,10,0.29,7437,12,90,44,33,850,394.0,568,463,60,123.0,120,1,292,175,48,0,0,398,-31744,10541,393,-5.59,44.680908,10.024887,39.84,174.5,0,0.0,-1,0.0,0.0,0,1.3,3.5507
213063,1564151560480,1,2.35,0.93,0.36,1.38,1.06,0.19,-0.01,-0.05,10,1,9,0.19,7446,12,90,44,33,850,393.0,561,464,60,123.0,122,1,292,170,48,0,0,397,240,-32702,392,-5.59,,,,,,,,,,,,
213083,1564151560500,-0,2.35,0.93,0.36,1.37,1.07,0.2,0.02,-0.03,9,1,8,0.2,7399,12,90,44,34,850,391.0,567,463,60,123.0,122,1,295,170,48,0,0,397,-19019,28696,391,-5.59,,,,,,,,,,,,
213103,1564151560520,1,2.34,0.93,0.36,1.37,1.07,0.21,0.12,-0.01,8,1,9,0.24,7396,12,90,44,34,853,392.0,566,465,60,124.0,122,1,295,175,48,0,0,394,240,-32702,392,-5.59,,,,,,,,,,,,
213123,1564151560540,-0,2.34,0.93,0.36,1.38,1.07,0.26,0.09,0.09,8,-2,7,0.27,7355,12,90,44,34,856,389.0,574,467,60,122.0,122,1,295,175,48,0,0,392,-3866,10541,389,-5.59,,,,,,,,,,,,
213143,1564151560560,-1,2.34,0.92,0.36,1.38,1.07,0.43,0.04,0.2,6,-4,6,0.44,7332,12,90,44,34,862,389.0,557,464,60,124.0,122,1,295,170,48,0,0,392,-6475,-32702,388,-5.59,44.680904,10.024875,39.46,174.5,0,0.0,-1,0.0,0.0,0,1.3,3.5524
213163,1564151560580,-1,2.34,0.92,0.36,1.37,1.07,0.59,0.03,0.32,5,-5,7,0.59,7361,11,90,44,34,870,389.0,575,465,60,123.0,123,1,295,175,48,0,0,394,-19019,-32702,386,-5.59,,,,,,,,,,,,
213183,1564151560600,3,2.33,0.93,0.36,1.37,1.07,0.71,-0.05,0.47,5,-4,7,0.71,7327,11,90,44,34,877,386.0,553,465,60,125.0,123,1,295,175,48,0,0,392,-19126,-6656,387,-5.59,,,,,,,,,,,,
213203,1564151560620,3,2.33,0.93,0.36,1.38,1.06,0.83,-0.08,0.53,4,-4,6,0.83,7321,11,90,44,34,881,386.0,558,465,60,124.0,123,1,295,175,48,0,0,391,19125,1,386,-5.59,,,,,,,,,,,,
213223,1564151560640,1,2.34,0.92,0.36,1.37,1.07,0.83,-0.05,0.47,5,-3,4,0.84,7290,11,90,44,34,886,385.0,551,463,60,124.0,123,1,295,175,48,0,0,389,8200,-6656,384,-5.59,,,,,,,,,,,,
213243,1564151560660,1,2.33,0.92,0.36,1.38,1.07,0.72,-0.03,0.4,5,-0,5,0.72,7287,11,90,44,34,892,385.0,566,466,60,122.0,123,1,295,175,48,0,0,388,-992,-1818,385,-5.59,44.680904,10.024862,38.96,174.5,0,0.0,-1,0.0,0.0,0,1.3,3.554
213263,1564151560680,1,2.33,0.92,0.36,1.38,1.06,0.64,0.03,0.36,5,0,6,0.64,7233,11,90,44,34,898,385.0,558,465,60,123.0,125,1,295,175,48,0,0,386,-992,-6524,384,-5.59,,,,,,,,,,,,
213283,1564151560701,-1,2.33,0.92,0.36,1.37,1.06,0.63,0.06,0.46,4,-1,5,0.63,7231,11,90,44,34,900,384.0,544,465,60,123.0,125,1,295,175,48,0,0,391,8200,-6524,384,-5.59,,,,,,,,,,,,
213303,1564151560721,-0,2.33,0.92,0.36,1.37,1.07,0.76,0.02,0.57,3,-4,5,0.76,7236,11,90,44,34,902,380.0,552,462,60,124.0,125,1,295,175,48,0,0,386,2278,-6475,380,-5.59,,,,,,,,,,,,
213323,1564151560741,3,2.33,0.93,0.36,1.37,1.07,0.89,0.03,0.58,3,-4,5,0.89,7217,11,90,44,34,906,380.0,550,463,60,123.0,125,1,295,175,48,0,0,385,-6656,240,380,-5.59,,,,,,,,,,,,
213343,1564151560761,1,2.34,0.92,0.35,1.37,1.07,0.86,0.01,0.54,3,-3,5,0.87,7222,10,90,44,34,910,379.0,551,466,60,123.0,125,1,295,175,48,0,0,386,3,-19019,379,-5.59,44.680901,10.02485,38.48,174.4,0,0.0,-1,0.0,0.0,0,1.3,3.5557
213363,1564151560781,1,2.33,0.93,0.36,1.38,1.07,0.73,0.09,0.43,4,-1,5,0.73,7208,10,90,44,35,913,378.0,560,467,60,122.0,129,1,298,181,49,0,0,381,770,-18948,378,-5.59,,,,,,,,,,,,
213383,1564151560800,0,2.33,0.93,0.36,1.37,1.07,0.66,0.16,0.36,4,-0,4,0.68,7181,10,90,44,34,916,379.0,550,466,60,123.0,129,1,295,175,49,0,0,381,742,-6475,379,-5.59,,,,,,,,,,,,
213403,1564151560820,0,2.33,0.93,0.36,1.38,1.06,0.76,0.1,0.48,3,-3,4,0.77,7189,10,90,44,34,920,379.0,556,463,60,124.0,129,1,295,175,49,0,0,383,742,-6524,379,-5.59,,,,,,,,,,,,
213423,1564151560840,1,2.34,0.93,0.36,1.37,1.07,0.89,0.09,0.55,2,-2,4,0.89,7113,9,90,44,34,924,375.0,545,465,60,124.0,129,1,295,175,49,0,0,381,742,-992,375,-5.59,,,,,,,,,,,,
213443,1564151560860,2,2.34,0.93,0.36,1.37,1.07,0.78,0.1,0.46,3,0,4,0.79,7115,9,90,44,34,926,374.0,557,465,60,122.0,129,1,295,175,49,0,0,380,-6656,-18948,374,-5.59,44.680893,10.024837,38.05,174.4,0,0.0,-1,0.0,0.0,0,1.3,3.5574
213463,1564151560880,-0,2.34,0.92,0.36,1.37,1.07,0.71,0.11,0.41,2,-0,4,0.72,7040,9,90,44,34,927,373.0,551,466,60,123.0,125,1,295,175,47,0,0,379,257,-18948,374,-5.59,,,,,,,,,,,,
213483,1564151560900,3,2.35,0.92,0.36,1.37,1.07,0.77,0.08,0.56,2,-1,4,0.77,7027,9,90,44,34,929,371.0,539,461,60,124.0,125,1,295,175,47,0,0,378,257,2278,373,-5.59,,,,,,,,,,,,
213503,1564151560920,3,2.33,0.93,0.36,1.38,1.07,0.86,0.06,0.55,2,-1,4,0.86,7025,9,90,44,34,931,372.0,535,463,60,124.0,125,1,295,175,47,0,0,378,486,3,372,-5.59,,,,,,,,,,,,
213523,1564151560940,1,2.34,0.92,0.36,1.37,1.07,0.76,0.07,0.48,3,-1,2,0.76,6985,9,90,44,34,931,370.0,539,463,60,121.0,125,1,295,175,47,0,0,373,0,-6656,370,-5.59,,,,,,,,,,,,
213543,1564151560960,3,2.34,0.92,0.36,1.37,1.07,0.87,-0.01,0.54,2,-3,2,0.87,6972,9,90,44,34,931,370.0,529,463,60,124.0,125,1,295,175,47,0,0,374,-6405,257,370,-5.59,44.680889,10.024826,37.47,174.4,0,0.0,-1,0.0,0.0,0,1.3,3.5591
213563,1564151560980,2,2.34,0.93,0.36,1.37,1.07,0.87,-0.06,0.52,2,-2,2,0.87,6970,9,90,44,34,930,367.0,538,465,60,124.0,125,1,295,175,46,0,0,373,-1268,486,367,-5.59,,,,,,,,,,,,
213583,1564151560991,-0,2.34,0.92,0.36,1.38,1.06,0.83,-0.05,0.52,2,-1,3,0.83,6923,9,90,44,34,929,366.0,541,467,60,123.0,125,1,295,175,46,0,0,371,-1268,742,366,-5.59,,,,,,,,,,,,
213603,1564151561011,4,2.34,0.92,0.36,1.37,1.07,0.88,-0.12,0.64,1,-1,2,0.89,6908,8,90,44,34,928,365.0,529,462,60,125.0,125,1,295,175,46,0,0,368,3082,0,365,-5.59,,,,,,,,,,,,
213623,1564151561031,2,2.34,0.93,0.36,1.37,1.07,0.88,-0.09,0.55,2,1,2,0.88,6921,8,90,44,34,927,365.0,533,468,60,123.0,125,1,295,175,46,0,0,368,2790,-6405,365,-5.59,,,,,,,,,,,,
213643,1564151561051,3,2.34,0.93,0.36,1.37,1.07,0.82,-0.06,0.53,2,-1,2,0.82,6918,8,90,44,34,928,362.0,544,463,60,123.0,125,1,295,175,46,0,0,368,-14707,0,362,-5.59,44.680885,10.024814,37.2,174.4,0,0.0,-1,0.0,0.0,0,1.3,3.5607
213663,1564151561071,4,2.34,0.92,0.36,1.37,1.07,0.88,-0.02,0.49,2,-1,2,0.88,6860,8,90,44,34,928,361.0,531,462,60,124.0,124,1,295,175,45,0,0,368,4104,-6656,361,-5.59,,,,,,,,,,,,
213683,1564151561099,1,2.34,0.92,0.36,1.37,1.07,0.83,0.04,0.43,2,-0,2,0.83,6863,8,90,44,34,929,358.0,532,465,60,123.0,124,1,295,175,45,0,0,364,-6640,230,358,-5.59,,,,,,,,,,,,
213703,1564151561119,5,2.35,0.92,0.36,1.37,1.07,0.91,0.03,0.54,2,-2,1,0.91,6818,8,90,44,34,930,359.0,528,463,60,125.0,124,1,295,175,45,0,0,362,3302,486,359,-5.59,,,,,,,,,,,,
213723,1564151561139,2,2.35,0.93,0.35,1.38,1.06,0.87,0.06,0.48,2,0,1,0.87,6751,8,90,44,35,929,357.0,537,463,60,124.0,124,1,298,107,45,0,0,364,3183,0,357,-5.59,,,,,,,,,,,,
213743,1564151561159,4,2.35,0.92,0.36,1.38,1.07,0.86,-0.05,0.58,2,0,1,0.86,6732,8,90,44,35,927,358.0,530,465,60,125.0,124,1,298,107,45,0,0,361,3183,2790,358,-5.59,44.680885,10.024801,36.65,174.4,0,0.0,-1,0.0,0.0,0,1.3,3.5624
213763,1564151561179,3,2.34,0.92,0.36,1.38,1.06,0.84,0.01,0.53,2,2,1,0.84,6698,8,90,44,35,924,355.0,536,464,60,122.0,129,1,298,181,46,0,0,361,28553,-6458,355,-5.59,,,,,,,,,,,,
213783,1564151561199,4,2.35,0.92,0.36,1.37,1.07,0.92,-0.04,0.51,2,-1,2,0.92,6689,8,90,44,35,921,355.0,532,462,60,123.0,129,1,298,181,46,0,0,551,-30454,-14707,352,-5.59,,,,,,,,,,,,
213803,1564151561219,2,2.34,0.93,0.36,1.37,1.06,0.82,0.02,0.5,2,1,1,0.82,6651,8,90,44,35,915,352.0,520,463,60,124.0,129,1,298,181,46,0,0,551,-1246,4104,352,-5.59,,,,,,,,,,,,
213823,1564151561239,4,2.35,0.92,0.36,1.37,1.06,0.94,0.02,0.43,2,0,1,0.94,6618,8,90,44,35,909,350.0,515,460,60,124.0,129,1,298,181,46,0,0,551,8841,4104,350,-5.59,,,,,,,,,,,,
213843,1564151561259,5,2.35,0.93,0.36,1.38,1.06,0.87,-0.01,0.41,1,-1,2,0.87,6595,8,90,44,36,904,349.0,511,467,60,123.0,129,1,301,181,46,0,0,42,8841,3183,349,-5.59,44.680882,10.02479,35.79,174.4,0,0.0,-1,0.0,0.0,0,1.31,3.564
213863,1564151561279,2,2.35,0.91,0.36,1.38,1.06,0.89,0.01,0.37,2,-0,2,0.89,6597,8,90,44,36,902,347.0,517,466,60,123.0,132,1,301,186,46,0,0,346,-10554,3183,347,-5.59,,,,,,,,,,,,
213883,1564151561299,3,2.35,0.92,0.36,1.37,1.07,0.9,-0.01,0.45,1,-2,2,0.9,6578,8,90,44,36,898,347.0,511,461,60,125.0,132,1,301,181,46,0,0,350,6668,2811,347,-5.59,,,,,,,,,,,,
213903,1564151561319,2,2.36,0.93,0.35,1.38,1.06,0.88,0.01,0.44,2,-0,2,0.88,6546,8,90,44,36,895,346.0,517,467,60,123.0,132,1,301,186,46,0,0,349,3327,2811,343,-5.59,,,,,,,,,,,,
213923,1564151561339,2,2.35,0.93,0.36,1.37,1.06,0.96,0.02,0.43,2,-1,3,0.96,6487,8,90,44,36,893,344.0,517,466,60,122.0,132,1,301,186,46,0,0,347,3327,-30454,344,-5.59,,,,,,,,,,,,
213943,1564151561359,3,2.34,0.92,0.36,1.37,1.06,0.86,-0.06,0.58,2,-1,3,0.87,6458,7,90,44,36,891,342.0,503,465,60,125.0,132,1,301,186,46,0,0,346,-122,-30438,342,-5.59,44.680878,10.024778,35.34,174.3,0,0.0,-1,0.0,0.0,0,1.31,3.5657
213963,1564151561379,6,2.35,0.93,0.36,1.38,1.07,0.81,0.03,0.54,2,2,2,0.81,6434,7,90,44,36,892,342.0,510,466,60,123.0,131,1,301,186,45,0,0,345,2560,8841,339,-5.59,,,,,,,,,,,,
213983,1564151561401,2,2.35,0.92,0.35,1.38,1.06,0.93,0.01,0.48,2,1,3,0.93,6419,7,90,44,36,894,340.0,505,466,60,123.0,131,1,301,186,45,0,0,342,13,-14714,340,-5.59,,,,,,,,,,,,
214003,1564151561421,4,2.35,0.93,0.36,1.37,1.06,0.96,-0.0,0.44,2,-2,4,0.96,6403,7,90,44,36,895,336.0,510,463,60,124.0,131,1,301,192,45,0,0,345,3346,-1246,336,-5.59,,,,,,,,,,,,
214023,1564151561441,5,2.36,0.92,0.36,1.38,1.07,0.84,0.02,0.47,2,-3,4,0.84,6377,7,90,44,36,897,337.0,506,461,60,124.0,131,1,301,186,45,0,0,339,-32559,-31206,337,-5.59,,,,,,,,,,,,
214043,1564151561461,5,2.36,0.93,0.35,1.38,1.06,0.77,0.04,0.42,3,0,2,0.77,6336,6,90,44,37,899,334.0,510,466,60,122.0,131,1,304,192,45,0,0,337,-12032,-122,334,-5.59,44.680874,10.024767,34.45,174.3,0,0.0,-1,0.0,0.0,0,1.31,3.5674
