"Interval"|"ms"|0|0|1,"Utc"|"ms"|0|0|1,"FB_p"|"bar"|0|300|50,"Volant"|"F"|0.0|300.0|50,"xFR"|"mm"|0.0|5.0|50,"xRR"|"mm"|0.0|5.0|50,"xFL"|"mm"|0.0|5.0|50,"xRL"|"mm"|0.0|5.0|50,"AccelX"|"G"|-3.0|3.0|50,"AccelY"|"G"|-3.0|3.0|50,"AccelZ"|"G"|-3.0|3.0|50,"Yaw"|"Deg/Sec"|-120|120|50,"Pitch"|"Deg/Sec"|-120|120|50,"Roll"|"Deg/Sec"|-120|120|50,"Gsum"|"G"|0.0|3.0|50,"RPM"|""|0|14000|50,"TPS"|"%"|0|100|50,"WaterTemp"|"?C"|0|300|50,"AirTemp"|"?C"|-1000|1000|50,"MAP"|"KPa"|0|255|50,"Lambda"|""|0|1024|50,"WheelSpeed"|"MPH"|0.0|150.0|50,"OilPress"|"PSI"|0|150|50,"FuelPress"|"PSI"|0|150|50,"OilTemp"|"F"|0|300|50,"Battery"|"Volts"|0.0|20.0|50,"FuelCon"|"L/h"|-1000|1000|50,"Gear"|""|0|10|50,"Advance"|"Deg"|-360|360|50,"Injection"|"ms"|-1000|1000|50,"FuelCon"|"L/100km"|-1000|1000|50,"LC_But_Pres"|""|-1000|1000|50,"LC_Active"|""|-1000|1000|50,"RD_Speed"|""|-1000|1000|50,"RUD_Speed"|""|-1000|1000|50,"LD_Speed"|""|-1000|1000|50,"LUD_Speed"|""|-1000|1000|50,"Ana1"|"bar"|-1000.0|1000.0|50,"Latitude"|"Degrees"|-180.0|180.0|10,"Longitude"|"Degrees"|-180.0|180.0|10,"Speed"|"kph"|0.0|150.0|10,"Altitude"|"m"|0.0|4000.0|10,"LapCount"|""|0|0|10,"LapTime"|"Min"|0.0|0.0|10,"Sector"|""|0|0|10,"SectorTime"|"Min"|0.0|0.0|10,"ElapsedTime"|"Min"|0.0|0.0|10,"CurrentLap"|""|0|0|10,"Distance"|"km"|0.0|0.0|10,"SessionTime"|"Min"|0.0|0.0|10
184363,1564152929063,2,2.56,0.96,0.35,1.48,1.11,0.76,-0.96,0.28,22,3,29,1.22,11653,53,88,44,55,901,606.0,666,466,60,120.0,249,1,405,338,150,0,0,619,-8188,-16046,604,-5.59,,,,,,,,,,,,
184383,1564152929083,2,2.56,0.96,0.35,1.48,1.11,0.77,-0.93,0.3,22,3,30,1.21,11689,53,88,44,55,906,606.0,657,463,60,120.0,246,1,405,338,149,0,0,631,-8188,-16883,606,-5.59,,,,,,,,,,,,
184403,1564152929093,2,2.55,0.97,0.35,1.49,1.11,0.78,-0.9,0.46,22,4,29,1.2,11704,53,88,44,55,905,604.0,665,463,60,120.0,246,1,405,339,149,0,0,618,1760,966,604,-5.59,,,,,,,,,,,,
184423,1564152929113,1,2.55,0.97,0.35,1.49,1.11,0.78,-0.9,0.61,22,4,28,1.19,11726,54,88,44,55,903,607.0,658,462,60,120.0,246,1,405,339,149,0,0,637,243,-14655,608,-5.59,,,,,,,,,,,,
184443,1564152929133,1,2.55,0.95,0.35,1.49,1.1,0.82,-0.97,0.57,22,2,28,1.27,11755,54,88,44,55,895,607.0,661,465,60,120.0,246,1,405,340,149,0,0,633,1,-18357,607,-5.59,44.681301,10.025002,59.13,176.4,0,0.0,-1,0.0,0.0,0,0.85,3.074
184463,1564152929153,3,2.56,0.97,0.35,1.49,1.11,0.78,-0.9,0.52,22,1,29,1.18,11807,54,88,44,55,885,611.0,665,462,60,120.0,246,1,405,341,149,0,0,632,-3210,771,611,-5.59,,,,,,,,,,,,
184483,1564152929173,3,2.55,0.96,0.35,1.49,1.1,0.76,-0.78,0.43,21,1,31,1.09,11837,54,88,44,55,876,610.0,667,462,60,120.0,250,1,405,341,153,0,0,639,30208,-1346,613,-5.59,,,,,,,,,,,,
184503,1564152929193,3,2.54,0.95,0.35,1.49,1.1,0.71,-0.73,0.52,22,1,30,1.02,11867,54,88,44,55,868,610.0,666,462,60,121.0,250,1,405,342,153,0,0,614,-3210,-4876,612,-5.59,,,,,,,,,,,,
184523,1564152929203,3,2.54,0.96,0.35,1.48,1.1,0.65,-0.81,0.67,22,0,30,1.04,11867,54,88,43,55,857,612.0,662,462,60,119.0,250,1,405,344,153,0,0,641,10432,3,612,-5.59,,,,,,,,,,,,
184543,1564152929223,3,2.53,0.96,0.35,1.49,1.1,0.58,-0.92,0.8,22,-0,30,1.09,11859,54,88,43,56,845,615.0,670,462,60,121.0,250,1,411,353,153,0,0,652,15649,-2580,615,-5.59,44.681286,10.025015,60.1,176.5,0,0.0,-1,0.0,0.0,0,0.85,3.0757
184563,1564152929243,3,2.53,0.96,0.35,1.49,1.11,0.61,-1.03,0.8,22,2,30,1.2,11919,54,88,43,56,836,614.0,670,460,60,121.0,250,1,411,353,153,0,0,636,10432,-5120,616,-5.59,,,,,,,,,,,,
184583,1564152929263,1,2.54,0.96,0.35,1.49,1.1,0.63,-1.13,0.87,22,4,31,1.29,11965,54,88,43,56,831,617.0,672,465,60,120.0,260,1,411,354,160,0,0,617,8488,-3584,617,-5.59,,,,,,,,,,,,
184603,1564152929298,-2,2.54,0.96,0.35,1.49,1.11,0.61,-1.21,0.98,22,5,29,1.36,11927,54,89,43,56,826,616.0,657,468,60,123.0,260,1,411,353,160,0,0,631,208,24,616,181.28,,,,,,,,,,,,
184623,1564152929318,-2,2.54,0.96,0.35,1.48,1.11,0.72,-1.27,0.88,22,4,29,1.46,11503,54,89,44,56,821,619.0,649,456,60,123.0,260,1,411,346,160,0,0,641,-12040,3,619,414.87,,,,,,,,,,,,
184643,1564152929338,0,2.53,0.95,0.35,1.49,1.1,0.81,-1.18,0.82,21,4,30,1.43,11187,54,89,44,58,819,618.0,645,460,60,123.0,260,1,426,361,160,0,0,622,208,-2580,618,181.28,44.681278,10.025025,60.32,176.5,0,0.0,-1,0.0,0.0,0,0.85,3.0774
184663,1564152929358,-0,2.53,0.96,0.35,1.48,1.11,0.71,-1.13,0.54,21,3,31,1.34,10945,54,89,44,60,819,615.0,647,462,60,122.0,260,1,442,375,160,0,0,608,-25872,-2836,617,181.28,,,,,,,,,,,,
184683,1564152929378,-2,2.54,0.96,0.34,1.48,1.11,0.69,-1.14,0.68,21,5,30,1.34,10775,54,89,43,61,821,616.0,638,461,60,120.0,252,1,450,382,156,0,0,594,-25872,-16046,616,-5.59,,,,,,,,,,,,
184703,1564152929398,3,2.52,0.96,0.35,1.49,1.1,0.76,-1.21,0.81,23,6,30,1.42,10504,54,89,43,62,824,618.0,645,458,60,120.0,252,1,449,675,156,0,0,600,208,506,618,-5.59,,,,,,,,,,,,
184723,1564152929410,0,2.53,0.96,0.35,1.48,1.1,0.77,-1.12,0.67,23,5,33,1.36,10102,55,89,43,63,826,617.0,646,458,60,119.0,252,1,414,609,156,0,0,670,-4035,-10348,619,-5.59,,,,,,,,,,,,
184743,1564152929430,2,2.53,0.96,0.35,1.49,1.11,0.73,-1.13,0.8,24,7,34,1.35,9522,55,89,43,64,828,625.0,632,467,60,122.0,252,1,414,491,156,0,0,831,-1894,-3450,628,-5.59,44.681263,10.025037,60.85,176.5,0,0.0,-1,0.0,0.0,0,0.86,3.0791
184763,1564152929450,2,2.53,0.95,0.34,1.47,1.11,0.66,-1.04,0.73,24,3,31,1.23,9479,55,89,43,62,858,633.0,637,464,60,122.0,252,1,413,433,156,0,0,763,-4035,-3038,633,-5.59,,,,,,,,,,,,
184783,1564152929470,1,2.54,0.95,0.35,1.48,1.11,0.57,-0.97,0.69,26,6,32,1.12,9605,55,89,43,61,967,627.0,631,461,60,121.0,226,1,413,379,142,0,0,657,-1894,8958,627,-5.59,,,,,,,,,,,,
184803,1564152929490,2,2.55,0.95,0.35,1.48,1.11,0.65,-1.03,0.8,26,8,32,1.21,9384,55,89,43,61,1074,630.0,631,457,60,122.0,226,1,409,340,142,0,0,689,208,-2826,630,-5.59,,,,,,,,,,,,
184823,1564152929506,1,2.55,0.96,0.35,1.48,1.11,0.61,-1.06,0.92,26,9,32,1.22,9079,55,89,43,61,1179,637.0,624,460,60,122.0,226,1,398,340,142,0,0,723,2048,-10399,637,-5.59,,,,,,,,,,,,
184843,1564152929526,1,2.55,0.96,0.35,1.48,1.11,0.57,-1.1,0.93,26,7,31,1.24,8988,55,89,43,61,1266,637.0,625,468,60,122.0,226,1,398,339,142,0,0,668,-28648,-26892,637,-5.59,44.681248,10.025045,60.3,176.5,0,0.0,-1,0.0,0.0,0,0.86,3.0807
184863,1564152929546,1,2.55,0.96,0.34,1.48,1.1,0.6,-1.14,1.01,27,6,28,1.29,8958,55,89,43,61,1286,637.0,630,466,60,122.0,226,1,401,343,142,0,0,634,-28648,-26380,637,-5.59,,,,,,,,,,,,
184883,1564152929566,1,2.54,0.96,0.35,1.48,1.11,0.64,-1.18,0.97,26,6,27,1.34,8898,55,89,43,61,1305,637.0,628,464,60,123.0,178,1,407,342,114,0,0,677,23619,-10344,634,-5.59,,,,,,,,,,,,
184903,1564152929600,1,2.54,0.96,0.35,1.48,1.11,0.66,-1.2,1.04,25,6,26,1.36,8962,55,89,43,62,1219,638.0,626,465,60,122.0,178,1,402,343,114,0,0,683,30227,-2830,639,-5.59,,,,,,,,,,,,
184923,1564152929620,2,2.54,0.96,0.35,1.48,1.11,0.68,-1.26,0.98,24,5,26,1.43,9141,55,89,43,62,1139,639.0,629,464,60,122.0,178,1,402,344,114,0,0,653,5344,31988,638,-5.59,,,,,,,,,,,,
184943,1564152929640,3,2.54,0.96,0.35,1.49,1.11,0.8,-1.29,0.96,25,3,25,1.52,9236,55,89,43,62,1089,638.0,632,467,60,122.0,178,1,405,344,114,0,0,671,-3446,-3578,638,-5.59,44.681236,10.025054,62.21,176.6,0,0.0,-1,0.0,0.0,0,0.86,3.0824
184963,1564152929660,3,2.54,0.96,0.35,1.49,1.1,0.81,-1.21,1.01,24,4,26,1.45,9309,55,89,43,61,1038,644.0,631,469,60,123.0,178,1,407,340,114,0,0,691,17740,-2345,644,-5.59,,,,,,,,,,,,
184983,1564152929680,-0,2.56,0.95,0.35,1.48,1.11,0.8,-1.19,0.77,25,3,28,1.43,9342,55,89,43,61,1073,645.0,632,459,60,122.0,188,1,408,340,121,0,0,694,-3446,16599,646,-5.59,,,,,,,,,,,,
185003,1564152929694,1,2.56,0.96,0.35,1.49,1.11,0.81,-1.27,0.73,25,3,28,1.51,9333,55,89,43,61,1109,646.0,629,468,60,122.0,188,1,407,340,121,0,0,673,-3446,1780,646,-5.59,,,,,,,,,,,,
185023,1564152929714,1,2.56,0.96,0.35,1.48,1.11,0.74,-1.24,0.86,26,3,28,1.45,9277,55,89,43,61,1145,650.0,625,463,60,123.0,188,1,405,340,121,0,0,667,-3446,-2345,650,-5.59,,,,,,,,,,,,
185043,1564152929734,3,2.56,0.96,0.35,1.48,1.1,0.82,-1.2,0.94,26,4,28,1.45,9218,55,89,43,61,1180,650.0,520,467,60,122.0,188,1,403,340,121,0,0,674,19304,16599,651,-5.59,44.681221,10.025061,63.11,176.6,0,0.0,-1,0.0,0.0,0,0.86,3.084
185063,1564152929754,3,2.57,0.95,0.35,1.49,1.1,0.84,-1.12,0.87,26,2,28,1.4,9195,55,89,43,61,1183,651.0,415,465,60,122.0,188,1,403,340,121,0,0,696,28675,-10346,651,-5.59,,,,,,,,,,,,
185083,1564152929774,1,2.58,0.96,0.35,1.48,1.1,0.9,-1.11,0.75,26,1,30,1.43,9218,54,89,43,61,1184,647.0,395,457,60,121.0,185,1,403,340,120,0,0,671,28675,31988,648,-5.59,,,,,,,,,,,,
185103,1564152929794,-1,2.59,0.96,0.35,1.48,1.11,0.97,-1.09,0.66,25,-1,31,1.46,9241,54,89,43,61,1181,649.0,388,465,60,122.0,185,1,404,340,120,0,0,698,28675,-3584,649,-5.59,,,,,,,,,,,,
185123,1564152929806,-0,2.6,0.96,0.35,1.48,1.1,0.88,-1.12,0.73,25,-0,30,1.42,9272,54,89,43,61,1179,650.0,355,461,60,122.0,185,1,405,340,120,0,0,672,16529,-10399,651,-5.59,,,,,,,,,,,,
185143,1564152929826,2,2.6,0.96,0.35,1.48,1.11,0.92,-1.12,0.66,25,-3,29,1.45,9282,54,89,43,61,1176,651.0,353,463,60,121.0,185,1,406,340,120,0,0,689,-18357,24845,651,-5.59,44.681202,10.025066,63.64,176.6,0,0.0,-1,0.0,0.0,0,0.86,3.0857
185163,1564152929846,3,2.6,0.96,0.35,1.49,1.11,0.99,-1.21,0.78,24,-4,28,1.56,9314,54,89,43,61,1173,653.0,363,461,60,123.0,185,1,408,340,120,0,0,701,19320,24845,655,-5.59,,,,,,,,,,,,
185183,1564152929866,-0,2.6,0.95,0.35,1.47,1.11,0.89,-1.12,0.71,24,-2,30,1.43,9469,54,89,43,61,1173,653.0,380,468,60,123.0,184,1,412,340,121,0,0,702,269,24,654,-5.59,,,,,,,,,,,,
185203,1564152929904,2,2.6,0.95,0.35,1.48,1.11,0.75,-1.2,0.67,24,0,31,1.42,9556,54,89,43,60,1174,657.0,360,465,60,123.0,184,1,412,338,121,0,0,681,3395,11576,657,-5.59,,,,,,,,,,,,
185223,1564152929924,3,2.61,0.96,0.34,1.48,1.11,0.73,-1.21,0.68,25,2,31,1.41,9532,53,89,43,60,1177,657.0,417,466,60,123.0,184,1,412,336,121,0,0,689,17336,24,660,-5.59,,,,,,,,,,,,
185243,1564152929944,0,2.61,0.96,0.35,1.48,1.1,0.74,-1.19,0.58,26,1,30,1.41,9384,49,89,43,59,1180,659.0,401,463,60,122.0,184,1,406,330,121,0,0,726,-16883,6208,661,-5.59,44.681187,10.02507,64.68,176.6,0,0.0,-1,0.0,0.0,0,0.86,3.0874
185263,1564152929964,1,2.62,0.96,0.35,1.48,1.1,0.72,-1.2,0.57,26,2,30,1.4,9407,45,89,43,58,1175,658.0,407,461,60,122.0,184,1,405,325,121,0,0,698,3395,8010,661,-5.59,,,,,,,,,,,,
185283,1564152929984,2,2.63,0.96,0.35,1.48,1.11,0.73,-1.26,0.54,26,2,32,1.46,9455,45,89,43,56,1167,659.0,437,468,60,122.0,170,1,403,317,113,0,0,676,19320,14342,659,-5.59,,,,,,,,,,,,
185303,1564152929992,3,2.65,0.96,0.35,1.49,1.11,0.79,-1.26,0.46,26,1,33,1.48,9422,44,89,43,55,1157,659.0,467,460,60,122.0,170,1,401,311,113,0,0,696,-1346,24,659,-5.59,,,,,,,,,,,,
185323,1564152930012,1,2.65,0.96,0.35,1.48,1.11,0.79,-1.16,0.52,26,2,33,1.4,9436,44,89,43,54,1144,662.0,494,470,60,123.0,170,1,400,310,113,0,0,704,-18357,8010,662,-5.59,,,,,,,,,,,,
185343,1564152930032,0,2.66,0.96,0.35,1.48,1.1,0.76,-1.2,0.57,25,0,32,1.42,9469,44,89,43,54,1132,657.0,527,463,60,122.0,170,1,400,308,113,0,0,694,-14655,12333,657,-5.59,44.681171,10.025073,65.17,176.7,0,0.0,-1,0.0,0.0,0,0.87,3.0891
185363,1564152930052,3,2.66,0.96,0.35,1.49,1.11,0.77,-1.13,0.71,24,3,30,1.37,9488,44,89,43,54,1119,661.0,556,466,60,123.0,170,1,400,309,113,0,0,704,-1346,6208,661,-5.59,,,,,,,,,,,,
185383,1564152930072,0,2.68,0.96,0.35,1.49,1.1,0.78,-1.19,0.78,24,1,28,1.42,9484,44,89,43,53,1112,658.0,586,466,60,121.0,159,1,397,297,106,0,0,692,-1346,19188,658,-5.59,,,,,,,,,,,,
185403,1564152930092,2,2.67,0.96,0.35,1.48,1.11,0.83,-1.27,0.74,23,-1,30,1.52,9498,43,89,43,53,1112,659.0,611,468,60,122.0,159,1,397,297,106,0,0,701,-14655,24,659,-5.59,,,,,,,,,,,,
185423,1564152930106,3,2.67,0.97,0.35,1.49,1.1,0.75,-1.27,0.67,24,-1,30,1.48,9464,41,89,43,52,1105,661.0,619,471,60,122.0,159,1,394,286,106,0,0,695,506,-12152,663,-5.59,,,,,,,,,,,,
185443,1564152930126,-0,2.68,0.96,0.35,1.49,1.11,0.76,-1.18,0.76,24,-3,29,1.4,9436,39,89,43,51,1091,662.0,624,468,60,122.0,159,1,391,274,106,0,0,712,-14655,6208,663,-5.59,44.681156,10.025074,66.0,176.7,0,0.0,-1,0.0,0.0,0,0.87,3.0907
185463,1564152930146,2,2.68,0.96,0.35,1.48,1.11,0.77,-1.26,0.74,24,-1,29,1.47,9493,37,89,43,49,1078,662.0,628,461,60,122.0,159,1,385,253,106,0,0,692,506,19188,661,-5.59,,,,,,,,,,,,
185483,1564152930166,3,2.69,0.97,0.35,1.49,1.11,0.8,-1.32,0.67,24,1,32,1.54,9503,37,89,43,48,1065,663.0,630,464,60,122.0,136,1,382,254,91,0,0,683,-16883,11576,663,-5.59,,,,,,,,,,,,
185503,1564152930200,-0,2.69,0.96,0.35,1.48,1.11,0.74,-1.11,0.75,25,1,30,1.33,9445,37,89,43,48,1051,663.0,611,461,60,121.0,136,1,380,243,91,0,0,689,506,-2830,663,-5.59,,,,,,,,,,,,
185523,1564152930220,1,2.69,0.96,0.35,1.48,1.11,0.8,-1.18,0.75,24,0,28,1.42,9337,37,89,43,47,1035,660.0,502,462,60,121.0,136,1,376,231,91,0,0,712,20993,19188,660,-5.59,,,,,,,,,,,,
185543,1564152930240,2,2.7,0.96,0.35,1.48,1.11,0.82,-1.26,0.71,24,1,29,1.51,9384,37,89,43,47,1023,662.0,476,460,60,123.0,136,1,377,231,91,0,0,687,-1346,14342,662,-5.59,44.681141,10.025074,66.01,176.7,0,0.0,-1,0.0,0.0,0,0.87,3.0924
185563,1564152930260,2,2.71,0.96,0.35,1.48,1.1,0.83,-1.19,0.68,24,1,30,1.45,9407,37,89,43,46,1020,660.0,493,471,60,122.0,136,1,370,232,91,0,0,678,20993,-10448,660,-5.59,,,,,,,,,,,,
185583,1564152930280,-0,2.71,0.96,0.35,1.49,1.1,0.84,-1.06,0.69,23,0,31,1.36,9422,37,89,43,46,1017,657.0,439,465,60,120.0,123,1,370,229,81,0,0,694,-1346,16599,659,-5.59,,,,,,,,,,,,
185603,1564152930291,1,2.71,0.96,0.35,1.48,1.11,0.85,-1.16,0.73,23,1,27,1.44,9375,37,89,43,46,1011,659.0,452,463,60,122.0,123,1,369,228,81,0,0,701,20993,14342,659,-5.59,,,,,,,,,,,,
185623,1564152930311,1,2.71,0.96,0.35,1.48,1.11,0.77,-1.24,0.65,23,0,28,1.46,9403,37,89,43,46,1006,658.0,456,473,60,122.0,123,1,370,229,81,0,0,705,966,-2830,659,-5.59,,,,,,,,,,,,
185643,1564152930331,2,2.72,0.96,0.35,1.48,1.11,0.82,-1.13,0.6,24,2,31,1.4,9436,35,89,43,46,1002,659.0,411,463,60,122.0,123,1,370,229,81,0,0,673,506,6208,661,-5.59,44.681122,10.025071,66.58,176.8,0,0.0,-1,0.0,0.0,0,0.87,3.094
185663,1564152930351,-1,2.72,0.96,0.34,1.48,1.1,0.86,-1.0,0.64,24,2,31,1.32,9384,32,89,43,45,1000,660.0,444,470,60,122.0,123,1,362,225,81,0,0,692,20993,-10399,660,-5.59,,,,,,,,,,,,
185683,1564152930371,1,2.71,0.96,0.35,1.49,1.11,0.79,-1.09,0.55,24,3,29,1.35,9337,29,89,43,43,1005,657.0,444,465,60,122.0,119,1,348,221,79,0,0,693,-16046,-2830,659,-5.59,,,,,,,,,,,,
185703,1564152930403,2,2.71,0.97,0.34,1.48,1.1,0.78,-1.16,0.5,23,3,31,1.4,9300,28,89,43,42,1011,661.0,408,459,60,123.0,119,1,341,218,79,0,0,692,20993,-2830,661,-5.59,,,,,,,,,,,,
185723,1564152930423,1,2.73,0.96,0.35,1.49,1.1,0.87,-1.22,0.55,22,2,30,1.5,9300,27,89,43,40,1019,655.0,429,461,60,123.0,119,1,327,212,79,0,0,667,-16883,24845,655,-5.59,,,,,,,,,,,,
185743,1564152930443,2,2.74,0.97,0.34,1.49,1.1,0.92,-1.13,0.62,22,2,27,1.45,9254,27,89,43,39,1026,651.0,418,468,60,122.0,119,1,320,210,79,0,0,672,506,3543,651,-5.59,44.681107,10.025067,66.05,176.8,0,0.0,-1,0.0,0.0,0,0.87,3.0957
185763,1564152930463,3,2.73,0.96,0.35,1.49,1.1,0.99,-1.03,0.54,22,-3,28,1.43,9150,27,89,43,39,1031,651.0,404,461,60,122.0,119,1,320,209,79,0,0,683,-16883,3543,651,-5.59,,,,,,,,,,,,
185783,1564152930483,-1,2.72,0.96,0.35,1.48,1.11,0.88,-1.09,0.52,23,-3,28,1.41,9101,27,89,43,39,1036,651.0,427,467,60,122.0,110,1,320,209,72,0,0,680,-1346,6208,651,-5.59,,,,,,,,,,,,
185803,1564152930497,0,2.69,0.97,0.35,1.48,1.11,0.86,-0.95,0.58,23,-2,29,1.28,9101,27,89,43,39,1033,654.0,433,467,60,122.0,110,1,320,209,72,0,0,682,3395,-10399,654,-5.59,,,,,,,,,,,,
185823,1564152930517,-1,2.68,0.96,0.35,1.49,1.11,0.83,-0.98,0.44,23,-1,30,1.28,9128,27,89,43,39,1028,654.0,454,463,60,122.0,110,1,320,205,72,0,0,672,-16883,-2345,654,-5.59,,,,,,,,,,,,
185843,1564152930537,1,2.67,0.95,0.35,1.49,1.11,0.64,-1.02,0.35,24,1,31,1.21,9182,27,89,43,38,1007,656.0,490,460,60,122.0,110,1,317,206,72,0,0,673,17336,-10344,656,-5.59,44.681091,10.025062,66.64,176.9,0,0.0,-1,0.0,0.0,0,0.88,3.0974
185863,1564152930557,-0,2.66,0.96,0.35,1.48,1.1,0.58,-1.12,0.44,24,1,27,1.26,9213,27,89,43,38,985,656.0,507,464,60,121.0,110,1,317,206,72,0,0,661,3395,-2345,656,-5.59,,,,,,,,,,,,
185883,1564152930577,1,2.64,0.97,0.35,1.48,1.1,0.61,-1.21,0.36,25,4,30,1.35,9227,27,89,43,38,966,660.0,532,458,60,122.0,108,1,317,206,71,0,0,947,30721,-10399,660,-5.59,,,,,,,,,,,,
185903,1564152930597,3,2.64,0.96,0.35,1.49,1.11,0.75,-1.19,0.43,26,3,32,1.41,9191,27,89,43,38,948,657.0,552,468,60,123.0,108,1,317,206,71,0,0,947,30721,3543,656,-5.59,,,,,,,,,,,,
185923,1564152930607,2,2.64,0.96,0.35,1.49,1.11,0.82,-1.15,0.49,26,3,33,1.41,9093,27,89,43,38,927,655.0,563,468,60,123.0,108,1,317,205,71,0,0,665,19304,16118,656,-5.59,,,,,,,,,,,,
185943,1564152930627,3,2.65,0.97,0.35,1.49,1.11,0.9,-1.14,0.45,26,2,33,1.45,9049,27,89,43,38,906,648.0,581,460,60,122.0,108,1,317,205,71,0,0,673,19304,-388,648,-5.59,44.681076,10.025055,64.65,176.9,0,0.0,-1,0.0,0.0,0,0.88,3.0991
185963,1564152930647,2,2.65,0.97,0.35,1.48,1.1,1.01,-1.15,0.44,25,-0,34,1.53,9040,27,89,43,38,900,647.0,597,467,60,121.0,108,1,317,205,71,0,0,661,28675,-26380,648,-5.59,,,,,,,,,,,,
185983,1564152930667,1,2.65,0.97,0.35,1.48,1.11,1.11,-1.1,0.49,25,-2,34,1.56,9031,27,89,43,38,898,645.0,610,466,60,122.0,108,1,317,205,70,0,0,647,-28304,1549,645,-5.59,,,,,,,,,,,,
186003,1564152930703,1,2.63,0.96,0.34,1.48,1.1,1.2,-1.09,0.53,26,-2,31,1.62,9027,27,89,43,38,896,648.0,539,468,60,122.0,108,1,317,205,70,0,0,657,16529,-10346,648,-5.59,,,,,,,,,,,,
186023,1564152930723,3,2.62,0.97,0.35,1.48,1.1,1.24,-1.06,0.52,26,-3,31,1.63,8988,27,89,43,38,894,648.0,534,470,60,123.0,108,1,317,205,70,0,0,666,-28304,1549,648,-5.59,,,,,,,,,,,,
186043,1564152930743,2,2.62,0.97,0.35,1.48,1.11,1.32,-1.07,0.51,26,-4,33,1.7,9023,27,89,43,38,895,644.0,480,468,60,122.0,108,1,317,205,70,0,0,674,26688,8958,644,-5.59,44.681065,10.025046,64.66,176.9,0,0.0,-1,0.0,0.0,0,0.88,3.1007
186063,1564152930763,3,2.6,0.97,0.35,1.48,1.11,1.34,-1.05,0.56,26,-4,32,1.7,9053,27,89,43,38,895,648.0,463,475,60,123.0,108,1,317,209,70,0,0,678,17740,-388,648,-5.59,,,,,,,,,,,,
186083,1564152930783,3,2.59,0.96,0.35,1.49,1.1,1.41,-1.05,0.57,26,-5,33,1.76,9075,27,89,43,39,904,646.0,443,467,60,122.0,109,1,320,205,71,0,0,681,28675,-2830,646,-5.59,,,,,,,,,,,,
186103,1564152930793,2,2.61,0.97,0.35,1.48,1.11,1.4,-0.96,0.49,27,-3,34,1.7,9079,27,89,43,38,915,648.0,456,467,60,123.0,109,1,317,209,71,0,0,666,19621,-2345,648,-5.59,,,,,,,,,,,,
186123,1564152930813,2,2.6,0.97,0.35,1.48,1.11,1.45,-0.89,0.49,27,-4,36,1.71,9075,27,89,43,38,927,644.0,420,462,60,121.0,109,1,317,205,71,0,0,634,17740,-3578,644,-5.59,,,,,,,,,,,,
186143,1564152930833,3,2.6,0.97,0.35,1.48,1.11,1.39,-0.82,0.55,28,-5,34,1.62,9027,27,89,43,39,937,641.0,449,463,60,121.0,109,1,320,205,71,0,0,645,-3820,-388,641,-5.59,44.681046,10.025037,64.44,177.0,0,0.0,-1,0.0,0.0,0,0.88,3.1024
186163,1564152930853,1,2.61,0.96,0.35,1.49,1.11,1.4,-0.87,0.46,28,-6,35,1.65,8890,27,89,43,39,954,638.0,415,463,60,122.0,109,1,320,205,71,0,0,667,-3820,3543,638,-5.59,,,,,,,,,,,,
186183,1564152930873,2,2.6,0.97,0.35,1.49,1.11,1.42,-0.84,0.45,27,-6,34,1.65,8806,27,89,43,39,972,637.0,432,464,60,122.0,109,1,320,209,70,0,0,664,-7939,-2830,637,-5.59,,,,,,,,,,,,
186203,1564152930893,2,2.6,0.97,0.35,1.48,1.11,1.44,-0.9,0.55,26,-7,32,1.7,8848,27,89,43,39,984,637.0,420,470,60,122.0,109,1,320,209,70,0,0,660,-7939,2024,637,-5.59,,,,,,,,,,,,
186223,1564152930907,1,2.6,0.96,0.35,1.48,1.11,1.49,-0.98,0.63,25,-8,32,1.78,8886,27,89,43,39,991,635.0,398,467,60,122.0,109,1,320,209,70,0,0,644,-3820,-26380,635,-5.59,,,,,,,,,,,,
186243,1564152930927,2,2.59,0.97,0.35,1.49,1.1,1.45,-1.08,0.52,24,-7,33,1.8,8924,27,89,43,39,1000,636.0,384,464,60,122.0,109,1,320,211,70,0,0,646,-3820,8958,634,-5.59,44.681034,10.025025,63.72,177.0,0,0.0,-1,0.0,0.0,0,0.88,3.104
186263,1564152930947,1,2.59,0.97,0.35,1.49,1.11,1.41,-1.1,0.6,24,-6,32,1.79,8937,27,89,43,39,1012,634.0,397,467,60,123.0,109,1,320,211,70,0,0,650,5344,-10344,635,-5.59,,,,,,,,,,,,
186283,1564152930967,-0,2.59,0.96,0.35,1.48,1.1,1.31,-1.19,0.57,25,-4,31,1.77,8949,27,89,43,39,1020,635.0,394,469,60,122.0,109,1,320,211,70,0,0,664,-3820,31988,635,-5.59,,,,,,,,,,,,
186303,1564152930999,2,2.58,0.97,0.35,1.49,1.1,1.21,-1.27,0.55,25,-4,31,1.76,8945,27,89,43,39,1025,637.0,416,466,60,122.0,109,1,320,211,70,0,0,654,30227,-388,638,-5.59,,,,,,,,,,,,
186323,1564152931019,1,2.58,0.96,0.35,1.49,1.1,1.04,-1.33,0.52,25,-3,33,1.69,8907,27,89,43,39,1027,637.0,415,466,60,123.0,109,1,320,211,70,0,0,639,-3210,8958,637,-5.59,,,,,,,,,,,,
186343,1564152931039,0,2.56,0.97,0.35,1.48,1.11,0.98,-1.39,0.49,25,-2,32,1.7,8861,27,89,43,40,1025,635.0,401,463,60,123.0,109,1,326,211,70,0,0,644,-3210,31988,635,-5.59,44.681023,10.025014,62.97,177.1,0,0.0,-1,0.0,0.0,0,0.88,3.1057
186363,1564152931059,3,2.55,0.96,0.35,1.48,1.11,0.91,-1.36,0.51,26,-2,31,1.64,8778,28,89,43,40,1022,632.0,411,462,60,122.0,109,1,326,211,70,0,0,645,-3210,479,632,-5.59,,,,,,,,,,,,
186383,1564152931079,3,2.52,0.96,0.35,1.49,1.1,1.01,-1.34,0.47,25,-1,33,1.68,8708,28,89,43,40,1015,634.0,400,464,60,123.0,110,1,326,211,70,0,0,654,243,24583,634,-5.59,,,,,,,,,,,,
186403,1564152931091,1,2.51,0.96,0.35,1.49,1.11,1.07,-1.27,0.57,24,-3,32,1.66,8749,28,89,43,40,1008,634.0,407,466,60,123.0,110,1,326,211,70,0,0,635,30227,-3038,634,-5.59,,,,,,,,,,,,
186423,1564152931111,2,2.5,0.96,0.34,1.48,1.11,1.07,-1.22,0.61,24,-2,32,1.62,8773,28,89,43,41,1002,633.0,413,470,60,122.0,110,1,332,213,70,0,0,629,-3210,-3488,633,-5.59,,,,,,,,,,,,
186443,1564152931131,1,2.5,0.96,0.35,1.49,1.1,1.09,-1.26,0.58,23,-2,31,1.66,8769,28,89,43,41,998,634.0,401,466,60,123.0,110,1,332,213,70,0,0,635,-7939,4909,629,-5.59,44.681007,10.025001,62.33,177.1,0,0.0,-1,0.0,0.0,0,0.89,3.1074
186463,1564152931151,0,2.49,0.96,0.35,1.48,1.1,0.96,-1.26,0.49,23,-0,32,1.58,8708,28,89,43,41,998,633.0,425,461,60,121.0,110,1,332,213,70,0,0,637,-7939,-30207,631,-5.59,,,,,,,,,,,,
186483,1564152931171,3,2.49,0.96,0.34,1.49,1.1,0.88,-1.2,0.45,23,1,33,1.49,8676,28,89,43,41,998,631.0,440,463,60,122.0,110,1,332,213,70,0,0,640,5344,4909,631,-5.59,,,,,,,,,,,,
186503,1564152931205,3,2.49,0.96,0.35,1.49,1.1,0.95,-1.14,0.5,23,2,30,1.48,8664,28,89,43,41,997,632.0,454,464,60,122.0,110,1,332,213,70,0,0,633,-3210,11566,632,-5.59,,,,,,,,,,,,
186523,1564152931225,2,2.48,0.97,0.35,1.48,1.11,1.02,-1.08,0.58,22,2,30,1.49,8672,28,89,43,41,996,631.0,461,461,60,122.0,110,1,332,213,70,0,0,629,-768,6208,631,-5.59,,,,,,,,,,,,
186543,1564152931245,1,2.48,0.97,0.35,1.48,1.1,1.0,-1.12,0.59,22,2,30,1.5,8704,27,89,43,41,994,629.0,469,462,60,123.0,110,1,332,213,70,0,0,624,-768,-3584,629,-5.59,44.680996,10.024985,62.0,177.1,0,0.0,-1,0.0,0.0,0,0.89,3.1091
186563,1564152931265,2,2.47,0.96,0.35,1.48,1.1,0.89,-1.16,0.54,22,3,28,1.47,8692,24,89,43,41,990,627.0,482,465,60,122.0,110,1,332,213,70,0,0,628,-23055,966,627,-5.59,,,,,,,,,,,,
186583,1564152931285,5,2.47,0.96,0.35,1.48,1.11,0.91,-1.08,0.5,22,2,28,1.41,8636,18,89,43,39,983,627.0,500,461,60,121.0,110,1,320,209,69,0,0,630,-7939,-2830,628,-5.59,,,,,,,,,,,,
186603,1564152931298,6,2.47,0.96,0.34,1.49,1.1,1.02,-1.03,0.56,20,2,27,1.45,8522,13,89,43,37,975,623.0,514,460,60,123.0,110,1,314,201,69,0,0,627,4956,-2580,623,-5.59,,,,,,,,,,,,
186623,1564152931318,5,2.46,0.96,0.34,1.47,1.1,0.91,-1.03,0.5,20,1,27,1.37,8415,9,89,43,34,970,620.0,530,462,60,123.0,110,1,303,189,69,0,0,620,-32504,-2580,620,-5.59,,,,,,,,,,,,
186643,1564152931338,8,2.44,0.96,0.35,1.48,1.1,1.02,-1.05,0.49,19,-1,27,1.47,8318,8,89,43,32,962,618.0,544,465,60,122.0,110,1,295,177,69,0,0,603,-13043,-5120,618,-5.59,44.680984,10.024969,62.21,177.1,0,0.0,-1,0.0,0.0,0,0.89,3.1107
186663,1564152931358,11,2.44,0.96,0.34,1.49,1.1,0.93,-1.0,0.44,19,1,26,1.36,8177,8,89,43,30,946,615.0,556,465,60,123.0,110,1,286,171,69,0,0,602,3472,20993,617,-5.59,,,,,,,,,,,,
186683,1564152931378,9,2.42,0.95,0.34,1.48,1.1,1.0,-1.02,0.46,18,-1,25,1.43,8002,7,89,43,30,930,613.0,568,465,60,122.0,81,1,284,161,50,0,0,594,-32504,20993,612,-5.59,,,,,,,,,,,,
186703,1564152931398,10,2.41,0.95,0.35,1.47,1.1,1.0,-1.02,0.47,17,-2,25,1.43,7819,7,89,43,29,919,608.0,568,462,60,121.0,81,1,280,161,50,0,0,583,15649,-18357,608,-5.59,,,,,,,,,,,,
186723,1564152931408,10,2.4,0.93,0.34,1.46,1.09,1.03,-0.98,0.45,16,-2,24,1.42,7687,7,89,43,28,909,605.0,571,466,60,123.0,81,1,276,161,50,0,0,588,-4035,269,605,-5.59,,,,,,,,,,,,
186743,1564152931428,11,2.4,0.92,0.34,1.45,1.1,1.08,-0.87,0.47,16,-3,24,1.38,7503,7,89,43,28,893,602.0,565,462,60,123.0,81,1,275,160,50,0,0,586,-4035,16529,601,-5.59,44.680977,10.024953,61.88,177.1,0,0.0,-1,0.0,0.0,0,0.89,3.1124
186763,1564152931448,11,2.4,0.9,0.33,1.44,1.09,1.09,-0.77,0.38,15,0,23,1.33,7411,7,89,43,29,878,597.0,563,463,60,122.0,81,1,278,161,50,0,0,583,10432,23619,597,-5.59,,,,,,,,,,,,
186783,1564152931468,10,2.4,0.88,0.32,1.42,1.08,1.12,-0.79,0.4,14,-2,23,1.38,7402,7,89,43,28,873,592.0,560,461,60,122.0,75,1,275,160,45,0,0,563,30208,208,589,-5.59,,,,,,,,,,,,
186803,1564152931506,12,2.4,0.86,0.32,1.42,1.07,1.21,-0.76,0.39,13,-4,21,1.43,7527,7,89,43,28,868,586.0,553,463,60,122.0,75,1,275,161,45,0,0,541,-3190,-25872,586,-5.59,,,,,,,,,,,,
186823,1564152931526,11,2.4,0.85,0.32,1.41,1.07,1.26,-0.72,0.38,12,-6,20,1.45,7588,7,89,43,28,862,580.0,558,465,60,122.0,75,1,275,160,45,0,0,538,-2934,259,578,-5.59,,,,,,,,,,,,
186843,1564152931546,12,2.4,0.86,0.32,1.42,1.07,1.24,-0.64,0.35,12,-5,19,1.4,7628,7,89,43,28,857,576.0,560,463,60,123.0,75,1,276,160,45,0,0,531,-30159,1780,576,-5.59,44.680965,10.024936,60.55,177.2,0,0.0,-1,0.0,0.0,0,0.89,3.114
186863,1564152931566,12,2.4,0.87,0.32,1.42,1.07,1.18,-0.6,0.28,12,-3,18,1.32,7563,7,89,43,28,855,573.0,560,463,60,123.0,75,1,275,160,45,0,0,544,2216,-3190,569,-5.59,,,,,,,,,,,,
186883,1564152931586,12,2.39,0.87,0.32,1.41,1.07,1.11,-0.56,0.23,12,-3,17,1.25,7578,7,89,43,28,854,565.0,558,464,60,123.0,79,1,275,160,45,0,0,547,6274,-23623,565,-5.59,,,,,,,,,,,,
186903,1564152931596,10,2.4,0.86,0.32,1.41,1.08,1.08,-0.43,0.2,12,-3,15,1.16,7548,7,89,43,28,857,560.0,561,462,60,123.0,79,1,275,160,45,0,0,545,6274,1267,560,-5.59,,,,,,,,,,,,
186923,1564152931616,10,2.4,0.86,0.32,1.42,1.07,1.06,-0.41,0.16,12,-3,14,1.14,7551,7,89,43,27,863,556.0,560,462,60,124.0,79,1,272,158,45,0,0,543,-3082,2211,556,181.28,,,,,,,,,,,,
186943,1564152931636,10,2.4,0.86,0.32,1.41,1.07,0.98,-0.37,0.06,11,-2,15,1.05,7437,7,89,43,27,869,549.0,557,461,60,122.0,79,1,271,158,45,0,0,543,1780,2216,551,181.28,44.680958,10.024919,58.25,177.2,0,0.0,-1,0.0,0.0,0,0.89,3.1157
186963,1564152931656,9,2.4,0.86,0.32,1.41,1.07,0.91,-0.38,0.02,11,-2,13,0.99,7370,7,89,43,27,876,548.0,555,457,60,121.0,79,1,270,160,45,0,0,532,-30064,-28648,548,181.28,,,,,,,,,,,,
186983,1564152931676,9,2.4,0.86,0.32,1.41,1.08,0.96,-0.36,0.03,10,-2,12,1.03,7264,7,89,43,28,882,540.0,553,458,60,120.0,81,1,274,160,44,0,0,531,14504,-8186,540,-5.59,,,,,,,,,,,,
187003,1564152931696,11,2.39,0.87,0.32,1.42,1.07,1.0,-0.38,0.16,10,-3,12,1.06,7214,7,89,43,28,887,538.0,550,459,60,120.0,81,1,274,160,44,0,0,526,-32248,1780,538,181.28,,,,,,,,,,,,
187023,1564152931706,12,2.39,0.86,0.32,1.41,1.07,1.1,-0.38,0.18,10,-4,13,1.16,7219,7,89,43,29,889,534.0,548,465,60,120.0,81,1,278,230,44,0,0,521,-9212,14504,532,-5.59,,,,,,,,,,,,
187043,1564152931726,13,2.38,0.86,0.32,1.41,1.07,1.14,-0.28,0.13,10,-4,14,1.17,7233,7,89,43,30,887,530.0,547,461,60,121.0,81,1,282,216,44,0,0,511,15679,-32248,531,-5.59,44.68095,10.024902,55.88,177.2,0,0.0,-1,0.0,0.0,0,0.9,3.1174
187063,1564152931746,11,2.38,0.86,0.32,1.41,1.07,1.08,-0.26,0.09,10,-2,13,1.11,7140,7,89,43,30,886,526.0,551,465,60,122.0,81,1,281,200,44,0,0,514,-3482,2524,524,-5.59,,,,,,,,,,,,
187083,1564152931766,10,2.38,0.86,0.32,1.41,1.07,1.08,-0.3,0.11,9,-2,12,1.12,7006,7,89,43,30,885,520.0,544,462,60,121.0,95,1,281,183,50,0,0,510,-4054,2524,520,-5.59,,,,,,,,,,,,
187103,1564152931802,12,2.39,0.87,0.32,1.42,1.08,1.07,-0.33,0.15,10,-2,13,1.12,6895,7,89,43,30,886,518.0,542,467,60,120.0,95,1,281,167,50,0,0,512,6274,2088,516,-5.59,,,,,,,,,,,,
187123,1564152931822,12,2.38,0.86,0.32,1.42,1.07,1.08,-0.26,0.0,11,-1,9,1.11,6898,7,89,43,30,886,514.0,541,465,60,122.0,95,1,282,163,50,0,0,484,6274,6274,512,-5.59,,,,,,,,,,,,
187143,1564152931842,12,2.37,0.86,0.32,1.42,1.07,1.07,-0.27,0.05,10,-6,11,1.1,6993,7,89,43,31,888,505.0,534,463,60,122.0,95,1,285,164,50,0,0,446,998,32033,505,-5.59,44.680946,10.024886,53.53,177.2,0,0.0,-1,0.0,0.0,0,0.9,3.1191
187163,1564152931862,15,2.38,0.84,0.31,1.41,1.07,1.17,-0.2,0.02,10,-2,11,1.18,7131,7,89,43,31,892,502.0,536,460,60,123.0,95,1,285,164,50,0,0,429,505,15649,502,-5.59,,,,,,,,,,,,
187183,1564152931882,15,2.37,0.83,0.32,1.4,1.06,1.08,-0.21,-0.04,10,-2,10,1.1,7364,7,89,43,30,895,496.0,541,465,60,123.0,91,1,282,163,45,0,0,423,505,16648,496,-5.59,,,,,,,,,,,,
187203,1564152931892,13,2.38,0.83,0.31,1.39,1.06,0.98,-0.09,-0.13,10,-2,11,0.99,7408,7,89,43,30,897,486.0,546,461,60,123.0,91,1,282,163,45,0,0,393,32033,-3856,486,-5.59,,,,,,,,,,,,
187223,1564152931912,14,2.37,0.82,0.31,1.39,1.05,0.89,-0.08,-0.17,10,-1,11,0.89,7512,7,89,43,30,903,484.0,557,464,60,123.0,91,1,282,163,45,0,0,381,-17956,-1268,484,-5.59,,,,,,,,,,,,
187243,1564152931932,13,2.37,0.81,0.3,1.38,1.06,0.85,-0.08,-0.25,10,1,10,0.86,7434,7,89,43,30,915,479.0,559,462,60,123.0,91,1,282,163,45,0,0,398,8488,-26615,478,-5.59,44.680935,10.024871,51.56,177.3,0,0.0,-1,0.0,0.0,0,0.9,3.1207
187263,1564152931952,14,2.37,0.81,0.3,1.37,1.05,0.81,-0.13,-0.35,10,0,8,0.82,7449,7,89,43,30,925,474.0,561,465,60,123.0,91,1,282,163,45,0,0,416,2211,2211,474,-5.59,,,,,,,,,,,,
187283,1564152931972,14,2.35,0.8,0.3,1.39,1.05,0.77,-0.03,-0.44,10,1,9,0.77,7536,7,89,43,29,935,467.0,572,460,60,123.0,98,1,279,161,46,0,0,405,-26615,9517,468,-5.59,,,,,,,,,,,,
187303,1564152931992,14,2.35,0.82,0.3,1.39,1.06,0.78,-0.04,-0.39,9,1,10,0.78,7674,7,89,43,29,941,461.0,567,463,60,123.0,98,1,279,161,46,0,0,417,-8985,2524,461,-5.59,,,,,,,,,,,,
187323,1564152932002,13,2.35,0.81,0.31,1.38,1.06,0.77,-0.01,-0.4,10,2,9,0.77,7697,7,89,43,29,936,457.0,568,466,60,123.0,98,1,279,161,46,0,0,427,10305,2524,457,-5.59,,,,,,,,,,,,
187343,1564152932022,11,2.33,0.82,0.31,1.39,1.05,0.83,0.06,-0.35,10,2,9,0.83,7738,7,89,43,28,930,450.0,573,463,60,123.0,98,1,276,160,46,0,0,394,23400,-9166,450,-5.59,44.680931,10.024856,48.66,177.3,0,0.0,-1,0.0,0.0,0,0.9,3.1224
187363,1564152932042,11,2.33,0.81,0.31,1.38,1.05,0.9,-0.01,-0.26,9,3,8,0.9,7751,7,89,43,28,915,446.0,579,461,60,123.0,98,1,276,160,46,0,0,393,5600,-21792,446,-5.59,,,,,,,,,,,,
187383,1564152932062,12,2.33,0.79,0.3,1.37,1.05,0.97,-0.09,-0.2,9,2,8,0.97,7659,7,89,43,28,901,441.0,578,462,60,122.0,104,1,276,160,46,0,0,407,243,5600,441,-5.59,,,,,,,,,,,,
187403,1564152932096,13,2.33,0.78,0.29,1.37,1.04,1.03,-0.09,-0.15,7,-1,8,1.04,7709,7,89,43,28,886,432.0,579,464,60,123.0,104,1,276,160,46,0,0,413,-3856,5600,432,-5.59,,,,,,,,,,,,
187423,1564152932116,13,2.34,0.78,0.29,1.36,1.03,1.03,-0.11,-0.11,6,-1,7,1.03,7763,7,89,43,27,872,425.0,583,462,60,123.0,104,1,273,160,46,0,0,409,-8165,10541,425,-5.59,,,,,,,,,,,,
187443,1564152932136,13,2.33,0.78,0.3,1.35,1.04,1.01,-0.07,-0.09,6,-1,6,1.01,7802,7,89,43,27,871,418.0,587,463,60,123.0,104,1,274,158,46,0,0,409,7154,10392,418,-5.59,44.680923,10.024841,45.79,177.3,0,0.0,-1,0.0,0.0,0,0.9,3.124
187463,1564152932156,9,2.32,0.78,0.3,1.35,1.04,1.06,-0.01,-0.08,5,-2,5,1.06,7738,7,89,43,27,871,417.0,590,462,60,122.0,104,1,273,158,46,0,0,411,-26615,9517,417,-5.59,,,,,,,,,,,,
187483,1564152932176,9,2.32,0.78,0.29,1.35,1.03,1.13,-0.05,-0.07,4,-1,5,1.14,7731,7,89,43,27,870,411.0,593,464,60,123.0,111,1,273,158,46,0,0,412,-4059,1504,411,-5.59,,,,,,,,,,,,
187503,1564152932196,8,2.31,0.74,0.28,1.33,1.03,1.19,-0.03,0.01,4,-1,4,1.19,7662,7,89,43,27,869,408.0,593,461,60,123.0,111,1,272,158,46,0,0,410,-26615,-9166,407,-5.59,,,,,,,,,,,,
187523,1564152932208,10,2.3,0.68,0.26,1.29,0.99,1.22,-0.07,0.04,3,-2,3,1.23,7566,7,89,43,27,868,405.0,589,465,60,122.0,111,1,272,158,46,0,0,408,-9211,-9211,403,-5.59,,,,,,,,,,,,
187543,1564152932228,9,2.3,0.62,0.24,1.23,0.96,1.27,-0.06,0.09,2,-2,3,1.27,7512,7,89,43,27,868,400.0,578,464,60,122.0,111,1,272,158,46,0,0,402,6512,1504,398,-5.59,44.68092,10.024827,43.1,177.3,0,0.0,-1,0.0,0.0,0,0.9,3.1257
187563,1564152932248,8,2.3,0.57,0.22,1.2,0.92,1.35,-0.08,0.18,1,-2,2,1.35,7449,7,89,43,27,867,395.0,587,460,60,121.0,111,1,271,158,46,0,0,398,-1818,-32702,395,-5.59,,,,,,,,,,,,
187583,1564152932268,8,2.3,0.54,0.23,1.17,0.92,1.42,-0.05,0.3,0,-3,2,1.42,7411,7,89,43,28,867,393.0,575,460,60,121.0,114,1,275,160,45,0,0,398,-6656,-32702,390,-5.59,,,,,,,,,,,,
187603,1564152932301,9,2.29,0.53,0.22,1.16,0.91,1.46,-0.08,0.35,-1,-4,2,1.46,7347,7,89,43,28,866,391.0,568,466,60,122.0,114,1,274,160,45,0,0,396,-1562,1,387,-5.59,,,,,,,,,,,,
187623,1564152932321,11,2.3,0.52,0.22,1.15,0.92,1.51,-0.11,0.43,-1,-5,2,1.52,7304,7,89,43,28,866,386.0,562,462,60,123.0,114,1,274,160,45,0,0,393,-3866,-6524,381,-5.59,,,,,,,,,,,,
187643,1564152932341,9,2.3,0.51,0.21,1.13,0.91,1.47,-0.04,0.44,-1,-3,1,1.47,7270,7,89,43,28,867,384.0,561,460,60,123.0,114,1,274,160,45,0,0,390,-19126,-19126,379,-5.59,44.680916,10.024815,40.55,177.4,0,0.0,-1,0.0,0.0,0,0.9,3.1274
187663,1564152932361,8,2.31,0.5,0.2,1.13,0.89,1.33,0.04,0.27,-1,-1,1,1.33,7181,7,89,43,28,868,379.0,560,462,60,124.0,114,1,273,160,45,0,0,385,8200,-6475,378,-5.59,,,,,,,,,,,,
187683,1564152932381,5,2.31,0.48,0.23,1.12,0.89,1.22,0.12,0.18,-0,0,0,1.23,7110,7,89,43,29,869,378.0,557,463,60,123.0,114,1,277,161,43,0,0,381,2278,-18948,374,-5.59,,,,,,,,,,,,
187703,1564152932393,9,2.31,0.48,0.23,1.12,0.9,1.22,0.15,0.27,-0,-2,1,1.23,7027,7,89,43,29,870,374.0,555,462,60,122.0,114,1,277,161,43,0,0,381,1,-19126,374,-5.59,,,,,,,,,,,,
187723,1564152932413,7,2.31,0.5,0.23,1.13,0.9,1.21,0.19,0.21,-0,-1,0,1.23,6993,7,89,43,30,871,371.0,549,465,60,123.0,114,1,281,163,43,0,0,378,257,3,371,-5.59,,,,,,,,,,,,
187743,1564152932433,3,2.33,0.51,0.24,1.14,0.9,1.1,0.21,0.13,0,-1,-0,1.12,6970,7,89,43,30,871,369.0,548,464,60,122.0,114,1,281,163,43,0,0,373,-6656,1,367,-5.59,44.680908,10.024801,38.92,177.4,0,0.0,-1,0.0,0.0,0,0.91,3.1291
187763,1564152932453,8,2.34,0.53,0.24,1.16,0.92,1.13,0.19,0.2,-0,-1,0,1.14,6944,7,89,43,30,870,366.0,547,462,60,122.0,114,1,281,163,43,0,0,369,-6405,486,365,-5.59,,,,,,,,,,,,
187783,1564152932473,5,2.34,0.53,0.25,1.17,0.92,1.08,0.23,0.15,0,0,1,1.11,6883,7,89,43,31,869,363.0,541,463,60,123.0,118,1,286,164,43,0,0,365,2790,-6656,363,-5.59,,,,,,,,,,,,
187803,1564152932507,3,2.34,0.55,0.26,1.18,0.92,1.01,0.25,0.17,1,-0,1,1.04,6845,7,89,43,31,870,362.0,536,461,60,120.0,118,1,286,164,43,0,0,367,-14707,-6405,361,-5.59,,,,,,,,,,,,
187823,1564152932527,6,2.33,0.56,0.26,1.18,0.93,1.11,0.22,0.14,1,-1,2,1.13,6808,7,89,43,31,872,358.0,536,462,60,123.0,118,1,286,164,43,0,0,362,2060,230,358,-5.59,,,,,,,,,,,,
187843,1564152932547,5,2.34,0.56,0.26,1.19,0.94,1.01,0.18,0.17,1,-0,2,1.02,6715,7,89,43,32,874,357.0,530,461,60,121.0,118,1,290,166,43,0,0,361,3302,-1268,357,-5.59,44.680904,10.024791,37.27,177.4,0,0.0,-1,0.0,0.0,0,0.91,3.1307
187863,1564152932567,5,2.33,0.57,0.26,1.2,0.94,1.09,0.19,0.1,1,0,1,1.11,6677,7,89,43,32,876,354.0,527,465,60,123.0,118,1,290,166,43,0,0,355,-30454,-6458,354,-5.59,,,,,,,,,,,,
187883,1564152932587,8,2.32,0.56,0.27,1.2,0.94,1.02,0.17,0.12,1,-1,1,1.03,6644,7,89,43,33,880,350.0,524,463,60,122.0,122,1,292,171,43,0,0,352,-1246,3302,350,-5.59,,,,,,,,,,,,
187903,1564152932601,4,2.33,0.58,0.27,1.19,0.94,1.03,0.17,0.14,1,0,1,1.04,6625,7,89,43,33,885,349.0,520,462,60,123.0,122,1,292,171,43,0,0,350,6870,-30454,349,-5.59,,,,,,,,,,,,
187923,1564152932621,6,2.33,0.58,0.28,1.2,0.95,1.06,0.13,0.2,1,-1,2,1.07,6590,7,89,43,33,888,346.0,517,463,60,121.0,122,1,292,171,43,0,0,351,-10554,3183,346,-5.59,,,,,,,,,,,,
187943,1564152932641,6,2.33,0.59,0.28,1.2,0.95,1.0,0.14,0.25,1,0,2,1.01,6501,7,89,43,34,890,344.0,512,461,60,121.0,122,1,295,176,43,0,0,350,-31206,8841,344,-5.59,44.680904,10.024779,35.84,177.5,0,0.0,-1,0.0,0.0,0,0.91,3.1324
187963,1564152932661,2,2.34,0.59,0.28,1.21,0.95,1.1,0.15,0.26,0,-0,2,1.11,6452,7,89,43,34,892,341.0,512,463,60,123.0,122,1,295,176,43,0,0,345,-122,-31206,341,-5.59,,,,,,,,,,,,
187983,1564152932681,6,2.32,0.59,0.28,1.21,0.95,1.08,0.13,0.28,0,-2,2,1.09,6401,7,89,43,35,893,338.0,510,465,60,121.0,126,1,298,176,43,0,0,341,-31222,-30438,337,-5.59,,,,,,,,,,,,
188003,1564152932691,7,2.33,0.59,0.28,1.21,0.95,0.92,0.13,0.34,1,-0,2,0.93,6368,7,89,43,35,892,337.0,507,464,60,120.0,126,1,298,182,43,0,0,340,13,-10554,337,-5.59,,,,,,,,,,,,
188023,1564152932711,6,2.33,0.59,0.28,1.21,0.95,0.88,0.18,0.33,1,3,2,0.9,6328,7,89,43,35,891,335.0,502,461,60,123.0,126,1,298,182,43,0,0,336,-32559,3327,335,-5.59,,,,,,,,,,,,
188043,1564152932731,2,2.34,0.58,0.27,1.2,0.95,0.99,0.16,0.29,1,2,2,1.0,6298,7,89,43,36,889,333.0,501,462,60,124.0,126,1,301,187,43,0,0,335,170,-31222,331,-5.59,44.680897,10.024768,34.74,177.5,0,0.0,-1,0.0,0.0,0,0.91,3.134
188063,1564152932751,3,2.35,0.58,0.27,1.2,0.95,1.09,0.13,0.25,1,-1,2,1.1,6256,7,89,43,36,887,330.0,500,463,60,123.0,126,1,301,187,43,0,0,333,165,2560,330,-5.59,,,,,,,,,,,,
188083,1564152932771,5,2.35,0.59,0.28,1.21,0.95,1.09,0.13,0.23,1,-3,3,1.1,6235,7,89,43,37,886,327.0,493,465,60,123.0,134,1,304,187,44,0,0,330,165,170,327,-5.59,,,,,,,,,,,,
188103,1564152932791,5,2.36,0.6,0.27,1.22,0.95,1.0,0.1,0.21,1,-4,3,1.01,6151,7,89,43,37,886,326.0,493,466,60,122.0,134,1,304,193,44,0,0,328,160,175,326,-5.59,,,,,,,,,,,,
188123,1564152932805,6,2.35,0.6,0.28,1.22,0.95,0.88,0.07,0.25,1,-4,3,0.88,6129,7,89,43,37,885,324.0,489,463,60,122.0,134,1,304,193,44,0,0,328,-25856,-23296,323,-5.59,,,,,,,,,,,,
188143,1564152932825,6,2.35,0.6,0.27,1.22,0.95,0.74,0.03,0.27,2,-2,2,0.74,6064,7,89,43,37,884,322.0,484,465,60,123.0,134,1,304,193,44,0,0,324,145,170,322,-5.59,44.680893,10.024757,33.63,177.5,0,0.0,-1,0.0,0.0,0,0.91,3.1357
188163,1564152932845,5,2.36,0.6,0.27,1.22,0.95,0.62,0.03,0.25,2,-0,2,0.62,6048,7,89,43,38,883,320.0,481,465,60,122.0,134,1,307,199,44,0,0,321,-28416,-23296,320,-5.59,,,,,,,,,,,,
188183,1564152932865,5,2.36,0.61,0.27,1.23,0.96,0.56,0.02,0.24,2,1,2,0.56,5988,7,89,43,38,882,318.0,478,464,60,122.0,141,1,306,198,45,0,0,320,135,155,318,-5.59,,,,,,,,,,,,
188203,1564152932901,6,2.36,0.62,0.28,1.24,0.96,0.48,0.01,0.25,2,3,1,0.48,5961,7,89,43,38,881,316.0,472,462,60,122.0,141,1,304,203,45,0,0,319,-30976,-24576,316,-5.59,,,,,,,,,,,,
188223,1564152932921,5,2.36,0.62,0.29,1.24,0.97,0.37,0.01,0.26,3,3,1,0.37,5892,7,89,43,39,881,314.0,465,462,60,121.0,141,1,303,203,45,0,0,317,125,150,314,-5.59,,,,,,,,,,,,
188243,1564152932941,3,2.36,0.62,0.28,1.24,0.97,0.32,-0.01,0.23,3,2,1,0.32,5870,7,89,43,40,881,312.0,461,462,60,122.0,141,1,305,203,45,0,0,312,30720,-29696,312,-5.59,44.680889,10.024747,32.38,177.5,0,0.0,-1,0.0,0.0,0,0.91,3.1374
188263,1564152932961,3,2.35,0.62,0.29,1.24,0.96,0.37,0.02,0.15,2,0,1,0.37,5808,7,89,43,40,882,309.0,461,463,60,122.0,141,1,303,204,45,0,0,309,115,-32256,310,-5.59,,,,,,,,,,,,
188283,1564152932981,2,2.36,0.63,0.28,1.25,0.96,0.53,0.06,0.1,2,-2,2,0.53,5794,7,89,43,41,884,307.0,457,462,60,123.0,146,1,308,205,45,0,0,309,110,125,307,-5.59,,,,,,,,,,,,
188303,1564152932991,6,2.35,0.63,0.29,1.26,0.97,0.68,0.07,0.08,2,-3,1,0.68,5721,7,89,43,42,885,306.0,453,464,60,123.0,146,1,308,206,45,0,0,307,105,120,306,181.28,,,,,,,,,,,,
188323,1564152933011,5,2.35,0.63,0.3,1.25,0.97,0.78,0.08,0.11,2,-1,1,0.79,5680,7,89,43,42,887,302.0,451,462,60,123.0,146,1,305,206,45,0,0,302,100,110,302,-5.59,,,,,,,,,,,,
188343,1564152933031,4,2.36,0.65,0.3,1.25,0.98,0.66,0.02,0.21,2,1,1,0.66,5666,7,89,43,43,886,301.0,446,466,60,122.0,146,1,309,208,45,0,0,303,95,29440,301,-5.59,44.680885,10.024737,31.34,177.6,0,0.0,-1,0.0,0.0,0,0.91,3.1391
188363,1564152933051,1,2.37,0.64,0.3,1.26,0.97,0.58,0.05,0.15,3,1,2,0.58,5618,7,89,43,44,886,299.0,447,464,60,121.0,146,1,310,209,45,0,0,300,90,26880,299,-5.59,,,,,,,,,,,,
188383,1564152933071,5,2.36,0.64,0.28,1.25,0.97,0.72,0.04,0.18,3,0,1,0.72,5550,7,89,43,45,884,297.0,442,462,60,122.0,148,1,310,209,44,0,0,299,85,90,296,181.28,,,,,,,,,,,,
188403,1564152933105,3,2.37,0.64,0.29,1.26,0.98,0.74,0.08,0.2,3,2,2,0.75,5524,7,89,43,45,882,294.0,442,462,60,122.0,148,1,308,210,44,0,0,295,20480,100,294,-5.59,,,,,,,,,,,,
188423,1564152933125,2,2.37,0.64,0.3,1.26,0.98,0.64,0.03,0.23,3,1,2,0.64,5500,7,89,43,46,878,293.0,438,463,60,122.0,148,1,308,212,44,0,0,293,0,24320,293,-5.59,,,,,,,,,,,,
188443,1564152933145,5,2.37,0.65,0.29,1.27,0.97,0.77,0.03,0.31,3,-0,2,0.77,5527,7,89,43,46,877,291.0,436,464,60,122.0,148,1,312,212,44,0,0,291,-16896,85,291,-5.59,44.680885,10.024728,30.34,177.6,0,0.0,-1,0.0,0.0,0,0.91,3.1407
188463,1564152933165,4,2.38,0.65,0.29,1.27,0.97,0.74,0.05,0.3,3,1,2,0.74,5488,7,89,43,47,876,287.0,433,462,60,123.0,148,1,313,214,44,0,0,290,-1529,20480,288,-5.59,,,,,,,,,,,,
188483,1564152933185,1,2.38,0.66,0.3,1.27,0.98,0.74,0.03,0.27,3,0,2,0.74,5437,7,89,43,48,875,287.0,426,465,60,122.0,157,1,313,218,45,0,0,285,1886,0,287,-5.59,,,,,,,,,,,,
188503,1564152933199,2,2.38,0.67,0.31,1.28,0.98,0.86,0.04,0.28,3,-1,2,0.86,5391,7,89,43,48,876,286.0,430,465,60,124.0,157,1,309,217,45,0,0,285,1886,0,286,-5.59,,,,,,,,,,,,
188523,1564152933219,0,2.38,0.67,0.31,1.29,0.99,0.75,-0.0,0.28,3,-1,2,0.75,5328,7,89,43,49,876,285.0,423,462,60,121.0,157,1,307,221,45,0,0,286,250,41,285,-5.59,,,,,,,,,,,,
188543,1564152933239,2,2.39,0.69,0.31,1.29,0.99,0.87,-0.03,0.27,3,-2,2,0.87,5308,7,89,43,49,879,284.0,419,463,60,122.0,157,1,305,221,45,0,0,283,-1534,10686,284,-5.59,44.680878,10.024719,29.21,177.6,0,0.0,-1,0.0,0.0,0,0.91,3.1424
188563,1564152933259,-1,2.39,0.69,0.31,1.3,0.99,0.78,-0.05,0.33,4,1,2,0.78,5293,7,89,43,50,882,283.0,414,461,60,121.0,157,1,308,224,45,0,0,283,630,-16896,282,-5.59,,,,,,,,,,,,
188583,1564152933279,2,2.39,0.69,0.31,1.29,1.0,0.91,-0.05,0.3,4,-0,2,0.91,5244,7,89,43,50,884,281.0,414,464,60,123.0,155,1,303,224,44,0,0,282,250,10686,281,-5.59,,,,,,,,,,,,
188603,1564152933299,-1,2.4,0.69,0.32,1.3,0.99,0.86,-0.07,0.38,4,2,2,0.86,5249,7,89,43,51,886,281.0,407,463,60,121.0,155,1,308,226,44,0,0,279,-1527,-16896,281,-5.59,,,,,,,,,,,,
188623,1564152933310,3,2.4,0.68,0.32,1.29,1.0,0.91,-0.06,0.33,4,-1,3,0.91,5256,7,89,43,51,886,279.0,408,461,60,122.0,155,1,309,227,44,0,0,279,28160,-1529,279,-5.59,,,,,,,,,,,,
188643,1564152933330,-0,2.41,0.69,0.31,1.29,0.99,0.85,-0.06,0.39,4,2,3,0.86,5287,7,89,43,51,887,277.0,410,463,60,122.0,155,1,311,230,44,0,0,275,-1281,24064,277,-5.59,44.680874,10.024711,28.19,177.6,0,0.0,-1,0.0,0.0,0,0.91,3.1441
188663,1564152933350,2,2.42,0.68,0.31,1.29,0.99,0.91,-0.09,0.33,4,0,3,0.92,5241,7,89,43,52,886,278.0,408,463,60,124.0,155,1,312,226,44,0,0,274,-1,250,278,-5.59,,,,,,,,,,,,
188683,1564152933370,-2,2.44,0.69,0.31,1.3,0.99,0.84,-0.11,0.45,5,2,4,0.85,5256,7,89,43,52,884,277.0,409,462,60,123.0,166,1,313,230,46,0,0,276,-1,24064,277,-5.59,,,,,,,,,,,,
188703,1564152933408,2,2.46,0.7,0.32,1.32,0.99,0.88,-0.17,0.36,5,1,4,0.9,5238,7,89,43,52,882,277.0,408,461,60,124.0,166,1,311,230,46,0,0,275,-1,24064,276,-5.59,,,,,,,,,,,,
188723,1564152933428,-1,2.47,0.7,0.31,1.32,1.0,0.82,-0.2,0.45,6,3,3,0.84,5238,7,89,43,53,880,276.0,408,464,60,122.0,166,1,315,233,46,0,0,276,-1,-1529,276,-5.59,,,,,,,,,,,,
188743,1564152933448,3,2.47,0.72,0.32,1.32,1.01,0.91,-0.25,0.43,6,2,5,0.94,5175,7,89,43,53,880,276.0,407,459,60,122.0,166,1,310,229,46,0,0,271,-1,24064,276,-5.59,44.68087,10.024702,27.85,177.6,0,0.0,-1,0.0,0.0,0,0.91,3.1457
188763,1564152933468,-2,2.48,0.73,0.32,1.34,1.0,0.82,-0.22,0.48,7,2,5,0.84,5203,7,89,43,53,879,276.0,408,463,60,121.0,166,1,312,233,46,0,0,271,-1,250,276,-5.59,,,,,,,,,,,,
188783,1564152933488,2,2.48,0.75,0.33,1.36,1.01,0.9,-0.27,0.48,8,0,6,0.94,5165,7,89,43,53,882,278.0,407,460,60,122.0,163,1,309,232,45,0,0,266,-1,10686,278,-5.59,,,,,,,,,,,,
188803,1564152933498,-1,2.49,0.75,0.33,1.36,1.03,0.82,-0.27,0.46,8,2,7,0.86,5172,7,89,43,54,883,276.0,403,466,60,122.0,163,1,315,235,45,0,0,269,-1,24064,276,-5.59,,,,,,,,,,,,
188823,1564152933518,1,2.48,0.77,0.34,1.36,1.03,0.9,-0.2,0.44,9,2,7,0.93,5117,7,89,43,53,887,277.0,406,461,60,123.0,163,1,305,231,45,0,0,268,-1,24064,277,-5.59,,,,,,,,,,,,
188843,1564152933538,-1,2.49,0.78,0.35,1.38,1.04,0.89,-0.24,0.39,9,0,8,0.92,5131,7,89,43,54,889,276.0,400,464,60,123.0,163,1,311,235,45,0,0,266,-1,250,276,-5.59,44.68087,10.024693,27.1,177.7,0,0.0,-1,0.0,0.0,0,0.92,3.1474
188863,1564152933558,-1,2.49,0.79,0.35,1.39,1.04,0.86,-0.23,0.45,10,2,8,0.89,5106,7,89,43,54,890,275.0,402,466,60,122.0,163,1,309,235,45,0,0,265,-41,24064,274,-5.59,,,,,,,,,,,,
188883,1564152933578,1,2.5,0.81,0.35,1.4,1.05,0.94,-0.29,0.46,9,1,10,0.99,5060,7,89,43,54,888,273.0,397,457,60,123.0,163,1,305,234,45,0,0,265,-10440,630,273,181.28,,,,,,,,,,,,
188903,1564152933592,-1,2.51,0.82,0.35,1.4,1.05,0.83,-0.27,0.47,10,2,11,0.87,5056,7,89,43,55,886,274.0,394,467,60,122.0,163,1,302,238,45,0,0,264,14337,1886,274,-5.59,,,,,,,,,,,,
188923,1564152933612,-1,2.51,0.82,0.36,1.41,1.06,0.88,-0.19,0.5,10,1,12,0.9,5048,7,89,43,55,882,274.0,392,461,60,122.0,163,1,301,237,45,0,0,264,506,630,274,-5.59,,,,,,,,,,,,
188943,1564152933632,3,2.51,0.83,0.36,1.41,1.07,0.93,-0.22,0.47,11,-1,13,0.95,4997,7,89,43,55,877,272.0,389,463,60,123.0,163,1,296,236,45,0,0,262,506,250,272,-5.59,44.680866,10.024684,26.67,177.7,0,0.0,-1,0.0,0.0,0,0.92,3.149
188963,1564152933652,-2,2.53,0.83,0.36,1.41,1.06,0.83,-0.23,0.47,11,1,13,0.86,4968,7,89,43,55,872,272.0,390,463,60,122.0,163,1,292,240,45,0,0,261,-1281,250,272,-5.59,,,,,,,,,,,,
188983,1564152933672,-2,2.53,0.83,0.36,1.41,1.06,0.88,-0.24,0.5,12,-0,14,0.91,4940,7,89,43,55,868,272.0,385,462,60,122.0,161,1,290,236,44,0,0,258,-1,30208,272,-5.59,,,,,,,,,,,,
189003,1564152933706,0,2.54,0.83,0.36,1.41,1.07,0.9,-0.25,0.45,13,-1,15,0.93,4913,7,89,43,56,867,273.0,382,461,60,122.0,161,1,282,236,44,0,0,257,-214,-1527,273,181.28,,,,,,,,,,,,
189023,1564152933726,3,2.55,0.83,0.35,1.41,1.06,0.84,-0.23,0.44,14,-1,16,0.87,4880,7,89,43,56,867,273.0,379,467,60,122.0,161,1,277,239,44,0,0,258,-214,30208,271,-5.59,,,,,,,,,,,,
189043,1564152933746,-0,2.56,0.84,0.36,1.41,1.07,0.82,-0.3,0.53,14,1,16,0.87,4844,7,89,43,56,866,272.0,378,464,60,122.0,161,1,274,239,44,0,0,258,10818,630,272,-5.59,44.680866,10.024675,26.91,177.7,0,0.0,-1,0.0,0.0,0,0.92,3.1507
189063,1564152933766,-1,2.57,0.85,0.37,1.42,1.07,0.91,-0.32,0.46,15,1,17,0.96,4825,7,89,43,56,867,274.0,379,463,60,123.0,161,1,272,239,44,0,0,256,10818,-1534,274,-5.59,,,,,,,,,,,,
189083,1564152933786,-1,2.58,0.86,0.36,1.42,1.07,0.98,-0.33,0.44,15,2,20,1.04,4841,7,89,43,56,867,273.0,373,460,60,120.0,160,1,274,239,44,0,0,279,16896,250,273,181.28,,,,,,,,,,,,
189103,1564152933800,1,2.6,0.88,0.37,1.43,1.07,0.9,-0.36,0.44,15,2,20,0.97,4786,7,89,43,56,868,272.0,372,460,60,122.0,160,1,266,238,44,0,0,279,10812,30208,272,-5.59,,,,,,,,,,,,
189123,1564152933820,3,2.61,0.89,0.37,1.43,1.08,0.84,-0.4,0.43,15,2,20,0.93,4799,7,89,43,56,872,272.0,373,462,60,121.0,160,1,264,243,44,0,0,279,-1494,250,272,-5.59,,,,,,,,,,,,
189143,1564152933840,-2,2.63,0.9,0.37,1.43,1.08,0.83,-0.41,0.46,16,2,19,0.92,4734,7,89,43,56,877,272.0,371,466,60,121.0,160,1,261,238,44,0,0,279,10812,30208,272,-5.59,44.680862,10.024668,26.6,177.8,0,0.0,-1,0.0,0.0,0,0.92,3.1524
189163,1564152933860,-1,2.64,0.89,0.37,1.43,1.07,0.87,-0.44,0.47,17,2,19,0.98,4715,7,89,43,57,880,274.0,371,466,60,119.0,160,1,255,243,44,0,0,28,10812,2414,274,-5.59,,,,,,,,,,,,
189183,1564152933880,-0,2.65,0.9,0.37,1.44,1.08,0.91,-0.48,0.47,19,2,22,1.03,4696,7,89,43,56,884,304.0,367,462,60,123.0,138,1,256,238,42,0,0,837,-1,-1527,304,-5.59,,,,,,,,,,,,
189203,1564152933892,-1,2.65,0.91,0.37,1.44,1.08,0.93,-0.47,0.46,20,1,24,1.04,4686,7,89,43,56,890,269.0,364,459,60,124.0,138,1,254,238,42,0,0,837,-1484,-1527,269,181.28,,,,,,,,,,,,
189223,1564152933912,0,2.65,0.9,0.37,1.45,1.08,0.91,-0.5,0.44,21,1,25,1.04,4672,7,89,43,57,896,273.0,361,462,60,123.0,138,1,251,242,42,0,0,837,-17920,630,274,-5.59,,,,,,,,,,,,
189243,1564152933932,1,2.66,0.9,0.37,1.45,1.07,0.92,-0.49,0.42,22,-0,26,1.04,4645,7,89,44,57,898,273.0,355,459,60,123.0,138,1,247,240,42,0,0,837,-17920,-1534,273,181.28,44.680862,10.024657,26.36,177.8,0,0.0,-1,0.0,0.0,0,0.92,3.154
189263,1564152933952,2,2.66,0.9,0.37,1.44,1.08,0.9,-0.48,0.43,22,-0,26,1.02,4641,7,89,44,57,899,274.0,354,461,60,124.0,138,1,247,240,42,0,0,837,-17920,-1534,274,181.28,,,,,,,,,,,,
189283,1564152933972,1,2.66,0.9,0.37,1.44,1.08,0.85,-0.48,0.49,22,1,26,0.98,4600,7,89,44,57,906,274.0,353,463,60,122.0,153,1,242,240,42,0,0,238,-1484,30208,274,-5.59,,,,,,,,,,,,
189303,1564152933992,3,2.65,0.91,0.37,1.45,1.08,0.83,-0.48,0.51,21,2,26,0.95,4589,7,89,44,57,912,272.0,354,463,60,121.0,153,1,240,239,42,0,0,238,250,28160,272,-5.59,,,,,,,,,,,,
189323,1564152934000,3,2.66,0.91,0.37,1.45,1.09,0.79,-0.48,0.53,21,3,26,0.93,4560,7,89,44,57,916,271.0,355,465,60,122.0,153,1,237,235,42,0,0,240,13468,2414,271,-5.59,,,,,,,,,,,,
189343,1564152934020,3,2.66,0.91,0.38,1.44,1.09,0.78,-0.49,0.52,21,2,25,0.92,4531,7,89,43,57,921,271.0,350,468,60,121.0,153,1,234,241,42,0,0,240,-25600,2414,271,-5.59,44.680859,10.024649,25.75,177.8,0,0.0,-1,0.0,0.0,0,0.92,3.1557
189363,1564152934040,2,2.66,0.9,0.37,1.44,1.08,0.76,-0.5,0.5,21,2,25,0.91,4474,7,89,43,57,923,270.0,347,468,60,121.0,153,1,227,241,42,0,0,240,-25600,-1,270,-5.59,,,,,,,,,,,,
189383,1564152934060,3,2.66,0.9,0.37,1.44,1.08,0.71,-0.49,0.53,21,2,25,0.86,4436,7,89,44,57,924,270.0,345,466,60,121.0,148,1,223,239,40,0,0,240,250,250,270,-5.59,,,,,,,,,,,,
189403,1564152934098,3,2.65,0.9,0.37,1.45,1.08,0.67,-0.47,0.56,21,2,25,0.82,4465,7,89,44,57,922,269.0,343,466,60,121.0,148,1,226,239,40,0,0,239,-25600,-1,269,-5.59,,,,,,,,,,,,
189423,1564152934118,2,2.65,0.9,0.37,1.44,1.08,0.64,-0.43,0.52,21,2,25,0.77,4425,7,89,44,57,919,268.0,341,470,60,122.0,148,1,219,234,40,0,0,239,250,-1281,269,-5.59,,,,,,,,,,,,
189443,1564152934138,2,2.66,0.9,0.37,1.44,1.08,0.6,-0.44,0.53,21,1,25,0.75,4395,7,89,44,57,915,269.0,335,467,60,122.0,148,1,218,233,40,0,0,238,250,-1,268,-5.59,44.680859,10.02464,25.78,177.8,0,0.0,-1,0.0,0.0,0,0.92,3.1574
189463,1564152934158,-0,2.66,0.9,0.37,1.44,1.08,0.6,-0.43,0.54,22,1,26,0.74,4433,7,89,44,57,912,267.0,338,464,60,123.0,148,1,223,234,40,0,0,237,-1483,250,267,-5.59,,,,,,,,,,,,
189483,1564152934178,-1,2.66,0.91,0.37,1.44,1.08,0.62,-0.43,0.53,22,2,27,0.75,4396,7,89,44,56,912,267.0,336,460,60,123.0,146,1,219,233,39,0,0,238,-1483,-1281,267,181.28,,,,,,,,,,,,
189503,1564152934198,-2,2.66,0.91,0.37,1.45,1.08,0.64,-0.42,0.51,22,2,27,0.76,4430,7,89,44,57,912,269.0,334,460,60,123.0,146,1,222,239,39,0,0,238,-1483,-1,269,181.28,,,,,,,,,,,,
189523,1564152934208,-1,2.66,0.91,0.37,1.45,1.08,0.66,-0.4,0.52,23,2,29,0.77,4433,7,89,44,57,912,267.0,337,462,60,123.0,146,1,223,234,39,0,0,238,13602,-1,267,414.87,,,,,,,,,,,,
189543,1564152934228,-0,2.66,0.91,0.37,1.45,1.08,0.68,-0.43,0.55,24,0,30,0.81,4443,7,89,44,57,912,265.0,337,461,60,123.0,146,1,224,234,39,0,0,237,8704,-1,265,181.28,44.680859,10.024632,25.31,177.8,0,0.0,-1,0.0,0.0,0,0.92,3.159
189563,1564152934248,-1,2.66,0.92,0.37,1.45,1.08,0.73,-0.44,0.54,25,-1,31,0.85,4451,7,89,44,57,912,265.0,337,460,60,123.0,146,1,225,234,39,0,0,236,8704,-1,265,181.28,,,,,,,,,,,,
189583,1564152934268,-1,2.65,0.91,0.37,1.45,1.08,0.77,-0.41,0.5,26,-2,33,0.87,4423,7,89,44,56,912,265.0,337,461,60,123.0,146,1,223,234,39,0,0,235,250,-1,265,181.28,,,,,,,,,,,,
189603,1564152934305,-0,2.65,0.91,0.37,1.45,1.08,0.79,-0.41,0.51,27,-3,34,0.89,4418,7,89,44,56,911,265.0,340,460,60,124.0,146,1,222,234,39,0,0,236,-1494,-1,265,-5.59,,,,,,,,,,,,
189623,1564152934325,-2,2.66,0.91,0.38,1.45,1.08,0.83,-0.44,0.52,28,-3,35,0.94,4467,8,89,43,56,910,264.0,342,465,60,124.0,146,1,228,236,39,0,0,234,-1494,-1,264,-5.59,,,,,,,,,,,,
189643,1564152934345,-2,2.66,0.92,0.37,1.45,1.08,0.87,-0.46,0.47,28,-4,35,0.98,4429,8,89,43,56,909,264.0,340,464,60,124.0,146,1,224,236,39,0,0,232,10824,-1,264,-5.59,44.680859,10.024623,25.19,177.8,0,0.0,-1,0.0,0.0,0,0.92,3.1607
189663,1564152934365,-2,2.66,0.92,0.37,1.45,1.09,0.9,-0.52,0.45,29,-4,36,1.04,4472,8,89,43,56,908,264.0,341,459,60,122.0,146,1,228,236,39,0,0,234,10824,-1,264,-5.59,,,,,,,,,,,,
189683,1564152934385,-1,2.65,0.92,0.37,1.46,1.09,0.93,-0.51,0.43,29,-5,37,1.06,4461,8,89,43,56,907,263.0,342,462,60,122.0,152,1,227,236,40,0,0,235,10824,-1,263,-5.59,,,,,,,,,,,,
189703,1564152934395,-1,2.66,0.93,0.37,1.46,1.09,0.97,-0.5,0.4,29,-5,37,1.09,4468,8,89,43,56,905,262.0,345,466,60,123.0,152,1,228,241,40,0,0,231,18432,-1,262,-5.59,,,,,,,,,,,,
189723,1564152934415,-2,2.65,0.92,0.38,1.45,1.09,0.99,-0.49,0.36,28,-5,37,1.1,4474,8,89,43,56,903,261.0,342,458,60,122.0,152,1,229,236,40,0,0,233,18432,-1,261,-5.59,,,,,,,,,,,,
189743,1564152934435,-2,2.65,0.92,0.38,1.45,1.09,1.0,-0.5,0.38,28,-5,37,1.12,4431,8,89,43,56,902,261.0,343,459,60,122.0,152,1,224,241,40,0,0,231,18432,-1,261,-5.59,44.680859,10.024613,24.83,177.7,0,0.0,-1,0.0,0.0,0,0.92,3.1624
189763,1564152934455,-1,2.65,0.92,0.37,1.46,1.08,1.01,-0.5,0.36,27,-3,35,1.13,4421,8,89,43,56,902,261.0,343,460,60,121.0,152,1,223,236,40,0,0,231,250,-1,261,-5.59,,,,,,,,,,,,
189783,1564152934475,-2,2.65,0.92,0.38,1.46,1.09,1.01,-0.48,0.35,26,-2,34,1.12,4472,11,89,43,56,903,260.0,341,464,60,121.0,153,1,228,241,40,0,0,232,250,-1,260,-5.59,,,,,,,,,,,,
189803,1564152934491,0,2.65,0.92,0.38,1.46,1.09,1.0,-0.52,0.38,26,-2,33,1.13,4454,12,89,43,57,904,259.0,341,465,60,121.0,153,1,225,241,40,0,0,231,250,-1,259,-5.59,,,,,,,,,,,,
189823,1564152934511,-2,2.66,0.91,0.38,1.45,1.08,1.0,-0.54,0.35,26,-1,32,1.14,4525,12,89,43,58,906,259.0,340,463,60,121.0,153,1,231,246,40,0,0,232,-1496,-1,259,-5.59,,,,,,,,,,,,
189843,1564152934531,-0,2.65,0.91,0.37,1.45,1.09,1.01,-0.55,0.36,26,0,32,1.15,4550,12,89,44,59,910,258.0,345,465,60,120.0,153,1,232,248,40,0,0,230,250,-41,258,-5.59,44.680862,10.024605,25.0,177.7,0,0.0,-1,0.0,0.0,0,0.92,3.1641
189863,1564152934551,-1,2.66,0.92,0.38,1.45,1.09,0.99,-0.56,0.36,26,1,31,1.14,4557,12,89,44,59,917,258.0,345,468,60,123.0,153,1,233,248,40,0,0,230,19968,-41,258,-5.59,,,,,,,,,,,,
189883,1564152934571,-2,2.66,0.92,0.38,1.45,1.09,1.01,-0.55,0.32,26,1,32,1.15,4594,12,89,43,59,924,258.0,345,472,60,122.0,166,1,237,249,43,0,0,230,10318,-1,258,-5.59,,,,,,,,,,,,
189903,1564152934605,-2,2.66,0.93,0.37,1.46,1.09,1.05,-0.56,0.32,26,1,33,1.19,4575,12,89,44,59,929,259.0,347,464,60,122.0,166,1,235,248,43,0,0,229,10318,-1,259,-5.59,,,,,,,,,,,,
189923,1564152934625,-2,2.66,0.92,0.38,1.45,1.09,1.06,-0.55,0.33,26,1,34,1.2,4579,13,89,43,60,932,257.0,347,461,60,123.0,166,1,233,254,43,0,0,229,19968,-1,257,-5.59,,,,,,,,,,,,
189943,1564152934645,-0,2.65,0.92,0.38,1.46,1.09,1.09,-0.55,0.35,27,-1,35,1.22,4636,13,89,43,61,934,257.0,350,463,60,124.0,166,1,236,255,43,0,0,230,19968,-1,257,-5.59,44.680866,10.024597,24.62,177.8,0,0.0,-1,0.0,0.0,0,0.92,3.1657
189963,1564152934665,-1,2.66,0.92,0.37,1.46,1.09,1.09,-0.54,0.37,28,-2,35,1.22,4608,13,90,44,61,934,257.0,351,463,60,124.0,166,1,233,253,43,0,0,228,19968,14337,257,181.28,,,,,,,,,,,,
189983,1564152934685,-0,2.66,0.92,0.37,1.46,1.09,1.06,-0.53,0.36,28,-3,36,1.19,4636,20,90,44,62,931,256.0,350,461,60,124.0,179,1,237,264,46,0,0,227,19968,-41,256,181.28,,,,,,,,,,,,
190003,1564152934699,1,2.65,0.92,0.37,1.46,1.09,1.0,-0.53,0.37,28,-3,35,1.13,4664,20,90,44,64,927,255.0,355,461,60,124.0,179,1,241,276,46,0,0,227,19968,-1,255,-5.59,,,,,,,,,,,,
190023,1564152934719,3,2.64,0.92,0.38,1.45,1.09,0.92,-0.5,0.37,27,-3,34,1.05,4692,20,89,44,65,922,255.0,356,463,60,123.0,179,1,245,282,46,0,0,228,250,-10440,255,-5.59,,,,,,,,,,,,
190043,1564152934739,-0,2.65,0.92,0.37,1.46,1.09,0.86,-0.52,0.42,26,-2,33,1.01,4734,20,89,44,66,917,255.0,359,462,60,122.0,179,1,249,289,46,0,0,227,250,506,255,-5.59,44.680866,10.024589,24.15,177.8,0,0.0,-1,0.0,0.0,0,0.92,3.1674
190063,1564152934759,-0,2.65,0.92,0.37,1.46,1.09,0.87,-0.53,0.43,26,-1,32,1.02,4756,20,89,43,67,916,255.0,361,463,60,121.0,179,1,252,298,46,0,0,227,-1530,-1,255,-5.59,,,,,,,,,,,,
190083,1564152934779,-2,2.65,0.92,0.38,1.46,1.09,0.94,-0.5,0.39,26,-2,33,1.06,4828,20,90,44,68,915,255.0,361,460,60,123.0,208,1,259,297,53,0,0,227,-1530,506,255,-5.59,,,,,,,,,,,,
190103,1564152934791,2,2.65,0.93,0.38,1.47,1.1,0.94,-0.49,0.39,26,-3,34,1.06,4852,25,90,44,69,913,254.0,366,460,60,124.0,208,1,261,308,53,0,0,225,-1530,-1,254,181.28,,,,,,,,,,,,
190123,1564152934811,-1,2.66,0.93,0.38,1.46,1.1,0.84,-0.49,0.42,25,-2,33,0.97,4947,26,90,44,71,911,255.0,370,466,60,123.0,208,1,269,319,53,0,0,225,15360,14337,255,-5.59,,,,,,,,,,,,
190143,1564152934831,-0,2.65,0.93,0.38,1.47,1.09,0.86,-0.48,0.47,26,-1,32,0.98,4974,26,89,44,72,911,255.0,373,463,60,121.0,208,1,271,325,53,0,0,225,1596,-1281,255,-5.59,44.680866,10.024581,23.96,177.7,0,0.0,-1,0.0,0.0,0,0.92,3.169
190163,1564152934851,2,2.65,0.93,0.38,1.46,1.1,0.92,-0.44,0.49,25,-2,33,1.02,5047,26,90,44,73,911,255.0,376,462,60,124.0,208,1,277,332,53,0,0,226,1596,-41,255,-5.59,,,,,,,,,,,,
190183,1564152934871,-0,2.64,0.93,0.38,1.46,1.09,0.8,-0.46,0.39,25,-2,34,0.92,5145,26,90,44,74,913,255.0,384,463,60,122.0,258,1,286,344,66,0,0,225,1596,-10440,255,-5.59,,,,,,,,,,,,
190203,1564152934907,2,2.63,0.94,0.38,1.47,1.1,0.89,-0.38,0.39,26,-3,33,0.97,5253,26,90,44,74,917,254.0,387,462,60,123.0,258,1,294,349,66,0,0,227,15360,-10440,254,-5.59,,,,,,,,,,,,
190223,1564152934927,-2,2.63,0.94,0.38,1.46,1.09,0.74,-0.41,0.44,26,-2,33,0.84,5389,26,90,44,74,919,254.0,397,460,60,121.0,258,1,304,353,66,0,0,226,1596,-1281,254,-5.59,,,,,,,,,,,,
190243,1564152934947,1,2.61,0.94,0.38,1.47,1.1,0.81,-0.37,0.39,25,-4,34,0.89,5452,26,90,44,73,923,253.0,403,463,60,122.0,258,1,309,351,66,0,0,225,1596,14337,254,-5.59,44.68087,10.024573,24.18,177.8,0,0.0,-1,0.0,0.0,0,0.92,3.1707
190263,1564152934967,1,2.61,0.93,0.38,1.46,1.1,0.91,-0.35,0.44,24,-4,33,0.98,5630,26,90,44,72,936,252.0,411,462,60,122.0,258,1,323,359,66,0,0,225,1596,-1,252,-5.59,,,,,,,,,,,,
190283,1564152934987,2,2.59,0.93,0.38,1.47,1.1,0.85,-0.34,0.49,24,-1,32,0.91,5799,26,90,44,71,950,252.0,422,462,60,122.0,301,1,338,353,76,0,0,229,-1530,-1,251,-5.59,,,,,,,,,,,,
190303,1564152934995,1,2.59,0.93,0.39,1.47,1.09,0.75,-0.32,0.53,24,3,31,0.82,6032,26,90,44,70,961,251.0,436,463,60,122.0,301,1,357,328,76,0,0,227,250,-1,251,-5.59,,,,,,,,,,,,
190323,1564152935015,-1,2.58,0.94,0.38,1.47,1.09,0.79,-0.33,0.54,24,5,30,0.85,6300,27,90,44,68,971,251.0,455,461,60,122.0,301,1,368,304,76,0,0,229,250,10818,251,-5.59,,,,,,,,,,,,
190343,1564152935035,1,2.58,0.94,0.38,1.47,1.1,0.87,-0.3,0.53,23,3,30,0.92,6519,27,90,44,66,988,250.0,474,463,60,124.0,301,1,383,295,76,0,0,229,19968,506,250,-5.59,44.680874,10.024566,23.83,177.8,0,0.0,-1,0.0,0.0,0,0.93,3.1724
190363,1564152935055,-0,2.57,0.94,0.38,1.47,1.1,0.78,-0.36,0.65,22,3,30,0.86,6656,27,89,44,65,1007,250.0,491,465,60,122.0,301,1,393,293,76,0,0,229,19968,-1,250,-5.59,,,,,,,,,,,,
190383,1564152935075,2,2.57,0.93,0.38,1.47,1.1,0.86,-0.32,0.62,22,2,30,0.91,6818,27,90,44,64,1018,248.0,503,464,60,124.0,298,1,403,293,74,0,0,228,250,-1,248,-5.59,,,,,,,,,,,,
190403,1564152935095,-1,2.58,0.93,0.38,1.47,1.1,0.76,-0.33,0.61,21,2,29,0.83,6993,27,90,44,62,1026,248.0,513,460,60,123.0,298,1,419,295,74,0,0,228,-1530,-214,248,-5.59,,,,,,,,,,,,
190423,1564152935109,-0,2.57,0.92,0.38,1.47,1.09,0.89,-0.38,0.65,20,-0,29,0.96,7247,27,90,44,61,1035,247.0,524,466,60,121.0,298,1,430,290,74,0,0,228,-1530,-1,247,-5.59,,,,,,,,,,,,
190443,1564152935129,-0,2.58,0.92,0.38,1.46,1.09,0.93,-0.36,0.69,20,0,28,0.99,7405,27,90,44,60,1045,247.0,546,466,60,123.0,298,1,427,287,74,0,0,229,250,10818,247,-5.59,44.680878,10.024558,23.91,177.8,0,0.0,-1,0.0,0.0,0,0.93,3.1741
190463,1564152935149,-0,2.59,0.91,0.38,1.45,1.08,0.96,-0.43,0.73,20,0,27,1.05,7615,21,90,44,58,1048,249.0,557,464,60,122.0,298,1,419,277,74,0,0,229,-1530,-1,249,-5.59,,,,,,,,,,,,
190483,1564152935169,1,2.6,0.91,0.37,1.45,1.08,0.93,-0.41,0.69,20,-0,28,1.02,7835,14,90,44,53,1048,249.0,567,462,60,123.0,311,1,387,258,77,0,0,230,19968,-1,249,-5.59,,,,,,,,,,,,
190503,1564152935205,3,2.61,0.89,0.36,1.45,1.08,0.88,-0.39,0.67,21,0,26,0.96,8040,8,90,44,48,1049,249.0,583,465,60,123.0,311,1,372,229,77,0,0,228,19968,-1,249,-5.59,,,,,,,,,,,,
190523,1564152935225,1,2.62,0.9,0.36,1.45,1.07,0.92,-0.45,0.68,21,0,26,1.02,8130,6,90,44,44,1051,249.0,595,463,60,123.0,311,1,348,213,77,0,0,229,250,10818,249,-5.59,,,,,,,,,,,,
190543,1564152935245,2,2.65,0.89,0.36,1.44,1.07,0.81,-0.43,0.62,22,1,27,0.92,8220,0,90,44,39,1052,250.0,605,462,60,123.0,311,1,314,207,77,0,0,227,-1530,-1,249,-5.59,44.680882,10.024552,23.74,177.8,0,0.0,-1,0.0,0.0,0,0.93,3.1757
190563,1564152935265,1,2.65,0.9,0.36,1.44,1.07,0.88,-0.44,0.66,22,1,26,0.98,8212,0,90,44,36,1054,250.0,608,463,60,124.0,311,1,305,192,77,0,0,226,1596,-1,250,-5.59,,,,,,,,,,,,
190583,1564152935285,2,2.67,0.92,0.37,1.46,1.08,0.81,-0.44,0.57,23,1,26,0.92,8127,0,90,44,33,1044,250.0,608,465,60,123.0,220,1,294,175,55,0,0,225,15360,-1,250,-5.59,,,,,,,,,,,,
