"Interval"|"ms"|0|0|1,"Utc"|"ms"|0|0|1,"FB_p"|"bar"|0|300|50,"Volant"|"F"|0.0|300.0|50,"xFR"|"mm"|0.0|5.0|50,"xRR"|"mm"|0.0|5.0|50,"xFL"|"mm"|0.0|5.0|50,"xRL"|"mm"|0.0|5.0|50,"AccelX"|"G"|-3.0|3.0|50,"AccelY"|"G"|-3.0|3.0|50,"AccelZ"|"G"|-3.0|3.0|50,"Yaw"|"Deg/Sec"|-120|120|50,"Pitch"|"Deg/Sec"|-120|120|50,"Roll"|"Deg/Sec"|-120|120|50,"Gsum"|"G"|0.0|3.0|50,"RPM"|""|0|14000|50,"TPS"|"%"|0|100|50,"WaterTemp"|"?C"|0|300|50,"AirTemp"|"?C"|-1000|1000|50,"MAP"|"KPa"|0|255|50,"Lambda"|""|0|1024|50,"WheelSpeed"|"MPH"|0.0|150.0|50,"OilPress"|"PSI"|0|150|50,"FuelPress"|"PSI"|0|150|50,"OilTemp"|"F"|0|300|50,"Battery"|"Volts"|0.0|20.0|50,"FuelCon"|"L/h"|-1000|1000|50,"Gear"|""|0|10|50,"Advance"|"Deg"|-360|360|50,"Injection"|"ms"|-1000|1000|50,"FuelCon"|"L/100km"|-1000|1000|50,"LC_But_Pres"|""|-1000|1000|50,"LC_Active"|""|-1000|1000|50,"RD_Speed"|""|-1000|1000|50,"RUD_Speed"|""|-1000|1000|50,"LD_Speed"|""|-1000|1000|50,"LUD_Speed"|""|-1000|1000|50,"Ana1"|"bar"|-1000.0|1000.0|50,"Latitude"|"Degrees"|-180.0|180.0|10,"Longitude"|"Degrees"|-180.0|180.0|10,"Speed"|"kph"|0.0|150.0|10,"Altitude"|"m"|0.0|4000.0|10,"LapCount"|""|0|0|10,"LapTime"|"Min"|0.0|0.0|10,"Sector"|""|0|0|10,"SectorTime"|"Min"|0.0|0.0|10,"ElapsedTime"|"Min"|0.0|0.0|10,"CurrentLap"|""|0|0|10,"Distance"|"km"|0.0|0.0|10,"SessionTime"|"Min"|0.0|0.0|10
282463,1564151629883,-1,2.5,0.93,0.32,1.4,1.07,0.75,-0.9,0.82,19,0,22,1.17,7822,25,92,42,47,842,570.0,578,462,60,122.0,112,1,370,219,64,0,0,571,-8962,15649,570,-5.59,,,,,,,,,,,,
282483,1564151629903,-1,2.5,0.94,0.32,1.4,1.08,0.83,-0.92,0.8,19,-1,24,1.24,7832,25,92,42,47,841,572.0,573,465,60,122.0,112,1,370,145,64,0,0,576,-22519,-16384,572,-5.59,,,,,,,,,,,,
282503,1564151629923,1,2.5,0.93,0.31,1.4,1.07,0.86,-0.9,0.76,19,-2,24,1.24,7805,25,92,42,47,839,573.0,573,466,60,123.0,112,1,370,219,64,0,0,571,2524,-25872,571,-5.59,,,,,,,,,,,,
282523,1564151629943,1,2.5,0.93,0.32,1.4,1.08,0.8,-0.87,0.69,19,-2,23,1.18,7864,25,92,42,47,839,574.0,570,465,60,122.0,112,1,370,145,64,0,0,569,2524,-12040,574,-5.59,,,,,,,,,,,,
282543,1564151629963,3,2.49,0.94,0.32,1.4,1.07,0.8,-0.88,0.63,19,-2,25,1.19,7911,25,92,42,47,843,571.0,567,465,60,123.0,112,1,370,219,64,0,0,569,-506,-28648,573,-5.59,44.681362,10.025015,56.08,173.5,0,0.0,-1,0.0,0.0,0,1.82,4.7091
282563,1564151629983,-0,2.51,0.94,0.32,1.4,1.07,0.9,-0.83,0.67,18,-0,27,1.23,7898,25,92,42,47,848,571.0,576,466,60,123.0,113,1,370,219,65,0,0,571,-8962,-12040,571,-5.59,,,,,,,,,,,,
282583,1564151629991,1,2.5,0.94,0.32,1.41,1.07,0.89,-0.84,0.7,18,0,25,1.22,7921,25,92,42,47,852,574.0,572,466,60,123.0,113,1,370,219,65,0,0,575,-22519,-32504,574,-5.59,,,,,,,,,,,,
282603,1564151630011,2,2.5,0.94,0.32,1.4,1.07,0.81,-0.84,0.6,19,0,25,1.17,7881,25,92,42,47,858,573.0,562,465,60,122.0,113,1,370,219,65,0,0,572,14504,-13043,573,-5.59,,,,,,,,,,,,
282623,1564151630031,3,2.49,0.94,0.32,1.4,1.08,0.82,-0.84,0.59,19,2,25,1.17,7864,25,92,42,47,868,573.0,572,463,60,122.0,113,1,370,219,65,0,0,575,14504,8488,573,-5.59,,,,,,,,,,,,
282643,1564151630051,0,2.51,0.93,0.32,1.4,1.08,0.91,-0.87,0.68,19,2,23,1.26,7911,25,92,42,46,875,574.0,569,463,60,122.0,113,1,362,219,65,0,0,574,-22519,-25872,574,-5.59,44.681351,10.025028,56.39,173.5,0,0.0,-1,0.0,0.0,0,1.82,4.7107
282663,1564151630071,1,2.51,0.93,0.31,1.4,1.08,0.92,-0.85,0.61,19,2,24,1.25,7884,25,92,42,47,879,573.0,561,464,60,123.0,113,1,370,217,65,0,0,568,-22519,-4035,573,-5.59,,,,,,,,,,,,
282683,1564151630102,2,2.51,0.93,0.32,1.4,1.07,0.89,-0.82,0.65,19,3,25,1.21,7898,25,92,42,47,882,573.0,570,466,60,122.0,113,1,370,219,65,0,0,572,14504,2048,573,-5.59,,,,,,,,,,,,
282703,1564151630122,-1,2.51,0.94,0.32,1.41,1.07,0.91,-0.8,0.75,19,2,24,1.21,7918,25,92,42,47,885,574.0,571,464,60,122.0,113,1,370,219,65,0,0,577,2104,6273,574,-5.59,,,,,,,,,,,,
282723,1564151630142,0,2.5,0.93,0.31,1.4,1.07,0.93,-0.87,0.73,19,3,24,1.27,7881,25,92,42,47,887,575.0,577,463,60,123.0,113,1,370,219,65,0,0,585,-22519,208,575,-5.59,,,,,,,,,,,,
282743,1564151630162,2,2.5,0.94,0.32,1.4,1.08,0.88,-0.86,0.64,19,3,24,1.23,7931,25,92,42,46,887,574.0,573,462,60,123.0,113,1,362,217,65,0,0,580,2104,2048,578,-5.59,44.681343,10.025042,56.17,173.5,0,0.0,-1,0.0,0.0,0,1.82,4.7124
282763,1564151630182,2,2.51,0.94,0.31,1.41,1.07,0.82,-0.86,0.65,19,3,24,1.19,7951,25,92,42,47,886,575.0,572,468,60,122.0,113,1,370,219,65,0,0,573,-8962,2048,575,-5.59,,,,,,,,,,,,
282783,1564151630202,-1,2.52,0.93,0.32,1.4,1.08,0.82,-0.92,0.73,18,2,24,1.23,7901,25,92,42,47,889,573.0,582,466,60,121.0,113,1,370,219,65,0,0,580,2524,-1894,574,-5.59,,,,,,,,,,,,
282803,1564151630222,2,2.52,0.93,0.32,1.4,1.07,0.85,-0.91,0.64,19,1,24,1.25,7924,25,92,42,46,892,577.0,579,463,60,123.0,113,1,362,217,65,0,0,583,2104,-32504,577,-5.59,,,,,,,,,,,,
282823,1564151630242,1,2.51,0.93,0.32,1.4,1.07,0.79,-0.91,0.66,19,0,24,1.2,7934,25,92,42,47,897,580.0,569,467,60,122.0,113,1,370,217,65,0,0,580,2104,-28648,579,-5.59,,,,,,,,,,,,
282843,1564151630262,-1,2.51,0.93,0.31,1.4,1.08,0.74,-0.92,0.74,19,2,25,1.18,7938,25,92,42,47,902,577.0,576,465,60,123.0,113,1,370,219,65,0,0,574,-32248,6273,577,-5.59,44.681328,10.025054,56.37,173.5,0,0.0,-1,0.0,0.0,0,1.82,4.714
282863,1564151630282,0,2.5,0.93,0.32,1.4,1.07,0.8,-0.92,0.72,19,1,24,1.22,7971,25,92,42,46,909,579.0,574,465,60,123.0,112,1,362,219,65,0,0,578,2524,-28648,579,-5.59,,,,,,,,,,,,
282883,1564151630303,1,2.51,0.94,0.31,1.4,1.07,0.77,-0.93,0.6,18,0,25,1.21,7951,25,92,42,46,920,576.0,569,466,60,122.0,112,1,362,217,65,0,0,586,-22519,-12040,576,-5.59,,,,,,,,,,,,
282903,1564151630323,3,2.5,0.94,0.32,1.4,1.07,0.73,-0.93,0.62,18,1,24,1.18,7951,25,92,42,46,924,575.0,572,465,60,122.0,112,1,362,217,65,0,0,571,14504,3472,575,-5.59,,,,,,,,,,,,
282923,1564151630343,-0,2.51,0.93,0.32,1.4,1.08,0.77,-0.94,0.63,19,-0,25,1.22,7944,25,92,42,46,930,578.0,569,462,60,124.0,112,1,362,217,65,0,0,574,6274,-28648,576,-5.59,,,,,,,,,,,,
282943,1564151630363,-0,2.51,0.93,0.32,1.4,1.07,0.79,-0.91,0.61,18,-1,25,1.2,7884,25,92,42,46,938,578.0,568,467,60,123.0,112,1,362,217,65,0,0,581,14504,-28648,578,-5.59,44.68132,10.025064,56.38,173.5,0,0.0,-1,0.0,0.0,0,1.83,4.7157
282963,1564151630383,1,2.51,0.93,0.32,1.4,1.07,0.75,-0.91,0.54,18,-1,24,1.18,7894,25,92,42,46,944,577.0,576,464,60,122.0,112,1,362,217,65,0,0,575,-32248,2048,577,-5.59,,,,,,,,,,,,
282983,1564151630402,0,2.5,0.94,0.32,1.4,1.07,0.78,-0.93,0.54,18,-1,25,1.22,7901,25,92,42,46,949,577.0,575,466,60,123.0,112,1,362,219,65,0,0,583,14504,-32504,577,-5.59,,,,,,,,,,,,
283003,1564151630422,0,2.51,0.93,0.32,1.39,1.07,0.91,-0.9,0.56,17,-1,26,1.28,7918,25,92,42,46,951,579.0,583,462,60,123.0,112,1,362,217,65,0,0,577,6274,-28648,579,-5.59,,,,,,,,,,,,
283023,1564151630442,0,2.49,0.93,0.32,1.4,1.07,0.84,-0.85,0.5,17,-2,25,1.2,7988,25,92,42,46,954,578.0,577,464,60,123.0,112,1,362,217,65,0,0,573,2104,-28648,578,-5.59,,,,,,,,,,,,
283043,1564151630462,3,2.5,0.93,0.32,1.4,1.07,0.81,-0.86,0.48,18,0,26,1.18,7999,25,92,42,46,958,578.0,583,465,60,122.0,112,1,362,217,65,0,0,578,-28648,208,580,-5.59,44.681305,10.025075,56.42,173.5,0,0.0,-1,0.0,0.0,0,1.83,4.7174
283063,1564151630482,-1,2.51,0.93,0.32,1.39,1.08,0.89,-0.8,0.51,18,1,27,1.2,7931,25,92,42,46,958,578.0,585,465,60,122.0,112,1,362,217,65,0,0,579,-28648,4956,579,-5.59,,,,,,,,,,,,
283083,1564151630502,1,2.51,0.94,0.32,1.4,1.08,0.87,-0.78,0.46,18,1,27,1.17,7965,25,92,42,46,958,579.0,585,465,60,122.0,112,1,362,217,65,0,0,577,14504,6273,579,-5.59,,,,,,,,,,,,
283103,1564151630522,3,2.5,0.94,0.32,1.4,1.07,0.86,-0.8,0.39,18,1,27,1.18,7924,25,92,42,47,958,578.0,568,468,60,123.0,112,1,370,217,65,0,0,576,2104,-13043,580,-5.59,,,,,,,,,,,,
283123,1564151630542,-1,2.51,0.92,0.32,1.4,1.08,0.87,-0.75,0.5,19,2,27,1.15,7911,25,92,43,46,957,578.0,580,465,60,124.0,112,1,362,219,65,0,0,574,6274,30227,578,-5.59,,,,,,,,,,,,
283143,1564151630562,1,2.51,0.93,0.32,1.4,1.08,0.88,-0.77,0.53,19,3,28,1.17,7944,25,92,42,46,956,578.0,567,465,60,123.0,112,1,362,217,65,0,0,578,6274,-16179,579,-5.59,44.681294,10.025084,56.5,173.5,0,0.0,-1,0.0,0.0,0,1.83,4.719
283163,1564151630582,2,2.51,0.93,0.32,1.4,1.08,0.87,-0.77,0.46,19,3,28,1.16,7965,25,92,42,47,955,577.0,568,466,60,122.0,112,1,370,217,65,0,0,577,-32248,208,577,-5.59,,,,,,,,,,,,
283183,1564151630602,-1,2.51,0.93,0.31,1.4,1.08,0.89,-0.77,0.58,19,3,27,1.17,7938,25,92,42,46,959,579.0,576,465,60,122.0,112,1,362,219,65,0,0,571,-32248,3472,579,-5.59,,,,,,,,,,,,
283203,1564151630622,0,2.5,0.93,0.32,1.4,1.08,0.91,-0.78,0.56,20,3,26,1.2,7968,25,92,42,46,965,576.0,574,463,60,123.0,112,1,362,217,65,0,0,577,2104,-13043,576,-5.59,,,,,,,,,,,,
283223,1564151630642,2,2.5,0.93,0.32,1.39,1.08,0.93,-0.81,0.45,20,3,27,1.23,7934,25,92,42,46,969,578.0,573,467,60,123.0,112,1,362,219,65,0,0,576,-28648,-28648,579,-5.59,,,,,,,,,,,,
283243,1564151630662,2,2.51,0.93,0.32,1.4,1.08,0.9,-0.81,0.48,20,2,27,1.21,7948,25,92,43,47,975,578.0,579,466,60,122.0,112,1,370,219,65,0,0,584,-32248,-12040,578,-5.59,44.681282,10.025093,56.58,173.6,0,0.0,-1,0.0,0.0,0,1.83,4.7207
283263,1564151630682,-1,2.51,0.93,0.32,1.4,1.08,0.96,-0.8,0.55,20,3,26,1.25,7999,25,92,43,46,984,580.0,584,464,60,123.0,111,1,362,217,65,0,0,574,6274,-16179,578,-5.59,,,,,,,,,,,,
283283,1564151630702,0,2.51,0.93,0.32,1.4,1.07,0.94,-0.8,0.42,20,3,26,1.24,7968,25,92,42,46,991,579.0,580,469,60,123.0,111,1,362,217,65,0,0,578,-28648,-1894,579,-5.59,,,,,,,,,,,,
283303,1564151630722,2,2.51,0.93,0.32,1.4,1.07,0.92,-0.8,0.4,20,3,27,1.22,7968,25,92,43,46,995,580.0,580,465,60,123.0,111,1,362,217,65,0,0,583,-28648,243,580,-5.59,,,,,,,,,,,,
283323,1564151630742,0,2.5,0.94,0.32,1.4,1.07,0.94,-0.79,0.49,20,4,26,1.22,8005,25,92,43,46,996,580.0,582,466,60,121.0,111,1,362,217,65,0,0,576,-9072,-16179,580,-5.59,,,,,,,,,,,,
283343,1564151630762,2,2.51,0.93,0.32,1.4,1.08,0.93,-0.77,0.42,20,3,26,1.21,7951,25,92,43,46,998,581.0,569,466,60,122.0,111,1,362,217,65,0,0,580,2524,17344,581,-5.59,44.681267,10.0251,56.44,173.6,0,0.0,-1,0.0,0.0,0,1.83,4.7224
283363,1564151630782,3,2.51,0.93,0.32,1.4,1.08,0.9,-0.77,0.44,20,3,26,1.19,7961,25,92,43,46,1000,577.0,580,462,60,122.0,112,1,362,143,65,0,0,578,-9072,-13043,580,-5.59,,,,,,,,,,,,
283383,1564151630802,-1,2.51,0.93,0.32,1.4,1.08,0.94,-0.75,0.48,21,3,26,1.21,7971,25,92,43,46,1002,580.0,572,466,60,123.0,112,1,362,217,65,0,0,580,-22263,2048,580,-5.59,,,,,,,,,,,,
283403,1564151630822,1,2.51,0.93,0.32,1.4,1.07,0.95,-0.76,0.44,20,4,25,1.21,7934,25,92,43,46,1003,581.0,569,466,60,123.0,112,1,362,217,65,0,0,582,-9072,-28648,578,-5.59,,,,,,,,,,,,
283423,1564151630842,3,2.5,0.93,0.32,1.4,1.07,0.89,-0.79,0.4,20,3,26,1.19,7924,25,92,43,46,1002,581.0,573,464,60,123.0,112,1,362,215,65,0,0,577,-28648,17344,581,-5.59,,,,,,,,,,,,
283443,1564151630862,-1,2.51,0.93,0.32,1.4,1.08,0.9,-0.77,0.46,20,3,26,1.18,7961,25,92,43,46,1000,578.0,572,467,60,122.0,112,1,362,217,65,0,0,577,-9072,2048,581,-5.59,44.681255,10.025105,56.64,173.6,0,0.0,-1,0.0,0.0,0,1.83,4.7241
283463,1564151630882,1,2.5,0.94,0.32,1.4,1.08,0.94,-0.78,0.56,20,2,25,1.22,7944,25,92,43,46,997,579.0,579,463,60,124.0,112,1,362,217,65,0,0,573,2524,17344,579,-5.59,,,,,,,,,,,,
283483,1564151630902,2,2.5,0.94,0.32,1.39,1.08,0.87,-0.76,0.49,21,1,25,1.16,7995,25,92,43,46,992,581.0,580,466,60,124.0,112,1,362,217,65,0,0,576,2524,6273,582,-5.59,,,,,,,,,,,,
283503,1564151630922,0,2.49,0.94,0.32,1.4,1.08,0.87,-0.78,0.55,21,3,25,1.17,7992,25,92,43,45,989,582.0,582,465,60,123.0,112,1,355,217,65,0,0,587,-9072,-13043,582,-5.59,,,,,,,,,,,,
283523,1564151630942,0,2.5,0.93,0.32,1.4,1.08,0.88,-0.77,0.63,21,5,26,1.17,7971,24,92,43,45,989,581.0,578,465,60,123.0,112,1,355,217,65,0,0,580,-32248,243,582,-5.59,,,,,,,,,,,,
283543,1564151630962,2,2.49,0.93,0.32,1.39,1.07,0.8,-0.75,0.55,21,4,27,1.1,8019,24,92,43,45,989,581.0,580,467,60,124.0,112,1,355,215,65,0,0,571,-28648,23619,581,-5.59,44.68124,10.025111,57.04,173.6,0,0.0,-1,0.0,0.0,0,1.83,4.7257
283563,1564151630982,3,2.49,0.94,0.32,1.4,1.08,0.8,-0.76,0.59,21,5,25,1.1,8012,24,92,43,45,995,583.0,588,463,60,122.0,112,1,355,217,65,0,0,575,-9072,-16179,579,-5.59,,,,,,,,,,,,
283583,1564151630994,-0,2.5,0.94,0.32,1.4,1.08,0.81,-0.78,0.63,21,5,25,1.13,7955,23,92,43,45,998,582.0,579,466,60,123.0,112,1,355,215,65,0,0,575,-22263,6273,582,-5.59,,,,,,,,,,,,
283603,1564151631014,2,2.49,0.94,0.32,1.4,1.08,0.77,-0.83,0.57,21,4,25,1.13,7958,22,92,43,45,1003,582.0,571,466,60,123.0,112,1,355,215,65,0,0,583,2524,23619,582,-5.59,,,,,,,,,,,,
283623,1564151631034,3,2.49,0.94,0.32,1.4,1.08,0.77,-0.83,0.59,21,4,24,1.14,7955,22,92,43,44,1006,582.0,578,466,60,122.0,112,1,347,213,65,0,0,576,6274,-16179,582,-5.59,,,,,,,,,,,,
283643,1564151631054,-0,2.5,0.93,0.32,1.4,1.08,0.82,-0.88,0.65,21,4,24,1.2,7928,22,92,43,44,1006,580.0,575,464,60,124.0,112,1,347,139,65,0,0,576,-28648,-13043,581,-5.59,44.681225,10.025115,57.1,173.6,0,0.0,-1,0.0,0.0,0,1.84,4.7274
283663,1564151631074,1,2.49,0.94,0.32,1.4,1.07,0.79,-0.87,0.61,20,2,25,1.18,7944,21,92,43,43,1006,582.0,571,465,60,123.0,110,1,340,212,64,0,0,572,2524,-13043,582,-5.59,,,,,,,,,,,,
283683,1564151631103,2,2.5,0.94,0.32,1.4,1.07,0.69,-0.9,0.59,20,2,25,1.13,7924,21,92,43,43,1005,579.0,564,465,60,122.0,110,1,340,212,64,0,0,571,-9072,17344,579,-5.59,,,,,,,,,,,,
283703,1564151631123,0,2.49,0.93,0.32,1.39,1.07,0.71,-0.96,0.62,20,2,24,1.2,7918,21,92,43,43,1004,582.0,575,462,60,123.0,110,1,340,212,64,0,0,575,-9072,-13043,582,-5.59,,,,,,,,,,,,
283723,1564151631143,1,2.49,0.93,0.32,1.4,1.07,0.76,-0.98,0.63,20,2,25,1.24,7931,21,92,43,43,1003,583.0,577,465,60,123.0,110,1,340,212,64,0,0,576,-9072,5344,583,-5.59,,,,,,,,,,,,
283743,1564151631163,1,2.49,0.93,0.32,1.4,1.07,0.7,-0.92,0.54,20,1,25,1.16,7911,21,92,43,43,1003,581.0,572,462,60,123.0,110,1,340,212,64,0,0,569,6274,-16179,580,-5.59,44.681213,10.025119,56.75,173.7,0,0.0,-1,0.0,0.0,0,1.84,4.7291
283763,1564151631183,3,2.5,0.93,0.32,1.4,1.08,0.7,-0.94,0.48,19,1,25,1.17,7918,21,92,43,43,998,580.0,584,465,60,122.0,108,1,340,212,63,0,0,571,6274,-16179,580,-5.59,,,,,,,,,,,,
283783,1564151631201,-2,2.49,0.93,0.32,1.39,1.08,0.8,-0.98,0.5,19,0,26,1.27,7944,21,92,43,42,995,579.0,582,464,60,123.0,108,1,332,212,63,0,0,570,-28648,15649,579,-5.59,,,,,,,,,,,,
283803,1564151631221,-0,2.49,0.93,0.32,1.39,1.08,0.77,-0.92,0.53,19,-1,26,1.21,7904,21,92,43,42,990,579.0,575,466,60,123.0,108,1,332,210,63,0,0,569,2524,2048,579,-5.59,,,,,,,,,,,,
283823,1564151631241,1,2.49,0.93,0.32,1.39,1.07,0.73,-0.89,0.49,19,-1,24,1.15,7918,21,92,43,42,987,578.0,576,464,60,123.0,108,1,332,210,63,0,0,571,-28648,-28648,580,-5.59,,,,,,,,,,,,
283843,1564151631261,3,2.49,0.94,0.31,1.41,1.08,0.77,-0.9,0.5,19,-1,25,1.18,7901,21,92,43,42,978,577.0,571,462,60,121.0,108,1,332,210,63,0,0,571,6274,-13043,577,-5.59,44.681198,10.02512,56.92,173.7,0,0.0,-1,0.0,0.0,0,1.84,4.7307
283863,1564151631281,0,2.48,0.93,0.32,1.4,1.07,0.89,-0.9,0.53,18,-2,25,1.26,7871,21,92,43,42,962,579.0,572,464,60,123.0,108,1,332,210,63,0,0,571,-32248,-28648,578,-5.59,,,,,,,,,,,,
283883,1564151631301,1,2.49,0.93,0.32,1.39,1.08,0.86,-0.9,0.51,18,-3,24,1.25,7914,21,92,43,42,956,578.0,571,464,60,123.0,108,1,332,210,63,0,0,569,6274,17344,578,-5.59,,,,,,,,,,,,
283903,1564151631321,2,2.49,0.93,0.32,1.4,1.08,0.82,-0.89,0.48,19,-2,25,1.21,7924,21,92,43,42,945,578.0,566,466,60,122.0,108,1,332,210,63,0,0,568,-28648,2048,578,-5.59,,,,,,,,,,,,
283923,1564151631341,0,2.48,0.93,0.32,1.4,1.08,0.87,-0.88,0.53,20,1,26,1.24,7861,21,92,43,42,935,581.0,576,467,60,122.0,108,1,332,210,63,0,0,574,6274,-13043,581,-5.59,,,,,,,,,,,,
283943,1564151631361,0,2.48,0.93,0.32,1.41,1.07,0.96,-0.87,0.61,19,0,25,1.3,7874,21,92,43,42,921,577.0,568,465,60,124.0,108,1,332,210,63,0,0,568,2104,30227,576,-5.59,44.681183,10.025121,56.68,173.7,0,0.0,-1,0.0,0.0,0,1.84,4.7324
283963,1564151631381,1,2.48,0.94,0.32,1.4,1.08,0.9,-0.89,0.58,19,-1,25,1.26,7848,21,92,43,42,910,576.0,562,465,60,123.0,107,1,332,210,62,0,0,563,-22519,-32504,576,-5.59,,,,,,,,,,,,
283983,1564151631401,2,2.48,0.93,0.32,1.4,1.07,0.83,-0.86,0.59,19,1,26,1.19,7858,21,92,43,42,906,577.0,573,465,60,122.0,107,1,332,210,62,0,0,572,-32248,-25872,577,-5.59,,,,,,,,,,,,
284003,1564151631421,3,2.49,0.94,0.32,1.4,1.08,0.82,-0.84,0.63,20,2,24,1.17,7848,21,92,43,42,900,576.0,571,464,60,122.0,107,1,332,210,62,0,0,565,6274,-12040,576,-5.59,,,,,,,,,,,,
284023,1564151631441,-1,2.49,0.93,0.32,1.4,1.08,0.89,-0.87,0.65,20,3,24,1.24,7822,21,92,43,42,897,576.0,574,463,60,121.0,107,1,332,210,62,0,0,570,2104,6273,576,-5.59,,,,,,,,,,,,
284043,1564151631461,0,2.48,0.93,0.32,1.39,1.08,0.89,-0.85,0.66,19,1,26,1.23,7855,20,92,43,41,896,575.0,577,462,60,123.0,107,1,325,208,62,0,0,565,-22519,-1894,575,-5.59,44.681168,10.025121,56.69,173.8,0,0.0,-1,0.0,0.0,0,1.84,4.734
284063,1564151631481,2,2.48,0.93,0.32,1.4,1.07,0.78,-0.82,0.65,19,0,24,1.13,7825,20,92,43,42,898,577.0,570,465,60,123.0,108,1,332,208,62,0,0,565,-8962,-32504,577,-5.59,,,,,,,,,,,,
284083,1564151631503,2,2.49,0.94,0.32,1.4,1.07,0.79,-0.87,0.54,19,1,24,1.17,7828,20,92,43,42,899,572.0,573,465,60,122.0,108,1,332,210,62,0,0,568,-22519,-1894,575,-5.59,,,,,,,,,,,,
284103,1564151631523,-0,2.48,0.94,0.32,1.4,1.08,0.9,-0.9,0.55,18,0,27,1.27,7848,20,92,43,42,901,570.0,573,464,60,123.0,108,1,332,210,62,0,0,563,2104,208,570,-5.59,,,,,,,,,,,,
284123,1564151631543,-0,2.48,0.92,0.31,1.4,1.07,0.97,-0.88,0.65,18,-1,25,1.31,7793,20,92,43,41,902,571.0,571,463,60,123.0,108,1,325,210,62,0,0,565,-22519,-25872,571,-5.59,,,,,,,,,,,,
284143,1564151631563,0,2.48,0.94,0.32,1.39,1.08,0.96,-0.88,0.65,18,-1,23,1.3,7809,19,92,43,41,902,573.0,562,464,60,124.0,108,1,325,208,62,0,0,567,14504,-25872,573,-5.59,44.681156,10.02512,56.41,173.8,0,0.0,-1,0.0,0.0,0,1.84,4.7357
284163,1564151631583,1,2.49,0.94,0.32,1.4,1.08,0.9,-0.86,0.57,19,-0,25,1.25,7802,19,92,43,42,899,573.0,559,466,60,122.0,108,1,332,208,62,0,0,560,-8962,-25872,573,-5.59,,,,,,,,,,,,
284183,1564151631603,1,2.49,0.93,0.32,1.4,1.08,0.89,-0.84,0.54,19,2,25,1.23,7760,19,92,43,42,897,574.0,564,468,60,123.0,108,1,332,210,62,0,0,560,-506,208,571,-5.59,,,,,,,,,,,,
284203,1564151631623,-0,2.48,0.94,0.32,1.39,1.07,0.96,-0.83,0.54,19,2,24,1.27,7812,19,92,43,41,893,570.0,567,465,60,123.0,108,1,325,208,62,0,0,562,2524,6273,570,-5.59,,,,,,,,,,,,
284223,1564151631643,-0,2.48,0.93,0.32,1.4,1.08,0.98,-0.85,0.6,19,2,24,1.3,7780,19,92,43,41,891,569.0,566,465,60,123.0,108,1,325,208,62,0,0,559,-8962,-1894,569,-5.59,,,,,,,,,,,,
284243,1564151631663,0,2.49,0.93,0.32,1.4,1.08,0.94,-0.84,0.63,19,1,25,1.26,7799,19,92,43,40,888,571.0,567,462,60,124.0,108,1,317,206,62,0,0,562,-506,-3210,571,-5.59,44.681145,10.025117,56.39,173.8,0,0.0,-1,0.0,0.0,0,1.85,4.7374
284263,1564151631683,0,2.49,0.93,0.32,1.39,1.08,0.86,-0.82,0.61,18,-0,24,1.19,7728,18,92,43,41,887,569.0,565,466,60,123.0,107,1,325,206,61,0,0,561,-506,15649,569,-5.59,,,,,,,,,,,,
284283,1564151631703,3,2.48,0.93,0.32,1.4,1.07,0.83,-0.82,0.52,18,-0,24,1.17,7712,18,92,43,40,886,568.0,570,465,60,122.0,107,1,317,206,61,0,0,556,-3082,-16384,571,-5.59,,,,,,,,,,,,
284303,1564151631723,3,2.48,0.93,0.32,1.4,1.08,0.85,-0.81,0.51,18,-0,26,1.18,7738,18,92,43,40,888,567.0,565,465,60,122.0,107,1,317,208,61,0,0,558,-3082,259,567,-5.59,,,,,,,,,,,,
284323,1564151631743,-1,2.49,0.94,0.32,1.4,1.08,0.93,-0.8,0.53,18,2,25,1.23,7697,18,92,43,40,889,568.0,570,465,60,123.0,107,1,317,206,61,0,0,559,-3082,30208,568,-5.59,,,,,,,,,,,,
284343,1564151631763,-1,2.49,0.93,0.32,1.4,1.08,1.0,-0.83,0.53,19,2,23,1.3,7712,18,92,43,40,889,568.0,564,466,60,124.0,107,1,317,206,61,0,0,558,-3082,-25872,569,-5.59,44.681126,10.025113,56.08,173.9,0,0.0,-1,0.0,0.0,0,1.85,4.739
284363,1564151631783,0,2.48,0.93,0.32,1.4,1.08,1.01,-0.84,0.54,19,2,25,1.32,7659,18,92,43,40,888,566.0,565,466,60,124.0,103,1,317,206,59,0,0,555,-2336,-4035,566,-5.59,,,,,,,,,,,,
284383,1564151631803,1,2.48,0.93,0.31,1.39,1.08,1.0,-0.8,0.58,19,0,26,1.28,7671,18,92,43,40,886,566.0,557,463,60,123.0,103,1,317,206,59,0,0,553,-2934,1,567,-5.59,,,,,,,,,,,,
284403,1564151631823,1,2.48,0.93,0.32,1.4,1.07,0.92,-0.79,0.62,18,-1,24,1.21,7625,18,92,43,40,883,565.0,551,463,60,123.0,103,1,317,206,59,0,0,555,1780,774,565,-5.59,,,,,,,,,,,,
284423,1564151631843,0,2.48,0.93,0.32,1.4,1.08,0.87,-0.8,0.53,18,-1,23,1.18,7649,18,92,43,40,880,565.0,554,464,60,123.0,103,1,317,206,59,0,0,553,-8186,-16384,565,-5.59,,,,,,,,,,,,
284443,1564151631863,2,2.48,0.93,0.32,1.39,1.08,0.79,-0.77,0.47,19,0,25,1.1,7597,18,92,43,40,877,564.0,548,467,60,123.0,103,1,317,132,59,0,0,555,-8186,1,566,-5.59,44.681114,10.025108,56.02,173.9,0,0.0,-1,0.0,0.0,0,1.85,4.7407
284463,1564151631883,2,2.48,0.94,0.32,1.4,1.08,0.75,-0.68,0.44,19,1,25,1.01,7628,18,92,43,40,876,564.0,560,465,60,122.0,104,1,317,206,59,0,0,555,-2934,30208,564,-5.59,,,,,,,,,,,,
284483,1564151631903,4,2.48,0.94,0.32,1.4,1.08,0.72,-0.7,0.43,19,1,23,1.0,7637,18,92,43,40,873,565.0,556,465,60,121.0,104,1,317,206,59,0,0,551,-28648,-8188,565,-5.59,,,,,,,,,,,,
284503,1564151631923,3,2.48,0.94,0.32,1.39,1.08,0.74,-0.75,0.39,19,1,24,1.06,7615,18,92,43,40,871,563.0,559,464,60,123.0,104,1,317,206,59,0,0,551,6274,243,563,-5.59,,,,,,,,,,,,
284523,1564151631943,2,2.49,0.94,0.32,1.4,1.08,0.81,-0.78,0.4,19,1,26,1.12,7646,18,92,43,40,869,560.0,556,466,60,121.0,104,1,317,206,59,0,0,551,-28648,30208,562,-5.59,,,,,,,,,,,,
284543,1564151631963,-2,2.49,0.93,0.33,1.4,1.08,0.92,-0.77,0.5,19,2,25,1.2,7628,17,92,43,40,867,560.0,566,465,60,122.0,104,1,317,206,59,0,0,549,-2934,-3210,560,-5.59,44.681103,10.025103,55.49,173.9,0,0.0,-1,0.0,0.0,0,1.85,4.7424
284563,1564151631983,-0,2.49,0.93,0.33,1.4,1.08,0.98,-0.79,0.52,19,3,23,1.26,7643,16,92,43,39,865,560.0,567,464,60,124.0,105,1,310,206,59,0,0,546,6274,259,560,-5.59,,,,,,,,,,,,
284583,1564151631995,-0,2.48,0.93,0.32,1.4,1.08,1.0,-0.8,0.57,19,2,25,1.28,7618,15,92,43,39,868,560.0,561,466,60,123.0,105,1,310,205,59,0,0,546,6274,1267,560,-5.59,,,,,,,,,,,,
284603,1564151632015,0,2.48,0.93,0.32,1.4,1.08,1.0,-0.79,0.62,19,-1,26,1.27,7631,15,92,43,38,870,562.0,560,464,60,123.0,105,1,307,205,59,0,0,544,2104,-30159,562,-5.59,,,,,,,,,,,,
284623,1564151632035,0,2.48,0.94,0.32,1.4,1.08,0.96,-0.75,0.66,19,-2,23,1.22,7557,14,92,43,38,874,559.0,555,463,60,123.0,105,1,307,200,59,0,0,549,14504,-8188,559,-5.59,,,,,,,,,,,,
284643,1564151632055,1,2.48,0.94,0.32,1.4,1.08,0.94,-0.77,0.58,18,-3,23,1.22,7575,14,92,43,38,879,559.0,554,464,60,123.0,105,1,307,194,59,0,0,546,14504,1760,559,-5.59,44.681088,10.025096,55.36,173.9,0,0.0,-1,0.0,0.0,0,1.85,4.7441
284663,1564151632075,-1,2.48,0.93,0.33,1.39,1.09,0.9,-0.77,0.53,18,-2,24,1.19,7509,14,92,43,37,886,558.0,547,465,60,123.0,100,1,304,194,56,0,0,546,14504,-3190,558,-5.59,,,,,,,,,,,,
284683,1564151632094,1,2.47,0.94,0.32,1.4,1.08,0.84,-0.71,0.52,18,-3,24,1.1,7521,13,92,43,37,892,556.0,549,466,60,123.0,100,1,304,194,56,0,0,545,-22519,-2934,556,-5.59,,,,,,,,,,,,
284703,1564151632114,0,2.48,0.94,0.32,1.4,1.08,0.77,-0.69,0.48,18,-4,22,1.03,7452,13,92,43,37,895,556.0,543,463,60,123.0,100,1,304,193,56,0,0,543,-22519,-30159,557,-5.59,,,,,,,,,,,,
284723,1564151632134,0,2.47,0.93,0.32,1.4,1.08,0.81,-0.71,0.46,18,-3,22,1.08,7473,13,92,43,36,898,554.0,544,464,60,124.0,100,1,301,187,56,0,0,543,-28648,-8186,554,-5.59,,,,,,,,,,,,
284743,1564151632154,-0,2.47,0.93,0.33,1.4,1.08,0.76,-0.67,0.47,18,-4,25,1.01,7405,13,92,43,36,899,556.0,537,463,60,123.0,100,1,301,187,56,0,0,545,-28648,774,556,-5.59,44.681076,10.025088,54.98,173.9,0,0.0,-1,0.0,0.0,0,1.85,4.7457
284763,1564151632174,1,2.47,0.93,0.32,1.39,1.08,0.74,-0.68,0.49,18,-6,23,1.01,7408,13,92,43,36,900,553.0,546,466,60,124.0,97,1,301,187,54,0,0,539,-28648,-23623,554,-5.59,,,,,,,,,,,,
284783,1564151632202,-2,2.48,0.93,0.33,1.4,1.08,0.87,-0.69,0.56,17,-6,23,1.11,7324,13,92,43,36,899,552.0,538,463,60,123.0,97,1,301,187,54,0,0,540,-28648,-2934,552,-5.59,,,,,,,,,,,,
284803,1564151632222,-0,2.46,0.93,0.32,1.39,1.08,0.97,-0.72,0.59,17,-6,24,1.21,7329,13,92,43,36,898,553.0,539,467,60,123.0,97,1,301,187,54,0,0,539,6274,-23623,553,-5.59,,,,,,,,,,,,
284823,1564151632242,1,2.46,0.93,0.32,1.4,1.07,0.99,-0.79,0.68,17,-5,24,1.26,7253,13,92,43,36,894,550.0,544,467,60,122.0,97,1,301,187,54,0,0,537,6274,2211,550,-5.59,,,,,,,,,,,,
284843,1564151632262,2,2.46,0.94,0.32,1.39,1.08,1.01,-0.78,0.66,17,-3,24,1.27,7233,13,92,43,36,886,550.0,544,465,60,122.0,97,1,301,187,54,0,0,543,2088,-3190,550,-5.59,44.681065,10.02508,54.84,173.9,0,0.0,-1,0.0,0.0,0,1.85,4.7474
284863,1564151632282,2,2.46,0.93,0.32,1.4,1.08,0.9,-0.73,0.54,18,-1,22,1.16,7211,13,92,43,37,883,550.0,541,467,60,122.0,92,1,304,193,51,0,0,539,-32248,12552,550,-5.59,,,,,,,,,,,,
284883,1564151632302,-0,2.45,0.93,0.33,1.39,1.08,0.89,-0.75,0.49,17,-3,21,1.17,7181,13,92,43,37,878,548.0,533,463,60,123.0,92,1,304,187,51,0,0,538,6274,-30159,548,-5.59,,,,,,,,,,,,
284903,1564151632322,-1,2.46,0.93,0.32,1.4,1.08,1.0,-0.78,0.48,16,-2,22,1.27,7264,13,92,43,37,875,546.0,533,465,60,123.0,92,1,304,193,51,0,0,531,10408,2524,546,-5.59,,,,,,,,,,,,
284923,1564151632342,-0,2.46,0.93,0.32,1.4,1.08,1.02,-0.81,0.52,16,-1,23,1.31,7355,13,92,43,36,869,545.0,535,465,60,122.0,92,1,301,193,51,0,0,526,-22519,-506,545,-5.59,,,,,,,,,,,,
284943,1564151632362,-1,2.46,0.94,0.33,1.39,1.09,1.1,-0.82,0.53,16,-2,24,1.37,7470,13,92,43,36,867,543.0,541,465,60,123.0,92,1,301,187,51,0,0,531,1248,-9072,540,-5.59,44.681049,10.02507,54.13,173.9,0,0.0,-1,0.0,0.0,0,1.86,4.7491
284963,1564151632382,4,2.45,0.94,0.32,1.4,1.08,1.19,-0.8,0.57,15,-2,23,1.44,7443,13,92,43,36,866,542.0,551,466,60,122.0,97,1,301,187,53,0,0,533,-8187,-22263,541,-5.59,,,,,,,,,,,,
284983,1564151632402,3,2.46,0.94,0.32,1.41,1.08,1.25,-0.77,0.59,16,-1,23,1.47,7458,13,92,43,36,866,540.0,545,465,60,122.0,97,1,301,187,53,0,0,531,1341,-9072,540,-5.59,,,,,,,,,,,,
285003,1564151632422,2,2.45,0.93,0.33,1.39,1.08,1.21,-0.82,0.6,16,1,24,1.46,7408,13,92,43,36,867,540.0,544,467,60,121.0,97,1,301,187,53,0,0,532,-8187,2104,540,-5.59,,,,,,,,,,,,
285023,1564151632442,2,2.45,0.94,0.32,1.4,1.08,1.21,-0.8,0.61,16,2,24,1.45,7419,13,92,43,35,867,541.0,542,463,60,121.0,97,1,298,187,53,0,0,527,1341,2524,541,-5.59,,,,,,,,,,,,
285043,1564151632462,2,2.45,0.94,0.32,1.39,1.08,1.18,-0.77,0.58,16,4,23,1.42,7355,12,92,43,36,868,539.0,557,466,60,122.0,97,1,301,182,53,0,0,529,1341,-22263,539,-5.59,44.681038,10.025061,53.88,173.9,0,0.0,-1,0.0,0.0,0,1.86,4.7507
285063,1564151632482,1,2.45,0.93,0.32,1.4,1.08,1.05,-0.76,0.51,17,5,21,1.29,7338,12,92,43,35,869,539.0,546,466,60,121.0,92,1,298,182,50,0,0,531,16383,14504,539,-5.59,,,,,,,,,,,,
285083,1564151632502,1,2.46,0.93,0.32,1.4,1.08,0.96,-0.71,0.41,17,5,21,1.19,7321,12,92,43,35,872,538.0,550,462,60,123.0,92,1,298,182,50,0,0,525,16383,-32248,538,-5.59,,,,,,,,,,,,
285103,1564151632522,-1,2.46,0.93,0.33,1.4,1.08,0.89,-0.66,0.37,17,4,22,1.11,7278,12,92,43,35,874,537.0,540,463,60,123.0,92,1,298,182,50,0,0,526,15679,2524,537,-5.59,,,,,,,,,,,,
285123,1564151632542,-2,2.46,0.93,0.33,1.39,1.09,0.83,-0.66,0.42,16,2,22,1.06,7256,12,92,43,35,876,536.0,539,463,60,123.0,92,1,298,182,50,0,0,526,16383,1779,536,-5.59,,,,,,,,,,,,
285143,1564151632562,-1,2.46,0.94,0.32,1.39,1.08,0.95,-0.69,0.5,16,1,21,1.18,7194,12,92,43,35,877,536.0,543,462,60,121.0,92,1,298,187,50,0,0,523,-3482,-2336,536,-5.59,44.681026,10.02505,53.23,173.9,0,0.0,-1,0.0,0.0,0,1.86,4.7524
285163,1564151632582,3,2.45,0.93,0.33,1.4,1.09,1.01,-0.71,0.51,16,2,21,1.23,7161,12,92,43,36,879,535.0,535,467,60,121.0,93,1,301,187,50,0,0,524,26178,-22519,535,-5.59,,,,,,,,,,,,
285183,1564151632602,0,2.45,0.94,0.32,1.4,1.08,0.95,-0.67,0.43,16,2,23,1.16,7151,12,92,43,36,881,533.0,531,465,60,122.0,93,1,301,187,50,0,0,525,-4054,-3082,533,-5.59,,,,,,,,,,,,
285203,1564151632622,-0,2.45,0.93,0.33,1.4,1.08,0.87,-0.64,0.42,16,2,22,1.08,7142,12,92,43,36,882,530.0,524,463,60,123.0,93,1,301,187,50,0,0,522,-4054,1780,532,-5.59,,,,,,,,,,,,
285223,1564151632642,-1,2.45,0.93,0.32,1.4,1.08,0.91,-0.67,0.47,15,-0,22,1.13,7217,11,92,43,36,885,530.0,534,465,60,123.0,93,1,301,187,50,0,0,521,-4054,-8186,529,-5.59,,,,,,,,,,,,
285243,1564151632662,2,2.45,0.93,0.32,1.4,1.08,1.02,-0.65,0.52,15,-1,22,1.21,7228,11,92,43,36,887,529.0,534,461,60,122.0,93,1,301,187,50,0,0,518,10994,14504,530,-5.59,44.681019,10.025039,53.06,173.9,0,0.0,-1,0.0,0.0,0,1.86,4.7541
285263,1564151632682,1,2.44,0.93,0.33,1.39,1.08,1.05,-0.65,0.53,15,2,21,1.24,7253,11,92,43,36,891,526.0,526,463,60,121.0,96,1,301,187,51,0,0,517,-21872,-506,526,-5.59,,,,,,,,,,,,
285283,1564151632703,0,2.44,0.94,0.33,1.39,1.08,0.92,-0.61,0.44,15,4,22,1.1,7247,11,92,43,36,894,528.0,529,467,60,123.0,96,1,301,187,51,0,0,518,-3414,1780,527,-5.59,,,,,,,,,,,,
285303,1564151632723,0,2.44,0.93,0.33,1.39,1.08,0.83,-0.57,0.41,15,4,22,1.0,7192,11,92,43,35,897,528.0,527,465,60,123.0,96,1,298,182,51,0,0,521,-28648,1779,528,-5.59,,,,,,,,,,,,
285323,1564151632743,-0,2.45,0.93,0.33,1.39,1.08,0.81,-0.56,0.48,15,1,21,0.98,7186,11,92,43,35,900,526.0,530,463,60,124.0,96,1,298,182,51,0,0,518,-28648,-30064,526,-5.59,,,,,,,,,,,,
285343,1564151632763,2,2.45,0.93,0.33,1.4,1.08,0.93,-0.59,0.57,14,0,20,1.1,7131,11,92,43,36,902,525.0,539,465,60,121.0,96,1,301,187,51,0,0,517,-28648,-28648,525,-5.59,44.681004,10.025027,52.47,173.8,0,0.0,-1,0.0,0.0,0,1.86,4.7557
285363,1564151632783,1,2.45,0.93,0.32,1.4,1.08,0.95,-0.62,0.53,15,2,20,1.13,7126,11,92,43,35,902,522.0,535,465,60,121.0,95,1,298,182,50,0,0,516,-32248,14504,522,-5.59,,,,,,,,,,,,
285383,1564151632802,-1,2.45,0.93,0.33,1.4,1.08,0.86,-0.56,0.45,15,3,20,1.03,7107,11,92,43,35,903,524.0,528,464,60,122.0,95,1,298,182,50,0,0,516,2109,-32248,524,-5.59,,,,,,,,,,,,
285403,1564151632822,-1,2.45,0.93,0.33,1.39,1.08,0.78,-0.54,0.55,14,2,20,0.95,7059,11,92,43,36,903,522.0,525,463,60,123.0,95,1,301,182,50,0,0,515,-32248,6274,522,-5.59,,,,,,,,,,,,
285423,1564151632842,3,2.44,0.93,0.32,1.4,1.09,0.9,-0.55,0.57,14,0,20,1.06,7067,11,92,43,36,904,523.0,531,467,60,122.0,95,1,301,187,50,0,0,518,15661,-30064,523,-5.59,,,,,,,,,,,,
285443,1564151632862,1,2.44,0.94,0.32,1.4,1.09,0.88,-0.49,0.45,15,2,19,1.0,7102,11,92,43,36,904,519.0,532,464,60,122.0,95,1,301,187,50,0,0,511,11560,-32248,519,-5.59,44.680996,10.025015,51.82,173.8,0,0.0,-1,0.0,0.0,0,1.86,4.7574
285463,1564151632882,-0,2.44,0.94,0.33,1.4,1.08,0.78,-0.46,0.43,14,2,18,0.9,7070,11,92,43,35,904,519.0,526,462,60,123.0,92,1,298,182,48,0,0,512,11560,-22519,519,-5.59,,,,,,,,,,,,
285483,1564151632902,3,2.44,0.94,0.33,1.39,1.07,0.87,-0.47,0.49,14,0,19,0.99,7091,11,92,43,36,904,517.0,535,465,60,120.0,92,1,301,187,48,0,0,511,-22519,-32248,517,-5.59,,,,,,,,,,,,
285503,1564151632922,1,2.43,0.93,0.33,1.4,1.08,0.87,-0.51,0.47,14,1,20,1.01,7035,11,92,43,36,905,518.0,527,466,60,122.0,92,1,301,187,48,0,0,505,-9216,-28648,518,-5.59,,,,,,,,,,,,
285523,1564151632942,-1,2.45,0.93,0.32,1.39,1.08,0.83,-0.47,0.43,14,3,19,0.95,7022,11,92,43,36,905,516.0,516,464,60,121.0,92,1,301,182,48,0,0,510,-22519,-28648,516,-5.59,,,,,,,,,,,,
285543,1564151632962,-1,2.43,0.93,0.32,1.4,1.08,0.78,-0.5,0.5,14,-0,18,0.92,7025,11,92,43,36,906,516.0,524,467,60,122.0,92,1,301,187,48,0,0,506,3,10408,516,-5.59,44.680984,10.025002,51.34,173.8,0,0.0,-1,0.0,0.0,0,1.87,4.759
285563,1564151632982,2,2.44,0.94,0.32,1.41,1.08,0.9,-0.48,0.54,14,1,18,1.02,6991,11,92,43,35,905,515.0,524,462,60,120.0,95,1,298,187,49,0,0,508,3,-9212,515,-5.59,,,,,,,,,,,,
285583,1564151632994,-1,2.44,0.93,0.32,1.4,1.07,0.83,-0.45,0.46,14,1,18,0.94,6978,10,92,43,35,905,511.0,517,462,60,123.0,95,1,298,107,49,0,0,506,3,16383,511,-5.59,,,,,,,,,,,,
285603,1564151633014,-1,2.44,0.93,0.33,1.39,1.08,0.83,-0.47,0.51,14,-0,18,0.95,6991,10,92,43,36,904,512.0,521,465,60,123.0,95,1,301,187,49,0,0,504,998,-32248,512,-5.59,,,,,,,,,,,,
285623,1564151633034,2,2.43,0.93,0.32,1.41,1.08,0.88,-0.52,0.51,14,0,19,1.02,6954,10,92,43,36,903,512.0,529,464,60,120.0,95,1,301,187,49,0,0,501,-6528,2088,512,-5.59,,,,,,,,,,,,
285643,1564151633054,-1,2.44,0.94,0.32,1.4,1.08,0.83,-0.47,0.49,14,2,18,0.95,6944,10,92,43,36,903,511.0,516,463,60,123.0,95,1,301,182,49,0,0,504,-6528,-22519,511,-5.59,44.680981,10.024989,51.15,173.8,0,0.0,-1,0.0,0.0,0,1.87,4.7607
285663,1564151633074,1,2.44,0.93,0.33,1.4,1.09,0.82,-0.49,0.51,14,-1,18,0.96,6957,10,92,43,36,903,510.0,522,465,60,123.0,96,1,301,187,49,0,0,501,248,1248,509,-5.59,,,,,,,,,,,,
285683,1564151633101,1,2.43,0.93,0.32,1.4,1.08,0.92,-0.45,0.46,14,0,18,1.02,6939,10,92,43,36,903,510.0,532,465,60,121.0,96,1,301,187,49,0,0,504,248,1248,508,-5.59,,,,,,,,,,,,
285703,1564151633121,1,2.43,0.93,0.32,1.4,1.08,0.79,-0.43,0.4,14,-0,17,0.9,6913,10,92,43,35,904,509.0,523,460,60,123.0,96,1,298,182,49,0,0,501,248,1341,508,-5.59,,,,,,,,,,,,
285723,1564151633141,1,2.43,0.93,0.33,1.4,1.08,0.87,-0.43,0.47,14,-2,18,0.97,6916,10,92,43,36,904,508.0,520,468,60,121.0,96,1,301,187,49,0,0,739,-1818,15679,504,-5.59,,,,,,,,,,,,
285743,1564151633161,0,2.42,0.94,0.32,1.4,1.08,0.87,-0.35,0.42,14,0,18,0.93,6900,10,92,43,36,903,505.0,524,465,60,123.0,96,1,301,187,49,0,0,739,505,1341,505,-5.59,44.680969,10.024976,50.62,173.8,0,0.0,-1,0.0,0.0,0,1.87,4.7624
285763,1564151633181,3,2.41,0.94,0.33,1.4,1.08,0.77,-0.34,0.54,13,-0,18,0.84,6870,9,92,43,36,901,506.0,516,463,60,124.0,94,1,301,187,48,0,0,739,-6656,-3482,506,-5.59,,,,,,,,,,,,
285783,1564151633201,1,2.42,0.93,0.33,1.39,1.08,0.89,-0.34,0.49,13,-1,17,0.96,6880,9,92,43,36,899,505.0,519,469,60,121.0,94,1,301,187,48,0,0,495,505,16383,505,-5.59,,,,,,,,,,,,
285803,1564151633221,-1,2.42,0.93,0.33,1.39,1.09,0.75,-0.29,0.49,13,-1,16,0.81,6890,9,92,43,36,896,501.0,514,465,60,123.0,94,1,301,182,48,0,0,497,505,-4054,501,-5.59,,,,,,,,,,,,
285823,1564151633241,2,2.41,0.93,0.32,1.41,1.08,0.85,-0.32,0.46,12,-1,16,0.91,6853,9,92,43,36,892,501.0,521,466,60,120.0,94,1,301,187,48,0,0,494,505,2109,501,-5.59,,,,,,,,,,,,
285843,1564151633261,-1,2.42,0.93,0.33,1.4,1.08,0.81,-0.27,0.42,12,-0,17,0.85,6830,9,92,43,36,890,498.0,510,462,60,123.0,94,1,301,187,48,0,0,498,-6441,-3482,498,-5.59,44.680962,10.024961,50.2,173.8,0,0.0,-1,0.0,0.0,0,1.87,4.764
285863,1564151633281,3,2.4,0.93,0.33,1.4,1.08,0.84,-0.27,0.53,12,-1,16,0.88,6815,9,92,43,36,886,499.0,515,466,60,122.0,96,1,301,187,48,0,0,495,-10483,-4054,499,-5.59,,,,,,,,,,,,
285883,1564151633301,-1,2.41,0.93,0.33,1.4,1.08,0.91,-0.2,0.45,12,1,15,0.93,6798,9,92,43,36,885,497.0,511,465,60,122.0,96,1,301,187,48,0,0,493,-6441,-21872,497,-5.59,,,,,,,,,,,,
285903,1564151633321,3,2.41,0.93,0.33,1.4,1.09,0.84,-0.24,0.56,11,1,15,0.87,6764,9,92,43,36,879,497.0,513,461,60,122.0,96,1,301,187,48,0,0,492,3580,2109,497,-5.59,,,,,,,,,,,,
285923,1564151633341,-1,2.41,0.93,0.33,1.4,1.08,0.91,-0.24,0.52,11,2,14,0.94,6756,9,92,43,36,876,494.0,512,465,60,121.0,96,1,301,187,48,0,0,490,-899,-22519,494,-5.59,,,,,,,,,,,,
285943,1564151633361,3,2.41,0.93,0.33,1.4,1.08,0.79,-0.25,0.53,11,0,14,0.83,6764,9,92,43,36,874,496.0,517,463,60,121.0,96,1,301,187,48,0,0,493,-899,11560,496,-5.59,44.680954,10.024947,49.67,173.8,0,0.0,-1,0.0,0.0,0,1.87,4.7657
285963,1564151633381,-0,2.41,0.93,0.32,1.4,1.08,0.88,-0.19,0.45,11,1,13,0.9,6773,9,92,43,36,872,495.0,516,466,60,121.0,97,1,301,187,48,0,0,490,-899,11560,492,-5.59,,,,,,,,,,,,
285983,1564151633403,4,2.41,0.93,0.32,1.4,1.08,0.85,-0.25,0.46,11,0,13,0.89,6718,9,92,43,36,869,491.0,517,463,60,119.0,97,1,301,187,48,0,0,486,10305,-22519,492,-5.59,,,,,,,,,,,,
286003,1564151633423,-0,2.4,0.93,0.32,1.4,1.07,0.89,-0.23,0.48,11,2,13,0.92,6708,9,92,43,36,866,492.0,510,467,60,122.0,97,1,301,187,48,0,0,489,2212,10408,492,-5.59,,,,,,,,,,,,
286023,1564151633443,3,2.41,0.93,0.32,1.41,1.08,0.88,-0.24,0.51,11,3,12,0.91,6708,9,92,43,36,866,491.0,511,467,60,121.0,97,1,301,187,48,0,0,485,-17956,10408,491,-5.59,,,,,,,,,,,,
286043,1564151633463,-1,2.41,0.93,0.32,1.4,1.08,0.93,-0.19,0.45,11,4,12,0.95,6703,9,92,43,36,865,488.0,511,461,60,122.0,97,1,301,187,48,0,0,487,-17956,-9216,488,-5.59,44.680946,10.024933,49.29,173.8,0,0.0,-1,0.0,0.0,0,1.87,4.7674
286063,1564151633483,3,2.4,0.93,0.32,1.41,1.08,0.85,-0.3,0.53,10,2,13,0.91,6663,9,92,43,36,865,486.0,513,466,60,121.0,96,1,301,187,47,0,0,484,-17956,3,487,-5.59,,,,,,,,,,,,
286083,1564151633503,-1,2.41,0.93,0.32,1.4,1.08,0.85,-0.23,0.48,11,4,11,0.88,6630,9,92,43,36,864,487.0,502,462,60,123.0,96,1,301,187,47,0,0,484,-17956,-9216,487,-5.59,,,,,,,,,,,,
286103,1564151633523,1,2.4,0.93,0.32,1.4,1.08,0.97,-0.3,0.48,10,1,12,1.01,6623,9,92,43,37,864,487.0,497,468,60,122.0,96,1,304,193,47,0,0,480,3576,-9216,487,-5.59,,,,,,,,,,,,
286123,1564151633543,3,2.4,0.93,0.32,1.4,1.08,0.84,-0.29,0.54,10,2,12,0.89,6604,8,92,43,36,863,485.0,503,463,60,122.0,96,1,301,193,47,0,0,484,-1923,1,485,-5.59,,,,,,,,,,,,
286143,1564151633563,-0,2.4,0.93,0.33,1.4,1.08,0.92,-0.29,0.45,10,3,12,0.97,6597,8,92,43,37,862,483.0,497,462,60,122.0,96,1,304,193,47,0,0,480,32033,-32768,483,-5.59,44.680943,10.024919,48.66,173.8,0,0.0,-1,0.0,0.0,0,1.87,4.7691
286163,1564151633583,1,2.4,0.93,0.32,1.4,1.08,0.89,-0.32,0.47,9,2,12,0.95,6572,8,92,43,37,858,481.0,503,462,60,122.0,99,1,304,193,48,0,0,476,-16384,-6656,481,-5.59,,,,,,,,,,,,
286183,1564151633603,-1,2.4,0.93,0.32,1.4,1.08,0.87,-0.28,0.43,9,3,11,0.92,6565,8,92,43,37,858,481.0,504,462,60,123.0,99,1,304,193,48,0,0,480,-16384,3580,481,-5.59,,,,,,,,,,,,
286203,1564151633623,1,2.4,0.93,0.31,1.4,1.08,0.94,-0.33,0.38,9,2,12,1.0,6581,8,92,43,37,855,481.0,500,466,60,121.0,99,1,304,193,48,0,0,478,-16384,505,481,-5.59,,,,,,,,,,,,
286223,1564151633643,3,2.39,0.93,0.33,1.4,1.08,0.85,-0.24,0.38,9,2,12,0.88,6551,8,92,43,37,854,479.0,501,463,60,123.0,99,1,304,193,48,0,0,475,243,505,477,-5.59,,,,,,,,,,,,
286243,1564151633663,0,2.39,0.93,0.32,1.4,1.08,0.95,-0.21,0.34,9,3,11,0.97,6519,8,92,43,37,854,477.0,497,462,60,123.0,99,1,304,193,48,0,0,476,16408,-1562,477,-5.59,44.680935,10.024904,48.09,173.8,0,0.0,-1,0.0,0.0,0,1.87,4.7707
286263,1564151633683,1,2.39,0.92,0.32,1.4,1.08,0.96,-0.3,0.34,9,2,12,1.01,6508,8,92,43,37,854,476.0,500,465,60,120.0,98,1,304,193,47,0,0,474,16408,-10483,474,-5.59,,,,,,,,,,,,
286283,1564151633703,3,2.39,0.94,0.32,1.4,1.08,0.82,-0.22,0.41,9,3,11,0.84,6485,8,92,43,37,856,474.0,497,464,60,122.0,98,1,304,193,47,0,0,470,12552,3580,473,-5.59,,,,,,,,,,,,
286303,1564151633723,-1,2.39,0.93,0.32,1.4,1.08,0.9,-0.2,0.36,9,5,10,0.92,6461,8,92,43,37,858,473.0,492,465,60,122.0,98,1,304,193,47,0,0,472,2211,8488,473,-5.59,,,,,,,,,,,,
286323,1564151633743,-0,2.39,0.93,0.32,1.4,1.08,0.96,-0.26,0.34,8,2,11,1.0,6434,8,92,43,37,861,472.0,494,466,60,121.0,98,1,304,193,47,0,0,471,6193,-899,472,-5.59,,,,,,,,,,,,
286343,1564151633763,2,2.38,0.93,0.32,1.39,1.08,0.81,-0.22,0.4,8,-0,12,0.84,6425,8,92,43,38,864,471.0,497,467,60,120.0,98,1,307,199,47,0,0,469,12552,10305,471,-5.59,44.680927,10.02489,47.74,173.8,0,0.0,-1,0.0,0.0,0,1.88,4.7724
286363,1564151633783,4,2.38,0.94,0.32,1.4,1.08,0.81,-0.2,0.4,9,2,10,0.84,6414,8,92,43,37,867,469.0,490,462,60,122.0,100,1,304,193,47,0,0,468,17628,2212,469,-5.59,,,,,,,,,,,,
286383,1564151633803,-0,2.39,0.93,0.32,1.39,1.08,0.93,-0.19,0.29,9,3,10,0.95,6392,8,92,43,38,870,468.0,487,464,60,122.0,100,1,307,199,47,0,0,470,17628,-17956,467,-5.59,,,,,,,,,,,,
286403,1564151633823,2,2.38,0.93,0.33,1.4,1.08,0.95,-0.23,0.29,8,1,10,0.98,6375,8,92,43,38,873,466.0,496,467,60,122.0,100,1,307,199,47,0,0,461,2524,32033,466,-5.59,,,,,,,,,,,,
286423,1564151633843,3,2.38,0.93,0.32,1.4,1.08,0.85,-0.17,0.31,8,1,10,0.87,6360,8,92,43,37,874,463.0,486,463,60,122.0,100,1,304,199,47,0,0,464,-8985,-16384,463,-5.59,,,,,,,,,,,,
286443,1564151633863,4,2.38,0.93,0.33,1.4,1.08,0.87,-0.16,0.3,8,2,9,0.89,6360,8,92,43,38,875,464.0,483,464,60,122.0,100,1,307,124,47,0,0,462,-8985,30272,464,-5.59,44.680923,10.024876,46.99,173.8,0,0.0,-1,0.0,0.0,0,1.88,4.774
286463,1564151633883,1,2.37,0.93,0.32,1.39,1.08,0.97,-0.18,0.22,8,1,9,0.99,6336,8,92,43,38,877,461.0,484,466,60,121.0,103,1,307,199,48,0,0,458,-8985,8488,461,-5.59,,,,,,,,,,,,
286483,1564151633903,2,2.38,0.93,0.32,1.41,1.08,0.99,-0.21,0.27,7,-1,9,1.01,6334,8,92,43,38,877,460.0,485,466,60,120.0,103,1,307,199,48,0,0,458,-6387,243,459,-5.59,,,,,,,,,,,,
286503,1564151633923,3,2.37,0.93,0.33,1.4,1.08,0.86,-0.17,0.35,7,-2,8,0.88,6294,8,92,43,38,876,460.0,481,467,60,120.0,103,1,307,199,48,0,0,460,15649,12552,460,-5.59,,,,,,,,,,,,
286523,1564151633943,4,2.37,0.93,0.33,1.4,1.08,0.81,-0.07,0.35,8,1,8,0.81,6291,8,92,43,38,878,457.0,478,466,60,123.0,103,1,307,199,48,0,0,457,-3267,12552,456,-5.59,,,,,,,,,,,,
286543,1564151633963,5,2.37,0.93,0.32,1.41,1.08,0.9,-0.07,0.35,7,3,8,0.9,6243,7,92,43,38,878,457.0,477,462,60,123.0,103,1,307,199,48,0,0,456,10305,-18108,457,-5.59,44.680916,10.024861,46.43,173.8,0,0.0,-1,0.0,0.0,0,1.88,4.7757
286563,1564151633983,1,2.37,0.93,0.32,1.4,1.08,1.01,-0.13,0.37,7,2,8,1.02,6239,7,92,43,38,876,454.0,482,465,60,122.0,103,1,307,199,47,0,0,453,2131,6193,455,-5.59,,,,,,,,,,,,
286583,1564151633995,2,2.36,0.93,0.32,1.4,1.08,1.08,-0.12,0.43,6,-0,8,1.08,6194,7,92,43,39,874,452.0,481,465,60,123.0,103,1,310,199,47,0,0,455,16648,6193,452,-5.59,,,,,,,,,,,,
286603,1564151634015,2,2.36,0.93,0.32,1.41,1.08,1.01,-0.14,0.42,6,-3,8,1.01,6192,7,92,43,39,872,454.0,483,463,60,122.0,103,1,310,204,47,0,0,453,2131,-18108,452,-5.59,,,,,,,,,,,,
286623,1564151634035,3,2.36,0.93,0.32,1.4,1.08,0.9,-0.17,0.41,5,-4,7,0.91,6117,7,92,43,39,869,452.0,480,465,60,123.0,103,1,310,204,47,0,0,452,23400,-9160,452,-5.59,,,,,,,,,,,,
286643,1564151634055,4,2.36,0.93,0.32,1.4,1.08,0.74,-0.19,0.48,5,-4,7,0.76,6171,7,92,43,39,863,450.0,473,463,60,122.0,103,1,310,204,47,0,0,451,23400,14488,450,-5.59,44.680908,10.024846,45.64,173.7,0,0.0,-1,0.0,0.0,0,1.88,4.7774
286663,1564151634075,5,2.36,0.93,0.32,1.4,1.08,0.61,-0.13,0.51,6,-3,7,0.63,6135,7,92,43,39,859,445.0,483,465,60,122.0,105,1,310,204,47,0,0,447,5600,-6387,445,-5.59,,,,,,,,,,,,
286683,1564151634102,6,2.35,0.93,0.32,1.41,1.08,0.55,-0.03,0.48,6,0,7,0.55,6149,7,92,43,39,856,445.0,473,462,60,123.0,105,1,310,204,47,0,0,445,5600,-6387,445,-5.59,,,,,,,,,,,,
286703,1564151634122,5,2.36,0.93,0.32,1.4,1.08,0.61,0.02,0.43,7,3,7,0.61,6099,7,92,43,38,855,444.0,466,464,60,122.0,105,1,307,204,47,0,0,445,5600,2131,444,-5.59,,,,,,,,,,,,
286723,1564151634142,6,2.36,0.93,0.33,1.4,1.08,0.75,0.01,0.38,7,3,7,0.75,6056,7,92,43,39,854,444.0,460,464,60,121.0,105,1,310,204,47,0,0,446,5600,-8985,444,-5.59,,,,,,,,,,,,
286743,1564151634162,6,2.36,0.93,0.33,1.4,1.08,0.85,0.02,0.34,7,5,8,0.85,5988,7,92,43,39,855,440.0,451,462,60,123.0,105,1,309,203,47,0,0,440,243,16648,439,-5.59,44.680904,10.024832,45.13,173.8,0,0.0,-1,0.0,0.0,0,1.88,4.779
286763,1564151634182,6,2.36,0.93,0.33,1.4,1.08,0.97,0.02,0.31,7,8,8,0.97,5965,7,92,43,39,857,438.0,450,465,60,124.0,104,1,307,203,46,0,0,441,243,16648,438,-5.59,,,,,,,,,,,,
286783,1564151634202,6,2.36,0.93,0.32,1.4,1.08,1.02,0.06,0.27,7,10,7,1.02,5929,7,92,43,39,858,434.0,456,463,60,124.0,104,1,305,204,46,0,0,440,3635,23400,434,-5.59,,,,,,,,,,,,
286803,1564151634222,7,2.37,0.93,0.32,1.4,1.08,1.02,0.11,0.24,8,12,7,1.03,5911,7,92,43,40,860,431.0,458,460,60,123.0,104,1,309,204,46,0,0,436,13552,5600,429,-5.59,,,,,,,,,,,,
286823,1564151634242,6,2.36,0.93,0.32,1.4,1.08,0.98,0.19,0.23,8,14,8,0.99,5903,7,92,43,40,861,429.0,457,463,60,122.0,104,1,309,205,46,0,0,431,-4082,-28332,429,-5.59,,,,,,,,,,,,
286843,1564151634262,7,2.36,0.93,0.32,1.4,1.09,0.85,0.23,0.25,8,15,9,0.88,5852,7,92,43,41,861,427.0,453,466,60,121.0,104,1,312,205,46,0,0,430,3826,20625,427,-5.59,44.680901,10.024818,44.49,173.7,0,0.0,-1,0.0,0.0,0,1.88,4.7807
286863,1564151634282,6,2.36,0.93,0.32,1.4,1.08,0.72,0.26,0.25,8,15,9,0.76,5855,7,92,43,41,861,424.0,456,463,60,123.0,105,1,312,205,45,0,0,430,-21792,-3322,424,-5.59,,,,,,,,,,,,
286883,1564151634303,5,2.36,0.93,0.32,1.4,1.08,0.58,0.21,0.24,7,14,9,0.61,5801,6,92,43,42,860,421.0,457,468,60,121.0,105,1,314,207,45,0,0,427,-8165,13180,421,-5.59,,,,,,,,,,,,
286903,1564151634323,4,2.36,0.93,0.33,1.4,1.07,0.54,0.18,0.18,7,11,9,0.57,5804,6,92,43,42,859,420.0,452,465,60,123.0,105,1,314,207,45,0,0,423,-21944,-3322,420,-5.59,,,,,,,,,,,,
286923,1564151634343,5,2.35,0.93,0.33,1.4,1.08,0.61,0.16,0.22,6,8,8,0.63,5762,6,92,43,42,857,419.0,443,466,60,122.0,105,1,311,206,45,0,0,422,2524,13552,419,-5.59,,,,,,,,,,,,
286943,1564151634363,9,2.35,0.93,0.32,1.4,1.08,0.76,0.11,0.23,6,7,7,0.76,5711,6,92,43,42,856,414.0,441,465,60,124.0,105,1,307,208,45,0,0,423,-4059,-21792,414,-5.59,44.680897,10.024804,43.19,173.7,0,0.0,-1,0.0,0.0,0,1.88,4.7824
286963,1564151634383,7,2.35,0.93,0.32,1.4,1.08,0.81,0.13,0.25,6,8,7,0.82,5669,6,92,43,43,854,412.0,441,466,60,123.0,109,1,310,208,45,0,0,418,2524,-9166,414,-5.59,,,,,,,,,,,,
286983,1564151634402,6,2.36,0.93,0.32,1.41,1.08,0.73,0.11,0.35,6,9,6,0.73,5600,6,92,43,44,851,410.0,437,463,60,122.0,109,1,309,209,45,0,0,415,-9211,18584,410,-5.59,,,,,,,,,,,,
287003,1564151634422,6,2.35,0.93,0.32,1.41,1.08,0.73,0.13,0.29,6,6,7,0.74,5572,6,92,43,44,850,409.0,424,465,60,123.0,109,1,307,209,45,0,0,410,10541,18584,409,-5.59,,,,,,,,,,,,
287023,1564151634442,8,2.35,0.93,0.33,1.4,1.08,0.86,0.08,0.31,6,4,6,0.86,5575,6,92,43,45,849,405.0,428,466,60,122.0,109,1,311,210,45,0,0,409,6512,10392,405,-5.59,,,,,,,,,,,,
287043,1564151634462,5,2.35,0.93,0.33,1.4,1.07,0.86,0.07,0.38,6,6,5,0.87,5550,6,92,43,45,851,403.0,428,465,60,123.0,109,1,310,210,45,0,0,406,6384,-26615,403,-5.59,44.680893,10.024791,42.08,173.7,0,0.0,-1,0.0,0.0,0,1.88,4.784
287063,1564151634482,6,2.35,0.93,0.33,1.4,1.08,0.8,0.05,0.31,5,6,5,0.81,5503,6,92,43,46,851,400.0,427,465,60,122.0,109,1,310,212,44,0,0,407,17144,11560,400,-5.59,,,,,,,,,,,,
287083,1564151634502,8,2.36,0.93,0.33,1.4,1.08,0.93,0.04,0.34,5,4,4,0.93,5500,6,92,43,46,851,397.0,420,463,60,121.0,109,1,310,212,44,0,0,396,-6656,28696,397,-5.59,,,,,,,,,,,,
287103,1564151634522,5,2.36,0.93,0.33,1.41,1.08,0.89,0.03,0.36,5,4,4,0.89,5472,6,92,43,46,852,394.0,420,465,60,122.0,109,1,307,214,44,0,0,399,-1562,-8151,394,-5.59,,,,,,,,,,,,
287123,1564151634542,5,2.36,0.93,0.33,1.4,1.08,0.86,0.03,0.29,5,2,4,0.86,5420,6,92,43,47,856,392.0,410,464,60,122.0,109,1,307,140,44,0,0,398,-31744,28696,392,-5.59,,,,,,,,,,,,
287143,1564151634562,5,2.37,0.93,0.33,1.4,1.09,0.94,0.05,0.25,5,3,4,0.94,5392,6,92,43,47,860,389.0,410,462,60,123.0,109,1,305,214,44,0,0,398,-31744,-3968,389,-5.59,44.680885,10.024777,41.15,173.7,0,0.0,-1,0.0,0.0,0,1.89,4.7857
287163,1564151634582,5,2.36,0.93,0.33,1.41,1.08,0.83,-0.02,0.26,5,4,3,0.83,5338,6,92,43,48,863,389.0,413,465,60,122.0,112,1,304,143,44,0,0,392,-3866,-32702,389,-5.59,,,,,,,,,,,,
287183,1564151634602,7,2.36,0.93,0.33,1.4,1.08,0.93,-0.05,0.27,4,3,4,0.93,5320,6,92,43,48,865,388.0,412,464,60,122.0,112,1,302,217,44,0,0,391,-6475,17144,388,-5.59,,,,,,,,,,,,
287203,1564151634622,5,2.36,0.93,0.33,1.41,1.08,0.93,0.0,0.3,4,5,4,0.93,5316,6,92,43,49,868,387.0,403,462,60,123.0,112,1,306,221,44,0,0,388,19125,-1562,387,-5.59,,,,,,,,,,,,
287223,1564151634642,7,2.35,0.93,0.33,1.41,1.08,0.95,0.01,0.34,4,2,4,0.95,5266,6,92,43,49,869,383.0,399,463,60,122.0,112,1,301,221,44,0,0,386,-992,-6475,383,-5.59,,,,,,,,,,,,
287243,1564151634662,5,2.36,0.93,0.33,1.41,1.08,0.91,-0.0,0.41,4,4,4,0.91,5222,6,92,43,50,869,382.0,413,467,60,122.0,112,1,301,224,44,0,0,385,-6656,240,382,-5.59,44.680885,10.024764,39.79,173.7,0,0.0,-1,0.0,0.0,0,1.89,4.7874
287263,1564151634682,7,2.36,0.93,0.33,1.4,1.08,0.99,-0.04,0.43,4,2,3,0.99,5222,6,92,43,50,868,380.0,405,457,60,122.0,115,1,301,220,44,0,0,383,742,-19019,380,-5.59,,,,,,,,,,,,
287283,1564151634702,5,2.36,0.93,0.33,1.4,1.08,0.91,-0.08,0.45,5,2,3,0.92,5224,6,92,43,50,865,377.0,403,463,60,120.0,115,1,302,224,44,0,0,382,-6656,-18948,377,-5.59,,,,,,,,,,,,
287303,1564151634722,7,2.35,0.93,0.32,1.41,1.08,0.98,-0.12,0.43,4,-0,3,0.99,5191,6,93,43,50,863,377.0,397,462,60,123.0,115,1,299,223,44,0,0,378,1,-6475,377,181.28,,,,,,,,,,,,
287323,1564151634742,5,2.36,0.93,0.33,1.41,1.08,0.86,-0.13,0.4,4,1,3,0.87,5162,6,92,43,51,860,375.0,403,463,60,121.0,115,1,301,226,44,0,0,376,257,-18948,375,-5.59,,,,,,,,,,,,
287343,1564151634762,5,2.36,0.93,0.33,1.4,1.09,0.96,-0.08,0.41,4,1,3,0.96,5125,6,92,43,51,859,371.0,398,464,60,122.0,115,1,298,225,44,0,0,375,486,3,372,-5.59,44.680882,10.024752,38.85,173.7,0,0.0,-1,0.0,0.0,0,1.89,4.7891
287363,1564151634782,5,2.36,0.93,0.33,1.41,1.08,0.91,-0.05,0.29,4,1,4,0.91,5097,6,93,43,51,856,371.0,389,463,60,122.0,115,1,295,225,43,0,0,375,230,8200,369,-5.59,,,,,,,,,,,,
287383,1564151634796,3,2.36,0.93,0.33,1.41,1.08,0.91,-0.02,0.4,4,2,4,0.91,5041,6,92,43,51,854,367.0,391,464,60,122.0,115,1,290,227,43,0,0,370,-6405,3,367,-5.59,,,,,,,,,,,,
287403,1564151634816,6,2.35,0.93,0.32,1.41,1.08,0.95,-0.02,0.39,4,0,3,0.95,5024,6,92,43,52,853,366.0,387,461,60,122.0,115,1,293,227,43,0,0,374,2790,770,366,181.28,,,,,,,,,,,,
287423,1564151634836,4,2.36,0.93,0.32,1.41,1.08,0.85,0.03,0.31,4,0,4,0.85,5026,6,92,43,53,853,364.0,382,463,60,121.0,115,1,298,230,43,0,0,366,-29302,230,364,-5.59,,,,,,,,,,,,
287443,1564151634856,3,2.36,0.93,0.33,1.41,1.07,0.89,0.05,0.39,4,-0,3,0.89,4990,6,92,43,52,855,362.0,384,465,60,121.0,115,1,290,229,43,0,0,365,-6640,486,362,-5.59,44.680878,10.024739,37.65,173.7,0,0.0,-1,0.0,0.0,0,1.89,4.7907
287463,1564151634876,4,2.36,0.93,0.32,1.41,1.08,0.93,0.03,0.34,4,-1,3,0.94,4977,6,93,43,53,862,359.0,382,460,60,122.0,119,1,292,229,43,0,0,361,4104,0,360,181.28,,,,,,,,,,,,
287483,1564151634902,3,2.36,0.92,0.33,1.4,1.09,0.88,0.03,0.29,4,-1,4,0.88,4934,6,93,43,53,865,358.0,373,464,60,122.0,119,1,287,229,43,0,0,362,3302,-6405,358,-5.59,,,,,,,,,,,,
287503,1564151634922,2,2.35,0.93,0.32,1.4,1.08,0.89,0.02,0.37,4,1,4,0.89,4880,6,92,43,53,871,356.0,381,469,60,122.0,119,1,281,228,43,0,0,358,-6644,-6458,356,-5.59,,,,,,,,,,,,
287523,1564151634942,3,2.36,0.93,0.33,1.4,1.08,0.91,0.04,0.36,4,1,4,0.91,4868,6,92,43,53,876,353.0,371,462,60,122.0,119,1,279,228,43,0,0,357,-30454,-29302,353,-5.59,,,,,,,,,,,,
287543,1564151634962,7,2.35,0.93,0.33,1.41,1.08,0.97,0.01,0.3,4,0,4,0.97,4854,6,92,43,53,881,353.0,365,466,60,123.0,119,1,277,228,43,0,0,357,-1246,4104,350,181.28,44.680874,10.024727,36.61,173.7,0,0.0,-1,0.0,0.0,0,1.89,4.7924
287563,1564151634982,8,2.35,0.93,0.32,1.4,1.07,0.92,0.03,0.3,4,-0,4,0.92,4841,6,93,43,54,885,349.0,369,461,60,123.0,120,1,280,231,42,0,0,356,8841,4104,349,-5.59,,,,,,,,,,,,
287583,1564151634994,4,2.36,0.93,0.32,1.4,1.08,0.9,0.01,0.31,4,0,3,0.9,4817,6,92,43,54,886,348.0,368,465,60,120.0,120,1,277,231,42,0,0,352,6870,3302,348,-5.59,,,,,,,,,,,,
287603,1564151635014,3,2.36,0.93,0.33,1.41,1.08,0.93,0.01,0.37,4,0,3,0.93,4767,6,92,43,54,887,347.0,369,465,60,121.0,120,1,270,230,42,0,0,350,-31206,-6644,345,-5.59,,,,,,,,,,,,
287623,1564151635034,4,2.34,0.92,0.32,1.41,1.08,0.97,-0.01,0.38,4,-1,3,0.97,4786,6,92,43,53,889,344.0,365,460,60,122.0,120,1,268,226,42,0,0,349,6668,-30454,344,-5.59,,,,,,,,,,,,
287643,1564151635054,4,2.35,0.93,0.33,1.41,1.08,1.0,-0.06,0.31,4,-2,3,1.0,4734,6,92,43,54,892,344.0,357,466,60,123.0,120,1,266,230,42,0,0,348,-122,-30454,344,181.28,44.68087,10.024715,35.75,173.7,0,0.0,-1,0.0,0.0,0,1.89,4.7941
287663,1564151635074,6,2.34,0.93,0.32,1.41,1.08,0.97,-0.08,0.27,3,-3,4,0.98,4700,6,93,43,54,894,341.0,357,460,60,122.0,120,1,261,230,41,0,0,344,-31222,6870,339,-5.59,,,,,,,,,,,,
287683,1564151635102,8,2.34,0.93,0.33,1.41,1.08,0.97,-0.08,0.25,3,-1,4,0.98,4671,6,92,43,54,897,339.0,353,467,60,123.0,120,1,257,229,41,0,0,341,2560,6870,339,-5.59,,,,,,,,,,,,
287703,1564151635122,5,2.35,0.93,0.33,1.4,1.08,0.9,-0.06,0.27,3,1,4,0.9,4649,6,92,43,54,899,336.0,365,465,60,121.0,120,1,255,229,41,0,0,342,4838,-14714,336,-5.59,,,,,,,,,,,,
287723,1564151635142,5,2.34,0.93,0.32,1.41,1.08,0.9,-0.05,0.34,3,2,3,0.9,4636,6,92,43,54,901,336.0,353,463,60,123.0,120,1,253,229,41,0,0,341,175,3327,336,-5.59,,,,,,,,,,,,
287743,1564151635162,4,2.36,0.93,0.33,1.4,1.08,0.93,-0.03,0.4,4,2,3,0.94,4591,6,92,43,54,902,331.0,356,465,60,121.0,120,1,247,228,41,0,0,336,170,-122,331,-5.59,44.680866,10.024704,34.7,173.7,0,0.0,-1,0.0,0.0,0,1.89,4.7957
287763,1564151635182,5,2.34,0.93,0.32,1.41,1.08,0.97,0.02,0.46,4,2,3,0.97,4555,6,92,43,54,902,331.0,352,469,60,122.0,117,1,242,228,39,0,0,336,165,-122,331,-5.59,,,,,,,,,,,,
287783,1564151635201,3,2.35,0.93,0.32,1.4,1.08,1.0,0.05,0.5,3,1,3,1.0,4526,6,92,43,54,903,332.0,350,462,60,123.0,117,1,238,228,39,0,0,334,160,-12032,332,-5.59,,,,,,,,,,,,
287803,1564151635221,4,2.35,0.93,0.32,1.41,1.08,1.02,0.02,0.57,3,1,3,1.02,4492,6,92,43,54,904,330.0,346,467,60,120.0,117,1,234,227,39,0,0,334,155,-6528,330,-5.59,,,,,,,,,,,,
287823,1564151635241,4,2.34,0.93,0.32,1.41,1.08,1.02,-0.02,0.57,3,1,4,1.02,4462,6,92,43,54,905,329.0,341,466,60,120.0,117,1,230,227,39,0,0,329,-27136,3346,329,-5.59,,,,,,,,,,,,
287843,1564151635261,4,2.34,0.93,0.32,1.4,1.08,1.04,0.01,0.61,3,1,3,1.04,4478,6,92,43,54,905,326.0,341,460,60,121.0,117,1,232,154,39,0,0,326,145,170,325,-5.59,44.680866,10.024693,33.61,173.7,0,0.0,-1,0.0,0.0,0,1.89,4.7974
287863,1564151635281,4,2.34,0.92,0.32,1.41,1.08,1.05,0.04,0.66,3,0,3,1.05,4429,6,92,43,54,903,321.0,343,470,60,121.0,118,1,226,227,38,0,0,324,-28416,-23296,321,-5.59,,,,,,,,,,,,
287883,1564151635301,5,2.35,0.93,0.32,1.41,1.08,1.04,0.03,0.71,3,0,2,1.04,4454,6,92,43,54,901,321.0,338,468,60,122.0,118,1,229,227,38,0,0,325,135,-23296,319,-5.59,,,,,,,,,,,,
287903,1564151635321,5,2.34,0.93,0.32,1.41,1.07,0.99,0.04,0.7,3,-0,2,0.99,4425,6,92,43,54,898,315.0,338,473,60,121.0,118,1,225,227,38,0,0,319,-32256,-27136,315,-5.59,,,,,,,,,,,,
287923,1564151635341,7,2.34,0.93,0.32,1.41,1.07,0.96,0.04,0.7,3,2,2,0.96,4375,6,92,43,54,896,316.0,333,468,60,122.0,118,1,219,226,38,0,0,321,-32256,145,316,-5.59,,,,,,,,,,,,
287943,1564151635361,7,2.33,0.93,0.32,1.41,1.08,0.92,0.05,0.66,3,3,1,0.92,4379,6,92,43,54,896,315.0,335,467,60,123.0,118,1,219,226,38,0,0,319,-32256,-28416,315,-5.59,44.680862,10.024682,32.93,173.7,0,0.0,-1,0.0,0.0,0,1.89,4.799
287963,1564151635381,6,2.33,0.93,0.33,1.4,1.08,0.92,0.05,0.57,3,4,1,0.92,4348,6,93,43,54,896,313.0,326,465,60,123.0,117,1,215,226,37,0,0,318,125,-27136,313,-5.59,,,,,,,,,,,,
287983,1564151635401,5,2.32,0.93,0.32,1.4,1.08,0.92,0.03,0.48,2,3,3,0.92,4306,6,93,43,54,899,312.0,326,460,60,124.0,117,1,210,226,37,0,0,318,30720,150,310,181.28,,,,,,,,,,,,
288003,1564151635421,4,2.32,0.93,0.32,1.41,1.08,0.96,0.0,0.4,2,2,3,0.96,4330,6,93,43,54,902,308.0,322,459,60,124.0,117,1,213,226,37,0,0,313,120,145,307,181.28,,,,,,,,,,,,
288023,1564151635441,4,2.31,0.93,0.32,1.41,1.07,0.97,-0.03,0.41,1,1,3,0.97,4291,6,93,43,54,903,307.0,327,462,60,123.0,117,1,208,225,37,0,0,313,30720,130,304,-5.59,,,,,,,,,,,,
288043,1564151635461,3,2.32,0.93,0.33,1.4,1.08,0.98,-0.05,0.44,1,-0,2,0.99,4268,6,92,43,54,906,307.0,326,470,60,121.0,117,1,205,225,37,0,0,312,30720,120,303,-5.59,44.680859,10.024672,32.14,173.7,0,0.0,-1,0.0,0.0,0,1.9,4.8007
288063,1564151635481,4,2.32,0.93,0.32,1.4,1.08,1.01,0.01,0.49,1,1,1,1.01,4298,6,92,43,54,907,305.0,327,468,60,123.0,118,1,209,225,36,0,0,309,110,-32256,302,-5.59,,,,,,,,,,,,
288083,1564151635501,8,2.31,0.93,0.32,1.4,1.07,0.97,0.04,0.55,0,2,-0,0.97,4250,6,92,43,54,907,302.0,330,467,60,122.0,118,1,202,225,36,0,0,307,105,30720,302,-5.59,,,,,,,,,,,,
288103,1564151635521,8,2.32,0.92,0.32,1.41,1.07,0.95,0.07,0.54,0,3,-1,0.95,4245,6,93,43,54,908,299.0,321,466,60,124.0,118,1,202,225,36,0,0,304,25600,115,299,-5.59,,,,,,,,,,,,
288123,1564151635541,5,2.32,0.93,0.32,1.41,1.07,0.94,0.07,0.48,0,2,1,0.94,4265,6,93,43,54,908,299.0,325,457,60,123.0,118,1,204,225,36,0,0,306,25600,29440,299,-5.59,,,,,,,,,,,,
288143,1564151635561,3,2.31,0.92,0.32,1.4,1.07,0.99,0.05,0.42,1,1,1,0.99,4215,6,92,43,54,908,297.0,320,458,60,124.0,118,1,198,225,36,0,0,303,90,110,297,-5.59,44.680859,10.024661,31.13,173.7,0,0.0,-1,0.0,0.0,0,1.9,4.8024
288163,1564151635581,3,2.32,0.92,0.32,1.4,1.08,1.0,0.02,0.45,1,-1,1,1.0,4243,6,92,43,54,908,295.0,324,464,60,124.0,122,1,201,225,36,0,0,301,85,105,296,-5.59,,,,,,,,,,,,
288183,1564151635601,3,2.31,0.92,0.32,1.4,1.07,0.99,-0.0,0.5,0,-1,0,0.99,4237,6,92,43,54,910,293.0,325,468,60,122.0,122,1,201,225,36,0,0,299,80,95,293,-5.59,,,,,,,,,,,,
288203,1564151635621,6,2.31,0.92,0.32,1.4,1.07,0.97,0.01,0.51,0,1,-1,0.97,4201,6,92,43,55,912,291.0,319,467,60,123.0,122,1,196,229,36,0,0,296,0,95,291,-5.59,,,,,,,,,,,,
288223,1564151635641,5,2.31,0.93,0.32,1.4,1.07,0.95,0.06,0.46,1,1,-0,0.95,4208,6,93,43,55,914,290.0,319,458,60,124.0,122,1,197,229,36,0,0,295,0,20480,290,-5.59,,,,,,,,,,,,
288243,1564151635661,4,2.32,0.92,0.32,1.4,1.08,0.97,0.08,0.4,1,-1,1,0.97,4175,6,93,43,54,916,288.0,316,463,60,125.0,122,1,192,224,36,0,0,293,41,23040,288,-5.59,44.680855,10.024651,29.98,173.7,0,0.0,-1,0.0,0.0,0,1.9,4.804
288263,1564151635681,2,2.32,0.92,0.32,1.4,1.07,0.99,0.04,0.38,1,-1,1,0.99,4153,6,92,43,54,923,287.0,323,462,60,124.0,121,1,190,224,35,0,0,294,10686,20480,286,-5.59,,,,,,,,,,,,
288283,1564151635701,7,2.32,0.93,0.32,1.4,1.07,0.99,0.05,0.39,1,-0,-0,0.99,4136,6,92,43,55,932,285.0,316,469,60,123.0,121,1,187,228,35,0,0,292,250,20480,285,-5.59,,,,,,,,,,,,
288303,1564151635721,4,2.31,0.93,0.32,1.39,1.08,0.97,0.08,0.38,1,1,-1,0.98,4110,6,93,43,55,939,284.0,311,462,60,125.0,121,1,184,228,35,0,0,289,24064,0,284,181.28,,,,,,,,,,,,
288323,1564151635741,2,2.32,0.93,0.32,1.4,1.07,0.99,0.11,0.34,1,-0,0,1.0,4035,6,93,43,55,945,282.0,309,462,60,124.0,121,1,174,224,35,0,0,289,1886,20480,282,-5.59,,,,,,,,,,,,
288343,1564151635761,6,2.32,0.93,0.33,1.41,1.08,0.99,0.09,0.32,1,-0,1,1.0,3936,6,93,43,55,952,282.0,311,468,60,122.0,121,1,167,226,35,0,0,289,24064,0,282,-5.59,44.680851,10.024641,29.2,173.7,0,0.0,-1,0.0,0.0,0,1.9,4.8057
288363,1564151635781,4,2.31,0.93,0.32,1.4,1.07,0.98,0.11,0.31,1,1,-1,0.98,3897,6,93,43,55,960,280.0,297,463,60,125.0,117,1,165,224,33,0,0,288,-1534,0,280,414.87,,,,,,,,,,,,
288383,1564151635803,3,2.32,0.92,0.32,1.4,1.08,0.98,0.08,0.34,1,-1,0,0.98,3810,6,92,43,55,965,279.0,302,456,60,123.0,117,1,162,224,33,0,0,285,-1534,0,278,-5.59,,,,,,,,,,,,
288403,1564151635823,4,2.32,0.92,0.32,1.4,1.08,0.96,0.09,0.28,0,0,-0,0.96,3801,6,93,43,55,967,277.0,291,472,60,125.0,117,1,162,224,33,0,0,284,30208,24064,276,181.28,,,,,,,,,,,,
288423,1564151635843,3,2.32,0.93,0.32,1.4,1.07,0.97,0.09,0.3,0,-2,0,0.97,3790,6,93,43,55,967,277.0,296,455,60,124.0,117,1,161,223,33,0,0,282,250,-1529,277,-5.59,,,,,,,,,,,,
288443,1564151635863,4,2.32,0.93,0.32,1.4,1.08,0.95,0.09,0.27,0,1,-0,0.96,3758,6,93,43,56,967,275.0,287,473,60,125.0,117,1,160,227,33,0,0,280,-1527,630,275,-5.59,44.680847,10.024632,28.71,173.7,0,0.0,-1,0.0,0.0,0,1.9,4.8074
288463,1564151635883,4,2.32,0.93,0.32,1.41,1.07,0.96,0.08,0.32,0,-0,-0,0.97,3770,6,93,43,56,966,273.0,290,454,60,124.0,117,1,160,227,32,0,0,280,28160,630,273,-5.59,,,,,,,,,,,,
288483,1564151635903,4,2.32,0.92,0.32,1.41,1.08,0.96,0.07,0.31,0,2,-1,0.96,3764,6,93,43,56,964,272.0,287,472,60,125.0,117,1,160,154,32,0,0,280,250,250,272,-5.59,,,,,,,,,,,,
288503,1564151635923,2,2.32,0.92,0.32,1.4,1.08,0.95,0.06,0.34,0,-1,0,0.95,3735,6,92,43,56,962,271.0,290,454,60,124.0,117,1,159,226,32,0,0,274,-1,-1527,271,-5.59,,,,,,,,,,,,
288523,1564151635943,5,2.32,0.93,0.32,1.41,1.07,0.93,0.06,0.29,0,1,-0,0.93,3756,6,93,43,57,957,268.0,286,471,60,125.0,117,1,160,231,32,0,0,276,-1,250,267,-5.59,,,,,,,,,,,,
288543,1564151635963,4,2.33,0.92,0.32,1.4,1.07,0.93,0.06,0.33,0,-1,0,0.93,3736,6,93,43,57,953,266.0,288,455,60,124.0,117,1,159,231,32,0,0,271,-1,-1,266,-5.59,44.680847,10.024622,27.91,173.7,0,0.0,-1,0.0,0.0,0,1.9,4.8091
288563,1564151635983,4,2.32,0.93,0.32,1.41,1.07,0.9,0.07,0.3,0,2,-1,0.91,3704,6,93,43,57,950,265.0,285,469,60,125.0,120,1,158,230,32,0,0,271,-1,-1,264,-5.59,,,,,,,,,,,,
288583,1564151635995,4,2.33,0.93,0.32,1.41,1.07,0.95,0.06,0.37,1,-1,0,0.95,3709,6,92,43,57,948,264.0,287,451,60,123.0,120,1,158,230,32,0,0,267,-1,250,264,-5.59,,,,,,,,,,,,
288603,1564151636015,3,2.33,0.93,0.32,1.4,1.08,0.92,0.05,0.32,0,0,-1,0.92,3688,6,93,43,57,948,262.0,282,470,60,126.0,120,1,157,234,32,0,0,269,-1,-1,262,414.87,,,,,,,,,,,,
288623,1564151636035,7,2.33,0.93,0.32,1.4,1.07,0.93,0.02,0.38,0,-1,0,0.93,3610,6,92,43,58,948,260.0,285,453,60,123.0,120,1,154,232,32,0,0,268,-1,-1,260,-5.59,,,,,,,,,,,,
288643,1564151636055,4,2.33,0.92,0.32,1.4,1.08,0.93,0.04,0.35,0,-1,0,0.93,3584,6,93,43,58,949,259.0,277,463,60,125.0,120,1,153,231,32,0,0,265,-41,-1,259,-5.59,44.680847,10.024613,27.21,173.7,0,0.0,-1,0.0,0.0,0,1.9,4.8107
288663,1564151636075,3,2.33,0.93,0.32,1.41,1.07,0.93,0.03,0.36,0,1,-1,0.94,3592,6,93,43,59,953,259.0,281,462,60,123.0,124,1,152,236,32,0,0,263,-41,-1,258,-5.59,,,,,,,,,,,,
288683,1564151636102,3,2.33,0.93,0.32,1.4,1.07,0.96,0.02,0.38,0,-2,-0,0.96,3513,6,92,43,59,956,257.0,279,454,60,121.0,124,1,150,234,32,0,0,263,506,-1,255,-5.59,,,,,,,,,,,,
288703,1564151636122,3,2.34,0.93,0.32,1.4,1.07,0.92,0.03,0.34,0,0,-0,0.93,3474,6,93,43,60,960,255.0,272,469,60,124.0,124,1,150,238,32,0,0,261,-1281,-1,255,-5.59,,,,,,,,,,,,
288723,1564151636142,2,2.34,0.93,0.32,1.41,1.07,0.9,-0.0,0.36,0,1,-1,0.9,3497,6,93,43,60,962,253.0,273,463,60,125.0,124,1,150,238,32,0,0,257,-214,-10440,252,-5.59,,,,,,,,,,,,
