"Interval"|"ms"|0|0|1,"Utc"|"ms"|0|0|1,"FB_p"|"bar"|0|300|50,"Volant"|"F"|0.0|300.0|50,"xFR"|"mm"|0.0|5.0|50,"xRR"|"mm"|0.0|5.0|50,"xFL"|"mm"|0.0|5.0|50,"xRL"|"mm"|0.0|5.0|50,"AccelX"|"G"|-3.0|3.0|50,"AccelY"|"G"|-3.0|3.0|50,"AccelZ"|"G"|-3.0|3.0|50,"Yaw"|"Deg/Sec"|-120|120|50,"Pitch"|"Deg/Sec"|-120|120|50,"Roll"|"Deg/Sec"|-120|120|50,"Gsum"|"G"|0.0|3.0|50,"RPM"|""|0|14000|50,"TPS"|"%"|0|100|50,"WaterTemp"|"?C"|0|300|50,"AirTemp"|"?C"|-1000|1000|50,"MAP"|"KPa"|0|255|50,"Lambda"|""|0|1024|50,"WheelSpeed"|"MPH"|0.0|150.0|50,"OilPress"|"PSI"|0|150|50,"FuelPress"|"PSI"|0|150|50,"OilTemp"|"F"|0|300|50,"Battery"|"Volts"|0.0|20.0|50,"FuelCon"|"L/h"|-1000|1000|50,"Gear"|""|0|10|50,"Advance"|"Deg"|-360|360|50,"Injection"|"ms"|-1000|1000|50,"FuelCon"|"L/100km"|-1000|1000|50,"LC_But_Pres"|""|-1000|1000|50,"LC_Active"|""|-1000|1000|50,"RD_Speed"|""|-1000|1000|50,"RUD_Speed"|""|-1000|1000|50,"LD_Speed"|""|-1000|1000|50,"LUD_Speed"|""|-1000|1000|50,"Ana1"|"bar"|-1000.0|1000.0|50,"Latitude"|"Degrees"|-180.0|180.0|10,"Longitude"|"Degrees"|-180.0|180.0|10,"Speed"|"kph"|0.0|150.0|10,"Altitude"|"m"|0.0|4000.0|10,"LapCount"|""|0|0|10,"LapTime"|"Min"|0.0|0.0|10,"Sector"|""|0|0|10,"SectorTime"|"Min"|0.0|0.0|10,"ElapsedTime"|"Min"|0.0|0.0|10,"CurrentLap"|""|0|0|10,"Distance"|"km"|0.0|0.0|10,"SessionTime"|"Min"|0.0|0.0|10
353163,1564151700584,-0,2.48,0.94,0.31,1.43,1.1,0.82,-0.59,0.49,18,0,22,1.01,6658,11,94,43,39,924,492.0,488,464,60,124.0,103,1,310,204,51,0,0,748,243,-28648,492,-5.59,,,,,,,,,,,,
353183,1564151700604,0,2.47,0.95,0.31,1.43,1.09,0.94,-0.63,0.44,18,-0,23,1.13,6670,11,94,43,39,925,493.0,487,466,60,124.0,103,1,310,204,51,0,0,748,-16384,11560,493,-5.59,,,,,,,,,,,,
353203,1564151700624,3,2.47,0.95,0.31,1.43,1.09,0.87,-0.59,0.49,18,-0,23,1.05,6663,11,94,43,39,926,491.0,490,464,60,123.0,103,1,310,204,51,0,0,748,243,10408,492,-5.59,,,,,,,,,,,,
353223,1564151700644,-1,2.48,0.95,0.31,1.43,1.1,0.94,-0.64,0.42,17,-1,23,1.14,6651,11,94,43,39,926,489.0,489,464,60,124.0,103,1,310,204,51,0,0,345,-4054,-22519,818,-5.59,,,,,,,,,,,,
353243,1564151700664,3,2.45,0.95,0.31,1.43,1.09,0.87,-0.58,0.47,18,-2,23,1.05,6672,11,94,43,39,925,818.0,492,468,60,123.0,103,1,310,204,51,0,0,345,-26615,2524,818,-5.59,44.681358,10.025061,48.7,174.9,0,0.0,-1,0.0,0.0,0,2.41,5.8874
353263,1564151700684,-1,2.47,0.95,0.31,1.43,1.1,0.94,-0.55,0.38,18,0,23,1.09,6656,11,94,43,39,924,483.0,489,465,60,125.0,106,1,310,204,51,0,0,345,12552,15661,483,-5.59,,,,,,,,,,,,
353283,1564151700705,1,2.47,0.95,0.31,1.43,1.1,0.88,-0.6,0.53,17,-1,24,1.06,6653,12,94,43,40,923,487.0,492,465,60,122.0,106,1,317,204,51,0,0,345,6193,15661,485,-5.59,,,,,,,,,,,,
353303,1564151700725,-1,2.47,0.95,0.31,1.43,1.1,0.86,-0.58,0.47,18,2,23,1.04,6630,12,94,43,39,923,487.0,493,463,60,125.0,106,1,310,204,51,0,0,345,6193,2109,488,-5.59,,,,,,,,,,,,
353323,1564151700745,-0,2.47,0.95,0.31,1.43,1.09,0.95,-0.62,0.47,17,-1,24,1.14,6630,12,94,43,40,924,487.0,487,466,60,124.0,106,1,317,204,51,0,0,345,16408,2109,487,-5.59,,,,,,,,,,,,
353343,1564151700765,4,2.46,0.94,0.31,1.43,1.1,0.8,-0.59,0.51,17,-0,23,1.0,6611,12,94,43,40,925,485.0,488,465,60,123.0,106,1,317,205,51,0,0,345,16408,771,485,-5.59,44.681347,10.025071,48.0,174.8,0,0.0,-1,0.0,0.0,0,2.41,5.889
353363,1564151700785,-2,2.46,0.94,0.32,1.43,1.09,0.93,-0.59,0.33,17,2,23,1.1,6611,12,94,43,40,928,485.0,486,463,60,124.0,105,1,317,205,51,0,0,345,16408,-9216,485,-5.59,,,,,,,,,,,,
353383,1564151700804,1,2.47,0.95,0.32,1.43,1.1,0.88,-0.6,0.42,16,1,23,1.06,6560,12,94,43,40,929,485.0,483,468,60,123.0,105,1,316,205,51,0,0,465,6193,1,486,-5.59,,,,,,,,,,,,
353403,1564151700824,-0,2.46,0.95,0.31,1.44,1.09,0.87,-0.54,0.36,17,2,22,1.02,6537,12,94,43,40,930,485.0,482,465,60,123.0,105,1,316,205,51,0,0,470,16408,-9216,485,-5.59,,,,,,,,,,,,
353423,1564151700844,-0,2.46,0.95,0.31,1.43,1.1,0.94,-0.61,0.35,16,0,22,1.12,6514,13,94,43,40,931,483.0,480,463,60,125.0,105,1,316,205,51,0,0,470,-23623,998,483,-5.59,,,,,,,,,,,,
353443,1564151700864,3,2.45,0.94,0.31,1.44,1.09,0.83,-0.53,0.39,16,0,23,0.99,6549,15,94,43,41,930,484.0,481,466,60,124.0,105,1,323,207,51,0,0,472,2211,3,482,-5.59,44.681339,10.025081,47.68,174.8,0,0.0,-1,0.0,0.0,0,2.41,5.8907
353463,1564151700884,-1,2.46,0.95,0.31,1.43,1.09,0.92,-0.51,0.38,16,3,22,1.05,6537,16,94,43,41,930,482.0,480,464,60,123.0,105,1,323,207,51,0,0,474,2211,1,482,-5.59,,,,,,,,,,,,
353483,1564151700904,1,2.46,0.95,0.32,1.43,1.09,0.95,-0.58,0.43,16,0,22,1.11,6542,16,94,43,42,931,483.0,476,464,60,125.0,105,1,330,208,51,0,0,470,2211,-1818,483,-5.59,,,,,,,,,,,,
353503,1564151700924,2,2.46,0.95,0.31,1.43,1.1,0.81,-0.51,0.48,16,2,20,0.96,6542,16,94,43,43,931,480.0,481,462,60,122.0,105,1,337,210,51,0,0,470,2211,-6656,480,-5.59,,,,,,,,,,,,
353523,1564151700944,-0,2.45,0.94,0.31,1.43,1.1,0.94,-0.52,0.38,16,3,21,1.07,6551,16,94,43,43,933,481.0,486,462,60,124.0,105,1,337,210,51,0,0,471,2211,3,481,-5.59,,,,,,,,,,,,
353543,1564151700964,1,2.46,0.95,0.32,1.43,1.1,0.91,-0.54,0.49,15,-1,22,1.06,6537,16,94,43,43,934,479.0,485,465,60,124.0,105,1,337,210,51,0,0,472,17628,248,479,-5.59,44.681324,10.025089,47.58,174.8,0,0.0,-1,0.0,0.0,0,2.41,5.8924
353563,1564151700984,-0,2.45,0.95,0.31,1.44,1.09,0.79,-0.48,0.5,16,0,20,0.93,6558,16,94,43,44,935,478.0,487,464,60,124.0,108,1,344,211,52,0,0,466,17628,1,478,-5.59,,,,,,,,,,,,
353583,1564151700996,0,2.45,0.95,0.31,1.44,1.09,0.92,-0.5,0.37,15,1,21,1.04,6572,16,94,43,44,936,478.0,485,462,60,124.0,108,1,344,211,52,0,0,468,17628,-6441,476,-5.59,,,,,,,,,,,,
353603,1564151701016,1,2.46,0.95,0.32,1.44,1.09,0.83,-0.49,0.48,15,-1,21,0.96,6578,16,94,43,44,936,477.0,485,466,60,123.0,108,1,344,211,52,0,0,640,17628,1,477,-5.59,,,,,,,,,,,,
353623,1564151701036,0,2.45,0.95,0.32,1.44,1.09,0.85,-0.44,0.43,15,1,20,0.96,6578,16,94,43,44,939,476.0,485,463,60,125.0,108,1,344,211,52,0,0,640,-9160,-10483,476,-5.59,,,,,,,,,,,,
353643,1564151701056,-0,2.46,0.95,0.32,1.43,1.1,0.88,-0.49,0.48,15,-1,19,1.01,6592,16,94,43,45,941,475.0,484,467,60,125.0,108,1,351,213,52,0,0,640,-9160,-10483,477,-5.59,44.681316,10.025098,47.22,174.8,0,0.0,-1,0.0,0.0,0,2.41,5.8941
353663,1564151701076,3,2.46,0.95,0.31,1.43,1.1,0.85,-0.47,0.51,15,0,19,0.97,6613,16,94,43,44,944,478.0,486,464,60,124.0,110,1,345,138,53,0,0,463,14488,505,478,-5.59,,,,,,,,,,,,
353683,1564151701104,-1,2.46,0.95,0.31,1.44,1.09,0.93,-0.45,0.5,15,0,19,1.04,6599,16,94,43,45,949,476.0,484,463,60,126.0,110,1,351,211,53,0,0,464,2524,-899,476,-5.59,,,,,,,,,,,,
353703,1564151701124,3,2.46,0.94,0.31,1.44,1.1,0.8,-0.5,0.64,15,1,18,0.94,6627,17,94,43,45,953,476.0,485,464,60,123.0,110,1,352,213,53,0,0,465,-26615,-899,475,-5.59,,,,,,,,,,,,
353723,1564151701144,-0,2.45,0.95,0.31,1.44,1.1,0.88,-0.47,0.51,15,4,18,1.0,6595,17,94,43,45,964,475.0,486,465,60,124.0,110,1,351,213,53,0,0,465,2524,32033,475,-5.59,,,,,,,,,,,,
353743,1564151701164,1,2.46,0.95,0.31,1.44,1.09,0.95,-0.52,0.54,15,0,20,1.08,6613,17,94,43,45,977,472.0,485,465,60,124.0,110,1,352,213,53,0,0,463,2524,-1562,472,-5.59,44.681305,10.025105,47.04,174.9,0,0.0,-1,0.0,0.0,0,2.41,5.8957
353763,1564151701184,-0,2.45,0.95,0.32,1.44,1.09,0.79,-0.51,0.56,15,1,18,0.94,6641,17,94,43,45,984,475.0,487,466,60,124.0,112,1,352,213,53,0,0,462,-26615,-899,472,-5.59,,,,,,,,,,,,
353783,1564151701203,1,2.45,0.95,0.31,1.43,1.09,0.91,-0.51,0.46,15,3,18,1.05,6672,17,94,43,45,995,473.0,486,464,60,125.0,112,1,352,213,53,0,0,462,-26615,3580,473,-5.59,,,,,,,,,,,,
353803,1564151701223,3,2.45,0.95,0.31,1.43,1.1,0.84,-0.55,0.54,14,3,18,1.0,6651,17,94,43,45,1010,473.0,491,465,60,123.0,112,1,352,213,53,0,0,465,-8985,-899,473,-5.59,,,,,,,,,,,,
353823,1564151701243,-1,2.46,0.95,0.31,1.43,1.1,0.87,-0.51,0.45,15,3,19,1.01,6656,17,94,43,45,1021,472.0,491,461,60,125.0,112,1,352,213,53,0,0,465,-6387,-10483,472,-5.59,,,,,,,,,,,,
353843,1564151701263,3,2.46,0.95,0.31,1.44,1.09,0.8,-0.48,0.49,15,2,19,0.93,6653,17,94,43,45,1029,472.0,491,468,60,123.0,112,1,352,213,53,0,0,469,-6387,505,472,-5.59,44.681294,10.025111,46.44,174.9,0,0.0,-1,0.0,0.0,0,2.41,5.8974
353863,1564151701283,-1,2.46,0.95,0.31,1.44,1.09,0.86,-0.39,0.51,15,4,18,0.94,6549,17,94,43,45,1039,473.0,489,462,60,125.0,112,1,351,214,53,0,0,469,2524,8488,472,-5.59,,,,,,,,,,,,
353883,1564151701303,0,2.46,0.95,0.31,1.43,1.1,0.85,-0.48,0.55,14,2,19,0.97,6461,17,94,43,46,1047,472.0,483,462,60,125.0,112,1,357,214,53,0,0,469,2524,1,472,-5.59,,,,,,,,,,,,
353903,1564151701323,2,2.46,0.95,0.31,1.44,1.09,0.67,-0.52,0.69,14,1,18,0.85,6410,17,94,43,46,1056,474.0,479,464,60,123.0,112,1,357,214,53,0,0,43,2524,-10483,474,-5.59,,,,,,,,,,,,
353923,1564151701343,3,2.47,0.95,0.31,1.44,1.09,0.68,-0.49,0.67,14,3,19,0.84,6360,17,94,43,47,1058,471.0,476,464,60,124.0,112,1,363,215,53,0,0,463,2524,32033,471,-5.59,,,,,,,,,,,,
353943,1564151701363,-1,2.47,0.95,0.31,1.44,1.09,0.82,-0.47,0.61,14,4,20,0.94,6351,17,94,43,47,1061,473.0,475,465,60,124.0,112,1,363,215,53,0,0,461,3571,-10483,473,-5.59,44.681282,10.025118,46.39,174.9,0,0.0,-1,0.0,0.0,0,2.41,5.899
353963,1564151701383,0,2.47,0.95,0.31,1.44,1.09,0.86,-0.53,0.61,14,0,20,1.01,6381,18,94,43,47,1064,473.0,468,467,60,124.0,107,1,363,215,51,0,0,460,3571,-17956,473,-5.59,,,,,,,,,,,,
353983,1564151701403,3,2.48,0.95,0.32,1.44,1.09,0.71,-0.55,0.73,14,-0,20,0.9,6441,18,94,43,48,1065,473.0,471,466,60,123.0,107,1,367,221,51,0,0,465,3571,-899,472,-5.59,,,,,,,,,,,,
354003,1564151701423,1,2.47,0.95,0.31,1.43,1.1,0.69,-0.49,0.64,15,3,21,0.84,6452,18,94,43,47,1065,474.0,474,463,60,125.0,107,1,364,221,51,0,0,461,-3267,8488,474,-5.59,,,,,,,,,,,,
354023,1564151701443,-2,2.47,0.95,0.31,1.43,1.1,0.82,-0.5,0.51,15,3,21,0.96,6456,18,94,43,48,1067,474.0,472,461,60,125.0,107,1,367,216,51,0,0,463,15649,1,474,-5.59,,,,,,,,,,,,
354043,1564151701463,1,2.48,0.95,0.32,1.43,1.1,0.79,-0.55,0.6,15,2,22,0.96,6483,18,94,43,48,1067,475.0,474,467,60,123.0,107,1,367,221,51,0,0,465,10305,-899,472,-5.59,44.681274,10.025123,46.29,174.9,0,0.0,-1,0.0,0.0,0,2.42,5.9007
354063,1564151701483,3,2.48,0.95,0.31,1.44,1.09,0.73,-0.56,0.59,15,3,21,0.92,6467,18,94,43,48,1066,473.0,476,464,60,124.0,113,1,367,221,54,0,0,463,3571,-10483,473,-5.59,,,,,,,,,,,,
354083,1564151701504,-1,2.48,0.95,0.31,1.43,1.09,0.82,-0.55,0.49,15,2,22,0.99,6472,18,94,43,48,1066,472.0,478,465,60,125.0,113,1,367,221,54,0,0,460,8488,32033,472,-5.59,,,,,,,,,,,,
354103,1564151701524,2,2.49,0.95,0.31,1.44,1.09,0.74,-0.6,0.56,15,2,22,0.95,6483,18,94,43,48,1066,472.0,478,466,60,124.0,113,1,367,221,54,0,0,463,8488,-899,472,-5.59,,,,,,,,,,,,
354123,1564151701544,3,2.48,0.95,0.3,1.43,1.1,0.75,-0.58,0.62,15,4,21,0.95,6483,18,94,43,48,1064,471.0,482,464,60,123.0,113,1,367,221,54,0,0,466,15649,505,471,-5.59,,,,,,,,,,,,
354143,1564151701564,-2,2.48,0.95,0.32,1.43,1.09,0.81,-0.49,0.63,15,3,21,0.95,6454,18,94,43,48,1062,473.0,480,466,60,125.0,113,1,367,221,54,0,0,465,3571,1,472,-5.59,44.681263,10.025127,46.37,175.0,0,0.0,-1,0.0,0.0,0,2.42,5.9024
354163,1564151701584,1,2.48,0.95,0.31,1.44,1.09,0.78,-0.57,0.64,15,0,21,0.96,6432,18,94,43,49,1060,471.0,474,466,60,124.0,114,1,370,225,54,0,0,461,-3267,-10483,471,-5.59,,,,,,,,,,,,
354183,1564151701603,2,2.48,0.95,0.3,1.43,1.1,0.64,-0.58,0.77,15,1,21,0.86,6394,18,94,43,49,1058,472.0,475,463,60,123.0,114,1,369,225,54,0,0,469,-3267,-10483,472,-5.59,,,,,,,,,,,,
354203,1564151701623,-0,2.48,0.95,0.31,1.43,1.1,0.72,-0.51,0.61,16,4,21,0.88,6388,18,94,43,49,1058,472.0,476,462,60,125.0,114,1,369,225,54,0,0,458,15649,1,474,-5.59,,,,,,,,,,,,
354223,1564151701643,-1,2.48,0.95,0.31,1.44,1.09,0.85,-0.55,0.58,16,2,23,1.02,6397,18,94,43,49,1059,472.0,473,464,60,126.0,114,1,369,225,54,0,0,462,10305,32033,472,-5.59,,,,,,,,,,,,
354243,1564151701663,1,2.48,0.95,0.31,1.44,1.1,0.83,-0.59,0.64,15,-0,24,1.02,6399,18,94,43,49,1061,471.0,475,467,60,124.0,114,1,369,225,54,0,0,460,10305,-6441,471,-5.59,44.681252,10.025131,46.64,175.0,0,0.0,-1,0.0,0.0,0,2.42,5.904
354263,1564151701683,-0,2.48,0.95,0.32,1.43,1.1,0.7,-0.56,0.67,16,1,23,0.9,6432,18,95,43,49,1063,473.0,473,466,60,125.0,114,1,370,225,54,0,0,462,8488,-1562,472,181.28,,,,,,,,,,,,
354283,1564151701703,-0,2.48,0.95,0.32,1.43,1.1,0.8,-0.51,0.55,16,3,23,0.95,6247,18,95,43,49,1068,474.0,471,458,60,123.0,114,1,368,225,54,0,0,461,10305,3580,474,181.28,,,,,,,,,,,,
354303,1564151701723,-1,2.48,0.95,0.31,1.44,1.1,0.91,-0.51,0.43,16,3,24,1.04,6083,18,95,43,49,1073,473.0,461,461,60,124.0,114,1,366,224,54,0,0,457,8488,3580,473,181.28,,,,,,,,,,,,
354323,1564151701743,-0,2.48,0.95,0.31,1.43,1.1,1.0,-0.52,0.32,17,5,24,1.13,5922,18,95,43,49,1076,473.0,451,457,60,124.0,114,1,359,229,54,0,0,459,10305,10305,471,181.28,,,,,,,,,,,,
354343,1564151701763,-0,2.49,0.95,0.31,1.44,1.09,1.07,-0.47,0.22,18,7,25,1.17,5762,18,95,43,50,1079,470.0,440,461,60,124.0,114,1,349,228,54,0,0,457,16648,32033,470,181.28,44.68124,10.025134,46.29,175.0,0,0.0,-1,0.0,0.0,0,2.42,5.9057
354363,1564151701783,2,2.48,0.95,0.31,1.44,1.1,0.9,-0.55,0.3,18,9,24,1.05,5623,19,94,43,51,1080,471.0,431,460,60,121.0,170,1,338,362,80,0,0,460,2131,32033,470,-5.59,,,,,,,,,,,,
354383,1564151701803,0,2.48,0.96,0.31,1.44,1.09,0.91,-0.44,0.24,18,1,23,1.01,5527,19,94,43,53,1080,471.0,420,464,60,126.0,170,1,340,342,80,0,0,468,32033,10305,466,-5.59,,,,,,,,,,,,
354403,1564151701823,-1,2.48,0.95,0.31,1.43,1.1,1.02,-0.46,0.29,17,-1,24,1.12,5808,19,94,43,54,1080,462.0,417,459,60,126.0,170,1,368,325,80,0,0,468,26704,2212,462,-5.59,,,,,,,,,,,,
354423,1564151701843,-1,2.47,0.95,0.31,1.44,1.09,1.12,-0.45,0.26,16,2,26,1.21,6225,19,95,43,54,1078,467.0,430,466,60,126.0,170,1,385,296,80,0,0,468,-7939,21580,461,-5.59,,,,,,,,,,,,
354443,1564151701863,2,2.47,0.95,0.32,1.43,1.1,1.11,-0.53,0.3,16,-1,26,1.23,6595,19,94,43,53,1093,459.0,450,466,60,124.0,170,1,383,258,80,0,0,468,243,-18108,459,-5.59,44.681229,10.025137,45.75,175.0,0,0.0,-1,0.0,0.0,0,2.42,5.9074
354463,1564151701883,1,2.47,0.95,0.32,1.43,1.1,1.09,-0.51,0.22,17,2,26,1.2,6983,19,94,43,52,1150,457.0,477,466,60,125.0,140,1,383,242,64,0,0,413,1779,5600,454,-5.59,,,,,,,,,,,,
354483,1564151701903,1,2.47,0.95,0.31,1.44,1.1,0.96,-0.56,0.09,17,2,26,1.11,7390,19,94,43,50,1222,454.0,505,463,60,124.0,140,1,378,234,64,0,0,425,3635,-26615,454,-5.59,,,,,,,,,,,,
354503,1564151701923,1,2.47,0.95,0.32,1.43,1.1,0.93,-0.51,0.02,17,1,27,1.06,7725,19,94,43,48,1267,448.0,524,465,60,125.0,140,1,372,230,64,0,0,415,-3856,10305,447,-5.59,,,,,,,,,,,,
354523,1564151701943,-0,2.47,0.95,0.31,1.44,1.09,0.92,-0.48,0.0,17,2,27,1.04,8036,19,94,43,46,1328,444.0,545,464,60,126.0,140,1,362,217,64,0,0,426,-4082,2131,444,-5.59,,,,,,,,,,,,
354543,1564151701963,1,2.47,0.95,0.31,1.44,1.09,0.93,-0.48,-0.01,16,-0,27,1.04,8355,19,94,43,44,1413,443.0,573,466,60,124.0,140,1,350,216,64,0,0,420,-21792,16648,443,-5.59,44.681217,10.025139,45.61,175.0,0,0.0,-1,0.0,0.0,0,2.42,5.909
354563,1564151701983,1,2.46,0.95,0.31,1.44,1.09,1.02,-0.52,0.15,15,-0,26,1.15,8507,19,94,43,42,1462,440.0,591,466,60,124.0,156,1,338,214,69,0,0,425,7154,10305,438,-5.59,,,,,,,,,,,,
354583,1564151701991,1,2.46,0.95,0.32,1.44,1.09,0.9,-0.5,0.2,16,2,25,1.03,8561,19,94,43,39,1471,440.0,603,467,60,124.0,156,1,320,209,69,0,0,428,-8165,3571,440,-5.59,,,,,,,,,,,,
354603,1564151702011,2,2.46,0.95,0.31,1.43,1.1,0.84,-0.46,0.13,16,3,25,0.96,8632,19,94,43,37,1467,441.0,615,464,60,124.0,156,1,314,201,69,0,0,427,7154,23400,440,-5.59,,,,,,,,,,,,
354623,1564151702031,1,2.47,0.95,0.31,1.43,1.1,0.96,-0.4,0.18,15,2,24,1.04,8660,19,94,43,36,1388,438.0,603,468,60,124.0,156,1,311,199,69,0,0,425,18584,16648,438,-5.59,,,,,,,,,,,,
354643,1564151702051,1,2.46,0.95,0.31,1.43,1.09,1.0,-0.45,0.36,15,2,23,1.1,8577,19,94,43,35,1308,437.0,602,467,60,125.0,156,1,308,195,69,0,0,430,-3414,10305,437,-5.59,44.681206,10.025139,43.97,175.1,0,0.0,-1,0.0,0.0,0,2.42,5.9107
354663,1564151702071,4,2.46,0.95,0.31,1.43,1.1,0.87,-0.51,0.29,16,2,23,1.01,8542,19,94,43,34,1198,438.0,598,466,60,125.0,144,1,305,192,63,0,0,425,-21944,15649,438,-5.59,,,,,,,,,,,,
354683,1564151702103,1,2.47,0.95,0.31,1.44,1.09,0.9,-0.47,0.25,15,2,22,1.01,8553,19,94,43,34,1109,435.0,612,464,60,124.0,144,1,305,192,63,0,0,425,18584,21432,435,-5.59,,,,,,,,,,,,
354703,1564151702123,1,2.46,0.95,0.31,1.44,1.09,1.0,-0.46,0.39,15,3,22,1.1,8561,19,94,43,33,1038,435.0,601,469,60,124.0,144,1,302,188,63,0,0,427,18584,10305,435,-5.59,,,,,,,,,,,,
354723,1564151702143,3,2.45,0.95,0.31,1.44,1.1,0.89,-0.43,0.41,15,3,21,0.99,8457,19,94,43,33,935,435.0,600,466,60,125.0,144,1,301,186,63,0,0,430,-26615,8488,435,-5.59,,,,,,,,,,,,
354743,1564151702163,1,2.46,0.95,0.31,1.44,1.09,0.94,-0.4,0.4,15,3,21,1.02,8340,19,94,43,33,931,435.0,606,466,60,124.0,144,1,298,182,63,0,0,436,-21944,10305,435,-5.59,44.681194,10.025139,42.96,175.1,0,0.0,-1,0.0,0.0,0,2.42,5.9124
354763,1564151702183,1,2.46,0.95,0.31,1.43,1.1,0.91,-0.37,0.38,15,3,21,0.98,8169,19,94,43,33,923,437.0,589,465,60,124.0,125,1,295,176,55,0,0,435,18584,15649,437,-5.59,,,,,,,,,,,,
354783,1564151702202,0,2.47,0.95,0.31,1.44,1.1,1.02,-0.37,0.37,14,2,21,1.09,8047,19,94,42,34,913,436.0,586,462,60,123.0,125,1,295,179,55,0,0,436,-21944,2131,436,-5.59,,,,,,,,,,,,
354803,1564151702222,2,2.45,0.95,0.31,1.43,1.1,0.93,-0.33,0.32,14,1,21,0.98,8016,19,94,42,34,897,435.0,579,466,60,125.0,125,1,295,183,55,0,0,431,7154,-6387,435,-5.59,,,,,,,,,,,,
354823,1564151702242,2,2.44,0.95,0.32,1.43,1.09,0.96,-0.34,0.3,14,1,20,1.02,7898,19,94,42,35,891,435.0,578,463,60,125.0,125,1,298,182,55,0,0,428,-21944,21432,437,-5.59,,,,,,,,,,,,
354843,1564151702262,-2,2.45,0.95,0.32,1.43,1.1,1.07,-0.38,0.4,14,1,20,1.13,7838,19,94,42,35,884,434.0,578,466,60,124.0,125,1,298,182,55,0,0,427,-21944,-18341,434,-5.59,44.681183,10.025138,42.61,175.1,0,0.0,-1,0.0,0.0,0,2.43,5.9141
354863,1564151702282,-0,2.44,0.95,0.32,1.43,1.09,1.09,-0.36,0.44,13,-0,19,1.15,7858,19,94,42,36,869,436.0,567,465,60,124.0,123,1,301,188,54,0,0,427,-21944,16648,436,-5.59,,,,,,,,,,,,
354883,1564151702304,1,2.45,0.95,0.31,1.43,1.1,0.97,-0.32,0.38,14,0,19,1.03,7780,19,94,42,36,857,434.0,561,466,60,125.0,123,1,301,188,54,0,0,428,18584,26704,434,-5.59,,,,,,,,,,,,
354903,1564151702324,2,2.44,0.95,0.31,1.44,1.1,0.88,-0.32,0.35,14,1,19,0.94,7780,19,94,42,36,854,433.0,561,465,60,125.0,123,1,301,194,54,0,0,427,18584,23400,433,-5.59,,,,,,,,,,,,
354923,1564151702344,3,2.44,0.95,0.31,1.44,1.1,0.86,-0.35,0.39,14,2,17,0.93,7725,19,94,42,37,849,433.0,565,466,60,124.0,123,1,304,194,54,0,0,425,2524,16648,433,-5.59,,,,,,,,,,,,
354943,1564151702364,-0,2.44,0.95,0.31,1.44,1.1,0.93,-0.42,0.43,14,2,18,1.02,7697,19,94,42,37,842,432.0,552,467,60,123.0,123,1,304,194,54,0,0,426,18584,23400,433,-5.59,44.681175,10.025136,42.64,175.1,0,0.0,-1,0.0,0.0,0,2.43,5.9157
354963,1564151702384,-1,2.45,0.95,0.32,1.43,1.1,1.04,-0.42,0.53,13,1,19,1.12,7735,19,94,42,38,838,434.0,556,466,60,124.0,129,1,307,194,56,0,0,425,18584,23400,434,-5.59,,,,,,,,,,,,
354983,1564151702402,-1,2.44,0.94,0.31,1.43,1.09,1.06,-0.36,0.51,13,-0,18,1.11,7719,19,94,42,38,834,432.0,567,464,60,123.0,129,1,307,200,56,0,0,423,-26615,-28332,432,-5.59,,,,,,,,,,,,
355003,1564151702422,1,2.45,0.95,0.31,1.44,1.09,0.99,-0.3,0.41,13,-1,17,1.03,7838,19,94,42,38,833,431.0,558,464,60,124.0,129,1,307,200,56,0,0,420,2524,243,431,-5.59,,,,,,,,,,,,
355023,1564151702442,2,2.45,0.95,0.31,1.43,1.09,0.95,-0.26,0.36,13,0,19,0.99,7918,19,94,42,38,830,428.0,566,466,60,125.0,129,1,307,200,56,0,0,415,9517,1779,428,-5.59,,,,,,,,,,,,
355043,1564151702462,0,2.44,0.95,0.31,1.44,1.09,1.06,-0.25,0.4,13,0,18,1.09,8033,19,94,42,38,826,425.0,588,465,60,123.0,129,1,307,200,56,0,0,416,10392,13552,425,-5.59,44.681164,10.025134,42.71,175.1,0,0.0,-1,0.0,0.0,0,2.43,5.9174
355063,1564151702482,2,2.43,0.95,0.31,1.44,1.09,0.99,-0.27,0.37,12,0,17,1.03,8130,19,94,42,37,825,424.0,580,465,60,125.0,139,1,306,200,59,0,0,417,-26615,5600,424,-5.59,,,,,,,,,,,,
355083,1564151702502,-0,2.44,0.95,0.31,1.44,1.09,1.04,-0.31,0.41,12,1,18,1.09,8130,19,94,42,37,823,425.0,578,466,60,125.0,139,1,306,196,59,0,0,417,10392,-768,425,-5.59,,,,,,,,,,,,
355103,1564151702522,0,2.44,0.95,0.31,1.43,1.1,0.98,-0.24,0.4,11,-1,19,1.01,8148,19,94,42,36,819,425.0,585,463,60,125.0,139,1,303,196,59,0,0,418,10392,-3322,425,-5.59,,,,,,,,,,,,
355123,1564151702542,0,2.43,0.95,0.32,1.43,1.1,0.96,-0.29,0.42,11,1,18,1.0,8202,19,94,42,36,817,422.0,591,466,60,125.0,139,1,305,198,59,0,0,418,10392,-3322,422,-5.59,,,,,,,,,,,,
355143,1564151702562,0,2.43,0.95,0.32,1.44,1.09,1.02,-0.29,0.39,11,-0,17,1.06,8198,19,94,42,37,815,423.0,577,467,60,124.0,139,1,307,197,59,0,0,416,2524,1779,424,-5.59,44.681152,10.025132,42.37,175.1,0,0.0,-1,0.0,0.0,0,2.43,5.9191
355163,1564151702582,2,2.44,0.95,0.32,1.44,1.1,0.86,-0.34,0.43,12,0,16,0.92,8155,19,94,42,36,814,422.0,578,463,60,125.0,139,1,304,191,59,0,0,416,11560,3635,422,-5.59,,,,,,,,,,,,
355183,1564151702602,0,2.44,0.95,0.32,1.43,1.1,0.95,-0.32,0.48,11,-1,16,1.0,8159,20,94,42,36,813,421.0,575,466,60,123.0,139,1,304,191,59,0,0,415,-26615,-3322,421,-5.59,,,,,,,,,,,,
355203,1564151702622,2,2.43,0.95,0.31,1.44,1.09,0.8,-0.28,0.43,12,0,16,0.85,8166,20,94,42,36,812,421.0,579,463,60,124.0,139,1,304,191,59,0,0,420,-9211,243,421,-5.59,,,,,,,,,,,,
355223,1564151702642,-0,2.42,0.94,0.31,1.44,1.09,0.92,-0.28,0.5,12,2,15,0.96,8148,20,94,42,36,811,420.0,590,465,60,125.0,139,1,303,191,59,0,0,417,-9211,243,419,-5.59,,,,,,,,,,,,
355243,1564151702662,3,2.43,0.94,0.31,1.44,1.1,0.82,-0.25,0.48,12,1,15,0.85,8106,20,94,42,36,810,420.0,579,463,60,125.0,139,1,303,190,59,0,0,414,-9211,31796,420,-5.59,44.681145,10.025129,41.82,175.1,0,0.0,-1,0.0,0.0,0,2.43,5.9207
355263,1564151702682,0,2.43,0.95,0.32,1.42,1.1,0.89,-0.29,0.47,12,3,16,0.93,8148,20,94,42,36,811,419.0,582,467,60,124.0,140,1,303,191,59,0,0,413,-9211,31796,419,-5.59,,,,,,,,,,,,
355283,1564151702702,1,2.42,0.95,0.31,1.44,1.1,0.92,-0.26,0.46,11,2,15,0.95,8134,20,94,42,36,814,418.0,590,466,60,124.0,140,1,303,191,59,0,0,413,-8151,-3314,418,-5.59,,,,,,,,,,,,
355303,1564151702722,2,2.43,0.95,0.31,1.43,1.1,0.82,-0.26,0.45,12,2,15,0.86,8092,20,94,42,36,818,418.0,581,465,60,124.0,140,1,302,190,59,0,0,416,1504,13180,417,-5.59,,,,,,,,,,,,
355323,1564151702742,0,2.43,0.94,0.32,1.44,1.09,0.94,-0.25,0.47,11,2,16,0.97,8057,20,94,42,37,821,416.0,579,467,60,124.0,140,1,305,189,59,0,0,417,-8151,-3322,416,-5.59,,,,,,,,,,,,
355343,1564151702762,2,2.43,0.95,0.32,1.43,1.1,0.9,-0.2,0.47,11,1,15,0.92,8019,20,94,43,36,823,419.0,579,465,60,124.0,140,1,301,195,59,0,0,422,10541,3635,419,-5.59,44.681133,10.025126,41.55,175.1,0,0.0,-1,0.0,0.0,0,2.43,5.9224
355363,1564151702782,3,2.43,0.95,0.32,1.43,1.09,0.87,-0.22,0.46,11,1,15,0.9,7894,20,94,43,37,828,420.0,568,466,60,124.0,138,1,304,194,58,0,0,421,-8151,3635,420,-5.59,,,,,,,,,,,,
355383,1564151702802,-0,2.43,0.95,0.32,1.43,1.09,0.95,-0.28,0.5,11,2,16,0.99,7832,20,94,43,38,829,419.0,561,467,60,124.0,138,1,307,194,58,0,0,420,-9211,1779,419,-5.59,,,,,,,,,,,,
355403,1564151702822,-1,2.43,0.95,0.32,1.43,1.09,1.05,-0.29,0.56,11,1,15,1.09,7757,20,94,43,38,829,419.0,560,466,60,122.0,138,1,307,200,58,0,0,414,2524,31796,419,-5.59,,,,,,,,,,,,
355423,1564151702842,0,2.43,0.95,0.32,1.43,1.1,1.06,-0.26,0.63,11,1,15,1.09,7712,20,94,43,38,830,419.0,561,463,60,122.0,138,1,307,200,58,0,0,415,-9211,13552,419,-5.59,,,,,,,,,,,,
355443,1564151702862,1,2.43,0.95,0.31,1.44,1.09,0.98,-0.2,0.6,11,-0,15,1.0,7725,20,94,43,38,830,419.0,560,465,60,124.0,138,1,307,205,58,0,0,415,-9211,13180,419,-5.59,44.681122,10.025122,41.3,175.2,0,0.0,-1,0.0,0.0,0,2.43,5.924
355463,1564151702882,2,2.44,0.94,0.31,1.43,1.1,0.84,-0.17,0.53,11,-1,13,0.85,7693,20,94,43,39,830,418.0,556,466,60,124.0,143,1,310,205,60,0,0,413,-9211,-3322,418,-5.59,,,,,,,,,,,,
355483,1564151702902,3,2.44,0.95,0.31,1.44,1.09,0.73,-0.19,0.41,11,-1,14,0.75,7716,20,94,43,40,830,419.0,557,467,60,124.0,143,1,317,205,60,0,0,416,1504,-3314,418,-5.59,,,,,,,,,,,,
355503,1564151702922,2,2.44,0.95,0.31,1.43,1.1,0.77,-0.25,0.4,11,0,16,0.81,7706,20,94,43,40,829,419.0,552,467,60,125.0,143,1,317,205,60,0,0,413,11545,13180,419,-5.59,,,,,,,,,,,,
355523,1564151702942,-0,2.44,0.95,0.31,1.43,1.09,0.9,-0.25,0.45,11,1,15,0.93,7738,21,94,43,40,826,416.0,567,465,60,124.0,143,1,317,206,60,0,0,413,10541,13180,416,-5.59,,,,,,,,,,,,
355543,1564151702962,-1,2.44,0.95,0.31,1.43,1.09,1.01,-0.3,0.51,11,1,14,1.05,7780,21,94,43,40,824,416.0,562,468,60,123.0,143,1,317,206,60,0,0,413,-8151,-21792,416,-5.59,44.681114,10.025117,41.25,175.2,0,0.0,-1,0.0,0.0,0,2.43,5.9257
355563,1564151702982,2,2.44,0.95,0.31,1.43,1.1,0.94,-0.26,0.46,11,0,16,0.98,7776,21,94,43,40,822,418.0,566,466,60,124.0,143,1,317,206,60,0,0,413,10541,-3856,417,-5.59,,,,,,,,,,,,
355583,1564151702994,2,2.44,0.95,0.31,1.44,1.1,0.83,-0.2,0.43,12,1,16,0.85,7835,21,94,43,40,821,417.0,563,467,60,124.0,143,1,317,206,60,0,0,414,11545,-3856,417,-5.59,,,,,,,,,,,,
355603,1564151703014,3,2.45,0.94,0.31,1.43,1.1,0.8,-0.21,0.46,12,2,14,0.83,7812,21,94,43,40,815,416.0,570,465,60,124.0,143,1,317,206,60,0,0,409,28696,13552,416,-5.59,,,,,,,,,,,,
355623,1564151703034,-0,2.44,0.95,0.31,1.43,1.1,0.88,-0.29,0.55,12,3,15,0.93,7861,21,94,43,40,811,417.0,560,467,60,124.0,143,1,317,206,60,0,0,411,6512,13552,417,-5.59,,,,,,,,,,,,
355643,1564151703054,1,2.44,0.95,0.31,1.44,1.09,0.88,-0.25,0.53,12,2,16,0.92,7934,21,94,43,40,809,417.0,561,468,60,124.0,143,1,317,206,60,0,0,409,6384,3635,417,-5.59,44.681103,10.025112,41.23,175.2,0,0.0,-1,0.0,0.0,0,2.43,5.9274
355663,1564151703074,2,2.45,0.94,0.32,1.43,1.1,0.76,-0.26,0.52,12,1,15,0.8,7951,21,94,43,40,806,416.0,570,466,60,124.0,149,1,317,206,62,0,0,410,6384,-3856,414,-5.59,,,,,,,,,,,,
355683,1564151703103,-0,2.44,0.95,0.31,1.43,1.1,0.81,-0.32,0.52,12,2,15,0.87,8005,21,94,43,40,806,414.0,565,466,60,124.0,149,1,317,207,62,0,0,407,6512,-8165,414,-5.59,,,,,,,,,,,,
355703,1564151703123,1,2.44,0.95,0.31,1.43,1.09,0.84,-0.28,0.49,12,1,16,0.89,8043,21,94,43,40,806,414.0,567,468,60,123.0,149,1,317,207,62,0,0,408,28696,13552,414,-5.59,,,,,,,,,,,,
355723,1564151703143,1,2.45,0.94,0.31,1.43,1.1,0.71,-0.32,0.51,12,0,16,0.78,8026,21,94,43,39,808,414.0,575,467,60,125.0,149,1,310,207,62,0,0,411,6512,-21944,414,-5.59,,,,,,,,,,,,
355743,1564151703163,-0,2.44,0.94,0.31,1.43,1.1,0.8,-0.35,0.58,12,1,15,0.87,8043,21,94,43,39,810,414.0,572,466,60,124.0,149,1,310,205,62,0,0,414,28696,13180,414,-5.59,44.681095,10.025107,40.99,175.2,0,0.0,-1,0.0,0.0,0,2.44,5.929
355763,1564151703183,1,2.44,0.95,0.32,1.43,1.09,0.85,-0.3,0.53,12,-1,16,0.9,7958,21,94,43,39,814,415.0,572,463,60,124.0,146,1,310,206,61,0,0,416,28696,-3314,416,-5.59,,,,,,,,,,,,
355783,1564151703203,0,2.45,0.95,0.31,1.43,1.1,0.74,-0.28,0.54,11,-1,15,0.79,7825,21,94,43,39,816,415.0,580,463,60,124.0,146,1,310,206,61,0,0,419,6512,-3314,418,-5.59,,,,,,,,,,,,
355803,1564151703223,3,2.44,0.95,0.31,1.43,1.1,0.64,-0.33,0.49,11,1,14,0.72,7802,21,94,43,40,817,418.0,564,466,60,124.0,146,1,317,206,61,0,0,414,11545,243,418,-5.59,,,,,,,,,,,,
355823,1564151703243,3,2.44,0.94,0.31,1.43,1.1,0.73,-0.36,0.51,11,2,15,0.82,7716,21,94,43,40,818,415.0,561,465,60,125.0,146,1,317,206,61,0,0,414,11545,-3414,415,-5.59,,,,,,,,,,,,
355843,1564151703263,-1,2.44,0.95,0.31,1.43,1.09,0.86,-0.38,0.59,11,1,16,0.94,7693,21,94,43,41,823,416.0,558,467,60,124.0,146,1,325,208,61,0,0,409,10541,13180,416,-5.59,44.681084,10.025101,41.03,175.2,0,0.0,-1,0.0,0.0,0,2.44,5.9307
355863,1564151703283,-1,2.44,0.95,0.31,1.43,1.1,0.93,-0.4,0.64,11,0,15,1.01,7760,21,94,43,41,828,418.0,568,465,60,123.0,144,1,325,208,60,0,0,410,11545,-4082,416,-5.59,,,,,,,,,,,,
355883,1564151703303,1,2.45,0.94,0.31,1.43,1.1,0.88,-0.33,0.59,11,0,15,0.94,7754,21,94,43,41,833,416.0,554,464,60,124.0,144,1,325,208,60,0,0,412,11545,-3314,416,-5.59,,,,,,,,,,,,
355903,1564151703323,2,2.44,0.94,0.31,1.43,1.1,0.77,-0.29,0.51,12,2,16,0.82,7793,21,94,43,41,836,418.0,557,462,60,125.0,144,1,325,208,60,0,0,411,28696,13180,418,-5.59,,,,,,,,,,,,
355923,1564151703343,3,2.44,0.95,0.31,1.43,1.09,0.7,-0.31,0.53,13,2,14,0.76,7802,21,94,43,41,842,417.0,555,464,60,125.0,144,1,325,208,60,0,0,409,11545,31796,417,-5.59,,,,,,,,,,,,
355943,1564151703363,-1,2.45,0.95,0.31,1.44,1.09,0.8,-0.37,0.55,13,3,14,0.88,7848,21,94,43,41,849,417.0,555,466,60,123.0,144,1,325,208,60,0,0,409,6512,-3314,417,-5.59,44.681076,10.025095,41.13,175.2,0,0.0,-1,0.0,0.0,0,2.44,5.9324
355963,1564151703383,-0,2.44,0.95,0.31,1.44,1.09,0.83,-0.33,0.53,12,1,16,0.89,7911,21,94,43,41,851,418.0,558,464,60,124.0,149,1,325,208,62,0,0,411,28696,31796,417,-5.59,,,,,,,,,,,,
355983,1564151703403,2,2.44,0.95,0.31,1.43,1.09,0.68,-0.32,0.48,12,-0,16,0.75,7921,21,94,43,41,854,416.0,568,463,60,125.0,149,1,325,208,62,0,0,410,28696,3826,416,-5.59,,,,,,,,,,,,
356003,1564151703423,2,2.44,0.95,0.31,1.43,1.1,0.7,-0.36,0.44,12,1,15,0.78,7968,21,94,43,41,853,415.0,565,468,60,123.0,149,1,325,206,62,0,0,412,28696,-21792,415,-5.59,,,,,,,,,,,,
356023,1564151703443,-1,2.43,0.95,0.31,1.43,1.09,0.8,-0.37,0.52,12,1,16,0.88,7944,21,94,43,41,852,414.0,568,467,60,122.0,149,1,325,208,62,0,0,419,6512,1779,414,-5.59,,,,,,,,,,,,
356043,1564151703463,1,2.44,0.95,0.31,1.43,1.09,0.78,-0.36,0.55,11,-2,16,0.86,7881,21,94,43,40,851,417.0,567,466,60,125.0,149,1,317,208,62,0,0,415,6512,13180,416,-5.59,44.681065,10.025088,41.1,175.2,0,0.0,-1,0.0,0.0,0,2.44,5.9341
356063,1564151703483,2,2.44,0.95,0.31,1.44,1.09,0.64,-0.34,0.48,11,-2,16,0.73,7871,21,94,43,40,849,417.0,565,462,60,125.0,146,1,317,206,61,0,0,419,10541,13180,416,-5.59,,,,,,,,,,,,
356083,1564151703503,3,2.44,0.95,0.31,1.43,1.1,0.7,-0.38,0.47,11,-0,17,0.79,7796,21,94,43,41,845,417.0,563,467,60,124.0,146,1,325,206,61,0,0,417,10541,1779,417,-5.59,,,,,,,,,,,,
356103,1564151703523,-1,2.45,0.94,0.31,1.43,1.1,0.83,-0.41,0.56,11,-1,17,0.93,7799,21,94,43,41,843,417.0,562,467,60,124.0,146,1,325,206,61,0,0,414,6512,-3856,417,-5.59,,,,,,,,,,,,
356123,1564151703543,0,2.44,0.95,0.31,1.44,1.09,0.91,-0.4,0.63,11,-1,15,0.99,7783,21,94,43,41,839,416.0,558,467,60,123.0,146,1,325,208,61,0,0,411,11545,-3414,416,-5.59,,,,,,,,,,,,
356143,1564151703563,1,2.45,0.95,0.31,1.44,1.09,0.84,-0.33,0.57,11,-0,16,0.9,7770,21,94,43,41,837,417.0,559,466,60,125.0,146,1,325,208,61,0,0,413,-8151,13552,419,-5.59,44.681057,10.025082,40.92,175.2,0,0.0,-1,0.0,0.0,0,2.44,5.9357
356163,1564151703583,1,2.45,0.95,0.31,1.43,1.09,0.76,-0.32,0.53,12,-0,17,0.82,7812,21,94,43,40,837,416.0,558,463,60,125.0,145,1,317,132,61,0,0,415,6512,31796,417,-5.59,,,,,,,,,,,,
356183,1564151703603,2,2.45,0.95,0.31,1.43,1.1,0.72,-0.32,0.6,12,1,15,0.78,7822,21,94,43,41,841,417.0,565,467,60,124.0,145,1,325,208,61,0,0,409,10541,-3314,417,-5.59,,,,,,,,,,,,
356203,1564151703623,-1,2.44,0.95,0.31,1.43,1.1,0.79,-0.34,0.64,12,1,14,0.86,7868,21,94,43,41,843,417.0,558,466,60,123.0,145,1,325,208,61,0,0,411,11545,3635,417,-5.59,,,,,,,,,,,,
356223,1564151703643,1,2.44,0.95,0.31,1.43,1.1,0.79,-0.27,0.6,12,0,16,0.83,7921,21,94,43,41,847,416.0,563,467,60,124.0,145,1,325,208,61,0,0,411,11545,31796,416,-5.59,,,,,,,,,,,,
356243,1564151703663,4,2.44,0.95,0.31,1.44,1.09,0.69,-0.28,0.6,12,0,15,0.74,7898,21,94,43,41,850,416.0,566,464,60,125.0,145,1,325,208,61,0,0,413,28696,-3856,416,-5.59,44.681046,10.025074,40.87,175.2,0,0.0,-1,0.0,0.0,0,2.44,5.9374
356263,1564151703683,0,2.44,0.95,0.31,1.43,1.1,0.74,-0.35,0.63,12,1,14,0.82,7928,21,94,43,41,851,415.0,566,465,60,125.0,149,1,325,208,62,0,0,413,6512,31796,415,-5.59,,,,,,,,,,,,
356283,1564151703703,0,2.44,0.95,0.31,1.43,1.1,0.79,-0.34,0.64,12,0,16,0.86,7898,21,94,43,41,852,416.0,564,470,60,123.0,149,1,325,206,62,0,0,415,11545,-4082,416,-5.59,,,,,,,,,,,,
356303,1564151703723,2,2.44,0.94,0.31,1.43,1.1,0.76,-0.3,0.61,11,-2,15,0.82,7841,21,94,43,41,849,416.0,569,466,60,123.0,149,1,325,208,62,0,0,419,-8151,-3314,416,-5.59,,,,,,,,,,,,
356323,1564151703743,3,2.45,0.95,0.31,1.44,1.1,0.64,-0.29,0.48,11,-1,15,0.71,7858,21,94,43,41,845,419.0,565,465,60,124.0,149,1,325,206,62,0,0,412,6512,-3314,417,-5.59,,,,,,,,,,,,
356343,1564151703763,3,2.45,0.94,0.31,1.43,1.1,0.7,-0.36,0.52,12,1,16,0.79,7819,21,94,43,41,843,418.0,565,466,60,125.0,149,1,325,208,62,0,0,411,10541,1779,418,-5.59,44.681042,10.025065,40.96,175.2,0,0.0,-1,0.0,0.0,0,2.44,5.9391
356363,1564151703783,-1,2.45,0.95,0.31,1.44,1.09,0.83,-0.35,0.6,11,0,16,0.9,7825,21,94,43,41,840,418.0,565,466,60,123.0,149,1,325,208,62,0,0,414,-8151,13180,418,-5.59,,,,,,,,,,,,
356383,1564151703803,1,2.44,0.95,0.31,1.44,1.09,0.84,-0.33,0.59,11,-1,15,0.9,7878,21,94,43,41,840,418.0,568,463,60,124.0,149,1,325,208,62,0,0,415,11545,3826,418,-5.59,,,,,,,,,,,,
356403,1564151703823,2,2.44,0.95,0.31,1.43,1.1,0.74,-0.28,0.51,11,1,16,0.79,7855,21,94,43,41,841,418.0,562,464,60,125.0,149,1,325,208,62,0,0,412,11545,3635,418,-5.59,,,,,,,,,,,,
356423,1564151703843,2,2.44,0.95,0.31,1.44,1.09,0.74,-0.3,0.51,11,3,17,0.79,7878,21,94,43,41,842,418.0,559,466,60,125.0,149,1,325,208,62,0,0,414,11545,-3414,418,-5.59,,,,,,,,,,,,
356443,1564151703863,-0,2.44,0.95,0.31,1.43,1.09,0.83,-0.33,0.57,12,3,15,0.89,7888,21,94,43,41,844,417.0,559,466,60,124.0,149,1,325,208,62,0,0,416,-8151,31796,417,-5.59,44.68103,10.025058,41.32,175.2,0,0.0,-1,0.0,0.0,0,2.44,5.9407
356463,1564151703883,-0,2.44,0.95,0.32,1.43,1.1,0.83,-0.29,0.56,12,3,15,0.87,7871,21,94,43,41,846,418.0,566,464,60,123.0,148,1,325,208,62,0,0,414,1504,13552,418,-5.59,,,,,,,,,,,,
356483,1564151703904,2,2.43,0.95,0.31,1.44,1.09,0.7,-0.22,0.5,12,3,16,0.74,7908,21,94,43,41,847,419.0,567,464,60,123.0,148,1,325,208,62,0,0,414,-8151,-3856,419,-5.59,,,,,,,,,,,,
356503,1564151703924,3,2.44,0.95,0.31,1.44,1.1,0.69,-0.23,0.57,13,4,15,0.73,7881,21,94,43,40,850,420.0,561,466,60,124.0,148,1,317,206,62,0,0,417,-8151,13552,419,-5.59,,,,,,,,,,,,
356523,1564151703944,0,2.44,0.95,0.31,1.43,1.1,0.76,-0.29,0.67,13,4,14,0.81,7871,21,94,43,41,852,420.0,560,467,60,123.0,148,1,325,208,62,0,0,416,10541,13180,418,-5.59,,,,,,,,,,,,
356543,1564151703964,-0,2.44,0.95,0.31,1.44,1.09,0.73,-0.29,0.68,12,3,15,0.78,7904,21,94,43,41,853,418.0,562,464,60,122.0,148,1,325,208,62,0,0,416,10541,-4082,418,-5.59,44.681023,10.025049,41.18,175.1,0,0.0,-1,0.0,0.0,0,2.45,5.9424
356563,1564151703984,2,2.43,0.95,0.32,1.43,1.09,0.62,-0.31,0.66,12,2,14,0.69,7858,21,94,43,40,854,418.0,567,464,60,125.0,147,1,317,206,62,0,0,416,10541,-3322,418,-5.59,,,,,,,,,,,,
356583,1564151703995,2,2.44,0.94,0.31,1.43,1.09,0.62,-0.36,0.6,12,3,14,0.71,7888,21,94,43,41,857,418.0,565,466,60,125.0,147,1,325,208,62,0,0,415,10541,3635,418,-5.59,,,,,,,,,,,,
356603,1564151704015,-0,2.43,0.95,0.32,1.43,1.09,0.71,-0.37,0.62,12,1,15,0.8,7848,21,94,43,41,862,419.0,564,465,60,122.0,147,1,325,208,62,0,0,417,1504,13180,418,-5.59,,,,,,,,,,,,
356623,1564151704035,-0,2.43,0.95,0.32,1.43,1.09,0.75,-0.34,0.64,12,-0,14,0.82,7822,21,94,43,41,865,419.0,566,467,60,123.0,147,1,325,208,62,0,0,416,-8151,13180,419,-5.59,,,,,,,,,,,,
356643,1564151704055,0,2.44,0.95,0.31,1.43,1.1,0.67,-0.3,0.56,11,-0,14,0.74,7868,21,94,43,41,868,419.0,562,464,60,124.0,147,1,325,208,62,0,0,417,11545,1779,419,-5.59,44.681015,10.02504,41.17,175.1,0,0.0,-1,0.0,0.0,0,2.45,5.944
356663,1564151704075,3,2.43,0.95,0.31,1.43,1.09,0.74,-0.34,0.52,11,1,15,0.81,7858,21,94,43,41,873,419.0,558,466,60,124.0,145,1,325,206,61,0,0,413,10541,31796,419,-5.59,,,,,,,,,,,,
356683,1564151704103,-1,2.44,0.94,0.32,1.43,1.09,0.87,-0.35,0.58,11,1,15,0.94,7874,20,94,43,41,877,417.0,563,467,60,123.0,145,1,325,208,61,0,0,417,10541,13552,417,-5.59,,,,,,,,,,,,
356703,1564151704123,1,2.43,0.95,0.31,1.43,1.09,0.88,-0.34,0.58,11,-1,13,0.94,7894,20,94,43,40,879,419.0,565,465,60,124.0,145,1,317,208,61,0,0,414,11545,1779,419,-5.59,,,,,,,,,,,,
356723,1564151704143,1,2.44,0.95,0.32,1.43,1.09,0.79,-0.33,0.52,11,0,15,0.86,7878,20,94,43,40,879,418.0,564,463,60,124.0,145,1,317,206,61,0,0,414,-8151,243,418,-5.59,,,,,,,,,,,,
356743,1564151704163,3,2.44,0.94,0.31,1.43,1.1,0.8,-0.36,0.53,11,1,15,0.88,7924,20,94,43,41,881,418.0,564,465,60,124.0,145,1,325,206,61,0,0,415,1504,13180,418,-5.59,44.681004,10.02503,41.55,175.1,0,0.0,-1,0.0,0.0,0,2.45,5.9457
356763,1564151704183,-0,2.43,0.95,0.31,1.44,1.1,0.9,-0.33,0.57,11,2,14,0.96,7894,20,94,43,40,882,418.0,565,467,60,123.0,146,1,317,206,61,0,0,417,1504,3635,418,-5.59,,,,,,,,,,,,
356783,1564151704202,1,2.43,0.95,0.32,1.44,1.09,0.88,-0.29,0.55,11,2,14,0.92,7851,20,94,43,40,882,418.0,566,465,60,123.0,146,1,317,206,61,0,0,416,-8151,3635,418,-5.59,,,,,,,,,,,,
356803,1564151704222,2,2.43,0.94,0.31,1.43,1.1,0.81,-0.27,0.52,12,3,15,0.85,7871,20,94,43,40,882,418.0,570,466,60,124.0,146,1,317,206,61,0,0,415,1504,-4082,418,-5.59,,,,,,,,,,,,
356823,1564151704242,2,2.44,0.95,0.31,1.43,1.09,0.78,-0.29,0.56,12,4,13,0.84,7832,20,94,43,40,882,417.0,566,465,60,124.0,146,1,317,206,61,0,0,415,-8151,13180,417,-5.59,,,,,,,,,,,,
356843,1564151704262,-2,2.44,0.95,0.32,1.43,1.1,0.86,-0.35,0.62,12,4,13,0.92,7841,19,94,43,40,880,417.0,567,465,60,123.0,146,1,317,206,61,0,0,413,10541,243,417,-5.59,44.681,10.025021,41.1,175.1,0,0.0,-1,0.0,0.0,0,2.45,5.9474
356863,1564151704282,-1,2.44,0.94,0.31,1.43,1.1,0.86,-0.27,0.59,12,3,15,0.9,7871,19,94,43,40,879,418.0,575,466,60,123.0,146,1,317,206,61,0,0,414,10541,3635,417,-5.59,,,,,,,,,,,,
356883,1564151704302,2,2.43,0.94,0.31,1.44,1.09,0.74,-0.25,0.6,12,1,13,0.78,7851,19,94,43,40,878,417.0,578,463,60,124.0,146,1,317,206,61,0,0,416,-8151,31796,417,-5.59,,,,,,,,,,,,
356903,1564151704322,2,2.44,0.95,0.31,1.44,1.1,0.72,-0.33,0.55,12,2,13,0.79,7878,19,94,43,40,877,417.0,566,466,60,124.0,146,1,317,206,61,0,0,410,11545,-3856,417,-5.59,,,,,,,,,,,,
356923,1564151704342,-0,2.43,0.95,0.32,1.43,1.1,0.83,-0.37,0.6,11,3,15,0.91,7871,18,94,43,40,877,417.0,562,469,60,124.0,146,1,317,206,61,0,0,414,10541,-3314,417,-5.59,,,,,,,,,,,,
356943,1564151704362,-0,2.43,0.95,0.31,1.43,1.09,0.91,-0.27,0.6,11,0,14,0.95,7841,17,94,43,39,878,417.0,563,467,60,124.0,146,1,310,206,61,0,0,417,10541,-3856,417,-5.59,44.680988,10.025011,41.01,175.1,0,0.0,-1,0.0,0.0,0,2.45,5.949
356963,1564151704382,2,2.43,0.95,0.31,1.44,1.1,0.84,-0.24,0.58,11,0,14,0.87,7864,17,94,43,39,879,417.0,564,467,60,123.0,144,1,310,205,60,0,0,415,-8151,-3856,417,-5.59,,,,,,,,,,,,
356983,1564151704402,1,2.44,0.95,0.32,1.43,1.1,0.83,-0.25,0.52,11,2,15,0.87,7812,16,94,43,39,881,417.0,558,466,60,124.0,144,1,310,205,60,0,0,416,11545,-3322,417,-5.59,,,,,,,,,,,,
357003,1564151704422,0,2.43,0.94,0.32,1.43,1.1,0.88,-0.29,0.54,11,2,15,0.93,7822,16,94,43,38,882,416.0,558,465,60,124.0,144,1,307,200,60,0,0,414,10541,-3314,416,-5.59,,,,,,,,,,,,
357023,1564151704442,-1,2.43,0.95,0.32,1.44,1.09,0.98,-0.29,0.58,11,2,13,1.02,7832,16,94,43,38,883,416.0,560,465,60,123.0,144,1,307,200,60,0,0,413,11545,13180,416,-5.59,,,,,,,,,,,,
357043,1564151704462,1,2.43,0.94,0.31,1.43,1.1,0.97,-0.23,0.55,11,1,14,0.99,7789,16,94,43,38,883,415.0,559,465,60,125.0,144,1,307,200,60,0,0,409,-8151,-3414,415,-5.59,44.680984,10.025001,41.44,175.1,0,0.0,-1,0.0,0.0,0,2.45,5.9507
357063,1564151704482,2,2.43,0.95,0.31,1.43,1.09,0.83,-0.2,0.51,11,2,15,0.86,7815,16,94,43,38,883,415.0,562,466,60,124.0,141,1,307,200,59,0,0,413,11545,3635,416,-5.59,,,,,,,,,,,,
357083,1564151704504,3,2.43,0.95,0.32,1.42,1.1,0.76,-0.21,0.5,12,1,13,0.78,7780,16,94,43,38,883,415.0,560,466,60,125.0,141,1,307,194,59,0,0,413,11545,7154,415,-5.59,,,,,,,,,,,,
357103,1564151704524,-0,2.42,0.95,0.32,1.44,1.1,0.82,-0.3,0.48,12,1,14,0.88,7799,16,94,43,37,882,417.0,560,467,60,124.0,141,1,304,194,59,0,0,411,11545,-3414,417,-5.59,,,,,,,,,,,,
357123,1564151704544,-1,2.43,0.94,0.32,1.43,1.1,0.94,-0.33,0.57,11,1,15,1.0,7776,16,94,43,37,882,415.0,562,466,60,124.0,141,1,304,194,59,0,0,410,28696,243,415,-5.59,,,,,,,,,,,,
357143,1564151704564,-1,2.43,0.95,0.31,1.43,1.09,0.96,-0.28,0.64,10,-1,14,1.0,7741,16,94,43,37,879,415.0,559,465,60,123.0,141,1,304,194,59,0,0,410,28696,13180,416,-5.59,44.680977,10.02499,41.39,175.1,0,0.0,-1,0.0,0.0,0,2.45,5.9524
357163,1564151704584,1,2.43,0.94,0.31,1.43,1.1,0.87,-0.23,0.58,10,-1,14,0.9,7757,16,94,43,37,876,415.0,559,464,60,124.0,134,1,304,200,56,0,0,414,28696,31796,415,-5.59,,,,,,,,,,,,
357183,1564151704604,2,2.42,0.94,0.31,1.43,1.09,0.79,-0.24,0.49,10,0,14,0.83,7697,16,94,43,37,871,415.0,554,465,60,124.0,134,1,304,194,56,0,0,409,6512,13552,415,-5.59,,,,,,,,,,,,
357203,1564151704624,3,2.43,0.95,0.31,1.43,1.09,0.72,-0.23,0.46,11,2,14,0.76,7712,16,94,43,37,867,412.0,552,467,60,124.0,134,1,304,194,56,0,0,410,6512,-4082,412,-5.59,,,,,,,,,,,,
357223,1564151704644,2,2.42,0.95,0.32,1.43,1.1,0.7,-0.23,0.49,12,3,13,0.74,7653,16,94,43,37,862,414.0,547,467,60,123.0,134,1,304,194,56,0,0,412,6512,-3414,414,-5.59,,,,,,,,,,,,
357243,1564151704664,0,2.42,0.95,0.32,1.43,1.1,0.79,-0.34,0.55,12,4,13,0.86,7690,15,94,43,37,859,413.0,548,465,60,125.0,134,1,304,194,56,0,0,408,28696,18584,413,-5.59,44.680969,10.024979,41.24,175.1,0,0.0,-1,0.0,0.0,0,2.45,5.9541
357263,1564151704684,-1,2.42,0.95,0.32,1.42,1.1,0.9,-0.35,0.63,11,3,15,0.96,7678,15,94,43,37,855,413.0,551,466,60,123.0,135,1,304,194,56,0,0,410,28696,13552,413,-5.59,,,,,,,,,,,,
357283,1564151704704,-1,2.41,0.94,0.32,1.44,1.09,1.01,-0.31,0.74,10,1,13,1.06,7643,15,94,43,37,855,413.0,549,466,60,123.0,135,1,304,194,56,0,0,410,-3968,-4082,413,-5.59,,,,,,,,,,,,
357303,1564151704724,1,2.42,0.95,0.32,1.43,1.1,1.08,-0.31,0.75,9,-0,12,1.12,7649,15,94,43,37,855,411.0,560,465,60,124.0,135,1,304,194,56,0,0,411,6384,-4082,411,-5.59,,,,,,,,,,,,
357323,1564151704744,1,2.42,0.94,0.31,1.44,1.09,1.07,-0.25,0.74,9,-1,13,1.1,7584,14,94,43,36,853,410.0,555,464,60,124.0,135,1,301,194,56,0,0,407,-3968,-8165,410,-5.59,,,,,,,,,,,,
357343,1564151704764,1,2.41,0.94,0.31,1.44,1.09,0.99,-0.19,0.71,10,-3,13,1.01,7603,14,94,43,36,853,411.0,550,464,60,123.0,135,1,301,188,56,0,0,409,6384,-3414,411,-5.59,44.680965,10.024968,40.61,175.1,0,0.0,-1,0.0,0.0,0,2.45,5.9557
357363,1564151704784,1,2.42,0.94,0.32,1.43,1.1,0.84,-0.16,0.59,9,-5,12,0.85,7533,13,94,43,36,852,411.0,551,463,60,125.0,131,1,301,188,54,0,0,408,-3968,-21944,410,-5.59,,,,,,,,,,,,
357383,1564151704804,2,2.41,0.95,0.32,1.44,1.09,0.75,-0.16,0.51,9,-4,11,0.77,7563,13,94,43,36,850,412.0,547,464,60,125.0,131,1,301,188,54,0,0,406,-32702,-21944,408,-5.59,,,,,,,,,,,,
357403,1564151704824,1,2.41,0.95,0.32,1.43,1.1,0.69,-0.13,0.43,10,-4,12,0.7,7503,13,94,43,35,853,407.0,545,464,60,125.0,131,1,298,188,54,0,0,407,6384,2524,407,-5.59,,,,,,,,,,,,
357423,1564151704844,2,2.4,0.94,0.31,1.43,1.1,0.58,-0.09,0.35,10,-3,11,0.59,7512,13,94,43,35,853,410.0,544,465,60,124.0,131,1,298,188,54,0,0,406,-32702,18584,410,-5.59,,,,,,,,,,,,
357443,1564151704864,1,2.41,0.94,0.32,1.43,1.1,0.5,-0.08,0.24,10,-3,10,0.5,7458,12,94,43,35,856,409.0,538,466,60,125.0,131,1,298,182,54,0,0,407,-32702,7154,409,-5.59,44.680958,10.024956,40.77,175.1,0,0.0,-1,0.0,0.0,0,2.46,5.9574
357463,1564151704884,-0,2.41,0.94,0.32,1.43,1.1,0.47,-0.06,0.19,9,-4,12,0.47,7458,12,94,43,35,859,408.0,543,465,60,125.0,125,1,298,182,51,0,0,405,-3968,-21944,408,-5.59,,,,,,,,,,,,
357483,1564151704904,0,2.39,0.95,0.32,1.44,1.09,0.4,0.01,0.12,9,-5,12,0.4,7413,12,94,43,35,861,408.0,542,464,60,123.0,125,1,298,182,51,0,0,403,17144,-4059,408,-5.59,,,,,,,,,,,,
357503,1564151704924,-0,2.4,0.95,0.32,1.44,1.1,0.36,0.02,0.2,9,-6,11,0.36,7416,12,94,43,35,865,406.0,533,465,60,124.0,125,1,298,182,51,0,0,403,-32702,18584,406,-5.59,,,,,,,,,,,,
357523,1564151704944,-0,2.38,0.94,0.32,1.43,1.09,0.42,0.05,0.23,9,-7,10,0.42,7381,11,94,43,35,865,405.0,530,466,60,123.0,125,1,298,182,51,0,0,402,-1818,13040,406,-5.59,,,,,,,,,,,,
357543,1564151704964,-1,2.38,0.94,0.32,1.43,1.1,0.53,-0.03,0.27,8,-7,10,0.53,7458,11,94,43,34,866,405.0,537,465,60,124.0,125,1,295,182,51,0,0,402,-6656,10392,403,-5.59,44.68095,10.024945,40.38,175.2,0,0.0,-1,0.0,0.0,0,2.46,5.9591
357563,1564151704984,-2,2.39,0.94,0.32,1.43,1.1,0.63,0.03,0.37,8,-7,11,0.63,7497,11,94,43,34,870,402.0,539,463,60,124.0,121,1,295,182,49,0,0,399,1,2524,402,-5.59,,,,,,,,,,,,
357583,1564151704994,-1,2.39,0.94,0.32,1.42,1.1,0.66,0.01,0.41,7,-8,11,0.66,7563,11,94,43,34,872,402.0,545,466,60,124.0,121,1,295,176,49,0,0,397,-6524,2524,402,-5.59,,,,,,,,,,,,
357603,1564151705014,1,2.38,0.95,0.32,1.43,1.1,0.72,0.04,0.45,6,-9,10,0.72,7594,11,94,43,34,877,398.0,548,464,60,124.0,121,1,295,176,49,0,0,398,-1562,-9211,398,-5.59,,,,,,,,,,,,
357623,1564151705034,-0,2.39,0.94,0.32,1.43,1.1,0.69,0.05,0.46,6,-10,9,0.69,7612,11,94,43,33,880,397.0,552,467,60,123.0,121,1,292,176,49,0,0,398,-31744,1504,397,-5.59,,,,,,,,,,,,
357643,1564151705054,1,2.38,0.95,0.31,1.44,1.1,0.62,0.09,0.37,6,-9,10,0.63,7560,11,94,43,33,885,397.0,552,463,60,123.0,121,1,292,171,49,0,0,395,-6524,-9211,397,-5.59,44.680946,10.024933,40.2,175.2,0,0.0,-1,0.0,0.0,0,2.46,5.9607
357663,1564151705074,-0,2.38,0.95,0.32,1.42,1.1,0.54,0.14,0.34,6,-9,10,0.56,7551,10,94,43,33,891,397.0,548,467,60,125.0,121,1,292,171,48,0,0,398,240,-9211,397,-5.59,,,,,,,,,,,,
357683,1564151705104,1,2.38,0.94,0.32,1.44,1.09,0.45,0.15,0.26,6,-9,8,0.48,7491,9,94,43,32,893,396.0,546,465,60,124.0,121,1,290,166,48,0,0,396,-31744,28696,396,-5.59,,,,,,,,,,,,
357703,1564151705124,-0,2.38,0.94,0.32,1.44,1.09,0.42,0.17,0.23,6,-8,9,0.46,7482,8,94,43,32,895,395.0,543,465,60,125.0,121,1,290,166,48,0,0,396,-31744,2524,395,-5.59,,,,,,,,,,,,
357723,1564151705144,-0,2.38,0.95,0.32,1.43,1.1,0.4,0.23,0.15,6,-8,10,0.47,7376,8,94,43,31,896,395.0,539,466,60,124.0,121,1,286,166,48,0,0,396,-19019,-8151,395,-5.59,,,,,,,,,,,,
357743,1564151705164,1,2.38,0.95,0.32,1.44,1.09,0.35,0.26,0.19,6,-10,9,0.44,7364,8,94,43,32,896,394.0,534,469,60,124.0,121,1,290,166,48,0,0,396,-6475,1504,394,-5.59,44.680939,10.02492,39.58,175.2,0,0.0,-1,0.0,0.0,0,2.46,5.9624
357763,1564151705184,-1,2.38,0.95,0.32,1.44,1.09,0.45,0.2,0.28,5,-11,7,0.5,7295,8,94,43,31,897,392.0,528,462,60,123.0,114,1,286,164,45,0,0,395,-6475,28696,392,-5.59,,,,,,,,,,,,
357783,1564151705203,-0,2.37,0.95,0.32,1.43,1.09,0.61,0.15,0.38,5,-10,8,0.63,7312,8,94,43,32,897,392.0,532,468,60,123.0,114,1,290,164,45,0,0,389,-19019,-32702,391,-5.59,,,,,,,,,,,,
357803,1564151705223,4,2.36,0.94,0.32,1.43,1.09,0.72,0.08,0.44,5,-8,9,0.72,7318,8,94,43,31,897,391.0,529,466,60,124.0,114,1,286,164,45,0,0,389,-19019,-1818,391,-5.59,,,,,,,,,,,,
357823,1564151705243,3,2.37,0.94,0.31,1.43,1.1,0.79,0.04,0.41,5,-6,10,0.79,7292,8,94,43,31,894,390.0,534,467,60,122.0,114,1,286,164,45,0,0,389,-18948,1,390,-5.59,,,,,,,,,,,,
357843,1564151705263,2,2.37,0.95,0.32,1.42,1.09,0.83,0.03,0.38,5,-4,8,0.83,7341,8,94,43,31,893,389.0,531,465,60,125.0,114,1,286,164,45,0,0,390,-992,-1562,387,-5.59,44.680935,10.02491,39.13,175.2,0,0.0,-1,0.0,0.0,0,2.46,5.964
357863,1564151705283,1,2.36,0.94,0.32,1.43,1.09,0.72,0.03,0.3,6,-3,7,0.72,7301,8,94,43,31,891,387.0,534,465,60,125.0,116,1,286,164,45,0,0,389,8200,-1818,387,-5.59,,,,,,,,,,,,
357883,1564151705303,-1,2.37,0.95,0.31,1.43,1.09,0.61,0.05,0.25,5,-2,7,0.61,7301,8,94,43,31,889,386.0,533,465,60,124.0,116,1,286,164,45,0,0,386,8200,-6524,386,-5.59,,,,,,,,,,,,
357903,1564151705323,-1,2.37,0.94,0.32,1.44,1.09,0.57,0.08,0.3,5,-3,7,0.57,7259,8,94,43,31,887,384.0,533,467,60,124.0,116,1,286,164,45,0,0,386,2278,-31744,384,-5.59,,,,,,,,,,,,
357923,1564151705343,-0,2.37,0.94,0.32,1.44,1.1,0.63,0.1,0.39,5,-4,8,0.64,7259,8,94,43,31,887,384.0,534,466,60,124.0,116,1,286,164,45,0,0,386,-6656,-1562,384,-5.59,,,,,,,,,,,,
357943,1564151705363,3,2.37,0.95,0.32,1.44,1.09,0.77,0.07,0.48,4,-4,7,0.77,7233,8,94,43,31,887,382.0,528,465,60,123.0,116,1,286,164,45,0,0,386,3,505,382,-5.59,44.680927,10.024898,38.96,175.2,0,0.0,-1,0.0,0.0,0,2.46,5.9657
357963,1564151705383,1,2.38,0.95,0.31,1.44,1.09,0.8,0.05,0.47,5,-3,8,0.8,7170,8,94,43,31,889,383.0,526,463,60,125.0,115,1,285,164,44,0,0,383,770,-31744,383,-5.59,,,,,,,,,,,,
357983,1564151705403,0,2.37,0.95,0.31,1.44,1.09,0.7,0.08,0.4,5,-1,7,0.7,7183,7,94,43,31,891,381.0,523,463,60,125.0,115,1,285,164,44,0,0,384,-6656,-992,381,-5.59,,,,,,,,,,,,
358003,1564151705423,1,2.37,0.95,0.32,1.44,1.1,0.65,0.13,0.4,5,-1,7,0.66,7131,7,94,43,31,893,378.0,521,464,60,123.0,115,1,285,164,44,0,0,381,-6656,-1562,378,-5.59,,,,,,,,,,,,
358023,1564151705443,1,2.37,0.94,0.32,1.44,1.09,0.72,0.08,0.52,5,-3,7,0.72,7107,7,94,43,31,894,378.0,519,467,60,123.0,115,1,285,164,44,0,0,380,-6656,-19126,378,-5.59,,,,,,,,,,,,
358043,1564151705463,1,2.37,0.95,0.32,1.44,1.09,0.82,0.06,0.51,5,-2,7,0.82,7104,7,94,43,31,897,378.0,521,463,60,124.0,115,1,285,164,44,0,0,379,257,-19019,378,-5.59,44.680923,10.024886,38.31,175.2,0,0.0,-1,0.0,0.0,0,2.46,5.9674
358063,1564151705483,1,2.37,0.94,0.32,1.44,1.09,0.77,0.09,0.37,5,-1,6,0.77,7083,7,94,43,31,901,376.0,516,462,60,125.0,116,1,285,164,44,0,0,378,-6656,-6475,376,-5.59,,,,,,,,,,,,
358083,1564151705504,-0,2.37,0.94,0.31,1.43,1.1,0.78,0.1,0.34,5,-2,6,0.79,7099,6,94,43,31,905,375.0,521,466,60,123.0,116,1,285,164,44,0,0,376,-6656,2278,375,-5.59,,,,,,,,,,,,
358103,1564151705524,3,2.37,0.95,0.32,1.43,1.1,0.84,0.03,0.46,4,-2,7,0.84,7067,6,94,43,31,908,374.0,516,465,60,123.0,116,1,285,164,44,0,0,375,0,-18948,372,-5.59,,,,,,,,,,,,
358123,1564151705544,1,2.37,0.94,0.32,1.43,1.1,0.89,0.04,0.42,5,-1,7,0.89,7056,6,94,43,31,910,372.0,521,462,60,125.0,116,1,285,164,44,0,0,375,0,8200,372,-5.59,,,,,,,,,,,,
358143,1564151705564,-1,2.37,0.95,0.32,1.43,1.1,0.8,0.06,0.36,5,-1,5,0.8,7048,6,94,43,31,913,2774.0,522,465,60,124.0,116,1,285,164,44,0,0,488,-30694,742,2774,-5.59,44.68092,10.024875,37.66,175.2,0,0.0,-1,0.0,0.0,0,2.46,5.969
358163,1564151705584,2,2.38,0.94,0.32,1.43,1.1,0.83,-0.01,0.39,4,-2,5,0.83,6983,6,94,43,31,917,2774.0,517,464,60,124.0,15,1,285,164,43,0,0,488,-30694,2278,2774,-5.59,,,,,,,,,,,,
358183,1564151705603,0,2.37,0.95,0.32,1.44,1.09,0.84,-0.01,0.38,5,-1,5,0.84,6944,6,94,43,31,917,357.0,524,465,60,126.0,15,1,285,164,43,0,0,488,-6640,2278,54,-5.59,,,,,,,,,,,,
358203,1564151705623,0,2.37,0.95,0.32,1.43,1.09,0.77,0.05,0.35,5,-0,5,0.78,6947,6,94,43,31,917,364.0,515,464,60,124.0,15,1,285,164,43,0,0,488,-14707,742,364,-5.59,,,,,,,,,,,,
358223,1564151705643,2,2.37,0.94,0.32,1.43,1.1,0.77,-0.02,0.48,4,-1,6,0.77,6931,6,94,43,31,918,366.0,514,466,60,123.0,15,1,285,164,43,0,0,488,-14707,3,366,-5.59,,,,,,,,,,,,
358243,1564151705663,-1,2.38,0.95,0.31,1.43,1.09,0.78,0.01,0.41,5,0,6,0.78,6916,6,94,43,31,918,366.0,512,463,60,125.0,15,1,285,164,43,0,0,25,-29302,486,365,-5.59,44.680916,10.024862,37.35,175.2,0,0.0,-1,0.0,0.0,0,2.46,5.9707
358263,1564151705683,-0,2.37,0.95,0.32,1.43,1.09,0.68,-0.0,0.42,5,-3,6,0.68,6923,6,94,43,31,919,365.0,509,467,60,124.0,117,1,285,164,43,0,0,25,-29978,0,365,-5.59,,,,,,,,,,,,
358283,1564151705703,2,2.37,0.94,0.31,1.43,1.1,0.76,0.03,0.37,5,-2,7,0.76,6900,6,94,43,31,919,366.0,508,467,60,124.0,117,1,285,164,43,0,0,25,-29302,0,366,-5.59,,,,,,,,,,,,
358303,1564151705723,-0,2.37,0.94,0.32,1.43,1.1,0.75,0.07,0.3,5,-0,7,0.75,6865,6,94,43,31,918,366.0,507,463,60,125.0,117,1,286,164,43,0,0,25,-6640,0,366,-5.59,,,,,,,,,,,,
358323,1564151705743,2,2.36,0.95,0.32,1.44,1.09,0.79,0.05,0.37,5,-1,6,0.79,6840,6,94,43,32,918,363.0,504,465,60,125.0,117,1,290,164,43,0,0,35,-29978,0,363,-5.59,,,,,,,,,,,,
358343,1564151705763,-2,2.37,0.94,0.32,1.43,1.1,0.86,0.06,0.33,5,0,6,0.86,6833,6,94,43,31,917,362.0,506,466,60,125.0,117,1,286,164,43,0,0,35,-29978,230,362,-5.59,44.680912,10.024851,36.87,175.2,0,0.0,-1,0.0,0.0,0,2.47,5.9724
358363,1564151705783,3,2.36,0.95,0.32,1.44,1.09,0.86,-0.02,0.49,4,-1,6,0.86,6793,6,94,43,32,915,362.0,498,466,60,123.0,115,1,290,166,42,0,0,35,2060,-6656,362,-5.59,,,,,,,,,,,,
358383,1564151705803,0,2.37,0.94,0.32,1.43,1.09,0.96,-0.05,0.47,5,1,5,0.96,6771,6,94,43,32,912,885.0,504,464,60,125.0,115,1,290,166,42,0,0,39,2811,0,885,-5.59,,,,,,,,,,,,
358403,1564151705823,2,2.36,0.95,0.32,1.43,1.1,0.84,-0.07,0.54,4,-1,6,0.84,6764,6,94,43,32,909,348.0,504,467,60,124.0,115,1,290,166,42,0,0,39,-30438,-1268,348,-5.59,,,,,,,,,,,,
358423,1564151705843,-0,2.36,0.94,0.31,1.43,1.1,0.9,0.01,0.42,5,1,4,0.9,6747,6,94,43,31,907,355.0,506,464,60,124.0,115,1,286,166,42,0,0,39,2811,-6458,355,-5.59,,,,,,,,,,,,
358443,1564151705863,3,2.35,0.95,0.32,1.43,1.1,0.88,-0.03,0.42,4,0,5,0.88,6737,6,94,43,32,905,355.0,501,465,60,123.0,115,1,290,166,42,0,0,39,-30454,3082,355,-5.59,44.680904,10.02484,36.13,175.2,0,0.0,-1,0.0,0.0,0,2.47,5.974
358463,1564151705883,-1,2.35,0.95,0.31,1.44,1.09,0.98,-0.02,0.4,4,0,5,0.98,6703,6,94,43,32,903,355.0,503,462,60,125.0,117,1,290,166,42,0,0,39,2811,-14707,355,-5.59,,,,,,,,,,,,
358483,1564151705903,1,2.35,0.94,0.33,1.43,1.09,0.92,-0.04,0.48,4,-1,5,0.92,6665,6,94,43,32,901,354.0,502,466,60,124.0,117,1,290,166,42,0,0,39,2811,-6458,354,-5.59,,,,,,,,,,,,
358503,1564151705923,1,2.34,0.94,0.32,1.44,1.09,0.97,0.05,0.45,5,1,4,0.97,6660,6,94,43,32,899,352.0,500,467,60,122.0,117,1,290,166,42,0,0,39,8841,2060,352,-5.59,,,,,,,,,,,,
358523,1564151705943,1,2.35,0.95,0.31,1.43,1.1,0.92,-0.04,0.47,4,-1,5,0.93,6632,6,94,43,32,898,351.0,496,466,60,123.0,117,1,290,166,42,0,0,39,8841,-29978,351,-5.59,,,,,,,,,,,,
358543,1564151705963,-1,2.34,0.95,0.32,1.43,1.1,0.93,0.06,0.46,4,1,4,0.93,6599,6,94,43,32,897,348.0,498,461,60,123.0,117,1,290,171,42,0,0,39,6870,-6644,348,-5.59,44.680904,10.024828,35.68,175.2,0,0.0,-1,0.0,0.0,0,2.47,5.9757
358563,1564151705983,-0,2.34,0.94,0.32,1.43,1.1,1.02,-0.01,0.45,4,-0,4,1.02,6581,6,94,43,33,897,349.0,495,466,60,124.0,120,1,292,166,42,0,0,348,-10554,-6644,349,-5.59,,,,,,,,,,,,
358583,1564151705995,3,2.34,0.94,0.32,1.44,1.09,0.83,0.02,0.48,3,-2,4,0.83,6578,6,94,43,33,897,346.0,495,465,60,123.0,120,1,292,171,42,0,0,347,-14714,-6644,346,-5.59,,,,,,,,,,,,
358603,1564151706015,-0,2.35,0.94,0.31,1.44,1.09,0.95,0.02,0.39,4,0,3,0.95,6597,6,94,43,33,897,345.0,495,465,60,123.0,120,1,292,171,42,0,0,346,-14714,-30454,345,-5.59,,,,,,,,,,,,
358623,1564151706035,-0,2.35,0.94,0.32,1.44,1.09,0.88,-0.03,0.34,3,-1,4,0.88,6569,6,94,43,33,899,344.0,492,465,60,123.0,120,1,292,171,42,0,0,349,-31206,-1246,344,-5.59,,,,,,,,,,,,
358643,1564151706055,3,2.34,0.95,0.32,1.44,1.1,0.83,0.05,0.34,4,0,4,0.83,6517,6,94,43,33,899,345.0,491,465,60,123.0,120,1,292,171,42,0,0,348,3327,28553,342,-5.59,44.680901,10.024817,35.26,175.2,0,0.0,-1,0.0,0.0,0,2.47,5.9774
358663,1564151706075,-0,2.34,0.95,0.31,1.43,1.09,0.95,0.04,0.31,4,0,3,0.95,6487,5,94,43,33,901,343.0,491,464,60,123.0,122,1,292,171,42,0,0,348,6668,2811,343,-5.59,,,,,,,,,,,,
358683,1564151706103,-0,2.34,0.95,0.33,1.43,1.1,0.85,-0.01,0.34,3,-1,4,0.85,6454,5,94,43,33,901,342.0,488,468,60,124.0,122,1,292,171,42,0,0,346,3327,-6644,342,-5.59,,,,,,,,,,,,
358703,1564151706123,3,2.34,0.94,0.33,1.43,1.1,0.85,0.07,0.41,3,0,3,0.85,6461,5,94,43,34,903,341.0,490,467,60,123.0,122,1,295,176,42,0,0,345,-31222,-30454,341,-5.59,,,,,,,,,,,,
358723,1564151706143,-0,2.35,0.94,0.32,1.43,1.09,0.95,0.07,0.4,4,1,3,0.95,6427,5,94,43,33,905,340.0,488,463,60,123.0,122,1,292,176,42,0,0,344,13,-10554,340,-5.59,,,,,,,,,,,,
358743,1564151706163,-1,2.35,0.94,0.32,1.43,1.1,0.98,0.02,0.42,3,-2,4,0.98,6430,1,94,43,34,907,340.0,485,466,60,125.0,122,1,295,176,42,0,0,342,3346,-14714,338,-5.59,44.680897,10.024806,34.55,175.2,0,0.0,-1,0.0,0.0,0,2.47,5.9791
358763,1564151706183,1,2.35,0.94,0.33,1.44,1.1,0.89,-0.03,0.45,3,-1,3,0.89,6397,0,94,44,34,909,337.0,481,466,60,125.0,124,1,295,175,42,0,0,341,4838,-31206,337,-5.59,,,,,,,,,,,,
358783,1564151706202,2,2.34,0.95,0.32,1.44,1.09,0.79,-0.05,0.57,4,1,3,0.79,6362,0,94,43,34,909,336.0,483,462,60,124.0,124,1,295,176,42,0,0,338,-6528,-31206,336,-5.59,,,,,,,,,,,,
358803,1564151706222,-0,2.34,0.95,0.32,1.43,1.09,0.91,-0.05,0.48,4,2,3,0.91,6349,0,94,43,34,909,335.0,486,465,60,124.0,124,1,295,176,42,0,0,339,-6528,-31222,335,-5.59,,,,,,,,,,,,
358823,1564151706242,-1,2.34,0.95,0.32,1.43,1.09,1.02,-0.08,0.47,3,-1,3,1.02,6328,0,94,43,34,909,333.0,485,463,60,125.0,124,1,295,101,42,0,0,340,-12032,13,333,-5.59,,,,,,,,,,,,
358843,1564151706262,-0,2.34,0.94,0.32,1.44,1.09,1.11,-0.11,0.51,3,-4,3,1.11,6291,0,94,44,34,907,334.0,479,464,60,125.0,124,1,295,175,42,0,0,338,-32559,-14714,333,-5.59,44.680889,10.024796,34.17,175.2,0,0.0,-1,0.0,0.0,0,2.47,5.9807
358863,1564151706282,2,2.34,0.94,0.32,1.44,1.1,0.99,-0.1,0.5,3,-2,3,1.0,6287,0,94,44,34,903,332.0,476,466,60,124.0,123,1,295,101,41,0,0,336,175,-122,332,-5.59,,,,,,,,,,,,
358883,1564151706304,2,2.34,0.94,0.33,1.43,1.1,0.85,-0.06,0.5,3,0,2,0.85,6277,0,94,43,35,898,331.0,475,465,60,124.0,123,1,298,182,41,0,0,336,170,13,331,-5.59,,,,,,,,,,,,
358903,1564151706324,-1,2.34,0.94,0.32,1.44,1.09,0.79,-0.02,0.44,4,1,1,0.79,6268,0,94,43,34,896,328.0,475,461,60,125.0,123,1,295,176,41,0,0,334,165,2560,328,-5.59,,,,,,,,,,,,
358923,1564151706344,-1,2.33,0.94,0.32,1.44,1.09,0.91,0.01,0.38,3,-1,1,0.91,6256,0,94,44,34,895,328.0,471,462,60,125.0,123,1,295,175,41,0,0,333,-23296,-12032,328,-5.59,,,,,,,,,,,,
358943,1564151706364,-0,2.34,0.95,0.32,1.43,1.1,1.02,0.06,0.32,3,-3,2,1.02,6237,0,94,43,35,894,327.0,469,464,60,126.0,123,1,298,182,41,0,0,335,-23296,-32559,327,-5.59,44.680885,10.024784,33.4,175.2,0,0.0,-1,0.0,0.0,0,2.47,5.9824
358963,1564151706384,1,2.34,0.95,0.32,1.44,1.1,1.02,0.07,0.33,2,-4,2,1.03,6218,0,94,44,35,892,326.0,463,465,60,125.0,127,1,298,181,42,0,0,331,-23296,-12032,326,-5.59,,,,,,,,,,,,
358983,1564151706402,2,2.34,0.95,0.31,1.44,1.09,0.87,0.08,0.36,3,-3,1,0.87,6177,0,94,44,35,891,326.0,462,465,60,124.0,127,1,298,181,42,0,0,333,-23296,-22016,326,-5.59,,,,,,,,,,,,
359003,1564151706422,1,2.34,0.95,0.32,1.43,1.1,0.71,0.07,0.36,3,-0,1,0.71,6127,0,94,44,35,891,325.0,466,466,60,124.0,127,1,298,181,42,0,0,329,-24576,-32559,325,-5.59,,,,,,,,,,,,
359023,1564151706442,2,2.34,0.95,0.31,1.44,1.09,0.55,0.09,0.38,3,3,1,0.56,6123,0,94,44,35,890,324.0,463,465,60,124.0,127,1,298,181,42,0,0,330,-24576,175,324,-5.59,,,,,,,,,,,,
359043,1564151706462,2,2.34,0.95,0.32,1.43,1.09,0.7,0.06,0.41,3,4,1,0.7,6060,0,94,44,35,889,323.0,462,465,60,124.0,127,1,298,181,42,0,0,327,150,-20736,323,-5.59,44.680885,10.024774,32.91,175.2,0,0.0,-1,0.0,0.0,0,2.47,5.984
359063,1564151706482,1,2.35,0.95,0.32,1.43,1.1,0.67,0.09,0.42,3,4,0,0.67,6060,0,94,44,35,889,322.0,462,465,60,124.0,126,1,298,186,41,0,0,324,-27136,165,322,-5.59,,,,,,,,,,,,
359083,1564151706502,2,2.34,0.94,0.32,1.43,1.09,0.65,0.15,0.42,3,4,0,0.67,6085,0,94,44,35,888,320.0,461,462,60,125.0,126,1,298,186,41,0,0,326,145,-22016,320,-5.59,,,,,,,,,,,,
359103,1564151706522,-1,2.35,0.95,0.31,1.44,1.09,0.79,0.07,0.43,2,2,0,0.79,6060,0,94,44,35,888,320.0,461,465,60,124.0,126,1,298,181,41,0,0,324,-29696,165,320,-5.59,,,,,,,,,,,,
359123,1564151706542,-0,2.34,0.95,0.32,1.43,1.09,0.86,0.04,0.4,2,1,0,0.86,6054,0,94,44,36,886,318.0,463,463,60,124.0,126,1,301,186,41,0,0,321,140,155,318,-5.59,,,,,,,,,,,,
359143,1564151706562,-1,2.35,0.95,0.31,1.44,1.09,0.98,-0.01,0.41,2,-1,-0,0.98,6030,0,94,44,36,884,318.0,465,465,60,125.0,126,1,301,186,41,0,0,319,135,-25856,318,-5.59,44.680882,10.024762,32.65,175.2,0,0.0,-1,0.0,0.0,0,2.47,5.9857
359163,1564151706582,-1,2.34,0.94,0.32,1.43,1.09,1.08,0.01,0.42,1,-4,0,1.08,5980,0,94,44,36,881,318.0,460,463,60,126.0,132,1,299,185,42,0,0,322,-30976,-25856,317,-5.59,,,,,,,,,,,,
359183,1564151706602,-0,2.35,0.94,0.31,1.43,1.1,1.18,0.0,0.45,1,-6,-1,1.18,5937,0,94,44,36,880,317.0,455,462,60,125.0,132,1,297,185,42,0,0,319,130,-25856,317,-5.59,,,,,,,,,,,,
359203,1564151706622,3,2.35,0.94,0.32,1.44,1.1,1.26,-0.04,0.45,1,-7,-1,1.26,5898,0,94,44,37,879,316.0,452,462,60,124.0,132,1,297,191,42,0,0,319,-30976,-29696,316,-5.59,,,,,,,,,,,,
359223,1564151706642,3,2.34,0.95,0.32,1.44,1.1,1.21,0.0,0.42,1,-5,-1,1.21,5881,0,94,44,37,878,314.0,449,466,60,123.0,132,1,296,117,42,0,0,317,-32256,145,314,-5.59,,,,,,,,,,,,
359243,1564151706662,2,2.35,0.94,0.32,1.43,1.1,1.29,-0.05,0.4,1,-4,-1,1.29,5863,0,94,44,37,878,312.0,446,465,60,124.0,132,1,295,191,42,0,0,314,32000,140,312,-5.59,44.680878,10.024752,32.05,175.1,0,0.0,-1,0.0,0.0,0,2.47,5.9874
359263,1564151706682,0,2.35,0.94,0.33,1.43,1.1,1.3,-0.04,0.45,1,-1,-0,1.3,5842,0,94,44,38,879,311.0,437,464,60,124.0,137,1,297,123,43,0,0,315,120,-29696,310,-5.59,,,,,,,,,,,,
359283,1564151706704,2,2.35,0.95,0.33,1.44,1.09,1.11,-0.09,0.43,1,2,-1,1.11,5839,0,94,44,38,877,310.0,438,465,60,125.0,137,1,297,196,43,0,0,315,115,-32256,310,-5.59,,,,,,,,,,,,
359303,1564151706724,-1,2.34,0.94,0.33,1.44,1.09,0.98,-0.11,0.38,1,4,-1,0.98,5861,0,94,44,38,875,308.0,436,464,60,125.0,137,1,298,196,43,0,0,311,110,130,308,-5.59,,,,,,,,,,,,
359323,1564151706744,0,2.34,0.95,0.32,1.44,1.09,0.84,-0.15,0.42,2,4,-1,0.85,5866,0,94,44,38,872,305.0,441,466,60,124.0,137,1,298,196,43,0,0,310,28160,125,305,-5.59,,,,,,,,,,,,
359343,1564151706764,-2,2.35,0.94,0.32,1.43,1.1,0.84,-0.07,0.41,2,3,-0,0.85,5830,0,94,44,39,870,304.0,436,463,60,125.0,137,1,299,196,43,0,0,308,28160,32000,304,-5.59,44.680874,10.024742,31.45,175.1,0,0.0,-1,0.0,0.0,0,2.47,5.989
359363,1564151706784,-1,2.35,0.95,0.32,1.44,1.09,0.96,-0.05,0.42,2,1,-0,0.96,5749,0,94,44,39,869,303.0,435,464,60,125.0,137,1,294,201,42,0,0,307,28160,-32256,305,-5.59,,,,,,,,,,,,
