"Interval"|"ms"|0|0|1,"Utc"|"ms"|0|0|1,"FB_p"|"bar"|0|300|50,"Volant"|"F"|0.0|300.0|50,"xFR"|"mm"|0.0|5.0|50,"xRR"|"mm"|0.0|5.0|50,"xFL"|"mm"|0.0|5.0|50,"xRL"|"mm"|0.0|5.0|50,"AccelX"|"G"|-3.0|3.0|50,"AccelY"|"G"|-3.0|3.0|50,"AccelZ"|"G"|-3.0|3.0|50,"Yaw"|"Deg/Sec"|-120|120|50,"Pitch"|"Deg/Sec"|-120|120|50,"Roll"|"Deg/Sec"|-120|120|50,"Gsum"|"G"|0.0|3.0|50,"RPM"|""|0|14000|50,"TPS"|"%"|0|100|50,"WaterTemp"|"?C"|0|300|50,"AirTemp"|"?C"|-1000|1000|50,"MAP"|"KPa"|0|255|50,"Lambda"|""|0|1024|50,"WheelSpeed"|"MPH"|0.0|150.0|50,"OilPress"|"PSI"|0|150|50,"FuelPress"|"PSI"|0|150|50,"OilTemp"|"F"|0|300|50,"Battery"|"Volts"|0.0|20.0|50,"FuelCon"|"L/h"|-1000|1000|50,"Gear"|""|0|10|50,"Advance"|"Deg"|-360|360|50,"Injection"|"ms"|-1000|1000|50,"FuelCon"|"L/100km"|-1000|1000|50,"LC_But_Pres"|""|-1000|1000|50,"LC_Active"|""|-1000|1000|50,"RD_Speed"|""|-1000|1000|50,"RUD_Speed"|""|-1000|1000|50,"LD_Speed"|""|-1000|1000|50,"LUD_Speed"|""|-1000|1000|50,"Ana1"|"bar"|-1000.0|1000.0|50,"Latitude"|"Degrees"|-180.0|180.0|10,"Longitude"|"Degrees"|-180.0|180.0|10,"Speed"|"kph"|0.0|150.0|10,"Altitude"|"m"|0.0|4000.0|10,"LapCount"|""|0|0|10,"LapTime"|"Min"|0.0|0.0|10,"Sector"|""|0|0|10,"SectorTime"|"Min"|0.0|0.0|10,"ElapsedTime"|"Min"|0.0|0.0|10,"CurrentLap"|""|0|0|10,"Distance"|"km"|0.0|0.0|10,"SessionTime"|"Min"|0.0|0.0|10
262963,1564153007660,0,2.56,1.01,0.38,1.52,1.13,1.2,-0.54,0.86,21,-2,28,1.32,9295,50,98,43,58,1362,475.0,620,460,60,123.0,234,1,403,322,110,0,0,498,16648,248,475,-5.59,,,,,,,,,,,,
262983,1564153007680,2,2.55,1.01,0.38,1.53,1.13,1.09,-0.62,0.88,21,-0,28,1.25,9360,51,97,43,58,1353,477.0,623,466,60,123.0,240,1,404,324,114,0,0,506,16648,11560,477,-5.59,,,,,,,,,,,,
263003,1564153007702,1,2.56,1.0,0.38,1.52,1.14,1.11,-0.66,0.93,20,-1,28,1.3,9389,51,97,43,58,1342,482.0,623,463,60,123.0,240,1,405,324,114,0,0,499,16648,771,482,-5.59,,,,,,,,,,,,
263023,1564153007722,2,2.55,1.0,0.38,1.52,1.13,1.08,-0.63,0.97,21,-0,28,1.25,9417,51,98,43,57,1330,482.0,624,461,60,123.0,240,1,404,320,114,0,0,488,8488,2109,482,-5.59,,,,,,,,,,,,
263043,1564153007742,-1,2.55,1.0,0.38,1.52,1.14,0.91,-0.6,0.82,21,-1,29,1.09,9417,51,98,43,57,1325,483.0,625,464,60,124.0,240,1,404,320,114,0,0,501,3571,-22519,484,-5.59,44.681343,10.025009,46.35,172.4,0,0.0,-1,0.0,0.0,0,1.54,4.384
263063,1564153007762,2,2.54,1.01,0.38,1.52,1.13,0.86,-0.64,0.83,21,1,28,1.07,9431,51,98,43,57,1322,486.0,616,468,60,123.0,240,1,404,320,114,0,0,517,14488,-4054,486,-5.59,,,,,,,,,,,,
263083,1564153007782,3,2.54,1.0,0.38,1.51,1.14,0.93,-0.66,0.9,21,0,28,1.15,9426,51,97,43,57,1308,488.0,617,466,60,122.0,233,1,404,320,114,0,0,499,-18108,6274,488,-5.59,,,,,,,,,,,,
263103,1564153007802,-1,2.54,1.0,0.38,1.52,1.13,0.87,-0.58,0.89,21,1,28,1.04,9407,51,98,43,58,1288,491.0,612,462,60,123.0,233,1,405,320,114,0,0,505,2211,26178,491,-5.59,,,,,,,,,,,,
263123,1564153007822,-1,2.54,1.0,0.38,1.52,1.14,0.88,-0.62,0.76,21,0,28,1.08,9422,58,98,43,58,1270,492.0,620,468,60,123.0,233,1,405,325,114,0,0,508,16408,-3414,491,-5.59,,,,,,,,,,,,
263143,1564153007842,3,2.54,1.0,0.38,1.52,1.13,0.93,-0.67,0.8,20,-1,27,1.15,9422,62,98,43,61,1253,490.0,617,462,60,123.0,233,1,411,340,114,0,0,499,243,-21872,494,-5.59,44.681332,10.02502,46.87,172.4,0,0.0,-1,0.0,0.0,0,1.54,4.3857
263163,1564153007862,1,2.53,1.0,0.38,1.51,1.13,0.9,-0.66,0.8,20,-1,27,1.12,9503,67,98,43,64,1232,495.0,623,468,60,124.0,233,1,414,352,114,0,0,518,30272,17136,495,-5.59,,,,,,,,,,,,
263183,1564153007882,1,2.54,0.99,0.37,1.5,1.13,0.86,-0.71,0.68,20,-1,28,1.11,9635,71,98,43,68,1208,499.0,626,464,60,124.0,278,1,408,385,138,0,0,515,-16384,10994,499,-5.59,,,,,,,,,,,,
263203,1564153007902,1,2.53,0.97,0.37,1.49,1.12,0.69,-0.71,0.73,20,0,27,0.99,9806,72,98,43,70,1193,497.0,632,466,60,123.0,278,1,404,411,138,0,0,510,8488,17136,497,-5.59,,,,,,,,,,,,
263223,1564153007922,3,2.53,0.97,0.37,1.48,1.12,0.76,-0.64,0.65,20,-0,26,1.0,9936,72,98,43,70,1187,499.0,646,460,60,123.0,278,1,398,429,138,0,0,537,-9203,1248,499,-5.59,,,,,,,,,,,,
263243,1564153007942,2,2.53,0.97,0.37,1.5,1.12,0.68,-0.72,0.79,20,1,26,0.99,10000,72,98,43,71,1187,502.0,638,462,60,123.0,278,1,395,444,138,0,0,543,-23367,-32248,504,-5.59,44.681324,10.02503,48.3,172.4,0,0.0,-1,0.0,0.0,0,1.55,4.3874
263263,1564153007962,1,2.53,0.99,0.38,1.51,1.12,0.58,-0.67,0.75,21,4,26,0.89,10086,72,98,43,71,1192,508.0,640,462,60,123.0,278,1,403,445,138,0,0,532,10305,14504,510,-5.59,,,,,,,,,,,,
263283,1564153007982,3,2.53,0.99,0.37,1.49,1.12,0.58,-0.55,0.6,21,1,27,0.8,10124,72,98,43,71,1201,510.0,631,464,60,122.0,332,1,406,447,170,0,0,544,32033,2104,513,-5.59,,,,,,,,,,,,
263303,1564153007992,3,2.53,0.99,0.38,1.51,1.13,0.58,-0.57,0.63,21,1,27,0.81,10151,72,98,43,71,1213,513.0,634,457,60,123.0,332,1,408,446,170,0,0,526,3580,-8186,513,-5.59,,,,,,,,,,,,
263323,1564153008012,1,2.53,0.99,0.37,1.5,1.13,0.54,-0.7,0.77,21,5,26,0.88,10195,72,98,43,71,1221,516.0,632,461,60,123.0,332,1,412,447,170,0,0,555,505,1779,516,-5.59,,,,,,,,,,,,
263343,1564153008032,1,2.53,0.99,0.38,1.5,1.12,0.43,-0.77,0.79,21,7,26,0.88,10195,72,98,43,72,1226,520.0,630,463,60,123.0,332,1,411,454,170,0,0,576,998,-32248,522,-5.59,44.681313,10.025039,49.13,172.4,0,0.0,-1,0.0,0.0,0,1.55,4.389
263363,1564153008052,1,2.53,0.99,0.37,1.51,1.13,0.42,-0.77,0.63,22,5,27,0.87,10324,72,98,43,71,1227,525.0,633,463,60,123.0,332,1,423,450,170,0,0,526,998,6274,526,-5.59,,,,,,,,,,,,
263383,1564153008072,2,2.54,0.98,0.38,1.5,1.13,0.51,-0.59,0.6,22,1,29,0.78,10341,73,98,43,72,1220,526.0,636,467,60,123.0,332,1,422,456,175,0,0,544,3,-32248,528,-5.59,,,,,,,,,,,,
263403,1564153008102,1,2.52,0.99,0.37,1.51,1.12,0.54,-0.47,0.58,22,0,29,0.71,10405,73,98,43,72,1209,530.0,636,463,60,123.0,332,1,429,456,175,0,0,571,2109,6273,531,-5.59,,,,,,,,,,,,
263423,1564153008122,1,2.52,0.99,0.37,1.5,1.12,0.62,-0.31,0.48,21,-1,29,0.7,10492,73,98,43,72,1192,533.0,657,460,60,123.0,332,1,436,458,175,0,0,565,10408,-28648,534,-5.59,,,,,,,,,,,,
263443,1564153008142,1,2.53,0.99,0.37,1.51,1.12,0.59,-0.28,0.45,21,-3,31,0.65,10593,73,98,43,72,1176,534.0,655,466,60,123.0,332,1,439,459,175,0,0,557,15661,2211,534,-5.59,44.681301,10.025047,50.56,172.4,0,0.0,-1,0.0,0.0,0,1.55,4.3907
263463,1564153008162,1,2.53,0.99,0.38,1.51,1.13,0.52,-0.12,0.32,21,-2,30,0.54,10635,73,98,43,72,1166,538.0,644,466,60,123.0,332,1,439,459,175,0,0,559,-3414,-8186,538,-5.59,,,,,,,,,,,,
263483,1564153008182,2,2.52,0.99,0.38,1.5,1.14,0.53,-0.05,0.11,21,-2,29,0.53,10726,73,98,43,72,1155,541.0,638,466,60,123.0,344,1,441,459,186,0,0,565,15679,774,541,-5.59,,,,,,,,,,,,
263503,1564153008202,2,2.51,1.0,0.38,1.51,1.13,0.45,-0.19,0.05,21,-4,31,0.49,10720,73,98,43,72,1141,546.0,643,463,60,123.0,344,1,441,459,186,0,0,597,-3482,774,546,-5.59,,,,,,,,,,,,
263523,1564153008222,3,2.51,0.98,0.37,1.51,1.12,0.51,-0.37,0.25,20,-4,30,0.63,10863,73,98,43,73,1127,547.0,640,466,60,123.0,344,1,443,459,186,0,0,589,1248,259,551,-5.59,,,,,,,,,,,,
263543,1564153008242,1,2.52,0.99,0.38,1.5,1.13,0.45,-0.52,0.42,20,-2,29,0.69,10894,73,98,43,73,1123,552.0,645,464,60,123.0,344,1,445,464,186,0,0,570,2524,259,552,-5.59,44.68129,10.025056,52.43,172.4,0,0.0,-1,0.0,0.0,0,1.55,4.3924
263563,1564153008262,2,2.52,0.99,0.38,1.51,1.13,0.41,-0.34,0.29,21,-3,29,0.53,10952,73,98,43,72,1118,557.0,652,467,60,123.0,344,1,446,459,186,0,0,573,-9072,17344,557,-5.59,,,,,,,,,,,,
263583,1564153008282,3,2.52,0.99,0.38,1.51,1.13,0.47,-0.5,0.36,21,-1,29,0.69,11009,73,98,43,73,1110,562.0,646,469,60,122.0,342,1,447,464,192,0,0,598,2104,2048,562,-5.59,,,,,,,,,,,,
263603,1564153008296,2,2.51,0.99,0.37,1.51,1.12,0.52,-0.51,0.52,20,1,27,0.73,11009,74,98,43,73,1101,566.0,645,467,60,123.0,342,1,446,464,192,0,0,624,6274,-1894,566,-5.59,,,,,,,,,,,,
263623,1564153008316,3,2.51,0.99,0.37,1.5,1.12,0.49,-0.58,0.33,19,-1,27,0.75,11174,74,98,43,73,1095,568.0,650,463,60,123.0,342,1,445,464,192,0,0,578,-30064,-3210,568,-5.59,,,,,,,,,,,,
263643,1564153008336,1,2.53,0.98,0.37,1.5,1.13,0.55,-0.66,0.5,19,-1,26,0.86,11295,73,98,43,73,1090,568.0,650,460,60,123.0,342,1,444,464,192,0,0,596,-28648,-3820,571,-5.59,44.681278,10.025064,54.01,172.4,0,0.0,-1,0.0,0.0,0,1.55,4.3941
263663,1564153008356,3,2.53,0.99,0.37,1.51,1.12,0.57,-0.64,0.38,19,-3,28,0.86,11315,74,98,43,73,1079,572.0,650,461,60,123.0,342,1,443,459,192,0,0,601,-8962,-30139,572,-5.59,,,,,,,,,,,,
263683,1564153008376,1,2.52,0.99,0.37,1.51,1.13,0.52,-0.72,0.54,19,-3,27,0.88,11281,74,98,43,72,1068,577.0,649,464,60,123.0,339,1,444,459,196,0,0,620,-32248,-3820,577,-5.59,,,,,,,,,,,,
263703,1564153008401,2,2.53,0.99,0.38,1.51,1.13,0.44,-0.77,0.42,19,-2,28,0.89,11356,74,98,43,72,1061,581.0,642,466,60,122.0,339,1,443,459,196,0,0,611,-28648,16529,581,-5.59,,,,,,,,,,,,
263723,1564153008421,1,2.53,0.99,0.38,1.51,1.13,0.48,-0.54,0.47,19,-2,29,0.72,11496,74,98,43,72,1055,584.0,645,467,60,123.0,339,1,441,459,196,0,0,598,-28648,19304,584,-5.59,,,,,,,,,,,,
263743,1564153008441,2,2.51,0.99,0.38,1.51,1.12,0.61,-0.66,0.62,19,-2,27,0.89,11545,74,98,43,72,1045,590.0,649,468,60,123.0,339,1,440,459,196,0,0,632,-32504,3403,590,-5.59,44.681263,10.02507,55.61,172.4,0,0.0,-1,0.0,0.0,0,1.55,4.3957
263763,1564153008461,4,2.52,0.99,0.37,1.5,1.13,0.66,-0.79,0.51,19,-0,26,1.03,11631,74,97,43,72,1034,591.0,658,467,60,123.0,339,1,440,459,196,0,0,618,-28648,-16883,591,-5.59,,,,,,,,,,,,
263783,1564153008481,1,2.52,0.99,0.38,1.51,1.13,0.62,-0.72,0.42,20,4,27,0.95,11733,74,98,43,71,1028,594.0,655,465,60,122.0,337,1,440,454,201,0,0,622,-23623,-1346,594,-5.59,,,,,,,,,,,,
263803,1564153008501,3,2.51,0.99,0.37,1.51,1.13,0.51,-0.58,0.45,20,8,28,0.77,11748,74,98,43,71,1024,596.0,651,462,60,123.0,337,1,440,454,201,0,0,629,12552,-18357,598,-5.59,,,,,,,,,,,,
263823,1564153008521,2,2.51,1.0,0.38,1.52,1.13,0.41,-0.36,0.59,21,10,29,0.55,11807,74,98,43,71,1014,600.0,652,464,60,123.0,337,1,440,454,201,0,0,626,-29984,-4876,600,-5.59,,,,,,,,,,,,
263843,1564153008541,4,2.5,1.0,0.38,1.51,1.14,0.37,-0.26,0.73,22,10,27,0.45,11844,74,97,43,71,1003,604.0,656,460,60,123.0,337,1,440,454,201,0,0,649,259,-4876,603,-5.59,44.681252,10.025075,57.51,172.4,0,0.0,-1,0.0,0.0,0,1.55,4.3974
263863,1564153008561,3,2.49,1.01,0.38,1.52,1.13,0.32,-0.2,0.86,22,10,26,0.37,11904,74,98,43,71,995,608.0,657,466,60,123.0,337,1,440,454,201,0,0,639,1,-2836,608,-5.59,,,,,,,,,,,,
263883,1564153008581,2,2.48,1.0,0.37,1.51,1.14,0.25,-0.13,0.94,21,13,28,0.28,11965,74,98,43,71,988,611.0,651,460,60,123.0,336,1,440,454,205,0,0,639,30208,-2580,611,-5.59,,,,,,,,,,,,
263903,1564153008601,2,2.47,1.0,0.38,1.51,1.12,0.21,-0.03,0.96,21,13,29,0.21,12026,74,98,43,71,970,612.0,658,461,60,122.0,336,1,440,454,205,0,0,640,-16384,-30207,612,-5.59,,,,,,,,,,,,
263923,1564153008621,2,2.47,1.0,0.38,1.51,1.13,0.17,0.11,1.06,22,12,29,0.2,12057,74,98,43,71,948,614.0,657,463,60,123.0,336,1,440,454,205,0,0,637,2048,-3584,615,-5.59,,,,,,,,,,,,
263943,1564153008641,3,2.45,1.0,0.38,1.51,1.12,0.1,0.22,1.15,22,12,28,0.24,12050,74,97,43,71,930,621.0,662,460,60,123.0,336,1,440,454,205,0,0,656,-13043,479,621,-5.59,44.681236,10.02508,59.1,172.4,0,0.0,-1,0.0,0.0,0,1.56,4.399
263963,1564153008661,3,2.46,0.99,0.38,1.51,1.12,0.08,0.3,1.23,21,14,27,0.31,12088,74,98,43,71,914,622.0,658,463,60,123.0,336,1,440,454,205,0,0,659,-13043,31988,622,-5.59,,,,,,,,,,,,
263983,1564153008681,4,2.48,0.99,0.37,1.5,1.13,0.03,0.27,1.21,21,16,27,0.27,12167,74,98,43,71,893,623.0,648,460,60,123.0,335,1,440,454,209,0,0,647,-13043,-3038,623,-5.59,,,,,,,,,,,,
264003,1564153008701,2,2.48,0.99,0.37,1.51,1.13,0.08,0.07,1.16,21,14,26,0.11,12278,74,98,43,71,871,624.0,655,468,60,122.0,335,1,440,455,209,0,0,644,-3210,-388,624,-5.59,,,,,,,,,,,,
264023,1564153008721,2,2.49,1.0,0.38,1.5,1.13,0.14,-0.13,1.1,20,15,24,0.2,12311,74,98,43,71,856,625.0,656,462,60,122.0,335,1,440,455,209,0,0,659,-23055,-10344,628,-5.59,,,,,,,,,,,,
264043,1564153008741,2,2.51,1.0,0.38,1.51,1.13,0.33,-0.31,1.04,20,16,22,0.45,12335,74,98,43,71,850,634.0,657,467,60,122.0,335,1,440,455,209,0,0,674,-30139,31988,632,-5.59,44.681225,10.025084,60.78,172.5,0,0.0,-1,0.0,0.0,0,1.56,4.4007
264063,1564153008761,4,2.52,1.0,0.38,1.52,1.13,0.46,-0.12,0.94,19,12,24,0.48,12392,74,98,43,71,838,634.0,656,468,60,122.0,335,1,440,456,209,0,0,664,17740,-2830,636,-5.59,,,,,,,,,,,,
264083,1564153008781,5,2.52,0.99,0.38,1.52,1.13,0.43,-0.06,0.98,19,10,26,0.44,12384,74,98,43,71,822,634.0,660,470,60,122.0,336,1,440,456,214,0,0,658,-30139,-10344,636,-5.59,,,,,,,,,,,,
264103,1564153008801,0,2.54,1.0,0.38,1.52,1.12,0.37,-0.26,1.04,19,7,23,0.45,12433,74,98,43,71,809,640.0,673,468,60,121.0,336,1,440,456,214,0,0,665,-3446,-10348,640,-5.59,,,,,,,,,,,,
264123,1564153008821,4,2.53,1.0,0.38,1.51,1.13,0.36,-0.43,1.13,19,7,23,0.56,12475,74,98,43,71,800,644.0,660,468,60,121.0,336,1,440,457,214,0,0,683,-28304,-26380,644,-5.59,,,,,,,,,,,,
264143,1564153008841,1,2.53,1.0,0.38,1.51,1.13,0.4,-0.34,1.07,19,6,25,0.52,12609,74,98,43,71,790,646.0,665,470,60,122.0,336,1,440,457,214,0,0,674,269,-26892,646,-5.59,44.681206,10.025086,62.19,172.5,0,0.0,-1,0.0,0.0,0,1.56,4.4024
264163,1564153008861,2,2.54,1.01,0.38,1.52,1.13,0.38,-0.39,1.08,20,4,24,0.54,12694,74,97,43,71,780,649.0,666,468,60,123.0,336,1,440,458,214,0,0,671,269,-388,649,-5.59,,,,,,,,,,,,
264183,1564153008881,3,2.53,1.01,0.38,1.52,1.14,0.49,-0.55,1.16,20,1,23,0.74,12737,74,98,43,71,772,650.0,667,469,60,123.0,341,1,440,458,221,0,0,674,269,-10344,650,-5.59,,,,,,,,,,,,
264203,1564153008901,2,2.54,1.0,0.37,1.51,1.13,0.51,-0.54,1.0,20,1,25,0.74,12711,74,98,43,71,771,652.0,665,460,60,123.0,341,1,440,458,221,0,0,704,30721,-10346,652,-5.59,,,,,,,,,,,,
264223,1564153008921,3,2.53,1.01,0.37,1.52,1.13,0.42,-0.55,1.0,21,2,27,0.69,12763,74,98,43,71,768,654.0,659,460,60,123.0,341,1,440,458,221,0,0,670,3395,24,654,-5.59,,,,,,,,,,,,
264243,1564153008941,3,2.54,1.01,0.38,1.53,1.13,0.55,-0.65,1.01,21,3,25,0.85,12833,74,97,43,71,765,655.0,659,459,60,123.0,341,1,440,459,221,0,0,676,506,16599,655,-5.59,44.68119,10.025088,63.29,172.5,0,0.0,-1,0.0,0.0,0,1.56,4.404
264263,1564153008961,1,2.53,1.01,0.38,1.52,1.13,0.54,-0.53,0.9,22,1,26,0.76,12833,74,98,43,71,762,660.0,662,466,60,123.0,341,1,440,459,221,0,0,690,-1346,-10399,660,-5.59,,,,,,,,,,,,
264283,1564153008981,4,2.53,1.01,0.37,1.53,1.13,0.52,-0.67,1.0,22,1,25,0.85,12798,74,98,43,71,760,663.0,661,472,60,123.0,335,1,440,458,222,0,0,693,-1346,6208,662,-5.59,,,,,,,,,,,,
264303,1564153008993,2,2.52,1.01,0.37,1.53,1.13,0.54,-0.62,0.85,22,1,27,0.82,12877,74,98,43,71,758,662.0,662,471,60,123.0,335,1,440,459,222,0,0,696,-14655,16599,664,-5.59,,,,,,,,,,,,
264323,1564153009013,5,2.53,1.01,0.38,1.52,1.13,0.65,-0.75,0.96,22,0,27,0.99,13002,74,98,43,71,754,662.0,671,466,60,123.0,335,1,440,460,222,0,0,692,-14655,11576,666,-5.59,,,,,,,,,,,,
264343,1564153009033,2,2.54,1.01,0.38,1.52,1.14,0.55,-0.71,0.88,22,0,27,0.9,12975,74,98,43,71,750,668.0,668,463,60,123.0,335,1,440,460,222,0,0,697,966,11576,666,-5.59,44.681175,10.025089,64.45,172.5,0,0.0,-1,0.0,0.0,0,1.56,4.4057
264363,1564153009053,0,2.55,1.01,0.37,1.51,1.12,0.61,-0.84,0.85,22,2,25,1.04,12993,74,98,43,71,748,664.0,656,456,60,123.0,335,1,440,460,222,0,0,677,771,-10448,664,-5.59,,,,,,,,,,,,
264383,1564153009073,4,2.55,1.01,0.38,1.52,1.13,0.66,-0.6,0.71,22,2,28,0.89,13048,74,98,43,71,746,666.0,668,465,60,122.0,342,1,440,460,228,0,0,706,-2836,-20693,666,-5.59,,,,,,,,,,,,
264403,1564153009101,4,2.54,1.01,0.38,1.53,1.14,0.63,-0.74,0.84,21,1,26,0.97,13029,74,98,43,71,744,669.0,668,470,60,123.0,342,1,440,460,228,0,0,697,-2836,19188,669,-5.59,,,,,,,,,,,,
264423,1564153009121,2,2.54,1.02,0.38,1.52,1.13,0.63,-0.66,0.72,21,-0,27,0.91,13057,74,98,43,71,742,670.0,665,471,60,122.0,342,1,440,460,228,0,0,717,6208,-20693,670,-5.59,,,,,,,,,,,,
264443,1564153009141,0,2.54,1.01,0.38,1.53,1.13,0.76,-0.79,0.83,21,-2,26,1.1,13185,74,98,43,71,742,675.0,667,470,60,123.0,342,1,440,460,228,0,0,715,-10251,6208,674,-5.59,44.68116,10.025088,65.72,172.5,0,0.0,-1,0.0,0.0,0,1.56,4.4074
264463,1564153009161,1,2.53,1.01,0.37,1.53,1.13,0.65,-0.72,0.71,22,-2,29,0.97,13176,74,98,43,71,742,676.0,660,461,60,123.0,342,1,440,460,228,0,0,686,16599,6658,674,-5.59,,,,,,,,,,,,
264483,1564153009181,5,2.54,1.01,0.37,1.52,1.13,0.72,-0.61,0.71,22,1,30,0.94,13232,74,98,43,71,740,675.0,663,462,60,123.0,343,1,440,460,231,0,0,714,244,-20693,675,-5.59,,,,,,,,,,,,
264503,1564153009201,4,2.52,1.01,0.37,1.52,1.14,0.68,-0.75,0.84,21,3,28,1.01,13213,74,97,43,71,739,679.0,671,468,60,123.0,343,1,440,460,231,0,0,729,11776,-20693,679,-5.59,,,,,,,,,,,,
264523,1564153009221,3,2.52,1.02,0.38,1.52,1.13,0.65,-0.65,0.69,22,2,29,0.92,13307,73,98,43,71,738,681.0,665,471,60,122.0,343,1,440,460,231,0,0,684,4909,-3888,679,-5.59,,,,,,,,,,,,
264543,1564153009241,2,2.53,1.01,0.38,1.52,1.13,0.74,-0.76,0.72,22,-1,28,1.06,13316,73,98,43,71,736,681.0,661,468,60,122.0,343,1,440,460,231,0,0,706,11566,-388,681,-5.59,44.681145,10.025085,66.49,172.6,0,0.0,-1,0.0,0.0,0,1.57,4.409
264563,1564153009261,2,2.53,1.02,0.38,1.52,1.13,0.63,-0.85,0.73,22,2,27,1.06,13260,73,97,43,71,735,679.0,670,461,60,123.0,343,1,440,460,231,0,0,719,4909,-30694,679,-5.59,,,,,,,,,,,,
264583,1564153009281,2,2.53,1.02,0.37,1.53,1.13,0.72,-0.72,0.62,21,2,29,1.02,13335,73,97,43,71,734,683.0,662,463,60,123.0,340,1,440,460,232,0,0,720,2024,-12152,683,-5.59,,,,,,,,,,,,
264603,1564153009301,2,2.53,1.01,0.38,1.53,1.13,0.72,-0.85,0.75,21,0,28,1.11,13297,73,98,43,71,734,682.0,650,465,60,123.0,340,1,440,460,232,0,0,715,479,204,684,-5.59,,,,,,,,,,,,
264623,1564153009321,5,2.53,1.02,0.38,1.53,1.14,0.7,-0.93,0.83,22,1,27,1.16,13364,73,98,43,71,734,685.0,660,471,60,123.0,340,1,440,460,232,0,0,717,-2830,-2918,683,-5.59,,,,,,,,,,,,
264643,1564153009341,3,2.53,1.01,0.38,1.52,1.13,0.68,-0.81,0.7,22,0,28,1.05,13326,73,97,43,71,733,687.0,666,463,60,122.0,340,1,440,460,232,0,0,710,-388,-2918,687,-5.59,44.681126,10.025082,67.17,172.6,0,0.0,-1,0.0,0.0,0,1.57,4.4107
264663,1564153009361,5,2.53,1.02,0.37,1.53,1.13,0.75,-0.83,0.72,22,3,28,1.12,13450,73,97,43,71,732,689.0,667,461,60,123.0,340,1,440,460,232,0,0,718,8958,16118,689,-5.59,,,,,,,,,,,,
264683,1564153009381,4,2.52,1.02,0.38,1.53,1.14,0.7,-0.94,0.84,22,3,28,1.17,13402,73,97,43,71,732,692.0,665,461,60,123.0,338,1,440,460,234,0,0,724,-26380,16118,692,-5.59,,,,,,,,,,,,
264703,1564153009400,4,2.52,1.02,0.38,1.53,1.14,0.68,-0.86,0.71,23,4,30,1.1,13469,73,97,43,71,731,697.0,665,468,60,122.0,338,1,440,460,234,0,0,705,-26380,204,697,-5.59,,,,,,,,,,,,
264723,1564153009420,4,2.52,1.02,0.38,1.53,1.13,0.73,-0.8,0.74,23,3,29,1.08,13383,73,98,43,71,732,692.0,656,462,60,122.0,338,1,440,460,234,0,0,729,-10344,-31068,695,-5.59,,,,,,,,,,,,
264743,1564153009440,3,2.55,1.01,0.38,1.52,1.14,0.73,-0.92,0.81,22,6,25,1.17,13479,73,97,43,71,733,690.0,656,458,60,121.0,338,1,440,460,234,0,0,713,-3038,-2560,694,-5.59,44.68111,10.025076,67.86,172.6,0,0.0,-1,0.0,0.0,0,1.57,4.4124
264763,1564153009460,2,2.55,1.01,0.38,1.52,1.14,0.75,-1.02,0.83,21,3,24,1.27,13479,73,97,43,71,735,691.0,655,464,60,122.0,338,1,440,460,234,0,0,715,-388,-388,691,-5.59,,,,,,,,,,,,
264783,1564153009480,2,2.55,1.01,0.38,1.53,1.13,0.64,-0.9,0.64,21,3,29,1.1,13537,73,97,43,71,737,689.0,653,473,60,122.0,341,1,440,460,235,0,0,721,31988,-3450,689,-5.59,,,,,,,,,,,,
264803,1564153009502,4,2.54,1.02,0.38,1.52,1.13,0.64,-0.81,0.66,22,4,28,1.04,13489,73,97,43,71,737,695.0,653,464,60,122.0,341,1,440,460,235,0,0,744,-10348,-4091,691,-5.59,,,,,,,,,,,,
264823,1564153009522,4,2.54,1.02,0.38,1.53,1.13,0.64,-0.9,0.79,22,6,25,1.11,13528,73,97,43,71,736,698.0,656,460,60,122.0,341,1,440,466,235,0,0,718,-3578,-2358,698,-5.59,,,,,,,,,,,,
264843,1564153009542,3,2.52,1.01,0.38,1.53,1.13,0.64,-1.01,0.91,21,5,25,1.2,13567,73,97,43,72,734,701.0,654,462,60,122.0,341,1,440,460,235,0,0,734,-3578,-388,701,-5.59,44.681095,10.02507,68.5,172.6,0,0.0,-1,0.0,0.0,0,1.57,4.4141
264863,1564153009562,3,2.51,1.01,0.38,1.52,1.13,0.57,-0.92,0.72,21,8,28,1.08,13666,73,97,43,72,732,700.0,661,467,60,123.0,341,1,440,466,235,0,0,732,1549,-2918,700,-5.59,,,,,,,,,,,,
264883,1564153009582,2,2.51,1.01,0.37,1.52,1.14,0.54,-0.81,0.65,23,6,28,0.97,13636,73,97,43,72,730,701.0,665,467,60,122.0,345,1,440,466,242,0,0,712,8958,-22796,701,-5.59,,,,,,,,,,,,
264903,1564153009602,1,2.5,1.01,0.38,1.52,1.14,0.57,-0.61,0.63,24,6,26,0.83,13656,73,98,43,71,728,701.0,656,455,60,124.0,345,1,440,466,242,0,0,4558,-2830,-3580,701,-5.59,,,,,,,,,,,,
264923,1564153009622,1,2.52,1.01,0.38,1.52,1.13,0.6,-0.74,0.76,23,4,24,0.95,13111,73,98,43,72,729,700.0,661,460,60,124.0,345,1,440,466,242,0,0,4558,-2830,-13580,700,-5.59,,,,,,,,,,,,
264943,1564153009642,-1,2.52,1.01,0.37,1.52,1.14,0.63,-0.66,0.63,23,1,25,0.92,12807,73,98,43,72,732,699.0,650,461,60,124.0,345,1,440,464,242,0,0,4558,-26380,204,699,-5.59,44.68108,10.025061,68.75,172.7,0,0.0,-1,0.0,0.0,0,1.57,4.4157
264963,1564153009662,-0,2.52,1.02,0.37,1.53,1.13,0.58,-0.75,0.51,23,2,24,0.95,12583,73,98,43,71,734,699.0,650,456,60,125.0,345,1,440,457,242,0,0,4558,-2830,-3450,699,-5.59,,,,,,,,,,,,
264983,1564153009682,4,2.51,1.01,0.38,1.52,1.14,0.66,-0.78,0.49,23,5,24,1.02,12351,73,98,43,72,736,697.0,652,456,60,125.0,310,1,440,461,217,0,0,29,-2830,-12152,697,-5.59,,,,,,,,,,,,
265003,1564153009702,1,2.52,1.01,0.38,1.52,1.14,0.77,-0.9,0.54,22,1,25,1.18,12609,73,97,43,72,737,698.0,648,462,60,123.0,310,1,440,464,217,0,0,686,31988,-23490,694,-5.59,,,,,,,,,,,,
265023,1564153009722,3,2.51,1.01,0.38,1.52,1.14,0.66,-0.81,0.47,22,3,28,1.04,12895,73,97,43,72,737,697.0,650,466,60,123.0,310,1,440,465,217,0,0,679,-3578,-13312,697,-5.59,,,,,,,,,,,,
265043,1564153009742,4,2.51,1.02,0.38,1.52,1.14,0.72,-0.87,0.56,23,7,27,1.13,13250,72,97,43,71,770,698.0,659,464,60,122.0,310,1,440,460,217,0,0,681,-2830,16118,700,-5.59,44.681065,10.025051,69.69,172.7,0,0.0,-1,0.0,0.0,0,1.58,4.4174
265063,1564153009762,4,2.51,1.01,0.38,1.52,1.13,0.77,-0.98,0.68,23,5,28,1.25,13469,72,97,43,71,841,701.0,655,467,60,123.0,310,1,440,460,217,0,0,685,1549,-3450,701,-5.59,,,,,,,,,,,,
265083,1564153009782,3,2.51,1.01,0.38,1.51,1.14,0.7,-0.97,0.55,24,5,27,1.2,13746,72,97,43,71,912,700.0,665,476,60,123.0,341,1,440,460,239,0,0,681,-10348,-13312,700,-5.59,,,,,,,,,,,,
265103,1564153009802,3,2.51,1.01,0.37,1.51,1.13,0.72,-0.94,0.45,24,2,28,1.18,13878,69,97,43,71,984,696.0,657,465,60,123.0,341,1,440,460,239,0,0,682,-2826,-13072,697,-5.59,,,,,,,,,,,,
265123,1564153009822,2,2.52,1.01,0.37,1.52,1.14,0.7,-0.9,0.28,25,2,28,1.14,13971,63,98,43,69,1035,694.0,666,465,60,123.0,341,1,440,446,239,0,0,688,-27404,16118,693,-5.59,,,,,,,,,,,,
265143,1564153009842,4,2.52,1.01,0.37,1.53,1.13,0.69,-0.77,0.23,25,3,30,1.03,13596,56,97,43,67,1041,693.0,664,460,60,123.0,341,1,440,433,239,0,0,721,-3038,-3344,693,-5.59,44.681046,10.02504,69.19,172.7,0,0.0,-1,0.0,0.0,0,1.58,4.4191
265163,1564153009862,4,2.51,1.01,0.37,1.52,1.13,0.82,-0.89,0.34,24,-1,27,1.21,13316,46,97,43,63,1031,695.0,659,472,60,123.0,341,1,440,408,239,0,0,745,-10344,-3344,695,-5.59,,,,,,,,,,,,
265183,1564153009882,6,2.51,1.01,0.38,1.52,1.13,0.7,-0.73,0.26,24,-3,28,1.01,12966,33,97,43,57,965,694.0,657,465,60,122.0,271,1,417,368,188,0,0,714,-26380,-3888,694,-5.59,,,,,,,,,,,,
265203,1564153009902,6,2.52,1.01,0.37,1.52,1.14,0.75,-0.86,0.33,23,-1,26,1.14,12789,27,97,43,51,899,682.0,658,461,60,122.0,271,1,391,305,188,0,0,677,-3488,6658,682,-5.59,,,,,,,,,,,,
265223,1564153009922,9,2.5,1.01,0.38,1.52,1.14,0.84,-0.77,0.32,23,1,27,1.14,12592,26,97,43,46,838,681.0,658,467,60,123.0,271,1,373,248,188,0,0,666,-3488,-13072,683,-5.59,,,,,,,,,,,,
265243,1564153009942,7,2.48,1.01,0.37,1.52,1.14,0.87,-0.53,0.31,23,2,30,1.02,12319,26,97,43,44,780,685.0,649,468,60,123.0,271,1,361,241,188,0,0,649,2024,16599,685,-5.59,44.68103,10.025028,68.72,172.8,0,0.0,-1,0.0,0.0,0,1.58,4.4207
265263,1564153009962,7,2.49,1.01,0.37,1.52,1.13,0.87,-0.3,0.31,23,4,31,0.92,12073,26,97,43,42,785,682.0,649,468,60,121.0,271,1,348,234,188,0,0,620,4909,16599,682,-5.59,,,,,,,,,,,,
265283,1564153009982,9,2.48,1.01,0.37,1.52,1.13,0.96,-0.2,0.33,22,7,31,0.98,11829,26,97,43,41,793,677.0,648,471,60,123.0,151,1,338,229,103,0,0,582,244,-10344,677,-5.59,,,,,,,,,,,,
265303,1564153009994,9,2.47,1.01,0.38,1.52,1.14,1.07,-0.38,0.43,21,8,30,1.13,11581,25,97,43,40,813,675.0,633,470,60,122.0,151,1,328,225,103,0,0,542,-3584,11576,675,-5.59,,,,,,,,,,,,
265323,1564153010014,10,2.48,1.01,0.37,1.52,1.13,0.99,-0.34,0.18,23,8,31,1.05,11329,25,97,43,40,832,673.0,633,467,60,122.0,151,1,327,225,103,0,0,517,244,12333,676,-5.59,,,,,,,,,,,,
265343,1564153010034,12,2.48,1.01,0.38,1.53,1.14,1.03,-0.5,0.36,23,8,28,1.15,11068,25,97,43,40,846,674.0,641,467,60,123.0,151,1,327,225,103,0,0,517,-10251,6208,674,-5.59,44.681019,10.025015,68.46,172.8,0,0.0,-1,0.0,0.0,0,1.58,4.4224
265363,1564153010054,9,2.48,1.02,0.38,1.52,1.14,1.06,-0.44,0.35,23,10,28,1.15,10901,25,97,43,40,860,670.0,627,466,60,123.0,151,1,327,224,103,0,0,501,-14655,24845,670,-5.59,,,,,,,,,,,,
265383,1564153010074,10,2.48,1.02,0.38,1.52,1.13,1.08,-0.3,0.12,23,8,29,1.12,10671,25,97,43,40,885,664.0,632,464,60,123.0,133,1,327,220,89,0,0,493,-1346,-26562,664,-5.59,,,,,,,,,,,,
265403,1564153010102,9,2.48,1.02,0.37,1.52,1.14,1.15,-0.17,0.04,23,2,31,1.17,10416,25,97,43,41,910,658.0,624,469,60,122.0,133,1,335,217,89,0,0,504,-18357,6208,658,-5.59,,,,,,,,,,,,
265423,1564153010122,12,2.47,1.01,0.38,1.53,1.13,1.14,-0.14,0.01,24,6,30,1.14,10251,25,97,43,41,923,659.0,621,466,60,123.0,133,1,335,221,89,0,0,515,19304,-26380,659,-5.59,,,,,,,,,,,,
265443,1564153010142,11,2.47,1.02,0.37,1.53,1.13,1.22,-0.3,0.1,23,3,29,1.26,10217,25,97,43,40,935,656.0,592,467,60,124.0,133,1,327,217,89,0,0,492,269,31988,654,-5.59,44.681004,10.025001,66.98,172.8,0,0.0,-1,0.0,0.0,0,1.58,4.424
265463,1564153010162,12,2.46,1.01,0.37,1.52,1.13,1.13,-0.47,0.29,23,2,30,1.22,10229,25,97,43,40,945,648.0,595,463,60,123.0,133,1,327,217,89,0,0,406,1010,-5120,648,-5.59,,,,,,,,,,,,
265483,1564153010182,9,2.45,1.01,0.38,1.52,1.14,0.98,-0.46,0.16,23,6,30,1.08,10201,25,97,43,40,954,644.0,558,467,60,123.0,130,1,327,217,84,0,0,362,16529,-3038,645,-5.59,,,,,,,,,,,,
265503,1564153010202,12,2.45,1.01,0.37,1.52,1.13,1.0,-0.39,0.0,22,5,31,1.07,10021,25,97,43,39,955,643.0,583,468,60,122.0,130,1,320,214,84,0,0,311,19621,-2830,643,-5.59,,,,,,,,,,,,
265523,1564153010222,12,2.45,1.01,0.38,1.51,1.14,0.93,-0.51,0.07,22,-0,33,1.06,9957,25,97,43,39,953,640.0,595,463,60,123.0,130,1,320,213,84,0,0,272,-23055,31988,640,-5.59,,,,,,,,,,,,
265543,1564153010242,12,2.45,1.02,0.37,1.52,1.13,0.9,-0.42,0.03,23,3,30,0.99,9720,25,97,43,39,945,639.0,605,471,60,124.0,130,1,320,212,84,0,0,262,-768,-3038,639,-5.59,44.680992,10.024985,65.47,172.9,0,0.0,-1,0.0,0.0,0,1.59,4.4257
265563,1564153010262,12,2.45,1.01,0.37,1.51,1.14,0.89,-0.45,0.0,23,0,30,1.0,9426,25,97,43,38,937,634.0,596,470,60,123.0,130,1,317,208,84,0,0,444,-32504,479,634,-5.59,,,,,,,,,,,,
265583,1564153010282,14,2.45,1.01,0.38,1.52,1.14,0.91,-0.6,0.07,23,2,28,1.09,9375,23,97,43,37,930,626.0,593,468,60,122.0,115,1,314,205,72,0,0,528,-1894,4909,626,-5.59,,,,,,,,,,,,
265603,1564153010302,16,2.44,1.01,0.37,1.53,1.13,0.92,-0.53,0.08,22,3,27,1.06,9422,23,97,43,36,923,624.0,591,459,60,122.0,115,1,311,128,72,0,0,541,-3190,-3584,625,-5.59,,,,,,,,,,,,
265623,1564153010322,14,2.43,1.01,0.37,1.52,1.14,0.95,-0.62,0.14,21,1,25,1.14,9566,23,97,43,35,907,619.0,575,456,60,124.0,115,1,308,202,72,0,0,513,15649,5344,620,-5.59,,,,,,,,,,,,
265643,1564153010342,15,2.43,1.01,0.37,1.52,1.13,1.02,-0.57,0.08,20,-0,26,1.17,9873,23,97,43,35,886,608.0,548,467,60,123.0,115,1,308,206,72,0,0,425,-25872,-768,608,-5.59,44.680981,10.024969,63.7,172.9,0,0.0,-1,0.0,0.0,0,1.59,4.4274
265663,1564153010362,15,2.42,1.01,0.37,1.51,1.13,1.04,-0.63,0.18,19,2,26,1.22,9899,23,97,43,34,869,606.0,510,466,60,123.0,115,1,305,204,72,0,0,363,1,3403,606,-5.59,,,,,,,,,,,,
265683,1564153010382,16,2.42,1.01,0.37,1.51,1.13,1.09,-0.53,0.22,18,-3,26,1.21,9816,23,97,43,33,855,602.0,493,466,60,122.0,124,1,302,203,75,0,0,327,-16384,-3446,601,-5.59,,,,,,,,,,,,
265703,1564153010401,14,2.42,1.0,0.37,1.51,1.13,1.15,-0.6,0.26,18,-3,25,1.29,9775,23,97,43,33,843,601.0,458,461,60,124.0,124,1,302,201,75,0,0,285,259,3403,601,-5.59,,,,,,,,,,,,
265723,1564153010421,15,2.41,1.0,0.38,1.5,1.13,1.2,-0.62,0.26,18,-2,24,1.35,9630,23,97,43,33,831,599.0,475,460,60,122.0,124,1,302,199,75,0,0,320,1760,269,599,-5.59,,,,,,,,,,,,
265743,1564153010441,16,2.41,1.0,0.37,1.51,1.13,1.17,-0.51,0.23,18,-1,23,1.27,9319,23,97,43,33,827,593.0,475,460,60,123.0,124,1,302,193,75,0,0,519,-29984,4956,594,-5.59,44.680969,10.024953,62.2,172.9,0,0.0,-1,0.0,0.0,0,1.59,4.429
265763,1564153010461,13,2.42,1.01,0.37,1.52,1.13,1.15,-0.54,0.14,18,-0,22,1.27,9286,23,97,43,33,830,588.0,526,467,60,124.0,124,1,302,193,75,0,0,577,6274,-3446,588,-5.59,,,,,,,,,,,,
265783,1564153010481,14,2.42,1.01,0.37,1.52,1.13,1.19,-0.65,0.12,16,-2,22,1.36,9291,23,97,43,33,832,581.0,557,469,60,123.0,114,1,302,193,67,0,0,562,2524,17344,581,-5.59,,,,,,,,,,,,
265803,1564153010501,17,2.41,1.01,0.37,1.52,1.13,1.21,-0.61,0.17,15,-4,22,1.35,9412,23,97,43,33,833,578.0,567,460,60,123.0,114,1,302,195,67,0,0,515,-22263,-8186,578,-5.59,,,,,,,,,,,,
265823,1564153010521,15,2.41,1.0,0.37,1.51,1.13,1.08,-0.52,0.17,14,-4,22,1.2,9669,23,97,43,33,833,572.0,582,466,60,123.0,114,1,302,200,67,0,0,472,2216,-30159,572,-5.59,,,,,,,,,,,,
265843,1564153010541,14,2.41,0.99,0.37,1.5,1.12,1.18,-0.51,0.09,14,-1,21,1.28,9765,23,97,43,33,832,564.0,593,468,60,123.0,114,1,302,200,67,0,0,445,2104,-28648,564,-5.59,44.680962,10.024936,59.84,172.9,0,0.0,-1,0.0,0.0,0,1.59,4.4307
265863,1564153010561,12,2.41,0.99,0.36,1.5,1.12,1.16,-0.48,0.14,14,-2,21,1.26,9755,23,97,43,33,833,566.0,601,458,60,123.0,114,1,302,201,67,0,0,431,-8962,-8186,566,-5.59,,,,,,,,,,,,
265883,1564153010581,14,2.41,0.98,0.37,1.5,1.12,1.24,-0.59,0.16,13,-1,21,1.37,9745,23,97,43,33,836,558.0,603,467,60,124.0,130,1,302,200,73,0,0,420,1780,-3210,558,-5.59,,,,,,,,,,,,
265903,1564153010601,9,2.41,0.98,0.37,1.49,1.12,1.18,-0.54,0.19,13,1,19,1.3,9659,23,97,43,33,840,560.0,601,462,60,124.0,130,1,302,200,73,0,0,426,-30064,-2934,557,-5.59,,,,,,,,,,,,
265923,1564153010621,11,2.42,0.98,0.37,1.5,1.12,1.17,-0.62,0.12,13,0,20,1.32,9650,23,97,43,33,845,552.0,606,466,60,124.0,130,1,302,200,73,0,0,454,2104,1267,552,-5.59,,,,,,,,,,,,
265943,1564153010641,12,2.41,0.99,0.37,1.49,1.13,1.09,-0.48,0.12,14,0,20,1.19,9664,23,97,43,33,851,549.0,609,475,60,124.0,130,1,302,200,73,0,0,517,-28648,2216,549,-5.59,44.68095,10.02492,57.59,172.9,0,0.0,-1,0.0,0.0,0,1.59,4.4324
265963,1564153010661,13,2.4,0.99,0.37,1.51,1.13,1.16,-0.52,0.07,14,1,18,1.27,9659,23,97,43,33,858,544.0,615,454,60,123.0,130,1,302,200,73,0,0,529,-22519,2524,544,-5.59,,,,,,,,,,,,
265983,1564153010681,13,2.4,0.99,0.37,1.5,1.12,1.24,-0.48,0.03,13,-2,18,1.33,9595,23,97,43,33,863,541.0,623,464,60,123.0,133,1,302,198,72,0,0,523,-8187,6273,539,-5.59,,,,,,,,,,,,
266003,1564153010701,12,2.41,0.99,0.37,1.51,1.12,1.18,-0.54,0.08,13,-0,18,1.3,9620,23,97,43,33,865,539.0,630,466,60,124.0,133,1,302,199,72,0,0,519,-14,-506,538,-5.59,,,,,,,,,,,,
266023,1564153010721,14,2.41,0.98,0.37,1.5,1.13,1.26,-0.49,-0.06,12,-2,19,1.35,9689,23,97,43,33,865,531.0,627,471,60,124.0,133,1,302,200,72,0,0,504,-14,-9072,531,-5.59,,,,,,,,,,,,
266043,1564153010741,12,2.4,0.99,0.37,1.49,1.12,1.1,-0.55,0.06,12,-0,17,1.23,9811,23,97,43,32,865,527.0,621,461,60,123.0,133,1,300,200,72,0,0,496,-4054,-22519,527,-5.59,44.680946,10.024903,55.43,173.0,0,0.0,-1,0.0,0.0,0,1.59,4.4341
266063,1564153010761,13,2.4,0.98,0.36,1.5,1.12,1.19,-0.46,-0.04,12,-1,18,1.28,9765,23,97,43,33,864,521.0,621,465,60,123.0,133,1,302,201,72,0,0,503,-3414,6274,521,-5.59,,,,,,,,,,,,
266083,1564153010781,11,2.39,0.98,0.36,1.49,1.12,1.07,-0.49,0.11,12,-2,17,1.18,9755,23,97,43,32,863,520.0,622,457,60,123.0,143,1,300,200,74,0,0,492,15661,2524,520,-5.59,,,,,,,,,,,,
266103,1564153010801,14,2.39,0.98,0.36,1.49,1.12,1.13,-0.45,0.01,12,-2,17,1.21,9770,23,97,43,32,862,514.0,619,470,60,123.0,143,1,300,200,74,0,0,497,998,10408,514,-5.59,,,,,,,,,,,,
266123,1564153010821,11,2.4,0.98,0.36,1.49,1.12,1.09,-0.46,0.13,12,1,16,1.18,9770,23,97,43,33,864,511.0,617,461,60,123.0,143,1,302,201,74,0,0,505,998,2524,511,-5.59,,,,,,,,,,,,
266143,1564153010841,13,2.38,0.97,0.36,1.49,1.11,1.18,-0.45,0.1,11,-1,16,1.26,9745,23,97,43,33,866,507.0,618,467,60,124.0,143,1,302,199,74,0,0,495,-6528,-8187,506,-5.59,44.680939,10.024887,53.28,173.0,0,0.0,-1,0.0,0.0,0,1.6,4.4357
266163,1564153010861,12,2.38,0.96,0.36,1.48,1.11,1.08,-0.46,0.21,11,1,15,1.17,9654,23,97,43,33,869,505.0,623,459,60,124.0,143,1,302,200,74,0,0,494,248,26178,503,-5.59,,,,,,,,,,,,
266183,1564153010881,13,2.38,0.95,0.35,1.47,1.11,1.15,-0.5,0.09,11,1,15,1.26,9630,23,97,43,33,872,499.0,628,465,60,124.0,145,1,302,199,73,0,0,496,-1818,1341,501,-5.59,,,,,,,,,,,,
266203,1564153010901,12,2.39,0.94,0.35,1.46,1.1,1.01,-0.36,0.16,11,1,15,1.07,9650,23,97,43,33,873,496.0,623,462,60,124.0,145,1,302,200,73,0,0,490,-6441,-3856,495,-5.59,,,,,,,,,,,,
266223,1564153010921,11,2.38,0.92,0.35,1.45,1.1,1.08,-0.44,0.12,10,1,13,1.16,9630,23,97,43,33,875,492.0,627,470,60,124.0,145,1,302,199,73,0,0,491,-23367,-28648,492,-5.59,,,,,,,,,,,,
266243,1564153010941,14,2.39,0.92,0.35,1.44,1.1,1.16,-0.33,0.12,10,-2,14,1.21,9551,23,97,43,33,873,487.0,624,470,60,124.0,145,1,302,198,73,0,0,483,-23367,-9216,487,-5.59,44.680931,10.024871,51.46,173.1,0,0.0,-1,0.0,0.0,0,1.6,4.4374
266263,1564153010961,11,2.39,0.92,0.34,1.45,1.1,1.1,-0.31,0.17,9,-0,13,1.15,9527,23,97,43,33,871,486.0,624,463,60,123.0,145,1,302,197,73,0,0,483,-23367,-9216,486,-5.59,,,,,,,,,,,,
266283,1564153010981,13,2.38,0.92,0.35,1.46,1.1,1.07,-0.38,0.13,9,-1,13,1.13,9508,23,97,43,33,871,484.0,616,468,60,124.0,146,1,302,197,71,0,0,483,32033,2524,484,-5.59,,,,,,,,,,,,
266303,1564153010993,14,2.39,0.91,0.35,1.45,1.1,1.06,-0.28,0.23,9,-0,12,1.1,9407,23,97,43,33,870,478.0,612,461,60,123.0,146,1,302,194,71,0,0,487,-16384,-9216,478,-5.59,,,,,,,,,,,,
266323,1564153011013,14,2.38,0.92,0.35,1.45,1.1,1.16,-0.2,0.33,9,-1,12,1.17,9263,23,97,43,33,871,478.0,601,456,60,122.0,146,1,302,193,71,0,0,490,243,3,477,-5.59,,,,,,,,,,,,
266343,1564153011033,14,2.38,0.9,0.35,1.44,1.09,1.12,-0.1,0.26,8,-1,12,1.13,9101,23,97,43,33,873,473.0,592,466,60,124.0,146,1,302,190,71,0,0,490,16408,2524,474,-5.59,44.680923,10.024857,49.5,173.1,0,0.0,-1,0.0,0.0,0,1.6,4.4391
266363,1564153011053,14,2.38,0.89,0.34,1.43,1.1,1.08,-0.08,0.24,8,-2,11,1.09,8984,23,97,43,33,874,473.0,593,469,60,123.0,146,1,302,188,71,0,0,488,-23623,1,473,-5.59,,,,,,,,,,,,
266383,1564153011073,14,2.38,0.89,0.34,1.43,1.09,1.11,0.03,0.3,8,-3,11,1.11,8869,23,97,43,34,874,465.0,595,463,60,123.0,136,1,305,192,64,0,0,474,17628,-899,465,-5.59,,,,,,,,,,,,
266403,1564153011103,15,2.38,0.89,0.34,1.43,1.09,1.2,0.0,0.4,7,-4,10,1.2,8802,23,97,43,35,874,464.0,595,462,60,123.0,136,1,308,195,64,0,0,472,-18108,-23367,464,-5.59,,,,,,,,,,,,
266423,1564153011123,13,2.38,0.89,0.34,1.43,1.1,1.28,-0.07,0.54,7,-4,7,1.28,8806,23,97,43,35,873,464.0,592,462,60,122.0,136,1,308,195,64,0,0,469,-8985,-17956,464,-5.59,,,,,,,,,,,,
266443,1564153011143,13,2.38,0.9,0.34,1.44,1.09,1.3,-0.16,0.51,7,-3,8,1.31,8790,23,97,43,35,876,459.0,591,462,60,123.0,136,1,308,195,64,0,0,465,-6387,-17956,461,-5.59,44.68092,10.024841,48.02,173.1,0,0.0,-1,0.0,0.0,0,1.6,4.4407
266463,1564153011163,14,2.37,0.89,0.34,1.43,1.09,1.2,-0.19,0.38,7,-2,8,1.22,8729,23,97,43,36,881,457.0,589,466,60,124.0,136,1,311,199,64,0,0,461,10305,10432,457,-5.59,,,,,,,,,,,,
266483,1564153011183,17,2.37,0.88,0.34,1.42,1.08,1.04,-0.14,0.32,7,-2,8,1.05,8688,23,97,43,36,885,453.0,585,465,60,124.0,143,1,311,199,65,0,0,463,21580,-3210,453,-5.59,,,,,,,,,,,,
266503,1564153011203,15,2.37,0.88,0.34,1.42,1.09,1.09,-0.08,0.36,7,-3,8,1.09,8632,22,97,43,36,890,448.0,576,462,60,123.0,143,1,311,199,65,0,0,459,23400,12552,448,-5.59,,,,,,,,,,,,
266523,1564153011223,13,2.38,0.87,0.33,1.41,1.08,1.15,-0.13,0.4,6,-3,7,1.16,8573,22,97,43,36,909,447.0,570,465,60,123.0,143,1,311,199,65,0,0,455,-28332,6193,447,-5.59,,,,,,,,,,,,
266543,1564153011243,17,2.37,0.88,0.33,1.42,1.08,1.07,-0.1,0.32,6,-2,8,1.07,8546,22,97,43,37,932,444.0,567,466,60,124.0,143,1,313,201,65,0,0,455,19477,-9160,444,-5.59,44.680916,10.024826,46.99,173.2,0,0.0,-1,0.0,0.0,0,1.6,4.4424
266563,1564153011263,14,2.37,0.88,0.34,1.41,1.09,1.13,-0.05,0.31,6,-3,7,1.13,8480,22,97,43,37,953,440.0,566,465,60,125.0,143,1,313,200,65,0,0,452,5600,14488,440,-5.59,,,,,,,,,,,,
266583,1564153011283,16,2.37,0.88,0.34,1.42,1.09,1.16,-0.07,0.32,6,-1,7,1.16,8419,22,97,43,37,971,440.0,578,463,60,123.0,145,1,312,200,64,0,0,446,1779,2524,438,-5.59,,,,,,,,,,,,
266603,1564153011303,18,2.37,0.87,0.33,1.42,1.09,1.09,-0.05,0.2,6,-2,8,1.09,8337,22,97,43,38,985,432.0,566,461,60,124.0,145,1,313,203,64,0,0,446,13552,3571,432,-5.59,,,,,,,,,,,,
266623,1564153011323,14,2.37,0.88,0.34,1.41,1.09,1.18,-0.07,0.25,6,-2,7,1.18,8281,22,97,43,38,996,431.0,580,464,60,124.0,145,1,312,202,64,0,0,442,-3414,-18341,431,-5.59,,,,,,,,,,,,
266643,1564153011343,17,2.37,0.88,0.33,1.42,1.08,1.08,-0.03,0.22,6,-2,7,1.08,8259,22,97,43,38,999,430.0,566,466,60,124.0,145,1,312,202,64,0,0,436,-21792,-18341,428,-5.59,44.680908,10.024812,44.97,173.2,0,0.0,-1,0.0,0.0,0,1.6,4.444
266663,1564153011363,15,2.37,0.88,0.33,1.42,1.08,1.14,0.0,0.23,6,-2,8,1.14,8184,22,97,43,39,992,426.0,559,463,60,124.0,145,1,313,207,64,0,0,434,-8165,20625,426,-5.59,,,,,,,,,,,,
266683,1564153011383,17,2.37,0.88,0.33,1.42,1.08,1.09,0.02,0.26,6,-2,7,1.09,8085,22,97,43,39,983,424.0,555,464,60,124.0,148,1,311,207,63,0,0,438,18584,-7939,424,-5.59,,,,,,,,,,,,
266703,1564153011402,18,2.38,0.87,0.33,1.42,1.09,1.03,0.06,0.19,6,-1,7,1.03,8071,22,97,43,40,969,418.0,543,466,60,123.0,148,1,317,207,63,0,0,430,-9166,-3314,418,-5.59,,,,,,,,,,,,
266723,1564153011422,15,2.37,0.87,0.33,1.42,1.09,1.09,0.07,0.19,7,-1,7,1.09,8023,22,97,43,40,958,417.0,539,463,60,125.0,148,1,317,209,63,0,0,426,9517,243,416,-5.59,,,,,,,,,,,,
266743,1564153011442,17,2.38,0.88,0.33,1.42,1.08,1.06,0.03,0.28,7,-0,7,1.06,7944,22,97,43,41,951,414.0,535,463,60,124.0,148,1,325,208,63,0,0,424,2524,31796,414,-5.59,44.680904,10.024797,43.95,173.2,0,0.0,-1,0.0,0.0,0,1.6,4.4457
266763,1564153011462,17,2.4,0.87,0.33,1.42,1.08,0.97,0.04,0.27,7,0,7,0.97,7901,22,97,43,42,942,411.0,531,468,60,123.0,148,1,332,208,63,0,0,420,6512,-4082,411,-5.59,,,,,,,,,,,,
266783,1564153011482,13,2.39,0.88,0.34,1.43,1.09,0.93,0.0,0.28,7,2,6,0.93,7878,22,97,43,42,932,407.0,526,466,60,122.0,154,1,332,210,63,0,0,419,28696,-3414,407,-5.59,,,,,,,,,,,,
266803,1564153011502,13,2.4,0.89,0.34,1.44,1.09,0.99,-0.06,0.38,7,3,7,1.0,7796,22,97,43,42,925,406.0,529,464,60,124.0,154,1,332,210,63,0,0,415,6384,7154,406,-5.59,,,,,,,,,,,,
266823,1564153011522,15,2.39,0.89,0.34,1.44,1.08,1.1,-0.1,0.41,7,1,7,1.1,7763,22,97,44,43,922,404.0,529,465,60,124.0,154,1,340,211,63,0,0,416,-3968,7154,404,-5.59,,,,,,,,,,,,
266843,1564153011542,16,2.39,0.89,0.34,1.43,1.09,1.11,-0.1,0.45,6,-1,6,1.11,7681,22,97,44,43,917,402.0,523,464,60,123.0,154,1,340,211,63,0,0,410,-6656,-9166,400,-5.59,44.680904,10.024784,42.03,173.3,0,0.0,-1,0.0,0.0,0,1.6,4.4474
266863,1564153011562,16,2.39,0.89,0.34,1.43,1.09,1.12,-0.03,0.38,6,-2,7,1.12,7668,22,97,44,44,906,398.0,525,461,60,124.0,154,1,347,211,63,0,0,409,-1562,-21944,395,-5.59,,,,,,,,,,,,
266883,1564153011582,16,2.4,0.88,0.33,1.43,1.09,1.0,0.02,0.26,6,-1,7,1.0,7594,22,97,44,44,895,395.0,520,463,60,124.0,154,1,347,212,61,0,0,404,-6475,11560,392,-5.59,,,,,,,,,,,,
266903,1564153011602,18,2.39,0.88,0.33,1.44,1.08,0.86,0.09,0.18,7,-2,7,0.86,7536,22,97,44,45,885,392.0,519,465,60,123.0,154,1,355,215,61,0,0,401,-992,-26615,391,-5.59,,,,,,,,,,,,
266923,1564153011622,17,2.38,0.88,0.33,1.43,1.08,0.7,0.01,0.09,6,-2,6,0.7,7518,22,97,44,45,876,388.0,511,466,60,123.0,154,1,355,213,61,0,0,398,8200,-8151,388,-5.59,,,,,,,,,,,,
266943,1564153011642,14,2.4,0.89,0.34,1.43,1.09,0.62,0.07,0.01,6,-2,7,0.63,7458,22,97,44,45,868,386.0,514,462,60,124.0,154,1,355,213,61,0,0,395,-6656,28696,386,-5.59,44.680897,10.024771,40.7,173.3,0,0.0,-1,0.0,0.0,0,1.61,4.449
266963,1564153011662,16,2.39,0.89,0.34,1.44,1.09,0.51,0.11,-0.05,7,-3,7,0.53,7376,22,97,44,46,859,384.0,507,464,60,123.0,154,1,362,213,61,0,0,392,3,6384,382,-5.59,,,,,,,,,,,,
266983,1564153011682,15,2.39,0.88,0.33,1.44,1.09,0.49,0.11,0.0,7,-4,6,0.5,7350,22,97,44,46,860,379.0,506,466,60,123.0,155,1,362,215,59,0,0,393,742,17144,380,-5.59,,,,,,,,,,,,
267003,1564153011702,14,2.4,0.88,0.34,1.43,1.09,0.64,0.06,0.13,6,-6,5,0.64,7267,22,97,44,46,862,379.0,498,462,60,123.0,155,1,362,215,59,0,0,389,257,-1818,379,-5.59,,,,,,,,,,,,
267023,1564153011722,14,2.4,0.88,0.33,1.42,1.09,0.75,0.02,0.24,6,-6,6,0.75,7247,22,97,44,47,873,377.0,499,463,60,124.0,155,1,370,217,59,0,0,388,-6656,-31744,377,-5.59,,,,,,,,,,,,
267043,1564153011742,18,2.39,0.87,0.33,1.43,1.08,0.76,-0.05,0.27,6,-3,7,0.76,7183,22,97,44,47,884,373.0,498,461,60,123.0,155,1,370,222,59,0,0,382,-1268,-3866,373,-5.59,44.680893,10.024757,39.52,173.4,0,0.0,-1,0.0,0.0,0,1.61,4.4507
267063,1564153011762,17,2.4,0.88,0.33,1.43,1.08,0.73,-0.0,0.19,7,-1,7,0.73,7148,22,97,44,48,895,370.0,491,463,60,122.0,155,1,372,222,59,0,0,377,2790,-18948,370,-5.59,,,,,,,,,,,,
267083,1564153011782,14,2.4,0.88,0.33,1.43,1.08,0.68,-0.03,0.23,7,-3,6,0.68,7094,22,97,44,49,905,367.0,495,463,60,123.0,160,1,375,222,59,0,0,378,-6640,-18948,367,-5.59,,,,,,,,,,,,
267103,1564153011802,18,2.41,0.89,0.34,1.44,1.08,0.81,-0.03,0.33,7,-4,6,0.81,7014,22,97,44,49,927,365.0,494,463,60,124.0,160,1,375,227,59,0,0,374,-29978,770,366,-5.59,,,,,,,,,,,,
267123,1564153011822,16,2.41,0.89,0.33,1.44,1.08,0.8,0.02,0.26,7,-2,6,0.8,6980,22,97,44,49,949,363.0,490,466,60,123.0,160,1,374,226,59,0,0,371,3302,-6656,363,-5.59,,,,,,,,,,,,
267143,1564153011842,15,2.42,0.89,0.33,1.44,1.09,0.82,-0.0,0.29,7,-2,6,0.82,6954,22,97,44,50,961,357.0,485,463,60,123.0,160,1,377,231,59,0,0,369,3183,257,357,-5.59,44.680889,10.024745,38.16,173.4,0,0.0,-1,0.0,0.0,0,1.61,4.4524
267163,1564153011862,18,2.42,0.88,0.34,1.43,1.08,0.9,-0.05,0.32,7,-3,8,0.9,6885,22,97,44,50,973,357.0,485,462,60,125.0,160,1,377,231,59,0,0,370,-1246,257,357,-5.59,,,,,,,,,,,,
267183,1564153011882,15,2.43,0.89,0.33,1.44,1.08,0.9,0.0,0.24,7,1,8,0.9,6850,22,97,44,51,988,357.0,477,466,60,122.0,168,1,380,231,60,0,0,365,6870,0,354,-5.59,,,,,,,,,,,,
267203,1564153011902,16,2.44,0.89,0.34,1.45,1.09,0.91,-0.06,0.34,7,-2,8,0.91,6833,22,97,44,51,1003,352.0,474,465,60,125.0,168,1,379,235,60,0,0,362,-31206,230,352,-5.59,,,,,,,,,,,,
267223,1564153011922,14,2.43,0.88,0.34,1.44,1.08,0.89,-0.08,0.23,8,-0,7,0.89,6742,22,97,44,52,1010,351.0,467,467,60,123.0,168,1,382,235,60,0,0,361,2560,-1268,351,-5.59,,,,,,,,,,,,
267243,1564153011942,17,2.43,0.89,0.34,1.45,1.09,0.92,-0.13,0.27,8,-1,8,0.93,6696,22,97,44,52,1015,348.0,468,460,60,125.0,168,1,381,240,60,0,0,358,3346,-14707,348,-5.59,44.680885,10.024733,36.58,173.5,0,0.0,-1,0.0,0.0,0,1.61,4.4541
267263,1564153011962,14,2.45,0.89,0.34,1.44,1.09,0.95,-0.08,0.23,8,1,8,0.96,6639,22,97,44,53,1019,347.0,460,468,60,122.0,168,1,384,245,60,0,0,351,-6528,-29302,347,-5.59,,,,,,,,,,,,
267283,1564153011982,16,2.44,0.89,0.34,1.45,1.08,0.97,-0.14,0.24,8,-2,9,0.98,6599,22,97,44,53,1026,345.0,459,460,60,125.0,176,1,383,245,61,0,0,350,-12032,-6640,345,-5.59,,,,,,,,,,,,
267303,1564153011994,16,2.45,0.9,0.34,1.44,1.09,0.88,-0.11,0.27,8,-2,9,0.88,6533,22,97,44,53,1028,341.0,455,464,60,124.0,176,1,383,245,61,0,0,350,-20736,2060,341,-5.59,,,,,,,,,,,,
267323,1564153012014,13,2.45,0.89,0.34,1.45,1.08,0.99,-0.1,0.24,9,-1,9,1.0,6458,22,97,44,54,1029,338.0,451,463,60,122.0,176,1,386,251,61,0,0,344,165,2811,338,-5.59,,,,,,,,,,,,
267343,1564153012034,16,2.46,0.89,0.34,1.44,1.09,0.95,-0.11,0.25,9,-2,10,0.95,6438,22,97,44,54,1032,338.0,451,465,60,124.0,176,1,386,251,61,0,0,341,-23296,2811,338,-5.59,44.680885,10.024721,35.54,173.5,0,0.0,-1,0.0,0.0,0,1.61,4.4557
267363,1564153012054,18,2.45,0.9,0.34,1.45,1.09,0.86,-0.17,0.37,9,-1,10,0.88,6416,22,97,44,55,1034,335.0,444,461,60,124.0,176,1,387,251,61,0,0,341,-27136,-30438,335,-5.59,,,,,,,,,,,,
267383,1564153012074,15,2.46,0.9,0.34,1.44,1.09,0.84,-0.13,0.32,9,2,10,0.85,6399,22,97,44,55,1035,333.0,442,468,60,123.0,182,1,387,251,61,0,0,336,-27136,-14714,333,-5.59,,,,,,,,,,,,
267403,1564153012102,14,2.45,0.9,0.34,1.46,1.09,0.96,-0.12,0.2,10,1,10,0.96,6343,22,97,44,56,1036,331.0,442,465,60,124.0,182,1,388,252,61,0,0,334,135,6870,331,-5.59,,,,,,,,,,,,
267423,1564153012122,13,2.46,0.9,0.34,1.45,1.09,0.99,-0.12,0.19,10,-2,12,0.99,6330,22,97,44,56,1040,327.0,440,462,60,124.0,182,1,387,251,61,0,0,333,125,-31222,327,-5.59,,,,,,,,,,,,
267443,1564153012142,14,2.46,0.9,0.35,1.45,1.1,0.94,-0.18,0.23,9,-3,13,0.96,6285,22,97,44,56,1044,323.0,438,460,60,126.0,182,1,387,251,61,0,0,330,32000,-31222,323,-5.59,44.680885,10.024709,34.06,173.5,0,0.0,-1,0.0,0.0,0,1.61,4.4574
267463,1564153012162,16,2.45,0.91,0.34,1.46,1.1,0.85,-0.24,0.3,9,-3,12,0.88,6227,22,97,44,57,1046,323.0,430,461,60,125.0,182,1,387,251,61,0,0,329,32000,-32559,323,-5.59,,,,,,,,,,,,
267483,1564153012182,16,2.46,0.91,0.34,1.46,1.09,0.79,-0.22,0.32,9,-1,11,0.82,6159,22,97,44,57,1048,322.0,426,462,60,125.0,180,1,385,250,58,0,0,329,120,-31222,322,-5.59,,,,,,,,,,,,
267503,1564153012202,14,2.46,0.9,0.34,1.45,1.1,0.8,-0.19,0.28,10,0,11,0.82,6123,22,97,44,57,1054,320.0,421,464,60,124.0,180,1,384,179,58,0,0,325,110,175,320,-5.59,,,,,,,,,,,,
267523,1564153012222,15,2.46,0.91,0.34,1.46,1.09,0.86,-0.11,0.23,10,2,11,0.86,6103,22,97,44,58,1061,317.0,421,463,60,123.0,180,1,384,249,58,0,0,321,28160,-32559,320,-5.59,,,,,,,,,,,,
267543,1564153012242,14,2.46,0.91,0.34,1.45,1.09,0.86,-0.07,0.12,11,3,11,0.86,6040,22,97,44,58,1067,317.0,418,463,60,124.0,180,1,383,247,58,0,0,322,28160,-20736,317,-5.59,44.680882,10.024697,32.97,173.5,0,0.0,-1,0.0,0.0,0,1.61,4.4591
267563,1564153012262,13,2.48,0.9,0.34,1.45,1.09,0.82,-0.03,0.05,12,4,11,0.82,6015,22,97,44,58,1072,317.0,417,462,60,122.0,180,1,383,247,58,0,0,320,26880,-22016,316,-5.59,,,,,,,,,,,,
267583,1564153012282,13,2.48,0.9,0.33,1.46,1.09,0.84,-0.04,-0.0,12,7,11,0.84,5988,22,97,44,58,1077,314.0,414,461,60,123.0,178,1,381,246,56,0,0,317,24320,-22016,314,-5.59,,,,,,,,,,,,
267603,1564153012302,11,2.5,0.91,0.34,1.46,1.09,0.9,-0.04,-0.08,13,6,12,0.9,5969,22,97,44,59,1083,312.0,412,465,60,122.0,178,1,379,244,56,0,0,318,24320,-24576,312,-5.59,,,,,,,,,,,,
267623,1564153012322,10,2.5,0.93,0.35,1.46,1.1,0.9,-0.02,-0.11,13,9,12,0.9,5926,22,97,44,59,1087,315.0,411,465,60,123.0,178,1,374,245,56,0,0,317,95,-24576,315,-5.59,,,,,,,,,,,,
267643,1564153012342,11,2.51,0.93,0.35,1.47,1.1,0.91,0.03,-0.14,14,9,12,0.91,5916,22,97,44,60,1088,313.0,407,465,60,125.0,178,1,372,244,56,0,0,314,24320,150,313,-5.59,44.680882,10.024687,31.72,173.5,0,0.0,-1,0.0,0.0,0,1.61,4.4607
267663,1564153012362,10,2.53,0.94,0.35,1.47,1.1,0.87,0.03,-0.07,14,9,13,0.87,5914,22,97,44,60,1087,310.0,403,467,60,124.0,178,1,372,244,56,0,0,313,0,145,310,-5.59,,,,,,,,,,,,
267683,1564153012382,12,2.53,0.95,0.35,1.47,1.1,0.78,0.02,0.01,14,8,13,0.78,5927,22,97,44,60,1087,308.0,403,464,60,123.0,174,1,374,244,54,0,0,306,80,150,308,-5.59,,,,,,,,,,,,
267703,1564153012401,9,2.54,0.96,0.35,1.48,1.11,0.68,-0.05,0.1,14,7,13,0.68,5918,22,97,44,61,1085,309.0,408,462,60,124.0,174,1,372,244,54,0,0,309,0,155,309,-5.59,,,,,,,,,,,,
267723,1564153012421,10,2.55,0.97,0.35,1.5,1.11,0.59,-0.14,0.19,14,6,13,0.61,5903,22,97,44,61,1084,306.0,405,466,60,124.0,174,1,370,243,54,0,0,308,0,-25856,306,-5.59,,,,,,,,,,,,
267743,1564153012441,9,2.53,0.97,0.35,1.5,1.11,0.52,-0.23,0.19,14,4,14,0.57,5855,22,97,44,61,1082,308.0,405,461,60,124.0,174,1,365,244,54,0,0,313,10686,140,308,-5.59,44.680878,10.024676,30.82,173.5,0,0.0,-1,0.0,0.0,0,1.61,4.4624
267763,1564153012461,9,2.55,0.98,0.36,1.51,1.12,0.56,-0.24,0.15,14,1,15,0.6,5815,22,97,44,61,1078,307.0,400,463,60,125.0,174,1,360,245,54,0,0,310,-16896,-28416,306,-5.59,,,,,,,,,,,,
267783,1564153012481,10,2.55,0.99,0.36,1.5,1.12,0.7,-0.21,0.17,14,-1,15,0.73,5769,22,97,44,62,1075,307.0,401,461,60,123.0,179,1,353,253,55,0,0,306,41,135,307,-5.59,,,,,,,,,,,,
267803,1564153012501,12,2.55,0.99,0.36,1.5,1.12,0.82,-0.22,0.15,15,-0,17,0.84,5760,22,97,44,62,1073,306.0,400,461,60,123.0,179,1,352,261,55,0,0,302,1886,-30976,306,-5.59,,,,,,,,,,,,
267823,1564153012521,11,2.56,0.97,0.36,1.49,1.11,0.84,-0.19,0.16,16,1,17,0.86,5723,22,97,44,63,1072,303.0,399,463,60,123.0,179,1,346,262,55,0,0,295,24064,-30976,301,-5.59,,,,,,,,,,,,
267843,1564153012541,10,2.56,0.97,0.36,1.5,1.12,0.73,-0.26,0.23,16,3,17,0.78,5683,22,97,44,64,1069,301.0,395,464,60,122.0,179,1,340,263,55,0,0,299,630,130,301,-5.59,44.680878,10.024666,30.53,173.5,0,0.0,-1,0.0,0.0,0,1.61,4.464
267863,1564153012561,8,2.56,0.98,0.36,1.5,1.12,0.67,-0.29,0.21,16,1,19,0.73,5649,22,97,44,64,1066,301.0,396,460,60,125.0,179,1,336,271,55,0,0,305,630,-32256,301,-5.59,,,,,,,,,,,,
267883,1564153012581,8,2.57,0.98,0.36,1.5,1.11,0.78,-0.31,0.2,16,-0,20,0.84,5622,22,97,44,65,1066,301.0,398,463,60,123.0,189,1,332,279,57,0,0,294,250,125,302,-5.59,,,,,,,,,,,,
267903,1564153012601,10,2.59,0.98,0.36,1.5,1.11,0.85,-0.3,0.23,17,1,20,0.9,5572,22,97,44,65,1066,299.0,390,462,60,122.0,189,1,328,279,57,0,0,293,-1527,30720,299,-5.59,,,,,,,,,,,,
267923,1564153012621,7,2.59,0.98,0.36,1.51,1.12,0.76,-0.33,0.36,17,3,20,0.83,5568,22,97,44,66,1065,299.0,384,461,60,122.0,189,1,325,288,57,0,0,294,-1527,115,299,181.28,,,,,,,,,,,,
267943,1564153012641,7,2.6,0.98,0.36,1.5,1.12,0.72,-0.33,0.34,18,3,21,0.79,5575,22,97,44,66,1064,299.0,385,462,60,123.0,189,1,326,288,57,0,0,289,250,115,299,-5.59,44.680878,10.024654,29.9,173.6,0,0.0,-1,0.0,0.0,0,1.62,4.4657
267963,1564153012661,10,2.62,0.99,0.37,1.51,1.12,0.83,-0.33,0.35,18,1,22,0.9,5562,22,97,44,67,1065,297.0,385,465,60,122.0,189,1,323,295,57,0,0,284,-1,30720,297,-5.59,,,,,,,,,,,,
267983,1564153012681,9,2.63,0.99,0.36,1.51,1.12,0.85,-0.39,0.4,19,2,21,0.93,5513,22,97,44,67,1067,296.0,382,463,60,123.0,209,1,319,295,62,0,0,283,-1,105,296,-5.59,,,,,,,,,,,,
268003,1564153012701,7,2.64,0.99,0.36,1.51,1.13,0.83,-0.38,0.38,20,1,22,0.91,5479,22,97,44,67,1060,297.0,382,462,60,123.0,209,1,316,296,62,0,0,281,-1,105,297,181.28,,,,,,,,,,,,
268023,1564153012721,8,2.65,0.99,0.36,1.51,1.13,0.89,-0.39,0.36,21,0,23,0.97,5409,22,97,44,68,1054,295.0,377,465,60,123.0,209,1,308,304,62,0,0,281,-1,26880,295,-5.59,,,,,,,,,,,,
268043,1564153012741,8,2.65,1.0,0.36,1.52,1.12,0.81,-0.5,0.35,21,1,23,0.95,5392,22,97,44,68,1048,294.0,374,465,60,123.0,209,1,306,305,62,0,0,279,-1,115,294,-5.59,44.680878,10.024645,29.23,173.6,0,0.0,-1,0.0,0.0,0,1.62,4.4674
268063,1564153012761,9,2.67,1.01,0.36,1.52,1.12,0.9,-0.49,0.28,21,0,25,1.03,5357,22,97,44,69,1042,294.0,371,462,60,123.0,209,1,303,312,62,0,0,280,-10440,29440,294,-5.59,,,,,,,,,,,,
268083,1564153012781,7,2.67,1.01,0.36,1.53,1.12,0.85,-0.54,0.31,22,2,25,1.0,5302,22,97,44,70,1028,293.0,367,464,60,123.0,218,1,299,312,64,0,0,272,-41,100,293,-5.59,,,,,,,,,,,,
268103,1564153012801,8,2.68,1.01,0.36,1.52,1.12,0.92,-0.52,0.26,23,0,27,1.05,5292,22,97,44,70,1013,292.0,372,462,60,124.0,218,1,298,321,64,0,0,272,-41,95,292,-5.59,,,,,,,,,,,,
268123,1564153012821,7,2.67,1.01,0.36,1.52,1.13,0.9,-0.53,0.31,23,1,28,1.04,5296,22,97,44,71,1004,292.0,367,465,60,123.0,218,1,298,321,64,0,0,268,-10440,23040,292,-5.59,,,,,,,,,,,,
268143,1564153012841,8,2.68,1.0,0.36,1.52,1.13,0.86,-0.53,0.31,23,0,30,1.01,5287,22,97,44,70,996,291.0,367,462,60,123.0,218,1,298,254,64,0,0,270,-1,23040,291,-5.59,44.680878,10.024634,28.77,173.6,0,0.0,-1,0.0,0.0,0,1.62,4.469
268163,1564153012861,7,2.67,1.0,0.36,1.52,1.12,0.86,-0.53,0.35,23,1,30,1.01,5302,22,97,44,71,986,289.0,367,468,60,123.0,218,1,299,328,64,0,0,266,-1,85,289,-5.59,,,,,,,,,,,,
268183,1564153012881,4,2.69,1.0,0.36,1.53,1.12,0.89,-0.51,0.34,23,-1,31,1.02,5281,22,97,44,71,976,288.0,367,462,60,124.0,225,1,297,328,65,0,0,267,-1,21760,288,-5.59,,,,,,,,,,,,
268203,1564153012903,5,2.69,1.0,0.37,1.52,1.13,0.91,-0.52,0.38,24,-1,31,1.05,5208,22,97,44,72,970,288.0,367,462,60,123.0,225,1,291,334,65,0,0,269,-214,21760,288,-5.59,,,,,,,,,,,,
268223,1564153012923,9,2.69,1.01,0.36,1.53,1.13,0.92,-0.48,0.34,24,-1,32,1.03,5170,22,97,44,72,968,289.0,364,465,60,124.0,225,1,288,332,65,0,0,268,16896,85,289,-5.59,,,,,,,,,,,,
268243,1564153012943,6,2.69,1.01,0.36,1.52,1.12,0.88,-0.53,0.36,25,1,32,1.02,5128,22,97,44,73,965,287.0,359,463,60,124.0,225,1,284,336,65,0,0,264,10818,20480,287,-5.59,44.680878,10.024625,27.99,173.6,0,0.0,-1,0.0,0.0,0,1.62,4.4707
268263,1564153012963,7,2.7,1.01,0.36,1.53,1.12,0.93,-0.51,0.34,25,-1,33,1.06,5118,22,97,44,73,962,288.0,358,462,60,122.0,225,1,283,336,65,0,0,260,16896,85,287,-5.59,,,,,,,,,,,,
268283,1564153012983,8,2.69,1.01,0.37,1.53,1.12,0.88,-0.54,0.37,25,0,34,1.03,5128,22,97,44,73,961,285.0,353,460,60,124.0,226,1,284,336,65,0,0,261,10812,0,285,-5.59,,,,,,,,,,,,
268303,1564153012993,7,2.7,1.0,0.36,1.53,1.12,0.94,-0.52,0.36,26,-1,35,1.07,5134,22,97,44,73,962,286.0,355,462,60,123.0,226,1,285,343,65,0,0,257,15360,0,286,-5.59,,,,,,,,,,,,
268323,1564153013013,9,2.72,1.0,0.36,1.52,1.13,0.93,-0.51,0.35,26,-1,35,1.06,5122,22,97,44,73,960,284.0,356,459,60,122.0,226,1,284,336,65,0,0,254,23482,0,284,-5.59,,,,,,,,,,,,
268343,1564153013033,4,2.72,1.01,0.36,1.53,1.13,0.95,-0.54,0.42,27,-2,34,1.09,5102,22,97,44,74,958,284.0,352,463,60,124.0,226,1,282,341,65,0,0,256,-1445,10686,284,-5.59,44.680882,10.024615,27.25,173.6,0,0.0,-1,0.0,0.0,0,1.62,4.4724
268363,1564153013053,8,2.71,1.01,0.36,1.53,1.13,0.94,-0.55,0.36,27,-2,35,1.09,5052,22,97,44,74,956,282.0,352,467,60,123.0,226,1,278,339,65,0,0,260,250,-16896,282,-5.59,,,,,,,,,,,,
268383,1564153013073,5,2.73,1.01,0.37,1.53,1.13,0.89,-0.58,0.36,27,-1,36,1.06,5006,22,97,44,74,954,281.0,347,457,60,124.0,227,1,274,336,64,0,0,260,-1484,250,281,-5.59,,,,,,,,,,,,
268403,1564153013099,5,2.72,1.01,0.36,1.53,1.12,0.95,-0.57,0.35,27,-1,36,1.1,5005,22,97,44,75,949,279.0,345,466,60,124.0,227,1,274,341,64,0,0,257,-17920,1886,279,-5.59,,,,,,,,,,,,
268423,1564153013119,6,2.72,1.01,0.37,1.52,1.14,0.95,-0.61,0.35,27,-2,37,1.13,4982,22,97,44,75,942,279.0,347,461,60,121.0,227,1,272,340,64,0,0,252,-17920,-1534,279,-5.59,,,,,,,,,,,,
268443,1564153013139,9,2.72,1.01,0.36,1.53,1.13,0.91,-0.58,0.28,27,-1,37,1.08,4962,22,97,44,75,936,277.0,344,462,60,123.0,227,1,270,339,64,0,0,250,250,250,277,181.28,44.680882,10.024606,26.81,173.6,0,0.0,-1,0.0,0.0,0,1.62,4.4741
268463,1564153013159,6,2.71,1.01,0.36,1.53,1.13,0.96,-0.57,0.36,27,-1,37,1.11,4969,22,97,44,76,932,275.0,345,465,60,123.0,227,1,269,344,64,0,0,248,250,630,275,-5.59,,,,,,,,,,,,
268483,1564153013179,7,2.71,1.0,0.36,1.52,1.13,0.99,-0.54,0.37,28,-2,37,1.13,4942,22,97,44,76,926,274.0,345,465,60,122.0,229,1,270,343,63,0,0,247,13468,630,274,-5.59,,,,,,,,,,,,
268503,1564153013203,7,2.7,1.01,0.36,1.52,1.12,0.93,-0.55,0.3,27,-2,38,1.08,4898,22,97,44,75,918,272.0,343,461,60,124.0,229,1,265,341,63,0,0,247,-25600,250,272,-5.59,,,,,,,,,,,,
268523,1564153013223,6,2.71,1.0,0.36,1.52,1.13,0.9,-0.58,0.34,28,-1,37,1.07,4889,22,97,44,76,912,274.0,340,462,60,124.0,229,1,266,341,63,0,0,246,-1483,2414,271,-5.59,,,,,,,,,,,,
268543,1564153013243,6,2.69,1.01,0.36,1.52,1.12,0.93,-0.56,0.37,28,-1,38,1.08,4858,22,97,44,76,909,271.0,342,465,60,123.0,229,1,263,340,63,0,0,245,-1483,-1527,271,-5.59,44.680885,10.024597,26.27,173.6,0,0.0,-1,0.0,0.0,0,1.62,4.4757
268563,1564153013263,5,2.68,1.01,0.36,1.53,1.12,0.97,-0.54,0.35,28,-1,38,1.11,4805,22,97,44,76,905,270.0,340,465,60,122.0,229,1,259,338,63,0,0,244,-1483,250,270,-5.59,,,,,,,,,,,,
268583,1564153013283,6,2.67,1.01,0.37,1.52,1.12,0.97,-0.52,0.3,27,-2,38,1.1,4807,22,97,44,76,897,269.0,338,462,60,122.0,225,1,259,272,61,0,0,247,8704,2414,269,-5.59,,,,,,,,,,,,
268603,1564153013303,7,2.67,1.01,0.37,1.53,1.12,0.91,-0.52,0.28,27,-1,38,1.05,4792,22,97,44,76,890,267.0,332,461,60,125.0,225,1,258,337,61,0,0,239,8704,-1,267,-5.59,,,,,,,,,,,,
268623,1564153013323,6,2.66,1.0,0.38,1.52,1.13,0.9,-0.53,0.32,27,0,37,1.04,4797,22,98,44,76,886,266.0,333,465,60,124.0,225,1,258,337,61,0,0,238,13602,-1,266,-5.59,,,,,,,,,,,,
268643,1564153013343,6,2.65,1.0,0.36,1.52,1.12,0.91,-0.48,0.4,28,0,36,1.03,4802,22,97,44,76,881,266.0,333,467,60,124.0,225,1,258,338,61,0,0,240,8704,-1,266,-5.59,44.680885,10.024589,25.77,173.6,0,0.0,-1,0.0,0.0,0,1.62,4.4774
268663,1564153013363,6,2.66,0.98,0.36,1.5,1.12,0.93,-0.44,0.43,28,-1,35,1.03,4755,22,98,44,76,873,265.0,334,463,60,122.0,225,1,255,336,61,0,0,241,8704,-1281,265,-5.59,,,,,,,,,,,,
268683,1564153013383,5,2.66,0.99,0.36,1.5,1.12,0.94,-0.42,0.39,27,-2,35,1.03,4734,22,97,44,75,866,264.0,329,460,60,123.0,227,1,252,335,60,0,0,240,250,-1,264,-5.59,,,,,,,,,,,,
268703,1564153013402,7,2.65,0.99,0.36,1.51,1.12,0.93,-0.42,0.34,27,-1,35,1.02,4709,22,97,44,76,863,455.0,328,458,60,126.0,227,1,251,329,60,0,0,274,9517,-1,455,-5.59,,,,,,,,,,,,
268723,1564153013422,8,2.65,1.0,0.36,1.51,1.12,0.94,-0.38,0.31,27,-1,35,1.01,4703,22,98,44,76,859,220.0,328,463,60,126.0,227,1,250,334,60,0,0,274,250,-1,112,181.28,,,,,,,,,,,,
268743,1564153013442,10,2.66,1.01,0.37,1.51,1.13,0.94,-0.39,0.32,26,0,34,1.02,4702,22,98,44,75,859,256.0,327,462,60,126.0,227,1,249,329,60,0,0,274,19968,-1,256,-5.59,44.680889,10.024581,25.19,173.6,0,0.0,-1,0.0,0.0,0,1.62,4.4791
268763,1564153013462,5,2.66,1.01,0.37,1.52,1.13,0.95,-0.43,0.36,26,0,33,1.04,4702,22,98,44,76,860,257.0,324,460,60,125.0,227,1,250,334,60,0,0,274,10318,-1,257,-5.59,,,,,,,,,,,,
268783,1564153013482,5,2.66,1.0,0.37,1.52,1.12,0.96,-0.45,0.38,26,-1,33,1.06,4686,22,97,44,76,863,256.0,326,468,60,123.0,229,1,249,333,59,0,0,29,19968,-1,256,-5.59,,,,,,,,,,,,
268803,1564153013502,4,2.66,1.0,0.37,1.52,1.13,0.98,-0.44,0.39,25,-1,32,1.07,4661,22,97,44,76,866,256.0,327,466,60,123.0,229,1,247,332,59,0,0,234,10318,-1,256,-5.59,,,,,,,,,,,,
268823,1564153013522,4,2.66,1.0,0.36,1.51,1.13,0.97,-0.45,0.39,25,-2,33,1.07,4651,22,98,44,75,876,255.0,326,464,60,121.0,229,1,245,261,59,0,0,237,10318,14337,255,-5.59,,,,,,,,,,,,
268843,1564153013542,4,2.65,1.0,0.36,1.52,1.12,0.96,-0.49,0.38,24,-2,33,1.08,4622,22,97,44,75,886,254.0,329,466,60,123.0,229,1,243,330,59,0,0,1466,10318,-41,254,-5.59,44.680893,10.024573,25.04,173.6,0,0.0,-1,0.0,0.0,0,1.62,4.4807
268863,1564153013562,5,2.65,1.0,0.36,1.52,1.13,0.95,-0.47,0.32,24,-1,33,1.06,4636,22,98,44,75,893,254.0,323,456,60,125.0,229,1,244,327,59,0,0,1466,-1496,-10440,254,181.28,,,,,,,,,,,,
268883,1564153013582,6,2.65,1.0,0.36,1.52,1.12,0.98,-0.43,0.3,24,0,33,1.07,4644,22,98,44,75,900,254.0,324,458,60,125.0,228,1,245,327,58,0,0,1466,-1496,14337,254,-5.59,,,,,,,,,,,,
268903,1564153013602,6,2.64,1.0,0.36,1.52,1.12,0.98,-0.39,0.28,23,0,34,1.05,4658,22,98,44,75,908,254.0,327,458,60,125.0,228,1,246,327,58,0,0,228,10318,-10440,254,-5.59,,,,,,,,,,,,
268923,1564153013622,6,2.64,1.0,0.36,1.52,1.12,0.94,-0.36,0.25,23,1,34,1.01,4592,22,98,44,76,916,254.0,324,457,60,124.0,228,1,241,329,58,0,0,229,1596,-10440,254,-5.59,,,,,,,,,,,,
268943,1564153013642,7,2.64,1.0,0.36,1.51,1.12,0.95,-0.32,0.25,23,2,33,1.0,4525,22,98,44,76,918,255.0,321,456,60,125.0,228,1,236,324,58,0,0,230,1596,-1,255,181.28,44.680901,10.024567,24.12,173.6,0,0.0,-1,0.0,0.0,0,1.62,4.4824
268963,1564153013662,8,2.64,0.99,0.36,1.52,1.13,0.93,-0.35,0.29,23,2,33,1.0,4537,22,98,44,76,919,252.0,317,463,60,125.0,228,1,237,327,58,0,0,232,1596,-1,252,181.28,,,,,,,,,,,,
268983,1564153013682,8,2.63,1.0,0.36,1.51,1.12,0.92,-0.36,0.3,23,3,33,0.99,4539,22,98,44,75,918,251.0,320,463,60,124.0,217,1,236,327,55,0,0,230,-1530,14337,251,-5.59,,,,,,,,,,,,
269003,1564153013702,6,2.63,1.0,0.36,1.52,1.12,0.88,-0.38,0.36,22,4,32,0.96,4553,22,98,44,75,917,252.0,320,462,60,124.0,217,1,237,325,55,0,0,231,1596,-1,252,-5.59,,,,,,,,,,,,
269023,1564153013722,6,2.63,1.0,0.36,1.51,1.13,0.85,-0.38,0.35,22,6,32,0.93,4552,22,98,44,75,914,251.0,317,461,60,125.0,217,1,237,325,55,0,0,230,1596,506,251,181.28,,,,,,,,,,,,
269043,1564153013742,5,2.62,1.0,0.36,1.51,1.13,0.83,-0.41,0.5,22,4,31,0.92,4518,22,98,44,75,912,249.0,317,462,60,124.0,217,1,234,323,55,0,0,230,1596,-1281,249,-5.59,44.680904,10.02456,24.08,173.6,0,0.0,-1,0.0,0.0,0,1.62,4.484
269063,1564153013762,7,2.62,1.0,0.36,1.52,1.12,0.81,-0.45,0.57,22,4,30,0.92,4557,22,98,44,75,907,253.0,318,463,60,125.0,217,1,238,325,55,0,0,231,1596,-1,253,-5.59,,,,,,,,,,,,
269083,1564153013782,3,2.6,1.0,0.36,1.5,1.12,0.79,-0.44,0.58,22,4,29,0.91,4528,22,98,44,75,903,250.0,317,462,60,126.0,220,1,235,324,55,0,0,230,1596,-1,250,-5.59,,,,,,,,,,,,
269103,1564153013802,3,2.6,0.99,0.36,1.51,1.12,0.8,-0.47,0.67,22,4,27,0.93,4545,22,98,44,75,899,253.0,319,466,60,124.0,220,1,235,324,55,0,0,233,250,-1,253,-5.59,,,,,,,,,,,,
269123,1564153013822,1,2.58,0.99,0.36,1.51,1.12,0.82,-0.49,0.64,21,3,27,0.95,4505,22,98,44,75,897,248.0,316,462,60,125.0,220,1,233,256,55,0,0,233,-1530,-1,248,-5.59,,,,,,,,,,,,
