"Interval"|"ms"|0|0|1,"Utc"|"ms"|0|0|1,"FB_p"|"bar"|0|300|50,"Volant"|"F"|0.0|300.0|50,"xFR"|"mm"|0.0|5.0|50,"xRR"|"mm"|0.0|5.0|50,"xFL"|"mm"|0.0|5.0|50,"xRL"|"mm"|0.0|5.0|50,"AccelX"|"G"|-3.0|3.0|50,"AccelY"|"G"|-3.0|3.0|50,"AccelZ"|"G"|-3.0|3.0|50,"Yaw"|"Deg/Sec"|-120|120|50,"Pitch"|"Deg/Sec"|-120|120|50,"Roll"|"Deg/Sec"|-120|120|50,"Gsum"|"G"|0.0|3.0|50,"RPM"|""|0|14000|50,"TPS"|"%"|0|100|50,"WaterTemp"|"?C"|0|300|50,"AirTemp"|"?C"|-1000|1000|50,"MAP"|"KPa"|0|255|50,"Lambda"|""|0|1024|50,"WheelSpeed"|"MPH"|0.0|150.0|50,"OilPress"|"PSI"|0|150|50,"FuelPress"|"PSI"|0|150|50,"OilTemp"|"F"|0|300|50,"Battery"|"Volts"|0.0|20.0|50,"FuelCon"|"L/h"|-1000|1000|50,"Gear"|""|0|10|50,"Advance"|"Deg"|-360|360|50,"Injection"|"ms"|-1000|1000|50,"FuelCon"|"L/100km"|-1000|1000|50,"LC_But_Pres"|""|-1000|1000|50,"LC_Active"|""|-1000|1000|50,"RD_Speed"|""|-1000|1000|50,"RUD_Speed"|""|-1000|1000|50,"LD_Speed"|""|-1000|1000|50,"LUD_Speed"|""|-1000|1000|50,"Ana1"|"bar"|-1000.0|1000.0|50,"Latitude"|"Degrees"|-180.0|180.0|10,"Longitude"|"Degrees"|-180.0|180.0|10,"Speed"|"kph"|0.0|150.0|10,"Altitude"|"m"|0.0|4000.0|10,"LapCount"|""|0|0|10,"LapTime"|"Min"|0.0|0.0|10,"Sector"|""|0|0|10,"SectorTime"|"Min"|0.0|0.0|10,"ElapsedTime"|"Min"|0.0|0.0|10,"CurrentLap"|""|0|0|10,"Distance"|"km"|0.0|0.0|10,"SessionTime"|"Min"|0.0|0.0|10
257363,1564151604782,-0,2.5,0.93,0.33,1.4,1.08,0.41,-0.48,0.74,16,5,21,0.63,9941,64,91,44,64,1310,513.0,639,468,60,122.0,276,1,405,384,141,0,0,530,1,2104,515,-5.59,,,,,,,,,,,,
257383,1564151604802,1,2.49,0.93,0.32,1.39,1.07,0.44,-0.46,0.72,16,5,21,0.63,9946,64,91,44,65,1280,514.0,641,465,60,123.0,276,1,404,391,141,0,0,530,-1818,2104,516,-5.59,,,,,,,,,,,,
257403,1564151604822,3,2.5,0.93,0.32,1.39,1.08,0.55,-0.45,0.56,16,2,22,0.71,9962,64,91,44,64,1237,517.0,642,466,60,123.0,276,1,405,384,141,0,0,539,771,6274,517,-5.59,,,,,,,,,,,,
257423,1564151604842,1,2.49,0.93,0.33,1.39,1.07,0.56,-0.53,0.49,16,2,22,0.77,10075,64,91,44,64,1219,521.0,640,474,60,122.0,276,1,410,389,141,0,0,548,-9216,-3082,521,-5.59,,,,,,,,,,,,
257443,1564151604862,0,2.49,0.93,0.33,1.39,1.07,0.53,-0.51,0.48,16,3,22,0.74,10173,64,91,44,64,1202,525.0,649,472,60,123.0,276,1,416,392,141,0,0,541,10408,2524,523,-5.59,44.681389,10.024936,48.98,172.7,0,0.0,-1,0.0,0.0,0,1.62,4.2907
257463,1564151604882,1,2.49,0.94,0.33,1.4,1.07,0.54,-0.44,0.32,15,1,24,0.7,10268,66,91,44,65,1176,527.0,650,466,60,123.0,289,1,425,402,152,0,0,546,2109,6274,528,-5.59,,,,,,,,,,,,
257483,1564151604902,3,2.49,0.94,0.33,1.4,1.07,0.49,-0.46,0.29,16,1,24,0.67,10324,66,91,44,65,1154,528.0,648,468,60,122.0,289,1,427,404,152,0,0,547,6274,-22263,531,-5.59,,,,,,,,,,,,
257503,1564151604922,3,2.49,0.93,0.33,1.39,1.07,0.52,-0.52,0.45,16,1,24,0.74,10353,66,91,44,66,1144,535.0,655,464,60,123.0,289,1,431,414,152,0,0,551,-3414,-22263,535,-5.59,,,,,,,,,,,,
257523,1564151604942,1,2.5,0.93,0.33,1.39,1.07,0.54,-0.58,0.6,16,1,23,0.79,10451,66,91,44,66,1140,535.0,657,465,60,122.0,289,1,440,416,152,0,0,565,-3414,12552,535,-5.59,,,,,,,,,,,,
257543,1564151604962,3,2.49,0.94,0.33,1.38,1.07,0.64,-0.67,0.74,16,2,21,0.92,10486,66,91,44,66,1133,539.0,667,468,60,122.0,289,1,443,417,152,0,0,553,17136,12552,539,-5.59,44.681381,10.02495,50.74,172.7,0,0.0,-1,0.0,0.0,0,1.62,4.2924
257563,1564151604982,3,2.49,0.94,0.32,1.4,1.07,0.55,-0.77,0.86,16,4,19,0.95,10581,66,91,44,67,1124,542.0,653,466,60,123.0,309,1,445,426,167,0,0,563,15679,1780,542,-5.59,,,,,,,,,,,,
257583,1564151604994,2,2.49,0.93,0.33,1.39,1.07,0.57,-0.82,0.97,16,5,19,1.0,10557,67,91,44,67,1118,545.0,653,465,60,123.0,309,1,444,426,167,0,0,571,-22519,-2934,546,-5.59,,,,,,,,,,,,
257603,1564151605014,3,2.49,0.94,0.33,1.39,1.07,0.57,-0.78,1.07,16,6,18,0.96,10635,66,91,44,67,1116,549.0,656,462,60,123.0,309,1,445,427,167,0,0,571,2088,-30159,548,-5.59,,,,,,,,,,,,
257623,1564151605034,-0,2.5,0.93,0.33,1.39,1.08,0.63,-0.72,1.01,16,5,18,0.95,10629,65,91,44,67,1107,550.0,653,467,60,122.0,309,1,445,427,167,0,0,573,-32248,-8186,550,-5.59,,,,,,,,,,,,
257643,1564151605054,1,2.5,0.93,0.33,1.39,1.08,0.61,-0.67,1.06,16,3,19,0.91,10689,63,91,44,66,1083,552.0,654,466,60,121.0,309,1,447,419,167,0,0,580,-28648,259,552,-5.59,44.681374,10.024965,52.35,172.7,0,0.0,-1,0.0,0.0,0,1.62,4.2941
257663,1564151605074,1,2.5,0.93,0.33,1.39,1.07,0.62,-0.44,0.91,16,1,22,0.76,10806,59,91,44,65,1065,555.0,648,466,60,122.0,309,1,449,411,171,0,0,584,2104,1,554,-5.59,,,,,,,,,,,,
257683,1564151605101,3,2.5,0.94,0.33,1.39,1.08,0.57,-0.35,0.62,16,2,22,0.66,10819,55,91,44,63,1048,556.0,661,467,60,122.0,309,1,450,395,171,0,0,583,-32248,774,558,-5.59,,,,,,,,,,,,
257703,1564151605121,3,2.49,0.94,0.33,1.4,1.07,0.58,-0.51,0.75,15,2,20,0.77,10913,50,91,44,61,1031,560.0,656,463,60,122.0,309,1,450,382,171,0,0,585,-30064,30208,560,-5.59,,,,,,,,,,,,
257723,1564151605141,-0,2.5,0.93,0.33,1.39,1.07,0.65,-0.58,0.87,16,1,20,0.87,10875,46,91,44,58,1017,564.0,657,468,60,123.0,309,1,428,364,171,0,0,586,-2336,-1894,564,-5.59,,,,,,,,,,,,
257743,1564151605161,2,2.5,0.93,0.34,1.39,1.07,0.59,-0.39,0.77,16,3,22,0.71,10926,43,91,44,56,1001,566.0,661,468,60,122.0,309,1,414,341,171,0,0,601,-2336,-4035,566,-5.59,44.681366,10.02498,53.88,172.7,0,0.0,-1,0.0,0.0,0,1.62,4.2957
257763,1564151605181,2,2.49,0.94,0.33,1.39,1.07,0.54,-0.32,0.59,16,3,23,0.63,10939,41,91,44,54,999,570.0,666,465,60,122.0,242,1,400,325,137,0,0,574,-3082,-16179,570,-5.59,,,,,,,,,,,,
257783,1564151605201,3,2.5,0.93,0.33,1.4,1.07,0.6,-0.49,0.72,16,3,20,0.77,10825,39,91,44,52,995,571.0,663,470,60,121.0,242,1,394,299,137,0,0,586,2524,-1894,571,-5.59,,,,,,,,,,,,
257803,1564151605221,1,2.49,0.94,0.33,1.39,1.07,0.63,-0.55,0.85,16,6,20,0.84,10763,35,91,44,50,973,571.0,653,465,60,122.0,242,1,388,275,137,0,0,581,2104,-4035,571,-5.59,,,,,,,,,,,,
257823,1564151605241,0,2.5,0.93,0.33,1.38,1.08,0.69,-0.37,0.73,17,5,22,0.79,10714,32,91,44,48,956,572.0,650,466,60,122.0,242,1,382,251,137,0,0,582,-32248,15649,572,-5.59,,,,,,,,,,,,
257843,1564151605261,1,2.5,0.94,0.33,1.4,1.07,0.68,-0.24,0.58,17,2,24,0.72,10510,29,91,44,46,944,573.0,654,468,60,122.0,242,1,372,237,137,0,0,575,2524,-25872,573,-5.59,44.681358,10.024994,55.31,172.7,0,0.0,-1,0.0,0.0,0,1.63,4.2974
257863,1564151605281,-0,2.5,0.93,0.33,1.39,1.07,0.76,-0.15,0.5,17,-1,26,0.77,10336,27,91,44,45,919,573.0,647,468,60,122.0,160,1,365,233,92,0,0,561,-22519,-4035,573,-5.59,,,,,,,,,,,,
257883,1564151605301,2,2.5,0.93,0.33,1.39,1.08,0.81,-0.2,0.52,17,0,27,0.84,10135,26,91,44,44,888,574.0,651,468,60,122.0,160,1,357,230,92,0,0,563,-22519,-25872,573,-5.59,,,,,,,,,,,,
257903,1564151605321,1,2.51,0.93,0.33,1.39,1.08,0.89,-0.34,0.66,17,0,26,0.95,9873,23,91,44,42,860,574.0,657,462,60,123.0,160,1,342,225,92,0,0,561,2524,-25872,574,-5.59,,,,,,,,,,,,
257923,1564151605341,3,2.48,0.93,0.33,1.4,1.07,0.91,-0.35,0.69,18,-2,27,0.97,9689,22,91,44,42,849,574.0,644,470,60,122.0,160,1,342,219,92,0,0,560,-506,8488,574,-5.59,,,,,,,,,,,,
257943,1564151605361,1,2.49,0.93,0.33,1.39,1.08,0.92,-0.43,0.72,19,1,25,1.02,9556,21,91,44,40,831,574.0,642,460,60,123.0,160,1,327,213,92,0,0,550,-8962,30208,574,-5.59,44.681347,10.025007,56.34,172.8,0,0.0,-1,0.0,0.0,0,1.63,4.299
257963,1564151605381,1,2.49,0.93,0.33,1.38,1.08,0.93,-0.49,0.62,19,-0,26,1.05,9522,21,91,44,39,825,570.0,636,465,60,123.0,132,1,320,211,76,0,0,523,-8186,-30159,570,-5.59,,,,,,,,,,,,
257983,1564151605401,-0,2.49,0.94,0.33,1.39,1.07,0.89,-0.46,0.65,19,3,26,1.0,9556,21,91,44,38,820,566.0,639,471,60,122.0,132,1,317,208,76,0,0,525,-2934,-29984,566,-5.59,,,,,,,,,,,,
258003,1564151605421,1,2.49,0.93,0.33,1.39,1.08,1.0,-0.56,0.58,18,0,26,1.15,9532,21,91,44,38,827,561.0,635,465,60,122.0,132,1,317,208,76,0,0,512,-28648,2524,561,-5.59,,,,,,,,,,,,
258023,1564151605441,2,2.48,0.94,0.33,1.39,1.07,1.0,-0.48,0.49,19,-0,28,1.11,9595,21,91,43,37,836,563.0,641,460,60,124.0,132,1,314,207,76,0,0,519,-32248,-28648,563,-5.59,,,,,,,,,,,,
258043,1564151605461,1,2.47,0.94,0.33,1.39,1.07,1.0,-0.54,0.57,19,2,27,1.13,9620,21,91,43,37,876,557.0,644,466,60,123.0,132,1,314,207,76,0,0,506,-22519,2524,555,-5.59,44.681339,10.025021,56.43,172.7,0,0.0,-1,0.0,0.0,0,1.63,4.3007
258063,1564151605481,2,2.48,0.93,0.33,1.39,1.08,0.98,-0.57,0.36,19,1,28,1.14,9645,21,91,43,36,900,554.0,642,459,60,124.0,133,1,311,205,74,0,0,501,2088,2104,552,-5.59,,,,,,,,,,,,
258083,1564151605502,-1,2.46,0.93,0.33,1.39,1.07,0.93,-0.54,0.33,19,4,27,1.08,9659,21,91,43,36,926,550.0,642,475,60,122.0,133,1,311,205,74,0,0,504,-32248,-32248,550,-5.59,,,,,,,,,,,,
258103,1564151605522,1,2.47,0.94,0.33,1.39,1.08,1.04,-0.59,0.35,19,2,26,1.19,9625,21,91,43,36,955,546.0,647,463,60,124.0,133,1,311,205,74,0,0,504,-22519,-506,546,-5.59,,,,,,,,,,,,
258123,1564151605542,2,2.45,0.93,0.33,1.39,1.07,1.01,-0.49,0.22,18,-0,26,1.12,9625,21,91,43,35,981,540.0,643,465,60,123.0,133,1,308,203,74,0,0,511,1248,-3082,542,-5.59,,,,,,,,,,,,
258143,1564151605562,1,2.46,0.94,0.33,1.4,1.07,1.01,-0.64,0.39,18,2,24,1.2,9650,21,91,43,35,1014,539.0,631,467,60,122.0,133,1,308,203,74,0,0,514,16383,-28648,540,-5.59,44.681324,10.025034,55.33,172.7,0,0.0,-1,0.0,0.0,0,1.63,4.3024
258163,1564151605582,3,2.46,0.94,0.33,1.4,1.07,1.07,-0.61,0.23,17,1,26,1.24,9720,21,91,43,35,1035,535.0,528,467,60,123.0,138,1,308,204,74,0,0,508,-14,-22519,535,-5.59,,,,,,,,,,,,
258183,1564151605601,1,2.46,0.94,0.33,1.39,1.08,0.93,-0.64,0.34,17,5,25,1.13,9664,21,91,43,34,1046,533.0,415,465,60,123.0,138,1,305,201,74,0,0,512,-4054,-22519,533,-5.59,,,,,,,,,,,,
258203,1564151605621,2,2.46,0.93,0.32,1.4,1.07,1.01,-0.62,0.19,17,2,24,1.18,9689,21,91,43,34,1055,528.0,521,468,60,122.0,138,1,305,201,74,0,0,513,-21872,2524,528,-5.59,,,,,,,,,,,,
258223,1564151605641,-0,2.45,0.94,0.33,1.4,1.07,0.94,-0.58,0.32,17,2,24,1.1,9791,21,91,43,34,1071,525.0,487,468,60,122.0,138,1,305,203,74,0,0,506,6274,-28648,525,-5.59,,,,,,,,,,,,
258243,1564151605661,3,2.47,0.93,0.33,1.39,1.07,0.98,-0.61,0.23,17,3,25,1.15,9725,21,91,43,34,1074,525.0,534,465,60,123.0,138,1,305,202,74,0,0,505,11560,2104,525,-5.59,44.681316,10.025044,53.89,172.7,0,0.0,-1,0.0,0.0,0,1.63,4.304
258263,1564151605681,1,2.46,0.93,0.33,1.39,1.08,0.96,-0.57,0.4,16,2,23,1.11,9645,21,91,43,34,1075,520.0,594,471,60,121.0,141,1,305,202,74,0,0,508,2524,2088,520,-5.59,,,,,,,,,,,,
258283,1564151605701,0,2.47,0.93,0.33,1.4,1.08,1.0,-0.67,0.28,16,2,23,1.2,9561,21,91,43,34,1067,519.0,642,457,60,122.0,141,1,305,200,74,0,0,504,-9216,2088,519,-5.59,,,,,,,,,,,,
258303,1564151605721,3,2.47,0.94,0.33,1.4,1.07,1.0,-0.55,0.19,16,2,23,1.14,9527,21,92,43,34,1050,517.0,632,468,60,121.0,141,1,305,199,74,0,0,507,771,15679,517,-5.59,,,,,,,,,,,,
258323,1564151605741,0,2.47,0.94,0.33,1.4,1.07,0.94,-0.6,0.28,16,1,22,1.12,9488,21,92,43,34,1040,515.0,635,472,60,122.0,141,1,305,199,74,0,0,497,-6528,10408,515,-5.59,,,,,,,,,,,,
258343,1564151605761,2,2.46,0.94,0.33,1.39,1.08,0.98,-0.7,0.28,16,1,22,1.21,9474,21,92,43,34,1022,513.0,630,464,60,123.0,141,1,305,199,74,0,0,494,-32768,26178,513,-5.59,44.681301,10.025055,52.1,172.8,0,0.0,-1,0.0,0.0,0,1.63,4.3057
258363,1564151605781,3,2.46,0.93,0.33,1.39,1.07,1.03,-0.64,0.25,16,1,22,1.22,9469,21,92,43,34,996,512.0,636,471,60,123.0,136,1,305,199,70,0,0,495,505,26178,512,-5.59,,,,,,,,,,,,
258383,1564151605801,-0,2.46,0.93,0.33,1.4,1.07,0.98,-0.54,0.29,16,2,23,1.12,9379,21,92,43,34,966,511.0,643,467,60,122.0,136,1,305,197,70,0,0,496,-1562,-3856,511,-5.59,,,,,,,,,,,,
258403,1564151605821,0,2.47,0.93,0.33,1.39,1.08,1.01,-0.63,0.26,16,2,22,1.19,9295,21,92,43,34,949,508.0,633,462,60,123.0,136,1,305,196,70,0,0,487,-1562,26178,508,-5.59,,,,,,,,,,,,
258423,1564151605841,2,2.46,0.94,0.33,1.4,1.07,0.99,-0.72,0.24,16,2,22,1.22,9295,21,92,43,35,928,505.0,631,467,60,123.0,136,1,308,199,70,0,0,487,3580,6274,505,-5.59,,,,,,,,,,,,
258443,1564151605861,3,2.47,0.93,0.33,1.39,1.07,1.0,-0.64,0.21,16,2,22,1.19,9291,21,92,43,34,917,502.0,637,459,60,123.0,136,1,305,196,70,0,0,487,32033,-28648,503,-5.59,44.681294,10.025064,50.92,172.8,0,0.0,-1,0.0,0.0,0,1.63,4.3074
258463,1564151605881,3,2.47,0.94,0.33,1.4,1.07,1.08,-0.47,0.25,16,2,23,1.17,9370,21,92,43,34,900,967.0,634,469,60,125.0,137,1,305,197,69,0,0,1829,771,15661,497,-5.59,,,,,,,,,,,,
258483,1564151605901,0,2.46,0.94,0.33,1.39,1.07,1.02,-0.42,0.24,16,2,23,1.1,9389,21,92,43,33,895,497.0,647,463,60,124.0,137,1,302,194,69,0,0,1829,-23367,2109,497,-5.59,,,,,,,,,,,,
258503,1564151605921,0,2.47,0.94,0.33,1.39,1.08,0.92,-0.54,0.21,16,2,23,1.07,9431,21,92,43,33,897,497.0,644,465,60,124.0,137,1,302,195,69,0,0,1829,2212,-21872,497,-5.59,,,,,,,,,,,,
258523,1564151605941,3,2.47,0.93,0.33,1.39,1.08,0.97,-0.52,0.29,16,3,22,1.1,9431,21,92,43,32,897,498.0,652,470,60,124.0,137,1,300,193,69,0,0,1829,-9203,-3856,498,-5.59,,,,,,,,,,,,
258543,1564151605961,2,2.47,0.93,0.34,1.39,1.08,1.02,-0.4,0.28,16,2,23,1.1,9431,21,92,43,32,893,497.0,640,472,60,124.0,137,1,300,193,69,0,0,1829,3576,-3414,499,-5.59,44.681282,10.025073,49.57,172.8,0,0.0,-1,0.0,0.0,0,1.64,4.3091
258563,1564151605981,1,2.46,0.92,0.34,1.39,1.07,0.95,-0.45,0.27,16,3,23,1.05,9370,21,92,43,31,886,497.0,641,461,60,124.0,138,1,295,191,69,0,0,479,3576,6274,496,-5.59,,,,,,,,,,,,
258583,1564151605991,1,2.46,0.94,0.33,1.39,1.07,0.94,-0.6,0.31,16,3,22,1.12,9328,21,92,43,31,878,494.0,638,464,60,125.0,138,1,295,190,69,0,0,479,-1923,10408,495,-5.59,,,,,,,,,,,,
258603,1564151606011,2,2.47,0.94,0.33,1.4,1.07,1.01,-0.6,0.31,16,1,23,1.18,9333,21,92,43,31,871,494.0,635,465,60,124.0,138,1,295,190,69,0,0,481,-1923,-32248,494,-5.59,,,,,,,,,,,,
258623,1564151606031,2,2.46,0.93,0.33,1.39,1.07,1.02,-0.43,0.35,16,2,23,1.11,9309,21,92,43,31,855,495.0,632,463,60,124.0,138,1,295,189,69,0,0,484,-1923,2109,495,-5.59,,,,,,,,,,,,
258643,1564151606051,-0,2.47,0.93,0.33,1.39,1.08,0.98,-0.36,0.35,17,1,23,1.04,9268,21,92,43,31,846,492.0,625,462,60,124.0,138,1,295,188,69,0,0,482,3576,6274,492,-5.59,44.681271,10.02508,48.68,172.8,0,0.0,-1,0.0,0.0,0,1.64,4.3107
258663,1564151606071,1,2.47,0.94,0.33,1.39,1.08,0.89,-0.46,0.3,17,3,22,1.01,9231,21,92,43,31,839,493.0,630,465,60,124.0,132,1,295,188,65,0,0,480,10432,2524,493,-5.59,,,,,,,,,,,,
258683,1564151606092,1,2.47,0.94,0.33,1.4,1.08,0.74,-0.58,0.28,17,3,22,0.94,9213,21,92,43,32,835,493.0,630,468,60,124.0,132,1,300,188,65,0,0,481,10432,2109,491,-5.59,,,,,,,,,,,,
258703,1564151606112,1,2.47,0.94,0.34,1.39,1.08,0.71,-0.71,0.31,16,4,21,1.01,9177,21,92,43,31,832,491.0,633,468,60,124.0,132,1,295,188,65,0,0,480,10432,-32248,491,-5.59,,,,,,,,,,,,
258723,1564151606132,1,2.47,0.93,0.34,1.39,1.07,0.76,-0.78,0.34,16,4,22,1.08,9173,21,92,44,32,830,490.0,637,467,60,124.0,132,1,300,187,65,0,0,480,10432,6274,490,-5.59,,,,,,,,,,,,
258743,1564151606152,3,2.47,0.94,0.33,1.4,1.07,0.88,-0.71,0.4,16,3,21,1.12,9146,21,92,43,32,832,488.0,635,461,60,125.0,132,1,300,187,65,0,0,482,-16384,15661,491,-5.59,44.681263,10.025086,48.47,172.9,0,0.0,-1,0.0,0.0,0,1.64,4.3124
258763,1564151606172,3,2.46,0.94,0.33,1.4,1.07,0.99,-0.63,0.45,16,1,22,1.18,9132,21,92,44,32,835,490.0,632,472,60,124.0,130,1,300,186,64,0,0,476,-3210,15661,490,-5.59,,,,,,,,,,,,
258783,1564151606202,1,2.47,0.94,0.34,1.39,1.08,1.08,-0.45,0.52,16,1,22,1.17,9119,21,92,44,32,839,491.0,629,470,60,124.0,130,1,300,186,64,0,0,476,243,3,491,-5.59,,,,,,,,,,,,
258803,1564151606222,1,2.47,0.93,0.33,1.4,1.07,1.17,-0.37,0.55,16,-2,23,1.23,9057,21,92,44,32,845,489.0,632,463,60,124.0,130,1,300,186,64,0,0,482,30272,-22519,489,-5.59,,,,,,,,,,,,
258823,1564151606242,3,2.46,0.94,0.33,1.4,1.07,1.14,-0.25,0.6,17,-1,23,1.17,9031,22,92,44,32,847,486.0,630,469,60,123.0,130,1,300,184,64,0,0,479,30272,2524,486,-5.59,,,,,,,,,,,,
258843,1564151606262,2,2.47,0.93,0.33,1.39,1.08,1.2,-0.16,0.6,17,-1,24,1.21,9044,22,92,44,32,849,488.0,628,467,60,124.0,130,1,300,184,64,0,0,476,-3210,2524,486,-5.59,44.681248,10.025093,48.08,172.9,0,0.0,-1,0.0,0.0,0,1.64,4.3141
258863,1564151606282,2,2.47,0.93,0.33,1.4,1.07,1.18,-0.06,0.56,18,-1,24,1.18,8997,22,92,44,32,873,486.0,631,465,60,123.0,127,1,300,184,62,0,0,476,30272,-22519,486,-5.59,,,,,,,,,,,,
258883,1564151606302,3,2.46,0.94,0.33,1.4,1.07,1.24,-0.01,0.56,17,-1,26,1.24,8975,22,92,44,33,888,484.0,633,462,60,124.0,127,1,302,187,62,0,0,475,-3210,-6528,484,-5.59,,,,,,,,,,,,
258903,1564151606322,3,2.46,0.94,0.33,1.39,1.07,1.21,0.08,0.57,17,-2,25,1.21,8967,22,92,44,33,911,486.0,637,469,60,124.0,127,1,302,187,62,0,0,475,6193,248,486,-5.59,,,,,,,,,,,,
258923,1564151606342,2,2.47,0.93,0.34,1.39,1.08,1.22,0.12,0.58,18,-3,25,1.23,8945,22,92,44,33,925,483.0,631,470,60,125.0,127,1,302,187,62,0,0,471,-18108,248,483,-5.59,,,,,,,,,,,,
258943,1564151606362,3,2.48,0.93,0.34,1.39,1.08,1.25,0.22,0.59,18,-3,25,1.27,8984,22,92,44,33,955,482.0,633,473,60,125.0,127,1,302,187,62,0,0,470,2211,-6656,482,-5.59,44.681236,10.025098,47.87,172.9,0,0.0,-1,0.0,0.0,0,1.64,4.3157
258963,1564151606382,3,2.47,0.94,0.33,1.39,1.07,1.32,0.23,0.63,18,-4,25,1.34,8945,22,92,44,33,993,483.0,635,463,60,124.0,130,1,302,187,63,0,0,474,-23623,-32768,483,-5.59,,,,,,,,,,,,
258983,1564151606402,3,2.48,0.94,0.33,1.4,1.07,1.37,0.3,0.75,18,-3,25,1.4,8975,23,92,44,33,1004,482.0,631,462,60,124.0,130,1,302,187,63,0,0,474,-23623,998,481,-5.59,,,,,,,,,,,,
259003,1564151606422,3,2.46,0.94,0.33,1.4,1.08,1.43,0.29,0.78,18,-5,24,1.46,8924,23,92,44,33,1020,480.0,626,467,60,124.0,130,1,302,187,63,0,0,474,-18108,998,482,-5.59,,,,,,,,,,,,
259023,1564151606442,2,2.47,0.94,0.33,1.4,1.08,1.49,0.3,0.84,18,-6,24,1.52,8928,23,92,44,33,1035,480.0,626,470,60,124.0,130,1,302,187,63,0,0,474,14488,1,480,-5.59,,,,,,,,,,,,
259043,1564151606462,0,2.48,0.94,0.34,1.39,1.08,1.54,0.24,0.83,17,-6,25,1.56,8911,23,92,44,34,1060,481.0,622,467,60,124.0,130,1,305,191,63,0,0,461,-26615,-1818,481,-5.59,44.681225,10.025103,47.29,172.9,0,0.0,-1,0.0,0.0,0,1.64,4.3174
259063,1564151606482,1,2.47,0.94,0.33,1.4,1.07,1.59,0.2,0.88,17,-5,23,1.6,8907,23,92,44,34,1066,480.0,627,467,60,124.0,133,1,305,191,64,0,0,464,2524,505,478,-5.59,,,,,,,,,,,,
259083,1564151606502,1,2.47,0.94,0.33,1.4,1.08,1.62,0.04,0.82,17,-6,23,1.62,8894,23,92,44,34,1072,477.0,625,465,60,124.0,133,1,305,191,64,0,0,460,-8985,32033,477,-5.59,,,,,,,,,,,,
259103,1564151606522,1,2.47,0.93,0.33,1.4,1.08,1.54,-0.09,0.76,17,-5,23,1.54,8911,23,92,44,34,1081,478.0,623,470,60,124.0,133,1,305,191,64,0,0,465,-26615,248,478,-5.59,,,,,,,,,,,,
259123,1564151606542,-0,2.47,0.94,0.34,1.39,1.08,1.43,-0.23,0.7,17,-3,23,1.45,8894,24,92,44,35,1086,475.0,628,462,60,123.0,133,1,308,194,64,0,0,465,2524,3580,477,-5.59,,,,,,,,,,,,
259143,1564151606562,0,2.47,0.94,0.33,1.4,1.07,1.28,-0.38,0.65,17,-2,22,1.33,8932,24,92,44,35,1090,477.0,631,466,60,125.0,133,1,308,194,64,0,0,462,2524,-899,477,-5.59,44.681213,10.025105,47.25,173.0,0,0.0,-1,0.0,0.0,0,1.64,4.319
259163,1564151606582,-1,2.48,0.94,0.33,1.39,1.08,1.09,-0.48,0.5,17,-1,23,1.18,8915,24,92,44,35,1091,476.0,633,465,60,124.0,134,1,308,194,64,0,0,465,-6387,-6528,476,-5.59,,,,,,,,,,,,
259183,1564151606602,1,2.48,0.94,0.33,1.4,1.07,0.92,-0.51,0.39,17,1,23,1.05,8932,24,92,44,35,1095,475.0,631,466,60,124.0,134,1,308,194,64,0,0,466,-3267,3580,473,-5.59,,,,,,,,,,,,
259203,1564151606622,-0,2.47,0.94,0.33,1.39,1.08,0.75,-0.5,0.3,17,2,23,0.9,8915,24,92,44,35,1105,473.0,633,463,60,123.0,134,1,308,194,64,0,0,463,15649,3580,473,-5.59,,,,,,,,,,,,
259223,1564151606642,3,2.47,0.94,0.33,1.4,1.07,0.72,-0.42,0.26,17,2,23,0.83,8907,24,92,44,35,1110,473.0,633,463,60,123.0,134,1,308,194,64,0,0,462,3571,16648,473,-5.59,,,,,,,,,,,,
259243,1564151606662,3,2.48,0.94,0.33,1.4,1.07,0.68,-0.33,0.31,18,1,24,0.75,8890,24,91,44,35,1118,473.0,630,466,60,124.0,134,1,308,194,64,0,0,456,-3267,3580,473,-5.59,44.681202,10.025108,46.86,173.0,0,0.0,-1,0.0,0.0,0,1.64,4.3207
259263,1564151606682,3,2.47,0.93,0.33,1.4,1.08,0.77,-0.23,0.42,18,1,24,0.8,8852,24,92,44,35,1121,471.0,625,461,60,124.0,138,1,308,194,65,0,0,461,8488,8488,471,-5.59,,,,,,,,,,,,
259283,1564151606702,1,2.48,0.94,0.34,1.4,1.07,0.89,-0.15,0.54,18,0,24,0.91,8827,24,92,44,35,1125,471.0,620,465,60,124.0,138,1,308,194,65,0,0,456,16648,32033,471,-5.59,,,,,,,,,,,,
259303,1564151606722,0,2.48,0.94,0.34,1.39,1.08,1.01,-0.15,0.61,17,1,24,1.02,8823,25,92,44,35,1126,472.0,620,465,60,124.0,138,1,308,194,65,0,0,460,10305,-17956,470,-5.59,,,,,,,,,,,,
259323,1564151606742,1,2.47,0.94,0.34,1.4,1.08,1.11,-0.26,0.61,17,0,24,1.14,8802,25,92,44,35,1125,471.0,627,468,60,124.0,138,1,308,197,65,0,0,460,2131,3580,471,-5.59,,,,,,,,,,,,
259343,1564151606762,-1,2.48,0.94,0.33,1.39,1.07,1.11,-0.37,0.59,17,0,23,1.17,8806,25,91,44,36,1122,472.0,622,465,60,125.0,138,1,311,197,65,0,0,456,16648,-17956,469,-5.59,44.68119,10.025109,46.54,173.0,0,0.0,-1,0.0,0.0,0,1.65,4.3224
259363,1564151606782,0,2.48,0.94,0.33,1.39,1.08,1.01,-0.5,0.49,17,1,23,1.13,8794,25,91,44,36,1120,468.0,634,462,60,123.0,140,1,311,197,66,0,0,457,10305,32033,468,-5.59,,,,,,,,,,,,
259383,1564151606802,-1,2.48,0.93,0.34,1.4,1.07,0.85,-0.55,0.39,17,3,23,1.02,8831,25,91,44,36,1118,470.0,631,466,60,124.0,140,1,311,197,66,0,0,457,16648,8488,470,-5.59,,,,,,,,,,,,
259403,1564151606822,0,2.47,0.94,0.33,1.4,1.08,0.69,-0.54,0.29,17,4,24,0.88,8815,25,91,44,36,1119,468.0,640,464,60,124.0,140,1,311,197,66,0,0,454,21432,32033,468,-5.59,,,,,,,,,,,,
259423,1564151606842,3,2.47,0.94,0.33,1.4,1.08,0.67,-0.48,0.27,18,4,24,0.82,8811,25,91,44,36,1121,467.0,631,468,60,125.0,140,1,311,197,66,0,0,456,16648,-17956,467,-5.59,,,,,,,,,,,,
259443,1564151606862,4,2.48,0.94,0.33,1.4,1.08,0.69,-0.36,0.36,18,3,23,0.78,8790,25,91,44,36,1126,465.0,631,467,60,123.0,140,1,311,197,66,0,0,458,21432,32033,465,-5.59,44.681179,10.025111,46.07,173.1,0,0.0,-1,0.0,0.0,0,1.65,4.324
259463,1564151606882,1,2.48,0.94,0.33,1.39,1.08,0.82,-0.33,0.47,18,2,23,0.89,8831,25,91,44,36,1129,464.0,633,465,60,124.0,139,1,311,197,65,0,0,452,23400,3580,464,-5.59,,,,,,,,,,,,
259483,1564151606902,1,2.47,0.93,0.33,1.4,1.08,0.92,-0.34,0.58,17,1,22,0.98,8823,25,91,44,36,1133,467.0,621,463,60,124.0,139,1,311,197,65,0,0,453,-18341,16648,467,-5.59,,,,,,,,,,,,
259503,1564151606922,1,2.47,0.94,0.33,1.4,1.08,1.01,-0.41,0.58,17,0,23,1.09,8840,25,91,44,36,1136,464.0,622,467,60,124.0,139,1,311,197,65,0,0,449,-18341,3576,462,-5.59,,,,,,,,,,,,
259523,1564151606942,1,2.48,0.94,0.33,1.39,1.08,0.99,-0.52,0.59,16,0,22,1.12,8856,25,91,44,36,1136,464.0,623,468,60,123.0,139,1,311,197,65,0,0,452,21432,-1923,464,-5.59,,,,,,,,,,,,
259543,1564151606962,-1,2.48,0.94,0.33,1.39,1.08,0.84,-0.6,0.5,17,1,23,1.04,8819,25,91,44,36,1135,463.0,625,467,60,123.0,139,1,311,197,65,0,0,451,23400,-1923,465,-5.59,44.681168,10.025111,45.78,173.1,0,0.0,-1,0.0,0.0,0,1.65,4.3257
259563,1564151606982,-0,2.48,0.93,0.33,1.4,1.08,0.77,-0.62,0.44,17,1,22,0.99,8827,25,91,44,36,1132,463.0,628,463,60,122.0,140,1,311,197,65,0,0,453,20625,32033,463,-5.59,,,,,,,,,,,,
259583,1564151606994,3,2.48,0.94,0.33,1.4,1.07,0.65,-0.52,0.45,18,1,23,0.83,8831,25,91,44,36,1129,463.0,621,465,60,123.0,140,1,311,200,65,0,0,456,20625,3576,464,-5.59,,,,,,,,,,,,
259603,1564151607014,3,2.48,0.93,0.33,1.39,1.08,0.74,-0.38,0.51,18,0,23,0.83,8836,25,91,44,37,1128,463.0,625,462,60,122.0,140,1,314,200,65,0,0,454,-28332,-17956,463,-5.59,,,,,,,,,,,,
259623,1564151607034,2,2.47,0.94,0.33,1.39,1.08,0.85,-0.35,0.64,17,-1,22,0.91,8786,25,91,44,37,1127,462.0,624,462,60,122.0,140,1,314,200,65,0,0,455,-28332,8488,462,-5.59,,,,,,,,,,,,
259643,1564151607054,2,2.47,0.94,0.33,1.4,1.07,0.96,-0.38,0.71,17,-2,22,1.03,8761,25,91,44,37,1132,462.0,634,467,60,123.0,140,1,314,200,65,0,0,456,26704,3576,460,-5.59,44.681156,10.02511,45.42,173.2,0,0.0,-1,0.0,0.0,0,1.65,4.3274
259663,1564151607074,2,2.48,0.93,0.33,1.39,1.08,0.99,-0.5,0.73,16,-1,21,1.11,8712,25,91,44,37,1134,461.0,630,467,60,123.0,142,1,314,200,66,0,0,457,26704,-1923,461,-5.59,,,,,,,,,,,,
259683,1564151607103,-1,2.48,0.94,0.33,1.4,1.07,0.84,-0.5,0.6,16,0,21,0.98,8668,25,91,44,37,1133,463.0,645,463,60,121.0,142,1,314,200,66,0,0,455,20625,-16384,462,-5.59,,,,,,,,,,,,
259703,1564151607123,4,2.48,0.93,0.33,1.4,1.08,0.75,-0.5,0.44,16,2,22,0.9,8612,25,91,44,37,1130,461.0,630,463,60,122.0,142,1,314,200,66,0,0,460,23400,3576,461,-5.59,,,,,,,,,,,,
259723,1564151607143,2,2.48,0.93,0.34,1.4,1.08,0.88,-0.49,0.54,16,-0,22,1.01,8624,25,91,44,37,1127,460.0,615,466,60,124.0,142,1,314,200,66,0,0,451,-28332,3576,464,-5.59,,,,,,,,,,,,
259743,1564151607163,-0,2.48,0.94,0.33,1.4,1.08,0.85,-0.49,0.65,17,1,20,0.98,8616,25,91,44,37,1120,463.0,612,468,60,123.0,142,1,314,204,66,0,0,455,26704,10305,463,-5.59,44.681145,10.025109,45.23,173.2,0,0.0,-1,0.0,0.0,0,1.65,4.3291
259763,1564151607183,-1,2.48,0.94,0.33,1.39,1.08,0.75,-0.53,0.61,17,2,21,0.92,8620,25,91,44,38,1115,461.0,622,466,60,121.0,142,1,317,204,66,0,0,451,-18341,2212,461,-5.59,,,,,,,,,,,,
259783,1564151607201,1,2.48,0.94,0.34,1.39,1.08,0.77,-0.47,0.5,17,1,21,0.9,8632,25,91,44,38,1106,462.0,616,463,60,122.0,142,1,317,204,66,0,0,450,-18341,10432,462,-5.59,,,,,,,,,,,,
259803,1564151607221,2,2.47,0.94,0.33,1.4,1.08,0.88,-0.45,0.6,17,-1,21,0.99,8596,25,91,44,38,1104,461.0,614,467,60,123.0,142,1,317,204,66,0,0,454,20625,243,461,-5.59,,,,,,,,,,,,
259823,1564151607241,1,2.48,0.94,0.33,1.4,1.08,0.9,-0.49,0.64,16,-0,21,1.02,8624,25,91,44,38,1102,462.0,621,465,60,124.0,142,1,317,204,66,0,0,452,21580,32033,460,-5.59,,,,,,,,,,,,
259843,1564151607261,1,2.47,0.94,0.33,1.4,1.08,0.84,-0.56,0.59,16,0,21,1.01,8652,25,91,44,38,1094,461.0,625,467,60,123.0,142,1,317,204,66,0,0,453,-28332,-1923,461,-5.59,44.681133,10.025107,45.08,173.2,0,0.0,-1,0.0,0.0,0,1.65,4.3307
259863,1564151607281,3,2.47,0.94,0.33,1.39,1.08,0.76,-0.5,0.51,16,-0,21,0.91,8688,25,91,44,38,1081,460.0,637,458,60,122.0,145,1,317,204,67,0,0,455,21580,-1923,460,-5.59,,,,,,,,,,,,
259883,1564151607301,2,2.46,0.94,0.33,1.4,1.08,0.8,-0.38,0.56,16,1,22,0.89,8672,25,91,44,38,1072,461.0,628,466,60,123.0,145,1,317,204,67,0,0,462,20625,-16384,461,-5.59,,,,,,,,,,,,
259903,1564151607321,2,2.47,0.94,0.34,1.4,1.08,0.9,-0.37,0.66,16,-1,22,0.97,8696,25,91,44,38,1065,461.0,621,464,60,123.0,145,1,317,204,67,0,0,457,20625,32033,460,-5.59,,,,,,,,,,,,
259923,1564151607341,1,2.47,0.94,0.33,1.4,1.08,0.89,-0.44,0.69,16,-0,21,0.99,8676,25,91,44,38,1049,462.0,625,468,60,124.0,145,1,317,204,67,0,0,455,20625,10432,462,-5.59,,,,,,,,,,,,
259943,1564151607361,-0,2.47,0.93,0.33,1.39,1.08,0.74,-0.47,0.62,16,2,21,0.88,8664,25,91,44,38,1039,460.0,620,463,60,122.0,145,1,317,204,67,0,0,457,26704,-9203,460,-5.59,44.681122,10.025105,45.26,173.2,0,0.0,-1,0.0,0.0,0,1.65,4.3324
259963,1564151607381,3,2.47,0.94,0.33,1.39,1.08,0.77,-0.43,0.54,16,1,22,0.88,8676,25,91,44,38,1029,460.0,621,463,60,122.0,143,1,317,204,66,0,0,462,-28332,32033,460,-5.59,,,,,,,,,,,,
259983,1564151607401,1,2.48,0.93,0.33,1.39,1.08,0.87,-0.39,0.64,16,-1,21,0.95,8628,25,91,44,38,1025,461.0,617,468,60,123.0,143,1,317,204,66,0,0,454,-28332,-1923,461,-5.59,,,,,,,,,,,,
260003,1564151607421,1,2.47,0.94,0.33,1.39,1.07,0.88,-0.42,0.65,16,-1,21,0.98,8648,25,91,44,38,1019,462.0,621,463,60,123.0,143,1,317,204,66,0,0,453,-28332,3576,462,-5.59,,,,,,,,,,,,
260023,1564151607441,-1,2.47,0.93,0.33,1.4,1.07,0.8,-0.51,0.62,16,0,20,0.95,8636,25,91,44,38,1012,461.0,627,465,60,122.0,143,1,317,204,66,0,0,454,-28332,32033,461,-5.59,,,,,,,,,,,,
260043,1564151607461,3,2.47,0.93,0.33,1.4,1.07,0.76,-0.47,0.53,16,1,20,0.9,8648,25,91,44,38,1006,460.0,626,466,60,123.0,143,1,317,200,66,0,0,455,20625,3576,460,-5.59,44.68111,10.025101,45.07,173.2,0,0.0,-1,0.0,0.0,0,1.66,4.3341
260063,1564151607481,3,2.47,0.93,0.33,1.4,1.08,0.81,-0.39,0.57,16,1,21,0.9,8660,25,91,44,38,1003,460.0,617,470,60,123.0,145,1,317,204,67,0,0,453,20625,8488,460,-5.59,,,,,,,,,,,,
260083,1564151607501,1,2.47,0.93,0.33,1.4,1.08,0.88,-0.4,0.63,16,0,21,0.97,8640,25,91,44,38,1000,460.0,622,465,60,123.0,145,1,317,204,67,0,0,454,20625,10432,462,-5.59,,,,,,,,,,,,
260103,1564151607521,-0,2.47,0.94,0.33,1.4,1.08,0.82,-0.48,0.61,16,1,20,0.95,8648,25,91,44,38,996,460.0,626,467,60,124.0,145,1,317,204,67,0,0,458,26704,3576,460,-5.59,,,,,,,,,,,,
260123,1564151607541,3,2.47,0.93,0.33,1.39,1.08,0.68,-0.46,0.51,16,3,20,0.82,8656,25,91,44,38,994,461.0,620,465,60,121.0,145,1,317,204,67,0,0,458,20625,-9203,461,-5.59,,,,,,,,,,,,
260143,1564151607561,1,2.48,0.94,0.33,1.4,1.08,0.82,-0.42,0.56,16,1,20,0.92,8648,25,91,44,38,994,461.0,622,460,60,123.0,145,1,317,204,67,0,0,454,21580,-17956,461,-5.59,44.681103,10.025097,45.32,173.3,0,0.0,-1,0.0,0.0,0,1.66,4.3357
260163,1564151607581,0,2.47,0.93,0.34,1.4,1.08,0.91,-0.46,0.7,15,-0,20,1.02,8604,25,91,44,38,995,459.0,622,464,60,123.0,143,1,317,204,66,0,0,451,-28332,-16384,459,-5.59,,,,,,,,,,,,
260183,1564151607601,1,2.47,0.94,0.33,1.4,1.08,0.82,-0.5,0.65,15,0,19,0.96,8612,25,91,44,38,998,461.0,627,463,60,122.0,143,1,317,204,66,0,0,452,-28332,10432,461,-5.59,,,,,,,,,,,,
260203,1564151607621,3,2.47,0.94,0.33,1.39,1.08,0.71,-0.53,0.51,16,2,20,0.89,8620,24,91,44,38,1002,461.0,621,463,60,123.0,143,1,317,204,66,0,0,455,26704,10432,461,-5.59,,,,,,,,,,,,
260223,1564151607641,2,2.46,0.94,0.33,1.4,1.08,0.8,-0.49,0.53,16,1,20,0.94,8660,24,91,44,38,1005,461.0,617,467,60,123.0,143,1,317,204,66,0,0,454,26704,-1923,461,-5.59,,,,,,,,,,,,
260243,1564151607661,2,2.48,0.93,0.33,1.4,1.08,0.84,-0.44,0.67,16,2,19,0.95,8660,24,91,44,37,1010,462.0,618,468,60,124.0,143,1,314,200,66,0,0,453,26704,8488,462,-5.59,44.681088,10.025092,45.35,173.3,0,0.0,-1,0.0,0.0,0,1.66,4.3374
260263,1564151607681,1,2.47,0.94,0.33,1.4,1.08,0.83,-0.49,0.7,16,2,20,0.97,8672,24,91,44,38,1013,462.0,622,465,60,123.0,143,1,317,204,66,0,0,453,-28332,8488,460,-5.59,,,,,,,,,,,,
260283,1564151607701,-1,2.48,0.94,0.33,1.4,1.07,0.74,-0.55,0.58,16,2,19,0.92,8672,24,91,44,38,1016,460.0,625,463,60,123.0,143,1,317,204,66,0,0,455,21580,243,460,-5.59,,,,,,,,,,,,
260303,1564151607721,4,2.47,0.94,0.33,1.4,1.08,0.73,-0.49,0.61,16,2,20,0.88,8636,23,91,44,37,1017,460.0,616,467,60,123.0,143,1,314,200,66,0,0,452,20625,-1923,460,-5.59,,,,,,,,,,,,
260323,1564151607741,0,2.47,0.94,0.33,1.39,1.08,0.83,-0.46,0.67,16,1,20,0.95,8600,23,91,44,37,1017,459.0,616,463,60,123.0,143,1,314,200,66,0,0,453,20625,30272,459,-5.59,,,,,,,,,,,,
260343,1564151607761,-1,2.48,0.94,0.33,1.4,1.07,0.86,-0.52,0.72,16,1,19,1.01,8604,23,91,44,38,1017,459.0,628,465,60,123.0,143,1,317,204,66,0,0,453,-28332,-1923,459,-5.59,44.68108,10.025086,45.05,173.3,0,0.0,-1,0.0,0.0,0,1.66,4.339
260363,1564151607781,0,2.47,0.93,0.33,1.39,1.08,0.74,-0.52,0.58,16,1,20,0.9,8593,23,90,44,38,1017,462.0,630,462,60,123.0,143,1,317,204,66,0,0,457,20625,-1923,462,-5.59,,,,,,,,,,,,
260383,1564151607801,4,2.47,0.94,0.33,1.41,1.08,0.76,-0.45,0.58,16,2,20,0.88,8612,23,91,44,38,1016,461.0,628,467,60,122.0,143,1,317,200,66,0,0,454,-28332,8488,461,-5.59,,,,,,,,,,,,
260403,1564151607821,1,2.46,0.94,0.33,1.4,1.08,0.88,-0.42,0.67,16,1,19,0.97,8644,23,91,44,37,1016,460.0,622,465,60,123.0,143,1,314,200,66,0,0,454,19477,32033,460,-5.59,,,,,,,,,,,,
260423,1564151607841,-0,2.47,0.93,0.33,1.4,1.07,0.87,-0.53,0.69,16,2,18,1.02,8648,23,91,44,37,1013,460.0,617,467,60,123.0,143,1,314,200,66,0,0,451,19477,8488,460,-5.59,,,,,,,,,,,,
260443,1564151607861,0,2.46,0.94,0.33,1.4,1.08,0.72,-0.55,0.6,16,3,19,0.91,8652,23,91,44,37,1012,460.0,613,466,60,122.0,143,1,314,200,66,0,0,455,-28332,32033,459,-5.59,44.681068,10.025081,45.48,173.3,0,0.0,-1,0.0,0.0,0,1.66,4.3407
260463,1564151607881,2,2.46,0.94,0.33,1.4,1.08,0.74,-0.48,0.56,16,1,19,0.88,8668,23,91,44,37,1010,460.0,615,463,60,123.0,141,1,314,200,65,0,0,450,20625,-16384,460,-5.59,,,,,,,,,,,,
260483,1564151607903,2,2.46,0.94,0.34,1.39,1.08,0.85,-0.48,0.7,16,-0,19,0.97,8616,23,91,44,37,1009,459.0,611,466,60,123.0,141,1,314,200,65,0,0,453,20625,10432,460,-5.59,,,,,,,,,,,,
260503,1564151607923,1,2.45,0.93,0.33,1.39,1.07,0.81,-0.49,0.71,16,2,19,0.95,8616,22,90,44,37,1009,461.0,623,462,60,124.0,141,1,314,200,65,0,0,453,21580,-23367,461,-5.59,,,,,,,,,,,,
260523,1564151607943,-0,2.47,0.94,0.33,1.4,1.08,0.74,-0.54,0.6,16,2,19,0.91,8604,22,90,44,37,1009,462.0,625,467,60,124.0,141,1,314,200,65,0,0,453,-28332,8488,461,-5.59,,,,,,,,,,,,
260543,1564151607963,4,2.45,0.94,0.33,1.4,1.08,0.78,-0.48,0.58,16,1,19,0.92,8632,22,91,44,37,1010,459.0,623,467,60,123.0,141,1,314,200,65,0,0,454,21580,8488,459,-5.59,44.681061,10.025074,45.32,173.3,0,0.0,-1,0.0,0.0,0,1.66,4.3424
260563,1564151607983,2,2.46,0.93,0.33,1.4,1.08,0.82,-0.44,0.66,15,1,19,0.93,8636,22,91,44,37,1011,459.0,627,466,60,123.0,139,1,314,200,64,0,0,453,-28332,8488,459,-5.59,,,,,,,,,,,,
260583,1564151607995,1,2.46,0.94,0.33,1.4,1.08,0.79,-0.49,0.63,15,2,19,0.93,8624,22,91,44,37,1011,457.0,626,463,60,122.0,139,1,314,200,64,0,0,451,-28332,-3210,457,-5.59,,,,,,,,,,,,
260603,1564151608015,0,2.46,0.93,0.32,1.39,1.08,0.69,-0.52,0.49,15,1,19,0.87,8620,22,90,44,37,1011,459.0,635,463,60,122.0,139,1,314,200,64,0,0,455,-28332,8488,459,-5.59,,,,,,,,,,,,
260623,1564151608035,4,2.45,0.94,0.33,1.4,1.08,0.72,-0.46,0.54,16,1,20,0.85,8620,21,91,44,36,1011,459.0,612,467,60,123.0,139,1,311,197,64,0,0,453,-28332,-17956,459,-5.59,,,,,,,,,,,,
260643,1564151608055,2,2.46,0.93,0.33,1.4,1.07,0.84,-0.45,0.63,15,1,19,0.95,8593,20,90,44,36,1010,461.0,623,463,60,123.0,139,1,311,197,64,0,0,448,20625,32033,461,-5.59,44.681046,10.025066,45.37,173.3,0,0.0,-1,0.0,0.0,0,1.66,4.344
260663,1564151608075,0,2.46,0.94,0.33,1.4,1.07,0.83,-0.54,0.68,15,1,19,0.99,8589,17,91,44,35,1007,460.0,624,462,60,122.0,139,1,308,194,64,0,0,452,-28332,8488,459,-5.59,,,,,,,,,,,,
260683,1564151608100,1,2.46,0.94,0.33,1.4,1.07,0.73,-0.51,0.54,15,1,19,0.89,8573,15,90,44,34,1003,460.0,617,463,60,122.0,139,1,305,191,64,0,0,455,19477,32033,460,-5.59,,,,,,,,,,,,
260703,1564151608120,3,2.46,0.94,0.32,1.4,1.08,0.8,-0.41,0.53,16,0,20,0.89,8581,14,90,44,33,998,459.0,614,466,60,123.0,139,1,302,187,64,0,0,450,21580,243,459,-5.59,,,,,,,,,,,,
260723,1564151608140,0,2.45,0.94,0.33,1.39,1.07,0.82,-0.46,0.58,15,-0,20,0.94,8542,13,90,44,32,996,457.0,615,463,60,123.0,139,1,300,184,64,0,0,451,20625,-16384,457,-5.59,,,,,,,,,,,,
260743,1564151608160,3,2.46,0.93,0.33,1.4,1.08,0.71,-0.48,0.44,15,-0,20,0.86,8480,13,90,44,31,987,459.0,612,465,60,123.0,139,1,294,182,64,0,0,451,21580,243,459,-5.59,44.681038,10.025059,45.21,173.3,0,0.0,-1,0.0,0.0,0,1.66,4.3457
260763,1564151608180,1,2.45,0.94,0.33,1.39,1.08,0.8,-0.46,0.47,15,-1,20,0.93,8404,12,90,44,30,974,459.0,608,466,60,122.0,124,1,290,178,57,0,0,450,20625,-1923,459,-5.59,,,,,,,,,,,,
260783,1564151608202,-0,2.45,0.94,0.33,1.4,1.08,0.68,-0.46,0.47,15,2,19,0.82,8311,12,90,44,30,966,457.0,615,463,60,124.0,124,1,288,175,57,0,0,452,-28332,243,457,-5.59,,,,,,,,,,,,
260803,1564151608222,2,2.46,0.93,0.33,1.39,1.08,0.77,-0.44,0.42,15,1,20,0.89,8296,11,90,44,30,960,458.0,610,466,60,122.0,124,1,287,174,57,0,0,449,21580,-16384,458,-5.59,,,,,,,,,,,,
260823,1564151608242,-0,2.45,0.94,0.33,1.4,1.08,0.75,-0.46,0.45,15,1,20,0.89,8209,11,90,44,29,946,458.0,604,463,60,123.0,124,1,283,170,57,0,0,446,5600,30272,458,-5.59,,,,,,,,,,,,
260843,1564151608262,-0,2.46,0.94,0.33,1.39,1.08,0.88,-0.42,0.45,14,-1,20,0.98,8106,11,90,44,29,937,457.0,600,465,60,123.0,124,1,282,165,57,0,0,447,5600,6193,457,-5.59,44.681026,10.02505,45.03,173.3,0,0.0,-1,0.0,0.0,0,1.67,4.3474
260863,1564151608282,3,2.46,0.94,0.33,1.4,1.08,0.77,-0.43,0.44,14,0,20,0.88,8023,11,90,44,29,926,457.0,600,465,60,122.0,109,1,281,161,50,0,0,445,5600,16408,457,-5.59,,,,,,,,,,,,
260883,1564151608302,-0,2.45,0.94,0.34,1.39,1.08,0.87,-0.5,0.49,14,-0,21,1.0,7971,11,90,44,29,921,455.0,585,465,60,124.0,109,1,281,160,50,0,0,446,21580,-3210,455,-5.59,,,,,,,,,,,,
260903,1564151608322,-0,2.46,0.93,0.33,1.39,1.08,0.96,-0.47,0.45,14,-1,20,1.07,7868,11,90,44,29,907,456.0,581,466,60,123.0,109,1,280,160,50,0,0,445,5600,2211,456,-5.59,,,,,,,,,,,,
260923,1564151608342,2,2.45,0.94,0.33,1.4,1.08,0.94,-0.46,0.4,13,-1,19,1.05,7924,11,90,44,30,897,455.0,584,464,60,123.0,109,1,284,160,50,0,0,434,243,-6387,455,-5.59,,,,,,,,,,,,
260943,1564151608362,-2,2.46,0.93,0.33,1.4,1.07,0.94,-0.46,0.36,13,-2,19,1.05,8061,11,90,44,29,885,449.0,581,466,60,123.0,109,1,282,163,50,0,0,429,3635,-18341,449,-5.59,44.681019,10.02504,44.81,173.3,0,0.0,-1,0.0,0.0,0,1.67,4.3491
260963,1564151608382,1,2.45,0.94,0.33,1.4,1.07,1.05,-0.42,0.28,13,-4,20,1.13,8162,11,90,44,29,875,445.0,584,466,60,123.0,111,1,283,168,50,0,0,427,31796,20625,445,-5.59,,,,,,,,,,,,
260983,1564151608402,-0,2.45,0.94,0.33,1.4,1.07,0.94,-0.46,0.3,13,-3,19,1.05,8285,11,90,44,28,867,443.0,603,466,60,123.0,111,1,280,173,50,0,0,424,-3856,-18341,442,-5.59,,,,,,,,,,,,
261003,1564151608422,1,2.46,0.93,0.33,1.39,1.08,0.99,-0.5,0.27,12,-3,19,1.11,8359,11,90,44,28,861,442.0,603,464,60,122.0,111,1,281,176,50,0,0,431,-4082,16648,442,-5.59,,,,,,,,,,,,
261023,1564151608442,-0,2.45,0.94,0.33,1.39,1.08,0.93,-0.54,0.39,13,-1,19,1.07,8344,11,90,44,28,855,441.0,608,468,60,123.0,111,1,281,175,50,0,0,433,-4082,10305,442,-5.59,,,,,,,,,,,,
261043,1564151608462,2,2.45,0.94,0.33,1.4,1.07,0.92,-0.48,0.41,13,-1,18,1.04,8256,11,90,44,27,855,441.0,607,467,60,124.0,111,1,277,171,50,0,0,429,3826,3571,441,-5.59,44.681011,10.02503,44.79,173.3,0,0.0,-1,0.0,0.0,0,1.67,4.3507
261063,1564151608482,-2,2.46,0.93,0.33,1.39,1.08,0.9,-0.47,0.42,14,-0,18,1.02,8198,10,90,44,27,855,440.0,606,463,60,123.0,120,1,276,168,53,0,0,429,-3414,15649,440,-5.59,,,,,,,,,,,,
261083,1564151608502,2,2.45,0.94,0.33,1.4,1.08,0.96,-0.42,0.42,14,-1,19,1.05,8155,10,90,44,28,855,439.0,600,465,60,123.0,120,1,279,166,53,0,0,430,-21944,8488,438,-5.59,,,,,,,,,,,,
261103,1564151608522,-0,2.45,0.93,0.33,1.39,1.08,0.93,-0.4,0.46,13,0,19,1.02,8109,10,90,44,27,854,436.0,596,463,60,123.0,120,1,276,164,53,0,0,428,-21944,16648,436,-5.59,,,,,,,,,,,,
261123,1564151608542,1,2.46,0.93,0.33,1.39,1.08,1.04,-0.38,0.48,13,-0,19,1.11,8016,10,90,44,27,853,436.0,591,466,60,123.0,120,1,275,159,53,0,0,423,-21944,2131,436,-5.59,,,,,,,,,,,,
261143,1564151608562,1,2.45,0.94,0.33,1.4,1.07,1.02,-0.38,0.45,13,-0,19,1.09,7985,10,90,44,28,853,433.0,595,464,60,122.0,120,1,278,159,53,0,0,423,18584,-18341,433,-5.59,44.681004,10.02502,43.73,173.3,0,0.0,-1,0.0,0.0,0,1.67,4.3524
261163,1564151608582,-0,2.45,0.94,0.33,1.4,1.07,0.98,-0.44,0.48,12,-0,18,1.08,7995,10,90,44,28,853,433.0,582,465,60,123.0,110,1,278,159,48,0,0,422,18584,-28332,433,-5.59,,,,,,,,,,,,
261183,1564151608602,-0,2.45,0.94,0.33,1.39,1.08,1.08,-0.46,0.54,12,-1,18,1.18,7965,10,90,44,28,854,433.0,585,463,60,123.0,110,1,278,159,48,0,0,420,2524,21580,430,-5.59,,,,,,,,,,,,
261203,1564151608622,1,2.45,0.93,0.33,1.4,1.08,1.06,-0.45,0.54,12,-2,17,1.16,7975,10,90,44,28,854,430.0,581,466,60,124.0,110,1,278,159,48,0,0,419,-9166,5600,429,-5.59,,,,,,,,,,,,
261223,1564151608642,3,2.45,0.93,0.33,1.39,1.08,1.0,-0.45,0.51,12,-0,18,1.1,7988,10,90,44,28,855,428.0,582,466,60,123.0,110,1,278,159,48,0,0,419,9517,13180,428,-5.59,,,,,,,,,,,,
261243,1564151608662,1,2.44,0.93,0.32,1.39,1.07,1.05,-0.41,0.5,12,-1,18,1.13,7934,10,90,44,28,857,427.0,580,465,60,123.0,110,1,278,159,48,0,0,419,10392,13180,427,-5.59,44.680992,10.02501,42.62,173.3,0,0.0,-1,0.0,0.0,0,1.67,4.3541
261263,1564151608682,1,2.44,0.94,0.33,1.4,1.08,1.08,-0.37,0.52,12,-3,17,1.14,7958,10,90,44,28,858,425.0,590,465,60,123.0,112,1,278,159,48,0,0,412,10392,1779,423,-5.59,,,,,,,,,,,,
261283,1564151608702,2,2.45,0.94,0.33,1.4,1.07,1.0,-0.36,0.47,12,-1,18,1.06,7918,10,90,44,29,859,423.0,587,468,60,123.0,112,1,281,160,48,0,0,414,10392,243,423,-5.59,,,,,,,,,,,,
261303,1564151608722,-1,2.44,0.93,0.33,1.4,1.08,0.98,-0.38,0.47,11,0,18,1.05,7832,10,90,44,29,860,423.0,608,463,60,123.0,112,1,280,160,48,0,0,415,2524,-7939,423,-5.59,,,,,,,,,,,,
261323,1564151608742,1,2.44,0.94,0.33,1.4,1.08,1.05,-0.37,0.5,11,-1,16,1.11,7845,10,90,44,29,864,422.0,582,465,60,124.0,112,1,280,160,48,0,0,413,-9211,3635,422,-5.59,,,,,,,,,,,,
261343,1564151608762,-0,2.45,0.93,0.33,1.39,1.07,1.1,-0.34,0.52,11,-1,17,1.15,7786,10,90,44,29,866,420.0,575,466,60,123.0,112,1,280,160,48,0,0,408,10541,3635,419,-5.59,44.680984,10.024999,42.58,173.3,0,0.0,-1,0.0,0.0,0,1.67,4.3557
261363,1564151608782,2,2.44,0.94,0.33,1.39,1.08,1.07,-0.33,0.53,12,-0,17,1.12,7767,10,90,44,29,868,420.0,587,464,60,122.0,112,1,280,160,47,0,0,412,-8151,-3856,420,-5.59,,,,,,,,,,,,
261383,1564151608802,1,2.44,0.93,0.33,1.39,1.08,0.94,-0.33,0.54,12,-0,14,0.99,7786,10,90,44,30,870,417.0,571,467,60,122.0,112,1,283,162,47,0,0,410,6512,-3414,417,-5.59,,,,,,,,,,,,
261403,1564151608822,1,2.43,0.93,0.33,1.39,1.08,0.89,-0.37,0.49,12,-0,15,0.97,7725,10,90,44,29,871,416.0,572,466,60,123.0,112,1,280,160,47,0,0,410,28696,-21792,416,-5.59,,,,,,,,,,,,
261423,1564151608842,-0,2.44,0.93,0.33,1.39,1.08,0.94,-0.39,0.48,12,-1,17,1.02,7738,10,90,44,30,871,414.0,570,466,60,124.0,112,1,283,162,47,0,0,407,6384,-3414,414,-5.59,,,,,,,,,,,,
261443,1564151608862,0,2.43,0.94,0.33,1.4,1.07,1.03,-0.39,0.52,11,-1,16,1.11,7687,10,90,44,30,870,413.0,558,465,60,123.0,112,1,283,162,47,0,0,405,28696,-8165,414,-5.59,44.680981,10.024987,41.35,173.2,0,0.0,-1,0.0,0.0,0,1.67,4.3574
261463,1564151608882,1,2.44,0.93,0.33,1.4,1.07,1.13,-0.37,0.52,11,-2,15,1.19,7697,10,90,44,30,868,412.0,565,463,60,123.0,114,1,283,162,47,0,0,407,-3968,7154,412,-5.59,,,,,,,,,,,,
261483,1564151608902,1,2.43,0.93,0.33,1.39,1.08,1.15,-0.34,0.52,11,-2,16,1.2,7678,10,90,44,30,865,411.0,560,468,60,123.0,114,1,283,162,47,0,0,403,17144,7154,411,-5.59,,,,,,,,,,,,
261503,1564151608922,0,2.44,0.93,0.33,1.4,1.08,1.08,-0.3,0.52,11,-2,16,1.12,7662,10,90,44,30,862,410.0,567,466,60,123.0,114,1,283,162,47,0,0,405,17144,9517,410,-5.59,,,,,,,,,,,,
261523,1564151608942,2,2.43,0.93,0.33,1.4,1.07,0.97,-0.27,0.47,12,-2,13,1.0,7634,10,90,44,30,860,409.0,566,466,60,122.0,114,1,283,162,47,0,0,402,1,13040,409,-5.59,,,,,,,,,,,,
261543,1564151608962,1,2.44,0.94,0.33,1.4,1.07,0.88,-0.27,0.43,12,-1,14,0.92,7575,10,90,44,30,858,407.0,567,464,60,122.0,114,1,282,163,47,0,0,399,1,-21944,408,-5.59,44.680973,10.024976,41.18,173.2,0,0.0,-1,0.0,0.0,0,1.67,4.359
261563,1564151608982,2,2.44,0.93,0.33,1.39,1.07,0.81,-0.27,0.35,11,0,15,0.85,7575,10,90,44,31,858,407.0,562,466,60,122.0,113,1,286,163,46,0,0,396,1,13040,405,-5.59,,,,,,,,,,,,
261583,1564151608994,3,2.43,0.94,0.33,1.4,1.07,0.68,-0.26,0.29,12,3,14,0.73,7539,10,90,44,31,857,405.0,571,465,60,123.0,113,1,286,163,46,0,0,401,505,2524,405,-5.59,,,,,,,,,,,,
261603,1564151609014,4,2.43,0.94,0.33,1.39,1.07,0.62,-0.27,0.3,12,4,13,0.68,7554,10,90,44,31,857,405.0,563,465,60,123.0,113,1,286,163,46,0,0,400,-1562,13040,405,-5.59,,,,,,,,,,,,
261623,1564151609034,2,2.44,0.93,0.33,1.4,1.07,0.57,-0.33,0.25,12,4,14,0.66,7521,10,90,44,31,858,404.0,561,464,60,124.0,113,1,286,163,46,0,0,396,-6524,11560,404,-5.59,,,,,,,,,,,,
261643,1564151609054,3,2.43,0.94,0.33,1.4,1.07,0.58,-0.31,0.24,12,4,15,0.66,7536,10,90,44,31,862,401.0,553,463,60,124.0,113,1,286,163,46,0,0,392,-31744,2524,401,-5.59,44.680965,10.024965,40.38,173.2,0,0.0,-1,0.0,0.0,0,1.67,4.3607
261663,1564151609074,3,2.43,0.94,0.33,1.4,1.07,0.56,-0.29,0.22,11,5,14,0.63,7488,10,90,44,31,865,400.0,563,465,60,124.0,114,1,286,88,46,0,0,394,-3866,-8151,400,-5.59,,,,,,,,,,,,
261683,1564151609101,2,2.43,0.94,0.33,1.4,1.07,0.53,-0.3,0.23,12,6,13,0.61,7485,10,90,44,31,870,400.0,552,465,60,124.0,114,1,286,163,46,0,0,394,-19019,11560,400,-5.59,,,,,,,,,,,,
261703,1564151609121,2,2.44,0.93,0.33,1.4,1.08,0.48,-0.32,0.15,12,7,15,0.58,7431,10,90,44,31,872,398.0,559,464,60,123.0,114,1,286,163,46,0,0,391,-19126,1504,398,-5.59,,,,,,,,,,,,
261723,1564151609141,4,2.43,0.93,0.33,1.4,1.08,0.47,-0.36,0.15,11,7,16,0.59,7434,10,90,44,31,879,397.0,550,466,60,123.0,114,1,286,165,46,0,0,390,-19019,-26615,397,-5.59,,,,,,,,,,,,
261743,1564151609161,2,2.42,0.94,0.33,1.4,1.08,0.39,-0.3,0.05,12,8,15,0.5,7378,10,90,44,32,887,397.0,552,466,60,123.0,114,1,290,165,46,0,0,391,-19126,6512,397,-5.59,44.680962,10.024954,39.92,173.2,0,0.0,-1,0.0,0.0,0,1.68,4.3624
261763,1564151609181,2,2.42,0.93,0.33,1.39,1.08,0.34,-0.3,-0.01,12,9,13,0.45,7399,10,90,44,32,892,397.0,549,465,60,121.0,116,1,290,165,46,0,0,391,-19126,10541,395,-5.59,,,,,,,,,,,,
261783,1564151609201,1,2.42,0.93,0.33,1.4,1.08,0.35,-0.27,-0.0,12,8,15,0.44,7364,10,90,44,32,896,394.0,553,465,60,123.0,116,1,290,165,46,0,0,394,-18948,11545,394,-5.59,,,,,,,,,,,,
261803,1564151609221,1,2.43,0.94,0.33,1.39,1.07,0.33,-0.23,-0.02,12,8,15,0.4,7376,10,90,44,32,903,394.0,541,467,60,124.0,116,1,290,165,46,0,0,389,2278,-3968,394,-5.59,,,,,,,,,,,,
261823,1564151609241,-1,2.43,0.93,0.33,1.4,1.07,0.33,-0.22,0.04,12,7,13,0.4,7373,10,90,44,32,914,394.0,551,467,60,123.0,116,1,290,165,46,0,0,388,2278,28696,392,-5.59,,,,,,,,,,,,
261843,1564151609261,-0,2.42,0.94,0.33,1.4,1.07,0.45,-0.27,0.14,12,5,11,0.52,7324,10,90,44,32,921,392.0,548,463,60,122.0,116,1,290,165,46,0,0,385,-6656,-3968,391,-5.59,44.680954,10.024942,39.22,173.2,0,0.0,-1,0.0,0.0,0,1.68,4.364
261863,1564151609281,-1,2.42,0.94,0.33,1.39,1.07,0.59,-0.27,0.26,11,4,12,0.65,7318,10,90,44,32,926,390.0,545,464,60,123.0,120,1,290,165,47,0,0,383,3,6512,390,-5.59,,,,,,,,,,,,
261883,1564151609301,0,2.42,0.93,0.32,1.39,1.08,0.67,-0.33,0.4,11,3,13,0.75,7270,10,90,44,33,932,389.0,545,466,60,124.0,120,1,292,170,47,0,0,381,-6656,-6656,390,-5.59,,,,,,,,,,,,
261903,1564151609321,3,2.42,0.94,0.33,1.39,1.07,0.75,-0.32,0.43,10,2,14,0.82,7275,10,90,44,33,945,388.0,548,464,60,124.0,120,1,292,170,47,0,0,384,3,-32702,389,-5.59,,,,,,,,,,,,
261923,1564151609341,1,2.42,0.93,0.33,1.39,1.08,0.72,-0.25,0.33,11,3,13,0.76,7233,10,90,44,33,951,387.0,542,468,60,122.0,120,1,292,170,47,0,0,381,770,6384,387,-5.59,,,,,,,,,,,,
261943,1564151609361,1,2.41,0.93,0.33,1.39,1.08,0.65,-0.24,0.24,11,3,12,0.69,7233,10,90,44,33,957,386.0,537,465,60,122.0,120,1,292,170,47,0,0,382,-6656,505,387,-5.59,44.680946,10.024931,38.79,173.2,0,0.0,-1,0.0,0.0,0,1.68,4.3657
261963,1564151609381,0,2.41,0.93,0.33,1.39,1.07,0.68,-0.25,0.19,10,3,13,0.72,7233,10,90,44,33,964,385.0,539,467,60,122.0,119,1,292,170,46,0,0,383,-6656,-1818,385,-5.59,,,,,,,,,,,,
261983,1564151609401,-0,2.41,0.93,0.33,1.4,1.08,0.74,-0.24,0.36,10,2,12,0.78,7200,10,90,44,33,970,382.0,531,466,60,123.0,119,1,292,170,46,0,0,380,1,-1818,384,-5.59,,,,,,,,,,,,
262003,1564151609421,4,2.4,0.93,0.33,1.4,1.07,0.81,-0.25,0.45,10,1,12,0.85,7205,10,90,44,33,976,385.0,538,463,60,124.0,119,1,292,170,46,0,0,379,-6656,-31744,385,-5.59,,,,,,,,,,,,
262023,1564151609441,1,2.41,0.94,0.33,1.39,1.07,0.8,-0.2,0.35,10,2,12,0.82,7153,10,90,44,33,978,382.0,537,465,60,121.0,119,1,292,175,46,0,0,378,-6656,505,382,-5.59,,,,,,,,,,,,
262043,1564151609461,1,2.41,0.93,0.33,1.4,1.08,0.72,-0.19,0.27,10,3,12,0.74,7118,10,90,44,34,981,381.0,530,466,60,123.0,119,1,295,175,46,0,0,379,-6656,-31744,381,-5.59,44.680943,10.02492,38.44,173.2,0,0.0,-1,0.0,0.0,0,1.68,4.3674
262063,1564151609481,-1,2.4,0.94,0.33,1.39,1.07,0.75,-0.18,0.28,9,3,12,0.77,7126,10,90,44,34,986,380.0,532,463,60,124.0,123,1,295,175,47,0,0,377,257,-31744,380,-5.59,,,,,,,,,,,,
262083,1564151609502,2,2.39,0.94,0.33,1.4,1.08,0.79,-0.24,0.4,9,2,11,0.83,7113,10,90,44,34,991,380.0,538,465,60,122.0,123,1,295,175,47,0,0,376,0,-6475,380,-5.59,,,,,,,,,,,,
262103,1564151609522,2,2.39,0.93,0.33,1.39,1.08,0.82,-0.24,0.4,9,2,11,0.85,7110,10,90,44,34,994,378.0,539,466,60,122.0,123,1,295,175,47,0,0,375,0,19125,378,-5.59,,,,,,,,,,,,
262123,1564151609542,1,2.39,0.93,0.33,1.4,1.07,0.73,-0.22,0.37,9,3,9,0.76,7062,10,90,44,34,997,377.0,536,468,60,123.0,123,1,295,175,47,0,0,374,-6405,-18948,377,-5.59,,,,,,,,,,,,
262143,1564151609562,-1,2.38,0.93,0.33,1.4,1.07,0.79,-0.26,0.41,9,2,9,0.83,7043,10,90,44,34,997,376.0,528,463,60,124.0,123,1,295,175,47,0,0,374,230,-19019,376,-5.59,44.680939,10.024908,37.92,173.2,0,0.0,-1,0.0,0.0,0,1.68,4.3691
262163,1564151609582,3,2.39,0.93,0.33,1.4,1.08,0.8,-0.28,0.46,9,2,9,0.85,7075,10,90,44,34,997,375.0,541,465,60,124.0,127,1,295,175,48,0,0,375,-1268,-19126,375,-5.59,,,,,,,,,,,,
262183,1564151609601,0,2.39,0.94,0.32,1.39,1.08,0.74,-0.23,0.36,8,3,11,0.78,7017,10,90,44,35,993,374.0,538,466,60,122.0,127,1,298,181,48,0,0,370,3082,8200,374,-5.59,,,,,,,,,,,,
262203,1564151609621,-0,2.38,0.94,0.33,1.39,1.07,0.74,-0.18,0.44,8,3,10,0.76,7019,10,90,44,35,992,373.0,526,464,60,125.0,127,1,298,175,48,0,0,372,3082,-992,372,-5.59,,,,,,,,,,,,
262223,1564151609641,3,2.38,0.94,0.33,1.4,1.07,0.86,-0.21,0.52,8,-1,10,0.89,7038,10,90,44,35,989,372.0,530,465,60,123.0,127,1,298,181,48,0,0,371,-1268,2278,372,-5.59,,,,,,,,,,,,
262243,1564151609661,1,2.38,0.93,0.33,1.39,1.07,0.83,-0.19,0.41,8,1,9,0.85,6980,10,90,44,35,986,372.0,528,465,60,122.0,127,1,298,181,48,0,0,369,3082,3,372,-5.59,44.680931,10.024897,37.49,173.2,0,0.0,-1,0.0,0.0,0,1.68,4.3707
262263,1564151609681,-1,2.38,0.93,0.33,1.39,1.08,0.81,-0.21,0.4,7,2,9,0.83,6996,10,90,44,35,987,370.0,525,465,60,123.0,129,1,298,181,48,0,0,370,2790,770,370,-5.59,,,,,,,,,,,,
262283,1564151609701,3,2.37,0.94,0.33,1.4,1.08,0.9,-0.22,0.47,7,0,9,0.92,7006,10,90,44,35,987,370.0,529,466,60,124.0,129,1,298,181,48,0,0,371,-14707,770,370,-5.59,,,,,,,,,,,,
262303,1564151609721,1,2.37,0.93,0.33,1.39,1.07,0.87,-0.12,0.39,7,1,10,0.88,6941,10,90,44,35,983,368.0,527,465,60,122.0,129,1,298,181,48,0,0,369,-6458,2278,368,-5.59,,,,,,,,,,,,
262323,1564151609741,-1,2.37,0.93,0.33,1.39,1.08,0.82,-0.08,0.5,7,2,9,0.82,6931,10,90,44,35,980,368.0,517,462,60,124.0,129,1,298,181,48,0,0,366,-29302,742,368,-5.59,,,,,,,,,,,,
262343,1564151609761,3,2.37,0.93,0.33,1.39,1.08,0.91,-0.1,0.53,7,-0,10,0.92,6926,10,90,44,35,977,368.0,530,465,60,122.0,129,1,298,181,48,0,0,367,-29978,3,366,-5.59,44.680927,10.024885,37.16,173.2,0,0.0,-1,0.0,0.0,0,1.68,4.3724
262363,1564151609781,1,2.37,0.93,0.33,1.39,1.08,0.84,-0.08,0.49,7,2,9,0.84,6878,10,90,44,36,972,366.0,527,465,60,122.0,128,1,301,186,47,0,0,367,-29978,-6656,366,-5.59,,,,,,,,,,,,
262383,1564151609801,4,2.37,0.93,0.33,1.4,1.08,0.9,-0.14,0.52,6,0,9,0.91,6883,10,90,44,35,966,366.0,532,464,60,123.0,128,1,298,181,47,0,0,366,-29978,3,366,-5.59,,,,,,,,,,,,
262403,1564151609821,1,2.37,0.93,0.33,1.4,1.08,0.89,-0.13,0.49,6,0,8,0.9,6883,10,90,44,36,956,365.0,528,466,60,122.0,128,1,301,186,47,0,0,364,-29302,257,365,-5.59,,,,,,,,,,,,
262423,1564151609841,-0,2.36,0.93,0.33,1.39,1.08,0.89,-0.13,0.51,6,0,8,0.9,6890,10,90,44,36,952,364.0,523,463,60,124.0,128,1,301,186,47,0,0,366,-6640,-6656,364,-5.59,,,,,,,,,,,,
262443,1564151609861,1,2.36,0.93,0.32,1.4,1.08,0.96,-0.17,0.55,5,-2,8,0.98,6858,10,90,44,36,949,363.0,530,464,60,124.0,128,1,301,186,47,0,0,366,-6640,0,364,-5.59,44.680923,10.024874,36.56,173.2,0,0.0,-1,0.0,0.0,0,1.68,4.3741
262463,1564151609881,1,2.36,0.94,0.33,1.4,1.07,0.83,-0.08,0.46,6,1,7,0.83,6860,10,90,44,36,943,362.0,513,466,60,124.0,132,1,301,186,48,0,0,365,4104,770,362,-5.59,,,,,,,,,,,,
262483,1564151609901,3,2.35,0.93,0.33,1.39,1.08,0.91,-0.1,0.51,6,-2,7,0.92,6860,10,90,44,36,936,361.0,525,465,60,123.0,132,1,301,186,48,0,0,365,2060,257,361,-5.59,,,,,,,,,,,,
262503,1564151609921,1,2.35,0.93,0.33,1.4,1.07,0.81,-0.06,0.45,6,-1,6,0.81,6835,10,90,44,36,932,360.0,523,466,60,123.0,132,1,301,186,48,0,0,364,3302,0,360,-5.59,,,,,,,,,,,,
262523,1564151609941,3,2.35,0.93,0.33,1.4,1.07,0.87,-0.1,0.48,5,-1,6,0.88,6808,10,90,44,36,929,360.0,512,462,60,124.0,132,1,301,186,48,0,0,362,2060,-6405,360,-5.59,,,,,,,,,,,,
262543,1564151609961,-0,2.35,0.93,0.33,1.4,1.07,0.85,-0.07,0.41,5,-0,6,0.85,6835,10,90,44,37,925,360.0,521,467,60,121.0,132,1,304,192,48,0,0,364,3302,-6656,359,-5.59,44.68092,10.024861,36.23,173.2,0,0.0,-1,0.0,0.0,0,1.68,4.3757
262563,1564151609981,-2,2.36,0.93,0.33,1.4,1.07,0.84,-0.04,0.46,5,-1,6,0.84,6815,10,90,44,37,924,357.0,518,463,60,124.0,136,1,304,192,49,0,0,362,3302,0,357,-5.59,,,,,,,,,,,,
262583,1564151609995,1,2.34,0.94,0.33,1.4,1.07,0.87,-0.01,0.44,5,-1,7,0.87,6778,10,90,44,37,922,357.0,516,462,60,123.0,136,1,304,192,49,0,0,362,3302,0,357,-5.59,,,,,,,,,,,,
262603,1564151610015,-0,2.35,0.93,0.32,1.4,1.07,0.78,0.02,0.5,5,1,6,0.78,6776,10,90,44,37,922,357.0,510,467,60,125.0,136,1,304,192,49,0,0,362,3183,3082,357,-5.59,,,,,,,,,,,,
262623,1564151610035,0,2.35,0.93,0.33,1.4,1.07,0.9,0.01,0.49,4,-2,6,0.9,6778,10,90,44,37,921,357.0,514,465,60,123.0,136,1,304,192,49,0,0,361,28553,0,356,-5.59,,,,,,,,,,,,
262643,1564151610055,-0,2.34,0.92,0.33,1.4,1.07,0.82,0.01,0.57,5,-3,4,0.82,6778,10,90,44,37,919,355.0,519,465,60,124.0,136,1,304,192,49,0,0,360,3183,-1268,355,-5.59,44.680916,10.024851,35.95,173.2,0,0.0,-1,0.0,0.0,0,1.69,4.3774
262663,1564151610075,1,2.34,0.93,0.33,1.4,1.07,0.93,0.05,0.49,4,-3,4,0.94,6737,10,90,44,37,918,357.0,522,462,60,123.0,137,1,304,192,49,0,0,358,-30454,3082,357,-5.59,,,,,,,,,,,,
262683,1564151610102,-0,2.34,0.93,0.33,1.4,1.08,0.86,0.02,0.46,4,-2,4,0.86,6725,10,90,44,37,917,354.0,511,462,60,125.0,137,1,304,192,49,0,0,358,-30454,230,354,-5.59,,,,,,,,,,,,
262703,1564151610122,2,2.34,0.93,0.33,1.4,1.08,0.91,-0.03,0.45,4,-3,4,0.91,6756,10,90,44,37,914,356.0,520,466,60,123.0,137,1,304,197,49,0,0,360,-30454,3082,354,-5.59,,,,,,,,,,,,
262723,1564151610142,-2,2.34,0.93,0.33,1.39,1.08,0.87,0.01,0.46,4,-2,4,0.87,6749,10,90,44,37,911,354.0,517,464,60,125.0,137,1,304,192,49,0,0,359,28553,-6458,354,-5.59,,,,,,,,,,,,
262743,1564151610162,2,2.34,0.93,0.33,1.39,1.07,0.9,-0.01,0.46,3,-3,4,0.9,6701,9,90,44,37,908,353.0,525,462,60,123.0,137,1,304,197,49,0,0,359,2811,-6458,353,-5.59,44.680912,10.024839,35.64,173.2,0,0.0,-1,0.0,0.0,0,1.69,4.379
262763,1564151610182,0,2.34,0.93,0.33,1.39,1.08,0.82,0.04,0.5,4,-1,3,0.82,6696,8,90,44,37,904,353.0,505,464,60,124.0,135,1,304,192,48,0,0,72,-1246,-14707,353,-5.59,,,,,,,,,,,,
262783,1564151610202,-1,2.34,0.93,0.33,1.39,1.08,0.91,0.05,0.44,3,-2,4,0.91,6684,7,90,44,37,902,353.0,514,467,60,123.0,135,1,304,192,48,0,0,353,2811,-14707,353,-5.59,,,,,,,,,,,,
262803,1564151610222,3,2.34,0.93,0.33,1.39,1.07,0.85,0.01,0.57,3,-3,3,0.85,6679,6,90,44,36,899,353.0,510,462,60,124.0,135,1,301,186,48,0,0,355,2811,-1268,353,-5.59,,,,,,,,,,,,
262823,1564151610242,-3,2.34,0.93,0.33,1.4,1.07,0.86,0.04,0.44,4,-2,3,0.86,6618,6,90,44,36,896,351.0,520,465,60,122.0,135,1,301,186,48,0,0,356,-1246,3082,351,-5.59,,,,,,,,,,,,
262843,1564151610262,3,2.34,0.92,0.33,1.39,1.08,0.92,-0.02,0.46,3,-3,3,0.92,6578,6,90,44,35,895,350.0,502,462,60,125.0,135,1,298,181,48,0,0,353,-30438,3302,349,-5.59,44.680908,10.024827,35.34,173.2,0,0.0,-1,0.0,0.0,0,1.69,4.3807
262863,1564151610282,-0,2.33,0.94,0.33,1.4,1.08,0.88,-0.0,0.48,3,-2,2,0.88,6581,6,90,44,35,895,349.0,497,462,60,125.0,128,1,298,107,45,0,0,353,-30438,2060,349,-5.59,,,,,,,,,,,,
262883,1564151610302,1,2.33,0.93,0.33,1.4,1.07,0.92,-0.04,0.44,2,-3,3,0.92,6595,5,90,44,35,893,349.0,505,464,60,123.0,128,1,298,181,45,0,0,353,-10554,2060,349,-5.59,,,,,,,,,,,,
262903,1564151610322,2,2.34,0.93,0.33,1.4,1.07,0.83,0.04,0.46,3,-2,3,0.83,6578,6,90,44,34,892,347.0,505,462,60,125.0,128,1,295,175,45,0,0,352,6870,2811,348,-5.59,,,,,,,,,,,,
262923,1564151610342,-2,2.34,0.93,0.33,1.39,1.07,0.94,0.05,0.46,2,-2,3,0.94,6569,0,90,44,35,892,346.0,502,465,60,124.0,128,1,298,107,45,0,0,349,6870,-1246,346,-5.59,,,,,,,,,,,,
262943,1564151610362,1,2.33,0.93,0.34,1.39,1.08,0.89,-0.02,0.49,2,-2,3,0.89,6549,0,90,44,34,891,346.0,506,463,60,124.0,128,1,295,175,45,0,0,352,-14714,28553,346,-5.59,44.680904,10.024817,35.12,173.2,0,0.0,-1,0.0,0.0,0,1.69,4.3824
262963,1564151610382,-1,2.34,0.93,0.33,1.4,1.07,0.77,0.07,0.45,2,2,3,0.78,6526,0,90,44,34,891,345.0,493,465,60,124.0,124,1,295,175,43,0,0,351,-31206,2811,345,-5.59,,,,,,,,,,,,
262983,1564151610402,1,2.33,0.93,0.33,1.39,1.07,0.9,0.04,0.39,2,0,3,0.9,6533,0,90,44,34,888,344.0,497,467,60,123.0,124,1,295,175,43,0,0,347,6668,-30454,344,-5.59,,,,,,,,,,,,
263003,1564151610422,2,2.34,0.93,0.33,1.4,1.08,0.85,0.0,0.43,2,-2,3,0.85,6521,0,90,44,34,887,343.0,503,462,60,123.0,124,1,295,175,43,0,0,346,-122,-30454,343,-5.59,,,,,,,,,,,,
263023,1564151610442,-0,2.33,0.93,0.33,1.4,1.07,0.77,0.02,0.47,2,-0,1,0.77,6494,0,90,44,34,887,342.0,498,463,60,123.0,124,1,295,175,43,0,0,346,-122,2811,341,-5.59,,,,,,,,,,,,
263043,1564151610462,-1,2.32,0.92,0.33,1.4,1.07,0.89,0.05,0.37,2,-1,1,0.89,6503,0,90,44,34,884,342.0,501,462,60,122.0,124,1,295,175,43,0,0,343,-31222,2811,342,-5.59,44.680904,10.024805,34.81,173.2,0,0.0,-1,0.0,0.0,0,1.69,4.384
263063,1564151610482,2,2.33,0.92,0.33,1.4,1.07,0.92,0.05,0.37,2,-1,2,0.92,6443,0,90,44,34,883,341.0,506,463,60,123.0,122,1,295,175,42,0,0,351,-31222,-10554,341,-5.59,,,,,,,,,,,,
263083,1564151610502,3,2.34,0.94,0.33,1.4,1.07,0.85,0.04,0.41,2,-0,1,0.85,6427,0,90,44,33,882,340.0,490,462,60,124.0,122,1,292,170,42,0,0,343,-31222,6668,340,-5.59,,,,,,,,,,,,
263103,1564151610522,-1,2.33,0.93,0.33,1.4,1.07,0.87,0.03,0.39,2,-1,1,0.87,6405,0,90,44,34,882,338.0,486,467,60,123.0,122,1,295,101,42,0,0,342,13,-14714,338,-5.59,,,,,,,,,,,,
263123,1564151610542,1,2.33,0.93,0.33,1.4,1.07,0.97,-0.02,0.42,1,-4,1,0.97,6386,0,90,44,34,880,339.0,488,465,60,123.0,122,1,295,175,42,0,0,343,13,-122,337,-5.59,,,,,,,,,,,,
263143,1564151610562,2,2.33,0.93,0.32,1.39,1.08,0.85,0.03,0.44,2,-3,1,0.85,6375,0,90,44,34,877,336.0,489,464,60,124.0,122,1,295,175,42,0,0,341,3346,-10554,336,-5.59,44.680897,10.024794,34.02,173.2,0,0.0,-1,0.0,0.0,0,1.69,4.3857
263163,1564151610582,3,2.33,0.93,0.33,1.4,1.08,0.78,0.08,0.45,2,-0,1,0.78,6351,0,90,44,33,876,335.0,488,463,60,125.0,122,1,292,170,41,0,0,338,-6528,6668,335,-5.59,,,,,,,,,,,,
263183,1564151610602,-1,2.34,0.93,0.33,1.39,1.08,0.83,0.12,0.43,2,-0,1,0.84,6338,0,90,44,34,875,333.0,490,463,60,124.0,122,1,295,175,41,0,0,339,-32559,2560,333,-5.59,,,,,,,,,,,,
263203,1564151610622,-1,2.32,0.93,0.33,1.39,1.07,0.95,0.08,0.46,1,-3,1,0.95,6291,0,90,44,34,874,332.0,486,465,60,124.0,122,1,295,101,41,0,0,337,175,-31222,332,-5.59,,,,,,,,,,,,
263223,1564151610642,0,2.33,0.93,0.33,1.39,1.07,0.9,0.02,0.48,1,-2,1,0.9,6279,0,90,44,34,874,332.0,486,465,60,123.0,122,1,295,101,41,0,0,337,-20736,2560,331,-5.59,,,,,,,,,,,,
263243,1564151610662,3,2.33,0.92,0.33,1.4,1.07,0.73,0.04,0.51,1,0,1,0.74,6277,0,90,44,34,876,331.0,481,463,60,124.0,122,1,295,175,41,0,0,335,175,-6528,331,-5.59,44.680893,10.024783,33.9,173.2,0,0.0,-1,0.0,0.0,0,1.69,4.3874
263263,1564151610682,3,2.33,0.93,0.33,1.4,1.07,0.68,0.11,0.5,2,2,1,0.69,6262,0,90,44,34,877,330.0,478,466,60,125.0,124,1,295,175,41,0,0,336,-20736,13,329,-5.59,,,,,,,,,,,,
263283,1564151610702,-0,2.33,0.92,0.33,1.39,1.08,0.74,0.12,0.42,2,2,1,0.75,6214,0,90,44,34,880,328.0,475,467,60,124.0,124,1,295,175,41,0,0,331,170,4838,327,-5.59,,,,,,,,,,,,
263303,1564151610722,-1,2.33,0.93,0.33,1.4,1.07,0.87,0.1,0.4,1,0,1,0.87,6225,0,90,44,34,883,327.0,477,468,60,124.0,124,1,295,175,41,0,0,332,-22016,-32559,327,-5.59,,,,,,,,,,,,
263323,1564151610742,-2,2.34,0.93,0.33,1.39,1.08,0.98,0.07,0.39,1,-4,1,0.99,6196,0,90,44,34,884,325.0,476,468,60,123.0,124,1,295,101,41,0,0,332,-23296,-6528,325,-5.59,,,,,,,,,,,,
263343,1564151610762,-0,2.33,0.93,0.32,1.39,1.08,1.01,0.1,0.38,1,-6,1,1.01,6159,0,90,44,34,886,325.0,473,464,60,123.0,124,1,295,175,41,0,0,329,-23296,4838,326,-5.59,44.680889,10.024772,33.3,173.2,0,0.0,-1,0.0,0.0,0,1.69,4.389
263363,1564151610782,2,2.34,0.93,0.33,1.4,1.07,0.94,0.05,0.34,1,-6,0,0.95,6167,0,90,44,34,887,324.0,472,463,60,124.0,123,1,295,175,40,0,0,331,-24576,-20736,324,-5.59,,,,,,,,,,,,
263383,1564151610798,2,2.33,0.93,0.33,1.4,1.07,0.82,0.02,0.33,1,-5,-0,0.83,6133,0,90,44,34,889,323.0,476,461,60,124.0,123,1,295,181,40,0,0,329,155,170,323,-5.59,,,,,,,,,,,,
263403,1564151610818,2,2.33,0.93,0.33,1.4,1.07,0.69,0.04,0.33,1,-4,0,0.69,6103,0,90,44,34,890,322.0,472,463,60,125.0,123,1,295,175,40,0,0,326,-25856,-23296,322,-5.59,,,,,,,,,,,,
263423,1564151610838,1,2.34,0.93,0.33,1.4,1.07,0.53,0.05,0.3,2,-1,-0,0.53,6137,0,91,44,34,890,321.0,468,460,60,124.0,123,1,295,175,40,0,0,326,-27136,-23296,321,-5.59,,,,,,,,,,,,
263443,1564151610858,3,2.33,0.93,0.33,1.4,1.07,0.46,0.09,0.26,3,2,-1,0.46,6095,0,90,44,34,890,320.0,465,462,60,124.0,123,1,295,181,40,0,0,324,-27136,160,320,-5.59,44.680885,10.024762,32.72,173.2,0,0.0,-1,0.0,0.0,0,1.69,4.3907
263463,1564151610878,3,2.33,0.93,0.33,1.4,1.07,0.43,0.13,0.22,3,4,-0,0.45,6056,0,90,44,34,890,318.0,463,463,60,124.0,125,1,295,101,40,0,0,322,145,-24576,319,-5.59,,,,,,,,,,,,
263483,1564151610902,3,2.33,0.93,0.33,1.4,1.08,0.44,0.17,0.2,3,5,-1,0.47,6048,0,91,44,35,889,319.0,460,462,60,124.0,125,1,298,181,40,0,0,324,140,-24576,319,-5.59,,,,,,,,,,,,
263503,1564151610922,1,2.34,0.93,0.33,1.4,1.07,0.45,0.18,0.19,3,5,-0,0.49,5982,0,91,44,35,888,318.0,456,462,60,124.0,125,1,297,180,40,0,0,322,135,-27136,317,-5.59,,,,,,,,,,,,
263523,1564151610942,3,2.33,0.93,0.33,1.4,1.07,0.42,0.21,0.18,4,7,-0,0.47,5929,0,90,44,35,887,316.0,452,461,60,123.0,125,1,294,180,40,0,0,319,135,155,316,-5.59,,,,,,,,,,,,
263543,1564151610962,2,2.34,0.93,0.33,1.4,1.07,0.38,0.25,0.16,4,9,-1,0.46,5952,0,91,44,36,887,314.0,448,465,60,125.0,125,1,298,180,40,0,0,319,130,145,314,181.28,44.680885,10.024752,32.19,173.2,0,0.0,-1,0.0,0.0,0,1.69,4.3924
