"Interval"|"ms"|0|0|1,"Utc"|"ms"|0|0|1,"FB_p"|"bar"|0|300|50,"Volant"|"F"|0.0|300.0|50,"xFR"|"mm"|0.0|5.0|50,"xRR"|"mm"|0.0|5.0|50,"xFL"|"mm"|0.0|5.0|50,"xRL"|"mm"|0.0|5.0|50,"AccelX"|"G"|-3.0|3.0|50,"AccelY"|"G"|-3.0|3.0|50,"AccelZ"|"G"|-3.0|3.0|50,"Yaw"|"Deg/Sec"|-120|120|50,"Pitch"|"Deg/Sec"|-120|120|50,"Roll"|"Deg/Sec"|-120|120|50,"Gsum"|"G"|0.0|3.0|50,"RPM"|""|0|14000|50,"TPS"|"%"|0|100|50,"WaterTemp"|"?C"|0|300|50,"AirTemp"|"?C"|-1000|1000|50,"MAP"|"KPa"|0|255|50,"Lambda"|""|0|1024|50,"WheelSpeed"|"MPH"|0.0|150.0|50,"OilPress"|"PSI"|0|150|50,"FuelPress"|"PSI"|0|150|50,"OilTemp"|"F"|0|300|50,"Battery"|"Volts"|0.0|20.0|50,"FuelCon"|"L/h"|-1000|1000|50,"Gear"|""|0|10|50,"Advance"|"Deg"|-360|360|50,"Injection"|"ms"|-1000|1000|50,"FuelCon"|"L/100km"|-1000|1000|50,"LC_But_Pres"|""|-1000|1000|50,"LC_Active"|""|-1000|1000|50,"RD_Speed"|""|-1000|1000|50,"RUD_Speed"|""|-1000|1000|50,"LD_Speed"|""|-1000|1000|50,"LUD_Speed"|""|-1000|1000|50,"Ana1"|"bar"|-1000.0|1000.0|50,"Latitude"|"Degrees"|-180.0|180.0|10,"Longitude"|"Degrees"|-180.0|180.0|10,"Speed"|"kph"|0.0|150.0|10,"Altitude"|"m"|0.0|4000.0|10,"LapCount"|""|0|0|10,"LapTime"|"Min"|0.0|0.0|10,"Sector"|""|0|0|10,"SectorTime"|"Min"|0.0|0.0|10,"ElapsedTime"|"Min"|0.0|0.0|10,"CurrentLap"|""|0|0|10,"Distance"|"km"|0.0|0.0|10,"SessionTime"|"Min"|0.0|0.0|10
476163,1564153220867,2,2.53,1.13,0.39,1.53,1.13,0.72,-0.94,0.69,22,-3,32,1.18,8438,51,107,44,65,896,602.0,497,463,60,122.0,202,1,441,364,119,0,0,632,-29984,506,602,-5.59,,,,,,,,,,,,
476183,1564153220887,1,2.52,1.12,0.39,1.53,1.13,0.73,-0.88,0.77,22,-0,30,1.15,8465,51,107,44,65,899,602.0,493,462,60,121.0,192,1,440,366,116,0,0,643,1267,-16046,602,-5.59,,,,,,,,,,,,
476203,1564153220907,0,2.53,1.13,0.39,1.53,1.13,0.61,-0.85,0.7,22,2,29,1.05,8569,51,107,44,64,900,604.0,485,464,60,122.0,192,1,436,368,116,0,0,618,1267,3,604,-5.59,,,,,,,,,,,,
476223,1564153220927,3,2.53,1.13,0.39,1.53,1.13,0.64,-0.91,0.66,22,1,31,1.12,8656,51,107,44,64,905,605.0,487,465,60,123.0,192,1,430,364,116,0,0,628,1760,-16046,607,-5.59,,,,,,,,,,,,
476243,1564153220947,1,2.54,1.13,0.39,1.53,1.13,0.75,-0.87,0.79,21,-3,29,1.15,8648,51,107,44,63,909,610.0,483,460,60,122.0,192,1,431,357,116,0,0,627,-3210,-2830,610,-5.59,44.681332,10.024984,57.92,173.7,0,0.0,-1,0.0,0.0,0,3.5,7.9374
476263,1564153220967,2,2.53,1.13,0.39,1.53,1.13,0.78,-0.78,0.91,22,-2,27,1.1,8616,51,107,44,63,913,611.0,480,463,60,123.0,192,1,430,358,116,0,0,636,8488,-2830,611,-5.59,,,,,,,,,,,,
476283,1564153220987,1,2.53,1.13,0.39,1.53,1.12,0.76,-0.9,0.74,21,-0,25,1.18,8628,51,107,44,63,915,610.0,478,462,60,123.0,191,1,433,357,117,0,0,644,-4035,11776,610,-5.59,,,,,,,,,,,,
476303,1564153220997,1,2.54,1.13,0.39,1.52,1.14,0.64,-0.97,0.61,20,-0,27,1.16,8692,51,107,44,63,918,614.0,487,461,60,123.0,191,1,427,359,117,0,0,644,8488,-10251,612,-5.59,,,,,,,,,,,,
476323,1564153221017,2,2.54,1.13,0.39,1.53,1.12,0.59,-0.91,0.58,19,-1,29,1.09,8757,51,107,44,62,921,610.0,499,466,60,122.0,191,1,421,359,117,0,0,654,10432,24,610,-5.59,,,,,,,,,,,,
476343,1564153221037,3,2.53,1.13,0.39,1.53,1.13,0.62,-0.84,0.64,19,-1,29,1.04,8836,51,107,44,62,921,612.0,506,465,60,123.0,191,1,414,356,117,0,0,649,15649,244,612,-5.59,44.68132,10.024999,59.49,173.7,0,0.0,-1,0.0,0.0,0,3.5,7.9391
476363,1564153221057,1,2.54,1.13,0.39,1.53,1.12,0.63,-0.74,0.75,19,-1,27,0.97,8856,51,107,44,62,921,617.0,514,462,60,122.0,191,1,412,356,117,0,0,652,6273,4909,618,-5.59,,,,,,,,,,,,
476383,1564153221077,1,2.53,1.13,0.39,1.52,1.13,0.77,-0.74,0.81,19,-2,27,1.07,8852,51,107,44,62,923,622.0,520,465,60,122.0,192,1,412,350,119,0,0,658,3472,-3488,618,-5.59,,,,,,,,,,,,
476403,1564153221107,1,2.53,1.12,0.39,1.52,1.13,0.82,-0.75,0.84,19,-3,26,1.11,8894,51,107,44,62,925,624.0,519,460,60,122.0,192,1,411,357,119,0,0,658,3472,31988,624,-5.59,,,,,,,,,,,,
476423,1564153221127,2,2.53,1.13,0.39,1.53,1.13,0.94,-0.81,0.87,19,-2,28,1.24,8898,51,107,44,61,928,624.0,519,467,60,122.0,192,1,407,352,119,0,0,654,-28648,-2826,624,-5.59,,,,,,,,,,,,
476443,1564153221147,1,2.53,1.13,0.39,1.53,1.13,1.01,-0.81,0.92,19,-1,27,1.3,8945,51,107,44,61,930,630.0,511,467,60,123.0,192,1,402,352,119,0,0,651,17344,8958,630,-5.59,44.681309,10.025011,60.93,173.7,0,0.0,-1,0.0,0.0,0,3.51,7.9407
476463,1564153221167,1,2.53,1.13,0.39,1.53,1.13,0.97,-0.91,0.88,20,2,26,1.33,8924,51,107,44,61,939,632.0,508,461,60,122.0,192,1,404,352,119,0,0,655,-7939,-2826,632,-5.59,,,,,,,,,,,,
476483,1564153221187,2,2.54,1.13,0.39,1.53,1.13,0.97,-1.0,0.84,20,1,26,1.39,8937,50,107,44,61,951,633.0,512,464,60,123.0,187,1,403,352,118,0,0,659,5344,8958,634,-5.59,,,,,,,,,,,,
476503,1564153221207,0,2.54,1.13,0.39,1.52,1.13,0.86,-1.1,0.8,20,4,26,1.39,8971,50,107,44,61,961,633.0,502,463,60,123.0,187,1,399,353,118,0,0,667,-768,-3578,633,-5.59,,,,,,,,,,,,
476523,1564153221227,1,2.54,1.12,0.39,1.53,1.13,0.88,-1.18,0.85,20,3,25,1.47,9049,50,107,44,61,970,635.0,509,467,60,123.0,187,1,397,354,118,0,0,660,-7939,3543,635,-5.59,,,,,,,,,,,,
476543,1564153221247,0,2.55,1.12,0.39,1.52,1.14,0.84,-1.25,0.83,21,4,25,1.51,9075,50,107,44,60,983,637.0,511,466,60,122.0,187,1,399,354,118,0,0,657,-23055,3543,637,-5.59,44.681297,10.025023,61.91,173.6,0,0.0,-1,0.0,0.0,0,3.51,7.9424
476563,1564153221267,2,2.54,1.13,0.39,1.53,1.13,0.84,-1.28,0.87,21,4,23,1.53,9088,51,107,44,60,999,638.0,521,464,60,122.0,187,1,400,347,118,0,0,677,-3446,1549,638,-5.59,,,,,,,,,,,,
476583,1564153221287,1,2.55,1.13,0.39,1.52,1.12,0.93,-1.27,0.88,21,4,25,1.58,9106,51,107,44,60,1011,641.0,524,462,60,122.0,185,1,399,347,119,0,0,673,28675,-10344,641,-5.59,,,,,,,,,,,,
476603,1564153221307,2,2.56,1.13,0.39,1.52,1.14,0.96,-1.22,0.98,20,3,25,1.56,9155,51,107,44,60,1018,645.0,535,459,60,122.0,185,1,400,347,119,0,0,673,1010,-2345,645,-5.59,,,,,,,,,,,,
476623,1564153221327,1,2.55,1.13,0.39,1.52,1.14,1.07,-1.07,1.08,20,5,25,1.51,9173,50,107,44,60,1026,648.0,546,458,60,121.0,185,1,401,347,119,0,0,663,1010,-3038,648,-5.59,,,,,,,,,,,,
476643,1564153221347,-1,2.56,1.13,0.39,1.52,1.14,0.99,-0.94,1.01,21,4,24,1.37,9177,50,107,44,59,1035,646.0,532,471,60,122.0,185,1,401,342,119,0,0,682,16529,-2345,646,-5.59,44.681282,10.025035,62.82,173.6,0,0.0,-1,0.0,0.0,0,3.51,7.944
476663,1564153221367,0,2.56,1.12,0.39,1.52,1.13,1.05,-0.94,1.0,22,3,25,1.41,9168,50,107,44,60,1043,647.0,539,459,60,123.0,185,1,401,347,119,0,0,673,3403,-10344,647,-5.59,,,,,,,,,,,,
476683,1564153221387,2,2.55,1.13,0.39,1.53,1.12,0.92,-0.96,0.88,22,3,27,1.33,9173,45,107,44,59,1045,651.0,539,460,60,123.0,183,1,401,334,119,0,0,684,3403,3543,651,-5.59,,,,,,,,,,,,
476703,1564153221407,2,2.55,1.13,0.39,1.53,1.13,0.82,-1.06,0.94,22,3,28,1.34,9200,39,107,44,56,1047,655.0,525,465,60,123.0,183,1,400,323,119,0,0,697,30721,16599,655,-5.59,,,,,,,,,,,,
476723,1564153221427,2,2.55,1.13,0.39,1.53,1.13,0.83,-1.16,1.03,21,3,26,1.42,9277,37,107,43,53,1049,655.0,530,468,60,123.0,183,1,396,316,119,0,0,675,269,-10399,655,-5.59,,,,,,,,,,,,
476743,1564153221447,2,2.55,1.13,0.39,1.53,1.13,0.91,-1.09,1.03,22,2,26,1.42,9282,36,107,44,51,1049,653.0,523,466,60,123.0,183,1,389,282,119,0,0,669,19320,-10344,653,-5.59,44.681267,10.025044,63.67,173.6,0,0.0,-1,0.0,0.0,0,3.51,7.9457
476763,1564153221467,3,2.54,1.13,0.39,1.53,1.13,1.02,-0.95,1.05,22,0,27,1.4,9209,34,107,44,49,1048,656.0,530,464,60,123.0,183,1,381,259,119,0,0,682,-18357,-26380,656,-5.59,,,,,,,,,,,,
476783,1564153221487,4,2.54,1.13,0.39,1.53,1.13,1.04,-0.86,0.99,22,-1,28,1.35,9137,29,107,43,47,1044,656.0,526,464,60,122.0,131,1,372,239,86,0,0,689,17336,-10344,656,-5.59,,,,,,,,,,,,
476803,1564153221507,1,2.55,1.13,0.39,1.52,1.14,0.99,-0.86,0.98,22,-3,27,1.31,9132,24,107,43,45,1033,657.0,538,458,60,122.0,131,1,359,234,86,0,0,671,-18357,-26892,659,-5.59,,,,,,,,,,,,
476823,1564153221527,2,2.54,1.12,0.39,1.52,1.13,0.9,-0.89,0.87,22,-3,27,1.27,9101,22,107,43,42,1022,654.0,536,465,60,123.0,131,1,339,225,86,0,0,663,3395,8958,653,-5.59,,,,,,,,,,,,
476843,1564153221547,7,2.53,1.13,0.39,1.53,1.13,0.82,-0.85,0.73,22,-3,27,1.19,8984,21,107,43,39,1013,655.0,539,462,60,122.0,131,1,320,218,86,0,0,661,17336,3543,655,-5.59,44.681252,10.025055,64.73,173.6,0,0.0,-1,0.0,0.0,0,3.51,7.9474
476863,1564153221567,5,2.53,1.13,0.39,1.53,1.12,0.94,-0.83,0.75,22,-4,28,1.26,8737,21,107,43,38,1000,653.0,535,463,60,122.0,131,1,317,213,86,0,0,652,30721,-10348,650,-5.59,,,,,,,,,,,,
476883,1564153221587,5,2.53,1.12,0.39,1.52,1.13,1.0,-0.83,0.81,22,-4,28,1.3,8526,21,107,43,37,972,648.0,507,466,60,122.0,104,1,314,209,68,0,0,631,1010,-3578,650,-5.59,,,,,,,,,,,,
476903,1564153221606,8,2.52,1.12,0.39,1.52,1.13,0.92,-0.87,0.69,22,-4,28,1.26,8370,21,107,43,37,944,648.0,498,466,60,123.0,104,1,311,208,68,0,0,613,-7939,-10344,650,-5.59,,,,,,,,,,,,
476923,1564153221626,7,2.51,1.13,0.39,1.53,1.13,1.01,-0.9,0.73,22,-4,30,1.35,8166,21,107,43,37,926,645.0,493,463,60,120.0,104,1,307,206,68,0,0,597,-3210,-3038,645,-5.59,,,,,,,,,,,,
476943,1564153221646,8,2.5,1.13,0.38,1.52,1.12,1.08,-0.86,0.67,23,-3,28,1.38,8009,21,107,43,37,907,639.0,477,465,60,124.0,104,1,304,203,68,0,0,584,-30139,479,645,-5.59,44.68124,10.025063,64.83,173.6,0,0.0,-1,0.0,0.0,0,3.51,7.949
476963,1564153221666,10,2.49,1.13,0.39,1.53,1.13,1.07,-0.86,0.61,24,-3,30,1.37,7805,20,107,43,38,881,646.0,465,463,60,123.0,104,1,307,208,68,0,0,589,23619,-2345,644,-5.59,,,,,,,,,,,,
476983,1564153221686,10,2.5,1.13,0.38,1.51,1.12,1.05,-0.81,0.47,24,-5,30,1.33,7681,20,107,43,38,855,634.0,466,462,60,123.0,94,1,307,208,60,0,0,572,-3210,24583,634,-5.59,,,,,,,,,,,,
477003,1564153221706,13,2.49,1.13,0.39,1.52,1.13,0.97,-0.93,0.38,23,-3,29,1.34,7662,20,107,43,39,847,634.0,454,465,60,123.0,94,1,310,213,60,0,0,495,1,-2836,634,-5.59,,,,,,,,,,,,
477023,1564153221726,13,2.49,1.12,0.39,1.52,1.13,0.96,-0.93,0.22,23,-2,30,1.33,7671,20,107,43,40,840,623.0,479,461,60,122.0,94,1,317,214,60,0,0,427,259,-2836,623,-5.59,,,,,,,,,,,,
477043,1564153221746,10,2.48,1.12,0.39,1.52,1.13,0.99,-0.89,0.13,24,-2,31,1.33,7643,20,107,43,40,840,627.0,473,465,60,122.0,94,1,317,214,60,0,0,405,-1894,-2836,627,-5.59,44.681225,10.025069,64.21,173.7,0,0.0,-1,0.0,0.0,0,3.52,7.9507
477063,1564153221766,10,2.47,1.13,0.39,1.53,1.12,0.99,-0.86,0.1,26,1,31,1.31,7500,20,107,43,40,841,624.0,471,458,60,123.0,94,1,317,214,60,0,0,398,1760,-3584,623,181.28,,,,,,,,,,,,
477083,1564153221786,11,2.48,1.13,0.39,1.53,1.13,1.0,-0.87,0.01,26,2,33,1.33,7329,20,107,43,40,848,619.0,452,462,60,123.0,97,1,317,213,60,0,0,370,1,-16046,617,181.28,,,,,,,,,,,,
477103,1564153221806,11,2.48,1.13,0.38,1.53,1.13,0.96,-0.88,-0.12,25,4,34,1.3,7086,20,107,43,41,856,617.0,450,460,60,123.0,97,1,325,215,60,0,0,339,6273,-14655,617,181.28,,,,,,,,,,,,
477123,1564153221826,10,2.48,1.13,0.38,1.52,1.12,0.94,-0.94,0.04,25,2,35,1.33,6843,20,108,43,42,868,606.0,423,458,60,123.0,97,1,331,219,60,0,0,328,-32248,3395,606,181.28,,,,,,,,,,,,
477143,1564153221846,14,2.48,1.13,0.39,1.53,1.12,0.9,-0.97,0.06,25,4,31,1.33,6494,20,107,43,43,879,607.0,408,460,60,122.0,97,1,337,356,60,0,0,392,6273,3395,604,181.28,44.681206,10.025074,62.79,173.7,0,0.0,-1,0.0,0.0,0,3.52,7.9524
477163,1564153221866,10,2.48,1.13,0.38,1.52,1.12,1.01,-0.99,0.01,26,4,30,1.42,6289,20,107,43,45,885,605.0,397,465,60,122.0,97,1,349,334,60,0,0,407,-32504,3395,605,-5.59,,,,,,,,,,,,
477183,1564153221886,9,2.47,1.13,0.38,1.53,1.13,1.12,-0.88,-0.1,26,4,32,1.42,6315,20,107,43,47,888,601.0,387,458,60,121.0,125,1,363,316,75,0,0,397,-9072,19304,601,-5.59,,,,,,,,,,,,
477203,1564153221906,14,2.48,1.12,0.38,1.52,1.12,1.17,-0.87,-0.04,24,4,30,1.46,6353,20,107,43,49,884,594.0,387,455,60,123.0,125,1,369,287,75,0,0,405,-2934,-8186,596,-5.59,,,,,,,,,,,,
477223,1564153221926,11,2.48,1.12,0.39,1.51,1.13,1.01,-0.88,-0.06,23,2,29,1.34,6465,20,107,43,50,878,1666.0,390,462,60,123.0,125,1,373,266,75,0,0,102,6273,-8186,1666,-5.59,,,,,,,,,,,,
477243,1564153221946,13,2.47,1.13,0.38,1.53,1.12,1.11,-0.95,-0.01,23,4,29,1.46,6761,20,107,43,50,870,1666.0,398,462,60,124.0,125,1,376,241,75,0,0,102,6273,-16384,1666,-5.59,44.68119,10.025077,61.07,173.7,0,0.0,-1,0.0,0.0,0,3.52,7.9541
477263,1564153221966,12,2.47,1.12,0.39,1.52,1.13,0.99,-0.96,-0.14,24,7,31,1.38,6906,20,107,43,50,860,1666.0,413,466,60,123.0,125,1,377,242,75,0,0,102,-30064,6273,1666,-5.59,,,,,,,,,,,,
477283,1564153221986,11,2.46,1.13,0.38,1.52,1.12,0.96,-1.05,0.07,24,7,30,1.42,7011,20,107,43,49,871,568.0,416,466,60,124.0,112,1,375,238,64,0,0,102,-2934,8488,572,-5.59,,,,,,,,,,,,
477303,1564153221996,13,2.47,1.12,0.38,1.52,1.13,1.07,-0.95,0.12,24,10,30,1.43,7062,20,107,43,49,889,576.0,425,463,60,125.0,112,1,375,238,64,0,0,31,-22519,2048,576,-5.59,,,,,,,,,,,,
477323,1564153222016,11,2.46,1.13,0.38,1.53,1.13,0.89,-0.91,0.07,25,9,29,1.27,6983,20,107,43,49,913,571.0,422,463,60,123.0,112,1,374,237,64,0,0,31,1341,243,571,-5.59,,,,,,,,,,,,
477343,1564153222036,14,2.46,1.13,0.38,1.52,1.12,0.98,-0.91,0.1,24,6,29,1.34,6686,20,107,43,49,940,566.0,413,461,60,123.0,112,1,372,236,64,0,0,31,-3414,-25872,568,-5.59,44.681179,10.025079,58.74,173.7,0,0.0,-1,0.0,0.0,0,3.52,7.9557
477363,1564153222056,12,2.46,1.13,0.38,1.52,1.13,0.9,-0.92,0.09,24,8,27,1.29,6667,20,107,43,49,952,557.0,405,463,60,124.0,112,1,372,153,64,0,0,31,-6528,-12040,557,-5.59,,,,,,,,,,,,
477383,1564153222076,14,2.46,1.13,0.38,1.52,1.12,1.02,-0.97,0.0,24,4,26,1.4,6727,20,107,43,49,954,550.0,411,461,60,123.0,110,1,373,241,61,0,0,31,2109,-30159,550,-5.59,,,,,,,,,,,,
477403,1564153222106,13,2.46,1.13,0.39,1.53,1.12,0.95,-0.83,-0.08,24,3,28,1.26,6908,19,107,43,49,943,2276.0,407,460,60,122.0,110,1,374,237,61,0,0,688,-4091,-22519,566,-5.59,,,,,,,,,,,,
477423,1564153222126,9,2.47,1.12,0.38,1.51,1.13,0.85,-0.82,-0.12,23,4,27,1.18,7290,19,107,43,49,917,2276.0,423,463,60,124.0,110,1,375,238,61,0,0,688,-4091,-28648,566,-5.59,,,,,,,,,,,,
477443,1564153222146,8,2.46,1.13,0.38,1.52,1.13,0.8,-0.85,-0.03,22,2,26,1.17,7399,19,107,43,48,889,2276.0,431,463,60,124.0,110,1,372,234,61,0,0,688,-4091,-32248,566,-5.59,44.681164,10.02508,56.64,173.7,0,0.0,-1,0.0,0.0,0,3.52,7.9574
477463,1564153222166,9,2.46,1.13,0.39,1.52,1.13,0.79,-0.85,0.06,21,1,26,1.16,7512,19,107,43,47,859,496.0,444,466,60,123.0,110,1,370,228,61,0,0,688,15661,6273,42,-5.59,,,,,,,,,,,,
477483,1564153222186,7,2.46,1.12,0.39,1.52,1.12,0.76,-0.85,0.16,20,1,26,1.14,7542,19,107,43,46,838,532.0,441,466,60,123.0,120,1,362,226,64,0,0,688,6274,2216,532,-5.59,,,,,,,,,,,,
477503,1564153222206,7,2.46,1.12,0.39,1.51,1.13,0.85,-0.95,0.29,20,1,25,1.27,7387,19,107,43,45,832,537.0,442,462,60,123.0,120,1,355,226,64,0,0,688,-28648,-2934,537,-5.59,,,,,,,,,,,,
477523,1564153222226,11,2.47,1.13,0.39,1.52,1.13,0.96,-0.93,0.29,21,1,27,1.34,7051,19,107,43,46,832,533.0,424,462,60,124.0,120,1,362,226,64,0,0,688,10408,2524,534,-5.59,,,,,,,,,,,,
477543,1564153222246,13,2.47,1.12,0.39,1.53,1.12,0.99,-0.89,0.33,21,8,23,1.33,7118,19,107,43,46,835,526.0,431,466,60,122.0,120,1,362,226,64,0,0,688,1,-8186,525,-5.59,44.681148,10.025079,55.15,173.7,0,0.0,-1,0.0,0.0,0,3.52,7.9591
477563,1564153222266,11,2.47,1.12,0.38,1.51,1.12,0.96,-0.9,0.22,21,6,22,1.32,7242,19,107,43,46,841,2067.0,434,462,60,124.0,120,1,362,143,64,0,0,2064,-2295,15661,2067,-5.59,,,,,,,,,,,,
477583,1564153222286,11,2.46,1.12,0.38,1.52,1.12,0.9,-0.95,0.14,20,3,24,1.31,7476,19,107,43,46,850,2067.0,436,463,60,122.0,30,1,362,226,63,0,0,2064,-16384,-8186,2067,-5.59,,,,,,,,,,,,
477603,1564153222308,8,2.46,1.11,0.38,1.53,1.12,0.92,-0.96,0.11,19,7,24,1.33,7851,19,107,43,45,857,504.0,471,461,60,123.0,30,1,355,224,63,0,0,2064,-23367,771,503,-5.59,,,,,,,,,,,,
477623,1564153222328,6,2.46,1.12,0.38,1.52,1.12,1.03,-0.95,0.16,17,4,25,1.4,8085,19,107,43,44,860,502.0,481,466,60,124.0,30,1,347,224,63,0,0,2064,-899,-1562,506,-5.59,,,,,,,,,,,,
477643,1564153222348,9,2.46,1.12,0.38,1.52,1.13,0.89,-0.95,0.13,18,4,25,1.31,8109,19,107,43,43,860,501.0,487,463,60,123.0,30,1,341,222,63,0,0,2064,10305,16383,501,-5.59,44.681137,10.025077,52.55,173.8,0,0.0,-1,0.0,0.0,0,3.53,7.9607
477663,1564153222368,5,2.47,1.12,0.38,1.51,1.12,1.01,-0.98,0.2,17,2,25,1.4,8159,19,107,43,42,853,504.0,503,466,60,122.0,30,1,334,220,63,0,0,2064,2212,1341,504,-5.59,,,,,,,,,,,,
477683,1564153222388,6,2.47,1.12,0.39,1.51,1.13,0.84,-0.96,0.14,18,2,26,1.28,8191,19,107,43,40,847,501.0,496,463,60,123.0,133,1,320,216,67,0,0,2064,32033,1248,501,-5.59,,,,,,,,,,,,
477703,1564153222408,4,2.47,1.12,0.38,1.51,1.12,0.96,-0.95,0.18,18,3,26,1.35,8198,19,107,43,40,840,500.0,500,467,60,122.0,133,1,320,216,67,0,0,2064,32033,1248,500,-5.59,,,,,,,,,,,,
477723,1564153222428,7,2.46,1.12,0.38,1.51,1.13,0.9,-0.92,0.21,18,2,25,1.29,8071,19,107,43,39,833,498.0,491,463,60,123.0,133,1,311,214,67,0,0,386,243,10994,497,-5.59,,,,,,,,,,,,
477743,1564153222448,9,2.47,1.12,0.38,1.52,1.12,0.86,-0.93,0.24,19,4,24,1.26,8078,19,107,43,39,834,492.0,482,463,60,123.0,133,1,311,214,67,0,0,463,30272,-32248,494,-5.59,44.681122,10.025074,50.73,173.8,0,0.0,-1,0.0,0.0,0,3.53,7.9624
477763,1564153222468,6,2.46,1.11,0.38,1.52,1.12,0.97,-0.95,0.3,19,4,24,1.36,8036,19,107,43,39,833,490.0,481,465,60,123.0,133,1,310,214,67,0,0,468,6193,10408,490,-5.59,,,,,,,,,,,,
477783,1564153222488,5,2.47,1.12,0.38,1.51,1.12,0.84,-1.0,0.29,18,5,24,1.31,8054,19,107,43,39,825,487.0,474,465,60,124.0,133,1,311,214,65,0,0,465,17628,10408,487,-5.59,,,,,,,,,,,,
477803,1564153222508,6,2.46,1.11,0.38,1.52,1.12,0.96,-1.0,0.36,18,7,21,1.39,8162,19,107,43,39,817,484.0,491,466,60,122.0,133,1,313,208,65,0,0,443,-9160,-10483,484,-5.59,,,,,,,,,,,,
477823,1564153222528,7,2.47,1.12,0.38,1.51,1.12,0.93,-1.02,0.32,17,4,21,1.38,8366,19,107,43,38,809,478.0,495,463,60,123.0,133,1,314,211,65,0,0,436,2524,10432,477,-5.59,,,,,,,,,,,,
477843,1564153222548,5,2.47,1.11,0.38,1.51,1.13,0.94,-0.92,0.28,16,3,23,1.32,8604,19,107,43,38,801,472.0,507,462,60,122.0,133,1,317,213,65,0,0,423,3571,243,472,-5.59,44.68111,10.02507,49.01,173.8,0,0.0,-1,0.0,0.0,0,3.53,7.964
477863,1564153222568,4,2.46,1.12,0.38,1.51,1.13,1.05,-0.81,0.4,16,3,23,1.33,8712,19,107,43,37,791,468.0,520,466,60,122.0,133,1,314,209,65,0,0,436,16648,-1923,468,-5.59,,,,,,,,,,,,
477883,1564153222588,2,2.47,1.11,0.38,1.51,1.13,1.07,-0.76,0.43,16,4,23,1.31,8676,19,107,43,36,782,467.0,525,464,60,123.0,144,1,311,207,68,0,0,447,2131,-9203,467,-5.59,,,,,,,,,,,,
477903,1564153222607,1,2.47,1.12,0.38,1.51,1.12,0.99,-0.88,0.42,16,4,22,1.32,8672,19,107,43,35,780,467.0,526,465,60,123.0,144,1,308,203,68,0,0,447,21432,3576,467,-5.59,,,,,,,,,,,,
477923,1564153222627,3,2.46,1.11,0.38,1.52,1.12,0.94,-0.84,0.36,17,4,23,1.26,8668,19,107,43,34,779,466.0,544,467,60,123.0,144,1,305,199,68,0,0,450,23400,-23367,465,-5.59,,,,,,,,,,,,
477943,1564153222647,2,2.47,1.12,0.38,1.51,1.13,0.99,-0.72,0.43,17,4,22,1.23,8620,19,107,43,34,780,466.0,530,461,60,121.0,144,1,305,199,68,0,0,449,26704,10305,466,-5.59,44.681099,10.025064,47.46,173.8,0,0.0,-1,0.0,0.0,0,3.53,7.9657
477963,1564153222667,1,2.47,1.11,0.39,1.51,1.13,1.07,-0.71,0.57,16,3,22,1.28,8664,19,107,43,34,782,463.0,517,465,60,122.0,144,1,305,199,68,0,0,451,26704,10432,463,-5.59,,,,,,,,,,,,
477983,1564153222687,0,2.47,1.12,0.38,1.51,1.12,1.03,-0.79,0.55,16,5,21,1.3,8656,19,107,43,34,785,464.0,512,464,60,123.0,140,1,305,199,65,0,0,450,20625,2212,464,-5.59,,,,,,,,,,,,
478003,1564153222707,4,2.46,1.12,0.38,1.52,1.13,0.91,-0.73,0.42,16,4,23,1.17,8608,19,107,43,34,788,460.0,509,462,60,123.0,140,1,305,199,65,0,0,449,-28332,-3210,460,-5.59,,,,,,,,,,,,
478023,1564153222727,2,2.46,1.12,0.38,1.52,1.12,1.01,-0.66,0.42,16,4,22,1.2,8581,19,107,43,34,794,459.0,505,462,60,122.0,140,1,305,199,65,0,0,449,-28332,-16384,458,-5.59,,,,,,,,,,,,
478043,1564153222747,1,2.46,1.12,0.38,1.52,1.12,1.02,-0.72,0.5,16,6,21,1.25,8530,19,107,43,34,800,457.0,495,467,60,124.0,140,1,305,199,65,0,0,446,-28332,30272,457,-5.59,44.681088,10.02506,46.08,173.9,0,0.0,-1,0.0,0.0,0,3.53,7.9674
478063,1564153222767,3,2.46,1.12,0.38,1.51,1.12,0.91,-0.67,0.42,16,4,21,1.13,8518,19,107,43,34,803,457.0,506,462,60,123.0,140,1,305,199,65,0,0,442,5600,8488,457,-5.59,,,,,,,,,,,,
478083,1564153222787,3,2.46,1.12,0.38,1.52,1.12,1.02,-0.57,0.4,15,3,22,1.17,8499,19,107,43,34,806,456.0,521,465,60,122.0,140,1,304,198,64,0,0,447,-7939,30272,456,-5.59,,,,,,,,,,,,
478103,1564153222807,1,2.46,1.12,0.38,1.52,1.12,1.03,-0.6,0.52,15,4,21,1.19,8503,19,107,43,34,805,454.0,523,464,60,123.0,140,1,305,199,64,0,0,445,-768,16408,454,-5.59,,,,,,,,,,,,
478123,1564153222827,4,2.45,1.11,0.38,1.51,1.13,0.91,-0.57,0.4,15,3,21,1.07,8538,19,107,43,34,803,454.0,521,463,60,123.0,140,1,305,199,64,0,0,443,-768,2211,454,-5.59,,,,,,,,,,,,
478143,1564153222847,3,2.45,1.11,0.38,1.52,1.13,0.96,-0.47,0.36,15,2,21,1.07,8480,19,107,43,35,800,451.0,520,464,60,122.0,140,1,307,198,64,0,0,441,243,-23623,452,-5.59,44.681076,10.025054,45.27,173.9,0,0.0,-1,0.0,0.0,0,3.53,7.969
478163,1564153222867,2,2.45,1.12,0.38,1.52,1.12,0.98,-0.45,0.37,15,2,20,1.08,8457,19,107,43,35,795,449.0,515,464,60,123.0,140,1,307,197,64,0,0,439,1779,-9160,449,-5.59,,,,,,,,,,,,
478183,1564153222887,2,2.45,1.12,0.38,1.51,1.12,0.89,-0.47,0.3,15,1,21,1.01,8430,19,107,43,35,790,447.0,516,462,60,122.0,140,1,306,200,63,0,0,438,3635,-9160,447,-5.59,,,,,,,,,,,,
478203,1564153222907,2,2.45,1.11,0.38,1.51,1.12,1.01,-0.39,0.33,15,-0,21,1.08,8438,19,107,43,35,786,447.0,507,465,60,122.0,140,1,306,200,63,0,0,434,31796,-9160,447,-5.59,,,,,,,,,,,,
478223,1564153222927,2,2.44,1.11,0.38,1.51,1.12,0.9,-0.46,0.35,15,1,19,1.01,8457,19,107,43,34,783,446.0,508,468,60,123.0,140,1,304,201,63,0,0,440,13552,2524,446,-5.59,,,,,,,,,,,,
478243,1564153222947,3,2.45,1.12,0.38,1.51,1.12,0.86,-0.41,0.27,15,-0,20,0.96,8449,19,107,43,35,783,444.0,497,466,60,123.0,140,1,306,200,63,0,0,431,31796,-8985,444,-5.59,44.681065,10.025047,44.83,173.9,0,0.0,-1,0.0,0.0,0,3.53,7.9707
478263,1564153222967,2,2.44,1.12,0.38,1.52,1.12,0.96,-0.43,0.36,15,1,19,1.05,8393,19,107,43,35,785,444.0,493,462,60,123.0,140,1,306,199,63,0,0,431,13552,-3267,444,-5.59,,,,,,,,,,,,
478283,1564153222987,4,2.44,1.11,0.38,1.51,1.13,0.83,-0.46,0.25,14,2,19,0.95,8359,19,107,43,35,788,441.0,496,466,60,123.0,142,1,305,198,63,0,0,433,-4082,-3267,441,-5.59,,,,,,,,,,,,
478303,1564153222997,5,2.43,1.12,0.38,1.51,1.13,0.95,-0.42,0.29,14,0,19,1.04,8374,19,107,43,35,791,440.0,507,462,60,121.0,142,1,305,198,63,0,0,429,-8165,21432,440,-5.59,,,,,,,,,,,,
478323,1564153223017,3,2.44,1.12,0.38,1.52,1.12,0.8,-0.49,0.33,14,2,18,0.94,8408,19,107,43,35,793,438.0,512,466,60,122.0,142,1,306,200,63,0,0,428,-3414,16648,438,-5.59,,,,,,,,,,,,
478343,1564153223037,6,2.44,1.11,0.37,1.51,1.12,0.81,-0.44,0.29,14,1,18,0.93,8389,19,107,43,35,797,436.0,513,466,60,122.0,142,1,305,199,63,0,0,429,-8165,2131,436,-5.59,44.681057,10.02504,44.17,173.9,0,0.0,-1,0.0,0.0,0,3.53,7.9724
478363,1564153223057,4,2.43,1.11,0.38,1.51,1.12,0.89,-0.42,0.35,14,2,18,0.98,8393,19,107,43,36,803,434.0,515,462,60,122.0,142,1,308,198,63,0,0,429,-21944,21580,434,-5.59,,,,,,,,,,,,
478383,1564153223077,5,2.44,1.11,0.38,1.5,1.12,0.79,-0.42,0.28,14,3,18,0.89,8348,19,107,43,36,809,434.0,525,463,60,122.0,145,1,307,203,63,0,0,425,18584,8488,434,-5.59,,,,,,,,,,,,
478403,1564153223107,5,2.43,1.11,0.38,1.52,1.12,0.91,-0.39,0.36,13,2,18,0.99,8333,19,107,43,36,813,432.0,514,463,60,121.0,145,1,307,198,63,0,0,422,2524,-7939,430,-5.59,,,,,,,,,,,,
478423,1564153223127,6,2.44,1.11,0.38,1.51,1.12,0.74,-0.38,0.27,14,2,18,0.84,8355,19,107,43,35,818,430.0,508,464,60,123.0,145,1,305,198,63,0,0,425,2524,-7939,430,-5.59,,,,,,,,,,,,
478443,1564153223147,4,2.44,1.11,0.38,1.51,1.12,0.87,-0.36,0.39,14,2,17,0.94,8311,19,107,43,36,827,430.0,505,463,60,122.0,145,1,307,201,63,0,0,424,13040,23400,430,-5.59,44.681046,10.025033,43.46,173.9,0,0.0,-1,0.0,0.0,0,3.54,7.974
478463,1564153223167,6,2.43,1.11,0.37,1.51,1.13,0.75,-0.33,0.37,14,2,17,0.82,8202,19,107,43,36,835,428.0,489,464,60,123.0,145,1,305,200,63,0,0,430,13040,23400,425,-5.59,,,,,,,,,,,,
478483,1564153223187,3,2.44,1.11,0.37,1.51,1.12,0.88,-0.35,0.48,13,3,16,0.95,8074,19,107,43,37,840,426.0,492,465,60,122.0,140,1,305,203,60,0,0,428,9517,-7939,426,-5.59,,,,,,,,,,,,
478503,1564153223207,3,2.44,1.11,0.38,1.51,1.13,0.85,-0.32,0.52,13,2,15,0.91,8019,19,107,43,36,845,424.0,478,463,60,123.0,140,1,301,203,60,0,0,432,11560,20625,424,-5.59,,,,,,,,,,,,
478523,1564153223227,4,2.42,1.11,0.38,1.5,1.12,0.79,-0.27,0.44,13,3,15,0.83,7914,19,107,43,37,849,426.0,474,465,60,123.0,140,1,304,201,60,0,0,426,-4059,-768,424,-5.59,,,,,,,,,,,,
478543,1564153223247,3,2.42,1.11,0.38,1.51,1.12,0.8,-0.28,0.52,14,4,14,0.85,7851,19,107,43,38,853,424.0,487,464,60,122.0,140,1,307,208,60,0,0,421,9517,1779,424,-5.59,44.681038,10.025025,42.7,173.9,0,0.0,-1,0.0,0.0,0,3.54,7.9757
478563,1564153223267,2,2.43,1.11,0.38,1.51,1.13,0.9,-0.3,0.6,13,4,13,0.94,7838,19,107,43,38,853,421.0,482,463,60,123.0,140,1,307,208,60,0,0,421,-4059,-3322,421,-5.59,,,,,,,,,,,,
478583,1564153223287,1,2.43,1.11,0.38,1.51,1.12,0.94,-0.29,0.61,13,3,14,0.98,7802,19,107,43,38,852,424.0,472,462,60,123.0,144,1,307,208,61,0,0,419,11560,1779,424,-5.59,,,,,,,,,,,,
478603,1564153223307,3,2.42,1.1,0.37,1.5,1.13,0.87,-0.22,0.55,12,2,14,0.9,7815,19,107,43,39,851,423.0,482,466,60,123.0,144,1,310,213,61,0,0,420,9517,13180,421,-5.59,,,,,,,,,,,,
478623,1564153223327,4,2.42,1.1,0.38,1.51,1.12,0.73,-0.17,0.41,12,2,13,0.75,7802,19,107,43,39,849,421.0,472,466,60,122.0,144,1,310,131,61,0,0,416,-26615,31796,421,-5.59,,,,,,,,,,,,
478643,1564153223347,1,2.42,1.11,0.37,1.51,1.12,0.78,-0.22,0.41,12,2,15,0.81,7799,19,107,43,40,847,420.0,482,464,60,123.0,144,1,317,214,61,0,0,420,-9211,3635,420,-5.59,44.681026,10.025017,42.09,173.9,0,0.0,-1,0.0,0.0,0,3.54,7.9774
478663,1564153223367,1,2.42,1.11,0.38,1.51,1.12,0.9,-0.27,0.53,11,0,15,0.94,7851,19,107,43,39,846,419.0,477,465,60,123.0,144,1,310,214,61,0,0,414,-8151,13180,419,-5.59,,,,,,,,,,,,
478683,1564153223387,2,2.42,1.1,0.37,1.5,1.12,0.92,-0.27,0.57,11,-1,13,0.96,7838,19,107,43,40,840,420.0,475,462,60,123.0,150,1,317,214,63,0,0,412,1504,-21792,418,-5.59,,,,,,,,,,,,
478703,1564153223407,2,2.42,1.11,0.38,1.5,1.13,0.8,-0.24,0.46,11,0,14,0.83,7888,19,107,43,40,834,418.0,478,468,60,122.0,150,1,317,214,63,0,0,413,1504,3826,418,-5.59,,,,,,,,,,,,
478723,1564153223427,1,2.42,1.11,0.38,1.51,1.12,0.84,-0.23,0.44,12,1,15,0.87,7918,19,107,43,40,831,418.0,476,465,60,122.0,150,1,317,214,63,0,0,414,10541,-3314,418,-5.59,,,,,,,,,,,,
478743,1564153223447,0,2.43,1.11,0.38,1.51,1.13,0.96,-0.22,0.54,12,1,14,0.98,7871,19,107,43,40,827,416.0,474,463,60,122.0,150,1,317,214,63,0,0,412,6512,13180,416,-5.59,44.681023,10.025008,41.47,173.9,0,0.0,-1,0.0,0.0,0,3.54,7.9791
478763,1564153223467,2,2.42,1.11,0.38,1.5,1.12,0.9,-0.21,0.54,12,-0,13,0.92,7908,19,107,43,40,824,416.0,474,465,60,123.0,150,1,317,214,63,0,0,412,11545,13180,416,-5.59,,,,,,,,,,,,
478783,1564153223487,3,2.43,1.11,0.37,1.51,1.12,0.78,-0.18,0.43,12,1,14,0.8,7878,19,107,43,40,820,415.0,472,462,60,123.0,154,1,317,214,64,0,0,412,6512,-4082,414,-5.59,,,,,,,,,,,,
478803,1564153223507,1,2.42,1.11,0.38,1.5,1.13,0.85,-0.17,0.49,12,2,13,0.86,7898,19,107,43,40,819,413.0,480,468,60,122.0,154,1,317,214,64,0,0,410,11545,-4082,413,-5.59,,,,,,,,,,,,
478823,1564153223527,-0,2.42,1.11,0.38,1.5,1.13,0.9,-0.15,0.52,12,1,13,0.91,7958,19,107,43,40,819,414.0,486,466,60,122.0,154,1,317,214,64,0,0,410,11545,3826,414,-5.59,,,,,,,,,,,,
478843,1564153223547,3,2.42,1.1,0.37,1.51,1.12,0.75,-0.09,0.41,12,2,14,0.75,7928,19,107,43,40,820,414.0,482,463,60,123.0,154,1,317,214,64,0,0,415,10541,-21792,414,-5.59,44.681011,10.025001,40.98,173.9,0,0.0,-1,0.0,0.0,0,3.54,7.9807
478863,1564153223567,5,2.42,1.11,0.38,1.5,1.13,0.67,-0.09,0.45,13,4,12,0.68,7891,19,107,43,40,821,413.0,495,463,60,122.0,154,1,317,214,64,0,0,414,10541,31796,413,-5.59,,,,,,,,,,,,
478883,1564153223587,-0,2.42,1.11,0.37,1.5,1.12,0.74,-0.2,0.6,12,4,11,0.76,7891,19,107,43,40,821,413.0,487,466,60,122.0,154,1,317,214,64,0,0,419,11545,3635,413,-5.59,,,,,,,,,,,,
478903,1564153223606,1,2.43,1.1,0.37,1.51,1.12,0.8,-0.2,0.61,12,2,12,0.83,7796,19,107,43,39,822,414.0,486,461,60,122.0,154,1,310,214,64,0,0,415,10541,-4082,415,-5.59,,,,,,,,,,,,
478923,1564153223626,1,2.42,1.1,0.37,1.51,1.12,0.76,-0.08,0.58,11,-0,12,0.77,7796,19,107,43,40,825,413.0,478,464,60,123.0,154,1,317,214,64,0,0,414,11545,13180,413,-5.59,,,,,,,,,,,,
478943,1564153223646,2,2.43,1.09,0.38,1.49,1.12,0.7,-0.09,0.48,11,0,12,0.7,7754,19,107,43,40,828,414.0,472,466,60,122.0,154,1,317,214,64,0,0,416,-8151,-4082,414,-5.59,44.681004,10.02499,41.04,173.9,0,0.0,-1,0.0,0.0,0,3.54,7.9824
478963,1564153223666,2,2.42,1.1,0.38,1.49,1.12,0.72,-0.14,0.44,11,0,13,0.73,7747,19,107,43,40,830,411.0,482,464,60,122.0,154,1,317,214,64,0,0,414,11545,-3856,411,-5.59,,,,,,,,,,,,
478983,1564153223686,-0,2.42,1.1,0.38,1.49,1.13,0.85,-0.18,0.53,11,1,14,0.87,7799,19,107,43,40,832,412.0,473,463,60,122.0,152,1,317,214,63,0,0,412,-8151,31796,412,-5.59,,,,,,,,,,,,
479003,1564153223706,1,2.42,1.09,0.37,1.5,1.12,0.97,-0.19,0.6,11,1,12,0.99,7789,19,107,43,40,837,414.0,478,464,60,124.0,152,1,317,214,63,0,0,412,11545,-4082,413,-5.59,,,,,,,,,,,,
479023,1564153223726,2,2.42,1.1,0.38,1.51,1.12,0.89,-0.18,0.55,11,-0,12,0.91,7845,19,107,43,40,842,414.0,475,463,60,123.0,152,1,317,214,63,0,0,413,10541,-3414,414,-5.59,,,,,,,,,,,,
479043,1564153223746,3,2.42,1.1,0.37,1.5,1.12,0.78,-0.16,0.47,11,1,13,0.8,7841,19,107,43,40,846,413.0,479,465,60,122.0,152,1,317,214,63,0,0,413,-8151,3826,413,-5.59,44.680996,10.024981,40.64,174.0,0,0.0,-1,0.0,0.0,0,3.54,7.984
479063,1564153223766,-1,2.43,1.1,0.37,1.5,1.12,0.78,-0.15,0.49,11,3,12,0.8,7841,19,107,43,40,850,413.0,487,464,60,122.0,152,1,317,214,63,0,0,414,10541,-21944,413,-5.59,,,,,,,,,,,,
479083,1564153223786,0,2.42,1.1,0.38,1.5,1.12,0.88,-0.18,0.57,12,3,11,0.9,7871,19,107,43,40,855,413.0,484,464,60,121.0,152,1,317,214,63,0,0,417,6512,7154,413,-5.59,,,,,,,,,,,,
479103,1564153223806,1,2.42,1.1,0.37,1.5,1.12,0.87,-0.17,0.57,11,2,12,0.89,7825,19,107,43,40,861,412.0,480,463,60,123.0,152,1,317,214,63,0,0,415,11545,3826,412,-5.59,,,,,,,,,,,,
479123,1564153223826,1,2.43,1.1,0.38,1.5,1.12,0.7,-0.16,0.51,11,1,11,0.72,7845,19,107,43,40,865,413.0,481,465,60,123.0,152,1,317,214,63,0,0,417,10541,-21944,412,-5.59,,,,,,,,,,,,
479143,1564153223846,1,2.43,1.1,0.38,1.5,1.13,0.63,-0.17,0.46,11,2,11,0.66,7802,19,107,43,40,868,412.0,478,465,60,120.0,152,1,317,214,63,0,0,413,10541,-3856,412,-5.59,44.680988,10.024972,40.83,174.0,0,0.0,-1,0.0,0.0,0,3.54,7.9857
479163,1564153223866,0,2.43,1.09,0.37,1.5,1.12,0.71,-0.26,0.52,11,2,12,0.76,7783,19,107,43,40,870,412.0,481,464,60,122.0,152,1,317,214,63,0,0,413,11545,-4082,412,-5.59,,,,,,,,,,,,
479183,1564153223886,1,2.43,1.1,0.37,1.5,1.12,0.84,-0.27,0.59,10,-0,12,0.88,7812,19,107,43,40,872,413.0,485,462,60,122.0,152,1,317,214,63,0,0,414,28696,31796,413,-5.59,,,,,,,,,,,,
479203,1564153223908,1,2.42,1.1,0.38,1.51,1.13,0.89,-0.23,0.59,10,-1,11,0.92,7754,19,107,43,40,872,412.0,469,461,60,123.0,152,1,317,214,63,0,0,413,28696,3826,412,-5.59,,,,,,,,,,,,
479223,1564153223928,2,2.42,1.1,0.38,1.51,1.12,0.79,-0.21,0.48,10,-1,12,0.82,7789,19,107,43,40,870,413.0,470,466,60,123.0,152,1,317,214,63,0,0,412,6512,-4082,414,-5.59,,,,,,,,,,,,
479243,1564153223948,3,2.42,1.1,0.38,1.5,1.12,0.71,-0.2,0.47,11,1,13,0.74,7780,19,107,44,40,868,415.0,467,467,60,122.0,152,1,317,213,63,0,0,410,6512,31796,415,-5.59,44.680981,10.024962,41.12,174.0,0,0.0,-1,0.0,0.0,0,3.55,7.9874
479263,1564153223968,-1,2.42,1.09,0.38,1.5,1.12,0.79,-0.21,0.52,11,2,11,0.82,7793,19,107,43,40,866,412.0,478,465,60,122.0,152,1,317,214,63,0,0,408,6512,-8165,412,-5.59,,,,,,,,,,,,
479283,1564153223988,0,2.43,1.1,0.37,1.5,1.12,0.88,-0.19,0.55,11,1,11,0.9,7838,19,107,43,40,864,413.0,470,464,60,122.0,152,1,317,214,63,0,0,410,28696,13552,413,-5.59,,,,,,,,,,,,
479303,1564153223998,3,2.43,1.1,0.37,1.51,1.13,0.85,-0.19,0.53,11,-0,13,0.87,7796,19,107,44,40,863,413.0,472,463,60,123.0,152,1,317,213,63,0,0,413,28696,-4082,413,-5.59,,,,,,,,,,,,
479323,1564153224018,2,2.43,1.1,0.38,1.51,1.12,0.69,-0.23,0.48,11,1,11,0.72,7825,19,107,44,40,863,411.0,477,465,60,122.0,152,1,317,213,63,0,0,411,6384,7154,410,-5.59,,,,,,,,,,,,
479343,1564153224038,4,2.42,1.1,0.37,1.51,1.12,0.57,-0.27,0.45,11,3,11,0.63,7809,19,107,44,40,865,410.0,477,468,60,123.0,152,1,317,213,63,0,0,414,28696,18584,410,-5.59,44.680973,10.024953,40.85,174.0,0,0.0,-1,0.0,0.0,0,3.55,7.989
479363,1564153224058,1,2.43,1.1,0.38,1.5,1.12,0.65,-0.3,0.48,11,3,13,0.72,7722,19,107,43,40,867,410.0,483,463,60,123.0,152,1,317,214,63,0,0,413,28696,-3414,410,-5.59,,,,,,,,,,,,
479383,1564153224078,1,2.42,1.1,0.38,1.5,1.12,0.79,-0.28,0.6,11,2,13,0.84,7738,19,107,43,40,869,410.0,475,463,60,123.0,151,1,317,214,62,0,0,409,17144,-8165,410,-5.59,,,,,,,,,,,,
479403,1564153224108,2,2.43,1.1,0.37,1.5,1.12,0.9,-0.29,0.67,11,1,10,0.94,7687,19,107,44,40,872,407.0,469,461,60,123.0,151,1,317,213,62,0,0,407,17144,2524,407,-5.59,,,,,,,,,,,,
479423,1564153224128,5,2.42,1.1,0.37,1.5,1.12,0.92,-0.21,0.61,11,-1,11,0.94,7703,19,107,44,41,873,407.0,473,463,60,123.0,151,1,325,213,62,0,0,408,17144,-21944,407,-5.59,,,,,,,,,,,,
479443,1564153224148,3,2.42,1.1,0.38,1.5,1.12,0.83,-0.18,0.59,11,-2,12,0.85,7653,19,107,44,41,875,406.0,467,463,60,122.0,151,1,325,213,62,0,0,408,-1818,-21944,406,-5.59,44.680965,10.024942,40.84,174.0,0,0.0,-1,0.0,0.0,0,3.55,7.9907
479463,1564153224168,4,2.42,1.1,0.37,1.51,1.12,0.69,-0.14,0.45,11,-2,11,0.71,7665,19,107,44,41,874,406.0,471,464,60,123.0,151,1,325,215,62,0,0,404,-6656,-26615,406,-5.59,,,,,,,,,,,,
479483,1564153224188,3,2.43,1.1,0.38,1.5,1.12,0.57,-0.17,0.33,11,-1,11,0.59,7618,19,107,44,41,874,405.0,459,464,60,122.0,150,1,325,213,61,0,0,403,1,9517,405,-5.59,,,,,,,,,,,,
479503,1564153224208,5,2.43,1.1,0.38,1.5,1.13,0.49,-0.2,0.23,11,0,13,0.53,7628,19,107,44,41,874,404.0,470,465,60,122.0,150,1,325,215,61,0,0,404,-6656,-26615,404,-5.59,,,,,,,,,,,,
479523,1564153224228,6,2.42,1.1,0.38,1.5,1.12,0.47,-0.21,0.19,11,2,14,0.52,7628,19,107,44,41,875,401.0,468,466,60,121.0,150,1,325,215,61,0,0,403,-1562,-4059,401,-5.59,,,,,,,,,,,,
479543,1564153224248,6,2.42,1.1,0.38,1.49,1.12,0.49,-0.18,0.29,12,4,11,0.52,7594,19,107,44,41,877,401.0,467,464,60,122.0,150,1,325,215,61,0,0,401,-31744,-26615,401,-5.59,44.680962,10.024932,40.43,174.0,0,0.0,-1,0.0,0.0,0,3.55,7.9924
479563,1564153224268,2,2.42,1.1,0.38,1.49,1.13,0.58,-0.28,0.41,11,5,11,0.65,7603,19,107,44,41,879,399.0,467,465,60,122.0,150,1,325,215,61,0,0,401,-31744,10392,399,-5.59,,,,,,,,,,,,
479583,1564153224288,1,2.43,1.1,0.38,1.5,1.12,0.69,-0.31,0.5,11,5,14,0.76,7566,18,107,44,41,883,400.0,466,462,60,122.0,155,1,325,215,62,0,0,403,-31744,-9166,400,-5.59,,,,,,,,,,,,
479603,1564153224302,3,2.42,1.1,0.38,1.5,1.13,0.82,-0.32,0.65,11,5,14,0.88,7575,19,107,44,41,888,399.0,467,461,60,123.0,155,1,325,215,62,0,0,400,-6475,-4059,399,-5.59,,,,,,,,,,,,
479623,1564153224322,3,2.42,1.1,0.37,1.51,1.12,0.94,-0.31,0.78,11,5,11,1.0,7524,19,107,44,41,891,398.0,461,465,60,123.0,155,1,325,215,62,0,0,398,-3866,11560,398,-5.59,,,,,,,,,,,,
479643,1564153224342,2,2.43,1.1,0.38,1.5,1.13,1.05,-0.37,0.9,10,6,11,1.12,7509,19,107,44,41,894,398.0,467,462,60,123.0,155,1,325,215,62,0,0,397,-19019,13040,398,-5.59,44.680954,10.024921,40.16,174.0,0,0.0,-1,0.0,0.0,0,3.55,7.994
479663,1564153224362,3,2.42,1.1,0.38,1.5,1.13,1.15,-0.36,0.95,10,6,13,1.21,7452,19,107,44,41,897,397.0,460,465,60,123.0,155,1,325,214,62,0,0,398,-19126,1504,398,-5.59,,,,,,,,,,,,
479683,1564153224382,2,2.42,1.1,0.37,1.5,1.12,1.24,-0.37,1.04,10,5,13,1.29,7473,19,107,44,41,900,395.0,458,463,60,123.0,151,1,325,214,60,0,0,393,-18948,-8151,396,-5.59,,,,,,,,,,,,
479703,1564153224408,2,2.43,1.09,0.37,1.5,1.13,1.26,-0.31,1.07,10,6,11,1.3,7437,19,107,44,41,901,395.0,472,468,60,123.0,151,1,325,214,60,0,0,393,-992,10541,394,-5.59,,,,,,,,,,,,
479723,1564153224428,6,2.42,1.1,0.38,1.5,1.13,1.23,-0.41,1.11,10,8,12,1.29,7449,18,107,44,42,901,393.0,462,463,60,123.0,151,1,332,216,60,0,0,393,-992,2524,393,-5.59,,,,,,,,,,,,
479743,1564153224448,5,2.43,1.1,0.37,1.5,1.12,1.21,-0.4,1.08,10,9,15,1.27,7411,19,107,44,42,905,393.0,463,467,60,121.0,151,1,332,216,60,0,0,395,8200,1504,394,-5.59,44.680946,10.024911,39.42,174.0,0,0.0,-1,0.0,0.0,0,3.55,7.9957
479763,1564153224468,5,2.42,1.1,0.37,1.5,1.12,1.11,-0.34,0.99,11,11,14,1.16,7434,19,107,44,42,910,391.0,454,466,60,122.0,151,1,332,216,60,0,0,390,-992,10541,391,-5.59,,,,,,,,,,,,
479783,1564153224488,5,2.42,1.1,0.37,1.5,1.13,0.96,-0.33,0.97,11,12,12,1.01,7396,19,107,44,42,915,392.0,460,465,60,121.0,153,1,332,216,60,0,0,390,2278,6512,392,-5.59,,,,,,,,,,,,
479803,1564153224508,4,2.43,1.1,0.38,1.5,1.12,0.78,-0.32,0.76,11,11,13,0.85,7390,19,107,44,42,921,391.0,450,465,60,122.0,153,1,332,216,60,0,0,391,3,11545,391,-5.59,,,,,,,,,,,,
479823,1564153224528,3,2.43,1.1,0.38,1.49,1.13,0.65,-0.31,0.57,12,11,14,0.72,7350,19,107,44,42,927,388.0,464,468,60,122.0,153,1,332,216,60,0,0,389,3,6512,388,-5.59,,,,,,,,,,,,
479843,1564153224548,3,2.43,1.09,0.37,1.5,1.13,0.53,-0.24,0.48,12,10,14,0.58,7338,19,107,44,42,934,390.0,450,462,60,123.0,153,1,332,216,60,0,0,390,742,-3968,387,-5.59,44.680943,10.0249,39.16,174.1,0,0.0,-1,0.0,0.0,0,3.55,7.9974
479863,1564153224568,2,2.43,1.1,0.37,1.5,1.12,0.5,-0.2,0.35,11,6,13,0.54,7341,19,107,44,43,938,387.0,453,465,60,123.0,153,1,340,216,60,0,0,388,770,-32702,388,-5.59,,,,,,,,,,,,
479883,1564153224588,2,2.43,1.1,0.37,1.51,1.12,0.64,-0.26,0.39,10,3,12,0.69,7301,19,107,44,43,939,387.0,447,463,60,123.0,155,1,340,216,60,0,0,385,3,6512,386,-5.59,,,,,,,,,,,,
479903,1564153224607,2,2.43,1.09,0.38,1.5,1.13,0.78,-0.29,0.55,10,2,12,0.83,7335,18,107,44,43,941,386.0,451,462,60,124.0,155,1,340,219,60,0,0,386,742,-3968,386,-5.59,,,,,,,,,,,,
479923,1564153224627,2,2.43,1.09,0.38,1.5,1.12,0.91,-0.29,0.64,9,1,14,0.95,7298,19,107,44,43,944,384.0,461,465,60,121.0,155,1,340,219,60,0,0,386,770,17144,384,-5.59,,,,,,,,,,,,
479943,1564153224647,6,2.42,1.1,0.38,1.51,1.13,0.99,-0.26,0.73,9,2,14,1.02,7318,18,107,44,43,947,386.0,458,460,60,122.0,155,1,340,219,60,0,0,386,-6656,1,384,-5.59,44.680935,10.024889,38.78,174.1,0,0.0,-1,0.0,0.0,0,3.55,7.9991
479963,1564153224667,5,2.42,1.09,0.38,1.5,1.12,0.84,-0.25,0.75,10,4,11,0.88,7261,18,107,44,44,948,384.0,460,464,60,122.0,155,1,347,219,60,0,0,388,742,-3866,383,-5.59,,,,,,,,,,,,
479983,1564153224687,4,2.42,1.09,0.37,1.5,1.12,0.69,-0.2,0.55,10,5,12,0.72,7233,18,107,44,43,952,383.0,447,465,60,123.0,156,1,340,219,60,0,0,385,257,-6656,383,-5.59,,,,,,,,,,,,
480003,1564153224707,3,2.42,1.09,0.37,1.5,1.12,0.62,-0.16,0.44,10,5,12,0.64,7228,18,107,44,44,957,382.0,450,465,60,123.0,156,1,347,221,60,0,0,382,486,-6656,382,-5.59,,,,,,,,,,,,
480023,1564153224727,2,2.43,1.09,0.38,1.5,1.12,0.71,-0.2,0.49,10,1,13,0.74,7164,18,107,44,44,961,382.0,447,463,60,123.0,156,1,347,139,60,0,0,383,0,-6656,382,-5.59,,,,,,,,,,,,
480043,1564153224747,5,2.43,1.09,0.38,1.49,1.13,0.84,-0.22,0.54,10,1,13,0.87,7178,18,107,44,44,964,381.0,443,463,60,122.0,156,1,347,221,60,0,0,382,0,-6656,381,-5.59,44.680927,10.024879,38.25,174.1,0,0.0,-1,0.0,0.0,0,3.55,8.0007
480063,1564153224767,5,2.42,1.1,0.37,1.5,1.12,0.72,-0.2,0.5,10,2,12,0.75,7145,18,107,44,44,967,379.0,447,465,60,121.0,156,1,347,221,60,0,0,378,0,-6524,379,-5.59,,,,,,,,,,,,
480083,1564153224787,3,2.42,1.09,0.38,1.5,1.12,0.65,-0.17,0.37,10,3,13,0.67,7145,18,107,44,44,968,379.0,432,466,60,122.0,158,1,347,139,60,0,0,378,0,240,379,-5.59,,,,,,,,,,,,
480103,1564153224807,3,2.42,1.09,0.38,1.51,1.13,0.71,-0.17,0.44,10,2,13,0.73,7161,18,107,44,44,968,379.0,441,466,60,122.0,158,1,347,221,60,0,0,376,230,-6524,379,-5.59,,,,,,,,,,,,
480123,1564153224827,6,2.41,1.1,0.38,1.5,1.12,0.83,-0.16,0.58,10,1,14,0.85,7110,18,107,44,44,966,377.0,446,465,60,122.0,158,1,347,222,60,0,0,378,-6405,19125,377,-5.59,,,,,,,,,,,,
480143,1564153224847,5,2.42,1.09,0.37,1.5,1.13,0.85,-0.1,0.48,10,2,13,0.85,7159,18,107,44,45,965,375.0,442,464,60,122.0,158,1,355,222,60,0,0,375,-1268,19125,375,-5.59,44.680923,10.024867,37.97,174.1,0,0.0,-1,0.0,0.0,0,3.55,8.0024
480163,1564153224867,4,2.41,1.09,0.37,1.5,1.12,0.7,-0.09,0.35,10,3,12,0.71,7153,18,107,44,45,964,376.0,452,467,60,122.0,158,1,355,222,60,0,0,373,2790,-3866,376,-5.59,,,,,,,,,,,,
480183,1564153224887,3,2.41,1.09,0.37,1.5,1.12,0.72,-0.16,0.37,10,1,11,0.74,7086,18,107,44,45,964,372.0,437,462,60,123.0,158,1,355,221,59,0,0,376,-6458,-31744,372,-5.59,,,,,,,,,,,,
480203,1564153224907,6,2.41,1.09,0.38,1.5,1.13,0.75,-0.25,0.52,9,1,12,0.79,7086,18,107,44,45,966,373.0,446,465,60,122.0,158,1,355,222,59,0,0,374,2790,-19126,373,-5.59,,,,,,,,,,,,
480223,1564153224927,3,2.42,1.09,0.37,1.49,1.13,0.77,-0.25,0.44,10,3,13,0.81,7046,18,107,44,45,968,371.0,447,467,60,121.0,158,1,355,222,59,0,0,374,2790,19125,371,-5.59,,,,,,,,,,,,
480243,1564153224947,3,2.41,1.08,0.37,1.51,1.12,0.59,-0.23,0.42,10,3,11,0.63,7040,18,107,44,45,972,372.0,435,463,60,123.0,158,1,355,222,59,0,0,371,-6458,-992,372,-5.59,44.68092,10.024857,37.51,174.2,0,0.0,-1,0.0,0.0,0,3.56,8.0041
480263,1564153224967,6,2.41,1.09,0.37,1.5,1.12,0.73,-0.26,0.52,9,1,11,0.78,7067,18,107,44,45,976,371.0,438,464,60,122.0,158,1,355,222,59,0,0,375,-6458,8200,371,-5.59,,,,,,,,,,,,
480283,1564153224987,5,2.41,1.09,0.38,1.49,1.12,0.72,-0.21,0.5,10,3,10,0.75,7014,18,107,44,45,979,369.0,447,465,60,122.0,159,1,355,222,59,0,0,372,-29978,2278,369,-5.59,,,,,,,,,,,,
480303,1564153224997,3,2.4,1.09,0.37,1.5,1.12,0.67,-0.18,0.44,10,2,11,0.7,6996,18,107,44,45,982,370.0,438,466,60,121.0,159,1,355,222,59,0,0,373,-29978,3,370,-5.59,,,,,,,,,,,,
480323,1564153225017,4,2.4,1.09,0.38,1.5,1.12,0.71,-0.21,0.6,9,1,11,0.74,6993,18,107,44,45,987,369.0,433,465,60,122.0,159,1,354,222,59,0,0,371,-6640,-992,369,-5.59,,,,,,,,,,,,
480343,1564153225037,4,2.4,1.09,0.38,1.5,1.12,0.82,-0.13,0.58,9,2,12,0.83,6939,18,107,44,45,991,366.0,437,463,60,122.0,159,1,354,223,59,0,0,371,-29978,8200,369,-5.59,44.680916,10.024845,37.21,174.2,0,0.0,-1,0.0,0.0,0,3.56,8.0057
480363,1564153225057,4,2.4,1.08,0.37,1.5,1.12,0.72,-0.13,0.53,9,2,10,0.73,6934,18,107,44,46,993,369.0,424,463,60,123.0,159,1,361,222,59,0,0,368,-6640,8200,369,-5.59,,,,,,,,,,,,
480383,1564153225077,5,2.4,1.09,0.37,1.49,1.12,0.85,-0.13,0.61,9,-0,10,0.86,6936,18,107,44,46,995,367.0,433,463,60,123.0,157,1,361,223,58,0,0,368,4104,-6656,367,-5.59,,,,,,,,,,,,
480403,1564153225097,4,2.4,1.09,0.37,1.5,1.12,0.78,-0.11,0.53,9,2,10,0.79,6916,18,107,44,46,995,372.0,436,464,60,123.0,157,1,361,223,58,0,0,465,-29978,742,372,-5.59,,,,,,,,,,,,
480423,1564153225117,3,2.39,1.08,0.35,1.49,1.12,0.82,-0.12,0.54,9,0,11,0.83,6921,18,107,44,46,994,362.0,428,462,60,123.0,157,1,361,223,58,0,0,465,3183,1,362,-5.59,,,,,,,,,,,,
480443,1564153225137,5,2.39,1.09,0.37,1.49,1.13,0.86,-0.08,0.58,9,1,12,0.86,6941,18,107,44,46,992,363.0,432,466,60,121.0,157,1,361,223,58,0,0,465,-6644,-6656,363,-5.59,44.680908,10.024834,36.98,174.2,0,0.0,-1,0.0,0.0,0,3.56,8.0074
480463,1564153225157,3,2.39,1.08,0.37,1.49,1.12,0.77,0.01,0.44,9,3,12,0.77,6939,18,107,44,46,990,360.0,438,463,60,121.0,157,1,361,223,58,0,0,465,-6644,-6656,360,-5.59,,,,,,,,,,,,
480483,1564153225177,7,2.38,1.08,0.37,1.5,1.12,0.83,-0.06,0.58,8,-0,12,0.83,6903,18,107,44,46,988,360.0,426,457,60,123.0,160,1,361,223,58,0,0,465,3183,-6656,360,-5.59,,,,,,,,,,,,
480503,1564153225207,4,2.37,1.08,0.37,1.49,1.12,0.8,0.02,0.46,8,2,11,0.8,6880,18,107,44,46,985,359.0,431,464,60,122.0,160,1,360,223,58,0,0,465,28553,-6656,359,-5.59,,,,,,,,,,,,
480523,1564153225227,6,2.36,1.07,0.37,1.49,1.11,0.81,-0.06,0.48,7,-0,10,0.82,6855,18,107,44,46,985,357.0,428,465,60,123.0,160,1,360,223,58,0,0,359,2811,1,357,-5.59,,,,,,,,,,,,
480543,1564153225247,5,2.35,1.06,0.37,1.48,1.12,0.81,-0.07,0.43,7,1,9,0.81,6781,18,107,44,47,985,358.0,432,465,60,122.0,160,1,367,224,58,0,0,361,28553,230,357,-5.59,44.680904,10.024821,36.35,174.2,0,0.0,-1,0.0,0.0,0,3.56,8.0091
480563,1564153225267,5,2.34,1.06,0.37,1.48,1.11,0.77,-0.07,0.36,6,1,10,0.77,6781,18,107,44,47,981,356.0,414,461,60,124.0,160,1,367,224,58,0,0,360,28553,0,356,-5.59,,,,,,,,,,,,
480583,1564153225287,4,2.34,1.03,0.36,1.46,1.11,0.84,-0.01,0.42,6,-0,11,0.84,6800,18,107,44,47,979,355.0,425,462,60,123.0,160,1,368,225,57,0,0,362,-30454,3082,355,-5.59,,,,,,,,,,,,
480603,1564153225307,4,2.33,1.02,0.35,1.44,1.09,0.76,0.06,0.46,5,1,9,0.76,6788,18,107,44,47,976,354.0,420,462,60,123.0,160,1,367,224,57,0,0,361,-30454,230,353,-5.59,,,,,,,,,,,,
480623,1564153225327,5,2.31,0.99,0.34,1.41,1.08,0.88,0.07,0.54,5,0,8,0.89,6754,18,107,44,47,974,352.0,418,462,60,123.0,160,1,367,224,57,0,0,362,2811,-29978,352,-5.59,,,,,,,,,,,,
480643,1564153225347,3,2.31,0.95,0.34,1.38,1.07,0.77,0.08,0.49,4,-0,7,0.77,6730,18,107,44,47,972,353.0,412,463,60,123.0,160,1,367,224,57,0,0,365,2811,2060,353,-5.59,44.680904,10.024811,35.87,174.3,0,0.0,-1,0.0,0.0,0,3.56,8.0107
480663,1564153225367,4,2.31,0.92,0.32,1.35,1.05,0.88,0.11,0.44,4,0,6,0.89,6742,18,107,44,47,972,349.0,423,468,60,121.0,160,1,367,224,57,0,0,363,2811,-14707,349,-5.59,,,,,,,,,,,,
480683,1564153225387,4,2.3,0.89,0.32,1.33,1.05,0.84,0.07,0.44,3,-0,5,0.84,6732,18,107,44,48,974,348.0,416,463,60,124.0,163,1,370,229,57,0,0,360,-1246,2790,348,-5.59,,,,,,,,,,,,
480703,1564153225407,5,2.31,0.88,0.31,1.32,1.04,0.87,0.09,0.48,3,0,4,0.88,6696,18,107,44,48,976,348.0,420,461,60,123.0,163,1,369,229,57,0,0,358,-1246,-29978,348,-5.59,,,,,,,,,,,,
480723,1564153225427,6,2.3,0.88,0.31,1.32,1.04,0.8,0.11,0.51,2,1,4,0.81,6677,18,107,44,48,981,349.0,415,465,60,123.0,163,1,369,229,57,0,0,357,2811,4104,347,-5.59,,,,,,,,,,,,
480743,1564153225447,2,2.31,0.88,0.31,1.32,1.04,0.91,0.18,0.48,2,2,4,0.93,6667,18,107,44,48,987,349.0,420,464,60,121.0,163,1,369,229,57,0,0,358,2811,-29302,348,-5.59,44.680901,10.024799,35.47,174.3,0,0.0,-1,0.0,0.0,0,3.56,8.0124
480763,1564153225467,5,2.31,0.89,0.32,1.32,1.04,0.8,0.08,0.55,2,1,3,0.81,6670,18,107,44,48,992,347.0,412,461,60,123.0,163,1,369,229,57,0,0,358,-30438,3302,347,-5.59,,,,,,,,,,,,
480783,1564153225487,1,2.33,0.89,0.32,1.32,1.05,0.87,0.18,0.45,2,3,3,0.89,6653,18,107,44,48,995,348.0,423,465,60,122.0,163,1,369,235,57,0,0,358,8841,2060,346,-5.59,,,,,,,,,,,,
480803,1564153225507,3,2.34,0.89,0.32,1.33,1.05,0.88,0.12,0.57,2,-1,2,0.88,6648,17,107,44,48,1001,348.0,411,461,60,123.0,163,1,369,229,57,0,0,354,-1246,-6640,347,-5.59,,,,,,,,,,,,
480823,1564153225527,1,2.35,0.91,0.32,1.33,1.05,0.8,0.12,0.47,2,0,1,0.81,6648,17,107,44,48,1006,346.0,415,465,60,121.0,163,1,369,148,57,0,0,354,6870,3302,346,-5.59,,,,,,,,,,,,
480843,1564153225547,2,2.35,0.93,0.32,1.36,1.06,0.89,0.11,0.49,3,-0,1,0.89,6691,17,107,44,48,1010,345.0,417,463,60,124.0,163,1,369,235,57,0,0,356,-10554,-6640,345,-5.59,44.680893,10.024788,35.15,174.3,0,0.0,-1,0.0,0.0,0,3.56,8.014
480863,1564153225567,-1,2.37,0.95,0.34,1.38,1.07,0.84,0.07,0.56,2,1,0,0.84,6691,17,107,44,48,1012,347.0,416,461,60,124.0,163,1,369,229,57,0,0,353,-10554,2060,347,-5.59,,,,,,,,,,,,
480883,1564153225587,1,2.36,0.98,0.34,1.4,1.08,0.86,0.05,0.53,3,-0,0,0.86,6641,17,107,44,48,1014,347.0,428,465,60,121.0,164,1,369,229,57,0,0,357,6870,-6640,347,-5.59,,,,,,,,,,,,
480903,1564153225606,4,2.36,0.98,0.34,1.42,1.09,0.79,0.06,0.5,3,1,2,0.79,6625,17,107,44,48,1016,349.0,408,461,60,123.0,164,1,369,229,57,0,0,355,-30438,-1268,349,-5.59,,,,,,,,,,,,
480923,1564153225626,-0,2.36,0.99,0.34,1.42,1.08,0.88,0.1,0.52,3,1,2,0.89,6630,17,107,44,48,1017,349.0,420,465,60,121.0,164,1,369,235,57,0,0,356,6870,-6644,347,-5.59,,,,,,,,,,,,
480943,1564153225646,1,2.37,0.99,0.35,1.43,1.08,0.77,0.01,0.63,3,-0,1,0.77,6644,17,107,44,48,1018,347.0,411,463,60,123.0,164,1,369,229,57,0,0,354,-10554,2060,347,-5.59,44.680889,10.024777,34.67,174.3,0,0.0,-1,0.0,0.0,0,3.56,8.0157
480963,1564153225666,0,2.37,0.98,0.34,1.41,1.09,0.78,0.09,0.47,3,3,1,0.79,6644,17,107,44,48,1019,347.0,421,466,60,122.0,164,1,369,229,57,0,0,357,-10554,2060,347,-5.59,,,,,,,,,,,,
480983,1564153225686,2,2.36,0.98,0.35,1.41,1.09,0.87,-0.01,0.57,3,-1,1,0.87,6656,16,107,44,48,1022,349.0,415,462,60,123.0,167,1,369,229,58,0,0,354,6870,-14707,349,-5.59,,,,,,,,,,,,
481003,1564153225706,-0,2.37,0.97,0.33,1.4,1.08,0.76,0.03,0.53,3,-0,-0,0.76,6667,16,107,44,48,1024,348.0,412,466,60,122.0,167,1,369,229,58,0,0,359,-10554,4104,348,-5.59,,,,,,,,,,,,
481023,1564153225726,1,2.36,0.96,0.33,1.39,1.08,0.86,0.05,0.53,3,-1,1,0.86,6691,16,107,44,47,1027,347.0,418,463,60,121.0,167,1,366,229,58,0,0,359,6870,-6640,347,-5.59,,,,,,,,,,,,
481043,1564153225746,0,2.35,0.96,0.34,1.4,1.07,0.78,-0.01,0.5,2,-0,1,0.78,6701,16,107,44,47,1030,349.0,413,462,60,123.0,167,1,367,224,58,0,0,358,-30438,-29978,347,-5.59,44.680885,10.024767,34.63,174.3,0,0.0,-1,0.0,0.0,0,3.56,8.0174
481063,1564153225766,0,2.36,0.96,0.34,1.39,1.08,0.83,-0.0,0.46,3,-1,2,0.83,6658,16,107,44,47,1035,349.0,422,461,60,122.0,167,1,366,224,58,0,0,358,-30438,-29978,349,-5.59,,,,,,,,,,,,
481083,1564153225786,3,2.36,0.96,0.34,1.39,1.08,0.77,-0.0,0.52,3,-0,2,0.77,6663,16,107,44,47,1039,349.0,412,462,60,124.0,160,1,366,224,56,0,0,358,-30438,-29978,349,-5.59,,,,,,,,,,,,
481103,1564153225806,-0,2.37,0.96,0.34,1.39,1.08,0.86,0.09,0.51,3,1,3,0.87,6686,16,107,44,47,1041,348.0,421,468,60,122.0,160,1,366,224,56,0,0,358,-30438,2060,348,-5.59,,,,,,,,,,,,
481123,1564153225826,3,2.36,0.96,0.33,1.4,1.08,0.77,-0.03,0.59,3,-2,3,0.77,6679,16,107,44,47,1043,350.0,416,462,60,124.0,160,1,366,224,56,0,0,358,-30438,-6640,350,-5.59,,,,,,,,,,,,
481143,1564153225846,-1,2.38,0.95,0.34,1.38,1.08,0.78,0.09,0.42,4,1,3,0.78,6677,16,107,44,47,1042,351.0,432,464,60,121.0,160,1,366,224,56,0,0,358,-10554,3082,351,-5.59,44.680885,10.024755,34.77,174.3,0,0.0,-1,0.0,0.0,0,3.56,8.019
481163,1564153225866,1,2.39,0.96,0.34,1.39,1.08,0.84,0.02,0.57,4,-2,2,0.84,6703,16,107,43,47,1042,351.0,418,463,60,123.0,160,1,367,226,56,0,0,358,-30438,-29302,351,-5.59,,,,,,,,,,,,
481183,1564153225886,0,2.39,0.97,0.33,1.4,1.08,0.76,0.1,0.51,4,0,1,0.77,6751,16,107,44,47,1038,349.0,425,463,60,121.0,163,1,367,224,57,0,0,358,6870,-29302,350,-5.59,,,,,,,,,,,,
481203,1564153225906,1,2.4,0.97,0.34,1.41,1.08,0.81,0.01,0.56,4,-1,2,0.81,6749,16,107,43,46,1035,351.0,424,463,60,122.0,163,1,359,224,57,0,0,359,6870,3082,351,-5.59,,,,,,,,,,,,
481223,1564153225926,-0,2.4,0.99,0.34,1.41,1.08,0.74,0.05,0.45,4,0,2,0.74,6742,16,107,44,46,1029,352.0,424,461,60,122.0,163,1,359,222,57,0,0,357,-30438,2790,352,-5.59,,,,,,,,,,,,
481243,1564153225946,1,2.4,1.0,0.35,1.44,1.09,0.76,-0.05,0.5,5,-1,2,0.76,6715,16,107,43,46,1023,352.0,411,462,60,123.0,163,1,359,224,57,0,0,359,8841,-1268,352,-5.59,44.680882,10.024744,34.92,174.4,0,0.0,-1,0.0,0.0,0,3.57,8.0207
481263,1564153225966,-1,2.4,1.02,0.35,1.45,1.09,0.81,-0.01,0.47,5,1,4,0.81,6720,16,107,43,46,1021,353.0,419,465,60,122.0,163,1,359,224,57,0,0,356,8841,-29302,353,-5.59,,,,,,,,,,,,
481283,1564153225986,1,2.41,1.02,0.36,1.46,1.1,0.79,-0.06,0.57,5,-2,4,0.8,6737,16,107,43,46,1019,353.0,418,461,60,122.0,161,1,359,224,57,0,0,361,-30438,-6458,353,-5.59,,,,,,,,,,,,
481303,1564153225996,0,2.4,1.02,0.35,1.46,1.1,0.73,0.01,0.46,6,2,4,0.73,6722,16,107,43,46,1016,354.0,419,465,60,122.0,161,1,359,224,57,0,0,358,-30438,0,354,-5.59,,,,,,,,,,,,
481323,1564153226016,2,2.41,1.02,0.35,1.46,1.09,0.79,-0.07,0.56,6,-1,5,0.79,6718,15,107,43,45,1014,354.0,423,459,60,122.0,161,1,352,224,57,0,0,357,2811,-6458,354,-5.59,,,,,,,,,,,,
481343,1564153226036,1,2.4,1.02,0.35,1.46,1.1,0.75,-0.06,0.49,6,-1,3,0.75,6730,15,107,43,45,1014,354.0,412,462,60,122.0,161,1,352,222,57,0,0,358,-30438,-6405,354,-5.59,44.680878,10.024733,35.01,174.4,0,0.0,-1,0.0,0.0,0,3.57,8.0224
481363,1564153226056,2,2.41,1.02,0.36,1.45,1.1,0.85,-0.08,0.53,6,-1,4,0.85,6751,15,107,43,45,1015,353.0,418,461,60,123.0,161,1,352,222,57,0,0,357,6870,2790,353,-5.59,,,,,,,,,,,,
481383,1564153226076,2,2.4,1.02,0.35,1.45,1.09,0.78,-0.1,0.52,6,-1,5,0.78,6747,15,107,43,45,1012,353.0,424,462,60,122.0,158,1,352,222,56,0,0,359,6870,-6458,353,-5.59,,,,,,,,,,,,
481403,1564153226106,5,2.4,1.01,0.35,1.46,1.09,0.8,-0.14,0.56,6,-1,5,0.81,6715,15,107,43,45,1009,352.0,425,461,60,121.0,158,1,352,222,56,0,0,355,6870,230,351,-5.59,,,,,,,,,,,,
481423,1564153226126,3,2.4,1.02,0.36,1.45,1.09,0.75,-0.15,0.48,6,1,6,0.77,6706,15,107,43,45,1006,351.0,414,466,60,122.0,158,1,352,222,56,0,0,355,-10554,-14707,351,-5.59,,,,,,,,,,,,
481443,1564153226146,5,2.4,1.02,0.36,1.45,1.1,0.88,-0.1,0.52,6,-0,7,0.88,6701,15,107,43,45,1003,349.0,420,464,60,121.0,158,1,352,222,56,0,0,356,-14714,-29978,349,-5.59,44.680874,10.024722,35.12,174.4,0,0.0,-1,0.0,0.0,0,3.57,8.024
481463,1564153226166,7,2.4,1.01,0.36,1.45,1.09,0.72,-0.1,0.54,7,2,7,0.73,6686,15,107,43,45,999,349.0,414,458,60,122.0,158,1,352,222,56,0,0,355,-10554,-6640,350,-5.59,,,,,,,,,,,,
481483,1564153226186,5,2.39,1.0,0.34,1.44,1.1,0.85,-0.07,0.46,7,2,7,0.86,6625,15,107,43,45,993,347.0,425,465,60,121.0,157,1,352,222,55,0,0,352,3327,4104,347,-5.59,,,,,,,,,,,,
481503,1564153226208,6,2.39,1.01,0.36,1.45,1.09,0.81,-0.13,0.54,6,-1,7,0.82,6625,15,107,43,45,990,347.0,407,461,60,122.0,157,1,352,222,55,0,0,356,3327,-6405,347,-5.59,,,,,,,,,,,,
481523,1564153226228,3,2.39,1.01,0.35,1.45,1.1,0.8,-0.11,0.54,7,1,5,0.81,6602,15,107,43,45,988,347.0,410,464,60,122.0,157,1,352,222,55,0,0,354,-122,2060,346,-5.59,,,,,,,,,,,,
481543,1564153226248,4,2.39,1.02,0.36,1.45,1.1,0.85,-0.08,0.51,7,-0,6,0.85,6602,15,107,43,45,985,346.0,416,465,60,121.0,157,1,352,222,55,0,0,352,-31222,3302,346,-5.59,44.68087,10.024711,35.09,174.4,0,0.0,-1,0.0,0.0,0,3.57,8.0257
481563,1564153226268,7,2.4,1.03,0.35,1.46,1.1,0.78,-0.13,0.48,6,1,6,0.8,6592,15,107,43,45,981,345.0,412,465,60,122.0,157,1,351,222,55,0,0,350,2560,-29978,345,-5.59,,,,,,,,,,,,
481583,1564153226288,3,2.39,1.02,0.36,1.46,1.1,0.86,-0.06,0.47,6,1,6,0.86,6533,15,107,43,46,979,343.0,413,465,60,122.0,160,1,358,223,55,0,0,345,2560,2811,343,-5.59,,,,,,,,,,,,
481603,1564153226308,5,2.4,1.02,0.35,1.46,1.1,0.79,-0.13,0.51,6,-1,6,0.8,6512,15,107,43,45,977,342.0,409,462,60,123.0,160,1,351,223,55,0,0,348,2560,28553,342,-5.59,,,,,,,,,,,,
481623,1564153226328,6,2.4,1.02,0.36,1.46,1.09,0.82,-0.08,0.48,7,1,8,0.82,6485,15,107,43,46,972,341.0,407,466,60,123.0,160,1,357,223,55,0,0,347,3346,2811,341,-5.59,,,,,,,,,,,,
481643,1564153226348,4,2.4,1.02,0.35,1.46,1.1,0.94,-0.03,0.54,7,1,8,0.94,6494,14,107,43,46,966,342.0,410,460,60,122.0,160,1,357,223,55,0,0,344,-6528,-30438,343,-5.59,44.680866,10.024699,34.7,174.4,0,0.0,-1,0.0,0.0,0,3.57,8.0274
481663,1564153226368,5,2.41,1.02,0.35,1.47,1.09,0.82,-0.1,0.54,7,-1,8,0.83,6483,14,107,43,46,959,341.0,408,461,60,122.0,160,1,357,223,55,0,0,345,-12032,28553,341,-5.59,,,,,,,,,,,,
481683,1564153226388,7,2.41,1.03,0.36,1.46,1.1,0.76,-0.08,0.6,7,2,8,0.77,6465,14,107,43,46,954,342.0,400,461,60,122.0,158,1,357,223,54,0,0,343,-20736,-30438,342,-5.59,,,,,,,,,,,,
481703,1564153226406,2,2.43,1.03,0.36,1.46,1.1,0.8,0.01,0.44,7,2,9,0.8,6423,14,107,43,46,949,340.0,407,463,60,122.0,158,1,357,223,54,0,0,340,-20736,28553,340,-5.59,,,,,,,,,,,,
481723,1564153226426,3,2.44,1.03,0.36,1.47,1.11,0.88,-0.0,0.54,8,-0,8,0.88,6423,14,107,43,46,942,340.0,397,461,60,123.0,158,1,357,223,54,0,0,341,160,8841,340,-5.59,,,,,,,,,,,,
481743,1564153226446,6,2.45,1.04,0.36,1.48,1.1,0.75,-0.08,0.52,8,-1,7,0.75,6401,14,107,43,46,938,338.0,398,463,60,123.0,158,1,357,223,54,0,0,338,160,6870,337,-5.59,44.680866,10.024688,34.28,174.4,0,0.0,-1,0.0,0.0,0,3.57,8.029
481763,1564153226466,7,2.45,1.06,0.37,1.48,1.11,0.75,-0.06,0.5,8,-0,8,0.76,6377,14,107,43,46,936,336.0,399,463,60,121.0,158,1,356,222,54,0,0,337,-24576,-10554,336,-5.59,,,,,,,,,,,,
481783,1564153226486,4,2.46,1.07,0.37,1.49,1.11,0.85,-0.04,0.43,9,-0,8,0.85,6364,14,107,43,46,936,334.0,408,468,60,121.0,157,1,356,222,53,0,0,335,-25856,-10554,334,-5.59,,,,,,,,,,,,
481803,1564153226508,2,2.47,1.08,0.38,1.5,1.12,0.95,-0.09,0.45,10,-0,8,0.95,6338,14,107,43,46,936,336.0,398,460,60,123.0,157,1,356,222,53,0,0,336,155,-31206,337,-5.59,,,,,,,,,,,,
481823,1564153226528,6,2.47,1.09,0.38,1.51,1.12,0.89,-0.16,0.47,10,-1,9,0.91,6311,14,107,43,46,936,339.0,391,458,60,123.0,157,1,356,222,53,0,0,334,-25856,6870,339,-5.59,,,,,,,,,,,,
481843,1564153226548,7,2.45,1.09,0.38,1.51,1.12,0.85,-0.23,0.47,9,2,10,0.88,6298,14,107,43,47,935,339.0,389,464,60,123.0,157,1,362,224,53,0,0,331,-27136,8841,337,-5.59,44.680862,10.024677,33.83,174.4,0,0.0,-1,0.0,0.0,0,3.57,8.0307
481863,1564153226568,9,2.45,1.1,0.37,1.51,1.12,0.87,-0.24,0.42,9,3,11,0.91,6277,14,107,43,47,938,336.0,389,464,60,122.0,157,1,362,141,53,0,0,331,-28416,6870,336,-5.59,,,,,,,,,,,,
481883,1564153226588,4,2.45,1.09,0.36,1.51,1.12,0.88,-0.2,0.43,9,3,11,0.9,6273,14,107,43,47,942,331.0,398,466,60,121.0,159,1,362,224,53,0,0,326,140,-31206,331,-5.59,,,,,,,,,,,,
481903,1564153226607,5,2.45,1.09,0.37,1.51,1.12,0.91,-0.21,0.38,10,1,11,0.93,6258,14,107,43,46,945,330.0,392,462,60,124.0,159,1,355,224,53,0,0,330,-29696,13,330,-5.59,,,,,,,,,,,,
481923,1564153226627,4,2.45,1.08,0.37,1.5,1.12,0.87,-0.28,0.38,10,-1,12,0.92,6235,14,107,43,47,947,329.0,389,458,60,124.0,159,1,362,224,53,0,0,327,135,13,329,-5.59,,,,,,,,,,,,
481943,1564153226647,7,2.45,1.08,0.37,1.5,1.12,0.77,-0.35,0.46,9,-1,12,0.85,6214,13,107,43,47,949,328.0,383,465,60,123.0,159,1,362,224,53,0,0,329,-29696,3346,328,-5.59,44.680859,10.024666,33.3,174.4,0,0.0,-1,0.0,0.0,0,3.57,8.0324
481963,1564153226667,7,2.45,1.07,0.37,1.5,1.11,0.72,-0.32,0.53,9,1,13,0.79,6181,13,107,43,47,950,329.0,379,462,60,123.0,159,1,361,223,53,0,0,328,-30976,3346,329,-5.59,,,,,,,,,,,,
481983,1564153226687,8,2.44,1.08,0.36,1.5,1.11,0.68,-0.24,0.5,9,3,13,0.72,6159,13,107,43,47,951,327.0,384,464,60,122.0,159,1,361,223,52,0,0,327,135,13,327,-5.59,,,,,,,,,,,,
482003,1564153226707,8,2.43,1.07,0.37,1.49,1.12,0.76,-0.15,0.53,10,4,14,0.77,6149,13,107,43,47,949,327.0,393,465,60,121.0,159,1,361,223,52,0,0,323,125,4838,327,-5.59,,,,,,,,,,,,
482023,1564153226727,8,2.41,1.07,0.36,1.5,1.11,0.88,-0.07,0.54,10,5,15,0.88,6115,13,107,43,47,947,325.0,388,462,60,121.0,159,1,361,223,52,0,0,319,-32256,13,325,-5.59,,,,,,,,,,,,
482043,1564153226747,5,2.4,1.06,0.36,1.48,1.11,0.99,-0.06,0.55,10,5,15,1.0,6099,13,107,43,47,940,324.0,384,464,60,121.0,159,1,360,223,52,0,0,321,32000,3346,324,-5.59,44.680855,10.024654,32.75,174.4,0,0.0,-1,0.0,0.0,0,3.57,8.034
482063,1564153226767,7,2.39,1.06,0.36,1.48,1.1,1.09,-0.08,0.57,10,6,14,1.09,6069,13,107,43,48,933,321.0,388,463,60,120.0,159,1,363,228,52,0,0,319,30720,-32559,321,-5.59,,,,,,,,,,,,
482083,1564153226787,7,2.39,1.05,0.35,1.47,1.1,1.18,-0.09,0.65,10,5,12,1.19,6042,13,107,43,48,928,317.0,392,463,60,122.0,163,1,363,228,52,0,0,320,115,-20736,317,-5.59,,,,,,,,,,,,
482103,1564153226807,7,2.39,1.05,0.35,1.47,1.11,1.27,-0.14,0.7,10,5,11,1.28,6021,13,107,43,48,923,316.0,391,467,60,122.0,163,1,363,228,52,0,0,318,110,165,316,-5.59,,,,,,,,,,,,
482123,1564153226827,7,2.38,1.04,0.35,1.47,1.1,1.34,-0.15,0.71,10,5,11,1.35,5982,13,107,43,48,913,312.0,384,461,60,122.0,163,1,361,228,52,0,0,318,110,150,312,-5.59,,,,,,,,,,,,
482143,1564153226847,8,2.39,1.04,0.36,1.47,1.1,1.41,-0.15,0.72,10,5,11,1.42,5946,13,107,43,49,904,312.0,380,462,60,121.0,163,1,361,228,52,0,0,317,110,155,312,-5.59,44.680855,10.024643,32.13,174.4,0,0.0,-1,0.0,0.0,0,3.57,8.0357
482163,1564153226867,9,2.39,1.04,0.36,1.47,1.11,1.43,-0.07,0.72,10,6,10,1.43,5879,13,107,43,49,901,311.0,374,465,60,120.0,163,1,355,234,52,0,0,314,28160,-28416,310,-5.59,,,,,,,,,,,,
482183,1564153226887,8,2.38,1.05,0.35,1.47,1.1,1.34,0.03,0.69,10,8,10,1.34,5828,13,107,43,50,898,309.0,367,464,60,121.0,165,1,354,234,51,0,0,313,26880,-28416,309,-5.59,,,,,,,,,,,,
482203,1564153226907,8,2.38,1.05,0.36,1.49,1.1,1.15,-0.01,0.65,9,9,11,1.15,5772,13,107,43,50,891,308.0,358,465,60,122.0,165,1,350,238,51,0,0,307,25600,135,308,-5.59,,,,,,,,,,,,
482223,1564153226927,7,2.36,1.04,0.36,1.49,1.1,1.02,-0.08,0.53,9,7,12,1.02,5744,13,107,43,51,884,305.0,358,465,60,122.0,165,1,350,237,51,0,0,307,24320,-29696,305,-5.59,,,,,,,,,,,,
482243,1564153226947,7,2.35,1.04,0.36,1.47,1.1,1.02,-0.02,0.51,8,3,12,1.02,5680,13,107,43,51,879,303.0,354,459,60,123.0,165,1,345,241,51,0,0,305,90,135,303,-5.59,44.680851,10.024632,31.51,174.4,0,0.0,-1,0.0,0.0,0,3.58,8.0374
482263,1564153226967,10,2.34,1.03,0.35,1.46,1.1,1.12,-0.04,0.54,8,2,10,1.12,5666,13,107,43,52,874,298.0,360,460,60,123.0,165,1,348,246,51,0,0,303,80,29440,298,-5.59,,,,,,,,,,,,
482283,1564153226987,12,2.33,1.01,0.35,1.44,1.1,1.12,-0.01,0.55,7,3,9,1.12,5635,13,107,43,53,865,296.0,362,463,60,123.0,179,1,348,251,53,0,0,298,0,110,294,-5.59,,,,,,,,,,,,
482303,1564153226997,10,2.31,1.0,0.34,1.44,1.08,0.99,-0.06,0.43,6,4,10,0.99,5640,13,107,43,53,855,292.0,361,461,60,122.0,179,1,350,251,53,0,0,298,41,25600,292,-5.59,,,,,,,,,,,,
482323,1564153227017,8,2.31,0.99,0.34,1.42,1.09,1.0,-0.03,0.38,5,2,9,1.0,5598,13,107,43,54,847,288.0,352,465,60,123.0,179,1,350,255,53,0,0,294,10686,90,288,181.28,,,,,,,,,,,,
