"Interval"|"ms"|0|0|1,"Utc"|"ms"|0|0|1,"FB_p"|"bar"|0|300|50,"Volant"|"F"|0.0|300.0|50,"xFR"|"mm"|0.0|5.0|50,"xRR"|"mm"|0.0|5.0|50,"xFL"|"mm"|0.0|5.0|50,"xRL"|"mm"|0.0|5.0|50,"AccelX"|"G"|-3.0|3.0|50,"AccelY"|"G"|-3.0|3.0|50,"AccelZ"|"G"|-3.0|3.0|50,"Yaw"|"Deg/Sec"|-120|120|50,"Pitch"|"Deg/Sec"|-120|120|50,"Roll"|"Deg/Sec"|-120|120|50,"Gsum"|"G"|0.0|3.0|50,"RPM"|""|0|14000|50,"TPS"|"%"|0|100|50,"WaterTemp"|"?C"|0|300|50,"AirTemp"|"?C"|-1000|1000|50,"MAP"|"KPa"|0|255|50,"Lambda"|""|0|1024|50,"WheelSpeed"|"MPH"|0.0|150.0|50,"OilPress"|"PSI"|0|150|50,"FuelPress"|"PSI"|0|150|50,"OilTemp"|"F"|0|300|50,"Battery"|"Volts"|0.0|20.0|50,"FuelCon"|"L/h"|-1000|1000|50,"Gear"|""|0|10|50,"Advance"|"Deg"|-360|360|50,"Injection"|"ms"|-1000|1000|50,"FuelCon"|"L/100km"|-1000|1000|50,"LC_But_Pres"|""|-1000|1000|50,"LC_Active"|""|-1000|1000|50,"RD_Speed"|""|-1000|1000|50,"RUD_Speed"|""|-1000|1000|50,"LD_Speed"|""|-1000|1000|50,"LUD_Speed"|""|-1000|1000|50,"Ana1"|"bar"|-1000.0|1000.0|50,"Latitude"|"Degrees"|-180.0|180.0|10,"Longitude"|"Degrees"|-180.0|180.0|10,"Speed"|"kph"|0.0|150.0|10,"Altitude"|"m"|0.0|4000.0|10,"LapCount"|""|0|0|10,"LapTime"|"Min"|0.0|0.0|10,"Sector"|""|0|0|10,"SectorTime"|"Min"|0.0|0.0|10,"ElapsedTime"|"Min"|0.0|0.0|10,"CurrentLap"|""|0|0|10,"Distance"|"km"|0.0|0.0|10,"SessionTime"|"Min"|0.0|0.0|10
11264,1564133152481,5,2.39,1.06,0.45,1.52,1.12,0.64,-0.62,0.78,12,-1,13,0.89,10201,100,90,41,86,966,729.0,623,462,60,122.0,305,1,410,585,220,0,0,759,-12152,-22796,731,-5.59,,,,,,,,,,,,
11284,1564133152499,6,2.39,1.06,0.46,1.52,1.11,0.64,-0.58,0.68,12,-2,13,0.87,10285,93,90,41,85,961,734.0,634,465,60,122.0,305,1,415,567,220,0,0,750,204,-3450,734,-5.59,,,,,,,,,,,,
11304,1564133152519,5,2.39,1.06,0.45,1.52,1.12,0.56,-0.57,0.81,12,-2,13,0.8,10262,76,90,41,83,960,735.0,635,467,60,123.0,305,1,412,531,220,0,0,767,-13072,-10218,736,-5.59,,,,,,,,,,,,
11324,1564133152539,6,2.4,1.06,0.46,1.52,1.12,0.57,-0.58,0.86,12,-2,13,0.82,10296,60,90,41,76,960,738.0,637,465,60,123.0,279,1,416,478,206,0,0,760,204,-2826,735,-5.59,,,,,,,,,,,,
11344,1564133152559,7,2.38,1.06,0.46,1.53,1.12,0.52,-0.63,0.89,12,-3,13,0.81,10262,48,90,41,68,960,740.0,635,471,60,123.0,279,1,415,438,206,0,0,754,-2560,-3038,740,-5.59,44.681076,10.024448,70.41,176.5,0,0.0,-1,0.0,0.0,0,0.08,0.1891
11364,1564133152579,8,2.39,1.06,0.47,1.52,1.13,0.48,-0.6,0.87,12,-4,13,0.77,10107,35,90,41,62,960,739.0,635,460,60,123.0,279,1,416,377,206,0,0,755,204,6389,739,-5.59,,,,,,,,,,,,
11384,1564133152598,15,2.39,1.06,0.46,1.53,1.12,0.58,-0.62,0.89,12,-5,13,0.85,10021,24,90,41,54,959,739.0,635,464,60,123.0,279,1,400,310,206,0,0,749,-2560,-22795,742,-5.59,,,,,,,,,,,,
11404,1564133152618,14,2.39,1.06,0.46,1.52,1.12,0.52,-0.64,0.9,12,-7,11,0.83,9827,20,90,41,48,958,740.0,633,467,60,123.0,279,1,382,248,206,0,0,731,-13312,-2830,740,-5.59,,,,,,,,,,,,
11424,1564133152638,19,2.38,1.06,0.45,1.53,1.12,0.62,-0.69,0.83,12,-8,11,0.93,9561,19,91,41,44,943,733.0,628,462,60,123.0,124,1,357,225,92,0,0,723,-12152,-22796,733,-5.59,,,,,,,,,,,,
11444,1564133152658,20,2.37,1.06,0.46,1.52,1.11,0.63,-0.59,0.79,11,-9,11,0.86,9346,18,90,41,41,926,730.0,624,463,60,124.0,124,1,334,218,92,0,0,685,8010,-2830,728,-5.59,44.681091,10.024446,72.42,176.4,0,0.0,-1,0.0,0.0,0,0.08,0.1907
11464,1564133152678,19,2.38,1.06,0.45,1.52,1.11,0.69,-0.49,0.69,10,-9,12,0.84,9124,18,90,41,40,910,727.0,626,472,60,123.0,124,1,326,211,92,0,0,651,6658,-388,727,-5.59,,,,,,,,,,,,
11484,1564133152698,16,2.37,1.06,0.45,1.52,1.11,0.67,-0.43,0.64,10,-8,12,0.79,8903,18,91,41,39,894,726.0,626,470,60,124.0,124,1,320,135,92,0,0,616,-12152,-3344,726,-5.59,,,,,,,,,,,,
11504,1564133152718,13,2.37,1.06,0.46,1.52,1.11,0.78,-0.44,0.65,9,-8,11,0.9,8684,18,91,41,39,869,722.0,620,463,60,124.0,94,1,320,209,68,0,0,593,6658,-2918,722,-5.59,,,,,,,,,,,,
11524,1564133152738,11,2.37,1.06,0.45,1.52,1.11,0.81,-0.45,0.64,10,-7,11,0.93,8457,18,91,41,38,841,719.0,613,465,60,123.0,94,1,316,204,68,0,0,611,15647,204,719,-5.59,,,,,,,,,,,,
11544,1564133152758,12,2.36,1.06,0.45,1.52,1.12,0.8,-0.45,0.6,10,-7,11,0.92,8249,17,91,41,38,825,715.0,604,466,60,123.0,94,1,311,202,68,0,0,651,-2830,-13312,716,-5.59,44.68111,10.024446,72.99,176.2,0,0.0,-1,0.0,0.0,0,0.09,0.1924
11564,1564133152778,10,2.37,1.05,0.45,1.51,1.11,0.86,-0.43,0.56,10,-5,11,0.96,8169,16,91,41,38,813,714.0,583,463,60,124.0,94,1,310,201,68,0,0,646,-10448,6208,714,181.28,,,,,,,,,,,,
11584,1564133152798,12,2.37,1.06,0.45,1.52,1.11,0.97,-0.4,0.44,9,-6,13,1.05,8162,16,91,41,38,816,703.0,570,458,60,125.0,94,1,310,196,68,0,0,648,-10448,12333,707,414.87,,,,,,,,,,,,
11604,1564133152818,13,2.37,1.06,0.45,1.51,1.11,0.96,-0.38,0.51,9,-4,11,1.03,8148,16,91,41,37,823,700.0,562,460,60,123.0,94,1,306,196,68,0,0,632,3543,3543,699,181.28,,,,,,,,,,,,
11624,1564133152838,13,2.37,1.06,0.45,1.52,1.11,1.07,-0.42,0.48,8,-5,11,1.15,8209,16,91,41,37,836,696.0,526,461,60,121.0,85,1,308,198,60,0,0,626,3543,-2345,696,-5.59,,,,,,,,,,,,
11644,1564133152858,14,2.37,1.05,0.45,1.52,1.11,1.07,-0.41,0.43,8,-5,12,1.15,8241,16,91,41,37,856,691.0,461,460,60,123.0,85,1,308,198,60,0,0,609,-26892,-388,688,-5.59,44.681129,10.024446,71.88,176.2,0,0.0,-1,0.0,0.0,0,0.09,0.1941
11664,1564133152878,17,2.37,1.05,0.45,1.52,1.1,1.17,-0.45,0.38,7,-6,12,1.25,8238,16,90,41,36,875,682.0,465,461,60,123.0,85,1,305,292,60,0,0,591,-388,24,682,-5.59,,,,,,,,,,,,
11684,1564133152900,17,2.37,1.05,0.45,1.51,1.1,1.1,-0.44,0.33,8,-4,12,1.18,8318,16,90,41,36,894,679.0,476,469,60,121.0,85,1,307,276,60,0,0,595,-2826,-8429,679,-5.59,,,,,,,,,,,,
11704,1564133152920,17,2.36,1.05,0.45,1.52,1.1,1.13,-0.41,0.31,8,-5,11,1.21,8351,16,90,41,35,903,673.0,500,465,60,122.0,114,1,305,244,77,0,0,581,31988,-2580,673,-5.59,,,,,,,,,,,,
11724,1564133152940,13,2.37,1.06,0.45,1.51,1.11,1.15,-0.42,0.22,8,-4,11,1.23,8303,16,90,41,34,902,668.0,485,465,60,122.0,114,1,301,214,77,0,0,570,-2830,-2830,667,-5.59,,,,,,,,,,,,
11744,1564133152960,17,2.36,1.06,0.45,1.51,1.11,1.21,-0.41,0.17,8,-2,11,1.27,8202,16,90,41,34,902,665.0,513,464,60,122.0,114,1,299,192,77,0,0,556,-8429,16599,661,-5.59,44.681145,10.024446,68.73,176.1,0,0.0,-1,0.0,0.0,0,0.09,0.1957
11764,1564133152980,17,2.37,1.06,0.45,1.51,1.11,1.18,-0.41,0.14,8,-2,11,1.25,8113,16,90,41,33,905,661.0,519,465,60,122.0,114,1,294,179,77,0,0,547,11776,6208,659,-5.59,,,,,,,,,,,,
11784,1564133152994,13,2.37,1.05,0.45,1.52,1.11,1.27,-0.43,0.16,9,-2,11,1.34,8064,15,90,41,34,907,654.0,525,464,60,123.0,114,1,296,178,77,0,0,559,-2836,-10251,652,-5.59,,,,,,,,,,,,
11804,1564133153014,10,2.37,1.05,0.44,1.51,1.11,1.24,-0.41,0.15,9,-2,10,1.31,8081,15,90,41,34,910,651.0,538,468,60,121.0,82,1,296,177,54,0,0,567,-5120,16599,649,-5.59,,,,,,,,,,,,
11824,1564133153034,4,2.36,1.04,0.45,1.52,1.1,1.28,-0.42,0.16,8,-2,12,1.35,8109,15,90,41,33,910,648.0,520,461,60,121.0,82,1,294,179,54,0,0,557,-4876,771,645,-5.59,,,,,,,,,,,,
11844,1564133153054,2,2.37,1.05,0.44,1.51,1.11,1.24,-0.41,0.11,8,-2,12,1.31,8209,15,90,41,33,906,645.0,530,465,60,122.0,82,1,296,178,54,0,0,577,966,-2580,644,-5.59,44.681164,10.024447,66.94,176.1,0,0.0,-1,0.0,0.0,0,0.09,0.1974
11864,1564133153074,0,2.36,1.05,0.44,1.51,1.11,1.29,-0.44,0.17,7,1,11,1.37,8348,15,90,41,33,901,640.0,525,465,60,123.0,82,1,298,182,54,0,0,608,20993,3395,640,-5.59,,,,,,,,,,,,
11884,1564133153100,3,2.35,1.05,0.45,1.51,1.1,1.2,-0.41,0.16,7,-0,11,1.27,8442,15,90,41,32,895,637.0,532,464,60,123.0,82,1,299,182,54,0,0,617,506,-1346,638,-5.59,,,,,,,,,,,,
11904,1564133153120,2,2.36,1.05,0.44,1.51,1.11,1.22,-0.4,0.17,7,0,11,1.29,8522,15,90,41,32,888,634.0,538,463,60,122.0,93,1,300,185,59,0,0,619,-16883,17336,634,-5.59,,,,,,,,,,,,
11924,1564133153140,1,2.35,1.05,0.45,1.51,1.11,1.26,-0.4,0.27,6,2,11,1.32,8577,15,90,41,31,884,632.0,554,465,60,122.0,93,1,295,185,59,0,0,619,17336,3395,632,-5.59,,,,,,,,,,,,
11944,1564133153160,2,2.35,1.05,0.44,1.51,1.1,1.19,-0.41,0.24,6,2,11,1.26,8546,15,90,41,31,882,629.0,570,461,60,121.0,93,1,295,185,59,0,0,619,19320,-1346,629,-5.59,44.681183,10.024448,63.84,176.1,0,0.0,-1,0.0,0.0,0,0.09,0.1991
11964,1564133153180,2,2.34,1.05,0.45,1.5,1.11,1.14,-0.35,0.21,6,1,11,1.2,8503,15,90,41,31,884,630.0,577,464,60,121.0,93,1,295,185,59,0,0,621,19320,506,630,-5.59,,,,,,,,,,,,
11984,1564133153200,-0,2.34,1.05,0.45,1.51,1.1,1.23,-0.52,0.34,5,3,9,1.34,8396,13,90,41,30,884,625.0,584,463,60,123.0,93,1,289,179,59,0,0,617,19320,3395,625,-5.59,,,,,,,,,,,,
12004,1564133153220,1,2.35,1.05,0.45,1.51,1.1,1.08,-0.57,0.25,5,4,10,1.22,8311,11,90,41,30,872,946.0,587,463,60,122.0,93,1,288,176,59,0,0,1865,-7939,-7939,946,-5.59,,,,,,,,,,,,
12024,1564133153240,-1,2.35,1.05,0.44,1.5,1.1,1.04,-0.5,0.32,4,9,9,1.15,8318,10,90,41,29,861,946.0,583,463,60,123.0,58,1,284,176,55,0,0,1865,-7939,-3820,946,-5.59,,,,,,,,,,,,
12044,1564133153260,3,2.35,1.05,0.44,1.5,1.11,0.98,-0.44,0.29,4,8,9,1.08,8526,10,90,41,29,847,946.0,588,463,60,121.0,58,1,287,185,55,0,0,1865,-7939,17344,946,-5.59,44.681198,10.02445,62.27,176.0,0,0.0,-1,0.0,0.0,0,0.1,0.2007
12064,1564133153280,2,2.35,1.05,0.45,1.5,1.11,0.92,-0.41,0.22,4,8,9,1.01,8589,10,90,41,28,833,946.0,594,467,60,121.0,58,1,282,185,55,0,0,1865,-7939,243,946,-5.59,,,,,,,,,,,,
12084,1564133153300,3,2.34,1.05,0.44,1.51,1.1,1.02,-0.34,0.26,4,5,9,1.08,8672,10,90,41,27,820,595.0,599,464,60,122.0,58,1,278,185,55,0,0,1865,-16179,208,600,-5.59,,,,,,,,,,,,
12104,1564133153320,2,2.35,1.05,0.44,1.51,1.11,1.12,-0.35,0.3,4,5,8,1.18,8737,10,90,41,27,807,602.0,603,460,60,121.0,58,1,278,185,55,0,0,1865,23619,23619,602,-5.59,,,,,,,,,,,,
12124,1564133153340,4,2.34,1.05,0.44,1.51,1.1,1.14,-0.31,0.26,4,5,9,1.19,8737,10,90,41,27,808,597.0,608,463,60,121.0,101,1,278,185,61,0,0,1865,17344,1267,597,-5.59,,,,,,,,,,,,
12144,1564133153360,7,2.34,1.05,0.44,1.5,1.1,1.14,-0.32,0.18,4,5,9,1.18,8815,10,90,41,27,809,601.0,613,464,60,121.0,101,1,278,185,61,0,0,571,208,774,597,-5.59,44.68121,10.024453,61.58,176.0,0,0.0,-1,0.0,0.0,0,0.1,0.2024
12164,1564133153380,7,2.35,1.05,0.44,1.51,1.1,1.04,-0.34,0.08,4,5,9,1.1,8786,10,90,41,27,811,593.0,620,461,60,122.0,101,1,278,185,61,0,0,566,-1894,-2934,593,-5.59,,,,,,,,,,,,
12184,1564133153400,8,2.34,1.05,0.44,1.51,1.1,0.95,-0.28,-0.03,5,6,9,0.99,8840,10,90,41,26,812,589.0,623,467,60,122.0,101,1,274,185,61,0,0,559,10432,1780,589,-5.59,,,,,,,,,,,,
12204,1564133153420,8,2.35,1.05,0.45,1.51,1.1,0.98,-0.27,-0.0,5,4,9,1.01,8894,10,90,41,26,812,583.0,627,465,60,122.0,106,1,274,185,62,0,0,546,-3210,2211,583,-5.59,,,,,,,,,,,,
12224,1564133153440,10,2.35,1.05,0.45,1.51,1.1,0.94,-0.21,0.0,5,3,9,0.97,8886,10,90,41,26,813,578.0,628,465,60,122.0,106,1,274,185,62,0,0,544,1760,6274,578,-5.59,,,,,,,,,,,,
12244,1564133153460,14,2.35,1.06,0.44,1.51,1.1,1.04,-0.2,-0.02,4,2,9,1.05,8928,10,90,41,27,823,576.0,627,461,60,122.0,106,1,278,185,62,0,0,546,-30159,14504,576,-5.59,44.681225,10.024455,59.87,176.0,0,0.0,-1,0.0,0.0,0,0.1,0.2041
12264,1564133153480,17,2.35,1.05,0.44,1.51,1.11,1.12,-0.14,0.02,5,2,8,1.12,8924,10,90,41,27,834,568.0,627,465,60,123.0,106,1,278,185,62,0,0,508,6273,2088,566,-5.59,,,,,,,,,,,,
12284,1564133153498,16,2.36,1.05,0.44,1.5,1.1,1.21,-0.13,0.11,5,1,8,1.21,8949,10,90,41,27,845,561.0,625,470,60,122.0,106,1,278,185,62,0,0,501,2104,-22519,561,-5.59,,,,,,,,,,,,
12304,1564133153518,15,2.35,1.05,0.45,1.5,1.1,1.29,-0.11,0.17,5,-0,7,1.29,8958,10,90,41,27,855,558.0,620,467,60,122.0,106,1,278,185,62,0,0,476,-506,3576,558,-5.59,,,,,,,,,,,,
12324,1564133153538,15,2.35,1.05,0.44,1.5,1.11,1.36,-0.07,0.21,5,-0,8,1.36,8852,10,90,41,27,873,551.0,619,468,60,122.0,111,1,278,185,62,0,0,471,-2934,-1562,552,-5.59,,,,,,,,,,,,
12344,1564133153558,17,2.36,1.05,0.44,1.51,1.1,1.43,-0.1,0.23,5,-0,9,1.43,8769,10,90,41,27,892,547.0,615,464,60,122.0,111,1,278,110,62,0,0,475,-22519,12552,545,-5.59,44.681244,10.024458,57.77,176.0,0,0.0,-1,0.0,0.0,0,0.1,0.2057
12364,1564133153578,14,2.36,1.05,0.45,1.51,1.1,1.41,-0.14,0.17,6,1,9,1.41,8664,9,90,41,27,904,540.0,618,464,60,121.0,111,1,278,185,62,0,0,469,-32248,8488,540,-5.59,,,,,,,,,,,,
12384,1564133153597,16,2.36,1.05,0.45,1.51,1.1,1.36,-0.19,0.13,6,-0,9,1.38,8585,9,90,41,27,912,535.0,615,464,60,122.0,111,1,278,185,62,0,0,446,15679,-10483,535,-5.59,,,,,,,,,,,,
12404,1564133153617,15,2.35,1.05,0.44,1.51,1.1,1.39,-0.15,0.14,7,-2,10,1.39,8569,9,90,41,27,927,529.0,615,465,60,122.0,111,1,278,185,62,0,0,434,10994,-9203,529,-5.59,,,,,,,,,,,,
12424,1564133153637,12,2.36,1.05,0.44,1.51,1.1,1.36,-0.19,0.13,7,0,10,1.38,8499,9,90,41,28,943,524.0,614,464,60,122.0,113,1,282,184,60,0,0,429,-21872,243,524,-5.59,,,,,,,,,,,,
12444,1564133153657,15,2.36,1.05,0.44,1.51,1.11,1.33,-0.21,0.06,8,2,10,1.34,8389,9,90,41,28,955,516.0,611,462,60,122.0,113,1,281,178,60,0,0,428,-22519,505,516,-5.59,44.681255,10.024461,55.12,176.0,0,0.0,-1,0.0,0.0,0,0.1,0.2074
12464,1564133153677,14,2.36,1.05,0.44,1.51,1.1,1.4,-0.18,0.05,8,1,11,1.41,8333,9,90,41,28,963,512.0,608,462,60,121.0,113,1,281,176,60,0,0,420,771,-23367,512,-5.59,,,,,,,,,,,,
12484,1564133153697,16,2.36,1.05,0.44,1.51,1.11,1.31,-0.23,-0.05,8,-0,11,1.33,8329,9,90,41,28,975,506.0,599,463,60,120.0,113,1,281,176,60,0,0,409,248,-1562,506,-5.59,,,,,,,,,,,,
12504,1564133153717,13,2.35,1.05,0.44,1.51,1.1,1.33,-0.23,-0.01,8,0,11,1.35,8314,9,90,41,27,988,499.0,596,464,60,122.0,110,1,277,175,55,0,0,390,-10483,3580,499,-5.59,,,,,,,,,,,,
12524,1564133153737,15,2.35,1.05,0.44,1.51,1.1,1.24,-0.25,-0.06,8,2,11,1.26,8238,9,90,41,27,999,495.0,587,464,60,122.0,110,1,276,170,55,0,0,371,2212,-899,494,-5.59,,,,,,,,,,,,
12544,1564133153757,10,2.35,1.05,0.45,1.51,1.1,1.32,-0.26,0.01,8,1,11,1.34,8095,9,90,41,27,1005,490.0,588,465,60,123.0,110,1,276,163,55,0,0,369,2212,248,486,-5.59,44.681267,10.024464,52.17,176.0,0,0.0,-1,0.0,0.0,0,0.1,0.2091
12564,1564133153777,13,2.36,1.04,0.44,1.51,1.11,1.29,-0.28,0.0,8,2,10,1.32,7938,9,90,41,27,1010,484.0,570,465,60,123.0,110,1,275,158,55,0,0,394,-17956,8488,484,-5.59,,,,,,,,,,,,
12584,1564133153797,14,2.36,1.05,0.45,1.51,1.11,1.23,-0.25,-0.05,7,2,9,1.26,7884,9,90,41,27,1013,479.0,492,465,60,122.0,110,1,274,158,55,0,0,412,-16384,32033,479,-5.59,,,,,,,,,,,,
12604,1564133153817,12,2.35,1.04,0.44,1.51,1.1,1.28,-0.22,-0.01,7,3,9,1.3,7864,9,90,41,27,1014,472.0,502,463,60,122.0,110,1,274,158,55,0,0,404,16408,2524,471,-5.59,,,,,,,,,,,,
12624,1564133153837,11,2.36,1.05,0.44,1.52,1.1,1.36,-0.22,0.07,5,2,9,1.37,7938,9,90,41,27,1011,465.0,472,465,60,124.0,99,1,275,158,47,0,0,394,-23623,-28332,465,-5.59,,,,,,,,,,,,
12644,1564133153857,12,2.36,1.05,0.45,1.52,1.1,1.27,-0.2,0.02,5,2,8,1.28,7941,9,90,41,27,998,460.0,509,466,60,122.0,99,1,275,158,47,0,0,412,2524,13180,458,-5.59,44.681282,10.024467,49.31,176.1,0,0.0,-1,0.0,0.0,0,0.11,0.2107
12664,1564133153877,12,2.36,1.05,0.44,1.51,1.11,1.14,-0.18,0.0,5,4,8,1.15,7888,9,90,41,27,974,455.0,524,465,60,123.0,99,1,274,158,47,0,0,428,-3267,-21944,455,-5.59,,,,,,,,,,,,
12684,1564133153899,7,2.37,1.05,0.45,1.51,1.1,1.16,-0.1,0.05,5,5,9,1.17,7894,9,90,41,27,950,453.0,541,465,60,124.0,99,1,274,158,47,0,0,428,16648,3826,453,-5.59,,,,,,,,,,,,
12704,1564133153919,9,2.36,1.05,0.44,1.51,1.1,1.21,-0.09,0.01,5,3,9,1.22,7884,9,90,41,27,928,446.0,551,463,60,123.0,99,1,274,158,47,0,0,426,-28332,-3322,446,-5.59,,,,,,,,,,,,
12724,1564133153939,9,2.38,1.05,0.45,1.51,1.11,1.16,-0.13,-0.03,5,2,8,1.17,7931,9,90,41,28,905,442.0,557,465,60,123.0,105,1,278,160,47,0,0,420,-768,-3414,443,-5.59,,,,,,,,,,,,
12744,1564133153959,7,2.38,1.05,0.44,1.51,1.11,1.14,-0.21,0.03,5,3,9,1.16,7955,9,90,41,28,881,437.0,562,462,60,122.0,105,1,278,160,47,0,0,417,3635,-4082,437,-5.59,44.681294,10.02447,46.98,176.1,0,0.0,-1,0.0,0.0,0,0.11,0.2124
12764,1564133153979,6,2.4,1.05,0.45,1.51,1.11,1.19,-0.22,0.07,6,1,9,1.21,7928,9,90,41,28,863,434.0,561,464,60,124.0,105,1,278,160,47,0,0,419,-21792,3826,434,-5.59,,,,,,,,,,,,
12784,1564133153993,6,2.41,1.05,0.44,1.51,1.1,1.16,-0.24,0.05,6,-1,9,1.19,7901,9,90,41,27,861,431.0,562,466,60,124.0,105,1,275,158,47,0,0,413,-3414,13552,431,-5.59,,,,,,,,,,,,
12804,1564133154013,7,2.43,1.05,0.44,1.51,1.1,1.1,-0.28,0.05,7,-0,9,1.13,7848,9,90,41,28,859,429.0,560,464,60,123.0,109,1,277,160,47,0,0,407,18584,-3414,429,-5.59,,,,,,,,,,,,
12824,1564133154033,6,2.47,1.05,0.44,1.51,1.1,1.08,-0.3,0.09,8,-0,10,1.12,7725,9,90,41,28,855,430.0,558,464,60,124.0,109,1,276,160,47,0,0,405,-9166,3826,430,-5.59,,,,,,,,,,,,
12844,1564133154053,4,2.49,1.05,0.44,1.52,1.1,1.09,-0.32,0.11,9,1,11,1.13,7659,9,90,41,28,851,426.0,556,464,60,123.0,109,1,276,160,47,0,0,406,10392,-8165,427,-5.59,44.681301,10.024474,43.9,176.1,0,0.0,-1,0.0,0.0,0,0.11,0.2141
12864,1564133154073,3,2.52,1.05,0.44,1.52,1.1,1.11,-0.39,0.12,11,1,11,1.18,7615,9,90,41,28,849,427.0,557,465,60,124.0,109,1,276,160,47,0,0,396,1504,31796,427,-5.59,,,,,,,,,,,,
12884,1564133154099,1,2.55,1.06,0.44,1.52,1.1,1.09,-0.44,0.21,12,2,12,1.17,7563,9,90,41,28,847,426.0,548,465,60,124.0,109,1,275,160,47,0,0,386,6384,-21792,426,-5.59,,,,,,,,,,,,
12904,1564133154119,1,2.57,1.05,0.45,1.51,1.11,1.13,-0.53,0.3,14,1,15,1.25,7488,9,90,41,29,847,425.0,543,463,60,124.0,105,1,278,160,45,0,0,378,-1818,-3414,425,-5.59,,,,,,,,,,,,
12924,1564133154139,-1,2.58,1.05,0.44,1.51,1.11,1.15,-0.6,0.29,15,1,17,1.3,7452,9,90,41,29,847,425.0,546,463,60,124.0,105,1,278,161,45,0,0,368,-1562,-3856,426,-5.59,,,,,,,,,,,,
12944,1564133154159,3,2.6,1.06,0.45,1.51,1.11,1.16,-0.65,0.28,17,2,19,1.33,7350,9,90,41,29,849,424.0,546,463,60,123.0,105,1,278,161,45,0,0,366,240,-8165,424,-5.59,44.681316,10.024479,41.92,176.2,0,0.0,-1,0.0,0.0,0,0.11,0.2157
12964,1564133154179,3,2.62,1.05,0.45,1.52,1.11,1.12,-0.75,0.31,18,4,21,1.35,7281,9,90,41,30,851,424.0,539,465,60,122.0,105,1,282,163,45,0,0,362,-3866,3826,424,-5.59,,,,,,,,,,,,
12984,1564133154201,2,2.64,1.06,0.45,1.52,1.11,1.05,-0.74,0.32,20,4,23,1.28,7211,9,90,41,30,854,423.0,533,467,60,122.0,105,1,282,163,45,0,0,361,-19126,-3414,423,-5.59,,,,,,,,,,,,
13004,1564133154221,1,2.68,1.05,0.45,1.52,1.11,1.01,-0.77,0.25,21,4,25,1.27,7192,9,90,41,31,858,421.0,526,463,60,123.0,104,1,285,164,44,0,0,362,8200,-21944,421,-5.59,,,,,,,,,,,,
13024,1564133154241,0,2.68,1.06,0.45,1.51,1.12,1.07,-0.85,0.29,23,3,26,1.37,7170,9,90,41,31,859,419.0,525,466,60,123.0,104,1,285,164,44,0,0,356,-6656,-9166,419,-5.59,,,,,,,,,,,,
13044,1564133154261,2,2.7,1.06,0.44,1.52,1.11,1.09,-0.88,0.35,24,2,29,1.4,7151,9,90,41,31,861,417.0,520,462,60,124.0,104,1,285,164,44,0,0,332,770,2524,417,-5.59,44.681324,10.024484,41.49,176.2,0,0.0,-1,0.0,0.0,0,0.11,0.2174
13064,1564133154281,2,2.69,1.06,0.45,1.52,1.11,0.99,-0.88,0.44,26,3,31,1.33,7110,9,90,41,31,860,418.0,523,465,60,123.0,104,1,285,164,44,0,0,322,257,-26615,418,-5.59,,,,,,,,,,,,
13084,1564133154301,-1,2.69,1.06,0.45,1.52,1.11,0.98,-0.89,0.35,27,3,32,1.33,6993,9,90,41,32,859,417.0,520,467,60,122.0,104,1,290,166,44,0,0,320,0,2524,418,-5.59,,,,,,,,,,,,
13104,1564133154321,3,2.69,1.06,0.45,1.52,1.12,1.0,-0.96,0.37,29,1,35,1.38,6939,9,90,41,32,857,418.0,514,466,60,123.0,102,1,290,166,43,0,0,312,0,7154,418,-5.59,,,,,,,,,,,,
13124,1564133154341,1,2.7,1.05,0.45,1.52,1.11,0.97,-0.88,0.42,29,2,36,1.31,6883,9,90,41,33,856,418.0,510,464,60,123.0,102,1,292,171,43,0,0,309,-6405,-21944,418,-5.59,,,,,,,,,,,,
13144,1564133154361,0,2.7,1.05,0.45,1.52,1.11,0.94,-0.99,0.42,31,2,38,1.36,6815,9,90,41,33,854,417.0,510,465,60,124.0,102,1,292,171,43,0,0,314,-6405,-21944,417,-5.59,44.681335,10.024488,41.15,176.2,0,0.0,-1,0.0,0.0,0,0.11,0.2191
13164,1564133154381,-1,2.71,1.05,0.45,1.51,1.11,0.98,-1.01,0.43,31,2,39,1.41,6679,9,90,41,33,854,416.0,492,463,60,123.0,102,1,292,176,43,0,0,317,-1268,18584,416,-5.59,,,,,,,,,,,,
13184,1564133154401,3,2.7,1.06,0.45,1.51,1.11,0.96,-1.06,0.4,33,2,41,1.43,6637,9,90,41,34,854,415.0,398,465,60,123.0,102,1,295,176,43,0,0,330,2790,-4059,414,-5.59,,,,,,,,,,,,
13204,1564133154421,-1,2.71,1.05,0.45,1.51,1.12,1.0,-1.07,0.41,33,2,41,1.47,6560,9,90,41,35,856,411.0,339,468,60,122.0,102,1,298,182,43,0,0,345,-14707,9517,411,-5.59,,,,,,,,,,,,
13224,1564133154441,2,2.72,1.05,0.45,1.52,1.12,1.04,-1.13,0.43,34,1,43,1.53,6565,9,90,41,35,857,410.0,305,465,60,124.0,109,1,298,182,45,0,0,334,-6640,-3968,410,-5.59,,,,,,,,,,,,
13244,1564133154461,-0,2.71,1.06,0.45,1.52,1.11,0.96,-1.12,0.42,36,2,43,1.47,6646,9,90,41,35,858,407.0,304,464,60,124.0,109,1,298,182,45,0,0,313,2060,28696,407,-5.59,44.681343,10.024494,39.36,176.3,0,0.0,-1,0.0,0.0,0,0.11,0.2207
13264,1564133154481,1,2.72,1.06,0.45,1.52,1.11,1.07,-1.14,0.4,36,-0,45,1.56,6682,9,90,41,35,860,405.0,305,462,60,124.0,109,1,298,187,45,0,0,289,-6644,6384,405,-5.59,,,,,,,,,,,,
13284,1564133154499,2,2.72,1.06,0.44,1.51,1.11,1.0,-1.17,0.39,37,1,46,1.54,6663,9,90,41,36,859,403.0,286,465,60,123.0,109,1,301,187,45,0,0,275,3183,-9211,403,-5.59,,,,,,,,,,,,
13304,1564133154519,0,2.72,1.06,0.45,1.52,1.12,1.03,-1.11,0.4,36,1,47,1.51,6613,9,90,41,36,861,404.0,277,467,60,122.0,113,1,301,187,46,0,0,274,28553,6512,404,-5.59,,,,,,,,,,,,
13324,1564133154539,1,2.74,1.05,0.45,1.51,1.12,0.99,-1.14,0.42,36,0,49,1.51,6546,9,90,41,36,862,403.0,273,462,60,124.0,113,1,301,187,46,0,0,276,2811,6384,403,-5.59,,,,,,,,,,,,
13344,1564133154559,-0,2.75,1.06,0.45,1.52,1.11,0.92,-1.14,0.43,37,2,49,1.47,6487,9,90,41,37,863,402.0,268,465,60,123.0,113,1,304,193,46,0,0,278,8841,28696,402,-5.59,44.681351,10.024503,38.95,176.3,0,0.0,-1,0.0,0.0,0,0.11,0.2224
13364,1564133154579,-1,2.78,1.06,0.45,1.52,1.12,1.0,-1.14,0.4,37,1,50,1.51,6353,13,90,41,38,865,400.0,260,465,60,122.0,113,1,307,199,46,0,0,281,6870,6384,400,-5.59,,,,,,,,,,,,
13384,1564133154598,-2,2.79,1.06,0.45,1.52,1.12,1.01,-1.19,0.38,37,-1,51,1.56,6291,18,90,41,39,866,397.0,253,462,60,123.0,113,1,310,204,46,0,0,302,-10554,-6656,397,-5.59,,,,,,,,,,,,
13404,1564133154618,0,2.8,1.06,0.45,1.52,1.12,0.94,-1.2,0.39,38,-2,51,1.52,6260,29,90,41,43,868,393.0,247,464,60,124.0,124,1,336,209,49,0,0,343,6668,-1818,393,-5.59,,,,,,,,,,,,
13424,1564133154638,3,2.79,1.06,0.45,1.52,1.12,0.91,-1.19,0.4,39,-1,50,1.5,6283,41,90,41,49,868,392.0,247,466,60,123.0,124,1,368,225,49,0,0,330,-122,-6475,392,-5.59,,,,,,,,,,,,
13444,1564133154658,-2,2.79,1.06,0.45,1.52,1.12,0.97,-1.2,0.35,38,-1,50,1.54,6530,55,90,41,59,869,387.0,243,466,60,122.0,124,1,398,261,49,0,0,312,2560,-19126,387,-5.59,44.681358,10.024511,37.97,176.3,0,0.0,-1,0.0,0.0,0,0.11,0.2241
13464,1564133154678,1,2.77,1.06,0.45,1.52,1.12,0.92,-1.27,0.39,38,-2,51,1.57,6623,68,90,41,69,870,385.0,242,461,60,123.0,124,1,378,326,49,0,0,289,13,-19126,385,-5.59,,,,,,,,,,,,
13484,1564133154698,-1,2.76,1.06,0.45,1.52,1.11,0.86,-1.26,0.4,39,-0,51,1.53,6611,82,90,41,81,869,385.0,240,463,60,123.0,124,1,366,462,49,0,0,284,13,-19126,385,-5.59,,,,,,,,,,,,
13504,1564133154718,0,2.73,1.06,0.45,1.52,1.12,0.93,-1.2,0.39,39,-1,52,1.52,6463,95,90,41,91,869,387.0,237,463,60,122.0,317,1,342,504,123,0,0,283,13,-6475,387,-5.59,,,,,,,,,,,,
13524,1564133154738,1,2.72,1.06,0.46,1.52,1.12,0.94,-1.23,0.4,39,-2,53,1.55,6349,100,90,41,94,868,388.0,243,465,60,123.0,317,1,335,458,123,0,0,288,3346,19125,388,-5.59,,,,,,,,,,,,
13544,1564133154758,3,2.71,1.06,0.45,1.53,1.12,0.84,-1.24,0.41,40,-1,54,1.5,6273,100,90,41,95,869,389.0,251,467,60,124.0,317,1,331,526,123,0,0,290,-32559,240,389,-5.59,44.681362,10.024521,36.99,176.3,0,0.0,-1,0.0,0.0,0,0.12,0.2257
13564,1564133154778,-0,2.69,1.06,0.45,1.53,1.12,0.81,-1.25,0.42,41,0,54,1.49,6315,100,90,41,95,872,388.0,256,466,60,124.0,317,1,333,526,123,0,0,292,-32559,19125,388,-5.59,,,,,,,,,,,,
13584,1564133154798,-0,2.69,1.06,0.45,1.52,1.11,0.89,-1.18,0.4,40,0,54,1.48,6447,100,90,41,95,876,387.0,268,466,60,123.0,317,1,340,462,123,0,0,297,-12032,19125,387,-5.59,,,,,,,,,,,,
13604,1564133154818,1,2.69,1.06,0.46,1.52,1.12,0.9,-1.15,0.42,39,-1,55,1.46,6625,100,90,41,95,881,385.0,269,463,60,123.0,340,1,349,521,131,0,0,301,-12032,-992,385,-5.59,,,,,,,,,,,,
13624,1564133154838,-0,2.67,1.06,0.45,1.52,1.12,0.85,-1.17,0.36,40,-0,53,1.45,6865,100,90,41,95,912,384.0,276,466,60,123.0,340,1,364,516,131,0,0,314,-12032,2278,383,-5.59,,,,,,,,,,,,
13644,1564133154858,-1,2.66,1.06,0.45,1.52,1.12,0.96,-1.22,0.35,40,-0,52,1.55,7159,100,90,41,95,1013,381.0,282,463,60,123.0,340,1,380,523,131,0,0,328,-12032,-6656,381,-5.59,44.68137,10.024531,36.56,176.3,0,0.0,-1,0.0,0.0,0,0.12,0.2274
13664,1564133154878,1,2.63,1.06,0.45,1.52,1.12,0.97,-1.22,0.44,40,0,52,1.56,7606,100,90,42,94,1115,379.0,286,463,60,124.0,340,1,415,545,131,0,0,331,-12032,-6656,378,-5.59,,,,,,,,,,,,
13684,1564133154900,3,2.6,1.06,0.45,1.53,1.11,0.93,-1.17,0.4,39,2,51,1.49,8092,100,90,42,93,1211,378.0,292,465,60,122.0,340,1,445,576,131,0,0,346,-32559,19125,379,-5.59,,,,,,,,,,,,
13704,1564133154920,-0,2.58,1.06,0.45,1.52,1.12,0.94,-1.15,0.47,38,3,52,1.48,8209,100,90,42,92,1297,381.0,303,464,60,122.0,480,1,443,589,183,0,0,475,4838,-1818,381,-5.59,,,,,,,,,,,,
13724,1564133154940,3,2.56,1.06,0.45,1.52,1.12,0.79,-1.03,0.45,38,5,53,1.3,8344,100,90,42,91,1350,386.0,316,463,60,123.0,480,1,440,599,183,0,0,502,-31222,-21792,386,-5.59,,,,,,,,,,,,
13744,1564133154960,2,2.53,1.05,0.45,1.51,1.12,0.76,-1.0,0.6,36,5,53,1.26,8491,100,90,42,90,1401,390.0,314,462,60,123.0,480,1,437,615,183,0,0,445,6870,13180,390,-5.59,44.681374,10.024543,35.53,176.2,0,0.0,-1,0.0,0.0,0,0.12,0.2291
13764,1564133154980,-1,2.52,1.05,0.46,1.52,1.11,0.76,-0.94,0.73,36,7,52,1.21,8445,100,90,42,90,1358,395.0,308,467,60,123.0,480,1,438,610,183,0,0,402,-1246,-18108,396,-5.59,,,,,,,,,,,,
13784,1564133154992,3,2.5,1.06,0.45,1.52,1.11,0.73,-0.92,0.71,36,6,51,1.18,8363,100,90,42,90,1310,400.0,310,464,60,122.0,480,1,440,588,183,0,0,441,2060,21432,402,-5.59,,,,,,,,,,,,
13804,1564133155012,-1,2.5,1.06,0.46,1.51,1.12,0.67,-0.85,0.76,36,6,49,1.08,8227,100,90,42,90,1244,405.0,313,465,60,123.0,449,1,444,585,182,0,0,482,2790,21580,405,-5.59,,,,,,,,,,,,
13824,1564133155032,1,2.49,1.05,0.45,1.52,1.11,0.64,-0.84,0.72,36,6,48,1.06,8245,100,90,42,90,1178,409.0,321,462,60,123.0,449,1,444,584,182,0,0,436,0,26704,409,-5.59,,,,,,,,,,,,
13844,1564133155052,1,2.48,1.05,0.45,1.52,1.12,0.56,-0.76,0.83,35,5,46,0.94,8285,100,90,42,91,1155,412.0,333,465,60,122.0,449,1,442,595,182,0,0,420,486,3571,412,-5.59,44.681377,10.024553,35.77,176.2,0,0.0,-1,0.0,0.0,0,0.12,0.2307
13864,1564133155072,3,2.46,1.06,0.45,1.53,1.11,0.51,-0.71,0.86,34,5,44,0.87,8278,100,90,42,90,1133,416.0,345,462,60,123.0,449,1,443,591,182,0,0,457,770,15649,416,-5.59,,,,,,,,,,,,
13884,1564133155100,1,2.46,1.05,0.46,1.52,1.12,0.57,-0.7,0.93,33,3,43,0.9,8355,100,90,42,90,1119,421.0,357,465,60,123.0,449,1,441,600,182,0,0,464,-6475,6193,421,-5.59,,,,,,,,,,,,
13904,1564133155120,-1,2.45,1.05,0.45,1.52,1.11,0.54,-0.74,0.91,32,2,41,0.91,8461,100,90,42,90,1106,424.0,373,462,60,122.0,449,1,438,602,182,0,0,449,1,-3267,427,-5.59,,,,,,,,,,,,
13924,1564133155140,3,2.43,1.06,0.45,1.52,1.12,0.46,-0.7,0.82,31,1,41,0.84,8616,100,90,42,89,1114,428.0,385,465,60,123.0,459,1,431,606,196,0,0,457,6384,2524,428,-5.59,,,,,,,,,,,,
13944,1564133155160,2,2.43,1.05,0.45,1.52,1.12,0.52,-0.7,0.91,30,0,39,0.88,8786,100,90,42,89,1122,433.0,399,466,60,123.0,459,1,425,606,196,0,0,473,-8151,6193,433,-5.59,44.681381,10.024567,38.39,176.2,0,0.0,-1,0.0,0.0,0,0.12,0.2324
13964,1564133155180,3,2.43,1.05,0.46,1.52,1.12,0.57,-0.69,0.93,28,1,38,0.9,8806,100,90,42,88,1131,438.0,428,464,60,122.0,459,1,424,595,196,0,0,472,9517,-23367,438,-5.59,,,,,,,,,,,,
13984,1564133155200,2,2.42,1.06,0.45,1.52,1.11,0.58,-0.61,0.97,27,1,36,0.84,8903,100,90,42,88,1140,443.0,451,463,60,122.0,459,1,421,595,196,0,0,472,18584,-9203,443,-5.59,,,,,,,,,,,,
14004,1564133155220,2,2.43,1.05,0.46,1.52,1.12,0.65,-0.59,1.07,26,2,34,0.88,9044,100,90,42,88,1142,445.0,491,466,60,123.0,458,1,418,595,204,0,0,465,-21792,505,448,-5.59,,,,,,,,,,,,
14024,1564133155240,3,2.42,1.06,0.46,1.52,1.12,0.68,-0.53,1.05,25,2,33,0.87,9101,100,90,42,88,1141,452.0,512,467,60,123.0,458,1,418,595,204,0,0,483,13180,32033,452,-5.59,,,,,,,,,,,,
14044,1564133155260,3,2.42,1.06,0.45,1.53,1.12,0.8,-0.55,0.9,24,1,32,0.97,9141,100,90,42,88,1149,457.0,537,467,60,123.0,458,1,418,595,204,0,0,513,-3322,505,457,-5.59,44.681381,10.02458,40.83,176.2,0,0.0,-1,0.0,0.0,0,0.12,0.2341
14064,1564133155280,2,2.43,1.05,0.46,1.52,1.12,0.78,-0.49,0.89,22,-0,32,0.92,9227,100,90,42,87,1157,463.0,551,470,60,123.0,458,1,418,595,204,0,0,486,-7939,248,463,-5.59,,,,,,,,,,,,
14084,1564133155300,-1,2.43,1.06,0.46,1.53,1.11,0.74,-0.54,0.73,21,-2,32,0.92,9323,100,90,42,87,1166,466.0,572,466,60,123.0,458,1,418,584,204,0,0,467,-18341,-28648,466,-5.59,,,,,,,,,,,,
14104,1564133155320,1,2.42,1.06,0.45,1.53,1.12,0.64,-0.54,0.86,21,-2,31,0.83,9319,100,90,42,87,1174,472.0,580,470,60,123.0,436,1,418,584,206,0,0,505,15649,-21872,472,-5.59,,,,,,,,,,,,
14124,1564133155340,3,2.42,1.06,0.46,1.53,1.12,0.55,-0.53,0.97,21,-1,29,0.76,9431,100,90,42,87,1179,479.0,592,461,60,123.0,436,1,418,584,206,0,0,527,14488,-21872,479,-5.59,,,,,,,,,,,,
14144,1564133155360,-0,2.42,1.05,0.45,1.52,1.12,0.56,-0.49,0.89,21,-1,29,0.75,9576,100,90,42,87,1183,484.0,600,467,60,123.0,436,1,416,586,206,0,0,497,-23623,17136,484,-5.59,44.681385,10.024594,43.25,176.2,0,0.0,-1,0.0,0.0,0,0.12,0.2357
14164,1564133155380,1,2.42,1.05,0.46,1.53,1.11,0.59,-0.49,0.91,20,-1,28,0.76,9725,100,90,42,87,1182,488.0,611,465,60,122.0,436,1,409,592,206,0,0,513,16408,17136,488,-5.59,,,,,,,,,,,,
14184,1564133155400,1,2.42,1.06,0.46,1.53,1.12,0.53,-0.5,0.83,20,-1,28,0.73,9821,100,90,42,86,1177,492.0,617,457,60,123.0,436,1,404,581,206,0,0,546,10432,-9212,492,-5.59,,,,,,,,,,,,
14204,1564133155420,3,2.42,1.06,0.45,1.52,1.12,0.53,-0.51,0.94,19,-1,27,0.73,9920,100,90,42,86,1166,498.0,625,462,60,122.0,441,1,400,584,220,0,0,518,3576,-22519,498,-5.59,,,,,,,,,,,,
14224,1564133155440,1,2.43,1.06,0.46,1.53,1.11,0.5,-0.54,0.95,19,-1,26,0.74,10032,100,90,42,86,1152,503.0,622,471,60,122.0,441,1,398,584,220,0,0,522,16648,-3082,503,-5.59,,,,,,,,,,,,
14244,1564133155460,-0,2.43,1.06,0.45,1.52,1.12,0.5,-0.55,0.96,19,-0,26,0.75,10080,100,90,42,86,1140,510.0,631,460,60,122.0,441,1,401,585,220,0,0,550,3580,-2934,510,-5.59,44.681385,10.02461,45.73,176.2,0,0.0,-1,0.0,0.0,0,0.12,0.2374
14264,1564133155480,4,2.41,1.06,0.46,1.53,1.11,0.51,-0.58,1.0,19,-0,25,0.77,10096,100,90,42,86,1130,514.0,627,462,60,122.0,441,1,402,585,220,0,0,536,-1818,-3082,514,-5.59,,,,,,,,,,,,
14284,1564133155498,1,2.42,1.06,0.46,1.52,1.11,0.5,-0.53,1.07,18,-1,24,0.73,10184,100,90,42,86,1114,520.0,625,466,60,122.0,441,1,409,585,220,0,0,548,998,6274,520,-5.59,,,,,,,,,,,,
14304,1564133155518,3,2.42,1.05,0.45,1.52,1.12,0.48,-0.6,0.99,17,-1,24,0.76,10223,100,90,42,86,1090,523.0,638,461,60,121.0,441,1,412,585,220,0,0,546,10408,-22519,523,-5.59,,,,,,,,,,,,
14324,1564133155538,1,2.43,1.06,0.46,1.52,1.12,0.42,-0.66,0.98,17,-1,24,0.78,10273,100,90,42,85,1071,527.0,636,467,60,123.0,432,1,418,585,226,0,0,555,-32248,-22263,527,-5.59,,,,,,,,,,,,
14344,1564133155558,1,2.42,1.05,0.45,1.52,1.12,0.41,-0.7,0.95,17,-1,24,0.81,10428,100,90,42,86,1058,534.0,637,466,60,122.0,432,1,427,585,226,0,0,562,-3414,-23623,534,-5.59,44.681389,10.024627,48.13,176.2,0,0.0,-1,0.0,0.0,0,0.12,0.2391
14364,1564133155578,3,2.42,1.05,0.45,1.52,1.12,0.4,-0.73,1.01,17,-0,23,0.83,10515,100,90,42,86,1045,537.0,638,466,60,122.0,432,1,432,585,226,0,0,555,26178,1780,537,-5.59,,,,,,,,,,,,
14384,1564133155597,2,2.42,1.06,0.46,1.52,1.12,0.42,-0.74,0.91,17,-1,24,0.85,10653,100,90,42,86,1034,544.0,640,462,60,122.0,432,1,435,585,226,0,0,568,1341,-16384,544,-5.59,,,,,,,,,,,,
14404,1564133155617,3,2.42,1.06,0.46,1.52,1.11,0.44,-0.81,0.97,16,-1,22,0.92,10794,100,90,42,85,1026,547.0,644,465,60,122.0,420,1,438,567,230,0,0,576,-9212,-3190,548,-5.59,,,,,,,,,,,,
14424,1564133155637,4,2.43,1.05,0.46,1.52,1.12,0.41,-0.8,1.0,16,-1,22,0.89,10882,100,90,42,85,1028,551.0,641,467,60,122.0,420,1,439,567,230,0,0,577,2524,-4035,552,-5.59,,,,,,,,,,,,
14444,1564133155657,1,2.42,1.05,0.45,1.53,1.12,0.41,-0.72,1.02,16,-1,23,0.83,10984,100,90,42,85,1027,558.0,641,469,60,122.0,420,1,443,567,230,0,0,597,14504,8488,558,-5.59,44.681389,10.024644,50.99,176.2,0,0.0,-1,0.0,0.0,0,0.13,0.2407
14464,1564133155677,3,2.43,1.05,0.46,1.53,1.12,0.46,-0.78,1.01,16,-1,22,0.91,11029,100,90,42,85,1020,564.0,648,466,60,123.0,420,1,444,567,230,0,0,596,-30064,3472,565,-5.59,,,,,,,,,,,,
14484,1564133155695,4,2.42,1.06,0.45,1.53,1.12,0.39,-0.8,1.01,16,-1,22,0.89,11147,100,90,42,85,1014,570.0,649,462,60,122.0,420,1,443,567,230,0,0,592,-3082,30227,570,-5.59,,,,,,,,,,,,
14504,1564133155715,3,2.42,1.06,0.46,1.52,1.12,0.38,-0.76,0.94,16,-2,23,0.85,11254,100,90,42,85,1005,574.0,654,463,60,122.0,420,1,442,567,230,0,0,598,-8962,17344,574,-5.59,,,,,,,,,,,,
14524,1564133155735,1,2.42,1.06,0.46,1.52,1.12,0.37,-0.74,1.03,16,-1,22,0.83,11343,100,90,42,85,997,576.0,651,464,60,121.0,421,1,441,567,242,0,0,594,2524,30227,579,-5.59,,,,,,,,,,,,
14544,1564133155755,1,2.42,1.06,0.46,1.52,1.13,0.39,-0.82,1.04,16,0,21,0.91,11356,100,90,42,85,988,583.0,652,467,60,122.0,421,1,441,567,242,0,0,623,-22263,3403,583,-5.59,44.681389,10.024663,53.29,176.1,0,0.0,-1,0.0,0.0,0,0.13,0.2424
14564,1564133155775,1,2.43,1.06,0.46,1.53,1.12,0.39,-0.72,0.97,17,0,22,0.82,11425,100,90,42,85,981,586.0,649,468,60,122.0,421,1,441,567,242,0,0,614,-23623,19304,589,-5.59,,,,,,,,,,,,
14584,1564133155795,1,2.43,1.06,0.46,1.53,1.13,0.38,-0.74,1.06,17,1,22,0.83,11559,100,90,42,84,981,594.0,653,466,60,122.0,421,1,440,549,242,0,0,611,1780,19320,594,-5.59,,,,,,,,,,,,
14604,1564133155815,3,2.42,1.06,0.46,1.53,1.12,0.42,-0.81,1.15,16,-0,21,0.91,11653,100,90,42,84,979,597.0,649,468,60,122.0,408,1,440,552,244,0,0,626,-8188,3395,597,-5.59,,,,,,,,,,,,
14624,1564133155835,3,2.42,1.06,0.46,1.53,1.12,0.41,-0.74,1.03,16,-0,22,0.85,11696,100,90,42,84,972,601.0,655,470,60,122.0,408,1,440,553,244,0,0,625,1,3,603,-5.59,,,,,,,,,,,,
14644,1564133155855,2,2.42,1.06,0.46,1.52,1.12,0.4,-0.68,1.04,17,1,22,0.79,11770,100,90,42,84,964,609.0,657,469,60,122.0,408,1,440,555,244,0,0,638,15649,-16046,609,-5.59,44.681385,10.024682,55.43,176.1,0,0.0,-1,0.0,0.0,0,0.13,0.2441
14664,1564133155875,2,2.42,1.06,0.46,1.53,1.12,0.38,-0.62,0.96,17,1,22,0.73,11852,100,90,42,84,956,611.0,655,464,60,121.0,408,1,440,557,244,0,0,626,-25872,771,611,-5.59,,,,,,,,,,,,
14684,1564133155899,1,2.42,1.06,0.46,1.52,1.12,0.35,-0.54,0.91,16,1,22,0.64,11935,100,90,42,84,948,612.0,656,468,60,121.0,408,1,440,558,244,0,0,648,208,-5120,615,-5.59,,,,,,,,,,,,
14704,1564133155919,2,2.41,1.06,0.46,1.53,1.12,0.36,-0.47,0.97,15,2,21,0.59,12003,100,90,42,84,930,618.0,656,467,60,121.0,412,1,440,560,255,0,0,640,-13043,-10251,618,-5.59,,,,,,,,,,,,
14724,1564133155939,1,2.42,1.06,0.46,1.53,1.12,0.32,-0.45,1.03,15,1,21,0.55,12019,100,90,41,84,912,622.0,656,466,60,122.0,412,1,440,560,255,0,0,631,6273,-30207,622,-5.59,,,,,,,,,,,,
14744,1564133155959,1,2.43,1.06,0.46,1.52,1.12,0.27,-0.39,0.96,15,1,21,0.47,12112,100,90,41,84,901,624.0,657,465,60,120.0,412,1,440,560,255,0,0,648,-7939,-8429,624,-5.59,44.681385,10.024701,57.59,176.0,0,0.0,-1,0.0,0.0,0,0.13,0.2457
14764,1564133155979,3,2.41,1.06,0.46,1.53,1.12,0.25,-0.34,0.83,15,0,21,0.42,12183,100,90,41,84,891,629.0,656,468,60,121.0,412,1,440,560,255,0,0,661,-7939,2024,633,-5.59,,,,,,,,,,,,
14784,1564133155991,2,2.42,1.06,0.46,1.53,1.13,0.27,-0.27,0.87,14,-0,21,0.38,12270,100,90,41,84,870,634.0,659,466,60,121.0,412,1,440,560,255,0,0,662,5344,-3038,635,-5.59,,,,,,,,,,,,
14804,1564133156011,0,2.41,1.06,0.46,1.53,1.12,0.29,-0.31,0.75,14,-3,21,0.43,12351,100,90,41,84,851,636.0,662,468,60,122.0,411,1,440,560,262,0,0,685,5344,3543,635,-5.59,,,,,,,,,,,,
14824,1564133156031,-1,2.4,1.06,0.46,1.53,1.12,0.36,-0.42,0.69,13,-5,21,0.55,12159,100,90,42,83,840,639.0,657,469,60,124.0,411,1,440,545,262,0,0,678,1010,-3578,639,181.28,,,,,,,,,,,,
14844,1564133156051,-3,2.41,1.06,0.46,1.53,1.11,0.35,-0.45,0.5,14,-7,21,0.57,11704,100,90,42,85,833,642.0,652,463,60,124.0,411,1,440,571,262,0,0,635,19320,2024,642,181.28,44.681381,10.024722,59.9,176.0,0,0.0,-1,0.0,0.0,0,0.13,0.2474
14864,1564133156071,-1,2.39,1.05,0.46,1.53,1.11,0.41,-0.4,0.49,13,-8,20,0.58,11363,100,90,42,86,817,643.0,650,465,60,122.0,411,1,441,585,262,0,0,628,17336,11776,645,-5.59,,,,,,,,,,,,
14884,1564133156099,0,2.39,1.06,0.46,1.53,1.11,0.46,-0.46,0.46,13,-8,20,0.65,11107,100,90,42,87,801,645.0,646,460,60,123.0,411,1,445,604,262,0,0,628,-1346,244,645,181.28,,,,,,,,,,,,
14904,1564133156119,3,2.4,1.06,0.46,1.53,1.12,0.44,-0.61,0.49,13,-9,18,0.76,10894,100,90,42,87,792,644.0,646,462,60,123.0,389,1,443,604,251,0,0,623,20993,-2830,644,181.28,,,,,,,,,,,,
14924,1564133156139,4,2.39,1.06,0.46,1.53,1.11,0.52,-0.62,0.64,13,-5,19,0.81,10469,100,90,41,88,784,647.0,645,463,60,122.0,389,1,431,1082,251,0,0,665,771,8958,647,-5.59,,,,,,,,,,,,
14944,1564133156159,2,2.4,1.06,0.46,1.53,1.12,0.4,-0.62,0.75,14,0,20,0.74,9889,100,90,41,88,864,657.0,632,467,60,122.0,389,1,402,558,251,0,0,801,3,6658,657,-5.59,44.681381,10.024742,62.38,175.9,0,0.0,-1,0.0,0.0,0,0.13,0.2491
14964,1564133156179,4,2.39,1.06,0.46,1.53,1.12,0.34,-0.59,0.87,14,4,19,0.68,9775,100,90,41,87,973,665.0,625,462,60,123.0,389,1,407,536,251,0,0,746,-4876,24,667,-5.59,,,,,,,,,,,,
14984,1564133156199,2,2.39,1.06,0.45,1.53,1.12,0.26,-0.61,0.88,16,5,19,0.67,9730,100,90,41,86,1087,666.0,630,465,60,122.0,389,1,408,700,251,0,0,672,4909,24,669,-5.59,,,,,,,,,,,,
15004,1564133156219,2,2.4,1.05,0.46,1.53,1.12,0.33,-0.58,0.99,16,5,19,0.67,9493,100,90,41,87,1204,676.0,620,460,60,123.0,315,1,418,592,213,0,0,690,-30207,15647,676,-5.59,,,,,,,,,,,,
15024,1564133156239,3,2.4,1.06,0.46,1.52,1.12,0.4,-0.61,0.91,16,4,19,0.73,9333,100,90,41,87,1321,675.0,631,465,60,123.0,315,1,418,584,213,0,0,685,-3488,24,675,-5.59,,,,,,,,,,,,
15044,1564133156259,4,2.4,1.06,0.46,1.52,1.12,0.43,-0.59,0.92,16,1,18,0.73,9268,100,90,41,87,1438,676.0,622,468,60,123.0,315,1,418,584,213,0,0,701,-2830,-10448,676,-5.59,44.681377,10.024764,62.93,175.9,0,0.0,-1,0.0,0.0,0,0.14,0.2507
15064,1564133156279,1,2.39,1.06,0.46,1.53,1.11,0.46,-0.61,0.76,15,-2,19,0.77,9384,100,90,41,87,1498,680.0,616,466,60,122.0,315,1,418,584,213,0,0,700,-2345,24,681,-5.59,,,,,,,,,,,,
15084,1564133156299,3,2.4,1.06,0.46,1.53,1.11,0.43,-0.66,0.86,14,-2,17,0.78,9556,100,90,41,87,1498,681.0,616,466,60,122.0,315,1,417,585,213,0,0,710,3543,19188,683,-5.59,,,,,,,,,,,,
15104,1564133156319,1,2.39,1.05,0.45,1.53,1.12,0.45,-0.66,0.89,14,-2,17,0.8,9725,100,90,41,87,1442,688.0,626,462,60,123.0,315,1,409,534,213,0,0,708,-3578,687,688,-5.59,,,,,,,,,,,,
15124,1564133156339,4,2.4,1.05,0.45,1.52,1.12,0.42,-0.65,1.0,14,-1,16,0.77,9878,100,90,41,86,1349,693.0,631,468,60,122.0,316,1,402,583,218,0,0,734,-26380,1524,693,-5.59,,,,,,,,,,,,
15144,1564133156359,1,2.4,1.05,0.46,1.52,1.12,0.29,-0.65,1.09,14,1,16,0.71,9989,100,90,41,86,1256,696.0,631,466,60,122.0,316,1,397,585,218,0,0,736,-2826,-2830,699,-5.59,44.681374,10.024786,64.83,175.9,0,0.0,-1,0.0,0.0,0,0.14,0.2524
15164,1564133156379,1,2.41,1.06,0.46,1.52,1.12,0.25,-0.59,1.05,14,1,16,0.64,10005,100,90,41,86,1163,702.0,635,468,60,123.0,316,1,396,585,218,0,0,727,-26562,-31068,702,-5.59,,,,,,,,,,,,
15184,1564133156401,2,2.42,1.06,0.46,1.52,1.12,0.29,-0.59,1.14,14,1,16,0.65,10059,100,90,41,86,1072,705.0,640,462,60,123.0,316,1,400,585,218,0,0,730,-10399,-31066,707,-5.59,,,,,,,,,,,,
15204,1564133156421,3,2.42,1.06,0.46,1.52,1.12,0.23,-0.61,1.18,14,2,16,0.65,9941,100,90,41,86,984,712.0,632,468,60,122.0,310,1,399,584,221,0,0,742,-3584,-2356,712,-5.59,,,,,,,,,,,,
15224,1564133156441,4,2.42,1.06,0.46,1.53,1.12,0.29,-0.58,1.2,15,0,16,0.65,9941,100,90,41,86,928,716.0,635,463,60,123.0,310,1,399,584,221,0,0,742,14342,-22796,717,-5.59,,,,,,,,,,,,
15244,1564133156461,3,2.43,1.06,0.46,1.53,1.12,0.31,-0.57,1.28,15,0,15,0.65,10042,100,90,41,86,934,721.0,640,460,60,122.0,310,1,398,585,221,0,0,727,-2830,-2356,721,-5.59,44.681366,10.024807,67.55,175.8,0,0.0,-1,0.0,0.0,0,0.14,0.2541
15264,1564133156481,1,2.43,1.06,0.46,1.52,1.12,0.25,-0.66,1.3,16,1,14,0.7,10080,100,90,41,86,938,723.0,635,470,60,122.0,310,1,401,585,221,0,0,763,11069,-4096,726,-5.59,,,,,,,,,,,,
15284,1564133156499,6,2.43,1.06,0.46,1.53,1.11,0.29,-0.68,1.29,16,2,14,0.74,10173,100,90,41,86,943,730.0,638,461,60,123.0,310,1,408,585,221,0,0,732,-20693,-4096,730,-5.59,,,,,,,,,,,,
15304,1564133156519,8,2.42,1.06,0.46,1.53,1.12,0.36,-0.62,1.19,16,1,15,0.71,10268,89,90,41,85,947,726.0,645,461,60,122.0,304,1,414,567,221,0,0,738,24,-3344,726,-5.59,,,,,,,,,,,,
15324,1564133156539,12,2.42,1.07,0.46,1.52,1.12,0.44,-0.58,1.21,16,1,15,0.73,10173,74,90,41,82,947,727.0,638,462,60,123.0,304,1,407,523,221,0,0,754,-3584,-31066,727,-5.59,,,,,,,,,,,,
15344,1564133156559,12,2.42,1.06,0.46,1.53,1.12,0.54,-0.6,1.24,16,-1,15,0.8,10168,59,90,41,75,947,731.0,631,466,60,122.0,304,1,408,471,221,0,0,764,14342,-3038,731,-5.59,44.681362,10.02483,69.44,175.8,0,0.0,-1,0.0,0.0,0,0.14,0.2557
15364,1564133156579,10,2.43,1.06,0.46,1.53,1.11,0.57,-0.69,1.04,16,-2,16,0.9,10140,46,90,41,67,949,730.0,636,465,60,122.0,304,1,405,419,221,0,0,744,12333,-22795,730,-5.59,,,,,,,,,,,,
15384,1564133156596,11,2.43,1.06,0.45,1.53,1.11,0.64,-0.7,0.9,16,-3,16,0.94,10059,36,90,41,61,951,733.0,638,466,60,123.0,304,1,413,368,221,0,0,743,11576,-2574,733,-5.59,,,,,,,,,,,,
15404,1564133156616,14,2.42,1.07,0.46,1.53,1.11,0.77,-0.7,0.79,16,-4,17,1.04,9973,26,90,41,54,953,730.0,640,465,60,123.0,160,1,400,310,117,0,0,737,16118,-3450,730,-5.59,,,,,,,,,,,,
15424,1564133156636,12,2.43,1.06,0.46,1.53,1.12,0.77,-0.76,0.64,16,-5,18,1.08,9847,24,90,41,49,952,733.0,637,467,60,123.0,160,1,385,259,117,0,0,746,3543,-2314,731,-5.59,,,,,,,,,,,,
15444,1564133156656,13,2.42,1.07,0.46,1.53,1.12,0.82,-0.79,0.72,17,-6,18,1.14,9551,23,90,41,45,942,731.0,637,465,60,122.0,160,1,365,228,117,0,0,705,19188,3462,731,-5.59,44.681354,10.024852,71.12,175.7,0,0.0,-1,0.0,0.0,0,0.14,0.2574
15464,1564133156676,15,2.42,1.07,0.46,1.53,1.11,0.85,-0.82,0.73,17,-6,18,1.18,9309,23,90,41,43,931,729.0,632,458,60,122.0,160,1,348,221,117,0,0,688,11576,-3344,729,-5.59,,,,,,,,,,,,
15484,1564133156694,14,2.42,1.07,0.46,1.52,1.11,0.9,-0.83,0.64,18,-5,19,1.22,9079,23,90,41,43,920,730.0,627,468,60,123.0,160,1,345,219,117,0,0,653,-2830,-25858,728,-5.59,,,,,,,,,,,,
15504,1564133156714,15,2.42,1.06,0.45,1.52,1.12,0.98,-0.84,0.63,18,-4,20,1.29,8856,23,90,41,42,905,727.0,618,462,60,123.0,99,1,338,215,72,0,0,607,16118,31988,727,-5.59,,,,,,,,,,,,
15524,1564133156734,13,2.42,1.06,0.46,1.53,1.12,1.03,-0.85,0.65,18,-4,21,1.33,8636,23,90,41,42,874,723.0,611,467,60,124.0,99,1,338,215,72,0,0,569,16118,-2830,722,-5.59,,,,,,,,,,,,
15544,1564133156754,15,2.42,1.07,0.46,1.53,1.12,1.0,-0.86,0.56,19,-3,21,1.31,8411,23,90,41,42,843,1918.0,605,466,60,123.0,99,1,337,213,72,0,0,640,-7436,-23490,1918,-5.59,44.681347,10.024875,72.07,175.7,0,0.0,-1,0.0,0.0,0,0.15,0.2591
15564,1564133156774,13,2.41,1.06,0.46,1.53,1.11,1.06,-0.86,0.52,19,-3,21,1.37,8256,23,90,41,42,823,1918.0,587,466,60,124.0,99,1,335,212,72,0,0,640,250,-30694,1918,-5.59,,,,,,,,,,,,
15584,1564133156794,14,2.42,1.07,0.45,1.53,1.11,1.06,-0.9,0.48,19,-3,22,1.39,8016,23,90,41,43,804,705.0,540,464,60,122.0,99,1,340,212,72,0,0,640,3543,204,705,-5.59,,,,,,,,,,,,
15604,1564133156814,14,2.42,1.06,0.45,1.53,1.11,1.09,-0.89,0.42,18,-2,24,1.41,7805,23,90,41,43,808,707.0,508,467,60,124.0,99,1,340,212,72,0,0,640,-3038,6658,706,-5.59,,,,,,,,,,,,
15624,1564133156834,10,2.42,1.06,0.46,1.53,1.11,1.08,-0.83,0.35,18,-2,24,1.37,7722,22,90,41,43,812,709.0,426,463,60,123.0,87,1,340,212,62,0,0,640,-3578,15647,709,-5.59,,,,,,,,,,,,
15644,1564133156854,10,2.42,1.07,0.46,1.53,1.11,1.06,-0.83,0.37,19,-1,25,1.35,7631,22,90,41,42,833,703.0,357,458,60,125.0,87,1,332,212,62,0,0,400,3543,12333,703,181.28,44.681339,10.024897,70.91,175.7,0,0.0,-1,0.0,0.0,0,0.15,0.2607
15664,1564133156874,8,2.41,1.06,0.46,1.52,1.11,1.01,-0.84,0.38,19,-0,25,1.31,7479,22,91,41,43,858,699.0,330,461,60,125.0,87,1,340,211,62,0,0,362,8958,-2830,699,414.87,,,,,,,,,,,,
15684,1564133156900,9,2.42,1.06,0.46,1.53,1.11,1.04,-0.82,0.45,19,-1,26,1.32,7264,22,91,41,43,890,699.0,311,461,60,124.0,87,1,340,211,62,0,0,329,-26380,16599,697,181.28,,,,,,,,,,,,
15704,1564133156920,9,2.42,1.06,0.44,1.52,1.12,1.05,-0.79,0.38,19,-0,26,1.31,7086,22,91,41,44,923,696.0,313,457,60,124.0,81,1,347,213,57,0,0,322,8958,14342,697,181.28,,,,,,,,,,,,
15724,1564133156940,9,2.42,1.06,0.46,1.53,1.11,1.03,-0.91,0.39,19,-1,26,1.37,6921,22,91,41,45,938,694.0,320,460,60,124.0,81,1,354,214,57,0,0,319,31988,24845,694,181.28,,,,,,,,,,,,
15744,1564133156960,10,2.42,1.06,0.45,1.53,1.11,1.11,-0.9,0.44,19,-0,27,1.43,6773,22,90,41,46,947,690.0,308,456,60,123.0,81,1,359,328,57,0,0,300,11566,12333,687,-5.59,44.681328,10.024918,69.45,175.6,0,0.0,-1,0.0,0.0,0,0.15,0.2624
15764,1564133156980,8,2.43,1.06,0.46,1.52,1.11,1.14,-1.01,0.31,18,-0,25,1.52,6913,22,90,41,48,951,685.0,315,468,60,122.0,81,1,371,314,57,0,0,280,-3584,-26892,685,-5.59,,,,,,,,,,,,
15784,1564133156992,10,2.42,1.06,0.46,1.52,1.11,1.16,-0.97,0.37,18,-0,27,1.51,6944,22,90,41,49,954,682.0,332,465,60,123.0,81,1,374,287,57,0,0,209,4909,479,682,-5.59,,,,,,,,,,,,
15804,1564133157012,12,2.43,1.06,0.45,1.53,1.11,1.14,-0.93,0.42,17,1,28,1.47,7156,22,90,41,49,951,674.0,355,467,60,122.0,105,1,375,263,71,0,0,167,-3584,31988,674,-5.59,,,,,,,,,,,,
15824,1564133157032,11,2.43,1.07,0.45,1.53,1.12,1.06,-0.93,0.28,18,2,27,1.41,7434,22,90,41,49,944,671.0,350,465,60,122.0,105,1,375,234,71,0,0,116,6208,-30207,671,-5.59,,,,,,,,,,,,
15844,1564133157052,9,2.44,1.06,0.45,1.53,1.11,1.06,-0.99,0.25,19,3,27,1.45,7515,22,90,41,48,939,669.0,370,466,60,123.0,105,1,372,224,71,0,0,116,3,1549,672,-5.59,44.68132,10.024938,67.84,175.6,0,0.0,-1,0.0,0.0,0,0.15,0.2641
15864,1564133157072,9,2.44,1.06,0.45,1.53,1.12,1.05,-0.99,0.21,19,5,28,1.44,7603,22,90,41,48,935,669.0,355,462,60,124.0,105,1,372,224,71,0,0,116,-4876,31988,668,-5.59,,,,,,,,,,,,
15884,1564133157100,9,2.44,1.06,0.46,1.53,1.11,1.04,-0.94,0.13,19,4,29,1.4,7653,22,90,41,47,935,667.0,348,462,60,123.0,105,1,370,224,71,0,0,48,-14655,-3038,667,-5.59,,,,,,,,,,,,
15904,1564133157120,7,2.45,1.07,0.45,1.52,1.12,0.97,-0.91,0.19,20,5,28,1.33,7646,22,90,41,47,936,664.0,338,465,60,123.0,105,1,370,219,71,0,0,48,3395,-388,664,-5.59,,,,,,,,,,,,
15924,1564133157140,5,2.47,1.06,0.46,1.52,1.12,0.94,-0.91,0.23,21,5,29,1.31,7461,22,90,41,47,926,662.0,339,467,60,123.0,94,1,370,145,63,0,0,66,3403,-10344,662,-5.59,,,,,,,,,,,,
15944,1564133157160,6,2.47,1.07,0.46,1.53,1.11,0.86,-0.92,0.28,21,6,29,1.26,7506,22,90,41,47,912,656.0,348,466,60,123.0,94,1,370,219,63,0,0,260,1010,-2345,656,-5.59,44.681309,10.024956,66.2,175.6,0,0.0,-1,0.0,0.0,0,0.15,0.2657
15964,1564133157180,5,2.48,1.07,0.45,1.52,1.11,0.85,-0.93,0.32,22,4,30,1.26,7524,22,90,41,47,898,656.0,336,463,60,123.0,94,1,370,219,63,0,0,262,-3820,-6006,656,-5.59,,,,,,,,,,,,
15984,1564133157198,2,2.5,1.06,0.46,1.53,1.11,0.85,-0.92,0.34,22,3,31,1.25,7659,22,90,41,47,882,654.0,350,462,60,123.0,94,1,370,219,63,0,0,257,-3820,-8429,654,-5.59,,,,,,,,,,,,
16004,1564133157218,3,2.49,1.06,0.45,1.52,1.12,0.87,-0.95,0.37,23,2,32,1.29,7738,22,90,41,47,859,652.0,382,464,60,124.0,96,1,370,217,63,0,0,229,-3446,11776,652,-5.59,,,,,,,,,,,,
16024,1564133157238,5,2.48,1.06,0.46,1.53,1.12,0.88,-1.03,0.4,23,2,32,1.35,7904,22,90,41,46,830,650.0,400,465,60,123.0,96,1,362,217,63,0,0,171,17740,479,650,-5.59,,,,,,,,,,,,
16044,1564133157258,4,2.49,1.06,0.45,1.53,1.11,0.89,-1.02,0.34,24,3,32,1.36,8029,22,90,41,46,808,650.0,416,466,60,123.0,96,1,362,215,63,0,0,145,-30139,4909,650,-5.59,44.681301,10.024973,64.13,175.6,0,0.0,-1,0.0,0.0,0,0.15,0.2674
16064,1564133157278,1,2.49,1.07,0.45,1.53,1.11,0.9,-1.05,0.39,25,4,32,1.38,8081,22,90,41,45,794,650.0,393,463,60,124.0,96,1,355,215,63,0,0,123,19621,-6006,650,-5.59,,,,,,,,,,,,
16084,1564133157300,3,2.49,1.07,0.46,1.52,1.11,0.91,-1.09,0.35,25,5,33,1.42,8145,22,90,41,44,779,647.0,400,465,60,123.0,96,1,348,214,63,0,0,123,5344,11776,647,-5.59,,,,,,,,,,,,
16104,1564133157320,0,2.49,1.06,0.46,1.52,1.12,0.91,-1.08,0.39,25,5,33,1.42,8159,22,90,41,43,765,646.0,393,465,60,123.0,102,1,341,213,66,0,0,106,-23055,2024,646,-5.59,,,,,,,,,,,,
16124,1564133157340,2,2.48,1.06,0.45,1.53,1.11,0.93,-1.12,0.43,26,6,33,1.46,7941,22,90,41,43,755,645.0,370,465,60,123.0,102,1,340,210,66,0,0,236,-7939,24583,645,-5.59,,,,,,,,,,,,
16144,1564133157360,1,2.5,1.06,0.46,1.52,1.12,0.98,-1.17,0.36,26,6,33,1.52,7884,22,90,41,43,754,642.0,345,467,60,122.0,102,1,340,212,66,0,0,361,-7939,11776,642,-5.59,44.681286,10.024989,62.87,175.6,0,0.0,-1,0.0,0.0,0,0.16,0.2691
16164,1564133157380,-1,2.5,1.06,0.46,1.53,1.11,0.96,-1.24,0.44,26,4,33,1.57,7901,22,90,41,42,755,638.0,323,464,60,124.0,102,1,332,212,66,0,0,404,243,-2836,638,-5.59,,,,,,,,,,,,
16184,1564133157400,1,2.5,1.06,0.45,1.53,1.11,1.06,-1.22,0.46,26,2,33,1.62,8012,22,90,41,43,758,637.0,335,465,60,124.0,102,1,340,210,66,0,0,405,-3210,-7939,637,-5.59,,,,,,,,,,,,
16204,1564133157420,2,2.5,1.06,0.45,1.52,1.12,1.01,-1.3,0.46,26,2,34,1.65,8289,22,90,41,42,761,630.0,353,462,60,122.0,102,1,335,212,66,0,0,354,4956,-4876,630,-5.59,,,,,,,,,,,,
16224,1564133157440,1,2.49,1.07,0.45,1.52,1.11,1.09,-1.27,0.44,26,0,35,1.67,8581,22,90,41,41,763,631.0,335,464,60,123.0,104,1,332,212,66,0,0,333,3472,1010,631,-5.59,,,,,,,,,,,,
16244,1564133157460,0,2.51,1.06,0.45,1.53,1.11,1.09,-1.23,0.41,26,1,35,1.64,8852,22,90,41,40,767,629.0,325,466,60,124.0,104,1,326,211,66,0,0,274,6273,506,626,-5.59,44.681278,10.025002,62.04,175.6,0,0.0,-1,0.0,0.0,0,0.16,0.2707
16264,1564133157480,2,2.49,1.06,0.45,1.53,1.11,1.06,-1.21,0.41,26,1,36,1.61,8949,22,90,41,39,770,628.0,325,463,60,122.0,104,1,320,209,66,0,0,262,2048,20993,629,-5.59,,,,,,,,,,,,
16284,1564133157498,2,2.49,1.06,0.46,1.53,1.11,1.07,-1.23,0.47,26,2,35,1.63,8979,22,90,41,37,773,628.0,336,469,60,124.0,104,1,314,205,66,0,0,264,-12040,3,630,-5.59,,,,,,,,,,,,
16304,1564133157518,2,2.49,1.06,0.45,1.53,1.11,1.1,-1.24,0.51,26,3,35,1.66,9014,22,90,41,37,774,630.0,327,470,60,123.0,104,1,314,201,66,0,0,269,208,-16046,630,-5.59,,,,,,,,,,,,
16324,1564133157538,2,2.49,1.07,0.45,1.53,1.12,1.13,-1.24,0.56,26,3,35,1.68,9044,22,90,41,36,775,626.0,331,470,60,123.0,107,1,311,199,68,0,0,272,8488,20993,626,-5.59,,,,,,,,,,,,
16344,1564133157558,1,2.49,1.06,0.46,1.52,1.11,1.16,-1.23,0.51,26,2,35,1.69,9036,22,90,41,36,780,624.0,327,461,60,122.0,107,1,311,199,68,0,0,299,-4035,966,621,-5.59,44.681263,10.025015,61.57,175.6,0,0.0,-1,0.0,0.0,0,0.16,0.2724
16364,1564133157578,2,2.51,1.05,0.45,1.53,1.11,1.21,-1.24,0.53,26,1,35,1.73,9027,22,90,41,35,785,621.0,318,469,60,123.0,107,1,308,199,68,0,0,374,-16384,-16883,622,-5.59,,,,,,,,,,,,
16384,1564133157597,1,2.52,1.06,0.45,1.52,1.11,1.23,-1.25,0.54,27,1,34,1.75,9010,22,90,41,35,790,618.0,316,469,60,123.0,107,1,308,120,68,0,0,430,-3210,19320,622,-5.59,,,,,,,,,,,,
16404,1564133157617,-0,2.51,1.07,0.45,1.52,1.12,1.29,-1.3,0.61,26,-0,34,1.83,9005,22,90,40,35,795,619.0,316,468,60,124.0,106,1,308,195,66,0,0,463,30208,-16883,619,-5.59,,,,,,,,,,,,
16424,1564133157637,2,2.51,1.06,0.46,1.52,1.12,1.37,-1.3,0.59,26,-1,34,1.89,9044,22,90,40,35,807,615.0,320,462,60,122.0,106,1,308,195,66,0,0,468,259,30721,615,-5.59,,,,,,,,,,,,
16444,1564133157657,2,2.51,1.06,0.46,1.53,1.11,1.41,-1.27,0.54,25,-0,35,1.9,9213,22,90,40,35,819,614.0,317,467,60,124.0,106,1,308,198,66,0,0,414,774,-16179,612,-5.59,44.681252,10.025026,60.1,175.6,0,0.0,-1,0.0,0.0,0,0.16,0.2741
16464,1564133157677,0,2.52,1.06,0.46,1.52,1.12,1.37,-1.29,0.46,24,-2,35,1.88,9426,22,90,40,34,827,607.0,327,469,60,123.0,106,1,305,198,66,0,0,383,-8188,-16179,607,-5.59,,,,,,,,,,,,
16484,1564133157697,-0,2.51,1.07,0.46,1.52,1.12,1.24,-1.31,0.46,25,0,35,1.81,9412,22,90,40,34,834,607.0,342,473,60,123.0,106,1,305,199,66,0,0,362,-3190,243,607,-5.59,,,,,,,,,,,,
16504,1564133157717,1,2.51,1.06,0.46,1.53,1.12,1.19,-1.29,0.5,27,0,35,1.76,9370,22,90,40,33,838,609.0,353,465,60,124.0,113,1,302,194,69,0,0,362,-8186,-3446,610,-5.59,,,,,,,,,,,,
16524,1564133157737,3,2.52,1.06,0.46,1.52,1.12,1.19,-1.25,0.45,27,1,36,1.73,9342,22,90,40,33,843,609.0,344,462,60,122.0,113,1,302,194,69,0,0,360,1780,-23055,609,-5.59,,,,,,,,,,,,
16544,1564133157757,0,2.52,1.07,0.45,1.53,1.11,1.17,-1.18,0.4,27,2,37,1.67,9305,22,90,40,33,841,607.0,337,466,60,123.0,113,1,302,193,69,0,0,364,2211,243,607,-5.59,44.68124,10.025035,59.8,175.6,0,0.0,-1,0.0,0.0,0,0.16,0.2757
16564,1564133157777,1,2.53,1.07,0.46,1.52,1.12,1.14,-1.25,0.37,27,2,37,1.69,9291,22,90,40,33,838,602.0,338,472,60,122.0,113,1,302,193,69,0,0,369,-23623,23619,605,-5.59,,,,,,,,,,,,
16584,1564133157797,-2,2.54,1.06,0.46,1.53,1.11,1.04,-1.25,0.47,28,3,35,1.63,9250,22,90,40,33,834,599.0,347,472,60,123.0,113,1,302,192,69,0,0,400,-23623,30227,599,-5.59,,,,,,,,,,,,
16604,1564133157817,2,2.53,1.06,0.46,1.53,1.12,1.02,-1.32,0.62,29,4,34,1.67,9222,22,90,40,33,831,599.0,330,462,60,123.0,111,1,302,192,67,0,0,451,-18032,-7939,599,-5.59,,,,,,,,,,,,
16624,1564133157837,1,2.54,1.06,0.46,1.53,1.12,1.06,-1.34,0.68,29,3,34,1.71,9200,22,90,40,33,829,597.0,324,461,60,123.0,111,1,302,192,67,0,0,466,2216,-12040,599,-5.59,,,,,,,,,,,,
16644,1564133157857,3,2.53,1.07,0.45,1.52,1.12,1.07,-1.34,0.64,28,3,35,1.71,9323,22,90,40,33,829,595.0,318,465,60,124.0,111,1,302,193,67,0,0,433,-22263,-4035,595,-5.59,44.681225,10.025043,58.5,175.6,0,0.0,-1,0.0,0.0,0,0.16,0.2774
16664,1564133157877,0,2.53,1.06,0.45,1.53,1.11,1.07,-1.39,0.49,28,2,37,1.75,9464,22,90,40,33,825,592.0,315,464,60,124.0,111,1,302,196,67,0,0,393,-28648,-3210,591,-5.59,,,,,,,,,,,,
16684,1564133157899,0,2.53,1.06,0.46,1.52,1.12,1.0,-1.38,0.63,28,1,36,1.71,9469,28,90,40,33,820,589.0,313,461,60,123.0,111,1,302,196,67,0,0,379,-28648,30227,592,-5.59,,,,,,,,,,,,
16704,1564133157919,3,2.53,1.07,0.46,1.52,1.12,1.03,-1.36,0.58,29,2,36,1.7,9460,34,90,40,35,815,592.0,306,460,60,123.0,119,1,308,200,71,0,0,380,6274,3472,592,-5.59,,,,,,,,,,,,
16724,1564133157939,1,2.53,1.07,0.46,1.52,1.12,0.98,-1.32,0.46,30,3,37,1.65,9522,44,90,40,39,810,591.0,306,463,60,123.0,119,1,320,211,71,0,0,381,2104,2048,590,-5.59,,,,,,,,,,,,
16744,1564133157959,1,2.53,1.06,0.45,1.53,1.12,0.95,-1.32,0.6,29,4,37,1.62,9561,53,90,40,44,809,588.0,309,471,60,122.0,119,1,357,225,71,0,0,384,-506,-12040,588,-5.59,44.68121,10.025049,57.95,175.6,0,0.0,-1,0.0,0.0,0,0.17,0.2791
16764,1564133157979,3,2.53,1.06,0.46,1.53,1.11,0.94,-1.34,0.48,29,5,37,1.64,9571,62,90,40,51,808,586.0,316,471,60,123.0,119,1,391,277,71,0,0,389,-506,-1894,588,-5.59,,,,,,,,,,,,
16784,1564133157991,1,2.53,1.07,0.45,1.52,1.12,0.93,-1.31,0.38,29,3,38,1.61,9450,69,90,40,58,810,585.0,314,467,60,122.0,119,1,406,321,71,0,0,397,-506,-25872,585,-5.59,,,,,,,,,,,,
16804,1564133158011,1,2.53,1.06,0.45,1.52,1.12,0.88,-1.31,0.54,30,2,37,1.58,9445,76,90,40,65,814,584.0,329,471,60,122.0,119,1,413,289,71,0,0,430,-8962,-25872,582,-5.59,,,,,,,,,,,,
16824,1564133158031,2,2.53,1.06,0.45,1.53,1.12,0.99,-1.35,0.38,30,1,37,1.68,9450,81,90,40,72,833,583.0,330,467,60,123.0,219,1,415,407,128,0,0,460,1780,10432,583,-5.59,,,,,,,,,,,,
16844,1564133158051,1,2.52,1.07,0.46,1.53,1.12,0.97,-1.36,0.39,31,2,36,1.67,9441,84,90,40,79,864,582.0,332,470,60,122.0,219,1,416,485,128,0,0,474,-3082,10432,582,-5.59,44.681198,10.025053,57.26,175.6,0,0.0,-1,0.0,0.0,0,0.17,0.2807
16864,1564133158071,3,2.52,1.07,0.45,1.52,1.11,0.97,-1.31,0.55,30,3,37,1.63,9537,88,90,40,83,894,583.0,330,460,60,123.0,219,1,417,527,128,0,0,479,-28648,-16384,583,-5.59,,,,,,,,,,,,
16884,1564133158093,1,2.52,1.06,0.46,1.53,1.11,0.94,-1.34,0.39,29,2,38,1.64,9735,91,90,40,84,922,576.0,336,459,60,122.0,219,1,408,550,128,0,0,482,-30064,1,578,-5.59,,,,,,,,,,,,
16904,1564133158113,4,2.51,1.07,0.45,1.53,1.11,0.94,-1.32,0.42,29,1,37,1.62,10102,93,90,40,84,990,578.0,352,464,60,122.0,363,1,401,549,210,0,0,483,1780,-16384,578,-5.59,,,,,,,,,,,,
16924,1564133158133,3,2.51,1.07,0.45,1.53,1.11,0.92,-1.35,0.56,29,1,37,1.63,10581,94,90,40,84,1098,577.0,337,466,60,122.0,363,1,432,549,210,0,0,496,-8186,774,577,-5.59,,,,,,,,,,,,
16944,1564133158153,0,2.51,1.06,0.45,1.52,1.12,0.95,-1.27,0.55,30,1,37,1.59,10894,95,90,40,84,1197,577.0,348,470,60,121.0,363,1,440,549,210,0,0,506,1780,30208,574,-5.59,44.681183,10.025056,56.42,175.6,0,0.0,-1,0.0,0.0,0,0.17,0.2824
16964,1564133158173,3,2.51,1.07,0.45,1.52,1.11,0.92,-1.32,0.46,29,1,37,1.61,11281,95,90,40,84,1277,574.0,336,468,60,122.0,363,1,441,549,210,0,0,522,-28648,30208,574,-5.59,,,,,,,,,,,,
16984,1564133158199,2,2.5,1.07,0.45,1.53,1.11,0.9,-1.28,0.52,29,2,38,1.56,11453,95,90,40,84,1344,574.0,343,471,60,121.0,363,1,441,549,210,0,0,585,-32248,-13043,575,-5.59,,,,,,,,,,,,
17004,1564133158219,2,2.48,1.06,0.45,1.53,1.11,0.9,-1.25,0.66,29,3,38,1.54,11531,96,90,40,84,1393,575.0,340,471,60,121.0,417,1,440,549,240,0,0,650,-2934,3472,575,-5.59,,,,,,,,,,,,
17024,1564133158239,2,2.48,1.06,0.44,1.53,1.12,0.87,-1.3,0.68,28,4,37,1.56,11574,96,90,41,83,1422,578.0,329,468,60,122.0,417,1,440,550,240,0,0,636,-8186,-13043,577,-5.59,,,,,,,,,,,,
17044,1564133158259,1,2.46,1.06,0.46,1.53,1.11,0.84,-1.28,0.64,28,4,37,1.53,11733,96,89,41,84,1391,578.0,327,463,60,122.0,417,1,440,494,240,0,0,596,-506,-30139,578,-5.59,44.681168,10.025056,55.88,175.6,0,0.0,-1,0.0,0.0,0,0.17,0.2841
17064,1564133158279,3,2.42,1.07,0.45,1.52,1.12,0.75,-1.24,0.68,28,5,37,1.46,11696,96,90,41,83,1354,584.0,343,465,60,122.0,417,1,440,536,240,0,0,645,2104,1010,583,-5.59,,,,,,,,,,,,
17084,1564133158299,2,2.4,1.07,0.45,1.53,1.11,0.67,-1.25,0.7,27,5,37,1.42,11667,96,90,41,83,1298,587.0,340,462,60,121.0,417,1,440,536,240,0,0,634,-32248,771,587,-5.59,,,,,,,,,,,,
17104,1564133158319,0,2.39,1.06,0.45,1.52,1.11,0.7,-1.28,0.83,26,5,37,1.46,11653,97,89,41,83,1249,588.0,348,467,60,121.0,403,1,440,536,237,0,0,598,-9072,966,589,-5.59,,,,,,,,,,,,
17124,1564133158339,2,2.39,1.06,0.45,1.53,1.11,0.66,-1.2,0.77,25,4,37,1.37,11581,97,90,41,83,1224,592.0,378,463,60,122.0,403,1,440,533,237,0,0,619,-28648,20993,592,-5.59,,,,,,,,,,,,
17144,1564133158359,2,2.39,1.06,0.45,1.52,1.12,0.64,-1.07,0.82,25,3,36,1.24,11545,97,90,41,84,1197,595.0,400,465,60,122.0,403,1,440,532,237,0,0,607,1267,30721,594,-5.59,44.681152,10.025055,55.76,175.7,0,0.0,-1,0.0,0.0,0,0.17,0.2857
17164,1564133158379,1,2.4,1.06,0.46,1.53,1.11,0.67,-1.09,0.93,25,4,33,1.28,11488,97,89,41,84,1162,597.0,441,462,60,122.0,403,1,441,549,237,0,0,629,-3210,30721,597,-5.59,,,,,,,,,,,,
17184,1564133158399,4,2.41,1.07,0.45,1.52,1.12,0.64,-1.08,0.9,24,4,30,1.25,11503,97,89,41,84,1127,601.0,468,466,60,122.0,403,1,440,549,237,0,0,660,259,26688,601,-5.59,,,,,,,,,,,,
17204,1564133158419,3,2.43,1.06,0.45,1.53,1.11,0.58,-0.96,0.82,23,5,29,1.12,11638,97,90,41,84,1117,600.0,502,465,60,122.0,405,1,440,552,243,0,0,618,774,-16883,601,-5.59,,,,,,,,,,,,
17224,1564133158439,3,2.46,1.06,0.45,1.53,1.11,0.47,-0.89,0.78,22,5,29,1.01,11844,97,89,41,83,1108,602.0,524,471,60,122.0,405,1,440,540,243,0,0,619,259,20993,602,-5.59,,,,,,,,,,,,
17244,1564133158459,2,2.47,1.06,0.46,1.53,1.11,0.37,-0.79,0.74,23,5,29,0.87,11919,97,90,41,83,1104,608.0,551,471,60,122.0,405,1,440,542,243,0,0,613,-4035,-10251,608,-5.59,44.681141,10.025053,57.02,175.7,0,0.0,-1,0.0,0.0,0,0.17,0.2874
17264,1564133158479,3,2.46,1.07,0.45,1.53,1.12,0.3,-0.73,0.69,24,5,28,0.79,11950,98,89,41,84,1100,615.0,581,471,60,122.0,405,1,440,560,243,0,0,627,6273,966,616,-5.59,,,,,,,,,,,,
17284,1564133158497,3,2.48,1.07,0.45,1.53,1.11,0.27,-0.68,0.62,24,5,29,0.73,11957,98,89,41,83,1107,618.0,615,469,60,123.0,405,1,440,543,243,0,0,691,2048,479,618,-5.59,,,,,,,,,,,,
17304,1564133158517,3,2.48,1.07,0.45,1.53,1.12,0.15,-0.66,0.51,24,5,29,0.67,12120,98,90,41,83,1114,624.0,638,468,60,122.0,400,1,440,545,250,0,0,702,208,3,624,-5.59,,,,,,,,,,,,
17324,1564133158537,4,2.49,1.06,0.46,1.52,1.12,0.11,-0.63,0.41,24,5,28,0.64,12425,98,89,41,83,1104,621.0,643,468,60,122.0,400,1,440,545,250,0,0,628,-32504,11566,621,-5.59,,,,,,,,,,,,
17344,1564133158557,1,2.49,1.06,0.46,1.53,1.11,0.2,-0.76,0.57,25,5,26,0.79,12567,98,89,41,83,1094,625.0,651,470,60,122.0,400,1,440,545,250,0,0,676,4956,4909,625,-5.59,44.681126,10.025049,58.88,175.7,0,0.0,-1,0.0,0.0,0,0.18,0.2891
17364,1564133158577,2,2.47,1.06,0.46,1.53,1.12,0.19,-0.78,0.57,25,5,27,0.8,12567,98,90,41,83,1077,635.0,653,470,60,122.0,400,1,440,545,250,0,0,734,30227,-10344,634,-5.59,,,,,,,,,,,,
17384,1564133158596,2,2.47,1.07,0.45,1.53,1.11,0.23,-0.74,0.5,25,4,29,0.78,12711,98,89,41,83,1060,641.0,651,462,60,121.0,400,1,440,545,250,0,0,695,4956,-2826,639,-5.59,,,,,,,,,,,,
17404,1564133158616,3,2.48,1.06,0.46,1.53,1.11,0.18,-0.86,0.65,25,4,30,0.88,12789,98,89,41,84,1024,640.0,642,464,60,121.0,412,1,440,545,264,0,0,655,-768,31988,640,-5.59,,,,,,,,,,,,
17424,1564133158636,1,2.46,1.06,0.45,1.53,1.11,0.23,-0.88,0.68,26,4,30,0.91,12789,98,89,41,84,988,647.0,637,463,60,122.0,412,1,440,560,264,0,0,693,5344,3543,647,-5.59,,,,,,,,,,,,
