"Interval"|"ms"|0|0|1,"Utc"|"ms"|0|0|1,"FB_p"|"bar"|0|300|50,"Volant"|"F"|0.0|300.0|50,"xFR"|"mm"|0.0|5.0|50,"xRR"|"mm"|0.0|5.0|50,"xFL"|"mm"|0.0|5.0|50,"xRL"|"mm"|0.0|5.0|50,"AccelX"|"G"|-3.0|3.0|50,"AccelY"|"G"|-3.0|3.0|50,"AccelZ"|"G"|-3.0|3.0|50,"Yaw"|"Deg/Sec"|-120|120|50,"Pitch"|"Deg/Sec"|-120|120|50,"Roll"|"Deg/Sec"|-120|120|50,"Gsum"|"G"|0.0|3.0|50,"RPM"|""|0|14000|50,"TPS"|"%"|0|100|50,"WaterTemp"|"?C"|0|300|50,"AirTemp"|"?C"|-1000|1000|50,"MAP"|"KPa"|0|255|50,"Lambda"|""|0|1024|50,"WheelSpeed"|"MPH"|0.0|150.0|50,"OilPress"|"PSI"|0|150|50,"FuelPress"|"PSI"|0|150|50,"OilTemp"|"F"|0|300|50,"Battery"|"Volts"|0.0|20.0|50,"FuelCon"|"L/h"|-1000|1000|50,"Gear"|""|0|10|50,"Advance"|"Deg"|-360|360|50,"Injection"|"ms"|-1000|1000|50,"FuelCon"|"L/100km"|-1000|1000|50,"LC_But_Pres"|""|-1000|1000|50,"LC_Active"|""|-1000|1000|50,"RD_Speed"|""|-1000|1000|50,"RUD_Speed"|""|-1000|1000|50,"LD_Speed"|""|-1000|1000|50,"LUD_Speed"|""|-1000|1000|50,"Ana1"|"bar"|-1000.0|1000.0|50,"Latitude"|"Degrees"|-180.0|180.0|10,"Longitude"|"Degrees"|-180.0|180.0|10,"Speed"|"kph"|0.0|150.0|10,"Altitude"|"m"|0.0|4000.0|10,"LapCount"|""|0|0|10,"LapTime"|"Min"|0.0|0.0|10,"Sector"|""|0|0|10,"SectorTime"|"Min"|0.0|0.0|10,"ElapsedTime"|"Min"|0.0|0.0|10,"CurrentLap"|""|0|0|10,"Distance"|"km"|0.0|0.0|10,"SessionTime"|"Min"|0.0|0.0|10
32164,1564156119104,3,2.15,0.84,0.47,1.15,0.95,0.64,0.8,0.97,-19,3,-23,1.02,8491,51,102,43,69,503,605.0,637,464,60,119.0,261,1,433,383,148,0,0,623,-3820,24,578,-5.59,,,,,,,,,,,,
32184,1564156119124,0,2.15,0.84,0.47,1.13,0.95,0.75,0.7,0.92,-19,2,-23,1.03,8553,42,102,43,65,503,608.0,638,468,60,118.0,201,1,435,358,117,0,0,631,-30139,-1346,579,-5.59,,,,,,,,,,,,
32204,1564156119144,-0,2.14,0.83,0.47,1.14,0.95,0.68,0.66,0.8,-19,2,-22,0.95,8526,31,102,43,59,503,614.0,642,467,60,117.0,201,1,428,316,117,0,0,630,16529,26688,585,-5.59,,,,,,,,,,,,
32224,1564156119164,2,2.12,0.84,0.47,1.14,0.95,0.79,0.59,0.9,-21,2,-23,0.99,8400,22,102,43,53,503,615.0,635,464,60,118.0,201,1,387,273,117,0,0,631,16529,-14655,585,-5.59,,,,,,,,,,,,
32244,1564156119184,1,2.11,0.83,0.47,1.14,0.95,0.82,0.51,0.86,-21,3,-23,0.96,8292,16,102,43,48,503,614.0,632,465,60,118.0,201,1,372,228,117,0,0,625,269,3,589,-5.59,44.681179,10.025053,56.65,179.6,0,0.0,-1,0.0,0.0,0,0.1,0.5374
32264,1564156119202,3,2.1,0.82,0.47,1.14,0.95,0.77,0.66,0.79,-20,2,-23,1.01,8314,14,102,43,43,503,616.0,636,464,60,118.0,201,1,343,218,117,0,0,622,19304,28675,586,-5.59,,,,,,,,,,,,
32284,1564156119222,0,2.1,0.83,0.46,1.14,0.95,0.67,0.53,0.75,-20,2,-25,0.85,8351,14,102,43,41,503,616.0,647,468,60,116.0,114,1,330,213,67,0,0,626,19304,5344,589,-5.59,,,,,,,,,,,,
32304,1564156119242,2,2.1,0.83,0.47,1.13,0.94,0.59,0.68,0.65,-20,3,-23,0.9,8337,14,102,43,38,503,617.0,651,466,60,118.0,114,1,313,204,67,0,0,622,3403,16529,588,-5.59,,,,,,,,,,,,
32324,1564156119262,0,2.1,0.83,0.46,1.13,0.94,0.73,0.65,0.77,-21,3,-25,0.98,8252,14,102,43,36,503,618.0,635,467,60,119.0,114,1,306,200,67,0,0,621,30721,19320,587,-5.59,,,,,,,,,,,,
32344,1564156119282,1,2.1,0.83,0.46,1.13,0.94,0.59,0.66,0.63,-22,4,-25,0.89,8249,14,102,43,35,503,622.0,643,467,60,118.0,114,1,302,190,67,0,0,623,17336,30227,588,-5.59,44.681194,10.025055,58.01,179.6,0,0.0,-1,0.0,0.0,0,0.1,0.5391
32364,1564156119304,1,2.09,0.83,0.47,1.14,0.94,0.73,0.68,0.69,-22,2,-27,1.0,8267,14,102,43,34,503,620.0,642,466,60,119.0,114,1,300,186,67,0,0,628,19320,17344,585,-5.59,,,,,,,,,,,,
32384,1564156119324,1,2.1,0.82,0.46,1.13,0.95,0.59,0.75,0.6,-22,3,-28,0.96,8177,14,102,43,33,503,621.0,631,465,60,118.0,97,1,295,178,57,0,0,622,-18357,6273,582,-5.59,,,,,,,,,,,,
32404,1564156119344,-1,2.09,0.82,0.47,1.13,0.94,0.73,0.69,0.69,-23,2,-30,1.01,8054,14,102,43,33,503,619.0,627,468,60,119.0,97,1,293,174,57,0,0,619,-18357,4956,583,-5.59,,,,,,,,,,,,
32424,1564156119364,2,2.08,0.82,0.46,1.13,0.94,0.75,0.82,0.6,-24,1,-29,1.12,8009,15,102,43,33,503,619.0,632,467,60,118.0,97,1,292,173,57,0,0,623,3395,8488,584,-5.59,,,,,,,,,,,,
32444,1564156119384,1,2.09,0.82,0.47,1.12,0.95,0.64,0.86,0.53,-24,3,-29,1.07,7911,14,102,43,33,503,617.0,626,465,60,117.0,97,1,292,172,57,0,0,615,3403,-12040,582,-5.59,44.681206,10.025055,59.07,179.5,0,0.0,-1,0.0,0.0,0,0.1,0.5407
32464,1564156119403,-0,2.1,0.82,0.47,1.12,0.95,0.78,0.88,0.61,-25,2,-32,1.17,7881,15,102,43,33,503,617.0,633,468,60,118.0,97,1,292,172,57,0,0,618,3403,-25872,578,-5.59,,,,,,,,,,,,
32484,1564156119423,1,2.09,0.82,0.46,1.13,0.94,0.9,0.95,0.62,-25,-0,-33,1.31,7828,15,102,43,33,503,618.0,622,466,60,119.0,87,1,292,172,51,0,0,617,19304,-12040,579,-5.59,,,,,,,,,,,,
32504,1564156119443,1,2.1,0.82,0.47,1.13,0.94,0.9,1.05,0.49,-25,-0,-32,1.39,7722,15,102,43,33,503,616.0,617,466,60,119.0,87,1,292,172,51,0,0,615,3403,208,580,-5.59,,,,,,,,,,,,
32524,1564156119463,1,2.1,0.82,0.45,1.12,0.94,0.75,1.04,0.45,-25,1,-34,1.29,7700,15,102,43,33,503,613.0,618,466,60,119.0,87,1,292,172,51,0,0,617,-28304,-25872,580,-5.59,,,,,,,,,,,,
32544,1564156119483,2,2.11,0.82,0.46,1.12,0.94,0.65,0.95,0.35,-26,3,-33,1.15,7815,15,102,43,33,503,612.0,623,466,60,118.0,87,1,292,172,51,0,0,609,28675,-8186,575,-5.59,44.681225,10.025054,59.16,179.5,0,0.0,-1,0.0,0.0,0,0.1,0.5424
32564,1564156119503,-0,2.12,0.82,0.46,1.12,0.93,0.72,0.89,0.38,-27,3,-32,1.15,7938,15,102,43,34,504,611.0,637,465,60,118.0,87,1,295,172,51,0,0,607,-30139,-3082,574,-5.59,,,,,,,,,,,,
32584,1564156119523,1,2.14,0.81,0.46,1.12,0.93,0.85,1.01,0.41,-27,1,-33,1.32,8050,15,102,43,34,504,611.0,628,468,60,120.0,94,1,296,179,54,0,0,611,1010,6274,573,-5.59,,,,,,,,,,,,
32604,1564156119543,2,2.14,0.81,0.46,1.12,0.94,0.7,1.1,0.28,-26,2,-33,1.3,7988,15,102,43,34,504,610.0,645,467,60,119.0,94,1,295,172,54,0,0,606,-3446,-30064,570,-5.59,,,,,,,,,,,,
32624,1564156119563,-1,2.15,0.81,0.45,1.12,0.94,0.79,1.02,0.34,-27,2,-35,1.29,7951,15,102,43,33,504,609.0,642,470,60,118.0,94,1,292,172,54,0,0,610,-30139,-8962,569,-5.59,,,,,,,,,,,,
32644,1564156119583,1,2.15,0.81,0.46,1.11,0.93,0.91,1.12,0.42,-28,0,-35,1.44,7938,15,102,43,33,504,610.0,626,466,60,119.0,94,1,292,172,54,0,0,603,-3446,-30159,570,-5.59,44.68124,10.025051,58.63,179.5,0,0.0,-1,0.0,0.0,0,0.1,0.5441
32664,1564156119601,0,2.16,0.81,0.46,1.11,0.93,0.79,1.21,0.31,-28,1,-34,1.44,7864,15,102,43,33,504,607.0,641,468,60,118.0,94,1,292,172,54,0,0,609,19621,-2934,566,-5.59,,,,,,,,,,,,
32684,1564156119621,3,2.15,0.81,0.45,1.12,0.94,0.7,1.13,0.36,-28,1,-35,1.33,7861,15,102,43,33,504,605.0,634,465,60,119.0,89,1,292,172,51,0,0,608,-23055,2211,566,-5.59,,,,,,,,,,,,
32704,1564156119641,-1,2.17,0.81,0.46,1.12,0.94,0.83,1.1,0.45,-28,0,-36,1.38,7809,15,102,43,33,504,603.0,622,465,60,118.0,89,1,292,177,51,0,0,603,-7939,30208,564,-5.59,,,,,,,,,,,,
32724,1564156119661,1,2.18,0.81,0.46,1.11,0.94,0.95,1.11,0.48,-28,-1,-37,1.46,7770,15,102,43,33,504,602.0,617,468,60,120.0,89,1,292,172,51,0,0,606,-768,2211,564,-5.59,,,,,,,,,,,,
32744,1564156119681,1,2.2,0.82,0.46,1.12,0.93,1.0,1.16,0.39,-27,-1,-35,1.53,7809,15,102,43,34,504,599.0,618,467,60,119.0,89,1,295,172,51,0,0,596,-3210,-9072,564,-5.59,44.681252,10.025046,58.16,179.4,0,0.0,-1,0.0,0.0,0,0.11,0.5457
32764,1564156119703,1,2.22,0.82,0.46,1.13,0.94,0.89,1.19,0.3,-26,-1,-35,1.48,7809,15,102,43,34,504,596.0,636,465,60,116.0,89,1,295,172,51,0,0,594,17344,-28648,565,-5.59,,,,,,,,,,,,
32784,1564156119723,-2,2.23,0.82,0.46,1.13,0.95,0.8,1.06,0.33,-26,0,-36,1.33,7835,15,102,43,34,503,594.0,639,466,60,116.0,90,1,295,177,51,0,0,596,-13043,-22519,562,-5.59,,,,,,,,,,,,
32804,1564156119743,-0,2.24,0.82,0.45,1.13,0.95,0.92,0.99,0.49,-25,-1,-35,1.35,7881,15,102,43,34,504,593.0,636,468,60,119.0,90,1,295,177,51,0,0,592,6273,12552,567,-5.59,,,,,,,,,,,,
32824,1564156119763,-0,2.24,0.83,0.46,1.13,0.95,1.02,1.05,0.5,-24,-2,-33,1.46,7835,15,102,43,34,503,588.0,627,467,60,119.0,90,1,295,177,51,0,0,587,208,-29984,569,-5.59,,,,,,,,,,,,
32844,1564156119783,2,2.24,0.83,0.47,1.14,0.94,0.94,1.12,0.36,-22,-1,-32,1.47,7848,15,102,43,34,503,586.0,629,467,60,119.0,90,1,295,177,51,0,0,579,-25872,-18032,568,-5.59,44.681267,10.025041,57.54,179.4,0,0.0,-1,0.0,0.0,0,0.11,0.5474
32864,1564156119803,1,2.24,0.84,0.47,1.15,0.95,0.81,1.06,0.3,-20,1,-30,1.33,7845,15,102,43,34,503,581.0,623,468,60,118.0,90,1,295,177,51,0,0,588,10432,-30159,571,-5.59,,,,,,,,,,,,
32884,1564156119823,-1,2.25,0.84,0.47,1.16,0.95,0.89,0.95,0.37,-19,1,-28,1.3,7812,15,102,43,34,503,580.0,633,466,60,118.0,91,1,295,177,52,0,0,583,10432,-29984,568,-5.59,,,,,,,,,,,,
32904,1564156119843,0,2.25,0.85,0.47,1.16,0.96,1.0,0.89,0.48,-18,-0,-27,1.34,7822,15,102,43,34,503,580.0,620,465,60,119.0,91,1,295,177,52,0,0,582,-16384,2211,568,-5.59,,,,,,,,,,,,
32924,1564156119863,2,2.24,0.85,0.47,1.17,0.96,1.05,0.94,0.45,-17,-0,-24,1.41,7754,15,102,43,34,503,582.0,617,467,60,118.0,91,1,295,177,52,0,0,587,-16384,1267,566,-5.59,,,,,,,,,,,,
32944,1564156119883,2,2.24,0.85,0.47,1.17,0.96,0.93,0.94,0.38,-16,0,-23,1.33,7796,15,102,43,34,503,581.0,624,468,60,117.0,91,1,295,177,52,0,0,584,10432,-30159,568,-5.59,44.681282,10.025035,57.01,179.4,0,0.0,-1,0.0,0.0,0,0.11,0.5491
32964,1564156119903,3,2.23,0.85,0.47,1.18,0.95,0.81,0.93,0.37,-15,2,-24,1.23,7741,15,102,43,34,503,576.0,614,468,60,118.0,91,1,295,177,52,0,0,578,1,2211,562,-5.59,,,,,,,,,,,,
32984,1564156119923,-1,2.23,0.85,0.47,1.18,0.96,0.79,0.83,0.36,-15,4,-22,1.15,7789,15,102,43,34,503,578.0,621,467,60,117.0,92,1,295,184,52,0,0,575,-3210,-30159,564,-5.59,,,,,,,,,,,,
33004,1564156119943,0,2.22,0.85,0.47,1.18,0.96,0.91,0.74,0.5,-15,2,-22,1.17,7799,15,102,43,34,503,577.0,615,466,60,119.0,92,1,295,184,52,0,0,574,-3210,-23623,562,-5.59,,,,,,,,,,,,
33024,1564156119963,1,2.23,0.85,0.47,1.17,0.96,1.01,0.72,0.51,-15,1,-21,1.25,7770,15,102,43,34,503,578.0,616,466,60,119.0,92,1,295,184,52,0,0,578,1,2216,561,-5.59,,,,,,,,,,,,
33044,1564156119983,1,2.23,0.85,0.47,1.18,0.96,0.96,0.79,0.44,-15,0,-20,1.24,7763,23,102,43,36,503,575.0,632,469,60,118.0,92,1,301,190,52,0,0,582,259,-30159,558,-5.59,44.681294,10.025025,56.57,179.4,0,0.0,-1,0.0,0.0,0,0.11,0.5507
33064,1564156119991,3,2.22,0.85,0.47,1.17,0.96,0.76,0.84,0.29,-15,2,-18,1.13,7738,29,102,43,39,503,572.0,623,467,60,118.0,92,1,310,131,52,0,0,576,1,-30159,561,-5.59,,,,,,,,,,,,
33084,1564156120011,-1,2.23,0.85,0.48,1.17,0.95,0.69,0.78,0.23,-15,3,-17,1.04,7776,30,102,43,42,503,575.0,632,468,60,117.0,109,1,332,212,61,0,0,576,259,1780,556,-5.59,,,,,,,,,,,,
33104,1564156120031,0,2.22,0.85,0.47,1.17,0.96,0.82,0.7,0.34,-15,2,-17,1.08,7888,31,102,43,44,503,576.0,633,467,60,117.0,109,1,347,215,61,0,0,574,259,2524,556,-5.59,,,,,,,,,,,,
33124,1564156120051,0,2.22,0.85,0.48,1.17,0.96,0.94,0.76,0.43,-16,1,-18,1.21,7928,31,102,43,46,503,576.0,617,468,60,119.0,109,1,362,219,61,0,0,575,1,12552,559,-5.59,,,,,,,,,,,,
33144,1564156120071,3,2.21,0.85,0.47,1.18,0.96,0.77,0.79,0.31,-16,2,-17,1.1,8064,31,102,43,47,503,577.0,636,468,60,117.0,109,1,370,221,61,0,0,573,30208,-28648,555,-5.59,44.681305,10.025017,56.42,179.4,0,0.0,-1,0.0,0.0,0,0.11,0.5524
33164,1564156120103,0,2.22,0.85,0.47,1.17,0.96,0.89,0.65,0.46,-17,1,-17,1.1,8187,31,102,43,47,503,574.0,628,465,60,119.0,109,1,370,227,61,0,0,580,774,-18032,554,-5.59,,,,,,,,,,,,
33184,1564156120123,3,2.22,0.85,0.47,1.18,0.96,0.83,0.78,0.42,-16,2,-17,1.14,8267,31,102,43,48,503,572.0,635,469,60,118.0,128,1,372,223,71,0,0,581,-8188,-22263,557,-5.59,,,,,,,,,,,,
33204,1564156120143,1,2.21,0.84,0.47,1.18,0.96,0.95,0.67,0.53,-17,0,-18,1.16,8363,31,102,43,47,503,575.0,627,466,60,119.0,128,1,370,224,71,0,0,574,259,-2934,554,-5.59,,,,,,,,,,,,
33224,1564156120163,3,2.21,0.85,0.47,1.17,0.96,0.77,0.66,0.53,-17,3,-17,1.02,8230,31,102,43,47,503,573.0,635,465,60,118.0,128,1,370,221,71,0,0,587,1760,-4035,554,-5.59,,,,,,,,,,,,
33244,1564156120183,-0,2.22,0.85,0.47,1.18,0.96,0.84,0.54,0.62,-17,4,-18,1.01,7908,31,102,43,47,503,575.0,619,465,60,118.0,128,1,370,221,71,0,0,587,30208,269,559,-5.59,44.68132,10.025006,55.98,179.3,0,0.0,-1,0.0,0.0,0,0.11,0.5541
33264,1564156120203,-0,2.22,0.85,0.48,1.18,0.97,0.96,0.52,0.68,-17,3,-18,1.09,7731,31,102,43,48,503,577.0,611,465,60,119.0,128,1,372,226,71,0,0,589,30208,259,561,-5.59,,,,,,,,,,,,
33284,1564156120223,-0,2.22,0.85,0.47,1.18,0.96,1.05,0.55,0.68,-17,1,-19,1.18,7674,31,102,43,49,503,578.0,603,463,60,118.0,123,1,375,238,69,0,0,583,-3210,1780,556,-5.59,,,,,,,,,,,,
33304,1564156120243,0,2.21,0.85,0.48,1.17,0.97,1.01,0.61,0.59,-16,-1,-17,1.18,7681,31,102,43,51,503,576.0,602,467,60,118.0,123,1,381,244,69,0,0,579,1,1780,556,-5.59,,,,,,,,,,,,
33324,1564156120263,3,2.21,0.85,0.47,1.18,0.96,0.8,0.65,0.49,-16,-0,-17,1.03,7760,31,102,43,52,503,576.0,623,471,60,117.0,123,1,384,251,69,0,0,576,1,-32504,553,-5.59,,,,,,,,,,,,
33344,1564156120283,0,2.2,0.85,0.47,1.17,0.96,0.74,0.65,0.38,-15,0,-19,0.99,7855,31,102,43,52,503,575.0,618,469,60,117.0,123,1,384,251,69,0,0,582,259,-28648,557,-5.59,44.681328,10.024997,55.36,179.3,0,0.0,-1,0.0,0.0,0,0.11,0.5557
33364,1564156120303,0,2.2,0.85,0.47,1.17,0.96,0.83,0.6,0.44,-15,0,-19,1.02,7819,31,102,43,52,503,580.0,626,465,60,119.0,123,1,384,251,69,0,0,576,-16384,1760,560,-5.59,,,,,,,,,,,,
33384,1564156120323,1,2.2,0.85,0.48,1.18,0.96,0.94,0.63,0.59,-16,-1,-20,1.13,7888,31,102,43,52,503,580.0,622,467,60,119.0,135,1,384,251,76,0,0,584,243,1267,561,-5.59,,,,,,,,,,,,
33404,1564156120343,2,2.2,0.85,0.47,1.18,0.97,0.83,0.65,0.54,-17,0,-20,1.05,7878,31,102,43,52,503,581.0,615,465,60,118.0,135,1,384,251,76,0,0,585,10432,1760,561,-5.59,,,,,,,,,,,,
33424,1564156120363,-1,2.2,0.85,0.48,1.18,0.95,0.71,0.54,0.44,-17,3,-20,0.89,7891,31,102,43,52,503,581.0,622,467,60,117.0,135,1,384,251,76,0,0,583,15649,-25872,559,-5.59,,,,,,,,,,,,
33444,1564156120383,1,2.18,0.84,0.48,1.18,0.96,0.84,0.43,0.6,-17,2,-19,0.95,7965,31,102,43,53,503,578.0,620,466,60,117.0,135,1,387,257,76,0,0,584,-3210,-3210,558,-5.59,44.681343,10.024985,55.95,179.3,0,0.0,-1,0.0,0.0,0,0.12,0.5574
33464,1564156120402,2,2.17,0.85,0.47,1.17,0.96,0.9,0.59,0.61,-16,2,-20,1.08,7955,31,102,43,52,503,576.0,634,466,60,118.0,135,1,384,251,76,0,0,586,-3210,243,561,-5.59,,,,,,,,,,,,
33484,1564156120422,3,2.17,0.84,0.46,1.16,0.97,0.78,0.53,0.51,-17,5,-19,0.94,7908,31,102,43,52,503,577.0,631,467,60,117.0,133,1,384,251,75,0,0,581,30208,774,559,-5.59,,,,,,,,,,,,
33504,1564156120442,-0,2.17,0.84,0.47,1.17,0.96,0.81,0.47,0.54,-18,4,-18,0.93,7845,32,102,43,52,503,579.0,621,463,60,118.0,133,1,384,256,75,0,0,582,-3210,-25872,560,-5.59,,,,,,,,,,,,
33524,1564156120462,1,2.16,0.83,0.47,1.18,0.96,0.93,0.5,0.63,-19,1,-20,1.06,7812,32,102,43,53,503,580.0,621,467,60,117.0,133,1,387,256,75,0,0,582,-16384,-4035,558,-5.59,,,,,,,,,,,,
33544,1564156120482,1,2.16,0.84,0.47,1.17,0.96,0.94,0.62,0.6,-19,1,-18,1.13,7858,32,102,43,53,503,583.0,620,466,60,119.0,133,1,387,251,75,0,0,587,-4035,15649,556,-5.59,44.681351,10.024974,55.82,179.3,0,0.0,-1,0.0,0.0,0,0.12,0.5591
33564,1564156120502,3,2.18,0.85,0.47,1.17,0.96,0.76,0.68,0.45,-19,2,-18,1.02,7888,32,102,43,53,503,585.0,622,466,60,119.0,133,1,387,256,75,0,0,581,-25872,-3210,559,-5.59,,,,,,,,,,,,
33584,1564156120522,-0,2.19,0.85,0.47,1.18,0.96,0.74,0.61,0.48,-19,3,-19,0.96,7958,32,102,43,52,504,583.0,620,466,60,118.0,137,1,384,257,77,0,0,590,15649,259,558,-5.59,,,,,,,,,,,,
33604,1564156120542,0,2.18,0.84,0.47,1.17,0.96,0.87,0.69,0.53,-20,2,-19,1.11,8005,32,102,43,52,504,586.0,616,466,60,118.0,137,1,384,252,77,0,0,587,-1894,-32504,557,-5.59,,,,,,,,,,,,
33624,1564156120562,1,2.19,0.84,0.48,1.17,0.96,0.69,0.79,0.43,-20,4,-19,1.05,8036,32,102,43,53,504,586.0,641,468,60,118.0,137,1,387,251,77,0,0,592,-1894,-16384,559,-5.59,,,,,,,,,,,,
33644,1564156120582,-1,2.19,0.84,0.47,1.17,0.96,0.69,0.67,0.47,-20,3,-20,0.96,8005,32,102,43,52,503,588.0,628,467,60,118.0,137,1,384,258,77,0,0,595,208,208,559,-5.59,44.681362,10.024961,56.07,179.2,0,0.0,-1,0.0,0.0,0,0.12,0.5607
33664,1564156120602,1,2.18,0.84,0.47,1.17,0.96,0.83,0.8,0.57,-20,2,-19,1.15,7992,32,102,43,52,504,586.0,617,468,60,118.0,137,1,384,251,77,0,0,587,-4035,23619,562,-5.59,,,,,,,,,,,,
33684,1564156120622,3,2.18,0.84,0.47,1.17,0.96,0.69,0.85,0.47,-19,3,-20,1.09,7924,32,102,43,52,504,584.0,613,468,60,118.0,133,1,384,251,75,0,0,589,-4035,243,563,-5.59,,,,,,,,,,,,
33704,1564156120642,-1,2.19,0.84,0.47,1.17,0.97,0.65,0.77,0.46,-19,3,-20,1.01,7924,31,102,43,52,503,585.0,621,466,60,117.0,133,1,384,251,75,0,0,591,-4035,259,564,-5.59,,,,,,,,,,,,
33724,1564156120662,1,2.19,0.84,0.47,1.17,0.95,0.78,0.82,0.61,-19,1,-20,1.14,7924,22,102,43,51,503,585.0,612,467,60,119.0,133,1,381,246,75,0,0,587,-25872,259,563,-5.59,,,,,,,,,,,,
33744,1564156120682,1,2.18,0.84,0.48,1.17,0.96,0.82,0.89,0.64,-19,1,-21,1.21,7888,17,102,43,49,503,584.0,624,466,60,118.0,133,1,375,233,75,0,0,589,-12040,-25872,562,-5.59,44.681374,10.024948,56.33,179.2,0,0.0,-1,0.0,0.0,0,0.12,0.5624
33764,1564156120702,2,2.19,0.84,0.47,1.17,0.97,0.66,0.9,0.46,-18,1,-20,1.11,7928,13,102,43,46,503,586.0,637,470,60,118.0,133,1,362,219,75,0,0,587,-1894,259,564,-5.59,,,,,,,,,,,,
33784,1564156120722,-1,2.19,0.84,0.47,1.16,0.97,0.76,0.83,0.55,-18,0,-21,1.13,7968,11,102,43,42,503,582.0,626,468,60,118.0,113,1,332,214,64,0,0,592,-25872,10432,565,-5.59,,,,,,,,,,,,
33804,1564156120742,2,2.18,0.84,0.47,1.17,0.97,0.88,0.89,0.64,-18,-1,-21,1.25,7918,11,102,43,40,503,586.0,627,463,60,118.0,113,1,317,208,64,0,0,587,-1894,774,564,-5.59,,,,,,,,,,,,
33824,1564156120762,5,2.18,0.84,0.48,1.18,0.96,0.79,1.0,0.52,-18,-1,-19,1.28,7894,11,102,43,38,503,585.0,626,467,60,119.0,113,1,307,202,64,0,0,585,-1894,774,564,-5.59,,,,,,,,,,,,
33844,1564156120782,9,2.17,0.84,0.47,1.16,0.96,0.69,0.93,0.45,-18,1,-21,1.15,7825,11,102,43,37,503,586.0,636,469,60,117.0,113,1,304,196,64,0,0,589,-1894,-2934,555,-5.59,44.681381,10.024934,56.31,179.2,0,0.0,-1,0.0,0.0,0,0.12,0.5641
33864,1564156120802,9,2.15,0.84,0.47,1.16,0.95,0.78,0.92,0.46,-19,1,-22,1.2,7731,11,102,43,36,503,588.0,632,469,60,118.0,113,1,301,190,64,0,0,588,-12040,-8186,549,-5.59,,,,,,,,,,,,
33884,1564156120822,11,2.15,0.83,0.47,1.16,0.96,0.9,0.89,0.61,-20,-1,-24,1.27,7700,10,102,43,35,503,582.0,616,464,60,119.0,96,1,298,107,53,0,0,588,8488,-22263,547,-5.59,,,,,,,,,,,,
33904,1564156120842,16,2.16,0.83,0.47,1.16,0.95,1.02,0.91,0.62,-22,-3,-25,1.36,7606,10,102,43,34,503,582.0,607,466,60,119.0,96,1,295,177,53,0,0,582,243,-8962,541,-5.59,,,,,,,,,,,,
33924,1564156120862,15,2.15,0.83,0.47,1.15,0.96,1.06,0.94,0.57,-23,-4,-25,1.42,7572,10,102,43,34,503,578.0,608,467,60,119.0,96,1,295,177,53,0,0,579,-3210,-28648,530,-5.59,,,,,,,,,,,,
33944,1564156120882,15,2.15,0.83,0.46,1.16,0.96,1.14,0.99,0.55,-23,-4,-26,1.51,7497,10,102,43,33,503,576.0,606,467,60,118.0,96,1,292,172,53,0,0,574,1,1341,522,-5.59,44.681393,10.02492,56.72,179.2,0,0.0,-1,0.0,0.0,0,0.12,0.5657
33964,1564156120902,12,2.15,0.83,0.47,1.16,0.95,1.14,1.09,0.45,-22,-4,-27,1.57,7437,10,102,43,33,503,573.0,598,466,60,119.0,96,1,292,172,53,0,0,567,1760,6274,527,-5.59,,,,,,,,,,,,
33984,1564156120922,9,2.16,0.83,0.46,1.16,0.95,1.21,1.11,0.53,-23,-4,-27,1.64,7287,11,102,43,33,503,571.0,595,466,60,117.0,92,1,292,172,49,0,0,572,1267,1341,529,-5.59,,,,,,,,,,,,
34004,1564156120942,6,2.16,0.83,0.47,1.16,0.95,1.29,1.07,0.54,-24,-4,-28,1.67,7239,10,102,43,34,503,565.0,585,462,60,117.0,92,1,295,177,49,0,0,572,1267,2524,528,-5.59,,,,,,,,,,,,
34024,1564156120962,8,2.16,0.83,0.47,1.15,0.96,1.24,1.02,0.57,-24,-3,-29,1.6,7134,10,102,43,34,504,567.0,586,468,60,116.0,92,1,295,177,49,0,0,567,1780,-28648,525,-5.59,,,,,,,,,,,,
34044,1564156120982,8,2.15,0.83,0.46,1.16,0.95,1.1,1.12,0.48,-24,-2,-28,1.56,7110,10,102,43,34,504,563.0,568,467,60,118.0,92,1,295,177,49,0,0,564,2211,1341,523,-5.59,44.6814,10.024904,56.21,179.1,0,0.0,-1,0.0,0.0,0,0.13,0.5674
34064,1564156120992,8,2.16,0.83,0.46,1.16,0.95,1.1,1.21,0.45,-23,-2,-29,1.63,7083,10,102,43,34,504,557.0,571,466,60,118.0,92,1,295,177,49,0,0,560,2216,15661,523,-5.59,,,,,,,,,,,,
34084,1564156121012,12,2.15,0.83,0.47,1.16,0.96,1.15,1.16,0.54,-24,-5,-30,1.64,7017,10,102,43,35,504,557.0,582,466,60,118.0,94,1,298,184,49,0,0,559,2216,-6656,522,-5.59,,,,,,,,,,,,
34104,1564156121032,11,2.15,0.83,0.47,1.16,0.95,1.08,1.15,0.42,-23,-2,-29,1.57,6978,10,102,43,35,504,551.0,569,466,60,119.0,94,1,298,184,49,0,0,552,6274,-16384,518,-5.59,,,,,,,,,,,,
34124,1564156121052,6,2.16,0.83,0.46,1.16,0.96,1.04,1.21,0.43,-23,-2,-30,1.59,6957,10,102,43,35,504,553.0,564,468,60,120.0,94,1,298,184,49,0,0,550,-9072,21432,519,-5.59,,,,,,,,,,,,
34144,1564156121072,7,2.16,0.83,0.47,1.16,0.96,1.12,1.13,0.42,-23,-2,-29,1.59,6878,10,102,43,35,504,550.0,586,466,60,117.0,94,1,298,189,49,0,0,552,-32248,21432,518,-5.59,44.681408,10.024888,54.52,179.1,0,0.0,-1,0.0,0.0,0,0.13,0.5691
34164,1564156121102,2,2.14,0.84,0.47,1.16,0.95,1.01,1.22,0.36,-23,-1,-28,1.59,6845,10,102,43,36,504,552.0,558,469,60,120.0,94,1,301,189,49,0,0,551,-28648,6193,519,-5.59,,,,,,,,,,,,
34184,1564156121122,-1,2.13,0.83,0.47,1.15,0.95,1.06,1.18,0.48,-24,-3,-29,1.59,6818,10,102,43,36,504,550.0,568,465,60,118.0,92,1,301,189,48,0,0,547,-32248,-3482,515,-5.59,,,,,,,,,,,,
34204,1564156121142,1,2.12,0.84,0.47,1.16,0.96,1.02,1.16,0.43,-24,-2,-29,1.55,6803,10,102,43,37,504,546.0,574,468,60,118.0,92,1,304,189,48,0,0,550,-22519,-14,515,-5.59,,,,,,,,,,,,
34224,1564156121162,-1,2.09,0.83,0.47,1.15,0.96,1.04,1.12,0.49,-24,-4,-29,1.53,6742,10,102,43,37,504,548.0,560,465,60,118.0,92,1,304,195,48,0,0,545,-8962,-8187,515,-5.59,,,,,,,,,,,,
34244,1564156121182,1,2.07,0.84,0.46,1.15,0.95,1.03,1.12,0.45,-24,-3,-29,1.52,6747,10,102,43,37,504,546.0,546,466,60,119.0,92,1,304,195,48,0,0,540,2524,-3482,510,-5.59,44.681416,10.024873,53.27,179.0,0,0.0,-1,0.0,0.0,0,0.13,0.5707
34264,1564156121202,-1,2.02,0.83,0.47,1.15,0.96,1.11,1.15,0.46,-25,-6,-29,1.6,6906,10,102,43,37,504,540.0,553,466,60,119.0,92,1,304,195,48,0,0,538,-8186,-9216,510,-5.59,,,,,,,,,,,,
34284,1564156121222,2,1.98,0.83,0.47,1.14,0.95,1.11,1.12,0.39,-26,-6,-30,1.58,7088,10,102,43,37,504,537.0,565,470,60,117.0,100,1,304,195,51,0,0,537,-30064,8488,506,-5.59,,,,,,,,,,,,
34304,1564156121242,1,1.95,0.83,0.47,1.15,0.95,1.02,1.15,0.39,-27,-6,-31,1.54,7148,10,102,43,37,504,540.0,565,466,60,120.0,100,1,304,195,51,0,0,544,-8186,-16384,503,-5.59,,,,,,,,,,,,
34324,1564156121262,0,1.92,0.83,0.46,1.15,0.95,0.94,1.24,0.37,-27,-4,-34,1.55,7148,10,102,43,36,504,537.0,565,464,60,119.0,100,1,301,189,51,0,0,544,1780,243,498,-5.59,,,,,,,,,,,,
34344,1564156121282,-1,1.89,0.83,0.46,1.16,0.95,1.05,1.12,0.38,-28,-5,-35,1.54,7107,10,102,43,36,504,539.0,583,466,60,118.0,100,1,301,189,51,0,0,542,-28648,243,497,-5.59,44.681423,10.024857,52.1,179.0,0,0.0,-1,0.0,0.0,0,0.13,0.5724
34364,1564156121302,2,1.86,0.82,0.47,1.15,0.95,1.06,1.1,0.4,-29,-4,-33,1.53,7078,10,102,43,36,504,533.0,585,468,60,117.0,100,1,301,189,51,0,0,539,-22519,-3210,492,-5.59,,,,,,,,,,,,
34384,1564156121322,1,1.84,0.82,0.46,1.15,0.95,0.93,1.14,0.36,-29,-4,-37,1.47,7067,10,102,43,36,504,532.0,593,465,60,119.0,101,1,301,189,50,0,0,540,14504,32033,493,-5.59,,,,,,,,,,,,
34404,1564156121342,-0,1.82,0.82,0.46,1.15,0.95,1.03,1.17,0.35,-29,-5,-37,1.56,7033,10,102,43,36,504,525.0,562,463,60,119.0,101,1,301,189,50,0,0,533,2088,-9203,489,-5.59,,,,,,,,,,,,
34424,1564156121362,3,1.81,0.82,0.46,1.14,0.95,1.09,1.1,0.47,-30,-4,-39,1.55,7017,10,102,43,36,504,524.0,585,463,60,119.0,101,1,301,189,50,0,0,537,10408,-10483,485,-5.59,,,,,,,,,,,,
34444,1564156121382,-0,1.82,0.82,0.46,1.14,0.95,0.96,1.15,0.4,-30,-2,-38,1.5,6998,10,102,43,36,504,519.0,593,468,60,118.0,101,1,301,189,50,0,0,533,-8187,-10483,482,-5.59,44.681427,10.02484,51.51,178.9,0,0.0,-1,0.0,0.0,0,0.13,0.5741
34464,1564156121401,-0,1.81,0.82,0.46,1.15,0.95,0.97,1.24,0.5,-30,-4,-40,1.57,6921,10,102,43,36,504,518.0,558,458,60,120.0,101,1,301,189,50,0,0,531,1341,-9216,481,-5.59,,,,,,,,,,,,
34484,1564156121421,2,1.81,0.82,0.47,1.14,0.95,1.07,1.14,0.51,-30,-4,-39,1.57,6908,10,102,43,37,503,515.0,575,467,60,119.0,102,1,304,189,49,0,0,525,-14,-6528,480,-5.59,,,,,,,,,,,,
34504,1564156121441,-0,1.83,0.82,0.46,1.14,0.95,0.94,1.23,0.49,-30,-3,-38,1.55,6895,10,102,43,36,504,514.0,554,465,60,119.0,102,1,301,189,49,0,0,526,-3482,505,480,-5.59,,,,,,,,,,,,
34524,1564156121461,3,1.83,0.82,0.46,1.15,0.95,1.05,1.23,0.55,-30,-4,-39,1.62,6843,10,102,43,37,504,514.0,560,463,60,118.0,102,1,304,195,49,0,0,519,-3482,-1818,477,-5.59,,,,,,,,,,,,
34544,1564156121481,1,1.82,0.82,0.46,1.14,0.95,0.93,1.29,0.44,-30,-2,-38,1.59,6803,10,102,43,37,504,511.0,548,462,60,118.0,102,1,304,118,49,0,0,524,-3856,-10483,476,-5.59,44.681431,10.024823,50.59,178.9,0,0.0,-1,0.0,0.0,0,0.13,0.5757
34564,1564156121501,-0,1.84,0.81,0.46,1.14,0.95,1.01,1.3,0.48,-31,-3,-38,1.64,6791,10,102,43,37,504,511.0,556,466,60,118.0,102,1,304,195,49,0,0,522,-3856,8488,474,-5.59,,,,,,,,,,,,
34584,1564156121521,1,1.84,0.82,0.46,1.15,0.94,0.99,1.29,0.47,-30,-4,-39,1.63,6771,10,102,43,37,504,510.0,546,463,60,118.0,105,1,304,195,50,0,0,518,-4054,505,473,-5.59,,,,,,,,,,,,
34604,1564156121541,0,1.84,0.82,0.46,1.14,0.95,1.0,1.31,0.54,-30,-4,-40,1.65,6722,10,102,43,37,504,509.0,553,462,60,119.0,105,1,304,201,50,0,0,518,6274,-899,472,-5.59,,,,,,,,,,,,
34624,1564156121561,1,1.86,0.81,0.46,1.13,0.95,0.98,1.29,0.48,-30,-2,-41,1.62,6698,10,102,43,38,504,505.0,551,462,60,120.0,105,1,307,124,50,0,0,513,10994,3580,470,-5.59,,,,,,,,,,,,
34644,1564156121581,2,1.89,0.81,0.46,1.13,0.94,1.03,1.27,0.47,-31,-4,-40,1.64,6691,11,102,43,38,504,510.0,544,464,60,118.0,105,1,307,201,50,0,0,520,10994,-899,470,-5.59,44.681435,10.024807,49.92,178.9,0,0.0,-1,0.0,0.0,0,0.13,0.5774
34664,1564156121601,1,1.93,0.81,0.46,1.14,0.94,0.95,1.28,0.47,-31,-3,-42,1.59,6665,10,102,43,38,504,511.0,560,465,60,119.0,105,1,307,201,50,0,0,514,-3856,-23367,470,-5.59,,,,,,,,,,,,
34684,1564156121621,3,1.95,0.81,0.46,1.13,0.93,1.02,1.19,0.5,-32,-3,-42,1.57,6625,10,102,43,39,504,509.0,567,468,60,118.0,107,1,310,130,50,0,0,517,10994,8488,467,-5.59,,,,,,,,,,,,
34704,1564156121641,-2,2.02,0.81,0.46,1.14,0.95,0.96,1.27,0.48,-31,-3,-42,1.59,6597,10,102,43,38,504,511.0,551,460,60,118.0,107,1,307,201,50,0,0,514,-3856,10432,468,-5.59,,,,,,,,,,,,
34724,1564156121661,0,2.06,0.81,0.46,1.13,0.95,0.99,1.18,0.49,-32,-4,-43,1.54,6578,10,102,43,39,504,510.0,547,468,60,118.0,107,1,310,206,50,0,0,514,-4054,-17956,469,-5.59,,,,,,,,,,,,
34744,1564156121681,-0,2.12,0.81,0.45,1.14,0.94,0.96,1.26,0.54,-31,-3,-43,1.58,6558,10,102,43,39,504,511.0,555,466,60,118.0,107,1,310,206,50,0,0,511,-3856,8488,470,-5.59,44.681435,10.024789,49.05,178.9,0,0.0,-1,0.0,0.0,0,0.14,0.5791
34764,1564156121701,-1,2.19,0.81,0.46,1.14,0.95,0.97,1.25,0.51,-31,-2,-43,1.58,6553,10,102,43,39,504,511.0,531,464,60,119.0,107,1,310,206,50,0,0,512,-3856,-1923,471,-5.59,,,,,,,,,,,,
34784,1564156121721,2,2.24,0.83,0.46,1.16,0.95,0.92,1.1,0.53,-30,-3,-43,1.44,6539,10,102,43,39,504,507.0,542,465,60,119.0,108,1,310,206,51,0,0,507,-21872,243,472,-5.59,,,,,,,,,,,,
34804,1564156121741,-0,2.3,0.84,0.46,1.18,0.95,0.91,1.06,0.6,-27,-2,-42,1.4,6535,10,102,43,40,504,502.0,548,466,60,118.0,108,1,316,207,51,0,0,502,15661,-9203,475,-5.59,,,,,,,,,,,,
34824,1564156121761,-0,2.34,0.84,0.47,1.18,0.96,0.91,0.99,0.52,-24,-2,-40,1.34,6535,10,102,43,40,504,496.0,532,463,60,120.0,108,1,316,207,51,0,0,499,3,248,479,-5.59,,,,,,,,,,,,
34844,1564156121781,2,2.39,0.85,0.46,1.19,0.96,0.85,0.85,0.58,-21,-1,-37,1.2,6562,10,102,43,40,504,491.0,542,467,60,118.0,108,1,316,207,51,0,0,493,-1818,3580,484,-5.59,44.681435,10.024772,48.34,178.8,0,0.0,-1,0.0,0.0,0,0.14,0.5807
34864,1564156121803,-1,2.43,0.86,0.46,1.19,0.96,0.81,0.77,0.57,-17,-0,-35,1.12,6606,10,102,43,40,504,485.0,525,465,60,120.0,108,1,317,207,51,0,0,487,-10483,505,487,-5.59,,,,,,,,,,,,
34884,1564156121823,2,2.45,0.86,0.47,1.19,0.97,0.84,0.59,0.53,-12,-1,-31,1.02,6653,10,102,43,40,504,489.0,534,468,60,119.0,106,1,317,207,52,0,0,480,8488,-6528,491,-5.59,,,,,,,,,,,,
34904,1564156121843,-2,2.48,0.86,0.48,1.2,0.98,0.82,0.4,0.59,-8,0,-30,0.91,6677,10,102,43,39,504,489.0,524,465,60,119.0,106,1,310,207,52,0,0,479,-17956,-32768,489,-5.59,,,,,,,,,,,,
34924,1564156121863,1,2.47,0.87,0.48,1.2,0.97,0.82,0.32,0.46,-5,-2,-24,0.88,6660,10,102,43,40,504,490.0,533,466,60,119.0,106,1,317,206,52,0,0,474,-9203,248,490,-5.59,,,,,,,,,,,,
34944,1564156121883,-0,2.47,0.87,0.47,1.2,0.98,0.81,0.18,0.6,-3,-1,-21,0.83,6689,11,102,43,40,504,491.0,544,467,60,118.0,106,1,317,131,52,0,0,474,-1923,10408,491,-5.59,44.681435,10.024755,47.79,178.8,0,0.0,-1,0.0,0.0,0,0.14,0.5824
34964,1564156121903,0,2.45,0.87,0.46,1.2,0.97,0.85,0.18,0.54,-1,-1,-16,0.87,6698,10,102,43,39,504,493.0,539,468,60,120.0,106,1,310,207,52,0,0,473,8488,-22519,495,-5.59,,,,,,,,,,,,
34984,1564156121923,2,2.4,0.87,0.46,1.19,0.97,0.84,0.0,0.64,0,-1,-13,0.84,6663,11,102,43,40,504,491.0,558,466,60,118.0,105,1,317,207,52,0,0,473,32033,-32768,491,-5.59,,,,,,,,,,,,
35004,1564156121943,-1,2.37,0.86,0.47,1.2,0.97,0.81,0.05,0.52,1,1,-9,0.81,6667,10,102,43,39,504,490.0,540,466,60,120.0,105,1,310,206,52,0,0,472,-1923,-32768,490,-5.59,,,,,,,,,,,,
35024,1564156121963,3,2.32,0.86,0.46,1.19,0.97,0.9,0.01,0.53,-0,-1,-6,0.9,6667,11,102,43,40,504,485.0,556,466,60,118.0,105,1,317,206,52,0,0,476,32033,248,485,-5.59,,,,,,,,,,,,
35044,1564156121983,-1,2.32,0.85,0.47,1.19,0.97,0.81,0.02,0.49,-1,1,-4,0.81,6660,10,102,43,39,504,482.0,542,463,60,120.0,105,1,310,206,52,0,0,479,-23367,-6441,481,-5.59,44.681435,10.024739,48.09,178.7,0,0.0,-1,0.0,0.0,0,0.14,0.5841
35064,1564156121993,2,2.31,0.84,0.47,1.18,0.96,0.86,0.0,0.49,-2,0,-3,0.86,6637,11,102,43,40,504,479.0,558,468,60,119.0,105,1,317,206,52,0,0,480,10305,3580,479,-5.59,,,,,,,,,,,,
35084,1564156122013,-1,2.29,0.83,0.46,1.16,0.95,0.86,-0.01,0.51,-2,1,-3,0.86,6623,11,102,43,39,504,480.0,541,464,60,119.0,108,1,310,207,52,0,0,480,8488,3580,479,-5.59,,,,,,,,,,,,
35104,1564156122033,1,2.24,0.82,0.46,1.17,0.94,0.85,0.08,0.49,-3,1,-2,0.86,6611,11,102,43,40,504,482.0,538,468,60,119.0,108,1,317,207,52,0,0,479,-899,-10483,475,-5.59,,,,,,,,,,,,
35124,1564156122053,3,2.2,0.8,0.45,1.14,0.93,0.83,0.06,0.56,-5,1,-3,0.83,6616,11,102,43,40,504,481.0,547,466,60,118.0,108,1,317,207,52,0,0,481,32033,3576,472,-5.59,,,,,,,,,,,,
35144,1564156122073,-0,2.16,0.73,0.43,1.08,0.92,0.89,0.18,0.51,-7,1,-3,0.91,6609,11,102,43,40,504,482.0,532,465,60,120.0,108,1,317,207,52,0,0,485,32033,-23367,470,-5.59,44.681431,10.024722,47.75,178.7,0,0.0,-1,0.0,0.0,0,0.14,0.5857
35164,1564156122103,1,2.11,0.65,0.4,1.01,0.87,0.93,0.18,0.56,-10,-0,-4,0.95,6588,11,102,43,40,504,484.0,544,467,60,118.0,108,1,316,207,52,0,0,490,505,30272,463,-5.59,,,,,,,,,,,,
35184,1564156122123,-0,2.06,0.58,0.38,0.97,0.84,0.86,0.26,0.55,-12,1,-6,0.9,6565,11,102,43,40,504,487.0,531,461,60,119.0,110,1,316,207,51,0,0,488,505,243,463,-5.59,,,,,,,,,,,,
35204,1564156122143,0,2.02,0.55,0.35,0.94,0.82,0.88,0.36,0.45,-14,1,-7,0.95,6560,11,102,43,40,504,487.0,541,466,60,119.0,110,1,316,207,51,0,0,489,505,-3210,459,-5.59,,,,,,,,,,,,
35224,1564156122163,1,1.99,0.55,0.35,0.93,0.81,0.93,0.41,0.45,-16,-0,-9,1.02,6574,11,102,43,40,504,488.0,544,466,60,118.0,110,1,316,207,51,0,0,489,1,6193,457,-5.59,,,,,,,,,,,,
35244,1564156122183,-2,1.97,0.55,0.34,0.93,0.81,0.88,0.57,0.4,-16,1,-11,1.04,6555,11,102,43,40,504,487.0,545,461,60,119.0,110,1,316,207,51,0,0,489,505,-18108,455,-5.59,44.681431,10.024706,47.67,178.6,0,0.0,-1,0.0,0.0,0,0.14,0.5874
35264,1564156122203,1,1.95,0.56,0.34,0.95,0.81,0.91,0.56,0.44,-18,-0,-15,1.07,6535,11,102,43,40,504,486.0,544,465,60,119.0,110,1,316,207,51,0,0,491,-1562,-16384,454,-5.59,,,,,,,,,,,,
35284,1564156122223,2,1.94,0.58,0.35,0.96,0.81,0.9,0.58,0.43,-19,-1,-17,1.07,6463,11,102,43,41,504,484.0,555,468,60,118.0,113,1,323,207,51,0,0,487,-10483,32033,451,-5.59,,,,,,,,,,,,
35304,1564156122243,-1,1.93,0.59,0.35,0.97,0.82,0.91,0.7,0.43,-20,1,-19,1.15,6461,11,102,43,40,504,486.0,537,463,60,120.0,113,1,316,131,51,0,0,490,-10483,-1923,448,-5.59,,,,,,,,,,,,
35324,1564156122263,0,1.92,0.59,0.35,0.98,0.82,0.92,0.7,0.46,-21,0,-22,1.15,6454,11,102,43,41,503,484.0,541,468,60,119.0,113,1,323,209,51,0,0,488,-10483,6193,446,-5.59,,,,,,,,,,,,
35344,1564156122283,2,1.93,0.6,0.35,0.98,0.82,0.91,0.64,0.49,-22,-1,-24,1.11,6467,11,102,43,41,516,482.0,546,465,60,118.0,113,1,323,209,51,0,0,487,-899,17628,445,-5.59,44.681431,10.02469,46.92,178.6,0,0.0,-1,0.0,0.0,0,0.14,0.5891
35364,1564156122303,-2,1.93,0.6,0.35,0.97,0.82,0.87,0.78,0.46,-22,-0,-23,1.17,6456,11,102,43,41,560,482.0,539,462,60,117.0,113,1,323,209,51,0,0,579,10305,15649,446,-5.59,,,,,,,,,,,,
35384,1564156122323,0,1.93,0.6,0.35,0.98,0.83,0.91,0.82,0.51,-24,1,-26,1.23,6461,11,102,43,41,617,482.0,523,465,60,119.0,114,1,323,209,51,0,0,579,-899,-6387,443,-5.59,,,,,,,,,,,,
35404,1564156122343,2,1.93,0.61,0.36,0.98,0.83,0.97,0.78,0.47,-25,-1,-26,1.24,6427,12,102,43,41,676,482.0,535,465,60,118.0,114,1,323,209,51,0,0,579,-899,3571,441,-5.59,,,,,,,,,,,,
35424,1564156122363,2,1.93,0.62,0.36,0.99,0.83,0.88,0.9,0.52,-25,-1,-28,1.26,6381,12,102,43,41,748,484.0,524,465,60,118.0,114,1,323,210,51,0,0,579,-10483,15649,441,-5.59,,,,,,,,,,,,
35444,1564156122383,-1,1.93,0.61,0.36,0.98,0.83,0.84,1.0,0.45,-26,1,-29,1.3,6347,12,102,43,42,791,482.0,521,464,60,119.0,114,1,329,210,51,0,0,579,3580,-3267,439,-5.59,44.681427,10.024673,45.96,178.5,0,0.0,-1,0.0,0.0,0,0.15,0.5907
35464,1564156122404,-1,1.94,0.61,0.36,0.98,0.84,0.9,1.01,0.45,-27,1,-30,1.35,6332,13,102,43,42,848,480.0,510,463,60,119.0,114,1,329,210,51,0,0,24,8488,-8985,439,-5.59,,,,,,,,,,,,
35484,1564156122424,2,1.93,0.61,0.36,0.98,0.84,0.93,0.94,0.38,-28,0,-32,1.33,6319,17,102,43,43,863,480.0,512,466,60,118.0,114,1,336,211,50,0,0,480,8488,3571,438,-5.59,,,,,,,,,,,,
35504,1564156122444,2,1.94,0.62,0.35,0.99,0.83,0.89,0.98,0.36,-29,0,-32,1.32,6340,18,102,43,44,861,479.0,512,468,60,118.0,114,1,343,212,50,0,0,483,10305,3571,438,-5.59,,,,,,,,,,,,
35524,1564156122464,-1,1.95,0.61,0.36,0.99,0.84,0.88,1.09,0.39,-29,0,-33,1.4,6362,21,102,43,45,860,480.0,512,464,60,119.0,114,1,349,214,50,0,0,482,16648,-6387,436,-5.59,,,,,,,,,,,,
35544,1564156122484,0,1.95,0.62,0.36,0.99,0.84,0.87,1.15,0.39,-30,-0,-34,1.44,6384,27,102,43,48,860,476.0,512,464,60,120.0,114,1,366,222,50,0,0,479,-23367,3571,436,-5.59,44.681427,10.024657,45.52,178.5,0,0.0,-1,0.0,0.0,0,0.15,0.5924
35564,1564156122504,2,1.96,0.62,0.36,0.98,0.84,0.9,1.04,0.42,-31,-1,-37,1.38,6427,36,102,43,52,860,480.0,522,465,60,117.0,114,1,379,245,50,0,0,479,8488,-6387,435,-5.59,,,,,,,,,,,,
35584,1564156122524,1,1.97,0.62,0.36,0.99,0.84,0.85,1.1,0.37,-31,1,-36,1.39,6410,43,102,43,58,860,478.0,525,462,60,118.0,145,1,392,260,63,0,0,480,-23367,17628,432,-5.59,,,,,,,,,,,,
35604,1564156122544,-1,1.98,0.62,0.36,1.01,0.84,0.84,1.16,0.45,-31,0,-39,1.43,6472,50,102,43,65,862,476.0,516,465,60,120.0,145,1,386,287,63,0,0,481,-23367,-9160,432,-5.59,,,,,,,,,,,,
35624,1564156122564,-1,1.99,0.63,0.36,1.0,0.84,0.87,1.17,0.41,-32,-2,-39,1.45,6438,56,102,43,72,865,476.0,539,467,60,118.0,145,1,367,358,63,0,0,478,-23367,-1923,433,-5.59,,,,,,,,,,,,
35644,1564156122584,2,2.0,0.64,0.36,1.01,0.85,0.82,1.08,0.52,-32,-1,-39,1.35,6321,61,102,43,77,866,475.0,537,464,60,119.0,145,1,358,441,63,0,0,478,2212,30272,432,-5.59,44.681423,10.024643,45.13,178.4,0,0.0,-1,0.0,0.0,0,0.15,0.5941
35664,1564156122604,3,2.0,0.64,0.36,1.01,0.84,0.74,1.15,0.5,-32,1,-40,1.37,6330,65,102,43,82,867,477.0,516,466,60,119.0,145,1,355,470,63,0,0,475,2212,15649,434,-5.59,,,,,,,,,,,,
35684,1564156122624,-2,2.02,0.64,0.36,1.01,0.84,0.77,1.2,0.47,-32,3,-39,1.43,6410,71,102,43,86,877,475.0,500,468,60,120.0,268,1,350,491,116,0,0,478,-17956,2131,434,-5.59,,,,,,,,,,,,
35704,1564156122644,1,2.02,0.64,0.36,1.02,0.85,0.89,1.17,0.52,-32,0,-40,1.47,6572,74,102,43,89,888,476.0,508,466,60,120.0,268,1,351,507,116,0,0,479,-17956,12552,434,-5.59,,,,,,,,,,,,
35724,1564156122664,-1,2.03,0.65,0.37,1.01,0.85,0.77,1.13,0.53,-32,1,-39,1.37,6670,77,102,43,92,900,476.0,538,466,60,118.0,268,1,352,520,116,0,0,478,-23367,2109,435,-5.59,,,,,,,,,,,,
35744,1564156122684,0,2.02,0.65,0.37,1.02,0.86,0.76,1.14,0.44,-32,3,-39,1.37,6820,77,102,43,92,914,478.0,535,465,60,119.0,268,1,361,522,116,0,0,486,16648,1248,435,-5.59,44.681419,10.024628,44.58,178.4,0,0.0,-1,0.0,0.0,0,0.15,0.5957
35764,1564156122704,-0,2.03,0.67,0.38,1.04,0.86,0.73,1.16,0.48,-31,3,-39,1.37,7096,77,102,43,91,979,477.0,550,463,60,120.0,268,1,379,530,116,0,0,492,-23367,-28648,435,-5.59,,,,,,,,,,,,
35784,1564156122724,-1,2.04,0.69,0.38,1.04,0.87,0.84,1.11,0.58,-32,2,-39,1.39,7118,77,102,43,91,1063,479.0,567,465,60,119.0,325,1,381,532,142,0,0,498,10305,16383,438,-5.59,,,,,,,,,,,,
35804,1564156122744,1,2.03,0.72,0.4,1.07,0.88,0.76,1.12,0.62,-32,3,-39,1.35,7059,77,102,44,92,1141,484.0,564,467,60,118.0,325,1,376,525,142,0,0,516,-10483,1780,439,-5.59,,,,,,,,,,,,
35824,1564156122764,1,2.02,0.73,0.4,1.09,0.9,0.63,1.18,0.57,-31,5,-41,1.34,7062,77,102,43,92,1214,488.0,550,466,60,119.0,325,1,375,529,142,0,0,527,1,15679,441,-5.59,,,,,,,,,,,,
35844,1564156122784,-2,2.04,0.72,0.4,1.07,0.9,0.73,1.1,0.69,-32,3,-42,1.32,7080,77,102,44,92,1252,491.0,555,464,60,118.0,325,1,377,525,142,0,0,524,248,-6656,443,-5.59,44.681416,10.024614,44.15,178.3,0,0.0,-1,0.0,0.0,0,0.15,0.5974
35864,1564156122804,2,2.03,0.71,0.4,1.07,0.89,0.81,1.04,0.71,-34,3,-40,1.32,6998,77,102,44,92,1277,493.0,552,465,60,119.0,325,1,370,522,142,0,0,523,-6528,-9072,447,-5.59,,,,,,,,,,,,
35884,1564156122824,-0,2.03,0.7,0.4,1.06,0.89,0.62,1.14,0.63,-34,4,-41,1.3,6988,77,102,44,92,1288,495.0,543,464,60,120.0,309,1,370,522,138,0,0,520,771,-3082,448,-5.59,,,,,,,,,,,,
35904,1564156122844,-0,2.04,0.69,0.4,1.05,0.88,0.65,1.16,0.59,-34,4,-41,1.33,7121,77,102,44,92,1241,495.0,561,466,60,118.0,309,1,380,527,138,0,0,525,771,17136,447,-5.59,,,,,,,,,,,,
35924,1564156122864,-1,2.04,0.67,0.39,1.04,0.88,0.76,0.99,0.73,-35,0,-44,1.25,7267,78,102,44,92,1188,499.0,576,466,60,118.0,309,1,391,533,138,0,0,531,-22519,-3482,450,-5.59,,,,,,,,,,,,
35944,1564156122884,3,2.04,0.66,0.37,1.03,0.87,0.74,0.85,0.73,-35,-1,-44,1.13,7307,78,102,44,91,1104,503.0,577,468,60,117.0,309,1,395,536,138,0,0,546,11560,-23623,450,-5.59,44.681408,10.024602,44.5,178.3,0,0.0,-1,0.0,0.0,0,0.15,0.5991
35964,1564156122904,1,2.05,0.66,0.38,1.03,0.86,0.67,0.86,0.64,-35,1,-46,1.09,7321,78,102,44,91,1059,505.0,573,464,60,119.0,309,1,397,536,138,0,0,553,6274,2524,455,-5.59,,,,,,,,,,,,
35984,1564156122924,1,2.05,0.66,0.38,1.02,0.86,0.59,0.81,0.61,-37,3,-45,1.0,7557,78,102,44,90,1037,507.0,577,463,60,119.0,337,1,416,547,154,0,0,545,-21872,-22519,457,-5.59,,,,,,,,,,,,
36004,1564156122944,0,2.07,0.67,0.38,1.04,0.87,0.58,0.77,0.59,-38,3,-46,0.96,7674,78,102,44,90,1017,512.0,593,468,60,118.0,337,1,424,550,154,0,0,547,17136,-3210,458,-5.59,,,,,,,,,,,,
36024,1564156122964,-1,2.09,0.68,0.4,1.04,0.88,0.61,0.69,0.7,-39,0,-49,0.92,7621,78,102,44,89,993,513.0,606,467,60,119.0,337,1,419,548,154,0,0,562,26178,23619,458,-5.59,,,,,,,,,,,,
36044,1564156122984,0,2.1,0.68,0.39,1.05,0.87,0.74,0.61,0.71,-39,1,-47,0.96,7770,77,102,44,89,978,516.0,598,465,60,119.0,337,1,430,545,154,0,0,555,16383,1,457,-5.59,44.6814,10.024589,46.39,178.2,0,0.0,-1,0.0,0.0,0,0.15,0.6007
36064,1564156123004,0,2.13,0.67,0.39,1.04,0.88,0.79,0.74,0.76,-39,1,-48,1.08,7841,78,102,44,88,980,515.0,595,463,60,119.0,337,1,434,539,154,0,0,569,-14,-22359,459,-5.59,,,,,,,,,,,,
36084,1564156123024,-0,2.16,0.67,0.39,1.03,0.88,0.69,0.87,0.69,-38,1,-48,1.11,7861,77,102,44,88,983,520.0,612,467,60,119.0,344,1,435,529,158,0,0,591,1248,-13043,465,-5.59,,,,,,,,,,,,
36104,1564156123044,2,2.21,0.68,0.4,1.04,0.88,0.55,0.88,0.56,-39,3,-48,1.03,7722,68,102,44,86,986,523.0,604,461,60,119.0,344,1,423,518,158,0,0,577,-22519,30227,467,-5.59,,,,,,,,,,,,
36124,1564156122992,0,2.25,0.69,0.4,1.06,0.88,0.59,0.79,0.59,-40,1,-49,0.98,7958,56,102,44,82,991,525.0,610,465,60,119.0,344,1,435,486,158,0,0,566,2088,-22359,468,-5.59,,,,,,,,,,,,
36144,1564156123012,-0,2.3,0.69,0.4,1.05,0.88,0.68,0.86,0.73,-40,-3,-50,1.1,8019,50,102,44,76,996,529.0,620,464,60,119.0,344,1,438,438,158,0,0,582,-28648,208,470,-5.59,44.681393,10.024576,47.56,178.2,0,0.0,-1,0.0,0.0,0,0.15,0.6024
36164,1564156123102,1,2.34,0.69,0.39,1.05,0.88,0.5,0.98,0.59,-38,0,-52,1.09,7881,40,102,44,71,999,531.0,625,465,60,119.0,344,1,439,396,158,0,0,597,-22519,-23055,471,-5.59,,,,,,,,,,,,
36184,1564156123122,0,2.37,0.69,0.39,1.06,0.88,0.42,0.86,0.6,-37,0,-53,0.96,7848,30,102,44,66,1015,531.0,636,464,60,118.0,219,1,443,338,104,0,0,601,2524,-2934,473,-5.59,,,,,,,,,,,,
36204,1564156123142,-1,2.4,0.7,0.4,1.06,0.89,0.58,0.76,0.73,-38,-0,-52,0.96,7971,21,102,44,59,1028,529.0,621,463,60,120.0,219,1,432,295,104,0,0,572,-28648,-3190,482,-5.59,,,,,,,,,,,,
36224,1564156123162,1,2.42,0.73,0.41,1.08,0.89,0.64,0.88,0.72,-38,-2,-51,1.09,7874,12,102,44,53,1038,530.0,613,466,60,119.0,219,1,387,261,104,0,0,574,2524,-7939,487,-5.59,,,,,,,,,,,,
36244,1564156123182,2,2.43,0.77,0.42,1.12,0.91,0.46,0.94,0.67,-36,-3,-49,1.05,7835,8,102,44,49,1046,528.0,607,469,60,119.0,219,1,375,231,104,0,0,579,-28648,-1894,491,-5.59,44.681381,10.024565,48.68,178.1,0,0.0,-1,0.0,0.0,0,0.16,0.6041
36264,1564156123204,-1,2.45,0.76,0.42,1.12,0.92,0.33,0.83,0.58,-35,-1,-48,0.89,7747,6,102,44,45,1040,529.0,619,467,60,118.0,219,1,355,215,104,0,0,575,-9072,-18032,496,-5.59,,,,,,,,,,,,
36284,1564156123224,-0,2.46,0.76,0.43,1.11,0.92,0.34,0.78,0.67,-34,-1,-47,0.85,7536,6,102,44,42,1036,528.0,602,466,60,119.0,122,1,332,211,61,0,0,567,-28648,6273,499,-5.59,,,,,,,,,,,,
36304,1564156123244,2,2.48,0.76,0.43,1.11,0.92,0.29,0.76,0.65,-33,2,-43,0.81,7270,6,102,44,39,1024,528.0,583,466,60,119.0,122,1,310,205,61,0,0,550,-28648,6274,503,-5.59,,,,,,,,,,,,
36324,1564156123264,-1,2.48,0.78,0.43,1.13,0.93,0.18,0.83,0.61,-30,2,-41,0.85,7104,6,102,44,37,1006,525.0,578,467,60,119.0,122,1,304,194,61,0,0,535,2088,-32248,507,-5.59,,,,,,,,,,,,
36344,1564156123284,-2,2.47,0.78,0.44,1.14,0.93,0.27,0.89,0.57,-27,2,-38,0.93,6934,6,102,44,36,983,521.0,565,468,60,120.0,122,1,301,188,61,0,0,524,-9212,2524,510,-5.59,44.681374,10.024553,49.51,178.0,0,0.0,-1,0.0,0.0,0,0.16,0.6057
36364,1564156123306,1,2.46,0.78,0.43,1.13,0.92,0.36,0.75,0.63,-25,2,-36,0.83,6858,5,102,44,35,943,516.0,554,466,60,118.0,122,1,298,183,61,0,0,519,16383,2524,514,-5.59,,,,,,,,,,,,
36384,1564156123326,-1,2.44,0.75,0.42,1.11,0.92,0.35,0.88,0.54,-22,3,-31,0.94,6768,5,102,44,35,925,517.0,550,466,60,120.0,89,1,298,183,46,0,0,512,-14,-8187,517,-5.59,,,,,,,,,,,,
36404,1564156123346,2,2.41,0.74,0.42,1.11,0.91,0.45,0.81,0.61,-20,1,-26,0.93,6686,5,102,44,34,912,517.0,560,467,60,119.0,89,1,295,176,46,0,0,511,17136,16383,518,-5.59,,,,,,,,,,,,
36424,1564156123366,-1,2.38,0.75,0.42,1.12,0.91,0.42,0.91,0.56,-16,3,-22,1.0,6508,5,102,44,34,886,519.0,549,466,60,120.0,89,1,295,176,46,0,0,515,-4054,26178,518,-5.59,,,,,,,,,,,,
36444,1564156123386,0,2.39,0.76,0.42,1.13,0.92,0.5,0.9,0.55,-13,2,-19,1.03,6412,6,102,44,34,849,522.0,541,466,60,119.0,89,1,295,176,46,0,0,509,10994,-9212,522,-5.59,44.681362,10.024544,50.55,177.9,0,0.0,-1,0.0,0.0,0,0.16,0.6074
36464,1564156123405,0,2.39,0.77,0.43,1.14,0.92,0.45,0.79,0.56,-8,3,-16,0.91,6345,6,102,44,34,836,522.0,533,468,60,119.0,89,1,295,176,46,0,0,509,15661,1341,522,-5.59,,,,,,,,,,,,
36484,1564156123425,2,2.37,0.78,0.43,1.15,0.91,0.44,0.74,0.51,-4,4,-14,0.86,6399,6,102,44,34,823,521.0,532,466,60,119.0,80,1,295,176,42,0,0,505,15661,-32248,521,-5.59,,,,,,,,,,,,
36504,1564156123445,-1,2.35,0.8,0.42,1.17,0.92,0.55,0.65,0.54,-0,2,-13,0.85,6490,6,102,43,34,813,520.0,527,463,60,119.0,80,1,295,177,42,0,0,501,11560,-3856,520,-5.59,,,,,,,,,,,,
36524,1564156123465,2,2.31,0.83,0.43,1.18,0.93,0.63,0.53,0.45,1,1,-11,0.83,6618,6,102,43,34,802,514.0,541,464,60,119.0,80,1,295,177,42,0,0,496,10408,2109,514,-5.59,,,,,,,,,,,,
36544,1564156123485,-0,2.28,0.83,0.43,1.19,0.93,0.68,0.41,0.48,1,3,-10,0.79,6771,9,102,43,34,801,507.0,556,467,60,120.0,80,1,295,177,42,0,0,499,15661,-9216,510,-5.59,44.681351,10.024534,51.28,177.9,0,0.0,-1,0.0,0.0,0,0.16,0.6091
36564,1564156123501,2,2.24,0.84,0.44,1.19,0.95,0.72,0.39,0.43,0,2,-9,0.82,6845,9,102,43,34,805,506.0,566,470,60,118.0,80,1,295,177,42,0,0,500,-32248,505,504,-5.59,,,,,,,,,,,,
36584,1564156123521,-2,2.23,0.84,0.44,1.19,0.95,0.71,0.4,0.34,-1,2,-9,0.81,6875,11,102,43,34,813,506.0,557,465,60,120.0,92,1,295,177,46,0,0,503,-28648,998,500,-5.59,,,,,,,,,,,,
36604,1564156123541,2,2.2,0.84,0.44,1.18,0.94,0.77,0.38,0.44,-3,1,-9,0.86,6828,11,102,43,34,819,511.0,562,467,60,119.0,92,1,295,177,46,0,0,507,-3856,2109,497,-5.59,,,,,,,,,,,,
36624,1564156123561,-1,2.2,0.82,0.44,1.17,0.94,0.8,0.42,0.34,-4,4,-11,0.91,6835,11,102,43,34,826,515.0,558,467,60,120.0,92,1,295,177,46,0,0,511,-14,3,492,181.28,,,,,,,,,,,,
36644,1564156123581,0,2.18,0.81,0.44,1.16,0.94,0.88,0.39,0.43,-7,2,-9,0.96,6830,11,102,43,35,830,511.0,563,470,60,119.0,92,1,298,184,46,0,0,510,-3856,248,490,-5.59,44.681339,10.024528,51.24,177.8,0,0.0,-1,0.0,0.0,0,0.16,0.6107
36664,1564156123599,0,2.18,0.8,0.44,1.14,0.94,0.84,0.46,0.4,-9,2,-10,0.96,6845,11,102,43,35,836,510.0,542,465,60,120.0,92,1,298,184,46,0,0,511,-4054,505,487,-5.59,,,,,,,,,,,,
36684,1564156123619,-2,2.18,0.77,0.43,1.13,0.92,0.89,0.49,0.39,-10,3,-13,1.01,6791,11,102,43,35,842,510.0,543,466,60,119.0,96,1,298,184,47,0,0,507,10994,-1562,485,-5.59,,,,,,,,,,,,
36704,1564156123639,1,2.18,0.75,0.42,1.11,0.92,0.86,0.54,0.37,-12,2,-13,1.01,6764,11,102,43,35,846,507.0,558,470,60,119.0,96,1,298,184,47,0,0,508,10994,505,486,-5.59,,,,,,,,,,,,
36724,1564156123659,-2,2.18,0.74,0.43,1.1,0.92,0.85,0.59,0.4,-13,2,-15,1.04,6766,11,102,43,35,846,510.0,564,464,60,118.0,96,1,298,189,47,0,0,511,-3414,-6441,483,-5.59,,,,,,,,,,,,
36744,1564156123679,1,2.17,0.74,0.42,1.11,0.91,0.87,0.64,0.41,-13,1,-15,1.08,6701,12,102,43,36,849,508.0,567,467,60,119.0,96,1,301,189,47,0,0,503,-21872,-1562,484,-5.59,44.681324,10.02452,49.76,177.7,0,0.0,-1,0.0,0.0,0,0.16,0.6124
36764,1564156123699,0,2.18,0.74,0.4,1.1,0.91,0.86,0.64,0.46,-14,1,-16,1.07,6670,13,102,43,37,851,508.0,569,467,60,119.0,96,1,304,195,47,0,0,508,-3414,-1562,483,-5.59,,,,,,,,,,,,
36784,1564156123719,1,2.17,0.74,0.41,1.11,0.9,0.87,0.72,0.38,-14,1,-16,1.13,6686,13,102,43,37,855,505.0,541,463,60,119.0,101,1,304,118,49,0,0,500,6274,-1562,481,-5.59,,,,,,,,,,,,
36804,1564156123739,1,2.18,0.75,0.42,1.11,0.91,0.88,0.71,0.42,-15,1,-16,1.13,6720,13,102,43,38,857,505.0,554,471,60,119.0,101,1,307,201,49,0,0,504,6274,-17956,483,-5.59,,,,,,,,,,,,
36824,1564156123759,0,2.16,0.76,0.42,1.13,0.92,0.89,0.73,0.38,-15,1,-17,1.15,6730,13,102,43,38,859,505.0,546,465,60,120.0,101,1,307,201,49,0,0,503,6274,16648,480,-5.59,,,,,,,,,,,,
36844,1564156123779,1,2.17,0.78,0.43,1.15,0.92,0.88,0.73,0.39,-15,1,-18,1.14,6734,13,102,43,39,859,506.0,551,470,60,119.0,101,1,310,206,49,0,0,507,-28648,-1562,479,-5.59,44.681316,10.024513,49.2,177.7,0,0.0,-1,0.0,0.0,0,0.16,0.6141
36864,1564156123801,0,2.16,0.79,0.42,1.15,0.92,0.87,0.83,0.36,-16,2,-18,1.2,6715,14,102,43,39,859,506.0,537,466,60,120.0,101,1,310,130,49,0,0,500,6274,32033,480,-5.59,,,,,,,,,,,,
36884,1564156123821,2,2.16,0.79,0.43,1.16,0.92,0.89,0.75,0.45,-16,2,-19,1.16,6694,14,102,43,39,856,504.0,544,469,60,119.0,108,1,310,206,52,0,0,505,-32248,-6441,478,-5.59,,,,,,,,,,,,
36904,1564156123841,-1,2.16,0.79,0.42,1.15,0.92,0.9,0.84,0.42,-17,3,-20,1.23,6696,14,102,43,39,852,504.0,540,464,60,120.0,108,1,310,207,52,0,0,508,2109,32033,478,-5.59,,,,,,,,,,,,
36924,1564156123861,3,2.15,0.79,0.44,1.16,0.93,0.94,0.78,0.46,-18,1,-20,1.22,6706,14,102,43,40,844,505.0,548,470,60,118.0,108,1,317,207,52,0,0,502,6274,2212,476,-5.59,,,,,,,,,,,,
36944,1564156123881,-1,2.16,0.79,0.44,1.16,0.93,0.91,0.85,0.42,-18,2,-21,1.24,6677,14,102,43,40,836,503.0,544,464,60,120.0,108,1,317,207,52,0,0,507,2109,-23367,475,-5.59,44.681301,10.024507,48.95,177.7,0,0.0,-1,0.0,0.0,0,0.17,0.6157
36964,1564156123905,1,2.15,0.79,0.43,1.16,0.93,0.95,0.78,0.44,-19,3,-22,1.23,6710,14,102,43,41,831,504.0,553,467,60,119.0,108,1,324,209,52,0,0,504,-32248,-3210,474,-5.59,,,,,,,,,,,,
36984,1564156123925,-1,2.15,0.78,0.43,1.15,0.92,0.93,0.85,0.43,-19,2,-22,1.26,6722,14,102,43,40,825,502.0,542,462,60,121.0,112,1,317,207,53,0,0,501,15661,-23367,474,-5.59,,,,,,,,,,,,
37004,1564156123945,0,2.15,0.78,0.43,1.15,0.93,0.93,0.81,0.41,-20,2,-23,1.23,6720,23,102,43,43,819,501.0,550,468,60,120.0,112,1,338,210,53,0,0,506,11560,16648,473,-5.59,,,,,,,,,,,,
37024,1564156123965,-1,2.13,0.79,0.43,1.15,0.93,0.95,0.82,0.41,-20,2,-24,1.26,6754,37,102,43,47,810,500.0,545,465,60,120.0,112,1,367,219,53,0,0,501,10408,3576,471,-5.59,,,,,,,,,,,,
37044,1564156123985,2,2.14,0.78,0.44,1.15,0.93,0.95,0.8,0.44,-21,2,-25,1.24,6868,47,102,43,55,804,503.0,550,467,60,119.0,112,1,393,259,53,0,0,502,2109,-17956,473,-5.59,44.68129,10.024501,48.35,177.6,0,0.0,-1,0.0,0.0,0,0.17,0.6174
37064,1564156123995,1,2.13,0.79,0.43,1.16,0.92,0.87,0.9,0.36,-21,3,-26,1.26,6975,57,102,43,64,800,500.0,548,466,60,120.0,112,1,409,300,53,0,0,500,11560,10432,470,-5.59,,,,,,,,,,,,
37084,1564156124015,-1,2.14,0.79,0.43,1.15,0.93,0.97,0.81,0.47,-22,1,-26,1.27,7025,67,102,43,72,796,500.0,573,468,60,118.0,200,1,388,382,94,0,0,503,10408,-1923,468,-5.59,,,,,,,,,,,,
37104,1564156124035,2,2.14,0.79,0.43,1.16,0.93,0.95,0.86,0.44,-22,1,-26,1.28,7064,76,102,43,81,791,500.0,562,465,60,119.0,200,1,382,475,94,0,0,497,10408,243,468,-5.59,,,,,,,,,,,,
37124,1564156124055,1,2.13,0.78,0.43,1.15,0.92,0.78,0.96,0.37,-22,0,-26,1.23,7140,83,102,43,88,789,500.0,565,466,60,119.0,200,1,384,521,94,0,0,498,10408,2212,468,-5.59,,,,,,,,,,,,
37144,1564156124075,1,2.13,0.79,0.43,1.15,0.93,0.81,0.99,0.39,-22,0,-27,1.28,7140,85,102,43,91,788,500.0,570,467,60,119.0,200,1,382,534,94,0,0,505,10408,11560,468,-5.59,44.681282,10.024497,47.62,177.5,0,0.0,-1,0.0,0.0,0,0.17,0.6191
37164,1564156124095,-0,2.14,0.79,0.44,1.15,0.94,0.93,0.86,0.54,-23,0,-28,1.27,7197,85,102,43,92,805,505.0,571,466,60,119.0,200,1,386,535,94,0,0,508,6274,-3082,471,-5.59,,,,,,,,,,,,
37184,1564156124115,2,2.14,0.79,0.44,1.15,0.94,0.95,0.81,0.57,-24,1,-28,1.25,7281,85,102,43,93,829,506.0,565,467,60,119.0,312,1,391,540,147,0,0,519,-28648,-28648,476,-5.59,,,,,,,,,,,,
37204,1564156124135,1,2.14,0.8,0.44,1.15,0.94,0.85,0.83,0.53,-24,2,-29,1.19,7387,85,102,43,93,853,509.0,568,462,60,119.0,312,1,402,545,147,0,0,520,10994,6274,475,-5.59,,,,,,,,,,,,
37224,1564156124155,2,2.14,0.79,0.44,1.15,0.94,0.73,0.84,0.52,-24,2,-30,1.11,7443,85,102,43,92,876,514.0,559,465,60,119.0,312,1,402,545,147,0,0,535,-3482,-32248,477,-5.59,,,,,,,,,,,,
37244,1564156124099,0,2.14,0.79,0.44,1.14,0.94,0.57,0.95,0.46,-23,4,-30,1.11,7327,85,102,43,92,945,517.0,567,466,60,119.0,312,1,396,543,147,0,0,539,1341,-28648,482,-5.59,44.681267,10.024494,47.42,177.5,0,0.0,-1,0.0,0.0,0,0.17,0.6207
37264,1564156124197,0,2.14,0.79,0.44,1.14,0.94,0.49,1.06,0.42,-22,5,-29,1.17,7270,85,102,43,93,1027,519.0,564,462,60,120.0,312,1,391,539,147,0,0,543,10408,-28648,487,-5.59,,,,,,,,,,,,
37284,1564156124217,-1,2.16,0.79,0.44,1.14,0.95,0.48,1.11,0.5,-22,4,-29,1.21,7247,78,102,43,92,1098,524.0,563,463,60,120.0,305,1,390,537,149,0,0,542,2524,2524,488,-5.59,,,,,,,,,,,,
37304,1564156124237,-0,2.17,0.8,0.44,1.14,0.93,0.61,1.01,0.65,-23,3,-29,1.18,7214,57,102,43,89,1172,523.0,570,463,60,120.0,305,1,389,530,149,0,0,544,-22519,2524,493,-5.59,,,,,,,,,,,,
37324,1564156124257,-1,2.2,0.8,0.43,1.15,0.94,0.71,0.89,0.76,-24,3,-29,1.14,7228,35,102,43,84,1184,527.0,573,468,60,119.0,305,1,391,498,149,0,0,540,6274,-22263,497,-5.59,,,,,,,,,,,,
37344,1564156124277,2,2.22,0.8,0.44,1.16,0.94,0.62,0.83,0.72,-23,3,-30,1.04,7301,32,102,43,77,1197,529.0,572,468,60,119.0,305,1,399,448,149,0,0,542,6274,2088,502,-5.59,44.681255,10.024491,47.25,177.4,0,0.0,-1,0.0,0.0,0,0.17,0.6224
37364,1564156124305,2,2.24,0.81,0.44,1.16,0.95,0.49,0.88,0.56,-22,3,-28,1.01,7318,31,102,43,73,1181,530.0,570,470,60,119.0,305,1,404,401,149,0,0,542,2524,-9072,507,-5.59,,,,,,,,,,,,
37384,1564156124325,1,2.25,0.81,0.45,1.17,0.94,0.37,0.95,0.53,-20,4,-27,1.02,7228,31,102,43,69,1135,530.0,578,468,60,119.0,194,1,404,346,99,0,0,538,2524,-2934,512,-5.59,,,,,,,,,,,,
37404,1564156124345,1,2.28,0.83,0.45,1.19,0.96,0.44,0.96,0.62,-18,2,-25,1.06,7247,30,102,43,67,1067,529.0,565,467,60,120.0,194,1,410,326,99,0,0,542,-9072,-9072,516,-5.59,,,,,,,,,,,,
37424,1564156124365,-2,2.3,0.83,0.45,1.19,0.95,0.54,0.89,0.71,-17,2,-25,1.04,7236,30,102,43,65,1008,531.0,560,465,60,120.0,194,1,416,322,99,0,0,541,-22519,-22519,522,-5.59,,,,,,,,,,,,
37444,1564156124385,-1,2.31,0.83,0.45,1.2,0.96,0.62,0.72,0.82,-16,2,-25,0.95,7273,30,102,43,65,984,532.0,571,469,60,118.0,194,1,418,317,99,0,0,539,14504,-22519,523,-5.59,44.681244,10.02449,48.73,177.3,0,0.0,-1,0.0,0.0,0,0.17,0.6241
37464,1564156124404,2,2.32,0.85,0.46,1.21,0.96,0.59,0.62,0.8,-14,1,-23,0.85,7259,30,102,43,63,971,530.0,570,467,60,118.0,194,1,424,312,99,0,0,536,2524,2524,527,-5.59,,,,,,,,,,,,
37484,1564156124424,1,2.35,0.85,0.46,1.19,0.96,0.47,0.57,0.62,-11,3,-21,0.74,7292,31,102,43,63,940,530.0,572,468,60,119.0,160,1,426,307,85,0,0,540,6274,-32248,530,414.87,,,,,,,,,,,,
37504,1564156124444,2,2.38,0.85,0.46,1.2,0.97,0.41,0.52,0.53,-9,4,-18,0.66,7338,30,102,43,62,916,532.0,557,466,60,120.0,160,1,429,302,85,0,0,540,-22519,1779,532,-5.59,,,,,,,,,,,,
37524,1564156124464,2,2.41,0.86,0.46,1.21,0.97,0.44,0.43,0.5,-6,4,-16,0.62,7341,30,102,44,61,887,535.0,552,467,60,120.0,160,1,432,295,85,0,0,544,2524,-8186,535,-5.59,,,,,,,,,,,,
37544,1564156124484,1,2.45,0.87,0.47,1.22,0.98,0.49,0.38,0.5,-4,3,-14,0.62,7381,30,102,44,60,863,538.0,562,465,60,120.0,160,1,426,290,85,0,0,543,-9072,6274,538,-5.59,44.681232,10.024489,50.3,177.3,0,0.0,-1,0.0,0.0,0,0.17,0.6257
37564,1564156124502,0,2.49,0.88,0.47,1.22,0.98,0.55,0.25,0.62,-1,0,-12,0.61,7378,30,102,43,59,851,542.0,568,464,60,119.0,160,1,420,286,85,0,0,544,2524,-8962,542,-5.59,,,,,,,,,,,,
37584,1564156124522,1,2.52,0.88,0.47,1.22,0.98,0.69,0.07,0.73,0,-1,-10,0.69,7443,30,102,43,59,838,546.0,566,467,60,120.0,150,1,422,287,82,0,0,544,-28648,14504,546,-5.59,,,,,,,,,,,,
37604,1564156124542,0,2.56,0.89,0.47,1.23,0.99,0.81,-0.09,0.82,2,-2,-9,0.81,7464,31,102,43,59,834,546.0,595,465,60,119.0,150,1,422,287,82,0,0,548,-28648,-9072,546,-5.59,,,,,,,,,,,,
37624,1564156124562,-0,2.59,0.88,0.48,1.22,1.0,0.9,-0.21,0.89,3,-1,-6,0.93,7551,30,102,43,58,842,549.0,596,467,60,120.0,150,1,417,281,82,0,0,553,-22519,-22519,549,-5.59,,,,,,,,,,,,
37644,1564156124582,1,2.62,0.88,0.47,1.22,1.0,0.94,-0.27,0.9,5,-1,-3,0.98,7575,30,102,43,57,851,546.0,585,467,60,120.0,150,1,410,276,82,0,0,558,2524,-9072,549,-5.59,44.681217,10.024491,51.91,177.2,0,0.0,-1,0.0,0.0,0,0.17,0.6274
37664,1564156124600,1,2.63,0.89,0.47,1.22,0.99,0.94,-0.34,0.95,6,-2,-2,1.0,7631,30,102,43,57,857,547.0,605,468,60,120.0,150,1,411,277,82,0,0,568,-9212,6273,547,-5.59,,,,,,,,,,,,
37684,1564156124620,2,2.64,0.88,0.47,1.22,0.98,0.95,-0.43,0.92,7,-2,2,1.05,7631,30,102,43,57,863,547.0,592,466,60,119.0,145,1,411,272,80,0,0,565,-22519,-32504,547,-5.59,,,,,,,,,,,,
37704,1564156124640,1,2.62,0.88,0.47,1.22,0.99,0.93,-0.44,0.88,9,-1,7,1.02,7671,30,102,43,56,861,549.0,593,467,60,119.0,145,1,404,272,80,0,0,562,-22519,-22359,549,-5.59,,,,,,,,,,,,
37724,1564156124660,1,2.61,0.88,0.47,1.22,0.99,0.82,-0.46,0.86,10,-2,8,0.94,7634,30,102,43,56,861,550.0,582,467,60,119.0,145,1,404,266,80,0,0,561,10408,-28648,550,-5.59,,,,,,,,,,,,
37744,1564156124680,2,2.6,0.88,0.47,1.23,0.99,0.71,-0.51,0.79,11,-1,9,0.88,7591,30,102,43,56,861,554.0,589,466,60,119.0,145,1,404,272,80,0,0,553,-22519,-32504,554,-5.59,44.681202,10.024492,52.98,177.2,0,0.0,-1,0.0,0.0,0,0.18,0.6291
37764,1564156124700,1,2.58,0.88,0.47,1.22,0.98,0.64,-0.5,0.69,13,-1,12,0.81,7521,30,102,43,56,860,555.0,580,471,60,120.0,145,1,403,265,80,0,0,554,6274,-23623,555,-5.59,,,,,,,,,,,,
37784,1564156124720,2,2.57,0.88,0.46,1.22,0.98,0.59,-0.5,0.62,14,-0,14,0.78,7518,25,102,43,55,862,555.0,582,468,60,118.0,135,1,396,260,75,0,0,559,6274,-23623,555,-5.59,,,,,,,,,,,,
37804,1564156124740,-0,2.58,0.88,0.47,1.22,0.99,0.58,-0.5,0.53,15,1,13,0.77,7566,22,102,43,53,863,557.0,573,467,60,120.0,135,1,387,254,75,0,0,555,-28648,2211,558,-5.59,,,,,,,,,,,,
37824,1564156124760,-1,2.57,0.88,0.47,1.23,0.98,0.56,-0.55,0.45,16,1,14,0.79,7551,20,102,43,51,855,557.0,570,466,60,119.0,135,1,381,243,75,0,0,558,6274,2216,557,-5.59,,,,,,,,,,,,
37844,1564156124780,-1,2.58,0.88,0.47,1.23,0.98,0.54,-0.61,0.44,17,2,17,0.81,7625,20,102,43,49,850,557.0,575,467,60,119.0,135,1,375,238,75,0,0,554,-32248,2211,557,-5.59,44.68119,10.024492,53.46,177.2,0,0.0,-1,0.0,0.0,0,0.18,0.6307
37864,1564156124800,-0,2.58,0.88,0.47,1.23,0.99,0.58,-0.66,0.43,18,2,19,0.88,7575,20,102,43,48,841,560.0,588,466,60,119.0,135,1,372,226,75,0,0,560,-28648,-2934,558,-5.59,,,,,,,,,,,,
37884,1564156124820,-1,2.58,0.88,0.46,1.22,0.98,0.65,-0.66,0.47,18,2,18,0.92,7584,20,102,43,47,831,560.0,610,463,60,120.0,112,1,370,221,63,0,0,573,2088,-18032,560,-5.59,,,,,,,,,,,,
37904,1564156124840,-1,2.59,0.87,0.47,1.22,0.99,0.7,-0.72,0.47,19,2,19,1.01,7566,20,102,43,46,816,558.0,596,466,60,120.0,112,1,362,221,63,0,0,560,-32248,-18032,558,-5.59,,,,,,,,,,,,
37924,1564156124860,-0,2.59,0.88,0.47,1.22,0.98,0.75,-0.82,0.53,19,2,21,1.11,7578,20,102,43,45,804,556.0,606,465,60,120.0,112,1,355,217,63,0,0,544,10408,-18032,556,-5.59,,,,,,,,,,,,
37944,1564156124880,-0,2.59,0.88,0.46,1.22,0.98,0.88,-0.9,0.64,19,0,21,1.26,7533,20,102,43,44,792,557.0,593,465,60,119.0,112,1,347,217,63,0,0,537,10408,-30159,557,-5.59,44.681179,10.024491,53.93,177.2,0,0.0,-1,0.0,0.0,0,0.18,0.6324
37964,1564156124904,-1,2.6,0.88,0.46,1.22,0.98,0.96,-0.94,0.7,20,-1,21,1.35,7536,20,102,43,44,785,555.0,597,467,60,120.0,112,1,347,217,63,0,0,543,-22519,-23623,555,-5.59,,,,,,,,,,,,
37984,1564156124924,-0,2.59,0.88,0.46,1.23,0.98,1.03,-0.98,0.74,20,-2,21,1.42,7434,20,102,43,44,777,556.0,584,467,60,120.0,109,1,347,215,61,0,0,549,-9212,-30159,556,-5.59,,,,,,,,,,,,
38004,1564156124944,-0,2.59,0.88,0.46,1.23,0.98,1.08,-1.04,0.81,20,-2,22,1.5,7434,20,102,43,44,771,556.0,568,465,60,118.0,109,1,347,215,61,0,0,537,-9212,-28648,554,-5.59,,,,,,,,,,,,
38024,1564156124964,-2,2.59,0.88,0.47,1.22,0.98,1.12,-1.06,0.82,21,-4,23,1.55,7387,20,102,43,44,770,557.0,472,466,60,120.0,109,1,347,215,61,0,0,529,-9212,-18032,556,-5.59,,,,,,,,,,,,
38044,1564156124984,-1,2.58,0.88,0.46,1.23,0.98,1.15,-1.05,0.78,21,-4,23,1.55,7393,20,102,43,44,771,555.0,388,467,60,119.0,109,1,347,215,61,0,0,531,-9212,-22359,555,-5.59,44.681164,10.024488,54.54,177.2,0,0.0,-1,0.0,0.0,0,0.18,0.6341
38064,1564156124994,-1,2.56,0.88,0.47,1.22,0.99,1.09,-1.05,0.69,22,-3,26,1.51,7373,20,102,43,44,775,555.0,415,467,60,119.0,109,1,347,215,61,0,0,533,2524,-22359,555,-5.59,,,,,,,,,,,,
38084,1564156125014,2,2.54,0.88,0.46,1.23,0.98,0.98,-1.03,0.63,23,-1,28,1.42,7413,20,102,43,44,781,555.0,362,466,60,118.0,107,1,347,215,60,0,0,529,1341,-28648,554,-5.59,,,,,,,,,,,,
38104,1564156125034,3,2.49,0.88,0.45,1.22,0.99,0.94,-1.0,0.55,23,-1,29,1.37,7443,20,102,43,44,785,555.0,357,468,60,119.0,107,1,347,215,60,0,0,530,-8187,-2934,555,-5.59,,,,,,,,,,,,
38124,1564156125054,3,2.45,0.88,0.46,1.22,0.98,0.87,-0.92,0.45,23,-1,30,1.26,7437,20,102,43,44,788,553.0,336,467,60,119.0,107,1,347,215,60,0,0,527,-9212,-22359,553,-5.59,,,,,,,,,,,,
38144,1564156125074,2,2.4,0.88,0.46,1.22,0.98,0.77,-0.88,0.37,23,0,29,1.17,7431,20,102,43,44,791,552.0,403,467,60,120.0,107,1,347,215,60,0,0,531,-22519,-28648,552,-5.59,44.681148,10.024486,54.22,177.2,0,0.0,-1,0.0,0.0,0,0.18,0.6357
38164,1564156125096,1,2.35,0.88,0.46,1.22,0.98,0.71,-0.81,0.29,21,3,32,1.07,7367,20,102,43,44,793,549.0,362,470,60,119.0,107,1,347,215,60,0,0,529,2524,6274,547,-5.59,,,,,,,,,,,,
38184,1564156125116,1,2.28,0.86,0.46,1.21,0.98,0.7,-0.7,0.26,19,2,31,0.99,7378,20,102,43,44,793,546.0,323,468,60,119.0,110,1,347,215,60,0,0,535,6274,-28648,546,-5.59,,,,,,,,,,,,
38204,1564156125136,1,2.23,0.83,0.45,1.17,0.96,0.72,-0.58,0.31,16,2,29,0.92,7284,20,102,43,44,791,539.0,309,461,60,120.0,110,1,347,215,60,0,0,533,2104,-8962,539,-5.59,,,,,,,,,,,,
38224,1564156125156,-0,2.17,0.71,0.41,1.08,0.9,0.85,-0.5,0.39,11,0,27,0.98,7298,20,102,43,44,787,539.0,348,465,60,120.0,110,1,347,215,60,0,0,541,1780,-2934,532,-5.59,,,,,,,,,,,,
38244,1564156125176,-0,2.12,0.59,0.37,1.0,0.85,0.96,-0.42,0.46,6,-2,23,1.05,7253,20,102,43,44,780,542.0,364,465,60,119.0,110,1,347,217,60,0,0,547,1779,6274,525,-5.59,44.681137,10.024481,53.51,177.2,0,0.0,-1,0.0,0.0,0,0.18,0.6374
38264,1564156125204,-1,2.07,0.54,0.34,0.96,0.82,1.01,-0.36,0.53,1,-1,19,1.07,7324,20,102,43,45,776,542.0,354,463,60,119.0,110,1,355,217,60,0,0,547,-8962,-22519,522,-5.59,,,,,,,,,,,,
38284,1564156125224,0,2.01,0.49,0.34,0.93,0.79,1.01,-0.26,0.56,-3,-2,16,1.04,7321,19,102,43,45,771,545.0,412,463,60,118.0,115,1,355,217,60,0,0,547,-8962,-28648,520,-5.59,,,,,,,,,,,,
38304,1564156125244,2,1.96,0.47,0.31,0.92,0.77,0.85,-0.08,0.46,-6,0,12,0.85,7358,19,102,43,45,770,541.0,443,467,60,118.0,115,1,355,217,60,0,0,551,-2336,-28648,516,-5.59,,,,,,,,,,,,
