"Interval"|"ms"|0|0|1,"Utc"|"ms"|0|0|1,"FB_p"|"bar"|0|300|50,"Volant"|"F"|0.0|300.0|50,"xFR"|"mm"|0.0|5.0|50,"xRR"|"mm"|0.0|5.0|50,"xFL"|"mm"|0.0|5.0|50,"xRL"|"mm"|0.0|5.0|50,"AccelX"|"G"|-3.0|3.0|50,"AccelY"|"G"|-3.0|3.0|50,"AccelZ"|"G"|-3.0|3.0|50,"Yaw"|"Deg/Sec"|-120|120|50,"Pitch"|"Deg/Sec"|-120|120|50,"Roll"|"Deg/Sec"|-120|120|50,"Gsum"|"G"|0.0|3.0|50,"RPM"|""|0|14000|50,"TPS"|"%"|0|100|50,"WaterTemp"|"?C"|0|300|50,"AirTemp"|"?C"|-1000|1000|50,"MAP"|"KPa"|0|255|50,"Lambda"|""|0|1024|50,"WheelSpeed"|"MPH"|0.0|150.0|50,"OilPress"|"PSI"|0|150|50,"FuelPress"|"PSI"|0|150|50,"OilTemp"|"F"|0|300|50,"Battery"|"Volts"|0.0|20.0|50,"FuelCon"|"L/h"|-1000|1000|50,"Gear"|""|0|10|50,"Advance"|"Deg"|-360|360|50,"Injection"|"ms"|-1000|1000|50,"FuelCon"|"L/100km"|-1000|1000|50,"LC_But_Pres"|""|-1000|1000|50,"LC_Active"|""|-1000|1000|50,"RD_Speed"|""|-1000|1000|50,"RUD_Speed"|""|-1000|1000|50,"LD_Speed"|""|-1000|1000|50,"LUD_Speed"|""|-1000|1000|50,"Ana1"|"bar"|-1000.0|1000.0|50,"Latitude"|"Degrees"|-180.0|180.0|10,"Longitude"|"Degrees"|-180.0|180.0|10,"Speed"|"kph"|0.0|150.0|10,"Altitude"|"m"|0.0|4000.0|10,"LapCount"|""|0|0|10,"LapTime"|"Min"|0.0|0.0|10,"Sector"|""|0|0|10,"SectorTime"|"Min"|0.0|0.0|10,"ElapsedTime"|"Min"|0.0|0.0|10,"CurrentLap"|""|0|0|10,"Distance"|"km"|0.0|0.0|10,"SessionTime"|"Min"|0.0|0.0|10
327963,1564153072663,-0,2.52,0.99,0.34,1.51,1.11,0.88,-1.02,1.04,21,0,25,1.35,12311,67,100,44,65,798,632.0,655,462,60,123.0,303,1,440,417,189,0,0,675,243,-10344,632,-5.59,,,,,,,,,,,,
327983,1564153072683,1,2.5,0.99,0.35,1.51,1.11,0.81,-0.96,0.98,20,-1,25,1.25,12384,67,100,44,65,793,634.0,661,462,60,122.0,308,1,440,417,195,0,0,653,-768,-10344,634,-5.59,,,,,,,,,,,,
328003,1564153072703,3,2.48,0.99,0.35,1.51,1.11,0.68,-0.79,0.93,21,-1,25,1.05,12384,67,100,44,65,794,637.0,666,462,60,122.0,308,1,440,417,195,0,0,649,5344,8958,636,-5.59,,,,,,,,,,,,
328023,1564153072723,-0,2.48,0.98,0.34,1.5,1.11,0.72,-0.85,1.0,21,1,24,1.11,12409,67,100,44,65,797,639.0,653,460,60,123.0,308,1,440,417,195,0,0,669,26688,-3038,644,-5.59,,,,,,,,,,,,
328043,1564153072743,1,2.49,0.98,0.34,1.5,1.1,0.81,-0.97,0.99,20,0,23,1.26,12433,67,100,44,65,795,642.0,658,460,60,122.0,308,1,440,417,195,0,0,665,1010,-10348,639,-5.59,44.681324,10.02497,61.89,173.8,0,0.0,-1,0.0,0.0,0,2.11,5.4674
328063,1564153072763,3,2.51,0.98,0.34,1.5,1.1,0.9,-0.85,1.0,19,-1,24,1.24,12450,67,100,44,65,793,643.0,663,463,60,122.0,308,1,440,417,195,0,0,659,-28304,-2826,643,-5.59,,,,,,,,,,,,
328083,1564153072783,1,2.54,0.98,0.34,1.5,1.11,0.85,-0.7,0.98,19,-2,25,1.11,12516,67,100,44,65,788,641.0,661,465,60,123.0,307,1,440,417,198,0,0,667,16529,-26380,641,-5.59,,,,,,,,,,,,
328103,1564153072805,2,2.56,0.98,0.34,1.5,1.11,0.85,-0.83,0.97,19,-2,24,1.19,12458,67,100,44,65,782,643.0,661,466,60,122.0,307,1,440,417,198,0,0,666,30721,-2826,643,-5.59,,,,,,,,,,,,
328123,1564153072825,2,2.59,0.99,0.34,1.51,1.11,0.82,-0.95,1.07,19,-4,24,1.25,12458,67,100,44,65,776,644.0,640,471,60,123.0,307,1,440,417,198,0,0,662,30721,-2830,644,-5.59,,,,,,,,,,,,
328143,1564153072845,4,2.6,0.99,0.34,1.51,1.11,0.79,-0.89,1.01,19,-6,24,1.19,12475,65,100,44,65,771,646.0,663,473,60,123.0,307,1,440,417,198,0,0,681,269,-3578,646,-5.59,44.681313,10.024985,62.86,173.7,0,0.0,-1,0.0,0.0,0,2.11,5.469
328163,1564153072865,2,2.61,0.99,0.34,1.51,1.12,0.77,-0.84,0.83,19,-5,26,1.14,12533,64,100,44,64,771,646.0,656,472,60,122.0,307,1,440,411,198,0,0,678,30721,-2826,646,-5.59,,,,,,,,,,,,
328183,1564153072885,3,2.6,0.99,0.35,1.51,1.11,0.77,-0.93,0.87,20,-5,26,1.2,12677,63,100,44,63,771,648.0,666,471,60,122.0,297,1,440,404,193,0,0,667,17336,-26892,648,-5.59,,,,,,,,,,,,
328203,1564153072905,0,2.59,0.99,0.34,1.5,1.11,0.8,-1.03,0.94,21,-6,25,1.31,12677,63,100,44,63,773,653.0,662,467,60,123.0,297,1,440,404,193,0,0,676,-18357,-10344,653,-5.59,,,,,,,,,,,,
328223,1564153072925,4,2.58,0.98,0.34,1.51,1.11,0.75,-0.88,0.84,22,-4,26,1.16,12643,62,100,44,62,775,653.0,657,466,60,123.0,297,1,440,399,193,0,0,686,3395,-2826,654,-5.59,,,,,,,,,,,,
328243,1564153072945,0,2.61,0.98,0.34,1.51,1.11,0.78,-0.99,0.8,22,-2,28,1.26,12720,61,100,44,62,777,657.0,653,458,60,123.0,297,1,440,399,193,0,0,687,269,6208,656,-5.59,44.681301,10.025001,63.87,173.7,0,0.0,-1,0.0,0.0,0,2.11,5.4707
328263,1564153072965,4,2.62,0.99,0.34,1.51,1.11,0.85,-0.91,0.76,23,-0,31,1.24,12851,58,100,44,61,779,657.0,661,463,60,123.0,297,1,440,393,193,0,0,669,19320,16118,658,-5.59,,,,,,,,,,,,
328283,1564153072985,2,2.63,0.98,0.34,1.51,1.1,0.81,-0.99,0.78,23,-1,32,1.28,12763,57,100,44,59,778,656.0,671,467,60,123.0,285,1,428,378,187,0,0,679,30721,14342,656,-5.59,,,,,,,,,,,,
328303,1564153072995,3,2.65,0.99,0.34,1.51,1.11,0.82,-1.09,0.9,23,-2,31,1.36,12626,55,100,44,58,776,657.0,669,472,60,123.0,285,1,422,370,187,0,0,680,3403,-2345,655,-5.59,,,,,,,,,,,,
328323,1564153073015,3,2.67,0.99,0.35,1.51,1.12,0.84,-1.06,0.85,24,-5,32,1.35,12525,54,100,44,58,772,653.0,663,472,60,123.0,285,1,422,363,187,0,0,680,30721,24845,653,-5.59,,,,,,,,,,,,
328343,1564153073035,1,2.67,1.0,0.34,1.51,1.12,0.83,-1.05,0.7,24,-6,32,1.33,12491,54,100,44,57,768,654.0,661,476,60,123.0,285,1,417,363,187,0,0,680,19320,-3584,653,-5.59,44.681286,10.025015,64.46,173.7,0,0.0,-1,0.0,0.0,0,2.12,5.4724
328363,1564153073055,3,2.66,0.97,0.34,1.52,1.11,0.86,-1.06,0.73,23,-6,34,1.36,12583,53,100,44,56,764,651.0,664,470,60,123.0,285,1,411,355,187,0,0,674,3403,-2345,651,-5.59,,,,,,,,,,,,
328383,1564153073075,-0,2.65,0.99,0.35,1.51,1.1,0.98,-1.15,0.77,23,-8,34,1.51,12600,53,100,43,56,759,649.0,654,466,60,123.0,260,1,411,359,169,0,0,670,26688,-10344,652,-5.59,,,,,,,,,,,,
328403,1564153073103,3,2.61,1.0,0.34,1.51,1.11,0.86,-1.1,0.68,24,-7,33,1.4,12651,53,100,44,55,755,652.0,660,465,60,123.0,260,1,405,348,169,0,0,669,30721,24845,649,-5.59,,,,,,,,,,,,
328423,1564153073123,3,2.58,1.0,0.34,1.51,1.11,0.77,-0.93,0.68,26,-3,34,1.21,12567,52,100,43,55,755,653.0,670,462,60,122.0,260,1,405,350,169,0,0,668,3403,6208,654,-5.59,,,,,,,,,,,,
328443,1564153073143,2,2.57,1.0,0.34,1.51,1.11,0.86,-1.04,0.74,26,1,35,1.35,12575,52,100,43,55,754,655.0,662,461,60,122.0,260,1,405,350,169,0,0,689,17336,-10346,656,-5.59,44.681274,10.025028,64.89,173.7,0,0.0,-1,0.0,0.0,0,2.12,5.4741
328463,1564153073163,5,2.58,0.99,0.34,1.5,1.11,0.91,-0.92,0.71,25,3,37,1.3,12643,52,100,43,54,753,656.0,671,462,60,123.0,260,1,400,344,169,0,0,685,26688,8958,656,-5.59,,,,,,,,,,,,
328483,1564153073183,1,2.59,0.98,0.34,1.51,1.11,0.87,-0.96,0.72,25,0,37,1.29,12660,52,100,43,54,752,652.0,605,463,60,122.0,252,1,400,344,165,0,0,658,30721,-3578,652,-5.59,,,,,,,,,,,,
328503,1564153073203,1,2.61,0.99,0.34,1.51,1.1,0.9,-1.06,0.84,26,3,36,1.39,12592,52,100,43,54,751,651.0,413,468,60,123.0,252,1,400,344,165,0,0,658,16529,-2345,653,-5.59,,,,,,,,,,,,
328523,1564153073223,4,2.6,0.99,0.34,1.52,1.11,0.94,-1.0,0.64,27,1,38,1.38,12508,52,100,43,54,751,654.0,419,468,60,122.0,252,1,400,344,165,0,0,670,30721,-2826,654,-5.59,,,,,,,,,,,,
328543,1564153073243,-0,2.64,0.99,0.34,1.51,1.11,0.88,-1.02,0.72,26,-0,37,1.35,12491,52,100,43,54,750,652.0,378,470,60,122.0,252,1,400,343,165,0,0,691,19304,-26380,652,-5.59,44.681259,10.02504,64.64,173.8,0,0.0,-1,0.0,0.0,0,2.12,5.4757
328563,1564153073263,2,2.66,0.99,0.34,1.5,1.11,0.81,-0.91,0.85,26,0,38,1.22,12558,52,100,43,54,749,647.0,511,472,60,123.0,252,1,400,344,165,0,0,664,269,-3038,647,-5.59,,,,,,,,,,,,
328583,1564153073283,6,2.67,0.99,0.33,1.5,1.11,0.9,-1.01,0.92,26,-1,35,1.35,12609,52,100,43,54,749,644.0,460,464,60,122.0,253,1,400,344,164,0,0,657,1010,3543,644,-5.59,,,,,,,,,,,,
328603,1564153073305,3,2.67,0.99,0.34,1.52,1.11,0.93,-1.1,0.7,26,-0,33,1.44,12592,52,100,43,54,749,643.0,432,465,60,123.0,253,1,400,344,164,0,0,655,28675,-3038,643,-5.59,,,,,,,,,,,,
328623,1564153073325,4,2.67,0.99,0.34,1.52,1.11,0.84,-0.94,0.74,26,1,36,1.26,12475,52,100,43,54,749,644.0,500,465,60,124.0,253,1,400,343,164,0,0,687,-28304,-3038,643,-5.59,,,,,,,,,,,,
328643,1564153073345,4,2.67,0.99,0.34,1.51,1.11,0.78,-0.96,0.74,26,6,38,1.24,12458,52,100,43,54,749,644.0,566,462,60,122.0,253,1,400,343,164,0,0,709,-3446,1549,644,-5.59,44.681244,10.02505,64.09,173.8,0,0.0,-1,0.0,0.0,0,2.12,5.4774
328663,1564153073365,2,2.68,0.99,0.34,1.51,1.11,0.78,-1.07,0.77,25,10,37,1.32,12516,52,100,43,54,748,640.0,637,462,60,123.0,253,1,400,344,164,0,0,675,17740,-2826,640,-5.59,,,,,,,,,,,,
328683,1564153073385,4,2.67,0.99,0.34,1.51,1.11,0.8,-0.81,0.58,27,7,37,1.14,12651,52,100,43,54,748,639.0,660,466,60,122.0,258,1,400,344,165,0,0,643,-30139,3543,639,-5.59,,,,,,,,,,,,
328703,1564153073404,1,2.68,1.0,0.34,1.52,1.11,0.88,-0.89,0.72,27,6,37,1.25,12617,52,100,43,54,749,641.0,654,466,60,122.0,258,1,400,344,165,0,0,649,19621,-388,642,-5.59,,,,,,,,,,,,
328723,1564153073424,1,2.69,0.99,0.34,1.52,1.1,0.93,-0.99,0.84,27,7,37,1.36,12567,52,100,43,54,750,643.0,656,472,60,122.0,258,1,400,344,165,0,0,701,17740,-2830,643,-5.59,,,,,,,,,,,,
328743,1564153073444,5,2.71,0.99,0.34,1.51,1.11,0.83,-0.9,0.78,26,4,35,1.23,12525,52,100,43,54,752,644.0,661,469,60,121.0,258,1,400,344,165,0,0,708,19621,-10348,640,-5.59,44.681229,10.025059,64.0,173.8,0,0.0,-1,0.0,0.0,0,2.12,5.4791
328763,1564153073464,3,2.73,0.99,0.34,1.5,1.11,0.79,-0.92,0.55,26,3,36,1.21,12583,52,100,43,54,753,637.0,648,471,60,123.0,258,1,400,344,165,0,0,683,-768,-26380,635,-5.59,,,,,,,,,,,,
328783,1564153073484,3,2.72,0.99,0.34,1.51,1.11,0.85,-0.9,0.57,28,3,36,1.23,12609,52,100,43,54,753,636.0,656,471,60,123.0,260,1,400,344,165,0,0,644,-7939,-3038,636,-5.59,,,,,,,,,,,,
328803,1564153073504,0,2.74,0.99,0.34,1.5,1.12,0.95,-1.0,0.53,28,1,34,1.38,12567,52,100,43,54,754,634.0,657,469,60,122.0,260,1,400,344,165,0,0,661,-3210,-26380,634,-5.59,,,,,,,,,,,,
328823,1564153073524,2,2.74,0.99,0.34,1.51,1.1,0.98,-1.03,0.42,26,1,34,1.42,12475,52,100,43,53,753,633.0,659,467,60,123.0,260,1,397,329,165,0,0,698,30227,-2830,633,-5.59,,,,,,,,,,,,
328843,1564153073544,2,2.74,0.99,0.35,1.51,1.11,0.83,-0.9,0.38,26,4,32,1.22,12458,52,100,43,54,752,630.0,655,465,60,121.0,260,1,400,344,165,0,0,680,-16179,-3038,630,-5.59,44.681213,10.025065,63.43,173.8,0,0.0,-1,0.0,0.0,0,2.12,5.4807
328863,1564153073564,1,2.73,1.0,0.34,1.52,1.11,0.86,-1.01,0.54,26,5,33,1.33,12516,52,100,43,54,752,628.0,656,464,60,123.0,260,1,400,344,165,0,0,655,-3210,1549,628,-5.59,,,,,,,,,,,,
328883,1564153073584,1,2.71,0.99,0.34,1.5,1.12,0.81,-1.11,0.69,26,7,30,1.37,12483,52,100,43,54,751,629.0,657,461,60,122.0,258,1,400,343,162,0,0,655,17344,3543,630,-5.59,,,,,,,,,,,,
328903,1564153073604,3,2.68,0.99,0.34,1.52,1.11,0.82,-1.01,0.46,26,9,33,1.31,12433,52,100,43,54,751,631.0,660,466,60,123.0,258,1,400,329,162,0,0,701,17344,-2830,632,-5.59,,,,,,,,,,,,
328923,1564153073624,4,2.67,1.0,0.34,1.51,1.1,0.88,-0.97,0.34,25,7,34,1.31,12441,52,100,43,54,751,632.0,588,465,60,124.0,258,1,400,342,162,0,0,705,-3210,-388,632,-5.59,,,,,,,,,,,,
328943,1564153073644,2,2.68,0.99,0.34,1.51,1.11,0.95,-1.07,0.51,25,8,33,1.43,12516,52,100,43,54,753,631.0,552,471,60,122.0,258,1,400,344,162,0,0,676,-13043,-10344,635,-5.59,44.681198,10.02507,63.44,173.8,0,0.0,-1,0.0,0.0,0,2.13,5.4824
328963,1564153073664,3,2.68,1.0,0.34,1.51,1.11,0.95,-1.15,0.45,25,8,34,1.49,12525,53,100,43,54,755,629.0,560,476,60,123.0,258,1,400,344,162,0,0,640,23619,-2830,629,-5.59,,,,,,,,,,,,
328983,1564153073684,2,2.69,0.99,0.34,1.5,1.12,0.94,-1.16,0.4,26,6,34,1.49,12516,57,100,43,55,757,630.0,632,473,60,122.0,263,1,405,350,166,0,0,662,30227,-26380,630,-5.59,,,,,,,,,,,,
329003,1564153073704,2,2.7,1.0,0.34,1.52,1.11,0.9,-1.19,0.54,26,7,33,1.49,12475,60,100,43,56,759,634.0,653,472,60,121.0,263,1,411,358,166,0,0,684,23619,3543,634,-5.59,,,,,,,,,,,,
329023,1564153073724,3,2.72,0.99,0.34,1.51,1.11,0.84,-1.15,0.51,25,7,34,1.42,12533,61,100,43,57,762,630.0,648,467,60,122.0,263,1,417,366,166,0,0,687,17344,3543,629,-5.59,,,,,,,,,,,,
329043,1564153073744,1,2.73,0.99,0.34,1.51,1.11,0.95,-1.23,0.44,25,6,33,1.55,12583,61,100,43,58,765,630.0,632,467,60,122.0,263,1,422,373,166,0,0,649,-13043,3543,629,-5.59,44.681183,10.025075,63.25,173.9,0,0.0,-1,0.0,0.0,0,2.13,5.484
329063,1564153073764,2,2.74,0.99,0.34,1.51,1.12,0.94,-1.16,0.41,25,7,33,1.49,12575,65,100,43,59,767,627.0,648,463,60,122.0,263,1,428,381,166,0,0,660,3472,1549,627,-5.59,,,,,,,,,,,,
329083,1564153073784,4,2.73,0.99,0.34,1.51,1.1,0.74,-1.11,0.46,25,7,31,1.33,12508,65,100,43,61,769,626.0,650,461,60,122.0,300,1,440,396,188,0,0,698,3472,3543,626,-5.59,,,,,,,,,,,,
329103,1564153073804,1,2.74,0.99,0.34,1.5,1.11,0.79,-1.19,0.62,25,9,28,1.43,12558,65,100,43,62,775,629.0,656,459,60,122.0,300,1,440,402,188,0,0,674,-13043,31988,629,-5.59,,,,,,,,,,,,
329123,1564153073824,3,2.75,0.99,0.34,1.51,1.12,0.77,-1.11,0.53,25,9,29,1.35,12660,65,100,43,62,784,627.0,642,464,60,123.0,300,1,440,408,188,0,0,665,-28648,16118,627,-5.59,,,,,,,,,,,,
329143,1564153073844,2,2.75,0.99,0.34,1.51,1.11,0.76,-1.1,0.6,24,7,30,1.34,12660,65,100,43,63,793,628.0,636,466,60,123.0,300,1,440,408,188,0,0,667,3472,-2345,629,-5.59,44.681164,10.025076,63.01,173.9,0,0.0,-1,0.0,0.0,0,2.13,5.4857
329163,1564153073864,2,2.74,0.99,0.34,1.5,1.12,0.77,-1.19,0.66,24,7,28,1.42,12660,66,100,43,63,800,629.0,643,466,60,123.0,300,1,440,408,188,0,0,677,-28648,-10399,629,-5.59,,,,,,,,,,,,
329183,1564153073884,5,2.74,0.99,0.34,1.51,1.11,0.77,-1.16,0.53,25,6,29,1.39,12626,66,100,43,63,811,630.0,660,468,60,121.0,308,1,440,408,195,0,0,673,3472,-2345,629,-5.59,,,,,,,,,,,,
329203,1564153073904,2,2.75,0.99,0.34,1.5,1.11,0.75,-1.12,0.52,25,7,29,1.35,12617,66,100,43,64,824,633.0,657,471,60,123.0,308,1,440,415,195,0,0,681,23619,8958,633,-5.59,,,,,,,,,,,,
329223,1564153073924,3,2.76,0.99,0.34,1.5,1.12,0.69,-1.06,0.54,25,7,28,1.27,12703,66,100,43,64,834,635.0,653,471,60,122.0,308,1,440,415,195,0,0,671,23619,-26562,635,-5.59,,,,,,,,,,,,
329243,1564153073944,2,2.77,0.99,0.34,1.5,1.12,0.81,-1.16,0.51,24,7,28,1.41,12720,66,100,43,64,840,634.0,626,466,60,123.0,308,1,440,415,195,0,0,670,-13043,24845,634,-5.59,44.681152,10.025077,63.06,173.9,0,0.0,-1,0.0,0.0,0,2.13,5.4874
329263,1564153073964,3,2.78,0.99,0.34,1.5,1.11,0.75,-1.08,0.28,24,6,29,1.31,12720,66,100,43,64,843,632.0,633,463,60,123.0,308,1,440,415,195,0,0,683,23619,-10346,632,-5.59,,,,,,,,,,,,
329283,1564153073984,2,2.78,0.99,0.34,1.51,1.11,0.76,-1.17,0.45,24,7,25,1.4,12686,66,100,43,64,845,631.0,645,462,60,123.0,315,1,440,415,199,0,0,675,17344,-10346,631,-5.59,,,,,,,,,,,,
329303,1564153073996,2,2.79,0.99,0.35,1.51,1.11,0.78,-0.99,0.29,25,5,28,1.26,12746,66,100,43,64,846,631.0,640,463,60,123.0,315,1,440,415,199,0,0,678,17344,3543,632,-5.59,,,,,,,,,,,,
329323,1564153074016,0,2.78,0.99,0.34,1.51,1.11,0.76,-1.07,0.29,25,3,28,1.31,12746,66,100,43,64,842,633.0,647,468,60,123.0,315,1,440,415,199,0,0,676,4956,14342,633,-5.59,,,,,,,,,,,,
329343,1564153074036,3,2.78,0.99,0.34,1.51,1.11,0.8,-1.16,0.42,24,5,28,1.41,12746,67,100,43,64,838,634.0,636,466,60,122.0,315,1,440,415,199,0,0,695,-3210,-10344,631,-5.59,44.681137,10.025075,63.68,173.9,0,0.0,-1,0.0,0.0,0,2.13,5.489
329363,1564153074056,1,2.78,0.99,0.35,1.5,1.11,0.74,-1.17,0.36,24,4,30,1.38,12737,67,100,43,64,832,633.0,650,472,60,122.0,315,1,440,415,199,0,0,679,4956,-2826,633,-5.59,,,,,,,,,,,,
329383,1564153074076,5,2.76,1.0,0.34,1.5,1.11,0.71,-1.16,0.52,25,2,30,1.36,12824,67,100,43,64,827,634.0,645,473,60,122.0,316,1,440,415,201,0,0,680,30227,6208,634,-5.59,,,,,,,,,,,,
329403,1564153074104,2,2.75,0.99,0.34,1.51,1.12,0.83,-1.24,0.49,25,2,29,1.49,12842,67,100,43,64,825,637.0,632,467,60,122.0,316,1,440,415,201,0,0,677,5344,16599,637,-5.59,,,,,,,,,,,,
329423,1564153074124,4,2.74,1.0,0.34,1.5,1.11,0.73,-1.17,0.42,26,3,28,1.38,12789,67,100,43,64,822,641.0,574,463,60,123.0,316,1,440,415,201,0,0,708,-30139,16599,641,-5.59,,,,,,,,,,,,
329443,1564153074144,0,2.75,0.99,0.35,1.51,1.11,0.66,-1.12,0.58,25,9,26,1.3,12824,67,100,43,64,818,645.0,590,459,60,123.0,316,1,440,415,201,0,0,694,-3820,-10344,645,-5.59,44.681122,10.025072,63.96,173.9,0,0.0,-1,0.0,0.0,0,2.13,5.4907
329463,1564153074164,1,2.76,1.0,0.34,1.51,1.11,0.65,-1.07,0.32,24,6,29,1.25,12922,67,100,43,64,815,642.0,583,461,60,122.0,316,1,440,415,201,0,0,680,-3820,-2830,642,-5.59,,,,,,,,,,,,
329483,1564153074184,3,2.77,0.99,0.35,1.5,1.12,0.67,-1.16,0.47,23,6,27,1.34,12931,67,100,43,65,813,640.0,523,465,60,123.0,321,1,440,420,206,0,0,675,-30139,16599,640,-5.59,,,,,,,,,,,,
329503,1564153074204,1,2.77,1.0,0.34,1.5,1.12,0.68,-1.12,0.39,24,5,28,1.31,12842,67,100,43,65,811,643.0,440,471,60,122.0,321,1,440,420,206,0,0,678,-3820,24,643,-5.59,,,,,,,,,,,,
329523,1564153074224,2,2.77,1.0,0.34,1.51,1.11,0.7,-1.1,0.54,24,3,25,1.3,12842,67,100,43,65,807,643.0,498,474,60,122.0,321,1,440,420,206,0,0,720,-23055,-2830,643,-5.59,,,,,,,,,,,,
329543,1564153074244,1,2.76,1.0,0.34,1.51,1.11,0.78,-1.18,0.56,23,1,25,1.41,12877,67,100,43,64,802,642.0,551,465,60,123.0,321,1,440,415,206,0,0,682,5344,-26562,642,-5.59,44.681103,10.025068,64.61,174.0,0,0.0,-1,0.0,0.0,0,2.14,5.4924
329563,1564153074264,5,2.75,1.0,0.34,1.51,1.12,0.7,-1.19,0.44,23,2,27,1.38,12851,67,100,43,65,799,639.0,525,464,60,123.0,321,1,440,420,206,0,0,706,19621,19188,644,-5.59,,,,,,,,,,,,
329583,1564153074284,2,2.74,1.0,0.34,1.51,1.11,0.74,-1.1,0.6,23,3,26,1.33,12895,67,100,43,65,796,642.0,530,459,60,123.0,318,1,440,420,205,0,0,681,-3446,24,647,-5.59,,,,,,,,,,,,
329603,1564153074304,3,2.73,1.0,0.34,1.51,1.11,0.62,-1.03,0.46,24,2,25,1.21,12948,67,100,43,65,792,650.0,600,462,60,124.0,318,1,440,420,205,0,0,690,28675,11576,650,-5.59,,,,,,,,,,,,
329623,1564153074324,4,2.72,1.0,0.34,1.52,1.11,0.59,-1.13,0.61,24,2,24,1.27,12975,67,100,43,65,788,650.0,612,467,60,123.0,318,1,440,420,205,0,0,705,30721,11576,652,-5.59,,,,,,,,,,,,
329643,1564153074344,3,2.72,1.0,0.34,1.51,1.12,0.59,-1.1,0.38,24,3,27,1.25,12975,67,100,43,65,787,654.0,568,475,60,122.0,318,1,440,420,205,0,0,687,26688,11576,654,-5.59,44.681088,10.025062,65.04,174.0,0,0.0,-1,0.0,0.0,0,2.14,5.4941
329663,1564153074364,0,2.73,0.99,0.34,1.5,1.11,0.73,-1.19,0.44,25,2,27,1.4,13057,68,100,43,65,786,656.0,543,473,60,122.0,318,1,440,420,205,0,0,683,26688,24,656,-5.59,,,,,,,,,,,,
329683,1564153074384,4,2.73,0.99,0.35,1.5,1.12,0.72,-1.12,0.42,26,2,31,1.33,13048,68,100,43,65,784,657.0,550,470,60,122.0,316,1,440,420,207,0,0,714,-28304,12333,657,-5.59,,,,,,,,,,,,
329703,1564153074403,2,2.72,1.0,0.34,1.51,1.11,0.82,-1.05,0.5,26,3,29,1.33,12975,68,100,43,65,781,653.0,566,461,60,122.0,316,1,440,420,207,0,0,698,-18357,16599,653,-5.59,,,,,,,,,,,,
329723,1564153074423,2,2.74,0.99,0.34,1.51,1.12,0.77,-1.05,0.58,25,-1,30,1.31,13038,68,100,43,65,779,652.0,581,461,60,121.0,316,1,440,420,207,0,0,696,16529,-2830,652,-5.59,,,,,,,,,,,,
329743,1564153074443,4,2.74,1.0,0.34,1.51,1.11,0.84,-1.15,0.48,24,-3,30,1.43,13002,68,100,43,65,778,649.0,514,466,60,123.0,316,1,440,420,207,0,0,695,269,11069,649,-5.59,44.681072,10.025055,65.14,174.0,0,0.0,-1,0.0,0.0,0,2.14,5.4957
329763,1564153074463,4,2.73,0.99,0.34,1.5,1.11,0.81,-1.11,0.42,25,-4,30,1.37,13002,68,100,43,65,775,651.0,581,469,60,122.0,316,1,440,420,207,0,0,699,30721,6208,651,-5.59,,,,,,,,,,,,
329783,1564153074483,2,2.72,0.99,0.34,1.5,1.12,0.93,-1.2,0.49,25,-6,30,1.52,13093,68,100,43,65,772,655.0,613,476,60,123.0,316,1,440,420,208,0,0,694,269,-20693,655,-5.59,,,,,,,,,,,,
329803,1564153074503,2,2.71,0.99,0.34,1.5,1.12,0.81,-1.02,0.42,26,-5,32,1.3,13102,68,100,43,65,770,658.0,625,469,60,123.0,316,1,440,420,208,0,0,732,20993,15647,658,-5.59,,,,,,,,,,,,
329823,1564153074523,4,2.7,0.99,0.34,1.51,1.11,0.91,-0.95,0.44,26,-3,34,1.32,13111,68,100,43,66,769,663.0,631,458,60,123.0,316,1,440,427,208,0,0,729,269,-2830,663,-5.59,,,,,,,,,,,,
329843,1564153074543,3,2.71,0.99,0.34,1.51,1.12,0.81,-1.05,0.6,26,-2,33,1.33,13297,68,100,43,66,767,662.0,616,462,60,122.0,316,1,440,420,208,0,0,698,-16046,-2830,662,-5.59,44.681057,10.025044,65.94,174.0,0,0.0,-1,0.0,0.0,0,2.14,5.4974
329863,1564153074563,3,2.71,1.0,0.34,1.5,1.12,0.82,-1.0,0.37,26,1,35,1.29,13297,68,100,43,66,766,660.0,561,469,60,123.0,316,1,440,427,208,0,0,701,506,15647,660,-5.59,,,,,,,,,,,,
329883,1564153074583,1,2.71,0.99,0.34,1.5,1.12,0.85,-1.08,0.27,27,2,34,1.37,13326,68,100,43,66,766,663.0,558,476,60,122.0,327,1,440,427,216,0,0,701,-18357,-20693,659,-5.59,,,,,,,,,,,,
329903,1564153074603,2,2.71,0.99,0.34,1.5,1.12,0.76,-1.15,0.44,27,5,33,1.38,13194,68,100,43,66,766,662.0,578,468,60,123.0,327,1,440,427,216,0,0,718,-1346,-2560,662,-5.59,,,,,,,,,,,,
329923,1564153074623,-3,2.71,1.0,0.34,1.51,1.11,0.71,-1.02,0.26,26,2,32,1.24,13232,68,100,43,66,764,663.0,567,459,60,122.0,327,1,440,427,216,0,0,705,-1346,-13072,660,-5.59,,,,,,,,,,,,
329943,1564153074643,3,2.71,1.0,0.34,1.5,1.11,0.76,-1.12,0.43,25,1,29,1.35,13222,68,100,43,66,762,658.0,517,467,60,123.0,327,1,440,427,216,0,0,710,-16883,-12152,657,-5.59,44.681046,10.025035,66.64,174.0,0,0.0,-1,0.0,0.0,0,2.14,5.4991
329963,1564153074663,-0,2.7,1.0,0.34,1.5,1.12,0.74,-0.89,0.28,26,-2,30,1.16,13130,68,100,43,66,760,655.0,490,471,60,122.0,327,1,440,427,216,0,0,699,17336,11069,655,-5.59,,,,,,,,,,,,
329983,1564153074683,1,2.67,0.99,0.35,1.51,1.11,0.87,-1.0,0.44,25,-5,29,1.32,13167,68,99,43,66,758,660.0,438,472,60,123.0,323,1,440,427,213,0,0,711,966,8010,660,-5.59,,,,,,,,,,,,
330003,1564153074705,3,2.65,1.0,0.34,1.51,1.11,0.76,-1.03,0.53,26,-7,26,1.28,13139,68,100,43,66,755,667.0,479,468,60,122.0,323,1,440,427,213,0,0,704,771,-20693,667,-5.59,,,,,,,,,,,,
330023,1564153074725,6,2.63,0.99,0.34,1.51,1.11,0.84,-0.82,0.45,26,-6,28,1.17,13260,68,100,43,66,751,670.0,544,462,60,123.0,323,1,440,427,213,0,0,716,-5120,687,670,-5.59,,,,,,,,,,,,
330043,1564153074745,4,2.61,0.99,0.35,1.51,1.12,0.81,-0.93,0.6,25,-5,28,1.24,13326,63,100,43,65,749,672.0,491,466,60,123.0,323,1,440,420,213,0,0,705,-5120,11069,670,-5.59,44.681026,10.025023,66.79,174.0,0,0.0,-1,0.0,0.0,0,2.15,5.5007
330063,1564153074765,2,2.59,1.0,0.34,1.51,1.12,0.7,-0.88,0.56,26,-4,29,1.12,13279,58,100,43,63,748,675.0,440,472,60,122.0,323,1,440,408,213,0,0,691,-5120,-13312,671,-5.59,,,,,,,,,,,,
330083,1564153074785,1,2.57,0.99,0.34,1.5,1.12,0.83,-0.97,0.62,27,-5,26,1.28,13176,54,100,43,61,747,674.0,445,473,60,122.0,298,1,440,396,201,0,0,709,-2830,-13072,677,-5.59,,,,,,,,,,,,
330103,1564153074805,5,2.55,0.99,0.34,1.51,1.12,0.72,-0.92,0.51,27,-2,27,1.16,12948,49,100,43,59,746,675.0,481,465,60,122.0,298,1,428,382,201,0,0,726,-2830,8010,675,-5.59,,,,,,,,,,,,
330123,1564153074825,1,2.54,1.0,0.34,1.51,1.11,0.83,-0.91,0.5,26,-0,27,1.24,12913,45,99,43,56,745,677.0,528,462,60,122.0,298,1,411,361,201,0,0,698,24,-2830,677,-5.59,,,,,,,,,,,,
330143,1564153074845,1,2.52,0.99,0.34,1.51,1.11,0.84,-0.89,0.37,25,-1,29,1.22,12824,41,100,43,53,746,674.0,555,460,60,123.0,298,1,397,332,201,0,0,677,16599,12333,674,-5.59,44.681015,10.025008,66.96,174.1,0,0.0,-1,0.0,0.0,0,2.15,5.5024
330163,1564153074865,2,2.5,0.99,0.35,1.51,1.11,0.83,-1.0,0.42,24,-1,27,1.29,12609,37,100,43,50,746,673.0,512,473,60,123.0,298,1,388,304,201,0,0,670,6208,19188,672,-5.59,,,,,,,,,,,,
330183,1564153074885,4,2.48,0.99,0.34,1.51,1.11,0.82,-1.04,0.57,24,-1,26,1.32,12327,35,100,43,49,745,675.0,476,474,60,123.0,193,1,385,277,130,0,0,657,4909,6208,672,-5.59,,,,,,,,,,,,
330203,1564153074903,3,2.48,0.99,0.34,1.51,1.12,0.78,-0.97,0.61,23,-1,26,1.25,12159,33,100,43,47,744,674.0,423,471,60,121.0,193,1,380,252,130,0,0,657,244,-3584,674,-5.59,,,,,,,,,,,,
330223,1564153074923,4,2.48,0.99,0.34,1.51,1.12,0.72,-0.9,0.64,22,-2,27,1.15,11980,32,100,43,45,743,671.0,456,470,60,121.0,193,1,367,244,130,0,0,640,11776,3543,671,-5.59,,,,,,,,,,,,
330243,1564153074943,2,2.47,0.99,0.35,1.5,1.12,0.68,-0.98,0.78,22,-1,26,1.2,11762,29,100,43,44,745,666.0,467,474,60,122.0,193,1,359,239,130,0,0,633,-3584,16599,666,-5.59,44.681004,10.024994,66.24,174.0,0,0.0,-1,0.0,0.0,0,2.15,5.5041
330263,1564153074963,5,2.46,0.99,0.34,1.5,1.11,0.63,-1.08,0.7,22,-2,24,1.25,11517,27,100,43,43,759,666.0,453,470,60,122.0,193,1,350,233,130,0,0,641,244,24845,668,-5.59,,,,,,,,,,,,
330283,1564153074983,5,2.46,0.99,0.34,1.51,1.11,0.68,-0.84,0.49,21,-3,25,1.08,11377,25,100,43,42,773,664.0,450,468,60,121.0,151,1,342,230,101,0,0,639,24,-10344,664,-5.59,,,,,,,,,,,,
330303,1564153074995,2,2.45,0.99,0.34,1.5,1.11,0.81,-0.96,0.63,20,-2,22,1.26,11247,24,100,43,41,788,660.0,440,469,60,123.0,151,1,335,228,101,0,0,618,-2836,-27404,661,-5.59,,,,,,,,,,,,
330323,1564153075015,5,2.45,0.99,0.34,1.51,1.11,0.76,-0.69,0.39,19,1,23,1.02,11174,23,100,43,40,806,655.0,456,462,60,123.0,151,1,327,225,101,0,0,551,-4876,-30207,654,-5.59,,,,,,,,,,,,
330343,1564153075035,7,2.43,0.98,0.34,1.51,1.11,0.78,-0.82,0.39,18,1,23,1.13,11147,23,100,43,39,833,648.0,441,467,60,122.0,151,1,320,224,101,0,0,510,966,8958,648,-5.59,44.680988,10.024978,66.19,174.1,0,0.0,-1,0.0,0.0,0,2.15,5.5057
330363,1564153075055,5,2.42,0.99,0.33,1.5,1.11,0.87,-0.72,0.41,17,-1,23,1.13,11035,23,100,43,39,861,647.0,426,467,60,122.0,151,1,320,224,101,0,0,524,20993,-2345,647,-5.59,,,,,,,,,,,,
330383,1564153075075,5,2.43,0.98,0.34,1.49,1.11,0.81,-0.54,0.26,17,-2,24,0.98,10788,22,100,43,38,873,645.0,441,467,60,123.0,138,1,317,218,90,0,0,524,-16883,-26380,645,-5.59,,,,,,,,,,,,
330403,1564153075105,5,2.43,0.98,0.34,1.5,1.11,0.73,-0.39,0.12,17,-1,25,0.83,10659,21,100,43,38,887,643.0,466,468,60,123.0,138,1,317,216,90,0,0,60,506,-3488,642,-5.59,,,,,,,,,,,,
330423,1564153075125,6,2.42,0.97,0.34,1.5,1.11,0.71,-0.26,-0.09,18,0,26,0.76,10405,19,100,43,38,906,640.0,487,467,60,123.0,138,1,317,213,90,0,0,526,30721,31988,638,-5.59,,,,,,,,,,,,
330443,1564153075145,5,2.43,0.98,0.34,1.5,1.1,0.72,-0.05,-0.29,18,-3,28,0.72,10319,19,100,43,37,925,634.0,510,462,60,123.0,138,1,314,212,90,0,0,541,26688,-5120,635,-5.59,44.680981,10.024961,65.51,174.1,0,0.0,-1,0.0,0.0,0,2.15,5.5074
330463,1564153075165,9,2.42,0.98,0.34,1.49,1.11,0.73,0.07,-0.29,18,-1,27,0.74,10285,19,100,43,36,933,628.0,527,461,60,123.0,138,1,311,211,90,0,0,525,-30139,17740,629,-5.59,,,,,,,,,,,,
330483,1564153075185,8,2.42,0.97,0.34,1.48,1.11,0.86,0.04,-0.17,17,-2,26,0.86,10376,19,100,43,36,939,622.0,535,468,60,123.0,132,1,311,212,83,0,0,519,-7939,5344,622,-5.59,,,,,,,,,,,,
330503,1564153075203,11,2.4,0.97,0.33,1.49,1.11,0.9,-0.07,0.02,15,-2,24,0.9,10341,19,100,43,36,953,619.0,552,470,60,123.0,132,1,311,211,83,0,0,476,243,243,619,-5.59,,,,,,,,,,,,
330523,1564153075223,9,2.4,0.96,0.33,1.48,1.11,1.0,-0.27,0.13,15,1,22,1.04,10273,19,100,43,35,966,613.0,561,464,60,123.0,132,1,308,211,83,0,0,448,17344,16529,616,-5.59,,,,,,,,,,,,
330543,1564153075243,8,2.4,0.97,0.34,1.48,1.1,0.95,-0.24,0.15,15,-3,22,0.98,10026,19,100,43,35,973,613.0,566,468,60,123.0,132,1,308,208,83,0,0,443,3472,-16883,612,-5.59,44.680969,10.024943,63.62,174.1,0,0.0,-1,0.0,0.0,0,2.15,5.509
330563,1564153075263,10,2.39,0.98,0.34,1.49,1.11,0.99,-0.21,0.16,15,-1,21,1.01,9878,19,100,43,34,979,608.0,576,457,60,122.0,132,1,305,204,83,0,0,466,208,506,608,-5.59,,,,,,,,,,,,
330583,1564153075283,10,2.39,0.97,0.34,1.49,1.11,1.09,-0.33,0.26,14,-1,19,1.14,9816,19,100,43,34,987,607.0,578,464,60,122.0,123,1,305,203,75,0,0,505,-1894,-7939,607,-5.59,,,,,,,,,,,,
330603,1564153075305,12,2.39,0.97,0.34,1.49,1.1,1.1,-0.17,0.16,14,-5,20,1.12,9868,19,100,43,34,996,596.0,582,469,60,123.0,123,1,305,202,75,0,0,495,-16384,-25872,596,-5.59,,,,,,,,,,,,
330623,1564153075325,12,2.37,0.97,0.34,1.49,1.11,1.2,-0.29,0.24,13,-1,17,1.23,9915,19,100,43,33,1000,590.0,589,470,60,123.0,123,1,302,203,75,0,0,460,259,10432,590,-5.59,,,,,,,,,,,,
330643,1564153075345,11,2.35,0.94,0.33,1.47,1.1,1.17,-0.27,0.23,11,-3,18,1.2,9889,18,100,43,33,1002,583.0,585,470,60,123.0,123,1,302,202,75,0,0,448,-8188,-13043,583,-5.59,44.680962,10.024926,61.64,174.1,0,0.0,-1,0.0,0.0,0,2.16,5.5107
330663,1564153075365,12,2.35,0.94,0.33,1.47,1.09,1.19,-0.39,0.21,10,1,17,1.25,9775,19,100,43,33,1001,575.0,591,463,60,123.0,123,1,302,201,75,0,0,444,1780,-32504,575,-5.59,,,,,,,,,,,,
330683,1564153075385,12,2.34,0.91,0.32,1.45,1.09,1.17,-0.23,0.13,10,-0,16,1.19,9615,19,100,43,33,1000,574.0,596,470,60,124.0,125,1,302,200,72,0,0,471,-18032,243,571,-5.59,,,,,,,,,,,,
330703,1564153075404,10,2.33,0.89,0.32,1.43,1.08,1.17,-0.35,0.14,9,0,14,1.22,9585,19,100,43,33,995,566.0,585,470,60,123.0,125,1,302,198,72,0,0,499,6273,2216,566,-5.59,,,,,,,,,,,,
330723,1564153075424,13,2.34,0.85,0.31,1.42,1.07,1.19,-0.19,0.1,8,-3,14,1.2,9595,19,100,43,33,990,560.0,576,472,60,123.0,125,1,302,198,72,0,0,501,-22359,2524,560,-5.59,,,,,,,,,,,,
330743,1564153075444,11,2.34,0.81,0.3,1.39,1.05,1.19,-0.26,0.21,7,-0,12,1.22,9699,19,100,43,32,973,555.0,578,467,60,123.0,125,1,300,198,72,0,0,505,6274,26178,555,-5.59,44.68095,10.024909,59.18,174.2,0,0.0,-1,0.0,0.0,0,2.16,5.5124
330763,1564153075464,12,2.34,0.78,0.28,1.35,1.02,1.27,-0.23,0.21,6,-2,11,1.3,9715,19,100,43,32,952,551.0,585,465,60,123.0,125,1,300,199,72,0,0,512,14504,998,547,-5.59,,,,,,,,,,,,
330783,1564153075484,11,2.35,0.72,0.26,1.32,1.0,1.11,-0.2,0.25,6,-0,10,1.13,9610,19,100,43,32,932,545.0,587,466,60,123.0,130,1,300,197,71,0,0,528,1780,-9212,545,-5.59,,,,,,,,,,,,
330803,1564153075500,10,2.36,0.66,0.25,1.28,0.97,1.18,-0.26,0.16,6,-2,10,1.21,9576,19,100,43,32,915,538.0,596,465,60,123.0,130,1,300,196,71,0,0,510,-32248,10408,538,-5.59,,,,,,,,,,,,
330823,1564153075520,12,2.36,0.63,0.23,1.23,0.95,1.09,-0.08,0.15,5,-2,8,1.09,9615,19,100,43,32,897,534.0,601,458,60,123.0,130,1,300,197,71,0,0,507,14504,10408,534,-5.59,,,,,,,,,,,,
330843,1564153075540,13,2.38,0.62,0.23,1.23,0.95,1.18,-0.22,0.26,5,-1,6,1.2,9709,19,100,43,31,879,529.0,595,462,60,123.0,130,1,295,197,71,0,0,519,6274,-21872,529,-5.59,44.680943,10.024892,56.74,174.2,0,0.0,-1,0.0,0.0,0,2.16,5.514
330863,1564153075560,11,2.39,0.64,0.24,1.26,0.96,1.16,-0.01,0.12,5,-3,8,1.16,9740,19,100,43,31,870,524.0,593,461,60,123.0,130,1,295,197,71,0,0,517,-8187,2524,524,-5.59,,,,,,,,,,,,
330883,1564153075580,11,2.38,0.68,0.24,1.29,0.97,1.25,-0.21,0.28,5,-0,5,1.26,9725,19,100,43,30,869,519.0,600,462,60,123.0,136,1,291,195,71,0,0,518,17136,-9212,519,-5.59,,,,,,,,,,,,
330903,1564153075604,12,2.39,0.7,0.25,1.31,0.99,1.2,-0.05,0.13,6,-2,7,1.2,9735,19,100,43,30,867,516.0,598,462,60,124.0,136,1,291,195,71,0,0,514,-21872,1341,516,-5.59,,,,,,,,,,,,
330923,1564153075624,11,2.39,0.72,0.26,1.34,1.0,1.19,-0.23,0.23,6,0,6,1.21,9765,19,100,43,30,862,512.0,591,468,60,124.0,136,1,291,195,71,0,0,503,-22519,1341,512,-5.59,,,,,,,,,,,,
330943,1564153075644,11,2.38,0.74,0.27,1.34,1.01,1.21,-0.13,0.13,6,-1,7,1.22,9709,18,100,43,29,857,511.0,590,463,60,123.0,136,1,287,193,71,0,0,507,10408,15679,511,-5.59,44.680935,10.024876,53.96,174.2,0,0.0,-1,0.0,0.0,0,2.16,5.5157
330963,1564153075664,9,2.39,0.76,0.27,1.36,1.02,1.12,-0.17,0.17,7,-1,8,1.13,9585,19,100,43,29,853,506.0,600,466,60,123.0,136,1,287,191,71,0,0,506,3,-14,506,-5.59,,,,,,,,,,,,
330983,1564153075684,11,2.38,0.76,0.27,1.37,1.02,1.21,-0.24,0.16,6,-2,7,1.23,9551,19,100,43,29,847,504.0,601,472,60,124.0,136,1,287,116,69,0,0,500,-6528,26178,504,-5.59,,,,,,,,,,,,
331003,1564153075704,10,2.38,0.77,0.28,1.37,1.02,1.19,-0.11,0.24,7,-1,7,1.19,9522,19,100,43,29,838,499.0,610,468,60,124.0,136,1,287,190,69,0,0,498,505,-4054,499,-5.59,,,,,,,,,,,,
331023,1564153075724,9,2.38,0.76,0.28,1.37,1.02,1.11,-0.17,0.15,7,-1,8,1.12,9479,19,100,43,29,830,496.0,597,462,60,123.0,136,1,287,190,69,0,0,495,3580,-28648,495,-5.59,,,,,,,,,,,,
331043,1564153075744,9,2.38,0.77,0.29,1.37,1.02,1.11,-0.3,0.13,7,-0,8,1.15,9431,19,100,43,29,825,493.0,600,466,60,122.0,136,1,287,189,69,0,0,488,8488,-32248,493,-5.59,44.680927,10.024861,51.71,174.2,0,0.0,-1,0.0,0.0,0,2.16,5.5174
331063,1564153075764,11,2.37,0.77,0.28,1.37,1.02,1.2,-0.24,0.25,7,-1,7,1.23,9365,19,100,43,29,821,490.0,600,465,60,123.0,136,1,287,189,69,0,0,483,10305,-6528,490,-5.59,,,,,,,,,,,,
331083,1564153075784,11,2.37,0.78,0.28,1.37,1.03,1.25,-0.07,0.31,7,-1,8,1.25,9259,19,100,43,29,817,485.0,594,470,60,123.0,133,1,287,188,65,0,0,483,-1923,2524,485,-5.59,,,,,,,,,,,,
331103,1564153075804,13,2.36,0.78,0.29,1.38,1.03,1.18,0.04,0.22,7,-3,9,1.19,9213,19,100,43,29,814,481.0,586,461,60,123.0,133,1,287,187,65,0,0,476,3576,248,480,-5.59,,,,,,,,,,,,
331123,1564153075824,10,2.36,0.78,0.29,1.38,1.03,1.07,0.01,0.13,7,-3,9,1.07,9173,19,100,43,29,815,478.0,576,466,60,124.0,133,1,287,186,65,0,0,477,30272,-1562,478,-5.59,,,,,,,,,,,,
331143,1564153075844,10,2.35,0.78,0.29,1.39,1.03,0.87,-0.09,0.1,7,-1,10,0.88,9137,19,100,43,29,816,474.0,588,464,60,123.0,133,1,287,186,65,0,0,475,243,3580,474,-5.59,44.68092,10.024846,49.93,174.3,0,0.0,-1,0.0,0.0,0,2.16,5.5191
331163,1564153075864,11,2.35,0.77,0.29,1.37,1.03,0.84,-0.22,0.15,7,-0,8,0.86,9106,19,100,43,29,819,472.0,577,471,60,124.0,133,1,287,186,65,0,0,469,2211,16648,470,-5.59,,,,,,,,,,,,
331183,1564153075884,12,2.35,0.75,0.28,1.34,1.01,0.81,-0.33,0.18,7,1,8,0.87,9075,19,100,44,30,821,467.0,578,466,60,124.0,134,1,291,184,63,0,0,468,14488,-9203,467,-5.59,,,,,,,,,,,,
331203,1564153075904,11,2.35,0.74,0.28,1.33,1.01,0.92,-0.42,0.21,6,2,7,1.01,9036,19,100,44,30,822,462.0,589,463,60,123.0,134,1,291,184,63,0,0,460,-9160,-1923,462,-5.59,,,,,,,,,,,,
331223,1564153075924,13,2.35,0.74,0.28,1.34,1.01,0.93,-0.47,0.21,6,3,7,1.04,8992,19,100,43,30,825,459.0,586,469,60,124.0,134,1,291,185,63,0,0,458,-8985,32033,459,-5.59,,,,,,,,,,,,
331243,1564153075944,12,2.36,0.74,0.29,1.33,1.02,0.99,-0.56,0.22,6,4,6,1.14,8937,19,100,44,30,831,455.0,592,468,60,124.0,134,1,291,184,63,0,0,461,10305,6193,455,-5.59,44.680916,10.024832,48.21,174.3,0,0.0,-1,0.0,0.0,0,2.17,5.5207
331263,1564153075964,12,2.35,0.75,0.29,1.33,1.02,0.92,-0.57,0.22,6,5,7,1.08,8827,19,100,44,30,838,452.0,577,462,60,123.0,134,1,291,184,63,0,0,466,2131,243,452,-5.59,,,,,,,,,,,,
331283,1564153075984,13,2.36,0.75,0.29,1.34,1.03,0.87,-0.54,0.12,6,5,7,1.02,8640,19,100,44,31,842,448.0,568,464,60,124.0,133,1,295,184,60,0,0,460,-18341,12552,448,-5.59,,,,,,,,,,,,
331303,1564153075996,14,2.34,0.77,0.29,1.37,1.03,0.95,-0.43,0.2,5,3,7,1.04,8480,19,100,44,31,847,449.0,557,467,60,124.0,133,1,294,182,60,0,0,458,19477,12552,449,-5.59,,,,,,,,,,,,
331323,1564153076016,11,2.35,0.77,0.3,1.37,1.03,0.87,-0.35,0.18,6,4,7,0.94,8415,19,100,44,31,868,444.0,548,471,60,124.0,133,1,294,179,60,0,0,456,21580,-16384,442,-5.59,,,,,,,,,,,,
331343,1564153076036,14,2.33,0.78,0.3,1.37,1.03,0.95,-0.29,0.13,5,3,7,0.99,8333,19,100,44,32,889,442.0,538,466,60,123.0,133,1,296,181,60,0,0,450,5600,14488,442,-5.59,44.680908,10.024817,46.31,174.3,0,0.0,-1,0.0,0.0,0,2.17,5.5224
331363,1564153076056,12,2.33,0.76,0.29,1.35,1.03,0.94,-0.21,0.15,5,2,7,0.96,8241,19,100,44,33,906,438.0,541,464,60,124.0,133,1,296,177,60,0,0,443,-7939,2131,435,-5.59,,,,,,,,,,,,
331383,1564153076076,15,2.33,0.74,0.28,1.34,1.01,1.03,-0.2,0.08,4,0,7,1.05,8184,19,100,44,34,923,433.0,538,466,60,123.0,129,1,298,181,56,0,0,441,3635,16648,433,-5.59,,,,,,,,,,,,
331403,1564153076104,17,2.32,0.72,0.28,1.31,1.01,0.93,-0.17,0.05,4,1,6,0.95,8173,19,100,44,34,949,426.0,538,462,60,124.0,129,1,298,180,56,0,0,438,13552,20625,426,-5.59,,,,,,,,,,,,
331423,1564153076124,15,2.32,0.71,0.27,1.3,1.0,1.04,-0.23,0.12,3,-1,5,1.07,8138,19,100,44,35,974,421.0,539,466,60,123.0,129,1,300,184,56,0,0,430,-21792,3635,421,-5.59,,,,,,,,,,,,
331443,1564153076144,16,2.33,0.7,0.28,1.29,1.01,0.9,-0.21,0.06,3,-1,5,0.93,8057,19,100,44,35,988,421.0,538,463,60,124.0,129,1,299,183,56,0,0,428,-21944,-3322,418,-5.59,44.680904,10.024803,45.13,174.3,0,0.0,-1,0.0,0.0,0,2.17,5.524
331463,1564153076164,13,2.34,0.71,0.28,1.3,1.0,0.95,-0.18,0.08,3,1,5,0.97,8026,18,100,44,36,998,416.0,545,463,60,124.0,129,1,301,188,56,0,0,427,2524,13180,414,-5.59,,,,,,,,,,,,
331483,1564153076184,13,2.35,0.71,0.27,1.3,1.01,1.05,-0.2,0.16,2,1,5,1.07,7968,19,100,44,36,989,413.0,531,464,60,124.0,135,1,301,187,56,0,0,425,13040,3826,411,-5.59,,,,,,,,,,,,
331503,1564153076204,16,2.35,0.72,0.27,1.31,1.0,1.01,-0.09,0.07,2,-1,5,1.01,7864,18,100,44,36,978,408.0,524,461,60,123.0,135,1,301,187,56,0,0,422,10392,13552,408,-5.59,,,,,,,,,,,,
331523,1564153076224,14,2.37,0.73,0.28,1.32,1.01,0.91,-0.02,-0.03,3,-0,5,0.91,7815,19,100,44,37,960,406.0,519,455,60,125.0,135,1,304,193,56,0,0,418,-8151,-3414,406,-5.59,,,,,,,,,,,,
331543,1564153076244,16,2.37,0.75,0.28,1.34,1.01,0.88,0.01,-0.05,4,1,5,0.88,7722,19,100,44,38,939,401.0,521,463,60,124.0,135,1,307,198,56,0,0,415,6512,-3414,401,-5.59,44.680897,10.02479,43.1,174.3,0,0.0,-1,0.0,0.0,0,2.17,5.5257
331563,1564153076264,16,2.38,0.76,0.29,1.35,1.02,0.89,0.01,-0.03,4,2,5,0.89,7646,19,100,44,38,914,401.0,512,463,60,123.0,135,1,307,198,56,0,0,410,-1818,11560,401,-5.59,,,,,,,,,,,,
331583,1564153076284,14,2.37,0.78,0.29,1.37,1.03,0.98,-0.02,0.07,5,3,4,0.98,7606,19,100,44,39,887,397.0,509,463,60,123.0,143,1,310,198,57,0,0,402,-1562,2524,397,-5.59,,,,,,,,,,,,
331603,1564153076304,13,2.37,0.79,0.3,1.38,1.04,1.08,-0.08,0.19,5,4,4,1.08,7554,18,100,44,39,873,394.0,513,461,60,123.0,143,1,310,204,57,0,0,398,240,-26615,394,-5.59,,,,,,,,,,,,
331623,1564153076324,12,2.37,0.81,0.31,1.38,1.05,1.17,-0.14,0.26,5,2,5,1.18,7597,19,100,44,39,866,393.0,503,464,60,123.0,143,1,310,205,57,0,0,389,-6475,11545,390,-5.59,,,,,,,,,,,,
331643,1564153076344,14,2.36,0.82,0.31,1.4,1.05,1.26,-0.12,0.31,4,2,5,1.26,7575,19,100,44,40,859,389.0,505,469,60,123.0,143,1,317,205,57,0,0,384,19125,11545,386,-5.59,44.680893,10.024776,41.22,174.4,0,0.0,-1,0.0,0.0,0,2.17,5.5274
331663,1564153076364,14,2.37,0.81,0.3,1.39,1.05,1.33,-0.15,0.33,4,1,4,1.34,7631,19,100,44,39,850,382.0,511,460,60,123.0,143,1,310,205,57,0,0,381,-6656,17144,381,-5.59,,,,,,,,,,,,
331683,1564153076384,13,2.37,0.82,0.3,1.39,1.05,1.35,-0.15,0.37,4,0,4,1.36,7634,19,100,44,40,846,378.0,516,467,60,122.0,156,1,317,205,59,0,0,380,742,505,378,-5.59,,,,,,,,,,,,
331703,1564153076403,14,2.36,0.82,0.31,1.39,1.05,1.32,-0.11,0.29,4,0,3,1.33,7687,19,100,44,40,844,373.0,516,461,60,124.0,156,1,317,205,59,0,0,369,486,19125,373,-5.59,,,,,,,,,,,,
331723,1564153076423,14,2.36,0.82,0.31,1.4,1.05,1.17,-0.11,0.17,4,-1,3,1.18,7703,19,100,44,40,845,371.0,514,461,60,124.0,156,1,317,205,59,0,0,368,-1268,2278,371,-5.59,,,,,,,,,,,,
331743,1564153076443,16,2.36,0.82,0.3,1.4,1.04,1.07,-0.05,0.06,4,0,4,1.07,7757,19,100,44,40,848,365.0,524,463,60,124.0,156,1,317,205,59,0,0,367,-14707,-6656,365,-5.59,44.680885,10.024764,39.8,174.4,0,0.0,-1,0.0,0.0,0,2.17,5.529
331763,1564153076463,13,2.36,0.82,0.31,1.38,1.05,1.11,-0.04,0.08,4,0,5,1.11,7760,19,100,44,40,851,360.0,517,463,60,123.0,156,1,317,205,59,0,0,364,-29302,0,360,-5.59,,,,,,,,,,,,
331783,1564153076483,12,2.36,0.81,0.31,1.39,1.05,1.2,-0.06,0.17,3,-0,4,1.2,7819,19,100,44,40,855,360.0,514,460,60,123.0,166,1,317,205,60,0,0,362,4104,-6405,357,-5.59,,,,,,,,,,,,
331803,1564153076503,13,2.36,0.82,0.31,1.4,1.05,1.2,-0.05,0.19,3,-0,3,1.2,7888,19,100,44,40,863,353.0,522,463,60,124.0,166,1,317,205,60,0,0,356,-6644,-1268,353,-5.59,,,,,,,,,,,,
331823,1564153076523,16,2.35,0.82,0.31,1.39,1.05,1.13,0.01,0.13,4,1,4,1.13,7894,19,100,44,40,874,351.0,526,465,60,124.0,166,1,317,205,60,0,0,352,-1246,-29978,351,-5.59,,,,,,,,,,,,
331843,1564153076543,12,2.36,0.82,0.31,1.38,1.05,1.22,-0.03,0.14,4,1,4,1.22,7968,19,100,44,40,883,349.0,522,464,60,122.0,166,1,317,205,60,0,0,349,-14714,-29302,345,-5.59,44.680885,10.024752,37.57,174.4,0,0.0,-1,0.0,0.0,0,2.17,5.5307
331863,1564153076563,12,2.37,0.81,0.31,1.4,1.04,1.24,-0.02,0.14,4,1,3,1.24,8009,19,100,44,39,890,343.0,526,463,60,123.0,166,1,310,206,60,0,0,346,-31222,28553,343,-5.59,,,,,,,,,,,,
331883,1564153076583,14,2.36,0.81,0.31,1.39,1.05,1.18,0.04,0.07,4,1,3,1.18,8002,19,100,44,39,897,339.0,525,462,60,124.0,181,1,310,205,62,0,0,340,4838,8841,339,-5.59,,,,,,,,,,,,
331903,1564153076603,12,2.37,0.82,0.31,1.4,1.05,1.26,-0.01,0.07,4,1,3,1.26,8081,19,100,44,39,904,336.0,530,462,60,124.0,181,1,311,205,62,0,0,335,-12032,6668,334,-5.59,,,,,,,,,,,,
331923,1564153076623,12,2.37,0.81,0.31,1.4,1.04,1.21,0.0,0.09,4,-0,3,1.21,8109,19,100,44,38,910,328.0,533,463,60,124.0,181,1,309,205,62,0,0,332,-22016,-31222,328,-5.59,,,,,,,,,,,,
331943,1564153076643,10,2.36,0.81,0.3,1.4,1.05,1.27,0.02,0.13,4,0,4,1.27,8113,19,100,44,38,910,328.0,537,460,60,125.0,181,1,309,199,62,0,0,330,160,-31222,327,-5.59,44.680878,10.024741,35.45,174.4,0,0.0,-1,0.0,0.0,0,2.17,5.5324
331963,1564153076663,9,2.37,0.82,0.31,1.39,1.04,1.28,0.04,0.13,3,-1,3,1.28,8120,19,100,44,38,910,326.0,545,465,60,123.0,181,1,309,199,62,0,0,324,160,-6528,326,-5.59,,,,,,,,,,,,
331983,1564153076683,9,2.37,0.8,0.3,1.38,1.04,1.18,0.05,0.13,4,1,3,1.18,8191,19,100,44,38,907,324.0,539,464,60,125.0,188,1,310,200,61,0,0,325,-25856,-32559,325,-5.59,,,,,,,,,,,,
332003,1564153076703,5,2.37,0.79,0.3,1.38,1.04,1.22,0.01,0.17,3,-1,3,1.22,8230,19,100,44,37,904,322.0,548,462,60,123.0,188,1,308,195,61,0,0,324,-27136,170,322,-5.59,,,,,,,,,,,,
332023,1564153076723,4,2.37,0.79,0.3,1.39,1.03,1.08,-0.01,0.16,3,-0,4,1.08,8198,19,100,44,37,900,322.0,543,466,60,124.0,188,1,307,195,61,0,0,324,140,-22016,320,-5.59,,,,,,,,,,,,
332043,1564153076743,1,2.37,0.8,0.3,1.38,1.04,1.12,-0.04,0.24,3,-1,4,1.12,8212,19,100,44,37,897,320.0,551,463,60,124.0,188,1,308,196,61,0,0,324,-28416,-22016,320,-5.59,44.680874,10.024731,33.59,174.4,0,0.0,-1,0.0,0.0,0,2.17,5.534
332063,1564153076763,3,2.36,0.81,0.3,1.38,1.04,0.98,0.04,0.24,4,1,4,0.98,8267,19,100,44,37,895,320.0,540,464,60,125.0,188,1,309,196,61,0,0,320,-29696,-22016,319,-5.59,,,,,,,,,,,,
332083,1564153076783,1,2.36,0.8,0.3,1.38,1.03,1.07,0.04,0.26,4,0,4,1.07,8278,19,100,44,37,892,319.0,536,467,60,124.0,187,1,309,196,60,0,0,321,-29696,160,319,-5.59,,,,,,,,,,,,
332103,1564153076803,3,2.36,0.8,0.29,1.38,1.02,0.94,0.06,0.3,4,1,3,0.94,8256,19,100,44,36,893,320.0,546,464,60,125.0,187,1,306,192,60,0,0,323,135,170,318,-5.59,,,,,,,,,,,,
332123,1564153076823,1,2.37,0.8,0.29,1.39,1.02,1.05,0.03,0.38,4,-1,3,1.05,8245,19,100,44,36,895,319.0,539,465,60,123.0,187,1,305,192,60,0,0,323,135,165,319,-5.59,,,,,,,,,,,,
332143,1564153076843,3,2.37,0.8,0.29,1.38,1.03,0.97,0.04,0.44,4,1,2,0.97,8303,19,100,44,36,900,318.0,545,465,60,124.0,187,1,307,119,60,0,0,322,-29696,-20736,318,-5.59,44.68087,10.02472,32.2,174.4,0,0.0,-1,0.0,0.0,0,2.18,5.5357
332163,1564153076863,1,2.37,0.8,0.3,1.39,1.03,1.01,-0.02,0.42,4,-1,2,1.01,8325,19,100,44,36,905,317.0,547,465,60,122.0,187,1,307,194,60,0,0,319,135,-23296,317,-5.59,,,,,,,,,,,,
332183,1564153076883,0,2.36,0.81,0.3,1.4,1.03,0.96,-0.03,0.47,4,-0,3,0.96,8292,19,101,44,36,910,317.0,550,467,60,125.0,192,1,306,194,61,0,0,322,-30976,160,317,-5.59,,,,,,,,,,,,
332203,1564153076903,0,2.37,0.81,0.3,1.4,1.04,0.88,-0.07,0.48,4,-1,3,0.89,8303,19,101,44,36,914,318.0,563,462,60,124.0,192,1,307,194,61,0,0,320,-30976,155,316,-5.59,,,,,,,,,,,,
332223,1564153076923,0,2.36,0.81,0.3,1.39,1.03,0.96,-0.03,0.53,4,0,2,0.96,8333,19,101,44,35,921,316.0,557,465,60,125.0,192,1,304,190,61,0,0,322,135,150,316,-5.59,,,,,,,,,,,,
332243,1564153076943,2,2.35,0.8,0.29,1.38,1.02,0.84,-0.05,0.5,4,1,2,0.84,8344,19,101,44,35,929,316.0,551,467,60,124.0,192,1,304,195,61,0,0,321,-32256,-23296,316,-5.59,44.680866,10.024711,31.66,174.4,0,0.0,-1,0.0,0.0,0,2.18,5.5374
332263,1564153076963,-1,2.36,0.79,0.28,1.37,1.01,0.95,-0.02,0.58,3,1,3,0.95,8307,19,101,44,35,932,316.0,560,464,60,125.0,192,1,304,190,61,0,0,320,125,-27136,316,-5.59,,,,,,,,,,,,
332283,1564153076983,3,2.35,0.79,0.28,1.38,1.01,0.82,-0.03,0.47,3,0,3,0.82,8296,19,101,44,35,935,314.0,543,465,60,123.0,194,1,303,189,61,0,0,321,-32256,-24576,314,-5.59,,,,,,,,,,,,
332303,1564153076995,1,2.37,0.78,0.28,1.38,1.01,0.94,-0.01,0.52,4,-1,2,0.94,8285,19,101,44,36,937,314.0,552,467,60,124.0,194,1,306,190,61,0,0,317,125,-24576,314,-5.59,,,,,,,,,,,,
332323,1564153077015,2,2.38,0.78,0.28,1.37,1.01,0.8,0.04,0.45,4,1,3,0.8,8337,19,101,44,35,938,314.0,543,464,60,124.0,194,1,304,191,61,0,0,318,125,-24576,314,-5.59,,,,,,,,,,,,
332343,1564153077035,1,2.39,0.77,0.28,1.36,1.01,0.89,0.04,0.46,4,1,3,0.89,8296,19,101,44,35,937,314.0,538,465,60,124.0,194,1,304,189,61,0,0,319,32000,155,315,-5.59,44.680866,10.0247,31.3,174.5,0,0.0,-1,0.0,0.0,0,2.18,5.5391
332363,1564153077055,3,2.39,0.78,0.28,1.37,1.01,0.82,0.03,0.48,5,1,3,0.82,8314,19,101,44,35,936,315.0,541,463,60,125.0,194,1,304,190,61,0,0,316,120,-25856,315,-5.59,,,,,,,,,,,,
332383,1564153077075,2,2.4,0.8,0.28,1.39,1.02,0.91,-0.0,0.45,5,0,4,0.91,8318,19,101,44,35,932,315.0,545,465,60,123.0,190,1,304,194,60,0,0,316,30720,-25856,315,-5.59,,,,,,,,,,,,
332403,1564153077103,-1,2.4,0.82,0.29,1.4,1.03,0.92,-0.0,0.52,5,2,4,0.92,8351,19,101,44,35,928,315.0,554,463,60,125.0,190,1,305,191,60,0,0,317,120,-24576,315,-5.59,,,,,,,,,,,,
332423,1564153077123,2,2.41,0.82,0.3,1.4,1.04,0.84,-0.06,0.46,5,0,5,0.84,8351,19,101,44,35,924,316.0,560,465,60,124.0,190,1,305,195,60,0,0,315,115,-24576,314,-5.59,,,,,,,,,,,,
332443,1564153077143,-0,2.41,0.83,0.3,1.41,1.04,0.9,-0.03,0.57,5,1,5,0.9,8307,19,101,44,35,922,315.0,555,465,60,125.0,190,1,304,190,60,0,0,314,29440,150,315,-5.59,44.680862,10.024691,31.49,174.5,0,0.0,-1,0.0,0.0,0,2.18,5.5407
332463,1564153077163,1,2.4,0.83,0.3,1.4,1.03,0.74,-0.07,0.51,6,0,5,0.74,8318,19,101,44,35,920,313.0,556,464,60,125.0,190,1,304,190,60,0,0,312,110,-28416,313,-5.59,,,,,,,,,,,,
332483,1564153077183,1,2.4,0.83,0.3,1.41,1.03,0.87,-0.07,0.54,6,-0,5,0.87,8348,19,101,44,35,919,313.0,552,462,60,124.0,188,1,304,191,59,0,0,313,110,140,312,-5.59,,,,,,,,,,,,
332503,1564153077205,3,2.39,0.82,0.29,1.39,1.03,0.77,-0.06,0.49,6,-0,5,0.77,8311,19,101,44,35,919,314.0,550,465,60,125.0,188,1,304,190,59,0,0,310,28160,-25856,314,-5.59,,,,,,,,,,,,
332523,1564153077225,-1,2.4,0.82,0.3,1.41,1.03,0.89,-0.09,0.56,5,-2,6,0.9,8274,19,101,44,35,921,313.0,543,466,60,123.0,188,1,304,189,59,0,0,309,105,-27136,311,-5.59,,,,,,,,,,,,
332543,1564153077245,3,2.4,0.84,0.31,1.4,1.04,0.79,-0.12,0.5,6,-3,6,0.8,8285,19,101,44,35,925,312.0,540,467,60,125.0,188,1,303,189,59,0,0,311,110,-27136,312,-5.59,44.680859,10.024681,31.08,174.5,0,0.0,-1,0.0,0.0,0,2.18,5.5424
332563,1564153077265,0,2.39,0.83,0.31,1.4,1.04,0.87,-0.13,0.56,6,-4,6,0.88,8340,19,101,44,35,929,314.0,541,465,60,124.0,188,1,304,191,59,0,0,311,29440,140,314,-5.59,,,,,,,,,,,,
332583,1564153077285,-1,2.39,0.83,0.31,1.4,1.04,0.82,-0.06,0.59,6,-1,7,0.82,8340,19,101,44,35,933,311.0,542,466,60,124.0,188,1,304,191,59,0,0,312,110,-27136,311,-5.59,,,,,,,,,,,,
332603,1564153077305,2,2.39,0.83,0.31,1.4,1.05,0.84,-0.05,0.58,6,-2,6,0.84,8322,19,101,44,35,936,310.0,542,467,60,123.0,188,1,304,190,59,0,0,311,26880,135,310,-5.59,,,,,,,,,,,,
332623,1564153077325,-0,2.4,0.84,0.31,1.41,1.05,0.87,-0.03,0.61,6,-2,7,0.87,8292,19,101,44,35,940,309.0,545,464,60,124.0,188,1,303,189,59,0,0,308,28160,135,309,-5.59,,,,,,,,,,,,
332643,1564153077345,3,2.4,0.83,0.31,1.41,1.04,0.84,-0.04,0.55,5,-3,6,0.85,8307,19,101,44,35,943,308.0,551,468,60,124.0,188,1,304,190,59,0,0,309,28160,-30976,308,-5.59,44.680855,10.024671,31.19,174.5,0,0.0,-1,0.0,0.0,0,2.18,5.5441
332663,1564153077365,-2,2.4,0.82,0.31,1.41,1.04,0.91,-0.04,0.57,5,-2,6,0.91,8344,19,101,44,35,946,309.0,555,465,60,125.0,188,1,304,191,59,0,0,309,28160,-25856,309,-5.59,,,,,,,,,,,,
332683,1564153077385,2,2.41,0.82,0.3,1.4,1.04,0.76,-0.05,0.5,5,-2,7,0.76,8355,19,101,44,35,947,311.0,567,466,60,124.0,194,1,305,191,60,0,0,309,26880,-30976,311,-5.59,,,,,,,,,,,,
332703,1564153077404,-1,2.42,0.82,0.31,1.4,1.05,0.84,-0.02,0.59,6,-0,7,0.84,8322,19,101,44,35,946,309.0,555,466,60,124.0,194,1,304,190,60,0,0,310,105,145,309,-5.59,,,,,,,,,,,,
332723,1564153077424,3,2.43,0.83,0.31,1.41,1.04,0.68,-0.04,0.53,6,1,7,0.68,8318,19,101,44,35,944,310.0,561,466,60,125.0,194,1,304,190,60,0,0,307,105,140,310,-5.59,,,,,,,,,,,,
332743,1564153077444,-0,2.44,0.83,0.31,1.41,1.03,0.82,-0.09,0.57,6,1,7,0.82,8329,19,101,44,35,942,310.0,553,465,60,125.0,194,1,304,190,60,0,0,307,26880,-30976,310,-5.59,44.680851,10.024661,30.78,174.6,0,0.0,-1,0.0,0.0,0,2.18,5.5457
332763,1564153077464,4,2.47,0.83,0.31,1.41,1.05,0.76,-0.09,0.63,7,2,7,0.76,8374,19,101,44,35,939,310.0,555,467,60,125.0,194,1,305,191,60,0,0,305,100,140,310,-5.59,,,,,,,,,,,,
332783,1564153077484,1,2.47,0.84,0.31,1.42,1.05,0.76,-0.19,0.55,7,2,9,0.79,8374,19,101,44,36,936,310.0,553,466,60,123.0,193,1,308,190,60,0,0,307,95,-28416,310,-5.59,,,,,,,,,,,,
332803,1564153077504,0,2.48,0.85,0.31,1.43,1.05,0.75,-0.14,0.69,9,2,8,0.77,8314,19,101,44,35,933,312.0,543,466,60,124.0,193,1,304,190,60,0,0,306,23040,-29696,312,-5.59,,,,,,,,,,,,
332823,1564153077524,2,2.49,0.86,0.32,1.42,1.05,0.72,-0.23,0.56,9,1,9,0.75,8325,19,101,44,35,930,312.0,538,468,60,124.0,193,1,304,190,60,0,0,302,23040,145,312,-5.59,,,,,,,,,,,,
332843,1564153077544,-0,2.5,0.88,0.32,1.43,1.06,0.78,-0.21,0.71,11,2,9,0.81,8359,19,101,44,35,930,310.0,543,467,60,124.0,193,1,304,191,60,0,0,299,21760,-29696,310,-5.59,44.680847,10.024651,30.53,174.6,0,0.0,-1,0.0,0.0,0,2.18,5.5474
332863,1564153077564,3,2.51,0.89,0.33,1.44,1.07,0.73,-0.26,0.63,11,3,10,0.78,8366,19,101,44,35,930,312.0,543,467,60,123.0,193,1,305,191,60,0,0,298,20480,-29696,312,-5.59,,,,,,,,,,,,
332883,1564153077584,-0,2.53,0.89,0.32,1.44,1.06,0.79,-0.25,0.66,12,2,11,0.83,8385,19,101,44,35,931,313.0,551,465,60,124.0,191,1,305,192,60,0,0,299,0,140,313,-5.59,,,,,,,,,,,,
332903,1564153077604,2,2.53,0.89,0.32,1.44,1.06,0.71,-0.31,0.64,13,1,12,0.78,8325,19,101,44,35,932,312.0,553,467,60,125.0,191,1,304,190,60,0,0,297,0,140,312,-5.59,,,,,,,,,,,,
332923,1564153077624,2,2.54,0.9,0.32,1.44,1.07,0.75,-0.34,0.57,13,1,13,0.83,8337,19,101,44,35,933,311.0,559,466,60,123.0,191,1,304,191,60,0,0,296,0,140,311,-5.59,,,,,,,,,,,,
332943,1564153077644,-0,2.54,0.9,0.32,1.45,1.07,0.76,-0.32,0.62,14,1,14,0.82,8366,19,101,44,35,934,311.0,560,467,60,124.0,191,1,305,191,60,0,0,298,0,-29696,311,-5.59,44.680847,10.024641,30.39,174.6,0,0.0,-1,0.0,0.0,0,2.18,5.549
332963,1564153077664,2,2.55,0.89,0.32,1.44,1.06,0.75,-0.35,0.57,14,2,15,0.83,8355,19,101,44,35,937,311.0,557,468,60,123.0,191,1,305,191,60,0,0,296,0,-27136,311,-5.59,,,,,,,,,,,,
332983,1564153077684,0,2.55,0.9,0.32,1.45,1.07,0.78,-0.3,0.64,15,2,17,0.84,8325,19,101,44,35,940,311.0,551,466,60,124.0,193,1,304,190,60,0,0,293,0,-29696,311,-5.59,,,,,,,,,,,,
333003,1564153077704,1,2.57,0.88,0.31,1.44,1.05,0.74,-0.37,0.49,15,2,18,0.83,8314,19,101,45,35,941,312.0,550,462,60,122.0,193,1,304,190,60,0,0,294,10686,140,312,-5.59,,,,,,,,,,,,
333023,1564153077724,-1,2.59,0.88,0.31,1.44,1.06,0.81,-0.36,0.53,16,2,19,0.89,8325,19,101,44,35,943,311.0,547,465,60,123.0,193,1,304,191,60,0,0,291,10686,140,311,-5.59,,,,,,,,,,,,
333043,1564153077744,3,2.61,0.88,0.31,1.43,1.05,0.75,-0.43,0.47,17,2,20,0.86,8355,19,101,45,35,943,311.0,545,466,60,124.0,193,1,305,191,60,0,0,289,250,-27136,311,-5.59,44.680847,10.024631,30.4,174.6,0,0.0,-1,0.0,0.0,0,2.18,5.5507
333063,1564153077764,2,2.64,0.88,0.31,1.44,1.05,0.83,-0.42,0.49,18,1,20,0.93,8355,19,101,45,35,942,313.0,543,467,60,124.0,193,1,305,190,60,0,0,291,-1529,145,313,-5.59,,,,,,,,,,,,
333083,1564153077784,-4,2.67,0.88,0.3,1.43,1.06,0.81,-0.47,0.53,20,1,21,0.93,8322,19,101,45,35,941,313.0,547,466,60,124.0,191,1,304,190,60,0,0,288,24064,150,312,-5.59,,,,,,,,,,,,
333103,1564153077804,2,2.7,0.9,0.32,1.45,1.06,0.85,-0.49,0.46,20,-0,22,0.98,8303,19,101,45,35,939,313.0,543,466,60,123.0,191,1,304,190,60,0,0,285,250,-25856,313,-5.59,,,,,,,,,,,,
333123,1564153077824,-0,2.73,0.95,0.34,1.46,1.09,0.81,-0.48,0.53,22,0,23,0.94,8348,19,101,45,35,939,313.0,545,467,60,124.0,191,1,304,191,60,0,0,282,-1534,145,313,-5.59,,,,,,,,,,,,
333143,1564153077844,2,2.74,0.97,0.34,1.48,1.1,0.84,-0.61,0.42,23,-0,25,1.04,8329,19,101,45,35,938,313.0,562,468,60,123.0,191,1,304,190,60,0,0,280,250,-28416,313,-5.59,44.680843,10.02462,30.25,174.6,0,0.0,-1,0.0,0.0,0,2.18,5.5524
333163,1564153077864,-0,2.76,0.98,0.34,1.48,1.1,0.87,-0.61,0.51,25,1,27,1.06,8263,19,101,45,35,939,313.0,548,464,60,124.0,191,1,303,189,60,0,0,278,28160,-25856,313,-5.59,,,,,,,,,,,,
333183,1564153077884,1,2.75,0.98,0.35,1.48,1.09,0.87,-0.71,0.44,26,1,29,1.12,8259,19,101,45,35,940,317.0,550,470,60,123.0,187,1,303,189,59,0,0,274,250,140,317,-5.59,,,,,,,,,,,,
333203,1564153077904,-1,2.77,0.97,0.34,1.48,1.09,0.85,-0.68,0.54,27,2,30,1.09,8285,19,101,45,35,938,316.0,558,463,60,124.0,187,1,302,189,59,0,0,275,-1,145,316,-5.59,,,,,,,,,,,,
333223,1564153077924,1,2.77,0.96,0.35,1.47,1.09,0.87,-0.74,0.5,28,1,32,1.14,8252,19,101,45,35,936,315.0,551,467,60,124.0,187,1,303,193,59,0,0,271,-1,-28416,315,-5.59,,,,,,,,,,,,
333243,1564153077944,-0,2.78,0.97,0.34,1.48,1.09,0.86,-0.73,0.54,30,1,34,1.13,8198,19,101,45,35,932,315.0,544,465,60,124.0,187,1,301,112,59,0,0,271,-1,140,315,-5.59,44.680843,10.02461,29.86,174.6,0,0.0,-1,0.0,0.0,0,2.19,5.554
333263,1564153077964,2,2.78,0.96,0.34,1.47,1.1,0.89,-0.78,0.44,31,-1,36,1.18,8166,19,101,45,36,929,316.0,538,467,60,122.0,187,1,304,191,59,0,0,267,-1,140,316,-5.59,,,,,,,,,,,,
333283,1564153077984,0,2.77,0.97,0.34,1.48,1.09,0.88,-0.74,0.47,31,-0,36,1.15,8194,19,101,45,36,926,314.0,537,468,60,123.0,187,1,304,192,59,0,0,268,-1,145,314,-5.59,,,,,,,,,,,,
333303,1564153077996,1,2.78,0.97,0.34,1.47,1.1,0.92,-0.79,0.45,31,-2,38,1.22,8166,19,101,45,36,924,312.0,531,465,60,123.0,187,1,304,191,59,0,0,269,-1,-28416,312,-5.59,,,,,,,,,,,,
333323,1564153078016,3,2.78,0.97,0.35,1.48,1.1,0.87,-0.81,0.41,32,-3,39,1.19,8109,19,101,45,36,924,312.0,534,465,60,125.0,187,1,303,190,59,0,0,266,-1,135,312,-5.59,,,,,,,,,,,,
333343,1564153078036,-0,2.78,0.98,0.35,1.48,1.1,0.88,-0.81,0.47,32,-2,40,1.2,8099,19,101,45,36,925,313.0,529,466,60,123.0,187,1,302,190,59,0,0,264,-1,140,313,-5.59,44.680843,10.024599,29.58,174.5,0,0.0,-1,0.0,0.0,0,2.19,5.5557
333363,1564153078056,1,2.78,0.98,0.35,1.48,1.1,0.9,-0.88,0.37,32,-4,42,1.26,8057,19,101,45,36,925,310.0,532,465,60,124.0,187,1,302,195,59,0,0,264,-1,125,310,-5.59,,,,,,,,,,,,
333383,1564153078076,3,2.78,0.98,0.35,1.49,1.09,0.87,-0.87,0.41,33,-4,43,1.23,8026,19,101,45,37,926,310.0,527,465,60,124.0,190,1,304,195,59,0,0,262,-1,125,310,-5.59,,,,,,,,,,,,
333403,1564153078104,-1,2.78,0.98,0.35,1.49,1.1,0.89,-0.86,0.45,34,-3,43,1.23,8005,19,101,45,37,925,310.0,531,465,60,123.0,190,1,304,195,59,0,0,262,-1,130,310,-5.59,,,,,,,,,,,,
333423,1564153078124,2,2.78,0.98,0.35,1.48,1.1,0.84,-0.89,0.41,35,-3,44,1.22,8026,18,101,45,37,924,312.0,532,466,60,125.0,190,1,304,195,59,0,0,262,-1,125,312,-5.59,,,,,,,,,,,,
333443,1564153078144,5,2.78,0.98,0.34,1.49,1.09,0.83,-0.87,0.47,35,-3,44,1.2,7968,19,101,45,38,923,312.0,533,467,60,124.0,190,1,307,125,59,0,0,260,-1,135,312,-5.59,44.680843,10.024589,28.91,174.5,0,0.0,-1,0.0,0.0,0,2.19,5.5574
333463,1564153078164,-0,2.77,0.98,0.34,1.49,1.1,0.81,-0.89,0.46,36,-3,45,1.21,7938,19,101,45,38,921,311.0,538,468,60,124.0,190,1,307,199,59,0,0,259,-1,130,309,-5.59,,,,,,,,,,,,
333483,1564153078184,1,2.78,0.98,0.34,1.49,1.1,0.82,-0.93,0.39,36,-4,46,1.24,7985,19,101,45,38,919,308.0,526,466,60,123.0,194,1,307,199,60,0,0,259,-10440,125,308,-5.59,,,,,,,,,,,,
333503,1564153078204,3,2.78,0.98,0.35,1.48,1.1,0.8,-0.95,0.34,36,-3,46,1.25,7921,19,101,45,38,918,307.0,521,466,60,125.0,194,1,307,199,60,0,0,261,14337,120,307,-5.59,,,,,,,,,,,,
333523,1564153078224,-0,2.77,0.98,0.35,1.48,1.1,0.79,-0.91,0.39,36,-2,47,1.2,7908,19,101,45,38,916,306.0,523,470,60,123.0,194,1,307,199,60,0,0,260,14337,110,306,-5.59,,,,,,,,,,,,
333543,1564153078244,0,2.78,0.98,0.35,1.49,1.09,0.81,-0.93,0.37,36,-2,48,1.23,7921,19,101,45,38,913,306.0,524,466,60,124.0,194,1,307,199,60,0,0,257,506,120,306,-5.59,44.680843,10.024579,28.65,174.5,0,0.0,-1,0.0,0.0,0,2.19,5.5591
333563,1564153078264,1,2.78,0.98,0.35,1.49,1.1,0.81,-0.99,0.3,35,-3,49,1.28,7871,19,101,45,38,910,306.0,515,466,60,124.0,194,1,307,199,60,0,0,257,14337,110,306,-5.59,,,,,,,,,,,,
333583,1564153078284,3,2.78,0.98,0.35,1.49,1.1,0.79,-0.97,0.3,36,-2,48,1.25,7874,19,101,45,39,908,303.0,515,463,60,125.0,200,1,310,205,61,0,0,257,506,28160,303,-5.59,,,,,,,,,,,,
333603,1564153078304,-1,2.78,0.98,0.34,1.49,1.1,0.83,-0.93,0.36,36,-4,49,1.25,7864,19,101,45,39,906,303.0,519,466,60,124.0,200,1,310,205,61,0,0,256,506,105,303,-5.59,,,,,,,,,,,,
333623,1564153078324,0,2.78,0.98,0.35,1.48,1.1,0.91,-0.9,0.36,36,-4,48,1.28,7835,19,101,45,39,903,301.0,517,466,60,122.0,200,1,310,205,61,0,0,254,506,26880,301,-5.59,,,,,,,,,,,,
333643,1564153078344,2,2.77,0.97,0.35,1.49,1.1,0.95,-0.93,0.32,36,-5,49,1.33,7841,19,101,45,39,902,302.0,521,466,60,123.0,200,1,310,205,61,0,0,254,-1281,26880,302,-5.59,44.680847,10.02457,28.2,174.5,0,0.0,-1,0.0,0.0,0,2.19,5.5607
333663,1564153078364,2,2.78,0.98,0.35,1.48,1.1,0.94,-0.94,0.22,36,-4,49,1.33,7789,19,101,45,39,901,302.0,519,465,60,124.0,200,1,310,205,61,0,0,253,-1281,105,302,-5.59,,,,,,,,,,,,
333683,1564153078384,4,2.77,0.97,0.34,1.49,1.1,0.93,-0.89,0.24,36,-3,49,1.29,7835,19,101,45,40,901,302.0,521,466,60,124.0,198,1,317,205,60,0,0,252,-1,100,302,-5.59,,,,,,,,,,,,
333703,1564153078403,-1,2.78,0.98,0.35,1.48,1.1,0.96,-0.83,0.29,37,-3,49,1.26,7822,19,101,45,40,898,300.0,520,468,60,123.0,198,1,317,206,60,0,0,253,-1,24320,300,-5.59,,,,,,,,,,,,
333723,1564153078423,1,2.78,0.98,0.35,1.49,1.1,0.95,-0.86,0.3,37,-2,49,1.28,7805,19,101,45,40,896,299.0,524,463,60,123.0,198,1,317,206,60,0,0,252,-1,95,299,-5.59,,,,,,,,,,,,
333743,1564153078443,3,2.77,0.98,0.35,1.49,1.1,0.92,-0.87,0.26,37,-3,48,1.27,7858,19,101,45,40,895,298.0,526,468,60,124.0,198,1,317,206,60,0,0,250,10818,100,298,-5.59,44.680847,10.02456,28.47,174.5,0,0.0,-1,0.0,0.0,0,2.19,5.5624
333763,1564153078463,4,2.77,0.98,0.35,1.48,1.1,0.84,-0.88,0.29,37,-1,48,1.22,7815,19,101,45,40,894,298.0,514,462,60,125.0,198,1,317,206,60,0,0,248,10818,25600,297,-5.59,,,,,,,,,,,,
333783,1564153078483,1,2.78,0.98,0.34,1.48,1.1,0.84,-0.85,0.3,37,-1,48,1.19,7841,19,101,45,40,895,296.0,515,468,60,123.0,205,1,317,206,61,0,0,249,10818,85,296,-5.59,,,,,,,,,,,,
333803,1564153078505,-2,2.78,0.98,0.34,1.48,1.1,0.86,-0.84,0.39,38,-1,49,1.2,7838,19,101,45,40,896,296.0,516,463,60,123.0,205,1,317,206,61,0,0,248,10818,90,296,-5.59,,,,,,,,,,,,
333823,1564153078525,3,2.77,0.98,0.34,1.48,1.1,0.89,-0.86,0.37,37,-1,49,1.24,7812,19,101,45,40,899,297.0,512,465,60,123.0,205,1,317,206,61,0,0,248,250,23040,297,-5.59,,,,,,,,,,,,
333843,1564153078545,2,2.77,0.97,0.34,1.49,1.1,0.87,-0.88,0.31,37,-1,49,1.24,7832,19,101,45,40,902,295.0,520,466,60,124.0,205,1,317,206,61,0,0,247,250,85,295,-5.59,44.680847,10.024552,27.48,174.5,0,0.0,-1,0.0,0.0,0,2.19,5.5641
333863,1564153078565,3,2.78,0.98,0.35,1.48,1.1,0.88,-0.85,0.29,38,-2,49,1.23,7805,19,101,45,40,908,293.0,517,463,60,125.0,205,1,317,206,61,0,0,246,-1494,85,293,-5.59,,,,,,,,,,,,
333883,1564153078585,0,2.78,0.97,0.34,1.48,1.1,0.93,-0.84,0.37,38,-1,48,1.25,7825,19,101,45,40,913,293.0,515,465,60,124.0,204,1,317,206,60,0,0,244,10812,21760,293,-5.59,,,,,,,,,,,,
333903,1564153078603,-0,2.78,0.98,0.34,1.48,1.1,0.94,-0.83,0.46,38,-1,49,1.25,7812,19,101,45,40,916,293.0,520,465,60,123.0,204,1,317,206,60,0,0,245,10812,80,292,-5.59,,,,,,,,,,,,
333923,1564153078623,1,2.78,0.98,0.35,1.47,1.1,0.94,-0.87,0.41,38,0,48,1.29,7793,19,101,45,40,919,292.0,530,466,60,123.0,204,1,317,206,60,0,0,241,-1445,0,292,-5.59,,,,,,,,,,,,
333943,1564153078643,1,2.79,0.97,0.34,1.48,1.09,0.89,-0.87,0.33,38,0,48,1.25,7815,19,101,45,40,922,290.0,521,466,60,125.0,204,1,317,206,60,0,0,241,-1445,0,290,-5.59,44.680855,10.024544,27.35,174.6,0,0.0,-1,0.0,0.0,0,2.19,5.5657
333963,1564153078663,4,2.79,0.97,0.34,1.47,1.09,0.89,-0.88,0.33,38,-0,48,1.25,7776,19,101,45,40,926,288.0,523,466,60,124.0,204,1,317,206,60,0,0,240,23482,0,288,-5.59,,,,,,,,,,,,
333983,1564153078683,0,2.8,0.97,0.34,1.48,1.1,0.86,-0.85,0.38,37,0,48,1.21,7793,19,101,45,40,926,288.0,526,466,60,125.0,208,1,317,206,60,0,0,240,-1484,-16896,288,-5.59,,,,,,,,,,,,
334003,1564153078703,0,2.8,0.97,0.34,1.48,1.1,0.88,-0.83,0.42,37,-2,49,1.21,7789,19,101,45,40,926,285.0,527,464,60,123.0,208,1,317,206,60,0,0,237,13468,10686,285,-5.59,,,,,,,,,,,,
334023,1564153078723,1,2.81,0.97,0.34,1.48,1.09,0.9,-0.86,0.39,36,-2,49,1.24,7747,19,101,45,40,928,285.0,514,465,60,124.0,208,1,317,206,60,0,0,236,-25600,250,285,-5.59,,,,,,,,,,,,
334043,1564153078743,3,2.8,0.98,0.34,1.49,1.09,0.89,-0.86,0.35,37,-2,49,1.24,7783,19,101,45,40,930,285.0,517,466,60,124.0,208,1,317,206,60,0,0,234,-25600,250,285,-5.59,44.680859,10.024536,26.28,174.6,0,0.0,-1,0.0,0.0,0,2.19,5.5674
334063,1564153078763,5,2.8,0.98,0.34,1.48,1.1,0.91,-0.84,0.28,37,-2,50,1.24,7744,19,101,45,40,931,285.0,516,465,60,125.0,208,1,317,206,60,0,0,231,8704,-1529,285,-5.59,,,,,,,,,,,,
334083,1564153078783,5,2.81,0.97,0.34,1.47,1.09,0.92,-0.76,0.31,38,-1,49,1.2,7789,19,101,45,40,933,283.0,514,462,60,125.0,212,1,317,206,60,0,0,231,8704,24064,283,-5.59,,,,,,,,,,,,
334103,1564153078803,2,2.81,0.96,0.34,1.47,1.09,0.93,-0.73,0.34,39,-2,49,1.18,7786,19,101,45,40,934,281.0,509,467,60,124.0,212,1,317,206,60,0,0,228,10824,-1534,279,-5.59,,,,,,,,,,,,
334123,1564153078823,4,2.8,0.97,0.34,1.48,1.09,0.92,-0.75,0.39,38,-1,49,1.19,7760,19,101,45,40,936,277.0,512,466,60,123.0,212,1,317,206,60,0,0,226,10824,2414,277,-5.59,,,,,,,,,,,,
