"Interval"|"ms"|0|0|1,"Utc"|"ms"|0|0|1,"FB_p"|"bar"|0|300|50,"Volant"|"F"|0.0|300.0|50,"xFR"|"mm"|0.0|5.0|50,"xRR"|"mm"|0.0|5.0|50,"xFL"|"mm"|0.0|5.0|50,"xRL"|"mm"|0.0|5.0|50,"AccelX"|"G"|-3.0|3.0|50,"AccelY"|"G"|-3.0|3.0|50,"AccelZ"|"G"|-3.0|3.0|50,"Yaw"|"Deg/Sec"|-120|120|50,"Pitch"|"Deg/Sec"|-120|120|50,"Roll"|"Deg/Sec"|-120|120|50,"Gsum"|"G"|0.0|3.0|50,"RPM"|""|0|14000|50,"TPS"|"%"|0|100|50,"WaterTemp"|"?C"|0|300|50,"AirTemp"|"?C"|-1000|1000|50,"MAP"|"KPa"|0|255|50,"Lambda"|""|0|1024|50,"WheelSpeed"|"MPH"|0.0|150.0|50,"OilPress"|"PSI"|0|150|50,"FuelPress"|"PSI"|0|150|50,"OilTemp"|"F"|0|300|50,"Battery"|"Volts"|0.0|20.0|50,"FuelCon"|"L/h"|-1000|1000|50,"Gear"|""|0|10|50,"Advance"|"Deg"|-360|360|50,"Injection"|"ms"|-1000|1000|50,"FuelCon"|"L/100km"|-1000|1000|50,"LC_But_Pres"|""|-1000|1000|50,"LC_Active"|""|-1000|1000|50,"RD_Speed"|""|-1000|1000|50,"RUD_Speed"|""|-1000|1000|50,"LD_Speed"|""|-1000|1000|50,"LUD_Speed"|""|-1000|1000|50,"Ana1"|"bar"|-1000.0|1000.0|50,"Latitude"|"Degrees"|-180.0|180.0|10,"Longitude"|"Degrees"|-180.0|180.0|10,"Speed"|"kph"|0.0|150.0|10,"Altitude"|"m"|0.0|4000.0|10,"LapCount"|""|0|0|10,"LapTime"|"Min"|0.0|0.0|10,"Sector"|""|0|0|10,"SectorTime"|"Min"|0.0|0.0|10,"ElapsedTime"|"Min"|0.0|0.0|10,"CurrentLap"|""|0|0|10,"Distance"|"km"|0.0|0.0|10,"SessionTime"|"Min"|0.0|0.0|10
14364,1564133183350,4,2.36,1.05,0.44,1.52,1.11,0.63,-0.36,1.06,9,3,9,0.73,11799,100,90,41,84,1037,609.0,655,462,60,122.0,409,1,440,555,245,0,0,630,-28648,20993,606,-5.59,,,,,,,,,,,,
14384,1564133183370,3,2.36,1.06,0.45,1.52,1.11,0.64,-0.37,1.03,9,3,9,0.74,11837,100,90,41,84,1024,613.0,651,458,60,122.0,409,1,440,557,245,0,0,630,4956,771,609,-5.59,,,,,,,,,,,,
14404,1564133183390,4,2.35,1.05,0.45,1.53,1.11,0.58,-0.35,0.9,9,2,10,0.68,11897,100,90,41,84,1014,618.0,657,461,60,123.0,409,1,440,558,245,0,0,636,-7939,11566,613,-5.59,,,,,,,,,,,,
14424,1564133183409,4,2.35,1.05,0.45,1.53,1.11,0.52,-0.28,0.73,9,1,10,0.59,12003,100,90,41,84,996,620.0,652,462,60,121.0,411,1,440,560,255,0,0,640,17740,-2836,618,-5.59,,,,,,,,,,,,
14444,1564133183429,3,2.36,1.06,0.45,1.53,1.11,0.51,-0.25,0.54,9,-1,10,0.57,12096,100,90,41,84,981,625.0,663,460,60,122.0,411,1,440,560,255,0,0,649,269,2024,625,-5.59,44.680946,10.024973,58.88,176.8,0,0.0,-1,0.0,0.0,0,0.13,0.2407
14464,1564133183449,4,2.36,1.05,0.45,1.52,1.11,0.5,-0.25,0.5,9,-2,10,0.56,12191,100,90,41,84,959,630.0,666,460,60,122.0,411,1,440,560,255,0,0,658,-18357,-2830,630,-5.59,,,,,,,,,,,,
14484,1564133183469,-0,2.36,1.05,0.45,1.52,1.11,0.52,-0.34,0.65,9,-2,9,0.62,12287,100,90,41,84,945,633.0,668,460,60,122.0,411,1,440,560,255,0,0,658,-18357,-2830,630,-5.59,,,,,,,,,,,,
14504,1564133183489,2,2.37,1.05,0.46,1.52,1.11,0.51,-0.31,0.78,8,-1,8,0.6,12368,100,90,41,84,938,637.0,660,463,60,123.0,411,1,440,560,255,0,0,667,966,-10348,639,-5.59,,,,,,,,,,,,
14524,1564133183509,3,2.35,1.05,0.45,1.52,1.11,0.46,-0.26,0.82,8,-1,9,0.53,12516,100,90,41,84,913,644.0,656,466,60,122.0,411,1,440,560,265,0,0,667,966,-10348,639,-5.59,,,,,,,,,,,,
14544,1564133183529,3,2.37,1.05,0.46,1.52,1.11,0.53,-0.37,0.85,8,-1,7,0.65,12558,100,90,41,84,891,646.0,662,469,60,122.0,411,1,440,560,265,0,0,661,3,3543,644,-5.59,44.680939,10.024956,61.1,176.8,0,0.0,-1,0.0,0.0,0,0.13,0.2424
14564,1564133183549,2,2.36,1.06,0.46,1.52,1.12,0.57,-0.36,0.87,8,-1,7,0.67,12567,100,90,41,84,879,648.0,663,466,60,123.0,411,1,440,560,265,0,0,678,-2830,-26380,651,-5.59,,,,,,,,,,,,
14584,1564133183569,4,2.36,1.06,0.46,1.53,1.11,0.42,-0.21,0.79,9,-1,8,0.47,12626,100,90,41,84,860,655.0,661,470,60,122.0,411,1,440,560,265,0,0,678,-2830,-26380,651,-5.59,,,,,,,,,,,,
14604,1564133183589,2,2.37,1.06,0.46,1.53,1.11,0.47,-0.33,0.91,9,1,6,0.57,12711,100,90,41,84,844,659.0,662,468,60,122.0,411,1,440,560,265,0,0,683,479,-10399,659,-5.59,,,,,,,,,,,,
14624,1564133183608,2,2.37,1.05,0.46,1.53,1.1,0.5,-0.18,0.66,8,-0,8,0.54,12842,100,90,40,84,814,661.0,665,466,60,122.0,413,1,440,560,273,0,0,683,479,-10399,659,-5.59,,,,,,,,,,,,
14644,1564133183628,1,2.37,1.06,0.46,1.53,1.12,0.49,-0.28,0.79,8,-0,7,0.57,12886,100,90,40,84,804,668.0,663,465,60,122.0,413,1,440,560,273,0,0,682,-26380,-10344,668,-5.59,44.680927,10.024938,63.17,176.7,0,0.0,-1,0.0,0.0,0,0.14,0.2441
14664,1564133183648,6,2.37,1.06,0.46,1.53,1.11,0.51,-0.27,0.67,8,-0,7,0.58,12798,84,90,40,83,792,671.0,665,460,60,122.0,413,1,440,545,273,0,0,682,-26380,-10344,668,-5.59,,,,,,,,,,,,
14684,1564133183668,3,2.37,1.05,0.46,1.52,1.11,0.52,-0.22,0.66,8,1,8,0.57,12816,65,90,40,77,785,675.0,669,462,60,123.0,413,1,440,506,273,0,0,681,1549,11576,676,-5.59,,,,,,,,,,,,
14704,1564133183688,7,2.37,1.06,0.46,1.53,1.11,0.54,-0.23,0.73,8,-1,6,0.59,12763,44,90,40,68,777,673.0,662,463,60,122.0,413,1,440,440,273,0,0,690,-10348,14342,678,-5.59,,,,,,,,,,,,
14724,1564133183707,9,2.37,1.06,0.46,1.52,1.11,0.6,-0.27,0.77,8,-1,5,0.66,12400,25,90,40,58,774,674.0,662,467,60,123.0,413,1,422,381,273,0,0,683,-2826,-26562,673,-5.59,,,,,,,,,,,,
14744,1564133183727,13,2.38,1.06,0.46,1.53,1.11,0.6,-0.23,0.68,9,-1,5,0.64,12034,16,90,40,50,776,669.0,660,473,60,123.0,260,1,388,289,175,0,0,683,-2826,-26562,673,-5.59,44.680923,10.024919,65.12,176.7,0,0.0,-1,0.0,0.0,0,0.14,0.2457
14764,1564133183747,17,2.39,1.06,0.45,1.52,1.1,0.68,-0.25,0.78,9,-2,3,0.72,11792,13,90,40,44,775,665.0,658,466,60,123.0,260,1,359,241,175,0,0,653,-30207,-10344,665,-5.59,,,,,,,,,,,,
14784,1564133183767,21,2.38,1.06,0.45,1.53,1.11,0.74,-0.42,0.71,9,-2,2,0.85,11574,13,90,40,41,772,658.0,650,470,60,123.0,260,1,335,228,175,0,0,628,11776,31988,658,-5.59,,,,,,,,,,,,
14804,1564133183787,20,2.39,1.05,0.44,1.52,1.11,0.77,-0.26,0.48,10,-6,3,0.81,11349,12,90,40,38,767,659.0,651,470,60,123.0,260,1,317,222,175,0,0,628,11776,31988,658,-5.59,,,,,,,,,,,,
14824,1564133183807,23,2.38,1.06,0.45,1.53,1.1,0.85,-0.4,0.63,10,-8,4,0.94,11107,12,90,40,37,763,658.0,650,467,60,123.0,141,1,314,221,93,0,0,605,-2836,24583,658,-5.59,,,,,,,,,,,,
14844,1564133183827,20,2.39,1.06,0.44,1.53,1.11,0.78,-0.26,0.42,10,-6,5,0.82,10964,12,90,40,35,768,655.0,644,470,60,123.0,141,1,308,217,93,0,0,511,16599,4909,657,-5.59,44.680912,10.024899,66.72,176.6,0,0.0,-1,0.0,0.0,0,0.14,0.2474
14864,1564133183847,19,2.39,1.06,0.45,1.52,1.11,0.82,-0.24,0.31,11,-6,7,0.86,10744,12,90,40,34,792,652.0,642,463,60,123.0,141,1,305,215,93,0,0,511,16599,4909,657,-5.59,,,,,,,,,,,,
14884,1564133183867,20,2.39,1.05,0.44,1.51,1.11,0.83,-0.39,0.3,11,-5,8,0.92,10504,12,90,40,34,813,646.0,641,468,60,122.0,141,1,305,214,93,0,0,445,3,244,656,-5.59,,,,,,,,,,,,
14904,1564133183891,19,2.39,1.05,0.45,1.51,1.11,0.8,-0.55,0.37,11,-4,7,0.97,10330,12,90,40,33,837,646.0,638,466,60,122.0,141,1,302,210,93,0,0,400,-16883,11776,650,-5.59,,,,,,,,,,,,
14924,1564133183911,16,2.39,1.05,0.44,1.52,1.1,0.81,-0.54,0.32,12,-2,7,0.98,10086,12,90,40,33,851,641.0,638,463,60,123.0,141,1,302,206,93,0,0,475,269,244,641,-5.59,,,,,,,,,,,,
14944,1564133183931,17,2.38,1.06,0.44,1.52,1.1,0.93,-0.49,0.29,12,-3,9,1.06,9816,12,90,40,32,861,637.0,635,462,60,123.0,121,1,300,200,78,0,0,475,269,244,641,-5.59,44.680904,10.024879,65.57,176.6,0,0.0,-1,0.0,0.0,0,0.14,0.2491
14964,1564133183951,16,2.39,1.05,0.45,1.51,1.11,0.93,-0.55,0.29,12,-2,8,1.08,9625,12,90,40,32,865,633.0,632,465,60,123.0,121,1,300,197,78,0,0,532,-30139,3,633,-5.59,,,,,,,,,,,,
14984,1564133183971,15,2.39,1.05,0.44,1.51,1.11,0.97,-0.52,0.13,12,-1,11,1.1,9479,12,90,40,31,850,629.0,632,462,60,122.0,121,1,295,194,78,0,0,552,-7939,3395,629,-5.59,,,,,,,,,,,,
15004,1564133183991,16,2.38,1.06,0.44,1.51,1.1,0.91,-0.43,0.18,12,0,10,1.01,9403,12,90,40,30,832,621.0,625,458,60,122.0,121,1,291,191,78,0,0,491,243,774,621,-5.59,,,,,,,,,,,,
15024,1564133184003,13,2.39,1.05,0.44,1.52,1.1,0.99,-0.53,0.19,12,-1,12,1.12,9455,12,90,40,30,798,619.0,623,470,60,123.0,109,1,291,191,68,0,0,491,243,774,621,-5.59,,,,,,,,,,,,
15044,1564133184023,15,2.38,1.05,0.45,1.51,1.1,1.01,-0.63,0.27,11,-1,12,1.2,9407,12,90,40,29,777,608.0,622,472,60,123.0,109,1,287,189,68,0,0,403,-28648,-3190,608,-5.59,44.680897,10.024859,63.39,176.6,0,0.0,-1,0.0,0.0,0,0.14,0.2507
15064,1564133184043,15,2.38,1.05,0.45,1.51,1.1,1.07,-0.63,0.23,11,0,11,1.24,9191,12,90,40,29,762,610.0,610,465,60,122.0,109,1,287,186,68,0,0,403,-28648,-3190,608,-5.59,,,,,,,,,,,,
15084,1564133184063,15,2.38,1.06,0.44,1.52,1.1,1.17,-0.58,0.28,11,-2,12,1.3,8992,12,90,40,28,753,607.0,574,464,60,123.0,109,1,282,185,68,0,0,337,-25872,30227,607,-5.59,,,,,,,,,,,,
15104,1564133184091,13,2.38,1.05,0.44,1.51,1.09,1.25,-0.52,0.31,12,-2,12,1.36,8790,12,90,40,29,762,603.0,526,466,60,123.0,109,1,287,185,68,0,0,337,-25872,30227,607,-5.59,,,,,,,,,,,,
15124,1564133184111,14,2.37,1.04,0.44,1.51,1.1,1.33,-0.56,0.35,11,-3,12,1.44,8664,12,90,40,29,767,599.0,512,466,60,123.0,109,1,287,185,68,0,0,364,-3210,4956,599,-5.59,,,,,,,,,,,,
15144,1564133184131,11,2.37,1.05,0.44,1.51,1.1,1.23,-0.55,0.28,12,-0,13,1.35,8457,12,90,40,29,790,597.0,491,468,60,124.0,100,1,286,182,60,0,0,364,-3210,4956,599,-5.59,44.680889,10.024839,61.09,176.6,0,0.0,-1,0.0,0.0,0,0.14,0.2524
15164,1564133184151,14,2.38,1.05,0.44,1.51,1.1,1.31,-0.58,0.23,12,-0,12,1.44,8366,12,90,40,30,814,588.0,512,466,60,123.0,100,1,289,178,60,0,0,369,259,6273,593,-5.59,,,,,,,,,,,,
15184,1564133184171,13,2.38,1.05,0.44,1.52,1.1,1.29,-0.52,0.28,11,-1,13,1.4,8385,12,90,40,30,843,581.0,514,463,60,123.0,100,1,289,179,60,0,0,375,-18032,6274,579,-5.59,,,,,,,,,,,,
15204,1564133184191,14,2.37,1.05,0.44,1.51,1.1,1.25,-0.57,0.2,10,-3,12,1.37,8457,12,90,40,29,882,573.0,501,465,60,122.0,100,1,286,182,60,0,0,344,-32504,6274,573,-5.59,,,,,,,,,,,,
15224,1564133184211,12,2.38,1.05,0.45,1.51,1.1,1.31,-0.55,0.17,10,-2,13,1.42,8445,12,90,40,29,912,573.0,526,463,60,122.0,101,1,286,181,58,0,0,344,-32504,6274,573,-5.59,,,,,,,,,,,,
15244,1564133184231,12,2.37,1.06,0.44,1.52,1.1,1.21,-0.52,0.09,10,-1,13,1.32,8381,12,90,40,28,927,569.0,534,467,60,124.0,101,1,281,178,58,0,0,320,-9072,-18032,569,-5.59,44.680885,10.02482,58.57,176.5,0,0.0,-1,0.0,0.0,0,0.15,0.2541
15264,1564133184251,12,2.38,1.05,0.45,1.51,1.1,1.24,-0.47,0.06,10,-1,14,1.33,8270,12,90,40,28,954,563.0,538,465,60,123.0,101,1,280,173,58,0,0,320,-9072,-18032,569,-5.59,,,,,,,,,,,,
15284,1564133184271,11,2.38,1.05,0.44,1.51,1.1,1.21,-0.47,0.07,10,1,14,1.3,8152,12,90,40,28,987,563.0,543,465,60,124.0,101,1,279,168,58,0,0,319,2104,-30159,563,-5.59,,,,,,,,,,,,
15304,1564133184291,12,2.38,1.05,0.44,1.52,1.1,1.29,-0.45,0.11,10,-1,14,1.36,8067,12,90,40,28,993,556.0,542,465,60,122.0,101,1,279,163,58,0,0,329,-2336,2216,560,-5.59,,,,,,,,,,,,
15324,1564133184311,14,2.37,1.05,0.44,1.51,1.1,1.24,-0.42,0.06,9,-1,14,1.31,8078,12,90,40,28,998,549.0,542,465,60,123.0,101,1,279,165,58,0,0,349,6274,14504,549,-5.59,,,,,,,,,,,,
15344,1564133184331,12,2.37,1.05,0.44,1.52,1.1,1.25,-0.38,0.08,9,-2,14,1.31,8054,12,90,40,28,987,544.0,542,464,60,124.0,91,1,279,162,50,0,0,349,6274,14504,549,-5.59,44.680878,10.024801,56.9,176.5,0,0.0,-1,0.0,0.0,0,0.15,0.2557
15364,1564133184351,12,2.37,1.05,0.45,1.52,1.09,1.29,-0.36,0.05,8,-2,14,1.34,8102,12,90,40,29,966,540.0,552,466,60,123.0,91,1,282,166,50,0,0,339,14504,1341,544,-5.59,,,,,,,,,,,,
15384,1564133184371,12,2.37,1.05,0.44,1.51,1.1,1.22,-0.35,0.06,8,-1,13,1.27,8120,11,90,40,29,949,536.0,555,465,60,124.0,91,1,282,167,50,0,0,335,2088,10408,532,-5.59,,,,,,,,,,,,
15404,1564133184392,13,2.36,1.05,0.45,1.51,1.09,1.25,-0.33,0.04,8,-1,13,1.29,8061,11,90,40,29,926,532.0,553,464,60,124.0,91,1,282,164,50,0,0,344,15679,1248,531,-5.59,,,,,,,,,,,,
15424,1564133184412,15,2.36,1.05,0.44,1.51,1.1,1.21,-0.29,-0.04,8,-2,13,1.24,8050,12,90,40,29,890,526.0,556,467,60,124.0,95,1,282,164,50,0,0,344,15679,1248,531,-5.59,,,,,,,,,,,,
15444,1564133184432,10,2.37,1.05,0.44,1.51,1.1,1.21,-0.27,-0.01,8,-1,13,1.24,8106,12,90,40,29,860,521.0,554,464,60,123.0,95,1,282,166,50,0,0,364,16383,-14,526,-5.59,44.68087,10.024783,54.52,176.5,0,0.0,-1,0.0,0.0,0,0.15,0.2574
15464,1564133184452,13,2.37,1.05,0.44,1.51,1.1,1.24,-0.25,-0.05,7,-2,13,1.27,8205,12,90,40,29,849,516.0,554,466,60,124.0,95,1,283,171,50,0,0,385,-21872,248,516,-5.59,,,,,,,,,,,,
15484,1564133184472,11,2.36,1.05,0.44,1.52,1.09,1.17,-0.24,-0.07,7,-1,13,1.19,8234,12,90,40,29,840,509.0,552,465,60,124.0,95,1,283,172,50,0,0,385,-21872,248,516,-5.59,,,,,,,,,,,,
15504,1564133184492,13,2.36,1.05,0.44,1.52,1.1,1.16,-0.18,-0.1,7,-1,12,1.18,8289,11,90,40,29,835,504.0,554,466,60,123.0,95,1,284,175,50,0,0,391,10408,1,509,-5.59,,,,,,,,,,,,
15524,1564133184508,11,2.36,1.04,0.44,1.52,1.1,1.17,-0.14,-0.09,7,-2,11,1.18,8333,11,90,40,28,828,501.0,562,466,60,124.0,95,1,281,176,50,0,0,430,-6656,8488,499,-5.59,,,,,,,,,,,,
15544,1564133184528,13,2.36,1.05,0.44,1.52,1.09,1.17,-0.13,-0.12,7,-2,10,1.18,8404,11,90,40,29,824,496.0,561,465,60,123.0,109,1,286,180,55,0,0,430,-6656,8488,499,-5.59,44.680866,10.024766,52.11,176.5,0,0.0,-1,0.0,0.0,0,0.15,0.2591
15564,1564133184548,11,2.37,1.05,0.44,1.51,1.1,1.25,-0.08,-0.1,6,-2,11,1.25,8526,12,90,40,28,824,491.0,568,463,60,123.0,109,1,282,185,55,0,0,447,-6656,-8985,496,-5.59,,,,,,,,,,,,
15584,1564133184568,8,2.37,1.05,0.44,1.51,1.09,1.16,-0.11,-0.09,6,-2,10,1.16,8538,11,90,40,28,825,486.0,576,466,60,124.0,109,1,282,185,55,0,0,456,8488,10305,486,-5.59,,,,,,,,,,,,
15604,1564133184588,8,2.37,1.05,0.44,1.51,1.09,1.07,-0.14,-0.18,6,-0,10,1.08,8585,11,90,40,28,826,483.0,581,465,60,123.0,109,1,282,185,55,0,0,463,-9203,2524,482,-5.59,,,,,,,,,,,,
15624,1564133184608,8,2.38,1.05,0.44,1.51,1.1,1.16,-0.07,-0.14,6,-0,9,1.17,8593,11,90,40,27,828,477.0,586,462,60,123.0,125,1,278,185,60,0,0,463,-9203,2524,482,-5.59,,,,,,,,,,,,
15644,1564133184628,4,2.39,1.05,0.44,1.51,1.09,1.21,-0.14,-0.05,7,0,9,1.22,8648,11,90,40,27,830,476.0,587,462,60,123.0,125,1,278,185,60,0,0,457,16408,-23623,476,-5.59,44.680866,10.024749,49.37,176.5,0,0.0,-1,0.0,0.0,0,0.15,0.2607
15664,1564133184648,4,2.39,1.05,0.44,1.52,1.09,1.14,-0.17,-0.03,7,1,8,1.15,8660,11,90,40,27,831,475.0,589,466,60,124.0,125,1,278,185,60,0,0,457,16408,-23623,476,-5.59,,,,,,,,,,,,
15684,1564133184668,4,2.41,1.05,0.43,1.51,1.1,1.04,-0.18,-0.15,8,1,9,1.06,8648,11,90,40,27,832,474.0,594,464,60,124.0,125,1,278,185,60,0,0,452,2211,2211,474,-5.59,,,,,,,,,,,,
15704,1564133184688,3,2.41,1.05,0.44,1.51,1.1,1.09,-0.18,-0.09,8,1,9,1.1,8620,11,90,40,27,833,471.0,587,465,60,123.0,125,1,278,185,60,0,0,452,2211,2211,474,-5.59,,,,,,,,,,,,
15724,1564133184706,3,2.42,1.05,0.45,1.52,1.1,1.1,-0.2,0.04,8,2,9,1.12,8546,11,90,40,26,833,470.0,578,466,60,124.0,127,1,274,185,60,0,0,451,-23623,-23623,471,-5.59,,,,,,,,,,,,
15744,1564133184726,6,2.43,1.05,0.44,1.52,1.1,0.97,-0.31,0.04,9,3,8,1.02,8514,11,90,40,26,833,468.0,579,464,60,124.0,127,1,274,185,60,0,0,453,14488,-9160,470,-5.59,44.680859,10.024733,47.48,176.5,0,0.0,-1,0.0,0.0,0,0.15,0.2624
15764,1564133184746,4,2.45,1.05,0.44,1.52,1.1,1.03,-0.34,0.09,10,1,9,1.09,8457,11,90,40,27,834,466.0,575,462,60,123.0,127,1,278,182,60,0,0,449,-8985,12552,468,-5.59,,,,,,,,,,,,
15784,1564133184766,1,2.47,1.05,0.44,1.51,1.1,1.1,-0.38,0.2,10,2,9,1.16,8408,11,90,40,27,835,467.0,571,465,60,124.0,127,1,278,181,60,0,0,444,15649,6193,466,-5.59,,,,,,,,,,,,
15804,1564133184786,3,2.48,1.05,0.44,1.51,1.1,0.99,-0.42,0.13,12,2,10,1.08,8400,11,90,40,26,836,464.0,571,467,60,125.0,127,1,274,179,60,0,0,438,16648,6193,467,-5.59,,,,,,,,,,,,
15824,1564133184806,3,2.48,1.05,0.44,1.52,1.1,1.02,-0.45,0.12,12,2,12,1.11,8359,11,90,40,27,837,466.0,570,463,60,124.0,127,1,277,176,60,0,0,434,26704,-18108,464,-5.59,,,,,,,,,,,,
15844,1564133184826,3,2.49,1.05,0.44,1.5,1.1,0.93,-0.53,0.15,14,3,12,1.07,8259,11,90,40,27,836,464.0,572,467,60,124.0,118,1,277,172,55,0,0,434,26704,-18108,464,-5.59,44.680855,10.024717,45.86,176.5,0,0.0,-1,0.0,0.0,0,0.15,0.2641
15864,1564133184846,1,2.52,1.05,0.45,1.51,1.11,1.03,-0.57,0.21,15,2,13,1.18,8212,11,90,40,27,834,464.0,572,462,60,123.0,118,1,276,169,55,0,0,431,19477,-8985,464,-5.59,,,,,,,,,,,,
15884,1564133184866,3,2.52,1.05,0.44,1.52,1.1,1.02,-0.61,0.26,16,2,15,1.18,8205,11,90,40,27,832,465.0,570,466,60,124.0,118,1,276,169,55,0,0,421,-3322,2524,465,-5.59,,,,,,,,,,,,
15904,1564133184886,2,2.53,1.05,0.45,1.52,1.11,1.04,-0.62,0.25,17,1,16,1.21,8159,11,90,41,27,830,461.0,567,465,60,124.0,118,1,276,167,55,0,0,411,-3856,-26615,461,-5.59,,,,,,,,,,,,
15924,1564133184906,2,2.54,1.05,0.45,1.51,1.1,1.0,-0.64,0.19,18,1,18,1.19,8130,11,90,41,27,829,460.0,567,465,60,124.0,110,1,276,166,51,0,0,411,-3856,-26615,461,-5.59,,,,,,,,,,,,
15944,1564133184926,1,2.55,1.05,0.45,1.52,1.1,1.01,-0.68,0.28,19,2,20,1.21,8057,11,90,41,28,828,458.0,562,465,60,124.0,110,1,279,163,51,0,0,415,3826,17628,459,-5.59,44.680855,10.024701,44.83,176.4,0,0.0,-1,0.0,0.0,0,0.16,0.2657
15964,1564133184946,2,2.57,1.05,0.44,1.51,1.1,1.02,-0.73,0.29,20,-1,20,1.25,8026,11,90,41,28,829,457.0,558,466,60,124.0,110,1,278,161,51,0,0,406,-3414,15649,456,-5.59,,,,,,,,,,,,
15984,1564133184966,3,2.58,1.05,0.44,1.52,1.11,0.97,-0.81,0.27,22,2,23,1.27,7944,11,90,41,28,831,457.0,549,465,60,125.0,110,1,278,160,51,0,0,406,-3414,15649,456,-5.59,,,,,,,,,,,,
16004,1564133184986,-0,2.58,1.05,0.44,1.51,1.11,0.99,-0.89,0.33,23,2,23,1.33,7934,11,90,41,29,833,458.0,548,467,60,124.0,110,1,281,161,51,0,0,398,-3414,17628,456,-5.59,,,,,,,,,,,,
16024,1564133185002,-0,2.58,1.05,0.44,1.53,1.1,0.96,-0.95,0.32,24,1,26,1.35,7861,11,90,41,29,837,459.0,543,466,60,123.0,104,1,280,161,48,0,0,398,-3414,17628,456,-5.59,,,,,,,,,,,,
16044,1564133185022,2,2.58,1.06,0.45,1.51,1.11,0.96,-0.96,0.23,24,-1,27,1.35,7809,11,90,41,30,838,454.0,542,465,60,124.0,104,1,283,163,48,0,0,390,-4059,-8985,453,-5.59,44.680851,10.024686,44.01,176.4,0,0.0,-1,0.0,0.0,0,0.16,0.2674
16064,1564133185042,4,2.59,1.06,0.44,1.51,1.1,0.91,-0.96,0.23,24,0,28,1.33,7802,11,90,41,30,840,448.0,542,463,60,124.0,104,1,283,163,48,0,0,390,-4059,-8985,453,-5.59,,,,,,,,,,,,
16084,1564133185062,3,2.6,1.06,0.44,1.52,1.11,0.88,-0.95,0.25,25,-1,29,1.3,7697,11,90,41,30,843,446.0,537,464,60,124.0,104,1,283,163,48,0,0,384,2524,21432,448,-5.59,,,,,,,,,,,,
16104,1564133185092,-0,2.62,1.06,0.44,1.53,1.1,0.91,-0.9,0.28,26,-3,29,1.28,7703,11,90,41,30,846,446.0,537,465,60,123.0,104,1,283,163,48,0,0,386,-26615,5600,446,-5.59,,,,,,,,,,,,
16124,1564133185112,-0,2.63,1.06,0.44,1.52,1.11,0.9,-0.91,0.33,26,-2,30,1.28,7631,11,90,41,31,846,443.0,491,466,60,123.0,106,1,286,163,47,0,0,381,-9211,2131,446,-5.59,,,,,,,,,,,,
16144,1564133185132,-1,2.63,1.06,0.44,1.51,1.11,0.88,-0.98,0.34,27,-1,32,1.32,7584,11,90,41,31,847,448.0,402,468,60,123.0,106,1,286,164,47,0,0,364,11545,2131,448,-5.59,44.680851,10.024671,43.98,176.4,0,0.0,-1,0.0,0.0,0,0.16,0.2691
16164,1564133185152,1,2.62,1.06,0.45,1.52,1.11,0.87,-1.01,0.32,29,-2,33,1.33,7536,11,90,41,31,847,446.0,350,468,60,123.0,106,1,286,164,47,0,0,364,11545,2131,448,-5.59,,,,,,,,,,,,
16184,1564133185172,-1,2.63,1.05,0.45,1.52,1.11,0.96,-1.02,0.34,30,-4,34,1.4,7491,11,90,41,32,847,445.0,313,466,60,123.0,106,1,290,166,47,0,0,381,-3968,23400,446,-5.59,,,,,,,,,,,,
16204,1564133185193,1,2.62,1.06,0.44,1.53,1.1,1.01,-1.05,0.37,31,-4,36,1.46,7476,11,90,41,32,847,447.0,318,467,60,123.0,106,1,290,166,47,0,0,346,-1818,23400,447,-5.59,,,,,,,,,,,,
16224,1564133185213,0,2.63,1.05,0.44,1.52,1.11,1.03,-1.09,0.37,32,-3,38,1.5,7431,11,90,41,32,846,446.0,333,466,60,124.0,103,1,290,166,46,0,0,346,-1818,23400,447,-5.59,,,,,,,,,,,,
16244,1564133185233,0,2.62,1.06,0.44,1.52,1.11,1.02,-1.12,0.45,33,-2,41,1.51,7344,11,90,41,33,845,445.0,295,467,60,123.0,103,1,292,166,46,0,0,332,1,-18341,446,-5.59,44.680851,10.024655,43.5,176.4,0,0.0,-1,0.0,0.0,0,0.16,0.2707
16264,1564133185253,-1,2.63,1.05,0.44,1.52,1.11,1.0,-1.08,0.5,34,-3,42,1.47,7298,11,90,41,33,844,443.0,290,467,60,124.0,103,1,292,171,46,0,0,326,1,-18341,445,-5.59,,,,,,,,,,,,
16284,1564133185273,1,2.63,1.06,0.45,1.52,1.11,0.91,-1.03,0.56,35,-2,43,1.37,7189,11,91,41,33,844,440.0,274,465,60,124.0,103,1,292,171,46,0,0,310,-1562,20625,440,-5.59,,,,,,,,,,,,
16304,1564133185292,1,2.63,1.06,0.44,1.52,1.11,0.84,-1.03,0.46,34,-1,44,1.33,7145,11,91,41,33,844,440.0,275,465,60,125.0,103,1,292,176,46,0,0,310,-1562,20625,440,-5.59,,,,,,,,,,,,
16324,1564133185312,-1,2.63,1.05,0.45,1.52,1.11,0.89,-1.13,0.4,35,-0,44,1.44,7072,11,91,41,34,845,437.0,281,466,60,123.0,103,1,295,176,46,0,0,317,-6524,-7939,437,-5.59,,,,,,,,,,,,
16344,1564133185332,4,2.63,1.05,0.45,1.53,1.11,0.94,-1.17,0.45,35,-2,44,1.5,6985,11,90,41,34,845,436.0,285,462,60,123.0,107,1,295,176,47,0,0,337,-31744,5600,436,-5.59,44.680851,10.02464,42.32,176.4,0,0.0,-1,0.0,0.0,0,0.16,0.2724
16364,1564133185352,2,2.62,1.06,0.44,1.53,1.11,0.91,-1.1,0.46,35,-1,44,1.42,6939,11,91,41,35,845,435.0,286,468,60,123.0,107,1,298,182,47,0,0,337,-31744,5600,436,-5.59,,,,,,,,,,,,
16384,1564133185372,-1,2.63,1.06,0.44,1.52,1.11,0.93,-1.16,0.41,35,-2,44,1.49,6863,11,91,41,36,845,432.0,282,466,60,122.0,107,1,301,187,47,0,0,347,240,1779,435,-5.59,,,,,,,,,,,,
16404,1564133185391,3,2.63,1.05,0.44,1.53,1.11,0.98,-1.15,0.42,36,-3,46,1.51,6853,11,90,41,36,847,433.0,281,463,60,124.0,107,1,301,187,47,0,0,339,-3866,13552,433,-5.59,,,,,,,,,,,,
16424,1564133185411,-0,2.62,1.05,0.44,1.53,1.11,0.93,-1.12,0.38,35,-2,45,1.46,6941,11,90,41,36,853,432.0,280,465,60,123.0,113,1,301,187,49,0,0,339,-3866,13552,433,-5.59,,,,,,,,,,,,
16444,1564133185431,0,2.62,1.06,0.45,1.53,1.11,0.93,-1.13,0.39,35,-2,46,1.46,6972,11,91,41,37,858,430.0,281,465,60,122.0,113,1,304,187,49,0,0,316,240,-4082,432,-5.59,44.680851,10.024626,41.44,176.4,0,0.0,-1,0.0,0.0,0,0.16,0.2741
16464,1564133185451,1,2.63,1.06,0.44,1.52,1.11,0.89,-1.04,0.4,35,-3,47,1.36,6934,11,90,41,36,861,430.0,290,465,60,122.0,113,1,301,193,49,0,0,287,-19126,13180,430,-5.59,,,,,,,,,,,,
16484,1564133185471,-0,2.62,1.06,0.45,1.53,1.11,0.85,-1.1,0.33,35,-2,46,1.39,6908,11,91,41,37,867,430.0,307,465,60,122.0,113,1,304,187,49,0,0,287,-992,13180,430,-5.59,,,,,,,,,,,,
16504,1564133185491,3,2.63,1.05,0.45,1.52,1.11,0.87,-1.06,0.38,35,-3,47,1.37,6885,11,91,41,37,875,429.0,305,465,60,123.0,113,1,304,193,49,0,0,287,-992,13180,430,-5.59,,,,,,,,,,,,
16524,1564133185509,-0,2.63,1.06,0.45,1.52,1.11,0.79,-1.06,0.38,35,-3,46,1.32,6813,11,91,41,37,878,429.0,297,467,60,121.0,113,1,304,193,49,0,0,334,-6656,-3322,429,-5.59,,,,,,,,,,,,
16544,1564133185529,3,2.64,1.06,0.45,1.52,1.11,0.84,-1.1,0.4,36,-3,47,1.38,6781,11,91,41,37,879,426.0,290,462,60,124.0,114,1,304,193,49,0,0,334,-6656,-3322,429,-5.59,44.680859,10.024611,40.88,176.5,0,0.0,-1,0.0,0.0,0,0.16,0.2757
16564,1564133185549,1,2.62,1.06,0.45,1.52,1.11,0.85,-1.06,0.36,36,-2,46,1.36,6818,11,91,41,37,880,422.0,300,466,60,122.0,114,1,304,199,49,0,0,366,770,3826,426,-5.59,,,,,,,,,,,,
16584,1564133185569,-1,2.63,1.05,0.45,1.52,1.11,0.89,-1.15,0.36,36,-2,46,1.45,6947,11,91,41,38,882,420.0,296,465,60,123.0,114,1,307,199,49,0,0,362,3,-3414,422,-5.59,,,,,,,,,,,,
16604,1564133185589,3,2.62,1.06,0.44,1.53,1.11,0.9,-1.12,0.39,36,-4,47,1.44,7054,11,91,41,37,881,418.0,307,463,60,123.0,114,1,304,193,49,0,0,318,742,-26615,418,-5.59,,,,,,,,,,,,
16624,1564133185609,1,2.62,1.05,0.45,1.52,1.11,0.88,-1.11,0.32,36,-3,46,1.42,7056,11,91,41,37,881,420.0,305,466,60,122.0,121,1,304,193,51,0,0,294,1,2524,418,-5.59,,,,,,,,,,,,
16644,1564133185629,-0,2.61,1.06,0.45,1.52,1.12,0.93,-1.16,0.37,35,-2,46,1.49,7025,11,91,41,37,880,419.0,311,465,60,124.0,121,1,304,193,51,0,0,288,-6656,-26615,419,-5.59,44.680862,10.024598,39.68,176.5,0,0.0,-1,0.0,0.0,0,0.16,0.2774
16664,1564133185649,3,2.6,1.06,0.45,1.53,1.1,0.88,-1.1,0.48,35,-1,47,1.41,6952,11,91,41,37,880,418.0,303,463,60,123.0,121,1,304,193,51,0,0,288,-6656,-26615,419,-5.59,,,,,,,,,,,,
16684,1564133185669,1,2.62,1.06,0.45,1.53,1.11,0.87,-1.09,0.4,34,-1,48,1.4,6921,19,91,41,38,879,420.0,300,466,60,122.0,121,1,307,199,51,0,0,295,486,-9166,420,-5.59,,,,,,,,,,,,
16704,1564133185689,-0,2.62,1.06,0.45,1.53,1.11,0.87,-1.14,0.37,34,0,49,1.44,6885,27,91,41,40,879,416.0,313,463,60,124.0,121,1,317,205,51,0,0,315,0,18584,416,-5.59,,,,,,,,,,,,
16724,1564133185709,0,2.63,1.06,0.45,1.52,1.12,0.87,-1.08,0.33,34,-2,48,1.38,6850,37,91,41,45,878,415.0,300,462,60,122.0,132,1,353,214,55,0,0,315,0,18584,416,-5.59,,,,,,,,,,,,
16744,1564133185729,0,2.62,1.06,0.45,1.53,1.11,0.88,-1.15,0.28,35,-1,47,1.45,6858,41,91,41,51,877,414.0,300,463,60,125.0,132,1,380,237,55,0,0,368,230,9517,415,-5.59,44.680866,10.024586,39.21,176.5,0,0.0,-1,0.0,0.0,0,0.17,0.2791
16764,1564133185749,1,2.63,1.06,0.45,1.53,1.1,0.89,-1.06,0.39,35,-2,47,1.38,6843,47,91,41,58,875,415.0,295,462,60,125.0,132,1,405,270,55,0,0,370,-6656,9517,414,-5.59,,,,,,,,,,,,
16784,1564133185769,0,2.62,1.05,0.44,1.52,1.11,0.84,-1.09,0.34,35,-2,47,1.38,6783,52,91,41,65,874,412.0,292,464,60,122.0,132,1,397,301,55,0,0,367,230,-26615,413,-5.59,,,,,,,,,,,,
16804,1564133185789,2,2.62,1.06,0.44,1.52,1.11,0.85,-1.07,0.37,35,-3,48,1.37,6795,56,91,41,71,873,409.0,285,462,60,123.0,132,1,381,344,55,0,0,357,230,1504,409,-5.59,,,,,,,,,,,,
16824,1564133185809,-1,2.62,1.06,0.45,1.53,1.11,0.83,-1.07,0.37,34,-3,47,1.35,6858,58,91,41,75,876,408.0,288,466,60,123.0,132,1,378,417,55,0,0,332,-6405,6512,408,-5.59,,,,,,,,,,,,
16844,1564133185829,2,2.61,1.06,0.45,1.53,1.11,0.83,-1.07,0.36,34,-3,48,1.35,6888,58,91,41,78,880,409.0,285,466,60,124.0,264,1,377,446,108,0,0,314,3082,-8151,409,-5.59,44.68087,10.024573,38.72,176.5,0,0.0,-1,0.0,0.0,0,0.17,0.2807
16864,1564133185849,1,2.61,1.06,0.45,1.52,1.12,0.82,-0.99,0.34,33,-3,48,1.28,6934,59,91,41,79,884,409.0,280,461,60,121.0,264,1,377,454,108,0,0,300,3082,-26615,409,-5.59,,,,,,,,,,,,
16884,1564133185869,-0,2.6,1.06,0.45,1.52,1.11,0.82,-1.08,0.28,33,-3,48,1.36,7070,59,91,41,81,889,406.0,288,465,60,123.0,264,1,387,468,108,0,0,299,3082,-8151,408,-5.59,,,,,,,,,,,,
16904,1564133185893,-0,2.6,1.06,0.45,1.53,1.12,0.85,-1.05,0.44,32,-3,48,1.35,7367,59,91,41,82,970,407.0,288,467,60,123.0,264,1,400,478,108,0,0,299,3082,-8151,408,-5.59,,,,,,,,,,,,
16924,1564133185913,-1,2.61,1.06,0.45,1.53,1.12,0.81,-0.99,0.53,33,-2,46,1.28,7621,59,91,41,82,1034,406.0,285,465,60,123.0,334,1,422,473,136,0,0,319,-1268,-8151,405,-5.59,,,,,,,,,,,,
16944,1564133185933,1,2.61,1.06,0.45,1.53,1.12,0.8,-1.01,0.53,34,-2,45,1.29,8061,59,91,41,80,1080,406.0,289,467,60,124.0,334,1,437,467,136,0,0,360,2790,-8151,406,-5.59,44.680878,10.024564,37.92,176.5,0,0.0,-1,0.0,0.0,0,0.17,0.2824
16964,1564133185953,1,2.6,1.06,0.45,1.53,1.12,0.84,-1.03,0.51,34,-2,45,1.33,8480,59,91,41,77,1140,404.0,291,466,60,124.0,334,1,427,457,136,0,0,371,-6458,11560,404,-5.59,,,,,,,,,,,,
16984,1564133185973,3,2.6,1.06,0.44,1.52,1.12,0.81,-1.03,0.5,34,-1,45,1.31,8593,60,91,41,73,1209,404.0,290,465,60,123.0,334,1,426,416,136,0,0,371,-6458,11560,404,-5.59,,,,,,,,,,,,
17004,1564133185993,2,2.59,1.05,0.45,1.53,1.11,0.82,-1.0,0.62,34,-1,46,1.29,8457,60,91,41,71,1278,413.0,301,464,60,124.0,334,1,432,395,136,0,0,526,0,3826,413,-5.59,,,,,,,,,,,,
17024,1564133186002,-2,2.6,1.06,0.45,1.53,1.11,0.74,-1.03,0.69,34,2,46,1.27,8426,60,91,41,70,1304,418.0,308,463,60,124.0,334,1,434,320,136,0,0,489,0,-3856,417,-5.59,,,,,,,,,,,,
17044,1564133186022,2,2.58,1.06,0.45,1.53,1.11,0.77,-1.07,0.65,34,1,46,1.32,8366,60,91,41,70,1316,419.0,300,468,60,124.0,294,1,436,385,123,0,0,489,0,-3856,417,-5.59,44.680885,10.024553,37.85,176.5,0,0.0,-1,0.0,0.0,0,0.17,0.2841
17064,1564133186042,-1,2.58,1.05,0.45,1.53,1.11,0.72,-0.98,0.68,34,2,46,1.22,8230,60,91,41,71,1285,425.0,334,466,60,123.0,294,1,442,381,123,0,0,430,-6656,-3322,419,-5.59,,,,,,,,,,,,
17084,1564133186062,2,2.58,1.06,0.46,1.52,1.12,0.67,-0.96,0.73,34,3,45,1.17,7918,60,91,41,72,1255,427.0,341,465,60,124.0,294,1,439,394,123,0,0,416,8200,-768,425,-5.59,,,,,,,,,,,,
17104,1564133186082,3,2.57,1.06,0.45,1.53,1.12,0.65,-0.92,0.69,34,4,45,1.13,7871,60,91,41,74,1225,430.0,359,462,60,124.0,294,1,433,414,123,0,0,446,-18948,-28332,427,-5.59,,,,,,,,,,,,
17124,1564133186103,0,2.58,1.06,0.45,1.52,1.11,0.64,-0.9,0.69,33,3,44,1.1,7924,61,91,41,76,1175,432.0,380,464,60,124.0,300,1,433,435,130,0,0,442,-19126,21580,430,-5.59,,,,,,,,,,,,
17144,1564133186123,2,2.58,1.06,0.45,1.53,1.11,0.68,-0.91,0.73,32,2,43,1.13,8026,61,91,41,77,1166,429.0,389,466,60,122.0,300,1,438,442,130,0,0,410,505,21580,432,-5.59,44.680893,10.024545,38.63,176.5,0,0.0,-1,0.0,0.0,0,0.17,0.2857
17164,1564133186143,2,2.59,1.06,0.45,1.53,1.11,0.66,-0.94,0.69,32,1,42,1.15,8116,61,91,41,76,1158,433.0,413,465,60,123.0,300,1,436,445,130,0,0,413,-1562,26704,429,-5.59,,,,,,,,,,,,
17184,1564133186163,0,2.56,1.06,0.45,1.53,1.11,0.69,-0.89,0.68,32,-0,40,1.12,8241,61,91,41,76,1179,438.0,420,463,60,123.0,300,1,433,429,130,0,0,435,6384,-7939,435,-5.59,,,,,,,,,,,,
17204,1564133186191,2,2.56,1.06,0.45,1.52,1.12,0.71,-0.91,0.71,31,2,40,1.16,8457,61,91,41,74,1204,443.0,436,465,60,124.0,300,1,430,424,130,0,0,456,-8151,2131,443,-5.59,,,,,,,,,,,,
17224,1564133186211,2,2.54,1.06,0.46,1.53,1.12,0.76,-0.87,0.78,31,2,41,1.15,8628,61,91,41,73,1224,447.0,456,467,60,123.0,297,1,425,407,133,0,0,456,-8151,2131,443,-5.59,,,,,,,,,,,,
17244,1564133186231,2,2.51,1.06,0.45,1.53,1.11,0.71,-0.8,0.8,30,4,41,1.07,8798,62,91,41,71,1231,447.0,475,463,60,123.0,297,1,421,389,133,0,0,476,2524,16648,447,-5.59,44.680901,10.024537,40.79,176.5,0,0.0,-1,0.0,0.0,0,0.17,0.2874
17264,1564133186251,0,2.51,1.05,0.45,1.53,1.11,0.65,-0.81,0.81,30,6,41,1.03,8806,62,91,41,70,1220,450.0,501,467,60,124.0,297,1,421,389,133,0,0,434,-26615,-9160,453,-5.59,,,,,,,,,,,,
17284,1564133186271,0,2.51,1.06,0.45,1.53,1.11,0.51,-0.81,0.82,30,8,39,0.96,8733,63,91,41,69,1189,453.0,514,467,60,124.0,297,1,424,389,133,0,0,434,-26615,-9160,453,-5.59,,,,,,,,,,,,
17304,1564133186291,3,2.52,1.06,0.45,1.53,1.11,0.54,-0.81,0.86,29,7,39,0.98,8672,63,91,41,70,1171,456.0,531,464,60,124.0,297,1,425,389,133,0,0,463,-3414,3576,456,-5.59,,,,,,,,,,,,
17324,1564133186311,3,2.52,1.05,0.45,1.52,1.11,0.57,-0.83,0.89,28,6,38,1.01,8581,63,91,41,70,1149,457.0,531,462,60,122.0,275,1,428,389,126,0,0,463,-3414,3576,456,-5.59,,,,,,,,,,,,
17344,1564133186331,2,2.52,1.06,0.45,1.53,1.11,0.63,-0.78,0.96,27,5,37,1.0,8480,63,91,41,71,1136,457.0,526,461,60,123.0,275,1,431,389,126,0,0,456,-3322,16408,457,-5.59,44.680908,10.024529,41.91,176.5,0,0.0,-1,0.0,0.0,0,0.17,0.2891
17364,1564133186351,3,2.52,1.06,0.46,1.52,1.12,0.61,-0.81,0.83,27,3,35,1.01,8491,64,92,41,71,1140,459.0,516,469,60,124.0,275,1,431,396,126,0,0,446,243,8488,457,-5.59,,,,,,,,,,,,
17384,1564133186371,2,2.52,1.06,0.45,1.53,1.11,0.66,-0.83,0.86,27,2,35,1.05,8668,67,91,41,72,1148,464.0,504,466,60,124.0,275,1,424,397,126,0,0,511,-768,-3210,464,-5.59,,,,,,,,,,,,
17404,1564133186391,2,2.49,1.06,0.45,1.53,1.11,0.66,-0.74,0.81,27,-1,34,1.0,8928,78,91,41,75,1169,464.0,510,464,60,123.0,275,1,416,425,126,0,0,511,-768,-3210,464,-5.59,,,,,,,,,,,,
17424,1564133186410,3,2.5,1.06,0.46,1.53,1.11,0.72,-0.76,0.78,27,-2,33,1.04,9071,91,91,41,80,1181,469.0,520,471,60,123.0,275,1,415,485,126,0,0,512,21580,-1923,469,-5.59,,,,,,,,,,,,
17444,1564133186430,3,2.49,1.07,0.45,1.52,1.11,0.7,-0.68,0.73,26,-1,34,0.98,9337,100,91,41,85,1194,472.0,537,466,60,123.0,364,1,418,551,171,0,0,535,21580,-1923,472,-5.59,44.68092,10.024524,43.82,176.5,0,0.0,-1,0.0,0.0,0,0.17,0.2907
17464,1564133186450,2,2.49,1.06,0.46,1.53,1.11,0.71,-0.63,0.58,27,-1,34,0.95,9659,100,91,41,86,1209,472.0,555,462,60,124.0,364,1,412,577,171,0,0,448,2131,-6441,472,-5.59,,,,,,,,,,,,
17484,1564133186470,1,2.5,1.06,0.45,1.52,1.12,0.74,-0.59,0.62,27,-0,34,0.95,9775,100,91,41,86,1232,480.0,580,471,60,123.0,364,1,406,580,171,0,0,448,2131,-6441,472,-5.59,,,,,,,,,,,,
17504,1564133186490,-0,2.49,1.06,0.45,1.52,1.11,0.67,-0.66,0.61,26,2,34,0.95,9873,100,91,41,86,1254,486.0,600,466,60,124.0,364,1,402,583,171,0,0,528,15649,771,480,-5.59,,,,,,,,,,,,
17524,1564133186508,2,2.47,1.06,0.46,1.52,1.11,0.7,-0.7,0.69,26,3,34,0.99,10021,100,91,41,86,1261,491.0,613,468,60,122.0,364,1,397,585,171,0,0,504,-3267,-3482,491,-5.59,,,,,,,,,,,,
17544,1564133186528,2,2.48,1.06,0.45,1.52,1.11,0.63,-0.71,0.82,26,4,34,0.94,9915,100,91,41,85,1261,495.0,622,467,60,122.0,452,1,399,583,222,0,0,504,-3267,-3482,491,-5.59,44.680927,10.024518,45.33,176.5,0,0.0,-1,0.0,0.0,0,0.17,0.2924
17564,1564133186548,-1,2.48,1.06,0.46,1.53,1.11,0.66,-0.74,0.8,26,4,33,0.99,9730,100,91,41,86,1251,500.0,621,461,60,123.0,452,1,408,579,222,0,0,553,16408,6274,500,-5.59,,,,,,,,,,,,
17584,1564133186568,2,2.46,1.06,0.45,1.53,1.11,0.68,-0.74,0.92,26,3,32,1.0,9755,100,91,41,86,1238,507.0,614,469,60,123.0,452,1,407,579,222,0,0,553,16408,6274,500,-5.59,,,,,,,,,,,,
17604,1564133186588,0,2.45,1.06,0.45,1.52,1.12,0.72,-0.76,0.92,26,3,31,1.04,9842,100,91,41,86,1215,509.0,618,458,60,123.0,452,1,403,582,222,0,0,502,243,14504,509,-5.59,,,,,,,,,,,,
17624,1564133186606,3,2.45,1.06,0.45,1.53,1.11,0.67,-0.69,1.02,25,3,30,0.96,9852,100,91,41,86,1191,512.0,616,468,60,123.0,423,1,403,582,217,0,0,502,243,14504,509,-5.59,,,,,,,,,,,,
17644,1564133186626,0,2.42,1.06,0.46,1.53,1.11,0.56,-0.69,1.09,24,2,29,0.89,9931,100,91,41,86,1151,516.0,617,468,60,123.0,423,1,400,584,217,0,0,534,-9203,6274,512,-5.59,44.680943,10.024513,46.43,176.4,0,0.0,-1,0.0,0.0,0,0.18,0.2941
17664,1564133186646,3,2.41,1.06,0.45,1.53,1.11,0.54,-0.67,1.1,24,1,28,0.86,10173,100,91,41,86,1124,520.0,625,460,60,123.0,423,1,408,585,217,0,0,555,-1562,-2934,516,-5.59,,,,,,,,,,,,
17684,1564133186666,2,2.41,1.06,0.45,1.52,1.12,0.53,-0.63,1.18,23,1,27,0.82,10313,100,91,41,86,1117,524.0,628,468,60,123.0,423,1,418,585,217,0,0,539,-6528,-2934,520,-5.59,,,,,,,,,,,,
17704,1564133186686,3,2.4,1.06,0.46,1.53,1.12,0.48,-0.63,1.25,22,1,27,0.79,10533,100,91,41,86,1104,528.0,635,467,60,123.0,423,1,432,585,217,0,0,545,15661,-28648,524,-5.59,,,,,,,,,,,,
17724,1564133186706,4,2.39,1.06,0.45,1.53,1.12,0.43,-0.56,1.24,21,1,28,0.71,10659,100,91,41,86,1092,531.0,640,468,60,122.0,444,1,436,585,236,0,0,567,15661,-3190,528,-5.59,,,,,,,,,,,,
17744,1564133186726,2,2.39,1.06,0.45,1.53,1.11,0.36,-0.53,1.14,21,1,28,0.64,10788,100,91,41,86,1074,539.0,642,464,60,123.0,444,1,439,567,236,0,0,548,-3856,1267,531,-5.59,44.680954,10.024508,48.97,176.4,0,0.0,-1,0.0,0.0,0,0.18,0.2957
17764,1564133186746,1,2.39,1.06,0.45,1.53,1.11,0.4,-0.39,1.11,20,0,27,0.56,10775,100,91,41,86,1070,541.0,637,468,60,123.0,444,1,439,567,236,0,0,589,2524,-3190,544,-5.59,,,,,,,,,,,,
17784,1564133186766,1,2.38,1.06,0.45,1.53,1.11,0.4,-0.45,0.96,20,1,25,0.6,10850,100,91,41,86,1064,546.0,636,468,60,123.0,444,1,439,567,236,0,0,576,2524,774,548,-5.59,,,,,,,,,,,,
17804,1564133186786,2,2.36,1.05,0.46,1.52,1.12,0.42,-0.49,1.06,18,1,24,0.64,10850,100,91,41,86,1048,553.0,617,470,60,122.0,444,1,441,585,236,0,0,576,2524,774,548,-5.59,,,,,,,,,,,,
17824,1564133186808,3,2.35,1.06,0.46,1.53,1.11,0.39,-0.44,1.03,16,1,24,0.59,10819,100,91,41,86,1028,558.0,630,465,60,123.0,430,1,440,585,240,0,0,575,2104,15649,553,-5.59,,,,,,,,,,,,
17844,1564133186828,2,2.34,1.06,0.46,1.53,1.12,0.37,-0.39,1.03,16,1,23,0.54,10863,100,91,41,85,1018,561.0,634,463,60,123.0,430,1,440,567,240,0,0,576,-2336,-28648,558,-5.59,44.680965,10.024505,51.67,176.4,0,0.0,-1,0.0,0.0,0,0.18,0.2974
17864,1564133186848,3,2.33,1.06,0.46,1.53,1.11,0.35,-0.28,0.94,15,0,22,0.45,10863,100,91,41,86,1011,565.0,635,464,60,123.0,430,1,441,585,240,0,0,599,-9072,-12040,565,-5.59,,,,,,,,,,,,
17884,1564133186868,2,2.33,1.05,0.46,1.52,1.12,0.38,-0.39,1.04,14,1,19,0.55,10926,100,91,41,85,998,567.0,641,471,60,123.0,430,1,442,567,240,0,0,599,-9072,-12040,565,-5.59,,,,,,,,,,,,
17904,1564133186888,1,2.32,1.05,0.46,1.52,1.12,0.39,-0.36,1.05,12,1,18,0.53,11061,100,91,41,85,990,572.0,642,468,60,122.0,430,1,444,567,240,0,0,592,-2934,-12040,573,-5.59,,,,,,,,,,,,
17924,1564133186910,3,2.31,1.06,0.46,1.52,1.12,0.39,-0.28,1.02,10,0,17,0.48,11127,100,91,41,85,986,577.0,643,470,60,123.0,430,1,443,567,240,0,0,595,-3190,-23055,577,-5.59,,,,,,,,,,,,
17944,1564133186930,2,2.32,1.05,0.46,1.52,1.12,0.49,-0.33,1.12,9,0,15,0.59,11220,100,92,41,85,985,579.0,648,465,60,123.0,415,1,443,567,240,0,0,595,-3190,-23055,577,-5.59,44.680981,10.024503,54.2,176.3,0,0.0,-1,0.0,0.0,0,0.18,0.2991
17964,1564133186950,1,2.31,1.05,0.46,1.52,1.11,0.4,-0.23,1.0,8,-1,14,0.46,11370,100,92,41,85,985,585.0,648,465,60,123.0,415,1,441,567,240,0,0,602,-3210,-3820,578,-5.59,,,,,,,,,,,,
17984,1564133186970,-1,2.31,1.05,0.46,1.53,1.11,0.4,-0.25,1.1,7,-0,12,0.47,11517,100,91,41,85,985,590.0,648,462,60,123.0,415,1,440,567,240,0,0,607,8488,19621,585,-5.59,,,,,,,,,,,,
18004,1564133186990,3,2.3,1.06,0.45,1.52,1.12,0.4,-0.21,1.05,6,-1,10,0.45,11609,100,92,41,84,986,592.0,650,465,60,123.0,415,1,440,551,240,0,0,623,-28648,3395,592,-5.59,,,,,,,,,,,,
18024,1564133187002,3,2.3,1.05,0.45,1.52,1.11,0.49,-0.08,0.84,4,-3,12,0.49,11696,100,91,41,84,987,597.0,653,462,60,123.0,407,1,440,552,243,0,0,623,-28648,3395,592,-5.59,,,,,,,,,,,,
18044,1564133187022,2,2.3,1.05,0.45,1.52,1.11,0.54,-0.02,0.89,4,-4,11,0.54,11726,100,92,41,84,976,600.0,655,467,60,123.0,407,1,440,554,243,0,0,624,-13043,-18357,596,-5.59,44.680992,10.0245,56.33,176.3,0,0.0,-1,0.0,0.0,0,0.18,0.3007
18064,1564133187042,3,2.29,1.05,0.45,1.51,1.11,0.58,-0.03,0.98,4,-4,10,0.58,11777,100,92,41,84,965,606.0,656,466,60,123.0,407,1,440,555,243,0,0,626,-3210,-14655,600,-5.59,,,,,,,,,,,,
18084,1564133187062,0,2.3,1.05,0.45,1.51,1.11,0.62,-0.17,1.08,3,-3,8,0.65,11829,100,91,41,84,956,609.0,650,468,60,122.0,407,1,440,556,243,0,0,639,28675,966,611,-5.59,,,,,,,,,,,,
18104,1564133187092,2,2.29,1.04,0.45,1.52,1.11,0.61,-0.25,1.17,2,-3,5,0.66,11904,100,92,41,84,940,615.0,654,466,60,122.0,407,1,440,559,243,0,0,639,28675,966,611,-5.59,,,,,,,,,,,,
18124,1564133187112,2,2.29,1.05,0.45,1.52,1.11,0.57,-0.31,1.25,2,-3,2,0.65,12011,100,92,41,84,927,619.0,658,470,60,122.0,407,1,440,560,243,0,0,643,30721,-2830,618,-5.59,,,,,,,,,,,,
18144,1564133187132,1,2.29,1.05,0.46,1.51,1.11,0.55,-0.44,1.16,1,-3,0,0.71,12120,100,92,41,84,905,626.0,661,466,60,122.0,412,1,440,560,255,0,0,654,506,479,622,-5.59,44.681007,10.024498,59.02,176.2,0,0.0,-1,0.0,0.0,0,0.18,0.3024
18164,1564133187152,3,2.29,1.05,0.45,1.51,1.1,0.62,-0.57,1.12,1,-2,-1,0.84,12199,100,92,41,84,888,628.0,661,468,60,123.0,412,1,440,560,255,0,0,654,506,479,622,-5.59,,,,,,,,,,,,
18184,1564133187172,2,2.28,1.05,0.45,1.51,1.1,0.71,-0.62,1.17,0,-2,-1,0.95,12335,100,92,41,84,879,633.0,664,465,60,123.0,412,1,440,560,255,0,0,657,-16046,2024,623,-5.59,,,,,,,,,,,,
18204,1564133187192,4,2.28,1.04,0.45,1.51,1.1,0.78,-0.41,1.25,0,-4,-1,0.88,12417,100,92,41,84,868,638.0,662,466,60,122.0,412,1,440,560,255,0,0,657,-5120,8958,628,-5.59,,,,,,,,,,,,
18224,1564133187212,0,2.28,1.05,0.46,1.51,1.11,0.77,-0.17,1.16,0,-6,1,0.79,12500,100,92,41,83,851,639.0,665,461,60,122.0,412,1,440,560,255,0,0,672,6208,-2826,638,414.87,,,,,,,,,,,,
18244,1564133187232,2,2.28,1.05,0.45,1.51,1.1,0.7,-0.22,1.13,-1,-5,-0,0.73,12533,100,92,41,84,837,645.0,666,459,60,122.0,404,1,440,560,258,0,0,672,4909,-26380,642,-5.59,44.681023,10.024496,61.24,176.2,0,0.0,-1,0.0,0.0,0,0.18,0.3041
18264,1564133187252,3,2.28,1.05,0.45,1.51,1.1,0.62,-0.33,1.19,-1,-5,1,0.7,12533,100,92,41,84,828,648.0,668,462,60,122.0,404,1,440,560,258,0,0,672,4909,-26380,642,-5.59,,,,,,,,,,,,
18284,1564133187272,1,2.28,1.04,0.44,1.52,1.1,0.63,-0.25,1.22,-1,-6,0,0.68,12600,100,92,41,84,814,651.0,667,460,60,122.0,404,1,440,560,258,0,0,672,479,-26892,645,-5.59,,,,,,,,,,,,
18304,1564133187292,2,2.28,1.04,0.45,1.51,1.1,0.58,-0.13,1.23,-1,-5,-1,0.59,12686,100,92,41,84,803,658.0,665,465,60,122.0,404,1,440,560,258,0,0,682,-2830,24845,656,-5.59,,,,,,,,,,,,
18324,1564133187312,2,2.28,1.05,0.45,1.51,1.1,0.61,-0.16,1.23,-1,-7,-3,0.63,12781,100,92,41,84,789,661.0,665,463,60,122.0,411,1,440,560,271,0,0,682,-2830,24845,656,-5.59,,,,,,,,,,,,
18344,1564133187332,3,2.29,1.04,0.45,1.51,1.11,0.62,-0.18,1.23,-2,-6,-2,0.64,12833,100,91,41,84,784,664.0,665,465,60,122.0,411,1,440,560,271,0,0,1116,3543,16118,663,-5.59,44.681038,10.024493,62.83,176.2,0,0.0,-1,0.0,0.0,0,0.19,0.3057
18364,1564133187352,-2,2.29,1.05,0.45,1.5,1.11,0.48,-0.04,1.12,-2,-5,-3,0.49,12842,100,92,41,84,777,667.0,663,465,60,122.0,411,1,440,560,271,0,0,1116,3543,16118,663,-5.59,,,,,,,,,,,,
18384,1564133187372,0,2.29,1.04,0.45,1.5,1.11,0.64,-0.1,1.13,-2,-7,-2,0.65,12450,100,93,41,83,770,673.0,656,464,60,125.0,411,1,440,545,271,0,0,687,-26380,14342,669,414.87,,,,,,,,,,,,
18404,1564133187392,-0,2.29,1.04,0.45,1.51,1.1,0.75,0.02,1.21,-2,-9,-0,0.75,11996,100,93,41,85,763,673.0,648,457,60,125.0,411,1,440,577,271,0,0,687,-26380,14342,669,181.28,,,,,,,,,,,,
18424,1564133187409,-1,2.31,1.04,0.44,1.51,1.1,0.88,0.03,1.29,-2,-9,1,0.88,11740,100,93,41,86,763,672.0,647,458,60,124.0,388,1,440,589,261,0,0,678,-3038,-26892,673,414.87,,,,,,,,,,,,
18444,1564133187429,0,2.32,1.05,0.45,1.5,1.11,0.93,-0.17,1.31,-2,-7,-0,0.94,11510,100,93,41,86,778,673.0,643,460,60,124.0,388,1,440,585,261,0,0,674,-3038,-388,672,181.28,44.681053,10.02449,65.07,176.1,0,0.0,-1,0.0,0.0,0,0.19,0.3074
18464,1564133187449,-0,2.33,1.04,0.44,1.51,1.1,0.86,-0.13,1.04,-2,-6,-1,0.87,11281,100,93,41,87,804,672.0,640,462,60,124.0,388,1,443,1084,261,0,0,675,-10344,-388,672,181.28,,,,,,,,,,,,
18484,1564133187469,3,2.33,1.05,0.45,1.51,1.1,0.89,-0.11,1.13,-2,-9,1,0.9,11088,100,92,41,88,846,674.0,648,457,60,121.0,388,1,447,1044,261,0,0,675,-10344,-388,672,-5.59,,,,,,,,,,,,
18504,1564133187489,2,2.34,1.05,0.44,1.51,1.1,0.77,-0.07,0.92,-1,-3,-0,0.77,10533,100,91,41,88,871,681.0,638,456,60,123.0,388,1,434,936,261,0,0,681,-388,6208,672,-5.59,,,,,,,,,,,,
18524,1564133187507,2,2.33,1.05,0.45,1.51,1.1,0.67,-0.04,1.03,-0,0,1,0.67,10102,100,92,41,87,933,687.0,632,464,60,123.0,448,1,403,803,308,0,0,779,-26892,-2574,681,-5.59,,,,,,,,,,,,
18544,1564133187527,3,2.34,1.05,0.45,1.51,1.11,0.7,-0.05,1.12,-0,1,2,0.7,10190,100,92,41,86,1051,690.0,632,460,60,123.0,448,1,409,675,308,0,0,791,-10344,-22795,687,-5.59,44.681068,10.024488,66.49,176.1,0,0.0,-1,0.0,0.0,0,0.19,0.3091
18564,1564133187547,3,2.33,1.05,0.44,1.51,1.1,0.65,-0.04,1.18,1,2,1,0.65,10096,100,92,41,86,1162,696.0,630,465,60,123.0,448,1,402,585,308,0,0,704,-10399,-2830,692,-5.59,,,,,,,,,,,,
18584,1564133187567,2,2.34,1.05,0.45,1.51,1.11,0.66,-0.1,1.22,1,3,1,0.67,9832,100,92,41,86,1244,700.0,629,466,60,123.0,448,1,404,583,308,0,0,723,1780,-2826,696,-5.59,,,,,,,,,,,,
18604,1564133187587,3,2.34,1.05,0.45,1.52,1.11,0.68,-0.13,1.29,1,3,1,0.69,9740,100,92,41,86,1307,707.0,624,465,60,122.0,448,1,408,579,308,0,0,742,-10448,-2314,700,-5.59,,,,,,,,,,,,
18624,1564133187608,2,2.34,1.04,0.45,1.51,1.11,0.62,-0.13,1.24,1,1,1,0.63,9750,100,92,41,86,1286,710.0,623,465,60,124.0,301,1,407,581,214,0,0,731,19188,-4091,705,-5.59,,,,,,,,,,,,
18644,1564133187628,4,2.34,1.05,0.44,1.51,1.11,0.58,-0.08,1.25,1,-1,-0,0.59,9936,100,92,41,86,1257,712.0,631,460,60,123.0,301,1,399,584,214,0,0,730,15647,-22796,710,-5.59,44.681084,10.024485,67.13,176.0,0,0.0,-1,0.0,0.0,0,0.19,0.3107
18664,1564133187648,2,2.34,1.05,0.44,1.52,1.1,0.51,-0.1,1.23,2,-1,-1,0.52,10075,100,92,41,86,1150,714.0,627,463,60,123.0,301,1,401,585,214,0,0,732,6658,3462,714,-5.59,,,,,,,,,,,,
18684,1564133187668,2,2.34,1.05,0.45,1.51,1.11,0.5,-0.16,1.2,2,-0,-1,0.52,10184,100,92,41,86,1069,718.0,629,466,60,124.0,301,1,412,585,214,0,0,752,-3888,-22796,714,-5.59,,,,,,,,,,,,
18704,1564133187688,0,2.34,1.05,0.45,1.52,1.1,0.49,-0.13,1.13,2,-1,-0,0.51,10273,100,92,41,86,957,725.0,630,465,60,123.0,301,1,415,585,214,0,0,747,-31068,-22796,721,-5.59,,,,,,,,,,,,
18724,1564133187707,-0,2.34,1.05,0.46,1.52,1.1,0.52,-0.03,1.05,1,-1,1,0.53,10324,100,92,41,86,870,730.0,633,465,60,123.0,313,1,419,585,229,0,0,755,-31068,-3368,725,-5.59,,,,,,,,,,,,
18744,1564133187727,1,2.34,1.05,0.45,1.52,1.1,0.56,-0.02,1.05,2,-1,2,0.56,10376,100,92,41,86,885,733.0,632,470,60,122.0,313,1,423,585,229,0,0,767,-3344,-3038,736,-5.59,44.681103,10.024482,70.29,176.0,0,0.0,-1,0.0,0.0,0,0.19,0.3124
18764,1564133187747,4,2.35,1.05,0.45,1.52,1.1,0.58,0.02,1.05,2,-2,3,0.58,10341,100,92,41,86,907,740.0,632,466,60,122.0,313,1,420,585,229,0,0,767,-3344,-3038,736,-5.59,,,,,,,,,,,,
18784,1564133187767,4,2.34,1.05,0.45,1.52,1.11,0.56,-0.04,1.08,2,-2,4,0.56,10376,100,92,41,86,940,744.0,637,460,60,123.0,313,1,423,585,229,0,0,759,-2826,6900,740,-5.59,,,,,,,,,,,,
18804,1564133187787,4,2.34,1.05,0.45,1.52,1.1,0.51,-0.09,1.12,3,-0,4,0.52,10364,100,92,41,86,960,747.0,632,468,60,123.0,313,1,422,585,229,0,0,759,-31066,-2344,744,-5.59,,,,,,,,,,,,
18824,1564133187807,4,2.34,1.05,0.44,1.52,1.1,0.47,-0.17,1.21,3,-0,3,0.5,10469,100,92,41,86,977,751.0,634,466,60,122.0,308,1,429,585,232,0,0,765,-13068,13016,746,-5.59,,,,,,,,,,,,
18844,1564133187827,5,2.34,1.05,0.45,1.52,1.1,0.57,-0.24,1.28,3,-1,2,0.62,10504,90,91,41,85,982,751.0,636,464,60,123.0,308,1,431,567,232,0,0,773,-2314,-2426,752,-5.59,44.681122,10.024479,71.62,176.0,0,0.0,-1,0.0,0.0,0,0.2,0.3141
18864,1564133187847,9,2.34,1.04,0.45,1.52,1.1,0.56,-0.35,1.26,3,-1,2,0.66,10587,71,91,41,81,986,755.0,635,468,60,123.0,308,1,432,523,232,0,0,769,6790,-10212,755,-5.59,,,,,,,,,,,,
18884,1564133187867,13,2.35,1.05,0.45,1.51,1.11,0.53,-0.41,1.29,3,-1,1,0.67,10521,56,92,41,73,993,753.0,635,468,60,122.0,308,1,436,464,232,0,0,769,6790,-10212,755,-5.59,,,,,,,,,,,,
18904,1564133187891,18,2.35,1.05,0.44,1.51,1.11,0.61,-0.52,1.35,3,-1,0,0.8,10474,45,91,41,66,995,749.0,632,462,60,123.0,308,1,442,429,232,0,0,779,-2826,-10212,753,-5.59,,,,,,,,,,,,
18924,1564133187911,19,2.35,1.05,0.45,1.52,1.1,0.68,-0.62,1.39,3,-3,-1,0.92,10313,37,92,41,60,996,752.0,632,463,60,123.0,194,1,429,373,146,0,0,779,-2826,-10212,753,-5.59,,,,,,,,,,,,
18944,1564133187931,23,2.35,1.06,0.45,1.52,1.1,0.65,-0.6,1.27,3,-2,-1,0.88,10234,33,92,41,55,991,747.0,632,469,60,123.0,194,1,404,330,146,0,0,770,-2826,-10216,747,-5.59,44.681141,10.024477,74.04,176.0,0,0.0,-1,0.0,0.0,0,0.2,0.3157
18964,1564133187951,24,2.35,1.05,0.45,1.51,1.1,0.65,-0.44,1.04,4,-2,1,0.79,10129,32,92,41,52,978,746.0,628,468,60,123.0,194,1,394,292,146,0,0,770,-2826,-10216,747,-5.59,,,,,,,,,,,,
18984,1564133187971,24,2.36,1.05,0.44,1.51,1.1,0.77,-0.41,0.94,5,-5,2,0.88,9884,32,92,41,49,970,744.0,631,460,60,123.0,194,1,385,259,146,0,0,743,-2358,-4096,744,-5.59,,,,,,,,,,,,
19004,1564133187991,25,2.37,1.05,0.44,1.53,1.1,0.72,-0.42,0.88,5,-4,1,0.84,9654,32,92,41,49,957,741.0,629,464,60,123.0,194,1,385,257,146,0,0,743,-2358,-4096,744,-5.59,,,,,,,,,,,,
19024,1564133188003,25,2.37,1.06,0.45,1.52,1.1,0.85,-0.48,0.82,5,-5,2,0.97,9450,32,92,41,48,937,740.0,627,466,60,122.0,194,1,382,253,146,0,0,700,1524,-22796,740,-5.59,,,,,,,,,,,,
19044,1564133188023,26,2.36,1.06,0.44,1.52,1.1,0.95,-0.4,0.77,6,-6,2,1.03,9245,32,92,41,48,902,738.0,621,470,60,123.0,117,1,377,167,87,0,0,687,-2830,-13580,735,-5.59,44.68116,10.024474,74.78,175.9,0,0.0,-1,0.0,0.0,0,0.2,0.3174
19064,1564133188043,23,2.36,1.05,0.44,1.51,1.11,0.96,-0.29,0.72,6,-5,4,1.0,9049,31,92,41,48,864,731.0,613,468,60,123.0,117,1,374,237,87,0,0,687,-2830,-13580,735,-5.59,,,,,,,,,,,,
19084,1564133188063,22,2.36,1.05,0.44,1.51,1.1,1.04,-0.27,0.66,7,-5,5,1.08,8924,31,92,41,47,840,727.0,606,468,60,124.0,117,1,370,227,87,0,0,662,-2560,-13580,731,-5.59,,,,,,,,,,,,
19104,1564133188091,22,2.36,1.06,0.44,1.51,1.1,1.07,-0.23,0.64,7,-4,5,1.1,8840,31,92,41,47,828,725.0,599,471,60,123.0,117,1,370,226,87,0,0,646,687,16118,722,-5.59,,,,,,,,,,,,
19124,1564133188111,21,2.37,1.05,0.45,1.51,1.1,1.17,-0.24,0.66,8,-5,6,1.19,8773,31,92,41,47,816,720.0,597,462,60,121.0,102,1,370,225,74,0,0,646,687,16118,722,-5.59,,,,,,,,,,,,
19144,1564133188131,19,2.37,1.06,0.44,1.52,1.1,1.25,-0.24,0.63,8,-4,6,1.27,8882,30,92,41,46,811,711.0,600,462,60,124.0,102,1,363,224,74,0,0,639,-10448,24,712,181.28,44.681179,10.024472,73.77,175.9,0,0.0,-1,0.0,0.0,0,0.2,0.3191
19164,1564133188151,19,2.37,1.05,0.44,1.52,1.1,1.3,-0.26,0.61,7,-5,6,1.33,8890,30,92,41,46,825,707.0,603,459,60,124.0,102,1,363,224,74,0,0,616,-2830,-26892,707,181.28,,,,,,,,,,,,
19184,1564133188171,18,2.37,1.05,0.45,1.51,1.1,1.29,-0.29,0.6,7,-4,6,1.32,8806,30,92,41,46,840,699.0,604,462,60,122.0,102,1,363,224,74,0,0,596,16599,16118,701,181.28,,,,,,,,,,,,
19204,1564133188191,19,2.36,1.05,0.44,1.52,1.09,1.18,-0.31,0.45,7,-2,8,1.22,8676,30,92,41,46,857,698.0,601,461,60,121.0,102,1,363,224,74,0,0,580,3543,6208,698,-5.59,,,,,,,,,,,,
19224,1564133188211,18,2.37,1.05,0.45,1.52,1.1,1.16,-0.3,0.35,8,-2,7,1.2,8480,30,92,41,47,874,690.0,589,463,60,123.0,102,1,370,223,71,0,0,580,3543,6208,698,181.28,,,,,,,,,,,,
19244,1564133188231,20,2.37,1.06,0.45,1.51,1.11,1.24,-0.38,0.42,8,-2,8,1.3,8449,30,92,41,48,877,687.0,587,461,60,121.0,102,1,372,355,71,0,0,586,-388,24,687,-5.59,44.681194,10.02447,71.04,175.9,0,0.0,-1,0.0,0.0,0,0.2,0.3207
19264,1564133188251,17,2.37,1.05,0.45,1.51,1.1,1.28,-0.3,0.35,9,-0,8,1.32,8624,29,91,40,47,888,681.0,560,468,60,123.0,102,1,370,316,71,0,0,586,-388,24,687,-5.59,,,,,,,,,,,,
19284,1564133188271,18,2.36,1.05,0.44,1.52,1.1,1.35,-0.33,0.34,8,-5,12,1.39,8967,29,91,40,45,932,677.0,558,463,60,122.0,102,1,357,287,71,0,0,537,-2826,771,681,-5.59,,,,,,,,,,,,
19304,1564133188291,19,2.37,1.05,0.44,1.51,1.11,1.23,-0.47,0.29,8,-1,10,1.31,9259,29,91,40,44,966,670.0,511,472,60,123.0,102,1,354,257,71,0,0,502,-26380,-7939,677,-5.59,,,,,,,,,,,,
19324,1564133188311,16,2.37,1.05,0.45,1.51,1.09,1.26,-0.55,0.16,8,2,11,1.37,9659,29,91,40,43,989,668.0,471,458,60,123.0,102,1,350,231,71,0,0,729,-8429,2211,668,-5.59,,,,,,,,,,,,
19344,1564133188331,16,2.36,1.05,0.44,1.51,1.09,1.24,-0.47,0.1,9,2,11,1.33,9832,29,91,40,42,1027,659.0,508,469,60,123.0,124,1,342,219,83,0,0,729,-8429,2211,668,-5.59,44.681213,10.02447,68.24,175.9,0,0.0,-1,0.0,0.0,0,0.21,0.3224
19364,1564133188351,17,2.37,1.05,0.44,1.51,1.09,1.21,-0.54,0.12,10,1,12,1.33,10113,29,91,40,41,1049,655.0,527,461,60,124.0,124,1,335,221,83,0,0,452,-2836,506,653,-5.59,,,,,,,,,,,,
19384,1564133188371,17,2.36,1.05,0.44,1.52,1.1,1.23,-0.68,0.17,10,3,10,1.41,10245,29,91,40,40,1081,650.0,574,465,60,123.0,124,1,327,217,83,0,0,452,-2836,506,653,-5.59,,,,,,,,,,,,
19404,1564133188393,16,2.37,1.04,0.44,1.51,1.1,1.16,-0.75,0.13,10,2,10,1.38,10313,29,91,40,40,1080,643.0,611,465,60,124.0,124,1,327,217,83,0,0,427,-16046,-4876,650,-5.59,,,,,,,,,,,,
19424,1564133188413,15,2.37,1.05,0.44,1.52,1.1,1.1,-0.73,0.07,10,3,10,1.32,10206,29,91,40,40,1065,642.0,625,466,60,123.0,130,1,327,217,84,0,0,430,-1346,-2830,644,-5.59,,,,,,,,,,,,
19444,1564133188433,14,2.36,1.06,0.44,1.51,1.09,1.19,-0.61,0.01,10,3,11,1.34,10151,29,91,40,40,1027,632.0,623,470,60,124.0,130,1,327,217,84,0,0,451,19304,-2836,632,-5.59,44.681229,10.024469,65.43,175.9,0,0.0,-1,0.0,0.0,0,0.21,0.3241
19464,1564133188453,17,2.37,1.05,0.44,1.51,1.1,1.23,-0.64,0.04,10,2,11,1.39,10080,29,91,40,40,963,631.0,628,467,60,124.0,130,1,327,217,84,0,0,451,19304,-2836,632,-5.59,,,,,,,,,,,,
19484,1564133188473,16,2.37,1.05,0.44,1.52,1.1,1.28,-0.69,0.12,10,2,11,1.45,10010,28,91,40,41,925,624.0,631,466,60,124.0,130,1,335,217,84,0,0,497,17740,-18357,624,-5.59,,,,,,,,,,,,
19504,1564133188493,15,2.36,1.05,0.44,1.51,1.09,1.28,-0.59,0.08,9,1,11,1.41,10021,28,91,40,41,863,617.0,631,469,60,124.0,130,1,335,221,84,0,0,497,17740,-18357,624,-5.59,,,,,,,,,,,,
19524,1564133188508,16,2.37,1.05,0.45,1.52,1.09,1.33,-0.53,0.08,9,3,11,1.44,10048,28,91,40,41,828,612.0,625,472,60,122.0,137,1,335,221,84,0,0,487,243,-30139,617,-5.59,,,,,,,,,,,,
19544,1564133188528,17,2.36,1.05,0.44,1.52,1.09,1.37,-0.58,0.16,8,1,11,1.49,10016,28,91,40,41,780,607.0,632,468,60,124.0,137,1,335,221,84,0,0,468,-13043,-4035,607,-5.59,44.681244,10.02447,63.01,176.0,0,0.0,-1,0.0,0.0,0,0.21,0.3257
19564,1564133188548,15,2.37,1.05,0.44,1.52,1.1,1.3,-0.48,0.11,8,-0,12,1.39,10021,28,91,40,41,770,602.0,630,467,60,124.0,137,1,335,221,84,0,0,468,-13043,-4035,607,-5.59,,,,,,,,,,,,
19584,1564133188568,18,2.36,1.05,0.44,1.52,1.1,1.37,-0.42,0.07,8,3,11,1.43,10069,27,91,40,40,771,598.0,633,466,60,123.0,137,1,327,221,84,0,0,492,-1894,8488,597,-5.59,,,,,,,,,,,,
19604,1564133188588,16,2.36,1.05,0.44,1.52,1.1,1.38,-0.51,0.15,8,0,11,1.47,10053,27,91,40,40,781,592.0,639,464,60,123.0,137,1,327,217,84,0,0,492,-1894,8488,597,-5.59,,,,,,,,,,,,
19624,1564133188608,16,2.36,1.05,0.44,1.52,1.09,1.32,-0.49,0.12,7,1,11,1.41,10140,27,91,40,39,789,587.0,633,466,60,124.0,137,1,320,214,84,0,0,524,-8188,243,585,-5.59,,,,,,,,,,,,
19644,1564133188628,15,2.37,1.06,0.44,1.51,1.09,1.27,-0.26,-0.02,7,3,11,1.3,10336,27,91,40,39,799,580.0,639,468,60,124.0,141,1,320,214,83,0,0,524,-8188,243,585,-5.59,44.681263,10.024471,60.36,176.0,0,0.0,-1,0.0,0.0,0,0.21,0.3274
19664,1564133188648,14,2.38,1.05,0.44,1.52,1.09,1.29,-0.06,-0.18,8,1,12,1.3,10445,27,91,40,38,804,577.0,632,471,60,124.0,141,1,317,213,83,0,0,548,-2934,2216,574,-5.59,,,,,,,,,,,,
19684,1564133188668,15,2.38,1.05,0.44,1.51,1.1,1.28,0.12,-0.27,8,3,14,1.28,10533,27,91,40,38,806,569.0,638,460,60,124.0,141,1,317,214,83,0,0,550,-32504,-30159,569,-5.59,,,,,,,,,,,,
19704,1564133188688,16,2.38,1.05,0.44,1.52,1.1,1.32,0.27,-0.25,8,0,14,1.35,10521,27,91,40,37,806,567.0,638,464,60,124.0,141,1,314,214,83,0,0,546,-22263,-32504,567,-5.59,,,,,,,,,,,,
19724,1564133188708,15,2.39,1.05,0.44,1.51,1.1,1.23,0.42,-0.34,8,4,15,1.3,10533,27,91,40,37,801,562.0,642,467,60,124.0,151,1,314,214,85,0,0,546,-22263,-32504,567,-5.59,,,,,,,,,,,,
19744,1564133188728,14,2.4,1.05,0.44,1.51,1.1,1.26,0.53,-0.45,9,4,14,1.37,10359,26,91,40,37,795,557.0,637,468,60,124.0,151,1,314,213,85,0,0,541,2104,-22359,562,-5.59,44.681274,10.024473,58.22,176.0,0,0.0,-1,0.0,0.0,0,0.21,0.3291
19764,1564133188748,14,2.41,1.06,0.44,1.52,1.1,1.24,0.52,-0.41,10,2,15,1.35,10290,26,91,40,38,793,557.0,637,461,60,124.0,151,1,317,213,85,0,0,536,-8186,-22359,557,-5.59,,,,,,,,,,,,
19784,1564133188768,15,2.41,1.05,0.44,1.51,1.1,1.32,0.37,-0.26,10,2,15,1.37,10140,26,91,40,38,791,552.0,632,464,60,123.0,151,1,317,212,85,0,0,536,-8186,-22359,557,-5.59,,,,,,,,,,,,
19804,1564133188788,15,2.41,1.05,0.44,1.52,1.1,1.35,0.18,-0.16,10,3,15,1.36,10042,26,91,40,39,794,548.0,633,467,60,122.0,151,1,320,214,85,0,0,521,-32248,-22519,554,-5.59,,,,,,,,,,,,
19824,1564133188808,12,2.42,1.05,0.44,1.51,1.1,1.29,0.14,-0.14,10,2,15,1.3,9915,25,91,40,39,798,546.0,632,464,60,124.0,146,1,320,213,80,0,0,524,-28648,2104,548,-5.59,,,,,,,,,,,,
19844,1564133188828,14,2.42,1.06,0.44,1.52,1.1,1.35,-0.01,-0.09,11,3,15,1.35,9796,25,91,40,39,805,542.0,630,464,60,124.0,146,1,320,213,80,0,0,517,2088,-506,546,-5.59,44.68129,10.024475,55.37,176.0,0,0.0,-1,0.0,0.0,0,0.21,0.3307
19864,1564133188848,11,2.44,1.05,0.44,1.52,1.09,1.25,-0.05,-0.06,11,3,16,1.25,9816,25,91,40,38,809,540.0,631,470,60,123.0,146,1,317,211,80,0,0,515,-14,-3082,540,-5.59,,,,,,,,,,,,
19884,1564133188868,12,2.45,1.05,0.44,1.51,1.1,1.24,-0.1,-0.05,12,2,16,1.24,9894,25,91,40,37,812,538.0,634,463,60,124.0,146,1,314,211,80,0,0,515,-14,-3082,540,-5.59,,,,,,,,,,,,
19904,1564133188892,12,2.45,1.05,0.44,1.52,1.1,1.18,-0.22,-0.0,12,3,16,1.2,9904,25,91,40,37,813,535.0,626,466,60,123.0,146,1,314,209,80,0,0,507,-3482,14504,537,-5.59,,,,,,,,,,,,
19924,1564133188912,10,2.45,1.05,0.44,1.52,1.09,1.12,-0.19,-0.04,13,3,17,1.14,9952,25,91,40,36,815,531.0,627,468,60,124.0,146,1,311,208,78,0,0,499,-21872,2104,534,-5.59,,,,,,,,,,,,
19944,1564133188932,12,2.46,1.05,0.45,1.51,1.1,1.1,-0.29,-0.04,14,3,17,1.14,10021,25,91,40,36,817,529.0,631,463,60,123.0,146,1,311,209,78,0,0,490,10408,-9072,529,-5.59,44.681301,10.024478,53.54,176.1,0,0.0,-1,0.0,0.0,0,0.22,0.3324
19964,1564133188952,12,2.46,1.05,0.44,1.52,1.1,1.03,-0.42,-0.0,15,3,18,1.11,10005,25,91,40,36,819,524.0,629,466,60,122.0,146,1,311,209,78,0,0,490,10408,-9072,529,-5.59,,,,,,,,,,,,
19984,1564133188972,8,2.46,1.05,0.45,1.51,1.09,1.04,-0.36,-0.02,15,4,17,1.1,9984,25,91,40,35,821,523.0,630,465,60,124.0,146,1,308,207,78,0,0,481,998,-8187,524,-5.59,,,,,,,,,,,,
20004,1564133188992,12,2.46,1.06,0.44,1.52,1.1,1.01,-0.48,0.05,16,2,19,1.12,9941,25,91,40,35,825,521.0,630,465,60,123.0,146,1,308,206,78,0,0,476,-1818,-8187,523,-5.59,,,,,,,,,,,,
20024,1564133189002,10,2.47,1.06,0.44,1.52,1.1,0.89,-0.51,0.05,16,5,20,1.02,9770,24,91,40,36,838,518.0,630,471,60,124.0,146,1,311,205,78,0,0,541,1,-22519,518,-5.59,,,,,,,,,,,,
20044,1564133189022,10,2.47,1.05,0.44,1.52,1.1,0.98,-0.52,0.07,17,4,20,1.12,9610,22,91,40,35,854,518.0,627,465,60,124.0,146,1,308,202,76,0,0,541,1,-22519,518,-5.59,44.681316,10.02448,51.97,176.1,0,0.0,-1,0.0,0.0,0,0.22,0.3341
20064,1564133189042,7,2.48,1.05,0.45,1.51,1.1,0.92,-0.55,0.11,18,4,21,1.07,9541,19,91,40,33,862,517.0,628,467,60,124.0,146,1,302,197,76,0,0,503,-1562,1248,517,-5.59,,,,,,,,,,,,
20084,1564133189062,7,2.47,1.05,0.44,1.51,1.09,0.97,-0.64,0.18,18,4,21,1.16,9450,18,91,40,32,876,516.0,618,467,60,123.0,146,1,300,194,76,0,0,503,-1562,1248,517,-5.59,,,,,,,,,,,,
20104,1564133189092,10,2.47,1.06,0.44,1.52,1.1,0.97,-0.68,0.16,18,3,21,1.19,9333,18,91,40,32,887,511.0,619,457,60,124.0,146,1,300,191,76,0,0,509,-899,17136,516,-5.59,,,,,,,,,,,,
20124,1564133189112,8,2.48,1.05,0.45,1.52,1.09,0.91,-0.6,0.17,18,2,23,1.09,9250,18,90,40,31,895,509.0,609,460,60,123.0,146,1,295,189,76,0,0,486,8488,-4054,509,-5.59,,,,,,,,,,,,
20144,1564133189132,6,2.48,1.04,0.44,1.52,1.09,0.88,-0.69,0.16,18,2,22,1.12,9173,18,91,40,31,895,507.0,607,468,60,124.0,129,1,295,187,66,0,0,486,8488,-4054,509,-5.59,44.681328,10.024484,50.41,176.1,0,0.0,-1,0.0,0.0,0,0.22,0.3357
20164,1564133189152,6,2.48,1.05,0.45,1.51,1.1,0.83,-0.66,0.13,19,3,24,1.06,9101,18,91,40,30,895,506.0,603,465,60,124.0,129,1,291,186,66,0,0,475,2212,-4054,506,-5.59,,,,,,,,,,,,
20184,1564133189172,6,2.48,1.05,0.45,1.51,1.1,0.84,-0.66,0.19,19,2,24,1.07,9044,18,91,40,30,899,504.0,607,468,60,124.0,129,1,291,185,66,0,0,475,2212,-4054,506,-5.59,,,,,,,,,,,,
20204,1564133189193,5,2.48,1.05,0.44,1.52,1.09,0.74,-0.63,0.14,20,3,24,0.97,8988,18,91,40,30,901,503.0,606,472,60,124.0,129,1,291,185,66,0,0,469,-17956,6274,504,-5.59,,,,,,,,,,,,
20224,1564133189213,6,2.47,1.05,0.44,1.53,1.1,0.77,-0.66,0.2,20,3,25,1.02,8932,18,91,40,31,903,501.0,606,470,60,124.0,129,1,295,185,66,0,0,466,-16384,2524,501,-5.59,,,,,,,,,,,,
20244,1564133189233,9,2.47,1.05,0.44,1.52,1.1,0.75,-0.64,0.22,21,4,25,0.99,8865,17,91,40,30,904,499.0,591,468,60,123.0,123,1,291,185,62,0,0,466,-16384,2524,501,-5.59,44.681343,10.024489,50.24,176.2,0,0.0,-1,0.0,0.0,0,0.22,0.3374
20264,1564133189253,8,2.47,1.05,0.44,1.51,1.1,0.71,-0.68,0.16,21,2,26,0.98,8815,17,90,40,31,900,498.0,583,462,60,123.0,123,1,295,185,62,0,0,457,16408,-9216,498,-5.59,,,,,,,,,,,,
20284,1564133189273,7,2.47,1.05,0.44,1.52,1.09,0.77,-0.66,0.24,21,3,26,1.01,8753,17,90,40,31,893,495.0,580,467,60,123.0,123,1,295,185,62,0,0,457,16408,-9216,498,-5.59,,,,,,,,,,,,
20304,1564133189292,6,2.49,1.06,0.44,1.52,1.1,0.84,-0.67,0.31,21,1,26,1.08,8704,17,91,40,31,887,494.0,571,466,60,124.0,123,1,295,185,62,0,0,455,6193,3,495,-5.59,,,,,,,,,,,,
20324,1564133189312,5,2.48,1.05,0.44,1.52,1.1,0.91,-0.68,0.4,22,2,25,1.14,8648,17,91,40,31,879,494.0,562,465,60,123.0,121,1,295,185,60,0,0,458,6193,771,492,-5.59,,,,,,,,,,,,
20344,1564133189332,6,2.5,1.05,0.45,1.52,1.1,0.83,-0.7,0.31,22,3,25,1.09,8585,17,91,40,31,879,489.0,563,464,60,123.0,121,1,295,185,60,0,0,455,-9160,-6441,491,-5.59,44.681354,10.024494,48.56,176.2,0,0.0,-1,0.0,0.0,0,0.22,0.3391
20364,1564133189352,7,2.51,1.06,0.44,1.52,1.1,0.93,-0.73,0.31,22,2,26,1.18,8538,17,91,40,31,880,485.0,564,468,60,123.0,121,1,295,185,60,0,0,449,-8985,-1562,489,-5.59,,,,,,,,,,,,
20384,1564133189372,5,2.5,1.05,0.44,1.52,1.1,0.98,-0.77,0.35,22,1,26,1.25,8534,17,91,40,32,886,483.0,565,464,60,124.0,121,1,299,185,60,0,0,435,-6387,8488,484,-5.59,,,,,,,,,,,,
20404,1564133189391,2,2.51,1.05,0.44,1.52,1.1,0.95,-0.79,0.4,21,2,27,1.24,8476,17,90,40,32,897,483.0,567,469,60,124.0,121,1,299,184,60,0,0,435,-6387,8488,484,-5.59,,,,,,,,,,,,
20424,1564133189411,3,2.52,1.05,0.45,1.52,1.11,0.92,-0.79,0.29,22,1,28,1.21,8415,17,91,40,32,901,480.0,563,467,60,123.0,121,1,298,106,60,0,0,442,8488,-10483,480,-5.59,,,,,,,,,,,,
20444,1564133189431,1,2.51,1.06,0.44,1.52,1.1,0.99,-0.82,0.34,22,1,29,1.29,8340,17,90,40,32,906,479.0,565,465,60,123.0,118,1,296,178,57,0,0,447,16648,8488,482,-5.59,44.681362,10.024502,47.58,176.2,0,0.0,-1,0.0,0.0,0,0.22,0.3407
20464,1564133189451,2,2.51,1.05,0.44,1.52,1.1,0.93,-0.81,0.3,23,1,29,1.23,8274,17,90,40,33,905,480.0,566,466,60,122.0,118,1,297,179,57,0,0,447,16648,8488,482,-5.59,,,,,,,,,,,,
20484,1564133189471,-1,2.52,1.05,0.44,1.52,1.1,0.93,-0.84,0.35,23,1,29,1.25,8216,17,90,40,33,901,481.0,561,467,60,124.0,118,1,296,179,57,0,0,441,23400,-9203,480,-5.59,,,,,,,,,,,,
20504,1564133189491,3,2.52,1.06,0.44,1.53,1.11,0.88,-0.84,0.33,23,1,31,1.22,8212,17,90,40,33,893,478.0,565,466,60,124.0,118,1,296,178,57,0,0,442,23400,10305,481,-5.59,,,,,,,,,,,,
20524,1564133189509,-2,2.52,1.05,0.45,1.52,1.1,0.87,-0.83,0.36,23,1,32,1.2,8148,16,90,40,33,886,476.0,556,465,60,124.0,118,1,294,176,57,0,0,438,20625,-16384,476,-5.59,,,,,,,,,,,,
