"Interval"|"ms"|0|0|1,"Utc"|"ms"|0|0|1,"FB_p"|"bar"|0|300|50,"Volant"|"F"|0.0|300.0|50,"xFR"|"mm"|0.0|5.0|50,"xRR"|"mm"|0.0|5.0|50,"xFL"|"mm"|0.0|5.0|50,"xRL"|"mm"|0.0|5.0|50,"AccelX"|"G"|-3.0|3.0|50,"AccelY"|"G"|-3.0|3.0|50,"AccelZ"|"G"|-3.0|3.0|50,"Yaw"|"Deg/Sec"|-120|120|50,"Pitch"|"Deg/Sec"|-120|120|50,"Roll"|"Deg/Sec"|-120|120|50,"Gsum"|"G"|0.0|3.0|50,"RPM"|""|0|14000|50,"TPS"|"%"|0|100|50,"WaterTemp"|"?C"|0|300|50,"AirTemp"|"?C"|-1000|1000|50,"MAP"|"KPa"|0|255|50,"Lambda"|""|0|1024|50,"WheelSpeed"|"MPH"|0.0|150.0|50,"OilPress"|"PSI"|0|150|50,"FuelPress"|"PSI"|0|150|50,"OilTemp"|"F"|0|300|50,"Battery"|"Volts"|0.0|20.0|50,"FuelCon"|"L/h"|-1000|1000|50,"Gear"|""|0|10|50,"Advance"|"Deg"|-360|360|50,"Injection"|"ms"|-1000|1000|50,"FuelCon"|"L/100km"|-1000|1000|50,"LC_But_Pres"|""|-1000|1000|50,"LC_Active"|""|-1000|1000|50,"RD_Speed"|""|-1000|1000|50,"RUD_Speed"|""|-1000|1000|50,"LD_Speed"|""|-1000|1000|50,"LUD_Speed"|""|-1000|1000|50,"Ana1"|"bar"|-1000.0|1000.0|50,"Latitude"|"Degrees"|-180.0|180.0|10,"Longitude"|"Degrees"|-180.0|180.0|10,"Speed"|"kph"|0.0|150.0|10,"Altitude"|"m"|0.0|4000.0|10,"LapCount"|""|0|0|10,"LapTime"|"Min"|0.0|0.0|10,"Sector"|""|0|0|10,"SectorTime"|"Min"|0.0|0.0|10,"ElapsedTime"|"Min"|0.0|0.0|10,"CurrentLap"|""|0|0|10,"Distance"|"km"|0.0|0.0|10,"SessionTime"|"Min"|0.0|0.0|10
184364,1564133353358,2,2.18,1.02,0.4,1.52,1.13,0.89,0.66,0.59,-15,2,-19,1.11,9842,24,104,41,34,946,536.0,645,471,60,121.0,152,1,305,209,78,0,0,538,-28648,1341,514,-5.59,,,,,,,,,,,,
184384,1564133353378,0,2.19,1.03,0.4,1.51,1.13,0.81,0.69,0.5,-16,3,-19,1.06,9847,24,104,41,34,956,536.0,618,461,60,122.0,152,1,305,209,78,0,0,537,-28648,15679,514,-5.59,,,,,,,,,,,,
184404,1564133353398,2,2.18,1.03,0.4,1.52,1.13,0.9,0.64,0.53,-16,2,-20,1.1,9796,25,104,41,34,969,536.0,635,470,60,122.0,152,1,305,209,78,0,0,537,-28648,-3482,514,-5.59,,,,,,,,,,,,
184424,1564133353418,1,2.19,1.02,0.4,1.51,1.13,0.79,0.67,0.42,-16,2,-19,1.03,9786,25,104,41,34,984,532.0,621,473,60,123.0,151,1,305,209,78,0,0,533,2104,-14,514,-5.59,,,,,,,,,,,,
184444,1564133353438,1,2.19,1.02,0.4,1.52,1.13,0.85,0.66,0.43,-16,2,-20,1.08,9811,25,104,41,34,997,534.0,616,461,60,122.0,151,1,305,209,78,0,0,540,-32248,-4054,513,-5.59,44.681316,10.025027,51.89,176.1,0,0.0,-1,0.0,0.0,0,2.34,3.0741
184464,1564133353458,-0,2.19,1.02,0.4,1.51,1.13,0.72,0.71,0.35,-16,2,-19,1.02,9806,24,104,41,34,1003,535.0,614,470,60,122.0,151,1,305,209,78,0,0,533,-28648,-3482,511,-5.59,,,,,,,,,,,,
184484,1564133353478,3,2.19,1.02,0.4,1.51,1.14,0.81,0.69,0.41,-17,1,-20,1.07,9755,25,104,41,34,1009,532.0,610,466,60,122.0,151,1,305,209,78,0,0,532,14504,26178,511,-5.59,,,,,,,,,,,,
184504,1564133353498,1,2.19,1.02,0.4,1.51,1.14,0.75,0.74,0.37,-17,0,-19,1.06,9745,24,104,41,34,1013,532.0,622,473,60,122.0,151,1,305,208,78,0,0,536,14504,-21872,509,-5.59,,,,,,,,,,,,
184524,1564133353518,2,2.18,1.02,0.4,1.52,1.13,0.88,0.71,0.48,-17,-0,-20,1.13,9786,25,104,41,34,1016,532.0,627,469,60,122.0,148,1,305,209,76,0,0,537,14504,-4054,512,-5.59,,,,,,,,,,,,
184544,1564133353538,-0,2.19,1.02,0.4,1.51,1.14,0.85,0.68,0.5,-17,1,-20,1.09,9775,25,104,41,34,1014,530.0,641,471,60,122.0,148,1,305,209,76,0,0,533,2524,-3482,513,-5.59,44.681328,10.025019,51.47,176.1,0,0.0,-1,0.0,0.0,0,2.34,3.0757
184564,1564133353558,2,2.19,1.03,0.4,1.52,1.13,0.97,0.62,0.6,-18,-1,-20,1.15,9720,25,104,41,34,1013,529.0,641,469,60,122.0,148,1,305,208,76,0,0,537,-9072,10994,512,-5.59,,,,,,,,,,,,
184584,1564133353578,0,2.19,1.03,0.4,1.52,1.14,0.83,0.65,0.56,-17,-0,-19,1.05,9715,24,104,41,34,1015,530.0,626,472,60,122.0,148,1,305,208,76,0,0,528,2524,-4054,510,-5.59,,,,,,,,,,,,
184604,1564133353597,1,2.19,1.02,0.4,1.51,1.14,0.92,0.63,0.6,-17,-1,-19,1.12,9760,24,104,41,34,1018,529.0,610,463,60,122.0,148,1,305,209,76,0,0,531,-9072,-8187,510,-5.59,,,,,,,,,,,,
184624,1564133353617,1,2.19,1.02,0.4,1.52,1.13,0.78,0.66,0.56,-17,-1,-19,1.02,9760,24,104,41,34,1021,528.0,618,472,60,123.0,149,1,305,209,76,0,0,531,-28648,-3482,511,-5.59,,,,,,,,,,,,
184644,1564133353637,3,2.19,1.02,0.39,1.51,1.14,0.87,0.66,0.64,-17,-0,-20,1.09,9704,24,104,41,34,1026,530.0,607,465,60,122.0,149,1,305,208,76,0,0,534,-28648,-14,511,-5.59,44.681339,10.025009,51.4,176.2,0,0.0,-1,0.0,0.0,0,2.34,3.0774
184664,1564133353657,1,2.19,1.03,0.4,1.52,1.13,0.77,0.76,0.57,-17,0,-21,1.08,9689,24,104,41,34,1030,529.0,606,458,60,122.0,149,1,305,207,76,0,0,533,-28648,26178,509,-5.59,,,,,,,,,,,,
184684,1564133353677,1,2.19,1.02,0.4,1.52,1.13,0.9,0.68,0.65,-17,0,-20,1.13,9725,24,104,41,34,1035,530.0,603,472,60,122.0,149,1,305,208,76,0,0,530,2524,26178,509,-5.59,,,,,,,,,,,,
184704,1564133353697,-1,2.19,1.02,0.4,1.51,1.13,0.78,0.79,0.56,-17,1,-20,1.11,9725,24,104,41,34,1036,530.0,613,469,60,122.0,149,1,305,208,76,0,0,532,2524,26178,509,-5.59,,,,,,,,,,,,
184724,1564133353717,1,2.19,1.02,0.4,1.51,1.13,0.9,0.66,0.62,-18,1,-20,1.12,9674,25,104,41,34,1037,528.0,623,466,60,122.0,149,1,305,207,76,0,0,528,-28648,17136,507,-5.59,,,,,,,,,,,,
184744,1564133353737,-1,2.18,1.02,0.4,1.51,1.14,0.73,0.76,0.48,-17,1,-20,1.05,9674,25,104,41,34,1033,528.0,613,462,60,122.0,149,1,305,207,76,0,0,532,-28648,-3856,507,-5.59,44.681347,10.025,50.99,176.2,0,0.0,-1,0.0,0.0,0,2.34,3.0791
184764,1564133353757,2,2.18,1.03,0.4,1.51,1.14,0.81,0.69,0.54,-17,2,-21,1.07,9720,25,104,41,34,1029,524.0,631,466,60,122.0,149,1,305,208,76,0,0,527,10408,6274,506,-5.59,,,,,,,,,,,,
184784,1564133353777,0,2.18,1.03,0.4,1.52,1.13,0.78,0.77,0.5,-17,1,-20,1.1,9730,25,104,41,34,1024,525.0,613,461,60,123.0,149,1,305,208,76,0,0,531,2088,2109,504,-5.59,,,,,,,,,,,,
184804,1564133353797,2,2.18,1.02,0.4,1.52,1.13,0.8,0.71,0.53,-17,2,-21,1.07,9735,24,104,41,34,1019,527.0,623,473,60,123.0,149,1,305,208,76,0,0,526,6274,6274,504,-5.59,,,,,,,,,,,,
184824,1564133353817,3,2.18,1.02,0.39,1.51,1.14,0.83,0.76,0.54,-18,-0,-21,1.13,9689,24,104,41,34,1018,527.0,612,465,60,123.0,151,1,305,207,76,0,0,525,6274,-4054,501,-5.59,,,,,,,,,,,,
184844,1564133353837,0,2.18,1.02,0.4,1.52,1.13,0.83,0.65,0.58,-18,1,-21,1.05,9689,24,104,41,34,1017,524.0,610,468,60,122.0,151,1,305,207,76,0,0,528,10408,10994,501,-5.59,44.681362,10.024989,50.68,176.2,0,0.0,-1,0.0,0.0,0,2.34,3.0807
184864,1564133353857,1,2.17,1.02,0.4,1.52,1.13,0.86,0.71,0.59,-18,1,-21,1.12,9735,25,104,41,34,1021,526.0,612,465,60,123.0,151,1,305,208,76,0,0,530,-32248,-3414,500,-5.59,,,,,,,,,,,,
184884,1564133353877,0,2.17,1.02,0.4,1.51,1.13,0.77,0.69,0.62,-18,1,-21,1.04,9730,25,104,41,34,1025,526.0,608,467,60,123.0,151,1,305,207,76,0,0,525,-32248,10408,500,-5.59,,,,,,,,,,,,
184904,1564133353897,3,2.16,1.02,0.4,1.51,1.14,0.82,0.77,0.63,-18,2,-22,1.13,9679,25,104,41,34,1026,527.0,617,467,60,122.0,151,1,305,207,76,0,0,531,6274,6274,501,-5.59,,,,,,,,,,,,
184924,1564133353917,1,2.16,1.02,0.4,1.52,1.13,0.77,0.86,0.59,-19,2,-22,1.15,9684,24,104,41,34,1028,528.0,610,467,60,123.0,151,1,305,207,76,0,0,528,-28648,10408,501,-5.59,,,,,,,,,,,,
184944,1564133353937,3,2.16,1.02,0.4,1.52,1.13,0.9,0.88,0.72,-20,1,-22,1.26,9699,24,104,41,34,1026,528.0,611,465,60,122.0,151,1,305,207,76,0,0,528,-28648,10994,500,-5.59,44.68137,10.024977,50.61,176.3,0,0.0,-1,0.0,0.0,0,2.34,3.0824
184964,1564133353957,-0,2.16,1.02,0.4,1.51,1.13,0.77,0.9,0.68,-20,3,-22,1.19,9679,24,104,41,34,1023,525.0,620,465,60,123.0,151,1,305,207,76,0,0,534,-9072,-28648,501,-5.59,,,,,,,,,,,,
184984,1564133353977,3,2.16,1.02,0.4,1.52,1.12,0.9,0.78,0.77,-20,3,-24,1.19,9620,25,104,41,34,1019,527.0,634,464,60,122.0,151,1,305,206,76,0,0,527,2088,-32248,501,-5.59,,,,,,,,,,,,
185004,1564133353997,-1,2.17,1.02,0.4,1.51,1.14,0.74,0.89,0.56,-20,4,-23,1.16,9590,24,104,42,34,1015,525.0,617,465,60,123.0,151,1,305,206,76,0,0,529,2088,2524,502,-5.59,,,,,,,,,,,,
185024,1564133354010,2,2.16,1.03,0.4,1.51,1.14,0.8,0.81,0.63,-20,5,-24,1.14,9585,24,104,42,34,1013,526.0,612,462,60,122.0,148,1,305,206,74,0,0,528,-32248,15661,502,-5.59,,,,,,,,,,,,
185044,1564133354030,4,2.16,1.02,0.4,1.52,1.13,0.89,0.93,0.62,-20,2,-24,1.28,9620,24,104,42,34,1011,526.0,606,467,60,123.0,148,1,305,206,74,0,0,525,10408,2109,498,-5.59,44.681381,10.024965,50.06,176.3,0,0.0,-1,0.0,0.0,0,2.35,3.0841
185064,1564133354050,1,2.16,1.02,0.4,1.52,1.13,0.76,0.91,0.59,-19,3,-24,1.19,9600,24,104,42,34,1011,523.0,599,468,60,123.0,148,1,305,206,74,0,0,520,-9212,-9216,495,-5.59,,,,,,,,,,,,
185084,1564133354070,1,2.16,1.02,0.39,1.51,1.13,0.87,0.8,0.71,-19,2,-26,1.19,9556,24,104,42,34,1012,521.0,600,461,60,122.0,148,1,305,206,74,0,0,524,-9212,2524,495,-5.59,,,,,,,,,,,,
185104,1564133354097,0,2.15,1.02,0.4,1.51,1.13,0.77,0.92,0.57,-18,3,-26,1.2,9541,25,104,42,34,1013,522.0,593,466,60,123.0,148,1,305,206,74,0,0,520,2524,2524,494,-5.59,,,,,,,,,,,,
185124,1564133354117,1,2.16,1.02,0.4,1.52,1.13,0.75,0.84,0.56,-19,2,-26,1.13,9527,24,104,42,34,1016,520.0,613,464,60,122.0,149,1,305,206,74,0,0,525,-9212,-9216,493,-5.59,,,,,,,,,,,,
185144,1564133354137,2,2.15,1.02,0.4,1.51,1.13,0.88,0.82,0.66,-20,1,-26,1.2,9546,24,104,42,34,1020,520.0,603,465,60,123.0,149,1,305,206,74,0,0,520,1248,10408,491,-5.59,44.681385,10.024953,49.71,176.3,0,0.0,-1,0.0,0.0,0,2.35,3.0857
185164,1564133354157,0,2.16,1.02,0.4,1.51,1.13,0.8,0.94,0.49,-20,-1,-25,1.23,9537,24,104,42,34,1024,519.0,611,461,60,122.0,149,1,305,206,74,0,0,518,-8187,6274,492,-5.59,,,,,,,,,,,,
185184,1564133354177,1,2.16,1.03,0.4,1.52,1.13,0.68,0.78,0.56,-20,0,-25,1.04,9488,24,104,42,34,1027,520.0,636,470,60,122.0,149,1,305,206,74,0,0,518,1248,-32248,493,-5.59,,,,,,,,,,,,
185204,1564133354197,3,2.15,1.03,0.4,1.52,1.13,0.81,0.79,0.61,-20,-0,-26,1.13,9474,24,104,42,34,1029,521.0,620,465,60,122.0,149,1,305,204,74,0,0,524,-9212,6274,493,-5.59,,,,,,,,,,,,
185224,1564133354217,-1,2.16,1.02,0.4,1.51,1.13,0.74,0.91,0.47,-20,-1,-26,1.17,9484,20,104,42,34,1030,520.0,608,467,60,123.0,149,1,305,204,74,0,0,522,1248,10994,496,-5.59,,,,,,,,,,,,
185244,1564133354237,2,2.15,1.02,0.4,1.52,1.13,0.78,0.72,0.56,-21,2,-25,1.06,9493,24,104,42,34,1032,522.0,603,478,60,123.0,149,1,305,204,74,0,0,522,2524,2524,495,-5.59,44.681396,10.02494,50.19,176.4,0,0.0,-1,0.0,0.0,0,2.35,3.0874
185264,1564133354257,2,2.16,1.02,0.4,1.51,1.13,0.9,0.74,0.59,-21,2,-26,1.17,9541,24,104,42,34,1033,522.0,591,461,60,122.0,149,1,305,206,74,0,0,522,2524,3,495,-5.59,,,,,,,,,,,,
185284,1564133354277,1,2.16,1.02,0.4,1.51,1.13,0.73,0.87,0.43,-21,0,-24,1.13,9551,24,104,42,34,1033,518.0,593,473,60,123.0,149,1,305,206,74,0,0,521,1341,11560,495,-5.59,,,,,,,,,,,,
185304,1564133354297,1,2.16,1.02,0.4,1.52,1.12,0.8,0.69,0.55,-21,2,-25,1.06,9561,24,104,42,34,1032,517.0,607,469,60,122.0,149,1,305,206,74,0,0,523,15679,998,495,-5.59,,,,,,,,,,,,
185324,1564133354317,3,2.16,1.02,0.4,1.52,1.13,0.92,0.69,0.52,-22,1,-26,1.16,9522,24,104,42,34,1030,518.0,596,466,60,123.0,149,1,305,206,74,0,0,519,1341,-22519,492,-5.59,,,,,,,,,,,,
185344,1564133354337,1,2.16,1.02,0.4,1.52,1.13,0.76,0.76,0.39,-21,4,-24,1.07,9517,24,104,42,34,1028,516.0,599,473,60,122.0,149,1,305,206,74,0,0,515,16383,-22519,491,-5.59,44.6814,10.024926,49.69,176.4,0,0.0,-1,0.0,0.0,0,2.35,3.0891
185364,1564133354357,3,2.15,1.03,0.4,1.52,1.14,0.88,0.66,0.46,-21,2,-25,1.1,9537,24,104,42,34,1026,516.0,614,462,60,121.0,149,1,305,206,74,0,0,516,16383,-6528,491,-5.59,,,,,,,,,,,,
185384,1564133354377,2,2.17,1.02,0.4,1.51,1.13,0.94,0.77,0.43,-21,-0,-25,1.21,9537,24,104,42,34,1024,517.0,613,471,60,123.0,149,1,305,206,74,0,0,515,-14,998,491,-5.59,,,,,,,,,,,,
185404,1564133354397,-0,2.17,1.03,0.4,1.51,1.14,0.85,0.78,0.43,-21,-0,-24,1.15,9512,24,104,42,34,1020,516.0,622,466,60,123.0,149,1,305,206,74,0,0,513,16383,-6528,491,-5.59,,,,,,,,,,,,
185424,1564133354417,3,2.16,1.03,0.4,1.51,1.13,0.91,0.59,0.58,-21,0,-25,1.08,9464,24,104,42,34,1017,518.0,626,467,60,122.0,151,1,305,204,74,0,0,521,1341,2524,490,-5.59,,,,,,,,,,,,
185444,1564133354437,4,2.16,1.03,0.4,1.51,1.13,0.93,0.73,0.49,-21,0,-26,1.18,9436,24,104,42,34,1014,516.0,615,466,60,122.0,151,1,305,203,74,0,0,517,16383,998,490,-5.59,44.681412,10.024911,49.43,176.4,0,0.0,-1,0.0,0.0,0,2.35,3.0907
185464,1564133354457,2,2.16,1.02,0.4,1.52,1.13,0.81,0.83,0.35,-20,1,-25,1.16,9417,24,104,42,34,1013,515.0,596,468,60,123.0,151,1,305,203,74,0,0,518,-14,-6528,489,-5.59,,,,,,,,,,,,
185484,1564133354477,2,2.16,1.02,0.4,1.51,1.13,0.87,0.6,0.47,-21,1,-25,1.06,9455,24,104,42,34,1014,516.0,592,473,60,123.0,151,1,305,204,74,0,0,519,16383,-9216,489,-5.59,,,,,,,,,,,,
185504,1564133354497,4,2.17,1.03,0.4,1.52,1.13,0.97,0.59,0.56,-21,1,-26,1.13,9431,24,104,42,34,1015,515.0,601,465,60,122.0,151,1,305,203,74,0,0,513,-3482,248,489,-5.59,,,,,,,,,,,,
185524,1564133354517,2,2.17,1.02,0.4,1.51,1.14,0.9,0.73,0.41,-21,-2,-25,1.16,9389,24,104,42,34,1019,515.0,591,467,60,123.0,145,1,305,202,71,0,0,513,-3482,-22519,488,-5.59,,,,,,,,,,,,
185544,1564133354537,3,2.17,1.03,0.4,1.52,1.13,0.74,0.72,0.43,-20,0,-25,1.03,9389,24,104,42,34,1022,515.0,595,463,60,123.0,145,1,305,202,71,0,0,515,-3482,-6656,489,-5.59,44.681419,10.024896,49.46,176.4,0,0.0,-1,0.0,0.0,0,2.35,3.0924
185564,1564133354557,5,2.17,1.02,0.4,1.51,1.14,0.79,0.52,0.57,-20,1,-26,0.94,9351,24,104,42,34,1026,513.0,616,466,60,122.0,145,1,305,202,71,0,0,516,-4054,248,486,-5.59,,,,,,,,,,,,
185584,1564133354577,6,2.17,1.03,0.4,1.51,1.14,0.91,0.55,0.57,-20,0,-27,1.07,9351,24,104,42,34,1029,510.0,617,468,60,122.0,145,1,305,202,71,0,0,516,-3856,-6656,486,-5.59,,,,,,,,,,,,
185604,1564133354596,4,2.16,1.03,0.4,1.52,1.13,0.88,0.7,0.43,-20,-1,-26,1.12,9342,23,104,42,34,1029,510.0,611,474,60,123.0,145,1,305,202,71,0,0,514,-4054,1,485,-5.59,,,,,,,,,,,,
185624,1564133354616,3,2.17,1.03,0.4,1.51,1.13,0.73,0.71,0.38,-19,2,-25,1.02,9328,23,104,42,34,1028,510.0,611,468,60,122.0,146,1,305,201,71,0,0,507,-4054,-10483,486,-5.59,,,,,,,,,,,,
185644,1564133354636,6,2.17,1.03,0.4,1.51,1.14,0.78,0.54,0.5,-19,3,-26,0.95,9342,23,104,42,34,1024,510.0,605,470,60,123.0,146,1,305,202,71,0,0,511,-4054,-6656,485,-5.59,44.681423,10.02488,49.37,176.5,0,0.0,-1,0.0,0.0,0,2.35,3.0941
185664,1564133354656,7,2.17,1.02,0.4,1.52,1.14,0.9,0.48,0.59,-20,3,-27,1.02,9309,23,104,42,34,1020,508.0,600,471,60,122.0,146,1,305,201,71,0,0,513,-3414,-10483,482,-5.59,,,,,,,,,,,,
185684,1564133354676,8,2.16,1.03,0.4,1.52,1.14,0.98,0.63,0.5,-20,1,-27,1.17,9291,23,104,42,34,1016,506.0,596,465,60,122.0,146,1,305,201,71,0,0,507,-28648,-1562,480,-5.59,,,,,,,,,,,,
185704,1564133354696,6,2.18,1.02,0.4,1.51,1.14,0.86,0.77,0.32,-19,-1,-24,1.15,9282,23,104,42,34,1013,505.0,577,474,60,123.0,146,1,305,201,71,0,0,508,6274,2212,478,-5.59,,,,,,,,,,,,
185724,1564133354716,4,2.16,1.02,0.4,1.51,1.13,0.69,0.8,0.32,-19,-0,-23,1.06,9272,23,104,42,34,1011,504.0,585,468,60,122.0,147,1,305,201,70,0,0,506,-32248,-899,476,-5.59,,,,,,,,,,,,
185744,1564133354736,6,2.17,1.02,0.4,1.51,1.14,0.6,0.61,0.42,-18,2,-24,0.86,9231,23,104,42,34,1009,502.0,586,467,60,122.0,147,1,305,200,70,0,0,500,2109,-17956,478,-5.59,44.681427,10.024864,49.18,176.5,0,0.0,-1,0.0,0.0,0,2.36,3.0957
185764,1564133354756,6,2.16,1.02,0.4,1.52,1.13,0.7,0.4,0.56,-19,3,-25,0.81,9146,23,104,42,34,1009,501.0,587,468,60,122.0,147,1,305,198,70,0,0,505,15661,32033,474,-5.59,,,,,,,,,,,,
185784,1564133354776,6,2.18,1.03,0.4,1.52,1.13,0.84,0.25,0.66,-19,3,-27,0.87,9106,23,104,42,34,1011,501.0,582,464,60,121.0,147,1,305,198,70,0,0,504,15661,3580,475,-5.59,,,,,,,,,,,,
185804,1564133354798,7,2.18,1.02,0.4,1.52,1.14,0.95,0.26,0.67,-20,1,-29,0.99,9049,23,104,42,34,1013,497.0,605,461,60,122.0,147,1,305,197,70,0,0,502,-9216,2212,474,-5.59,,,,,,,,,,,,
185824,1564133354818,7,2.18,1.03,0.41,1.52,1.13,1.06,0.28,0.73,-20,-2,-29,1.1,9023,22,104,42,34,1015,498.0,593,463,60,122.0,143,1,305,197,68,0,0,503,2524,-9203,473,-5.59,,,,,,,,,,,,
185844,1564133354838,8,2.18,1.03,0.41,1.51,1.14,1.16,0.39,0.69,-20,-2,-30,1.22,8997,22,104,42,34,1016,496.0,599,469,60,122.0,143,1,305,117,68,0,0,498,3,3576,470,-5.59,44.681431,10.024848,48.31,176.5,0,0.0,-1,0.0,0.0,0,2.36,3.0974
185864,1564133354858,8,2.18,1.02,0.4,1.52,1.13,1.24,0.47,0.69,-21,-4,-30,1.33,8967,22,103,42,34,1017,495.0,589,465,60,122.0,143,1,305,196,68,0,0,493,771,243,469,-5.59,,,,,,,,,,,,
185884,1564133354878,6,2.18,1.03,0.4,1.51,1.14,1.32,0.53,0.69,-21,-5,-29,1.43,8920,22,104,42,35,1028,492.0,586,463,60,122.0,143,1,308,197,68,0,0,496,998,10432,469,-5.59,,,,,,,,,,,,
185904,1564133354896,9,2.18,1.03,0.4,1.51,1.14,1.39,0.51,0.73,-21,-6,-30,1.48,8882,22,103,42,34,1042,492.0,576,466,60,121.0,143,1,305,196,68,0,0,493,-32768,-16384,465,-5.59,,,,,,,,,,,,
185924,1564133354916,8,2.18,1.03,0.4,1.52,1.13,1.46,0.44,0.78,-21,-6,-31,1.52,8852,22,103,42,34,1055,487.0,573,466,60,123.0,141,1,305,196,66,0,0,491,505,8488,464,-5.59,,,,,,,,,,,,
185944,1564133354936,8,2.18,1.03,0.4,1.52,1.13,1.51,0.21,0.74,-21,-5,-30,1.53,8827,22,103,42,35,1068,486.0,574,467,60,122.0,141,1,308,199,66,0,0,494,-1562,-16384,461,-5.59,44.681438,10.024832,48.13,176.6,0,0.0,-1,0.0,0.0,0,2.36,3.0991
185964,1564133354956,5,2.19,1.03,0.4,1.52,1.13,1.5,0.06,0.76,-20,-4,-30,1.5,8865,22,103,42,35,1089,484.0,573,467,60,122.0,141,1,308,199,66,0,0,483,-10483,12552,463,-5.59,,,,,,,,,,,,
185984,1564133354976,6,2.19,1.03,0.4,1.52,1.13,1.32,-0.01,0.72,-19,-3,-30,1.32,8823,22,103,42,35,1115,484.0,575,466,60,123.0,141,1,308,199,66,0,0,483,-10483,6193,462,-5.59,,,,,,,,,,,,
186004,1564133354996,9,2.2,1.03,0.4,1.52,1.13,1.09,0.04,0.65,-19,-1,-29,1.09,8782,22,104,42,35,1134,482.0,569,470,60,123.0,141,1,308,200,66,0,0,485,-899,-23623,460,-5.59,,,,,,,,,,,,
186024,1564133355008,8,2.2,1.03,0.41,1.51,1.14,0.95,0.24,0.59,-18,-2,-27,0.98,8757,22,103,42,35,1147,480.0,573,466,60,122.0,143,1,308,199,66,0,0,482,16648,14488,458,-5.59,,,,,,,,,,,,
186044,1564133355028,9,2.21,1.03,0.41,1.52,1.14,1.03,0.4,0.62,-18,-3,-26,1.11,8765,22,103,42,35,1160,475.0,571,467,60,122.0,143,1,308,199,66,0,0,480,-9203,16408,457,-5.59,44.681442,10.024816,47.2,176.6,0,0.0,-1,0.0,0.0,0,2.36,3.1007
186064,1564133355048,8,2.2,1.03,0.41,1.53,1.13,1.13,0.35,0.68,-18,-5,-26,1.18,8741,22,103,42,35,1174,473.0,575,470,60,123.0,143,1,308,199,66,0,0,478,3576,2524,457,-5.59,,,,,,,,,,,,
186084,1564133355068,6,2.21,1.03,0.4,1.52,1.14,1.21,0.23,0.63,-17,-3,-26,1.24,8757,21,103,42,35,1183,473.0,572,472,60,123.0,143,1,308,199,66,0,0,473,3576,-9160,452,-5.59,,,,,,,,,,,,
186104,1564133355088,5,2.21,1.03,0.41,1.53,1.13,1.16,0.12,0.59,-17,-0,-25,1.17,8765,21,103,42,35,1185,470.0,568,468,60,123.0,143,1,308,203,66,0,0,469,8488,-26615,453,-5.59,,,,,,,,,,,,
186124,1564133355110,7,2.21,1.04,0.4,1.52,1.14,1.0,0.13,0.51,-16,1,-24,1.01,8782,21,103,42,35,1184,469.0,565,467,60,123.0,145,1,308,203,66,0,0,469,10432,-3267,452,-5.59,,,,,,,,,,,,
186144,1564133355130,8,2.21,1.03,0.4,1.52,1.14,0.78,0.27,0.37,-15,2,-23,0.82,8782,21,103,42,35,1180,466.0,563,468,60,122.0,145,1,308,199,66,0,0,470,-16384,-8985,449,-5.59,44.681442,10.024799,46.51,176.6,0,0.0,-1,0.0,0.0,0,2.36,3.1024
186164,1564133355150,9,2.21,1.03,0.41,1.52,1.14,0.8,0.4,0.45,-15,1,-21,0.89,8741,21,103,42,35,1176,465.0,555,466,60,123.0,145,1,308,199,66,0,0,469,30272,-6387,449,-5.59,,,,,,,,,,,,
186184,1564133355170,9,2.21,1.04,0.41,1.52,1.14,0.88,0.46,0.51,-15,0,-22,1.0,8660,21,103,42,35,1170,465.0,564,468,60,122.0,145,1,308,199,66,0,0,465,6193,16408,449,-5.59,,,,,,,,,,,,
186204,1564133355196,7,2.21,1.03,0.4,1.53,1.14,0.98,0.3,0.54,-15,1,-21,1.03,8573,21,103,42,35,1156,464.0,563,466,60,122.0,145,1,308,199,66,0,0,468,16408,-23623,448,-5.59,,,,,,,,,,,,
186224,1564133355216,9,2.21,1.03,0.41,1.52,1.14,0.87,0.3,0.44,-14,1,-21,0.92,8542,21,103,42,36,1130,461.0,551,470,60,123.0,147,1,311,203,66,0,0,466,2211,2524,449,-5.59,,,,,,,,,,,,
186244,1564133355236,7,2.22,1.03,0.41,1.53,1.13,0.91,0.44,0.46,-13,-1,-20,1.01,8499,21,103,42,36,1104,463.0,551,467,60,123.0,147,1,310,202,66,0,0,463,2211,2524,447,-5.59,44.681442,10.024782,46.44,176.7,0,0.0,-1,0.0,0.0,0,2.36,3.1041
186264,1564133355256,8,2.22,1.03,0.4,1.52,1.13,0.97,0.4,0.49,-13,-1,-21,1.05,8442,21,103,42,36,1082,458.0,553,467,60,122.0,147,1,309,201,66,0,0,463,17628,-3267,447,-5.59,,,,,,,,,,,,
186284,1564133355276,10,2.21,1.03,0.4,1.53,1.13,0.85,0.42,0.41,-13,-0,-20,0.95,8419,20,103,42,36,1058,458.0,553,468,60,123.0,147,1,309,201,66,0,0,461,-9160,21432,443,-5.59,,,,,,,,,,,,
186304,1564133355298,9,2.22,1.03,0.4,1.52,1.14,0.97,0.45,0.42,-14,-2,-18,1.07,8393,20,103,42,36,1028,455.0,548,466,60,122.0,147,1,308,200,66,0,0,459,-26615,3571,441,-5.59,,,,,,,,,,,,
186324,1564133355318,7,2.23,1.03,0.4,1.52,1.14,0.86,0.36,0.43,-13,-1,-19,0.94,8400,20,103,42,36,1001,453.0,552,470,60,123.0,145,1,309,201,64,0,0,461,2524,10305,440,-5.59,,,,,,,,,,,,
186344,1564133355338,9,2.23,1.03,0.4,1.52,1.14,0.88,0.43,0.4,-13,-3,-18,0.98,8378,20,103,42,37,994,454.0,548,466,60,123.0,145,1,311,204,64,0,0,452,2524,21432,437,-5.59,44.681442,10.024767,45.47,176.8,0,0.0,-1,0.0,0.0,0,2.36,3.1057
186364,1564133355358,7,2.23,1.04,0.4,1.53,1.13,0.92,0.35,0.38,-13,-2,-18,0.98,8344,20,103,42,37,983,451.0,541,469,60,122.0,145,1,311,204,64,0,0,451,-3267,-18341,437,-5.59,,,,,,,,,,,,
186384,1564133355378,10,2.23,1.04,0.4,1.53,1.14,0.83,0.39,0.35,-12,-1,-17,0.92,8337,20,103,42,36,965,448.0,532,467,60,123.0,145,1,307,204,64,0,0,451,8488,-7939,438,-5.59,,,,,,,,,,,,
186404,1564133355396,8,2.23,1.03,0.4,1.52,1.14,0.94,0.36,0.41,-13,-2,-16,1.01,8318,20,103,42,37,946,445.0,542,466,60,122.0,145,1,310,203,64,0,0,451,10305,-7939,435,-5.59,,,,,,,,,,,,
186424,1564133355416,12,2.23,1.03,0.4,1.53,1.14,0.82,0.35,0.36,-12,-3,-16,0.89,8318,20,103,42,36,936,444.0,529,467,60,123.0,147,1,307,203,64,0,0,445,21432,20625,434,-5.59,,,,,,,,,,,,
186444,1564133355436,8,2.23,1.03,0.41,1.52,1.14,0.91,0.29,0.43,-13,-2,-15,0.95,8256,20,103,42,37,926,443.0,540,466,60,123.0,147,1,309,202,64,0,0,443,-18341,19477,434,-5.59,44.681446,10.024751,44.75,176.8,0,0.0,-1,0.0,0.0,0,2.37,3.1074
186464,1564133355456,9,2.24,1.03,0.41,1.53,1.14,0.82,0.32,0.4,-12,-2,-16,0.88,8166,20,103,42,37,911,443.0,533,467,60,123.0,147,1,307,200,64,0,0,446,-18341,-28332,433,-5.59,,,,,,,,,,,,
186484,1564133355476,10,2.23,1.03,0.4,1.53,1.14,0.9,0.26,0.4,-11,0,-15,0.94,8138,20,103,42,37,896,443.0,537,468,60,121.0,147,1,305,200,64,0,0,441,-18341,-768,432,-5.59,,,,,,,,,,,,
186504,1564133355497,10,2.23,1.03,0.41,1.53,1.13,0.9,0.33,0.38,-10,-0,-14,0.95,8127,20,103,42,37,892,437.0,529,465,60,123.0,147,1,306,204,64,0,0,439,-7939,-3322,427,-5.59,,,,,,,,,,,,
186524,1564133355517,10,2.23,1.03,0.41,1.52,1.14,0.89,0.32,0.37,-10,0,-15,0.95,8092,20,103,42,37,888,436.0,526,465,60,123.0,142,1,305,199,61,0,0,439,5600,3826,425,-5.59,,,,,,,,,,,,
186544,1564133355537,11,2.22,1.03,0.4,1.52,1.14,1.0,0.32,0.39,-11,0,-14,1.05,8106,20,103,42,38,884,436.0,535,466,60,122.0,142,1,309,204,61,0,0,438,5600,-4082,422,-5.59,44.681446,10.024734,43.69,176.8,0,0.0,-1,0.0,0.0,0,2.37,3.1091
186564,1564133355557,14,2.2,1.03,0.4,1.52,1.14,0.87,0.3,0.33,-11,2,-14,0.92,8102,20,103,42,38,880,434.0,520,467,60,123.0,142,1,309,126,61,0,0,435,1779,13552,420,-5.59,,,,,,,,,,,,
186584,1564133355577,11,2.2,1.02,0.4,1.53,1.13,0.98,0.26,0.42,-12,1,-15,1.02,7975,19,103,42,38,880,433.0,519,466,60,123.0,142,1,307,204,61,0,0,436,243,-8165,417,-5.59,,,,,,,,,,,,
186604,1564133355598,12,2.2,1.04,0.41,1.52,1.14,1.08,0.3,0.43,-13,0,-14,1.12,7924,20,103,42,39,880,430.0,523,467,60,122.0,142,1,310,131,61,0,0,431,-3314,7154,412,-5.59,,,,,,,,,,,,
186624,1564133355618,13,2.2,1.03,0.4,1.52,1.13,0.97,0.35,0.35,-13,0,-14,1.03,7938,19,103,42,38,877,428.0,504,465,60,123.0,152,1,307,204,63,0,0,428,13180,13040,411,-5.59,,,,,,,,,,,,
186644,1564133355638,10,2.19,1.03,0.41,1.53,1.13,0.97,0.36,0.3,-12,1,-15,1.04,7864,19,103,42,39,873,427.0,504,467,60,123.0,152,1,310,210,63,0,0,428,31796,-4059,407,-5.59,44.681446,10.024719,42.71,176.8,0,0.0,-1,0.0,0.0,0,2.37,3.1107
186664,1564133355658,12,2.18,1.04,0.41,1.52,1.13,1.08,0.38,0.31,-13,1,-14,1.14,7822,19,103,42,40,869,424.0,514,466,60,121.0,152,1,317,211,63,0,0,426,-4082,-26615,407,-5.59,,,,,,,,,,,,
186684,1564133355678,13,2.18,1.03,0.41,1.53,1.13,1.05,0.39,0.39,-13,0,-15,1.12,7809,19,103,42,40,865,424.0,507,467,60,123.0,152,1,317,211,63,0,0,428,-4082,10392,401,-5.59,,,,,,,,,,,,
186704,1564133355697,13,2.17,1.04,0.4,1.53,1.13,0.98,0.44,0.32,-13,-2,-17,1.07,7728,19,103,42,40,861,416.0,508,464,60,122.0,152,1,317,132,63,0,0,419,18584,11560,394,-5.59,,,,,,,,,,,,
186724,1564133355717,14,2.15,1.04,0.41,1.52,1.14,0.89,0.43,0.25,-13,-1,-17,0.99,7716,19,103,42,40,856,416.0,508,467,60,123.0,156,1,317,132,62,0,0,421,-21944,-8151,396,-5.59,,,,,,,,,,,,
186744,1564133355737,13,2.16,1.03,0.4,1.52,1.14,0.81,0.48,0.15,-14,0,-16,0.94,7646,19,103,42,41,854,418.0,502,466,60,123.0,156,1,325,213,62,0,0,420,-3414,-9211,396,-5.59,44.681446,10.024705,41.76,176.8,0,0.0,-1,0.0,0.0,0,2.37,3.1124
186764,1564133355757,15,2.15,1.04,0.4,1.53,1.13,0.82,0.5,0.11,-14,1,-17,0.96,7637,19,103,42,41,854,417.0,508,466,60,123.0,156,1,325,213,62,0,0,418,-21944,-8151,392,-5.59,,,,,,,,,,,,
186784,1564133355777,11,2.15,1.03,0.41,1.52,1.13,0.9,0.46,0.18,-14,2,-18,1.01,7603,19,103,42,41,852,415.0,495,466,60,123.0,156,1,325,213,62,0,0,417,-26615,6512,387,-5.59,,,,,,,,,,,,
186804,1564133355797,11,2.15,1.03,0.4,1.52,1.14,0.99,0.52,0.22,-14,2,-17,1.12,7563,19,103,42,41,849,412.0,509,468,60,122.0,156,1,325,213,62,0,0,414,13040,-1818,387,-5.59,,,,,,,,,,,,
186824,1564133355817,13,2.13,1.04,0.4,1.52,1.13,1.05,0.5,0.39,-15,1,-18,1.17,7533,19,103,42,41,846,409.0,494,468,60,123.0,157,1,325,213,61,0,0,412,-4059,-1562,385,-5.59,,,,,,,,,,,,
186844,1564133355837,12,2.12,1.03,0.4,1.53,1.13,1.1,0.52,0.48,-16,1,-19,1.21,7506,19,103,42,42,843,408.0,502,467,60,122.0,157,1,332,215,61,0,0,406,10392,-3968,380,-5.59,44.681446,10.02469,40.82,176.8,0,0.0,-1,0.0,0.0,0,2.37,3.1141
186864,1564133355857,13,2.11,1.03,0.41,1.52,1.13,1.19,0.45,0.58,-17,1,-20,1.27,7434,19,103,42,42,841,408.0,491,468,60,122.0,157,1,332,214,61,0,0,411,10392,-31744,379,-5.59,,,,,,,,,,,,
186884,1564133355877,13,2.1,1.03,0.4,1.52,1.13,1.23,0.48,0.63,-18,2,-20,1.32,7425,19,103,42,42,840,405.0,488,465,60,122.0,157,1,332,214,61,0,0,411,-9211,240,373,-5.59,,,,,,,,,,,,
186904,1564133355897,16,2.09,1.03,0.41,1.52,1.14,1.19,0.44,0.69,-18,2,-21,1.26,7370,19,103,42,42,840,403.0,472,466,60,124.0,157,1,332,214,61,0,0,406,-8151,-19019,371,-5.59,,,,,,,,,,,,
186924,1564133355917,15,2.08,1.03,0.4,1.52,1.14,1.21,0.49,0.66,-19,2,-22,1.3,7367,19,103,42,43,842,402.0,486,467,60,123.0,161,1,340,216,60,0,0,405,10541,8200,370,-5.59,,,,,,,,,,,,
186944,1564133355937,15,2.08,1.03,0.4,1.52,1.14,1.17,0.59,0.58,-19,3,-23,1.31,7281,19,103,42,43,850,400.0,472,465,60,123.0,161,1,340,216,60,0,0,403,6512,770,365,-5.59,44.681446,10.024675,39.89,176.9,0,0.0,-1,0.0,0.0,0,2.37,3.1157
186964,1564133355957,13,2.07,1.03,0.41,1.52,1.14,1.04,0.66,0.42,-19,3,-24,1.23,7244,19,103,42,43,862,398.0,482,462,60,123.0,161,1,340,216,60,0,0,400,-3968,3,364,-5.59,,,,,,,,,,,,
186984,1564133355977,14,2.07,1.03,0.4,1.53,1.13,1.06,0.72,0.36,-20,2,-24,1.28,7175,19,103,42,44,874,398.0,476,466,60,122.0,161,1,347,218,60,0,0,398,-3968,-6656,360,-5.59,,,,,,,,,,,,
187004,1564133355997,14,2.05,1.03,0.4,1.52,1.13,1.12,0.65,0.48,-21,1,-26,1.29,7137,19,103,42,44,885,394.0,473,466,60,122.0,161,1,347,218,60,0,0,396,-1818,-6656,352,-5.59,,,,,,,,,,,,
187024,1564133356007,17,2.05,1.03,0.4,1.52,1.13,1.18,0.6,0.5,-22,1,-28,1.32,7107,19,103,42,44,899,391.0,470,463,60,123.0,164,1,347,218,58,0,0,396,505,-6656,353,-5.59,,,,,,,,,,,,
187044,1564133356027,15,2.04,1.03,0.4,1.51,1.13,1.16,0.72,0.38,-22,0,-28,1.36,7043,19,103,42,45,917,392.0,465,465,60,123.0,164,1,355,220,58,0,0,391,505,0,349,-5.59,44.681446,10.024662,38.78,176.9,0,0.0,-1,0.0,0.0,0,2.37,3.1174
187064,1564133356047,14,2.03,1.03,0.4,1.51,1.13,1.16,0.81,0.31,-23,-1,-28,1.41,7030,19,103,42,45,933,389.0,476,465,60,121.0,164,1,355,220,58,0,0,391,-6524,2790,348,-5.59,,,,,,,,,,,,
187084,1564133356067,16,2.02,1.03,0.4,1.52,1.13,1.18,0.75,0.37,-24,-0,-29,1.4,7011,19,103,42,45,940,386.0,453,462,60,123.0,164,1,355,220,58,0,0,388,-31744,-6458,345,-5.59,,,,,,,,,,,,
187104,1564133356097,14,2.02,1.03,0.4,1.52,1.13,1.14,0.85,0.26,-24,-1,-29,1.42,6959,19,103,42,46,948,385.0,460,465,60,123.0,164,1,361,221,58,0,0,388,-6475,4104,342,-5.59,,,,,,,,,,,,
187124,1564133356117,13,2.02,1.03,0.4,1.51,1.14,1.11,0.9,0.22,-25,-1,-31,1.43,6949,19,103,42,46,959,382.0,465,466,60,121.0,172,1,361,221,58,0,0,386,-19126,2060,336,-5.59,,,,,,,,,,,,
187144,1564133356137,14,2.01,1.03,0.4,1.52,1.13,1.12,0.84,0.26,-26,-2,-31,1.41,6913,19,103,42,46,967,379.0,452,465,60,124.0,172,1,361,221,58,0,0,378,8200,28553,339,-5.59,44.681442,10.024648,37.58,176.9,0,0.0,-1,0.0,0.0,0,2.37,3.1191
187164,1564133356157,14,2.01,1.03,0.4,1.52,1.13,1.08,0.95,0.17,-26,-2,-33,1.43,6845,18,103,42,46,971,378.0,457,467,60,123.0,172,1,360,223,58,0,0,379,2278,-14707,334,-5.59,,,,,,,,,,,,
187184,1564133356177,15,2.0,1.03,0.4,1.52,1.13,1.15,0.88,0.16,-27,-3,-32,1.45,6771,19,103,42,47,975,375.0,442,466,60,122.0,172,1,367,222,58,0,0,378,770,0,330,-5.59,,,,,,,,,,,,
187204,1564133356197,14,1.99,1.03,0.4,1.52,1.13,1.09,0.93,0.14,-27,-2,-33,1.43,6805,19,103,42,47,982,374.0,443,465,60,123.0,172,1,368,223,58,0,0,375,742,3302,329,-5.59,,,,,,,,,,,,
187224,1564133356217,14,2.0,1.03,0.4,1.51,1.14,1.13,0.91,0.23,-27,-1,-34,1.45,6793,18,103,42,48,987,373.0,453,468,60,122.0,173,1,370,222,57,0,0,372,-6656,6668,328,-5.59,,,,,,,,,,,,
187244,1564133356237,13,1.99,1.03,0.4,1.52,1.13,1.08,0.94,0.22,-28,0,-35,1.43,6720,18,103,42,47,991,372.0,443,463,60,123.0,173,1,367,227,57,0,0,370,1,-14714,327,-5.59,44.681442,10.024636,35.87,176.9,0,0.0,-1,0.0,0.0,0,2.37,3.1207
187264,1564133356257,15,1.99,1.03,0.4,1.52,1.14,1.01,0.86,0.27,-29,-1,-37,1.32,6658,18,103,42,48,994,368.0,451,465,60,122.0,173,1,369,227,57,0,0,370,0,28553,323,-5.59,,,,,,,,,,,,
187284,1564133356277,12,1.99,1.03,0.4,1.52,1.14,1.04,0.9,0.19,-29,0,-38,1.38,6639,18,103,42,48,1000,365.0,443,466,60,123.0,173,1,369,231,57,0,0,367,230,-1246,321,-5.59,,,,,,,,,,,,
187304,1564133356297,15,1.97,1.03,0.4,1.52,1.13,1.1,0.81,0.25,-29,-2,-37,1.37,6611,18,103,42,49,1005,363.0,442,463,60,122.0,173,1,372,227,57,0,0,363,3082,175,318,-5.59,,,,,,,,,,,,
187324,1564133356317,14,1.97,1.02,0.4,1.51,1.14,1.03,0.89,0.26,-29,-2,-39,1.36,6535,18,103,42,49,1006,358.0,443,465,60,122.0,180,1,371,230,57,0,0,360,-29978,4838,319,-5.59,,,,,,,,,,,,
187344,1564133356337,12,1.97,1.03,0.4,1.51,1.14,1.11,0.9,0.17,-30,-1,-39,1.43,6481,18,103,42,49,1008,358.0,426,460,60,124.0,180,1,370,230,57,0,0,363,-29978,-14714,315,-5.59,44.681438,10.024626,34.3,176.9,0,0.0,-1,0.0,0.0,0,2.38,3.1224
187364,1564133356357,14,1.97,1.03,0.41,1.52,1.14,1.05,0.85,0.13,-30,1,-38,1.35,6441,18,103,42,50,1013,357.0,427,465,60,123.0,180,1,373,230,57,0,0,358,-6640,6870,310,-5.59,,,,,,,,,,,,
187384,1564133356377,15,1.97,1.03,0.41,1.52,1.14,1.05,0.89,0.22,-30,0,-39,1.38,6423,18,103,42,50,1018,356.0,431,466,60,122.0,180,1,373,237,57,0,0,355,4104,-12032,310,-5.59,,,,,,,,,,,,
187404,1564133356398,9,1.98,1.03,0.41,1.52,1.14,1.09,0.88,0.21,-31,-1,-39,1.41,6445,18,103,42,50,1022,354.0,431,467,60,122.0,180,1,373,237,57,0,0,353,3302,-25856,308,-5.59,,,,,,,,,,,,
187424,1564133356418,13,1.97,1.02,0.4,1.52,1.14,1.04,0.8,0.11,-32,-1,-39,1.31,6401,18,103,42,50,1026,352.0,420,463,60,124.0,184,1,373,237,57,0,0,353,3183,-23296,308,-5.59,,,,,,,,,,,,
187444,1564133356438,13,1.97,1.02,0.41,1.52,1.14,0.99,0.81,0.22,-31,0,-39,1.28,6349,18,103,42,51,1031,350.0,420,466,60,123.0,184,1,376,236,57,0,0,351,-30454,175,306,-5.59,44.681435,10.024615,33.15,177.0,0,0.0,-1,0.0,0.0,0,2.38,3.1241
187464,1564133356458,14,1.96,1.03,0.4,1.52,1.13,1.0,0.87,0.29,-31,2,-40,1.32,6313,18,103,42,51,1037,348.0,420,469,60,122.0,184,1,375,242,57,0,0,349,-1246,155,303,-5.59,,,,,,,,,,,,
187484,1564133356478,11,1.97,1.02,0.4,1.52,1.13,1.09,0.84,0.26,-32,2,-41,1.38,6364,18,103,42,51,1041,344.0,422,465,60,122.0,184,1,376,242,57,0,0,346,-10554,115,301,-5.59,,,,,,,,,,,,
187504,1564133356497,13,1.97,1.02,0.4,1.52,1.14,1.08,0.85,0.19,-32,0,-40,1.37,6432,17,103,42,51,1043,341.0,419,464,60,123.0,184,1,376,242,57,0,0,342,3327,95,298,-5.59,,,,,,,,,,,,
187524,1564133356517,13,1.98,1.03,0.4,1.52,1.13,1.02,0.76,0.28,-32,1,-41,1.27,6490,17,103,42,51,1045,339.0,429,465,60,123.0,197,1,376,242,59,0,0,336,-122,80,296,-5.59,,,,,,,,,,,,
187544,1564133356537,11,1.97,1.02,0.4,1.51,1.14,1.03,0.82,0.24,-32,1,-42,1.32,6599,17,103,42,51,1049,337.0,437,463,60,123.0,197,1,377,242,59,0,0,337,2560,41,295,-5.59,44.681427,10.024606,32.63,177.0,0,0.0,-1,0.0,0.0,0,2.38,3.1257
187564,1564133356557,14,1.97,1.03,0.4,1.52,1.14,1.1,0.79,0.21,-32,-1,-41,1.35,6648,17,103,42,50,1051,335.0,433,467,60,123.0,197,1,375,237,59,0,0,332,3346,-1534,291,-5.59,,,,,,,,,,,,
187584,1564133356577,12,1.98,1.03,0.4,1.52,1.13,1.0,0.79,0.22,-32,-1,-42,1.28,6737,17,103,42,50,1053,332.0,447,471,60,121.0,197,1,376,237,59,0,0,331,-32559,250,288,-5.59,,,,,,,,,,,,
187604,1564133356596,15,1.98,1.03,0.4,1.52,1.14,1.1,0.79,0.13,-32,-1,-42,1.36,6805,17,103,42,49,1052,329.0,442,463,60,123.0,197,1,373,232,59,0,0,328,-20736,-1527,286,-5.59,,,,,,,,,,,,
187624,1564133356616,12,1.97,1.02,0.4,1.52,1.14,1.08,0.82,0.12,-32,-1,-42,1.36,6895,17,103,42,49,1052,323.0,454,469,60,122.0,212,1,374,232,60,0,0,324,-24576,30208,280,-5.59,,,,,,,,,,,,
187644,1564133356636,17,1.96,1.03,0.4,1.51,1.13,1.12,0.8,0.18,-32,-0,-41,1.37,6952,17,103,42,49,1051,321.0,462,468,60,122.0,212,1,374,228,60,0,0,318,-25856,2414,277,-5.59,44.681423,10.024598,31.38,177.0,0,0.0,-1,0.0,0.0,0,2.38,3.1274
187664,1564133356656,14,1.97,1.03,0.4,1.52,1.13,1.09,0.84,0.08,-32,0,-41,1.37,7014,17,103,42,48,1049,315.0,457,462,60,124.0,212,1,372,229,60,0,0,317,-29696,28160,275,-5.59,,,,,,,,,,,,
187684,1564133356676,15,1.97,1.03,0.4,1.52,1.13,1.04,0.86,0.06,-31,-0,-41,1.35,7148,17,103,42,47,1047,313.0,473,465,60,122.0,212,1,370,224,60,0,0,312,-30976,-1,272,-5.59,,,,,,,,,,,,
187704,1564133356696,14,1.97,1.03,0.4,1.52,1.13,1.11,0.81,0.15,-32,-3,-42,1.37,7200,17,103,42,47,1046,309.0,481,470,60,123.0,212,1,370,224,60,0,0,307,30720,-1,267,-5.59,,,,,,,,,,,,
187724,1564133356716,18,1.96,1.02,0.4,1.52,1.13,1.15,0.75,0.21,-31,-3,-42,1.38,7256,17,103,42,46,1045,306.0,472,464,60,123.0,228,1,362,222,61,0,0,302,115,-41,266,-5.59,,,,,,,,,,,,
187744,1564133356736,18,1.97,1.02,0.4,1.52,1.13,1.08,0.77,0.2,-31,-1,-40,1.33,7364,17,103,42,45,1045,303.0,477,465,60,123.0,228,1,355,220,61,0,0,299,28160,506,264,-5.59,44.681419,10.02459,29.59,177.1,0,0.0,-1,0.0,0.0,0,2.38,3.1291
187764,1564133356756,17,1.97,1.03,0.4,1.52,1.13,1.03,0.8,0.09,-30,-1,-40,1.31,7413,17,103,42,45,1044,300.0,476,468,60,123.0,228,1,355,220,61,0,0,298,95,506,260,-5.59,,,,,,,,,,,,
187784,1564133356776,18,1.97,1.03,0.4,1.52,1.14,1.03,0.87,0.02,-30,-1,-39,1.35,7491,17,103,42,44,1042,295.0,488,466,60,123.0,228,1,347,216,61,0,0,293,23040,-1,256,-5.59,,,,,,,,,,,,
187804,1564133356796,18,1.96,1.03,0.4,1.51,1.13,0.97,0.89,-0.08,-29,2,-40,1.32,7530,17,103,42,43,1040,292.0,485,465,60,123.0,228,1,340,217,61,0,0,293,80,10818,254,-5.59,,,,,,,,,,,,
187824,1564133356816,18,1.96,1.03,0.4,1.52,1.13,0.95,0.86,-0.13,-28,3,-39,1.28,7625,17,103,42,43,1038,287.0,500,466,60,123.0,244,1,340,217,62,0,0,288,41,-214,250,-5.59,,,,,,,,,,,,
187844,1564133356836,20,1.96,1.02,0.4,1.52,1.13,0.99,0.8,-0.11,-28,3,-39,1.27,7646,17,103,42,42,1032,285.0,496,465,60,124.0,244,1,332,215,62,0,0,282,-1529,15360,247,-5.59,44.681416,10.024583,27.46,177.1,0,0.0,-1,0.0,0.0,0,2.38,3.1307
187864,1564133356856,15,1.97,1.03,0.4,1.51,1.14,1.09,0.76,-0.01,-28,1,-39,1.33,7719,17,103,42,42,1025,279.0,513,465,60,123.0,244,1,332,215,62,0,0,279,-1534,23482,243,-5.59,,,,,,,,,,,,
187884,1564133356876,15,1.96,1.02,0.4,1.52,1.13,1.18,0.75,0.09,-28,-0,-39,1.4,7773,17,103,42,42,1018,275.0,515,466,60,122.0,244,1,332,215,62,0,0,274,-1527,250,240,-5.59,,,,,,,,,,,,
187904,1564133356896,16,1.97,1.03,0.4,1.51,1.14,1.22,0.68,0.24,-29,-0,-39,1.4,7776,17,103,42,41,1013,271.0,528,465,60,123.0,244,1,325,213,62,0,0,272,-1281,-1483,237,-5.59,,,,,,,,,,,,
187924,1564133356916,16,1.96,1.03,0.4,1.52,1.14,1.08,0.72,0.18,-28,0,-40,1.3,7789,17,103,42,41,1007,268.0,514,468,60,123.0,265,1,325,213,63,0,0,267,-1,250,236,-5.59,,,,,,,,,,,,
187944,1564133356936,17,1.97,1.03,0.4,1.52,1.14,0.97,0.7,0.06,-27,2,-39,1.2,7747,17,103,42,40,1001,264.0,514,463,60,123.0,265,1,317,211,63,0,0,263,-1,250,232,-5.59,44.681408,10.024578,26.58,177.0,0,0.0,-1,0.0,0.0,0,2.38,3.1324
187964,1564133356956,14,1.96,1.03,0.4,1.52,1.13,0.97,0.69,-0.0,-26,4,-38,1.19,7793,16,103,42,40,995,262.0,520,465,60,123.0,265,1,317,211,63,0,0,261,-1,19968,227,-5.59,,,,,,,,,,,,
187984,1564133356976,14,1.97,1.02,0.41,1.52,1.14,1.07,0.64,0.1,-26,2,-38,1.25,7825,17,103,42,40,993,258.0,520,467,60,122.0,265,1,317,211,63,0,0,257,-10440,-1530,225,-5.59,,,,,,,,,,,,
188004,1564133356996,16,1.97,1.02,0.4,1.52,1.14,1.13,0.59,0.18,-27,-0,-38,1.27,7789,17,103,42,40,989,256.0,520,469,60,122.0,265,1,317,211,63,0,0,253,506,1596,223,-5.59,,,,,,,,,,,,
188024,1564133357008,17,1.96,1.03,0.4,1.52,1.13,1.04,0.55,0.16,-26,0,-38,1.18,7796,17,103,42,39,976,251.0,508,464,60,124.0,280,1,310,210,62,0,0,250,-214,1210,219,-5.59,,,,,,,,,,,,
188044,1564133357028,16,1.97,1.02,0.41,1.52,1.13,0.99,0.61,0.09,-26,2,-37,1.16,7809,17,103,42,39,963,246.0,503,465,60,123.0,280,1,310,210,62,0,0,246,10812,250,215,-5.59,44.6814,10.024573,24.62,177.0,0,0.0,-1,0.0,0.0,0,2.38,3.1341
188064,1564133357048,14,1.97,1.02,0.41,1.52,1.14,1.09,0.6,0.06,-25,0,-36,1.24,7838,16,103,42,39,951,243.0,515,471,60,123.0,280,1,310,210,62,0,0,241,-1445,966,214,-5.59,,,,,,,,,,,,
188084,1564133357068,14,1.98,1.03,0.4,1.52,1.14,1.18,0.55,0.1,-26,-0,-35,1.3,7757,16,103,42,39,937,241.0,516,467,60,122.0,280,1,310,210,62,0,0,236,13468,-14848,208,-5.59,,,,,,,,,,,,
188104,1564133357096,15,1.97,1.03,0.41,1.52,1.14,1.26,0.53,0.19,-26,-0,-35,1.37,7744,16,103,42,39,913,236.0,516,468,60,122.0,280,1,310,210,62,0,0,235,250,-1482,206,-5.59,,,,,,,,,,,,
188124,1564133357116,18,1.97,1.03,0.4,1.53,1.13,1.15,0.54,0.17,-25,-0,-35,1.27,7809,17,103,42,39,888,232.0,507,465,60,123.0,303,1,310,131,62,0,0,230,250,250,201,-5.59,,,,,,,,,,,,
188144,1564133357136,19,1.96,1.03,0.4,1.52,1.13,0.99,0.56,0.07,-24,1,-36,1.14,7789,17,103,42,39,875,226.0,512,467,60,123.0,303,1,310,210,62,0,0,227,10318,250,199,-5.59,44.6814,10.02457,22.87,177.0,0,0.0,-1,0.0,0.0,0,2.38,3.1357
188164,1564133357156,17,1.96,1.03,0.41,1.53,1.13,0.97,0.53,0.01,-23,3,-34,1.11,7809,16,103,42,39,861,222.0,515,467,60,124.0,303,1,310,210,62,0,0,221,1596,-1481,195,-5.59,,,,,,,,,,,,
188184,1564133357176,16,1.96,1.03,0.4,1.53,1.14,1.05,0.46,0.08,-23,2,-34,1.15,7815,17,103,42,39,848,219.0,520,468,60,122.0,303,1,310,210,62,0,0,217,-1532,-1,192,-5.59,,,,,,,,,,,,
188204,1564133357198,17,1.97,1.02,0.41,1.52,1.14,1.15,0.39,0.13,-24,-2,-34,1.21,7773,17,103,42,39,834,215.0,536,468,60,123.0,303,1,310,210,62,0,0,213,-1532,-1,189,-5.59,,,,,,,,,,,,
188224,1564133357218,18,1.97,1.04,0.4,1.52,1.13,1.12,0.39,0.17,-23,-2,-34,1.19,7841,17,103,42,39,833,212.0,522,464,60,124.0,328,1,310,210,62,0,0,208,966,-1,185,-5.59,,,,,,,,,,,,
188244,1564133357238,18,1.98,1.03,0.41,1.52,1.14,1.05,0.42,0.18,-23,-1,-33,1.13,7805,17,103,42,38,832,207.0,506,466,60,123.0,328,1,307,204,62,0,0,206,-1482,-236,180,-5.59,44.681393,10.024567,21.11,177.0,0,0.0,-1,0.0,0.0,0,2.38,3.1374
188264,1564133357258,15,1.97,1.03,0.41,1.52,1.13,1.08,0.42,0.13,-22,-2,-32,1.16,7832,17,103,42,39,830,203.0,510,463,60,123.0,328,1,310,210,62,0,0,200,-1482,-1495,177,-5.59,,,,,,,,,,,,
188284,1564133357278,17,1.98,1.03,0.4,1.53,1.13,1.18,0.4,0.11,-22,-2,-31,1.24,7793,17,103,42,39,829,200.0,511,468,60,122.0,328,1,310,210,62,0,0,198,250,-1281,176,-5.59,,,,,,,,,,,,
188304,1564133357298,17,1.97,1.03,0.4,1.53,1.14,1.24,0.38,0.17,-22,-1,-30,1.3,7751,17,103,42,39,828,194.0,506,468,60,122.0,328,1,310,210,62,0,0,193,14326,-1,170,-5.59,,,,,,,,,,,,
188324,1564133357318,18,1.98,1.03,0.4,1.52,1.14,1.19,0.39,0.23,-22,-1,-31,1.25,7796,17,103,42,39,827,191.0,503,467,60,122.0,364,1,310,210,62,0,0,189,-1281,-1,168,-5.59,,,,,,,,,,,,
188344,1564133357338,19,1.98,1.03,0.4,1.53,1.14,1.06,0.44,0.2,-20,-0,-31,1.15,7793,17,103,42,38,823,185.0,501,464,60,123.0,364,1,307,210,62,0,0,184,-1,-1281,164,-5.59,44.681389,10.024565,18.85,176.9,0,0.0,-1,0.0,0.0,0,2.38,3.1391
188364,1564133357358,17,1.98,1.03,0.41,1.53,1.14,1.02,0.4,0.13,-19,1,-31,1.09,7841,17,103,42,39,818,182.0,509,466,60,123.0,364,1,310,210,62,0,0,181,-1,-1,158,-5.59,,,,,,,,,,,,
188384,1564133357378,15,1.97,1.02,0.41,1.53,1.14,1.07,0.32,0.11,-19,0,-29,1.12,7744,16,103,42,39,814,178.0,504,467,60,123.0,364,1,310,210,62,0,0,177,5134,-165,156,-5.59,,,,,,,,,,,,
188404,1564133357398,17,1.97,1.03,0.41,1.53,1.13,1.17,0.25,0.15,-19,-2,-28,1.2,7747,17,103,42,39,810,172.0,514,469,60,122.0,364,1,310,210,62,0,0,171,250,250,152,-5.59,,,,,,,,,,,,
188424,1564133357418,17,1.98,1.03,0.41,1.52,1.13,1.25,0.26,0.26,-20,-5,-28,1.28,7754,17,103,42,39,808,170.0,514,471,60,122.0,401,1,310,210,61,0,0,168,-1,-1,149,-5.59,,,,,,,,,,,,
188444,1564133357438,17,1.98,1.02,0.41,1.53,1.14,1.2,0.28,0.28,-19,-4,-28,1.24,7735,17,103,42,39,808,167.0,517,468,60,123.0,401,1,310,210,61,0,0,166,-253,-1,146,-5.59,44.681381,10.024564,17.38,176.9,0,0.0,-1,0.0,0.0,0,2.38,3.1407
188464,1564133357458,16,1.98,1.03,0.4,1.53,1.14,1.09,0.31,0.23,-19,-2,-26,1.14,7751,17,103,42,38,810,163.0,508,464,60,123.0,401,1,307,210,61,0,0,164,3072,-236,144,-5.59,,,,,,,,,,,,
188484,1564133357478,14,1.98,1.03,0.41,1.52,1.13,1.0,0.32,0.06,-18,1,-26,1.05,7716,17,103,42,38,813,158.0,504,463,60,124.0,401,1,307,204,61,0,0,157,-1,-1,142,-5.59,,,,,,,,,,,,
188504,1564133357498,12,2.0,1.03,0.4,1.52,1.13,1.01,0.31,-0.01,-17,2,-25,1.06,7712,17,103,42,39,818,156.0,517,470,60,122.0,401,1,310,210,61,0,0,154,-1,-1,138,-5.59,,,,,,,,,,,,
188524,1564133357518,11,2.0,1.03,0.41,1.52,1.13,1.06,0.23,0.07,-17,2,-24,1.08,7709,17,103,42,39,825,153.0,506,467,60,123.0,448,1,310,210,61,0,0,152,-23552,-1,136,-5.59,,,,,,,,,,,,
188544,1564133357538,11,2.02,1.03,0.41,1.52,1.14,1.15,0.19,0.23,-17,-0,-24,1.17,7712,17,103,42,39,830,151.0,512,468,60,122.0,448,1,310,210,61,0,0,149,-1281,-1,134,-5.59,44.681381,10.024562,15.15,176.9,0,0.0,-1,0.0,0.0,0,2.38,3.1424
188564,1564133357558,10,2.05,1.03,0.4,1.52,1.14,1.16,0.18,0.31,-17,-2,-24,1.18,7731,17,103,42,39,833,149.0,511,469,60,122.0,448,1,310,210,61,0,0,147,-1,-1,131,-5.59,,,,,,,,,,,,
188584,1564133357578,12,2.08,1.03,0.41,1.52,1.14,1.09,0.21,0.3,-16,-1,-23,1.11,7731,17,103,42,39,835,146.0,506,464,60,122.0,448,1,310,210,61,0,0,144,-236,-202,129,-5.59,,,,,,,,,,,,
188604,1564133357597,11,2.11,1.03,0.41,1.53,1.13,1.02,0.23,0.23,-15,0,-21,1.04,7754,17,103,42,39,836,140.0,503,465,60,123.0,448,1,310,210,61,0,0,142,250,250,127,-5.59,,,,,,,,,,,,
188624,1564133357617,9,2.13,1.03,0.41,1.53,1.13,1.0,0.18,0.15,-14,1,-21,1.02,7747,17,103,42,39,835,136.0,508,468,60,122.0,488,1,310,210,61,0,0,135,-1,-1482,125,-5.59,,,,,,,,,,,,
188644,1564133357637,8,2.18,1.04,0.4,1.53,1.14,1.04,0.13,0.14,-13,2,-20,1.05,7751,17,103,42,39,833,133.0,525,468,60,122.0,488,1,310,210,61,0,0,133,-1,-1482,124,-5.59,44.681377,10.024562,13.81,176.8,0,0.0,-1,0.0,0.0,0,2.38,3.1441
188664,1564133357657,9,2.21,1.03,0.41,1.52,1.15,1.06,0.06,0.25,-13,1,-19,1.06,7783,17,103,42,39,830,130.0,519,467,60,122.0,488,1,310,210,61,0,0,130,-1,9728,122,-5.59,,,,,,,,,,,,
188684,1564133357677,11,2.23,1.04,0.41,1.53,1.14,1.05,0.04,0.33,-11,0,-18,1.05,7751,17,103,42,39,825,126.0,514,467,60,123.0,488,1,310,210,61,0,0,125,13868,9728,121,-5.59,,,,,,,,,,,,
188704,1564133357697,12,2.27,1.04,0.41,1.53,1.14,1.01,-0.01,0.33,-11,-1,-18,1.01,7757,17,103,42,38,821,122.0,513,465,60,123.0,488,1,307,210,61,0,0,125,13862,-1482,119,-5.59,,,,,,,,,,,,
188724,1564133357717,13,2.3,1.04,0.4,1.53,1.14,0.97,-0.01,0.28,-10,-0,-16,0.97,7770,17,103,42,39,819,122.0,521,467,60,123.0,512,1,310,210,61,0,0,123,-1482,250,117,-5.59,,,,,,,,,,,,
188744,1564133357737,10,2.31,1.04,0.41,1.53,1.14,1.03,-0.01,0.28,-9,-1,-14,1.03,7822,17,103,42,39,816,119.0,525,467,60,122.0,512,1,310,131,61,0,0,119,-1482,-1482,116,-5.59,44.681374,10.024561,12.86,176.8,0,0.0,-1,0.0,0.0,0,2.38,3.1457
188764,1564133357757,12,2.34,1.04,0.41,1.53,1.15,1.13,-0.02,0.3,-8,-3,-13,1.13,7845,17,103,42,39,811,115.0,519,466,60,122.0,512,1,310,210,61,0,0,115,-1482,6656,113,-5.59,,,,,,,,,,,,
188784,1564133357777,13,2.35,1.04,0.41,1.53,1.14,1.15,-0.05,0.31,-8,-2,-11,1.15,7812,17,103,42,39,807,112.0,525,468,60,121.0,512,1,310,210,61,0,0,112,250,250,111,-5.59,,,,,,,,,,,,
188804,1564133357797,14,2.37,1.04,0.41,1.52,1.15,1.09,-0.01,0.3,-7,-1,-10,1.09,7868,17,103,42,39,804,111.0,513,465,60,123.0,512,1,310,210,61,0,0,108,250,250,111,-5.59,,,,,,,,,,,,
188824,1564133357817,10,2.38,1.03,0.41,1.52,1.15,1.04,0.02,0.24,-6,-0,-9,1.04,7845,17,103,42,38,802,108.0,507,464,60,123.0,574,1,307,204,62,0,0,105,250,250,108,-5.59,,,,,,,,,,,,
188844,1564133357837,12,2.38,1.04,0.41,1.53,1.14,1.09,-0.01,0.24,-5,-0,-8,1.09,7861,17,103,42,39,800,105.0,517,470,60,123.0,574,1,310,131,62,0,0,105,250,13838,105,-5.59,44.68137,10.024561,11.66,176.7,0,0.0,-1,0.0,0.0,0,2.38,3.1474
188864,1564133357857,14,2.39,1.03,0.41,1.53,1.15,1.08,-0.0,0.25,-4,-1,-6,1.08,7904,17,103,42,38,799,102.0,516,466,60,123.0,574,1,307,210,62,0,0,100,250,13832,102,-5.59,,,,,,,,,,,,
188884,1564133357877,15,2.39,1.04,0.41,1.53,1.15,0.97,0.04,0.17,-3,1,-6,0.97,7868,17,103,42,38,801,98.0,512,467,60,123.0,574,1,307,204,62,0,0,96,250,13736,98,-5.59,,,,,,,,,,,,
188904,1564133357897,12,2.38,1.04,0.41,1.53,1.14,0.95,0.07,0.15,-2,2,-5,0.95,7918,17,103,42,38,801,98.0,519,467,60,123.0,574,1,307,204,62,0,0,93,-6144,13736,98,-5.59,,,,,,,,,,,,
188924,1564133357917,12,2.37,1.03,0.41,1.53,1.14,1.01,0.03,0.24,-2,0,-4,1.01,7918,17,103,42,38,802,93.0,520,466,60,122.0,622,1,307,204,61,0,0,93,-6144,-1481,93,-5.59,,,,,,,,,,,,
188944,1564133357937,15,2.36,1.04,0.41,1.53,1.14,1.0,0.02,0.23,-2,-0,-4,1.0,7931,17,103,42,38,803,89.0,518,465,60,123.0,622,1,307,204,61,0,0,88,-9728,-1481,89,-5.59,44.681366,10.02456,10.3,176.7,0,0.0,-1,0.0,0.0,0,2.39,3.1491
188964,1564133357957,13,2.37,1.04,0.41,1.53,1.15,0.93,-0.0,0.2,-1,1,-4,0.93,7978,17,103,42,38,802,89.0,526,468,60,123.0,622,1,307,204,61,0,0,84,-13312,14284,89,-5.59,,,,,,,,,,,,
188984,1564133357977,12,2.36,1.04,0.41,1.52,1.14,1.0,0.0,0.27,-1,-0,-3,1.0,8026,17,103,42,38,801,85.0,529,468,60,121.0,622,1,307,204,61,0,0,84,-13312,14284,85,-5.59,,,,,,,,,,,,
189004,1564133357997,12,2.36,1.04,0.41,1.53,1.14,0.99,0.0,0.28,-0,-1,-3,0.99,8005,17,103,42,38,799,80.0,525,465,60,123.0,622,1,307,204,61,0,0,79,250,-16896,80,-5.59,,,,,,,,,,,,
189024,1564133358009,11,2.35,1.04,0.41,1.52,1.14,0.91,-0.02,0.25,0,-0,-3,0.91,8040,17,103,42,37,796,80.0,524,465,60,123.0,750,1,304,199,60,0,0,79,250,-16896,80,-5.59,,,,,,,,,,,,
189044,1564133358029,13,2.35,1.04,0.41,1.52,1.14,0.99,-0.02,0.31,0,-1,-2,0.99,8047,17,103,42,38,794,76.0,523,467,60,122.0,750,1,307,204,60,0,0,75,250,-20480,76,-5.59,44.681362,10.02456,9.22,176.6,0,0.0,-1,0.0,0.0,0,2.39,3.1507
189064,1564133358049,12,2.35,1.04,0.41,1.53,1.14,0.95,-0.01,0.3,1,-2,-2,0.95,8005,17,103,42,37,792,76.0,518,467,60,123.0,750,1,304,199,60,0,0,75,-1481,-20480,76,-5.59,,,,,,,,,,,,
189084,1564133358069,10,2.35,1.04,0.41,1.52,1.15,0.91,-0.0,0.25,1,-1,-2,0.91,8026,17,103,42,37,792,71.0,515,465,60,123.0,750,1,304,199,60,0,0,70,-1481,-1481,71,-5.59,,,,,,,,,,,,
189104,1564133358097,11,2.34,1.04,0.41,1.52,1.15,0.98,-0.01,0.34,1,-1,-2,0.98,8019,17,103,42,37,792,71.0,525,466,60,121.0,750,1,304,199,60,0,0,70,14054,-1481,71,-5.59,,,,,,,,,,,,
189124,1564133358117,14,2.34,1.04,0.41,1.53,1.14,0.91,0.0,0.31,1,-2,-2,0.91,8005,17,103,42,37,794,66.0,521,468,60,122.0,845,1,304,199,60,0,0,65,14054,14054,65,-5.59,,,,,,,,,,,,
189144,1564133358137,12,2.33,1.04,0.41,1.53,1.14,0.9,0.0,0.28,2,-1,-2,0.9,8043,17,103,42,37,797,65.0,529,467,60,122.0,845,1,304,199,60,0,0,65,-1,14054,65,-5.59,44.681362,10.024559,7.48,176.6,0,0.0,-1,0.0,0.0,0,2.39,3.1524
189164,1564133358157,12,2.34,1.03,0.4,1.53,1.15,0.97,-0.02,0.35,2,-2,-1,0.97,8050,17,103,42,37,803,60.0,527,467,60,122.0,845,1,305,199,60,0,0,59,-1,-1,59,-5.59,,,,,,,,,,,,
189184,1564133358177,13,2.32,1.03,0.41,1.53,1.14,0.87,0.01,0.3,2,-1,-2,0.87,8002,17,103,42,37,808,60.0,527,465,60,123.0,845,1,304,199,60,0,0,59,-1,-1,59,-5.59,,,,,,,,,,,,
189204,1564133358197,9,2.33,1.04,0.41,1.53,1.13,0.91,0.03,0.29,2,-1,-1,0.91,8050,17,103,42,37,812,59.0,538,467,60,123.0,845,1,305,199,60,0,0,53,-1,-1,53,-5.59,,,,,,,,,,,,
189224,1564133358217,11,2.33,1.04,0.41,1.53,1.15,0.94,-0.0,0.35,2,-2,-1,0.94,8026,17,103,42,37,816,55.0,541,468,60,122.0,1132,1,304,204,60,0,0,53,-1,-1,53,-5.59,,,,,,,,,,,,
189244,1564133358237,14,2.32,1.04,0.41,1.53,1.14,0.85,0.03,0.31,2,-1,-1,0.85,8002,17,103,42,37,819,55.0,532,465,60,123.0,1132,1,304,199,60,0,0,53,-1,-1,53,-5.59,44.681362,10.024559,6.37,176.6,0,0.0,-1,0.0,0.0,0,2.39,3.1541
189264,1564133358257,11,2.31,1.04,0.41,1.53,1.14,0.88,0.03,0.29,2,-0,-1,0.88,8043,17,103,42,37,823,48.0,528,468,60,123.0,1132,1,304,199,60,0,0,47,-1,-1,46,-5.59,,,,,,,,,,,,
189284,1564133358277,12,2.31,1.03,0.41,1.53,1.15,0.9,0.0,0.32,2,-1,-1,0.9,8036,17,103,42,37,825,48.0,525,465,60,122.0,1132,1,304,199,60,0,0,47,-1,-1,46,-5.59,,,,,,,,,,,,
189304,1564133358297,14,2.3,1.04,0.41,1.53,1.14,0.81,0.04,0.3,3,0,-1,0.81,8009,17,103,42,37,825,48.0,520,466,60,123.0,1132,1,304,199,60,0,0,47,-1,-1,46,-5.59,,,,,,,,,,,,
189324,1564133358317,10,2.3,1.03,0.41,1.52,1.15,0.85,0.05,0.24,2,1,-1,0.85,8016,17,103,42,37,825,46.0,528,467,60,122.0,1304,1,304,199,60,0,0,40,24067,1018,46,-5.59,,,,,,,,,,,,
189344,1564133358337,11,2.29,1.03,0.41,1.53,1.14,0.86,0.05,0.26,2,1,-1,0.86,8043,17,103,42,37,826,41.0,523,468,60,122.0,1304,1,304,199,60,0,0,40,24067,1018,38,-5.59,44.681362,10.024558,4.79,176.5,0,0.0,-1,0.0,0.0,0,2.39,3.1557
189364,1564133358357,14,2.28,1.04,0.41,1.53,1.15,0.77,0.09,0.24,3,2,-1,0.78,8026,17,103,42,37,826,41.0,517,465,60,123.0,1304,1,304,199,60,0,0,40,24067,1018,38,-5.59,,,,,,,,,,,,
189384,1564133358377,9,2.29,1.04,0.41,1.53,1.14,0.86,0.09,0.2,2,2,-1,0.86,8033,17,103,42,37,827,41.0,534,469,60,122.0,1304,1,304,199,60,0,0,40,-1,1018,38,-5.59,,,,,,,,,,,,
189404,1564133358397,12,2.28,1.04,0.41,1.52,1.15,0.82,0.1,0.23,2,2,-1,0.82,8054,17,103,42,37,827,38.0,526,466,60,123.0,1304,1,305,199,60,0,0,31,-1,-1,38,-5.59,,,,,,,,,,,,
189424,1564133358417,9,2.28,1.03,0.41,1.52,1.15,0.79,0.09,0.21,2,3,-2,0.79,8016,17,103,42,37,828,32.0,529,465,60,123.0,1578,1,304,199,60,0,0,31,-1,-1,29,-5.59,,,,,,,,,,,,
189444,1564133358437,11,2.28,1.04,0.41,1.53,1.14,0.87,0.08,0.18,2,3,-1,0.88,8023,17,103,42,37,829,32.0,544,467,60,121.0,1578,1,304,199,60,0,0,31,-1,-1,29,-5.59,44.681362,10.024558,3.62,176.5,0,0.0,-1,0.0,0.0,0,2.39,3.1574
189464,1564133358457,12,2.28,1.03,0.41,1.53,1.15,0.81,0.1,0.23,2,3,-1,0.82,8036,17,103,42,37,830,32.0,534,467,60,122.0,1578,1,304,199,60,0,0,31,-1,-1,29,-5.59,,,,,,,,,,,,
189484,1564133358477,9,2.28,1.03,0.41,1.53,1.15,0.8,0.12,0.19,2,4,-2,0.81,7995,17,103,42,37,832,32.0,538,466,60,122.0,1578,1,304,198,60,0,0,31,-1,-1,29,-5.59,,,,,,,,,,,,
189504,1564133358497,9,2.28,1.04,0.41,1.53,1.15,0.88,0.09,0.16,2,3,-2,0.89,7988,17,103,42,37,835,29.0,543,468,60,122.0,1578,1,304,199,60,0,0,31,-1,-1,29,-5.59,,,,,,,,,,,,
189524,1564133358517,10,2.28,1.03,0.41,1.52,1.15,0.81,0.12,0.2,2,4,-1,0.82,8026,17,103,42,37,837,29.0,531,466,60,123.0,2068,1,304,199,60,0,0,31,-1,-1,29,-5.59,,,,,,,,,,,,
189544,1564133358537,8,2.27,1.04,0.41,1.52,1.15,0.81,0.14,0.17,2,4,-2,0.82,7975,17,103,42,37,840,29.0,524,467,60,122.0,2068,1,304,198,60,0,0,20,-1,-1,29,-5.59,44.681358,10.024558,2.47,176.4,0,0.0,-1,0.0,0.0,0,2.39,3.1591
189564,1564133358557,8,2.27,1.03,0.41,1.53,1.14,0.89,0.11,0.14,1,4,-1,0.89,7975,17,103,42,37,842,22.0,532,467,60,121.0,2068,1,304,198,60,0,0,20,-1,-1,18,-5.59,,,,,,,,,,,,
189584,1564133358577,8,2.28,1.03,0.4,1.53,1.15,0.79,0.13,0.19,1,4,-1,0.8,8012,17,103,42,37,843,22.0,526,465,60,122.0,2068,1,304,199,60,0,0,20,-1,-1,18,-5.59,,,,,,,,,,,,
189604,1564133358596,5,2.27,1.04,0.41,1.52,1.14,0.78,0.15,0.19,1,5,-2,0.8,7985,17,103,42,37,844,22.0,521,467,60,122.0,2068,1,304,198,60,0,0,20,-1,-1,18,-5.59,,,,,,,,,,,,
189624,1564133358616,5,2.28,1.04,0.4,1.52,1.15,0.85,0.12,0.15,1,4,-1,0.86,7978,17,103,42,37,844,22.0,526,468,60,122.0,0,1,304,199,60,0,0,20,-1,-1,18,-5.59,,,,,,,,,,,,
189644,1564133358636,6,2.27,1.03,0.41,1.53,1.14,0.76,0.16,0.22,1,5,-1,0.78,8036,17,103,42,37,843,22.0,526,468,60,123.0,0,1,304,199,60,0,0,20,-1,-1,18,-5.59,44.681358,10.024558,1.48,176.4,0,0.0,-1,0.0,0.0,0,2.39,3.1607
189664,1564133358656,2,2.28,1.04,0.41,1.53,1.14,0.77,0.15,0.21,1,5,-2,0.78,7985,17,103,42,37,843,22.0,529,468,60,122.0,0,1,304,198,60,0,0,20,-1,-1,18,-5.59,,,,,,,,,,,,
189684,1564133358676,1,2.28,1.04,0.41,1.53,1.15,0.84,0.12,0.17,1,5,-1,0.85,7971,17,103,42,37,843,22.0,537,466,60,122.0,0,1,304,198,60,0,0,20,-1,-1,18,-5.59,,,,,,,,,,,,
189704,1564133358696,5,2.27,1.04,0.41,1.53,1.14,0.76,0.14,0.25,1,5,-1,0.78,8019,31,103,42,38,843,22.0,529,465,60,122.0,0,1,307,204,60,0,0,20,-1,-1,18,-5.59,,,,,,,,,,,,
189724,1564133358716,2,2.28,1.03,0.4,1.52,1.15,0.77,0.13,0.23,1,5,-2,0.78,8043,45,103,42,45,843,22.0,533,467,60,123.0,0,1,355,219,63,0,0,20,-1,-1,18,-5.59,,,,,,,,,,,,
189744,1564133358736,4,2.27,1.04,0.41,1.53,1.15,0.84,0.11,0.25,1,4,-1,0.85,8116,56,103,42,53,843,22.0,547,468,60,122.0,0,1,387,264,63,0,0,20,-1,-1,18,-5.59,44.681358,10.024558,0.0,176.4,0,0.0,-1,0.0,0.0,0,2.39,3.1624
189764,1564133358756,1,2.28,1.04,0.41,1.53,1.15,0.76,0.13,0.29,1,5,-0,0.77,8184,67,103,42,61,843,22.0,531,465,60,123.0,0,1,449,320,63,0,0,20,-1,-1,18,-5.59,,,,,,,,,,,,
189784,1564133358776,2,2.28,1.04,0.41,1.53,1.14,0.88,0.14,0.32,0,3,-1,0.89,8322,84,103,42,74,842,22.0,538,469,60,123.0,0,1,433,356,63,0,0,20,-1,-1,18,-5.59,,,,,,,,,,,,
189804,1564133358798,2,2.28,1.03,0.41,1.53,1.15,0.82,0.12,0.31,0,4,-0,0.83,8370,98,103,42,85,843,22.0,537,462,60,122.0,0,1,433,556,63,0,0,20,-1,-1,18,-5.59,,,,,,,,,,,,
189824,1564133358818,4,2.28,1.04,0.41,1.52,1.15,0.78,0.15,0.33,0,2,0,0.8,8546,100,103,42,88,850,18.0,541,464,60,122.0,0,1,433,615,189,0,0,20,1018,-1,18,-5.59,,,,,,,,,,,,
189844,1564133358838,5,2.27,1.04,0.41,1.53,1.15,0.81,0.21,0.34,1,3,1,0.84,9137,100,103,42,88,858,18.0,552,465,60,122.0,0,1,418,615,189,0,0,20,1018,-1,18,-5.59,44.681358,10.024558,0.0,176.4,0,0.0,-1,0.0,0.0,0,2.39,3.1641
189864,1564133358858,4,2.27,1.04,0.41,1.53,1.15,0.87,0.19,0.37,0,2,1,0.89,9740,100,103,42,87,865,18.0,576,464,60,123.0,0,1,408,613,189,0,0,20,1018,-1,18,-5.59,,,,,,,,,,,,
189884,1564133358878,3,2.28,1.04,0.41,1.53,1.15,0.87,0.24,0.31,0,1,2,0.9,10410,100,103,42,86,872,18.0,608,467,60,121.0,0,1,425,605,189,0,0,20,1018,-1,18,-5.59,,,,,,,,,,,,
189904,1564133358898,5,2.27,1.04,0.41,1.53,1.14,0.83,0.29,0.18,0,1,1,0.88,10932,100,103,42,85,961,18.0,627,466,60,122.0,0,1,444,586,189,0,0,20,1018,-1,18,-5.59,,,,,,,,,,,,
189924,1564133358918,4,2.27,1.04,0.41,1.52,1.15,0.83,0.21,0.36,0,1,1,0.86,11552,100,103,42,85,1048,18.0,639,465,60,122.0,0,1,440,586,246,0,0,20,1018,-1,18,-5.59,,,,,,,,,,,,
189944,1564133358938,4,2.28,1.04,0.41,1.53,1.14,0.84,0.13,0.25,0,2,1,0.84,12151,100,103,42,84,1129,18.0,648,465,60,122.0,0,1,440,579,246,0,0,20,1018,-1,18,-5.59,44.681358,10.024558,0.0,176.4,0,0.0,-1,0.0,0.0,0,2.39,3.1657
189964,1564133358958,6,2.27,1.04,0.41,1.53,1.14,0.78,0.24,0.23,1,3,1,0.82,12720,100,103,42,84,1209,18.0,655,463,60,121.0,0,1,440,579,246,0,0,20,1018,-1,18,-5.59,,,,,,,,,,,,
189984,1564133358978,4,2.28,1.04,0.41,1.53,1.14,0.78,0.16,0.26,1,4,0,0.8,13316,100,103,42,84,1242,18.0,664,468,60,121.0,0,1,440,579,246,0,0,20,1018,-1,18,-5.59,,,,,,,,,,,,
190004,1564133358998,7,2.28,1.03,0.41,1.52,1.15,0.82,0.05,0.28,0,3,0,0.82,13756,100,103,42,85,1274,18.0,667,471,60,120.0,0,1,440,596,246,0,0,20,1018,-1,18,-5.59,,,,,,,,,,,,
190024,1564133359010,1,2.27,1.03,0.41,1.52,1.15,0.77,-0.01,0.27,1,2,-0,0.77,14226,100,103,42,84,1247,18.0,670,484,60,123.0,0,1,440,480,313,0,0,20,1018,250,18,-5.59,,,,,,,,,,,,
190044,1564133359030,4,2.28,1.03,0.41,1.53,1.14,0.79,-0.09,0.27,0,2,-1,0.79,14150,100,103,42,85,1200,18.0,679,470,60,123.0,0,1,440,596,313,0,0,0,1018,250,18,-5.59,44.681358,10.024558,0.0,176.4,0,0.0,-1,0.0,0.0,0,2.39,3.1674
190064,1564133359050,7,2.28,1.03,0.41,1.53,1.15,0.83,-0.22,0.39,-0,2,-1,0.86,13950,92,103,42,85,1121,8.0,695,458,60,121.0,0,1,440,518,313,0,0,0,1018,250,0,-5.59,,,,,,,,,,,,
190084,1564133359070,4,2.28,1.03,0.41,1.53,1.15,0.81,-0.22,0.4,-0,2,-2,0.84,13847,71,103,42,81,1037,8.0,666,471,60,122.0,0,1,440,548,313,0,0,0,1018,250,0,-5.59,,,,,,,,,,,,
190104,1564133359098,1,2.28,1.04,0.41,1.52,1.15,0.84,-0.27,0.36,-0,1,-2,0.88,13930,53,103,42,72,990,8.0,680,457,60,121.0,0,1,440,488,313,0,0,0,1018,250,0,-5.59,,,,,,,,,,,,
190124,1564133359118,4,2.28,1.04,0.41,1.53,1.14,0.86,-0.28,0.31,-1,2,-2,0.9,13746,42,103,42,66,955,8.0,665,457,60,121.0,0,1,440,447,250,0,0,0,1018,250,0,-5.59,,,,,,,,,,,,
190144,1564133359138,5,2.28,1.04,0.41,1.53,1.14,0.81,-0.25,0.25,-0,2,-2,0.84,13807,36,103,42,60,943,8.0,678,480,60,121.0,0,1,434,401,250,0,0,0,1018,250,0,-5.59,44.681358,10.024558,0.0,176.5,0,0.0,-1,0.0,0.0,0,2.39,3.1691
190164,1564133359158,6,2.27,1.04,0.41,1.53,1.14,0.82,-0.17,0.29,0,1,-1,0.83,13557,30,103,42,55,939,8.0,681,467,60,121.0,0,1,405,366,250,0,0,0,1018,250,0,-5.59,,,,,,,,,,,,
190184,1564133359178,6,2.27,1.04,0.41,1.53,1.14,0.78,-0.13,0.36,0,3,-1,0.79,13421,29,103,42,51,959,8.0,678,463,60,122.0,0,1,391,316,250,0,0,0,1018,250,0,-5.59,,,,,,,,,,,,
190204,1564133359198,5,2.27,1.04,0.41,1.52,1.15,0.78,-0.23,0.38,-0,2,-1,0.81,13139,29,103,42,48,991,8.0,678,472,60,122.0,0,1,382,194,250,0,0,0,1018,250,0,-5.59,,,,,,,,,,,,
190224,1564133359218,4,2.26,1.04,0.41,1.53,1.14,0.79,-0.2,0.41,0,2,-1,0.81,13020,29,103,42,45,1001,8.0,666,480,60,122.0,0,1,367,251,128,0,0,0,1018,250,0,-5.59,,,,,,,,,,,,
190244,1564133359238,4,2.27,1.04,0.41,1.52,1.15,0.8,-0.15,0.5,0,1,-1,0.81,12895,29,103,42,43,1002,8.0,673,462,60,122.0,0,1,355,247,128,0,0,0,1018,250,0,-5.59,44.681358,10.024558,0.0,176.5,0,0.0,-1,0.0,0.0,0,2.39,3.1707
190264,1564133359258,3,2.28,1.03,0.41,1.53,1.15,0.9,-0.25,0.5,-0,-0,-2,0.93,12617,29,103,42,42,987,8.0,676,457,60,121.0,0,1,348,240,128,0,0,0,1018,250,0,-5.59,,,,,,,,,,,,
190284,1564133359278,3,2.28,1.04,0.41,1.52,1.15,0.83,-0.13,0.53,0,1,-1,0.84,12400,29,103,42,42,956,8.0,666,460,60,121.0,0,1,348,161,128,0,0,0,1018,250,0,-5.59,,,,,,,,,,,,
190304,1564133359298,5,2.28,1.04,0.41,1.53,1.15,0.73,0.07,0.49,1,3,-1,0.73,12214,29,103,42,41,923,8.0,652,467,60,122.0,0,1,342,236,128,0,0,0,1018,250,0,-5.59,,,,,,,,,,,,
190324,1564133359318,5,2.27,1.04,0.41,1.52,1.15,0.68,0.26,0.47,1,5,-0,0.72,12073,29,103,42,40,887,0.0,651,472,60,122.0,0,1,336,231,109,0,0,0,250,250,0,-5.59,,,,,,,,,,,,
190344,1564133359338,4,2.28,1.03,0.42,1.53,1.15,0.62,0.42,0.44,1,6,-0,0.75,11897,29,103,42,40,866,0.0,648,467,60,122.0,0,1,333,231,109,0,0,0,250,250,0,-5.59,44.681358,10.024558,0.0,176.5,0,0.0,-1,0.0,0.0,0,2.39,3.1724
190364,1564133359358,5,2.27,1.03,0.41,1.53,1.15,0.58,0.58,0.51,2,7,1,0.82,11660,29,103,42,41,863,0.0,657,467,60,122.0,0,1,337,155,109,0,0,0,250,250,0,-5.59,,,,,,,,,,,,
190384,1564133359378,4,2.26,1.03,0.41,1.53,1.15,0.58,0.5,0.66,2,7,0,0.77,11432,29,103,42,42,862,0.0,666,470,60,122.0,0,1,342,157,109,0,0,0,250,250,0,-5.59,,,,,,,,,,,,
190404,1564133359398,4,2.28,1.04,0.41,1.53,1.14,0.62,0.45,0.43,2,6,-0,0.77,11281,29,103,42,42,864,0.0,652,467,60,122.0,0,1,342,157,109,0,0,0,250,250,0,-5.59,,,,,,,,,,,,
190424,1564133359418,2,2.28,1.04,0.41,1.53,1.15,0.7,0.39,0.58,2,6,-1,0.8,11134,29,103,42,42,867,0.0,663,468,60,122.0,0,1,342,157,100,0,0,0,250,250,0,-5.59,,,,,,,,,,,,
190444,1564133359438,4,2.27,1.04,0.41,1.53,1.14,0.66,0.49,0.46,2,5,0,0.83,11009,29,103,42,42,873,0.0,658,468,60,122.0,0,1,342,236,100,0,0,0,250,250,0,-5.59,44.681358,10.024558,0.0,176.5,0,0.0,-1,0.0,0.0,0,2.39,3.1741
190464,1564133359458,4,2.27,1.04,0.41,1.53,1.15,0.65,0.25,0.53,1,2,-0,0.7,10977,29,103,42,41,883,0.0,662,470,60,122.0,0,1,335,232,100,0,0,0,250,250,0,-5.59,,,,,,,,,,,,
190484,1564133359478,3,2.28,1.03,0.41,1.53,1.15,0.72,0.23,0.64,1,2,1,0.75,11003,29,103,42,41,897,0.0,662,467,60,122.0,0,1,335,155,100,0,0,0,250,250,0,-5.59,,,,,,,,,,,,
190504,1564133359498,2,2.28,1.03,0.41,1.53,1.15,0.64,0.4,0.52,1,3,1,0.76,10939,29,103,42,41,910,0.0,656,468,60,122.0,0,1,335,231,100,0,0,0,250,250,0,-5.59,,,,,,,,,,,,
190524,1564133359518,4,2.27,1.04,0.41,1.53,1.15,0.66,0.22,0.46,1,4,-1,0.7,10971,29,103,42,40,918,0.0,647,466,60,122.0,0,1,327,150,95,0,0,0,250,250,0,-5.59,,,,,,,,,,,,
190544,1564133359538,2,2.27,1.04,0.42,1.53,1.15,0.73,0.11,0.55,1,4,-1,0.74,10932,29,103,42,40,922,0.0,642,466,60,122.0,0,1,327,229,95,0,0,0,250,250,0,-5.59,44.681358,10.024558,0.0,176.5,0,0.0,-1,0.0,0.0,0,2.39,3.1757
190564,1564133359558,4,2.27,1.04,0.41,1.53,1.14,0.7,0.23,0.61,1,3,-0,0.74,10869,29,103,42,39,913,0.0,656,467,60,121.0,0,1,320,147,95,0,0,0,250,250,0,-5.59,,,,,,,,,,,,
