"Interval"|"ms"|0|0|1,"Utc"|"ms"|0|0|1,"FB_p"|"bar"|0|300|50,"Volant"|"F"|0.0|300.0|50,"xFR"|"mm"|0.0|5.0|50,"xRR"|"mm"|0.0|5.0|50,"xFL"|"mm"|0.0|5.0|50,"xRL"|"mm"|0.0|5.0|50,"AccelX"|"G"|-3.0|3.0|50,"AccelY"|"G"|-3.0|3.0|50,"AccelZ"|"G"|-3.0|3.0|50,"Yaw"|"Deg/Sec"|-120|120|50,"Pitch"|"Deg/Sec"|-120|120|50,"Roll"|"Deg/Sec"|-120|120|50,"Gsum"|"G"|0.0|3.0|50,"RPM"|""|0|14000|50,"TPS"|"%"|0|100|50,"WaterTemp"|"?C"|0|300|50,"AirTemp"|"?C"|-1000|1000|50,"MAP"|"KPa"|0|255|50,"Lambda"|""|0|1024|50,"WheelSpeed"|"MPH"|0.0|150.0|50,"OilPress"|"PSI"|0|150|50,"FuelPress"|"PSI"|0|150|50,"OilTemp"|"F"|0|300|50,"Battery"|"Volts"|0.0|20.0|50,"FuelCon"|"L/h"|-1000|1000|50,"Gear"|""|0|10|50,"Advance"|"Deg"|-360|360|50,"Injection"|"ms"|-1000|1000|50,"FuelCon"|"L/100km"|-1000|1000|50,"LC_But_Pres"|""|-1000|1000|50,"LC_Active"|""|-1000|1000|50,"RD_Speed"|""|-1000|1000|50,"RUD_Speed"|""|-1000|1000|50,"LD_Speed"|""|-1000|1000|50,"LUD_Speed"|""|-1000|1000|50,"Ana1"|"bar"|-1000.0|1000.0|50,"Latitude"|"Degrees"|-180.0|180.0|10,"Longitude"|"Degrees"|-180.0|180.0|10,"Speed"|"kph"|0.0|150.0|10,"Altitude"|"m"|0.0|4000.0|10,"LapCount"|""|0|0|10,"LapTime"|"Min"|0.0|0.0|10,"Sector"|""|0|0|10,"SectorTime"|"Min"|0.0|0.0|10,"ElapsedTime"|"Min"|0.0|0.0|10,"CurrentLap"|""|0|0|10,"Distance"|"km"|0.0|0.0|10,"SessionTime"|"Min"|0.0|0.0|10
448464,1564150051466,-0,2.47,1.0,0.32,1.46,1.12,0.91,-0.29,0.67,20,-5,26,0.96,10515,18,95,44,41,793,640.0,641,471,60,121.0,156,1,335,219,100,0,0,590,-30139,30721,640,-5.59,,,,,,,,,,,,
448484,1564150051486,1,2.48,1.0,0.33,1.46,1.12,0.84,-0.13,0.4,20,-6,30,0.85,10451,15,95,44,39,793,635.0,651,466,60,122.0,156,1,320,213,100,0,0,562,-23055,19304,632,-5.59,,,,,,,,,,,,
448504,1564150051506,-1,2.48,1.0,0.33,1.46,1.12,0.81,-0.01,0.17,20,-4,33,0.81,10557,13,95,44,37,793,632.0,650,468,60,122.0,134,1,314,213,85,0,0,565,243,17740,632,-5.59,,,,,,,,,,,,
448524,1564150051526,1,2.47,1.0,0.32,1.46,1.12,0.83,0.15,-0.02,21,-5,33,0.85,10515,13,95,44,36,807,629.0,643,471,60,122.0,134,1,311,213,85,0,0,539,243,17740,631,-5.59,,,,,,,,,,,,
448544,1564150051546,1,2.46,1.0,0.32,1.47,1.12,0.85,0.3,-0.18,21,-8,34,0.9,10575,13,95,44,35,821,628.0,647,472,60,123.0,134,1,308,213,85,0,0,545,17344,5344,628,-5.59,44.681362,10.024981,62.18,176.6,0,0.0,-1,0.0,0.0,0,3.27,7.4757
448564,1564150051566,2,2.46,1.0,0.33,1.46,1.13,0.78,0.38,-0.37,22,-4,35,0.87,10533,13,95,43,34,834,623.0,639,468,60,123.0,134,1,305,214,85,0,0,526,-28648,-23055,623,-5.59,,,,,,,,,,,,
448584,1564150051586,1,2.47,1.0,0.32,1.47,1.13,0.76,0.42,-0.53,23,-4,38,0.87,10563,13,95,43,33,848,623.0,637,463,60,123.0,134,1,302,214,85,0,0,517,2048,19621,623,-5.59,,,,,,,,,,,,
448604,1564150051606,0,2.47,1.0,0.33,1.46,1.13,0.72,0.41,-0.6,22,-7,39,0.83,10480,13,95,43,33,853,618.0,640,467,60,123.0,135,1,302,213,84,0,0,499,208,-30139,619,-5.59,,,,,,,,,,,,
448624,1564150051626,0,2.47,1.0,0.33,1.46,1.12,0.72,0.49,-0.74,22,-6,39,0.87,10434,13,95,43,33,858,618.0,650,472,60,122.0,135,1,302,212,84,0,0,503,-1894,16529,618,-5.59,,,,,,,,,,,,
448644,1564150051646,1,2.46,1.0,0.33,1.46,1.12,0.71,0.54,-0.86,23,-6,40,0.9,10307,13,95,43,32,853,614.0,623,466,60,122.0,135,1,300,210,84,0,0,535,-25872,19621,614,-5.59,44.681354,10.024996,61.26,176.6,0,0.0,-1,0.0,0.0,0,3.27,7.4774
448664,1564150051666,1,2.46,1.0,0.32,1.47,1.12,0.71,0.62,-0.98,23,-7,40,0.94,10319,13,95,43,32,844,610.0,610,466,60,123.0,135,1,300,210,84,0,0,550,-16384,208,610,-5.59,,,,,,,,,,,,
448684,1564150051686,1,2.46,1.0,0.33,1.46,1.13,0.78,0.52,-0.82,23,-5,38,0.94,10268,13,95,43,32,838,604.0,595,468,60,122.0,135,1,300,209,84,0,0,540,1,-4035,605,-5.59,,,,,,,,,,,,
448704,1564150051706,2,2.46,1.0,0.32,1.47,1.12,0.9,0.27,-0.54,22,-5,36,0.94,10268,13,95,43,31,832,602.0,606,472,60,122.0,135,1,295,206,84,0,0,530,774,10432,602,-5.59,,,,,,,,,,,,
448724,1564150051726,2,2.46,1.0,0.32,1.46,1.12,0.95,0.04,-0.29,21,-4,35,0.95,10307,13,95,43,31,833,601.0,570,463,60,123.0,134,1,295,208,81,0,0,504,1267,15649,604,-5.59,,,,,,,,,,,,
448744,1564150051746,2,2.45,1.0,0.32,1.47,1.12,0.97,-0.16,-0.11,20,-0,33,0.98,10184,13,95,43,31,836,596.0,526,469,60,122.0,134,1,295,204,81,0,0,494,1267,-25872,596,-5.59,44.681343,10.025011,59.56,176.6,0,0.0,-1,0.0,0.0,0,3.27,7.4791
448764,1564150051766,1,2.46,1.0,0.33,1.46,1.13,0.95,-0.05,-0.22,21,-3,34,0.95,10124,13,95,43,30,843,596.0,461,466,60,122.0,134,1,291,203,81,0,0,516,-3190,259,596,-5.59,,,,,,,,,,,,
448784,1564150051786,2,2.46,1.0,0.32,1.46,1.12,0.97,0.02,-0.32,21,-2,34,0.97,10016,13,95,43,31,851,593.0,536,475,60,120.0,134,1,295,202,81,0,0,536,-18032,-8188,593,-5.59,,,,,,,,,,,,
448804,1564150051807,1,2.46,1.0,0.32,1.46,1.12,1.08,-0.18,-0.09,21,-3,29,1.09,9962,13,95,43,30,858,586.0,573,469,60,123.0,126,1,291,198,74,0,0,541,6273,-16384,586,-5.59,,,,,,,,,,,,
448824,1564150051827,1,2.46,0.99,0.32,1.46,1.12,0.96,-0.26,-0.1,21,-6,30,1.0,10026,13,95,43,30,863,585.0,620,473,60,122.0,126,1,291,199,74,0,0,532,-22359,-8188,585,-5.59,,,,,,,,,,,,
448844,1564150051847,3,2.45,1.0,0.32,1.47,1.12,1.07,-0.13,-0.26,20,-3,32,1.08,10005,12,95,43,30,877,580.0,623,476,60,122.0,126,1,291,199,74,0,0,514,-22359,-8186,580,-5.59,44.681332,10.025025,58.2,176.6,0,0.0,-1,0.0,0.0,0,3.28,7.4807
448864,1564150051867,2,2.45,0.99,0.32,1.46,1.12,1.11,-0.31,-0.04,19,-4,31,1.15,9941,13,95,43,29,896,577.0,627,471,60,123.0,126,1,287,195,74,0,0,501,-28648,1267,579,-5.59,,,,,,,,,,,,
448884,1564150051887,0,2.44,1.0,0.32,1.46,1.1,1.04,-0.23,-0.1,19,-4,31,1.06,9936,13,95,43,29,912,574.0,633,470,60,122.0,126,1,287,195,74,0,0,503,-32248,6273,574,-5.59,,,,,,,,,,,,
448904,1564150051907,2,2.45,1.0,0.33,1.46,1.13,1.14,-0.22,-0.02,18,-4,30,1.16,9904,12,95,43,29,925,571.0,638,471,60,123.0,126,1,287,195,74,0,0,511,2104,-28648,571,-5.59,,,,,,,,,,,,
448924,1564150051927,-0,2.45,1.0,0.33,1.46,1.13,1.13,-0.39,0.18,18,-4,28,1.19,9832,13,95,43,29,947,568.0,640,472,60,122.0,126,1,287,194,72,0,0,509,-22519,-28648,571,-5.59,,,,,,,,,,,,
448944,1564150051947,3,2.45,1.0,0.32,1.46,1.12,1.22,-0.27,0.01,17,-4,29,1.25,9863,12,95,43,28,978,565.0,633,475,60,122.0,126,1,282,192,72,0,0,523,1779,-28648,565,-5.59,44.68132,10.025037,56.96,176.6,0,0.0,-1,0.0,0.0,0,3.28,7.4824
448964,1564150051967,1,2.44,1.0,0.32,1.46,1.12,1.23,-0.44,0.2,17,-3,27,1.31,9873,13,95,43,28,1004,561.0,632,471,60,122.0,126,1,282,192,72,0,0,527,-8186,-2336,558,-5.59,,,,,,,,,,,,
448984,1564150051987,1,2.45,0.99,0.33,1.46,1.11,1.17,-0.32,-0.02,18,-2,26,1.22,9816,12,95,43,28,1022,556.0,638,476,60,121.0,126,1,282,192,72,0,0,522,6274,-30064,558,-5.59,,,,,,,,,,,,
449004,1564150051999,2,2.45,0.99,0.32,1.46,1.12,1.26,-0.49,0.15,17,-1,25,1.35,9806,12,95,43,27,1045,554.0,636,467,60,122.0,126,1,278,189,70,0,0,515,-22519,-8186,554,-5.59,,,,,,,,,,,,
449024,1564150052019,-1,2.46,0.99,0.32,1.45,1.11,1.13,-0.47,0.1,17,-1,26,1.23,9842,12,95,43,28,1076,551.0,648,465,60,122.0,126,1,282,191,70,0,0,515,-28648,2104,551,-5.59,,,,,,,,,,,,
449044,1564150052039,2,2.46,0.99,0.32,1.46,1.11,1.12,-0.54,0.08,17,-2,24,1.25,9816,12,95,43,28,1101,546.0,637,468,60,123.0,126,1,282,191,70,0,0,515,2088,-28648,549,-5.59,44.681309,10.025048,55.13,176.6,0,0.0,-1,0.0,0.0,0,3.28,7.4841
449064,1564150052059,1,2.45,1.0,0.33,1.47,1.12,0.99,-0.55,0.05,17,0,24,1.13,9725,12,95,43,28,1113,546.0,640,466,60,122.0,126,1,282,191,70,0,0,508,10408,2104,546,-5.59,,,,,,,,,,,,
449084,1564150052079,2,2.45,1.0,0.33,1.47,1.12,1.1,-0.55,0.01,17,-0,24,1.23,9669,12,95,43,28,1117,544.0,639,469,60,122.0,126,1,282,190,70,0,0,516,1341,-28648,544,-5.59,,,,,,,,,,,,
449104,1564150052107,2,2.46,1.0,0.32,1.46,1.12,1.0,-0.45,0.08,17,-0,24,1.1,9664,13,95,43,28,1095,542.0,633,475,60,122.0,127,1,282,190,69,0,0,502,1248,6274,542,-5.59,,,,,,,,,,,,
449124,1564150052127,1,2.46,1.0,0.32,1.46,1.12,1.1,-0.6,0.19,17,2,23,1.25,9640,12,95,43,28,1071,540.0,631,466,60,122.0,127,1,282,190,69,0,0,505,-14,10408,540,-5.59,,,,,,,,,,,,
449144,1564150052147,2,2.46,1.0,0.33,1.45,1.13,1.03,-0.54,0.09,17,-1,24,1.16,9546,12,95,44,28,1038,536.0,643,468,60,121.0,127,1,282,188,69,0,0,505,-3482,-9212,537,-5.59,44.681297,10.025058,53.81,176.6,0,0.0,-1,0.0,0.0,0,3.28,7.4857
449164,1564150052167,0,2.45,1.0,0.32,1.46,1.12,1.02,-0.53,0.21,17,2,22,1.15,9498,12,95,44,28,1006,534.0,630,470,60,122.0,127,1,282,187,69,0,0,502,-3856,6274,532,-5.59,,,,,,,,,,,,
449184,1564150052187,2,2.46,0.99,0.33,1.46,1.12,1.07,-0.59,0.2,17,1,23,1.22,9464,12,95,44,28,977,533.0,622,469,60,123.0,127,1,282,187,69,0,0,490,-3414,15679,530,-5.59,,,,,,,,,,,,
449204,1564150052207,3,2.45,1.0,0.33,1.46,1.12,1.13,-0.48,0.12,16,1,24,1.23,9474,13,95,44,28,948,528.0,627,465,60,122.0,126,1,282,187,67,0,0,494,-21872,2524,528,-5.59,,,,,,,,,,,,
449224,1564150052227,-0,2.47,0.99,0.32,1.46,1.12,1.12,-0.52,0.24,16,1,24,1.23,9436,12,95,44,29,952,525.0,636,467,60,123.0,126,1,287,188,67,0,0,492,-32248,-14,525,-5.59,,,,,,,,,,,,
449244,1564150052247,1,2.46,1.0,0.33,1.46,1.13,1.08,-0.62,0.24,16,-0,23,1.24,9389,12,95,44,28,955,522.0,633,467,60,123.0,126,1,282,187,67,0,0,488,-22519,-4054,522,-5.59,44.681286,10.025066,52.14,176.6,0,0.0,-1,0.0,0.0,0,3.28,7.4874
449264,1564150052267,0,2.46,1.0,0.32,1.46,1.12,1.06,-0.62,0.24,16,0,23,1.23,9375,13,95,44,28,959,521.0,636,472,60,123.0,126,1,282,187,67,0,0,488,-22519,16383,521,-5.59,,,,,,,,,,,,
449284,1564150052287,1,2.46,1.0,0.33,1.46,1.13,1.16,-0.57,0.2,16,0,24,1.29,9282,13,95,44,28,962,518.0,636,473,60,123.0,126,1,282,186,67,0,0,487,-9216,-32248,518,-5.59,,,,,,,,,,,,
449304,1564150052307,3,2.46,0.99,0.32,1.46,1.12,1.13,-0.49,0.28,16,0,24,1.23,9222,12,95,44,29,962,518.0,637,471,60,122.0,126,1,287,186,67,0,0,483,-6528,-21872,518,-5.59,,,,,,,,,,,,
449324,1564150052327,-2,2.46,1.0,0.33,1.46,1.12,1.15,-0.54,0.36,16,-2,23,1.27,9177,13,95,44,29,961,513.0,617,463,60,123.0,125,1,287,185,65,0,0,482,-1818,-32248,513,-5.59,,,,,,,,,,,,
449344,1564150052347,-1,2.47,0.99,0.33,1.46,1.12,0.96,-0.64,0.35,16,1,23,1.16,9164,13,95,44,28,960,512.0,621,462,60,122.0,125,1,282,185,65,0,0,480,-6656,3,511,-5.59,44.681274,10.025075,51.22,176.6,0,0.0,-1,0.0,0.0,0,3.28,7.4891
449364,1564150052367,2,2.47,0.99,0.33,1.46,1.12,0.89,-0.74,0.32,16,1,22,1.16,9164,12,95,44,28,958,511.0,613,470,60,123.0,125,1,282,185,65,0,0,479,-1562,771,510,-5.59,,,,,,,,,,,,
449384,1564150052387,1,2.46,0.99,0.32,1.46,1.12,0.88,-0.85,0.26,16,3,22,1.22,9155,13,95,44,27,957,506.0,609,471,60,123.0,125,1,278,184,65,0,0,480,-10483,-28648,509,-5.59,,,,,,,,,,,,
449404,1564150052407,2,2.46,0.99,0.32,1.46,1.12,0.97,-0.79,0.18,16,3,22,1.25,9150,12,95,44,27,956,504.0,614,476,60,122.0,125,1,278,184,65,0,0,478,3580,-9216,505,-5.59,,,,,,,,,,,,
449424,1564150052427,1,2.46,0.99,0.32,1.46,1.12,1.07,-0.71,0.2,16,2,22,1.28,9195,13,95,44,26,949,503.0,617,470,60,121.0,125,1,274,184,63,0,0,478,32033,2524,502,-5.59,,,,,,,,,,,,
449444,1564150052447,3,2.46,0.99,0.32,1.46,1.12,1.17,-0.57,0.21,16,0,22,1.3,9159,13,95,44,26,942,502.0,618,470,60,121.0,125,1,274,184,63,0,0,478,2212,3,502,-5.59,44.681263,10.025082,49.76,176.6,0,0.0,-1,0.0,0.0,0,3.29,7.4907
449464,1564150052467,3,2.45,1.0,0.32,1.46,1.12,1.25,-0.41,0.27,16,-2,23,1.32,9101,13,95,44,25,936,500.0,629,467,60,121.0,125,1,270,184,63,0,0,479,16648,998,500,-5.59,,,,,,,,,,,,
449484,1564150052487,3,2.46,1.0,0.32,1.47,1.12,1.21,-0.34,0.36,16,-2,23,1.26,9066,13,95,44,25,930,499.0,627,461,60,122.0,125,1,270,184,63,0,0,472,-17956,-32768,499,-5.59,,,,,,,,,,,,
449504,1564150052507,2,2.46,1.0,0.33,1.46,1.12,1.23,-0.23,0.44,16,-4,23,1.25,9005,13,95,44,25,914,498.0,620,468,60,121.0,125,1,270,184,63,0,0,473,-9203,771,498,-5.59,,,,,,,,,,,,
449524,1564150052527,2,2.45,1.0,0.33,1.46,1.12,1.2,-0.16,0.59,16,-3,24,1.21,8971,13,95,44,25,897,496.0,620,467,60,121.0,124,1,270,184,62,0,0,476,3576,1,497,-5.59,,,,,,,,,,,,
449544,1564150052547,1,2.47,0.99,0.32,1.46,1.13,1.22,-0.06,0.71,16,-5,24,1.22,8937,13,95,44,25,884,495.0,610,468,60,122.0,124,1,270,184,62,0,0,467,3576,-6441,495,-5.59,44.681252,10.025087,48.76,176.6,0,0.0,-1,0.0,0.0,0,3.29,7.4924
449564,1564150052567,3,2.46,1.0,0.33,1.46,1.13,1.26,0.01,0.77,16,-5,23,1.26,8898,13,95,44,25,873,491.0,614,465,60,121.0,124,1,270,184,62,0,0,467,32033,1,491,-5.59,,,,,,,,,,,,
449584,1564150052587,2,2.46,1.0,0.33,1.46,1.13,1.34,0.1,0.82,16,-7,23,1.34,8873,13,95,44,26,864,491.0,600,469,60,122.0,124,1,274,184,62,0,0,469,10432,3580,491,-5.59,,,,,,,,,,,,
449604,1564150052607,1,2.46,0.99,0.33,1.46,1.12,1.41,0.06,0.81,16,-7,24,1.41,8819,13,95,44,25,856,490.0,603,471,60,122.0,124,1,270,110,62,0,0,465,-3210,3580,491,-5.59,,,,,,,,,,,,
449624,1564150052627,1,2.46,0.99,0.32,1.47,1.12,1.47,-0.08,0.74,15,-7,23,1.47,8798,13,95,44,26,855,487.0,600,471,60,122.0,124,1,274,184,61,0,0,461,243,1,489,-5.59,,,,,,,,,,,,
449644,1564150052647,0,2.46,1.0,0.33,1.46,1.13,1.44,-0.23,0.6,14,-5,24,1.46,8790,13,95,44,26,858,486.0,607,467,60,122.0,124,1,274,184,61,0,0,463,30272,3580,486,-5.59,44.68124,10.025092,47.94,176.7,0,0.0,-1,0.0,0.0,0,3.29,7.4941
449664,1564150052667,-1,2.46,1.0,0.33,1.45,1.12,1.34,-0.4,0.44,15,-3,23,1.39,8765,13,95,44,26,865,483.0,604,469,60,122.0,124,1,274,184,61,0,0,463,6193,32033,483,-5.59,,,,,,,,,,,,
449684,1564150052687,3,2.46,1.0,0.33,1.46,1.12,1.17,-0.41,0.44,15,-2,23,1.24,8733,13,95,44,26,875,483.0,612,467,60,122.0,124,1,274,184,61,0,0,457,6193,-17956,483,-5.59,,,,,,,,,,,,
449704,1564150052705,1,2.47,1.0,0.33,1.46,1.12,1.1,-0.31,0.43,16,-0,22,1.14,8704,13,95,44,26,882,483.0,615,467,60,122.0,124,1,274,184,61,0,0,459,2211,10305,483,-5.59,,,,,,,,,,,,
449724,1564150052725,0,2.46,1.0,0.33,1.47,1.13,1.19,-0.19,0.58,16,-1,22,1.2,8676,14,95,44,26,888,480.0,620,466,60,122.0,124,1,274,184,60,0,0,458,14488,-23367,480,-5.59,,,,,,,,,,,,
449744,1564150052745,1,2.46,1.0,0.32,1.46,1.12,1.27,-0.23,0.65,16,-2,21,1.29,8708,14,95,44,26,894,478.0,596,472,60,123.0,124,1,274,184,60,0,0,451,-26615,-1923,478,-5.59,44.681229,10.025096,47.3,176.7,0,0.0,-1,0.0,0.0,0,3.29,7.4957
449764,1564150052765,-1,2.46,1.0,0.32,1.47,1.12,1.22,-0.41,0.6,16,-1,21,1.29,8672,14,95,44,27,900,476.0,599,468,60,123.0,124,1,278,184,60,0,0,457,-26615,32033,476,-5.59,,,,,,,,,,,,
449784,1564150052785,3,2.45,1.0,0.33,1.47,1.12,1.08,-0.49,0.41,15,-0,22,1.19,8644,14,95,44,27,903,473.0,592,466,60,121.0,124,1,278,184,60,0,0,454,2524,-9203,473,-5.59,,,,,,,,,,,,
449804,1564150052806,2,2.46,1.0,0.33,1.46,1.12,1.11,-0.37,0.45,16,-1,22,1.17,8604,14,95,44,27,903,474.0,585,470,60,122.0,124,1,278,184,60,0,0,450,-8985,-1923,474,-5.59,,,,,,,,,,,,
449824,1564150052826,1,2.47,1.0,0.33,1.47,1.12,1.17,-0.32,0.49,16,0,22,1.21,8553,14,95,44,27,900,472.0,595,468,60,123.0,126,1,278,184,60,0,0,449,15649,10432,473,-5.59,,,,,,,,,,,,
449844,1564150052846,0,2.46,1.0,0.33,1.46,1.12,1.06,-0.48,0.45,15,0,22,1.17,8534,15,95,44,28,896,473.0,591,466,60,121.0,126,1,282,184,60,0,0,450,15649,-16384,473,-5.59,44.681217,10.0251,46.61,176.7,0,0.0,-1,0.0,0.0,0,3.29,7.4974
449864,1564150052866,2,2.45,1.0,0.33,1.46,1.12,1.06,-0.48,0.37,16,-1,21,1.16,8499,15,95,44,28,891,472.0,596,467,60,122.0,126,1,282,183,60,0,0,447,10305,-9160,472,-5.59,,,,,,,,,,,,
449884,1564150052886,1,2.46,1.0,0.33,1.47,1.12,1.15,-0.39,0.53,16,0,21,1.21,8488,15,95,44,28,887,467.0,586,471,60,122.0,126,1,282,183,60,0,0,444,16648,243,467,-5.59,,,,,,,,,,,,
449904,1564150052906,3,2.46,0.99,0.33,1.46,1.12,0.98,-0.52,0.42,16,1,21,1.11,8476,15,95,44,28,882,468.0,587,468,60,123.0,123,1,282,182,58,0,0,442,16648,16408,468,-5.59,,,,,,,,,,,,
449924,1564150052926,2,2.46,1.0,0.33,1.45,1.12,1.06,-0.49,0.41,15,0,22,1.17,8472,15,95,44,28,876,466.0,590,469,60,122.0,123,1,282,180,58,0,0,441,2131,2211,464,-5.59,,,,,,,,,,,,
449944,1564150052946,0,2.46,1.0,0.32,1.46,1.12,1.14,-0.45,0.5,15,1,21,1.22,8430,15,95,44,28,871,464.0,591,468,60,122.0,123,1,282,179,58,0,0,440,21432,12552,464,-5.59,44.681202,10.025102,45.94,176.7,0,0.0,-1,0.0,0.0,0,3.29,7.4991
449964,1564150052966,3,2.46,1.0,0.33,1.45,1.12,0.96,-0.48,0.32,16,1,22,1.08,8419,16,94,44,29,870,462.0,601,467,60,121.0,123,1,286,179,58,0,0,441,26704,-9160,464,-5.59,,,,,,,,,,,,
449984,1564150052986,1,2.46,1.0,0.32,1.46,1.12,1.07,-0.41,0.4,16,1,22,1.15,8400,16,95,44,29,869,463.0,593,470,60,122.0,123,1,286,180,58,0,0,440,23400,17628,463,-5.59,,,,,,,,,,,,
450004,1564150053000,-0,2.46,1.0,0.32,1.47,1.12,1.02,-0.44,0.48,16,3,21,1.11,8396,16,95,44,29,867,462.0,586,469,60,122.0,121,1,285,178,56,0,0,440,-28332,-9160,462,-5.59,,,,,,,,,,,,
450024,1564150053020,2,2.45,0.99,0.32,1.46,1.12,1.06,-0.4,0.41,16,1,22,1.13,8370,16,95,44,30,867,460.0,586,467,60,121.0,121,1,289,177,56,0,0,439,-28332,-18108,460,-5.59,,,,,,,,,,,,
450044,1564150053040,-0,2.46,1.0,0.32,1.45,1.12,1.07,-0.41,0.47,15,2,21,1.14,8325,16,95,44,30,867,458.0,577,467,60,122.0,121,1,288,175,56,0,0,433,-28332,-9160,458,-5.59,44.681194,10.025104,45.1,176.7,0,0.0,-1,0.0,0.0,0,3.29,7.5007
450064,1564150053060,3,2.45,1.0,0.32,1.46,1.12,0.95,-0.47,0.41,16,3,22,1.06,8278,16,94,44,30,868,456.0,577,466,60,122.0,121,1,287,174,56,0,0,434,-7939,17628,459,-5.59,,,,,,,,,,,,
450084,1564150053080,1,2.46,1.0,0.32,1.47,1.12,1.02,-0.43,0.56,16,3,21,1.11,8311,16,95,44,30,869,456.0,573,472,60,123.0,121,1,288,175,56,0,0,434,-7939,-26615,456,-5.59,,,,,,,,,,,,
450104,1564150053106,3,2.45,0.99,0.33,1.46,1.12,0.9,-0.5,0.46,16,2,20,1.03,8285,16,94,44,31,871,455.0,582,470,60,122.0,121,1,291,174,56,0,0,435,-768,-8985,456,-5.59,,,,,,,,,,,,
450124,1564150053126,0,2.47,0.99,0.32,1.46,1.12,1.01,-0.51,0.57,16,3,21,1.13,8241,16,95,45,31,871,456.0,578,466,60,123.0,120,1,290,173,55,0,0,433,-768,-8985,456,-5.59,,,,,,,,,,,,
450144,1564150053146,3,2.46,1.0,0.33,1.46,1.12,0.88,-0.5,0.46,16,4,20,1.01,8227,17,94,45,31,873,455.0,585,468,60,123.0,120,1,290,173,55,0,0,431,1779,-3267,453,-5.59,44.681183,10.025105,44.42,176.7,0,0.0,-1,0.0,0.0,0,3.29,7.5024
450164,1564150053166,-1,2.46,0.99,0.33,1.46,1.12,0.99,-0.46,0.55,15,3,21,1.09,8259,17,95,45,32,875,452.0,585,468,60,123.0,120,1,295,174,55,0,0,434,-3314,8488,452,-5.59,,,,,,,,,,,,
450184,1564150053186,3,2.46,1.0,0.32,1.45,1.12,0.88,-0.47,0.4,15,2,22,1.0,8252,17,94,45,32,877,451.0,586,471,60,122.0,120,1,295,175,55,0,0,428,1779,15649,450,-5.59,,,,,,,,,,,,
450204,1564150053206,0,2.46,1.0,0.32,1.46,1.12,0.97,-0.45,0.46,16,1,21,1.07,8212,17,95,45,32,878,449.0,581,468,60,122.0,120,1,294,173,55,0,0,429,3635,16648,449,-5.59,,,,,,,,,,,,
450224,1564150053226,2,2.47,0.99,0.32,1.46,1.12,0.87,-0.45,0.4,16,1,21,0.98,8184,17,94,45,32,879,449.0,595,468,60,122.0,118,1,293,172,53,0,0,428,13180,-3267,448,-5.59,,,,,,,,,,,,
450244,1564150053246,-1,2.47,0.99,0.32,1.46,1.12,0.89,-0.42,0.47,16,2,21,0.98,8187,17,95,45,32,882,450.0,582,469,60,123.0,118,1,293,172,53,0,0,427,31796,8488,450,-5.59,44.681171,10.025105,43.97,176.7,0,0.0,-1,0.0,0.0,0,3.3,7.5041
450264,1564150053266,2,2.46,0.99,0.32,1.46,1.11,0.86,-0.43,0.45,16,1,21,0.96,8148,17,95,45,32,885,446.0,582,469,60,122.0,118,1,292,175,53,0,0,425,13552,16648,449,-5.59,,,,,,,,,,,,
450284,1564150053286,0,2.46,0.99,0.33,1.46,1.11,0.81,-0.44,0.41,17,3,21,0.92,8106,17,95,45,32,886,447.0,586,466,60,123.0,118,1,292,169,53,0,0,422,-4082,20625,447,-5.59,,,,,,,,,,,,
450304,1564150053308,1,2.47,0.99,0.32,1.47,1.12,0.93,-0.41,0.44,16,1,21,1.02,8064,17,94,45,33,888,446.0,573,468,60,122.0,118,1,293,173,53,0,0,425,-4082,-6387,446,-5.59,,,,,,,,,,,,
450324,1564150053328,3,2.47,1.0,0.33,1.46,1.12,0.81,-0.41,0.35,17,1,20,0.91,8085,17,94,45,33,892,445.0,565,468,60,122.0,118,1,293,173,53,0,0,422,-4082,21432,444,-5.59,,,,,,,,,,,,
450344,1564150053348,0,2.47,1.0,0.32,1.46,1.12,0.93,-0.4,0.38,17,2,21,1.02,8040,17,95,45,33,897,444.0,563,470,60,122.0,118,1,292,171,53,0,0,423,-3414,21432,444,-5.59,44.681164,10.025104,43.63,176.7,0,0.0,-1,0.0,0.0,0,3.3,7.5057
450364,1564150053368,-0,2.48,0.99,0.33,1.46,1.12,0.96,-0.37,0.35,16,-0,21,1.03,8040,17,94,45,34,901,443.0,575,469,60,121.0,118,1,295,177,53,0,0,421,-21792,5600,443,-5.59,,,,,,,,,,,,
450384,1564150053388,2,2.48,0.99,0.33,1.46,1.12,0.86,-0.39,0.32,17,1,22,0.95,8047,17,95,45,33,904,443.0,574,467,60,123.0,118,1,292,176,53,0,0,419,7154,-18341,443,-5.59,,,,,,,,,,,,
450404,1564150053406,0,2.47,1.0,0.33,1.47,1.12,0.98,-0.36,0.37,17,1,23,1.04,8002,17,95,45,34,907,443.0,579,469,60,123.0,118,1,295,176,53,0,0,420,-8165,21432,443,-5.59,,,,,,,,,,,,
450424,1564150053426,1,2.48,0.99,0.32,1.46,1.12,0.99,-0.38,0.4,16,-1,21,1.06,7992,17,94,45,34,912,441.0,587,466,60,121.0,119,1,295,175,53,0,0,419,-3414,-28332,441,-5.59,,,,,,,,,,,,
450444,1564150053446,1,2.48,1.0,0.33,1.46,1.12,0.89,-0.41,0.37,16,1,22,0.98,8012,17,94,45,34,914,441.0,585,465,60,122.0,119,1,295,176,53,0,0,416,-3414,-18341,441,-5.59,44.681148,10.025103,43.28,176.7,0,0.0,-1,0.0,0.0,0,3.3,7.5074
450464,1564150053466,-0,2.48,0.99,0.33,1.46,1.12,1.0,-0.41,0.43,16,1,24,1.09,7978,17,95,45,35,916,441.0,571,470,60,123.0,119,1,298,175,53,0,0,415,-3414,-3322,438,-5.59,,,,,,,,,,,,
450484,1564150053486,1,2.48,1.0,0.33,1.46,1.12,1.0,-0.47,0.49,16,-0,22,1.1,7971,17,95,45,34,917,438.0,575,468,60,121.0,119,1,295,176,53,0,0,412,2524,-28332,438,-5.59,,,,,,,,,,,,
450504,1564150053508,3,2.47,1.0,0.32,1.47,1.12,0.9,-0.47,0.42,16,1,22,1.02,7988,17,95,45,34,918,437.0,570,467,60,123.0,123,1,295,181,54,0,0,413,-26615,21580,437,-5.59,,,,,,,,,,,,
450524,1564150053528,-0,2.48,0.99,0.32,1.46,1.12,1.01,-0.48,0.45,16,1,24,1.12,7934,17,95,45,35,918,437.0,565,468,60,124.0,123,1,298,181,54,0,0,414,13040,-768,439,-5.59,,,,,,,,,,,,
450544,1564150053548,1,2.47,1.0,0.33,1.46,1.12,1.09,-0.47,0.47,15,-1,22,1.19,7901,17,94,45,35,917,436.0,562,470,60,123.0,123,1,298,181,54,0,0,415,13040,5600,436,-5.59,44.681141,10.0251,42.76,176.7,0,0.0,-1,0.0,0.0,0,3.3,7.5091
450564,1564150053568,1,2.48,0.99,0.33,1.46,1.12,0.94,-0.45,0.39,16,-0,23,1.05,7921,17,94,45,35,918,436.0,565,467,60,123.0,123,1,298,181,54,0,0,415,9517,5600,435,-5.59,,,,,,,,,,,,
450584,1564150053588,2,2.48,1.0,0.33,1.47,1.11,0.93,-0.43,0.37,16,2,24,1.02,7871,17,95,45,35,919,435.0,552,467,60,123.0,123,1,298,181,54,0,0,414,-9166,5600,435,-5.59,,,,,,,,,,,,
450604,1564150053608,0,2.47,1.0,0.32,1.47,1.12,1.04,-0.41,0.43,16,0,22,1.12,7888,17,95,45,35,921,433.0,561,469,60,123.0,123,1,298,181,54,0,0,411,-4059,243,433,-5.59,,,,,,,,,,,,
450624,1564150053628,-0,2.47,0.99,0.33,1.46,1.12,1.04,-0.46,0.45,16,-0,22,1.14,7888,17,94,45,36,922,433.0,561,468,60,123.0,124,1,301,187,54,0,0,411,9517,5600,433,-5.59,,,,,,,,,,,,
450644,1564150053648,2,2.48,0.99,0.32,1.46,1.12,0.9,-0.44,0.39,16,0,25,1.0,7851,17,94,45,36,925,434.0,567,468,60,123.0,124,1,301,187,54,0,0,409,10392,3635,434,-5.59,44.681129,10.025098,42.27,176.7,0,0.0,-1,0.0,0.0,0,3.3,7.5107
450664,1564150053668,3,2.47,1.0,0.32,1.46,1.12,0.82,-0.41,0.49,17,2,22,0.91,7871,17,94,45,36,928,434.0,574,467,60,123.0,124,1,301,187,54,0,0,410,11560,13180,434,-5.59,,,,,,,,,,,,
450684,1564150053688,-1,2.47,1.0,0.32,1.46,1.12,0.92,-0.48,0.52,17,3,21,1.03,7812,17,94,45,36,930,432.0,566,471,60,123.0,124,1,301,187,54,0,0,410,-4059,-3322,430,-5.59,,,,,,,,,,,,
450704,1564150053708,1,2.47,1.0,0.33,1.46,1.13,0.98,-0.5,0.52,17,2,24,1.1,7835,17,95,45,36,931,431.0,574,468,60,122.0,124,1,301,187,54,0,0,403,-26615,31796,431,-5.59,,,,,,,,,,,,
450724,1564150053728,1,2.48,0.99,0.33,1.46,1.12,0.91,-0.47,0.52,17,1,23,1.03,7789,17,94,45,36,930,430.0,577,468,60,122.0,127,1,301,113,55,0,0,407,2524,-3314,430,-5.59,,,,,,,,,,,,
450744,1564150053748,3,2.47,1.0,0.32,1.47,1.12,0.77,-0.48,0.5,17,1,21,0.9,7783,17,94,45,36,928,429.0,570,467,60,123.0,127,1,301,187,55,0,0,406,-26615,3635,429,-5.59,44.681118,10.025095,41.75,176.7,0,0.0,-1,0.0,0.0,0,3.3,7.5124
450764,1564150053768,3,2.46,0.99,0.32,1.47,1.12,0.79,-0.51,0.43,17,3,23,0.94,7786,17,95,45,36,925,428.0,562,468,60,123.0,127,1,301,187,55,0,0,409,-26615,3635,427,-5.59,,,,,,,,,,,,
450784,1564150053788,-1,2.47,0.99,0.32,1.46,1.11,0.91,-0.45,0.49,16,2,24,1.02,7767,17,95,45,36,920,428.0,556,467,60,123.0,127,1,301,187,55,0,0,400,-26615,-3414,428,-5.59,,,,,,,,,,,,
450804,1564150053807,1,2.47,1.0,0.33,1.47,1.12,1.02,-0.43,0.57,16,-0,21,1.11,7763,17,94,45,37,917,429.0,556,465,60,122.0,128,1,304,187,55,0,0,406,2524,-8165,429,-5.59,,,,,,,,,,,,
450824,1564150053827,2,2.47,1.0,0.32,1.47,1.12,0.98,-0.41,0.53,16,0,22,1.07,7793,17,95,45,37,916,424.0,547,468,60,122.0,128,1,304,187,55,0,0,403,2524,13180,427,-5.59,,,,,,,,,,,,
450844,1564150053847,2,2.47,0.99,0.32,1.46,1.12,0.84,-0.4,0.45,17,1,23,0.93,7754,18,94,45,37,916,426.0,571,470,60,122.0,128,1,304,193,55,0,0,404,1504,-3856,426,-5.59,44.681107,10.025089,41.75,176.6,0,0.0,-1,0.0,0.0,0,3.3,7.5141
450864,1564150053867,3,2.47,0.99,0.31,1.46,1.12,0.71,-0.41,0.46,17,2,21,0.82,7760,18,94,45,37,919,424.0,560,468,60,123.0,128,1,304,193,55,0,0,403,10541,3826,424,-5.59,,,,,,,,,,,,
450884,1564150053887,0,2.47,1.0,0.32,1.47,1.11,0.73,-0.46,0.42,17,3,21,0.87,7738,18,95,45,37,922,423.0,552,468,60,123.0,128,1,304,193,55,0,0,405,11545,3826,423,-5.59,,,,,,,,,,,,
450904,1564150053907,-1,2.46,0.99,0.33,1.46,1.12,0.86,-0.46,0.42,16,2,23,0.98,7757,18,94,45,37,924,422.0,567,468,60,123.0,132,1,304,193,56,0,0,405,10541,-21792,422,-5.59,,,,,,,,,,,,
450924,1564150053927,0,2.47,1.0,0.33,1.45,1.12,0.96,-0.39,0.51,16,1,22,1.04,7719,18,94,45,37,927,422.0,561,468,60,123.0,132,1,304,193,56,0,0,403,11545,-21792,422,-5.59,,,,,,,,,,,,
450944,1564150053947,1,2.46,1.0,0.33,1.46,1.12,0.94,-0.42,0.52,16,-0,20,1.03,7719,18,94,45,37,926,423.0,583,469,60,122.0,132,1,304,193,56,0,0,403,11545,3826,423,-5.59,44.681099,10.025084,41.18,176.6,0,0.0,-1,0.0,0.0,0,3.3,7.5157
450964,1564150053967,0,2.46,0.99,0.33,1.45,1.12,0.81,-0.42,0.4,16,1,22,0.91,7747,18,94,45,37,926,420.0,573,468,60,123.0,132,1,304,198,56,0,0,403,6384,-21792,420,-5.59,,,,,,,,,,,,
450984,1564150053987,3,2.46,0.99,0.32,1.47,1.12,0.71,-0.36,0.38,17,3,23,0.8,7725,18,94,45,37,925,420.0,563,466,60,123.0,132,1,304,193,56,0,0,402,6512,3826,421,-5.59,,,,,,,,,,,,
451004,1564150053999,2,2.46,0.99,0.32,1.46,1.12,0.68,-0.36,0.43,17,4,20,0.77,7744,18,94,45,37,924,422.0,568,467,60,123.0,132,1,304,193,56,0,0,398,-3968,-3414,422,-5.59,,,,,,,,,,,,
451024,1564150054019,-0,2.45,0.99,0.32,1.46,1.12,0.75,-0.42,0.45,16,4,20,0.86,7719,18,94,45,37,923,418.0,553,467,60,124.0,132,1,304,193,56,0,0,401,6384,-21792,418,-5.59,,,,,,,,,,,,
451044,1564150054039,0,2.46,0.99,0.33,1.46,1.12,0.85,-0.46,0.47,16,3,22,0.97,7744,18,94,45,37,924,419.0,561,468,60,123.0,132,1,304,193,56,0,0,401,28696,-21944,419,-5.59,44.681088,10.02508,41.45,176.6,0,0.0,-1,0.0,0.0,0,3.31,7.5174
451064,1564150054059,1,2.46,0.99,0.33,1.46,1.12,0.92,-0.41,0.53,15,1,21,1.01,7703,18,95,45,38,925,418.0,552,468,60,123.0,132,1,307,193,56,0,0,398,28696,18584,418,-5.59,,,,,,,,,,,,
451084,1564150054079,0,2.46,0.99,0.33,1.46,1.12,0.86,-0.47,0.54,15,0,19,0.98,7693,18,94,45,37,926,419.0,558,468,60,122.0,132,1,304,198,56,0,0,397,6384,13040,419,-5.59,,,,,,,,,,,,
451104,1564150054107,1,2.46,1.0,0.32,1.46,1.12,0.76,-0.43,0.39,15,1,21,0.87,7728,18,94,45,38,927,418.0,556,470,60,124.0,132,1,307,198,56,0,0,401,-32702,7154,418,-5.59,,,,,,,,,,,,
451124,1564150054127,2,2.45,0.99,0.33,1.46,1.12,0.71,-0.37,0.37,16,3,21,0.8,7674,18,94,45,37,928,417.0,549,467,60,123.0,138,1,304,193,58,0,0,402,6384,18584,417,-5.59,,,,,,,,,,,,
451144,1564150054147,3,2.46,1.0,0.32,1.46,1.12,0.71,-0.36,0.43,16,3,19,0.79,7697,18,94,45,37,928,415.0,554,466,60,123.0,138,1,304,193,58,0,0,397,-32702,18584,416,-5.59,44.68108,10.025074,40.63,176.6,0,0.0,-1,0.0,0.0,0,3.31,7.5191
451164,1564150054167,-1,2.45,0.99,0.33,1.46,1.12,0.75,-0.42,0.43,16,5,19,0.86,7674,18,95,45,38,929,415.0,557,469,60,123.0,138,1,307,198,58,0,0,396,-3968,2524,415,-5.59,,,,,,,,,,,,
451184,1564150054187,0,2.44,1.0,0.33,1.47,1.12,0.87,-0.42,0.48,15,4,21,0.97,7687,18,95,45,38,928,414.0,559,466,60,123.0,138,1,307,193,58,0,0,398,17144,2524,414,-5.59,,,,,,,,,,,,
451204,1564150054207,1,2.45,0.99,0.33,1.46,1.12,0.98,-0.41,0.56,14,1,19,1.06,7665,18,94,45,38,928,414.0,558,468,60,122.0,137,1,307,198,57,0,0,400,-3968,13040,414,-5.59,,,,,,,,,,,,
451224,1564150054227,1,2.44,0.99,0.33,1.47,1.12,1.04,-0.44,0.54,14,-1,18,1.13,7649,18,94,45,38,929,414.0,580,466,60,121.0,137,1,307,198,57,0,0,398,-32702,-26615,414,-5.59,,,,,,,,,,,,
451244,1564150054247,1,2.44,0.99,0.32,1.47,1.12,0.97,-0.4,0.48,13,-1,20,1.05,7678,18,94,45,38,931,413.0,561,471,60,122.0,137,1,307,198,57,0,0,396,-32702,-9211,413,-5.59,44.681068,10.025068,40.39,176.6,0,0.0,-1,0.0,0.0,0,3.31,7.5207
451264,1564150054267,2,2.44,0.99,0.33,1.46,1.12,0.85,-0.36,0.47,14,-1,20,0.92,7637,18,94,45,38,933,413.0,580,470,60,122.0,137,1,307,198,57,0,0,398,-6656,-4059,412,-5.59,,,,,,,,,,,,
451284,1564150054287,3,2.43,1.0,0.32,1.47,1.12,0.67,-0.35,0.48,14,-1,16,0.76,7674,18,94,45,38,934,412.0,564,468,60,122.0,137,1,307,198,57,0,0,397,-32702,-4059,412,-5.59,,,,,,,,,,,,
451304,1564150054307,3,2.44,0.99,0.33,1.46,1.12,0.56,-0.36,0.36,14,1,17,0.66,7625,18,94,45,38,938,410.0,552,468,60,124.0,139,1,307,198,57,0,0,399,-1818,-9166,410,-5.59,,,,,,,,,,,,
451324,1564150054327,3,2.44,0.99,0.33,1.46,1.12,0.58,-0.36,0.32,14,3,20,0.68,7656,18,94,45,38,942,410.0,553,467,60,124.0,139,1,307,198,57,0,0,396,-1818,13040,410,-5.59,,,,,,,,,,,,
451344,1564150054347,-0,2.43,1.0,0.33,1.46,1.12,0.68,-0.31,0.4,14,2,19,0.75,7628,18,94,45,38,945,411.0,549,468,60,123.0,139,1,307,198,57,0,0,395,-1818,10392,411,-5.59,44.681065,10.025061,40.3,176.6,0,0.0,-1,0.0,0.0,0,3.31,7.5224
451364,1564150054367,-1,2.43,1.0,0.33,1.46,1.12,0.81,-0.3,0.44,14,2,16,0.87,7646,18,94,45,38,948,411.0,557,468,60,123.0,139,1,307,198,57,0,0,393,-1818,11560,411,-5.59,,,,,,,,,,,,
451384,1564150054387,-1,2.43,0.99,0.33,1.47,1.12,0.93,-0.35,0.52,13,1,18,1.0,7609,18,94,45,38,950,409.0,546,467,60,122.0,139,1,307,198,57,0,0,395,-1818,9517,411,-5.59,,,,,,,,,,,,
451404,1564150054407,-1,2.44,0.99,0.33,1.47,1.12,1.04,-0.33,0.6,13,-1,20,1.09,7631,18,94,45,38,952,409.0,560,470,60,122.0,139,1,307,198,57,0,0,399,-1818,9517,409,-5.59,,,,,,,,,,,,
451424,1564150054427,1,2.43,0.99,0.32,1.47,1.12,1.13,-0.29,0.69,12,-3,18,1.17,7584,18,94,45,38,953,410.0,550,465,60,123.0,139,1,307,198,57,0,0,396,-1818,-26615,410,-5.59,,,,,,,,,,,,
451444,1564150054447,1,2.42,0.99,0.31,1.45,1.12,1.19,-0.31,0.68,11,-4,15,1.22,7588,18,94,45,38,952,408.0,557,467,60,122.0,139,1,307,198,57,0,0,396,-1818,11560,408,-5.59,44.681053,10.025054,40.07,176.6,0,0.0,-1,0.0,0.0,0,3.31,7.5241
451464,1564150054467,1,2.42,0.99,0.32,1.46,1.12,1.16,-0.31,0.66,11,-4,18,1.2,7572,18,94,45,38,952,409.0,563,468,60,122.0,139,1,307,204,57,0,0,395,1,10392,409,-5.59,,,,,,,,,,,,
451484,1564150054487,2,2.42,1.0,0.32,1.46,1.12,1.06,-0.25,0.64,11,-4,18,1.09,7554,18,94,45,39,951,408.0,562,471,60,122.0,139,1,310,198,57,0,0,396,-6656,11560,408,-5.59,,,,,,,,,,,,
451504,1564150054507,1,2.42,0.99,0.32,1.46,1.12,0.93,-0.22,0.61,11,-6,15,0.96,7563,18,94,45,38,952,408.0,555,466,60,122.0,139,1,307,204,57,0,0,394,-6656,10392,406,-5.59,,,,,,,,,,,,
451524,1564150054527,1,2.4,0.99,0.32,1.47,1.12,0.82,-0.21,0.53,11,-5,15,0.85,7506,18,94,45,39,952,408.0,561,467,60,122.0,137,1,310,204,56,0,0,396,-6656,-26615,405,-5.59,,,,,,,,,,,,
451544,1564150054547,1,2.4,0.99,0.33,1.45,1.11,0.73,-0.17,0.44,11,-4,17,0.75,7536,18,94,45,39,953,405.0,556,468,60,123.0,137,1,310,204,56,0,0,396,17144,2524,405,-5.59,44.681046,10.025046,39.8,176.6,0,0.0,-1,0.0,0.0,0,3.31,7.5257
451564,1564150054567,2,2.41,0.99,0.32,1.46,1.11,0.58,-0.12,0.44,11,-3,16,0.59,7494,18,94,45,39,955,406.0,556,467,60,123.0,137,1,310,203,56,0,0,398,-1818,9517,406,-5.59,,,,,,,,,,,,
451584,1564150054587,0,2.4,0.99,0.33,1.46,1.11,0.46,-0.12,0.38,11,-4,12,0.48,7512,18,94,45,39,957,405.0,553,469,60,122.0,137,1,310,204,56,0,0,400,17144,2524,405,-5.59,,,,,,,,,,,,
451604,1564150054607,2,2.4,0.99,0.32,1.45,1.12,0.4,-0.1,0.31,10,-4,14,0.41,7461,18,94,45,39,959,404.0,551,466,60,122.0,141,1,310,203,57,0,0,394,-6656,1504,404,-5.59,,,,,,,,,,,,
451624,1564150054627,1,2.39,0.99,0.33,1.46,1.11,0.32,-0.07,0.21,10,-2,15,0.33,7494,18,94,45,39,960,404.0,547,467,60,122.0,141,1,310,203,57,0,0,395,1,-26615,404,-5.59,,,,,,,,,,,,
451644,1564150054647,1,2.4,0.99,0.32,1.46,1.11,0.27,-0.04,0.27,11,-2,14,0.28,7458,18,94,45,39,962,404.0,550,466,60,122.0,141,1,310,203,57,0,0,398,-6656,11545,404,-5.59,44.681038,10.025039,39.54,176.6,0,0.0,-1,0.0,0.0,0,3.31,7.5274
451664,1564150054667,1,2.39,0.99,0.32,1.46,1.12,0.23,-0.03,0.2,10,-4,11,0.23,7479,18,94,45,39,964,405.0,551,468,60,122.0,141,1,310,203,57,0,0,395,-6656,-9211,406,-5.59,,,,,,,,,,,,
451684,1564150054687,1,2.39,0.99,0.32,1.46,1.12,0.25,-0.07,0.22,10,-5,11,0.26,7437,18,94,45,39,965,405.0,541,468,60,122.0,141,1,310,203,57,0,0,397,-1818,6512,404,-5.59,,,,,,,,,,,,
451704,1564150054707,1,2.4,0.99,0.32,1.46,1.11,0.25,-0.02,0.19,10,-4,14,0.26,7440,18,94,45,39,965,404.0,550,468,60,121.0,141,1,317,204,57,0,0,396,-1818,10392,404,-5.59,,,,,,,,,,,,
451724,1564150054727,0,2.4,0.99,0.32,1.46,1.12,0.3,0.01,0.26,10,-6,13,0.3,7431,18,94,45,39,964,406.0,561,470,60,122.0,141,1,310,203,57,0,0,397,-6656,-9211,406,-5.59,,,,,,,,,,,,
451744,1564150054747,-0,2.4,0.99,0.32,1.46,1.12,0.43,0.03,0.39,9,-9,10,0.43,7446,18,94,45,40,963,403.0,556,467,60,121.0,141,1,317,203,57,0,0,394,-6656,1504,403,-5.59,44.681026,10.02503,39.54,176.6,0,0.0,-1,0.0,0.0,0,3.31,7.5291
451764,1564150054767,0,2.4,0.99,0.32,1.46,1.12,0.59,-0.01,0.45,8,-9,10,0.59,7449,18,94,45,40,962,403.0,546,465,60,123.0,141,1,317,131,57,0,0,394,1,-9211,403,-5.59,,,,,,,,,,,,
451784,1564150054787,-0,2.39,0.99,0.33,1.46,1.12,0.73,-0.01,0.58,8,-9,11,0.73,7408,18,94,45,40,959,403.0,544,468,60,123.0,141,1,317,204,57,0,0,397,1,-26615,403,-5.59,,,,,,,,,,,,
451804,1564150054807,-1,2.4,0.99,0.32,1.46,1.12,0.86,0.01,0.68,7,-12,12,0.86,7428,18,94,45,40,956,402.0,551,468,60,122.0,141,1,317,203,57,0,0,396,-6656,1504,402,-5.59,,,,,,,,,,,,
451824,1564150054827,0,2.4,0.98,0.32,1.46,1.12,0.98,-0.02,0.79,6,-13,10,0.98,7399,18,94,45,40,952,402.0,543,468,60,123.0,141,1,317,203,57,0,0,396,-6656,6512,402,-5.59,,,,,,,,,,,,
451844,1564150054847,-1,2.4,0.99,0.32,1.46,1.11,1.08,-0.02,0.83,6,-11,10,1.08,7437,18,95,45,40,950,401.0,544,466,60,122.0,141,1,317,204,57,0,0,396,1,11545,403,-5.59,44.681023,10.025022,39.21,176.6,0,0.0,-1,0.0,0.0,0,3.31,7.5307
451864,1564150054867,-1,2.4,0.99,0.32,1.46,1.11,1.18,-0.08,0.9,6,-8,12,1.18,7393,18,95,45,40,948,402.0,530,467,60,123.0,141,1,317,203,57,0,0,395,-6656,1504,402,-5.59,,,,,,,,,,,,
451884,1564150054887,3,2.4,0.99,0.33,1.46,1.12,1.26,-0.11,0.92,6,-8,12,1.27,7431,18,94,45,40,948,402.0,539,469,60,123.0,141,1,317,204,57,0,0,395,-6656,-8151,400,-5.59,,,,,,,,,,,,
451904,1564150054906,3,2.39,0.99,0.32,1.46,1.12,1.26,-0.11,0.88,7,-7,10,1.27,7434,18,94,45,40,948,401.0,537,466,60,122.0,142,1,317,204,57,0,0,391,-6524,11545,401,-5.59,,,,,,,,,,,,
451924,1564150054926,3,2.41,0.99,0.33,1.46,1.12,1.22,-0.17,0.88,7,-4,8,1.23,7467,18,95,45,40,950,400.0,542,466,60,123.0,142,1,317,204,57,0,0,394,-1562,10541,400,-5.59,,,,,,,,,,,,
451944,1564150054946,3,2.4,0.99,0.33,1.46,1.12,1.11,-0.21,0.74,7,-0,11,1.13,7443,18,95,45,40,952,401.0,538,466,60,123.0,142,1,317,204,57,0,0,392,505,-8151,401,-5.59,44.681011,10.025013,39.33,176.6,0,0.0,-1,0.0,0.0,0,3.32,7.5324
451964,1564150054966,2,2.4,0.99,0.32,1.45,1.12,1.06,-0.21,0.69,8,1,12,1.08,7473,18,95,45,40,955,403.0,544,465,60,123.0,142,1,317,204,57,0,0,391,1,6384,403,-5.59,,,,,,,,,,,,
451984,1564150054986,2,2.4,0.99,0.32,1.46,1.11,0.95,-0.15,0.59,8,3,10,0.96,7455,18,94,45,40,959,401.0,553,466,60,123.0,142,1,317,204,57,0,0,392,1,10541,401,-5.59,,,,,,,,,,,,
452004,1564150055000,3,2.39,0.99,0.32,1.46,1.11,0.81,-0.21,0.51,9,5,8,0.84,7494,18,94,45,40,961,400.0,548,467,60,124.0,145,1,317,204,58,0,0,394,505,1504,400,-5.59,,,,,,,,,,,,
452024,1564150055020,3,2.4,0.99,0.33,1.46,1.12,0.7,-0.22,0.36,9,7,10,0.73,7470,18,94,45,39,962,401.0,544,468,60,123.0,145,1,310,204,58,0,0,393,-6524,6512,401,-5.59,,,,,,,,,,,,
452044,1564150055040,4,2.4,0.99,0.33,1.46,1.12,0.64,-0.17,0.33,9,8,12,0.67,7500,18,94,45,39,962,398.0,547,465,60,123.0,145,1,310,205,58,0,0,395,-1562,6512,398,-5.59,44.681004,10.025004,39.14,176.6,0,0.0,-1,0.0,0.0,0,3.32,7.5341
452064,1564150055060,1,2.4,0.99,0.33,1.46,1.11,0.56,-0.07,0.27,10,10,10,0.57,7467,18,94,45,39,963,399.0,547,466,60,123.0,145,1,310,203,58,0,0,397,240,11545,398,-5.59,,,,,,,,,,,,
452084,1564150055080,2,2.4,0.99,0.32,1.46,1.12,0.43,-0.13,0.22,10,11,8,0.45,7494,18,94,45,39,961,399.0,556,468,60,123.0,145,1,310,204,58,0,0,394,-31744,-8151,398,-5.59,,,,,,,,,,,,
452104,1564150055104,3,2.4,0.99,0.33,1.46,1.11,0.35,-0.13,0.14,10,11,10,0.37,7455,18,95,45,39,960,397.0,554,466,60,122.0,143,1,310,203,57,0,0,392,-6524,-32702,399,-5.59,,,,,,,,,,,,
452124,1564150055124,1,2.4,0.99,0.33,1.46,1.12,0.29,-0.09,0.11,10,12,11,0.3,7449,18,95,45,39,959,397.0,541,468,60,123.0,143,1,310,203,57,0,0,395,505,17144,399,-5.59,,,,,,,,,,,,
452144,1564150055144,1,2.4,0.99,0.32,1.46,1.12,0.18,-0.03,0.07,11,12,9,0.19,7387,18,95,45,39,958,399.0,543,465,60,123.0,143,1,310,204,57,0,0,395,505,-32702,399,-5.59,44.681,10.024995,39.03,176.6,0,0.0,-1,0.0,0.0,0,3.32,7.5357
452164,1564150055164,2,2.4,0.99,0.33,1.46,1.12,0.07,-0.07,-0.01,11,11,7,0.09,7396,18,94,45,40,958,399.0,543,466,60,122.0,143,1,317,204,57,0,0,394,-1562,28696,399,-5.59,,,,,,,,,,,,
452184,1564150055184,1,2.4,0.99,0.33,1.46,1.12,0.05,-0.07,0.01,10,11,9,0.09,7344,18,94,45,40,958,398.0,542,470,60,122.0,143,1,317,204,57,0,0,395,-1562,6512,398,-5.59,,,,,,,,,,,,
452204,1564150055208,0,2.39,0.98,0.33,1.47,1.12,0.09,-0.02,0.05,10,10,11,0.1,7367,18,95,45,40,959,400.0,532,468,60,123.0,140,1,317,204,56,0,0,389,-6524,6384,400,-5.59,,,,,,,,,,,,
452224,1564150055228,-1,2.39,0.99,0.33,1.45,1.12,0.18,-0.02,0.18,10,6,9,0.18,7358,18,94,45,40,959,400.0,536,467,60,123.0,140,1,317,204,56,0,0,390,-31744,28696,400,-5.59,,,,,,,,,,,,
452244,1564150055248,-1,2.4,0.99,0.33,1.46,1.12,0.36,-0.05,0.3,9,3,7,0.37,7341,18,95,45,40,958,399.0,537,467,60,122.0,140,1,317,204,56,0,0,390,-31744,6384,399,-5.59,44.680988,10.024985,39.0,176.6,0,0.0,-1,0.0,0.0,0,3.32,7.5374
452264,1564150055268,-0,2.4,0.99,0.32,1.46,1.12,0.53,-0.07,0.36,8,2,8,0.53,7367,18,95,45,40,958,399.0,545,466,60,122.0,140,1,317,204,56,0,0,392,240,-6656,399,-5.59,,,,,,,,,,,,
452284,1564150055288,4,2.4,0.99,0.33,1.47,1.12,0.63,-0.16,0.47,8,2,11,0.65,7318,18,95,45,40,957,398.0,535,468,60,123.0,140,1,317,204,56,0,0,389,-6524,10541,398,-5.59,,,,,,,,,,,,
452304,1564150055308,3,2.4,1.0,0.33,1.47,1.12,0.72,-0.15,0.54,8,2,11,0.74,7350,18,95,45,41,957,398.0,540,466,60,123.0,140,1,325,204,56,0,0,390,-31744,6512,398,-5.59,,,,,,,,,,,,
452324,1564150055328,1,2.41,0.99,0.33,1.46,1.12,0.68,-0.1,0.47,9,4,8,0.69,7324,18,95,45,40,958,400.0,536,466,60,124.0,143,1,317,204,57,0,0,393,240,6512,400,-5.59,,,,,,,,,,,,
452344,1564150055348,1,2.41,0.99,0.32,1.47,1.12,0.54,-0.16,0.37,9,5,8,0.57,7332,18,95,45,40,958,397.0,541,465,60,123.0,143,1,317,206,57,0,0,390,240,28696,398,-5.59,44.680984,10.024976,38.85,176.6,0,0.0,-1,0.0,0.0,0,3.32,7.5391
452364,1564150055368,0,2.41,0.99,0.33,1.46,1.12,0.48,-0.14,0.31,9,6,10,0.5,7324,18,94,45,41,959,398.0,544,470,60,122.0,143,1,325,206,57,0,0,391,-6475,6512,397,-5.59,,,,,,,,,,,,
452384,1564150055388,1,2.41,0.99,0.33,1.46,1.12,0.42,-0.07,0.29,10,5,10,0.43,7358,18,95,45,41,962,396.0,535,470,60,122.0,143,1,325,206,57,0,0,390,-6475,-32702,396,-5.59,,,,,,,,,,,,
452404,1564150055408,1,2.4,0.99,0.33,1.47,1.12,0.41,-0.08,0.31,9,3,9,0.42,7341,18,95,45,41,964,397.0,548,468,60,122.0,143,1,325,206,57,0,0,388,-6475,11545,397,-5.59,,,,,,,,,,,,
452424,1564150055428,-0,2.41,0.99,0.33,1.47,1.12,0.54,-0.09,0.41,9,1,8,0.55,7341,18,95,45,41,966,397.0,529,468,60,122.0,143,1,325,206,57,0,0,386,240,28696,397,-5.59,,,,,,,,,,,,
452444,1564150055448,-1,2.41,0.99,0.33,1.47,1.12,0.69,-0.1,0.49,8,-1,9,0.7,7373,18,95,45,41,969,396.0,542,468,60,122.0,143,1,325,204,57,0,0,388,-3866,-32702,396,-5.59,44.680977,10.024966,39.28,176.6,0,0.0,-1,0.0,0.0,0,3.32,7.5407
452464,1564150055468,-0,2.41,0.99,0.33,1.47,1.12,0.81,-0.16,0.61,8,-1,11,0.83,7332,18,95,45,41,974,397.0,533,469,60,123.0,143,1,325,204,57,0,0,389,-6475,-8151,397,-5.59,,,,,,,,,,,,
452484,1564150055488,2,2.41,0.99,0.33,1.46,1.12,0.93,-0.14,0.64,8,-1,11,0.94,7378,18,95,45,40,977,397.0,537,465,60,123.0,143,1,317,206,57,0,0,392,-19019,-32702,397,-5.59,,,,,,,,,,,,
452504,1564150055508,3,2.42,0.99,0.33,1.46,1.11,1.0,-0.12,0.59,8,-0,10,1.0,7355,18,95,45,40,979,397.0,544,466,60,122.0,141,1,317,204,56,0,0,388,-6475,-1818,397,-5.59,,,,,,,,,,,,
452524,1564150055528,2,2.42,0.99,0.33,1.47,1.11,0.92,-0.17,0.53,8,2,10,0.93,7387,18,95,45,40,980,397.0,539,467,60,124.0,141,1,317,204,56,0,0,387,-19019,6384,397,-5.59,,,,,,,,,,,,
452544,1564150055548,3,2.41,0.99,0.33,1.47,1.12,0.8,-0.15,0.39,8,4,12,0.82,7367,18,95,45,40,980,396.0,541,467,60,123.0,141,1,317,206,56,0,0,391,-19019,-32702,396,-5.59,44.680969,10.024957,39.21,176.6,0,0.0,-1,0.0,0.0,0,3.32,7.5424
452564,1564150055568,2,2.42,0.99,0.33,1.46,1.12,0.69,-0.13,0.3,9,5,12,0.7,7399,18,95,45,41,979,397.0,556,469,60,122.0,141,1,325,206,56,0,0,387,-3866,-6656,397,-5.59,,,,,,,,,,,,
452584,1564150055588,-0,2.41,0.99,0.33,1.46,1.11,0.57,-0.09,0.32,10,5,10,0.57,7367,18,94,45,40,977,395.0,559,465,60,122.0,141,1,317,206,56,0,0,388,-6475,28696,395,-5.59,,,,,,,,,,,,
452604,1564150055608,1,2.41,0.99,0.33,1.45,1.12,0.49,-0.1,0.25,9,4,9,0.5,7376,18,95,45,40,976,396.0,551,470,60,121.0,143,1,317,206,57,0,0,388,-3866,6512,396,-5.59,,,,,,,,,,,,
452624,1564150055628,1,2.4,0.99,0.33,1.46,1.12,0.51,-0.12,0.23,9,3,10,0.52,7367,18,95,45,41,975,396.0,547,466,60,122.0,143,1,325,204,57,0,0,389,-6475,6384,396,-5.59,,,,,,,,,,,,
452644,1564150055648,0,2.41,0.99,0.33,1.46,1.12,0.59,-0.12,0.38,9,3,11,0.6,7312,18,95,45,41,975,395.0,530,469,60,123.0,143,1,325,204,57,0,0,391,-3866,-32702,395,-5.59,44.680962,10.024946,38.84,176.6,0,0.0,-1,0.0,0.0,0,3.32,7.5441
452664,1564150055668,-2,2.41,0.99,0.33,1.46,1.11,0.73,-0.12,0.53,8,0,11,0.74,7321,18,95,45,41,977,396.0,544,466,60,123.0,143,1,325,204,57,0,0,385,-6475,-1818,396,-5.59,,,,,,,,,,,,
452684,1564150055688,3,2.4,0.99,0.33,1.46,1.11,0.86,-0.13,0.56,8,-0,9,0.87,7267,18,95,45,41,979,395.0,526,464,60,123.0,143,1,325,204,57,0,0,386,-19126,505,394,-5.59,,,,,,,,,,,,
452704,1564150055708,2,2.41,0.99,0.32,1.46,1.12,0.87,-0.21,0.57,8,1,9,0.89,7301,18,95,45,41,980,394.0,537,466,60,123.0,143,1,325,206,57,0,0,386,-19019,1,394,-5.59,,,,,,,,,,,,
452724,1564150055728,2,2.4,0.99,0.33,1.46,1.11,0.77,-0.19,0.49,8,2,11,0.79,7275,18,95,45,41,981,393.0,531,467,60,123.0,144,1,325,206,57,0,0,385,-19126,17144,394,-5.59,,,,,,,,,,,,
452744,1564150055748,1,2.41,0.99,0.33,1.46,1.12,0.69,-0.15,0.41,9,3,11,0.7,7292,18,95,45,41,981,394.0,538,467,60,122.0,144,1,325,206,57,0,0,386,-19019,-6656,396,-5.59,44.680954,10.024936,38.43,176.6,0,0.0,-1,0.0,0.0,0,3.32,7.5457
452764,1564150055768,-0,2.41,0.99,0.33,1.46,1.11,0.58,-0.18,0.39,9,3,9,0.61,7284,18,95,45,41,980,395.0,535,466,60,122.0,144,1,325,206,57,0,0,386,-6475,-6656,395,-5.59,,,,,,,,,,,,
452784,1564150055788,-1,2.41,0.99,0.32,1.47,1.12,0.64,-0.21,0.46,8,1,8,0.67,7298,18,95,45,41,980,395.0,535,469,60,122.0,144,1,325,206,57,0,0,387,-19126,-3968,393,-5.59,,,,,,,,,,,,
452804,1564150055808,-2,2.42,0.99,0.33,1.47,1.11,0.78,-0.18,0.5,8,-0,9,0.8,7301,18,95,45,41,980,395.0,540,468,60,123.0,144,1,325,206,57,0,0,391,-19126,17144,394,-5.59,,,,,,,,,,,,
452824,1564150055828,3,2.4,0.99,0.33,1.47,1.11,0.83,-0.26,0.58,8,1,11,0.87,7270,18,95,45,41,980,395.0,530,466,60,123.0,144,1,325,206,57,0,0,384,-19126,-32702,395,-5.59,,,,,,,,,,,,
452844,1564150055848,2,2.41,0.98,0.33,1.46,1.12,0.88,-0.28,0.61,8,1,11,0.93,7309,18,95,45,41,980,394.0,535,468,60,124.0,144,1,325,206,57,0,0,384,19125,-1562,394,-5.59,44.680946,10.024925,38.7,176.6,0,0.0,-1,0.0,0.0,0,3.32,7.5474
452864,1564150055868,2,2.4,0.99,0.33,1.46,1.12,0.81,-0.21,0.55,9,2,9,0.84,7290,18,95,45,41,981,395.0,543,463,60,123.0,144,1,325,206,57,0,0,386,-18948,-32702,395,-5.59,,,,,,,,,,,,
452884,1564150055888,2,2.4,0.99,0.33,1.46,1.11,0.7,-0.26,0.49,9,3,7,0.74,7312,18,95,45,41,981,393.0,544,468,60,123.0,144,1,325,206,57,0,0,384,19125,17144,393,-5.59,,,,,,,,,,,,
452904,1564150055907,-0,2.42,0.99,0.33,1.46,1.12,0.65,-0.24,0.44,9,3,10,0.7,7295,18,95,45,41,981,392.0,546,468,60,122.0,144,1,325,206,57,0,0,384,19125,6384,392,-5.59,,,,,,,,,,,,
452924,1564150055927,-0,2.41,0.99,0.33,1.46,1.12,0.63,-0.18,0.47,9,3,11,0.65,7295,18,95,45,41,981,393.0,546,469,60,122.0,145,1,325,206,57,0,0,385,-18948,1,393,-5.59,,,,,,,,,,,,
452944,1564150055947,-1,2.41,0.99,0.33,1.46,1.12,0.71,-0.18,0.55,8,1,11,0.73,7292,18,95,45,41,981,392.0,534,470,60,123.0,145,1,325,206,57,0,0,387,19125,505,392,-5.59,44.680946,10.024915,38.74,176.6,0,0.0,-1,0.0,0.0,0,3.33,7.5491
452964,1564150055967,-1,2.42,0.99,0.33,1.46,1.12,0.84,-0.19,0.62,8,-1,9,0.87,7264,18,95,45,41,982,392.0,532,466,60,123.0,145,1,325,206,57,0,0,386,19125,-3968,392,-5.59,,,,,,,,,,,,
452984,1564150055987,2,2.41,0.99,0.33,1.46,1.12,0.85,-0.23,0.6,8,1,10,0.88,7281,18,95,45,41,983,393.0,530,466,60,124.0,145,1,325,206,57,0,0,385,-18948,1,393,-5.59,,,,,,,,,,,,
453004,1564150055999,1,2.42,0.99,0.33,1.46,1.11,0.78,-0.2,0.54,8,2,12,0.8,7236,18,95,45,41,983,392.0,538,466,60,122.0,145,1,325,206,57,0,0,386,-992,505,392,-5.59,,,,,,,,,,,,
453024,1564150056019,1,2.42,0.99,0.32,1.46,1.12,0.7,-0.17,0.49,9,2,12,0.72,7259,18,95,45,42,984,391.0,535,470,60,123.0,142,1,332,208,56,0,0,384,-992,-1562,391,-5.59,,,,,,,,,,,,
453044,1564150056039,-1,2.41,0.99,0.33,1.46,1.12,0.64,-0.16,0.48,9,1,10,0.66,7233,18,95,45,42,985,392.0,543,472,60,122.0,142,1,332,208,56,0,0,385,-18948,505,392,-5.59,44.680939,10.024904,38.32,176.6,0,0.0,-1,0.0,0.0,0,3.33,7.5507
453064,1564150056059,-1,2.41,0.99,0.33,1.47,1.12,0.76,-0.19,0.54,8,-0,9,0.78,7233,18,95,45,42,985,392.0,534,468,60,123.0,142,1,332,206,56,0,0,383,-18948,-1818,392,-5.59,,,,,,,,,,,,
453084,1564150056079,-1,2.42,0.99,0.33,1.47,1.12,0.88,-0.19,0.58,8,-1,11,0.9,7261,18,95,45,42,985,392.0,538,468,60,123.0,142,1,332,206,56,0,0,383,-18948,6384,392,-5.59,,,,,,,,,,,,
453104,1564150056105,3,2.41,0.99,0.33,1.46,1.12,0.91,-0.26,0.6,8,0,12,0.95,7261,18,95,45,41,986,392.0,533,469,60,123.0,142,1,325,206,56,0,0,383,-992,1,392,-5.59,,,,,,,,,,,,
453124,1564150056125,2,2.41,0.99,0.33,1.47,1.12,0.85,-0.26,0.59,9,2,12,0.89,7290,18,95,45,41,987,392.0,544,468,60,123.0,142,1,325,133,56,0,0,382,-18948,17144,392,-5.59,,,,,,,,,,,,
453144,1564150056145,0,2.41,0.99,0.33,1.46,1.12,0.7,-0.19,0.47,9,2,10,0.72,7250,18,95,45,41,988,391.0,547,467,60,122.0,142,1,325,206,56,0,0,383,8200,1,391,-5.59,44.680931,10.024893,38.25,176.6,0,0.0,-1,0.0,0.0,0,3.33,7.5524
453164,1564150056165,1,2.4,0.99,0.33,1.47,1.12,0.64,-0.19,0.42,9,1,9,0.67,7273,18,95,45,41,988,391.0,546,470,60,122.0,142,1,325,208,56,0,0,387,-992,240,391,-5.59,,,,,,,,,,,,
453184,1564150056185,-0,2.41,0.99,0.33,1.46,1.12,0.72,-0.22,0.45,8,0,10,0.75,7250,18,95,45,42,989,393.0,538,468,60,123.0,142,1,332,208,56,0,0,384,-18948,505,393,-5.59,,,,,,,,,,,,
453204,1564150056207,1,2.41,0.99,0.33,1.46,1.12,0.8,-0.27,0.58,8,-0,11,0.84,7203,18,95,45,42,990,390.0,524,468,60,123.0,143,1,332,206,56,0,0,385,-18948,17144,390,-5.59,,,,,,,,,,,,
453224,1564150056227,2,2.41,0.99,0.32,1.46,1.12,0.88,-0.27,0.59,8,-1,11,0.92,7222,18,95,45,41,992,392.0,531,465,60,123.0,143,1,325,206,56,0,0,384,-18948,17144,392,-5.59,,,,,,,,,,,,
453244,1564150056247,1,2.41,0.99,0.33,1.46,1.12,0.79,-0.2,0.5,9,1,10,0.81,7205,18,95,45,42,993,391.0,538,466,60,121.0,143,1,332,208,56,0,0,383,-992,-1562,391,-5.59,44.680923,10.024881,38.86,176.6,0,0.0,-1,0.0,0.0,0,3.33,7.5541
453264,1564150056267,-0,2.4,0.99,0.33,1.46,1.12,0.67,-0.21,0.43,9,1,9,0.7,7236,18,95,45,42,993,392.0,535,468,60,122.0,143,1,332,208,56,0,0,385,2278,505,392,-5.59,,,,,,,,,,,,
453284,1564150056287,-1,2.41,1.0,0.33,1.47,1.12,0.71,-0.2,0.45,9,1,10,0.74,7247,18,95,45,42,991,391.0,534,468,60,122.0,143,1,332,206,56,0,0,382,8200,-6656,391,-5.59,,,,,,,,,,,,
453304,1564150056307,-1,2.4,0.99,0.33,1.47,1.12,0.79,-0.24,0.6,9,-0,10,0.82,7231,18,95,45,42,988,392.0,526,468,60,123.0,142,1,332,206,56,0,0,381,2278,-31744,392,-5.59,,,,,,,,,,,,
453324,1564150056327,3,2.4,0.99,0.34,1.46,1.12,0.9,-0.26,0.68,8,-2,10,0.94,7253,18,95,45,41,984,392.0,525,467,60,123.0,142,1,325,208,56,0,0,382,8200,-1562,392,-5.59,,,,,,,,,,,,
453344,1564150056347,3,2.39,0.98,0.33,1.47,1.12,0.92,-0.22,0.61,9,-1,9,0.95,7222,18,95,45,42,981,389.0,535,467,60,123.0,142,1,332,208,56,0,0,382,-992,-6656,389,-5.59,44.680923,10.024871,37.91,176.6,0,0.0,-1,0.0,0.0,0,3.33,7.5557
453364,1564150056367,2,2.4,0.99,0.33,1.47,1.12,0.78,-0.22,0.52,9,0,9,0.81,7225,18,95,45,41,979,391.0,533,468,60,123.0,142,1,325,208,56,0,0,383,-992,505,391,-5.59,,,,,,,,,,,,
453384,1564150056387,1,2.4,0.99,0.33,1.46,1.12,0.7,-0.22,0.51,8,1,10,0.73,7205,18,95,45,42,977,390.0,543,467,60,121.0,142,1,332,208,56,0,0,382,8200,240,390,-5.59,,,,,,,,,,,,
453404,1564150056407,-2,2.4,0.99,0.34,1.47,1.12,0.73,-0.21,0.6,8,-0,9,0.75,7194,18,95,45,42,978,390.0,540,468,60,122.0,143,1,332,208,56,0,0,381,8200,1,390,-5.59,,,,,,,,,,,,
453424,1564150056427,-0,2.39,0.98,0.33,1.46,1.12,0.83,-0.19,0.63,8,-2,10,0.85,7222,18,95,45,42,979,389.0,538,468,60,122.0,143,1,332,208,56,0,0,383,8200,-31744,389,-5.59,,,,,,,,,,,,
453444,1564150056447,3,2.39,1.0,0.33,1.47,1.12,0.89,-0.17,0.6,8,-1,9,0.91,7217,18,95,45,41,977,389.0,541,463,60,123.0,143,1,325,208,56,0,0,381,2278,-31744,389,-5.59,44.680916,10.024859,38.0,176.6,0,0.0,-1,0.0,0.0,0,3.33,7.5574
453464,1564150056467,1,2.39,0.99,0.33,1.46,1.12,0.78,-0.19,0.52,9,0,9,0.8,7231,18,95,45,42,976,388.0,542,469,60,122.0,143,1,332,208,56,0,0,378,2278,-1562,388,-5.59,,,,,,,,,,,,
453484,1564150056487,1,2.39,0.99,0.33,1.45,1.12,0.7,-0.18,0.52,9,1,9,0.72,7194,18,95,45,42,973,387.0,542,468,60,122.0,143,1,332,208,56,0,0,383,2278,-31744,387,-5.59,,,,,,,,,,,,
453504,1564150056507,-2,2.39,0.99,0.34,1.46,1.12,0.7,-0.15,0.62,9,0,10,0.72,7211,18,95,45,42,971,389.0,527,468,60,123.0,143,1,332,208,56,0,0,383,-992,-1562,389,-5.59,,,,,,,,,,,,
453524,1564150056527,-2,2.39,0.99,0.34,1.47,1.11,0.81,-0.15,0.71,8,-3,9,0.83,7233,18,95,45,42,969,389.0,528,465,60,123.0,143,1,332,208,56,0,0,381,8200,-31744,389,-5.59,,,,,,,,,,,,
453544,1564150056547,3,2.38,0.99,0.33,1.47,1.11,0.93,-0.13,0.73,8,-2,8,0.94,7217,18,95,45,42,967,387.0,521,465,60,123.0,143,1,332,206,56,0,0,384,-18948,-6475,387,-5.59,44.680912,10.024847,38.38,176.6,0,0.0,-1,0.0,0.0,0,3.33,7.5591
453564,1564150056567,2,2.38,0.99,0.33,1.46,1.12,0.85,-0.2,0.68,8,1,9,0.88,7233,18,95,45,42,969,389.0,537,468,60,124.0,143,1,332,208,56,0,0,384,19125,-6524,389,-5.59,,,,,,,,,,,,
453584,1564150056587,-0,2.38,0.99,0.34,1.46,1.12,0.72,-0.15,0.55,8,3,11,0.73,7217,18,95,45,42,970,388.0,537,467,60,123.0,143,1,332,208,56,0,0,383,-19126,1,388,-5.59,,,,,,,,,,,,
453604,1564150056607,-0,2.38,0.99,0.33,1.47,1.12,0.68,-0.06,0.55,8,2,9,0.69,7208,18,95,45,42,970,387.0,527,468,60,122.0,143,1,332,208,56,0,0,383,-18948,240,387,-5.59,,,,,,,,,,,,
453624,1564150056627,-0,2.37,0.99,0.33,1.47,1.11,0.74,-0.07,0.58,7,0,8,0.75,7225,18,95,45,42,969,389.0,531,470,60,122.0,147,1,332,208,57,0,0,384,-992,-19126,389,-5.59,,,,,,,,,,,,
453644,1564150056647,3,2.38,0.99,0.33,1.46,1.11,0.87,-0.08,0.63,7,-0,8,0.87,7203,18,95,45,42,966,388.0,525,466,60,123.0,147,1,332,208,57,0,0,387,-18948,-1562,388,-5.59,44.680904,10.024836,37.99,176.6,0,0.0,-1,0.0,0.0,0,3.33,7.5607
453664,1564150056667,2,2.38,0.99,0.33,1.47,1.12,0.82,-0.13,0.61,7,1,8,0.83,7217,18,95,45,42,964,388.0,537,468,60,123.0,147,1,332,208,57,0,0,383,-18948,-1562,388,-5.59,,,,,,,,,,,,
453684,1564150056687,2,2.37,0.99,0.33,1.46,1.12,0.67,-0.08,0.45,7,3,10,0.68,7164,15,95,45,42,966,387.0,535,467,60,123.0,147,1,332,208,57,0,0,381,19125,505,387,-5.59,,,,,,,,,,,,
453704,1564150056707,0,2.37,0.99,0.34,1.46,1.11,0.61,-0.0,0.44,7,3,8,0.61,7183,14,96,45,41,967,388.0,531,471,60,122.0,147,1,325,206,57,0,0,383,19125,505,388,-5.59,,,,,,,,,,,,
453724,1564150056727,-2,2.38,0.99,0.34,1.46,1.11,0.72,-0.03,0.49,7,-0,7,0.73,7192,13,96,45,41,971,388.0,535,467,60,123.0,144,1,325,206,56,0,0,382,-992,1,388,-5.59,,,,,,,,,,,,
453744,1564150056747,2,2.38,0.99,0.33,1.46,1.12,0.84,-0.05,0.53,7,-1,7,0.84,7172,13,96,45,40,975,386.0,528,467,60,123.0,144,1,317,204,56,0,0,381,8200,-3866,386,-5.59,44.680904,10.024824,38.0,176.6,0,0.0,-1,0.0,0.0,0,3.33,7.5624
453764,1564150056767,1,2.38,0.99,0.33,1.46,1.12,0.79,-0.07,0.46,7,1,7,0.79,7186,12,96,45,39,980,388.0,530,469,60,123.0,144,1,310,204,56,0,0,382,8200,-3866,388,-5.59,,,,,,,,,,,,
453784,1564150056787,-0,2.38,0.98,0.33,1.46,1.12,0.69,-0.02,0.35,7,3,9,0.69,7164,11,96,45,39,984,389.0,542,470,60,123.0,144,1,310,203,56,0,0,383,8200,240,389,-5.59,,,,,,,,,,,,
453804,1564150056806,-1,2.38,0.99,0.33,1.46,1.11,0.64,0.04,0.41,7,1,8,0.64,7140,11,96,45,39,986,387.0,524,470,60,122.0,144,1,310,197,56,0,0,382,-992,-6524,387,-5.59,,,,,,,,,,,,
453824,1564150056826,0,2.39,0.99,0.33,1.46,1.12,0.75,0.01,0.5,7,-1,7,0.75,7134,11,96,45,38,986,386.0,528,468,60,123.0,142,1,307,197,55,0,0,381,8200,-3866,386,-5.59,,,,,,,,,,,,
453844,1564150056846,2,2.38,0.99,0.33,1.46,1.12,0.8,0.03,0.47,7,0,7,0.8,7080,11,96,45,38,985,386.0,521,465,60,124.0,142,1,307,197,55,0,0,383,8200,240,386,-5.59,44.680897,10.024812,38.1,176.6,0,0.0,-1,0.0,0.0,0,3.34,7.5641
453864,1564150056866,1,2.38,0.99,0.33,1.47,1.11,0.65,0.02,0.35,7,2,8,0.65,7094,10,96,45,37,982,385.0,524,471,60,122.0,142,1,304,192,55,0,0,381,8200,-3866,385,-5.59,,,,,,,,,,,,
453884,1564150056886,-0,2.38,0.98,0.33,1.46,1.12,0.68,0.01,0.42,7,1,8,0.68,7070,10,96,45,37,979,385.0,528,470,60,123.0,142,1,304,192,55,0,0,379,8200,-6475,385,-5.59,,,,,,,,,,,,
453904,1564150056906,2,2.38,0.99,0.34,1.46,1.12,0.76,-0.07,0.51,7,1,8,0.76,6991,10,96,45,37,976,385.0,520,467,60,122.0,142,1,304,192,55,0,0,380,8200,-19126,385,-5.59,,,,,,,,,,,,
453924,1564150056926,-1,2.38,0.99,0.34,1.46,1.11,0.7,-0.06,0.45,7,2,7,0.71,7014,10,96,45,37,969,385.0,525,471,60,123.0,129,1,304,192,50,0,0,378,2278,-19019,385,-5.59,,,,,,,,,,,,
453944,1564150056946,-2,2.38,0.98,0.33,1.46,1.11,0.68,-0.12,0.5,7,-0,6,0.69,6993,10,96,45,37,960,384.0,522,468,60,123.0,129,1,304,192,50,0,0,380,2278,-19019,384,-5.59,44.680893,10.0248,37.85,176.6,0,0.0,-1,0.0,0.0,0,3.34,7.5657
453964,1564150056966,1,2.38,0.99,0.33,1.46,1.12,0.8,-0.07,0.52,6,-0,6,0.8,6954,10,96,45,36,953,384.0,514,464,60,124.0,129,1,301,186,50,0,0,378,2278,-992,384,-5.59,,,,,,,,,,,,
453984,1564150056986,-1,2.37,0.99,0.34,1.46,1.12,0.7,-0.06,0.4,7,1,7,0.71,6936,10,96,45,36,947,383.0,521,466,60,121.0,129,1,301,192,50,0,0,377,-6656,-6475,383,-5.59,,,,,,,,,,,,
454004,1564150057000,-2,2.38,0.98,0.34,1.46,1.11,0.76,-0.03,0.47,6,-0,7,0.76,6911,10,96,45,37,939,382.0,524,468,60,123.0,125,1,304,186,48,0,0,376,-6656,-6475,382,-5.59,,,,,,,,,,,,
454024,1564150057020,1,2.37,0.99,0.33,1.47,1.11,0.82,-0.03,0.46,6,-1,8,0.82,6863,10,96,45,36,931,383.0,517,464,60,123.0,125,1,301,192,48,0,0,379,-6656,-992,383,-5.59,,,,,,,,,,,,
454044,1564150057040,-1,2.38,0.98,0.33,1.46,1.12,0.67,0.04,0.47,7,1,6,0.68,6818,10,96,45,37,925,383.0,508,471,60,124.0,125,1,304,118,48,0,0,378,3,-6475,383,-5.59,44.680889,10.024788,37.8,176.6,0,0.0,-1,0.0,0.0,0,3.34,7.5674
454064,1564150057060,1,2.37,0.99,0.33,1.46,1.11,0.81,0.02,0.47,6,-1,7,0.81,6813,10,96,45,37,924,382.0,501,467,60,124.0,125,1,304,192,48,0,0,378,3,8200,382,-5.59,,,,,,,,,,,,
454084,1564150057080,-0,2.37,0.99,0.34,1.45,1.11,0.68,0.04,0.5,7,-0,6,0.68,6776,10,96,45,37,919,381.0,516,467,60,122.0,125,1,304,192,48,0,0,375,742,-992,381,-5.59,,,,,,,,,,,,
454104,1564150057102,1,2.37,0.98,0.32,1.46,1.12,0.81,0.02,0.49,6,-2,6,0.81,6759,10,96,45,37,913,382.0,501,467,60,125.0,125,1,304,192,48,0,0,384,742,8200,381,-5.59,,,,,,,,,,,,
454124,1564150057122,-0,2.36,0.99,0.33,1.45,1.12,0.73,0.02,0.42,6,0,6,0.73,6786,10,96,45,37,908,379.0,495,469,60,123.0,128,1,304,192,49,0,0,384,742,-6656,379,-5.59,,,,,,,,,,,,
454144,1564150057142,1,2.37,0.98,0.34,1.46,1.11,0.86,0.01,0.49,6,-2,6,0.86,6835,10,96,45,37,904,379.0,497,465,60,125.0,128,1,304,192,49,0,0,384,-6656,3,378,-5.59,44.680885,10.024776,37.45,176.6,0,0.0,-1,0.0,0.0,0,3.34,7.5691
454164,1564150057162,-1,2.37,0.98,0.34,1.45,1.12,0.87,0.06,0.4,6,-1,6,0.87,6913,10,96,45,37,900,376.0,514,467,60,122.0,128,1,304,192,49,0,0,384,257,-6656,376,-5.59,,,,,,,,,,,,
454184,1564150057182,-1,2.36,0.98,0.34,1.46,1.12,0.9,0.05,0.54,5,-3,6,0.9,6988,10,96,45,37,892,374.0,514,470,60,124.0,128,1,304,192,49,0,0,359,486,-6656,374,-5.59,,,,,,,,,,,,
454204,1564150057206,1,2.37,0.98,0.33,1.46,1.11,1.01,0.04,0.57,5,-3,6,1.01,7075,10,96,45,37,887,373.0,518,466,60,124.0,136,1,304,192,51,0,0,365,-6656,0,373,-5.59,,,,,,,,,,,,
454224,1564150057226,0,2.36,0.98,0.32,1.46,1.12,0.86,0.04,0.46,6,0,4,0.86,7054,10,96,44,36,883,374.0,535,470,60,123.0,136,1,301,186,51,0,0,368,0,257,374,-5.59,,,,,,,,,,,,
454244,1564150057246,-0,2.36,0.98,0.33,1.46,1.11,0.89,0.0,0.45,5,-1,5,0.89,7033,10,96,44,36,880,374.0,530,471,60,123.0,136,1,301,112,51,0,0,369,0,-6656,374,-5.59,44.680882,10.024764,37.58,176.6,0,0.0,-1,0.0,0.0,0,3.34,7.5707
454264,1564150057266,3,2.36,0.98,0.33,1.46,1.12,0.99,-0.0,0.53,5,-2,6,0.99,7040,10,96,44,36,875,372.0,526,467,60,124.0,136,1,301,186,51,0,0,370,0,1,372,-5.59,,,,,,,,,,,,
454284,1564150057286,1,2.36,0.98,0.33,1.46,1.11,0.88,0.05,0.46,5,-0,6,0.89,6983,10,96,44,36,871,371.0,544,472,60,123.0,136,1,301,186,51,0,0,364,230,3,372,-5.59,,,,,,,,,,,,
454304,1564150057306,-1,2.37,0.98,0.33,1.46,1.12,0.85,0.11,0.49,5,-0,5,0.85,6965,10,96,44,36,870,373.0,530,470,60,123.0,131,1,301,186,49,0,0,367,230,770,372,-5.59,,,,,,,,,,,,
454324,1564150057326,3,2.36,0.98,0.33,1.45,1.12,0.97,0.09,0.54,4,-2,5,0.97,6952,10,96,44,36,869,372.0,515,468,60,124.0,131,1,301,186,49,0,0,365,0,1,372,-5.59,,,,,,,,,,,,
454344,1564150057346,-1,2.37,0.98,0.33,1.46,1.11,0.86,0.12,0.47,5,-0,5,0.87,6895,10,96,44,36,869,372.0,526,468,60,122.0,131,1,301,186,49,0,0,366,-6405,1,372,-5.59,44.680878,10.024752,36.7,176.6,0,0.0,-1,0.0,0.0,0,3.34,7.5724
454364,1564150057366,-1,2.36,0.98,0.33,1.46,1.12,0.94,0.04,0.49,4,-1,5,0.94,6863,9,96,44,36,868,372.0,517,468,60,123.0,131,1,301,186,49,0,0,367,-6405,486,372,-5.59,,,,,,,,,,,,
454384,1564150057386,0,2.36,0.98,0.34,1.46,1.12,0.9,0.04,0.49,5,0,6,0.9,6865,9,96,44,36,870,371.0,510,467,60,123.0,131,1,301,186,49,0,0,365,230,0,371,-5.59,,,,,,,,,,,,
454404,1564150057406,-0,2.36,0.98,0.33,1.45,1.11,0.86,0.02,0.51,4,-0,5,0.86,6848,9,96,44,36,871,369.0,503,468,60,123.0,131,1,301,186,49,0,0,364,-1268,-6656,369,-5.59,,,,,,,,,,,,
454424,1564150057426,2,2.35,0.98,0.33,1.46,1.11,0.94,-0.04,0.5,4,-1,6,0.94,6793,9,96,44,36,873,370.0,510,466,60,122.0,130,1,301,186,48,0,0,364,3082,-6656,370,-5.59,,,,,,,,,,,,
454444,1564150057446,-2,2.36,0.97,0.33,1.45,1.12,0.84,0.0,0.49,5,1,5,0.84,6793,9,96,44,36,875,368.0,508,470,60,122.0,130,1,301,186,48,0,0,125,-1268,742,369,-5.59,44.680874,10.02474,36.38,176.6,0,0.0,-1,0.0,0.0,0,3.34,7.5741
454464,1564150057466,2,2.36,0.97,0.33,1.45,1.11,0.94,-0.0,0.47,4,-1,6,0.94,6776,9,96,44,36,877,369.0,500,468,60,124.0,130,1,301,186,48,0,0,359,3082,0,369,-5.59,,,,,,,,,,,,
454484,1564150057486,-1,2.36,0.98,0.34,1.46,1.11,0.8,0.02,0.47,5,-0,4,0.8,6754,9,96,44,36,879,368.0,507,470,60,123.0,130,1,301,186,48,0,0,364,-6405,486,368,-5.59,,,,,,,,,,,,
454504,1564150057504,1,2.35,0.97,0.33,1.46,1.1,0.92,-0.0,0.46,4,-1,5,0.92,6703,9,96,44,37,880,367.0,496,464,60,124.0,130,1,304,192,48,0,0,362,3082,0,367,-5.59,,,,,,,,,,,,
454524,1564150057524,-1,2.35,0.98,0.32,1.46,1.11,0.87,-0.01,0.4,4,1,5,0.87,6727,9,96,44,37,882,366.0,503,471,60,122.0,130,1,304,192,48,0,0,362,2790,0,366,-5.59,,,,,,,,,,,,
454544,1564150057544,2,2.34,0.97,0.33,1.46,1.11,0.98,-0.08,0.52,3,-2,4,0.98,6751,9,96,44,37,882,365.0,507,470,60,124.0,130,1,304,192,48,0,0,363,2790,-6458,363,-5.59,44.68087,10.024728,36.42,176.6,0,0.0,-1,0.0,0.0,0,3.34,7.5757
454564,1564150057564,-0,2.34,0.97,0.33,1.45,1.11,0.83,-0.06,0.53,3,0,4,0.84,6783,8,96,44,37,881,363.0,514,467,60,123.0,130,1,304,192,48,0,0,361,-14707,-29978,363,-5.59,,,,,,,,,,,,
454584,1564150057584,2,2.34,0.97,0.33,1.46,1.11,0.9,-0.08,0.53,3,-2,5,0.9,6773,7,96,44,36,877,362.0,514,467,60,123.0,130,1,301,186,48,0,0,360,-6640,-29978,362,-5.59,,,,,,,,,,,,
454604,1564150057608,-0,2.34,0.97,0.33,1.45,1.11,0.76,0.01,0.47,4,1,3,0.76,6759,7,96,44,36,872,361.0,511,471,60,122.0,130,1,301,186,48,0,0,357,-29302,-29302,361,-5.59,,,,,,,,,,,,
454624,1564150057628,2,2.33,0.97,0.33,1.46,1.1,0.88,-0.01,0.48,3,-2,3,0.88,6761,7,96,44,35,868,362.0,503,467,60,124.0,130,1,298,181,47,0,0,359,-14707,-6458,362,-5.59,,,,,,,,,,,,
454644,1564150057648,-2,2.34,0.96,0.33,1.45,1.11,0.73,0.02,0.51,4,-0,2,0.73,6730,7,96,44,35,864,361.0,516,467,60,122.0,130,1,298,181,47,0,0,357,-29978,2790,359,-5.59,44.680866,10.024716,35.97,176.5,0,0.0,-1,0.0,0.0,0,3.34,7.5774
454664,1564150057668,0,2.34,0.97,0.33,1.45,1.1,0.86,-0.02,0.57,3,-1,2,0.86,6708,7,96,44,35,859,362.0,496,466,60,124.0,130,1,298,181,47,0,0,4293,-29978,-14707,360,-5.59,,,,,,,,,,,,
