"Interval"|"ms"|0|0|1,"Utc"|"ms"|0|0|1,"FB_p"|"bar"|0|300|50,"Volant"|"F"|0.0|300.0|50,"xFR"|"mm"|0.0|5.0|50,"xRR"|"mm"|0.0|5.0|50,"xFL"|"mm"|0.0|5.0|50,"xRL"|"mm"|0.0|5.0|50,"AccelX"|"G"|-3.0|3.0|50,"AccelY"|"G"|-3.0|3.0|50,"AccelZ"|"G"|-3.0|3.0|50,"Yaw"|"Deg/Sec"|-120|120|50,"Pitch"|"Deg/Sec"|-120|120|50,"Roll"|"Deg/Sec"|-120|120|50,"Gsum"|"G"|0.0|3.0|50,"RPM"|""|0|14000|50,"TPS"|"%"|0|100|50,"WaterTemp"|"?C"|0|300|50,"AirTemp"|"?C"|-1000|1000|50,"MAP"|"KPa"|0|255|50,"Lambda"|""|0|1024|50,"WheelSpeed"|"MPH"|0.0|150.0|50,"OilPress"|"PSI"|0|150|50,"FuelPress"|"PSI"|0|150|50,"OilTemp"|"F"|0|300|50,"Battery"|"Volts"|0.0|20.0|50,"FuelCon"|"L/h"|-1000|1000|50,"Gear"|""|0|10|50,"Advance"|"Deg"|-360|360|50,"Injection"|"ms"|-1000|1000|50,"FuelCon"|"L/100km"|-1000|1000|50,"LC_But_Pres"|""|-1000|1000|50,"LC_Active"|""|-1000|1000|50,"RD_Speed"|""|-1000|1000|50,"RUD_Speed"|""|-1000|1000|50,"LD_Speed"|""|-1000|1000|50,"LUD_Speed"|""|-1000|1000|50,"Ana1"|"bar"|-1000.0|1000.0|50,"Latitude"|"Degrees"|-180.0|180.0|10,"Longitude"|"Degrees"|-180.0|180.0|10,"Speed"|"kph"|0.0|150.0|10,"Altitude"|"m"|0.0|4000.0|10,"LapCount"|""|0|0|10,"LapTime"|"Min"|0.0|0.0|10,"Sector"|""|0|0|10,"SectorTime"|"Min"|0.0|0.0|10,"ElapsedTime"|"Min"|0.0|0.0|10,"CurrentLap"|""|0|0|10,"Distance"|"km"|0.0|0.0|10,"SessionTime"|"Min"|0.0|0.0|10
24263,1564151371675,-0,2.35,0.71,0.54,0.98,0.85,0.75,-0.01,0.57,-0,-3,0,0.75,4973,8,82,45,49,505,0.0,492,470,60,119.0,0,1,274,230,43,0,0,0,250,250,0,-5.59,,,,,,,,,,,,
24283,1564151371695,-1,2.35,0.71,0.54,0.98,0.84,0.79,0.01,0.56,-0,-3,-1,0.79,4890,8,82,45,49,505,0.0,482,468,60,119.0,0,1,266,229,43,0,0,0,250,250,0,-5.59,,,,,,,,,,,,
24303,1564151371715,0,2.35,0.71,0.54,0.99,0.84,0.85,-0.02,0.47,-0,-4,-0,0.85,4846,8,82,45,50,505,0.0,472,465,60,121.0,0,1,264,228,42,0,0,0,250,250,0,181.28,,,,,,,,,,,,
24323,1564151371735,2,2.35,0.71,0.54,0.99,0.84,0.8,0.02,0.42,-0,-3,0,0.8,4790,8,81,45,50,505,0.0,464,466,60,121.0,0,1,258,230,42,0,0,0,250,250,0,181.28,,,,,,,,,,,,
24343,1564151371755,-0,2.35,0.71,0.54,0.99,0.84,0.77,-0.01,0.44,-0,-2,-0,0.77,4733,8,81,45,51,505,0.0,457,466,60,119.0,0,1,255,234,42,0,0,0,250,250,0,-5.59,44.680866,10.024147,0.0,178.5,0,0.0,-1,0.0,0.0,0,0.0,0.4057
24363,1564151371775,-0,2.35,0.72,0.54,0.99,0.84,0.76,-0.03,0.55,-0,-3,-1,0.76,4657,8,81,45,51,505,0.0,457,472,60,119.0,0,1,246,233,42,0,0,0,250,250,0,-5.59,,,,,,,,,,,,
24383,1564151371794,-1,2.35,0.72,0.54,1.0,0.84,0.8,-0.06,0.63,-1,-4,-2,0.8,4636,8,81,45,51,505,0.0,450,468,60,118.0,0,1,243,230,42,0,0,0,250,250,0,-5.59,,,,,,,,,,,,
24403,1564151371814,-1,2.35,0.71,0.54,0.99,0.85,0.83,-0.05,0.65,-1,-5,-2,0.83,4593,8,81,45,52,505,0.0,444,468,60,118.0,0,1,241,234,40,0,0,0,250,250,0,-5.59,,,,,,,,,,,,
24423,1564151371834,-1,2.35,0.71,0.53,0.99,0.84,0.85,-0.01,0.63,-1,-5,-2,0.85,4547,8,81,45,52,505,0.0,444,473,60,119.0,0,1,235,232,40,0,0,0,250,250,0,-5.59,,,,,,,,,,,,
24443,1564151371854,-1,2.35,0.71,0.54,0.99,0.85,0.87,-0.01,0.64,-1,-6,-1,0.87,4514,8,81,45,52,505,0.0,433,471,60,119.0,0,1,231,232,40,0,0,0,250,250,0,-5.59,44.680866,10.024147,0.0,178.5,0,0.0,-1,0.0,0.0,0,0.0,0.4074
24463,1564151371874,-1,2.34,0.71,0.54,0.99,0.84,0.89,0.01,0.6,-1,-6,-1,0.89,4465,8,80,45,52,505,0.0,435,469,60,118.0,0,1,225,231,40,0,0,0,250,250,0,-5.59,,,,,,,,,,,,
24483,1564151371895,-1,2.35,0.72,0.53,0.99,0.84,0.91,0.02,0.61,-1,-6,-0,0.91,4432,8,80,45,52,505,0.0,425,470,60,119.0,0,1,221,236,40,0,0,0,250,250,0,-5.59,,,,,,,,,,,,
24503,1564151371915,-2,2.35,0.71,0.53,0.99,0.85,0.91,0.04,0.59,-1,-6,-0,0.91,4423,8,80,45,52,505,0.0,427,468,60,118.0,0,1,220,236,39,0,0,0,250,250,0,-5.59,,,,,,,,,,,,
24523,1564151371935,-0,2.35,0.71,0.54,0.99,0.85,0.93,0.06,0.63,-1,-6,-0,0.94,4407,8,80,45,53,505,0.0,426,472,60,119.0,0,1,220,236,39,0,0,0,250,250,0,-5.59,,,,,,,,,,,,
24543,1564151371955,-3,2.35,0.71,0.54,0.99,0.85,0.95,0.02,0.68,-1,-6,-1,0.95,4416,8,80,45,53,505,0.0,421,473,60,119.0,0,1,221,234,39,0,0,0,250,250,0,-5.59,44.680866,10.024147,0.0,178.5,0,0.0,-1,0.0,0.0,0,0.0,0.409
24563,1564151371975,-1,2.34,0.71,0.54,0.99,0.84,0.92,0.01,0.7,-1,-6,-1,0.92,4405,8,80,45,53,505,0.0,423,466,60,119.0,0,1,220,234,39,0,0,0,250,250,0,-5.59,,,,,,,,,,,,
24583,1564151371995,-0,2.35,0.72,0.54,0.99,0.84,0.91,0.01,0.7,-1,-5,-1,0.91,4384,8,80,45,53,505,0.0,418,465,60,121.0,0,1,217,233,39,0,0,0,250,250,0,181.28,,,,,,,,,,,,
24603,1564151372006,3,2.35,0.72,0.53,1.0,0.85,0.86,0.01,0.71,-1,-4,-1,0.86,4418,8,80,45,53,505,0.0,420,468,60,120.0,0,1,221,234,38,0,0,0,250,250,0,-5.59,,,,,,,,,,,,
24623,1564151372026,4,2.35,0.71,0.53,1.0,0.84,0.8,0.01,0.66,-0,-2,-1,0.8,4446,8,80,45,53,505,0.0,422,465,60,121.0,0,1,225,234,38,0,0,0,250,250,0,181.28,,,,,,,,,,,,
24643,1564151372046,3,2.35,0.72,0.54,1.0,0.84,0.77,0.0,0.63,-0,-1,-2,0.77,4398,8,80,45,53,505,0.0,420,462,60,122.0,0,1,219,233,38,0,0,0,250,250,0,414.87,44.680866,10.024147,0.0,178.5,0,0.0,-1,0.0,0.0,0,0.0,0.4107
24663,1564151372066,2,2.35,0.72,0.54,0.99,0.85,0.75,0.03,0.57,-0,-0,-2,0.75,4416,8,79,45,53,506,0.0,420,467,60,122.0,0,1,221,234,38,0,0,0,250,250,0,181.28,,,,,,,,,,,,
24683,1564151372086,1,2.36,0.72,0.54,0.99,0.85,0.75,0.05,0.52,-0,0,-1,0.76,4407,8,79,45,53,506,0.0,418,465,60,122.0,0,1,220,234,38,0,0,0,250,250,0,181.28,,,,,,,,,,,,
24703,1564151372106,1,2.36,0.71,0.54,1.0,0.84,0.78,0.03,0.51,0,0,-1,0.78,4410,8,79,45,53,505,0.0,426,464,60,121.0,0,1,220,234,39,0,0,0,250,250,0,-5.59,,,,,,,,,,,,
24723,1564151372126,0,2.35,0.71,0.54,0.99,0.85,0.77,0.04,0.47,0,0,-1,0.78,4395,8,79,45,53,505,0.0,419,465,60,121.0,0,1,218,233,39,0,0,0,250,250,0,-5.59,,,,,,,,,,,,
24743,1564151372146,-1,2.35,0.71,0.54,0.99,0.84,0.79,0.01,0.47,0,0,-0,0.79,4420,8,79,45,53,505,0.0,422,467,60,121.0,0,1,222,234,39,0,0,0,250,250,0,-5.59,44.680866,10.024147,0.0,178.5,0,0.0,-1,0.0,0.0,0,0.0,0.4124
24763,1564151372166,-0,2.35,0.71,0.54,0.99,0.84,0.8,-0.01,0.47,0,1,0,0.8,4397,8,79,45,53,505,0.0,421,467,60,119.0,0,1,219,233,39,0,0,0,250,250,0,-5.59,,,,,,,,,,,,
24783,1564151372194,-1,2.35,0.72,0.54,0.99,0.84,0.83,0.01,0.46,0,0,0,0.83,4461,8,79,45,53,505,0.0,423,466,60,118.0,0,1,227,234,39,0,0,0,250,250,0,-5.59,,,,,,,,,,,,
24803,1564151372214,-1,2.35,0.72,0.54,0.99,0.85,0.84,0.0,0.45,0,0,1,0.84,4473,8,78,45,53,505,0.0,432,468,60,120.0,0,1,228,234,39,0,0,0,250,250,0,-5.59,,,,,,,,,,,,
24823,1564151372234,-0,2.36,0.71,0.53,1.0,0.85,0.85,0.0,0.49,0,-1,1,0.85,4484,8,78,45,53,505,0.0,423,472,60,118.0,0,1,230,234,39,0,0,0,250,250,0,-5.59,,,,,,,,,,,,
24843,1564151372254,-0,2.34,0.72,0.54,1.0,0.85,0.85,0.01,0.49,0,-2,1,0.85,4480,8,78,45,53,505,0.0,431,469,60,120.0,0,1,229,234,39,0,0,0,250,250,0,-5.59,44.680866,10.024147,0.0,178.5,0,0.0,-1,0.0,0.0,0,0.0,0.414
24863,1564151372274,-2,2.36,0.71,0.54,0.99,0.84,0.86,0.03,0.52,0,-3,1,0.86,4470,8,78,45,53,505,0.0,431,467,60,119.0,0,1,228,234,39,0,0,0,250,250,0,-5.59,,,,,,,,,,,,
24883,1564151372294,-2,2.36,0.72,0.53,0.99,0.85,0.85,0.03,0.51,0,-3,1,0.85,4448,8,78,45,53,505,0.0,426,470,60,119.0,0,1,225,234,39,0,0,0,250,250,0,-5.59,,,,,,,,,,,,
24903,1564151372314,-2,2.35,0.72,0.54,0.99,0.85,0.87,0.04,0.55,0,-3,1,0.87,4481,8,78,45,54,505,0.0,430,474,60,119.0,0,1,233,239,39,0,0,0,250,250,0,-5.59,,,,,,,,,,,,
24923,1564151372334,-2,2.35,0.71,0.54,0.99,0.84,0.9,0.05,0.54,0,-4,1,0.9,4428,8,78,45,53,505,0.0,425,471,60,119.0,0,1,223,234,39,0,0,0,250,250,0,-5.59,,,,,,,,,,,,
24943,1564151372354,-1,2.35,0.72,0.54,0.99,0.84,0.91,0.05,0.58,0,-4,1,0.91,4507,8,77,45,53,505,0.0,435,471,60,118.0,0,1,233,240,39,0,0,0,250,250,0,-5.59,44.680866,10.024147,0.0,178.5,0,0.0,-1,0.0,0.0,0,0.0,0.4157
24963,1564151372374,-0,2.35,0.72,0.54,1.0,0.85,0.91,0.06,0.6,0,-5,1,0.92,4499,8,77,45,53,505,0.0,431,468,60,118.0,0,1,232,234,39,0,0,0,250,250,0,-5.59,,,,,,,,,,,,
24983,1564151372394,-1,2.35,0.71,0.54,0.99,0.85,0.92,0.05,0.65,-0,-5,1,0.92,4480,8,77,45,53,505,0.0,428,468,60,118.0,0,1,229,234,39,0,0,0,250,250,0,-5.59,,,,,,,,,,,,
25003,1564151372414,-1,2.35,0.71,0.54,0.99,0.85,0.94,0.05,0.68,-0,-6,1,0.95,4485,8,77,45,53,505,0.0,432,468,60,119.0,0,1,230,234,39,0,0,0,250,250,0,-5.59,,,,,,,,,,,,
25023,1564151372434,-1,2.35,0.71,0.54,0.99,0.85,0.95,0.02,0.69,-0,-6,0,0.95,4458,8,77,45,53,505,0.0,431,472,60,117.0,0,1,226,234,39,0,0,0,250,250,0,-5.59,,,,,,,,,,,,
25043,1564151372454,-1,2.35,0.71,0.54,1.0,0.84,0.96,0.04,0.68,-0,-6,0,0.96,4453,8,77,45,53,505,0.0,430,465,60,120.0,0,1,226,234,39,0,0,0,250,250,0,-5.59,44.680866,10.024147,0.0,178.5,0,0.0,-1,0.0,0.0,0,0.0,0.4174
25063,1564151372474,-0,2.35,0.72,0.54,0.99,0.85,0.96,0.05,0.68,-0,-5,-0,0.96,4516,8,77,45,53,505,0.0,427,470,60,120.0,0,1,234,235,39,0,0,0,250,250,0,-5.59,,,,,,,,,,,,
25083,1564151372494,-1,2.35,0.71,0.54,1.0,0.85,0.99,0.04,0.71,-1,-6,-0,0.99,4495,8,77,45,53,505,0.0,436,470,60,119.0,0,1,231,235,39,0,0,0,250,250,0,-5.59,,,,,,,,,,,,
25103,1564151372514,-2,2.35,0.71,0.53,0.99,0.85,0.98,0.02,0.73,-1,-6,-1,0.98,4522,8,76,45,53,505,0.0,436,472,60,119.0,0,1,235,235,39,0,0,0,250,250,0,-5.59,,,,,,,,,,,,
25123,1564151372534,-1,2.35,0.71,0.54,1.0,0.84,0.98,0.03,0.75,-1,-6,-1,0.98,4500,8,76,45,53,505,0.0,430,467,60,119.0,0,1,232,235,39,0,0,0,250,250,0,-5.59,,,,,,,,,,,,
25143,1564151372554,-1,2.35,0.72,0.54,0.99,0.84,0.98,0.03,0.78,-1,-6,-1,0.98,4495,8,76,45,53,505,0.0,428,470,60,119.0,0,1,231,234,39,0,0,0,250,250,0,-5.59,44.680866,10.024147,0.0,178.5,0,0.0,-1,0.0,0.0,0,0.0,0.419
25163,1564151372574,-1,2.35,0.72,0.54,0.99,0.84,1.0,0.01,0.82,-1,-7,-1,1.0,4523,8,76,45,53,505,0.0,432,471,60,118.0,0,1,235,235,39,0,0,0,250,250,0,-5.59,,,,,,,,,,,,
25183,1564151372594,-0,2.34,0.72,0.54,0.99,0.85,0.99,-0.01,0.82,-1,-7,-1,0.99,4505,8,76,45,53,505,0.0,438,471,60,118.0,0,1,233,235,39,0,0,0,250,250,0,-5.59,,,,,,,,,,,,
25203,1564151372614,-1,2.34,0.72,0.54,1.0,0.85,1.0,0.01,0.79,-1,-6,-1,1.0,4491,8,76,45,54,505,0.0,429,468,60,118.0,0,1,234,239,40,0,0,0,250,250,0,-5.59,,,,,,,,,,,,
25223,1564151372634,-1,2.34,0.72,0.54,0.99,0.84,1.01,0.03,0.78,-1,-6,-1,1.01,4532,8,76,45,54,505,0.0,433,471,60,118.0,0,1,239,235,40,0,0,0,250,250,0,-5.59,,,,,,,,,,,,
25243,1564151372654,-0,2.35,0.72,0.54,1.0,0.84,1.03,0.03,0.8,-1,-7,-1,1.03,4492,8,76,45,53,505,0.0,439,470,60,118.0,0,1,231,234,40,0,0,0,250,250,0,-5.59,44.680866,10.024147,0.0,178.5,0,0.0,-1,0.0,0.0,0,0.0,0.4207
25263,1564151372674,-1,2.35,0.71,0.54,0.99,0.85,1.03,0.0,0.82,-1,-8,-1,1.03,4543,8,75,45,53,505,0.0,431,472,60,118.0,0,1,238,235,40,0,0,0,250,250,0,-5.59,,,,,,,,,,,,
25283,1564151372696,-2,2.36,0.72,0.54,0.99,0.85,1.02,0.02,0.82,-1,-7,-1,1.02,4541,8,75,45,53,505,0.0,435,473,60,119.0,0,1,237,235,40,0,0,0,250,250,0,-5.59,,,,,,,,,,,,
25303,1564151372716,-1,2.36,0.71,0.54,0.99,0.85,1.01,0.03,0.84,-1,-8,-1,1.01,4537,8,75,45,53,506,0.0,430,469,60,119.0,0,1,237,235,40,0,0,0,250,250,0,-5.59,,,,,,,,,,,,
25323,1564151372736,-2,2.35,0.72,0.54,1.0,0.85,1.01,0.04,0.83,-1,-9,-1,1.01,4550,7,75,45,53,506,0.0,443,472,60,119.0,0,1,239,235,40,0,0,0,250,250,0,-5.59,,,,,,,,,,,,
25343,1564151372756,-0,2.34,0.72,0.54,1.0,0.84,1.02,0.06,0.82,-1,-9,-0,1.02,4531,7,75,45,53,506,0.0,442,467,60,119.0,0,1,236,235,40,0,0,0,250,250,0,-5.59,44.680866,10.024147,0.0,178.5,0,0.0,-1,0.0,0.0,0,0.0,0.4224
25363,1564151372776,-0,2.34,0.72,0.54,1.0,0.84,1.0,0.05,0.78,-0,-7,-0,1.0,4500,7,75,45,53,505,0.0,430,470,60,119.0,0,1,232,235,40,0,0,0,250,250,0,-5.59,,,,,,,,,,,,
25383,1564151372794,-2,2.36,0.72,0.54,1.0,0.84,1.0,0.04,0.8,-1,-8,-0,1.0,4516,7,75,45,53,505,0.0,434,466,60,119.0,0,1,234,235,40,0,0,0,250,250,0,-5.59,,,,,,,,,,,,
25403,1564151372814,-1,2.35,0.72,0.54,0.99,0.85,1.01,0.03,0.76,-0,-8,-0,1.01,4482,7,74,45,53,505,0.0,433,470,60,118.0,0,1,230,234,40,0,0,0,250,250,0,-5.59,,,,,,,,,,,,
25423,1564151372834,-1,2.35,0.72,0.54,0.99,0.85,1.02,0.03,0.74,-0,-8,-0,1.02,4494,7,74,45,53,505,0.0,430,469,60,118.0,0,1,231,234,40,0,0,0,250,250,0,-5.59,,,,,,,,,,,,
25443,1564151372854,-1,2.35,0.72,0.54,1.0,0.85,1.0,0.04,0.72,-0,-7,0,1.0,4499,7,74,45,53,505,0.0,432,468,60,120.0,0,1,232,234,40,0,0,0,250,250,0,-5.59,44.680866,10.024147,0.0,178.5,0,0.0,-1,0.0,0.0,0,0.0,0.424
25463,1564151372874,-1,2.35,0.72,0.54,0.99,0.85,1.0,0.03,0.77,-0,-8,0,1.0,4491,7,74,45,53,504,0.0,426,466,60,120.0,0,1,231,234,40,0,0,0,250,250,0,-5.59,,,,,,,,,,,,
25483,1564151372895,-1,2.35,0.72,0.54,0.99,0.85,1.0,0.03,0.75,-0,-9,1,1.0,4492,7,74,45,53,505,0.0,441,467,60,120.0,0,1,231,234,40,0,0,0,250,250,0,-5.59,,,,,,,,,,,,
25503,1564151372915,-2,2.36,0.71,0.54,0.99,0.85,0.99,0.05,0.76,-0,-9,1,1.0,4482,7,74,45,53,505,0.0,429,465,60,120.0,0,1,230,234,39,0,0,0,250,250,0,-5.59,,,,,,,,,,,,
25523,1564151372935,-0,2.36,0.71,0.54,1.0,0.85,0.98,0.05,0.74,-0,-7,1,0.98,4474,7,74,45,53,505,0.0,431,471,60,119.0,0,1,229,233,39,0,0,0,250,250,0,-5.59,,,,,,,,,,,,
25543,1564151372955,-0,2.35,0.72,0.54,0.99,0.85,0.99,0.06,0.75,-0,-7,1,0.99,4503,7,73,45,53,505,0.0,434,467,60,119.0,0,1,232,234,39,0,0,0,250,250,0,-5.59,44.680866,10.024147,0.0,178.5,0,0.0,-1,0.0,0.0,0,0.0,0.4257
25563,1564151372975,-1,2.35,0.72,0.54,1.0,0.85,1.01,0.06,0.73,-0,-8,1,1.01,4455,7,73,45,53,505,0.0,430,465,60,119.0,0,1,226,233,39,0,0,0,250,250,0,-5.59,,,,,,,,,,,,
25583,1564151372995,-1,2.35,0.72,0.54,1.0,0.85,1.02,0.04,0.76,-0,-8,1,1.02,4478,7,73,45,53,505,0.0,432,471,60,119.0,0,1,229,233,39,0,0,0,250,250,0,-5.59,,,,,,,,,,,,
25603,1564151373007,-1,2.35,0.71,0.54,1.0,0.85,1.01,0.05,0.77,-0,-8,1,1.01,4479,7,73,45,53,505,0.0,426,467,60,118.0,0,1,229,233,39,0,0,0,250,250,0,-5.59,,,,,,,,,,,,
25623,1564151373027,-1,2.34,0.71,0.54,0.99,0.85,1.0,0.05,0.8,-0,-8,1,1.0,4492,7,73,45,53,505,0.0,432,471,60,119.0,0,1,231,233,39,0,0,0,250,250,0,-5.59,,,,,,,,,,,,
25643,1564151373047,-2,2.35,0.72,0.54,0.99,0.85,1.02,0.04,0.82,-0,-9,1,1.02,4469,7,73,45,53,505,0.0,435,470,60,118.0,0,1,228,233,39,0,0,0,250,250,0,-5.59,44.680866,10.024147,0.0,178.5,0,0.0,-1,0.0,0.0,0,0.0,0.4274
25663,1564151373067,-1,2.35,0.72,0.54,1.0,0.85,1.01,0.02,0.82,-0,-9,0,1.01,4466,7,73,45,53,505,0.0,427,467,60,120.0,0,1,228,233,39,0,0,0,250,250,0,-5.59,,,,,,,,,,,,
25683,1564151373095,-1,2.35,0.71,0.54,0.99,0.85,1.01,0.04,0.8,-0,-8,0,1.01,4443,7,73,45,53,505,0.0,426,466,60,120.0,0,1,225,233,39,0,0,0,250,250,0,-5.59,,,,,,,,,,,,
25703,1564151373115,-1,2.34,0.72,0.54,0.99,0.84,1.0,0.05,0.79,-1,-8,-0,1.0,4447,7,73,45,53,505,0.0,423,469,60,120.0,0,1,225,233,39,0,0,0,250,250,0,-5.59,,,,,,,,,,,,
25723,1564151373135,-2,2.36,0.72,0.54,1.0,0.84,1.0,0.0,0.83,-1,-8,-1,1.0,4424,7,72,45,53,505,0.0,432,469,60,119.0,0,1,222,233,39,0,0,0,250,250,0,-5.59,,,,,,,,,,,,
25743,1564151373155,-2,2.35,0.72,0.54,1.0,0.85,0.96,-0.0,0.84,-1,-8,-1,0.96,4426,7,72,45,53,505,0.0,423,467,60,119.0,0,1,225,233,39,0,0,0,250,250,0,-5.59,44.680866,10.024147,0.0,178.5,0,0.0,-1,0.0,0.0,0,0.0,0.429
25763,1564151373175,-1,2.35,0.72,0.54,1.0,0.85,0.94,-0.02,0.84,-1,-7,-1,0.94,4436,7,72,45,53,505,0.0,425,466,60,120.0,0,1,224,233,39,0,0,0,250,250,0,-5.59,,,,,,,,,,,,
25783,1564151373195,-1,2.35,0.72,0.54,1.0,0.85,0.89,-0.02,0.84,-1,-6,-2,0.89,4406,7,72,45,53,505,0.0,424,466,60,121.0,0,1,220,233,39,0,0,0,250,250,0,-5.59,,,,,,,,,,,,
25803,1564151373215,2,2.35,0.72,0.53,1.0,0.85,0.84,-0.02,0.79,-1,-5,-2,0.84,4423,7,72,45,53,505,0.0,421,466,60,120.0,0,1,222,233,38,0,0,0,250,250,0,-5.59,,,,,,,,,,,,
25823,1564151373235,3,2.35,0.72,0.54,1.0,0.85,0.8,-0.03,0.75,-1,-4,-2,0.8,4434,7,72,45,53,505,0.0,424,462,60,121.0,0,1,223,233,38,0,0,0,250,250,0,181.28,,,,,,,,,,,,
25843,1564151373255,2,2.34,0.72,0.54,1.0,0.85,0.77,-0.0,0.69,-0,-2,-2,0.77,4424,7,72,45,53,505,0.0,416,466,60,122.0,0,1,222,233,38,0,0,0,250,250,0,414.87,44.680866,10.024147,0.0,178.5,0,0.0,-1,0.0,0.0,0,0.0,0.4307
25863,1564151373275,2,2.36,0.71,0.54,1.0,0.85,0.77,0.03,0.63,-0,-1,-2,0.77,4444,7,71,45,53,505,0.0,428,466,60,121.0,0,1,225,231,38,0,0,0,250,250,0,181.28,,,,,,,,,,,,
25883,1564151373295,0,2.35,0.72,0.54,0.99,0.85,0.79,0.05,0.62,-0,-1,-2,0.79,4435,7,71,45,53,505,0.0,425,465,60,121.0,0,1,223,231,38,0,0,0,250,250,0,181.28,,,,,,,,,,,,
25903,1564151373315,0,2.35,0.72,0.54,0.99,0.85,0.78,0.05,0.59,-0,-1,-1,0.78,4421,7,71,45,53,505,0.0,419,461,60,121.0,0,1,222,231,38,0,0,0,250,250,0,181.28,,,,,,,,,,,,
25923,1564151373335,1,2.35,0.72,0.54,1.0,0.85,0.78,0.04,0.55,-0,-1,-1,0.78,4481,7,71,45,53,505,0.0,431,465,60,121.0,0,1,230,231,38,0,0,0,250,250,0,181.28,,,,,,,,,,,,
25943,1564151373355,1,2.35,0.72,0.55,1.0,0.85,0.8,0.06,0.52,0,1,-0,0.8,4446,7,71,45,53,505,0.0,426,468,60,121.0,0,1,225,227,38,0,0,0,250,250,0,181.28,44.680866,10.024147,0.0,178.5,0,0.0,-1,0.0,0.0,0,0.0,0.4324
25963,1564151373375,-0,2.36,0.72,0.54,1.0,0.85,0.83,0.07,0.49,0,1,0,0.83,4500,7,71,45,52,505,0.0,428,457,60,121.0,0,1,229,228,38,0,0,0,250,250,0,181.28,,,,,,,,,,,,
25983,1564151373395,0,2.35,0.72,0.54,1.0,0.85,0.86,0.06,0.46,0,2,1,0.86,4494,7,71,45,52,505,0.0,426,462,60,121.0,0,1,228,227,38,0,0,0,250,250,0,181.28,,,,,,,,,,,,
26003,1564151373415,-1,2.36,0.72,0.54,1.0,0.84,0.88,0.03,0.45,0,1,1,0.88,4481,7,71,45,53,505,0.0,430,458,60,121.0,0,1,230,227,39,0,0,0,250,250,0,181.28,,,,,,,,,,,,
26023,1564151373435,0,2.36,0.72,0.54,1.0,0.85,0.89,0.0,0.45,0,1,1,0.89,4487,7,70,45,53,505,0.0,433,464,60,122.0,0,1,230,231,39,0,0,0,250,250,0,-5.59,,,,,,,,,,,,
26043,1564151373455,-1,2.35,0.72,0.55,1.0,0.86,0.9,-0.02,0.42,0,1,1,0.9,4472,7,70,45,53,505,0.0,429,465,60,122.0,0,1,228,231,39,0,0,0,250,250,0,-5.59,44.680866,10.024147,0.0,178.5,0,0.0,-1,0.0,0.0,0,0.0,0.434
26063,1564151373475,-1,2.36,0.72,0.54,1.0,0.84,0.89,-0.01,0.41,0,2,1,0.89,4461,7,70,45,53,505,0.0,427,460,60,121.0,0,1,227,227,39,0,0,0,250,250,0,-5.59,,,,,,,,,,,,
26083,1564151373495,0,2.36,0.72,0.55,1.0,0.85,0.9,-0.04,0.4,0,1,1,0.9,4514,7,70,45,53,506,0.0,430,460,60,121.0,0,1,234,227,39,0,0,0,250,250,0,-5.59,,,,,,,,,,,,
26103,1564151373515,1,2.35,0.72,0.54,1.01,0.85,0.91,-0.05,0.39,0,2,2,0.91,4467,7,70,45,53,506,0.0,429,463,60,121.0,0,1,228,226,38,0,0,0,250,250,0,-5.59,,,,,,,,,,,,
26123,1564151373535,-1,2.35,0.72,0.54,1.01,0.85,0.93,-0.04,0.37,0,2,2,0.93,4508,7,70,45,53,506,0.0,428,467,60,121.0,0,1,233,227,38,0,0,0,250,250,0,-5.59,,,,,,,,,,,,
26143,1564151373555,1,2.35,0.72,0.54,0.99,0.85,0.95,-0.04,0.36,0,3,2,0.95,4520,7,70,45,52,506,0.0,431,461,60,120.0,0,1,232,231,38,0,0,0,250,250,0,-5.59,44.680866,10.024147,0.0,178.5,0,0.0,-1,0.0,0.0,0,0.0,0.4357
26163,1564151373575,0,2.35,0.72,0.54,1.0,0.85,0.97,-0.07,0.37,0,1,2,0.98,4496,7,70,45,53,506,0.0,440,463,60,121.0,0,1,231,226,38,0,0,0,250,250,0,-5.59,,,,,,,,,,,,
26183,1564151373595,-0,2.35,0.72,0.54,1.01,0.85,0.97,-0.1,0.38,0,1,2,0.98,4514,7,70,45,53,506,0.0,431,465,60,121.0,0,1,234,227,38,0,0,0,250,250,0,-5.59,,,,,,,,,,,,
26203,1564151373615,0,2.35,0.72,0.54,1.01,0.85,0.97,-0.09,0.35,1,1,2,0.97,4511,7,70,45,53,506,0.0,432,462,60,121.0,0,1,233,227,38,0,0,0,250,250,0,-5.59,,,,,,,,,,,,
26223,1564151373635,1,2.35,0.72,0.54,1.01,0.85,0.96,-0.08,0.34,1,1,2,0.96,4478,7,70,45,53,506,0.0,431,468,60,120.0,0,1,229,226,38,0,0,0,250,250,0,-5.59,,,,,,,,,,,,
26243,1564151373655,1,2.35,0.72,0.54,1.01,0.85,0.96,-0.09,0.35,0,1,2,0.97,4484,7,70,45,52,506,0.0,428,465,60,120.0,0,1,227,230,38,0,0,0,250,250,0,-5.59,44.680866,10.024147,0.0,178.5,0,0.0,-1,0.0,0.0,0,0.0,0.4374
26263,1564151373675,-1,2.35,0.72,0.54,1.01,0.85,0.96,-0.1,0.36,1,1,2,0.97,4444,7,70,45,53,506,0.0,428,462,60,121.0,0,1,225,226,38,0,0,0,250,250,0,-5.59,,,,,,,,,,,,
26283,1564151373695,-0,2.35,0.72,0.54,1.0,0.85,0.97,-0.07,0.33,1,2,2,0.98,4493,7,70,45,53,506,0.0,422,463,60,121.0,0,1,231,226,38,0,0,0,250,250,0,-5.59,,,,,,,,,,,,
26303,1564151373715,-0,2.34,0.72,0.54,1.01,0.85,0.98,-0.07,0.35,1,2,2,0.98,4468,7,70,45,53,506,0.0,433,464,60,121.0,0,1,228,224,39,0,0,0,250,250,0,-5.59,,,,,,,,,,,,
26323,1564151373735,-1,2.35,0.72,0.55,1.0,0.85,0.99,-0.08,0.38,0,0,2,0.99,4458,7,70,45,52,506,0.0,427,470,60,119.0,0,1,224,224,39,0,0,0,250,250,0,-5.59,,,,,,,,,,,,
26343,1564151373755,-1,2.35,0.73,0.54,1.01,0.84,0.97,-0.08,0.4,1,-0,2,0.98,4498,7,70,45,52,505,0.0,431,465,60,119.0,0,1,229,229,39,0,0,0,250,250,0,-5.59,44.680866,10.024147,0.0,178.5,0,0.0,-1,0.0,0.0,0,0.0,0.439
26363,1564151373775,-1,2.35,0.72,0.54,1.01,0.85,0.96,-0.04,0.4,1,-1,2,0.96,4471,7,70,45,53,505,0.0,430,465,60,120.0,0,1,228,229,39,0,0,0,250,250,0,-5.59,,,,,,,,,,,,
26383,1564151373794,-2,2.35,0.72,0.54,1.01,0.84,0.95,-0.04,0.4,1,-0,2,0.95,4464,7,70,45,52,505,0.0,424,466,60,120.0,0,1,225,224,39,0,0,0,250,250,0,-5.59,,,,,,,,,,,,
26403,1564151373814,-2,2.35,0.72,0.54,1.0,0.85,0.96,-0.05,0.43,0,-1,2,0.96,4500,7,70,45,52,505,0.0,435,463,60,120.0,0,1,229,230,38,0,0,0,250,250,0,-5.59,,,,,,,,,,,,
26423,1564151373834,-1,2.35,0.72,0.54,1.0,0.86,0.96,-0.07,0.45,0,-1,2,0.97,4450,7,69,45,53,505,0.0,427,465,60,120.0,0,1,225,230,38,0,0,0,250,250,0,-5.59,,,,,,,,,,,,
26443,1564151373854,-0,2.35,0.72,0.54,1.01,0.85,0.98,-0.05,0.46,1,-2,2,0.98,4513,7,69,45,52,505,0.0,433,468,60,118.0,0,1,231,231,38,0,0,0,250,250,0,-5.59,44.680866,10.024147,0.0,178.5,0,0.0,-1,0.0,0.0,0,0.0,0.4407
26463,1564151373874,-1,2.35,0.73,0.54,1.01,0.85,0.96,-0.03,0.48,1,-1,2,0.97,4488,7,69,45,52,505,0.0,437,466,60,120.0,0,1,228,226,38,0,0,0,250,250,0,-5.59,,,,,,,,,,,,
26483,1564151373894,-1,2.35,0.71,0.54,1.01,0.85,0.97,-0.04,0.54,0,-3,2,0.97,4468,7,69,45,52,505,0.0,427,466,60,120.0,0,1,226,226,38,0,0,0,250,250,0,-5.59,,,,,,,,,,,,
26503,1564151373914,-1,2.35,0.72,0.54,1.0,0.85,0.96,-0.02,0.56,0,-4,2,0.96,4487,7,69,45,53,505,0.0,433,475,60,118.0,0,1,230,230,38,0,0,0,250,250,0,-5.59,,,,,,,,,,,,
26523,1564151373934,-0,2.34,0.73,0.54,1.01,0.85,0.97,0.0,0.57,1,-4,2,0.97,4487,7,69,45,53,505,0.0,428,471,60,120.0,0,1,230,229,38,0,0,0,250,250,0,-5.59,,,,,,,,,,,,
26543,1564151373954,-1,2.35,0.72,0.54,1.0,0.85,0.96,0.0,0.57,1,-3,2,0.96,4469,7,69,45,52,505,0.0,433,471,60,119.0,0,1,226,229,38,0,0,0,250,250,0,-5.59,44.680866,10.024147,0.0,178.5,0,0.0,-1,0.0,0.0,0,0.0,0.4424
26563,1564151373974,-0,2.34,0.72,0.54,1.01,0.85,0.97,-0.0,0.61,0,-4,2,0.97,4497,7,69,45,52,505,0.0,432,471,60,120.0,0,1,229,229,38,0,0,0,250,250,0,-5.59,,,,,,,,,,,,
26583,1564151373994,-0,2.34,0.72,0.54,1.01,0.85,0.99,0.01,0.6,0,-4,2,0.99,4443,7,69,45,52,505,0.0,428,468,60,119.0,0,1,223,229,38,0,0,0,250,250,0,-5.59,,,,,,,,,,,,
26603,1564151374006,-1,2.35,0.72,0.54,1.0,0.86,0.99,-0.0,0.64,0,-5,2,0.99,4483,7,69,45,53,505,0.0,431,473,60,119.0,0,1,230,229,38,0,0,0,250,250,0,-5.59,,,,,,,,,,,,
26623,1564151374026,-2,2.36,0.72,0.54,1.0,0.86,0.98,0.02,0.66,0,-5,2,0.98,4468,7,69,45,52,505,0.0,428,473,60,119.0,0,1,226,224,38,0,0,0,250,250,0,-5.59,,,,,,,,,,,,
26643,1564151374046,-1,2.35,0.72,0.54,1.01,0.85,0.98,0.01,0.71,0,-5,2,0.98,4477,7,69,45,52,505,0.0,427,471,60,118.0,0,1,227,224,38,0,0,0,250,250,0,-5.59,44.680866,10.024147,0.0,178.5,0,0.0,-1,0.0,0.0,0,0.0,0.444
26663,1564151374066,-1,2.36,0.73,0.53,1.01,0.85,0.99,0.01,0.74,0,-6,2,0.99,4492,7,69,45,52,505,0.0,430,470,60,118.0,0,1,228,229,38,0,0,0,250,250,0,-5.59,,,,,,,,,,,,
26683,1564151374094,-1,2.35,0.72,0.54,1.01,0.85,0.98,-0.02,0.76,0,-6,1,0.98,4468,7,69,45,53,506,0.0,433,471,60,118.0,0,1,228,229,38,0,0,0,250,250,0,-5.59,,,,,,,,,,,,
26703,1564151374114,-1,2.35,0.72,0.54,1.0,0.84,0.99,0.01,0.73,-0,-6,1,0.99,4451,7,69,45,53,506,0.0,428,469,60,119.0,0,1,226,229,38,0,0,0,250,250,0,-5.59,,,,,,,,,,,,
26723,1564151374134,-0,2.35,0.73,0.54,1.0,0.85,1.0,0.01,0.74,-0,-6,1,1.0,4491,7,69,45,53,506,0.0,426,471,60,120.0,0,1,231,230,38,0,0,0,250,250,0,-5.59,,,,,,,,,,,,
26743,1564151374154,-1,2.35,0.72,0.54,1.0,0.86,1.01,-0.01,0.79,-0,-7,0,1.01,4450,7,69,45,53,505,0.0,430,472,60,119.0,0,1,225,229,38,0,0,0,250,250,0,-5.59,44.680866,10.024147,0.0,178.5,0,0.0,-1,0.0,0.0,0,0.0,0.4457
26763,1564151374174,-1,2.36,0.73,0.54,1.0,0.85,0.99,-0.03,0.81,-0,-7,-0,0.99,4505,7,69,45,53,505,0.0,428,471,60,119.0,0,1,233,230,38,0,0,0,250,250,0,-5.59,,,,,,,,,,,,
26783,1564151374194,-0,2.35,0.72,0.54,1.01,0.85,0.98,-0.04,0.82,-0,-7,-0,0.99,4496,7,69,45,53,505,0.0,430,472,60,119.0,0,1,231,229,38,0,0,0,250,250,0,-5.59,,,,,,,,,,,,
26803,1564151374214,-1,2.35,0.72,0.54,1.0,0.86,0.97,-0.03,0.84,-1,-7,-0,0.97,4478,7,69,45,53,505,0.0,425,467,60,120.0,0,1,229,229,39,0,0,0,250,250,0,-5.59,,,,,,,,,,,,
26823,1564151374234,-0,2.35,0.73,0.54,1.01,0.85,0.97,-0.07,0.88,-1,-7,-1,0.97,4514,7,69,45,53,505,0.0,428,466,60,120.0,0,1,233,230,39,0,0,0,250,250,0,-5.59,,,,,,,,,,,,
26843,1564151374254,-1,2.35,0.72,0.55,1.01,0.85,0.94,-0.08,0.86,-1,-7,-1,0.95,4478,7,69,45,53,505,0.0,440,472,60,119.0,0,1,229,229,39,0,0,0,250,250,0,-5.59,44.680866,10.024147,0.0,178.5,0,0.0,-1,0.0,0.0,0,0.0,0.4474
26863,1564151374274,-1,2.35,0.72,0.54,1.0,0.85,0.95,-0.07,0.86,-1,-6,-1,0.95,4439,7,69,45,53,505,0.0,426,469,60,119.0,0,1,224,227,39,0,0,0,250,250,0,-5.59,,,,,,,,,,,,
26883,1564151374295,-1,2.34,0.72,0.54,1.01,0.85,0.93,-0.08,0.86,-1,-6,-2,0.93,4485,7,69,45,53,505,0.0,428,467,60,121.0,0,1,230,227,39,0,0,0,250,250,0,-5.59,,,,,,,,,,,,
26903,1564151374315,-1,2.35,0.73,0.54,1.0,0.85,0.91,-0.14,0.88,-1,-6,-2,0.92,4455,7,69,45,53,505,0.0,430,471,60,119.0,0,1,226,227,37,0,0,0,250,250,0,-5.59,,,,,,,,,,,,
26923,1564151374335,-1,2.34,0.72,0.54,1.01,0.85,0.87,-0.14,0.89,-1,-6,-2,0.88,4444,7,68,45,53,505,0.0,424,467,60,119.0,0,1,230,224,37,0,0,0,250,250,0,-5.59,,,,,,,,,,,,
26943,1564151374355,-1,2.35,0.73,0.54,1.01,0.85,0.85,-0.15,0.88,-1,-6,-3,0.87,4488,7,68,45,53,505,0.0,430,468,60,120.0,0,1,230,229,37,0,0,0,250,250,0,-5.59,44.680866,10.024147,0.0,178.5,0,0.0,-1,0.0,0.0,0,0.0,0.449
26963,1564151374375,-0,2.35,0.73,0.54,1.01,0.85,0.84,-0.14,0.89,-1,-5,-2,0.86,4450,7,68,45,53,505,0.0,422,468,60,120.0,0,1,225,229,37,0,0,0,250,250,0,-5.59,,,,,,,,,,,,
26983,1564151374394,-0,2.35,0.71,0.54,1.01,0.85,0.8,-0.15,0.84,-1,-3,-3,0.81,4486,7,68,45,53,505,0.0,432,466,60,121.0,0,1,230,229,37,0,0,0,250,250,0,181.28,,,,,,,,,,,,
27003,1564151374414,-0,2.34,0.73,0.54,1.01,0.86,0.75,-0.14,0.82,-1,-2,-3,0.76,4489,7,68,45,53,506,0.0,428,467,60,120.0,0,1,231,229,39,0,0,0,250,250,0,-5.59,,,,,,,,,,,,
27023,1564151374434,-1,2.35,0.72,0.54,1.01,0.85,0.77,-0.13,0.81,-1,-2,-3,0.78,4491,7,68,45,53,506,0.0,425,466,60,120.0,0,1,231,227,39,0,0,0,250,250,0,-5.59,,,,,,,,,,,,
27043,1564151374454,-2,2.35,0.72,0.53,1.01,0.85,0.73,-0.12,0.79,-1,-0,-4,0.74,4476,7,68,45,53,506,0.0,426,466,60,121.0,0,1,229,223,39,0,0,0,250,250,0,-5.59,44.680866,10.024147,0.0,178.5,0,0.0,-1,0.0,0.0,0,0.0,0.4507
27063,1564151374474,3,2.35,0.72,0.54,1.01,0.85,0.73,-0.17,0.81,-1,-0,-4,0.75,4457,7,68,45,53,506,0.0,423,466,60,121.0,0,1,226,227,39,0,0,0,250,250,0,-5.59,,,,,,,,,,,,
27083,1564151374494,2,2.35,0.73,0.53,1.01,0.85,0.71,-0.16,0.83,-1,-1,-4,0.73,4414,7,68,45,52,505,0.0,423,465,60,121.0,0,1,219,223,39,0,0,0,250,250,0,181.28,,,,,,,,,,,,
27103,1564151374514,2,2.34,0.72,0.54,1.01,0.84,0.7,-0.16,0.8,-1,-0,-4,0.71,4435,7,68,45,53,505,0.0,419,465,60,121.0,0,1,223,227,37,0,0,0,250,250,0,181.28,,,,,,,,,,,,
27123,1564151374534,2,2.34,0.72,0.53,1.01,0.85,0.65,-0.14,0.8,-1,1,-3,0.67,4391,7,68,45,53,505,0.0,419,467,60,121.0,0,1,218,226,37,0,0,0,250,250,0,181.28,,,,,,,,,,,,
27143,1564151374554,2,2.35,0.72,0.54,1.01,0.85,0.63,-0.1,0.71,-0,2,-3,0.64,4426,7,68,45,52,505,0.0,423,467,60,121.0,0,1,220,223,37,0,0,0,250,250,0,181.28,44.680866,10.024147,0.0,178.5,0,0.0,-1,0.0,0.0,0,0.0,0.4524
27163,1564151374574,1,2.35,0.73,0.54,1.01,0.85,0.64,-0.09,0.68,-0,3,-2,0.65,4405,7,68,45,52,505,0.0,417,463,60,121.0,0,1,218,223,37,0,0,0,250,250,0,181.28,,,,,,,,,,,,
27183,1564151374594,0,2.35,0.72,0.54,1.01,0.85,0.66,-0.06,0.63,-0,2,-2,0.67,4406,7,68,45,52,505,0.0,416,463,60,121.0,0,1,218,222,37,0,0,0,250,250,0,181.28,,,,,,,,,,,,
27203,1564151374614,-1,2.35,0.72,0.54,1.01,0.85,0.71,-0.04,0.6,-0,2,-2,0.71,4416,7,68,45,52,505,0.0,418,466,60,120.0,0,1,219,222,37,0,0,0,250,250,0,-5.59,,,,,,,,,,,,
27223,1564151374634,-2,2.36,0.72,0.54,1.01,0.86,0.72,-0.04,0.56,0,1,-1,0.72,4384,7,68,45,52,506,0.0,423,464,60,121.0,0,1,215,221,37,0,0,0,250,250,0,-5.59,,,,,,,,,,,,
27243,1564151374654,-1,2.35,0.73,0.54,1.0,0.86,0.73,-0.05,0.55,0,1,-0,0.73,4375,7,68,45,52,505,0.0,415,473,60,119.0,0,1,214,221,37,0,0,0,250,250,0,-5.59,44.680866,10.024147,0.0,178.5,0,0.0,-1,0.0,0.0,0,0.0,0.454
27263,1564151374674,-1,2.35,0.73,0.54,1.01,0.85,0.75,-0.07,0.55,-0,-0,-0,0.75,4402,7,68,45,52,505,0.0,422,472,60,119.0,0,1,217,226,37,0,0,0,250,250,0,-5.59,,,,,,,,,,,,
27283,1564151374694,-1,2.35,0.73,0.54,1.01,0.85,0.76,-0.07,0.53,-0,-1,0,0.76,4364,7,68,45,53,505,0.0,423,470,60,119.0,0,1,215,225,37,0,0,0,250,250,0,-5.59,,,,,,,,,,,,
27303,1564151374714,-1,2.35,0.72,0.54,1.01,0.85,0.79,-0.07,0.55,-0,-2,-0,0.79,4414,7,68,45,53,505,0.0,414,468,60,120.0,0,1,221,225,37,0,0,0,250,250,0,-5.59,,,,,,,,,,,,
27323,1564151374734,-1,2.35,0.72,0.54,1.01,0.86,0.81,-0.04,0.58,-0,-2,-0,0.81,4420,7,68,45,53,505,0.0,423,475,60,119.0,0,1,222,226,37,0,0,0,250,250,0,-5.59,,,,,,,,,,,,
27343,1564151374754,-2,2.35,0.73,0.54,1.01,0.85,0.82,-0.04,0.64,-0,-2,-0,0.82,4385,7,68,45,53,505,0.0,415,467,60,120.0,0,1,217,225,37,0,0,0,250,250,0,-5.59,44.680866,10.024147,0.0,178.5,0,0.0,-1,0.0,0.0,0,0.0,0.4557
27363,1564151374774,-1,2.35,0.73,0.53,1.01,0.86,0.84,-0.07,0.68,-0,-2,-1,0.84,4421,7,68,45,53,505,0.0,425,467,60,121.0,0,1,222,226,37,0,0,0,250,250,0,-5.59,,,,,,,,,,,,
27383,1564151374794,2,2.35,0.73,0.54,1.01,0.85,0.8,-0.06,0.68,-0,-1,-1,0.81,4404,7,68,45,53,505,0.0,417,465,60,122.0,0,1,219,226,37,0,0,0,250,250,0,-5.59,,,,,,,,,,,,
27403,1564151374814,3,2.35,0.73,0.53,1.01,0.85,0.79,-0.07,0.65,-0,-0,-2,0.79,4403,7,68,45,53,505,0.0,415,464,60,121.0,0,1,219,226,37,0,0,0,250,250,0,181.28,,,,,,,,,,,,
27423,1564151374834,2,2.35,0.73,0.54,1.02,0.86,0.75,-0.07,0.63,-0,1,-2,0.75,4410,7,68,45,53,505,0.0,423,466,60,122.0,0,1,220,226,37,0,0,0,250,250,0,181.28,,,,,,,,,,,,
27443,1564151374854,0,2.36,0.73,0.54,1.01,0.86,0.74,-0.03,0.58,-0,1,-2,0.74,4390,7,68,45,53,506,0.0,415,465,60,122.0,0,1,218,225,37,0,0,0,250,250,0,181.28,44.680866,10.024147,0.0,178.5,0,0.0,-1,0.0,0.0,0,0.0,0.4574
27463,1564151374874,1,2.35,0.72,0.53,1.01,0.86,0.73,-0.03,0.59,-0,1,-1,0.73,4401,7,68,45,53,505,0.0,415,462,60,122.0,0,1,219,226,37,0,0,0,250,250,0,414.87,,,,,,,,,,,,
27483,1564151374895,-0,2.35,0.72,0.54,1.01,0.85,0.73,-0.02,0.56,-0,1,-1,0.73,4409,7,68,45,53,505,0.0,413,466,60,121.0,0,1,220,222,37,0,0,0,250,250,0,-5.59,,,,,,,,,,,,
27503,1564151374915,-0,2.35,0.73,0.53,1.02,0.85,0.75,0.01,0.52,0,1,-0,0.75,4382,7,68,45,53,505,0.0,423,463,60,121.0,0,1,217,221,37,0,0,0,250,250,0,-5.59,,,,,,,,,,,,
27523,1564151374935,-0,2.35,0.73,0.54,1.01,0.86,0.79,0.01,0.49,0,1,-0,0.79,4406,7,68,45,53,505,0.0,418,467,60,121.0,0,1,220,226,37,0,0,0,250,250,0,-5.59,,,,,,,,,,,,
27543,1564151374955,-1,2.35,0.73,0.53,1.01,0.85,0.81,0.01,0.47,0,1,1,0.81,4391,7,68,45,53,505,0.0,417,472,60,118.0,0,1,218,225,37,0,0,0,250,250,0,-5.59,44.680866,10.024147,0.0,178.5,0,0.0,-1,0.0,0.0,0,0.0,0.459
27563,1564151374975,-2,2.36,0.73,0.54,1.02,0.86,0.82,-0.01,0.49,0,-1,1,0.82,4394,7,68,45,53,505,0.0,422,468,60,119.0,0,1,218,223,37,0,0,0,250,250,0,-5.59,,,,,,,,,,,,
27583,1564151374995,-1,2.34,0.73,0.53,1.02,0.85,0.81,0.0,0.49,0,-2,1,0.81,4348,7,68,45,53,505,0.0,416,470,60,118.0,0,1,213,223,37,0,0,0,250,250,0,-5.59,,,,,,,,,,,,
27603,1564151375007,-2,2.35,0.73,0.53,1.01,0.85,0.83,-0.01,0.51,-0,-2,1,0.83,4361,7,68,45,53,505,0.0,413,465,60,120.0,0,1,214,223,36,0,0,0,250,250,0,-5.59,,,,,,,,,,,,
27623,1564151375027,-1,2.35,0.72,0.54,1.01,0.85,0.85,0.02,0.52,-0,-2,0,0.85,4362,7,68,45,53,505,0.0,407,466,60,121.0,0,1,215,223,36,0,0,0,250,250,0,-5.59,,,,,,,,,,,,
27643,1564151375047,2,2.35,0.72,0.53,1.01,0.85,0.84,0.02,0.56,-0,-1,-0,0.84,4330,7,68,45,53,505,0.0,413,469,60,121.0,0,1,211,223,36,0,0,0,250,250,0,-5.59,44.680866,10.024147,0.0,178.5,0,0.0,-1,0.0,0.0,0,0.0,0.4607
27663,1564151375067,1,2.35,0.73,0.54,1.02,0.85,0.8,0.0,0.56,0,-1,-1,0.8,4341,7,68,45,53,505,0.0,413,467,60,121.0,0,1,212,223,36,0,0,0,250,250,0,181.28,,,,,,,,,,,,
27683,1564151375095,1,2.34,0.73,0.54,1.01,0.85,0.77,-0.02,0.59,0,-0,-1,0.77,4332,7,67,45,53,505,0.0,408,463,60,121.0,0,1,211,225,36,0,0,0,250,250,0,-5.59,,,,,,,,,,,,
27703,1564151375115,1,2.35,0.73,0.53,1.02,0.85,0.76,-0.0,0.53,0,0,-0,0.76,4344,7,67,45,53,505,0.0,415,462,60,121.0,0,1,213,225,37,0,0,0,250,250,0,181.28,,,,,,,,,,,,
27723,1564151375135,-3,2.33,0.72,0.54,1.01,0.85,0.8,0.02,0.5,0,0,0,0.8,4331,7,67,45,53,506,0.0,410,461,60,121.0,0,1,211,221,37,0,0,0,250,250,0,-5.59,,,,,,,,,,,,
27743,1564151375155,-1,2.34,0.73,0.54,1.01,0.85,0.82,0.03,0.48,0,-0,0,0.82,4321,7,67,45,53,505,0.0,411,465,60,120.0,0,1,210,225,37,0,0,0,250,250,0,-5.59,44.680866,10.024147,0.0,178.5,0,0.0,-1,0.0,0.0,0,0.0,0.4624
27763,1564151375175,-1,2.35,0.72,0.54,1.01,0.85,0.82,0.02,0.48,0,-1,1,0.83,4331,7,67,45,53,505,0.0,406,466,60,118.0,0,1,211,225,37,0,0,0,250,250,0,-5.59,,,,,,,,,,,,
27783,1564151375195,-2,2.35,0.72,0.53,1.01,0.86,0.83,0.03,0.52,0,-2,1,0.83,4330,7,67,45,53,505,0.0,415,469,60,119.0,0,1,208,225,37,0,0,0,250,250,0,-5.59,,,,,,,,,,,,
27803,1564151375215,-1,2.35,0.73,0.54,1.01,0.85,0.86,0.0,0.55,0,-1,0,0.86,4325,7,67,45,53,505,0.0,408,468,60,121.0,0,1,210,225,36,0,0,0,250,250,0,-5.59,,,,,,,,,,,,
27823,1564151375235,3,2.35,0.73,0.53,1.02,0.86,0.83,0.01,0.58,0,-1,-1,0.83,4338,7,67,45,54,505,0.0,408,465,60,120.0,0,1,214,229,36,0,0,0,250,250,0,181.28,,,,,,,,,,,,
27843,1564151375255,2,2.35,0.72,0.54,1.02,0.85,0.81,0.01,0.56,0,-1,-1,0.81,4295,7,67,45,53,505,0.0,412,465,60,121.0,0,1,206,224,36,0,0,0,250,250,0,181.28,44.680866,10.024147,0.0,178.5,0,0.0,-1,0.0,0.0,0,0.0,0.464
27863,1564151375275,-1,2.36,0.73,0.54,1.02,0.85,0.79,0.02,0.54,0,-0,-1,0.79,4266,7,67,45,53,505,0.0,405,465,60,122.0,0,1,202,224,36,0,0,0,250,250,0,181.28,,,,,,,,,,,,
27883,1564151375295,-1,2.36,0.72,0.54,1.01,0.86,0.8,0.01,0.52,0,0,-1,0.8,4318,7,67,45,54,505,0.0,411,467,60,121.0,0,1,211,225,36,0,0,0,250,250,0,-5.59,,,,,,,,,,,,
27903,1564151375315,-2,2.35,0.73,0.54,1.01,0.86,0.82,-0.01,0.51,0,1,0,0.82,4273,7,67,45,53,505,0.0,405,469,60,119.0,0,1,203,224,37,0,0,0,250,250,0,-5.59,,,,,,,,,,,,
27923,1564151375335,-2,2.34,0.73,0.53,1.01,0.85,0.84,-0.01,0.54,0,-1,0,0.84,4299,7,67,45,53,505,0.0,410,471,60,119.0,0,1,207,228,37,0,0,0,250,250,0,-5.59,,,,,,,,,,,,
27943,1564151375355,-1,2.34,0.73,0.54,1.01,0.85,0.87,-0.01,0.58,-0,-1,0,0.87,4289,7,67,45,54,505,0.0,404,466,60,121.0,0,1,207,228,37,0,0,0,250,250,0,181.28,44.680866,10.024147,0.0,178.5,0,0.0,-1,0.0,0.0,0,0.0,0.4657
27963,1564151375375,3,2.35,0.72,0.53,1.01,0.86,0.83,-0.0,0.6,-0,-1,-0,0.83,4240,7,67,45,54,505,0.0,400,463,60,122.0,0,1,201,228,37,0,0,0,250,250,0,181.28,,,,,,,,,,,,
27983,1564151375395,2,2.34,0.73,0.53,1.0,0.85,0.79,0.0,0.57,0,0,-0,0.79,4282,7,67,45,54,505,0.0,405,463,60,121.0,0,1,206,228,37,0,0,0,250,250,0,181.28,,,,,,,,,,,,
28003,1564151375415,0,2.35,0.72,0.54,1.01,0.86,0.79,0.04,0.51,0,1,0,0.79,4254,7,67,45,54,505,0.0,402,463,60,121.0,0,1,203,228,37,0,0,0,250,250,0,181.28,,,,,,,,,,,,
28023,1564151375435,-2,2.35,0.73,0.54,1.02,0.86,0.82,0.03,0.5,0,0,0,0.82,4255,7,67,45,54,505,0.0,403,468,60,119.0,0,1,203,228,37,0,0,0,250,250,0,-5.59,,,,,,,,,,,,
28043,1564151375455,-1,2.35,0.73,0.54,1.02,0.85,0.83,0.02,0.5,0,-1,1,0.83,4257,7,67,45,54,505,0.0,400,470,60,118.0,0,1,203,228,37,0,0,0,250,250,0,-5.59,44.680866,10.024147,0.0,178.5,0,0.0,-1,0.0,0.0,0,0.0,0.4674
28063,1564151375475,-0,2.35,0.73,0.54,1.01,0.86,0.84,0.03,0.53,0,-1,1,0.84,4249,7,67,45,54,506,0.0,404,470,60,120.0,0,1,202,228,37,0,0,0,250,250,0,-5.59,,,,,,,,,,,,
28083,1564151375495,3,2.35,0.73,0.53,1.02,0.85,0.85,0.0,0.57,0,-0,-0,0.85,4221,7,67,45,54,506,0.0,396,466,60,121.0,0,1,198,228,37,0,0,0,250,250,0,181.28,,,,,,,,,,,,
28103,1564151375515,-0,2.35,0.73,0.54,1.01,0.86,0.82,0.01,0.55,0,0,-1,0.82,4251,7,67,45,54,505,0.0,400,460,60,121.0,0,1,202,228,36,0,0,0,250,250,0,-5.59,,,,,,,,,,,,
28123,1564151375535,-0,2.36,0.73,0.54,1.02,0.85,0.83,0.0,0.53,0,-0,-1,0.83,4227,7,67,45,54,505,0.0,401,461,60,120.0,0,1,199,228,36,0,0,0,250,250,0,-5.59,,,,,,,,,,,,
28143,1564151375555,-1,2.35,0.73,0.54,1.01,0.85,0.82,-0.03,0.54,0,-1,-0,0.82,4206,7,67,45,54,505,0.0,400,467,60,119.0,0,1,196,228,36,0,0,0,250,250,0,-5.59,44.680866,10.024147,0.0,178.5,0,0.0,-1,0.0,0.0,0,0.0,0.469
28163,1564151375575,-1,2.35,0.73,0.54,1.01,0.85,0.83,-0.03,0.54,0,-2,-0,0.83,4210,7,67,45,54,505,0.0,400,472,60,119.0,0,1,197,228,36,0,0,0,250,250,0,-5.59,,,,,,,,,,,,
28183,1564151375591,3,2.35,0.73,0.54,1.01,0.85,0.86,-0.02,0.58,-0,-1,-1,0.86,4186,7,67,45,54,506,0.0,394,468,60,120.0,0,1,194,231,36,0,0,0,250,250,0,-5.59,,,,,,,,,,,,
28203,1564151375611,1,2.35,0.72,0.54,1.01,0.86,0.83,-0.01,0.6,-0,-0,-1,0.83,4186,7,67,45,54,505,0.0,396,465,60,121.0,0,1,194,227,35,0,0,0,250,250,0,181.28,,,,,,,,,,,,
28223,1564151375631,-2,2.35,0.73,0.54,1.02,0.85,0.83,-0.01,0.58,-0,0,-1,0.83,4199,7,67,45,54,505,0.0,393,463,60,121.0,0,1,196,227,35,0,0,0,250,250,0,-5.59,,,,,,,,,,,,
28243,1564151375651,-2,2.34,0.73,0.54,1.01,0.85,0.83,-0.02,0.57,0,0,-0,0.83,4168,7,67,45,54,505,0.0,404,471,60,119.0,0,1,192,227,35,0,0,0,250,250,0,-5.59,44.680866,10.024147,0.0,178.5,0,0.0,-1,0.0,0.0,0,0.0,0.4707
28263,1564151375671,-0,2.35,0.73,0.53,1.01,0.86,0.85,-0.03,0.59,-0,-1,-0,0.85,4199,7,67,45,54,505,0.0,393,472,60,119.0,0,1,196,227,35,0,0,0,250,250,0,-5.59,,,,,,,,,,,,
28283,1564151375695,3,2.35,0.73,0.53,1.01,0.86,0.86,-0.05,0.65,-0,-1,-1,0.87,4197,7,67,45,55,505,0.0,396,466,60,120.0,0,1,195,231,35,0,0,0,250,250,0,181.28,,,,,,,,,,,,
28303,1564151375715,2,2.34,0.72,0.53,1.02,0.85,0.82,-0.05,0.64,-0,0,-1,0.82,4182,7,67,45,54,505,0.0,393,462,60,121.0,0,1,193,227,36,0,0,0,250,250,0,181.28,,,,,,,,,,,,
28323,1564151375735,-2,2.35,0.73,0.54,1.01,0.86,0.81,-0.03,0.59,-0,1,-1,0.81,4230,7,67,45,54,505,0.0,394,460,60,120.0,0,1,200,228,36,0,0,0,250,250,0,-5.59,,,,,,,,,,,,
28343,1564151375755,-1,2.34,0.73,0.54,1.01,0.85,0.83,-0.05,0.57,0,-0,0,0.84,4206,7,67,45,55,505,0.0,403,467,60,119.0,0,1,196,232,36,0,0,0,250,250,0,-5.59,44.680866,10.024147,0.0,178.5,0,0.0,-1,0.0,0.0,0,0.0,0.4724
28363,1564151375775,-0,2.35,0.73,0.54,1.01,0.85,0.85,-0.06,0.61,-0,-2,-0,0.85,4206,7,67,45,55,505,0.0,398,474,60,119.0,0,1,196,232,36,0,0,0,250,250,0,-5.59,,,,,,,,,,,,
28383,1564151375794,4,2.35,0.72,0.54,1.02,0.85,0.85,-0.05,0.6,-0,-1,-0,0.85,4230,7,67,45,55,505,0.0,400,468,60,120.0,0,1,200,232,36,0,0,0,250,250,0,181.28,,,,,,,,,,,,
28403,1564151375814,0,2.35,0.73,0.54,1.02,0.85,0.8,-0.03,0.59,-0,1,-1,0.8,4196,7,67,45,55,505,0.0,393,463,60,120.0,0,1,195,227,37,0,0,0,250,250,0,181.28,,,,,,,,,,,,
28423,1564151375834,-1,2.35,0.73,0.54,1.02,0.86,0.82,-0.04,0.55,-0,1,-1,0.82,4175,7,67,45,55,505,0.0,397,463,60,120.0,0,1,192,231,37,0,0,0,250,250,0,-5.59,,,,,,,,,,,,
28443,1564151375854,-1,2.35,0.72,0.54,1.02,0.85,0.82,-0.05,0.55,0,-0,0,0.82,4218,7,67,45,55,505,0.0,396,472,60,119.0,0,1,198,232,37,0,0,0,250,250,0,-5.59,44.680866,10.024147,0.0,178.5,0,0.0,-1,0.0,0.0,0,0.0,0.474
28463,1564151375874,-0,2.35,0.73,0.54,1.01,0.86,0.83,-0.05,0.58,-0,-1,0,0.83,4192,7,67,45,55,505,0.0,398,472,60,118.0,0,1,195,232,37,0,0,0,250,250,0,-5.59,,,,,,,,,,,,
28483,1564151375895,2,2.35,0.73,0.54,1.02,0.86,0.85,-0.07,0.61,-0,-1,-0,0.85,4186,7,67,45,55,505,0.0,390,467,60,120.0,0,1,194,231,37,0,0,0,250,250,0,181.28,,,,,,,,,,,,
28503,1564151375915,2,2.35,0.73,0.54,1.02,0.85,0.82,-0.07,0.6,-0,0,-1,0.82,4222,7,67,45,55,506,0.0,399,460,60,121.0,0,1,199,232,36,0,0,0,250,250,0,181.28,,,,,,,,,,,,
28523,1564151375935,-2,2.35,0.73,0.54,1.02,0.86,0.82,-0.05,0.57,-0,-0,-1,0.82,4192,7,67,45,55,505,0.0,396,462,60,121.0,0,1,195,231,36,0,0,0,250,250,0,-5.59,,,,,,,,,,,,
28543,1564151375955,-2,2.36,0.73,0.54,1.02,0.85,0.8,-0.08,0.58,-0,-1,-0,0.81,4181,7,67,45,55,505,0.0,397,466,60,119.0,0,1,193,231,36,0,0,0,250,250,0,-5.59,44.680866,10.024147,0.0,178.5,0,0.0,-1,0.0,0.0,0,0.0,0.4757
28563,1564151375975,-2,2.36,0.73,0.54,1.02,0.86,0.82,-0.09,0.59,-0,-2,-1,0.82,4235,7,67,45,55,505,0.0,403,473,60,119.0,0,1,200,232,36,0,0,0,250,250,0,-5.59,,,,,,,,,,,,
28583,1564151375995,3,2.35,0.74,0.54,1.02,0.86,0.84,-0.08,0.61,-0,-1,-1,0.85,4222,7,67,45,55,505,0.0,393,468,60,120.0,0,1,199,232,36,0,0,0,250,250,0,-5.59,,,,,,,,,,,,
28603,1564151376006,1,2.36,0.73,0.54,1.02,0.85,0.81,-0.06,0.63,-0,-1,-1,0.81,4194,7,67,45,55,505,0.0,395,462,60,120.0,0,1,195,231,37,0,0,0,250,250,0,414.87,,,,,,,,,,,,
28623,1564151376026,-0,2.35,0.73,0.54,1.02,0.86,0.81,-0.05,0.59,-0,-0,-1,0.81,4218,7,67,45,55,505,0.0,394,464,60,120.0,0,1,198,232,37,0,0,0,250,250,0,-5.59,,,,,,,,,,,,
28643,1564151376046,-0,2.35,0.74,0.54,1.02,0.85,0.81,-0.05,0.58,-0,0,-1,0.81,4184,7,67,45,55,505,0.0,398,470,60,120.0,0,1,194,231,37,0,0,0,250,250,0,-5.59,44.680866,10.024147,0.0,178.5,0,0.0,-1,0.0,0.0,0,0.0,0.4774
28663,1564151376066,-1,2.34,0.73,0.54,1.02,0.86,0.84,-0.06,0.59,-0,-1,-0,0.84,4244,7,67,45,55,505,0.0,394,472,60,119.0,0,1,201,232,37,0,0,0,250,250,0,-5.59,,,,,,,,,,,,
28683,1564151376094,-1,2.35,0.73,0.54,1.02,0.85,0.87,-0.06,0.66,-0,-2,-1,0.87,4238,7,67,45,55,505,0.0,402,470,60,120.0,0,1,201,232,37,0,0,0,250,250,0,-5.59,,,,,,,,,,,,
28703,1564151376114,3,2.34,0.73,0.54,1.02,0.85,0.83,-0.04,0.65,-0,-1,-1,0.83,4203,7,67,45,55,505,0.0,395,463,60,121.0,0,1,196,232,37,0,0,0,250,250,0,181.28,,,,,,,,,,,,
28723,1564151376134,1,2.35,0.74,0.53,1.03,0.85,0.8,-0.02,0.6,-0,0,-1,0.8,4240,7,67,45,55,505,0.0,394,461,60,120.0,0,1,201,232,37,0,0,0,250,250,0,181.28,,,,,,,,,,,,
28743,1564151376154,-2,2.36,0.73,0.54,1.02,0.85,0.83,-0.02,0.57,-0,0,-0,0.83,4208,7,67,45,55,505,0.0,401,460,60,119.0,0,1,197,232,37,0,0,0,250,250,0,-5.59,44.680866,10.024147,0.0,178.5,0,0.0,-1,0.0,0.0,0,0.0,0.479
28763,1564151376174,-0,2.36,0.73,0.54,1.02,0.86,0.84,-0.01,0.57,0,-1,0,0.84,4210,7,67,45,55,505,0.0,397,470,60,118.0,0,1,197,232,37,0,0,0,250,250,0,-5.59,,,,,,,,,,,,
28783,1564151376194,-0,2.35,0.74,0.54,1.02,0.86,0.86,0.0,0.58,-0,-2,0,0.86,4235,7,67,45,55,505,0.0,401,473,60,119.0,0,1,198,232,37,0,0,0,250,250,0,-5.59,,,,,,,,,,,,
28803,1564151376214,1,2.35,0.73,0.54,1.02,0.86,0.83,0.01,0.59,-0,-0,-0,0.83,4202,7,67,45,55,505,0.0,392,466,60,120.0,0,1,196,232,37,0,0,0,250,250,0,414.87,,,,,,,,,,,,
28823,1564151376234,-1,2.35,0.73,0.53,1.02,0.85,0.82,0.04,0.54,0,1,-1,0.82,4219,7,67,45,55,505,0.0,401,463,60,120.0,0,1,198,232,37,0,0,0,250,250,0,181.28,,,,,,,,,,,,
28843,1564151376254,-2,2.35,0.73,0.54,1.02,0.86,0.83,0.03,0.52,0,0,-0,0.83,4203,7,67,45,55,505,0.0,397,460,60,119.0,0,1,196,232,37,0,0,0,250,250,0,-5.59,44.680866,10.024147,0.0,178.5,0,0.0,-1,0.0,0.0,0,0.0,0.4807
28863,1564151376274,-2,2.35,0.73,0.53,1.02,0.86,0.82,-0.01,0.55,0,-1,0,0.82,4204,7,67,45,55,505,0.0,399,466,60,117.0,0,1,196,232,37,0,0,0,250,250,0,-5.59,,,,,,,,,,,,
28883,1564151376294,-0,2.35,0.73,0.54,1.02,0.86,0.84,-0.0,0.58,-0,-2,-0,0.84,4229,7,67,45,55,505,0.0,401,470,60,119.0,0,1,199,232,37,0,0,0,250,250,0,-5.59,,,,,,,,,,,,
28903,1564151376314,2,2.35,0.73,0.54,1.01,0.86,0.83,0.01,0.6,-0,-1,-1,0.83,4200,7,67,45,55,505,0.0,394,464,60,120.0,0,1,196,232,37,0,0,0,250,250,0,181.28,,,,,,,,,,,,
28923,1564151376334,0,2.36,0.73,0.53,1.02,0.86,0.8,0.02,0.59,0,-0,-1,0.8,4207,7,67,45,55,505,0.0,397,462,60,121.0,0,1,197,232,37,0,0,0,250,250,0,181.28,,,,,,,,,,,,
28943,1564151376354,-2,2.35,0.73,0.54,1.02,0.86,0.79,0.04,0.55,0,0,-1,0.79,4229,7,67,45,55,505,0.0,398,463,60,120.0,0,1,199,232,37,0,0,0,250,250,0,-5.59,44.680866,10.024147,0.0,178.5,0,0.0,-1,0.0,0.0,0,0.0,0.4824
28963,1564151376374,-1,2.34,0.73,0.54,1.02,0.85,0.8,0.03,0.53,0,-0,-0,0.8,4249,7,67,45,55,505,0.0,407,465,60,119.0,0,1,202,232,37,0,0,0,250,250,0,-5.59,,,,,,,,,,,,
28983,1564151376394,-1,2.34,0.73,0.54,1.03,0.85,0.81,0.02,0.53,0,-1,0,0.81,4256,7,67,45,55,505,0.0,397,472,60,119.0,0,1,203,232,37,0,0,0,250,250,0,-5.59,,,,,,,,,,,,
29003,1564151376414,-2,2.35,0.73,0.54,1.02,0.85,0.82,0.02,0.59,0,-1,-0,0.82,4240,7,67,45,55,505,0.0,398,470,60,120.0,0,1,201,232,37,0,0,0,250,250,0,-5.59,,,,,,,,,,,,
29023,1564151376434,1,2.35,0.73,0.54,1.03,0.85,0.81,0.01,0.61,-0,-0,-0,0.81,4252,7,67,45,55,505,0.0,401,466,60,120.0,0,1,203,232,37,0,0,0,250,250,0,181.28,,,,,,,,,,,,
29043,1564151376454,2,2.35,0.73,0.53,1.03,0.86,0.78,0.01,0.6,-0,0,-0,0.78,4272,7,67,45,55,505,0.0,401,462,60,120.0,0,1,205,228,37,0,0,0,250,250,0,181.28,44.680866,10.024147,0.0,178.5,0,0.0,-1,0.0,0.0,0,0.0,0.484
29063,1564151376474,-0,2.35,0.73,0.54,1.02,0.85,0.8,0.01,0.55,0,0,-0,0.8,4267,7,67,45,55,505,0.0,398,461,60,120.0,0,1,204,228,37,0,0,0,250,250,0,-5.59,,,,,,,,,,,,
29083,1564151376494,-1,2.35,0.73,0.54,1.02,0.86,0.81,-0.02,0.55,0,-0,-0,0.81,4303,7,67,45,55,505,0.0,407,467,60,120.0,0,1,209,233,37,0,0,0,250,250,0,-5.59,,,,,,,,,,,,
29103,1564151376514,-1,2.35,0.73,0.54,1.02,0.85,0.8,0.01,0.54,0,-1,0,0.8,4263,7,67,45,55,505,0.0,409,467,60,118.0,0,1,204,232,37,0,0,0,250,250,0,-5.59,,,,,,,,,,,,
29123,1564151376534,-1,2.35,0.73,0.54,1.02,0.86,0.82,0.02,0.53,0,-1,0,0.82,4269,7,67,45,55,505,0.0,400,471,60,119.0,0,1,203,232,37,0,0,0,250,250,0,-5.59,,,,,,,,,,,,
29143,1564151376554,-0,2.34,0.73,0.54,1.03,0.86,0.83,0.03,0.57,-0,-1,-1,0.83,4319,7,67,45,55,505,0.0,407,472,60,120.0,0,1,211,233,37,0,0,0,250,250,0,-5.59,44.680866,10.024147,0.0,178.5,0,0.0,-1,0.0,0.0,0,0.0,0.4857
29163,1564151376574,3,2.35,0.74,0.54,1.03,0.86,0.8,0.0,0.58,-0,-1,-1,0.8,4298,7,67,45,55,505,0.0,403,467,60,121.0,0,1,209,232,37,0,0,0,250,250,0,181.28,,,,,,,,,,,,
29183,1564151376594,2,2.34,0.73,0.54,1.02,0.86,0.78,-0.01,0.6,-0,-0,-2,0.78,4299,7,67,45,55,505,0.0,402,462,60,122.0,0,1,209,232,37,0,0,0,250,250,0,181.28,,,,,,,,,,,,
29203,1564151376614,-1,2.36,0.73,0.54,1.03,0.86,0.77,0.0,0.57,0,-0,-1,0.77,4330,7,67,45,54,505,0.0,404,462,60,121.0,0,1,213,229,38,0,0,0,250,250,0,181.28,,,,,,,,,,,,
29223,1564151376634,-1,2.35,0.73,0.55,1.02,0.86,0.78,0.01,0.53,0,1,-0,0.78,4296,7,67,45,54,505,0.0,412,467,60,120.0,0,1,208,228,38,0,0,0,250,250,0,-5.59,,,,,,,,,,,,
29243,1564151376654,-0,2.35,0.73,0.54,1.03,0.86,0.8,0.02,0.52,0,0,-0,0.8,4368,7,67,45,54,505,0.0,411,465,60,120.0,0,1,218,229,38,0,0,0,250,250,0,-5.59,44.680866,10.024147,0.0,178.5,0,0.0,-1,0.0,0.0,0,0.0,0.4874
29263,1564151376674,-2,2.35,0.74,0.54,1.02,0.86,0.83,0.01,0.52,0,0,0,0.83,4362,7,67,45,54,505,0.0,412,466,60,119.0,0,1,217,229,38,0,0,0,250,250,0,-5.59,,,,,,,,,,,,
29283,1564151376695,-2,2.36,0.73,0.54,1.02,0.86,0.84,0.01,0.58,0,-1,0,0.84,4351,7,67,45,54,505,0.0,413,475,60,119.0,0,1,215,229,38,0,0,0,250,250,0,-5.59,,,,,,,,,,,,
29303,1564151376715,-0,2.34,0.74,0.54,1.03,0.86,0.86,0.0,0.6,-0,-2,1,0.86,4371,7,67,45,54,505,0.0,413,471,60,119.0,0,1,218,229,37,0,0,0,250,250,0,-5.59,,,,,,,,,,,,
29323,1564151376735,-1,2.35,0.73,0.54,1.02,0.86,0.83,0.01,0.61,-0,-2,0,0.83,4371,7,67,45,54,505,0.0,412,465,60,120.0,0,1,218,229,37,0,0,0,250,250,0,-5.59,,,,,,,,,,,,
29343,1564151376755,2,2.35,0.74,0.53,1.03,0.86,0.82,0.0,0.6,-0,-0,-1,0.82,4375,7,67,45,54,505,0.0,406,466,60,120.0,0,1,219,229,37,0,0,0,250,250,0,181.28,44.680866,10.024147,0.0,178.5,0,0.0,-1,0.0,0.0,0,0.0,0.489
29363,1564151376775,2,2.36,0.73,0.54,1.03,0.86,0.78,-0.0,0.59,-0,1,-1,0.78,4414,7,67,45,54,505,0.0,417,466,60,121.0,0,1,224,230,37,0,0,0,250,250,0,414.87,,,,,,,,,,,,
29383,1564151376794,3,2.35,0.73,0.54,1.03,0.86,0.76,0.03,0.55,-0,1,-2,0.76,4402,7,67,45,54,504,0.0,417,466,60,121.0,0,1,222,230,37,0,0,0,250,250,0,181.28,,,,,,,,,,,,
29403,1564151376814,2,2.35,0.74,0.54,1.02,0.86,0.75,0.02,0.56,-0,0,-2,0.75,4392,7,67,45,54,504,0.0,410,464,60,121.0,0,1,221,229,38,0,0,0,250,250,0,181.28,,,,,,,,,,,,
29423,1564151376834,2,2.35,0.73,0.53,1.02,0.86,0.73,0.03,0.54,0,0,-2,0.73,4430,7,67,45,54,504,0.0,421,463,60,122.0,0,1,226,230,38,0,0,0,250,250,0,181.28,,,,,,,,,,,,
29443,1564151376854,1,2.35,0.74,0.53,1.02,0.86,0.74,0.06,0.49,0,1,-1,0.74,4413,7,67,45,54,504,0.0,416,463,60,121.0,0,1,224,226,38,0,0,0,250,250,0,181.28,44.680866,10.024147,0.0,178.5,0,0.0,-1,0.0,0.0,0,0.0,0.4907
29463,1564151376874,1,2.36,0.74,0.53,1.02,0.86,0.77,0.06,0.48,0,2,-1,0.77,4453,7,67,45,54,504,0.0,420,468,60,121.0,0,1,229,226,38,0,0,0,250,250,0,-5.59,,,,,,,,,,,,
29483,1564151376895,0,2.34,0.73,0.54,1.03,0.86,0.79,0.07,0.44,0,2,0,0.79,4458,7,67,45,54,504,0.0,419,468,60,121.0,0,1,229,226,38,0,0,0,250,250,0,-5.59,,,,,,,,,,,,
29503,1564151376915,0,2.35,0.73,0.53,1.02,0.86,0.82,0.05,0.43,0,1,0,0.83,4462,7,67,45,53,504,0.0,420,462,60,120.0,0,1,227,226,38,0,0,0,250,250,0,-5.59,,,,,,,,,,,,
29523,1564151376935,-2,2.36,0.74,0.54,1.02,0.86,0.84,0.02,0.45,0,0,0,0.84,4434,7,68,45,53,504,0.0,425,463,60,120.0,0,1,223,224,38,0,0,0,250,250,0,-5.59,,,,,,,,,,,,
29543,1564151376955,-1,2.34,0.74,0.54,1.03,0.86,0.84,0.05,0.42,1,-0,1,0.84,4419,7,68,45,54,504,0.0,417,467,60,120.0,0,1,224,228,38,0,0,0,250,250,0,-5.59,44.680866,10.024147,0.0,178.5,0,0.0,-1,0.0,0.0,0,0.0,0.4924
29563,1564151376975,-2,2.36,0.74,0.54,1.02,0.86,0.83,0.03,0.44,1,0,1,0.83,4391,7,68,45,53,504,0.0,418,472,60,118.0,0,1,218,223,38,0,0,0,250,250,0,-5.59,,,,,,,,,,,,
29583,1564151376995,-2,2.35,0.74,0.54,1.02,0.86,0.84,0.01,0.47,0,-1,1,0.84,4424,7,68,45,53,504,0.0,420,474,60,119.0,0,1,222,228,38,0,0,0,250,250,0,-5.59,,,,,,,,,,,,
29603,1564151377007,-1,2.35,0.73,0.54,1.02,0.86,0.85,0.0,0.46,0,-1,1,0.85,4397,7,68,45,53,505,0.0,420,470,60,119.0,0,1,219,223,37,0,0,0,250,250,0,-5.59,,,,,,,,,,,,
29623,1564151377027,-0,2.34,0.74,0.54,1.03,0.86,0.88,-0.01,0.49,0,-2,1,0.88,4435,7,68,45,54,505,0.0,417,469,60,120.0,0,1,226,228,37,0,0,0,250,250,0,-5.59,,,,,,,,,,,,
29643,1564151377047,-1,2.35,0.74,0.54,1.03,0.86,0.89,0.01,0.52,0,-2,1,0.89,4425,7,68,45,53,504,0.0,417,472,60,120.0,0,1,222,224,37,0,0,0,250,250,0,-5.59,44.680866,10.024147,0.0,178.5,0,0.0,-1,0.0,0.0,0,0.0,0.494
29663,1564151377067,-1,2.34,0.73,0.54,1.03,0.86,0.89,0.01,0.57,-0,-3,1,0.89,4431,7,68,45,53,504,0.0,424,471,60,119.0,0,1,223,223,37,0,0,0,250,250,0,-5.59,,,,,,,,,,,,
29683,1564151377095,-0,2.35,0.73,0.54,1.02,0.86,0.9,-0.03,0.63,-0,-3,0,0.9,4461,7,68,45,53,504,0.0,421,469,60,120.0,0,1,226,224,37,0,0,0,250,250,0,-5.59,,,,,,,,,,,,
29703,1564151377115,-1,2.34,0.73,0.54,1.03,0.85,0.87,-0.04,0.64,-0,-2,0,0.87,4454,7,68,45,53,505,0.0,423,468,60,120.0,0,1,226,224,38,0,0,0,250,250,0,-5.59,,,,,,,,,,,,
29723,1564151377135,-0,2.35,0.73,0.54,1.03,0.86,0.87,-0.03,0.65,-0,-1,-0,0.87,4457,7,68,45,53,505,0.0,420,466,60,120.0,0,1,226,224,38,0,0,0,250,250,0,-5.59,,,,,,,,,,,,
29743,1564151377155,-2,2.35,0.74,0.54,1.03,0.85,0.85,-0.04,0.68,-0,-1,-1,0.85,4476,7,68,45,53,505,0.0,421,467,60,121.0,0,1,229,224,38,0,0,0,250,250,0,-5.59,44.680866,10.024147,0.0,178.5,0,0.0,-1,0.0,0.0,0,0.0,0.4957
29763,1564151377175,-1,2.35,0.73,0.54,1.03,0.86,0.83,-0.08,0.69,-1,-1,-2,0.83,4458,7,68,45,53,505,0.0,425,467,60,121.0,0,1,226,224,38,0,0,0,250,250,0,-5.59,,,,,,,,,,,,
29783,1564151377195,3,2.36,0.73,0.54,1.03,0.86,0.79,-0.07,0.72,-0,-2,-2,0.8,4434,7,68,45,53,505,0.0,413,466,60,121.0,0,1,223,224,38,0,0,0,250,250,0,-5.59,,,,,,,,,,,,
29803,1564151377215,3,2.36,0.73,0.54,1.03,0.86,0.77,-0.08,0.72,-0,-1,-3,0.77,4474,7,68,45,53,505,0.0,428,463,60,121.0,0,1,229,224,38,0,0,0,250,250,0,181.28,,,,,,,,,,,,
29823,1564151377235,3,2.35,0.74,0.54,1.02,0.86,0.72,-0.07,0.73,-0,0,-2,0.72,4425,7,68,45,53,505,0.0,415,470,60,121.0,0,1,222,224,38,0,0,0,250,250,0,181.28,,,,,,,,,,,,
29843,1564151377255,3,2.35,0.74,0.54,1.03,0.86,0.69,-0.04,0.67,-0,1,-2,0.69,4485,7,68,45,53,505,0.0,420,466,60,121.0,0,1,230,224,38,0,0,0,250,250,0,181.28,44.680866,10.024147,0.0,178.5,0,0.0,-1,0.0,0.0,0,0.0,0.4974
29863,1564151377275,3,2.35,0.74,0.53,1.03,0.86,0.67,-0.04,0.66,-0,1,-2,0.67,4473,7,68,45,53,506,0.0,420,466,60,122.0,0,1,228,224,38,0,0,0,250,250,0,181.28,,,,,,,,,,,,
29883,1564151377295,2,2.35,0.74,0.54,1.03,0.86,0.66,-0.02,0.6,-0,2,-2,0.66,4462,7,68,45,53,506,0.0,415,466,60,121.0,0,1,227,224,38,0,0,0,250,250,0,181.28,,,,,,,,,,,,
29903,1564151377315,2,2.35,0.73,0.54,1.03,0.86,0.64,0.01,0.56,0,3,-2,0.64,4485,7,68,45,53,506,0.0,426,463,60,122.0,0,1,230,224,37,0,0,0,250,250,0,181.28,,,,,,,,,,,,
29923,1564151377335,2,2.35,0.73,0.54,1.03,0.86,0.64,0.04,0.53,0,2,-2,0.64,4458,7,68,45,53,506,0.0,419,466,60,122.0,0,1,226,224,37,0,0,0,250,250,0,181.28,,,,,,,,,,,,
29943,1564151377355,0,2.36,0.74,0.54,1.03,0.86,0.63,0.03,0.53,0,2,-2,0.63,4426,7,68,45,53,506,0.0,419,465,60,121.0,0,1,222,224,37,0,0,0,250,250,0,181.28,44.680866,10.024147,0.0,178.5,0,0.0,-1,0.0,0.0,0,0.0,0.499
29963,1564151377375,2,2.35,0.74,0.54,1.03,0.86,0.63,0.05,0.5,0,2,-2,0.63,4474,7,68,45,53,506,0.0,423,469,60,122.0,0,1,229,224,37,0,0,0,250,250,0,181.28,,,,,,,,,,,,
29983,1564151377395,2,2.35,0.74,0.54,1.03,0.86,0.65,0.07,0.44,0,3,-1,0.65,4427,7,68,45,53,506,0.0,418,468,60,122.0,0,1,222,224,37,0,0,0,250,250,0,181.28,,,,,,,,,,,,
30003,1564151377415,0,2.35,0.73,0.54,1.03,0.87,0.68,0.06,0.44,0,3,-1,0.68,4445,7,68,45,53,506,0.0,420,463,60,121.0,0,1,225,224,37,0,0,0,250,250,0,181.28,,,,,,,,,,,,
30023,1564151377435,-0,2.35,0.74,0.54,1.03,0.86,0.71,0.06,0.42,0,3,-0,0.72,4433,7,68,45,53,505,0.0,414,464,60,121.0,0,1,223,224,37,0,0,0,250,250,0,-5.59,,,,,,,,,,,,
30043,1564151377455,-1,2.36,0.73,0.54,1.02,0.86,0.75,0.03,0.41,0,2,-0,0.75,4414,7,68,45,53,505,0.0,422,463,60,120.0,0,1,221,224,37,0,0,0,250,250,0,-5.59,44.680866,10.024147,0.0,178.5,0,0.0,-1,0.0,0.0,0,0.0,0.5007
30063,1564151377475,-1,2.35,0.74,0.54,1.03,0.86,0.77,0.01,0.42,0,2,0,0.77,4439,7,68,45,53,505,0.0,420,461,60,119.0,0,1,224,224,37,0,0,0,250,250,0,-5.59,,,,,,,,,,,,
30083,1564151377496,-0,2.35,0.74,0.54,1.02,0.87,0.77,0.05,0.39,1,1,1,0.77,4408,7,68,45,53,505,0.0,422,465,60,118.0,0,1,220,224,37,0,0,0,250,250,0,-5.59,,,,,,,,,,,,
30103,1564151377516,-1,2.35,0.74,0.54,1.03,0.86,0.77,0.04,0.39,1,1,1,0.77,4399,7,68,45,53,505,0.0,420,466,60,120.0,0,1,219,223,37,0,0,0,250,250,0,-5.59,,,,,,,,,,,,
30123,1564151377536,-2,2.35,0.74,0.53,1.03,0.86,0.79,0.02,0.43,0,0,1,0.79,4433,7,68,45,53,505,0.0,417,469,60,119.0,0,1,223,224,37,0,0,0,250,250,0,-5.59,,,,,,,,,,,,
30143,1564151377556,-1,2.34,0.73,0.54,1.03,0.86,0.82,0.03,0.42,0,-1,1,0.82,4399,7,68,45,53,505,0.0,420,466,60,119.0,0,1,219,223,37,0,0,0,250,250,0,-5.59,44.680866,10.024147,0.0,178.5,0,0.0,-1,0.0,0.0,0,0.0,0.5024
30163,1564151377576,-0,2.35,0.73,0.53,1.03,0.87,0.84,0.03,0.48,0,-2,1,0.84,4452,7,68,45,53,505,0.0,413,470,60,120.0,0,1,226,224,37,0,0,0,250,250,0,-5.59,,,,,,,,,,,,
30183,1564151377595,-1,2.35,0.73,0.54,1.03,0.86,0.86,0.04,0.51,0,-2,1,0.86,4449,7,68,45,53,505,0.0,426,467,60,120.0,0,1,225,224,37,0,0,0,250,250,0,-5.59,,,,,,,,,,,,
30203,1564151377615,-1,2.35,0.73,0.54,1.03,0.87,0.86,0.03,0.58,-0,-3,1,0.86,4433,7,68,45,53,505,0.0,418,472,60,119.0,0,1,223,224,37,0,0,0,250,250,0,-5.59,,,,,,,,,,,,
30223,1564151377635,-2,2.35,0.74,0.54,1.03,0.86,0.88,-0.01,0.63,-0,-3,1,0.88,4457,7,68,45,53,505,0.0,421,469,60,119.0,0,1,226,224,37,0,0,0,250,250,0,-5.59,,,,,,,,,,,,
30243,1564151377655,-2,2.36,0.74,0.54,1.02,0.87,0.84,-0.01,0.65,-0,-3,0,0.84,4456,7,68,45,53,505,0.0,423,465,60,120.0,0,1,226,224,37,0,0,0,250,250,0,-5.59,44.680866,10.024147,0.0,178.5,0,0.0,-1,0.0,0.0,0,0.0,0.504
30263,1564151377675,-1,2.36,0.74,0.54,1.03,0.86,0.84,-0.02,0.66,-0,-2,-0,0.84,4452,7,68,45,53,505,0.0,416,468,60,120.0,0,1,223,224,37,0,0,0,250,250,0,-5.59,,,,,,,,,,,,
30283,1564151377695,-0,2.35,0.74,0.54,1.03,0.86,0.82,-0.02,0.69,-0,-1,-1,0.82,4466,7,68,45,53,505,0.0,421,470,60,120.0,0,1,228,224,37,0,0,0,250,250,0,-5.59,,,,,,,,,,,,
30303,1564151377715,3,2.34,0.72,0.53,1.03,0.86,0.79,-0.06,0.7,-1,-1,-2,0.79,4433,7,68,45,53,505,0.0,415,467,60,120.0,0,1,223,224,37,0,0,0,250,250,0,-5.59,,,,,,,,,,,,
30323,1564151377735,3,2.35,0.74,0.53,1.04,0.86,0.76,-0.06,0.72,-0,-2,-2,0.76,4434,7,68,45,53,505,0.0,418,466,60,120.0,0,1,223,224,37,0,0,0,250,250,0,181.28,,,,,,,,,,,,
30343,1564151377755,3,2.35,0.74,0.54,1.03,0.87,0.73,-0.08,0.71,-0,-1,-2,0.74,4466,7,68,45,53,505,0.0,421,465,60,120.0,0,1,228,224,37,0,0,0,250,250,0,181.28,44.680866,10.024147,0.0,178.5,0,0.0,-1,0.0,0.0,0,0.0,0.5057
30363,1564151377775,3,2.35,0.74,0.54,1.03,0.86,0.69,-0.06,0.7,-0,-0,-2,0.69,4448,7,68,45,53,505,0.0,415,467,60,120.0,0,1,225,224,37,0,0,0,250,250,0,181.28,,,,,,,,,,,,
30383,1564151377794,1,2.35,0.74,0.53,1.03,0.86,0.67,-0.03,0.63,-0,1,-2,0.67,4476,7,68,45,53,505,0.0,423,466,60,120.0,0,1,229,224,37,0,0,0,250,250,0,414.87,,,,,,,,,,,,
30403,1564151377814,1,2.35,0.74,0.53,1.03,0.87,0.65,-0.03,0.61,-0,1,-2,0.65,4462,7,68,45,53,505,0.0,420,461,60,121.0,0,1,227,224,37,0,0,0,250,250,0,181.28,,,,,,,,,,,,
30423,1564151377834,2,2.35,0.74,0.54,1.03,0.87,0.65,0.0,0.55,0,2,-2,0.65,4444,7,68,45,53,505,0.0,417,463,60,121.0,0,1,225,224,37,0,0,0,250,250,0,181.28,,,,,,,,,,,,
30443,1564151377854,2,2.35,0.74,0.54,1.03,0.86,0.66,0.04,0.5,0,2,-1,0.66,4428,7,68,45,53,505,0.0,416,462,60,122.0,0,1,223,224,37,0,0,0,250,250,0,181.28,44.680866,10.024147,0.0,178.5,0,0.0,-1,0.0,0.0,0,0.0,0.5074
30463,1564151377874,2,2.34,0.74,0.54,1.03,0.86,0.69,0.03,0.48,0,2,-1,0.69,4424,7,68,45,53,505,0.0,417,463,60,121.0,0,1,222,224,37,0,0,0,250,250,0,181.28,,,,,,,,,,,,
30483,1564151377894,-1,2.35,0.74,0.53,1.03,0.86,0.69,0.03,0.45,0,2,-1,0.69,4422,7,68,45,53,505,0.0,420,464,60,121.0,0,1,222,224,37,0,0,0,250,250,0,181.28,,,,,,,,,,,,
30503,1564151377914,0,2.36,0.74,0.54,1.03,0.87,0.72,0.02,0.44,0,2,-0,0.72,4449,7,68,45,53,505,0.0,415,460,60,121.0,0,1,225,224,37,0,0,0,250,250,0,-5.59,,,,,,,,,,,,
30523,1564151377934,-1,2.36,0.74,0.54,1.03,0.87,0.74,0.02,0.43,0,2,-0,0.74,4413,7,68,45,53,505,0.0,421,462,60,121.0,0,1,221,224,37,0,0,0,250,250,0,-5.59,,,,,,,,,,,,
30543,1564151377954,-0,2.34,0.74,0.54,1.03,0.87,0.76,0.03,0.39,0,3,0,0.76,4449,7,68,45,53,505,0.0,420,462,60,121.0,0,1,225,220,37,0,0,0,250,250,0,-5.59,44.680866,10.024147,0.0,178.5,0,0.0,-1,0.0,0.0,0,0.0,0.509
30563,1564151377974,-0,2.35,0.74,0.54,1.03,0.87,0.79,0.01,0.4,0,3,1,0.79,4434,7,68,45,53,504,0.0,421,464,60,121.0,0,1,223,224,37,0,0,0,250,250,0,-5.59,,,,,,,,,,,,
30583,1564151377994,-1,2.35,0.74,0.54,1.03,0.86,0.81,-0.0,0.42,0,1,1,0.81,4431,7,68,45,53,504,0.0,420,471,60,118.0,0,1,223,224,37,0,0,0,250,250,0,-5.59,,,,,,,,,,,,
30603,1564151378008,-0,2.35,0.74,0.54,1.04,0.86,0.81,-0.01,0.45,0,-0,1,0.81,4435,7,68,45,53,504,0.0,421,471,60,118.0,0,1,223,224,37,0,0,0,250,250,0,-5.59,,,,,,,,,,,,
30623,1564151378028,-0,2.35,0.74,0.54,1.04,0.87,0.81,0.01,0.47,0,-1,1,0.81,4411,7,68,45,53,504,0.0,429,472,60,118.0,0,1,220,224,37,0,0,0,250,250,0,-5.59,,,,,,,,,,,,
30643,1564151378048,-2,2.36,0.74,0.53,1.03,0.87,0.82,0.03,0.48,0,-1,1,0.82,4413,7,68,45,53,504,0.0,417,472,60,118.0,0,1,221,224,37,0,0,0,250,250,0,-5.59,44.680866,10.024147,0.0,178.5,0,0.0,-1,0.0,0.0,0,0.0,0.5107
30663,1564151378068,-1,2.35,0.74,0.54,1.03,0.86,0.85,0.04,0.51,0,-1,1,0.85,4431,7,68,45,53,504,0.0,419,471,60,119.0,0,1,223,224,37,0,0,0,250,250,0,-5.59,,,,,,,,,,,,
30683,1564151378094,-2,2.36,0.74,0.54,1.03,0.86,0.89,0.05,0.57,0,-2,1,0.89,4397,7,68,45,53,504,0.0,421,467,60,119.0,0,1,219,224,37,0,0,0,250,250,0,-5.59,,,,,,,,,,,,
30703,1564151378114,-1,2.36,0.74,0.54,1.03,0.87,0.89,0.04,0.6,0,-3,1,0.89,4407,7,68,45,53,504,0.0,414,468,60,119.0,0,1,226,224,37,0,0,0,250,250,0,-5.59,,,,,,,,,,,,
30723,1564151378134,-2,2.35,0.74,0.54,1.03,0.86,0.89,0.04,0.63,-0,-3,0,0.89,4444,7,68,45,53,504,0.0,423,471,60,119.0,0,1,225,224,37,0,0,0,250,250,0,-5.59,,,,,,,,,,,,
30743,1564151378154,-1,2.36,0.74,0.54,1.04,0.86,0.86,0.04,0.66,-0,-3,0,0.86,4409,7,68,45,53,504,0.0,412,470,60,119.0,0,1,220,224,37,0,0,0,250,250,0,-5.59,44.680866,10.024147,0.0,178.5,0,0.0,-1,0.0,0.0,0,0.0,0.5124
30763,1564151378174,-1,2.36,0.74,0.54,1.04,0.86,0.82,0.0,0.67,-0,-2,-0,0.82,4453,7,68,45,53,504,0.0,423,463,60,121.0,0,1,226,224,37,0,0,0,250,250,0,181.28,,,,,,,,,,,,
30783,1564151378194,2,2.36,0.74,0.53,1.03,0.87,0.78,-0.01,0.67,-0,-1,-1,0.78,4439,7,68,45,53,504,0.0,417,465,60,120.0,0,1,224,224,37,0,0,0,250,250,0,-5.59,,,,,,,,,,,,
30803,1564151378214,2,2.35,0.74,0.54,1.03,0.87,0.76,-0.02,0.62,-0,-0,-1,0.76,4427,7,68,45,53,543,0.0,415,464,60,121.0,0,1,222,224,37,0,0,0,250,250,0,181.28,,,,,,,,,,,,
30823,1564151378234,2,2.36,0.74,0.54,1.04,0.86,0.72,-0.0,0.6,-0,1,-2,0.72,4453,7,68,45,53,627,0.0,417,468,60,120.0,0,1,226,224,37,0,0,0,250,250,0,414.87,,,,,,,,,,,,
30843,1564151378254,3,2.35,0.74,0.54,1.04,0.86,0.72,0.03,0.56,-0,1,-2,0.72,4433,7,68,45,53,711,0.0,416,465,60,121.0,0,1,223,224,37,0,0,0,250,250,0,414.87,44.680866,10.024147,0.0,178.5,0,0.0,-1,0.0,0.0,0,0.0,0.514
30863,1564151378274,1,2.36,0.73,0.54,1.03,0.87,0.7,0.01,0.58,-0,0,-2,0.7,4422,7,68,45,53,795,0.0,418,463,60,121.0,0,1,222,224,37,0,0,0,250,250,0,181.28,,,,,,,,,,,,
30883,1564151378296,2,2.35,0.74,0.54,1.04,0.86,0.7,0.03,0.54,-0,1,-1,0.7,4432,7,68,45,53,879,0.0,415,464,60,121.0,0,1,223,224,37,0,0,0,250,250,0,181.28,,,,,,,,,,,,
30903,1564151378316,-0,2.36,0.74,0.54,1.04,0.86,0.71,0.06,0.5,0,2,-1,0.71,4389,7,68,45,53,967,0.0,419,462,60,120.0,0,1,217,223,37,0,0,0,250,250,0,181.28,,,,,,,,,,,,
30923,1564151378336,1,2.35,0.74,0.54,1.04,0.86,0.74,0.05,0.48,0,3,-1,0.74,4433,7,68,45,53,1034,0.0,417,464,60,120.0,0,1,223,224,37,0,0,0,250,250,0,181.28,,,,,,,,,,,,
30943,1564151378356,0,2.35,0.74,0.54,1.03,0.86,0.76,0.06,0.45,0,3,-0,0.77,4418,7,68,45,53,1036,0.0,416,462,60,121.0,0,1,221,224,37,0,0,0,250,250,0,-5.59,44.680866,10.024147,0.0,178.5,0,0.0,-1,0.0,0.0,0,0.0,0.5157
