"Interval"|"ms"|0|0|1,"Utc"|"ms"|0|0|1,"FB_p"|"bar"|0|300|50,"Volant"|"F"|0.0|300.0|50,"xFR"|"mm"|0.0|5.0|50,"xRR"|"mm"|0.0|5.0|50,"xFL"|"mm"|0.0|5.0|50,"xRL"|"mm"|0.0|5.0|50,"AccelX"|"G"|-3.0|3.0|50,"AccelY"|"G"|-3.0|3.0|50,"AccelZ"|"G"|-3.0|3.0|50,"Yaw"|"Deg/Sec"|-120|120|50,"Pitch"|"Deg/Sec"|-120|120|50,"Roll"|"Deg/Sec"|-120|120|50,"Gsum"|"G"|0.0|3.0|50,"RPM"|""|0|14000|50,"TPS"|"%"|0|100|50,"WaterTemp"|"?C"|0|300|50,"AirTemp"|"?C"|-1000|1000|50,"MAP"|"KPa"|0|255|50,"Lambda"|""|0|1024|50,"WheelSpeed"|"MPH"|0.0|150.0|50,"OilPress"|"PSI"|0|150|50,"FuelPress"|"PSI"|0|150|50,"OilTemp"|"F"|0|300|50,"Battery"|"Volts"|0.0|20.0|50,"FuelCon"|"L/h"|-1000|1000|50,"Gear"|""|0|10|50,"Advance"|"Deg"|-360|360|50,"Injection"|"ms"|-1000|1000|50,"FuelCon"|"L/100km"|-1000|1000|50,"LC_But_Pres"|""|-1000|1000|50,"LC_Active"|""|-1000|1000|50,"RD_Speed"|""|-1000|1000|50,"RUD_Speed"|""|-1000|1000|50,"LD_Speed"|""|-1000|1000|50,"LUD_Speed"|""|-1000|1000|50,"Ana1"|"bar"|-1000.0|1000.0|50,"Latitude"|"Degrees"|-180.0|180.0|10,"Longitude"|"Degrees"|-180.0|180.0|10,"Speed"|"kph"|0.0|150.0|10,"Altitude"|"m"|0.0|4000.0|10,"LapCount"|""|0|0|10,"LapTime"|"Min"|0.0|0.0|10,"Sector"|""|0|0|10,"SectorTime"|"Min"|0.0|0.0|10,"ElapsedTime"|"Min"|0.0|0.0|10,"CurrentLap"|""|0|0|10,"Distance"|"km"|0.0|0.0|10,"SessionTime"|"Min"|0.0|0.0|10
182763,1564151530168,3,2.49,0.92,0.38,1.36,1.06,0.71,-0.58,0.71,14,2,19,0.92,6756,52,89,45,82,1175,480.0,512,466,60,122.0,246,1,370,467,118,0,0,505,2211,-22519,479,-5.59,,,,,,,,,,,,
182783,1564151530202,0,2.49,0.92,0.38,1.36,1.06,0.68,-0.48,0.67,14,5,19,0.83,6808,51,89,45,82,1151,486.0,517,461,60,121.0,246,1,372,468,118,0,0,494,12552,-21872,486,-5.59,,,,,,,,,,,,
182803,1564151530222,3,2.49,0.92,0.38,1.36,1.06,0.77,-0.56,0.72,13,1,19,0.95,6803,48,89,45,81,1141,489.0,515,464,60,122.0,246,1,372,461,118,0,0,501,-3210,10408,489,-5.59,,,,,,,,,,,,
182823,1564151530242,0,2.49,0.92,0.37,1.36,1.05,0.71,-0.51,0.65,14,2,20,0.88,6810,48,89,45,81,1135,489.0,514,463,60,122.0,246,1,372,461,118,0,0,505,243,-32248,489,-5.59,,,,,,,,,,,,
182843,1564151530262,0,2.49,0.93,0.37,1.37,1.06,0.72,-0.56,0.71,14,2,19,0.91,6870,48,89,45,81,1116,491.0,518,468,60,121.0,246,1,374,461,118,0,0,507,8488,2109,491,-5.59,44.681366,10.024937,46.73,173.6,0,0.0,-1,0.0,0.0,0,1.04,3.0474
182863,1564151530282,1,2.5,0.93,0.37,1.37,1.05,0.77,-0.57,0.64,14,2,19,0.96,6916,48,89,45,80,1095,493.0,517,462,60,123.0,241,1,377,457,119,0,0,513,3576,-4054,494,-5.59,,,,,,,,,,,,
182883,1564151530298,-1,2.5,0.92,0.38,1.36,1.06,0.67,-0.56,0.63,14,5,19,0.87,6947,47,89,44,79,1079,496.0,522,462,60,121.0,241,1,378,457,119,0,0,514,-23367,16383,496,-5.59,,,,,,,,,,,,
182903,1564151530318,3,2.49,0.93,0.38,1.36,1.06,0.76,-0.65,0.71,13,2,19,1.0,6965,47,89,44,80,1064,496.0,523,463,60,121.0,241,1,378,450,119,0,0,509,10305,10994,496,-5.59,,,,,,,,,,,,
182923,1564151530338,1,2.5,0.93,0.37,1.37,1.05,0.72,-0.51,0.59,13,2,20,0.88,7011,47,89,44,79,1034,503.0,526,462,60,123.0,241,1,380,451,119,0,0,513,10305,-3482,503,-5.59,,,,,,,,,,,,
182943,1564151530358,-1,2.51,0.93,0.37,1.36,1.06,0.65,-0.55,0.71,14,2,19,0.85,7027,45,89,44,79,999,502.0,541,462,60,120.0,241,1,381,451,119,0,0,523,32033,10408,502,-5.59,44.681362,10.024951,47.68,173.7,0,0.0,-1,0.0,0.0,0,1.04,3.0491
182963,1564151530378,0,2.5,0.93,0.38,1.37,1.06,0.78,-0.53,0.78,13,0,19,0.95,7056,45,89,44,78,973,504.0,532,464,60,122.0,235,1,384,444,118,0,0,529,-6441,-8187,506,-5.59,,,,,,,,,,,,
182983,1564151530398,2,2.51,0.92,0.38,1.36,1.06,0.73,-0.53,0.7,13,2,20,0.9,7140,44,89,44,77,953,504.0,535,465,60,122.0,235,1,388,438,118,0,0,523,3580,6274,506,-5.59,,,,,,,,,,,,
183003,1564151530408,0,2.51,0.93,0.37,1.36,1.06,0.63,-0.51,0.64,14,5,20,0.81,7129,44,89,44,77,929,507.0,537,461,60,120.0,235,1,388,438,118,0,0,534,505,-32248,508,-5.59,,,,,,,,,,,,
183023,1564151530428,0,2.51,0.93,0.38,1.37,1.06,0.62,-0.55,0.77,15,4,20,0.83,7189,44,89,44,77,903,510.0,536,466,60,121.0,235,1,391,438,118,0,0,532,-32768,-9072,513,-5.59,,,,,,,,,,,,
183043,1564151530448,0,2.5,0.93,0.38,1.36,1.06,0.76,-0.63,0.82,14,1,20,0.99,7217,44,89,44,76,888,515.0,551,464,60,121.0,235,1,393,431,118,0,0,531,-6528,6274,513,-5.59,44.681354,10.024965,48.86,173.7,0,0.0,-1,0.0,0.0,0,1.04,3.0507
183063,1564151530468,1,2.5,0.93,0.38,1.37,1.05,0.79,-0.58,0.79,14,1,20,0.98,7270,44,89,44,76,882,515.0,541,460,60,122.0,229,1,396,418,118,0,0,539,248,2104,516,-5.59,,,,,,,,,,,,
183083,1564151530506,3,2.49,0.92,0.38,1.36,1.05,0.69,-0.6,0.74,15,3,19,0.92,7338,44,89,44,75,880,516.0,543,465,60,123.0,229,1,402,418,118,0,0,527,771,1779,516,-5.59,,,,,,,,,,,,
183103,1564151530526,3,2.51,0.93,0.37,1.37,1.06,0.64,-0.55,0.6,15,4,20,0.84,7307,43,89,44,74,879,519.0,546,462,60,123.0,229,1,401,405,118,0,0,545,-9216,1779,521,-5.59,,,,,,,,,,,,
183123,1564151530546,1,2.51,0.93,0.37,1.37,1.06,0.55,-0.45,0.57,16,5,20,0.71,7335,42,89,44,73,880,522.0,552,459,60,121.0,229,1,405,405,118,0,0,537,-22519,14504,522,-5.59,,,,,,,,,,,,
183143,1564151530566,1,2.51,0.92,0.38,1.36,1.06,0.5,-0.43,0.61,17,3,19,0.65,7324,41,89,44,73,884,524.0,552,464,60,121.0,229,1,404,392,118,0,0,538,15661,1779,526,-5.59,44.681343,10.024981,49.82,173.7,0,0.0,-1,0.0,0.0,0,1.04,3.0524
183163,1564151530586,-1,2.51,0.93,0.38,1.36,1.06,0.62,-0.47,0.7,17,1,18,0.77,7373,38,89,44,71,889,525.0,554,461,60,121.0,200,1,409,381,105,0,0,553,-32248,-8962,528,-5.59,,,,,,,,,,,,
183183,1564151530596,-1,2.51,0.93,0.38,1.36,1.06,0.72,-0.5,0.75,17,0,19,0.88,7393,36,89,44,70,894,527.0,557,465,60,121.0,200,1,412,356,105,0,0,546,-32248,2524,527,-5.59,,,,,,,,,,,,
183203,1564151530616,-0,2.5,0.93,0.38,1.37,1.06,0.82,-0.59,0.86,17,0,18,1.01,7443,34,89,44,68,898,530.0,558,461,60,122.0,200,1,417,345,105,0,0,551,-28648,2104,531,-5.59,,,,,,,,,,,,
183223,1564151530636,-0,2.51,0.93,0.38,1.36,1.06,0.94,-0.66,0.91,16,-3,20,1.15,7443,33,89,44,67,898,531.0,564,467,60,121.0,200,1,420,327,105,0,0,563,-21872,-22359,530,-5.59,,,,,,,,,,,,
183243,1564151530656,-1,2.51,0.93,0.38,1.37,1.06,1.05,-0.67,1.01,15,-5,19,1.24,7533,33,89,44,65,897,533.0,564,463,60,122.0,200,1,429,318,105,0,0,550,-3414,2104,533,-5.59,44.681339,10.024994,51.14,173.7,0,0.0,-1,0.0,0.0,0,1.04,3.054
183263,1564151530676,-0,2.52,0.92,0.38,1.36,1.06,1.01,-0.65,1.1,16,-5,19,1.2,7530,33,89,44,64,892,536.0,569,467,60,121.0,166,1,431,318,89,0,0,546,-3856,-32248,536,-5.59,,,,,,,,,,,,
183283,1564151530696,0,2.5,0.93,0.38,1.37,1.06,1.02,-0.72,1.13,16,-4,19,1.25,7536,33,89,44,63,887,538.0,568,463,60,121.0,166,1,433,306,89,0,0,553,-14,-9072,538,-5.59,,,,,,,,,,,,
183303,1564151530710,-0,2.51,0.93,0.38,1.37,1.06,1.02,-0.77,1.21,17,-5,18,1.27,7455,33,89,44,63,882,541.0,568,469,60,121.0,166,1,431,304,89,0,0,551,17136,-22263,541,-5.59,,,,,,,,,,,,
183323,1564151530730,-1,2.52,0.92,0.39,1.37,1.05,1.12,-0.76,1.23,16,-5,18,1.36,7500,33,89,44,63,876,540.0,562,464,60,122.0,166,1,433,305,89,0,0,558,-14,2211,541,-5.59,,,,,,,,,,,,
183343,1564151530750,-0,2.51,0.92,0.38,1.37,1.06,1.17,-0.77,1.24,16,-5,18,1.4,7536,33,89,44,62,866,543.0,566,464,60,121.0,166,1,435,299,89,0,0,551,16383,2216,543,-5.59,44.681328,10.025007,52.2,173.7,0,0.0,-1,0.0,0.0,0,1.05,3.0557
183363,1564151530770,-1,2.52,0.93,0.39,1.36,1.07,1.16,-0.84,1.28,16,-6,22,1.43,7615,33,89,44,61,857,544.0,570,461,60,122.0,154,1,439,294,84,0,0,561,-8187,-18032,544,-5.59,,,,,,,,,,,,
183383,1564151530806,1,2.52,0.93,0.39,1.36,1.06,1.2,-0.87,1.23,16,-7,22,1.48,7631,33,89,44,61,852,542.0,572,466,60,121.0,154,1,440,294,84,0,0,556,-8187,-18032,542,-5.59,,,,,,,,,,,,
183403,1564151530826,2,2.51,0.93,0.38,1.37,1.06,1.18,-0.89,1.22,16,-6,23,1.48,7656,33,89,44,60,846,544.0,575,461,60,123.0,154,1,433,289,84,0,0,567,-9212,-9072,544,-5.59,,,,,,,,,,,,
183423,1564151530846,3,2.51,0.93,0.38,1.37,1.06,1.15,-0.86,1.13,16,-5,23,1.43,7625,33,89,44,59,834,549.0,582,464,60,122.0,154,1,425,289,84,0,0,567,-22519,-2934,547,-5.59,,,,,,,,,,,,
183443,1564151530866,1,2.52,0.93,0.39,1.37,1.06,1.09,-0.82,1.0,16,-4,23,1.36,7662,33,89,44,59,822,549.0,582,462,60,123.0,154,1,426,283,84,0,0,566,-9212,-30159,547,-5.59,44.68132,10.025021,52.79,173.7,0,0.0,-1,0.0,0.0,0,1.05,3.0574
183463,1564151530886,1,2.53,0.93,0.39,1.37,1.06,1.01,-0.82,0.88,16,-2,25,1.3,7631,33,89,44,60,816,549.0,582,464,60,122.0,151,1,432,283,83,0,0,565,10408,-23623,549,-5.59,,,,,,,,,,,,
183483,1564151530900,1,2.53,0.93,0.38,1.36,1.07,0.89,-0.83,0.79,17,-1,23,1.21,7662,33,89,44,59,809,552.0,578,463,60,123.0,151,1,426,283,83,0,0,567,-32248,-18032,552,-5.59,,,,,,,,,,,,
183503,1564151530920,0,2.53,0.93,0.38,1.37,1.06,0.85,-0.87,0.74,17,0,23,1.22,7662,33,89,44,59,805,552.0,580,467,60,123.0,151,1,427,283,83,0,0,571,10408,12552,551,-5.59,,,,,,,,,,,,
183523,1564151530940,-0,2.53,0.93,0.39,1.36,1.07,0.84,-0.86,0.85,17,0,24,1.2,7716,33,89,44,59,801,554.0,582,465,60,123.0,151,1,427,284,83,0,0,565,6274,-29984,554,-5.59,,,,,,,,,,,,
183543,1564151530960,1,2.53,0.93,0.39,1.36,1.06,0.86,-0.79,0.96,17,-0,23,1.17,7754,33,89,44,58,804,552.0,585,463,60,122.0,151,1,420,284,83,0,0,578,2088,-8188,552,-5.59,44.681309,10.025034,53.54,173.7,0,0.0,-1,0.0,0.0,0,1.05,3.0591
183563,1564151530980,1,2.54,0.93,0.39,1.37,1.06,0.87,-0.8,0.96,17,-0,24,1.18,7760,33,89,44,58,806,552.0,585,461,60,123.0,147,1,420,278,81,0,0,563,2088,-2934,552,-5.59,,,,,,,,,,,,
183583,1564151531000,2,2.54,0.93,0.39,1.37,1.06,0.84,-0.8,0.79,18,-0,25,1.16,7805,32,89,44,57,806,556.0,583,463,60,123.0,147,1,413,274,81,0,0,563,-22519,-2934,555,-5.59,,,,,,,,,,,,
183603,1564151531007,2,2.54,0.93,0.38,1.37,1.06,0.81,-0.79,0.72,19,1,25,1.13,7738,29,89,44,57,805,556.0,587,465,60,122.0,147,1,412,273,81,0,0,582,-28648,-2934,557,-5.59,,,,,,,,,,,,
183623,1564151531027,0,2.53,0.93,0.38,1.37,1.06,0.78,-0.81,0.71,19,1,25,1.12,7738,27,89,44,56,802,557.0,578,463,60,122.0,147,1,405,262,81,0,0,579,2524,1760,557,-5.59,,,,,,,,,,,,
183643,1564151531047,-0,2.54,0.92,0.38,1.36,1.07,0.77,-0.84,0.8,20,2,24,1.14,7763,27,89,44,54,798,560.0,577,466,60,122.0,147,1,390,257,81,0,0,573,-32248,243,557,-5.59,44.681301,10.025045,54.07,173.6,0,0.0,-1,0.0,0.0,0,1.05,3.0607
183663,1564151531067,-1,2.54,0.93,0.38,1.37,1.06,0.8,-0.87,0.88,20,-0,25,1.18,7747,26,89,44,54,797,560.0,585,466,60,122.0,132,1,390,257,74,0,0,573,2524,774,560,-5.59,,,,,,,,,,,,
183683,1564151531107,1,2.54,0.93,0.38,1.37,1.06,0.82,-0.85,0.86,20,-0,25,1.18,7805,26,89,44,53,796,560.0,591,463,60,123.0,132,1,387,251,74,0,0,562,-22519,-3210,560,-5.59,,,,,,,,,,,,
183703,1564151531127,1,2.54,0.93,0.39,1.36,1.07,0.77,-0.86,0.82,20,1,25,1.15,7760,26,89,44,52,798,563.0,591,463,60,123.0,132,1,384,246,74,0,0,574,-22519,-3210,560,-5.59,,,,,,,,,,,,
183723,1564151531147,3,2.54,0.92,0.39,1.36,1.07,0.71,-0.86,0.69,21,2,25,1.12,7805,26,89,44,52,800,562.0,592,466,60,123.0,132,1,384,240,74,0,0,572,-22519,8488,563,-5.59,,,,,,,,,,,,
183743,1564151531167,-1,2.54,0.92,0.39,1.36,1.06,0.72,-0.78,0.79,21,1,25,1.06,7786,26,89,44,51,801,564.0,587,464,60,123.0,132,1,381,240,74,0,0,568,14504,10432,564,-5.59,44.68129,10.025057,54.43,173.6,0,0.0,-1,0.0,0.0,0,1.05,3.0624
183763,1564151531187,1,2.53,0.93,0.39,1.37,1.06,0.76,-0.78,0.82,21,1,25,1.09,7725,26,89,44,50,801,564.0,593,461,60,122.0,122,1,378,234,69,0,0,572,-22519,259,564,-5.59,,,,,,,,,,,,
183783,1564151531197,1,2.55,0.92,0.39,1.36,1.07,0.83,-0.85,0.84,21,0,26,1.18,7744,26,89,44,50,799,561.0,590,462,60,123.0,122,1,378,234,69,0,0,563,-22519,774,563,-5.59,,,,,,,,,,,,
183803,1564151531217,0,2.55,0.93,0.38,1.37,1.06,0.87,-0.87,0.78,21,-0,26,1.23,7722,26,89,44,50,796,564.0,590,463,60,124.0,122,1,378,234,69,0,0,566,14504,1267,564,-5.59,,,,,,,,,,,,
183823,1564151531237,3,2.54,0.92,0.39,1.37,1.06,0.84,-0.93,0.67,21,0,27,1.25,7763,26,89,44,50,791,564.0,585,463,60,123.0,122,1,378,234,69,0,0,561,-22519,243,564,-5.59,,,,,,,,,,,,
183843,1564151531257,3,2.54,0.93,0.38,1.37,1.06,0.76,-0.91,0.65,22,1,26,1.18,7741,26,89,44,50,786,564.0,589,463,60,123.0,122,1,378,234,69,0,0,564,-32248,15649,564,-5.59,44.681278,10.025067,54.68,173.6,0,0.0,-1,0.0,0.0,0,1.05,3.064
183863,1564151531277,-1,2.54,0.93,0.38,1.37,1.06,0.78,-0.94,0.68,22,1,26,1.22,7741,26,89,44,50,782,564.0,587,467,60,122.0,120,1,378,234,68,0,0,577,-22519,1,564,-5.59,,,,,,,,,,,,
183883,1564151531293,-1,2.54,0.93,0.39,1.36,1.06,0.85,-0.91,0.69,22,-1,27,1.24,7828,26,89,44,50,780,565.0,588,466,60,121.0,120,1,378,234,68,0,0,560,2524,243,564,-5.59,,,,,,,,,,,,
183903,1564151531313,0,2.55,0.93,0.39,1.36,1.07,0.91,-0.9,0.61,21,1,28,1.28,7786,26,89,44,49,779,566.0,592,465,60,122.0,120,1,375,157,68,0,0,560,-22519,1,563,-5.59,,,,,,,,,,,,
183923,1564151531333,2,2.54,0.93,0.39,1.36,1.06,0.89,-0.94,0.46,22,2,29,1.3,7802,26,89,44,49,777,565.0,595,460,60,123.0,120,1,375,229,68,0,0,565,2104,15649,565,-5.59,,,,,,,,,,,,
183943,1564151531353,3,2.54,0.93,0.38,1.36,1.06,0.88,-0.93,0.37,22,2,29,1.27,7728,26,89,44,49,777,565.0,594,466,60,124.0,120,1,375,229,68,0,0,565,6274,15649,566,-5.59,44.681267,10.025077,54.97,173.7,0,0.0,-1,0.0,0.0,0,1.05,3.0657
183963,1564151531373,-2,2.55,0.93,0.39,1.36,1.07,0.84,-0.96,0.34,23,2,29,1.28,7754,26,89,44,49,778,564.0,601,466,60,122.0,118,1,375,229,67,0,0,578,6274,-16384,564,-5.59,,,,,,,,,,,,
183983,1564151531407,-0,2.54,0.93,0.39,1.37,1.07,0.85,-0.99,0.37,23,3,29,1.31,7731,26,89,43,49,780,564.0,596,466,60,122.0,118,1,375,230,67,0,0,566,-22519,30208,564,-5.59,,,,,,,,,,,,
184003,1564151531427,-1,2.55,0.93,0.39,1.37,1.06,0.88,-1.02,0.45,23,2,30,1.35,7793,26,89,43,49,783,563.0,594,466,60,123.0,118,1,375,230,67,0,0,557,-22519,259,564,-5.59,,,,,,,,,,,,
184023,1564151531447,2,2.55,0.92,0.38,1.37,1.07,0.91,-0.98,0.49,23,1,28,1.34,7805,26,89,43,48,786,565.0,592,464,60,123.0,118,1,372,230,67,0,0,567,6274,8488,565,-5.59,,,,,,,,,,,,
184043,1564151531467,3,2.55,0.93,0.39,1.36,1.06,0.87,-0.95,0.44,23,2,28,1.29,7773,25,90,43,48,789,565.0,603,463,60,123.0,118,1,372,224,67,0,0,561,14504,8488,565,-5.59,44.681255,10.025085,54.82,173.7,0,0.0,-1,0.0,0.0,0,1.06,3.0674
184063,1564151531487,-3,2.54,0.93,0.38,1.37,1.06,0.79,-0.92,0.39,24,3,30,1.21,7776,25,90,43,48,793,566.0,589,465,60,123.0,119,1,372,230,67,0,0,580,14504,10432,565,-5.59,,,,,,,,,,,,
184083,1564151531503,-1,2.54,0.93,0.39,1.36,1.07,0.82,-0.91,0.4,24,3,29,1.22,7822,25,89,43,49,798,566.0,602,467,60,122.0,119,1,375,224,67,0,0,566,-32248,10432,566,-5.59,,,,,,,,,,,,
184103,1564151531523,0,2.54,0.92,0.39,1.36,1.07,0.87,-0.94,0.46,24,2,29,1.28,7812,25,89,43,49,801,566.0,592,464,60,122.0,119,1,375,224,67,0,0,565,14504,259,566,-5.59,,,,,,,,,,,,
184123,1564151531543,0,2.55,0.93,0.38,1.37,1.06,0.9,-0.95,0.43,24,1,30,1.3,7855,25,89,43,48,802,568.0,591,466,60,124.0,119,1,372,151,67,0,0,565,-22519,1,568,-5.59,,,,,,,,,,,,
184143,1564151531563,2,2.55,0.93,0.38,1.37,1.06,0.83,-0.94,0.41,24,2,29,1.26,7819,25,90,43,48,804,564.0,596,463,60,123.0,119,1,372,224,67,0,0,573,-28648,-16384,564,-5.59,44.681244,10.025093,55.05,173.7,0,0.0,-1,0.0,0.0,0,1.06,3.0691
184163,1564151531583,-0,2.54,0.92,0.38,1.36,1.06,0.82,-0.95,0.41,25,3,29,1.25,7819,25,89,43,48,808,564.0,588,465,60,122.0,117,1,372,224,66,0,0,569,6274,-25872,566,-5.59,,,,,,,,,,,,
184183,1564151531593,-0,2.54,0.93,0.38,1.36,1.07,0.81,-1.01,0.48,25,2,29,1.3,7773,22,90,43,48,812,565.0,595,465,60,122.0,117,1,372,219,66,0,0,571,-30064,243,565,-5.59,,,,,,,,,,,,
184203,1564151531613,1,2.54,0.93,0.38,1.36,1.06,0.86,-1.02,0.53,24,1,28,1.33,7770,22,89,43,47,814,565.0,597,465,60,122.0,117,1,370,219,66,0,0,570,14504,-16384,565,-5.59,,,,,,,,,,,,
184223,1564151531633,1,2.54,0.92,0.38,1.36,1.06,0.88,-1.01,0.54,23,-0,28,1.34,7799,21,89,43,46,817,566.0,592,464,60,123.0,117,1,362,217,66,0,0,567,2104,1,564,-5.59,,,,,,,,,,,,
184243,1564151531653,2,2.54,0.93,0.38,1.36,1.06,0.78,-1.01,0.47,24,1,28,1.27,7744,21,90,43,45,820,567.0,597,464,60,123.0,117,1,355,217,66,0,0,560,6274,1,565,-5.59,44.681229,10.0251,55.23,173.7,0,0.0,-1,0.0,0.0,0,1.06,3.0707
184263,1564151531673,3,2.55,0.92,0.38,1.36,1.07,0.74,-1.0,0.43,24,2,30,1.24,7738,21,90,43,45,822,567.0,597,465,60,123.0,111,1,355,215,63,0,0,563,-28648,-25872,567,-5.59,,,,,,,,,,,,
184283,1564151531693,-1,2.54,0.92,0.38,1.36,1.07,0.77,-0.96,0.43,24,2,29,1.23,7690,21,90,43,45,822,567.0,592,465,60,123.0,111,1,355,213,63,0,0,563,6274,-16384,568,-5.59,,,,,,,,,,,,
184303,1564151531705,-1,2.54,0.93,0.38,1.36,1.06,0.82,-0.94,0.41,24,2,29,1.25,7697,21,89,43,45,822,565.0,593,463,60,123.0,111,1,355,215,63,0,0,555,14504,243,565,-5.59,,,,,,,,,,,,
184323,1564151531725,-1,2.54,0.93,0.38,1.37,1.06,0.85,-0.99,0.48,24,1,30,1.31,7719,21,90,43,45,821,569.0,585,468,60,122.0,111,1,355,215,63,0,0,553,-22519,10432,569,-5.59,,,,,,,,,,,,
184343,1564151531745,-0,2.53,0.92,0.38,1.36,1.06,0.89,-1.01,0.51,24,-1,31,1.35,7703,21,90,43,45,820,568.0,592,466,60,122.0,111,1,355,215,63,0,0,553,-22519,259,568,-5.59,44.681213,10.025105,55.07,173.7,0,0.0,-1,0.0,0.0,0,1.06,3.0724
184363,1564151531765,1,2.53,0.92,0.38,1.36,1.06,0.91,-1.0,0.54,24,-1,30,1.35,7722,21,90,43,44,819,567.0,583,465,60,123.0,109,1,347,213,62,0,0,554,14504,-16384,567,-5.59,,,,,,,,,,,,
184383,1564151531803,3,2.54,0.93,0.38,1.36,1.07,0.86,-0.97,0.51,24,-1,29,1.3,7665,18,90,43,44,818,564.0,580,465,60,123.0,109,1,347,213,62,0,0,554,2104,30208,564,-5.59,,,,,,,,,,,,
184403,1564151531823,1,2.54,0.93,0.38,1.37,1.06,0.86,-0.95,0.45,24,0,31,1.28,7656,16,90,43,42,815,566.0,575,462,60,124.0,109,1,332,212,62,0,0,553,14504,-1894,566,-5.59,,,,,,,,,,,,
184423,1564151531843,3,2.53,0.92,0.38,1.37,1.06,0.8,-0.89,0.42,25,2,31,1.2,7609,15,90,43,42,811,563.0,577,465,60,124.0,109,1,332,210,62,0,0,549,-22519,-3210,563,-5.59,,,,,,,,,,,,
184443,1564151531863,2,2.52,0.93,0.38,1.36,1.06,0.73,-0.91,0.37,25,3,30,1.17,7563,15,90,43,41,809,566.0,575,463,60,123.0,109,1,325,208,62,0,0,547,-28648,-3210,564,-5.59,44.681202,10.025107,55.59,173.7,0,0.0,-1,0.0,0.0,0,1.06,3.074
184463,1564151531883,2,2.53,0.93,0.38,1.36,1.06,0.71,-0.96,0.25,25,4,32,1.19,7467,15,90,43,40,806,563.0,567,462,60,123.0,102,1,317,205,58,0,0,543,-28648,1,563,-5.59,,,,,,,,,,,,
184483,1564151531895,3,2.53,0.92,0.37,1.36,1.06,0.67,-0.9,0.22,26,4,33,1.12,7419,15,90,43,39,801,564.0,565,464,60,123.0,102,1,310,204,58,0,0,542,2524,-25872,564,-5.59,,,,,,,,,,,,
184503,1564151531915,1,2.53,0.93,0.38,1.36,1.06,0.63,-0.84,0.16,26,5,32,1.05,7358,15,90,43,39,797,564.0,561,465,60,123.0,102,1,310,204,58,0,0,544,2524,-3210,564,-5.59,,,,,,,,,,,,
184523,1564151531935,1,2.53,0.93,0.38,1.35,1.06,0.62,-0.87,0.18,26,5,31,1.07,7309,15,90,43,39,794,563.0,558,463,60,123.0,102,1,310,204,58,0,0,541,2524,1267,563,-5.59,,,,,,,,,,,,
184543,1564151531955,-0,2.53,0.92,0.38,1.36,1.06,0.66,-0.91,0.18,25,5,32,1.12,7244,15,90,43,39,792,563.0,563,465,60,123.0,102,1,310,204,58,0,0,540,10408,774,563,-5.59,44.681187,10.025109,55.29,173.8,0,0.0,-1,0.0,0.0,0,1.06,3.0757
184563,1564151531975,0,2.53,0.92,0.38,1.37,1.06,0.67,-0.95,0.24,25,5,32,1.17,7214,15,89,43,39,791,560.0,555,463,60,122.0,98,1,310,204,55,0,0,546,6274,774,558,-5.59,,,,,,,,,,,,
184583,1564151531995,-2,2.53,0.92,0.38,1.37,1.06,0.74,-1.0,0.34,25,1,32,1.25,7186,15,90,43,39,790,558.0,553,465,60,122.0,98,1,310,204,55,0,0,540,6274,1780,557,-5.59,,,,,,,,,,,,
184603,1564151532006,3,2.52,0.93,0.38,1.37,1.07,0.8,-0.93,0.31,25,1,31,1.23,7131,15,90,43,39,790,558.0,556,462,60,123.0,98,1,310,204,55,0,0,537,-28648,1760,558,-5.59,,,,,,,,,,,,
184623,1564151532026,2,2.51,0.93,0.38,1.37,1.06,0.77,-0.95,0.25,25,2,30,1.23,7222,15,90,43,39,791,556.0,551,466,60,123.0,98,1,310,204,55,0,0,528,2088,6273,556,-5.59,,,,,,,,,,,,
184643,1564151532046,2,2.51,0.93,0.38,1.37,1.06,0.76,-0.96,0.28,24,2,31,1.22,7332,15,90,43,39,794,554.0,555,463,60,124.0,98,1,310,204,55,0,0,516,1248,2211,554,-5.59,44.681175,10.02511,54.97,173.8,0,0.0,-1,0.0,0.0,0,1.07,3.0774
184663,1564151532066,0,2.52,0.93,0.38,1.37,1.06,0.79,-0.96,0.34,24,1,31,1.24,7464,15,90,43,39,797,554.0,562,464,60,123.0,102,1,310,204,57,0,0,515,-8187,-32504,554,-5.59,,,,,,,,,,,,
184683,1564151532102,1,2.52,0.92,0.39,1.36,1.06,0.79,-1.0,0.41,24,1,31,1.28,7467,15,90,43,38,800,553.0,561,464,60,123.0,102,1,307,204,57,0,0,521,-8187,-28648,553,-5.59,,,,,,,,,,,,
184703,1564151532122,-0,2.52,0.92,0.38,1.36,1.07,0.87,-0.99,0.49,23,-1,31,1.32,7476,15,90,43,38,803,550.0,557,465,60,123.0,102,1,307,199,57,0,0,524,-8187,-28648,549,-5.59,,,,,,,,,,,,
184723,1564151532142,0,2.51,0.92,0.38,1.37,1.06,0.96,-1.03,0.55,23,-2,30,1.41,7378,15,90,43,38,802,551.0,563,467,60,121.0,102,1,307,199,57,0,0,529,15679,-22359,550,-5.59,,,,,,,,,,,,
184743,1564151532162,-0,2.51,0.93,0.38,1.37,1.06,0.99,-1.05,0.63,23,-1,30,1.45,7370,15,90,43,38,801,549.0,552,465,60,122.0,102,1,307,199,57,0,0,529,16383,-22359,549,-5.59,44.68116,10.02511,54.59,173.8,0,0.0,-1,0.0,0.0,0,1.07,3.0791
184763,1564151532182,-1,2.51,0.92,0.38,1.37,1.06,1.06,-1.09,0.74,22,-3,30,1.52,7304,15,90,43,38,798,549.0,553,464,60,121.0,100,1,307,199,55,0,0,526,16383,-9072,549,-5.59,,,,,,,,,,,,
184783,1564151532196,-0,2.51,0.92,0.38,1.36,1.06,1.1,-1.05,0.75,22,-4,28,1.52,7312,15,90,43,38,795,547.0,544,463,60,123.0,100,1,307,199,55,0,0,525,-3482,-23623,547,-5.59,,,,,,,,,,,,
184803,1564151532216,2,2.51,0.93,0.38,1.37,1.06,1.06,-1.04,0.64,22,-2,29,1.49,7341,15,90,43,38,790,545.0,551,465,60,121.0,100,1,307,199,55,0,0,523,-14,-22263,543,-5.59,,,,,,,,,,,,
184823,1564151532236,3,2.5,0.93,0.38,1.37,1.06,1.03,-1.0,0.52,21,-0,31,1.43,7324,15,90,43,38,785,544.0,557,465,60,123.0,100,1,307,199,55,0,0,522,-3482,-22263,544,-5.59,,,,,,,,,,,,
184843,1564151532256,3,2.5,0.93,0.38,1.37,1.06,0.99,-0.93,0.5,22,0,32,1.35,7355,15,90,43,38,782,541.0,558,463,60,122.0,100,1,307,199,55,0,0,524,-3856,-32248,541,-5.59,44.681145,10.025109,53.92,173.8,0,0.0,-1,0.0,0.0,0,1.07,3.0807
184863,1564151532276,1,2.51,0.93,0.37,1.36,1.06,0.9,-0.89,0.51,22,1,30,1.27,7312,15,90,43,38,781,542.0,561,463,60,123.0,101,1,307,199,55,0,0,520,26178,2524,542,-5.59,,,,,,,,,,,,
184883,1564151532296,-0,2.51,0.93,0.38,1.36,1.07,0.82,-0.9,0.43,22,0,28,1.22,7315,15,90,43,38,782,541.0,557,465,60,121.0,101,1,307,199,55,0,0,521,-4054,-22519,541,-5.59,,,,,,,,,,,,
184903,1564151532310,-1,2.51,0.92,0.38,1.36,1.07,0.89,-0.94,0.44,21,0,28,1.3,7273,15,90,43,38,783,539.0,561,466,60,121.0,101,1,307,204,55,0,0,524,-3414,-28648,539,-5.59,,,,,,,,,,,,
184923,1564151532330,-0,2.49,0.93,0.38,1.36,1.06,0.92,-0.96,0.56,21,-0,29,1.33,7264,15,90,43,38,786,537.0,550,464,60,120.0,101,1,307,199,55,0,0,523,-4054,-28648,536,-5.59,,,,,,,,,,,,
184943,1564151532350,-2,2.5,0.93,0.38,1.37,1.06,0.94,-0.98,0.63,20,-1,30,1.36,7259,15,90,43,38,788,538.0,551,467,60,123.0,101,1,307,199,55,0,0,523,10994,6274,538,-5.59,44.681133,10.025105,53.29,173.8,0,0.0,-1,0.0,0.0,0,1.07,3.0824
184963,1564151532370,-0,2.48,0.93,0.38,1.37,1.06,0.92,-0.92,0.56,20,-0,29,1.3,7145,14,90,43,38,792,537.0,546,458,60,124.0,100,1,307,199,54,0,0,521,-3856,-32248,537,414.87,,,,,,,,,,,,
184983,1564151532408,-2,2.48,0.93,0.38,1.36,1.07,0.88,-0.9,0.49,20,0,28,1.26,7009,14,90,43,38,795,539.0,537,463,60,124.0,100,1,307,199,54,0,0,514,10994,-3082,539,414.87,,,,,,,,,,,,
185003,1564151532428,-2,2.48,0.93,0.37,1.36,1.06,0.89,-0.87,0.48,20,0,27,1.24,6952,14,90,43,38,797,533.0,547,461,60,121.0,100,1,307,199,54,0,0,509,-28648,-3082,533,181.28,,,,,,,,,,,,
185023,1564151532448,-1,2.47,0.92,0.38,1.37,1.06,0.94,-0.87,0.35,20,-1,28,1.28,6941,14,90,43,38,797,530.0,541,460,60,122.0,100,1,307,199,54,0,0,504,6274,2104,530,181.28,,,,,,,,,,,,
185043,1564151532468,0,2.48,0.93,0.38,1.36,1.06,0.87,-0.84,0.33,20,2,27,1.21,7009,14,90,43,38,798,528.0,546,459,60,122.0,100,1,307,316,54,0,0,495,2109,2524,528,181.28,44.681122,10.025102,52.98,173.9,0,0.0,-1,0.0,0.0,0,1.07,3.084
185063,1564151532488,-1,2.48,0.92,0.38,1.37,1.06,0.8,-0.83,0.42,19,0,27,1.15,7022,15,90,43,39,800,526.0,541,461,60,118.0,157,1,310,303,83,0,0,503,10408,10408,526,-5.59,,,,,,,,,,,,
185083,1564151532498,3,2.47,0.92,0.38,1.36,1.06,0.84,-0.76,0.37,19,1,26,1.13,7131,15,90,43,39,800,524.0,541,465,60,121.0,157,1,310,277,83,0,0,504,-22519,-8187,524,-5.59,,,,,,,,,,,,
185103,1564151532518,2,2.46,0.92,0.38,1.36,1.05,0.76,-0.75,0.33,19,2,25,1.06,7290,15,90,43,39,801,521.0,551,465,60,121.0,157,1,310,253,83,0,0,504,2524,-28648,521,-5.59,,,,,,,,,,,,
185123,1564151532538,-0,2.47,0.92,0.38,1.37,1.06,0.64,-0.7,0.26,19,2,27,0.95,7239,15,90,43,39,813,521.0,561,464,60,122.0,157,1,310,228,83,0,0,510,998,-22519,521,-5.59,,,,,,,,,,,,
185143,1564151532558,-1,2.47,0.93,0.38,1.36,1.06,0.7,-0.7,0.37,18,2,26,0.99,7219,15,90,43,39,862,520.0,558,464,60,119.0,157,1,310,204,83,0,0,506,-9216,6274,520,-5.59,44.681107,10.025097,52.31,173.9,0,0.0,-1,0.0,0.0,0,1.07,3.0857
185163,1564151532578,-1,2.46,0.92,0.38,1.36,1.06,0.76,-0.71,0.41,18,1,24,1.04,7231,15,90,43,39,911,519.0,554,466,60,121.0,105,1,310,204,55,0,0,497,-9216,-8187,519,-5.59,,,,,,,,,,,,
185183,1564151532592,-1,2.46,0.92,0.38,1.36,1.06,0.89,-0.71,0.37,18,2,24,1.14,7256,15,90,43,39,958,1084.0,551,465,60,123.0,105,1,310,204,55,0,0,1509,1020,6274,1074,-5.59,,,,,,,,,,,,
185203,1564151532612,0,2.46,0.92,0.37,1.36,1.07,1.0,-0.7,0.34,18,-1,23,1.22,7609,15,90,43,39,1009,1074.0,564,463,60,124.0,105,1,310,200,55,0,0,1509,32033,15661,69,-5.59,,,,,,,,,,,,
185223,1564151532632,-1,2.45,0.92,0.37,1.37,1.05,1.04,-0.7,0.45,17,-4,24,1.25,7709,15,90,43,38,1116,499.0,570,462,60,122.0,105,1,307,200,55,0,0,1509,-10483,-32768,499,-5.59,,,,,,,,,,,,
185243,1564151532652,1,2.46,0.92,0.38,1.36,1.06,0.99,-0.67,0.38,16,-4,23,1.2,8012,15,90,43,37,1223,504.0,597,466,60,124.0,105,1,304,200,55,0,0,1509,10305,-6656,504,-5.59,44.681095,10.02509,51.4,173.9,0,0.0,-1,0.0,0.0,0,1.07,3.0874
185263,1564151532672,-0,2.46,0.93,0.37,1.36,1.06,0.96,-0.67,0.45,16,-3,22,1.17,8220,15,90,43,36,1283,500.0,602,465,60,125.0,119,1,305,198,60,0,0,1509,10305,8488,500,-5.59,,,,,,,,,,,,
185283,1564151532706,2,2.45,0.93,0.38,1.35,1.06,0.9,-0.7,0.32,16,-4,21,1.14,8461,15,90,43,35,1343,498.0,617,466,60,124.0,119,1,307,194,60,0,0,22,-23367,3580,498,-5.59,,,,,,,,,,,,
185303,1564151532726,1,2.46,0.92,0.38,1.36,1.06,1.01,-0.58,0.29,16,-2,21,1.17,8676,15,90,43,34,1306,496.0,633,465,60,123.0,119,1,305,192,60,0,0,472,-9203,-1818,497,-5.59,,,,,,,,,,,,
185323,1564151532746,-1,2.46,0.92,0.38,1.36,1.06,1.11,-0.62,0.42,16,-2,21,1.28,8848,15,90,43,33,1267,493.0,628,467,60,123.0,119,1,302,188,60,0,0,461,8488,-1562,491,-5.59,,,,,,,,,,,,
185343,1564151532766,0,2.45,0.93,0.37,1.37,1.06,1.14,-0.68,0.34,16,-0,20,1.33,8971,15,90,43,32,1181,491.0,638,470,60,124.0,119,1,300,185,60,0,0,464,10432,3580,491,-5.59,44.681084,10.025084,50.66,173.9,0,0.0,-1,0.0,0.0,0,1.08,3.0891
185363,1564151532786,1,2.45,0.93,0.38,1.37,1.06,1.23,-0.8,0.35,16,1,19,1.46,9115,15,90,43,30,1083,486.0,635,468,60,124.0,129,1,291,185,63,0,0,463,-3210,-1562,486,-5.59,,,,,,,,,,,,
185383,1564151532798,1,2.45,0.93,0.38,1.36,1.06,1.31,-0.73,0.31,15,0,19,1.5,9159,15,90,43,30,981,484.0,640,465,60,123.0,129,1,291,186,63,0,0,472,16408,-1818,484,-5.59,,,,,,,,,,,,
185403,1564151532818,1,2.45,0.93,0.37,1.37,1.06,1.38,-0.67,0.34,14,0,18,1.53,9110,15,90,43,29,879,484.0,641,464,60,123.0,129,1,287,185,63,0,0,472,12552,-6528,481,-5.59,,,,,,,,,,,,
185423,1564151532838,1,2.45,0.92,0.38,1.36,1.06,1.44,-0.61,0.38,13,1,18,1.57,8992,15,90,43,28,849,479.0,641,463,60,123.0,129,1,282,185,63,0,0,469,6193,1,479,-5.59,,,,,,,,,,,,
185443,1564151532858,0,2.45,0.92,0.37,1.36,1.07,1.5,-0.56,0.42,13,1,17,1.6,8823,15,90,43,28,845,480.0,638,468,60,123.0,129,1,282,185,63,0,0,467,2211,-10483,480,-5.59,44.681072,10.025077,48.82,173.9,0,0.0,-1,0.0,0.0,0,1.08,3.0907
185463,1564151532878,-1,2.45,0.92,0.38,1.36,1.06,1.53,-0.53,0.42,13,2,17,1.62,8724,15,90,43,29,844,477.0,631,466,60,124.0,127,1,287,185,61,0,0,469,-18108,-10483,479,-5.59,,,,,,,,,,,,
185483,1564151532898,3,2.44,0.92,0.37,1.37,1.06,1.51,-0.66,0.32,13,2,17,1.64,8652,15,90,43,29,844,475.0,624,468,60,125.0,127,1,287,185,61,0,0,458,-9160,8488,475,-5.59,,,,,,,,,,,,
185503,1564151532910,2,2.45,0.92,0.38,1.36,1.06,1.39,-0.64,0.29,13,1,17,1.53,8636,15,90,43,29,847,473.0,635,468,60,124.0,127,1,287,185,61,0,0,459,-8985,-17956,473,-5.59,,,,,,,,,,,,
185523,1564151532930,2,2.44,0.93,0.38,1.36,1.07,1.34,-0.57,0.3,13,2,16,1.46,8632,15,90,43,29,852,469.0,634,462,60,123.0,127,1,287,185,61,0,0,457,-8985,32033,471,-5.59,,,,,,,,,,,,
185543,1564151532950,1,2.44,0.93,0.38,1.36,1.07,1.39,-0.49,0.36,13,2,16,1.48,8652,15,90,43,29,857,468.0,623,466,60,123.0,127,1,287,185,61,0,0,451,-6387,12552,468,-5.59,44.681065,10.025069,47.35,174.0,0,0.0,-1,0.0,0.0,0,1.08,3.0924
185563,1564151532970,-0,2.45,0.92,0.38,1.36,1.06,1.34,-0.56,0.32,12,3,17,1.45,8652,15,90,43,29,863,467.0,626,468,60,124.0,128,1,287,185,60,0,0,453,-6387,-16384,467,-5.59,,,,,,,,,,,,
185583,1564151533001,1,2.45,0.92,0.38,1.36,1.06,1.24,-0.62,0.25,13,4,17,1.38,8608,15,90,43,29,866,466.0,632,463,60,123.0,128,1,287,185,60,0,0,451,8488,10432,466,-5.59,,,,,,,,,,,,
185603,1564151533021,1,2.45,0.92,0.38,1.36,1.06,1.24,-0.47,0.25,13,3,17,1.32,8561,15,90,43,29,866,462.0,629,463,60,124.0,128,1,287,185,60,0,0,449,10305,-3210,462,-5.59,,,,,,,,,,,,
185623,1564151533041,-1,2.44,0.92,0.38,1.36,1.07,1.25,-0.51,0.34,12,3,17,1.35,8511,15,90,43,29,868,462.0,629,466,60,124.0,128,1,287,185,60,0,0,446,21432,-16384,462,-5.59,,,,,,,,,,,,
185643,1564151533061,3,2.44,0.92,0.38,1.36,1.06,1.18,-0.56,0.3,12,2,17,1.31,8522,15,90,43,29,869,457.0,636,461,60,124.0,128,1,287,185,60,0,0,450,23400,-18108,457,-5.59,44.681049,10.025061,46.84,174.0,0,0.0,-1,0.0,0.0,0,1.08,3.094
185663,1564151533081,1,2.43,0.93,0.38,1.36,1.06,1.16,-0.45,0.26,13,3,17,1.24,8530,15,90,43,29,870,457.0,629,463,60,123.0,131,1,287,185,60,0,0,447,-28332,-18108,455,-5.59,,,,,,,,,,,,
185683,1564151533093,-0,2.43,0.93,0.37,1.35,1.06,1.24,-0.43,0.37,12,3,17,1.32,8589,15,90,43,29,870,456.0,623,463,60,123.0,131,1,287,185,60,0,0,445,21580,-23623,456,-5.59,,,,,,,,,,,,
185703,1564151533113,2,2.44,0.92,0.38,1.36,1.06,1.17,-0.49,0.46,13,2,17,1.27,8549,15,90,43,29,869,453.0,623,467,60,124.0,131,1,287,185,60,0,0,448,21580,17628,453,-5.59,,,,,,,,,,,,
185723,1564151533133,2,2.44,0.92,0.37,1.36,1.06,1.09,-0.42,0.39,13,2,17,1.17,8488,15,90,43,29,866,454.0,623,466,60,123.0,131,1,286,184,60,0,0,447,21580,2211,454,-5.59,,,,,,,,,,,,
185743,1564151533153,-1,2.44,0.92,0.38,1.36,1.06,1.18,-0.42,0.42,13,3,16,1.25,8415,15,90,43,29,862,452.0,622,464,60,124.0,131,1,286,180,60,0,0,444,19477,-26615,453,-5.59,44.681042,10.025053,45.78,174.0,0,0.0,-1,0.0,0.0,0,1.08,3.0957
185763,1564151533173,1,2.44,0.92,0.38,1.35,1.06,1.06,-0.46,0.42,13,4,16,1.16,8385,15,90,43,29,859,452.0,632,461,60,124.0,126,1,285,179,57,0,0,444,-768,-26615,452,-5.59,,,,,,,,,,,,
185783,1564151533193,0,2.43,0.93,0.37,1.36,1.05,1.14,-0.44,0.41,12,3,16,1.22,8325,15,90,43,29,853,448.0,631,465,60,122.0,126,1,284,176,57,0,0,444,243,-26615,450,-5.59,,,,,,,,,,,,
185803,1564151533207,2,2.44,0.93,0.37,1.37,1.06,1.05,-0.44,0.42,12,3,16,1.14,8355,15,90,43,29,846,446.0,623,464,60,124.0,126,1,285,177,57,0,0,438,-3322,2524,446,-5.59,,,,,,,,,,,,
185823,1564151533227,1,2.43,0.92,0.37,1.36,1.06,0.99,-0.39,0.39,12,2,16,1.06,8363,15,90,43,30,839,447.0,626,465,60,123.0,126,1,289,178,57,0,0,439,1779,-6387,447,-5.59,,,,,,,,,,,,
185843,1564151533247,-2,2.44,0.92,0.37,1.35,1.06,1.01,-0.41,0.45,13,4,16,1.09,8285,15,91,43,30,835,446.0,623,463,60,124.0,126,1,287,175,57,0,0,437,-3314,-3267,447,-5.59,44.68103,10.025044,44.15,174.0,0,0.0,-1,0.0,0.0,0,1.08,3.0974
185863,1564151533267,2,2.43,0.93,0.38,1.36,1.06,0.95,-0.4,0.42,13,2,15,1.03,8278,15,90,43,30,832,444.0,629,463,60,124.0,123,1,287,175,55,0,0,436,-3314,-26615,444,-5.59,,,,,,,,,,,,
185883,1564151533301,-2,2.43,0.92,0.37,1.36,1.06,1.04,-0.41,0.51,12,2,16,1.12,8300,15,90,43,30,830,445.0,630,466,60,124.0,123,1,288,176,55,0,0,433,13552,-6387,443,-5.59,,,,,,,,,,,,
185903,1564151533321,2,2.43,0.93,0.38,1.36,1.06,1.0,-0.36,0.45,12,1,16,1.06,8270,15,91,43,30,828,442.0,620,464,60,123.0,123,1,287,174,55,0,0,435,13552,15649,442,-5.59,,,,,,,,,,,,
185923,1564151533341,-2,2.43,0.92,0.37,1.35,1.06,1.04,-0.36,0.52,11,2,15,1.11,8220,15,91,43,30,830,440.0,622,463,60,124.0,123,1,287,172,55,0,0,435,-4082,8488,440,-5.59,,,,,,,,,,,,
185943,1564151533361,1,2.43,0.93,0.38,1.36,1.06,0.98,-0.33,0.41,11,0,16,1.03,8212,15,91,43,30,832,439.0,627,466,60,123.0,123,1,287,173,55,0,0,432,3826,-28332,439,-5.59,44.681023,10.025035,44.33,174.0,0,0.0,-1,0.0,0.0,0,1.08,3.0991
185963,1564151533381,-2,2.44,0.92,0.38,1.36,1.06,1.0,-0.32,0.51,12,2,15,1.05,8227,15,91,43,31,837,437.0,620,467,60,124.0,123,1,290,174,54,0,0,432,3826,8488,437,-5.59,,,,,,,,,,,,
185983,1564151533395,0,2.43,0.93,0.38,1.35,1.07,0.96,-0.28,0.49,12,1,15,1.0,8191,15,91,43,31,842,438.0,615,466,60,124.0,123,1,289,172,54,0,0,429,-3414,2131,437,-5.59,,,,,,,,,,,,
186003,1564151533415,3,2.43,0.92,0.38,1.36,1.06,0.92,-0.29,0.47,12,3,15,0.96,8141,15,91,43,31,845,436.0,615,465,60,124.0,123,1,288,170,54,0,0,430,-21792,2131,436,-5.59,,,,,,,,,,,,
186023,1564151533435,1,2.43,0.93,0.38,1.36,1.06,0.98,-0.25,0.48,12,2,15,1.01,8081,15,91,43,31,849,436.0,612,463,60,123.0,123,1,288,91,54,0,0,429,-8165,21432,436,-5.59,,,,,,,,,,,,
186043,1564151533455,3,2.43,0.93,0.37,1.37,1.06,0.9,-0.22,0.45,12,2,15,0.93,8120,15,91,43,31,852,435.0,616,463,60,123.0,123,1,288,169,54,0,0,429,7154,21580,435,-5.59,44.681015,10.025025,43.56,174.0,0,0.0,-1,0.0,0.0,0,1.08,3.1007
186063,1564151533475,-0,2.42,0.93,0.37,1.37,1.06,1.01,-0.22,0.43,12,2,15,1.04,8071,15,91,43,32,856,433.0,613,466,60,124.0,118,1,292,166,51,0,0,430,-3414,-28332,433,-5.59,,,,,,,,,,,,
186083,1564151533495,1,2.42,0.93,0.38,1.35,1.06,0.97,-0.18,0.41,12,2,15,0.99,8054,15,91,43,31,857,431.0,620,464,60,124.0,118,1,288,168,51,0,0,425,-21944,19477,431,-5.59,,,,,,,,,,,,
186103,1564151533506,2,2.43,0.93,0.37,1.36,1.06,0.98,-0.21,0.42,12,2,15,1.0,8081,15,91,43,32,858,431.0,615,465,60,125.0,118,1,291,169,51,0,0,427,18584,19477,430,-5.59,,,,,,,,,,,,
186123,1564151533526,0,2.43,0.92,0.37,1.36,1.06,1.07,-0.16,0.41,11,2,15,1.08,8061,15,91,43,32,860,427.0,615,468,60,123.0,118,1,291,167,51,0,0,427,18584,20625,427,-5.59,,,,,,,,,,,,
186143,1564151533546,2,2.43,0.93,0.38,1.36,1.06,0.96,-0.17,0.38,11,1,14,0.97,8009,15,90,43,32,862,427.0,622,464,60,122.0,118,1,290,166,51,0,0,423,2524,19477,427,-5.59,44.681004,10.025016,42.69,174.0,0,0.0,-1,0.0,0.0,0,1.09,3.1024
186163,1564151533566,2,2.43,0.92,0.38,1.36,1.06,1.03,-0.2,0.4,10,2,15,1.05,8009,15,91,43,33,863,428.0,611,464,60,125.0,121,1,292,166,52,0,0,421,13040,243,427,-5.59,,,,,,,,,,,,
186183,1564151533603,-1,2.43,0.93,0.38,1.35,1.06,1.13,-0.17,0.42,10,2,15,1.14,7955,15,91,43,33,865,427.0,606,467,60,124.0,121,1,292,171,52,0,0,419,13040,5600,427,-5.59,,,,,,,,,,,,
186203,1564151533623,0,2.43,0.92,0.38,1.36,1.06,1.06,-0.19,0.43,10,1,13,1.08,7958,15,91,43,33,868,426.0,614,463,60,123.0,121,1,292,171,52,0,0,423,-4059,-768,426,-5.59,,,,,,,,,,,,
186223,1564151533643,3,2.43,0.92,0.37,1.35,1.06,1.08,-0.24,0.42,10,2,15,1.11,7971,15,91,43,33,871,424.0,600,464,60,124.0,121,1,292,171,52,0,0,414,9517,13180,424,-5.59,,,,,,,,,,,,
186243,1564151533663,-1,2.43,0.92,0.38,1.36,1.06,1.17,-0.22,0.47,10,2,15,1.19,7924,15,91,43,33,873,424.0,601,466,60,124.0,121,1,292,171,52,0,0,416,9517,1779,423,-5.59,44.681,10.025006,42.69,174.0,0,0.0,-1,0.0,0.0,0,1.09,3.104
186263,1564151533683,1,2.43,0.92,0.37,1.37,1.06,1.14,-0.2,0.51,10,0,13,1.16,7898,15,90,43,33,875,422.0,606,463,60,123.0,120,1,292,171,51,0,0,418,11560,-3322,422,-5.59,,,,,,,,,,,,
186283,1564151533693,1,2.43,0.92,0.37,1.35,1.06,1.06,-0.22,0.49,10,2,14,1.08,7914,15,90,43,33,877,422.0,603,467,60,125.0,120,1,292,176,51,0,0,413,10392,1779,422,-5.59,,,,,,,,,,,,
186303,1564151533713,3,2.43,0.92,0.37,1.36,1.06,1.1,-0.24,0.53,10,3,15,1.12,7858,15,91,43,34,879,423.0,606,469,60,124.0,120,1,295,176,51,0,0,415,-9211,3635,421,-5.59,,,,,,,,,,,,
186323,1564151533733,-1,2.43,0.92,0.37,1.36,1.06,1.17,-0.23,0.57,10,2,13,1.19,7868,15,91,43,34,879,420.0,602,465,60,124.0,120,1,295,176,51,0,0,416,-26615,13552,419,-5.59,,,,,,,,,,,,
186343,1564151533753,1,2.43,0.93,0.37,1.36,1.06,1.11,-0.2,0.52,10,2,13,1.13,7874,15,90,43,34,879,418.0,601,466,60,123.0,120,1,295,176,51,0,0,418,1504,-3856,418,-5.59,44.680988,10.024996,42.01,174.0,0,0.0,-1,0.0,0.0,0,1.09,3.1057
186363,1564151533773,0,2.43,0.92,0.37,1.36,1.06,1.0,-0.2,0.47,11,2,14,1.02,7832,15,90,43,34,878,418.0,610,465,60,123.0,124,1,295,176,52,0,0,411,10541,-4082,418,-5.59,,,,,,,,,,,,
186383,1564151533793,1,2.43,0.93,0.37,1.35,1.06,0.94,-0.19,0.54,11,3,12,0.96,7848,15,91,44,34,877,418.0,605,466,60,124.0,124,1,295,175,52,0,0,410,-8151,3826,418,-5.59,,,,,,,,,,,,
186403,1564151533807,-2,2.43,0.92,0.37,1.36,1.05,1.03,-0.27,0.56,11,4,12,1.07,7805,15,91,44,34,876,419.0,601,464,60,124.0,124,1,295,101,52,0,0,411,1504,-8165,416,-5.59,,,,,,,,,,,,
186423,1564151533827,0,2.43,0.93,0.37,1.35,1.06,1.06,-0.27,0.57,11,2,14,1.1,7773,15,91,43,34,875,415.0,609,464,60,123.0,124,1,295,182,52,0,0,413,11545,-3856,415,-5.59,,,,,,,,,,,,
186443,1564151533847,1,2.42,0.92,0.37,1.36,1.05,1.01,-0.25,0.55,10,1,13,1.04,7780,15,91,43,34,874,416.0,594,465,60,124.0,124,1,295,182,52,0,0,409,6512,-3414,416,-5.59,44.680984,10.024985,41.66,174.0,0,0.0,-1,0.0,0.0,0,1.09,3.1074
186463,1564151533867,2,2.43,0.92,0.37,1.36,1.06,0.89,-0.26,0.49,10,1,13,0.92,7722,15,90,44,35,873,414.0,593,466,60,124.0,122,1,298,181,51,0,0,409,6512,3826,414,-5.59,,,,,,,,,,,,
186483,1564151533901,2,2.43,0.92,0.37,1.36,1.06,0.88,-0.26,0.43,10,2,14,0.92,7760,15,91,44,34,872,414.0,588,464,60,123.0,122,1,295,175,51,0,0,410,6384,7154,414,-5.59,,,,,,,,,,,,
186503,1564151533921,3,2.43,0.92,0.37,1.37,1.06,0.93,-0.25,0.47,11,2,14,0.97,7731,15,91,44,35,872,414.0,590,465,60,125.0,122,1,298,181,51,0,0,407,-3968,18584,412,-5.59,,,,,,,,,,,,
186523,1564151533941,-0,2.42,0.92,0.37,1.36,1.06,1.04,-0.28,0.51,11,2,12,1.08,7712,15,91,44,35,873,412.0,592,465,60,123.0,122,1,298,181,51,0,0,404,-32702,-3414,412,-5.59,,,,,,,,,,,,
186543,1564151533961,0,2.42,0.92,0.37,1.35,1.05,1.07,-0.29,0.56,10,1,13,1.11,7697,15,91,44,36,875,413.0,588,468,60,123.0,122,1,301,181,51,0,0,407,6384,-3414,413,-5.59,44.680973,10.024976,40.91,174.0,0,0.0,-1,0.0,0.0,0,1.09,3.1091
186563,1564151533981,1,2.43,0.93,0.37,1.36,1.05,1.06,-0.27,0.58,10,-1,14,1.09,7659,15,90,44,35,878,410.0,595,467,60,123.0,126,1,298,181,52,0,0,404,-3968,-21944,410,-5.59,,,,,,,,,,,,
186583,1564151534001,1,2.44,0.92,0.37,1.37,1.06,0.95,-0.26,0.54,10,-2,13,0.99,7693,15,90,44,35,880,410.0,590,467,60,122.0,126,1,298,181,52,0,0,403,-32702,7154,410,-5.59,,,,,,,,,,,,
186603,1564151534010,1,2.45,0.93,0.37,1.36,1.06,0.85,-0.22,0.44,10,-1,13,0.88,7649,15,91,44,35,884,411.0,598,463,60,124.0,126,1,298,181,52,0,0,404,-1818,2524,411,-5.59,,,,,,,,,,,,
186623,1564151534030,2,2.45,0.92,0.37,1.37,1.05,0.76,-0.23,0.39,11,0,14,0.8,7671,15,91,44,35,888,408.0,588,465,60,124.0,126,1,298,181,52,0,0,402,-1818,2524,409,-5.59,,,,,,,,,,,,
186643,1564151534050,3,2.47,0.92,0.37,1.36,1.06,0.71,-0.2,0.35,12,2,14,0.74,7621,15,91,44,36,891,409.0,597,465,60,123.0,126,1,301,187,52,0,0,402,505,-9166,408,-5.59,44.680965,10.024965,41.11,174.0,0,0.0,-1,0.0,0.0,0,1.09,3.1107
186663,1564151534070,3,2.49,0.93,0.37,1.37,1.06,0.72,-0.22,0.36,13,2,13,0.76,7653,15,91,44,36,893,409.0,588,466,60,123.0,131,1,301,181,54,0,0,400,-1562,-21944,409,-5.59,,,,,,,,,,,,
186683,1564151534104,3,2.5,0.92,0.37,1.36,1.06,0.75,-0.33,0.42,13,3,14,0.82,7618,15,90,44,36,895,409.0,591,465,60,123.0,131,1,301,181,54,0,0,399,-6524,2524,409,-5.59,,,,,,,,,,,,
186703,1564151534124,-0,2.49,0.93,0.37,1.37,1.06,0.86,-0.39,0.53,13,2,16,0.94,7637,15,91,44,36,897,411.0,587,467,60,122.0,131,1,301,187,54,0,0,399,-31744,7154,411,-5.59,,,,,,,,,,,,
186723,1564151534144,-0,2.5,0.92,0.38,1.36,1.06,0.97,-0.42,0.6,13,2,16,1.06,7584,15,91,44,36,899,410.0,580,465,60,123.0,131,1,301,187,54,0,0,394,-31744,-3414,410,-5.59,,,,,,,,,,,,
186743,1564151534164,-0,2.49,0.93,0.38,1.36,1.06,1.08,-0.45,0.62,14,2,16,1.17,7566,15,90,44,36,901,409.0,579,466,60,123.0,131,1,301,187,54,0,0,394,-3866,-8165,410,-5.59,44.680962,10.024954,39.93,174.0,0,0.0,-1,0.0,0.0,0,1.09,3.1124
186763,1564151534184,-1,2.5,0.92,0.38,1.36,1.06,1.11,-0.45,0.72,14,3,17,1.2,7563,15,90,44,36,903,408.0,577,467,60,122.0,129,1,301,187,53,0,0,397,-3866,-9166,407,-5.59,,,,,,,,,,,,
186783,1564151534198,-2,2.5,0.93,0.38,1.36,1.07,1.14,-0.45,0.76,14,2,18,1.23,7521,15,90,44,36,906,407.0,586,466,60,121.0,129,1,301,187,53,0,0,394,-19019,-21944,407,-5.59,,,,,,,,,,,,
186803,1564151534218,-1,2.51,0.92,0.38,1.36,1.06,1.15,-0.45,0.78,14,0,18,1.24,7557,15,90,44,36,910,407.0,577,465,60,122.0,129,1,301,187,53,0,0,391,-19126,-21944,407,-5.59,,,,,,,,,,,,
186823,1564151534238,-2,2.5,0.93,0.37,1.36,1.05,1.18,-0.46,0.77,14,-1,18,1.26,7491,15,91,44,36,912,406.0,579,465,60,121.0,129,1,301,187,53,0,0,393,-19019,-26615,406,-5.59,,,,,,,,,,,,
186843,1564151534258,-1,2.5,0.93,0.38,1.36,1.06,1.13,-0.45,0.78,14,-1,19,1.21,7524,15,90,44,36,915,405.0,581,464,60,122.0,129,1,301,187,53,0,0,393,19125,7154,405,-5.59,44.680954,10.024943,40.16,174.0,0,0.0,-1,0.0,0.0,0,1.09,3.114
186863,1564151534278,0,2.49,0.93,0.37,1.37,1.06,1.1,-0.4,0.79,14,-3,20,1.17,7479,15,90,44,36,919,404.0,587,466,60,122.0,130,1,301,186,53,0,0,391,19125,2524,404,-5.59,,,,,,,,,,,,
186883,1564151534291,-0,2.5,0.92,0.37,1.36,1.06,1.13,-0.41,0.82,14,-5,19,1.2,7491,15,90,44,36,924,405.0,580,463,60,122.0,130,1,301,192,53,0,0,389,-18948,2524,405,-5.59,,,,,,,,,,,,
186903,1564151534311,-0,2.5,0.92,0.37,1.37,1.06,1.19,-0.45,0.8,13,-5,19,1.27,7449,15,90,44,37,926,404.0,580,468,60,123.0,130,1,304,192,53,0,0,390,-992,11560,403,-5.59,,,,,,,,,,,,
186923,1564151534331,-1,2.5,0.92,0.37,1.36,1.06,1.22,-0.42,0.85,14,-5,20,1.29,7470,15,90,44,36,929,404.0,576,463,60,121.0,130,1,301,186,53,0,0,390,2278,-26615,405,-5.59,,,,,,,,,,,,
186943,1564151534351,-0,2.49,0.92,0.37,1.36,1.07,1.21,-0.44,0.9,14,-7,21,1.29,7428,15,90,44,37,935,402.0,582,467,60,122.0,130,1,304,192,53,0,0,390,2278,-26615,402,-5.59,44.680946,10.024932,39.83,174.0,0,0.0,-1,0.0,0.0,0,1.1,3.1157
186963,1564151534371,-2,2.5,0.93,0.37,1.36,1.06,1.26,-0.45,0.92,14,-9,20,1.34,7470,15,90,44,37,942,402.0,570,467,60,121.0,134,1,304,192,54,0,0,385,-6656,11560,402,-5.59,,,,,,,,,,,,
186983,1564151534406,-2,2.5,0.92,0.38,1.36,1.06,1.34,-0.48,0.94,14,-9,20,1.42,7443,15,90,44,37,946,401.0,574,466,60,122.0,134,1,304,192,54,0,0,386,-6656,13040,401,-5.59,,,,,,,,,,,,
187003,1564151534426,-1,2.49,0.93,0.37,1.37,1.06,1.4,-0.5,1.01,14,-8,22,1.48,7428,15,90,44,37,950,400.0,563,465,60,123.0,134,1,304,192,54,0,0,383,2278,9517,400,-5.59,,,,,,,,,,,,
187023,1564151534446,-1,2.5,0.92,0.38,1.36,1.06,1.46,-0.51,1.07,14,-8,23,1.55,7470,15,90,44,37,954,401.0,572,466,60,122.0,134,1,304,192,54,0,0,386,-6656,11560,401,-5.59,,,,,,,,,,,,
187043,1564151534466,-1,2.49,0.92,0.38,1.35,1.06,1.52,-0.53,1.12,14,-8,22,1.61,7425,15,90,44,37,959,401.0,566,466,60,122.0,134,1,304,192,54,0,0,386,770,9517,401,-5.59,44.680946,10.02492,39.45,173.9,0,0.0,-1,0.0,0.0,0,1.1,3.1174
187063,1564151534486,-1,2.49,0.93,0.38,1.35,1.06,1.56,-0.54,1.06,14,-6,23,1.65,7443,15,90,44,37,961,399.0,568,463,60,123.0,134,1,304,192,54,0,0,382,770,2524,399,-5.59,,,,,,,,,,,,
187083,1564151534498,3,2.49,0.93,0.38,1.36,1.07,1.55,-0.58,1.08,15,-4,24,1.66,7419,15,90,44,37,961,398.0,569,467,60,123.0,134,1,304,192,54,0,0,384,770,2524,398,-5.59,,,,,,,,,,,,
187103,1564151534518,3,2.5,0.92,0.38,1.36,1.06,1.57,-0.57,1.06,15,-3,25,1.67,7434,15,90,44,37,959,398.0,570,463,60,123.0,134,1,304,192,54,0,0,383,742,-9211,398,-5.59,,,,,,,,,,,,
187123,1564151534538,2,2.5,0.92,0.38,1.36,1.06,1.54,-0.53,1.0,16,-1,23,1.62,7411,15,90,44,37,956,396.0,572,466,60,123.0,134,1,304,192,54,0,0,384,-6656,-8151,398,-5.59,,,,,,,,,,,,
187143,1564151534558,3,2.49,0.93,0.38,1.36,1.06,1.44,-0.54,0.91,17,1,22,1.54,7425,15,90,44,37,953,396.0,570,465,60,124.0,134,1,304,192,54,0,0,382,-6656,11545,396,-5.59,44.680939,10.024908,39.13,173.9,0,0.0,-1,0.0,0.0,0,1.1,3.1191
187163,1564151534578,1,2.5,0.93,0.38,1.37,1.06,1.31,-0.56,0.8,17,2,25,1.42,7364,15,90,44,37,950,396.0,575,466,60,123.0,133,1,304,192,53,0,0,382,1,10541,396,-5.59,,,,,,,,,,,,
187183,1564151534598,1,2.49,0.93,0.38,1.36,1.06,1.15,-0.5,0.67,17,2,25,1.25,7376,15,90,44,37,946,395.0,569,463,60,123.0,133,1,304,192,53,0,0,380,1,-9211,396,-5.59,,,,,,,,,,,,
187203,1564151534610,1,2.49,0.93,0.37,1.36,1.06,0.99,-0.45,0.52,18,3,23,1.09,7315,15,90,44,37,942,394.0,575,463,60,121.0,133,1,304,197,53,0,0,380,1,11545,394,-5.59,,,,,,,,,,,,
187223,1564151534630,1,2.49,0.93,0.37,1.37,1.06,0.85,-0.45,0.44,18,-0,22,0.96,7327,15,90,44,37,940,394.0,564,463,60,122.0,133,1,304,197,53,0,0,377,257,-32702,394,-5.59,,,,,,,,,,,,
187243,1564151534650,-0,2.49,0.93,0.37,1.37,1.06,0.87,-0.46,0.41,17,-1,22,0.99,7290,15,90,44,38,939,394.0,568,465,60,121.0,133,1,307,197,53,0,0,378,257,-9211,394,-5.59,44.680935,10.024896,38.8,173.9,0,0.0,-1,0.0,0.0,0,1.1,3.1207
187263,1564151534670,-0,2.5,0.93,0.37,1.36,1.06,0.92,-0.43,0.52,17,-2,23,1.02,7295,15,90,44,38,939,394.0,558,467,60,122.0,137,1,307,197,54,0,0,379,486,10541,394,-5.59,,,,,,,,,,,,
187283,1564151534706,2,2.49,0.93,0.37,1.36,1.06,1.03,-0.46,0.62,17,-3,23,1.13,7278,14,90,44,38,939,395.0,559,466,60,123.0,137,1,307,197,54,0,0,380,-6656,-8151,395,-5.59,,,,,,,,,,,,
187303,1564151534726,3,2.49,0.93,0.37,1.36,1.06,1.12,-0.43,0.66,17,-1,23,1.2,7247,14,90,44,38,940,392.0,555,461,60,124.0,137,1,307,197,54,0,0,379,486,28696,392,-5.59,,,,,,,,,,,,
187323,1564151534746,2,2.49,0.92,0.37,1.36,1.06,1.04,-0.44,0.56,18,-0,23,1.13,7239,15,90,44,38,941,393.0,559,465,60,124.0,137,1,307,197,54,0,0,377,-6656,11545,393,-5.59,,,,,,,,,,,,
187343,1564151534766,1,2.5,0.93,0.37,1.37,1.06,0.95,-0.42,0.49,17,1,23,1.04,7205,14,90,44,39,945,392.0,563,465,60,121.0,137,1,310,203,54,0,0,378,-6656,28696,392,-5.59,44.680927,10.024883,38.68,173.9,0,0.0,-1,0.0,0.0,0,1.1,3.1224
187363,1564151534786,-1,2.5,0.92,0.38,1.36,1.06,0.87,-0.39,0.5,18,1,23,0.95,7217,14,90,44,38,952,392.0,556,466,60,122.0,134,1,307,203,53,0,0,376,0,6512,392,-5.59,,,,,,,,,,,,
187383,1564151534796,0,2.5,0.92,0.37,1.37,1.06,0.94,-0.41,0.58,17,-2,23,1.03,7214,14,90,44,39,957,392.0,556,466,60,123.0,134,1,310,203,53,0,0,375,0,-32702,392,-5.59,,,,,,,,,,,,
187403,1564151534816,1,2.51,0.93,0.37,1.37,1.06,1.05,-0.4,0.6,17,-1,23,1.13,7170,14,90,44,39,961,391.0,554,463,60,122.0,134,1,310,203,53,0,0,374,0,11545,391,-5.59,,,,,,,,,,,,
187423,1564151534836,2,2.49,0.93,0.37,1.37,1.06,0.98,-0.42,0.49,18,1,23,1.07,7214,14,90,44,39,966,391.0,556,465,60,124.0,134,1,310,203,53,0,0,373,230,11545,391,-5.59,,,,,,,,,,,,
187443,1564151534856,0,2.51,0.92,0.38,1.36,1.07,0.83,-0.39,0.44,18,1,23,0.92,7178,14,90,44,39,970,388.0,563,464,60,121.0,134,1,310,203,53,0,0,374,230,-1818,388,-5.59,44.680923,10.024871,38.42,173.8,0,0.0,-1,0.0,0.0,0,1.1,3.124
187463,1564151534876,-0,2.51,0.92,0.37,1.36,1.06,0.78,-0.36,0.46,18,-0,23,0.85,7194,14,90,44,39,973,389.0,553,463,60,122.0,140,1,310,130,55,0,0,372,230,-32702,389,-5.59,,,,,,,,,,,,
187483,1564151534892,0,2.5,0.93,0.37,1.36,1.06,0.84,-0.38,0.55,17,-3,24,0.92,7222,14,90,44,39,973,389.0,557,466,60,123.0,140,1,310,203,55,0,0,373,230,17144,389,-5.59,,,,,,,,,,,,
187503,1564151534912,1,2.5,0.92,0.38,1.36,1.07,0.96,-0.38,0.6,17,-2,23,1.04,7183,14,90,44,39,972,388.0,556,463,60,123.0,140,1,310,203,55,0,0,372,-6405,-6524,388,-5.59,,,,,,,,,,,,
187523,1564151534932,1,2.5,0.92,0.38,1.36,1.06,0.88,-0.4,0.54,18,0,23,0.97,7200,14,90,44,39,970,388.0,555,464,60,123.0,140,1,310,203,55,0,0,373,-1268,-1818,388,-5.59,,,,,,,,,,,,
187543,1564151534952,1,2.49,0.92,0.37,1.36,1.07,0.76,-0.37,0.45,18,1,23,0.84,7189,14,90,44,39,968,386.0,559,463,60,122.0,140,1,310,203,55,0,0,371,-1268,28696,386,-5.59,44.680923,10.024858,38.09,173.8,0,0.0,-1,0.0,0.0,0,1.1,3.1257
187563,1564151534972,-1,2.5,0.92,0.38,1.36,1.07,0.69,-0.32,0.48,18,0,23,0.76,7175,14,90,44,39,965,385.0,553,467,60,121.0,141,1,310,203,55,0,0,372,-1268,17144,385,-5.59,,,,,,,,,,,,
187583,1564151535001,3,2.49,0.93,0.37,1.37,1.06,0.77,-0.36,0.56,18,-2,23,0.85,7175,14,90,44,39,962,387.0,550,465,60,122.0,141,1,310,203,55,0,0,371,3082,-1818,387,-5.59,,,,,,,,,,,,
187603,1564151535021,2,2.49,0.93,0.37,1.36,1.06,0.88,-0.36,0.55,18,-0,22,0.95,7134,14,90,44,39,958,386.0,556,462,60,123.0,141,1,310,203,55,0,0,373,2790,-1818,386,-5.59,,,,,,,,,,,,
187623,1564151535041,0,2.49,0.93,0.37,1.37,1.06,0.78,-0.38,0.45,18,0,22,0.87,7142,14,90,44,39,954,385.0,552,467,60,121.0,141,1,310,203,55,0,0,372,3082,-6656,385,-5.59,,,,,,,,,,,,
187643,1564151535061,-1,2.48,0.93,0.37,1.36,1.06,0.75,-0.4,0.41,18,-1,23,0.85,7096,14,90,44,39,953,386.0,551,463,60,122.0,141,1,310,203,55,0,0,371,-6458,17144,386,-5.59,44.680923,10.024845,37.81,173.8,0,0.0,-1,0.0,0.0,0,1.1,3.1274
187663,1564151535081,2,2.47,0.93,0.38,1.36,1.06,0.78,-0.42,0.55,18,-1,23,0.89,7088,14,90,44,39,951,384.0,543,467,60,122.0,139,1,310,203,54,0,0,368,2790,1,384,-5.59,,,,,,,,,,,,
187683,1564151535096,2,2.46,0.92,0.37,1.36,1.07,0.85,-0.4,0.52,18,-1,24,0.94,7102,14,90,44,39,949,383.0,548,463,60,124.0,139,1,310,203,54,0,0,371,3082,-6524,383,-5.59,,,,,,,,,,,,
187703,1564151535116,-1,2.45,0.92,0.38,1.37,1.07,0.77,-0.33,0.41,18,0,22,0.84,7078,14,90,44,39,947,382.0,556,461,60,122.0,139,1,310,203,54,0,0,369,3082,-1562,384,-5.59,,,,,,,,,,,,
187723,1564151535136,-0,2.43,0.92,0.37,1.37,1.06,0.74,-0.37,0.43,17,-1,21,0.83,7080,14,90,44,40,947,382.0,546,465,60,122.0,139,1,317,203,54,0,0,372,-6405,505,382,-5.59,,,,,,,,,,,,
187743,1564151535156,3,2.41,0.93,0.37,1.35,1.06,0.87,-0.35,0.49,16,-0,21,0.94,7104,14,90,44,39,946,382.0,551,463,60,123.0,139,1,310,203,54,0,0,372,3082,-3866,382,-5.59,44.68092,10.024832,37.78,173.8,0,0.0,-1,0.0,0.0,0,1.1,3.1291
187763,1564151535176,1,2.39,0.92,0.37,1.36,1.06,0.84,-0.33,0.41,16,2,22,0.9,7070,14,90,44,39,947,380.0,553,462,60,124.0,142,1,310,203,54,0,0,374,2790,-3866,379,-5.59,,,,,,,,,,,,
187783,1564151535196,-0,2.38,0.92,0.37,1.37,1.06,0.76,-0.26,0.37,15,4,21,0.8,7091,14,90,44,39,947,379.0,552,465,60,122.0,142,1,310,204,54,0,0,374,3082,-3866,378,-5.59,,,,,,,,,,,,
187803,1564151535207,0,2.37,0.93,0.37,1.37,1.06,0.77,-0.25,0.4,14,-0,20,0.81,7070,14,90,44,40,948,377.0,553,466,60,123.0,142,1,317,203,54,0,0,376,-1268,19125,377,-5.59,,,,,,,,,,,,
187823,1564151535227,1,2.35,0.92,0.37,1.36,1.05,0.86,-0.18,0.47,13,-0,19,0.88,7064,14,90,44,39,948,374.0,547,459,60,123.0,142,1,310,203,54,0,0,373,230,-992,374,-5.59,,,,,,,,,,,,
187843,1564151535247,-1,2.34,0.92,0.37,1.35,1.06,0.74,-0.15,0.38,12,1,18,0.76,7091,14,90,44,39,948,373.0,551,464,60,124.0,142,1,310,203,54,0,0,374,0,19125,373,-5.59,44.680916,10.024819,37.52,173.7,0,0.0,-1,0.0,0.0,0,1.1,3.1307
187863,1564151535267,-1,2.32,0.91,0.37,1.36,1.05,0.77,-0.15,0.39,10,-0,17,0.78,7040,14,90,44,40,949,372.0,551,464,60,123.0,145,1,317,203,54,0,0,375,0,-992,372,-5.59,,,,,,,,,,,,
187883,1564151535305,3,2.29,0.9,0.37,1.34,1.06,0.84,-0.2,0.54,9,0,15,0.86,7033,14,90,44,39,948,370.0,544,461,60,125.0,145,1,310,203,54,0,0,378,0,-992,370,-5.59,,,,,,,,,,,,
187903,1564151535325,1,2.27,0.9,0.36,1.34,1.04,0.89,-0.11,0.5,8,1,14,0.89,7043,14,90,44,39,947,371.0,545,462,60,125.0,145,1,310,203,54,0,0,377,486,3,371,-5.59,,,,,,,,,,,,
187923,1564151535345,-1,2.26,0.88,0.36,1.33,1.05,0.78,-0.02,0.46,7,0,11,0.78,7006,14,90,44,40,947,368.0,558,460,60,122.0,145,1,317,204,54,0,0,378,0,742,366,-5.59,,,,,,,,,,,,
187943,1564151535365,3,2.24,0.88,0.36,1.32,1.04,0.89,-0.05,0.53,4,-0,10,0.9,7009,14,90,44,40,946,370.0,544,462,60,123.0,145,1,317,204,54,0,0,380,486,-6656,364,-5.59,44.680916,10.024807,37.05,173.7,0,0.0,-1,0.0,0.0,0,1.11,3.1324
187963,1564151535385,2,2.22,0.87,0.35,1.32,1.04,0.89,-0.02,0.52,3,1,8,0.89,7009,14,90,44,40,945,370.0,546,465,60,125.0,148,1,317,204,54,0,0,379,1,486,362,-5.59,,,,,,,,,,,,
187983,1564151535395,-2,2.22,0.87,0.35,1.31,1.04,0.86,0.06,0.49,2,0,6,0.86,6980,14,89,44,40,945,373.0,551,466,60,122.0,148,1,317,204,54,0,0,379,1,0,360,-5.59,,,,,,,,,,,,
188003,1564151535415,2,2.2,0.86,0.35,1.31,1.03,0.9,0.05,0.64,-0,-1,5,0.9,6972,14,90,44,40,947,372.0,542,466,60,123.0,148,1,317,204,54,0,0,383,1,-6656,360,-5.59,,,,,,,,,,,,
188023,1564151535435,-0,2.19,0.86,0.35,1.31,1.02,0.95,0.12,0.57,-1,0,2,0.96,6996,14,90,44,40,948,373.0,548,462,60,125.0,148,1,317,204,54,0,0,382,-6656,3082,359,-5.59,,,,,,,,,,,,
188043,1564151535455,-1,2.18,0.85,0.34,1.3,1.02,0.85,0.22,0.54,-2,0,0,0.87,6965,14,89,44,40,950,373.0,554,463,60,122.0,148,1,317,204,54,0,0,382,-6656,0,357,-5.59,44.680916,10.024794,36.9,173.7,0,0.0,-1,0.0,0.0,0,1.11,3.134
188063,1564151535475,3,2.16,0.85,0.34,1.31,1.02,0.95,0.18,0.58,-4,-1,-1,0.96,6941,14,90,44,40,951,374.0,543,465,60,123.0,148,1,317,204,53,0,0,382,742,0,356,-5.59,,,,,,,,,,,,
188083,1564151535495,1,2.16,0.84,0.34,1.3,1.02,0.89,0.26,0.54,-5,-0,-3,0.93,6983,14,89,44,40,950,372.0,548,465,60,123.0,148,1,317,204,53,0,0,378,1,-1268,358,-5.59,,,,,,,,,,,,
188103,1564151535509,-1,2.15,0.85,0.34,1.31,1.02,0.87,0.31,0.53,-6,-1,-5,0.92,6980,14,90,44,40,948,372.0,547,465,60,123.0,148,1,317,204,53,0,0,382,1,3082,355,-5.59,,,,,,,,,,,,
188123,1564151535529,3,2.14,0.85,0.34,1.31,1.02,0.9,0.25,0.62,-7,-1,-6,0.93,6954,14,89,44,40,945,373.0,544,465,60,123.0,148,1,317,204,53,0,0,380,-6656,-14707,354,-5.59,,,,,,,,,,,,
188143,1564151535549,1,2.14,0.85,0.34,1.31,1.02,0.9,0.34,0.57,-8,0,-9,0.96,6975,14,89,44,40,941,375.0,543,463,60,124.0,148,1,317,204,53,0,0,384,-6656,2790,353,-5.59,44.680912,10.024781,36.46,173.7,0,0.0,-1,0.0,0.0,0,1.11,3.1357
188163,1564151535569,-0,2.14,0.85,0.34,1.3,1.02,0.83,0.3,0.59,-9,-1,-10,0.89,6970,14,90,44,40,939,373.0,549,465,60,123.0,153,1,317,204,54,0,0,382,-6656,4104,353,-5.59,,,,,,,,,,,,
188183,1564151535603,0,2.15,0.85,0.34,1.3,1.02,0.93,0.33,0.58,-9,-1,-11,0.99,6965,14,90,44,40,937,373.0,540,462,60,124.0,153,1,317,204,54,0,0,382,-6656,-6640,352,-5.59,,,,,,,,,,,,
188203,1564151535623,-1,2.15,0.85,0.34,1.3,1.02,0.86,0.42,0.51,-10,1,-12,0.96,6975,14,89,44,40,937,372.0,543,466,60,124.0,153,1,317,204,54,0,0,383,1,2790,352,-5.59,,,,,,,,,,,,
188223,1564151535643,3,2.14,0.85,0.34,1.3,1.02,0.89,0.4,0.54,-11,-0,-14,0.98,6947,14,89,44,40,939,371.0,546,468,60,123.0,153,1,317,204,54,0,0,382,257,-14707,351,-5.59,,,,,,,,,,,,
188243,1564151535663,1,2.14,0.84,0.34,1.31,1.01,0.9,0.37,0.54,-11,-0,-14,0.97,6923,14,89,44,40,940,370.0,548,458,60,124.0,153,1,317,204,54,0,0,379,486,-6640,350,-5.59,44.680912,10.024768,36.48,173.6,0,0.0,-1,0.0,0.0,0,1.11,3.1374
188263,1564151535683,-0,2.14,0.84,0.34,1.31,1.02,0.82,0.47,0.53,-12,0,-16,0.95,6975,14,89,44,40,940,371.0,539,468,60,123.0,150,1,317,204,53,0,0,381,257,-6640,350,-5.59,,,,,,,,,,,,
188283,1564151535695,3,2.14,0.85,0.34,1.3,1.02,0.83,0.38,0.6,-13,-2,-16,0.92,6972,14,89,44,40,939,372.0,551,460,60,124.0,150,1,317,204,53,0,0,380,1,-29978,348,-5.59,,,,,,,,,,,,
188303,1564151535715,-0,2.14,0.85,0.34,1.3,1.02,0.84,0.5,0.54,-13,-0,-17,0.98,6952,13,89,44,40,937,372.0,549,463,60,125.0,150,1,317,204,53,0,0,378,257,-6640,349,-5.59,,,,,,,,,,,,
188323,1564151535735,-0,2.14,0.85,0.34,1.31,1.02,0.77,0.53,0.49,-14,-1,-17,0.93,6975,14,89,44,40,935,370.0,547,465,60,122.0,150,1,317,204,53,0,0,378,486,3183,348,-5.59,,,,,,,,,,,,
188343,1564151535755,3,2.14,0.85,0.34,1.3,1.02,0.82,0.54,0.58,-14,-2,-18,0.98,6952,13,89,44,40,933,370.0,546,460,60,124.0,150,1,317,204,53,0,0,380,486,2060,348,-5.59,44.680908,10.024755,36.0,173.6,0,0.0,-1,0.0,0.0,0,1.11,3.1391
188363,1564151535775,0,2.13,0.85,0.34,1.31,1.01,0.81,0.64,0.5,-14,-0,-18,1.03,6916,13,89,44,40,931,369.0,544,460,60,124.0,152,1,317,204,53,0,0,377,-6656,2060,348,-5.59,,,,,,,,,,,,
188383,1564151535795,-2,2.14,0.85,0.34,1.3,1.02,0.79,0.67,0.52,-14,-1,-19,1.04,6913,13,89,44,40,931,369.0,537,461,60,123.0,152,1,317,204,53,0,0,377,-6656,2060,346,-5.59,,,,,,,,,,,,
188403,1564151535807,2,2.14,0.85,0.34,1.31,1.01,0.89,0.62,0.51,-15,-2,-20,1.08,6936,13,89,44,40,930,367.0,538,457,60,124.0,152,1,317,204,53,0,0,374,0,2060,347,-5.59,,,,,,,,,,,,
188423,1564151535827,-1,2.13,0.85,0.34,1.31,1.01,0.82,0.68,0.49,-14,-1,-22,1.07,6898,13,89,44,40,928,367.0,542,461,60,123.0,152,1,317,204,53,0,0,374,0,3302,346,-5.59,,,,,,,,,,,,
188443,1564151535847,3,2.14,0.85,0.34,1.31,1.01,0.91,0.57,0.52,-16,-3,-21,1.08,6895,13,89,44,40,926,366.0,539,453,60,124.0,152,1,317,204,53,0,0,375,230,3302,345,-5.59,44.680904,10.024743,35.62,173.6,0,0.0,-1,0.0,0.0,0,1.11,3.1407
188463,1564151535867,0,2.14,0.85,0.34,1.31,1.02,0.89,0.57,0.5,-15,-1,-21,1.06,6911,13,89,44,40,925,367.0,539,446,60,125.0,153,1,317,204,53,0,0,376,0,-30454,345,-5.59,,,,,,,,,,,,
188483,1564151535903,-0,2.14,0.85,0.34,1.3,1.02,0.84,0.56,0.48,-16,-3,-21,1.0,6913,13,89,44,40,923,366.0,541,439,60,124.0,153,1,317,204,53,0,0,373,230,3183,344,-5.59,,,,,,,,,,,,
188503,1564151535923,2,2.14,0.85,0.34,1.31,1.02,0.89,0.46,0.52,-16,-3,-21,1.0,6903,13,89,44,40,921,365.0,542,405,60,125.0,153,1,317,204,53,0,0,371,-6405,2811,344,-5.59,,,,,,,,,,,,
188523,1564151535943,-1,2.15,0.85,0.34,1.3,1.03,0.84,0.57,0.47,-16,-0,-22,1.02,6908,13,89,44,40,919,366.0,538,442,60,123.0,153,1,317,204,53,0,0,375,-6405,-6644,343,-5.59,,,,,,,,,,,,
188543,1564151535963,3,2.14,0.85,0.34,1.31,1.02,0.83,0.5,0.54,-16,-1,-22,0.97,6906,13,89,44,40,919,366.0,538,460,60,125.0,153,1,317,204,53,0,0,371,230,28553,343,-5.59,44.680904,10.024732,35.47,173.7,0,0.0,-1,0.0,0.0,0,1.11,3.1424
188563,1564151535983,1,2.15,0.85,0.34,1.31,1.03,0.85,0.57,0.5,-16,1,-22,1.02,6870,13,89,44,40,918,362.0,547,453,60,125.0,154,1,317,204,53,0,0,371,2790,2060,344,-5.59,,,,,,,,,,,,
188583,1564151536003,-1,2.16,0.85,0.34,1.31,1.02,0.81,0.55,0.5,-17,-1,-22,0.98,6875,13,89,44,40,918,363.0,538,460,60,123.0,154,1,317,204,53,0,0,372,3082,28553,344,-5.59,,,,,,,,,,,,
188603,1564151536010,1,2.15,0.86,0.34,1.31,1.02,0.85,0.51,0.56,-17,-1,-22,0.99,6838,13,89,44,40,917,363.0,535,440,60,125.0,154,1,317,204,53,0,0,371,3082,-30454,343,-5.59,,,,,,,,,,,,
188623,1564151536030,-0,2.16,0.85,0.34,1.31,1.03,0.84,0.52,0.56,-17,0,-22,0.99,6795,13,89,44,40,918,364.0,540,426,60,122.0,154,1,317,204,53,0,0,370,-1268,-30454,343,-5.59,,,,,,,,,,,,
188643,1564151536050,2,2.16,0.86,0.34,1.32,1.02,0.91,0.43,0.62,-17,-0,-22,1.01,6786,13,89,44,40,917,364.0,529,445,60,124.0,154,1,317,204,53,0,0,369,-1268,-1246,344,-5.59,44.680904,10.02472,35.09,173.7,0,0.0,-1,0.0,0.0,0,1.11,3.1441
188663,1564151536070,-0,2.15,0.85,0.34,1.31,1.02,0.86,0.54,0.54,-16,2,-23,1.02,6771,13,89,44,40,922,364.0,533,455,60,123.0,151,1,317,206,52,0,0,373,-1268,3183,342,-5.59,,,,,,,,,,,,
188683,1564151536106,2,2.16,0.85,0.34,1.31,1.02,0.92,0.51,0.58,-16,0,-22,1.05,6754,13,89,44,40,926,363.0,528,460,60,125.0,151,1,317,204,52,0,0,374,3082,3183,342,-5.59,,,,,,,,,,,,
188703,1564151536126,-1,2.16,0.85,0.34,1.31,1.02,0.82,0.57,0.58,-16,2,-24,1.0,6684,13,89,44,41,931,362.0,529,462,60,124.0,151,1,324,206,52,0,0,370,2790,3183,342,-5.59,,,,,,,,,,,,
188723,1564151536146,0,2.18,0.85,0.34,1.31,1.03,0.88,0.49,0.52,-16,2,-23,1.01,6656,12,89,44,41,935,360.0,523,455,60,125.0,151,1,324,206,52,0,0,367,-14707,28553,341,-5.59,,,,,,,,,,,,
188743,1564151536166,1,2.18,0.85,0.34,1.31,1.03,0.83,0.49,0.53,-16,1,-22,0.97,6644,12,89,44,41,939,360.0,527,460,60,123.0,151,1,324,206,52,0,0,369,-29302,28553,340,-5.59,44.680901,10.024708,34.83,173.7,0,0.0,-1,0.0,0.0,0,1.11,3.1457
188763,1564151536186,2,2.19,0.86,0.34,1.32,1.02,0.88,0.42,0.55,-16,-0,-22,0.98,6618,12,89,44,41,944,360.0,525,445,60,123.0,149,1,324,206,51,0,0,367,-14707,-30454,339,-5.59,,,,,,,,,,,,
188783,1564151536196,4,2.21,0.86,0.34,1.32,1.02,0.81,0.45,0.58,-16,-1,-22,0.93,6616,12,89,44,41,945,359.0,521,460,60,124.0,149,1,324,206,51,0,0,365,-29302,2811,341,-5.59,,,,,,,,,,,,
188803,1564151536216,-1,2.22,0.86,0.34,1.31,1.02,0.86,0.51,0.54,-15,0,-21,1.0,6565,12,89,44,42,946,358.0,523,466,60,124.0,149,1,330,207,51,0,0,364,-29978,-30454,341,-5.59,,,,,,,,,,,,
188823,1564151536236,2,2.22,0.86,0.34,1.32,1.03,0.84,0.37,0.55,-15,-2,-20,0.91,6553,12,89,44,41,945,356.0,520,457,60,124.0,149,1,323,206,51,0,0,362,2060,-30438,343,-5.59,,,,,,,,,,,,
188843,1564151536256,4,2.24,0.85,0.34,1.32,1.02,0.76,0.44,0.56,-13,-1,-20,0.88,6535,12,89,44,41,947,355.0,519,462,60,124.0,149,1,323,206,51,0,0,366,2060,-10554,342,-5.59,44.680893,10.024697,34.94,173.7,0,0.0,-1,0.0,0.0,0,1.11,3.1474
188863,1564151536276,1,2.25,0.86,0.34,1.32,1.02,0.86,0.46,0.47,-12,1,-19,0.97,6549,12,89,44,41,947,354.0,519,456,60,124.0,149,1,323,207,51,0,0,361,3302,-30454,343,-5.59,,,,,,,,,,,,
188883,1564151536296,4,2.26,0.86,0.35,1.31,1.03,0.86,0.38,0.49,-12,-3,-18,0.94,6549,11,89,44,41,946,352.0,514,462,60,125.0,149,1,323,207,51,0,0,359,28553,28553,343,-5.59,,,,,,,,,,,,
188903,1564151536310,2,2.28,0.87,0.35,1.32,1.03,0.8,0.34,0.52,-11,-2,-19,0.87,6539,11,89,44,42,947,349.0,520,462,60,123.0,149,1,330,207,51,0,0,357,2811,-1246,343,-5.59,,,,,,,,,,,,
188923,1564151536330,2,2.29,0.87,0.35,1.33,1.03,0.87,0.35,0.4,-10,-1,-18,0.94,6533,11,89,44,41,945,346.0,515,461,60,125.0,149,1,323,206,51,0,0,357,-30438,-30454,342,-5.59,,,,,,,,,,,,
