"Interval"|"ms"|0|0|1,"Utc"|"ms"|0|0|1,"Brake_F"|"Bar"|0|2000|10,"Brake_R"|"Bar"|0|2000|10,"Height_RF"|"mm"|0|255|50,"Height_LF"|"mm"|0|255|50,"Height_LR"|"mm"|0|80|50,"Height_RR"|"mm"|0|255|50,"Steering"|"deg"|-100|100|10,"AccelX"|"G"|-3.0|3.0|50,"AccelY"|"G"|-3.0|3.0|50,"AccelZ"|"G"|-3.0|3.0|50,"Yaw"|"Deg/Sec"|-120|120|50,"Pitch"|"Deg/Sec"|-120|120|50,"Roll"|"Deg/Sec"|-120|120|50,"Gsum"|"G"|0.0|3.0|50,"Log_Button"|""|0.0|10.0|10,"WaterTemp"|"C"|0|150|50,"RPM"|"tr/min"|0|14000|50,"TPS"|"%"|0|100|50,"AirTemp"|"C"|0|150|50,"MAP"|"KPa"|0|100|50,"Lambda"|""|0.5|1.5|50,"SpeedDTA"|"kph"|0.0|250.0|50,"OilPress"|"KPa"|0|1500|50,"FuelPressur"|"Bar"|0.0|10.0|50,"Batterie"|"V"|0.0|20.0|50,"ConsoKm"|"L/100km"|0.0|200.0|50,"Gear"|""|0|6|50,"AdvIgnition"|"Deg"|-20.0|70.0|50,"Injection"|"ms"|0.0|10.0|50,"ConsoHr"|"L/Hr"|0.0|10000.0|50,"LC_But_Pres"|""|0|1|50,"LC_Active"|""|0|1|50,"TractionOn"|""|0|1|50,"TractionWet"|""|0|1|50,"FanOn"|""|0|1|50,"RD_Speed"|"km/h"|-30|250|10,"RUD_Speed"|"km/h"|-30|250|10,"LD_Speed"|"km/h"|-30|250|10,"LUD_Speed"|"km/h"|-30|250|10,"Latitude"|"Degrees"|-180.0|180.0|10,"Longitude"|"Degrees"|-180.0|180.0|10,"Speed"|"kph"|0.0|150.0|10,"Altitude"|"m"|0.0|4000.0|10,"GPSSats"|""|0|20|10,"GPSQual"|""|0|5|10,"GPSDOP"|""|0.0|20.0|10,"LapCount"|""|0|0|10,"LapTime"|"Min"|0.0|0.0|10,"Sector"|""|0|0|10,"SectorTime"|"Min"|0.0|0.0|10,"PredTime"|"Min"|0.0|0.0|5,"ElapsedTime"|"Min"|0.0|0.0|10,"CurrentLap"|""|0|0|10,"Distance"|"km"|0.0|0.0|10,"SessionTime"|"Min"|0.0|0.0|10
665063,1626525712848,,,250,251,237,232,,0.0,0.01,-3.03,0,1,1,0.01,,82,2268,7,31,87,0.865,0.0,215,4.7,13.3,0.0,1,0.0,3.12,3.2,0,0,0,1,0,,,,,,,,,,,,,,,,,,,,
665083,1626525712868,,,250,251,237,232,,0.01,0.01,-3.03,0,0,1,0.02,,82,2238,7,31,87,0.864,0.0,217,4.77,13.5,0.0,1,0.0,3.12,3.2,0,0,0,1,0,,,,,,,,,,,,,,,,,,,,
665103,1626525712888,,,250,251,237,232,,0.01,0.01,-3.05,0,0,1,0.01,,82,2211,7,31,87,0.863,0.0,221,4.73,13.3,0.0,1,0.0,2.02,3.2,0,0,0,1,0,,,,,,,,,,,,,,,,,,,,
665123,1626525712908,,,250,251,237,232,,0.01,0.01,-3.03,0,0,0,0.02,,82,2214,7,31,88,0.862,0.0,216,4.77,13.5,0.0,1,0.0,3.12,3.2,0,0,0,1,0,,,,,,,,,,,,,,,,,,,,
665143,1626525712928,0,1,250,251,237,232,5,0.01,0.01,-3.04,0,1,1,0.01,1,82,2240,7,31,87,0.861,0.0,219,4.73,13.4,0.0,1,0.0,2.02,3.2,0,0,0,1,0,0,250,250,0,45.700291,4.909502,0.0,192.5,9,3,1.8,3,0.505,0,0.0,,3.4833,4,0.07,11.0857
665163,1626525712948,,,250,251,237,232,,0.01,0.0,-3.06,0,1,0,0.01,,82,2236,7,31,88,0.86,0.0,223,4.76,13.5,0.0,1,0.0,3.12,3.2,0,0,0,1,0,,,,,,,,,,,,,,,,,,,,
665183,1626525712968,,,250,251,237,231,,0.01,0.01,-3.04,0,1,0,0.01,,82,2224,7,31,87,0.859,0.0,216,4.8,13.5,0.0,1,0.0,3.12,3.2,0,0,0,1,0,,,,,,,,,,,,,,,,,,,,
665203,1626525712988,,,250,251,237,231,,0.01,0.01,-3.04,0,1,1,0.02,,82,2220,7,31,88,0.858,0.0,217,4.75,13.5,0.0,1,0.0,3.14,3.2,0,0,0,1,0,,,,,,,,,,,,,,,,,,,,
665223,1626525713002,,,250,251,237,232,,0.0,0.02,-3.04,0,1,0,0.02,,82,2205,7,31,87,0.857,0.0,220,4.82,13.5,0.0,1,0.0,3.12,3.2,0,0,0,1,0,,,,,,,,,,,,,,,,,,,,
665243,1626525713022,0,2,250,251,237,232,4,0.01,0.02,-3.05,0,1,0,0.02,0,82,2213,7,31,87,0.856,0.0,217,4.75,13.5,0.0,1,0.0,3.12,3.2,0,0,0,1,0,0,250,250,0,45.700291,4.909502,0.0,192.5,9,3,1.8,3,0.505,0,0.0,0.4512,3.485,4,0.07,11.0874
665263,1626525713042,,,250,251,237,232,,-0.0,0.03,-3.02,0,1,0,0.03,,82,2215,7,31,88,0.856,0.0,216,4.77,13.5,0.0,1,-0.3,3.14,3.2,0,0,0,1,0,,,,,,,,,,,,,,,,,,,,
665283,1626525713062,,,250,251,237,232,,0.0,0.02,-3.03,0,1,0,0.02,,82,2235,7,31,88,0.855,0.0,217,4.74,13.5,0.0,1,-0.3,3.12,3.2,0,0,0,1,0,,,,,,,,,,,,,,,,,,,,
665303,1626525713082,,,250,251,237,232,,-0.01,0.02,-3.0,0,1,0,0.02,,82,2242,7,31,88,0.856,0.0,221,4.75,13.5,0.0,1,-0.3,3.14,3.2,0,0,0,1,0,,,,,,,,,,,,,,,,,,,,
665323,1626525713110,,,250,251,237,232,,-0.0,0.02,-3.0,0,0,0,0.02,,82,2203,7,31,87,0.856,0.0,213,4.78,13.4,0.0,1,-0.3,3.12,3.2,0,0,0,1,0,,,,,,,,,,,,,,,,,,,,
665343,1626525713130,0,1,250,251,237,232,5,-0.01,0.01,-2.95,0,0,0,0.01,0,82,2177,7,31,88,0.857,0.0,212,4.75,13.5,0.0,1,-0.3,3.14,3.2,0,0,0,1,0,0,250,250,0,45.700291,4.909502,0.0,192.5,9,3,1.8,3,0.505,0,0.0,,3.4867,4,0.07,11.0891
665363,1626525713150,,,250,251,237,232,,-0.0,0.01,-2.98,0,-0,0,0.01,,82,2167,7,31,87,0.856,0.0,215,4.8,13.2,0.0,1,-0.3,3.12,3.1,0,0,0,1,0,,,,,,,,,,,,,,,,,,,,
665383,1626525713170,,,250,251,237,232,,-0.0,0.01,-2.97,0,0,0,0.01,,82,2171,7,31,88,0.857,0.0,217,4.78,13.5,0.0,1,-0.3,3.14,3.1,0,0,0,1,0,,,,,,,,,,,,,,,,,,,,
665403,1626525713190,,,250,251,237,232,,-0.0,0.01,-3.0,0,0,0,0.01,,82,2139,7,31,87,0.858,0.0,210,4.72,13.3,0.0,1,-0.3,3.12,3.1,0,0,0,1,0,,,,,,,,,,,,,,,,,,,,
665423,1626525713210,,,250,251,237,232,,0.01,0.01,-3.0,0,0,0,0.02,,82,2105,7,31,88,0.858,0.0,212,4.79,13.5,0.0,1,-0.3,3.14,3.1,0,0,0,1,0,,,,,,,,,,,,,,,,,,,,
665443,1626525713230,0,1,250,251,237,232,5,-0.0,0.02,-2.98,0,0,0,0.02,0,82,2080,7,31,88,0.859,0.0,213,4.79,13.5,0.0,1,-0.3,3.14,3.1,0,0,0,1,0,0,250,250,0,45.700291,4.909502,0.0,192.5,9,3,1.8,3,0.505,0,0.0,0.4512,3.4883,4,0.07,11.0907
665463,1626525713250,,,250,251,237,232,,0.01,0.02,-2.99,0,-0,0,0.02,,82,2114,7,31,88,0.858,0.0,207,4.83,13.4,0.0,1,-0.5,3.14,3.0,0,0,0,1,0,,,,,,,,,,,,,,,,,,,,
665483,1626525713270,,,250,251,237,232,,0.0,0.02,-2.98,0,0,0,0.02,,82,2081,7,31,88,0.859,0.0,208,4.78,13.5,0.0,1,-0.5,3.14,3.0,0,0,0,1,0,,,,,,,,,,,,,,,,,,,,
665503,1626525713290,,,250,251,237,232,,0.0,0.01,-2.99,0,0,0,0.01,,82,2001,7,31,88,0.859,0.0,208,4.76,13.4,0.0,1,-0.5,3.14,3.0,0,0,0,1,0,,,,,,,,,,,,,,,,,,,,
665523,1626525713310,,,250,251,237,232,,0.01,0.01,-3.0,0,0,0,0.01,,82,1968,7,31,89,0.86,0.0,201,4.76,13.5,0.0,1,-0.5,3.14,3.0,0,0,0,1,0,,,,,,,,,,,,,,,,,,,,
665543,1626525713330,-0,2,250,251,237,232,5,0.0,0.01,-3.01,0,0,0,0.01,0,82,1958,7,31,89,0.86,0.0,200,4.78,13.5,0.0,1,-0.5,3.16,3.0,0,0,0,1,0,0,250,250,0,45.700291,4.909502,0.0,192.5,9,3,1.8,3,0.505,0,0.0,,3.49,4,0.07,11.0924
665563,1626525713350,,,250,251,237,232,,-0.0,-0.0,-3.02,0,0,0,0.0,,82,1933,7,31,89,0.859,0.0,198,4.79,13.5,0.0,1,-0.5,3.16,2.8,0,0,0,1,0,,,,,,,,,,,,,,,,,,,,
665583,1626525713370,,,250,251,237,232,,0.0,-0.0,-3.03,0,0,0,0.0,,82,1885,7,31,89,0.858,0.0,196,4.77,13.2,0.0,1,-0.5,3.16,2.8,0,0,0,1,0,,,,,,,,,,,,,,,,,,,,
665603,1626525713390,,,250,250,237,232,,0.01,0.0,-3.03,0,0,0,0.01,,82,1821,7,31,90,0.857,0.0,193,4.79,13.5,0.0,1,-0.5,2.09,2.8,0,0,0,1,0,,,,,,,,,,,,,,,,,,,,
665623,1626525713410,,,250,251,237,232,,0.0,0.0,-3.05,0,0,0,0.01,,82,1754,7,31,90,0.857,0.0,188,4.79,13.5,0.0,1,-0.5,3.19,2.8,0,0,0,1,0,,,,,,,,,,,,,,,,,,,,
665643,1626525713430,0,2,250,251,237,232,5,-0.0,-0.0,-3.01,0,0,0,0.0,0,82,1698,7,31,91,0.858,0.0,184,4.77,13.5,0.0,1,-0.5,3.19,2.8,0,0,0,1,0,0,250,250,0,45.700291,4.909502,0.0,192.5,9,3,1.8,3,0.505,0,0.0,0.4512,3.4917,4,0.07,11.0941
665663,1626525713450,,,250,251,237,232,,-0.01,0.0,-3.0,0,0,0,0.01,,82,1711,7,31,91,0.858,0.0,187,4.81,13.5,0.0,1,-0.5,3.19,2.5,0,0,0,1,0,,,,,,,,,,,,,,,,,,,,
665683,1626525713470,,,250,251,237,232,,-0.01,0.01,-3.01,0,0,0,0.01,,82,1710,7,31,91,0.859,0.0,189,4.78,13.5,0.0,1,-0.5,3.19,2.5,0,0,0,1,0,,,,,,,,,,,,,,,,,,,,
665703,1626525713490,,,250,251,237,232,,-0.0,0.01,-3.02,0,0,0,0.01,,82,1656,7,31,91,0.86,0.0,186,4.74,13.4,0.0,1,-0.5,3.19,2.5,0,0,0,1,0,,,,,,,,,,,,,,,,,,,,
665723,1626525713510,,,250,251,237,232,,0.0,0.0,-3.03,0,0,0,0.0,,82,1571,7,31,91,0.861,0.0,179,4.77,13.2,0.0,1,-0.5,2.09,2.5,0,0,0,1,0,,,,,,,,,,,,,,,,,,,,
665743,1626525713530,-1,2,250,251,237,232,5,0.0,0.01,-3.03,0,0,0,0.01,0,82,1480,7,31,91,0.861,0.0,177,4.79,13.2,0.0,1,-0.5,2.09,2.5,0,0,0,1,0,0,250,250,0,45.700291,4.909502,0.0,192.5,9,3,1.8,3,0.505,0,0.0,,3.4933,4,0.07,11.0957
665763,1626525713550,,,250,251,237,232,,0.01,0.01,-3.04,0,-0,0,0.01,,82,1460,7,31,92,0.862,0.0,175,4.74,13.4,0.0,1,-0.5,2.09,2.5,0,0,0,1,0,,,,,,,,,,,,,,,,,,,,
665783,1626525713570,,,250,251,237,232,,0.01,0.0,-3.06,0,-0,0,0.01,,82,1540,7,31,92,0.863,0.0,176,4.75,13.4,0.0,1,-0.5,3.19,2.1,0,0,0,1,0,,,,,,,,,,,,,,,,,,,,
665803,1626525713590,,,250,251,237,232,,0.01,0.01,-3.07,0,-0,0,0.01,,82,1589,7,31,92,0.864,0.0,174,4.75,13.1,0.0,1,-0.5,2.09,2.1,0,0,0,1,0,,,,,,,,,,,,,,,,,,,,
665823,1626525713610,,,250,251,237,232,,0.01,0.0,-3.06,0,-0,0,0.01,,82,1569,7,31,92,0.865,0.0,175,4.8,13.1,0.0,1,-0.5,2.09,2.1,0,0,0,1,0,,,,,,,,,,,,,,,,,,,,
665843,1626525713630,0,1,250,251,237,232,4,0.02,0.0,-3.06,0,-1,0,0.02,0,82,1494,7,31,92,0.866,0.0,174,4.81,13.1,0.0,1,-0.5,2.09,2.1,0,0,0,1,0,0,250,250,0,45.700291,4.909502,0.0,192.5,9,3,1.8,3,0.505,0,0.0,0.4512,3.495,4,0.07,11.0974
665863,1626525713650,,,250,251,237,232,,0.02,0.0,-3.05,0,-1,0,0.02,,82,1392,7,31,92,0.867,0.0,173,4.8,13.2,0.0,1,-0.1,2.09,2.0,0,0,0,1,0,,,,,,,,,,,,,,,,,,,,
665883,1626525713670,,,250,251,237,232,,0.02,-0.0,-3.07,0,-1,0,0.03,,82,1343,7,31,93,0.869,0.0,170,4.78,13.4,0.0,1,-0.1,3.19,2.0,0,0,0,1,0,,,,,,,,,,,,,,,,,,,,
665903,1626525713690,,,250,251,237,232,,0.02,-0.0,-3.06,0,-1,0,0.02,,82,1343,7,31,93,0.869,0.0,167,4.78,13.4,0.0,1,-0.1,3.19,2.0,0,0,0,1,0,,,,,,,,,,,,,,,,,,,,
665923,1626525713710,,,250,251,237,232,,0.02,-0.01,-3.04,0,-1,0,0.02,,82,1410,7,31,93,0.87,0.0,171,4.79,13.4,0.0,1,-0.1,2.09,2.0,0,0,0,1,0,,,,,,,,,,,,,,,,,,,,
665943,1626525713730,0,0,250,251,237,232,5,0.02,-0.01,-3.05,0,-1,0,0.02,0,82,1522,7,31,93,0.87,0.0,172,4.78,13.4,0.0,1,-0.1,3.19,2.0,0,0,0,1,0,0,250,250,0,45.700291,4.909502,0.0,192.5,9,3,1.8,3,0.505,0,0.0,,3.4967,4,0.07,11.099
665963,1626525713750,,,250,251,237,232,,0.02,-0.01,-3.03,0,-1,0,0.02,,82,1504,7,31,93,0.87,0.0,173,4.77,13.4,0.0,1,-0.1,3.19,2.2,0,0,0,1,0,,,,,,,,,,,,,,,,,,,,
665983,1626525713770,,,250,251,237,232,,0.02,-0.01,-3.0,0,-1,0,0.02,,83,1485,7,31,93,0.87,0.0,171,4.8,13.4,0.0,1,-0.1,2.09,2.2,0,0,0,1,0,,,,,,,,,,,,,,,,,,,,
666003,1626525713790,,,250,251,237,232,,0.01,-0.01,-3.02,0,-0,0,0.02,,83,1378,7,31,93,0.871,0.0,167,4.77,13.4,0.0,1,-0.1,3.19,2.2,0,0,0,1,0,,,,,,,,,,,,,,,,,,,,
666023,1626525713810,,,250,251,237,232,,0.02,-0.01,-3.01,0,-0,0,0.02,,83,1295,7,31,94,0.872,0.0,164,4.75,13.4,0.0,1,-0.1,3.19,2.2,0,0,0,1,0,,,,,,,,,,,,,,,,,,,,
666043,1626525713830,0,1,250,251,237,232,4,0.01,-0.01,-3.01,0,-0,0,0.02,0,83,1350,7,31,94,0.872,0.0,165,4.8,13.4,0.0,1,-0.1,3.19,2.2,0,0,0,1,0,0,250,250,0,45.700291,4.909502,0.0,192.5,9,3,1.8,3,0.505,0,0.0,0.4512,3.4983,4,0.07,11.1007
666063,1626525713850,,,250,251,237,232,,0.01,-0.01,-3.04,0,-0,0,0.01,,83,1477,7,31,94,0.872,0.0,170,4.8,13.4,0.0,1,0.2,2.09,2.1,0,0,0,1,0,,,,,,,,,,,,,,,,,,,,
666083,1626525713870,,,250,251,237,232,,0.0,-0.01,-3.04,0,-0,0,0.01,,82,1523,7,31,94,0.873,0.0,173,4.77,13.4,0.0,1,0.2,3.19,2.1,0,0,0,1,0,,,,,,,,,,,,,,,,,,,,
666103,1626525713890,,,250,251,237,232,,0.0,-0.01,-3.06,0,-1,0,0.01,,83,1488,7,31,94,0.873,0.0,173,4.79,13.4,0.0,1,0.2,2.09,2.1,0,0,0,1,0,,,,,,,,,,,,,,,,,,,,
666123,1626525713909,,,250,251,237,232,,0.0,-0.01,-3.07,0,-1,0,0.01,,83,1405,7,31,93,0.872,0.0,170,4.78,13.4,0.0,1,0.2,3.19,2.1,0,0,0,1,0,,,,,,,,,,,,,,,,,,,,
666143,1626525713929,0,2,250,251,237,232,4,-0.0,-0.0,-3.05,0,-1,0,0.0,0,83,1312,7,31,93,0.873,0.0,164,4.75,13.4,0.0,1,0.2,3.19,2.1,0,0,0,1,0,0,250,250,0,45.700291,4.909502,0.0,192.5,9,3,1.8,3,0.505,0,0.0,,3.5,4,0.07,11.1024
666163,1626525713949,,,250,251,237,232,,-0.0,-0.0,-3.05,0,-1,0,0.0,,83,1300,7,31,93,0.873,0.0,164,4.82,13.2,0.0,1,0.2,2.09,1.9,0,0,0,1,0,,,,,,,,,,,,,,,,,,,,
666183,1626525713969,,,250,251,237,232,,0.01,0.0,-3.02,0,-1,0,0.01,,83,1386,7,31,93,0.874,0.0,167,4.72,13.3,0.0,1,0.2,2.09,1.9,0,0,0,1,0,,,,,,,,,,,,,,,,,,,,
666203,1626525713989,,,250,251,237,232,,0.01,0.0,-3.01,0,-1,0,0.01,,83,1439,7,31,93,0.875,0.0,170,4.74,13.4,0.0,1,0.2,3.19,1.9,0,0,0,1,0,,,,,,,,,,,,,,,,,,,,
666223,1626525714003,,,250,251,237,232,,0.01,-0.0,-3.05,0,-1,1,0.01,,83,1512,7,31,93,0.875,0.0,173,4.76,13.4,0.0,1,0.2,3.19,1.9,0,0,0,1,0,,,,,,,,,,,,,,,,,,,,
666243,1626525714023,0,2,250,251,237,232,5,0.01,-0.01,-3.05,0,-1,1,0.01,0,83,1456,7,31,93,0.875,0.0,170,4.73,13.3,0.0,1,0.2,2.09,1.9,0,0,0,1,0,0,250,250,0,45.700291,4.909502,0.0,192.5,9,3,1.8,3,0.505,0,0.0,0.4512,3.5017,4,0.07,11.104
666263,1626525714043,,,250,251,237,232,,0.0,-0.01,-3.07,0,-1,1,0.01,,82,1456,7,31,93,0.875,0.0,169,4.75,13.4,0.0,1,0.5,3.19,2.1,0,0,0,1,0,,,,,,,,,,,,,,,,,,,,
666283,1626525714063,,,250,251,237,232,,-0.0,-0.01,-3.07,0,-1,1,0.01,,83,1354,7,31,94,0.874,0.0,167,4.78,13.4,0.0,1,0.5,2.09,2.1,0,0,0,1,0,,,,,,,,,,,,,,,,,,,,
666303,1626525714083,,,250,251,237,232,,-0.0,-0.0,-3.07,0,-1,1,0.0,,83,1269,7,31,94,0.873,0.0,164,4.8,13.4,0.0,1,0.5,3.19,2.1,0,0,0,1,0,,,,,,,,,,,,,,,,,,,,
666323,1626525714109,,,250,251,237,232,,-0.01,-0.01,-3.0,0,-1,0,0.01,,83,1332,7,31,94,0.873,0.0,170,4.77,13.5,0.0,1,0.5,3.19,2.1,0,0,0,1,0,,,,,,,,,,,,,,,,,,,,
666343,1626525714129,0,1,250,251,237,232,5,-0.01,-0.0,-3.0,0,-1,0,0.01,0,83,1500,7,31,94,0.873,0.0,170,4.77,13.5,0.0,1,0.5,3.19,2.1,0,0,0,1,0,0,250,250,0,45.700291,4.909502,0.0,192.5,9,3,1.8,3,0.505,0,0.0,,3.5033,4,0.07,11.1057
666363,1626525714149,,,250,251,237,232,,-0.01,-0.01,-2.99,0,-1,0,0.01,,83,1503,7,31,94,0.873,0.0,173,4.79,13.4,0.0,1,0.5,3.19,2.2,0,0,0,1,0,,,,,,,,,,,,,,,,,,,,
666383,1626525714169,,,250,251,237,232,,-0.01,-0.0,-2.98,0,-1,0,0.01,,83,1538,7,31,94,0.874,0.0,175,4.78,13.5,0.0,1,0.5,3.19,2.2,0,0,0,1,0,,,,,,,,,,,,,,,,,,,,
666403,1626525714189,,,250,251,237,232,,-0.01,0.0,-2.96,0,-1,0,0.01,,83,1504,7,31,93,0.874,0.0,173,4.76,13.4,0.0,1,0.5,3.19,2.2,0,0,0,1,0,,,,,,,,,,,,,,,,,,,,
666423,1626525714209,,,250,251,237,232,,-0.01,0.0,-2.94,0,-1,0,0.01,,83,1441,7,31,94,0.874,0.0,173,4.79,13.4,0.0,1,0.5,3.19,2.2,0,0,0,1,0,,,,,,,,,,,,,,,,,,,,
666443,1626525714229,0,2,250,251,237,232,5,-0.01,0.01,-2.96,0,-2,0,0.01,0,83,1442,7,31,94,0.874,0.0,170,4.8,13.4,0.0,1,0.5,3.19,2.2,0,0,0,1,0,0,250,250,0,45.700291,4.909502,0.0,192.5,9,3,1.8,3,0.505,0,0.0,0.4512,3.505,4,0.07,11.1074
666463,1626525714249,,,250,251,237,232,,-0.01,0.01,-2.97,0,-2,0,0.01,,83,1465,7,31,94,0.874,0.0,173,4.76,13.4,0.0,1,0.8,3.19,2.1,0,0,0,1,0,,,,,,,,,,,,,,,,,,,,
666483,1626525714269,,,250,251,237,232,,-0.02,0.01,-2.95,0,-2,0,0.02,,83,1603,7,31,94,0.874,0.0,176,4.76,13.5,0.0,1,0.8,3.19,2.1,0,0,0,1,0,,,,,,,,,,,,,,,,,,,,
666503,1626525714289,,,250,251,237,232,,-0.02,0.01,-2.95,0,-2,0,0.02,,83,1622,7,31,93,0.874,0.0,178,4.8,13.5,0.0,1,0.8,3.19,2.1,0,0,0,1,0,,,,,,,,,,,,,,,,,,,,
666523,1626525714309,,,250,251,237,232,,-0.02,0.01,-2.95,0,-1,0,0.02,,83,1589,7,31,93,0.875,0.0,180,4.79,13.5,0.0,1,0.8,3.19,2.1,0,0,0,1,0,,,,,,,,,,,,,,,,,,,,
666543,1626525714329,0,1,250,251,237,232,5,-0.02,0.01,-2.95,0,-1,0,0.02,0,83,1563,7,31,93,0.876,0.0,178,4.8,13.5,0.0,1,0.8,3.19,2.1,0,0,0,1,0,0,250,250,0,45.700291,4.909502,0.0,192.5,9,3,1.8,3,0.505,0,0.0,,3.5067,4,0.07,11.109
666563,1626525714349,,,250,251,237,232,,-0.02,0.01,-2.96,0,-1,0,0.02,,83,1516,7,31,93,0.877,0.0,175,4.8,13.4,0.0,1,0.8,3.19,2.2,0,0,0,1,0,,,,,,,,,,,,,,,,,,,,
666583,1626525714369,,,250,251,237,232,,-0.02,0.01,-2.97,0,-0,1,0.02,,83,1552,7,31,93,0.878,0.0,177,4.77,13.5,0.0,1,0.8,3.19,2.2,0,0,0,1,0,,,,,,,,,,,,,,,,,,,,
666603,1626525714391,,,250,251,237,232,,-0.01,0.01,-2.96,0,-0,1,0.02,,83,1660,7,31,93,0.879,0.0,181,4.78,13.4,0.0,1,0.8,2.09,2.2,0,0,0,1,0,,,,,,,,,,,,,,,,,,,,
666623,1626525714411,,,250,251,237,232,,-0.01,0.01,-2.98,0,-0,1,0.01,,83,1696,7,31,92,0.879,0.0,183,4.72,13.3,0.0,1,0.8,2.09,2.2,0,0,0,1,0,,,,,,,,,,,,,,,,,,,,
666643,1626525714431,-0,2,250,251,237,232,5,-0.0,0.01,-2.98,0,-0,1,0.01,0,83,1628,7,31,92,0.88,0.0,179,4.78,13.1,0.0,1,0.8,2.09,2.2,0,0,0,1,0,0,250,250,0,45.700291,4.909502,0.0,192.5,9,3,1.8,3,0.505,0,0.0,0.4512,3.5083,4,0.07,11.1107
666663,1626525714451,,,250,251,237,232,,0.01,0.01,-2.96,0,-0,1,0.01,,83,1567,7,31,92,0.881,0.0,176,4.82,13.3,0.0,1,1.0,3.19,2.3,0,0,0,1,0,,,,,,,,,,,,,,,,,,,,
666683,1626525714471,,,250,251,237,232,,0.01,0.01,-2.97,0,-0,0,0.01,,83,1520,7,31,92,0.882,0.0,175,4.77,13.4,0.0,1,1.0,3.19,2.3,0,0,0,1,0,,,,,,,,,,,,,,,,,,,,
666703,1626525714491,,,250,251,237,232,,0.02,0.01,-2.97,0,-1,0,0.02,,83,1605,7,31,93,0.883,0.0,179,4.77,13.5,0.0,1,1.0,3.19,2.3,0,0,0,1,0,,,,,,,,,,,,,,,,,,,,
666723,1626525714511,,,250,251,237,232,,0.02,0.0,-3.0,0,-0,0,0.02,,83,1726,7,31,93,0.885,0.0,182,4.79,13.5,0.0,1,1.0,3.19,2.3,0,0,0,1,0,,,,,,,,,,,,,,,,,,,,
666743,1626525714531,-0,2,250,251,237,232,5,0.01,-0.0,-2.98,0,-1,0,0.01,0,83,1731,7,31,93,0.887,0.0,184,4.77,13.5,0.0,1,1.0,3.19,2.3,0,0,0,1,0,0,250,250,0,45.700291,4.909502,0.0,192.5,9,3,1.8,3,0.505,0,0.0,,3.51,4,0.07,11.1124
666763,1626525714551,,,250,251,237,232,,0.01,-0.0,-2.98,0,-1,0,0.01,,83,1708,7,31,93,0.888,0.0,183,4.79,13.5,0.0,1,1.0,3.19,2.5,0,0,0,1,0,,,,,,,,,,,,,,,,,,,,
666783,1626525714571,,,250,251,237,232,,0.0,-0.0,-3.0,0,-0,0,0.0,,83,1641,7,31,92,0.889,0.0,181,4.78,13.4,0.0,1,1.0,3.19,2.5,0,0,0,1,0,,,,,,,,,,,,,,,,,,,,
666803,1626525714591,,,250,251,237,232,,0.0,-0.0,-2.99,0,-0,0,0.0,,83,1573,7,31,92,0.89,0.0,180,4.77,13.5,0.0,1,1.0,3.19,2.5,0,0,0,1,0,,,,,,,,,,,,,,,,,,,,
666823,1626525714611,,,250,251,237,232,,0.01,-0.0,-2.98,0,-0,0,0.01,,83,1698,7,31,92,0.891,0.0,181,4.77,13.5,0.0,1,1.0,3.19,2.5,0,0,0,1,0,,,,,,,,,,,,,,,,,,,,
666843,1626525714631,-0,2,250,251,237,232,5,0.02,-0.0,-2.98,0,-0,0,0.02,0,83,1834,7,31,92,0.891,0.0,184,4.75,13.2,0.0,1,1.0,3.19,2.5,0,0,0,1,0,0,250,250,0,45.700291,4.909502,0.0,192.5,9,3,1.8,3,0.505,0,0.0,0.4512,3.5117,4,0.07,11.114
666863,1626525714651,,,250,251,237,232,,0.02,0.0,-2.98,0,-0,0,0.02,,83,1837,7,31,92,0.893,0.0,188,4.76,13.5,0.0,1,1.0,3.19,2.7,0,0,0,1,0,,,,,,,,,,,,,,,,,,,,
666883,1626525714671,,,250,251,237,232,,0.01,0.0,-2.98,0,-0,0,0.01,,83,1766,7,31,92,0.895,0.0,189,4.79,13.5,0.0,1,1.0,2.09,2.7,0,0,0,1,0,,,,,,,,,,,,,,,,,,,,
666903,1626525714691,,,250,251,237,232,,0.01,0.0,-2.96,0,-0,0,0.01,,83,1695,7,31,92,0.896,0.0,187,4.78,13.5,0.0,1,1.0,2.09,2.7,0,0,0,1,0,,,,,,,,,,,,,,,,,,,,
666923,1626525714711,,,250,251,237,232,,0.0,0.0,-2.96,0,-0,0,0.01,,83,1658,7,31,92,0.898,0.0,183,4.76,13.5,0.0,1,1.0,3.19,2.7,0,0,0,1,0,,,,,,,,,,,,,,,,,,,,
666943,1626525714731,0,3,250,251,237,232,4,0.01,0.0,-2.96,0,-0,0,0.01,0,83,1851,7,31,92,0.899,0.0,189,4.73,13.3,0.0,1,1.0,2.09,2.7,0,0,0,1,0,0,250,250,0,45.700291,4.909502,0.0,192.5,9,3,1.8,3,0.505,0,0.0,,3.5133,4,0.07,11.1157
666963,1626525714751,,,250,251,237,232,,0.01,-0.0,-2.98,0,-0,0,0.01,,83,1912,7,31,92,0.9,0.0,195,4.79,13.4,0.0,1,1.0,3.19,2.8,0,0,0,1,0,,,,,,,,,,,,,,,,,,,,
666983,1626525714771,,,250,251,237,232,,0.01,-0.0,-3.01,0,0,0,0.01,,83,1884,7,31,92,0.901,0.0,196,4.79,13.5,0.0,1,1.0,2.09,2.8,0,0,0,1,0,,,,,,,,,,,,,,,,,,,,
667003,1626525714791,,,250,251,237,232,,0.0,0.01,-2.97,0,-0,0,0.01,,83,1821,7,31,92,0.903,0.0,191,4.79,13.5,0.0,1,1.0,3.19,2.8,0,0,0,1,0,,,,,,,,,,,,,,,,,,,,
667023,1626525714811,,,250,251,237,232,,0.0,0.01,-2.96,0,-0,0,0.01,,83,1752,7,31,92,0.906,0.0,187,4.76,13.5,0.0,1,1.0,3.19,2.8,0,0,0,1,0,,,,,,,,,,,,,,,,,,,,
667043,1626525714831,0,2,250,251,237,232,5,0.0,-0.0,-3.0,0,-0,0,0.0,0,83,1907,7,31,91,0.907,0.0,194,4.78,13.3,0.0,1,1.0,3.19,2.8,0,0,0,1,0,0,250,250,0,45.700291,4.909502,0.0,192.5,9,3,1.8,3,0.505,0,0.0,0.4512,3.515,4,0.07,11.1174
667063,1626525714851,,,250,251,237,232,,0.02,-0.0,-2.96,0,-0,0,0.02,,83,1970,7,31,92,0.909,0.0,197,4.79,13.5,0.0,1,0.9,3.19,2.9,0,0,0,1,0,,,,,,,,,,,,,,,,,,,,
667083,1626525714871,,,250,251,237,232,,0.0,0.01,-2.91,0,-0,0,0.01,,83,1964,7,31,92,0.911,0.0,197,4.77,13.5,0.0,1,0.9,3.19,2.9,0,0,0,1,0,,,,,,,,,,,,,,,,,,,,
667103,1626525714891,,,250,251,237,232,,0.01,0.01,-2.91,0,-0,0,0.01,,83,1884,7,31,91,0.914,0.0,197,4.75,13.4,0.0,1,0.9,3.19,2.9,0,0,0,1,0,,,,,,,,,,,,,,,,,,,,
667123,1626525714910,,,250,251,237,232,,0.01,0.01,-2.91,0,-0,0,0.01,,83,1850,7,31,91,0.916,0.0,195,4.79,13.4,0.0,1,0.9,3.19,2.9,0,0,0,1,0,,,,,,,,,,,,,,,,,,,,
667143,1626525714930,0,3,250,251,237,232,4,0.01,0.0,-2.96,0,-0,0,0.01,0,83,1878,7,31,92,0.917,0.0,196,4.76,13.5,0.0,1,0.9,3.19,2.9,0,0,0,1,0,0,250,250,0,45.700291,4.909502,0.0,192.5,9,3,1.8,3,0.505,0,0.0,,3.5167,4,0.07,11.1191
667163,1626525714950,,,250,251,237,232,,0.0,0.01,-2.96,0,0,0,0.01,,83,1922,7,31,92,0.919,0.0,197,4.78,13.5,0.0,1,0.9,2.09,2.9,0,0,0,1,0,,,,,,,,,,,,,,,,,,,,
667183,1626525714970,,,250,251,237,232,,0.01,0.0,-2.96,0,-0,0,0.01,,83,1974,7,31,91,0.921,0.0,199,4.77,13.2,0.0,1,0.9,3.19,2.8,0,0,0,1,0,,,,,,,,,,,,,,,,,,,,
667203,1626525714990,,,250,250,237,232,,0.02,0.0,-2.94,0,-0,0,0.02,,83,1906,7,31,91,0.923,0.0,197,4.77,13.5,0.0,1,0.9,3.19,2.8,0,0,0,1,0,,,,,,,,,,,,,,,,,,,,
667223,1626525715002,,,250,251,237,232,,0.01,0.0,-2.92,0,-0,-0,0.01,,83,1842,7,31,91,0.926,0.0,195,4.78,13.5,0.0,1,0.9,3.19,2.8,0,0,0,1,0,,,,,,,,,,,,,,,,,,,,
667243,1626525715022,0,1,250,251,237,232,4,0.0,0.0,-2.94,0,-0,0,0.0,0,83,1824,7,31,91,0.929,0.0,194,4.8,13.5,0.0,1,0.9,2.09,2.8,0,0,0,1,0,0,250,250,0,45.700291,4.909502,0.0,192.5,9,3,1.8,3,0.505,0,0.0,0.4512,3.5183,4,0.07,11.1207
667263,1626525715042,,,250,251,237,231,,0.01,-0.0,-2.96,0,-0,0,0.01,,83,1965,7,31,91,0.93,0.0,197,4.79,13.2,0.0,1,0.8,3.19,2.8,0,0,0,1,0,,,,,,,,,,,,,,,,,,,,
667283,1626525715062,,,250,251,237,232,,0.02,0.0,-2.97,0,-0,0,0.02,,83,1972,7,31,91,0.931,0.0,200,4.77,13.5,0.0,1,0.8,3.19,2.8,0,0,0,1,0,,,,,,,,,,,,,,,,,,,,
667303,1626525715082,,,250,251,237,232,,0.01,0.0,-2.93,0,-0,-0,0.01,,83,1932,7,31,91,0.933,0.0,200,4.76,13.5,0.0,1,0.8,3.19,2.8,0,0,0,1,0,,,,,,,,,,,,,,,,,,,,
667323,1626525715110,,,250,251,237,232,,0.01,0.01,-2.93,0,-0,-0,0.01,,83,1802,7,31,91,0.934,0.0,194,4.73,13.4,0.0,1,0.8,2.09,2.8,0,0,0,1,0,,,,,,,,,,,,,,,,,,,,
667343,1626525715130,0,2,250,251,237,232,4,0.01,0.01,-2.97,0,-0,0,0.02,0,83,1825,7,31,91,0.934,0.0,192,4.78,13.4,0.0,1,0.8,3.19,2.8,0,0,0,1,0,0,250,250,0,45.700291,4.909502,0.0,192.5,9,3,1.8,3,0.505,0,0.0,,3.52,4,0.07,11.1224
667363,1626525715150,,,250,251,237,232,,0.02,0.01,-2.96,0,-0,0,0.03,,83,1922,7,31,91,0.935,0.0,198,4.78,13.5,0.0,1,0.8,2.09,2.8,0,0,0,1,0,,,,,,,,,,,,,,,,,,,,
667383,1626525715170,,,250,251,237,232,,0.01,0.02,-2.9,0,-0,-0,0.02,,83,1956,7,31,91,0.935,0.0,200,4.79,13.5,0.0,1,0.8,3.19,2.8,0,0,0,1,0,,,,,,,,,,,,,,,,,,,,
667403,1626525715190,,,250,251,237,232,,0.02,0.02,-2.91,0,-1,-0,0.02,,83,1861,7,31,91,0.937,0.0,194,4.72,13.3,0.0,1,0.8,2.09,2.8,0,0,0,1,0,,,,,,,,,,,,,,,,,,,,
667423,1626525715210,,,250,251,237,232,,0.02,0.01,-2.92,0,-0,-0,0.02,,83,1802,7,31,91,0.937,0.0,192,4.79,13.4,0.0,1,0.8,3.19,2.8,0,0,0,1,0,,,,,,,,,,,,,,,,,,,,
667443,1626525715230,0,2,250,251,237,232,5,0.02,0.02,-2.96,0,-0,-0,0.03,0,83,1834,7,31,91,0.936,0.0,195,4.75,13.5,0.0,1,0.8,3.19,2.8,0,0,0,1,0,0,250,250,0,45.700291,4.909502,0.0,192.5,9,3,1.8,3,0.505,0,0.0,0.4512,3.5217,4,0.07,11.1241
667463,1626525715250,,,250,251,237,232,,0.01,0.02,-2.9,0,-0,-0,0.03,,83,1938,7,31,91,0.936,0.0,198,4.78,13.5,0.0,1,0.7,3.19,2.8,0,0,0,1,0,,,,,,,,,,,,,,,,,,,,
667483,1626525715270,,,250,251,237,232,,0.01,0.02,-2.91,0,-1,-0,0.02,,83,1908,7,31,91,0.934,0.0,196,4.75,13.3,0.0,1,0.7,2.09,2.8,0,0,0,1,0,,,,,,,,,,,,,,,,,,,,
667503,1626525715290,,,250,251,237,232,,0.02,0.02,-2.91,0,-0,0,0.03,,83,1850,7,31,91,0.934,0.0,193,4.76,13.4,0.0,1,0.7,2.09,2.8,0,0,0,1,0,,,,,,,,,,,,,,,,,,,,
667523,1626525715310,,,250,251,237,232,,0.02,0.01,-2.94,0,-0,-0,0.02,,83,1798,7,31,91,0.932,0.0,193,4.8,13.5,0.0,1,0.7,3.19,2.8,0,0,0,1,0,,,,,,,,,,,,,,,,,,,,
667543,1626525715330,1,1,250,251,237,232,5,0.01,0.01,-2.88,0,-0,-0,0.01,0,83,1818,7,31,92,0.931,0.0,197,4.77,13.5,0.0,1,0.7,3.19,2.8,0,0,0,1,0,0,250,250,0,45.700291,4.909502,0.0,192.5,9,3,1.8,3,0.505,0,0.0,,3.5233,4,0.07,11.1257
667563,1626525715350,,,250,251,237,232,,0.01,0.01,-2.9,0,-0,-0,0.01,,83,1938,7,31,91,0.93,0.0,198,4.71,13.3,0.0,1,0.7,2.09,2.8,0,0,0,1,0,,,,,,,,,,,,,,,,,,,,
667583,1626525715370,,,250,251,237,232,,0.01,0.01,-2.93,0,-0,0,0.01,,83,1890,7,31,91,0.929,0.0,194,4.78,13.4,0.0,1,0.7,3.19,2.8,0,0,0,1,0,,,,,,,,,,,,,,,,,,,,
667603,1626525715390,,,250,251,237,232,,0.01,0.0,-2.96,0,-0,0,0.01,,83,1825,7,31,91,0.927,0.0,195,4.78,13.5,0.0,1,0.7,3.19,2.8,0,0,0,1,0,,,,,,,,,,,,,,,,,,,,
667623,1626525715410,,,250,251,237,232,,0.01,0.01,-2.94,0,-0,0,0.01,,83,1752,7,31,91,0.926,0.0,193,4.79,13.5,0.0,1,0.7,3.19,2.8,0,0,0,1,0,,,,,,,,,,,,,,,,,,,,
667643,1626525715430,0,0,250,251,237,232,4,-0.0,0.01,-2.96,0,-0,0,0.01,0,83,1759,7,31,91,0.924,0.0,192,4.78,13.5,0.0,1,0.7,3.19,2.8,0,0,0,1,0,0,250,250,0,45.700291,4.909502,0.0,192.5,9,3,1.8,3,0.505,0,0.0,0.4512,3.525,4,0.07,11.1274
667663,1626525715450,,,250,251,237,232,,0.01,0.0,-2.95,0,-0,-0,0.01,,83,1902,7,31,91,0.921,0.0,192,4.73,13.3,0.0,1,0.6,3.19,2.8,0,0,0,1,0,,,,,,,,,,,,,,,,,,,,
667683,1626525715470,,,250,251,237,232,,0.01,0.01,-2.93,0,-0,-0,0.02,,83,1860,7,31,91,0.92,0.0,194,4.77,13.5,0.0,1,0.6,3.19,2.8,0,0,0,1,0,,,,,,,,,,,,,,,,,,,,
667703,1626525715490,,,250,251,237,232,,0.01,0.01,-2.99,0,-0,0,0.01,,83,1816,7,31,91,0.919,0.0,195,4.77,13.5,0.0,1,0.6,3.19,2.8,0,0,0,1,0,,,,,,,,,,,,,,,,,,,,
667723,1626525715510,,,250,251,237,232,,-0.0,0.01,-2.96,0,-0,0,0.01,,83,1768,7,31,92,0.918,0.0,189,4.81,13.5,0.0,1,0.6,3.19,2.8,0,0,0,1,0,,,,,,,,,,,,,,,,,,,,
667743,1626525715530,1,2,250,251,237,232,5,0.0,0.01,-2.97,0,-0,0,0.01,0,83,1864,7,31,91,0.917,0.0,190,4.77,13.5,0.0,1,0.6,2.09,2.8,0,0,0,1,0,0,250,250,0,45.700291,4.909502,0.0,192.5,9,3,1.8,3,0.505,0,0.0,,3.5267,4,0.07,11.1291
667763,1626525715550,,,250,251,237,232,,0.01,0.01,-3.02,0,0,0,0.02,,83,1869,7,31,91,0.915,0.0,193,4.83,13.3,0.0,1,0.6,3.19,2.8,0,0,0,1,0,,,,,,,,,,,,,,,,,,,,
667783,1626525715570,,,250,251,237,232,,0.01,0.01,-3.01,0,-0,0,0.02,,83,1824,7,31,91,0.914,0.0,192,4.78,13.5,0.0,1,0.6,3.19,2.7,0,0,0,1,0,,,,,,,,,,,,,,,,,,,,
667803,1626525715590,,,250,251,237,232,,0.01,0.02,-2.99,0,-0,0,0.02,,83,1756,7,31,92,0.912,0.0,189,4.76,13.5,0.0,1,0.6,3.19,2.7,0,0,0,1,0,,,,,,,,,,,,,,,,,,,,
667823,1626525715610,,,250,251,237,232,,0.0,0.01,-2.98,0,-0,0,0.01,,83,1693,7,31,92,0.91,0.0,184,4.77,13.5,0.0,1,0.6,3.19,2.7,0,0,0,1,0,,,,,,,,,,,,,,,,,,,,
667843,1626525715630,1,2,250,251,237,232,5,-0.0,0.01,-2.97,0,-0,0,0.01,0,83,1694,7,31,92,0.909,0.0,185,4.78,13.5,0.0,1,0.6,2.09,2.7,0,0,0,1,0,0,250,250,0,45.700291,4.909502,0.0,192.5,9,3,1.8,3,0.505,0,0.0,0.4512,3.5283,4,0.07,11.1307
667863,1626525715650,,,250,251,237,232,,0.0,0.01,-2.96,0,-0,0,0.01,,83,1804,7,31,91,0.909,0.0,189,4.72,13.4,0.0,1,0.5,3.19,2.6,0,0,0,1,0,,,,,,,,,,,,,,,,,,,,
667883,1626525715670,,,250,251,237,232,,0.01,0.01,-2.98,0,-0,0,0.01,,83,1771,7,31,91,0.908,0.0,189,4.81,13.4,0.0,1,0.5,3.19,2.6,0,0,0,1,0,,,,,,,,,,,,,,,,,,,,
667903,1626525715690,,,250,251,237,232,,0.01,0.01,-2.98,0,-0,0,0.01,,83,1702,7,31,92,0.908,0.0,183,4.76,13.5,0.0,1,0.5,3.19,2.6,0,0,0,1,0,,,,,,,,,,,,,,,,,,,,
667923,1626525715710,,,250,251,237,232,,0.0,0.01,-2.98,0,0,0,0.01,,83,1624,7,31,92,0.906,0.0,181,4.77,13.5,0.0,1,0.5,3.19,2.6,0,0,0,1,0,,,,,,,,,,,,,,,,,,,,
667943,1626525715730,-0,2,250,251,237,232,5,0.0,0.01,-2.99,0,0,0,0.01,0,83,1600,7,31,92,0.905,0.0,182,4.81,13.5,0.0,1,0.5,2.09,2.6,0,0,0,1,0,0,250,250,0,45.700291,4.909502,0.0,192.5,9,3,1.8,3,0.505,0,0.0,,3.53,4,0.07,11.1324
667963,1626525715750,,,250,251,237,232,,-0.01,0.0,-2.96,0,0,0,0.01,,83,1675,7,31,92,0.905,0.0,187,4.77,13.5,0.0,1,0.5,3.19,2.4,0,0,0,1,0,,,,,,,,,,,,,,,,,,,,
667983,1626525715770,,,250,251,237,232,,-0.01,0.01,-2.97,0,0,0,0.01,,83,1729,7,31,92,0.904,0.0,186,4.8,13.5,0.0,1,0.5,3.19,2.4,0,0,0,1,0,,,,,,,,,,,,,,,,,,,,
668003,1626525715790,,,250,251,237,232,,-0.01,0.01,-2.95,0,-0,0,0.01,,83,1694,7,31,92,0.903,0.0,184,4.75,13.4,0.0,1,0.5,2.09,2.4,0,0,0,1,0,,,,,,,,,,,,,,,,,,,,
668023,1626525715809,,,250,251,237,232,,-0.0,0.01,-2.98,0,0,0,0.01,,83,1603,7,31,92,0.902,0.0,183,4.73,13.4,0.0,1,0.5,2.09,2.4,0,0,0,1,0,,,,,,,,,,,,,,,,,,,,
668043,1626525715829,-0,2,250,251,237,232,5,-0.0,0.01,-2.99,0,-0,0,0.01,0,83,1522,7,31,92,0.902,0.0,180,4.72,13.4,0.0,1,0.5,3.19,2.4,0,0,0,1,0,0,250,250,0,45.700291,4.909502,0.0,192.5,9,3,1.8,3,0.505,0,0.0,0.4512,3.5317,4,0.07,11.1341
668063,1626525715849,,,250,251,237,232,,-0.0,0.01,-3.01,0,-0,0,0.01,,83,1568,7,31,92,0.902,0.0,178,4.69,13.3,0.0,1,0.6,3.19,2.3,0,0,0,1,0,,,,,,,,,,,,,,,,,,,,
668083,1626525715869,,,250,251,237,232,,0.01,0.01,-3.01,0,-0,0,0.01,,83,1706,7,31,92,0.901,0.0,180,4.78,13.4,0.0,1,0.6,3.19,2.3,0,0,0,1,0,,,,,,,,,,,,,,,,,,,,
668103,1626525715889,,,250,251,237,232,,0.01,0.01,-3.01,0,-0,0,0.02,,83,1752,7,31,92,0.9,0.0,183,4.76,13.5,0.0,1,0.6,2.09,2.3,0,0,0,1,0,,,,,,,,,,,,,,,,,,,,
668123,1626525715909,,,250,251,237,232,,0.01,0.01,-3.03,0,-0,0,0.01,,83,1721,7,31,93,0.899,0.0,184,4.77,13.5,0.0,1,0.6,3.19,2.3,0,0,0,1,0,,,,,,,,,,,,,,,,,,,,
668143,1626525715929,1,0,250,251,237,232,5,0.0,0.01,-3.02,0,-0,0,0.01,0,83,1673,7,31,92,0.898,0.0,183,4.77,13.5,0.0,1,0.6,3.19,2.3,0,0,0,1,0,0,250,250,0,45.700291,4.909502,0.0,192.5,9,3,1.8,3,0.505,0,0.0,,3.5333,4,0.07,11.1357
668163,1626525715949,,,250,251,237,232,,0.0,0.01,-3.01,0,-0,0,0.01,,83,1588,7,31,92,0.897,0.0,179,4.81,13.4,0.0,1,0.6,3.19,2.3,0,0,0,1,0,,,,,,,,,,,,,,,,,,,,
668183,1626525715969,,,250,251,237,232,,-0.0,0.02,-3.0,0,-0,0,0.02,,83,1566,7,31,93,0.896,0.0,178,4.78,13.5,0.0,1,0.6,2.09,2.3,0,0,0,1,0,,,,,,,,,,,,,,,,,,,,
668203,1626525715989,,,250,251,237,232,,-0.01,0.02,-3.0,0,-0,0,0.02,,83,1628,7,31,93,0.895,0.0,181,4.76,13.5,0.0,1,0.6,3.19,2.3,0,0,0,1,0,,,,,,,,,,,,,,,,,,,,
668223,1626525716003,,,250,251,237,232,,-0.0,0.01,-3.0,0,-0,0,0.01,,83,1683,7,31,92,0.895,0.0,183,4.76,13.5,0.0,1,0.6,3.19,2.3,0,0,0,1,0,,,,,,,,,,,,,,,,,,,,
668243,1626525716023,-0,2,250,251,237,232,5,0.0,0.01,-3.01,0,-0,0,0.01,0,83,1635,7,31,92,0.894,0.0,183,4.76,13.2,0.0,1,0.6,2.09,2.3,0,0,0,1,0,0,250,250,0,45.700291,4.909502,0.0,192.5,9,3,1.8,3,0.505,0,0.0,0.4512,3.535,4,0.07,11.1374
668263,1626525716043,,,250,251,237,232,,0.01,0.01,-3.01,0,-0,0,0.01,,83,1545,7,31,92,0.894,0.0,179,4.81,13.1,0.0,1,0.8,2.09,2.2,0,0,0,1,0,,,,,,,,,,,,,,,,,,,,
668283,1626525716063,,,250,251,237,232,,0.01,0.01,-3.0,0,-1,0,0.02,,83,1492,7,31,92,0.893,0.0,174,4.77,13.2,0.0,1,0.8,2.09,2.2,0,0,0,1,0,,,,,,,,,,,,,,,,,,,,
668303,1626525716083,,,250,251,237,232,,0.02,0.01,-3.0,0,-1,0,0.02,,83,1531,7,31,92,0.892,0.0,173,4.74,13.2,0.0,1,0.8,3.19,2.2,0,0,0,1,0,,,,,,,,,,,,,,,,,,,,
668323,1626525716109,,,250,251,237,232,,0.02,0.01,-2.99,0,-1,0,0.02,,83,1655,7,31,92,0.891,0.0,180,4.8,13.3,0.0,1,0.8,3.19,2.2,0,0,0,1,0,,,,,,,,,,,,,,,,,,,,
668343,1626525716129,-1,2,250,251,237,232,5,0.02,0.01,-3.01,0,-1,0,0.02,0,83,1722,7,31,93,0.891,0.0,185,4.79,13.5,0.0,1,0.8,3.19,2.2,0,0,0,1,0,0,250,250,0,45.700291,4.909502,0.0,192.5,9,3,1.8,3,0.505,0,0.0,,3.5367,4,0.07,11.139
668363,1626525716149,,,250,251,237,232,,0.02,0.01,-3.01,0,-1,0,0.02,,83,1715,7,31,93,0.891,0.0,182,4.79,13.5,0.0,1,0.8,3.19,2.5,0,0,0,1,0,,,,,,,,,,,,,,,,,,,,
668383,1626525716169,,,250,251,237,232,,0.01,-0.0,-3.0,0,-1,0,0.01,,83,1638,7,31,92,0.892,0.0,179,4.78,13.5,0.0,1,0.8,2.09,2.5,0,0,0,1,0,,,,,,,,,,,,,,,,,,,,
668403,1626525716189,,,250,251,237,232,,0.01,-0.0,-2.99,0,-1,0,0.01,,83,1552,7,31,93,0.892,0.0,178,4.79,13.5,0.0,1,0.8,3.19,2.5,0,0,0,1,0,,,,,,,,,,,,,,,,,,,,
668423,1626525716209,,,250,251,237,232,,0.01,-0.0,-2.95,0,-1,0,0.01,,83,1543,7,31,93,0.894,0.0,181,4.77,13.5,0.0,1,0.8,3.19,2.5,0,0,0,1,0,,,,,,,,,,,,,,,,,,,,
668443,1626525716229,1,2,250,251,237,232,4,-0.0,-0.0,-2.96,0,-1,0,0.0,0,83,1842,7,31,92,0.894,0.0,187,4.74,13.5,0.0,1,0.8,3.19,2.5,0,0,0,1,0,0,250,250,0,45.700291,4.909502,0.0,192.5,9,3,1.8,3,0.505,0,0.0,0.4512,3.5383,4,0.07,11.1407
668463,1626525716249,,,250,251,237,232,,0.0,0.0,-2.99,0,-1,0,0.0,,83,1855,7,31,92,0.894,0.0,189,4.74,13.2,0.0,1,0.8,3.19,2.5,0,0,0,1,0,,,,,,,,,,,,,,,,,,,,
668483,1626525716269,,,250,251,237,232,,0.01,0.01,-2.97,0,-1,0,0.01,,83,1807,7,31,92,0.895,0.0,189,4.76,13.4,0.0,1,0.8,3.19,2.7,0,0,0,1,0,,,,,,,,,,,,,,,,,,,,
668503,1626525716289,,,250,251,237,232,,0.0,0.01,-2.98,0,-1,0,0.01,,83,1743,7,31,92,0.895,0.0,188,4.8,13.5,0.0,1,0.8,3.19,2.7,0,0,0,1,0,,,,,,,,,,,,,,,,,,,,
668523,1626525716307,,,250,251,237,232,,-0.0,0.01,-2.96,0,-1,0,0.01,,83,1686,7,31,92,0.896,0.0,186,4.75,13.5,0.0,1,0.8,3.19,2.7,0,0,0,1,0,,,,,,,,,,,,,,,,,,,,
668543,1626525716327,0,0,250,251,237,232,5,-0.01,0.01,-2.98,0,-0,0,0.01,0,83,1730,7,31,92,0.896,0.0,187,4.78,13.5,0.0,1,0.8,3.19,2.7,0,0,0,1,0,0,250,250,0,45.700291,4.909502,0.0,192.5,9,3,1.8,3,0.505,0,0.0,,3.54,4,0.07,11.1424
668563,1626525716347,,,250,251,237,232,,0.0,0.0,-2.96,0,-1,0,0.0,,83,1906,7,31,92,0.897,0.0,192,4.74,13.4,0.0,1,0.8,3.19,2.8,0,0,0,1,0,,,,,,,,,,,,,,,,,,,,
668583,1626525716367,,,250,251,237,232,,0.01,0.01,-2.94,0,-1,0,0.01,,83,1867,7,31,92,0.898,0.0,192,4.74,13.5,0.0,1,0.8,3.19,2.8,0,0,0,1,0,,,,,,,,,,,,,,,,,,,,
668603,1626525716387,,,250,251,237,232,,0.0,0.01,-2.97,0,-0,0,0.01,,83,1801,7,31,92,0.899,0.0,195,4.77,13.5,0.0,1,0.8,3.19,2.8,0,0,0,1,0,,,,,,,,,,,,,,,,,,,,
668623,1626525716409,,,250,251,237,232,,-0.0,0.0,-2.94,0,-0,0,0.0,,83,1723,7,31,92,0.9,0.0,189,4.76,13.5,0.0,1,0.8,2.09,2.8,0,0,0,1,0,,,,,,,,,,,,,,,,,,,,
668643,1626525716429,0,0,250,251,237,232,5,-0.01,0.0,-2.94,0,-0,1,0.01,0,83,1721,7,31,92,0.9,0.0,186,4.78,13.5,0.0,1,0.8,3.19,2.8,0,0,0,1,0,0,250,250,0,45.700291,4.909502,0.0,192.5,9,3,1.8,3,0.505,0,0.0,0.4512,3.5417,4,0.07,11.144
668663,1626525716449,,,250,251,237,232,,-0.0,0.0,-2.96,0,-1,0,0.0,,83,1921,7,31,91,0.9,0.0,193,4.72,13.3,0.0,1,0.7,3.19,2.8,0,0,0,1,0,,,,,,,,,,,,,,,,,,,,
668683,1626525716469,,,250,251,237,232,,0.01,0.01,-2.93,0,-0,0,0.01,,83,1908,7,31,92,0.9,0.0,200,4.77,13.5,0.0,1,0.7,3.19,2.8,0,0,0,1,0,,,,,,,,,,,,,,,,,,,,
668703,1626525716489,,,250,251,237,232,,-0.0,0.01,-2.92,0,-0,1,0.01,,83,1877,7,31,92,0.901,0.0,194,4.77,13.5,0.0,1,0.7,3.19,2.8,0,0,0,1,0,,,,,,,,,,,,,,,,,,,,
668723,1626525716509,,,250,251,237,232,,-0.01,0.0,-2.96,0,-0,1,0.01,,83,1796,7,31,92,0.901,0.0,189,4.8,13.5,0.0,1,0.7,3.19,2.8,0,0,0,1,0,,,,,,,,,,,,,,,,,,,,
668743,1626525716529,0,3,250,251,237,232,5,-0.0,0.0,-2.93,0,-0,1,0.01,0,83,1785,7,31,91,0.901,0.0,192,4.77,13.5,0.0,1,0.7,3.19,2.8,0,0,0,1,0,0,250,250,0,45.700291,4.909502,0.0,192.5,9,3,1.8,3,0.505,0,0.0,,3.5433,4,0.07,11.1457
668763,1626525716549,,,250,251,237,232,,0.0,0.0,-2.96,0,-0,1,0.0,,83,1866,7,31,91,0.902,0.0,194,4.8,13.4,0.0,1,0.7,3.19,2.7,0,0,0,1,0,,,,,,,,,,,,,,,,,,,,
668783,1626525716569,,,250,251,237,232,,0.01,0.0,-2.99,0,-0,0,0.01,,83,1904,7,31,92,0.903,0.0,195,4.79,13.5,0.0,1,0.7,3.19,2.7,0,0,0,1,0,,,,,,,,,,,,,,,,,,,,
668803,1626525716589,,,250,251,237,232,,0.0,0.01,-2.92,0,-0,0,0.01,,83,1879,7,31,92,0.904,0.0,194,4.78,13.5,0.0,1,0.7,2.09,2.7,0,0,0,1,0,,,,,,,,,,,,,,,,,,,,
668823,1626525716609,,,250,251,237,232,,-0.0,0.01,-2.96,0,-0,1,0.01,,83,1807,7,31,91,0.905,0.0,191,4.81,13.5,0.0,1,0.7,3.19,2.7,0,0,0,1,0,,,,,,,,,,,,,,,,,,,,
668843,1626525716629,-1,2,250,251,237,232,5,0.0,0.01,-2.97,0,-0,0,0.01,0,83,1729,7,31,91,0.906,0.0,188,4.73,13.4,0.0,1,0.7,3.19,2.7,0,0,0,1,0,0,250,250,0,45.700291,4.909502,0.0,192.5,9,3,1.8,3,0.505,0,0.0,0.4512,3.545,4,0.07,11.1474
668863,1626525716649,,,250,251,237,232,,0.01,0.02,-2.96,0,-0,0,0.02,,83,1786,7,31,91,0.908,0.0,188,4.8,13.4,0.0,1,0.7,3.19,2.6,0,0,0,1,0,,,,,,,,,,,,,,,,,,,,
668883,1626525716669,,,250,251,237,232,,0.01,0.01,-3.01,0,-0,0,0.02,,83,1847,7,31,92,0.909,0.0,191,4.8,13.5,0.0,1,0.7,2.09,2.6,0,0,0,1,0,,,,,,,,,,,,,,,,,,,,
668903,1626525716689,,,250,251,237,232,,0.0,0.01,-2.93,0,-0,0,0.01,,83,1833,7,31,92,0.911,0.0,190,4.76,13.5,0.0,1,0.7,2.09,2.6,0,0,0,1,0,,,,,,,,,,,,,,,,,,,,
668923,1626525716709,,,250,251,237,232,,-0.0,0.0,-2.95,0,0,0,0.01,,83,1776,7,31,92,0.912,0.0,189,4.81,13.5,0.0,1,0.7,3.19,2.6,0,0,0,1,0,,,,,,,,,,,,,,,,,,,,
668943,1626525716729,0,1,250,251,237,232,4,-0.0,0.0,-2.95,0,-0,0,0.0,0,83,1705,7,31,92,0.913,0.0,189,4.79,13.5,0.0,1,0.7,3.19,2.6,0,0,0,1,0,0,250,250,0,45.700291,4.909502,0.0,192.5,9,3,1.8,3,0.505,0,0.0,,3.5467,4,0.07,11.149
668963,1626525716749,,,250,251,237,232,,0.01,0.0,-2.96,0,-0,0,0.01,,83,1752,7,31,91,0.914,0.0,185,4.72,13.3,0.0,1,0.7,3.19,2.5,0,0,0,1,0,,,,,,,,,,,,,,,,,,,,
668983,1626525716769,,,250,251,237,232,,0.01,0.0,-2.95,0,-0,0,0.01,,83,1837,7,31,92,0.915,0.0,188,4.78,13.5,0.0,1,0.7,3.19,2.5,0,0,0,1,0,,,,,,,,,,,,,,,,,,,,
669003,1626525716789,,,250,251,237,232,,0.01,0.0,-2.99,0,0,0,0.01,,83,1848,7,31,92,0.916,0.0,193,4.77,13.5,0.0,1,0.7,2.09,2.5,0,0,0,1,0,,,,,,,,,,,,,,,,,,,,
669023,1626525716808,,,250,251,237,232,,-0.0,0.01,-2.99,0,0,0,0.01,,83,1808,7,31,92,0.917,0.0,195,4.77,13.5,0.0,1,0.7,3.19,2.5,0,0,0,1,0,,,,,,,,,,,,,,,,,,,,
669043,1626525716828,-1,3,250,251,237,232,5,0.0,0.01,-2.97,0,0,0,0.01,0,83,1737,7,31,92,0.918,0.0,187,4.79,13.5,0.0,1,0.7,3.19,2.5,0,0,0,1,0,0,250,250,0,45.700291,4.909502,0.0,192.5,9,3,1.8,3,0.505,0,0.0,0.4512,3.5483,4,0.07,11.1507
669063,1626525716848,,,250,251,237,232,,0.0,0.0,-2.98,0,0,0,0.0,,83,1722,7,31,91,0.918,0.0,183,4.75,13.4,0.0,1,0.8,2.09,2.5,0,0,0,1,0,,,,,,,,,,,,,,,,,,,,
669083,1626525716868,,,250,251,237,232,,0.01,0.01,-2.98,0,0,0,0.01,,83,1808,7,31,91,0.917,0.0,189,4.8,13.2,0.0,1,0.8,2.09,2.5,0,0,0,1,0,,,,,,,,,,,,,,,,,,,,
669103,1626525716888,,,250,251,237,232,,0.02,0.01,-3.01,0,0,0,0.02,,83,1868,7,31,92,0.917,0.0,194,4.77,13.5,0.0,1,0.8,2.09,2.5,0,0,0,1,0,,,,,,,,,,,,,,,,,,,,
669123,1626525716910,,,250,251,237,232,,0.01,-0.0,-2.97,0,0,0,0.01,,83,1797,7,31,92,0.917,0.0,190,4.77,13.5,0.0,1,0.8,3.19,2.5,0,0,0,1,0,,,,,,,,,,,,,,,,,,,,
669143,1626525716930,0,2,250,251,237,232,4,0.0,0.0,-2.98,0,0,0,0.0,0,83,1713,7,31,92,0.916,0.0,184,4.8,13.5,0.0,1,0.8,3.19,2.5,0,0,0,1,0,0,250,250,0,45.700291,4.909502,0.0,192.5,9,3,1.8,3,0.505,0,0.0,,3.55,4,0.07,11.1524
669163,1626525716950,,,250,251,237,232,,0.0,0.0,-2.97,0,0,0,0.0,,83,1630,7,31,92,0.915,0.0,182,4.77,13.5,0.0,1,0.8,3.19,2.4,0,0,0,1,0,,,,,,,,,,,,,,,,,,,,
669183,1626525716970,,,250,251,237,232,,0.01,0.0,-2.99,0,-0,0,0.01,,83,1870,7,31,91,0.914,0.0,189,4.73,13.4,0.0,1,0.8,2.09,2.4,0,0,0,1,0,,,,,,,,,,,,,,,,,,,,
669203,1626525716990,,,250,251,237,232,,0.02,0.0,-2.98,0,-0,0,0.02,,83,1936,7,31,92,0.913,0.0,194,4.8,13.5,0.0,1,0.8,3.19,2.4,0,0,0,1,0,,,,,,,,,,,,,,,,,,,,
669223,1626525717004,,,250,251,237,232,,0.01,0.0,-3.0,0,0,1,0.01,,83,1878,7,31,92,0.912,0.0,193,4.79,13.5,0.0,1,0.8,3.19,2.4,0,0,0,1,0,,,,,,,,,,,,,,,,,,,,
669243,1626525717024,-0,2,250,251,237,232,5,0.0,0.0,-3.01,0,0,0,0.0,0,83,1829,7,31,92,0.911,0.0,189,4.8,13.5,0.0,1,0.8,3.19,2.4,0,0,0,1,0,0,250,250,0,45.700291,4.909502,0.0,192.5,9,3,1.8,3,0.505,0,0.0,0.4512,3.5517,4,0.07,11.154
669263,1626525717044,,,250,251,237,232,,0.0,0.01,-2.98,0,0,0,0.01,,83,1794,7,31,91,0.91,0.0,189,4.75,13.5,0.0,1,0.9,2.09,2.6,0,0,0,1,0,,,,,,,,,,,,,,,,,,,,
669283,1626525717064,,,250,251,237,232,,0.01,0.01,-3.05,0,0,1,0.01,,83,1909,7,31,91,0.909,0.0,196,4.79,13.4,0.0,1,0.9,3.19,2.6,0,0,0,1,0,,,,,,,,,,,,,,,,,,,,
669303,1626525717084,,,250,251,237,232,,0.02,0.01,-3.06,0,0,1,0.02,,83,1943,7,31,92,0.907,0.0,196,4.8,13.5,0.0,1,0.9,2.09,2.6,0,0,0,1,0,,,,,,,,,,,,,,,,,,,,
669323,1626525717110,,,250,251,237,232,,0.01,0.01,-3.01,0,-0,0,0.01,,83,1878,7,31,92,0.906,0.0,193,4.78,13.5,0.0,1,0.9,3.19,2.6,0,0,0,1,0,,,,,,,,,,,,,,,,,,,,
669343,1626525717130,-1,2,250,251,237,232,5,0.01,0.01,-3.01,0,-0,1,0.02,0,83,1764,7,31,91,0.906,0.0,194,4.75,13.4,0.0,1,0.9,3.19,2.6,0,0,0,1,0,0,250,250,0,45.700291,4.909502,0.0,192.5,9,3,1.8,3,0.505,0,0.0,,3.5533,4,0.07,11.1557
669363,1626525717150,,,250,251,237,232,,0.01,0.01,-3.03,0,-0,0,0.02,,83,1814,7,31,91,0.904,0.0,194,4.78,13.2,0.0,1,0.9,3.19,2.6,0,0,0,1,0,,,,,,,,,,,,,,,,,,,,
669383,1626525717170,,,250,251,237,232,,0.02,0.02,-3.01,0,-0,0,0.03,,83,1880,7,31,91,0.904,0.0,192,4.75,13.5,0.0,1,0.9,3.19,2.6,0,0,0,1,0,,,,,,,,,,,,,,,,,,,,
669403,1626525717190,,,250,251,237,232,,0.01,0.02,-2.99,0,0,0,0.02,,83,1910,7,31,92,0.904,0.0,194,4.77,13.5,0.0,1,0.9,3.19,2.6,0,0,0,1,0,,,,,,,,,,,,,,,,,,,,
669423,1626525717210,,,250,251,237,232,,0.0,0.01,-3.03,0,0,1,0.01,,83,1859,7,31,91,0.905,0.0,195,4.75,13.5,0.0,1,0.9,3.19,2.6,0,0,0,1,0,,,,,,,,,,,,,,,,,,,,
669443,1626525717230,0,1,250,251,237,232,5,0.01,0.01,-2.99,0,-0,0,0.01,0,83,1727,7,31,91,0.904,0.0,192,4.73,13.4,0.0,1,0.9,2.09,2.6,0,0,0,1,0,0,250,250,0,45.700291,4.909502,0.0,192.5,9,3,1.8,3,0.505,0,0.0,0.4512,3.555,4,0.07,11.1574
669463,1626525717250,,,250,251,237,232,,0.01,0.01,-3.01,0,-0,1,0.02,,83,1730,7,31,91,0.904,0.0,187,4.79,13.2,0.0,1,0.9,3.19,2.6,0,0,0,1,0,,,,,,,,,,,,,,,,,,,,
669483,1626525717270,,,250,251,237,232,,0.02,0.01,-3.02,0,-0,1,0.02,,83,1790,7,31,92,0.906,0.0,187,4.77,13.5,0.0,1,1.0,3.19,2.5,0,0,0,1,0,,,,,,,,,,,,,,,,,,,,
669503,1626525717290,,,250,251,237,232,,0.01,0.01,-3.0,0,0,1,0.02,,83,1856,7,31,92,0.906,0.0,192,4.8,13.5,0.0,1,1.0,3.19,2.5,0,0,0,1,0,,,,,,,,,,,,,,,,,,,,
669523,1626525717310,,,250,251,237,232,,0.0,0.01,-3.05,0,0,1,0.01,,83,1814,7,31,92,0.907,0.0,191,4.76,13.5,0.0,1,1.0,3.19,2.5,0,0,0,1,0,,,,,,,,,,,,,,,,,,,,
669543,1626525717330,-0,2,250,251,237,232,5,0.01,0.01,-3.01,0,-0,1,0.01,0,83,1760,7,31,91,0.908,0.0,189,4.78,13.5,0.0,1,1.0,3.19,2.5,0,0,0,1,0,0,250,250,0,45.700291,4.909502,0.0,192.5,9,3,1.8,3,0.505,0,0.0,,3.5567,4,0.07,11.159
669563,1626525717350,,,250,251,237,232,,0.01,0.0,-3.03,0,-0,1,0.01,,83,1675,7,31,91,0.909,0.0,185,4.73,13.4,0.0,1,1.0,3.19,2.4,0,0,0,1,0,,,,,,,,,,,,,,,,,,,,
669583,1626525717370,,,250,251,237,232,,0.01,0.01,-3.04,0,-0,1,0.01,,83,1737,7,31,91,0.909,0.0,184,4.79,13.4,0.0,1,1.0,3.19,2.4,0,0,0,1,0,,,,,,,,,,,,,,,,,,,,
669603,1626525717390,,,250,251,237,232,,0.02,0.01,-3.03,0,-0,0,0.02,,83,1815,7,31,92,0.91,0.0,189,4.79,13.5,0.0,1,1.0,2.09,2.4,0,0,0,1,0,,,,,,,,,,,,,,,,,,,,
669623,1626525717410,,,250,251,237,232,,0.01,0.01,-3.01,0,-0,0,0.01,,83,1766,7,31,92,0.912,0.0,192,4.77,13.5,0.0,1,1.0,2.09,2.4,0,0,0,1,0,,,,,,,,,,,,,,,,,,,,
669643,1626525717430,0,2,250,251,237,232,4,0.01,0.01,-3.01,0,-0,0,0.01,0,83,1724,7,31,92,0.912,0.0,185,4.77,13.5,0.0,1,1.0,3.19,2.4,0,0,0,1,0,0,250,250,0,45.700291,4.909502,0.0,192.5,9,3,1.8,3,0.505,0,0.0,0.4512,3.5583,4,0.07,11.1607
669663,1626525717450,,,250,251,237,232,,0.01,0.01,-3.0,0,-0,0,0.01,,83,1650,7,31,92,0.913,0.0,180,4.8,13.5,0.0,1,1.2,3.19,2.4,0,0,0,1,0,,,,,,,,,,,,,,,,,,,,
669683,1626525717470,,,250,251,237,232,,0.0,0.01,-2.99,0,-0,0,0.01,,83,1633,7,31,92,0.913,0.0,185,4.74,13.5,0.0,1,1.2,3.19,2.4,0,0,0,1,0,,,,,,,,,,,,,,,,,,,,
669703,1626525717490,,,250,251,237,232,,0.01,0.01,-3.01,0,-0,0,0.01,,83,1800,7,31,92,0.913,0.0,190,4.72,13.3,0.0,1,1.2,3.19,2.4,0,0,0,1,0,,,,,,,,,,,,,,,,,,,,
669723,1626525717510,,,250,251,237,232,,0.02,0.01,-2.97,0,-0,0,0.02,,83,1874,7,31,92,0.914,0.0,192,4.78,13.5,0.0,1,1.2,3.19,2.4,0,0,0,1,0,,,,,,,,,,,,,,,,,,,,
669743,1626525717530,-1,2,250,251,237,232,5,0.01,0.01,-2.99,0,0,0,0.02,0,83,1830,7,31,92,0.913,0.0,189,4.8,13.5,0.0,1,1.2,3.19,2.4,0,0,0,1,0,0,250,250,0,45.700291,4.909502,0.0,192.5,9,3,1.8,3,0.505,0,0.0,,3.56,4,0.07,11.1624
669763,1626525717550,,,250,251,237,232,,0.0,0.02,-2.98,0,0,0,0.02,,83,1745,7,31,92,0.914,0.0,189,4.78,13.5,0.0,1,1.2,3.19,2.5,0,0,0,1,0,,,,,,,,,,,,,,,,,,,,
669783,1626525717570,,,250,251,237,232,,0.0,0.02,-2.97,0,0,0,0.02,,83,1680,7,31,92,0.914,0.0,186,4.76,13.5,0.0,1,1.2,2.09,2.5,0,0,0,1,0,,,,,,,,,,,,,,,,,,,,
669803,1626525717590,,,250,251,237,232,,0.0,0.01,-2.99,0,0,0,0.01,,83,1815,7,31,91,0.914,0.0,189,4.77,13.5,0.0,1,1.2,3.19,2.5,0,0,0,1,0,,,,,,,,,,,,,,,,,,,,
669823,1626525717610,,,250,251,237,232,,0.01,0.01,-2.99,0,0,0,0.02,,83,1839,7,31,91,0.913,0.0,189,4.79,13.3,0.0,1,1.2,3.19,2.5,0,0,0,1,0,,,,,,,,,,,,,,,,,,,,
669843,1626525717630,-1,2,250,251,237,232,5,0.02,0.01,-3.01,0,-0,0,0.02,0,83,1877,7,31,92,0.913,0.0,193,4.77,13.5,0.0,1,1.2,3.19,2.5,0,0,0,1,0,0,250,250,0,45.700291,4.909502,0.0,192.5,9,3,1.8,3,0.505,0,0.0,0.4512,3.5617,4,0.07,11.1641
669863,1626525717650,,,250,251,237,232,,0.01,0.01,-2.95,0,-0,0,0.01,,83,1843,7,31,92,0.913,0.0,192,4.8,13.5,0.0,1,1.2,3.19,2.7,0,0,0,1,0,,,,,,,,,,,,,,,,,,,,
669883,1626525717670,,,250,251,237,232,,0.0,0.01,-2.97,0,0,0,0.01,,83,1769,7,31,92,0.912,0.0,191,4.81,13.5,0.0,1,1.2,2.09,2.7,0,0,0,1,0,,,,,,,,,,,,,,,,,,,,
669903,1626525717690,,,250,251,237,232,,0.0,0.01,-2.95,0,-0,0,0.01,,83,1756,7,31,91,0.911,0.0,187,4.73,13.5,0.0,1,1.2,3.19,2.7,0,0,0,1,0,,,,,,,,,,,,,,,,,,,,
669923,1626525717710,,,250,251,237,232,,0.01,0.0,-2.97,0,0,0,0.01,,83,1829,7,31,91,0.91,0.0,187,4.81,13.4,0.0,1,1.2,3.19,2.7,0,0,0,1,0,,,,,,,,,,,,,,,,,,,,
669943,1626525717730,0,1,250,251,237,232,4,0.02,0.0,-3.0,0,0,0,0.02,0,83,1818,7,31,92,0.91,0.0,191,4.78,13.5,0.0,1,1.2,3.19,2.7,0,0,0,1,0,0,250,250,0,45.700291,4.909502,0.0,192.5,9,3,1.8,3,0.505,0,0.0,,3.5633,4,0.07,11.1657
669963,1626525717750,,,250,251,237,232,,0.01,0.0,-2.96,0,0,0,0.01,,83,1784,7,31,92,0.909,0.0,193,4.78,13.5,0.0,1,1.2,2.09,2.7,0,0,0,1,0,,,,,,,,,,,,,,,,,,,,
669983,1626525717770,,,250,251,237,232,,0.0,0.0,-2.99,0,0,0,0.0,,83,1751,7,31,92,0.907,0.0,188,4.8,13.5,0.0,1,1.2,3.19,2.6,0,0,0,1,0,,,,,,,,,,,,,,,,,,,,
670003,1626525717790,,,250,251,237,232,,-0.0,0.01,-2.98,0,0,0,0.01,,83,1695,7,31,92,0.907,0.0,183,4.76,13.5,0.0,1,1.2,3.19,2.6,0,0,0,1,0,,,,,,,,,,,,,,,,,,,,
670023,1626525717809,,,250,251,237,232,,0.0,0.0,-2.98,0,0,0,0.0,,83,1725,7,31,92,0.905,0.0,185,4.71,13.3,0.0,1,1.2,2.09,2.6,0,0,0,1,0,,,,,,,,,,,,,,,,,,,,
670043,1626525717829,0,1,250,251,237,232,5,0.01,0.0,-2.98,0,0,0,0.01,0,83,1756,7,31,92,0.904,0.0,189,4.81,13.4,0.0,1,1.2,3.19,2.6,0,0,0,1,0,0,250,250,0,45.700291,4.909502,0.0,192.5,9,3,1.8,3,0.505,0,0.0,0.4512,3.565,4,0.07,11.1674
670063,1626525717849,,,250,251,237,232,,0.01,0.0,-2.98,0,0,0,0.01,,83,1718,7,31,92,0.903,0.0,186,4.74,13.5,0.0,1,1.2,3.19,2.6,0,0,0,1,0,,,,,,,,,,,,,,,,,,,,
670083,1626525717869,,,250,251,237,232,,0.01,0.0,-3.0,0,0,0,0.01,,83,1653,7,31,92,0.902,0.0,181,4.77,13.5,0.0,1,1.2,3.19,2.5,0,0,0,1,0,,,,,,,,,,,,,,,,,,,,
670103,1626525717889,,,250,251,237,232,,0.01,0.0,-3.0,0,0,0,0.01,,83,1569,7,31,92,0.901,0.0,179,4.79,13.5,0.0,1,1.2,3.19,2.5,0,0,0,1,0,,,,,,,,,,,,,,,,,,,,
670123,1626525717909,,,250,251,237,232,,0.01,-0.0,-3.0,0,0,0,0.01,,83,1561,7,31,92,0.9,0.0,180,4.78,13.5,0.0,1,1.2,2.09,2.5,0,0,0,1,0,,,,,,,,,,,,,,,,,,,,
670143,1626525717929,-0,2,250,251,237,232,5,-0.0,0.0,-2.95,0,0,0,0.01,0,83,1673,7,31,93,0.9,0.0,185,4.78,13.5,0.0,1,1.2,3.19,2.5,0,0,0,1,0,0,250,250,0,45.700291,4.909502,0.0,192.5,9,3,1.8,3,0.505,0,0.0,,3.5667,4,0.07,11.1691
670163,1626525717949,,,250,251,237,232,,-0.01,-0.0,-2.97,0,0,0,0.01,,83,1787,7,31,92,0.899,0.0,188,4.76,13.5,0.0,1,1.2,3.19,2.6,0,0,0,1,0,,,,,,,,,,,,,,,,,,,,
670183,1626525717969,,,250,251,237,232,,-0.01,-0.0,-2.98,0,0,0,0.01,,83,1761,7,31,92,0.898,0.0,187,4.76,13.2,0.0,1,1.2,2.09,2.6,0,0,0,1,0,,,,,,,,,,,,,,,,,,,,
670203,1626525717989,,,250,251,237,232,,-0.0,0.0,-2.98,0,0,0,0.0,,83,1671,7,31,91,0.898,0.0,183,4.77,13.3,0.0,1,1.2,3.19,2.6,0,0,0,1,0,,,,,,,,,,,,,,,,,,,,
670223,1626525718003,,,250,251,237,232,,0.0,0.01,-2.98,0,0,0,0.01,,83,1590,7,31,91,0.897,0.0,180,4.77,13.4,0.0,1,1.2,2.09,2.6,0,0,0,1,0,,,,,,,,,,,,,,,,,,,,
670243,1626525718023,0,0,250,251,237,232,5,0.01,0.01,-2.98,0,0,0,0.01,0,83,1604,7,31,92,0.896,0.0,180,4.8,13.5,0.0,1,1.2,2.09,2.6,0,0,0,1,0,0,250,250,0,45.700291,4.909502,0.0,192.5,9,3,1.8,3,0.505,0,0.0,0.4512,3.5683,4,0.07,11.1707
670263,1626525718043,,,250,251,237,232,,0.01,-0.0,-3.0,0,-0,0,0.01,,83,1756,7,31,92,0.896,0.0,185,4.78,13.5,0.0,1,1.2,3.19,2.5,0,0,0,1,0,,,,,,,,,,,,,,,,,,,,
670283,1626525718063,,,250,251,237,232,,-0.0,0.0,-2.95,0,-0,0,0.0,,83,1829,7,31,92,0.895,0.0,187,4.78,13.5,0.0,1,1.2,3.19,2.5,0,0,0,1,0,,,,,,,,,,,,,,,,,,,,
670303,1626525718083,,,250,251,237,232,,-0.01,0.0,-2.96,0,-0,0,0.01,,83,1802,7,31,92,0.895,0.0,191,4.8,13.5,0.0,1,1.2,3.19,2.5,0,0,0,1,0,,,,,,,,,,,,,,,,,,,,
670323,1626525718107,,,250,251,237,232,,-0.0,-0.0,-2.97,0,-0,0,0.0,,83,1678,7,31,92,0.895,0.0,189,4.72,13.4,0.0,1,1.2,2.09,2.5,0,0,0,1,0,,,,,,,,,,,,,,,,,,,,
670343,1626525718127,-1,2,250,251,237,232,5,0.0,0.0,-2.98,0,-0,0,0.0,0,83,1653,7,31,91,0.895,0.0,184,4.76,13.2,0.0,1,1.2,3.19,2.5,0,0,0,1,0,0,250,250,0,45.700291,4.909502,0.0,192.5,9,3,1.8,3,0.505,0,0.0,,3.57,4,0.07,11.1724
670363,1626525718147,,,250,251,237,232,,0.01,-0.0,-2.96,0,-0,0,0.01,,83,1731,7,31,92,0.895,0.0,183,4.78,13.4,0.0,1,1.2,3.19,2.5,0,0,0,1,0,,,,,,,,,,,,,,,,,,,,
670383,1626525718167,,,250,251,237,232,,0.0,-0.01,-3.0,0,-0,0,0.01,,83,1804,7,31,92,0.895,0.0,189,4.78,13.5,0.0,1,1.2,3.19,2.5,0,0,0,1,0,,,,,,,,,,,,,,,,,,,,
670403,1626525718187,,,250,251,237,232,,-0.01,-0.0,-2.95,0,-0,0,0.01,,83,1834,7,31,92,0.894,0.0,194,4.8,13.5,0.0,1,1.2,2.09,2.5,0,0,0,1,0,,,,,,,,,,,,,,,,,,,,
670423,1626525718209,,,250,251,237,232,,-0.01,-0.01,-2.97,0,-0,0,0.01,,83,1786,7,31,92,0.893,0.0,189,4.77,13.5,0.0,1,1.2,2.09,2.5,0,0,0,1,0,,,,,,,,,,,,,,,,,,,,
670443,1626525718229,0,0,250,251,237,232,5,-0.0,-0.0,-2.97,0,-0,0,0.0,0,83,1605,7,31,92,0.893,0.0,183,4.8,13.5,0.0,1,1.2,3.19,2.5,0,0,0,1,0,0,250,250,0,45.700291,4.909502,0.0,192.5,9,3,1.8,3,0.505,0,0.0,0.4512,3.5717,4,0.07,11.1741
670463,1626525718249,,,250,251,237,232,,-0.0,-0.01,-2.97,0,-0,0,0.01,,83,1647,7,31,91,0.893,0.0,182,4.72,13.3,0.0,1,24.3,3.19,2.4,0,0,0,1,0,,,,,,,,,,,,,,,,,,,,
670483,1626525718269,,,250,251,237,232,,0.0,-0.01,-2.98,0,0,0,0.01,,83,1805,7,31,92,0.894,0.0,188,4.77,13.4,0.0,1,1.4,2.09,2.4,0,0,0,1,0,,,,,,,,,,,,,,,,,,,,
670503,1626525718289,,,250,251,237,232,,0.01,-0.0,-3.01,0,0,0,0.01,,83,1882,7,31,92,0.894,0.0,192,4.79,13.5,0.0,1,1.4,2.09,2.4,0,0,0,1,0,,,,,,,,,,,,,,,,,,,,
670523,1626525718309,,,250,251,237,232,,0.0,-0.0,-2.95,0,0,0,0.0,,83,1855,7,31,92,0.896,0.0,192,4.77,13.5,0.0,1,1.4,3.19,2.4,0,0,0,1,0,,,,,,,,,,,,,,,,,,,,
670543,1626525718329,0,2,250,251,237,232,5,0.0,-0.0,-2.97,0,0,0,0.0,0,83,1824,7,31,92,0.897,0.0,189,4.74,13.4,0.0,1,1.4,3.19,2.4,0,0,0,1,0,0,250,250,0,45.700291,4.909502,0.0,192.5,9,3,1.8,3,0.505,0,0.0,,3.5733,4,0.07,11.1757
670563,1626525718349,,,250,251,237,232,,0.0,-0.0,-2.97,0,-0,0,0.0,,83,1711,7,31,91,0.897,0.0,187,4.75,13.4,0.0,1,1.4,2.09,2.4,0,0,0,1,0,,,,,,,,,,,,,,,,,,,,
670583,1626525718369,,,250,251,237,232,,0.01,0.0,-2.96,0,-0,0,0.01,,83,1782,7,31,91,0.897,0.0,189,4.79,13.4,0.0,1,1.4,2.09,2.5,0,0,0,1,0,,,,,,,,,,,,,,,,,,,,
670603,1626525718389,,,250,251,237,232,,0.01,0.0,-3.0,0,0,0,0.01,,83,1842,7,31,92,0.897,0.0,189,4.77,13.5,0.0,1,1.4,2.09,2.5,0,0,0,1,0,,,,,,,,,,,,,,,,,,,,
670623,1626525718409,,,250,251,237,232,,0.0,-0.0,-2.94,0,0,0,0.0,,83,1854,7,31,92,0.898,0.0,191,4.78,13.5,0.0,1,1.4,3.19,2.5,0,0,0,1,0,,,,,,,,,,,,,,,,,,,,
670643,1626525718429,-1,2,250,251,237,232,5,-0.0,-0.0,-2.97,0,0,0,0.0,0,83,1842,7,31,92,0.9,0.0,192,4.78,13.5,0.0,1,1.4,3.19,2.5,0,0,0,1,0,0,250,250,0,45.700291,4.909502,0.0,192.5,9,3,1.8,3,0.505,0,0.0,0.4512,3.575,4,0.07,11.1774
670663,1626525718449,,,250,251,237,232,,0.0,-0.0,-2.97,0,0,0,0.0,,83,1685,7,31,91,0.901,0.0,189,4.72,13.3,0.0,1,1.5,2.09,2.4,0,0,0,1,0,,,,,,,,,,,,,,,,,,,,
670683,1626525718469,,,250,251,237,232,,0.01,0.0,-2.99,0,0,0,0.01,,83,1683,7,31,91,0.902,0.0,186,4.75,13.2,0.0,1,1.5,3.19,2.4,0,0,0,1,0,,,,,,,,,,,,,,,,,,,,
670703,1626525718489,,,250,251,237,232,,0.01,-0.0,-2.98,0,0,0,0.01,,83,1764,7,31,92,0.903,0.0,185,4.77,13.5,0.0,1,1.5,3.19,2.4,0,0,0,1,0,,,,,,,,,,,,,,,,,,,,
670723,1626525718509,,,250,251,237,232,,0.01,-0.01,-3.01,0,0,0,0.01,,83,1830,7,31,92,0.903,0.0,189,4.8,13.5,0.0,1,1.5,3.19,2.4,0,0,0,1,0,,,,,,,,,,,,,,,,,,,,
670743,1626525718529,1,1,250,251,237,232,5,0.0,0.0,-2.98,0,0,0,0.0,0,83,1847,7,31,92,0.903,0.0,192,4.77,13.5,0.0,1,1.5,3.19,2.4,0,0,0,1,0,0,250,250,0,45.700291,4.909502,0.0,192.5,9,3,1.8,3,0.505,0,0.0,,3.5767,4,0.07,11.1791
670763,1626525718549,,,250,251,237,232,,0.01,0.0,-2.98,0,-0,0,0.01,,83,1787,7,31,92,0.904,0.0,191,4.77,13.5,0.0,1,1.5,3.19,2.6,0,0,0,1,0,,,,,,,,,,,,,,,,,,,,
670783,1626525718569,,,250,251,237,232,,0.01,0.0,-3.0,0,0,0,0.01,,83,1641,7,31,91,0.904,0.0,185,4.73,13.4,0.0,1,1.5,3.19,2.6,0,0,0,1,0,,,,,,,,,,,,,,,,,,,,
670803,1626525718591,,,250,251,237,232,,0.01,-0.0,-3.04,0,-0,0,0.01,,84,1718,7,31,91,0.905,0.0,184,4.73,13.2,0.0,1,1.5,3.19,2.6,0,0,0,1,0,,,,,,,,,,,,,,,,,,,,
670823,1626525718611,,,250,251,237,232,,0.02,0.0,-3.02,0,0,0,0.02,,83,1850,7,31,92,0.906,0.0,192,4.79,13.5,0.0,1,1.5,3.19,2.6,0,0,0,1,0,,,,,,,,,,,,,,,,,,,,
670843,1626525718631,-1,2,250,251,237,232,5,0.01,0.0,-3.01,0,0,0,0.01,0,83,1878,7,31,92,0.907,0.0,195,4.76,13.5,0.0,1,1.5,2.09,2.6,0,0,0,1,0,0,250,250,0,45.700291,4.909502,0.0,192.5,9,3,1.8,3,0.505,0,0.0,0.4512,3.5783,4,0.07,11.1807
670863,1626525718651,,,250,251,237,232,,0.0,-0.0,-3.03,0,0,0,0.0,,83,1856,7,31,92,0.908,0.0,192,4.77,13.5,0.0,1,1.5,3.19,2.7,0,0,0,1,0,,,,,,,,,,,,,,,,,,,,
670883,1626525718671,,,250,251,237,232,,0.01,-0.0,-3.02,0,0,0,0.01,,83,1759,7,31,91,0.907,0.0,189,4.75,13.3,0.0,1,1.5,2.09,2.7,0,0,0,1,0,,,,,,,,,,,,,,,,,,,,
670903,1626525718691,,,250,251,237,232,,0.01,0.0,-3.02,0,0,0,0.01,,84,1758,7,31,91,0.907,0.0,189,4.77,13.4,0.0,1,1.5,3.19,2.7,0,0,0,1,0,,,,,,,,,,,,,,,,,,,,
670923,1626525718709,,,250,251,237,232,,0.01,0.01,-3.04,0,0,0,0.02,,83,1770,7,31,92,0.907,0.0,191,4.78,13.5,0.0,1,1.5,2.09,2.7,0,0,0,1,0,,,,,,,,,,,,,,,,,,,,
670943,1626525718729,0,2,250,251,237,232,5,0.01,0.01,-3.03,0,0,0,0.01,0,83,1766,7,31,92,0.908,0.0,189,4.78,13.5,0.0,1,1.5,3.19,2.7,0,0,0,1,0,0,250,250,0,45.700291,4.909502,0.0,192.5,9,3,1.8,3,0.505,0,0.0,,3.58,4,0.07,11.1824
670963,1626525718749,,,250,251,237,232,,0.0,0.01,-3.01,0,0,0,0.01,,83,1723,7,31,92,0.908,0.0,184,4.8,13.5,0.0,1,1.5,3.19,2.5,0,0,0,1,0,,,,,,,,,,,,,,,,,,,,
670983,1626525718769,,,250,251,237,232,,-0.0,0.01,-3.0,0,0,0,0.01,,83,1678,7,31,92,0.909,0.0,183,4.77,13.5,0.0,1,1.5,2.09,2.5,0,0,0,1,0,,,,,,,,,,,,,,,,,,,,
671003,1626525718789,,,250,251,237,232,,-0.0,0.01,-3.01,0,0,0,0.01,,83,1619,7,31,92,0.909,0.0,183,4.76,13.5,0.0,1,1.5,2.09,2.5,0,0,0,1,0,,,,,,,,,,,,,,,,,,,,
671023,1626525718809,,,250,251,237,232,,0.0,0.01,-3.0,0,0,0,0.01,,83,1717,7,31,92,0.909,0.0,187,4.75,13.4,0.0,1,1.5,3.19,2.5,0,0,0,1,0,,,,,,,,,,,,,,,,,,,,
671043,1626525718829,0,1,250,251,237,232,5,0.01,0.01,-3.01,0,0,0,0.01,0,84,1765,7,31,92,0.908,0.0,184,4.81,13.4,0.0,1,1.5,3.19,2.5,0,0,0,1,0,0,250,250,0,45.700291,4.909502,0.0,192.5,9,3,1.8,3,0.505,0,0.0,0.4512,3.5817,4,0.07,11.184
671063,1626525718849,,,250,251,237,232,,0.01,0.01,-2.98,0,0,0,0.02,,83,1775,7,31,92,0.908,0.0,187,4.77,13.5,0.0,1,1.5,3.19,2.6,0,0,0,1,0,,,,,,,,,,,,,,,,,,,,
671083,1626525718869,,,250,251,237,232,,0.01,0.01,-3.0,0,0,0,0.02,,83,1707,7,31,92,0.906,0.0,187,4.78,13.5,0.0,1,1.5,3.19,2.6,0,0,0,1,0,,,,,,,,,,,,,,,,,,,,
671103,1626525718889,,,250,251,237,232,,0.01,0.01,-3.01,0,0,0,0.01,,83,1613,7,31,92,0.906,0.0,183,4.8,13.4,0.0,1,1.5,3.19,2.6,0,0,0,1,0,,,,,,,,,,,,,,,,,,,,
671123,1626525718910,,,250,251,237,232,,0.01,0.01,-3.01,0,-0,0,0.02,,83,1547,7,31,92,0.907,0.0,178,4.78,13.5,0.0,1,1.5,2.09,2.6,0,0,0,1,0,,,,,,,,,,,,,,,,,,,,
671143,1626525718930,0,0,250,251,237,232,5,0.0,0.02,-3.0,0,0,0,0.02,0,83,1609,7,31,92,0.906,0.0,182,4.79,13.5,0.0,1,1.5,3.19,2.6,0,0,0,1,0,0,250,250,0,45.700291,4.909502,0.0,192.5,9,3,1.8,3,0.505,0,0.0,,3.5833,4,0.07,11.1857
671163,1626525718950,,,250,251,237,232,,-0.0,0.01,-2.99,0,-0,0,0.01,,83,1756,7,31,92,0.907,0.0,187,4.8,13.5,0.0,1,1.5,3.19,2.6,0,0,0,1,0,,,,,,,,,,,,,,,,,,,,
671183,1626525718970,,,250,251,237,232,,-0.0,0.01,-2.98,0,-0,0,0.01,,83,1763,7,31,92,0.906,0.0,189,4.73,13.4,0.0,1,1.5,3.19,2.5,0,0,0,1,0,,,,,,,,,,,,,,,,,,,,
671203,1626525718990,,,250,250,237,232,,0.01,0.01,-3.0,0,-0,0,0.01,,84,1713,7,31,92,0.906,0.0,187,4.81,13.2,0.0,1,1.5,3.19,2.5,0,0,0,1,0,,,,,,,,,,,,,,,,,,,,
671223,1626525719002,,,250,251,237,232,,0.01,0.01,-3.0,0,0,0,0.02,,83,1652,7,31,92,0.906,0.0,182,4.75,13.4,0.0,1,1.5,3.19,2.5,0,0,0,1,0,,,,,,,,,,,,,,,,,,,,
671243,1626525719022,0,2,250,251,237,232,4,0.01,0.01,-3.0,0,0,0,0.01,0,84,1618,7,31,92,0.906,0.0,180,4.78,13.5,0.0,1,1.5,2.09,2.5,0,0,0,1,0,0,250,250,0,45.700291,4.909502,0.0,192.5,9,3,1.8,3,0.505,0,0.0,0.4512,3.585,4,0.07,11.1874
671263,1626525719042,,,250,251,237,232,,0.01,0.01,-3.02,0,0,0,0.01,,83,1630,7,31,92,0.905,0.0,182,4.81,13.5,0.0,1,1.7,3.19,2.4,0,0,0,1,0,,,,,,,,,,,,,,,,,,,,
671283,1626525719062,,,250,251,237,232,,0.0,0.0,-3.0,0,0,0,0.0,,83,1696,7,31,93,0.904,0.0,187,4.77,13.5,0.0,1,1.7,3.19,2.4,0,0,0,1,0,,,,,,,,,,,,,,,,,,,,
671303,1626525719082,,,250,251,237,232,,-0.0,0.0,-3.01,0,0,0,0.0,,83,1725,7,31,92,0.904,0.0,183,4.81,13.5,0.0,1,1.7,3.19,2.4,0,0,0,1,0,,,,,,,,,,,,,,,,,,,,
671323,1626525719108,,,250,251,237,232,,-0.0,0.0,-3.01,0,0,0,0.0,,83,1661,7,31,92,0.903,0.0,180,4.78,13.5,0.0,1,1.7,3.19,2.4,0,0,0,1,0,,,,,,,,,,,,,,,,,,,,
671343,1626525719128,0,1,250,251,237,232,4,-0.0,0.0,-3.01,0,1,0,0.0,0,83,1583,7,31,92,0.904,0.0,178,4.75,13.5,0.0,1,1.7,3.19,2.4,0,0,0,1,0,0,250,250,0,45.700291,4.909502,0.0,192.5,9,3,1.8,3,0.505,0,0.0,,3.5867,4,0.07,11.189
671363,1626525719148,,,250,251,237,232,,-0.0,0.0,-2.99,0,1,0,0.0,,83,1516,7,31,92,0.903,0.0,178,4.76,13.5,0.0,1,1.7,3.19,2.2,0,0,0,1,0,,,,,,,,,,,,,,,,,,,,
671383,1626525719168,,,250,251,237,232,,0.0,0.0,-2.98,0,1,0,0.0,,83,1760,7,31,92,0.902,0.0,184,4.78,13.4,0.0,1,1.7,3.19,2.2,0,0,0,1,0,,,,,,,,,,,,,,,,,,,,
671403,1626525719188,,,250,251,237,232,,0.01,0.01,-2.97,0,1,0,0.01,,84,1849,7,31,92,0.9,0.0,186,4.77,13.4,0.0,1,1.7,3.19,2.2,0,0,0,1,0,,,,,,,,,,,,,,,,,,,,
671423,1626525719210,,,250,251,237,232,,0.01,0.0,-3.02,0,1,0,0.01,,84,1786,7,31,92,0.899,0.0,187,4.78,13.5,0.0,1,1.7,3.19,2.2,0,0,0,1,0,,,,,,,,,,,,,,,,,,,,
671443,1626525719230,-1,2,250,251,237,232,5,0.0,0.0,-3.0,0,1,0,0.0,0,84,1729,7,31,92,0.898,0.0,187,4.8,13.5,0.0,1,1.7,2.09,2.2,0,0,0,1,0,0,250,250,0,45.700291,4.909502,0.0,192.5,9,3,1.8,3,0.505,0,0.0,0.4512,3.5883,4,0.07,11.1907
671463,1626525719250,,,250,251,237,232,,-0.0,0.0,-2.99,0,1,0,0.0,,83,1659,7,31,92,0.898,0.0,186,4.76,13.5,0.0,1,1.8,3.19,2.4,0,0,0,1,0,,,,,,,,,,,,,,,,,,,,
671483,1626525719270,,,250,251,237,232,,-0.01,0.0,-3.0,0,1,0,0.01,,83,1692,7,31,92,0.897,0.0,187,4.78,13.5,0.0,1,1.8,2.09,2.4,0,0,0,1,0,,,,,,,,,,,,,,,,,,,,
671503,1626525719290,,,250,251,237,232,,-0.0,0.0,-3.03,0,0,0,0.0,,84,1917,7,31,92,0.896,0.0,191,4.74,13.2,0.0,1,1.8,2.09,2.4,0,0,0,1,0,,,,,,,,,,,,,,,,,,,,
671523,1626525719310,,,250,251,237,232,,0.01,0.01,-3.03,0,0,0,0.01,,84,1918,7,31,92,0.896,0.0,196,4.77,13.5,0.0,1,1.8,2.09,2.4,0,0,0,1,0,,,,,,,,,,,,,,,,,,,,
671543,1626525719330,-1,2,250,251,237,232,5,-0.0,0.01,-2.96,0,0,0,0.01,0,84,1887,7,31,92,0.897,0.0,197,4.8,13.5,0.0,1,1.8,3.19,2.4,0,0,0,1,0,0,250,250,0,45.700291,4.909502,0.0,192.5,9,3,1.8,3,0.505,0,0.0,,3.59,4,0.07,11.1924
671563,1626525719350,,,250,251,237,232,,-0.01,0.01,-2.99,0,0,0,0.01,,84,1802,7,31,92,0.897,0.0,192,4.77,13.5,0.0,1,1.8,2.09,2.4,0,0,0,1,0,,,,,,,,,,,,,,,,,,,,
671583,1626525719370,,,250,251,237,232,,-0.0,0.01,-2.98,0,0,0,0.01,,84,1806,7,31,91,0.896,0.0,189,4.75,13.4,0.0,1,1.8,3.19,2.6,0,0,0,1,0,,,,,,,,,,,,,,,,,,,,
671603,1626525719390,,,250,251,237,232,,0.0,0.01,-2.97,0,0,0,0.01,,84,1904,7,31,91,0.896,0.0,192,4.78,13.5,0.0,1,1.8,3.19,2.6,0,0,0,1,0,,,,,,,,,,,,,,,,,,,,
671623,1626525719410,,,250,251,237,232,,-0.0,0.01,-3.01,0,1,0,0.01,,84,1929,7,31,92,0.896,0.0,198,4.79,13.5,0.0,1,1.8,3.19,2.6,0,0,0,1,0,,,,,,,,,,,,,,,,,,,,
671643,1626525719430,0,0,250,251,237,232,5,-0.01,0.0,-3.03,0,1,0,0.01,0,84,1918,7,31,91,0.897,0.0,197,4.78,13.5,0.0,1,1.8,2.09,2.6,0,0,0,1,0,0,250,250,0,45.700291,4.909502,0.0,192.5,9,3,1.8,3,0.505,0,0.0,0.4512,3.5917,4,0.07,11.194
671663,1626525719450,,,250,251,237,232,,-0.0,0.0,-3.01,0,0,0,0.01,,84,1787,7,31,91,0.897,0.0,191,4.7,13.4,0.0,1,1.9,3.19,2.6,0,0,0,1,0,,,,,,,,,,,,,,,,,,,,
671683,1626525719470,,,250,251,237,232,,0.0,0.01,-2.99,0,0,0,0.01,,84,1785,7,31,91,0.898,0.0,189,4.81,13.4,0.0,1,1.9,3.19,2.6,0,0,0,1,0,,,,,,,,,,,,,,,,,,,,
671703,1626525719490,,,250,251,237,232,,0.01,-0.0,-3.03,0,0,0,0.01,,84,1883,7,31,92,0.897,0.0,194,4.77,13.5,0.0,1,1.9,3.19,2.6,0,0,0,1,0,,,,,,,,,,,,,,,,,,,,
671723,1626525719510,,,250,251,237,232,,-0.0,-0.0,-3.01,0,0,0,0.0,,84,1944,7,31,92,0.897,0.0,198,4.79,13.5,0.0,1,1.9,3.19,2.6,0,0,0,1,0,,,,,,,,,,,,,,,,,,,,
671743,1626525719530,-1,2,250,251,237,232,5,0.01,-0.0,-3.0,0,-0,0,0.01,0,84,1858,7,31,91,0.897,0.0,194,4.71,13.4,0.0,1,1.9,2.09,2.6,0,0,0,1,0,0,250,250,0,45.700291,4.909502,0.0,192.5,9,3,1.8,3,0.505,0,0.0,,3.5933,4,0.07,11.1957
671763,1626525719550,,,250,251,237,232,,0.01,0.0,-3.0,0,0,0,0.01,,84,1793,7,31,91,0.896,0.0,191,4.77,13.4,0.0,1,1.9,2.09,2.6,0,0,0,1,0,,,,,,,,,,,,,,,,,,,,
671783,1626525719570,,,250,251,237,232,,0.01,0.0,-3.04,0,0,0,0.01,,84,1783,7,31,91,0.896,0.0,192,4.8,13.5,0.0,1,1.9,3.19,2.6,0,0,0,1,0,,,,,,,,,,,,,,,,,,,,
671803,1626525719590,,,250,251,237,232,,0.0,0.0,-2.95,0,0,0,0.0,,84,1883,7,31,92,0.896,0.0,197,4.8,13.5,0.0,1,1.9,3.19,2.6,0,0,0,1,0,,,,,,,,,,,,,,,,,,,,
671823,1626525719610,,,250,251,237,232,,0.0,0.01,-2.95,0,0,0,0.01,,84,1913,7,31,91,0.896,0.0,196,4.73,13.4,0.0,1,1.9,2.09,2.6,0,0,0,1,0,,,,,,,,,,,,,,,,,,,,
671843,1626525719630,0,2,250,251,237,232,4,0.01,0.0,-2.97,0,0,0,0.01,0,84,1861,7,31,91,0.895,0.0,195,4.79,13.4,0.0,1,1.9,2.09,2.6,0,0,0,1,0,0,250,250,0,45.700291,4.909502,0.0,192.5,9,3,1.8,3,0.505,0,0.0,0.4512,3.595,4,0.07,11.1974
671863,1626525719650,,,250,251,237,232,,0.01,-0.0,-2.99,0,0,0,0.01,,84,1790,7,31,91,0.895,0.0,193,4.75,13.5,0.0,1,2.0,3.19,2.6,0,0,0,1,0,,,,,,,,,,,,,,,,,,,,
