"Interval"|"ms"|0|0|1,"Utc"|"ms"|0|0|1,"Brake_F"|"Bar"|0|2000|10,"Brake_R"|"Bar"|0|2000|10,"Height_RF"|"mm"|0|255|50,"Height_LF"|"mm"|0|255|50,"Height_LR"|"mm"|0|80|50,"Height_RR"|"mm"|0|255|50,"Steering"|"deg"|-100|100|10,"AccelX"|"G"|-3.0|3.0|50,"AccelY"|"G"|-3.0|3.0|50,"AccelZ"|"G"|-3.0|3.0|50,"Yaw"|"Deg/Sec"|-120|120|50,"Pitch"|"Deg/Sec"|-120|120|50,"Roll"|"Deg/Sec"|-120|120|50,"Gsum"|"G"|0.0|3.0|50,"Log_Button"|""|0.0|10.0|10,"WaterTemp"|"C"|0|150|50,"RPM"|"tr/min"|0|14000|50,"TPS"|"%"|0|100|50,"AirTemp"|"C"|0|150|50,"MAP"|"KPa"|0|100|50,"Lambda"|""|0.5|1.5|50,"SpeedDTA"|"kph"|0.0|250.0|50,"OilPress"|"KPa"|0|1500|50,"FuelPressur"|"Bar"|0.0|10.0|50,"Batterie"|"V"|0.0|20.0|50,"ConsoKm"|"L/100km"|0.0|200.0|50,"Gear"|""|0|6|50,"AdvIgnition"|"Deg"|-20.0|70.0|50,"Injection"|"ms"|0.0|10.0|50,"ConsoHr"|"L/Hr"|0.0|10000.0|50,"LC_But_Pres"|""|0|1|50,"LC_Active"|""|0|1|50,"TractionOn"|""|0|1|50,"TractionWet"|""|0|1|50,"FanOn"|""|0|1|50,"RD_Speed"|"km/h"|-30|250|10,"RUD_Speed"|"km/h"|-30|250|10,"LD_Speed"|"km/h"|-30|250|10,"LUD_Speed"|"km/h"|-30|250|10,"Latitude"|"Degrees"|-180.0|180.0|10,"Longitude"|"Degrees"|-180.0|180.0|10,"Speed"|"kph"|0.0|150.0|10,"Altitude"|"m"|0.0|4000.0|10,"GPSSats"|""|0|20|10,"GPSQual"|""|0|5|10,"GPSDOP"|""|0.0|20.0|10,"LapCount"|""|0|0|10,"LapTime"|"Min"|0.0|0.0|10,"Sector"|""|0|0|10,"SectorTime"|"Min"|0.0|0.0|10,"PredTime"|"Min"|0.0|0.0|5,"ElapsedTime"|"Min"|0.0|0.0|10,"CurrentLap"|""|0|0|10,"Distance"|"km"|0.0|0.0|10,"SessionTime"|"Min"|0.0|0.0|10
107063,1626541480282,,,250,251,236,231,,0.02,-0.04,-2.32,0,0,0,0.05,,82,6967,10,28,42,0.862,0.0,633,4.75,13.3,0.0,1,31.8,1.15,7.3,0,0,0,1,0,,,,,,,,,,,,,,,,,,,,
107083,1626541480302,,,250,250,236,230,,0.0,-0.06,-2.41,0,0,0,0.06,,82,6970,10,28,42,0.862,0.0,636,4.71,13.4,0.0,1,31.8,2.28,7.3,0,0,0,1,0,,,,,,,,,,,,,,,,,,,,
107103,1626541480322,,,250,250,236,230,,0.08,-0.02,-2.22,0,-2,-2,0.08,,82,6993,10,28,42,0.861,0.0,637,4.66,13.1,0.0,1,31.8,1.15,7.3,0,0,0,1,0,,,,,,,,,,,,,,,,,,,,
107123,1626541480342,,,250,251,236,230,,-0.01,-0.05,-2.36,0,0,1,0.05,,82,6959,10,28,42,0.861,0.0,635,4.72,13.3,0.0,1,31.8,1.15,7.3,0,0,0,1,0,,,,,,,,,,,,,,,,,,,,
107143,1626541480362,7,6,250,251,236,231,3,0.01,-0.03,-2.32,0,-1,1,0.03,1,82,6988,10,28,42,0.86,0.0,637,4.71,13.4,0.0,1,31.8,2.28,7.3,0,0,0,1,0,0,250,250,0,45.700329,4.909405,0.0,195.1,11,3,1.3,0,0.0,-1,0.0,,0.0,0,0.0,1.7857
107163,1626541480382,,,250,250,236,230,,0.07,-0.01,-2.14,0,-2,-1,0.07,,82,6962,10,28,42,0.861,0.0,628,4.8,13.2,0.0,1,31.8,2.28,7.3,0,0,0,1,0,,,,,,,,,,,,,,,,,,,,
107183,1626541480402,,,250,251,236,230,,-0.01,-0.02,-2.28,0,1,2,0.02,,82,6972,10,28,42,0.862,0.0,635,4.81,13.3,0.0,1,31.8,2.28,7.3,0,0,0,1,0,,,,,,,,,,,,,,,,,,,,
107203,1626541480422,,,250,250,236,230,,0.03,0.02,-2.1,0,-1,-0,0.03,,82,6954,10,28,42,0.863,0.0,637,4.72,13.3,0.0,1,31.7,2.28,7.3,0,0,0,1,0,,,,,,,,,,,,,,,,,,,,
107223,1626541480442,,,250,252,236,230,,0.06,-0.02,-2.04,0,-1,-1,0.06,,82,6970,10,28,42,0.863,0.0,631,4.73,13.3,0.0,1,31.8,2.28,7.3,0,0,0,1,0,,,,,,,,,,,,,,,,,,,,
107243,1626541480462,8,4,250,251,236,230,2,-0.0,-0.03,-2.19,0,1,2,0.03,1,82,6962,10,28,42,0.864,0.0,632,4.75,13.4,0.0,1,31.8,2.28,7.3,0,0,0,1,0,0,250,250,0,45.700329,4.909405,0.0,195.1,11,3,1.3,0,0.0,-1,0.0,0.0,0.0,0,0.0,1.7874
107263,1626541480482,,,250,250,236,230,,0.06,-0.01,-2.02,0,-1,-0,0.06,,82,6998,10,28,42,0.865,0.0,640,4.65,13.2,0.0,1,31.8,2.28,7.3,0,0,0,1,0,,,,,,,,,,,,,,,,,,,,
107283,1626541480502,,,250,251,236,230,,0.06,-0.02,-2.11,0,-1,-1,0.06,,82,6985,10,28,42,0.866,0.0,635,4.81,13.3,0.0,1,31.8,1.15,7.3,0,0,0,1,0,,,,,,,,,,,,,,,,,,,,
107303,1626541480522,,,250,251,236,230,,-0.01,-0.04,-2.26,0,1,2,0.04,,82,7017,10,28,42,0.866,0.0,634,4.78,13.4,0.0,1,31.9,2.28,7.3,0,0,0,1,0,,,,,,,,,,,,,,,,,,,,
107323,1626541480542,,,250,250,236,230,,0.05,0.0,-2.08,0,-1,-1,0.05,,82,6993,10,28,42,0.867,0.0,640,4.72,13.3,0.0,1,31.8,2.28,7.3,0,0,0,1,0,,,,,,,,,,,,,,,,,,,,
107343,1626541480562,8,5,250,251,236,230,3,0.13,0.04,-1.92,0,-2,-1,0.14,0,82,7014,10,28,42,0.868,0.0,635,4.81,13.3,0.0,1,31.9,2.28,7.3,0,0,0,1,0,0,250,250,0,45.700329,4.909405,0.0,195.1,11,3,1.3,0,0.0,-1,0.0,,0.0,0,0.0,1.789
107363,1626541480582,,,250,251,236,230,,0.06,0.01,-2.08,0,1,2,0.06,,82,7009,10,28,42,0.869,0.0,634,4.73,13.3,0.0,1,31.9,2.28,7.4,0,0,0,1,0,,,,,,,,,,,,,,,,,,,,
107383,1626541480604,,,250,250,236,230,,0.04,0.01,-2.23,0,-2,-1,0.04,,82,6962,10,28,42,0.869,0.0,635,4.73,13.3,0.0,1,31.8,2.28,7.4,0,0,0,1,0,,,,,,,,,,,,,,,,,,,,
107403,1626541480624,,,250,251,236,230,,0.12,0.0,-2.05,0,-1,-1,0.12,,82,7014,10,28,42,0.869,0.0,624,4.72,13.3,0.0,1,31.9,1.15,7.4,0,0,0,1,0,,,,,,,,,,,,,,,,,,,,
107423,1626541480644,,,250,251,236,230,,0.06,-0.02,-2.2,0,1,1,0.07,,82,7011,10,28,42,0.868,0.0,632,4.69,13.4,0.0,1,31.9,2.28,7.4,0,0,0,1,0,,,,,,,,,,,,,,,,,,,,
107443,1626541480664,8,6,250,251,236,230,3,0.02,-0.04,-2.34,0,-1,-1,0.04,0,82,7006,10,28,42,0.866,0.0,639,4.68,13.3,0.0,1,31.9,2.28,7.4,0,0,0,1,0,0,250,250,0,45.700329,4.909405,0.0,195.1,11,3,1.3,0,0.0,-1,0.0,0.0,0.0,0,0.0,1.7907
107463,1626541480684,,,250,251,236,230,,0.09,0.0,-2.16,0,-2,-1,0.09,,82,7004,10,28,42,0.865,0.0,631,4.71,13.2,0.0,1,31.9,1.15,7.4,0,0,0,1,0,,,,,,,,,,,,,,,,,,,,
107483,1626541480703,,,250,251,236,230,,0.02,-0.04,-2.3,0,1,1,0.04,,82,6998,10,28,42,0.864,0.0,633,4.73,13.4,0.0,1,31.8,2.28,7.4,0,0,0,1,0,,,,,,,,,,,,,,,,,,,,
107503,1626541480723,,,250,250,236,230,,-0.0,-0.04,-2.43,0,-2,-1,0.04,,82,6936,10,28,42,0.863,0.0,645,4.75,13.3,0.0,1,31.7,2.28,7.4,0,0,0,1,0,,,,,,,,,,,,,,,,,,,,
107523,1626541480743,,,250,251,236,231,,0.07,-0.02,-2.24,0,-1,-1,0.07,,82,6988,10,28,42,0.863,0.0,634,4.81,13.3,0.0,1,31.8,1.15,7.4,0,0,0,1,0,,,,,,,,,,,,,,,,,,,,
107543,1626541480763,7,6,250,251,236,231,3,0.0,-0.04,-2.38,0,1,1,0.04,0,82,6970,10,28,42,0.863,0.0,635,4.73,13.4,0.0,1,31.8,2.28,7.4,0,0,0,1,0,0,250,250,0,45.700329,4.909405,0.0,195.1,11,3,1.3,0,0.0,-1,0.0,,0.0,0,0.0,1.7924
107563,1626541480783,,,250,250,236,230,,0.02,-0.05,-2.39,0,-2,-2,0.05,,82,6952,10,28,42,0.862,0.0,640,4.66,13.2,0.0,1,31.7,2.28,7.3,0,0,0,1,0,,,,,,,,,,,,,,,,,,,,
107583,1626541480803,,,250,251,236,230,,0.08,-0.04,-2.21,0,0,0,0.09,,82,6934,10,28,42,0.862,0.0,628,4.73,13.4,0.0,1,31.7,2.28,7.3,0,0,0,1,0,,,,,,,,,,,,,,,,,,,,
107603,1626541480823,,,250,251,236,230,,0.01,-0.07,-2.34,0,0,0,0.07,,82,6918,10,28,42,0.862,0.0,630,4.65,13.4,0.0,1,31.7,2.28,7.3,0,0,0,1,0,,,,,,,,,,,,,,,,,,,,
107623,1626541480843,,,250,250,236,230,,0.06,-0.05,-2.16,0,-1,-2,0.08,,82,6947,10,28,42,0.861,0.0,636,4.69,13.1,0.0,1,31.7,1.15,7.3,0,0,0,1,0,,,,,,,,,,,,,,,,,,,,
107643,1626541480863,8,6,250,251,236,230,3,0.05,-0.05,-2.29,0,1,1,0.07,0,82,6949,10,28,42,0.861,0.0,625,4.75,13.3,0.0,1,31.7,2.28,7.3,0,0,0,1,0,0,250,250,0,45.700329,4.909405,0.0,195.1,11,3,1.3,0,0.0,-1,0.0,0.0,0.0,0,0.0,1.794
107663,1626541480883,,,250,250,236,230,,0.02,-0.06,-2.42,0,-1,-1,0.06,,82,6913,10,28,42,0.862,0.0,625,4.73,13.3,0.0,1,31.7,2.28,7.3,0,0,0,1,0,,,,,,,,,,,,,,,,,,,,
107683,1626541480903,,,250,252,236,230,,0.08,-0.01,-2.24,0,-1,-1,0.08,,82,6921,10,28,42,0.864,0.0,625,4.75,13.2,0.0,1,31.7,2.28,7.3,0,0,0,1,0,,,,,,,,,,,,,,,,,,,,
107703,1626541480923,,,250,251,236,230,,-0.01,-0.05,-2.37,0,2,1,0.05,,82,6944,10,28,42,0.865,0.0,635,4.74,13.3,0.0,1,31.7,2.28,7.3,0,0,0,1,0,,,,,,,,,,,,,,,,,,,,
107723,1626541480943,,,250,250,236,230,,0.02,-0.01,-2.24,0,-2,-2,0.03,,82,6939,10,28,42,0.866,0.0,629,4.73,13.2,0.0,1,31.7,2.28,7.3,0,0,0,1,0,,,,,,,,,,,,,,,,,,,,
107743,1626541480963,8,5,250,252,236,230,3,0.07,-0.02,-2.09,0,0,0,0.07,0,82,6980,10,28,42,0.866,0.0,630,4.8,13.4,0.0,1,31.8,2.28,7.3,0,0,0,1,0,0,250,250,0,45.700329,4.909405,0.0,195.1,11,3,1.3,0,0.0,-1,0.0,,0.0,0,0.0,1.7957
107763,1626541480983,,,250,250,236,230,,-0.0,0.01,-2.23,0,1,1,0.01,,82,6949,10,28,42,0.866,0.0,638,4.75,13.4,0.0,1,31.7,2.28,7.3,0,0,0,1,0,,,,,,,,,,,,,,,,,,,,
107783,1626541480995,,,250,250,236,230,,0.05,0.03,-2.06,0,-1,-1,0.06,,82,6923,10,28,42,0.867,0.0,640,4.66,13.1,0.0,1,31.7,2.28,7.3,0,0,0,1,0,,,,,,,,,,,,,,,,,,,,
107803,1626541481015,,,250,251,236,230,,0.03,0.04,-2.21,0,2,2,0.05,,82,6934,10,28,42,0.867,0.0,633,4.69,13.4,0.0,1,31.7,2.28,7.3,0,0,0,1,0,,,,,,,,,,,,,,,,,,,,
107823,1626541481035,,,250,250,236,230,,-0.0,0.02,-2.35,0,0,0,0.02,,82,6949,10,28,42,0.867,0.0,636,4.68,13.4,0.0,1,31.7,2.28,7.3,0,0,0,1,0,,,,,,,,,,,,,,,,,,,,
107843,1626541481055,7,6,250,251,236,230,3,0.07,0.04,-2.16,0,-1,-0,0.08,0,82,6939,10,28,42,0.868,0.0,626,4.73,13.1,0.0,1,31.7,1.15,7.3,0,0,0,1,0,0,250,250,0,45.700329,4.909405,0.0,195.1,11,3,1.3,0,0.0,-1,0.0,0.0,0.0,0,0.0,1.7974
107863,1626541481075,,,250,251,236,230,,-0.01,-0.02,-2.3,0,2,2,0.02,,82,6947,10,28,42,0.868,0.0,623,4.79,13.4,0.0,1,31.7,2.28,7.3,0,0,0,1,0,,,,,,,,,,,,,,,,,,,,
107883,1626541481103,,,250,250,236,230,,-0.0,-0.0,-2.25,0,-1,-1,0.0,,82,6926,10,28,42,0.869,0.0,632,4.74,13.1,0.0,1,31.7,2.28,7.3,0,0,0,1,0,,,,,,,,,,,,,,,,,,,,
107903,1626541481123,,,250,251,236,230,,0.05,0.01,-2.08,0,0,0,0.05,,82,6944,10,28,42,0.87,0.0,624,4.78,13.2,0.0,1,31.7,1.15,7.3,0,0,0,1,0,,,,,,,,,,,,,,,,,,,,
107923,1626541481143,,,250,251,236,230,,-0.02,-0.0,-2.22,0,1,2,0.02,,82,6972,10,28,42,0.87,0.0,627,4.67,13.2,0.0,1,31.8,2.28,7.3,0,0,0,1,0,,,,,,,,,,,,,,,,,,,,
107943,1626541481163,8,4,250,250,236,230,3,0.03,0.02,-2.05,0,-2,-1,0.03,0,82,6934,10,28,42,0.871,0.0,635,4.66,13.1,0.0,1,31.7,2.28,7.3,0,0,0,1,0,0,250,250,0,45.700329,4.909405,0.0,195.1,11,3,1.3,0,0.0,-1,0.0,,0.0,0,0.0,1.799
107963,1626541481183,,,250,251,236,230,,0.03,-0.01,-2.11,0,1,1,0.03,,82,6944,10,28,42,0.871,0.0,625,4.76,13.3,0.0,1,31.7,2.28,7.3,0,0,0,1,0,,,,,,,,,,,,,,,,,,,,
107983,1626541481203,,,250,251,236,230,,-0.01,-0.02,-2.26,0,0,1,0.02,,82,6947,10,28,42,0.87,0.0,632,4.66,13.2,0.0,1,31.7,2.28,7.3,0,0,0,1,0,,,,,,,,,,,,,,,,,,,,
108003,1626541481223,,,250,251,236,230,,0.06,-0.02,-2.08,0,-1,-1,0.07,,82,6939,10,28,42,0.87,0.0,635,4.73,13.1,0.0,1,31.7,2.28,7.3,0,0,0,1,0,,,,,,,,,,,,,,,,,,,,
108023,1626541481243,,,250,250,236,230,,0.01,-0.01,-2.23,0,2,2,0.01,,82,6947,10,28,42,0.87,0.0,631,4.74,13.4,0.0,1,31.7,2.28,7.3,0,0,0,1,0,,,,,,,,,,,,,,,,,,,,
108043,1626541481263,8,6,250,250,236,230,3,0.01,0.0,-2.29,0,-1,-0,0.01,0,82,6934,10,28,42,0.87,0.0,638,4.73,13.3,0.0,1,31.7,2.28,7.3,0,0,0,1,0,0,250,250,0,45.700329,4.909405,0.0,195.1,11,3,1.3,0,0.0,-1,0.0,0.0,0.0,0,0.0,1.8007
108063,1626541481283,,,250,251,236,230,,0.07,0.04,-2.11,0,0,-0,0.08,,82,6941,10,28,42,0.87,0.0,638,4.76,13.2,0.0,1,31.8,2.28,7.3,0,0,0,1,0,,,,,,,,,,,,,,,,,,,,
108083,1626541481303,,,250,251,236,230,,-0.02,-0.01,-2.26,0,2,2,0.02,,82,6918,10,28,42,0.87,0.0,634,4.77,13.4,0.0,1,31.7,2.28,7.3,0,0,0,1,0,,,,,,,,,,,,,,,,,,,,
108103,1626541481323,,,250,250,236,230,,0.03,0.04,-2.08,0,-1,-1,0.05,,82,6908,10,28,42,0.87,0.0,624,4.69,13.2,0.0,1,31.6,2.28,7.3,0,0,0,1,0,,,,,,,,,,,,,,,,,,,,
108123,1626541481343,,,250,251,236,230,,0.02,0.01,-2.23,0,2,1,0.02,,82,6923,10,28,42,0.869,0.0,627,4.75,13.3,0.0,1,31.7,1.15,7.3,0,0,0,1,0,,,,,,,,,,,,,,,,,,,,
108143,1626541481363,8,6,250,250,236,230,3,-0.01,0.0,-2.36,0,0,0,0.01,0,82,6916,10,28,42,0.868,0.0,633,4.68,13.3,0.0,1,31.7,2.28,7.3,0,0,0,1,0,0,250,250,0,45.700329,4.909405,0.0,195.1,11,3,1.3,0,0.0,-1,0.0,,0.0,0,0.0,1.8024
108163,1626541481383,,,250,250,236,230,,0.06,0.01,-2.18,0,-1,-1,0.06,,82,6895,10,28,42,0.867,0.0,625,4.73,13.2,0.0,1,31.6,1.16,7.2,0,0,0,1,0,,,,,,,,,,,,,,,,,,,,
108183,1626541481403,,,250,251,236,230,,-0.02,-0.01,-2.32,0,2,2,0.02,,82,6923,10,28,42,0.866,0.0,625,4.73,13.3,0.0,1,31.7,2.28,7.2,0,0,0,1,0,,,,,,,,,,,,,,,,,,,,
108203,1626541481423,,,250,250,236,230,,0.03,0.0,-2.14,0,-1,-1,0.03,,82,6911,10,28,42,0.865,0.0,635,4.72,13.2,0.0,1,31.7,2.28,7.2,0,0,0,1,0,,,,,,,,,,,,,,,,,,,,
108223,1626541481443,,,250,251,236,230,,0.05,-0.02,-2.13,0,1,1,0.05,,82,6939,10,28,42,0.865,0.0,632,4.8,13.3,0.0,1,31.7,1.15,7.2,0,0,0,1,0,,,,,,,,,,,,,,,,,,,,
108243,1626541481463,9,5,250,251,236,230,3,0.0,-0.02,-2.27,0,0,0,0.02,0,82,6913,10,28,42,0.865,0.0,627,4.72,13.4,0.0,1,31.7,2.28,7.2,0,0,0,1,0,0,250,250,0,45.700329,4.909405,0.0,195.1,11,3,1.3,0,0.0,-1,0.0,0.0,0.0,0,0.0,1.804
108263,1626541481483,,,250,251,236,230,,0.07,-0.02,-2.1,0,-1,-2,0.07,,82,6954,10,28,42,0.865,0.0,636,4.72,13.1,0.0,1,31.7,1.15,7.3,0,0,0,1,0,,,,,,,,,,,,,,,,,,,,
108283,1626541481503,,,250,251,236,230,,0.02,-0.01,-2.24,0,2,1,0.02,,82,6957,10,28,42,0.865,0.0,627,4.7,13.4,0.0,1,31.8,2.28,7.3,0,0,0,1,0,,,,,,,,,,,,,,,,,,,,
108303,1626541481523,,,250,250,236,230,,0.0,-0.01,-2.38,0,-0,-0,0.01,,82,6959,10,28,42,0.864,0.0,629,4.73,13.3,0.0,1,31.8,2.28,7.3,0,0,0,1,0,,,,,,,,,,,,,,,,,,,,
108323,1626541481543,,,250,251,236,230,,0.07,0.04,-2.19,0,-1,-1,0.08,,82,6985,10,28,42,0.864,0.0,635,4.71,13.3,0.0,1,31.8,1.15,7.3,0,0,0,1,0,,,,,,,,,,,,,,,,,,,,
108343,1626541481563,8,4,250,251,236,230,3,-0.02,-0.0,-2.33,0,2,1,0.02,0,82,6941,10,28,42,0.862,0.0,630,4.8,13.4,0.0,1,31.7,2.28,7.3,0,0,0,1,0,0,250,250,0,45.700329,4.909405,0.0,195.1,11,3,1.3,0,0.0,-1,0.0,,0.0,0,0.0,1.8057
108363,1626541481583,,,250,251,236,230,,0.01,0.03,-2.29,0,-1,-2,0.03,,82,6983,10,28,42,0.862,0.0,631,4.7,13.3,0.0,1,31.8,2.28,7.3,0,0,0,1,0,,,,,,,,,,,,,,,,,,,,
108383,1626541481603,,,250,251,236,230,,0.06,0.03,-2.12,0,-0,-1,0.06,,82,6962,10,28,42,0.862,0.0,633,4.78,13.2,0.0,1,31.7,2.28,7.3,0,0,0,1,0,,,,,,,,,,,,,,,,,,,,
108403,1626541481623,,,250,250,236,230,,-0.01,0.04,-2.26,0,1,1,0.04,,82,6926,10,28,42,0.862,0.0,635,4.8,13.4,0.0,1,31.7,2.28,7.3,0,0,0,1,0,,,,,,,,,,,,,,,,,,,,
108423,1626541481643,,,250,251,236,230,,0.04,0.07,-2.08,0,-1,-1,0.08,,82,6985,10,28,42,0.862,0.0,629,4.7,13.2,0.0,1,31.8,2.28,7.3,0,0,0,1,0,,,,,,,,,,,,,,,,,,,,
108443,1626541481663,8,6,250,252,236,230,3,0.05,0.08,-2.2,0,1,0,0.09,0,82,6959,10,28,42,0.862,0.0,633,4.73,13.2,0.0,1,31.8,2.28,7.3,0,0,0,1,0,0,250,250,0,45.700329,4.909405,0.0,195.1,11,3,1.3,0,0.0,-1,0.0,0.0,0.0,0,0.0,1.8074
108463,1626541481683,,,250,250,236,230,,-0.02,0.04,-2.34,0,1,1,0.04,,82,6962,10,28,42,0.862,0.0,633,4.75,13.4,0.0,1,31.8,2.28,7.3,0,0,0,1,0,,,,,,,,,,,,,,,,,,,,
108483,1626541481702,,,250,250,236,230,,0.05,0.07,-2.16,0,-1,-2,0.09,,82,6952,10,28,42,0.863,0.0,632,4.64,13.1,0.0,1,31.7,1.15,7.3,0,0,0,1,0,,,,,,,,,,,,,,,,,,,,
108503,1626541481722,,,250,251,236,230,,-0.01,0.01,-2.3,0,2,1,0.01,,82,6941,10,28,42,0.863,0.0,632,4.73,13.3,0.0,1,31.7,1.15,7.3,0,0,0,1,0,,,,,,,,,,,,,,,,,,,,
108523,1626541481742,,,250,251,236,230,,-0.02,0.01,-2.43,0,-0,-0,0.02,,83,6926,10,28,42,0.863,0.0,632,4.71,13.1,0.0,1,31.7,2.28,7.3,0,0,0,1,0,,,,,,,,,,,,,,,,,,,,
108543,1626541481762,8,5,250,250,236,230,3,0.05,0.01,-2.24,0,-1,-1,0.05,0,82,6952,10,28,42,0.864,0.0,623,4.73,13.1,0.0,1,31.7,1.15,7.3,0,0,0,1,0,0,250,250,0,45.700329,4.909405,0.0,195.1,11,3,1.3,0,0.0,-1,0.0,,0.0,0,0.0,1.8091
108563,1626541481782,,,250,251,236,230,,-0.03,-0.02,-2.38,0,1,2,0.03,,83,6959,10,28,42,0.865,0.0,626,4.75,13.4,0.0,1,31.8,2.28,7.3,0,0,0,1,0,,,,,,,,,,,,,,,,,,,,
108583,1626541481802,,,250,250,236,230,,0.01,-0.02,-2.26,0,-1,-1,0.02,,83,6965,10,28,42,0.867,0.0,636,4.68,13.1,0.0,1,31.8,2.28,7.3,0,0,0,1,0,,,,,,,,,,,,,,,,,,,,
108603,1626541481822,,,250,251,236,230,,0.06,-0.03,-2.1,0,-1,-0,0.07,,83,6952,10,28,42,0.868,0.0,627,4.76,13.2,0.0,1,31.7,2.28,7.3,0,0,0,1,0,,,,,,,,,,,,,,,,,,,,
108623,1626541481842,,,250,251,236,230,,-0.01,-0.04,-2.25,0,2,2,0.04,,83,6993,10,28,42,0.87,0.0,632,4.67,13.3,0.0,1,31.8,2.28,7.3,0,0,0,1,0,,,,,,,,,,,,,,,,,,,,
108643,1626541481862,8,4,250,250,236,230,2,0.04,-0.02,-2.07,0,-1,-1,0.05,0,83,6978,10,28,42,0.871,0.0,638,4.65,13.2,0.0,1,31.8,2.28,7.3,0,0,0,1,0,0,250,250,0,45.700329,4.909405,0.0,195.1,11,3,1.3,0,0.0,-1,0.0,0.0,0.0,0,0.0,1.8107
108663,1626541481882,,,250,251,236,230,,0.07,-0.03,-2.06,0,0,-0,0.07,,83,6972,10,28,42,0.872,0.0,630,4.75,13.2,0.0,1,31.8,1.15,7.3,0,0,0,1,0,,,,,,,,,,,,,,,,,,,,
108683,1626541481902,,,250,251,236,230,,0.0,-0.06,-2.21,0,1,1,0.06,,83,6980,10,28,42,0.873,0.0,638,4.71,13.3,0.0,1,31.8,2.28,7.3,0,0,0,1,0,,,,,,,,,,,,,,,,,,,,
108703,1626541481922,,,250,250,236,230,,0.05,-0.02,-2.04,0,-1,-1,0.06,,83,6975,10,28,42,0.874,0.0,638,4.73,13.2,0.0,1,31.8,2.28,7.3,0,0,0,1,0,,,,,,,,,,,,,,,,,,,,
108723,1626541481942,,,250,251,236,230,,0.06,-0.05,-2.07,0,0,0,0.08,,83,7004,10,28,42,0.873,0.0,632,4.82,13.4,0.0,1,31.9,1.15,7.3,0,0,0,1,0,,,,,,,,,,,,,,,,,,,,
108743,1626541481962,9,6,250,251,236,230,2,-0.0,-0.07,-2.21,0,1,2,0.07,0,83,7014,10,28,42,0.874,0.0,638,4.66,13.3,0.0,1,31.9,2.28,7.3,0,0,0,1,0,0,250,250,0,45.700329,4.909405,0.0,195.1,11,3,1.3,0,0.0,-1,0.0,,0.0,0,0.0,1.8124
108763,1626541481982,,,250,250,236,230,,0.05,-0.05,-2.04,0,-1,-1,0.07,,83,7022,10,28,42,0.873,0.0,641,4.67,13.2,0.0,1,31.9,2.28,7.4,0,0,0,1,0,,,,,,,,,,,,,,,,,,,,
108783,1626541481996,,,250,251,236,230,,0.06,-0.05,-2.07,0,0,0,0.08,,83,6978,10,28,42,0.873,0.0,627,4.71,13.2,0.0,1,31.8,1.15,7.4,0,0,0,1,0,,,,,,,,,,,,,,,,,,,,
108803,1626541482016,,,250,251,236,230,,0.01,-0.06,-2.22,0,1,1,0.06,,83,6983,10,28,42,0.871,0.0,625,4.65,13.2,0.0,1,31.8,2.28,7.4,0,0,0,1,0,,,,,,,,,,,,,,,,,,,,
108823,1626541482036,,,250,250,236,230,,0.08,-0.02,-2.05,0,-1,-1,0.08,,83,6983,10,28,42,0.869,0.0,633,4.71,13.1,0.0,1,31.8,2.28,7.4,0,0,0,1,0,,,,,,,,,,,,,,,,,,,,
108843,1626541482056,7,6,250,251,236,230,3,0.06,-0.06,-2.2,0,1,1,0.08,0,83,6972,10,28,42,0.868,0.0,631,4.8,13.4,0.0,1,31.8,2.28,7.4,0,0,0,1,0,0,250,250,0,45.700329,4.909405,0.0,195.1,11,3,1.3,0,0.0,-1,0.0,0.0,0.0,0,0.0,1.814
108863,1626541482076,,,250,251,236,230,,0.01,-0.04,-2.33,0,1,1,0.04,,83,6985,10,28,42,0.866,0.0,629,4.68,13.2,0.0,1,31.8,2.28,7.4,0,0,0,1,0,,,,,,,,,,,,,,,,,,,,
108883,1626541482102,,,250,251,236,231,,0.08,-0.01,-2.15,0,-1,-2,0.08,,83,6957,10,28,42,0.864,0.0,638,4.7,13.1,0.0,1,31.8,2.28,7.3,0,0,0,1,0,,,,,,,,,,,,,,,,,,,,
108903,1626541482122,,,250,251,236,230,,0.03,-0.02,-2.29,0,1,0,0.04,,83,6993,10,28,42,0.862,0.0,632,4.74,13.3,0.0,1,31.8,1.15,7.3,0,0,0,1,0,,,,,,,,,,,,,,,,,,,,
108923,1626541482142,,,250,250,236,230,,-0.01,-0.04,-2.43,0,1,1,0.04,,83,7011,10,28,42,0.86,0.0,638,4.71,13.4,0.0,1,31.9,2.28,7.3,0,0,0,1,0,,,,,,,,,,,,,,,,,,,,
108943,1626541482162,7,6,250,250,236,231,3,0.06,0.02,-2.24,0,-1,-1,0.07,0,83,6983,10,28,42,0.858,0.0,638,4.72,13.2,0.0,1,31.8,2.28,7.3,0,0,0,1,0,0,250,250,0,45.700329,4.909405,0.0,195.1,11,3,1.3,0,0.0,-1,0.0,,0.0,0,0.0,1.8157
108963,1626541482182,,,250,251,236,230,,0.01,-0.03,-2.37,0,1,1,0.03,,83,7017,10,28,42,0.858,0.0,636,4.76,13.3,0.0,1,31.9,2.28,7.3,0,0,0,1,0,,,,,,,,,,,,,,,,,,,,
108983,1626541482202,,,250,250,236,230,,-0.01,-0.02,-2.5,0,1,1,0.02,,83,6978,10,28,42,0.857,0.0,632,4.7,13.4,0.0,1,31.8,2.28,7.4,0,0,0,1,0,,,,,,,,,,,,,,,,,,,,
109003,1626541482210,,,250,250,236,230,,0.06,-0.02,-2.3,0,-1,-2,0.06,,83,7019,10,28,42,0.857,0.0,635,4.76,13.2,0.0,1,31.9,1.15,7.4,0,0,0,1,0,,,,,,,,,,,,,,,,,,,,
109023,1626541482230,,,250,251,236,230,,0.02,-0.02,-2.43,0,1,1,0.03,,83,6993,10,28,42,0.857,0.0,633,4.75,13.3,0.0,1,31.8,1.15,7.4,0,0,0,1,0,,,,,,,,,,,,,,,,,,,,
109043,1626541482250,8,6,250,251,236,230,2,-0.01,-0.03,-2.55,0,0,1,0.03,0,83,6978,10,28,42,0.858,0.0,631,4.68,13.4,0.0,1,31.8,2.28,7.4,0,0,0,1,0,0,250,250,0,45.700329,4.909405,0.0,195.1,11,3,1.3,0,0.0,-1,0.0,0.0,0.0,0,0.0,1.8174
109063,1626541482270,,,250,250,236,230,,0.06,0.02,-2.36,0,-1,-2,0.06,,83,7004,10,28,42,0.858,0.0,636,4.67,13.1,0.0,1,31.9,1.15,7.4,0,0,0,1,0,,,,,,,,,,,,,,,,,,,,
109083,1626541482302,,,250,252,236,231,,-0.01,-0.02,-2.48,0,1,1,0.02,,83,7004,10,28,42,0.859,0.0,629,4.75,13.3,0.0,1,31.9,1.15,7.4,0,0,0,1,0,,,,,,,,,,,,,,,,,,,,
109103,1626541482322,,,250,251,236,230,,-0.03,0.0,-2.6,0,1,1,0.03,,83,7006,10,28,42,0.859,0.0,632,4.66,13.2,0.0,1,31.9,2.28,7.4,0,0,0,1,0,,,,,,,,,,,,,,,,,,,,
109123,1626541482342,,,250,250,236,230,,0.04,0.01,-2.4,0,-1,-2,0.04,,83,7014,10,28,42,0.86,0.0,639,4.7,13.1,0.0,1,31.9,1.15,7.4,0,0,0,1,0,,,,,,,,,,,,,,,,,,,,
109143,1626541482362,7,6,250,251,236,230,3,-0.02,0.01,-2.52,0,1,1,0.02,0,83,6978,10,28,42,0.862,0.0,630,4.78,13.3,0.0,1,31.8,2.28,7.4,0,0,0,1,0,0,250,250,0,45.700329,4.909405,0.0,195.1,11,3,1.3,0,0.0,-1,0.0,,0.0,0,0.0,1.8191
109163,1626541482382,,,250,251,236,230,,-0.04,-0.01,-2.63,0,1,1,0.04,,83,7027,10,28,42,0.863,0.0,636,4.79,13.4,0.0,1,31.9,2.28,7.4,0,0,0,1,0,,,,,,,,,,,,,,,,,,,,
109183,1626541482402,,,250,250,236,230,,0.04,0.03,-2.43,0,-2,-2,0.05,,83,6983,10,28,42,0.864,0.0,639,4.73,13.1,0.0,1,31.8,1.15,7.4,0,0,0,1,0,,,,,,,,,,,,,,,,,,,,
109203,1626541482422,,,250,252,236,230,,-0.03,0.0,-2.55,0,1,1,0.03,,83,6959,10,28,42,0.866,0.0,633,4.76,13.3,0.0,1,31.8,1.15,7.4,0,0,0,1,0,,,,,,,,,,,,,,,,,,,,
109223,1626541482442,,,250,251,236,230,,-0.04,0.03,-2.66,0,1,1,0.05,,83,7030,10,28,42,0.866,0.0,635,4.72,13.4,0.0,1,31.9,2.28,7.4,0,0,0,1,0,,,,,,,,,,,,,,,,,,,,
109243,1626541482462,7,6,250,251,236,230,3,0.03,0.03,-2.45,0,-1,-1,0.04,0,83,7035,10,28,42,0.866,0.0,643,4.67,13.1,0.0,1,31.9,2.28,7.4,0,0,0,1,0,0,250,250,0,45.700329,4.909405,0.0,195.1,11,3,1.3,0,0.0,-1,0.0,0.0,0.0,0,0.0,1.8207
109263,1626541482482,,,250,251,236,230,,-0.01,0.02,-2.57,0,1,0,0.02,,83,7022,10,28,42,0.868,0.0,637,4.71,13.2,0.0,1,31.9,1.15,7.4,0,0,0,1,0,,,,,,,,,,,,,,,,,,,,
109283,1626541482502,,,250,251,236,230,,-0.05,0.0,-2.68,0,1,2,0.05,,83,7046,10,28,42,0.868,0.0,635,4.81,13.4,0.0,1,31.9,2.28,7.4,0,0,0,1,0,,,,,,,,,,,,,,,,,,,,
109303,1626541482522,,,250,250,236,230,,0.02,0.05,-2.47,0,-1,-1,0.06,,83,6991,10,28,42,0.869,0.0,634,4.72,13.2,0.0,1,31.8,1.15,7.4,0,0,0,1,0,,,,,,,,,,,,,,,,,,,,
109323,1626541482542,,,250,251,236,230,,-0.0,0.0,-2.54,0,0,0,0.0,,83,7033,10,28,42,0.87,0.0,627,4.75,13.2,0.0,1,31.9,2.28,7.4,0,0,0,1,0,,,,,,,,,,,,,,,,,,,,
109343,1626541482562,9,4,250,251,236,230,3,-0.04,-0.01,-2.65,0,1,2,0.04,0,83,7006,10,28,42,0.87,0.0,630,4.72,13.4,0.0,1,31.9,2.28,7.4,0,0,0,1,0,0,250,250,0,45.700329,4.909405,0.0,195.1,11,3,1.3,0,0.0,-1,0.0,,0.0,0,0.0,1.8224
109363,1626541482582,,,250,250,236,230,,0.03,0.01,-2.45,0,-1,-1,0.03,,83,7017,10,28,42,0.87,0.0,637,4.67,13.2,0.0,1,31.9,2.28,7.4,0,0,0,1,0,,,,,,,,,,,,,,,,,,,,
109383,1626541482604,,,250,251,236,230,,0.02,-0.01,-2.52,0,-0,-1,0.03,,83,7033,10,28,42,0.871,0.0,629,4.74,13.3,0.0,1,31.9,2.28,7.4,0,0,0,1,0,,,,,,,,,,,,,,,,,,,,
109403,1626541482624,,,250,252,236,230,,-0.03,-0.03,-2.63,0,2,2,0.04,,83,7040,10,28,42,0.87,0.0,635,4.79,13.4,0.0,1,31.9,2.28,7.4,0,0,0,1,0,,,,,,,,,,,,,,,,,,,,
109423,1626541482644,,,250,251,236,230,,0.02,0.0,-2.43,0,-1,-1,0.02,,83,7019,10,28,42,0.87,0.0,642,4.68,13.2,0.0,1,31.9,2.28,7.4,0,0,0,1,0,,,,,,,,,,,,,,,,,,,,
109443,1626541482664,8,5,250,251,236,230,2,0.05,-0.02,-2.32,0,-1,-1,0.06,0,83,7014,10,28,42,0.871,0.0,636,4.78,13.2,0.0,1,31.9,1.15,7.4,0,0,0,1,0,0,250,250,0,45.700329,4.909405,0.0,195.1,11,3,1.3,0,0.0,-1,0.0,0.0,0.0,0,0.0,1.824
109463,1626541482684,,,250,252,236,230,,-0.02,-0.05,-2.45,0,2,2,0.05,,83,7022,10,28,42,0.869,0.0,635,4.78,13.4,0.0,1,31.9,2.28,7.4,0,0,0,1,0,,,,,,,,,,,,,,,,,,,,
109483,1626541482703,,,250,250,236,230,,0.02,-0.04,-2.26,0,-0,0,0.05,,83,7035,10,28,42,0.867,0.0,644,4.7,13.1,0.0,1,31.9,2.28,7.4,0,0,0,1,0,,,,,,,,,,,,,,,,,,,,
109503,1626541482723,,,250,250,236,230,,0.06,-0.03,-2.11,0,-2,-1,0.07,,83,7035,10,28,42,0.866,0.0,632,4.71,13.3,0.0,1,31.9,2.28,7.4,0,0,0,1,0,,,,,,,,,,,,,,,,,,,,
109523,1626541482743,,,250,252,236,230,,-0.01,-0.03,-2.25,0,1,2,0.03,,83,7033,10,28,42,0.865,0.0,636,4.75,13.4,0.0,1,31.9,2.28,7.4,0,0,0,1,0,,,,,,,,,,,,,,,,,,,,
109543,1626541482763,8,6,250,251,236,230,3,0.01,-0.03,-2.26,0,0,1,0.03,0,83,7043,10,28,42,0.863,0.0,643,4.7,13.4,0.0,1,31.9,2.28,7.4,0,0,0,1,0,0,250,250,0,45.700329,4.909405,0.0,195.1,11,3,1.3,0,0.0,-1,0.0,,0.0,0,0.0,1.8257
109563,1626541482783,,,250,250,236,230,,0.09,-0.02,-2.09,0,-2,-1,0.09,,83,7051,10,28,42,0.863,0.0,637,4.68,13.1,0.0,1,31.9,1.15,7.4,0,0,0,1,0,,,,,,,,,,,,,,,,,,,,
109583,1626541482803,,,250,251,236,230,,0.01,-0.05,-2.23,0,1,1,0.05,,83,7022,10,28,42,0.862,0.0,631,4.77,13.4,0.0,1,31.9,2.28,7.4,0,0,0,1,0,,,,,,,,,,,,,,,,,,,,
109603,1626541482823,,,250,251,236,230,,-0.01,-0.03,-2.37,0,1,2,0.04,,83,7054,10,28,42,0.861,0.0,639,4.72,13.4,0.0,1,31.9,2.28,7.4,0,0,0,1,0,,,,,,,,,,,,,,,,,,,,
109623,1626541482843,,,250,250,236,230,,0.06,-0.02,-2.19,0,-2,-1,0.06,,83,7054,10,28,42,0.86,0.0,636,4.64,13.1,0.0,1,31.9,2.28,7.4,0,0,0,1,0,,,,,,,,,,,,,,,,,,,,
109643,1626541482863,8,4,250,252,236,230,2,0.03,-0.01,-2.32,0,-1,-0,0.03,0,83,7075,10,28,42,0.86,0.0,633,4.73,13.2,0.0,1,31.9,2.28,7.4,0,0,0,1,0,0,250,250,0,45.700329,4.909405,0.0,195.1,11,3,1.3,0,0.0,-1,0.0,0.0,0.0,0,0.0,1.8274
109663,1626541482883,,,250,251,236,230,,-0.04,-0.04,-2.45,0,2,2,0.05,,83,7040,10,28,42,0.859,0.0,633,4.76,13.4,0.0,1,31.9,2.28,7.4,0,0,0,1,0,,,,,,,,,,,,,,,,,,,,
109683,1626541482903,,,250,251,236,230,,0.02,0.0,-2.26,0,-1,-1,0.02,,83,7027,10,28,42,0.858,0.0,633,4.69,13.1,0.0,1,31.9,2.28,7.4,0,0,0,1,0,,,,,,,,,,,,,,,,,,,,
109703,1626541482923,,,250,251,236,230,,0.05,-0.03,-2.21,0,-2,-1,0.06,,83,7070,10,28,42,0.858,0.0,640,4.81,13.2,0.0,1,31.9,2.28,7.4,0,0,0,1,0,,,,,,,,,,,,,,,,,,,,
109723,1626541482943,,,250,252,236,230,,-0.02,-0.0,-2.34,0,1,1,0.02,,83,7054,10,28,42,0.858,0.0,640,4.75,13.4,0.0,1,31.9,2.28,7.4,0,0,0,1,0,,,,,,,,,,,,,,,,,,,,
109743,1626541482963,9,5,250,251,236,230,3,0.0,0.01,-2.31,0,1,1,0.01,0,83,7083,10,28,42,0.857,0.0,639,4.72,13.4,0.0,1,31.9,2.28,7.4,0,0,0,1,0,0,250,250,0,45.700329,4.909405,0.0,195.1,11,3,1.3,0,0.0,-1,0.0,,0.0,0,0.0,1.8291
109763,1626541482983,,,250,251,236,230,,0.08,0.05,-2.14,0,-1,-2,0.09,,83,7043,10,28,42,0.858,0.0,644,4.65,13.1,0.0,1,31.9,2.28,7.4,0,0,0,1,0,,,,,,,,,,,,,,,,,,,,
109783,1626541482995,,,250,252,236,230,,0.14,0.06,-1.97,0,0,-0,0.15,,83,7056,10,28,42,0.858,0.0,640,4.69,13.2,0.0,1,31.9,2.28,7.4,0,0,0,1,0,,,,,,,,,,,,,,,,,,,,
109803,1626541483015,,,250,251,236,230,,0.08,0.06,-2.13,0,1,1,0.1,,83,7075,10,28,42,0.857,0.0,638,4.68,13.4,0.0,1,31.9,2.28,7.4,0,0,0,1,0,,,,,,,,,,,,,,,,,,,,
109823,1626541483035,,,250,251,236,230,,0.06,0.06,-2.25,0,-1,-1,0.09,,83,7033,10,28,42,0.857,0.0,642,4.68,13.2,0.0,1,31.9,2.28,7.4,0,0,0,1,0,,,,,,,,,,,,,,,,,,,,
109843,1626541483055,8,4,250,252,236,230,2,0.14,0.06,-2.07,0,-2,-2,0.15,0,83,7083,10,28,42,0.857,0.0,631,4.75,13.2,0.0,1,31.9,1.15,7.4,0,0,0,1,0,0,250,250,0,45.700329,4.909405,0.0,195.1,11,3,1.3,0,0.0,-1,0.0,0.0,0.0,0,0.0,1.8307
109863,1626541483075,,,250,254,236,230,,0.09,0.05,-2.22,0,1,1,0.11,,83,7040,10,28,42,0.857,0.0,633,4.8,13.4,0.0,1,31.9,2.28,7.4,0,0,0,1,0,,,,,,,,,,,,,,,,,,,,
109883,1626541483103,,,250,251,236,230,,0.04,0.01,-2.36,0,-0,0,0.04,,83,7038,10,28,42,0.858,0.0,644,4.71,13.1,0.0,1,31.9,2.28,7.4,0,0,0,1,0,,,,,,,,,,,,,,,,,,,,
109903,1626541483123,,,250,251,236,230,,0.1,0.04,-2.18,0,-2,-1,0.11,,83,7025,10,28,42,0.859,0.0,631,4.76,13.2,0.0,1,31.9,2.28,7.4,0,0,0,1,0,,,,,,,,,,,,,,,,,,,,
109923,1626541483143,,,250,251,236,230,,0.08,-0.0,-2.31,0,1,2,0.08,,83,6991,10,28,42,0.859,0.0,631,4.78,13.3,0.0,1,31.8,2.28,7.4,0,0,0,1,0,,,,,,,,,,,,,,,,,,,,
109943,1626541483163,8,5,250,251,236,230,2,0.02,0.0,-2.44,0,-0,1,0.02,0,83,7017,10,28,41,0.86,0.0,636,4.72,13.3,0.0,1,31.6,2.28,7.4,0,0,0,1,0,0,250,250,0,45.700329,4.909405,0.0,195.1,11,3,1.3,0,0.0,-1,0.0,,0.0,0,0.0,1.8324
109963,1626541483183,,,250,250,236,230,,0.08,0.02,-2.25,0,-2,-1,0.08,,83,6985,10,28,42,0.861,0.0,635,4.71,13.1,0.0,1,31.8,2.28,7.3,0,0,0,1,0,,,,,,,,,,,,,,,,,,,,
109983,1626541483203,,,250,251,236,230,,0.07,0.01,-2.34,0,1,1,0.07,,83,7006,10,28,42,0.861,0.0,634,4.75,13.4,0.0,1,31.9,2.28,7.3,0,0,0,1,0,,,,,,,,,,,,,,,,,,,,
110003,1626541483223,,,250,250,236,230,,0.0,-0.04,-2.47,0,-0,0,0.04,,83,6975,10,28,42,0.862,0.0,637,4.77,13.4,0.0,1,31.8,2.28,7.3,0,0,0,1,0,,,,,,,,,,,,,,,,,,,,
110023,1626541483243,,,250,250,236,230,,0.07,-0.01,-2.28,0,-2,-1,0.07,,83,6980,10,28,42,0.863,0.0,629,4.72,13.1,0.0,1,31.8,1.15,7.3,0,0,0,1,0,,,,,,,,,,,,,,,,,,,,
110043,1626541483263,7,5,250,251,236,230,2,0.03,-0.04,-2.41,0,1,2,0.05,0,83,6965,10,28,42,0.864,0.0,632,4.76,13.4,0.0,1,31.8,2.28,7.3,0,0,0,1,0,0,250,250,0,45.700329,4.909405,0.0,195.1,11,3,1.3,0,0.0,-1,0.0,0.0,0.0,0,0.0,1.834
110063,1626541483283,,,250,251,236,230,,0.0,-0.03,-2.53,0,-2,-0,0.03,,83,6944,10,28,42,0.864,0.0,638,4.71,13.3,0.0,1,31.7,2.28,7.3,0,0,0,1,0,,,,,,,,,,,,,,,,,,,,
110083,1626541483303,,,250,251,236,230,,0.08,-0.01,-2.33,0,-2,-1,0.08,,83,6983,10,28,42,0.866,0.0,627,4.76,13.3,0.0,1,31.8,2.28,7.3,0,0,0,1,0,,,,,,,,,,,,,,,,,,,,
110103,1626541483323,,,250,251,236,230,,0.01,-0.04,-2.46,0,1,2,0.04,,83,6967,10,28,42,0.867,0.0,630,4.8,13.4,0.0,1,31.8,1.15,7.3,0,0,0,1,0,,,,,,,,,,,,,,,,,,,,
110123,1626541483343,,,250,250,236,230,,0.0,-0.05,-2.57,0,-2,-1,0.05,,83,6980,10,28,42,0.866,0.0,638,4.69,13.2,0.0,1,31.8,2.28,7.3,0,0,0,1,0,,,,,,,,,,,,,,,,,,,,
110143,1626541483363,8,5,250,251,236,230,3,0.08,-0.04,-2.37,0,-1,-1,0.09,0,83,6959,10,28,42,0.867,0.0,625,4.76,13.2,0.0,1,31.8,2.28,7.3,0,0,0,1,0,0,250,250,0,45.700329,4.909405,0.0,195.1,11,3,1.3,0,0.0,-1,0.0,,0.0,0,0.0,1.8357
110163,1626541483383,,,250,251,236,230,,0.0,-0.08,-2.5,0,1,1,0.08,,83,7006,10,28,42,0.867,0.0,628,4.8,13.4,0.0,1,31.9,2.28,7.4,0,0,0,1,0,,,,,,,,,,,,,,,,,,,,
110183,1626541483403,,,250,250,236,230,,0.0,-0.06,-2.48,0,-2,-1,0.06,,83,7006,10,28,42,0.867,0.0,637,4.7,13.1,0.0,1,31.9,2.28,7.4,0,0,0,1,0,,,,,,,,,,,,,,,,,,,,
110203,1626541483423,,,250,251,236,230,,0.07,-0.05,-2.29,0,-1,-1,0.08,,83,7006,10,28,42,0.867,0.0,634,4.77,13.4,0.0,1,31.9,2.28,7.4,0,0,0,1,0,,,,,,,,,,,,,,,,,,,,
110223,1626541483443,,,250,251,236,230,,-0.0,-0.08,-2.42,0,1,1,0.08,,83,7022,10,28,42,0.868,0.0,637,4.75,13.4,0.0,1,31.9,2.28,7.4,0,0,0,1,0,,,,,,,,,,,,,,,,,,,,
110243,1626541483463,9,6,250,250,236,230,3,-0.02,-0.09,-2.54,0,-1,-1,0.09,0,83,7043,10,28,42,0.868,0.0,643,4.69,13.3,0.0,1,31.9,2.28,7.4,0,0,0,1,0,0,250,250,0,45.700329,4.909405,0.0,195.1,11,3,1.3,0,0.0,-1,0.0,0.0,0.0,0,0.0,1.8374
110263,1626541483483,,,250,251,236,230,,0.06,-0.07,-2.34,0,-2,-1,0.09,,83,7017,10,28,42,0.869,0.0,628,4.75,13.2,0.0,1,31.9,2.28,7.4,0,0,0,1,0,,,,,,,,,,,,,,,,,,,,
110283,1626541483499,,,250,251,236,230,,-0.01,-0.09,-2.47,0,1,2,0.09,,83,7011,10,28,42,0.869,0.0,626,4.77,13.4,0.0,1,31.9,2.28,7.4,0,0,0,1,0,,,,,,,,,,,,,,,,,,,,
110303,1626541483519,,,250,251,236,230,,-0.03,-0.07,-2.59,0,-1,-0,0.07,,83,7017,10,28,42,0.868,0.0,636,4.74,13.3,0.0,1,31.9,2.28,7.4,0,0,0,1,0,,,,,,,,,,,,,,,,,,,,
110323,1626541483539,,,250,251,236,230,,0.06,-0.05,-2.39,0,-2,-1,0.08,,83,7011,10,28,42,0.868,0.0,628,4.81,13.3,0.0,1,31.9,1.15,7.4,0,0,0,1,0,,,,,,,,,,,,,,,,,,,,
110343,1626541483559,8,4,250,251,236,230,3,0.01,-0.05,-2.51,0,1,1,0.05,0,83,7033,10,28,42,0.868,0.0,630,4.81,13.3,0.0,1,31.9,2.28,7.4,0,0,0,1,0,0,250,250,0,45.700329,4.909405,0.0,195.1,11,3,1.3,0,0.0,-1,0.0,,0.0,0,0.0,1.8391
110363,1626541483579,,,250,251,236,230,,-0.04,-0.08,-2.62,0,-0,0,0.09,,83,7030,10,28,42,0.866,0.0,637,4.7,13.3,0.0,1,31.9,2.28,7.4,0,0,0,1,0,,,,,,,,,,,,,,,,,,,,
110383,1626541483599,,,250,250,236,230,,0.04,-0.05,-2.42,0,-2,-2,0.06,,83,7033,10,28,42,0.866,0.0,632,4.69,13.1,0.0,1,31.9,1.15,7.4,0,0,0,1,0,,,,,,,,,,,,,,,,,,,,
110403,1626541483619,,,250,251,236,230,,0.02,-0.08,-2.54,0,0,1,0.08,,83,7027,10,28,42,0.865,0.0,632,4.74,13.4,0.0,1,31.9,2.28,7.4,0,0,0,1,0,,,,,,,,,,,,,,,,,,,,
110423,1626541483639,,,250,251,236,230,,-0.04,-0.06,-2.65,0,-0,2,0.08,,83,7017,10,28,42,0.863,0.0,640,4.75,13.4,0.0,1,31.9,2.28,7.4,0,0,0,1,0,,,,,,,,,,,,,,,,,,,,
110443,1626541483659,8,6,250,250,236,230,3,0.03,-0.05,-2.45,0,-2,-1,0.06,0,83,7009,10,28,42,0.864,0.0,630,4.78,13.2,0.0,1,31.9,2.28,7.4,0,0,0,1,0,0,250,250,0,45.700329,4.909405,0.0,195.1,11,3,1.3,0,0.0,-1,0.0,0.0,0.0,0,0.0,1.8407
110463,1626541483679,,,250,252,236,230,,0.05,-0.05,-2.42,0,-0,1,0.07,,83,7048,10,28,42,0.865,0.0,640,4.8,13.3,0.0,1,31.9,1.15,7.4,0,0,0,1,0,,,,,,,,,,,,,,,,,,,,
110483,1626541483700,,,250,251,236,230,,-0.01,-0.1,-2.54,0,1,2,0.1,,83,7040,10,28,42,0.864,0.0,640,4.77,13.4,0.0,1,31.9,2.28,7.4,0,0,0,1,0,,,,,,,,,,,,,,,,,,,,
110503,1626541483720,,,250,250,236,230,,0.03,-0.05,-2.34,0,-2,-1,0.05,,83,7048,10,28,42,0.864,0.0,638,4.67,13.2,0.0,1,31.9,2.28,7.4,0,0,0,1,0,,,,,,,,,,,,,,,,,,,,
110523,1626541483740,,,250,251,236,230,,0.08,-0.05,-2.17,0,-1,-0,0.09,,83,7051,10,28,42,0.863,0.0,632,4.69,13.2,0.0,1,31.9,1.15,7.4,0,0,0,1,0,,,,,,,,,,,,,,,,,,,,
110543,1626541483760,7,6,250,251,236,230,2,0.0,-0.04,-2.31,0,1,3,0.04,0,83,7062,10,28,42,0.862,0.0,636,4.68,13.4,0.0,1,31.9,2.28,7.4,0,0,0,1,0,0,250,250,0,45.700329,4.909405,0.0,195.1,11,3,1.3,0,0.0,-1,0.0,,0.0,0,0.0,1.8424
110563,1626541483780,,,250,250,236,230,,-0.02,-0.04,-2.44,0,-1,1,0.04,,83,7070,10,28,42,0.861,0.0,636,4.6,13.3,0.0,1,31.9,2.28,7.4,0,0,0,1,0,,,,,,,,,,,,,,,,,,,,
110583,1626541483800,,,250,251,236,230,,0.05,0.01,-2.25,0,-2,-1,0.05,,83,7067,10,28,42,0.861,0.0,642,4.71,13.1,0.0,1,31.9,1.15,7.4,0,0,0,1,0,,,,,,,,,,,,,,,,,,,,
110603,1626541483820,,,250,252,236,230,,0.03,-0.02,-2.33,0,1,1,0.04,,83,7078,10,28,42,0.861,0.0,636,4.77,13.4,0.0,1,31.9,2.28,7.4,0,0,0,1,0,,,,,,,,,,,,,,,,,,,,
110623,1626541483840,,,250,251,236,230,,-0.02,-0.02,-2.45,0,1,2,0.03,,83,7075,10,28,42,0.861,0.0,633,4.71,13.4,0.0,1,31.9,2.28,7.4,0,0,0,1,0,,,,,,,,,,,,,,,,,,,,
110643,1626541483860,8,5,250,250,236,230,3,0.03,-0.0,-2.26,0,-2,-1,0.03,0,83,7051,10,28,42,0.861,0.0,635,4.76,13.2,0.0,1,31.9,2.28,7.4,0,0,0,1,0,0,250,250,0,45.700329,4.909405,0.0,195.1,11,3,1.3,0,0.0,-1,0.0,0.0,0.0,0,0.0,1.844
110663,1626541483880,,,250,251,236,230,,0.07,-0.02,-2.09,0,-0,-0,0.08,,83,7067,10,28,42,0.861,0.0,632,4.78,13.2,0.0,1,31.9,2.28,7.4,0,0,0,1,0,,,,,,,,,,,,,,,,,,,,
110683,1626541483902,,,250,252,236,230,,0.01,-0.04,-2.24,0,2,2,0.04,,83,7067,10,28,41,0.86,0.0,635,4.72,13.4,0.0,1,31.6,2.29,7.4,0,0,0,1,0,,,,,,,,,,,,,,,,,,,,
110703,1626541483922,,,250,251,236,230,,-0.01,-0.05,-2.37,0,-0,-0,0.05,,83,7072,10,28,42,0.859,0.0,647,4.66,13.1,0.0,1,31.9,2.28,7.4,0,0,0,1,0,,,,,,,,,,,,,,,,,,,,
110723,1626541483942,,,250,251,236,230,,0.07,-0.03,-2.19,0,-2,-2,0.07,,83,7027,10,28,42,0.857,0.0,636,4.73,13.1,0.0,1,31.9,1.15,7.4,0,0,0,1,0,,,,,,,,,,,,,,,,,,,,
110743,1626541483962,8,6,250,252,236,230,2,0.01,-0.08,-2.33,0,1,2,0.08,0,83,7059,10,28,41,0.856,0.0,640,4.77,13.4,0.0,1,31.6,2.29,7.4,0,0,0,1,0,0,250,250,0,45.700329,4.909405,0.0,195.1,11,3,1.3,0,0.0,-1,0.0,,0.0,0,0.0,1.8457
110763,1626541483982,,,250,251,236,230,,-0.04,-0.06,-2.45,0,1,2,0.07,,83,7046,10,28,42,0.856,0.0,643,4.75,13.4,0.0,1,31.9,2.28,7.4,0,0,0,1,0,,,,,,,,,,,,,,,,,,,,
110783,1626541483996,,,250,251,236,230,,0.03,-0.04,-2.26,0,-2,-1,0.05,,83,7051,10,28,42,0.857,0.0,637,4.72,13.1,0.0,1,31.9,1.15,7.4,0,0,0,1,0,,,,,,,,,,,,,,,,,,,,
110803,1626541484016,,,250,253,236,230,,0.03,-0.02,-2.32,0,0,1,0.04,,83,7027,10,28,42,0.857,0.0,635,4.73,13.3,0.0,1,31.9,2.28,7.4,0,0,0,1,0,,,,,,,,,,,,,,,,,,,,
110823,1626541484036,,,250,251,236,230,,-0.03,-0.07,-2.45,0,1,2,0.07,,83,7017,10,28,42,0.857,0.0,638,4.77,13.4,0.0,1,31.9,2.28,7.4,0,0,0,1,0,,,,,,,,,,,,,,,,,,,,
110843,1626541484056,8,4,250,251,236,230,2,0.03,-0.03,-2.26,0,-2,-1,0.04,0,83,7054,10,28,42,0.858,0.0,631,4.69,13.1,0.0,1,31.9,2.28,7.4,0,0,0,1,0,0,250,250,0,45.700329,4.909405,0.0,195.1,11,3,1.3,0,0.0,-1,0.0,0.0,0.0,0,0.0,1.8474
110863,1626541484076,,,250,251,236,230,,0.06,-0.05,-2.21,0,0,0,0.08,,83,7043,10,28,42,0.859,0.0,631,4.77,13.4,0.0,1,31.9,2.28,7.4,0,0,0,1,0,,,,,,,,,,,,,,,,,,,,
110883,1626541484102,,,250,251,236,231,,-0.01,-0.04,-2.34,0,2,2,0.04,,83,7033,10,28,42,0.86,0.0,627,4.74,13.4,0.0,1,31.9,2.28,7.4,0,0,0,1,0,,,,,,,,,,,,,,,,,,,,
110903,1626541484122,,,250,250,236,230,,0.03,-0.02,-2.17,0,-1,-0,0.03,,83,7022,10,28,42,0.861,0.0,631,4.72,13.2,0.0,1,31.9,2.28,7.4,0,0,0,1,0,,,,,,,,,,,,,,,,,,,,
110923,1626541484142,,,250,252,236,230,,0.07,0.01,-2.01,0,-1,-1,0.07,,83,7054,10,28,42,0.863,0.0,634,4.68,13.2,0.0,1,31.9,1.15,7.4,0,0,0,1,0,,,,,,,,,,,,,,,,,,,,
110943,1626541484162,8,6,250,251,236,230,3,-0.01,-0.02,-2.16,0,2,2,0.02,0,83,7011,10,28,42,0.863,0.0,640,4.69,13.4,0.0,1,31.9,2.28,7.4,0,0,0,1,0,0,250,250,0,45.700329,4.909405,0.0,195.1,11,3,1.3,0,0.0,-1,0.0,,0.0,0,0.0,1.849
110963,1626541484182,,,250,250,236,230,,0.01,0.02,-2.21,0,-1,-0,0.02,,83,7040,10,28,42,0.864,0.0,633,4.66,13.3,0.0,1,31.9,2.28,7.4,0,0,0,1,0,,,,,,,,,,,,,,,,,,,,
110983,1626541484202,,,250,251,236,230,,0.07,0.02,-2.03,0,-1,-1,0.07,,83,7033,10,28,42,0.865,0.0,638,4.71,13.1,0.0,1,31.9,1.15,7.4,0,0,0,1,0,,,,,,,,,,,,,,,,,,,,
111003,1626541484222,,,250,251,236,230,,0.0,0.02,-2.18,0,2,2,0.02,,83,7027,10,28,42,0.865,0.0,636,4.76,13.3,0.0,1,31.9,2.28,7.4,0,0,0,1,0,,,,,,,,,,,,,,,,,,,,
111023,1626541484242,,,250,251,236,230,,-0.02,0.03,-2.32,0,1,1,0.03,,83,7062,10,28,42,0.864,0.0,641,4.66,13.1,0.0,1,31.9,2.28,7.4,0,0,0,1,0,,,,,,,,,,,,,,,,,,,,
111043,1626541484262,8,4,250,251,236,230,3,0.05,0.07,-2.14,0,-0,-1,0.09,0,83,7017,10,28,42,0.865,0.0,638,4.76,13.1,0.0,1,31.9,2.28,7.4,0,0,0,1,0,0,250,250,0,45.700329,4.909405,0.0,195.1,11,3,1.3,0,0.0,-1,0.0,0.0,0.0,0,0.0,1.8507
111063,1626541484282,,,250,253,236,230,,0.01,0.02,-2.29,0,2,2,0.02,,83,7035,10,28,42,0.864,0.0,631,4.81,13.3,0.0,1,31.9,2.28,7.4,0,0,0,1,0,,,,,,,,,,,,,,,,,,,,
111083,1626541484302,,,250,251,236,230,,-0.03,0.03,-2.42,0,2,2,0.04,,83,6993,10,28,42,0.863,0.0,635,4.71,13.4,0.0,1,31.8,2.28,7.4,0,0,0,1,0,,,,,,,,,,,,,,,,,,,,
111103,1626541484322,,,250,250,236,230,,0.04,0.03,-2.23,0,-1,-1,0.05,,83,7017,10,28,42,0.863,0.0,642,4.66,13.1,0.0,1,31.9,1.15,7.4,0,0,0,1,0,,,,,,,,,,,,,,,,,,,,
111123,1626541484342,,,250,252,236,230,,0.0,0.03,-2.36,0,1,1,0.03,,83,7004,10,28,42,0.863,0.0,627,4.7,13.3,0.0,1,31.9,1.15,7.4,0,0,0,1,0,,,,,,,,,,,,,,,,,,,,
111143,1626541484362,7,6,250,251,236,230,2,-0.03,0.01,-2.49,0,1,2,0.04,0,83,7004,10,28,42,0.862,0.0,628,4.66,13.2,0.0,1,31.9,2.28,7.4,0,0,0,1,0,0,250,250,0,45.700329,4.909405,0.0,195.1,11,3,1.3,0,0.0,-1,0.0,,0.0,0,0.0,1.8524
111163,1626541484382,,,250,250,236,230,,0.04,0.07,-2.3,0,-1,-1,0.08,,83,6972,10,28,42,0.862,0.0,635,4.72,13.1,0.0,1,31.8,1.15,7.3,0,0,0,1,0,,,,,,,,,,,,,,,,,,,,
111183,1626541484404,,,250,251,236,230,,-0.01,0.04,-2.43,0,2,2,0.04,,83,7004,10,28,42,0.862,0.0,629,4.79,13.3,0.0,1,31.9,2.28,7.3,0,0,0,1,0,,,,,,,,,,,,,,,,,,,,
111203,1626541484424,,,250,251,236,230,,-0.03,0.05,-2.55,0,1,1,0.06,,83,6993,10,28,42,0.861,0.0,629,4.72,13.4,0.0,1,31.8,2.28,7.3,0,0,0,1,0,,,,,,,,,,,,,,,,,,,,
111223,1626541484444,,,250,251,236,230,,0.05,0.05,-2.35,0,-1,-1,0.07,,83,6985,10,28,42,0.862,0.0,636,4.76,13.3,0.0,1,31.8,2.28,7.3,0,0,0,1,0,,,,,,,,,,,,,,,,,,,,
111243,1626541484464,8,6,250,251,236,230,2,-0.01,0.06,-2.48,0,2,2,0.06,0,83,6970,10,28,42,0.862,0.0,635,4.71,13.3,0.0,1,31.8,2.28,7.3,0,0,0,1,0,0,250,250,0,45.700329,4.909405,0.0,195.1,11,3,1.3,0,0.0,-1,0.0,0.0,0.0,0,0.0,1.854
111263,1626541484484,,,250,251,236,230,,-0.03,0.07,-2.59,0,0,1,0.07,,83,7004,10,28,42,0.862,0.0,640,4.65,13.1,0.0,1,31.9,2.28,7.3,0,0,0,1,0,,,,,,,,,,,,,,,,,,,,
111283,1626541484502,,,250,251,236,230,,0.05,0.11,-2.39,0,-1,-1,0.12,,83,6926,10,28,42,0.863,0.0,642,4.68,13.1,0.0,1,31.7,1.15,7.4,0,0,0,1,0,,,,,,,,,,,,,,,,,,,,
111303,1626541484522,,,250,251,236,230,,-0.04,0.05,-2.52,0,2,2,0.07,,83,6921,10,28,42,0.864,0.0,628,4.76,13.4,0.0,1,31.7,2.28,7.4,0,0,0,1,0,,,,,,,,,,,,,,,,,,,,
111323,1626541484542,,,250,250,236,230,,-0.0,0.08,-2.32,0,-1,-1,0.08,,83,6944,10,28,42,0.864,0.0,624,4.73,13.1,0.0,1,31.7,2.28,7.4,0,0,0,1,0,,,,,,,,,,,,,,,,,,,,
111343,1626541484562,7,5,250,252,236,230,3,0.03,0.06,-2.26,0,0,0,0.06,0,83,6949,10,28,42,0.865,0.0,628,4.72,13.2,0.0,1,31.7,1.15,7.4,0,0,0,1,0,0,250,250,0,45.700329,4.909405,0.0,195.1,11,3,1.3,0,0.0,-1,0.0,,0.0,0,0.0,1.8557
111363,1626541484582,,,250,251,236,230,,-0.03,0.07,-2.39,0,2,2,0.07,,83,6908,10,28,42,0.865,0.0,633,4.7,13.3,0.0,1,31.6,2.28,7.4,0,0,0,1,0,,,,,,,,,,,,,,,,,,,,
111383,1626541484604,,,250,250,236,230,,0.04,0.08,-2.2,0,-1,-0,0.09,,83,6934,10,28,42,0.865,0.0,623,4.67,13.1,0.0,1,31.7,2.28,7.3,0,0,0,1,0,,,,,,,,,,,,,,,,,,,,
111403,1626541484624,,,250,251,236,230,,-0.01,0.05,-2.34,0,2,2,0.05,,83,6911,10,28,42,0.865,0.0,623,4.75,13.3,0.0,1,31.7,2.28,7.3,0,0,0,1,0,,,,,,,,,,,,,,,,,,,,
111423,1626541484644,,,250,250,236,230,,0.0,0.04,-2.34,0,1,1,0.04,,83,6918,10,28,42,0.866,0.0,626,4.69,13.3,0.0,1,31.7,2.28,7.3,0,0,0,1,0,,,,,,,,,,,,,,,,,,,,
111443,1626541484664,8,5,250,252,236,230,3,0.07,0.03,-2.16,0,-0,0,0.08,0,83,6939,10,28,42,0.868,0.0,623,4.73,13.3,0.0,1,31.7,2.28,7.3,0,0,0,1,0,0,250,250,0,45.700329,4.909405,0.0,195.1,11,3,1.3,0,0.0,-1,0.0,0.0,0.0,0,0.0,1.8574
111463,1626541484684,,,250,251,236,230,,-0.01,-0.01,-2.3,0,2,2,0.01,,83,6895,10,28,42,0.868,0.0,626,4.72,13.4,0.0,1,31.6,2.29,7.3,0,0,0,1,0,,,,,,,,,,,,,,,,,,,,
111483,1626541484703,,,250,250,236,231,,0.05,0.0,-2.12,0,-1,-0,0.05,,83,6941,10,28,42,0.87,0.0,631,4.71,13.1,0.0,1,31.7,2.28,7.3,0,0,0,1,0,,,,,,,,,,,,,,,,,,,,
111503,1626541484723,,,250,252,236,230,,0.02,-0.01,-2.27,0,1,1,0.03,,83,6929,10,28,42,0.871,0.0,625,4.8,13.2,0.0,1,31.7,1.15,7.3,0,0,0,1,0,,,,,,,,,,,,,,,,,,,,
111523,1626541484743,,,250,251,236,231,,-0.01,-0.01,-2.4,0,1,2,0.01,,83,6939,10,28,42,0.87,0.0,630,4.73,13.4,0.0,1,31.7,2.28,7.3,0,0,0,1,0,,,,,,,,,,,,,,,,,,,,
111543,1626541484763,8,6,250,251,236,230,3,0.06,0.05,-2.21,0,-1,-1,0.08,0,83,6929,10,28,42,0.871,0.0,637,4.76,13.3,0.0,1,31.7,2.28,7.3,0,0,0,1,0,0,250,250,0,45.700329,4.909405,0.0,195.1,11,3,1.3,0,0.0,-1,0.0,,0.0,0,0.0,1.859
111563,1626541484783,,,250,251,236,230,,-0.02,-0.0,-2.35,0,2,2,0.02,,83,6949,10,28,42,0.87,0.0,632,4.75,13.3,0.0,1,31.7,2.28,7.3,0,0,0,1,0,,,,,,,,,,,,,,,,,,,,
111583,1626541484803,,,250,251,236,230,,0.02,0.03,-2.25,0,-1,-0,0.04,,83,6939,10,28,42,0.87,0.0,626,4.66,13.3,0.0,1,31.7,2.28,7.3,0,0,0,1,0,,,,,,,,,,,,,,,,,,,,
111603,1626541484823,,,250,251,236,230,,0.06,0.02,-2.14,0,-0,0,0.06,,83,6921,10,28,42,0.869,0.0,627,4.68,13.2,0.0,1,31.7,2.28,7.3,0,0,0,1,0,,,,,,,,,,,,,,,,,,,,
111623,1626541484843,,,250,251,236,230,,-0.01,0.04,-2.28,0,2,3,0.05,,83,6959,10,28,42,0.868,0.0,636,4.71,13.3,0.0,1,31.8,2.28,7.3,0,0,0,1,0,,,,,,,,,,,,,,,,,,,,
111643,1626541484863,7,6,250,251,236,231,3,0.05,0.07,-2.1,0,-1,-0,0.09,0,83,6978,10,28,42,0.868,0.0,625,4.75,13.2,0.0,1,31.8,2.28,7.3,0,0,0,1,0,0,250,250,0,45.700329,4.909405,0.0,195.1,11,3,1.3,0,0.0,-1,0.0,0.0,0.0,0,0.0,1.8607
111663,1626541484883,,,250,252,236,230,,0.05,0.07,-2.21,0,0,0,0.09,,83,6967,10,28,42,0.867,0.0,627,4.78,13.3,0.0,1,31.8,1.15,7.3,0,0,0,1,0,,,,,,,,,,,,,,,,,,,,
111683,1626541484903,,,250,251,236,230,,-0.0,0.02,-2.35,0,2,2,0.02,,83,6962,10,28,42,0.865,0.0,630,4.76,13.4,0.0,1,31.8,2.28,7.3,0,0,0,1,0,,,,,,,,,,,,,,,,,,,,
111703,1626541484923,,,250,250,236,230,,0.07,0.05,-2.17,0,-1,-2,0.08,,83,6970,10,28,42,0.863,0.0,633,4.68,13.1,0.0,1,31.8,2.28,7.3,0,0,0,1,0,,,,,,,,,,,,,,,,,,,,
111723,1626541484943,,,250,251,236,230,,0.01,0.0,-2.31,0,1,1,0.01,,83,6954,10,28,42,0.861,0.0,633,4.71,13.3,0.0,1,31.7,2.28,7.3,0,0,0,1,0,,,,,,,,,,,,,,,,,,,,
111743,1626541484963,8,6,250,250,236,230,3,-0.01,-0.0,-2.44,0,1,1,0.01,0,83,6954,10,28,42,0.859,0.0,632,4.66,13.2,0.0,1,31.7,2.28,7.3,0,0,0,1,0,0,250,250,0,45.700329,4.909405,0.0,195.1,11,3,1.3,0,0.0,-1,0.0,,0.0,0,0.0,1.8624
111763,1626541484983,,,250,251,236,230,,0.06,0.02,-2.25,0,-2,-1,0.06,,83,6975,10,28,42,0.857,0.0,628,4.68,13.1,0.0,1,31.8,1.15,7.3,0,0,0,1,0,,,,,,,,,,,,,,,,,,,,
111783,1626541484997,,,250,251,236,230,,-0.01,-0.0,-2.38,0,1,2,0.01,,83,6967,10,28,42,0.856,0.0,633,4.73,13.3,0.0,1,31.8,2.28,7.3,0,0,0,1,0,,,,,,,,,,,,,,,,,,,,
111803,1626541485017,,,250,250,236,230,,-0.0,0.0,-2.43,0,0,1,0.0,,83,6975,10,28,42,0.854,0.0,639,4.71,13.4,0.0,1,31.8,2.28,7.3,0,0,0,1,0,,,,,,,,,,,,,,,,,,,,
111823,1626541485037,,,250,251,236,230,,0.07,0.01,-2.24,0,-2,-1,0.07,,83,6996,10,28,42,0.853,0.0,626,4.8,13.3,0.0,1,31.8,2.28,7.3,0,0,0,1,0,,,,,,,,,,,,,,,,,,,,
111843,1626541485057,8,5,250,251,236,230,2,-0.01,-0.03,-2.38,0,2,2,0.03,0,83,6998,10,28,42,0.853,0.0,628,4.76,13.3,0.0,1,31.8,2.28,7.3,0,0,0,1,0,0,250,250,0,45.700329,4.909405,0.0,195.1,11,3,1.3,0,0.0,-1,0.0,0.0,0.0,0,0.0,1.864
111863,1626541485077,,,250,251,236,230,,0.0,-0.02,-2.29,0,0,1,0.02,,83,7022,10,28,42,0.853,0.0,641,4.76,13.3,0.0,1,31.9,2.28,7.3,0,0,0,1,0,,,,,,,,,,,,,,,,,,,,
111883,1626541485101,,,250,250,236,231,,0.07,-0.02,-2.12,0,-2,-1,0.07,,83,7009,10,28,42,0.852,0.0,627,4.7,13.3,0.0,1,31.9,2.28,7.4,0,0,0,1,0,,,,,,,,,,,,,,,,,,,,
111903,1626541485121,,,250,252,236,230,,0.0,-0.05,-2.26,0,1,1,0.05,,83,7022,10,28,42,0.853,0.0,631,4.73,13.3,0.0,1,31.9,2.28,7.4,0,0,0,1,0,,,,,,,,,,,,,,,,,,,,
111923,1626541485141,,,250,251,236,230,,-0.02,-0.06,-2.39,0,1,1,0.06,,83,7038,10,28,42,0.852,0.0,639,4.69,13.4,0.0,1,31.9,2.28,7.4,0,0,0,1,0,,,,,,,,,,,,,,,,,,,,
111943,1626541485161,7,6,250,250,236,230,3,0.06,-0.04,-2.21,0,-2,-1,0.07,0,83,7043,10,28,42,0.852,0.0,635,4.65,13.1,0.0,1,31.9,2.28,7.4,0,0,0,1,0,0,250,250,0,45.700329,4.909405,0.0,195.1,11,3,1.3,0,0.0,-1,0.0,,0.0,0,0.0,1.8657
111963,1626541485181,,,250,252,236,230,,-0.0,-0.08,-2.35,0,-0,1,0.08,,83,7054,10,28,42,0.853,0.0,641,4.72,13.3,0.0,1,31.9,2.28,7.4,0,0,0,1,0,,,,,,,,,,,,,,,,,,,,
111983,1626541485203,,,250,251,236,230,,-0.05,-0.06,-2.47,0,1,2,0.08,,83,7064,10,28,42,0.852,0.0,642,4.8,13.4,0.0,1,31.9,2.28,7.4,0,0,0,1,0,,,,,,,,,,,,,,,,,,,,
112003,1626541485223,,,250,250,236,230,,0.02,-0.03,-2.28,0,-1,0,0.04,,83,7094,10,28,42,0.852,0.0,636,4.68,13.2,0.0,1,32.0,2.28,7.4,0,0,0,1,0,,,,,,,,,,,,,,,,,,,,
112023,1626541485243,,,250,254,236,230,,0.05,-0.01,-2.21,0,-1,-1,0.05,,83,7067,10,28,42,0.854,0.0,635,4.7,13.2,0.0,1,31.9,1.15,7.4,0,0,0,1,0,,,,,,,,,,,,,,,,,,,,
112043,1626541485263,8,5,250,252,236,230,3,-0.03,-0.05,-2.35,0,2,2,0.06,0,83,7040,10,28,42,0.854,0.0,635,4.73,13.3,0.0,1,31.9,2.29,7.4,0,0,0,1,0,0,250,250,0,45.700329,4.909405,0.0,195.1,11,3,1.3,0,0.0,-1,0.0,0.0,0.0,0,0.0,1.8674
112063,1626541485283,,,250,251,236,230,,-0.0,-0.02,-2.25,0,0,0,0.02,,83,7056,10,28,42,0.854,0.0,635,4.68,13.3,0.0,1,31.9,2.28,7.4,0,0,0,1,0,,,,,,,,,,,,,,,,,,,,
112083,1626541485303,,,250,251,236,230,,0.06,-0.0,-2.07,0,-2,-2,0.06,,83,7014,10,28,42,0.855,0.0,636,4.72,13.3,0.0,1,31.9,2.28,7.4,0,0,0,1,0,,,,,,,,,,,,,,,,,,,,
112103,1626541485323,,,250,252,236,230,,-0.02,-0.0,-2.22,0,1,1,0.02,,83,7033,10,28,42,0.855,0.0,630,4.79,13.3,0.0,1,31.9,1.15,7.4,0,0,0,1,0,,,,,,,,,,,,,,,,,,,,
112123,1626541485343,,,250,251,236,230,,-0.01,0.01,-2.29,0,0,1,0.01,,83,6998,10,28,42,0.855,0.0,634,4.7,13.1,0.0,1,31.8,2.28,7.4,0,0,0,1,0,,,,,,,,,,,,,,,,,,,,
112143,1626541485363,8,6,250,251,236,230,3,0.06,0.06,-2.12,0,-2,-2,0.09,0,83,7040,10,28,42,0.857,0.0,643,4.72,13.1,0.0,1,31.9,1.15,7.4,0,0,0,1,0,0,250,250,0,45.700329,4.909405,0.0,195.1,11,3,1.3,0,0.0,-1,0.0,,0.0,0,0.0,1.869
112163,1626541485383,,,250,251,236,230,,-0.01,0.03,-2.26,0,1,1,0.03,,83,6996,10,28,42,0.857,0.0,628,4.76,13.3,0.0,1,31.8,1.15,7.3,0,0,0,1,0,,,,,,,,,,,,,,,,,,,,
112183,1626541485403,,,250,251,236,230,,-0.02,0.07,-2.39,0,1,1,0.07,,83,7051,10,28,42,0.857,0.0,633,4.71,13.4,0.0,1,31.9,2.28,7.3,0,0,0,1,0,,,,,,,,,,,,,,,,,,,,
112203,1626541485423,,,250,250,236,230,,0.05,0.06,-2.21,0,-2,-1,0.08,,83,7043,10,28,42,0.858,0.0,641,4.67,13.1,0.0,1,31.9,2.28,7.3,0,0,0,1,0,,,,,,,,,,,,,,,,,,,,
112223,1626541485443,,,250,252,236,230,,0.02,0.05,-2.35,0,-0,-1,0.05,,83,7038,10,28,42,0.859,0.0,638,4.68,13.2,0.0,1,31.9,2.28,7.3,0,0,0,1,0,,,,,,,,,,,,,,,,,,,,
112243,1626541485463,9,4,250,253,236,230,3,-0.04,0.03,-2.47,0,2,2,0.05,0,83,7038,10,28,42,0.859,0.0,639,4.7,13.3,0.0,1,31.9,2.28,7.3,0,0,0,1,0,0,250,250,0,45.700329,4.909405,0.0,195.1,11,3,1.3,0,0.0,-1,0.0,0.0,0.0,0,0.0,1.8707
112263,1626541485483,,,250,250,236,230,,0.02,0.08,-2.28,0,-1,-1,0.08,,83,7027,10,28,42,0.86,0.0,638,4.71,13.2,0.0,1,31.9,2.28,7.4,0,0,0,1,0,,,,,,,,,,,,,,,,,,,,
112283,1626541485503,,,250,251,236,230,,0.03,0.03,-2.24,0,-1,-1,0.04,,83,7040,10,28,42,0.861,0.0,628,4.75,13.2,0.0,1,31.9,2.28,7.4,0,0,0,1,0,,,,,,,,,,,,,,,,,,,,
112303,1626541485523,,,250,251,236,230,,-0.03,-0.02,-2.38,0,2,2,0.03,,83,7040,10,28,42,0.861,0.0,633,4.73,13.4,0.0,1,31.9,2.28,7.4,0,0,0,1,0,,,,,,,,,,,,,,,,,,,,
112323,1626541485543,,,250,251,236,230,,-0.06,-0.0,-2.5,0,-0,0,0.06,,83,7030,10,28,42,0.86,0.0,634,4.73,13.3,0.0,1,31.9,2.28,7.4,0,0,0,1,0,,,,,,,,,,,,,,,,,,,,
112343,1626541485563,8,6,250,251,236,230,3,0.01,0.02,-2.31,0,-2,-1,0.02,0,83,7040,10,28,42,0.861,0.0,629,4.72,13.3,0.0,1,31.9,2.28,7.4,0,0,0,1,0,0,250,250,0,45.700329,4.909405,0.0,195.1,11,3,1.3,0,0.0,-1,0.0,,0.0,0,0.0,1.8724
112363,1626541485583,,,250,252,236,230,,0.01,0.02,-2.39,0,1,1,0.02,,83,7043,10,28,42,0.859,0.0,628,4.75,13.3,0.0,1,31.9,2.28,7.4,0,0,0,1,0,,,,,,,,,,,,,,,,,,,,
112383,1626541485603,,,250,251,236,230,,-0.06,-0.02,-2.51,0,1,1,0.06,,83,7033,10,28,42,0.858,0.0,636,4.68,13.4,0.0,1,31.9,2.28,7.4,0,0,0,1,0,,,,,,,,,,,,,,,,,,,,
112403,1626541485623,,,250,251,236,230,,-0.0,0.02,-2.32,0,-2,-2,0.02,,83,7056,10,28,42,0.858,0.0,633,4.73,13.2,0.0,1,31.9,1.15,7.4,0,0,0,1,0,,,,,,,,,,,,,,,,,,,,
112423,1626541485643,,,250,252,236,230,,0.03,-0.01,-2.21,0,1,1,0.03,,83,7040,10,28,42,0.857,0.0,636,4.73,13.3,0.0,1,31.9,2.28,7.4,0,0,0,1,0,,,,,,,,,,,,,,,,,,,,
112443,1626541485663,8,6,250,251,236,230,2,-0.04,-0.01,-2.35,0,1,2,0.04,0,84,7048,10,28,42,0.855,0.0,641,4.67,13.4,0.0,1,31.9,2.28,7.4,0,0,0,1,0,0,250,250,0,45.700329,4.909405,0.0,195.1,11,3,1.3,0,0.0,-1,0.0,0.0,0.0,0,0.0,1.874
112463,1626541485683,,,250,250,236,230,,-0.02,0.0,-2.29,0,-2,-1,0.02,,83,7048,10,28,42,0.855,0.0,634,4.68,13.2,0.0,1,31.9,2.28,7.4,0,0,0,1,0,,,,,,,,,,,,,,,,,,,,
112483,1626541485703,,,250,252,236,230,,0.05,0.04,-2.12,0,-0,-1,0.07,,83,7048,10,28,42,0.855,0.0,637,4.81,13.2,0.0,1,31.9,2.28,7.4,0,0,0,1,0,,,,,,,,,,,,,,,,,,,,
112503,1626541485723,,,250,252,236,230,,-0.01,0.0,-2.26,0,2,2,0.01,,83,7075,10,28,42,0.855,0.0,638,4.75,13.4,0.0,1,31.9,2.28,7.4,0,0,0,1,0,,,,,,,,,,,,,,,,,,,,
112523,1626541485743,,,250,251,236,230,,-0.03,0.03,-2.39,0,-1,-1,0.05,,83,7040,10,28,42,0.854,0.0,634,4.72,13.1,0.0,1,31.9,2.28,7.4,0,0,0,1,0,,,,,,,,,,,,,,,,,,,,
112543,1626541485763,8,5,250,252,236,230,3,0.05,0.04,-2.21,0,-1,-2,0.06,0,84,7064,10,28,42,0.855,0.0,632,4.78,13.1,0.0,1,31.9,2.28,7.4,0,0,0,1,0,0,250,250,0,45.700329,4.909405,0.0,195.1,11,3,1.3,0,0.0,-1,0.0,,0.0,0,0.0,1.8757
112563,1626541485783,,,250,252,236,230,,0.02,0.02,-2.34,0,2,1,0.03,,84,7033,10,28,42,0.855,0.0,637,4.72,13.4,0.0,1,31.9,2.28,7.4,0,0,0,1,0,,,,,,,,,,,,,,,,,,,,
112583,1626541485804,,,250,251,236,230,,-0.03,-0.01,-2.47,0,0,0,0.03,,84,7006,10,28,42,0.856,0.0,633,4.64,13.3,0.0,1,31.9,2.28,7.4,0,0,0,1,0,,,,,,,,,,,,,,,,,,,,
112603,1626541485824,,,250,251,236,230,,0.03,0.03,-2.28,0,-1,-2,0.05,,84,7038,10,28,42,0.858,0.0,636,4.71,13.1,0.0,1,31.9,1.15,7.4,0,0,0,1,0,,,,,,,,,,,,,,,,,,,,
112623,1626541485844,,,250,251,236,230,,0.04,-0.02,-2.25,0,1,1,0.04,,84,7025,10,28,42,0.859,0.0,630,4.75,13.4,0.0,1,31.9,2.28,7.4,0,0,0,1,0,,,,,,,,,,,,,,,,,,,,
112643,1626541485864,9,6,250,251,236,230,2,-0.03,-0.02,-2.38,0,1,1,0.03,0,84,7035,10,28,42,0.86,0.0,629,4.8,13.4,0.0,1,31.9,2.28,7.4,0,0,0,1,0,0,250,250,0,45.700329,4.909405,0.0,195.1,11,3,1.3,0,0.0,-1,0.0,0.0,0.0,0,0.0,1.8774
112663,1626541485884,,,250,251,236,231,,0.03,-0.03,-2.2,0,-2,-2,0.05,,84,6996,10,28,42,0.861,0.0,640,4.72,13.1,0.0,1,31.8,1.15,7.3,0,0,0,1,0,,,,,,,,,,,,,,,,,,,,
112683,1626541485902,,,250,251,236,231,,0.05,-0.02,-2.17,0,1,0,0.05,,84,7027,10,28,42,0.862,0.0,630,4.81,13.3,0.0,1,31.9,1.15,7.3,0,0,0,1,0,,,,,,,,,,,,,,,,,,,,
112703,1626541485922,,,250,251,236,230,,-0.01,-0.03,-2.31,0,1,1,0.03,,84,7011,10,28,42,0.862,0.0,632,4.71,13.4,0.0,1,31.9,2.28,7.3,0,0,0,1,0,,,,,,,,,,,,,,,,,,,,
112723,1626541485942,,,250,250,236,230,,0.03,-0.02,-2.13,0,-2,-2,0.03,,84,7046,10,28,42,0.864,0.0,635,4.72,13.2,0.0,1,31.9,2.28,7.3,0,0,0,1,0,,,,,,,,,,,,,,,,,,,,
112743,1626541485962,7,6,250,252,236,230,2,0.09,-0.03,-1.97,0,-0,-0,0.09,0,84,7046,10,28,42,0.865,0.0,636,4.71,13.2,0.0,1,31.9,2.28,7.3,0,0,0,1,0,0,250,250,0,45.700329,4.909405,0.0,195.1,11,3,1.3,0,0.0,-1,0.0,,0.0,0,0.0,1.879
112763,1626541485982,,,250,252,236,230,,0.01,-0.06,-2.12,0,2,2,0.06,,84,7072,10,28,42,0.864,0.0,638,4.72,13.3,0.0,1,31.9,2.28,7.3,0,0,0,1,0,,,,,,,,,,,,,,,,,,,,
112783,1626541485996,,,250,250,236,230,,0.0,-0.04,-2.22,0,-1,-1,0.04,,84,7064,10,28,42,0.865,0.0,645,4.65,13.2,0.0,1,31.9,2.28,7.4,0,0,0,1,0,,,,,,,,,,,,,,,,,,,,
112803,1626541486016,,,250,251,236,230,,0.08,-0.04,-2.04,0,-1,-2,0.09,,84,7072,10,28,42,0.866,0.0,634,4.75,13.2,0.0,1,31.9,1.15,7.4,0,0,0,1,0,,,,,,,,,,,,,,,,,,,,
112823,1626541486036,,,250,253,236,230,,0.05,-0.03,-2.18,0,1,1,0.06,,84,7096,10,28,42,0.865,0.0,637,4.73,13.3,0.0,1,32.0,1.15,7.4,0,0,0,1,0,,,,,,,,,,,,,,,,,,,,
112843,1626541486056,8,5,250,251,236,230,3,-0.02,-0.06,-2.32,0,1,2,0.06,0,84,7088,10,28,42,0.864,0.0,643,4.64,13.1,0.0,1,31.9,2.28,7.4,0,0,0,1,0,0,250,250,0,45.700329,4.909405,0.0,195.1,11,3,1.3,0,0.0,-1,0.0,0.0,0.0,0,0.0,1.8807
112863,1626541486076,,,250,251,236,231,,0.03,-0.01,-2.14,0,-2,-1,0.03,,84,7102,10,28,42,0.864,0.0,631,4.7,13.1,0.0,1,32.0,2.28,7.4,0,0,0,1,0,,,,,,,,,,,,,,,,,,,,
112883,1626541486102,,,250,253,236,230,,0.09,-0.02,-1.97,0,0,0,0.09,,84,7059,10,28,42,0.863,0.0,628,4.8,13.4,0.0,1,31.9,2.29,7.5,0,0,0,1,0,,,,,,,,,,,,,,,,,,,,
112903,1626541486122,,,250,251,236,230,,0.02,-0.01,-2.13,0,2,3,0.02,,84,7072,10,28,41,0.862,0.0,631,4.8,13.4,0.0,1,31.6,2.29,7.5,0,0,0,1,0,,,,,,,,,,,,,,,,,,,,
112923,1626541486142,,,250,251,236,230,,-0.0,0.01,-2.27,0,-0,1,0.01,,84,7075,10,28,41,0.862,0.0,632,4.7,13.1,0.0,1,31.6,2.29,7.5,0,0,0,1,0,,,,,,,,,,,,,,,,,,,,
112943,1626541486162,8,5,250,254,236,230,3,0.06,0.04,-2.09,0,-2,-1,0.08,0,84,7080,10,28,42,0.862,0.0,640,4.76,13.3,0.0,1,31.9,1.15,7.5,0,0,0,1,0,0,250,250,0,45.700329,4.909405,0.0,195.1,11,3,1.3,0,0.0,-1,0.0,,0.0,0,0.0,1.8824
112963,1626541486182,,,250,251,236,230,,0.06,-0.0,-2.1,0,1,1,0.06,,84,7094,10,28,41,0.861,0.0,636,4.75,13.4,0.0,1,31.6,2.29,7.5,0,0,0,1,0,,,,,,,,,,,,,,,,,,,,
112983,1626541486202,,,250,251,236,230,,-0.01,-0.01,-2.25,0,1,2,0.02,,84,7070,10,28,41,0.86,0.0,633,4.72,13.4,0.0,1,31.6,2.29,7.5,0,0,0,1,0,,,,,,,,,,,,,,,,,,,,
113003,1626541486222,,,250,250,236,230,,0.02,0.01,-2.09,0,-2,-1,0.02,,84,7104,10,28,41,0.859,0.0,643,4.7,13.2,0.0,1,31.6,2.28,7.5,0,0,0,1,0,,,,,,,,,,,,,,,,,,,,
113023,1626541486242,,,250,253,236,230,,0.09,0.01,-1.93,0,-1,-1,0.09,,84,7062,10,28,42,0.859,0.0,636,4.73,13.3,0.0,1,31.9,2.28,7.5,0,0,0,1,0,,,,,,,,,,,,,,,,,,,,
113043,1626541486262,8,4,250,253,236,230,3,0.03,-0.01,-2.09,0,2,2,0.03,0,84,7086,10,28,42,0.859,0.0,640,4.8,13.3,0.0,1,31.9,2.28,7.5,0,0,0,1,0,0,250,250,0,45.700329,4.909405,0.0,195.1,11,3,1.3,0,0.0,-1,0.0,0.0,0.0,0,0.0,1.884
113063,1626541486282,,,250,250,236,230,,-0.02,-0.02,-2.23,0,0,0,0.02,,84,7051,10,28,41,0.859,0.0,646,4.67,13.1,0.0,1,31.6,2.29,7.5,0,0,0,1,0,,,,,,,,,,,,,,,,,,,,
113083,1626541486304,,,250,252,236,230,,0.07,0.01,-2.06,0,-2,-2,0.07,,84,7064,10,28,42,0.859,0.0,640,4.75,13.1,0.0,1,31.9,1.15,7.4,0,0,0,1,0,,,,,,,,,,,,,,,,,,,,
113103,1626541486324,,,250,253,236,230,,0.04,-0.03,-2.21,0,1,1,0.06,,84,7038,10,28,42,0.859,0.0,636,4.75,13.3,0.0,1,31.9,2.29,7.4,0,0,0,1,0,,,,,,,,,,,,,,,,,,,,
113123,1626541486344,,,250,251,236,230,,-0.03,-0.03,-2.35,0,1,2,0.04,,84,7083,10,28,42,0.859,0.0,638,4.7,13.2,0.0,1,31.9,2.28,7.4,0,0,0,1,0,,,,,,,,,,,,,,,,,,,,
113143,1626541486364,8,5,250,250,236,230,3,0.02,-0.01,-2.17,0,-2,-1,0.02,0,84,7094,10,28,42,0.86,0.0,627,4.68,13.2,0.0,1,32.0,2.28,7.4,0,0,0,1,0,0,250,250,0,45.700329,4.909405,0.0,195.1,11,3,1.3,0,0.0,-1,0.0,,0.0,0,0.0,1.8857
113163,1626541486384,,,250,252,236,230,,0.08,0.02,-2.0,0,-1,-1,0.08,,84,7070,10,28,42,0.861,0.0,632,4.78,13.3,0.0,1,31.9,2.29,7.4,0,0,0,1,0,,,,,,,,,,,,,,,,,,,,
113183,1626541486404,,,250,251,236,231,,0.0,-0.01,-2.15,0,2,2,0.01,,84,7078,10,28,42,0.861,0.0,633,4.8,13.4,0.0,1,31.9,2.29,7.4,0,0,0,1,0,,,,,,,,,,,,,,,,,,,,
113203,1626541486424,,,250,251,236,230,,-0.02,0.03,-2.29,0,-0,1,0.03,,84,7056,10,28,41,0.863,0.0,632,4.71,13.3,0.0,1,31.6,2.29,7.4,0,0,0,1,0,,,,,,,,,,,,,,,,,,,,
113223,1626541486444,,,250,253,236,230,,0.07,0.03,-2.12,0,-1,-1,0.07,,84,7075,10,28,42,0.864,0.0,638,4.74,13.1,0.0,1,31.9,1.15,7.4,0,0,0,1,0,,,,,,,,,,,,,,,,,,,,
113243,1626541486464,8,4,250,250,236,230,3,0.05,0.02,-2.25,0,1,1,0.05,0,84,7086,10,28,42,0.864,0.0,636,4.7,13.3,0.0,1,31.9,1.15,7.4,0,0,0,1,0,0,250,250,0,45.700329,4.909405,0.0,195.1,11,3,1.3,0,0.0,-1,0.0,0.0,0.0,0,0.0,1.8874
113263,1626541486484,,,250,251,236,230,,-0.02,0.02,-2.38,0,2,2,0.03,,84,7056,10,28,41,0.865,0.0,637,4.67,13.4,0.0,1,31.6,2.29,7.4,0,0,0,1,0,,,,,,,,,,,,,,,,,,,,
113283,1626541486504,,,250,251,236,230,,0.02,0.03,-2.23,0,-0,-1,0.04,,84,7072,10,28,41,0.866,0.0,636,4.62,13.2,0.0,1,31.6,2.29,7.4,0,0,0,1,0,,,,,,,,,,,,,,,,,,,,
113303,1626541486524,,,250,251,236,230,,0.08,0.03,-2.06,0,-0,-0,0.09,,84,7056,10,28,41,0.865,0.0,633,4.75,13.2,0.0,1,31.6,2.28,7.4,0,0,0,1,0,,,,,,,,,,,,,,,,,,,,
113323,1626541486544,,,250,252,236,230,,-0.0,-0.01,-2.21,0,2,2,0.01,,84,7059,10,28,41,0.866,0.0,635,4.78,13.4,0.0,1,31.6,2.29,7.4,0,0,0,1,0,,,,,,,,,,,,,,,,,,,,
113343,1626541486564,8,5,250,251,236,230,3,-0.01,0.0,-2.31,0,-0,1,0.01,0,84,7038,10,28,41,0.865,0.0,646,4.75,13.3,0.0,1,31.6,2.29,7.4,0,0,0,1,0,0,250,250,0,45.700329,4.909405,0.0,195.1,11,3,1.3,0,0.0,-1,0.0,,0.0,0,0.0,1.889
113363,1626541486584,,,250,251,236,230,,0.08,0.02,-2.13,0,-1,-1,0.08,,84,7054,10,28,41,0.866,0.0,633,4.71,13.1,0.0,1,31.6,1.16,7.4,0,0,0,1,0,,,,,,,,,,,,,,,,,,,,
113383,1626541486604,,,250,252,236,230,,0.03,0.01,-2.27,0,2,2,0.03,,84,7075,10,28,41,0.866,0.0,632,4.75,13.3,0.0,1,31.6,2.29,7.4,0,0,0,1,0,,,,,,,,,,,,,,,,,,,,
113403,1626541486624,,,250,251,236,230,,-0.03,0.0,-2.4,0,1,2,0.03,,84,7054,10,28,41,0.866,0.0,640,4.66,13.1,0.0,1,31.6,2.29,7.4,0,0,0,1,0,,,,,,,,,,,,,,,,,,,,
113423,1626541486644,,,250,251,236,230,,0.04,0.02,-2.22,0,-2,-1,0.05,,84,7080,10,28,41,0.866,0.0,631,4.67,13.1,0.0,1,31.6,1.16,7.4,0,0,0,1,0,,,,,,,,,,,,,,,,,,,,
113443,1626541486664,8,4,250,254,236,230,3,0.06,-0.02,-2.21,0,1,1,0.06,0,84,7075,10,28,42,0.866,0.0,636,4.77,13.2,0.0,1,31.9,1.15,7.4,0,0,0,1,0,0,250,250,0,45.700329,4.909405,0.0,195.1,11,3,1.3,0,0.0,-1,0.0,0.0,0.0,0,0.0,1.8907
113463,1626541486684,,,250,251,236,230,,-0.02,-0.01,-2.35,0,2,2,0.02,,84,7035,10,28,41,0.866,0.0,631,4.78,13.4,0.0,1,31.6,2.29,7.4,0,0,0,1,0,,,,,,,,,,,,,,,,,,,,
113483,1626541486703,,,250,251,236,230,,0.02,0.01,-2.22,0,-1,-0,0.02,,84,7062,10,28,41,0.866,0.0,626,4.71,13.1,0.0,1,31.6,2.29,7.4,0,0,0,1,0,,,,,,,,,,,,,,,,,,,,
113503,1626541486723,,,250,254,236,230,,0.07,0.04,-2.04,0,-1,-1,0.08,,84,7054,10,28,41,0.866,0.0,631,4.78,13.3,0.0,1,31.6,1.16,7.4,0,0,0,1,0,,,,,,,,,,,,,,,,,,,,
113523,1626541486743,,,250,251,236,230,,-0.0,0.01,-2.19,0,2,2,0.01,,84,7056,10,28,42,0.866,0.0,630,4.75,13.4,0.0,1,31.9,2.29,7.4,0,0,0,1,0,,,,,,,,,,,,,,,,,,,,
113543,1626541486763,8,5,250,251,236,230,2,-0.01,0.05,-2.33,0,-0,-0,0.05,0,84,7030,10,28,41,0.866,0.0,632,4.68,13.3,0.0,1,31.6,2.29,7.4,0,0,0,1,0,0,250,250,0,45.700329,4.909405,0.0,195.1,11,3,1.3,0,0.0,-1,0.0,,0.0,0,0.0,1.8924
113563,1626541486783,,,250,253,236,230,,0.06,0.05,-2.15,0,-2,-2,0.08,,84,7019,10,28,42,0.866,0.0,640,4.72,13.1,0.0,1,31.9,2.28,7.4,0,0,0,1,0,,,,,,,,,,,,,,,,,,,,
113583,1626541486803,,,250,251,236,230,,0.01,0.06,-2.29,0,1,1,0.06,,84,7027,10,28,42,0.865,0.0,633,4.78,13.3,0.0,1,31.9,1.15,7.4,0,0,0,1,0,,,,,,,,,,,,,,,,,,,,
113603,1626541486823,,,250,251,236,230,,-0.01,0.04,-2.42,0,0,1,0.04,,84,7017,10,28,42,0.864,0.0,640,4.79,13.3,0.0,1,31.9,2.28,7.4,0,0,0,1,0,,,,,,,,,,,,,,,,,,,,
113623,1626541486843,,,250,252,236,230,,0.07,0.08,-2.24,0,-2,-2,0.1,,84,7014,10,28,42,0.864,0.0,640,4.67,13.1,0.0,1,31.9,1.15,7.4,0,0,0,1,0,,,,,,,,,,,,,,,,,,,,
113643,1626541486863,7,6,250,251,236,230,2,0.02,0.03,-2.37,0,1,1,0.03,0,84,7030,10,28,42,0.863,0.0,632,4.76,13.3,0.0,1,31.9,2.29,7.4,0,0,0,1,0,0,250,250,0,45.700329,4.909405,0.0,195.1,11,3,1.3,0,0.0,-1,0.0,0.0,0.0,0,0.0,1.894
113663,1626541486883,,,250,251,236,230,,-0.04,0.03,-2.5,0,1,1,0.05,,84,7046,10,28,42,0.862,0.0,630,4.71,13.4,0.0,1,31.9,2.28,7.4,0,0,0,1,0,,,,,,,,,,,,,,,,,,,,
113683,1626541486903,,,250,251,236,230,,0.03,0.04,-2.3,0,-1,-1,0.06,,84,7022,10,28,42,0.862,0.0,641,4.7,13.1,0.0,1,31.9,1.15,7.4,0,0,0,1,0,,,,,,,,,,,,,,,,,,,,
113703,1626541486923,,,250,251,236,230,,0.01,0.04,-2.42,0,1,0,0.04,,84,6998,10,28,42,0.862,0.0,631,4.81,13.3,0.0,1,31.8,2.28,7.4,0,0,0,1,0,,,,,,,,,,,,,,,,,,,,
113723,1626541486943,,,250,251,236,230,,-0.04,0.01,-2.54,0,1,2,0.04,,84,7043,10,28,42,0.861,0.0,626,4.77,13.4,0.0,1,31.9,2.28,7.4,0,0,0,1,0,,,,,,,,,,,,,,,,,,,,
113743,1626541486963,7,6,250,251,236,230,3,0.03,0.07,-2.35,0,-1,-1,0.07,0,84,6983,10,28,42,0.86,0.0,631,4.72,13.1,0.0,1,31.8,2.28,7.4,0,0,0,1,0,0,250,250,0,45.700329,4.909405,0.0,195.1,11,3,1.3,0,0.0,-1,0.0,,0.0,0,0.0,1.8957
113763,1626541486983,,,250,251,236,230,,0.03,0.04,-2.4,0,1,1,0.05,,84,7001,10,28,42,0.86,0.0,621,4.77,13.2,0.0,1,31.9,1.15,7.4,0,0,0,1,0,,,,,,,,,,,,,,,,,,,,
113783,1626541486997,,,250,251,236,230,,-0.02,0.04,-2.52,0,1,1,0.04,,84,6978,10,28,42,0.858,0.0,627,4.66,13.2,0.0,1,31.8,2.28,7.4,0,0,0,1,0,,,,,,,,,,,,,,,,,,,,
