"Interval"|"ms"|0|0|1,"Utc"|"ms"|0|0|1,"Brake_F"|"Bar"|0|2000|10,"Brake_R"|"Bar"|0|2000|10,"Height_RF"|"mm"|0|255|50,"Height_LF"|"mm"|0|255|50,"Height_LR"|"mm"|0|80|50,"Height_RR"|"mm"|0|255|50,"Steering"|"deg"|-100|100|10,"AccelX"|"G"|-3.0|3.0|50,"AccelY"|"G"|-3.0|3.0|50,"AccelZ"|"G"|-3.0|3.0|50,"Yaw"|"Deg/Sec"|-120|120|50,"Pitch"|"Deg/Sec"|-120|120|50,"Roll"|"Deg/Sec"|-120|120|50,"Gsum"|"G"|0.0|3.0|50,"Log_Button"|""|0.0|10.0|10,"WaterTemp"|"C"|0|150|50,"RPM"|"tr/min"|0|14000|50,"TPS"|"%"|0|100|50,"AirTemp"|"C"|0|150|50,"MAP"|"KPa"|0|100|50,"Lambda"|""|0.5|1.5|50,"SpeedDTA"|"kph"|0.0|250.0|50,"OilPress"|"KPa"|0|1500|50,"FuelPressur"|"Bar"|0.0|10.0|50,"Batterie"|"V"|0.0|20.0|50,"ConsoKm"|"L/100km"|0.0|200.0|50,"Gear"|""|0|6|50,"AdvIgnition"|"Deg"|-20.0|70.0|50,"Injection"|"ms"|0.0|10.0|50,"ConsoHr"|"L/Hr"|0.0|10000.0|50,"LC_But_Pres"|""|0|1|50,"LC_Active"|""|0|1|50,"TractionOn"|""|0|1|50,"TractionWet"|""|0|1|50,"FanOn"|""|0|1|50,"RD_Speed"|"km/h"|-30|250|10,"RUD_Speed"|"km/h"|-30|250|10,"LD_Speed"|"km/h"|-30|250|10,"LUD_Speed"|"km/h"|-30|250|10,"Latitude"|"Degrees"|-180.0|180.0|10,"Longitude"|"Degrees"|-180.0|180.0|10,"Speed"|"kph"|0.0|150.0|10,"Altitude"|"m"|0.0|4000.0|10,"GPSSats"|""|0|20|10,"GPSQual"|""|0|5|10,"GPSDOP"|""|0.0|20.0|10,"LapCount"|""|0|0|10,"LapTime"|"Min"|0.0|0.0|10,"Sector"|""|0|0|10,"SectorTime"|"Min"|0.0|0.0|10,"PredTime"|"Min"|0.0|0.0|5,"ElapsedTime"|"Min"|0.0|0.0|10,"CurrentLap"|""|0|0|10,"Distance"|"km"|0.0|0.0|10,"SessionTime"|"Min"|0.0|0.0|10
19063,1626526588460,,,249,248,237,231,,0.07,-0.01,-2.0,0,-4,-4,0.07,,68,4621,7,31,54,0.626,0.0,413,4.7,13.1,0.0,1,27.0,1.52,5.7,0,0,0,1,0,,,,,,,,,,,,,,,,,,,,
19083,1626526588480,,,248,249,237,231,,0.09,-0.02,-2.15,0,-3,-3,0.09,,68,4631,7,31,54,0.625,0.0,407,4.74,13.1,0.0,1,27.1,2.64,5.7,0,0,0,1,0,,,,,,,,,,,,,,,,,,,,
19103,1626526588500,,,248,249,237,231,,0.06,-0.02,-2.3,0,-0,-0,0.06,,68,4617,7,31,54,0.625,0.0,403,4.75,13.0,0.0,1,27.0,2.63,5.7,0,0,0,1,0,,,,,,,,,,,,,,,,,,,,
19123,1626526588520,,,248,248,237,231,,-0.0,0.01,-2.18,0,1,1,0.01,,68,4623,7,31,54,0.625,0.0,406,4.76,12.9,0.0,1,27.0,1.52,5.7,0,0,0,1,0,,,,,,,,,,,,,,,,,,,,
19143,1626526588540,0,1,249,248,237,231,25,-0.05,0.03,-2.01,0,1,0,0.06,1,68,4622,7,31,54,0.625,0.0,400,4.71,13.2,0.0,1,27.0,2.63,5.6,0,0,0,1,0,0,250,250,0,45.700306,4.909401,0.0,186.3,9,2,1.9,0,0.0,-1,0.0,,0.0,0,0.0,0.3191
19163,1626526588560,,,249,248,237,231,,-0.07,0.06,-1.86,0,-0,-0,0.1,,68,4617,7,31,54,0.625,0.0,411,4.75,13.2,0.0,1,27.0,2.63,5.6,0,0,0,1,0,,,,,,,,,,,,,,,,,,,,
19183,1626526588580,,,249,249,237,231,,-0.12,0.08,-1.71,0,1,-0,0.14,,68,4639,7,31,54,0.625,0.0,403,4.73,13.2,0.0,1,27.2,2.65,5.6,0,0,0,1,0,,,,,,,,,,,,,,,,,,,,
19203,1626526588600,,,248,249,237,231,,-0.1,0.11,-1.58,0,-2,-2,0.15,,68,4585,7,31,54,0.625,0.0,403,4.79,13.2,0.0,1,26.6,2.62,5.6,0,0,0,1,0,,,,,,,,,,,,,,,,,,,,
19223,1626526588620,,,248,249,237,231,,-0.06,0.1,-1.46,0,-4,-4,0.12,,68,4601,7,31,54,0.624,0.0,410,4.72,13.3,0.0,1,26.8,1.51,5.6,0,0,0,1,0,,,,,,,,,,,,,,,,,,,,
19243,1626526588640,-1,2,249,249,237,231,26,-0.01,0.07,-1.54,0,-6,-5,0.07,0,68,4622,7,31,54,0.624,0.0,399,4.75,13.2,0.0,1,27.0,2.63,5.5,0,0,0,1,0,0,250,250,0,45.700306,4.909401,0.0,186.3,9,2,1.9,0,0.0,-1,0.0,0.0,0.0,0,0.0,0.3207
19263,1626526588660,,,248,248,237,231,,0.02,0.03,-1.73,0,-6,-6,0.04,,68,4609,7,31,54,0.624,0.0,408,4.7,13.2,0.0,1,26.9,1.51,5.5,0,0,0,1,0,,,,,,,,,,,,,,,,,,,,
19283,1626526588680,,,248,248,237,231,,0.06,-0.0,-1.91,0,-6,-6,0.06,,68,4622,7,31,54,0.625,0.0,397,4.75,13.2,0.0,1,27.0,2.63,5.5,0,0,0,1,0,,,,,,,,,,,,,,,,,,,,
19303,1626526588700,,,249,248,237,231,,0.08,-0.04,-2.07,0,-3,-4,0.09,,68,4642,7,31,54,0.625,0.0,405,4.72,13.1,0.0,1,26.9,2.65,5.5,0,0,0,1,0,,,,,,,,,,,,,,,,,,,,
19323,1626526588720,,,248,249,237,231,,0.08,-0.07,-2.21,0,-1,-2,0.1,,68,4612,7,31,54,0.625,0.0,410,4.69,13.1,0.0,1,26.9,1.5,5.5,0,0,0,1,0,,,,,,,,,,,,,,,,,,,,
19343,1626526588740,1,2,248,248,237,231,26,0.05,-0.06,-2.35,0,1,1,0.08,0,68,4600,7,31,54,0.626,0.0,404,4.72,13.1,0.0,1,26.8,2.62,5.5,0,0,0,1,0,0,250,250,0,45.700306,4.909401,0.0,186.3,9,2,1.9,0,0.0,-1,0.0,,0.0,0,0.0,0.3224
19363,1626526588760,,,249,248,237,231,,0.02,-0.04,-2.48,0,4,3,0.05,,68,4583,7,31,54,0.625,0.0,408,4.74,13.0,0.0,1,26.5,2.61,5.5,0,0,0,1,0,,,,,,,,,,,,,,,,,,,,
19383,1626526588780,,,249,249,237,230,,-0.02,-0.01,-2.52,1,5,5,0.03,,68,4620,7,31,54,0.626,0.0,405,4.79,13.1,0.0,1,27.0,1.52,5.5,0,0,0,1,0,,,,,,,,,,,,,,,,,,,,
19403,1626526588799,,,248,248,237,231,,-0.07,0.02,-2.32,1,6,5,0.07,,68,4611,7,31,54,0.626,0.0,402,4.71,13.2,0.0,1,26.9,2.62,5.5,0,0,0,1,0,,,,,,,,,,,,,,,,,,,,
19423,1626526588819,,,249,248,237,231,,-0.11,0.05,-2.14,1,5,4,0.12,,68,4622,7,31,54,0.625,0.0,412,4.7,13.1,0.0,1,27.0,2.63,5.5,0,0,0,1,0,,,,,,,,,,,,,,,,,,,,
19443,1626526588839,0,0,249,249,237,231,27,-0.13,0.07,-1.98,0,4,3,0.15,0,68,4582,7,31,54,0.625,0.0,403,4.78,13.2,0.0,1,26.5,2.61,5.6,0,0,0,1,0,0,250,250,0,45.700306,4.909401,0.0,186.3,9,2,1.9,0,0.0,-1,0.0,0.0,0.0,0,0.0,0.324
19463,1626526588859,,,248,249,237,231,,-0.14,0.12,-1.82,0,1,1,0.18,,68,4583,7,31,54,0.625,0.0,404,4.77,13.2,0.0,1,26.5,2.61,5.6,0,0,0,1,0,,,,,,,,,,,,,,,,,,,,
19483,1626526588879,,,248,249,237,231,,-0.12,0.13,-1.68,0,-2,-1,0.17,,68,4553,7,31,54,0.625,0.0,404,4.72,13.2,0.0,1,26.2,2.59,5.6,0,0,0,1,0,,,,,,,,,,,,,,,,,,,,
19503,1626526588901,,,249,249,237,230,,-0.09,0.11,-1.55,0,-5,-3,0.15,,68,4562,7,31,54,0.624,0.0,400,4.78,13.2,0.0,1,26.3,2.6,5.6,0,0,0,1,0,,,,,,,,,,,,,,,,,,,,
19523,1626526588921,,,249,249,237,230,,-0.06,0.11,-1.43,0,-7,-5,0.12,,68,4560,7,31,54,0.625,0.0,402,4.76,13.2,0.0,1,26.3,2.6,5.4,0,0,0,1,0,,,,,,,,,,,,,,,,,,,,
19543,1626526588941,-1,2,249,248,237,231,26,-0.03,0.1,-1.32,0,-9,-6,0.1,0,68,4550,7,31,54,0.624,0.0,392,4.79,13.2,0.0,1,26.1,1.47,5.4,0,0,0,1,0,0,250,250,0,45.700306,4.909401,0.0,186.3,9,2,1.9,0,0.0,-1,0.0,,0.0,0,0.0,0.3257
19563,1626526588961,,,249,249,237,231,,0.02,0.07,-1.38,-0,-9,-7,0.07,,68,4553,7,31,54,0.625,0.0,401,4.75,13.2,0.0,1,26.2,2.59,5.4,0,0,0,1,0,,,,,,,,,,,,,,,,,,,,
19583,1626526588981,,,249,249,237,231,,0.06,0.04,-1.58,-0,-10,-8,0.07,,68,4556,7,31,54,0.626,0.0,399,4.73,13.2,0.0,1,26.2,2.6,5.4,0,0,0,1,0,,,,,,,,,,,,,,,,,,,,
19603,1626526588991,,,249,248,237,231,,0.09,-0.0,-1.76,-0,-9,-9,0.09,,68,4563,7,31,54,0.626,0.0,399,4.73,13.2,0.0,1,26.3,2.6,5.4,0,0,0,1,0,,,,,,,,,,,,,,,,,,,,
19623,1626526589011,,,248,248,237,231,,0.13,-0.04,-1.93,-0,-9,-9,0.14,,68,4563,7,31,55,0.627,0.0,403,4.73,13.2,0.0,1,26.5,2.6,5.5,0,0,0,1,0,,,,,,,,,,,,,,,,,,,,
19643,1626526589031,-0,2,248,248,237,231,26,0.16,-0.09,-2.09,-0,-7,-9,0.18,0,68,4588,7,31,54,0.627,0.0,397,4.73,13.2,0.0,1,26.6,1.5,5.5,0,0,0,1,0,0,250,250,0,45.700306,4.909401,0.0,186.3,9,2,1.9,0,0.0,-1,0.0,0.0,0.0,0,0.0,0.3274
19663,1626526589051,,,249,248,237,231,,0.18,-0.1,-2.24,-0,-5,-7,0.2,,68,4623,7,31,54,0.628,0.0,405,4.79,13.1,0.0,1,27.0,1.52,5.5,0,0,0,1,0,,,,,,,,,,,,,,,,,,,,
19683,1626526589071,,,249,248,237,231,,0.16,-0.1,-2.37,0,-2,-4,0.19,,68,4628,7,31,54,0.628,0.0,403,4.76,13.0,0.0,1,27.1,1.53,5.5,0,0,0,1,0,,,,,,,,,,,,,,,,,,,,
19703,1626526589099,,,249,249,237,231,,0.15,-0.08,-2.5,0,0,-2,0.17,,68,4645,7,31,54,0.628,0.0,402,4.74,13.0,0.0,1,27.3,1.54,5.5,0,0,0,1,0,,,,,,,,,,,,,,,,,,,,
19723,1626526589119,,,249,249,237,231,,0.1,-0.06,-2.61,0,2,1,0.11,,68,4643,7,31,54,0.628,0.0,416,4.77,13.0,0.0,1,27.3,2.65,5.7,0,0,0,1,0,,,,,,,,,,,,,,,,,,,,
19743,1626526589139,0,1,249,248,237,231,25,0.05,-0.03,-2.44,0,3,1,0.05,0,69,4628,7,31,54,0.629,0.0,406,4.72,13.2,0.0,1,27.1,2.64,5.7,0,0,0,1,0,0,250,250,0,45.700306,4.909401,0.0,186.3,9,2,1.9,0,0.0,-1,0.0,,0.0,0,0.0,0.329
19763,1626526589159,,,249,248,237,230,,0.0,0.02,-2.25,0,2,-0,0.02,,69,4604,7,31,54,0.629,0.0,411,4.73,13.1,0.0,1,26.8,2.62,5.7,0,0,0,1,0,,,,,,,,,,,,,,,,,,,,
19783,1626526589179,,,249,249,237,231,,-0.03,0.06,-2.08,0,1,-1,0.06,,69,4618,7,31,54,0.629,0.0,404,4.73,13.2,0.0,1,27.0,2.63,5.7,0,0,0,1,0,,,,,,,,,,,,,,,,,,,,
19803,1626526589199,,,249,249,237,230,,-0.05,0.1,-1.92,0,-2,-2,0.11,,69,4582,7,31,54,0.63,0.0,400,4.76,13.2,0.0,1,26.5,2.61,5.7,0,0,0,1,0,,,,,,,,,,,,,,,,,,,,
19823,1626526589219,,,248,249,237,231,,-0.04,0.09,-1.77,0,-4,-4,0.1,,69,4579,7,31,54,0.629,0.0,407,4.71,13.2,0.0,1,26.5,2.61,5.7,0,0,0,1,0,,,,,,,,,,,,,,,,,,,,
19843,1626526589239,0,1,249,249,237,230,27,0.0,0.08,-1.63,0,-7,-6,0.08,0,69,4619,7,31,54,0.629,0.0,400,4.77,13.3,0.0,1,27.0,2.63,5.5,0,0,0,1,0,0,250,250,0,45.700306,4.909401,0.0,186.3,9,2,1.9,0,0.0,-1,0.0,0.0,0.0,0,0.0,0.3307
19863,1626526589259,,,248,249,237,231,,0.04,0.04,-1.53,-0,-8,-7,0.06,,69,4589,7,31,54,0.628,0.0,407,4.73,13.2,0.0,1,26.6,2.62,5.5,0,0,0,1,0,,,,,,,,,,,,,,,,,,,,
19883,1626526589279,,,248,248,237,231,,0.08,0.0,-1.72,-0,-8,-8,0.08,,69,4617,7,31,54,0.628,0.0,410,4.7,13.2,0.0,1,27.0,1.52,5.5,0,0,0,1,0,,,,,,,,,,,,,,,,,,,,
19903,1626526589299,,,248,248,237,231,,0.11,-0.05,-1.9,-0,-6,-7,0.12,,69,4611,7,31,54,0.628,0.0,401,4.7,13.1,0.0,1,26.9,1.51,5.5,0,0,0,1,0,,,,,,,,,,,,,,,,,,,,
19923,1626526589319,,,248,248,237,231,,0.14,-0.07,-2.06,-0,-4,-6,0.15,,69,4626,7,31,54,0.628,0.0,405,4.75,13.1,0.0,1,27.0,2.64,5.6,0,0,0,1,0,,,,,,,,,,,,,,,,,,,,
19943,1626526589339,1,0,249,248,237,231,26,0.14,-0.08,-2.21,0,-2,-3,0.16,0,69,4601,7,31,54,0.629,0.0,401,4.77,13.0,0.0,1,26.8,1.51,5.6,0,0,0,1,0,0,250,250,0,45.700306,4.909401,0.0,186.3,9,2,1.9,0,0.0,-1,0.0,,0.0,0,0.0,0.3324
19963,1626526589359,,,249,248,237,231,,0.14,-0.07,-2.34,0,1,-1,0.16,,69,4604,7,31,54,0.629,0.0,405,4.77,13.0,0.0,1,26.8,1.51,5.6,0,0,0,1,0,,,,,,,,,,,,,,,,,,,,
19983,1626526589379,,,249,249,237,231,,0.11,-0.06,-2.47,0,2,2,0.13,,69,4598,7,31,54,0.629,0.0,410,4.8,13.0,0.0,1,26.7,1.51,5.6,0,0,0,1,0,,,,,,,,,,,,,,,,,,,,
20003,1626526589399,,,248,248,237,231,,0.07,-0.04,-2.59,1,4,3,0.08,,69,4588,7,31,54,0.629,0.0,400,4.8,13.0,0.0,1,26.6,2.62,5.6,0,0,0,1,0,,,,,,,,,,,,,,,,,,,,
20023,1626526589419,,,249,248,237,231,,0.02,-0.02,-2.55,1,5,4,0.03,,69,4622,7,31,54,0.629,0.0,411,4.72,13.1,0.0,1,27.0,2.63,5.6,0,0,0,1,0,,,,,,,,,,,,,,,,,,,,
20043,1626526589439,-0,2,249,248,237,231,27,-0.03,-0.01,-2.35,1,5,4,0.03,0,69,4564,7,31,54,0.629,0.0,403,4.76,13.0,0.0,1,26.3,2.6,5.6,0,0,0,1,0,0,250,250,0,45.700306,4.909401,0.0,186.3,9,2,1.9,0,0.0,-1,0.0,0.0,0.0,0,0.0,0.334
20063,1626526589459,,,248,248,237,231,,-0.08,0.01,-2.17,0,3,3,0.08,,69,4558,7,31,54,0.629,0.0,401,4.76,13.1,0.0,1,26.2,2.6,5.6,0,0,0,1,0,,,,,,,,,,,,,,,,,,,,
20083,1626526589479,,,249,249,237,231,,-0.1,0.03,-2.0,0,2,1,0.11,,69,4620,7,31,54,0.63,0.0,401,4.74,13.2,0.0,1,27.0,2.63,5.6,0,0,0,1,0,,,,,,,,,,,,,,,,,,,,
20103,1626526589499,,,249,249,237,231,,-0.11,0.05,-1.84,0,-1,-0,0.12,,69,4615,7,31,54,0.629,0.0,402,4.72,13.2,0.0,1,26.9,2.63,5.6,0,0,0,1,0,,,,,,,,,,,,,,,,,,,,
20123,1626526589519,,,249,249,237,231,,-0.08,0.06,-1.7,0,-4,-2,0.1,,69,4647,7,31,54,0.63,0.0,411,4.79,13.2,0.0,1,27.3,2.65,5.7,0,0,0,1,0,,,,,,,,,,,,,,,,,,,,
20143,1626526589539,-1,2,249,248,237,231,26,-0.04,0.05,-1.57,0,-5,-3,0.07,0,69,4659,7,31,54,0.63,0.0,410,4.79,13.2,0.0,1,27.5,2.66,5.7,0,0,0,1,0,0,250,250,0,45.700306,4.909401,0.0,186.3,9,2,1.9,0,0.0,-1,0.0,,0.0,0,0.0,0.3357
20163,1626526589559,,,249,248,237,231,,0.0,0.02,-1.76,0,-5,-4,0.02,,69,4626,7,31,54,0.631,0.0,405,4.77,13.3,0.0,1,27.1,2.64,5.7,0,0,0,1,0,,,,,,,,,,,,,,,,,,,,
20183,1626526589579,,,249,248,237,231,,0.04,-0.0,-1.93,0,-4,-3,0.04,,69,4647,7,31,54,0.631,0.0,405,4.72,13.1,0.0,1,27.3,1.54,5.7,0,0,0,1,0,,,,,,,,,,,,,,,,,,,,
20203,1626526589599,,,249,248,237,231,,0.06,-0.02,-2.09,0,-2,-2,0.06,,69,4618,7,31,54,0.632,0.0,402,4.71,13.2,0.0,1,27.0,1.52,5.7,0,0,0,1,0,,,,,,,,,,,,,,,,,,,,
20223,1626526589619,,,248,249,237,231,,0.07,-0.02,-2.23,0,0,0,0.07,,69,4656,7,31,54,0.632,0.0,407,4.72,13.1,0.0,1,27.5,2.66,5.7,0,0,0,1,0,,,,,,,,,,,,,,,,,,,,
20243,1626526589639,-1,2,249,249,237,231,26,0.05,-0.0,-2.37,1,2,3,0.05,0,69,4626,7,31,54,0.632,0.0,415,4.74,13.0,0.0,1,27.1,2.64,5.7,0,0,0,1,0,0,250,250,0,45.700306,4.909401,0.0,186.3,9,2,1.9,0,0.0,-1,0.0,0.0,0.0,0,0.0,0.3374
20263,1626526589659,,,249,248,237,230,,0.01,0.02,-2.49,1,4,4,0.02,,69,4610,7,31,54,0.632,0.0,403,4.77,13.1,0.0,1,26.9,1.51,5.7,0,0,0,1,0,,,,,,,,,,,,,,,,,,,,
20283,1626526589679,,,249,248,237,231,,-0.04,0.04,-2.4,1,4,4,0.06,,69,4627,7,31,54,0.632,0.0,417,4.72,13.2,0.0,1,27.1,2.64,5.7,0,0,0,1,0,,,,,,,,,,,,,,,,,,,,
20303,1626526589700,,,248,248,237,231,,-0.09,0.05,-2.21,1,4,3,0.1,,69,4613,7,31,53,0.632,0.0,407,4.73,13.1,0.0,1,26.6,2.63,5.7,0,0,0,1,0,,,,,,,,,,,,,,,,,,,,
20323,1626526589720,,,249,249,237,231,,-0.12,0.08,-2.04,0,2,2,0.14,,69,4596,7,31,54,0.632,0.0,405,4.78,13.2,0.0,1,26.7,2.62,5.5,0,0,0,1,0,,,,,,,,,,,,,,,,,,,,
20343,1626526589740,-0,3,248,249,237,231,27,-0.12,0.09,-1.88,0,-1,-0,0.15,0,69,4633,7,31,54,0.632,0.0,402,4.77,13.2,0.0,1,27.2,1.53,5.5,0,0,0,1,0,0,250,250,0,45.700306,4.909401,0.0,186.3,9,2,1.9,0,0.0,-1,0.0,,0.0,0,0.0,0.339
20363,1626526589760,,,248,249,237,231,,-0.1,0.08,-1.74,0,-4,-2,0.13,,69,4594,7,31,54,0.631,0.0,404,4.75,13.2,0.0,1,26.7,2.62,5.5,0,0,0,1,0,,,,,,,,,,,,,,,,,,,,
20383,1626526589780,,,249,249,237,231,,-0.06,0.07,-1.6,0,-6,-4,0.09,,69,4598,7,31,54,0.632,0.0,412,4.74,13.2,0.0,1,26.7,2.62,5.5,0,0,0,1,0,,,,,,,,,,,,,,,,,,,,
20403,1626526589798,,,249,248,237,231,,-0.01,0.05,-1.6,0,-6,-5,0.05,,69,4615,7,31,54,0.632,0.0,404,4.76,13.3,0.0,1,26.9,1.52,5.5,0,0,0,1,0,,,,,,,,,,,,,,,,,,,,
20423,1626526589818,,,248,248,237,231,,0.03,0.01,-1.79,0,-5,-5,0.03,,69,4576,7,31,54,0.632,0.0,403,4.7,13.2,0.0,1,26.5,2.61,5.5,0,0,0,1,0,,,,,,,,,,,,,,,,,,,,
20443,1626526589838,-1,2,249,248,237,231,26,0.06,-0.0,-1.96,0,-4,-4,0.06,0,69,4610,7,31,54,0.633,0.0,401,4.71,13.1,0.0,1,26.9,1.51,5.5,0,0,0,1,0,0,250,250,0,45.700306,4.909401,0.0,186.3,9,2,1.9,0,0.0,-1,0.0,0.0,0.0,0,0.0,0.3407
20463,1626526589858,,,249,248,237,231,,0.08,-0.03,-2.11,0,-2,-3,0.09,,69,4583,7,31,54,0.633,0.0,402,4.71,13.2,0.0,1,26.5,1.49,5.5,0,0,0,1,0,,,,,,,,,,,,,,,,,,,,
20483,1626526589878,,,248,248,237,231,,0.11,-0.05,-2.26,0,0,-1,0.12,,69,4567,7,31,54,0.634,0.0,401,4.71,13.2,0.0,1,26.3,2.61,5.5,0,0,0,1,0,,,,,,,,,,,,,,,,,,,,
20503,1626526589898,,,249,248,237,231,,0.12,-0.06,-2.39,0,2,1,0.13,,69,4604,7,31,54,0.633,0.0,401,4.76,13.0,0.0,1,26.8,1.51,5.5,0,0,0,1,0,,,,,,,,,,,,,,,,,,,,
20523,1626526589918,,,249,248,237,231,,0.11,-0.06,-2.51,1,5,4,0.13,,69,4603,7,31,54,0.634,0.0,403,4.74,13.1,0.0,1,26.8,1.51,5.5,0,0,0,1,0,,,,,,,,,,,,,,,,,,,,
20543,1626526589938,0,2,249,248,237,231,26,0.08,-0.06,-2.63,1,6,6,0.1,0,69,4634,7,31,54,0.634,0.0,414,4.76,13.0,0.0,1,27.2,2.64,5.5,0,0,0,1,0,0,250,250,0,45.700306,4.909401,0.0,186.3,9,2,1.9,0,0.0,-1,0.0,,0.0,0,0.0,0.3424
20563,1626526589958,,,249,248,237,231,,0.05,-0.05,-2.73,1,7,6,0.07,,69,4598,7,31,54,0.635,0.0,404,4.75,13.2,0.0,1,26.7,2.62,5.5,0,0,0,1,0,,,,,,,,,,,,,,,,,,,,
20583,1626526589978,,,249,248,237,231,,-0.01,-0.03,-2.56,1,6,6,0.03,,69,4582,7,31,54,0.634,0.0,408,4.74,13.0,0.0,1,26.5,1.49,5.5,0,0,0,1,0,,,,,,,,,,,,,,,,,,,,
20603,1626526589992,,,249,248,237,231,,-0.05,0.01,-2.36,1,5,4,0.05,,69,4580,7,31,54,0.635,0.0,398,4.77,13.2,0.0,1,26.5,1.49,5.5,0,0,0,1,0,,,,,,,,,,,,,,,,,,,,
20623,1626526590012,,,249,249,237,231,,-0.09,0.05,-2.18,1,2,3,0.1,,69,4566,7,31,54,0.635,0.0,401,4.76,13.2,0.0,1,26.3,2.6,5.5,0,0,0,1,0,,,,,,,,,,,,,,,,,,,,
20643,1626526590032,-1,2,249,249,237,230,26,-0.11,0.08,-2.01,0,1,1,0.14,0,69,4580,7,31,54,0.634,0.0,404,4.7,13.2,0.0,1,26.5,1.49,5.5,0,0,0,1,0,0,250,250,0,45.700306,4.909401,0.0,186.3,9,2,1.9,0,0.0,-1,0.0,0.0,0.0,0,0.0,0.344
20663,1626526590052,,,248,249,237,231,,-0.14,0.12,-1.85,0,-2,-0,0.18,,69,4592,7,31,54,0.633,0.0,401,4.79,13.2,0.0,1,26.7,2.62,5.5,0,0,0,1,0,,,,,,,,,,,,,,,,,,,,
20683,1626526590072,,,249,249,237,231,,-0.13,0.13,-1.71,0,-4,-2,0.18,,69,4548,7,31,54,0.634,0.0,403,4.8,13.3,0.0,1,26.1,2.59,5.5,0,0,0,1,0,,,,,,,,,,,,,,,,,,,,
20703,1626526590100,,,249,249,237,231,,-0.12,0.13,-1.58,0,-6,-4,0.18,,69,4514,7,31,54,0.633,0.0,396,4.75,13.3,0.0,1,25.7,2.57,5.5,0,0,0,1,0,,,,,,,,,,,,,,,,,,,,
20723,1626526590120,,,249,249,237,231,,-0.11,0.15,-1.45,0,-7,-5,0.18,,69,4527,7,31,54,0.633,0.0,400,4.7,13.3,0.0,1,25.8,1.45,5.5,0,0,0,1,0,,,,,,,,,,,,,,,,,,,,
20743,1626526590140,0,2,249,249,237,231,26,-0.09,0.16,-1.34,0,-9,-6,0.18,0,69,4559,7,31,55,0.633,0.0,397,4.73,13.3,0.0,1,26.4,2.6,5.3,0,0,0,1,0,0,250,250,0,45.700306,4.909401,0.0,186.3,9,2,1.9,0,0.0,-1,0.0,,0.0,0,0.0,0.3457
20763,1626526590160,,,249,249,237,231,,-0.07,0.16,-1.24,-0,-9,-7,0.17,,69,4533,7,31,55,0.633,0.0,394,4.81,13.2,0.0,1,26.1,2.58,5.3,0,0,0,1,0,,,,,,,,,,,,,,,,,,,,
20783,1626526590180,,,248,249,237,231,,-0.02,0.13,-1.14,-0,-9,-8,0.13,,69,4589,7,31,55,0.634,0.0,407,4.8,13.2,0.0,1,26.8,2.62,5.3,0,0,0,1,0,,,,,,,,,,,,,,,,,,,,
20803,1626526590200,,,248,248,237,230,,0.02,0.08,-1.22,-0,-9,-9,0.08,,69,4598,7,31,55,0.633,0.0,403,4.7,13.2,0.0,1,26.9,2.62,5.3,0,0,0,1,0,,,,,,,,,,,,,,,,,,,,
20823,1626526590220,,,248,248,237,231,,0.06,0.02,-1.43,-0,-7,-9,0.06,,69,4619,7,31,55,0.634,0.0,403,4.76,13.2,0.0,1,27.2,1.52,5.3,0,0,0,1,0,,,,,,,,,,,,,,,,,,,,
20843,1626526590240,0,1,248,248,237,231,26,0.09,-0.03,-1.63,-0,-5,-7,0.09,0,69,4642,7,31,55,0.634,0.0,405,4.72,13.2,0.0,1,27.5,2.65,5.6,0,0,0,1,0,0,250,250,0,45.700306,4.909401,0.0,186.3,9,2,1.9,0,0.0,-1,0.0,0.0,0.0,0,0.0,0.3474
20863,1626526590260,,,248,248,237,231,,0.1,-0.05,-1.81,0,-2,-4,0.11,,69,4651,7,31,54,0.634,0.0,400,4.72,13.0,0.0,1,27.4,1.54,5.6,0,0,0,1,0,,,,,,,,,,,,,,,,,,,,
20883,1626526590280,,,248,248,237,231,,0.08,-0.05,-1.98,0,-0,-2,0.1,,69,4665,7,31,54,0.634,0.0,415,4.74,13.0,0.0,1,27.6,1.55,5.6,0,0,0,1,0,,,,,,,,,,,,,,,,,,,,
20903,1626526590300,,,249,248,237,231,,0.05,-0.04,-2.13,0,2,0,0.07,,69,4625,7,31,54,0.634,0.0,405,4.75,12.9,0.0,1,27.1,2.64,5.6,0,0,0,1,0,,,,,,,,,,,,,,,,,,,,
20923,1626526590320,,,249,248,237,231,,-0.0,-0.01,-2.26,0,2,0,0.01,,69,4646,7,31,54,0.634,0.0,408,4.72,13.2,0.0,1,27.3,2.65,5.7,0,0,0,1,0,,,,,,,,,,,,,,,,,,,,
20943,1626526590340,0,2,249,248,237,231,26,-0.05,0.03,-2.09,0,2,-0,0.06,0,69,4601,7,31,54,0.634,0.0,412,4.72,13.1,0.0,1,26.8,1.51,5.7,0,0,0,1,0,0,250,250,0,45.700306,4.909401,0.0,186.3,9,2,1.9,0,0.0,-1,0.0,,0.0,0,0.0,0.349
20963,1626526590360,,,249,249,237,231,,-0.09,0.06,-1.93,0,0,-1,0.11,,69,4592,7,31,54,0.634,0.0,402,4.72,13.2,0.0,1,26.7,2.62,5.7,0,0,0,1,0,,,,,,,,,,,,,,,,,,,,
20983,1626526590380,,,249,250,237,231,,-0.1,0.08,-1.78,0,-2,-3,0.13,,69,4564,7,31,54,0.634,0.0,402,4.76,13.2,0.0,1,26.3,2.6,5.7,0,0,0,1,0,,,,,,,,,,,,,,,,,,,,
21003,1626526590400,,,249,249,237,231,,-0.11,0.1,-1.64,0,-4,-4,0.15,,69,4587,7,31,54,0.633,0.0,396,4.74,13.3,0.0,1,26.6,2.62,5.7,0,0,0,1,0,,,,,,,,,,,,,,,,,,,,
21023,1626526590420,,,249,249,237,231,,-0.1,0.09,-1.52,0,-6,-5,0.13,,69,4582,7,31,54,0.633,0.0,399,4.75,13.3,0.0,1,26.5,2.61,5.5,0,0,0,1,0,,,,,,,,,,,,,,,,,,,,
21043,1626526590440,-0,2,249,250,237,231,26,-0.05,0.07,-1.71,-0,-8,-7,0.09,0,69,4587,7,31,54,0.633,0.0,408,4.82,13.2,0.0,1,26.6,2.62,5.5,0,0,0,1,0,0,250,250,0,45.700306,4.909401,0.0,186.3,9,2,1.9,0,0.0,-1,0.0,0.0,0.0,0,0.0,0.3507
21063,1626526590460,,,249,249,237,231,,-0.01,0.04,-1.88,-0,-8,-8,0.04,,69,4566,7,31,55,0.633,0.0,400,4.78,13.3,0.0,1,26.5,2.6,5.5,0,0,0,1,0,,,,,,,,,,,,,,,,,,,,
21083,1626526590480,,,248,249,237,231,,0.04,0.0,-2.04,-0,-9,-8,0.04,,69,4534,7,31,54,0.633,0.0,401,4.72,13.2,0.0,1,25.9,2.58,5.5,0,0,0,1,0,,,,,,,,,,,,,,,,,,,,
21103,1626526590500,,,249,249,237,231,,0.07,-0.05,-2.19,-0,-8,-9,0.09,,69,4544,7,31,54,0.633,0.0,396,4.74,13.3,0.0,1,26.1,1.47,5.5,0,0,0,1,0,,,,,,,,,,,,,,,,,,,,
21123,1626526590520,,,249,248,237,231,,0.1,-0.06,-2.33,-0,-7,-8,0.12,,69,4583,7,31,55,0.634,0.0,397,4.74,13.2,0.0,1,26.7,2.61,5.5,0,0,0,1,0,,,,,,,,,,,,,,,,,,,,
21143,1626526590540,-1,2,248,248,237,231,26,0.12,-0.06,-2.46,-0,-5,-7,0.14,0,69,4547,7,31,55,0.633,0.0,402,4.76,13.1,0.0,1,26.3,2.59,5.5,0,0,0,1,0,0,250,250,0,45.700306,4.909401,0.0,186.3,9,2,1.9,0,0.0,-1,0.0,,0.0,0,0.0,0.3524
21163,1626526590560,,,249,248,237,231,,0.14,-0.07,-2.58,-0,-4,-6,0.16,,69,4535,7,31,55,0.634,0.0,393,4.72,13.2,0.0,1,26.1,2.58,5.5,0,0,0,1,0,,,,,,,,,,,,,,,,,,,,
21183,1626526590580,,,249,248,237,231,,0.15,-0.07,-2.68,0,-2,-5,0.16,,69,4566,7,31,55,0.634,0.0,406,4.77,13.1,0.0,1,26.4,2.6,5.5,0,0,0,1,0,,,,,,,,,,,,,,,,,,,,
21203,1626526590600,,,248,248,237,231,,0.14,-0.07,-2.78,0,1,-3,0.16,,69,4564,7,31,55,0.634,0.0,398,4.71,13.2,0.0,1,26.5,1.48,5.5,0,0,0,1,0,,,,,,,,,,,,,,,,,,,,
21223,1626526590620,,,249,248,237,230,,0.11,-0.08,-2.88,0,3,0,0.14,,69,4576,7,31,55,0.635,0.0,401,4.75,13.1,0.0,1,26.7,2.61,5.4,0,0,0,1,0,,,,,,,,,,,,,,,,,,,,
21243,1626526590640,0,2,249,248,237,231,27,0.1,-0.08,-2.96,0,5,2,0.12,0,69,4563,7,31,54,0.635,0.0,400,4.77,13.0,0.0,1,26.3,2.6,5.4,0,0,0,1,0,0,250,250,0,45.700306,4.909401,0.0,186.3,9,2,1.9,0,0.0,-1,0.0,0.0,0.0,0,0.0,0.354
21263,1626526590660,,,249,248,237,231,,0.06,-0.06,-3.04,1,7,5,0.08,,69,4556,7,31,55,0.635,0.0,396,4.82,13.1,0.0,1,26.4,1.48,5.4,0,0,0,1,0,,,,,,,,,,,,,,,,,,,,
21283,1626526590680,,,249,248,237,230,,0.02,-0.02,-3.09,1,9,7,0.03,,69,4582,7,31,55,0.636,0.0,402,4.77,13.0,0.0,1,26.7,2.61,5.4,0,0,0,1,0,,,,,,,,,,,,,,,,,,,,
21303,1626526590700,,,248,248,237,231,,-0.03,0.0,-2.99,1,10,9,0.03,,69,4557,7,31,55,0.635,0.0,401,4.73,13.1,0.0,1,26.4,2.6,5.4,0,0,0,1,0,,,,,,,,,,,,,,,,,,,,
21323,1626526590720,,,249,248,237,231,,-0.08,0.01,-2.76,1,11,9,0.08,,69,4593,7,31,55,0.635,0.0,402,4.77,13.0,0.0,1,26.9,1.5,5.4,0,0,0,1,0,,,,,,,,,,,,,,,,,,,,
21343,1626526590740,-0,3,248,248,237,231,26,-0.12,0.02,-2.55,1,10,9,0.12,0,69,4595,7,31,54,0.635,0.0,410,4.71,13.1,0.0,1,26.7,2.62,5.5,0,0,0,1,0,0,250,250,0,45.700306,4.909401,0.0,186.3,9,2,1.9,0,0.0,-1,0.0,,0.0,0,0.0,0.3557
21363,1626526590760,,,249,248,237,231,,-0.13,0.02,-2.35,1,9,7,0.13,,69,4603,7,31,55,0.636,0.0,398,4.72,13.2,0.0,1,27.0,2.62,5.5,0,0,0,1,0,,,,,,,,,,,,,,,,,,,,
21383,1626526590780,,,248,249,237,231,,-0.12,0.03,-2.17,1,5,5,0.13,,69,4625,7,31,54,0.636,0.0,410,4.7,13.2,0.0,1,27.1,1.53,5.5,0,0,0,1,0,,,,,,,,,,,,,,,,,,,,
21403,1626526590799,,,249,249,237,231,,-0.1,0.05,-2.0,0,3,3,0.11,,69,4617,7,31,54,0.636,0.0,400,4.74,13.2,0.0,1,27.0,2.63,5.5,0,0,0,1,0,,,,,,,,,,,,,,,,,,,,
21423,1626526590819,,,249,249,236,231,,-0.05,0.05,-1.85,0,-0,1,0.07,,69,4657,7,31,55,0.635,0.0,405,4.76,13.2,0.0,1,27.7,2.66,5.5,0,0,0,1,0,,,,,,,,,,,,,,,,,,,,
21443,1626526590839,0,0,249,248,237,231,27,0.0,0.01,-2.01,0,-2,-1,0.01,0,69,4654,7,31,55,0.636,0.0,415,4.77,13.3,0.0,1,27.6,2.66,5.7,0,0,0,1,0,0,250,250,0,45.700306,4.909401,0.0,186.3,9,2,1.9,0,0.0,-1,0.0,0.0,0.0,0,0.0,0.3574
21463,1626526590859,,,249,248,237,231,,0.04,-0.02,-2.16,0,-2,-1,0.04,,69,4649,7,31,54,0.635,0.0,405,4.71,13.1,0.0,1,27.4,1.54,5.7,0,0,0,1,0,,,,,,,,,,,,,,,,,,,,
21483,1626526590879,,,249,248,237,231,,0.04,-0.05,-2.3,0,-0,-1,0.07,,69,4650,7,31,54,0.636,0.0,415,4.71,13.2,0.0,1,27.4,1.54,5.7,0,0,0,1,0,,,,,,,,,,,,,,,,,,,,
21503,1626526590899,,,249,248,237,231,,0.04,-0.03,-2.43,0,2,1,0.05,,69,4609,7,31,54,0.636,0.0,404,4.71,13.1,0.0,1,26.9,2.62,5.7,0,0,0,1,0,,,,,,,,,,,,,,,,,,,,
21523,1626526590919,,,248,248,237,231,,0.02,-0.01,-2.55,1,4,4,0.02,,69,4572,7,31,54,0.635,0.0,402,4.74,12.9,0.0,1,26.4,2.61,5.5,0,0,0,1,0,,,,,,,,,,,,,,,,,,,,
21543,1626526590939,-0,2,248,248,237,231,26,-0.01,0.02,-2.66,1,6,6,0.02,0,69,4531,7,31,54,0.636,0.0,401,4.76,13.0,0.0,1,25.9,1.46,5.5,0,0,0,1,0,0,250,250,0,45.700306,4.909401,0.0,186.3,9,2,1.9,0,0.0,-1,0.0,,0.0,0,0.0,0.359
21563,1626526590959,,,248,248,237,231,,-0.05,0.03,-2.72,1,7,7,0.06,,69,4532,7,31,54,0.636,0.0,398,4.77,13.0,0.0,1,25.9,2.58,5.5,0,0,0,1,0,,,,,,,,,,,,,,,,,,,,
21583,1626526590979,,,249,248,237,231,,-0.09,0.02,-2.7,1,8,9,0.09,,69,4554,7,31,54,0.637,0.0,406,4.71,13.1,0.0,1,26.2,2.59,5.5,0,0,0,1,0,,,,,,,,,,,,,,,,,,,,
21603,1626526590993,,,249,248,237,231,,-0.13,0.04,-2.52,1,8,9,0.14,,69,4525,7,31,54,0.637,0.0,405,4.76,13.1,0.0,1,25.8,1.45,5.5,0,0,0,1,0,,,,,,,,,,,,,,,,,,,,
21623,1626526591013,,,248,248,237,231,,-0.17,0.06,-2.33,1,9,9,0.18,,69,4548,7,31,54,0.637,0.0,397,4.71,13.1,0.0,1,26.1,2.59,5.4,0,0,0,1,0,,,,,,,,,,,,,,,,,,,,
21643,1626526591033,-1,2,249,248,237,231,26,-0.21,0.08,-2.15,1,8,9,0.22,0,69,4585,7,31,55,0.636,0.0,408,4.75,13.0,0.0,1,26.8,1.5,5.4,0,0,0,1,0,0,250,250,0,45.700306,4.909401,0.0,186.3,9,2,1.9,0,0.0,-1,0.0,0.0,0.0,0,0.0,0.3607
21663,1626526591053,,,249,248,237,231,,-0.24,0.1,-1.98,1,7,7,0.26,,69,4565,7,31,55,0.636,0.0,397,4.77,13.2,0.0,1,26.5,2.6,5.4,0,0,0,1,0,,,,,,,,,,,,,,,,,,,,
21683,1626526591073,,,249,248,237,231,,-0.27,0.12,-1.83,1,5,6,0.3,,69,4584,7,31,55,0.636,0.0,407,4.74,13.2,0.0,1,26.8,2.62,5.4,0,0,0,1,0,,,,,,,,,,,,,,,,,,,,
21703,1626526591099,,,248,249,237,231,,-0.27,0.11,-1.69,1,4,4,0.29,,69,4577,7,31,55,0.636,0.0,405,4.77,13.2,0.0,1,26.7,2.61,5.4,0,0,0,1,0,,,,,,,,,,,,,,,,,,,,
21723,1626526591119,,,249,248,237,231,,-0.25,0.12,-1.55,0,0,2,0.27,,69,4593,7,31,55,0.636,0.0,402,4.72,13.2,0.0,1,26.9,2.62,5.4,0,0,0,1,0,,,,,,,,,,,,,,,,,,,,
21743,1626526591139,-0,2,249,249,237,231,26,-0.2,0.12,-1.43,0,-2,0,0.24,0,69,4610,7,31,55,0.636,0.0,410,4.74,13.2,0.0,1,27.1,2.62,5.5,0,0,0,1,0,0,250,250,0,45.700306,4.909401,0.0,186.3,9,2,1.9,0,0.0,-1,0.0,,0.0,0,0.0,0.3624
21763,1626526591159,,,249,249,237,231,,-0.15,0.1,-1.32,0,-5,-2,0.18,,69,4631,7,31,55,0.636,0.0,403,4.75,13.3,0.0,1,27.3,2.64,5.5,0,0,0,1,0,,,,,,,,,,,,,,,,,,,,
21783,1626526591179,,,249,250,237,231,,-0.09,0.07,-1.53,0,-6,-3,0.12,,69,4631,7,31,55,0.636,0.0,405,4.77,13.3,0.0,1,27.3,1.53,5.5,0,0,0,1,0,,,,,,,,,,,,,,,,,,,,
21803,1626526591199,,,248,249,237,231,,-0.05,0.05,-1.72,0,-6,-4,0.07,,69,4645,7,31,55,0.636,0.0,402,4.75,13.3,0.0,1,27.5,2.65,5.5,0,0,0,1,0,,,,,,,,,,,,,,,,,,,,
21823,1626526591219,,,249,248,237,231,,-0.02,0.02,-1.89,0,-4,-3,0.03,,69,4623,7,31,55,0.636,0.0,406,4.73,13.1,0.0,1,27.2,2.63,5.6,0,0,0,1,0,,,,,,,,,,,,,,,,,,,,
21843,1626526591239,-0,2,249,248,237,231,26,-0.0,0.01,-2.05,0,-2,-2,0.01,0,69,4614,7,31,54,0.636,0.0,410,4.73,13.1,0.0,1,26.9,1.54,5.6,0,0,0,1,0,0,250,250,0,45.700306,4.909401,0.0,186.3,9,2,1.9,0,0.0,-1,0.0,0.0,0.0,0,0.0,0.364
21863,1626526591259,,,249,248,237,231,,-0.02,0.03,-2.2,0,0,1,0.04,,69,4634,7,31,54,0.636,0.0,409,4.74,13.1,0.0,1,27.2,2.64,5.6,0,0,0,1,0,,,,,,,,,,,,,,,,,,,,
21883,1626526591279,,,248,248,237,231,,-0.05,0.06,-2.34,0,3,3,0.08,,69,4591,7,31,54,0.636,0.0,406,4.75,13.1,0.0,1,26.6,2.62,5.6,0,0,0,1,0,,,,,,,,,,,,,,,,,,,,
21903,1626526591301,,,248,248,237,231,,-0.1,0.09,-2.42,1,4,5,0.13,,69,4620,7,31,54,0.636,0.0,409,4.68,13.1,0.0,1,27.0,1.52,5.6,0,0,0,1,0,,,,,,,,,,,,,,,,,,,,
21923,1626526591321,,,249,248,237,231,,-0.14,0.09,-2.23,1,5,5,0.17,,69,4636,7,31,54,0.637,0.0,403,4.71,13.2,0.0,1,27.2,2.64,5.6,0,0,0,1,0,,,,,,,,,,,,,,,,,,,,
21943,1626526591341,-0,2,248,249,237,231,27,-0.17,0.1,-2.06,0,3,4,0.2,0,69,4615,7,31,54,0.637,0.0,409,4.72,13.1,0.0,1,26.9,1.52,5.6,0,0,0,1,0,0,250,250,0,45.700306,4.909401,0.0,186.3,9,2,1.9,0,0.0,-1,0.0,,0.0,0,0.0,0.3657
21963,1626526591361,,,249,248,237,231,,-0.16,0.1,-1.9,0,2,2,0.19,,69,4634,7,31,54,0.637,0.0,405,4.79,13.3,0.0,1,27.2,2.64,5.6,0,0,0,1,0,,,,,,,,,,,,,,,,,,,,
21983,1626526591381,,,248,250,237,231,,-0.12,0.09,-1.75,0,-2,0,0.15,,69,4611,7,31,54,0.638,0.0,406,4.78,13.2,0.0,1,26.9,2.62,5.6,0,0,0,1,0,,,,,,,,,,,,,,,,,,,,
22003,1626526591399,,,248,250,237,231,,-0.09,0.07,-1.61,0,-4,-1,0.11,,69,4585,7,31,54,0.637,0.0,408,4.77,13.2,0.0,1,26.6,1.5,5.6,0,0,0,1,0,,,,,,,,,,,,,,,,,,,,
22023,1626526591419,,,249,249,237,231,,-0.05,0.04,-1.58,0,-5,-3,0.06,,69,4589,7,31,54,0.638,0.0,398,4.75,13.2,0.0,1,26.6,2.62,5.5,0,0,0,1,0,,,,,,,,,,,,,,,,,,,,
22043,1626526591439,-1,2,249,249,237,231,26,-0.0,0.01,-1.76,0,-5,-4,0.01,0,69,4558,7,31,54,0.638,0.0,403,4.75,13.3,0.0,1,26.2,2.6,5.5,0,0,0,1,0,0,250,250,0,45.700306,4.909401,0.0,186.3,9,2,1.9,0,0.0,-1,0.0,0.0,0.0,0,0.0,0.3674
22063,1626526591459,,,248,249,237,231,,0.03,-0.0,-1.94,0,-5,-4,0.04,,69,4563,7,31,54,0.639,0.0,394,4.7,13.2,0.0,1,26.3,1.48,5.5,0,0,0,1,0,,,,,,,,,,,,,,,,,,,,
22083,1626526591479,,,249,249,237,231,,0.07,-0.02,-2.09,0,-5,-5,0.07,,69,4526,7,31,54,0.639,0.0,401,4.7,13.2,0.0,1,25.8,2.58,5.5,0,0,0,1,0,,,,,,,,,,,,,,,,,,,,
22103,1626526591499,,,248,249,237,231,,0.11,-0.05,-2.24,0,-4,-5,0.12,,69,4537,7,31,55,0.639,0.0,400,4.73,13.2,0.0,1,26.2,1.46,5.5,0,0,0,1,0,,,,,,,,,,,,,,,,,,,,
22123,1626526591519,,,249,249,237,231,,0.14,-0.08,-2.37,0,-3,-5,0.16,,69,4534,7,31,55,0.639,0.0,397,4.73,13.2,0.0,1,26.1,1.46,5.4,0,0,0,1,0,,,,,,,,,,,,,,,,,,,,
22143,1626526591539,0,1,249,248,237,231,26,0.17,-0.1,-2.5,0,-1,-4,0.19,0,69,4549,7,31,55,0.639,0.0,401,4.72,13.1,0.0,1,26.3,1.47,5.4,0,0,0,1,0,0,250,250,0,45.700306,4.909401,0.0,186.3,9,2,1.9,0,0.0,-1,0.0,,0.0,0,0.0,0.369
22163,1626526591559,,,249,248,237,230,,0.18,-0.09,-2.61,0,1,-3,0.2,,69,4521,7,31,55,0.639,0.0,396,4.74,13.1,0.0,1,26.0,1.46,5.4,0,0,0,1,0,,,,,,,,,,,,,,,,,,,,
22183,1626526591579,,,248,248,237,230,,0.2,-0.1,-2.72,0,2,-2,0.23,,69,4554,7,31,55,0.64,0.0,397,4.73,13.1,0.0,1,26.4,2.59,5.4,0,0,0,1,0,,,,,,,,,,,,,,,,,,,,
22203,1626526591601,,,249,248,237,231,,0.21,-0.11,-2.82,0,4,0,0.24,,69,4556,7,30,55,0.639,0.0,398,4.74,13.1,0.0,1,26.4,1.48,5.4,0,0,0,1,0,,,,,,,,,,,,,,,,,,,,
22223,1626526591621,,,248,248,237,231,,0.2,-0.11,-2.91,0,6,2,0.23,,69,4564,7,31,55,0.639,0.0,393,4.72,13.2,0.0,1,26.5,2.6,5.4,0,0,0,1,0,,,,,,,,,,,,,,,,,,,,
22243,1626526591641,-1,2,249,248,237,231,26,0.18,-0.12,-2.99,0,8,5,0.21,0,69,4586,7,31,55,0.639,0.0,412,4.77,13.0,0.0,1,26.8,2.62,5.4,0,0,0,1,0,0,250,250,0,45.700306,4.909401,0.0,186.3,9,2,1.9,0,0.0,-1,0.0,0.0,0.0,0,0.0,0.3707
22263,1626526591661,,,248,249,237,231,,0.16,-0.11,-3.07,1,10,7,0.19,,69,4591,7,31,55,0.639,0.0,401,4.71,13.0,0.0,1,26.8,1.5,5.4,0,0,0,1,0,,,,,,,,,,,,,,,,,,,,
22283,1626526591681,,,249,248,237,231,,0.11,-0.09,-3.14,1,11,8,0.14,,69,4635,7,31,54,0.639,0.0,406,4.72,13.1,0.0,1,27.2,2.64,5.4,0,0,0,1,0,,,,,,,,,,,,,,,,,,,,
22303,1626526591701,,,249,248,237,231,,0.06,-0.06,-3.05,1,12,9,0.09,,69,4611,7,31,55,0.639,0.0,405,4.75,13.2,0.0,1,27.1,1.51,5.4,0,0,0,1,0,,,,,,,,,,,,,,,,,,,,
22323,1626526591721,,,249,248,237,230,,0.0,-0.02,-2.81,1,11,8,0.02,,69,4617,7,31,55,0.639,0.0,401,4.75,13.2,0.0,1,27.2,2.63,5.6,0,0,0,1,0,,,,,,,,,,,,,,,,,,,,
22343,1626526591741,0,1,249,248,237,231,26,-0.02,0.01,-2.6,1,9,6,0.02,0,69,4639,7,31,55,0.639,0.0,410,4.75,13.2,0.0,1,27.4,2.65,5.6,0,0,0,1,0,0,250,250,0,45.700306,4.909401,0.0,186.3,9,2,1.9,0,0.0,-1,0.0,,0.0,0,0.0,0.3724
22363,1626526591761,,,249,249,237,231,,-0.04,0.04,-2.39,1,6,5,0.05,,69,4601,7,30,55,0.639,0.0,405,4.72,13.3,0.0,1,27.0,2.62,5.6,0,0,0,1,0,,,,,,,,,,,,,,,,,,,,
22383,1626526591781,,,248,249,237,231,,-0.02,0.05,-2.21,1,4,3,0.05,,69,4598,7,31,55,0.639,0.0,401,4.79,13.3,0.0,1,26.9,2.62,5.6,0,0,0,1,0,,,,,,,,,,,,,,,,,,,,
22403,1626526591800,,,249,249,237,231,,0.01,0.03,-2.04,0,1,1,0.03,,69,4601,7,30,55,0.638,0.0,410,4.78,13.3,0.0,1,27.0,2.62,5.6,0,0,0,1,0,,,,,,,,,,,,,,,,,,,,
22423,1626526591820,,,249,249,237,231,,0.04,0.01,-1.88,0,-1,-1,0.04,,69,4569,7,31,55,0.638,0.0,400,4.77,13.3,0.0,1,26.6,2.6,5.5,0,0,0,1,0,,,,,,,,,,,,,,,,,,,,
22443,1626526591840,0,0,249,249,237,231,26,0.08,-0.02,-1.88,0,-2,-3,0.08,0,69,4575,7,30,55,0.638,0.0,401,4.73,13.2,0.0,1,26.6,1.49,5.5,0,0,0,1,0,0,250,250,0,45.700306,4.909401,0.0,186.3,9,2,1.9,0,0.0,-1,0.0,0.0,0.0,0,0.0,0.374
22463,1626526591860,,,248,248,237,231,,0.13,-0.07,-2.04,0,-2,-3,0.14,,69,4593,7,31,55,0.638,0.0,396,4.7,13.2,0.0,1,26.9,2.62,5.5,0,0,0,1,0,,,,,,,,,,,,,,,,,,,,
22483,1626526591880,,,248,248,237,231,,0.16,-0.1,-2.19,0,-2,-3,0.19,,70,4582,7,30,55,0.638,0.0,399,4.72,13.1,0.0,1,26.7,2.61,5.5,0,0,0,1,0,,,,,,,,,,,,,,,,,,,,
22503,1626526591894,,,249,248,237,230,,0.17,-0.12,-2.33,0,-0,-3,0.21,,69,4596,7,30,55,0.638,0.0,410,4.65,13.2,0.0,1,26.9,1.5,5.5,0,0,0,1,0,,,,,,,,,,,,,,,,,,,,
22523,1626526591914,,,248,249,237,231,,0.19,-0.12,-2.46,0,2,-1,0.22,,70,4601,7,31,55,0.639,0.0,400,4.7,13.1,0.0,1,26.9,2.62,5.5,0,0,0,1,0,,,,,,,,,,,,,,,,,,,,
22543,1626526591934,1,2,248,248,237,231,26,0.17,-0.11,-2.58,0,4,1,0.2,0,70,4638,7,30,54,0.638,0.0,408,4.74,13.0,0.0,1,27.2,2.64,5.5,0,0,0,1,0,0,250,250,0,45.700306,4.909401,0.0,186.3,9,2,1.9,0,0.0,-1,0.0,,0.0,0,0.0,0.3757
22563,1626526591954,,,249,248,237,231,,0.13,-0.09,-2.68,0,6,3,0.16,,70,4621,7,30,55,0.639,0.0,406,4.75,13.0,0.0,1,27.2,2.63,5.5,0,0,0,1,0,,,,,,,,,,,,,,,,,,,,
22583,1626526591974,,,248,248,237,231,,0.07,-0.08,-2.79,1,7,5,0.11,,70,4608,7,30,54,0.638,0.0,407,4.78,13.1,0.0,1,26.9,2.62,5.5,0,0,0,1,0,,,,,,,,,,,,,,,,,,,,
22603,1626526591992,,,249,248,237,231,,0.02,-0.08,-2.67,1,7,5,0.08,,70,4620,7,31,54,0.638,0.0,406,4.76,13.1,0.0,1,27.0,2.63,5.5,0,0,0,1,0,,,,,,,,,,,,,,,,,,,,
22623,1626526592012,,,249,248,237,231,,-0.03,-0.05,-2.46,0,6,4,0.06,,70,4594,7,30,54,0.638,0.0,405,4.72,13.1,0.0,1,26.7,2.62,5.5,0,0,0,1,0,,,,,,,,,,,,,,,,,,,,
22643,1626526592032,0,1,249,249,237,231,26,-0.06,-0.01,-2.27,0,4,3,0.06,0,70,4585,7,30,55,0.639,0.0,406,4.77,13.2,0.0,1,26.8,2.62,5.5,0,0,0,1,0,0,250,250,0,45.700306,4.909401,0.0,186.3,9,2,1.9,0,0.0,-1,0.0,0.0,0.0,0,0.0,0.3774
22663,1626526592052,,,249,248,237,230,,-0.07,0.02,-2.1,0,1,1,0.07,,70,4613,7,30,54,0.639,0.0,410,4.73,13.2,0.0,1,26.9,2.63,5.5,0,0,0,1,0,,,,,,,,,,,,,,,,,,,,
22683,1626526592072,,,249,249,237,231,,-0.07,0.07,-1.94,0,-1,-1,0.1,,70,4543,7,30,55,0.639,0.0,399,4.76,13.3,0.0,1,26.2,2.59,5.5,0,0,0,1,0,,,,,,,,,,,,,,,,,,,,
22703,1626526592094,,,249,248,237,231,,-0.06,0.1,-1.79,0,-4,-2,0.11,,70,4583,7,30,55,0.639,0.0,402,4.75,13.2,0.0,1,26.7,2.61,5.5,0,0,0,1,0,,,,,,,,,,,,,,,,,,,,
22723,1626526592114,,,249,248,237,231,,-0.03,0.09,-1.65,0,-5,-4,0.1,,70,4573,7,30,55,0.64,0.0,397,4.75,13.3,0.0,1,26.6,2.61,5.5,0,0,0,1,0,,,,,,,,,,,,,,,,,,,,
22743,1626526592134,-0,2,249,249,237,231,27,0.01,0.06,-1.52,-0,-7,-5,0.07,0,70,4577,7,30,55,0.64,0.0,401,4.71,13.2,0.0,1,26.7,2.61,5.5,0,0,0,1,0,0,250,250,0,45.700306,4.909401,0.0,186.3,9,2,1.9,0,0.0,-1,0.0,,0.0,0,0.0,0.379
22763,1626526592154,,,248,249,237,231,,0.06,0.02,-1.65,-0,-7,-6,0.06,,70,4619,7,30,55,0.641,0.0,403,4.77,13.2,0.0,1,27.2,1.52,5.5,0,0,0,1,0,,,,,,,,,,,,,,,,,,,,
22783,1626526592174,,,248,248,237,230,,0.1,-0.04,-1.83,-0,-6,-6,0.11,,70,4595,7,30,55,0.641,0.0,402,4.68,13.1,0.0,1,26.9,2.62,5.5,0,0,0,1,0,,,,,,,,,,,,,,,,,,,,
22803,1626526592200,,,249,248,237,231,,0.12,-0.08,-2.0,0,-4,-5,0.14,,70,4626,7,30,55,0.642,0.0,408,4.73,13.1,0.0,1,27.3,1.53,5.5,0,0,0,1,0,,,,,,,,,,,,,,,,,,,,
22823,1626526592220,,,249,248,237,231,,0.14,-0.09,-2.15,0,-2,-3,0.17,,70,4608,7,30,55,0.642,0.0,403,4.71,13.1,0.0,1,27.1,2.62,5.6,0,0,0,1,0,,,,,,,,,,,,,,,,,,,,
22843,1626526592240,0,1,249,248,237,231,25,0.11,-0.08,-2.29,0,1,0,0.14,0,70,4608,7,30,54,0.642,0.0,408,4.75,13.0,0.0,1,26.9,2.62,5.6,0,0,0,1,0,0,250,250,0,45.700306,4.909401,0.0,186.3,9,2,1.9,0,0.0,-1,0.0,0.0,0.0,0,0.0,0.3807
22863,1626526592260,,,249,248,237,231,,0.08,-0.06,-2.42,0,3,2,0.1,,70,4633,7,30,54,0.643,0.0,403,4.75,13.0,0.0,1,27.2,2.64,5.6,0,0,0,1,0,,,,,,,,,,,,,,,,,,,,
22883,1626526592280,,,249,248,237,231,,0.03,-0.03,-2.54,0,4,4,0.04,,70,4600,7,30,54,0.643,0.0,406,4.73,13.2,0.0,1,26.8,2.62,5.6,0,0,0,1,0,,,,,,,,,,,,,,,,,,,,
22903,1626526592300,,,249,248,237,231,,-0.02,0.0,-2.39,0,4,3,0.02,,70,4593,7,30,54,0.643,0.0,413,4.75,13.1,0.0,1,26.7,1.5,5.6,0,0,0,1,0,,,,,,,,,,,,,,,,,,,,
22923,1626526592320,,,249,249,237,231,,-0.07,0.04,-2.21,0,3,2,0.08,,70,4587,7,30,54,0.642,0.0,410,4.7,13.1,0.0,1,26.6,2.62,5.5,0,0,0,1,0,,,,,,,,,,,,,,,,,,,,
22943,1626526592340,-1,2,249,249,237,231,26,-0.11,0.07,-2.04,0,2,1,0.13,0,70,4579,7,30,55,0.642,0.0,406,4.72,13.2,0.0,1,26.7,2.61,5.5,0,0,0,1,0,0,250,250,0,45.700306,4.909401,0.0,186.3,9,2,1.9,0,0.0,-1,0.0,,0.0,0,0.0,0.3824
22963,1626526592360,,,249,248,237,230,,-0.14,0.1,-1.88,0,-0,-0,0.18,,70,4575,7,30,54,0.641,0.0,406,4.68,13.2,0.0,1,26.4,1.49,5.5,0,0,0,1,0,,,,,,,,,,,,,,,,,,,,
22983,1626526592380,,,249,249,237,231,,-0.14,0.11,-1.73,0,-2,-2,0.18,,70,4559,7,30,55,0.641,0.0,400,4.73,13.3,0.0,1,26.4,2.6,5.5,0,0,0,1,0,,,,,,,,,,,,,,,,,,,,
23003,1626526592400,,,248,249,237,231,,-0.15,0.13,-1.6,0,-5,-3,0.2,,70,4465,7,30,55,0.641,0.0,405,4.76,13.3,0.0,1,25.3,2.54,5.5,0,0,0,1,0,,,,,,,,,,,,,,,,,,,,
23023,1626526592420,,,248,251,237,231,,-0.17,0.14,-1.48,0,-6,-4,0.22,,70,4319,7,30,55,0.642,0.0,388,4.75,13.2,0.0,1,23.4,2.44,4.8,0,0,0,1,0,,,,,,,,,,,,,,,,,,,,
23043,1626526592440,1,1,249,249,237,231,26,-0.08,0.04,-1.5,0,-6,-3,0.09,0,70,4172,7,30,55,0.644,0.0,388,4.76,13.3,0.0,1,21.6,2.34,4.8,0,0,0,1,0,0,250,250,0,45.700306,4.909401,0.0,186.3,9,2,1.9,0,0.0,-1,0.0,0.0,0.0,0,0.0,0.384
23063,1626526592460,,,249,252,236,230,,-0.02,-0.01,-1.49,0,-4,-3,0.02,,70,4068,7,30,56,0.644,0.0,364,4.75,13.1,0.0,1,20.7,2.3,4.8,0,0,0,1,0,,,,,,,,,,,,,,,,,,,,
23083,1626526592480,,,250,252,235,229,,-0.17,0.04,-1.38,0,-1,-3,0.18,,70,4196,7,30,56,0.645,0.0,364,4.73,13.3,0.0,1,22.1,2.39,4.8,0,0,0,1,0,,,,,,,,,,,,,,,,,,,,
23103,1626526592500,,,250,250,236,229,,-0.16,0.02,-1.35,0,-4,-3,0.16,,70,4203,7,30,56,0.645,0.0,362,4.75,13.3,0.0,1,22.2,2.39,4.8,0,0,0,1,0,,,,,,,,,,,,,,,,,,,,
23123,1626526592520,,,249,248,237,231,,-0.13,0.04,-1.25,0,-7,-4,0.13,,70,4358,7,30,56,0.645,0.0,370,4.75,13.2,0.0,1,24.2,2.48,5.0,0,0,0,1,0,,,,,,,,,,,,,,,,,,,,
23143,1626526592540,-1,2,249,249,238,232,26,-0.08,0.05,-1.33,0,-6,-3,0.1,0,70,4365,7,30,56,0.646,0.0,383,4.71,13.2,0.0,1,24.3,2.49,5.0,0,0,0,1,0,0,250,250,0,45.700306,4.909401,0.0,186.3,9,2,1.9,0,0.0,-1,0.0,,0.0,0,0.0,0.3857
23163,1626526592560,,,250,252,237,231,,-0.07,0.06,-1.45,0,-8,-2,0.09,,70,4363,7,30,56,0.645,0.0,376,4.72,13.0,0.0,1,24.3,2.49,5.0,0,0,0,1,0,,,,,,,,,,,,,,,,,,,,
23183,1626526592580,,,250,252,237,230,,-0.05,0.07,-1.64,0,-9,-1,0.09,,70,4441,7,30,56,0.645,0.0,394,4.75,13.0,0.0,1,25.3,2.53,5.0,0,0,0,1,0,,,,,,,,,,,,,,,,,,,,
23203,1626526592600,,,250,252,237,230,,-0.04,0.05,-1.82,1,-7,0,0.06,,70,4401,7,30,56,0.646,0.0,384,4.78,13.1,0.0,1,24.8,2.51,5.0,0,0,0,1,0,,,,,,,,,,,,,,,,,,,,
23223,1626526592620,,,249,249,237,231,,-0.03,0.02,-1.99,1,-4,2,0.04,,70,4473,7,30,56,0.647,0.0,391,4.71,13.0,0.0,1,25.7,2.56,5.3,0,0,0,1,0,,,,,,,,,,,,,,,,,,,,
23243,1626526592640,-0,2,249,249,237,231,26,-0.05,0.01,-2.14,1,-2,3,0.05,0,70,4532,7,30,56,0.646,0.0,391,4.77,13.1,0.0,1,26.4,1.47,5.3,0,0,0,1,0,0,250,250,0,45.700306,4.909401,0.0,186.3,9,2,1.9,0,0.0,-1,0.0,0.0,0.0,0,0.0,0.3874
23263,1626526592660,,,249,249,237,231,,-0.0,0.01,-2.28,1,0,4,0.01,,70,4496,7,30,56,0.645,0.0,391,4.8,13.1,0.0,1,26.0,2.57,5.3,0,0,0,1,0,,,,,,,,,,,,,,,,,,,,
23283,1626526592680,,,249,252,237,230,,-0.02,0.03,-2.42,1,1,5,0.03,,70,4603,7,30,56,0.643,0.0,397,4.78,13.0,0.0,1,27.3,1.52,5.3,0,0,0,1,0,,,,,,,,,,,,,,,,,,,,
23303,1626526592700,,,249,252,236,230,,-0.05,0.02,-2.54,1,2,7,0.05,,70,4591,7,30,56,0.641,0.0,401,4.72,13.0,0.0,1,27.1,2.62,5.3,0,0,0,1,0,,,,,,,,,,,,,,,,,,,,
23323,1626526592720,,,249,252,236,230,,-0.12,-0.0,-2.57,1,3,7,0.12,,70,4664,7,30,56,0.64,0.0,407,4.75,13.2,0.0,1,28.1,2.66,5.7,0,0,0,1,0,,,,,,,,,,,,,,,,,,,,
23343,1626526592740,-1,2,249,249,236,230,26,-0.16,0.0,-2.37,1,3,6,0.16,0,70,4681,7,30,56,0.64,0.0,415,4.73,13.2,0.0,1,28.3,1.57,5.7,0,0,0,1,0,0,250,250,0,45.700306,4.909401,0.0,186.3,9,2,1.9,0,0.0,-1,0.0,,0.0,0,0.0,0.389
23363,1626526592760,,,249,249,237,231,,-0.16,0.03,-2.19,1,1,4,0.16,,70,4668,7,30,56,0.639,0.0,406,4.76,13.3,0.0,1,28.1,1.56,5.7,0,0,0,1,0,,,,,,,,,,,,,,,,,,,,
23383,1626526592780,,,249,249,237,231,,-0.11,0.04,-2.02,1,-2,2,0.12,,70,4748,7,30,56,0.639,0.0,413,4.73,13.3,0.0,1,29.1,2.72,5.7,0,0,0,1,0,,,,,,,,,,,,,,,,,,,,
23403,1626526592799,,,249,251,237,231,,-0.06,0.02,-1.94,1,-3,1,0.07,,70,4687,7,30,56,0.638,0.0,411,4.7,13.1,0.0,1,28.3,1.57,5.7,0,0,0,1,0,,,,,,,,,,,,,,,,,,,,
23423,1626526592819,,,249,252,237,231,,-0.03,-0.03,-2.09,1,-3,0,0.04,,70,4635,7,30,56,0.638,0.0,410,4.73,13.1,0.0,1,27.7,2.64,5.6,0,0,0,1,0,,,,,,,,,,,,,,,,,,,,
23443,1626526592839,-1,2,249,252,237,231,27,-0.0,-0.08,-2.24,1,-1,1,0.08,0,70,4614,7,30,56,0.637,0.0,416,4.74,13.0,0.0,1,27.4,1.52,5.6,0,0,0,1,0,0,250,250,0,45.700306,4.909401,0.0,186.3,9,2,1.9,0,0.0,-1,0.0,0.0,0.0,0,0.0,0.3907
23463,1626526592859,,,249,252,237,231,,-0.0,-0.09,-2.37,1,1,4,0.09,,70,4633,7,30,56,0.636,0.0,403,4.74,13.0,0.0,1,27.7,1.53,5.6,0,0,0,1,0,,,,,,,,,,,,,,,,,,,,
23483,1626526592879,,,249,251,236,231,,-0.04,-0.09,-2.5,1,4,6,0.1,,70,4659,7,30,55,0.635,0.0,418,4.75,13.1,0.0,1,27.7,2.66,5.6,0,0,0,1,0,,,,,,,,,,,,,,,,,,,,
23503,1626526592900,,,249,250,237,230,,-0.07,-0.07,-2.61,1,5,6,0.1,,70,4669,7,30,55,0.636,0.0,407,4.77,13.2,0.0,1,27.8,1.56,5.6,0,0,0,1,0,,,,,,,,,,,,,,,,,,,,
23523,1626526592920,,,249,250,237,231,,-0.12,-0.05,-2.51,1,5,5,0.14,,70,4657,7,30,55,0.635,0.0,407,4.73,13.2,0.0,1,27.7,2.66,5.7,0,0,0,1,0,,,,,,,,,,,,,,,,,,,,
23543,1626526592940,-1,2,249,250,237,231,26,-0.15,-0.05,-2.31,1,3,4,0.16,0,70,4674,7,30,55,0.635,0.0,408,4.75,13.3,0.0,1,27.9,2.67,5.7,0,0,0,1,0,0,250,250,0,45.700306,4.909401,0.0,186.3,9,2,1.9,0,0.0,-1,0.0,,0.0,0,0.0,0.3924
23563,1626526592960,,,249,250,237,231,,-0.09,-0.08,-2.19,1,-0,2,0.12,,70,4725,7,30,55,0.635,0.0,407,4.76,13.3,0.0,1,28.5,2.71,5.7,0,0,0,1,0,,,,,,,,,,,,,,,,,,,,
23583,1626526592980,,,249,251,237,230,,-0.06,-0.11,-2.33,0,-2,0,0.13,,70,4692,7,30,55,0.635,0.0,419,4.73,13.2,0.0,1,28.1,2.68,5.7,0,0,0,1,0,,,,,,,,,,,,,,,,,,,,
23603,1626526592991,,,249,250,237,231,,-0.04,-0.12,-2.45,0,-1,0,0.13,,70,4680,7,30,55,0.635,0.0,414,4.73,13.1,0.0,1,28.0,1.56,5.7,0,0,0,1,0,,,,,,,,,,,,,,,,,,,,
23623,1626526593011,,,249,250,236,231,,-0.06,-0.09,-2.57,0,1,2,0.11,,70,4665,7,30,55,0.635,0.0,409,4.7,13.1,0.0,1,27.8,2.66,5.8,0,0,0,1,0,,,,,,,,,,,,,,,,,,,,
23643,1626526593031,-0,2,249,250,237,231,26,-0.09,-0.07,-2.68,1,3,4,0.11,0,70,4646,7,30,55,0.636,0.0,413,4.7,13.0,0.0,1,27.5,2.65,5.8,0,0,0,1,0,0,250,250,0,45.700306,4.909401,0.0,186.3,9,2,1.9,0,0.0,-1,0.0,0.0,0.0,0,0.0,0.394
23663,1626526593051,,,249,250,237,231,,-0.14,-0.04,-2.55,1,4,5,0.14,,70,4627,7,30,55,0.637,0.0,407,4.76,13.0,0.0,1,27.3,1.53,5.8,0,0,0,1,0,,,,,,,,,,,,,,,,,,,,
23683,1626526593071,,,249,250,237,231,,-0.17,0.01,-2.36,1,5,5,0.17,,70,4594,7,30,55,0.638,0.0,407,4.73,13.2,0.0,1,26.9,2.62,5.8,0,0,0,1,0,,,,,,,,,,,,,,,,,,,,
23703,1626526593099,,,249,249,237,231,,-0.2,0.04,-2.17,1,4,5,0.21,,70,4622,7,30,55,0.639,0.0,412,4.72,13.1,0.0,1,27.2,2.63,5.8,0,0,0,1,0,,,,,,,,,,,,,,,,,,,,
23723,1626526593119,,,249,249,237,231,,-0.18,0.04,-2.01,0,2,3,0.18,,70,4615,7,30,55,0.64,0.0,402,4.71,13.2,0.0,1,27.1,2.63,5.6,0,0,0,1,0,,,,,,,,,,,,,,,,,,,,
23743,1626526593139,-0,1,249,250,237,231,26,-0.14,0.03,-1.85,0,-1,1,0.15,0,70,4671,7,30,55,0.64,0.0,410,4.78,13.3,0.0,1,27.8,2.67,5.6,0,0,0,1,0,0,250,250,0,45.700306,4.909401,0.0,186.3,9,2,1.9,0,0.0,-1,0.0,,0.0,0,0.0,0.3957
23763,1626526593159,,,249,250,237,231,,-0.09,-0.0,-1.71,0,-3,-1,0.09,,70,4633,7,30,55,0.641,0.0,406,4.73,13.3,0.0,1,27.4,1.53,5.6,0,0,0,1,0,,,,,,,,,,,,,,,,,,,,
23783,1626526593179,,,249,250,237,231,,-0.03,-0.04,-1.88,0,-5,-2,0.05,,70,4608,7,30,55,0.642,0.0,404,4.72,13.2,0.0,1,27.1,2.62,5.6,0,0,0,1,0,,,,,,,,,,,,,,,,,,,,
23803,1626526593199,,,249,251,237,231,,0.0,-0.09,-2.04,0,-4,-3,0.09,,70,4647,7,30,55,0.642,0.0,408,4.77,13.3,0.0,1,27.5,2.65,5.6,0,0,0,1,0,,,,,,,,,,,,,,,,,,,,
23823,1626526593219,,,249,251,236,231,,0.02,-0.1,-2.19,0,-3,-2,0.1,,70,4633,7,30,55,0.643,0.0,401,4.75,13.1,0.0,1,27.4,1.53,5.6,0,0,0,1,0,,,,,,,,,,,,,,,,,,,,
23843,1626526593239,1,1,249,250,236,231,26,-0.01,-0.09,-2.33,0,-1,0,0.09,0,70,4694,7,30,55,0.643,0.0,421,4.73,13.0,0.0,1,28.1,2.68,5.6,0,0,0,1,0,0,250,250,0,45.700306,4.909401,0.0,186.3,9,2,1.9,0,0.0,-1,0.0,0.0,0.0,0,0.0,0.3974
23863,1626526593259,,,249,250,237,231,,-0.04,-0.08,-2.46,0,1,2,0.09,,70,4634,7,30,55,0.643,0.0,415,4.79,13.0,0.0,1,27.4,2.64,5.6,0,0,0,1,0,,,,,,,,,,,,,,,,,,,,
23883,1626526593279,,,249,249,237,231,,-0.09,-0.06,-2.4,0,3,3,0.11,,70,4625,7,30,55,0.644,0.0,409,4.74,13.0,0.0,1,27.3,2.64,5.6,0,0,0,1,0,,,,,,,,,,,,,,,,,,,,
23903,1626526593299,,,249,249,237,231,,-0.12,-0.03,-2.21,0,3,3,0.12,,70,4619,7,30,55,0.644,0.0,409,4.72,13.2,0.0,1,27.2,2.63,5.6,0,0,0,1,0,,,,,,,,,,,,,,,,,,,,
23923,1626526593319,,,249,249,237,231,,-0.14,0.03,-2.04,0,2,3,0.14,,70,4572,7,30,55,0.644,0.0,405,4.68,13.2,0.0,1,26.6,1.49,5.6,0,0,0,1,0,,,,,,,,,,,,,,,,,,,,
23943,1626526593339,0,2,249,249,237,231,26,-0.13,0.05,-1.88,0,1,1,0.14,0,70,4573,7,30,55,0.645,0.0,407,4.71,13.2,0.0,1,26.6,2.61,5.5,0,0,0,1,0,0,250,250,0,45.700306,4.909401,0.0,186.3,9,2,1.9,0,0.0,-1,0.0,,0.0,0,0.0,0.399
23963,1626526593359,,,249,249,237,231,,-0.13,0.08,-1.74,0,-1,-0,0.15,,70,4570,7,30,55,0.645,0.0,403,4.76,13.3,0.0,1,26.6,2.61,5.5,0,0,0,1,0,,,,,,,,,,,,,,,,,,,,
23983,1626526593379,,,249,250,237,231,,-0.11,0.09,-1.6,0,-3,-2,0.14,,70,4516,7,30,55,0.645,0.0,400,4.72,13.2,0.0,1,25.9,2.58,5.5,0,0,0,1,0,,,,,,,,,,,,,,,,,,,,
24003,1626526593399,,,249,251,237,231,,-0.08,0.08,-1.48,0,-7,-4,0.12,,70,4559,7,30,55,0.645,0.0,401,4.77,13.3,0.0,1,26.4,2.6,5.5,0,0,0,1,0,,,,,,,,,,,,,,,,,,,,
24023,1626526593419,,,249,250,237,231,,-0.05,0.09,-1.36,0,-8,-5,0.1,,70,4564,7,30,55,0.645,0.0,399,4.8,13.2,0.0,1,26.5,2.6,5.5,0,0,0,1,0,,,,,,,,,,,,,,,,,,,,
24043,1626526593439,-0,2,249,250,237,231,26,-0.01,0.09,-1.26,-0,-10,-6,0.09,0,70,4545,7,30,55,0.645,0.0,398,4.76,13.3,0.0,1,26.3,2.59,5.5,0,0,0,1,0,0,250,250,0,45.700306,4.909401,0.0,186.3,9,2,1.9,0,0.0,-1,0.0,0.0,0.0,0,0.0,0.4007
24063,1626526593459,,,249,250,237,231,,0.04,0.05,-1.32,-0,-11,-7,0.06,,70,4619,7,30,55,0.645,0.0,398,4.73,13.3,0.0,1,27.2,2.63,5.5,0,0,0,1,0,,,,,,,,,,,,,,,,,,,,
24083,1626526593479,,,249,251,236,231,,0.08,0.02,-1.53,-0,-12,-8,0.08,,70,4605,7,30,55,0.645,0.0,400,4.71,13.2,0.0,1,27.0,2.62,5.5,0,0,0,1,0,,,,,,,,,,,,,,,,,,,,
24103,1626526593499,,,249,250,237,231,,0.11,0.01,-1.71,-0,-11,-8,0.11,,70,4644,7,30,55,0.645,0.0,411,4.75,13.3,0.0,1,27.5,2.65,5.5,0,0,0,1,0,,,,,,,,,,,,,,,,,,,,
24123,1626526593519,,,249,250,237,231,,0.13,0.01,-1.89,-0,-10,-7,0.13,,70,4644,7,30,55,0.644,0.0,407,4.77,13.1,0.0,1,27.5,1.54,5.5,0,0,0,1,0,,,,,,,,,,,,,,,,,,,,
24143,1626526593539,-0,4,249,250,236,230,26,0.1,0.04,-2.05,0,-7,-5,0.11,0,70,4628,7,30,55,0.643,0.0,411,4.76,13.0,0.0,1,27.3,1.53,5.7,0,0,0,1,0,0,250,250,0,45.700306,4.909401,0.0,186.3,9,2,1.9,0,0.0,-1,0.0,,0.0,0,0.0,0.4024
24163,1626526593559,,,249,250,237,231,,0.06,0.05,-2.2,0,-4,-2,0.08,,70,4638,7,30,55,0.642,0.0,407,4.74,13.0,0.0,1,27.4,2.64,5.7,0,0,0,1,0,,,,,,,,,,,,,,,,,,,,
24183,1626526593579,,,249,250,237,231,,0.0,0.05,-2.28,0,-2,-0,0.05,,70,4649,7,30,55,0.642,0.0,410,4.75,13.0,0.0,1,27.6,2.65,5.7,0,0,0,1,0,,,,,,,,,,,,,,,,,,,,
24203,1626526593599,,,249,249,237,231,,-0.04,0.06,-2.1,0,-1,0,0.07,,70,4636,7,30,55,0.641,0.0,413,4.72,13.2,0.0,1,27.4,2.64,5.7,0,0,0,1,0,,,,,,,,,,,,,,,,,,,,
24223,1626526593619,,,249,249,237,231,,-0.07,0.09,-1.94,0,-1,-0,0.12,,70,4626,7,30,55,0.639,0.0,409,4.72,13.2,0.0,1,27.3,1.53,5.7,0,0,0,1,0,,,,,,,,,,,,,,,,,,,,
24243,1626526593639,-1,2,249,249,237,231,26,-0.06,0.11,-1.79,0,-3,-2,0.13,0,70,4626,7,30,55,0.639,0.0,411,4.71,13.2,0.0,1,27.3,2.64,5.6,0,0,0,1,0,0,250,250,0,45.700306,4.909401,0.0,186.3,9,2,1.9,0,0.0,-1,0.0,0.0,0.0,0,0.0,0.404
24263,1626526593659,,,249,250,237,231,,-0.04,0.1,-1.65,0,-6,-3,0.11,,70,4615,7,30,55,0.638,0.0,410,4.77,13.3,0.0,1,27.1,2.63,5.6,0,0,0,1,0,,,,,,,,,,,,,,,,,,,,
24283,1626526593679,,,249,249,236,231,,0.0,0.09,-1.52,0,-7,-5,0.09,,70,4582,7,30,55,0.637,0.0,404,4.76,13.3,0.0,1,26.7,2.61,5.6,0,0,0,1,0,,,,,,,,,,,,,,,,,,,,
24303,1626526593700,,,249,249,237,231,,0.05,0.05,-1.51,-0,-9,-6,0.07,,70,4602,7,30,55,0.637,0.0,404,4.71,13.3,0.0,1,27.0,2.62,5.6,0,0,0,1,0,,,,,,,,,,,,,,,,,,,,
24323,1626526593720,,,249,249,237,231,,0.09,0.01,-1.7,-0,-9,-7,0.09,,70,4621,7,30,55,0.636,0.0,400,4.77,13.3,0.0,1,27.2,1.52,5.6,0,0,0,1,0,,,,,,,,,,,,,,,,,,,,
24343,1626526593740,0,0,249,250,237,231,26,0.12,-0.02,-1.87,-0,-8,-7,0.12,0,70,4644,7,30,55,0.636,0.0,408,4.74,13.3,0.0,1,27.5,2.65,5.6,0,0,0,1,0,0,250,250,0,45.700306,4.909401,0.0,186.3,9,2,1.9,0,0.0,-1,0.0,,0.0,0,0.0,0.4057
24363,1626526593760,,,249,250,237,231,,0.13,-0.03,-2.04,0,-6,-5,0.13,,70,4627,7,30,55,0.635,0.0,415,4.75,13.1,0.0,1,27.1,2.64,5.6,0,0,0,1,0,,,,,,,,,,,,,,,,,,,,
24383,1626526593780,,,249,250,237,231,,0.12,-0.02,-2.19,0,-4,-3,0.12,,70,4636,7,30,55,0.635,0.0,404,4.69,13.0,0.0,1,27.2,1.52,5.6,0,0,0,1,0,,,,,,,,,,,,,,,,,,,,
24403,1626526593798,,,249,249,237,231,,0.08,0.01,-2.33,0,-2,-1,0.08,,70,4623,7,30,55,0.635,0.0,412,4.73,13.1,0.0,1,27.2,2.63,5.6,0,0,0,1,0,,,,,,,,,,,,,,,,,,,,
24423,1626526593818,,,249,249,237,231,,0.03,0.02,-2.45,0,1,1,0.03,,70,4652,7,30,55,0.635,0.0,405,4.75,13.1,0.0,1,27.6,2.65,5.7,0,0,0,1,0,,,,,,,,,,,,,,,,,,,,
24443,1626526593838,1,2,249,249,237,231,26,-0.02,0.05,-2.3,0,1,2,0.06,0,70,4628,7,30,54,0.634,0.0,412,4.76,13.0,0.0,1,27.1,1.53,5.7,0,0,0,1,0,0,250,250,0,45.700306,4.909401,0.0,186.3,9,2,1.9,0,0.0,-1,0.0,0.0,0.0,0,0.0,0.4074
24463,1626526593858,,,249,249,237,231,,-0.06,0.07,-2.13,0,2,2,0.09,,70,4601,7,30,54,0.634,0.0,405,4.74,13.1,0.0,1,26.8,2.62,5.7,0,0,0,1,0,,,,,,,,,,,,,,,,,,,,
24483,1626526593878,,,249,249,237,231,,-0.08,0.11,-1.96,0,1,1,0.14,,70,4647,7,30,55,0.633,0.0,403,4.7,13.2,0.0,1,27.5,1.54,5.7,0,0,0,1,0,,,,,,,,,,,,,,,,,,,,
24503,1626526593898,,,249,249,237,231,,-0.06,0.11,-1.81,0,-1,-1,0.12,,70,4597,7,30,55,0.633,0.0,413,4.71,13.2,0.0,1,26.9,2.62,5.7,0,0,0,1,0,,,,,,,,,,,,,,,,,,,,
24523,1626526593918,,,249,251,237,231,,-0.04,0.09,-1.67,0,-5,-3,0.1,,70,4592,7,30,55,0.633,0.0,403,4.77,13.3,0.0,1,26.9,2.62,5.5,0,0,0,1,0,,,,,,,,,,,,,,,,,,,,
24543,1626526593938,0,1,249,250,237,231,26,0.01,0.07,-1.54,0,-6,-4,0.07,0,70,4622,7,30,55,0.633,0.0,404,4.79,13.3,0.0,1,27.2,2.63,5.5,0,0,0,1,0,0,250,250,0,45.700306,4.909401,0.0,186.3,9,2,1.9,0,0.0,-1,0.0,,0.0,0,0.0,0.409
24563,1626526593958,,,249,249,237,231,,0.06,0.02,-1.63,0,-7,-5,0.07,,70,4589,7,30,55,0.632,0.0,403,4.78,13.3,0.0,1,26.8,2.62,5.5,0,0,0,1,0,,,,,,,,,,,,,,,,,,,,
24583,1626526593978,,,249,250,237,231,,0.1,-0.03,-1.81,0,-7,-6,0.11,,70,4622,7,30,55,0.632,0.0,398,4.75,13.3,0.0,1,27.2,1.52,5.5,0,0,0,1,0,,,,,,,,,,,,,,,,,,,,
24603,1626526593992,,,249,250,237,231,,0.13,-0.06,-1.98,0,-6,-5,0.14,,70,4645,7,30,55,0.631,0.0,408,4.69,13.2,0.0,1,27.5,2.65,5.5,0,0,0,1,0,,,,,,,,,,,,,,,,,,,,
24623,1626526594012,,,249,250,237,231,,0.14,-0.07,-2.14,0,-4,-3,0.15,,70,4609,7,30,55,0.631,0.0,407,4.75,13.1,0.0,1,27.0,2.62,5.5,0,0,0,1,0,,,,,,,,,,,,,,,,,,,,
24643,1626526594032,0,3,249,249,237,231,27,0.12,-0.05,-2.28,0,-1,-1,0.13,0,70,4625,7,30,55,0.631,0.0,406,4.74,13.0,0.0,1,27.3,2.64,5.5,0,0,0,1,0,0,250,250,0,45.700306,4.909401,0.0,186.3,9,2,1.9,0,0.0,-1,0.0,0.0,0.0,0,0.0,0.4107
24663,1626526594052,,,249,249,236,231,,0.08,-0.01,-2.41,0,1,1,0.08,,70,4586,7,30,55,0.632,0.0,413,4.73,13.0,0.0,1,26.8,1.5,5.5,0,0,0,1,0,,,,,,,,,,,,,,,,,,,,
24683,1626526594072,,,249,249,237,231,,0.04,0.03,-2.53,0,3,3,0.04,,70,4619,7,30,55,0.632,0.0,400,4.78,13.0,0.0,1,27.2,1.52,5.5,0,0,0,1,0,,,,,,,,,,,,,,,,,,,,
24703,1626526594098,,,249,249,237,231,,-0.02,0.06,-2.49,1,4,3,0.07,,70,4620,7,30,54,0.632,0.0,412,4.73,13.2,0.0,1,27.0,1.52,5.5,0,0,0,1,0,,,,,,,,,,,,,,,,,,,,
24723,1626526594118,,,249,249,237,231,,-0.06,0.08,-2.3,1,5,3,0.1,,70,4595,7,30,54,0.632,0.0,405,4.71,13.1,0.0,1,26.7,2.62,5.5,0,0,0,1,0,,,,,,,,,,,,,,,,,,,,
24743,1626526594138,0,1,249,249,237,230,26,-0.11,0.09,-2.12,1,4,3,0.14,0,70,4627,7,30,55,0.632,0.0,405,4.76,13.2,0.0,1,27.3,2.64,5.5,0,0,0,1,0,0,250,250,0,45.700306,4.909401,0.0,186.3,9,2,1.9,0,0.0,-1,0.0,,0.0,0,0.0,0.4124
24763,1626526594158,,,249,249,237,231,,-0.1,0.08,-1.95,0,2,1,0.13,,70,4610,7,30,55,0.631,0.0,414,4.71,13.3,0.0,1,27.1,2.62,5.5,0,0,0,1,0,,,,,,,,,,,,,,,,,,,,
24783,1626526594178,,,249,250,236,231,,-0.08,0.08,-1.8,0,-2,-1,0.12,,70,4608,7,30,55,0.631,0.0,402,4.76,13.3,0.0,1,27.1,2.62,5.5,0,0,0,1,0,,,,,,,,,,,,,,,,,,,,
24803,1626526594198,,,249,250,237,231,,-0.03,0.07,-1.66,0,-4,-2,0.08,,70,4668,7,30,55,0.631,0.0,411,4.76,13.3,0.0,1,27.8,2.67,5.5,0,0,0,1,0,,,,,,,,,,,,,,,,,,,,
24823,1626526594218,,,249,251,236,231,,0.02,0.01,-1.79,0,-5,-4,0.02,,70,4644,7,30,55,0.631,0.0,407,4.77,13.3,0.0,1,27.5,2.65,5.7,0,0,0,1,0,,,,,,,,,,,,,,,,,,,,
24843,1626526594238,-0,2,249,251,237,230,26,0.05,-0.04,-1.95,0,-4,-4,0.07,0,70,4683,7,30,55,0.632,0.0,407,4.68,13.1,0.0,1,28.0,2.68,5.7,0,0,0,1,0,0,250,250,0,45.700306,4.909401,0.0,186.3,9,2,1.9,0,0.0,-1,0.0,0.0,0.0,0,0.0,0.414
24863,1626526594258,,,249,250,237,231,,0.07,-0.06,-2.11,0,-2,-2,0.09,,70,4688,7,30,55,0.632,0.0,414,4.65,13.1,0.0,1,27.6,1.55,5.7,0,0,0,1,0,,,,,,,,,,,,,,,,,,,,
24883,1626526594278,,,249,249,237,231,,0.03,-0.05,-2.26,0,-0,1,0.06,,70,4650,7,30,55,0.633,0.0,411,4.73,13.1,0.0,1,27.6,2.65,5.7,0,0,0,1,0,,,,,,,,,,,,,,,,,,,,
24903,1626526594298,,,249,249,237,231,,-0.01,-0.03,-2.39,1,2,3,0.03,,70,4671,7,30,55,0.632,0.0,412,4.76,13.1,0.0,1,27.8,2.67,5.7,0,0,0,1,0,,,,,,,,,,,,,,,,,,,,
24923,1626526594318,,,249,249,237,231,,-0.06,-0.0,-2.27,0,2,2,0.06,,70,4634,7,30,54,0.633,0.0,418,4.76,13.1,0.0,1,27.2,2.64,5.7,0,0,0,1,0,,,,,,,,,,,,,,,,,,,,
24943,1626526594338,0,1,249,249,237,231,26,-0.09,0.02,-2.1,0,1,1,0.09,0,70,4611,7,30,55,0.632,0.0,406,4.73,13.3,0.0,1,27.1,1.51,5.6,0,0,0,1,0,0,250,250,0,45.700306,4.909401,0.0,186.3,9,2,1.9,0,0.0,-1,0.0,,0.0,0,0.0,0.4157
24963,1626526594358,,,249,250,237,231,,-0.11,0.04,-1.93,0,-1,0,0.12,,70,4594,7,30,55,0.632,0.0,411,4.72,13.2,0.0,1,26.9,2.62,5.6,0,0,0,1,0,,,,,,,,,,,,,,,,,,,,
24983,1626526594378,,,249,250,237,231,,-0.1,0.05,-1.78,0,-3,-1,0.11,,70,4594,7,30,55,0.632,0.0,398,4.72,13.2,0.0,1,26.9,2.62,5.6,0,0,0,1,0,,,,,,,,,,,,,,,,,,,,
25003,1626526594398,,,249,250,237,231,,-0.08,0.07,-1.65,0,-5,-3,0.11,,70,4564,7,30,55,0.632,0.0,401,4.76,13.3,0.0,1,26.5,2.6,5.6,0,0,0,1,0,,,,,,,,,,,,,,,,,,,,
25023,1626526594418,,,249,251,237,231,,-0.05,0.05,-1.52,0,-7,-4,0.07,,70,4591,7,30,55,0.633,0.0,408,4.75,13.3,0.0,1,26.8,2.62,5.5,0,0,0,1,0,,,,,,,,,,,,,,,,,,,,
25043,1626526594438,0,2,249,251,237,231,26,0.0,0.03,-1.45,0,-8,-6,0.03,0,70,4584,7,30,55,0.632,0.0,401,4.77,13.3,0.0,1,26.8,2.62,5.5,0,0,0,1,0,0,250,250,0,45.700306,4.909401,0.0,186.3,9,2,1.9,0,0.0,-1,0.0,0.0,0.0,0,0.0,0.4174
25063,1626526594458,,,249,250,237,231,,0.04,0.01,-1.63,0,-8,-7,0.05,,70,4617,7,30,55,0.632,0.0,408,4.71,13.2,0.0,1,27.2,1.52,5.5,0,0,0,1,0,,,,,,,,,,,,,,,,,,,,
25083,1626526594478,,,249,250,237,231,,0.08,-0.03,-1.81,0,-8,-7,0.09,,70,4642,7,30,55,0.631,0.0,406,4.73,13.3,0.0,1,27.5,2.65,5.5,0,0,0,1,0,,,,,,,,,,,,,,,,,,,,
25103,1626526594500,,,249,250,237,231,,0.1,-0.07,-1.98,0,-6,-5,0.12,,70,4649,7,30,55,0.632,0.0,407,4.72,13.2,0.0,1,27.6,2.65,5.5,0,0,0,1,0,,,,,,,,,,,,,,,,,,,,
25123,1626526594520,,,249,249,237,231,,0.09,-0.08,-2.13,0,-3,-3,0.12,,70,4653,7,30,55,0.631,0.0,411,4.76,13.0,0.0,1,27.6,1.55,5.7,0,0,0,1,0,,,,,,,,,,,,,,,,,,,,
25143,1626526594540,1,1,249,249,236,231,27,0.05,-0.06,-2.27,0,-1,-0,0.08,0,70,4627,7,30,55,0.631,0.0,410,4.77,13.0,0.0,1,27.3,2.64,5.7,0,0,0,1,0,0,250,250,0,45.700306,4.909401,0.0,186.3,9,2,1.9,0,0.0,-1,0.0,,0.0,0,0.0,0.419
25163,1626526594560,,,249,249,237,231,,0.02,-0.04,-2.41,0,1,1,0.04,,70,4645,7,30,55,0.632,0.0,416,4.75,13.2,0.0,1,27.5,1.54,5.7,0,0,0,1,0,,,,,,,,,,,,,,,,,,,,
25183,1626526594580,,,249,248,237,231,,-0.04,-0.01,-2.3,0,1,1,0.04,,70,4645,7,30,54,0.632,0.0,419,4.74,13.2,0.0,1,27.3,2.65,5.7,0,0,0,1,0,,,,,,,,,,,,,,,,,,,,
25203,1626526594600,,,249,249,237,231,,-0.07,0.01,-2.12,0,0,0,0.07,,70,4605,7,30,54,0.631,0.0,408,4.71,13.2,0.0,1,26.8,1.51,5.7,0,0,0,1,0,,,,,,,,,,,,,,,,,,,,
25223,1626526594620,,,249,250,236,231,,-0.09,0.03,-1.96,0,-2,-1,0.1,,70,4608,7,30,55,0.63,0.0,409,4.71,13.2,0.0,1,27.1,2.62,5.5,0,0,0,1,0,,,,,,,,,,,,,,,,,,,,
25243,1626526594640,0,1,249,250,237,231,25,-0.09,0.05,-1.81,0,-4,-3,0.1,0,70,4559,7,30,55,0.631,0.0,399,4.76,13.3,0.0,1,26.4,2.6,5.5,0,0,0,1,0,0,250,250,0,45.700306,4.909401,0.0,186.3,9,2,1.9,0,0.0,-1,0.0,0.0,0.0,0,0.0,0.4207
25263,1626526594660,,,249,250,237,231,,-0.08,0.07,-1.67,0,-6,-4,0.11,,70,4583,7,30,55,0.63,0.0,405,4.75,13.2,0.0,1,26.7,2.61,5.5,0,0,0,1,0,,,,,,,,,,,,,,,,,,,,
25283,1626526594680,,,249,250,236,231,,-0.04,0.07,-1.54,0,-8,-5,0.08,,70,4608,7,30,55,0.63,0.0,405,4.75,13.3,0.0,1,27.1,2.62,5.5,0,0,0,1,0,,,,,,,,,,,,,,,,,,,,
25303,1626526594698,,,249,250,237,231,,0.01,0.04,-1.42,-0,-9,-6,0.04,,70,4609,7,30,55,0.63,0.0,402,4.79,13.3,0.0,1,27.1,1.51,5.5,0,0,0,1,0,,,,,,,,,,,,,,,,,,,,
25323,1626526594718,,,249,249,237,231,,0.06,0.0,-1.55,-0,-9,-7,0.06,,70,4597,7,30,55,0.631,0.0,410,4.7,13.2,0.0,1,26.9,1.5,5.5,0,0,0,1,0,,,,,,,,,,,,,,,,,,,,
25343,1626526594738,-1,2,249,249,237,231,26,0.1,-0.03,-1.74,-0,-9,-8,0.11,0,70,4600,7,30,55,0.632,0.0,401,4.72,13.2,0.0,1,27.0,1.51,5.5,0,0,0,1,0,0,250,250,0,45.700306,4.909401,0.0,186.3,9,2,1.9,0,0.0,-1,0.0,,0.0,0,0.0,0.4224
25363,1626526594758,,,249,249,237,231,,0.13,-0.07,-1.91,-0,-7,-6,0.15,,70,4618,7,30,55,0.632,0.0,404,4.7,13.2,0.0,1,27.2,1.52,5.5,0,0,0,1,0,,,,,,,,,,,,,,,,,,,,
25383,1626526594778,,,249,249,236,231,,0.14,-0.08,-2.07,0,-4,-4,0.16,,70,4603,7,30,55,0.633,0.0,400,4.77,13.1,0.0,1,27.0,2.62,5.5,0,0,0,1,0,,,,,,,,,,,,,,,,,,,,
25403,1626526594799,,,249,249,237,231,,0.12,-0.07,-2.22,0,-1,-1,0.14,,71,4622,7,30,55,0.633,0.0,407,4.68,13.1,0.0,1,27.2,1.52,5.5,0,0,0,1,0,,,,,,,,,,,,,,,,,,,,
25423,1626526594819,,,249,249,237,231,,0.11,-0.05,-2.36,0,1,1,0.12,,71,4573,7,30,55,0.633,0.0,411,4.72,13.1,0.0,1,26.6,2.61,5.5,0,0,0,1,0,,,,,,,,,,,,,,,,,,,,
25443,1626526594839,-1,2,249,249,237,231,26,0.07,-0.04,-2.48,0,3,3,0.08,0,71,4623,7,30,55,0.633,0.0,407,4.72,13.1,0.0,1,27.2,2.63,5.5,0,0,0,1,0,0,250,250,0,45.700306,4.909401,0.0,186.3,9,2,1.9,0,0.0,-1,0.0,0.0,0.0,0,0.0,0.424
25463,1626526594859,,,249,249,237,231,,0.03,-0.01,-2.6,0,4,3,0.03,,71,4577,7,30,55,0.633,0.0,408,4.76,13.0,0.0,1,26.7,1.49,5.5,0,0,0,1,0,,,,,,,,,,,,,,,,,,,,
25483,1626526594879,,,249,249,237,231,,-0.03,0.02,-2.49,0,4,3,0.04,,71,4563,7,30,55,0.634,0.0,405,4.71,13.2,0.0,1,26.5,2.6,5.5,0,0,0,1,0,,,,,,,,,,,,,,,,,,,,
25503,1626526594899,,,249,249,236,231,,-0.07,0.03,-2.3,0,4,2,0.08,,71,4597,7,30,55,0.633,0.0,402,4.7,13.1,0.0,1,26.9,2.62,5.5,0,0,0,1,0,,,,,,,,,,,,,,,,,,,,
25523,1626526594919,,,249,249,237,231,,-0.11,0.04,-2.12,0,2,1,0.12,,71,4560,7,30,55,0.633,0.0,408,4.68,13.2,0.0,1,26.5,2.6,5.4,0,0,0,1,0,,,,,,,,,,,,,,,,,,,,
25543,1626526594939,-1,2,249,250,237,231,26,-0.12,0.04,-1.96,0,-1,-0,0.12,0,71,4598,7,30,55,0.633,0.0,398,4.76,13.3,0.0,1,26.9,2.62,5.4,0,0,0,1,0,0,250,250,0,45.700306,4.909401,0.0,186.3,9,2,1.9,0,0.0,-1,0.0,,0.0,0,0.0,0.4257
25563,1626526594959,,,249,250,237,231,,-0.12,0.04,-1.8,0,-4,-2,0.12,,71,4612,7,30,55,0.632,0.0,411,4.72,13.3,0.0,1,27.1,2.63,5.4,0,0,0,1,0,,,,,,,,,,,,,,,,,,,,
25583,1626526594979,,,249,250,237,231,,-0.09,0.06,-1.66,0,-6,-3,0.11,,71,4618,7,30,55,0.632,0.0,409,4.8,13.3,0.0,1,27.2,2.63,5.4,0,0,0,1,0,,,,,,,,,,,,,,,,,,,,
25603,1626526594991,,,249,250,236,231,,-0.05,0.06,-1.54,0,-7,-4,0.08,,71,4650,7,30,55,0.631,0.0,405,4.82,13.3,0.0,1,27.6,1.54,5.4,0,0,0,1,0,,,,,,,,,,,,,,,,,,,,
25623,1626526595011,,,249,250,237,231,,0.01,0.03,-1.68,0,-7,-5,0.03,,71,4627,7,30,55,0.631,0.0,411,4.76,13.3,0.0,1,27.3,2.64,5.6,0,0,0,1,0,,,,,,,,,,,,,,,,,,,,
25643,1626526595031,0,2,249,249,237,231,26,0.04,-0.02,-1.86,0,-6,-5,0.05,0,71,4628,7,30,55,0.63,0.0,400,4.7,13.1,0.0,1,27.3,2.64,5.6,0,0,0,1,0,0,250,250,0,45.700306,4.909401,0.0,186.3,9,2,1.9,0,0.0,-1,0.0,0.0,0.0,0,0.0,0.4274
25663,1626526595051,,,249,249,237,231,,0.07,-0.03,-2.02,0,-4,-3,0.08,,71,4641,7,30,55,0.63,0.0,413,4.69,13.2,0.0,1,27.5,1.54,5.6,0,0,0,1,0,,,,,,,,,,,,,,,,,,,,
25683,1626526595071,,,249,249,237,231,,0.08,-0.02,-2.17,0,-2,-1,0.08,,71,4570,7,30,55,0.63,0.0,412,4.75,13.0,0.0,1,26.6,2.61,5.6,0,0,0,1,0,,,,,,,,,,,,,,,,,,,,
25703,1626526595099,,,249,249,237,231,,0.07,-0.01,-2.31,0,1,2,0.07,,71,4587,7,30,55,0.63,0.0,402,4.8,13.1,0.0,1,26.8,1.5,5.6,0,0,0,1,0,,,,,,,,,,,,,,,,,,,,
25723,1626526595119,,,249,249,237,231,,0.06,-0.01,-2.44,1,3,4,0.06,,71,4468,7,30,55,0.63,0.0,403,4.73,13.0,0.0,1,25.3,1.42,5.6,0,0,0,1,0,,,,,,,,,,,,,,,,,,,,
25743,1626526595139,-1,2,249,249,237,231,26,0.05,-0.03,-2.56,1,4,6,0.06,0,71,4543,7,30,55,0.629,0.0,400,4.75,13.0,0.0,1,26.2,2.59,5.2,0,0,0,1,0,0,250,250,0,45.700306,4.909401,0.0,186.3,9,2,1.9,0,0.0,-1,0.0,,0.0,0,0.0,0.429
25763,1626526595159,,,249,249,237,231,,0.05,-0.03,-2.67,1,6,7,0.06,,71,4503,7,30,55,0.629,0.0,398,4.71,13.0,0.0,1,25.7,2.57,5.2,0,0,0,1,0,,,,,,,,,,,,,,,,,,,,
25783,1626526595179,,,249,249,237,231,,0.03,-0.03,-2.77,1,7,9,0.04,,71,4500,7,30,55,0.629,0.0,394,4.77,13.1,0.0,1,25.7,2.57,5.2,0,0,0,1,0,,,,,,,,,,,,,,,,,,,,
25803,1626526595199,,,249,249,237,231,,0.01,-0.02,-2.86,1,8,10,0.02,,71,4564,7,30,55,0.629,0.0,394,4.7,13.1,0.0,1,26.5,2.6,5.2,0,0,0,1,0,,,,,,,,,,,,,,,,,,,,
25823,1626526595219,,,249,249,237,230,,-0.02,-0.02,-2.95,1,9,10,0.03,,71,4579,7,30,55,0.629,0.0,411,4.76,13.0,0.0,1,26.7,2.62,5.2,0,0,0,1,0,,,,,,,,,,,,,,,,,,,,
25843,1626526595239,-1,2,249,249,237,231,26,-0.06,-0.01,-3.0,1,9,10,0.06,0,71,4634,7,30,55,0.629,0.0,405,4.7,13.2,0.0,1,27.4,2.64,5.5,0,0,0,1,0,0,250,250,0,45.700306,4.909401,0.0,186.3,9,2,1.9,0,0.0,-1,0.0,0.0,0.0,0,0.0,0.4307
