"Interval"|"ms"|0|0|1,"Utc"|"ms"|0|0|1,"Brake_F"|"Bar"|0|2000|10,"Brake_R"|"Bar"|0|2000|10,"Height_RF"|"mm"|0|255|50,"Height_LF"|"mm"|0|255|50,"Height_LR"|"mm"|0|80|50,"Height_RR"|"mm"|0|255|50,"Steering"|"deg"|-100|100|10,"AccelX"|"G"|-3.0|3.0|50,"AccelY"|"G"|-3.0|3.0|50,"AccelZ"|"G"|-3.0|3.0|50,"Yaw"|"Deg/Sec"|-120|120|50,"Pitch"|"Deg/Sec"|-120|120|50,"Roll"|"Deg/Sec"|-120|120|50,"Gsum"|"G"|0.0|3.0|50,"Log_Button"|""|0.0|10.0|10,"WaterTemp"|"C"|0|150|50,"RPM"|"tr/min"|0|14000|50,"TPS"|"%"|0|100|50,"AirTemp"|"C"|0|150|50,"MAP"|"KPa"|0|100|50,"Lambda"|""|0.5|1.5|50,"SpeedDTA"|"kph"|0.0|250.0|50,"OilPress"|"KPa"|0|1500|50,"FuelPressur"|"Bar"|0.0|10.0|50,"Batterie"|"V"|0.0|20.0|50,"ConsoKm"|"L/100km"|0.0|200.0|50,"Gear"|""|0|6|50,"AdvIgnition"|"Deg"|-20.0|70.0|50,"Injection"|"ms"|0.0|10.0|50,"ConsoHr"|"L/Hr"|0.0|10000.0|50,"LC_But_Pres"|""|0|1|50,"LC_Active"|""|0|1|50,"TractionOn"|""|0|1|50,"TractionWet"|""|0|1|50,"FanOn"|""|0|1|50,"RD_Speed"|"km/h"|-30|250|10,"RUD_Speed"|"km/h"|-30|250|10,"LD_Speed"|"km/h"|-30|250|10,"LUD_Speed"|"km/h"|-30|250|10,"Latitude"|"Degrees"|-180.0|180.0|10,"Longitude"|"Degrees"|-180.0|180.0|10,"Speed"|"kph"|0.0|150.0|10,"Altitude"|"m"|0.0|4000.0|10,"GPSSats"|""|0|20|10,"GPSQual"|""|0|5|10,"GPSDOP"|""|0.0|20.0|10,"LapCount"|""|0|0|10,"LapTime"|"Min"|0.0|0.0|10,"Sector"|""|0|0|10,"SectorTime"|"Min"|0.0|0.0|10,"PredTime"|"Min"|0.0|0.0|5,"ElapsedTime"|"Min"|0.0|0.0|10,"CurrentLap"|""|0|0|10,"Distance"|"km"|0.0|0.0|10,"SessionTime"|"Min"|0.0|0.0|10
16063,1626535275542,,,249,253,237,231,,0.0,0.32,-2.13,0,2,3,0.32,,69,8019,11,32,37,0.605,0.0,675,4.61,13.2,0.0,1,30.4,2.2,7.9,0,0,0,1,0,,,,,,,,,,,,,,,,,,,,
16083,1626535275562,,,249,253,237,230,,0.01,0.34,-2.04,-0,1,-0,0.34,,69,7995,11,32,37,0.606,0.0,673,4.63,13.0,0.0,1,30.4,2.13,7.9,0,0,0,1,0,,,,,,,,,,,,,,,,,,,,
16103,1626535275581,,,249,252,237,231,,0.0,0.35,-2.19,0,1,1,0.35,,69,7978,11,32,36,0.607,0.0,671,4.45,13.2,0.0,1,30.1,1.01,7.9,0,0,0,1,0,,,,,,,,,,,,,,,,,,,,
16123,1626535275601,,,249,253,237,231,,0.0,0.36,-2.16,0,2,2,0.36,,69,7955,11,32,37,0.607,0.0,675,4.6,13.1,0.0,1,30.4,1.06,7.9,0,0,0,1,0,,,,,,,,,,,,,,,,,,,,
16143,1626535275621,1,3,249,253,237,231,6,0.02,0.37,-2.01,-0,0,-1,0.37,1,69,7941,11,32,36,0.607,0.0,672,4.46,13.0,0.0,1,30.1,2.13,7.9,0,0,0,1,0,0,250,250,0,45.700245,4.90955,0.0,201.2,8,2,2.1,0,0.0,-1,0.0,,0.0,0,0.0,0.269
16163,1626535275641,,,249,252,237,231,,0.0,0.36,-2.09,0,-0,-1,0.36,,69,7918,11,32,37,0.607,0.0,677,4.52,13.0,0.0,1,30.4,2.18,8.0,0,0,0,1,0,,,,,,,,,,,,,,,,,,,,
16183,1626535275661,,,249,251,236,231,,-0.02,0.42,-2.24,0,1,2,0.42,,69,7904,11,32,37,0.607,0.0,671,4.5,13.2,0.0,1,30.4,2.18,8.0,0,0,0,1,0,,,,,,,,,,,,,,,,,,,,
16203,1626535275681,,,249,253,237,231,,0.01,0.4,-2.19,0,2,2,0.4,,69,7874,11,32,37,0.607,0.0,668,4.65,13.0,0.0,1,30.4,1.06,8.0,0,0,0,1,0,,,,,,,,,,,,,,,,,,,,
16223,1626535275701,,,249,253,236,231,,0.01,0.35,-2.05,0,1,0,0.35,,69,7861,11,32,37,0.606,0.0,673,4.53,13.0,0.0,1,30.4,2.18,8.0,0,0,0,1,0,,,,,,,,,,,,,,,,,,,,
16243,1626535275721,0,1,249,251,237,231,6,-0.01,0.35,-2.2,0,1,2,0.35,1,69,7845,11,32,37,0.607,0.0,673,4.46,13.0,0.0,1,30.4,2.18,8.0,0,0,0,1,0,0,250,250,0,45.700245,4.90955,0.0,201.2,8,2,2.1,0,0.0,-1,0.0,0.0,0.0,0,0.0,0.2707
16263,1626535275741,,,249,253,236,231,,-0.02,0.32,-2.34,0,2,4,0.32,,69,7809,11,32,37,0.607,0.0,675,4.41,13.2,0.0,1,30.4,2.18,7.9,0,0,0,1,0,,,,,,,,,,,,,,,,,,,,
16283,1626535275761,,,249,253,237,231,,-0.03,0.28,-2.45,0,4,5,0.28,,69,7815,11,32,38,0.607,0.0,663,4.57,13.1,0.0,1,30.7,2.18,7.9,0,0,0,1,0,,,,,,,,,,,,,,,,,,,,
16303,1626535275773,,,249,253,237,231,,0.01,0.18,-2.44,0,3,4,0.18,,69,7776,11,32,38,0.607,0.0,663,4.59,13.1,0.0,1,30.7,2.23,7.9,0,0,0,1,0,,,,,,,,,,,,,,,,,,,,
16323,1626535275793,,,249,253,236,231,,0.03,0.14,-2.28,0,1,2,0.14,,69,7767,11,32,38,0.606,0.0,677,4.47,13.1,0.0,1,30.7,2.23,7.9,0,0,0,1,0,,,,,,,,,,,,,,,,,,,,
16343,1626535275813,0,0,249,251,236,231,6,0.02,0.12,-2.39,0,-0,1,0.13,1,69,7783,11,32,38,0.606,0.0,667,4.47,13.0,0.0,1,30.7,2.23,7.9,0,0,0,1,0,0,250,250,0,45.700245,4.90955,0.0,201.2,8,2,2.1,0,0.0,-1,0.0,,0.0,0,0.0,0.2724
16363,1626535275833,,,249,252,237,231,,0.01,0.16,-2.48,0,-0,1,0.16,,69,7770,11,32,38,0.607,0.0,673,4.58,13.2,0.0,1,30.7,1.11,8.0,0,0,0,1,0,,,,,,,,,,,,,,,,,,,,
16383,1626535275853,,,249,253,236,231,,-0.0,0.23,-2.55,0,1,2,0.23,,69,7760,11,32,38,0.607,0.0,666,4.48,13.2,0.0,1,30.7,2.23,8.0,0,0,0,1,0,,,,,,,,,,,,,,,,,,,,
16403,1626535275880,,,249,253,237,231,,0.01,0.23,-2.53,0,2,2,0.23,,69,7747,11,32,38,0.607,0.0,669,4.51,13.2,0.0,1,30.7,2.23,8.0,0,0,0,1,0,,,,,,,,,,,,,,,,,,,,
16423,1626535275900,,,249,253,237,231,,0.03,0.19,-2.4,0,2,1,0.19,,69,7760,11,32,38,0.607,0.0,678,4.47,13.0,0.0,1,30.7,1.11,8.0,0,0,0,1,0,,,,,,,,,,,,,,,,,,,,
16443,1626535275920,-0,2,249,253,236,231,6,0.04,0.12,-2.47,0,1,1,0.12,1,69,7763,11,32,38,0.608,0.0,667,4.49,13.0,0.0,1,30.7,2.23,8.0,0,0,0,1,0,0,250,250,0,45.700245,4.90955,0.0,201.2,8,2,2.1,0,0.0,-1,0.0,0.0,0.0,0,0.0,0.274
16463,1626535275940,,,249,251,237,231,,0.03,0.1,-2.59,0,1,2,0.1,,69,7751,11,32,38,0.608,0.0,668,4.55,13.2,0.0,1,30.7,2.23,8.0,0,0,0,1,0,,,,,,,,,,,,,,,,,,,,
16483,1626535275960,,,249,252,236,231,,-0.01,0.08,-2.7,0,1,3,0.08,,69,7770,11,32,38,0.608,0.0,668,4.53,13.2,0.0,1,30.7,2.23,8.0,0,0,0,1,0,,,,,,,,,,,,,,,,,,,,
16503,1626535275980,,,249,253,236,231,,-0.02,0.11,-2.8,0,1,3,0.11,,69,7722,10,32,38,0.608,0.0,668,4.57,13.1,0.0,1,30.7,2.23,8.0,0,0,0,1,0,,,,,,,,,,,,,,,,,,,,
16523,1626535276000,,,249,252,236,231,,-0.0,0.12,-2.66,0,1,2,0.12,,69,7709,10,32,38,0.608,0.0,671,4.58,13.1,0.0,1,30.7,1.11,8.0,0,0,0,1,0,,,,,,,,,,,,,,,,,,,,
16543,1626535276020,-0,2,249,252,237,231,5,0.04,0.14,-2.48,0,1,1,0.15,1,69,7668,10,32,37,0.608,0.0,668,4.52,13.0,0.0,1,30.4,1.06,8.0,0,0,0,1,0,0,250,250,0,45.700245,4.90955,0.0,201.2,8,2,2.1,0,0.0,-1,0.0,,0.0,0,0.0,0.2757
16563,1626535276040,,,249,253,236,231,,0.06,0.1,-2.29,0,1,-0,0.12,,69,7656,10,32,38,0.608,0.0,675,4.53,13.0,0.0,1,30.7,2.23,7.7,0,0,0,1,0,,,,,,,,,,,,,,,,,,,,
16583,1626535276060,,,249,252,236,231,,0.07,0.02,-2.35,0,0,-0,0.07,,69,7656,10,32,37,0.609,0.0,665,4.48,13.1,0.0,1,30.4,2.18,7.7,0,0,0,1,0,,,,,,,,,,,,,,,,,,,,
16603,1626535276080,,,249,253,237,231,,0.07,-0.01,-2.37,0,-1,-1,0.08,,69,7612,10,32,37,0.609,0.0,675,4.51,13.0,0.0,1,30.4,2.18,7.7,0,0,0,1,0,,,,,,,,,,,,,,,,,,,,
16623,1626535276100,,,249,251,237,231,,0.06,-0.01,-2.44,0,-2,-2,0.06,,69,7584,10,32,37,0.61,0.0,668,4.45,13.0,0.0,1,30.4,2.23,7.7,0,0,0,1,0,,,,,,,,,,,,,,,,,,,,
16643,1626535276120,-0,2,249,252,237,231,6,0.05,0.02,-2.35,0,-3,-2,0.06,0,69,7566,10,32,37,0.609,0.0,665,4.53,13.2,0.0,1,30.4,2.18,7.7,0,0,0,1,0,0,250,250,0,45.700245,4.90955,0.0,201.2,8,2,2.1,0,0.0,-1,0.0,0.0,0.0,0,0.0,0.2774
16663,1626535276140,,,249,252,237,231,,0.02,0.06,-2.47,0,-3,-1,0.07,,69,7545,10,32,37,0.61,0.0,661,4.55,13.2,0.0,1,30.4,1.06,7.6,0,0,0,1,0,,,,,,,,,,,,,,,,,,,,
16683,1626535276160,,,249,252,236,231,,-0.02,0.08,-2.59,0,-2,1,0.09,,69,7512,10,32,37,0.609,0.0,665,4.57,13.2,0.0,1,30.4,2.18,7.6,0,0,0,1,0,,,,,,,,,,,,,,,,,,,,
16703,1626535276178,,,249,252,236,231,,-0.04,0.07,-2.7,0,-1,1,0.08,,69,7515,10,32,38,0.609,0.0,664,4.62,13.2,0.0,1,30.7,2.23,7.6,0,0,0,1,0,,,,,,,,,,,,,,,,,,,,
16723,1626535276198,,,249,251,237,231,,-0.05,0.1,-2.67,0,-2,-0,0.11,,69,7488,10,32,37,0.609,0.0,672,4.45,13.1,0.0,1,30.4,2.23,7.6,0,0,0,1,0,,,,,,,,,,,,,,,,,,,,
16743,1626535276218,0,2,249,251,237,231,5,-0.07,0.15,-2.75,0,-2,1,0.16,0,69,7473,10,32,38,0.609,0.0,660,4.41,13.2,0.0,1,30.7,2.18,7.6,0,0,0,1,0,0,250,250,0,45.700245,4.90955,0.0,201.2,8,2,2.1,0,0.0,-1,0.0,,0.0,0,0.0,0.279
16763,1626535276238,,,249,251,237,231,,-0.08,0.14,-2.84,1,-2,2,0.16,,69,7452,10,32,38,0.609,0.0,661,4.45,13.2,0.0,1,30.7,2.23,7.7,0,0,0,1,0,,,,,,,,,,,,,,,,,,,,
16783,1626535276258,,,249,253,237,231,,-0.08,0.12,-2.93,0,-2,1,0.14,,69,7452,10,32,38,0.609,0.0,666,4.44,13.2,0.0,1,30.7,2.23,7.7,0,0,0,1,0,,,,,,,,,,,,,,,,,,,,
16803,1626535276281,,,249,252,237,231,,-0.07,0.15,-2.74,1,-3,-0,0.17,,69,7446,10,32,38,0.609,0.0,667,4.49,13.0,0.0,1,30.7,2.23,7.7,0,0,0,1,0,,,,,,,,,,,,,,,,,,,,
16823,1626535276301,,,249,251,237,231,,-0.08,0.11,-2.72,1,-4,-0,0.14,,69,7437,10,32,38,0.609,0.0,666,4.38,13.0,0.0,1,30.7,2.23,7.7,0,0,0,1,0,,,,,,,,,,,,,,,,,,,,
16843,1626535276321,0,2,249,251,237,231,5,-0.05,0.08,-2.67,0,-4,-1,0.1,0,69,7411,10,32,38,0.609,0.0,671,4.45,13.0,0.0,1,30.7,2.23,7.7,0,0,0,1,0,0,250,250,0,45.700245,4.90955,0.0,201.2,8,2,2.1,0,0.0,-1,0.0,0.0,0.0,0,0.0,0.2807
16863,1626535276341,,,249,253,237,231,,-0.03,0.09,-2.46,0,-6,-3,0.09,,69,7413,10,32,38,0.61,0.0,661,4.41,13.1,0.0,1,30.7,2.23,7.6,0,0,0,1,0,,,,,,,,,,,,,,,,,,,,
16883,1626535276361,,,249,253,236,231,,-0.0,0.05,-2.27,0,-7,-4,0.05,,69,7399,10,32,38,0.61,0.0,665,4.46,13.0,0.0,1,30.7,2.23,7.6,0,0,0,1,0,,,,,,,,,,,,,,,,,,,,
16903,1626535276381,,,249,252,237,231,,0.02,-0.01,-2.28,0,-6,-4,0.02,,69,7376,10,32,38,0.611,0.0,661,4.51,13.1,0.0,1,30.7,2.23,7.6,0,0,0,1,0,,,,,,,,,,,,,,,,,,,,
16923,1626535276400,,,249,253,237,231,,0.03,-0.03,-2.18,0,-6,-5,0.04,,69,7370,10,32,38,0.611,0.0,668,4.51,13.0,0.0,1,30.7,1.11,7.6,0,0,0,1,0,,,,,,,,,,,,,,,,,,,,
16943,1626535276420,1,0,249,253,236,231,6,0.05,0.03,-2.14,0,-5,-5,0.06,0,69,7376,10,32,38,0.612,0.0,657,4.48,13.0,0.0,1,30.7,1.11,7.6,0,0,0,1,0,0,250,250,0,45.700245,4.90955,0.0,201.2,8,2,2.1,0,0.0,-1,0.0,,0.0,0,0.0,0.2824
16963,1626535276440,,,249,253,236,231,,0.03,0.03,-2.28,0,-3,-3,0.04,,69,7376,10,32,39,0.613,0.0,660,4.52,13.1,0.0,1,31.0,2.29,7.6,0,0,0,1,0,,,,,,,,,,,,,,,,,,,,
16983,1626535276460,,,249,253,236,231,,0.01,0.05,-2.41,0,-2,-1,0.05,,69,7370,10,32,39,0.614,0.0,658,4.57,13.2,0.0,1,31.0,1.17,7.6,0,0,0,1,0,,,,,,,,,,,,,,,,,,,,
17003,1626535276480,,,249,252,236,231,,-0.01,0.13,-2.53,0,-1,-0,0.13,,69,7358,10,32,39,0.615,0.0,657,4.58,13.2,0.0,1,31.0,2.29,7.6,0,0,0,1,0,,,,,,,,,,,,,,,,,,,,
17023,1626535276498,,,249,251,236,231,,-0.03,0.13,-2.64,0,-0,2,0.14,,69,7352,10,32,39,0.615,0.0,665,4.46,13.2,0.0,1,31.0,1.17,7.6,0,0,0,1,0,,,,,,,,,,,,,,,,,,,,
17043,1626535276518,-1,2,249,252,236,231,6,-0.05,0.09,-2.75,0,0,2,0.11,0,69,7367,10,32,39,0.615,0.0,661,4.42,13.1,0.0,1,31.0,2.29,7.6,0,0,0,1,0,0,250,250,0,45.700245,4.90955,0.0,201.2,8,2,2.1,0,0.0,-1,0.0,0.0,0.0,0,0.0,0.284
17063,1626535276538,,,249,251,237,231,,-0.04,0.11,-2.53,0,-2,-0,0.11,,69,7352,10,32,39,0.614,0.0,661,4.45,13.0,0.0,1,31.0,2.29,7.7,0,0,0,1,0,,,,,,,,,,,,,,,,,,,,
17083,1626535276558,,,249,251,237,231,,-0.03,0.04,-2.39,0,-3,-1,0.04,,69,7341,10,32,39,0.613,0.0,661,4.46,13.1,0.0,1,31.0,2.29,7.7,0,0,0,1,0,,,,,,,,,,,,,,,,,,,,
17103,1626535276578,,,249,251,237,231,,0.02,-0.01,-2.27,0,-4,-2,0.02,,69,7327,10,32,39,0.614,0.0,662,4.49,13.1,0.0,1,31.0,2.29,7.7,0,0,0,1,0,,,,,,,,,,,,,,,,,,,,
17123,1626535276598,,,249,253,237,231,,0.04,0.02,-2.1,0,-4,-4,0.04,,69,7324,10,32,39,0.613,0.0,658,4.46,13.0,0.0,1,31.0,1.17,7.7,0,0,0,1,0,,,,,,,,,,,,,,,,,,,,
17143,1626535276618,0,3,249,253,237,231,6,0.03,-0.01,-2.24,0,-2,-3,0.03,0,69,7295,10,32,39,0.614,0.0,661,4.5,13.1,0.0,1,31.0,1.17,7.7,0,0,0,1,0,0,250,250,0,45.700245,4.90955,0.0,201.2,8,2,2.1,0,0.0,-1,0.0,,0.0,0,0.0,0.2857
17163,1626535276638,,,249,252,236,231,,0.0,0.01,-2.38,0,-1,-1,0.01,,69,7304,10,32,39,0.613,0.0,663,4.52,13.2,0.0,1,31.0,2.29,7.7,0,0,0,1,0,,,,,,,,,,,,,,,,,,,,
17183,1626535276658,,,249,253,236,231,,-0.03,0.08,-2.5,0,-0,0,0.08,,69,7287,10,32,39,0.614,0.0,663,4.52,13.2,0.0,1,31.0,2.29,7.7,0,0,0,1,0,,,,,,,,,,,,,,,,,,,,
17203,1626535276678,,,249,250,237,231,,-0.04,0.07,-2.62,0,-0,1,0.08,,69,7278,10,32,39,0.613,0.0,660,4.42,13.2,0.0,1,31.0,2.29,7.7,0,0,0,1,0,,,,,,,,,,,,,,,,,,,,
17223,1626535276698,,,249,251,236,231,,-0.02,0.04,-2.49,0,-1,-0,0.04,,69,7270,10,32,39,0.613,0.0,657,4.54,13.2,0.0,1,31.0,2.29,7.7,0,0,0,1,0,,,,,,,,,,,,,,,,,,,,
17243,1626535276718,-0,2,249,251,236,231,5,0.02,0.01,-2.3,0,-3,-2,0.02,0,69,7256,10,32,40,0.613,0.0,663,4.48,13.1,0.0,1,31.4,2.29,7.7,0,0,0,1,0,0,250,250,0,45.700245,4.90955,0.0,201.2,8,2,2.1,0,0.0,-1,0.0,0.0,0.0,0,0.0,0.2874
17263,1626535276738,,,249,252,237,231,,0.03,-0.02,-2.43,0,-2,-1,0.03,,69,7250,10,32,40,0.613,0.0,658,4.46,13.1,0.0,1,31.4,2.29,7.7,0,0,0,1,0,,,,,,,,,,,,,,,,,,,,
17283,1626535276758,,,249,253,237,231,,0.01,0.05,-2.55,0,-1,-1,0.05,,69,7264,10,32,40,0.614,0.0,664,4.48,13.1,0.0,1,31.4,2.29,7.7,0,0,0,1,0,,,,,,,,,,,,,,,,,,,,
17303,1626535276778,,,249,253,237,231,,-0.01,0.09,-2.66,0,0,1,0.09,,69,7267,10,32,40,0.613,0.0,661,4.45,13.2,0.0,1,31.4,2.29,7.7,0,0,0,1,0,,,,,,,,,,,,,,,,,,,,
17323,1626535276800,,,249,251,236,231,,-0.05,0.06,-2.76,0,2,3,0.08,,69,7261,10,32,40,0.614,0.0,660,4.39,13.2,0.0,1,31.4,2.29,7.7,0,0,0,1,0,,,,,,,,,,,,,,,,,,,,
17343,1626535276820,-1,2,249,251,237,231,6,-0.02,0.07,-2.55,0,-0,1,0.07,0,69,7253,10,32,40,0.614,0.0,661,4.49,13.0,0.0,1,31.4,2.29,7.7,0,0,0,1,0,0,250,250,0,45.700245,4.90955,0.0,201.2,8,2,2.1,0,0.0,-1,0.0,,0.0,0,0.0,0.2891
17363,1626535276840,,,249,251,237,231,,0.0,-0.0,-2.35,0,-1,-0,0.0,,69,7273,10,32,40,0.614,0.0,663,4.36,13.1,0.0,1,31.4,2.29,7.7,0,0,0,1,0,,,,,,,,,,,,,,,,,,,,
17383,1626535276860,,,249,252,236,231,,0.03,-0.03,-2.31,0,-2,-1,0.04,,69,7247,10,32,40,0.614,0.0,662,4.48,13.1,0.0,1,31.3,2.29,7.7,0,0,0,1,0,,,,,,,,,,,,,,,,,,,,
17403,1626535276880,,,249,253,237,231,,0.02,0.04,-2.34,0,-1,-2,0.04,,69,7275,10,32,40,0.615,0.0,653,4.5,13.1,0.0,1,31.4,1.17,7.7,0,0,0,1,0,,,,,,,,,,,,,,,,,,,,
17423,1626535276899,,,249,253,237,231,,-0.02,0.04,-2.47,0,2,1,0.04,,69,7253,10,32,40,0.615,0.0,661,4.46,13.1,0.0,1,31.4,2.29,7.7,0,0,0,1,0,,,,,,,,,,,,,,,,,,,,
17443,1626535276919,1,1,249,252,237,231,6,-0.04,0.06,-2.58,0,2,1,0.07,0,69,7292,10,32,40,0.615,0.0,656,4.56,13.2,0.0,1,31.4,1.17,7.7,0,0,0,1,0,0,250,250,0,45.700245,4.90955,0.0,201.2,8,2,2.1,0,0.0,-1,0.0,0.0,0.0,0,0.0,0.2907
17463,1626535276939,,,249,251,237,231,,-0.05,0.05,-2.49,0,1,1,0.07,,69,7290,10,32,40,0.615,0.0,658,4.48,13.2,0.0,1,31.4,2.29,7.7,0,0,0,1,0,,,,,,,,,,,,,,,,,,,,
17483,1626535276959,,,249,251,236,231,,-0.02,0.0,-2.44,0,0,1,0.02,,69,7301,10,32,40,0.615,0.0,664,4.45,13.2,0.0,1,31.4,2.29,7.7,0,0,0,1,0,,,,,,,,,,,,,,,,,,,,
17503,1626535276979,,,249,251,236,231,,0.01,-0.0,-2.26,0,-2,-2,0.01,,69,7315,10,32,40,0.615,0.0,655,4.4,13.1,0.0,1,31.4,2.29,7.7,0,0,0,1,0,,,,,,,,,,,,,,,,,,,,
17523,1626535276999,,,249,253,236,231,,0.02,-0.02,-2.08,0,-2,-3,0.03,,69,7329,10,32,40,0.615,0.0,660,4.53,13.0,0.0,1,31.4,1.17,7.7,0,0,0,1,0,,,,,,,,,,,,,,,,,,,,
17543,1626535277009,-1,2,249,252,237,231,6,0.03,-0.03,-2.23,0,-1,-2,0.04,0,69,7344,10,32,40,0.616,0.0,657,4.52,13.0,0.0,1,31.4,1.17,7.7,0,0,0,1,0,0,250,250,0,45.700237,4.909546,0.0,200.7,9,2,1.7,0,0.0,-1,0.0,,0.0,0,0.0,0.2924
17563,1626535277029,,,249,253,237,231,,0.02,0.03,-2.31,-0,-1,-2,0.04,,69,7352,10,32,40,0.615,0.0,660,4.37,13.1,0.0,1,31.4,1.17,7.8,0,0,0,1,0,,,,,,,,,,,,,,,,,,,,
17583,1626535277049,,,249,251,237,231,,0.0,0.09,-2.44,-0,0,-0,0.09,,69,7358,10,32,40,0.614,0.0,660,4.56,13.2,0.0,1,31.4,1.17,7.8,0,0,0,1,0,,,,,,,,,,,,,,,,,,,,
17603,1626535277069,,,249,253,237,231,,-0.03,0.06,-2.56,-0,2,2,0.07,,69,7393,10,32,40,0.614,0.0,658,4.52,13.2,0.0,1,31.4,2.29,7.8,0,0,0,1,0,,,,,,,,,,,,,,,,,,,,
17623,1626535277099,,,249,252,237,231,,-0.04,0.1,-2.67,-0,2,2,0.11,,69,7399,10,32,40,0.615,0.0,659,4.42,13.2,0.0,1,31.4,2.29,7.8,0,0,0,1,0,,,,,,,,,,,,,,,,,,,,
17643,1626535277119,0,1,249,252,237,231,6,-0.04,0.18,-2.75,0,2,3,0.19,0,69,7422,10,32,40,0.616,0.0,662,4.51,13.2,0.0,1,31.4,1.17,7.8,0,0,0,1,0,0,250,250,0,45.700237,4.909546,0.0,200.7,9,2,1.7,0,0.0,-1,0.0,0.0,0.0,0,0.0,0.294
17663,1626535277139,,,249,251,237,231,,-0.05,0.2,-2.84,0,3,5,0.21,,69,7419,10,32,40,0.616,0.0,666,4.52,13.2,0.0,1,31.4,1.17,7.8,0,0,0,1,0,,,,,,,,,,,,,,,,,,,,
17683,1626535277159,,,249,252,237,231,,-0.09,0.18,-2.93,0,3,5,0.2,,69,7408,10,32,40,0.616,0.0,662,4.47,13.2,0.0,1,31.4,2.29,7.8,0,0,0,1,0,,,,,,,,,,,,,,,,,,,,
17703,1626535277179,,,249,251,236,231,,-0.09,0.2,-3.01,0,1,3,0.22,,69,7413,10,32,40,0.616,0.0,666,4.54,13.2,0.0,1,31.4,2.29,7.8,0,0,0,1,0,,,,,,,,,,,,,,,,,,,,
17723,1626535277199,,,249,251,237,231,,-0.11,0.23,-3.02,0,1,3,0.26,,69,7408,10,32,39,0.615,0.0,662,4.48,13.2,0.0,1,31.0,2.29,7.8,0,0,0,1,0,,,,,,,,,,,,,,,,,,,,
17743,1626535277219,0,2,249,251,237,231,6,-0.11,0.19,-3.1,0,0,2,0.22,0,69,7408,10,32,39,0.615,0.0,671,4.33,13.0,0.0,1,31.0,2.29,7.8,0,0,0,1,0,0,250,250,0,45.700237,4.909546,0.0,200.7,9,2,1.7,0,0.0,-1,0.0,,0.0,0,0.0,0.2957
17763,1626535277239,,,249,253,237,231,,-0.11,0.17,-3.09,0,-1,-0,0.2,,69,7425,10,32,39,0.616,0.0,661,4.43,13.1,0.0,1,31.0,2.29,7.8,0,0,0,1,0,,,,,,,,,,,,,,,,,,,,
17783,1626535277259,,,249,253,236,231,,-0.1,0.17,-2.85,0,-3,-2,0.2,,69,7452,10,32,39,0.617,0.0,668,4.4,13.1,0.0,1,31.0,2.29,7.8,0,0,0,1,0,,,,,,,,,,,,,,,,,,,,
17803,1626535277279,,,249,253,237,231,,-0.11,0.12,-2.82,0,-3,-1,0.17,,69,7452,10,32,39,0.618,0.0,660,4.51,13.0,0.0,1,31.0,2.29,7.8,0,0,0,1,0,,,,,,,,,,,,,,,,,,,,
17823,1626535277299,,,249,253,237,231,,-0.09,0.07,-2.79,0,-4,-3,0.11,,69,7464,10,32,39,0.619,0.0,671,4.37,13.0,0.0,1,31.0,2.29,7.8,0,0,0,1,0,,,,,,,,,,,,,,,,,,,,
17843,1626535277319,0,0,249,253,236,231,6,-0.07,0.04,-2.58,-0,-5,-5,0.08,0,69,7491,10,32,39,0.62,0.0,660,4.39,13.0,0.0,1,31.0,2.29,7.8,0,0,0,1,0,0,250,250,0,45.700237,4.909546,0.0,200.7,9,2,1.7,0,0.0,-1,0.0,0.0,0.0,0,0.0,0.2974
17863,1626535277339,,,249,253,237,231,,-0.05,0.02,-2.38,-0,-5,-5,0.06,,69,7464,10,32,39,0.621,0.0,668,4.42,13.0,0.0,1,31.0,2.29,7.9,0,0,0,1,0,,,,,,,,,,,,,,,,,,,,
17883,1626535277359,,,249,252,237,231,,-0.05,-0.04,-2.37,-0,-5,-5,0.07,,69,7470,10,32,39,0.62,0.0,666,4.51,13.0,0.0,1,31.0,1.17,7.9,0,0,0,1,0,,,,,,,,,,,,,,,,,,,,
17903,1626535277379,,,249,253,237,231,,-0.02,-0.09,-2.32,-0,-6,-6,0.1,,69,7485,10,32,39,0.62,0.0,667,4.55,13.1,0.0,1,31.0,1.17,7.9,0,0,0,1,0,,,,,,,,,,,,,,,,,,,,
17923,1626535277397,,,249,253,237,231,,-0.0,-0.09,-2.14,-0,-7,-8,0.09,,69,7482,10,32,39,0.62,0.0,663,4.54,13.1,0.0,1,31.0,2.29,7.9,0,0,0,1,0,,,,,,,,,,,,,,,,,,,,
17943,1626535277417,1,0,249,253,236,231,6,0.01,-0.12,-1.97,-0,-7,-8,0.12,0,69,7446,10,32,39,0.62,0.0,672,4.42,13.0,0.0,1,31.0,1.17,7.9,0,0,0,1,0,0,250,250,0,45.700237,4.909546,0.0,200.7,9,2,1.7,0,0.0,-1,0.0,,0.0,0,0.0,0.299
17963,1626535277437,,,249,252,237,231,,0.03,-0.19,-1.99,-0,-6,-7,0.2,,69,7479,10,32,39,0.621,0.0,668,4.45,13.0,0.0,1,31.0,1.17,7.9,0,0,0,1,0,,,,,,,,,,,,,,,,,,,,
17983,1626535277457,,,249,253,237,231,,0.07,-0.23,-1.92,-0,-6,-8,0.24,,69,7458,10,32,39,0.621,0.0,672,4.48,13.0,0.0,1,31.0,1.17,7.9,0,0,0,1,0,,,,,,,,,,,,,,,,,,,,
18003,1626535277477,,,249,253,237,231,,0.08,-0.2,-1.77,-0,-7,-9,0.21,,69,7470,10,32,39,0.621,0.0,666,4.43,13.0,0.0,1,31.0,1.17,7.9,0,0,0,1,0,,,,,,,,,,,,,,,,,,,,
18023,1626535277499,,,249,253,237,231,,0.08,-0.2,-1.63,-0,-5,-8,0.22,,69,7449,10,32,39,0.621,0.0,667,4.6,13.2,0.0,1,31.0,2.23,7.9,0,0,0,1,0,,,,,,,,,,,,,,,,,,,,
18043,1626535277519,-0,3,249,253,237,231,6,0.1,-0.25,-1.8,-0,-4,-6,0.27,0,69,7452,10,32,39,0.621,0.0,662,4.48,13.0,0.0,1,31.0,1.17,7.9,0,0,0,1,0,0,250,250,0,45.700237,4.909546,0.0,200.7,9,2,1.7,0,0.0,-1,0.0,0.0,0.0,0,0.0,0.3007
18063,1626535277539,,,249,253,237,231,,0.11,-0.24,-1.73,-0,-4,-6,0.26,,69,7428,10,32,39,0.62,0.0,661,4.43,13.2,0.0,1,31.0,2.29,7.8,0,0,0,1,0,,,,,,,,,,,,,,,,,,,,
18083,1626535277559,,,249,252,237,231,,0.13,-0.16,-1.68,-0,-2,-5,0.21,,69,7434,10,32,39,0.619,0.0,665,4.43,13.1,0.0,1,31.0,2.23,7.8,0,0,0,1,0,,,,,,,,,,,,,,,,,,,,
18103,1626535277579,,,249,253,237,231,,0.12,-0.18,-1.85,-0,0,-2,0.22,,69,7449,10,32,39,0.618,0.0,658,4.52,13.2,0.0,1,31.0,2.29,7.8,0,0,0,1,0,,,,,,,,,,,,,,,,,,,,
18123,1626535277599,,,249,253,237,231,,0.11,-0.18,-2.02,-0,1,-2,0.21,,69,7425,10,32,39,0.618,0.0,661,4.51,13.1,0.0,1,31.0,2.29,7.8,0,0,0,1,0,,,,,,,,,,,,,,,,,,,,
18143,1626535277619,1,0,249,253,236,231,6,0.1,-0.1,-2.05,-0,1,-1,0.14,0,69,7449,10,32,39,0.618,0.0,659,4.49,13.2,0.0,1,31.0,2.23,7.8,0,0,0,1,0,0,250,250,0,45.700237,4.909546,0.0,200.7,9,2,1.7,0,0.0,-1,0.0,,0.0,0,0.0,0.3024
18163,1626535277639,,,249,252,237,231,,0.09,-0.04,-2.2,-0,3,1,0.1,,69,7437,10,32,39,0.617,0.0,655,4.54,13.2,0.0,1,31.0,2.23,7.9,0,0,0,1,0,,,,,,,,,,,,,,,,,,,,
18183,1626535277659,,,249,252,236,231,,0.07,-0.05,-2.33,0,4,4,0.08,,69,7416,10,32,39,0.617,0.0,660,4.55,13.2,0.0,1,31.0,2.23,7.9,0,0,0,1,0,,,,,,,,,,,,,,,,,,,,
18203,1626535277679,,,249,252,236,231,,0.04,0.01,-2.46,0,4,3,0.04,,69,7408,10,32,38,0.617,0.0,666,4.42,13.2,0.0,1,30.7,1.11,7.9,0,0,0,1,0,,,,,,,,,,,,,,,,,,,,
18223,1626535277699,,,249,251,237,231,,0.01,0.09,-2.54,0,3,4,0.09,,69,7422,10,32,39,0.617,0.0,661,4.5,13.2,0.0,1,31.0,1.17,7.9,0,0,0,1,0,,,,,,,,,,,,,,,,,,,,
18243,1626535277719,0,1,249,251,237,231,6,-0.02,0.1,-2.65,0,4,5,0.1,0,69,7416,10,32,38,0.616,0.0,667,4.52,13.2,0.0,1,30.7,2.29,7.9,0,0,0,1,0,0,250,250,0,45.700237,4.909546,0.0,200.7,9,2,1.7,0,0.0,-1,0.0,0.0,0.0,0,0.0,0.304
18263,1626535277739,,,249,252,236,231,,-0.04,0.05,-2.75,0,3,4,0.07,,69,7413,10,32,38,0.615,0.0,656,4.34,13.2,0.0,1,30.7,2.23,7.8,0,0,0,1,0,,,,,,,,,,,,,,,,,,,,
18283,1626535277759,,,249,251,236,231,,-0.04,0.08,-2.6,0,1,2,0.09,,69,7408,10,32,38,0.614,0.0,664,4.43,13.2,0.0,1,30.7,2.29,7.8,0,0,0,1,0,,,,,,,,,,,,,,,,,,,,
18303,1626535277779,,,249,251,236,231,,-0.06,0.06,-2.55,0,0,1,0.09,,69,7402,10,32,39,0.615,0.0,662,4.47,13.2,0.0,1,31.0,2.29,7.8,0,0,0,1,0,,,,,,,,,,,,,,,,,,,,
18323,1626535277799,,,249,252,237,231,,-0.03,0.02,-2.54,0,-1,0,0.03,,69,7370,10,32,39,0.614,0.0,663,4.4,13.1,0.0,1,31.0,2.29,7.8,0,0,0,1,0,,,,,,,,,,,,,,,,,,,,
18343,1626535277819,0,1,249,253,237,231,5,-0.0,0.01,-2.34,0,-2,-2,0.01,0,69,7370,10,32,39,0.614,0.0,656,4.47,13.0,0.0,1,31.0,2.29,7.8,0,0,0,1,0,0,250,250,0,45.700237,4.909546,0.0,200.7,9,2,1.7,0,0.0,-1,0.0,,0.0,0,0.0,0.3057
18363,1626535277839,,,249,253,236,231,,0.01,0.0,-2.16,0,-2,-2,0.01,,69,7376,10,32,39,0.613,0.0,667,4.4,13.0,0.0,1,31.0,2.29,7.8,0,0,0,1,0,,,,,,,,,,,,,,,,,,,,
18383,1626535277859,,,249,252,237,231,,0.03,-0.06,-2.3,0,-1,-1,0.06,,69,7352,10,32,39,0.613,0.0,656,4.47,13.1,0.0,1,31.0,1.17,7.8,0,0,0,1,0,,,,,,,,,,,,,,,,,,,,
18403,1626535277879,,,249,253,237,231,,0.03,-0.04,-2.29,0,-1,-1,0.05,,69,7358,10,32,39,0.612,0.0,659,4.6,13.2,0.0,1,31.0,2.29,7.8,0,0,0,1,0,,,,,,,,,,,,,,,,,,,,
18423,1626535277899,,,249,252,237,231,,0.04,0.03,-2.4,0,1,1,0.05,,69,7361,10,32,39,0.612,0.0,661,4.57,13.2,0.0,1,31.0,2.29,7.8,0,0,0,1,0,,,,,,,,,,,,,,,,,,,,
18443,1626535277919,0,2,249,253,237,231,5,0.01,0.02,-2.52,0,3,4,0.02,0,69,7361,10,32,39,0.611,0.0,655,4.47,13.2,0.0,1,31.0,1.17,7.8,0,0,0,1,0,0,250,250,0,45.700237,4.909546,0.0,200.7,9,2,1.7,0,0.0,-1,0.0,0.0,0.0,0,0.0,0.3074
18463,1626535277939,,,249,251,236,231,,-0.02,0.06,-2.63,0,3,3,0.06,,69,7350,10,32,39,0.61,0.0,660,4.51,13.2,0.0,1,31.0,2.29,7.7,0,0,0,1,0,,,,,,,,,,,,,,,,,,,,
18483,1626535277959,,,249,252,237,231,,-0.04,0.12,-2.67,0,2,3,0.13,,69,7367,10,32,39,0.61,0.0,660,4.52,13.2,0.0,1,31.0,2.29,7.7,0,0,0,1,0,,,,,,,,,,,,,,,,,,,,
18503,1626535277979,,,249,251,237,231,,-0.05,0.1,-2.77,0,2,4,0.11,,69,7355,10,32,39,0.61,0.0,661,4.42,13.2,0.0,1,31.0,2.29,7.7,0,0,0,1,0,,,,,,,,,,,,,,,,,,,,
18523,1626535277999,,,249,252,237,231,,-0.04,0.06,-2.71,0,0,1,0.07,,69,7344,10,32,39,0.61,0.0,663,4.54,13.0,0.0,1,31.0,2.29,7.7,0,0,0,1,0,,,,,,,,,,,,,,,,,,,,
18543,1626535278008,0,1,249,253,237,231,5,-0.02,0.04,-2.5,0,-2,-1,0.04,0,69,7364,10,32,39,0.61,0.0,663,4.44,13.1,0.0,1,31.0,2.29,7.7,0,0,0,1,0,0,250,250,0,45.700237,4.909546,0.0,200.7,9,2,1.7,0,0.0,-1,0.0,,0.0,0,0.0,0.309
18563,1626535278028,,,249,252,236,231,,0.01,-0.04,-2.44,0,-1,-0,0.04,,69,7358,10,32,39,0.611,0.0,661,4.4,13.0,0.0,1,31.0,1.17,7.8,0,0,0,1,0,,,,,,,,,,,,,,,,,,,,
18583,1626535278048,,,249,253,236,231,,0.04,-0.07,-2.34,0,-2,-1,0.08,,69,7373,10,32,39,0.612,0.0,668,4.6,13.1,0.0,1,31.0,2.29,7.8,0,0,0,1,0,,,,,,,,,,,,,,,,,,,,
18603,1626535278068,,,249,253,237,231,,0.05,-0.02,-2.22,-0,-1,-2,0.06,,69,7387,10,32,39,0.613,0.0,661,4.61,13.1,0.0,1,31.0,1.17,7.8,0,0,0,1,0,,,,,,,,,,,,,,,,,,,,
18623,1626535278096,,,249,253,237,231,,0.04,-0.05,-2.35,-0,1,-0,0.07,,69,7381,10,32,39,0.614,0.0,664,4.49,13.1,0.0,1,31.0,2.29,7.8,0,0,0,1,0,,,,,,,,,,,,,,,,,,,,
18643,1626535278116,-0,2,249,253,237,231,6,0.02,-0.03,-2.48,-0,2,1,0.04,0,69,7350,9,32,39,0.615,0.0,658,4.58,13.1,0.0,1,31.0,1.17,7.8,0,0,0,1,0,0,250,250,0,45.700237,4.909546,0.0,200.7,9,2,1.7,0,0.0,-1,0.0,0.0,0.0,0,0.0,0.3107
18663,1626535278136,,,249,253,237,231,,0.01,0.05,-2.6,0,2,2,0.05,,69,7344,9,32,38,0.616,0.0,657,4.64,13.2,0.0,1,30.7,1.11,7.6,0,0,0,1,0,,,,,,,,,,,,,,,,,,,,
18683,1626535278156,,,249,251,236,231,,-0.01,0.07,-2.7,0,3,4,0.07,,69,7350,9,32,38,0.617,0.0,665,4.55,13.2,0.0,1,30.7,2.23,7.6,0,0,0,1,0,,,,,,,,,,,,,,,,,,,,
18703,1626535278176,,,249,252,236,231,,-0.02,0.04,-2.8,0,3,3,0.05,,69,7332,9,32,38,0.617,0.0,657,4.53,13.2,0.0,1,30.7,2.23,7.6,0,0,0,1,0,,,,,,,,,,,,,,,,,,,,
18723,1626535278196,,,249,251,237,231,,-0.01,0.05,-2.59,0,0,1,0.05,,69,7301,9,32,38,0.618,0.0,663,4.42,13.0,0.0,1,30.7,2.23,7.6,0,0,0,1,0,,,,,,,,,,,,,,,,,,,,
18743,1626535278216,0,2,249,252,237,231,6,-0.01,-0.03,-2.44,0,-0,1,0.03,0,69,7315,9,32,37,0.618,0.0,657,4.43,13.1,0.0,1,30.4,2.18,7.6,0,0,0,1,0,0,250,250,0,45.700237,4.909546,0.0,200.7,9,2,1.7,0,0.0,-1,0.0,,0.0,0,0.0,0.3124
18763,1626535278236,,,249,252,237,231,,0.02,-0.07,-2.37,0,-1,-0,0.07,,69,7309,9,32,37,0.619,0.0,666,4.47,13.0,0.0,1,30.4,2.18,7.3,0,0,0,1,0,,,,,,,,,,,,,,,,,,,,
18783,1626535278256,,,249,253,236,231,,0.04,-0.02,-2.25,0,-1,-1,0.05,,69,7284,9,32,37,0.619,0.0,657,4.57,13.1,0.0,1,30.4,2.18,7.3,0,0,0,1,0,,,,,,,,,,,,,,,,,,,,
18803,1626535278276,,,249,253,236,231,,0.02,-0.03,-2.39,0,2,1,0.04,,69,7284,9,32,37,0.619,0.0,658,4.5,13.1,0.0,1,30.4,2.18,7.3,0,0,0,1,0,,,,,,,,,,,,,,,,,,,,
18823,1626535278296,,,249,253,237,231,,-0.02,0.0,-2.51,0,2,2,0.02,,69,7259,9,32,37,0.619,0.0,654,4.48,13.2,0.0,1,30.4,2.18,7.3,0,0,0,1,0,,,,,,,,,,,,,,,,,,,,
18843,1626535278316,0,0,249,251,236,231,6,-0.03,0.05,-2.44,0,1,2,0.05,0,69,7236,9,32,37,0.619,0.0,654,4.43,13.1,0.0,1,30.4,2.18,7.3,0,0,0,1,0,0,250,250,0,45.700237,4.909546,0.0,200.7,9,2,1.7,0,0.0,-1,0.0,0.0,0.0,0,0.0,0.314
18863,1626535278336,,,249,251,236,231,,-0.0,-0.0,-2.4,0,0,1,0.0,,69,7214,9,32,37,0.619,0.0,666,4.41,13.1,0.0,1,30.4,2.18,7.3,0,0,0,1,0,,,,,,,,,,,,,,,,,,,,
18883,1626535278356,,,249,253,237,231,,0.03,-0.0,-2.22,0,-1,-1,0.03,,69,7172,9,32,37,0.619,0.0,656,4.51,13.0,0.0,1,30.4,1.06,7.3,0,0,0,1,0,,,,,,,,,,,,,,,,,,,,
18903,1626535278376,,,249,253,237,231,,0.0,-0.02,-2.35,-0,1,0,0.02,,69,7148,9,32,37,0.619,0.0,657,4.48,13.1,0.0,1,30.4,2.18,7.3,0,0,0,1,0,,,,,,,,,,,,,,,,,,,,
18923,1626535278396,,,249,252,237,231,,-0.03,0.0,-2.48,-0,1,1,0.03,,69,7104,9,32,37,0.619,0.0,655,4.4,13.2,0.0,1,30.4,2.18,7.3,0,0,0,1,0,,,,,,,,,,,,,,,,,,,,
18943,1626535278416,0,2,249,251,237,231,6,-0.0,-0.02,-2.29,0,-1,-0,0.02,0,70,7099,9,32,37,0.619,0.0,655,4.41,13.2,0.0,1,30.4,2.18,7.3,0,0,0,1,0,0,250,250,0,45.700237,4.909546,0.0,200.7,9,2,1.7,0,0.0,-1,0.0,,0.0,0,0.0,0.3157
18963,1626535278436,,,249,251,236,231,,0.04,-0.05,-2.23,-0,-1,-1,0.06,,69,7046,9,32,37,0.62,0.0,660,4.45,13.0,0.0,1,30.4,2.18,7.1,0,0,0,1,0,,,,,,,,,,,,,,,,,,,,
18983,1626535278456,,,249,251,237,231,,-0.0,0.01,-2.36,-0,1,1,0.01,,69,7027,9,32,37,0.621,0.0,651,4.53,13.2,0.0,1,30.4,1.06,7.1,0,0,0,1,0,,,,,,,,,,,,,,,,,,,,
19003,1626535278476,,,249,253,236,231,,-0.01,-0.0,-2.49,0,1,0,0.01,,69,6985,9,32,37,0.62,0.0,656,4.5,13.2,0.0,1,30.3,2.18,7.1,0,0,0,1,0,,,,,,,,,,,,,,,,,,,,
19023,1626535278496,,,249,251,237,231,,0.04,-0.02,-2.3,0,-0,-1,0.04,,70,6947,9,32,37,0.621,0.0,660,4.51,13.1,0.0,1,30.3,2.18,7.1,0,0,0,1,0,,,,,,,,,,,,,,,,,,,,
19043,1626535278516,0,2,249,251,237,231,6,-0.02,0.0,-2.43,-0,2,2,0.02,0,69,6913,9,32,37,0.621,0.0,653,4.57,13.2,0.0,1,30.2,2.18,7.1,0,0,0,1,0,0,250,250,0,45.700237,4.909546,0.0,200.7,9,2,1.7,0,0.0,-1,0.0,0.0,0.0,0,0.0,0.3174
19063,1626535278536,,,249,253,236,231,,0.02,-0.02,-2.24,0,-1,-1,0.03,,70,6853,9,32,37,0.621,0.0,650,4.41,13.1,0.0,1,30.2,2.18,7.1,0,0,0,1,0,,,,,,,,,,,,,,,,,,,,
19083,1626535278556,,,249,251,237,231,,-0.02,0.01,-2.37,-0,1,1,0.02,,70,6850,9,32,38,0.621,0.0,652,4.48,13.1,0.0,1,30.5,1.11,7.1,0,0,0,1,0,,,,,,,,,,,,,,,,,,,,
19103,1626535278576,,,249,251,237,231,,0.02,0.0,-2.19,0,-2,-1,0.02,,70,6768,9,32,38,0.621,0.0,645,4.47,13.2,0.0,1,30.4,2.23,7.1,0,0,0,1,0,,,,,,,,,,,,,,,,,,,,
19123,1626535278596,,,249,253,237,231,,-0.02,0.01,-2.33,-0,1,1,0.02,,70,6781,9,32,38,0.621,0.0,643,4.51,13.1,0.0,1,30.4,1.11,7.1,0,0,0,1,0,,,,,,,,,,,,,,,,,,,,
19143,1626535278616,0,2,249,253,237,231,6,0.02,0.02,-2.18,-0,-1,-1,0.03,0,70,6706,9,32,37,0.621,0.0,640,4.46,13.0,0.0,1,30.0,2.18,7.1,0,0,0,1,0,0,250,250,0,45.700237,4.909546,0.0,200.7,9,2,1.7,0,0.0,-1,0.0,,0.0,0,0.0,0.3191
19163,1626535278636,,,249,252,236,231,,-0.03,-0.02,-2.32,-0,1,1,0.04,,70,6696,9,32,38,0.622,0.0,647,4.56,13.2,0.0,1,30.3,1.11,6.7,0,0,0,1,0,,,,,,,,,,,,,,,,,,,,
19183,1626535278656,,,249,251,237,231,,0.02,0.02,-2.14,-0,-2,-2,0.03,,70,6609,9,32,38,0.62,0.0,648,4.41,13.1,0.0,1,30.2,2.23,6.7,0,0,0,1,0,,,,,,,,,,,,,,,,,,,,
19203,1626535278676,,,249,252,237,231,,-0.05,0.0,-2.28,-0,-0,0,0.05,,70,6510,9,32,38,0.621,0.0,631,4.48,13.3,0.0,1,30.1,2.23,6.7,0,0,0,1,0,,,,,,,,,,,,,,,,,,,,
19223,1626535278697,,,249,253,237,231,,-0.03,0.01,-2.42,-0,2,2,0.03,,70,6512,9,32,38,0.622,0.0,637,4.44,13.1,0.0,1,30.1,1.11,6.7,0,0,0,1,0,,,,,,,,,,,,,,,,,,,,
19243,1626535278717,0,1,249,253,237,231,6,0.02,0.01,-2.23,0,-3,-2,0.02,0,70,6355,9,32,38,0.622,0.0,630,4.45,13.1,0.0,1,29.9,2.23,6.7,0,0,0,1,0,0,250,250,0,45.700237,4.909546,0.0,200.7,9,2,1.7,0,0.0,-1,0.0,0.0,0.0,0,0.0,0.3207
19263,1626535278737,,,249,252,237,231,,0.05,-0.04,-2.06,-0,-5,-4,0.06,,70,6245,9,32,38,0.621,0.0,621,4.5,13.2,0.0,1,29.7,2.23,6.5,0,0,0,1,0,,,,,,,,,,,,,,,,,,,,
19283,1626535278757,,,249,253,237,231,,0.01,-0.07,-2.2,-0,-4,-3,0.07,,70,6101,9,32,39,0.622,0.0,618,4.48,13.1,0.0,1,29.9,2.29,6.5,0,0,0,1,0,,,,,,,,,,,,,,,,,,,,
19303,1626535278777,,,249,253,237,231,,-0.04,-0.11,-2.34,-0,0,-0,0.12,,70,5948,9,32,40,0.622,0.0,608,4.52,13.3,0.0,1,29.7,2.31,6.5,0,0,0,1,0,,,,,,,,,,,,,,,,,,,,
19323,1626535278796,,,249,253,236,231,,-0.03,-0.17,-2.47,-1,2,-1,0.18,,70,5778,8,32,41,0.623,0.0,591,4.45,13.2,0.0,1,29.6,2.38,6.5,0,0,0,1,0,,,,,,,,,,,,,,,,,,,,
19343,1626535278816,0,3,249,253,237,231,6,0.06,-0.17,-2.28,-1,-3,-6,0.18,0,70,5597,9,32,42,0.621,0.0,570,4.48,13.0,0.0,1,29.4,1.34,6.5,0,0,0,1,0,0,250,250,0,45.700237,4.909546,0.0,200.7,9,2,1.7,0,0.0,-1,0.0,,0.0,0,0.0,0.3224
19363,1626535278836,,,249,253,237,231,,0.05,-0.07,-2.1,-1,-4,-7,0.09,,70,5466,8,32,43,0.623,0.0,552,4.49,13.2,0.0,1,29.4,2.52,6.4,0,0,0,1,0,,,,,,,,,,,,,,,,,,,,
19383,1626535278856,,,249,252,237,231,,-0.02,-0.13,-2.25,-1,3,-0,0.13,,70,5341,8,32,44,0.624,0.0,543,4.41,13.2,0.0,1,29.3,2.59,6.4,0,0,0,1,0,,,,,,,,,,,,,,,,,,,,
19403,1626535278876,,,249,253,237,231,,0.04,-0.06,-2.07,-1,-6,-7,0.07,,70,5241,8,32,45,0.624,0.0,528,4.48,13.2,0.0,1,29.4,2.64,6.4,0,0,0,1,0,,,,,,,,,,,,,,,,,,,,
19423,1626535278895,,,249,251,237,231,,-0.0,-0.12,-2.22,-1,1,0,0.12,,70,5092,8,32,46,0.625,0.0,519,4.43,13.2,0.0,1,29.4,2.72,6.4,0,0,0,1,0,,,,,,,,,,,,,,,,,,,,
19443,1626535278915,0,1,249,253,237,231,6,0.01,-0.07,-2.05,-1,-4,-4,0.07,0,70,4984,8,32,47,0.626,0.0,508,4.44,13.3,0.0,1,29.4,2.75,6.4,0,0,0,1,0,0,250,250,0,45.700237,4.909546,0.0,200.7,9,2,1.7,0,0.0,-1,0.0,0.0,0.0,0,0.0,0.324
19463,1626535278935,,,249,252,236,231,,0.03,-0.06,-2.2,-1,-3,-3,0.07,,70,4953,9,32,48,0.626,0.0,492,4.52,13.3,0.0,1,29.3,2.77,6.3,0,0,0,1,0,,,,,,,,,,,,,,,,,,,,
19483,1626535278955,,,249,253,237,231,,0.05,-0.09,-2.34,-1,-3,-2,0.1,,70,4766,8,32,48,0.627,0.0,481,4.58,13.3,0.0,1,27.0,2.67,6.3,0,0,0,1,0,,,,,,,,,,,,,,,,,,,,
19503,1626535278975,,,249,253,236,231,,0.06,-0.11,-2.46,-0,-2,-2,0.13,,70,4619,8,32,49,0.63,0.0,460,4.62,13.3,0.0,1,25.5,2.6,6.3,0,0,0,1,0,,,,,,,,,,,,,,,,,,,,
19523,1626535278995,,,249,252,236,231,,0.08,-0.13,-2.58,-0,-2,-1,0.15,,70,4467,8,32,49,0.631,0.0,437,4.53,13.3,0.0,1,23.7,1.39,6.3,0,0,0,1,0,,,,,,,,,,,,,,,,,,,,
19543,1626535279007,0,3,249,253,237,231,6,0.1,-0.15,-2.69,-0,-1,-0,0.18,0,70,4388,8,32,50,0.63,0.0,437,4.42,13.0,0.0,1,23.0,2.47,6.3,0,0,0,1,0,0,250,250,0,45.700237,4.909546,0.0,200.7,9,2,1.7,0,0.0,-1,0.0,,0.0,0,0.0,0.3257
19563,1626535279027,,,249,253,237,231,,0.12,-0.17,-2.79,-0,0,0,0.21,,70,4512,8,32,51,0.63,0.0,423,4.45,13.1,0.0,1,24.8,2.55,5.1,0,0,0,1,0,,,,,,,,,,,,,,,,,,,,
19583,1626535279047,,,249,253,237,231,,0.14,-0.2,-2.88,-0,1,1,0.24,,70,4473,8,32,51,0.63,0.0,433,4.47,13.0,0.0,1,24.3,1.41,5.1,0,0,0,1,0,,,,,,,,,,,,,,,,,,,,
19603,1626535279067,,,249,253,237,231,,0.16,-0.21,-2.97,-0,2,1,0.26,,70,4458,8,32,52,0.63,0.0,426,4.51,13.0,0.0,1,24.4,1.39,5.1,0,0,0,1,0,,,,,,,,,,,,,,,,,,,,
19623,1626535279097,,,249,252,237,231,,0.17,-0.21,-3.04,-0,3,1,0.27,,70,4516,8,32,52,0.629,0.0,427,4.53,13.1,0.0,1,25.1,2.56,5.1,0,0,0,1,0,,,,,,,,,,,,,,,,,,,,
19643,1626535279117,-0,2,249,253,237,231,6,0.19,-0.24,-3.12,-0,3,1,0.31,0,70,4421,8,32,53,0.629,0.0,434,4.43,13.0,0.0,1,24.2,1.37,5.1,0,0,0,1,0,0,250,250,0,45.700237,4.909546,0.0,200.7,9,2,1.7,0,0.0,-1,0.0,0.0,0.0,0,0.0,0.3274
19663,1626535279137,,,249,253,236,231,,0.21,-0.28,-3.18,-0,3,1,0.35,,70,4479,8,32,53,0.627,0.0,420,4.52,13.0,0.0,1,24.9,1.41,5.0,0,0,0,1,0,,,,,,,,,,,,,,,,,,,,
19683,1626535279157,,,249,252,237,231,,0.21,-0.29,-3.25,-0,4,2,0.36,,70,4484,8,32,54,0.627,0.0,429,4.54,13.1,0.0,1,25.1,1.41,5.0,0,0,0,1,0,,,,,,,,,,,,,,,,,,,,
19703,1626535279177,,,249,252,237,231,,0.21,-0.3,-3.28,-0,4,2,0.37,,70,4423,8,32,54,0.626,0.0,429,4.53,13.1,0.0,1,24.7,1.39,5.0,0,0,0,1,0,,,,,,,,,,,,,,,,,,,,
19723,1626535279197,,,249,253,237,231,,0.21,-0.28,-3.27,-0,4,1,0.35,,70,4500,8,32,55,0.623,0.0,422,4.45,13.2,0.0,1,25.7,1.45,5.0,0,0,0,1,0,,,,,,,,,,,,,,,,,,,,
19743,1626535279217,-1,2,249,253,237,231,6,0.21,-0.27,-3.27,-0,4,1,0.34,0,70,4468,8,32,55,0.621,0.0,427,4.55,13.1,0.0,1,25.3,1.42,5.0,0,0,0,1,0,0,250,250,0,45.700237,4.909546,0.0,200.7,9,2,1.7,0,0.0,-1,0.0,,0.0,0,0.0,0.329
19763,1626535279237,,,249,252,237,231,,0.2,-0.26,-3.26,-0,4,1,0.33,,70,4479,8,32,55,0.619,0.0,416,4.52,13.1,0.0,1,25.4,2.55,5.1,0,0,0,1,0,,,,,,,,,,,,,,,,,,,,
19783,1626535279257,,,249,251,237,231,,0.21,-0.27,-3.32,-0,5,1,0.34,,70,4564,8,32,55,0.619,0.0,435,4.56,13.1,0.0,1,26.5,1.48,5.1,0,0,0,1,0,,,,,,,,,,,,,,,,,,,,
19803,1626535279277,,,249,252,237,231,,0.22,-0.29,-3.37,-0,5,0,0.37,,70,4507,8,32,55,0.619,0.0,427,4.55,13.1,0.0,1,25.9,1.46,5.1,0,0,0,1,0,,,,,,,,,,,,,,,,,,,,
19823,1626535279297,,,249,253,237,231,,0.24,-0.32,-3.42,-0,5,0,0.4,,70,4611,8,32,56,0.619,0.0,435,4.5,13.0,0.0,1,27.4,1.52,5.1,0,0,0,1,0,,,,,,,,,,,,,,,,,,,,
19843,1626535279317,-0,3,249,252,237,231,6,0.24,-0.32,-3.46,-0,5,1,0.39,0,70,4568,8,32,56,0.619,0.0,440,4.51,13.1,0.0,1,26.9,1.49,5.1,0,0,0,1,0,0,250,250,0,45.700237,4.909546,0.0,200.7,9,2,1.7,0,0.0,-1,0.0,0.0,0.0,0,0.0,0.3307
19863,1626535279337,,,249,253,237,231,,0.22,-0.29,-3.5,-0,6,2,0.37,,70,4633,8,32,56,0.619,0.0,436,4.47,13.1,0.0,1,27.7,2.64,5.5,0,0,0,1,0,,,,,,,,,,,,,,,,,,,,
19883,1626535279357,,,249,253,237,231,,0.21,-0.26,-3.54,-0,6,2,0.34,,70,4650,8,32,56,0.619,0.0,445,4.53,13.0,0.0,1,27.9,2.65,5.5,0,0,0,1,0,,,,,,,,,,,,,,,,,,,,
19903,1626535279377,,,249,253,237,231,,0.17,-0.24,-3.53,0,6,3,0.29,,70,4661,8,32,56,0.62,0.0,437,4.44,13.1,0.0,1,28.0,2.66,5.5,0,0,0,1,0,,,,,,,,,,,,,,,,,,,,
19923,1626535279397,,,249,253,237,231,,0.14,-0.2,-3.26,-0,6,3,0.24,,70,4731,8,32,56,0.62,0.0,445,4.48,13.3,0.0,1,28.9,2.71,5.5,0,0,0,1,0,,,,,,,,,,,,,,,,,,,,
19943,1626535279417,0,0,249,253,237,231,6,0.12,-0.14,-3.08,-0,5,2,0.18,0,70,4703,8,32,56,0.62,0.0,455,4.54,13.3,0.0,1,28.6,1.58,5.5,0,0,0,1,0,0,250,250,0,45.700237,4.909546,0.0,200.7,9,2,1.7,0,0.0,-1,0.0,,0.0,0,0.0,0.3324
19963,1626535279437,,,249,251,237,231,,0.13,-0.11,-2.99,-0,4,1,0.17,,70,4746,8,32,56,0.621,0.0,455,4.44,13.3,0.0,1,29.1,2.72,5.9,0,0,0,1,0,,,,,,,,,,,,,,,,,,,,
19983,1626535279457,,,249,252,236,231,,0.14,-0.15,-3.04,0,4,1,0.21,,70,4748,8,32,56,0.621,0.0,460,4.55,13.1,0.0,1,29.1,2.72,5.9,0,0,0,1,0,,,,,,,,,,,,,,,,,,,,
20003,1626535279477,,,249,253,236,231,,0.14,-0.16,-3.11,-0,4,1,0.22,,70,4810,8,32,56,0.622,0.0,463,4.4,13.1,0.0,1,30.0,2.76,5.9,0,0,0,1,0,,,,,,,,,,,,,,,,,,,,
20023,1626535279497,,,249,253,236,231,,0.11,-0.15,-2.98,-0,3,1,0.19,,70,4766,8,32,56,0.623,0.0,459,4.47,13.3,0.0,1,29.4,2.74,5.9,0,0,0,1,0,,,,,,,,,,,,,,,,,,,,
20043,1626535279517,0,2,249,253,237,231,6,0.07,-0.13,-2.87,-0,2,1,0.15,0,70,4775,8,32,56,0.624,0.0,465,4.55,13.3,0.0,1,29.5,2.74,5.9,0,0,0,1,0,0,250,250,0,45.700237,4.909546,0.0,200.7,9,2,1.7,0,0.0,-1,0.0,0.0,0.0,0,0.0,0.334
20063,1626535279537,,,249,252,236,231,,0.07,-0.08,-2.87,-0,3,1,0.1,,70,4758,8,32,56,0.624,0.0,455,4.45,13.3,0.0,1,29.3,2.73,6.0,0,0,0,1,0,,,,,,,,,,,,,,,,,,,,
20083,1626535279557,,,249,252,237,231,,0.09,-0.07,-2.95,0,3,1,0.12,,70,4808,8,32,56,0.624,0.0,460,4.48,13.3,0.0,1,29.9,1.65,6.0,0,0,0,1,0,,,,,,,,,,,,,,,,,,,,
20103,1626535279577,,,249,253,237,231,,0.1,-0.07,-2.93,0,3,1,0.13,,70,4823,8,32,56,0.625,0.0,480,4.38,13.1,0.0,1,30.1,2.77,6.0,0,0,0,1,0,,,,,,,,,,,,,,,,,,,,
20123,1626535279597,,,249,253,237,231,,0.07,-0.06,-2.74,0,1,1,0.1,,70,4822,8,32,56,0.626,0.0,467,4.58,13.3,0.0,1,30.1,2.77,6.0,0,0,0,1,0,,,,,,,,,,,,,,,,,,,,
20143,1626535279617,-1,2,249,253,236,231,5,0.05,-0.06,-2.62,0,1,0,0.08,0,70,4797,8,32,57,0.625,0.0,463,4.53,13.3,0.0,1,30.1,2.76,6.0,0,0,0,1,0,0,250,250,0,45.700237,4.909546,0.0,200.7,9,2,1.7,0,0.0,-1,0.0,,0.0,0,0.0,0.3357
20163,1626535279637,,,249,251,237,231,,0.05,-0.03,-2.73,0,1,0,0.06,,70,4808,8,32,56,0.626,0.0,465,4.51,13.2,0.0,1,29.9,1.65,6.1,0,0,0,1,0,,,,,,,,,,,,,,,,,,,,
20183,1626535279657,,,249,252,237,231,,0.07,-0.03,-2.82,0,2,1,0.08,,70,4762,8,32,57,0.626,0.0,460,4.52,13.1,0.0,1,29.5,2.73,6.1,0,0,0,1,0,,,,,,,,,,,,,,,,,,,,
20203,1626535279677,,,249,253,237,231,,0.09,-0.05,-2.86,0,2,1,0.11,,70,4757,8,32,57,0.626,0.0,467,4.44,13.1,0.0,1,29.6,1.62,6.1,0,0,0,1,0,,,,,,,,,,,,,,,,,,,,
20223,1626535279697,,,249,253,236,231,,0.07,-0.05,-2.72,0,1,1,0.09,,70,4783,8,32,56,0.625,0.0,466,4.46,13.2,0.0,1,29.6,2.74,6.1,0,0,0,1,0,,,,,,,,,,,,,,,,,,,,
20243,1626535279717,0,1,249,253,236,231,5,0.04,-0.04,-2.6,0,1,1,0.06,0,70,4762,8,32,57,0.625,0.0,456,4.46,13.3,0.0,1,29.6,2.73,6.1,0,0,0,1,0,0,250,250,0,45.700237,4.909546,0.0,200.7,9,2,1.7,0,0.0,-1,0.0,0.0,0.0,0,0.0,0.3374
20263,1626535279737,,,249,252,236,231,,0.03,-0.01,-2.61,0,1,1,0.03,,70,4766,8,32,57,0.626,0.0,463,4.39,13.3,0.0,1,29.7,2.74,5.9,0,0,0,1,0,,,,,,,,,,,,,,,,,,,,
20283,1626535279757,,,249,251,236,231,,0.03,0.02,-2.64,0,1,1,0.04,,70,4730,8,32,57,0.626,0.0,448,4.47,13.2,0.0,1,29.2,2.71,5.9,0,0,0,1,0,,,,,,,,,,,,,,,,,,,,
20303,1626535279777,,,249,253,236,231,,0.06,-0.01,-2.74,0,2,1,0.06,,70,4764,8,32,57,0.626,0.0,458,4.56,13.1,0.0,1,29.7,1.63,5.9,0,0,0,1,0,,,,,,,,,,,,,,,,,,,,
20323,1626535279797,,,249,253,237,231,,0.07,-0.04,-2.82,0,1,1,0.08,,70,4734,8,32,56,0.625,0.0,466,4.56,13.1,0.0,1,29.0,2.71,5.9,0,0,0,1,0,,,,,,,,,,,,,,,,,,,,
20343,1626535279817,0,3,249,253,237,231,5,0.05,-0.04,-2.91,0,2,2,0.06,0,70,4752,8,32,57,0.625,0.0,456,4.5,13.1,0.0,1,29.5,2.73,5.9,0,0,0,1,0,0,250,250,0,45.700237,4.909546,0.0,200.7,9,2,1.7,0,0.0,-1,0.0,,0.0,0,0.0,0.339
20363,1626535279837,,,249,253,237,231,,0.01,-0.05,-2.84,0,1,2,0.05,,70,4767,8,32,56,0.625,0.0,461,4.58,13.3,0.0,1,29.4,2.74,6.0,0,0,0,1,0,,,,,,,,,,,,,,,,,,,,
20383,1626535279857,,,249,251,237,231,,-0.01,-0.02,-2.81,0,2,2,0.02,,70,4746,8,32,57,0.625,0.0,452,4.46,13.3,0.0,1,29.4,2.72,6.0,0,0,0,1,0,,,,,,,,,,,,,,,,,,,,
20403,1626535279877,,,249,253,237,231,,0.0,0.01,-2.87,0,2,1,0.01,,70,4774,8,32,57,0.625,0.0,456,4.44,13.3,0.0,1,29.8,2.74,6.0,0,0,0,1,0,,,,,,,,,,,,,,,,,,,,
20423,1626535279896,,,249,253,237,231,,0.03,-0.01,-2.96,0,2,1,0.03,,70,4779,8,32,57,0.624,0.0,467,4.39,13.0,0.0,1,29.9,1.63,6.0,0,0,0,1,0,,,,,,,,,,,,,,,,,,,,
20443,1626535279916,-0,2,249,253,237,231,5,0.03,-0.03,-3.02,0,1,1,0.05,0,70,4805,8,32,56,0.624,0.0,463,4.49,13.2,0.0,1,29.9,2.75,6.0,0,0,0,1,0,0,250,250,0,45.700237,4.909546,0.0,200.7,9,2,1.7,0,0.0,-1,0.0,0.0,0.0,0,0.0,0.3407
20463,1626535279936,,,249,253,237,231,,0.02,-0.03,-2.93,0,0,1,0.04,,70,4791,8,32,57,0.625,0.0,471,4.48,13.3,0.0,1,30.0,2.75,6.1,0,0,0,1,0,,,,,,,,,,,,,,,,,,,,
20483,1626535279956,,,249,253,237,231,,-0.02,-0.03,-2.91,0,1,1,0.03,,70,4781,8,32,57,0.625,0.0,465,4.53,13.3,0.0,1,29.9,2.74,6.1,0,0,0,1,0,,,,,,,,,,,,,,,,,,,,
20503,1626535279976,,,249,252,236,231,,-0.01,-0.01,-2.92,0,1,1,0.02,,70,4733,8,32,57,0.625,0.0,457,4.63,13.3,0.0,1,29.3,1.6,6.1,0,0,0,1,0,,,,,,,,,,,,,,,,,,,,
20523,1626535279996,,,249,253,236,231,,0.0,-0.01,-3.0,0,1,1,0.01,,70,4778,8,32,57,0.624,0.0,464,4.43,13.1,0.0,1,29.8,1.64,6.1,0,0,0,1,0,,,,,,,,,,,,,,,,,,,,
20543,1626535280006,0,1,249,253,237,231,5,0.03,-0.05,-3.03,0,1,1,0.06,0,70,4803,8,32,57,0.623,0.0,471,4.44,13.1,0.0,1,30.2,2.75,6.1,0,0,0,1,0,0,250,250,0,45.700237,4.909546,0.0,200.7,9,2,1.7,0,0.0,-1,0.0,,0.0,0,0.0,0.3424
20563,1626535280026,,,249,253,236,231,,0.02,-0.04,-2.95,0,0,1,0.04,,70,4797,8,32,57,0.624,0.0,465,4.52,13.3,0.0,1,30.1,2.75,6.0,0,0,0,1,0,,,,,,,,,,,,,,,,,,,,
20583,1626535280046,,,249,253,237,231,,-0.01,-0.04,-2.87,0,-0,0,0.05,,70,4790,8,32,57,0.624,0.0,472,4.53,13.3,0.0,1,30.0,2.75,6.0,0,0,0,1,0,,,,,,,,,,,,,,,,,,,,
20603,1626535280066,,,249,251,237,231,,-0.01,-0.04,-2.85,0,0,-0,0.04,,70,4761,8,32,57,0.624,0.0,464,4.45,13.3,0.0,1,29.6,2.73,6.0,0,0,0,1,0,,,,,,,,,,,,,,,,,,,,
20623,1626535280094,,,249,253,236,231,,0.01,-0.02,-2.94,0,0,-0,0.02,,70,4763,8,32,57,0.624,0.0,460,4.46,13.3,0.0,1,29.6,2.73,6.0,0,0,0,1,0,,,,,,,,,,,,,,,,,,,,
20643,1626535280114,-1,2,249,253,237,231,6,0.03,-0.05,-3.02,0,0,0,0.06,0,70,4790,8,32,57,0.625,0.0,471,4.4,13.0,0.0,1,30.0,1.64,6.0,0,0,0,1,0,0,250,250,0,45.700237,4.909546,0.0,200.7,9,2,1.7,0,0.0,-1,0.0,0.0,0.0,0,0.0,0.344
20663,1626535280134,,,249,253,236,231,,0.04,-0.05,-3.03,0,-0,0,0.06,,70,4775,8,32,57,0.625,0.0,457,4.44,13.2,0.0,1,29.8,2.74,6.0,0,0,0,1,0,,,,,,,,,,,,,,,,,,,,
20683,1626535280154,,,249,253,236,231,,0.01,-0.03,-2.88,0,-1,0,0.03,,70,4815,8,32,57,0.626,0.0,472,4.49,13.2,0.0,1,30.3,2.76,6.0,0,0,0,1,0,,,,,,,,,,,,,,,,,,,,
20703,1626535280174,,,249,253,237,231,,-0.01,-0.02,-2.8,0,-1,-1,0.02,,70,4822,8,32,57,0.627,0.0,475,4.5,13.3,0.0,1,30.4,2.77,6.0,0,0,0,1,0,,,,,,,,,,,,,,,,,,,,
20723,1626535280196,,,249,253,237,231,,0.01,-0.01,-2.89,0,-0,-0,0.02,,70,4836,8,32,57,0.626,0.0,464,4.5,13.3,0.0,1,30.6,2.77,6.0,0,0,0,1,0,,,,,,,,,,,,,,,,,,,,
20743,1626535280216,-1,2,249,253,236,231,6,0.03,-0.04,-2.97,0,1,0,0.05,0,70,4841,8,32,57,0.627,0.0,484,4.47,13.0,0.0,1,30.7,1.67,6.0,0,0,0,1,0,0,250,250,0,45.700237,4.909546,0.0,200.7,9,2,1.7,0,0.0,-1,0.0,,0.0,0,0.0,0.3457
20763,1626535280236,,,249,253,237,231,,0.03,-0.01,-2.87,0,-0,1,0.03,,70,4806,8,32,57,0.627,0.0,466,4.5,13.2,0.0,1,30.2,2.76,6.1,0,0,0,1,0,,,,,,,,,,,,,,,,,,,,
20783,1626535280256,,,249,253,236,231,,0.0,-0.0,-2.71,0,-1,-0,0.0,,70,4781,8,32,58,0.628,0.0,459,4.48,13.3,0.0,1,30.2,2.74,6.1,0,0,0,1,0,,,,,,,,,,,,,,,,,,,,
20803,1626535280276,,,249,252,237,231,,-0.01,0.0,-2.65,0,-1,-1,0.01,,70,4763,8,32,58,0.629,0.0,466,4.56,13.3,0.0,1,29.9,1.62,6.1,0,0,0,1,0,,,,,,,,,,,,,,,,,,,,
20823,1626535280298,,,249,253,237,231,,0.01,-0.0,-2.75,0,-1,-1,0.01,,70,4831,8,32,58,0.628,0.0,462,4.5,13.1,0.0,1,31.1,1.67,6.1,0,0,0,1,0,,,,,,,,,,,,,,,,,,,,
20843,1626535280318,-0,2,249,253,237,231,5,0.03,-0.03,-2.85,0,-0,0,0.05,0,70,4816,8,32,58,0.628,0.0,480,4.48,13.1,0.0,1,30.6,2.76,6.1,0,0,0,1,0,0,250,250,0,45.700237,4.909546,0.0,200.7,9,2,1.7,0,0.0,-1,0.0,0.0,0.0,0,0.0,0.3474
20863,1626535280338,,,249,253,236,231,,0.03,-0.02,-2.83,0,-1,0,0.04,,70,4770,8,32,57,0.628,0.0,472,4.53,13.3,0.0,1,29.7,2.74,6.1,0,0,0,1,0,,,,,,,,,,,,,,,,,,,,
20883,1626535280358,,,249,253,236,231,,0.0,-0.02,-2.65,0,-1,-0,0.02,,70,4815,8,32,57,0.628,0.0,457,4.48,13.3,0.0,1,30.3,2.76,6.1,0,0,0,1,0,,,,,,,,,,,,,,,,,,,,
20903,1626535280378,,,249,251,237,231,,0.0,-0.0,-2.67,0,-1,-1,0.0,,70,4837,8,32,58,0.628,0.0,468,4.46,13.3,0.0,1,30.9,2.77,6.1,0,0,0,1,0,,,,,,,,,,,,,,,,,,,,
20923,1626535280396,,,249,253,237,231,,0.03,-0.01,-2.77,0,-1,-0,0.03,,70,4841,8,32,58,0.627,0.0,465,4.47,13.1,0.0,1,31.0,1.66,6.1,0,0,0,1,0,,,,,,,,,,,,,,,,,,,,
20943,1626535280416,-1,2,249,253,236,231,6,0.04,-0.03,-2.87,0,-0,0,0.05,0,70,4834,8,32,58,0.627,0.0,472,4.48,13.0,0.0,1,30.9,2.77,6.1,0,0,0,1,0,0,250,250,0,45.700237,4.909546,0.0,200.7,9,2,1.7,0,0.0,-1,0.0,,0.0,0,0.0,0.349
20963,1626535280436,,,249,253,237,231,,0.03,-0.02,-2.74,0,-1,0,0.03,,70,4818,8,32,58,0.627,0.0,485,4.53,13.2,0.0,1,30.7,2.76,6.1,0,0,0,1,0,,,,,,,,,,,,,,,,,,,,
20983,1626535280456,,,249,251,236,231,,0.0,-0.01,-2.58,0,-2,-1,0.01,,70,4827,8,32,58,0.627,0.0,467,4.55,13.3,0.0,1,30.8,2.76,6.1,0,0,0,1,0,,,,,,,,,,,,,,,,,,,,
21003,1626535280476,,,249,251,236,231,,0.02,-0.01,-2.69,0,-1,-1,0.02,,70,4846,8,32,58,0.627,0.0,471,4.42,13.3,0.0,1,31.0,2.77,6.1,0,0,0,1,0,,,,,,,,,,,,,,,,,,,,
21023,1626535280496,,,249,253,237,231,,0.03,-0.03,-2.79,0,-0,0,0.04,,70,4852,8,32,58,0.626,0.0,478,4.41,13.0,0.0,1,31.1,1.67,6.1,0,0,0,1,0,,,,,,,,,,,,,,,,,,,,
21043,1626535280516,0,2,249,253,237,231,6,0.02,-0.02,-2.73,0,-0,1,0.03,0,70,4828,8,32,58,0.626,0.0,467,4.53,13.3,0.0,1,30.8,2.76,6.1,0,0,0,1,0,0,250,250,0,45.700237,4.909546,0.0,200.7,9,2,1.7,0,0.0,-1,0.0,0.0,0.0,0,0.0,0.3507
21063,1626535280536,,,249,253,236,231,,0.01,-0.01,-2.6,0,-1,0,0.02,,70,4775,8,32,58,0.626,0.0,475,4.5,13.3,0.0,1,30.1,2.73,6.1,0,0,0,1,0,,,,,,,,,,,,,,,,,,,,
21083,1626535280556,,,249,251,237,231,,-0.01,0.0,-2.52,0,-1,-1,0.01,,70,4811,8,32,58,0.626,0.0,467,4.48,13.3,0.0,1,30.6,1.65,6.1,0,0,0,1,0,,,,,,,,,,,,,,,,,,,,
21103,1626535280576,,,249,252,236,231,,0.01,-0.01,-2.63,0,-0,-0,0.01,,70,4834,8,32,58,0.626,0.0,466,4.52,13.3,0.0,1,30.9,1.66,6.1,0,0,0,1,0,,,,,,,,,,,,,,,,,,,,
21123,1626535280592,,,249,253,236,231,,0.02,-0.03,-2.74,0,1,1,0.03,,70,4877,8,32,58,0.626,0.0,478,4.51,13.1,0.0,1,31.4,2.79,6.1,0,0,0,1,0,,,,,,,,,,,,,,,,,,,,
21143,1626535280612,1,2,249,253,237,231,5,0.0,-0.01,-2.54,0,-0,1,0.01,0,70,4825,8,32,58,0.627,0.0,470,4.55,13.3,0.0,1,30.8,2.76,6.1,0,0,0,1,0,0,250,250,0,45.700237,4.909546,0.0,200.7,9,2,1.7,0,0.0,-1,0.0,,0.0,0,0.0,0.3524
21163,1626535280632,,,249,253,237,231,,-0.02,-0.01,-2.37,0,-1,-0,0.02,,70,4832,8,32,58,0.626,0.0,464,4.55,13.3,0.0,1,30.8,2.76,6.1,0,0,0,1,0,,,,,,,,,,,,,,,,,,,,
21183,1626535280652,,,249,251,237,231,,-0.03,-0.01,-2.5,0,-0,-0,0.03,,70,4832,8,32,58,0.626,0.0,474,4.48,13.2,0.0,1,30.8,1.65,6.1,0,0,0,1,0,,,,,,,,,,,,,,,,,,,,
21203,1626535280672,,,249,253,237,231,,0.01,-0.02,-2.61,0,1,1,0.02,,70,4822,8,32,58,0.626,0.0,464,4.46,13.2,0.0,1,30.7,2.76,6.1,0,0,0,1,0,,,,,,,,,,,,,,,,,,,,
21223,1626535280698,,,249,253,237,231,,0.01,-0.02,-2.71,0,1,1,0.03,,70,4828,8,32,58,0.626,0.0,471,4.47,13.0,0.0,1,30.8,2.76,6.1,0,0,0,1,0,,,,,,,,,,,,,,,,,,,,
21243,1626535280718,-0,2,249,253,237,231,5,-0.01,-0.02,-2.56,0,0,1,0.02,0,70,4763,8,32,58,0.626,0.0,466,4.48,13.3,0.0,1,29.9,2.73,6.1,0,0,0,1,0,0,250,250,0,45.700237,4.909546,0.0,200.7,9,2,1.7,0,0.0,-1,0.0,0.0,0.0,0,0.0,0.354
21263,1626535280738,,,249,253,236,231,,-0.03,-0.02,-2.45,-0,0,1,0.04,,70,4790,8,32,58,0.625,0.0,456,4.45,13.3,0.0,1,30.3,2.74,5.9,0,0,0,1,0,,,,,,,,,,,,,,,,,,,,
21283,1626535280758,,,249,252,237,231,,-0.04,-0.01,-2.57,-0,1,1,0.04,,70,4841,8,32,58,0.625,0.0,463,4.41,13.3,0.0,1,31.0,2.77,5.9,0,0,0,1,0,,,,,,,,,,,,,,,,,,,,
21303,1626535280778,,,249,253,236,231,,-0.0,-0.03,-2.68,0,1,1,0.03,,70,4818,8,32,58,0.625,0.0,467,4.41,13.0,0.0,1,30.7,1.65,5.9,0,0,0,1,0,,,,,,,,,,,,,,,,,,,,
21323,1626535280798,,,249,253,237,231,,-0.01,-0.03,-2.78,0,2,2,0.04,,70,4896,8,32,58,0.625,0.0,470,4.41,13.1,0.0,1,31.7,2.8,5.9,0,0,0,1,0,,,,,,,,,,,,,,,,,,,,
21343,1626535280818,1,1,249,253,237,231,6,-0.02,-0.02,-2.56,0,0,1,0.03,0,70,4833,8,32,58,0.625,0.0,484,4.42,13.3,0.0,1,30.9,2.76,5.9,0,0,0,1,0,0,250,250,0,45.700237,4.909546,0.0,200.7,9,2,1.7,0,0.0,-1,0.0,,0.0,0,0.0,0.3557
21363,1626535280838,,,249,251,237,231,,-0.02,0.01,-2.54,0,0,0,0.03,,70,4828,9,32,58,0.625,0.0,472,4.49,13.3,0.0,1,30.8,2.76,6.1,0,0,0,1,0,,,,,,,,,,,,,,,,,,,,
21383,1626535280858,,,249,252,237,231,,-0.01,-0.01,-2.65,0,1,1,0.01,,70,4823,15,32,60,0.624,0.0,467,4.46,13.2,0.0,1,31.3,2.75,6.1,0,0,0,1,0,,,,,,,,,,,,,,,,,,,,
21403,1626535280878,,,249,253,237,231,,0.01,-0.01,-2.76,0,2,2,0.02,,70,4838,26,32,65,0.624,0.0,476,4.49,13.1,0.0,1,33.0,2.95,6.1,0,0,0,1,0,,,,,,,,,,,,,,,,,,,,
21423,1626535280897,,,249,253,237,231,,-0.02,0.0,-2.54,0,1,1,0.02,,70,4980,37,32,75,0.624,0.0,468,4.55,13.2,0.0,1,37.8,2.35,6.1,0,0,0,1,0,,,,,,,,,,,,,,,,,,,,
21443,1626535280917,0,0,249,252,236,231,6,0.03,0.01,-2.42,0,-1,-1,0.03,0,70,5169,47,32,88,0.623,0.0,492,4.38,13.1,0.0,1,41.7,2.7,6.1,0,0,0,1,0,0,250,250,0,45.700237,4.909546,0.0,200.7,9,2,1.7,0,0.0,-1,0.0,0.0,0.0,0,0.0,0.3574
21463,1626535280937,,,249,253,237,231,,-0.03,0.0,-2.54,0,5,4,0.03,,70,5346,54,32,95,0.624,0.0,516,4.31,13.3,0.0,1,41.8,7.41,16.1,0,0,0,1,0,,,,,,,,,,,,,,,,,,,,
21483,1626535280957,,,249,251,236,231,,0.07,-0.06,-2.34,-0,0,1,0.09,,70,5723,59,32,96,0.623,0.0,536,4.25,13.1,0.0,1,40.6,8.67,16.1,0,0,0,1,0,,,,,,,,,,,,,,,,,,,,
21503,1626535280977,,,249,253,236,231,,0.13,-0.0,-2.16,-1,-7,-5,0.13,,70,6273,62,32,96,0.623,0.0,563,4.15,13.0,0.0,1,42.5,9.01,16.1,0,0,0,1,0,,,,,,,,,,,,,,,,,,,,
21523,1626535280997,,,249,253,237,231,,0.07,-0.02,-2.3,-1,-4,-2,0.07,,70,6843,63,32,96,0.622,0.0,612,4.28,13.2,0.0,1,48.3,3.56,16.1,0,0,0,1,0,,,,,,,,,,,,,,,,,,,,
21543,1626535281007,0,3,249,253,237,231,5,0.05,-0.02,-2.37,-0,-4,-1,0.05,0,70,7569,63,32,95,0.622,0.0,655,4.3,13.1,0.0,1,41.8,3.9,16.1,0,0,0,1,0,0,250,250,0,45.700237,4.909546,0.0,200.7,9,2,1.7,0,0.0,-1,0.0,,0.0,0,0.0,0.359
21563,1626535281027,,,249,251,237,231,,0.05,-0.0,-2.49,-0,-4,-1,0.05,,70,8166,63,32,94,0.621,0.0,670,4.2,13.0,0.0,1,38.1,10.19,34.4,0,0,0,1,0,,,,,,,,,,,,,,,,,,,,
21583,1626535281047,,,249,252,237,231,,0.05,0.12,-2.6,-0,-2,2,0.14,,70,8924,63,32,92,0.62,0.0,682,4.03,13.0,0.0,1,39.5,11.31,34.4,0,0,0,1,0,,,,,,,,,,,,,,,,,,,,
21603,1626535281067,,,249,253,237,231,,0.05,0.2,-2.68,0,-3,4,0.21,,70,9786,53,32,89,0.619,0.0,693,3.97,12.9,0.0,1,39.3,5.14,34.4,0,0,0,1,0,,,,,,,,,,,,,,,,,,,,
21623,1626535281097,,,249,251,236,231,,0.07,0.18,-2.78,0,-1,4,0.19,,70,10190,35,32,86,0.617,0.0,697,3.85,13.0,0.0,1,40.2,5.66,34.4,0,0,0,1,0,,,,,,,,,,,,,,,,,,,,
21643,1626535281117,0,2,249,252,237,231,6,0.06,0.09,-2.57,0,-3,4,0.11,0,70,10313,13,32,77,0.617,0.0,707,4.26,13.1,0.0,1,40.5,3.85,34.4,0,0,0,1,0,0,250,250,0,45.700237,4.909546,0.0,200.7,9,2,1.7,0,0.0,-1,0.0,0.0,0.0,0,0.0,0.3607
21663,1626535281137,,,249,253,237,231,,0.05,0.03,-2.67,0,-1,4,0.06,,70,10234,7,32,65,0.617,0.0,704,4.41,13.0,0.0,1,41.7,4.06,21.4,0,0,0,1,0,,,,,,,,,,,,,,,,,,,,
21683,1626535281157,,,249,253,236,231,,0.05,0.16,-2.47,0,-2,3,0.17,,70,10000,7,33,58,0.617,0.0,713,4.38,13.0,0.0,1,40.5,3.83,21.4,0,0,0,1,0,,,,,,,,,,,,,,,,,,,,
21703,1626535281177,,,249,252,237,231,,0.04,0.15,-2.58,0,-2,4,0.15,,70,9801,7,33,52,0.615,0.0,699,4.41,13.1,0.0,1,39.4,2.22,21.4,0,0,0,1,0,,,,,,,,,,,,,,,,,,,,
21723,1626535281197,,,249,252,236,231,,0.05,0.11,-2.5,0,-1,4,0.12,,70,9571,7,33,48,0.614,0.0,703,4.4,13.0,0.0,1,38.2,3.07,21.4,0,0,0,1,0,,,,,,,,,,,,,,,,,,,,
21743,1626535281217,0,1,249,251,237,231,6,0.01,0.0,-2.5,0,-2,1,0.01,0,70,9360,7,33,44,0.613,0.0,703,4.5,13.0,0.0,1,35.5,2.91,21.4,0,0,0,1,0,0,250,250,0,45.700237,4.909546,0.0,200.7,9,2,1.7,0,0.0,-1,0.0,,0.0,0,0.0,0.3624
21763,1626535281237,,,249,251,237,231,,0.03,0.01,-2.62,-0,-1,1,0.03,,70,9213,7,33,42,0.613,0.0,692,4.47,13.1,0.0,1,34.0,2.83,12.3,0,0,0,1,0,,,,,,,,,,,,,,,,,,,,
21783,1626535281257,,,249,253,237,231,,0.03,0.07,-2.7,0,-1,2,0.07,,70,9044,7,33,39,0.611,0.0,689,4.37,13.1,0.0,1,32.0,2.73,12.3,0,0,0,1,0,,,,,,,,,,,,,,,,,,,,
21803,1626535281277,,,249,253,237,231,,0.03,0.1,-2.8,0,-1,4,0.1,,70,8827,7,33,38,0.61,0.0,684,4.48,13.2,0.0,1,31.7,2.68,12.3,0,0,0,1,0,,,,,,,,,,,,,,,,,,,,
21823,1626535281297,,,249,251,237,231,,0.03,0.07,-2.58,-0,-1,-0,0.07,,70,8612,7,33,37,0.609,0.0,686,4.49,13.2,0.0,1,31.4,2.64,12.3,0,0,0,1,0,,,,,,,,,,,,,,,,,,,,
21843,1626535281317,-0,2,249,252,237,231,5,0.02,-0.02,-2.53,-0,-2,-4,0.03,0,70,8389,7,33,36,0.609,0.0,682,4.47,13.0,0.0,1,30.8,2.52,12.3,0,0,0,1,0,0,250,250,0,45.700237,4.909546,0.0,200.7,9,2,1.7,0,0.0,-1,0.0,0.0,0.0,0,0.0,0.364
21863,1626535281337,,,249,251,236,231,,0.03,-0.01,-2.63,-0,-1,-1,0.03,,70,8198,7,32,36,0.609,0.0,674,4.5,13.2,0.0,1,30.4,2.32,9.3,0,0,0,1,0,,,,,,,,,,,,,,,,,,,,
21883,1626535281357,,,249,253,237,231,,0.01,-0.03,-2.73,-0,-0,-1,0.03,,70,8009,7,32,35,0.61,0.0,673,4.52,13.2,0.0,1,29.8,2.09,9.3,0,0,0,1,0,,,,,,,,,,,,,,,,,,,,
21903,1626535281377,,,249,253,236,231,,0.03,-0.1,-2.63,-0,-1,-2,0.1,,70,7773,7,32,35,0.61,0.0,668,4.41,13.0,0.0,1,29.8,2.09,9.3,0,0,0,1,0,,,,,,,,,,,,,,,,,,,,
21923,1626535281397,,,249,253,237,231,,0.06,-0.11,-2.43,-0,-2,-3,0.13,,70,7572,7,32,35,0.61,0.0,666,4.43,13.1,0.0,1,29.8,2.09,9.3,0,0,0,1,0,,,,,,,,,,,,,,,,,,,,
21943,1626535281417,0,1,249,251,237,231,6,0.06,-0.13,-2.36,-0,-4,-5,0.15,0,70,7373,7,32,35,0.61,0.0,659,4.54,13.1,0.0,1,29.8,2.09,9.3,0,0,0,1,0,0,250,250,0,45.700237,4.909546,0.0,200.7,9,2,1.7,0,0.0,-1,0.0,,0.0,0,0.0,0.3657
21963,1626535281437,,,249,253,237,231,,0.09,-0.12,-2.18,-0,-4,-5,0.15,,70,7208,7,32,35,0.611,0.0,661,4.51,13.0,0.0,1,29.8,2.09,7.0,0,0,0,1,0,,,,,,,,,,,,,,,,,,,,
21983,1626535281457,,,249,252,237,231,,0.05,-0.11,-2.32,-0,-1,-2,0.12,,70,6996,7,32,35,0.612,0.0,657,4.54,13.2,0.0,1,29.7,0.96,7.0,0,0,0,1,0,,,,,,,,,,,,,,,,,,,,
22003,1626535281477,,,249,252,236,231,,0.05,-0.07,-2.35,-0,-4,-5,0.09,,70,6786,7,32,36,0.612,0.0,648,4.47,13.0,0.0,1,29.8,2.13,7.0,0,0,0,1,0,,,,,,,,,,,,,,,,,,,,
22023,1626535281497,,,249,251,236,231,,0.05,-0.05,-2.48,-0,-0,-1,0.07,,70,6609,7,32,36,0.614,0.0,642,4.55,13.2,0.0,1,29.7,2.13,7.0,0,0,0,1,0,,,,,,,,,,,,,,,,,,,,
22043,1626535281517,0,0,249,251,236,231,6,0.11,-0.03,-2.29,-0,-2,-3,0.12,0,70,6375,7,32,37,0.615,0.0,636,4.54,13.2,0.0,1,29.7,2.18,7.0,0,0,0,1,0,0,250,250,0,45.700237,4.909546,0.0,200.7,9,2,1.7,0,0.0,-1,0.0,0.0,0.0,0,0.0,0.3674
22063,1626535281537,,,249,253,236,231,,0.13,-0.07,-2.11,-0,-7,-7,0.15,,70,6184,7,32,38,0.615,0.0,631,4.47,13.0,0.0,1,29.7,2.18,6.3,0,0,0,1,0,,,,,,,,,,,,,,,,,,,,
22083,1626535281557,,,249,253,236,231,,0.11,-0.13,-2.25,0,-13,-10,0.17,,70,5994,7,32,38,0.614,0.0,612,4.44,13.0,0.0,1,29.5,2.24,6.3,0,0,0,1,0,,,,,,,,,,,,,,,,,,,,
22103,1626535281577,,,249,253,237,231,,0.14,-0.2,-2.22,0,-19,-14,0.24,,70,5803,7,32,39,0.614,0.0,588,4.43,13.1,0.0,1,29.3,2.36,6.3,0,0,0,1,0,,,,,,,,,,,,,,,,,,,,
22123,1626535281597,,,249,253,237,231,,0.22,-0.16,-2.05,-0,-24,-18,0.27,,70,5659,7,32,40,0.614,0.0,565,4.43,13.2,0.0,1,29.1,1.3,6.3,0,0,0,1,0,,,,,,,,,,,,,,,,,,,,
22143,1626535281617,0,1,249,253,237,231,6,0.19,-0.09,-1.89,0,-16,-12,0.21,0,70,5468,7,32,41,0.616,0.0,553,4.42,13.3,0.0,1,28.9,2.49,6.3,0,0,0,1,0,0,250,250,0,45.700237,4.909546,0.0,200.7,9,2,1.7,0,0.0,-1,0.0,,0.0,0,0.0,0.369
22163,1626535281637,,,249,251,237,231,,0.14,-0.16,-2.05,0,-14,-11,0.21,,70,5277,7,32,42,0.616,0.0,548,4.38,13.1,0.0,1,28.7,2.58,6.3,0,0,0,1,0,,,,,,,,,,,,,,,,,,,,
22183,1626535281657,,,249,253,237,231,,0.14,-0.06,-1.89,0,-15,-11,0.15,,70,5134,7,32,43,0.618,0.0,513,4.54,13.3,0.0,1,28.7,2.65,6.3,0,0,0,1,0,,,,,,,,,,,,,,,,,,,,
22203,1626535281677,,,249,252,237,231,,0.14,-0.12,-2.05,0,-12,-9,0.18,,70,4994,7,32,43,0.619,0.0,502,4.44,13.2,0.0,1,28.4,2.69,6.3,0,0,0,1,0,,,,,,,,,,,,,,,,,,,,
22223,1626535281697,,,249,253,237,231,,0.14,-0.11,-1.9,0,-12,-8,0.18,,70,4813,7,32,44,0.62,0.0,493,4.47,13.1,0.0,1,26.5,2.63,6.3,0,0,0,1,0,,,,,,,,,,,,,,,,,,,,
22243,1626535281717,1,1,249,253,236,231,6,0.11,-0.1,-1.97,0,-10,-6,0.15,0,70,4718,7,32,44,0.622,0.0,465,4.51,13.3,0.0,1,25.4,2.59,6.3,0,0,0,1,0,0,250,250,0,45.700237,4.909546,0.0,200.7,9,2,1.7,0,0.0,-1,0.0,0.0,0.0,0,0.0,0.3707
22263,1626535281737,,,249,253,236,231,,0.09,-0.09,-1.97,0,-10,-6,0.13,,70,4661,7,32,45,0.623,0.0,463,4.48,13.3,0.0,1,25.0,2.58,5.6,0,0,0,1,0,,,,,,,,,,,,,,,,,,,,
22283,1626535281757,,,249,253,236,231,,0.04,-0.06,-1.99,0,-9,-5,0.07,,70,4520,7,32,45,0.623,0.0,447,4.47,13.3,0.0,1,23.3,2.5,5.6,0,0,0,1,0,,,,,,,,,,,,,,,,,,,,
22303,1626535281777,,,249,251,237,231,,-0.0,-0.03,-1.93,0,-8,-4,0.03,,70,4419,7,32,46,0.626,0.0,433,4.49,13.3,0.0,1,22.3,2.47,5.6,0,0,0,1,0,,,,,,,,,,,,,,,,,,,,
22323,1626535281797,,,249,252,237,231,,-0.01,-0.01,-1.9,0,-8,-3,0.02,,70,4286,7,32,47,0.628,0.0,424,4.49,13.3,0.0,1,21.0,2.42,5.6,0,0,0,1,0,,,,,,,,,,,,,,,,,,,,
22343,1626535281817,-1,2,249,253,236,231,6,0.01,-0.01,-2.06,0,-8,-3,0.01,0,70,4223,7,32,47,0.629,0.0,405,4.5,13.1,0.0,1,20.2,1.26,5.6,0,0,0,1,0,0,250,250,0,45.700237,4.909546,0.0,200.7,9,2,1.7,0,0.0,-1,0.0,,0.0,0,0.0,0.3724
22363,1626535281837,,,249,252,237,231,,0.05,-0.04,-2.21,0,-7,-3,0.06,,70,4182,7,32,48,0.631,0.0,403,4.49,13.3,0.0,1,19.9,2.36,4.6,0,0,0,1,0,,,,,,,,,,,,,,,,,,,,
22383,1626535281857,,,249,253,237,231,,0.05,-0.04,-2.24,0,-6,-3,0.07,,70,4126,7,32,49,0.632,0.0,388,4.45,13.4,0.0,1,19.5,2.32,4.6,0,0,0,1,0,,,,,,,,,,,,,,,,,,,,
22403,1626535281877,,,249,253,237,231,,0.0,-0.05,-2.31,0,-5,-2,0.05,,70,3999,7,32,49,0.631,0.0,392,4.51,13.3,0.0,1,0.0,2.25,4.6,0,0,0,1,0,,,,,,,,,,,,,,,,,,,,
22423,1626535281897,,,249,251,236,231,,0.03,-0.04,-2.44,0,-5,-2,0.05,,70,3943,7,32,51,0.632,0.0,376,4.47,13.1,0.0,1,0.0,2.24,4.6,0,0,0,1,0,,,,,,,,,,,,,,,,,,,,
22443,1626535281917,1,2,249,253,236,231,6,0.02,-0.04,-2.34,0,-4,-2,0.04,0,70,3800,10,32,52,0.631,0.0,372,4.5,13.2,0.0,1,17.2,2.26,4.6,0,0,0,1,0,0,250,250,0,45.700237,4.909546,0.0,200.7,9,2,1.7,0,0.0,-1,0.0,0.0,0.0,0,0.0,0.374
22463,1626535281937,,,249,251,237,231,,0.02,-0.05,-2.47,0,-4,-1,0.05,,70,3690,20,32,57,0.63,0.0,358,4.48,13.2,0.0,1,16.2,3.59,3.9,0,0,0,1,0,,,,,,,,,,,,,,,,,,,,
22483,1626535281957,,,249,253,236,231,,0.02,-0.06,-2.36,0,-5,-2,0.07,,70,3519,27,32,66,0.63,0.0,349,4.42,13.0,0.0,1,16.9,4.19,3.9,0,0,0,1,0,,,,,,,,,,,,,,,,,,,,
22503,1626535281977,,,249,251,236,231,,0.02,-0.05,-2.35,0,-5,-1,0.05,,70,3473,32,32,78,0.629,0.0,331,4.37,13.3,0.0,1,20.7,4.61,3.9,0,0,0,1,0,,,,,,,,,,,,,,,,,,,,
22523,1626535281997,,,249,252,237,231,,0.01,-0.05,-2.48,0,-4,-1,0.06,,70,3719,34,32,87,0.629,0.0,342,4.41,13.2,0.0,1,25.1,2.5,3.9,0,0,0,1,0,,,,,,,,,,,,,,,,,,,,
22543,1626535282006,0,3,249,252,237,231,5,0.02,-0.05,-2.39,0,-3,-1,0.05,0,70,3858,34,32,93,0.628,0.0,343,4.43,13.3,0.0,1,29.6,2.93,3.9,0,0,0,1,0,0,250,250,0,45.700237,4.909546,0.0,200.7,9,2,1.7,0,0.0,-1,0.0,,0.0,0,0.0,0.3757
22563,1626535282026,,,249,253,236,231,,-0.03,-0.02,-2.35,0,-3,-1,0.03,,70,4217,34,32,95,0.627,0.0,374,4.35,13.3,0.0,1,34.8,7.05,13.2,0,0,0,1,0,,,,,,,,,,,,,,,,,,,,
22583,1626535282046,,,249,253,237,231,,-0.07,0.01,-2.3,0,-3,0,0.07,,70,4635,34,32,94,0.626,0.0,397,4.4,13.3,0.0,1,38.7,6.63,13.2,0,0,0,1,0,,,,,,,,,,,,,,,,,,,,
22603,1626535282066,,,249,252,237,231,,-0.03,0.03,-2.12,0,-6,-3,0.05,,70,5079,33,32,94,0.625,0.0,443,4.4,13.3,0.0,1,42.6,2.83,13.2,0,0,0,1,0,,,,,,,,,,,,,,,,,,,,
22623,1626535282096,,,249,253,236,231,,-0.12,0.03,-2.27,0,1,5,0.12,,70,5511,25,32,92,0.625,0.0,506,4.31,13.2,0.0,1,41.3,7.44,13.2,0,0,0,1,0,,,,,,,,,,,,,,,,,,,,
22643,1626535282116,1,2,249,253,236,231,6,-0.17,-0.05,-2.4,-0,-1,1,0.17,0,70,6062,15,32,88,0.624,0.0,544,4.19,13.2,0.0,1,39.8,8.05,13.2,0,0,0,1,0,0,250,250,0,45.700237,4.909546,0.0,200.7,9,2,1.7,0,0.0,-1,0.0,0.0,0.0,0,0.0,0.3774
22663,1626535282136,,,249,253,236,231,,-0.2,-0.05,-2.52,-0,0,2,0.21,,70,6574,7,32,83,0.623,0.0,583,4.23,13.2,0.0,1,42.4,6.84,21.8,0,0,0,1,0,,,,,,,,,,,,,,,,,,,,
22683,1626535282156,,,249,252,237,231,,-0.17,-0.0,-2.6,-0,-1,0,0.17,,70,7118,7,32,75,0.622,0.0,640,4.33,13.2,0.0,1,42.4,3.78,21.8,0,0,0,1,0,,,,,,,,,,,,,,,,,,,,
22703,1626535282176,,,249,251,237,231,,-0.14,-0.06,-2.4,-0,-2,-0,0.15,,70,7231,7,32,70,0.622,0.0,649,4.4,13.0,0.0,1,40.7,2.48,21.8,0,0,0,1,0,,,,,,,,,,,,,,,,,,,,
22723,1626535282196,,,249,252,237,231,,-0.11,-0.1,-2.33,-0,-2,-1,0.15,,70,7588,7,32,65,0.622,0.0,661,4.43,13.1,0.0,1,38.7,1.97,21.8,0,0,0,1,0,,,,,,,,,,,,,,,,,,,,
22743,1626535282216,0,1,249,253,237,231,6,-0.09,-0.07,-2.15,-0,-3,-4,0.12,0,70,7914,7,32,60,0.621,0.0,658,4.41,13.1,0.0,1,37.6,2.51,21.8,0,0,0,1,0,0,250,250,0,45.700237,4.909546,0.0,200.7,9,2,1.7,0,0.0,-1,0.0,,0.0,0,0.0,0.379
22763,1626535282236,,,249,253,236,231,,-0.1,-0.02,-2.27,-0,-2,-2,0.1,,70,8234,7,32,54,0.621,0.0,668,4.45,13.2,0.0,1,37.9,2.77,9.4,0,0,0,1,0,,,,,,,,,,,,,,,,,,,,
22783,1626535282256,,,249,252,236,231,,-0.11,0.02,-2.19,-0,-4,-4,0.11,,70,8624,7,32,49,0.621,0.0,687,4.47,13.2,0.0,1,37.6,2.98,9.4,0,0,0,1,0,,,,,,,,,,,,,,,,,,,,
22803,1626535282276,,,249,253,237,231,,-0.12,-0.05,-2.09,-1,-4,-8,0.13,,70,8877,7,32,45,0.62,0.0,694,4.36,13.1,0.0,1,35.7,2.89,9.4,0,0,0,1,0,,,,,,,,,,,,,,,,,,,,
22823,1626535282296,,,249,252,237,231,,-0.13,-0.2,-1.92,-1,-5,-11,0.24,,70,9027,7,32,42,0.621,0.0,692,4.41,13.0,0.0,1,33.8,2.82,9.4,0,0,0,1,0,,,,,,,,,,,,,,,,,,,,
