"Interval"|"ms"|0|0|1,"Utc"|"ms"|0|0|1,"Brake_F"|"Bar"|0|2000|10,"Brake_R"|"Bar"|0|2000|10,"Height_RF"|"mm"|0|255|50,"Height_LF"|"mm"|0|255|50,"Height_LR"|"mm"|0|80|50,"Height_RR"|"mm"|0|255|50,"Steering"|"deg"|-100|100|10,"AccelX"|"G"|-3.0|3.0|50,"AccelY"|"G"|-3.0|3.0|50,"AccelZ"|"G"|-3.0|3.0|50,"Yaw"|"Deg/Sec"|-120|120|50,"Pitch"|"Deg/Sec"|-120|120|50,"Roll"|"Deg/Sec"|-120|120|50,"Gsum"|"G"|0.0|3.0|50,"Log_Button"|""|0.0|10.0|10,"WaterTemp"|"C"|0|150|50,"RPM"|"tr/min"|0|14000|50,"TPS"|"%"|0|100|50,"AirTemp"|"C"|0|150|50,"MAP"|"KPa"|0|100|50,"Lambda"|""|0.5|1.5|50,"SpeedDTA"|"kph"|0.0|250.0|50,"OilPress"|"KPa"|0|1500|50,"FuelPressur"|"Bar"|0.0|10.0|50,"Batterie"|"V"|0.0|20.0|50,"ConsoKm"|"L/100km"|0.0|200.0|50,"Gear"|""|0|6|50,"AdvIgnition"|"Deg"|-20.0|70.0|50,"Injection"|"ms"|0.0|10.0|50,"ConsoHr"|"L/Hr"|0.0|10000.0|50,"LC_But_Pres"|""|0|1|50,"LC_Active"|""|0|1|50,"TractionOn"|""|0|1|50,"TractionWet"|""|0|1|50,"FanOn"|""|0|1|50,"RD_Speed"|"km/h"|-30|250|10,"RUD_Speed"|"km/h"|-30|250|10,"LD_Speed"|"km/h"|-30|250|10,"LUD_Speed"|"km/h"|-30|250|10,"Latitude"|"Degrees"|-180.0|180.0|10,"Longitude"|"Degrees"|-180.0|180.0|10,"Speed"|"kph"|0.0|150.0|10,"Altitude"|"m"|0.0|4000.0|10,"GPSSats"|""|0|20|10,"GPSQual"|""|0|5|10,"GPSDOP"|""|0.0|20.0|10,"LapCount"|""|0|0|10,"LapTime"|"Min"|0.0|0.0|10,"Sector"|""|0|0|10,"SectorTime"|"Min"|0.0|0.0|10,"PredTime"|"Min"|0.0|0.0|5,"ElapsedTime"|"Min"|0.0|0.0|10,"CurrentLap"|""|0|0|10,"Distance"|"km"|0.0|0.0|10,"SessionTime"|"Min"|0.0|0.0|10
128063,1626539440083,,,252,255,237,233,,0.01,-0.08,-2.88,1,5,5,0.08,,81,4601,7,34,57,0.908,0.0,391,4.81,13.2,0.0,1,27.6,1.51,5.5,0,0,0,1,0,,,,,,,,,,,,,,,,,,,,
128083,1626539440093,,,252,255,237,233,,-0.02,-0.05,-2.8,1,5,5,0.05,,81,4559,7,34,57,0.909,0.0,390,4.81,13.2,0.0,1,27.0,2.62,5.5,0,0,0,1,0,,,,,,,,,,,,,,,,,,,,
128103,1626539440113,,,252,255,237,233,,-0.04,-0.05,-2.67,0,5,5,0.07,,81,4605,7,34,56,0.909,0.0,388,4.82,13.0,0.0,1,27.3,1.52,5.5,0,0,0,1,0,,,,,,,,,,,,,,,,,,,,
128123,1626539440133,,,252,256,237,233,,-0.04,-0.06,-2.47,0,4,4,0.07,,81,4649,7,34,56,0.908,0.0,397,4.82,13.2,0.0,1,27.9,2.65,5.5,0,0,0,1,0,,,,,,,,,,,,,,,,,,,,
128143,1626539440153,13,9,252,254,237,232,-0,-0.06,-0.05,-2.28,0,2,3,0.07,1,81,4617,7,34,56,0.907,0.0,392,4.86,13.1,0.0,1,27.5,1.52,5.5,0,0,0,1,0,0,250,250,0,45.700359,4.909392,0.0,194.0,10,3,1.8,0,0.0,0,0.0,,0.8583,1,0.03,2.1357
128163,1626539440173,,,252,255,237,233,,-0.04,-0.02,-2.1,0,0,2,0.05,,81,4636,7,34,56,0.906,0.0,397,4.79,13.3,0.0,1,27.7,2.64,5.5,0,0,0,1,0,,,,,,,,,,,,,,,,,,,,
128183,1626539440193,,,252,255,237,232,,-0.01,-0.03,-1.96,0,-1,1,0.03,,81,4612,7,34,56,0.905,0.0,396,4.79,13.3,0.0,1,27.4,1.52,5.6,0,0,0,1,0,,,,,,,,,,,,,,,,,,,,
128203,1626539440213,,,252,255,237,233,,0.02,-0.04,-1.94,0,-2,-0,0.04,,81,4598,7,34,56,0.904,0.0,389,4.89,13.4,0.0,1,27.2,2.63,5.6,0,0,0,1,0,,,,,,,,,,,,,,,,,,,,
128223,1626539440233,,,252,255,237,233,,0.04,-0.08,-2.09,0,-2,-1,0.09,,81,4633,7,34,56,0.903,0.0,394,4.86,13.4,0.0,1,27.7,2.64,5.6,0,0,0,1,0,,,,,,,,,,,,,,,,,,,,
128243,1626539440253,14,8,252,255,237,233,-1,0.07,-0.12,-2.24,0,-2,-1,0.14,1,81,4589,7,34,56,0.904,0.0,387,4.85,13.4,0.0,1,27.1,1.51,5.6,0,0,0,1,0,0,250,250,0,45.700359,4.909392,0.0,194.0,10,3,1.8,0,0.0,0,0.0,0.0,0.86,1,0.03,2.1374
128263,1626539440273,,,252,255,237,232,,0.08,-0.13,-2.37,0,-1,-0,0.15,,81,4587,7,34,56,0.903,0.0,391,4.81,13.3,0.0,1,27.1,2.62,5.6,0,0,0,1,0,,,,,,,,,,,,,,,,,,,,
128283,1626539440309,,,252,255,237,232,,0.08,-0.12,-2.5,0,1,1,0.14,,81,4598,7,34,56,0.903,0.0,387,4.84,13.4,0.0,1,27.2,1.52,5.5,0,0,0,1,0,,,,,,,,,,,,,,,,,,,,
128303,1626539440329,,,252,255,237,232,,0.08,-0.11,-2.61,0,2,1,0.13,,81,4510,7,34,56,0.904,0.0,386,4.79,13.3,0.0,1,26.1,1.46,5.5,0,0,0,1,0,,,,,,,,,,,,,,,,,,,,
128323,1626539440349,,,252,255,237,233,,0.09,-0.12,-2.72,0,3,2,0.15,,81,4519,7,34,56,0.905,0.0,386,4.81,13.4,0.0,1,26.2,2.59,5.5,0,0,0,1,0,,,,,,,,,,,,,,,,,,,,
128343,1626539440369,14,9,252,256,237,233,-0,0.09,-0.13,-2.82,0,4,3,0.15,1,81,4486,7,34,56,0.906,0.0,382,4.81,13.3,0.0,1,25.8,2.56,5.5,0,0,0,1,0,0,250,250,0,45.700359,4.909392,0.0,194.0,10,3,1.8,0,0.0,0,0.0,,0.8617,1,0.03,2.1391
128363,1626539440389,,,252,255,237,233,,0.09,-0.12,-2.91,0,5,4,0.15,,81,4494,7,34,56,0.907,0.0,378,4.81,13.4,0.0,1,25.9,2.57,5.5,0,0,0,1,0,,,,,,,,,,,,,,,,,,,,
128383,1626539440407,,,252,255,237,233,,0.09,-0.14,-2.99,0,5,4,0.17,,81,4492,7,34,57,0.909,0.0,380,4.82,13.3,0.0,1,26.2,1.46,5.3,0,0,0,1,0,,,,,,,,,,,,,,,,,,,,
128403,1626539440427,,,252,255,237,233,,0.1,-0.18,-3.07,0,6,5,0.2,,81,4552,7,34,57,0.911,0.0,382,4.8,13.4,0.0,1,27.0,1.49,5.3,0,0,0,1,0,,,,,,,,,,,,,,,,,,,,
128423,1626539440447,,,252,255,237,233,,0.09,-0.18,-3.14,0,7,6,0.21,,81,4569,7,34,57,0.912,0.0,391,4.78,13.4,0.0,1,27.2,2.62,5.3,0,0,0,1,0,,,,,,,,,,,,,,,,,,,,
128443,1626539440467,14,8,252,255,237,233,-0,0.08,-0.18,-3.2,0,7,7,0.19,1,81,4575,7,34,57,0.915,0.0,384,4.81,13.2,0.0,1,27.2,2.62,5.3,0,0,0,1,0,0,250,250,0,45.700359,4.909392,0.0,194.0,10,3,1.8,0,0.0,0,0.0,0.0,0.8633,1,0.03,2.1407
128463,1626539440487,,,252,256,237,233,,0.06,-0.16,-3.21,1,7,8,0.17,,81,4619,7,34,57,0.916,0.0,395,4.78,13.3,0.0,1,27.7,2.64,5.3,0,0,0,1,0,,,,,,,,,,,,,,,,,,,,
128483,1626539440503,,,252,255,237,233,,0.04,-0.14,-3.13,0,7,7,0.15,,81,4587,7,34,56,0.919,0.0,392,4.82,13.1,0.0,1,27.1,2.62,5.6,0,0,0,1,0,,,,,,,,,,,,,,,,,,,,
128503,1626539440523,,,252,255,237,232,,0.02,-0.09,-2.92,0,6,6,0.1,,81,4646,7,34,57,0.92,0.0,393,4.83,13.1,0.0,1,28.1,2.65,5.6,0,0,0,1,0,,,,,,,,,,,,,,,,,,,,
128523,1626539440543,,,252,255,237,233,,-0.0,-0.06,-2.69,0,5,4,0.06,,81,4642,7,34,56,0.922,0.0,396,4.83,13.0,0.0,1,27.8,2.65,5.6,0,0,0,1,0,,,,,,,,,,,,,,,,,,,,
128543,1626539440563,13,8,252,255,237,232,0,-0.01,-0.05,-2.49,0,3,4,0.05,1,81,4623,7,34,56,0.919,0.0,396,4.81,13.3,0.0,1,27.5,2.64,5.6,0,0,0,1,0,0,250,250,0,45.700359,4.909392,0.0,194.0,10,3,1.8,0,0.0,0,0.0,,0.865,1,0.03,2.1424
128563,1626539440583,,,252,255,237,233,,-0.0,0.0,-2.3,0,2,2,0.0,,81,4649,7,34,56,0.92,0.0,402,4.84,13.2,0.0,1,27.9,2.65,5.6,0,0,0,1,0,,,,,,,,,,,,,,,,,,,,
128583,1626539440600,,,252,255,237,233,,0.02,0.0,-2.32,0,1,2,0.02,,81,4601,7,34,56,0.918,0.0,397,4.8,13.4,0.0,1,27.3,2.63,5.7,0,0,0,1,0,,,,,,,,,,,,,,,,,,,,
128603,1626539440620,,,252,255,237,232,,0.05,-0.02,-2.41,0,0,1,0.06,,81,4641,7,34,56,0.917,0.0,392,4.79,13.4,0.0,1,27.8,1.54,5.7,0,0,0,1,0,,,,,,,,,,,,,,,,,,,,
128623,1626539440640,,,252,255,237,233,,0.07,-0.05,-2.53,0,0,1,0.09,,81,4587,7,34,56,0.915,0.0,393,4.82,13.4,0.0,1,27.1,2.62,5.7,0,0,0,1,0,,,,,,,,,,,,,,,,,,,,
128643,1626539440660,13,10,252,254,237,232,-0,0.09,-0.1,-2.64,0,1,0,0.13,0,81,4574,7,34,56,0.913,0.0,387,4.8,13.4,0.0,1,26.9,2.62,5.7,0,0,0,1,0,0,250,250,0,45.700359,4.909392,0.0,194.0,10,3,1.8,0,0.0,0,0.0,0.0,0.8667,1,0.03,2.1441
128663,1626539440680,,,252,255,237,233,,0.1,-0.14,-2.74,0,2,1,0.17,,81,4595,7,34,56,0.911,0.0,388,4.86,13.4,0.0,1,27.2,2.62,5.7,0,0,0,1,0,,,,,,,,,,,,,,,,,,,,
128683,1626539440696,,,252,255,237,232,,0.1,-0.14,-2.84,0,3,2,0.17,,81,4530,7,34,56,0.909,0.0,389,4.8,13.3,0.0,1,26.4,2.59,5.5,0,0,0,1,0,,,,,,,,,,,,,,,,,,,,
128703,1626539440716,,,252,255,237,233,,0.11,-0.13,-2.93,0,4,3,0.17,,81,4550,7,34,56,0.909,0.0,382,4.83,13.4,0.0,1,26.6,1.48,5.5,0,0,0,1,0,,,,,,,,,,,,,,,,,,,,
128723,1626539440736,,,252,255,237,232,,0.1,-0.11,-3.01,0,4,4,0.15,,81,4587,7,34,56,0.91,0.0,394,4.81,13.2,0.0,1,27.1,1.51,5.5,0,0,0,1,0,,,,,,,,,,,,,,,,,,,,
128743,1626539440756,12,9,252,255,237,233,-0,0.09,-0.11,-3.08,0,5,4,0.15,0,81,4535,7,34,56,0.909,0.0,383,4.81,13.2,0.0,1,26.4,2.59,5.5,0,0,0,1,0,0,250,250,0,45.700359,4.909392,0.0,194.0,10,3,1.8,0,0.0,0,0.0,,0.8683,1,0.03,2.1457
128763,1626539440776,,,252,255,237,233,,0.07,-0.11,-3.15,0,6,6,0.13,,81,4636,7,34,56,0.909,0.0,392,4.8,13.3,0.0,1,27.7,2.65,5.5,0,0,0,1,0,,,,,,,,,,,,,,,,,,,,
128783,1626539440794,,,252,255,237,233,,0.03,-0.11,-3.13,0,6,6,0.11,,81,4576,7,34,56,0.909,0.0,389,4.78,13.1,0.0,1,27.0,1.5,5.7,0,0,0,1,0,,,,,,,,,,,,,,,,,,,,
128803,1626539440814,,,252,256,237,233,,0.01,-0.09,-3.1,0,6,6,0.09,,81,4675,7,34,56,0.908,0.0,391,4.87,13.1,0.0,1,28.2,1.56,5.7,0,0,0,1,0,,,,,,,,,,,,,,,,,,,,
128823,1626539440834,,,252,254,237,233,,-0.01,-0.08,-2.86,0,5,4,0.08,,81,4675,7,34,56,0.907,0.0,401,4.83,13.3,0.0,1,28.2,2.67,5.7,0,0,0,1,0,,,,,,,,,,,,,,,,,,,,
128843,1626539440854,13,9,252,254,237,233,-1,-0.01,-0.07,-2.67,0,4,3,0.07,0,81,4588,7,34,56,0.907,0.0,394,4.8,13.3,0.0,1,27.1,2.62,5.7,0,0,0,1,0,0,250,250,0,45.700359,4.909392,0.0,194.0,10,3,1.8,0,0.0,0,0.0,0.0,0.87,1,0.03,2.1474
128863,1626539440874,,,252,255,237,232,,0.01,-0.07,-2.47,0,2,2,0.07,,81,4572,7,34,56,0.905,0.0,392,4.73,13.2,0.0,1,26.9,1.5,5.7,0,0,0,1,0,,,,,,,,,,,,,,,,,,,,
128883,1626539440894,,,252,255,237,233,,0.03,-0.04,-2.27,0,-0,1,0.05,,81,4598,7,34,56,0.904,0.0,394,4.77,13.3,0.0,1,27.2,2.63,5.5,0,0,0,1,0,,,,,,,,,,,,,,,,,,,,
128903,1626539440910,,,252,255,237,233,,0.05,-0.01,-2.24,0,-1,-0,0.05,,81,4559,7,34,56,0.903,0.0,389,4.8,13.4,0.0,1,26.7,2.61,5.5,0,0,0,1,0,,,,,,,,,,,,,,,,,,,,
128923,1626539440930,,,252,255,237,233,,0.06,-0.03,-2.33,0,-1,-1,0.07,,81,4559,7,34,56,0.902,0.0,393,4.75,13.3,0.0,1,26.7,2.61,5.5,0,0,0,1,0,,,,,,,,,,,,,,,,,,,,
128943,1626539440950,13,8,252,255,237,232,-0,0.08,-0.05,-2.46,0,-1,-1,0.09,0,81,4514,7,34,56,0.899,0.0,388,4.81,13.4,0.0,1,26.2,1.47,5.5,0,0,0,1,0,0,250,250,0,45.700359,4.909392,0.0,194.0,10,3,1.8,0,0.0,0,0.0,,0.8717,1,0.03,2.149
128963,1626539440970,,,252,255,237,233,,0.1,-0.04,-2.47,0,-1,-2,0.1,,81,4510,7,34,57,0.895,0.0,385,4.82,13.4,0.0,1,26.4,2.59,5.5,0,0,0,1,0,,,,,,,,,,,,,,,,,,,,
128983,1626539441008,,,252,254,237,233,,0.1,-0.02,-2.59,0,-1,-2,0.1,,81,4555,7,34,56,0.892,0.0,391,4.81,13.4,0.0,1,26.7,2.6,5.4,0,0,0,1,0,,,,,,,,,,,,,,,,,,,,
129003,1626539441028,,,252,255,237,233,,0.11,-0.02,-2.7,0,-0,-2,0.11,,81,4535,7,34,57,0.888,0.0,385,4.84,13.4,0.0,1,26.7,2.59,5.4,0,0,0,1,0,,,,,,,,,,,,,,,,,,,,
129023,1626539441048,,,252,255,237,232,,0.12,-0.05,-2.8,0,1,-2,0.13,,81,4588,7,34,57,0.887,0.0,389,4.8,13.4,0.0,1,27.4,2.62,5.4,0,0,0,1,0,,,,,,,,,,,,,,,,,,,,
129043,1626539441068,13,8,252,256,237,233,-0,0.13,-0.07,-2.89,0,2,-1,0.15,0,81,4628,7,34,56,0.888,0.0,387,4.77,13.4,0.0,1,27.6,1.53,5.4,0,0,0,1,0,0,250,250,0,45.700359,4.909392,0.0,194.0,10,3,1.8,0,0.0,0,0.0,0.0,0.8733,1,0.03,2.1507
129063,1626539441088,,,252,256,237,233,,0.13,-0.11,-2.97,0,3,-0,0.17,,81,4619,7,34,57,0.888,0.0,396,4.84,13.4,0.0,1,27.8,2.64,5.4,0,0,0,1,0,,,,,,,,,,,,,,,,,,,,
129083,1626539441104,,,252,255,237,233,,0.11,-0.11,-3.05,0,4,2,0.16,,81,4668,7,34,56,0.889,0.0,394,4.81,13.3,0.0,1,28.1,2.67,5.6,0,0,0,1,0,,,,,,,,,,,,,,,,,,,,
129103,1626539441124,,,252,255,237,233,,0.08,-0.09,-3.11,0,5,3,0.12,,81,4612,7,34,56,0.891,0.0,397,4.83,13.1,0.0,1,27.4,1.52,5.6,0,0,0,1,0,,,,,,,,,,,,,,,,,,,,
129123,1626539441144,,,252,255,237,233,,0.04,-0.08,-3.13,0,5,3,0.09,,81,4598,7,34,56,0.892,0.0,396,4.82,13.0,0.0,1,27.2,2.63,5.6,0,0,0,1,0,,,,,,,,,,,,,,,,,,,,
129143,1626539441164,12,9,252,255,237,233,-0,0.02,-0.07,-3.06,0,5,3,0.08,0,81,4603,7,34,56,0.893,0.0,394,4.78,13.1,0.0,1,27.3,2.63,5.6,0,0,0,1,0,0,250,250,0,45.700359,4.909392,0.0,194.0,10,3,1.8,0,0.0,0,0.0,,0.875,1,0.03,2.1524
129163,1626539441184,,,252,254,237,233,,-0.0,-0.06,-2.83,0,4,2,0.07,,82,4598,7,34,56,0.896,0.0,391,4.81,13.2,0.0,1,27.2,2.63,5.6,0,0,0,1,0,,,,,,,,,,,,,,,,,,,,
129183,1626539441202,,,252,255,237,233,,-0.02,-0.04,-2.61,0,2,1,0.04,,82,4507,7,34,56,0.896,0.0,390,4.8,13.3,0.0,1,26.1,1.46,5.6,0,0,0,1,0,,,,,,,,,,,,,,,,,,,,
129203,1626539441222,,,252,255,237,232,,-0.03,-0.01,-2.41,0,0,0,0.03,,82,4533,7,34,56,0.899,0.0,384,4.76,13.3,0.0,1,26.4,2.59,5.6,0,0,0,1,0,,,,,,,,,,,,,,,,,,,,
129223,1626539441242,,,252,256,237,233,,-0.04,-0.0,-2.22,0,-1,-1,0.04,,82,4524,7,34,56,0.9,0.0,394,4.76,13.3,0.0,1,26.3,2.59,5.6,0,0,0,1,0,,,,,,,,,,,,,,,,,,,,
129243,1626539441262,12,9,252,255,237,233,-0,-0.05,-0.01,-2.05,0,-2,-1,0.06,0,82,4527,7,34,56,0.901,0.0,384,4.82,13.1,0.0,1,26.3,1.47,5.6,0,0,0,1,0,0,250,250,0,45.700359,4.909392,0.0,194.0,10,3,1.8,0,0.0,0,0.0,0.0,0.8767,1,0.03,2.154
129263,1626539441282,,,252,255,237,233,,-0.05,-0.01,-1.89,0,-4,-2,0.05,,82,4575,7,34,56,0.903,0.0,387,4.77,13.3,0.0,1,26.9,2.62,5.6,0,0,0,1,0,,,,,,,,,,,,,,,,,,,,
129283,1626539441298,,,252,256,237,233,,-0.04,0.01,-1.75,0,-5,-3,0.04,,82,4549,7,34,56,0.903,0.0,387,4.77,13.2,0.0,1,26.6,2.6,5.5,0,0,0,1,0,,,,,,,,,,,,,,,,,,,,
129303,1626539441318,,,252,255,237,232,,-0.03,0.03,-1.61,0,-6,-3,0.04,,82,4577,7,34,56,0.904,0.0,388,4.77,13.3,0.0,1,27.0,2.62,5.5,0,0,0,1,0,,,,,,,,,,,,,,,,,,,,
129323,1626539441338,,,252,255,237,233,,-0.02,0.06,-1.58,0,-6,-4,0.06,,82,4555,7,34,57,0.905,0.0,393,4.83,13.4,0.0,1,27.0,2.6,5.5,0,0,0,1,0,,,,,,,,,,,,,,,,,,,,
129343,1626539441358,12,9,252,255,237,233,-1,0.01,0.06,-1.6,0,-6,-4,0.06,0,82,4574,7,34,56,0.905,0.0,387,4.8,13.4,0.0,1,26.9,2.62,5.5,0,0,0,1,0,0,250,250,0,45.700359,4.909392,0.0,194.0,10,3,1.8,0,0.0,0,0.0,,0.8783,1,0.03,2.1557
129363,1626539441378,,,252,255,237,233,,0.03,0.04,-1.73,0,-6,-4,0.05,,82,4578,7,34,57,0.907,0.0,393,4.86,13.4,0.0,1,27.3,2.62,5.5,0,0,0,1,0,,,,,,,,,,,,,,,,,,,,
129383,1626539441392,,,252,256,237,233,,0.04,0.02,-1.91,0,-5,-4,0.05,,82,4562,7,34,56,0.908,0.0,394,4.79,13.4,0.0,1,26.8,2.61,5.6,0,0,0,1,0,,,,,,,,,,,,,,,,,,,,
129403,1626539441412,,,252,255,237,233,,0.06,-0.0,-2.07,0,-4,-4,0.06,,82,4578,7,34,57,0.909,0.0,388,4.83,13.4,0.0,1,27.3,2.62,5.6,0,0,0,1,0,,,,,,,,,,,,,,,,,,,,
129423,1626539441432,,,252,255,237,233,,0.08,-0.04,-2.21,0,-3,-4,0.09,,82,4588,7,34,57,0.91,0.0,392,4.8,13.4,0.0,1,27.4,2.62,5.6,0,0,0,1,0,,,,,,,,,,,,,,,,,,,,
129443,1626539441452,13,9,252,255,237,232,0,0.09,-0.06,-2.35,0,-2,-3,0.11,0,82,4554,7,34,56,0.911,0.0,387,4.81,13.4,0.0,1,26.7,1.48,5.6,0,0,0,1,0,0,250,250,0,45.700359,4.909392,0.0,194.0,10,3,1.8,0,0.0,0,0.0,0.0,0.88,1,0.03,2.1574
129463,1626539441472,,,252,256,237,233,,0.1,-0.06,-2.48,0,0,-2,0.11,,82,4597,7,34,57,0.911,0.0,390,4.81,13.3,0.0,1,27.5,2.63,5.6,0,0,0,1,0,,,,,,,,,,,,,,,,,,,,
129483,1626539441492,,,252,255,237,232,,0.09,-0.08,-2.59,0,1,-0,0.12,,82,4594,7,34,56,0.912,0.0,398,4.82,13.4,0.0,1,27.2,2.62,5.6,0,0,0,1,0,,,,,,,,,,,,,,,,,,,,
129503,1626539441509,,,252,255,237,233,,0.08,-0.08,-2.7,0,2,1,0.12,,82,4592,7,34,56,0.913,0.0,389,4.83,13.2,0.0,1,27.2,1.51,5.6,0,0,0,1,0,,,,,,,,,,,,,,,,,,,,
129523,1626539441529,,,252,255,237,233,,0.06,-0.07,-2.8,0,3,2,0.09,,82,4651,7,34,56,0.911,0.0,400,4.83,13.1,0.0,1,27.9,1.54,5.6,0,0,0,1,0,,,,,,,,,,,,,,,,,,,,
129543,1626539441549,13,8,252,254,237,233,0,0.02,-0.06,-2.84,0,3,2,0.06,0,82,4628,7,34,56,0.911,0.0,393,4.82,13.1,0.0,1,27.6,2.64,5.6,0,0,0,1,0,0,250,250,0,45.700359,4.909392,0.0,194.0,10,3,1.8,0,0.0,0,0.0,,0.8817,1,0.03,2.159
129563,1626539441569,,,252,255,237,233,,-0.01,-0.07,-2.77,0,3,2,0.07,,82,4618,7,34,56,0.91,0.0,396,4.83,13.1,0.0,1,27.5,2.63,5.6,0,0,0,1,0,,,,,,,,,,,,,,,,,,,,
129583,1626539441607,,,252,254,237,232,,-0.03,-0.05,-2.59,0,2,1,0.06,,82,4587,7,34,56,0.91,0.0,391,4.82,13.3,0.0,1,27.1,2.62,5.6,0,0,0,1,0,,,,,,,,,,,,,,,,,,,,
129603,1626539441627,,,252,254,237,233,,-0.04,-0.03,-2.39,0,1,0,0.06,,82,4532,7,34,56,0.91,0.0,385,4.78,13.3,0.0,1,26.4,2.59,5.6,0,0,0,1,0,,,,,,,,,,,,,,,,,,,,
129623,1626539441647,,,252,255,237,233,,-0.04,-0.02,-2.21,0,-2,-1,0.05,,82,4580,7,34,56,0.909,0.0,393,4.8,13.2,0.0,1,27.0,2.62,5.6,0,0,0,1,0,,,,,,,,,,,,,,,,,,,,
129643,1626539441667,13,7,252,255,237,233,-0,-0.03,-0.0,-2.04,0,-3,-2,0.03,0,82,4526,7,34,56,0.909,0.0,390,4.82,13.4,0.0,1,26.3,1.47,5.6,0,0,0,1,0,0,250,250,0,45.700359,4.909392,0.0,194.0,10,3,1.8,0,0.0,0,0.0,0.0,0.8833,1,0.03,2.1607
129663,1626539441687,,,252,254,237,233,,-0.04,-0.0,-1.88,0,-4,-2,0.04,,82,4559,7,34,56,0.909,0.0,387,4.79,13.3,0.0,1,26.7,1.49,5.6,0,0,0,1,0,,,,,,,,,,,,,,,,,,,,
129683,1626539441705,,,252,255,237,233,,-0.03,-0.01,-1.76,0,-4,-3,0.03,,82,4572,7,34,56,0.91,0.0,389,4.76,13.3,0.0,1,26.9,2.62,5.5,0,0,0,1,0,,,,,,,,,,,,,,,,,,,,
129703,1626539441725,,,252,255,237,233,,-0.0,-0.01,-1.62,0,-5,-3,0.01,,82,4564,7,34,56,0.912,0.0,384,4.83,13.4,0.0,1,26.8,2.61,5.5,0,0,0,1,0,,,,,,,,,,,,,,,,,,,,
129723,1626539441745,,,252,255,237,233,,0.02,-0.0,-1.58,0,-5,-4,0.02,,82,4560,7,34,56,0.913,0.0,389,4.83,13.4,0.0,1,26.8,2.61,5.5,0,0,0,1,0,,,,,,,,,,,,,,,,,,,,
129743,1626539441765,11,9,252,254,237,232,-0,0.04,0.01,-1.66,0,-5,-4,0.04,0,82,4580,7,34,56,0.913,0.0,387,4.82,13.4,0.0,1,27.0,2.62,5.5,0,0,0,1,0,0,250,250,0,45.700359,4.909392,0.0,194.0,10,3,1.8,0,0.0,0,0.0,,0.885,1,0.03,2.1624
129763,1626539441785,,,252,255,237,233,,0.06,-0.01,-1.84,0,-4,-4,0.06,,82,4610,7,34,56,0.914,0.0,390,4.81,13.4,0.0,1,27.4,2.63,5.5,0,0,0,1,0,,,,,,,,,,,,,,,,,,,,
129783,1626539441801,,,252,255,237,233,,0.07,-0.03,-2.01,0,-2,-3,0.08,,82,4585,7,34,56,0.914,0.0,395,4.86,13.4,0.0,1,27.1,2.62,5.6,0,0,0,1,0,,,,,,,,,,,,,,,,,,,,
129803,1626539441821,,,252,255,237,233,,0.08,-0.06,-2.16,0,-1,-2,0.1,,82,4627,7,34,56,0.913,0.0,389,4.8,13.3,0.0,1,27.6,2.64,5.6,0,0,0,1,0,,,,,,,,,,,,,,,,,,,,
129823,1626539441841,,,252,255,237,233,,0.07,-0.02,-2.3,0,1,-0,0.07,,82,4591,7,34,56,0.913,0.0,397,4.78,13.4,0.0,1,27.1,1.51,5.6,0,0,0,1,0,,,,,,,,,,,,,,,,,,,,
129843,1626539441861,12,8,252,256,237,233,-0,0.07,-0.04,-2.43,0,2,1,0.08,0,82,4587,7,34,56,0.911,0.0,386,4.82,13.2,0.0,1,27.1,1.51,5.6,0,0,0,1,0,0,250,250,0,45.700359,4.909392,0.0,194.0,10,3,1.8,0,0.0,0,0.0,0.0,0.8867,1,0.03,2.1641
129863,1626539441881,,,252,255,237,232,,0.04,-0.02,-2.42,0,3,2,0.04,,82,4564,7,34,56,0.909,0.0,394,4.76,13.3,0.0,1,26.8,1.49,5.6,0,0,0,1,0,,,,,,,,,,,,,,,,,,,,
129883,1626539441901,,,252,255,237,232,,0.01,-0.02,-2.42,0,3,3,0.02,,82,4549,7,34,56,0.907,0.0,389,4.78,13.3,0.0,1,27.1,2.62,5.4,0,0,0,1,0,,,,,,,,,,,,,,,,,,,,
129903,1626539441921,,,252,255,237,233,,-0.01,-0.01,-2.3,0,3,3,0.01,,82,4601,7,34,56,0.903,0.0,394,4.85,13.1,0.0,1,27.3,1.52,5.4,0,0,0,1,0,,,,,,,,,,,,,,,,,,,,
129923,1626539441941,,,252,254,237,233,,-0.03,-0.0,-2.13,0,3,3,0.03,,82,4574,7,34,56,0.902,0.0,394,4.82,13.1,0.0,1,26.9,2.62,5.4,0,0,0,1,0,,,,,,,,,,,,,,,,,,,,
129943,1626539441961,13,9,252,255,237,233,-1,-0.03,0.01,-1.97,0,2,2,0.04,0,82,4588,7,34,56,0.901,0.0,389,4.88,13.1,0.0,1,27.1,2.62,5.4,0,0,0,1,0,0,250,250,0,45.700359,4.909392,0.0,194.0,10,3,1.8,0,0.0,0,0.0,,0.8883,1,0.03,2.1657
129963,1626539441981,,,252,255,237,232,,-0.04,0.03,-1.81,0,1,1,0.05,,82,4539,7,34,56,0.899,0.0,388,4.81,13.2,0.0,1,26.5,2.59,5.4,0,0,0,1,0,,,,,,,,,,,,,,,,,,,,
129983,1626539441993,,,252,255,237,232,,-0.04,0.05,-1.67,0,0,1,0.06,,82,4503,7,34,56,0.897,0.0,386,4.85,13.1,0.0,1,26.0,2.58,5.4,0,0,0,1,0,,,,,,,,,,,,,,,,,,,,
130003,1626539442013,,,252,255,237,233,,-0.04,0.06,-1.54,0,-1,0,0.08,,82,4555,7,34,56,0.896,0.0,383,4.82,13.1,0.0,1,26.7,2.6,5.4,0,0,0,1,0,,,,,,,,,,,,,,,,,,,,
130023,1626539442033,,,252,255,237,232,,-0.03,0.05,-1.42,0,-3,-1,0.06,,82,4520,7,34,56,0.897,0.0,391,4.76,13.3,0.0,1,26.3,2.59,5.4,0,0,0,1,0,,,,,,,,,,,,,,,,,,,,
130043,1626539442053,11,8,252,255,237,233,-0,-0.02,0.05,-1.31,0,-4,-2,0.06,0,82,4535,7,34,56,0.897,0.0,384,4.83,13.1,0.0,1,26.4,1.47,5.4,0,0,0,1,0,0,250,250,0,45.700359,4.909392,0.0,194.0,10,3,1.8,0,0.0,0,0.0,0.0,0.89,1,0.03,2.1674
130063,1626539442073,,,252,256,237,232,,-0.0,0.07,-1.21,0,-5,-3,0.07,,82,4554,7,34,56,0.899,0.0,388,4.76,13.3,0.0,1,26.7,2.6,5.4,0,0,0,1,0,,,,,,,,,,,,,,,,,,,,
130083,1626539442091,,,252,255,237,233,,0.0,0.08,-1.22,0,-6,-3,0.08,,82,4542,7,34,56,0.9,0.0,387,4.78,13.2,0.0,1,26.5,2.6,5.4,0,0,0,1,0,,,,,,,,,,,,,,,,,,,,
130103,1626539442111,,,252,255,237,233,,0.02,0.09,-1.27,0,-7,-4,0.09,,82,4555,7,34,56,0.902,0.0,384,4.76,13.2,0.0,1,26.7,2.6,5.4,0,0,0,1,0,,,,,,,,,,,,,,,,,,,,
130123,1626539442131,,,252,255,237,233,,0.03,0.08,-1.39,0,-8,-4,0.08,,82,4555,7,34,56,0.904,0.0,389,4.78,13.3,0.0,1,26.7,2.6,5.4,0,0,0,1,0,,,,,,,,,,,,,,,,,,,,
130143,1626539442151,12,8,252,255,237,233,0,0.05,0.07,-1.56,0,-8,-5,0.08,0,82,4584,7,34,57,0.906,0.0,385,4.83,13.4,0.0,1,27.4,2.62,5.4,0,0,0,1,0,0,250,250,0,45.700359,4.909392,0.0,194.0,10,3,1.8,0,0.0,0,0.0,,0.8917,1,0.03,2.169
130163,1626539442171,,,252,255,237,233,,0.06,0.05,-1.75,0,-8,-5,0.08,,82,4568,7,34,56,0.908,0.0,391,4.83,13.4,0.0,1,26.9,2.61,5.4,0,0,0,1,0,,,,,,,,,,,,,,,,,,,,
130183,1626539442207,,,252,255,237,232,,0.08,0.02,-1.92,0,-7,-5,0.08,,82,4584,7,34,57,0.911,0.0,391,4.86,13.4,0.0,1,27.4,2.62,5.5,0,0,0,1,0,,,,,,,,,,,,,,,,,,,,
130203,1626539442227,,,252,255,237,233,,0.09,-0.01,-2.08,0,-6,-5,0.09,,82,4573,7,34,57,0.912,0.0,388,4.84,13.4,0.0,1,27.2,2.62,5.5,0,0,0,1,0,,,,,,,,,,,,,,,,,,,,
130223,1626539442247,,,252,255,237,233,,0.1,-0.01,-2.22,0,-5,-5,0.1,,82,4574,7,34,57,0.914,0.0,391,4.83,13.4,0.0,1,27.2,2.62,5.5,0,0,0,1,0,,,,,,,,,,,,,,,,,,,,
130243,1626539442267,13,9,252,254,237,233,-0,0.1,-0.03,-2.36,0,-4,-4,0.1,0,82,4544,7,34,57,0.915,0.0,388,4.82,13.4,0.0,1,26.9,2.61,5.5,0,0,0,1,0,0,250,250,0,45.700359,4.909392,0.0,194.0,10,3,1.8,0,0.0,0,0.0,0.0,0.8933,1,0.03,2.1707
130263,1626539442287,,,252,256,237,233,,0.11,-0.07,-2.49,0,-2,-3,0.13,,82,4518,7,34,56,0.915,0.0,387,4.77,13.4,0.0,1,26.2,1.47,5.5,0,0,0,1,0,,,,,,,,,,,,,,,,,,,,
130283,1626539442305,,,252,255,237,232,,0.1,-0.08,-2.6,0,-1,-2,0.13,,82,4528,7,34,57,0.914,0.0,392,4.8,13.4,0.0,1,26.7,2.6,5.4,0,0,0,1,0,,,,,,,,,,,,,,,,,,,,
130303,1626539442325,,,252,255,237,232,,0.1,-0.08,-2.71,0,1,-1,0.13,,82,4510,7,34,57,0.914,0.0,384,4.83,13.4,0.0,1,26.4,1.47,5.4,0,0,0,1,0,,,,,,,,,,,,,,,,,,,,
130323,1626539442345,,,252,255,237,232,,0.11,-0.1,-2.81,0,2,-0,0.15,,82,4528,7,34,57,0.913,0.0,391,4.83,13.4,0.0,1,26.7,2.6,5.4,0,0,0,1,0,,,,,,,,,,,,,,,,,,,,
130343,1626539442365,13,7,252,255,237,233,0,0.11,-0.13,-2.9,0,3,1,0.17,0,82,4530,7,34,57,0.912,0.0,384,4.8,13.3,0.0,1,26.7,2.6,5.4,0,0,0,1,0,0,250,250,0,45.700359,4.909392,0.0,194.0,10,3,1.8,0,0.0,0,0.0,,0.895,1,0.03,2.1724
130363,1626539442385,,,252,255,237,233,,0.11,-0.15,-2.98,0,4,2,0.18,,82,4514,7,34,57,0.911,0.0,385,4.82,13.4,0.0,1,26.5,2.6,5.4,0,0,0,1,0,,,,,,,,,,,,,,,,,,,,
130383,1626539442399,,,252,255,237,232,,0.1,-0.15,-3.06,0,5,3,0.18,,82,4530,7,34,57,0.91,0.0,382,4.8,13.3,0.0,1,26.7,1.48,5.4,0,0,0,1,0,,,,,,,,,,,,,,,,,,,,
130403,1626539442419,,,252,255,237,233,,0.1,-0.15,-3.13,0,6,3,0.18,,82,4500,7,34,57,0.909,0.0,385,4.79,13.3,0.0,1,26.3,1.47,5.4,0,0,0,1,0,,,,,,,,,,,,,,,,,,,,
130423,1626539442439,,,252,255,237,233,,0.1,-0.16,-3.2,0,6,4,0.19,,82,4499,7,34,57,0.907,0.0,386,4.82,13.4,0.0,1,26.3,2.58,5.4,0,0,0,1,0,,,,,,,,,,,,,,,,,,,,
130443,1626539442459,13,8,252,255,237,233,-0,0.09,-0.16,-3.26,0,7,5,0.19,0,82,4509,7,34,57,0.906,0.0,385,4.82,13.3,0.0,1,26.4,2.59,5.4,0,0,0,1,0,0,250,250,0,45.700359,4.909392,0.0,194.0,10,3,1.8,0,0.0,0,0.0,0.0,0.8967,1,0.03,2.1741
130463,1626539442479,,,252,256,237,232,,0.09,-0.16,-3.31,0,8,6,0.18,,82,4492,7,34,57,0.905,0.0,382,4.81,13.4,0.0,1,26.2,2.58,5.4,0,0,0,1,0,,,,,,,,,,,,,,,,,,,,
130483,1626539442496,,,252,255,237,233,,0.09,-0.15,-3.36,0,8,6,0.17,,82,4525,7,34,57,0.904,0.0,384,4.78,13.3,0.0,1,26.6,1.48,5.4,0,0,0,1,0,,,,,,,,,,,,,,,,,,,,
130503,1626539442516,,,252,255,237,232,,0.09,-0.15,-3.41,0,8,7,0.17,,82,4506,7,34,57,0.903,0.0,378,4.79,13.3,0.0,1,26.4,1.47,5.4,0,0,0,1,0,,,,,,,,,,,,,,,,,,,,
130523,1626539442536,,,252,255,237,233,,0.08,-0.14,-3.46,0,9,8,0.16,,82,4547,7,34,57,0.903,0.0,383,4.82,13.3,0.0,1,26.9,1.49,5.4,0,0,0,1,0,,,,,,,,,,,,,,,,,,,,
130543,1626539442556,12,9,252,255,237,233,-0,0.06,-0.15,-3.5,1,9,8,0.17,0,82,4507,7,34,57,0.903,0.0,378,4.79,13.4,0.0,1,26.4,2.59,5.4,0,0,0,1,0,0,250,250,0,45.700359,4.909392,0.0,194.0,10,3,1.8,0,0.0,0,0.0,,0.8983,1,0.03,2.1757
130563,1626539442576,,,252,255,237,233,,0.06,-0.14,-3.54,1,9,9,0.15,,82,4565,7,34,57,0.903,0.0,390,4.81,13.2,0.0,1,27.1,1.5,5.4,0,0,0,1,0,,,,,,,,,,,,,,,,,,,,
130583,1626539442596,,,252,255,237,232,,0.04,-0.11,-3.47,1,9,9,0.12,,82,4562,7,34,57,0.903,0.0,389,4.84,13.2,0.0,1,27.0,2.62,5.6,0,0,0,1,0,,,,,,,,,,,,,,,,,,,,
130603,1626539442610,,,252,255,237,233,,0.01,-0.08,-3.37,1,9,9,0.08,,82,4625,7,34,57,0.904,0.0,387,4.86,13.1,0.0,1,27.9,1.54,5.6,0,0,0,1,0,,,,,,,,,,,,,,,,,,,,
130623,1626539442630,,,252,255,237,233,,-0.01,-0.05,-3.13,0,8,8,0.05,,82,4602,7,34,57,0.905,0.0,390,4.82,13.1,0.0,1,27.6,1.52,5.6,0,0,0,1,0,,,,,,,,,,,,,,,,,,,,
130643,1626539442650,11,9,252,256,237,233,-0,-0.03,-0.05,-2.98,0,8,7,0.06,0,82,4578,7,34,56,0.905,0.0,388,4.83,13.1,0.0,1,27.0,2.62,5.6,0,0,0,1,0,0,250,250,0,45.700359,4.909392,0.0,194.0,10,3,1.8,0,0.0,0,0.0,0.0,0.9,1,0.03,2.1774
130663,1626539442670,,,252,255,237,232,,-0.05,-0.02,-2.75,0,6,6,0.05,,82,4637,7,34,57,0.906,0.0,393,4.83,13.2,0.0,1,28.0,1.54,5.6,0,0,0,1,0,,,,,,,,,,,,,,,,,,,,
130683,1626539442710,,,252,254,237,233,,-0.04,-0.01,-2.54,0,4,5,0.04,,82,4548,7,34,56,0.906,0.0,394,4.76,13.3,0.0,1,26.6,2.6,5.6,0,0,0,1,0,,,,,,,,,,,,,,,,,,,,
130703,1626539442730,,,252,256,237,233,,-0.02,-0.02,-2.34,0,2,3,0.03,,82,4575,7,34,56,0.906,0.0,391,4.81,13.2,0.0,1,26.9,2.62,5.6,0,0,0,1,0,,,,,,,,,,,,,,,,,,,,
130723,1626539442750,,,252,255,237,233,,-0.0,-0.01,-2.19,0,1,2,0.01,,82,4572,7,34,57,0.906,0.0,397,4.83,13.4,0.0,1,27.2,2.62,5.6,0,0,0,1,0,,,,,,,,,,,,,,,,,,,,
130743,1626539442770,12,9,252,254,237,233,-1,0.01,0.02,-2.17,0,-0,2,0.02,0,82,4568,7,34,57,0.905,0.0,388,4.81,13.4,0.0,1,27.2,2.61,5.6,0,0,0,1,0,0,250,250,0,45.700359,4.909392,0.0,194.0,10,3,2.3,0,0.0,0,0.0,,0.9017,1,0.03,2.179
130763,1626539442790,,,252,255,237,233,,0.03,0.01,-2.27,0,-1,1,0.03,,82,4569,7,34,56,0.905,0.0,392,4.76,13.3,0.0,1,26.9,2.61,5.6,0,0,0,1,0,,,,,,,,,,,,,,,,,,,,
130783,1626539442806,,,252,255,237,233,,0.05,-0.01,-2.39,0,-2,-0,0.05,,82,4510,7,34,57,0.904,0.0,387,4.81,13.4,0.0,1,26.4,2.58,5.4,0,0,0,1,0,,,,,,,,,,,,,,,,,,,,
130803,1626539442826,,,252,255,237,233,,0.07,-0.0,-2.44,0,-2,-1,0.07,,82,4534,7,34,57,0.904,0.0,383,4.77,13.3,0.0,1,26.7,2.59,5.4,0,0,0,1,0,,,,,,,,,,,,,,,,,,,,
130823,1626539442846,,,252,255,237,232,,0.07,-0.01,-2.56,0,-2,-2,0.07,,82,4537,7,34,57,0.904,0.0,391,4.87,13.4,0.0,1,26.8,2.59,5.4,0,0,0,1,0,,,,,,,,,,,,,,,,,,,,
130843,1626539442866,13,8,252,255,237,233,-0,0.08,-0.0,-2.67,0,-2,-2,0.08,0,82,4479,7,34,57,0.903,0.0,381,4.85,13.4,0.0,1,26.0,2.57,5.4,0,0,0,1,0,0,250,250,0,45.700359,4.909392,0.0,194.0,10,3,2.3,0,0.0,0,0.0,0.0,0.9033,1,0.03,2.1807
130863,1626539442886,,,252,255,237,232,,0.09,-0.02,-2.77,0,-1,-2,0.09,,82,4583,7,34,57,0.903,0.0,386,4.77,13.4,0.0,1,27.3,2.62,5.4,0,0,0,1,0,,,,,,,,,,,,,,,,,,,,
130883,1626539442904,,,252,255,237,232,,0.09,-0.03,-2.87,0,0,-2,0.09,,82,4530,7,34,57,0.902,0.0,384,4.82,13.4,0.0,1,26.7,2.6,5.6,0,0,0,1,0,,,,,,,,,,,,,,,,,,,,
130903,1626539442924,,,252,254,237,233,,0.1,-0.06,-2.95,0,1,-2,0.12,,82,4555,7,34,57,0.902,0.0,383,4.85,13.4,0.0,1,27.0,2.61,5.6,0,0,0,1,0,,,,,,,,,,,,,,,,,,,,
130923,1626539442944,,,252,255,237,233,,0.11,-0.11,-3.03,0,2,-1,0.15,,82,4653,7,34,57,0.902,0.0,388,4.78,13.4,0.0,1,28.2,1.55,5.6,0,0,0,1,0,,,,,,,,,,,,,,,,,,,,
130943,1626539442964,12,9,252,255,237,233,-0,0.11,-0.1,-3.11,0,3,-0,0.15,0,82,4552,7,34,57,0.902,0.0,388,4.8,13.3,0.0,1,27.0,2.61,5.6,0,0,0,1,0,0,250,250,0,45.700359,4.909392,0.0,194.0,10,3,2.3,0,0.0,0,0.0,,0.905,1,0.03,2.1824
130963,1626539442984,,,252,255,237,232,,0.1,-0.09,-3.17,0,4,1,0.13,,82,4622,7,34,57,0.903,0.0,391,4.76,13.4,0.0,1,27.8,1.53,5.6,0,0,0,1,0,,,,,,,,,,,,,,,,,,,,
130983,1626539442996,,,252,255,237,233,,0.08,-0.07,-3.24,0,5,2,0.11,,82,4614,7,34,57,0.904,0.0,398,4.78,13.3,0.0,1,27.7,2.64,5.7,0,0,0,1,0,,,,,,,,,,,,,,,,,,,,
131003,1626539443016,,,252,255,237,232,,0.06,-0.04,-3.29,0,5,3,0.07,,82,4591,7,34,56,0.904,0.0,388,4.83,13.1,0.0,1,27.1,1.51,5.7,0,0,0,1,0,,,,,,,,,,,,,,,,,,,,
131023,1626539443036,,,252,255,237,233,,0.03,-0.02,-3.14,0,5,3,0.04,,82,4657,7,34,56,0.904,0.0,393,4.82,13.2,0.0,1,28.0,1.55,5.7,0,0,0,1,0,,,,,,,,,,,,,,,,,,,,
131043,1626539443056,11,8,252,255,237,233,-0,0.0,0.0,-2.95,0,5,3,0.0,0,82,4560,7,34,56,0.904,0.0,387,4.82,13.1,0.0,1,26.8,2.61,5.7,0,0,0,1,0,0,250,250,0,45.700359,4.909392,0.0,194.0,10,3,2.3,0,0.0,0,0.0,0.0,0.9067,1,0.03,2.1841
131063,1626539443076,,,252,256,237,233,,-0.02,-0.01,-2.75,0,4,2,0.02,,82,4612,7,34,56,0.905,0.0,394,4.81,13.2,0.0,1,27.4,2.63,5.7,0,0,0,1,0,,,,,,,,,,,,,,,,,,,,
131083,1626539443094,,,252,255,237,233,,-0.03,0.01,-2.53,0,3,1,0.03,,82,4592,7,34,56,0.904,0.0,393,4.81,13.3,0.0,1,27.2,1.51,5.6,0,0,0,1,0,,,,,,,,,,,,,,,,,,,,
131103,1626539443114,,,252,255,237,233,,-0.02,0.01,-2.34,0,2,1,0.02,,82,4522,7,34,56,0.904,0.0,388,4.84,13.1,0.0,1,26.3,2.59,5.6,0,0,0,1,0,,,,,,,,,,,,,,,,,,,,
131123,1626539443134,,,252,255,237,232,,-0.01,-0.0,-2.16,0,-1,-1,0.01,,82,4591,7,34,56,0.905,0.0,393,4.78,13.3,0.0,1,27.1,2.62,5.6,0,0,0,1,0,,,,,,,,,,,,,,,,,,,,
131143,1626539443154,12,7,252,255,237,233,-0,0.01,0.0,-2.0,0,-2,-1,0.01,0,82,4535,7,34,56,0.905,0.0,393,4.76,13.2,0.0,1,26.4,2.59,5.6,0,0,0,1,0,0,250,250,0,45.700359,4.909392,0.0,194.0,10,3,2.3,0,0.0,0,0.0,,0.9083,1,0.03,2.1857
131163,1626539443192,,,252,254,237,233,,0.02,0.03,-1.88,0,-3,-2,0.03,,82,4531,7,34,56,0.906,0.0,389,4.8,13.4,0.0,1,26.4,2.59,5.6,0,0,0,1,0,,,,,,,,,,,,,,,,,,,,
131183,1626539443212,,,252,255,237,233,,0.04,0.02,-1.94,0,-4,-2,0.04,,82,4583,7,34,56,0.905,0.0,387,4.73,13.3,0.0,1,27.0,1.5,5.5,0,0,0,1,0,,,,,,,,,,,,,,,,,,,,
131203,1626539443232,,,252,255,237,232,,0.05,-0.0,-1.98,0,-5,-3,0.05,,82,4502,7,34,56,0.905,0.0,387,4.76,13.4,0.0,1,26.0,2.58,5.5,0,0,0,1,0,,,,,,,,,,,,,,,,,,,,
131223,1626539443252,,,252,255,237,233,,0.07,0.03,-1.95,0,-5,-4,0.07,,82,4592,7,34,57,0.906,0.0,393,4.82,13.4,0.0,1,27.5,2.62,5.5,0,0,0,1,0,,,,,,,,,,,,,,,,,,,,
131243,1626539443272,11,9,252,255,237,233,-0,0.08,0.0,-2.11,0,-4,-4,0.08,0,82,4610,7,34,57,0.906,0.0,392,4.79,13.4,0.0,1,27.7,1.52,5.5,0,0,0,1,0,0,250,250,0,45.700359,4.909392,0.0,194.0,10,3,2.3,0,0.0,0,0.0,0.0,0.91,1,0.03,2.1874
131263,1626539443292,,,252,255,237,232,,0.1,-0.02,-2.25,0,-4,-4,0.1,,82,4553,7,34,57,0.907,0.0,390,4.85,13.4,0.0,1,27.0,2.6,5.5,0,0,0,1,0,,,,,,,,,,,,,,,,,,,,
131283,1626539443310,,,252,256,237,232,,0.11,-0.05,-2.39,0,-2,-3,0.12,,82,4665,7,34,57,0.908,0.0,391,4.9,13.4,0.0,1,28.4,1.55,5.5,0,0,0,1,0,,,,,,,,,,,,,,,,,,,,
131303,1626539443330,,,252,255,237,233,,0.1,-0.04,-2.51,0,-0,-2,0.11,,82,4614,7,34,56,0.909,0.0,392,4.8,13.3,0.0,1,27.4,1.52,5.5,0,0,0,1,0,,,,,,,,,,,,,,,,,,,,
131323,1626539443350,,,252,255,237,232,,0.1,-0.04,-2.62,0,1,-1,0.11,,82,4577,7,34,56,0.908,0.0,396,4.76,13.3,0.0,1,27.0,1.5,5.5,0,0,0,1,0,,,,,,,,,,,,,,,,,,,,
131343,1626539443370,13,8,252,256,237,233,-0,0.09,-0.03,-2.73,0,2,1,0.09,0,82,4611,7,34,56,0.909,0.0,387,4.75,13.2,0.0,1,27.1,2.63,5.5,0,0,0,1,0,0,250,250,0,45.700359,4.909392,0.0,194.0,10,3,2.3,0,0.0,0,0.0,,0.9117,1,0.03,2.189
131363,1626539443390,,,252,255,237,233,,0.06,-0.03,-2.82,0,2,2,0.07,,82,4555,7,34,56,0.909,0.0,390,4.85,13.2,0.0,1,26.6,2.6,5.5,0,0,0,1,0,,,,,,,,,,,,,,,,,,,,
131383,1626539443404,,,252,255,237,233,,0.04,-0.02,-2.85,0,3,3,0.05,,82,4596,7,34,56,0.909,0.0,390,4.8,13.3,0.0,1,27.2,1.51,5.4,0,0,0,1,0,,,,,,,,,,,,,,,,,,,,
131403,1626539443424,,,252,256,237,233,,0.02,-0.02,-2.82,0,3,3,0.03,,82,4560,7,34,56,0.908,0.0,390,4.85,13.2,0.0,1,26.8,2.61,5.4,0,0,0,1,0,,,,,,,,,,,,,,,,,,,,
131423,1626539443444,,,252,255,237,232,,-0.0,-0.0,-2.69,0,3,2,0.0,,82,4565,7,34,56,0.908,0.0,389,4.83,13.1,0.0,1,26.8,2.61,5.4,0,0,0,1,0,,,,,,,,,,,,,,,,,,,,
131443,1626539443464,11,9,252,255,237,233,-0,-0.02,0.02,-2.52,0,2,2,0.03,0,82,4550,7,34,56,0.907,0.0,387,4.86,13.1,0.0,1,26.6,1.48,5.4,0,0,0,1,0,0,250,250,0,45.700359,4.909392,0.0,194.0,10,3,2.4,0,0.0,0,0.0,0.0,0.9133,1,0.03,2.1907
131463,1626539443484,,,252,255,237,233,,-0.04,0.04,-2.33,0,1,1,0.05,,82,4473,7,34,56,0.907,0.0,384,4.87,13.1,0.0,1,25.7,2.56,5.4,0,0,0,1,0,,,,,,,,,,,,,,,,,,,,
131483,1626539443501,,,252,255,237,232,,-0.05,0.02,-2.22,0,1,1,0.06,,82,4470,7,34,56,0.907,0.0,385,4.8,13.1,0.0,1,25.6,2.55,5.3,0,0,0,1,0,,,,,,,,,,,,,,,,,,,,
131503,1626539443521,,,252,255,237,233,,-0.07,0.03,-2.06,0,-0,1,0.07,,82,4506,7,34,57,0.907,0.0,380,4.82,13.1,0.0,1,26.4,1.47,5.3,0,0,0,1,0,,,,,,,,,,,,,,,,,,,,
131523,1626539443541,,,252,255,237,233,,-0.08,0.07,-1.9,0,-1,0,0.11,,82,4481,7,34,57,0.907,0.0,385,4.84,13.2,0.0,1,26.1,2.57,5.3,0,0,0,1,0,,,,,,,,,,,,,,,,,,,,
131543,1626539443561,13,9,252,255,237,233,-0,-0.09,0.07,-1.76,0,-2,0,0.12,0,82,4556,7,34,56,0.906,0.0,381,4.81,13.1,0.0,1,26.7,2.62,5.3,0,0,0,1,0,0,250,250,0,45.700359,4.909392,0.0,194.0,10,3,2.4,0,0.0,0,0.0,,0.915,1,0.03,2.1924
131563,1626539443581,,,252,255,237,233,,-0.1,0.07,-1.65,0,-2,-0,0.12,,82,4524,7,34,57,0.906,0.0,391,4.84,13.1,0.0,1,26.6,2.6,5.3,0,0,0,1,0,,,,,,,,,,,,,,,,,,,,
131583,1626539443595,,,252,255,237,233,,-0.11,0.08,-1.55,0,-3,-0,0.14,,82,4534,7,34,56,0.906,0.0,383,4.78,13.2,0.0,1,26.4,2.6,5.4,0,0,0,1,0,,,,,,,,,,,,,,,,,,,,
131603,1626539443615,,,252,255,237,233,,-0.11,0.1,-1.43,0,-5,-2,0.16,,82,4626,7,34,57,0.906,0.0,390,4.85,13.3,0.0,1,27.9,1.54,5.4,0,0,0,1,0,,,,,,,,,,,,,,,,,,,,
131623,1626539443635,,,252,255,237,232,,-0.11,0.12,-1.32,0,-6,-2,0.16,,82,4536,7,34,57,0.904,0.0,400,4.77,13.3,0.0,1,26.8,2.59,5.4,0,0,0,1,0,,,,,,,,,,,,,,,,,,,,
131643,1626539443655,12,9,252,255,237,233,0,-0.1,0.13,-1.22,0,-7,-3,0.17,0,82,4628,7,34,57,0.905,0.0,389,4.76,13.3,0.0,1,27.9,2.65,5.4,0,0,0,1,0,0,250,250,0,45.700359,4.909392,0.0,194.0,10,3,2.4,0,0.0,0,0.0,0.0,0.9167,1,0.03,2.1941
131663,1626539443675,,,252,255,237,233,,-0.08,0.15,-1.26,0,-7,-3,0.17,,82,4621,7,34,56,0.905,0.0,397,4.8,13.3,0.0,1,27.5,2.63,5.4,0,0,0,1,0,,,,,,,,,,,,,,,,,,,,
131683,1626539443691,,,252,255,237,233,,-0.05,0.14,-1.29,0,-7,-3,0.15,,82,4589,7,34,57,0.904,0.0,392,4.83,13.4,0.0,1,27.4,2.62,5.5,0,0,0,1,0,,,,,,,,,,,,,,,,,,,,
131703,1626539443711,,,252,255,237,233,,-0.02,0.11,-1.5,0,-7,-4,0.11,,82,4642,7,34,57,0.904,0.0,393,4.82,13.4,0.0,1,28.1,1.54,5.5,0,0,0,1,0,,,,,,,,,,,,,,,,,,,,
131723,1626539443731,,,252,255,237,233,,-0.0,0.06,-1.69,0,-6,-4,0.06,,82,4554,7,34,57,0.902,0.0,394,4.84,13.4,0.0,1,27.0,2.61,5.5,0,0,0,1,0,,,,,,,,,,,,,,,,,,,,
131743,1626539443751,12,9,252,254,237,232,-0,0.02,-0.0,-1.87,0,-4,-3,0.02,0,82,4638,7,34,57,0.9,0.0,391,4.81,13.4,0.0,1,28.0,2.65,5.5,0,0,0,1,0,0,250,250,0,45.700359,4.909392,0.0,194.0,10,3,2.4,0,0.0,0,0.0,,0.9183,1,0.03,2.1957
131763,1626539443791,,,252,255,237,233,,0.03,-0.04,-2.03,0,-3,-2,0.05,,82,4603,7,34,56,0.899,0.0,395,4.83,13.4,0.0,1,27.3,1.52,5.5,0,0,0,1,0,,,,,,,,,,,,,,,,,,,,
131783,1626539443811,,,252,256,237,233,,0.04,-0.05,-2.18,0,-1,-1,0.07,,82,4550,7,34,56,0.897,0.0,395,4.79,13.3,0.0,1,26.6,1.48,5.5,0,0,0,1,0,,,,,,,,,,,,,,,,,,,,
131803,1626539443831,,,252,254,237,233,,0.03,-0.04,-2.32,0,0,1,0.05,,82,4631,7,34,56,0.897,0.0,388,4.83,13.2,0.0,1,27.6,2.64,5.5,0,0,0,1,0,,,,,,,,,,,,,,,,,,,,
131823,1626539443851,,,252,255,237,233,,0.02,0.01,-2.45,0,1,2,0.02,,82,4600,7,34,56,0.898,0.0,394,4.78,13.3,0.0,1,27.3,1.52,5.5,0,0,0,1,0,,,,,,,,,,,,,,,,,,,,
131843,1626539443871,13,7,252,255,237,232,0,0.0,0.03,-2.57,0,2,3,0.03,0,82,4592,7,34,56,0.898,0.0,384,4.76,13.3,0.0,1,27.2,2.62,5.5,0,0,0,1,0,0,250,250,0,45.700359,4.909392,0.0,194.0,10,3,2.4,0,0.0,0,0.0,0.0,0.92,1,0.03,2.1974
131863,1626539443891,,,252,254,237,232,,-0.03,0.04,-2.46,0,2,2,0.05,,83,4604,7,34,56,0.899,0.0,393,4.86,13.2,0.0,1,27.3,1.52,5.5,0,0,0,1,0,,,,,,,,,,,,,,,,,,,,
131883,1626539443905,,,252,255,237,233,,-0.05,0.05,-2.41,0,1,2,0.07,,83,4541,7,34,56,0.899,0.0,388,4.84,13.1,0.0,1,26.5,2.6,5.6,0,0,0,1,0,,,,,,,,,,,,,,,,,,,,
131903,1626539443925,,,252,255,237,232,,-0.06,0.05,-2.26,0,1,1,0.08,,83,4542,7,34,56,0.9,0.0,391,4.81,13.2,0.0,1,26.5,2.6,5.6,0,0,0,1,0,,,,,,,,,,,,,,,,,,,,
131923,1626539443945,,,252,255,237,232,,-0.08,0.05,-2.13,0,0,1,0.1,,83,4488,7,34,56,0.901,0.0,389,4.77,13.2,0.0,1,25.9,2.57,5.6,0,0,0,1,0,,,,,,,,,,,,,,,,,,,,
131943,1626539443965,11,9,252,255,237,232,0,-0.09,0.07,-1.97,0,-1,-0,0.11,0,83,4495,7,34,56,0.902,0.0,383,4.85,13.2,0.0,1,25.9,2.58,5.6,0,0,0,1,0,0,250,250,0,45.700359,4.909392,0.0,194.0,10,3,2.4,0,0.0,0,0.0,,0.9217,1,0.03,2.199
131963,1626539443985,,,252,256,237,233,,-0.1,0.07,-1.81,0,-3,-1,0.12,,83,4470,7,34,56,0.903,0.0,383,4.78,13.2,0.0,1,25.6,2.55,5.6,0,0,0,1,0,,,,,,,,,,,,,,,,,,,,
131983,1626539443999,,,252,255,237,233,,-0.11,0.06,-1.68,0,-4,-1,0.12,,83,4480,7,34,57,0.904,0.0,381,4.86,13.1,0.0,1,26.0,2.57,5.3,0,0,0,1,0,,,,,,,,,,,,,,,,,,,,
132003,1626539444019,,,252,255,237,233,,-0.12,0.07,-1.61,0,-4,-1,0.14,,83,4472,7,34,57,0.906,0.0,379,4.85,13.2,0.0,1,25.9,2.56,5.3,0,0,0,1,0,,,,,,,,,,,,,,,,,,,,
132023,1626539444039,,,252,255,237,232,,-0.13,0.12,-1.49,0,-5,-2,0.18,,83,4519,7,34,56,0.908,0.0,389,4.76,13.1,0.0,1,26.2,1.47,5.3,0,0,0,1,0,,,,,,,,,,,,,,,,,,,,
132043,1626539444059,13,7,252,255,237,233,0,-0.13,0.13,-1.38,0,-6,-2,0.18,0,83,4499,7,34,57,0.909,0.0,380,4.89,13.2,0.0,1,26.3,1.46,5.3,0,0,0,1,0,0,250,250,0,45.700359,4.909392,0.0,194.0,10,3,2.3,0,0.0,0,0.0,0.0,0.9233,1,0.03,2.2007
132063,1626539444079,,,252,256,237,233,,-0.14,0.13,-1.39,0,-6,-2,0.19,,83,4527,7,34,57,0.91,0.0,391,4.81,13.1,0.0,1,26.6,2.6,5.3,0,0,0,1,0,,,,,,,,,,,,,,,,,,,,
132083,1626539444095,,,252,256,237,233,,-0.15,0.12,-1.32,0,-6,-2,0.2,,83,4515,7,34,57,0.911,0.0,385,4.82,13.2,0.0,1,26.5,2.6,5.4,0,0,0,1,0,,,,,,,,,,,,,,,,,,,,
132103,1626539444115,,,252,255,237,233,,-0.16,0.15,-1.23,0,-7,-3,0.22,,83,4481,7,34,57,0.911,0.0,383,4.86,13.1,0.0,1,26.1,2.57,5.4,0,0,0,1,0,,,,,,,,,,,,,,,,,,,,
132123,1626539444135,,,252,256,237,232,,-0.17,0.15,-1.14,0,-7,-3,0.23,,83,4525,7,34,57,0.912,0.0,383,4.78,13.2,0.0,1,26.6,2.6,5.4,0,0,0,1,0,,,,,,,,,,,,,,,,,,,,
132143,1626539444155,11,9,252,255,237,233,0,-0.18,0.13,-1.12,0,-7,-3,0.22,0,83,4513,7,34,57,0.913,0.0,385,4.82,13.1,0.0,1,26.5,2.59,5.4,0,0,0,1,0,0,250,250,0,45.700359,4.909392,0.0,194.0,10,3,2.3,0,0.0,0,0.0,,0.925,1,0.03,2.2024
132163,1626539444175,,,252,255,237,233,,-0.18,0.13,-1.04,0,-8,-3,0.23,,83,4535,7,34,57,0.913,0.0,390,4.78,13.2,0.0,1,26.7,2.6,5.4,0,0,0,1,0,,,,,,,,,,,,,,,,,,,,
132183,1626539444193,,,252,255,237,233,,-0.18,0.14,-0.96,0,-9,-4,0.23,,83,4575,7,34,57,0.914,0.0,389,4.85,13.1,0.0,1,27.2,1.51,5.4,0,0,0,1,0,,,,,,,,,,,,,,,,,,,,
132203,1626539444213,,,252,255,237,233,,-0.18,0.15,-0.89,0,-10,-4,0.24,,83,4546,7,34,57,0.914,0.0,385,4.82,13.1,0.0,1,26.9,2.61,5.4,0,0,0,1,0,,,,,,,,,,,,,,,,,,,,
132223,1626539444233,,,252,255,237,233,,-0.18,0.16,-0.82,0,-10,-5,0.23,,83,4588,7,34,57,0.914,0.0,388,4.8,13.3,0.0,1,27.4,2.62,5.4,0,0,0,1,0,,,,,,,,,,,,,,,,,,,,
132243,1626539444253,12,8,252,254,237,233,-0,-0.17,0.19,-0.75,0,-11,-5,0.25,0,83,4567,7,34,57,0.913,0.0,385,4.8,13.2,0.0,1,27.1,2.62,5.4,0,0,0,1,0,0,250,250,0,45.700359,4.909392,0.0,194.0,10,3,2.3,0,0.0,0,0.0,0.0,0.9267,1,0.03,2.2041
132263,1626539444273,,,252,255,237,233,,-0.14,0.17,-0.7,0,-11,-6,0.22,,83,4563,7,34,57,0.913,0.0,387,4.81,13.4,0.0,1,27.1,2.62,5.4,0,0,0,1,0,,,,,,,,,,,,,,,,,,,,
132283,1626539444309,,,252,255,237,232,,-0.12,0.15,-0.65,0,-12,-6,0.19,,83,4601,7,34,57,0.913,0.0,387,4.78,13.4,0.0,1,27.6,2.63,5.6,0,0,0,1,0,,,,,,,,,,,,,,,,,,,,
132303,1626539444329,,,252,255,237,232,,-0.08,0.14,-0.74,0,-11,-6,0.16,,83,4566,7,34,57,0.913,0.0,388,4.85,13.4,0.0,1,27.1,2.62,5.6,0,0,0,1,0,,,,,,,,,,,,,,,,,,,,
132323,1626539444349,,,252,254,237,233,,-0.06,0.14,-0.94,0,-10,-6,0.15,,83,4595,7,34,57,0.914,0.0,393,4.82,13.4,0.0,1,27.5,2.63,5.6,0,0,0,1,0,,,,,,,,,,,,,,,,,,,,
132343,1626539444369,12,8,252,256,237,233,-0,-0.03,0.1,-1.17,0,-8,-6,0.1,0,83,4596,7,34,57,0.914,0.0,389,4.91,13.4,0.0,1,27.5,2.62,5.6,0,0,0,1,0,0,250,250,0,45.700359,4.909392,0.0,194.0,10,3,2.3,0,0.0,0,0.0,,0.9283,1,0.03,2.2057
132363,1626539444389,,,252,255,237,232,,-0.01,0.08,-1.39,0,-7,-5,0.08,,83,4537,7,34,57,0.915,0.0,389,4.81,13.4,0.0,1,26.8,2.6,5.6,0,0,0,1,0,,,,,,,,,,,,,,,,,,,,
132383,1626539444407,,,252,254,237,233,,0.01,0.06,-1.59,0,-5,-4,0.06,,83,4549,7,34,57,0.915,0.0,379,4.78,13.4,0.0,1,26.9,2.61,5.4,0,0,0,1,0,,,,,,,,,,,,,,,,,,,,
132403,1626539444427,,,252,255,237,233,,0.02,0.02,-1.77,0,-4,-3,0.03,,83,4545,7,34,57,0.914,0.0,388,4.83,13.4,0.0,1,26.9,2.61,5.4,0,0,0,1,0,,,,,,,,,,,,,,,,,,,,
132423,1626539444447,,,252,255,237,233,,0.04,-0.01,-1.94,0,-2,-2,0.04,,83,4511,7,34,57,0.914,0.0,388,4.85,13.4,0.0,1,26.4,2.59,5.4,0,0,0,1,0,,,,,,,,,,,,,,,,,,,,
132443,1626539444467,12,8,252,255,237,233,-0,0.05,-0.02,-2.1,0,-0,-0,0.05,0,83,4606,7,34,57,0.913,0.0,386,4.82,13.4,0.0,1,27.6,1.52,5.4,0,0,0,1,0,0,250,250,0,45.700359,4.909392,0.0,194.0,10,3,2.3,0,0.0,0,0.0,0.0,0.93,1,0.03,2.2074
132463,1626539444487,,,252,255,237,232,,0.04,-0.01,-2.24,0,1,1,0.04,,83,4577,7,34,57,0.915,0.0,392,4.8,13.3,0.0,1,27.3,2.62,5.4,0,0,0,1,0,,,,,,,,,,,,,,,,,,,,
132483,1626539444501,,,252,255,237,233,,0.04,-0.01,-2.38,0,2,2,0.04,,83,4587,7,34,57,0.916,0.0,391,4.78,13.3,0.0,1,27.4,1.51,5.5,0,0,0,1,0,,,,,,,,,,,,,,,,,,,,
132503,1626539444521,,,252,255,237,233,,0.03,0.01,-2.5,0,2,3,0.03,,83,4665,7,34,57,0.918,0.0,392,4.78,13.3,0.0,1,28.0,1.54,5.5,0,0,0,1,0,,,,,,,,,,,,,,,,,,,,
132523,1626539444541,,,252,254,237,233,,0.0,0.02,-2.53,0,2,3,0.02,,83,4559,7,34,56,0.919,0.0,394,4.8,13.2,0.0,1,26.7,2.61,5.5,0,0,0,1,0,,,,,,,,,,,,,,,,,,,,
132543,1626539444561,12,8,252,255,237,233,-1,-0.03,0.02,-2.5,0,2,2,0.03,0,83,4626,7,34,56,0.919,0.0,389,4.83,13.1,0.0,1,27.6,2.64,5.5,0,0,0,1,0,0,250,250,0,45.700359,4.909392,0.0,194.0,10,3,2.3,0,0.0,0,0.0,,0.9317,1,0.03,2.209
132563,1626539444581,,,252,256,237,233,,-0.03,0.04,-2.31,0,1,1,0.05,,83,4542,7,34,56,0.918,0.0,401,4.82,13.1,0.0,1,26.5,2.6,5.5,0,0,0,1,0,,,,,,,,,,,,,,,,,,,,
132583,1626539444598,,,252,254,237,233,,-0.05,0.05,-2.14,0,0,1,0.07,,83,4541,7,34,56,0.918,0.0,390,4.77,13.3,0.0,1,26.5,1.48,5.4,0,0,0,1,0,,,,,,,,,,,,,,,,,,,,
132603,1626539444618,,,252,255,237,233,,-0.06,0.07,-1.97,0,-2,-0,0.09,,83,4524,7,34,56,0.916,0.0,385,4.77,13.3,0.0,1,26.3,2.59,5.4,0,0,0,1,0,,,,,,,,,,,,,,,,,,,,
132623,1626539444638,,,252,255,237,232,,-0.07,0.08,-1.82,0,-3,-1,0.11,,83,4482,7,34,56,0.914,0.0,384,4.84,13.1,0.0,1,25.8,1.44,5.4,0,0,0,1,0,,,,,,,,,,,,,,,,,,,,
132643,1626539444658,12,8,252,256,237,233,-0,-0.08,0.06,-1.68,0,-4,-2,0.1,0,83,4525,7,34,56,0.913,0.0,383,4.78,13.1,0.0,1,26.3,2.59,5.4,0,0,0,1,0,0,250,250,0,45.700359,4.909392,0.0,194.0,10,3,2.3,0,0.0,0,0.0,0.0,0.9333,1,0.03,2.2107
132663,1626539444678,,,252,255,237,232,,-0.09,0.05,-1.55,0,-5,-2,0.1,,83,4541,7,34,56,0.91,0.0,386,4.79,13.3,0.0,1,26.5,2.6,5.4,0,0,0,1,0,,,,,,,,,,,,,,,,,,,,
132683,1626539444694,,,252,255,237,233,,-0.08,0.06,-1.46,0,-7,-3,0.1,,83,4536,7,34,57,0.91,0.0,384,4.81,13.3,0.0,1,26.8,1.48,5.4,0,0,0,1,0,,,,,,,,,,,,,,,,,,,,
132703,1626539444714,,,252,255,237,233,,-0.05,0.06,-1.39,0,-8,-4,0.08,,83,4600,7,34,56,0.908,0.0,388,4.8,13.2,0.0,1,27.3,2.63,5.4,0,0,0,1,0,,,,,,,,,,,,,,,,,,,,
132723,1626539444734,,,252,255,237,233,,-0.02,0.06,-1.42,0,-9,-4,0.06,,83,4556,7,34,57,0.906,0.0,392,4.79,13.4,0.0,1,27.0,2.62,5.4,0,0,0,1,0,,,,,,,,,,,,,,,,,,,,
132743,1626539444754,11,9,252,254,237,233,0,0.0,0.05,-1.55,0,-9,-5,0.05,0,83,4596,7,34,57,0.905,0.0,387,4.82,13.4,0.0,1,27.5,1.52,5.4,0,0,0,1,0,0,250,250,0,45.700359,4.909392,0.0,194.0,10,3,2.3,0,0.0,0,0.0,,0.935,1,0.03,2.2124
132763,1626539444774,,,252,255,237,233,,0.02,0.02,-1.74,0,-8,-5,0.03,,83,4608,7,34,57,0.903,0.0,389,4.82,13.4,0.0,1,27.7,2.63,5.4,0,0,0,1,0,,,,,,,,,,,,,,,,,,,,
132783,1626539444792,,,252,255,237,232,,0.04,0.01,-1.91,0,-8,-5,0.04,,83,4582,7,34,57,0.901,0.0,385,4.83,13.4,0.0,1,27.3,2.62,5.6,0,0,0,1,0,,,,,,,,,,,,,,,,,,,,
132803,1626539444812,,,252,255,237,233,,0.05,-0.02,-2.07,0,-6,-4,0.05,,83,4628,7,34,57,0.9,0.0,389,4.84,13.4,0.0,1,27.9,2.65,5.6,0,0,0,1,0,,,,,,,,,,,,,,,,,,,,
132823,1626539444832,,,252,254,237,233,,0.06,-0.03,-2.22,0,-5,-4,0.06,,83,4563,7,34,57,0.899,0.0,395,4.81,13.4,0.0,1,27.1,2.62,5.6,0,0,0,1,0,,,,,,,,,,,,,,,,,,,,
132843,1626539444852,12,9,252,255,237,232,-0,0.06,-0.05,-2.36,0,-4,-3,0.07,0,83,4573,7,34,57,0.899,0.0,387,4.78,13.4,0.0,1,27.2,1.51,5.6,0,0,0,1,0,0,250,250,0,45.700359,4.909392,0.0,194.0,10,3,2.3,0,0.0,0,0.0,0.0,0.9367,1,0.03,2.2141
132863,1626539444872,,,252,256,237,232,,0.06,-0.06,-2.48,0,-2,-2,0.09,,83,4503,7,34,56,0.898,0.0,391,4.81,13.4,0.0,1,26.0,1.46,5.6,0,0,0,1,0,,,,,,,,,,,,,,,,,,,,
132883,1626539444910,,,252,255,237,233,,0.05,-0.05,-2.6,0,-1,-1,0.07,,83,4549,7,34,57,0.898,0.0,382,4.8,13.3,0.0,1,26.9,1.49,5.3,0,0,0,1,0,,,,,,,,,,,,,,,,,,,,
132903,1626539444930,,,252,255,237,233,,0.05,-0.04,-2.71,0,0,0,0.07,,83,4546,7,34,57,0.897,0.0,389,4.8,13.3,0.0,1,26.9,1.49,5.3,0,0,0,1,0,,,,,,,,,,,,,,,,,,,,
132923,1626539444950,,,252,255,237,233,,0.04,-0.05,-2.8,0,1,1,0.06,,83,4521,7,34,57,0.897,0.0,385,4.82,13.4,0.0,1,26.6,2.6,5.3,0,0,0,1,0,,,,,,,,,,,,,,,,,,,,
132943,1626539444970,12,8,252,255,237,233,-0,0.02,-0.05,-2.89,0,3,3,0.05,0,83,4559,7,34,57,0.897,0.0,384,4.83,13.3,0.0,1,27.0,1.5,5.3,0,0,0,1,0,0,250,250,0,45.700359,4.909392,0.0,194.0,10,3,2.3,0,0.0,0,0.0,,0.9383,1,0.03,2.2157
132963,1626539444990,,,252,255,237,233,,0.0,-0.05,-2.92,0,4,4,0.05,,83,4565,7,34,57,0.898,0.0,394,4.81,13.4,0.0,1,27.1,1.5,5.3,0,0,0,1,0,,,,,,,,,,,,,,,,,,,,
132983,1626539445004,,,252,255,237,233,,-0.0,-0.06,-2.96,0,4,4,0.06,,83,4498,7,34,57,0.898,0.0,389,4.8,13.4,0.0,1,26.3,2.58,5.4,0,0,0,1,0,,,,,,,,,,,,,,,,,,,,
133003,1626539445024,,,252,255,237,233,,-0.02,-0.05,-2.9,0,4,5,0.05,,83,4575,7,34,57,0.899,0.0,386,4.83,13.2,0.0,1,27.4,2.62,5.4,0,0,0,1,0,,,,,,,,,,,,,,,,,,,,
133023,1626539445044,,,252,255,237,232,,-0.04,-0.02,-2.73,0,4,5,0.04,,83,4568,7,34,57,0.9,0.0,394,4.82,13.3,0.0,1,27.2,1.49,5.4,0,0,0,1,0,,,,,,,,,,,,,,,,,,,,
133043,1626539445064,12,9,252,255,237,233,-0,-0.06,-0.01,-2.59,0,4,5,0.06,0,83,4583,7,34,57,0.901,0.0,384,4.86,13.1,0.0,1,27.3,1.51,5.4,0,0,0,1,0,0,250,250,0,45.700359,4.909392,0.0,194.0,10,3,2.3,0,0.0,0,0.0,0.0,0.94,1,0.03,2.2174
133063,1626539445084,,,252,256,237,232,,-0.07,0.0,-2.39,0,4,4,0.07,,83,4591,7,34,57,0.901,0.0,398,4.82,13.2,0.0,1,27.4,1.51,5.4,0,0,0,1,0,,,,,,,,,,,,,,,,,,,,
133083,1626539445100,,,252,255,237,233,,-0.08,0.01,-2.22,0,3,4,0.08,,83,4559,7,34,56,0.902,0.0,387,4.82,13.1,0.0,1,26.7,2.61,5.5,0,0,0,1,0,,,,,,,,,,,,,,,,,,,,
133103,1626539445120,,,252,255,237,233,,-0.07,0.03,-2.05,0,1,2,0.07,,83,4598,7,34,56,0.903,0.0,389,4.77,13.3,0.0,1,27.2,2.63,5.5,0,0,0,1,0,,,,,,,,,,,,,,,,,,,,
133123,1626539445140,,,252,255,237,233,,-0.07,0.03,-1.89,0,-0,1,0.07,,83,4522,7,34,57,0.902,0.0,392,4.76,13.3,0.0,1,26.6,2.59,5.5,0,0,0,1,0,,,,,,,,,,,,,,,,,,,,
133143,1626539445160,12,8,252,256,237,233,-0,-0.06,0.05,-1.74,0,-1,1,0.08,0,83,4537,7,34,56,0.902,0.0,387,4.82,13.1,0.0,1,26.5,1.47,5.5,0,0,0,1,0,0,250,250,0,45.700359,4.909392,0.0,194.0,10,3,2.3,0,0.0,0,0.0,,0.9417,1,0.03,2.219
133163,1626539445180,,,252,254,237,233,,-0.06,0.07,-1.65,0,-2,0,0.09,,83,4565,7,34,56,0.901,0.0,387,4.79,13.4,0.0,1,26.8,2.61,5.5,0,0,0,1,0,,,,,,,,,,,,,,,,,,,,
133183,1626539445198,,,252,255,237,232,,-0.04,0.05,-1.58,0,-4,-1,0.07,,83,4501,7,34,56,0.901,0.0,382,4.77,13.4,0.0,1,26.0,2.59,5.5,0,0,0,1,0,,,,,,,,,,,,,,,,,,,,
133203,1626539445218,,,252,255,237,232,,-0.02,0.06,-1.47,0,-5,-2,0.06,,83,4596,7,34,56,0.9,0.0,385,4.77,13.2,0.0,1,27.2,2.62,5.5,0,0,0,1,0,,,,,,,,,,,,,,,,,,,,
133223,1626539445238,,,252,255,237,233,,0.0,0.06,-1.55,0,-6,-3,0.06,,83,4545,7,34,57,0.898,0.0,393,4.82,13.4,0.0,1,26.9,2.6,5.5,0,0,0,1,0,,,,,,,,,,,,,,,,,,,,
133243,1626539445258,12,8,252,254,237,232,-0,0.02,0.08,-1.58,0,-6,-3,0.08,0,83,4555,7,34,56,0.897,0.0,384,4.73,13.4,0.0,1,26.7,1.48,5.5,0,0,0,1,0,0,250,250,0,45.700359,4.909392,0.0,194.0,10,3,2.3,0,0.0,0,0.0,0.0,0.9433,1,0.03,2.2207
133263,1626539445278,,,252,255,237,233,,0.03,0.06,-1.77,0,-6,-3,0.07,,83,4631,7,34,57,0.895,0.0,392,4.83,13.4,0.0,1,27.9,2.65,5.5,0,0,0,1,0,,,,,,,,,,,,,,,,,,,,
133283,1626539445292,,,252,255,237,233,,0.05,0.04,-1.94,0,-6,-3,0.06,,83,4555,7,34,57,0.895,0.0,389,4.79,13.4,0.0,1,27.0,2.6,5.6,0,0,0,1,0,,,,,,,,,,,,,,,,,,,,
133303,1626539445312,,,252,255,237,233,,0.06,-0.01,-2.09,0,-5,-4,0.06,,83,4642,7,34,57,0.895,0.0,389,4.82,13.4,0.0,1,28.1,2.65,5.6,0,0,0,1,0,,,,,,,,,,,,,,,,,,,,
133323,1626539445332,,,252,256,237,233,,0.07,-0.04,-2.24,0,-4,-3,0.08,,83,4638,7,34,57,0.895,0.0,396,4.81,13.4,0.0,1,28.0,2.65,5.6,0,0,0,1,0,,,,,,,,,,,,,,,,,,,,
133343,1626539445352,13,7,252,255,237,233,0,0.06,-0.06,-2.37,0,-3,-2,0.09,0,83,4574,7,34,56,0.895,0.0,387,4.78,13.3,0.0,1,26.9,2.62,5.6,0,0,0,1,0,0,250,250,0,45.700359,4.909392,0.0,194.0,10,3,2.3,0,0.0,0,0.0,,0.945,1,0.03,2.2224
133363,1626539445372,,,252,255,237,233,,0.05,-0.05,-2.5,0,-1,-0,0.07,,83,4582,7,34,56,0.895,0.0,397,4.8,13.3,0.0,1,27.0,2.62,5.6,0,0,0,1,0,,,,,,,,,,,,,,,,,,,,
133383,1626539445392,,,252,255,237,233,,0.03,-0.05,-2.61,0,0,2,0.06,,83,4583,7,34,56,0.897,0.0,390,4.8,13.3,0.0,1,27.0,2.62,5.5,0,0,0,1,0,,,,,,,,,,,,,,,,,,,,
133403,1626539445412,,,252,256,237,232,,0.03,-0.05,-2.72,0,1,2,0.05,,83,4510,7,34,56,0.898,0.0,391,4.78,13.2,0.0,1,26.1,1.46,5.5,0,0,0,1,0,,,,,,,,,,,,,,,,,,,,
133423,1626539445432,,,252,255,237,233,,0.01,-0.02,-2.8,0,2,3,0.03,,83,4552,7,34,57,0.899,0.0,387,4.81,13.4,0.0,1,27.0,2.61,5.5,0,0,0,1,0,,,,,,,,,,,,,,,,,,,,
133443,1626539445452,12,8,252,255,237,233,0,-0.01,-0.01,-2.81,0,2,4,0.01,0,83,4505,7,34,56,0.901,0.0,383,4.82,13.2,0.0,1,25.8,2.58,5.5,0,0,0,1,0,0,250,250,0,45.700359,4.909392,0.0,194.0,10,3,2.3,0,0.0,0,0.0,0.0,0.9467,1,0.03,2.2241
133463,1626539445472,,,252,256,237,232,,-0.02,-0.02,-2.9,0,3,5,0.03,,83,4493,7,34,57,0.9,0.0,384,4.8,13.4,0.0,1,26.2,2.58,5.5,0,0,0,1,0,,,,,,,,,,,,,,,,,,,,
133483,1626539445508,,,252,255,237,233,,-0.03,-0.03,-2.86,0,3,5,0.04,,83,4541,7,34,57,0.901,0.0,387,4.83,13.2,0.0,1,26.8,2.62,5.4,0,0,0,1,0,,,,,,,,,,,,,,,,,,,,
133503,1626539445528,,,252,255,237,233,,-0.03,-0.01,-2.86,0,3,5,0.03,,83,4478,7,34,57,0.902,0.0,386,4.8,13.3,0.0,1,26.0,1.45,5.4,0,0,0,1,0,,,,,,,,,,,,,,,,,,,,
133523,1626539445548,,,252,255,237,232,,-0.05,0.01,-2.77,0,3,6,0.05,,83,4568,7,34,57,0.903,0.0,389,4.84,13.2,0.0,1,27.7,1.53,5.4,0,0,0,1,0,,,,,,,,,,,,,,,,,,,,
133543,1626539445568,12,7,252,255,237,233,-1,-0.07,0.04,-2.56,0,3,5,0.08,0,83,4556,7,34,56,0.902,0.0,386,4.8,13.1,0.0,1,26.7,2.61,5.4,0,0,0,1,0,0,250,250,0,45.700359,4.909392,0.0,194.0,10,3,2.3,0,0.0,0,0.0,,0.9483,1,0.03,2.2257
133563,1626539445588,,,252,255,237,232,,-0.08,0.04,-2.45,0,3,5,0.09,,83,4594,7,34,57,0.902,0.0,392,4.83,13.2,0.0,1,27.5,1.51,5.4,0,0,0,1,0,,,,,,,,,,,,,,,,,,,,
133583,1626539445605,,,252,255,237,232,,-0.09,0.06,-2.26,0,1,3,0.11,,83,4675,7,34,56,0.902,0.0,387,4.75,13.1,0.0,1,28.2,2.67,5.5,0,0,0,1,0,,,,,,,,,,,,,,,,,,,,
133603,1626539445625,,,252,255,237,233,,-0.08,0.07,-2.09,0,0,2,0.11,,83,4593,7,34,56,0.902,0.0,393,4.76,13.4,0.0,1,27.2,2.62,5.5,0,0,0,1,0,,,,,,,,,,,,,,,,,,,,
133623,1626539445645,,,252,255,237,233,,-0.06,0.07,-1.93,0,-2,1,0.09,,83,4637,7,34,56,0.902,0.0,396,4.78,13.4,0.0,1,27.7,2.64,5.5,0,0,0,1,0,,,,,,,,,,,,,,,,,,,,
133643,1626539445665,12,8,252,255,237,233,-0,-0.03,0.06,-1.96,0,-2,0,0.06,0,83,4649,7,34,56,0.901,0.0,393,4.83,13.4,0.0,1,27.9,2.65,5.5,0,0,0,1,0,0,250,250,0,45.700359,4.909392,0.0,194.0,10,3,2.3,0,0.0,0,0.0,0.0,0.95,1,0.03,2.2274
133663,1626539445685,,,252,254,237,233,,-0.0,0.02,-2.04,0,-3,-0,0.02,,83,4566,7,34,56,0.9,0.0,394,4.83,13.4,0.0,1,26.8,2.61,5.5,0,0,0,1,0,,,,,,,,,,,,,,,,,,,,
133683,1626539445701,,,252,255,237,233,,0.02,-0.02,-2.19,0,-2,-1,0.03,,83,4573,7,34,56,0.899,0.0,388,4.83,13.4,0.0,1,26.9,2.62,5.4,0,0,0,1,0,,,,,,,,,,,,,,,,,,,,
133703,1626539445721,,,252,255,237,233,,0.04,-0.01,-2.33,0,-2,-1,0.04,,83,4488,7,34,56,0.899,0.0,385,4.86,13.4,0.0,1,25.9,2.57,5.4,0,0,0,1,0,,,,,,,,,,,,,,,,,,,,
133723,1626539445741,,,252,255,237,233,,0.05,-0.03,-2.46,0,-1,-1,0.06,,83,4537,7,34,56,0.898,0.0,382,4.83,13.4,0.0,1,26.5,2.59,5.4,0,0,0,1,0,,,,,,,,,,,,,,,,,,,,
133743,1626539445761,11,8,252,255,237,232,-0,0.07,-0.05,-2.57,0,-1,-1,0.09,0,83,4507,7,34,57,0.898,0.0,382,4.88,13.4,0.0,1,26.4,2.58,5.4,0,0,0,1,0,0,250,250,0,45.700359,4.909392,0.0,194.0,10,3,2.3,0,0.0,0,0.0,,0.9517,1,0.03,2.229
133763,1626539445781,,,252,255,237,233,,0.08,-0.09,-2.68,0,0,-1,0.12,,83,4531,7,34,57,0.897,0.0,387,4.83,13.4,0.0,1,26.7,2.6,5.4,0,0,0,1,0,,,,,,,,,,,,,,,,,,,,
133783,1626539445799,,,252,255,237,232,,0.09,-0.1,-2.78,0,1,-0,0.13,,83,4562,7,34,57,0.897,0.0,389,4.9,13.4,0.0,1,27.1,2.62,5.5,0,0,0,1,0,,,,,,,,,,,,,,,,,,,,
133803,1626539445819,,,252,255,237,233,,0.09,-0.11,-2.88,0,3,0,0.14,,83,4562,7,34,57,0.897,0.0,387,4.83,13.4,0.0,1,27.1,2.62,5.5,0,0,0,1,0,,,,,,,,,,,,,,,,,,,,
133823,1626539445839,,,252,255,237,233,,0.09,-0.12,-2.96,0,4,1,0.15,,83,4601,7,34,57,0.896,0.0,391,4.8,13.4,0.0,1,27.6,2.63,5.5,0,0,0,1,0,,,,,,,,,,,,,,,,,,,,
133843,1626539445859,13,8,252,255,237,233,-0,0.08,-0.13,-3.04,0,5,2,0.15,0,83,4625,7,34,57,0.896,0.0,390,4.82,13.4,0.0,1,27.9,1.54,5.5,0,0,0,1,0,0,250,250,0,45.700359,4.909392,0.0,194.0,10,3,2.3,0,0.0,0,0.0,0.0,0.9533,1,0.03,2.2307
133863,1626539445879,,,252,256,237,232,,0.06,-0.12,-3.11,0,6,4,0.14,,83,4593,7,34,57,0.899,0.0,395,4.82,13.2,0.0,1,27.5,2.62,5.5,0,0,0,1,0,,,,,,,,,,,,,,,,,,,,
133883,1626539445895,,,252,256,237,233,,0.03,-0.1,-3.16,0,6,5,0.11,,83,4623,7,34,56,0.901,0.0,390,4.76,13.3,0.0,1,27.5,1.52,5.5,0,0,0,1,0,,,,,,,,,,,,,,,,,,,,
133903,1626539445915,,,252,255,237,233,,0.01,-0.09,-3.09,0,6,5,0.09,,83,4565,7,34,56,0.902,0.0,397,4.8,13.3,0.0,1,26.8,2.61,5.5,0,0,0,1,0,,,,,,,,,,,,,,,,,,,,
133923,1626539445935,,,252,255,237,233,,-0.02,-0.07,-2.95,0,6,4,0.07,,83,4580,7,34,56,0.904,0.0,395,4.81,13.1,0.0,1,27.0,2.62,5.5,0,0,0,1,0,,,,,,,,,,,,,,,,,,,,
133943,1626539445955,13,7,252,255,237,233,-1,-0.03,-0.04,-2.73,0,5,3,0.05,0,83,4598,7,34,56,0.904,0.0,392,4.84,13.2,0.0,1,27.2,2.63,5.5,0,0,0,1,0,0,250,250,0,45.700359,4.909392,0.0,194.0,10,3,2.3,0,0.0,0,0.0,,0.955,1,0.03,2.2324
133963,1626539445975,,,252,256,237,233,,-0.04,-0.02,-2.51,0,4,2,0.04,,83,4533,7,34,56,0.905,0.0,390,4.78,13.2,0.0,1,26.4,2.59,5.5,0,0,0,1,0,,,,,,,,,,,,,,,,,,,,
133983,1626539445995,,,252,255,237,233,,-0.05,-0.01,-2.32,0,3,2,0.05,,83,4588,7,34,56,0.904,0.0,385,4.84,13.1,0.0,1,27.1,1.51,5.4,0,0,0,1,0,,,,,,,,,,,,,,,,,,,,
134003,1626539446009,,,252,255,237,233,,-0.06,0.01,-2.14,0,1,1,0.06,,83,4566,7,34,56,0.904,0.0,389,4.82,13.1,0.0,1,26.8,2.61,5.4,0,0,0,1,0,,,,,,,,,,,,,,,,,,,,
134023,1626539446029,,,252,255,237,232,,-0.04,0.01,-1.98,0,-1,0,0.05,,83,4535,7,34,56,0.904,0.0,388,4.76,13.4,0.0,1,26.4,2.59,5.4,0,0,0,1,0,,,,,,,,,,,,,,,,,,,,
134043,1626539446049,12,8,252,255,237,232,-0,-0.03,0.02,-1.82,0,-3,-1,0.04,0,83,4564,7,34,56,0.903,0.0,382,4.77,13.2,0.0,1,26.8,2.61,5.4,0,0,0,1,0,0,250,250,0,45.700359,4.909392,0.0,194.0,10,3,2.3,0,0.0,0,0.0,0.0,0.9567,1,0.03,2.2341
134063,1626539446069,,,252,255,237,232,,-0.01,0.05,-1.68,0,-4,-2,0.05,,83,4596,7,34,56,0.903,0.0,395,4.81,13.3,0.0,1,27.2,2.62,5.4,0,0,0,1,0,,,,,,,,,,,,,,,,,,,,
134083,1626539446109,,,252,254,237,233,,0.0,0.06,-1.73,0,-4,-2,0.06,,83,4577,7,34,56,0.903,0.0,388,4.83,13.4,0.0,1,27.0,2.62,5.5,0,0,0,1,0,,,,,,,,,,,,,,,,,,,,
134103,1626539446129,,,252,255,237,233,,0.03,0.04,-1.88,0,-5,-3,0.05,,83,4619,7,34,56,0.902,0.0,389,4.78,13.4,0.0,1,27.5,1.52,5.5,0,0,0,1,0,,,,,,,,,,,,,,,,,,,,
134123,1626539446149,,,252,255,237,232,,0.05,0.02,-2.04,0,-4,-3,0.06,,83,4588,7,34,57,0.901,0.0,391,4.82,13.4,0.0,1,27.4,2.62,5.5,0,0,0,1,0,,,,,,,,,,,,,,,,,,,,
134143,1626539446169,12,8,252,255,237,233,-1,0.07,0.0,-2.19,0,-3,-3,0.07,0,83,4575,7,34,56,0.9,0.0,384,4.82,13.4,0.0,1,26.9,2.62,5.5,0,0,0,1,0,0,250,250,0,45.700359,4.909392,0.0,194.0,10,3,2.3,0,0.0,0,0.0,,0.9583,1,0.03,2.2357
134163,1626539446189,,,252,254,237,233,,0.08,-0.02,-2.33,0,-2,-3,0.08,,83,4615,7,34,56,0.9,0.0,398,4.85,13.4,0.0,1,27.4,2.63,5.5,0,0,0,1,0,,,,,,,,,,,,,,,,,,,,
134183,1626539446207,,,252,256,237,232,,0.08,-0.06,-2.46,0,-1,-1,0.1,,83,4559,7,34,56,0.9,0.0,389,4.82,13.4,0.0,1,26.7,1.49,5.6,0,0,0,1,0,,,,,,,,,,,,,,,,,,,,
134203,1626539446227,,,252,255,237,232,,0.08,-0.06,-2.58,0,1,0,0.1,,83,4528,7,34,56,0.901,0.0,386,4.8,13.4,0.0,1,26.4,1.47,5.6,0,0,0,1,0,,,,,,,,,,,,,,,,,,,,
134223,1626539446247,,,252,255,237,233,,0.08,-0.05,-2.69,0,2,1,0.1,,83,4500,7,34,57,0.9,0.0,383,4.8,13.4,0.0,1,26.3,2.59,5.6,0,0,0,1,0,,,,,,,,,,,,,,,,,,,,
134243,1626539446267,13,7,252,255,237,233,-0,0.09,-0.08,-2.79,0,3,2,0.12,0,83,4451,7,34,57,0.901,0.0,380,4.81,13.4,0.0,1,25.7,2.55,5.6,0,0,0,1,0,0,250,250,0,45.700359,4.909392,0.0,194.0,10,3,2.3,0,0.0,0,0.0,0.0,0.96,1,0.03,2.2374
134263,1626539446287,,,252,255,237,233,,0.11,-0.13,-2.88,0,4,3,0.17,,83,4479,7,34,57,0.901,0.0,382,4.76,13.4,0.0,1,26.0,2.57,5.6,0,0,0,1,0,,,,,,,,,,,,,,,,,,,,
134283,1626539446303,,,252,255,237,233,,0.11,-0.15,-2.96,0,5,3,0.19,,83,4496,7,34,57,0.9,0.0,383,4.83,13.4,0.0,1,26.2,1.46,5.4,0,0,0,1,0,,,,,,,,,,,,,,,,,,,,
134303,1626539446323,,,252,255,237,233,,0.12,-0.16,-3.04,0,6,4,0.2,,83,4467,7,34,57,0.899,0.0,384,4.82,13.5,0.0,1,25.9,2.56,5.4,0,0,0,1,0,,,,,,,,,,,,,,,,,,,,
134323,1626539446343,,,252,255,237,233,,0.13,-0.19,-3.11,0,7,4,0.23,,83,4584,7,34,57,0.898,0.0,395,4.77,13.4,0.0,1,27.4,2.62,5.4,0,0,0,1,0,,,,,,,,,,,,,,,,,,,,
134343,1626539446363,12,8,252,255,237,233,-1,0.14,-0.22,-3.18,0,7,5,0.26,0,83,4523,7,34,57,0.897,0.0,384,4.78,13.4,0.0,1,26.6,2.6,5.4,0,0,0,1,0,0,250,250,0,45.700359,4.909392,0.0,194.0,10,3,2.3,0,0.0,0,0.0,,0.9617,1,0.03,2.239
134363,1626539446383,,,252,255,237,232,,0.13,-0.22,-3.24,0,8,6,0.26,,83,4579,7,34,57,0.897,0.0,389,4.78,13.4,0.0,1,27.3,2.62,5.4,0,0,0,1,0,,,,,,,,,,,,,,,,,,,,
134383,1626539446399,,,252,256,237,233,,0.11,-0.2,-3.3,0,9,7,0.23,,83,4628,7,34,57,0.897,0.0,387,4.8,13.2,0.0,1,27.4,2.65,5.6,0,0,0,1,0,,,,,,,,,,,,,,,,,,,,
134403,1626539446419,,,252,255,237,233,,0.1,-0.18,-3.35,0,8,7,0.21,,83,4548,7,34,57,0.897,0.0,394,4.81,13.3,0.0,1,26.9,1.49,5.6,0,0,0,1,0,,,,,,,,,,,,,,,,,,,,
134423,1626539446439,,,252,256,237,233,,0.07,-0.15,-3.3,0,8,7,0.16,,83,4644,7,34,57,0.897,0.0,393,4.76,13.3,0.0,1,28.1,2.65,5.6,0,0,0,1,0,,,,,,,,,,,,,,,,,,,,
134443,1626539446459,12,7,252,255,237,233,0,0.04,-0.09,-3.19,0,7,6,0.1,0,84,4557,7,34,56,0.896,0.0,393,4.83,13.1,0.0,1,26.7,2.62,5.6,0,0,0,1,0,0,250,250,0,45.700359,4.909392,0.0,194.0,10,3,2.3,0,0.0,0,0.0,0.0,0.9633,1,0.03,2.2407
134463,1626539446479,,,252,256,237,232,,0.01,-0.07,-2.97,0,7,5,0.07,,84,4588,7,34,56,0.897,0.0,391,4.87,13.2,0.0,1,27.1,2.62,5.6,0,0,0,1,0,,,,,,,,,,,,,,,,,,,,
134483,1626539446497,,,252,255,237,232,,-0.01,-0.06,-2.74,0,5,4,0.06,,83,4601,7,34,56,0.898,0.0,392,4.81,13.3,0.0,1,27.3,2.63,5.5,0,0,0,1,0,,,,,,,,,,,,,,,,,,,,
134503,1626539446517,,,252,254,237,232,,-0.03,-0.04,-2.54,0,4,3,0.05,,84,4533,7,34,56,0.898,0.0,388,4.83,13.1,0.0,1,26.4,1.47,5.5,0,0,0,1,0,,,,,,,,,,,,,,,,,,,,
134523,1626539446537,,,252,255,237,233,,-0.02,-0.05,-2.34,0,2,2,0.05,,84,4588,7,34,56,0.899,0.0,389,4.81,13.4,0.0,1,27.1,1.51,5.5,0,0,0,1,0,,,,,,,,,,,,,,,,,,,,
134543,1626539446557,11,8,252,255,237,232,0,-0.01,-0.04,-2.16,0,-0,1,0.04,0,84,4579,7,34,56,0.9,0.0,386,4.81,13.2,0.0,1,27.0,2.62,5.5,0,0,0,1,0,0,250,250,0,45.700359,4.909392,0.0,194.0,10,3,2.3,0,0.0,0,0.0,,0.965,1,0.03,2.2424
134563,1626539446577,,,252,256,237,232,,0.01,-0.01,-2.0,0,-2,-0,0.01,,84,4593,7,34,56,0.901,0.0,400,4.76,13.3,0.0,1,27.2,1.51,5.5,0,0,0,1,0,,,,,,,,,,,,,,,,,,,,
134583,1626539446592,,,252,254,237,232,,0.02,0.01,-1.97,0,-3,-1,0.02,,84,4583,7,34,56,0.902,0.0,390,4.82,13.4,0.0,1,27.0,2.62,5.5,0,0,0,1,0,,,,,,,,,,,,,,,,,,,,
134603,1626539446612,,,252,254,237,233,,0.04,0.01,-2.06,0,-3,-1,0.04,,83,4564,7,34,56,0.903,0.0,385,4.85,13.4,0.0,1,26.8,2.61,5.5,0,0,0,1,0,,,,,,,,,,,,,,,,,,,,
134623,1626539446632,,,252,255,237,232,,0.06,-0.01,-2.21,0,-3,-1,0.06,,84,4602,7,34,56,0.903,0.0,391,4.8,13.4,0.0,1,27.3,2.63,5.5,0,0,0,1,0,,,,,,,,,,,,,,,,,,,,
134643,1626539446652,12,9,252,256,237,233,-0,0.07,-0.04,-2.34,0,-2,-2,0.08,0,84,4556,7,34,56,0.903,0.0,387,4.84,13.4,0.0,1,26.7,2.61,5.5,0,0,0,1,0,0,250,250,0,45.700359,4.909392,0.0,194.0,10,3,2.3,0,0.0,0,0.0,0.0,0.9667,1,0.03,2.2441
134663,1626539446672,,,252,254,237,233,,0.09,-0.08,-2.47,0,-1,-2,0.12,,84,4548,7,34,56,0.904,0.0,391,4.86,13.4,0.0,1,26.6,2.6,5.5,0,0,0,1,0,,,,,,,,,,,,,,,,,,,,
134683,1626539446692,,,252,256,237,232,,0.1,-0.11,-2.59,0,0,-1,0.14,,84,4528,7,34,56,0.906,0.0,386,4.86,13.4,0.0,1,26.4,2.59,5.4,0,0,0,1,0,,,,,,,,,,,,,,,,,,,,
134703,1626539446710,,,252,255,237,233,,0.11,-0.1,-2.7,0,2,-0,0.15,,84,4464,7,34,56,0.906,0.0,385,4.8,13.4,0.0,1,25.6,2.55,5.4,0,0,0,1,0,,,,,,,,,,,,,,,,,,,,
134723,1626539446730,,,252,255,237,233,,0.11,-0.1,-2.8,0,3,0,0.15,,84,4509,7,34,57,0.908,0.0,387,4.84,13.4,0.0,1,26.4,2.59,5.4,0,0,0,1,0,,,,,,,,,,,,,,,,,,,,
134743,1626539446750,11,7,252,255,237,233,-0,0.12,-0.12,-2.89,0,4,0,0.17,0,84,4480,7,34,57,0.909,0.0,384,4.77,13.4,0.0,1,26.0,2.57,5.4,0,0,0,1,0,0,250,250,0,45.700359,4.909392,0.0,194.0,10,3,2.3,0,0.0,0,0.0,,0.9683,1,0.03,2.2457
134763,1626539446770,,,252,255,237,233,,0.14,-0.15,-2.97,0,5,1,0.21,,84,4500,7,34,57,0.91,0.0,383,4.86,13.4,0.0,1,26.3,2.59,5.4,0,0,0,1,0,,,,,,,,,,,,,,,,,,,,
134783,1626539446808,,,252,255,237,233,,0.14,-0.17,-3.05,0,6,1,0.22,,84,4549,7,34,57,0.91,0.0,383,4.85,13.4,0.0,1,26.9,2.61,5.4,0,0,0,1,0,,,,,,,,,,,,,,,,,,,,
