"Interval"|"ms"|0|0|1,"Utc"|"ms"|0|0|1,"Brake_F"|"Bar"|0|2000|10,"Brake_R"|"Bar"|0|2000|10,"Height_RF"|"mm"|0|255|50,"Height_LF"|"mm"|0|255|50,"Height_LR"|"mm"|0|80|50,"Height_RR"|"mm"|0|255|50,"Steering"|"deg"|-100|100|10,"AccelX"|"G"|-3.0|3.0|50,"AccelY"|"G"|-3.0|3.0|50,"AccelZ"|"G"|-3.0|3.0|50,"Yaw"|"Deg/Sec"|-120|120|50,"Pitch"|"Deg/Sec"|-120|120|50,"Roll"|"Deg/Sec"|-120|120|50,"Gsum"|"G"|0.0|3.0|50,"Log_Button"|""|0.0|10.0|10,"WaterTemp"|"C"|0|150|50,"RPM"|"tr/min"|0|14000|50,"TPS"|"%"|0|100|50,"AirTemp"|"C"|0|150|50,"MAP"|"KPa"|0|100|50,"Lambda"|""|0.5|1.5|50,"SpeedDTA"|"kph"|0.0|250.0|50,"OilPress"|"KPa"|0|1500|50,"FuelPressur"|"Bar"|0.0|10.0|50,"Batterie"|"V"|0.0|20.0|50,"ConsoKm"|"L/100km"|0.0|200.0|50,"Gear"|""|0|6|50,"AdvIgnition"|"Deg"|-20.0|70.0|50,"Injection"|"ms"|0.0|10.0|50,"ConsoHr"|"L/Hr"|0.0|10000.0|50,"LC_But_Pres"|""|0|1|50,"LC_Active"|""|0|1|50,"TractionOn"|""|0|1|50,"TractionWet"|""|0|1|50,"FanOn"|""|0|1|50,"RD_Speed"|"km/h"|-30|250|10,"RUD_Speed"|"km/h"|-30|250|10,"LD_Speed"|"km/h"|-30|250|10,"LUD_Speed"|"km/h"|-30|250|10,"Latitude"|"Degrees"|-180.0|180.0|10,"Longitude"|"Degrees"|-180.0|180.0|10,"Speed"|"kph"|0.0|150.0|10,"Altitude"|"m"|0.0|4000.0|10,"GPSSats"|""|0|20|10,"GPSQual"|""|0|5|10,"GPSDOP"|""|0.0|20.0|10,"LapCount"|""|0|0|10,"LapTime"|"Min"|0.0|0.0|10,"Sector"|""|0|0|10,"SectorTime"|"Min"|0.0|0.0|10,"PredTime"|"Min"|0.0|0.0|5,"ElapsedTime"|"Min"|0.0|0.0|10,"CurrentLap"|""|0|0|10,"Distance"|"km"|0.0|0.0|10,"SessionTime"|"Min"|0.0|0.0|10
49064,1626538813967,,,252,254,237,231,,0.01,0.01,-2.99,0,1,0,0.02,,64,1770,7,31,92,0.904,0.0,214,4.83,13.3,0.0,1,2.5,3.19,2.3,0,0,0,1,0,,,,,,,,,,,,,,,,,,,,
49084,1626538813987,,,252,254,237,231,,0.01,0.0,-2.98,0,1,0,0.01,,64,1688,7,31,92,0.905,0.0,211,4.84,13.3,0.0,1,2.5,3.19,2.3,0,0,0,1,0,,,,,,,,,,,,,,,,,,,,
49104,1626538814001,,,252,254,237,231,,0.01,0.0,-2.97,0,1,0,0.01,,64,1579,7,31,92,0.906,0.0,207,4.84,13.3,0.0,1,2.8,3.19,2.4,0,0,0,1,0,,,,,,,,,,,,,,,,,,,,
49124,1626538814021,,,252,253,237,231,,0.01,-0.0,-2.97,0,1,0,0.01,,64,1554,7,31,92,0.908,0.0,208,4.84,13.3,0.0,1,2.8,3.19,2.4,0,0,0,1,0,,,,,,,,,,,,,,,,,,,,
49144,1626538814041,1,2,252,254,237,231,5,0.02,0.0,-2.98,0,1,0,0.02,1,64,1684,7,31,92,0.908,0.0,213,4.83,13.3,0.0,1,2.8,3.19,2.4,0,0,0,1,0,0,250,250,0,45.700306,4.909486,0.0,190.3,10,3,1.9,0,0.0,-1,0.0,,0.0,0,0.0,0.8191
49164,1626538814061,,,252,254,237,231,,0.02,0.0,-3.0,0,1,0,0.02,,64,1806,7,31,92,0.91,0.0,217,4.83,13.3,0.0,1,2.8,2.09,2.4,0,0,0,1,0,,,,,,,,,,,,,,,,,,,,
49184,1626538814081,,,252,253,237,231,,0.02,-0.0,-3.01,0,1,0,0.02,,64,1727,7,31,91,0.91,0.0,216,4.82,13.0,0.0,1,2.8,2.09,2.4,0,0,0,1,0,,,,,,,,,,,,,,,,,,,,
49204,1626538814107,,,252,254,236,231,,0.01,-0.01,-3.01,0,1,0,0.02,,64,1620,7,31,91,0.911,0.0,214,4.86,13.1,0.0,1,2.8,3.19,2.5,0,0,0,1,0,,,,,,,,,,,,,,,,,,,,
49224,1626538814127,,,252,254,237,231,,0.01,-0.01,-2.98,0,0,0,0.01,,64,1605,7,31,92,0.913,0.0,211,4.81,13.3,0.0,1,2.8,3.19,2.5,0,0,0,1,0,,,,,,,,,,,,,,,,,,,,
49244,1626538814147,2,1,252,254,237,231,4,0.01,-0.01,-2.98,0,0,0,0.01,1,64,1746,7,31,92,0.914,0.0,215,4.84,13.3,0.0,1,2.8,3.19,2.5,0,0,0,1,0,16,250,250,0,45.700306,4.909486,0.0,190.3,10,3,1.9,0,0.0,-1,0.0,0.0,0.0,0,0.0,0.8207
49264,1626538814167,,,252,254,237,231,,0.01,-0.01,-3.0,0,0,0,0.02,,64,1859,7,31,92,0.915,0.0,221,4.83,13.3,0.0,1,2.8,3.19,2.5,0,0,0,1,0,,,,,,,,,,,,,,,,,,,,
49284,1626538814187,,,252,254,237,231,,0.02,-0.0,-3.01,0,0,0,0.02,,64,1833,7,31,92,0.916,0.0,221,4.85,13.3,0.0,1,2.8,3.19,2.5,0,0,0,1,0,,,,,,,,,,,,,,,,,,,,
49304,1626538814207,,,252,254,237,231,,0.02,-0.01,-3.02,0,1,1,0.02,,64,1669,7,31,91,0.917,0.0,219,4.79,13.2,0.0,1,3.0,3.19,2.6,0,0,0,1,0,,,,,,,,,,,,,,,,,,,,
49324,1626538814227,,,252,253,237,231,,0.01,-0.0,-3.01,0,1,1,0.01,,64,1673,7,31,91,0.917,0.0,213,4.85,13.1,0.0,1,3.0,3.19,2.6,0,0,0,1,0,,,,,,,,,,,,,,,,,,,,
49344,1626538814247,2,2,252,254,237,231,4,0.0,0.0,-3.02,0,1,1,0.0,1,64,1823,7,31,92,0.918,0.0,217,4.83,13.3,0.0,1,3.0,3.19,2.6,0,0,0,1,0,33,250,250,0,45.700306,4.909486,0.0,190.3,10,3,1.9,0,0.0,-1,0.0,,0.0,0,0.0,0.8224
49364,1626538814267,,,252,254,237,231,,0.01,0.0,-3.01,0,1,0,0.01,,64,1929,7,31,92,0.919,0.0,226,4.84,13.3,0.0,1,3.0,3.19,2.6,0,0,0,1,0,,,,,,,,,,,,,,,,,,,,
49384,1626538814287,,,252,254,237,231,,0.02,0.01,-3.0,0,1,0,0.02,,64,1889,7,31,91,0.921,0.0,230,4.83,13.3,0.0,1,3.0,3.19,2.6,0,0,0,1,0,,,,,,,,,,,,,,,,,,,,
49404,1626538814307,,,252,253,237,231,,0.02,0.01,-3.05,0,1,1,0.02,,64,1766,7,31,91,0.922,0.0,223,4.83,13.1,0.0,1,3.0,3.19,2.7,0,0,0,1,0,,,,,,,,,,,,,,,,,,,,
49424,1626538814327,,,252,254,237,231,,0.01,0.01,-2.97,0,1,0,0.01,,64,1794,7,31,91,0.923,0.0,219,4.85,13.2,0.0,1,3.0,3.19,2.7,0,0,0,1,0,,,,,,,,,,,,,,,,,,,,
49444,1626538814347,2,1,252,254,237,231,4,0.01,0.01,-2.96,0,1,0,0.02,0,64,1918,7,31,92,0.925,0.0,230,4.87,13.3,0.0,1,3.0,3.19,2.7,0,0,0,1,0,33,250,250,0,45.700306,4.909486,0.0,190.3,10,3,1.9,0,0.0,-1,0.0,0.0,0.0,0,0.0,0.8241
49464,1626538814367,,,252,254,237,231,,0.02,0.01,-2.98,0,1,0,0.02,,64,1977,7,31,91,0.926,0.0,235,4.85,13.3,0.0,1,3.0,3.19,2.7,0,0,0,1,0,,,,,,,,,,,,,,,,,,,,
49484,1626538814387,,,252,254,237,231,,0.01,0.01,-2.99,0,1,0,0.02,,64,1869,7,31,90,0.927,0.0,231,4.82,13.1,0.0,1,3.0,3.19,2.7,0,0,0,1,0,,,,,,,,,,,,,,,,,,,,
49504,1626538814406,,,252,253,237,231,,0.0,0.02,-3.0,0,1,1,0.02,,64,1808,7,31,91,0.929,0.0,224,4.83,13.3,0.0,1,3.1,3.19,2.7,0,0,0,1,0,,,,,,,,,,,,,,,,,,,,
49524,1626538814426,,,252,254,237,231,,0.01,0.02,-2.98,0,0,0,0.02,,64,1872,7,31,91,0.93,0.0,232,4.85,13.3,0.0,1,3.1,3.19,2.7,0,0,0,1,0,,,,,,,,,,,,,,,,,,,,
49544,1626538814446,2,2,252,254,237,231,4,0.02,0.03,-2.99,0,0,0,0.03,0,64,2053,7,31,91,0.932,0.0,241,4.85,13.2,0.0,1,3.1,2.09,2.7,0,0,0,1,0,33,250,250,0,45.700306,4.909486,0.0,190.3,10,3,1.9,0,0.0,-1,0.0,,0.0,0,0.0,0.8257
49564,1626538814466,,,252,254,237,231,,0.01,0.03,-2.96,0,0,0,0.03,,64,2001,7,31,90,0.932,0.0,238,4.85,13.3,0.0,1,3.1,3.19,2.7,0,0,0,1,0,,,,,,,,,,,,,,,,,,,,
49584,1626538814486,,,252,254,237,231,,0.02,0.02,-2.95,0,0,0,0.03,,64,1946,7,31,90,0.934,0.0,234,4.84,13.3,0.0,1,3.1,3.19,2.7,0,0,0,1,0,,,,,,,,,,,,,,,,,,,,
49604,1626538814506,,,252,253,237,231,,0.02,0.02,-2.95,0,0,0,0.03,,64,1892,7,31,90,0.934,0.0,236,4.85,13.3,0.0,1,3.1,3.19,2.8,0,0,0,1,0,,,,,,,,,,,,,,,,,,,,
49624,1626538814526,,,252,254,237,231,,0.01,0.03,-2.9,0,1,0,0.03,,64,2026,7,31,90,0.934,0.0,241,4.87,13.2,0.0,1,3.1,3.19,2.8,0,0,0,1,0,,,,,,,,,,,,,,,,,,,,
49644,1626538814546,2,2,252,254,237,231,5,0.01,0.02,-2.94,0,0,1,0.02,0,64,2105,7,31,90,0.935,0.0,242,4.86,13.3,0.0,1,3.1,3.19,2.8,0,0,0,1,0,33,250,250,0,45.700306,4.909486,0.0,190.3,10,3,1.9,0,0.0,-1,0.0,0.0,0.0,0,0.0,0.8274
49664,1626538814566,,,252,254,237,231,,0.02,0.02,-2.97,0,1,1,0.03,,64,2018,7,31,90,0.934,0.0,244,4.82,13.3,0.0,1,3.1,2.09,2.8,0,0,0,1,0,,,,,,,,,,,,,,,,,,,,
49684,1626538814586,,,252,254,237,231,,0.01,0.02,-2.92,0,0,0,0.02,,64,1953,7,31,89,0.934,0.0,240,4.85,13.3,0.0,1,3.1,3.16,2.8,0,0,0,1,0,,,,,,,,,,,,,,,,,,,,
49704,1626538814606,,,252,253,237,231,,0.02,0.02,-2.92,0,0,1,0.03,,64,1942,7,31,90,0.933,0.0,238,4.86,13.3,0.0,1,3.1,3.19,2.8,0,0,0,1,0,,,,,,,,,,,,,,,,,,,,
49724,1626538814626,,,252,254,237,231,,0.03,0.02,-2.92,0,0,1,0.03,,64,2148,7,31,90,0.932,0.0,246,4.79,13.2,0.0,1,3.1,2.09,2.8,0,0,0,1,0,,,,,,,,,,,,,,,,,,,,
49744,1626538814646,2,1,252,254,237,231,5,0.02,0.02,-2.95,0,0,1,0.03,0,64,2151,7,31,90,0.931,0.0,248,4.84,13.3,0.0,1,3.1,3.19,2.8,0,0,0,1,0,33,250,250,0,45.700306,4.909486,0.0,190.3,10,3,1.9,0,0.0,-1,0.0,,0.0,0,0.0,0.8291
49764,1626538814666,,,252,254,237,231,,0.02,0.01,-2.96,0,0,1,0.03,,64,2133,7,31,89,0.929,0.0,253,4.85,13.3,0.0,1,3.1,3.19,2.8,0,0,0,1,0,,,,,,,,,,,,,,,,,,,,
49784,1626538814686,,,252,254,237,231,,0.01,0.02,-2.96,0,1,1,0.02,,64,2035,7,31,89,0.927,0.0,248,4.86,13.2,0.0,1,3.1,3.16,2.8,0,0,0,1,0,,,,,,,,,,,,,,,,,,,,
49804,1626538814708,,,252,254,237,231,,0.02,0.01,-2.96,0,0,1,0.02,,64,2056,7,31,89,0.926,0.0,245,4.85,13.3,0.0,1,3.1,3.16,2.9,0,0,0,1,0,,,,,,,,,,,,,,,,,,,,
49824,1626538814728,,,252,254,237,231,,0.02,0.02,-2.95,0,0,1,0.02,,64,2211,7,31,89,0.925,0.0,256,4.79,13.1,0.0,1,3.1,3.16,2.9,0,0,0,1,0,,,,,,,,,,,,,,,,,,,,
49844,1626538814748,2,2,252,254,237,231,4,0.02,0.01,-2.96,0,0,1,0.02,0,64,2232,7,31,89,0.923,0.0,260,4.85,13.3,0.0,1,3.1,3.16,2.9,0,0,0,1,0,4,250,250,0,45.700306,4.909486,0.0,190.3,10,3,1.9,0,0.0,-1,0.0,0.0,0.0,0,0.0,0.8307
49864,1626538814768,,,252,254,237,231,,0.03,0.01,-2.97,0,0,1,0.03,,64,2151,7,31,89,0.923,0.0,257,4.83,13.3,0.0,1,3.1,3.16,2.9,0,0,0,1,0,,,,,,,,,,,,,,,,,,,,
49884,1626538814788,,,252,254,237,231,,0.02,0.02,-2.94,0,0,0,0.02,,64,2132,7,31,89,0.922,0.0,254,4.82,13.3,0.0,1,3.1,3.16,2.9,0,0,0,1,0,,,,,,,,,,,,,,,,,,,,
49904,1626538814806,,,252,254,237,231,,0.02,0.01,-2.95,0,0,0,0.03,,64,2175,7,31,89,0.921,0.0,262,4.84,13.3,0.0,1,2.9,3.16,3.1,0,0,0,1,0,,,,,,,,,,,,,,,,,,,,
49924,1626538814826,,,252,254,237,231,,0.02,0.01,-2.94,0,0,0,0.03,,64,2287,7,31,88,0.92,0.0,265,4.84,13.3,0.0,1,2.9,3.14,3.1,0,0,0,1,0,,,,,,,,,,,,,,,,,,,,
49944,1626538814846,2,2,252,254,237,231,4,0.02,0.01,-2.95,0,-0,0,0.02,0,64,2284,7,31,88,0.918,0.0,265,4.83,13.3,0.0,1,2.9,3.14,3.1,0,0,0,1,0,4,250,250,0,45.700306,4.909486,0.0,190.3,10,3,1.9,0,0.0,-1,0.0,,0.0,0,0.0,0.8324
49964,1626538814866,,,252,254,237,231,,0.02,0.01,-2.93,0,0,0,0.02,,64,2230,7,31,88,0.918,0.0,265,4.82,13.3,0.0,1,2.9,3.14,3.1,0,0,0,1,0,,,,,,,,,,,,,,,,,,,,
49984,1626538814886,,,252,254,237,231,,0.02,0.0,-2.96,0,0,0,0.02,,64,2280,7,31,88,0.917,0.0,268,4.83,13.3,0.0,1,2.9,3.14,3.1,0,0,0,1,0,,,,,,,,,,,,,,,,,,,,
50004,1626538814908,,,252,254,237,231,,0.01,-0.0,-2.97,0,0,0,0.01,,64,2287,7,31,88,0.916,0.0,265,4.82,13.3,0.0,1,2.9,3.14,3.3,0,0,0,1,0,,,,,,,,,,,,,,,,,,,,
50024,1626538814928,,,252,254,237,231,,0.02,0.0,-2.95,0,0,0,0.02,,64,2262,7,31,88,0.915,0.0,265,4.81,13.2,0.0,1,2.9,2.04,3.3,0,0,0,1,0,,,,,,,,,,,,,,,,,,,,
50044,1626538814948,2,2,252,254,237,231,5,0.02,-0.0,-2.95,0,1,0,0.02,0,64,2220,7,31,88,0.913,0.0,266,4.82,13.3,0.0,1,2.9,3.14,3.3,0,0,0,1,0,4,250,250,0,45.700306,4.909486,0.0,190.3,10,3,1.9,0,0.0,-1,0.0,0.0,0.0,0,0.0,0.8341
50064,1626538814968,,,252,254,237,231,,0.02,0.0,-2.97,0,1,0,0.02,,64,2216,7,31,88,0.912,0.0,265,4.85,13.3,0.0,1,2.9,3.14,3.3,0,0,0,1,0,,,,,,,,,,,,,,,,,,,,
50084,1626538814988,,,252,254,237,231,,0.02,0.0,-2.97,0,0,0,0.02,,64,2271,7,31,88,0.911,0.0,263,4.83,13.3,0.0,1,2.9,3.14,3.3,0,0,0,1,0,,,,,,,,,,,,,,,,,,,,
50104,1626538815000,,,252,254,237,231,,0.02,0.01,-2.99,0,0,0,0.03,,64,2331,7,31,88,0.909,0.0,272,4.81,13.3,0.0,1,2.7,3.14,3.3,0,0,0,1,0,,,,,,,,,,,,,,,,,,,,
50124,1626538815020,,,252,254,237,231,,0.03,0.01,-2.98,0,0,0,0.03,,64,2296,7,31,88,0.907,0.0,271,4.83,13.3,0.0,1,2.7,3.12,3.3,0,0,0,1,0,,,,,,,,,,,,,,,,,,,,
50144,1626538815040,2,1,252,254,237,231,5,0.03,0.01,-2.98,0,0,0,0.03,0,64,2279,7,31,87,0.906,0.0,265,4.81,13.1,0.0,1,2.7,3.12,3.3,0,0,0,1,0,4,250,250,0,45.700306,4.909486,0.0,190.3,10,3,1.9,0,0.0,-1,0.0,,0.0,0,0.0,0.8357
50164,1626538815060,,,252,254,237,231,,0.03,0.01,-2.98,0,-0,0,0.03,,64,2313,7,31,88,0.904,0.0,272,4.86,13.3,0.0,1,2.7,3.14,3.3,0,0,0,1,0,,,,,,,,,,,,,,,,,,,,
50184,1626538815080,,,252,254,237,231,,0.02,0.01,-2.97,0,0,0,0.02,,64,2341,7,31,87,0.903,0.0,274,4.79,13.1,0.0,1,2.7,3.12,3.3,0,0,0,1,0,,,,,,,,,,,,,,,,,,,,
50204,1626538815108,,,252,254,237,231,,0.03,0.01,-2.98,0,0,0,0.03,,64,2321,7,31,87,0.902,0.0,271,4.85,13.3,0.0,1,2.7,3.12,3.4,0,0,0,1,0,,,,,,,,,,,,,,,,,,,,
50224,1626538815128,,,252,254,237,231,,0.02,0.02,-2.96,0,0,0,0.03,,64,2284,7,31,87,0.9,0.0,270,4.86,13.1,0.0,1,2.7,3.12,3.4,0,0,0,1,0,,,,,,,,,,,,,,,,,,,,
50244,1626538815148,1,2,252,254,237,231,5,0.03,0.01,-2.97,0,0,0,0.03,0,64,2288,7,31,88,0.899,0.0,273,4.85,13.3,0.0,1,2.7,3.14,3.4,0,0,0,1,0,4,250,250,0,45.700306,4.909486,0.0,190.3,10,3,1.9,0,0.0,-1,0.0,0.0,0.0,0,0.0,0.8374
50264,1626538815168,,,252,254,237,231,,0.02,0.01,-2.95,0,0,0,0.03,,64,2293,7,31,87,0.898,0.0,268,4.86,13.3,0.0,1,2.7,3.12,3.4,0,0,0,1,0,,,,,,,,,,,,,,,,,,,,
50284,1626538815188,,,252,254,237,231,,0.02,0.01,-2.97,0,0,0,0.02,,64,2277,7,31,87,0.897,0.0,267,4.84,13.3,0.0,1,2.7,3.12,3.4,0,0,0,1,0,,,,,,,,,,,,,,,,,,,,
50304,1626538815208,,,252,254,237,231,,0.02,0.01,-2.96,0,0,0,0.02,,64,2270,7,31,87,0.897,0.0,267,4.87,13.2,0.0,1,2.5,3.12,3.2,0,0,0,1,0,,,,,,,,,,,,,,,,,,,,
50324,1626538815228,,,252,254,237,231,,0.02,0.0,-2.99,0,0,1,0.02,,64,2276,7,31,87,0.896,0.0,271,4.83,13.3,0.0,1,2.5,3.14,3.2,0,0,0,1,0,,,,,,,,,,,,,,,,,,,,
50344,1626538815248,1,2,252,254,237,231,5,0.01,0.01,-2.98,0,0,1,0.02,0,64,2218,7,31,87,0.896,0.0,260,4.82,13.3,0.0,1,2.5,3.12,3.2,0,0,0,1,0,0,250,250,0,45.700306,4.909486,0.0,190.3,10,3,1.9,0,0.0,-1,0.0,,0.0,0,0.0,0.8391
50364,1626538815268,,,252,254,237,231,,0.01,0.01,-2.99,0,0,1,0.02,,64,2206,7,31,88,0.895,0.0,265,4.83,13.3,0.0,1,2.5,3.14,3.2,0,0,0,1,0,,,,,,,,,,,,,,,,,,,,
50384,1626538815288,,,252,254,237,231,,0.01,0.02,-2.98,0,0,1,0.02,,64,2244,7,31,87,0.894,0.0,265,4.83,13.3,0.0,1,2.5,3.12,3.2,0,0,0,1,0,,,,,,,,,,,,,,,,,,,,
50404,1626538815307,,,252,254,237,231,,0.01,0.01,-3.0,0,0,1,0.01,,64,2249,7,31,88,0.894,0.0,264,4.83,13.3,0.0,1,2.5,3.14,3.2,0,0,0,1,0,,,,,,,,,,,,,,,,,,,,
50424,1626538815327,,,252,254,237,231,,0.01,0.01,-2.98,0,1,1,0.02,,64,2207,7,31,87,0.893,0.0,260,4.83,13.3,0.0,1,2.5,3.12,3.2,0,0,0,1,0,,,,,,,,,,,,,,,,,,,,
50444,1626538815347,2,2,252,254,237,231,5,0.01,0.0,-2.98,0,0,1,0.01,0,64,2179,7,31,88,0.894,0.0,265,4.86,13.3,0.0,1,2.5,3.14,3.2,0,0,0,1,0,0,250,250,0,45.700306,4.909486,0.0,190.3,10,3,1.9,0,0.0,-1,0.0,0.0,0.0,0,0.0,0.8407
50464,1626538815367,,,252,254,237,231,,0.01,0.01,-2.98,0,0,1,0.02,,64,2194,7,31,87,0.893,0.0,258,4.81,13.0,0.0,1,2.5,3.12,3.2,0,0,0,1,0,,,,,,,,,,,,,,,,,,,,
50484,1626538815387,,,252,254,237,231,,0.01,0.0,-2.97,0,0,0,0.01,,64,2205,7,31,88,0.893,0.0,259,4.85,13.3,0.0,1,2.5,3.14,3.2,0,0,0,1,0,,,,,,,,,,,,,,,,,,,,
50504,1626538815407,,,252,254,237,231,,0.02,0.0,-2.97,0,0,0,0.02,,64,2148,7,31,87,0.893,0.0,259,4.77,13.2,0.0,1,2.3,3.12,3.1,0,0,0,1,0,,,,,,,,,,,,,,,,,,,,
50524,1626538815427,,,252,254,237,231,,0.01,0.0,-2.97,0,0,0,0.01,,64,2114,7,31,88,0.893,0.0,255,4.82,13.3,0.0,1,2.3,3.14,3.1,0,0,0,1,0,,,,,,,,,,,,,,,,,,,,
50544,1626538815447,2,1,252,254,237,231,5,0.02,-0.0,-2.99,0,0,1,0.02,0,64,2116,7,31,88,0.893,0.0,255,4.83,13.3,0.0,1,2.3,3.14,3.1,0,0,0,1,0,0,250,250,0,45.700306,4.909486,0.0,190.3,10,3,1.9,0,0.0,-1,0.0,,0.0,0,0.0,0.8424
50564,1626538815467,,,252,254,237,231,,0.01,-0.0,-2.97,0,0,1,0.01,,64,2133,7,31,88,0.893,0.0,248,4.85,13.3,0.0,1,2.3,3.14,3.1,0,0,0,1,0,,,,,,,,,,,,,,,,,,,,
50584,1626538815487,,,252,254,237,231,,0.01,-0.01,-2.98,0,0,0,0.02,,64,2146,7,31,88,0.893,0.0,256,4.84,13.3,0.0,1,2.3,3.14,3.1,0,0,0,1,0,,,,,,,,,,,,,,,,,,,,
50604,1626538815507,,,252,254,237,231,,0.01,-0.01,-2.99,0,0,1,0.01,,64,2090,7,31,88,0.892,0.0,256,4.78,13.1,0.0,1,2.3,3.14,3.1,0,0,0,1,0,,,,,,,,,,,,,,,,,,,,
50624,1626538815527,,,252,254,237,231,,0.01,-0.0,-2.98,0,0,0,0.01,,64,2073,7,31,88,0.892,0.0,246,4.85,13.3,0.0,1,2.3,3.14,3.1,0,0,0,1,0,,,,,,,,,,,,,,,,,,,,
50644,1626538815547,1,2,252,254,237,231,5,0.01,-0.0,-2.97,0,0,0,0.01,0,64,2053,7,31,89,0.891,0.0,250,4.85,13.3,0.0,1,2.3,3.16,3.1,0,0,0,1,0,11,250,250,0,45.700306,4.909486,0.0,190.3,10,3,1.9,0,0.0,-1,0.0,0.0,0.0,0,0.0,0.8441
50664,1626538815567,,,252,254,237,231,,0.0,0.0,-2.96,0,0,0,0.0,,64,2082,7,31,88,0.891,0.0,251,4.86,13.3,0.0,1,2.3,2.04,3.1,0,0,0,1,0,,,,,,,,,,,,,,,,,,,,
50684,1626538815587,,,252,254,237,231,,0.01,-0.01,-2.97,0,0,0,0.01,,64,2052,7,31,89,0.891,0.0,243,4.83,13.3,0.0,1,2.3,3.16,3.1,0,0,0,1,0,,,,,,,,,,,,,,,,,,,,
50704,1626538815607,,,252,254,237,231,,0.01,-0.0,-2.97,0,0,0,0.01,,64,2001,7,31,89,0.89,0.0,241,4.83,13.3,0.0,1,2.2,3.16,2.9,0,0,0,1,0,,,,,,,,,,,,,,,,,,,,
50724,1626538815627,,,252,254,237,231,,0.0,0.0,-2.96,0,0,0,0.0,,64,1932,7,31,88,0.889,0.0,240,4.86,13.2,0.0,1,2.2,3.14,2.9,0,0,0,1,0,,,,,,,,,,,,,,,,,,,,
50744,1626538815647,2,3,252,254,237,231,4,0.0,0.0,-2.99,0,0,0,0.0,0,64,1998,7,31,89,0.888,0.0,241,4.84,13.3,0.0,1,2.2,3.16,2.9,0,0,0,1,0,11,250,250,0,45.700306,4.909486,0.0,190.3,10,3,1.9,0,0.0,-1,0.0,,0.0,0,0.0,0.8457
50764,1626538815667,,,252,254,237,231,,0.01,0.0,-2.99,0,0,0,0.01,,64,2045,7,31,89,0.887,0.0,242,4.85,13.3,0.0,1,2.2,3.16,2.9,0,0,0,1,0,,,,,,,,,,,,,,,,,,,,
50784,1626538815687,,,252,254,237,231,,-0.0,0.01,-2.98,0,0,0,0.01,,64,1986,7,31,89,0.887,0.0,241,4.86,13.1,0.0,1,2.2,3.16,2.9,0,0,0,1,0,,,,,,,,,,,,,,,,,,,,
50804,1626538815707,,,252,254,237,231,,-0.01,0.0,-3.0,0,0,1,0.01,,64,1921,7,31,89,0.885,0.0,235,4.85,13.3,0.0,1,2.2,3.16,2.9,0,0,0,1,0,,,,,,,,,,,,,,,,,,,,
50824,1626538815727,,,252,253,237,231,,0.0,0.01,-3.0,0,0,1,0.01,,64,1867,7,31,90,0.884,0.0,232,4.86,13.3,0.0,1,2.2,3.19,2.9,0,0,0,1,0,,,,,,,,,,,,,,,,,,,,
50844,1626538815747,2,2,252,254,237,231,5,0.01,0.01,-3.01,0,0,1,0.01,0,64,1877,7,31,90,0.883,0.0,230,4.83,13.3,0.0,1,2.2,3.19,2.9,0,0,0,1,0,11,250,250,0,45.700306,4.909486,0.0,190.3,10,3,1.9,0,0.0,-1,0.0,0.0,0.0,0,0.0,0.8474
50864,1626538815767,,,252,254,237,231,,0.0,0.0,-2.95,0,0,0,0.0,,64,1894,7,31,90,0.882,0.0,228,4.83,13.3,0.0,1,2.2,3.19,2.9,0,0,0,1,0,,,,,,,,,,,,,,,,,,,,
50884,1626538815787,,,252,254,237,231,,-0.0,0.0,-2.99,0,0,1,0.0,,64,1848,7,31,90,0.881,0.0,227,4.83,13.3,0.0,1,2.2,3.19,2.9,0,0,0,1,0,,,,,,,,,,,,,,,,,,,,
50904,1626538815807,,,252,254,237,231,,0.0,0.0,-2.99,0,0,1,0.0,,64,1778,7,31,90,0.88,0.0,225,4.83,13.3,0.0,1,2.3,3.19,2.7,0,0,0,1,0,,,,,,,,,,,,,,,,,,,,
50924,1626538815827,,,252,254,237,231,,0.01,-0.0,-3.01,0,0,1,0.01,,64,1693,7,31,91,0.879,0.0,218,4.85,13.3,0.0,1,2.3,3.19,2.7,0,0,0,1,0,,,,,,,,,,,,,,,,,,,,
50944,1626538815847,2,1,252,254,237,231,5,0.01,-0.01,-2.99,0,0,0,0.01,0,64,1664,7,31,91,0.878,0.0,214,4.85,13.3,0.0,1,2.3,3.19,2.7,0,0,0,1,0,11,250,250,0,45.700306,4.909486,0.0,190.3,10,3,1.9,0,0.0,-1,0.0,,0.0,0,0.0,0.8491
50964,1626538815867,,,252,254,237,231,,0.01,0.0,-2.99,0,0,0,0.01,,64,1709,7,31,91,0.877,0.0,214,4.83,13.2,0.0,1,2.3,2.09,2.7,0,0,0,1,0,,,,,,,,,,,,,,,,,,,,
50984,1626538815887,,,252,254,237,231,,0.01,-0.0,-3.01,0,0,1,0.01,,64,1649,7,31,91,0.877,0.0,216,4.8,13.0,0.0,1,2.3,3.19,2.7,0,0,0,1,0,,,,,,,,,,,,,,,,,,,,
51004,1626538815907,,,252,254,237,231,,0.01,-0.0,-3.01,0,0,1,0.01,,64,1570,7,31,91,0.877,0.0,210,4.86,13.0,0.0,1,2.3,3.19,2.4,0,0,0,1,0,,,,,,,,,,,,,,,,,,,,
51024,1626538815927,,,252,254,237,231,,0.01,0.0,-3.03,0,0,1,0.01,,64,1474,7,31,91,0.876,0.0,201,4.85,13.0,0.0,1,2.3,3.19,2.4,0,0,0,1,0,,,,,,,,,,,,,,,,,,,,
51044,1626538815947,2,1,252,254,237,231,5,0.01,0.0,-3.03,0,0,1,0.01,0,64,1468,7,31,91,0.876,0.0,197,4.79,13.1,0.0,1,2.3,2.09,2.4,0,0,0,1,0,5,250,250,0,45.700306,4.909486,0.0,190.3,10,3,1.9,0,0.0,-1,0.0,0.0,0.0,0,0.0,0.8507
51064,1626538815967,,,252,254,237,231,,0.0,0.0,-3.03,0,0,1,0.01,,64,1550,7,31,92,0.876,0.0,200,4.84,13.0,0.0,1,2.3,3.19,2.4,0,0,0,1,0,,,,,,,,,,,,,,,,,,,,
51084,1626538815987,,,252,254,237,231,,0.0,0.0,-3.02,0,0,1,0.0,,64,1572,7,31,92,0.876,0.0,203,4.85,13.0,0.0,1,2.3,3.19,2.4,0,0,0,1,0,,,,,,,,,,,,,,,,,,,,
51104,1626538816001,,,252,254,237,231,,0.0,0.01,-3.01,0,-0,0,0.01,,64,1487,7,31,92,0.876,0.0,200,4.84,13.0,0.0,1,2.6,3.19,2.3,0,0,0,1,0,,,,,,,,,,,,,,,,,,,,
51124,1626538816021,,,252,254,237,231,,0.0,0.0,-3.02,0,-0,0,0.01,,64,1408,7,31,92,0.877,0.0,194,4.83,13.1,0.0,1,2.6,2.09,2.3,0,0,0,1,0,,,,,,,,,,,,,,,,,,,,
51144,1626538816041,2,1,252,254,237,231,5,-0.0,0.01,-3.01,0,-0,0,0.01,0,64,1315,7,31,92,0.878,0.0,189,4.79,13.2,0.0,1,2.6,2.09,2.3,0,0,0,1,0,5,250,250,0,45.700306,4.909486,0.0,190.3,10,3,1.9,0,0.0,-1,0.0,,0.0,0,0.0,0.8524
51164,1626538816061,,,252,254,237,231,,-0.0,0.01,-3.0,0,-0,0,0.01,,64,1315,7,31,93,0.88,0.0,187,4.85,13.3,0.0,1,2.6,3.19,2.3,0,0,0,1,0,,,,,,,,,,,,,,,,,,,,
51184,1626538816081,,,252,254,237,231,,0.0,0.01,-2.99,0,-0,0,0.01,,64,1355,7,31,93,0.88,0.0,189,4.83,13.3,0.0,1,2.6,3.19,2.3,0,0,0,1,0,,,,,,,,,,,,,,,,,,,,
51204,1626538816105,,,252,254,237,231,,0.0,0.02,-2.99,0,0,0,0.02,,64,1508,7,31,93,0.881,0.0,197,4.83,13.3,0.0,1,2.6,3.19,2.2,0,0,0,1,0,,,,,,,,,,,,,,,,,,,,
51224,1626538816125,,,252,254,237,231,,0.0,0.02,-3.0,0,0,0,0.02,,64,1573,7,31,93,0.881,0.0,197,4.85,13.3,0.0,1,2.6,3.19,2.2,0,0,0,1,0,,,,,,,,,,,,,,,,,,,,
51244,1626538816145,3,1,252,254,237,231,5,0.0,0.02,-3.01,0,0,0,0.02,0,64,1480,7,31,93,0.881,0.0,194,4.83,13.3,0.0,1,2.6,3.19,2.2,0,0,0,1,0,5,250,250,0,45.700306,4.909486,0.0,190.3,10,3,1.9,0,0.0,-1,0.0,0.0,0.0,0,0.0,0.8541
51264,1626538816165,,,252,254,237,231,,0.01,0.02,-2.99,0,0,0,0.02,,64,1375,7,31,93,0.882,0.0,188,4.83,13.3,0.0,1,2.6,3.19,2.2,0,0,0,1,0,,,,,,,,,,,,,,,,,,,,
51284,1626538816185,,,252,253,237,231,,0.0,0.02,-2.99,0,0,0,0.02,,64,1266,7,31,93,0.883,0.0,183,4.84,13.3,0.0,1,2.6,3.19,2.2,0,0,0,1,0,,,,,,,,,,,,,,,,,,,,
51304,1626538816207,,,252,254,237,231,,0.01,0.02,-2.97,0,0,0,0.02,,64,1319,7,31,94,0.885,0.0,189,4.85,13.3,0.0,1,3.2,3.19,1.8,0,0,0,1,0,,,,,,,,,,,,,,,,,,,,
51324,1626538816227,,,252,254,237,231,,0.01,0.02,-2.98,0,0,0,0.02,,64,1555,7,31,94,0.886,0.0,196,4.85,13.3,0.0,1,3.2,3.19,1.8,0,0,0,1,0,,,,,,,,,,,,,,,,,,,,
51344,1626538816247,1,2,252,254,237,231,5,0.02,0.01,-3.0,0,0,0,0.02,0,64,1656,7,31,93,0.887,0.0,200,4.85,13.3,0.0,1,3.2,3.19,1.8,0,0,0,1,0,5,250,250,0,45.700306,4.909486,0.0,190.3,10,3,1.9,0,0.0,-1,0.0,,0.0,0,0.0,0.8557
51364,1626538816267,,,252,254,237,231,,0.01,0.01,-3.01,0,0,0,0.02,,64,1584,7,31,93,0.888,0.0,200,4.83,13.3,0.0,1,3.2,3.19,1.8,0,0,0,1,0,,,,,,,,,,,,,,,,,,,,
51384,1626538816287,,,252,254,237,231,,0.01,0.01,-3.03,0,-0,0,0.02,,64,1508,7,31,93,0.888,0.0,197,4.82,13.3,0.0,1,3.2,3.19,1.8,0,0,0,1,0,,,,,,,,,,,,,,,,,,,,
51404,1626538816307,,,252,254,237,231,,0.01,0.0,-3.02,0,-0,0,0.01,,64,1423,7,31,93,0.889,0.0,197,4.85,13.3,0.0,1,3.2,3.19,2.2,0,0,0,1,0,,,,,,,,,,,,,,,,,,,,
51424,1626538816327,,,252,254,237,231,,0.01,-0.01,-3.04,0,-1,0,0.01,,64,1484,7,31,93,0.889,0.0,198,4.83,13.3,0.0,1,3.2,3.19,2.2,0,0,0,1,0,,,,,,,,,,,,,,,,,,,,
51444,1626538816347,2,2,252,254,237,231,5,0.02,-0.0,-3.04,0,-0,0,0.02,0,64,1665,7,31,93,0.89,0.0,206,4.85,13.3,0.0,1,3.2,3.19,2.2,0,0,0,1,0,5,250,250,0,45.700306,4.909486,0.0,190.3,10,3,1.9,0,0.0,-1,0.0,0.0,0.0,0,0.0,0.8574
51464,1626538816367,,,252,254,237,231,,0.02,-0.0,-3.04,0,-0,0,0.02,,64,1703,7,31,93,0.891,0.0,210,4.82,13.3,0.0,1,3.2,2.09,2.2,0,0,0,1,0,,,,,,,,,,,,,,,,,,,,
51484,1626538816387,,,252,254,237,231,,0.02,-0.0,-3.05,0,-0,0,0.02,,64,1640,7,31,92,0.892,0.0,211,4.78,13.2,0.0,1,3.2,2.09,2.2,0,0,0,1,0,,,,,,,,,,,,,,,,,,,,
51504,1626538816408,,,252,254,237,231,,0.02,-0.01,-3.06,0,-0,0,0.02,,65,1572,7,31,92,0.893,0.0,206,4.82,13.1,0.0,1,3.5,3.19,2.4,0,0,0,1,0,,,,,,,,,,,,,,,,,,,,
51524,1626538816428,,,252,254,237,231,,0.01,-0.01,-3.03,0,-0,0,0.01,,64,1644,7,31,92,0.894,0.0,206,4.86,13.2,0.0,1,3.5,3.19,2.4,0,0,0,1,0,,,,,,,,,,,,,,,,,,,,
51544,1626538816448,2,2,252,254,237,231,5,0.0,-0.02,-3.03,0,0,0,0.02,0,64,1774,7,31,93,0.894,0.0,212,4.84,13.3,0.0,1,3.5,3.19,2.4,0,0,0,1,0,0,250,250,0,45.700306,4.909486,0.0,190.3,10,3,1.9,0,0.0,-1,0.0,,0.0,0,0.0,0.8591
51564,1626538816468,,,252,254,237,231,,0.01,-0.02,-3.03,0,-0,0,0.02,,64,1818,7,31,93,0.894,0.0,217,4.85,13.3,0.0,1,3.5,3.19,2.4,0,0,0,1,0,,,,,,,,,,,,,,,,,,,,
51584,1626538816488,,,252,253,237,231,,0.01,-0.01,-3.04,0,0,0,0.02,,64,1747,7,31,92,0.895,0.0,218,4.85,13.3,0.0,1,3.5,3.19,2.4,0,0,0,1,0,,,,,,,,,,,,,,,,,,,,
51604,1626538816508,,,252,254,237,231,,0.02,-0.01,-3.03,0,-0,0,0.02,,64,1666,7,31,92,0.895,0.0,213,4.84,13.3,0.0,1,3.5,3.19,2.4,0,0,0,1,0,,,,,,,,,,,,,,,,,,,,
51624,1626538816528,,,252,254,237,231,,0.02,-0.01,-3.04,0,-0,0,0.02,,64,1719,7,31,92,0.896,0.0,211,4.82,13.3,0.0,1,3.5,2.09,2.4,0,0,0,1,0,,,,,,,,,,,,,,,,,,,,
51644,1626538816548,2,1,252,254,237,231,5,0.02,0.0,-2.97,0,-0,0,0.02,0,65,1856,7,31,92,0.896,0.0,217,4.86,13.2,0.0,1,3.5,3.19,2.4,0,0,0,1,0,0,250,250,0,45.700306,4.909486,0.0,190.3,10,3,1.9,0,0.0,-1,0.0,0.0,0.0,0,0.0,0.8607
51664,1626538816568,,,252,254,237,231,,0.01,-0.0,-3.01,0,-0,0,0.01,,64,1915,7,31,92,0.897,0.0,225,4.83,13.3,0.0,1,3.5,3.19,2.4,0,0,0,1,0,,,,,,,,,,,,,,,,,,,,
51684,1626538816588,,,252,253,237,231,,0.02,0.0,-3.03,0,-0,0,0.02,,64,1835,7,31,92,0.897,0.0,226,4.83,13.3,0.0,1,3.5,3.19,2.4,0,0,0,1,0,,,,,,,,,,,,,,,,,,,,
51704,1626538816608,,,252,254,237,231,,0.02,-0.0,-3.02,0,-0,0,0.02,,64,1748,7,31,91,0.898,0.0,219,4.84,13.3,0.0,1,3.7,3.19,2.5,0,0,0,1,0,,,,,,,,,,,,,,,,,,,,
51724,1626538816628,,,252,254,237,231,,0.03,-0.0,-3.07,0,-0,0,0.03,,64,1841,7,31,91,0.898,0.0,219,4.84,13.3,0.0,1,3.7,2.09,2.5,0,0,0,1,0,,,,,,,,,,,,,,,,,,,,
51744,1626538816648,2,2,252,254,237,231,4,0.01,0.0,-3.03,0,-1,0,0.01,0,64,1972,7,31,91,0.899,0.0,228,4.86,13.3,0.0,1,3.7,3.19,2.5,0,0,0,1,0,0,250,250,0,45.700306,4.909486,0.0,190.3,10,3,1.9,0,0.0,-1,0.0,,0.0,0,0.0,0.8624
51764,1626538816668,,,252,254,237,231,,0.02,0.0,-3.01,0,-1,0,0.02,,64,1935,7,31,91,0.899,0.0,231,4.85,13.3,0.0,1,3.7,3.19,2.5,0,0,0,1,0,,,,,,,,,,,,,,,,,,,,
51784,1626538816688,,,252,254,237,231,,0.02,0.01,-3.02,0,-1,0,0.03,,64,1856,7,31,91,0.9,0.0,227,4.85,13.3,0.0,1,3.7,3.19,2.5,0,0,0,1,0,,,,,,,,,,,,,,,,,,,,
51804,1626538816708,,,252,254,237,231,,0.03,-0.0,-3.06,0,-0,0,0.03,,64,1881,7,31,91,0.901,0.0,226,4.81,13.2,0.0,1,3.7,2.09,2.6,0,0,0,1,0,,,,,,,,,,,,,,,,,,,,
51824,1626538816728,,,252,254,237,231,,0.02,-0.0,-3.05,0,-0,0,0.02,,65,2051,7,31,91,0.901,0.0,236,4.85,13.3,0.0,1,3.7,3.19,2.6,0,0,0,1,0,,,,,,,,,,,,,,,,,,,,
51844,1626538816748,2,0,252,254,237,231,5,0.02,0.0,-3.04,0,-0,0,0.02,0,64,2111,7,31,91,0.902,0.0,244,4.85,13.3,0.0,1,3.7,3.19,2.6,0,0,0,1,0,0,250,250,0,45.700306,4.909486,0.0,190.3,10,3,1.9,0,0.0,-1,0.0,0.0,0.0,0,0.0,0.8641
51864,1626538816768,,,252,254,237,231,,0.01,0.0,-3.06,0,0,1,0.01,,65,1999,7,31,90,0.902,0.0,242,4.86,13.1,0.0,1,3.7,3.19,2.6,0,0,0,1,0,,,,,,,,,,,,,,,,,,,,
51884,1626538816788,,,252,254,237,231,,0.01,-0.01,-3.06,0,0,0,0.01,,65,1955,7,31,90,0.902,0.0,237,4.84,13.3,0.0,1,3.7,3.19,2.6,0,0,0,1,0,,,,,,,,,,,,,,,,,,,,
51904,1626538816808,,,252,254,237,231,,0.02,-0.01,-3.05,0,0,0,0.02,,65,2014,7,31,90,0.903,0.0,245,4.85,13.3,0.0,1,3.7,3.19,2.8,0,0,0,1,0,,,,,,,,,,,,,,,,,,,,
51924,1626538816828,,,252,254,237,231,,0.01,-0.01,-3.06,0,0,1,0.01,,65,2245,7,31,90,0.905,0.0,255,4.84,13.3,0.0,1,3.7,3.16,2.8,0,0,0,1,0,,,,,,,,,,,,,,,,,,,,
51944,1626538816848,3,2,252,254,237,231,5,0.01,-0.02,-3.07,0,0,0,0.02,0,65,2235,7,31,89,0.906,0.0,256,4.84,13.3,0.0,1,3.7,3.16,2.8,0,0,0,1,0,0,250,250,0,45.700306,4.909486,0.0,190.3,10,3,1.9,0,0.0,-1,0.0,,0.0,0,0.0,0.8657
51964,1626538816868,,,252,254,237,231,,0.0,-0.01,-3.02,0,1,0,0.01,,65,2169,7,31,89,0.908,0.0,257,4.86,13.3,0.0,1,3.7,3.16,2.8,0,0,0,1,0,,,,,,,,,,,,,,,,,,,,
51984,1626538816888,,,252,254,237,231,,0.01,-0.01,-3.02,0,0,0,0.01,,65,2186,7,31,89,0.91,0.0,265,4.83,13.3,0.0,1,3.7,3.16,2.8,0,0,0,1,0,,,,,,,,,,,,,,,,,,,,
52004,1626538816908,,,252,254,237,231,,0.0,-0.01,-2.99,0,0,0,0.01,,65,2313,7,31,88,0.911,0.0,262,4.84,13.2,0.0,1,3.7,3.14,3.3,0,0,0,1,0,,,,,,,,,,,,,,,,,,,,
52024,1626538816928,,,252,254,237,231,,0.0,-0.01,-3.01,0,0,0,0.01,,65,2366,7,31,88,0.914,0.0,273,4.84,13.3,0.0,1,3.7,3.16,3.3,0,0,0,1,0,,,,,,,,,,,,,,,,,,,,
52044,1626538816948,2,2,252,254,237,231,5,0.01,-0.01,-3.0,0,0,0,0.01,0,65,2342,7,31,88,0.916,0.0,276,4.83,13.3,0.0,1,3.7,3.14,3.3,0,0,0,1,0,0,250,250,0,45.700306,4.909486,0.0,190.3,10,3,1.9,0,0.0,-1,0.0,0.0,0.0,0,0.0,0.8674
52064,1626538816968,,,252,254,237,231,,0.01,-0.0,-3.03,0,0,0,0.01,,65,2327,7,31,88,0.917,0.0,270,4.81,13.3,0.0,1,3.7,3.14,3.3,0,0,0,1,0,,,,,,,,,,,,,,,,,,,,
52084,1626538816988,,,252,254,237,231,,0.02,-0.01,-3.04,0,0,0,0.02,,65,2358,7,31,88,0.92,0.0,273,4.83,13.3,0.0,1,3.7,3.14,3.3,0,0,0,1,0,,,,,,,,,,,,,,,,,,,,
52104,1626538817002,,,252,254,237,231,,0.01,-0.01,-3.03,0,-0,0,0.01,,65,2405,7,31,87,0.923,0.0,281,4.82,13.0,0.0,1,3.4,3.12,3.4,0,0,0,1,0,,,,,,,,,,,,,,,,,,,,
52124,1626538817022,,,252,254,237,231,,0.01,-0.01,-3.03,0,-0,0,0.02,,65,2388,7,31,87,0.926,0.0,278,4.82,13.3,0.0,1,3.4,3.12,3.4,0,0,0,1,0,,,,,,,,,,,,,,,,,,,,
52144,1626538817042,2,1,252,254,237,231,5,0.01,-0.01,-3.02,0,-0,0,0.01,0,65,2387,7,31,87,0.928,0.0,276,4.83,13.3,0.0,1,3.4,3.12,3.4,0,0,0,1,0,0,250,250,0,45.700306,4.909486,0.0,190.3,10,3,1.9,0,0.0,-1,0.0,,0.0,0,0.0,0.8691
52164,1626538817062,,,252,254,237,231,,0.0,-0.01,-3.05,0,-0,0,0.01,,65,2447,7,31,87,0.928,0.0,281,4.79,13.2,0.0,1,3.4,2.02,3.4,0,0,0,1,0,,,,,,,,,,,,,,,,,,,,
52184,1626538817082,,,252,254,237,231,,0.02,-0.01,-3.05,0,-0,0,0.02,,65,2436,7,31,87,0.928,0.0,287,4.82,13.3,0.0,1,3.4,3.12,3.4,0,0,0,1,0,,,,,,,,,,,,,,,,,,,,
52204,1626538817108,,,252,254,237,231,,0.01,-0.01,-3.02,0,-1,0,0.01,,65,2416,7,31,86,0.928,0.0,278,4.84,13.1,0.0,1,3.4,3.1,3.4,0,0,0,1,0,,,,,,,,,,,,,,,,,,,,
52224,1626538817128,,,252,254,237,231,,0.01,-0.01,-3.04,0,-0,0,0.01,,65,2432,7,31,86,0.928,0.0,285,4.82,13.3,0.0,1,3.4,3.12,3.4,0,0,0,1,0,,,,,,,,,,,,,,,,,,,,
52244,1626538817148,3,1,252,254,237,231,4,0.02,-0.02,-3.05,0,-1,0,0.03,0,65,2469,7,31,86,0.926,0.0,290,4.83,13.3,0.0,1,3.4,3.1,3.4,0,0,0,1,0,0,250,250,0,45.700306,4.909486,0.0,190.3,10,3,1.9,0,0.0,-1,0.0,0.0,0.0,0,0.0,0.8707
52264,1626538817168,,,252,254,237,231,,0.0,-0.01,-3.01,0,-1,0,0.01,,65,2477,7,31,86,0.923,0.0,282,4.8,13.0,0.0,1,3.4,3.1,3.4,0,0,0,1,0,,,,,,,,,,,,,,,,,,,,
52284,1626538817188,,,252,254,237,231,,0.01,-0.02,-3.0,0,-1,0,0.02,,65,2473,7,31,86,0.921,0.0,292,4.83,13.3,0.0,1,3.4,3.1,3.4,0,0,0,1,0,,,,,,,,,,,,,,,,,,,,
52304,1626538817204,,,252,254,237,231,,0.02,-0.02,-3.01,0,-1,0,0.03,,65,2471,7,31,86,0.919,0.0,291,4.85,13.4,0.0,1,3.1,3.1,3.5,0,0,0,1,0,,,,,,,,,,,,,,,,,,,,
52324,1626538817224,,,252,254,237,231,,0.0,-0.02,-2.99,0,-1,0,0.02,,65,2527,7,31,85,0.916,0.0,288,4.77,13.0,0.0,1,3.1,3.08,3.5,0,0,0,1,0,,,,,,,,,,,,,,,,,,,,
52344,1626538817244,2,2,252,254,237,231,5,0.01,-0.03,-2.98,0,-0,0,0.03,0,65,2519,7,31,85,0.914,0.0,296,4.84,13.3,0.0,1,3.1,3.08,3.5,0,0,0,1,0,0,250,250,0,45.700306,4.909486,0.0,190.3,10,3,1.9,0,0.0,-1,0.0,,0.0,0,0.0,0.8724
52364,1626538817264,,,252,254,237,231,,0.02,-0.03,-3.03,0,-0,0,0.04,,65,2516,7,31,85,0.912,0.0,293,4.83,13.3,0.0,1,3.1,3.08,3.5,0,0,0,1,0,,,,,,,,,,,,,,,,,,,,
52384,1626538817284,,,252,254,237,231,,-0.0,-0.02,-3.0,0,-0,0,0.02,,65,2548,7,31,84,0.91,0.0,291,4.81,13.0,0.0,1,3.1,3.07,3.5,0,0,0,1,0,,,,,,,,,,,,,,,,,,,,
52404,1626538817308,,,252,254,237,231,,0.01,-0.02,-2.99,0,0,0,0.02,,65,2566,7,31,84,0.909,0.0,297,4.83,13.3,0.0,1,3.1,3.07,3.6,0,0,0,1,0,,,,,,,,,,,,,,,,,,,,
52424,1626538817328,,,252,254,237,231,,0.03,-0.03,-3.0,0,-0,0,0.05,,65,2568,7,31,84,0.907,0.0,302,4.84,13.3,0.0,1,3.1,3.07,3.6,0,0,0,1,0,,,,,,,,,,,,,,,,,,,,
52444,1626538817348,2,2,252,254,237,231,5,0.01,-0.02,-2.96,0,-1,0,0.03,0,65,2575,7,31,84,0.906,0.0,293,4.83,13.3,0.0,1,3.1,3.05,3.6,0,0,0,1,0,0,250,250,0,45.700306,4.909486,0.0,190.3,10,3,1.9,0,0.0,-1,0.0,0.0,0.0,0,0.0,0.8741
52464,1626538817368,,,252,254,237,231,,-0.01,-0.01,-3.03,0,0,1,0.01,,65,2639,7,31,83,0.905,0.0,302,4.8,13.1,0.0,1,3.1,3.07,3.6,0,0,0,1,0,,,,,,,,,,,,,,,,,,,,
52484,1626538817388,,,252,254,237,231,,0.02,-0.01,-2.96,0,1,0,0.02,,65,2730,7,31,83,0.904,0.0,313,4.83,13.3,0.0,1,3.1,1.98,3.6,0,0,0,1,0,,,,,,,,,,,,,,,,,,,,
52504,1626538817407,,,252,254,237,231,,0.04,-0.01,-2.97,0,-1,0,0.04,,65,2736,7,31,82,0.903,0.0,311,4.85,13.3,0.0,1,2.8,3.06,3.9,0,0,0,1,0,,,,,,,,,,,,,,,,,,,,
52524,1626538817427,,,252,254,237,231,,0.03,0.0,-3.05,0,-3,1,0.04,,65,2730,7,31,82,0.903,0.0,320,4.83,13.3,0.0,1,2.8,3.06,3.9,0,0,0,1,0,,,,,,,,,,,,,,,,,,,,
52544,1626538817447,3,2,252,254,237,231,5,0.01,-0.01,-3.04,0,-3,0,0.01,0,65,2786,7,31,82,0.902,0.0,316,4.86,13.3,0.0,1,2.8,3.06,3.9,0,0,0,1,0,0,250,250,0,45.700306,4.909486,0.0,190.3,10,3,1.9,0,0.0,-1,0.0,,0.0,0,0.0,0.8757
52564,1626538817467,,,252,254,237,231,,-0.01,-0.0,-2.99,0,0,0,0.01,,65,2844,7,31,81,0.901,0.0,321,4.85,13.2,0.0,1,2.8,3.05,3.9,0,0,0,1,0,,,,,,,,,,,,,,,,,,,,
52584,1626538817487,,,252,254,237,231,,-0.01,-0.0,-2.96,0,3,0,0.01,,65,2886,7,31,81,0.9,0.0,330,4.86,13.2,0.0,1,2.8,3.02,3.9,0,0,0,1,0,,,,,,,,,,,,,,,,,,,,
52604,1626538817507,,,252,254,237,231,,-0.01,-0.01,-3.03,0,4,0,0.02,,65,2933,7,31,80,0.899,0.0,332,4.81,13.2,0.0,1,2.8,3.02,4.0,0,0,0,1,0,,,,,,,,,,,,,,,,,,,,
52624,1626538817527,,,252,254,237,231,,-0.01,-0.02,-2.95,0,4,0,0.02,,65,2985,7,31,80,0.897,0.0,337,4.83,13.1,0.0,1,2.8,3.03,4.0,0,0,0,1,0,,,,,,,,,,,,,,,,,,,,
52644,1626538817547,3,2,252,254,237,231,5,-0.01,-0.02,-2.96,0,5,0,0.02,0,65,2974,7,31,79,0.896,0.0,345,4.8,13.1,0.0,1,2.8,2.99,4.0,0,0,0,1,0,0,250,250,0,45.700306,4.909486,0.0,190.3,10,3,1.9,0,0.0,-1,0.0,0.0,0.0,0,0.0,0.8774
52664,1626538817567,,,252,254,237,231,,-0.01,-0.03,-2.89,0,5,-0,0.03,,65,2975,7,31,79,0.895,0.0,338,4.79,13.1,0.0,1,2.8,2.99,4.0,0,0,0,1,0,,,,,,,,,,,,,,,,,,,,
52684,1626538817587,,,252,254,237,231,,-0.01,-0.01,-2.82,0,5,-0,0.01,,65,2987,7,31,79,0.894,0.0,350,4.81,13.0,0.0,1,2.8,1.88,4.0,0,0,0,1,0,,,,,,,,,,,,,,,,,,,,
52704,1626538817607,,,252,254,237,231,,-0.01,-0.02,-2.81,0,5,-0,0.02,,65,2999,7,31,78,0.893,0.0,343,4.8,13.1,0.0,1,0.0,2.95,4.1,0,0,0,1,0,,,,,,,,,,,,,,,,,,,,
52724,1626538817627,,,252,254,237,231,,-0.01,-0.01,-2.78,0,5,-0,0.02,,65,3019,7,31,78,0.893,0.0,350,4.81,13.0,0.0,1,0.0,2.96,4.1,0,0,0,1,0,,,,,,,,,,,,,,,,,,,,
52744,1626538817647,3,2,252,254,237,231,5,-0.01,-0.02,-2.76,0,6,-1,0.02,0,65,3004,7,30,78,0.893,0.0,350,4.81,13.0,0.0,1,0.0,1.85,4.1,0,0,0,1,0,0,250,250,0,45.700306,4.909486,0.0,190.3,10,3,1.9,0,0.0,-1,0.0,,0.0,0,0.0,0.8791
52764,1626538817667,,,252,254,237,231,,-0.01,-0.01,-2.73,0,6,-0,0.02,,65,2978,7,30,78,0.894,0.0,342,4.81,13.0,0.0,1,0.0,2.95,4.1,0,0,0,1,0,,,,,,,,,,,,,,,,,,,,
52784,1626538817687,,,252,254,237,231,,-0.0,-0.01,-2.69,0,6,-1,0.01,,65,2946,7,30,77,0.895,0.0,348,4.8,13.0,0.0,1,0.0,2.95,4.1,0,0,0,1,0,,,,,,,,,,,,,,,,,,,,
52804,1626538817707,,,252,254,237,231,,0.0,-0.01,-2.66,0,6,-0,0.01,,65,2916,7,30,77,0.896,0.0,338,4.78,13.1,0.0,1,-0.3,2.95,4.0,0,0,0,1,0,,,,,,,,,,,,,,,,,,,,
52824,1626538817727,,,252,254,237,231,,0.02,0.01,-2.65,0,5,-0,0.02,,65,2885,7,30,77,0.899,0.0,334,4.81,13.2,0.0,1,-0.3,2.95,4.0,0,0,0,1,0,,,,,,,,,,,,,,,,,,,,
52844,1626538817747,1,3,252,254,237,231,5,0.02,-0.0,-2.65,0,3,-0,0.02,0,65,2850,7,30,78,0.903,0.0,335,4.82,13.3,0.0,1,-0.3,2.94,4.0,0,0,0,1,0,0,250,250,0,45.700306,4.909486,0.0,190.3,10,3,1.9,0,0.0,-1,0.0,0.0,0.0,0,0.0,0.8807
52864,1626538817767,,,252,254,237,231,,0.04,-0.01,-2.75,0,1,0,0.04,,65,2816,7,30,78,0.906,0.0,322,4.83,13.3,0.0,1,-0.3,2.94,4.0,0,0,0,1,0,,,,,,,,,,,,,,,,,,,,
52884,1626538817787,,,252,254,237,231,,0.03,-0.0,-2.8,0,-0,0,0.03,,65,2802,7,30,78,0.909,0.0,325,4.83,13.3,0.0,1,-0.3,2.94,4.0,0,0,0,1,0,,,,,,,,,,,,,,,,,,,,
52904,1626538817807,,,252,254,237,231,,0.01,0.0,-2.78,0,-0,0,0.01,,65,2752,7,30,78,0.913,0.0,323,4.81,13.3,0.0,1,-0.3,2.94,3.7,0,0,0,1,0,,,,,,,,,,,,,,,,,,,,
52924,1626538817827,,,252,254,237,231,,-0.0,-0.0,-2.78,0,2,0,0.0,,65,2705,7,30,78,0.916,0.0,313,4.86,13.1,0.0,1,-0.3,2.93,3.7,0,0,0,1,0,,,,,,,,,,,,,,,,,,,,
52944,1626538817847,3,2,252,254,237,231,4,0.01,0.0,-2.82,0,4,0,0.01,0,65,2697,7,30,78,0.919,0.0,317,4.8,13.1,0.0,1,-0.3,2.93,3.7,0,0,0,1,0,0,250,250,0,45.700306,4.909486,0.0,190.3,10,3,1.9,0,0.0,-1,0.0,,0.0,0,0.0,0.8824
52964,1626538817867,,,252,254,237,231,,0.04,0.01,-2.76,0,2,-0,0.04,,65,2697,7,30,79,0.922,0.0,314,4.84,13.3,0.0,1,-0.3,2.96,3.7,0,0,0,1,0,,,,,,,,,,,,,,,,,,,,
52984,1626538817887,,,252,254,237,231,,0.04,0.01,-2.84,0,-0,0,0.04,,65,2670,7,30,79,0.924,0.0,310,4.83,13.3,0.0,1,-0.3,2.96,3.7,0,0,0,1,0,,,,,,,,,,,,,,,,,,,,
53004,1626538817909,,,252,254,237,231,,0.0,0.01,-2.86,0,-1,0,0.01,,65,2617,7,30,79,0.926,0.0,310,4.82,13.3,0.0,1,-0.6,2.95,3.6,0,0,0,1,0,,,,,,,,,,,,,,,,,,,,
53024,1626538817929,,,252,254,237,231,,0.0,0.0,-2.85,0,2,0,0.01,,65,2583,7,30,79,0.928,0.0,302,4.8,13.2,0.0,1,-0.6,2.95,3.6,0,0,0,1,0,,,,,,,,,,,,,,,,,,,,
53044,1626538817949,1,1,252,254,237,231,5,0.04,0.0,-2.85,0,2,0,0.04,0,65,2584,7,30,80,0.929,0.0,298,4.86,13.3,0.0,1,-0.6,2.98,3.6,0,0,0,1,0,0,250,250,0,45.700306,4.909486,0.0,190.3,10,3,1.9,0,0.0,-1,0.0,0.0,0.0,0,0.0,0.8841
53064,1626538817969,,,252,254,237,231,,0.04,-0.0,-2.91,0,-0,0,0.04,,65,2569,7,30,80,0.928,0.0,302,4.84,13.3,0.0,1,-0.6,2.97,3.6,0,0,0,1,0,,,,,,,,,,,,,,,,,,,,
53084,1626538817989,,,252,254,237,231,,0.0,-0.0,-2.9,0,-0,0,0.0,,65,2487,7,30,80,0.926,0.0,293,4.86,13.1,0.0,1,-0.6,2.97,3.6,0,0,0,1,0,,,,,,,,,,,,,,,,,,,,
53104,1626538818003,,,252,254,237,231,,0.02,-0.01,-2.9,0,1,0,0.02,,65,2460,7,30,81,0.925,0.0,287,4.83,13.3,0.0,1,-0.6,2.99,3.4,0,0,0,1,0,,,,,,,,,,,,,,,,,,,,
53124,1626538818023,,,252,254,237,231,,0.02,0.0,-2.89,0,1,0,0.02,,65,2424,7,30,81,0.923,0.0,287,4.84,13.3,0.0,1,-0.6,2.99,3.4,0,0,0,1,0,,,,,,,,,,,,,,,,,,,,
53144,1626538818043,2,2,252,254,237,231,4,0.02,0.0,-2.92,0,1,0,0.02,0,65,2305,7,30,82,0.92,0.0,282,4.82,13.3,0.0,1,-0.6,3.01,3.4,0,0,0,1,0,0,250,250,0,45.700306,4.909486,0.0,190.3,10,3,1.9,0,0.0,-1,0.0,,0.0,0,0.0,0.8857
53164,1626538818063,,,252,254,237,231,,0.01,0.0,-2.9,0,0,0,0.02,,65,2228,7,30,83,0.917,0.0,267,4.84,13.3,0.0,1,-0.6,3.01,3.4,0,0,0,1,0,,,,,,,,,,,,,,,,,,,,
53184,1626538818083,,,252,254,237,231,,0.01,-0.0,-2.93,0,0,0,0.01,,65,2182,7,30,83,0.914,0.0,267,4.84,13.3,0.0,1,-0.6,3.04,3.4,0,0,0,1,0,,,,,,,,,,,,,,,,,,,,
53204,1626538818109,,,252,254,237,231,,0.01,0.0,-2.91,0,1,0,0.01,,65,2118,7,30,83,0.912,0.0,259,4.84,13.2,0.0,1,-0.8,3.04,3.0,0,0,0,1,0,,,,,,,,,,,,,,,,,,,,
53224,1626538818129,,,252,254,237,231,,0.01,-0.0,-2.91,0,0,0,0.01,,65,2047,7,30,85,0.909,0.0,249,4.84,13.3,0.0,1,-0.8,3.06,3.0,0,0,0,1,0,,,,,,,,,,,,,,,,,,,,
53244,1626538818149,3,1,252,254,237,231,5,0.02,-0.01,-2.9,0,0,0,0.02,0,65,1970,7,30,85,0.906,0.0,243,4.84,13.3,0.0,1,-0.8,3.08,3.0,0,0,0,1,0,0,250,250,0,45.700306,4.909486,0.0,190.3,10,3,1.9,0,0.0,-1,0.0,0.0,0.0,0,0.0,0.8874
53264,1626538818169,,,252,254,237,231,,0.01,-0.0,-2.9,0,0,0,0.01,,65,1845,7,30,85,0.903,0.0,234,4.84,13.0,0.0,1,-0.8,3.08,3.0,0,0,0,1,0,,,,,,,,,,,,,,,,,,,,
53284,1626538818189,,,252,254,237,231,,0.0,-0.0,-2.93,0,0,0,0.01,,65,1838,7,30,87,0.9,0.0,231,4.83,13.3,0.0,1,-0.8,3.1,3.0,0,0,0,1,0,,,,,,,,,,,,,,,,,,,,
53304,1626538818209,,,252,254,237,231,,0.0,-0.0,-2.91,0,0,0,0.0,,65,1800,7,30,87,0.898,0.0,225,4.85,13.3,0.0,1,-0.8,3.12,2.6,0,0,0,1,0,,,,,,,,,,,,,,,,,,,,
53324,1626538818229,,,252,254,237,231,,0.0,-0.01,-2.95,0,0,0,0.01,,65,1708,7,30,88,0.895,0.0,219,4.83,13.3,0.0,1,-0.8,3.14,2.6,0,0,0,1,0,,,,,,,,,,,,,,,,,,,,
53344,1626538818249,3,2,252,254,237,231,4,0.01,-0.01,-2.97,0,0,0,0.01,0,65,1607,7,30,89,0.893,0.0,211,4.85,13.3,0.0,1,-0.8,3.16,2.6,0,0,0,1,0,0,250,250,0,45.700306,4.909486,0.0,190.3,10,3,1.9,0,0.0,-1,0.0,,0.0,0,0.0,0.8891
53364,1626538818269,,,252,254,237,231,,0.01,-0.01,-2.96,0,0,0,0.01,,65,1500,7,30,89,0.89,0.0,205,4.85,13.3,0.0,1,-0.8,3.16,2.6,0,0,0,1,0,,,,,,,,,,,,,,,,,,,,
53384,1626538818289,,,252,254,237,231,,0.0,-0.01,-2.97,0,-0,0,0.01,,65,1439,7,30,90,0.889,0.0,200,4.83,13.3,0.0,1,-0.8,2.09,2.6,0,0,0,1,0,,,,,,,,,,,,,,,,,,,,
53404,1626538818308,,,252,254,237,231,,0.0,-0.01,-2.97,0,-0,0,0.01,,65,1411,7,30,91,0.888,0.0,194,4.83,13.3,0.0,1,-0.4,3.19,2.1,0,0,0,1,0,,,,,,,,,,,,,,,,,,,,
53424,1626538818328,,,252,254,237,231,,0.0,-0.01,-2.96,0,0,0,0.01,,65,1321,7,30,91,0.887,0.0,186,4.83,13.2,0.0,1,-0.4,3.19,2.1,0,0,0,1,0,,,,,,,,,,,,,,,,,,,,
53444,1626538818348,1,2,252,254,237,231,5,0.01,-0.01,-2.96,0,0,0,0.01,0,65,1199,7,30,91,0.885,0.0,180,4.86,12.9,0.0,1,-0.4,3.19,2.1,0,0,0,1,0,0,250,250,0,45.700306,4.909486,0.0,190.3,10,3,1.9,0,0.0,-1,0.0,0.0,0.0,0,0.0,0.8907
53464,1626538818368,,,252,254,237,231,,0.01,-0.01,-2.97,0,0,0,0.01,,65,1199,7,30,92,0.884,0.0,178,4.85,13.2,0.0,1,-0.4,3.19,2.1,0,0,0,1,0,,,,,,,,,,,,,,,,,,,,
53484,1626538818388,,,252,254,237,231,,0.01,-0.01,-2.97,0,0,0,0.01,,65,1082,7,30,93,0.883,0.0,172,4.85,13.2,0.0,1,-0.4,3.19,2.1,0,0,0,1,0,,,,,,,,,,,,,,,,,,,,
53504,1626538818408,,,252,254,237,231,,0.01,-0.01,-2.94,0,0,0,0.01,,65,1036,7,30,93,0.883,0.0,167,4.83,13.2,0.0,1,-0.4,2.09,1.5,0,0,0,1,0,,,,,,,,,,,,,,,,,,,,
53524,1626538818428,,,252,254,237,231,,0.01,-0.01,-2.95,0,0,0,0.01,,65,1036,7,30,93,0.883,0.0,170,4.84,13.2,0.0,1,-0.4,3.19,1.5,0,0,0,1,0,,,,,,,,,,,,,,,,,,,,
53544,1626538818448,2,3,252,254,237,231,4,0.01,-0.01,-2.97,0,0,0,0.01,0,65,1099,7,30,94,0.883,0.0,166,4.83,13.2,0.0,1,-0.4,3.19,1.5,0,0,0,1,0,0,250,250,0,45.700306,4.909486,0.0,190.3,10,3,1.9,0,0.0,-1,0.0,,0.0,0,0.0,0.8924
53564,1626538818468,,,252,254,237,231,,0.01,-0.0,-2.97,0,0,0,0.01,,65,1026,7,30,94,0.883,0.0,161,4.83,13.1,0.0,1,-0.4,3.19,1.5,0,0,0,1,0,,,,,,,,,,,,,,,,,,,,
53584,1626538818404,,,252,254,237,231,,0.01,-0.0,-2.97,0,0,0,0.01,,65,1026,7,30,94,0.884,0.0,162,4.84,13.2,0.0,1,-0.4,3.19,1.5,0,0,0,1,0,,,,,,,,,,,,,,,,,,,,
53604,1626538818504,,,252,253,237,231,,0.02,-0.0,-2.98,0,0,0,0.02,,65,977,7,30,94,0.883,0.0,161,4.84,13.2,0.0,1,0.9,3.19,1.4,0,0,0,1,0,,,,,,,,,,,,,,,,,,,,
53624,1626538818524,,,252,253,237,231,,0.02,-0.0,-2.98,0,0,0,0.02,,65,950,7,30,94,0.884,0.0,157,4.83,13.1,0.0,1,0.9,2.09,1.4,0,0,0,1,0,,,,,,,,,,,,,,,,,,,,
53644,1626538818544,2,1,252,253,237,231,5,0.02,0.0,-2.97,0,0,0,0.02,0,65,950,7,30,95,0.886,0.0,156,4.85,13.2,0.0,1,0.9,3.19,1.4,0,0,0,1,0,0,250,250,0,45.700306,4.909486,0.0,190.3,10,3,1.9,0,0.0,-1,0.0,0.0,0.0,0,0.0,0.8941
53664,1626538818564,,,252,253,237,231,,0.02,-0.0,-2.96,0,0,0,0.02,,65,835,7,30,95,0.887,0.0,152,4.83,13.1,0.0,1,0.9,2.09,1.4,0,0,0,1,0,,,,,,,,,,,,,,,,,,,,
53684,1626538818584,,,252,254,237,231,,0.02,-0.0,-2.96,0,0,0,0.02,,65,835,7,30,95,0.889,0.0,154,4.85,13.2,0.0,1,0.9,3.19,1.4,0,0,0,1,0,,,,,,,,,,,,,,,,,,,,
53704,1626538818608,,,252,254,237,231,,0.02,0.0,-2.96,0,0,0,0.02,,65,910,7,30,95,0.891,0.0,155,4.82,13.2,0.0,1,0.9,2.09,1.3,0,0,0,1,0,,,,,,,,,,,,,,,,,,,,
53724,1626538818628,,,252,254,237,231,,0.02,0.0,-2.97,0,0,0,0.02,,65,1018,7,30,95,0.894,0.0,153,4.83,13.1,0.0,1,0.9,2.09,1.3,0,0,0,1,0,,,,,,,,,,,,,,,,,,,,
53744,1626538818648,3,1,252,254,237,231,5,0.02,0.0,-2.98,0,0,0,0.02,0,65,1018,7,30,95,0.897,0.0,156,4.84,13.2,0.0,1,0.9,3.19,1.3,0,0,0,1,0,0,250,250,0,45.700306,4.909486,0.0,190.3,10,3,1.9,0,0.0,-1,0.0,,0.0,0,0.0,0.8957
53764,1626538818668,,,252,254,237,231,,0.02,-0.0,-2.97,0,0,0,0.02,,65,926,7,30,95,0.899,0.0,154,4.83,13.2,0.0,1,0.9,2.09,1.3,0,0,0,1,0,,,,,,,,,,,,,,,,,,,,
53784,1626538818688,,,252,254,237,231,,0.02,0.0,-2.96,0,0,0,0.02,,65,986,7,30,94,0.902,0.0,155,4.84,12.9,0.0,1,0.9,2.09,1.3,0,0,0,1,0,,,,,,,,,,,,,,,,,,,,
53804,1626538818708,,,252,254,237,231,,0.02,0.0,-2.95,0,0,0,0.02,,65,986,7,30,95,0.906,0.0,159,4.85,13.2,0.0,1,2.2,2.09,1.4,0,0,0,1,0,,,,,,,,,,,,,,,,,,,,
53824,1626538818728,,,252,254,237,231,,0.02,0.01,-2.95,0,-0,0,0.02,,65,973,7,30,95,0.91,0.0,155,4.85,13.1,0.0,1,2.2,3.19,1.4,0,0,0,1,0,,,,,,,,,,,,,,,,,,,,
53844,1626538818748,2,1,252,254,237,231,5,0.02,0.01,-2.96,0,-0,0,0.02,0,65,959,7,30,94,0.913,0.0,155,4.81,12.8,0.0,1,2.2,3.19,1.4,0,0,0,1,0,0,250,250,0,45.700306,4.909486,0.0,190.3,10,3,2.3,0,0.0,-1,0.0,0.0,0.0,0,0.0,0.8974
53864,1626538818768,,,252,254,237,231,,0.02,0.0,-2.97,0,-0,0,0.02,,65,959,7,30,95,0.918,0.0,162,4.85,13.2,0.0,1,2.2,3.19,1.4,0,0,0,1,0,,,,,,,,,,,,,,,,,,,,
53884,1626538818788,,,252,254,237,231,,0.02,0.01,-2.95,0,-0,0,0.02,,65,1155,7,30,95,0.921,0.0,164,4.85,13.2,0.0,1,2.2,3.19,1.4,0,0,0,1,0,,,,,,,,,,,,,,,,,,,,
53904,1626538818808,,,252,253,237,231,,0.02,0.01,-2.95,0,-0,0,0.02,,65,1108,7,30,95,0.925,0.0,162,4.84,13.2,0.0,1,2.2,3.19,1.6,0,0,0,1,0,,,,,,,,,,,,,,,,,,,,
53924,1626538818828,,,252,254,237,231,,0.02,0.0,-2.96,0,-0,0,0.02,,65,1065,7,30,94,0.928,0.0,164,4.79,12.9,0.0,1,2.2,3.19,1.6,0,0,0,1,0,,,,,,,,,,,,,,,,,,,,
53944,1626538818848,3,0,252,254,237,231,4,0.01,-0.0,-2.95,0,-0,0,0.01,0,65,1065,7,30,94,0.932,0.0,167,4.83,13.2,0.0,1,2.2,2.09,1.6,0,0,0,1,0,0,250,250,0,45.700306,4.909486,0.0,190.3,10,3,2.3,0,0.0,-1,0.0,,0.0,0,0.0,0.8991
53964,1626538818868,,,252,254,237,231,,0.01,-0.0,-2.96,0,-0,0,0.01,,65,1141,7,30,95,0.934,0.0,165,4.83,13.2,0.0,1,2.2,2.09,1.6,0,0,0,1,0,,,,,,,,,,,,,,,,,,,,
53984,1626538818888,,,252,254,237,231,,0.01,0.0,-2.97,0,0,0,0.01,,65,1072,7,30,95,0.937,0.0,166,4.83,13.2,0.0,1,2.2,3.19,1.6,0,0,0,1,0,,,,,,,,,,,,,,,,,,,,
54004,1626538818908,,,252,254,237,231,,0.02,0.01,-2.95,0,-0,0,0.02,,65,1212,7,30,94,0.94,0.0,169,4.81,13.0,0.0,1,3.0,3.19,1.5,0,0,0,1,0,,,,,,,,,,,,,,,,,,,,
54024,1626538818928,,,252,254,237,231,,0.01,0.01,-3.01,0,-0,0,0.02,,65,1305,7,30,94,0.942,0.0,175,4.83,13.0,0.0,1,3.0,2.09,1.5,0,0,0,1,0,,,,,,,,,,,,,,,,,,,,
54044,1626538818948,3,2,252,254,237,231,4,0.01,0.01,-2.99,0,-0,0,0.02,0,65,1305,7,30,94,0.943,0.0,173,4.83,13.2,0.0,1,3.0,3.19,1.5,0,0,0,1,0,0,250,250,0,45.700306,4.909486,0.0,190.3,10,3,2.3,0,0.0,-1,0.0,0.0,0.0,0,0.0,0.9007
54064,1626538818968,,,252,254,237,231,,0.02,0.01,-2.97,0,-0,0,0.02,,65,1251,7,30,94,0.943,0.0,178,4.83,13.2,0.0,1,3.0,3.19,1.5,0,0,0,1,0,,,,,,,,,,,,,,,,,,,,
54084,1626538818988,,,252,254,237,231,,0.02,0.0,-2.96,0,-0,0,0.02,,65,1285,7,30,94,0.942,0.0,175,4.84,13.2,0.0,1,3.0,2.09,1.5,0,0,0,1,0,,,,,,,,,,,,,,,,,,,,
54104,1626538819002,,,252,253,237,231,,0.02,0.01,-2.97,0,-0,0,0.02,,65,1182,7,30,94,0.941,0.0,175,4.84,13.2,0.0,1,3.0,3.19,1.9,0,0,0,1,0,,,,,,,,,,,,,,,,,,,,
54124,1626538819022,,,252,254,237,231,,0.02,0.0,-3.0,0,-0,0,0.02,,65,1173,7,31,94,0.938,0.0,172,4.83,12.9,0.0,1,3.0,3.19,1.9,0,0,0,1,0,,,,,,,,,,,,,,,,,,,,
54144,1626538819042,2,3,252,254,237,231,5,0.02,0.0,-2.99,0,-0,0,0.02,0,65,1253,7,30,94,0.935,0.0,173,4.84,13.3,0.0,1,3.0,3.19,1.9,0,0,0,1,0,0,250,250,0,45.700306,4.909486,0.0,190.3,10,3,2.3,0,0.0,-1,0.0,,0.0,0,0.0,0.9024
54164,1626538819062,,,252,254,237,231,,0.02,0.01,-2.99,0,-0,0,0.02,,65,1253,7,30,94,0.931,0.0,178,4.85,13.3,0.0,1,3.0,3.19,1.9,0,0,0,1,0,,,,,,,,,,,,,,,,,,,,
54184,1626538819082,,,252,254,237,231,,0.03,0.01,-2.99,0,0,1,0.03,,65,1345,7,30,94,0.928,0.0,181,4.85,13.3,0.0,1,3.0,2.09,1.9,0,0,0,1,0,,,,,,,,,,,,,,,,,,,,
54204,1626538819108,,,252,253,237,231,,0.03,0.01,-3.0,0,0,1,0.03,,65,1312,7,30,94,0.923,0.0,180,4.85,13.2,0.0,1,3.6,3.19,1.9,0,0,0,1,0,,,,,,,,,,,,,,,,,,,,
54224,1626538819128,,,252,254,237,231,,0.02,0.01,-2.97,0,0,0,0.03,,65,1237,7,30,94,0.917,0.0,178,4.83,13.2,0.0,1,3.6,3.19,1.9,0,0,0,1,0,,,,,,,,,,,,,,,,,,,,
54244,1626538819148,2,2,252,253,237,231,4,0.02,0.01,-2.97,0,0,1,0.03,0,65,1158,7,30,93,0.912,0.0,172,4.85,12.9,0.0,1,3.6,3.19,1.9,0,0,0,1,0,0,250,250,0,45.700306,4.909486,0.0,190.3,10,3,2.3,0,0.0,-1,0.0,0.0,0.0,0,0.0,0.9041
54264,1626538819168,,,252,254,237,231,,0.02,0.01,-2.97,0,0,1,0.03,,65,1158,7,30,94,0.907,0.0,170,4.85,13.2,0.0,1,3.6,3.19,1.9,0,0,0,1,0,,,,,,,,,,,,,,,,,,,,
54284,1626538819188,,,252,254,237,231,,0.03,0.02,-2.97,0,0,1,0.03,,65,1144,7,31,94,0.902,0.0,173,4.86,13.2,0.0,1,3.6,3.19,1.9,0,0,0,1,0,,,,,,,,,,,,,,,,,,,,
54304,1626538819208,,,252,254,237,231,,0.02,0.01,-2.99,0,0,1,0.03,,65,1267,7,31,94,0.897,0.0,178,4.85,13.3,0.0,1,3.6,3.19,1.8,0,0,0,1,0,,,,,,,,,,,,,,,,,,,,
54324,1626538819228,,,252,254,237,231,,0.02,0.01,-2.98,0,-0,1,0.02,,65,1340,7,31,94,0.892,0.0,181,4.84,13.3,0.0,1,3.6,3.19,1.8,0,0,0,1,0,,,,,,,,,,,,,,,,,,,,
54344,1626538819248,2,1,252,254,237,231,4,0.02,0.01,-2.98,0,0,1,0.02,0,65,1389,7,31,94,0.887,0.0,183,4.83,13.3,0.0,1,3.6,3.19,1.8,0,0,0,1,0,0,250,250,0,45.700306,4.909486,0.0,190.3,10,3,2.3,0,0.0,-1,0.0,,0.0,0,0.0,0.9057
54364,1626538819268,,,252,254,237,231,,0.02,0.01,-2.98,0,0,1,0.02,,65,1411,7,31,94,0.883,0.0,184,4.84,13.3,0.0,1,3.6,3.19,1.8,0,0,0,1,0,,,,,,,,,,,,,,,,,,,,
54384,1626538819288,,,252,254,237,231,,0.02,0.01,-2.95,0,0,0,0.02,,65,1306,7,31,93,0.88,0.0,182,4.83,13.2,0.0,1,3.6,2.09,1.8,0,0,0,1,0,,,,,,,,,,,,,,,,,,,,
54404,1626538819309,,,252,253,237,231,,0.02,0.01,-2.96,0,0,0,0.02,,65,1221,7,31,93,0.877,0.0,180,4.79,13.0,0.0,1,4.2,2.09,1.9,0,0,0,1,0,,,,,,,,,,,,,,,,,,,,
54424,1626538819329,,,252,254,237,231,,0.02,0.02,-2.96,0,1,1,0.03,,65,1221,7,31,94,0.874,0.0,178,4.83,13.2,0.0,1,4.2,3.19,1.9,0,0,0,1,0,,,,,,,,,,,,,,,,,,,,
54444,1626538819349,2,2,252,254,237,231,4,0.02,0.01,-2.97,0,1,1,0.03,0,65,1274,7,31,94,0.871,0.0,184,4.84,13.3,0.0,1,4.2,3.19,1.9,0,0,0,1,0,0,250,250,0,45.700306,4.909486,0.0,190.3,10,3,1.9,0,0.0,-1,0.0,0.0,0.0,0,0.0,0.9074
54464,1626538819369,,,252,254,237,231,,0.03,0.02,-2.97,0,0,1,0.03,,65,1452,7,31,94,0.868,0.0,189,4.83,13.3,0.0,1,4.2,2.09,1.9,0,0,0,1,0,,,,,,,,,,,,,,,,,,,,
54484,1626538819389,,,252,253,237,231,,0.03,0.01,-2.97,0,0,1,0.03,,65,1523,7,31,94,0.866,0.0,192,4.84,13.3,0.0,1,4.2,3.19,1.9,0,0,0,1,0,,,,,,,,,,,,,,,,,,,,
54504,1626538819409,,,252,253,237,231,,0.03,0.01,-2.97,0,0,0,0.03,,65,1510,7,31,94,0.864,0.0,192,4.84,13.3,0.0,1,4.2,3.19,2.2,0,0,0,1,0,,,,,,,,,,,,,,,,,,,,
54524,1626538819429,,,252,254,237,231,,0.03,0.01,-2.96,0,0,0,0.04,,65,1431,7,31,93,0.863,0.0,189,4.84,13.3,0.0,1,4.2,3.19,2.2,0,0,0,1,0,,,,,,,,,,,,,,,,,,,,
54544,1626538819449,1,2,252,254,237,231,5,0.03,0.0,-2.97,0,0,0,0.03,0,65,1309,7,31,94,0.862,0.0,186,4.84,13.2,0.0,1,4.2,3.19,2.2,0,0,0,1,0,0,250,250,0,45.700306,4.909486,0.0,190.3,10,3,2.3,0,0.0,-1,0.0,,0.0,0,0.0,0.9091
54564,1626538819469,,,252,254,237,231,,0.03,0.01,-2.94,0,0,0,0.03,,65,1258,7,31,94,0.862,0.0,184,4.85,13.2,0.0,1,4.2,3.19,2.2,0,0,0,1,0,,,,,,,,,,,,,,,,,,,,
54584,1626538819489,,,252,254,237,231,,0.02,0.01,-2.97,0,0,1,0.03,,65,1420,7,31,94,0.861,0.0,189,4.85,13.3,0.0,1,4.2,2.09,2.2,0,0,0,1,0,,,,,,,,,,,,,,,,,,,,
54604,1626538819505,,,252,254,237,231,,0.03,0.01,-2.95,0,0,0,0.03,,65,1622,7,31,94,0.861,0.0,196,4.85,13.3,0.0,1,4.5,3.19,2.0,0,0,0,1,0,,,,,,,,,,,,,,,,,,,,
54624,1626538819525,,,252,254,237,231,,0.03,0.01,-2.97,0,-0,0,0.03,,65,1632,7,31,94,0.862,0.0,201,4.83,13.3,0.0,1,4.5,3.19,2.0,0,0,0,1,0,,,,,,,,,,,,,,,,,,,,
54644,1626538819545,2,1,252,254,237,231,5,0.03,0.01,-2.98,0,-0,0,0.03,0,65,1582,7,31,94,0.862,0.0,203,4.85,13.3,0.0,1,4.5,3.19,2.0,0,0,0,1,0,0,250,250,0,45.700306,4.909486,0.0,190.3,10,3,1.9,0,0.0,-1,0.0,0.0,0.0,0,0.0,0.9107
54664,1626538819565,,,252,254,237,231,,0.02,0.0,-2.99,0,-0,0,0.02,,65,1482,7,31,93,0.862,0.0,197,4.83,13.3,0.0,1,4.5,3.19,2.0,0,0,0,1,0,,,,,,,,,,,,,,,,,,,,
54684,1626538819585,,,252,254,237,231,,0.02,0.01,-2.98,0,-0,0,0.02,,65,1399,7,31,93,0.863,0.0,192,4.85,13.3,0.0,1,4.5,2.09,2.0,0,0,0,1,0,,,,,,,,,,,,,,,,,,,,
54704,1626538819605,,,252,254,237,231,,0.02,0.01,-2.95,0,-1,0,0.02,,65,1463,7,31,93,0.864,0.0,195,4.85,13.3,0.0,1,4.5,3.19,2.0,0,0,0,1,0,,,,,,,,,,,,,,,,,,,,
54724,1626538819625,,,252,254,237,231,,0.03,0.0,-2.99,0,-0,0,0.03,,65,1677,7,31,93,0.865,0.0,207,4.84,13.3,0.0,1,4.5,3.19,2.0,0,0,0,1,0,,,,,,,,,,,,,,,,,,,,
54744,1626538819645,3,2,252,254,237,231,5,0.03,0.0,-2.99,0,-0,0,0.03,0,65,1758,7,31,93,0.867,0.0,213,4.84,13.3,0.0,1,4.5,3.19,2.0,0,0,0,1,0,0,250,250,0,45.700306,4.909486,0.0,190.3,10,3,1.9,0,0.0,-1,0.0,,0.0,0,0.0,0.9124
54764,1626538819665,,,252,254,237,231,,0.03,0.01,-3.0,0,-0,0,0.03,,65,1702,7,31,92,0.867,0.0,212,4.8,13.2,0.0,1,4.5,3.19,2.0,0,0,0,1,0,,,,,,,,,,,,,,,,,,,,
54784,1626538819685,,,252,254,237,231,,0.02,0.01,-3.01,0,-0,0,0.02,,65,1631,7,31,92,0.868,0.0,208,4.85,13.2,0.0,1,4.5,3.19,2.0,0,0,0,1,0,,,,,,,,,,,,,,,,,,,,
54804,1626538819705,,,252,254,237,231,,0.02,0.01,-2.97,0,-0,0,0.02,,65,1655,7,31,92,0.869,0.0,208,4.85,13.3,0.0,1,4.7,3.19,2.4,0,0,0,1,0,,,,,,,,,,,,,,,,,,,,
54824,1626538819725,,,252,254,237,231,,0.01,0.01,-2.98,0,-0,0,0.01,,65,1769,7,31,93,0.87,0.0,215,4.83,13.3,0.0,1,4.7,3.19,2.4,0,0,0,1,0,,,,,,,,,,,,,,,,,,,,
54844,1626538819745,2,3,252,254,237,231,5,0.02,0.0,-3.0,0,-0,0,0.02,0,65,1834,7,31,93,0.871,0.0,222,4.84,13.3,0.0,1,4.7,3.19,2.4,0,0,0,1,0,0,250,250,0,45.700306,4.909486,0.0,190.3,10,3,1.9,0,0.0,-1,0.0,0.0,0.0,0,0.0,0.9141
54864,1626538819765,,,252,253,237,231,,0.02,0.01,-3.0,0,-0,0,0.03,,65,1835,7,31,92,0.872,0.0,221,4.85,13.3,0.0,1,4.7,3.19,2.4,0,0,0,1,0,,,,,,,,,,,,,,,,,,,,
54884,1626538819785,,,252,253,237,231,,0.02,0.01,-3.02,0,0,1,0.02,,65,1714,7,31,91,0.874,0.0,217,4.81,13.2,0.0,1,4.7,3.19,2.4,0,0,0,1,0,,,,,,,,,,,,,,,,,,,,
54904,1626538819807,,,252,254,237,231,,0.02,0.01,-2.98,0,0,0,0.02,,65,1722,7,30,91,0.876,0.0,215,4.85,13.1,0.0,1,4.7,3.19,2.5,0,0,0,1,0,,,,,,,,,,,,,,,,,,,,
54924,1626538819827,,,252,254,237,231,,0.01,0.0,-3.02,0,0,1,0.01,,65,1852,7,31,92,0.878,0.0,224,4.83,13.3,0.0,1,4.7,3.19,2.5,0,0,0,1,0,,,,,,,,,,,,,,,,,,,,
54944,1626538819847,3,1,252,254,237,231,5,0.01,0.0,-3.03,0,0,0,0.01,0,65,1929,7,31,92,0.88,0.0,228,4.85,13.3,0.0,1,4.7,3.19,2.5,0,0,0,1,0,0,250,250,0,45.700306,4.909486,0.0,190.3,10,3,1.9,0,0.0,-1,0.0,,0.0,0,0.0,0.9157
54964,1626538819867,,,252,254,237,231,,0.02,0.01,-3.03,0,0,0,0.02,,65,1861,7,31,91,0.882,0.0,227,4.8,13.2,0.0,1,4.7,2.09,2.5,0,0,0,1,0,,,,,,,,,,,,,,,,,,,,
54984,1626538819887,,,252,254,237,231,,0.02,0.0,-3.01,0,0,0,0.02,,65,1804,7,31,91,0.885,0.0,224,4.84,13.2,0.0,1,4.7,3.19,2.5,0,0,0,1,0,,,,,,,,,,,,,,,,,,,,
55004,1626538819909,,,252,254,237,231,,0.01,0.01,-3.03,0,0,0,0.01,,65,1799,7,31,91,0.887,0.0,225,4.83,13.3,0.0,1,4.8,3.19,2.6,0,0,0,1,0,,,,,,,,,,,,,,,,,,,,
55024,1626538819929,,,252,254,237,231,,0.01,0.0,-3.02,0,0,0,0.01,,65,1893,7,31,92,0.89,0.0,227,4.83,13.3,0.0,1,4.8,3.19,2.6,0,0,0,1,0,,,,,,,,,,,,,,,,,,,,
55044,1626538819949,2,2,252,254,237,231,5,0.02,0.01,-3.01,0,0,0,0.03,0,65,1954,7,31,91,0.892,0.0,232,4.78,13.2,0.0,1,4.8,2.09,2.6,0,0,0,1,0,0,250,250,0,45.700306,4.909486,0.0,190.3,10,3,1.9,0,0.0,-1,0.0,0.0,0.0,0,0.0,0.9174
55064,1626538819969,,,252,254,237,231,,0.01,0.01,-2.99,0,0,0,0.02,,65,1906,7,31,91,0.896,0.0,232,4.83,13.3,0.0,1,4.8,3.19,2.6,0,0,0,1,0,,,,,,,,,,,,,,,,,,,,
55084,1626538819989,,,252,253,237,231,,0.01,0.01,-3.01,0,0,0,0.01,,65,1844,7,31,91,0.899,0.0,227,4.85,13.3,0.0,1,4.8,3.19,2.6,0,0,0,1,0,,,,,,,,,,,,,,,,,,,,
55104,1626538820001,,,252,254,237,231,,0.01,0.01,-3.04,0,0,0,0.02,,65,1833,7,31,91,0.901,0.0,227,4.86,13.3,0.0,1,4.8,3.19,2.7,0,0,0,1,0,,,,,,,,,,,,,,,,,,,,
55124,1626538820021,,,252,254,237,231,,0.02,0.01,-3.04,0,0,0,0.03,,65,2012,7,31,91,0.903,0.0,233,4.78,13.2,0.0,1,4.8,3.19,2.7,0,0,0,1,0,,,,,,,,,,,,,,,,,,,,
55144,1626538820041,2,2,252,254,237,231,5,0.02,0.01,-3.0,0,0,0,0.02,0,65,1988,7,31,91,0.905,0.0,235,4.83,13.3,0.0,1,4.8,3.19,2.7,0,0,0,1,0,0,250,250,0,45.700306,4.909486,0.0,190.3,10,3,1.9,0,0.0,-1,0.0,,0.0,0,0.0,0.9191
55164,1626538820061,,,252,254,237,231,,0.02,0.01,-3.01,0,0,0,0.03,,65,1945,7,31,91,0.907,0.0,236,4.83,13.3,0.0,1,4.8,3.19,2.7,0,0,0,1,0,,,,,,,,,,,,,,,,,,,,
55184,1626538820081,,,252,254,237,231,,0.03,0.02,-3.0,0,0,0,0.04,,65,1922,7,31,90,0.909,0.0,233,4.85,13.3,0.0,1,4.8,2.09,2.7,0,0,0,1,0,,,,,,,,,,,,,,,,,,,,
55204,1626538820109,,,252,254,237,231,,0.02,0.01,-2.95,0,0,0,0.02,,65,2033,7,31,90,0.911,0.0,235,4.85,13.3,0.0,1,4.8,3.19,2.8,0,0,0,1,0,,,,,,,,,,,,,,,,,,,,
55224,1626538820129,,,252,254,237,231,,0.02,0.01,-2.97,0,0,0,0.02,,65,2101,7,31,90,0.912,0.0,245,4.83,13.3,0.0,1,4.8,3.19,2.8,0,0,0,1,0,,,,,,,,,,,,,,,,,,,,
55244,1626538820149,2,2,252,254,237,231,5,0.02,0.02,-2.99,0,0,0,0.03,0,65,2149,7,31,90,0.913,0.0,253,4.85,13.2,0.0,1,4.8,3.19,2.8,0,0,0,1,0,0,250,250,0,45.700306,4.909486,0.0,190.3,10,3,1.9,0,0.0,-1,0.0,0.0,0.0,0,0.0,0.9207
55264,1626538820169,,,252,254,237,231,,0.02,0.01,-3.01,0,0,1,0.02,,65,2104,7,31,90,0.914,0.0,246,4.84,13.3,0.0,1,4.8,3.19,2.8,0,0,0,1,0,,,,,,,,,,,,,,,,,,,,
55284,1626538820189,,,252,254,237,231,,0.03,0.02,-3.0,0,0,0,0.03,,65,2089,7,31,89,0.914,0.0,247,4.85,13.3,0.0,1,4.8,3.16,2.8,0,0,0,1,0,,,,,,,,,,,,,,,,,,,,
55304,1626538820207,,,252,254,237,231,,0.02,0.02,-2.96,0,0,0,0.02,,65,2179,7,31,89,0.914,0.0,257,4.82,13.3,0.0,1,4.8,3.16,3.0,0,0,0,1,0,,,,,,,,,,,,,,,,,,,,
55324,1626538820227,,,252,254,237,231,,0.02,0.01,-2.95,0,0,0,0.02,,65,2291,7,31,89,0.913,0.0,260,4.83,13.3,0.0,1,4.8,2.06,3.0,0,0,0,1,0,,,,,,,,,,,,,,,,,,,,
55344,1626538820247,2,3,252,254,237,231,5,0.02,0.01,-2.96,0,1,0,0.02,0,65,2284,7,31,89,0.914,0.0,263,4.83,13.3,0.0,1,4.8,3.16,3.0,0,0,0,1,0,0,250,250,0,45.700306,4.909486,0.0,190.3,10,3,1.9,0,0.0,-1,0.0,,0.0,0,0.0,0.9224
55364,1626538820267,,,252,254,237,231,,0.02,0.01,-2.98,0,1,0,0.02,,65,2246,7,31,89,0.914,0.0,265,4.83,13.3,0.0,1,4.8,2.06,3.0,0,0,0,1,0,,,,,,,,,,,,,,,,,,,,
55384,1626538820287,,,252,254,237,231,,0.02,0.02,-3.0,0,1,0,0.03,,65,2301,7,31,89,0.913,0.0,267,4.82,13.3,0.0,1,4.8,3.16,3.0,0,0,0,1,0,,,,,,,,,,,,,,,,,,,,
55404,1626538820308,,,252,254,237,231,,0.01,0.01,-2.99,0,1,0,0.02,,65,2433,7,31,88,0.914,0.0,274,4.82,13.0,0.0,1,4.5,2.04,3.3,0,0,0,1,0,,,,,,,,,,,,,,,,,,,,
55424,1626538820328,,,252,254,237,231,,0.03,-0.0,-3.0,0,1,0,0.03,,65,2420,7,31,88,0.913,0.0,277,4.84,13.3,0.0,1,4.5,3.14,3.3,0,0,0,1,0,,,,,,,,,,,,,,,,,,,,
55444,1626538820348,1,2,252,254,237,231,5,0.03,-0.0,-2.96,0,1,0,0.03,0,65,2377,7,31,87,0.913,0.0,279,4.85,13.3,0.0,1,4.5,3.12,3.3,0,0,0,1,0,0,250,250,0,45.700306,4.909486,0.0,190.3,10,3,1.9,0,0.0,-1,0.0,0.0,0.0,0,0.0,0.9241
55464,1626538820368,,,252,254,237,231,,0.02,0.0,-2.96,0,1,0,0.02,,65,2490,7,31,87,0.912,0.0,281,4.83,13.3,0.0,1,4.5,2.02,3.3,0,0,0,1,0,,,,,,,,,,,,,,,,,,,,
55484,1626538820388,,,252,254,237,231,,0.04,-0.0,-2.98,0,1,0,0.04,,65,2523,7,31,87,0.911,0.0,288,4.86,13.3,0.0,1,4.5,3.12,3.3,0,0,0,1,0,,,,,,,,,,,,,,,,,,,,
55504,1626538820408,,,252,254,237,231,,0.02,0.01,-2.98,0,0,0,0.02,,65,2499,7,31,86,0.91,0.0,295,4.86,13.3,0.0,1,4.5,3.1,3.6,0,0,0,1,0,,,,,,,,,,,,,,,,,,,,
55524,1626538820428,,,252,254,237,231,,0.0,0.01,-3.02,0,1,0,0.01,,65,2563,7,31,86,0.909,0.0,290,4.81,13.3,0.0,1,4.5,3.11,3.6,0,0,0,1,0,,,,,,,,,,,,,,,,,,,,
55544,1626538820448,2,2,252,254,237,231,4,0.03,0.01,-2.95,0,1,0,0.03,0,65,2614,7,31,86,0.908,0.0,302,4.84,13.3,0.0,1,4.5,3.12,3.6,0,0,0,1,0,0,250,250,0,45.700306,4.909486,0.0,190.3,10,3,1.9,0,0.0,-1,0.0,,0.0,0,0.0,0.9257
55564,1626538820468,,,252,254,237,231,,0.04,-0.0,-3.02,0,-0,1,0.04,,65,2630,7,31,85,0.907,0.0,305,4.84,13.4,0.0,1,4.5,3.11,3.6,0,0,0,1,0,,,,,,,,,,,,,,,,,,,,
55584,1626538820488,,,252,254,237,231,,0.01,0.01,-2.96,0,-0,0,0.02,,65,2685,7,31,84,0.906,0.0,301,4.86,13.2,0.0,1,4.5,3.1,3.6,0,0,0,1,0,,,,,,,,,,,,,,,,,,,,
55604,1626538820508,,,252,254,237,231,,-0.01,0.02,-3.01,0,2,1,0.02,,65,2773,7,31,83,0.906,0.0,317,4.82,13.1,0.0,1,4.2,3.1,3.8,0,0,0,1,0,,,,,,,,,,,,,,,,,,,,
55624,1626538820528,,,252,254,237,231,,0.0,0.01,-3.0,0,3,0,0.01,,65,2828,7,31,83,0.905,0.0,320,4.8,13.2,0.0,1,4.2,2.0,3.8,0,0,0,1,0,,,,,,,,,,,,,,,,,,,,
55644,1626538820548,2,2,252,254,237,231,5,0.03,0.01,-2.91,0,1,0,0.03,0,65,2831,7,31,82,0.906,0.0,322,4.82,13.2,0.0,1,4.2,1.96,3.8,0,0,0,1,0,0,250,250,0,45.700306,4.909486,0.0,190.3,10,3,1.9,0,0.0,-1,0.0,0.0,0.0,0,0.0,0.9274
55664,1626538820568,,,252,254,237,231,,0.04,0.02,-2.84,0,-2,1,0.04,,65,2829,7,31,82,0.907,0.0,329,4.81,13.3,0.0,1,4.2,3.07,3.8,0,0,0,1,0,,,,,,,,,,,,,,,,,,,,
55684,1626538820588,,,252,254,237,231,,0.03,0.01,-2.91,0,-4,1,0.03,,65,2906,7,31,81,0.909,0.0,332,4.86,13.3,0.0,1,4.2,3.05,3.8,0,0,0,1,0,,,,,,,,,,,,,,,,,,,,
55704,1626538820608,,,252,254,237,231,,0.03,0.01,-3.0,0,-4,1,0.04,,65,2920,7,31,81,0.911,0.0,332,4.83,13.3,0.0,1,4.2,3.06,4.1,0,0,0,1,0,,,,,,,,,,,,,,,,,,,,
55724,1626538820628,,,252,254,237,231,,0.04,0.0,-3.07,0,-5,1,0.04,,65,2921,7,31,80,0.911,0.0,343,4.83,13.3,0.0,1,4.2,3.02,4.1,0,0,0,1,0,,,,,,,,,,,,,,,,,,,,
55744,1626538820648,2,2,252,254,237,231,5,0.04,0.01,-3.14,0,-5,1,0.04,0,65,2947,7,31,80,0.913,0.0,333,4.82,13.3,0.0,1,4.2,3.02,4.1,0,0,0,1,0,0,250,250,0,45.700306,4.909486,0.0,190.3,10,3,1.9,0,0.0,-1,0.0,,0.0,0,0.0,0.9291
55764,1626538820668,,,252,254,237,231,,0.04,0.0,-3.21,0,-5,1,0.04,,65,3007,7,31,80,0.917,0.0,350,4.82,13.3,0.0,1,4.2,3.04,4.1,0,0,0,1,0,,,,,,,,,,,,,,,,,,,,
55784,1626538820688,,,252,254,237,231,,0.04,0.01,-3.25,0,-5,1,0.04,,65,3010,7,31,79,0.92,0.0,342,4.83,13.3,0.0,1,4.2,1.89,4.1,0,0,0,1,0,,,,,,,,,,,,,,,,,,,,
55804,1626538820708,,,252,254,237,231,,0.05,0.01,-3.31,0,-6,1,0.05,,65,3046,7,31,79,0.924,0.0,351,4.86,13.3,0.0,1,0.0,3.01,4.2,0,0,0,1,0,,,,,,,,,,,,,,,,,,,,
55824,1626538820728,,,252,254,237,231,,0.05,0.02,-3.35,0,-6,1,0.06,,65,3098,7,31,79,0.928,0.0,357,4.85,13.3,0.0,1,21.0,3.01,4.2,0,0,0,1,0,,,,,,,,,,,,,,,,,,,,
55844,1626538820748,3,1,252,254,237,231,5,0.05,0.02,-3.37,0,-7,2,0.06,0,65,3073,7,31,78,0.934,0.0,352,4.81,13.3,0.0,1,0.0,3.0,4.2,0,0,0,1,0,0,250,250,0,45.700306,4.909486,0.0,190.3,10,3,1.9,0,0.0,-1,0.0,0.0,0.0,0,0.0,0.9307
55864,1626538820768,,,252,254,237,231,,0.06,0.03,-3.36,0,-8,2,0.06,,65,3073,7,31,78,0.94,0.0,357,4.83,13.3,0.0,1,0.0,2.96,4.2,0,0,0,1,0,,,,,,,,,,,,,,,,,,,,
55884,1626538820788,,,252,254,237,231,,0.06,0.03,-3.3,0,-9,2,0.07,,65,3063,7,31,78,0.946,0.0,356,4.88,13.3,0.0,1,0.0,2.96,4.2,0,0,0,1,0,,,,,,,,,,,,,,,,,,,,
55904,1626538820808,,,252,254,237,231,,0.07,0.04,-3.23,0,-9,2,0.08,,65,3066,7,31,78,0.952,0.0,352,4.84,13.3,0.0,1,0.0,2.96,4.2,0,0,0,1,0,,,,,,,,,,,,,,,,,,,,
55924,1626538820828,,,252,254,237,231,,0.07,0.06,-3.14,0,-10,2,0.09,,65,3049,7,31,78,0.959,0.0,361,4.84,13.3,0.0,1,0.0,2.97,4.2,0,0,0,1,0,,,,,,,,,,,,,,,,,,,,
55944,1626538820848,1,2,252,254,237,231,5,0.07,0.08,-3.09,0,-10,2,0.11,0,65,3027,7,31,77,0.965,0.0,346,4.77,13.3,0.0,1,0.0,2.97,4.2,0,0,0,1,0,0,250,250,0,45.700306,4.909486,0.0,190.3,10,3,1.9,0,0.0,-1,0.0,,0.0,0,0.0,0.9324
