"Interval"|"ms"|0|0|1,"Utc"|"ms"|0|0|1,"FB_p"|"bar"|0|300|50,"Volant"|"F"|0.0|300.0|50,"xFR"|"mm"|0.0|5.0|50,"xRR"|"mm"|0.0|5.0|50,"xFL"|"mm"|0.0|5.0|50,"xRL"|"mm"|0.0|5.0|50,"AccelX"|"G"|-3.0|3.0|50,"AccelY"|"G"|-3.0|3.0|50,"AccelZ"|"G"|-3.0|3.0|50,"Yaw"|"Deg/Sec"|-120|120|50,"Pitch"|"Deg/Sec"|-120|120|50,"Roll"|"Deg/Sec"|-120|120|50,"Gsum"|"G"|0.0|3.0|50,"RPM"|""|0|14000|50,"TPS"|"%"|0|100|50,"WaterTemp"|"?C"|0|300|50,"AirTemp"|"?C"|-1000|1000|50,"MAP"|"KPa"|0|255|50,"Lambda"|""|0|1024|50,"WheelSpeed"|"MPH"|0.0|150.0|50,"OilPress"|"PSI"|0|150|50,"FuelPress"|"PSI"|0|150|50,"OilTemp"|"F"|0|300|50,"Battery"|"Volts"|0.0|20.0|50,"FuelCon"|"L/h"|-1000|1000|50,"Gear"|""|0|10|50,"Advance"|"Deg"|-360|360|50,"Injection"|"ms"|-1000|1000|50,"FuelCon"|"L/100km"|-1000|1000|50,"LC_But_Pres"|""|-1000|1000|50,"LC_Active"|""|-1000|1000|50,"RD_Speed"|""|-1000|1000|50,"RUD_Speed"|""|-1000|1000|50,"LD_Speed"|""|-1000|1000|50,"LUD_Speed"|""|-1000|1000|50,"Latitude"|"Degrees"|-180.0|180.0|10,"Longitude"|"Degrees"|-180.0|180.0|10,"Speed"|"kph"|0.0|150.0|10,"Altitude"|"m"|0.0|4000.0|10,"LapCount"|""|0|0|10,"LapTime"|"Min"|0.0|0.0|10,"Sector"|""|0|0|10,"SectorTime"|"Min"|0.0|0.0|10,"ElapsedTime"|"Min"|0.0|0.0|10,"CurrentLap"|""|0|0|10,"Distance"|"km"|0.0|0.0|10,"SessionTime"|"Min"|0.0|0.0|10
346063,1560691617875,18,2.24,1.92,3.43,1.61,5.05,0.98,0.09,-0.04,-3,3,-7,0.98,5412,5,87,33,29,838,550.0,399,457,60,117.0,61,1,272,161,34,0,0,321,-32248,155,531,,,,,,,,,,,,
346083,1560691617895,18,2.24,1.91,3.43,1.6,5.04,0.95,0.06,0.04,-5,4,-9,0.95,5372,5,87,33,30,868,542.0,393,460,60,118.0,61,1,273,161,34,0,0,328,-3082,165,526,,,,,,,,,,,,
346103,1560691617915,16,2.25,1.91,3.43,1.59,5.05,1.01,0.12,0.02,-4,1,-10,1.01,5496,5,87,33,31,897,540.0,391,461,60,119.0,61,1,276,162,34,0,0,299,-8186,-1281,520,,,,,,,,,,,,
346123,1560691617935,16,2.27,1.9,3.45,1.59,5.06,1.08,0.15,-0.04,-7,2,-10,1.09,5495,5,87,33,31,912,535.0,402,457,60,118.0,61,1,276,162,34,0,0,277,6274,16896,516,,,,,,,,,,,,
346143,1560691617955,14,2.27,1.95,3.43,1.6,5.05,1.0,0.08,-0.06,-8,5,-11,1.0,5411,5,87,33,32,927,531.0,396,458,60,119.0,64,1,278,163,33,0,0,288,-22519,-1,507,45.700794,4.909638,56.34,195.9,3,1.675,0,0.0,0.0367,4,0.06,5.7691
346163,1560691617975,14,2.3,1.98,3.41,1.61,5.07,1.1,0.14,-0.06,-8,-0,-11,1.11,5274,5,87,34,33,946,526.0,396,460,60,118.0,64,1,278,167,33,0,0,324,-32248,80,499,,,,,,,,,,,,
346183,1560691617995,13,2.3,1.98,3.41,1.61,5.07,0.94,0.11,-0.04,-9,4,-12,0.95,5199,5,87,34,33,968,518.0,388,462,60,118.0,64,1,277,166,33,0,0,346,1341,32000,496,,,,,,,,,,,,
346203,1560691618009,13,2.33,1.97,3.41,1.59,5.07,1.05,0.11,0.03,-9,-1,-13,1.06,5275,5,87,34,34,972,510.0,391,453,60,119.0,64,1,282,173,33,0,0,296,-4054,95,489,,,,,,,,,,,,
346223,1560691618029,11,2.33,1.97,3.43,1.61,5.04,0.92,0.06,0.05,-11,2,-15,0.92,5381,5,87,34,35,977,507.0,392,468,60,118.0,64,1,288,174,33,0,0,262,-21872,100,487,,,,,,,,,,,,
346243,1560691618049,8,2.35,1.99,3.43,1.65,5.03,1.03,0.18,0.05,-9,-0,-14,1.05,5369,5,87,34,35,957,502.0,393,454,60,119.0,72,1,288,179,35,0,0,267,15661,250,479,45.700802,4.909647,52.97,195.9,3,1.675,0,0.0,0.0383,4,0.06,5.7707
346263,1560691618069,7,2.37,2.03,3.39,1.68,5.05,1.0,0.14,0.05,-12,-0,-14,1.01,5296,5,87,34,36,936,494.0,385,465,60,118.0,72,1,290,185,35,0,0,320,998,25600,476,,,,,,,,,,,,
346283,1560691618097,4,2.38,2.03,3.38,1.68,5.05,1.02,0.19,0.03,-9,-1,-14,1.04,5331,5,87,34,36,912,485.0,385,461,60,119.0,72,1,291,185,35,0,0,331,-6441,23040,472,,,,,,,,,,,,
346303,1560691618117,5,2.4,2.02,3.38,1.65,5.04,1.12,0.17,0.01,-11,-1,-16,1.13,5439,5,87,34,36,887,483.0,388,460,60,117.0,72,1,292,192,35,0,0,302,32033,1886,465,,,,,,,,,,,,
346323,1560691618137,2,2.41,2.0,3.4,1.64,5.04,0.97,0.1,-0.01,-10,0,-16,0.97,5517,5,87,34,37,853,477.0,394,460,60,118.0,72,1,297,187,35,0,0,288,2212,-30976,465,,,,,,,,,,,,
346343,1560691618157,2,2.41,2.0,3.4,1.66,5.04,1.03,0.16,0.04,-7,0,-14,1.04,5620,5,87,34,36,816,474.0,398,458,60,119.0,83,1,295,188,39,0,0,293,-9203,-32256,464,45.700817,4.909655,50.32,196.0,3,1.675,0,0.0,0.04,4,0.06,5.7724
346363,1560691618177,2,2.43,1.99,3.4,1.64,5.06,1.12,0.17,0.1,-6,-3,-13,1.14,5735,5,87,34,36,797,470.0,406,462,60,119.0,83,1,297,188,39,0,0,313,8488,120,460,,,,,,,,,,,,
346383,1560691618197,0,2.42,1.99,3.38,1.63,5.06,1.21,0.13,0.1,-7,-6,-12,1.22,5842,5,87,34,35,786,462.0,413,460,60,118.0,83,1,295,189,39,0,0,319,12552,29440,458,,,,,,,,,,,,
346403,1560691618217,-1,2.44,2.02,3.39,1.66,5.04,1.3,0.07,0.06,-8,-7,-11,1.3,5941,5,87,34,35,779,457.0,420,467,60,117.0,83,1,297,184,39,0,0,317,-9160,32000,456,,,,,,,,,,,,
346423,1560691618237,-0,2.46,2.03,3.39,1.69,5.04,1.37,0.05,0.05,-9,-8,-10,1.37,6042,5,87,34,34,774,452.0,429,457,60,118.0,83,1,295,179,39,0,0,316,-6387,-28416,452,,,,,,,,,,,,
346443,1560691618257,1,2.46,2.03,3.39,1.73,5.03,1.43,-0.05,0.11,-9,-10,-7,1.43,6171,5,87,34,33,775,450.0,437,457,60,118.0,90,1,292,174,41,0,0,323,2131,28553,450,45.700825,4.909663,47.78,196.0,3,1.675,0,0.0,0.0417,4,0.06,5.774
346463,1560691618277,4,2.46,2.02,3.38,1.72,5.05,1.49,-0.1,0.14,-8,-13,-5,1.5,6325,5,87,34,32,780,446.0,446,457,60,119.0,90,1,290,169,41,0,0,346,19477,3183,446,,,,,,,,,,,,
346483,1560691618297,4,2.47,2.0,3.37,1.7,5.07,1.43,-0.04,0.24,-5,-13,-2,1.43,6454,5,87,34,31,796,445.0,463,462,60,119.0,90,1,286,167,41,0,0,378,1779,-29978,445,,,,,,,,,,,,
346503,1560691618317,1,2.48,1.99,3.38,1.69,5.08,1.38,0.0,0.13,-2,-12,0,1.38,6597,5,87,34,30,816,442.0,478,463,60,118.0,90,1,282,166,41,0,0,379,3826,19125,442,,,,,,,,,,,,
346523,1560691618337,3,2.48,1.99,3.37,1.7,5.05,1.33,0.01,0.11,1,-10,1,1.33,6771,5,87,34,29,833,440.0,483,452,60,119.0,90,1,278,164,41,0,0,396,2524,-26615,440,,,,,,,,,,,,
346543,1560691618357,2,2.47,1.99,3.43,1.75,5.04,1.36,-0.1,0.18,4,-10,1,1.36,6923,6,87,34,29,846,439.0,488,466,60,118.0,95,1,277,164,42,0,0,390,11560,-26615,439,45.70084,4.90967,45.21,196.0,3,1.675,0,0.0,0.0433,4,0.06,5.7757
346563,1560691618377,-1,2.47,1.91,3.51,1.79,5.04,1.26,-0.16,0.11,8,-9,3,1.27,7070,6,87,34,28,856,437.0,507,461,60,119.0,95,1,272,163,42,0,0,377,2524,-8151,437,,,,,,,,,,,,
346583,1560691618397,0,2.47,1.82,3.56,1.86,5.04,1.28,-0.2,-0.04,9,-8,6,1.3,7175,7,87,34,27,864,433.0,510,460,60,119.0,95,1,269,161,42,0,0,385,11545,6512,433,,,,,,,,,,,,
346603,1560691618417,-1,2.46,1.8,3.57,1.93,5.08,1.29,-0.25,-0.15,10,-7,10,1.31,7335,8,87,34,26,866,432.0,516,465,60,117.0,95,1,266,160,42,0,0,381,6384,-26615,431,,,,,,,,,,,,
346623,1560691618437,-1,2.46,1.79,3.55,2.01,5.07,1.35,-0.34,-0.1,11,-4,14,1.39,7443,10,87,34,26,859,427.0,522,458,60,119.0,95,1,267,160,42,0,0,383,-1818,28696,427,,,,,,,,,,,,
346643,1560691618457,-1,2.45,1.8,3.53,2.08,5.07,1.4,-0.37,-0.0,13,-3,17,1.45,7527,14,87,34,26,853,423.0,528,462,60,119.0,105,1,268,160,45,0,0,381,-1562,-9211,423,45.700848,4.909677,42.89,196.1,3,1.675,0,0.0,0.045,4,0.06,5.7774
346663,1560691618477,1,2.44,1.83,3.52,2.13,5.05,1.31,-0.38,0.04,14,-1,18,1.37,7530,17,87,34,27,848,421.0,534,460,60,119.0,105,1,272,161,45,0,0,383,-31744,11560,421,,,,,,,,,,,,
346683,1560691618496,0,2.43,1.84,3.51,2.22,5.04,1.35,-0.39,0.06,15,-0,20,1.4,7563,19,87,34,28,845,417.0,538,461,60,118.0,105,1,275,163,45,0,0,385,-3866,9517,418,,,,,,,,,,,,
346703,1560691618516,-2,2.42,1.85,3.51,2.28,5.07,1.34,-0.37,0.09,15,-1,21,1.39,7524,20,87,34,29,846,415.0,535,458,60,119.0,105,1,279,164,45,0,0,384,-6475,9517,415,,,,,,,,,,,,
346723,1560691618536,-0,2.39,1.86,3.5,2.26,5.06,1.36,-0.38,0.15,15,-1,22,1.41,7503,20,87,34,31,850,413.0,535,461,60,119.0,105,1,286,167,45,0,0,383,-3866,10392,413,,,,,,,,,,,,
346743,1560691618556,-1,2.38,1.87,3.5,2.26,5.08,1.35,-0.37,0.24,14,-1,20,1.4,7449,20,87,34,32,856,410.0,541,461,60,118.0,114,1,290,169,47,0,0,385,-6475,11560,410,45.700859,4.909684,40.87,196.1,3,1.675,0,0.0,0.0467,4,0.06,5.779
346763,1560691618576,1,2.36,1.88,3.49,2.23,5.04,1.42,-0.38,0.32,12,-4,19,1.47,7416,20,87,34,33,862,408.0,537,461,60,118.0,114,1,292,174,47,0,0,388,-3866,-26615,408,,,,,,,,,,,,
346783,1560691618596,5,2.35,1.91,3.48,2.2,5.06,1.48,-0.41,0.37,12,-3,18,1.54,7350,21,87,34,34,867,406.0,530,457,60,119.0,114,1,295,179,47,0,0,387,240,-8151,406,,,,,,,,,,,,
346803,1560691618616,2,2.36,1.96,3.49,2.17,5.05,1.43,-0.43,0.51,12,1,18,1.5,7370,21,87,34,35,873,403.0,534,461,60,118.0,114,1,298,185,47,0,0,386,-6524,-8151,404,,,,,,,,,,,,
346823,1560691618636,3,2.34,2.02,3.48,2.17,5.07,1.35,-0.43,0.63,13,1,18,1.42,7315,22,87,34,36,884,403.0,533,458,60,117.0,114,1,301,190,47,0,0,386,-6524,-8151,404,,,,,,,,,,,,
346843,1560691618656,3,2.34,2.07,3.48,2.17,5.07,1.25,-0.49,0.6,13,2,18,1.35,7307,23,87,34,37,894,401.0,525,455,60,118.0,128,1,304,196,52,0,0,389,-6524,-32702,401,45.700867,4.909691,39.8,196.1,3,1.675,0,0.0,0.0483,4,0.06,5.7807
346863,1560691618676,3,2.33,2.07,3.43,2.17,5.05,1.05,-0.46,0.48,13,3,20,1.15,7332,24,87,34,38,900,401.0,525,458,60,118.0,128,1,307,202,52,0,0,387,240,-32702,401,,,,,,,,,,,,
346883,1560691618696,-0,2.33,2.08,3.39,2.16,5.05,0.98,-0.4,0.37,12,2,19,1.06,7329,24,87,34,39,908,400.0,515,457,60,118.0,128,1,310,208,52,0,0,387,-31744,6384,400,,,,,,,,,,,,
346903,1560691618716,1,2.33,2.08,3.39,2.16,5.06,0.97,-0.41,0.33,11,1,17,1.05,7384,24,87,34,40,925,397.0,527,460,60,119.0,128,1,317,209,52,0,0,387,240,-6656,397,,,,,,,,,,,,
346923,1560691618736,0,2.34,2.07,3.36,2.14,5.05,0.97,-0.37,0.27,10,0,16,1.03,7390,25,87,34,41,943,397.0,526,458,60,119.0,128,1,325,211,52,0,0,387,-3866,-8151,397,,,,,,,,,,,,
346943,1560691618756,2,2.33,2.07,3.35,2.12,5.06,1.06,-0.29,0.24,10,-2,16,1.1,7446,25,87,34,41,955,397.0,525,457,60,119.0,148,1,325,211,59,0,0,386,240,-6656,397,45.700874,4.909699,38.7,196.1,3,1.675,0,0.0,0.05,4,0.07,5.7824
346963,1560691618776,-0,2.32,2.07,3.36,2.12,5.04,1.12,-0.27,0.29,8,-1,16,1.15,7458,25,87,34,42,967,396.0,520,457,60,119.0,148,1,332,213,59,0,0,382,240,6512,396,,,,,,,,,,,,
346983,1560691618796,-0,2.32,2.07,3.35,2.12,5.03,1.14,-0.2,0.35,8,-1,14,1.16,7488,25,87,34,42,989,396.0,530,458,60,119.0,148,1,332,213,59,0,0,387,240,17144,396,,,,,,,,,,,,
347003,1560691618816,-1,2.3,2.09,3.36,2.11,5.04,1.16,-0.18,0.34,7,-2,12,1.17,7503,25,87,34,43,1012,397.0,534,458,60,118.0,148,1,340,216,59,0,0,387,-3866,6384,397,,,,,,,,,,,,
347023,1560691618836,0,2.28,2.08,3.35,2.09,5.07,1.23,-0.13,0.32,6,-4,12,1.24,7539,25,87,34,43,1023,394.0,533,457,60,119.0,148,1,340,216,59,0,0,386,240,-32702,394,,,,,,,,,,,,
347043,1560691618856,2,2.25,2.11,3.35,2.07,5.07,1.24,-0.08,0.32,4,-3,12,1.24,7594,25,87,34,43,1034,392.0,534,459,60,119.0,155,1,340,216,61,0,0,386,-31744,505,392,45.700882,4.909707,37.89,196.1,3,1.675,0,0.0,0.0517,4,0.07,5.784
347063,1560691618876,2,2.21,2.17,3.31,2.06,5.08,1.18,0.0,0.29,3,-2,10,1.18,7618,25,87,34,43,1046,391.0,542,458,60,119.0,155,1,340,216,61,0,0,390,-6524,505,391,,,,,,,,,,,,
347083,1560691618896,2,2.2,2.23,3.24,2.03,5.07,1.16,0.11,0.24,2,-3,9,1.17,7681,26,87,34,43,1057,392.0,544,457,60,119.0,155,1,340,216,61,0,0,388,1,240,388,,,,,,,,,,,,
347103,1560691618916,3,2.18,2.28,3.21,2.02,5.04,1.12,0.11,0.2,1,-3,8,1.13,7760,26,87,34,43,1060,392.0,545,458,60,118.0,155,1,340,216,61,0,0,393,1,-3866,386,,,,,,,,,,,,
347123,1560691618936,3,2.17,2.32,3.18,2.01,5.06,1.05,0.12,0.27,-1,-0,7,1.05,7812,26,87,34,43,1060,394.0,546,457,60,118.0,155,1,340,216,61,0,0,396,-1818,-6524,384,,,,,,,,,,,,
347143,1560691618956,-2,2.16,2.38,3.12,2.02,5.07,0.98,0.12,0.41,-2,2,4,0.99,7725,26,87,34,43,1067,396.0,556,456,60,119.0,164,1,340,217,63,0,0,403,-32702,-6656,383,45.70089,4.909714,37.92,196.1,3,1.675,0,0.0,0.0533,4,0.07,5.7857
347163,1560691618976,-0,2.14,2.4,3.08,2.03,5.08,1.0,0.18,0.5,-4,-1,2,1.02,7637,26,87,34,43,1074,399.0,546,461,60,118.0,164,1,340,217,63,0,0,407,28696,28696,383,,,,,,,,,,,,
347183,1560691618996,0,2.12,2.42,2.99,2.03,5.03,1.08,0.23,0.57,-5,-1,1,1.1,7440,26,87,34,44,1081,402.0,534,458,60,119.0,164,1,347,217,63,0,0,402,10541,1504,385,,,,,,,,,,,,
347203,1560691619010,4,2.1,2.46,2.93,2.02,5.08,1.07,0.24,0.71,-6,-0,-2,1.1,7278,26,87,34,44,1088,404.0,528,461,60,118.0,164,1,347,217,63,0,0,408,1504,10541,387,,,,,,,,,,,,
347223,1560691619030,4,2.1,2.47,2.93,2.01,5.05,1.04,0.24,0.74,-7,-1,-5,1.07,7186,26,87,34,45,1091,406.0,519,459,60,118.0,164,1,355,219,63,0,0,406,2524,505,387,,,,,,,,,,,,
347243,1560691619050,2,2.09,2.47,2.95,1.99,5.04,1.04,0.28,0.66,-8,-1,-6,1.08,7178,26,87,34,46,1093,407.0,517,459,60,118.0,153,1,362,219,59,0,0,406,-26615,-6524,385,45.700901,4.909722,37.96,196.2,3,1.675,0,0.0,0.055,4,0.07,5.7874
347263,1560691619070,1,2.1,2.46,3.02,1.97,5.04,1.04,0.35,0.58,-9,-2,-7,1.09,7242,26,87,34,46,1090,409.0,521,457,60,119.0,153,1,362,221,59,0,0,406,10392,-19019,383,,,,,,,,,,,,
347283,1560691619096,0,2.1,2.46,3.06,1.95,5.06,1.06,0.39,0.65,-11,-2,-9,1.13,7244,26,87,34,47,1086,409.0,514,456,60,119.0,153,1,370,223,59,0,0,409,11560,-19126,382,,,,,,,,,,,,
347303,1560691619116,-1,2.09,2.45,3.11,1.93,5.07,1.05,0.44,0.73,-12,-1,-12,1.14,7321,26,87,34,47,1079,412.0,525,465,60,117.0,153,1,370,223,59,0,0,409,13040,-992,382,,,,,,,,,,,,
347323,1560691619136,1,2.09,2.48,3.1,1.94,5.06,1.0,0.4,0.71,-13,0,-15,1.08,7387,27,87,34,47,1071,412.0,535,460,60,117.0,153,1,370,223,59,0,0,408,13040,19125,382,,,,,,,,,,,,
347343,1560691619156,1,2.09,2.49,3.07,1.93,5.07,1.06,0.38,0.79,-14,0,-16,1.13,7464,27,87,34,47,1066,412.0,533,459,60,118.0,162,1,370,223,62,0,0,407,13040,-19019,382,45.700905,4.90973,38.09,196.2,3,1.675,0,0.0,0.0567,4,0.07,5.7891
347363,1560691619176,1,2.09,2.49,3.05,1.91,5.05,1.11,0.39,0.86,-15,1,-17,1.18,7524,27,87,34,47,1063,412.0,542,458,60,119.0,162,1,370,223,62,0,0,408,13040,-19126,381,,,,,,,,,,,,
347383,1560691619196,-0,2.1,2.48,3.04,1.9,5.08,1.15,0.47,0.92,-15,1,-20,1.24,7628,27,87,34,47,1065,411.0,541,456,60,118.0,162,1,370,223,62,0,0,410,-4059,-3866,379,,,,,,,,,,,,
347403,1560691619216,1,2.09,2.49,3.06,1.9,5.06,1.12,0.54,0.87,-16,1,-21,1.25,7684,27,87,34,46,1070,411.0,550,457,60,119.0,162,1,362,221,62,0,0,406,-4059,19125,380,,,,,,,,,,,,
347423,1560691619236,-0,2.1,2.48,3.05,1.9,5.05,1.09,0.59,0.82,-17,0,-20,1.24,7744,27,87,34,46,1076,410.0,550,457,60,119.0,162,1,362,221,62,0,0,408,9517,-6656,381,,,,,,,,,,,,
347443,1560691619256,1,2.1,2.5,3.01,1.92,5.05,0.98,0.65,0.8,-17,-0,-21,1.18,7665,27,87,34,46,1084,411.0,542,460,60,119.0,167,1,362,221,64,0,0,412,-4059,-32702,383,45.700916,4.909737,38.02,196.3,3,1.675,0,0.0,0.0583,4,0.07,5.7907
347463,1560691619276,0,2.11,2.5,3.0,1.9,5.06,0.99,0.61,0.77,-17,-2,-23,1.17,7575,27,87,34,46,1092,409.0,542,457,60,119.0,167,1,362,221,64,0,0,412,11560,1504,386,,,,,,,,,,,,
347483,1560691619296,3,2.11,2.5,3.0,1.92,5.04,0.96,0.57,0.59,-17,-2,-22,1.12,7482,27,87,34,46,1099,412.0,533,459,60,118.0,167,1,362,221,64,0,0,409,-9166,1504,385,,,,,,,,,,,,
347503,1560691619316,2,2.14,2.49,3.02,1.92,5.08,0.9,0.62,0.51,-17,-1,-22,1.09,7464,27,87,34,47,1104,410.0,534,457,60,118.0,167,1,370,223,64,0,0,411,-9166,6384,387,,,,,,,,,,,,
347523,1560691619336,1,2.15,2.47,3.04,1.95,5.05,0.86,0.71,0.45,-17,-1,-22,1.11,7431,27,87,34,47,1104,412.0,528,460,60,118.0,167,1,370,223,64,0,0,412,13040,-32702,387,,,,,,,,,,,,
347543,1560691619356,2,2.17,2.44,3.08,1.94,5.03,0.9,0.73,0.4,-17,-2,-22,1.16,7476,27,87,34,47,1101,411.0,534,460,60,119.0,162,1,370,223,63,0,0,412,-4059,-1562,388,45.700924,4.909743,37.91,196.3,3,1.675,0,0.0,0.06,4,0.07,5.7924
347563,1560691619376,2,2.19,2.42,3.12,1.94,5.08,0.91,0.74,0.32,-17,-2,-21,1.17,7506,27,87,34,47,1096,410.0,538,459,60,118.0,162,1,370,223,63,0,0,411,9517,-1818,390,,,,,,,,,,,,
347583,1560691619396,2,2.21,2.4,3.11,1.94,5.07,0.91,0.73,0.28,-16,-3,-20,1.17,7572,28,87,34,47,1090,409.0,545,461,60,118.0,162,1,370,223,63,0,0,408,11560,-6656,392,,,,,,,,,,,,
347603,1560691619416,3,2.22,2.39,3.11,1.94,5.05,0.88,0.72,0.26,-16,-4,-19,1.14,7548,28,87,34,47,1084,409.0,537,457,60,118.0,162,1,370,223,63,0,0,410,10392,6384,394,,,,,,,,,,,,
347623,1560691619436,3,2.24,2.36,3.12,1.96,5.03,0.86,0.68,0.25,-14,-4,-18,1.1,7566,28,87,34,47,1079,409.0,543,459,60,118.0,162,1,370,223,63,0,0,411,-26615,28696,395,,,,,,,,,,,,
347643,1560691619456,4,2.27,2.34,3.13,1.98,5.07,0.87,0.63,0.24,-13,-4,-16,1.07,7566,28,87,34,47,1074,406.0,536,460,60,118.0,164,1,370,223,65,0,0,406,2524,6512,398,45.700932,4.909749,38.97,196.3,3,1.675,0,0.0,0.0617,4,0.07,5.7941
347663,1560691619476,3,2.28,2.33,3.15,2.03,5.08,0.84,0.54,0.26,-12,-4,-15,1.0,7628,28,87,34,47,1070,405.0,539,460,60,118.0,164,1,370,223,65,0,0,406,-9211,28696,401,,,,,,,,,,,,
347683,1560691619496,3,2.29,2.32,3.18,2.05,5.07,0.8,0.44,0.35,-11,-3,-15,0.91,7625,28,87,34,47,1071,405.0,532,454,60,118.0,164,1,370,223,65,0,0,405,-9211,11560,401,,,,,,,,,,,,
347703,1560691619516,5,2.29,2.32,3.2,2.07,5.05,0.73,0.35,0.37,-9,-3,-15,0.81,7609,28,87,34,47,1073,405.0,535,458,60,118.0,164,1,370,223,65,0,0,405,-9211,-4059,403,,,,,,,,,,,,
347723,1560691619536,1,2.3,2.32,3.19,2.09,5.07,0.7,0.23,0.44,-8,-2,-12,0.74,7653,28,87,34,47,1078,406.0,542,460,60,118.0,164,1,370,223,65,0,0,406,-9211,-26615,406,,,,,,,,,,,,
347743,1560691619556,-1,2.33,2.31,3.2,2.1,5.06,0.69,0.23,0.5,-6,-1,-9,0.72,7631,28,87,34,47,1083,405.0,543,460,60,119.0,157,1,370,223,64,0,0,407,1504,18584,405,45.700943,4.909753,39.25,196.3,3,1.675,0,0.0,0.0633,4,0.07,5.7957
347763,1560691619576,-1,2.34,2.31,3.22,2.13,5.04,0.68,0.22,0.61,-5,-0,-9,0.72,7665,28,87,34,47,1087,407.0,543,458,60,119.0,157,1,370,223,64,0,0,405,1504,13040,407,,,,,,,,,,,,
347783,1560691619595,-1,2.35,2.29,3.26,2.15,5.04,0.72,0.17,0.65,-4,-0,-8,0.74,7637,28,87,34,47,1090,410.0,540,458,60,119.0,157,1,370,223,64,0,0,406,1504,-9166,408,,,,,,,,,,,,
347803,1560691619615,1,2.37,2.27,3.27,2.15,5.05,0.78,0.14,0.63,-3,-2,-6,0.8,7687,28,87,34,46,1088,411.0,541,456,60,119.0,157,1,362,223,64,0,0,411,1504,2524,412,,,,,,,,,,,,
347823,1560691619635,3,2.38,2.26,3.29,2.18,5.06,0.83,0.12,0.58,-2,-2,-4,0.84,7659,28,87,34,47,1087,414.0,541,461,60,118.0,157,1,370,223,64,0,0,411,1504,13040,414,,,,,,,,,,,,
347843,1560691619655,3,2.4,2.25,3.32,2.2,5.05,0.86,0.07,0.6,-1,-4,-3,0.86,7697,28,87,34,47,1081,415.0,542,460,60,118.0,157,1,370,223,65,0,0,405,-8151,18584,415,45.700951,4.909758,39.3,196.3,3,1.675,0,0.0,0.065,4,0.08,5.7974
347863,1560691619675,2,2.43,2.23,3.32,2.22,5.06,0.81,-0.06,0.6,1,-4,-2,0.81,7716,28,87,34,47,1076,417.0,544,460,60,117.0,157,1,370,223,65,0,0,409,10541,7154,417,,,,,,,,,,,,
347883,1560691619695,2,2.43,2.22,3.33,2.25,5.04,0.74,-0.1,0.59,2,-4,-0,0.75,7731,28,87,34,47,1074,419.0,558,463,60,117.0,157,1,370,223,65,0,0,410,11545,-21792,419,,,,,,,,,,,,
347903,1560691619715,-1,2.46,2.19,3.37,2.26,5.06,0.75,-0.18,0.66,3,-3,2,0.77,7780,28,87,34,47,1071,421.0,544,459,60,117.0,157,1,370,223,65,0,0,409,28696,7154,420,,,,,,,,,,,,
347923,1560691619735,2,2.45,2.18,3.42,2.29,5.05,0.82,-0.29,0.67,4,-1,4,0.87,7789,28,87,34,46,1074,423.0,553,457,60,119.0,157,1,362,221,65,0,0,415,11545,-3414,423,,,,,,,,,,,,
347943,1560691619755,3,2.49,2.18,3.42,2.32,5.05,0.86,-0.31,0.64,5,-3,6,0.91,7841,28,87,34,47,1076,423.0,548,462,60,118.0,153,1,370,221,65,0,0,414,6384,-3856,423,45.700962,4.909763,39.8,196.3,3,1.675,0,0.0,0.0667,4,0.08,5.799
347963,1560691619775,5,2.49,2.17,3.42,2.32,5.04,0.8,-0.38,0.63,7,-3,8,0.89,7822,28,87,34,46,1077,424.0,541,457,60,118.0,153,1,362,221,65,0,0,414,11545,13552,424,,,,,,,,,,,,
347983,1560691619795,0,2.5,2.16,3.45,2.31,5.05,0.71,-0.45,0.63,9,-1,9,0.84,7825,28,87,34,46,1079,427.0,554,458,60,118.0,153,1,362,221,65,0,0,414,6512,3826,427,,,,,,,,,,,,
348003,1560691619815,0,2.52,2.15,3.47,2.34,5.08,0.75,-0.57,0.7,10,-3,11,0.94,7878,28,87,34,46,1077,429.0,542,458,60,119.0,153,1,362,223,65,0,0,420,6512,3635,429,,,,,,,,,,,,
348023,1560691619835,2,2.53,2.15,3.47,2.36,5.04,0.85,-0.61,0.69,11,-4,13,1.05,7881,28,87,34,46,1074,431.0,540,456,60,118.0,153,1,362,221,65,0,0,413,-3968,31796,431,,,,,,,,,,,,
348043,1560691619855,5,2.55,2.14,3.49,2.36,5.06,0.83,-0.66,0.67,13,-4,14,1.06,7921,28,87,34,46,1071,430.0,553,457,60,119.0,153,1,362,221,66,0,0,414,6384,-3314,431,45.70097,4.909769,39.81,196.3,3,1.675,0,0.0,0.0683,4,0.08,5.8007
348063,1560691619875,-2,2.56,2.12,3.52,2.37,5.05,0.79,-0.71,0.64,15,-5,16,1.06,7904,29,87,34,46,1067,433.0,550,457,60,118.0,153,1,362,221,66,0,0,417,28696,3635,433,,,,,,,,,,,,
348083,1560691619895,1,2.56,2.1,3.56,2.37,5.05,0.87,-0.78,0.65,16,-5,19,1.17,7884,29,87,34,46,1064,433.0,552,458,60,119.0,153,1,362,221,66,0,0,425,28696,1779,433,,,,,,,,,,,,
348103,1560691619915,4,2.55,2.1,3.56,2.39,5.05,0.92,-0.86,0.61,17,-4,22,1.26,7948,29,87,34,46,1062,434.0,559,458,60,118.0,153,1,362,221,66,0,0,425,6384,-3322,435,,,,,,,,,,,,
348123,1560691619935,0,2.56,2.1,3.55,2.38,5.04,0.9,-0.9,0.68,18,-5,23,1.27,8019,29,87,34,46,1060,435.0,556,461,60,118.0,153,1,362,221,66,0,0,412,-3968,5600,435,,,,,,,,,,,,
348143,1560691619955,1,2.57,2.1,3.57,2.38,5.08,0.88,-0.93,0.7,19,-5,24,1.28,8023,29,87,34,46,1059,435.0,571,466,60,118.0,154,1,362,221,67,0,0,413,-3968,1779,435,45.700981,4.909775,39.68,196.3,3,1.675,0,0.0,0.07,4,0.08,5.8024
348163,1560691619975,4,2.55,2.1,3.57,2.38,5.04,0.92,-0.97,0.67,20,-5,26,1.34,8047,30,87,34,46,1059,435.0,566,461,60,118.0,154,1,362,221,67,0,0,423,-3968,-7939,437,,,,,,,,,,,,
348183,1560691619991,0,2.55,2.09,3.59,2.39,5.04,0.9,-1.0,0.74,22,-6,25,1.34,8064,30,87,34,46,1060,438.0,562,462,60,117.0,154,1,362,221,67,0,0,432,-32702,-7939,438,,,,,,,,,,,,
348203,1560691620011,3,2.56,2.08,3.58,2.4,5.04,0.85,-0.93,0.73,23,-6,26,1.26,8047,31,87,34,46,1061,439.0,566,458,60,119.0,154,1,362,221,67,0,0,440,-32702,21580,438,,,,,,,,,,,,
348223,1560691620031,-1,2.56,2.07,3.57,2.38,5.07,0.83,-0.92,0.67,24,-6,28,1.24,8130,32,87,34,47,1062,439.0,562,459,60,118.0,154,1,370,222,67,0,0,424,6384,5600,439,,,,,,,,,,,,
348243,1560691620051,2,2.55,2.06,3.57,2.4,5.07,0.8,-0.98,0.7,25,-6,28,1.27,8159,32,87,34,47,1063,439.0,560,458,60,119.0,154,1,370,224,68,0,0,423,6384,-28332,439,45.700989,4.909782,39.77,196.2,3,1.675,0,0.0,0.0717,4,0.08,5.804
348263,1560691620071,3,2.56,2.09,3.55,2.44,5.05,0.77,-0.98,0.58,25,-5,29,1.25,8141,33,87,34,47,1063,439.0,558,455,60,118.0,154,1,370,222,68,0,0,429,6512,26704,440,,,,,,,,,,,,
348283,1560691620097,2,2.55,2.12,3.56,2.44,5.04,0.72,-1.01,0.58,25,-4,30,1.24,8134,35,87,34,48,1061,439.0,564,459,60,118.0,154,1,372,230,68,0,0,448,6384,20625,439,,,,,,,,,,,,
348303,1560691620117,2,2.54,2.09,3.56,2.43,5.06,0.71,-0.98,0.59,26,-4,31,1.21,8187,37,87,34,49,1056,438.0,565,456,60,119.0,154,1,375,237,68,0,0,434,11545,5600,439,,,,,,,,,,,,
348323,1560691620137,0,2.53,2.06,3.57,2.43,5.08,0.75,-0.97,0.67,26,-3,31,1.23,8191,39,87,34,50,1051,442.0,566,459,60,117.0,154,1,378,244,68,0,0,431,11545,-28332,442,,,,,,,,,,,,
348343,1560691620157,3,2.51,2.06,3.56,2.43,5.04,0.67,-0.95,0.61,26,-4,31,1.16,8191,40,87,34,51,1046,441.0,575,459,60,118.0,170,1,381,250,75,0,0,448,-8151,19477,441,45.700996,4.90979,40.08,196.3,3,1.675,0,0.0,0.0733,4,0.08,5.8057
348363,1560691620177,1,2.48,2.08,3.54,2.41,5.07,0.75,-1.0,0.6,26,-5,32,1.25,8256,43,87,34,53,1045,442.0,571,456,60,118.0,170,1,387,266,75,0,0,442,10541,-28332,442,,,,,,,,,,,,
348383,1560691620197,3,2.46,2.1,3.49,2.42,5.06,0.71,-0.98,0.58,25,-3,33,1.21,8296,45,87,34,54,1046,441.0,569,455,60,118.0,170,1,390,273,75,0,0,425,1504,26704,441,,,,,,,,,,,,
348403,1560691620217,1,2.43,2.12,3.51,2.41,5.04,0.78,-0.97,0.63,25,-4,33,1.25,8289,47,87,34,57,1049,439.0,567,458,60,118.0,170,1,414,293,75,0,0,439,10392,20625,439,,,,,,,,,,,,
348423,1560691620237,2,2.4,2.17,3.5,2.4,5.04,0.71,-0.89,0.55,24,-3,34,1.14,8238,49,87,34,58,1055,440.0,571,463,60,119.0,170,1,423,299,75,0,0,468,-4059,-18341,440,,,,,,,,,,,,
348443,1560691620257,0,2.39,2.19,3.43,2.39,5.04,0.71,-0.81,0.6,23,-3,33,1.08,8289,51,87,34,60,1068,442.0,574,458,60,118.0,218,1,439,316,96,0,0,430,-26615,-18341,442,45.701004,4.9098,40.24,196.2,3,1.675,0,0.0,0.075,4,0.08,5.8074
348463,1560691620277,4,2.37,2.21,3.42,2.37,5.03,0.68,-0.74,0.56,22,-5,31,1.0,8322,52,87,34,61,1090,442.0,568,459,60,119.0,218,1,448,333,96,0,0,433,-3414,2131,441,,,,,,,,,,,,
348483,1560691620297,1,2.35,2.25,3.37,2.35,5.04,0.68,-0.67,0.58,20,-3,29,0.95,8270,52,87,34,63,1110,438.0,561,463,60,118.0,218,1,446,336,96,0,0,437,3826,23400,438,,,,,,,,,,,,
348503,1560691620317,4,2.34,2.26,3.34,2.33,5.04,0.64,-0.64,0.56,19,-2,28,0.91,8241,53,87,34,63,1125,439.0,559,456,60,118.0,218,1,447,335,96,0,0,445,31796,26704,439,,,,,,,,,,,,
348523,1560691620337,1,2.34,2.28,3.32,2.31,5.05,0.72,-0.59,0.67,18,-3,26,0.94,8281,53,87,34,64,1146,438.0,560,460,60,118.0,218,1,445,344,96,0,0,445,1779,21432,438,,,,,,,,,,,,
348543,1560691620357,-0,2.34,2.3,3.31,2.3,5.05,0.73,-0.61,0.69,16,-3,25,0.95,8344,53,87,34,63,1181,442.0,556,453,60,118.0,248,1,446,347,109,0,0,443,-3322,-3267,442,45.701012,4.90981,40.78,196.2,3,1.675,0,0.0,0.0767,4,0.08,5.8091
348563,1560691620377,2,2.34,2.32,3.29,2.28,5.08,0.67,-0.56,0.67,15,-2,23,0.87,8393,53,87,34,64,1214,442.0,557,457,60,118.0,248,1,443,350,109,0,0,446,-768,16648,442,,,,,,,,,,,,
348583,1560691620397,-1,2.33,2.34,3.27,2.28,5.05,0.69,-0.49,0.69,14,-1,20,0.84,8419,54,87,34,64,1233,445.0,556,455,60,118.0,248,1,442,344,109,0,0,452,21580,8488,445,,,,,,,,,,,,
348603,1560691620417,4,2.33,2.34,3.27,2.28,5.08,0.6,-0.43,0.7,13,-2,19,0.74,8393,54,87,34,64,1255,444.0,574,468,60,119.0,248,1,443,350,109,0,0,447,20625,-6387,444,,,,,,,,,,,,
348623,1560691620437,3,2.33,2.32,3.27,2.28,5.08,0.65,-0.4,0.77,13,-1,19,0.76,8442,54,87,34,63,1287,449.0,571,455,60,118.0,248,1,444,345,109,0,0,461,23400,-3267,449,,,,,,,,,,,,
348643,1560691620457,-1,2.34,2.33,3.25,2.28,5.04,0.68,-0.43,0.79,12,-0,17,0.81,8465,54,87,34,64,1319,449.0,573,446,60,118.0,247,1,442,346,111,0,0,455,21432,15649,449,45.701019,4.909821,41.14,196.2,3,1.675,0,0.0,0.0783,4,0.08,5.8107
348663,1560691620477,2,2.34,2.32,3.25,2.29,5.06,0.56,-0.29,0.74,11,-0,16,0.63,8499,54,87,34,63,1331,451.0,582,455,60,119.0,247,1,443,354,111,0,0,456,2131,2211,451,,,,,,,,,,,,
348683,1560691620497,3,2.34,2.32,3.26,2.27,5.08,0.57,-0.3,0.75,11,1,15,0.64,8546,54,87,34,64,1343,453.0,572,451,60,118.0,247,1,438,348,111,0,0,459,2131,2211,453,,,,,,,,,,,,
348703,1560691620517,1,2.34,2.32,3.26,2.27,5.05,0.58,-0.27,0.74,10,0,13,0.64,8565,55,87,34,62,1356,455.0,571,456,60,118.0,247,1,435,344,111,0,0,459,8488,17628,455,,,,,,,,,,,,
348723,1560691620537,0,2.35,2.31,3.27,2.28,5.04,0.48,-0.25,0.65,11,1,12,0.54,8640,55,87,34,63,1369,456.0,581,465,60,119.0,247,1,431,357,111,0,0,462,3571,16408,456,,,,,,,,,,,,
348743,1560691620557,5,2.36,2.3,3.28,2.3,5.04,0.48,-0.17,0.67,10,0,12,0.51,8716,55,87,34,63,1371,460.0,581,465,60,118.0,250,1,425,352,115,0,0,463,3571,-18108,460,45.701027,4.909832,42.12,196.2,3,1.675,0,0.0,0.08,4,0.09,5.8124
348763,1560691620577,4,2.37,2.31,3.27,2.3,5.08,0.51,-0.2,0.8,10,1,12,0.55,8741,56,87,34,63,1372,461.0,584,457,60,118.0,250,1,422,352,115,0,0,470,-3267,6193,461,,,,,,,,,,,,
348783,1560691620596,3,2.38,2.3,3.28,2.3,5.08,0.55,-0.29,0.84,10,-0,12,0.62,8794,56,87,34,64,1378,463.0,588,448,60,118.0,250,1,418,353,115,0,0,469,2524,243,463,,,,,,,,,,,,
348803,1560691620616,3,2.38,2.3,3.3,2.3,5.06,0.69,-0.43,0.89,9,-2,12,0.82,8798,56,87,34,63,1384,465.0,590,458,60,118.0,250,1,418,353,115,0,0,472,-26615,32033,467,,,,,,,,,,,,
348823,1560691620636,4,2.38,2.29,3.29,2.31,5.05,0.71,-0.48,0.88,10,-2,11,0.86,8882,57,87,34,63,1389,469.0,593,455,60,118.0,250,1,412,355,115,0,0,473,-9160,-9203,469,,,,,,,,,,,,
348843,1560691620656,1,2.4,2.27,3.31,2.3,5.05,0.74,-0.49,0.78,10,-3,12,0.89,8932,57,87,34,63,1395,472.0,606,462,60,118.0,256,1,406,360,121,0,0,479,-23623,-23367,472,45.701035,4.909844,42.97,196.1,3,1.675,0,0.0,0.0817,4,0.09,5.8141
348863,1560691620676,2,2.39,2.27,3.34,2.35,5.03,0.71,-0.47,0.76,10,-3,13,0.85,8979,57,87,34,63,1395,473.0,610,456,60,118.0,256,1,403,356,121,0,0,484,17628,10305,477,,,,,,,,,,,,
348883,1560691620696,1,2.41,2.27,3.35,2.34,5.05,0.73,-0.48,0.71,9,-4,14,0.88,9097,57,87,34,63,1395,478.0,612,460,60,118.0,256,1,403,357,121,0,0,487,2211,32033,478,,,,,,,,,,,,
348903,1560691620716,4,2.41,2.27,3.35,2.35,5.06,0.75,-0.5,0.73,10,-4,13,0.91,9195,57,87,34,63,1391,482.0,602,457,60,117.0,256,1,405,357,121,0,0,485,16408,1,482,,,,,,,,,,,,
348923,1560691620736,2,2.42,2.27,3.35,2.37,5.06,0.88,-0.65,0.8,10,-3,13,1.09,9241,57,87,34,63,1386,484.0,610,453,60,117.0,256,1,406,357,121,0,0,489,30272,248,483,,,,,,,,,,,,
348943,1560691620756,1,2.42,2.28,3.34,2.4,5.04,0.92,-0.78,0.91,11,-4,14,1.21,9323,57,87,34,63,1371,487.0,610,457,60,118.0,258,1,409,357,125,0,0,497,243,-6528,487,45.701042,4.909856,44.0,196.1,3,1.675,0,0.0,0.0833,4,0.09,5.8157
348963,1560691620776,3,2.42,2.29,3.31,2.41,5.04,0.68,-0.7,0.93,12,-2,14,0.98,9407,57,87,34,63,1353,490.0,611,458,60,118.0,258,1,411,357,125,0,0,497,8488,2524,490,,,,,,,,,,,,
348983,1560691620796,3,2.42,2.27,3.35,2.41,5.03,0.64,-0.61,0.86,12,-4,14,0.89,9450,57,87,34,63,1338,491.0,616,454,60,118.0,258,1,412,357,125,0,0,513,3576,-32248,491,,,,,,,,,,,,
349003,1560691620816,-1,2.43,2.27,3.35,2.41,5.06,0.78,-0.71,0.9,12,-3,15,1.06,9503,57,87,34,63,1325,496.0,611,461,60,117.0,258,1,414,357,125,0,0,530,-17956,-14,497,,,,,,,,,,,,
349023,1560691620836,3,2.41,2.27,3.32,2.41,5.07,0.7,-0.66,0.93,13,-2,16,0.96,9595,58,87,34,62,1298,500.0,615,457,60,118.0,258,1,414,358,125,0,0,503,-23367,16383,501,,,,,,,,,,,,
349043,1560691620856,1,2.42,2.32,3.32,2.42,5.06,0.81,-0.79,0.99,13,-5,16,1.13,9610,58,87,34,62,1267,504.0,616,461,60,117.0,261,1,413,361,131,0,0,512,-899,-14,504,45.70105,4.90987,45.2,196.1,3,1.675,0,0.0,0.085,4,0.09,5.8174
349063,1560691620876,3,2.41,2.33,3.33,2.43,5.04,0.9,-0.9,0.95,13,-3,16,1.28,9664,58,87,34,62,1242,506.0,617,458,60,118.0,261,1,413,357,131,0,0,516,3580,17136,506,,,,,,,,,,,,
349083,1560691620896,5,2.41,2.32,3.33,2.44,5.04,0.82,-0.94,0.94,14,-5,18,1.24,9715,58,87,34,61,1224,513.0,615,461,60,118.0,261,1,412,360,131,0,0,533,-1562,10408,513,,,,,,,,,,,,
349103,1560691620916,2,2.41,2.31,3.34,2.44,5.04,0.77,-0.87,0.93,14,-2,17,1.16,9801,58,87,34,61,1200,513.0,618,458,60,118.0,261,1,411,365,131,0,0,534,-6528,2524,513,,,,,,,,,,,,
349123,1560691620936,5,2.4,2.31,3.35,2.44,5.05,0.81,-0.89,0.94,14,-3,18,1.2,9884,58,87,34,60,1171,520.0,613,460,60,118.0,261,1,409,370,131,0,0,523,-6528,-32248,520,,,,,,,,,,,,
349143,1560691620956,2,2.41,2.32,3.33,2.43,5.06,0.64,-0.91,0.98,14,-5,18,1.11,9936,58,87,34,61,1151,522.0,622,457,60,118.0,262,1,410,373,136,0,0,525,-9216,-28648,522,45.701057,4.909883,46.47,196.1,3,1.675,0,0.0,0.0867,4,0.09,5.819
349163,1560691620976,2,2.41,2.32,3.34,2.45,5.05,0.68,-0.85,1.0,14,-4,16,1.09,10016,58,87,34,60,1141,523.0,634,460,60,118.0,262,1,408,368,136,0,0,532,11560,-506,523,,,,,,,,,,,,
349183,1560691620996,19,2.4,2.32,3.34,2.45,5.06,0.66,-0.92,0.92,15,-5,18,1.13,10080,58,87,34,61,1126,528.0,625,456,60,117.0,262,1,415,377,136,0,0,544,-32248,-30064,528,,,,,,,,,,,,
349203,1560691621010,4,2.39,2.31,3.34,2.45,5.04,0.5,-0.97,0.92,15,-6,19,1.09,10107,58,87,34,60,1106,531.0,621,460,60,118.0,262,1,414,370,136,0,0,542,-4054,-2336,531,,,,,,,,,,,,
349223,1560691621030,4,2.38,2.31,3.33,2.46,5.07,0.51,-0.87,0.97,14,-3,19,1.01,10206,58,87,33,61,1090,534.0,622,461,60,117.0,262,1,425,380,136,0,0,542,17136,14504,533,,,,,,,,,,,,
349243,1560691621050,5,2.38,2.32,3.3,2.46,5.05,0.61,-0.81,0.94,15,-5,19,1.01,10184,58,87,33,60,1081,536.0,637,453,60,118.0,275,1,420,371,147,0,0,541,-3482,-8186,538,45.701061,4.909898,48.23,196.1,3,1.675,0,0.0,0.0883,4,0.09,5.8207
349263,1560691621070,0,2.39,2.31,3.32,2.45,5.06,0.51,-0.75,0.84,15,-5,19,0.91,10206,58,87,33,60,1068,539.0,638,458,60,117.0,275,1,424,380,147,0,0,550,1341,14504,538,,,,,,,,,,,,
349283,1560691621096,0,2.38,2.31,3.33,2.44,5.08,0.47,-0.75,0.83,15,-3,18,0.89,10302,58,87,33,61,1051,543.0,632,456,60,118.0,275,1,433,382,147,0,0,559,-22519,-9072,543,,,,,,,,,,,,
349303,1560691621116,1,2.37,2.31,3.31,2.45,5.07,0.44,-0.77,0.84,15,-1,17,0.89,10336,58,87,33,61,1035,545.0,627,459,60,118.0,275,1,441,382,147,0,0,553,-32248,2524,545,,,,,,,,,,,,
349323,1560691621136,4,2.37,2.31,3.32,2.44,5.06,0.49,-0.74,0.92,14,-4,17,0.89,10451,58,87,33,61,1027,550.0,636,457,60,118.0,275,1,445,385,147,0,0,557,-22519,-22359,547,,,,,,,,,,,,
349343,1560691621156,2,2.37,2.31,3.34,2.46,5.05,0.38,-0.75,1.02,14,-3,17,0.84,10463,58,87,33,61,1019,550.0,638,460,60,118.0,279,1,446,385,153,0,0,566,14504,-30159,553,45.701069,4.909913,49.66,196.1,3,1.675,0,0.0,0.09,4,0.09,5.8224
349363,1560691621176,2,2.38,2.32,3.32,2.45,5.08,0.41,-0.74,1.03,13,-3,15,0.84,10575,58,87,33,61,1012,555.0,636,458,60,118.0,279,1,450,387,153,0,0,560,-28648,-2934,555,,,,,,,,,,,,
349383,1560691621194,2,2.37,2.32,3.31,2.44,5.07,0.38,-0.69,1.11,13,-3,15,0.79,10587,58,87,33,62,1006,555.0,626,460,60,118.0,279,1,450,396,153,0,0,569,-8186,774,555,,,,,,,,,,,,
349403,1560691621214,1,2.37,2.33,3.29,2.46,5.05,0.33,-0.7,1.14,13,-4,15,0.78,10683,58,87,33,62,1008,560.0,630,455,60,117.0,279,1,450,397,153,0,0,573,-2336,-2934,559,,,,,,,,,,,,
349423,1560691621234,4,2.36,2.32,3.29,2.45,5.05,0.27,-0.63,1.04,12,-2,16,0.68,10702,58,87,33,62,1008,562.0,630,458,60,117.0,279,1,450,397,153,0,0,572,-22519,-3190,562,,,,,,,,,,,,
349443,1560691621254,3,2.36,2.31,3.31,2.43,5.07,0.34,-0.58,1.04,12,-3,17,0.67,10708,58,87,33,62,1003,565.0,635,456,60,118.0,283,1,450,398,160,0,0,575,6274,10432,565,45.701076,4.909929,51.38,196.2,3,1.675,0,0.0,0.0917,4,0.09,5.824
349463,1560691621274,3,2.36,2.31,3.3,2.43,5.04,0.43,-0.63,0.98,11,-1,17,0.76,10806,58,87,33,62,999,568.0,637,461,60,118.0,283,1,450,400,160,0,0,579,2524,243,570,,,,,,,,,,,,
349483,1560691621296,0,2.36,2.31,3.31,2.41,5.06,0.44,-0.56,0.96,12,-1,16,0.71,10831,58,87,33,62,993,570.0,639,456,60,118.0,283,1,450,400,160,0,0,585,-22263,243,570,,,,,,,,,,,,
349503,1560691621316,3,2.36,2.31,3.3,2.42,5.07,0.41,-0.52,0.96,12,-4,15,0.66,10952,58,87,33,61,986,573.0,637,456,60,117.0,283,1,450,403,160,0,0,577,6273,-1894,573,,,,,,,,,,,,
349523,1560691621336,4,2.35,2.32,3.3,2.42,5.05,0.4,-0.47,0.84,11,-1,16,0.62,10958,58,87,33,61,974,577.0,637,461,60,118.0,283,1,450,395,160,0,0,581,-18032,-32504,579,,,,,,,,,,,,
349543,1560691621356,2,2.36,2.31,3.29,2.42,5.04,0.45,-0.57,0.95,11,-2,16,0.73,11009,59,87,33,61,962,581.0,642,457,60,118.0,284,1,450,396,164,0,0,599,1780,3472,581,45.70108,4.909946,52.8,196.2,3,1.675,0,0.0,0.0933,4,0.1,5.8257
349563,1560691621376,-2,2.35,2.31,3.28,2.41,5.07,0.45,-0.47,0.95,11,-2,15,0.65,11088,59,87,33,61,957,582.0,637,453,60,118.0,284,1,449,397,164,0,0,595,1780,30227,584,,,,,,,,,,,,
349583,1560691621396,1,2.35,2.31,3.29,2.42,5.04,0.46,-0.42,0.78,10,-1,15,0.62,10794,59,87,33,61,953,583.0,646,461,60,120.0,284,1,450,391,164,0,0,597,-29984,-16179,583,,,,,,,,,,,,
349603,1560691621416,0,2.35,2.31,3.29,2.41,5.06,0.47,-0.38,0.61,10,-2,16,0.6,10353,59,87,33,64,947,587.0,641,455,60,119.0,284,1,434,402,164,0,0,584,1760,-1894,588,,,,,,,,,,,,
349623,1560691621436,-2,2.37,2.28,3.33,2.38,5.06,0.46,-0.41,0.57,11,-1,16,0.61,10140,59,87,33,66,942,588.0,641,457,60,119.0,284,1,414,422,164,0,0,568,774,-28648,588,,,,,,,,,,,,
349643,1560691621456,-0,2.36,2.22,3.37,2.34,5.06,0.45,-0.41,0.56,11,1,17,0.61,9978,61,87,33,67,941,589.0,632,461,60,119.0,272,1,398,423,160,0,0,575,774,15649,589,45.701088,4.909964,54.5,196.2,3,1.675,0,0.0,0.095,4,0.1,5.8274
349663,1560691621476,-1,2.36,2.19,3.41,2.33,5.06,0.58,-0.41,0.6,10,-1,15,0.71,9720,63,87,33,69,941,591.0,642,457,60,119.0,272,1,407,411,160,0,0,575,1267,10432,589,,,,,,,,,,,,
349683,1560691621496,0,2.37,2.2,3.44,2.34,5.07,0.45,-0.28,0.55,12,1,19,0.53,9455,65,87,33,70,984,589.0,641,456,60,118.0,272,1,415,684,160,0,0,588,-3190,19621,589,,,,,,,,,,,,
349703,1560691621516,5,2.37,2.23,3.39,2.4,5.04,0.3,-0.2,0.6,13,4,18,0.36,8712,66,87,33,72,1025,593.0,611,460,60,118.0,272,1,423,649,160,0,0,679,1760,506,595,,,,,,,,,,,,
349723,1560691621536,2,2.37,2.29,3.32,2.44,5.05,0.36,-0.32,0.67,13,2,17,0.48,8333,66,87,33,74,1068,600.0,573,446,60,117.0,272,1,433,594,160,0,0,662,30208,3395,600,,,,,,,,,,,,
349743,1560691621556,0,2.38,2.29,3.28,2.46,5.07,0.46,-0.35,0.66,13,1,17,0.58,8476,67,87,33,74,1111,601.0,566,452,60,117.0,308,1,429,541,186,0,0,600,8488,16529,603,45.701096,4.909983,55.89,196.2,3,1.675,0,0.0,0.0967,4,0.1,5.8291
349763,1560691621576,5,2.37,2.29,3.27,2.47,5.04,0.42,-0.36,0.7,13,3,18,0.55,8468,67,87,33,74,1192,606.0,572,456,60,117.0,308,1,429,466,186,0,0,610,-1894,17336,605,,,,,,,,,,,,
349783,1560691621595,1,2.38,2.28,3.29,2.47,5.04,0.47,-0.48,0.78,13,1,18,0.67,8400,67,87,33,75,1281,603.0,557,453,60,117.0,308,1,430,433,186,0,0,623,208,-2836,603,,,,,,,,,,,,
349803,1560691621615,5,2.38,2.28,3.32,2.46,5.05,0.45,-0.48,0.74,13,2,19,0.66,8363,67,87,33,75,1338,613.0,560,455,60,118.0,308,1,431,443,186,0,0,625,3472,-16883,612,,,,,,,,,,,,
349823,1560691621635,1,2.38,2.29,3.33,2.46,5.07,0.44,-0.54,0.74,13,2,18,0.7,8337,67,87,33,76,1385,616.0,562,449,60,117.0,308,1,430,452,186,0,0,624,3472,20993,615,,,,,,,,,,,,
349843,1560691621655,1,2.38,2.28,3.35,2.46,5.08,0.5,-0.56,0.78,12,-1,17,0.75,8507,67,87,33,75,1390,618.0,567,454,60,118.0,226,1,427,446,140,0,0,627,30227,506,618,45.701103,4.910002,56.78,196.2,3,1.675,0,0.0,0.0983,4,0.1,5.8307
349863,1560691621675,3,2.38,2.28,3.37,2.44,5.05,0.43,-0.53,0.75,13,-0,18,0.68,8632,67,87,33,74,1380,621.0,576,465,60,118.0,226,1,424,446,140,0,0,630,243,-5120,621,,,,,,,,,,,,
349883,1560691621695,3,2.38,2.28,3.38,2.44,5.08,0.47,-0.53,0.79,13,0,17,0.7,8600,68,87,33,74,1344,622.0,583,448,60,117.0,226,1,426,436,140,0,0,638,5344,-10251,623,,,,,,,,,,,,
349903,1560691621715,4,2.37,2.28,3.36,2.44,5.04,0.56,-0.54,0.81,13,-0,17,0.78,8676,68,87,33,74,1287,626.0,581,452,60,117.0,226,1,423,427,140,0,0,631,17740,16599,626,,,,,,,,,,,,
349923,1560691621735,2,2.38,2.27,3.38,2.43,5.07,0.58,-0.57,0.82,13,-1,17,0.82,8737,68,87,33,74,1240,627.0,587,452,60,118.0,226,1,420,436,140,0,0,639,-30139,4909,631,,,,,,,,,,,,
349943,1560691621755,-0,2.38,2.26,3.37,2.43,5.05,0.54,-0.55,0.76,13,1,17,0.77,8790,68,87,33,73,1195,632.0,587,471,60,119.0,229,1,420,427,145,0,0,649,-28304,4909,632,45.701103,4.910022,58.63,196.2,3,1.675,0,0.0,0.1,4,0.1,5.8324
349963,1560691621775,2,2.38,2.26,3.35,2.43,5.04,0.46,-0.47,0.67,14,1,18,0.66,8802,68,87,33,73,1179,637.0,596,451,60,118.0,229,1,420,427,145,0,0,644,3403,2024,637,,,,,,,,,,,,
349983,1560691621795,3,2.37,2.27,3.35,2.44,5.04,0.38,-0.44,0.66,14,2,17,0.58,8811,68,86,33,73,1191,637.0,586,465,60,118.0,229,1,420,427,145,0,0,655,30721,-3488,637,,,,,,,,,,,,
350003,1560691621815,6,2.38,2.26,3.36,2.43,5.04,0.34,-0.47,0.7,14,1,17,0.58,8865,68,87,33,73,1205,641.0,588,461,60,118.0,229,1,418,427,145,0,0,655,3395,4909,641,,,,,,,,,,,,
350023,1560691621835,5,2.37,2.27,3.35,2.44,5.04,0.31,-0.45,0.65,14,2,16,0.55,8954,68,87,33,73,1220,648.0,591,455,60,118.0,229,1,415,427,145,0,0,658,3395,-26380,648,,,,,,,,,,,,
350043,1560691621855,5,2.37,2.28,3.34,2.45,5.04,0.28,-0.48,0.67,14,2,17,0.55,8988,68,87,33,73,1229,648.0,593,455,60,117.0,226,1,414,417,145,0,0,661,-16046,-3038,648,45.701111,4.910042,59.86,196.3,3,1.675,0,0.0,0.1017,4,0.1,5.8341
350063,1560691621875,3,2.38,2.27,3.33,2.44,5.05,0.24,-0.44,0.62,14,2,16,0.5,9001,68,87,33,73,1232,650.0,591,461,60,118.0,226,1,413,427,145,0,0,666,771,31988,650,,,,,,,,,,,,
350083,1560691621897,3,2.38,2.27,3.31,2.44,5.07,0.27,-0.45,0.62,14,0,17,0.52,9018,68,86,33,73,1232,654.0,598,451,60,118.0,226,1,413,427,145,0,0,664,3,-10348,654,,,,,,,,,,,,
350103,1560691621917,4,2.37,2.27,3.33,2.45,5.04,0.17,-0.46,0.61,14,1,17,0.49,9031,68,86,33,73,1228,658.0,597,460,60,118.0,226,1,413,417,145,0,0,672,6208,-388,658,,,,,,,,,,,,
350123,1560691621937,1,2.39,2.26,3.35,2.45,5.08,0.19,-0.41,0.58,13,2,19,0.45,9110,68,86,33,73,1223,662.0,615,452,60,118.0,226,1,413,427,145,0,0,675,-10251,-2830,662,,,,,,,,,,,,
350143,1560691621957,-0,2.39,2.25,3.36,2.45,5.05,0.05,-0.32,0.55,14,4,19,0.32,9209,68,86,33,73,1216,664.0,611,452,60,118.0,224,1,414,427,148,0,0,673,11776,-2345,664,45.701115,4.910064,61.81,196.3,3,1.675,0,0.0,0.1033,4,0.11,5.8357
350163,1560691621977,3,2.39,2.26,3.36,2.46,5.04,0.13,-0.28,0.56,14,2,19,0.3,9272,68,86,33,72,1208,667.0,617,455,60,118.0,224,1,414,417,148,0,0,686,11776,-10344,667,,,,,,,,,,,,
350183,1560691621991,2,2.39,2.28,3.35,2.49,5.04,0.21,-0.37,0.67,14,1,19,0.43,9384,68,86,33,72,1198,672.0,615,462,60,117.0,224,1,415,417,148,0,0,679,479,24,672,,,,,,,,,,,,
350203,1560691622011,3,2.39,2.27,3.35,2.51,5.05,0.32,-0.49,0.8,14,-0,18,0.59,9412,68,86,33,72,1190,675.0,622,456,60,118.0,224,1,415,417,148,0,0,696,11566,-10448,675,,,,,,,,,,,,
350223,1560691622031,2,2.38,2.26,3.35,2.5,5.07,0.19,-0.44,0.79,15,1,16,0.48,9407,68,86,33,72,1187,678.0,608,457,60,118.0,224,1,415,407,148,0,0,689,-3488,-3584,678,,,,,,,,,,,,
350243,1560691622051,3,2.39,2.25,3.35,2.5,5.08,0.27,-0.42,0.71,14,-0,18,0.5,9407,68,86,33,71,1181,681.0,606,462,60,118.0,212,1,415,407,144,0,0,701,8958,1780,681,45.701118,4.910087,63.13,196.3,3,1.675,0,0.0,0.105,4,0.11,5.8374
350263,1560691622071,4,2.38,2.25,3.37,2.5,5.07,0.43,-0.58,0.72,14,-1,18,0.72,9460,68,86,33,71,1168,683.0,617,457,60,117.0,212,1,415,407,144,0,0,698,-2345,-12152,685,,,,,,,,,,,,
350283,1560691622097,2,2.38,2.26,3.39,2.51,5.04,0.32,-0.65,0.72,15,-3,17,0.72,9512,68,86,33,70,1154,688.0,618,464,60,117.0,212,1,416,399,144,0,0,703,-2826,-2830,687,,,,,,,,,,,,
350303,1560691622117,4,2.39,2.26,3.37,2.52,5.05,0.16,-0.62,0.73,15,-1,18,0.64,9585,68,86,33,70,1144,690.0,619,460,60,118.0,212,1,413,415,144,0,0,704,3543,-3888,690,,,,,,,,,,,,
350323,1560691622137,0,2.38,2.26,3.38,2.52,5.07,0.35,-0.76,0.82,14,-2,18,0.83,9654,68,86,33,70,1133,692.0,613,456,60,118.0,212,1,410,410,144,0,0,705,1549,-3888,694,,,,,,,,,,,,
350343,1560691622157,3,2.39,2.26,3.36,2.52,5.07,0.28,-0.64,0.85,15,-3,19,0.7,9684,68,86,33,70,1122,693.0,616,455,60,118.0,216,1,409,416,150,0,0,712,-388,-30694,693,45.701122,4.910109,65.0,196.3,3,1.675,0,0.0,0.1067,4,0.11,5.839
350363,1560691622177,5,2.39,2.26,3.39,2.52,5.04,0.44,-0.75,0.86,15,-3,19,0.87,9699,68,86,33,70,1111,697.0,620,455,60,118.0,216,1,409,418,150,0,0,710,-388,11069,697,,,,,,,,,,,,
350383,1560691622197,1,2.38,2.26,3.42,2.52,5.05,0.36,-0.71,0.87,15,-2,20,0.79,9689,68,86,33,69,1111,704.0,631,455,60,117.0,216,1,409,408,150,0,0,726,-26892,-31068,704,,,,,,,,,,,,
350403,1560691622217,4,2.38,2.25,3.43,2.51,5.08,0.35,-0.73,0.93,14,-3,19,0.81,9740,68,86,33,69,1111,704.0,621,466,60,117.0,216,1,405,413,150,0,0,712,-26562,-25858,704,,,,,,,,,,,,
350423,1560691622237,4,2.37,2.26,3.43,2.51,5.08,0.38,-0.66,0.88,14,-2,19,0.76,9837,68,86,33,69,1111,709.0,622,458,60,118.0,216,1,402,423,150,0,0,720,24845,-25858,707,,,,,,,,,,,,
350443,1560691622257,0,2.37,2.26,3.42,2.52,5.05,0.4,-0.75,0.85,15,-1,18,0.85,9863,68,86,33,68,1111,714.0,628,460,60,118.0,222,1,401,430,158,0,0,721,6208,-4091,714,45.701126,4.910133,66.59,196.4,3,1.675,0,0.0,0.1083,4,0.11,5.8407
350463,1560691622277,3,2.35,2.26,3.41,2.51,5.07,0.23,-0.75,0.87,15,-1,20,0.78,9910,68,86,33,68,1111,715.0,625,460,60,118.0,222,1,399,424,158,0,0,735,1780,-3344,712,,,,,,,,,,,,
350483,1560691622297,4,2.34,2.27,3.38,2.52,5.05,0.37,-0.71,0.85,14,1,20,0.8,9968,68,86,33,68,1111,715.0,624,451,60,118.0,222,1,397,431,158,0,0,725,-2830,-2358,715,,,,,,,,,,,,
350503,1560691622317,1,2.33,2.26,3.35,2.5,5.07,0.35,-0.75,0.86,15,-1,20,0.82,9931,68,86,33,68,1112,716.0,621,455,60,117.0,222,1,398,430,158,0,0,733,6208,-31066,716,,,,,,,,,,,,
350523,1560691622337,4,2.32,2.27,3.36,2.48,5.06,0.25,-0.72,0.84,14,0,19,0.76,9936,66,86,33,68,1113,721.0,628,461,60,118.0,222,1,398,427,158,0,0,737,11069,1037,721,,,,,,,,,,,,
350543,1560691622357,2,2.31,2.26,3.36,2.47,5.05,0.36,-0.77,0.83,13,1,18,0.85,10000,63,86,33,66,1114,725.0,625,458,60,118.0,219,1,399,418,158,0,0,739,687,-2314,724,45.701126,4.910157,68.13,196.4,3,1.675,0,0.0,0.11,4,0.11,5.8424
350563,1560691622377,-1,2.29,2.29,3.34,2.46,5.06,0.37,-0.79,0.84,12,-1,17,0.88,10016,60,86,33,64,1115,726.0,626,452,60,118.0,219,1,404,401,158,0,0,738,204,6790,726,,,,,,,,,,,,
350583,1560691622397,4,2.28,2.34,3.29,2.44,5.04,0.27,-0.66,0.76,11,-0,16,0.72,10016,58,86,33,62,1109,726.0,624,460,60,118.0,219,1,408,384,158,0,0,734,-23490,-31066,724,,,,,,,,,,,,
350603,1560691622417,3,2.27,2.36,3.26,2.43,5.07,0.38,-0.65,0.8,10,-1,16,0.75,10069,54,86,33,61,1102,726.0,630,457,60,118.0,219,1,414,377,158,0,0,739,-23490,-2314,727,,,,,,,,,,,,
350623,1560691622437,1,2.25,2.39,3.24,2.41,5.05,0.45,-0.66,0.87,9,-2,15,0.8,10075,50,86,33,59,1094,729.0,628,453,60,118.0,219,1,408,360,158,0,0,744,-2918,-2830,729,,,,,,,,,,,,
350643,1560691622457,4,2.24,2.41,3.19,2.4,5.04,0.37,-0.59,0.76,7,-2,13,0.7,10032,45,86,33,56,1086,731.0,634,456,60,118.0,183,1,403,334,134,0,0,741,-4091,-31066,727,45.70113,4.910182,69.28,196.5,3,1.675,0,0.0,0.1117,4,0.11,5.844
350663,1560691622477,2,2.24,2.43,3.17,2.38,5.04,0.44,-0.48,0.78,6,-2,13,0.65,10042,38,86,33,52,1072,731.0,623,458,60,118.0,183,1,394,297,134,0,0,747,-2826,-31066,728,,,,,,,,,,,,
350683,1560691622496,2,2.24,2.43,3.18,2.36,5.05,0.56,-0.49,0.8,5,-4,11,0.75,9978,34,86,33,49,1055,733.0,633,455,60,117.0,183,1,385,268,134,0,0,744,-22796,-13068,732,,,,,,,,,,,,
350703,1560691622516,3,2.24,2.43,3.18,2.31,5.05,0.39,-0.36,0.77,4,-3,10,0.53,9941,31,86,33,45,1044,732.0,629,457,60,118.0,183,1,365,242,134,0,0,741,1037,-3580,733,,,,,,,,,,,,
350723,1560691622536,0,2.24,2.42,3.18,2.27,5.04,0.52,-0.28,0.71,3,-1,8,0.59,9899,30,86,33,42,1036,733.0,627,458,60,118.0,183,1,342,227,134,0,0,739,-2356,3462,731,,,,,,,,,,,,
350743,1560691622556,2,2.24,2.4,3.19,2.19,5.08,0.55,-0.18,0.64,1,-3,8,0.58,9725,30,86,33,40,1010,739.0,633,459,60,118.0,116,1,327,220,85,0,0,736,-13068,-2830,728,45.70113,4.910207,70.51,196.5,3,1.675,0,0.0,0.1133,4,0.12,5.8457
350763,1560691622576,1,2.22,2.4,3.19,2.15,5.06,0.69,-0.27,0.76,0,-3,6,0.74,9532,29,86,33,40,978,739.0,636,462,60,117.0,116,1,327,218,85,0,0,731,-2830,-2830,729,,,,,,,,,,,,
350783,1560691622596,-1,2.22,2.4,3.17,2.11,5.05,0.43,-0.04,0.61,0,-1,5,0.44,9305,29,86,32,40,949,735.0,626,459,60,118.0,116,1,327,216,85,0,0,739,-2314,-25858,730,,,,,,,,,,,,
350803,1560691622616,-1,2.22,2.41,3.15,2.09,5.05,0.3,0.17,0.5,-1,-2,4,0.34,9088,29,86,32,39,925,736.0,624,464,60,118.0,116,1,320,213,85,0,0,738,1037,-2358,727,,,,,,,,,,,,
350823,1560691622636,3,2.2,2.42,3.11,2.06,5.04,0.33,0.31,0.3,-1,2,3,0.45,9023,29,86,32,39,891,739.0,615,455,60,118.0,116,1,320,135,85,0,0,735,-13068,204,725,,,,,,,,,,,,
350843,1560691622656,2,2.2,2.41,3.11,1.98,5.03,0.33,0.48,0.31,-2,0,2,0.58,9062,29,86,32,38,851,735.0,620,462,60,118.0,99,1,317,209,72,0,0,722,-3580,-12152,722,45.701134,4.910233,71.16,196.6,3,1.675,0,0.0,0.115,4,0.12,5.8474
350863,1560691622676,3,2.19,2.39,3.13,1.91,5.07,0.5,0.62,0.37,-4,1,0,0.79,9177,29,86,32,38,823,733.0,616,460,60,118.0,99,1,317,210,72,0,0,711,-22796,-20693,718,,,,,,,,,,,,
350883,1560691622696,3,2.19,2.38,3.17,1.88,5.05,0.59,0.48,0.5,-5,-3,-2,0.76,9305,28,86,32,38,808,731.0,626,457,60,117.0,99,1,317,211,72,0,0,711,-2314,6208,719,,,,,,,,,,,,
350903,1560691622716,5,2.19,2.39,3.18,1.87,5.05,0.74,0.34,0.55,-6,1,-4,0.81,9379,28,86,32,37,805,733.0,622,457,60,117.0,99,1,314,209,72,0,0,710,-22796,-3584,713,,,,,,,,,,,,
350923,1560691622736,2,2.2,2.39,3.19,1.85,5.08,0.6,0.45,0.4,-7,0,-5,0.75,9431,28,86,32,37,814,727.0,628,460,60,118.0,99,1,314,209,72,0,0,705,-3344,14342,708,,,,,,,,,,,,
350943,1560691622756,2,2.2,2.4,3.18,1.84,5.08,0.64,0.57,0.39,-8,-1,-6,0.86,9488,28,86,32,37,828,724.0,625,460,60,118.0,105,1,314,209,75,0,0,707,-2918,6208,707,45.701134,4.910259,70.72,196.6,3,1.675,0,0.0,0.1167,4,0.12,5.849
350963,1560691622776,1,2.2,2.4,3.15,1.85,5.04,0.78,0.4,0.46,-9,-1,-9,0.87,9561,28,86,32,37,852,726.0,634,460,60,118.0,105,1,314,211,75,0,0,710,31988,16599,706,,,,,,,,,,,,
350983,1560691622796,2,2.19,2.4,3.15,1.82,5.06,0.64,0.54,0.42,-9,-3,-8,0.84,9585,28,86,32,36,874,722.0,636,459,60,118.0,105,1,311,208,75,0,0,709,-388,-3584,701,,,,,,,,,,,,
351003,1560691622816,5,2.19,2.41,3.11,1.82,5.04,0.66,0.61,0.44,-10,0,-10,0.89,9532,28,86,32,36,893,720.0,633,462,60,118.0,105,1,311,208,75,0,0,714,-2830,-3584,700,,,,,,,,,,,,
351023,1560691622836,1,2.19,2.43,3.09,1.81,5.06,0.79,0.48,0.46,-10,-1,-12,0.93,9561,28,86,32,36,906,717.0,641,461,60,117.0,105,1,311,208,75,0,0,710,-23490,-10399,700,,,,,,,,,,,,
351043,1560691622856,3,2.2,2.43,3.08,1.81,5.06,0.63,0.64,0.35,-10,0,-11,0.9,9517,28,86,32,36,900,719.0,627,462,60,118.0,107,1,311,208,75,0,0,710,204,3543,695,45.701138,4.910285,69.94,196.6,3,1.675,0,0.0,0.1183,4,0.12,5.8507
351063,1560691622876,4,2.2,2.43,3.09,1.79,5.07,0.77,0.59,0.39,-11,-2,-12,0.97,9556,28,86,32,36,893,715.0,629,465,60,117.0,107,1,311,208,75,0,0,708,-2560,12333,695,,,,,,,,,,,,
351083,1560691622896,2,2.21,2.43,3.08,1.78,5.04,0.74,0.63,0.42,-11,-2,-12,0.97,9541,28,86,32,35,882,714.0,630,460,60,118.0,107,1,308,205,75,0,0,714,-13312,6208,692,,,,,,,,,,,,
351103,1560691622916,1,2.22,2.43,3.08,1.79,5.05,0.7,0.76,0.34,-11,-0,-13,1.04,9561,28,86,32,34,872,715.0,620,461,60,118.0,107,1,305,203,75,0,0,711,-2560,14342,693,,,,,,,,,,,,
351123,1560691622936,6,2.21,2.43,3.08,1.82,5.05,0.84,0.56,0.46,-11,-1,-14,1.01,9615,28,86,32,33,866,709.0,626,452,60,118.0,107,1,302,204,75,0,0,714,-12152,24,692,,,,,,,,,,,,
351143,1560691622956,3,2.21,2.43,3.06,1.83,5.04,0.71,0.68,0.44,-11,1,-13,0.99,9620,28,86,32,33,858,708.0,624,460,60,118.0,105,1,302,202,73,0,0,703,-30694,24,690,45.701138,4.91031,68.36,196.7,3,1.675,0,0.0,0.12,4,0.12,5.8524
351163,1560691622976,5,2.19,2.43,3.04,1.82,5.08,0.82,0.66,0.43,-11,-1,-13,1.06,9620,28,86,32,33,844,706.0,635,460,60,118.0,105,1,302,202,73,0,0,708,6658,24,691,,,,,,,,,,,,
351183,1560691622996,3,2.18,2.43,3.04,1.81,5.06,0.87,0.68,0.46,-11,-2,-12,1.11,9590,28,86,32,32,829,703.0,642,455,60,117.0,105,1,300,201,73,0,0,711,11069,6208,691,,,,,,,,,,,,
351203,1560691623010,3,2.17,2.42,3.04,1.81,5.08,0.75,0.81,0.4,-11,1,-12,1.11,9571,28,86,32,32,820,706.0,622,451,60,118.0,105,1,300,201,73,0,0,706,687,24,694,,,,,,,,,,,,
351223,1560691623030,-0,2.16,2.44,3.04,1.81,5.04,0.84,0.67,0.44,-12,-0,-15,1.08,9605,28,86,32,32,811,706.0,634,455,60,118.0,105,1,300,200,73,0,0,704,687,24,688,,,,,,,,,,,,
351243,1560691623050,2,2.15,2.49,3.02,1.8,5.04,0.7,0.77,0.39,-12,2,-14,1.04,9605,28,86,32,32,804,705.0,634,445,60,118.0,104,1,300,200,72,0,0,708,-20693,24,686,45.701141,4.910335,67.58,196.7,3,1.675,0,0.0,0.1217,4,0.13,5.8541
351263,1560691623070,5,2.15,2.49,3.02,1.79,5.07,0.81,0.78,0.41,-12,1,-15,1.13,9600,28,86,32,32,797,707.0,638,453,60,118.0,104,1,300,200,72,0,0,699,11069,-10344,685,,,,,,,,,,,,
351283,1560691623092,0,2.15,2.51,3.02,1.79,5.04,0.82,0.73,0.42,-13,1,-16,1.09,9556,28,86,32,32,800,707.0,633,447,60,118.0,104,1,300,199,72,0,0,710,6658,-26562,680,,,,,,,,,,,,
351303,1560691623112,4,2.14,2.51,3.02,1.78,5.08,0.71,0.86,0.31,-13,3,-17,1.11,9556,28,86,32,32,802,704.0,622,448,60,118.0,104,1,300,199,72,0,0,699,6658,-2826,678,,,,,,,,,,,,
351323,1560691623132,3,2.15,2.51,3.01,1.78,5.05,0.84,0.7,0.4,-15,1,-20,1.09,9590,28,86,32,32,812,708.0,632,448,60,118.0,104,1,300,199,72,0,0,705,-30694,-2345,678,,,,,,,,,,,,
351343,1560691623152,2,2.15,2.54,3.0,1.78,5.07,0.72,0.72,0.36,-14,4,-20,1.02,9590,28,86,32,32,821,705.0,623,451,60,119.0,105,1,300,199,72,0,0,706,687,-10344,677,45.701141,4.910359,66.97,196.8,3,1.675,0,0.0,0.1233,4,0.13,5.8557
351363,1560691623172,3,2.15,2.55,2.99,1.78,5.04,0.69,0.85,0.37,-15,2,-21,1.1,9571,28,86,32,32,829,701.0,626,457,60,118.0,105,1,300,199,72,0,0,702,19188,-26562,673,,,,,,,,,,,,
351383,1560691623196,-2,2.13,2.56,2.97,1.77,5.04,0.82,0.72,0.43,-16,-1,-22,1.09,9508,28,86,32,32,835,701.0,630,445,60,118.0,105,1,300,198,72,0,0,703,-2830,-3584,676,,,,,,,,,,,,
351403,1560691623216,-0,2.14,2.55,2.95,1.77,5.06,0.66,0.82,0.36,-16,4,-21,1.05,9474,28,86,32,32,846,705.0,634,450,60,118.0,105,1,300,197,72,0,0,705,-20693,16118,674,,,,,,,,,,,,
351423,1560691623236,1,2.14,2.59,2.96,1.76,5.05,0.63,0.93,0.38,-17,1,-19,1.12,9445,28,86,32,32,857,705.0,626,455,60,118.0,105,1,300,196,72,0,0,707,-20693,-26562,674,,,,,,,,,,,,
351443,1560691623256,5,2.14,2.6,2.95,1.77,5.04,0.77,0.76,0.54,-17,1,-22,1.08,9441,28,86,32,32,863,703.0,634,448,60,118.0,104,1,300,196,70,0,0,700,19188,16599,670,45.701145,4.910383,66.07,196.8,3,1.675,0,0.0,0.125,4,0.13,5.8574
351463,1560691623276,0,2.14,2.61,2.93,1.79,5.07,0.58,0.75,0.43,-16,4,-23,0.95,9417,28,86,32,32,867,703.0,629,451,60,118.0,104,1,300,196,70,0,0,703,8010,-10346,672,,,,,,,,,,,,
351483,1560691623296,2,2.15,2.65,2.94,1.82,5.04,0.48,0.88,0.32,-16,3,-22,1.0,9389,28,86,32,32,870,698.0,626,455,60,118.0,104,1,300,195,70,0,0,702,24,-26562,667,,,,,,,,,,,,
351503,1560691623316,4,2.15,2.66,2.96,1.82,5.04,0.63,0.91,0.43,-17,-1,-23,1.11,9314,28,86,32,32,874,696.0,624,456,60,118.0,104,1,300,195,70,0,0,695,16599,3543,667,,,,,,,,,,,,
351523,1560691623336,4,2.17,2.65,3.02,1.8,5.06,0.77,0.71,0.54,-17,-2,-24,1.05,9295,28,86,32,32,875,691.0,617,464,60,118.0,104,1,300,194,70,0,0,696,1780,-10344,665,,,,,,,,,,,,
351543,1560691623356,-0,2.19,2.64,3.03,1.79,5.07,0.64,0.56,0.52,-16,1,-23,0.85,9277,28,86,32,32,875,696.0,625,451,60,117.0,101,1,300,193,68,0,0,693,16599,-10344,670,45.701153,4.910406,64.45,196.8,3,1.675,0,0.0,0.1267,4,0.13,5.859
351563,1560691623376,1,2.2,2.63,3.08,1.77,5.08,0.5,0.71,0.38,-16,-0,-22,0.87,9259,28,86,32,33,880,696.0,622,453,60,118.0,101,1,302,196,68,0,0,696,16599,-2345,670,,,,,,,,,,,,
351583,1560691623396,1,2.2,2.6,3.09,1.77,5.04,0.64,0.65,0.44,-16,0,-22,0.91,9236,28,86,32,33,886,698.0,616,462,60,118.0,101,1,302,195,68,0,0,694,24,16599,671,,,,,,,,,,,,
351603,1560691623416,3,2.2,2.58,3.07,1.78,5.04,0.77,0.76,0.5,-15,-0,-22,1.08,9231,28,86,32,33,891,698.0,622,457,60,118.0,101,1,302,196,68,0,0,692,16599,-10344,673,,,,,,,,,,,,
351623,1560691623436,5,2.2,2.57,3.0,1.78,5.03,0.7,0.67,0.54,-15,1,-22,0.97,9259,28,86,32,33,898,696.0,625,454,60,118.0,101,1,302,196,68,0,0,696,16599,-26380,673,,,,,,,,,,,,
351643,1560691623456,6,2.18,2.58,2.9,1.78,5.04,0.56,0.81,0.35,-15,0,-23,0.98,9277,28,86,32,33,909,691.0,628,451,60,118.0,101,1,302,196,68,0,0,690,1780,8958,673,45.701157,4.910429,64.27,196.9,3,1.675,0,0.0,0.1283,4,0.13,5.8607
351663,1560691623476,-0,2.17,2.59,2.88,1.79,5.03,0.49,0.93,0.29,-14,2,-22,1.05,9295,28,86,32,33,922,692.0,625,453,60,118.0,101,1,302,196,68,0,0,690,-2830,-3578,672,,,,,,,,,,,,
351683,1560691623498,2,2.17,2.57,2.87,1.76,5.04,0.64,1.02,0.35,-14,1,-21,1.2,9300,28,86,32,33,931,689.0,626,455,60,118.0,101,1,302,196,68,0,0,688,-3584,-26380,670,,,,,,,,,,,,
351703,1560691623518,2,2.16,2.55,2.89,1.76,5.05,0.78,0.81,0.48,-15,-2,-20,1.12,9295,28,86,32,33,938,689.0,627,458,60,118.0,101,1,302,196,68,0,0,683,-3584,-388,668,,,,,,,,,,,,
351723,1560691623538,3,2.18,2.55,2.9,1.76,5.05,0.76,0.64,0.57,-15,-2,-22,1.0,9277,28,86,32,33,948,690.0,622,457,60,118.0,101,1,302,196,68,0,0,692,-3584,-2830,670,,,,,,,,,,,,
351743,1560691623558,3,2.18,2.55,2.99,1.75,5.05,0.67,0.7,0.51,-15,-2,-23,0.97,9231,28,86,32,33,963,691.0,620,459,60,118.0,101,1,302,195,68,0,0,690,1780,-3038,668,45.70116,4.91045,63.38,196.9,3,1.675,0,0.0,0.13,4,0.14,5.8624
351763,1560691623578,3,2.18,2.55,3.01,1.77,5.07,0.55,0.79,0.41,-15,-2,-24,0.96,9222,28,86,32,33,975,690.0,622,455,60,118.0,101,1,302,195,68,0,0,691,-2830,1549,666,,,,,,,,,,,,
351783,1560691623597,-1,2.19,2.56,3.01,1.81,5.05,0.56,0.91,0.29,-15,-1,-23,1.07,9218,28,86,32,33,982,690.0,630,455,60,118.0,101,1,302,195,68,0,0,691,-3584,-26380,664,,,,,,,,,,,,
351803,1560691623617,1,2.18,2.6,2.99,1.85,5.08,0.61,0.99,0.32,-15,-0,-21,1.16,9191,28,86,32,33,993,689.0,618,462,60,118.0,101,1,302,194,68,0,0,689,6208,-2345,662,,,,,,,,,,,,
351823,1560691623637,3,2.17,2.65,3.0,1.89,5.04,0.75,0.87,0.4,-14,-2,-20,1.15,9200,28,86,32,33,1007,684.0,621,458,60,118.0,101,1,302,195,68,0,0,680,24845,-27404,661,,,,,,,,,,,,
351843,1560691623657,3,2.15,2.65,3.0,1.87,5.04,0.81,0.75,0.53,-15,-3,-20,1.11,9195,28,86,32,33,1018,683.0,627,460,60,118.0,102,1,302,194,68,0,0,681,3543,-27404,660,45.701168,4.910472,62.54,196.9,3,1.675,0,0.0,0.1317,4,0.14,5.864
351863,1560691623677,4,2.14,2.62,3.02,1.83,5.05,0.87,0.61,0.57,-15,-3,-20,1.06,9218,28,86,32,33,1024,685.0,627,457,60,118.0,102,1,302,195,68,0,0,679,-10344,-2830,659,,,,,,,,,,,,
351883,1560691623695,6,2.16,2.6,3.05,1.76,5.05,0.76,0.59,0.51,-16,-2,-22,0.96,9218,28,86,32,33,1031,683.0,626,453,60,118.0,102,1,302,194,68,0,0,693,6208,-27404,661,,,,,,,,,,,,
351903,1560691623715,3,2.17,2.6,3.05,1.74,5.06,0.62,0.74,0.34,-16,-2,-23,0.96,9195,28,86,32,34,1039,689.0,628,453,60,118.0,102,1,305,197,68,0,0,687,-3584,-10348,660,,,,,,,,,,,,
351923,1560691623735,5,2.17,2.61,3.03,1.74,5.04,0.49,0.86,0.23,-16,2,-24,0.99,9182,28,86,32,34,1046,691.0,608,459,60,119.0,102,1,305,197,68,0,0,687,14342,3543,660,,,,,,,,,,,,
351943,1560691623755,1,2.17,2.61,2.96,1.74,5.04,0.49,0.98,0.2,-16,2,-25,1.1,9159,28,86,32,34,1049,689.0,615,456,60,118.0,101,1,305,197,67,0,0,689,-3584,-10348,657,45.70118,4.910494,63.73,197.0,3,1.675,0,0.0,0.1333,4,0.14,5.8657
351963,1560691623775,4,2.17,2.61,2.9,1.76,5.04,0.57,1.08,0.2,-16,4,-23,1.22,9146,27,86,32,33,1052,689.0,612,452,60,118.0,101,1,302,193,67,0,0,684,-3584,-10348,655,,,,,,,,,,,,
351983,1560691623797,5,2.16,2.62,2.88,1.76,5.05,0.71,1.17,0.32,-16,3,-22,1.37,9128,25,86,32,32,1058,685.0,613,459,60,118.0,101,1,300,190,67,0,0,683,-10399,-2826,653,,,,,,,,,,,,
352003,1560691623817,6,2.17,2.61,2.88,1.75,5.04,0.8,1.11,0.39,-16,2,-21,1.37,9093,23,86,32,31,1064,677.0,615,460,60,118.0,101,1,295,188,67,0,0,679,-26562,-26380,651,,,,,,,,,,,,
352023,1560691623837,7,2.17,2.59,2.93,1.73,5.06,0.92,1.06,0.54,-16,1,-21,1.41,9057,22,86,32,30,1067,678.0,609,458,60,118.0,101,1,291,188,67,0,0,677,-10346,2024,649,,,,,,,,,,,,
352043,1560691623857,11,2.16,2.58,3.0,1.72,5.06,1.03,0.97,0.59,-16,-1,-21,1.41,8997,21,86,32,29,1070,675.0,619,461,60,118.0,98,1,287,188,64,0,0,674,-2345,8958,645,45.701183,4.910514,63.39,196.9,3,1.675,0,0.0,0.135,4,0.14,5.8674
352063,1560691623877,9,2.18,2.55,3.06,1.69,5.05,1.12,0.98,0.62,-16,-1,-21,1.49,8941,20,86,32,28,1078,673.0,617,459,60,118.0,98,1,282,188,64,0,0,678,-26380,6208,642,,,,,,,,,,,,
352083,1560691623897,11,2.17,2.53,3.08,1.68,5.08,1.14,1.07,0.58,-16,-2,-21,1.56,8865,19,86,32,27,1086,673.0,624,455,60,118.0,98,1,278,188,64,0,0,670,-3038,-14655,639,,,,,,,,,,,,
352103,1560691623917,17,2.18,2.51,3.13,1.68,5.06,1.11,1.16,0.51,-16,-0,-21,1.61,8773,18,86,32,27,1090,671.0,620,458,60,118.0,98,1,278,188,64,0,0,662,-388,16599,636,,,,,,,,,,,,
352123,1560691623937,16,2.18,2.5,3.13,1.68,5.06,1.03,1.17,0.46,-16,1,-22,1.56,8668,18,86,32,26,1094,667.0,611,457,60,118.0,98,1,274,188,64,0,0,664,-3578,20993,634,,,,,,,,,,,,
352143,1560691623957,15,2.18,2.48,3.1,1.68,5.03,1.08,1.06,0.53,-16,1,-23,1.51,8538,17,86,32,25,1088,659.0,596,456,60,118.0,96,1,270,188,61,0,0,656,-3038,269,627,45.701195,4.910534,63.83,196.9,3,1.675,0,0.0,0.1367,4,0.14,5.869
352163,1560691623977,18,2.18,2.47,3.05,1.68,5.05,1.09,1.1,0.48,-17,-0,-23,1.55,8419,17,86,32,25,1082,657.0,580,463,60,119.0,96,1,270,183,61,0,0,657,8958,28675,623,,,,,,,,,,,,
352183,1560691623991,14,2.19,2.47,3.05,1.66,5.07,1.08,1.0,0.53,-16,-0,-23,1.47,8285,16,86,32,25,1072,653.0,591,461,60,118.0,96,1,270,176,61,0,0,649,-3488,-23055,620,,,,,,,,,,,,
352203,1560691624011,19,2.19,2.45,3.04,1.65,5.07,1.11,1.07,0.37,-16,-1,-23,1.54,8180,16,86,32,25,1061,646.0,575,460,60,118.0,96,1,270,169,61,0,0,647,4909,-768,613,,,,,,,,,,,,
352223,1560691624031,14,2.19,2.43,3.06,1.66,5.05,1.08,0.95,0.43,-16,-0,-23,1.44,8029,16,86,32,25,1032,640.0,573,458,60,118.0,96,1,270,160,61,0,0,639,24,-768,613,,,,,,,,,,,,
352243,1560691624051,15,2.2,2.43,3.09,1.64,5.06,1.1,0.95,0.42,-16,-2,-23,1.45,7884,16,86,32,25,1002,637.0,565,460,60,119.0,78,1,268,159,48,0,0,639,-2580,-4035,605,45.701202,4.910553,62.98,196.9,3,1.675,0,0.0,0.1383,4,0.14,5.8707
352263,1560691624071,17,2.19,2.41,3.13,1.63,5.05,1.18,0.98,0.28,-16,-3,-22,1.54,7815,16,86,32,25,981,629.0,563,461,60,119.0,78,1,268,159,48,0,0,623,771,-3210,605,,,,,,,,,,,,
352283,1560691624093,14,2.21,2.39,3.2,1.65,5.06,1.11,1.01,0.15,-16,-3,-22,1.5,7760,16,86,32,26,961,629.0,562,460,60,118.0,78,1,270,159,48,0,0,603,-16046,-2934,602,,,,,,,,,,,,
352303,1560691624113,16,2.2,2.36,3.24,1.63,5.08,1.05,0.91,0.17,-15,-2,-22,1.39,7773,16,86,32,26,937,621.0,565,460,60,120.0,78,1,270,160,48,0,0,606,-18357,26178,601,,,,,,,,,,,,
352323,1560691624133,16,2.2,2.35,3.27,1.64,5.04,1.13,0.78,0.17,-14,-2,-21,1.37,7612,16,86,32,26,913,618.0,564,457,60,119.0,78,1,269,160,48,0,0,602,269,-8187,593,,,,,,,,,,,,
352343,1560691624153,16,2.21,2.35,3.27,1.65,5.04,1.18,0.76,0.08,-14,-0,-20,1.41,7482,15,86,32,27,903,615.0,555,460,60,119.0,75,1,271,160,45,0,0,598,16529,11560,588,45.701214,4.910571,62.2,196.9,3,1.675,0,0.0,0.14,4,0.15,5.8724
352363,1560691624173,15,2.22,2.34,3.23,1.64,5.08,1.17,0.72,0.05,-14,1,-20,1.37,7304,15,86,32,27,898,608.0,540,458,60,117.0,75,1,270,161,45,0,0,599,19621,10408,582,,,,,,,,,,,,
352383,1560691624197,16,2.21,2.32,3.22,1.62,5.04,1.21,0.76,-0.03,-14,0,-19,1.43,7225,15,86,32,27,892,604.0,526,461,60,119.0,75,1,270,161,45,0,0,584,5344,-6528,581,,,,,,,,,,,,
