"Interval"|"ms"|0|0|1,"Utc"|"ms"|0|0|1,"FB_p"|"bar"|0|300|50,"Volant"|"F"|0.0|300.0|50,"xFR"|"mm"|0.0|5.0|50,"xRR"|"mm"|0.0|5.0|50,"xFL"|"mm"|0.0|5.0|50,"xRL"|"mm"|0.0|5.0|50,"AccelX"|"G"|-3.0|3.0|50,"AccelY"|"G"|-3.0|3.0|50,"AccelZ"|"G"|-3.0|3.0|50,"Yaw"|"Deg/Sec"|-120|120|50,"Pitch"|"Deg/Sec"|-120|120|50,"Roll"|"Deg/Sec"|-120|120|50,"Gsum"|"G"|0.0|3.0|50,"RPM"|""|0|14000|50,"TPS"|"%"|0|100|50,"WaterTemp"|"?C"|0|300|50,"AirTemp"|"?C"|-1000|1000|50,"MAP"|"KPa"|0|255|50,"Lambda"|""|0|1024|50,"WheelSpeed"|"MPH"|0.0|150.0|50,"OilPress"|"PSI"|0|150|50,"FuelPress"|"PSI"|0|150|50,"OilTemp"|"F"|0|300|50,"Battery"|"Volts"|0.0|20.0|50,"FuelCon"|"L/h"|-1000|1000|50,"Gear"|""|0|10|50,"Advance"|"Deg"|-360|360|50,"Injection"|"ms"|-1000|1000|50,"FuelCon"|"L/100km"|-1000|1000|50,"LC_But_Pres"|""|-1000|1000|50,"LC_Active"|""|-1000|1000|50,"RD_Speed"|""|-1000|1000|50,"RUD_Speed"|""|-1000|1000|50,"LD_Speed"|""|-1000|1000|50,"LUD_Speed"|""|-1000|1000|50,"Latitude"|"Degrees"|-180.0|180.0|10,"Longitude"|"Degrees"|-180.0|180.0|10,"Speed"|"kph"|0.0|150.0|10,"Altitude"|"m"|0.0|4000.0|10,"LapCount"|""|0|0|10,"LapTime"|"Min"|0.0|0.0|10,"Sector"|""|0|0|10,"SectorTime"|"Min"|0.0|0.0|10,"ElapsedTime"|"Min"|0.0|0.0|10,"CurrentLap"|""|0|0|10,"Distance"|"km"|0.0|0.0|10,"SessionTime"|"Min"|0.0|0.0|10
74263,1560692602351,17,2.21,1.8,3.56,1.65,5.07,1.29,-0.11,-0.01,1,-8,-1,1.3,6111,5,86,33,25,915,550.0,453,453,60,118.0,61,1,269,159,35,0,0,272,14504,4104,550,,,,,,,,,,,,
74283,1560692602371,15,2.22,1.82,3.51,1.66,5.06,1.17,-0.05,-0.15,2,-8,-1,1.17,6036,5,86,33,26,931,541.0,455,451,60,117.0,61,1,272,160,35,0,0,295,-2336,0,539,,,,,,,,,,,,
74303,1560692602391,17,2.21,1.85,3.49,1.67,5.04,1.0,0.04,-0.21,3,-6,-0,1.01,5978,5,86,33,26,945,534.0,452,451,60,118.0,67,1,271,160,36,0,0,298,14504,240,528,,,,,,,,,,,,
74323,1560692602411,16,2.21,1.84,3.51,1.67,5.04,1.11,0.04,-0.16,1,-8,-1,1.11,6019,5,86,33,26,953,526.0,449,453,60,118.0,67,1,272,160,36,0,0,276,-32248,-1268,525,,,,,,,,,,,,
74343,1560692602431,16,2.21,1.83,3.5,1.64,5.05,1.06,0.08,-0.22,1,-6,1,1.06,6038,5,86,33,26,961,526.0,451,452,60,118.0,67,1,272,160,36,0,0,265,2088,160,518,45.700794,4.909655,56.15,198.4,0,0.0,0,0.0,0.0383,1,0.05,1.2391
74363,1560692602451,16,2.21,1.84,3.5,1.64,5.05,0.92,0.14,-0.35,2,-4,2,0.93,5916,5,86,33,27,968,521.0,451,453,60,118.0,67,1,274,161,36,0,0,280,-8187,-20736,514,,,,,,,,,,,,
74383,1560692602471,15,2.21,1.84,3.49,1.66,5.07,0.85,0.19,-0.37,3,-3,3,0.87,5804,5,86,33,27,974,510.0,448,453,60,117.0,67,1,273,161,36,0,0,316,-3856,-6458,507,,,,,,,,,,,,
74403,1560692602491,12,2.21,1.86,3.47,1.66,5.07,0.93,0.24,-0.3,2,-4,3,0.96,5801,5,86,34,27,972,506.0,441,458,60,117.0,69,1,273,161,35,0,0,326,-28648,-30454,496,,,,,,,,,,,,
74423,1560692602510,11,2.22,1.85,3.48,1.65,5.04,1.02,0.19,-0.22,1,-5,1,1.04,5952,5,86,34,28,971,501.0,443,454,60,118.0,69,1,277,162,35,0,0,321,11560,23040,494,,,,,,,,,,,,
74443,1560692602530,10,2.21,1.84,3.48,1.65,5.04,1.12,0.15,-0.14,-2,-6,-1,1.13,5914,5,86,34,28,970,498.0,443,455,60,117.0,69,1,277,162,35,0,0,317,2524,10686,488,45.700802,4.909663,53.17,198.3,0,0.0,0,0.0,0.04,1,0.05,1.2407
74463,1560692602550,7,2.22,1.88,3.47,1.65,5.08,1.21,0.09,-0.1,-4,-6,-4,1.21,5859,5,86,34,28,969,495.0,445,455,60,118.0,69,1,276,162,35,0,0,329,771,150,481,,,,,,,,,,,,
74483,1560692602570,7,2.22,1.94,3.44,1.66,5.07,1.29,-0.03,-0.12,-6,-6,-5,1.29,5866,5,86,34,28,968,489.0,443,456,60,118.0,69,1,276,162,35,0,0,344,1,-10554,474,,,,,,,,,,,,
74503,1560692602590,6,2.21,1.97,3.43,1.67,5.03,1.36,-0.1,-0.06,-8,-5,-7,1.36,5926,5,86,34,28,967,481.0,446,455,60,118.0,76,1,277,162,36,0,0,324,32033,-32559,465,,,,,,,,,,,,
74523,1560692602610,2,2.23,1.97,3.41,1.68,5.04,1.41,-0.17,-0.07,-9,-4,-8,1.42,6030,5,86,34,28,962,475.0,445,453,60,119.0,76,1,278,163,36,0,0,341,-17956,-32559,462,,,,,,,,,,,,
74543,1560692602630,2,2.21,1.97,3.4,1.66,5.05,1.4,-0.2,-0.09,-9,-3,-10,1.42,6121,5,86,34,28,957,472.0,451,452,60,118.0,76,1,278,163,36,0,0,343,-1923,-23296,459,45.700817,4.909672,50.23,198.3,0,0.0,0,0.0,0.0417,1,0.05,1.2424
74563,1560692602650,1,2.22,1.97,3.42,1.66,5.04,1.45,-0.26,-0.01,-10,-4,-11,1.47,6283,5,86,34,28,951,472.0,462,455,60,117.0,76,1,277,163,36,0,0,327,8488,-14714,455,,,,,,,,,,,,
74583,1560692602670,2,2.23,1.97,3.41,1.66,5.07,1.48,-0.31,0.05,-11,-3,-13,1.51,6375,5,86,34,27,947,469.0,471,455,60,117.0,76,1,273,161,36,0,0,335,10432,2811,450,,,,,,,,,,,,
74603,1560692602690,4,2.24,1.98,3.38,1.65,5.07,1.48,-0.14,-0.0,-12,-2,-13,1.49,6494,5,86,34,27,942,465.0,485,453,60,118.0,86,1,272,161,39,0,0,374,6193,-6644,449,,,,,,,,,,,,
74623,1560692602710,1,2.23,1.99,3.37,1.66,5.04,1.48,-0.1,-0.01,-12,-2,-12,1.49,6590,5,86,34,26,935,460.0,491,452,60,118.0,86,1,268,160,39,0,0,381,-23623,486,440,,,,,,,,,,,,
74643,1560692602730,3,2.23,2.01,3.35,1.64,5.05,1.46,-0.11,0.11,-13,-3,-12,1.47,6677,5,86,34,26,933,455.0,497,445,60,118.0,86,1,267,160,39,0,0,396,-8985,-9211,436,45.700825,4.90968,47.36,198.3,0,0.0,0,0.0,0.0433,1,0.05,1.2441
74663,1560692602750,-1,2.24,2.06,3.33,1.64,5.04,1.41,0.03,-0.01,-12,1,-10,1.41,6776,5,86,34,26,932,449.0,495,435,60,118.0,86,1,266,159,39,0,0,416,15649,11545,436,,,,,,,,,,,,
74683,1560692602770,4,2.24,2.13,3.32,1.65,5.08,1.39,0.0,0.13,-12,-2,-9,1.39,6921,5,86,34,25,923,444.0,509,452,60,117.0,86,1,261,159,39,0,0,422,-18341,2524,431,,,,,,,,,,,,
74703,1560692602792,-0,2.24,2.16,3.29,1.66,5.06,1.35,0.03,0.0,-11,0,-7,1.35,7030,5,86,34,24,912,437.0,523,442,60,117.0,95,1,260,156,41,0,0,420,19477,9517,428,,,,,,,,,,,,
74723,1560692602812,-0,2.23,2.16,3.28,1.67,5.04,1.21,0.16,-0.1,-10,-0,-7,1.22,7113,5,86,34,24,902,434.0,523,442,60,118.0,95,1,261,156,41,0,0,415,-768,11560,427,,,,,,,,,,,,
74743,1560692602832,-1,2.24,2.15,3.26,1.66,5.07,1.29,0.1,0.11,-10,-3,-8,1.29,7270,5,86,34,23,892,429.0,532,433,60,118.0,95,1,262,154,41,0,0,411,-3314,-26615,422,45.700836,4.909688,44.83,198.3,0,0.0,0,0.0,0.045,1,0.05,1.2457
74763,1560692602852,4,2.25,2.13,3.29,1.67,5.08,1.32,0.02,0.24,-9,-3,-7,1.32,7352,5,86,34,23,885,425.0,539,423,60,118.0,95,1,263,154,41,0,0,401,-3856,11560,419,,,,,,,,,,,,
74783,1560692602872,2,2.24,2.12,3.29,1.67,5.06,1.31,-0.09,0.26,-8,-3,-6,1.32,7455,5,86,34,22,877,422.0,544,444,60,117.0,95,1,264,151,41,0,0,406,-3414,10541,418,,,,,,,,,,,,
74803,1560692602892,2,2.26,2.12,3.3,1.67,5.05,1.3,-0.19,0.27,-7,-4,-5,1.31,7527,5,86,34,21,876,420.0,551,440,60,118.0,100,1,265,151,42,0,0,402,-8165,28696,416,,,,,,,,,,,,
74823,1560692602912,3,2.26,2.12,3.33,1.69,5.07,1.37,-0.26,0.35,-6,-3,-5,1.39,7591,5,86,34,21,877,416.0,551,448,60,118.0,100,1,265,149,42,0,0,393,-26615,-8151,410,,,,,,,,,,,,
74843,1560692602932,3,2.26,2.09,3.33,1.71,5.05,1.38,-0.38,0.51,-6,-3,-5,1.43,7548,5,86,34,21,882,415.0,557,433,60,118.0,100,1,265,149,42,0,0,404,2524,-8151,409,45.700844,4.909695,43.3,198.3,0,0.0,0,0.0,0.0467,1,0.06,1.2474
74863,1560692602952,-1,2.27,2.07,3.33,1.74,5.08,1.4,-0.41,0.57,-5,-2,-4,1.46,7536,5,86,34,21,887,413.0,553,425,60,118.0,100,1,265,149,42,0,0,403,-9166,11560,409,,,,,,,,,,,,
74883,1560692602972,-1,2.27,2.05,3.3,1.77,5.08,1.38,-0.49,0.58,-5,-2,-3,1.46,7473,5,86,34,21,892,409.0,556,426,60,118.0,100,1,264,149,42,0,0,403,11560,-3968,409,,,,,,,,,,,,
74903,1560692602992,6,2.28,2.06,3.26,1.83,5.06,1.4,-0.54,0.63,-5,-1,-2,1.5,7473,5,86,34,21,896,407.0,550,441,60,118.0,102,1,264,149,42,0,0,398,-26615,6384,406,,,,,,,,,,,,
74923,1560692603006,5,2.27,2.06,3.25,1.88,5.03,1.39,-0.61,0.68,-4,-0,-2,1.52,7431,5,86,34,20,903,405.0,551,442,60,118.0,102,1,264,146,42,0,0,397,-8151,11545,405,,,,,,,,,,,,
74943,1560692603026,3,2.31,2.06,3.25,1.94,5.07,1.36,-0.63,0.7,-2,-2,-1,1.5,7422,6,86,34,20,911,401.0,553,448,60,119.0,102,1,264,146,42,0,0,393,28696,-3968,401,45.700855,4.9097,40.9,198.3,0,0.0,0,0.0,0.0483,1,0.06,1.2491
74963,1560692603046,2,2.31,2.06,3.29,2.0,5.04,1.35,-0.69,0.73,-1,-1,-2,1.52,7338,7,86,34,21,919,401.0,555,445,60,118.0,102,1,263,149,42,0,0,388,-32702,1,401,,,,,,,,,,,,
74983,1560692603066,3,2.33,2.04,3.31,2.01,5.03,1.25,-0.67,0.61,0,0,-0,1.42,7307,8,86,34,21,924,402.0,551,448,60,118.0,102,1,263,149,42,0,0,388,-1818,-3968,403,,,,,,,,,,,,
75003,1560692603092,1,2.35,2.03,3.32,2.03,5.04,1.08,-0.53,0.48,1,2,2,1.2,7239,8,86,34,21,932,401.0,553,443,60,117.0,101,1,262,149,41,0,0,389,1,-1562,399,,,,,,,,,,,,
75023,1560692603112,1,2.35,2.02,3.33,2.03,5.08,1.02,-0.47,0.46,2,2,2,1.13,7203,8,86,34,21,943,399.0,534,442,60,118.0,101,1,262,149,41,0,0,384,-1562,240,398,,,,,,,,,,,,
75043,1560692603132,-1,2.38,2.0,3.35,2.02,5.04,1.06,-0.48,0.51,2,1,2,1.17,7183,9,86,34,21,952,398.0,534,447,60,118.0,101,1,261,149,41,0,0,380,-3866,-32702,397,45.700863,4.909706,39.91,198.2,0,0.0,0,0.0,0.05,1,0.06,1.2507
75063,1560692603152,5,2.39,2.0,3.4,2.01,5.05,1.16,-0.57,0.63,2,-3,2,1.29,7137,9,86,34,22,958,395.0,530,447,60,118.0,101,1,261,151,41,0,0,377,-19126,-6475,395,,,,,,,,,,,,
75083,1560692603172,2,2.41,2.0,3.44,2.03,5.07,1.07,-0.57,0.5,4,-1,4,1.21,7142,9,86,34,22,964,396.0,530,450,60,117.0,101,1,261,151,41,0,0,377,-18948,-19019,396,,,,,,,,,,,,
75103,1560692603192,-1,2.43,1.99,3.49,2.03,5.04,0.83,-0.45,0.35,7,2,6,0.94,7107,9,86,34,22,970,395.0,525,450,60,117.0,101,1,261,151,40,0,0,373,8200,-6475,395,,,,,,,,,,,,
75123,1560692603212,-0,2.43,1.98,3.51,2.07,5.04,0.88,-0.44,0.34,7,2,7,0.99,7048,9,86,34,22,975,396.0,519,444,60,118.0,101,1,260,151,40,0,0,370,770,-6475,396,,,,,,,,,,,,
75143,1560692603232,2,2.45,1.98,3.5,2.1,5.07,1.0,-0.57,0.5,8,-2,8,1.15,7035,10,86,34,23,975,394.0,522,452,60,118.0,101,1,260,154,40,0,0,366,1,-19126,394,45.700874,4.909712,38.63,198.2,0,0.0,0,0.0,0.0517,1,0.06,1.2524
75163,1560692603252,1,2.45,1.98,3.5,2.13,5.04,0.91,-0.55,0.32,9,1,9,1.06,7004,10,86,34,23,974,393.0,526,446,60,118.0,101,1,260,154,40,0,0,369,257,-3866,393,,,,,,,,,,,,
75183,1560692603272,0,2.44,1.97,3.5,2.12,5.04,0.84,-0.5,0.32,10,-0,10,0.98,6954,10,86,34,24,975,393.0,521,448,60,118.0,101,1,260,156,40,0,0,363,0,-19019,393,,,,,,,,,,,,
75203,1560692603292,3,2.45,1.97,3.5,2.13,5.06,0.96,-0.63,0.41,11,-2,11,1.15,6954,10,86,34,24,975,390.0,524,447,60,118.0,105,1,260,156,41,0,0,361,-1268,-19019,390,,,,,,,,,,,,
75223,1560692603312,-0,2.46,1.95,3.51,2.12,5.08,0.84,-0.49,0.3,12,0,12,0.97,6936,10,86,34,24,974,388.0,526,454,60,117.0,105,1,260,156,41,0,0,358,2790,-19126,388,,,,,,,,,,,,
75243,1560692603332,2,2.46,1.96,3.52,2.13,5.06,0.88,-0.57,0.37,13,-1,13,1.04,6878,10,86,34,25,974,387.0,515,447,60,118.0,105,1,262,156,41,0,0,357,2790,8200,387,45.700882,4.909718,37.44,198.3,0,0.0,0,0.0,0.0533,1,0.06,1.2541
75263,1560692603352,2,2.46,1.96,3.52,2.11,5.07,0.97,-0.57,0.31,13,-2,15,1.12,6880,10,86,34,25,971,385.0,519,453,60,116.0,105,1,262,159,41,0,0,356,-14707,2278,385,,,,,,,,,,,,
75283,1560692603372,0,2.45,1.97,3.52,2.12,5.07,0.79,-0.48,0.31,15,1,16,0.93,6843,10,86,34,25,970,384.0,518,446,60,118.0,105,1,262,159,41,0,0,351,-29978,742,384,,,,,,,,,,,,
75303,1560692603392,2,2.46,1.96,3.53,2.11,5.07,0.92,-0.61,0.42,14,-3,16,1.1,6778,10,86,34,26,968,383.0,517,450,60,117.0,106,1,266,160,41,0,0,350,-29978,-6656,383,,,,,,,,,,,,
75323,1560692603412,-1,2.45,1.96,3.53,2.11,5.05,0.68,-0.54,0.26,16,-0,17,0.87,6749,10,86,34,26,967,381.0,502,453,60,118.0,106,1,266,160,41,0,0,350,4104,8200,381,,,,,,,,,,,,
75343,1560692603432,3,2.45,1.96,3.53,2.11,5.03,0.82,-0.64,0.4,15,-1,17,1.03,6739,10,86,34,26,964,378.0,506,453,60,117.0,106,1,266,160,41,0,0,352,2060,742,378,45.70089,4.909724,36.54,198.2,0,0.0,0,0.0,0.055,1,0.06,1.2557
75363,1560692603452,-1,2.44,1.97,3.52,2.1,5.07,0.7,-0.53,0.29,16,0,18,0.88,6701,10,86,34,26,962,376.0,505,452,60,118.0,106,1,266,160,41,0,0,349,3302,1,376,,,,,,,,,,,,
75383,1560692603472,1,2.43,1.96,3.51,2.11,5.03,0.75,-0.56,0.33,16,-0,19,0.94,6653,11,86,34,27,961,376.0,505,453,60,117.0,106,1,271,161,41,0,0,347,28553,0,375,,,,,,,,,,,,
75403,1560692603491,4,2.44,1.96,3.52,2.1,5.04,0.73,-0.54,0.34,16,0,19,0.91,6644,11,86,34,27,961,374.0,492,450,60,118.0,106,1,271,161,40,0,0,344,28553,230,373,,,,,,,,,,,,
75423,1560692603511,-1,2.43,1.98,3.5,2.09,5.05,0.81,-0.55,0.3,17,-1,19,0.98,6651,11,86,34,28,962,371.0,494,455,60,117.0,106,1,275,163,40,0,0,346,-30454,-6458,371,,,,,,,,,,,,
75443,1560692603531,4,2.42,1.98,3.49,2.11,5.08,0.72,-0.52,0.32,17,-1,19,0.89,6620,11,86,34,28,964,370.0,502,460,60,117.0,106,1,275,163,40,0,0,345,-1246,-29302,370,45.700897,4.909731,35.94,198.2,0,0.0,0,0.0,0.0567,1,0.06,1.2574
75463,1560692603551,1,2.4,1.97,3.48,2.1,5.07,0.73,-0.43,0.19,16,1,21,0.84,6602,11,86,34,28,966,369.0,497,450,60,118.0,106,1,275,163,40,0,0,342,8841,-6458,369,,,,,,,,,,,,
75483,1560692603571,1,2.38,1.98,3.45,2.09,5.08,0.86,-0.52,0.37,15,-2,21,1.0,6555,11,86,34,28,968,366.0,500,456,60,117.0,106,1,275,163,40,0,0,342,8841,-6458,366,,,,,,,,,,,,
75503,1560692603591,5,2.36,2.0,3.43,2.08,5.07,0.76,-0.43,0.3,16,-1,21,0.87,6533,11,86,34,29,972,364.0,492,452,60,119.0,109,1,279,164,40,0,0,344,-30438,2060,361,,,,,,,,,,,,
75523,1560692603611,1,2.33,2.01,3.41,2.07,5.07,0.78,-0.4,0.23,15,0,21,0.87,6501,11,86,34,29,974,360.0,491,453,60,117.0,109,1,279,164,40,0,0,342,8841,-6640,360,,,,,,,,,,,,
75543,1560692603631,3,2.3,2.03,3.39,2.05,5.06,0.9,-0.44,0.4,13,-2,19,1.0,6499,11,86,34,29,976,356.0,493,452,60,117.0,109,1,279,164,40,0,0,344,-30438,-30454,356,45.700901,4.909738,35.04,198.2,0,0.0,0,0.0,0.0583,1,0.06,1.259
75563,1560692603651,3,2.28,2.07,3.38,2.02,5.05,0.82,-0.33,0.37,12,-0,18,0.88,6496,11,86,34,30,977,353.0,491,456,60,119.0,109,1,283,164,40,0,0,344,-30438,8841,353,,,,,,,,,,,,
75583,1560692603671,-0,2.24,2.11,3.36,2.02,5.03,0.85,-0.26,0.24,11,0,17,0.89,6465,11,86,34,30,975,351.0,494,456,60,118.0,109,1,283,166,40,0,0,346,8841,6870,349,,,,,,,,,,,,
75603,1560692603692,1,2.22,2.14,3.33,1.98,5.06,0.88,-0.23,0.34,9,-0,16,0.91,6423,11,86,34,30,974,349.0,492,453,60,117.0,114,1,283,166,40,0,0,344,2811,3327,347,,,,,,,,,,,,
75623,1560692603712,3,2.18,2.21,3.31,1.95,5.07,0.88,-0.14,0.38,7,0,14,0.9,6405,11,86,34,30,973,350.0,485,450,60,118.0,114,1,283,166,40,0,0,346,-30454,-122,344,,,,,,,,,,,,
75643,1560692603732,-1,2.16,2.25,3.25,1.93,5.04,0.86,0.06,0.3,6,1,13,0.87,6368,11,86,34,30,971,351.0,484,453,60,118.0,114,1,283,166,40,0,0,347,28553,-122,340,45.700912,4.909746,34.43,198.2,0,0.0,0,0.0,0.06,1,0.06,1.2607
75663,1560692603752,-2,2.13,2.28,3.19,1.89,5.04,0.9,0.12,0.28,4,1,12,0.91,6336,11,86,34,31,967,352.0,480,454,60,117.0,114,1,286,167,40,0,0,346,3183,175,338,,,,,,,,,,,,
75683,1560692603772,2,2.1,2.31,3.17,1.87,5.04,0.95,0.08,0.44,2,-0,9,0.95,6355,11,86,34,31,963,352.0,483,457,60,117.0,114,1,286,167,40,0,0,349,3183,-32559,335,,,,,,,,,,,,
75703,1560692603791,3,2.07,2.34,3.15,1.85,5.03,0.91,0.12,0.46,-0,1,6,0.92,6323,11,86,34,32,962,353.0,485,451,60,117.0,119,1,290,169,40,0,0,350,-6644,-22016,331,,,,,,,,,,,,
75723,1560692603811,2,2.06,2.37,3.12,1.83,5.05,0.84,0.31,0.44,-2,2,3,0.89,6308,12,86,34,32,961,354.0,482,452,60,119.0,119,1,290,169,40,0,0,348,3302,-24576,328,,,,,,,,,,,,
75743,1560692603831,1,2.02,2.39,3.11,1.82,5.03,0.87,0.41,0.36,-4,2,1,0.96,6296,12,86,34,33,958,355.0,477,446,60,119.0,119,1,292,169,40,0,0,348,2060,-27136,325,45.70092,4.909753,33.51,198.2,0,0.0,0,0.0,0.0617,1,0.07,1.2624
75763,1560692603851,-1,2.01,2.44,3.12,1.81,5.04,0.96,0.36,0.41,-7,-1,-3,1.02,6277,12,86,34,33,954,354.0,477,451,60,118.0,119,1,292,174,40,0,0,349,3302,155,322,,,,,,,,,,,,
75783,1560692603871,2,2.01,2.44,3.09,1.8,5.06,1.04,0.34,0.48,-9,-3,-7,1.09,6218,12,86,34,33,953,353.0,480,452,60,117.0,119,1,292,174,40,0,0,350,3302,125,321,,,,,,,,,,,,
75803,1560692603891,3,2.0,2.44,3.11,1.79,5.03,1.06,0.41,0.57,-11,-5,-12,1.14,6190,12,86,34,33,953,354.0,479,448,60,117.0,128,1,292,174,41,0,0,346,3302,130,317,,,,,,,,,,,,
75823,1560692603911,3,1.99,2.45,3.1,1.8,5.04,1.0,0.52,0.61,-12,-5,-14,1.13,6141,13,86,34,34,951,353.0,470,450,60,118.0,128,1,295,179,41,0,0,348,-6644,120,316,,,,,,,,,,,,
75843,1560692603931,3,1.99,2.46,3.1,1.81,5.04,0.92,0.64,0.61,-13,-5,-16,1.12,6129,13,86,34,34,950,353.0,470,452,60,119.0,128,1,295,179,41,0,0,349,-6644,-30976,314,45.700924,4.90976,33.08,198.2,0,0.0,0,0.0,0.0633,1,0.07,1.264
75863,1560692603951,5,1.98,2.45,3.09,1.79,5.07,0.83,0.71,0.58,-14,-4,-18,1.1,6089,13,86,34,35,950,352.0,470,446,60,118.0,128,1,298,185,41,0,0,346,3183,30720,312,,,,,,,,,,,,
75883,1560692603971,3,1.98,2.46,3.08,1.8,5.07,0.8,0.74,0.53,-16,-3,-21,1.09,6054,13,86,34,36,951,351.0,466,447,60,119.0,128,1,301,185,41,0,0,347,28553,29440,311,,,,,,,,,,,,
75903,1560692603991,5,1.98,2.45,3.08,1.8,5.04,0.75,0.76,0.49,-17,-3,-23,1.07,6036,13,86,34,36,950,349.0,467,451,60,119.0,138,1,301,190,43,0,0,344,2811,29440,310,,,,,,,,,,,,
75923,1560692604005,5,1.99,2.44,3.09,1.8,5.06,0.69,0.78,0.36,-18,-2,-26,1.04,6025,13,86,34,37,949,349.0,466,451,60,118.0,138,1,304,196,43,0,0,345,2811,115,308,,,,,,,,,,,,
75943,1560692604025,-1,1.98,2.44,3.09,1.79,5.06,0.69,0.78,0.23,-19,-1,-28,1.04,6019,13,86,34,37,947,349.0,464,452,60,118.0,138,1,304,196,43,0,0,344,2811,95,306,45.700932,4.909766,32.43,198.2,0,0.0,0,0.0,0.065,1,0.07,1.2657
75963,1560692604045,-1,1.98,2.44,3.09,1.79,5.05,0.66,0.77,0.14,-21,1,-30,1.02,6003,13,86,34,37,945,346.0,457,443,60,118.0,138,1,304,196,43,0,0,341,-30438,25600,307,,,,,,,,,,,,
75983,1560692604065,0,1.98,2.43,3.09,1.79,5.08,0.66,0.77,0.06,-22,1,-32,1.01,5992,13,86,34,38,943,345.0,455,448,60,118.0,138,1,306,195,43,0,0,338,-10554,25600,306,,,,,,,,,,,,
76003,1560692604085,0,1.98,2.42,3.09,1.79,5.08,0.65,0.76,-0.03,-23,3,-33,1.0,5988,13,86,34,38,939,345.0,456,447,60,119.0,149,1,306,201,46,0,0,341,6870,95,306,,,,,,,,,,,,
76023,1560692604105,-1,1.98,2.42,3.08,1.79,5.07,0.59,0.75,-0.07,-24,4,-34,0.95,5952,14,86,34,38,934,343.0,453,443,60,118.0,149,1,306,201,46,0,0,340,-14714,90,304,,,,,,,,,,,,
76043,1560692604125,3,1.99,2.42,3.08,1.8,5.05,0.52,0.76,-0.12,-24,6,-35,0.92,5946,14,86,34,39,930,342.0,448,446,60,118.0,149,1,309,207,46,0,0,337,-31206,100,303,45.700939,4.90977,31.89,198.2,0,0.0,0,0.0,0.0667,1,0.07,1.2674
76063,1560692604145,4,1.98,2.42,3.08,1.8,5.07,0.6,0.68,-0.11,-25,8,-35,0.9,5918,14,86,34,39,926,342.0,452,446,60,118.0,149,1,309,207,46,0,0,337,-31206,24320,303,,,,,,,,,,,,
76083,1560692604165,3,1.99,2.42,3.08,1.79,5.05,0.51,0.76,-0.21,-25,10,-36,0.91,5912,14,86,34,39,919,341.0,445,449,60,119.0,149,1,309,207,46,0,0,334,6668,95,301,,,,,,,,,,,,
76103,1560692604191,3,2.0,2.42,3.08,1.81,5.07,0.55,0.73,-0.25,-25,11,-36,0.92,5881,14,86,34,40,912,337.0,445,449,60,119.0,152,1,313,208,46,0,0,334,2560,23040,301,,,,,,,,,,,,
76123,1560692604211,2,2.0,2.42,3.07,1.81,5.05,0.52,0.76,-0.23,-24,13,-36,0.92,5888,14,86,34,40,909,338.0,445,453,60,118.0,152,1,313,208,46,0,0,332,-31222,85,300,,,,,,,,,,,,
76143,1560692604231,3,2.0,2.42,3.07,1.81,5.04,0.44,0.78,-0.26,-23,13,-37,0.89,5857,14,86,34,41,905,336.0,447,451,60,118.0,152,1,319,209,46,0,0,332,13,23040,299,45.700943,4.909775,31.44,198.2,0,0.0,0,0.0,0.0683,1,0.07,1.269
76163,1560692604251,3,2.0,2.42,3.08,1.83,5.05,0.37,0.8,-0.2,-22,12,-38,0.88,5828,14,86,34,41,898,334.0,450,456,60,117.0,152,1,318,211,46,0,0,330,4838,85,298,,,,,,,,,,,,
76183,1560692604271,1,2.02,2.4,3.08,1.82,5.07,0.32,0.84,-0.11,-22,8,-39,0.9,5826,14,86,34,42,891,333.0,449,462,60,117.0,152,1,322,211,46,0,0,329,-6528,80,298,,,,,,,,,,,,
76203,1560692604291,-0,2.04,2.38,3.08,1.81,5.08,0.37,0.85,0.03,-22,4,-40,0.93,5790,15,86,34,43,887,332.0,445,454,60,118.0,154,1,327,210,46,0,0,329,-32559,80,300,,,,,,,,,,,,
76223,1560692604311,-2,2.07,2.38,3.08,1.81,5.06,0.53,0.77,0.18,-23,0,-41,0.94,5779,15,86,34,43,882,332.0,439,450,60,119.0,154,1,327,212,46,0,0,328,175,21760,298,,,,,,,,,,,,
76243,1560692604331,4,2.1,2.36,3.09,1.83,5.07,0.68,0.67,0.21,-24,-1,-41,0.96,5785,15,86,34,44,876,328.0,443,442,60,118.0,154,1,332,213,46,0,0,323,170,24320,298,45.700951,4.909778,31.3,198.2,0,0.0,0,0.0,0.07,1,0.07,1.2707
76263,1560692604351,3,2.12,2.35,3.1,1.86,5.07,0.81,0.63,0.2,-25,1,-40,1.03,5799,15,86,34,44,870,325.0,443,452,60,119.0,154,1,332,213,46,0,0,322,-23296,24320,298,,,,,,,,,,,,
76283,1560692604371,1,2.15,2.34,3.11,1.88,5.06,0.77,0.62,0.21,-23,4,-39,0.99,5828,15,86,34,44,869,322.0,445,453,60,117.0,154,1,334,213,46,0,0,319,155,90,298,,,,,,,,,,,,
76303,1560692604391,2,2.19,2.32,3.13,1.89,5.08,0.63,0.61,0.21,-20,6,-39,0.88,5846,15,86,34,45,868,320.0,438,456,60,117.0,157,1,340,215,47,0,0,318,150,25600,300,,,,,,,,,,,,
76323,1560692604411,-0,2.22,2.31,3.15,1.94,5.05,0.49,0.53,0.28,-17,5,-38,0.72,5870,15,86,34,45,864,317.0,443,458,60,117.0,157,1,341,215,47,0,0,318,-28416,90,301,,,,,,,,,,,,
76343,1560692604431,2,2.24,2.29,3.21,1.97,5.05,0.38,0.49,0.37,-15,2,-37,0.62,5896,15,86,34,45,861,315.0,446,456,60,117.0,157,1,342,215,47,0,0,311,135,23040,303,45.700962,4.90978,30.79,198.3,0,0.0,0,0.0,0.0717,1,0.07,1.2724
76363,1560692604451,-1,2.29,2.27,3.26,2.0,5.06,0.39,0.44,0.53,-14,-0,-34,0.59,5892,15,86,34,45,858,312.0,443,459,60,117.0,157,1,342,215,47,0,0,312,130,110,305,,,,,,,,,,,,
76383,1560692604471,0,2.3,2.25,3.26,2.03,5.04,0.44,0.38,0.67,-14,-6,-32,0.58,5929,15,86,34,45,855,310.0,438,463,60,117.0,157,1,344,215,47,0,0,310,32000,29440,308,,,,,,,,,,,,
76403,1560692604492,0,2.34,2.23,3.27,2.03,5.07,0.56,0.29,0.75,-13,-9,-29,0.63,5920,15,86,34,45,850,309.0,436,462,60,118.0,155,1,343,215,48,0,0,307,115,115,309,,,,,,,,,,,,
76423,1560692604512,-1,2.38,2.22,3.28,2.05,5.04,0.67,0.15,0.78,-13,-12,-26,0.69,5937,15,86,34,45,844,309.0,435,461,60,118.0,155,1,344,213,48,0,0,305,110,30720,309,,,,,,,,,,,,
76443,1560692604532,-1,2.42,2.2,3.33,2.07,5.08,0.81,0.0,0.79,-11,-14,-23,0.81,5961,15,86,34,44,840,310.0,440,458,60,119.0,155,1,339,213,48,0,0,301,105,-32256,310,45.700966,4.909782,30.66,198.3,0,0.0,0,0.0,0.0733,1,0.07,1.274
76463,1560692604552,-1,2.45,2.18,3.39,2.11,5.04,0.92,-0.13,0.79,-10,-14,-19,0.93,5998,16,86,35,44,838,312.0,444,456,60,118.0,155,1,340,212,48,0,0,299,25600,-30976,312,,,,,,,,,,,,
76483,1560692604572,-0,2.49,2.15,3.42,2.12,5.04,0.99,-0.25,0.81,-8,-14,-15,1.02,6009,16,86,35,44,834,315.0,446,461,60,117.0,155,1,341,213,48,0,0,297,95,-30976,315,,,,,,,,,,,,
76503,1560692604592,1,2.55,2.13,3.44,2.15,5.06,1.08,-0.38,0.79,-6,-16,-10,1.14,6038,16,86,35,44,830,318.0,447,462,60,117.0,152,1,341,213,48,0,0,295,23040,-30976,318,,,,,,,,,,,,
76523,1560692604610,-2,2.59,2.11,3.47,2.2,5.06,1.09,-0.48,0.75,-3,-15,-6,1.19,6071,17,86,35,44,828,319.0,454,461,60,117.0,152,1,341,213,48,0,0,290,0,-30976,319,,,,,,,,,,,,
76543,1560692604630,-0,2.63,2.1,3.51,2.24,5.08,1.13,-0.62,0.75,-1,-19,-0,1.29,6103,19,86,35,45,827,320.0,460,460,60,117.0,152,1,348,214,48,0,0,291,0,-27136,320,45.700974,4.909784,29.89,198.3,0,0.0,0,0.0,0.075,1,0.07,1.2757
76563,1560692604650,-1,2.7,2.1,3.54,2.27,5.07,1.06,-0.7,0.85,3,-18,5,1.27,6017,20,86,35,46,830,323.0,454,464,60,118.0,152,1,353,214,48,0,0,299,41,150,323,,,,,,,,,,,,
76583,1560692604670,-1,2.76,2.1,3.56,2.31,5.07,1.08,-0.76,0.94,5,-19,10,1.32,5918,21,86,35,47,834,323.0,445,462,60,118.0,152,1,355,217,48,0,0,324,0,150,323,,,,,,,,,,,,
76603,1560692604690,-1,2.83,2.1,3.57,2.34,5.04,1.17,-0.83,1.0,7,-19,14,1.43,5826,21,86,35,48,839,325.0,437,460,60,118.0,147,1,352,222,48,0,0,328,-16896,160,325,,,,,,,,,,,,
76623,1560692604710,0,2.9,2.09,3.58,2.35,5.04,1.25,-0.88,0.98,8,-18,18,1.53,5808,21,86,35,49,844,324.0,437,460,60,118.0,147,1,354,227,48,0,0,306,-1529,160,324,,,,,,,,,,,,
76643,1560692604730,-0,0.33,2.08,3.6,2.34,5.06,1.31,-0.89,0.86,10,-15,22,1.59,5819,21,86,35,50,853,322.0,431,457,60,118.0,147,1,357,231,48,0,0,291,250,155,322,45.700981,4.909786,29.1,198.4,0,0.0,0,0.0,0.0767,1,0.07,1.2774
76663,1560692604750,4,0.4,2.06,3.62,2.33,5.08,1.29,-0.83,0.69,12,-11,25,1.53,5806,21,86,35,51,864,321.0,434,451,60,118.0,147,1,359,236,48,0,0,292,630,-27136,321,,,,,,,,,,,,
76683,1560692604770,3,0.43,2.05,3.63,2.34,5.06,1.14,-0.78,0.55,16,-8,27,1.38,5795,21,86,35,52,873,320.0,436,447,60,119.0,147,1,360,241,48,0,0,295,28160,-25856,319,,,,,,,,,,,,
76703,1560692604790,3,0.43,2.03,3.64,2.34,5.04,0.97,-0.75,0.42,21,-8,28,1.23,5799,22,86,35,53,880,318.0,431,452,60,117.0,166,1,363,246,53,0,0,307,250,-24576,318,,,,,,,,,,,,
76723,1560692604810,1,0.42,2.04,3.66,2.34,5.05,0.85,-0.8,0.42,25,-8,29,1.16,5826,22,86,35,54,890,317.0,430,456,60,117.0,166,1,369,252,53,0,0,310,-1,-24576,317,,,,,,,,,,,,
76743,1560692604830,-0,0.4,2.01,3.67,2.33,5.04,0.77,-0.85,0.57,28,-10,30,1.14,5874,22,86,35,54,905,319.0,430,458,60,117.0,166,1,372,253,53,0,0,310,-1,-24576,319,45.700989,4.90979,28.97,198.4,0,0.0,0,0.0,0.0783,1,0.07,1.279
76763,1560692604850,0,0.39,2.0,3.67,2.33,5.04,0.73,-0.91,0.64,30,-12,32,1.16,5929,22,86,35,54,918,320.0,435,456,60,117.0,166,1,377,254,53,0,0,300,-1,-25856,320,,,,,,,,,,,,
76783,1560692604870,1,0.4,1.97,3.68,2.33,5.06,0.77,-0.96,0.75,31,-12,34,1.23,5967,22,86,35,54,926,323.0,436,458,60,118.0,166,1,381,255,53,0,0,303,-1,-24576,323,,,,,,,,,,,,
76803,1560692604892,0,0.4,1.96,3.67,2.34,5.03,0.85,-0.98,0.87,31,-15,37,1.29,5969,22,86,35,54,934,322.0,437,458,60,118.0,176,1,381,255,57,0,0,320,-1,160,322,,,,,,,,,,,,
76823,1560692604912,0,0.4,1.96,3.67,2.33,5.04,0.9,-1.01,0.96,31,-16,39,1.36,5992,22,86,35,54,944,322.0,438,458,60,117.0,176,1,382,255,57,0,0,318,-1,150,322,,,,,,,,,,,,
76843,1560692604932,0,0.41,1.95,3.67,2.34,5.05,0.9,-0.97,1.02,32,-15,41,1.32,6032,23,86,35,54,951,322.0,440,457,60,117.0,176,1,384,256,57,0,0,324,-1,-23296,322,45.700996,4.909794,28.44,198.4,0,0.0,0,0.0,0.08,1,0.07,1.2807
76863,1560692604952,0,0.4,1.95,3.67,2.36,5.03,0.9,-0.94,1.09,32,-17,44,1.3,6062,23,86,35,54,954,321.0,447,458,60,117.0,176,1,384,256,57,0,0,341,-1,155,321,,,,,,,,,,,,
76883,1560692604972,1,0.41,1.97,3.66,2.4,5.04,0.91,-0.99,1.14,32,-16,46,1.35,6125,24,86,35,54,957,321.0,452,458,60,117.0,176,1,384,256,57,0,0,316,-1,-29696,321,,,,,,,,,,,,
76903,1560692604992,1,0.41,2.0,3.65,2.4,5.07,0.89,-1.09,1.22,33,-18,47,1.41,6127,25,86,35,55,962,319.0,452,456,60,117.0,184,1,384,256,59,0,0,306,-1,150,319,,,,,,,,,,,,
76923,1560692605006,2,0.39,1.99,3.65,2.38,5.04,0.85,-1.13,1.3,35,-19,48,1.42,6034,26,86,35,56,966,321.0,450,457,60,116.0,184,1,384,254,59,0,0,329,-1,165,321,,,,,,,,,,,,
76943,1560692605026,0,0.38,1.96,3.65,2.4,5.06,0.83,-1.13,1.37,37,-19,49,1.4,5967,27,86,35,56,969,325.0,398,452,60,117.0,184,1,381,253,59,0,0,350,-1,-25856,324,45.701004,4.909799,28.21,198.4,0,0.0,0,0.0,0.0817,1,0.08,1.2824
76963,1560692605046,3,0.36,1.93,3.65,2.4,5.07,0.79,-1.19,1.43,38,-19,50,1.42,5988,29,86,35,58,974,326.0,315,451,60,117.0,184,1,381,251,59,0,0,351,-1,-27136,326,,,,,,,,,,,,
76983,1560692605066,2,0.35,1.92,3.65,2.4,5.07,0.74,-1.23,1.48,39,-19,50,1.43,6077,33,86,35,59,984,324.0,301,448,60,117.0,184,1,384,251,59,0,0,319,-1,145,324,,,,,,,,,,,,
77003,1560692605092,2,0.33,1.92,3.64,2.4,5.04,0.71,-1.28,1.49,40,-19,50,1.47,6091,37,86,35,61,994,325.0,316,455,60,117.0,179,1,384,250,58,0,0,289,-1,165,325,,,,,,,,,,,,
77023,1560692605112,2,2.9,1.92,3.64,2.4,5.07,0.62,-1.25,1.48,42,-18,51,1.39,5969,40,86,35,64,1003,328.0,337,451,60,118.0,179,1,369,272,58,0,0,326,-1,-25856,328,,,,,,,,,,,,
77043,1560692605132,1,2.85,1.93,3.65,2.41,5.03,0.46,-1.17,1.46,43,-18,51,1.26,5881,43,86,35,67,1012,328.0,308,452,60,118.0,179,1,352,298,58,0,0,349,-1,155,328,45.701008,4.909805,28.72,198.4,0,0.0,0,0.0,0.0833,1,0.08,1.284
77063,1560692605152,1,2.8,1.94,3.65,2.41,5.07,0.4,-1.15,1.48,45,-20,49,1.22,5815,45,86,35,70,1029,328.0,328,452,60,117.0,179,1,342,334,58,0,0,325,-1,150,328,,,,,,,,,,,,
77083,1560692605172,-1,2.73,1.95,3.66,2.41,5.05,0.46,-1.16,1.52,45,-23,49,1.25,5850,46,86,35,73,1046,327.0,353,460,60,117.0,179,1,341,377,58,0,0,295,-1,-27136,327,,,,,,,,,,,,
77103,1560692605192,-1,2.65,1.96,3.67,2.39,5.06,0.62,-1.15,1.56,43,-23,49,1.31,5881,47,86,35,75,1054,327.0,338,455,60,117.0,262,1,342,408,86,0,0,297,-1,-24576,327,,,,,,,,,,,,
77123,1560692605212,-1,2.59,2.01,3.63,2.38,5.05,0.76,-1.12,1.56,40,-24,50,1.36,5969,48,86,35,77,1063,326.0,350,455,60,117.0,262,1,346,429,86,0,0,297,-1,145,326,,,,,,,,,,,,
77143,1560692605232,0,2.53,2.09,3.52,2.34,5.04,0.86,-1.14,1.53,37,-23,50,1.42,6075,49,86,35,78,1091,322.0,378,456,60,117.0,262,1,349,443,86,0,0,289,-1534,-27136,322,45.701012,4.909812,28.31,198.5,0,0.0,0,0.0,0.085,1,0.08,1.2857
77163,1560692605252,-1,2.49,2.21,3.4,2.33,5.08,0.97,-1.1,1.55,34,-23,48,1.47,6067,49,86,35,79,1119,318.0,397,455,60,116.0,262,1,348,449,86,0,0,308,-16896,-29696,318,,,,,,,,,,,,
77183,1560692605272,-0,2.45,2.28,3.31,2.33,5.07,1.0,-1.08,1.52,31,-23,46,1.47,6077,49,86,35,79,1139,316.0,410,452,60,117.0,262,1,348,449,86,0,0,319,20480,145,316,,,,,,,,,,,,
77203,1560692605292,-0,2.42,2.35,3.22,2.33,5.07,0.95,-1.01,1.5,29,-21,43,1.38,6028,50,86,35,80,1159,316.0,415,452,60,116.0,325,1,346,454,103,0,0,323,90,145,316,,,,,,,,,,,,
77223,1560692605312,2,2.37,2.42,3.16,2.32,5.07,0.92,-0.87,1.46,26,-20,41,1.27,6003,50,86,35,80,1204,315.0,419,451,60,116.0,325,1,346,460,103,0,0,317,29440,170,318,,,,,,,,,,,,
77243,1560692605332,-0,2.34,2.46,3.13,2.3,5.07,0.91,-0.79,1.44,23,-19,39,1.2,5986,50,86,35,81,1252,320.0,421,450,60,116.0,325,1,344,459,103,0,0,322,32000,160,320,45.701019,4.909821,28.5,198.5,0,0.0,0,0.0,0.0867,1,0.08,1.2874
77263,1560692605352,2,2.31,2.51,3.08,2.28,5.07,0.92,-0.72,1.4,21,-19,36,1.17,6009,50,86,35,81,1284,320.0,423,452,60,117.0,325,1,345,460,103,0,0,325,-30976,170,322,,,,,,,,,,,,
77283,1560692605372,2,2.27,2.56,3.08,2.28,5.06,0.91,-0.65,1.36,19,-19,34,1.12,6050,50,86,35,81,1311,322.0,427,453,60,116.0,325,1,346,461,103,0,0,331,-27136,165,322,,,,,,,,,,,,
77303,1560692605392,3,2.25,2.57,3.08,2.28,5.05,0.86,-0.6,1.29,17,-17,30,1.05,6105,50,86,35,81,1313,322.0,432,455,60,117.0,329,1,348,461,106,0,0,331,-25856,-20736,323,,,,,,,,,,,,
77323,1560692605412,4,2.24,2.56,3.09,2.28,5.04,0.87,-0.5,1.24,15,-15,27,1.0,6208,50,86,35,81,1308,326.0,438,449,60,116.0,329,1,352,464,106,0,0,335,165,170,324,,,,,,,,,,,,
77343,1560692605432,4,2.24,2.55,3.09,2.27,5.04,0.83,-0.35,1.16,14,-13,25,0.9,6260,50,86,35,81,1283,329.0,445,447,60,118.0,329,1,354,464,106,0,0,339,-20736,-20736,326,45.701023,4.90983,29.92,198.5,0,0.0,0,0.0,0.0883,1,0.08,1.289
77363,1560692605452,1,2.24,2.54,3.1,2.26,5.05,0.75,-0.27,1.09,12,-11,22,0.8,6298,50,86,35,81,1250,333.0,448,456,60,118.0,329,1,355,464,106,0,0,341,-6528,13,329,,,,,,,,,,,,
77383,1560692605472,-2,2.25,2.51,3.1,2.26,5.04,0.74,-0.29,1.02,11,-7,20,0.8,6390,51,86,35,81,1211,337.0,455,455,60,117.0,329,1,358,466,106,0,0,344,2560,-14714,331,,,,,,,,,,,,
77403,1560692605492,2,2.25,2.5,3.1,2.25,5.08,0.73,-0.27,1.12,9,-8,17,0.78,6514,51,86,35,81,1171,339.0,457,452,60,118.0,341,1,362,474,113,0,0,344,-122,-14714,334,,,,,,,,,,,,
77423,1560692605512,-2,2.26,2.49,3.08,2.25,5.07,0.73,-0.21,1.02,8,-8,15,0.76,6560,51,86,35,81,1149,342.0,461,451,60,118.0,341,1,364,469,113,0,0,347,-31206,8841,337,,,,,,,,,,,,
77443,1560692605532,2,2.26,2.49,3.07,2.25,5.08,0.67,-0.21,1.01,8,-6,13,0.7,6648,52,86,35,82,1141,343.0,463,451,60,117.0,341,1,365,476,113,0,0,354,-14714,28553,340,45.701027,4.909839,31.19,198.5,0,0.0,0,0.0,0.09,1,0.08,1.2907
77463,1560692605552,6,2.26,2.49,3.08,2.26,5.04,0.69,-0.15,1.08,7,-7,10,0.71,6674,52,86,35,81,1134,346.0,468,459,60,118.0,341,1,368,471,113,0,0,356,-30438,-29302,344,,,,,,,,,,,,
77483,1560692605572,1,2.28,2.48,3.08,2.26,5.03,0.63,-0.17,1.02,6,-7,8,0.65,6742,52,86,35,82,1127,350.0,472,456,60,118.0,341,1,369,472,113,0,0,362,-30454,2060,347,,,,,,,,,,,,
77503,1560692605591,5,2.27,2.47,3.08,2.27,5.06,0.67,-0.08,1.05,5,-8,5,0.67,6833,52,86,35,81,1125,350.0,480,453,60,118.0,354,1,373,480,123,0,0,365,3302,-14707,350,,,,,,,,,,,,
77523,1560692605611,2,2.27,2.47,3.09,2.28,5.07,0.64,-0.14,0.99,5,-6,4,0.65,6883,53,86,35,82,1125,357.0,483,458,60,117.0,354,1,374,481,123,0,0,368,-6640,486,355,,,,,,,,,,,,
77543,1560692605631,-2,2.28,2.47,3.09,2.33,5.05,0.59,0.02,0.89,5,-4,4,0.59,6952,53,86,35,81,1119,360.0,482,453,60,118.0,354,1,377,475,123,0,0,371,-29978,486,360,45.701031,4.909849,32.06,198.5,0,0.0,0,0.0,0.0917,1,0.08,1.2924
77563,1560692605651,4,2.26,2.48,3.09,2.33,5.07,0.72,-0.02,0.96,3,-5,5,0.72,7043,53,86,35,81,1107,364.0,497,460,60,117.0,354,1,381,476,123,0,0,371,-1268,742,362,,,,,,,,,,,,
77583,1560692605671,3,2.27,2.47,3.09,2.33,5.03,0.62,-0.0,0.84,4,-2,6,0.62,7096,53,86,35,80,1094,366.0,497,452,60,117.0,354,1,384,470,123,0,0,377,230,-18948,366,,,,,,,,,,,,
77603,1560692605691,2,2.26,2.48,3.09,2.32,5.04,0.55,0.06,0.8,3,-2,6,0.56,7137,53,86,35,81,1082,371.0,498,453,60,118.0,349,1,387,477,128,0,0,385,257,-18948,369,,,,,,,,,,,,
77623,1560692605711,-1,2.27,2.48,3.09,2.3,5.06,0.7,0.08,0.91,1,-4,4,0.71,7239,53,86,35,80,1058,375.0,512,454,60,118.0,349,1,393,471,128,0,0,386,770,-1562,373,,,,,,,,,,,,
77643,1560692605731,14,2.27,2.48,3.1,2.31,5.06,0.72,-0.0,1.01,1,-4,3,0.72,7312,54,86,35,79,1020,378.0,512,450,60,118.0,349,1,398,472,128,0,0,391,2278,505,377,45.701038,4.909858,33.94,198.6,0,0.0,0,0.0,0.0933,1,0.08,1.294
77663,1560692605751,4,2.26,2.48,3.09,2.3,5.04,0.66,-0.08,1.09,2,-3,3,0.66,7416,54,86,35,79,985,381.0,522,457,60,117.0,349,1,404,465,128,0,0,397,-18948,17144,379,,,,,,,,,,,,
77683,1560692605771,4,2.27,2.48,3.09,2.3,5.07,0.63,-0.15,1.14,2,-4,1,0.65,7479,54,86,34,78,959,387.0,526,451,60,118.0,349,1,408,461,128,0,0,403,240,11545,385,,,,,,,,,,,,
77703,1560692605791,5,2.26,2.48,3.1,2.32,5.03,0.59,-0.17,1.22,2,-4,1,0.61,7572,54,86,34,77,933,389.0,534,451,60,118.0,337,1,413,461,131,0,0,405,-31744,28696,389,,,,,,,,,,,,
77723,1560692605811,-0,2.26,2.48,3.1,2.34,5.03,0.58,-0.24,1.23,2,-3,0,0.63,7625,54,86,34,77,904,393.0,535,452,60,118.0,337,1,416,454,131,0,0,411,-6656,13040,392,,,,,,,,,,,,
77743,1560692605831,-1,2.27,2.49,3.11,2.32,5.05,0.58,-0.31,1.28,1,-2,0,0.66,7741,54,86,34,77,882,400.0,534,452,60,118.0,337,1,423,446,131,0,0,411,6512,13040,397,45.701042,4.909869,35.66,198.5,0,0.0,0,0.0,0.095,1,0.08,1.2957
77763,1560692605851,2,2.26,2.5,3.1,2.31,5.05,0.67,-0.29,1.33,1,-4,0,0.73,7809,54,86,34,76,880,403.0,537,451,60,117.0,337,1,427,435,131,0,0,420,-8151,-4059,400,,,,,,,,,,,,
77783,1560692605871,2,2.28,2.5,3.09,2.31,5.07,0.62,-0.25,1.31,1,-4,-1,0.67,7938,54,86,34,75,875,407.0,552,458,60,117.0,337,1,435,435,131,0,0,423,2524,-21792,405,,,,,,,,,,,,
77803,1560692605891,5,2.28,2.51,3.09,2.31,5.07,0.62,-0.24,1.19,1,-4,-1,0.66,8036,54,86,34,73,862,410.0,553,457,60,117.0,315,1,443,416,128,0,0,425,9517,31796,410,,,,,,,,,,,,
77823,1560692605911,1,2.29,2.51,3.08,2.32,5.07,0.63,-0.34,1.25,1,-5,-2,0.72,8081,54,86,34,71,849,415.0,556,450,60,117.0,315,1,444,397,128,0,0,433,-26615,-3322,415,,,,,,,,,,,,
77843,1560692605931,2,2.3,2.51,3.1,2.32,5.05,0.57,-0.27,1.21,1,-4,-3,0.63,8145,54,86,34,71,837,420.0,577,456,60,117.0,315,1,442,389,128,0,0,442,7154,23400,420,45.701046,4.90988,37.5,198.5,0,0.0,0,0.0,0.0967,1,0.08,1.2974
77863,1560692605951,2,2.3,2.5,3.12,2.32,5.07,0.63,-0.3,1.13,-0,-5,-3,0.7,8256,54,86,34,69,826,424.0,572,447,60,117.0,315,1,440,381,128,0,0,444,-3856,21432,424,,,,,,,,,,,,
77883,1560692605971,3,2.31,2.51,3.1,2.33,5.06,0.58,-0.21,1.07,0,-4,-2,0.62,8355,55,86,34,68,812,429.0,581,452,60,117.0,315,1,438,375,128,0,0,445,3635,-28332,427,,,,,,,,,,,,
77903,1560692605991,1,2.31,2.53,3.08,2.32,5.06,0.6,-0.22,1.02,0,-4,-3,0.64,8385,55,86,34,66,798,433.0,587,457,60,118.0,274,1,440,363,118,0,0,446,243,3571,431,,,,,,,,,,,,
77923,1560692606007,1,2.3,2.55,3.09,2.33,5.05,0.52,-0.13,1.07,1,-5,-1,0.53,8442,55,86,34,65,796,437.0,597,460,60,118.0,274,1,441,365,118,0,0,455,5600,-8985,437,,,,,,,,,,,,
77943,1560692606027,3,2.31,2.52,3.1,2.33,5.07,0.48,-0.07,1.05,2,-3,-2,0.49,8503,55,86,34,65,793,443.0,591,450,60,117.0,274,1,438,361,118,0,0,464,20625,-23623,446,45.70105,4.909891,39.54,198.5,0,0.0,0,0.0,0.0983,1,0.08,1.299
77963,1560692606047,2,2.32,2.5,3.13,2.34,5.08,0.54,-0.16,1.14,1,-4,-1,0.56,8596,55,86,34,64,808,446.0,592,449,60,117.0,274,1,434,356,118,0,0,461,2131,16408,446,,,,,,,,,,,,
77983,1560692606067,-0,2.32,2.5,3.14,2.33,5.05,0.6,-0.16,1.18,1,-4,-1,0.62,8716,55,86,34,63,822,451.0,598,453,60,117.0,274,1,425,357,118,0,0,463,10305,243,452,,,,,,,,,,,,
78003,1560692606087,1,2.33,2.49,3.14,2.34,5.07,0.47,-0.11,1.04,2,-4,0,0.48,8782,55,86,34,64,838,455.0,608,456,60,118.0,256,1,419,358,116,0,0,464,3571,8488,455,,,,,,,,,,,,
78023,1560692606109,4,2.33,2.5,3.12,2.35,5.04,0.42,0.03,0.9,2,-3,1,0.42,8882,55,86,34,62,855,459.0,612,449,60,116.0,256,1,409,350,116,0,0,476,-26615,8488,459,,,,,,,,,,,,
78043,1560692606129,2,2.35,2.5,3.14,2.36,5.06,0.3,0.05,0.96,3,-3,1,0.3,8928,56,86,34,63,887,463.0,611,453,60,117.0,256,1,407,355,116,0,0,475,17628,-1818,463,45.701057,4.909903,41.69,198.6,0,0.0,0,0.0,0.1,1,0.09,1.3007
78063,1560692606149,5,2.35,2.49,3.14,2.36,5.06,0.36,-0.0,0.96,4,-2,2,0.36,8992,56,86,34,62,919,470.0,618,446,60,117.0,256,1,399,355,116,0,0,484,-23623,-1562,470,,,,,,,,,,,,
78083,1560692606169,6,2.35,2.47,3.16,2.38,5.06,0.32,-0.04,1.04,4,-3,2,0.32,9044,56,86,34,63,939,471.0,615,452,60,117.0,256,1,401,352,116,0,0,487,-23623,3580,471,,,,,,,,,,,,
78103,1560692606191,5,2.37,2.45,3.18,2.39,5.07,0.34,-0.08,0.99,4,-2,3,0.35,9128,56,86,34,63,955,476.0,620,451,60,117.0,256,1,403,357,122,0,0,485,243,1,476,,,,,,,,,,,,
78123,1560692606211,8,2.38,2.45,3.18,2.42,5.04,0.19,-0.14,1.01,5,-0,3,0.24,9191,56,86,34,62,985,480.0,626,450,60,117.0,256,1,403,352,122,0,0,492,-16384,248,481,,,,,,,,,,,,
78143,1560692606231,2,2.38,2.44,3.19,2.4,5.06,0.22,-0.03,0.9,6,-0,4,0.22,9263,56,86,34,62,1016,484.0,630,444,60,117.0,256,1,406,352,122,0,0,487,3576,771,484,45.701061,4.909916,43.73,198.6,0,0.0,0,0.0,0.1017,1,0.09,1.3024
78163,1560692606251,2,2.38,2.41,3.23,2.4,5.08,0.03,0.05,0.88,7,1,6,0.06,9323,56,86,34,62,1037,487.0,622,459,60,117.0,256,1,408,352,122,0,0,502,-9203,-32248,487,,,,,,,,,,,,
78183,1560692606271,5,2.4,2.4,3.24,2.41,5.05,0.22,0.07,0.93,7,-0,7,0.23,9417,56,86,34,62,1053,496.0,622,454,60,117.0,256,1,410,352,122,0,0,499,16648,-22519,496,,,,,,,,,,,,
78203,1560692606291,4,2.39,2.4,3.24,2.42,5.05,0.36,-0.1,1.03,7,-3,7,0.37,9493,56,86,34,61,1071,497.0,631,448,60,117.0,254,1,413,348,126,0,0,509,10305,17136,497,,,,,,,,,,,,
78223,1560692606311,3,2.39,2.39,3.25,2.44,5.07,0.33,-0.28,1.08,8,-0,6,0.43,9576,56,86,34,61,1089,499.0,621,455,60,117.0,254,1,414,352,126,0,0,513,-10483,-3856,501,,,,,,,,,,,,
78243,1560692606331,3,2.4,2.39,3.28,2.44,5.04,0.22,-0.3,1.06,9,-1,7,0.37,9694,56,86,34,60,1096,503.0,628,457,60,117.0,254,1,411,353,126,0,0,521,-6441,-14,506,45.701069,4.90993,45.77,198.6,0,0.0,0,0.0,0.1033,1,0.09,1.304
78263,1560692606351,0,2.4,2.4,3.26,2.47,5.04,0.26,-0.37,1.11,9,2,7,0.45,9760,56,86,34,60,1097,505.0,626,452,60,117.0,254,1,410,356,126,0,0,517,1,-8187,505,,,,,,,,,,,,
78283,1560692606371,3,2.4,2.4,3.26,2.46,5.08,0.29,-0.35,1.14,10,-1,9,0.45,9765,56,86,34,60,1092,510.0,627,451,60,117.0,254,1,410,358,126,0,0,517,998,2088,513,,,,,,,,,,,,
78303,1560692606391,2,2.39,2.4,3.26,2.46,5.07,0.31,-0.31,1.13,10,-2,9,0.44,9780,56,86,34,60,1083,516.0,632,456,60,117.0,259,1,410,357,133,0,0,530,3,-9212,516,,,,,,,,,,,,
78323,1560692606409,3,2.4,2.39,3.26,2.47,5.04,0.34,-0.25,1.11,10,1,9,0.42,9858,56,86,34,60,1073,518.0,632,458,60,117.0,259,1,409,358,133,0,0,530,10408,-28648,518,,,,,,,,,,,,
78343,1560692606429,1,2.39,2.38,3.27,2.46,5.07,0.45,-0.29,1.09,10,-3,10,0.54,9915,56,86,34,59,1063,524.0,633,451,60,117.0,259,1,407,356,133,0,0,527,-32248,2104,524,45.701076,4.909945,47.3,198.6,0,0.0,0,0.0,0.105,1,0.09,1.3057
78363,1560692606449,0,2.4,2.37,3.3,2.45,5.06,0.46,-0.37,1.18,10,-2,11,0.59,9973,56,86,34,59,1051,527.0,642,452,60,117.0,259,1,407,358,133,0,0,536,6274,-32248,527,,,,,,,,,,,,
78383,1560692606469,4,2.4,2.37,3.3,2.47,5.03,0.52,-0.32,1.11,10,-1,11,0.61,10096,56,86,33,59,1037,529.0,631,457,60,116.0,259,1,411,359,133,0,0,532,-3856,-3082,530,,,,,,,,,,,,
78403,1560692606493,2,2.41,2.37,3.3,2.46,5.07,0.54,-0.33,1.03,10,-3,13,0.64,10162,56,86,33,59,1028,533.0,635,453,60,117.0,258,1,415,362,137,0,0,539,-3482,6274,534,,,,,,,,,,,,
78423,1560692606513,1,2.4,2.36,3.31,2.46,5.05,0.58,-0.4,1.05,11,-1,15,0.71,10179,56,86,33,59,1024,537.0,637,455,60,117.0,258,1,416,362,137,0,0,548,16383,-3082,538,,,,,,,,,,,,
78443,1560692606533,3,2.39,2.36,3.3,2.47,5.05,0.59,-0.4,1.14,11,1,15,0.71,10273,56,86,33,60,1020,541.0,626,453,60,117.0,258,1,426,373,137,0,0,547,15679,-8962,541,45.70108,4.90996,48.66,198.6,0,0.0,0,0.0,0.1067,1,0.09,1.3074
78463,1560692606553,0,2.4,2.36,3.29,2.46,5.08,0.59,-0.41,1.2,11,-3,17,0.72,10285,56,86,33,60,1016,542.0,645,450,60,117.0,258,1,427,373,137,0,0,544,2524,2104,542,,,,,,,,,,,,
78483,1560692606573,5,2.4,2.36,3.28,2.46,5.07,0.57,-0.46,1.22,12,-2,17,0.73,10376,56,86,33,60,1013,543.0,636,453,60,117.0,258,1,433,375,137,0,0,549,-22519,-22359,543,,,,,,,,,,,,
78503,1560692606592,5,2.4,2.36,3.29,2.47,5.04,0.61,-0.47,1.26,12,-1,16,0.77,10364,56,86,33,60,1014,549.0,643,453,60,116.0,268,1,432,376,146,0,0,555,-9072,-22359,549,,,,,,,,,,,,
78523,1560692606612,1,2.39,2.36,3.3,2.46,5.06,0.64,-0.46,1.23,12,-0,15,0.78,10405,56,86,33,61,1011,552.0,642,457,60,119.0,268,1,443,376,146,0,0,560,14504,-22359,550,,,,,,,,,,,,
78543,1560692606632,0,2.39,2.36,3.31,2.45,5.04,0.64,-0.45,1.22,12,-3,15,0.78,10005,56,86,33,62,1005,554.0,645,454,60,119.0,268,1,407,384,146,0,0,557,-32248,-22263,554,45.701088,4.909976,50.5,198.6,0,0.0,0,0.0,0.1083,1,0.09,1.309
78563,1560692606652,-2,2.39,2.33,3.31,2.44,5.06,0.7,-0.55,1.1,12,-3,15,0.89,9615,56,86,33,64,1000,556.0,646,456,60,118.0,268,1,413,377,146,0,0,539,-2934,-28648,556,,,,,,,,,,,,
78583,1560692606672,0,2.4,2.29,3.36,2.42,5.04,0.71,-0.56,1.04,13,-3,15,0.9,9422,56,86,33,65,993,558.0,643,458,60,119.0,268,1,413,366,146,0,0,533,-28648,-22359,555,,,,,,,,,,,,
78603,1560692606692,-0,2.4,2.26,3.38,2.4,5.08,0.48,-0.47,0.95,14,-2,16,0.67,9222,56,86,33,65,987,557.0,637,452,60,116.0,234,1,409,366,130,0,0,535,-32248,-22263,557,,,,,,,,,,,,
78623,1560692606710,4,2.39,2.24,3.43,2.39,5.05,0.46,-0.4,0.79,14,-1,16,0.61,9023,56,86,33,66,980,557.0,623,458,60,119.0,234,1,408,657,130,0,0,530,6274,2216,557,,,,,,,,,,,,
78643,1560692606730,3,2.39,2.23,3.47,2.4,5.04,0.42,-0.44,0.83,15,0,15,0.61,8664,57,86,33,67,973,562.0,618,449,60,117.0,234,1,427,606,130,0,0,554,-32248,-8188,562,45.701096,4.909993,52.87,198.6,0,0.0,0,0.0,0.11,1,0.09,1.3107
78663,1560692606750,5,2.39,2.23,3.43,2.41,5.07,0.48,-0.44,0.72,16,1,15,0.65,8088,57,86,33,69,970,564.0,588,460,60,117.0,234,1,446,552,130,0,0,628,-2934,6273,564,,,,,,,,,,,,
78683,1560692606770,-0,2.4,2.27,3.35,2.48,5.04,0.41,-0.46,0.85,16,3,16,0.62,7968,57,86,33,69,987,569.0,562,449,60,117.0,234,1,447,490,130,0,0,630,-8186,208,569,,,,,,,,,,,,
78703,1560692606792,3,2.39,2.31,3.3,2.52,5.05,0.51,-0.58,0.96,16,3,16,0.77,7965,57,86,33,71,1070,569.0,553,452,60,117.0,256,1,443,456,146,0,0,560,-3082,-12040,570,,,,,,,,,,,,
78723,1560692606812,3,2.39,2.3,3.28,2.52,5.07,0.58,-0.65,0.95,15,1,16,0.88,7901,57,86,33,72,1154,574.0,562,454,60,117.0,256,1,438,405,146,0,0,570,2524,-32504,574,,,,,,,,,,,,
78743,1560692606832,8,2.39,2.29,3.29,2.5,5.05,0.54,-0.67,0.85,15,1,17,0.86,7868,57,86,33,73,1238,575.0,562,451,60,118.0,256,1,435,413,146,0,0,585,-22359,6273,579,45.701099,4.91001,53.33,198.6,0,0.0,0,0.0,0.1117,1,0.09,1.3124
78763,1560692606852,1,2.38,2.3,3.3,2.5,5.05,0.6,-0.73,0.91,14,-1,16,0.95,7848,58,86,33,74,1315,578.0,555,455,60,117.0,256,1,432,424,146,0,0,587,2216,-1894,578,,,,,,,,,,,,
78783,1560692606872,3,2.38,2.3,3.33,2.5,5.04,0.69,-0.76,1.01,14,-2,15,1.03,7961,58,86,33,75,1336,582.0,557,454,60,117.0,256,1,437,435,146,0,0,592,-18032,-13043,582,,,,,,,,,,,,
78803,1560692606893,3,2.39,2.3,3.37,2.49,5.05,0.65,-0.77,0.96,14,-2,16,1.01,8123,58,86,33,74,1357,583.0,571,451,60,118.0,227,1,439,428,132,0,0,598,12552,-16179,583,,,,,,,,,,,,
78823,1560692606913,2,2.39,2.3,3.4,2.49,5.04,0.7,-0.83,1.05,14,-5,15,1.08,8216,58,86,33,72,1292,587.0,573,451,60,117.0,227,1,438,410,132,0,0,600,1780,243,588,,,,,,,,,,,,
78843,1560692606933,4,2.39,2.29,3.39,2.48,5.07,0.63,-0.87,0.99,13,-4,14,1.07,8245,58,86,33,71,1227,590.0,583,461,60,117.0,227,1,439,401,132,0,0,608,1760,-3210,590,45.701103,4.910028,54.43,198.7,0,0.0,0,0.0,0.1133,1,0.1,1.314
78863,1560692606953,2,2.38,2.3,3.39,2.47,5.04,0.69,-0.78,1.01,13,-5,14,1.04,8322,58,86,33,70,1138,595.0,581,452,60,117.0,227,1,437,393,132,0,0,614,1760,-28304,594,,,,,,,,,,,,
78883,1560692606973,3,2.39,2.3,3.37,2.48,5.05,0.62,-0.71,0.88,13,-4,16,0.94,8385,58,86,33,69,1049,598.0,587,454,60,118.0,227,1,436,395,132,0,0,610,774,16529,598,,,,,,,,,,,,
78903,1560692606993,2,2.39,2.3,3.32,2.47,5.07,0.59,-0.67,0.91,14,-1,16,0.9,8337,58,86,33,69,1017,601.0,582,453,60,117.0,201,1,437,375,121,0,0,609,8488,-28304,601,,,,,,,,,,,,
78923,1560692607006,0,2.39,2.3,3.32,2.47,5.05,0.54,-0.58,0.89,15,-2,16,0.8,8278,58,86,33,69,994,605.0,597,457,60,118.0,201,1,439,382,121,0,0,618,8488,19320,605,,,,,,,,,,,,
78943,1560692607026,4,2.37,2.3,3.32,2.47,5.07,0.49,-0.62,0.82,15,-1,15,0.79,8340,58,86,33,69,985,608.0,589,455,60,116.0,201,1,438,383,121,0,0,617,2048,3403,608,45.701107,4.910047,56.04,198.7,0,0.0,0,0.0,0.115,1,0.1,1.3157
78963,1560692607046,1,2.36,2.3,3.32,2.47,5.05,0.57,-0.64,0.93,14,-1,15,0.86,8411,58,86,33,68,976,609.0,592,452,60,118.0,201,1,436,377,121,0,0,611,-28648,-18357,609,,,,,,,,,,,,
78983,1560692607066,4,2.36,2.3,3.33,2.47,5.07,0.54,-0.58,0.87,13,-1,15,0.8,8445,58,86,33,68,985,613.0,593,445,60,117.0,201,1,434,370,121,0,0,619,-28648,269,612,,,,,,,,,,,,
79003,1560692607086,2,2.36,2.3,3.32,2.47,5.06,0.62,-0.56,0.98,13,-2,14,0.83,8442,58,86,33,67,1000,612.0,597,452,60,117.0,196,1,437,371,120,0,0,623,30227,3,612,,,,,,,,,,,,
79023,1560692607110,1,2.35,2.3,3.32,2.46,5.03,0.73,-0.58,1.08,13,-2,13,0.93,8507,58,86,33,67,1020,617.0,610,453,60,117.0,196,1,434,373,120,0,0,621,23619,-5120,617,,,,,,,,,,,,
79043,1560692607130,2,2.36,2.3,3.32,2.46,5.07,0.65,-0.58,1.04,13,-2,12,0.87,8553,58,86,33,67,1043,620.0,608,450,60,117.0,196,1,432,368,120,0,0,633,5344,966,619,45.701111,4.910067,57.6,198.7,0,0.0,0,0.0,0.1167,1,0.1,1.3174
79063,1560692607150,4,2.35,2.3,3.32,2.45,5.04,0.62,-0.57,0.97,12,-3,12,0.84,8585,58,86,33,66,1054,623.0,600,457,60,117.0,196,1,432,368,120,0,0,632,17740,-2580,622,,,,,,,,,,,,
79083,1560692607170,2,2.35,2.3,3.34,2.44,5.06,0.69,-0.6,1.02,12,-2,12,0.92,8656,58,86,33,66,1062,625.0,601,452,60,118.0,196,1,429,368,120,0,0,636,19621,-2580,625,,,,,,,,,,,,
79103,1560692607192,0,2.35,2.3,3.31,2.44,5.07,0.66,-0.58,1.03,12,-2,13,0.88,8696,58,86,33,65,1080,626.0,608,457,60,118.0,193,1,426,363,121,0,0,630,1010,-3584,626,,,,,,,,,,,,
79123,1560692607212,3,2.35,2.3,3.32,2.44,5.07,0.62,-0.52,0.93,12,-0,13,0.81,8745,58,86,33,65,1102,630.0,607,450,60,117.0,193,1,422,363,121,0,0,643,16529,6208,630,,,,,,,,,,,,
79143,1560692607232,6,2.35,2.34,3.31,2.45,5.04,0.5,-0.51,0.95,11,-0,13,0.72,8753,58,86,33,65,1120,632.0,608,451,60,117.0,193,1,422,363,121,0,0,641,30721,24,632,45.701115,4.910087,59.25,198.7,0,0.0,0,0.0,0.1183,1,0.1,1.3191
79163,1560692607252,4,2.36,2.31,3.3,2.44,5.07,0.58,-0.48,0.89,11,-2,12,0.75,8778,58,86,33,65,1135,635.0,613,448,60,117.0,193,1,420,363,121,0,0,648,17336,24583,635,,,,,,,,,,,,
79183,1560692607272,3,2.36,2.32,3.29,2.44,5.03,0.69,-0.52,0.96,11,-1,11,0.86,8769,58,86,33,65,1151,640.0,611,449,60,117.0,193,1,421,363,121,0,0,652,-16883,11776,639,,,,,,,,,,,,
79203,1560692607292,0,2.36,2.31,3.3,2.44,5.08,0.77,-0.65,1.06,11,-3,11,1.01,8806,57,86,33,64,1168,642.0,618,460,60,117.0,189,1,418,364,121,0,0,649,-1346,-8429,642,,,,,,,,,,,,
79223,1560692607312,0,2.35,2.3,3.29,2.44,5.04,0.83,-0.65,1.05,11,-2,10,1.05,8869,57,86,33,64,1178,643.0,618,463,60,117.0,189,1,413,360,121,0,0,659,-14655,-2830,646,,,,,,,,,,,,
79243,1560692607332,1,2.35,2.31,3.31,2.44,5.08,0.74,-0.61,1.0,11,-1,10,0.96,8915,57,86,33,64,1181,645.0,627,443,60,117.0,189,1,410,360,121,0,0,654,771,2024,648,45.701118,4.910108,60.43,198.8,0,0.0,0,0.0,0.12,1,0.1,1.3207
79263,1560692607352,1,2.35,2.31,3.31,2.44,5.04,0.73,-0.55,0.91,11,1,10,0.91,8984,56,86,33,63,1184,649.0,616,458,60,118.0,189,1,402,356,121,0,0,665,771,-3488,649,,,,,,,,,,,,
79283,1560692607372,1,2.35,2.32,3.31,2.44,5.04,0.58,-0.47,0.88,11,1,11,0.74,9023,56,86,33,63,1188,650.0,628,445,60,117.0,189,1,400,357,121,0,0,658,-2580,31988,647,,,,,,,,,,,,
79303,1560692607392,2,2.36,2.31,3.31,2.45,5.04,0.55,-0.39,0.78,12,3,11,0.67,9023,56,86,33,62,1191,653.0,625,461,60,118.0,186,1,398,352,122,0,0,669,-2580,-2826,654,,,,,,,,,,,,
79323,1560692607412,2,2.37,2.32,3.3,2.45,5.05,0.5,-0.39,0.77,12,2,13,0.63,9023,55,86,33,62,1193,656.0,625,455,60,118.0,186,1,398,352,122,0,0,671,-2830,1549,656,,,,,,,,,,,,
79343,1560692607432,2,2.36,2.31,3.32,2.44,5.07,0.51,-0.32,0.7,12,5,14,0.6,9023,52,86,33,61,1187,657.0,620,462,60,118.0,186,1,396,348,122,0,0,679,11566,8958,657,45.701122,4.91013,61.78,198.8,0,0.0,0,0.0,0.1217,1,0.1,1.3224
79363,1560692607452,2,2.36,2.31,3.34,2.42,5.04,0.52,-0.42,0.73,12,1,16,0.67,9066,51,86,33,60,1175,665.0,617,461,60,117.0,186,1,399,341,122,0,0,672,-8429,-3038,665,,,,,,,,,,,,
79383,1560692607472,3,2.35,2.3,3.34,2.42,5.04,0.6,-0.41,0.72,12,7,16,0.73,9132,50,86,33,60,1162,664.0,622,447,60,117.0,186,1,400,334,122,0,0,668,24583,-2345,664,,,,,,,,,,,,
79403,1560692607492,4,2.35,2.3,3.35,2.43,5.07,0.7,-0.56,0.85,12,3,16,0.9,9209,50,86,33,58,1148,666.0,627,456,60,118.0,174,1,401,329,116,0,0,678,-30207,-3038,666,,,,,,,,,,,,
79423,1560692607509,2,2.35,2.31,3.34,2.44,5.04,0.81,-0.7,0.93,11,4,16,1.07,9282,50,86,33,57,1133,670.0,625,456,60,117.0,174,1,402,324,116,0,0,676,-3488,-10344,670,,,,,,,,,,,,
79443,1560692607529,4,2.34,2.31,3.34,2.43,5.06,0.81,-0.69,0.96,11,1,15,1.06,9272,50,86,32,57,1117,671.0,626,465,60,117.0,174,1,402,324,116,0,0,683,-2830,6208,671,45.701122,4.910152,63.23,198.9,0,0.0,0,0.0,0.1233,1,0.11,1.324
79463,1560692607549,-1,2.36,2.3,3.31,2.43,5.08,0.65,-0.6,0.91,12,2,14,0.88,9272,49,86,32,56,1103,672.0,628,452,60,117.0,174,1,401,318,116,0,0,675,-2826,16599,675,,,,,,,,,,,,
79483,1560692607569,3,2.34,2.3,3.32,2.42,5.06,0.56,-0.4,0.8,12,2,14,0.69,9268,47,86,32,55,1101,677.0,633,449,60,117.0,174,1,400,312,116,0,0,688,-3038,-10399,677,,,,,,,,,,,,
79503,1560692607591,3,2.33,2.3,3.34,2.43,5.04,0.63,-0.32,0.78,11,3,14,0.7,9286,45,86,32,54,1095,678.0,627,460,60,117.0,161,1,400,308,109,0,0,685,-2826,-10448,678,,,,,,,,,,,,
79523,1560692607611,3,2.33,2.3,3.33,2.42,5.06,0.77,-0.42,0.81,10,1,14,0.88,9337,45,86,32,53,1076,678.0,622,454,60,117.0,161,1,396,299,109,0,0,687,-3578,24845,678,,,,,,,,,,,,
79543,1560692607631,2,2.32,2.3,3.32,2.39,5.04,0.78,-0.56,0.92,10,-1,13,0.96,9337,45,86,32,52,1057,681.0,626,457,60,117.0,161,1,393,289,109,0,0,685,8958,1780,682,45.701126,4.910174,64.26,198.9,0,0.0,0,0.0,0.125,1,0.11,1.3257
79563,1560692607651,1,2.31,2.31,3.3,2.39,5.08,0.6,-0.54,0.95,10,1,12,0.81,9342,44,86,32,51,1039,680.0,626,450,60,118.0,161,1,389,278,109,0,0,690,-3038,-2830,680,,,,,,,,,,,,
79583,1560692607671,3,2.3,2.34,3.3,2.39,5.07,0.49,-0.36,0.9,10,-0,12,0.61,9333,42,86,32,50,1021,684.0,630,449,60,117.0,161,1,386,268,109,0,0,691,8958,11576,684,,,,,,,,,,,,
79603,1560692607693,3,2.28,2.34,3.3,2.38,5.06,0.63,-0.29,0.88,9,2,12,0.69,9333,39,86,32,49,996,685.0,625,458,60,117.0,138,1,383,257,94,0,0,693,-2826,-10448,682,,,,,,,,,,,,
79623,1560692607713,4,2.27,2.34,3.27,2.37,5.03,0.71,-0.46,0.92,7,-2,12,0.84,9342,34,86,32,46,970,683.0,631,459,60,117.0,138,1,369,236,94,0,0,689,-2345,-3584,683,,,,,,,,,,,,
79643,1560692607733,5,2.27,2.34,3.25,2.36,5.03,0.68,-0.44,0.89,6,1,10,0.81,9365,28,86,32,43,962,684.0,631,451,60,117.0,138,1,348,225,94,0,0,692,-10344,-3584,683,45.701126,4.910198,65.31,198.9,0,0.0,0,0.0,0.1267,1,0.11,1.3274
79663,1560692607753,-1,2.26,2.34,3.25,2.34,5.04,0.52,-0.2,0.8,6,-1,11,0.56,9328,24,86,32,39,954,683.0,632,450,60,117.0,138,1,320,214,94,0,0,695,-26562,1780,683,,,,,,,,,,,,
79683,1560692607773,2,2.24,2.35,3.25,2.32,5.07,0.6,-0.07,0.75,5,2,11,0.6,9254,22,86,32,36,936,687.0,629,451,60,117.0,138,1,311,205,94,0,0,685,6208,24,685,,,,,,,,,,,,
79703,1560692607791,3,2.23,2.35,3.25,2.29,5.04,0.74,-0.06,0.79,3,-2,11,0.74,9155,21,86,32,33,918,686.0,628,458,60,117.0,102,1,302,194,70,0,0,689,16599,6208,685,,,,,,,,,,,,
79723,1560692607811,2,2.22,2.34,3.22,2.21,5.05,0.85,-0.21,0.79,2,-2,9,0.88,9057,21,85,32,31,908,689.0,626,455,60,117.0,102,1,295,188,70,0,0,685,16599,-26562,680,,,,,,,,,,,,
79743,1560692607831,-0,2.23,2.34,3.23,2.15,5.07,0.97,-0.33,0.89,0,-4,8,1.02,8898,20,85,32,30,899,690.0,623,455,60,117.0,102,1,291,188,70,0,0,683,-2830,-26562,679,45.70113,4.910222,66.41,198.9,0,0.0,0,0.0,0.1283,1,0.11,1.3291
79763,1560692607851,-0,2.22,2.36,3.21,2.12,5.07,1.05,-0.33,0.96,-1,-3,7,1.1,8700,20,85,32,29,880,688.0,618,456,60,117.0,102,1,287,188,70,0,0,693,24,16118,679,,,,,,,,,,,,
79783,1560692607871,4,2.21,2.37,3.19,2.09,5.04,1.07,-0.09,0.77,-2,-5,5,1.07,8488,20,85,32,30,860,690.0,618,449,60,117.0,102,1,290,187,70,0,0,689,-2830,-2345,679,,,,,,,,,,,,
79803,1560692607891,2,2.21,2.37,3.14,2.06,5.04,1.11,-0.05,0.72,-3,-1,4,1.11,8344,20,85,32,29,848,691.0,606,453,60,118.0,85,1,285,180,58,0,0,686,-2830,-26380,679,,,,,,,,,,,,
79823,1560692607911,1,2.2,2.38,3.13,2.02,5.04,1.12,-0.01,0.72,-4,-4,2,1.12,8314,19,85,32,30,838,688.0,611,452,60,118.0,85,1,288,179,58,0,0,673,24,-2830,672,,,,,,,,,,,,
79843,1560692607931,1,2.21,2.37,3.15,1.98,5.06,1.15,0.02,0.61,-5,-4,1,1.15,8381,19,85,32,30,825,685.0,617,460,60,117.0,85,1,289,182,58,0,0,665,-10399,-3488,669,45.70113,4.910246,66.41,198.9,0,0.0,0,0.0,0.13,1,0.11,1.3307
79863,1560692607951,1,2.21,2.37,3.17,1.96,5.06,1.12,0.02,0.65,-6,-4,0,1.12,8480,19,85,32,30,812,682.0,617,455,60,118.0,85,1,290,186,58,0,0,662,3543,31988,668,,,,,,,,,,,,
79883,1560692607971,2,2.2,2.37,3.21,1.92,5.05,1.13,0.15,0.55,-7,-5,-0,1.14,8491,19,85,32,30,807,681.0,616,447,60,117.0,85,1,290,187,58,0,0,655,-2345,244,665,,,,,,,,,,,,
79903,1560692607991,1,2.2,2.37,3.2,1.89,5.05,1.13,0.2,0.56,-7,-3,-3,1.14,8503,19,85,32,31,804,676.0,616,455,60,117.0,88,1,295,188,59,0,0,659,-26562,-2580,658,,,,,,,,,,,,
79923,1560692608005,3,2.2,2.38,3.21,1.89,5.04,1.15,0.1,0.65,-8,-4,-5,1.15,8561,19,85,32,30,815,673.0,618,456,60,118.0,88,1,291,188,59,0,0,663,-26380,771,659,,,,,,,,,,,,
79943,1560692608025,1,2.2,2.37,3.2,1.88,5.07,1.15,0.13,0.64,-9,-3,-6,1.16,8612,19,85,32,30,832,673.0,626,462,60,118.0,88,1,291,188,59,0,0,653,-26380,-2580,654,45.701134,4.91027,65.71,198.9,0,0.0,0,0.0,0.1317,1,0.12,1.3324
79963,1560692608045,4,2.2,2.37,3.2,1.86,5.05,1.09,0.32,0.49,-9,-3,-7,1.13,8656,19,85,32,30,850,671.0,622,455,60,117.0,88,1,291,188,59,0,0,651,-388,16599,653,,,,,,,,,,,,
79983,1560692608065,2,2.19,2.38,3.18,1.86,5.06,1.08,0.27,0.48,-9,-2,-10,1.11,8729,19,85,32,30,869,669.0,625,455,60,117.0,88,1,291,188,59,0,0,655,-2830,966,650,,,,,,,,,,,,
80003,1560692608091,2,2.2,2.37,3.17,1.83,5.06,1.1,0.15,0.59,-10,-3,-10,1.11,8765,19,85,32,30,898,665.0,618,457,60,118.0,95,1,291,188,62,0,0,648,-2830,-2836,648,,,,,,,,,,,,
80023,1560692608111,-1,2.2,2.38,3.16,1.83,5.04,1.2,0.11,0.59,-10,-4,-10,1.2,8798,19,85,32,30,930,664.0,622,453,60,118.0,95,1,291,188,62,0,0,652,-2345,-2580,645,,,,,,,,,,,,
80043,1560692608131,1,2.19,2.37,3.12,1.82,5.02,1.2,0.2,0.64,-10,-2,-10,1.21,8778,19,85,32,29,952,660.0,618,459,60,118.0,95,1,287,188,62,0,0,648,-10344,-16046,643,45.701134,4.910293,64.37,198.9,0,0.0,0,0.0,0.1333,1,0.12,1.334
80063,1560692608151,4,2.2,2.38,3.15,1.81,5.08,1.17,0.39,0.48,-11,-4,-10,1.23,8749,19,85,32,30,963,658.0,625,455,60,118.0,95,1,291,188,62,0,0,651,-3038,3,641,,,,,,,,,,,,
80083,1560692608171,4,2.2,2.37,3.14,1.79,5.06,1.05,0.55,0.38,-11,2,-10,1.18,8700,19,85,32,29,974,659.0,625,452,60,117.0,95,1,287,188,62,0,0,646,-26380,-2580,638,,,,,,,,,,,,
80103,1560692608191,2,2.2,2.38,3.15,1.8,5.04,1.06,0.4,0.36,-11,-1,-12,1.13,8624,19,85,32,29,983,653.0,620,459,60,118.0,95,1,287,188,61,0,0,652,-3488,-16046,636,,,,,,,,,,,,
80123,1560692608211,1,2.19,2.39,3.14,1.8,5.05,1.12,0.32,0.4,-11,1,-12,1.17,8600,19,85,32,29,987,654.0,627,453,60,118.0,95,1,287,188,61,0,0,639,-2830,19320,636,,,,,,,,,,,,
80143,1560692608231,5,2.19,2.38,3.14,1.8,5.08,1.08,0.49,0.45,-12,-2,-13,1.19,8600,19,85,32,28,985,650.0,630,451,60,118.0,95,1,282,188,61,0,0,640,-6006,269,634,45.701138,4.910316,63.04,198.9,0,0.0,0,0.0,0.135,1,0.12,1.3357
80163,1560692608251,4,2.18,2.39,3.12,1.79,5.06,1.06,0.53,0.32,-12,-2,-14,1.18,8612,19,85,32,28,980,650.0,628,448,60,117.0,95,1,282,188,61,0,0,648,-6006,3403,631,,,,,,,,,,,,
80183,1560692608271,3,2.18,2.39,3.1,1.8,5.06,1.05,0.49,0.38,-12,-2,-14,1.16,8676,19,85,32,27,972,650.0,621,443,60,117.0,95,1,278,188,61,0,0,640,-6006,-16883,628,,,,,,,,,,,,
80203,1560692608291,1,2.18,2.4,3.1,1.8,5.04,1.15,0.39,0.51,-12,-4,-14,1.21,8656,19,85,32,26,965,647.0,620,450,60,118.0,96,1,274,188,61,0,0,648,-8429,17336,627,,,,,,,,,,,,
80223,1560692608311,1,2.18,2.4,3.1,1.81,5.04,1.18,0.44,0.55,-13,-3,-13,1.26,8612,19,85,32,26,959,646.0,618,439,60,117.0,96,1,274,188,61,0,0,639,4909,966,627,,,,,,,,,,,,
80243,1560692608331,1,2.19,2.39,3.1,1.8,5.06,1.09,0.6,0.43,-13,-3,-14,1.24,8557,19,85,32,26,948,646.0,613,444,60,117.0,96,1,274,188,61,0,0,642,4909,506,625,45.701141,4.910338,61.93,199.0,0,0.0,0,0.0,0.1367,1,0.12,1.3374
80263,1560692608351,2,2.19,2.41,3.09,1.8,5.07,1.09,0.61,0.5,-13,-1,-13,1.25,8468,19,85,32,26,928,641.0,608,426,60,117.0,96,1,274,186,61,0,0,637,-3584,30721,623,,,,,,,,,,,,
80283,1560692608371,0,2.18,2.44,3.09,1.81,5.04,1.12,0.62,0.58,-13,-4,-14,1.28,8457,19,85,32,26,910,642.0,625,410,60,118.0,96,1,274,185,61,0,0,638,-2830,3403,622,,,,,,,,,,,,
80303,1560692608391,2,2.19,2.44,3.09,1.81,5.04,1.08,0.68,0.44,-13,-0,-15,1.27,8461,19,85,32,26,896,638.0,619,440,60,117.0,96,1,274,185,60,0,0,634,16599,17740,618,,,,,,,,,,,,
80323,1560692608411,-0,2.2,2.44,3.1,1.8,5.07,0.99,0.65,0.55,-13,-3,-15,1.18,8468,19,85,32,26,881,637.0,614,448,60,118.0,96,1,274,186,60,0,0,630,-10251,-3446,620,,,,,,,,,,,,
80343,1560692608431,5,2.2,2.42,3.1,1.78,5.07,1.04,0.72,0.48,-13,-2,-15,1.26,8445,19,85,32,26,863,637.0,616,447,60,118.0,96,1,274,184,60,0,0,634,-10251,26688,618,45.701141,4.91036,61.04,199.0,0,0.0,0,0.0,0.1383,1,0.12,1.3391
80363,1560692608451,4,2.21,2.42,3.1,1.79,5.04,1.01,0.66,0.42,-13,0,-16,1.21,8434,19,85,32,26,847,638.0,611,444,60,117.0,96,1,274,182,60,0,0,630,-10251,-23055,616,,,,,,,,,,,,
80383,1560692608471,0,2.2,2.43,3.1,1.82,5.05,0.95,0.59,0.54,-12,-2,-16,1.12,8378,19,85,32,26,842,632.0,612,436,60,118.0,96,1,273,180,60,0,0,631,-5120,-3820,615,,,,,,,,,,,,
80403,1560692608493,3,2.21,2.44,3.09,1.83,5.05,1.03,0.67,0.41,-12,-2,-16,1.23,8366,19,85,32,26,838,631.0,615,441,60,117.0,91,1,273,182,56,0,0,624,771,17740,613,,,,,,,,,,,,
80423,1560692608513,2,2.21,2.43,3.1,1.8,5.07,0.97,0.61,0.47,-12,-1,-16,1.15,8393,19,85,32,26,833,630.0,615,443,60,118.0,91,1,273,181,56,0,0,625,966,243,614,,,,,,,,,,,,
80443,1560692608533,4,2.21,2.42,3.09,1.81,5.08,0.99,0.69,0.45,-11,-3,-16,1.21,8374,19,85,32,26,829,630.0,600,448,60,118.0,91,1,273,180,56,0,0,626,966,-3446,614,45.701145,4.910381,60.42,199.0,0,0.0,0,0.0,0.14,1,0.12,1.3407
80463,1560692608553,1,2.21,2.4,3.11,1.8,5.07,0.99,0.66,0.46,-11,1,-15,1.19,8318,19,85,32,26,829,627.0,602,444,60,117.0,91,1,273,178,56,0,0,620,20993,-7939,613,,,,,,,,,,,,
80483,1560692608573,-1,2.2,2.41,3.14,1.81,5.08,0.99,0.76,0.5,-12,-2,-14,1.25,8296,19,85,32,26,829,625.0,612,447,60,117.0,91,1,273,176,56,0,0,619,-1346,-30139,611,,,,,,,,,,,,
80503,1560692608592,3,2.19,2.41,3.11,1.81,5.05,1.06,0.69,0.39,-12,-0,-14,1.26,8285,19,85,32,27,832,625.0,605,451,60,117.0,91,1,277,178,56,0,0,620,-16883,-768,607,,,,,,,,,,,,
80523,1560692608612,0,2.18,2.42,3.1,1.82,5.07,1.0,0.69,0.47,-11,-2,-13,1.21,8300,19,85,32,26,833,622.0,597,448,60,118.0,91,1,273,178,56,0,0,619,17336,3472,605,,,,,,,,,,,,
80543,1560692608632,4,2.17,2.46,3.11,1.83,5.05,1.05,0.66,0.3,-11,-2,-15,1.24,8238,19,85,32,27,835,621.0,595,446,60,117.0,91,1,277,174,56,0,0,622,-18357,5344,603,45.701153,4.910402,59.66,199.0,0,0.0,0,0.0,0.1417,1,0.13,1.3424
80563,1560692608652,0,2.16,2.46,3.11,1.82,5.06,1.0,0.68,0.39,-11,-0,-15,1.2,8234,19,85,32,27,837,620.0,606,451,60,118.0,91,1,276,174,56,0,0,611,19320,-13043,601,,,,,,,,,,,,
80583,1560692608672,2,2.15,2.47,3.11,1.81,5.05,1.0,0.7,0.36,-12,-4,-16,1.22,8227,19,85,32,27,840,621.0,600,450,60,118.0,91,1,276,172,56,0,0,619,269,23619,599,,,,,,,,,,,,
80603,1560692608692,-0,2.16,2.46,3.11,1.79,5.08,0.97,0.77,0.38,-13,-3,-16,1.24,8194,19,85,32,27,843,620.0,611,451,60,118.0,90,1,276,171,54,0,0,613,-18357,-1894,599,,,,,,,,,,,,
80623,1560692608712,0,2.16,2.47,3.13,1.76,5.06,0.97,0.84,0.37,-13,-1,-17,1.28,8145,19,85,32,27,844,623.0,597,447,60,118.0,90,1,276,170,54,0,0,617,3395,15649,591,,,,,,,,,,,,
80643,1560692608732,3,2.16,2.48,3.13,1.73,5.07,0.91,0.95,0.29,-14,-1,-18,1.31,8134,19,85,32,27,845,619.0,611,452,60,118.0,90,1,276,169,54,0,0,617,30721,-1894,595,45.701157,4.910422,59.03,199.0,0,0.0,0,0.0,0.1433,1,0.13,1.344
80663,1560692608752,1,2.16,2.47,3.13,1.72,5.08,1.02,0.85,0.32,-15,-1,-20,1.33,8127,19,85,32,27,849,621.0,597,452,60,118.0,90,1,276,168,54,0,0,610,-18357,-3210,593,,,,,,,,,,,,
