"Interval"|"ms"|0|0|1,"Utc"|"ms"|0|0|1,"FB_p"|"bar"|0|300|50,"Volant"|"F"|0.0|300.0|50,"xFR"|"mm"|0.0|5.0|50,"xRR"|"mm"|0.0|5.0|50,"xFL"|"mm"|0.0|5.0|50,"xRL"|"mm"|0.0|5.0|50,"AccelX"|"G"|-3.0|3.0|50,"AccelY"|"G"|-3.0|3.0|50,"AccelZ"|"G"|-3.0|3.0|50,"Yaw"|"Deg/Sec"|-120|120|50,"Pitch"|"Deg/Sec"|-120|120|50,"Roll"|"Deg/Sec"|-120|120|50,"Gsum"|"G"|0.0|3.0|50,"RPM"|""|0|14000|50,"TPS"|"%"|0|100|50,"WaterTemp"|"?C"|0|300|50,"AirTemp"|"?C"|-1000|1000|50,"MAP"|"KPa"|0|255|50,"Lambda"|""|0|1024|50,"WheelSpeed"|"MPH"|0.0|150.0|50,"OilPress"|"PSI"|0|150|50,"FuelPress"|"PSI"|0|150|50,"OilTemp"|"F"|0|300|50,"Battery"|"Volts"|0.0|20.0|50,"FuelCon"|"L/h"|-1000|1000|50,"Gear"|""|0|10|50,"Advance"|"Deg"|-360|360|50,"Injection"|"ms"|-1000|1000|50,"FuelCon"|"L/100km"|-1000|1000|50,"LC_But_Pres"|""|-1000|1000|50,"LC_Active"|""|-1000|1000|50,"RD_Speed"|""|-1000|1000|50,"RUD_Speed"|""|-1000|1000|50,"LD_Speed"|""|-1000|1000|50,"LUD_Speed"|""|-1000|1000|50,"Latitude"|"Degrees"|-180.0|180.0|10,"Longitude"|"Degrees"|-180.0|180.0|10,"Speed"|"kph"|0.0|150.0|10,"Altitude"|"m"|0.0|4000.0|10,"LapCount"|""|0|0|10,"LapTime"|"Min"|0.0|0.0|10,"Sector"|""|0|0|10,"SectorTime"|"Min"|0.0|0.0|10,"ElapsedTime"|"Min"|0.0|0.0|10,"CurrentLap"|""|0|0|10,"Distance"|"km"|0.0|0.0|10,"SessionTime"|"Min"|0.0|0.0|10
245563,1560691517362,20,2.21,1.8,3.49,1.64,5.06,1.31,-0.04,-0.35,-4,-3,-1,1.31,5129,4,86,33,37,1037,550.0,371,461,60,119.0,91,1,292,221,50,0,0,239,-32248,-32256,532,,,,,,,,,,,,
245583,1560691517382,14,2.24,1.79,3.48,1.69,5.06,1.04,-0.14,-0.29,-6,4,-2,1.05,5043,4,86,33,37,1046,541.0,373,460,60,118.0,91,1,291,208,50,0,0,54,-8186,23040,530,,,,,,,,,,,,
245603,1560691517397,15,2.25,1.8,3.49,1.69,5.08,1.14,-0.11,-0.2,-8,1,-3,1.15,4966,4,86,33,37,1052,535.0,370,455,60,119.0,91,1,289,188,50,0,0,238,6274,85,521,,,,,,,,,,,,
245623,1560691517417,17,2.27,1.83,3.48,1.67,5.06,1.16,-0.02,-0.21,-6,-4,-3,1.16,4917,4,86,34,38,1054,528.0,364,468,60,120.0,91,1,290,194,50,0,0,244,-28648,80,515,,,,,,,,,,,,
245643,1560691517437,17,2.28,1.86,3.47,1.67,5.06,0.95,-0.05,-0.31,-6,3,-4,0.95,4879,4,86,34,39,1039,521.0,358,460,60,118.0,67,1,293,198,35,0,0,256,-9212,28160,508,45.700802,4.909643,56.23,203.0,2,1.435,0,0.0,0.0367,3,0.06,4.094
245663,1560691517457,14,2.28,1.86,3.48,1.65,5.05,1.04,-0.12,-0.28,-7,2,-6,1.05,4879,4,86,34,39,1007,511.0,360,460,60,117.0,67,1,293,198,35,0,0,273,-3856,-1445,502,,,,,,,,,,,,
245683,1560691517497,16,2.28,1.85,3.52,1.64,5.07,1.14,-0.05,-0.17,-8,-3,-7,1.14,4893,4,86,34,40,975,510.0,357,460,60,120.0,67,1,295,199,35,0,0,255,-4054,-1494,496,,,,,,,,,,,,
245703,1560691517517,17,2.28,1.85,3.55,1.62,5.08,1.19,0.06,-0.24,-6,-3,-6,1.2,4841,4,86,34,40,939,503.0,350,470,60,119.0,67,1,293,199,35,0,0,221,2109,250,493,,,,,,,,,,,,
245723,1560691517537,18,2.27,1.85,3.52,1.6,5.06,1.01,0.03,-0.27,-6,-2,-6,1.01,4783,4,86,34,41,904,501.0,352,468,60,118.0,67,1,292,199,35,0,0,218,11560,115,485,,,,,,,,,,,,
245743,1560691517557,15,2.28,1.88,3.52,1.61,5.04,0.91,-0.01,-0.24,-7,4,-7,0.92,4718,4,86,34,41,869,496.0,345,457,60,117.0,72,1,289,197,35,0,0,228,-6528,125,479,45.70081,4.909652,52.35,202.9,2,1.435,0,0.0,0.0383,3,0.06,4.0957
245763,1560691517577,15,2.28,1.87,3.5,1.62,5.03,0.98,-0.06,-0.23,-8,4,-9,0.98,4785,4,86,34,41,843,487.0,343,459,60,118.0,72,1,292,199,35,0,0,239,505,1886,471,,,,,,,,,,,,
245783,1560691517595,14,2.28,1.89,3.48,1.61,5.07,1.08,0.02,-0.15,-9,-0,-9,1.08,4847,4,86,34,41,843,478.0,347,459,60,119.0,72,1,294,201,35,0,0,249,16648,-17920,465,,,,,,,,,,,,
245803,1560691517615,16,2.28,1.93,3.46,1.62,5.03,1.18,0.13,-0.15,-8,-2,-9,1.18,4780,4,86,34,41,845,476.0,344,463,60,119.0,72,1,292,199,35,0,0,270,-17956,250,461,,,,,,,,,,,,
245823,1560691517635,17,2.29,1.93,3.44,1.62,5.08,1.12,0.13,-0.2,-7,-2,-9,1.13,4716,4,86,34,42,854,470.0,345,463,60,118.0,72,1,291,200,35,0,0,300,8488,-214,453,,,,,,,,,,,,
245843,1560691517655,14,2.32,1.92,3.44,1.61,5.04,1.03,0.12,-0.23,-6,1,-10,1.03,4785,4,86,34,42,863,463.0,342,458,60,118.0,77,1,293,200,35,0,0,268,6193,-1494,448,45.700825,4.909661,49.83,202.9,2,1.435,0,0.0,0.04,3,0.06,4.0974
245863,1560691517675,11,2.34,1.9,3.46,1.61,5.08,1.03,-0.0,-0.2,-8,3,-11,1.03,4858,4,86,34,42,873,459.0,348,456,60,117.0,77,1,296,204,35,0,0,247,-18108,250,443,,,,,,,,,,,,
245883,1560691517691,9,2.35,1.9,3.45,1.61,5.07,1.13,-0.05,-0.08,-9,-1,-11,1.13,4844,4,86,34,42,880,453.0,354,455,60,119.0,77,1,295,203,35,0,0,212,-8985,80,438,,,,,,,,,,,,
245903,1560691517711,10,2.38,1.91,3.44,1.62,5.04,1.22,-0.01,-0.08,-8,-1,-10,1.22,4797,4,86,34,42,881,449.0,350,460,60,120.0,77,1,293,201,35,0,0,247,15649,-24576,436,,,,,,,,,,,,
245923,1560691517731,10,2.4,1.91,3.45,1.62,5.07,1.11,-0.0,-0.12,-7,1,-10,1.11,4866,4,86,34,43,882,442.0,351,458,60,118.0,77,1,298,206,35,0,0,271,-28332,10686,429,,,,,,,,,,,,
245943,1560691517751,4,2.42,1.9,3.45,1.63,5.04,1.03,-0.07,-0.04,-7,4,-11,1.03,5012,4,86,34,43,873,433.0,354,458,60,118.0,88,1,302,210,38,0,0,289,243,10812,427,45.700832,4.909669,46.8,202.9,2,1.435,0,0.0,0.0417,3,0.06,4.0991
245963,1560691517771,4,2.42,1.89,3.46,1.65,5.04,1.13,-0.0,-0.03,-6,2,-10,1.13,5045,4,86,34,43,865,428.0,358,461,60,120.0,88,1,303,210,38,0,0,288,13180,-41,427,,,,,,,,,,,,
245983,1560691517791,3,2.42,1.9,3.46,1.7,5.06,0.97,0.03,-0.06,-4,1,-8,0.97,5111,4,86,34,43,854,426.0,369,460,60,118.0,88,1,306,210,38,0,0,263,3826,25600,426,,,,,,,,,,,,
246003,1560691517801,5,2.41,1.94,3.39,1.72,5.04,1.07,0.05,-0.06,-5,2,-7,1.07,5260,4,86,34,42,845,420.0,377,457,60,118.0,88,1,308,209,38,0,0,256,-21944,150,420,,,,,,,,,,,,
246023,1560691517821,2,2.42,1.95,3.36,1.71,5.04,0.95,0.07,-0.11,-2,4,-5,0.96,5384,4,86,34,42,842,417.0,379,464,60,118.0,88,1,311,209,38,0,0,330,10392,-16896,417,,,,,,,,,,,,
246043,1560691517841,2,2.39,1.97,3.36,1.72,5.04,1.06,0.12,-0.09,-1,0,-3,1.07,5526,4,86,34,41,841,412.0,390,452,60,119.0,101,1,312,208,42,0,0,352,11545,110,412,45.700844,4.909677,43.92,202.9,2,1.435,0,0.0,0.0433,3,0.06,4.1007
246063,1560691517861,5,2.4,1.95,3.36,1.69,5.04,1.12,0.11,-0.13,-1,0,-0,1.12,5627,4,86,34,41,846,408.0,408,458,60,118.0,101,1,314,209,42,0,0,328,-1818,-32559,408,,,,,,,,,,,,
246083,1560691517881,2,2.39,1.93,3.39,1.69,5.06,1.11,0.05,-0.09,0,1,2,1.11,5792,4,86,34,40,850,408.0,418,470,60,118.0,101,1,312,207,42,0,0,323,-6524,0,405,,,,,,,,,,,,
246103,1560691517897,4,2.38,1.94,3.41,1.73,5.05,1.03,-0.01,-0.03,3,2,4,1.03,5935,4,86,34,39,856,402.0,428,464,60,118.0,101,1,309,207,42,0,0,334,-19019,-14707,402,,,,,,,,,,,,
246123,1560691517917,3,2.37,1.93,3.4,1.72,5.05,0.91,0.04,-0.1,5,5,7,0.91,6123,4,86,34,37,862,399.0,435,462,60,118.0,101,1,304,196,42,0,0,364,-18948,3302,399,,,,,,,,,,,,
246143,1560691517937,-1,2.37,1.93,3.4,1.72,5.05,0.9,0.1,-0.15,6,7,9,0.91,6285,4,86,34,36,878,394.0,446,466,60,119.0,112,1,301,190,45,0,0,362,3,-14707,394,45.700851,4.909683,41.31,202.9,2,1.435,0,0.0,0.045,3,0.06,4.1024
246163,1560691517957,1,2.36,1.93,3.41,1.73,5.08,0.96,-0.06,-0.12,6,5,10,0.96,6485,4,86,34,34,896,391.0,455,456,60,119.0,112,1,295,179,45,0,0,358,-6656,-6458,391,,,,,,,,,,,,
246183,1560691517977,-1,2.36,1.94,3.43,1.79,5.04,0.87,-0.0,-0.16,8,9,11,0.87,6744,4,86,34,33,907,385.0,470,457,60,118.0,112,1,292,174,45,0,0,357,-6656,2790,385,,,,,,,,,,,,
246203,1560691518009,2,2.36,1.93,3.49,1.85,5.08,0.98,-0.12,-0.09,8,7,12,0.99,6870,4,86,34,31,918,382.0,491,457,60,119.0,112,1,286,167,45,0,0,353,0,-29302,382,,,,,,,,,,,,
246223,1560691518029,0,2.36,1.94,3.45,1.89,5.05,0.87,-0.06,-0.08,9,8,13,0.87,6934,4,86,34,30,920,379.0,501,459,60,119.0,112,1,281,166,45,0,0,359,0,-6405,379,,,,,,,,,,,,
246243,1560691518049,4,2.35,1.95,3.44,1.94,5.04,0.98,-0.15,0.12,8,5,13,0.99,6998,4,86,34,29,921,377.0,500,458,60,118.0,113,1,277,164,43,0,0,360,-1268,0,378,45.700863,4.909689,38.89,202.8,2,1.435,0,0.0,0.0467,3,0.06,4.1041
246263,1560691518069,0,2.37,1.95,3.42,1.97,5.05,0.96,-0.16,0.2,9,4,11,0.98,6959,4,86,34,28,913,376.0,510,458,60,119.0,113,1,273,161,43,0,0,363,3082,-6656,376,,,,,,,,,,,,
246283,1560691518089,1,2.36,1.95,3.38,1.96,5.04,0.88,-0.08,0.22,9,5,9,0.89,6888,4,86,34,27,902,376.0,512,460,60,118.0,113,1,270,161,43,0,0,364,2790,770,376,,,,,,,,,,,,
246303,1560691518103,1,2.36,1.96,3.36,1.95,5.07,0.98,-0.2,0.25,9,2,9,1.0,6828,4,86,34,27,885,375.0,503,459,60,118.0,113,1,270,160,43,0,0,359,-6458,257,375,,,,,,,,,,,,
246323,1560691518123,-1,2.34,1.95,3.36,1.96,5.07,0.82,-0.1,0.14,10,6,11,0.83,6727,5,86,34,26,866,373.0,504,456,60,118.0,113,1,266,160,43,0,0,359,2790,1,373,,,,,,,,,,,,
246343,1560691518143,-0,2.34,1.96,3.36,1.96,5.07,0.94,-0.2,0.23,8,2,13,0.96,6684,8,86,34,26,853,370.0,497,457,60,119.0,107,1,267,160,40,0,0,358,-14707,-6405,370,45.70087,4.909696,36.98,202.8,2,1.435,0,0.0,0.0483,3,0.06,4.1057
246363,1560691518163,15,2.33,1.97,3.37,1.96,5.06,0.81,-0.1,0.22,10,4,13,0.82,6658,12,86,34,27,845,368.0,501,463,60,118.0,107,1,271,161,40,0,0,354,-14707,3082,368,,,,,,,,,,,,
246383,1560691518197,1,2.32,1.98,3.38,1.96,5.06,0.89,-0.15,0.23,8,3,12,0.9,6611,16,86,34,28,837,365.0,490,455,60,119.0,107,1,275,163,40,0,0,353,-29978,2790,366,,,,,,,,,,,,
246403,1560691518217,4,2.3,1.99,3.39,1.94,5.04,0.9,-0.12,0.34,7,3,10,0.9,6648,20,86,34,30,828,364.0,493,467,60,118.0,107,1,282,166,40,0,0,353,-6640,4104,365,,,,,,,,,,,,
246423,1560691518237,-3,2.29,2.02,3.39,1.94,5.07,0.85,-0.09,0.26,7,3,9,0.86,6672,22,86,34,33,822,363.0,494,458,60,119.0,107,1,292,174,40,0,0,353,4104,2060,363,,,,,,,,,,,,
246443,1560691518257,3,2.3,2.04,3.35,1.95,5.04,0.91,-0.18,0.36,6,2,8,0.92,6698,24,86,34,36,822,361.0,489,460,60,118.0,124,1,301,190,45,0,0,355,2060,3302,361,45.700878,4.909702,35.7,202.8,2,1.435,0,0.0,0.05,3,0.07,4.1074
246463,1560691518277,-0,2.29,2.05,3.32,1.95,5.05,0.91,-0.09,0.24,6,2,10,0.91,6715,25,86,34,39,824,360.0,500,463,60,118.0,124,1,310,208,45,0,0,353,4104,-6640,360,,,,,,,,,,,,
246483,1560691518291,2,2.28,2.05,3.33,1.94,5.04,0.94,-0.13,0.33,5,3,10,0.95,6706,25,86,34,41,830,358.0,490,457,60,119.0,124,1,324,211,45,0,0,351,2060,2060,358,,,,,,,,,,,,
246503,1560691518311,-3,2.27,2.07,3.31,1.94,5.08,0.8,0.04,0.25,5,5,11,0.8,6756,26,86,34,43,836,357.0,497,454,60,119.0,124,1,338,214,45,0,0,355,-6644,2060,357,,,,,,,,,,,,
246523,1560691518331,4,2.27,2.11,3.3,1.96,5.07,0.89,-0.05,0.39,4,1,9,0.89,6749,26,86,34,44,843,355.0,497,462,60,118.0,124,1,345,216,45,0,0,355,3302,2060,355,,,,,,,,,,,,
246543,1560691518351,-2,2.28,2.1,3.29,1.96,5.04,0.84,0.05,0.38,4,1,8,0.84,6766,26,86,34,45,853,355.0,496,457,60,119.0,154,1,352,219,55,0,0,355,3183,-6644,355,45.700886,4.909709,35.14,202.8,2,1.435,0,0.0,0.0517,3,0.07,4.109
246563,1560691518371,4,2.26,2.11,3.28,1.96,5.08,0.94,0.01,0.48,3,-1,5,0.94,6761,26,86,34,47,866,355.0,493,461,60,118.0,154,1,367,221,55,0,0,351,-6644,4104,355,,,,,,,,,,,,
246583,1560691518391,1,2.27,2.11,3.26,1.96,5.04,0.84,0.06,0.38,4,1,5,0.84,6820,26,86,34,48,877,355.0,502,457,60,119.0,154,1,370,227,55,0,0,352,-6644,28553,355,,,,,,,,,,,,
246603,1560691518402,3,2.25,2.13,3.26,1.96,5.07,0.86,-0.02,0.45,3,1,5,0.86,6838,27,86,34,49,883,354.0,503,458,60,118.0,154,1,374,232,55,0,0,355,-6644,28553,353,,,,,,,,,,,,
246623,1560691518422,2,2.25,2.12,3.25,1.95,5.04,0.89,-0.05,0.4,3,1,6,0.89,6860,27,86,34,50,893,353.0,505,461,60,119.0,154,1,377,237,55,0,0,352,-6644,-6644,351,,,,,,,,,,,,
246643,1560691518442,-1,2.22,2.14,3.24,1.95,5.07,0.84,0.01,0.44,3,3,6,0.84,6921,28,86,34,51,910,354.0,501,461,60,118.0,176,1,380,242,62,0,0,352,3302,-30454,350,45.700893,4.909715,34.53,202.8,2,1.435,0,0.0,0.0533,3,0.07,4.1107
246663,1560691518462,4,2.2,2.17,3.25,1.95,5.05,0.96,-0.07,0.56,1,0,5,0.96,7006,29,86,34,52,926,354.0,511,461,60,118.0,176,1,384,243,62,0,0,352,3302,8841,351,,,,,,,,,,,,
246683,1560691518482,3,2.19,2.16,3.25,1.93,5.03,0.88,0.01,0.5,1,1,3,0.88,7038,29,86,34,52,935,355.0,510,455,60,119.0,176,1,384,248,62,0,0,353,2060,2811,349,,,,,,,,,,,,
246703,1560691518494,-2,2.19,2.21,3.25,1.93,5.06,0.87,0.07,0.54,-0,0,-1,0.88,7102,30,86,34,52,953,357.0,512,455,60,118.0,176,1,384,248,62,0,0,356,-6640,2811,348,,,,,,,,,,,,
246723,1560691518514,6,2.17,2.28,3.19,1.93,5.07,0.89,-0.06,0.6,-2,0,-2,0.89,7094,30,86,34,53,990,360.0,521,457,60,118.0,176,1,387,253,62,0,0,362,-14707,28553,347,,,,,,,,,,,,
246743,1560691518534,3,2.15,2.35,3.12,1.94,5.05,0.88,-0.06,0.55,-2,1,-1,0.88,6913,30,86,34,53,1026,362.0,509,458,60,119.0,193,1,386,252,67,0,0,365,2790,4104,348,45.700901,4.909722,34.46,202.8,2,1.435,0,0.0,0.055,3,0.07,4.1124
246763,1560691518554,1,2.13,2.38,3.06,1.95,5.04,0.77,0.11,0.53,-3,4,-0,0.78,6781,30,86,34,54,1052,365.0,505,459,60,117.0,193,1,388,258,67,0,0,368,-6405,-1268,351,,,,,,,,,,,,
246783,1560691518574,2,2.11,2.43,3.01,1.95,5.04,0.83,0.17,0.56,-5,2,-2,0.85,6674,30,86,34,55,1081,366.0,491,457,60,119.0,193,1,391,261,67,0,0,371,0,3082,351,,,,,,,,,,,,
246803,1560691518610,5,2.1,2.44,2.99,1.93,5.05,0.73,0.27,0.54,-5,0,-5,0.78,6574,31,86,34,56,1115,369.0,487,463,60,118.0,193,1,392,263,67,0,0,370,0,-6458,352,,,,,,,,,,,,
246823,1560691518630,1,2.09,2.44,3.03,1.93,5.05,0.78,0.29,0.47,-6,-1,-7,0.83,6555,31,86,34,57,1147,369.0,480,452,60,119.0,193,1,394,265,67,0,0,367,-6656,-6640,350,,,,,,,,,,,,
246843,1560691518650,3,2.09,2.43,3.04,1.93,5.08,0.8,0.3,0.55,-7,-2,-9,0.85,6581,31,86,34,58,1155,372.0,478,452,60,119.0,188,1,397,268,66,0,0,369,1,-30454,350,45.700909,4.909728,33.67,202.7,2,1.435,0,0.0,0.0567,3,0.07,4.114
246863,1560691518670,1,2.09,2.43,3.05,1.92,5.07,0.8,0.4,0.53,-9,-1,-11,0.9,6656,31,86,34,58,1162,373.0,484,463,60,118.0,188,1,399,273,66,0,0,370,-6656,-30454,347,,,,,,,,,,,,
246883,1560691518690,0,2.09,2.44,3.07,1.91,5.04,0.77,0.3,0.53,-10,-1,-12,0.83,6677,31,86,34,59,1173,374.0,489,454,60,119.0,188,1,403,274,66,0,0,371,742,-30438,347,,,,,,,,,,,,
246903,1560691518700,-1,2.1,2.44,3.09,1.9,5.07,0.77,0.46,0.49,-10,-1,-13,0.89,6710,31,86,34,59,1185,373.0,498,461,60,118.0,188,1,404,276,66,0,0,371,770,-30438,345,,,,,,,,,,,,
246923,1560691518720,1,2.09,2.44,3.09,1.92,5.04,0.76,0.42,0.5,-11,-1,-14,0.87,6795,31,86,35,59,1190,373.0,497,456,60,119.0,188,1,407,276,66,0,0,373,-6656,-14714,346,,,,,,,,,,,,
246943,1560691518740,-1,2.1,2.44,3.07,1.92,5.04,0.75,0.56,0.45,-12,0,-14,0.93,6939,31,86,35,59,1195,372.0,506,457,60,119.0,208,1,411,280,72,0,0,370,-6656,-30438,346,45.700916,4.909734,34.48,202.7,2,1.435,0,0.0,0.0583,3,0.07,4.1157
246963,1560691518760,4,2.1,2.44,3.05,1.91,5.07,0.8,0.53,0.5,-13,-1,-15,0.96,7014,31,86,35,59,1203,373.0,507,463,60,118.0,208,1,414,277,72,0,0,372,-6656,2060,347,,,,,,,,,,,,
246983,1560691518780,2,2.09,2.44,3.05,1.91,5.04,0.79,0.49,0.57,-13,1,-16,0.93,7009,31,86,35,58,1210,374.0,502,456,60,119.0,208,1,409,277,72,0,0,376,742,2790,347,,,,,,,,,,,,
247003,1560691518796,-1,2.1,2.45,3.02,1.93,5.04,0.75,0.51,0.58,-14,0,-19,0.91,6988,31,86,35,58,1214,375.0,509,466,60,118.0,208,1,408,277,72,0,0,372,770,0,349,,,,,,,,,,,,
247023,1560691518816,5,2.11,2.44,3.01,1.94,5.04,0.77,0.49,0.62,-14,-1,-21,0.91,6962,31,86,35,58,1217,377.0,505,455,60,119.0,208,1,407,276,72,0,0,376,-6656,257,350,,,,,,,,,,,,
247043,1560691518836,1,2.13,2.44,3.01,1.93,5.06,0.75,0.43,0.61,-14,-1,-19,0.87,6939,31,86,35,58,1220,376.0,507,458,60,118.0,207,1,407,276,73,0,0,377,3,-6656,352,45.700924,4.90974,34.89,202.7,2,1.435,0,0.0,0.06,3,0.07,4.1174
247063,1560691518856,-0,2.13,2.42,3.03,1.94,5.05,0.7,0.55,0.52,-14,1,-18,0.89,6985,31,86,35,58,1222,377.0,501,461,60,118.0,207,1,408,277,73,0,0,381,-6656,0,356,,,,,,,,,,,,
247083,1560691518876,2,2.14,2.41,3.05,1.97,5.06,0.74,0.48,0.66,-14,0,-19,0.88,7011,31,86,35,58,1223,378.0,504,462,60,119.0,207,1,409,277,73,0,0,379,2278,-6656,358,,,,,,,,,,,,
247103,1560691518910,2,2.16,2.41,3.07,2.0,5.05,0.77,0.42,0.63,-14,-0,-20,0.87,7004,31,86,35,58,1223,378.0,499,457,60,119.0,207,1,409,277,73,0,0,377,8200,742,361,,,,,,,,,,,,
247123,1560691518930,1,2.18,2.4,3.08,2.01,5.08,0.72,0.46,0.57,-13,-0,-21,0.85,7033,31,86,35,58,1209,379.0,507,457,60,118.0,207,1,409,277,73,0,0,378,8200,-6656,362,,,,,,,,,,,,
247143,1560691518950,3,2.19,2.4,3.07,2.02,5.04,0.76,0.32,0.64,-13,-0,-21,0.82,7046,31,86,35,58,1192,379.0,508,457,60,119.0,200,1,410,277,73,0,0,379,8200,8200,364,45.700932,4.909745,35.52,202.7,2,1.435,0,0.0,0.0617,3,0.07,4.1191
247163,1560691518970,1,2.2,2.4,3.08,2.02,5.05,0.78,0.25,0.67,-13,-1,-18,0.82,7064,31,86,35,57,1175,379.0,510,459,60,118.0,200,1,405,273,73,0,0,380,8200,-6656,368,,,,,,,,,,,,
247183,1560691518990,1,2.22,2.4,3.08,2.05,5.04,0.68,0.34,0.54,-12,2,-16,0.76,7115,31,86,34,58,1158,380.0,511,462,60,118.0,200,1,410,280,73,0,0,384,-992,-18948,368,,,,,,,,,,,,
247203,1560691519000,-2,2.23,2.39,3.08,2.06,5.04,0.65,0.42,0.56,-11,1,-15,0.78,7153,31,86,34,57,1136,381.0,517,461,60,117.0,200,1,405,280,73,0,0,378,-18948,-18948,369,,,,,,,,,,,,
247223,1560691519020,3,2.26,2.38,3.08,2.09,5.07,0.71,0.34,0.7,-11,0,-16,0.79,7172,31,86,34,57,1111,380.0,513,459,60,118.0,200,1,406,276,73,0,0,383,-992,-18948,374,,,,,,,,,,,,
247243,1560691519040,2,2.28,2.37,3.09,2.09,5.04,0.71,0.19,0.71,-9,0,-18,0.73,7205,31,86,34,57,1093,381.0,523,457,60,119.0,203,1,406,277,76,0,0,385,-18948,-992,374,45.700943,4.90975,35.67,202.7,2,1.435,0,0.0,0.0633,3,0.07,4.1207
247263,1560691519060,3,2.31,2.35,3.11,2.12,5.07,0.73,0.12,0.65,-8,-2,-16,0.74,7214,31,86,34,57,1084,381.0,523,457,60,119.0,203,1,406,277,76,0,0,386,-18948,-31744,378,,,,,,,,,,,,
247283,1560691519092,-0,2.33,2.32,3.15,2.14,5.07,0.61,0.17,0.57,-7,-1,-13,0.64,7256,31,86,34,56,1075,383.0,516,458,60,118.0,203,1,401,277,76,0,0,384,-19126,-1818,382,,,,,,,,,,,,
247303,1560691519112,-0,2.37,2.3,3.21,2.19,5.05,0.62,0.13,0.57,-5,-1,-9,0.63,7267,31,86,34,56,1065,386.0,516,461,60,117.0,203,1,401,271,76,0,0,385,-18948,505,386,,,,,,,,,,,,
247323,1560691519132,-0,2.41,2.28,3.24,2.24,5.04,0.76,0.03,0.68,-4,-2,-6,0.76,7270,31,86,34,56,1060,390.0,511,462,60,118.0,203,1,401,271,76,0,0,386,2278,1,390,,,,,,,,,,,,
247343,1560691519152,5,2.44,2.24,3.28,2.28,5.07,0.79,-0.1,0.81,-2,-2,-5,0.8,7329,31,86,34,56,1060,393.0,512,456,60,118.0,189,1,402,266,74,0,0,388,8200,-1818,393,45.700951,4.909754,36.2,202.6,2,1.435,0,0.0,0.065,3,0.07,4.1224
247363,1560691519172,2,2.47,2.22,3.37,2.29,5.05,0.71,-0.18,0.79,1,-1,-4,0.73,7361,31,86,34,55,1057,396.0,520,457,60,119.0,189,1,396,266,74,0,0,392,8200,-1818,396,,,,,,,,,,,,
247383,1560691519192,5,2.5,2.22,3.41,2.36,5.04,0.75,-0.29,0.8,3,-0,-2,0.8,7425,31,86,34,55,1051,399.0,518,461,60,119.0,189,1,396,267,74,0,0,389,2278,11545,399,,,,,,,,,,,,
247403,1560691519206,4,2.53,2.22,3.41,2.39,5.05,0.69,-0.38,0.81,5,1,1,0.78,7428,31,86,34,55,1045,402.0,523,456,60,119.0,189,1,396,267,74,0,0,394,-6656,10541,402,,,,,,,,,,,,
247423,1560691519226,4,2.56,2.21,3.44,2.37,5.05,0.54,-0.45,0.75,8,3,2,0.7,7491,31,86,34,54,1040,405.0,527,460,60,119.0,189,1,390,262,74,0,0,399,8200,-26615,403,,,,,,,,,,,,
247443,1560691519246,5,2.58,2.18,3.47,2.39,5.05,0.46,-0.44,0.73,11,3,5,0.63,7509,31,86,34,54,1031,404.0,534,457,60,119.0,183,1,390,263,74,0,0,404,-6656,-26615,404,45.700962,4.909759,37.19,202.5,2,1.435,0,0.0,0.0667,3,0.07,4.1241
247463,1560691519266,3,2.61,2.16,3.51,2.41,5.05,0.41,-0.56,0.75,12,3,7,0.7,7606,31,86,34,53,1017,407.0,543,452,60,119.0,183,1,387,258,74,0,0,419,8200,-26615,407,,,,,,,,,,,,
247483,1560691519286,0,2.62,2.14,3.51,2.4,5.08,0.45,-0.55,0.69,14,4,10,0.71,7656,31,86,34,53,1006,409.0,546,458,60,118.0,183,1,387,258,74,0,0,398,3,-4059,409,,,,,,,,,,,,
247503,1560691519296,-2,2.64,2.14,3.51,2.41,5.06,0.49,-0.65,0.74,15,3,12,0.82,7741,31,86,34,53,998,409.0,552,460,60,118.0,183,1,387,259,74,0,0,404,742,10392,409,,,,,,,,,,,,
247523,1560691519316,2,2.64,2.13,3.52,2.41,5.05,0.56,-0.69,0.69,17,3,14,0.89,7747,31,86,34,53,989,411.0,552,463,60,118.0,183,1,387,253,74,0,0,420,-6656,13040,411,,,,,,,,,,,,
247543,1560691519336,4,2.64,2.12,3.55,2.42,5.04,0.57,-0.65,0.6,18,2,18,0.86,7793,31,86,34,52,976,413.0,557,461,60,118.0,180,1,384,253,74,0,0,431,3,18584,415,45.700966,4.909763,37.85,202.5,2,1.435,0,0.0,0.0683,3,0.08,4.1257
247563,1560691519356,5,2.64,2.11,3.55,2.42,5.05,0.54,-0.72,0.67,20,2,22,0.9,7878,31,86,34,50,964,419.0,556,455,60,119.0,180,1,378,247,74,0,0,433,-6656,-21944,419,,,,,,,,,,,,
247583,1560691519393,1,2.64,2.11,3.55,2.43,5.04,0.5,-0.81,0.7,22,2,23,0.95,7918,31,86,34,50,959,420.0,553,456,60,118.0,180,1,378,241,74,0,0,414,-6656,-21792,420,,,,,,,,,,,,
247603,1560691519413,3,2.63,2.11,3.57,2.43,5.05,0.51,-0.84,0.71,23,2,24,0.98,7921,31,86,34,50,951,420.0,565,462,60,117.0,180,1,378,241,74,0,0,411,2278,-3856,420,,,,,,,,,,,,
247623,1560691519433,4,2.64,2.1,3.57,2.43,5.04,0.57,-0.88,0.67,24,-1,26,1.05,7934,31,86,34,49,938,423.0,565,457,60,118.0,180,1,375,235,74,0,0,432,2278,13552,423,,,,,,,,,,,,
247643,1560691519453,0,2.64,2.1,3.59,2.44,5.08,0.45,-0.8,0.62,26,1,28,0.92,7918,31,86,34,48,924,425.0,557,459,60,118.0,165,1,372,235,70,0,0,436,-6656,-4082,425,45.700977,4.909769,37.59,202.5,2,1.435,0,0.0,0.07,3,0.08,4.1274
247663,1560691519473,1,2.64,2.1,3.6,2.45,5.06,0.49,-0.83,0.64,27,-1,29,0.96,7985,31,86,34,49,917,425.0,560,458,60,119.0,165,1,375,235,70,0,0,433,2278,-4082,425,,,,,,,,,,,,
247683,1560691519493,1,2.64,2.09,3.59,2.46,5.05,0.57,-0.88,0.54,28,-1,32,1.05,8029,31,86,34,48,909,429.0,555,461,60,118.0,165,1,372,229,70,0,0,421,2278,31796,429,,,,,,,,,,,,
247703,1560691519505,-0,2.64,2.07,3.6,2.46,5.04,0.57,-0.89,0.57,29,-0,34,1.06,8016,31,86,34,47,896,427.0,561,457,60,119.0,165,1,370,223,70,0,0,425,-992,13180,430,,,,,,,,,,,,
247723,1560691519525,3,2.64,2.07,3.58,2.48,5.05,0.6,-0.94,0.63,29,-1,36,1.12,7999,31,86,34,47,883,432.0,566,459,60,118.0,165,1,370,223,70,0,0,434,-18948,-7939,432,,,,,,,,,,,,
247743,1560691519545,1,2.65,2.12,3.58,2.49,5.05,0.61,-1.0,0.58,30,-3,35,1.17,8036,31,86,34,47,878,430.0,572,459,60,119.0,160,1,370,223,69,0,0,438,-18948,3635,430,45.700985,4.909776,38.84,202.4,2,1.435,0,0.0,0.0717,3,0.08,4.129
247763,1560691519565,-2,2.64,2.09,3.58,2.48,5.06,0.63,-1.06,0.59,31,-4,34,1.23,8043,31,86,34,47,873,428.0,577,457,60,118.0,160,1,370,223,69,0,0,420,-19126,-3322,428,,,,,,,,,,,,
247783,1560691519585,0,2.62,2.06,3.61,2.48,5.05,0.63,-1.07,0.62,32,-5,33,1.24,8067,31,86,34,47,870,430.0,571,460,60,118.0,160,1,370,223,69,0,0,423,-19019,243,430,,,,,,,,,,,,
247803,1560691519597,4,2.6,2.04,3.61,2.49,5.03,0.68,-1.08,0.61,32,-5,35,1.27,8043,31,86,34,47,868,433.0,575,460,60,118.0,160,1,370,223,69,0,0,459,-6475,-768,433,,,,,,,,,,,,
247823,1560691519617,-1,2.59,2.04,3.61,2.48,5.05,0.66,-1.1,0.67,33,-5,36,1.28,8088,31,86,34,46,870,434.0,570,457,60,118.0,160,1,362,221,69,0,0,452,-19126,-3322,435,,,,,,,,,,,,
247843,1560691519637,3,2.57,2.05,3.61,2.48,5.07,0.6,-1.06,0.57,33,-6,36,1.22,8198,31,86,34,47,873,435.0,572,464,60,118.0,158,1,370,225,69,0,0,419,-6475,19477,435,45.700993,4.909784,39.23,202.4,2,1.435,0,0.0,0.0733,3,0.08,4.1307
247863,1560691519657,1,2.53,2.05,3.61,2.47,5.04,0.63,-1.0,0.6,33,-5,38,1.19,8230,31,86,34,46,884,436.0,577,459,60,119.0,158,1,363,223,69,0,0,410,-31744,-7939,436,,,,,,,,,,,,
247883,1560691519691,4,2.5,2.05,3.62,2.48,5.03,0.57,-0.97,0.56,33,-4,37,1.12,8166,31,86,34,46,895,436.0,571,461,60,118.0,158,1,362,222,69,0,0,462,-6524,19477,435,,,,,,,,,,,,
247903,1560691519711,-1,2.47,2.07,3.58,2.47,5.07,0.67,-1.01,0.59,32,-5,37,1.21,8145,31,86,34,46,903,436.0,576,461,60,118.0,158,1,362,222,69,0,0,459,1,-7939,436,,,,,,,,,,,,
247923,1560691519731,3,2.43,2.08,3.54,2.46,5.04,0.63,-1.0,0.56,31,-3,36,1.19,8223,31,86,34,46,911,434.0,570,457,60,118.0,158,1,363,221,69,0,0,412,17144,1779,434,,,,,,,,,,,,
247943,1560691519751,-0,2.42,2.09,3.52,2.44,5.08,0.65,-1.02,0.57,30,-4,36,1.21,8234,31,86,34,45,922,434.0,574,456,60,119.0,158,1,356,221,69,0,0,417,28696,-7939,433,45.701004,4.909793,39.5,202.3,2,1.435,0,0.0,0.075,3,0.08,4.1324
247963,1560691519771,1,2.39,2.14,3.48,2.43,5.06,0.66,-0.95,0.57,28,-3,35,1.16,8134,31,86,34,46,933,433.0,562,455,60,117.0,158,1,362,222,69,0,0,432,1504,20625,433,,,,,,,,,,,,
247983,1560691519791,4,2.36,2.17,3.43,2.4,5.08,0.68,-0.93,0.6,27,-2,35,1.15,8033,32,86,34,46,940,433.0,577,457,60,119.0,158,1,362,221,69,0,0,437,11560,23400,433,,,,,,,,,,,,
248003,1560691519807,0,2.35,2.21,3.4,2.38,5.04,0.71,-0.94,0.71,25,-4,32,1.18,8009,32,86,34,47,944,434.0,569,460,60,118.0,158,1,370,223,69,0,0,435,13040,-7939,432,,,,,,,,,,,,
248023,1560691519827,1,2.33,2.25,3.36,2.35,5.05,0.75,-0.86,0.69,22,-3,30,1.14,7975,32,86,34,48,952,431.0,563,460,60,118.0,158,1,372,223,69,0,0,432,-3414,-3314,431,,,,,,,,,,,,
248043,1560691519847,2,2.34,2.27,3.31,2.32,5.06,0.77,-0.75,0.69,20,-5,27,1.07,7951,32,86,34,47,961,431.0,567,458,60,119.0,159,1,370,229,69,0,0,429,-21792,-7939,431,45.701008,4.909803,40.1,202.3,2,1.435,0,0.0,0.0767,3,0.08,4.134
248063,1560691519867,-2,2.33,2.31,3.29,2.3,5.05,0.79,-0.73,0.71,19,-6,25,1.07,7999,32,86,34,48,969,432.0,552,456,60,119.0,159,1,372,229,69,0,0,426,3826,1779,429,,,,,,,,,,,,
248083,1560691519887,2,2.31,2.31,3.31,2.28,5.08,0.8,-0.67,0.67,18,-5,23,1.05,8040,32,86,34,48,974,432.0,547,460,60,118.0,159,1,372,229,69,0,0,428,3826,-3314,432,,,,,,,,,,,,
248103,1560691519899,5,2.3,2.3,3.31,2.27,5.04,0.85,-0.55,0.69,16,-6,22,1.01,8067,33,86,34,48,983,431.0,549,456,60,119.0,159,1,372,229,69,0,0,432,-3856,1779,431,,,,,,,,,,,,
248123,1560691519919,1,2.29,2.3,3.3,2.24,5.07,0.85,-0.57,0.71,14,-6,21,1.02,8138,34,86,34,48,995,432.0,549,456,60,119.0,159,1,372,230,69,0,0,432,31796,-3322,432,,,,,,,,,,,,
248143,1560691519939,4,2.29,2.3,3.3,2.23,5.07,0.8,-0.47,0.61,13,-5,20,0.93,8191,35,86,34,49,1003,432.0,557,456,60,118.0,168,1,375,237,73,0,0,432,31796,243,432,45.701016,4.909814,41.03,202.3,2,1.435,0,0.0,0.0783,3,0.08,4.1357
248163,1560691519959,0,2.28,2.31,3.27,2.22,5.04,0.77,-0.36,0.63,12,-4,18,0.85,8166,36,86,34,49,1009,431.0,564,458,60,119.0,168,1,375,244,73,0,0,435,-3314,5600,431,,,,,,,,,,,,
248183,1560691519995,4,2.28,2.32,3.21,2.22,5.03,0.75,-0.25,0.58,11,-4,16,0.79,8155,37,86,34,51,1018,434.0,570,463,60,117.0,168,1,381,244,73,0,0,437,243,5600,431,,,,,,,,,,,,
248203,1560691520015,-1,2.27,2.32,3.21,2.22,5.04,0.75,-0.2,0.64,10,-3,14,0.78,8187,38,86,34,50,1032,434.0,564,456,60,119.0,168,1,378,250,73,0,0,439,-768,-7939,432,,,,,,,,,,,,
248223,1560691520035,3,2.28,2.31,3.22,2.2,5.08,0.66,-0.11,0.63,9,-2,14,0.67,8187,39,86,34,51,1043,435.0,564,460,60,118.0,168,1,381,250,73,0,0,438,-768,-7939,435,,,,,,,,,,,,
248243,1560691520055,1,2.28,2.31,3.21,2.21,5.04,0.72,-0.1,0.7,8,-3,13,0.73,8194,39,86,34,52,1051,436.0,571,460,60,119.0,182,1,384,257,79,0,0,443,5600,26704,436,45.701023,4.909826,41.37,202.2,2,1.435,0,0.0,0.08,3,0.08,4.1374
248263,1560691520075,2,2.28,2.31,3.21,2.21,5.08,0.68,-0.03,0.64,8,-1,12,0.68,8230,40,86,34,53,1065,437.0,582,461,60,118.0,182,1,387,266,79,0,0,442,19477,21580,436,,,,,,,,,,,,
248283,1560691520095,-0,2.28,2.31,3.22,2.2,5.04,0.73,-0.08,0.77,7,-1,11,0.74,8289,41,86,34,53,1085,438.0,580,453,60,119.0,182,1,387,266,79,0,0,442,19477,23400,437,,,,,,,,,,,,
248303,1560691520105,2,2.3,2.3,3.22,2.18,5.05,0.71,-0.09,0.7,6,-1,9,0.71,8314,42,86,34,54,1103,439.0,582,456,60,117.0,182,1,390,273,79,0,0,442,-28332,20625,439,,,,,,,,,,,,
248323,1560691520125,1,2.31,2.31,3.21,2.19,5.04,0.74,-0.12,0.79,6,-1,7,0.75,8348,42,86,34,54,1115,441.0,589,460,60,119.0,182,1,390,274,79,0,0,449,26704,2131,439,,,,,,,,,,,,
248343,1560691520145,2,2.32,2.31,3.23,2.21,5.05,0.72,-0.08,0.66,6,-1,7,0.73,8363,43,86,34,55,1130,443.0,587,461,60,117.0,196,1,398,275,87,0,0,448,-18341,16648,441,45.701027,4.909839,41.91,202.2,2,1.435,0,0.0,0.0817,3,0.08,4.1391
248363,1560691520165,1,2.33,2.31,3.24,2.22,5.06,0.7,-0.03,0.69,5,0,7,0.7,8434,43,86,34,55,1151,443.0,582,455,60,118.0,196,1,398,283,87,0,0,451,26704,10305,443,,,,,,,,,,,,
248383,1560691520185,1,2.33,2.3,3.26,2.22,5.05,0.67,-0.14,0.7,5,-1,6,0.69,8430,44,86,34,55,1169,446.0,576,456,60,119.0,196,1,398,283,87,0,0,452,23400,3571,447,,,,,,,,,,,,
248403,1560691520201,5,2.34,2.28,3.27,2.19,5.05,0.62,-0.17,0.63,6,0,6,0.64,8389,45,86,34,56,1179,450.0,580,461,60,118.0,196,1,406,290,87,0,0,451,21432,2524,450,,,,,,,,,,,,
248423,1560691520221,2,2.36,2.27,3.28,2.21,5.08,0.69,-0.24,0.72,6,1,6,0.74,8438,46,86,34,55,1189,452.0,573,460,60,119.0,196,1,398,291,87,0,0,451,-18341,-9160,452,,,,,,,,,,,,
248443,1560691520241,3,2.38,2.28,3.26,2.21,5.06,0.62,-0.22,0.63,6,-0,7,0.66,8449,46,86,33,56,1202,453.0,585,461,60,118.0,206,1,406,291,93,0,0,455,21432,15649,453,45.701035,4.909851,42.47,202.2,2,1.435,0,0.0,0.0833,3,0.09,4.1407
248463,1560691520261,3,2.39,2.26,3.28,2.22,5.07,0.63,-0.2,0.68,7,1,7,0.66,8538,47,86,33,57,1215,455.0,587,452,60,118.0,206,1,412,295,93,0,0,455,21432,-9160,455,,,,,,,,,,,,
248483,1560691520297,4,2.4,2.24,3.37,2.23,5.08,0.68,-0.35,0.8,8,-0,7,0.76,8648,48,86,33,57,1220,457.0,595,460,60,119.0,206,1,409,306,93,0,0,458,21432,-23623,457,,,,,,,,,,,,
248503,1560691520317,2,2.4,2.23,3.38,2.25,5.07,0.66,-0.39,0.79,8,1,8,0.77,8660,50,86,33,58,1227,459.0,606,461,60,119.0,206,1,414,315,93,0,0,463,-18341,6193,459,,,,,,,,,,,,
248523,1560691520337,8,2.43,2.23,3.36,2.28,5.06,0.61,-0.32,0.77,9,0,9,0.68,8676,51,86,33,58,1246,464.0,607,456,60,118.0,206,1,413,316,93,0,0,462,21432,-3210,464,,,,,,,,,,,,
248543,1560691520357,4,2.42,2.24,3.36,2.3,5.04,0.56,-0.33,0.72,10,1,9,0.65,8644,52,86,33,58,1266,465.0,601,460,60,118.0,222,1,414,323,103,0,0,463,2131,243,463,45.701042,4.909864,43.24,202.1,2,1.435,0,0.0,0.085,3,0.09,4.1424
248563,1560691520377,3,2.43,2.23,3.39,2.3,5.05,0.65,-0.45,0.79,10,-2,9,0.79,8636,53,86,33,59,1281,464.0,605,463,60,119.0,222,1,421,322,103,0,0,468,10305,-3210,464,,,,,,,,,,,,
248583,1560691520391,0,2.43,2.22,3.4,2.32,5.04,0.71,-0.5,0.8,10,-3,10,0.87,8696,54,86,33,60,1296,465.0,595,466,60,118.0,222,1,422,332,103,0,0,468,8488,30272,466,,,,,,,,,,,,
248603,1560691520411,2,2.42,2.2,3.42,2.32,5.04,0.61,-0.47,0.72,11,-2,12,0.77,8664,55,86,33,61,1316,466.0,606,457,60,119.0,222,1,430,331,103,0,0,468,8488,243,466,,,,,,,,,,,,
248623,1560691520431,4,2.42,2.19,3.42,2.32,5.03,0.57,-0.38,0.69,12,-2,13,0.68,8708,57,86,33,62,1336,470.0,607,461,60,118.0,222,1,426,346,103,0,0,465,10305,-16384,470,,,,,,,,,,,,
248643,1560691520451,3,2.42,2.2,3.4,2.32,5.04,0.59,-0.38,0.66,12,-1,15,0.7,8848,58,86,33,62,1342,473.0,603,469,60,118.0,244,1,413,349,115,0,0,462,-3267,8488,471,45.70105,4.909876,43.86,202.1,2,1.435,0,0.0,0.0867,3,0.09,4.1441
248663,1560691520471,5,2.41,2.2,3.41,2.34,5.04,0.57,-0.39,0.65,12,-1,15,0.69,8882,60,86,33,63,1347,472.0,603,455,60,118.0,244,1,410,355,115,0,0,471,-3267,-9203,472,,,,,,,,,,,,
248683,1560691520491,3,2.41,2.2,3.42,2.33,5.08,0.64,-0.44,0.72,13,-1,15,0.78,8907,62,86,33,65,1369,473.0,610,457,60,118.0,244,1,412,365,115,0,0,475,-6387,-23367,473,,,,,,,,,,,,
248703,1560691520504,4,2.4,2.19,3.39,2.34,5.04,0.74,-0.57,0.81,13,-3,15,0.93,8941,63,86,33,66,1392,474.0,606,456,60,119.0,244,1,412,370,115,0,0,473,2524,8488,475,,,,,,,,,,,,
248723,1560691520524,5,2.39,2.2,3.39,2.35,5.04,0.8,-0.64,0.89,12,-3,14,1.03,8873,65,86,33,67,1411,475.0,605,459,60,118.0,244,1,416,375,115,0,0,479,2524,-17956,475,,,,,,,,,,,,
248743,1560691520544,4,2.39,2.2,3.37,2.33,5.06,0.9,-0.73,0.9,12,-4,14,1.16,8971,66,86,33,69,1430,476.0,606,456,60,118.0,269,1,415,388,128,0,0,474,17628,16648,476,45.701057,4.90989,44.59,202.1,2,1.435,0,0.0,0.0883,3,0.09,4.1457
248763,1560691520564,3,2.38,2.19,3.34,2.33,5.08,0.95,-0.76,0.94,12,-5,15,1.22,8911,67,86,33,70,1452,478.0,613,460,60,118.0,269,1,417,398,128,0,0,475,17628,8488,478,,,,,,,,,,,,
248783,1560691520584,3,2.39,2.2,3.36,2.33,5.08,1.01,-0.88,0.96,11,-7,15,1.34,9014,68,86,33,72,1475,480.0,606,443,60,118.0,269,1,413,407,128,0,0,479,12552,-6441,480,,,,,,,,,,,,
248803,1560691520596,3,2.37,2.2,3.38,2.32,5.05,1.08,-0.88,0.96,11,-6,15,1.39,9159,70,86,33,72,1484,481.0,615,458,60,118.0,269,1,413,427,128,0,0,491,6193,3580,481,,,,,,,,,,,,
248823,1560691520616,4,2.37,2.21,3.34,2.33,5.08,1.09,-0.99,1.05,11,-6,14,1.47,9259,72,86,33,74,1488,481.0,607,450,60,118.0,269,1,414,436,128,0,0,488,30272,-1562,483,,,,,,,,,,,,
248843,1560691520636,0,2.36,2.25,3.33,2.34,5.04,1.05,-1.05,1.02,11,-3,13,1.49,9282,73,86,33,74,1493,485.0,615,454,60,117.0,310,1,414,436,150,0,0,492,8488,-1818,485,45.701061,4.909904,45.32,202.0,2,1.435,0,0.0,0.09,3,0.09,4.1474
248863,1560691520656,0,2.36,2.25,3.32,2.33,5.07,0.87,-0.85,0.92,11,-2,14,1.21,9241,74,86,33,75,1497,486.0,609,453,60,117.0,310,1,414,446,150,0,0,492,-1923,248,486,,,,,,,,,,,,
248883,1560691520694,2,2.35,2.3,3.3,2.35,5.05,0.66,-0.56,0.85,11,-1,15,0.86,9263,74,86,33,76,1498,488.0,611,461,60,117.0,310,1,414,456,150,0,0,495,-9203,3,488,,,,,,,,,,,,
248903,1560691520714,4,2.34,2.32,3.27,2.34,5.04,0.77,-0.51,0.83,9,-3,15,0.93,9305,74,86,33,76,1498,489.0,610,457,60,118.0,310,1,414,456,150,0,0,497,8488,-9216,492,,,,,,,,,,,,
248923,1560691520734,3,2.35,2.33,3.27,2.32,5.06,0.9,-0.66,0.95,9,-4,13,1.11,9328,75,86,33,77,1487,491.0,619,451,60,118.0,310,1,414,470,150,0,0,503,-10483,11560,491,,,,,,,,,,,,
248943,1560691520754,2,2.34,2.34,3.25,2.34,5.04,0.87,-0.71,0.96,9,-2,11,1.12,9517,75,86,33,76,1470,497.0,611,460,60,118.0,327,1,416,457,162,0,0,502,-1562,-28648,497,45.701069,4.909918,46.11,202.0,2,1.435,0,0.0,0.0917,3,0.09,4.149
248963,1560691520774,3,2.34,2.34,3.24,2.34,5.04,0.67,-0.48,0.89,9,-3,11,0.82,9645,75,86,33,76,1454,499.0,616,451,60,118.0,327,1,411,466,162,0,0,514,505,6274,499,,,,,,,,,,,,
248983,1560691520794,1,2.34,2.33,3.24,2.33,5.04,0.75,-0.56,0.9,8,-3,10,0.93,9750,75,86,33,76,1438,501.0,627,454,60,118.0,327,1,406,473,162,0,0,513,998,15679,501,,,,,,,,,,,,
249003,1560691520806,4,2.33,2.34,3.24,2.34,5.04,0.71,-0.45,0.89,8,-2,11,0.84,9780,75,86,33,75,1414,506.0,618,455,60,118.0,327,1,405,466,162,0,0,529,-9216,6274,506,,,,,,,,,,,,
249023,1560691520826,2,2.34,2.35,3.22,2.37,5.04,0.76,-0.48,0.98,7,-4,11,0.9,9852,75,86,33,75,1384,509.0,624,459,60,118.0,327,1,401,474,162,0,0,528,11560,-28648,509,,,,,,,,,,,,
249043,1560691520846,5,2.33,2.35,3.21,2.37,5.04,0.65,-0.37,0.98,7,-1,9,0.75,9899,75,86,33,75,1362,516.0,625,455,60,118.0,343,1,400,475,176,0,0,534,6274,2524,516,45.701073,4.909934,47.49,201.9,2,1.435,0,0.0,0.0933,3,0.09,4.1507
249063,1560691520866,3,2.33,2.36,3.2,2.36,5.07,0.74,-0.29,1.0,6,-3,9,0.79,9894,75,86,33,75,1348,517.0,623,453,60,117.0,343,1,400,475,176,0,0,530,-4054,2524,519,,,,,,,,,,,,
249083,1560691520886,1,2.34,2.37,3.19,2.37,5.04,0.69,-0.38,1.02,6,-2,8,0.79,9957,75,86,33,75,1327,522.0,620,451,60,118.0,343,1,397,478,176,0,0,532,26178,-28648,522,,,,,,,,,,,,
249103,1560691520900,5,2.34,2.36,3.19,2.36,5.02,0.68,-0.21,1.0,6,-2,8,0.71,10086,75,86,33,75,1299,527.0,623,453,60,118.0,343,1,403,483,176,0,0,540,1341,1780,527,,,,,,,,,,,,
249123,1560691520920,4,2.34,2.36,3.2,2.36,5.03,0.75,-0.22,1.01,5,-4,9,0.78,10135,75,86,33,75,1274,530.0,627,453,60,118.0,343,1,406,483,176,0,0,546,-8187,-506,530,,,,,,,,,,,,
249143,1560691520940,4,2.35,2.36,3.22,2.36,5.08,0.76,-0.3,1.04,5,-4,8,0.81,10240,75,86,33,75,1259,536.0,627,457,60,117.0,351,1,417,483,187,0,0,549,-32248,-28648,536,45.70108,4.90995,48.97,201.9,2,1.435,0,0.0,0.095,3,0.09,4.1524
249163,1560691520960,4,2.33,2.37,3.22,2.37,5.04,0.84,-0.3,0.99,5,-2,9,0.89,10336,75,86,33,75,1242,537.0,623,458,60,117.0,351,1,420,484,187,0,0,551,-28648,2104,537,,,,,,,,,,,,
249183,1560691520994,4,2.34,2.37,3.2,2.36,5.04,0.69,-0.32,0.99,6,-3,9,0.75,10410,75,86,33,75,1223,542.0,621,458,60,117.0,351,1,430,484,187,0,0,557,-22519,-28648,542,,,,,,,,,,,,
249203,1560691521014,3,2.33,2.36,3.21,2.37,5.04,0.5,-0.27,0.92,6,-2,9,0.57,10527,75,86,33,75,1207,544.0,630,455,60,118.0,351,1,433,485,187,0,0,555,-28648,-22359,547,,,,,,,,,,,,
249223,1560691521034,2,2.35,2.36,3.2,2.37,5.05,0.6,-0.31,0.92,6,-3,11,0.67,10551,75,86,33,75,1203,549.0,635,455,60,118.0,351,1,434,485,187,0,0,570,-3082,-32504,551,,,,,,,,,,,,
249243,1560691521054,-2,2.35,2.36,3.2,2.36,5.05,0.53,-0.3,0.85,6,-2,10,0.61,10647,76,86,33,75,1197,556.0,627,460,60,117.0,351,1,436,485,194,0,0,567,-8962,-8186,556,45.701084,4.909967,50.75,201.9,2,1.435,0,0.0,0.0967,3,0.1,4.154
249263,1560691521074,-0,2.35,2.36,3.23,2.37,5.06,0.55,-0.37,0.93,6,-3,10,0.67,10653,76,86,33,75,1190,557.0,640,458,60,120.0,351,1,436,485,194,0,0,582,-8962,-8188,557,,,,,,,,,,,,
249283,1560691521094,-1,2.36,2.35,3.22,2.37,5.07,0.63,-0.34,0.89,6,-4,10,0.71,10157,76,86,33,78,1185,562.0,633,455,60,120.0,351,1,399,497,194,0,0,569,-9072,1267,561,,,,,,,,,,,,
249303,1560691521108,-0,2.37,2.32,3.25,2.35,5.04,0.75,-0.47,0.88,7,-4,9,0.88,9755,76,86,33,80,1183,565.0,636,455,60,119.0,351,1,406,516,194,0,0,557,-9072,-2934,565,,,,,,,,,,,,
249323,1560691521128,0,2.37,2.29,3.3,2.33,5.05,0.68,-0.42,0.8,7,-7,10,0.8,9566,76,86,33,81,1183,565.0,625,462,60,119.0,351,1,414,526,194,0,0,553,-9072,1780,565,,,,,,,,,,,,
249343,1560691521148,-0,2.38,2.25,3.37,2.31,5.08,0.47,-0.38,0.81,8,-7,13,0.6,9379,77,86,33,82,1187,568.0,627,456,60,118.0,333,1,417,540,189,0,0,549,6274,1780,568,45.701092,4.909985,52.74,201.8,2,1.435,0,0.0,0.0983,3,0.1,4.1557
249363,1560691521168,2,2.37,2.21,3.43,2.31,5.04,0.62,-0.44,0.82,9,-4,13,0.76,9132,79,86,33,83,1192,571.0,620,460,60,119.0,333,1,418,1020,189,0,0,561,-32248,-8186,571,,,,,,,,,,,,
249383,1560691521188,2,2.38,2.19,3.45,2.31,5.08,0.76,-0.59,0.83,10,-7,13,0.96,8886,80,86,33,84,1198,570.0,619,455,60,118.0,333,1,421,945,189,0,0,548,-32248,-8186,569,,,,,,,,,,,,
249403,1560691521200,2,2.38,2.21,3.42,2.36,5.06,0.56,-0.68,0.78,11,-6,16,0.88,8745,81,86,33,85,1208,571.0,609,447,60,118.0,333,1,425,868,189,0,0,569,2104,-1894,571,,,,,,,,,,,,
249423,1560691521220,6,2.39,2.24,3.37,2.43,5.07,0.55,-0.56,0.9,12,-2,17,0.79,8692,82,86,33,84,1259,576.0,586,458,60,118.0,333,1,425,750,189,0,0,654,2524,-23055,576,,,,,,,,,,,,
249443,1560691521240,5,2.39,2.33,3.29,2.49,5.06,0.45,-0.57,0.93,12,1,17,0.72,8542,82,86,33,84,1310,583.0,575,457,60,118.0,410,1,429,653,237,0,0,673,2216,19320,583,45.701096,4.910003,53.96,201.8,2,1.435,0,0.0,0.1,3,0.1,4.1574
249463,1560691521260,1,2.39,2.38,3.24,2.54,5.05,0.52,-0.6,0.96,12,2,18,0.8,8526,82,86,33,84,1355,590.0,576,461,60,118.0,410,1,429,566,237,0,0,605,2216,-16046,590,,,,,,,,,,,,
249483,1560691521300,3,2.41,2.41,3.2,2.57,5.05,0.52,-0.61,0.96,13,-1,20,0.8,8419,79,86,33,84,1400,594.0,568,457,60,117.0,410,1,431,557,237,0,0,594,12552,-10251,594,,,,,,,,,,,,
249503,1560691521320,2,2.41,2.41,3.24,2.58,5.08,0.49,-0.64,1.06,13,-0,19,0.81,8270,75,86,33,82,1430,598.0,554,450,60,118.0,410,1,432,520,237,0,0,622,1267,-2836,604,,,,,,,,,,,,
249523,1560691521340,4,2.4,2.4,3.3,2.6,5.06,0.45,-0.54,0.96,14,1,19,0.7,8241,73,86,33,82,1462,605.0,557,456,60,118.0,410,1,433,517,237,0,0,630,-3210,771,605,,,,,,,,,,,,
249543,1560691521360,1,2.41,2.38,3.35,2.6,5.07,0.45,-0.57,0.99,15,-3,18,0.73,8340,72,86,33,80,1452,609.0,557,455,60,118.0,263,1,430,513,160,0,0,623,10432,506,609,45.701103,4.910022,54.85,201.7,2,1.435,0,0.0,0.1017,3,0.1,4.159
249563,1560691521380,1,2.41,2.35,3.43,2.6,5.04,0.47,-0.58,1.02,15,-3,16,0.75,8561,72,86,33,79,1436,613.0,580,462,60,118.0,263,1,425,512,160,0,0,631,8488,30721,615,,,,,,,,,,,,
249583,1560691521400,3,2.4,2.34,3.45,2.6,5.05,0.49,-0.56,0.98,15,-4,17,0.74,8733,71,86,33,78,1357,615.0,593,452,60,118.0,263,1,421,483,160,0,0,641,-1894,20993,615,,,,,,,,,,,,
249603,1560691521410,5,2.41,2.34,3.44,2.59,5.07,0.41,-0.51,1.03,15,-1,19,0.66,8831,71,86,33,77,1275,622.0,604,451,60,117.0,263,1,418,456,160,0,0,640,3472,11566,622,,,,,,,,,,,,
249623,1560691521430,4,2.4,2.35,3.4,2.6,5.03,0.43,-0.44,1.04,15,-1,22,0.61,8890,71,86,33,76,1206,626.0,607,463,60,118.0,263,1,416,456,160,0,0,648,3472,11776,625,,,,,,,,,,,,
249643,1560691521450,3,2.4,2.34,3.36,2.6,5.07,0.39,-0.46,1.11,15,0,22,0.6,8865,71,86,33,75,1140,628.0,601,457,60,118.0,244,1,418,446,153,0,0,652,243,-3038,630,45.701107,4.910041,57.67,201.7,2,1.435,0,0.0,0.1033,3,0.1,4.1607
249663,1560691521470,3,2.4,2.32,3.34,2.6,5.08,0.43,-0.49,1.19,15,-0,20,0.65,8815,70,86,33,76,1077,637.0,608,453,60,118.0,244,1,418,456,153,0,0,649,-768,-2830,633,,,,,,,,,,,,
249683,1560691521490,3,2.4,2.31,3.34,2.59,5.06,0.54,-0.58,1.26,15,-3,19,0.79,8802,70,86,33,75,1015,639.0,600,462,60,118.0,244,1,420,446,153,0,0,640,-23055,-8429,639,,,,,,,,,,,,
249703,1560691521505,3,2.39,2.3,3.39,2.59,5.06,0.59,-0.72,1.28,15,-3,18,0.93,8856,69,86,33,75,1000,642.0,596,461,60,118.0,244,1,418,446,153,0,0,663,26688,-8429,642,,,,,,,,,,,,
249723,1560691521525,3,2.39,2.29,3.4,2.59,5.05,0.67,-0.79,1.26,15,-1,19,1.04,8945,69,86,33,74,1004,646.0,593,453,60,118.0,244,1,416,436,153,0,0,662,3403,8958,645,,,,,,,,,,,,
249743,1560691521545,2,2.39,2.28,3.42,2.58,5.07,0.75,-0.91,1.27,15,-2,19,1.18,9036,68,86,33,74,1018,650.0,595,457,60,118.0,226,1,413,436,147,0,0,663,-16883,3543,652,45.701111,4.910062,59.73,201.6,2,1.435,0,0.0,0.105,3,0.1,4.1624
249763,1560691521565,3,2.4,2.3,3.42,2.58,5.07,0.79,-0.91,1.23,15,-3,19,1.2,9164,68,86,33,73,1036,655.0,587,463,60,118.0,226,1,413,427,147,0,0,668,-16883,3543,653,,,,,,,,,,,,
249783,1560691521585,4,2.4,2.32,3.4,2.59,5.04,0.89,-1.01,1.3,15,-2,19,1.35,9250,68,86,33,73,1053,655.0,607,453,60,118.0,226,1,414,427,147,0,0,665,-16046,-2830,655,,,,,,,,,,,,
249803,1560691521595,2,2.4,2.31,3.39,2.58,5.04,0.87,-1.11,1.35,15,-3,18,1.41,9263,66,86,33,72,1067,657.0,612,458,60,118.0,226,1,414,417,147,0,0,682,966,-26562,661,,,,,,,,,,,,
249823,1560691521615,5,2.4,2.3,3.38,2.6,5.04,0.8,-0.98,1.29,15,-3,18,1.27,9218,61,86,33,69,1078,665.0,608,457,60,118.0,226,1,414,398,147,0,0,685,-5120,-10399,664,,,,,,,,,,,,
249843,1560691521635,1,2.4,2.27,3.38,2.59,5.08,0.57,-0.84,1.24,16,-2,18,1.02,9241,56,86,33,67,1088,668.0,611,461,60,118.0,204,1,412,375,136,0,0,694,-10251,-10344,670,45.701115,4.910084,61.65,201.6,2,1.435,0,0.0,0.1067,3,0.11,4.1641
249863,1560691521655,2,2.41,2.26,3.4,2.58,5.07,0.61,-0.77,1.12,16,-3,18,0.98,9245,53,86,33,64,1091,671.0,615,456,60,117.0,204,1,408,361,136,0,0,677,11776,6208,671,,,,,,,,,,,,
249883,1560691521693,2,2.41,2.27,3.42,2.58,5.05,0.75,-0.89,1.08,16,-2,19,1.17,9254,51,86,33,62,1088,672.0,626,453,60,118.0,204,1,406,352,136,0,0,684,11566,1780,672,,,,,,,,,,,,
249903,1560691521713,2,2.4,2.27,3.41,2.57,5.05,0.87,-1.0,1.17,16,-6,19,1.33,9263,51,86,33,60,1077,677.0,618,457,60,118.0,204,1,404,342,136,0,0,686,4909,11576,677,,,,,,,,,,,,
249923,1560691521733,4,2.4,2.26,3.43,2.58,5.05,0.83,-1.04,1.17,15,-6,18,1.33,9277,51,85,33,59,1058,679.0,621,452,60,118.0,204,1,403,336,136,0,0,686,-30207,24,679,,,,,,,,,,,,
249943,1560691521753,3,2.39,2.27,3.42,2.56,5.05,0.66,-0.97,1.03,16,-4,18,1.17,9319,50,85,33,58,1041,681.0,619,455,60,117.0,170,1,404,331,116,0,0,686,-2830,3543,678,45.701118,4.910106,63.62,201.6,2,1.435,0,0.0,0.1083,3,0.11,4.1657
249963,1560691521773,4,2.39,2.26,3.46,2.56,5.07,0.59,-0.91,0.94,16,-5,19,1.09,9384,45,85,33,56,1027,682.0,620,455,60,118.0,170,1,402,322,116,0,0,690,-2830,12333,682,,,,,,,,,,,,
249983,1560691521793,4,2.38,2.25,3.48,2.56,5.05,0.74,-0.95,0.9,16,-3,20,1.21,9403,40,85,33,53,1007,687.0,616,459,60,118.0,170,1,396,302,116,0,0,703,-3038,11576,687,,,,,,,,,,,,
250003,1560691521805,4,2.36,2.25,3.49,2.55,5.07,0.76,-0.96,0.92,15,-6,20,1.22,9412,38,85,33,50,982,688.0,622,458,60,118.0,170,1,387,270,116,0,0,693,-2826,12333,689,,,,,,,,,,,,
250023,1560691521825,1,2.35,2.25,3.49,2.54,5.05,0.57,-0.85,0.87,15,-3,21,1.02,9328,37,85,33,48,960,687.0,626,457,60,117.0,170,1,379,246,116,0,0,699,-10348,-10448,687,,,,,,,,,,,,
250043,1560691521845,0,2.35,2.25,3.47,2.53,5.06,0.61,-0.73,0.75,15,-3,22,0.95,9333,37,85,33,46,949,689.0,623,460,60,118.0,120,1,369,233,83,0,0,690,-3578,16599,689,45.701122,4.910129,65.33,201.5,2,1.435,0,0.0,0.11,3,0.11,4.1674
250063,1560691521865,3,2.33,2.25,3.44,2.52,5.05,0.75,-0.8,0.78,14,-5,22,1.1,9337,37,85,33,45,933,687.0,628,460,60,118.0,120,1,362,230,83,0,0,687,-388,6208,688,,,,,,,,,,,,
250083,1560691521885,2,2.32,2.24,3.42,2.5,5.07,0.88,-0.91,0.88,13,-7,20,1.27,9323,37,85,33,44,909,688.0,621,465,60,118.0,120,1,355,227,83,0,0,685,-388,6208,688,,,,,,,,,,,,
250103,1560691521901,1,2.31,2.24,3.42,2.47,5.06,0.71,-0.76,0.8,13,-6,19,1.04,9328,36,85,33,43,886,689.0,621,460,60,118.0,120,1,348,225,83,0,0,690,-2345,-3584,689,,,,,,,,,,,,
250123,1560691521921,1,2.31,2.24,3.41,2.44,5.05,0.53,-0.59,0.61,13,-3,17,0.79,9370,34,85,33,42,873,689.0,616,466,60,118.0,120,1,341,222,83,0,0,682,-2826,-10448,687,,,,,,,,,,,,
250143,1560691521941,3,2.29,2.24,3.38,2.4,5.07,0.61,-0.59,0.64,11,-3,18,0.85,9370,32,85,33,41,857,685.0,621,453,60,118.0,113,1,334,220,78,0,0,692,-26892,-10448,685,45.701122,4.910153,66.44,201.5,2,1.435,0,0.0,0.1117,3,0.11,4.1691
250163,1560691521961,1,2.29,2.25,3.36,2.37,5.05,0.75,-0.7,0.7,10,-3,16,1.02,9323,31,85,33,39,831,688.0,616,458,60,118.0,113,1,320,214,78,0,0,689,-2345,-10448,688,,,,,,,,,,,,
250183,1560691521993,5,2.27,2.27,3.32,2.36,5.04,0.72,-0.7,0.68,9,-3,14,1.01,9295,30,85,32,38,806,687.0,621,459,60,118.0,113,1,317,211,78,0,0,685,-10344,6208,686,,,,,,,,,,,,
250203,1560691522013,0,2.27,2.27,3.3,2.32,5.05,0.53,-0.5,0.52,8,-0,13,0.73,9245,29,85,32,37,793,685.0,623,460,60,117.0,113,1,314,208,78,0,0,688,-10399,6208,682,,,,,,,,,,,,
250223,1560691522033,-0,2.26,2.29,3.3,2.3,5.04,0.41,-0.26,0.37,7,0,12,0.49,9191,28,85,32,36,780,684.0,617,462,60,118.0,113,1,311,204,78,0,0,684,24845,-2345,684,,,,,,,,,,,,
250243,1560691522053,1,2.25,2.28,3.27,2.25,5.07,0.44,-0.12,0.32,6,1,13,0.46,9164,28,85,32,35,769,687.0,626,460,60,118.0,102,1,308,200,70,0,0,687,6208,24845,681,45.701122,4.910176,66.68,201.5,2,1.435,0,0.0,0.1133,3,0.11,4.1707
250263,1560691522073,-1,2.25,2.29,3.28,2.22,5.05,0.6,-0.07,0.36,5,1,12,0.61,9110,27,85,32,34,759,684.0,626,455,60,118.0,102,1,305,196,70,0,0,681,3543,3543,680,,,,,,,,,,,,
250283,1560691522093,1,2.23,2.28,3.27,2.21,5.03,0.72,-0.11,0.45,3,-1,11,0.73,9057,27,85,32,33,760,684.0,632,458,60,118.0,102,1,302,192,70,0,0,685,3543,-2826,679,,,,,,,,,,,,
250303,1560691522113,1,2.24,2.3,3.27,2.18,5.04,0.85,-0.12,0.5,2,-2,10,0.86,9001,27,85,32,33,763,684.0,625,461,60,119.0,102,1,302,191,70,0,0,687,24845,-26562,680,,,,,,,,,,,,
250323,1560691522133,2,2.22,2.3,3.25,2.14,5.06,0.97,-0.19,0.59,1,-2,9,0.98,8958,27,85,32,33,763,686.0,637,455,60,119.0,102,1,302,191,70,0,0,686,16599,-2345,679,,,,,,,,,,,,
250343,1560691522153,1,2.22,2.29,3.22,2.1,5.07,1.07,-0.14,0.62,-1,-4,8,1.08,8945,27,85,32,33,763,683.0,624,456,60,118.0,96,1,302,191,65,0,0,682,24,-26562,679,45.701122,4.910201,66.74,201.5,2,1.435,0,0.0,0.115,3,0.11,4.1724
250363,1560691522173,1,2.22,2.3,3.22,2.07,5.04,1.15,-0.09,0.65,-2,-3,7,1.15,8945,26,85,32,32,761,687.0,622,458,60,118.0,96,1,300,188,65,0,0,681,6208,-26892,679,,,,,,,,,,,,
250383,1560691522191,1,2.21,2.32,3.2,2.05,5.08,1.2,0.05,0.61,-3,-4,6,1.2,8915,26,85,32,32,759,684.0,618,457,60,118.0,96,1,300,188,65,0,0,685,24845,8958,675,,,,,,,,,,,,
250403,1560691522211,-1,2.21,2.34,3.15,2.03,5.07,1.21,0.16,0.6,-4,-3,6,1.22,8915,26,85,32,32,758,686.0,620,453,60,118.0,96,1,300,188,65,0,0,689,3543,-26380,674,,,,,,,,,,,,
250423,1560691522231,-1,2.21,2.35,3.12,2.01,5.05,1.14,0.34,0.48,-4,-2,5,1.19,8924,26,85,32,32,757,685.0,620,460,60,118.0,96,1,300,188,65,0,0,680,-10399,8958,674,,,,,,,,,,,,
250443,1560691522251,2,2.2,2.37,3.12,1.99,5.05,1.09,0.51,0.36,-5,-0,4,1.2,9014,26,85,32,32,758,684.0,622,460,60,118.0,95,1,300,188,64,0,0,673,24845,-26380,671,45.701122,4.910224,66.33,201.5,2,1.435,0,0.0,0.1167,3,0.12,4.174
250463,1560691522271,2,2.2,2.36,3.12,1.97,5.06,1.1,0.66,0.32,-6,-2,4,1.28,9124,25,85,32,31,760,684.0,625,456,60,118.0,95,1,295,189,64,0,0,677,24845,-2826,670,,,,,,,,,,,,
250483,1560691522291,0,2.21,2.37,3.14,1.95,5.05,1.19,0.62,0.38,-6,-1,3,1.34,9173,25,85,32,31,766,680.0,629,458,60,118.0,95,1,295,190,64,0,0,671,-10344,31988,669,,,,,,,,,,,,
250503,1560691522311,1,2.21,2.37,3.15,1.95,5.04,1.27,0.4,0.49,-7,-4,1,1.34,9159,25,85,32,31,774,682.0,636,459,60,118.0,95,1,295,190,64,0,0,678,-10344,-3578,665,,,,,,,,,,,,
250523,1560691522331,1,2.21,2.39,3.16,1.94,5.06,1.33,0.21,0.64,-8,-5,-1,1.35,9141,25,85,32,30,780,681.0,633,458,60,118.0,95,1,291,189,64,0,0,677,-26562,-10348,666,,,,,,,,,,,,
250543,1560691522351,3,2.19,2.41,3.13,1.94,5.07,1.4,0.09,0.71,-9,-5,-4,1.4,9115,25,85,32,30,786,681.0,624,462,60,118.0,98,1,291,189,65,0,0,682,-26562,-2830,663,45.701126,4.910248,65.65,201.5,2,1.435,0,0.0,0.1183,3,0.12,4.1757
250563,1560691522371,3,2.2,2.41,3.09,1.94,5.05,1.33,0.1,0.73,-9,-5,-5,1.33,9079,25,85,32,30,794,679.0,621,461,60,118.0,98,1,291,188,65,0,0,682,-10346,-3038,662,,,,,,,,,,,,
250583,1560691522391,4,2.19,2.41,3.09,1.92,5.04,1.29,0.1,0.71,-9,-4,-7,1.29,9057,25,85,32,30,802,678.0,618,462,60,118.0,98,1,291,188,65,0,0,679,-26562,-3488,662,,,,,,,,,,,,
250603,1560691522407,5,2.18,2.43,3.07,1.92,5.05,1.13,0.18,0.68,-9,-4,-9,1.15,9084,25,85,32,30,807,677.0,620,459,60,118.0,98,1,291,188,65,0,0,677,-26892,-27404,658,,,,,,,,,,,,
250623,1560691522427,4,2.18,2.43,3.07,1.91,5.04,1.06,0.29,0.57,-10,-2,-10,1.1,9040,24,85,32,30,810,678.0,622,457,60,118.0,98,1,291,188,65,0,0,675,-10346,-6006,660,,,,,,,,,,,,
250643,1560691522447,4,2.18,2.43,3.08,1.89,5.05,0.88,0.44,0.5,-10,-2,-10,0.98,9049,24,85,32,30,809,679.0,616,460,60,118.0,96,1,291,188,64,0,0,677,-2826,31988,658,45.701126,4.910272,65.33,201.5,2,1.435,0,0.0,0.12,3,0.12,4.1774
250663,1560691522467,3,2.19,2.44,3.06,1.88,5.06,0.75,0.6,0.4,-10,0,-13,0.96,9036,24,85,32,30,808,678.0,618,459,60,118.0,96,1,291,188,64,0,0,679,-26892,31988,655,,,,,,,,,,,,
250683,1560691522487,4,2.19,2.44,3.06,1.88,5.08,0.65,0.74,0.27,-11,1,-13,0.98,8992,24,85,32,30,805,675.0,618,456,60,118.0,96,1,291,188,64,0,0,673,-10346,24583,655,,,,,,,,,,,,
250703,1560691522506,5,2.19,2.45,3.06,1.87,5.07,0.59,0.85,0.24,-11,2,-13,1.03,8997,24,85,32,30,802,674.0,623,459,60,118.0,96,1,291,188,64,0,0,669,-10344,-2830,653,,,,,,,,,,,,
250723,1560691522526,4,2.18,2.45,3.06,1.86,5.05,0.49,0.96,0.16,-11,2,-13,1.08,8962,24,85,32,30,800,676.0,623,456,60,118.0,96,1,291,188,64,0,0,674,-2826,24583,654,,,,,,,,,,,,
250743,1560691522546,3,2.18,2.45,3.06,1.86,5.07,0.46,0.97,0.11,-11,3,-14,1.08,8984,24,85,32,29,800,674.0,624,460,60,118.0,96,1,287,188,63,0,0,672,-26380,-3488,652,45.70113,4.910296,64.59,201.5,2,1.435,0,0.0,0.1217,3,0.12,4.179
250763,1560691522566,5,2.18,2.46,3.05,1.86,5.07,0.37,1.04,-0.01,-11,4,-14,1.1,8988,24,85,32,29,802,674.0,630,456,60,118.0,96,1,287,188,63,0,0,676,-26380,-8429,652,,,,,,,,,,,,
250783,1560691522586,4,2.18,2.47,3.04,1.87,5.04,0.36,1.06,-0.02,-12,5,-15,1.11,8941,24,85,32,29,806,670.0,616,460,60,118.0,96,1,287,188,63,0,0,666,-3038,-3584,649,,,,,,,,,,,,
250803,1560691522602,4,2.17,2.47,3.04,1.85,5.08,0.31,1.02,-0.02,-12,5,-15,1.07,8962,24,85,32,29,814,672.0,622,456,60,118.0,96,1,287,188,63,0,0,666,-3038,-30207,650,,,,,,,,,,,,
250823,1560691522622,3,2.17,2.47,3.03,1.84,5.04,0.34,0.9,-0.04,-12,6,-17,0.96,8920,24,85,32,29,825,669.0,606,458,60,118.0,96,1,287,188,63,0,0,667,31988,244,647,,,,,,,,,,,,
250843,1560691522642,3,2.16,2.45,3.03,1.83,5.02,0.38,0.78,0.01,-13,5,-18,0.87,8894,23,85,32,29,834,671.0,613,453,60,118.0,96,1,287,188,63,0,0,670,8958,244,649,45.70113,4.910317,63.7,201.5,2,1.435,0,0.0,0.1233,3,0.12,4.1807
250863,1560691522662,2,2.18,2.47,3.04,1.83,5.04,0.49,0.69,0.06,-13,4,-19,0.84,8877,23,85,32,29,841,672.0,604,457,60,118.0,96,1,287,188,63,0,0,669,-388,4909,645,,,,,,,,,,,,
250883,1560691522682,3,2.17,2.51,3.04,1.83,5.07,0.57,0.57,0.15,-13,4,-20,0.8,8848,23,85,32,29,850,667.0,618,454,60,118.0,96,1,287,188,63,0,0,664,-388,6208,645,,,,,,,,,,,,
250903,1560691522702,2,2.17,2.52,3.04,1.83,5.08,0.71,0.47,0.26,-14,3,-22,0.85,8840,23,85,32,29,861,668.0,616,456,60,119.0,96,1,287,188,63,0,0,668,-2830,24,644,,,,,,,,,,,,
250923,1560691522722,1,2.18,2.52,3.04,1.83,5.07,0.84,0.38,0.43,-14,0,-21,0.92,8840,23,85,32,29,871,667.0,625,451,60,118.0,96,1,287,188,63,0,0,660,-3578,11776,644,,,,,,,,,,,,
250943,1560691522742,-0,2.18,2.52,3.03,1.82,5.07,0.94,0.45,0.46,-15,-2,-21,1.04,8840,23,85,32,29,876,665.0,624,453,60,118.0,98,1,287,188,63,0,0,667,3543,-10251,640,45.701134,4.91034,62.96,201.5,2,1.435,0,0.0,0.125,3,0.13,4.1824
250963,1560691522762,0,2.18,2.51,3.04,1.81,5.04,0.94,0.54,0.46,-16,-2,-20,1.08,8840,23,85,32,29,882,665.0,624,453,60,118.0,98,1,287,188,63,0,0,661,3543,-4876,641,,,,,,,,,,,,
250983,1560691522782,0,2.18,2.5,3.04,1.81,5.05,0.92,0.68,0.37,-16,-1,-20,1.14,8798,23,85,32,29,890,665.0,620,458,60,118.0,98,1,287,188,63,0,0,658,3543,16599,640,,,,,,,,,,,,
251003,1560691522800,2,2.18,2.51,3.02,1.82,5.05,0.76,0.81,0.3,-15,-0,-18,1.11,8794,23,85,32,29,898,660.0,629,453,60,118.0,98,1,287,188,63,0,0,660,-2345,-5120,643,,,,,,,,,,,,
251023,1560691522820,3,2.18,2.5,3.03,1.81,5.08,0.71,0.83,0.26,-15,1,-19,1.09,8819,23,85,32,29,902,658.0,611,458,60,118.0,98,1,287,188,63,0,0,660,-3038,3,638,,,,,,,,,,,,
251043,1560691522840,4,2.17,2.49,3.0,1.8,5.03,0.72,0.79,0.34,-15,2,-21,1.07,8790,23,85,32,29,904,661.0,615,455,60,118.0,97,1,287,188,62,0,0,657,-10344,-10251,639,45.701138,4.910363,62.44,201.5,2,1.435,0,0.0,0.1267,3,0.13,4.1841
251063,1560691522860,3,2.17,2.49,3.03,1.79,5.07,0.83,0.6,0.41,-15,2,-22,1.03,8769,23,85,32,29,904,658.0,607,455,60,118.0,97,1,287,188,62,0,0,655,-2345,-2580,637,,,,,,,,,,,,
251083,1560691522880,-0,2.18,2.49,3.04,1.8,5.04,0.9,0.61,0.42,-16,2,-21,1.08,8773,23,85,32,29,904,659.0,607,458,60,119.0,97,1,287,188,62,0,0,659,-26380,-5120,635,,,,,,,,,,,,
251103,1560691522896,0,2.18,2.49,3.04,1.81,5.03,0.91,0.65,0.43,-16,0,-21,1.12,8769,23,85,32,29,900,657.0,608,453,60,118.0,97,1,287,188,62,0,0,652,8958,-14655,635,,,,,,,,,,,,
251123,1560691522916,2,2.18,2.52,3.01,1.81,5.06,0.82,0.75,0.42,-15,-0,-20,1.11,8753,23,85,32,29,897,657.0,610,454,60,118.0,97,1,287,188,62,0,0,655,8958,-14655,633,,,,,,,,,,,,
251143,1560691522936,4,2.17,2.55,3.01,1.84,5.03,0.74,0.83,0.36,-15,-0,-20,1.11,8696,23,85,32,29,891,654.0,612,450,60,118.0,98,1,287,188,62,0,0,647,-2830,-4876,630,45.701141,4.910385,61.75,201.5,2,1.435,0,0.0,0.1283,3,0.13,4.1857
251163,1560691522956,3,2.16,2.56,3.04,1.84,5.04,0.79,0.76,0.4,-15,-1,-21,1.1,8680,23,85,32,29,886,653.0,615,456,60,119.0,98,1,287,188,62,0,0,651,-3488,-4876,628,,,,,,,,,,,,
251183,1560691522994,1,2.17,2.55,3.07,1.81,5.04,0.9,0.72,0.51,-15,-4,-20,1.15,8652,23,85,32,29,884,648.0,615,458,60,119.0,98,1,287,188,62,0,0,649,479,-2836,629,,,,,,,,,,,,
251203,1560691523014,-1,2.17,2.54,3.08,1.8,5.07,0.91,0.76,0.47,-15,-3,-20,1.19,8616,23,85,32,29,882,653.0,624,456,60,118.0,98,1,287,188,62,0,0,650,-3488,20993,632,,,,,,,,,,,,
251223,1560691523034,4,2.17,2.56,3.1,1.78,5.04,0.77,0.84,0.4,-15,-2,-21,1.14,8616,23,85,32,30,877,652.0,627,452,60,118.0,98,1,291,188,62,0,0,650,24583,19320,627,,,,,,,,,,,,
251243,1560691523054,3,2.17,2.55,3.12,1.77,5.04,0.76,0.73,0.41,-15,-0,-23,1.06,8636,23,85,32,29,871,652.0,610,461,60,119.0,97,1,287,188,61,0,0,648,24583,3403,625,45.701145,4.910407,61.19,201.5,2,1.435,0,0.0,0.13,3,0.13,4.1874
251263,1560691523074,1,2.19,2.53,3.1,1.76,5.05,0.82,0.68,0.43,-15,0,-23,1.07,8624,22,85,32,29,867,656.0,600,458,60,119.0,97,1,287,188,61,0,0,650,-388,966,628,,,,,,,,,,,,
251283,1560691523094,4,2.18,2.53,3.07,1.76,5.07,0.8,0.76,0.37,-16,0,-22,1.1,8624,22,85,32,30,864,654.0,609,455,60,118.0,97,1,291,188,61,0,0,647,-2830,17336,627,,,,,,,,,,,,
251303,1560691523114,2,2.19,2.53,3.0,1.77,5.07,0.73,0.8,0.35,-16,2,-22,1.08,8585,22,85,32,29,857,651.0,600,455,60,119.0,97,1,287,188,61,0,0,653,2024,3403,623,,,,,,,,,,,,
251323,1560691523134,1,2.19,2.54,2.93,1.76,5.07,0.74,0.72,0.5,-15,2,-23,1.04,8616,22,85,32,29,850,646.0,603,457,60,118.0,97,1,287,188,61,0,0,645,4909,-28304,622,,,,,,,,,,,,
251343,1560691523154,1,2.19,2.54,2.94,1.78,5.06,0.87,0.72,0.58,-15,1,-23,1.13,8604,22,85,32,29,846,646.0,602,461,60,119.0,97,1,287,188,61,0,0,644,4909,-18357,623,45.701153,4.910427,60.65,201.5,2,1.435,0,0.0,0.1317,3,0.13,4.1891
251363,1560691523174,5,2.19,2.52,2.93,1.77,5.04,0.88,0.74,0.53,-15,0,-22,1.15,8577,22,85,32,29,842,644.0,611,455,60,118.0,97,1,287,188,61,0,0,645,11776,26688,623,,,,,,,,,,,,
251383,1560691523194,2,2.18,2.51,2.95,1.76,5.07,0.77,0.73,0.45,-15,2,-23,1.06,8600,22,85,32,29,838,644.0,610,453,60,118.0,97,1,287,188,61,0,0,643,11776,19320,625,,,,,,,,,,,,
251403,1560691523210,1,2.18,2.51,2.97,1.75,5.08,0.78,0.71,0.53,-14,2,-22,1.06,8546,22,85,32,29,833,643.0,607,456,60,118.0,97,1,287,188,61,0,0,647,244,3403,620,,,,,,,,,,,,
251423,1560691523230,0,2.18,2.51,3.02,1.77,5.04,0.82,0.73,0.45,-14,0,-23,1.1,8538,22,85,32,29,831,642.0,620,453,60,118.0,97,1,287,188,61,0,0,636,-2830,3395,621,,,,,,,,,,,,
251443,1560691523250,1,2.18,2.51,3.06,1.77,5.04,0.78,0.73,0.43,-14,1,-22,1.07,8507,22,85,32,29,830,640.0,610,456,60,118.0,97,1,287,186,60,0,0,637,24,19320,620,45.70116,4.910448,60.21,201.5,2,1.435,0,0.0,0.1333,3,0.13,4.1907
251463,1560691523270,1,2.18,2.51,3.05,1.79,5.08,0.84,0.7,0.53,-15,0,-22,1.1,8449,22,85,32,29,830,639.0,606,455,60,119.0,97,1,286,184,60,0,0,639,6208,19320,618,,,,,,,,,,,,
251483,1560691523290,6,2.17,2.53,3.04,1.81,5.05,0.84,0.71,0.37,-15,-0,-21,1.1,8449,22,85,32,29,829,635.0,611,460,60,118.0,97,1,286,184,60,0,0,636,-4876,26688,613,,,,,,,,,,,,
251503,1560691523306,1,2.19,2.56,3.04,1.83,5.06,0.73,0.76,0.31,-14,1,-21,1.05,8476,22,85,32,29,830,636.0,606,456,60,118.0,97,1,286,186,60,0,0,632,-5120,269,614,,,,,,,,,,,,
251523,1560691523326,0,2.18,2.56,3.05,1.82,5.04,0.81,0.69,0.38,-14,-1,-22,1.06,8491,22,85,32,29,831,631.0,597,453,60,119.0,97,1,286,187,60,0,0,629,-2836,-28304,613,,,,,,,,,,,,
251543,1560691523346,5,2.18,2.54,3.06,1.79,5.03,0.85,0.7,0.31,-14,-1,-21,1.1,8442,22,85,32,29,831,633.0,596,453,60,118.0,96,1,286,183,59,0,0,632,-5120,1010,612,45.701164,4.910467,59.47,201.5,2,1.435,0,0.0,0.135,3,0.14,4.1924
251563,1560691523366,3,2.18,2.52,3.1,1.76,5.07,0.82,0.67,0.38,-14,-1,-21,1.06,8415,21,85,32,30,831,633.0,599,455,60,118.0,96,1,290,183,59,0,0,630,-5120,19621,615,,,,,,,,,,,,
251583,1560691523386,-1,2.19,2.51,3.1,1.74,5.04,0.87,0.73,0.37,-14,-0,-21,1.14,8389,21,85,32,29,831,637.0,598,460,60,118.0,96,1,285,182,59,0,0,631,-10251,1010,611,,,,,,,,,,,,
251603,1560691523406,3,2.18,2.51,3.11,1.74,5.08,0.83,0.77,0.34,-14,1,-22,1.13,8404,21,85,32,29,830,634.0,597,455,60,118.0,96,1,285,183,59,0,0,630,-2836,-3210,610,,,,,,,,,,,,
251623,1560691523426,-1,2.19,2.52,3.09,1.75,5.05,0.85,0.75,0.42,-14,2,-22,1.13,8400,21,85,32,29,829,636.0,596,458,60,119.0,96,1,286,183,59,0,0,630,-2580,28675,610,,,,,,,,,,,,
251643,1560691523446,5,2.18,2.52,3.03,1.75,5.04,0.9,0.77,0.36,-14,2,-21,1.18,8374,21,85,32,29,828,632.0,605,455,60,118.0,95,1,285,181,58,0,0,632,3,-23055,608,45.701172,4.910487,59.73,201.5,2,1.435,0,0.0,0.1367,3,0.14,4.194
251663,1560691523466,0,2.17,2.52,2.98,1.75,5.04,0.82,0.79,0.4,-13,2,-22,1.13,8363,21,85,32,29,828,632.0,603,456,60,118.0,95,1,285,180,58,0,0,628,3,-23055,610,,,,,,,,,,,,
251683,1560691523486,1,2.17,2.52,2.99,1.76,5.04,0.88,0.85,0.38,-13,1,-21,1.22,8348,21,85,32,29,827,630.0,607,461,60,119.0,95,1,284,179,58,0,0,627,20993,28675,607,,,,,,,,,,,,
251703,1560691523503,4,2.17,2.51,2.99,1.75,5.04,0.84,0.86,0.41,-13,1,-22,1.2,8344,21,85,32,29,828,629.0,607,455,60,118.0,95,1,284,182,58,0,0,624,20993,-30139,606,,,,,,,,,,,,
251723,1560691523523,1,2.18,2.51,3.01,1.75,5.04,0.82,0.79,0.46,-13,-0,-23,1.14,8370,21,85,32,29,828,626.0,605,454,60,118.0,95,1,285,181,58,0,0,625,506,-7939,604,,,,,,,,,,,,
251743,1560691523543,4,2.17,2.51,3.02,1.75,5.07,0.86,0.78,0.39,-13,-0,-23,1.17,8337,21,85,32,29,829,623.0,601,458,60,118.0,92,1,284,179,56,0,0,620,3395,-3210,602,45.70118,4.910506,58.38,201.4,2,1.435,0,0.0,0.1383,3,0.14,4.1957
251763,1560691523563,-1,2.19,2.51,3.06,1.75,5.05,0.82,0.77,0.42,-13,-1,-22,1.12,8274,21,85,32,29,830,624.0,585,458,60,119.0,92,1,284,177,56,0,0,623,-16883,23619,606,,,,,,,,,,,,
251783,1560691523583,4,2.19,2.5,3.06,1.75,5.04,0.88,0.8,0.4,-13,-1,-23,1.19,8252,20,85,32,29,832,625.0,593,457,60,118.0,92,1,284,176,56,0,0,621,506,23619,604,,,,,,,,,,,,
251803,1560691523601,1,2.19,2.49,3.07,1.75,5.06,0.83,0.77,0.43,-13,-0,-23,1.13,8241,20,85,32,29,834,624.0,577,454,60,119.0,92,1,283,175,56,0,0,616,17336,243,601,,,,,,,,,,,,
251823,1560691523621,6,2.19,2.47,3.08,1.75,5.03,0.83,0.82,0.34,-13,0,-23,1.17,8241,18,85,32,29,835,622.0,584,452,60,118.0,92,1,283,175,56,0,0,615,3395,4956,599,,,,,,,,,,,,
251843,1560691523641,2,2.21,2.47,3.07,1.75,5.05,0.87,0.72,0.4,-13,1,-22,1.12,8184,18,85,32,28,836,618.0,577,453,60,119.0,88,1,279,172,53,0,0,610,269,30227,598,45.701187,4.910524,58.69,201.4,2,1.435,0,0.0,0.14,3,0.14,4.1974
251863,1560691523661,6,2.21,2.45,3.05,1.75,5.07,0.92,0.77,0.36,-13,2,-23,1.2,8202,18,85,32,28,837,617.0,587,454,60,118.0,88,1,279,173,53,0,0,611,16529,-28648,598,,,,,,,,,,,,
251883,1560691523681,4,2.2,2.43,3.05,1.75,5.07,0.9,0.65,0.39,-12,1,-22,1.11,8159,17,85,32,27,838,612.0,584,456,60,119.0,88,1,276,170,53,0,0,613,-28304,-25872,597,,,,,,,,,,,,
251903,1560691523699,7,2.21,2.42,3.05,1.76,5.06,0.98,0.68,0.37,-13,1,-21,1.19,8088,17,85,32,27,840,606.0,584,452,60,118.0,88,1,276,166,53,0,0,604,-30139,-1894,592,,,,,,,,,,,,
251923,1560691523719,9,2.21,2.41,3.06,1.76,5.05,0.96,0.68,0.38,-12,0,-21,1.17,8033,17,85,32,27,840,605.0,598,454,60,118.0,88,1,275,162,53,0,0,601,-3820,-1894,586,,,,,,,,,,,,
