"Interval"|"ms"|0|0|1,"Utc"|"ms"|0|0|1,"FB_p"|"bar"|0|300|50,"Volant"|"F"|0.0|300.0|50,"xFR"|"mm"|0.0|5.0|50,"xRR"|"mm"|0.0|5.0|50,"xFL"|"mm"|0.0|5.0|50,"xRL"|"mm"|0.0|5.0|50,"AccelX"|"G"|-3.0|3.0|50,"AccelY"|"G"|-3.0|3.0|50,"AccelZ"|"G"|-3.0|3.0|50,"Yaw"|"Deg/Sec"|-120|120|50,"Pitch"|"Deg/Sec"|-120|120|50,"Roll"|"Deg/Sec"|-120|120|50,"Gsum"|"G"|0.0|3.0|50,"RPM"|""|0|14000|50,"TPS"|"%"|0|100|50,"WaterTemp"|"?C"|0|300|50,"AirTemp"|"?C"|-1000|1000|50,"MAP"|"KPa"|0|255|50,"Lambda"|""|0|1024|50,"WheelSpeed"|"MPH"|0.0|150.0|50,"OilPress"|"PSI"|0|150|50,"FuelPress"|"PSI"|0|150|50,"OilTemp"|"F"|0|300|50,"Battery"|"Volts"|0.0|20.0|50,"FuelCon"|"L/h"|-1000|1000|50,"Gear"|""|0|10|50,"Advance"|"Deg"|-360|360|50,"Injection"|"ms"|-1000|1000|50,"FuelCon"|"L/100km"|-1000|1000|50,"LC_But_Pres"|""|-1000|1000|50,"LC_Active"|""|-1000|1000|50,"RD_Speed"|""|-1000|1000|50,"RUD_Speed"|""|-1000|1000|50,"LD_Speed"|""|-1000|1000|50,"LUD_Speed"|""|-1000|1000|50,"Latitude"|"Degrees"|-180.0|180.0|10,"Longitude"|"Degrees"|-180.0|180.0|10,"Speed"|"kph"|0.0|150.0|10,"Altitude"|"m"|0.0|4000.0|10,"LapCount"|""|0|0|10,"LapTime"|"Min"|0.0|0.0|10,"Sector"|""|0|0|10,"SectorTime"|"Min"|0.0|0.0|10,"ElapsedTime"|"Min"|0.0|0.0|10,"CurrentLap"|""|0|0|10,"Distance"|"km"|0.0|0.0|10,"SessionTime"|"Min"|0.0|0.0|10
891363,1560692163188,19,2.3,1.8,3.53,1.66,5.06,1.23,0.04,-0.26,1,2,3,1.23,6602,6,91,34,23,934,418.0,450,450,60,119.0,90,1,262,152,38,0,0,366,18584,2060,418,,,,,,,,,,,,
891383,1560692163208,17,2.28,1.8,3.54,1.64,5.06,1.31,-0.05,-0.13,1,-2,4,1.31,6710,6,91,34,23,936,413.0,476,450,60,118.0,90,1,261,153,38,0,0,344,-9166,6668,413,,,,,,,,,,,,
891403,1560692163228,20,2.28,1.8,3.54,1.64,5.04,1.2,-0.01,-0.13,1,-3,4,1.2,6656,6,91,34,23,937,407.0,469,453,60,118.0,90,1,262,152,38,0,0,354,-26615,-6640,406,,,,,,,,,,,,
891423,1560692163248,16,2.28,1.8,3.55,1.64,5.06,1.28,-0.02,-0.19,0,-4,4,1.28,6574,6,91,34,23,940,402.0,468,455,60,117.0,90,1,262,152,38,0,0,368,10541,-1268,400,,,,,,,,,,,,
891443,1560692163268,18,2.29,1.81,3.54,1.64,5.08,1.25,-0.05,-0.17,0,-5,3,1.25,6567,6,91,34,23,941,394.0,460,450,60,119.0,90,1,262,152,38,0,0,365,1,2060,394,45.698978,4.910029,45.46,193.1,8,1.4767,0,0.0,1.0317,9,0.76,14.8574
891463,1560692163288,14,2.29,1.81,3.52,1.64,5.05,1.22,0.04,-0.14,1,-3,2,1.22,6620,6,91,34,24,942,389.0,457,455,60,118.0,97,1,263,152,38,0,0,349,-6524,-30438,387,,,,,,,,,,,,
891483,1560692163308,15,2.28,1.8,3.53,1.63,5.07,1.22,-0.03,-0.05,1,-3,1,1.22,6658,6,91,34,23,944,383.0,464,456,60,117.0,97,1,262,155,38,0,0,334,19125,6870,383,,,,,,,,,,,,
891503,1560692163328,16,2.29,1.8,3.53,1.64,5.06,1.22,-0.03,-0.03,1,-2,-0,1.22,6588,6,91,34,24,944,376.0,466,456,60,118.0,97,1,263,155,38,0,0,342,3,-29978,375,,,,,,,,,,,,
891523,1560692163348,13,2.28,1.8,3.53,1.66,5.04,1.3,-0.0,-0.05,1,-3,0,1.3,6461,6,91,34,24,946,372.0,462,457,60,117.0,97,1,264,155,38,0,0,350,-6656,28553,372,,,,,,,,,,,,
891543,1560692163368,11,2.28,1.82,3.51,1.67,5.05,1.24,-0.11,-0.02,1,-2,0,1.25,6397,6,91,34,24,948,366.0,449,451,60,118.0,97,1,265,155,38,0,0,357,230,-30454,366,45.698967,4.910021,42.4,193.1,8,1.4767,0,0.0,1.0333,9,0.76,14.859
891563,1560692163388,16,2.27,1.85,3.49,1.7,5.08,1.17,-0.13,-0.04,1,-1,1,1.18,6390,6,91,34,24,948,358.0,442,450,60,118.0,101,1,265,155,37,0,0,347,-29978,-30438,358,,,,,,,,,,,,
891583,1560692163408,13,2.28,1.86,3.5,1.69,5.04,1.15,-0.05,-0.05,1,0,3,1.15,6379,6,91,34,24,950,356.0,444,457,60,118.0,101,1,265,155,37,0,0,337,3302,-31222,355,,,,,,,,,,,,
891603,1560692163428,6,2.27,1.85,3.5,1.67,5.05,1.23,-0.11,-0.0,0,-0,4,1.23,6368,6,91,34,25,951,354.0,450,460,60,118.0,101,1,267,159,37,0,0,332,3183,-12032,354,,,,,,,,,,,,
891623,1560692163448,8,2.27,1.85,3.48,1.67,5.08,1.19,-0.15,0.05,1,-1,5,1.2,6311,6,91,34,25,952,350.0,455,458,60,117.0,101,1,267,159,37,0,0,339,-30454,-6528,349,,,,,,,,,,,,
891643,1560692163468,6,2.26,1.87,3.46,1.69,5.06,1.14,-0.15,0.08,1,-1,4,1.15,6273,6,91,34,25,950,348.0,442,448,60,119.0,101,1,268,159,37,0,0,336,6870,13,346,45.698956,4.910013,39.2,193.1,8,1.4767,0,0.0,1.035,9,0.76,14.8607
891663,1560692163488,6,2.26,1.91,3.44,1.73,5.08,1.08,-0.13,0.07,1,-1,3,1.08,6206,6,91,34,25,949,343.0,444,452,60,118.0,106,1,268,159,37,0,0,332,-31206,6668,343,,,,,,,,,,,,
891683,1560692163510,5,2.25,1.91,3.4,1.76,5.03,1.03,-0.07,0.06,1,-1,3,1.04,6163,6,91,34,25,949,340.0,436,448,60,119.0,106,1,269,159,37,0,0,331,3327,-32559,340,,,,,,,,,,,,
891703,1560692163530,5,2.24,1.91,3.35,1.75,5.05,1.01,0.02,0.03,1,2,2,1.01,6151,6,91,34,26,948,339.0,447,455,60,118.0,106,1,272,160,37,0,0,333,-122,175,338,,,,,,,,,,,,
891723,1560692163550,-1,2.25,1.92,3.36,1.75,5.06,1.05,0.07,-0.01,-0,3,1,1.06,6137,6,91,34,26,948,338.0,437,456,60,117.0,106,1,272,160,37,0,0,326,-31222,-25856,335,,,,,,,,,,,,
891743,1560692163570,1,2.24,1.97,3.35,1.78,5.06,1.1,0.07,-0.03,-1,4,-0,1.1,6109,6,91,34,26,948,336.0,439,457,60,117.0,106,1,272,160,37,0,0,328,3346,160,332,45.698952,4.910006,37.12,193.2,8,1.4767,0,0.0,1.0367,9,0.77,14.8624
891763,1560692163590,-1,2.23,1.99,3.34,1.83,5.08,1.17,0.03,-0.02,-2,4,-1,1.17,6050,6,91,34,26,951,333.0,438,457,60,117.0,108,1,272,160,36,0,0,326,-6528,160,330,,,,,,,,,,,,
891783,1560692163606,0,2.22,2.0,3.32,1.82,5.05,1.22,-0.04,0.02,-3,5,-2,1.23,6034,6,91,34,27,954,331.0,442,462,60,117.0,108,1,275,161,36,0,0,324,-12032,-27136,329,,,,,,,,,,,,
891803,1560692163626,0,2.21,2.0,3.29,1.8,5.06,1.3,-0.11,0.07,-4,4,-3,1.31,6034,6,91,34,27,956,331.0,438,458,60,117.0,108,1,275,161,36,0,0,325,-12032,-29696,326,,,,,,,,,,,,
891823,1560692163646,-1,2.21,2.01,3.29,1.81,5.06,1.38,-0.2,0.08,-6,3,-4,1.39,6003,6,91,34,27,957,328.0,437,458,60,117.0,108,1,275,161,36,0,0,324,170,-27136,324,,,,,,,,,,,,
891843,1560692163666,-2,2.21,2.03,3.29,1.81,5.07,1.44,-0.29,0.13,-7,1,-6,1.47,5965,6,91,34,27,956,328.0,432,460,60,117.0,108,1,274,161,36,0,0,321,170,-29696,323,45.698944,4.909998,34.32,193.2,8,1.4767,0,0.0,1.0383,9,0.77,14.864
891863,1560692163686,0,2.2,2.06,3.29,1.82,5.05,1.5,-0.38,0.18,-9,1,-7,1.55,5931,6,91,34,27,956,327.0,426,464,60,117.0,112,1,274,161,36,0,0,322,-22016,-29696,320,,,,,,,,,,,,
891883,1560692163708,-1,2.2,2.06,3.28,1.81,5.05,1.55,-0.41,0.17,-11,2,-8,1.61,5942,6,91,34,27,954,327.0,422,462,60,117.0,112,1,274,161,36,0,0,322,-22016,-29696,318,,,,,,,,,,,,
891903,1560692163728,4,2.19,2.09,3.28,1.81,5.04,1.58,-0.38,0.12,-13,3,-9,1.62,5890,6,91,34,28,952,325.0,421,456,60,117.0,112,1,276,162,36,0,0,320,-23296,-32256,316,,,,,,,,,,,,
891923,1560692163748,3,2.19,2.11,3.27,1.81,5.04,1.5,-0.34,0.09,-14,6,-10,1.54,5850,6,91,34,28,950,323.0,417,457,60,118.0,112,1,276,162,36,0,0,316,-24576,120,313,,,,,,,,,,,,
891943,1560692163768,4,2.18,2.11,3.28,1.81,5.04,1.32,-0.24,0.06,-13,10,-11,1.34,5821,6,91,34,28,948,322.0,410,456,60,118.0,112,1,275,162,36,0,0,315,155,32000,312,45.698936,4.909992,32.91,193.2,8,1.4767,0,0.0,1.04,9,0.77,14.8657
891963,1560692163788,2,2.18,2.11,3.29,1.8,5.05,1.08,-0.11,0.03,-10,13,-11,1.08,5810,6,91,34,29,947,321.0,418,453,60,119.0,112,1,278,162,35,0,0,315,-25856,30720,312,,,,,,,,,,,,
891983,1560692163808,2,2.18,2.11,3.27,1.81,5.05,0.89,0.03,-0.03,-7,14,-11,0.89,5790,5,91,34,29,946,320.0,412,451,60,119.0,112,1,277,163,35,0,0,314,150,29440,309,,,,,,,,,,,,
892003,1560692163828,0,2.17,2.12,3.27,1.8,5.06,0.94,0.15,0.08,-5,10,-11,0.95,5749,6,91,34,29,945,319.0,418,450,60,118.0,112,1,276,163,35,0,0,316,-27136,29440,307,,,,,,,,,,,,
892023,1560692163848,1,2.18,2.12,3.26,1.81,5.07,1.05,0.06,0.22,-7,3,-12,1.05,5726,5,91,34,30,946,316.0,415,457,60,117.0,112,1,279,164,35,0,0,311,140,26880,304,,,,,,,,,,,,
892043,1560692163868,4,2.18,2.12,3.26,1.83,5.04,1.15,0.02,0.21,-11,0,-12,1.15,5702,5,91,34,30,947,315.0,413,460,60,118.0,112,1,279,164,35,0,0,311,-29696,25600,303,45.698929,4.909986,31.71,193.2,8,1.4767,0,0.0,1.0417,9,0.77,14.8674
892063,1560692163888,3,2.19,2.12,3.26,1.82,5.05,1.02,-0.03,0.22,-11,3,-11,1.02,5685,5,91,34,30,949,312.0,407,464,60,119.0,115,1,278,163,35,0,0,309,135,100,303,,,,,,,,,,,,
892083,1560692163908,0,2.2,2.12,3.26,1.83,5.04,0.75,0.05,0.18,-8,7,-11,0.75,5630,5,91,34,31,950,312.0,402,456,60,119.0,115,1,279,164,35,0,0,308,130,23040,302,,,,,,,,,,,,
892103,1560692163928,-2,2.2,2.12,3.26,1.84,5.05,0.82,0.15,0.24,-6,4,-10,0.83,5590,5,91,34,31,952,311.0,408,452,60,117.0,115,1,278,164,35,0,0,305,-32256,24320,300,,,,,,,,,,,,
892123,1560692163948,2,2.21,2.12,3.26,1.85,5.04,0.94,0.11,0.34,-9,1,-11,0.95,5573,5,91,34,32,955,308.0,403,451,60,117.0,115,1,281,164,35,0,0,300,120,95,300,,,,,,,,,,,,
892143,1560692163968,1,2.22,2.1,3.26,1.86,5.03,0.76,-0.0,0.31,-9,6,-12,0.76,5545,5,91,34,32,957,306.0,395,454,60,119.0,115,1,280,164,35,0,0,300,115,23040,298,45.698921,4.90998,31.27,193.2,8,1.4767,0,0.0,1.0433,9,0.77,14.869
892163,1560692163988,0,2.23,2.11,3.27,1.86,5.04,0.67,0.14,0.23,-5,6,-10,0.69,5547,5,91,34,33,957,305.0,400,457,60,117.0,114,1,283,170,34,0,0,297,110,21760,298,,,,,,,,,,,,
892183,1560692164002,-1,2.24,2.11,3.27,1.86,5.05,0.81,0.1,0.33,-7,-2,-9,0.81,5545,5,91,34,33,958,301.0,396,458,60,117.0,114,1,283,170,34,0,0,296,26880,80,296,,,,,,,,,,,,
892203,1560692164022,-0,2.25,2.11,3.28,1.87,5.05,0.76,-0.03,0.34,-9,1,-8,0.76,5511,5,91,34,34,961,300.0,388,452,60,118.0,114,1,287,176,34,0,0,296,100,0,295,,,,,,,,,,,,
892223,1560692164042,1,2.25,2.1,3.3,1.86,5.06,0.58,0.03,0.31,-4,4,-7,0.58,5464,5,91,34,34,963,298.0,391,450,60,118.0,114,1,286,175,34,0,0,291,95,0,294,,,,,,,,,,,,
892243,1560692164062,4,2.25,2.1,3.3,1.87,5.07,0.72,0.07,0.37,-5,-1,-6,0.72,5395,5,91,34,35,961,297.0,391,462,60,117.0,114,1,288,180,34,0,0,293,24320,0,294,45.698917,4.909974,30.14,193.2,8,1.4767,0,0.0,1.045,9,0.77,14.8707
892263,1560692164082,0,2.25,2.09,3.28,1.88,5.04,0.56,-0.06,0.32,-7,4,-7,0.56,5364,5,91,34,35,956,297.0,382,456,60,119.0,122,1,288,179,36,0,0,290,24320,0,293,,,,,,,,,,,,
892283,1560692164107,-1,2.26,2.1,3.27,1.89,5.07,0.71,0.03,0.31,-3,-0,-6,0.71,5341,5,91,34,36,950,293.0,387,452,60,117.0,122,1,291,185,36,0,0,288,21760,41,291,,,,,,,,,,,,
892303,1560692164127,1,2.27,2.1,3.28,1.89,5.04,0.73,-0.06,0.37,-6,1,-7,0.73,5329,5,91,35,37,944,291.0,377,460,60,119.0,122,1,295,184,36,0,0,284,0,0,289,,,,,,,,,,,,
892323,1560692164147,-1,2.28,2.08,3.3,1.88,5.06,0.66,0.08,0.31,-2,2,-5,0.67,5344,5,91,35,37,930,288.0,386,457,60,118.0,122,1,295,190,36,0,0,280,0,250,287,,,,,,,,,,,,
892343,1560692164167,3,2.27,2.07,3.3,1.89,5.07,0.8,0.03,0.4,-6,-1,-5,0.8,5357,5,91,35,37,904,289.0,389,452,60,118.0,122,1,295,190,36,0,0,280,0,250,288,45.69891,4.909969,29.37,193.2,8,1.4767,0,0.0,1.0467,9,0.77,14.8724
892363,1560692164187,0,2.28,2.07,3.31,1.9,5.07,0.55,0.06,0.3,-2,4,-5,0.55,5292,5,91,35,37,879,287.0,384,457,60,119.0,132,1,294,196,38,0,0,284,41,250,287,,,,,,,,,,,,
892383,1560692164207,3,2.28,2.09,3.3,1.94,5.07,0.69,0.07,0.39,-4,-1,-4,0.7,5228,5,91,35,38,858,286.0,378,462,60,118.0,132,1,298,196,38,0,0,282,-16896,-1529,285,,,,,,,,,,,,
892403,1560692164227,-1,2.29,2.09,3.3,1.93,5.04,0.53,0.07,0.33,-1,2,-3,0.54,5185,5,91,35,38,840,284.0,378,443,60,118.0,132,1,297,195,38,0,0,279,-1529,250,284,,,,,,,,,,,,
892423,1560692164247,0,2.3,2.08,3.29,1.94,5.05,0.68,0.01,0.37,-4,-0,-3,0.68,5192,5,91,35,39,825,284.0,374,464,60,118.0,132,1,301,202,38,0,0,277,24064,1886,284,,,,,,,,,,,,
892443,1560692164267,-1,2.3,2.07,3.3,1.93,5.04,0.64,0.07,0.28,-0,1,-2,0.64,5224,5,91,35,39,810,282.0,375,453,60,117.0,132,1,302,203,38,0,0,275,250,28160,282,45.698902,4.909964,28.69,193.3,8,1.4767,0,0.0,1.0483,9,0.77,14.8741
892463,1560692164287,2,2.32,2.06,3.3,1.94,5.04,0.73,-0.01,0.35,-3,0,-2,0.73,5185,5,91,35,39,815,281.0,366,456,60,118.0,142,1,301,202,40,0,0,275,630,250,281,,,,,,,,,,,,
892483,1560692164309,1,2.33,2.06,3.31,1.93,5.05,0.76,0.02,0.34,0,-1,-0,0.76,5144,5,91,35,39,820,280.0,373,455,60,117.0,142,1,301,202,40,0,0,275,-1534,250,280,,,,,,,,,,,,
892503,1560692164329,-2,2.35,2.07,3.31,1.97,5.05,0.66,-0.1,0.31,-2,3,-1,0.67,5117,5,91,35,40,832,281.0,368,454,60,119.0,142,1,302,203,40,0,0,272,250,-1,280,,,,,,,,,,,,
892523,1560692164349,2,2.37,2.07,3.31,1.99,5.05,0.8,-0.07,0.4,0,-3,1,0.8,5085,5,91,35,40,842,279.0,365,467,60,117.0,142,1,301,205,40,0,0,271,28160,250,279,,,,,,,,,,,,
892543,1560692164369,0,2.38,2.07,3.31,2.01,5.05,0.56,-0.12,0.3,2,2,1,0.57,5048,5,91,35,40,848,279.0,365,451,60,117.0,142,1,300,203,40,0,0,266,-1,-1527,279,45.698898,4.909959,28.23,193.3,8,1.4767,0,0.0,1.05,9,0.77,14.8757
892563,1560692164389,0,2.4,2.06,3.32,2.03,5.04,0.7,-0.2,0.35,0,-0,2,0.73,5040,5,91,35,41,855,278.0,358,458,60,119.0,140,1,301,205,39,0,0,265,-1,2414,278,,,,,,,,,,,,
892583,1560692164409,3,2.42,2.05,3.37,2.02,5.05,0.83,-0.19,0.38,4,-6,5,0.85,5030,5,91,35,41,866,277.0,361,456,60,117.0,140,1,301,205,39,0,0,262,-1,-1281,277,,,,,,,,,,,,
892603,1560692164429,-2,2.43,2.05,3.38,2.02,5.05,0.55,-0.27,0.3,4,1,5,0.61,4989,5,91,35,41,878,277.0,356,457,60,119.0,140,1,300,204,39,0,0,263,-1,-1,277,,,,,,,,,,,,
892623,1560692164449,0,2.45,2.05,3.37,2.03,5.08,0.7,-0.29,0.36,3,-1,7,0.75,4981,5,91,35,42,883,277.0,354,457,60,119.0,140,1,300,206,39,0,0,261,-1,250,277,,,,,,,,,,,,
892643,1560692164469,4,2.47,2.04,3.37,2.04,5.08,0.82,-0.24,0.4,7,-5,9,0.86,4929,7,91,35,42,889,277.0,350,463,60,118.0,140,1,299,205,39,0,0,256,-41,-1527,277,45.698894,4.909954,27.31,193.3,8,1.4767,0,0.0,1.0517,9,0.77,14.8774
892663,1560692164489,1,2.48,2.02,3.38,2.06,5.04,0.64,-0.29,0.34,8,-0,9,0.7,4880,8,91,35,43,886,278.0,356,451,60,117.0,133,1,298,205,37,0,0,256,-10440,250,278,,,,,,,,,,,,
892683,1560692164509,-1,2.52,1.99,3.39,2.08,5.06,0.67,-0.39,0.39,7,0,10,0.77,4916,10,91,35,43,885,277.0,349,458,60,118.0,133,1,299,207,37,0,0,251,-1,-1,277,,,,,,,,,,,,
892703,1560692164529,1,2.54,1.96,3.41,2.07,5.04,0.8,-0.38,0.49,8,-6,12,0.89,4876,11,91,35,45,879,277.0,348,460,60,118.0,133,1,300,209,37,0,0,251,-1,-1,277,,,,,,,,,,,,
892723,1560692164549,4,2.54,1.96,3.42,2.12,5.06,0.81,-0.38,0.42,11,-7,14,0.89,4846,13,91,35,46,872,277.0,352,460,60,117.0,133,1,300,210,37,0,0,249,-214,-1,277,,,,,,,,,,,,
892743,1560692164569,-0,2.58,1.97,3.44,2.15,5.05,0.61,-0.39,0.28,12,-1,15,0.73,4817,15,91,35,47,863,277.0,350,458,60,118.0,133,1,302,213,37,0,0,245,-1494,-1,277,45.698887,4.909949,26.27,193.3,8,1.4767,0,0.0,1.0533,9,0.77,14.8791
892763,1560692164589,-0,2.59,1.96,3.47,2.16,5.08,0.49,-0.43,0.24,12,3,16,0.65,4781,17,91,35,49,855,277.0,340,450,60,119.0,141,1,301,218,39,0,0,242,-1494,-1,277,,,,,,,,,,,,
892783,1560692164609,-1,2.6,1.96,3.49,2.16,5.05,0.64,-0.48,0.37,13,-0,17,0.8,4842,18,91,35,51,851,277.0,340,461,60,119.0,141,1,300,222,39,0,0,240,250,-1,276,,,,,,,,,,,,
892803,1560692164629,3,2.6,1.95,3.53,2.15,5.06,0.78,-0.46,0.48,15,-7,20,0.91,4860,19,91,35,53,850,277.0,337,460,60,118.0,141,1,299,231,39,0,0,238,250,-1,277,,,,,,,,,,,,
892823,1560692164649,3,2.61,1.96,3.53,2.16,5.05,0.71,-0.54,0.44,17,-3,21,0.89,4872,20,91,35,55,846,279.0,347,457,60,117.0,141,1,298,238,39,0,0,239,-1445,2414,279,,,,,,,,,,,,
892843,1560692164669,0,2.61,1.97,3.51,2.19,5.04,0.59,-0.55,0.38,17,1,22,0.81,4936,21,91,35,57,843,276.0,347,452,60,117.0,141,1,297,247,39,0,0,238,23482,-1281,276,45.698879,4.909945,25.94,193.3,8,1.4767,0,0.0,1.055,9,0.77,14.8807
892863,1560692164689,-1,2.64,1.97,3.48,2.2,5.05,0.7,-0.56,0.49,18,-1,24,0.9,4939,22,91,35,59,840,276.0,342,457,60,119.0,169,1,296,256,47,0,0,238,250,-1281,276,,,,,,,,,,,,
892883,1560692164709,4,2.64,1.96,3.49,2.19,5.06,0.82,-0.56,0.53,20,-4,25,0.99,4981,23,91,35,61,838,276.0,353,465,60,118.0,169,1,295,265,47,0,0,237,-1484,2414,276,,,,,,,,,,,,
892903,1560692164729,-0,2.65,1.94,3.48,2.2,5.08,0.73,-0.63,0.52,20,1,26,0.96,5045,23,91,35,63,836,277.0,352,450,60,119.0,169,1,296,279,47,0,0,235,-1484,-1,277,,,,,,,,,,,,
892923,1560692164749,2,2.66,1.95,3.48,2.2,5.07,0.86,-0.55,0.55,20,-4,28,1.02,5070,24,91,35,65,836,278.0,343,464,60,118.0,169,1,295,285,47,0,0,235,-25600,250,276,,,,,,,,,,,,
892943,1560692164769,1,2.67,1.96,3.51,2.18,5.06,0.59,-0.6,0.46,24,-3,29,0.85,5142,25,91,35,66,835,278.0,351,461,60,117.0,169,1,298,299,47,0,0,232,-25600,-1,278,45.698875,4.90994,25.18,193.3,8,1.4767,0,0.0,1.0567,9,0.78,14.8824
892963,1560692164789,1,2.69,1.96,3.53,2.2,5.07,0.74,-0.59,0.52,23,-1,31,0.95,5186,26,91,35,67,836,277.0,352,460,60,119.0,215,1,299,306,60,0,0,233,-1483,28160,277,,,,,,,,,,,,
892983,1560692164809,1,2.69,1.96,3.55,2.21,5.08,0.61,-0.61,0.48,26,-5,33,0.86,5257,27,91,35,68,838,278.0,356,467,60,117.0,215,1,303,313,60,0,0,233,-1483,-1527,278,,,,,,,,,,,,
893003,1560692164829,0,2.72,1.96,3.55,2.22,5.08,0.63,-0.62,0.49,25,-1,34,0.89,5280,27,91,35,68,843,279.0,359,447,60,119.0,215,1,304,313,60,0,0,234,-1483,2414,279,,,,,,,,,,,,
893023,1560692164849,0,2.72,1.95,3.54,2.24,5.08,0.58,-0.69,0.5,28,-3,35,0.91,5255,28,91,35,70,845,280.0,362,467,60,117.0,215,1,301,328,60,0,0,250,-1483,2414,280,,,,,,,,,,,,
893043,1560692164869,1,2.73,1.97,3.48,2.26,5.04,0.66,-0.7,0.52,27,-1,36,0.97,5170,28,91,35,70,848,282.0,355,461,60,119.0,215,1,295,326,60,0,0,269,13468,30208,282,45.698872,4.909934,24.99,193.3,8,1.4767,0,0.0,1.0583,9,0.78,14.8841
893063,1560692164889,4,2.73,2.0,3.46,2.3,5.07,0.71,-0.74,0.51,29,-5,39,1.03,5038,28,91,35,71,857,284.0,351,462,60,118.0,226,1,285,330,64,0,0,286,13468,250,284,,,,,,,,,,,,
893083,1560692164907,0,2.72,2.02,3.46,2.31,5.04,0.59,-0.77,0.52,29,-1,37,0.97,4966,28,91,35,72,871,283.0,348,455,60,117.0,226,1,284,332,64,0,0,272,-17920,24064,283,,,,,,,,,,,,
893103,1560692164927,-2,2.74,2.02,3.46,2.3,5.05,0.73,-0.73,0.51,28,-1,37,1.03,4955,29,91,35,73,885,283.0,340,460,60,119.0,226,1,284,337,64,0,0,252,23482,1886,283,,,,,,,,,,,,
893123,1560692164947,3,2.71,2.02,3.46,2.29,5.04,0.79,-0.73,0.5,29,-6,39,1.07,4876,29,91,35,75,897,285.0,340,470,60,118.0,226,1,285,344,64,0,0,250,-1445,24064,285,,,,,,,,,,,,
893143,1560692164967,4,2.7,2.02,3.49,2.28,5.04,0.63,-0.76,0.46,31,-3,39,0.99,4922,29,91,35,75,915,288.0,342,449,60,116.0,226,1,284,345,64,0,0,248,250,24064,288,45.698868,4.909928,25.15,193.5,8,1.4767,0,0.0,1.06,9,0.78,14.8857
893163,1560692164987,0,2.68,2.03,3.5,2.29,5.07,0.66,-0.79,0.48,30,-0,39,1.03,4976,29,91,35,76,941,288.0,341,448,60,119.0,225,1,282,353,65,0,0,249,15360,1886,288,,,,,,,,,,,,
893183,1560692165001,1,2.65,2.03,3.49,2.31,5.07,0.8,-0.66,0.46,30,-4,41,1.03,5000,29,91,35,76,966,288.0,337,466,60,119.0,225,1,281,354,65,0,0,250,-1445,250,288,,,,,,,,,,,,
893203,1560692165021,5,2.63,2.03,3.49,2.31,5.05,0.61,-0.67,0.4,32,-3,42,0.9,5008,29,91,35,76,980,290.0,342,455,60,117.0,225,1,281,368,65,0,0,252,-1494,-16896,290,,,,,,,,,,,,
893223,1560692165041,-1,2.59,2.04,3.46,2.32,5.06,0.67,-0.67,0.45,30,0,41,0.95,5071,29,91,35,76,995,288.0,348,458,60,119.0,225,1,285,372,65,0,0,252,-1494,-16896,288,,,,,,,,,,,,
893243,1560692165061,2,2.54,2.09,3.41,2.31,5.08,0.77,-0.55,0.47,29,-4,42,0.94,5089,29,91,35,77,1012,288.0,347,468,60,118.0,225,1,286,374,65,0,0,257,10818,250,288,45.69886,4.909922,25.34,193.5,8,1.4767,0,0.0,1.0617,9,0.78,14.8874
893263,1560692165081,-1,2.49,2.15,3.38,2.28,5.08,0.59,-0.53,0.48,29,-2,41,0.79,5115,29,91,35,76,1025,286.0,351,455,60,116.0,244,1,288,363,70,0,0,261,-1,24064,286,,,,,,,,,,,,
893283,1560692165108,-0,2.45,2.2,3.34,2.26,5.05,0.73,-0.5,0.53,26,-4,39,0.89,5158,29,91,35,76,1027,283.0,349,458,60,119.0,244,1,291,366,70,0,0,263,-41,-16896,283,,,,,,,,,,,,
893303,1560692165128,-1,2.4,2.22,3.3,2.25,5.06,0.67,-0.47,0.55,27,-4,38,0.82,5209,29,91,35,76,1028,283.0,357,455,60,117.0,244,1,295,368,70,0,0,268,-1,250,283,,,,,,,,,,,,
893323,1560692165148,0,2.34,2.24,3.22,2.25,5.04,0.74,-0.43,0.55,22,-4,36,0.86,5230,28,91,35,75,1029,282.0,352,461,60,119.0,244,1,297,364,70,0,0,272,-1,-16896,282,,,,,,,,,,,,
893343,1560692165168,-0,2.3,2.27,3.17,2.24,5.08,0.65,-0.33,0.55,22,-4,34,0.73,5235,26,91,36,74,1028,282.0,357,452,60,117.0,244,1,298,357,70,0,0,276,-1,10686,282,45.698856,4.909914,26.14,193.6,8,1.4767,0,0.0,1.0633,9,0.78,14.889
893363,1560692165188,1,2.24,2.3,3.13,2.22,5.08,0.77,-0.23,0.53,18,-3,32,0.8,5275,25,91,36,73,1027,280.0,360,454,60,119.0,253,1,301,352,71,0,0,280,2414,10686,279,,,,,,,,,,,,
893383,1560692165208,1,2.18,2.33,3.11,2.19,5.05,0.64,-0.1,0.49,17,-2,30,0.64,5217,25,91,36,72,1024,279.0,359,453,60,117.0,253,1,298,341,71,0,0,285,-1534,24064,278,,,,,,,,,,,,
893403,1560692165228,0,2.13,2.36,3.1,2.15,5.06,0.7,-0.12,0.56,12,-2,26,0.71,5235,24,91,36,71,1022,283.0,355,445,60,119.0,253,1,300,334,71,0,0,287,250,630,277,,,,,,,,,,,,
893423,1560692165248,0,2.09,2.42,3.1,2.11,5.06,0.66,-0.06,0.51,12,-2,23,0.66,5292,24,91,36,71,1018,288.0,364,452,60,117.0,253,1,304,336,71,0,0,291,0,1886,276,,,,,,,,,,,,
893443,1560692165268,0,2.06,2.47,3.1,2.1,5.05,0.76,-0.04,0.52,7,-2,19,0.76,5317,24,91,36,70,1017,293.0,362,463,60,118.0,253,1,306,328,71,0,0,293,21760,24064,276,45.698856,4.909907,26.52,193.4,8,1.4767,0,0.0,1.065,9,0.78,14.8907
893463,1560692165288,1,2.02,2.5,3.08,2.08,5.04,0.62,0.11,0.47,6,-2,15,0.63,5405,24,91,36,69,1015,295.0,369,452,60,118.0,236,1,313,320,65,0,0,295,23040,1886,276,,,,,,,,,,,,
893483,1560692165308,4,1.99,2.51,3.07,2.07,5.07,0.76,0.14,0.47,3,-4,11,0.78,5452,23,91,36,69,1011,298.0,370,463,60,118.0,236,1,317,321,65,0,0,297,95,-1529,274,,,,,,,,,,,,
893503,1560692165328,1,1.97,2.51,3.06,2.08,5.04,0.69,0.16,0.43,-0,-0,7,0.71,5511,23,91,36,68,1008,300.0,376,461,60,119.0,236,1,321,310,65,0,0,299,100,41,275,,,,,,,,,,,,
893523,1560692165348,-2,1.94,2.51,3.03,2.07,5.07,0.62,0.3,0.49,-1,-1,5,0.69,5565,23,91,36,66,1005,302.0,382,450,60,117.0,236,1,331,294,65,0,0,300,105,41,275,,,,,,,,,,,,
893543,1560692165368,-0,1.91,2.51,2.98,2.06,5.06,0.7,0.35,0.5,-5,-3,2,0.78,5587,23,91,36,66,1003,305.0,385,461,60,117.0,236,1,333,293,65,0,0,304,29440,85,274,45.698853,4.909899,27.53,193.4,8,1.4767,0,0.0,1.0667,9,0.78,14.8924
893563,1560692165388,2,1.91,2.52,2.95,2.04,5.04,0.8,0.35,0.53,-9,-2,-2,0.88,5617,23,91,36,65,992,308.0,388,456,60,118.0,218,1,338,277,60,0,0,304,120,100,273,,,,,,,,,,,,
893583,1560692165408,2,1.89,2.52,2.95,2.02,5.07,0.75,0.36,0.59,-10,0,-6,0.83,5647,22,91,36,63,981,310.0,391,457,60,119.0,218,1,345,270,60,0,0,309,125,26880,273,,,,,,,,,,,,
893603,1560692165428,1,1.9,2.51,2.95,1.99,5.03,0.72,0.52,0.58,-10,-0,-9,0.89,5678,22,91,35,62,970,311.0,395,458,60,118.0,218,1,351,269,60,0,0,308,-32256,80,274,,,,,,,,,,,,
893623,1560692165448,-0,1.9,2.51,2.96,1.95,5.05,0.8,0.58,0.6,-14,-3,-12,0.98,5695,21,91,35,62,959,315.0,392,458,60,118.0,218,1,353,261,60,0,0,313,-29696,85,276,,,,,,,,,,,,
893643,1560692165468,4,1.89,2.51,2.95,1.97,5.08,0.9,0.5,0.59,-17,-4,-15,1.03,5676,21,91,35,61,942,318.0,394,462,60,119.0,218,1,353,253,60,0,0,314,140,110,276,45.698849,4.909891,27.21,193.4,8,1.4767,0,0.0,1.0683,9,0.78,14.894
893663,1560692165488,3,1.88,2.53,2.96,2.01,5.05,0.87,0.46,0.64,-19,-4,-17,0.98,5728,21,91,35,59,923,318.0,400,455,60,118.0,196,1,358,251,54,0,0,314,145,30720,276,,,,,,,,,,,,
893683,1560692165508,2,1.87,2.52,2.98,2.0,5.08,0.72,0.61,0.68,-19,-4,-18,0.94,5797,20,91,35,58,908,316.0,400,453,60,119.0,196,1,365,251,54,0,0,314,-28416,24320,277,,,,,,,,,,,,
893703,1560692165528,2,1.86,2.52,2.98,1.98,5.04,0.68,0.75,0.68,-20,-4,-19,1.01,5817,20,91,35,57,896,319.0,409,461,60,118.0,196,1,367,252,54,0,0,314,-27136,25600,280,,,,,,,,,,,,
893723,1560692165548,0,1.86,2.52,2.95,1.96,5.08,0.68,0.84,0.74,-22,-5,-21,1.08,5826,20,91,35,56,881,323.0,413,460,60,118.0,196,1,369,252,54,0,0,318,-24576,-32256,279,,,,,,,,,,,,
893743,1560692165568,0,1.87,2.53,2.92,1.96,5.04,0.75,0.87,0.77,-23,-6,-23,1.15,5874,19,91,35,54,865,322.0,411,465,60,117.0,196,1,373,253,54,0,0,320,155,140,277,45.698845,4.909883,27.49,193.4,8,1.4767,0,0.0,1.07,9,0.78,14.8957
893763,1560692165588,-1,1.88,2.53,2.93,1.94,5.05,0.84,0.86,0.76,-25,-7,-26,1.2,5905,19,91,35,53,853,322.0,415,457,60,117.0,202,1,372,248,56,0,0,318,-24576,26880,277,,,,,,,,,,,,
893783,1560692165608,-1,1.88,2.52,2.92,1.92,5.08,0.93,0.8,0.77,-27,-7,-29,1.23,5898,19,92,35,52,847,325.0,412,459,60,117.0,202,1,369,243,56,0,0,319,-23296,105,279,,,,,,,,,,,,
893803,1560692165628,-0,1.88,2.52,2.91,1.93,5.03,0.99,0.76,0.71,-29,-4,-31,1.25,5870,19,91,35,51,840,327.0,412,453,60,117.0,202,1,361,237,56,0,0,322,165,140,280,,,,,,,,,,,,
893823,1560692165648,2,1.89,2.52,2.92,1.94,5.05,1.01,0.71,0.7,-30,-1,-34,1.23,5821,18,91,35,51,834,327.0,409,453,60,118.0,202,1,360,236,56,0,0,323,-22016,125,282,,,,,,,,,,,,
893843,1560692165668,3,1.9,2.51,2.94,1.92,5.04,0.94,0.73,0.64,-31,3,-36,1.18,5792,18,91,35,50,831,325.0,406,449,60,118.0,202,1,355,231,56,0,0,322,165,26880,282,45.698841,4.909875,27.96,193.4,8,1.4767,0,0.0,1.0717,9,0.78,14.8974
893863,1560692165688,2,1.9,2.52,2.98,1.92,5.08,0.83,0.72,0.57,-30,4,-37,1.1,5749,18,91,35,50,829,327.0,405,448,60,119.0,176,1,352,230,50,0,0,322,-22016,25600,283,,,,,,,,,,,,
893883,1560692165708,2,1.9,2.52,3.0,1.91,5.05,0.72,0.82,0.55,-29,4,-38,1.09,5700,18,91,35,49,826,330.0,405,450,60,119.0,176,1,347,226,50,0,0,324,175,23040,283,,,,,,,,,,,,
893903,1560692165728,-1,1.92,2.52,2.99,1.92,5.05,0.81,0.85,0.59,-29,-0,-39,1.17,5644,17,91,35,50,821,330.0,409,442,60,118.0,176,1,345,229,50,0,0,323,175,-16896,283,,,,,,,,,,,,
893923,1560692165748,4,1.92,2.51,2.99,1.92,5.08,0.93,0.81,0.63,-31,-3,-40,1.23,5568,17,91,35,50,819,328.0,401,447,60,117.0,176,1,340,229,50,0,0,325,170,1886,283,,,,,,,,,,,,
893943,1560692165768,1,1.95,2.51,2.99,1.91,5.06,0.82,0.72,0.61,-32,1,-41,1.09,5477,17,91,35,50,818,327.0,395,426,60,119.0,176,1,334,228,50,0,0,323,-22016,630,283,45.698837,4.909868,28.18,193.3,8,1.4767,0,0.0,1.0733,9,0.78,14.899
893963,1560692165788,0,1.96,2.5,2.99,1.9,5.04,0.77,0.82,0.54,-30,0,-39,1.12,5406,17,91,35,51,814,328.0,401,445,60,117.0,162,1,329,232,46,0,0,324,170,-16896,283,,,,,,,,,,,,
893983,1560692165808,1,1.99,2.49,3.01,1.89,5.06,0.88,0.9,0.52,-32,0,-39,1.26,5374,17,91,35,52,809,327.0,391,443,60,118.0,162,1,328,231,46,0,0,321,-22016,24064,283,,,,,,,,,,,,
894003,1560692165828,-1,2.01,2.49,3.06,1.9,5.08,0.75,0.82,0.52,-30,1,-40,1.11,5290,17,91,35,52,805,325.0,387,436,60,118.0,162,1,321,233,46,0,0,320,-23296,30208,285,,,,,,,,,,,,
894023,1560692165848,4,2.03,2.48,3.06,1.91,5.04,0.88,0.84,0.58,-31,-1,-39,1.21,5230,17,91,35,53,802,323.0,371,448,60,118.0,162,1,317,233,46,0,0,318,-24576,-1529,286,,,,,,,,,,,,
894043,1560692165868,-0,2.05,2.47,3.06,1.92,5.06,0.75,0.73,0.57,-28,2,-39,1.05,5240,17,91,35,53,798,320.0,375,441,60,118.0,162,1,318,236,46,0,0,317,150,-16896,286,45.69883,4.909862,29.96,193.5,8,1.4767,0,0.0,1.075,9,0.78,14.9007
894063,1560692165888,2,2.08,2.45,3.06,1.93,5.08,0.88,0.75,0.61,-30,-1,-39,1.15,5218,16,91,35,53,793,319.0,370,462,60,118.0,160,1,316,236,46,0,0,316,-27136,10686,287,,,,,,,,,,,,
894083,1560692165910,-2,2.11,2.44,3.06,1.92,5.05,0.74,0.68,0.57,-27,-1,-38,1.01,5230,16,91,35,54,790,317.0,371,438,60,118.0,160,1,317,240,46,0,0,314,140,10686,288,,,,,,,,,,,,
894103,1560692165930,2,2.14,2.43,3.09,1.91,5.06,0.87,0.68,0.63,-28,-2,-37,1.11,5203,16,91,35,54,790,315.0,366,426,60,118.0,160,1,315,240,46,0,0,312,-29696,-16896,290,,,,,,,,,,,,
894123,1560692165950,0,2.16,2.41,3.13,1.93,5.06,0.73,0.65,0.56,-24,-2,-35,0.98,5250,16,91,35,54,790,313.0,369,426,60,118.0,160,1,319,243,46,0,0,305,-30976,10686,290,,,,,,,,,,,,
894143,1560692165970,3,2.19,2.34,3.17,1.93,5.04,0.86,0.66,0.53,-24,-2,-34,1.08,5391,16,91,35,55,793,307.0,375,450,60,118.0,160,1,331,243,46,0,0,297,30720,-16896,290,45.698822,4.909857,29.5,193.5,8,1.4767,0,0.0,1.0767,9,0.78,14.9024
894163,1560692165990,-0,2.22,2.26,3.19,1.91,5.05,0.68,0.47,0.52,-21,1,-32,0.82,5552,16,91,35,54,795,301.0,382,450,60,119.0,172,1,345,247,50,0,0,295,26880,0,290,,,,,,,,,,,,
894183,1560692166002,0,2.25,2.23,3.24,1.91,5.05,0.71,0.47,0.56,-17,-2,-28,0.85,5697,16,91,35,53,797,300.0,389,458,60,117.0,172,1,355,249,50,0,0,296,100,41,291,,,,,,,,,,,,
894203,1560692166022,-2,2.28,2.23,3.26,1.92,5.04,0.84,0.38,0.58,-18,-3,-25,0.92,5797,16,91,35,52,800,298.0,393,452,60,117.0,172,1,360,246,50,0,0,298,95,0,293,,,,,,,,,,,,
894223,1560692166042,1,2.31,2.22,3.25,1.96,5.06,0.96,0.26,0.62,-18,-4,-23,0.99,5868,16,91,35,51,802,297.0,402,448,60,117.0,172,1,363,236,50,0,0,297,24320,20480,293,,,,,,,,,,,,
894243,1560692166062,3,2.33,2.23,3.27,2.04,5.04,1.02,0.14,0.59,-18,-2,-20,1.03,5927,16,91,35,50,805,295.0,408,452,60,118.0,172,1,367,232,50,0,0,293,85,85,295,45.698818,4.909852,28.71,193.4,8,1.4767,0,0.0,1.0783,9,0.79,14.904
894263,1560692166082,-1,2.38,2.23,3.29,2.08,5.05,1.02,0.05,0.54,-16,-1,-16,1.02,6013,16,91,35,49,805,294.0,412,448,60,118.0,173,1,366,227,51,0,0,292,20480,21760,296,,,,,,,,,,,,
894283,1560692166109,-2,2.42,2.23,3.3,2.1,5.05,1.03,-0.03,0.51,-14,1,-14,1.03,6101,16,91,35,47,805,297.0,418,449,60,118.0,173,1,361,217,51,0,0,290,0,21760,297,,,,,,,,,,,,
894303,1560692166129,-0,2.45,2.22,3.35,2.12,5.04,1.07,-0.13,0.49,-12,1,-11,1.07,6171,16,92,35,46,807,299.0,426,455,60,118.0,173,1,355,215,51,0,0,287,10686,95,299,,,,,,,,,,,,
894323,1560692166149,0,2.49,2.2,3.38,2.18,5.05,1.02,-0.23,0.55,-9,1,-6,1.04,6188,16,91,35,45,806,302.0,435,459,60,117.0,173,1,348,214,51,0,0,291,-16896,29440,302,,,,,,,,,,,,
894343,1560692166169,-2,2.52,2.19,3.38,2.23,5.05,1.04,-0.36,0.69,-7,-1,-2,1.11,6000,16,91,35,45,805,309.0,428,457,60,117.0,173,1,347,214,51,0,0,305,250,-30976,309,45.698811,4.909846,29.36,193.5,8,1.4767,0,0.0,1.08,9,0.79,14.9057
894363,1560692166189,-1,2.57,2.2,3.37,2.33,5.07,1.12,-0.5,0.81,-6,-3,0,1.23,5709,16,91,35,45,804,313.0,416,462,60,117.0,151,1,334,214,47,0,0,310,-16896,130,313,,,,,,,,,,,,
894383,1560692166209,1,2.62,2.21,3.34,2.37,5.07,1.21,-0.61,0.85,-5,-4,3,1.35,5452,16,91,35,45,802,313.0,397,455,60,117.0,151,1,322,213,47,0,0,307,41,-30976,315,,,,,,,,,,,,
894403,1560692166229,-0,2.66,2.2,3.35,2.37,5.08,1.0,-0.61,0.8,-1,-2,4,1.17,5155,16,91,35,47,799,315.0,389,453,60,118.0,151,1,313,217,47,0,0,293,41,130,315,,,,,,,,,,,,
894423,1560692166249,0,2.71,2.17,3.39,2.37,5.07,1.06,-0.68,0.77,1,-2,6,1.26,5030,16,91,35,48,797,315.0,374,455,60,119.0,151,1,306,219,47,0,0,285,-1529,-29696,315,,,,,,,,,,,,
894443,1560692166269,3,2.74,2.1,3.53,2.37,5.08,1.16,-0.63,0.69,6,-7,10,1.32,4961,16,91,35,50,795,319.0,355,456,60,117.0,151,1,302,224,47,0,0,277,-1529,-29696,319,45.698803,4.909841,28.68,193.5,8,1.4767,0,0.0,1.0817,9,0.79,14.9074
894463,1560692166289,0,2.76,2.05,3.64,2.38,5.08,0.92,-0.73,0.6,10,-3,13,1.18,4912,16,91,35,51,798,323.0,352,455,60,118.0,130,1,301,227,42,0,0,274,630,140,323,,,,,,,,,,,,
894483,1560692166309,-0,2.77,2.03,3.67,2.4,5.04,1.0,-0.78,0.61,11,-2,17,1.26,4863,17,91,35,53,802,327.0,347,448,60,119.0,130,1,299,228,42,0,0,273,-1527,-28416,327,,,,,,,,,,,,
894503,1560692166329,-1,2.81,2.02,3.67,2.4,5.05,1.1,-0.81,0.64,14,-5,21,1.36,4828,18,91,35,55,806,328.0,337,467,60,118.0,130,1,298,234,42,0,0,270,28160,-25856,327,,,,,,,,,,,,
894523,1560692166349,4,2.84,2.0,3.68,2.41,5.04,1.1,-0.83,0.58,19,-7,24,1.38,4872,18,91,35,56,810,326.0,347,460,60,118.0,130,1,298,243,42,0,0,265,-1281,130,326,,,,,,,,,,,,
894543,1560692166369,0,2.9,1.97,3.67,2.4,5.05,0.97,-0.89,0.44,21,-5,27,1.32,5081,19,91,35,57,821,326.0,346,446,60,117.0,130,1,304,249,42,0,0,250,-1,115,326,45.698799,4.909836,28.9,193.4,8,1.4767,0,0.0,1.0833,9,0.79,14.909
894563,1560692166389,1,2.94,1.89,3.69,2.39,5.06,1.08,-0.89,0.46,23,-8,31,1.4,5275,19,91,35,59,835,320.0,351,459,60,118.0,152,1,320,252,49,0,0,234,-1,29440,320,,,,,,,,,,,,
894583,1560692166407,-1,0.35,1.82,3.69,2.39,5.07,0.82,-0.94,0.38,27,-5,35,1.25,5444,20,91,35,59,845,319.0,373,455,60,117.0,152,1,334,254,49,0,0,226,-10440,120,319,,,,,,,,,,,,
894603,1560692166427,0,0.36,1.79,3.69,2.38,5.06,0.94,-1.05,0.38,30,-7,38,1.4,5537,22,91,35,60,853,321.0,378,458,60,117.0,152,1,342,254,49,0,0,226,-10440,130,321,,,,,,,,,,,,
894623,1560692166447,2,0.39,1.79,3.7,2.4,5.08,1.02,-0.98,0.35,29,-6,41,1.41,5637,22,91,35,61,865,322.0,385,455,60,118.0,152,1,350,253,49,0,0,226,-1281,-30976,322,,,,,,,,,,,,
894643,1560692166467,3,0.39,1.8,3.7,2.39,5.04,0.88,-1.01,0.26,32,-2,45,1.34,5746,22,91,35,60,879,322.0,392,453,60,119.0,152,1,360,251,49,0,0,231,10818,125,322,45.698792,4.909831,28.33,193.3,8,1.4767,0,0.0,1.085,9,0.79,14.9107
894663,1560692166487,1,0.39,1.8,3.7,2.39,5.04,0.71,-1.1,0.24,36,-1,46,1.31,5875,22,91,35,60,887,318.0,404,457,60,119.0,172,1,371,250,55,0,0,238,10818,125,318,,,,,,,,,,,,
894683,1560692166509,3,0.36,1.8,3.7,2.39,5.05,0.66,-1.14,0.35,41,-0,47,1.32,6009,22,91,35,59,891,317.0,407,456,60,119.0,172,1,382,249,55,0,0,246,16896,120,317,,,,,,,,,,,,
894703,1560692166529,2,2.93,1.8,3.7,2.38,5.05,0.66,-1.2,0.39,44,-0,49,1.37,6021,23,91,35,58,892,317.0,413,460,60,119.0,172,1,383,251,55,0,0,298,-1,-29696,317,,,,,,,,,,,,
894723,1560692166549,1,2.88,1.81,3.7,2.41,5.04,0.64,-1.21,0.5,45,-2,51,1.37,5982,23,91,35,57,891,319.0,416,453,60,118.0,172,1,381,252,55,0,0,381,-1494,-30976,319,,,,,,,,,,,,
894743,1560692166569,2,2.83,1.82,3.67,2.43,5.08,0.58,-1.23,0.61,47,-4,52,1.36,6071,23,91,35,57,887,318.0,417,457,60,118.0,172,1,384,253,55,0,0,360,16896,32000,318,45.698788,4.909825,27.78,193.3,8,1.4767,0,0.0,1.0867,9,0.79,14.9124
894763,1560692166589,3,2.76,1.84,3.61,2.43,5.08,0.56,-1.16,0.68,48,-4,52,1.29,6181,23,91,35,56,881,314.0,325,455,60,119.0,186,1,385,256,59,0,0,308,10818,135,314,,,,,,,,,,,,
894783,1560692166609,5,2.68,1.86,3.57,2.44,5.07,0.42,-1.0,0.61,49,-2,53,1.09,6159,23,91,35,56,879,315.0,271,456,60,118.0,186,1,384,256,59,0,0,285,-1,-32256,315,,,,,,,,,,,,
894803,1560692166629,5,2.61,1.95,3.51,2.44,5.03,0.36,-0.84,0.54,49,2,55,0.92,6005,23,91,35,56,880,314.0,248,458,60,118.0,186,1,384,254,59,0,0,325,506,-28416,314,,,,,,,,,,,,
894823,1560692166649,3,2.55,2.04,3.39,2.43,5.03,0.29,-0.76,0.52,47,5,54,0.82,5841,23,91,35,56,883,314.0,253,451,60,119.0,186,1,370,252,59,0,0,324,-1,145,314,,,,,,,,,,,,
894843,1560692166669,2,2.51,2.14,3.28,2.41,5.07,0.27,-0.71,0.54,47,4,53,0.75,5707,23,91,35,57,889,314.0,272,455,60,119.0,186,1,358,250,59,0,0,280,2414,-29696,314,45.69878,4.909818,27.75,193.3,8,1.4767,0,0.0,1.0883,9,0.79,14.9141
894863,1560692166689,1,2.47,2.22,3.17,2.42,5.04,0.41,-0.68,0.67,44,-1,51,0.79,5540,23,91,35,58,900,312.0,267,455,60,118.0,169,1,343,251,53,0,0,288,-1534,125,312,,,,,,,,,,,,
894883,1560692166709,2,2.42,2.27,3.1,2.39,5.05,0.54,-0.68,0.71,38,-3,50,0.87,5401,23,91,35,60,918,310.0,268,455,60,118.0,169,1,331,254,53,0,0,291,-1529,125,310,,,,,,,,,,,,
894903,1560692166729,-0,2.38,2.29,3.09,2.36,5.04,0.48,-0.53,0.73,36,-1,47,0.72,5268,24,91,35,61,935,307.0,283,445,60,119.0,169,1,318,261,53,0,0,294,41,115,307,,,,,,,,,,,,
894923,1560692166749,2,2.36,2.29,3.11,2.3,5.07,0.61,-0.49,0.72,33,-2,44,0.78,5228,24,91,35,62,948,307.0,293,459,60,118.0,169,1,313,269,53,0,0,290,0,115,307,,,,,,,,,,,,
894943,1560692166769,-2,2.34,2.29,3.21,2.25,5.06,0.47,-0.39,0.69,31,0,40,0.61,5284,24,91,34,64,961,306.0,305,445,60,117.0,169,1,314,284,53,0,0,289,20480,110,306,45.698776,4.909809,27.52,193.2,8,1.4767,0,0.0,1.09,9,0.79,14.9157
894963,1560692166789,3,2.31,2.29,3.26,2.24,5.04,0.62,-0.3,0.69,28,-4,38,0.69,5343,24,91,34,65,978,304.0,319,460,60,117.0,186,1,319,291,57,0,0,290,80,110,304,,,,,,,,,,,,
894983,1560692166809,1,2.29,2.29,3.29,2.21,5.03,0.42,-0.27,0.68,25,0,34,0.5,5428,24,91,34,65,993,302.0,330,453,60,119.0,186,1,323,289,57,0,0,291,85,105,302,,,,,,,,,,,,
895003,1560692166829,-0,2.27,2.28,3.31,2.2,5.08,0.47,-0.24,0.68,24,-1,31,0.53,5544,26,91,34,65,997,302.0,343,453,60,117.0,186,1,332,296,57,0,0,296,24320,25600,302,,,,,,,,,,,,
895023,1560692166849,3,2.28,2.29,3.29,2.2,5.07,0.63,-0.22,0.68,20,-4,29,0.67,5676,28,91,34,66,997,300.0,355,452,60,117.0,186,1,341,294,57,0,0,298,95,26880,300,,,,,,,,,,,,
895043,1560692166869,4,2.26,2.29,3.25,2.18,5.06,0.63,-0.16,0.58,16,-3,27,0.65,5850,30,91,34,66,986,300.0,367,456,60,119.0,186,1,353,292,57,0,0,298,25600,95,300,45.698776,4.9098,29.09,193.2,8,1.4767,0,0.0,1.0917,9,0.79,14.9174
895063,1560692166889,5,2.26,2.28,3.23,2.19,5.04,0.54,-0.05,0.54,15,1,24,0.55,6032,30,91,34,66,974,300.0,384,456,60,118.0,217,1,366,281,65,0,0,301,25600,90,300,,,,,,,,,,,,
895083,1560692166909,-0,2.25,2.27,3.2,2.17,5.08,0.46,0.12,0.46,15,4,23,0.47,6184,31,91,34,65,959,300.0,393,462,60,118.0,217,1,375,286,65,0,0,304,26880,105,299,,,,,,,,,,,,
895103,1560692166929,-1,2.23,2.28,3.15,2.19,5.04,0.44,0.13,0.5,14,5,20,0.46,6109,31,91,34,65,944,302.0,408,462,60,117.0,217,1,372,284,65,0,0,310,105,125,302,,,,,,,,,,,,
895123,1560692166949,-0,2.2,2.3,3.07,2.2,5.05,0.53,0.07,0.58,11,5,18,0.53,5992,31,91,34,65,936,306.0,407,459,60,117.0,217,1,362,282,65,0,0,316,115,-29696,305,,,,,,,,,,,,
895143,1560692166969,3,2.18,2.31,3.01,2.21,5.06,0.62,0.02,0.57,8,6,16,0.62,5797,31,91,34,65,927,309.0,405,457,60,118.0,217,1,351,285,65,0,0,320,-32256,155,308,45.698776,4.909792,28.9,193.2,8,1.4767,0,0.0,1.0933,9,0.79,14.9191
895163,1560692166989,3,2.15,2.31,2.96,2.21,5.05,0.53,0.11,0.54,6,10,14,0.54,5666,32,91,34,66,934,315.0,398,453,60,118.0,203,1,339,294,63,0,0,319,-29696,145,310,,,,,,,,,,,,
895183,1560692167001,1,2.13,2.31,2.95,2.2,5.04,0.45,0.22,0.55,7,13,12,0.5,5644,32,91,34,67,940,316.0,393,449,60,118.0,203,1,334,303,63,0,0,322,140,-30976,309,,,,,,,,,,,,
895203,1560692167021,-1,2.13,2.3,2.96,2.18,5.05,0.55,0.24,0.62,6,9,10,0.6,5742,32,91,34,68,961,319.0,394,459,60,118.0,203,1,338,310,63,0,0,319,-27136,32000,307,,,,,,,,,,,,
895223,1560692167041,-1,2.13,2.3,2.98,2.18,5.04,0.7,0.12,0.68,2,3,9,0.71,5922,32,91,34,68,983,319.0,392,455,60,117.0,203,1,352,308,63,0,0,319,-25856,115,307,,,,,,,,,,,,
895243,1560692167061,-0,2.13,2.31,3.03,2.18,5.05,0.81,-0.06,0.68,-2,-0,7,0.81,6083,32,91,34,67,999,321.0,396,455,60,117.0,203,1,364,299,63,0,0,322,-25856,135,307,45.698772,4.909781,29.25,193.1,8,1.4767,0,0.0,1.095,9,0.79,14.9207
895263,1560692167081,-2,2.13,2.31,3.05,2.17,5.06,0.82,-0.15,0.71,-4,-2,5,0.83,6157,32,91,34,66,1014,322.0,405,452,60,118.0,225,1,370,302,69,0,0,324,155,135,307,,,,,,,,,,,,
895283,1560692167108,-1,2.13,2.31,3.06,2.18,5.07,0.86,-0.21,0.83,-7,-5,4,0.88,6159,32,91,34,66,1046,325.0,410,449,60,118.0,225,1,370,294,69,0,0,325,-23296,-22016,310,,,,,,,,,,,,
895303,1560692167128,1,2.14,2.31,3.03,2.18,5.04,0.82,-0.22,0.9,-8,-6,2,0.85,6181,32,91,34,66,1079,327.0,413,453,60,118.0,225,1,371,294,69,0,0,329,-22016,-20736,312,,,,,,,,,,,,
895323,1560692167148,3,2.15,2.31,3.01,2.18,5.05,0.83,-0.16,0.95,-8,-8,1,0.84,6117,32,91,34,66,1101,328.0,410,453,60,118.0,225,1,369,292,69,0,0,330,170,-22016,313,,,,,,,,,,,,
895343,1560692167168,2,2.17,2.32,3.01,2.17,5.06,0.81,-0.05,1.01,-9,-9,-1,0.82,6105,32,91,34,65,1120,328.0,416,453,60,119.0,225,1,372,284,69,0,0,330,170,165,314,45.698769,4.909772,30.05,193.1,8,1.4767,0,0.0,1.0967,9,0.79,14.9224
895363,1560692167188,2,2.19,2.33,3.0,2.19,5.04,0.8,0.05,1.01,-8,-7,-2,0.8,6046,32,91,34,65,1133,328.0,415,452,60,119.0,203,1,369,290,64,0,0,332,170,-22016,315,,,,,,,,,,,,
895383,1560692167208,3,2.21,2.3,3.04,2.17,5.07,0.76,0.11,0.99,-8,-6,-3,0.76,6113,32,91,34,66,1146,328.0,412,455,60,119.0,203,1,368,292,64,0,0,327,-20736,-20736,319,,,,,,,,,,,,
895403,1560692167228,5,2.23,2.3,3.09,2.17,5.05,0.73,0.23,0.98,-7,-5,-4,0.77,6137,32,91,34,66,1146,329.0,415,457,60,118.0,203,1,369,285,64,0,0,331,-20736,-22016,320,,,,,,,,,,,,
895423,1560692167248,0,2.24,2.3,3.14,2.17,5.04,0.72,0.35,0.91,-7,-3,-3,0.8,6181,32,91,34,66,1141,330.0,420,457,60,118.0,203,1,371,294,64,0,0,330,175,165,322,,,,,,,,,,,,
895443,1560692167268,-2,2.27,2.3,3.18,2.16,5.05,0.72,0.34,0.8,-6,-1,-3,0.8,6208,32,91,34,65,1145,330.0,428,456,60,117.0,203,1,376,295,64,0,0,331,175,170,325,45.698765,4.909762,30.49,193.1,8,1.4767,0,0.0,1.0983,9,0.8,14.9241
895463,1560692167288,-1,2.28,2.3,3.21,2.15,5.05,0.74,0.28,0.74,-5,0,-3,0.8,6210,33,91,34,65,1152,331.0,431,449,60,117.0,212,1,376,295,69,0,0,333,-12032,170,327,,,,,,,,,,,,
895483,1560692167308,1,2.28,2.29,3.2,2.15,5.07,0.81,0.18,0.71,-5,0,-4,0.83,6223,33,91,34,65,1161,332.0,426,447,60,119.0,212,1,376,288,69,0,0,336,-32559,-6528,331,,,,,,,,,,,,
895503,1560692167328,3,2.29,2.3,3.2,2.16,5.06,0.8,0.2,0.77,-5,1,-5,0.82,6233,33,91,34,65,1173,332.0,422,447,60,119.0,212,1,377,288,69,0,0,336,-32559,2560,330,,,,,,,,,,,,
895523,1560692167348,4,2.29,2.3,3.2,2.16,5.04,0.78,0.23,0.82,-4,2,-6,0.81,6283,33,91,34,65,1188,332.0,422,453,60,118.0,212,1,379,290,69,0,0,335,-12032,13,332,,,,,,,,,,,,
895543,1560692167368,1,2.28,2.3,3.2,2.16,5.04,0.69,0.32,0.77,-3,4,-6,0.76,6304,33,91,34,65,1204,333.0,423,456,60,118.0,212,1,380,291,69,0,0,337,-6528,-6528,333,45.698761,4.909752,31.31,193.1,8,1.4767,0,0.0,1.1,9,0.8,14.9257
895563,1560692167388,-1,2.31,2.31,3.22,2.16,5.04,0.66,0.33,0.72,-2,5,-5,0.74,6321,33,91,34,65,1213,333.0,430,462,60,117.0,207,1,380,291,69,0,0,335,4838,-122,333,,,,,,,,,,,,
895583,1560692167408,1,2.32,2.29,3.25,2.14,5.08,0.77,0.16,0.81,-2,1,-5,0.79,6306,33,91,34,65,1215,336.0,434,451,60,118.0,207,1,380,291,69,0,0,337,-6528,3327,336,,,,,,,,,,,,
895603,1560692167428,3,2.33,2.29,3.24,2.15,5.04,0.8,0.06,0.84,-2,-3,-5,0.81,6304,33,91,34,65,1218,338.0,431,449,60,119.0,207,1,380,291,69,0,0,339,3346,6668,338,,,,,,,,,,,,
895623,1560692167448,4,2.35,2.29,3.23,2.15,5.08,0.72,0.09,0.76,-1,-5,-4,0.72,6388,33,91,34,65,1226,340.0,427,450,60,119.0,207,1,383,293,69,0,0,338,3346,-122,340,,,,,,,,,,,,
895643,1560692167468,-0,2.35,2.29,3.23,2.15,5.07,0.71,0.12,0.73,-0,-3,-2,0.72,6467,33,91,34,65,1232,341.0,437,456,60,117.0,207,1,385,296,69,0,0,341,3346,-14714,341,45.698757,4.909742,31.65,193.2,8,1.4767,0,0.0,1.1017,9,0.8,14.9274
895663,1560692167488,-0,2.38,2.28,3.24,2.15,5.06,0.78,0.03,0.79,0,-4,-2,0.78,6472,33,91,34,65,1235,342.0,441,452,60,119.0,211,1,386,296,72,0,0,342,13,-10554,342,,,,,,,,,,,,
895683,1560692167508,2,2.39,2.27,3.26,2.14,5.05,0.77,0.07,0.74,1,-4,-1,0.77,6467,33,91,34,65,1239,345.0,437,455,60,118.0,211,1,385,289,72,0,0,341,3346,2811,345,,,,,,,,,,,,
895703,1560692167528,-1,2.41,2.27,3.29,2.16,5.08,0.66,0.03,0.67,3,-2,1,0.66,6452,33,91,34,65,1246,347.0,445,458,60,117.0,211,1,386,295,72,0,0,343,13,28553,347,,,,,,,,,,,,
895723,1560692167548,2,2.41,2.28,3.29,2.18,5.06,0.68,-0.1,0.72,3,-1,2,0.69,6485,32,91,34,64,1252,348.0,443,455,60,117.0,211,1,390,290,72,0,0,345,13,3183,348,,,,,,,,,,,,
895743,1560692167568,3,2.43,2.27,3.31,2.21,5.07,0.69,-0.05,0.76,4,-2,4,0.7,6508,31,91,34,64,1253,350.0,448,458,60,118.0,211,1,391,284,72,0,0,345,3346,-6644,350,45.698757,4.909732,32.43,193.1,8,1.4767,0,0.0,1.1033,9,0.8,14.9291
895763,1560692167588,-1,2.44,2.26,3.31,2.21,5.08,0.73,-0.13,0.79,5,-3,6,0.74,6549,30,91,34,63,1253,351.0,446,454,60,117.0,199,1,396,286,70,0,0,347,3346,-6644,351,,,,,,,,,,,,
895783,1560692167608,2,2.44,2.26,3.32,2.21,5.04,0.76,-0.17,0.84,6,-4,6,0.78,6583,30,91,34,62,1249,354.0,451,453,60,117.0,199,1,402,282,70,0,0,350,-31222,3183,354,,,,,,,,,,,,
895803,1560692167628,0,2.44,2.25,3.35,2.22,5.08,0.68,-0.09,0.7,7,-0,7,0.68,6641,29,91,34,61,1246,356.0,451,449,60,119.0,199,1,408,279,70,0,0,353,2560,-6640,356,,,,,,,,,,,,
895823,1560692167648,2,2.44,2.24,3.35,2.24,5.04,0.81,-0.17,0.76,7,-2,8,0.83,6747,29,91,34,60,1239,356.0,457,461,60,117.0,199,1,409,280,70,0,0,355,-122,-29302,356,,,,,,,,,,,,
895843,1560692167668,1,2.44,2.23,3.33,2.22,5.04,0.6,-0.13,0.66,8,-1,9,0.61,6820,29,91,34,60,1232,359.0,462,452,60,119.0,199,1,412,283,70,0,0,354,6668,3082,360,45.698753,4.909722,32.7,193.1,8,1.4767,0,0.0,1.105,9,0.8,14.9307
895863,1560692167688,1,2.45,2.21,3.3,2.21,5.06,0.74,-0.2,0.79,8,-2,10,0.77,6823,29,91,34,59,1221,362.0,469,453,60,119.0,200,1,408,279,72,0,0,362,6870,2790,362,,,,,,,,,,,,
895883,1560692167708,1,2.44,2.21,3.29,2.23,5.06,0.57,-0.18,0.73,10,1,10,0.59,6830,29,91,34,58,1209,366.0,465,458,60,118.0,200,1,404,275,72,0,0,360,6870,-6656,366,,,,,,,,,,,,
895903,1560692167728,3,2.44,2.22,3.29,2.27,5.06,0.71,-0.3,0.85,9,-2,10,0.78,6840,29,91,34,57,1203,365.0,470,450,60,118.0,200,1,401,276,72,0,0,365,-30438,257,365,,,,,,,,,,,,
895923,1560692167748,0,2.45,2.23,3.28,2.31,5.04,0.71,-0.3,0.77,10,-2,11,0.77,6840,29,91,34,57,1194,366.0,467,459,60,117.0,200,1,401,271,72,0,0,367,-1246,230,367,,,,,,,,,,,,
895943,1560692167768,4,2.45,2.24,3.27,2.3,5.07,0.63,-0.3,0.81,10,-3,11,0.7,6830,29,91,34,57,1168,368.0,466,450,60,118.0,200,1,400,271,72,0,0,367,28553,1,371,45.698746,4.909711,33.66,193.1,8,1.4767,0,0.0,1.1067,9,0.8,14.9324
895963,1560692167788,-0,2.44,2.22,3.28,2.3,5.04,0.73,-0.39,0.8,12,-0,12,0.83,6868,29,91,34,56,1144,374.0,472,460,60,117.0,183,1,397,272,68,0,0,371,3183,742,373,,,,,,,,,,,,
895983,1560692167808,0,2.45,2.19,3.32,2.3,5.03,0.59,-0.36,0.79,12,-3,14,0.69,6911,29,91,34,56,1124,375.0,474,452,60,119.0,183,1,397,268,68,0,0,371,3302,-6656,375,,,,,,,,,,,,
896003,1560692167828,1,2.45,2.18,3.3,2.27,5.05,0.74,-0.45,0.86,11,-2,16,0.86,6952,28,91,34,55,1105,377.0,483,455,60,117.0,183,1,393,268,68,0,0,368,2060,742,377,,,,,,,,,,,,
896023,1560692167848,1,2.45,2.19,3.25,2.29,5.04,0.52,-0.38,0.76,13,-2,16,0.64,6980,28,91,34,55,1056,378.0,483,456,60,118.0,183,1,393,263,68,0,0,366,4104,2278,378,,,,,,,,,,,,
896043,1560692167868,-1,2.46,2.19,3.26,2.29,5.05,0.57,-0.36,0.82,12,-4,16,0.67,7038,28,91,34,54,1007,377.0,487,448,60,118.0,183,1,390,258,68,0,0,367,-6640,3,377,45.698742,4.909699,34.3,193.1,8,1.4767,0,0.0,1.1083,9,0.8,14.934
896063,1560692167888,3,2.46,2.2,3.31,2.29,5.08,0.67,-0.42,0.85,13,-4,17,0.79,7035,28,91,34,54,977,379.0,488,461,60,117.0,185,1,390,258,70,0,0,374,-6640,-992,379,,,,,,,,,,,,
896083,1560692167908,0,2.46,2.19,3.38,2.27,5.07,0.5,-0.41,0.7,14,-0,18,0.64,7072,28,91,34,54,947,380.0,483,457,60,117.0,185,1,390,258,70,0,0,380,-29302,-992,380,,,,,,,,,,,,
896103,1560692167928,-0,2.46,2.19,3.4,2.27,5.04,0.39,-0.39,0.59,15,-2,18,0.55,7099,28,91,34,54,912,382.0,487,453,60,118.0,185,1,390,258,70,0,0,379,-14707,-18948,382,,,,,,,,,,,,
896123,1560692167948,2,2.46,2.18,3.39,2.24,5.06,0.56,-0.42,0.73,14,-2,18,0.7,7131,28,91,34,53,876,386.0,488,456,60,118.0,185,1,387,253,70,0,0,380,3082,-19126,386,,,,,,,,,,,,
896143,1560692167968,2,2.46,2.16,3.39,2.22,5.05,0.49,-0.47,0.78,16,2,18,0.68,7181,28,91,34,53,863,386.0,492,453,60,118.0,185,1,387,253,70,0,0,380,3082,-6524,386,45.698738,4.909688,34.96,193.0,8,1.4767,0,0.0,1.11,9,0.8,14.9357
896163,1560692167988,2,2.46,2.15,3.35,2.24,5.07,0.41,-0.51,0.7,16,3,17,0.66,7186,28,91,34,53,858,385.0,493,458,60,117.0,177,1,387,253,69,0,0,376,-1268,505,385,,,,,,,,,,,,
896183,1560692168002,-2,2.46,2.16,3.34,2.24,5.04,0.35,-0.47,0.58,16,5,18,0.59,7192,28,91,34,52,848,388.0,494,456,60,117.0,177,1,384,248,69,0,0,384,-6405,-31744,388,,,,,,,,,,,,
896203,1560692168022,1,2.45,2.17,3.36,2.26,5.07,0.47,-0.43,0.62,15,3,18,0.63,7239,28,91,33,52,838,388.0,495,453,60,118.0,177,1,384,249,69,0,0,387,230,505,388,,,,,,,,,,,,
896223,1560692168042,3,2.46,2.19,3.36,2.26,5.06,0.62,-0.46,0.75,15,3,18,0.77,7244,28,91,33,52,832,391.0,497,456,60,118.0,177,1,384,249,69,0,0,387,-6405,-6524,391,,,,,,,,,,,,
896243,1560692168062,3,2.46,2.18,3.36,2.26,5.08,0.63,-0.5,0.83,17,4,18,0.8,7290,28,91,33,51,826,390.0,500,456,60,117.0,177,1,381,249,69,0,0,386,0,-31744,393,45.698738,4.909676,35.81,193.0,8,1.4767,0,0.0,1.1117,9,0.8,14.9374
896263,1560692168082,1,2.45,2.18,3.34,2.28,5.06,0.54,-0.46,0.75,18,5,17,0.7,7267,28,91,33,51,822,393.0,506,453,60,118.0,170,1,381,244,67,0,0,389,0,240,393,,,,,,,,,,,,
896283,1560692168107,2,2.43,2.18,3.32,2.29,5.05,0.39,-0.44,0.56,18,6,18,0.58,7312,28,91,33,51,818,394.0,500,458,60,117.0,170,1,381,244,67,0,0,382,486,1,394,,,,,,,,,,,,
896303,1560692168127,3,2.42,2.18,3.32,2.28,5.05,0.34,-0.4,0.48,18,6,20,0.52,7329,28,91,33,51,817,394.0,501,452,60,117.0,170,1,381,244,67,0,0,387,486,1,394,,,,,,,,,,,,
896323,1560692168147,-1,2.42,2.16,3.31,2.27,5.04,0.49,-0.43,0.52,17,3,19,0.65,7315,28,91,33,51,818,394.0,502,458,60,117.0,170,1,381,244,67,0,0,391,-6656,505,394,,,,,,,,,,,,
896343,1560692168167,0,2.41,2.17,3.34,2.25,5.07,0.64,-0.4,0.64,15,3,19,0.76,7361,28,91,33,50,817,395.0,507,453,60,118.0,170,1,378,239,67,0,0,393,770,17144,395,45.698738,4.909664,36.51,192.9,8,1.4767,0,0.0,1.1133,9,0.8,14.939
896363,1560692168187,1,2.4,2.16,3.34,2.24,5.03,0.74,-0.45,0.75,15,2,18,0.86,7358,28,91,33,50,816,396.0,503,457,60,118.0,171,1,378,239,68,0,0,396,8200,6384,396,,,,,,,,,,,,
896383,1560692168207,-1,2.42,2.18,3.33,2.25,5.05,0.87,-0.48,0.84,14,-1,18,0.99,7422,28,91,33,50,815,398.0,505,455,60,119.0,171,1,378,239,68,0,0,395,-992,-1818,398,,,,,,,,,,,,
896403,1560692168227,5,2.41,2.2,3.28,2.27,5.04,0.93,-0.46,0.86,13,-1,18,1.04,7413,28,91,33,50,813,397.0,507,455,60,118.0,171,1,378,239,68,0,0,394,-992,11545,397,,,,,,,,,,,,
896423,1560692168247,4,2.43,2.21,3.28,2.28,5.04,0.86,-0.5,0.92,14,-2,17,1.0,7440,28,91,33,49,811,399.0,508,455,60,118.0,171,1,375,234,68,0,0,397,-992,10541,399,,,,,,,,,,,,
896443,1560692168267,4,2.43,2.21,3.33,2.26,5.04,0.79,-0.49,0.92,15,-1,17,0.93,7431,28,91,33,50,809,401.0,511,452,60,118.0,171,1,378,239,68,0,0,400,19125,6512,401,45.698734,4.909651,37.33,192.9,8,1.4767,0,0.0,1.115,9,0.8,14.9407
896463,1560692168287,5,2.44,2.21,3.35,2.26,5.04,0.8,-0.52,0.89,15,-1,17,0.95,7488,28,91,33,49,807,401.0,515,458,60,118.0,167,1,375,239,67,0,0,397,-18948,10541,400,,,,,,,,,,,,
896483,1560692168307,5,2.44,2.2,3.34,2.27,5.04,0.77,-0.56,0.86,16,1,17,0.95,7518,29,91,33,49,806,402.0,520,454,60,118.0,167,1,375,234,67,0,0,401,-19126,6512,402,,,,,,,,,,,,
896503,1560692168327,4,2.45,2.2,3.35,2.26,5.05,0.65,-0.56,0.83,17,2,16,0.85,7569,29,91,33,49,808,405.0,520,456,60,118.0,167,1,375,234,67,0,0,398,-6475,-3968,403,,,,,,,,,,,,
896523,1560692168347,5,2.45,2.19,3.37,2.24,5.05,0.56,-0.55,0.8,18,2,16,0.79,7557,29,91,33,49,812,405.0,521,450,60,118.0,167,1,375,234,67,0,0,400,-6475,2524,405,,,,,,,,,,,,
896543,1560692168367,1,2.46,2.18,3.39,2.25,5.04,0.6,-0.63,0.85,19,2,17,0.87,7588,29,91,33,49,817,408.0,517,455,60,118.0,167,1,375,234,67,0,0,409,-3866,2524,408,45.698734,4.909637,37.73,192.9,8,1.4767,0,0.0,1.1167,9,0.81,14.9424
896563,1560692168387,1,2.46,2.17,3.42,2.26,5.05,0.73,-0.67,0.87,18,2,18,0.99,7606,29,91,33,49,822,410.0,525,457,60,118.0,164,1,375,234,67,0,0,409,-3866,-4059,410,,,,,,,,,,,,
896583,1560692168405,-0,2.48,2.18,3.41,2.28,5.04,0.83,-0.66,0.92,17,2,19,1.06,7678,29,91,33,48,829,410.0,527,453,60,118.0,164,1,372,228,67,0,0,405,-31744,10392,410,,,,,,,,,,,,
896603,1560692168425,2,2.49,2.18,3.42,2.27,5.08,0.91,-0.68,0.97,18,1,19,1.13,7674,29,91,33,48,837,412.0,523,455,60,117.0,164,1,372,228,67,0,0,410,240,-9166,412,,,,,,,,,,,,
896623,1560692168445,1,2.49,2.16,3.42,2.26,5.06,0.96,-0.64,0.97,18,-1,20,1.15,7712,29,91,33,49,845,414.0,530,457,60,117.0,164,1,375,229,67,0,0,413,-1562,18584,416,,,,,,,,,,,,
896643,1560692168465,3,2.49,2.16,3.42,2.31,5.04,0.94,-0.64,0.92,19,-2,20,1.14,7725,29,91,33,48,848,416.0,530,461,60,117.0,164,1,372,228,67,0,0,414,-6524,2524,418,45.69873,4.909624,38.51,192.9,8,1.4767,0,0.0,1.1183,9,0.81,14.944
896663,1560692168485,3,2.5,2.18,3.41,2.41,5.04,0.83,-0.63,0.89,19,-3,21,1.04,7731,29,91,33,48,853,417.0,530,453,60,118.0,160,1,372,229,67,0,0,412,-31744,-3414,417,,,,,,,,,,,,
896683,1560692168507,2,2.52,2.18,3.4,2.4,5.05,0.79,-0.73,0.84,20,-3,21,1.08,7789,29,91,33,48,860,415.0,533,461,60,118.0,160,1,372,229,67,0,0,410,-6524,18584,415,,,,,,,,,,,,
896703,1560692168527,-1,2.52,2.13,3.43,2.37,5.05,0.78,-0.7,0.86,20,-2,21,1.05,7780,29,91,33,47,866,419.0,537,451,60,118.0,160,1,370,223,67,0,0,408,-1562,18584,419,,,,,,,,,,,,
896723,1560692168547,1,2.51,2.06,3.46,2.39,5.04,0.82,-0.69,0.88,20,-0,23,1.07,7809,29,91,33,47,869,423.0,529,451,60,118.0,160,1,370,223,67,0,0,424,505,-21792,426,,,,,,,,,,,,
896743,1560692168567,2,2.5,2.05,3.46,2.37,5.08,0.82,-0.65,0.84,20,1,26,1.05,7868,29,91,33,48,873,426.0,528,454,60,117.0,160,1,372,223,67,0,0,425,1,-3414,426,45.69873,4.90961,39.15,192.8,8,1.4767,0,0.0,1.12,9,0.81,14.9457
896763,1560692168587,4,2.5,2.06,3.4,2.35,5.07,0.78,-0.71,0.74,21,-1,25,1.05,7904,29,91,33,47,879,425.0,537,456,60,118.0,154,1,370,223,66,0,0,400,505,-4082,425,,,,,,,,,,,,
896783,1560692168609,-2,2.51,2.05,3.38,2.34,5.05,0.74,-0.7,0.7,23,-1,25,1.01,7944,29,91,33,47,884,427.0,539,455,60,118.0,154,1,370,223,66,0,0,410,17144,-3856,426,,,,,,,,,,,,
896803,1560692168629,1,2.48,2.06,3.5,2.34,5.07,0.68,-0.69,0.63,24,1,26,0.97,7924,29,91,33,47,887,428.0,539,453,60,117.0,154,1,370,221,66,0,0,456,17144,-3314,428,,,,,,,,,,,,
896823,1560692168649,4,2.48,2.08,3.58,2.34,5.07,0.63,-0.66,0.55,24,2,27,0.91,7965,29,91,33,47,890,427.0,544,460,60,117.0,154,1,370,223,66,0,0,444,-1818,31796,427,,,,,,,,,,,,
896843,1560692168669,-0,2.48,2.08,3.53,2.34,5.04,0.72,-0.66,0.59,24,2,28,0.98,8071,29,91,33,46,901,428.0,546,455,60,118.0,154,1,362,223,66,0,0,403,6384,1779,428,45.69873,4.909596,39.71,192.8,8,1.4767,0,0.0,1.1217,9,0.81,14.9474
896863,1560692168689,2,2.47,2.08,3.55,2.33,5.04,0.7,-0.64,0.64,23,2,28,0.95,8067,29,91,33,46,912,429.0,548,453,60,118.0,155,1,362,221,67,0,0,426,-3968,243,429,,,,,,,,,,,,
896883,1560692168707,4,2.47,2.2,3.56,2.34,5.04,0.61,-0.59,0.56,23,1,29,0.85,8081,29,91,33,46,921,428.0,552,456,60,117.0,155,1,362,221,67,0,0,435,-3968,3635,428,,,,,,,,,,,,
896903,1560692168727,1,2.46,2.32,3.47,2.34,5.04,0.61,-0.54,0.54,22,1,27,0.82,8092,29,91,33,45,929,425.0,552,457,60,118.0,155,1,355,219,67,0,0,417,-8151,-3322,425,,,,,,,,,,,,
896923,1560692168747,3,2.46,2.31,3.42,2.34,5.07,0.62,-0.57,0.55,23,0,26,0.84,8005,30,91,33,45,943,427.0,542,458,60,117.0,155,1,355,219,67,0,0,423,10541,-3856,427,,,,,,,,,,,,
896943,1560692168767,3,2.46,2.28,3.43,2.34,5.06,0.6,-0.62,0.56,23,-1,25,0.86,7894,30,91,33,45,957,428.0,546,455,60,118.0,155,1,355,219,67,0,0,430,2524,-3322,428,45.69873,4.909582,39.95,192.8,8,1.4767,0,0.0,1.1233,9,0.81,14.949
896963,1560692168787,-2,2.44,2.29,3.43,2.34,5.06,0.54,-0.58,0.54,23,-1,25,0.8,7884,30,91,33,46,964,430.0,538,455,60,118.0,153,1,362,221,66,0,0,431,-26615,243,430,,,,,,,,,,,,
896983,1560692168809,-0,2.44,2.28,3.43,2.33,5.07,0.59,-0.62,0.55,22,-0,25,0.85,7845,30,91,33,46,970,430.0,533,455,60,117.0,153,1,362,221,66,0,0,424,10392,13552,430,,,,,,,,,,,,
897003,1560692168829,1,2.43,2.27,3.44,2.3,5.07,0.63,-0.54,0.51,21,-2,25,0.83,7898,30,91,33,47,982,430.0,541,459,60,117.0,153,1,370,223,66,0,0,419,9517,3635,430,,,,,,,,,,,,
897023,1560692168849,5,2.42,2.18,3.51,2.3,5.04,0.58,-0.59,0.51,21,-2,24,0.82,7961,30,91,33,46,994,432.0,545,456,60,118.0,153,1,362,223,66,0,0,426,11560,1779,432,,,,,,,,,,,,
897043,1560692168869,-1,2.41,2.1,3.51,2.27,5.04,0.55,-0.63,0.57,21,0,24,0.84,7988,30,91,33,47,1003,435.0,545,455,60,118.0,153,1,370,221,66,0,0,423,2524,-7939,436,45.69873,4.909568,40.82,192.8,8,1.4767,0,0.0,1.125,9,0.81,14.9507
897063,1560692168889,2,2.41,2.14,3.49,2.3,5.04,0.52,-0.59,0.52,20,1,24,0.79,8054,30,91,33,46,1010,436.0,560,458,60,117.0,153,1,362,221,67,0,0,420,13040,-768,436,,,,,,,,,,,,
897083,1560692168909,-0,2.4,2.21,3.41,2.36,5.07,0.51,-0.58,0.5,20,2,24,0.77,8141,30,91,33,46,1017,434.0,556,458,60,118.0,153,1,362,222,67,0,0,422,-4059,-3322,434,,,,,,,,,,,,
897103,1560692168929,1,2.41,2.23,3.36,2.41,5.04,0.42,-0.59,0.45,21,3,23,0.72,8095,30,91,33,46,1025,434.0,556,456,60,117.0,153,1,362,221,67,0,0,428,-26615,21580,433,,,,,,,,,,,,
897123,1560692168949,3,2.4,2.19,3.34,2.36,5.08,0.45,-0.59,0.36,21,4,24,0.74,8054,29,91,33,46,1027,437.0,563,458,60,117.0,153,1,362,221,67,0,0,427,-21944,19477,437,,,,,,,,,,,,
897143,1560692168969,0,2.4,2.17,3.31,2.37,5.08,0.45,-0.55,0.47,21,4,23,0.72,8078,26,91,33,44,1027,440.0,550,457,60,118.0,153,1,347,218,67,0,0,429,-3414,5600,440,45.698734,4.909553,41.52,192.8,8,1.4767,0,0.0,1.1267,9,0.81,14.9524
897163,1560692168989,3,2.39,2.15,3.35,2.37,5.04,0.52,-0.56,0.52,20,6,24,0.76,8050,24,91,33,42,1030,439.0,547,457,60,117.0,150,1,333,214,66,0,0,434,7154,20625,439,,,,,,,,,,,,
897183,1560692169001,5,2.39,2.15,3.27,2.3,5.07,0.49,-0.44,0.47,19,5,23,0.66,8047,24,91,33,40,1034,436.0,552,453,60,118.0,150,1,317,213,66,0,0,425,3826,5600,436,,,,,,,,,,,,
897203,1560692169021,2,2.39,2.15,3.36,2.26,5.04,0.51,-0.45,0.48,19,5,22,0.68,8074,24,91,33,39,1039,438.0,553,458,60,118.0,150,1,311,210,66,0,0,430,-21792,-768,435,,,,,,,,,,,,
897223,1560692169041,2,2.39,2.16,3.46,2.25,5.08,0.51,-0.43,0.45,18,6,22,0.66,8043,24,91,33,39,1043,438.0,547,458,60,117.0,150,1,310,210,66,0,0,431,3826,21580,438,,,,,,,,,,,,
897243,1560692169061,5,2.38,2.22,3.51,2.25,5.07,0.52,-0.34,0.37,17,6,22,0.62,8023,24,91,33,38,1048,437.0,556,453,60,118.0,150,1,307,204,66,0,0,430,-4082,21580,437,45.698734,4.909538,41.48,192.8,8,1.4767,0,0.0,1.1283,9,0.81,14.9541
897263,1560692169081,1,2.38,2.23,3.48,2.24,5.07,0.55,-0.32,0.42,16,7,21,0.64,8054,24,91,33,37,1053,438.0,552,459,60,118.0,141,1,305,198,62,0,0,426,-4082,-28332,438,,,,,,,,,,,,
897283,1560692169104,2,2.38,2.24,3.46,2.24,5.04,0.57,-0.28,0.43,16,7,20,0.63,8064,24,91,33,37,1055,438.0,560,458,60,117.0,141,1,305,198,62,0,0,424,3826,20625,438,,,,,,,,,,,,
897303,1560692169124,-1,2.38,2.26,3.45,2.24,5.04,0.59,-0.28,0.38,15,7,19,0.65,8002,24,91,33,37,1055,436.0,566,455,60,118.0,141,1,304,198,62,0,0,426,-3414,-7939,436,,,,,,,,,,,,
897323,1560692169144,3,2.38,2.28,3.38,2.23,5.04,0.62,-0.27,0.45,16,6,18,0.68,8023,24,91,33,37,1047,435.0,553,457,60,117.0,141,1,304,198,62,0,0,424,3826,5600,436,,,,,,,,,,,,
897343,1560692169164,3,2.38,2.26,3.4,2.2,5.05,0.65,-0.24,0.45,16,5,18,0.69,8005,22,91,33,36,1030,435.0,556,458,60,117.0,141,1,301,192,62,0,0,422,-3414,5600,435,45.698738,4.909524,41.85,192.8,8,1.4767,0,0.0,1.13,9,0.81,14.9557
897363,1560692169184,1,2.39,2.25,3.44,2.2,5.08,0.67,-0.27,0.42,16,4,17,0.73,7941,21,91,33,35,1013,436.0,565,453,60,118.0,131,1,298,185,57,0,0,423,-21792,5600,436,,,,,,,,,,,,
897383,1560692169208,2,2.38,2.25,3.49,2.2,5.07,0.67,-0.25,0.44,15,4,16,0.72,7958,20,91,33,34,996,437.0,555,460,60,118.0,131,1,295,179,57,0,0,423,-3414,-3322,437,,,,,,,,,,,,
897403,1560692169228,1,2.37,2.25,3.5,2.2,5.04,0.68,-0.27,0.45,15,3,15,0.74,7908,20,91,33,34,976,436.0,551,456,60,117.0,131,1,295,179,57,0,0,423,-3414,19477,436,,,,,,,,,,,,
897423,1560692169248,3,2.37,2.27,3.5,2.2,5.04,0.62,-0.22,0.35,15,4,15,0.66,7835,19,91,33,34,951,437.0,550,455,60,117.0,131,1,295,179,57,0,0,421,3826,5600,437,,,,,,,,,,,,
897443,1560692169268,3,2.37,2.26,3.53,2.19,5.06,0.53,-0.24,0.31,16,5,15,0.58,7796,18,91,33,33,931,434.0,544,458,60,118.0,131,1,292,174,57,0,0,423,3826,1779,434,45.698738,4.909509,42.16,192.8,8,1.4767,0,0.0,1.1317,9,0.82,14.9574
897463,1560692169288,0,2.37,2.26,3.52,2.17,5.06,0.56,-0.3,0.37,16,5,14,0.63,7725,16,91,33,32,924,434.0,539,453,60,118.0,112,1,290,169,49,0,0,422,-4082,-768,434,,,,,,,,,,,,
897483,1560692169308,1,2.36,2.26,3.48,2.17,5.08,0.66,-0.28,0.4,15,3,14,0.71,7697,14,91,33,31,915,435.0,537,457,60,117.0,112,1,286,167,49,0,0,423,3826,1779,433,,,,,,,,,,,,
897503,1560692169328,0,2.37,2.22,3.47,2.15,5.08,0.79,-0.35,0.53,14,1,12,0.87,7588,12,91,32,30,902,436.0,530,458,60,117.0,112,1,282,166,49,0,0,423,-3856,1779,436,,,,,,,,,,,,
897523,1560692169348,-0,2.35,2.16,3.44,2.15,5.04,0.92,-0.32,0.61,13,0,12,0.97,7521,11,91,32,28,890,436.0,525,455,60,118.0,112,1,275,163,49,0,0,423,-3856,243,436,,,,,,,,,,,,
897543,1560692169368,0,2.35,2.17,3.42,2.15,5.04,1.02,-0.35,0.65,11,-0,12,1.08,7411,11,91,32,28,884,436.0,521,458,60,117.0,112,1,275,163,49,0,0,422,-4082,-768,436,45.698742,4.909495,41.86,192.8,8,1.4767,0,0.0,1.1333,9,0.82,14.9591
897563,1560692169388,0,2.34,2.18,3.39,2.15,5.06,1.12,-0.33,0.75,11,-4,12,1.17,7347,11,91,32,27,877,434.0,520,456,60,118.0,103,1,270,161,45,0,0,421,-3414,31796,434,,,,,,,,,,,,
897583,1560692169408,-1,2.33,2.17,3.39,2.16,5.04,1.21,-0.34,0.87,9,-5,12,1.26,7338,11,91,32,26,870,431.0,523,457,60,118.0,103,1,266,160,45,0,0,412,-8165,-3414,431,,,,,,,,,,,,
897603,1560692169428,1,2.31,2.15,3.39,2.13,5.04,1.29,-0.38,0.94,8,-6,11,1.35,7470,11,91,32,26,864,428.0,522,455,60,118.0,103,1,267,160,45,0,0,406,-21944,11560,428,,,,,,,,,,,,
897623,1560692169448,-1,2.31,2.15,3.4,2.1,5.05,1.26,-0.41,0.93,9,-5,10,1.33,7575,10,91,32,26,863,424.0,530,455,60,118.0,103,1,268,159,45,0,0,404,-26615,-3968,424,,,,,,,,,,,,
897643,1560692169468,-1,2.3,2.14,3.4,2.08,5.07,1.34,-0.4,0.97,8,-7,9,1.4,7678,10,91,32,25,862,419.0,530,455,60,118.0,103,1,266,159,45,0,0,405,2524,-26615,419,45.698746,4.909481,41.56,192.8,8,1.4767,0,0.0,1.135,9,0.82,14.9607
897663,1560692169488,1,2.29,2.15,3.42,2.05,5.07,1.41,-0.33,0.98,7,-8,9,1.44,7684,10,91,32,24,860,418.0,532,457,60,117.0,110,1,267,156,46,0,0,413,13040,1504,418,,,,,,,,,,,,
897683,1560692169508,1,2.29,2.18,3.44,2.03,5.06,1.44,-0.24,0.99,5,-9,8,1.46,7693,10,91,32,24,859,415.0,534,455,60,118.0,110,1,266,156,46,0,0,413,13040,10541,412,,,,,,,,,,,,
897703,1560692169528,2,2.28,2.17,3.43,2.02,5.08,1.36,-0.11,0.85,5,-9,8,1.37,7618,10,91,32,24,858,414.0,532,458,60,117.0,110,1,266,156,46,0,0,413,-4059,-26615,410,,,,,,,,,,,,
897723,1560692169548,2,2.27,2.18,3.42,2.0,5.04,1.28,-0.03,0.63,4,-8,8,1.28,7521,10,91,32,23,857,411.0,532,456,60,117.0,110,1,265,154,46,0,0,413,-4059,1504,410,,,,,,,,,,,,
897743,1560692169568,0,2.27,2.21,3.41,2.0,5.07,1.1,0.09,0.47,4,-6,8,1.11,7485,10,91,32,23,858,408.0,525,458,60,117.0,110,1,264,154,46,0,0,413,10392,6512,408,45.69875,4.909467,41.31,192.7,8,1.4767,0,0.0,1.1367,9,0.82,14.9624
