"Interval"|"ms"|0|0|1,"Utc"|"ms"|0|0|1,"FB_p"|"bar"|0|300|50,"Volant"|"F"|0.0|300.0|50,"xFR"|"mm"|0.0|5.0|50,"xRR"|"mm"|0.0|5.0|50,"xFL"|"mm"|0.0|5.0|50,"xRL"|"mm"|0.0|5.0|50,"AccelX"|"G"|-3.0|3.0|50,"AccelY"|"G"|-3.0|3.0|50,"AccelZ"|"G"|-3.0|3.0|50,"Yaw"|"Deg/Sec"|-120|120|50,"Pitch"|"Deg/Sec"|-120|120|50,"Roll"|"Deg/Sec"|-120|120|50,"Gsum"|"G"|0.0|3.0|50,"RPM"|""|0|14000|50,"TPS"|"%"|0|100|50,"WaterTemp"|"?C"|0|300|50,"AirTemp"|"?C"|-1000|1000|50,"MAP"|"KPa"|0|255|50,"Lambda"|""|0|1024|50,"WheelSpeed"|"MPH"|0.0|150.0|50,"OilPress"|"PSI"|0|150|50,"FuelPress"|"PSI"|0|150|50,"OilTemp"|"F"|0|300|50,"Battery"|"Volts"|0.0|20.0|50,"FuelCon"|"L/h"|-1000|1000|50,"Gear"|""|0|10|50,"Advance"|"Deg"|-360|360|50,"Injection"|"ms"|-1000|1000|50,"FuelCon"|"L/100km"|-1000|1000|50,"LC_But_Pres"|""|-1000|1000|50,"LC_Active"|""|-1000|1000|50,"RD_Speed"|""|-1000|1000|50,"RUD_Speed"|""|-1000|1000|50,"LD_Speed"|""|-1000|1000|50,"LUD_Speed"|""|-1000|1000|50,"Latitude"|"Degrees"|-180.0|180.0|10,"Longitude"|"Degrees"|-180.0|180.0|10,"Speed"|"kph"|0.0|150.0|10,"Altitude"|"m"|0.0|4000.0|10,"LapCount"|""|0|0|10,"LapTime"|"Min"|0.0|0.0|10,"Sector"|""|0|0|10,"SectorTime"|"Min"|0.0|0.0|10,"ElapsedTime"|"Min"|0.0|0.0|10,"CurrentLap"|""|0|0|10,"Distance"|"km"|0.0|0.0|10,"SessionTime"|"Min"|0.0|0.0|10
368070,1560684532832,2,2.23,2.01,3.24,1.85,3.01,0.74,0.03,0.45,0,-1,-0,0.74,7335,21,73,31,37,500,0.0,635,456,60,120.0,0,1,304,196,52,0,0,0,250,250,0,,,,,,,,,,,,
368090,1560684532852,-0,2.24,2.01,3.24,1.86,3.0,0.76,0.05,0.49,1,-1,0,0.76,7321,21,73,31,37,500,0.0,623,458,60,121.0,0,1,304,196,52,0,0,0,250,250,0,,,,,,,,,,,,
368110,1560684532872,-1,2.24,2.0,3.23,1.85,3.0,0.84,0.03,0.56,0,-2,0,0.84,7361,21,73,31,36,500,0.0,630,457,60,121.0,0,1,301,190,52,0,0,0,250,250,0,,,,,,,,,,,,
368130,1560684532894,1,2.23,2.01,3.24,1.86,3.0,0.91,0.07,0.64,-0,-4,-0,0.91,7347,21,74,31,36,500,0.0,625,453,60,122.0,0,1,301,190,52,0,0,0,250,250,0,45.700375,4.90939,0.0,194.3,0,0.0,0,0.0,0.8517,1,0.0,6.1355
368150,1560684532914,-0,2.24,2.0,3.24,1.85,3.0,0.88,0.02,0.67,-0,-3,-2,0.88,7367,21,74,31,36,500,0.0,630,453,60,122.0,0,1,301,190,53,0,0,0,250,250,0,,,,,,,,,,,,
368170,1560684532934,1,2.24,2.01,3.24,1.86,3.0,0.93,-0.07,0.69,-1,-5,-0,0.94,7358,21,74,31,36,500,0.0,640,456,60,120.0,0,1,301,190,53,0,0,0,250,250,0,,,,,,,,,,,,
368190,1560684532954,4,2.24,2.0,3.24,1.85,3.0,0.93,-0.07,0.65,-1,-4,1,0.94,7364,21,74,31,36,500,0.0,625,457,60,121.0,0,1,301,190,53,0,0,0,250,250,0,,,,,,,,,,,,
368210,1560684532974,4,2.24,2.0,3.24,1.85,3.0,0.86,-0.11,0.59,-1,-3,0,0.86,7358,21,74,31,36,500,0.0,635,458,60,121.0,0,1,301,190,53,0,0,0,250,250,0,,,,,,,,,,,,
368230,1560684532994,5,2.24,2.0,3.24,1.85,3.01,0.79,-0.06,0.54,-0,-2,-0,0.8,7378,20,74,31,36,500,0.0,633,460,60,120.0,0,1,301,190,53,0,0,0,250,250,0,45.700375,4.90939,0.0,194.3,0,0.0,0,0.0,0.8517,1,0.0,6.1372
368250,1560684533006,4,2.23,2.0,3.24,1.85,3.0,0.73,-0.02,0.48,0,-2,-0,0.73,7358,21,74,31,36,500,0.0,633,455,60,121.0,0,1,301,190,53,0,0,0,250,250,0,,,,,,,,,,,,
368270,1560684533026,3,2.24,2.01,3.24,1.86,3.0,0.69,0.02,0.44,0,-1,-0,0.69,7381,21,74,31,36,500,0.0,637,461,60,120.0,0,1,301,190,53,0,0,0,250,250,0,,,,,,,,,,,,
368290,1560684533046,1,2.24,2.0,3.24,1.86,2.99,0.67,0.04,0.41,0,-1,0,0.67,7355,21,74,31,36,500,0.0,633,457,60,120.0,0,1,301,190,53,0,0,0,250,250,0,,,,,,,,,,,,
368310,1560684533066,2,2.24,2.01,3.24,1.85,3.0,0.71,0.1,0.43,-0,-2,0,0.71,7350,21,74,31,36,500,0.0,618,456,60,122.0,0,1,301,190,53,0,0,0,250,250,0,,,,,,,,,,,,
368330,1560684533086,1,2.24,2.01,3.24,1.86,2.99,0.73,0.1,0.48,-0,-2,-0,0.74,7390,21,74,31,36,500,0.0,632,455,60,121.0,0,1,301,190,53,0,0,0,250,250,0,45.700375,4.90939,0.0,194.3,0,0.0,0,0.0,0.8533,1,0.0,6.1388
368350,1560684533106,1,2.24,2.01,3.24,1.84,3.01,0.85,0.04,0.56,-1,-4,-0,0.85,7350,21,74,31,36,500,0.0,632,456,60,122.0,0,1,301,190,53,0,0,0,250,250,0,,,,,,,,,,,,
368370,1560684533126,-1,2.25,2.01,3.24,1.86,3.0,0.94,-0.0,0.57,-1,-5,0,0.94,7376,21,74,31,36,500,0.0,632,458,60,122.0,0,1,301,190,53,0,0,0,250,250,0,,,,,,,,,,,,
368390,1560684533146,1,2.24,2.01,3.24,1.85,3.0,0.95,-0.07,0.59,-1,-5,-0,0.95,7341,21,74,31,36,500,0.0,633,456,60,122.0,0,1,301,190,53,0,0,0,250,250,0,,,,,,,,,,,,
368410,1560684533166,6,2.24,2.01,3.24,1.84,3.01,0.95,-0.12,0.64,-1,-4,-1,0.95,7361,21,74,31,36,500,0.0,627,458,60,120.0,0,1,301,190,53,0,0,0,250,250,0,,,,,,,,,,,,
368430,1560684533192,5,2.25,2.01,3.25,1.84,3.0,0.9,-0.16,0.57,-0,-3,-0,0.92,7335,21,74,31,36,500,0.0,635,454,60,120.0,0,1,301,190,53,0,0,0,250,250,0,45.700375,4.90939,0.0,194.3,0,0.0,0,0.0,0.8567,1,0.0,6.1405
368450,1560684533212,3,2.24,2.01,3.24,1.85,3.0,0.81,-0.09,0.47,1,-1,1,0.82,7364,21,74,31,36,500,0.0,632,458,60,120.0,0,1,301,190,52,0,0,0,250,250,0,,,,,,,,,,,,
368470,1560684533232,-1,2.24,2.01,3.24,1.84,3.01,0.76,-0.05,0.44,1,0,1,0.76,7341,21,74,31,36,500,0.0,632,457,60,120.0,0,1,301,196,52,0,0,0,250,250,0,,,,,,,,,,,,
368490,1560684533252,1,2.25,2.01,3.24,1.85,2.99,0.74,0.05,0.46,2,0,1,0.74,7341,21,74,31,36,500,0.0,630,458,60,120.0,0,1,301,190,52,0,0,0,250,250,0,,,,,,,,,,,,
368510,1560684533272,1,2.25,2.0,3.23,1.85,3.01,0.72,0.13,0.45,2,0,-0,0.73,7367,21,74,31,36,500,0.0,629,456,60,121.0,0,1,301,190,52,0,0,0,250,250,0,,,,,,,,,,,,
368530,1560684533292,2,2.24,2.01,3.23,1.85,3.0,0.78,0.09,0.48,2,-1,-0,0.79,7352,21,74,31,36,500,0.0,628,455,60,122.0,0,1,301,190,52,0,0,0,250,250,0,45.700375,4.90939,0.0,194.3,0,0.0,0,0.0,0.8583,1,0.0,6.1422
368550,1560684533312,1,2.23,2.01,3.24,1.85,3.01,0.86,0.03,0.53,1,-1,1,0.86,7381,21,74,31,36,500,0.0,626,459,60,122.0,0,1,301,190,53,0,0,0,250,250,0,,,,,,,,,,,,
368570,1560684533332,-1,2.24,2.0,3.24,1.85,2.99,0.88,-0.0,0.57,0,-2,2,0.88,7364,21,74,31,36,500,0.0,618,455,60,122.0,0,1,301,190,53,0,0,0,250,250,0,,,,,,,,,,,,
368590,1560684533352,0,2.24,2.0,3.24,1.85,3.0,0.87,0.01,0.64,0,-3,-1,0.87,7370,21,74,31,36,500,0.0,627,456,60,122.0,0,1,301,190,53,0,0,0,250,250,0,,,,,,,,,,,,
368610,1560684533372,11,2.24,2.0,3.24,1.86,3.0,0.9,-0.07,0.66,-0,-4,-1,0.91,7341,21,74,31,36,500,0.0,636,455,60,120.0,0,1,301,190,53,0,0,0,250,250,0,,,,,,,,,,,,
368630,1560684533391,5,2.24,2.01,3.24,1.85,3.01,0.88,-0.06,0.58,-0,-3,-1,0.88,7378,21,74,31,36,500,0.0,625,458,60,121.0,0,1,301,190,53,0,0,0,250,250,0,45.700375,4.90939,0.0,194.3,0,0.0,0,0.0,0.86,1,0.0,6.1438
368650,1560684533411,4,2.24,2.0,3.24,1.86,3.0,0.89,-0.13,0.6,0,-2,1,0.9,7355,21,74,31,36,500,0.0,637,457,60,121.0,0,1,301,190,53,0,0,0,250,250,0,,,,,,,,,,,,
368670,1560684533431,4,2.23,2.01,3.24,1.85,2.99,0.87,-0.16,0.66,0,-2,0,0.89,7376,21,74,31,36,500,0.0,623,457,60,120.0,0,1,301,190,53,0,0,0,250,250,0,,,,,,,,,,,,
368690,1560684533451,3,2.25,2.0,3.24,1.85,3.0,0.86,-0.22,0.63,1,-2,-0,0.89,7352,21,74,31,36,500,0.0,633,456,60,120.0,0,1,301,190,53,0,0,0,250,250,0,,,,,,,,,,,,
368710,1560684533471,1,2.24,2.01,3.23,1.85,3.0,0.8,-0.17,0.51,1,-1,-0,0.82,7350,21,74,31,36,500,0.0,632,458,60,120.0,0,1,301,190,53,0,0,0,250,250,0,,,,,,,,,,,,
368730,1560684533491,3,2.23,2.01,3.24,1.85,2.99,0.74,-0.12,0.46,1,-1,1,0.75,7378,21,74,31,36,500,0.0,631,458,60,120.0,0,1,301,190,53,0,0,0,250,250,0,45.700375,4.90939,0.0,194.3,0,0.0,0,0.0,0.8617,1,0.0,6.1455
368750,1560684533511,2,2.24,2.01,3.24,1.85,3.0,0.72,-0.02,0.49,1,-0,1,0.72,7347,21,74,31,36,500,0.0,628,454,60,121.0,0,1,301,190,53,0,0,0,250,250,0,,,,,,,,,,,,
368770,1560684533531,0,2.23,2.01,3.24,1.85,3.01,0.68,0.09,0.47,1,-1,-1,0.69,7367,21,74,31,36,500,0.0,628,458,60,122.0,0,1,301,190,53,0,0,0,250,250,0,,,,,,,,,,,,
368790,1560684533551,1,2.24,2.01,3.24,1.86,3.0,0.75,0.07,0.5,0,-2,-1,0.75,7321,21,74,31,36,500,0.0,624,454,60,122.0,0,1,301,190,53,0,0,0,250,250,0,,,,,,,,,,,,
368810,1560684533571,0,2.23,2.01,3.24,1.85,3.01,0.81,0.01,0.53,-0,-2,-0,0.81,7352,21,74,31,36,500,0.0,626,458,60,122.0,0,1,301,190,53,0,0,0,250,250,0,,,,,,,,,,,,
368830,1560684533591,5,2.24,2.01,3.24,1.86,3.01,0.83,-0.01,0.57,-0,-2,1,0.83,7318,21,74,31,36,500,0.0,624,455,60,122.0,0,1,301,190,53,0,0,0,250,250,0,45.700375,4.90939,0.0,194.3,0,0.0,0,0.0,0.8633,1,0.0,6.1472
368850,1560684533611,3,2.24,2.01,3.24,1.85,3.0,0.83,-0.08,0.68,0,-2,-0,0.83,7350,21,74,31,36,500,0.0,637,458,60,121.0,0,1,301,190,52,0,0,0,250,250,0,,,,,,,,,,,,
368870,1560684533631,3,2.25,2.01,3.24,1.86,3.01,0.86,-0.16,0.71,0,-1,-1,0.88,7332,21,74,31,37,500,0.0,633,456,60,120.0,0,1,304,196,52,0,0,0,250,250,0,,,,,,,,,,,,
368890,1560684533651,2,2.25,2.01,3.23,1.85,3.0,0.83,-0.13,0.6,1,1,-1,0.84,7301,21,74,31,37,500,0.0,630,457,60,121.0,0,1,304,190,52,0,0,0,250,250,0,,,,,,,,,,,,
368910,1560684533671,2,2.24,2.01,3.24,1.86,3.0,0.76,-0.1,0.52,1,0,0,0.77,7327,21,74,31,37,500,0.0,633,457,60,120.0,0,1,304,190,52,0,0,0,250,250,0,,,,,,,,,,,,
368930,1560684533693,1,2.23,2.01,3.24,1.85,3.0,0.75,-0.01,0.54,1,0,1,0.75,7307,21,74,31,37,500,0.0,630,454,60,121.0,0,1,304,196,52,0,0,0,250,250,0,45.700375,4.90939,0.0,194.3,0,0.0,0,0.0,0.865,1,0.0,6.1488
368950,1560684533713,1,2.25,2.0,3.24,1.85,3.0,0.72,0.09,0.53,0,-0,-1,0.72,7324,21,74,31,37,500,0.0,633,457,60,122.0,0,1,304,196,54,0,0,0,250,250,0,,,,,,,,,,,,
368970,1560684533733,1,2.24,2.01,3.24,1.85,3.01,0.8,0.07,0.56,-0,-3,-2,0.81,7315,21,74,31,37,500,0.0,627,454,60,122.0,0,1,304,196,54,0,0,0,250,250,0,,,,,,,,,,,,
368990,1560684533753,5,2.24,2.01,3.23,1.86,3.01,0.9,-0.01,0.6,-1,-2,-0,0.9,7332,21,74,31,37,500,0.0,633,458,60,122.0,0,1,304,196,54,0,0,0,250,250,0,,,,,,,,,,,,
369010,1560684533773,6,2.24,2.01,3.23,1.86,3.0,0.9,-0.08,0.63,-0,-1,1,0.9,7312,21,74,31,37,500,0.0,626,455,60,122.0,0,1,304,196,54,0,0,0,250,250,0,,,,,,,,,,,,
369030,1560684533793,3,2.25,2.01,3.23,1.86,3.0,0.87,-0.12,0.7,0,-0,-0,0.88,7329,21,74,31,37,539,0.0,631,460,60,121.0,0,1,304,196,54,0,0,0,250,250,0,45.700375,4.90939,0.0,194.3,0,0.0,0,0.0,0.8667,1,0.0,6.1505
369050,1560684533813,4,2.23,2.01,3.24,1.84,3.0,0.83,-0.18,0.62,1,-0,-1,0.85,7304,21,74,31,37,615,0.0,629,455,60,120.0,0,1,304,196,54,0,0,0,250,250,0,,,,,,,,,,,,
369070,1560684533833,3,2.24,2.01,3.24,1.86,3.0,0.7,-0.09,0.47,1,1,-0,0.7,7309,21,74,31,37,693,0.0,626,458,60,121.0,0,1,304,196,54,0,0,0,250,250,0,,,,,,,,,,,,
369090,1560684533853,2,2.24,2.01,3.24,1.84,3.0,0.65,-0.04,0.47,1,-0,1,0.66,7318,21,75,31,37,770,0.0,619,457,60,122.0,0,1,304,196,54,0,0,0,250,250,0,,,,,,,,,,,,
369110,1560684533873,-0,2.24,2.01,3.24,1.86,3.0,0.7,0.08,0.53,0,-1,1,0.7,7315,21,75,31,37,845,0.0,627,455,60,122.0,0,1,304,196,54,0,0,0,250,250,0,,,,,,,,,,,,
369130,1560684533893,1,2.24,2.0,3.23,1.86,3.0,0.74,0.09,0.6,-0,-2,-1,0.74,7335,21,75,31,37,919,0.0,622,453,60,122.0,0,1,304,196,54,0,0,0,250,250,0,45.700375,4.90939,0.0,194.3,0,0.0,0,0.0,0.8683,1,0.0,6.1522
369150,1560684533913,2,2.24,2.0,3.24,1.85,3.0,0.86,0.04,0.67,-1,-3,-1,0.87,7318,21,75,31,37,973,0.0,633,456,60,122.0,0,1,304,196,54,0,0,0,250,250,0,,,,,,,,,,,,
369170,1560684533933,5,2.24,2.01,3.24,1.86,3.0,0.94,-0.03,0.65,-1,-2,0,0.94,7329,21,75,31,37,970,0.0,623,457,60,122.0,0,1,304,196,54,0,0,0,250,250,0,,,,,,,,,,,,
369190,1560684533953,3,2.24,2.01,3.23,1.85,3.01,0.87,-0.09,0.65,0,0,1,0.88,7284,21,75,31,37,967,0.0,633,461,60,121.0,0,1,304,196,54,0,0,0,250,250,0,,,,,,,,,,,,
369210,1560684533973,1,2.23,2.01,3.24,1.85,3.0,0.81,-0.09,0.65,1,1,0,0.81,7301,21,75,31,37,964,0.0,625,458,60,120.0,0,1,304,196,54,0,0,0,250,250,0,,,,,,,,,,,,
369230,1560684533993,1,2.24,2.01,3.24,1.85,2.99,0.72,-0.08,0.55,1,2,-1,0.73,7304,21,75,31,37,962,0.0,631,453,60,121.0,0,1,304,196,54,0,0,0,250,250,0,45.700375,4.90939,0.0,194.3,0,0.0,0,0.0,0.8683,1,0.0,6.1538
369250,1560684534007,-1,2.24,2.0,3.23,1.85,3.0,0.68,-0.03,0.48,1,1,-1,0.68,7287,21,75,31,37,962,0.0,626,456,60,121.0,0,1,304,196,54,0,0,0,250,250,0,,,,,,,,,,,,
369270,1560684534027,-1,2.24,2.0,3.24,1.85,3.0,0.74,-0.02,0.51,0,0,0,0.74,7318,21,75,31,37,962,0.0,630,454,60,122.0,0,1,304,196,54,0,0,0,250,250,0,,,,,,,,,,,,
369290,1560684534047,2,2.24,2.01,3.24,1.86,3.0,0.83,0.04,0.64,-0,-1,1,0.83,7304,21,75,31,37,961,0.0,621,454,60,122.0,0,1,304,196,54,0,0,0,250,250,0,,,,,,,,,,,,
369310,1560684534067,-1,2.24,2.01,3.23,1.86,3.0,0.86,-0.01,0.76,-1,-1,-2,0.86,7315,21,75,31,37,961,0.0,626,458,60,121.0,0,1,304,196,54,0,0,0,250,250,0,,,,,,,,,,,,
369330,1560684534093,6,2.24,2.01,3.23,1.85,3.0,0.92,-0.11,0.73,-0,-1,-1,0.93,7307,21,75,31,37,962,0.0,625,457,60,121.0,0,1,304,196,54,0,0,0,250,250,0,45.700375,4.90939,0.0,194.3,0,0.0,0,0.0,0.8717,1,0.0,6.1555
369350,1560684534113,4,2.24,2.0,3.23,1.85,3.0,0.87,-0.1,0.62,0,1,0,0.87,7324,21,75,31,37,962,0.0,636,458,60,120.0,0,1,304,196,54,0,0,0,250,250,0,,,,,,,,,,,,
369370,1560684534133,3,2.24,2.01,3.24,1.85,2.99,0.74,-0.11,0.55,1,3,1,0.75,7307,21,75,31,37,960,0.0,626,458,60,120.0,0,1,304,196,54,0,0,0,250,250,0,,,,,,,,,,,,
369390,1560684534153,3,2.24,2.01,3.24,1.85,3.0,0.69,-0.02,0.54,2,3,-0,0.69,7318,21,75,31,37,959,0.0,632,458,60,120.0,0,1,304,196,54,0,0,0,250,250,0,,,,,,,,,,,,
369410,1560684534173,1,2.24,2.0,3.24,1.85,3.0,0.68,0.06,0.48,1,2,-1,0.69,7352,21,75,31,37,957,0.0,625,453,60,121.0,0,1,304,196,54,0,0,0,250,250,0,,,,,,,,,,,,
369430,1560684534193,1,2.24,2.01,3.24,1.85,3.01,0.75,0.04,0.52,1,0,-1,0.75,7329,21,75,31,37,955,0.0,635,458,60,121.0,0,1,304,196,54,0,0,0,250,250,0,45.700375,4.90939,0.0,194.3,0,0.0,0,0.0,0.8733,1,0.0,6.1572
369450,1560684534213,-1,2.24,2.01,3.24,1.86,3.0,0.86,0.01,0.58,-0,-1,0,0.86,7361,21,75,31,37,953,0.0,626,456,60,122.0,0,1,304,196,54,0,0,0,250,250,0,,,,,,,,,,,,
369470,1560684534233,1,2.24,2.01,3.24,1.85,3.0,0.94,0.02,0.67,-1,-2,1,0.94,7329,21,75,31,37,951,0.0,631,457,60,121.0,0,1,304,196,54,0,0,0,250,250,0,,,,,,,,,,,,
369490,1560684534253,5,2.24,2.0,3.24,1.85,3.0,0.97,-0.06,0.78,-1,-3,-1,0.97,7352,21,75,31,37,951,0.0,632,456,60,122.0,0,1,304,196,54,0,0,0,250,250,0,,,,,,,,,,,,
369510,1560684534273,6,2.24,2.01,3.24,1.85,3.01,1.03,-0.14,0.77,-1,-3,-1,1.04,7347,21,75,31,37,951,0.0,628,454,60,122.0,0,1,304,196,54,0,0,0,250,250,0,,,,,,,,,,,,
369530,1560684534293,5,2.24,2.0,3.24,1.86,3.01,1.01,-0.13,0.66,-0,-0,-1,1.02,7370,21,75,31,37,954,0.0,636,457,60,121.0,0,1,304,196,54,0,0,0,250,250,0,45.700375,4.90939,0.0,194.3,0,0.0,0,0.0,0.875,1,0.0,6.1588
369550,1560684534313,2,2.25,2.01,3.24,1.86,3.0,0.91,-0.18,0.58,1,2,0,0.92,7344,21,75,31,37,957,0.0,627,458,60,120.0,0,1,304,196,54,0,0,0,250,250,0,,,,,,,,,,,,
369570,1560684534333,4,2.24,2.0,3.24,1.85,3.0,0.82,-0.1,0.56,1,2,0,0.83,7390,21,75,31,37,959,0.0,632,458,60,120.0,0,1,304,196,54,0,0,0,250,250,0,,,,,,,,,,,,
369590,1560684534353,1,2.24,2.01,3.24,1.85,3.0,0.75,-0.05,0.48,2,2,-1,0.75,7378,21,75,31,37,962,0.0,630,455,60,122.0,0,1,304,196,54,0,0,0,250,250,0,,,,,,,,,,,,
369610,1560684534373,3,2.25,2.01,3.24,1.86,2.99,0.68,-0.01,0.44,2,2,-1,0.68,7355,21,75,31,37,963,0.0,627,458,60,121.0,0,1,304,196,54,0,0,0,250,250,0,,,,,,,,,,,,
369630,1560684534394,1,2.24,2.01,3.24,1.85,3.0,0.7,0.02,0.45,1,2,-0,0.7,7399,21,75,31,37,964,0.0,625,457,60,122.0,0,1,304,190,54,0,0,0,250,250,0,45.700375,4.90939,0.0,194.3,0,0.0,0,0.0,0.8767,1,0.0,6.1605
369650,1560684534414,1,2.24,2.01,3.24,1.84,3.0,0.73,0.09,0.51,1,1,0,0.73,7393,21,75,31,37,963,0.0,628,456,60,122.0,0,1,304,196,54,0,0,0,250,250,0,,,,,,,,,,,,
369670,1560684534434,-1,2.24,2.01,3.24,1.86,3.01,0.79,0.09,0.6,0,-0,-1,0.79,7411,21,75,31,36,962,0.0,626,456,60,122.0,0,1,301,190,54,0,0,0,250,250,0,,,,,,,,,,,,
369690,1560684534454,1,2.24,2.01,3.24,1.84,3.01,0.91,0.06,0.64,-1,-3,-1,0.91,7358,21,75,31,36,959,0.0,620,457,60,122.0,0,1,301,190,54,0,0,0,250,250,0,,,,,,,,,,,,
369710,1560684534474,1,2.24,2.01,3.24,1.85,3.01,1.01,-0.02,0.67,-1,-3,0,1.01,7399,21,75,31,36,957,0.0,629,457,60,122.0,0,1,301,190,54,0,0,0,250,250,0,,,,,,,,,,,,
369730,1560684534494,18,2.25,2.01,3.24,1.85,3.01,1.04,-0.08,0.7,-1,-2,1,1.04,7347,21,75,31,36,955,0.0,631,457,60,122.0,0,1,301,196,54,0,0,0,250,250,0,45.700375,4.90939,0.0,194.3,0,0.0,0,0.0,0.8783,1,0.0,6.1622
369750,1560684534514,5,2.23,2.01,3.24,1.85,2.99,1.04,-0.17,0.78,-1,-2,-1,1.06,7364,21,75,31,37,953,0.0,621,458,60,121.0,0,1,304,196,54,0,0,0,250,250,0,,,,,,,,,,,,
369770,1560684534534,4,2.24,2.0,3.24,1.86,3.0,1.02,-0.24,0.75,-0,-0,-1,1.05,7335,21,75,31,37,951,0.0,636,454,60,120.0,0,1,304,196,54,0,0,0,250,250,0,,,,,,,,,,,,
369790,1560684534554,4,2.24,2.0,3.23,1.85,3.0,0.9,-0.17,0.61,1,2,-0,0.92,7367,21,75,31,37,949,0.0,627,459,60,120.0,0,1,304,196,54,0,0,0,250,250,0,,,,,,,,,,,,
369810,1560684534574,2,2.25,2.01,3.24,1.84,3.0,0.78,-0.15,0.5,1,3,1,0.8,7347,21,75,31,37,948,0.0,631,458,60,120.0,0,1,304,196,54,0,0,0,250,250,0,,,,,,,,,,,,
369830,1560684534592,1,2.24,2.01,3.23,1.86,3.0,0.73,-0.04,0.49,1,3,1,0.73,7381,21,75,31,37,948,0.0,635,456,60,121.0,0,1,304,196,54,0,0,0,250,250,0,45.700375,4.90939,0.0,194.3,0,0.0,0,0.0,0.88,1,0.0,6.1638
369850,1560684534612,0,2.25,2.01,3.23,1.85,3.01,0.69,0.06,0.47,1,2,-0,0.69,7347,21,75,31,37,948,0.0,628,452,60,121.0,0,1,304,190,54,0,0,0,250,250,0,,,,,,,,,,,,
369870,1560684534632,1,2.24,2.01,3.24,1.85,3.01,0.76,0.06,0.53,1,0,-1,0.76,7321,21,75,31,36,949,0.0,630,456,60,122.0,0,1,301,190,54,0,0,0,250,250,0,,,,,,,,,,,,
369890,1560684534652,1,2.24,2.0,3.24,1.85,3.01,0.85,-0.0,0.59,-0,-1,-0,0.85,7347,21,75,31,37,950,0.0,622,456,60,122.0,0,1,304,196,54,0,0,0,250,250,0,,,,,,,,,,,,
369910,1560684534672,1,2.24,2.01,3.24,1.84,3.02,0.92,-0.01,0.66,-1,-1,0,0.92,7327,21,75,31,37,951,0.0,635,457,60,121.0,0,1,304,196,54,0,0,0,250,250,0,,,,,,,,,,,,
369930,1560684534694,3,2.24,2.01,3.24,1.86,3.0,0.95,-0.09,0.74,-1,-2,-0,0.96,7361,21,75,31,37,952,0.0,637,459,60,121.0,0,1,304,196,54,0,0,0,250,250,0,45.700375,4.90939,0.0,194.3,0,0.0,0,0.0,0.8817,1,0.0,6.1655
369950,1560684534714,4,2.24,2.01,3.24,1.85,3.01,1.0,-0.17,0.74,-1,-3,-0,1.01,7352,21,75,31,37,954,0.0,625,455,60,121.0,0,1,304,196,54,0,0,0,250,250,0,,,,,,,,,,,,
369970,1560684534734,5,2.24,2.01,3.24,1.85,3.01,0.95,-0.15,0.64,-0,-1,0,0.96,7376,21,75,31,37,955,0.0,637,457,60,121.0,0,1,304,196,54,0,0,0,250,250,0,,,,,,,,,,,,
369990,1560684534754,2,2.25,2.01,3.23,1.85,3.01,0.81,-0.17,0.54,1,1,1,0.83,7364,21,75,31,37,955,0.0,631,456,60,120.0,0,1,304,196,54,0,0,0,250,250,0,,,,,,,,,,,,
370010,1560684534774,3,2.24,2.01,3.24,1.85,3.0,0.75,-0.08,0.5,1,2,0,0.75,7396,21,75,31,37,954,0.0,625,458,60,120.0,0,1,304,196,54,0,0,0,250,250,0,,,,,,,,,,,,
370030,1560684534794,2,2.25,2.01,3.23,1.86,3.0,0.69,-0.01,0.43,2,2,0,0.69,7431,21,75,31,37,951,0.0,635,454,60,120.0,0,1,304,190,54,0,0,0,250,250,0,45.700375,4.90939,0.0,194.3,0,0.0,0,0.0,0.8833,1,0.0,6.1672
370050,1560684534814,3,2.23,2.01,3.24,1.85,3.01,0.64,0.02,0.43,2,2,0,0.64,7408,21,75,31,36,948,0.0,633,457,60,122.0,0,1,301,190,53,0,0,0,250,250,0,,,,,,,,,,,,
370070,1560684534834,3,2.24,2.0,3.24,1.86,3.0,0.63,0.04,0.42,2,1,1,0.63,7425,21,75,31,36,944,0.0,633,457,60,121.0,0,1,301,190,53,0,0,0,250,250,0,,,,,,,,,,,,
370090,1560684534854,1,2.24,2.01,3.24,1.86,3.0,0.63,0.11,0.48,1,-0,1,0.64,7419,21,75,31,36,940,0.0,626,455,60,122.0,0,1,301,190,53,0,0,0,250,250,0,,,,,,,,,,,,
370110,1560684534874,2,2.25,2.0,3.24,1.85,3.0,0.64,0.18,0.5,1,-1,0,0.66,7422,21,75,31,36,936,0.0,635,453,60,121.0,0,1,301,190,53,0,0,0,250,250,0,,,,,,,,,,,,
370130,1560684534894,2,2.25,2.0,3.24,1.85,3.01,0.73,0.14,0.55,0,-2,-1,0.74,7387,21,75,31,36,934,0.0,633,456,60,122.0,0,1,301,190,53,0,0,0,250,250,0,45.700375,4.90939,0.0,194.3,0,0.0,0,0.0,0.885,1,0.0,6.1688
370150,1560684534914,1,2.25,2.01,3.23,1.86,3.0,0.86,0.09,0.63,-1,-3,-1,0.86,7416,21,75,31,36,934,0.0,630,459,60,122.0,0,1,301,190,53,0,0,0,250,250,0,,,,,,,,,,,,
370170,1560684534934,1,2.24,2.01,3.24,1.86,3.0,0.94,0.07,0.7,-1,-4,1,0.94,7384,21,75,31,36,935,0.0,622,453,60,122.0,0,1,301,190,53,0,0,0,250,250,0,,,,,,,,,,,,
370190,1560684534954,1,2.24,2.01,3.24,1.85,3.0,0.98,-0.01,0.8,-1,-5,-0,0.98,7419,21,75,31,36,938,0.0,630,457,60,122.0,0,1,301,190,53,0,0,0,250,250,0,,,,,,,,,,,,
370210,1560684534974,2,2.24,2.01,3.23,1.85,3.0,1.04,-0.07,0.82,-2,-6,-1,1.04,7370,21,75,31,36,942,0.0,638,453,60,121.0,0,1,301,190,53,0,0,0,250,250,0,,,,,,,,,,,,
370230,1560684534994,4,2.24,2.01,3.23,1.86,3.0,1.04,-0.09,0.75,-2,-5,-1,1.04,7381,21,75,31,36,945,0.0,628,457,60,122.0,0,1,301,190,53,0,0,0,250,250,0,45.700375,4.90939,0.0,194.3,0,0.0,0,0.0,0.885,1,0.0,6.1705
370250,1560684535006,6,2.24,2.01,3.24,1.85,3.01,0.96,-0.16,0.69,-1,-3,-0,0.98,7361,21,75,31,36,949,0.0,637,458,60,120.0,0,1,301,196,53,0,0,0,250,250,0,,,,,,,,,,,,
370270,1560684535026,3,2.24,2.01,3.24,1.85,3.0,0.91,-0.13,0.66,-0,-2,-0,0.92,7378,21,75,31,36,956,0.0,631,457,60,121.0,0,1,301,190,53,0,0,0,250,250,0,,,,,,,,,,,,
370290,1560684535046,5,2.24,2.01,3.24,1.85,3.01,0.84,-0.11,0.56,0,-0,0,0.85,7338,21,75,31,37,963,0.0,632,456,60,120.0,0,1,304,196,53,0,0,0,250,250,0,,,,,,,,,,,,
370310,1560684535066,2,2.24,2.01,3.24,1.85,3.0,0.75,-0.04,0.49,1,0,0,0.75,7352,21,75,31,37,966,0.0,628,458,60,122.0,0,1,304,190,53,0,0,0,250,250,0,,,,,,,,,,,,
370330,1560684535092,2,2.24,2.01,3.23,1.85,3.01,0.71,0.01,0.47,1,-0,0,0.71,7370,21,75,31,37,969,0.0,631,457,60,121.0,0,1,304,190,53,0,0,0,250,250,0,45.700375,4.90939,0.0,194.3,0,0.0,0,0.0,0.8883,1,0.0,6.1722
370350,1560684535112,2,2.24,2.01,3.24,1.86,3.0,0.73,0.11,0.53,1,-1,0,0.73,7338,21,75,31,37,969,0.0,622,454,60,122.0,0,1,304,196,54,0,0,0,250,250,0,,,,,,,,,,,,
370370,1560684535132,-1,2.25,2.01,3.24,1.86,3.0,0.78,0.12,0.59,0,-2,-1,0.79,7370,21,75,31,36,969,0.0,627,457,60,122.0,0,1,301,196,54,0,0,0,250,250,0,,,,,,,,,,,,
370390,1560684535152,1,2.24,2.0,3.24,1.85,3.0,0.9,0.08,0.65,-0,-4,-1,0.91,7361,21,75,31,37,966,0.0,629,456,60,122.0,0,1,304,196,54,0,0,0,250,250,0,,,,,,,,,,,,
370410,1560684535172,-1,2.24,2.01,3.24,1.85,3.01,1.01,0.01,0.69,-1,-5,-0,1.01,7393,21,75,31,37,962,0.0,621,456,60,122.0,0,1,304,196,54,0,0,0,250,250,0,,,,,,,,,,,,
370430,1560684535194,1,2.23,2.01,3.24,1.84,3.01,1.03,-0.04,0.71,-2,-5,1,1.03,7358,21,75,31,37,959,0.0,632,456,60,122.0,0,1,304,196,54,0,0,0,250,250,0,45.700375,4.90939,0.0,194.3,0,0.0,0,0.0,0.89,1,0.0,6.1738
370450,1560684535214,4,2.25,2.01,3.24,1.85,3.0,1.0,-0.1,0.75,-1,-5,-1,1.0,7373,21,75,31,36,956,0.0,623,457,60,122.0,0,1,301,196,54,0,0,0,250,250,0,,,,,,,,,,,,
370470,1560684535234,5,2.24,2.0,3.24,1.85,3.0,0.96,-0.16,0.7,-1,-4,-1,0.97,7350,21,75,31,36,956,0.0,632,454,60,122.0,0,1,301,196,54,0,0,0,250,250,0,,,,,,,,,,,,
370490,1560684535254,4,2.24,2.01,3.24,1.85,3.01,0.86,-0.12,0.58,-0,-2,-1,0.87,7384,21,75,31,37,957,0.0,633,460,60,121.0,0,1,304,196,54,0,0,0,250,250,0,,,,,,,,,,,,
370510,1560684535274,4,2.24,2.0,3.24,1.85,3.0,0.73,-0.11,0.48,1,-0,-0,0.74,7352,21,75,31,37,957,0.0,628,458,60,120.0,0,1,304,196,54,0,0,0,250,250,0,,,,,,,,,,,,
370530,1560684535294,3,2.24,2.0,3.23,1.85,3.0,0.67,-0.02,0.5,1,-0,1,0.67,7358,21,75,31,37,956,0.0,622,456,60,121.0,0,1,304,190,54,0,0,0,250,250,0,45.700375,4.90939,0.0,194.3,0,0.0,0,0.0,0.8917,1,0.0,6.1755
370550,1560684535314,3,2.23,2.0,3.24,1.85,3.0,0.63,0.06,0.49,1,0,0,0.64,7381,21,75,31,37,956,0.0,629,457,60,121.0,0,1,304,196,55,0,0,0,250,250,0,,,,,,,,,,,,
370570,1560684535334,3,2.23,2.01,3.23,1.85,3.01,0.68,0.07,0.55,1,-0,-0,0.68,7367,21,75,31,37,955,0.0,626,460,60,121.0,0,1,304,196,55,0,0,0,250,250,0,,,,,,,,,,,,
370590,1560684535354,1,2.24,2.01,3.24,1.85,3.01,0.78,0.04,0.58,1,-1,0,0.78,7387,21,75,31,37,953,0.0,631,456,60,121.0,0,1,304,196,55,0,0,0,250,250,0,,,,,,,,,,,,
370610,1560684535374,2,2.23,2.01,3.23,1.85,3.0,0.86,0.07,0.67,0,-2,0,0.86,7347,21,75,31,37,951,0.0,629,455,60,122.0,0,1,304,196,55,0,0,0,250,250,0,,,,,,,,,,,,
370630,1560684535393,2,2.24,2.01,3.24,1.85,3.01,0.92,0.0,0.78,-0,-4,-1,0.92,7387,21,75,31,37,949,0.0,628,456,60,122.0,0,1,304,196,55,0,0,0,250,250,0,45.700375,4.90939,0.0,194.3,0,0.0,0,0.0,0.8933,1,0.0,6.1772
370650,1560684535413,1,2.23,2.0,3.24,1.85,3.0,1.01,-0.06,0.78,-1,-6,-1,1.01,7355,21,75,31,36,948,0.0,635,456,60,122.0,0,1,301,196,54,0,0,0,250,250,0,,,,,,,,,,,,
370670,1560684535433,1,2.25,2.0,3.24,1.86,3.01,1.02,-0.08,0.71,-2,-5,-0,1.03,7376,21,75,31,37,948,0.0,633,460,60,121.0,0,1,304,196,54,0,0,0,250,250,0,,,,,,,,,,,,
370690,1560684535453,4,2.24,2.01,3.24,1.84,3.01,0.95,-0.14,0.65,-1,-3,1,0.96,7347,21,75,31,37,947,0.0,621,456,60,122.0,0,1,304,196,54,0,0,0,250,250,0,,,,,,,,,,,,
370710,1560684535473,5,2.24,2.01,3.24,1.85,3.01,0.88,-0.1,0.64,-0,-2,-1,0.89,7376,21,75,31,37,946,0.0,628,456,60,121.0,0,1,304,196,54,0,0,0,250,250,0,,,,,,,,,,,,
370730,1560684535493,5,2.23,2.01,3.24,1.86,3.0,0.81,-0.11,0.57,0,-2,-1,0.82,7350,21,75,31,37,947,0.0,635,455,60,121.0,0,1,304,196,54,0,0,0,250,250,0,45.700375,4.90939,0.0,194.3,0,0.0,0,0.0,0.895,1,0.0,6.1788
370750,1560684535513,2,2.25,2.0,3.24,1.85,3.01,0.72,-0.09,0.5,1,0,-1,0.72,7373,21,75,31,37,946,0.0,635,459,60,120.0,0,1,304,196,54,0,0,0,250,250,0,,,,,,,,,,,,
370770,1560684535533,4,2.24,2.02,3.24,1.85,3.01,0.71,-0.06,0.51,1,0,0,0.72,7361,21,75,31,37,944,0.0,627,455,60,121.0,0,1,304,196,54,0,0,0,250,250,0,,,,,,,,,,,,
370790,1560684535553,2,2.25,2.01,3.24,1.85,3.01,0.71,0.02,0.57,1,1,1,0.71,7335,21,75,31,37,943,0.0,621,457,60,121.0,0,1,304,196,54,0,0,0,250,250,0,,,,,,,,,,,,
370810,1560684535573,2,2.24,2.01,3.24,1.85,3.0,0.74,0.06,0.65,1,0,-1,0.74,7378,21,75,31,37,940,0.0,629,456,60,122.0,0,1,304,196,54,0,0,0,250,250,0,,,,,,,,,,,,
370830,1560684535593,-1,2.25,2.01,3.23,1.86,3.0,0.84,0.02,0.71,1,-2,-2,0.84,7358,21,75,31,37,938,0.0,632,456,60,122.0,0,1,304,196,54,0,0,0,250,250,0,45.700375,4.90939,0.0,194.3,0,0.0,0,0.0,0.8967,1,0.0,6.1805
370850,1560684535613,1,2.24,2.0,3.24,1.85,3.01,0.96,-0.06,0.72,-0,-3,-1,0.96,7384,21,75,31,37,936,0.0,626,456,60,122.0,0,1,304,196,54,0,0,0,250,250,0,,,,,,,,,,,,
370870,1560684535633,1,2.23,2.01,3.24,1.86,3.0,0.99,-0.11,0.72,-1,-4,-0,0.99,7367,21,75,31,36,934,0.0,634,457,60,122.0,0,1,301,190,54,0,0,0,250,250,0,,,,,,,,,,,,
370890,1560684535653,0,2.24,2.0,3.24,1.85,3.0,0.99,-0.16,0.78,-1,-5,-2,1.0,7378,21,75,31,37,933,0.0,627,457,60,122.0,0,1,304,196,54,0,0,0,250,250,0,,,,,,,,,,,,
370910,1560684535673,6,2.24,2.01,3.24,1.85,3.0,0.98,-0.23,0.75,-1,-5,-1,1.0,7364,21,75,31,37,933,0.0,623,454,60,122.0,0,1,304,196,54,0,0,0,250,250,0,,,,,,,,,,,,
370930,1560684535693,5,2.24,2.01,3.24,1.85,3.0,0.9,-0.19,0.62,-1,-2,-0,0.91,7390,21,75,31,37,935,0.0,633,460,60,122.0,0,1,304,196,54,0,0,0,250,250,0,45.700375,4.90939,0.0,194.3,0,0.0,0,0.0,0.8983,1,0.0,6.1822
370950,1560684535713,5,2.24,2.01,3.24,1.85,3.0,0.8,-0.15,0.52,0,0,0,0.81,7370,21,75,31,37,936,0.0,634,457,60,121.0,0,1,304,196,55,0,0,0,250,250,0,,,,,,,,,,,,
370970,1560684535733,4,2.24,2.01,3.24,1.85,3.01,0.73,-0.05,0.54,1,1,-0,0.73,7378,21,75,31,37,938,0.0,625,457,60,120.0,0,1,304,196,55,0,0,0,250,250,0,,,,,,,,,,,,
370990,1560684535753,3,2.24,2.01,3.24,1.86,3.0,0.66,0.06,0.49,1,1,-1,0.66,7376,21,75,31,37,940,0.0,627,454,60,122.0,0,1,304,196,55,0,0,0,250,250,0,,,,,,,,,,,,
371010,1560684535773,3,2.24,2.0,3.24,1.86,3.0,0.57,0.09,0.36,2,1,-1,0.58,7350,21,75,31,37,942,0.0,631,460,60,121.0,0,1,304,196,55,0,0,0,250,250,0,,,,,,,,,,,,
371030,1560684535793,2,2.23,2.01,3.24,1.85,3.01,0.49,0.12,0.34,2,1,1,0.5,7399,21,75,31,37,943,0.0,625,455,60,121.0,0,1,304,196,55,0,0,0,250,250,0,45.700375,4.90939,0.0,194.3,0,0.0,0,0.0,0.9,1,0.0,6.1838
371050,1560684535813,1,2.25,2.0,3.24,1.85,3.0,0.45,0.18,0.37,2,1,2,0.49,7367,21,75,31,36,942,0.0,628,457,60,122.0,0,1,301,196,54,0,0,0,250,250,0,,,,,,,,,,,,
371070,1560684535833,2,2.24,2.01,3.24,1.85,3.0,0.44,0.27,0.39,1,-1,-0,0.52,7384,21,75,31,36,942,0.0,632,460,60,122.0,0,1,301,190,54,0,0,0,250,250,0,,,,,,,,,,,,
371090,1560684535853,0,2.24,2.0,3.24,1.86,3.0,0.51,0.25,0.43,1,-3,-1,0.57,7373,21,75,31,37,941,0.0,618,456,60,122.0,0,1,304,196,54,0,0,0,250,250,0,,,,,,,,,,,,
371110,1560684535873,1,2.25,2.0,3.24,1.85,3.0,0.62,0.18,0.48,-0,-3,-1,0.64,7408,21,75,31,37,939,0.0,631,457,60,122.0,0,1,304,196,54,0,0,0,250,250,0,,,,,,,,,,,,
371130,1560684535893,1,2.23,2.01,3.24,1.84,3.0,0.71,0.17,0.55,-0,-3,1,0.73,7376,21,75,31,37,939,0.0,628,458,60,122.0,0,1,304,196,54,0,0,0,250,250,0,45.700375,4.90939,0.0,194.3,0,0.0,0,0.0,0.9017,1,0.0,6.1855
371150,1560684535913,4,2.24,2.01,3.24,1.85,3.0,0.76,0.11,0.66,-0,-3,-0,0.77,7416,21,75,31,37,938,0.0,631,458,60,120.0,0,1,304,196,54,0,0,0,250,250,0,,,,,,,,,,,,
371170,1560684535933,5,2.24,2.01,3.24,1.86,3.0,0.84,0.06,0.67,-0,-4,-1,0.84,7402,21,75,31,37,936,0.0,628,457,60,121.0,0,1,304,196,54,0,0,0,250,250,0,,,,,,,,,,,,
371190,1560684535953,5,2.24,2.0,3.23,1.85,3.0,0.89,0.03,0.58,0,-2,-0,0.89,7434,21,75,31,36,935,0.0,633,458,60,121.0,0,1,301,190,54,0,0,0,250,250,0,,,,,,,,,,,,
371210,1560684535973,6,2.24,2.0,3.24,1.86,3.0,0.87,-0.05,0.57,1,-1,0,0.87,7425,21,75,31,36,934,0.0,636,461,60,121.0,0,1,301,190,54,0,0,0,250,250,0,,,,,,,,,,,,
371230,1560684535993,5,2.23,2.01,3.24,1.85,3.01,0.84,-0.06,0.6,1,-0,0,0.84,7443,21,75,31,37,934,0.0,636,458,60,121.0,0,1,304,196,54,0,0,0,250,250,0,45.700375,4.90939,0.0,194.3,0,0.0,0,0.0,0.9017,1,0.0,6.1872
371250,1560684536007,4,2.23,2.01,3.24,1.86,3.0,0.82,-0.11,0.56,2,0,-0,0.83,7419,21,75,31,37,932,0.0,634,453,60,120.0,0,1,304,196,53,0,0,0,250,250,0,,,,,,,,,,,,
371270,1560684536027,2,2.25,2.01,3.23,1.85,3.01,0.74,-0.08,0.45,2,2,-0,0.74,7422,21,75,31,37,929,0.0,623,457,60,121.0,0,1,304,190,53,0,0,0,250,250,0,,,,,,,,,,,,
371290,1560684536047,4,2.25,2.01,3.24,1.86,3.0,0.63,-0.09,0.35,3,4,1,0.64,7422,21,75,31,36,928,0.0,640,458,60,120.0,0,1,301,190,53,0,0,0,250,250,0,,,,,,,,,,,,
371310,1560684536067,2,2.25,2.01,3.23,1.85,3.0,0.58,-0.04,0.34,3,3,1,0.58,7452,21,75,31,36,926,0.0,636,457,60,120.0,0,1,301,190,53,0,0,0,250,250,0,,,,,,,,,,,,
371330,1560684536094,1,2.24,2.01,3.23,1.85,3.01,0.55,-0.03,0.32,3,3,0,0.55,7437,21,75,31,36,925,0.0,629,458,60,121.0,0,1,301,190,53,0,0,0,250,250,0,45.700375,4.90939,0.0,194.3,0,0.0,0,0.0,0.905,1,0.0,6.1888
371350,1560684536114,3,2.24,2.0,3.24,1.85,3.0,0.48,-0.0,0.27,3,3,-0,0.48,7446,21,75,31,36,925,0.0,632,457,60,121.0,0,1,301,190,53,0,0,0,250,250,0,,,,,,,,,,,,
371370,1560684536134,1,2.25,2.01,3.23,1.86,3.0,0.41,0.03,0.26,3,2,1,0.41,7458,21,75,31,36,925,0.0,629,457,60,121.0,0,1,301,190,53,0,0,0,250,250,0,,,,,,,,,,,,
371390,1560684536154,2,2.25,2.0,3.24,1.85,3.0,0.39,0.11,0.28,3,2,2,0.4,7422,21,75,31,36,926,0.0,622,454,60,122.0,0,1,301,190,53,0,0,0,250,250,0,,,,,,,,,,,,
371410,1560684536174,1,2.25,2.01,3.24,1.85,3.0,0.39,0.18,0.32,3,1,1,0.43,7461,21,75,31,36,929,0.0,630,453,60,122.0,0,1,301,190,53,0,0,0,250,250,0,,,,,,,,,,,,
371430,1560684536193,1,2.25,2.01,3.24,1.85,3.0,0.42,0.18,0.35,2,-1,-1,0.46,7422,21,75,31,36,931,0.0,635,456,60,122.0,0,1,301,190,53,0,0,0,250,250,0,45.700375,4.90939,0.0,194.3,0,0.0,0,0.0,0.9067,1,0.0,6.1905
371450,1560684536213,2,2.25,2.01,3.24,1.86,3.0,0.47,0.17,0.38,1,-3,-1,0.5,7446,21,75,31,36,933,0.0,628,457,60,122.0,0,1,301,190,53,0,0,0,250,250,0,,,,,,,,,,,,
371470,1560684536233,-1,2.26,2.01,3.23,1.85,3.01,0.51,0.22,0.42,0,-3,-1,0.56,7411,21,75,31,36,934,0.0,627,455,60,122.0,0,1,301,190,53,0,0,0,250,250,0,,,,,,,,,,,,
371490,1560684536253,-1,2.25,2.01,3.24,1.84,3.0,0.57,0.22,0.49,-0,-4,-1,0.62,7411,21,75,31,36,937,0.0,626,455,60,122.0,0,1,301,190,53,0,0,0,250,250,0,,,,,,,,,,,,
371510,1560684536273,0,2.25,2.01,3.24,1.85,3.0,0.71,0.21,0.58,-1,-6,-1,0.74,7393,21,75,31,36,941,0.0,627,454,60,122.0,0,1,301,190,53,0,0,0,250,250,0,,,,,,,,,,,,
371530,1560684536292,0,2.26,2.01,3.24,1.86,3.01,0.84,0.13,0.65,-2,-6,-1,0.85,7387,21,75,31,36,944,0.0,626,457,60,122.0,0,1,301,190,53,0,0,0,250,250,0,45.700375,4.90939,0.0,194.3,0,0.0,0,0.0,0.9083,1,0.0,6.1922
371550,1560684536312,4,2.26,2.0,3.24,1.85,3.01,0.9,0.07,0.67,-2,-6,-1,0.91,7376,21,75,31,36,946,0.0,630,458,60,122.0,0,1,301,190,53,0,0,0,250,250,0,,,,,,,,,,,,
371570,1560684536332,5,2.25,2.01,3.24,1.84,3.01,0.92,-0.01,0.72,-1,-5,-2,0.92,7387,21,75,31,37,950,0.0,629,459,60,120.0,0,1,304,196,53,0,0,0,250,250,0,,,,,,,,,,,,
371590,1560684536352,5,2.24,2.01,3.24,1.86,3.01,0.94,-0.09,0.72,-1,-4,-1,0.95,7364,21,75,31,36,955,0.0,640,455,60,121.0,0,1,301,196,53,0,0,0,250,250,0,,,,,,,,,,,,
371610,1560684536372,4,2.25,2.02,3.24,1.86,3.0,0.89,-0.07,0.64,-0,-1,-1,0.9,7384,21,75,31,37,959,0.0,630,458,60,121.0,0,1,304,196,53,0,0,0,250,250,0,,,,,,,,,,,,
371630,1560684536392,1,2.26,2.01,3.23,1.85,3.0,0.79,-0.1,0.53,1,0,-0,0.8,7358,21,75,31,37,961,0.0,634,459,60,120.0,0,1,304,196,53,0,0,0,250,250,0,45.700375,4.90939,0.0,194.3,0,0.0,0,0.0,0.91,1,0.0,6.1938
371650,1560684536412,-1,2.26,2.01,3.23,1.86,3.0,0.71,-0.01,0.48,1,1,0,0.71,7355,21,75,31,37,965,0.0,626,455,60,123.0,0,1,304,190,53,0,0,0,250,250,0,,,,,,,,,,,,
371670,1560684536432,0,2.26,2.0,3.24,1.85,3.01,0.66,0.08,0.42,1,1,-0,0.66,7181,21,75,31,36,971,0.0,628,456,60,123.0,0,1,301,190,53,0,0,0,250,250,0,,,,,,,,,,,,
371690,1560684536452,-1,2.25,2.01,3.24,1.85,3.01,0.75,0.08,0.52,0,-3,-1,0.76,6944,21,75,31,37,975,0.0,627,459,60,122.0,0,1,304,196,53,0,0,0,250,250,0,,,,,,,,,,,,
371710,1560684536472,-0,2.26,2.0,3.24,1.85,3.01,0.75,-0.06,0.48,1,-0,-0,0.75,6749,21,75,31,38,978,0.0,622,457,60,122.0,0,1,307,202,53,0,0,0,250,250,0,,,,,,,,,,,,
371730,1560684536492,-0,2.26,2.01,3.23,1.86,3.01,0.71,0.11,0.5,1,-1,0,0.72,6572,21,75,31,38,980,0.0,620,455,60,123.0,0,1,307,202,53,0,0,0,250,250,0,45.700375,4.90939,0.0,194.3,0,0.0,0,0.0,0.9117,1,0.0,6.1955
371750,1560684536512,-1,2.25,2.01,3.24,1.85,3.0,0.75,0.03,0.5,1,-3,-1,0.75,6390,21,75,31,39,981,0.0,607,456,60,122.0,0,1,310,330,51,0,0,0,250,250,0,,,,,,,,,,,,
371770,1560684536532,0,2.25,2.01,3.24,1.85,3.01,0.77,-0.01,0.6,0,-5,-4,0.77,6210,21,75,31,40,979,0.0,590,458,60,121.0,0,1,316,307,51,0,0,0,250,250,0,,,,,,,,,,,,
371790,1560684536552,2,2.24,2.01,3.24,1.86,3.0,0.83,-0.01,0.62,-1,-9,-4,0.83,6177,21,75,31,41,976,0.0,576,461,60,122.0,0,1,322,281,51,0,0,0,250,250,0,,,,,,,,,,,,
371810,1560684536572,0,2.25,2.0,3.21,1.84,3.0,0.77,0.07,0.72,-0,-9,-3,0.78,6273,21,75,31,43,975,0.0,582,462,60,121.0,0,1,336,260,51,0,0,0,250,250,0,,,,,,,,,,,,
371830,1560684536592,3,2.24,2.01,3.24,1.84,3.01,0.68,0.18,0.73,2,-8,-2,0.7,6289,21,75,31,43,983,0.0,582,453,60,122.0,0,1,336,234,51,0,0,0,250,250,0,45.700375,4.90939,0.0,194.3,0,0.0,0,0.0,0.9133,1,0.0,6.1972
371850,1560684536612,1,2.24,2.01,3.24,1.85,3.01,0.64,0.16,0.66,3,-5,0,0.66,6315,21,75,31,44,994,0.0,580,453,60,123.0,0,1,343,214,52,0,0,0,250,250,0,,,,,,,,,,,,
371870,1560684536632,1,2.24,2.01,3.24,1.85,3.0,0.72,-0.02,0.7,2,-6,0,0.72,6364,21,75,31,44,1007,0.0,587,460,60,122.0,0,1,343,214,52,0,0,0,250,250,0,,,,,,,,,,,,
371890,1560684536652,3,2.25,2.0,3.24,1.85,3.0,0.77,-0.03,0.75,1,-7,1,0.77,6447,21,75,31,45,1037,0.0,601,468,60,121.0,0,1,350,217,52,0,0,0,250,250,0,,,,,,,,,,,,
371910,1560684536672,3,2.25,2.01,3.24,1.85,3.0,0.7,0.06,0.71,1,-6,1,0.7,6456,21,75,31,45,1123,0.0,595,459,60,121.0,0,1,350,217,52,0,0,0,250,250,0,,,,,,,,,,,,
371930,1560684536692,0,2.25,2.01,3.24,1.86,3.01,0.7,0.05,0.59,2,-2,2,0.7,6472,21,75,31,45,1209,0.0,591,452,60,122.0,0,1,350,217,52,0,0,0,250,250,0,45.700375,4.90939,0.0,194.3,0,0.0,0,0.0,0.915,1,0.0,6.1988
371950,1560684536712,2,2.25,2.01,3.24,1.85,3.0,0.8,-0.03,0.66,1,-3,2,0.8,6512,21,75,31,45,1282,0.0,599,456,60,122.0,0,1,351,217,53,0,0,0,250,250,0,,,,,,,,,,,,
371970,1560684536732,5,2.25,2.0,3.24,1.85,3.0,0.79,0.03,0.71,1,-6,1,0.79,6528,21,75,31,45,1351,0.0,609,460,60,122.0,0,1,351,217,53,0,0,0,250,250,0,,,,,,,,,,,,
371990,1560684536752,-1,2.25,2.01,3.24,1.86,3.0,0.7,0.03,0.59,2,-4,1,0.7,6560,21,75,31,45,1384,0.0,603,458,60,123.0,0,1,351,217,53,0,0,0,250,250,0,,,,,,,,,,,,
372010,1560684536772,4,2.25,2.01,3.24,1.86,3.0,0.82,-0.01,0.65,0,-6,-1,0.82,6632,21,75,31,45,1417,0.0,611,457,60,121.0,0,1,352,217,53,0,0,0,250,250,0,,,,,,,,,,,,
372030,1560684536792,-1,2.25,2.01,3.24,1.85,3.01,0.77,0.07,0.61,1,-6,-2,0.78,6677,20,75,31,45,1379,0.0,613,455,60,122.0,0,1,352,217,53,0,0,0,250,250,0,45.700375,4.90939,0.0,194.3,0,0.0,0,0.0,0.9167,1,0.0,6.2005
372050,1560684536812,1,2.25,2.01,3.24,1.85,3.0,0.78,-0.07,0.7,1,-5,-3,0.79,6694,20,75,31,45,1340,0.0,619,460,60,120.0,0,1,352,217,55,0,0,0,250,250,0,,,,,,,,,,,,
372070,1560684536832,2,2.25,2.0,3.24,1.86,3.01,0.75,0.09,0.68,1,-4,-3,0.75,6747,20,75,31,45,1266,0.0,609,452,60,123.0,0,1,352,217,55,0,0,0,250,250,0,,,,,,,,,,,,
372090,1560684536852,2,2.25,2.01,3.24,1.85,3.0,0.8,-0.02,0.69,0,-4,-1,0.8,6786,20,75,31,45,1192,0.0,611,456,60,122.0,0,1,353,217,55,0,0,0,250,250,0,,,,,,,,,,,,
372110,1560684536872,-1,2.25,2.01,3.23,1.85,3.0,0.73,0.12,0.64,1,-2,0,0.74,6868,20,75,31,44,1150,0.0,608,455,60,123.0,0,1,346,216,55,0,0,0,250,250,0,,,,,,,,,,,,
372130,1560684536894,3,2.24,2.01,3.24,1.85,3.0,0.86,-0.03,0.73,-0,-3,1,0.86,6898,20,75,31,44,1114,0.0,621,460,60,121.0,0,1,346,216,55,0,0,0,250,250,0,45.700375,4.90939,0.0,194.3,0,0.0,0,0.0,0.9183,1,0.0,6.2022
372150,1560684536914,1,2.26,2.01,3.24,1.85,3.01,0.71,0.04,0.57,1,-1,2,0.71,6936,20,75,31,43,1089,0.0,610,456,60,122.0,0,1,339,215,56,0,0,0,250,250,0,,,,,,,,,,,,
372170,1560684536934,-0,2.25,2.01,3.24,1.85,3.0,0.81,0.08,0.62,0,-4,1,0.81,7019,20,75,31,43,1062,0.0,623,457,60,122.0,0,1,340,215,56,0,0,0,250,250,0,,,,,,,,,,,,
372190,1560684536954,4,2.25,2.01,3.24,1.85,3.0,0.86,-0.07,0.68,-0,-3,-1,0.86,7040,20,75,31,43,1063,0.0,630,460,60,121.0,0,1,340,215,56,0,0,0,250,250,0,,,,,,,,,,,,
372210,1560684536974,1,2.25,2.01,3.23,1.85,3.0,0.72,0.02,0.61,1,-1,-2,0.72,7086,20,75,31,42,1072,0.0,631,458,60,121.0,0,1,332,213,56,0,0,0,250,250,0,,,,,,,,,,,,
372230,1560684536994,1,2.25,2.01,3.23,1.86,3.0,0.71,0.07,0.53,1,-1,-1,0.72,7172,20,75,31,42,1077,0.0,625,456,60,122.0,0,1,332,213,56,0,0,0,250,250,0,45.700375,4.90939,0.0,194.3,0,0.0,0,0.0,0.9183,1,0.0,6.2038
372250,1560684537006,-0,2.25,2.01,3.24,1.85,3.0,0.85,-0.04,0.66,-1,-3,0,0.85,7200,20,75,31,41,1080,0.0,630,459,60,121.0,0,1,325,213,58,0,0,0,250,250,0,,,,,,,,,,,,
372270,1560684537026,6,2.24,2.01,3.24,1.85,3.0,0.86,-0.08,0.64,-1,-2,2,0.86,7278,20,75,31,41,1076,0.0,630,456,60,122.0,0,1,325,211,58,0,0,0,250,250,0,,,,,,,,,,,,
372290,1560684537046,4,2.24,2.01,3.24,1.86,3.0,0.75,-0.1,0.61,0,0,0,0.75,7321,20,75,31,41,1070,0.0,628,458,60,121.0,0,1,325,211,58,0,0,0,250,250,0,,,,,,,,,,,,
372310,1560684537066,3,2.25,2.0,3.24,1.85,3.0,0.67,-0.05,0.56,1,-0,-1,0.67,7367,20,75,31,40,1058,0.0,625,455,60,121.0,0,1,317,209,58,0,0,0,250,250,0,,,,,,,,,,,,
372330,1560684537094,2,2.25,2.01,3.23,1.86,3.0,0.63,-0.0,0.47,1,-0,-1,0.63,7455,21,75,31,39,1043,0.0,636,457,60,121.0,0,1,310,208,58,0,0,0,250,250,0,45.700375,4.90939,0.0,194.3,0,0.0,0,0.0,0.9217,1,0.0,6.2055
372350,1560684537114,3,2.25,2.0,3.24,1.85,3.0,0.57,0.0,0.45,2,1,1,0.57,7455,21,75,31,39,1031,0.0,631,457,60,122.0,0,1,310,208,58,0,0,0,250,250,0,,,,,,,,,,,,
372370,1560684537134,3,2.25,2.02,3.24,1.85,3.01,0.51,0.04,0.46,2,0,2,0.51,7527,20,75,31,39,1023,0.0,635,455,60,122.0,0,1,310,209,58,0,0,0,250,250,0,,,,,,,,,,,,
372390,1560684537154,2,2.23,2.01,3.24,1.85,3.0,0.48,0.12,0.5,2,0,2,0.49,7530,20,75,31,38,1010,0.0,640,459,60,121.0,0,1,307,203,58,0,0,0,250,250,0,,,,,,,,,,,,
372410,1560684537174,4,2.24,2.01,3.24,1.85,3.0,0.45,0.14,0.51,3,-0,0,0.47,7536,21,75,31,38,996,0.0,637,455,60,122.0,0,1,307,203,58,0,0,0,250,250,0,,,,,,,,,,,,
372430,1560684537194,3,2.24,2.01,3.23,1.86,3.0,0.37,0.15,0.5,3,1,-0,0.4,7566,21,75,31,37,986,0.0,641,460,60,120.0,0,1,304,197,58,0,0,0,250,250,0,45.700375,4.90939,0.0,194.3,0,0.0,0,0.0,0.9233,1,0.0,6.2072
372450,1560684537214,1,2.24,2.01,3.23,1.86,3.0,0.28,0.14,0.43,4,2,1,0.31,7551,20,75,31,37,980,0.0,632,456,60,120.0,0,1,304,197,56,0,0,0,250,250,0,,,,,,,,,,,,
372470,1560684537234,4,2.24,2.0,3.23,1.85,3.0,0.25,0.16,0.43,4,3,2,0.3,7588,20,75,31,37,969,0.0,637,458,60,120.0,0,1,304,197,56,0,0,0,250,250,0,,,,,,,,,,,,
372490,1560684537254,4,2.24,2.01,3.23,1.86,3.0,0.26,0.12,0.46,4,3,2,0.29,7569,20,75,31,37,953,0.0,636,455,60,121.0,0,1,304,197,56,0,0,0,250,250,0,,,,,,,,,,,,
372510,1560684537274,5,2.25,2.0,3.24,1.85,3.0,0.28,0.12,0.45,4,4,1,0.3,7594,21,75,31,36,939,0.0,636,457,60,121.0,0,1,301,191,56,0,0,0,250,250,0,,,,,,,,,,,,
372530,1560684537294,5,2.23,2.01,3.24,1.85,3.01,0.25,0.07,0.42,4,4,1,0.26,7569,20,75,31,36,929,0.0,641,458,60,120.0,0,1,301,191,56,0,0,0,250,250,0,45.700375,4.90939,0.0,194.3,0,0.0,0,0.0,0.925,1,0.0,6.2088
372550,1560684537314,5,2.23,2.01,3.24,1.85,3.0,0.28,0.04,0.45,4,4,1,0.28,7594,20,75,31,36,916,0.0,626,457,60,122.0,0,1,301,191,55,0,0,0,250,250,0,,,,,,,,,,,,
372570,1560684537334,3,2.25,2.01,3.23,1.86,3.0,0.38,-0.04,0.47,3,3,1,0.38,7575,20,75,31,36,900,0.0,631,455,60,122.0,0,1,301,191,55,0,0,0,250,250,0,,,,,,,,,,,,
372590,1560684537354,-0,2.23,2.0,3.23,1.86,3.0,0.52,-0.03,0.47,2,2,1,0.52,7588,20,75,31,36,886,0.0,634,457,60,121.0,0,1,301,191,55,0,0,0,250,250,0,,,,,,,,,,,,
372610,1560684537374,0,2.25,2.0,3.24,1.86,3.0,0.62,-0.09,0.48,1,0,1,0.62,7560,21,75,31,36,881,0.0,630,456,60,122.0,0,1,301,191,55,0,0,0,250,250,0,,,,,,,,,,,,
372630,1560684537393,-1,2.24,2.0,3.23,1.85,3.0,0.68,-0.13,0.52,1,-0,-0,0.69,7594,21,75,31,36,875,0.0,632,456,60,122.0,0,1,301,191,55,0,0,0,250,250,0,45.700375,4.90939,0.0,194.3,0,0.0,0,0.0,0.9267,1,0.0,6.2105
372650,1560684537413,-1,2.24,2.01,3.24,1.86,3.0,0.77,-0.13,0.55,-0,-2,-0,0.78,7548,21,75,31,36,869,0.0,625,455,60,122.0,0,1,301,191,54,0,0,0,250,250,0,,,,,,,,,,,,
372670,1560684537433,-1,2.24,2.01,3.23,1.86,3.01,0.9,-0.15,0.59,-1,-3,-1,0.91,7578,22,75,31,37,863,0.0,626,457,60,122.0,0,1,304,191,54,0,0,0,250,250,0,,,,,,,,,,,,
372690,1560684537453,-2,2.25,2.01,3.24,1.85,3.0,1.0,-0.14,0.61,-1,-3,-0,1.01,7542,23,75,31,37,862,0.0,626,457,60,122.0,0,1,304,197,54,0,0,0,250,250,0,,,,,,,,,,,,
372710,1560684537473,-1,2.25,2.01,3.23,1.85,3.0,1.04,-0.11,0.64,-2,-3,-1,1.04,7591,24,75,31,38,861,0.0,629,455,60,122.0,0,1,307,203,54,0,0,0,250,250,0,,,,,,,,,,,,
372730,1560684537493,2,2.25,2.01,3.24,1.85,3.0,1.04,-0.06,0.64,-2,-4,-1,1.04,7572,25,75,31,39,861,0.0,628,456,60,122.0,0,1,310,209,54,0,0,0,250,250,0,45.700375,4.90939,0.0,194.3,0,0.0,0,0.0,0.9283,1,0.0,6.2122
372750,1560684537513,0,2.25,2.01,3.24,1.84,3.0,1.03,-0.08,0.66,-2,-5,-1,1.03,7631,25,75,31,40,861,0.0,627,456,60,122.0,0,1,317,210,60,0,0,0,250,250,0,,,,,,,,,,,,
372770,1560684537533,1,2.25,2.01,3.24,1.85,3.01,1.0,-0.04,0.67,-1,-5,-1,1.0,7687,26,75,31,41,861,0.0,633,458,60,121.0,0,1,325,212,60,0,0,0,250,250,0,,,,,,,,,,,,
372790,1560684537553,4,2.24,2.01,3.24,1.85,3.01,0.92,0.01,0.67,-1,-5,-0,0.92,7731,26,75,31,42,863,0.0,632,453,60,121.0,0,1,332,214,60,0,0,0,250,250,0,,,,,,,,,,,,
372810,1560684537573,6,2.24,2.01,3.24,1.85,3.0,0.86,-0.0,0.62,-0,-2,0,0.86,7832,26,75,31,42,869,0.0,638,458,60,122.0,0,1,332,214,60,0,0,0,250,250,0,,,,,,,,,,,,
372830,1560684537593,0,2.25,2.01,3.24,1.86,3.0,0.85,-0.05,0.58,-1,-1,0,0.85,7878,26,75,31,42,875,0.0,636,457,60,122.0,0,1,332,214,60,0,0,0,250,250,0,45.700375,4.90939,0.0,194.3,0,0.0,0,0.0,0.93,1,0.0,6.2138
372850,1560684537613,3,2.25,2.0,3.24,1.85,3.01,0.89,-0.0,0.63,-1,1,-0,0.89,7978,26,75,31,42,880,0.0,640,456,60,121.0,0,1,332,214,64,0,0,0,250,250,0,,,,,,,,,,,,
372870,1560684537633,6,2.25,2.01,3.24,1.85,3.0,0.82,-0.01,0.58,-0,1,0,0.82,8081,27,75,31,42,885,0.0,640,458,60,121.0,0,1,333,214,64,0,0,0,250,250,0,,,,,,,,,,,,
372890,1560684537653,1,2.25,2.01,3.23,1.85,3.0,0.82,-0.04,0.57,-0,0,0,0.82,8116,27,75,31,41,900,0.0,638,454,60,122.0,0,1,326,213,64,0,0,0,250,250,0,,,,,,,,,,,,
372910,1560684537673,3,2.25,2.01,3.23,1.85,3.0,0.81,0.07,0.59,-0,0,1,0.82,8216,27,75,31,41,915,0.0,645,456,60,122.0,0,1,328,214,64,0,0,0,250,250,0,,,,,,,,,,,,
372930,1560684537694,1,2.25,2.01,3.24,1.84,3.0,0.89,-0.03,0.6,-1,0,1,0.89,8344,27,75,31,40,926,0.0,643,458,60,122.0,0,1,322,213,64,0,0,0,250,250,0,45.700375,4.90939,0.0,194.3,0,0.0,0,0.0,0.9317,1,0.0,6.2155
372950,1560684537714,5,2.25,2.0,3.24,1.86,3.0,0.84,-0.01,0.58,-1,1,1,0.84,8430,27,75,31,39,937,0.0,645,456,60,121.0,0,1,318,212,67,0,0,0,250,250,0,,,,,,,,,,,,
372970,1560684537734,3,2.24,2.01,3.24,1.85,2.99,0.92,-0.15,0.62,-1,-1,-0,0.93,8472,27,75,31,39,960,0.0,642,453,60,121.0,0,1,320,208,67,0,0,0,250,250,0,,,,,,,,,,,,
372990,1560684537754,1,2.25,2.0,3.23,1.85,3.0,0.91,-0.18,0.62,-1,-2,-0,0.92,8565,27,75,31,38,984,0.0,648,459,60,122.0,0,1,317,209,67,0,0,0,250,250,0,,,,,,,,,,,,
373010,1560684537774,-1,2.26,2.01,3.23,1.84,3.0,0.79,-0.02,0.54,-0,-0,0,0.79,8672,27,75,31,38,1000,0.0,664,452,60,122.0,0,1,317,209,67,0,0,0,250,250,0,,,,,,,,,,,,
373030,1560684537793,3,2.25,2.01,3.24,1.84,3.0,0.75,-0.01,0.51,-0,1,0,0.75,8724,27,75,31,37,1012,0.0,655,456,60,120.0,0,1,314,205,67,0,0,0,250,250,0,45.700375,4.90939,0.0,194.3,0,0.0,0,0.0,0.9333,1,0.0,6.2172
373050,1560684537813,3,2.25,2.01,3.23,1.86,3.0,0.75,-0.05,0.52,-0,1,-0,0.75,8794,27,75,31,37,1033,0.0,646,453,60,121.0,0,1,314,205,68,0,0,0,250,250,0,,,,,,,,,,,,
373070,1560684537833,2,2.26,2.01,3.23,1.85,3.01,0.85,-0.12,0.58,-0,2,-1,0.86,8840,27,75,31,36,1053,0.0,656,457,60,121.0,0,1,311,202,68,0,0,0,250,250,0,,,,,,,,,,,,
373090,1560684537853,1,2.26,2.01,3.24,1.84,3.01,0.95,-0.21,0.63,-0,1,-1,0.98,8873,27,75,31,36,1064,0.0,648,455,60,121.0,0,1,311,202,68,0,0,0,250,250,0,,,,,,,,,,,,
373110,1560684537873,3,2.25,2.01,3.24,1.84,3.0,1.04,-0.26,0.69,-1,0,-0,1.07,8890,27,75,31,36,1071,0.0,649,453,60,122.0,0,1,311,202,68,0,0,0,250,250,0,,,,,,,,,,,,
373130,1560684537893,1,2.26,2.01,3.24,1.85,3.0,1.07,-0.27,0.72,-1,-1,-0,1.1,8903,27,75,31,35,1077,0.0,649,458,60,122.0,0,1,308,202,68,0,0,0,250,250,0,45.700375,4.90939,0.0,194.3,0,0.0,0,0.0,0.935,1,0.0,6.2188
373150,1560684537913,1,2.25,2.01,3.24,1.86,3.0,1.05,-0.23,0.68,-1,-1,0,1.07,8915,27,75,31,36,1084,0.0,653,452,60,122.0,0,1,311,202,68,0,0,0,250,250,0,,,,,,,,,,,,
373170,1560684537933,0,2.24,2.01,3.24,1.85,3.0,0.99,-0.16,0.64,-1,-2,1,1.0,8924,27,75,31,35,1084,0.0,648,456,60,122.0,0,1,308,198,68,0,0,0,250,250,0,,,,,,,,,,,,
373190,1560684537953,1,2.25,2.01,3.23,1.86,3.0,0.9,-0.02,0.58,-0,-1,2,0.9,8928,27,75,31,35,1082,0.0,658,447,60,121.0,0,1,308,198,68,0,0,0,250,250,0,,,,,,,,,,,,
373210,1560684537973,0,2.25,2.0,3.24,1.85,3.0,0.78,0.08,0.53,-0,-2,2,0.78,8915,27,75,31,35,1085,0.0,654,451,60,120.0,0,1,308,198,68,0,0,0,250,250,0,,,,,,,,,,,,
373230,1560684537993,0,2.24,2.01,3.24,1.86,2.99,0.69,0.22,0.4,0,-0,3,0.72,8907,27,75,31,35,1090,0.0,654,450,60,121.0,0,1,308,198,68,0,0,0,250,250,0,45.700375,4.90939,0.0,194.3,0,0.0,0,0.0,0.935,1,0.0,6.2205
373250,1560684538007,5,2.24,2.01,3.24,1.85,3.0,0.59,0.3,0.33,0,1,3,0.67,8907,27,75,31,35,1096,0.0,652,453,60,121.0,0,1,308,198,66,0,0,0,250,250,0,,,,,,,,,,,,
373270,1560684538027,5,2.24,2.0,3.24,1.85,3.0,0.58,0.33,0.29,1,2,3,0.66,8907,26,75,31,35,1102,0.0,654,450,60,120.0,0,1,308,198,66,0,0,0,250,250,0,,,,,,,,,,,,
373290,1560684538047,4,2.25,2.01,3.24,1.85,3.0,0.58,0.31,0.28,1,3,2,0.66,8877,25,75,31,34,1113,0.0,651,459,60,121.0,0,1,305,195,66,0,0,0,250,250,0,,,,,,,,,,,,
373310,1560684538067,4,2.25,2.0,3.24,1.85,3.0,0.65,0.2,0.3,1,3,2,0.68,8907,23,75,31,33,1125,0.0,651,461,60,121.0,0,1,302,191,66,0,0,0,250,250,0,,,,,,,,,,,,
373330,1560684538093,1,2.25,2.01,3.24,1.85,3.0,0.7,0.11,0.36,0,3,1,0.71,8877,22,75,31,32,1135,0.0,651,461,60,121.0,0,1,300,188,66,0,0,0,250,250,0,45.700375,4.90939,0.0,194.3,0,0.0,0,0.0,0.9383,1,0.0,6.2222
373350,1560684538113,3,2.25,2.01,3.24,1.86,3.0,0.81,-0.05,0.45,0,3,-0,0.81,8856,22,75,31,31,1141,0.0,652,457,60,121.0,0,1,295,188,63,0,0,0,250,250,0,,,,,,,,,,,,
373370,1560684538133,2,2.25,2.01,3.24,1.85,3.0,0.88,-0.15,0.52,-0,3,-1,0.89,8823,22,75,31,30,1147,0.0,650,456,60,121.0,0,1,291,188,63,0,0,0,250,250,0,,,,,,,,,,,,
373390,1560684538153,1,2.25,2.01,3.23,1.86,3.0,0.95,-0.25,0.55,-0,2,-1,0.98,8786,22,75,31,30,1152,0.0,651,458,60,122.0,0,1,291,188,63,0,0,0,250,250,0,,,,,,,,,,,,
373410,1560684538173,-2,2.25,2.01,3.23,1.86,3.01,1.01,-0.29,0.6,-0,2,-1,1.05,8741,21,75,31,30,1156,0.0,656,461,60,122.0,0,1,291,188,63,0,0,0,250,250,0,,,,,,,,,,,,
373430,1560684538193,18,2.25,2.01,3.24,1.86,3.0,1.03,-0.25,0.63,-0,2,-0,1.06,8688,21,75,31,29,1156,0.0,658,450,60,121.0,0,1,287,188,63,0,0,0,250,250,0,45.700375,4.90939,0.0,194.3,0,0.0,0,0.0,0.94,1,0.0,6.2238
373450,1560684538213,4,2.24,2.0,3.22,1.84,3.0,0.92,-0.2,0.62,0,1,-0,0.94,8628,21,75,31,29,1149,0.0,658,457,60,120.0,0,1,287,188,62,0,0,0,250,250,0,,,,,,,,,,,,
373470,1560684538233,3,2.24,2.01,3.24,1.85,3.01,0.89,-0.19,0.6,0,-1,-0,0.91,8589,21,75,31,29,1134,0.0,645,458,60,122.0,0,1,287,188,62,0,0,0,250,250,0,,,,,,,,,,,,
373490,1560684538253,-1,2.25,2.01,3.24,1.85,3.01,0.95,-0.26,0.65,0,-0,0,0.98,8549,21,75,31,29,1119,0.0,643,459,60,122.0,0,1,287,188,62,0,0,0,250,250,0,,,,,,,,,,,,
373510,1560684538273,4,2.24,2.01,3.24,1.85,3.01,0.91,-0.24,0.66,0,0,0,0.94,8472,21,75,31,29,1104,0.0,640,457,60,120.0,0,1,286,184,62,0,0,0,250,250,0,,,,,,,,,,,,
373530,1560684538293,2,2.24,2.01,3.24,1.85,3.01,0.93,-0.23,0.64,-0,-0,-0,0.95,8370,21,75,31,29,1084,0.0,638,455,60,121.0,0,1,285,181,62,0,0,0,250,250,0,45.700375,4.90939,0.0,194.3,0,0.0,0,0.0,0.9417,1,0.0,6.2255
373550,1560684538313,5,2.24,1.99,3.23,1.85,2.99,0.91,-0.23,0.69,0,-0,-0,0.94,8303,21,75,31,29,1050,0.0,639,458,60,122.0,0,1,284,179,57,0,0,0,250,250,0,,,,,,,,,,,,
373570,1560684538333,3,2.25,2.01,3.24,1.86,3.0,0.85,-0.14,0.63,0,1,-0,0.86,8270,21,75,31,29,1021,0.0,648,459,60,121.0,0,1,284,177,57,0,0,0,250,250,0,,,,,,,,,,,,
373590,1560684538353,5,2.24,2.01,3.23,1.85,3.0,0.86,-0.15,0.61,1,2,0,0.87,8209,21,75,31,29,1003,0.0,647,457,60,122.0,0,1,283,174,57,0,0,0,250,250,0,,,,,,,,,,,,
373610,1560684538373,2,2.24,2.01,3.23,1.85,3.0,0.88,-0.12,0.58,1,2,-0,0.89,8120,21,76,31,30,985,0.0,637,453,60,122.0,0,1,285,171,57,0,0,0,250,250,0,,,,,,,,,,,,
373630,1560684538392,2,2.25,2.01,3.24,1.85,3.01,0.87,-0.11,0.58,1,2,0,0.87,8054,21,76,31,30,961,0.0,651,456,60,121.0,0,1,285,168,57,0,0,0,250,250,0,45.700375,4.90939,0.0,194.3,0,0.0,0,0.0,0.9433,1,0.0,6.2272
373650,1560684538412,1,2.24,2.01,3.23,1.85,3.0,0.92,-0.12,0.58,0,2,0,0.92,8026,21,76,31,30,937,0.0,636,460,60,122.0,0,1,284,167,50,0,0,0,250,250,0,,,,,,,,,,,,
373670,1560684538432,0,2.25,2.01,3.23,1.85,3.0,0.93,-0.08,0.57,-0,2,-0,0.94,7948,21,76,31,31,930,0.0,631,456,60,121.0,0,1,287,167,50,0,0,0,250,250,0,,,,,,,,,,,,
373690,1560684538452,3,2.25,2.0,3.24,1.85,3.0,0.9,-0.08,0.6,-0,2,0,0.9,7881,21,76,31,31,924,0.0,643,456,60,120.0,0,1,286,167,50,0,0,0,250,250,0,,,,,,,,,,,,
373710,1560684538472,5,2.24,2.01,3.24,1.84,3.01,0.91,-0.06,0.61,0,3,0,0.91,7881,21,76,31,31,919,0.0,636,456,60,122.0,0,1,286,169,50,0,0,0,250,250,0,,,,,,,,,,,,
373730,1560684538494,-1,2.25,2.01,3.23,1.86,3.0,0.99,-0.05,0.57,-0,2,-1,0.99,7796,21,76,31,32,914,0.0,630,456,60,122.0,0,1,290,169,50,0,0,0,250,250,0,45.700375,4.90939,0.0,194.3,0,0.0,0,0.0,0.945,1,0.0,6.2288
373750,1560684538514,-0,2.25,2.01,3.23,1.84,3.01,1.01,0.03,0.53,-1,2,-1,1.01,7757,21,76,31,33,915,0.0,632,457,60,121.0,0,1,292,169,50,0,0,0,250,250,0,,,,,,,,,,,,
373770,1560684538534,2,2.25,2.01,3.23,1.86,3.0,0.95,0.03,0.52,-1,1,0,0.95,7693,21,76,31,33,917,0.0,629,455,60,122.0,0,1,292,174,50,0,0,0,250,250,0,,,,,,,,,,,,
373790,1560684538554,2,2.24,2.01,3.23,1.84,3.0,0.81,0.06,0.49,-1,0,-1,0.81,7615,21,76,31,34,917,0.0,642,458,60,121.0,0,1,295,179,50,0,0,0,250,250,0,,,,,,,,,,,,
373810,1560684538574,3,2.25,2.01,3.23,1.86,3.01,0.72,0.11,0.43,0,1,-0,0.73,7591,21,76,31,34,918,0.0,634,457,60,120.0,0,1,295,179,50,0,0,0,250,250,0,,,,,,,,,,,,
373830,1560684538592,4,2.24,2.01,3.23,1.86,3.0,0.68,0.04,0.43,0,1,1,0.68,7557,21,76,31,34,918,0.0,633,454,60,120.0,0,1,295,179,50,0,0,0,250,250,0,45.700375,4.90939,0.0,194.3,0,0.0,0,0.0,0.9467,1,0.0,6.2305
373850,1560684538612,2,2.25,2.01,3.23,1.85,3.0,0.65,0.05,0.44,1,2,0,0.65,7572,21,76,31,35,917,0.0,633,458,60,120.0,0,1,298,185,51,0,0,0,250,250,0,,,,,,,,,,,,
373870,1560684538632,4,2.25,2.01,3.24,1.85,3.01,0.56,0.01,0.41,2,3,-0,0.56,7506,21,76,31,35,915,0.0,638,457,60,121.0,0,1,298,185,51,0,0,0,250,250,0,,,,,,,,,,,,
373890,1560684538652,3,2.25,2.01,3.24,1.85,3.01,0.51,0.0,0.41,2,4,-0,0.51,7530,21,76,31,35,911,0.0,633,459,60,121.0,0,1,298,191,51,0,0,0,250,250,0,,,,,,,,,,,,
373910,1560684538672,3,2.25,2.01,3.24,1.85,3.01,0.51,-0.04,0.37,3,4,0,0.52,7500,21,76,31,36,909,0.0,640,457,60,121.0,0,1,301,191,51,0,0,0,250,250,0,,,,,,,,,,,,
373930,1560684538692,4,2.25,2.01,3.23,1.86,3.0,0.53,-0.04,0.34,3,4,1,0.53,7494,21,76,31,36,906,0.0,642,459,60,120.0,0,1,301,190,51,0,0,0,250,250,0,45.700375,4.90939,0.0,194.3,0,0.0,0,0.0,0.9483,1,0.0,6.2322
373950,1560684538712,4,2.24,2.01,3.23,1.85,3.0,0.47,-0.09,0.34,4,4,0,0.48,7455,21,76,31,37,904,0.0,635,458,60,121.0,0,1,304,196,54,0,0,0,250,250,0,,,,,,,,,,,,
373970,1560684538732,-0,2.25,2.01,3.24,1.85,3.01,0.41,-0.07,0.34,4,5,0,0.42,7494,22,76,31,37,902,0.0,626,457,60,121.0,0,1,304,196,54,0,0,0,250,250,0,,,,,,,,,,,,
373990,1560684538752,4,2.24,2.01,3.24,1.85,3.01,0.41,-0.11,0.27,4,6,0,0.42,7470,22,76,31,37,901,0.0,638,454,60,121.0,0,1,304,202,54,0,0,0,250,250,0,,,,,,,,,,,,
374010,1560684538772,4,2.24,2.01,3.23,1.86,3.0,0.41,-0.08,0.24,5,7,-0,0.41,7509,22,76,31,38,901,0.0,628,456,60,121.0,0,1,307,202,54,0,0,0,250,250,0,,,,,,,,,,,,
374030,1560684538792,4,2.24,2.01,3.23,1.86,3.0,0.36,-0.11,0.19,5,9,-0,0.37,7503,22,76,31,38,903,0.0,631,457,60,120.0,0,1,307,203,54,0,0,0,250,250,0,45.700375,4.90939,0.0,194.3,0,0.0,0,0.0,0.95,1,0.0,6.2338
374050,1560684538812,3,2.25,2.02,3.23,1.86,3.0,0.33,-0.06,0.18,5,9,0,0.34,7524,22,76,31,39,907,0.0,627,458,60,121.0,0,1,310,202,57,0,0,0,250,250,0,,,,,,,,,,,,
374070,1560684538832,4,2.25,2.01,3.24,1.86,3.0,0.33,-0.1,0.15,5,8,0,0.34,7506,23,76,31,39,910,0.0,636,455,60,121.0,0,1,310,209,57,0,0,0,250,250,0,,,,,,,,,,,,
374090,1560684538852,4,2.25,2.01,3.23,1.86,3.0,0.35,-0.08,0.16,5,8,-0,0.36,7545,23,76,31,39,914,0.0,637,458,60,121.0,0,1,310,209,57,0,0,0,250,250,0,,,,,,,,,,,,
374110,1560684538872,4,2.25,2.01,3.24,1.85,3.01,0.31,-0.12,0.15,6,9,-0,0.34,7554,23,76,31,39,922,0.0,631,457,60,121.0,0,1,310,209,57,0,0,0,250,250,0,,,,,,,,,,,,
374130,1560684538894,5,2.24,2.01,3.24,1.85,3.0,0.31,-0.14,0.15,6,9,1,0.34,7612,23,76,31,39,933,0.0,642,461,60,121.0,0,1,310,209,57,0,0,0,250,250,0,45.700375,4.90939,0.0,194.3,0,0.0,0,0.0,0.9517,1,0.0,6.2355
374150,1560684538914,5,2.25,2.01,3.23,1.86,3.01,0.38,-0.17,0.17,6,9,1,0.41,7609,23,76,31,40,941,0.0,636,454,60,122.0,0,1,317,210,60,0,0,0,250,250,0,,,,,,,,,,,,
374170,1560684538934,0,2.25,2.01,3.23,1.86,3.0,0.54,-0.16,0.19,5,8,0,0.56,7674,23,76,31,39,948,0.0,628,457,60,122.0,0,1,310,209,60,0,0,0,250,250,0,,,,,,,,,,,,
374190,1560684538954,-0,2.24,2.01,3.24,1.86,3.01,0.66,-0.17,0.24,4,7,-0,0.68,7693,23,76,31,39,957,0.0,627,454,60,122.0,0,1,310,210,60,0,0,0,250,250,0,,,,,,,,,,,,
374210,1560684538974,3,2.25,2.0,3.24,1.85,3.0,0.71,-0.12,0.27,3,7,-1,0.72,7760,23,76,31,39,967,0.0,633,457,60,122.0,0,1,310,209,60,0,0,0,250,250,0,,,,,,,,,,,,
374230,1560684538994,1,2.25,2.01,3.24,1.85,3.01,0.67,-0.1,0.26,3,5,0,0.68,7770,23,76,31,39,974,0.0,625,455,60,121.0,0,1,310,209,60,0,0,0,250,250,0,45.700375,4.90939,0.0,194.3,0,0.0,0,0.0,0.9517,1,0.0,6.2372
374250,1560684539006,5,2.24,2.01,3.23,1.85,3.0,0.52,-0.07,0.26,3,5,-0,0.52,7815,23,76,31,39,977,0.0,638,458,60,121.0,0,1,310,209,61,0,0,0,250,250,0,,,,,,,,,,,,
374270,1560684539026,20,2.24,2.01,3.24,1.85,3.0,0.47,-0.08,0.35,4,6,-0,0.48,7858,23,76,31,39,980,0.0,640,456,60,122.0,0,1,310,209,61,0,0,0,250,250,0,,,,,,,,,,,,
374290,1560684539046,0,2.24,2.01,3.23,1.86,2.99,0.56,-0.11,0.34,3,5,0,0.57,7861,23,76,31,39,983,0.0,630,456,60,122.0,0,1,310,209,61,0,0,0,250,250,0,,,,,,,,,,,,
374310,1560684539066,3,2.25,2.01,3.23,1.85,2.99,0.62,-0.1,0.37,3,4,-1,0.63,7914,24,76,31,39,984,0.0,643,459,60,121.0,0,1,310,209,61,0,0,0,250,250,0,,,,,,,,,,,,
374330,1560684539094,5,2.24,2.01,3.23,1.86,3.0,0.58,-0.05,0.4,3,2,0,0.59,7958,24,76,31,39,983,0.0,639,458,60,120.0,0,1,310,209,61,0,0,0,250,250,0,45.700375,4.90939,0.0,194.3,0,0.0,0,0.0,0.955,1,0.0,6.2388
374350,1560684539114,0,2.25,2.01,3.23,1.86,3.0,0.64,-0.16,0.5,3,2,-0,0.66,7955,24,76,31,38,981,0.0,636,452,60,122.0,0,1,307,203,61,0,0,0,250,250,0,,,,,,,,,,,,
374370,1560684539134,1,2.25,2.0,3.22,1.85,2.99,0.73,-0.14,0.57,2,0,-1,0.74,8012,24,76,31,38,981,0.0,638,455,60,122.0,0,1,307,204,61,0,0,0,250,250,0,,,,,,,,,,,,
374390,1560684539154,4,2.25,2.02,3.23,1.86,3.0,0.71,-0.12,0.54,2,-1,-0,0.72,8026,24,76,31,38,981,0.0,645,458,60,120.0,0,1,307,204,61,0,0,0,250,250,0,,,,,,,,,,,,
374410,1560684539174,-1,2.25,2.01,3.23,1.86,2.99,0.75,-0.22,0.63,2,-2,-0,0.78,8026,24,76,31,38,983,0.0,647,456,60,122.0,0,1,307,204,61,0,0,0,250,250,0,,,,,,,,,,,,
374430,1560684539194,1,2.25,2.01,3.23,1.85,2.99,0.79,-0.16,0.67,2,-2,-1,0.81,8054,24,76,31,38,983,0.0,646,460,60,121.0,0,1,307,204,61,0,0,0,250,250,0,45.700375,4.90939,0.0,194.3,0,0.0,0,0.0,0.9567,1,0.0,6.2405
374450,1560684539214,3,2.25,2.01,3.23,1.86,2.99,0.74,-0.14,0.61,2,-3,-1,0.75,8095,25,76,31,38,981,0.0,637,459,60,121.0,0,1,308,204,62,0,0,0,250,250,0,,,,,,,,,,,,
374470,1560684539234,0,2.24,2.01,3.24,1.86,3.0,0.77,-0.19,0.62,2,-2,-1,0.8,8092,25,76,31,38,980,0.0,631,455,60,122.0,0,1,308,204,62,0,0,0,250,250,0,,,,,,,,,,,,
374490,1560684539254,4,2.25,2.01,3.23,1.86,2.99,0.77,-0.13,0.59,2,-2,-0,0.78,8095,25,76,31,38,978,0.0,650,456,60,121.0,0,1,308,198,62,0,0,0,250,250,0,,,,,,,,,,,,
374510,1560684539274,-2,2.25,2.01,3.24,1.85,3.0,0.72,-0.13,0.6,2,-2,-0,0.73,8148,25,76,31,38,975,0.0,640,457,60,122.0,0,1,309,204,62,0,0,0,250,250,0,,,,,,,,,,,,
374530,1560684539294,1,2.25,2.01,3.23,1.86,3.0,0.78,-0.08,0.59,2,-3,-0,0.79,8102,25,76,31,37,972,0.0,637,455,60,122.0,0,1,306,204,62,0,0,0,250,250,0,45.700375,4.90939,0.0,194.3,0,0.0,0,0.0,0.9583,1,0.0,6.2422
374550,1560684539314,6,2.25,2.02,3.23,1.85,3.0,0.72,-0.06,0.6,2,-2,-0,0.72,8081,25,76,31,38,969,0.0,641,457,60,121.0,0,1,308,204,61,0,0,0,250,250,0,,,,,,,,,,,,
374570,1560684539334,1,2.26,2.01,3.23,1.85,3.0,0.73,-0.11,0.62,2,-1,-1,0.73,8088,25,76,31,38,968,0.0,637,458,60,122.0,0,1,308,204,61,0,0,0,250,250,0,,,,,,,,,,,,
374590,1560684539354,2,2.26,2.02,3.22,1.86,2.99,0.7,-0.05,0.57,2,-1,-0,0.7,8009,25,76,31,38,967,0.0,645,455,60,121.0,0,1,307,204,61,0,0,0,250,250,0,,,,,,,,,,,,
374610,1560684539374,5,2.26,2.02,3.23,1.86,2.99,0.58,-0.06,0.65,2,-0,-0,0.59,7928,25,76,31,38,970,0.0,647,459,60,121.0,0,1,307,203,61,0,0,0,250,250,0,,,,,,,,,,,,
374630,1560684539393,1,2.26,2.02,3.22,1.87,2.99,0.62,-0.11,0.68,2,-0,-1,0.63,7891,25,76,31,38,974,0.0,634,457,60,122.0,0,1,307,203,61,0,0,0,250,250,0,45.700375,4.90939,0.0,194.3,0,0.0,0,0.0,0.96,1,0.0,6.2438
374650,1560684539413,2,2.25,2.04,3.22,1.86,2.98,0.7,-0.07,0.69,1,-2,-0,0.71,7735,25,76,31,39,977,0.0,638,458,60,122.0,0,1,310,209,61,0,0,0,250,250,0,,,,,,,,,,,,
374670,1560684539433,2,2.26,2.05,3.22,1.88,2.98,0.69,-0.02,0.78,1,-2,-2,0.69,7594,25,76,31,40,982,0.0,626,457,60,122.0,0,1,317,210,61,0,0,0,250,250,0,,,,,,,,,,,,
374690,1560684539453,-0,2.26,2.07,3.19,1.9,2.96,0.71,0.01,0.76,1,-2,-1,0.71,7355,25,76,31,41,988,0.0,616,454,60,121.0,0,1,325,211,61,0,0,0,250,250,0,,,,,,,,,,,,
374710,1560684539473,-0,2.25,2.1,3.18,1.93,2.94,0.74,0.01,0.81,0,-0,-0,0.74,7110,25,76,31,42,994,0.0,618,453,60,122.0,0,1,332,213,61,0,0,0,250,250,0,,,,,,,,,,,,
374730,1560684539493,4,2.26,2.12,3.17,1.96,2.93,0.85,-0.09,0.92,-0,-2,-0,0.85,6791,25,76,31,43,997,0.0,637,461,60,121.0,0,1,338,214,61,0,0,0,250,250,0,45.700375,4.90939,0.0,194.3,0,0.0,0,0.0,0.9617,1,0.0,6.2455
374750,1560684539513,-0,2.26,2.14,3.15,1.98,2.91,0.65,-0.0,0.77,1,-2,-1,0.65,6524,25,76,31,45,1000,0.0,601,455,60,122.0,0,1,351,217,54,0,0,0,250,250,0,,,,,,,,,,,,
374770,1560684539533,-2,2.27,2.16,3.15,2.0,2.91,0.66,-0.08,0.76,-0,-0,-1,0.66,6262,26,76,31,47,1000,0.0,580,455,60,121.0,0,1,362,219,54,0,0,0,250,250,0,,,,,,,,,,,,
374790,1560684539553,-0,2.26,2.17,3.14,2.03,2.91,0.74,-0.06,0.77,-0,0,-2,0.74,5992,26,76,31,49,1000,0.0,552,453,60,122.0,0,1,365,229,54,0,0,17,250,250,0,,,,,,,,,,,,
374810,1560684539573,-1,2.28,2.18,3.14,2.04,2.9,0.84,-0.02,0.75,1,-1,-2,0.84,5714,26,76,31,51,999,0.0,532,449,60,123.0,0,1,352,237,54,0,0,17,250,250,0,,,,,,,,,,,,
374830,1560684539593,4,2.28,2.19,3.14,2.04,2.91,0.92,0.08,0.72,-0,-0,-2,0.92,5447,26,76,31,53,997,22.0,511,447,60,123.0,0,1,335,242,54,0,0,17,-1,5442,22,45.700371,4.909386,1.91,200.8,0,0.0,0,0.0,0.9633,1,0.0,6.2472
374850,1560684539613,-2,2.28,2.2,3.15,2.04,2.92,0.78,0.01,0.78,-1,2,-2,0.78,5202,26,76,31,57,993,22.0,478,467,60,122.0,2227,1,315,251,49,0,0,17,-1,5442,22,,,,,,,,,,,,
374870,1560684539633,1,2.28,2.2,3.14,2.04,2.91,0.76,-0.0,0.74,-1,-1,-1,0.76,4810,26,76,31,60,989,22.0,462,452,60,120.0,2227,1,296,262,49,0,0,32,-1,5442,22,,,,,,,,,,,,
374890,1560684539653,1,2.29,2.19,3.14,2.05,2.91,0.72,0.06,0.75,-0,0,-1,0.72,4478,27,76,31,62,986,36.0,421,451,60,122.0,2227,1,293,271,49,0,0,32,-1,5442,36,,,,,,,,,,,,
374910,1560684539673,-0,2.29,2.2,3.14,2.04,2.9,0.72,0.05,0.76,0,-2,1,0.72,4243,28,76,31,65,984,36.0,391,448,60,120.0,2227,1,293,284,49,0,0,32,-1,-1,36,,,,,,,,,,,,
374930,1560684539693,0,2.28,2.2,3.15,2.04,2.91,0.71,0.04,0.79,0,-3,1,0.71,4089,30,76,31,68,987,36.0,374,462,60,123.0,2227,1,297,298,49,0,0,43,-1,-1,36,45.700371,4.909386,3.48,200.8,0,0.0,0,0.0,0.965,1,0.0,6.2488
374950,1560684539713,2,2.28,2.2,3.14,2.03,2.9,0.68,0.03,0.8,0,-1,-0,0.68,3888,32,76,31,70,993,46.0,348,452,60,122.0,1222,1,285,295,44,0,0,43,-1,-1,46,,,,,,,,,,,,
